timepoint,stationcode,longitude,latitude,area,positionname,primarypollutant,aqi,pm10,pm10_24h,pm2_5,pm2_5_24h,o3,o3_24h,o3_8h,o3_8h_24h,no2,no2_24h,so2,so2_24h,co,co_24h
2025-03-28T1300,2566A,102.1879,31.914,阿坝藏族羌族自治州,州农科所,,28,26,28,3,10,87,,58,58,5,12,11,11,0.2,0.2
2025-03-28T1300,2568A,102.2502,31.8896,阿坝藏族羌族自治州,马师校,,35,26,27,12,15,109,,60,60,8,17,4,4,0.4,0.3
2025-03-28T1300,3994A,102.2165,31.9024,阿坝藏族羌族自治州,马尔康中学西区,,36,24,23,9,11,113,,71,71,9,12,6,5,0.4,0.3
2025-03-28T1300,2695A,80.292,41.1694,阿克苏地区,电视台,颗粒物(PM10),500,813,1181,163,226,75,,71,69,6,5,6,3,0.3,0.3
2025-03-28T1300,2696A,80.2613,41.1551,阿克苏地区,艺术中心,颗粒物(PM10),500,852,1372,159,258,70,,70,63,10,8,3,4,0.6,0.6
2025-03-28T1300,2204A,105.6467,38.8363,阿拉善盟,西城区西花园,,42,42,250,8,65,94,,88,88,6,7,8,8,0.5,0.5
2025-03-28T1300,2205A,105.6985,38.8411,阿拉善盟,蒙二幼,,27,22,304,6,69,84,,82,81,4,5,5,5,0.7,0.6
2025-03-28T1300,2206A,105.724,38.8516,阿拉善盟,环保局新楼,,28,20,286,6,66,87,,85,85,3,3,7,7,0.6,0.5
2025-03-28T1300,2708A,88.1264,47.8517,阿勒泰地区,市站,,27,22,9,3,4,84,,85,85,5,3,4,2,0.4,0.4
2025-03-28T1300,2630A,80.1161,32.5,阿里地区,阿里监测站,,38,38,13,8,8,121,,111,111,1,2,5,7,0.4,0.4
2025-03-28T1300,3192A,80.0903,32.5028,阿里地区,阿里藏医院,颗粒物(PM10),76,102,18,11,5,118,,110,110,1,1,6,6,0.4,0.4
2025-03-28T1300,2642A,109.0318,32.6537,安康市,香溪洞,,31,31,104,20,40,70,,65,58,3,6,6,7,0.9,0.7
2025-03-28T1300,2644A,109.0072,32.6975,安康市,汉滨区检察院,颗粒物(PM10),54,58,146,26,48,75,,71,63,5,8,7,9,0.3,0.3
2025-03-28T1300,4054A,109.0325,32.6913,安康市,市邮政管理局,颗粒物(PM10),54,58,148,19,41,77,,70,63,5,8,5,14,0.3,0.3
2025-03-28T1300,2291A,117.0809,30.5177,安庆市,环科院,,41,41,127,22,30,71,,67,67,12,14,6,8,0.4,0.4
2025-03-28T1300,2292A,117.0331,30.5119,安庆市,马山宾馆,,34,34,125,21,27,73,,67,67,10,11,2,3,0.2,0.3
2025-03-28T1300,2294A,116.9896,30.6145,安庆市,安庆大学,颗粒物(PM10),52,53,160,20,26,81,,76,76,9,10,3,4,0.1,0.2
2025-03-28T1300,3173A,117.0598,30.5351,安庆市,市人大,颗粒物(PM10),61,71,142,19,28,72,,66,66,9,10,5,7,0.4,0.5
2025-03-28T1300,3122A,105.9606,26.2611,安顺市,伍家关,颗粒物(PM10),72,94,63,47,47,79,,107,94,8,8,4,10,0.7,0.7
2025-03-28T1300,3123A,105.9408,26.2431,安顺市,凤凰山,细颗粒物(PM2.5),72,89,64,52,47,80,,120,99,10,11,6,9,0.3,0.4
2025-03-28T1300,3124A,105.9439,26.2564,安顺市,金钟山,,,91,59,48,46,80,,123,101,10,10,4,8,,0.6
2025-03-28T1300,3125A,105.8983,26.2481,安顺市,娄家坡,颗粒物(PM10),77,104,72,52,51,80,,126,102,12,12,6,9,0.6,0.6
2025-03-28T1300,1818A,114.4839,36.0621,安阳市,棉研所,,,,,,,,,,,,,,,,
2025-03-28T1300,1819A,114.3551,36.1017,安阳市,红庙街,,,149,267,27,57,79,,68,68,2,10,,4,0.4,0.5
2025-03-28T1300,1820A,114.361,36.0681,安阳市,银杏小区,颗粒物(PM10),97,144,237,38,50,88,,78,78,4,11,1,2,0.3,0.4
2025-03-28T1300,3141A,114.3922,36.0878,安阳市,信访局,颗粒物(PM10),94,138,254,27,49,89,,80,80,3,11,5,4,0.3,0.5
2025-03-28T1300,3669A,114.4705,36.0637,安阳市,左辅环卫站,颗粒物(PM10),91,132,252,37,49,92,,90,90,2,8,5,4,0.4,0.2
2025-03-28T1300,3703A,114.2917,36.0949,安阳市,安钢职工学校,颗粒物(PM10),101,152,300,33,60,82,,75,75,6,13,5,3,0.7,0.7
2025-03-28T1300,1748A,123.044,41.1196,鞍山市,深沟寺,,27,19,33,9,12,84,,69,69,1,9,9,12,0.5,0.6
2025-03-28T1300,1749A,123.011,41.0931,鞍山市,太阳城,,27,21,33,10,10,86,,71,71,5,14,10,10,0.6,0.8
2025-03-28T1300,1750A,123.0485,41.1442,鞍山市,太平,,26,26,47,10,14,78,,64,64,6,13,7,12,0.8,0.9
2025-03-28T1300,1751A,122.9642,41.0971,鞍山市,铁西三道街,,27,22,38,10,11,84,,71,71,8,19,6,16,0.5,1
2025-03-28T1300,1753A,123.022,41.0821,鞍山市,明达新区,,25,20,29,11,11,80,,70,70,6,11,12,8,0.6,0.4
2025-03-28T1300,1754A,123.1289,41.0228,鞍山市,千山,,,,46,,10,,,71,,,12,,5,,0.6
2025-03-28T1300,4201A,122.9446,41.0826,鞍山市,兴盛南路290号,,26,20,38,9,12,82,,61,61,11,22,8,13,0.3,0.6
2025-03-28T1300,2195A,107.4212,40.761,巴彦淖尔市,附二中,,,,108,15,26,87,,80,80,4,6,8,6,0.3,0.2
2025-03-28T1300,2196A,107.37,40.7372,巴彦淖尔市,市环保大楼,,33,25,75,23,35,88,,82,82,4,4,7,5,0.0,0.1
2025-03-28T1300,1956A,86.1472,41.7538,巴音郭楞蒙古自治州,孔雀公园,颗粒物(PM10),118,186,195,23,33,80,,75,75,8,11,4,4,0.3,0.3
2025-03-28T1300,1957A,86.1972,41.7166,巴音郭楞蒙古自治州,棉纺厂,颗粒物(PM10),103,156,218,18,27,81,,70,70,8,13,2,3,0.3,0.3
2025-03-28T1300,1958A,86.2357,41.7173,巴音郭楞蒙古自治州,经济开发区,颗粒物(PM10),85,120,181,14,27,91,,80,80,3,5,3,4,0.1,0.2
2025-03-28T1300,2914A,106.7677,31.8794,巴中市,苏山坪,颗粒物(PM10),57,64,208,18,58,86,,92,89,4,5,2,2,0.3,0.2
2025-03-28T1300,3181A,106.7768,31.8526,巴中市,市五中,颗粒物(PM10),65,80,208,19,50,78,,86,77,9,8,4,4,0.4,0.4
2025-03-28T1300,3183A,106.7418,31.8654,巴中市,圣泉水务公司,颗粒物(PM10),61,72,207,17,50,88,,93,89,6,6,5,6,0.4,0.4
2025-03-28T1300,3616A,106.7616,31.8344,巴中市,市中心医院,颗粒物(PM10),64,78,215,25,67,82,,89,84,6,7,7,7,0.4,0.4
2025-03-28T1300,2235A,122.7911,45.6077,白城市,洮北区环保局,,27,27,27,18,18,82,,72,72,6,10,4,4,0.3,0.4
2025-03-28T1300,2236A,122.8738,45.5725,白城市,市环保局,,26,19,17,15,12,83,,72,72,1,5,6,5,0.2,0.3
2025-03-28T1300,2231A,126.4219,41.9171,白山市,喜丰,,26,20,33,10,12,82,,76,76,7,10,5,5,0.8,0.7
2025-03-28T1300,2232A,126.4077,41.9419,白山市,环保局,,39,39,42,10,12,86,,80,80,10,12,2,4,0.5,0.6
2025-03-28T1300,2647A,104.1724,36.5446,白银市,第三小学,颗粒物(PM10),79,108,125,28,35,90,,80,80,4,4,95,14,0.2,0.1
2025-03-28T1300,2648A,104.1465,36.5482,白银市,动力公司,颗粒物(PM10),78,106,111,32,28,88,,75,75,6,6,18,4,0.4,0.3
2025-03-28T1300,2512A,106.6103,23.9011,百色市,市监测站,细颗粒物(PM2.5),85,104,91,63,62,111,,74,56,14,18,14,16,1.1,1
2025-03-28T1300,2513A,106.6538,23.8859,百色市,市中心血站,细颗粒物(PM2.5),92,117,94,68,70,114,,80,58,10,17,14,17,1.0,1
2025-03-28T1300,3406A,106.6085,23.8798,百色市,祈福高中,细颗粒物(PM2.5),92,127,97,68,62,103,,43,38,13,24,11,13,1.1,1.1
2025-03-28T1300,2270A,117.396,32.939,蚌埠市,工人疗养院,颗粒物(PM10),89,127,149,29,32,76,,76,72,9,10,3,4,0.4,0.4
2025-03-28T1300,2271A,117.3605,32.9427,蚌埠市,百货大楼,颗粒物(PM10),92,134,145,32,31,72,,71,68,16,17,5,5,0.3,0.3
2025-03-28T1300,2273A,117.4185,32.8911,蚌埠市,蚌埠学院,颗粒物(PM10),90,129,137,31,29,79,,72,69,8,10,3,3,0.4,0.4
2025-03-28T1300,2274A,117.3533,32.9673,蚌埠市,淮上区政府,颗粒物(PM10),93,136,139,35,33,77,,74,74,10,13,4,4,0.2,0.3
2025-03-28T1300,2275A,117.3145,32.8977,蚌埠市,高新区,颗粒物(PM10),92,134,137,36,32,74,,72,68,13,14,4,8,0.4,0.3
2025-03-28T1300,3715A,117.3092,32.9314,蚌埠市,蚌埠田家炳中学,颗粒物(PM10),97,143,153,28,32,75,,73,71,18,20,4,5,0.3,0.3
2025-03-28T1300,1585A,109.8756,40.6532,包头市,市环境监测站,,36,,89,25,24,87,,86,83,6,9,9,10,0.2,0.4
2025-03-28T1300,1587A,109.9991,40.5842,包头市,包头八中,,42,42,91,7,19,86,,84,81,6,8,7,7,0.4,0.4
2025-03-28T1300,1588A,109.8538,40.6821,包头市,青山宾馆,,27,20,83,7,17,85,,84,81,4,5,8,7,0.4,0.4
2025-03-28T1300,1589A,109.8642,40.6288,包头市,惠龙物流,,28,18,78,17,22,89,,88,85,7,9,6,7,0.4,0.5
2025-03-28T1300,1590A,110.0377,40.5546,包头市,东河鸿龙湾,,,22,73,3,10,84,,83,79,,8,,8,0.5,0.5
2025-03-28T1300,3283A,109.9154,40.5685,包头市,滨河大厦,,28,16,68,6,14,87,,82,82,2,6,9,9,1.0,0.9
2025-03-28T1300,3419A,109.9447,40.6261,包头市,包头市委党校,,40,40,92,3,15,86,,83,81,4,6,6,6,0.6,0.5
2025-03-28T1300,3683A,109.8331,40.6576,包头市,昆区政府,,27,14,80,3,17,85,,84,81,7,12,6,7,0.3,0.5
2025-03-28T1300,1930A,107.185,34.3063,宝鸡市,庙沟村,颗粒物(PM10),107,163,156,48,46,86,,76,76,4,9,6,7,0.2,0.3
2025-03-28T1300,1931A,107.0708,34.3017,宝鸡市,竹园沟,颗粒物(PM10),130,210,157,51,45,88,,72,72,4,7,6,6,0.3,0.3
2025-03-28T1300,1932A,107.1906,34.3672,宝鸡市,三陆医院,颗粒物(PM10),128,206,168,57,51,84,,69,69,3,16,3,4,0.2,0.4
2025-03-28T1300,1933A,107.1431,34.3547,宝鸡市,监测站,颗粒物(PM10),130,209,173,56,48,84,,66,66,2,10,6,7,0.5,0.5
2025-03-28T1300,1934A,107.1186,34.3739,宝鸡市,技工学校,颗粒物(PM10),139,228,155,60,45,82,,64,64,7,12,4,6,0.3,0.3
2025-03-28T1300,1935A,107.3906,34.3528,宝鸡市,陈仓区环保局家属楼,颗粒物(PM10),95,140,163,46,55,83,,65,65,7,16,6,6,0.3,0.3
2025-03-28T1300,1936A,107.2058,34.3497,宝鸡市,文理学院,颗粒物(PM10),112,173,161,49,47,80,,68,68,5,8,4,5,,0.3
2025-03-28T1300,1937A,107.2386,34.3622,宝鸡市,三迪小学,颗粒物(PM10),124,197,164,52,55,84,,72,72,7,15,5,7,0.4,0.4
2025-03-28T1300,1051A,115.493,38.8632,保定市,游泳馆,,46,46,60,17,15,90,,75,75,10,11,3,3,0.3,0.2
2025-03-28T1300,1052A,115.5213,38.8959,保定市,华电二区,,37,37,53,16,19,94,,76,76,4,6,2,3,3.5,1.3
2025-03-28T1300,1053A,115.4713,38.9108,保定市,接待中心,,42,42,69,21,25,89,,,,7,6,4,2,0.3,0.1
2025-03-28T1300,1054A,115.4612,38.8416,保定市,地表水厂,颗粒物(PM10),52,53,71,19,19,92,,79,79,11,13,2,3,0.3,0.2
2025-03-28T1300,3581A,115.31981,38.95208,保定市,满城区生态环境分局,,39,39,64,19,18,88,,74,74,15,12,2,2,0.1,0.2
2025-03-28T1300,3582A,115.47694,38.76408,保定市,清苑区第二中学,颗粒物(PM10),64,77,81,13,17,93,,80,80,8,10,2,2,0.4,0.2
2025-03-28T1300,3583A,115.62909,39.02311,保定市,徐水物探局,,,62,46,9,13,92,,75,75,6,11,,4,0.3,0.2
2025-03-28T1300,4004A,115.4202,38.8656,保定市,双鹰农机,,40,40,66,18,22,94,,78,78,6,7,3,2,0.3,0.2
2025-03-28T1300,4034A,115.5150,38.8590,保定市,植保所站,,40,40,57,19,24,93,,77,77,3,5,3,2,0.4,0.3
2025-03-28T1300,2594A,99.1678,25.1081,保山市,市环境监测站,细颗粒物(PM2.5),80,84,62,59,40,166,,102,98,9,12,6,5,0.6,0.5
2025-03-28T1300,2595A,99.1711,25.1328,保山市,市环保局,颗粒物(PM10),81,111,65,52,40,177,,120,120,8,8,5,4,0.7,0.6
2025-03-28T1300,1866A,109.2262,21.588,北海市,牛尾岭水库,,,43,33,32,22,56,,32,32,,8,6,6,0.5,0.5
2025-03-28T1300,1867A,109.1436,21.4086,北海市,海滩公园,,37,37,44,20,21,63,,36,36,6,14,6,6,0.5,0.6
2025-03-28T1300,1868A,109.0981,21.4661,北海市,新市环保局,颗粒物(PM10),51,51,44,34,25,49,,27,27,16,19,4,5,0.7,0.7
2025-03-28T1300,1869A,109.1778,21.5233,北海市,北海工业园,"颗粒物(PM10),细颗粒物(PM2.5)",53,55,56,37,28,57,,31,31,12,16,10,10,0.5,0.5
2025-03-28T1300,3400A,109.1911,21.4415,北海市,龙潭自来水厂,,43,43,45,28,32,61,,33,33,6,13,6,6,0.5,0.5
2025-03-28T1300,1001A,116.3621,39.8784,北京市,万寿西宫,,31,31,28,14,10,88,,83,83,11,9,3,3,0.2,0.2
2025-03-28T1300,1002A,116.2202,40.2915,北京市,定陵,,,,,,,,,,,,,,,,
2025-03-28T1300,1003A,116.4174,39.9289,北京市,东四,,31,31,28,18,14,85,,77,77,7,9,3,3,0.2,0.2
2025-03-28T1300,1004A,116.4072,39.8863,北京市,天坛,,28,28,30,13,11,83,,78,78,10,9,1,2,0.4,0.4
2025-03-28T1300,1005A,116.462,39.9365,北京市,农展馆,,31,31,27,16,12,85,,79,79,6,8,6,6,0,0
2025-03-28T1300,1006A,116.3392,39.9295,北京市,官园,,33,33,27,16,11,76,,63,63,8,12,5,5,0.4,0.4
2025-03-28T1300,1007A,116.2878,39.9611,北京市,海淀万柳,,32,32,27,18,11,71,,57,57,10,19,3,3,0.4,0.4
2025-03-28T1300,1008A,116.6636,40.135,北京市,顺义新城,,29,28,25,15,11,90,,83,83,5,6,5,5,0.2,0.1
2025-03-28T1300,1009A,116.6275,40.3275,北京市,怀柔镇,,27,20,24,10,11,85,,69,69,2,4,2,3,0.2,0.2
2025-03-28T1300,1010A,116.2296,40.217,北京市,昌平镇,,38,38,26,21,13,83,,78,77,8,4,2,1,0.5,0.5
2025-03-28T1300,1011A,116.3966,39.9821,北京市,奥体中心,,27,27,25,18,12,82,,68,68,9,15,3,3,0.5,0.4
2025-03-28T1300,3281A,115.9718,40.4529,北京市,延庆夏都,,29,23,22,12,12,91,,71,71,2,6,5,5,0.4,0.4
2025-03-28T1300,3418A,116.8336,40.4095,北京市,密云新城,,26,24,21,13,9,82,,77,75,3,2,3,3,0.4,0.4
2025-03-28T1300,3671A,116.088,39.9726,北京市,门头沟三家店,,31,31,27,14,11,81,,56,56,4,22,4,4,0.3,0.3
2025-03-28T1300,3672A,116.1541,39.8204,北京市,丰台云岗,,38,38,29,14,11,85,,68,68,5,10,5,4,0.3,0.4
2025-03-28T1300,3673A,116.6804,39.9081,北京市,通州东关,,36,36,29,19,12,82,,74,74,10,10,5,4,0.4,0.4
2025-03-28T1300,3674A,115.9577,39.7603,北京市,房山燕山,,35,35,27,20,11,80,,78,76,6,5,6,4,0.2,0.2
2025-03-28T1300,3675A,116.4672,39.7733,北京市,大兴旧宫,,39,39,33,17,12,76,,66,66,9,10,3,3,0.3,0.3
2025-03-28T1300,3694A,115.986,40.4563,北京市,延庆石河营,,29,22,23,13,12,91,,62,62,2,8,4,4,0.3,0.3
2025-03-28T1300,3695A,116.6151,40.3053,北京市,怀柔新城,,27,20,23,12,10,86,,72,72,2,3,4,4,0.4,0.4
2025-03-28T1300,3696A,116.2545,39.8768,北京市,丰台小屯,,31,31,30,17,13,79,,69,69,7,14,2,1,0.2,0.2
2025-03-28T1300,3697A,116.84,40.3844,北京市,密云镇,,28,22,23,13,9,88,,80,79,3,4,3,5,0.3,0.3
2025-03-28T1300,4182A,116.1942,39.9158,北京市,八角北路9号,,32,32,27,16,11,82,,70,70,4,11,2,2,0.2,0.2
2025-03-28T1300,4194A,117.0790,40.1518,北京市,洳河巡河路,,29,19,22,11,11,90,,83,83,2,3,2,2,0.3,0.3
2025-03-28T1300,1761A,123.8275,41.3064,本溪市,大峪,,34,34,36,14,15,87,,75,75,5,7,9,9,0.5,0.5
2025-03-28T1300,1762A,123.7567,41.3325,本溪市,溪湖,,36,36,44,13,11,88,,73,73,15,15,10,9,0.5,0.5
2025-03-28T1300,1763A,123.7169,41.3094,本溪市,彩屯,,35,35,49,14,15,92,,76,76,10,20,9,9,0.5,0.6
2025-03-28T1300,1764A,123.7669,41.2864,本溪市,东明,,43,43,52,15,17,88,,71,71,10,16,10,9,0.5,0.5
2025-03-28T1300,1765A,123.7992,41.2664,本溪市,新立屯,,39,39,45,13,12,91,,76,76,11,18,8,7,0.3,0.3
2025-03-28T1300,1766A,123.8142,41.3472,本溪市,威宁,,40,40,60,7,14,86,,59,59,6,21,6,4,0.4,0.5
2025-03-28T1300,2587A,105.2864,27.3125,毕节市,八中,颗粒物(PM10),148,245,154,86,63,80,,107,78,,9,,11,0.4,0.5
2025-03-28T1300,2588A,105.31,27.2944,毕节市,师专,颗粒物(PM10),146,242,154,76,56,88,,113,83,8,10,7,8,0.5,0.5
2025-03-28T1300,4263A,105.3688,27.3598,毕节市,工业大道,颗粒物(PM10),167,284,181,87,66,87,,111,82,9,11,9,10,0.5,0.6
2025-03-28T1300,1629A,118.0018,37.3617,滨州市,第二水厂,,48,48,63,12,21,88,,70,70,8,18,7,8,0.3,0.4
2025-03-28T1300,1630A,117.9776,37.393,滨州市,北中新校,颗粒物(PM10),53,56,63,12,24,97,,80,80,5,16,9,10,0.2,0.3
2025-03-28T1300,3514A,117.9378,37.3956,滨州市,中海酒店,,49,44,50,34,26,98,,82,82,7,15,6,7,0.3,0.4
2025-03-28T1300,3515A,117.9378,37.3553,滨州市,开发区一中,颗粒物(PM10),56,61,68,14,21,92,,72,72,12,23,8,10,0.2,0.3
2025-03-28T1300,3516A,118.0917,37.694,滨州市,金海六路,,46,46,55,3,19,97,,75,75,12,23,9,11,0.5,0.6
2025-03-28T1300,4028A,117.9956,37.3753,滨州市,滨州市西街道办事处,,46,46,58,12,27,98,,81,81,7,17,5,6,0.3,0.4
2025-03-28T1300,2311A,115.8072,33.8399,亳州市,污水处理厂,颗粒物(PM10),403,503,186,69,35,77,,54,54,10,11,3,3,0.2,0.2
2025-03-28T1300,2312A,115.7789,33.8518,亳州市,三国揽胜宫,颗粒物(PM10),332,445,163,77,35,71,,48,48,8,9,4,3,0.2,0.2
2025-03-28T1300,3332A,115.7633,33.8034,亳州市,亳州学院,颗粒物(PM10),359,467,169,67,32,72,,50,50,6,9,3,4,0.3,0.3
2025-03-28T1300,2693A,82.0485,44.8556,博尔塔拉蒙古自治州,市党校,,33,33,44,16,16,88,,83,77,15,17,2,2,0.6,0.5
2025-03-28T1300,2694A,82.0806,44.8969,博尔塔拉蒙古自治州,市环保局,,48,48,61,18,12,107,,102,102,19,16,7,4,0.4,0.5
2025-03-28T1300,1071A,116.8842,38.2991,沧州市,沧县城建局,颗粒物(PM10),58,65,57,29,27,89,,58,58,11,22,4,5,0.2,0.2
2025-03-28T1300,1072A,116.8584,38.3254,沧州市,电视转播站,颗粒物(PM10),58,65,53,27,22,96,,54,54,12,24,2,5,0.3,0.4
2025-03-28T1300,1073A,116.8709,38.3228,沧州市,市环保局,颗粒物(PM10),57,63,54,27,28,90,,60,60,10,22,9,10,0.3,0.3
2025-03-28T1300,3324A,116.8136,38.3004,沧州市,河北水利电力学院,颗粒物(PM10),57,63,55,23,26,90,,57,57,15,25,3,6,0.1,0.3
2025-03-28T1300,2622A,97.1806,31.1273,昌都市,昌都监测站,,30,20,24,3,10,96,,59,59,5,12,7,7,0.1,0.3
2025-03-28T1300,3719A,97.1714,31.1406,昌都市,昌都会议中心,,27,17,22,7,9,85,,70,70,8,7,4,3,0.2,0.2
2025-03-28T1300,2690A,88.1236,43.8886,昌吉回族自治州,天山天池,颗粒物(PM10),58,65,24,20,7,90,,81,81,6,5,6,5,0.5,0.4
2025-03-28T1300,2692A,87.2717,44.0297,昌吉回族自治州,新区政务中心,颗粒物(PM10),87,124,38,23,6,65,,46,46,12,15,11,9,0.8,0.6
2025-03-28T1300,3613A,87.3095,44.0142,昌吉回族自治州,亚心广场,颗粒物(PM10),104,158,48,34,10,67,,47,47,7,10,11,7,0.6,0.4
2025-03-28T1300,1119A,125.3325,43.9166,长春市,食品厂,,27,24,36,10,14,84,,67,67,9,17,6,6,0.2,0.3
2025-03-28T1300,1120A,125.2863,43.9027,长春市,客车厂,,25,17,31,7,13,79,,62,62,8,17,4,5,0.3,0.3
2025-03-28T1300,1121A,125.2841,43.8463,长春市,邮电学院,,27,23,34,8,14,85,,68,68,2,8,6,6,0.2,0.3
2025-03-28T1300,1122A,125.3716,43.8772,长春市,劳动公园,,27,21,27,6,10,85,,68,68,2,9,6,6,0.0,0.1
2025-03-28T1300,1123A,125.3297,43.8805,长春市,园林处,,27,16,29,13,12,84,,68,68,3,10,6,7,0.2,0.2
2025-03-28T1300,1124A,125.4605,43.79,长春市,净月潭,,26,16,28,7,9,83,,67,67,3,9,6,6,0.3,0.3
2025-03-28T1300,1125A,125.7194,43.515,长春市,甩湾子,,28,,28,11,15,89,,72,72,1,8,2,2,0.3,0.4
2025-03-28T1300,1126A,125.3863,43.8447,长春市,经开区环卫处,,26,18,30,9,11,82,,63,63,4,14,4,9,0.2,0.2
2025-03-28T1300,1127A,125.245,43.7783,长春市,高新区管委会,,26,21,27,6,11,81,,67,67,6,14,7,8,0.2,0.3
2025-03-28T1300,1128A,125.1761,43.8325,长春市,岱山公园,,27,21,28,13,12,86,,73,73,5,14,5,4,0.3,0.4
2025-03-28T1300,1335A,113.0833,28.2325,长沙市,经开区环保局,颗粒物(PM10),74,98,122,21,27,72,,72,72,11,13,4,5,0.2,0.3
2025-03-28T1300,1336A,112.8872,28.2189,长沙市,高开区环保局,颗粒物(PM10),67,84,129,20,25,69,,75,75,6,8,4,5,0.3,0.4
2025-03-28T1300,1337A,113.0792,28.2053,长沙市,马坡岭,颗粒物(PM10),75,100,129,26,33,67,,68,68,7,8,4,5,0.3,0.4
2025-03-28T1300,1338A,112.9394,28.19,长沙市,湖南师范大学,颗粒物(PM10),74,97,127,26,32,68,,70,70,9,11,4,5,0.4,0.5
2025-03-28T1300,1339A,113.0178,28.1322,长沙市,雨花区环保局,颗粒物(PM10),76,101,127,26,33,64,,68,68,14,13,6,6,0.3,0.4
2025-03-28T1300,1340A,112.9792,28.2597,长沙市,伍家岭,颗粒物(PM10),77,104,137,24,30,67,,67,67,11,13,3,4,0.5,0.5
2025-03-28T1300,1341A,113.0014,28.1944,长沙市,火车新站,颗粒物(PM10),79,108,131,34,39,67,,72,72,13,12,6,7,0.4,0.5
2025-03-28T1300,1342A,112.9844,28.1178,长沙市,天心区环保局,颗粒物(PM10),76,101,131,35,38,68,,73,73,13,13,3,3,0,0.1
2025-03-28T1300,1343A,112.8908,28.1308,长沙市,湖南中医药大学,颗粒物(PM10),75,99,136,29,42,68,,72,72,6,8,3,4,0.5,0.6
2025-03-28T1300,1344A,112.9581,28.3611,长沙市,沙坪,颗粒物(PM10),68,85,95,29,38,62,,71,70,7,9,5,7,0.3,0.4
2025-03-28T1300,1727A,113.1147,36.1547,长治市,清华站,颗粒物(PM10),57,64,236,17,40,88,,79,79,5,7,2,4,0.3,0.3
2025-03-28T1300,1730A,113.0886,36.2125,长治市,审计局,颗粒物(PM10),52,53,235,12,43,90,,80,80,8,10,5,6,0.2,0.2
2025-03-28T1300,1731A,113.0844,36.1856,长治市,长治八中,颗粒物(PM10),65,79,253,28,56,91,,82,82,9,11,6,8,0.3,0.3
2025-03-28T1300,2845A,113.1569,36.1911,长治市,德盛苑,颗粒物(PM10),57,64,248,14,46,91,,81,81,4,7,3,3,0.4,0.4
2025-03-28T1300,3568A,113.06,36.0464,长治市,向阳小学,颗粒物(PM10),71,92,236,26,54,88,,76,76,4,9,6,6,0.2,0.2
2025-03-28T1300,3569A,112.8792,36.3144,长治市,屯留一中,,39,39,208,8,45,94,,82,82,9,13,5,6,0.2,0.2
2025-03-28T1300,4189A,113.1131,36.19948,长治市,英华南巷50号,颗粒物(PM10),55,60,259,17,49,91,,82,82,6,11,8,9,0.4,0.6
2025-03-28T1300,4190A,113.2367,36.3344,长治市,学府街1号,颗粒物(PM10),75,99,273,22,51,93,,80,80,4,5,3,5,0.5,0.5
2025-03-28T1300,1854A,111.6975,28.9703,常德市,市二中,,23,14,182,9,38,72,,74,71,5,7,3,4,0.3,0.3
2025-03-28T1300,1857A,111.7158,29.1456,常德市,白鹤山,,,,,,,,,,,,,,,,
2025-03-28T1300,3138A,111.7153,29.0289,常德市,武陵区永安,,24,11,168,8,35,74,,78,73,9,10,2,4,0.4,0.5
2025-03-28T1300,3139A,111.6892,28.9881,常德市,鼎城区玉霞,,27,7,170,6,32,86,,87,84,8,10,3,4,0.2,0.3
2025-03-28T1300,3140A,111.6625,29.0531,常德市,武陵区长庚,,25,9,172,7,34,80,,84,79,8,9,3,5,0.3,0.4
2025-03-28T1300,1196A,119.9633,31.762,常州市,市监测站,颗粒物(PM10),59,67,97,22,29,82,,73,73,2,6,3,3,0.5,0.5
2025-03-28T1300,1200A,119.9468,31.7069,常州市,武进监测站,颗粒物(PM10),61,71,102,25,29,78,,70,70,21,18,15,12,0.4,0.3
2025-03-28T1300,1201A,119.9255,31.9087,常州市,安家,颗粒物(PM10),62,73,108,19,28,79,,67,67,19,20,8,8,0.9,0.9
2025-03-28T1300,3002A,119.9805,31.8174,常州市,行政中心,颗粒物(PM10),54,58,77,26,25,74,,65,64,21,17,9,10,0.4,0.4
2025-03-28T1300,3003A,120.0522,31.7748,常州市,经开区,,,,119,,25,70,,67,67,,20,,9,0.5,0.5
2025-03-28T1300,3010A,119.9025,31.7964,常州市,钟楼,颗粒物(PM10),63,76,102,28,29,71,,64,64,18,15,8,7,0.7,0.7
2025-03-28T1300,3429A,119.8598,31.7066,常州市,武进经发区,颗粒物(PM10),64,77,134,30,32,78,,68,68,19,20,8,7,0.5,0.5
2025-03-28T1300,3430A,119.5826,31.7245,常州市,金坛城区,颗粒物(PM10),58,65,136,30,32,76,,71,71,15,14,7,7,0.6,0.6
2025-03-28T1300,2220A,120.4318,41.5881,朝阳市,西梁,,28,17,42,6,29,87,,66,66,2,13,9,11,0.4,0.5
2025-03-28T1300,2221A,120.4521,41.5646,朝阳市,河畔小区,,27,14,36,7,10,86,,74,72,4,7,7,7,0.5,0.5
2025-03-28T1300,2222A,120.4176,41.5648,朝阳市,八里堡,细颗粒物(PM2.5),63,,45,45,36,82,,69,69,1,7,7,8,0.4,0.4
2025-03-28T1300,2223A,120.3806,41.5969,朝阳市,农业园区,,28,21,42,7,12,89,,76,76,2,7,8,8,0.3,0.3
2025-03-28T1300,1705A,116.6367,23.6719,潮州市,西园路,,,,,,,,,,,,,,,,
2025-03-28T1300,3026A,116.6183,23.6608,潮州市,市政府,颗粒物(PM10),53,55,46,33,26,60,,26,26,19,25,5,7,0.7,0.7
2025-03-28T1300,4036A,116.6461,23.6761,潮州市,金山,颗粒物(PM10),53,56,47,34,29,56,,19,19,17,22,8,8,0.6,0.6
2025-03-28T1300,2472A,113.0073,25.9061,郴州市,马头岭,颗粒物(PM10),60,70,90,15,26,39,,60,41,11,13,7,8,0.6,0.6
2025-03-28T1300,2473A,113.0116,25.8226,郴州市,市职中,,37,37,72,23,37,44,,70,48,15,13,6,9,0.5,0.6
2025-03-28T1300,2475A,113.0383,25.8071,郴州市,市审计局,,40,40,75,16,36,45,,71,50,14,14,2,3,0.4,0.4
2025-03-28T1300,2476A,113.0348,25.7759,郴州市,市环保局,,35,35,82,24,36,40,,69,46,13,12,7,9,0.4,0.5
2025-03-28T1300,4252A,113.0138,25.8011,郴州市,好美居路49号,,38,38,68,25,37,48,,73,53,12,11,6,8,0.5,0.6
2025-03-28T1300,1431A,103.9728,30.7236,成都市,金泉两河,颗粒物(PM10),79,107,235,3,57,68,,75,70,14,11,2,2,0.6,0.5
2025-03-28T1300,1432A,104.176,30.6872,成都市,十里店,颗粒物(PM10),72,94,211,22,59,83,,84,81,12,12,3,3,0.4,0.5
2025-03-28T1300,1433A,104.079,30.5706,成都市,三瓦窑,颗粒物(PM10),72,93,368,6,60,78,,82,77,16,15,4,3,0.5,0.5
2025-03-28T1300,1434A,104.1114,30.63,成都市,沙河铺,颗粒物(PM10),76,101,208,25,63,78,,80,75,12,13,5,5,0.4,0.4
2025-03-28T1300,1437A,104.0786,30.6531,成都市,君平街,颗粒物(PM10),75,99,207,18,63,80,,82,78,17,16,6,6,0.6,0.6
2025-03-28T1300,1438A,103.613,31.0283,成都市,灵岩寺,,,,,,,,,,,,,,,,
2025-03-28T1300,2880A,104.0239,30.65639,成都市,大石西路,颗粒物(PM10),76,101,217,27,66,76,,78,75,13,14,4,4,0.6,0.5
2025-03-28T1300,3136A,104.2725,30.5589,成都市,龙泉驿区区政府,颗粒物(PM10),80,110,228,17,53,80,,84,81,9,10,4,4,0.6,0.6
2025-03-28T1300,3357A,104.0106,30.6931,成都市,金博路,颗粒物(PM10),74,98,204,21,46,72,,75,70,14,13,5,6,0.4,0.4
2025-03-28T1300,3359A,104.0578,30.5225,成都市,华阳,颗粒物(PM10),75,100,216,29,62,72,,77,74,18,17,5,5,0.7,0.7
2025-03-28T1300,3488A,104.3853,30.7453,成都市,青白江技师分院,颗粒物(PM10),73,96,223,19,67,80,,87,82,12,10,5,5,0.5,0.5
2025-03-28T1300,3489A,104.0789,30.4072,成都市,科学城,,,99,218,25,57,80,,85,82,,9,,5,0.5,0.4
2025-03-28T1300,4011A,103.8506,30.6947,成都市,光华大道三段,,,104,208,17,59,,,84,77,16,17,4,4,,0.5
2025-03-28T1300,4224A,104.2433,30.5353,成都市,鲸龙路1057号,颗粒物(PM10),82,114,237,27,58,80,,86,82,13,14,3,4,0.5,0.5
2025-03-28T1300,1062A,117.9531,40.9081,承德市,铁路,,26,6,22,3,8,82,,66,66,5,12,8,6,0.4,0.3
2025-03-28T1300,1063A,117.9392,40.9763,承德市,中国银行,,26,7,20,3,8,83,,66,66,2,5,7,4,0.2,0.2
2025-03-28T1300,1064A,117.9503,40.928,承德市,开发区,,26,16,28,12,16,82,,66,66,5,10,10,5,0.4,0.2
2025-03-28T1300,1065A,117.8051,40.9655,承德市,文化中心,,26,6,31,3,7,81,,69,69,5,8,9,4,0.3,0.2
2025-03-28T1300,1066A,117.9268,41.0026,承德市,离宫,,21,10,22,6,12,67,,62,62,2,3,13,15,0.3,0.2
2025-03-28T1300,2314A,117.47,30.6618,池州市,池州学院,颗粒物(PM10),53,55,142,25,42,68,,63,63,15,15,4,5,0.3,0.3
2025-03-28T1300,3237A,117.4918,30.6617,池州市,展览馆,颗粒物(PM10),53,55,137,26,39,65,,62,62,16,14,5,6,0.4,0.5
2025-03-28T1300,3333A,117.5627,30.695,池州市,第八中学,颗粒物(PM10),54,57,139,25,39,63,,60,60,12,11,4,5,0.6,0.5
2025-03-28T1300,3334A,117.5038,30.6243,池州市,第十二中学,颗粒物(PM10),53,55,138,22,32,63,,62,62,16,12,6,6,0.6,0.5
2025-03-28T1300,1744A,118.9233,42.2816,赤峰市,松山一中,,24,18,26,3,7,75,,63,63,8,13,7,8,0.4,0.4
2025-03-28T1300,1745A,118.9576,42.2728,赤峰市,哈达街,,21,15,40,7,10,65,,52,50,10,14,5,6,0.4,0.4
2025-03-28T1300,1746A,118.8788,42.2554,赤峰市,天义路,,30,30,25,3,14,70,,62,62,11,13,7,7,0.4,0.4
2025-03-28T1300,3058A,119.2658,42.0353,赤峰市,银河街,,23,,34,8,14,73,,61,61,10,14,11,15,0.2,0.2
2025-03-28T1300,3286A,118.9359,42.3147,赤峰市,桥北物流园区,,,,22,50,34,73,,57,57,10,13,6,7,0.4,0.6
2025-03-28T1300,2521A,107.3476,22.4136,崇左市,市环保局江州分局,细颗粒物(PM2.5),79,100,95,58,69,106,,70,70,10,12,7,6,0.8,0.9
2025-03-28T1300,4256A,107.3750,22.3736,崇左市,石景林东路7号,,,106,83,61,70,105,,76,76,10,13,,6,0.7,0.8
2025-03-28T1300,2298A,118.3093,32.3153,滁州市,老年大学,,,,166,,34,,,82,81,,15,,4,,0.5
2025-03-28T1300,2299A,118.3244,32.2786,滁州市,人大宾馆,颗粒物(PM10),69,87,152,27,32,89,,82,82,7,13,7,8,0.4,0.5
2025-03-28T1300,3207A,118.3118,32.3038,滁州市,市政府原办公楼,颗粒物(PM10),65,80,148,26,37,89,,83,83,8,13,4,5,0.2,0.3
2025-03-28T1300,3331A,118.3267,32.2634,滁州市,图书馆,颗粒物(PM10),64,77,149,29,39,89,,80,80,8,14,6,7,0.2,0.3
2025-03-28T1300,2605A,101.5482,25.0441,楚雄彝族自治州,州环境监测站,细颗粒物(PM2.5),82,66,50,60,44,169,,108,101,8,16,8,9,0.8,0.7
2025-03-28T1300,2606A,101.538,25.0492,楚雄彝族自治州,市经济开发区,细颗粒物(PM2.5),84,,53,62,44,166,,110,103,8,15,7,8,0.8,0.7
2025-03-28T1300,2548A,107.5277,31.2827,达州市,达州职业技术学院,,49,49,195,15,45,66,,72,66,8,9,5,6,0.3,0.2
2025-03-28T1300,2549A,107.5086,31.2186,达州市,市环境监测站,,49,49,183,9,47,66,,75,72,17,13,4,5,0.4,0.4
2025-03-28T1300,2550A,107.4988,31.2132,达州市,凤凰小区,,,51,161,17,40,76,,81,80,,11,6,7,0.2,0.2
2025-03-28T1300,2551A,107.5082,31.1986,达州市,达县机关宾馆,,48,48,191,9,45,66,,72,67,16,11,3,5,0.5,0.5
2025-03-28T1300,2552A,107.4644,31.2124,达州市,市政中心,,49,49,172,14,45,69,,74,72,12,11,1,2,0.3,0.3
2025-03-28T1300,2614A,100.1542,25.7054,大理白族自治州,大理市环境监测站,细颗粒物(PM2.5),70,63,48,51,35,148,,122,121,9,8,7,7,0.8,0.6
2025-03-28T1300,2615A,100.2171,25.5811,大理白族自治州,大理古城,,42,39,39,25,32,134,,105,105,8,11,8,7,0.5,0.5
2025-03-28T1300,1109A,121.612,38.9741,大连市,甘井子,,39,39,67,3,14,96,,89,89,7,14,5,5,0.3,0.4
2025-03-28T1300,1110A,121.565,38.9511,大连市,周水子,,,30,52,6,16,83,,77,77,8,16,7,8,,0.3
2025-03-28T1300,1111A,121.5637,38.8845,大连市,星海三站,,28,25,46,6,15,87,,81,81,4,7,6,7,0.4,0.5
2025-03-28T1300,1112A,121.6302,38.9117,大连市,青泥洼桥,,,20,38,3,13,91,,85,84,5,5,,9,0.4,0.4
2025-03-28T1300,1113A,121.6251,38.8638,大连市,傅家庄,,27,23,44,3,14,84,,79,79,8,13,8,8,0.4,0.4
2025-03-28T1300,1114A,121.5213,38.8661,大连市,七贤岭,,27,21,45,3,14,84,,80,80,7,10,6,6,0.4,0.4
2025-03-28T1300,1115A,121.2529,38.8061,大连市,旅顺,,28,17,34,3,15,87,,84,84,4,6,7,8,0.4,0.5
2025-03-28T1300,1116A,121.7485,39.1311,大连市,金州,,27,17,40,6,15,85,,81,81,10,13,7,8,0.8,0.8
2025-03-28T1300,1117A,121.7811,39.0496,大连市,开发区,,27,27,47,3,13,82,,77,77,8,12,5,6,0.7,0.8
2025-03-28T1300,1118A,121.9762,39.0631,大连市,双D港,,30,14,47,3,13,94,,87,87,7,10,6,6,0.4,0.5
2025-03-28T1300,1789A,124.81117,46.03138,大庆市,大同区,,32,32,19,16,16,86,,68,68,3,5,4,3,0.2,0.3
2025-03-28T1300,1790A,125.129,46.533,大庆市,龙凤区,,,,28,,14,,,63,63,5,14,6,7,0.4,0.3
2025-03-28T1300,1791A,124.902,46.408,大庆市,红岗区,,27,18,18,9,15,86,,74,74,2,5,4,4,0.3,0.3
2025-03-28T1300,1792A,125.153,46.586,大庆市,萨尔图区,,26,26,22,9,11,76,,63,63,7,13,6,6,0.4,0.4
2025-03-28T1300,1793A,124.9042,46.6215,大庆市,让胡路区,,24,19,20,12,17,75,,62,62,4,7,7,7,0.2,0.2
2025-03-28T1300,3481A,125.141,46.634,大庆市,萨区政府监测点,,,20,21,,3,85,,67,67,3,9,5,4,0.3,0.4
2025-03-28T1300,1721A,113.3819,40.1097,大同市,果树场,颗粒物(PM10),63,75,53,7,16,83,,66,66,3,10,8,10,0.5,0.7
2025-03-28T1300,1723A,113.2994,40.0758,大同市,云冈宾馆,,29,21,58,12,14,90,,78,78,5,8,7,8,0.5,0.6
2025-03-28T1300,1724A,113.3444,40.0917,大同市,大同大学,,28,,60,19,17,83,,70,70,2,7,12,13,0.4,0.4
2025-03-28T1300,1725A,113.2661,40.1269,大同市,安家小村,,44,44,67,10,18,86,,74,74,2,6,8,9,0.2,0.3
2025-03-28T1300,1726A,113.2711,40.0844,大同市,教育学院,,28,25,64,13,18,87,,74,74,7,10,7,7,0.4,0.4
2025-03-28T1300,3282A,113.3397,40.0597,大同市,大同市卫生学校,,34,34,60,8,17,84,,73,73,5,10,6,6,0.3,0.4
2025-03-28T1300,3565A,113.1367,40.1122,大同市,云冈站,,27,18,71,8,20,84,,67,67,5,11,8,10,0.3,0.3
2025-03-28T1300,3566A,113.1186,40.2556,大同市,图书馆,,29,29,63,20,16,76,,63,63,4,6,8,8,0.4,0.8
2025-03-28T1300,3567A,113.5931,40.0461,大同市,区一中,,28,26,68,9,19,87,,65,65,3,11,10,10,0.3,0.4
2025-03-28T1300,4199A,113.2798,40.0997,大同市,魏都大道141号,,28,17,66,10,15,88,,77,77,6,11,11,12,0.3,0.4
2025-03-28T1300,2269A,124.1069,50.4097,大兴安岭地区,科技局,,25,22,20,8,13,80,,74,74,2,3,6,6,0.3,0.3
2025-03-28T1300,3663A,124.1164,50.4278,大兴安岭地区,红旗社区,,25,,2,3,3,79,,76,76,2,2,4,4,0.3,0.3
2025-03-28T1300,1600A,124.3303,40.0625,丹东市,江湾东路,,,37,49,9,15,88,,82,81,8,10,8,8,,0.4
2025-03-28T1300,1601A,124.4256,40.1503,丹东市,临江后街,,27,23,37,3,12,84,,78,78,7,8,6,7,0.6,0.6
2025-03-28T1300,1602A,124.3933,40.1461,丹东市,元宝山,,26,21,35,8,16,81,,76,76,5,8,6,6,0.5,0.3
2025-03-28T1300,1603A,124.3633,40.1092,丹东市,民主桥,,31,31,49,6,12,83,,79,77,10,11,8,7,0.7,0.6
2025-03-28T1300,3541A,109.5726,19.5167,儋州市,第一中学子站,细颗粒物(PM2.5),63,51,51,45,34,107,,75,75,8,7,6,5,0.8,0.8
2025-03-28T1300,3542A,109.5567,19.5187,儋州市,东坡学校子站,细颗粒物(PM2.5),63,59,49,45,35,123,,84,84,7,8,8,7,0.8,0.7
2025-03-28T1300,2616A,98.5842,24.428,德宏傣族景颇族自治州,德宏州监测站,细颗粒物(PM2.5),127,116,104,96,86,126,,46,46,24,37,17,11,,1
2025-03-28T1300,3677A,98.5881,24.4368,德宏傣族景颇族自治州,芒市人民政府综合楼,细颗粒物(PM2.5),127,145,122,96,80,140,,81,75,19,21,15,10,0.9,0.8
2025-03-28T1300,1901A,104.4239,31.1208,德阳市,东山公园,颗粒物(PM10),84,118,293,33,62,81,,84,78,9,9,3,3,0.3,0.3
2025-03-28T1300,1902A,104.3826,31.1317,德阳市,西小区,颗粒物(PM10),85,119,258,32,63,77,,81,75,12,10,4,4,0.3,0.3
2025-03-28T1300,1904A,104.3553,31.1091,德阳市,耐火材料厂,颗粒物(PM10),82,114,250,34,64,72,,68,66,17,18,5,5,0.2,0.2
2025-03-28T1300,3639A,104.4019,31.1244,德阳市,市教育局,颗粒物(PM10),73,96,223,29,63,78,,81,75,13,12,3,4,0.3,0.3
2025-03-28T1300,1622A,116.3032,37.4674,德州市,儿童乐园,,,68,94,24,21,89,,56,56,,36,,5,0.5,0.6
2025-03-28T1300,1624A,116.2991,37.4451,德州市,监理站,颗粒物(PM10),59,68,81,17,17,95,,74,74,8,18,6,8,0.2,0.2
2025-03-28T1300,3066A,116.2721,37.4379,德州市,九衢泉纯净水厂,颗粒物(PM10),65,80,88,24,22,92,,59,59,13,29,12,10,0.4,0.3
2025-03-28T1300,3371A,116.3728,37.4403,德州市,开发区人民医院,颗粒物(PM10),58,66,78,17,18,93,,69,69,1,24,5,6,0.5,0.4
2025-03-28T1300,3372A,116.3572,37.4094,德州市,太阳城中学,颗粒物(PM10),68,85,86,19,18,93,,68,68,9,26,4,5,0.3,0.4
2025-03-28T1300,3511A,116.5652,37.3319,德州市,陵城艺术中心,颗粒物(PM10),75,100,92,22,21,89,,62,62,10,23,5,7,0.5,0.5
2025-03-28T1300,2621A,99.7056,27.8317,迪庆藏族自治州,迪庆州站,,41,41,35,25,20,109,,66,66,8,11,8,8,0.5,0.5
2025-03-28T1300,3180A,99.7136,27.8094,迪庆藏族自治州,质量技术监督局,颗粒物(PM10),74,98,36,6,14,108,,66,66,13,13,9,9,0.6,0.6
2025-03-28T1300,4257A,104.6092,35.5962,定西市,将台街,,,109,99,13,26,78,,74,74,,11,,6,0.6,0.5
2025-03-28T1300,4309A,104.6159,35.5701,定西市,正龙路62号,颗粒物(PM10),96,141,117,46,29,92,,81,81,5,6,8,9,0.3,0.4
2025-03-28T1300,1389A,113.7547,23.0494,东莞市,莞城梨川,,40,36,35,28,22,20,,18,14,29,16,5,4,0.5,0.4
2025-03-28T1300,1390A,113.7944,23.0128,东莞市,东城石井,,28,26,32,19,17,23,,13,12,25,18,5,5,0.6,0.5
2025-03-28T1300,1391A,113.7383,22.9658,东莞市,南城西平,,16,16,28,11,16,39,,28,19,11,15,5,5,0.7,0.6
2025-03-28T1300,3319A,113.7338,23.0381,东莞市,万江金泰,,26,26,32,18,19,37,,26,19,14,11,6,8,0.9,0.8
2025-03-28T1300,3626A,113.7533,23.0202,东莞市,南城元岭,,31,31,32,21,19,15,,13,6,23,15,4,5,0.8,0.7
2025-03-28T1300,3627A,113.7875,23.0457,东莞市,东城主山,,40,40,37,24,18,23,,17,13,30,21,7,7,0.6,0.5
2025-03-28T1300,1666A,118.6614,37.4309,东营市,市环保局,,30,19,44,3,15,94,,85,85,9,16,5,4,0.4,0.4
2025-03-28T1300,3036A,118.6904,37.4338,东营市,开发区管委会,,37,37,51,12,20,93,,85,85,9,18,3,4,0.4,0.5
2025-03-28T1300,3365A,118.5719,37.565,东营市,垦利区民丰路,,29,27,45,7,18,92,,74,74,6,19,9,8,0.6,0.7
2025-03-28T1300,3498A,118.5055,37.8612,东营市,河口城区,,36,36,54,3,16,90,,80,80,9,15,4,4,0.6,0.7
2025-03-28T1300,3646A,118.4978,37.4623,东营市,胜利站,,40,40,54,7,18,96,,86,86,12,18,8,8,0.7,0.8
2025-03-28T1300,3734A,118.35,37.26,东营市,理想之城,,31,29,49,3,19,97,,87,87,9,18,6,4,0.3,0.4
2025-03-28T1300,1591A,110.0023,39.8129,鄂尔多斯市,综合楼,,34,34,176,3,27,81,,76,72,7,10,7,6,0.4,0.4
2025-03-28T1300,1592A,109.9486,39.8261,鄂尔多斯市,巴音孟克林场办事处,,48,48,153,9,30,85,,79,77,5,6,6,5,0.4,0.4
2025-03-28T1300,1593A,109.7736,39.5986,鄂尔多斯市,康泽苑,,34,34,266,9,46,83,,80,79,3,4,3,2,0.3,0.3
2025-03-28T1300,1594A,109.8119,39.5989,鄂尔多斯市,华泰汽车城,,,,255,27,47,81,,77,76,,5,,3,0.4,0.4
2025-03-28T1300,1595A,109.9734,39.7884,鄂尔多斯市,奥林花园,,39,39,189,7,27,86,,81,78,6,10,5,5,0.4,0.4
2025-03-28T1300,2436A,114.8938,30.3994,鄂州市,市政府,,42,42,97,21,30,79,,75,75,5,7,4,4,0.6,0.8
2025-03-28T1300,2437A,114.8989,30.3714,鄂州市,赵家坝,颗粒物(PM10),51,52,114,18,29,57,,54,54,13,15,2,3,0.3,0.4
2025-03-28T1300,3654A,114.8094,30.4089,鄂州市,精准医疗中心,颗粒物(PM10),53,56,100,20,26,88,,85,85,9,10,3,4,0.5,0.4
2025-03-28T1300,2454A,109.4978,30.2981,恩施土家族苗族自治州,湖北民院,,33,33,132,14,48,76,,74,74,2,9,2,2,0.0,0.2
2025-03-28T1300,2455A,109.4707,30.2798,恩施土家族苗族自治州,州电力总公司,,26,26,135,13,45,71,,63,63,7,12,5,6,0.1,0.3
2025-03-28T1300,3549A,109.5061,30.3772,恩施土家族苗族自治州,龙凤新区,,29,29,139,14,56,69,,61,61,6,9,6,6,0.3,0.4
2025-03-28T1300,2499A,108.3411,21.6158,防城港市,沙万,颗粒物(PM10),56,62,67,37,38,48,,20,20,20,28,10,10,0.6,0.5
2025-03-28T1300,2500A,108.3514,21.7731,防城港市,防城档案局,,,58,77,38,43,50,,,,10,22,2,2,,0.6
2025-03-28T1300,2501A,108.3506,21.6414,防城港市,大海花园,,,60,61,34,35,63,,18,18,,22,7,6,0.9,0.9
2025-03-28T1300,1371A,113.1294,23.0067,佛山市,湾梁,颗粒物(PM10),56,61,37,25,17,31,,13,13,41,28,9,7,0.7,0.6
2025-03-28T1300,1372A,113.1083,23.0478,佛山市,华材职中,,48,48,34,17,17,34,,14,14,35,26,6,6,0.5,0.4
2025-03-28T1300,1373A,113.144,23.0453,佛山市,南海气象局,,50,50,47,21,20,26,,11,11,34,26,7,6,0.7,0.6
2025-03-28T1300,1374A,113.2881,22.8094,佛山市,顺德苏岗,,36,36,39,12,13,31,,11,11,16,22,5,5,0.6,0.6
2025-03-28T1300,1376A,112.8383,22.8678,佛山市,高明孔堂,,47,47,32,25,20,51,,28,28,14,9,6,5,0.5,0.5
2025-03-28T1300,1377A,112.8836,23.1588,佛山市,三水监测站,颗粒物(PM10),74,97,37,43,23,51,,18,18,33,31,5,3,0.6,0.5
2025-03-28T1300,1378A,112.867,23.185,佛山市,三水云东海,,,,38,,22,61,,16,16,31,28,5,2,0.7,0.5
2025-03-28T1300,3625A,113.2544,22.7642,佛山市,容桂街道办,,25,17,28,17,16,36,,14,14,21,22,6,7,0.7,0.6
2025-03-28T1300,1280A,119.3903,26.0543,福州市,鼓山,,,,50,,19,,,110,,,5,,2,,0.4
2025-03-28T1300,1282A,119.2681,26.0504,福州市,师大,颗粒物(PM10),55,59,58,18,29,92,,96,90,10,14,3,4,0.2,0.3
2025-03-28T1300,1283A,119.2984,26.1028,福州市,五四北路,,48,48,55,15,26,92,,97,90,9,16,3,4,0.4,0.4
2025-03-28T1300,1284A,119.2648,26.0768,福州市,杨桥西路,颗粒物(PM10),54,58,61,13,28,97,,100,95,8,16,3,4,0.3,0.4
2025-03-28T1300,1285A,119.317,26.0746,福州市,紫阳,颗粒物(PM10),56,62,60,14,26,88,,96,90,17,21,4,4,0.2,0.2
2025-03-28T1300,3048A,119.5799,26.0936,福州市,九龙,颗粒物(PM10),56,62,59,19,24,91,,99,90,4,8,4,4,0.2,0.3
2025-03-28T1300,3526A,119.5189,25.9664,福州市,吴航,颗粒物(PM10),56,61,51,23,24,93,,102,94,6,8,3,4,0.2,0.4
2025-03-28T1300,1755A,123.7977,41.8491,抚顺市,望花区,,,,56,17,13,96,,78,78,,13,4,6,,0.5
2025-03-28T1300,1756A,123.9161,41.8822,抚顺市,顺城区,,45,45,59,11,18,96,,80,80,6,17,6,6,0.5,0.6
2025-03-28T1300,1757A,124.0436,41.8611,抚顺市,东洲区,,32,32,45,12,12,94,,76,76,6,12,6,6,0.5,0.5
2025-03-28T1300,1758A,123.9247,41.8642,抚顺市,新抚区,,29,29,51,12,15,91,,76,76,6,13,4,5,0.4,0.4
2025-03-28T1300,1759A,124.0972,41.8961,抚顺市,大伙房水库,,30,20,43,10,10,93,,77,77,4,12,6,7,0.5,0.5
2025-03-28T1300,1760A,123.7086,41.8391,抚顺市,沈抚新城,,37,37,57,3,14,94,,80,80,6,15,8,8,0.6,0.7
2025-03-28T1300,2376A,116.2127,28.0814,抚州市,桐源党溪,颗粒物(PM10),79,107,101,35,39,60,,72,62,2,3,3,3,0.5,0.4
2025-03-28T1300,2377A,116.3544,27.9831,抚州市,市站,,,104,79,,41,58,,,,8,8,6,3,0.8,1.1
2025-03-28T1300,2378A,116.3565,27.963,抚州市,血防站,颗粒物(PM10),83,115,98,28,36,58,,66,59,7,6,3,6,0.9,0.9
2025-03-28T1300,2379A,116.3564,28.0007,抚州市,采茶剧团,,,108,95,28,38,49,,55,50,5,4,2,2,,1.3
2025-03-28T1300,2380A,116.385,27.9647,抚州市,医学分院,颗粒物(PM10),84,118,97,27,34,47,,51,47,8,8,4,4,0.7,0.8
2025-03-28T1300,2207A,121.6094,41.998,阜新市,工业园区,,29,24,53,6,10,91,,75,75,2,7,6,6,0.2,0.3
2025-03-28T1300,2208A,121.6697,42.0279,阜新市,长青街,,29,11,37,3,7,91,,76,76,1,4,6,5,0.2,0.3
2025-03-28T1300,2209A,121.6673,42.0705,阜新市,农业园区,,,14,33,,4,86,,76,76,2,2,6,6,0.4,0.4
2025-03-28T1300,2210A,121.6717,42.0224,阜新市,东苑,,30,30,44,3,7,88,,73,73,1,4,5,4,0.3,0.4
2025-03-28T1300,2211A,121.6506,42.0498,阜新市,玉龙新城,,27,19,47,3,6,86,,70,70,2,6,4,4,0.2,0.3
2025-03-28T1300,2301A,115.8277,32.8929,阜阳市,市监测站,颗粒物(PM10),208,355,135,62,36,66,,78,70,11,11,7,6,0.2,0.1
2025-03-28T1300,2303A,115.8554,32.8605,阜阳市,开发区,颗粒物(PM10),304,423,185,39,30,66,,77,69,11,10,6,5,0.4,0.3
2025-03-28T1300,2875A,115.784,32.8892,阜阳市,阜阳职业技术学院,颗粒物(PM10),300,420,151,63,37,66,,75,68,13,11,7,6,0.4,0.3
2025-03-28T1300,3468A,115.7901,32.8613,阜阳市,市规划展馆,颗粒物(PM10),146,241,145,51,31,66,,78,70,11,9,7,6,0.3,0.3
2025-03-28T1300,3469A,115.836,32.9183,阜阳市,枣园社区,颗粒物(PM10),154,258,147,48,28,72,,83,76,8,8,7,5,0.3,0.2
2025-03-28T1300,2669A,102.9099,34.9841,甘南藏族自治州,州政府,颗粒物(PM10),58,66,90,22,32,69,,57,57,4,6,8,7,0.3,0.3
2025-03-28T1300,3380A,102.8914,34.9617,甘南藏族自治州,甘肃民族师范学院,颗粒物(PM10),63,76,96,32,34,66,,59,59,1,5,10,7,0.5,0.4
2025-03-28T1300,2570A,101.9603,30.0475,甘孜藏族自治州,水桥子,,,135,140,,42,81,,110,84,12,11,4,4,0.2,0.3
2025-03-28T1300,3065A,101.9533,29.9972,甘孜藏族自治州,州环保局,颗粒物(PM10),78,106,126,30,34,90,,111,92,9,17,4,4,0.5,0.5
2025-03-28T1300,3414A,115.8347,28.932,赣江新区,桑海产业园,颗粒物(PM10),68,85,158,25,41,61,,54,48,10,13,4,6,0.3,0.5
2025-03-28T1300,2362A,114.9017,25.9149,赣州市,通天岩,,,,,,,,,,,,,,,,
2025-03-28T1300,2363A,114.9367,25.8664,赣州市,地委,颗粒物(PM10),78,105,66,33,30,68,,66,66,6,14,4,3,0.9,1.1
2025-03-28T1300,2364A,114.9461,25.8481,赣州市,气象台,颗粒物(PM10),84,117,82,29,27,76,,75,73,11,19,7,9,0.5,0.5
2025-03-28T1300,2365A,114.9322,25.8333,赣州市,市图书馆,颗粒物(PM10),76,102,77,29,30,76,,75,74,10,17,4,5,0.5,0.7
2025-03-28T1300,2366A,114.8905,25.8471,赣州市,华坚鞋城,颗粒物(PM10),81,112,82,24,32,74,,72,71,12,20,8,10,0.4,0.6
2025-03-28T1300,3109A,115.0093,25.8613,赣州市,赣县区卫计委,颗粒物(PM10),86,121,71,32,35,68,,69,68,5,10,3,5,0.4,0.5
2025-03-28T1300,2683A,106.2319,36.1417,固原市,马园,颗粒物(PM10),106,161,218,31,44,84,,70,70,5,6,4,4,0.6,0.6
2025-03-28T1300,2684A,106.2792,36.0022,固原市,监测站,颗粒物(PM10),108,165,197,37,42,89,,80,79,4,4,6,6,0.4,0.3
2025-03-28T1300,2685A,106.2375,36.0211,固原市,新区,颗粒物(PM10),100,150,181,45,40,88,,79,79,4,5,6,6,0.2,0.3
2025-03-28T1300,3522A,106.2177,35.9959,固原市,原州区十五小,颗粒物(PM10),108,166,180,42,39,87,,79,78,3,6,4,5,0.2,0.2
2025-03-28T1300,2543A,106.6308,30.5278,广安市,小平旧居,,,,,,,,,,,,,,,,
2025-03-28T1300,2544A,106.6303,30.4576,广安市,市委,,24,17,193,8,62,75,,78,73,7,7,4,6,0.3,0.3
2025-03-28T1300,2545A,106.6271,30.4663,广安市,友谊中学,,24,17,172,9,63,76,,77,72,8,11,1,2,0.3,0.4
2025-03-28T1300,2547A,106.6388,30.4551,广安市,广电花园,,23,17,182,16,59,71,,76,67,7,11,5,3,0.3,0.4
2025-03-28T1300,2902A,106.6351,30.4865,广安市,北辰小学,,23,20,217,10,60,73,,73,71,8,9,3,3,0.2,0.2
2025-03-28T1300,2523A,105.8945,32.4535,广元市,黑石坡,颗粒物(PM10),108,165,157,25,34,74,,78,73,1,1,2,2,0.3,0.2
2025-03-28T1300,2524A,105.821,32.4444,广元市,老城,颗粒物(PM10),101,151,212,36,49,83,,83,77,3,4,1,2,0.3,0.3
2025-03-28T1300,2526A,105.8628,32.4287,广元市,监测站,颗粒物(PM10),105,159,168,36,40,85,,86,80,4,4,3,4,0.2,0.2
2025-03-28T1300,3617A,105.8047,32.4166,广元市,经开区,颗粒物(PM10),99,147,196,33,48,74,,74,69,7,6,2,2,0.4,0.3
2025-03-28T1300,1345A,113.2347,23.1423,广州市,广雅中学,,35,29,28,24,19,40,,18,18,22,26,3,3,0.5,0.4
2025-03-28T1300,1346A,113.2612,23.105,广州市,市五中,,33,33,38,17,21,24,,14,14,23,28,2,2,0.7,0.5
2025-03-28T1300,1348A,113.3478,23.0916,广州市,广东商学院,,47,47,39,29,22,23,,11,11,25,33,4,4,0.7,0.7
2025-03-28T1300,1349A,113.4332,23.1047,广州市,市八十六中,,32,32,34,15,14,11,,9,9,42,42,3,3,0.7,0.7
2025-03-28T1300,1350A,113.3505,22.9483,广州市,番禺中学,,35,35,34,23,19,41,,18,18,22,27,4,4,0.5,0.4
2025-03-28T1300,1351A,113.2146,23.3916,广州市,花都师范,颗粒物(PM10),65,80,50,45,27,44,,14,14,21,28,3,3,0.9,0.6
2025-03-28T1300,1352A,113.2597,23.1331,广州市,市监测站,,,39,33,28,20,30,,13,13,,29,5,4,,0.5
2025-03-28T1300,1353A,113.5618,23.312,广州市,九龙镇镇龙,颗粒物(PM10),56,62,49,36,27,37,,11,11,39,33,6,5,0.5,0.4
2025-03-28T1300,1354A,113.2765,23.1544,广州市,麓湖,,35,35,34,22,18,36,,17,17,20,26,4,4,0.1,0.2
2025-03-28T1300,1355A,113.443,23.3035,广州市,帽峰山森林公园,,30,30,32,11,17,36,,18,18,22,25,6,6,0.7,0.7
2025-03-28T1300,2846A,113.3221,23.1322,广州市,体育西,,44,44,42,27,22,29,,14,14,20,26,4,4,0.5,0.4
2025-03-28T1300,3298A,113.5717,23.5491,广州市,从化街口,细颗粒物(PM2.5),67,66,55,48,27,46,,20,20,23,20,8,8,0.8,0.6
2025-03-28T1300,3299A,113.3472,23.3692,广州市,白云竹料,细颗粒物(PM2.5),69,84,54,50,26,60,,22,22,21,29,8,7,0.6,0.5
2025-03-28T1300,3300A,113.2981,23.237,广州市,白云嘉禾,颗粒物(PM10),51,52,43,29,22,34,,13,13,31,36,4,4,0.7,0.6
2025-03-28T1300,3301A,113.4256,23.1716,广州市,黄埔科学城,,44,44,44,21,20,24,,15,15,29,32,7,8,0.3,0.3
2025-03-28T1300,3302A,113.3942,23.0483,广州市,番禺大学城,,,,47,,17,,,66,,,32,,10,,0.3
2025-03-28T1300,3303A,113.4922,22.8168,广州市,南沙黄阁,,23,22,30,16,18,26,,23,21,23,19,4,4,0.7,0.6
2025-03-28T1300,3304A,113.5342,22.7896,广州市,南沙街,,20,18,30,14,17,29,,19,17,18,21,3,4,0.6,0.6
2025-03-28T1300,3443A,113.2902,23.5544,广州市,花都梯面,细颗粒物(PM2.5),72,69,51,52,26,65,,25,25,16,25,7,5,0.8,0.6
2025-03-28T1300,3445A,113.7858,23.7478,广州市,从化良口,,,59,33,52,24,59,,25,25,,14,,6,0.7,0.6
2025-03-28T1300,3446A,113.8051,23.2614,广州市,增城荔城,颗粒物(PM10),60,70,44,42,24,42,,16,16,30,21,8,7,0.3,0.2
2025-03-28T1300,2505A,109.568,23.1478,贵港市,德智高中,,,,,,,,,,,,,,,,
2025-03-28T1300,2506A,109.6047,23.0666,贵港市,江南子站,细颗粒物(PM2.5),83,88,68,61,41,38,,36,32,22,19,6,8,0.9,0.9
2025-03-28T1300,2507A,109.6014,23.0948,贵港市,贵城子站,细颗粒物(PM2.5),77,84,65,56,38,42,,37,33,22,19,8,11,1.1,0.9
2025-03-28T1300,2508A,109.5669,23.1065,贵港市,荷城子站,颗粒物(PM10),68,85,59,48,34,44,,40,33,21,20,4,8,0.4,0.3
2025-03-28T1300,3405A,109.5886,23.1172,贵港市,新世纪学校,细颗粒物(PM2.5),78,95,62,57,39,46,,39,32,21,18,5,10,0.8,0.7
2025-03-28T1300,1439A,106.6899,26.5998,贵阳市,马鞍山,颗粒物(PM10),87,124,95,41,41,79,,108,89,17,14,3,6,0.4,0.5
2025-03-28T1300,1441A,106.6243,26.6266,贵阳市,鉴湖路,颗粒物(PM10),86,122,101,39,37,76,,107,83,9,9,7,9,0.4,0.4
2025-03-28T1300,1442A,106.7487,26.6343,贵阳市,燕子冲,颗粒物(PM10),100,149,91,48,50,75,,116,88,14,13,6,7,0.3,0.4
2025-03-28T1300,1443A,106.6555,26.4365,贵阳市,碧云窝,颗粒物(PM10),109,168,102,41,39,76,,117,86,13,11,7,7,0.4,0.4
2025-03-28T1300,1445A,106.7109,26.6027,贵阳市,红边门,颗粒物(PM10),102,153,102,44,45,76,,114,87,16,21,3,5,0.3,0.5
2025-03-28T1300,1446A,106.7164,26.5699,贵阳市,新华路,颗粒物(PM10),101,151,102,46,44,72,,111,86,9,11,7,17,0.4,0.4
2025-03-28T1300,1447A,106.674,26.5424,贵阳市,太慈桥,颗粒物(PM10),97,144,94,41,39,74,,118,88,16,13,5,7,0.5,0.5
2025-03-28T1300,1552A,106.805,26.3003,贵阳市,桐木岭,颗粒物(PM10),123,195,99,56,51,72,,104,81,10,10,1,6,0.7,0.8
2025-03-28T1300,4230A,106.6882,26.5695,贵阳市,花果园大街66号,颗粒物(PM10),98,146,88,47,46,74,,116,87,13,15,3,5,0.3,0.3
2025-03-28T1300,4231A,106.6873,26.5169,贵阳市,漓江路57号,,,149,97,46,41,76,,110,100,,14,,11,0.4,0.5
2025-03-28T1300,1862A,110.4144,25.3167,桂林市,电子科大尧山校区,,,,,,,,,,,,,,,,
2025-03-28T1300,1864A,110.3089,25.2708,桂林市,龙隐路小学,颗粒物(PM10),64,77,103,20,40,75,,96,77,9,10,12,12,0.5,0.6
2025-03-28T1300,1865A,110.2869,25.2178,桂林市,八中,颗粒物(PM10),63,75,109,26,42,68,,90,70,16,16,9,9,0.5,0.7
2025-03-28T1300,3531A,110.296,25.1253,桂林市,旅游学院,颗粒物(PM10),51,51,110,19,38,62,,83,64,9,16,8,9,0.5,0.5
2025-03-28T1300,4222A,110.1835,25.2444,桂林市,环湖路276号,颗粒物(PM10),75,100,126,34,45,59,,81,61,23,18,7,8,0.4,0.4
2025-03-28T1300,4301A,110.2803,25.2773,桂林市,信义路13号,颗粒物(PM10),64,77,109,26,42,69,,91,72,13,13,10,12,0.5,0.7
2025-03-28T1300,2674A,100.2561,34.4714,果洛藏族自治州,玛沁县大武镇,颗粒物(PM10),58,66,153,14,40,111,,72,72,1,3,12,8,0.4,0.4
2025-03-28T1300,1129A,126.5422,45.755,哈尔滨市,岭北,,29,9,11,6,7,92,,77,77,6,9,16,18,0.8,1
2025-03-28T1300,1130A,126.561,45.8167,哈尔滨市,松北商大,,27,16,16,8,10,85,,62,62,5,12,7,6,0.5,0.5
2025-03-28T1300,1131A,126.979,45.5419,哈尔滨市,阿城会宁,,,81,28,10,12,,,65,65,6,10,,10,0.6,0.7
2025-03-28T1300,1132A,126.599,45.7222,哈尔滨市,南岗学府路,,27,26,23,8,6,86,,57,57,8,13,8,10,0.5,0.6
2025-03-28T1300,1133A,126.689,45.7733,哈尔滨市,太平宏伟公园,,36,36,18,11,12,81,,64,64,5,11,5,6,0.5,0.6
2025-03-28T1300,1134A,126.635,45.7667,哈尔滨市,道外承德广场,,,44,29,12,12,,,56,,10,12,5,8,0.5,0.4
2025-03-28T1300,1135A,126.685,45.7319,哈尔滨市,香坊红旗大街,,24,22,15,13,6,76,,64,64,14,12,11,10,0.4,0.5
2025-03-28T1300,1136A,126.6411,45.7258,哈尔滨市,动力和平路,,46,46,21,10,10,76,,57,57,9,13,9,13,0.4,0.4
2025-03-28T1300,1137A,126.593,45.7478,哈尔滨市,道里建国路,,26,20,18,10,9,82,,58,58,5,11,9,4,0.3,0.3
2025-03-28T1300,1138A,126.615,45.61,哈尔滨市,平房东轻厂,,27,13,20,11,14,84,,53,53,3,23,6,9,0.4,0.6
2025-03-28T1300,1139A,126.595,45.9855,哈尔滨市,呼兰师专,,24,14,17,8,9,74,,59,59,8,10,7,8,0.4,0.4
2025-03-28T1300,1140A,126.6206,45.6842,哈尔滨市,省农科院,,,,26,,15,79,,50,50,6,12,,11,0.4,0.5
2025-03-28T1300,2688A,93.5128,42.8172,哈密市,地区监测站,颗粒物(PM10),57,64,77,12,16,72,,52,52,9,23,5,3,0.2,0.3
2025-03-28T1300,2689A,93.4961,42.8328,哈密市,哈密师范学校,,31,31,56,14,16,78,,53,53,12,26,5,4,0.2,0.3
2025-03-28T1300,2671A,100.9048,36.9639,海北藏族自治州,海晏县西海镇,,,,196,,50,85,,66,65,5,5,14,17,0.6,0.6
2025-03-28T1300,3867A,102.0738,36.5056,海东市,平安区公安北苑,颗粒物(PM10),58,66,68,24,33,82,,53,52,4,8,9,10,0.9,0.7
2025-03-28T1300,1409A,110.576,19.9507,海口市,东寨港,,24,24,23,16,20,54,,35,35,3,4,3,2,0.4,0.1
2025-03-28T1300,1410A,110.3232,20.0574,海口市,海南大学,,24,24,31,16,18,56,,40,40,9,8,3,2,0.4,0.3
2025-03-28T1300,1411A,110.283,20.0053,海口市,秀英海南医院,,35,35,34,20,19,56,,40,40,16,17,4,4,0.4,0.3
2025-03-28T1300,1412A,110.338,19.9969,海口市,海南师范大学,,29,28,30,20,17,79,,45,45,2,5,3,3,0.3,0.3
2025-03-28T1300,1413A,110.33,20.0356,海口市,龙华路环保局宿舍,,33,33,36,20,17,71,,43,43,6,7,4,4,0.4,0.3
2025-03-28T1300,3539A,110.5111,19.9736,海口市,桂林洋子站,,29,29,28,19,16,67,,40,40,5,6,3,3,0.3,0.3
2025-03-28T1300,2673A,100.6188,36.2866,海南藏族自治州,共和县恰卜恰镇,细颗粒物(PM2.5),138,,194,105,80,93,,82,79,4,4,10,12,0.6,0.4
2025-03-28T1300,2676A,97.3731,37.3753,海西蒙古族藏族自治州,德令哈市,颗粒物(PM10),64,78,170,16,30,105,,94,94,13,4,19,14,0.7,0.4
2025-03-28T1300,1048A,114.5302,36.6116,邯郸市,东污水处理厂,颗粒物(PM10),59,68,212,17,44,84,,77,77,9,14,3,3,0.4,0.3
2025-03-28T1300,1049A,114.4918,36.5713,邯郸市,矿院,颗粒物(PM10),65,80,251,17,44,80,,70,70,2,10,1,4,0.3,0.4
2025-03-28T1300,1050A,114.484,36.6133,邯郸市,丛台公园,颗粒物(PM10),59,68,224,41,64,86,,75,75,5,11,2,5,0.2,0.3
2025-03-28T1300,3458A,114.7895,36.5593,邯郸市,香泉濮院小区,颗粒物(PM10),160,270,276,,48,88,,75,75,2,6,,2,0.1,0.1
2025-03-28T1300,3579A,114.50634,36.77178,邯郸市,永年区实验高中,颗粒物(PM10),70,90,246,21,47,85,,79,79,1,10,4,4,0.4,0.4
2025-03-28T1300,3580A,114.20016,36.44293,邯郸市,峰峰矿区临水派出所,颗粒物(PM10),61,71,250,21,58,90,,81,81,10,14,7,8,0.4,0.4
2025-03-28T1300,2634A,106.9893,33.1842,汉中市,汉川机床厂子校,颗粒物(PM10),65,79,151,25,37,86,,86,82,1,2,6,6,0.8,0.7
2025-03-28T1300,2635A,107.0154,33.0706,汉中市,市监测站,颗粒物(PM10),64,78,169,34,57,78,,84,77,7,8,4,5,0.6,0.5
2025-03-28T1300,2636A,107.0089,33.1138,汉中市,鑫源开发区,颗粒物(PM10),68,85,159,34,48,83,,84,81,9,9,4,4,0.5,0.4
2025-03-28T1300,2637A,107.007,33.0323,汉中市,南郑大河坎水厂,颗粒物(PM10),68,85,173,30,53,77,,86,77,7,7,7,6,0.5,0.5
2025-03-28T1300,1223A,120.2072,30.2111,杭州市,滨江,颗粒物(PM10),59,68,94,38,41,41,,72,54,36,21,6,6,0.3,0.4
2025-03-28T1300,1224A,120.0633,30.2747,杭州市,西溪,颗粒物(PM10),58,66,93,21,25,56,,70,61,22,20,6,6,0.2,0.3
2025-03-28T1300,1226A,120.3417,30.3150,杭州市,下沙,颗粒物(PM10),61,72,96,26,32,43,,60,55,37,29,4,5,0.4,0.5
2025-03-28T1300,1227A,120.1269,30.2456,杭州市,卧龙桥,颗粒物(PM10),59,67,92,29,32,56,,72,61,17,17,7,6,0.6,0.6
2025-03-28T1300,1228A,120.1903,30.2692,杭州市,浙江农大,颗粒物(PM10),65,79,94,45,40,43,,68,54,29,19,2,2,0.4,0.5
2025-03-28T1300,1230A,120.1197,30.3119,杭州市,和睦小学,,,,98,26,31,54,,71,58,22,19,6,7,0.5,0.5
2025-03-28T1300,1231A,120.3019,30.4183,杭州市,临平镇,颗粒物(PM10),60,69,106,30,31,50,,72,62,29,20,5,6,0.4,0.5
2025-03-28T1300,1232A,120.2753,30.1839,杭州市,城厢镇,,,,97,,35,,,72,,,25,,7,,0.5
2025-03-28T1300,1233A,120.0883,30.1808,杭州市,云栖,颗粒物(PM10),64,77,97,28,31,44,,68,57,22,21,8,9,0.5,0.6
2025-03-28T1300,3557A,119.9464,30.0494,杭州市,镇二中,颗粒物(PM10),56,61,80,33,26,53,,64,56,24,20,6,6,0.5,0.6
2025-03-28T1300,3558A,119.7183,30.2367,杭州市,市府大楼,颗粒物(PM10),55,60,104,29,38,65,,70,66,16,22,7,7,0.7,0.7
2025-03-28T1300,3656A,120.1556,30.2864,杭州市,消防大队,颗粒物(PM10),62,73,102,34,38,55,,75,62,28,25,3,3,0.5,0.5
2025-03-28T1300,1270A,117.1959,31.7848,合肥市,明珠广场,,,,135,,29,75,,76,69,16,16,3,4,,0.3
2025-03-28T1300,1271A,117.3072,31.8764,合肥市,三里街,,,,132,,28,77,,75,72,,14,4,4,,0.5
2025-03-28T1300,1272A,117.2588,31.8707,合肥市,琥珀山庄,颗粒物(PM10),68,85,136,28,31,82,,78,78,14,19,2,3,0.2,0.3
2025-03-28T1300,1273A,117.1604,31.9052,合肥市,董铺水库,,,,142,,26,88,,90,90,11,12,,3,0.3,0.3
2025-03-28T1300,1274A,117.25,31.8571,合肥市,长江中路,颗粒物(PM10),67,83,142,26,31,82,,80,78,10,13,7,8,0.4,0.5
2025-03-28T1300,1275A,117.266,31.9436,合肥市,庐阳区,颗粒物(PM10),68,85,140,22,28,75,,76,75,16,19,3,5,0.4,0.5
2025-03-28T1300,1276A,117.3453,31.8616,合肥市,瑶海区,颗粒物(PM10),71,92,143,24,26,81,,77,76,9,15,6,7,0.4,0.5
2025-03-28T1300,1277A,117.3027,31.7964,合肥市,包河区,颗粒物(PM10),69,88,138,27,32,71,,72,66,14,21,4,5,0.5,0.5
2025-03-28T1300,1278A,117.2776,31.7385,合肥市,滨湖新区,颗粒物(PM10),70,90,139,24,34,73,,74,68,16,16,2,3,0.4,0.5
2025-03-28T1300,1279A,117.1318,31.8403,合肥市,高新区,颗粒物(PM10),73,95,138,26,30,76,,74,73,16,17,1,2,0.2,0.3
2025-03-28T1300,3464A,117.3803,31.9147,合肥市,高教基地,颗粒物(PM10),72,93,129,22,23,73,,80,76,16,15,1,3,0.3,0.3
2025-03-28T1300,3614A,79.924,37.0877,和田地区,地区环保局,"颗粒物(PM10),细颗粒物(PM2.5)",500,6871,4758,1568,935,48,,52,51,6,9,1,2,0.3,0.4
2025-03-28T1300,3615A,79.9131,37.113,和田地区,市环保局,"颗粒物(PM10),细颗粒物(PM2.5)",500,5923,3860,1147,596,51,,58,58,19,15,1,2,0.7,0.7
2025-03-28T1300,2516A,108.2011,24.715,河池市,东仁乐园,颗粒物(PM10),81,111,78,33,52,80,,97,88,11,16,8,10,0.9,1
2025-03-28T1300,2517A,108.0497,24.6947,河池市,市环保站,颗粒物(PM10),80,110,73,29,47,80,,95,87,9,9,6,7,0.5,0.7
2025-03-28T1300,2518A,108.0983,24.6989,河池市,市疾控中心,颗粒物(PM10),77,103,72,30,48,84,,99,92,6,12,7,9,0.6,0.8
2025-03-28T1300,1696A,114.6778,23.7569,河源市,源西,细颗粒物(PM2.5),57,55,38,40,25,58,,23,23,13,17,4,4,0.8,0.7
2025-03-28T1300,1697A,114.6944,23.7586,河源市,东埔,,46,40,34,32,26,58,,27,27,14,19,4,4,0.6,0.6
2025-03-28T1300,1698A,114.6892,23.7233,河源市,老城,颗粒物(PM10),59,67,38,35,28,57,,26,26,12,18,4,5,0.7,0.6
2025-03-28T1300,1718A,115.4208,35.2464,菏泽市,气象局,颗粒物(PM10),194,337,240,66,48,86,,64,64,6,17,1,3,0.3,0.3
2025-03-28T1300,3374A,115.5564,35.0891,菏泽市,定陶老年大学,颗粒物(PM10),184,317,165,68,36,86,,60,60,12,16,4,4,0.3,0.4
2025-03-28T1300,4184A,115.4797,35.24401,菏泽市,永昌路1号,颗粒物(PM10),205,353,225,61,44,82,,66,66,6,18,7,8,0.2,0.2
2025-03-28T1300,4193A,115.4715,35.2800,菏泽市,长城路999号,颗粒物(PM10),184,317,205,50,39,87,,60,60,7,18,3,4,0.4,0.5
2025-03-28T1300,2514A,111.5264,24.4172,贺州市,环保小区,颗粒物(PM10),93,136,91,40,37,57,,75,70,17,16,7,9,0.7,0.8
2025-03-28T1300,2515A,111.5608,24.4078,贺州市,政协大楼,颗粒物(PM10),85,120,75,47,40,52,,66,64,16,16,8,11,0.5,0.6
2025-03-28T1300,3534A,111.4744,24.4553,贺州市,西湾,颗粒物(PM10),95,139,81,45,37,54,,72,68,15,21,6,8,0.5,0.6
2025-03-28T1300,2385A,114.17,35.9019,鹤壁市,市监测站,颗粒物(PM10),81,111,231,48,55,88,,83,83,2,10,3,5,0.5,0.6
2025-03-28T1300,2386A,114.2956,35.7511,鹤壁市,市交警支队,颗粒物(PM10),81,112,206,18,38,88,,81,81,2,12,7,7,0.1,0.2
2025-03-28T1300,2387A,114.2878,35.7306,鹤壁市,迎宾馆,颗粒物(PM10),77,104,225,16,30,90,,83,83,2,12,2,3,0.4,0.5
2025-03-28T1300,3474A,114.2617,35.6822,鹤壁市,大新区,颗粒物(PM10),95,139,218,19,36,87,,82,82,2,14,4,5,0.3,0.5
2025-03-28T1300,3596A,114.1572,35.9603,鹤壁市,南山宾馆,,,121,266,34,57,88,,84,84,,7,2,3,0.3,0.4
2025-03-28T1300,2244A,130.2537,47.3416,鹤岗市,哈啤分公司,,22,,19,10,14,70,,68,68,1,1,14,14,0.3,0.2
2025-03-28T1300,2245A,130.2684,47.3086,鹤岗市,斯达机电,,23,6,17,3,12,72,,70,70,2,2,13,13,0.2,0.2
2025-03-28T1300,2246A,130.3114,47.3388,鹤岗市,东山纸板厂,,25,16,37,3,16,78,,76,76,3,4,12,13,0.4,0.3
2025-03-28T1300,2247A,130.1097,47.3382,鹤岗市,五号水库,,,,,,,,,,,,,,,,
2025-03-28T1300,2263A,127.4833,50.2524,黑河市,交通局,,25,,17,16,11,77,,70,70,3,5,6,6,0.2,0.5
2025-03-28T1300,2264A,127.5144,50.2341,黑河市,环保局,,25,,15,16,13,78,,72,72,4,7,4,5,0.2,0.3
2025-03-28T1300,2265A,127.5291,50.2472,黑河市,大黑河岛,,28,28,24,3,4,28,,27,27,14,10,3,15,0.3,0.4
2025-03-28T1300,1074A,115.6838,37.7541,衡水市,电机北厂,颗粒物(PM10),65,79,91,14,28,92,,69,69,9,17,5,4,0.3,0.2
2025-03-28T1300,1075A,115.6303,37.7316,衡水市,市监测站,颗粒物(PM10),68,85,91,14,31,89,,65,65,8,15,12,9,0.3,0.2
2025-03-28T1300,3188A,115.6683,37.7217,衡水市,市城管局,颗粒物(PM10),64,77,86,21,26,87,,69,69,8,14,6,5,0.4,0.3
2025-03-28T1300,3459A,115.5989,37.5491,衡水市,地表水厂,,,,110,23,30,91,,66,66,8,15,,8,0.3,0.3
2025-03-28T1300,2456A,112.5003,26.9167,衡阳市,原169医院,颗粒物(PM10),54,57,111,22,34,45,,44,44,8,8,4,6,0.3,0.4
2025-03-28T1300,2457A,112.6194,26.9258,衡阳市,衡阳化工总厂,,48,48,124,21,38,60,,64,58,14,11,5,7,0.5,0.6
2025-03-28T1300,2458A,112.6211,26.8956,衡阳市,珠晖区环保局,,48,48,109,24,36,60,,65,59,11,11,5,7,0.6,0.7
2025-03-28T1300,2459A,112.6197,26.8733,衡阳市,市委党校,,32,32,106,18,32,61,,66,61,13,12,5,5,0.5,0.6
2025-03-28T1300,2460A,112.6006,26.8919,衡阳市,市监测站,颗粒物(PM10),54,58,122,17,44,64,,65,61,14,13,6,8,0.6,0.7
2025-03-28T1300,2461A,112.5664,26.9056,衡阳市,真空机电公司,,50,50,127,25,40,70,,66,64,9,10,4,6,0.4,0.6
2025-03-28T1300,3399A,112.6703,26.882,衡阳市,师范学院,,,43,122,22,44,67,,66,63,13,14,8,9,,0.7
2025-03-28T1300,2608A,103.3772,23.3993,红河哈尼族彝族自治州,污水处理厂,细颗粒物(PM2.5),94,73,83,70,76,175,,126,126,8,17,11,9,0.6,0.6
2025-03-28T1300,2609A,103.3861,23.35,红河哈尼族彝族自治州,监测站,细颗粒物(PM2.5),75,80,77,55,54,172,,134,134,9,13,10,10,0.6,0.5
2025-03-28T1300,3038A,103.3758,23.368,红河哈尼族彝族自治州,州图书馆,细颗粒物(PM2.5),87,69,78,64,65,168,,130,130,8,14,8,7,0.5,0.5
2025-03-28T1300,1090A,111.6507,40.7517,呼和浩特市,呼市一监,,27,24,57,3,13,85,,83,83,1,4,8,8,0.4,0.4
2025-03-28T1300,1091A,111.6572,40.8033,呼和浩特市,小召,,27,24,65,3,14,84,,83,82,6,10,4,5,0.3,0.3
2025-03-28T1300,1094A,111.7516,40.8369,呼和浩特市,如意水处理厂,,26,18,56,3,14,83,,81,80,1,5,6,6,0.4,0.3
2025-03-28T1300,1095A,111.7276,40.8062,呼和浩特市,二十九中,,27,26,54,7,14,84,,83,82,1,5,2,3,0.6,0.6
2025-03-28T1300,1096A,111.5512,40.7866,呼和浩特市,工大金川校区,,28,27,60,3,13,87,,83,83,3,8,5,5,0.5,0.5
2025-03-28T1300,1097A,111.717,40.7612,呼和浩特市,化肥厂生活区,,28,28,61,3,14,86,,83,83,5,9,5,6,0.3,0.3
2025-03-28T1300,3698A,111.5968,40.8178,呼和浩特市,红旗小学,,28,14,67,3,14,87,,84,84,4,9,3,4,0.4,0.4
2025-03-28T1300,3699A,111.6518,40.8389,呼和浩特市,海东办,,26,22,59,7,14,82,,80,80,2,6,5,5,0.4,0.5
2025-03-28T1300,2192A,119.7594,49.2261,呼伦贝尔市,区环保局,,25,25,27,14,19,80,,71,71,8,8,5,5,0.3,0.2
2025-03-28T1300,3061A,119.7512,49.1577,呼伦贝尔市,国华电力东,,33,33,30,13,15,83,,74,74,3,4,4,4,0.1,0.3
2025-03-28T1300,1250A,120.0751,30.8669,湖州市,城西水厂,,46,46,118,18,33,68,,62,49,26,22,6,6,0.3,0.4
2025-03-28T1300,2873A,120.0830,30.8929,湖州市,仁皇山新区,,45,45,116,19,34,77,,70,62,15,16,4,4,0.4,0.6
2025-03-28T1300,2907A,120.1844,30.8596,湖州市,吴兴区站,,49,49,100,19,34,74,,70,66,16,15,6,5,0.3,0.4
2025-03-28T1300,3562A,120.4148,30.8538,湖州市,南浔区站,,49,49,86,20,26,79,,74,71,16,16,2,2,0.4,0.5
2025-03-28T1300,1607A,120.9049,40.7211,葫芦岛市,龙港区,,28,28,48,7,13,80,,63,63,6,14,9,10,0.4,0.4
2025-03-28T1300,1608A,120.8392,40.7514,葫芦岛市,化工街,,27,9,51,3,12,84,,60,60,6,16,7,9,0.3,0.4
2025-03-28T1300,1609A,120.8341,40.7073,葫芦岛市,新区,,28,20,46,8,12,87,,75,74,7,12,10,13,0.3,0.4
2025-03-28T1300,1610A,120.8695,40.7677,葫芦岛市,东城区,,,70,47,,13,80,,56,56,7,17,,10,0.4,0.4
2025-03-28T1300,2482A,109.5981,27.5721,怀化市,林科所,颗粒物(PM10),71,91,131,28,39,71,,74,74,5,10,4,4,0.1,0.1
2025-03-28T1300,2483A,109.9453,27.5444,怀化市,河西地税局,颗粒物(PM10),72,94,147,30,41,72,,75,73,6,8,8,10,0.4,0.4
2025-03-28T1300,2484A,109.9781,27.5342,怀化市,市四医院,颗粒物(PM10),67,83,143,26,32,72,,75,74,5,5,5,8,0.3,1.3
2025-03-28T1300,2485A,109.9972,27.5578,怀化市,监测楼,颗粒物(PM10),68,85,140,26,40,76,,78,77,6,9,8,10,0.2,0.3
2025-03-28T1300,2486A,110.0394,27.583,怀化市,市委党校,颗粒物(PM10),71,91,156,29,42,77,,80,79,7,9,4,7,0.2,0.3
2025-03-28T1300,1210A,119.036,33.5981,淮安市,钵池山,颗粒物(PM10),73,95,120,35,36,75,,63,63,11,13,9,8,0.5,0.5
2025-03-28T1300,1211A,119.007,33.575,淮安市,北京南路,颗粒物(PM10),76,102,127,33,33,69,,58,58,14,16,8,8,0.6,0.5
2025-03-28T1300,1212A,118.989,33.6067,淮安市,市监测站,颗粒物(PM10),71,92,116,39,34,76,,58,58,13,20,8,8,0.7,0.7
2025-03-28T1300,1213A,119.135,33.5039,淮安市,楚州区监测站,颗粒物(PM10),72,93,132,31,36,76,,61,61,6,12,8,8,0.5,0.5
2025-03-28T1300,3426A,118.8755,33.2894,淮安市,新华书店,颗粒物(PM10),80,109,143,34,38,80,,64,60,10,18,8,8,0.5,0.5
2025-03-28T1300,4206A,119.0288,33.6319,淮安市,承德北路606号,颗粒物(PM10),78,105,133,34,36,72,,56,56,13,18,7,7,0.5,0.5
2025-03-28T1300,2282A,116.8004,33.975,淮北市,监测站,颗粒物(PM10),182,313,132,63,33,,,51,51,11,14,4,5,0.4,0.3
2025-03-28T1300,2283A,116.8091,33.9007,淮北市,烈山区政府,颗粒物(PM10),338,450,142,88,37,81,,53,53,9,16,3,3,0.6,0.6
2025-03-28T1300,3330A,116.8873,33.9836,淮北市,杜集区检察院,颗粒物(PM10),432,532,155,68,36,78,,53,53,10,15,5,5,0.6,0.6
2025-03-28T1300,4017A,116.7923,33.9535,淮北市,市博物馆,颗粒物(PM10),298,418,143,67,35,75,,57,57,7,13,6,7,0.6,0.8
2025-03-28T1300,2277A,116.8305,32.7727,淮南市,潘集区政府,颗粒物(PM10),89,127,152,44,39,70,,72,71,12,15,4,3,0.5,0.4
2025-03-28T1300,2279A,116.8569,32.5951,淮南市,谢家集区政府,颗粒物(PM10),78,105,136,32,33,73,,72,70,10,13,5,6,0.2,0.2
2025-03-28T1300,2280A,116.8281,32.633,淮南市,八公山区政府,,,96,135,,29,,,72,71,,9,,5,0.2,0.2
2025-03-28T1300,2281A,116.6325,32.6201,淮南市,焦岗湖风景区管理处,,,,180,,38,,,66,,,10,,7,,0.5
2025-03-28T1300,2894A,117.0566,32.6531,淮南市,经济技术开发区消防队,,,,145,,33,62,,82,78,,9,4,6,0.3,0.3
2025-03-28T1300,3329A,117.0108,32.5893,淮南市,山南新区,颗粒物(PM10),82,113,184,30,32,75,,76,72,14,16,6,7,0.4,0.4
2025-03-28T1300,4209A,117.0031,32.6445,淮南市,国庆中路369号,颗粒物(PM10),78,106,138,21,33,74,,76,72,11,12,6,8,0.2,0.2
2025-03-28T1300,2446A,114.9028,30.4742,黄冈市,职工中心,,47,47,72,18,29,94,,86,86,11,12,3,5,0.4,0.4
2025-03-28T1300,2929A,114.8858,30.4519,黄冈市,红卫路,颗粒物(PM10),54,57,72,16,23,86,,82,82,8,7,3,4,0.5,0.5
2025-03-28T1300,3398A,114.9136,30.4445,黄冈市,市林业局,,48,48,88,13,27,84,,78,78,7,11,5,6,0.6,0.6
2025-03-28T1300,2672A,102.0199,35.5102,黄南藏族自治州,同仁县隆务镇,颗粒物(PM10),62,73,112,28,40,82,,71,71,5,5,13,17,0.3,0.5
2025-03-28T1300,2295A,118.2903,29.6963,黄山市,延安路89号,颗粒物(PM10),75,100,94,52,54,64,,70,61,8,8,4,4,0.3,0.4
2025-03-28T1300,2297A,118.1371,30.2756,黄山市,黄山区政府5号楼,,19,10,124,10,36,60,,57,57,6,9,7,8,0.5,0.7
2025-03-28T1300,4210A,118.3354,29.7203,黄山市,滨江东路7-2号,,,97,104,27,39,64,,68,59,,6,5,4,0.4,0.5
2025-03-28T1300,2423A,115.0601,30.2313,黄石市,沈家营,,49,49,105,6,26,92,,79,79,8,11,6,6,0.4,0.4
2025-03-28T1300,2426A,114.8988,30.2019,黄石市,铁山,,28,28,93,12,32,87,,80,80,7,11,3,6,1.0,1
2025-03-28T1300,2427A,115.0307,30.2092,黄石市,团城山,,50,50,101,8,26,83,,71,71,8,13,7,7,0.3,0.5
2025-03-28T1300,3149A,115.0235,30.1578,黄石市,笔架山北路,,29,28,79,7,25,92,,78,78,2,7,6,7,0.5,0.5
2025-03-28T1300,4185A,115.0780,30.21118,黄石市,磁湖东路29号,,42,42,106,8,31,93,,78,78,4,12,7,6,0.5,0.6
2025-03-28T1300,1392A,114.4183,23.0528,惠州市,河南岸金山湖子站,,32,32,38,22,22,53,,25,25,19,19,8,9,0.5,0.5
2025-03-28T1300,1393A,114.4053,23.0822,惠州市,下埔横江三路子站,,32,32,38,21,23,52,,25,25,18,16,8,8,0.5,0.5
2025-03-28T1300,1394A,114.4103,23.1142,惠州市,江北云山西路子站,,32,32,35,22,22,55,,26,26,16,17,9,10,0.5,0.4
2025-03-28T1300,1395A,114.4645,22.7833,惠州市,惠阳区承修路船湖子站,,22,22,34,14,19,32,,19,19,13,18,7,8,0.5,0.5
2025-03-28T1300,1396A,114.5317,22.7422,惠州市,大亚湾管委会子站,,14,14,37,9,21,39,,23,23,13,18,6,6,0.6,0.6
2025-03-28T1300,3314A,114.4338,22.8134,惠州市,惠阳秋长,,34,34,35,17,21,30,,21,21,15,18,6,8,0.7,0.7
2025-03-28T1300,3452A,114.6517,22.775,惠州市,大亚湾霞涌,,16,,22,11,13,36,,32,27,17,12,6,6,0.6,0.3
2025-03-28T1300,2240A,130.9762,45.3001,鸡西市,环保局,,29,16,17,6,9,90,,81,81,2,6,5,6,0.4,0.4
2025-03-28T1300,2243A,130.9429,45.3039,鸡西市,第一中学,,28,7,16,3,8,87,,78,78,1,5,6,7,0.3,0.4
2025-03-28T1300,3707A,131.0207,45.3073,鸡西市,欧美日汽修厂,,,,16,,9,,,85,85,2,6,3,5,0.5,0.5
2025-03-28T1300,3709A,130.9967,45.3106,鸡西市,市政设施管理处,,28,14,20,3,9,87,,75,75,1,10,3,5,0.2,0.3
2025-03-28T1300,2367A,114.9754,27.0803,吉安市,红声器材厂,颗粒物(PM10),92,133,104,43,40,57,,82,67,19,14,12,12,0.5,0.5
2025-03-28T1300,2368A,114.9658,27.0999,吉安市,市森林工业局,颗粒物(PM10),83,116,96,35,38,58,,78,65,15,11,10,10,0.4,0.5
2025-03-28T1300,2369A,114.99,27.1312,吉安市,市环境监测站,颗粒物(PM10),100,150,91,54,38,61,,80,68,11,10,14,14,0.4,0.4
2025-03-28T1300,2370A,115.0093,27.0968,吉安市,青原区法院,颗粒物(PM10),92,134,103,38,40,56,,84,66,19,15,9,12,0.4,0.5
2025-03-28T1300,1772A,126.54,43.8622,吉林市,哈达湾,,25,25,31,6,11,80,,70,70,6,11,6,6,0.5,0.5
2025-03-28T1300,1773A,126.5844,43.8358,吉林市,东局子,,27,20,30,6,13,84,,73,73,6,13,5,6,0.4,0.4
2025-03-28T1300,1774A,126.5052,43.8245,吉林市,电力学院,,26,9,32,3,19,83,,73,73,4,10,4,5,0.2,0.4
2025-03-28T1300,1775A,126.6133,43.8972,吉林市,江北,,26,22,34,3,9,81,,70,70,8,17,4,4,0.0,0.2
2025-03-28T1300,1776A,126.555,43.8306,吉林市,江南公园,,26,13,24,8,14,81,,72,72,4,10,6,5,0.1,0.2
2025-03-28T1300,1778A,126.7061,43.7133,吉林市,丰满,,,18,24,11,15,92,,84,84,,7,5,5,0.6,0.8
2025-03-28T1300,2868A,126.4739,43.953,吉林市,九站,,26,14,26,3,13,81,,69,69,2,12,9,9,0.5,0.5
2025-03-28T1300,1299A,116.9862,36.6114,济南市,科干所,颗粒物(PM10),80,110,85,29,37,81,,,,10,22,6,5,0.4,0.4
2025-03-28T1300,1300A,116.9376,36.665,济南市,农科所,颗粒物(PM10),86,122,105,17,18,83,,44,44,12,37,7,7,0.4,0.4
2025-03-28T1300,1301A,117.1265,36.6734,济南市,开发区,颗粒物(PM10),81,112,84,24,24,89,,55,55,12,26,8,6,0.4,0.5
2025-03-28T1300,1303A,117.0624,36.6868,济南市,省种子仓库,颗粒物(PM10),87,124,104,22,21,90,,50,50,6,29,5,4,0.5,0.6
2025-03-28T1300,1304A,116.9489,36.6447,济南市,机床二厂,,,,113,,29,74,,39,39,14,37,8,8,0.3,0.6
2025-03-28T1300,1305A,117.0495,36.663,济南市,市监测站,颗粒物(PM10),90,129,95,24,23,79,,60,60,10,29,8,8,0.4,0.4
2025-03-28T1300,1306A,116.7675,36.5484,济南市,长清党校,颗粒物(PM10),125,200,186,29,34,89,,51,51,7,32,4,4,0.5,0.5
2025-03-28T1300,1616A,117.6795,36.229,济南市,技术学院,颗粒物(PM10),93,136,94,46,30,78,,42,42,19,26,10,10,0.6,0.5
2025-03-28T1300,1961A,117.532,36.6868,济南市,东山小学,颗粒物(PM10),94,137,86,32,20,88,,47,47,14,28,9,7,0.7,0.6
2025-03-28T1300,3059A,117.7161,36.2049,济南市,泰兴公司,颗粒物(PM10),93,136,91,53,34,77,,42,42,18,24,8,8,0.7,0.5
2025-03-28T1300,3064A,117.6867,36.2171,济南市,莱芜战役纪念馆,颗粒物(PM10),91,132,92,46,27,77,,44,44,22,26,6,6,0.7,0.5
2025-03-28T1300,3494A,117.1673,36.9782,济南市,济阳区政府,颗粒物(PM10),78,105,91,27,28,95,,48,48,10,27,10,11,0.4,0.4
2025-03-28T1300,3495A,117.1171,36.63,济南市,锦屏中学,颗粒物(PM10),86,122,77,20,14,85,,54,54,10,20,8,8,0.2,0.2
2025-03-28T1300,3682A,116.9814,36.6819,济南市,济南四建,颗粒物(PM10),79,107,105,20,30,81,,43,43,9,33,5,5,0.2,0.2
2025-03-28T1300,1653A,116.6251,35.4302,济宁市,火炬城,颗粒物(PM10),293,415,130,97,39,78,,52,52,6,15,6,7,0.1,0.2
2025-03-28T1300,1655A,116.5491,35.4042,济宁市,电化厂,颗粒物(PM10),411,511,215,75,44,75,,51,51,11,20,2,3,0.2,0.4
2025-03-28T1300,3500A,116.5814,35.3707,济宁市,北湖一中,颗粒物(PM10),245,381,154,63,32,78,,53,53,11,19,8,9,0.2,0.2
2025-03-28T1300,3501A,116.8249,35.5593,济宁市,服务中心,颗粒物(PM10),360,468,172,59,34,80,,48,48,9,23,4,5,0.5,0.6
2025-03-28T1300,3678A,116.5907,35.4054,济宁市,市第七中学,颗粒物(PM10),347,457,183,61,33,80,,56,56,4,14,3,4,0.2,0.2
2025-03-28T1300,2255A,130.2751,46.8028,佳木斯市,佳纺,,25,16,16,3,7,77,,71,71,3,7,3,4,0.2,0.2
2025-03-28T1300,2256A,130.3995,46.8307,佳木斯市,发电厂,,27,8,12,7,5,84,,78,78,2,3,2,2,0.5,0.5
2025-03-28T1300,2257A,130.3258,46.7975,佳木斯市,环保局,,28,,14,10,7,88,,79,79,3,10,2,3,0.3,0.3
2025-03-28T1300,2258A,130.3648,46.8032,佳木斯市,十一中,,27,7,13,3,6,84,,77,77,3,8,3,4,0.3,0.3
2025-03-28T1300,2259A,130.3794,46.7588,佳木斯市,四丰,,24,7,9,3,8,76,,70,70,2,4,1,1,0.6,0.7
2025-03-28T1300,1252A,120.7436,30.778,嘉兴市,清河小学,颗粒物(PM10),69,88,89,27,28,64,,64,61,22,19,5,4,1.0,0.9
2025-03-28T1300,1253A,120.726,30.7478,嘉兴市,嘉兴学院,颗粒物(PM10),59,67,84,30,29,63,,66,60,23,18,8,8,0.7,0.8
2025-03-28T1300,2872A,120.7846,30.7525,嘉兴市,南湖区残联,颗粒物(PM10),62,73,96,27,25,69,,69,66,14,12,8,8,0.3,0.3
2025-03-28T1300,3407A,120.6916,30.7739,嘉兴市,秀洲住建,颗粒物(PM10),54,58,76,36,34,68,,68,63,21,18,5,6,0.5,0.5
2025-03-28T1300,1945A,98.2908,39.7711,嘉峪关市,气象局,颗粒物(PM10),74,97,91,24,28,90,,72,72,6,12,2,8,0.4,0.6
2025-03-28T1300,2884A,98.2672,39.7978,嘉峪关市,酒钢宾馆,颗粒物(PM10),73,95,94,22,28,90,,76,76,6,11,5,11,0.2,0.3
2025-03-28T1300,3248A,98.2643,39.7724,嘉峪关市,雄关区,颗粒物(PM10),64,78,80,16,29,88,,71,71,11,16,6,6,0.5,0.4
2025-03-28T1300,1383A,113.1064,22.6058,江门市,北街,,30,30,34,18,17,35,,22,22,11,9,2,2,0.5,0.5
2025-03-28T1300,1384A,113.0731,22.5835,江门市,西区,,30,30,33,17,17,36,,24,24,15,14,6,6,0.5,0.5
2025-03-28T1300,1385A,113.0219,22.5311,江门市,圭峰西,,,44,36,16,20,38,,19,,,16,,4,0.5,0.5
2025-03-28T1300,1386A,113.0828,22.5947,江门市,东湖,,28,28,31,19,17,38,,26,26,13,10,7,8,0.4,0.3
2025-03-28T1300,3311A,113.1075,22.5647,江门市,江海富民,,,28,36,16,21,30,,23,22,16,11,,6,0.6,0.4
2025-03-28T1300,3449A,113.05,22.4667,江门市,新会银湖,,25,25,32,16,21,36,,15,15,10,17,2,2,0.5,0.5
2025-03-28T1300,1830A,113.1992,35.2590,焦作市,影视城,,,,358,,57,,,,,,3,,3,,0.6
2025-03-28T1300,3169A,113.2725,35.2067,焦作市,太极体育中心,颗粒物(PM10),96,142,234,34,51,93,,85,85,2,11,5,7,0.6,0.6
2025-03-28T1300,3335A,113.3137,35.2641,焦作市,马村街道办,颗粒物(PM10),81,112,221,53,60,87,,81,81,5,11,5,6,0.3,0.4
2025-03-28T1300,3336A,113.2465,35.2373,焦作市,焦作技师学院,颗粒物(PM10),97,143,239,31,41,92,,83,83,4,12,3,5,0.3,0.5
2025-03-28T1300,3477A,113.1656,35.2539,焦作市,中站许衡医院,颗粒物(PM10),86,121,204,32,50,96,,88,88,4,15,6,9,0.3,0.6
2025-03-28T1300,3981A,113.2449,35.1803,焦作市,原李万街道办,颗粒物(PM10),104,157,235,36,53,92,,85,85,7,15,6,7,0.4,0.4
2025-03-28T1300,4264A,113.2340,35.2190,焦作市,新安路1731号,颗粒物(PM10),92,133,243,39,53,88,,80,80,4,13,5,8,0.3,0.5
2025-03-28T1300,1708A,116.3701,23.5345,揭阳市,新兴,颗粒物(PM10),67,83,46,38,29,55,,24,24,22,19,7,7,0.8,0.6
2025-03-28T1300,1709A,116.3264,23.5443,揭阳市,西马,颗粒物(PM10),66,82,52,41,26,53,,23,23,14,19,9,8,0.9,0.7
2025-03-28T1300,1710A,116.3611,23.5626,揭阳市,东兴,颗粒物(PM10),67,83,49,37,26,64,,25,25,19,16,10,6,0.8,0.8
2025-03-28T1300,1711A,116.4151,23.5294,揭阳市,渔湖,,,,42,,25,56,,16,16,18,19,4,8,,0.7
2025-03-28T1300,3320A,116.403,23.5699,揭阳市,曲溪,颗粒物(PM10),62,73,44,34,22,66,,24,24,22,21,4,5,0.6,0.5
2025-03-28T1300,1944A,102.1692,38.5167,金昌市,天庆家园,颗粒物(PM10),76,101,75,40,24,91,,76,75,7,6,34,16,0.9,0.7
2025-03-28T1300,4022A,102.1647,38.5371,金昌市,金川区人防中心,颗粒物(PM10),85,120,100,38,25,89,,69,66,11,13,12,9,0.6,0.6
2025-03-28T1300,4239A,102.1930,38.5319,金昌市,长春路96号,,,135,117,32,23,,,79,,8,7,21,17,0.2,0.6
2025-03-28T1300,1262A,119.647,29.077,金华市,十五中,,,80,86,33,32,50,,68,54,,22,5,5,0.5,0.5
2025-03-28T1300,1263A,119.686,29.1029,金华市,监测站,颗粒物(PM10),68,86,84,39,39,48,,67,53,27,30,4,4,0.5,0.5
2025-03-28T1300,3659A,119.656,29.1131,金华市,气象局,颗粒物(PM10),68,86,89,31,29,42,,61,49,30,20,4,4,0.4,0.5
2025-03-28T1300,1767A,121.1115,41.0879,锦州市,南山,,26,14,45,10,13,83,,72,72,6,10,7,15,0.4,0.4
2025-03-28T1300,1768A,121.0604,40.8428,锦州市,开发区,,28,13,57,8,18,88,,66,66,4,14,9,15,0.3,0.4
2025-03-28T1300,1769A,121.1836,41.1119,锦州市,百股街道,,27,20,46,3,9,85,,76,76,3,7,7,9,0.4,0.5
2025-03-28T1300,1770A,121.1178,41.1222,锦州市,天安街道,,27,9,44,3,9,84,,78,77,8,10,9,12,0.4,0.4
2025-03-28T1300,1771A,121.1303,41.1386,锦州市,北湖公园,,27,14,42,6,12,84,,75,75,1,4,7,10,0.3,0.3
2025-03-28T1300,2160A,112.85,35.5051,晋城市,自来水公司,颗粒物(PM10),76,101,222,22,41,86,,80,80,7,16,6,5,0.3,0.4
2025-03-28T1300,2161A,112.8318,35.4936,晋城市,白云商贸,颗粒物(PM10),88,125,227,19,41,87,,82,82,8,19,4,4,0.2,0.4
2025-03-28T1300,2162A,112.8508,35.4887,晋城市,市环保局,颗粒物(PM10),73,96,232,27,50,88,,83,83,5,14,4,4,0.2,0.3
2025-03-28T1300,2163A,112.8676,35.4897,晋城市,技术学院,颗粒物(PM10),69,88,230,27,40,92,,87,87,6,17,6,5,0.2,0.4
2025-03-28T1300,2165A,112.8453,35.546,晋城市,白马寺,颗粒物(PM10),73,95,199,41,49,88,,84,84,2,7,4,3,0.4,0.5
2025-03-28T1300,3620A,112.8271,35.4828,晋城市,泽州一中,颗粒物(PM10),92,134,247,34,54,87,,82,82,6,13,7,7,0.3,0.4
2025-03-28T1300,2173A,112.7249,37.7067,晋中市,南都小区,颗粒物(PM10),65,80,357,15,58,93,,76,76,5,6,3,3,0.3,0.3
2025-03-28T1300,2174A,112.6991,37.6982,晋中市,榆次区政府,颗粒物(PM10),70,90,363,14,49,96,,78,78,4,6,4,4,0.3,0.3
2025-03-28T1300,2865A,112.7195,37.6828,晋中市,榆次三中,颗粒物(PM10),80,110,413,12,58,95,,78,78,1,3,2,2,0.2,0.3
2025-03-28T1300,4200A,112.7478,37.6954,晋中市,迎宾街26号,颗粒物(PM10),63,75,368,14,66,97,,80,80,3,3,2,2,0.2,0.2
2025-03-28T1300,2439A,112.2014,31.0481,荆门市,竹园小学,颗粒物(PM10),81,112,149,26,30,79,,90,86,11,10,2,5,0.3,0.3
2025-03-28T1300,2440A,112.1969,30.9891,荆门市,掇刀,颗粒物(PM10),78,106,141,23,29,78,,85,82,6,7,3,6,0.2,0.2
2025-03-28T1300,2441A,112.2213,31.0386,荆门市,石化一小,颗粒物(PM10),76,101,142,21,24,77,,86,83,12,11,8,9,0,0
2025-03-28T1300,3012A,112.1849,31.0362,荆门市,西山林语,颗粒物(PM10),71,92,126,21,31,79,,87,84,5,8,4,5,0.1,0.2
2025-03-28T1300,3547A,112.1632,31.0138,荆门市,龙泉中学南校,颗粒物(PM10),81,111,165,30,33,73,,83,77,2,5,6,7,0.5,0.4
2025-03-28T1300,1844A,112.2494,30.3197,荆州市,市图书馆,,48,48,124,24,36,78,,80,79,15,12,3,4,0.4,0.4
2025-03-28T1300,1845A,112.2008,30.3544,荆州市,市委党校,颗粒物(PM10),52,53,125,23,39,79,,84,83,14,13,4,5,0.2,0.2
2025-03-28T1300,3194A,112.2747,30.3122,荆州市,管委会,,36,36,127,20,39,81,,86,85,13,9,4,5,0.2,0.2
2025-03-28T1300,4268A,112.1722,30.3366,荆州市,学苑路85号,,28,28,115,18,31,78,,82,82,10,8,4,5,0.4,0.4
2025-03-28T1300,2342A,117.3102,29.3867,景德镇市,王港中学,,,,,,,,,,,,,,,,
2025-03-28T1300,2343A,117.2117,29.2933,景德镇市,老干部活动中心,颗粒物(PM10),78,105,93,35,31,58,,72,60,9,10,5,5,0.3,0.3
2025-03-28T1300,2344A,117.1894,29.2789,景德镇市,兽医站,颗粒物(PM10),88,126,113,26,29,58,,71,61,8,12,4,4,0.4,0.6
2025-03-28T1300,2345A,117.1547,29.2617,景德镇市,台达陶瓷,颗粒物(PM10),88,125,101,23,30,58,,72,60,11,11,22,6,0.5,0.5
2025-03-28T1300,2346A,117.2461,29.2956,景德镇市,陶研所,,,103,86,42,40,60,,73,62,10,10,4,4,,0.5
2025-03-28T1300,1803A,115.9872,29.6815,九江市,十里,颗粒物(PM10),56,61,115,20,41,78,,69,69,4,7,2,3,0.3,0.5
2025-03-28T1300,1804A,115.9584,29.7046,九江市,茅山头,,50,50,121,19,40,79,,69,69,3,8,3,4,0.3,0.4
2025-03-28T1300,1805A,115.9877,29.7295,九江市,西园,颗粒物(PM10),53,56,104,18,34,82,,74,74,11,11,4,6,0.5,0.6
2025-03-28T1300,1808A,115.9114,29.6038,九江市,综合工业园,颗粒物(PM10),55,60,127,14,34,76,,66,66,16,17,5,7,0.3,0.6
2025-03-28T1300,1809A,116.0721,29.7535,九江市,石化总厂,细颗粒物(PM2.5),68,55,120,49,50,74,,68,68,10,10,3,4,0.4,0.5
2025-03-28T1300,1810A,115.9773,29.5698,九江市,庐山气象台,,46,46,96,7,33,65,,59,59,5,8,6,7,0.8,0.9
2025-03-28T1300,3190A,116.0254,29.6994,九江市,外国语学校,颗粒物(PM10),55,60,117,21,40,70,,60,60,10,13,8,8,0.5,0.6
2025-03-28T1300,4253A,116.0102,29.6594,九江市,莲花大道8号,颗粒物(PM10),59,67,133,26,39,76,,65,65,7,9,5,7,0.3,0.5
2025-03-28T1300,4240A,98.4958,39.7339,酒泉市,玉门东路5号,颗粒物(PM10),68,85,98,28,33,86,,63,63,4,10,7,11,0.3,0.4
2025-03-28T1300,4241A,98.5099,39.7506,酒泉市,北大街108号,颗粒物(PM10),67,83,90,20,28,84,,68,68,5,9,8,10,0.3,0.4
2025-03-28T1300,2698A,76.0072,39.4467,喀什地区,巡警大队,颗粒物(PM10),500,1568,1923,401,429,45,,64,58,,14,,3,0.6,0.5
2025-03-28T1300,2699A,75.9755,39.4694,喀什地区,吾办,颗粒物(PM10),500,1596,1863,471,497,51,,64,59,18,11,3,3,0.6,0.5
2025-03-28T1300,4027A,75.9483,39.4689,喀什地区,老干局,颗粒物(PM10),500,1633,2004,383,397,59,,62,60,11,9,2,2,0.4,0.4
2025-03-28T1300,1824A,114.3389,34.7781,开封市,肿瘤医院,颗粒物(PM10),166,281,240,49,42,90,,71,71,4,15,7,6,0.6,0.7
2025-03-28T1300,1826A,114.2885,34.7965,开封市,世纪星幼儿园,颗粒物(PM10),156,261,209,33,38,95,,73,73,8,19,6,6,0.5,0.6
2025-03-28T1300,3147A,114.3438,34.8106,开封市,龙亭公园,颗粒物(PM10),183,316,222,48,37,90,,71,71,11,19,2,2,0.2,0.2
2025-03-28T1300,3210A,114.3644,34.7964,开封市,汴京公园,颗粒物(PM10),181,312,230,62,43,92,,74,74,10,21,4,4,0.4,0.5
2025-03-28T1300,3473A,114.2485,34.8306,开封市,技师学院,颗粒物(PM10),153,255,209,71,46,88,,63,63,10,23,8,9,0.4,0.6
2025-03-28T1300,3592A,114.4644,34.7556,开封市,祥符区生态环境局,,,,188,54,44,88,,68,68,5,19,4,5,0.5,0.6
2025-03-28T1300,1951A,84.895,45.6094,克拉玛依市,长征新村,,25,14,14,13,7,78,,76,71,8,8,6,6,0.2,0.2
2025-03-28T1300,1952A,84.8988,45.5893,克拉玛依市,南林小区,,24,17,13,13,8,76,,77,73,2,2,4,4,0.4,0.3
2025-03-28T1300,1954A,84.905,44.3396,克拉玛依市,独山子区,,29,28,26,20,11,86,,67,67,6,9,7,7,0.4,0.4
2025-03-28T1300,1955A,85.6979,46.098,克拉玛依市,乌尔禾区商贸楼,,28,10,14,9,6,87,,63,63,2,8,5,6,0.4,0.4
2025-03-28T1300,3612A,85.1045,45.6899,克拉玛依市,白碱滩区新站,,24,6,8,3,4,74,,74,70,6,4,9,7,0.3,0.2
2025-03-28T1300,2697A,76.1454,39.7142,克孜勒苏柯尔克孜自治州,市人民政府,颗粒物(PM10),500,1476,1529,332,364,67,,66,65,5,5,4,4,0.3,0.4
2025-03-28T1300,3665A,76.1658,39.7157,克孜勒苏柯尔克孜自治州,克州文化中心,颗粒物(PM10),500,1497,1635,312,350,64,,67,64,5,4,4,4,0.5,0.4
2025-03-28T1300,1450A,102.8204,24.8886,昆明市,呈贡新区,细颗粒物(PM2.5),77,58,61,56,51,174,,122,104,11,23,6,7,0.6,0.6
2025-03-28T1300,1451A,102.6251,24.9608,昆明市,西山森林公园,,,,,,,,,,,,,,,,
2025-03-28T1300,1452A,102.7252,25.0902,昆明市,龙泉镇,细颗粒物(PM2.5),83,66,57,61,42,183,,85,85,14,45,9,8,0.7,0.6
2025-03-28T1300,1453A,102.7266,25.0375,昆明市,东风东路,细颗粒物(PM2.5),93,87,67,69,53,185,,91,91,17,33,9,10,0.7,0.6
2025-03-28T1300,1454A,102.6742,25.0669,昆明市,金鼎山,细颗粒物(PM2.5),80,70,63,59,47,174,,86,86,15,44,4,5,0.7,0.7
2025-03-28T1300,1455A,102.6644,25.0401,昆明市,碧鸡广场,细颗粒物(PM2.5),83,76,65,61,48,175,,92,92,16,39,8,9,0.7,0.6
2025-03-28T1300,3179A,102.7494,25.0119,昆明市,官渡区博物馆,臭氧1小时,84,62,67,59,51,187,,75,75,10,41,8,8,0.6,0.7
2025-03-28T1300,3375A,102.8017,24.8336,昆明市,青年创业园,细颗粒物(PM2.5),87,68,62,64,50,170,,124,110,8,18,8,10,0.6,0.6
2025-03-28T1300,3550A,102.7997,24.9786,昆明市,昆明学院,细颗粒物(PM2.5),88,94,78,65,54,183,,92,92,12,26,6,7,0.6,0.6
2025-03-28T1300,3551A,102.5967,24.6736,昆明市,晋宁区生态环境分局,细颗粒物(PM2.5),73,58,55,53,51,172,,127,127,8,14,7,8,0.7,0.6
2025-03-28T1300,3552A,102.6678,24.9856,昆明市,云天化总部,"细颗粒物(PM2.5),臭氧1小时",80,82,66,59,49,184,,99,99,12,32,8,9,1.2,0.8
2025-03-28T1300,1456A,91.1319,29.6514,拉萨市,八廓街,,34,23,18,8,9,106,,91,84,16,16,11,13,0.7,0.6
2025-03-28T1300,1457A,91.1221,29.6747,拉萨市,市环保局,,31,6,21,3,9,99,,136,108,17,21,9,14,0.1,0.8
2025-03-28T1300,1458A,91.0874,29.6475,拉萨市,区监测站,,30,21,16,10,8,96,,79,71,18,20,11,11,0.4,0.4
2025-03-28T1300,1459A,91.1774,29.6541,拉萨市,西藏大学,,,21,15,6,7,99,,83,78,18,12,14,10,,0.9
2025-03-28T1300,1460A,90.9798,29.6588,拉萨市,区辐射站,,32,21,21,11,10,100,,79,73,17,23,10,8,0.5,0.5
2025-03-28T1300,1461A,91.0834,29.6292,拉萨市,拉萨火车站,,29,15,15,6,7,90,,68,62,19,16,9,6,0.4,0.4
2025-03-28T1300,2520A,109.2203,23.7256,来宾市,来宾技工学校,颗粒物(PM10),97,144,81,38,53,79,,62,62,13,16,6,6,0.9,0.9
2025-03-28T1300,3535A,109.1781,23.7297,来宾市,兴宾区政府,,,,74,,46,77,,55,55,12,13,,8,,1
2025-03-28T1300,4002A,109.2416,23.7461,来宾市,中南小学,颗粒物(PM10),106,162,88,40,46,74,,54,54,10,13,9,7,0.7,0.8
2025-03-28T1300,1477A,104.1373,35.9454,兰州市,榆中兰大校区,,,,,,,,,,,,,,,,
2025-03-28T1300,1479A,103.831,36.0464,兰州市,铁路设计院,,,,110,,24,80,,68,64,15,16,18,11,,0.5
2025-03-28T1300,3241A,103.7439,36.0842,兰州市,百合公园,颗粒物(PM10),79,107,113,30,27,66,,61,61,4,5,19,13,0.4,0.5
2025-03-28T1300,3242A,103.9611,35.998,兰州市,和平,颗粒物(PM10),124,197,117,58,32,74,,68,68,10,9,18,11,0.8,0.8
2025-03-28T1300,4236A,103.6293,36.0938,兰州市,庄浪东路808号,颗粒物(PM10),97,143,126,47,41,79,,69,67,12,12,23,15,0.4,0.3
2025-03-28T1300,4237A,103.7251,36.1043,兰州市,安宁西路88号,颗粒物(PM10),94,138,130,38,37,82,,75,75,5,4,26,15,0.4,0.3
2025-03-28T1300,4238A,103.8470,36.0676,兰州市,北滨河东路1号,颗粒物(PM10),85,120,116,38,36,88,,73,73,8,12,22,16,0.7,0.6
2025-03-28T1300,3245A,103.6633,36.533,兰州新区,新区管委会,颗粒物(PM10),81,111,100,35,34,85,,69,69,6,9,18,16,0.4,0.4
2025-03-28T1300,3246A,103.6975,36.4789,兰州新区,舟曲中学,颗粒物(PM10),98,146,152,39,32,88,,75,75,7,7,18,10,0.7,0.8
2025-03-28T1300,1067A,116.6708,39.5111,廊坊市,药材公司,颗粒物(PM10),53,55,33,22,12,81,,68,68,11,14,1,2,0.4,0.3
2025-03-28T1300,1068A,116.7214,39.5589,廊坊市,开发区,,38,38,31,25,13,83,,69,69,14,17,1,2,0.3,0.3
2025-03-28T1300,1070A,116.7244,39.5269,廊坊市,北华航天学院,,38,38,30,10,11,76,,65,65,14,18,2,3,0.3,0.3
2025-03-28T1300,2919A,116.7022,39.5453,廊坊市,河北工业大学,细颗粒物(PM2.5),53,,27,37,18,79,,66,66,11,15,5,5,0.4,0.3
2025-03-28T1300,2535A,103.7723,29.5462,乐山市,花湖湾,颗粒物(PM10),76,102,190,41,74,84,,89,81,6,7,3,2,0.3,0.3
2025-03-28T1300,2536A,103.7627,29.5844,乐山市,牛耳桥,颗粒物(PM10),77,104,194,36,57,76,,83,72,18,18,7,7,0.4,0.4
2025-03-28T1300,2537A,103.7508,29.6006,乐山市,市第三水厂,颗粒物(PM10),77,103,194,32,54,85,,93,84,11,10,4,5,0.3,0.3
2025-03-28T1300,2538A,103.7571,29.5664,乐山市,市监测站,颗粒物(PM10),75,100,192,36,60,82,,90,81,10,11,6,6,0.4,0.4
2025-03-28T1300,3361A,103.7311,29.5628,乐山市,理工大学,颗粒物(PM10),75,99,197,36,65,85,,92,84,10,11,3,4,0.3,0.2
2025-03-28T1300,2598A,100.2143,26.8576,丽江市,西南郊,,,,,,,,,,,,,,,,
2025-03-28T1300,2599A,100.2497,26.8802,丽江市,丽江古城,,38,38,31,20,18,111,,93,93,9,10,8,8,0.6,0.5
2025-03-28T1300,2600A,100.2203,26.8906,丽江市,市中心,,38,38,24,19,16,107,,85,81,14,17,10,9,0.7,0.6
2025-03-28T1300,1267A,119.914,28.4514,丽水市,监测站大楼,,45,45,54,3,20,56,,78,64,15,13,3,3,0.4,0.5
2025-03-28T1300,1268A,119.93,28.4586,丽水市,莲都小学,颗粒物(PM10),52,53,52,26,28,63,,81,66,15,11,3,3,0.4,0.5
2025-03-28T1300,1269A,119.879,28.4231,丽水市,余庄前,颗粒物(PM10),53,55,45,27,30,58,,75,61,16,12,3,3,0.5,0.6
2025-03-28T1300,1173A,119.176,34.5885,连云港市,市环境监测站,颗粒物(PM10),57,63,95,22,26,92,,73,73,10,16,10,9,0.5,0.5
2025-03-28T1300,3000A,119.3581,34.6972,连云港市,德源药业,颗粒物(PM10),57,63,90,19,23,92,,65,65,12,21,9,9,0.4,0.5
2025-03-28T1300,3007A,119.178,34.844,连云港市,新城一中,颗粒物(PM10),60,69,108,27,27,87,,75,75,17,20,9,11,0.6,0.6
2025-03-28T1300,3008A,119.3608,34.7519,连云港市,胡沟管理处,,36,36,51,17,20,99,,78,78,17,20,8,8,0.6,0.6
2025-03-28T1300,3009A,119.1478,34.5911,连云港市,矿山设计院,颗粒物(PM10),59,68,98,24,26,93,,70,70,20,30,10,8,0.4,0.4
2025-03-28T1300,3434A,119.2413,34.6539,连云港市,工贸学校,颗粒物(PM10),56,62,106,26,29,90,,68,68,13,18,9,8,0.6,0.6
2025-03-28T1300,3664A,119.4172,34.7341,连云港市,连云街道,颗粒物(PM10),53,56,99,22,25,94,,76,76,21,25,7,7,0.3,0.4
2025-03-28T1300,2571A,102.3431,27.8099,凉山彝族自治州,青龙寺,颗粒物(PM10),69,88,46,26,12,147,,100,100,4,9,6,6,0.6,0.6
2025-03-28T1300,2572A,102.2721,27.8415,凉山彝族自治州,邛海宾馆,颗粒物(PM10),76,101,48,52,28,139,,91,91,11,27,7,5,0.6,0.5
2025-03-28T1300,2573A,102.2625,27.898,凉山彝族自治州,西昌市政府,细颗粒物(PM2.5),77,93,55,56,31,130,,111,111,8,9,7,9,0.6,0.5
2025-03-28T1300,2574A,102.2685,27.8851,凉山彝族自治州,凉山州政府,颗粒物(PM10),74,98,55,53,29,142,,98,98,9,17,5,7,0.6,0.4
2025-03-28T1300,4229A,102.2342,27.8859,凉山彝族自治州,凯乐南路30号,细颗粒物(PM2.5),85,112,62,63,29,130,,89,89,9,28,6,10,0.5,0.5
2025-03-28T1300,2212A,123.2,41.1953,辽阳市,宏伟区,,31,31,38,12,14,94,,79,79,3,9,10,11,0.8,0.8
2025-03-28T1300,2213A,123.1683,41.2495,辽阳市,新华园,,,,,,,,,,,,,,,,
2025-03-28T1300,2214A,123.2354,41.2639,辽阳市,滨河路,,31,31,40,10,14,87,,72,72,4,13,5,7,0.4,0.5
2025-03-28T1300,2215A,123.149,41.2991,辽阳市,铁西工业园,,35,35,41,17,17,91,,68,68,13,18,13,9,0.7,0.6
2025-03-28T1300,2227A,125.1358,42.8845,辽源市,环保局,颗粒物(PM10),52,54,37,11,9,91,,76,76,8,13,4,12,0.5,0.6
2025-03-28T1300,3239A,125.0764,42.9078,辽源市,银鹰制药,,30,22,22,13,11,94,,78,78,6,11,5,6,0.8,0.8
2025-03-28T1300,1625A,115.9848,36.4372,聊城市,区政府,颗粒物(PM10),196,342,278,56,44,83,,74,74,10,30,7,7,0.4,0.4
2025-03-28T1300,2878A,116.0072,36.4343,聊城市,聊大东校,颗粒物(PM10),213,359,265,72,50,78,,71,71,10,26,9,7,0.4,0.4
2025-03-28T1300,3200A,115.9819,36.4978,聊城市,监控中心,颗粒物(PM10),246,382,290,61,45,78,,69,69,8,32,10,10,0.4,0.5
2025-03-28T1300,3513A,116.0445,36.4361,聊城市,九州社区,颗粒物(PM10),210,357,269,55,44,80,,76,76,9,27,10,9,0.4,0.5
2025-03-28T1300,4018A,116.0567,36.4608,聊城市,星美广场,颗粒物(PM10),183,315,231,56,42,77,,71,71,7,22,7,9,0.5,0.6
2025-03-28T1300,2632A,94.3681,29.6376,林芝市,林芝监测站,,32,16,23,7,11,102,,82,78,4,5,4,5,0.2,0.2
2025-03-28T1300,2633A,94.3616,29.6616,林芝市,林芝人民医院,,,15,30,3,10,,,75,68,2,2,8,7,,0.1
2025-03-28T1300,2603A,100.0781,23.8982,临沧市,市环保局,细颗粒物(PM2.5),112,113,87,84,62,165,,94,94,15,16,10,9,0.9,0.8
2025-03-28T1300,2604A,100.0894,23.8822,临沧市,市气象局,细颗粒物(PM2.5),100,99,77,75,68,170,,92,91,17,19,7,7,0.7,0.7
2025-03-28T1300,1733A,111.5531,36.0783,临汾市,临钢医院,颗粒物(PM10),73,96,353,12,48,90,,84,84,2,2,2,3,0.4,0.4
2025-03-28T1300,1734A,111.5028,36.0714,临汾市,技工学校,颗粒物(PM10),62,74,304,11,60,89,,81,81,1,4,4,4,0.3,0.3
2025-03-28T1300,1736A,111.5018,36.0855,临汾市,市委,颗粒物(PM10),59,68,337,13,54,93,,85,85,2,3,1,2,0.4,0.4
2025-03-28T1300,3018A,111.505,36.1014,临汾市,唐尧大酒店,颗粒物(PM10),58,65,304,18,51,90,,82,82,1,2,4,4,0.2,0.2
2025-03-28T1300,4244A,111.4879,36.0530,临汾市,启星学校,颗粒物(PM10),52,54,312,7,54,88,,82,82,2,4,1,2,0.3,0.3
2025-03-28T1300,4271A,103.2464,35.6123,临夏回族自治州,滨河东路1号,颗粒物(PM10),72,93,81,36,31,82,,62,62,3,5,4,4,0.4,0.4
2025-03-28T1300,4310A,103.2093,35.5995,临夏回族自治州,新华街21号,颗粒物(PM10),67,83,77,38,27,76,,67,66,6,8,8,8,0.4,0.3
2025-03-28T1300,1618A,118.3429,35.0532,临沂市,沂河小区,细颗粒物(PM2.5),89,119,80,66,30,69,,72,72,12,12,6,6,0.6,0.5
2025-03-28T1300,1619A,118.295,35.0583,临沂市,鲁南制药厂,颗粒物(PM10),86,122,80,55,26,77,,76,76,18,24,7,8,0.4,0.3
2025-03-28T1300,1620A,118.2794,34.9976,临沂市,新光毛纺厂,颗粒物(PM10),85,119,76,42,24,70,,70,70,18,25,6,5,0.7,0.6
2025-03-28T1300,1621A,118.3956,35.0888,临沂市,河东保险公司,颗粒物(PM10),81,112,72,45,24,76,,70,70,21,23,3,3,0.4,0.3
2025-03-28T1300,3370A,118.3564,35.0215,临沂市,十里堡居委,颗粒物(PM10),76,102,75,41,23,70,,73,72,18,18,3,2,0.7,0.5
2025-03-28T1300,3496A,118.3604,35.1084,临沂市,南坊新区,颗粒物(PM10),91,132,82,51,24,76,,76,76,16,17,5,5,0.6,0.5
2025-03-28T1300,3860A,118.3920,35.0300,临沂市,皇山花园小区,颗粒物(PM10),82,114,78,45,24,72,,73,72,14,13,5,5,0.5,0.3
2025-03-28T1300,1870A,109.4856,24.3895,柳州市,柳东小学,颗粒物(PM10),83,115,84,43,46,70,,78,77,15,18,11,15,0.4,0.6
2025-03-28T1300,1871A,109.4157,24.3277,柳州市,环保监测站,颗粒物(PM10),103,155,94,43,48,67,,84,76,13,14,13,12,0.8,0.9
2025-03-28T1300,1872A,109.389,24.341,柳州市,河西水厂,颗粒物(PM10),107,163,96,41,45,69,,83,76,12,14,8,8,0.5,0.7
2025-03-28T1300,1873A,109.4311,24.2921,柳州市,市四中,颗粒物(PM10),87,123,90,29,43,72,,88,78,13,16,10,10,0.5,0.7
2025-03-28T1300,1874A,109.4006,24.3631,柳州市,市九中,,,,97,,39,69,,85,79,,12,10,10,0.7,0.8
2025-03-28T1300,1875A,109.4958,24.3134,柳州市,古亭山,颗粒物(PM10),91,131,92,34,42,73,,87,78,9,11,8,9,0.6,0.7
2025-03-28T1300,3402A,109.5422,24.3996,柳州市,市二中,颗粒物(PM10),83,116,94,31,44,71,,79,78,12,16,12,16,0.4,0.5
2025-03-28T1300,2307A,116.5079,31.737,六安市,监测大楼,,47,47,113,16,29,76,,76,76,6,11,4,5,0.3,0.4
2025-03-28T1300,2308A,116.4738,31.7643,六安市,皖西学院,,45,45,138,18,29,80,,78,78,9,14,3,4,0.4,0.4
2025-03-28T1300,2309A,116.4996,31.7905,六安市,朝阳厂,,40,40,108,18,27,78,,75,75,10,13,3,3,0.4,0.4
2025-03-28T1300,2310A,116.5567,31.7886,六安市,开发区,颗粒物(PM10),61,72,147,21,33,81,,78,78,8,14,3,4,0.4,0.5
2025-03-28T1300,2576A,104.8,26.5892,六盘水市,窑上,颗粒物(PM10),171,292,136,106,57,94,,130,103,6,7,8,7,0.5,0.5
2025-03-28T1300,2577A,104.83,26.5917,六盘水市,黄土坡,颗粒物(PM10),168,286,146,92,50,93,,135,100,10,15,13,11,0.5,0.5
2025-03-28T1300,2578A,104.89,26.5939,六盘水市,水钢,颗粒物(PM10),176,302,160,88,51,88,,131,94,10,12,13,12,0.4,0.3
2025-03-28T1300,2579A,104.8475,26.5894,六盘水市,民中,颗粒物(PM10),152,254,129,80,50,84,,126,93,13,14,15,12,0.5,0.6
2025-03-28T1300,2580A,104.9544,26.5506,六盘水市,双水,颗粒物(PM10),180,310,149,87,53,86,,127,98,10,14,14,13,0.4,0.5
2025-03-28T1300,2335A,117.0189,25.1181,龙岩市,龙岩师专,,,,,,,,,,,,,,,,
2025-03-28T1300,2336A,117.0217,25.1033,龙岩市,龙岩市监测站,颗粒物(PM10),54,57,42,36,29,51,,38,38,21,24,6,8,0.5,0.5
2025-03-28T1300,2337A,117.0258,25.0661,龙岩市,闽西职业技术学院,,45,45,57,31,30,43,,35,35,23,25,10,24,0.7,0.6
2025-03-28T1300,2338A,117.0196,25.0306,龙岩市,龙岩学院,,49,39,39,34,28,60,,51,50,18,14,2,4,0.7,0.5
2025-03-28T1300,2665A,105.0822,33.3261,陇南市,汉王镇固水子,,,,,,,,,,,,,,,,
2025-03-28T1300,2885A,104.9339,33.3826,陇南市,滨江中学,颗粒物(PM10),81,111,124,22,34,76,,73,72,2,2,4,5,0.4,0.4
2025-03-28T1300,3247A,104.955,33.371,陇南市,市总工会,颗粒物(PM10),95,139,124,42,34,79,,78,76,3,2,6,6,0.4,0.3
2025-03-28T1300,2487A,111.9589,27.8901,娄底市,电视发射台,,,137,192,,42,73,,81,80,5,8,5,7,0.3,0.4
2025-03-28T1300,2488A,111.9975,27.725,娄底市,市监测站,颗粒物(PM10),76,102,157,25,32,74,,80,80,8,12,8,10,0.3,0.3
2025-03-28T1300,2489A,112.0194,27.7314,娄底市,市委党校,颗粒物(PM10),81,111,161,35,43,78,,82,82,2,5,6,4,0.3,0.4
2025-03-28T1300,2490A,111.9561,27.7569,娄底市,涟钢,颗粒物(PM10),87,124,174,40,47,69,,76,75,17,16,3,4,1.8,1.4
2025-03-28T1300,2491A,111.9892,27.7044,娄底市,市政府,,,70,150,31,40,77,,81,81,,6,7,8,0.3,0.3
2025-03-28T1300,1893A,105.4324,28.9634,泸州市,九狮山,,,,,,,,,,,,,,,,
2025-03-28T1300,1894A,105.4427,28.9063,泸州市,小市上码头,颗粒物(PM10),86,121,229,36,69,69,,75,69,11,12,5,7,0.4,0.3
2025-03-28T1300,1895A,105.4241,28.8573,泸州市,兰田宪桥,细颗粒物(PM2.5),64,62,116,46,73,61,,72,64,13,11,5,7,0.3,0.3
2025-03-28T1300,1896A,105.4379,28.8833,泸州市,市环监站,,,,,,,,,,,,,,,,
2025-03-28T1300,4272A,105.3689,28.7783,泸州市,纳溪中医医院,颗粒物(PM10),79,107,248,26,42,69,,75,70,7,9,5,6,0.5,0.4
2025-03-28T1300,2183A,111.1406,37.5211,吕梁市,环保局,,36,36,337,20,63,90,,80,80,3,2,3,3,0.3,0.3
2025-03-28T1300,2185A,111.1297,37.5136,吕梁市,自来水公司,,36,36,317,9,58,92,,81,81,5,3,3,3,0.2,0.2
2025-03-28T1300,2867A,111.1283,37.51,吕梁市,马茂庄小学,,35,35,353,20,72,92,,81,81,4,5,3,3,0.3,0.2
2025-03-28T1300,1812A,112.3931,34.6516,洛阳市,市委党校,颗粒物(PM10),107,164,182,52,52,81,,62,62,7,12,2,3,0.3,0.4
2025-03-28T1300,1815A,112.494,34.6886,洛阳市,河南林校,颗粒物(PM10),123,195,230,60,55,87,,66,66,4,12,1,4,0.5,0.5
2025-03-28T1300,1816A,112.3844,34.623,洛阳市,开发区管委会,颗粒物(PM10),121,191,187,53,55,91,,71,71,7,11,6,3,0.3,0.3
2025-03-28T1300,1817A,112.4267,34.6258,洛阳市,市委新办公区,颗粒物(PM10),113,175,188,45,54,88,,70,70,8,13,3,3,0.1,0.2
2025-03-28T1300,3340A,112.6005,34.6326,洛阳市,伊滨,颗粒物(PM10),150,249,171,61,55,90,,65,65,5,12,3,4,0.5,0.5
2025-03-28T1300,3341A,112.4951,34.6332,洛阳市,中移产业园,颗粒物(PM10),182,314,243,80,61,82,,58,58,7,12,4,5,0.1,0.2
2025-03-28T1300,3593A,112.5736,34.8993,洛阳市,吉利监测站,颗粒物(PM10),166,282,229,75,61,92,,68,68,5,12,6,6,0.4,0.4
2025-03-28T1300,3635A,112.3677,34.662,洛阳市,河科大西苑校区,颗粒物(PM10),116,182,196,43,46,82,,,,4,12,5,6,0.2,0.3
2025-03-28T1300,3636A,112.4388,34.6781,洛阳市,英才小学,颗粒物(PM10),114,177,203,45,53,86,,62,62,7,20,5,7,0.2,0.4
2025-03-28T1300,4214A,112.4600,34.6949,洛阳市,春都路1号院,颗粒物(PM10),122,194,226,43,46,91,,68,68,3,12,5,7,0.3,0.7
2025-03-28T1300,2399A,114.051,33.5699,漯河市,三五一五工厂,颗粒物(PM10),445,545,277,110,51,69,,63,63,8,10,6,5,0.4,0.3
2025-03-28T1300,2400A,114.0055,33.5698,漯河市,漯河大学,颗粒物(PM10),420,520,238,95,44,69,,60,60,12,14,6,6,0.4,0.4
2025-03-28T1300,2401A,114.0138,33.5828,漯河市,市水利局,颗粒物(PM10),454,554,257,100,50,69,,59,59,10,12,4,4,0.5,0.4
2025-03-28T1300,2402A,114.0261,33.5698,漯河市,市广电局,颗粒物(PM10),427,527,252,90,43,67,,58,58,4,9,5,5,0.4,0.4
2025-03-28T1300,3478A,113.9749,33.5664,漯河市,市图书馆,颗粒物(PM10),338,450,212,95,47,74,,61,61,8,11,5,5,0.5,0.4
2025-03-28T1300,4250A,114.0892,33.5882,漯河市,韶山路11号,颗粒物(PM10),422,522,221,110,48,69,,62,62,6,8,4,4,0.3,0.2
2025-03-28T1300,1798A,118.5092,31.6837,马鞍山市,湖东路四小,颗粒物(PM10),62,74,159,25,36,66,,70,70,26,18,19,8,1.3,0.7
2025-03-28T1300,1799A,118.5024,31.6449,马鞍山市,开发区,,,60,163,23,33,77,,74,74,,21,5,4,0.4,0.7
2025-03-28T1300,1802A,118.6245,31.7241,马鞍山市,濮塘,颗粒物(PM10),52,54,140,27,48,84,,75,75,7,10,8,7,0.2,0.3
2025-03-28T1300,3633A,118.4918,31.6809,马鞍山市,雨山,颗粒物(PM10),56,61,165,22,35,80,,66,66,14,21,10,9,0.8,0.9
2025-03-28T1300,4191A,118.5274,31.72227,马鞍山市,慈湖高新区,颗粒物(PM10),64,78,160,27,40,71,,69,69,22,18,12,7,1.1,0.7
2025-03-28T1300,1686A,111.0286,21.4688,茂名市,电白南海,,35,29,33,24,23,41,,32,32,7,7,1,1,0.7,0.7
2025-03-28T1300,1687A,110.9294,21.6533,茂名市,茂石化七小,,24,24,34,9,15,23,,20,20,2,3,1,2,0.8,0.7
2025-03-28T1300,1688A,110.9107,21.6687,茂名市,健康路,,27,27,36,17,16,37,,30,30,4,6,2,2,0.5,0.5
2025-03-28T1300,1689A,110.8592,21.6828,茂名市,高岭,,48,48,46,12,14,35,,28,28,5,7,2,3,0.5,0.5
2025-03-28T1300,3450A,111.01,21.5165,茂名市,电白水东,,18,14,27,12,12,32,,28,28,8,9,1,1,0.7,0.5
2025-03-28T1300,2539A,104.0308,30.0478,眉山市,黑龙滩水库,颗粒物(PM10),58,66,185,19,41,82,,84,82,2,2,3,2,0.4,0.4
2025-03-28T1300,2540A,103.8416,30.0874,眉山市,气象局,颗粒物(PM10),85,119,239,24,61,81,,85,82,13,12,5,5,0.3,0.3
2025-03-28T1300,3137A,103.8578,30.0744,眉山市,市委党校,颗粒物(PM10),76,102,209,22,54,82,,81,81,5,8,3,4,0.3,0.3
2025-03-28T1300,3148A,103.8291,30.0564,眉山市,区人社局,颗粒物(PM10),56,61,169,17,49,83,,87,83,14,16,3,3,0.4,0.4
2025-03-28T1300,1690A,116.1231,24.3284,梅州市,梅江月梅,,50,50,34,33,23,58,,42,42,12,14,5,5,0.6,0.5
2025-03-28T1300,1691A,116.0797,24.2719,梅州市,梅县新城,细颗粒物(PM2.5),52,38,37,36,25,68,,38,38,9,20,6,6,0.5,0.4
2025-03-28T1300,1692A,116.1248,24.2654,梅州市,环境监控中心,,,53,35,29,25,56,,39,39,14,22,7,9,,0.6
2025-03-28T1300,3315A,116.1233,24.2991,梅州市,梅龙,颗粒物(PM10),52,53,35,30,21,60,,42,42,11,18,7,9,0.6,0.5
2025-03-28T1300,1878A,104.7778,31.4741,绵阳市,富乐山,,,,219,,55,74,,79,78,,6,1,2,0.4,0.4
2025-03-28T1300,1880A,104.6697,31.4668,绵阳市,高新区自来水公司,,,119,223,24,47,,,80,78,9,10,2,2,0.3,0.2
2025-03-28T1300,1881A,104.7287,31.5075,绵阳市,三水厂,颗粒物(PM10),78,106,244,24,57,84,,87,86,6,5,5,5,0.3,0.3
2025-03-28T1300,3491A,104.69,31.5322,绵阳市,西科大附属小学,颗粒物(PM10),85,120,228,27,55,79,,80,80,7,8,6,6,0.3,0.3
2025-03-28T1300,3492A,104.5648,31.5343,绵阳市,安州区旅游局,颗粒物(PM10),77,104,215,19,41,70,,68,68,7,7,4,7,0.0,0.1
2025-03-28T1300,4226A,104.7651,31.4531,绵阳市,绵阳市气象局,颗粒物(PM10),81,111,217,24,42,72,,66,66,6,5,6,5,0.4,0.3
2025-03-28T1300,1784A,129.61,44.561,牡丹江市,环保大楼,,28,23,29,19,24,82,,72,72,5,10,5,5,0.2,0.3
2025-03-28T1300,1785A,129.6115,44.5782,牡丹江市,文化广场,,27,,22,8,20,86,,74,74,2,9,9,10,0.2,0.3
2025-03-28T1300,1786A,129.5904,44.5963,牡丹江市,第一医院,,27,20,24,11,20,85,,74,74,14,9,9,10,0.3,0.1
2025-03-28T1300,1787A,129.6364,44.6075,牡丹江市,机车工厂,,27,6,27,3,17,86,,75,75,1,8,6,10,0.3,0.4
2025-03-28T1300,1788A,129.6386,44.5462,牡丹江市,第一中学,,28,9,25,8,19,88,,78,78,2,8,7,7,0.3,0.4
2025-03-28T1300,2531A,105.0703,29.61,内江市,市监测站,颗粒物(PM10),62,74,166,37,70,77,,84,80,10,10,3,4,0.4,0.3
2025-03-28T1300,2532A,105.0717,29.5947,内江市,东兴区政府,,44,44,186,28,67,71,,79,74,12,11,1,4,0.4,0.4
2025-03-28T1300,2533A,105.0653,29.5817,内江市,内江二中,细颗粒物(PM2.5),69,66,193,50,91,73,,80,76,10,10,7,8,0.2,0.2
2025-03-28T1300,2534A,105.0406,29.5822,内江市,内江日报社,颗粒物(PM10),71,92,228,34,72,73,,81,78,12,9,2,4,0.3,0.3
2025-03-28T1300,2628A,92.0657,31.4846,那曲市,那曲监测站,,,32,41,9,22,107,,59,59,3,20,,11,0.4,1
2025-03-28T1300,4243A,92.0515,31.4787,那曲市,那曲市委宣传部,,,37,40,6,27,112,,55,55,6,20,4,8,,0.9
2025-03-28T1300,1290A,115.8931,28.6843,南昌市,省外办,,,83,132,34,44,,,60,46,,19,6,6,0.7,0.7
2025-03-28T1300,1291A,115.8886,28.7003,南昌市,省林业公司,颗粒物(PM10),70,90,168,31,44,65,,62,53,9,10,6,8,0,0
2025-03-28T1300,1292A,115.8126,28.7442,南昌市,林科所,颗粒物(PM10),73,95,145,24,39,68,,68,59,12,16,1,2,0.1,0.3
2025-03-28T1300,1294A,115.8518,28.687,南昌市,建工学校,颗粒物(PM10),82,114,175,43,55,62,,63,53,11,12,2,4,0.4,0.5
2025-03-28T1300,1295A,115.8921,28.6424,南昌市,象湖,颗粒物(PM10),96,141,139,31,40,69,,71,59,8,9,6,7,0.5,0.6
2025-03-28T1300,1296A,115.7423,28.7996,南昌市,武术学校,颗粒物(PM10),76,102,122,22,32,66,,65,57,8,9,6,9,0.5,0.6
2025-03-28T1300,3046A,115.9084,28.6062,南昌市,机电学校,,,115,165,41,43,60,,65,52,15,14,,4,0.5,0.5
2025-03-28T1300,3690A,115.9721,28.7031,南昌市,外国语学校,颗粒物(PM10),70,90,146,26,43,68,,66,55,11,13,2,3,0.1,0.2
2025-03-28T1300,4192A,115.9316,28.68677,南昌市,南京东路235号,颗粒物(PM10),79,108,126,30,45,65,,63,54,13,14,8,6,0.2,0.4
2025-03-28T1300,1905A,106.056,30.8064,南充市,西山风景区,,23,22,240,8,70,73,,,,4,4,3,3,0.3,0.2
2025-03-28T1300,1906A,106.0789,30.8023,南充市,南充市委,颗粒物(PM10),63,75,268,27,84,67,,83,76,16,11,2,3,0.4,0.4
2025-03-28T1300,1907A,106.1031,30.8217,南充市,南充炼油厂,颗粒物(PM10),52,54,244,24,74,66,,76,72,9,8,3,3,0.3,0.3
2025-03-28T1300,1909A,106.0642,30.7636,南充市,嘉陵区环保局,颗粒物(PM10),51,52,238,22,67,65,,75,70,9,8,2,3,0.0,0.1
2025-03-28T1300,4227A,106.1083,30.7884,南充市,梨树横街98号,颗粒物(PM10),58,66,259,18,28,70,,79,76,9,10,4,4,0.2,0.2
2025-03-28T1300,4304A,106.1172,30.843,南充市,清泉寺北路188号,颗粒物(PM10),59,67,262,28,66,69,,81,77,9,10,6,6,0.1,0.2
2025-03-28T1300,1151A,118.8086,32.1065,南京市,迈皋桥,,,65,118,29,31,81,,77,76,13,14,4,4,,0.3
2025-03-28T1300,1152A,118.7538,32.0551,南京市,草场门,颗粒物(PM10),64,78,143,22,29,80,,72,71,18,19,5,6,0.5,0.5
2025-03-28T1300,1153A,118.7794,32.0745,南京市,山西路,颗粒物(PM10),70,90,217,17,29,71,,66,64,13,20,5,5,0.3,0.4
2025-03-28T1300,1154A,118.7752,32.0023,南京市,中华门,颗粒物(PM10),58,66,152,17,32,73,,65,63,2,10,6,7,0.4,0.4
2025-03-28T1300,1155A,118.8109,32.0309,南京市,瑞金路,颗粒物(PM10),63,75,154,27,34,73,,69,67,5,5,7,7,0.9,0.6
2025-03-28T1300,1156A,118.7997,32.0754,南京市,玄武湖,颗粒物(PM10),63,75,145,21,27,73,,68,66,15,17,6,4,0.8,0.5
2025-03-28T1300,1157A,118.6414,32.0931,南京市,浦口,颗粒物(PM10),69,88,158,21,27,87,,78,78,10,13,6,6,0.1,0.3
2025-03-28T1300,1158A,118.7356,31.9996,南京市,奥体中心,颗粒物(PM10),61,71,147,17,32,79,,70,70,14,17,5,6,0.2,0.4
2025-03-28T1300,1159A,118.9125,32.1028,南京市,仙林大学城,颗粒物(PM10),62,73,160,29,31,80,,69,69,14,14,9,8,0.6,0.6
2025-03-28T1300,3422A,118.8436,31.9198,南京市,江宁彩虹桥,颗粒物(PM10),63,76,163,24,31,73,,70,70,13,10,4,4,0.6,0.4
2025-03-28T1300,3427A,118.8554,32.3578,南京市,六合雄州,颗粒物(PM10),65,79,130,22,23,78,,68,68,1,7,4,4,0.2,0.3
2025-03-28T1300,4249A,118.8708,31.3402,南京市,汶溪路181号,,41,41,157,21,39,73,,66,66,14,17,2,3,0.7,0.7
2025-03-28T1300,4312A,119.019,31.6512,南京市,中山西路1号,颗粒物(PM10),53,56,125,21,36,76,,72,72,16,14,4,4,0.3,0.3
2025-03-28T1300,1401A,108.3103,22.7881,南宁市,二十一中,颗粒物(PM10),57,64,58,36,33,49,,61,46,18,17,5,5,0.8,0.8
2025-03-28T1300,1402A,108.3141,22.8528,南宁市,北湖,细颗粒物(PM2.5),60,53,59,43,42,53,,66,54,16,14,9,7,0.7,0.7
2025-03-28T1300,1403A,108.3206,22.8225,南宁市,市监测站,颗粒物(PM10),62,73,55,40,37,39,,58,39,26,18,9,7,0.7,0.7
2025-03-28T1300,1404A,108.3829,22.8037,南宁市,大自然花园,颗粒物(PM10),65,80,58,42,36,46,,59,41,21,14,7,6,1.0,0.9
2025-03-28T1300,1405A,108.4394,22.7904,南宁市,仙葫,,,72,64,39,39,48,,52,37,,16,,3,0.5,0.5
2025-03-28T1300,1406A,108.2397,22.8467,南宁市,区农职院,颗粒物(PM10),65,79,64,38,36,53,,47,40,16,21,5,5,0.8,0.8
2025-03-28T1300,1407A,108.3275,22.735,南宁市,英华嘉园,,,82,59,41,36,55,,61,51,17,16,8,8,,0.6
2025-03-28T1300,3401A,108.4834,22.7618,南宁市,红星社区,颗粒物(PM10),60,70,50,38,40,49,,36,25,12,18,10,9,0.8,0.8
2025-03-28T1300,4221A,108.2177,22.7774,南宁市,乐贤路16号,,,,76,,38,51,,25,25,18,29,,9,,0.8
2025-03-28T1300,2331A,118.0966,26.6761,南平市,茫荡山,,,,,,,,,,,,,,,,
2025-03-28T1300,2332A,118.1681,26.6369,南平市,南平市监测站,,17,6,44,3,34,54,,39,39,9,15,3,4,0.7,0.7
2025-03-28T1300,2333A,118.1825,26.6489,南平市,南平铝业有限公司,,18,6,46,3,36,56,,39,39,8,17,4,7,0.7,0.8
2025-03-28T1300,2334A,118.1756,26.6272,南平市,南平七中,,,,47,8,36,56,,35,35,8,17,5,5,0.7,0.7
2025-03-28T1300,1168A,120.9098,31.9663,南通市,狼山街道,,47,47,88,17,23,93,,74,74,12,14,6,6,0.3,0.4
2025-03-28T1300,1169A,120.86,32.0005,南通市,虹桥,,38,38,81,19,25,82,,67,67,13,14,5,5,0.6,0.6
2025-03-28T1300,1170A,120.87,32.02,南通市,城中,,49,49,93,14,22,86,,68,68,12,14,7,7,0.5,0.5
2025-03-28T1300,1171A,120.94,31.93,南通市,星湖花园,,37,37,81,17,26,84,,67,67,12,14,5,6,0.4,0.4
2025-03-28T1300,1172A,120.81,32.0417,南通市,紫琅学院,,40,40,86,17,21,83,,71,71,11,14,3,3,0.7,0.7
2025-03-28T1300,3291A,121.067,32.062,南通市,通州监测站,,48,48,82,17,22,96,,75,75,10,12,4,4,0.5,0.6
2025-03-28T1300,3432A,120.9348,31.9883,南通市,环境教育馆,,41,41,80,11,23,96,,74,74,5,8,5,6,0.3,0.3
2025-03-28T1300,2404A,112.5224,33.0122,南阳市,瓦房庄,颗粒物(PM10),164,278,129,73,33,76,,83,69,,9,,2,0.3,0.4
2025-03-28T1300,2405A,112.5003,32.9735,南阳市,汉画馆,颗粒物(PM10),124,198,115,43,31,63,,76,58,16,15,4,4,0.3,0.3
2025-03-28T1300,2406A,112.5573,33.027,南阳市,气象站,颗粒物(PM10),125,199,147,44,30,51,,81,67,,13,4,5,0.4,0.4
2025-03-28T1300,2407A,112.5481,32.9689,南阳市,理工学院,颗粒物(PM10),100,149,118,38,29,53,,80,60,15,12,4,3,0.4,0.3
2025-03-28T1300,4008A,112.5234,32.9922,南阳市,卧龙区政府,颗粒物(PM10),174,298,137,56,31,78,,83,71,6,8,3,3,0.4,0.4
2025-03-28T1300,1234A,121.8358,29.911,宁波市,区环保大楼,颗粒物(PM10),55,60,64,31,30,52,,69,63,33,24,8,8,0.6,0.5
2025-03-28T1300,1235A,121.56,29.82,宁波市,万里学院,,,,90,24,22,63,,75,68,17,12,5,7,0.6,0.5
2025-03-28T1300,1236A,121.713,29.9572,宁波市,龙赛医院,颗粒物(PM10),60,69,74,16,22,54,,79,66,28,14,8,8,0.6,0.5
2025-03-28T1300,1239A,121.633,29.7733,宁波市,钱湖水厂,颗粒物(PM10),54,58,63,29,24,63,,74,69,22,15,7,7,0.5,0.5
2025-03-28T1300,1240A,121.5856,29.8635,宁波市,太古小学,颗粒物(PM10),58,65,69,19,20,62,,76,68,21,13,8,8,0.4,0.6
2025-03-28T1300,1241A,121.524,29.8674,宁波市,市环境监测中心,颗粒物(PM10),58,66,64,12,20,56,,70,63,28,20,7,7,0.7,0.6
2025-03-28T1300,2871A,121.6147,29.9017,宁波市,万里国际学校,颗粒物(PM10),52,54,62,21,19,53,,72,60,29,14,7,8,0.5,0.5
2025-03-28T1300,3710A,121.5594,29.8975,宁波市,白沙活动中心,颗粒物(PM10),53,55,61,22,25,63,,77,71,21,13,6,6,0.4,0.4
2025-03-28T1300,2339A,119.5001,26.6946,宁德市,金涵水库,,,,,,,,,,,,,,,,
2025-03-28T1300,2341A,119.5388,26.6612,宁德市,宁德市监测站,,24,19,58,12,31,74,,103,82,15,24,4,5,0.3,0.5
2025-03-28T1300,3209A,119.5231,26.6562,宁德市,宁德一中,,24,19,62,6,32,76,,105,84,12,18,5,6,0.2,0.4
2025-03-28T1300,2618A,98.8601,25.8567,怒江傈僳族自治州,州监测站,细颗粒物(PM2.5),57,52,73,40,55,117,,89,77,6,10,7,7,0.5,0.6
2025-03-28T1300,2619A,98.8546,25.8417,怒江傈僳族自治州,泸水一中,细颗粒物(PM2.5),95,,66,71,58,109,,67,64,10,15,7,7,0.6,0.6
2025-03-28T1300,1888A,101.6891,26.571,攀枝花市,弄弄坪,细颗粒物(PM2.5),82,62,56,60,33,154,,71,71,12,30,15,15,0.7,1.1
2025-03-28T1300,1889A,101.5769,26.5928,攀枝花市,河门口,,,96,53,,25,161,,70,70,14,24,14,15,0.9,1
2025-03-28T1300,1890A,101.7169,26.585,攀枝花市,炳草岗,臭氧1小时,64,59,61,43,34,171,,60,60,13,43,19,16,0.9,0.9
2025-03-28T1300,1891A,101.7369,26.5008,攀枝花市,仁和,细颗粒物(PM2.5),70,67,47,51,31,157,,99,99,9,19,8,10,0.7,0.6
2025-03-28T1300,2835A,101.7227,26.567,攀枝花市,四十中小,颗粒物(PM10),67,84,54,46,31,172,,80,80,15,31,20,15,0.3,0.3
2025-03-28T1300,1604A,122.0303,41.1489,盘锦市,开发区,,29,7,36,3,10,91,,74,74,2,7,4,5,0.3,0.4
2025-03-28T1300,1605A,122.0485,41.0883,盘锦市,兴隆台,,28,12,35,3,8,87,,72,72,6,11,3,4,0.4,0.4
2025-03-28T1300,1606A,121.8297,41.1028,盘锦市,新生街道,,29,15,32,8,9,90,,67,67,5,21,8,8,0.5,0.5
2025-03-28T1300,1832A,113.3257,33.742,平顶山市,新华旅馆,颗粒物(PM10),332,445,224,59,40,92,,67,67,8,12,4,5,0.4,0.3
2025-03-28T1300,1833A,113.2919,33.737,平顶山市,规划设计院,颗粒物(PM10),296,417,198,88,46,77,,64,59,,10,,5,0.3,0.3
2025-03-28T1300,1834A,113.182,33.774,平顶山市,平顶山工学院,颗粒物(PM10),250,385,187,85,45,87,,66,66,2,7,4,4,0.6,0.6
2025-03-28T1300,3204A,113.3025,33.73,平顶山市,规划局,颗粒物(PM10),373,478,233,103,48,81,,64,64,4,9,4,5,0.7,0.6
2025-03-28T1300,3594A,112.8867,33.9116,平顶山市,石龙区,颗粒物(PM10),384,487,286,80,46,89,,62,61,2,9,3,3,0.2,0.2
2025-03-28T1300,2656A,106.6692,35.5461,平凉市,聚贤嘉苑,颗粒物(PM10),99,148,183,35,37,91,,82,82,4,5,9,7,0.3,0.3
2025-03-28T1300,2657A,106.7021,35.5307,平凉市,博物馆,颗粒物(PM10),106,162,186,36,36,88,,80,80,4,5,19,12,0.3,0.3
2025-03-28T1300,2347A,114.0997,27.5002,萍乡市,武功山,颗粒物(PM10),93,136,85,31,40,76,,68,68,9,11,7,11,0.7,0.7
2025-03-28T1300,2348A,113.8385,27.6434,萍乡市,中医院,颗粒物(PM10),62,73,103,24,43,46,,76,58,13,14,7,11,0.6,0.8
2025-03-28T1300,2349A,113.8493,27.6253,萍乡市,市政府车库,颗粒物(PM10),63,76,96,29,43,54,,77,62,13,15,5,8,0.4,0.6
2025-03-28T1300,2350A,113.8676,27.6435,萍乡市,市环保局,颗粒物(PM10),73,96,100,26,44,54,,77,61,8,12,3,8,0.5,0.6
2025-03-28T1300,2351A,113.866,27.6198,萍乡市,安源区政府,颗粒物(PM10),76,102,103,36,45,57,,71,58,12,16,3,7,0.5,1
2025-03-28T1300,2319A,119.0141,25.4325,莆田市,荔城区仓后路,颗粒物(PM10),58,66,59,15,25,85,,84,83,12,19,2,2,0.4,0.5
2025-03-28T1300,2320A,119.0015,25.4553,莆田市,莆田市监测站,颗粒物(PM10),58,65,52,15,26,86,,85,85,12,17,3,4,0.4,0.4
2025-03-28T1300,2321A,119.1119,25.4561,莆田市,涵江区六中,颗粒物(PM10),57,64,56,13,22,89,,90,89,13,18,2,4,0.3,0.4
2025-03-28T1300,2322A,119.1013,25.3215,莆田市,秀屿区政府,颗粒物(PM10),117,183,43,18,22,91,,89,88,16,13,4,5,0.3,0.5
2025-03-28T1300,2323A,118.981,25.4792,莆田市,东圳水库,,,,,,,,,,,,,,,,
2025-03-28T1300,2392A,115.0312,35.7636,濮阳市,环保局,颗粒物(PM10),107,164,190,36,38,90,,75,75,9,15,4,4,0.8,0.7
2025-03-28T1300,2394A,115.0574,35.7609,濮阳市,油田运输公司,颗粒物(PM10),103,155,216,34,34,97,,78,78,8,16,4,4,0.3,0.4
2025-03-28T1300,3021A,115,35.7668,濮阳市,濮水河管理处,颗粒物(PM10),107,164,207,35,34,94,,72,72,10,22,5,5,0.7,0.7
2025-03-28T1300,4216A,115.0924,35.7686,濮阳市,任丘路479号,,,,218,73,35,98,,79,79,9,14,5,5,0.5,0.6
2025-03-28T1300,2601A,100.98,22.7633,普洱市,市环保局,颗粒物(PM10),109,168,139,65,69,176,,100,100,12,18,6,5,1.2,1.1
2025-03-28T1300,2602A,100.9817,22.8322,普洱市,普洱第二中学,颗粒物(PM10),86,122,122,51,79,161,,79,79,12,32,8,7,1.0,0.9
2025-03-28T1300,2262A,131.0518,45.8751,七台河市,新一中,,30,6,10,3,6,93,,82,82,5,8,11,11,0.6,0.6
2025-03-28T1300,3345A,131.0577,45.7879,七台河市,中波台,,25,12,14,3,8,78,,69,69,7,12,6,6,0.5,0.5
2025-03-28T1300,3637A,131.0176,45.7761,七台河市,人民广场,,27,19,21,10,17,85,,72,72,6,13,6,7,0.3,0.6
2025-03-28T1300,3684A,130.8781,45.8222,七台河市,新建矿广场,,26,9,16,3,19,83,,71,71,7,11,8,8,0.5,0.5
2025-03-28T1300,1779A,123.9305,47.3636,齐齐哈尔市,安居小区,,,31,17,,23,72,,74,74,7,9,5,3,0.2,0.2
2025-03-28T1300,1780A,123.9488,47.3386,齐齐哈尔市,中心广场,,26,26,19,8,8,70,,69,69,7,8,4,4,0.3,0.3
2025-03-28T1300,1781A,123.9483,47.3227,齐齐哈尔市,农牧车辆厂,,,,18,,8,76,,74,74,,8,3,4,0.3,0.3
2025-03-28T1300,1783A,123.945,47.2988,齐齐哈尔市,市环境监测站,,24,24,18,10,9,75,,70,70,5,7,2,2,0.3,0.3
2025-03-28T1300,3662A,123.6333,47.2075,齐齐哈尔市,富区青少年活动中心,,20,,21,14,10,61,,66,66,8,9,6,6,0.3,0.3
2025-03-28T1300,2591A,107.9783,26.5747,黔东南苗族侗族自治州,市环境监测站,颗粒物(PM10),77,104,76,35,38,84,,105,82,10,9,3,5,0.2,0.4
2025-03-28T1300,2881A,107.8908,26.5311,黔东南苗族侗族自治州,凯里学院,颗粒物(PM10),101,151,129,34,41,80,,100,77,2,5,2,4,0.3,0.4
2025-03-28T1300,2593A,107.5228,26.2403,黔南布依族苗族自治州,小围寨,颗粒物(PM10),109,168,94,39,39,78,,108,86,9,8,3,3,0.9,0.8
2025-03-28T1300,3538A,107.5175,26.2978,黔南布依族苗族自治州,沙坝,颗粒物(PM10),120,190,111,34,40,73,,109,81,10,10,4,6,0.5,0.4
2025-03-28T1300,2589A,104.9022,25.0925,黔西南布依族苗族自治州,场坝街,细颗粒物(PM2.5),63,74,60,45,54,117,,87,87,16,19,7,27,0.4,0.5
2025-03-28T1300,2590A,104.8811,25.0992,黔西南布依族苗族自治州,坪东大道,,,89,54,59,41,119,,80,80,,28,,5,,0.4
2025-03-28T1300,2502A,108.6236,21.9667,钦州市,市环保站,颗粒物(PM10),57,63,71,31,30,42,,20,17,18,30,9,10,0.6,0.8
2025-03-28T1300,2503A,108.6549,21.9481,钦州市,沙埠小学,颗粒物(PM10),68,86,75,34,39,43,,17,17,14,31,7,13,0.7,0.8
2025-03-28T1300,2504A,108.5989,21.7431,钦州市,港区一小,颗粒物(PM10),53,55,78,30,33,53,,19,19,15,36,7,10,0.6,0.8
2025-03-28T1300,3404A,108.5959,21.9633,钦州市,北职校,颗粒物(PM10),62,74,78,41,40,44,,15,15,18,32,8,10,0.7,0.8
2025-03-28T1300,1043A,119.7493,40.0116,秦皇岛市,第一关,,28,27,44,16,20,88,,68,68,5,30,5,3,0.2,0.2
2025-03-28T1300,1044A,119.5897,39.9499,秦皇岛市,监测站,,29,29,39,9,15,89,,76,76,2,6,3,2,0.3,0.3
2025-03-28T1300,1046A,119.5251,39.9041,秦皇岛市,建设大厦,,32,32,44,11,21,88,,77,77,5,12,4,4,0.2,0.2
2025-03-28T1300,3132A,119.610547,39.943889,秦皇岛市,文明里,,27,14,43,3,17,85,,76,76,7,12,4,4,0.2,0.2
2025-03-28T1300,4198A,119.5090,39.8253,秦皇岛市,北戴河轮滑馆,,28,23,43,8,17,87,,76,76,2,6,6,6,0.2,0.2
2025-03-28T1300,1307A,120.6659,36.2403,青岛市,仰口,颗粒物(PM10),59,68,79,25,27,98,,87,87,5,6,4,4,0.5,0.5
2025-03-28T1300,1310A,120.4134,36.0658,青岛市,市南区东部子站,颗粒物(PM10),65,80,87,9,24,94,,75,75,6,15,6,8,0.4,0.5
2025-03-28T1300,1311A,120.3664,36.1032,青岛市,四方区子站,颗粒物(PM10),63,75,80,17,26,91,,73,73,13,17,6,6,0.4,0.5
2025-03-28T1300,1312A,120.2994,36.054,青岛市,市南区西部子站,颗粒物(PM10),67,83,84,7,21,79,,70,70,20,20,8,7,0.5,0.6
2025-03-28T1300,1313A,120.4581,36.0858,青岛市,崂山区子站,颗粒物(PM10),58,66,76,12,22,101,,84,84,4,11,7,8,0.5,0.6
2025-03-28T1300,1315A,120.3999,36.3083,青岛市,城阳区子站,颗粒物(PM10),68,85,76,27,27,90,,69,69,11,18,8,10,0.5,0.6
2025-03-28T1300,1966A,120.0405,35.8735,青岛市,黄岛区4号,颗粒物(PM10),57,63,79,9,24,96,,74,74,15,21,8,8,0.6,0.6
2025-03-28T1300,3362A,120.5014,36.4034,青岛市,即墨2号,颗粒物(PM10),63,75,76,19,29,90,,75,75,8,15,7,8,0.5,0.6
2025-03-28T1300,3642A,120.3503,36.0736,青岛市,市北区南部,颗粒物(PM10),65,80,104,19,27,84,,58,58,6,18,7,8,0.5,0.6
2025-03-28T1300,3643A,120.3948,36.1805,青岛市,李沧区北部,颗粒物(PM10),73,95,92,19,32,88,,69,69,15,19,7,8,0.6,0.7
2025-03-28T1300,4290A,120.1969,35.9546,青岛市,珠江路669号,颗粒物(PM10),62,73,92,20,28,92,,67,67,12,27,7,8,0.6,0.7
2025-03-28T1300,1702A,113.0426,23.691,清远市,环保大楼,细颗粒物(PM2.5),78,,50,57,30,67,,24,24,4,19,4,5,0.8,0.7
2025-03-28T1300,1703A,113.0208,23.7106,清远市,凤城街办,细颗粒物(PM2.5),63,64,49,45,26,61,,23,23,12,27,4,5,0.7,0.6
2025-03-28T1300,3025A,113.0477,23.6344,清远市,技师学院,颗粒物(PM10),61,71,55,41,26,70,,24,24,14,28,7,8,0.4,0.3
2025-03-28T1300,3318A,112.9903,23.7403,清远市,清新太和,,,68,53,42,26,65,,33,33,12,26,,7,0.6,0.5
2025-03-28T1300,3455A,113.076,23.7198,清远市,清城东城,细颗粒物(PM2.5),64,75,57,46,29,67,,25,25,10,24,5,6,0.7,0.6
2025-03-28T1300,2661A,107.6325,35.7357,庆阳市,庆阳五中,颗粒物(PM10),83,116,186,29,48,85,,78,78,4,4,1,1,0.4,0.4
2025-03-28T1300,2662A,107.6364,35.7067,庆阳市,市环保局,颗粒物(PM10),83,115,185,31,44,87,,79,79,2,4,2,2,0.6,0.5
2025-03-28T1300,1916A,103.7897,25.5035,曲靖市,环境监测站,颗粒物(PM10),77,104,64,49,29,169,,117,117,17,18,10,8,0.8,0.6
2025-03-28T1300,1917A,103.8,25.5364,曲靖市,烟厂办公区,"颗粒物(PM10),臭氧1小时",73,96,65,49,33,178,,126,126,14,15,5,7,0.7,0.5
2025-03-28T1300,3376A,103.7947,25.462,曲靖市,南苑二区,颗粒物(PM10),78,105,59,52,29,162,,119,119,12,12,14,10,0.7,0.5
2025-03-28T1300,3377A,103.7444,25.5261,曲靖市,曲靖师范学院,细颗粒物(PM2.5),94,85,72,70,45,177,,122,122,12,21,12,17,0.6,0.4
2025-03-28T1300,1264A,118.8692,28.9398,衢州市,环保大楼,颗粒物(PM10),70,90,78,38,35,62,,74,64,17,13,2,2,0.4,0.4
2025-03-28T1300,1265A,118.8709,28.9666,衢州市,实验学校,颗粒物(PM10),67,84,73,37,33,19,,43,31,20,12,1,2,0.4,0.4
2025-03-28T1300,1266A,118.8621,28.9808,衢州市,衢州学院,颗粒物(PM10),72,94,79,43,33,50,,65,52,23,16,2,2,0.4,0.4
2025-03-28T1300,1611A,118.5819,24.9117,泉州市,涂山街,颗粒物(PM10),58,66,54,16,24,90,,84,84,16,20,3,3,0.5,0.6
2025-03-28T1300,1612A,118.5972,24.8978,泉州市,津头埔,颗粒物(PM10),57,64,50,18,25,88,,85,85,20,21,3,2,0.6,0.6
2025-03-28T1300,1613A,118.6663,24.9424,泉州市,万安,颗粒物(PM10),60,69,47,17,21,92,,88,88,10,9,4,2,0.5,0.6
2025-03-28T1300,1614A,118.6117,24.9604,泉州市,清源山,,,,,,,,,,,,,,,,
2025-03-28T1300,3529A,118.6333,24.9264,泉州市,城华南路,颗粒物(PM10),52,53,44,17,24,84,,80,80,13,15,4,3,0.5,0.5
2025-03-28T1300,2626A,88.8876,29.2718,日喀则市,日喀则监测站,,,6,14,3,6,,,98,87,3,11,3,1,0.6,0.7
2025-03-28T1300,3726A,88.8781,29.2426,日喀则市,林业技术推广中心,,40,11,14,3,3,127,,118,118,2,2,5,5,0.2,0.2
2025-03-28T1300,1659A,119.471,35.4209,日照市,监测站,颗粒物(PM10),59,68,76,22,25,97,,69,69,25,25,9,5,0.7,0.6
2025-03-28T1300,1660A,119.523,35.4216,日照市,市政府广场,颗粒物(PM10),58,66,70,27,22,104,,75,75,14,20,5,4,0.7,0.6
2025-03-28T1300,1661A,119.5587,35.4044,日照市,港务局,颗粒物(PM10),60,70,79,33,28,115,,76,76,13,24,4,4,0.6,0.6
2025-03-28T1300,3507A,119.5328,35.4625,日照市,职业技术学院,颗粒物(PM10),58,66,75,22,23,111,,70,70,12,20,7,5,0.6,0.6
2025-03-28T1300,3604A,119.3266,35.1044,日照市,岚山环保分局,,,,81,,26,92,,67,67,,22,4,7,0.6,0.8
2025-03-28T1300,1835A,111.1922,34.7752,三门峡市,市政府,颗粒物(PM10),161,272,205,81,66,97,,86,86,3,16,3,4,0.3,0.4
2025-03-28T1300,1836A,111.1587,34.7942,三门峡市,开发区,颗粒物(PM10),205,353,216,87,83,86,,76,76,6,15,3,3,0.3,0.4
2025-03-28T1300,1838A,111.143,34.7955,三门峡市,风景区,颗粒物(PM10),180,310,231,77,55,87,,77,77,,12,8,9,0.5,0.5
2025-03-28T1300,3039A,111.1911,34.7829,三门峡市,三门峡市第一小学,颗粒物(PM10),182,313,277,68,68,95,,83,83,6,15,4,5,0.4,0.4
