timepoint,stationcode,longitude,latitude,area,positionname,primarypollutant,aqi,pm10,pm10_24h,pm2_5,pm2_5_24h,o3,o3_24h,o3_8h,o3_8h_24h,no2,no2_24h,so2,so2_24h,co,co_24h
2025-11-11T2200,2566A,102.1879,31.914,阿坝藏族羌族自治州,州农科所,,,,,,,,,,,,,,,,
2025-11-11T2200,2568A,102.2502,31.8896,阿坝藏族羌族自治州,马师校,,43,43,20,28,16,5,,46,27,38,21,7,7,0.8,0.8
2025-11-11T2200,3994A,102.2165,31.9024,阿坝藏族羌族自治州,马尔康中学西区,,32,,14,22,12,11,,57,41,38,17,6,5,0.6,0.5
2025-11-11T2200,2695A,80.292,41.1694,阿克苏地区,电视台,颗粒物(PM10),183,315,251,97,82,10,,75,65,88,48,9,9,1.4,1.7
2025-11-11T2200,2696A,80.2613,41.1551,阿克苏地区,艺术中心,颗粒物(PM10),169,288,218,102,79,12,,81,68,88,48,8,6,0.9,0.9
2025-11-11T2200,2204A,105.6467,38.8363,阿拉善盟,西城区西花园,,,,,,,,,,,,,,,,
2025-11-11T2200,2205A,105.6985,38.8411,阿拉善盟,蒙二幼,颗粒物(PM10),58,65,45,31,20,41,,85,68,23,12,8,9,0.9,0.7
2025-11-11T2200,2206A,105.724,38.8516,阿拉善盟,环保局新楼,颗粒物(PM10),51,52,36,25,16,75,,81,73,7,7,10,9,0.8,0.7
2025-11-11T2200,2708A,88.1264,47.8517,阿勒泰地区,市站,,20,,12,8,5,64,,59,59,2,7,3,3,0.3,0.3
2025-11-11T2200,2630A,80.1161,32.5,阿里地区,阿里监测站,,24,6,3,3,3,75,,82,82,3,6,8,7,0.4,0.3
2025-11-11T2200,3192A,80.0903,32.5028,阿里地区,阿里藏医院,,27,6,10,3,5,86,,90,90,1,5,8,8,0.4,0.5
2025-11-11T2200,2642A,109.0318,32.6537,安康市,香溪洞,,,,,,,,,,,,,,,,
2025-11-11T2200,2644A,109.0072,32.6975,安康市,汉滨区检察院,颗粒物(PM10),53,55,58,27,26,28,,80,60,22,16,5,5,0.5,0.4
2025-11-11T2200,4054A,109.0325,32.6913,安康市,市邮政管理局,颗粒物(PM10),54,57,68,21,23,37,,80,59,17,15,4,4,0.4,0.6
2025-11-11T2200,2291A,117.0809,30.5177,安庆市,环科院,,43,43,47,21,20,81,,106,99,16,13,5,5,0.4,0.4
2025-11-11T2200,2292A,117.0331,30.5119,安庆市,马山宾馆,,37,37,44,18,21,82,,106,100,22,19,4,5,0.3,0.3
2025-11-11T2200,2294A,116.9896,30.6145,安庆市,安庆大学,,43,43,45,19,18,80,,110,104,15,15,6,7,0.5,0.5
2025-11-11T2200,3173A,117.0598,30.5351,安庆市,市人大,,41,41,46,20,22,78,,105,98,23,18,5,6,0.4,0.5
2025-11-11T2200,3122A,105.9606,26.2611,安顺市,伍家关,颗粒物(PM10),59,67,86,12,9,58,,55,54,8,8,9,8,0.4,0.6
2025-11-11T2200,3123A,105.9408,26.2431,安顺市,凤凰山,,28,23,14,19,11,52,,52,50,10,8,12,9,0.5,0.5
2025-11-11T2200,3124A,105.9439,26.2564,安顺市,金钟山,,28,19,13,19,12,59,,56,56,8,6,10,9,0.6,0.6
2025-11-11T2200,3125A,105.8983,26.2481,安顺市,娄家坡,,33,26,15,23,12,52,,49,48,8,9,8,13,0.6,0.7
2025-11-11T2200,1818A,114.4839,36.0621,安阳市,棉研所,,,,,,,,,,,,,,,,
2025-11-11T2200,1819A,114.3551,36.1017,安阳市,红庙街,细颗粒物(PM2.5),87,119,113,64,80,31,,83,71,59,42,2,7,0.6,0.9
2025-11-11T2200,1820A,114.361,36.0681,安阳市,银杏小区,细颗粒物(PM2.5),93,98,110,69,83,32,,86,77,57,43,3,8,0.5,0.8
2025-11-11T2200,3141A,114.3922,36.0878,安阳市,信访局,细颗粒物(PM2.5),93,87,110,69,79,36,,96,84,54,39,2,6,0.4,0.7
2025-11-11T2200,3669A,114.4705,36.0637,安阳市,左辅环卫站,细颗粒物(PM2.5),119,164,155,90,81,11,,90,68,82,42,3,5,0.7,0.7
2025-11-11T2200,3703A,114.2917,36.0949,安阳市,安钢职工学校,细颗粒物(PM2.5),122,140,125,92,88,24,,86,72,64,36,1,9,0.7,0.9
2025-11-11T2200,1748A,123.044,41.1196,鞍山市,深沟寺,颗粒物(PM10),51,51,46,32,30,32,,50,36,33,33,9,13,0.8,0.8
2025-11-11T2200,1749A,123.011,41.0931,鞍山市,太阳城,细颗粒物(PM2.5),73,78,45,53,27,26,,55,38,38,31,11,14,0.6,0.6
2025-11-11T2200,1750A,123.0485,41.1442,鞍山市,太平,颗粒物(PM10),58,65,67,36,35,28,,45,27,38,39,11,15,0.8,0.9
2025-11-11T2200,1751A,122.9642,41.0971,鞍山市,铁西三道街,细颗粒物(PM2.5),110,153,73,83,39,3,,44,18,63,42,19,19,1.6,1.3
2025-11-11T2200,1753A,123.022,41.0821,鞍山市,明达新区,颗粒物(PM10),57,64,45,38,26,16,,49,31,39,29,11,13,0.8,0.8
2025-11-11T2200,1754A,123.1289,41.0228,鞍山市,千山,,,,30,,14,,,48,,,20,,4,,0.4
2025-11-11T2200,4201A,122.9446,41.0826,鞍山市,兴盛南路290号,细颗粒物(PM2.5),103,153,75,77,40,3,,42,15,70,49,11,19,1.3,1.3
2025-11-11T2200,2195A,107.4212,40.761,巴彦淖尔市,附二中,颗粒物(PM10),59,67,72,38,38,55,,66,65,18,32,7,10,0.4,0.7
2025-11-11T2200,2196A,107.37,40.7372,巴彦淖尔市,市环保大楼,颗粒物(PM10),63,75,66,31,34,54,,71,67,21,32,9,10,0.5,0.7
2025-11-11T2200,1956A,86.1472,41.7538,巴音郭楞蒙古自治州,孔雀公园,颗粒物(PM10),114,177,166,44,42,1,,71,61,96,56,9,8,1.0,0.8
2025-11-11T2200,1957A,86.1972,41.7166,巴音郭楞蒙古自治州,棉纺厂,颗粒物(PM10),145,239,213,50,40,10,,67,55,85,46,6,7,0.7,0.5
2025-11-11T2200,1958A,86.2357,41.7173,巴音郭楞蒙古自治州,经济开发区,颗粒物(PM10),113,176,174,43,35,36,,67,56,42,31,6,7,1.1,0.7
2025-11-11T2200,2914A,106.7677,31.8794,巴中市,苏山坪,,,,,,,,,,,,,,,,
2025-11-11T2200,3181A,106.7768,31.8526,巴中市,市五中,颗粒物(PM10),53,56,37,27,18,10,,61,43,18,11,8,8,0.5,0.7
2025-11-11T2200,3183A,106.7418,31.8654,巴中市,圣泉水务公司,颗粒物(PM10),51,52,36,26,17,2,,61,41,32,14,8,8,0.8,0.7
2025-11-11T2200,3616A,106.7616,31.8344,巴中市,市中心医院,颗粒物(PM10),63,75,40,22,21,3,,56,36,26,14,4,4,0.6,0.5
2025-11-11T2200,2235A,122.7911,45.6077,白城市,洮北区环保局,,38,38,31,21,24,26,,47,40,21,14,5,5,0.2,0.3
2025-11-11T2200,2236A,122.8738,45.5725,白城市,市环保局,,29,27,35,20,26,17,,42,27,20,18,3,4,0.3,0.3
2025-11-11T2200,2231A,126.4219,41.9171,白山市,喜丰,颗粒物(PM10),68,86,70,28,24,6,,58,29,43,30,12,12,0.9,0.8
2025-11-11T2200,2232A,126.4077,41.9419,白山市,环保局,颗粒物(PM10),57,64,43,35,27,14,,49,25,28,25,8,9,1.1,1
2025-11-11T2200,2647A,104.1724,36.5446,白银市,第三小学,颗粒物(PM10),68,86,71,23,43,67,,51,51,37,31,9,28,0.2,0.9
2025-11-11T2200,2648A,104.1465,36.5482,白银市,动力公司,颗粒物(PM10),62,73,62,21,38,79,,63,63,11,24,7,20,0.4,0.8
2025-11-11T2200,2512A,106.6103,23.9011,百色市,市监测站,,13,13,18,6,8,41,,42,32,12,12,7,8,0.6,0.7
2025-11-11T2200,2513A,106.6538,23.8859,百色市,市中心血站,,15,14,20,3,7,48,,47,39,13,18,5,6,0.6,0.8
2025-11-11T2200,3406A,106.6085,23.8798,百色市,祈福高中,,21,21,26,7,8,48,,38,31,8,15,4,5,0.5,0.7
2025-11-11T2200,2270A,117.396,32.939,蚌埠市,工人疗养院,,50,50,54,22,21,45,,96,79,37,24,5,5,0.3,0.2
2025-11-11T2200,2271A,117.3605,32.9427,蚌埠市,百货大楼,,48,48,45,18,19,44,,95,81,44,24,7,8,0.4,0.3
2025-11-11T2200,2273A,117.4185,32.8911,蚌埠市,蚌埠学院,颗粒物(PM10),51,51,47,24,22,6,,87,54,86,43,6,7,0.3,0.3
2025-11-11T2200,2274A,117.3533,32.9673,蚌埠市,淮上区政府,,46,46,49,19,22,60,,100,87,30,22,7,8,0.2,0.2
2025-11-11T2200,2275A,117.3145,32.8977,蚌埠市,高新区,,44,44,41,22,19,50,,88,79,39,27,7,7,0.4,0.3
2025-11-11T2200,3715A,117.3092,32.9314,蚌埠市,蚌埠田家炳中学,,44,44,47,18,21,61,,96,87,27,20,4,4,0.3,0.4
2025-11-11T2200,1585A,109.8756,40.6532,包头市,市环境监测站,颗粒物(PM10),88,126,87,54,36,3,,39,24,80,57,14,18,1.4,1.4
2025-11-11T2200,1587A,109.9991,40.5842,包头市,包头八中,颗粒物(PM10),93,135,97,63,58,2,,48,30,76,60,17,22,1.5,2
2025-11-11T2200,1588A,109.8538,40.6821,包头市,青山宾馆,细颗粒物(PM2.5),133,130,70,101,47,4,,40,25,80,57,12,18,1.7,1.3
2025-11-11T2200,1589A,109.8642,40.6288,包头市,惠龙物流,颗粒物(PM10),81,112,82,52,45,2,,46,30,88,60,18,18,1.6,1.5
2025-11-11T2200,1590A,110.0377,40.5546,包头市,东河鸿龙湾,细颗粒物(PM2.5),109,128,91,82,47,4,,50,32,93,64,21,12,1.8,1.6
2025-11-11T2200,3283A,109.9154,40.5685,包头市,滨河大厦,颗粒物(PM10),80,109,73,55,36,3,,52,33,83,60,16,15,1.4,1.3
2025-11-11T2200,3419A,109.9447,40.6261,包头市,包头市委党校,颗粒物(PM10),91,132,65,58,31,2,,48,31,79,61,15,19,1.5,1.3
2025-11-11T2200,3683A,109.8331,40.6576,包头市,昆区政府,细颗粒物(PM2.5),114,117,77,86,46,2,,38,26,92,59,18,22,1.7,1.3
2025-11-11T2200,1930A,107.185,34.3063,宝鸡市,庙沟村,,,,,,,,,,,,,,,,
2025-11-11T2200,1931A,107.0708,34.3017,宝鸡市,竹园沟,细颗粒物(PM2.5),62,70,79,44,37,38,,85,71,24,22,7,9,0.5,0.4
2025-11-11T2200,1932A,107.1906,34.3672,宝鸡市,三陆医院,细颗粒物(PM2.5),125,137,102,95,45,8,,83,59,69,44,8,10,0.8,0.6
2025-11-11T2200,1933A,107.1431,34.3547,宝鸡市,监测站,细颗粒物(PM2.5),87,96,93,64,47,25,,82,66,36,26,5,7,0.6,0.5
2025-11-11T2200,1934A,107.1186,34.3739,宝鸡市,技工学校,细颗粒物(PM2.5),92,92,98,68,40,30,,89,70,39,24,7,8,0.7,0.5
2025-11-11T2200,1936A,107.2058,34.3497,宝鸡市,文理学院,细颗粒物(PM2.5),82,99,93,60,45,38,,89,70,37,29,5,8,0.7,0.6
2025-11-11T2200,1937A,107.2386,34.3622,宝鸡市,三迪小学,细颗粒物(PM2.5),88,117,102,65,48,16,,86,65,68,45,5,8,0.9,0.7
2025-11-11T2200,4308A,107.3898,34.3601,宝鸡市,陈仓区北开路21号,细颗粒物(PM2.5),107,140,125,80,57,17,,86,68,62,42,7,10,0.7,0.6
2025-11-11T2200,1051A,115.493,38.8632,保定市,游泳馆,细颗粒物(PM2.5),221,228,137,171,89,5,,68,48,104,67,6,7,1.7,0.8
2025-11-11T2200,1052A,115.5213,38.8959,保定市,华电二区,细颗粒物(PM2.5),223,184,114,173,89,0,,68,48,83,59,3,4,1.9,0.7
2025-11-11T2200,1053A,115.4713,38.9108,保定市,接待中心,细颗粒物(PM2.5),207,219,117,157,78,2,,67,48,97,57,3,4,1.4,0.8
2025-11-11T2200,1054A,115.4612,38.8416,保定市,地表水厂,细颗粒物(PM2.5),214,242,151,164,88,4,,68,47,111,69,6,8,1.3,0.8
2025-11-11T2200,3581A,115.31981,38.95208,保定市,满城区生态环境分局,细颗粒物(PM2.5),163,195,124,124,64,1,,61,37,85,51,1,3,1.0,0.7
2025-11-11T2200,3582A,115.47694,38.76408,保定市,清苑区第二中学,细颗粒物(PM2.5),173,221,187,131,95,9,,76,52,127,72,6,6,0.9,0.8
2025-11-11T2200,3583A,115.62909,39.02311,保定市,徐水物探局,细颗粒物(PM2.5),243,277,162,193,103,2,,69,53,97,60,9,8,1.2,0.8
2025-11-11T2200,4004A,115.4202,38.8656,保定市,双鹰农机,细颗粒物(PM2.5),198,234,149,148,81,7,,73,56,93,58,4,4,1.3,0.9
2025-11-11T2200,4034A,115.5150,38.8590,保定市,植保所站,细颗粒物(PM2.5),209,209,151,159,95,2,,60,41,89,67,2,3,1.9,1
2025-11-11T2200,2594A,99.1678,25.1081,保山市,市环境监测站,,18,18,14,11,13,46,,75,63,7,7,4,3,0.4,0.4
2025-11-11T2200,2595A,99.1711,25.1328,保山市,市环保局,,38,,19,26,19,56,,78,70,3,5,7,6,0.4,0.4
2025-11-11T2200,1866A,109.2262,21.588,北海市,牛尾岭水库,,22,,11,15,9,51,,53,53,7,9,3,3,0.5,0.5
2025-11-11T2200,1867A,109.1436,21.4086,北海市,海滩公园,,24,24,23,12,10,67,,71,71,8,8,8,8,0.8,0.8
2025-11-11T2200,1868A,109.0981,21.4661,北海市,新市环保局,,32,28,21,22,12,63,,73,72,11,8,4,5,0.8,0.7
2025-11-11T2200,1869A,109.1778,21.5233,北海市,北海工业园,,22,20,21,15,13,63,,70,69,10,9,5,6,0.4,0.4
2025-11-11T2200,3400A,109.1911,21.4415,北海市,龙潭自来水厂,,26,26,21,10,12,66,,72,72,4,6,7,6,0.7,0.7
2025-11-11T2200,1001A,116.3621,39.8784,北京市,万寿西宫,细颗粒物(PM2.5),182,218,91,137,51,7,,41,27,110,65,4,4,1.9,0.8
2025-11-11T2200,1002A,116.2202,40.2915,北京市,定陵,,,,,,,,,,,,,,,,
2025-11-11T2200,1003A,116.4174,39.9289,北京市,东四,细颗粒物(PM2.5),186,227,96,140,50,27,,46,45,86,56,6,4,1.6,0.8
2025-11-11T2200,1004A,116.4072,39.8863,北京市,天坛,细颗粒物(PM2.5),170,173,83,129,50,5,,34,22,60,49,1,2,1.5,0.8
2025-11-11T2200,1005A,116.462,39.9365,北京市,农展馆,细颗粒物(PM2.5),175,198,87,132,51,18,,37,27,73,57,4,4,1.5,0.9
2025-11-11T2200,1006A,116.3392,39.9295,北京市,官园,细颗粒物(PM2.5),182,221,89,137,47,27,,38,35,78,55,4,4,1.3,0.7
2025-11-11T2200,1007A,116.2878,39.9611,北京市,海淀万柳,颗粒物(PM10),145,240,102,92,39,1,,33,17,86,59,4,5,1.2,0.8
2025-11-11T2200,1008A,116.6636,40.135,北京市,顺义新城,细颗粒物(PM2.5),140,188,91,107,47,3,,42,23,66,48,5,6,1.1,0.6
2025-11-11T2200,1009A,116.6275,40.3275,北京市,怀柔镇,细颗粒物(PM2.5),94,108,62,70,36,20,,36,27,43,33,5,5,0.8,0.8
2025-11-11T2200,1010A,116.2296,40.217,北京市,昌平镇,细颗粒物(PM2.5),85,99,59,63,31,20,,24,20,47,45,5,5,0.6,0.5
2025-11-11T2200,1011A,116.3966,39.9821,北京市,奥体中心,细颗粒物(PM2.5),168,197,80,127,45,14,,30,26,93,63,5,5,1.4,0.7
2025-11-11T2200,3281A,115.9718,40.4529,北京市,延庆夏都,颗粒物(PM10),89,127,56,58,26,5,,36,23,64,38,3,4,1.0,0.7
2025-11-11T2200,3418A,116.8336,40.4095,北京市,密云新城,细颗粒物(PM2.5),113,147,69,85,35,4,,47,25,63,36,3,3,1.2,0.6
2025-11-11T2200,3671A,116.088,39.9726,北京市,门头沟三家店,颗粒物(PM10),90,130,66,63,28,2,,34,18,51,36,1,2,0.8,0.5
2025-11-11T2200,3672A,116.1541,39.8204,北京市,丰台云岗,细颗粒物(PM2.5),172,220,89,130,48,26,,49,46,80,47,5,4,1.0,0.6
2025-11-11T2200,3673A,116.6804,39.9081,北京市,通州东关,细颗粒物(PM2.5),200,248,129,150,68,11,,42,30,82,64,5,5,1.3,0.8
2025-11-11T2200,3674A,115.9577,39.7603,北京市,房山燕山,细颗粒物(PM2.5),127,159,69,96,35,22,,44,41,40,27,3,4,0.8,0.5
2025-11-11T2200,3675A,116.4672,39.7733,北京市,大兴旧宫,细颗粒物(PM2.5),143,192,107,109,54,7,,45,39,66,53,2,3,1.3,0.8
2025-11-11T2200,3694A,115.986,40.4563,北京市,延庆石河营,细颗粒物(PM2.5),100,137,58,75,28,23,,30,26,56,38,3,3,0.7,0.6
2025-11-11T2200,3695A,116.6151,40.3053,北京市,怀柔新城,细颗粒物(PM2.5),104,114,59,78,36,25,,38,31,39,30,5,4,0.9,0.6
2025-11-11T2200,3696A,116.2545,39.8768,北京市,丰台小屯,细颗粒物(PM2.5),153,192,87,117,45,2,,32,18,104,54,4,4,1.3,0.8
2025-11-11T2200,3697A,116.84,40.3844,北京市,密云镇,细颗粒物(PM2.5),129,188,81,98,40,3,,46,26,70,42,4,2,1.6,0.7
2025-11-11T2200,4182A,116.1942,39.9158,北京市,八角北路9号,细颗粒物(PM2.5),122,178,93,92,43,2,,32,18,108,68,1,1,1.4,0.7
2025-11-11T2200,4194A,117.0790,40.1518,北京市,洳河巡河路,细颗粒物(PM2.5),107,142,83,80,47,17,,45,31,49,37,5,6,1.1,0.7
2025-11-11T2200,1761A,123.8275,41.3064,本溪市,大峪,颗粒物(PM10),57,64,58,34,32,2,,50,30,52,35,8,10,1.1,0.9
2025-11-11T2200,1762A,123.7567,41.3325,本溪市,溪湖,颗粒物(PM10),82,113,77,55,38,1,,57,28,62,43,11,9,1.1,1.5
2025-11-11T2200,1763A,123.7169,41.3094,本溪市,彩屯,细颗粒物(PM2.5),80,90,68,59,40,23,,49,27,37,38,8,10,1.0,1.3
2025-11-11T2200,1764A,123.7669,41.2864,本溪市,东明,细颗粒物(PM2.5),79,91,72,58,41,4,,47,23,62,45,10,12,1.2,1.2
2025-11-11T2200,1765A,123.7992,41.2664,本溪市,新立屯,颗粒物(PM10),59,67,50,35,31,5,,47,18,61,43,8,9,1.1,1
2025-11-11T2200,1766A,123.8142,41.3472,本溪市,威宁,颗粒物(PM10),88,126,81,64,37,9,,51,26,54,38,6,8,1.2,1
2025-11-11T2200,2587A,105.2864,27.3125,毕节市,八中,,29,,10,20,10,28,,35,31,6,7,7,7,0.6,0.6
2025-11-11T2200,2588A,105.31,27.2944,毕节市,师专,,27,27,11,13,6,20,,37,30,17,9,8,8,0.7,0.6
2025-11-11T2200,4263A,105.3688,27.3598,毕节市,工业大道,,20,20,10,12,5,33,,40,38,6,6,9,9,0.8,0.8
2025-11-11T2200,1629A,118.0018,37.3617,滨州市,第二水厂,细颗粒物(PM2.5),125,161,112,95,62,29,,100,72,65,56,39,16,0.9,0.4
2025-11-11T2200,1630A,117.9776,37.393,滨州市,北中新校,细颗粒物(PM2.5),128,144,98,97,58,30,,89,61,69,55,28,12,0.8,0.4
2025-11-11T2200,3514A,117.9378,37.3956,滨州市,中海酒店,细颗粒物(PM2.5),134,151,97,102,57,36,,96,77,80,57,10,9,1.0,0.7
2025-11-11T2200,3515A,117.9378,37.3553,滨州市,开发区一中,细颗粒物(PM2.5),138,185,122,105,64,30,,102,77,58,50,21,14,1.3,0.9
2025-11-11T2200,3516A,118.0917,37.694,滨州市,金海六路,细颗粒物(PM2.5),113,144,110,85,52,46,,94,76,64,59,12,12,0.6,0.3
2025-11-11T2200,4028A,117.9956,37.3753,滨州市,滨州市西街道办事处,细颗粒物(PM2.5),138,161,112,105,66,16,,94,66,76,47,18,11,0.9,0.6
2025-11-11T2200,2311A,115.8072,33.8399,亳州市,污水处理厂,细颗粒物(PM2.5),65,77,68,47,42,44,,80,64,42,37,21,25,0.5,0.6
2025-11-11T2200,2312A,115.7789,33.8518,亳州市,三国揽胜宫,细颗粒物(PM2.5),75,98,76,55,40,29,,77,59,67,40,12,15,0.5,0.4
2025-11-11T2200,3332A,115.7633,33.8034,亳州市,亳州学院,颗粒物(PM10),56,62,60,37,35,59,,80,70,35,32,19,11,0.5,0.5
2025-11-11T2200,2693A,82.0485,44.8556,博尔塔拉蒙古自治州,市党校,,33,33,46,11,18,20,,56,48,23,17,2,3,0.1,0.2
2025-11-11T2200,2694A,82.0806,44.8969,博尔塔拉蒙古自治州,市环保局,颗粒物(PM10),76,102,54,33,20,16,,52,43,60,25,4,4,0.9,0.5
2025-11-11T2200,1071A,116.8842,38.2991,沧州市,沧县城建局,细颗粒物(PM2.5),156,141,114,119,74,45,,86,71,60,51,6,9,0.5,0.6
2025-11-11T2200,1072A,116.8584,38.3254,沧州市,电视转播站,细颗粒物(PM2.5),147,148,113,112,77,26,,97,76,62,45,6,10,0.9,0.7
2025-11-11T2200,1073A,116.8709,38.3228,沧州市,市环保局,细颗粒物(PM2.5),144,169,118,110,82,39,,99,78,69,53,7,8,0.6,0.5
2025-11-11T2200,3324A,116.8136,38.3004,沧州市,河北水利电力学院,细颗粒物(PM2.5),124,175,128,94,63,25,,89,70,78,49,16,17,0.7,0.6
2025-11-11T2200,2622A,97.1806,31.1273,昌都市,昌都监测站,细颗粒物(PM2.5),107,130,30,80,20,6,,78,56,65,22,6,4,1.8,0.7
2025-11-11T2200,3719A,97.1714,31.1406,昌都市,昌都会议中心,,32,32,16,16,8,51,,87,79,13,5,3,3,0.3,0.1
2025-11-11T2200,2690A,88.1236,43.8886,昌吉回族自治州,天山天池,,,,,,,,,,,,,,,,
2025-11-11T2200,2692A,87.2717,44.0297,昌吉回族自治州,新区政务中心,,24,24,55,13,36,23,,58,50,46,39,7,9,0.8,0.8
2025-11-11T2200,3613A,87.3095,44.0142,昌吉回族自治州,亚心广场,,39,39,64,12,38,27,,62,55,34,30,7,9,0.5,0.8
2025-11-11T2200,1120A,125.2863,43.9027,长春市,客车厂,细颗粒物(PM2.5),158,124,146,120,148,19,,53,31,66,54,10,11,1.0,1.1
2025-11-11T2200,1121A,125.2841,43.8463,长春市,邮电学院,细颗粒物(PM2.5),168,147,151,127,123,,,57,44,70,52,,10,0.9,0.9
2025-11-11T2200,1122A,125.3716,43.8772,长春市,劳动公园,细颗粒物(PM2.5),173,178,167,131,126,15,,57,39,79,54,12,13,1.8,1.2
2025-11-11T2200,1123A,125.3297,43.8805,长春市,园林处,细颗粒物(PM2.5),139,134,128,106,117,11,,51,34,74,49,8,9,1.1,0.8
2025-11-11T2200,1124A,125.4605,43.79,长春市,净月潭,细颗粒物(PM2.5),178,,131,134,110,55,,71,66,30,31,8,7,0.8,0.7
2025-11-11T2200,1125A,125.7194,43.515,长春市,甩湾子,细颗粒物(PM2.5),212,,111,162,112,39,,76,53,22,23,7,7,1.0,0.8
2025-11-11T2200,1126A,125.3863,43.8447,长春市,经开区环卫处,细颗粒物(PM2.5),112,119,132,84,106,4,,48,27,77,56,7,8,0.8,0.9
2025-11-11T2200,1127A,125.245,43.7783,长春市,高新区管委会,细颗粒物(PM2.5),220,213,170,170,151,32,,58,51,60,45,8,8,1.1,0.9
2025-11-11T2200,1128A,125.1761,43.8325,长春市,岱山公园,细颗粒物(PM2.5),189,183,154,142,137,6,,56,29,82,51,10,11,1.1,0.9
2025-11-11T2200,4281A,125.3346,43.9164,长春市,北亚泰大街1068号,细颗粒物(PM2.5),173,148,148,131,142,7,,51,27,85,59,12,11,1.2,1
2025-11-11T2200,1335A,113.0833,28.2325,长沙市,经开区环保局,细颗粒物(PM2.5),74,75,61,54,42,71,,75,75,21,15,5,4,0.6,0.5
2025-11-11T2200,1336A,112.8872,28.2189,长沙市,高开区环保局,细颗粒物(PM2.5),84,89,65,62,46,81,,88,88,23,20,7,6,0.6,0.5
2025-11-11T2200,1337A,113.0792,28.2053,长沙市,马坡岭,颗粒物(PM10),65,79,62,45,33,72,,76,76,21,14,6,5,0.7,0.6
2025-11-11T2200,1338A,112.9394,28.19,长沙市,湖南师范大学,颗粒物(PM10),77,103,69,39,33,81,,86,86,16,12,10,7,0.6,0.6
2025-11-11T2200,1339A,113.0178,28.1322,长沙市,雨花区环保局,细颗粒物(PM2.5),74,84,60,54,35,77,,69,,20,14,8,6,0.6,0.7
2025-11-11T2200,1340A,112.9792,28.2597,长沙市,伍家岭,颗粒物(PM10),71,92,65,51,37,73,,81,81,21,16,6,4,0.5,0.5
2025-11-11T2200,1341A,113.0014,28.1944,长沙市,火车新站,细颗粒物(PM2.5),77,99,68,56,42,73,,83,83,27,19,11,9,0.7,0.6
2025-11-11T2200,1342A,112.9844,28.1178,长沙市,天心区环保局,颗粒物(PM10),68,86,62,48,32,82,,86,86,20,16,6,5,0.5,0.5
2025-11-11T2200,1343A,112.8908,28.1308,长沙市,湖南中医药大学,颗粒物(PM10),72,94,67,43,32,78,,86,86,18,14,5,5,0.7,0.6
2025-11-11T2200,1344A,112.9581,28.3611,长沙市,沙坪,,,,,,,,,,,,,,,,
2025-11-11T2200,1727A,113.1147,36.1547,长治市,清华站,颗粒物(PM10),60,70,69,39,37,52,,82,78,40,38,10,15,0.7,1
2025-11-11T2200,1730A,113.0886,36.2125,长治市,审计局,细颗粒物(PM2.5),64,73,64,46,38,61,,73,70,27,37,13,13,0.8,0.9
2025-11-11T2200,1731A,113.0844,36.1856,长治市,长治八中,细颗粒物(PM2.5),83,108,94,61,43,61,,74,69,25,32,16,13,1.0,1
2025-11-11T2200,2845A,113.1569,36.1911,长治市,德盛苑,细颗粒物(PM2.5),55,50,64,39,37,86,,91,90,16,23,17,13,0.9,1
2025-11-11T2200,3568A,113.06,36.0464,长治市,向阳小学,细颗粒物(PM2.5),93,121,104,69,45,60,,80,78,46,38,24,15,1.0,0.9
2025-11-11T2200,3569A,112.8792,36.3144,长治市,屯留一中,颗粒物(PM10),62,73,52,41,23,45,,77,63,32,31,12,12,0.7,0.7
2025-11-11T2200,4189A,113.1131,36.19948,长治市,英华南巷50号,颗粒物(PM10),55,60,75,34,37,63,,76,72,23,32,12,12,0.8,1
2025-11-11T2200,4190A,113.2367,36.3344,长治市,学府街1号,颗粒物(PM10),59,68,83,37,38,5,,82,56,75,42,9,12,1.0,1.3
2025-11-11T2200,1854A,111.6975,28.9703,常德市,市二中,颗粒物(PM10),65,79,62,39,30,90,,99,97,14,11,7,6,0.4,0.4
2025-11-11T2200,1857A,111.7158,29.1456,常德市,白鹤山,,,,,,,,,,,,,,,,
2025-11-11T2200,3138A,111.7153,29.0289,常德市,武陵区永安,颗粒物(PM10),58,66,42,39,25,86,,,,15,11,7,5,0.6,0.6
2025-11-11T2200,3139A,111.6892,28.9881,常德市,鼎城区玉霞,颗粒物(PM10),68,86,63,46,30,66,,99,88,22,10,8,7,0.6,0.5
2025-11-11T2200,3140A,111.6625,29.0531,常德市,武陵区长庚,颗粒物(PM10),73,95,66,41,28,61,,100,91,23,11,5,5,0.4,0.3
2025-11-11T2200,1196A,119.9633,31.762,常州市,市监测站,,30,30,30,15,13,50,,79,68,35,24,5,7,0.3,0.4
2025-11-11T2200,1200A,119.9468,31.7069,常州市,武进监测站,,35,35,31,13,11,46,,78,66,41,29,7,8,0.4,0.5
2025-11-11T2200,1201A,119.9255,31.9087,常州市,安家,,36,36,33,18,11,50,,84,72,35,25,10,11,0.3,0.3
2025-11-11T2200,3002A,119.9805,31.8174,常州市,行政中心,,37,37,42,9,15,48,,74,64,35,29,5,7,0.3,0.4
2025-11-11T2200,3003A,120.0522,31.7748,常州市,经开区,,41,41,37,6,11,27,,77,56,68,35,12,13,0.6,0.7
2025-11-11T2200,3010A,119.9025,31.7964,常州市,钟楼,,30,30,35,11,17,56,,70,66,28,29,8,10,0.5,0.6
2025-11-11T2200,3429A,119.8598,31.7066,常州市,武进经发区,,33,33,34,13,13,42,,74,61,44,33,8,9,0.6,0.7
2025-11-11T2200,3430A,119.5826,31.7245,常州市,金坛城区,,41,41,36,15,14,21,,76,62,54,26,6,7,0.5,0.5
2025-11-11T2200,2220A,120.4318,41.5881,朝阳市,西梁,,26,26,49,17,23,39,,58,48,19,30,6,9,0.7,0.9
2025-11-11T2200,2221A,120.4521,41.5646,朝阳市,河畔小区,,24,24,40,14,22,46,,61,53,19,28,5,7,0.4,0.6
2025-11-11T2200,2222A,120.4176,41.5648,朝阳市,八里堡,,30,28,50,21,24,38,,59,46,24,35,9,10,0.5,0.7
2025-11-11T2200,2223A,120.3806,41.5969,朝阳市,农业园区,,45,35,39,31,23,10,,64,42,50,29,10,11,0.5,0.5
2025-11-11T2200,1705A,116.6367,23.6719,潮州市,西园路,,,,,,,,,,,,,,,,
2025-11-11T2200,3026A,116.6183,23.6608,潮州市,市政府,,20,,36,14,9,51,,67,62,4,4,4,4,0.4,0.4
2025-11-11T2200,4036A,116.6461,23.6761,潮州市,金山,,26,,21,18,17,42,,58,54,5,6,2,2,0.5,0.5
2025-11-11T2200,2472A,113.0073,25.9061,郴州市,马头岭,,,,,,,,,,,,,,,,
2025-11-11T2200,2473A,113.0116,25.8226,郴州市,市职中,细颗粒物(PM2.5),54,38,19,38,16,44,,44,42,11,10,2,2,0.6,0.6
2025-11-11T2200,2475A,113.0383,25.8071,郴州市,市审计局,,40,38,20,28,14,42,,42,42,13,13,2,1,0.3,0.3
2025-11-11T2200,2476A,113.0348,25.7759,郴州市,市环保局,,49,40,23,34,15,44,,40,40,12,12,1,2,0.5,0.5
2025-11-11T2200,4252A,113.0138,25.8011,郴州市,好美居路49号,,46,39,19,32,15,49,,50,48,14,12,3,3,0.7,0.7
2025-11-11T2200,1431A,103.9728,30.7236,成都市,金泉两河,颗粒物(PM10),57,64,43,18,13,3,,48,32,47,27,2,3,0.6,0.5
2025-11-11T2200,1432A,104.176,30.6872,成都市,十里店,颗粒物(PM10),61,71,47,33,22,8,,42,29,55,33,4,4,0.6,0.5
2025-11-11T2200,1433A,104.079,30.5706,成都市,三瓦窑,颗粒物(PM10),65,80,49,22,17,3,,40,28,56,33,4,4,0.5,0.5
2025-11-11T2200,1434A,104.1114,30.63,成都市,沙河铺,颗粒物(PM10),54,57,43,33,25,11,,34,26,45,32,2,2,0.6,0.4
2025-11-11T2200,1437A,104.0786,30.6531,成都市,君平街,颗粒物(PM10),56,61,43,30,21,25,,43,38,29,24,4,4,0.7,0.6
2025-11-11T2200,1438A,103.613,31.0283,成都市,灵岩寺,,,,,,,,,,,,,,,,
2025-11-11T2200,2880A,104.0239,30.65639,成都市,大石西路,,45,43,34,31,19,19,,46,41,33,27,3,3,0.6,0.6
2025-11-11T2200,3136A,104.2725,30.5589,成都市,龙泉驿区区政府,,32,29,28,22,12,27,,36,34,19,24,6,5,0.5,0.5
2025-11-11T2200,3357A,104.0106,30.6931,成都市,金博路,,50,50,36,19,14,10,,50,36,42,27,5,5,0.7,0.5
2025-11-11T2200,3359A,104.0578,30.5225,成都市,华阳,,46,46,38,29,22,30,,38,35,31,30,5,5,0.6,0.5
2025-11-11T2200,3488A,104.3880,30.7467,成都市,青石路225号,颗粒物(PM10),56,61,45,32,19,9,,46,32,37,25,5,5,0.7,0.7
2025-11-11T2200,3489A,104.0789,30.4072,成都市,科学城,颗粒物(PM10),55,59,35,31,19,9,,37,30,40,23,5,5,0.5,0.5
2025-11-11T2200,4011A,103.8506,30.6947,成都市,光华大道三段,颗粒物(PM10),57,64,41,27,17,9,,47,36,46,27,1,1,0.8,0.7
2025-11-11T2200,4224A,104.2433,30.5353,成都市,鲸龙路1057号,颗粒物(PM10),53,56,36,26,18,16,,47,42,32,20,6,6,0.6,0.6
2025-11-11T2200,1062A,117.9531,40.9081,承德市,铁路,"颗粒物(PM10),细颗粒物(PM2.5)",73,96,50,53,24,6,,40,32,67,36,4,6,1.1,0.7
2025-11-11T2200,1063A,117.9392,40.9763,承德市,中国银行,细颗粒物(PM2.5),79,92,52,58,24,2,,45,21,49,33,2,4,1.0,0.6
2025-11-11T2200,1064A,117.9503,40.928,承德市,开发区,颗粒物(PM10),79,108,60,47,27,3,,47,38,62,35,6,7,1.1,0.5
2025-11-11T2200,1066A,117.9268,41.0026,承德市,离宫,,,,,,,,,,,,,,,,
2025-11-11T2200,4274A,117.7994,40.9605,承德市,滨河大街98号,细颗粒物(PM2.5),55,54,50,39,26,7,,33,24,43,32,3,8,0.8,0.8
2025-11-11T2200,2314A,117.47,30.6618,池州市,池州学院,,47,47,42,24,19,48,,87,72,45,29,15,9,0.6,0.6
2025-11-11T2200,3237A,117.4918,30.6617,池州市,展览馆,,44,44,40,21,18,47,,88,73,40,26,9,9,0.6,0.7
2025-11-11T2200,3333A,117.5627,30.695,池州市,第八中学,,45,45,37,19,14,59,,91,79,18,21,9,8,0.5,0.6
2025-11-11T2200,3334A,117.5038,30.6243,池州市,第十二中学,,40,40,35,16,14,44,,89,74,44,27,10,7,0.7,0.7
2025-11-11T2200,1744A,118.9233,42.2816,赤峰市,松山一中,,40,40,41,28,20,35,,49,46,35,42,18,16,1.0,0.9
2025-11-11T2200,1745A,118.9576,42.2728,赤峰市,哈达街,,36,36,29,24,17,32,,48,43,34,32,14,17,0.6,0.7
2025-11-11T2200,1746A,118.8788,42.2554,赤峰市,天义路,,36,26,18,25,17,41,,60,54,27,28,18,13,0.8,0.7
2025-11-11T2200,3058A,119.2658,42.0353,赤峰市,银河街,颗粒物(PM10),56,62,57,35,30,37,,57,49,23,24,18,22,0.7,0.9
2025-11-11T2200,3286A,118.9359,42.3147,赤峰市,桥北物流园区,颗粒物(PM10),63,76,36,34,23,12,,40,23,50,41,12,15,1.0,0.7
2025-11-11T2200,2521A,107.3476,22.4136,崇左市,市环保局江州分局,,12,12,18,7,7,37,,37,37,7,9,2,2,0.7,0.8
2025-11-11T2200,4256A,107.3750,22.3736,崇左市,石景林东路7号,,16,7,14,3,7,49,,50,50,6,10,6,8,0.6,0.7
2025-11-11T2200,2298A,118.3093,32.3153,滁州市,老年大学,,,,40,,16,,,91,87,20,12,10,11,,0.1
2025-11-11T2200,2299A,118.3244,32.2786,滁州市,人大宾馆,,36,36,35,14,10,53,,84,73,17,14,5,5,0.2,0.2
2025-11-11T2200,3207A,118.3118,32.3038,滁州市,市政府原办公楼,,41,41,44,19,17,64,,90,81,18,17,6,6,0.3,0.3
2025-11-11T2200,3331A,118.3267,32.2634,滁州市,图书馆,,34,34,31,12,9,58,,90,81,21,15,8,8,0.2,0.2
2025-11-11T2200,2605A,101.5482,25.0441,楚雄彝族自治州,州环境监测站,,,,19,17,9,16,,47,41,19,14,9,8,0.6,0.5
2025-11-11T2200,2606A,101.538,25.0492,楚雄彝族自治州,市经济开发区,,,28,14,14,7,,,49,45,34,16,12,9,0.9,0.7
2025-11-11T2200,2548A,107.5277,31.2827,达州市,达州职业技术学院,,,,,,,,,,,,,,,,
2025-11-11T2200,2549A,107.5086,31.2186,达州市,市环境监测站,,47,47,42,19,15,2,,45,30,42,27,6,9,0.7,0.5
2025-11-11T2200,2550A,107.4988,31.2132,达州市,凤凰小区,颗粒物(PM10),51,51,42,22,17,2,,49,32,42,26,6,9,0.6,0.5
2025-11-11T2200,2551A,107.5082,31.1986,达州市,达县机关宾馆,,48,48,44,29,18,2,,41,24,42,28,6,9,0.6,0.5
2025-11-11T2200,2552A,107.4644,31.2124,达州市,市政中心,颗粒物(PM10),61,71,52,29,15,2,,47,33,49,28,7,9,0.9,0.5
2025-11-11T2200,2614A,100.1542,25.7054,大理白族自治州,大理市环境监测站,,18,14,13,7,10,57,,62,61,9,8,6,6,0.3,0.3
2025-11-11T2200,2615A,100.2171,25.5811,大理白族自治州,大理古城,,,,15,25,12,55,,66,65,13,12,7,7,0.5,0.5
2025-11-11T2200,1109A,121.612,38.9741,大连市,甘井子,,31,31,54,12,29,70,,75,68,25,31,6,10,0.5,0.6
2025-11-11T2200,1110A,121.565,38.9511,大连市,周水子,,38,38,52,20,28,35,,80,64,69,34,3,4,0.6,0.5
2025-11-11T2200,1111A,121.5637,38.8845,大连市,星海三站,,38,37,47,26,28,53,,76,72,18,17,6,8,0.6,0.5
2025-11-11T2200,1112A,121.6302,38.9117,大连市,青泥洼桥,,30,30,54,15,28,58,,72,57,25,27,10,12,0.4,0.4
2025-11-11T2200,1113A,121.6251,38.8638,大连市,傅家庄,颗粒物(PM10),70,90,57,8,24,85,,77,77,11,21,9,11,0.3,0.7
2025-11-11T2200,1114A,121.5213,38.8661,大连市,七贤岭,,39,39,52,16,27,33,,76,55,28,25,6,8,0.6,0.6
2025-11-11T2200,1115A,121.2529,38.8061,大连市,旅顺,,38,38,48,26,26,74,,76,75,18,18,9,9,0.5,0.5
2025-11-11T2200,1116A,121.7485,39.1311,大连市,金州,,21,21,56,11,30,66,,68,58,21,30,11,13,0.3,0.4
2025-11-11T2200,1117A,121.7811,39.0496,大连市,开发区,,40,40,56,13,25,36,,54,28,45,27,4,5,0.6,0.5
2025-11-11T2200,1118A,121.9762,39.0631,大连市,双D港,,24,18,50,3,26,74,,79,76,13,21,10,12,0.5,0.6
2025-11-11T2200,1789A,124.81117,46.03138,大庆市,大同区,细颗粒物(PM2.5),80,84,50,59,30,33,,56,46,24,18,10,10,0.7,0.5
2025-11-11T2200,1790A,125.129,46.533,大庆市,龙凤区,细颗粒物(PM2.5),83,94,50,61,28,30,,44,40,23,24,11,7,0.7,0.6
2025-11-11T2200,1791A,124.902,46.408,大庆市,红岗区,颗粒物(PM10),63,75,40,44,25,25,,44,35,29,20,6,6,0.8,0.6
2025-11-11T2200,1792A,125.153,46.586,大庆市,萨尔图区,细颗粒物(PM2.5),103,104,52,77,34,42,,45,44,25,27,11,9,0.5,0.4
2025-11-11T2200,1793A,124.9042,46.6215,大庆市,让胡路区,,42,42,34,29,23,34,,44,38,16,14,7,6,0.5,0.4
2025-11-11T2200,3481A,125.141,46.634,大庆市,萨区政府监测点,细颗粒物(PM2.5),92,74,40,68,22,38,,41,40,24,21,10,9,0.6,0.4
2025-11-11T2200,1721A,113.3819,40.1097,大同市,果树场,颗粒物(PM10),79,108,77,51,37,9,,67,47,60,41,14,12,1.2,1.1
2025-11-11T2200,1723A,113.2994,40.0758,大同市,云冈宾馆,颗粒物(PM10),70,89,107,26,32,44,,66,58,37,41,8,13,0.6,1.3
2025-11-11T2200,1724A,113.3444,40.0917,大同市,大同大学,颗粒物(PM10),71,92,77,36,29,29,,70,62,59,43,8,13,0.6,0.6
2025-11-11T2200,1725A,113.2661,40.1269,大同市,安家小村,颗粒物(PM10),70,90,84,27,29,30,,72,64,50,39,9,12,0.6,0.9
2025-11-11T2200,1726A,113.2711,40.0844,大同市,教育学院,,,,124,,42,,,61,54,41,48,8,12,,1.9
2025-11-11T2200,3282A,113.3397,40.0597,大同市,大同市卫生学校,颗粒物(PM10),70,89,79,36,30,31,,65,52,56,46,7,11,0.7,0.9
2025-11-11T2200,3565A,113.1367,40.1122,大同市,云冈站,颗粒物(PM10),71,92,87,26,33,3,,74,58,54,34,9,13,0.5,0.6
2025-11-11T2200,3566A,113.1186,40.2556,大同市,图书馆,颗粒物(PM10),72,93,67,37,30,32,,82,73,17,19,4,11,0.6,0.5
2025-11-11T2200,3567A,113.5931,40.0461,大同市,区一中,颗粒物(PM10),76,101,80,49,34,33,,72,61,32,28,11,16,0.8,0.7
2025-11-11T2200,4199A,113.2798,40.0997,大同市,魏都大道141号,颗粒物(PM10),79,107,155,44,42,14,,67,58,71,46,8,12,0.9,2
2025-11-11T2200,2269A,124.1069,50.4097,大兴安岭地区,科技局,,22,,19,15,13,42,,45,43,6,5,5,5,0.2,0.2
2025-11-11T2200,3663A,124.1164,50.4278,大兴安岭地区,红旗社区,,13,7,15,6,6,41,,43,41,13,16,14,7,0.3,0.4
2025-11-11T2200,1600A,124.3303,40.0625,丹东市,江湾东路,细颗粒物(PM2.5),82,97,53,60,31,4,,54,30,59,36,16,15,1.5,1.2
2025-11-11T2200,1601A,124.4256,40.1503,丹东市,临江后街,颗粒物(PM10),77,104,47,52,23,12,,54,31,40,31,10,11,1.4,0.8
2025-11-11T2200,1602A,124.3933,40.1461,丹东市,元宝山,细颗粒物(PM2.5),107,125,41,80,22,5,,62,44,62,24,20,11,2.0,0.8
2025-11-11T2200,1603A,124.3633,40.1092,丹东市,民主桥,细颗粒物(PM2.5),80,88,45,59,24,2,,53,23,56,37,8,8,1.5,1.3
2025-11-11T2200,3541A,109.5726,19.5167,儋州市,第一中学子站,,39,39,29,18,14,60,,63,63,6,5,9,7,0.6,0.6
2025-11-11T2200,3542A,109.5567,19.5187,儋州市,东坡学校子站,,33,33,32,20,14,56,,68,66,10,9,4,3,0.7,0.7
2025-11-11T2200,2616A,98.5842,24.428,德宏傣族景颇族自治州,德宏州监测站,,43,37,23,30,15,30,,75,62,21,16,8,8,0.8,0.6
2025-11-11T2200,3677A,98.5881,24.4368,德宏傣族景颇族自治州,芒市人民政府综合楼,,24,24,26,11,11,37,,73,63,14,11,6,7,0.7,0.6
2025-11-11T2200,1901A,104.4239,31.1208,德阳市,东山公园,,43,43,28,24,16,40,,63,57,15,14,2,2,0.7,0.6
2025-11-11T2200,1902A,104.3826,31.1317,德阳市,西小区,颗粒物(PM10),53,56,48,24,20,31,,66,56,28,22,1,2,0.7,0.6
2025-11-11T2200,1904A,104.3553,31.1091,德阳市,耐火材料厂,颗粒物(PM10),52,53,49,29,19,19,,69,54,37,29,1,2,0.7,0.7
2025-11-11T2200,3639A,104.4019,31.1244,德阳市,市教育局,,47,47,34,23,13,17,,63,49,36,23,1,2,0.6,0.5
2025-11-11T2200,1622A,116.3032,37.4674,德州市,儿童乐园,细颗粒物(PM2.5),128,185,124,97,65,52,,95,83,78,53,13,13,1.1,0.9
2025-11-11T2200,1624A,116.2991,37.4451,德州市,监理站,细颗粒物(PM2.5),122,168,117,92,65,66,,100,91,61,47,17,17,0.8,0.7
2025-11-11T2200,3066A,116.2721,37.4379,德州市,九衢泉纯净水厂,细颗粒物(PM2.5),128,202,128,97,60,15,,91,66,108,62,15,15,1.0,0.8
2025-11-11T2200,3371A,116.3728,37.4403,德州市,开发区人民医院,细颗粒物(PM2.5),128,183,120,97,58,28,,91,64,94,58,18,18,1.0,0.8
2025-11-11T2200,3511A,116.5652,37.3319,德州市,陵城艺术中心,细颗粒物(PM2.5),117,144,109,88,60,64,,91,78,57,51,15,18,0.9,0.9
2025-11-11T2200,4292A,116.3525,37.4209,德州市,新河东路,细颗粒物(PM2.5),163,210,122,124,63,11,,91,68,127,69,13,14,1.0,0.8
2025-11-11T2200,2621A,99.7056,27.8317,迪庆藏族自治州,迪庆州站,,21,21,24,13,15,59,,70,66,10,9,6,6,0.5,0.4
2025-11-11T2200,3180A,99.7136,27.8094,迪庆藏族自治州,质量技术监督局,,21,18,23,11,12,66,,74,68,8,12,8,7,0.4,0.5
2025-11-11T2200,4257A,104.6092,35.5962,定西市,将台街,颗粒物(PM10),56,61,54,37,33,67,,64,62,4,11,8,8,0.5,0.6
2025-11-11T2200,4309A,104.6159,35.5701,定西市,正龙路62号,细颗粒物(PM2.5),58,60,60,41,33,64,,62,60,14,14,6,6,0.7,0.5
2025-11-11T2200,1389A,113.7547,23.0494,东莞市,莞城梨川,,37,37,21,17,10,50,,58,55,24,17,2,2,0.5,0.5
2025-11-11T2200,1390A,113.7944,23.0128,东莞市,东城石井,,38,38,18,20,9,54,,59,57,14,12,6,6,0.6,0.6
2025-11-11T2200,1391A,113.7383,22.9658,东莞市,南城西平,,37,37,18,14,7,49,,58,56,24,19,6,6,0.8,0.7
2025-11-11T2200,3319A,113.7338,23.0381,东莞市,万江金泰,,38,38,19,16,7,54,,58,57,14,15,5,5,0.7,0.8
2025-11-11T2200,3626A,113.7533,23.0202,东莞市,南城元岭,,38,38,19,16,8,54,,64,61,16,10,6,6,0.6,0.6
2025-11-11T2200,3627A,113.7875,23.0457,东莞市,东城主山,,,47,26,17,8,56,,59,58,,14,5,4,0.6,0.6
2025-11-11T2200,1666A,118.6614,37.4309,东营市,市环保局,颗粒物(PM10),87,124,104,63,52,77,,102,97,32,50,13,20,0.8,0.9
2025-11-11T2200,3036A,118.6904,37.4338,东营市,开发区管委会,颗粒物(PM10),149,248,112,78,57,87,,108,106,29,56,15,20,0.8,0.7
2025-11-11T2200,3365A,118.5719,37.565,东营市,垦利区民丰路,颗粒物(PM10),86,122,111,63,56,49,,106,89,58,56,6,8,0.9,0.8
2025-11-11T2200,3498A,118.5055,37.8612,东营市,河口城区,细颗粒物(PM2.5),92,124,121,68,60,77,,120,110,30,48,10,12,0.6,0.6
2025-11-11T2200,3646A,118.4978,37.4623,东营市,胜利站,细颗粒物(PM2.5),94,114,105,70,57,46,,100,88,67,64,27,17,1.0,1
2025-11-11T2200,3734A,118.35,37.26,东营市,理想之城,细颗粒物(PM2.5),94,127,111,70,61,45,,102,90,58,56,23,11,0.8,0.7
2025-11-11T2200,1591A,110.0023,39.8129,鄂尔多斯市,综合楼,颗粒物(PM10),52,53,66,14,23,34,,78,63,49,36,13,14,0.6,0.6
2025-11-11T2200,1592A,109.9486,39.8261,鄂尔多斯市,巴音孟克林场办事处,,46,46,67,24,25,67,,86,80,24,23,10,10,0.4,0.5
2025-11-11T2200,1593A,109.7736,39.5986,鄂尔多斯市,康泽苑,颗粒物(PM10),52,53,64,29,26,71,,80,75,21,26,11,10,0.3,0.4
2025-11-11T2200,1594A,109.8119,39.5989,鄂尔多斯市,华泰汽车城,颗粒物(PM10),59,68,62,24,25,82,,88,80,19,31,12,7,0.3,0.3
2025-11-11T2200,1595A,109.9734,39.7884,鄂尔多斯市,奥林花园,颗粒物(PM10),52,53,89,17,26,25,,78,50,60,51,9,10,0.4,0.6
2025-11-11T2200,2436A,114.8938,30.3994,鄂州市,市政府,颗粒物(PM10),58,66,71,30,44,69,,98,84,29,24,10,10,0.6,0.6
2025-11-11T2200,2437A,114.8989,30.3714,鄂州市,赵家坝,颗粒物(PM10),67,84,73,35,45,67,,104,88,25,18,8,8,0.8,0.8
2025-11-11T2200,3654A,114.8094,30.4089,鄂州市,精准医疗中心,颗粒物(PM10),54,58,70,20,45,68,,108,92,21,16,4,6,0.7,0.9
2025-11-11T2200,2454A,109.4978,30.2981,恩施土家族苗族自治州,湖北民院,,42,42,40,25,22,23,,60,52,16,11,7,6,0.6,0.5
2025-11-11T2200,2455A,109.4707,30.2798,恩施土家族苗族自治州,州电力总公司,,43,43,42,27,23,17,,53,45,26,13,7,6,0.5,0.4
2025-11-11T2200,3549A,109.5061,30.3772,恩施土家族苗族自治州,龙凤新区,,,,37,26,19,12,,63,42,11,6,6,6,0.3,0.3
2025-11-11T2200,2499A,108.3411,21.6158,防城港市,沙万,,24,24,20,11,8,46,,60,58,12,8,6,6,0.5,0.6
2025-11-11T2200,2500A,108.3514,21.7731,防城港市,防城档案局,,39,39,28,9,10,45,,54,52,11,10,7,7,0.7,0.7
2025-11-11T2200,2501A,108.3506,21.6414,防城港市,大海花园,,22,18,19,15,10,48,,65,63,13,8,5,4,0.5,0.5
2025-11-11T2200,1371A,113.1294,23.0067,佛山市,湾梁,,19,19,20,6,7,39,,55,52,25,24,8,8,1.0,1
2025-11-11T2200,1372A,113.1083,23.0478,佛山市,华材职中,,15,14,21,10,8,40,,61,56,17,17,7,7,0.8,0.8
2025-11-11T2200,1373A,113.144,23.0453,佛山市,南海气象局,,13,10,18,7,9,41,,58,55,17,16,7,8,0.9,0.9
2025-11-11T2200,1374A,113.2881,22.8094,佛山市,顺德苏岗,,30,30,20,7,6,38,,59,54,23,19,8,8,0.6,0.6
2025-11-11T2200,1376A,112.8383,22.8678,佛山市,高明孔堂,,19,19,22,8,8,38,,64,56,25,20,8,7,0.5,0.5
2025-11-11T2200,1377A,112.8836,23.1588,佛山市,三水监测站,,17,17,13,3,4,40,,55,50,20,19,8,7,0.8,0.8
2025-11-11T2200,1378A,112.867,23.185,佛山市,三水云东海,,16,16,15,8,7,40,,57,51,21,19,6,8,0.9,0.9
2025-11-11T2200,3625A,113.2544,22.7642,佛山市,容桂街道办,,19,19,16,7,9,34,,53,47,26,23,6,7,0.7,0.7
2025-11-11T2200,1280A,119.3903,26.0543,福州市,鼓山,,,,22,,10,,,80,,,6,,1,,0.5
2025-11-11T2200,1282A,119.2681,26.0504,福州市,师大,,23,18,29,9,10,72,,87,75,7,8,5,6,0.4,0.4
2025-11-11T2200,1283A,119.2984,26.1028,福州市,五四北路,,22,12,28,3,10,70,,83,72,7,9,4,4,0.3,0.3
2025-11-11T2200,1284A,119.2648,26.0768,福州市,杨桥西路,,23,11,27,3,9,73,,86,76,6,8,3,4,0.2,0.2
2025-11-11T2200,1285A,119.317,26.0746,福州市,紫阳,,27,27,39,3,11,64,,83,71,16,12,6,7,0.2,0.4
2025-11-11T2200,3048A,119.5799,26.0936,福州市,九龙,,22,10,32,3,9,68,,83,80,8,7,4,4,0.4,0.4
2025-11-11T2200,3526A,119.5189,25.9664,福州市,吴航,,23,7,27,3,12,71,,84,80,6,6,5,6,0.6,0.5
2025-11-11T2200,1755A,123.7977,41.8491,抚顺市,望花区,细颗粒物(PM2.5),232,283,103,182,69,7,,54,31,77,46,13,11,2.1,1.3
2025-11-11T2200,1756A,123.9161,41.8822,抚顺市,顺城区,细颗粒物(PM2.5),147,185,98,112,60,4,,54,30,64,44,10,10,1.5,1.2
2025-11-11T2200,1757A,124.0436,41.8611,抚顺市,东洲区,,,,57,69,43,,,71,68,,32,8,10,1.0,0.9
2025-11-11T2200,1758A,123.9247,41.8642,抚顺市,新抚区,细颗粒物(PM2.5),200,184,112,150,66,6,,51,24,59,42,8,8,1.4,1.1
2025-11-11T2200,1759A,124.0972,41.8961,抚顺市,大伙房水库,细颗粒物(PM2.5),77,67,49,56,37,27,,73,62,46,33,12,11,0.8,0.7
2025-11-11T2200,1760A,123.7086,41.8391,抚顺市,沈抚新城,细颗粒物(PM2.5),259,306,95,209,66,18,,54,40,71,48,10,11,2.1,1.1
2025-11-11T2200,2376A,116.2127,28.0814,抚州市,桐源党溪,,,,,,,,,,,,,,,,
2025-11-11T2200,2377A,116.3544,27.9831,抚州市,市站,,46,46,62,26,30,82,,95,94,11,10,6,6,0.5,0.7
2025-11-11T2200,2378A,116.3565,27.963,抚州市,血防站,,50,50,60,27,30,87,,100,99,15,15,2,2,0.8,0.9
2025-11-11T2200,2379A,116.3564,28.0007,抚州市,采茶剧团,颗粒物(PM10),51,51,65,26,31,82,,98,95,7,6,3,3,0.7,0.8
2025-11-11T2200,2380A,116.385,27.9647,抚州市,医学分院,颗粒物(PM10),56,62,68,26,29,64,,98,92,9,10,13,7,0.7,1.2
2025-11-11T2200,2207A,121.6094,41.998,阜新市,工业园区,细颗粒物(PM2.5),122,104,73,92,39,7,,57,39,55,34,16,15,1.1,0.6
2025-11-11T2200,2208A,121.6697,42.0279,阜新市,长青街,细颗粒物(PM2.5),92,75,36,68,25,6,,52,41,52,24,14,13,0.7,0.4
2025-11-11T2200,2209A,121.6673,42.0705,阜新市,农业园区,细颗粒物(PM2.5),64,58,29,46,14,36,,56,51,30,14,11,9,0.7,0.5
2025-11-11T2200,2210A,121.6717,42.0224,阜新市,东苑,细颗粒物(PM2.5),90,111,43,67,25,13,,53,40,51,28,20,12,1.1,0.5
2025-11-11T2200,2211A,121.6506,42.0498,阜新市,玉龙新城,,,,52,142,24,12,,56,42,46,33,11,12,1.3,0.6
2025-11-11T2200,2301A,115.8277,32.8929,阜阳市,市监测站,,,,54,,28,,,90,82,25,28,4,5,0.2,0.3
2025-11-11T2200,2303A,115.8554,32.8605,阜阳市,开发区,颗粒物(PM10),60,70,66,14,24,45,,88,70,38,28,4,4,0.2,0.2
2025-11-11T2200,2875A,115.784,32.8892,阜阳市,阜阳职业技术学院,,36,36,39,18,25,75,,96,85,18,18,6,6,0.2,0.2
2025-11-11T2200,3468A,115.7901,32.8613,阜阳市,市规划展馆,,36,36,47,13,20,75,,103,93,19,16,5,6,0.5,0.4
2025-11-11T2200,3469A,115.836,32.9183,阜阳市,枣园社区,,46,46,55,14,23,54,,94,75,35,30,7,8,0.5,0.5
2025-11-11T2200,2669A,102.9099,34.9841,甘南藏族自治州,州政府,,40,37,42,28,28,54,,61,61,14,24,4,6,0.5,0.5
2025-11-11T2200,3380A,102.8914,34.9617,甘南藏族自治州,甘肃民族师范学院,,40,30,42,28,23,50,,60,60,20,27,5,14,0.5,0.6
2025-11-11T2200,2570A,101.9603,30.0475,甘孜藏族自治州,水桥子,,12,8,6,3,5,38,,56,54,17,15,7,8,0.5,0.5
2025-11-11T2200,3065A,101.9533,29.9972,甘孜藏族自治州,州环保局,,17,17,7,3,5,38,,55,53,19,13,5,5,0.5,0.4
2025-11-11T2200,3414A,115.8347,28.932,赣江新区,桑海产业园,,48,48,74,21,35,82,,102,99,16,16,7,9,0.7,0.7
2025-11-11T2200,2362A,114.9017,25.9149,赣州市,通天岩,颗粒物(PM10),55,59,46,30,24,97,,96,96,8,7,18,15,0.8,0.9
2025-11-11T2200,2363A,114.9367,25.8664,赣州市,地委,颗粒物(PM10),56,61,44,32,22,88,,88,88,13,11,6,6,0.6,0.7
2025-11-11T2200,2364A,114.9461,25.8481,赣州市,气象台,,,61,52,27,19,,,88,88,11,11,5,5,0.7,0.9
2025-11-11T2200,2365A,114.9322,25.8333,赣州市,市图书馆,颗粒物(PM10),53,56,46,26,24,92,,91,91,12,11,3,4,0.8,0.8
2025-11-11T2200,2366A,114.8905,25.8471,赣州市,华坚鞋城,颗粒物(PM10),54,57,53,28,23,77,,73,73,13,14,4,5,0.6,0.6
2025-11-11T2200,3109A,115.0093,25.8613,赣州市,赣县区卫计委,细颗粒物(PM2.5),54,45,44,38,28,93,,91,91,6,6,7,7,0.6,0.6
2025-11-11T2200,2683A,106.2319,36.1417,固原市,马园,,,,,,,,,,,,,,,,
2025-11-11T2200,2684A,106.2792,36.0022,固原市,监测站,颗粒物(PM10),55,59,44,38,26,41,,66,64,35,17,5,4,0.9,0.5
2025-11-11T2200,2685A,106.2375,36.0211,固原市,新区,颗粒物(PM10),52,54,43,21,22,25,,65,60,43,20,6,6,0.6,0.5
2025-11-11T2200,3522A,106.2177,35.9959,固原市,原州区十五小,颗粒物(PM10),68,85,50,44,26,18,,63,57,54,23,7,5,1.2,0.7
2025-11-11T2200,2543A,106.6308,30.5278,广安市,小平旧居,,,,,,,,,,,,,,,,
2025-11-11T2200,2544A,106.6303,30.4576,广安市,市委,,,38,38,27,19,,,39,30,26,17,,3,0.6,0.6
2025-11-11T2200,2545A,106.6271,30.4663,广安市,友谊中学,,43,43,34,17,17,20,,44,33,25,16,6,6,0.8,0.7
2025-11-11T2200,2547A,106.6388,30.4551,广安市,广电花园,,40,30,33,28,18,11,,36,23,26,18,1,2,0.7,0.6
2025-11-11T2200,2902A,106.6351,30.4865,广安市,北辰小学,,45,45,37,24,16,20,,41,30,19,13,8,8,0.6,0.5
2025-11-11T2200,2523A,105.8945,32.4535,广元市,黑石坡,,,,,,,,,,,,,,,,
2025-11-11T2200,2524A,105.821,32.4444,广元市,老城,颗粒物(PM10),51,52,37,27,22,7,,74,43,47,27,5,5,0.8,0.8
2025-11-11T2200,2526A,105.8628,32.4287,广元市,监测站,,32,32,28,13,15,9,,68,46,27,18,3,7,0.7,0.8
2025-11-11T2200,3617A,105.8047,32.4166,广元市,经开区,,,59,55,20,20,,,44,30,46,29,3,3,0.7,0.5
2025-11-11T2200,1345A,113.2347,23.1423,广州市,广雅中学,,24,24,26,12,16,32,,53,48,26,22,7,7,0.3,0.3
2025-11-11T2200,1346A,113.2612,23.105,广州市,市五中,,21,21,18,10,9,38,,65,59,28,22,7,8,0.6,0.6
2025-11-11T2200,1348A,113.3478,23.0916,广州市,广东商学院,,27,27,18,15,9,40,,60,57,21,15,6,6,0.4,0.3
2025-11-11T2200,1349A,113.4332,23.1047,广州市,市八十六中,,20,20,15,14,9,53,,59,58,14,17,7,7,0.6,0.5
2025-11-11T2200,1350A,113.3505,22.9483,广州市,番禺中学,,32,32,22,15,8,41,,61,58,24,17,7,6,0.6,0.6
2025-11-11T2200,1351A,113.2146,23.3916,广州市,花都师范,,19,19,16,8,6,46,,58,56,14,15,6,7,0.7,0.8
2025-11-11T2200,1352A,113.2597,23.1331,广州市,市监测站,,23,23,22,10,9,30,,56,50,29,21,7,8,0.8,0.7
2025-11-11T2200,1353A,113.5618,23.312,广州市,九龙镇镇龙,,30,30,17,14,9,42,,59,55,17,12,8,7,0.7,0.6
2025-11-11T2200,1354A,113.2765,23.1544,广州市,麓湖,,24,24,19,16,10,27,,54,48,27,20,9,9,0.6,0.5
2025-11-11T2200,1355A,113.443,23.3035,广州市,帽峰山森林公园,,,,,,,,,,,,,,,,
2025-11-11T2200,2846A,113.3221,23.1322,广州市,体育西,,23,22,18,16,11,31,,58,54,25,15,8,8,0.7,0.6
2025-11-11T2200,3298A,113.5717,23.5491,广州市,从化街口,,29,29,16,18,10,53,,66,64,10,8,12,10,0.6,0.6
2025-11-11T2200,3299A,113.3472,23.3692,广州市,白云竹料,,19,19,15,11,8,39,,63,58,19,12,7,7,0.6,0.6
2025-11-11T2200,3300A,113.2981,23.237,广州市,白云嘉禾,,24,24,19,11,9,36,,54,49,22,18,7,8,0.7,0.7
2025-11-11T2200,3301A,113.4256,23.1716,广州市,黄埔科学城,,27,27,19,14,9,55,,67,64,11,10,6,5,0.8,0.8
2025-11-11T2200,3302A,113.3942,23.0483,广州市,番禺大学城,,20,19,13,14,8,52,,67,65,17,13,10,10,0.6,0.6
2025-11-11T2200,3303A,113.4922,22.8168,广州市,南沙黄阁,,30,30,20,15,9,48,,59,57,23,21,9,8,0.6,0.7
2025-11-11T2200,3304A,113.5342,22.7896,广州市,南沙街,,34,34,21,17,10,42,,56,52,22,20,7,8,0.1,0.2
2025-11-11T2200,3443A,113.2902,23.5544,广州市,花都梯面,,14,14,12,9,7,44,,63,59,10,10,4,5,0.6,0.6
2025-11-11T2200,3445A,113.7858,23.7478,广州市,从化良口,,34,34,16,20,10,73,,75,74,10,8,6,6,0.6,0.7
2025-11-11T2200,3446A,113.8051,23.2614,广州市,增城荔城,,35,35,16,19,9,59,,63,61,11,10,7,7,0.5,0.5
2025-11-11T2200,2505A,109.568,23.1478,贵港市,德智高中,,,,,,,,,,,,,,,,
2025-11-11T2200,2506A,109.6047,23.0666,贵港市,江南子站,,19,19,16,11,9,48,,66,63,11,9,5,5,0.8,0.8
2025-11-11T2200,2508A,109.5669,23.1065,贵港市,荷城子站,,19,19,16,9,6,46,,61,58,11,9,4,4,0.8,0.8
2025-11-11T2200,3405A,109.5886,23.1172,贵港市,新世纪学校,,22,22,18,11,10,47,,58,55,7,6,3,4,0.7,0.6
2025-11-11T2200,4260A,109.5933,23.0951,贵港市,中山路155-3号,,,17,16,13,11,,,67,66,9,7,4,3,0.7,0.7
2025-11-11T2200,1439A,106.6899,26.5998,贵阳市,马鞍山,,12,12,16,3,9,35,,48,43,9,7,3,3,0.4,0.5
2025-11-11T2200,1441A,106.6243,26.6266,贵阳市,鉴湖路,,24,24,34,3,12,42,,46,46,11,9,4,4,0.4,0.5
2025-11-11T2200,1442A,106.7487,26.6343,贵阳市,燕子冲,,20,,13,14,15,49,,58,54,7,8,4,5,0.5,0.5
2025-11-11T2200,1443A,106.6555,26.4365,贵阳市,碧云窝,,29,29,30,9,9,45,,51,49,14,12,3,2,0.3,0.4
2025-11-11T2200,1445A,106.7109,26.6027,贵阳市,红边门,,24,24,15,14,8,42,,53,49,13,10,7,5,0.6,0.6
2025-11-11T2200,1446A,106.7164,26.5699,贵阳市,新华路,,19,19,22,9,10,60,,66,63,9,9,8,10,0.4,0.4
2025-11-11T2200,1447A,106.674,26.5424,贵阳市,太慈桥,,17,9,18,9,10,54,,51,51,10,12,4,3,0.2,0.3
2025-11-11T2200,1552A,106.805,26.3003,贵阳市,桐木岭,,31,31,24,14,14,64,,73,64,3,5,6,6,0.6,0.7
2025-11-11T2200,4230A,106.6882,26.5695,贵阳市,花果园大街66号,,18,14,14,12,14,48,,52,50,10,10,1,1,0.7,0.7
2025-11-11T2200,4231A,106.6873,26.5169,贵阳市,漓江路57号,,16,,10,9,10,49,,53,50,9,9,8,8,0.4,0.4
2025-11-11T2200,1862A,110.4144,25.3167,桂林市,电子科大尧山校区,,,,,,,,,,,,,,,,
2025-11-11T2200,1864A,110.3089,25.2708,桂林市,龙隐路小学,,36,36,10,19,6,60,,58,56,11,8,5,5,0.4,0.5
2025-11-11T2200,1865A,110.2869,25.2178,桂林市,八中,,29,25,10,20,7,60,,56,54,9,7,6,6,0.4,0.5
2025-11-11T2200,3531A,110.296,25.1253,桂林市,旅游学院,,32,31,6,22,5,69,,68,67,9,7,3,3,0.3,0.4
2025-11-11T2200,4222A,110.1835,25.2444,桂林市,环湖路276号,,35,34,11,24,9,61,,55,55,9,10,8,6,0.2,0.3
2025-11-11T2200,4301A,110.2803,25.2773,桂林市,信义路13号,,33,33,12,22,9,61,,56,56,11,8,9,6,0.7,0.7
2025-11-11T2200,2674A,100.2561,34.4714,果洛藏族自治州,玛沁县大武镇,颗粒物(PM10),52,54,44,25,15,72,,83,82,2,4,22,18,0.3,0.3
2025-11-11T2200,1129A,126.5422,45.755,哈尔滨市,岭北,,,,,,,,,,,,,,,,
2025-11-11T2200,1130A,126.561,45.8167,哈尔滨市,松北商大,细颗粒物(PM2.5),133,112,50,101,101,46,,55,43,31,30,9,7,1.0,0.7
2025-11-11T2200,1131A,126.979,45.5419,哈尔滨市,阿城会宁,细颗粒物(PM2.5),139,108,77,106,59,41,,57,46,24,27,12,10,0.7,0.6
2025-11-11T2200,1132A,126.599,45.7222,哈尔滨市,南岗学府路,细颗粒物(PM2.5),142,131,59,108,40,32,,51,46,40,22,12,12,0.7,0.4
2025-11-11T2200,1133A,126.689,45.7733,哈尔滨市,太平宏伟公园,细颗粒物(PM2.5),159,126,46,121,37,49,,55,48,35,24,12,11,1.1,0.7
2025-11-11T2200,1134A,126.635,45.7667,哈尔滨市,道外承德广场,细颗粒物(PM2.5),124,142,62,94,34,32,,52,46,54,27,11,9,0.9,0.7
2025-11-11T2200,1135A,126.685,45.7319,哈尔滨市,香坊红旗大街,细颗粒物(PM2.5),176,178,60,133,41,48,,51,41,40,29,15,10,0.9,0.6
2025-11-11T2200,1136A,126.6411,45.7258,哈尔滨市,动力和平路,细颗粒物(PM2.5),198,,51,148,43,33,,56,40,49,29,8,6,1.0,0.6
2025-11-11T2200,1137A,126.593,45.7478,哈尔滨市,道里建国路,细颗粒物(PM2.5),124,105,48,94,41,42,,53,48,46,30,18,11,1.8,0.7
2025-11-11T2200,1138A,126.615,45.61,哈尔滨市,平房东轻厂,细颗粒物(PM2.5),176,144,64,133,52,52,,59,56,32,38,11,9,1.0,0.7
2025-11-11T2200,1139A,126.595,45.9855,哈尔滨市,呼兰师专,细颗粒物(PM2.5),139,110,49,106,46,44,,54,44,35,27,21,10,0.8,0.6
2025-11-11T2200,1140A,126.6206,45.6842,哈尔滨市,省农科院,细颗粒物(PM2.5),203,164,83,153,52,37,,52,39,51,38,11,11,1.0,0.7
2025-11-11T2200,2688A,93.5128,42.8172,哈密市,地区监测站,颗粒物(PM10),77,104,89,39,30,33,,65,53,42,31,18,12,0.2,0.2
2025-11-11T2200,2689A,93.4961,42.8328,哈密市,哈密师范学校,颗粒物(PM10),77,104,75,35,26,24,,58,43,48,36,6,5,0.6,0.7
2025-11-11T2200,2671A,100.9048,36.9639,海北藏族自治州,海晏县西海镇,,35,35,28,17,18,44,,86,73,24,10,13,12,0.5,0.4
2025-11-11T2200,3867A,102.0738,36.5056,海东市,平安区公安北苑,细颗粒物(PM2.5),74,71,58,54,40,43,,76,65,23,22,24,14,0.9,0.8
2025-11-11T2200,1409A,110.576,19.9507,海口市,东寨港,,,,,,,,,,,,,,,,
2025-11-11T2200,1410A,110.3232,20.0574,海口市,海南大学,,36,36,30,23,18,66,,85,81,9,11,8,8,0.6,0.6
2025-11-11T2200,1411A,110.283,20.0053,海口市,秀英海南医院,,40,40,35,23,19,61,,80,76,15,14,9,9,0.6,0.6
2025-11-11T2200,1412A,110.338,19.9969,海口市,海南师范大学,,37,37,31,22,18,70,,88,84,12,14,9,9,0.8,0.8
2025-11-11T2200,1413A,110.33,20.0356,海口市,龙华路环保局宿舍,,37,37,31,22,18,66,,88,84,12,13,10,10,0.2,0.2
2025-11-11T2200,3539A,110.5111,19.9736,海口市,桂林洋子站,颗粒物(PM10),52,54,42,30,23,66,,87,84,10,12,8,13,0.5,0.5
2025-11-11T2200,2673A,100.6188,36.2866,海南藏族自治州,共和县恰卜恰镇,颗粒物(PM10),52,54,44,19,19,34,,83,66,27,16,12,13,0.6,0.5
2025-11-11T2200,2676A,97.3731,37.3753,海西蒙古族藏族自治州,德令哈市,,41,41,33,27,14,66,,88,80,6,7,20,21,0.2,0.5
2025-11-11T2200,1048A,114.5302,36.6116,邯郸市,东污水处理厂,细颗粒物(PM2.5),175,151,112,132,97,31,,71,60,66,46,8,10,1.2,0.8
2025-11-11T2200,1049A,114.4918,36.5713,邯郸市,矿院,细颗粒物(PM2.5),180,163,105,136,93,4,,85,63,90,46,7,10,1.2,0.7
2025-11-11T2200,1050A,114.484,36.6133,邯郸市,丛台公园,细颗粒物(PM2.5),163,162,113,124,88,21,,88,73,75,39,9,11,1.3,0.8
2025-11-11T2200,3458A,114.7895,36.5593,邯郸市,香泉濮院小区,细颗粒物(PM2.5),166,206,134,126,92,51,,86,80,54,36,10,9,1.1,0.9
2025-11-11T2200,3579A,114.50634,36.77178,邯郸市,永年区实验高中,细颗粒物(PM2.5),114,147,127,86,66,18,,71,54,62,50,6,11,1.0,1
2025-11-11T2200,3580A,114.20016,36.44293,邯郸市,峰峰矿区临水派出所,细颗粒物(PM2.5),160,,95,122,89,102,,103,103,29,37,18,14,1.2,1.2
2025-11-11T2200,2634A,106.9893,33.1842,汉中市,汉川机床厂子校,,,,,,,,,,,,,,,,
2025-11-11T2200,2635A,107.0154,33.0706,汉中市,市监测站,颗粒物(PM10),75,100,62,50,27,8,,79,53,43,17,4,4,0.8,0.6
2025-11-11T2200,2636A,107.0089,33.1138,汉中市,鑫源开发区,细颗粒物(PM2.5),62,71,61,44,27,13,,83,58,43,23,5,5,0.4,0.4
2025-11-11T2200,2637A,107.007,33.0323,汉中市,南郑大河坎水厂,细颗粒物(PM2.5),79,82,58,58,31,1,,78,50,41,17,5,4,0.8,0.5
2025-11-11T2200,1223A,120.2072,30.2111,杭州市,滨江,,27,27,30,10,11,57,,58,55,25,28,6,6,0.4,0.4
2025-11-11T2200,1224A,120.0633,30.2747,杭州市,西溪,,30,30,32,9,9,54,,57,50,22,27,8,8,0.4,0.5
2025-11-11T2200,1226A,120.3417,30.3150,杭州市,下沙,,27,27,31,7,7,40,,60,50,31,27,5,5,0.3,0.3
2025-11-11T2200,1227A,120.1269,30.2456,杭州市,卧龙桥,,33,33,33,9,8,48,,58,49,25,25,8,9,0.3,0.3
2025-11-11T2200,1228A,120.1903,30.2692,杭州市,浙江农大,,36,36,34,12,10,51,,52,48,33,29,7,7,0.5,0.2
2025-11-11T2200,1230A,120.1197,30.3119,杭州市,和睦小学,,27,27,26,12,13,47,,60,52,31,27,9,8,0.6,0.6
2025-11-11T2200,1231A,120.3019,30.4183,杭州市,临平镇,,40,40,32,18,12,25,,60,40,41,27,6,6,0.3,0.4
2025-11-11T2200,1232A,120.2753,30.1839,杭州市,城厢镇,,31,31,36,8,9,55,,60,55,35,37,7,7,0.0,0.2
2025-11-11T2200,1233A,120.0883,30.1808,杭州市,云栖,,26,26,29,7,8,68,,63,58,16,22,6,7,0.5,0.5
2025-11-11T2200,3557A,119.9464,30.0494,杭州市,镇二中,,20,16,23,6,9,61,,56,51,18,24,5,5,0.4,0.5
2025-11-11T2200,3558A,119.7183,30.2367,杭州市,市府大楼,,30,30,28,13,12,43,,63,53,27,24,9,9,0.5,0.4
2025-11-11T2200,3656A,120.1556,30.2864,杭州市,消防大队,,35,35,33,11,11,45,,58,47,37,33,8,9,0.2,0.3
2025-11-11T2200,1270A,117.1959,31.7848,合肥市,明珠广场,,44,44,45,19,16,55,,85,71,38,26,7,8,0.5,0.6
2025-11-11T2200,1271A,117.3072,31.8764,合肥市,三里街,颗粒物(PM10),53,56,40,24,17,29,,83,66,59,29,7,6,0.4,0.5
2025-11-11T2200,1272A,117.2588,31.8707,合肥市,琥珀山庄,颗粒物(PM10),51,51,44,18,14,57,,92,80,33,23,6,6,0.5,0.5
2025-11-11T2200,1273A,117.1604,31.9052,合肥市,董铺水库,,,,,,,,,,,,,,,,
2025-11-11T2200,1274A,117.25,31.8571,合肥市,长江中路,颗粒物(PM10),52,53,46,30,20,60,,92,84,32,22,5,6,0.5,0.5
2025-11-11T2200,1275A,117.266,31.9436,合肥市,庐阳区,,46,46,44,17,15,58,,90,71,34,28,4,5,0.6,0.7
2025-11-11T2200,1276A,117.3453,31.8616,合肥市,瑶海区,,44,44,43,17,15,50,,86,69,42,31,4,7,0.4,0.6
2025-11-11T2200,1277A,117.3027,31.7964,合肥市,包河区,颗粒物(PM10),52,53,45,24,18,5,,70,36,101,51,8,8,0.6,0.6
2025-11-11T2200,1278A,117.2776,31.7385,合肥市,滨湖新区,,44,44,43,19,21,60,,84,77,31,24,5,6,0.5,0.5
2025-11-11T2200,1279A,117.1318,31.8403,合肥市,高新区,颗粒物(PM10),51,51,45,22,15,59,,86,76,35,26,5,5,0.6,0.7
2025-11-11T2200,3464A,117.3803,31.9147,合肥市,高教基地,,34,34,37,16,18,68,,94,81,22,21,9,8,0.5,0.5
2025-11-11T2200,3614A,79.924,37.0877,和田地区,地区环保局,细颗粒物(PM2.5),190,254,227,143,112,50,,89,84,48,29,12,10,1.9,1.5
2025-11-11T2200,3615A,79.9131,37.113,和田地区,市环保局,颗粒物(PM10),136,222,269,76,106,42,,96,91,54,51,6,6,0.9,1.2
2025-11-11T2200,2516A,108.2011,24.715,河池市,东仁乐园,,,,,,,,,,,,,,,,
2025-11-11T2200,2517A,108.0497,24.6947,河池市,市环保站,,18,6,9,3,3,56,,59,56,5,7,5,7,0.5,0.6
2025-11-11T2200,2518A,108.0983,24.6989,河池市,市疾控中心,,17,12,5,3,3,53,,59,58,9,6,3,4,0.6,0.6
2025-11-11T2200,1696A,114.6778,23.7569,河源市,源西,,,,,,,,,,,,,,,,
2025-11-11T2200,1697A,114.6944,23.7586,河源市,东埔,,45,45,21,24,13,67,,69,68,10,9,5,5,0.7,0.6
2025-11-11T2200,1698A,114.6892,23.7233,河源市,老城,,36,36,24,23,14,65,,67,66,8,7,5,5,0.7,0.7
2025-11-11T2200,1718A,115.4208,35.2464,菏泽市,气象局,细颗粒物(PM2.5),84,115,89,62,48,57,,103,89,50,34,4,4,0.5,0.4
2025-11-11T2200,3374A,115.5564,35.0891,菏泽市,定陶老年大学,细颗粒物(PM2.5),73,92,75,53,41,46,,94,77,52,38,5,5,0.5,0.5
2025-11-11T2200,4184A,115.4797,35.24401,菏泽市,永昌路1号,细颗粒物(PM2.5),83,105,80,61,46,45,,102,77,68,38,4,4,0.4,0.4
2025-11-11T2200,4193A,115.4715,35.2800,菏泽市,长城路999号,颗粒物(PM10),75,100,76,46,37,66,,99,90,50,34,4,4,0.4,0.5
2025-11-11T2200,2514A,111.5264,24.4172,贺州市,环保小区,,21,21,12,14,8,61,,60,58,7,8,3,4,0.6,0.6
2025-11-11T2200,2515A,111.5608,24.4078,贺州市,政协大楼,,30,30,17,16,8,53,,52,51,9,9,5,4,0.6,0.7
2025-11-11T2200,3534A,111.4744,24.4553,贺州市,西湾,,19,19,11,12,6,57,,55,55,10,7,5,4,0.7,0.8
2025-11-11T2200,2385A,114.17,35.9019,鹤壁市,市监测站,细颗粒物(PM2.5),117,136,130,88,83,26,,84,72,32,29,4,6,0.9,1
2025-11-11T2200,2386A,114.2956,35.7511,鹤壁市,市交警支队,颗粒物(PM10),80,109,134,57,77,32,,84,68,63,49,2,6,0.4,0.7
2025-11-11T2200,2387A,114.2878,35.7306,鹤壁市,迎宾馆,"颗粒物(PM10),细颗粒物(PM2.5)",83,116,144,61,73,42,,97,79,56,43,5,10,0.5,0.7
2025-11-11T2200,3474A,114.2617,35.6822,鹤壁市,大新区,细颗粒物(PM2.5),90,102,116,67,77,1,,87,57,100,55,5,6,0.5,0.6
2025-11-11T2200,3596A,114.1572,35.9603,鹤壁市,南山宾馆,细颗粒物(PM2.5),148,166,148,113,87,57,,99,92,39,27,7,12,0.7,0.9
2025-11-11T2200,2244A,130.2537,47.3416,鹤岗市,哈啤分公司,,28,22,21,19,15,57,,66,61,9,6,12,12,0.6,0.5
2025-11-11T2200,2245A,130.2684,47.3086,鹤岗市,斯达机电,,30,30,25,21,14,60,,66,61,10,9,13,13,0.6,0.6
2025-11-11T2200,2246A,130.3114,47.3388,鹤岗市,东山纸板厂,"颗粒物(PM10),细颗粒物(PM2.5)",53,56,31,37,15,18,,68,40,30,17,12,12,1.4,0.8
2025-11-11T2200,2247A,130.1097,47.3382,鹤岗市,五号水库,,,,,,,,,,,,,,,,
2025-11-11T2200,2263A,127.4833,50.2524,黑河市,交通局,,40,40,24,25,18,30,,46,29,28,21,4,4,0.5,0.4
2025-11-11T2200,2264A,127.5144,50.2341,黑河市,环保局,,28,,24,19,21,39,,44,38,15,21,12,10,0.4,0.4
2025-11-11T2200,2265A,127.5291,50.2472,黑河市,大黑河岛,,,,,,,,,,,,,,,,
2025-11-11T2200,1074A,115.6838,37.7541,衡水市,电机北厂,细颗粒物(PM2.5),138,177,132,105,83,56,,88,76,53,40,12,12,0.8,0.7
2025-11-11T2200,1075A,115.6303,37.7316,衡水市,市监测站,细颗粒物(PM2.5),144,147,112,110,77,51,,81,69,60,49,11,12,0.8,0.7
2025-11-11T2200,3188A,115.6683,37.7217,衡水市,市城管局,细颗粒物(PM2.5),139,149,124,106,73,49,,82,72,61,46,14,14,0.8,0.7
2025-11-11T2200,3459A,115.5989,37.5491,衡水市,地表水厂,细颗粒物(PM2.5),160,208,132,122,88,2,,73,41,107,69,9,10,0.8,0.6
2025-11-11T2200,2456A,112.5003,26.9167,衡阳市,原169医院,,,,,,,,,,,,,,,,
2025-11-11T2200,2457A,112.6194,26.9258,衡阳市,衡阳化工总厂,颗粒物(PM10),59,68,42,40,24,76,,66,65,21,19,7,6,0.8,0.8
2025-11-11T2200,2458A,112.6211,26.8956,衡阳市,珠晖区环保局,颗粒物(PM10),53,56,42,36,18,78,,66,66,18,18,10,10,1.0,1
2025-11-11T2200,2459A,112.6197,26.8733,衡阳市,市委党校,颗粒物(PM10),59,68,39,29,15,76,,69,69,16,14,6,5,0.8,0.8
2025-11-11T2200,2460A,112.6006,26.8919,衡阳市,市监测站,颗粒物(PM10),66,81,48,41,26,79,,73,73,16,15,6,5,0.9,0.9
2025-11-11T2200,2461A,112.5664,26.9056,衡阳市,真空机电公司,颗粒物(PM10),59,68,43,40,25,83,,78,78,12,10,8,6,0.9,0.9
2025-11-11T2200,3399A,112.6703,26.882,衡阳市,师范学院,颗粒物(PM10),66,82,45,42,24,71,,76,76,17,14,9,8,0.9,0.9
2025-11-11T2200,2608A,103.3772,23.3993,红河哈尼族彝族自治州,污水处理厂,,22,22,21,15,16,35,,47,42,6,10,5,15,0.4,0.4
2025-11-11T2200,2609A,103.3861,23.35,红河哈尼族彝族自治州,监测站,,24,24,17,14,8,33,,47,42,5,4,6,6,0.6,0.4
2025-11-11T2200,3038A,103.3758,23.368,红河哈尼族彝族自治州,州图书馆,,12,10,12,3,6,36,,47,43,5,6,3,5,0.4,0.5
2025-11-11T2200,1090A,111.6507,40.7517,呼和浩特市,呼市一监,颗粒物(PM10),147,244,82,104,39,8,,49,34,74,47,10,10,1.8,0.8
2025-11-11T2200,1091A,111.6572,40.8033,呼和浩特市,小召,颗粒物(PM10),102,153,83,71,39,8,,46,30,82,57,11,11,1.5,0.9
2025-11-11T2200,1094A,111.7516,40.8369,呼和浩特市,如意水处理厂,颗粒物(PM10),83,116,80,51,35,0,,41,22,76,55,13,14,0.9,0.8
2025-11-11T2200,1095A,111.7276,40.8062,呼和浩特市,二十九中,颗粒物(PM10),88,126,76,58,35,4,,48,32,79,51,14,13,1.0,0.7
2025-11-11T2200,1096A,111.5512,40.7866,呼和浩特市,工大金川校区,颗粒物(PM10),85,120,92,40,35,0,,37,20,75,56,9,10,0.8,0.7
2025-11-11T2200,1097A,111.717,40.7612,呼和浩特市,化肥厂生活区,细颗粒物(PM2.5),104,155,82,78,39,4,,47,30,76,53,10,9,1.2,0.9
2025-11-11T2200,3698A,111.5968,40.8178,呼和浩特市,红旗小学,颗粒物(PM10),74,97,79,47,37,4,,39,23,73,58,11,13,0.6,0.8
2025-11-11T2200,3699A,111.6518,40.8389,呼和浩特市,海东办,颗粒物(PM10),92,134,80,59,36,4,,44,26,74,50,8,9,1.0,0.8
2025-11-11T2200,3061A,119.7512,49.1577,呼伦贝尔市,国华电力东,,,19,21,12,13,,,57,54,15,12,11,9,0.3,0.3
2025-11-11T2200,4279A,119.7569,49.2222,呼伦贝尔市,伊敏大街东7号,,20,20,18,13,15,55,,54,50,8,8,5,5,0.3,0.3
2025-11-11T2200,1250A,120.0751,30.8669,湖州市,城西水厂,,22,22,23,11,10,68,,90,83,26,21,8,8,0.3,0.4
2025-11-11T2200,2873A,120.0830,30.8929,湖州市,仁皇山新区,,24,24,23,6,6,70,,84,80,22,21,7,6,0.3,0.4
2025-11-11T2200,2907A,120.1844,30.8596,湖州市,吴兴区站,,27,27,30,7,7,61,,69,66,21,22,7,7,0.3,0.4
2025-11-11T2200,3562A,120.4148,30.8538,湖州市,南浔区站,,27,27,24,10,8,56,,78,68,33,27,9,10,0.4,0.4
2025-11-11T2200,1607A,120.9049,40.7211,葫芦岛市,龙港区,,28,28,37,12,21,19,,55,37,38,34,10,18,0.8,0.7
2025-11-11T2200,1608A,120.8392,40.7514,葫芦岛市,化工街,细颗粒物(PM2.5),119,161,45,90,22,7,,48,29,71,34,27,17,1.7,0.6
2025-11-11T2200,1609A,120.8341,40.7073,葫芦岛市,新区,颗粒物(PM10),62,74,34,37,21,2,,54,30,67,33,8,11,1.0,0.8
2025-11-11T2200,1610A,120.8695,40.7677,葫芦岛市,东城区,细颗粒物(PM2.5),120,128,48,91,32,10,,50,30,55,37,101,26,1.3,0.8
2025-11-11T2200,2482A,109.5981,27.5721,怀化市,林科所,,,,,,,,,,,,,,,,
2025-11-11T2200,2483A,109.9453,27.5444,怀化市,河西地税局,颗粒物(PM10),52,53,42,23,20,7,,62,47,39,11,6,5,0.4,0.4
2025-11-11T2200,2484A,109.9781,27.5342,怀化市,市四医院,颗粒物(PM10),55,60,52,27,21,34,,60,53,15,7,8,7,0.4,0.4
2025-11-11T2200,2485A,109.9972,27.5578,怀化市,监测楼,颗粒物(PM10),53,56,43,30,20,21,,58,48,19,17,3,3,0.2,0.2
2025-11-11T2200,2486A,110.0394,27.583,怀化市,市委党校,颗粒物(PM10),53,56,39,27,21,25,,60,46,19,10,9,10,0.2,0.2
2025-11-11T2200,1210A,119.036,33.5981,淮安市,钵池山,,36,36,34,16,17,47,,83,67,35,30,7,8,0.4,0.4
2025-11-11T2200,1211A,119.007,33.575,淮安市,北京南路,,36,36,33,14,15,36,,82,65,40,21,8,8,0.4,0.4
2025-11-11T2200,1212A,118.989,33.6067,淮安市,市监测站,,31,31,29,9,9,65,,87,78,23,24,6,7,0.4,0.4
2025-11-11T2200,1213A,119.135,33.5039,淮安市,楚州区监测站,,42,42,30,15,12,49,,86,68,34,24,12,9,0.4,0.4
2025-11-11T2200,3426A,118.8755,33.2894,淮安市,新华书店,,41,41,35,10,10,41,,79,62,37,29,11,10,0.4,0.4
2025-11-11T2200,4206A,119.0288,33.6319,淮安市,承德北路606号,颗粒物(PM10),53,56,44,18,18,44,,80,54,34,34,6,7,0.4,0.4
2025-11-11T2200,2282A,116.8004,33.975,淮北市,监测站,颗粒物(PM10),69,88,64,33,23,54,,88,74,42,35,9,9,0.7,0.5
2025-11-11T2200,2283A,116.8091,33.9007,淮北市,烈山区政府,细颗粒物(PM2.5),67,74,51,48,30,58,,93,85,38,30,8,9,0.5,0.4
2025-11-11T2200,3330A,116.8873,33.9836,淮北市,杜集区检察院,颗粒物(PM10),63,76,66,43,34,80,,94,85,22,28,6,5,0.3,0.3
2025-11-11T2200,4017A,116.7923,33.9535,淮北市,市博物馆,颗粒物(PM10),72,93,62,36,18,62,,92,84,36,29,10,9,0.5,0.4
2025-11-11T2200,2277A,116.8305,32.7727,淮南市,潘集区政府,颗粒物(PM10),52,53,56,32,30,59,,87,74,19,19,6,6,0.4,0.4
2025-11-11T2200,2279A,116.8569,32.5951,淮南市,谢家集区政府,,44,44,40,17,16,41,,88,68,42,31,7,8,0.4,0.4
2025-11-11T2200,2280A,116.8281,32.633,淮南市,八公山区政府,颗粒物(PM10),51,51,50,17,18,42,,92,75,30,23,8,9,0.3,0.3
2025-11-11T2200,2281A,116.6325,32.6201,淮南市,焦岗湖风景区管理处,,,,,,,,,,,,,,,,
2025-11-11T2200,2894A,117.0566,32.6531,淮南市,经济技术开发区消防队,,48,48,53,9,16,53,,84,65,30,32,7,7,0.1,0.2
2025-11-11T2200,3329A,117.0108,32.5893,淮南市,山南新区,,42,42,41,3,5,65,,97,83,27,23,3,4,0.3,0.2
2025-11-11T2200,4209A,117.0031,32.6445,淮南市,国庆中路369号,,40,40,42,21,18,52,,84,69,28,27,9,9,0.4,0.5
2025-11-11T2200,2446A,114.9028,30.4742,黄冈市,职工中心,,48,48,60,26,35,77,,109,96,20,17,4,4,0.6,0.5
2025-11-11T2200,2929A,114.8858,30.4519,黄冈市,红卫路,,45,43,57,31,39,77,,106,90,17,17,6,6,0.4,0.5
2025-11-11T2200,3398A,114.9136,30.4445,黄冈市,市林业局,,46,38,61,32,38,80,,114,100,21,17,4,4,0.5,0.6
2025-11-11T2200,2672A,102.0199,35.5102,黄南藏族自治州,同仁县隆务镇,,46,46,41,27,19,51,,76,66,7,4,10,10,0.5,0.4
2025-11-11T2200,2295A,118.2903,29.6963,黄山市,延安路89号,,23,19,36,16,23,62,,85,76,13,10,4,4,0.4,0.4
2025-11-11T2200,2297A,118.1371,30.2756,黄山市,黄山区政府5号楼,,24,24,44,3,27,31,,88,70,7,9,5,6,0.4,0.5
2025-11-11T2200,4210A,118.3354,29.7203,黄山市,滨江东路7-2号,,37,37,56,15,29,60,,82,74,12,11,4,4,0.3,0.4
2025-11-11T2200,2423A,115.0601,30.2313,黄石市,沈家营,颗粒物(PM10),63,75,73,39,34,58,,109,93,14,9,8,8,0.8,0.7
2025-11-11T2200,2426A,114.8988,30.2019,黄石市,铁山,颗粒物(PM10),59,68,73,38,43,47,,99,77,27,30,8,7,0.5,0.5
2025-11-11T2200,2427A,115.0307,30.2092,黄石市,团城山,颗粒物(PM10),66,82,65,46,36,66,,96,85,25,15,7,8,0.8,0.7
2025-11-11T2200,3149A,115.0235,30.1578,黄石市,笔架山北路,颗粒物(PM10),80,110,97,44,40,47,,107,87,29,16,7,5,1.0,0.9
2025-11-11T2200,4185A,115.0780,30.21118,黄石市,磁湖东路29号,细颗粒物(PM2.5),82,85,72,60,40,58,,104,91,31,14,12,9,0.8,0.6
2025-11-11T2200,1392A,114.4183,23.0528,惠州市,河南岸金山湖子站,,41,41,24,23,11,64,,66,64,15,16,10,11,0.6,0.6
2025-11-11T2200,1393A,114.4053,23.0822,惠州市,下埔横江三路子站,,44,44,24,25,12,83,,86,85,8,8,6,6,0.7,0.7
2025-11-11T2200,1394A,114.4103,23.1142,惠州市,江北云山西路子站,,42,42,21,25,12,66,,69,68,12,11,6,6,0.5,0.5
2025-11-11T2200,1395A,114.4645,22.7833,惠州市,惠阳区承修路船湖子站,,50,50,26,28,13,60,,66,66,15,14,10,10,0.8,0.8
2025-11-11T2200,1396A,114.5317,22.7422,惠州市,大亚湾管委会子站,,46,46,23,29,15,60,,64,64,12,11,11,11,0.6,0.6
2025-11-11T2200,3314A,114.4338,22.8134,惠州市,惠阳秋长,,44,44,26,26,12,67,,71,71,12,10,14,16,0.7,0.7
2025-11-11T2200,3452A,114.6517,22.775,惠州市,大亚湾霞涌,,45,45,25,27,14,56,,58,58,9,8,10,10,0.6,0.6
2025-11-11T2200,2240A,130.9762,45.3001,鸡西市,环保局,,19,19,28,12,19,43,,63,49,15,12,6,6,0.6,0.6
2025-11-11T2200,2243A,130.9429,45.3039,鸡西市,第一中学,,25,21,34,17,23,50,,65,55,10,9,6,6,0.6,0.5
2025-11-11T2200,3707A,131.0207,45.3073,鸡西市,欧美日汽修厂,,42,42,36,28,27,39,,57,36,16,14,8,8,0.7,0.6
2025-11-11T2200,3709A,130.9967,45.3106,鸡西市,市政设施管理处,,43,33,33,30,23,21,,62,35,30,22,11,9,0.9,0.8
2025-11-11T2200,2367A,114.9754,27.0803,吉安市,红声器材厂,颗粒物(PM10),56,62,64,26,29,93,,100,99,20,18,7,9,0.5,0.6
2025-11-11T2200,2368A,114.9658,27.0999,吉安市,市森林工业局,颗粒物(PM10),55,60,64,31,32,89,,93,93,16,16,8,9,0.4,0.6
2025-11-11T2200,2369A,114.99,27.1312,吉安市,市环境监测站,颗粒物(PM10),51,51,60,22,29,90,,96,95,17,14,13,14,0.5,0.6
2025-11-11T2200,2370A,115.0093,27.0968,吉安市,青原区法院,颗粒物(PM10),53,56,60,28,31,93,,99,99,15,16,8,11,0.7,0.8
2025-11-11T2200,1772A,126.54,43.8622,吉林市,哈达湾,细颗粒物(PM2.5),192,185,133,144,103,26,,81,53,60,39,11,17,1.4,0.9
2025-11-11T2200,1773A,126.5844,43.8358,吉林市,东局子,细颗粒物(PM2.5),145,135,123,111,101,31,,67,46,37,35,10,13,1.1,1
2025-11-11T2200,1774A,126.5052,43.8245,吉林市,电力学院,细颗粒物(PM2.5),244,220,145,194,124,8,,73,36,61,40,11,13,1.7,1.2
2025-11-11T2200,1775A,126.6133,43.8972,吉林市,江北,细颗粒物(PM2.5),144,132,136,110,112,28,,62,39,48,38,4,7,1.1,1
2025-11-11T2200,1776A,126.555,43.8306,吉林市,江南公园,细颗粒物(PM2.5),234,229,132,184,110,8,,66,40,67,42,8,13,1.4,0.9
2025-11-11T2200,1778A,126.7061,43.7133,吉林市,丰满,,,,,,,,,,,,,,,,
2025-11-11T2200,2868A,126.4739,43.953,吉林市,九站,细颗粒物(PM2.5),186,178,139,140,112,12,,70,44,70,48,19,13,1.1,0.8
2025-11-11T2200,1299A,116.9862,36.6114,济南市,科干所,颗粒物(PM10),63,75,66,37,29,80,,104,88,24,20,10,10,0.5,0.4
2025-11-11T2200,1300A,116.9376,36.665,济南市,农科所,颗粒物(PM10),84,117,77,54,31,7,,83,47,89,43,8,9,0.8,0.6
2025-11-11T2200,1301A,117.1265,36.6734,济南市,开发区,颗粒物(PM10),70,90,76,46,38,40,,97,62,52,39,4,5,0.8,0.7
2025-11-11T2200,1303A,117.0624,36.6868,济南市,省种子仓库,颗粒物(PM10),96,141,98,56,41,8,,102,60,93,56,8,9,1.1,0.9
2025-11-11T2200,1304A,116.9489,36.6447,济南市,机床二厂,颗粒物(PM10),101,151,92,73,44,4,,88,46,92,45,12,11,0.8,0.4
2025-11-11T2200,1305A,117.0495,36.663,济南市,市监测站,"颗粒物(PM10),细颗粒物(PM2.5)",74,98,78,54,38,6,,100,59,87,46,5,5,1.2,0.9
2025-11-11T2200,1306A,116.7675,36.5484,济南市,长清党校,颗粒物(PM10),72,93,74,39,31,29,,90,70,65,30,9,11,0.7,0.6
2025-11-11T2200,1616A,117.6795,36.229,济南市,技术学院,细颗粒物(PM2.5),85,110,94,63,53,2,,89,59,94,54,13,16,0.9,1
2025-11-11T2200,1961A,117.532,36.6868,济南市,东山小学,颗粒物(PM10),70,90,87,44,39,48,,107,78,58,43,8,9,0.5,0.5
2025-11-11T2200,3059A,117.7161,36.2049,济南市,泰兴公司,细颗粒物(PM2.5),104,136,102,78,56,2,,87,41,70,51,10,11,0.9,0.9
2025-11-11T2200,3064A,117.6867,36.2171,济南市,莱芜战役纪念馆,"颗粒物(PM10),细颗粒物(PM2.5)",97,144,99,72,57,4,,94,59,78,49,11,14,1.2,1
2025-11-11T2200,3494A,117.1673,36.9782,济南市,济阳区政府,细颗粒物(PM2.5),123,173,94,93,41,24,,88,76,92,47,10,9,0.7,0.6
2025-11-11T2200,3495A,117.1171,36.63,济南市,锦屏中学,颗粒物(PM10),58,66,65,37,28,62,,112,85,24,21,2,4,0.6,0.7
2025-11-11T2200,3682A,116.9814,36.6819,济南市,济南四建,"颗粒物(PM10),细颗粒物(PM2.5)",92,134,77,68,38,4,,95,51,92,40,9,8,1.5,0.9
2025-11-11T2200,1653A,116.6251,35.4302,济宁市,火炬城,细颗粒物(PM2.5),67,81,69,48,46,62,,101,93,32,26,8,9,0.5,0.3
2025-11-11T2200,1655A,116.5491,35.4042,济宁市,电化厂,颗粒物(PM10),74,98,92,41,44,78,,95,85,38,35,7,9,0.2,0.3
2025-11-11T2200,3500A,116.5814,35.3707,济宁市,北湖一中,细颗粒物(PM2.5),58,57,58,41,42,85,,100,96,22,24,7,10,0.3,0.4
2025-11-11T2200,3501A,116.8249,35.5593,济宁市,服务中心,细颗粒物(PM2.5),92,88,89,68,41,4,,93,63,82,36,8,9,0.9,0.5
2025-11-11T2200,3678A,116.5907,35.4054,济宁市,市第七中学,细颗粒物(PM2.5),83,97,72,61,37,28,,102,77,72,35,9,12,0.9,0.5
2025-11-11T2200,2255A,130.2751,46.8028,佳木斯市,佳纺,细颗粒物(PM2.5),117,96,48,88,38,29,,53,30,19,21,4,5,0.6,0.5
2025-11-11T2200,2256A,130.3995,46.8307,佳木斯市,发电厂,细颗粒物(PM2.5),85,66,33,63,25,10,,58,41,44,17,7,7,0.8,0.5
2025-11-11T2200,2257A,130.3258,46.7975,佳木斯市,环保局,细颗粒物(PM2.5),89,71,35,66,31,27,,57,30,30,21,4,4,0.4,0.4
2025-11-11T2200,2258A,130.3648,46.8032,佳木斯市,十一中,细颗粒物(PM2.5),94,72,33,70,30,22,,52,37,33,20,8,8,0.7,0.5
2025-11-11T2200,2259A,130.3794,46.7588,佳木斯市,四丰,,,,,,,,,,,,,,,,
2025-11-11T2200,1252A,120.7436,30.778,嘉兴市,清河小学,,38,38,28,10,10,47,,66,58,32,26,8,8,0.3,0.3
2025-11-11T2200,1253A,120.726,30.7478,嘉兴市,嘉兴学院,,30,30,26,13,9,50,,66,60,36,32,6,6,0.3,0.3
2025-11-11T2200,2872A,120.7846,30.7525,嘉兴市,南湖区残联,,24,24,24,7,8,46,,67,57,31,25,7,6,0.5,0.5
2025-11-11T2200,3407A,120.6916,30.7739,嘉兴市,秀洲住建,,28,28,26,9,8,38,,67,59,47,31,8,9,0.4,0.4
2025-11-11T2200,1945A,98.2908,39.7711,嘉峪关市,气象局,颗粒物(PM10),67,83,84,19,19,78,,79,78,12,22,19,26,0.3,0.6
2025-11-11T2200,2884A,98.2672,39.7978,嘉峪关市,酒钢宾馆,颗粒物(PM10),108,166,114,31,25,66,,74,74,11,16,28,43,0.5,0.8
2025-11-11T2200,3248A,98.2643,39.7724,嘉峪关市,雄关区,颗粒物(PM10),65,79,64,24,27,70,,75,74,18,26,30,26,0.5,0.6
2025-11-11T2200,1383A,113.1064,22.6058,江门市,北街,,24,24,20,9,9,44,,64,60,23,20,6,7,0.6,0.6
2025-11-11T2200,1384A,113.0731,22.5835,江门市,西区,,17,17,18,9,9,44,,62,58,19,19,6,6,0.8,0.8
2025-11-11T2200,1385A,113.0219,22.5311,江门市,圭峰西,,20,20,18,9,8,46,,72,65,19,15,6,6,0.6,0.6
2025-11-11T2200,1386A,113.0828,22.5947,江门市,东湖,,16,16,16,9,9,39,,54,51,19,18,8,8,0.5,0.5
2025-11-11T2200,3311A,113.1075,22.5647,江门市,江海富民,,15,15,19,7,9,44,,65,61,23,22,9,10,0.7,0.7
2025-11-11T2200,3449A,113.05,22.4667,江门市,新会银湖,,15,14,22,10,10,43,,64,58,19,18,6,6,0.7,0.7
2025-11-11T2200,1830A,113.1992,35.2590,焦作市,影视城,,,,115,,49,,,74,,,26,,17,,0.8
2025-11-11T2200,3335A,113.3137,35.2641,焦作市,马村街道办,细颗粒物(PM2.5),115,157,151,87,86,64,,80,70,27,40,5,9,0.7,0.8
2025-11-11T2200,3336A,113.2465,35.2373,焦作市,焦作技师学院,细颗粒物(PM2.5),119,160,148,90,81,47,,79,66,42,44,4,8,0.7,0.8
2025-11-11T2200,3477A,113.1656,35.2539,焦作市,中站许衡医院,细颗粒物(PM2.5),112,146,125,84,65,69,,87,81,36,29,9,11,0.7,0.7
2025-11-11T2200,3981A,113.2449,35.1803,焦作市,原李万街道办,细颗粒物(PM2.5),104,129,161,78,80,57,,84,72,39,44,8,11,0.6,0.7
2025-11-11T2200,4264A,113.2340,35.2190,焦作市,新安路1731号,细颗粒物(PM2.5),138,168,163,105,87,40,,82,64,38,38,6,10,1.1,1.1
2025-11-11T2200,4295A,113.2722,35.2121,焦作市,人民路3066号,颗粒物(PM10),107,163,155,76,71,41,,73,61,37,40,6,8,1.0,1
2025-11-11T2200,1708A,116.3701,23.5345,揭阳市,新兴,,26,18,26,18,16,48,,57,54,11,13,6,7,0.6,0.6
2025-11-11T2200,1709A,116.3264,23.5443,揭阳市,西马,,32,30,31,22,16,39,,53,50,15,14,4,4,0.7,0.6
2025-11-11T2200,1710A,116.3611,23.5626,揭阳市,东兴,,22,20,30,15,13,30,,48,44,22,17,5,6,0.4,0.4
2025-11-11T2200,1711A,116.4151,23.5294,揭阳市,渔湖,,26,20,25,18,11,43,,62,58,15,11,6,5,0.6,0.6
2025-11-11T2200,3320A,116.403,23.5699,揭阳市,曲溪,,36,36,22,17,12,49,,68,64,11,8,1,2,0.5,0.5
2025-11-11T2200,1944A,102.1692,38.5167,金昌市,天庆家园,颗粒物(PM10),51,51,114,14,39,63,,75,73,10,24,3,12,0.5,0.8
2025-11-11T2200,4022A,102.1647,38.5371,金昌市,金川区人防中心,,50,50,103,18,42,64,,78,76,6,19,3,11,0.7,0.9
2025-11-11T2200,4239A,102.1930,38.5319,金昌市,长春路96号,,43,43,98,11,36,72,,79,78,5,17,5,21,0.5,0.7
2025-11-11T2200,1262A,119.647,29.077,金华市,十五中,,21,21,35,8,15,67,,63,61,15,22,3,3,0.2,0.3
2025-11-11T2200,1263A,119.686,29.1029,金华市,监测站,,23,19,33,6,13,71,,65,64,18,26,2,2,0.3,0.4
2025-11-11T2200,3659A,119.656,29.1131,金华市,气象局,,19,17,31,7,11,58,,52,52,20,27,4,4,0.3,0.5
2025-11-11T2200,1767A,121.1115,41.0879,锦州市,南山,细颗粒物(PM2.5),94,,34,70,28,4,,52,28,61,33,9,13,1.2,0.8
2025-11-11T2200,1768A,121.0604,40.8428,锦州市,开发区,颗粒物(PM10),97,143,41,54,21,2,,54,32,84,32,35,15,1.0,0.7
2025-11-11T2200,1769A,121.1836,41.1119,锦州市,百股街道,,49,,41,34,25,18,,54,29,39,31,10,17,1.1,0.9
2025-11-11T2200,1770A,121.1178,41.1222,锦州市,天安街道,细颗粒物(PM2.5),114,94,42,86,31,5,,53,30,62,31,13,14,1.8,0.9
2025-11-11T2200,1771A,121.1303,41.1386,锦州市,北湖公园,细颗粒物(PM2.5),93,,37,69,25,3,,52,29,65,31,10,13,1.1,0.7
2025-11-11T2200,2160A,112.85,35.5051,晋城市,自来水公司,细颗粒物(PM2.5),85,118,105,63,44,33,,95,85,56,35,8,10,1.1,1
2025-11-11T2200,2161A,112.8318,35.4936,晋城市,白云商贸,颗粒物(PM10),96,142,112,56,33,19,,93,81,60,35,3,4,1.1,0.8
2025-11-11T2200,2162A,112.8508,35.4887,晋城市,市环保局,颗粒物(PM10),84,118,111,51,43,12,,96,81,82,28,6,7,1.1,1
2025-11-11T2200,2163A,112.8676,35.4897,晋城市,技术学院,颗粒物(PM10),97,144,108,58,46,31,,85,77,65,37,8,8,1.0,1
2025-11-11T2200,2165A,112.8453,35.546,晋城市,白马寺,细颗粒物(PM2.5),89,115,78,66,43,96,,110,110,20,20,13,11,0.7,0.8
2025-11-11T2200,3620A,112.8271,35.4828,晋城市,泽州一中,颗粒物(PM10),90,130,94,66,42,76,,101,97,33,34,8,6,0.8,0.6
2025-11-11T2200,2173A,112.7249,37.7067,晋中市,南都小区,颗粒物(PM10),76,102,107,49,43,6,,67,46,74,52,10,16,1.0,1
2025-11-11T2200,2174A,112.6991,37.6982,晋中市,榆次区政府,颗粒物(PM10),68,85,124,41,58,19,,63,44,55,48,10,15,0.7,1.3
2025-11-11T2200,2865A,112.7195,37.6828,晋中市,榆次三中,颗粒物(PM10),70,90,106,31,42,6,,66,48,59,44,12,17,0.4,0.9
2025-11-11T2200,4200A,112.7478,37.6954,晋中市,迎宾街26号,颗粒物(PM10),67,83,100,34,41,11,,72,52,58,43,10,15,0.8,1.1
2025-11-11T2200,2439A,112.2014,31.0481,荆门市,竹园小学,颗粒物(PM10),57,63,89,34,40,81,,108,98,21,22,1,2,0.4,0.1
2025-11-11T2200,2440A,112.1969,30.9891,荆门市,掇刀,细颗粒物(PM2.5),105,,86,79,67,96,,120,114,17,14,2,2,0.3,0.4
2025-11-11T2200,2441A,112.2213,31.0386,荆门市,石化一小,颗粒物(PM10),68,85,95,40,43,72,,105,94,25,19,11,5,0.2,0.1
2025-11-11T2200,3012A,112.1849,31.0362,荆门市,西山林语,颗粒物(PM10),57,63,89,32,39,84,,110,103,15,13,5,7,0.4,0.5
2025-11-11T2200,3547A,112.1632,31.0138,荆门市,龙泉中学南校,颗粒物(PM10),55,59,96,29,41,92,,116,110,17,16,8,8,0.3,0.4
2025-11-11T2200,1844A,112.2494,30.3197,荆州市,市图书馆,细颗粒物(PM2.5),59,52,58,42,35,83,,104,96,26,18,7,6,0.6,0.6
2025-11-11T2200,1845A,112.2008,30.3544,荆州市,市委党校,颗粒物(PM10),56,62,63,38,33,72,,97,91,28,20,8,7,0.6,0.6
2025-11-11T2200,3194A,112.2747,30.3122,荆州市,管委会,,,59,59,35,35,81,,96,86,21,18,,7,0.5,0.5
2025-11-11T2200,4268A,112.1722,30.3366,荆州市,学苑路85号,细颗粒物(PM2.5),59,64,60,42,36,79,,115,103,24,15,12,9,0.2,0.3
2025-11-11T2200,2342A,117.3102,29.3867,景德镇市,王港中学,,,,,,,,,,,,,,,,
2025-11-11T2200,2343A,117.2117,29.2933,景德镇市,老干部活动中心,,28,20,43,19,26,61,,76,66,5,6,4,4,0.4,0.5
2025-11-11T2200,2344A,117.1894,29.2789,景德镇市,兽医站,,35,35,53,17,24,73,,86,79,8,8,6,6,0.4,0.5
2025-11-11T2200,2346A,117.2461,29.2956,景德镇市,陶研所,,35,28,41,24,29,54,,83,65,10,6,7,7,0.2,0.3
2025-11-11T2200,4289A,117.1542,29.2566,景德镇市,青少年活动中心,,35,30,48,24,28,74,,84,75,6,10,3,3,0.4,0.5
2025-11-11T2200,1803A,115.9872,29.6815,九江市,十里,,40,40,56,26,30,98,,114,112,18,18,6,7,0.7,0.7
2025-11-11T2200,1804A,115.9584,29.7046,九江市,茅山头,,44,44,51,23,27,86,,100,99,16,16,5,5,0.7,0.7
2025-11-11T2200,1805A,115.9877,29.7295,九江市,西园,,33,33,46,14,23,96,,113,111,28,27,4,5,0.7,0.7
2025-11-11T2200,1808A,115.9114,29.6038,九江市,综合工业园,,43,43,54,21,31,94,,110,109,19,20,3,4,0.5,0.5
2025-11-11T2200,1809A,116.0721,29.7535,九江市,石化总厂,,46,46,62,30,26,86,,105,102,22,18,4,6,0.6,0.6
2025-11-11T2200,1810A,115.9773,29.5698,九江市,庐山气象台,,,,,,,,,,,,,,,,
2025-11-11T2200,3190A,116.0254,29.6994,九江市,外国语学校,,36,,47,25,26,70,,89,86,29,30,4,5,0.5,0.5
2025-11-11T2200,4253A,116.0102,29.6594,九江市,莲花大道8号,,42,42,59,13,26,83,,98,96,11,13,7,7,0.5,0.5
2025-11-11T2200,4240A,98.4958,39.7339,酒泉市,玉门东路5号,颗粒物(PM10),67,83,106,22,26,64,,76,74,15,18,10,14,0.3,0.4
2025-11-11T2200,4241A,98.5099,39.7506,酒泉市,北大街108号,颗粒物(PM10),63,75,117,25,27,62,,73,70,10,21,11,17,0.3,0.6
2025-11-11T2200,2698A,76.0072,39.4467,喀什地区,巡警大队,颗粒物(PM10),151,252,386,87,142,48,,92,83,63,68,9,14,0.9,2
2025-11-11T2200,2699A,75.9755,39.4694,喀什地区,吾办,颗粒物(PM10),158,266,336,101,137,38,,75,72,67,64,12,11,1.1,1.8
2025-11-11T2200,4027A,75.9483,39.4689,喀什地区,老干局,颗粒物(PM10),155,259,271,77,110,60,,85,85,46,61,8,8,1.4,2.4
2025-11-11T2200,1824A,114.3389,34.7781,开封市,肿瘤医院,,,,87,,53,25,,77,65,77,43,13,10,0.8,0.7
2025-11-11T2200,1826A,114.2885,34.7965,开封市,世纪星幼儿园,细颗粒物(PM2.5),90,91,85,67,70,24,,79,65,73,41,9,9,0.9,0.7
2025-11-11T2200,3147A,114.3438,34.8106,开封市,龙亭公园,细颗粒物(PM2.5),119,178,90,90,67,21,,83,65,69,38,22,10,1.1,0.4
2025-11-11T2200,3210A,114.3644,34.7964,开封市,汴京公园,"颗粒物(PM10),细颗粒物(PM2.5)",78,106,97,57,59,20,,81,65,79,43,10,9,0.7,0.6
2025-11-11T2200,3473A,114.2485,34.8306,开封市,技师学院,细颗粒物(PM2.5),72,83,79,52,61,70,,84,81,34,29,10,9,0.8,0.9
2025-11-11T2200,3592A,114.4644,34.7556,开封市,祥符区生态环境局,细颗粒物(PM2.5),83,110,111,61,64,19,,84,61,92,54,8,7,0.7,0.7
2025-11-11T2200,1951A,84.895,45.6094,克拉玛依市,长征新村,,,,24,,5,,,48,,,7,,2,,0.5
2025-11-11T2200,1952A,84.8988,45.5893,克拉玛依市,南林小区,,,,20,,8,,,60,56,23,9,5,4,0.3,0.2
2025-11-11T2200,1954A,84.905,44.3396,克拉玛依市,独山子区,颗粒物(PM10),63,76,46,31,25,40,,64,52,35,22,5,6,0.6,0.5
2025-11-11T2200,1955A,85.6979,46.098,克拉玛依市,乌尔禾区商贸楼,,24,24,21,3,5,23,,54,44,12,5,5,5,0.4,0.3
2025-11-11T2200,3612A,85.1045,45.6899,克拉玛依市,白碱滩区新站,,22,,40,15,18,53,,67,63,6,12,5,6,0.3,0.3
2025-11-11T2200,2697A,76.1454,39.7142,克孜勒苏柯尔克孜自治州,市人民政府,颗粒物(PM10),146,242,265,106,124,52,,95,84,54,29,7,18,0.2,0.4
2025-11-11T2200,3665A,76.1658,39.7157,克孜勒苏柯尔克孜自治州,克州文化中心,颗粒物(PM10),147,243,260,85,99,56,,93,86,44,34,8,24,1.2,0.8
2025-11-11T2200,1450A,102.8204,24.8886,昆明市,呈贡新区,,22,22,17,11,14,35,,81,70,29,17,5,5,0.6,0.8
2025-11-11T2200,1451A,102.6251,24.9608,昆明市,西山森林公园,,,,,,,,,,,,,,,,
2025-11-11T2200,1452A,102.7252,25.0902,昆明市,龙泉镇,,26,26,22,3,8,48,,77,58,13,13,3,3,0.4,0.5
2025-11-11T2200,1453A,102.7266,25.0375,昆明市,东风东路,,22,16,19,15,14,45,,80,69,18,18,1,2,0.4,0.5
2025-11-11T2200,1454A,102.6742,25.0669,昆明市,金鼎山,,26,26,31,6,10,38,,84,70,24,16,2,2,0.4,0.5
2025-11-11T2200,1455A,102.6644,25.0401,昆明市,碧鸡广场,,32,24,27,22,17,26,,80,58,33,19,2,2,0.5,0.6
2025-11-11T2200,3179A,102.7494,25.0119,昆明市,官渡区博物馆,,23,23,22,7,12,45,,81,71,16,15,2,3,0.3,0.7
2025-11-11T2200,3375A,102.8017,24.8336,昆明市,青年创业园,,14,11,12,3,6,43,,80,71,11,9,1,2,0.6,0.7
2025-11-11T2200,3550A,102.7997,24.9786,昆明市,昆明学院,,19,19,19,9,11,43,,80,68,20,18,2,2,0.5,0.6
2025-11-11T2200,3551A,102.5967,24.6736,昆明市,晋宁区生态环境分局,,33,33,17,12,7,39,,79,66,16,11,8,7,0.4,0.4
2025-11-11T2200,3552A,102.6678,24.9856,昆明市,云天化总部,,16,10,15,6,10,51,,75,69,12,15,5,5,0.6,0.7
2025-11-11T2200,1456A,91.1319,29.6514,拉萨市,八廓街,,39,39,30,24,20,33,,100,83,56,26,6,7,0.7,0.4
2025-11-11T2200,1457A,91.1221,29.6747,拉萨市,市环保局,,47,47,42,28,21,28,,87,72,41,23,8,8,1.2,0.8
2025-11-11T2200,1458A,91.0874,29.6475,拉萨市,区监测站,,44,31,23,16,14,17,,98,82,87,39,6,6,0.6,0.5
2025-11-11T2200,1459A,91.1774,29.6541,拉萨市,西藏大学,,38,38,20,19,12,46,,95,84,54,26,6,6,0.7,0.3
2025-11-11T2200,1460A,90.9798,29.6588,拉萨市,区辐射站,细颗粒物(PM2.5),79,99,41,58,22,23,,82,64,69,36,8,7,1.2,0.5
2025-11-11T2200,1461A,91.0834,29.6292,拉萨市,拉萨火车站,,22,,21,15,13,59,,93,90,32,31,5,6,0.5,0.6
2025-11-11T2200,2520A,109.2203,23.7256,来宾市,来宾技工学校,,19,19,11,3,4,50,,63,57,5,5,10,10,0.6,0.6
2025-11-11T2200,3535A,109.1781,23.7297,来宾市,兴宾区政府,,17,13,9,8,5,53,,65,61,4,5,9,8,0.5,0.5
2025-11-11T2200,4002A,109.2416,23.7461,来宾市,中南小学,,16,14,13,3,5,49,,64,57,6,6,8,8,0.6,0.6
2025-11-11T2200,1477A,104.1373,35.9454,兰州市,榆中兰大校区,,,,,,,,,,,,,,,,
2025-11-11T2200,1479A,103.831,36.0464,兰州市,铁路设计院,,,,,,,,,,,,,,,,
2025-11-11T2200,3241A,103.7439,36.0842,兰州市,百合公园,细颗粒物(PM2.5),72,84,73,52,45,2,,40,32,68,46,9,9,1.4,1.2
2025-11-11T2200,3242A,103.9611,35.998,兰州市,和平,颗粒物(PM10),70,89,70,50,41,38,,30,28,33,35,9,6,0.6,0.7
2025-11-11T2200,4236A,103.6293,36.0938,兰州市,庄浪东路808号,颗粒物(PM10),77,104,81,53,48,29,,43,38,57,52,13,14,0.7,0.8
2025-11-11T2200,4237A,103.7251,36.1043,兰州市,安宁西路88号,,,,77,,50,10,,59,46,,49,,8,0.9,0.8
2025-11-11T2200,4238A,103.8470,36.0676,兰州市,北滨河东路1号,细颗粒物(PM2.5),73,80,64,53,38,1,,31,26,72,51,12,10,1.2,1.1
2025-11-11T2200,3245A,103.6633,36.533,兰州新区,新区管委会,颗粒物(PM10),77,103,81,42,47,55,,72,72,24,17,9,12,0.4,0.5
2025-11-11T2200,3246A,103.6975,36.4789,兰州新区,舟曲中学,颗粒物(PM10),70,90,76,34,43,73,,77,77,24,28,8,9,0.2,0.5
2025-11-11T2200,1067A,116.6708,39.5111,廊坊市,药材公司,细颗粒物(PM2.5),200,221,155,150,100,3,,47,30,106,79,7,8,1.4,1
2025-11-11T2200,1068A,116.7214,39.5589,廊坊市,开发区,细颗粒物(PM2.5),169,179,139,128,90,1,,58,40,96,69,1,4,1.3,0.8
2025-11-11T2200,1070A,116.7244,39.5269,廊坊市,北华航天学院,细颗粒物(PM2.5),211,265,168,161,102,3,,50,30,99,76,4,6,1.9,1
2025-11-11T2200,2919A,116.7022,39.5453,廊坊市,河北工业大学,细颗粒物(PM2.5),186,232,156,140,93,1,,50,32,111,75,6,7,1.3,0.8
2025-11-11T2200,2535A,103.7723,29.5462,乐山市,花湖湾,,,,,,,,,,,,,,,,
2025-11-11T2200,2536A,103.7627,29.5844,乐山市,牛耳桥,,50,50,34,33,20,11,,36,30,34,24,6,7,0.6,0.6
2025-11-11T2200,2537A,103.7508,29.6006,乐山市,市第三水厂,,50,50,35,31,18,24,,38,35,24,23,6,6,0.7,0.7
2025-11-11T2200,2538A,103.7571,29.5664,乐山市,市监测站,,48,48,31,29,19,17,,35,29,14,17,7,8,0.8,0.7
2025-11-11T2200,3361A,103.7311,29.5628,乐山市,理工大学,,43,43,29,25,17,6,,37,28,32,18,7,8,0.6,0.5
2025-11-11T2200,2598A,100.2143,26.8576,丽江市,西南郊,,38,38,17,11,7,64,,80,75,15,5,7,6,0.7,0.8
2025-11-11T2200,2599A,100.2497,26.8802,丽江市,丽江古城,,,35,21,,5,80,,86,85,14,11,11,9,0.5,0.4
2025-11-11T2200,2600A,100.2203,26.8906,丽江市,市中心,,26,20,13,14,6,83,,85,85,14,12,12,10,0.4,0.4
2025-11-11T2200,1267A,119.914,28.4514,丽水市,监测站大楼,,19,19,32,11,16,58,,68,60,9,11,5,5,0.4,0.5
2025-11-11T2200,1268A,119.93,28.4586,丽水市,莲都小学,,18,14,34,7,14,55,,66,59,10,12,4,4,0.2,0.4
2025-11-11T2200,1269A,119.879,28.4231,丽水市,余庄前,,16,15,30,6,16,49,,53,48,9,14,3,3,0.3,0.4
2025-11-11T2200,1173A,119.176,34.5885,连云港市,市环境监测站,,31,31,37,9,13,70,,82,79,21,24,8,9,0.6,0.7
2025-11-11T2200,3000A,119.3581,34.6972,连云港市,德源药业,,31,31,48,7,12,46,,67,62,29,42,4,5,0.3,0.5
2025-11-11T2200,3007A,119.178,34.844,连云港市,新城一中,,46,45,52,14,20,8,,70,50,91,55,8,9,0.5,0.6
2025-11-11T2200,3008A,119.3608,34.7519,连云港市,胡沟管理处,,29,22,32,3,9,90,,71,71,12,48,7,12,0.3,0.4
2025-11-11T2200,3009A,119.1478,34.5911,连云港市,矿山设计院,,39,39,41,9,14,55,,80,74,16,17,6,7,0.5,0.5
2025-11-11T2200,3434A,119.2413,34.6539,连云港市,工贸学校,,26,18,33,3,13,82,,86,86,12,20,9,10,0.5,0.6
2025-11-11T2200,3664A,119.4172,34.7341,连云港市,连云街道,,30,28,32,8,12,93,,85,85,10,29,6,8,0.2,0.2
2025-11-11T2200,2571A,102.3431,27.8099,凉山彝族自治州,青龙寺,,,,,,,,,,,,,,,,
2025-11-11T2200,2572A,102.2721,27.8415,凉山彝族自治州,邛海宾馆,,18,14,17,11,10,55,,63,62,9,10,5,6,0.4,0.5
2025-11-11T2200,2573A,102.2625,27.898,凉山彝族自治州,西昌市政府,,20,14,19,14,14,35,,55,51,10,11,8,9,0.6,0.7
2025-11-11T2200,2574A,102.2685,27.8851,凉山彝族自治州,凉山州政府,,23,23,21,14,14,50,,56,55,7,9,8,10,0.6,0.8
2025-11-11T2200,4229A,102.2342,27.8859,凉山彝族自治州,凯乐南路30号,,21,21,24,12,12,59,,61,60,8,19,6,8,0.6,0.7
2025-11-11T2200,2212A,123.2,41.1953,辽阳市,宏伟区,颗粒物(PM10),69,87,67,48,35,47,,52,38,17,28,8,14,0.7,0.7
2025-11-11T2200,2213A,123.1683,41.2495,辽阳市,新华园,细颗粒物(PM2.5),133,148,62,101,47,11,,51,33,58,34,12,12,0.9,0.8
2025-11-11T2200,2214A,123.2354,41.2639,辽阳市,滨河路,细颗粒物(PM2.5),108,123,67,81,38,15,,50,31,57,38,15,13,0.8,0.7
2025-11-11T2200,2215A,123.149,41.2991,辽阳市,铁西工业园,细颗粒物(PM2.5),166,142,65,126,50,2,,46,21,67,38,12,10,1.5,0.8
2025-11-11T2200,2227A,125.1358,42.8845,辽源市,环保局,细颗粒物(PM2.5),166,194,131,126,72,6,,82,36,52,37,4,8,1.6,0.9
2025-11-11T2200,3239A,125.0764,42.9078,辽源市,银鹰制药,细颗粒物(PM2.5),145,146,101,111,74,7,,76,34,56,41,6,8,1.5,1
2025-11-11T2200,1625A,115.9848,36.4372,聊城市,区政府,细颗粒物(PM2.5),105,128,102,79,56,46,,91,65,57,42,12,12,0.8,0.7
2025-11-11T2200,2878A,116.0072,36.4343,聊城市,聊大东校,细颗粒物(PM2.5),105,141,115,79,60,44,,107,76,69,44,10,11,0.9,0.7
2025-11-11T2200,3200A,115.9819,36.4978,聊城市,监控中心,细颗粒物(PM2.5),107,133,104,80,58,36,,96,68,73,41,12,13,0.9,0.8
2025-11-11T2200,3513A,116.0445,36.4361,聊城市,九州社区,细颗粒物(PM2.5),105,137,105,79,53,55,,102,85,50,31,6,5,0.6,0.6
2025-11-11T2200,4018A,116.0567,36.4608,聊城市,星美广场,颗粒物(PM10),87,124,104,63,48,71,,102,89,39,30,7,6,0.6,0.5
2025-11-11T2200,2632A,94.3681,29.6376,林芝市,林芝监测站,,22,14,11,3,5,69,,72,71,1,5,4,4,0.3,0.3
2025-11-11T2200,2633A,94.3616,29.6616,林芝市,林芝人民医院,,19,14,14,3,6,59,,64,,1,5,5,6,0.3,0.3
2025-11-11T2200,2603A,100.0781,23.8982,临沧市,市环保局,细颗粒物(PM2.5),57,,17,40,21,27,,69,58,12,6,8,8,0.9,0.7
2025-11-11T2200,2604A,100.0894,23.8822,临沧市,市气象局,,26,25,17,18,12,36,,73,63,9,7,10,9,0.7,0.6
2025-11-11T2200,1733A,111.5531,36.0783,临汾市,临钢医院,细颗粒物(PM2.5),127,186,132,96,58,4,,46,30,58,39,8,13,1.7,1.2
2025-11-11T2200,1734A,111.5028,36.0714,临汾市,技工学校,细颗粒物(PM2.5),124,182,138,94,64,0,,48,32,76,47,12,16,1.6,1.1
2025-11-11T2200,1736A,111.5018,36.0855,临汾市,市委,颗粒物(PM10),135,219,162,93,60,1,,49,35,78,46,11,14,1.7,1.2
2025-11-11T2200,3018A,111.505,36.1014,临汾市,唐尧大酒店,颗粒物(PM10),119,188,137,84,57,0,,52,36,70,42,11,11,1.5,1.4
2025-11-11T2200,4244A,111.4879,36.0530,临汾市,启星学校,细颗粒物(PM2.5),137,204,135,104,57,0,,48,31,80,49,9,13,1.8,1.3
2025-11-11T2200,4271A,103.2464,35.6123,临夏回族自治州,滨河东路1号,细颗粒物(PM2.5),150,184,101,115,74,2,,16,16,36,25,4,5,1.4,1.1
2025-11-11T2200,4310A,103.2093,35.5995,临夏回族自治州,新华街21号,细颗粒物(PM2.5),120,158,100,91,73,11,,47,42,37,20,8,10,1.2,1.2
2025-11-11T2200,1618A,118.3429,35.0532,临沂市,沂河小区,细颗粒物(PM2.5),78,88,72,57,45,38,,98,76,54,46,11,29,0.7,0.5
2025-11-11T2200,1619A,118.295,35.0583,临沂市,鲁南制药厂,细颗粒物(PM2.5),72,88,80,52,44,45,,98,80,54,50,11,19,0.7,0.6
2025-11-11T2200,1620A,118.2794,34.9976,临沂市,新光毛纺厂,细颗粒物(PM2.5),69,75,78,50,45,33,,95,70,55,52,9,17,0.5,0.6
2025-11-11T2200,1621A,118.3956,35.0888,临沂市,河东保险公司,颗粒物(PM10),76,102,90,46,46,15,,91,57,72,63,8,11,0.8,0.9
2025-11-11T2200,3370A,118.3564,35.0215,临沂市,十里堡居委,颗粒物(PM10),68,85,67,44,31,38,,100,75,55,50,11,31,1.0,0.6
2025-11-11T2200,3496A,118.3604,35.1084,临沂市,南坊新区,颗粒物(PM10),64,78,72,36,37,42,,100,73,55,53,10,13,0.8,0.8
2025-11-11T2200,3860A,118.3920,35.0300,临沂市,皇山花园小区,细颗粒物(PM2.5),85,114,80,63,42,32,,102,69,60,54,11,17,0.8,0.7
2025-11-11T2200,1870A,109.4856,24.3895,柳州市,柳东小学,,15,13,9,8,5,48,,55,53,6,4,5,5,0.4,0.4
2025-11-11T2200,1871A,109.4157,24.3277,柳州市,环保监测站,,16,10,9,3,4,49,,55,52,5,6,7,8,0.6,0.7
2025-11-11T2200,1872A,109.389,24.341,柳州市,河西水厂,,20,20,14,13,8,37,,53,44,19,15,14,11,1.9,1.3
2025-11-11T2200,1873A,109.4311,24.2921,柳州市,市四中,,,137,15,,4,,,53,,8,8,8,9,0.6,0.6
2025-11-11T2200,1874A,109.4006,24.3631,柳州市,市九中,,19,16,14,13,6,47,,55,51,12,10,4,4,0.4,0.6
2025-11-11T2200,1875A,109.4958,24.3134,柳州市,古亭山,,16,,9,3,4,50,,54,53,3,2,7,7,0.6,0.6
2025-11-11T2200,3402A,109.5422,24.3996,柳州市,市二中,,,,8,7,4,49,,53,52,6,7,6,7,0.5,0.6
2025-11-11T2200,2307A,116.5079,31.737,六安市,监测大楼,,36,36,43,21,20,60,,97,85,29,22,4,4,0.3,0.4
2025-11-11T2200,2308A,116.4738,31.7643,六安市,皖西学院,颗粒物(PM10),55,59,50,23,22,44,,101,87,42,20,3,4,0.3,0.4
2025-11-11T2200,2309A,116.4996,31.7905,六安市,朝阳厂,,40,40,44,22,20,42,,98,82,44,23,4,5,0.4,0.4
2025-11-11T2200,2310A,116.5567,31.7886,六安市,开发区,,44,44,48,24,24,22,,97,68,54,26,2,2,0.4,0.4
2025-11-11T2200,2576A,104.8,26.5892,六盘水市,窑上,,39,37,28,27,15,43,,44,42,7,7,2,2,0.6,0.6
2025-11-11T2200,2577A,104.83,26.5917,六盘水市,黄土坡,,18,17,17,12,9,40,,47,38,14,13,5,5,0.7,0.7
2025-11-11T2200,2578A,104.89,26.5939,六盘水市,水钢,,28,28,23,9,12,40,,39,38,11,13,7,8,0.5,0.8
2025-11-11T2200,2579A,104.8475,26.5894,六盘水市,民中,,27,27,22,17,8,40,,40,36,10,13,4,4,0.4,0.4
2025-11-11T2200,2580A,104.9544,26.5506,六盘水市,双水,,27,27,17,16,11,41,,44,44,9,10,3,6,0.4,0.5
2025-11-11T2200,2335A,117.0189,25.1181,龙岩市,龙岩师专,,,,,,,,,,,,,,,,
2025-11-11T2200,2336A,117.0217,25.1033,龙岩市,龙岩市监测站,,19,8,21,7,10,60,,83,63,7,8,6,7,0.3,0.3
2025-11-11T2200,2337A,117.0258,25.0661,龙岩市,闽西职业技术学院,,21,,19,7,8,66,,88,70,3,4,4,5,0.3,0.4
2025-11-11T2200,2338A,117.0196,25.0306,龙岩市,龙岩学院,,21,7,24,6,9,66,,87,68,5,6,6,6,0.3,0.4
2025-11-11T2200,2665A,105.0822,33.3261,陇南市,汉王镇固水子,,,,,,,,,,,,,,,,
2025-11-11T2200,2885A,104.9339,33.3826,陇南市,滨江中学,颗粒物(PM10),62,73,53,35,24,7,,44,29,39,15,8,7,1.0,0.6
2025-11-11T2200,3247A,104.955,33.371,陇南市,市总工会,,48,48,44,28,20,22,,42,31,21,16,7,7,0.7,0.6
2025-11-11T2200,2487A,111.9589,27.8901,娄底市,电视发射台,,,,,,,,,,,,,,,,
2025-11-11T2200,2488A,111.9975,27.725,娄底市,市监测站,颗粒物(PM10),62,73,43,37,23,80,,88,85,19,9,10,11,0.6,0.6
2025-11-11T2200,2489A,112.0194,27.7314,娄底市,市委党校,颗粒物(PM10),58,66,44,33,20,78,,81,80,14,9,9,6,0.6,0.6
2025-11-11T2200,2490A,111.9561,27.7569,娄底市,涟钢,颗粒物(PM10),67,83,43,43,19,66,,81,78,9,8,9,8,0.5,0.4
2025-11-11T2200,2491A,111.9892,27.7044,娄底市,市政府,细颗粒物(PM2.5),57,49,40,40,21,82,,86,86,14,10,10,9,0.9,0.8
2025-11-11T2200,1893A,105.4324,28.9634,泸州市,九狮山,,,,,,,,,,,,,,,,
2025-11-11T2200,1894A,105.4427,28.9063,泸州市,小市上码头,,38,30,19,26,11,13,,24,22,19,12,8,8,0.7,0.6
2025-11-11T2200,1895A,105.4241,28.8573,泸州市,兰田宪桥,,26,26,20,17,10,3,,27,19,22,12,5,5,0.6,0.5
2025-11-11T2200,1896A,105.4379,28.8833,泸州市,市环监站,,27,27,19,17,12,12,,28,22,19,14,6,6,0.6,0.5
2025-11-11T2200,4272A,105.3689,28.7783,泸州市,纳溪中医医院,,24,24,20,16,15,5,,29,25,26,16,6,8,0.7,0.6
2025-11-11T2200,2183A,111.1406,37.5211,吕梁市,环保局,颗粒物(PM10),82,113,100,28,27,1,,58,34,56,38,4,6,0.4,0.5
2025-11-11T2200,2185A,111.1297,37.5136,吕梁市,自来水公司,,,,106,,29,3,,65,46,54,34,2,4,0.5,0.6
2025-11-11T2200,2867A,111.1283,37.51,吕梁市,马茂庄小学,颗粒物(PM10),88,126,125,28,30,2,,60,32,58,41,2,6,0.6,0.7
2025-11-11T2200,1812A,112.3931,34.6516,洛阳市,市委党校,细颗粒物(PM2.5),105,141,128,79,72,2,,77,52,87,46,8,9,1.4,0.9
2025-11-11T2200,1815A,112.494,34.6886,洛阳市,河南林校,细颗粒物(PM2.5),105,147,132,79,71,12,,72,48,82,54,7,9,0.9,0.8
2025-11-11T2200,1816A,112.3844,34.623,洛阳市,开发区管委会,颗粒物(PM10),88,126,133,64,73,49,,85,78,35,35,6,8,0.8,0.8
2025-11-11T2200,1817A,112.4267,34.6258,洛阳市,市委新办公区,颗粒物(PM10),95,140,138,67,57,20,,79,63,74,45,8,9,1.0,0.7
2025-11-11T2200,3340A,112.6005,34.6326,洛阳市,伊滨,颗粒物(PM10),104,157,144,58,60,6,,78,56,69,42,7,9,0.8,0.7
2025-11-11T2200,3341A,112.4951,34.6332,洛阳市,中移产业园,颗粒物(PM10),91,132,133,63,65,32,,87,73,71,45,8,8,0.9,0.7
2025-11-11T2200,3593A,112.5736,34.8993,洛阳市,吉利监测站,颗粒物(PM10),94,138,110,61,60,1,,84,55,72,38,6,8,0.9,0.7
2025-11-11T2200,3635A,112.3677,34.662,洛阳市,河科大西苑校区,颗粒物(PM10),103,155,130,75,66,3,,79,52,86,48,9,11,1.8,1.2
2025-11-11T2200,3636A,112.4388,34.6781,洛阳市,英才小学,细颗粒物(PM2.5),123,168,150,93,83,0,,68,43,103,60,8,10,1.5,1.2
2025-11-11T2200,4214A,112.4600,34.6949,洛阳市,春都路1号院,颗粒物(PM10),98,146,135,61,62,17,,61,49,58,47,9,10,1.0,1.1
2025-11-11T2200,2399A,114.051,33.5699,漯河市,三五一五工厂,细颗粒物(PM2.5),77,96,102,56,60,44,,85,66,36,27,7,8,0.4,0.5
2025-11-11T2200,2400A,114.0055,33.5698,漯河市,漯河大学,颗粒物(PM10),70,90,88,48,57,46,,88,75,41,30,6,7,0.5,0.5
2025-11-11T2200,2401A,114.0138,33.5828,漯河市,市水利局,颗粒物(PM10),60,70,86,41,54,35,,84,69,44,28,7,8,0.7,0.6
2025-11-11T2200,2402A,114.0261,33.5698,漯河市,市广电局,颗粒物(PM10),67,83,94,37,53,48,,85,75,37,27,6,6,0.5,0.5
2025-11-11T2200,3478A,113.9749,33.5664,漯河市,市图书馆,细颗粒物(PM2.5),72,85,102,52,55,54,,80,70,33,26,4,5,0.4,0.6
2025-11-11T2200,4250A,114.0892,33.5882,漯河市,韶山路11号,颗粒物(PM10),76,101,101,49,59,35,,74,52,54,40,8,8,0.5,0.6
2025-11-11T2200,1798A,118.5092,31.6837,马鞍山市,湖东路四小,,41,41,35,16,11,59,,91,75,25,19,4,5,0.4,0.5
2025-11-11T2200,1799A,118.5024,31.6449,马鞍山市,开发区,,41,41,37,13,10,63,,92,78,27,23,4,4,0.3,0.5
2025-11-11T2200,1802A,118.6245,31.7241,马鞍山市,濮塘,,,,,,,,,,,,,,,,
2025-11-11T2200,3633A,118.4918,31.6809,马鞍山市,雨山,,38,38,36,14,10,63,,93,79,24,19,6,6,0.3,0.4
2025-11-11T2200,4191A,118.5274,31.72227,马鞍山市,慈湖高新区,,40,40,30,21,13,57,,93,78,23,18,4,4,0.4,0.4
2025-11-11T2200,1686A,111.0286,21.4688,茂名市,电白南海,,36,36,40,14,18,57,,74,71,11,13,10,12,0.9,0.8
2025-11-11T2200,1687A,110.9294,21.6533,茂名市,茂石化七小,,24,24,28,14,13,54,,67,65,11,11,15,13,0.9,0.9
2025-11-11T2200,1688A,110.9107,21.6687,茂名市,健康路,,,,27,,13,52,,69,67,12,12,15,18,,1
2025-11-11T2200,1689A,110.8592,21.6828,茂名市,高岭,,24,24,36,7,11,50,,62,58,12,13,8,16,0.7,0.8
2025-11-11T2200,3450A,111.01,21.5165,茂名市,电白水东,,31,31,34,14,14,53,,69,66,14,14,10,11,1.0,1
2025-11-11T2200,2539A,104.0308,30.0478,眉山市,黑龙滩水库,,,,,,,,,,,,,,,,
2025-11-11T2200,2540A,103.8416,30.0874,眉山市,气象局,颗粒物(PM10),77,103,49,44,21,5,,36,27,40,29,9,9,0.7,0.5
2025-11-11T2200,3137A,103.8578,30.0744,眉山市,市委党校,,44,44,31,22,13,5,,36,29,45,27,6,7,0.8,0.6
2025-11-11T2200,3148A,103.8291,30.0564,眉山市,区人社局,颗粒物(PM10),66,82,45,39,17,3,,30,24,48,28,19,16,1.1,0.9
2025-11-11T2200,1690A,116.1231,24.3284,梅州市,梅江月梅,,20,17,23,14,11,49,,63,57,12,12,5,5,0.6,0.6
2025-11-11T2200,1691A,116.0797,24.2719,梅州市,梅县新城,,24,24,24,14,11,54,,64,58,10,11,7,7,0.5,0.5
2025-11-11T2200,1692A,116.1248,24.2654,梅州市,环境监控中心,,20,20,22,14,10,49,,62,56,9,10,5,5,0.5,0.5
2025-11-11T2200,3315A,116.1233,24.2991,梅州市,梅龙,,28,22,22,19,12,45,,56,52,9,10,7,7,0.7,0.7
2025-11-11T2200,1878A,104.7778,31.4741,绵阳市,富乐山,,40,40,31,22,16,20,,51,43,22,16,9,9,0.6,0.6
2025-11-11T2200,1880A,104.6697,31.4668,绵阳市,高新区自来水公司,颗粒物(PM10),59,68,46,27,19,1,,46,34,48,28,9,8,0.7,0.6
2025-11-11T2200,1881A,104.7287,31.5075,绵阳市,三水厂,颗粒物(PM10),54,58,35,29,20,1,,56,38,44,24,8,8,0.8,0.6
2025-11-11T2200,3491A,104.69,31.5322,绵阳市,西科大附属小学,颗粒物(PM10),66,81,48,35,20,2,,57,38,46,26,10,10,0.7,0.5
2025-11-11T2200,3492A,104.5648,31.5343,绵阳市,安州区旅游局,颗粒物(PM10),61,72,33,31,17,6,,49,40,29,15,7,8,0.7,0.6
2025-11-11T2200,4226A,104.7651,31.4531,绵阳市,绵阳市气象局,颗粒物(PM10),55,59,37,27,16,0,,50,40,49,22,8,8,0.8,0.6
2025-11-11T2200,1784A,129.61,44.561,牡丹江市,环保大楼,细颗粒物(PM2.5),65,,44,47,33,32,,57,36,22,22,5,6,0.4,0.5
2025-11-11T2200,1785A,129.6115,44.5782,牡丹江市,文化广场,细颗粒物(PM2.5),85,90,50,63,37,15,,58,31,40,22,22,8,1.1,0.6
2025-11-11T2200,1786A,129.5904,44.5963,牡丹江市,第一医院,细颗粒物(PM2.5),70,60,50,51,41,17,,60,34,31,20,4,4,0.8,0.5
2025-11-11T2200,1787A,129.6364,44.6075,牡丹江市,机车工厂,细颗粒物(PM2.5),65,62,50,47,32,15,,62,34,31,23,40,10,0.6,0.5
2025-11-11T2200,1788A,129.6386,44.5462,牡丹江市,第一中学,,35,35,33,22,26,18,,54,29,34,18,3,4,0.4,0.4
2025-11-11T2200,2531A,105.0703,29.61,内江市,市监测站,,32,25,23,22,13,34,,38,37,11,13,3,3,0.8,0.8
2025-11-11T2200,2532A,105.0717,29.5947,内江市,东兴区政府,,26,26,19,15,9,26,,30,30,18,17,5,6,0.4,0.3
2025-11-11T2200,2533A,105.0653,29.5817,内江市,内江二中,,30,27,19,21,14,12,,36,31,28,16,4,4,0.7,0.6
2025-11-11T2200,2534A,105.0406,29.5822,内江市,内江日报社,,26,25,18,18,12,23,,36,34,18,15,4,4,0.5,0.4
2025-11-11T2200,2628A,92.0657,31.4846,那曲市,那曲监测站,,46,43,56,32,33,48,,102,88,44,28,14,12,1.2,1.3
2025-11-11T2200,4243A,92.0515,31.4787,那曲市,那曲市委宣传部,,19,18,32,10,17,58,,96,87,26,22,8,9,0.7,1
2025-11-11T2200,1290A,115.8931,28.6843,南昌市,省外办,,41,41,63,22,34,78,,94,92,17,16,5,5,0.7,0.9
2025-11-11T2200,1291A,115.8886,28.7003,南昌市,省林业公司,,39,39,58,24,32,80,,99,96,12,14,6,5,0.7,1
2025-11-11T2200,1292A,115.8126,28.7442,南昌市,林科所,,39,39,61,22,30,80,,98,95,18,14,4,4,0.7,0.7
2025-11-11T2200,1294A,115.8518,28.687,南昌市,建工学校,颗粒物(PM10),55,60,73,24,35,76,,93,90,21,20,9,9,0.6,0.7
2025-11-11T2200,1295A,115.8921,28.6424,南昌市,象湖,,48,48,62,27,34,82,,99,97,17,18,8,9,0.6,0.7
2025-11-11T2200,1296A,115.7423,28.7996,南昌市,武术学校,,,,,,,,,,,,,,,,
2025-11-11T2200,3046A,115.9084,28.6062,南昌市,机电学校,颗粒物(PM10),51,51,74,29,36,89,,106,104,18,18,7,8,0.5,0.5
2025-11-11T2200,3690A,115.9721,28.7031,南昌市,外国语学校,,50,44,68,35,39,82,,102,99,19,20,9,10,0.5,0.6
2025-11-11T2200,4192A,115.9316,28.68677,南昌市,南京东路235号,颗粒物(PM10),53,56,74,22,35,84,,103,101,19,18,6,7,0.5,0.6
2025-11-11T2200,1905A,106.056,30.8064,南充市,西山风景区,,,,,,,,,,,,,,,,
2025-11-11T2200,1906A,106.0789,30.8023,南充市,南充市委,颗粒物(PM10),51,52,36,26,22,0,,32,26,37,21,4,4,0.7,0.4
2025-11-11T2200,1907A,106.1031,30.8217,南充市,南充炼油厂,颗粒物(PM10),55,59,46,34,25,3,,29,26,36,16,6,6,0.7,0.4
2025-11-11T2200,4227A,106.1083,30.7884,南充市,梨树横街98号,,48,48,38,21,18,11,,36,33,32,16,4,5,0.5,0.4
2025-11-11T2200,4304A,106.1172,30.843,南充市,清泉寺北路188号,,49,49,34,21,14,6,,36,32,40,16,7,7,0.7,0.5
2025-11-11T2200,4305A,106.067,30.7616,南充市,同庆路1号,颗粒物(PM10),52,53,35,22,17,1,,36,32,37,18,6,6,0.7,0.5
2025-11-11T2200,1151A,118.8086,32.1065,南京市,迈皋桥,,34,34,26,17,11,38,,84,66,34,25,3,4,0.8,0.9
2025-11-11T2200,1152A,118.7538,32.0551,南京市,草场门,,29,29,33,12,12,48,,72,63,36,28,3,3,0.3,0.4
2025-11-11T2200,1153A,118.7794,32.0745,南京市,山西路,,46,46,36,7,7,34,,84,66,48,24,5,4,0.2,0.3
2025-11-11T2200,1154A,118.7752,32.0023,南京市,中华门,,31,31,30,12,10,40,,88,61,35,21,4,4,0.3,0.3
2025-11-11T2200,1155A,118.8109,32.0309,南京市,瑞金路,,29,29,22,14,10,45,,81,66,24,17,4,4,0.6,0.7
2025-11-11T2200,1156A,118.7997,32.0754,南京市,玄武湖,,34,34,30,10,7,24,,71,48,22,19,4,4,0.4,0.4
2025-11-11T2200,1157A,118.6414,32.0931,南京市,浦口,,39,39,37,10,14,35,,79,65,43,30,6,7,0.2,0.2
2025-11-11T2200,1158A,118.7356,31.9996,南京市,奥体中心,,41,41,33,17,11,53,,88,73,41,26,6,6,0.4,0.5
2025-11-11T2200,1159A,118.9125,32.1028,南京市,仙林大学城,,41,41,38,7,8,28,,74,57,41,22,5,6,0.4,0.4
2025-11-11T2200,3422A,118.8436,31.9198,南京市,江宁彩虹桥,,27,27,32,12,11,59,,95,72,26,22,4,4,0.4,0.4
2025-11-11T2200,3427A,118.8554,32.3578,南京市,六合雄州,,32,32,29,3,8,55,,85,73,23,19,5,5,0.2,0.3
2025-11-11T2200,4249A,118.8708,31.3402,南京市,汶溪路181号,,50,,33,35,20,38,,79,60,38,30,4,5,0.5,0.6
2025-11-11T2200,4312A,119.019,31.6512,南京市,中山西路1号,,29,29,33,15,15,46,,72,63,22,18,3,4,0.4,0.5
2025-11-11T2200,1401A,108.3103,22.7881,南宁市,二十一中,,14,14,16,8,8,34,,56,50,17,13,6,4,0.8,0.7
2025-11-11T2200,1402A,108.3141,22.8528,南宁市,北湖,,23,23,18,13,8,30,,54,45,17,13,9,9,0.6,0.6
2025-11-11T2200,1403A,108.3206,22.8225,南宁市,市监测站,,20,19,19,14,11,25,,46,39,21,16,9,8,0.7,0.7
2025-11-11T2200,1404A,108.3829,22.8037,南宁市,大自然花园,,16,16,18,8,7,43,,59,56,13,11,7,7,0.6,0.6
2025-11-11T2200,1405A,108.4394,22.7904,南宁市,仙葫,,,,,,,,,,,,,,,,
2025-11-11T2200,1406A,108.2397,22.8467,南宁市,区农职院,,12,12,16,7,8,36,,52,47,11,9,4,4,0.6,0.7
2025-11-11T2200,1407A,108.3275,22.735,南宁市,英华嘉园,,15,12,18,9,9,45,,57,54,12,11,2,3,0.6,0.6
2025-11-11T2200,3401A,108.4834,22.7618,南宁市,红星社区,,19,12,13,7,8,59,,60,59,7,10,5,5,0.5,0.5
2025-11-11T2200,4221A,108.2177,22.7774,南宁市,乐贤路16号,,20,20,20,10,6,40,,55,50,10,9,7,6,0.5,0.5
2025-11-11T2200,2331A,118.0966,26.6761,南平市,茫荡山,,,,25,,,,,80,,,,,1,,0.3
2025-11-11T2200,2332A,118.1681,26.6369,南平市,南平市监测站,,13,6,30,3,15,41,,73,50,7,8,3,3,0.4,0.5
2025-11-11T2200,2333A,118.1825,26.6489,南平市,南平铝业有限公司,,15,,31,6,15,45,,75,54,8,8,2,3,0.3,0.4
2025-11-11T2200,2334A,118.1756,26.6272,南平市,南平七中,,14,8,30,3,13,42,,75,53,7,7,4,6,0.4,0.4
2025-11-11T2200,1168A,120.9098,31.9663,南通市,狼山街道,,37,37,29,10,9,56,,79,69,29,22,3,3,0.5,0.5
2025-11-11T2200,1169A,120.86,32.0005,南通市,虹桥,,32,32,23,11,9,53,,82,73,31,20,4,4,0.6,0.5
2025-11-11T2200,1170A,120.87,32.02,南通市,城中,,48,48,35,17,11,44,,74,63,40,27,3,4,0.3,0.3
2025-11-11T2200,1171A,120.94,31.93,南通市,星湖花园,,30,30,29,14,12,57,,81,74,28,21,4,4,0.3,0.3
2025-11-11T2200,1172A,120.81,32.0417,南通市,紫琅学院,,45,45,38,13,10,36,,73,58,43,29,3,5,0.5,0.5
2025-11-11T2200,3291A,121.067,32.062,南通市,通州监测站,,27,19,17,7,8,84,,87,86,13,15,3,2,0.3,0.3
2025-11-11T2200,3432A,120.9348,31.9883,南通市,环境教育馆,,36,36,28,14,9,40,,82,66,37,24,3,4,0.4,0.4
2025-11-11T2200,2404A,112.5224,33.0122,南阳市,瓦房庄,颗粒物(PM10),60,69,95,40,53,66,,102,93,27,23,6,8,0.6,0.6
2025-11-11T2200,2405A,112.5003,32.9735,南阳市,汉画馆,颗粒物(PM10),56,61,84,35,46,74,,98,92,21,26,6,6,0.5,0.6
2025-11-11T2200,2406A,112.5573,33.027,南阳市,气象站,颗粒物(PM10),73,95,109,36,44,58,,104,92,36,25,6,7,0.4,0.5
2025-11-11T2200,2407A,112.5481,32.9689,南阳市,理工学院,颗粒物(PM10),64,78,95,28,38,61,,104,92,29,22,6,7,0.5,0.6
2025-11-11T2200,4008A,112.5234,32.9922,南阳市,卧龙区政府,颗粒物(PM10),63,75,96,41,51,65,,97,88,27,26,6,7,0.5,0.6
2025-11-11T2200,1234A,121.8358,29.911,宁波市,区环保大楼,,24,24,27,6,8,62,,67,66,23,22,5,6,0.4,0.4
2025-11-11T2200,1235A,121.56,29.82,宁波市,万里学院,,24,24,26,3,6,75,,77,76,13,18,6,7,0.5,0.5
2025-11-11T2200,1236A,121.713,29.9572,宁波市,龙赛医院,,29,29,27,3,3,70,,74,74,14,15,4,4,0.4,0.4
2025-11-11T2200,1239A,121.633,29.7733,宁波市,钱湖水厂,,26,26,23,6,6,62,,76,75,20,15,6,6,0.3,0.4
2025-11-11T2200,1240A,121.5856,29.8635,宁波市,太古小学,,24,22,23,3,6,75,,76,76,14,19,3,3,0.4,0.5
2025-11-11T2200,1241A,121.524,29.8674,宁波市,市环境监测中心,,24,24,23,3,7,68,,72,71,13,15,10,10,0.3,0.3
2025-11-11T2200,2871A,121.6147,29.9017,宁波市,万里国际学校,,26,26,24,3,6,77,,78,78,11,16,4,4,0.4,0.4
2025-11-11T2200,3710A,121.5594,29.8975,宁波市,白沙活动中心,,22,17,23,3,2,68,,71,70,11,15,5,5,0.3,0.3
2025-11-11T2200,2339A,119.5001,26.6946,宁德市,金涵水库,,,,26,,13,,,53,,,5,,2,,0.4
2025-11-11T2200,2341A,119.5388,26.6612,宁德市,宁德市监测站,,21,8,26,3,15,67,,78,67,6,9,5,5,0.2,0.3
2025-11-11T2200,3209A,119.5231,26.6562,宁德市,宁德一中,,23,,27,8,15,71,,82,71,4,6,6,6,0.2,0.3
2025-11-11T2200,2618A,98.8601,25.8567,怒江傈僳族自治州,州监测站,,37,37,22,20,15,28,,63,55,16,9,8,7,0.4,0.3
2025-11-11T2200,2619A,98.8546,25.8417,怒江傈僳族自治州,泸水一中,,20,20,21,14,12,8,,49,36,29,16,6,6,0.7,0.6
2025-11-11T2200,1888A,101.6891,26.571,攀枝花市,弄弄坪,,40,40,34,18,13,26,,76,61,26,25,4,4,0.7,1.2
2025-11-11T2200,1889A,101.5769,26.5928,攀枝花市,河门口,,25,25,23,13,12,36,,76,67,15,15,9,13,0.6,0.8
2025-11-11T2200,1890A,101.7169,26.585,攀枝花市,炳草岗,,47,47,40,16,17,6,,79,55,55,31,6,11,0.8,1.1
2025-11-11T2200,1891A,101.7369,26.5008,攀枝花市,仁和,,32,32,24,15,12,23,,72,55,19,15,6,12,0.6,0.8
2025-11-11T2200,2835A,101.7227,26.567,攀枝花市,四十中小,,39,39,40,23,21,4,,74,52,62,34,10,16,1.3,1.5
2025-11-11T2200,1604A,122.0303,41.1489,盘锦市,开发区,细颗粒物(PM2.5),139,114,36,106,27,3,,52,29,69,25,6,5,1.0,0.4
2025-11-11T2200,1605A,122.0485,41.0883,盘锦市,兴隆台,细颗粒物(PM2.5),119,92,34,90,23,3,,52,26,82,32,10,8,1.1,0.4
2025-11-11T2200,1606A,121.8297,41.1028,盘锦市,新生街道,细颗粒物(PM2.5),52,50,33,36,23,5,,58,37,78,34,10,9,0.4,0.3
2025-11-11T2200,1832A,113.3257,33.742,平顶山市,新华旅馆,颗粒物(PM10),68,86,121,41,64,25,,95,77,63,41,7,10,0.5,0.6
2025-11-11T2200,1833A,113.2919,33.737,平顶山市,规划设计院,颗粒物(PM10),79,107,122,54,67,7,,98,70,67,32,5,9,1.0,0.7
2025-11-11T2200,1834A,113.182,33.774,平顶山市,平顶山工学院,颗粒物(PM10),58,65,113,34,62,76,,101,89,22,32,7,9,0.2,0.4
2025-11-11T2200,3204A,113.3025,33.73,平顶山市,规划局,颗粒物(PM10),68,85,120,35,59,46,,99,84,38,29,8,13,0.5,0.6
2025-11-11T2200,3594A,112.8867,33.9116,平顶山市,石龙区,颗粒物(PM10),86,122,143,42,58,23,,106,88,74,42,7,9,0.3,0.6
2025-11-11T2200,2656A,106.6692,35.5461,平凉市,聚贤嘉苑,颗粒物(PM10),63,75,72,38,33,4,,62,52,58,28,8,5,0.8,0.6
2025-11-11T2200,2657A,106.7021,35.5307,平凉市,博物馆,颗粒物(PM10),66,82,74,45,40,8,,60,47,49,34,12,12,1.5,0.9
2025-11-11T2200,2347A,114.0997,27.5002,萍乡市,武功山,,,,,,,,,,,,,,,,
2025-11-11T2200,2348A,113.8385,27.6434,萍乡市,中医院,颗粒物(PM10),56,62,44,36,23,25,,52,42,25,21,4,4,0.9,0.8
2025-11-11T2200,2349A,113.8493,27.6253,萍乡市,市政府车库,细颗粒物(PM2.5),52,46,40,36,25,24,,54,40,24,21,6,6,0.8,0.8
2025-11-11T2200,2350A,113.8676,27.6435,萍乡市,市环保局,颗粒物(PM10),53,55,38,31,21,26,,60,46,22,15,7,6,0.7,0.6
2025-11-11T2200,2351A,113.866,27.6198,萍乡市,安源区政府,细颗粒物(PM2.5),52,43,36,36,25,32,,50,44,16,19,9,10,0.7,0.8
2025-11-11T2200,2319A,119.0141,25.4325,莆田市,荔城区仓后路,,23,9,20,3,6,71,,85,71,6,8,4,4,0.3,0.4
2025-11-11T2200,2320A,119.0015,25.4553,莆田市,莆田市监测站,,25,7,15,3,4,77,,88,78,5,6,3,3,0.4,0.4
2025-11-11T2200,2321A,119.1119,25.4561,莆田市,涵江区六中,,25,7,18,3,4,79,,88,81,4,6,2,2,0.4,0.4
2025-11-11T2200,2322A,119.1013,25.3215,莆田市,秀屿区政府,,24,11,26,3,8,76,,86,78,6,7,4,4,0.3,0.3
2025-11-11T2200,2323A,118.981,25.4792,莆田市,东圳水库,,,,14,,5,,,94,,,5,,3,,0.6
2025-11-11T2200,2392A,115.0312,35.7636,濮阳市,环保局,细颗粒物(PM2.5),83,88,74,61,52,18,,93,69,72,40,8,10,0.9,0.7
2025-11-11T2200,2394A,115.0574,35.7609,濮阳市,油田运输公司,细颗粒物(PM2.5),95,113,94,71,55,17,,94,60,76,38,11,12,1.1,0.9
2025-11-11T2200,3021A,115,35.7668,濮阳市,濮水河管理处,细颗粒物(PM2.5),98,100,94,73,67,19,,94,63,56,31,7,8,0.5,0.2
2025-11-11T2200,4216A,115.0924,35.7686,濮阳市,任丘路479号,细颗粒物(PM2.5),94,117,97,70,57,3,,92,55,95,44,10,11,0.9,0.7
2025-11-11T2200,2601A,100.98,22.7633,普洱市,市环保局,,46,,26,32,16,15,,48,34,7,6,5,5,0.6,0.6
2025-11-11T2200,2602A,100.9817,22.8322,普洱市,普洱第二中学,,29,29,23,18,13,8,,52,35,14,7,5,5,0.4,0.3
2025-11-11T2200,2262A,131.0518,45.8751,七台河市,新一中,,,,,,,,,,,,,,,,
2025-11-11T2200,3345A,131.0577,45.7879,七台河市,中波台,,26,26,35,14,24,45,,54,44,16,18,7,8,0.5,0.5
2025-11-11T2200,3637A,131.0176,45.7761,七台河市,人民广场,,32,32,40,17,30,21,,57,36,43,22,7,8,0.7,0.5
2025-11-11T2200,3684A,130.8781,45.8222,七台河市,新建矿广场,,48,,46,33,28,17,,49,33,31,18,8,8,0.3,0.5
2025-11-11T2200,1779A,123.9305,47.3636,齐齐哈尔市,安居小区,,40,40,28,21,13,43,,52,40,14,16,6,5,0.5,0.5
2025-11-11T2200,1780A,123.9488,47.3386,齐齐哈尔市,中心广场,,39,39,23,27,12,40,,52,42,17,19,7,7,0.5,0.5
2025-11-11T2200,1781A,123.9483,47.3227,齐齐哈尔市,农牧车辆厂,,46,46,35,16,11,41,,46,43,11,18,8,6,0.4,0.5
2025-11-11T2200,1783A,123.945,47.2988,齐齐哈尔市,市环境监测站,,50,50,30,22,15,38,,51,44,14,16,6,7,0.4,0.6
2025-11-11T2200,3662A,123.6333,47.2075,齐齐哈尔市,富区青少年活动中心,,21,21,38,14,24,31,,49,39,14,30,5,6,0.4,0.7
2025-11-11T2200,2591A,107.9783,26.5747,黔东南苗族侗族自治州,市环境监测站,,28,28,19,18,13,42,,59,44,10,8,4,4,0.6,0.6
2025-11-11T2200,2881A,107.8908,26.5311,黔东南苗族侗族自治州,凯里学院,,19,19,14,13,10,32,,62,46,15,10,3,3,0.7,0.7
2025-11-11T2200,2593A,107.5228,26.2403,黔南布依族苗族自治州,小围寨,,10,6,3,3,1,30,,45,,5,4,4,5,0.5,0.6
2025-11-11T2200,3538A,107.5175,26.2978,黔南布依族苗族自治州,沙坝,,12,7,7,3,3,37,,52,44,7,6,4,4,0.6,0.6
2025-11-11T2200,2589A,104.9022,25.0925,黔西南布依族苗族自治州,场坝街,,27,27,18,13,10,43,,57,54,7,9,3,7,0.6,0.6
2025-11-11T2200,2590A,104.8811,25.0992,黔西南布依族苗族自治州,坪东大道,,25,,15,17,10,44,,56,54,6,8,3,3,0.5,0.6
2025-11-11T2200,2502A,108.6236,21.9667,钦州市,市环保站,,34,34,21,7,7,53,,66,63,14,10,6,4,1.4,0.9
2025-11-11T2200,2503A,108.6549,21.9481,钦州市,沙埠小学,,21,21,20,8,8,56,,69,67,13,9,5,4,0.6,0.7
2025-11-11T2200,2504A,108.5989,21.7431,钦州市,港区一小,,42,42,29,15,12,34,,58,54,33,20,11,6,0.9,0.8
2025-11-11T2200,3404A,108.5959,21.9633,钦州市,北职校,,22,22,17,9,7,57,,65,63,6,6,6,6,0.6,0.7
2025-11-11T2200,1043A,119.7493,40.0116,秦皇岛市,第一关,,40,32,43,28,31,7,,57,32,70,45,8,9,0.5,0.5
2025-11-11T2200,1044A,119.5897,39.9499,秦皇岛市,监测站,颗粒物(PM10),63,75,60,38,26,5,,53,34,80,44,11,9,1.3,0.7
2025-11-11T2200,1046A,119.5251,39.9041,秦皇岛市,建设大厦,颗粒物(PM10),62,73,52,25,25,4,,57,36,62,38,6,7,0.7,0.5
2025-11-11T2200,3132A,119.610547,39.943889,秦皇岛市,文明里,颗粒物(PM10),68,85,48,36,22,1,,53,36,74,35,10,11,0.7,0.3
2025-11-11T2200,4198A,119.5090,39.8253,秦皇岛市,北戴河轮滑馆,颗粒物(PM10),51,52,47,17,22,3,,56,39,56,29,3,6,1.3,0.7
2025-11-11T2200,1307A,120.6659,36.2403,青岛市,仰口,,,,,,,,,,,,,,,,
2025-11-11T2200,1310A,120.4134,36.0658,青岛市,市南区东部子站,颗粒物(PM10),60,70,60,29,23,62,,66,66,40,43,10,11,0.6,0.6
2025-11-11T2200,1311A,120.3664,36.1032,青岛市,四方区子站,颗粒物(PM10),89,127,74,51,31,5,,60,41,83,47,7,7,0.9,0.5
2025-11-11T2200,1312A,120.2994,36.054,青岛市,市南区西部子站,颗粒物(PM10),53,56,56,22,20,77,,79,79,21,43,9,12,0.7,0.7
2025-11-11T2200,1313A,120.4581,36.0858,青岛市,崂山区子站,,44,44,56,19,17,32,,59,49,53,43,9,11,0.6,0.6
2025-11-11T2200,1315A,120.3999,36.3083,青岛市,城阳区子站,颗粒物(PM10),69,88,71,32,26,45,,80,59,47,46,5,7,0.7,0.7
2025-11-11T2200,3362A,120.5014,36.4034,青岛市,即墨2号,颗粒物(PM10),72,93,72,44,32,70,,91,84,39,42,7,9,0.6,0.6
2025-11-11T2200,3642A,120.3503,36.0736,青岛市,市北区南部,颗粒物(PM10),60,70,60,22,20,71,,72,72,35,48,7,9,0.5,0.4
2025-11-11T2200,3643A,120.3948,36.1805,青岛市,李沧区北部,颗粒物(PM10),60,70,64,39,30,46,,60,55,50,47,8,10,0.6,0.7
2025-11-11T2200,4290A,120.1969,35.9546,青岛市,珠江路669号,颗粒物(PM10),60,70,59,39,27,28,,66,63,53,36,12,14,0.7,0.6
2025-11-11T2200,4291A,120.0424,35.8656,青岛市,黄岛区人民政府广场,颗粒物(PM10),91,132,63,66,26,6,,84,55,81,42,8,9,1.8,1
2025-11-11T2200,1702A,113.0426,23.691,清远市,环保大楼,,,,,,,,,,,,,,,,
2025-11-11T2200,1703A,113.0208,23.7106,清远市,凤城街办,,15,7,8,3,4,48,,58,55,14,14,6,6,0.6,0.7
2025-11-11T2200,3025A,113.0477,23.6344,清远市,技师学院,,15,8,11,3,6,46,,58,52,15,15,4,5,0.5,0.6
2025-11-11T2200,3318A,112.9903,23.7403,清远市,清新太和,,18,10,9,3,4,55,,62,60,10,10,9,10,0.3,0.3
2025-11-11T2200,3455A,113.076,23.7198,清远市,清城东城,,15,10,9,3,5,46,,59,55,12,12,6,6,0.6,0.7
2025-11-11T2200,2661A,107.6325,35.7357,庆阳市,庆阳五中,颗粒物(PM10),68,85,73,46,34,28,,72,63,54,20,4,4,0.8,0.4
2025-11-11T2200,2662A,107.6364,35.7067,庆阳市,市环保局,颗粒物(PM10),52,54,72,18,28,72,,81,77,18,15,4,4,0.8,0.7
2025-11-11T2200,1916A,103.7897,25.5035,曲靖市,环境监测站,,28,28,22,12,9,31,,34,34,16,12,4,5,0.4,0.3
2025-11-11T2200,1917A,103.8,25.5364,曲靖市,烟厂办公区,,20,20,20,14,11,35,,38,38,16,14,5,5,0.4,0.5
2025-11-11T2200,3376A,103.7947,25.462,曲靖市,南苑二区,,26,26,16,13,7,32,,41,40,18,9,6,4,0.7,0.5
2025-11-11T2200,3377A,103.7444,25.5261,曲靖市,曲靖师范学院,,,25,26,18,15,,,37,37,12,11,3,4,0.5,0.5
2025-11-11T2200,1264A,118.8692,28.9398,衢州市,环保大楼,,28,28,38,10,14,56,,75,66,18,18,5,5,0.3,0.4
2025-11-11T2200,1265A,118.8709,28.9666,衢州市,实验学校,,26,26,36,12,14,52,,74,65,20,18,8,8,0.4,0.4
2025-11-11T2200,1266A,118.8621,28.9808,衢州市,衢州学院,,32,32,37,15,16,48,,74,64,20,17,6,6,0.1,0.1
2025-11-11T2200,1611A,118.5819,24.9117,泉州市,涂山街,,25,9,17,3,7,80,,92,81,4,5,3,2,0.3,0.4
2025-11-11T2200,1612A,118.5972,24.8978,泉州市,津头埔,,25,10,15,3,7,80,,93,81,4,5,2,2,0.2,0.3
2025-11-11T2200,1613A,118.6663,24.9424,泉州市,万安,,,,20,,7,,,89,77,7,6,3,2,0.2,0.4
2025-11-11T2200,1614A,118.6117,24.9604,泉州市,清源山,,,,10,,2,,,87,,,3,,3,,0.5
2025-11-11T2200,3529A,118.6333,24.9264,泉州市,城华南路,,25,8,14,3,6,77,,90,78,4,5,3,3,0.3,0.3
2025-11-11T2200,2626A,88.8876,29.2718,日喀则市,日喀则监测站,,30,25,18,3,6,94,,101,99,3,12,8,8,0.3,0.4
2025-11-11T2200,3726A,88.8781,29.2426,日喀则市,林业技术推广中心,,31,14,15,3,3,99,,103,102,2,5,6,6,0.2,0.3
2025-11-11T2200,1659A,119.471,35.4209,日照市,监测站,细颗粒物(PM2.5),98,119,71,73,35,2,,57,31,72,55,11,12,2.0,1.1
2025-11-11T2200,1660A,119.523,35.4216,日照市,市政府广场,颗粒物(PM10),70,90,62,44,27,0,,62,43,77,52,12,14,2.2,1.2
2025-11-11T2200,1661A,119.5587,35.4044,日照市,港务局,"颗粒物(PM10),细颗粒物(PM2.5)",73,95,70,53,40,3,,70,45,84,61,12,14,2.1,1.3
2025-11-11T2200,3507A,119.5328,35.4625,日照市,职业技术学院,颗粒物(PM10),58,66,61,27,24,34,,71,58,36,45,8,9,1.4,1.1
2025-11-11T2200,3604A,119.3266,35.1044,日照市,岚山环保分局,颗粒物(PM10),58,66,64,15,27,76,,81,78,35,41,9,20,0.6,1.1
2025-11-11T2200,1835A,111.1922,34.7752,三门峡市,市政府,细颗粒物(PM2.5),92,114,116,68,76,1,,73,50,65,45,8,13,0.9,0.9
2025-11-11T2200,1836A,111.1587,34.7942,三门峡市,开发区,颗粒物(PM10),90,130,153,55,74,13,,63,49,62,44,9,14,0.7,0.8
2025-11-11T2200,1838A,111.143,34.7955,三门峡市,风景区,颗粒物(PM10),75,100,112,36,55,17,,78,68,51,30,7,12,0.9,0.9
2025-11-11T2200,3039A,111.1911,34.7829,三门峡市,三门峡市第一小学,细颗粒物(PM2.5),100,121,131,75,72,20,,74,59,51,44,11,16,0.8,0.9
2025-11-11T2200,3598A,111.1,34.7167,三门峡市,富达温泉假日酒店,细颗粒物(PM2.5),90,123,141,67,76,14,,69,59,41,38,10,16,0.8,0.9
2025-11-11T2200,2324A,117.6211,26.2625,三明市,三钢,,19,13,34,3,20,58,,64,56,6,11,1,5,0.5,0.6
2025-11-11T2200,2325A,117.635,26.2714,三明市,三明二中,,18,,28,6,18,57,,64,54,3,7,4,7,0.5,0.5
2025-11-11T2200,2326A,117.6028,26.2378,三明市,三元区政府,,20,8,30,6,12,62,,71,59,5,10,1,4,0.5,0.6
2025-11-11T2200,2327A,117.7275,26.3108,三明市,洋溪,,,,24,,17,,,65,,,9,,14,,1.2
2025-11-11T2200,1876A,109.5078,18.2489,三亚市,河东子站,,28,28,25,16,13,29,,70,54,25,16,4,4,0.7,0.6
