timepoint,stationcode,longitude,latitude,area,positionname,primarypollutant,aqi,pm10,pm10_24h,pm2_5,pm2_5_24h,o3,o3_24h,o3_8h,o3_8h_24h,no2,no2_24h,so2,so2_24h,co,co_24h
2025-11-11T1400,2566A,102.1879,31.914,阿坝藏族羌族自治州,州农科所,,,,,,,,,,,,,,,,
2025-11-11T1400,2568A,102.2502,31.8896,阿坝藏族羌族自治州,马师校,,19,,18,13,15,56,,29,29,7,21,7,7,0.8,0.8
2025-11-11T1400,3994A,102.2165,31.9024,阿坝藏族羌族自治州,马尔康中学西区,,20,6,15,3,12,62,,34,34,6,17,6,5,0.5,0.5
2025-11-11T1400,2695A,80.292,41.1694,阿克苏地区,电视台,颗粒物(PM10),131,212,253,53,82,60,,34,34,29,46,8,9,1.0,1.8
2025-11-11T1400,2696A,80.2613,41.1551,阿克苏地区,艺术中心,颗粒物(PM10),118,185,215,53,80,68,,43,43,23,46,6,5,0.6,1
2025-11-11T1400,2204A,105.6467,38.8363,阿拉善盟,西城区西花园,,,,,,,,,,,,,,,,
2025-11-11T1400,2205A,105.6985,38.8411,阿拉善盟,蒙二幼,,34,34,55,18,19,87,,76,76,6,12,9,9,0.7,0.7
2025-11-11T1400,2206A,105.724,38.8516,阿拉善盟,环保局新楼,,,,45,,17,79,,81,79,6,8,9,9,0.6,0.6
2025-11-11T1400,2708A,88.1264,47.8517,阿勒泰地区,市站,,19,17,18,7,4,58,,54,42,6,12,8,4,0.3,0.3
2025-11-11T1400,2630A,80.1161,32.5,阿里地区,阿里监测站,,25,6,3,3,3,79,,61,55,2,6,6,7,0.3,0.3
2025-11-11T1400,3192A,80.0903,32.5028,阿里地区,阿里藏医院,,27,,13,3,5,86,,73,62,1,5,7,8,0.4,0.5
2025-11-11T1400,2642A,109.0318,32.6537,安康市,香溪洞,,,,,,,,,,,,,,,,
2025-11-11T1400,2644A,109.0072,32.6975,安康市,汉滨区检察院,颗粒物(PM10),55,60,67,23,29,96,,51,51,8,15,6,5,0.4,0.5
2025-11-11T1400,4054A,109.0325,32.6913,安康市,市邮政管理局,颗粒物(PM10),56,62,75,21,25,92,,52,52,8,17,5,4,0.5,0.6
2025-11-11T1400,2291A,117.0809,30.5177,安庆市,环科院,,39,39,61,16,25,113,,70,70,8,13,5,6,0.4,0.5
2025-11-11T1400,2292A,117.0331,30.5119,安庆市,马山宾馆,,43,43,60,18,26,112,,71,71,14,18,4,5,0.3,0.4
2025-11-11T1400,2294A,116.9896,30.6145,安庆市,安庆大学,,,42,59,18,24,111,,66,66,13,16,7,7,,0.5
2025-11-11T1400,3173A,117.0598,30.5351,安庆市,市人大,,43,43,60,18,28,114,,71,71,13,16,6,6,0.5,0.5
2025-11-11T1400,3122A,105.9606,26.2611,安顺市,伍家关,,44,44,25,8,10,56,,46,45,7,8,8,10,0.6,0.7
2025-11-11T1400,3123A,105.9408,26.2431,安顺市,凤凰山,,,10,16,6,14,54,,44,42,,9,,10,0.5,0.6
2025-11-11T1400,3124A,105.9439,26.2564,安顺市,金钟山,,19,8,14,8,13,58,,46,46,5,7,9,10,0.6,0.6
2025-11-11T1400,3125A,105.8983,26.2481,安顺市,娄家坡,,17,9,15,7,13,53,,41,40,8,9,8,14,0.6,0.7
2025-11-11T1400,1818A,114.4839,36.0621,安阳市,棉研所,,,,,,,,,,,,,,,,
2025-11-11T1400,1819A,114.3551,36.1017,安阳市,红庙街,细颗粒物(PM2.5),115,111,112,87,76,90,,43,43,28,39,23,6,1.3,0.8
2025-11-11T1400,1820A,114.361,36.0681,安阳市,银杏小区,细颗粒物(PM2.5),133,125,108,101,79,75,,36,36,41,40,16,6,1.2,0.7
2025-11-11T1400,3141A,114.3922,36.0878,安阳市,信访局,细颗粒物(PM2.5),130,146,112,99,77,88,,40,40,30,36,15,5,1.2,0.6
2025-11-11T1400,3669A,114.4705,36.0637,安阳市,左辅环卫站,细颗粒物(PM2.5),118,175,149,89,73,105,,47,47,28,37,12,3,1.2,0.6
2025-11-11T1400,3703A,114.2917,36.0949,安阳市,安钢职工学校,细颗粒物(PM2.5),127,124,122,96,84,88,,43,43,32,32,31,7,1.5,0.7
2025-11-11T1400,1748A,123.044,41.1196,鞍山市,深沟寺,,32,32,38,18,23,63,,36,36,20,27,10,13,0.5,0.8
2025-11-11T1400,1749A,123.011,41.0931,鞍山市,太阳城,,27,27,37,15,20,65,,37,37,17,27,12,14,0.3,0.6
2025-11-11T1400,1750A,123.0485,41.1442,鞍山市,太平,,40,40,51,20,23,57,,34,34,26,29,14,15,0.5,0.8
2025-11-11T1400,1751A,122.9642,41.0971,鞍山市,铁西三道街,,33,33,45,19,22,56,,34,34,28,32,20,18,1.2,1.2
2025-11-11T1400,1753A,123.022,41.0821,鞍山市,明达新区,,,26,36,12,19,42,,33,33,15,24,11,14,,0.7
2025-11-11T1400,1754A,123.1289,41.0228,鞍山市,千山,,,,28,,13,,,50,,,17,,5,,0.4
2025-11-11T1400,4201A,122.9446,41.0826,鞍山市,兴盛南路290号,,36,36,49,20,21,56,,35,35,39,37,27,18,1.7,1.2
2025-11-11T1400,2195A,107.4212,40.761,巴彦淖尔市,附二中,颗粒物(PM10),60,70,69,36,37,64,,31,31,12,37,8,11,0.5,0.8
2025-11-11T1400,2196A,107.37,40.7372,巴彦淖尔市,市环保大楼,颗粒物(PM10),58,66,61,33,32,72,,36,36,12,34,11,10,0.5,0.7
2025-11-11T1400,1956A,86.1472,41.7538,巴音郭楞蒙古自治州,孔雀公园,颗粒物(PM10),112,173,161,41,37,66,,12,12,28,49,8,8,0.6,0.7
2025-11-11T1400,1957A,86.1972,41.7166,巴音郭楞蒙古自治州,棉纺厂,颗粒物(PM10),142,234,224,35,37,52,,34,28,40,38,12,7,0.4,0.4
2025-11-11T1400,1958A,86.2357,41.7173,巴音郭楞蒙古自治州,经济开发区,颗粒物(PM10),112,174,184,34,31,63,,45,37,27,27,12,8,0.7,0.6
2025-11-11T1400,2914A,106.7677,31.8794,巴中市,苏山坪,,,,,,,,,,,,,,,,
2025-11-11T1400,3181A,106.7768,31.8526,巴中市,市五中,,33,33,34,17,15,76,,27,27,8,13,9,8,0.6,0.7
2025-11-11T1400,3183A,106.7418,31.8654,巴中市,圣泉水务公司,,37,37,30,17,13,76,,28,28,7,13,9,9,0.6,0.7
2025-11-11T1400,3616A,106.7616,31.8344,巴中市,市中心医院,,39,39,31,24,18,74,,27,27,5,13,4,5,0.3,0.5
2025-11-11T1400,2235A,122.7911,45.6077,白城市,洮北区环保局,,22,19,35,15,28,51,,34,34,6,17,2,6,0.1,0.5
2025-11-11T1400,2236A,122.8738,45.5725,白城市,市环保局,,17,17,36,6,28,50,,27,27,4,17,2,4,0.2,0.3
2025-11-11T1400,2231A,126.4219,41.9171,白山市,喜丰,,49,49,59,13,20,72,,37,37,8,26,8,10,0.6,0.7
2025-11-11T1400,2232A,126.4077,41.9419,白山市,环保局,,28,20,35,19,22,64,,33,33,10,21,10,8,0.8,0.9
2025-11-11T1400,2647A,104.1724,36.5446,白银市,第三小学,细颗粒物(PM2.5),77,79,64,56,40,32,,16,15,29,28,43,28,1.0,0.8
2025-11-11T1400,2648A,104.1465,36.5482,白银市,动力公司,颗粒物(PM10),66,82,57,42,40,46,,30,30,26,24,42,18,1.1,0.8
2025-11-11T1400,2512A,106.6103,23.9011,百色市,市监测站,,12,8,20,3,8,37,,34,34,7,14,7,9,0.6,0.7
2025-11-11T1400,2513A,106.6538,23.8859,百色市,市中心血站,,14,7,23,3,8,42,,36,36,11,21,5,7,0.7,0.8
2025-11-11T1400,3406A,106.6085,23.8798,百色市,祈福高中,,,,28,,8,36,,30,30,,16,,6,0.5,0.8
2025-11-11T1400,2270A,117.396,32.939,蚌埠市,工人疗养院,,33,33,59,3,23,102,,68,68,10,26,5,5,0.2,0.3
2025-11-11T1400,2271A,117.3605,32.9427,蚌埠市,百货大楼,,31,24,51,7,23,99,,69,69,10,25,8,8,0.3,0.3
2025-11-11T1400,2273A,117.4185,32.8911,蚌埠市,蚌埠学院,,29,27,52,3,24,91,,53,53,14,43,7,7,0.3,0.3
2025-11-11T1400,2274A,117.3533,32.9673,蚌埠市,淮上区政府,,34,31,53,6,26,106,,72,72,9,23,8,8,0.2,0.2
2025-11-11T1400,2275A,117.3145,32.8977,蚌埠市,高新区,,29,24,45,12,22,90,,61,61,17,28,8,7,0.3,0.3
2025-11-11T1400,3715A,117.3092,32.9314,蚌埠市,蚌埠田家炳中学,,32,28,53,6,24,100,,74,74,8,21,4,4,0.2,0.4
2025-11-11T1400,1585A,109.8756,40.6532,包头市,市环境监测站,颗粒物(PM10),59,67,86,28,36,52,,20,20,34,62,23,24,0.7,2
2025-11-11T1400,1587A,109.9991,40.5842,包头市,包头八中,"颗粒物(PM10),细颗粒物(PM2.5)",57,64,94,40,55,60,,24,24,31,61,18,26,0.7,2.2
2025-11-11T1400,1588A,109.8538,40.6821,包头市,青山宾馆,细颗粒物(PM2.5),62,66,70,44,45,49,,19,19,41,60,28,20,1.2,1.8
2025-11-11T1400,1589A,109.8642,40.6288,包头市,惠龙物流,,,61,79,26,42,50,,25,25,,63,22,25,1.0,1.9
2025-11-11T1400,1590A,110.0377,40.5546,包头市,东河鸿龙湾,颗粒物(PM10),57,63,80,27,39,65,,24,24,31,58,16,12,0.7,1.6
2025-11-11T1400,3283A,109.9154,40.5685,包头市,滨河大厦,,,69,66,28,35,57,,28,28,32,58,18,17,,1.4
2025-11-11T1400,3419A,109.9447,40.6261,包头市,包头市委党校,颗粒物(PM10),51,52,62,26,31,58,,23,23,33,63,22,23,0.8,1.6
2025-11-11T1400,3683A,109.8331,40.6576,包头市,昆区政府,细颗粒物(PM2.5),64,72,79,46,46,45,,18,18,40,63,29,26,0.9,1.9
2025-11-11T1400,1930A,107.185,34.3063,宝鸡市,庙沟村,,,,,,,,,,,,,,,,
2025-11-11T1400,1931A,107.0708,34.3017,宝鸡市,竹园沟,颗粒物(PM10),78,105,82,38,33,86,,44,44,23,19,15,8,0.4,0.4
2025-11-11T1400,1932A,107.1906,34.3672,宝鸡市,三陆医院,颗粒物(PM10),82,114,97,39,36,93,,41,41,23,44,9,10,0.5,0.5
2025-11-11T1400,1933A,107.1431,34.3547,宝鸡市,监测站,颗粒物(PM10),83,116,92,47,40,91,,41,41,20,23,8,7,0.5,0.4
2025-11-11T1400,1934A,107.1186,34.3739,宝鸡市,技工学校,颗粒物(PM10),78,106,93,40,37,93,,45,45,18,22,9,8,0.4,0.5
2025-11-11T1400,1936A,107.2058,34.3497,宝鸡市,文理学院,颗粒物(PM10),78,106,94,48,38,94,,43,43,21,28,9,8,0.5,0.5
2025-11-11T1400,1937A,107.2386,34.3622,宝鸡市,三迪小学,颗粒物(PM10),81,111,100,49,43,93,,40,40,30,46,9,8,0.6,0.6
2025-11-11T1400,4308A,107.3898,34.3601,宝鸡市,陈仓区北开路21号,颗粒物(PM10),84,117,121,47,51,89,,37,37,24,42,10,12,0.6,0.6
2025-11-11T1400,1051A,115.493,38.8632,保定市,游泳馆,细颗粒物(PM2.5),139,141,102,106,56,82,,31,31,44,58,11,8,0.7,0.6
2025-11-11T1400,1052A,115.5213,38.8959,保定市,华电二区,细颗粒物(PM2.5),119,129,80,90,53,77,,26,26,44,52,7,4,0.8,0.6
2025-11-11T1400,1053A,115.4713,38.9108,保定市,接待中心,细颗粒物(PM2.5),107,126,83,80,50,81,,30,30,38,50,9,4,0.9,0.6
2025-11-11T1400,1054A,115.4612,38.8416,保定市,地表水厂,细颗粒物(PM2.5),140,173,110,107,55,80,,34,34,49,59,12,8,0.8,0.6
2025-11-11T1400,3581A,115.31981,38.95208,保定市,满城区生态环境分局,细颗粒物(PM2.5),70,88,99,51,43,69,,29,29,32,44,4,3,0.5,0.5
2025-11-11T1400,3582A,115.47694,38.76408,保定市,清苑区第二中学,细颗粒物(PM2.5),133,194,154,101,70,99,,37,37,40,59,9,8,0.8,0.7
2025-11-11T1400,3583A,115.62909,39.02311,保定市,徐水物探局,细颗粒物(PM2.5),155,183,117,118,66,77,,26,26,46,53,12,8,0.8,0.7
2025-11-11T1400,4004A,115.4202,38.8656,保定市,双鹰农机,细颗粒物(PM2.5),127,154,111,96,54,90,,38,38,43,53,8,4,1.1,0.8
2025-11-11T1400,4034A,115.5150,38.8590,保定市,植保所站,细颗粒物(PM2.5),128,161,117,97,62,82,,27,27,43,58,5,3,0.9,0.8
2025-11-11T1400,2594A,99.1678,25.1081,保山市,市环境监测站,,26,,14,15,13,83,,47,47,6,7,5,3,0.3,0.4
2025-11-11T1400,2595A,99.1711,25.1328,保山市,市环保局,,28,26,17,10,18,88,,52,52,6,5,7,7,0.4,0.4
2025-11-11T1400,1866A,109.2262,21.588,北海市,牛尾岭水库,,17,9,10,3,10,54,,34,34,8,10,3,12,0.5,0.7
2025-11-11T1400,1867A,109.1436,21.4086,北海市,海滩公园,,22,18,25,12,12,69,,48,48,6,8,8,8,0.7,0.9
2025-11-11T1400,1868A,109.0981,21.4661,北海市,新市环保局,,23,18,23,7,13,72,,51,51,6,8,5,6,0.6,0.7
2025-11-11T1400,1869A,109.1778,21.5233,北海市,北海工业园,,22,20,23,12,16,69,,47,47,7,9,5,6,0.4,0.5
2025-11-11T1400,3400A,109.1911,21.4415,北海市,龙潭自来水厂,,22,22,23,10,14,70,,49,49,4,6,4,5,0.6,0.7
2025-11-11T1400,1001A,116.3621,39.8784,北京市,万寿西宫,颗粒物(PM10),57,64,61,34,28,43,,28,28,45,55,4,3,0.6,0.6
2025-11-11T1400,1002A,116.2202,40.2915,北京市,定陵,,,,,,,,,,,,,,,,
2025-11-11T1400,1003A,116.4174,39.9289,北京市,东四,颗粒物(PM10),63,75,64,35,28,39,,25,25,41,47,5,3,0.6,0.6
2025-11-11T1400,1004A,116.4072,39.8863,北京市,天坛,颗粒物(PM10),64,78,53,37,28,33,,20,20,46,42,3,2,0.5,0.6
2025-11-11T1400,1005A,116.462,39.9365,北京市,农展馆,颗粒物(PM10),66,81,59,45,31,37,,21,21,48,48,7,4,0.7,0.7
2025-11-11T1400,1006A,116.3392,39.9295,北京市,官园,颗粒物(PM10),59,68,62,32,27,42,,24,24,36,50,3,3,0.5,0.5
2025-11-11T1400,1007A,116.2878,39.9611,北京市,海淀万柳,颗粒物(PM10),58,66,57,28,23,44,,19,19,35,52,5,4,0.5,0.7
2025-11-11T1400,1008A,116.6636,40.135,北京市,顺义新城,颗粒物(PM10),75,99,59,54,26,46,,25,25,40,42,8,5,0.5,0.5
2025-11-11T1400,1009A,116.6275,40.3275,北京市,怀柔镇,颗粒物(PM10),60,69,36,38,19,48,,24,24,23,28,6,4,0.8,0.8
2025-11-11T1400,1010A,116.2296,40.217,北京市,昌平镇,颗粒物(PM10),52,54,44,25,20,26,,14,14,44,40,7,5,0.4,0.4
2025-11-11T1400,1011A,116.3966,39.9821,北京市,奥体中心,颗粒物(PM10),54,58,52,27,24,35,,19,19,40,56,5,5,0.5,0.5
2025-11-11T1400,3281A,115.9718,40.4529,北京市,延庆夏都,颗粒物(PM10),52,53,45,29,20,48,,20,20,28,32,8,3,0.7,0.7
2025-11-11T1400,3418A,116.8336,40.4095,北京市,密云新城,颗粒物(PM10),64,77,44,40,18,52,,37,37,35,29,4,2,0.4,0.3
2025-11-11T1400,3671A,116.088,39.9726,北京市,门头沟三家店,颗粒物(PM10),55,59,53,27,20,37,,22,22,34,32,2,2,0.5,0.4
2025-11-11T1400,3672A,116.1541,39.8204,北京市,丰台云岗,颗粒物(PM10),54,58,65,31,28,48,,31,31,30,45,4,3,0.4,0.4
2025-11-11T1400,3673A,116.6804,39.9081,北京市,通州东关,细颗粒物(PM2.5),95,130,91,71,41,46,,20,20,44,55,6,5,0.6,0.6
2025-11-11T1400,3674A,115.9577,39.7603,北京市,房山燕山,颗粒物(PM10),52,54,48,25,22,42,,23,23,26,24,5,4,0.4,0.4
2025-11-11T1400,3675A,116.4672,39.7733,北京市,大兴旧宫,颗粒物(PM10),77,104,77,49,34,38,,16,16,47,50,4,3,0.7,0.7
2025-11-11T1400,3694A,115.986,40.4563,北京市,延庆石河营,颗粒物(PM10),52,53,44,23,21,39,,15,15,32,33,6,3,0.5,0.6
2025-11-11T1400,3695A,116.6151,40.3053,北京市,怀柔新城,颗粒物(PM10),56,61,34,30,18,48,,29,29,26,24,5,3,0.5,0.5
2025-11-11T1400,3696A,116.2545,39.8768,北京市,丰台小屯,颗粒物(PM10),56,61,64,31,26,46,,20,20,26,44,5,4,0.5,0.6
2025-11-11T1400,3697A,116.84,40.3844,北京市,密云镇,细颗粒物(PM2.5),67,82,51,48,21,50,,27,27,29,36,3,2,0.5,0.4
2025-11-11T1400,4182A,116.1942,39.9158,北京市,八角北路9号,颗粒物(PM10),56,61,72,28,27,43,,20,20,37,58,2,1,0.4,0.5
2025-11-11T1400,4194A,117.0790,40.1518,北京市,洳河巡河路,"颗粒物(PM10),细颗粒物(PM2.5)",75,99,65,55,34,60,,27,27,32,31,10,4,0.9,0.5
2025-11-11T1400,1761A,123.8275,41.3064,本溪市,大峪,,36,36,54,18,30,63,,31,31,15,33,11,10,0.4,0.9
2025-11-11T1400,1762A,123.7567,41.3325,本溪市,溪湖,,49,49,64,14,33,70,,34,34,15,38,7,11,0.4,1.6
2025-11-11T1400,1763A,123.7169,41.3094,本溪市,彩屯,,27,27,68,12,38,67,,34,34,16,35,7,10,0.5,1.3
2025-11-11T1400,1764A,123.7669,41.2864,本溪市,东明,,34,34,63,16,35,63,,28,28,18,37,10,13,0.5,1
2025-11-11T1400,1765A,123.7992,41.2664,本溪市,新立屯,,32,32,46,20,25,60,,35,35,21,36,9,9,0.5,0.8
2025-11-11T1400,1766A,123.8142,41.3472,本溪市,威宁,,33,33,70,20,29,63,,34,34,18,33,8,8,0.6,1
2025-11-11T1400,2587A,105.2864,27.3125,毕节市,八中,,20,,8,14,6,38,,35,30,6,6,8,7,0.7,0.6
2025-11-11T1400,2588A,105.31,27.2944,毕节市,师专,,12,11,8,6,5,38,,37,31,9,8,8,8,0.6,0.6
2025-11-11T1400,4263A,105.3688,27.3598,毕节市,工业大道,,14,9,8,6,4,43,,39,33,6,6,9,9,0.7,0.8
2025-11-11T1400,1629A,118.0018,37.3617,滨州市,第二水厂,颗粒物(PM10),73,95,93,48,48,110,,45,45,20,57,10,14,0.3,0.3
2025-11-11T1400,1630A,117.9776,37.393,滨州市,北中新校,颗粒物(PM10),67,83,80,44,45,116,,46,46,22,52,10,11,0.1,0.3
2025-11-11T1400,3514A,117.9378,37.3956,滨州市,中海酒店,颗粒物(PM10),70,90,81,48,44,108,,48,48,31,60,9,9,0.5,0.6
2025-11-11T1400,3515A,117.9378,37.3553,滨州市,开发区一中,,,,102,,50,118,,53,53,,52,12,13,0.9,0.9
2025-11-11T1400,3516A,118.0917,37.694,滨州市,金海六路,颗粒物(PM10),65,80,94,36,39,111,,45,45,24,58,12,12,0.1,0.2
2025-11-11T1400,4028A,117.9956,37.3753,滨州市,滨州市西街道办事处,颗粒物(PM10),75,100,90,48,50,118,,55,55,21,44,10,11,0.3,0.5
2025-11-11T1400,2311A,115.8072,33.8399,亳州市,污水处理厂,,40,40,66,20,40,87,,44,44,12,37,9,26,0.4,0.6
2025-11-11T1400,2312A,115.7789,33.8518,亳州市,三国揽胜宫,,44,44,73,18,38,85,,42,42,13,38,7,16,0.3,0.4
2025-11-11T1400,3332A,115.7633,33.8034,亳州市,亳州学院,,,39,60,,34,88,,51,51,13,32,7,10,0.4,0.5
2025-11-11T1400,2693A,82.0485,44.8556,博尔塔拉蒙古自治州,市党校,,38,38,50,17,20,51,,34,34,13,22,5,4,0.2,0.2
2025-11-11T1400,2694A,82.0806,44.8969,博尔塔拉蒙古自治州,市环保局,,49,49,64,18,24,45,,38,38,20,29,5,6,0.5,0.5
2025-11-11T1400,1071A,116.8842,38.2991,沧州市,沧县城建局,细颗粒物(PM2.5),90,115,105,67,58,105,,46,46,24,47,10,9,0.4,0.7
2025-11-11T1400,1072A,116.8584,38.3254,沧州市,电视转播站,细颗粒物(PM2.5),107,107,98,80,63,108,,45,45,21,41,10,9,0.7,0.6
2025-11-11T1400,1073A,116.8709,38.3228,沧州市,市环保局,细颗粒物(PM2.5),110,118,106,83,70,115,,49,49,25,50,8,7,0.4,0.5
2025-11-11T1400,3324A,116.8136,38.3004,沧州市,河北水利电力学院,颗粒物(PM10),95,139,114,65,53,103,,45,45,20,46,17,16,0.5,0.5
2025-11-11T1400,2622A,97.1806,31.1273,昌都市,昌都监测站,,24,14,26,3,15,75,,49,49,10,17,3,4,0.4,0.5
2025-11-11T1400,3719A,97.1714,31.1406,昌都市,昌都会议中心,,27,,14,12,7,86,,58,58,1,4,3,3,0.1,0.1
2025-11-11T1400,2690A,88.1236,43.8886,昌吉回族自治州,天山天池,,,,,,,,,,,,,,,,
2025-11-11T1400,2692A,87.2717,44.0297,昌吉回族自治州,新区政务中心,,19,14,98,11,67,60,,25,25,14,46,9,8,0.3,1.1
2025-11-11T1400,3613A,87.3095,44.0142,昌吉回族自治州,亚心广场,,20,17,114,3,79,63,,42,42,12,38,8,9,0.4,1
2025-11-11T1400,1120A,125.2863,43.9027,长春市,客车厂,细颗粒物(PM2.5),88,66,133,65,136,71,,37,37,18,48,7,11,0.5,1
2025-11-11T1400,1121A,125.2841,43.8463,长春市,邮电学院,细颗粒物(PM2.5),78,57,138,57,115,73,,39,39,19,48,8,10,0.4,0.9
2025-11-11T1400,1122A,125.3716,43.8772,长春市,劳动公园,细颗粒物(PM2.5),58,62,158,41,129,68,,38,38,22,49,10,13,0.7,1.2
2025-11-11T1400,1123A,125.3297,43.8805,长春市,园林处,细颗粒物(PM2.5),79,,125,58,119,65,,34,34,19,45,6,9,0.4,0.8
2025-11-11T1400,1124A,125.4605,43.79,长春市,净月潭,细颗粒物(PM2.5),73,80,139,53,130,78,,44,44,17,33,7,7,0.4,0.7
2025-11-11T1400,1125A,125.7194,43.515,长春市,甩湾子,细颗粒物(PM2.5),124,100,115,94,114,91,,49,49,17,25,8,8,0.6,0.9
2025-11-11T1400,1126A,125.3863,43.8447,长春市,经开区环卫处,细颗粒物(PM2.5),64,67,138,46,118,55,,26,26,29,51,9,9,0.5,0.9
2025-11-11T1400,1127A,125.245,43.7783,长春市,高新区管委会,细颗粒物(PM2.5),74,,156,54,146,75,,43,43,13,43,6,8,0.3,0.9
2025-11-11T1400,1128A,125.1761,43.8325,长春市,岱山公园,细颗粒物(PM2.5),67,64,143,48,132,71,,34,34,9,45,7,11,0.4,0.8
2025-11-11T1400,4281A,125.3346,43.9164,长春市,北亚泰大街1068号,细颗粒物(PM2.5),69,58,137,50,132,72,,34,34,20,54,7,11,0.4,0.9
2025-11-11T1400,1335A,113.0833,28.2325,长沙市,经开区环保局,细颗粒物(PM2.5),69,72,39,50,28,59,,51,50,16,17,5,4,0.5,0.5
2025-11-11T1400,1336A,112.8872,28.2189,长沙市,高开区环保局,细颗粒物(PM2.5),88,82,43,65,32,67,,64,61,22,20,6,5,0.6,0.5
2025-11-11T1400,1337A,113.0792,28.2053,长沙市,马坡岭,颗粒物(PM10),65,79,41,44,22,63,,53,51,13,14,5,4,0.7,0.6
2025-11-11T1400,1338A,112.9394,28.19,长沙市,湖南师范大学,颗粒物(PM10),74,97,43,50,22,67,,63,60,15,12,7,6,0.6,0.6
2025-11-11T1400,1339A,113.0178,28.1322,长沙市,雨花区环保局,颗粒物(PM10),63,75,38,42,23,59,,52,51,14,14,6,6,0.8,0.8
2025-11-11T1400,1340A,112.9792,28.2597,长沙市,伍家岭,细颗粒物(PM2.5),70,88,42,51,26,64,,57,55,16,16,5,4,0.5,0.5
2025-11-11T1400,1341A,113.0014,28.1944,长沙市,火车新站,细颗粒物(PM2.5),73,83,43,53,27,67,,59,58,21,19,9,9,0.7,0.7
2025-11-11T1400,1342A,112.9844,28.1178,长沙市,天心区环保局,颗粒物(PM10),67,83,39,42,20,67,,62,61,18,16,5,5,0.5,0.5
2025-11-11T1400,1343A,112.8908,28.1308,长沙市,湖南中医药大学,"颗粒物(PM10),细颗粒物(PM2.5)",67,83,42,48,20,69,,60,59,16,14,6,4,0.7,0.7
2025-11-11T1400,1344A,112.9581,28.3611,长沙市,沙坪,,,,,,,,,,,,,,,,
2025-11-11T1400,1727A,113.1147,36.1547,长治市,清华站,颗粒物(PM10),54,58,73,36,38,76,,38,38,40,38,23,17,1.4,1
2025-11-11T1400,1730A,113.0886,36.2125,长治市,审计局,颗粒物(PM10),61,72,69,36,39,89,,34,34,28,40,20,13,1.4,0.9
2025-11-11T1400,1731A,113.0844,36.1856,长治市,长治八中,细颗粒物(PM2.5),68,76,98,49,45,79,,35,35,28,35,20,13,1.4,0.9
2025-11-11T1400,2845A,113.1569,36.1911,长治市,德盛苑,颗粒物(PM10),63,76,69,41,39,94,,46,46,28,26,22,13,1.6,1
2025-11-11T1400,3568A,113.06,36.0464,长治市,向阳小学,颗粒物(PM10),54,58,110,17,43,78,,42,42,29,42,12,14,0.6,0.9
2025-11-11T1400,3569A,112.8792,36.3144,长治市,屯留一中,,,,54,20,23,86,,37,37,9,35,10,13,,0.7
2025-11-11T1400,4189A,113.1131,36.19948,长治市,英华南巷50号,颗粒物(PM10),64,77,81,41,41,87,,38,38,34,35,20,13,1.7,1.1
2025-11-11T1400,4190A,113.2367,36.3344,长治市,学府街1号,颗粒物(PM10),55,60,89,22,41,93,,42,42,12,44,10,13,0.6,1.4
2025-11-11T1400,1854A,111.6975,28.9703,常德市,市二中,颗粒物(PM10),62,73,52,34,26,98,,67,67,8,10,7,5,0.3,0.4
2025-11-11T1400,1857A,111.7158,29.1456,常德市,白鹤山,,,,,,,,,,,,,,,,
2025-11-11T1400,3138A,111.7153,29.0289,常德市,武陵区永安,,,,47,,22,,,81,,,10,,4,,0.5
2025-11-11T1400,3139A,111.6892,28.9881,常德市,鼎城区玉霞,颗粒物(PM10),61,71,54,36,25,101,,68,68,4,7,8,6,0.4,0.4
2025-11-11T1400,3140A,111.6625,29.0531,常德市,武陵区长庚,颗粒物(PM10),63,76,54,31,23,103,,73,73,7,9,5,5,0.3,0.3
2025-11-11T1400,1196A,119.9633,31.762,常州市,市监测站,,35,35,29,10,14,77,,62,62,19,25,6,7,0.4,0.4
2025-11-11T1400,1200A,119.9468,31.7069,常州市,武进监测站,,27,27,31,13,12,81,,62,62,19,27,7,9,0.5,0.5
2025-11-11T1400,1201A,119.9255,31.9087,常州市,安家,,33,33,34,10,12,93,,69,69,16,24,10,11,0.3,0.4
2025-11-11T1400,3002A,119.9805,31.8174,常州市,行政中心,,44,44,46,17,16,81,,52,52,19,29,6,7,0.5,0.5
2025-11-11T1400,3003A,120.0522,31.7748,常州市,经开区,,33,33,34,10,12,81,,59,59,17,33,14,12,0.7,0.7
2025-11-11T1400,3010A,119.9025,31.7964,常州市,钟楼,,,44,36,27,19,71,,54,54,24,29,9,10,,0.7
2025-11-11T1400,3429A,119.8598,31.7066,常州市,武进经发区,,37,37,34,13,12,76,,56,56,22,33,8,9,0.7,0.7
2025-11-11T1400,3430A,119.5826,31.7245,常州市,金坛城区,,37,37,35,16,13,76,,58,58,18,24,6,7,0.6,0.5
2025-11-11T1400,2220A,120.4318,41.5881,朝阳市,西梁,,22,21,55,7,27,68,,32,32,8,35,8,9,0.6,0.9
2025-11-11T1400,2221A,120.4521,41.5646,朝阳市,河畔小区,,23,18,43,7,24,72,,34,34,8,31,9,6,0.3,0.7
2025-11-11T1400,2222A,120.4176,41.5648,朝阳市,八里堡,,22,21,55,9,26,70,,35,35,11,40,11,10,0.4,0.8
2025-11-11T1400,2223A,120.3806,41.5969,朝阳市,农业园区,,23,18,37,11,19,71,,24,,11,25,12,9,0.4,0.6
2025-11-11T1400,1705A,116.6367,23.6719,潮州市,西园路,,,,,,,,,,,,,,,,
2025-11-11T1400,3026A,116.6183,23.6608,潮州市,市政府,,44,44,34,9,9,69,,61,61,2,4,4,4,0.4,0.5
2025-11-11T1400,4036A,116.6461,23.6761,潮州市,金山,,35,35,21,17,18,61,,52,52,5,7,2,2,0.4,0.5
2025-11-11T1400,2472A,113.0073,25.9061,郴州市,马头岭,,,,,,,,,,,,,,,,
2025-11-11T1400,2473A,113.0116,25.8226,郴州市,市职中,,36,25,10,25,9,45,,40,40,10,9,2,2,0.6,0.7
2025-11-11T1400,2475A,113.0383,25.8071,郴州市,市审计局,,36,36,11,22,8,43,,35,35,13,13,2,1,0.2,0.3
2025-11-11T1400,2476A,113.0348,25.7759,郴州市,市环保局,,32,27,15,22,10,41,,34,34,12,12,2,2,0.5,0.5
2025-11-11T1400,4252A,113.0138,25.8011,郴州市,好美居路49号,,32,26,11,22,9,50,,44,44,12,11,3,3,0.6,0.7
2025-11-11T1400,1431A,103.9728,30.7236,成都市,金泉两河,颗粒物(PM10),51,51,32,3,7,55,,26,26,22,23,4,3,0.4,0.4
2025-11-11T1400,1432A,104.176,30.6872,成都市,十里店,,45,45,30,21,13,58,,25,24,16,26,4,4,0.5,0.5
2025-11-11T1400,1433A,104.079,30.5706,成都市,三瓦窑,,,50,29,3,10,51,,25,19,23,25,,3,,0.5
2025-11-11T1400,1434A,104.1114,30.63,成都市,沙河铺,,48,48,30,12,18,41,,26,19,29,26,2,1,0.4,0.4
2025-11-11T1400,1437A,104.0786,30.6531,成都市,君平街,,50,50,31,12,15,50,,25,25,18,22,4,4,0.5,0.5
2025-11-11T1400,1438A,103.613,31.0283,成都市,灵岩寺,,,,,,,,,,,,,,,,
2025-11-11T1400,2880A,104.0239,30.65639,成都市,大石西路,,38,38,25,15,13,54,,27,27,26,24,3,3,0.6,0.6
2025-11-11T1400,3136A,104.2725,30.5589,成都市,龙泉驿区区政府,,34,34,18,14,7,36,,19,19,20,25,5,5,0.5,0.5
2025-11-11T1400,3357A,104.0106,30.6931,成都市,金博路,,35,35,23,3,10,58,,27,27,17,23,6,5,0.4,0.5
2025-11-11T1400,3359A,104.0578,30.5225,成都市,华阳,,46,46,24,22,15,48,,28,18,23,26,6,5,0.4,0.4
2025-11-11T1400,3488A,104.3880,30.7467,成都市,青石路225号,,48,48,28,3,12,54,,26,26,13,19,4,4,0.7,0.6
2025-11-11T1400,3489A,104.0789,30.4072,成都市,科学城,颗粒物(PM10),51,51,23,30,12,41,,22,17,20,20,6,5,0.5,0.5
2025-11-11T1400,4011A,103.8506,30.6947,成都市,光华大道三段,,33,33,27,3,10,54,,23,23,21,21,1,1,0.7,0.7
2025-11-11T1400,4224A,104.2433,30.5353,成都市,鲸龙路1057号,,42,42,25,22,13,53,,26,22,14,19,6,5,0.6,0.6
2025-11-11T1400,1062A,117.9531,40.9081,承德市,铁路,,37,37,41,8,19,46,,22,22,26,33,9,5,0.5,0.6
2025-11-11T1400,1063A,117.9392,40.9763,承德市,中国银行,,27,27,43,13,18,54,,27,27,17,28,8,5,0.5,0.6
2025-11-11T1400,1064A,117.9503,40.928,承德市,开发区,,44,44,51,16,22,49,,24,24,24,33,11,7,0.3,0.5
2025-11-11T1400,1066A,117.9268,41.0026,承德市,离宫,,,,,,,,,,,,,,,,
2025-11-11T1400,4274A,117.7994,40.9605,承德市,滨河大街98号,,38,38,44,17,21,42,,17,17,23,28,12,10,0.8,0.7
2025-11-11T1400,2314A,117.47,30.6618,池州市,池州学院,,47,47,53,22,26,96,,64,64,20,27,8,9,0.6,0.7
2025-11-11T1400,3237A,117.4918,30.6617,池州市,展览馆,,45,45,50,19,25,96,,66,66,20,24,9,9,0.7,0.8
2025-11-11T1400,3333A,117.5627,30.695,池州市,第八中学,,40,40,48,16,21,97,,65,65,17,22,9,9,0.7,0.7
2025-11-11T1400,3334A,117.5038,30.6243,池州市,第十二中学,,38,38,46,16,20,96,,67,67,24,26,7,7,0.7,0.8
2025-11-11T1400,1744A,118.9233,42.2816,赤峰市,松山一中,,33,33,36,16,14,46,,24,24,41,40,53,13,1.3,0.8
2025-11-11T1400,1745A,118.9576,42.2728,赤峰市,哈达街,,31,31,25,15,13,48,,28,28,32,30,42,15,0.8,0.6
2025-11-11T1400,1746A,118.8788,42.2554,赤峰市,天义路,,23,12,17,11,15,73,,36,36,14,30,10,12,0.6,0.7
2025-11-11T1400,3058A,119.2658,42.0353,赤峰市,银河街,颗粒物(PM10),53,56,42,27,27,63,,32,32,16,20,19,18,0.6,0.8
2025-11-11T1400,3286A,118.9359,42.3147,赤峰市,桥北物流园区,,45,,24,31,15,48,,27,27,32,34,60,12,1.3,0.5
2025-11-11T1400,2521A,107.3476,22.4136,崇左市,市环保局江州分局,,14,14,19,8,7,32,,17,17,5,9,2,2,0.8,0.8
2025-11-11T1400,4256A,107.3750,22.3736,崇左市,石景林东路7号,,17,17,14,8,6,45,,29,29,5,11,7,8,0.7,0.7
2025-11-11T1400,2298A,118.3093,32.3153,滁州市,老年大学,,,33,45,15,17,94,,73,73,6,13,,11,0.1,0.1
2025-11-11T1400,2299A,118.3244,32.2786,滁州市,人大宾馆,,28,28,38,8,9,88,,66,66,5,14,5,5,0.1,0.2
2025-11-11T1400,3207A,118.3118,32.3038,滁州市,市政府原办公楼,,,60,46,15,18,95,,69,69,7,17,,6,0.3,0.3
2025-11-11T1400,3331A,118.3267,32.2634,滁州市,图书馆,,30,24,36,8,9,95,,73,73,6,16,7,8,0.2,0.2
2025-11-11T1400,2605A,101.5482,25.0441,楚雄彝族自治州,州环境监测站,,25,25,18,3,9,48,,22,22,7,14,6,9,0.4,0.5
2025-11-11T1400,2606A,101.538,25.0492,楚雄彝族自治州,市经济开发区,,17,6,14,3,6,54,,25,25,3,16,6,9,0.6,0.7
2025-11-11T1400,2548A,107.5277,31.2827,达州市,达州职业技术学院,,,,,,,,,,,,,,,,
2025-11-11T1400,2549A,107.5086,31.2186,达州市,市环境监测站,,38,38,40,9,13,54,,20,20,15,25,8,9,0.4,0.5
2025-11-11T1400,2550A,107.4988,31.2132,达州市,凤凰小区,,34,34,41,12,15,61,,24,24,11,24,6,8,0.3,0.4
2025-11-11T1400,2551A,107.5082,31.1986,达州市,达县机关宾馆,,27,27,41,3,15,56,,23,23,17,26,6,8,0.4,0.5
2025-11-11T1400,2552A,107.4644,31.2124,达州市,市政中心,,41,41,50,17,13,54,,19,19,12,26,8,8,0.4,0.5
2025-11-11T1400,2614A,100.1542,25.7054,大理白族自治州,大理市环境监测站,,19,11,13,3,12,60,,47,47,6,9,6,6,0.3,0.3
2025-11-11T1400,2615A,100.2171,25.5811,大理白族自治州,大理古城,,,,18,,11,,,63,,,12,,7,,0.5
2025-11-11T1400,1109A,121.612,38.9741,大连市,甘井子,,35,35,52,12,29,80,,52,52,14,32,8,10,0.5,0.6
2025-11-11T1400,1110A,121.565,38.9511,大连市,周水子,,42,42,48,16,28,90,,59,59,15,31,4,4,0.4,0.5
2025-11-11T1400,1111A,121.5637,38.8845,大连市,星海三站,,,35,43,10,28,78,,47,47,,17,8,7,0.3,0.5
2025-11-11T1400,1112A,121.6302,38.9117,大连市,青泥洼桥,,25,17,57,8,28,78,,50,50,10,26,11,12,0.2,0.4
2025-11-11T1400,1113A,121.6251,38.8638,大连市,傅家庄,,26,26,45,7,25,77,,57,57,12,21,10,11,0.5,0.7
2025-11-11T1400,1114A,121.5213,38.8661,大连市,七贤岭,,39,39,48,12,26,82,,54,54,10,23,8,8,0.5,0.6
2025-11-11T1400,1115A,121.2529,38.8061,大连市,旅顺,,44,44,52,27,27,77,,54,54,15,19,9,8,0.4,0.5
2025-11-11T1400,1116A,121.7485,39.1311,大连市,金州,,,37,58,26,30,72,,54,54,26,29,,12,0.4,0.4
2025-11-11T1400,1117A,121.7811,39.0496,大连市,开发区,,38,38,52,10,24,60,,44,44,22,11,9,5,0.5,0.4
2025-11-11T1400,1118A,121.9762,39.0631,大连市,双D港,,,19,53,3,26,82,,59,59,,24,10,11,0.4,0.5
2025-11-11T1400,1789A,124.81117,46.03138,大庆市,大同区,,36,36,43,11,23,66,,42,42,7,19,10,10,0.4,0.5
2025-11-11T1400,1790A,125.129,46.533,大庆市,龙凤区,,26,26,32,8,19,49,,28,28,11,22,6,6,0.4,0.6
2025-11-11T1400,1791A,124.902,46.408,大庆市,红岗区,,30,24,32,21,20,52,,32,32,10,18,5,5,0.5,0.6
2025-11-11T1400,1792A,125.153,46.586,大庆市,萨尔图区,,30,30,43,13,26,47,,33,32,21,27,7,8,0.4,0.4
2025-11-11T1400,1793A,124.9042,46.6215,大庆市,让胡路区,,25,25,30,14,21,52,,34,34,5,12,5,6,0.3,0.4
2025-11-11T1400,3481A,125.141,46.634,大庆市,萨区政府监测点,,22,22,31,9,14,46,,27,27,11,20,10,9,0.2,0.4
2025-11-11T1400,1721A,113.3819,40.1097,大同市,果树场,颗粒物(PM10),66,82,67,24,35,76,,33,33,29,40,11,11,0.6,1.1
2025-11-11T1400,1723A,113.2994,40.0758,大同市,云冈宾馆,颗粒物(PM10),91,132,94,51,27,69,,29,29,33,38,17,13,0.8,1.3
2025-11-11T1400,1724A,113.3444,40.0917,大同市,大同大学,颗粒物(PM10),75,100,68,38,25,74,,30,30,35,44,21,13,0.6,0.6
2025-11-11T1400,1725A,113.2661,40.1269,大同市,安家小村,颗粒物(PM10),87,124,68,43,25,68,,28,28,42,39,19,11,0.7,0.9
2025-11-11T1400,1726A,113.2711,40.0844,大同市,教育学院,颗粒物(PM10),81,112,103,46,35,65,,27,27,43,43,16,12,0.7,1.8
2025-11-11T1400,3282A,113.3397,40.0597,大同市,大同市卫生学校,颗粒物(PM10),73,96,66,43,25,71,,29,29,32,43,17,12,0.6,0.8
2025-11-11T1400,3565A,113.1367,40.1122,大同市,云冈站,颗粒物(PM10),102,153,73,62,28,54,,25,25,50,33,23,12,0.8,0.5
2025-11-11T1400,3566A,113.1186,40.2556,大同市,图书馆,颗粒物(PM10),74,98,54,39,25,91,,32,32,15,21,10,11,0.5,0.5
2025-11-11T1400,3567A,113.5931,40.0461,大同市,区一中,颗粒物(PM10),69,87,69,27,28,85,,38,38,18,30,19,15,0.5,0.7
2025-11-11T1400,4199A,113.2798,40.0997,大同市,魏都大道141号,颗粒物(PM10),87,124,129,42,34,70,,29,29,38,44,17,11,0.9,1.9
2025-11-11T1400,2269A,124.1069,50.4097,大兴安岭地区,科技局,,16,12,23,10,13,50,,41,41,3,7,6,5,0.2,0.2
2025-11-11T1400,3663A,124.1164,50.4278,大兴安岭地区,红旗社区,,16,9,19,3,10,49,,37,37,6,17,4,6,0.3,0.4
2025-11-11T1400,1600A,124.3303,40.0625,丹东市,江湾东路,,23,13,46,6,24,72,,40,40,8,30,7,11,0.5,1.1
2025-11-11T1400,1601A,124.4256,40.1503,丹东市,临江后街,,21,21,40,9,18,67,,36,36,13,26,8,11,0.5,0.7
2025-11-11T1400,1602A,124.3933,40.1461,丹东市,元宝山,,21,17,37,7,18,67,,36,36,9,21,9,11,0.5,0.8
2025-11-11T1400,1603A,124.3633,40.1092,丹东市,民主桥,,22,19,38,3,17,70,,39,39,12,31,5,8,0.7,1.3
2025-11-11T1400,3541A,109.5726,19.5167,儋州市,第一中学子站,,22,22,36,12,20,65,,46,46,3,6,7,7,0.6,0.6
2025-11-11T1400,3542A,109.5567,19.5187,儋州市,东坡学校子站,,22,22,38,10,20,68,,48,48,7,10,3,3,0.7,0.7
2025-11-11T1400,2616A,98.5842,24.428,德宏傣族景颇族自治州,德宏州监测站,,25,10,23,8,14,78,,39,39,10,15,11,8,0.5,0.6
2025-11-11T1400,3677A,98.5881,24.4368,德宏傣族景颇族自治州,芒市人民政府综合楼,,27,27,30,16,13,78,,37,37,10,11,9,7,0.5,0.6
2025-11-11T1400,1901A,104.4239,31.1208,德阳市,东山公园,,40,40,16,13,11,73,,34,34,5,12,3,1,0.5,0.6
2025-11-11T1400,1902A,104.3826,31.1317,德阳市,西小区,颗粒物(PM10),75,99,36,19,15,68,,28,28,8,20,3,2,0.5,0.6
2025-11-11T1400,1904A,104.3553,31.1091,德阳市,耐火材料厂,,50,50,38,12,14,70,,26,26,11,25,2,2,0.6,0.6
2025-11-11T1400,3639A,104.4019,31.1244,德阳市,市教育局,,44,44,22,12,8,72,,27,27,3,20,3,2,0.4,0.5
2025-11-11T1400,1622A,116.3032,37.4674,德州市,儿童乐园,颗粒物(PM10),85,119,100,58,49,99,,57,57,42,45,13,13,0.8,0.8
2025-11-11T1400,1624A,116.2991,37.4451,德州市,监理站,细颗粒物(PM2.5),85,110,92,63,48,106,,60,60,33,43,16,16,0.6,0.6
2025-11-11T1400,3066A,116.2721,37.4379,德州市,九衢泉纯净水厂,颗粒物(PM10),92,134,98,48,44,96,,47,47,32,59,14,14,0.8,0.7
2025-11-11T1400,3371A,116.3728,37.4403,德州市,开发区人民医院,颗粒物(PM10),81,112,97,48,44,97,,48,48,35,48,16,17,0.8,0.8
2025-11-11T1400,3511A,116.5652,37.3319,德州市,陵城艺术中心,细颗粒物(PM2.5),77,95,94,56,48,101,,53,53,36,48,16,18,0.8,0.9
2025-11-11T1400,4292A,116.3525,37.4209,德州市,新河东路,颗粒物(PM10),81,112,99,46,48,94,,45,45,40,65,13,13,0.7,0.7
2025-11-11T1400,2621A,99.7056,27.8317,迪庆藏族自治州,迪庆州站,,23,16,22,12,14,73,,51,51,6,9,6,6,0.4,0.4
2025-11-11T1400,3180A,99.7136,27.8094,迪庆藏族自治州,质量技术监督局,,25,22,21,15,14,80,,49,49,8,11,8,7,0.5,0.5
2025-11-11T1400,4257A,104.6092,35.5962,定西市,将台街,,39,39,50,26,31,63,,38,38,1,12,9,8,0.5,0.6
2025-11-11T1400,4309A,104.6159,35.5701,定西市,正龙路62号,,46,46,56,31,32,61,,42,42,10,14,7,6,0.5,0.4
2025-11-11T1400,1389A,113.7547,23.0494,东莞市,莞城梨川,,20,17,15,9,8,64,,45,45,14,14,2,2,0.5,0.5
2025-11-11T1400,1390A,113.7944,23.0128,东莞市,东城石井,,20,16,13,8,7,63,,44,44,11,11,6,6,0.7,0.7
2025-11-11T1400,1391A,113.7383,22.9658,东莞市,南城西平,,19,15,13,6,6,60,,41,41,15,17,7,6,0.7,0.7
2025-11-11T1400,3319A,113.7338,23.0381,东莞市,万江金泰,,20,14,14,6,5,63,,40,40,9,13,4,5,0.7,0.8
2025-11-11T1400,3626A,113.7533,23.0202,东莞市,南城元岭,,22,17,13,7,6,69,,48,48,8,8,6,6,0.6,0.6
2025-11-11T1400,3627A,113.7875,23.0457,东莞市,东城主山,,25,25,21,7,6,64,,44,44,11,13,5,4,0.7,0.6
2025-11-11T1400,1666A,118.6614,37.4309,东营市,市环保局,颗粒物(PM10),74,97,97,44,48,103,,46,46,26,56,16,19,0.8,0.9
2025-11-11T1400,3036A,118.6904,37.4338,东营市,开发区管委会,细颗粒物(PM2.5),83,110,102,61,52,102,,46,46,26,62,18,20,0.6,0.7
2025-11-11T1400,3365A,118.5719,37.565,东营市,垦利区民丰路,颗粒物(PM10),74,97,104,48,50,106,,46,46,33,60,8,8,0.8,0.8
2025-11-11T1400,3498A,118.5055,37.8612,东营市,河口城区,颗粒物(PM10),87,124,108,56,48,142,,57,57,27,50,14,12,0.5,0.6
2025-11-11T1400,3646A,118.4978,37.4623,东营市,胜利站,颗粒物(PM10),71,92,103,41,56,106,,43,43,36,73,14,15,0.9,1
2025-11-11T1400,3734A,118.35,37.26,东营市,理想之城,颗粒物(PM10),78,105,105,44,55,106,,42,42,40,63,16,8,0.7,0.7
2025-11-11T1400,1591A,110.0023,39.8129,鄂尔多斯市,综合楼,,44,44,69,9,25,96,,45,45,7,35,11,15,0.4,0.6
2025-11-11T1400,1592A,109.9486,39.8261,鄂尔多斯市,巴音孟克林场办事处,,48,48,73,14,26,100,,60,60,8,22,6,11,0.3,0.6
2025-11-11T1400,1593A,109.7736,39.5986,鄂尔多斯市,康泽苑,颗粒物(PM10),52,53,71,19,30,92,,36,36,13,30,23,9,0.2,0.4
2025-11-11T1400,1594A,109.8119,39.5989,鄂尔多斯市,华泰汽车城,颗粒物(PM10),53,56,70,19,28,105,,39,39,10,37,7,8,0.2,0.4
2025-11-11T1400,1595A,109.9734,39.7884,鄂尔多斯市,奥林花园,颗粒物(PM10),53,56,93,12,28,99,,37,37,10,53,10,10,0.3,0.6
2025-11-11T1400,2436A,114.8938,30.3994,鄂州市,市政府,颗粒物(PM10),52,54,71,29,42,105,,76,76,14,23,9,9,0.6,0.6
2025-11-11T1400,2437A,114.8989,30.3714,鄂州市,赵家坝,颗粒物(PM10),56,61,69,36,42,116,,80,80,10,17,8,8,0.7,0.8
2025-11-11T1400,3654A,114.8094,30.4089,鄂州市,精准医疗中心,颗粒物(PM10),57,63,69,27,43,118,,78,78,6,15,4,6,0.8,1
2025-11-11T1400,2454A,109.4978,30.2981,恩施土家族苗族自治州,湖北民院,,37,37,48,9,26,67,,28,28,9,10,6,6,0.5,0.5
2025-11-11T1400,2455A,109.4707,30.2798,恩施土家族苗族自治州,州电力总公司,,44,44,50,20,25,62,,23,23,10,10,5,6,0.3,0.4
2025-11-11T1400,3549A,109.5061,30.3772,恩施土家族苗族自治州,龙凤新区,,34,34,43,12,21,74,,33,33,6,6,6,6,0.3,0.3
2025-11-11T1400,2499A,108.3411,21.6158,防城港市,沙万,,18,16,20,8,9,57,,38,38,5,8,5,6,0.5,0.6
2025-11-11T1400,2500A,108.3514,21.7731,防城港市,防城档案局,,31,31,28,10,10,52,,35,35,6,9,7,7,0.6,0.7
2025-11-11T1400,2501A,108.3506,21.6414,防城港市,大海花园,,22,22,21,6,11,61,,41,41,5,7,4,4,0.5,0.5
2025-11-11T1400,1371A,113.1294,23.0067,佛山市,湾梁,,19,17,19,6,8,58,,35,35,19,22,8,8,1.0,1
2025-11-11T1400,1372A,113.1083,23.0478,佛山市,华材职中,,24,24,20,7,8,66,,38,38,9,17,7,7,0.7,0.8
2025-11-11T1400,1373A,113.144,23.0453,佛山市,南海气象局,,20,15,17,8,10,62,,37,37,12,15,8,8,0.8,0.8
2025-11-11T1400,1374A,113.2881,22.8094,佛山市,顺德苏岗,,23,23,17,7,5,63,,35,34,14,18,9,8,0.6,0.6
2025-11-11T1400,1376A,112.8383,22.8678,佛山市,高明孔堂,,23,16,23,3,9,72,,41,41,12,19,5,7,0.5,0.5
2025-11-11T1400,1377A,112.8836,23.1588,佛山市,三水监测站,,20,9,14,3,4,63,,37,37,13,19,4,7,0.8,0.8
2025-11-11T1400,1378A,112.867,23.185,佛山市,三水云东海,,20,9,15,3,7,64,,37,37,13,19,7,8,0.9,0.9
2025-11-11T1400,3625A,113.2544,22.7642,佛山市,容桂街道办,,,19,15,7,9,58,,30,30,18,22,7,7,,0.7
2025-11-11T1400,1280A,119.3903,26.0543,福州市,鼓山,,,,36,,11,,,94,,,6,,1,,0.5
2025-11-11T1400,1282A,119.2681,26.0504,福州市,师大,,24,18,44,3,17,76,,87,77,8,9,6,6,0.4,0.4
2025-11-11T1400,1283A,119.2984,26.1028,福州市,五四北路,,24,13,45,3,16,74,,83,75,8,10,4,4,0.3,0.4
2025-11-11T1400,1284A,119.2648,26.0768,福州市,杨桥西路,,24,19,42,3,15,76,,86,77,8,8,3,4,0.2,0.3
2025-11-11T1400,1285A,119.317,26.0746,福州市,紫阳,,,25,53,3,17,66,,83,69,22,13,6,6,,0.4
2025-11-11T1400,3048A,119.5799,26.0936,福州市,九龙,,25,25,50,3,15,79,,83,77,6,7,4,4,0.3,0.4
2025-11-11T1400,3526A,119.5189,25.9664,福州市,吴航,,25,18,42,7,18,78,,84,76,5,6,6,6,0.4,0.5
2025-11-11T1400,1755A,123.7977,41.8491,抚顺市,望花区,,36,36,84,25,52,68,,34,34,17,42,7,11,0.7,1.2
2025-11-11T1400,1756A,123.9161,41.8822,抚顺市,顺城区,,30,30,86,19,49,66,,31,31,20,40,7,12,0.5,1.2
2025-11-11T1400,1757A,124.0436,41.8611,抚顺市,东洲区,,26,22,58,18,42,72,,39,39,13,35,6,14,0.6,1
2025-11-11T1400,1758A,123.9247,41.8642,抚顺市,新抚区,,34,34,96,22,55,67,,33,33,18,37,8,9,0.5,1.1
2025-11-11T1400,1759A,124.0972,41.8961,抚顺市,大伙房水库,,35,30,45,24,30,78,,40,40,14,31,10,12,0.5,0.7
2025-11-11T1400,1760A,123.7086,41.8391,抚顺市,沈抚新城,,40,34,74,28,47,66,,37,37,18,43,14,12,0.4,1
2025-11-11T1400,2376A,116.2127,28.0814,抚州市,桐源党溪,,,,,,,,,,,,,,,,
2025-11-11T1400,2377A,116.3544,27.9831,抚州市,市站,颗粒物(PM10),56,61,53,28,26,96,,76,76,9,9,8,6,0.6,0.7
2025-11-11T1400,2378A,116.3565,27.963,抚州市,血防站,颗粒物(PM10),54,58,51,26,25,99,,80,77,15,13,3,3,0.8,0.9
2025-11-11T1400,2379A,116.3564,28.0007,抚州市,采茶剧团,颗粒物(PM10),56,61,55,29,26,100,,78,78,4,6,4,3,0.8,0.8
2025-11-11T1400,2380A,116.385,27.9647,抚州市,医学分院,颗粒物(PM10),57,64,59,25,24,98,,77,77,8,9,6,8,1.3,1.3
2025-11-11T1400,2207A,121.6094,41.998,阜新市,工业园区,,27,27,75,18,33,70,,35,35,10,35,11,14,0.3,0.5
2025-11-11T1400,2208A,121.6697,42.0279,阜新市,长青街,,24,24,35,14,25,62,,31,31,11,27,13,14,0.3,0.4
2025-11-11T1400,2209A,121.6673,42.0705,阜新市,农业园区,,45,45,26,12,10,60,,46,46,12,14,9,9,0.5,0.5
2025-11-11T1400,2210A,121.6717,42.0224,阜新市,东苑,,32,32,41,22,22,62,,34,34,18,30,8,14,0.4,0.5
2025-11-11T1400,2211A,121.6506,42.0498,阜新市,玉龙新城,,32,32,50,11,21,66,,32,32,10,33,12,13,0.4,0.5
2025-11-11T1400,2301A,115.8277,32.8929,阜阳市,市监测站,,31,31,72,18,42,96,,60,60,14,30,5,6,0.2,0.3
2025-11-11T1400,2303A,115.8554,32.8605,阜阳市,开发区,,35,35,85,12,38,96,,59,59,12,29,4,4,0.1,0.3
2025-11-11T1400,2875A,115.784,32.8892,阜阳市,阜阳职业技术学院,,32,19,57,13,37,102,,69,69,7,19,6,7,0.1,0.3
2025-11-11T1400,3468A,115.7901,32.8613,阜阳市,市规划展馆,,35,30,70,11,32,110,,72,72,8,17,5,6,0.4,0.5
2025-11-11T1400,3469A,115.836,32.9183,阜阳市,枣园社区,,33,23,71,8,35,103,,64,64,10,31,8,9,0.5,0.6
2025-11-11T1400,2669A,102.9099,34.9841,甘南藏族自治州,州政府,,37,37,45,23,29,56,,26,26,13,27,16,6,0.3,0.6
2025-11-11T1400,3380A,102.8914,34.9617,甘南藏族自治州,甘肃民族师范学院,,18,14,52,7,25,56,,20,20,12,33,12,15,0.4,0.6
2025-11-11T1400,2570A,101.9603,30.0475,甘孜藏族自治州,水桥子,,18,6,7,3,5,57,,32,32,6,15,8,8,0.4,0.5
2025-11-11T1400,3065A,101.9533,29.9972,甘孜藏族自治州,州环保局,,17,,8,7,5,53,,33,33,7,14,5,5,0.4,0.4
2025-11-11T1400,3414A,115.8347,28.932,赣江新区,桑海产业园,颗粒物(PM10),63,75,85,36,41,100,,86,80,15,16,8,10,0.7,0.8
2025-11-11T1400,2362A,114.9017,25.9149,赣州市,通天岩,颗粒物(PM10),60,69,30,38,15,93,,76,76,6,7,16,15,0.9,1
2025-11-11T1400,2363A,114.9367,25.8664,赣州市,地委,颗粒物(PM10),54,57,30,30,13,81,,70,70,11,11,6,5,0.7,0.7
2025-11-11T1400,2364A,114.9461,25.8481,赣州市,气象台,颗粒物(PM10),55,60,37,28,12,82,,69,69,12,12,7,5,0.9,0.9
2025-11-11T1400,2365A,114.9322,25.8333,赣州市,市图书馆,颗粒物(PM10),55,59,29,33,16,86,,73,73,10,11,4,4,0.9,0.9
2025-11-11T1400,2366A,114.8905,25.8471,赣州市,华坚鞋城,颗粒物(PM10),60,70,35,30,15,70,,57,57,11,13,5,4,0.7,0.6
2025-11-11T1400,3109A,115.0093,25.8613,赣州市,赣县区卫计委,颗粒物(PM10),61,71,26,39,17,88,,73,73,4,5,7,7,0.6,0.6
2025-11-11T1400,2683A,106.2319,36.1417,固原市,马园,,,,,,,,,,,,,,,,
2025-11-11T1400,2684A,106.2792,36.0022,固原市,监测站,,29,25,50,20,28,63,,37,37,11,17,4,4,0.4,0.5
2025-11-11T1400,2685A,106.2375,36.0211,固原市,新区,,32,32,48,18,26,63,,32,32,9,20,6,6,0.4,0.5
2025-11-11T1400,3522A,106.2177,35.9959,固原市,原州区十五小,,39,39,54,22,27,60,,32,32,10,20,5,4,0.6,0.7
2025-11-11T1400,2543A,106.6308,30.5278,广安市,小平旧居,,,,,,,,,,,,,,,,
2025-11-11T1400,2544A,106.6303,30.4576,广安市,市委,,41,41,34,20,16,41,,38,36,16,13,3,3,0.6,0.5
2025-11-11T1400,2545A,106.6271,30.4663,广安市,友谊中学,,36,36,28,19,14,46,,42,42,15,11,6,6,0.7,0.6
2025-11-11T1400,2547A,106.6388,30.4551,广安市,广电花园,,33,33,30,17,14,37,,35,32,15,14,2,1,0.6,0.6
2025-11-11T1400,2902A,106.6351,30.4865,广安市,北辰小学,,45,45,31,23,12,41,,38,38,14,8,9,8,0.5,0.5
2025-11-11T1400,2523A,105.8945,32.4535,广元市,黑石坡,,,,,,,,,,,,,,,,
2025-11-11T1400,2524A,105.821,32.4444,广元市,老城,,28,26,37,19,20,86,,46,46,11,23,4,3,0.6,0.7
2025-11-11T1400,2526A,105.8628,32.4287,广元市,监测站,,25,12,25,9,16,78,,40,40,11,16,9,3,0.6,0.7
2025-11-11T1400,3617A,105.8047,32.4166,广元市,经开区,颗粒物(PM10),55,60,53,19,20,56,,22,22,14,25,4,2,0.4,0.5
2025-11-11T1400,1345A,113.2347,23.1423,广州市,广雅中学,,21,21,25,13,15,58,,29,29,15,20,8,8,0.4,0.3
2025-11-11T1400,1346A,113.2612,23.105,广州市,市五中,,22,16,15,8,8,69,,38,38,16,20,8,8,0.6,0.6
2025-11-11T1400,1348A,113.3478,23.0916,广州市,广东商学院,,20,18,15,8,8,63,,34,34,11,13,6,6,0.3,0.3
2025-11-11T1400,1349A,113.4332,23.1047,广州市,市八十六中,,20,15,12,8,8,64,,35,33,13,17,7,7,0.4,0.5
2025-11-11T1400,1350A,113.3505,22.9483,广州市,番禺中学,,,,16,7,6,64,,39,39,,15,7,7,,0.6
2025-11-11T1400,1351A,113.2146,23.3916,广州市,花都师范,,20,14,16,3,6,62,,36,36,14,16,6,7,0.8,0.8
2025-11-11T1400,1352A,113.2597,23.1331,广州市,市监测站,,20,20,20,8,9,60,,30,30,14,18,8,8,0.7,0.7
2025-11-11T1400,1353A,113.5618,23.312,广州市,九龙镇镇龙,,,21,12,13,7,62,,38,38,,10,6,6,0.6,0.6
2025-11-11T1400,1354A,113.2765,23.1544,广州市,麓湖,,18,17,16,7,8,57,,32,32,12,18,10,10,0.5,0.5
2025-11-11T1400,1355A,113.443,23.3035,广州市,帽峰山森林公园,,,,,,,,,,,,,,,,
2025-11-11T1400,2846A,113.3221,23.1322,广州市,体育西,,19,18,16,10,10,60,,33,33,10,13,8,8,0.6,0.6
2025-11-11T1400,3298A,113.5717,23.5491,广州市,从化街口,,22,19,12,13,8,68,,44,44,7,8,10,10,0.6,0.6
2025-11-11T1400,3299A,113.3472,23.3692,广州市,白云竹料,,22,14,13,7,7,69,,38,38,8,11,7,7,0.6,0.6
2025-11-11T1400,3300A,113.2981,23.237,广州市,白云嘉禾,,21,19,16,9,8,65,,32,32,12,16,8,8,0.7,0.7
2025-11-11T1400,3301A,113.4256,23.1716,广州市,黄埔科学城,,24,18,18,9,8,74,,42,40,6,9,6,6,0.7,0.7
2025-11-11T1400,3302A,113.3942,23.0483,广州市,番禺大学城,,23,14,13,8,7,73,,41,41,7,12,9,10,0.6,0.6
2025-11-11T1400,3303A,113.4922,22.8168,广州市,南沙黄阁,,21,21,18,8,8,66,,39,39,15,21,8,8,0.7,0.7
2025-11-11T1400,3304A,113.5342,22.7896,广州市,南沙街,,20,18,18,9,9,62,,35,35,15,19,6,8,0.1,0.2
2025-11-11T1400,3443A,113.2902,23.5544,广州市,花都梯面,,21,9,11,3,7,66,,37,37,6,10,4,7,0.6,0.6
2025-11-11T1400,3445A,113.7858,23.7478,广州市,从化良口,,27,27,9,18,6,78,,55,55,7,8,6,6,0.6,0.7
2025-11-11T1400,3446A,113.8051,23.2614,广州市,增城荔城,,20,12,10,3,6,62,,46,46,8,9,7,7,0.5,0.5
2025-11-11T1400,2505A,109.568,23.1478,贵港市,德智高中,,,,,,,,,,,,,,,,
2025-11-11T1400,2506A,109.6047,23.0666,贵港市,江南子站,,21,19,17,7,9,67,,46,46,7,9,5,5,0.7,0.8
2025-11-11T1400,2508A,109.5669,23.1065,贵港市,荷城子站,,21,12,15,3,6,65,,45,45,8,9,3,4,0.8,0.8
2025-11-11T1400,3405A,109.5886,23.1172,贵港市,新世纪学校,,,19,18,8,9,57,,44,44,,6,,4,0.6,0.6
2025-11-11T1400,4260A,109.5933,23.0951,贵港市,中山路155-3号,,22,18,15,12,11,69,,49,49,5,8,3,3,0.6,0.7
2025-11-11T1400,1439A,106.6899,26.5998,贵阳市,马鞍山,,22,22,14,14,7,57,,43,43,7,7,4,3,0.6,0.5
2025-11-11T1400,1441A,106.6243,26.6266,贵阳市,鉴湖路,,36,36,32,9,11,45,,37,37,8,9,5,4,0.5,0.5
2025-11-11T1400,1442A,106.7487,26.6343,贵阳市,燕子冲,,20,17,13,14,15,62,,53,53,11,9,4,5,0.4,0.5
2025-11-11T1400,1443A,106.6555,26.4365,贵阳市,碧云窝,,27,27,28,12,9,54,,44,44,15,12,4,2,0.4,0.4
2025-11-11T1400,1445A,106.7109,26.6027,贵阳市,红边门,,18,14,14,3,7,56,,46,46,10,10,6,4,0.6,0.6
2025-11-11T1400,1446A,106.7164,26.5699,贵阳市,新华路,,24,24,22,7,11,71,,61,61,10,9,16,10,0.5,0.4
2025-11-11T1400,1447A,106.674,26.5424,贵阳市,太慈桥,,27,27,18,12,9,54,,38,38,12,11,4,3,0.3,0.3
2025-11-11T1400,1552A,106.805,26.3003,贵阳市,桐木岭,,31,31,22,17,12,76,,69,69,5,5,6,6,0.7,0.7
2025-11-11T1400,4230A,106.6882,26.5695,贵阳市,花果园大街66号,,23,,13,16,15,56,,44,44,12,10,1,2,0.8,0.7
2025-11-11T1400,4231A,106.6873,26.5169,贵阳市,漓江路57号,,19,14,9,7,11,58,,47,47,10,9,9,8,0.4,0.5
2025-11-11T1400,1862A,110.4144,25.3167,桂林市,电子科大尧山校区,,,,,,,,,,,,,,,,
2025-11-11T1400,1864A,110.3089,25.2708,桂林市,龙隐路小学,,20,7,7,3,5,63,,53,53,6,7,5,5,0.4,0.5
2025-11-11T1400,1865A,110.2869,25.2178,桂林市,八中,,20,12,9,8,6,62,,53,53,6,7,6,6,0.4,0.5
2025-11-11T1400,3531A,110.296,25.1253,桂林市,旅游学院,,23,6,5,3,4,72,,60,60,6,7,3,4,0.4,0.4
2025-11-11T1400,4222A,110.1835,25.2444,桂林市,环湖路276号,,,,9,9,8,59,,50,50,,9,6,6,0.4,0.4
2025-11-11T1400,4301A,110.2803,25.2773,桂林市,信义路13号,,20,14,9,10,6,61,,52,52,6,8,5,6,0.7,0.7
2025-11-11T1400,2674A,100.2561,34.4714,果洛藏族自治州,玛沁县大武镇,,26,16,41,3,13,82,,57,57,2,6,18,14,0.1,0.3
2025-11-11T1400,1129A,126.5422,45.755,哈尔滨市,岭北,,,,,,,,,,,,,,,,
2025-11-11T1400,1130A,126.561,45.8167,哈尔滨市,松北商大,,,,42,,,58,,43,43,21,24,7,7,0.5,0.6
2025-11-11T1400,1131A,126.979,45.5419,哈尔滨市,阿城会宁,,28,28,60,18,44,64,,38,38,10,24,9,10,0.3,0.5
2025-11-11T1400,1132A,126.599,45.7222,哈尔滨市,南岗学府路,,35,35,53,16,35,57,,39,39,8,18,10,11,0.2,0.5
2025-11-11T1400,1133A,126.689,45.7733,哈尔滨市,太平宏伟公园,,35,35,40,22,29,62,,40,40,9,19,8,11,0.4,0.7
2025-11-11T1400,1134A,126.635,45.7667,哈尔滨市,道外承德广场,,29,29,58,18,31,60,,37,37,11,22,8,9,0.4,0.7
2025-11-11T1400,1135A,126.685,45.7319,哈尔滨市,香坊红旗大街,,34,34,50,22,33,58,,37,37,13,24,9,10,0.4,0.6
2025-11-11T1400,1136A,126.6411,45.7258,哈尔滨市,动力和平路,,32,,44,22,38,61,,41,41,10,22,5,6,0.5,0.6
2025-11-11T1400,1137A,126.593,45.7478,哈尔滨市,道里建国路,,39,,46,27,37,59,,38,38,14,26,10,10,0.6,0.6
2025-11-11T1400,1138A,126.615,45.61,哈尔滨市,平房东轻厂,,40,40,54,28,40,64,,39,39,11,41,8,9,0.5,0.7
2025-11-11T1400,1139A,126.595,45.9855,哈尔滨市,呼兰师专,细颗粒物(PM2.5),53,,41,37,37,61,,43,43,9,22,8,8,0.5,0.5
2025-11-11T1400,1140A,126.6206,45.6842,哈尔滨市,省农科院,,44,44,70,29,53,61,,40,40,16,29,10,10,0.5,0.7
2025-11-11T1400,2688A,93.5128,42.8172,哈密市,地区监测站,颗粒物(PM10),73,96,76,23,28,60,,42,42,11,30,19,9,0.0,0.2
2025-11-11T1400,2689A,93.4961,42.8328,哈密市,哈密师范学校,,,68,61,26,24,56,,36,36,11,31,4,4,,0.7
2025-11-11T1400,2671A,100.9048,36.9639,海北藏族自治州,海晏县西海镇,,37,37,27,19,16,86,,55,55,4,8,13,11,0.4,0.4
2025-11-11T1400,3867A,102.0738,36.5056,海东市,平安区公安北苑,细颗粒物(PM2.5),52,46,63,36,42,85,,37,37,6,22,10,12,0.7,0.8
2025-11-11T1400,1409A,110.576,19.9507,海口市,东寨港,,,,,,,,,,,,,,,,
2025-11-11T1400,1410A,110.3232,20.0574,海口市,海南大学,,30,30,27,19,16,82,,55,55,11,11,8,8,0.6,0.6
2025-11-11T1400,1411A,110.283,20.0053,海口市,秀英海南医院,,33,33,35,18,18,80,,53,53,12,15,10,9,0.6,0.6
2025-11-11T1400,1412A,110.338,19.9969,海口市,海南师范大学,,30,30,29,18,17,89,,60,60,13,14,10,8,0.8,0.7
2025-11-11T1400,1413A,110.33,20.0356,海口市,龙华路环保局宿舍,,28,28,31,19,16,87,,57,57,12,14,10,9,0.2,0.4
2025-11-11T1400,3539A,110.5111,19.9736,海口市,桂林洋子站,,,,31,25,18,87,,54,54,9,14,116,13,0.6,0.5
2025-11-11T1400,2673A,100.6188,36.2866,海南藏族自治州,共和县恰卜恰镇,,39,,44,27,18,85,,47,47,2,17,15,12,0.4,0.5
2025-11-11T1400,2676A,97.3731,37.3753,海西蒙古族藏族自治州,德令哈市,,43,43,33,11,13,90,,64,64,2,8,21,22,0.4,0.5
2025-11-11T1400,1048A,114.5302,36.6116,邯郸市,东污水处理厂,,,85,106,70,90,84,,41,41,20,37,,9,0.7,0.6
2025-11-11T1400,1049A,114.4918,36.5713,邯郸市,矿院,细颗粒物(PM2.5),85,71,98,63,86,96,,40,40,22,38,21,8,0.8,0.6
2025-11-11T1400,1050A,114.484,36.6133,邯郸市,丛台公园,细颗粒物(PM2.5),92,85,111,68,84,90,,44,44,27,33,26,9,0.8,0.7
2025-11-11T1400,3458A,114.7895,36.5593,邯郸市,香泉濮院小区,细颗粒物(PM2.5),129,121,117,98,77,90,,50,50,30,31,12,8,1.0,0.8
2025-11-11T1400,3579A,114.50634,36.77178,邯郸市,永年区实验高中,细颗粒物(PM2.5),82,112,124,60,62,79,,34,34,39,44,21,9,0.7,0.9
2025-11-11T1400,3580A,114.20016,36.44293,邯郸市,峰峰矿区临水派出所,细颗粒物(PM2.5),83,64,92,61,82,99,,47,47,25,35,14,11,1.1,1.1
2025-11-11T1400,2634A,106.9893,33.1842,汉中市,汉川机床厂子校,,,,,,,,,,,,,,,,
2025-11-11T1400,2635A,107.0154,33.0706,汉中市,市监测站,颗粒物(PM10),60,70,59,23,24,92,,42,42,6,14,4,4,0.4,0.5
2025-11-11T1400,2636A,107.0089,33.1138,汉中市,鑫源开发区,颗粒物(PM10),60,69,64,25,25,95,,43,43,8,23,5,6,0.2,0.4
2025-11-11T1400,2637A,107.007,33.0323,汉中市,南郑大河坎水厂,颗粒物(PM10),58,66,53,22,23,90,,40,40,7,14,4,4,0.4,0.5
2025-11-11T1400,1223A,120.2072,30.2111,杭州市,滨江,,35,35,35,11,13,58,,52,52,32,28,6,7,0.4,0.4
2025-11-11T1400,1224A,120.0633,30.2747,杭州市,西溪,,32,32,39,11,11,67,,49,49,22,25,8,8,0.5,0.5
2025-11-11T1400,1226A,120.3417,30.3150,杭州市,下沙,,31,31,35,9,9,68,,50,50,20,25,5,5,0.3,0.3
2025-11-11T1400,1227A,120.1269,30.2456,杭州市,卧龙桥,,43,43,35,9,11,66,,49,49,22,23,9,9,0.3,0.4
2025-11-11T1400,1228A,120.1903,30.2692,杭州市,浙江农大,,32,32,33,11,12,58,,49,49,26,26,7,7,0.1,0.1
2025-11-11T1400,1230A,120.1197,30.3119,杭州市,和睦小学,,26,26,30,13,16,72,,52,52,20,25,8,8,0.6,0.6
2025-11-11T1400,1231A,120.3019,30.4183,杭州市,临平镇,,30,30,33,10,13,68,,52,52,14,23,6,6,0.3,0.4
2025-11-11T1400,1232A,120.2753,30.1839,杭州市,城厢镇,,36,36,39,8,12,54,,49,49,39,37,8,8,0.2,0.2
2025-11-11T1400,1233A,120.0883,30.1808,杭州市,云栖,,32,32,38,10,13,67,,54,54,22,21,6,7,0.5,0.6
2025-11-11T1400,3557A,119.9464,30.0494,杭州市,镇二中,,28,28,29,12,9,61,,50,50,25,23,5,5,0.5,0.6
2025-11-11T1400,3558A,119.7183,30.2367,杭州市,市府大楼,,,33,34,12,18,62,,55,55,,22,9,9,0.5,0.5
2025-11-11T1400,3656A,120.1556,30.2864,杭州市,消防大队,,33,33,37,12,13,67,,50,50,26,29,8,9,0.3,0.3
2025-11-11T1400,1270A,117.1959,31.7848,合肥市,明珠广场,,34,34,54,9,22,92,,60,60,16,22,8,8,0.6,0.6
2025-11-11T1400,1271A,117.3072,31.8764,合肥市,三里街,,29,29,46,14,20,85,,51,51,19,26,7,6,0.6,0.5
2025-11-11T1400,1272A,117.2588,31.8707,合肥市,琥珀山庄,,31,31,51,13,17,93,,62,62,14,22,7,6,0.6,0.5
2025-11-11T1400,1273A,117.1604,31.9052,合肥市,董铺水库,,,,,,,,,,,,,,,,
2025-11-11T1400,1274A,117.25,31.8571,合肥市,长江中路,,31,31,54,17,24,94,,60,60,13,20,6,6,0.6,0.6
2025-11-11T1400,1275A,117.266,31.9436,合肥市,庐阳区,,39,39,53,9,19,95,,60,60,15,24,6,5,0.8,0.7
2025-11-11T1400,1276A,117.3453,31.8616,合肥市,瑶海区,,34,34,49,17,18,86,,55,55,18,26,7,8,0.6,0.6
2025-11-11T1400,1277A,117.3027,31.7964,合肥市,包河区,,36,36,53,17,22,80,,48,48,17,44,7,8,0.6,0.6
2025-11-11T1400,1278A,117.2776,31.7385,合肥市,滨湖新区,,31,31,55,14,27,87,,60,60,13,23,6,6,0.5,0.5
2025-11-11T1400,1279A,117.1318,31.8403,合肥市,高新区,,34,34,54,9,20,90,,58,58,14,23,5,5,0.7,0.7
2025-11-11T1400,3464A,117.3803,31.9147,合肥市,高教基地,,34,34,45,16,18,98,,63,63,15,19,9,9,0.6,0.5
2025-11-11T1400,3614A,79.924,37.0877,和田地区,地区环保局,细颗粒物(PM2.5),117,178,250,88,127,85,,58,58,12,28,6,10,1.0,1.6
2025-11-11T1400,3615A,79.9131,37.113,和田地区,市环保局,颗粒物(PM10),115,179,283,63,112,72,,33,33,23,52,1,6,0.1,1.2
2025-11-11T1400,2516A,108.2011,24.715,河池市,东仁乐园,,,,,,,,,,,,,,,,
2025-11-11T1400,2517A,108.0497,24.6947,河池市,市环保站,,20,8,9,3,3,62,,52,52,5,7,7,8,0.5,0.6
2025-11-11T1400,2518A,108.0983,24.6989,河池市,市疾控中心,,19,6,6,3,3,60,,55,55,5,7,3,4,0.6,0.6
2025-11-11T1400,1696A,114.6778,23.7569,河源市,源西,,,,,,,,,,,,,,,,
2025-11-11T1400,1697A,114.6944,23.7586,河源市,东埔,,25,25,12,13,9,72,,54,54,8,9,4,5,0.6,0.6
2025-11-11T1400,1698A,114.6892,23.7233,河源市,老城,,43,38,15,30,8,69,,51,51,7,7,5,5,0.6,0.7
2025-11-11T1400,1718A,115.4208,35.2464,菏泽市,气象局,颗粒物(PM10),63,76,84,41,46,112,,67,67,15,32,4,3,0.4,0.4
2025-11-11T1400,3374A,115.5564,35.0891,菏泽市,定陶老年大学,颗粒物(PM10),56,61,69,34,37,103,,60,60,22,34,5,4,0.5,0.4
2025-11-11T1400,4184A,115.4797,35.24401,菏泽市,永昌路1号,颗粒物(PM10),62,73,73,35,41,111,,69,69,21,33,6,4,0.4,0.4
2025-11-11T1400,4193A,115.4715,35.2800,菏泽市,长城路999号,颗粒物(PM10),56,62,68,23,32,106,,68,68,20,33,5,3,0.3,0.5
2025-11-11T1400,2514A,111.5264,24.4172,贺州市,环保小区,,,6,11,3,9,65,,48,48,,8,8,5,0.5,0.6
2025-11-11T1400,2515A,111.5608,24.4078,贺州市,政协大楼,,19,14,14,3,7,59,,43,43,8,8,5,4,0.6,0.7
2025-11-11T1400,3534A,111.4744,24.4553,贺州市,西湾,,18,8,12,3,6,57,,46,46,7,7,4,4,0.8,0.8
2025-11-11T1400,2385A,114.17,35.9019,鹤壁市,市监测站,细颗粒物(PM2.5),110,129,127,83,81,81,,41,41,33,28,15,5,1.5,0.9
2025-11-11T1400,2386A,114.2956,35.7511,鹤壁市,市交警支队,细颗粒物(PM2.5),114,165,137,86,75,91,,47,47,36,45,11,5,0.8,0.7
2025-11-11T1400,2387A,114.2878,35.7306,鹤壁市,迎宾馆,细颗粒物(PM2.5),117,161,148,88,73,105,,46,46,31,41,15,9,0.9,0.7
2025-11-11T1400,3474A,114.2617,35.6822,鹤壁市,大新区,细颗粒物(PM2.5),133,184,122,101,76,101,,44,44,37,47,11,6,0.8,0.7
2025-11-11T1400,3596A,114.1572,35.9603,鹤壁市,南山宾馆,细颗粒物(PM2.5),118,161,142,89,80,102,,68,68,34,25,37,9,1.9,0.8
2025-11-11T1400,2244A,130.2537,47.3416,鹤岗市,哈啤分公司,,22,15,21,12,13,70,,63,63,3,5,12,12,0.5,0.5
2025-11-11T1400,2245A,130.2684,47.3086,鹤岗市,斯达机电,,22,16,23,13,12,69,,65,62,8,8,12,12,0.6,0.5
2025-11-11T1400,2246A,130.3114,47.3388,鹤岗市,东山纸板厂,,23,8,25,3,12,73,,56,56,6,11,12,12,0.6,0.7
2025-11-11T1400,2247A,130.1097,47.3382,鹤岗市,五号水库,,,,,,,,,,,,,,,,
2025-11-11T1400,2263A,127.4833,50.2524,黑河市,交通局,,18,15,22,8,17,57,,46,46,14,21,4,4,0.3,0.4
2025-11-11T1400,2264A,127.5144,50.2341,黑河市,环保局,,,20,27,15,22,48,,43,43,,27,11,11,0.4,0.5
2025-11-11T1400,2265A,127.5291,50.2472,黑河市,大黑河岛,,,,,,,,,,,,,,,,
2025-11-11T1400,1074A,115.6838,37.7541,衡水市,电机北厂,细颗粒物(PM2.5),120,140,115,91,68,106,,45,45,23,35,19,10,0.9,0.5
2025-11-11T1400,1075A,115.6303,37.7316,衡水市,市监测站,细颗粒物(PM2.5),120,120,100,91,62,98,,43,43,30,45,16,10,0.8,0.5
2025-11-11T1400,3188A,115.6683,37.7217,衡水市,市城管局,颗粒物(PM10),97,143,112,70,61,99,,38,38,29,42,19,12,1.0,0.6
2025-11-11T1400,3459A,115.5989,37.5491,衡水市,地表水厂,细颗粒物(PM2.5),138,153,111,105,73,85,,39,39,44,57,15,9,0.7,0.5
2025-11-11T1400,2456A,112.5003,26.9167,衡阳市,原169医院,,,,,,,,,,,,,,,,
2025-11-11T1400,2457A,112.6194,26.9258,衡阳市,衡阳化工总厂,颗粒物(PM10),58,66,23,40,14,68,,60,60,18,18,6,6,0.8,0.8
2025-11-11T1400,2458A,112.6211,26.8956,衡阳市,珠晖区环保局,颗粒物(PM10),56,61,23,22,12,67,,59,59,15,17,9,10,1.0,1.1
2025-11-11T1400,2459A,112.6197,26.8733,衡阳市,市委党校,颗粒物(PM10),53,56,22,20,10,69,,60,60,11,14,6,4,0.7,0.8
2025-11-11T1400,2460A,112.6006,26.8919,衡阳市,市监测站,颗粒物(PM10),63,76,25,39,15,70,,64,64,14,15,5,5,0.9,0.9
2025-11-11T1400,2461A,112.5664,26.9056,衡阳市,真空机电公司,颗粒物(PM10),58,65,24,38,14,74,,64,64,8,11,6,6,0.8,0.9
2025-11-11T1400,3399A,112.6703,26.882,衡阳市,师范学院,颗粒物(PM10),58,65,25,30,14,76,,67,67,13,14,8,8,0.8,0.9
2025-11-11T1400,2608A,103.3772,23.3993,红河哈尼族彝族自治州,污水处理厂,,16,13,18,7,14,50,,29,29,4,10,5,15,0.3,0.4
2025-11-11T1400,2609A,103.3861,23.35,红河哈尼族彝族自治州,监测站,,16,7,15,3,8,49,,31,31,2,5,6,7,0.4,0.4
2025-11-11T1400,3038A,103.3758,23.368,红河哈尼族彝族自治州,州图书馆,,15,7,12,3,5,48,,28,28,3,6,3,5,0.3,0.5
2025-11-11T1400,1090A,111.6507,40.7517,呼和浩特市,呼市一监,颗粒物(PM10),74,97,60,43,29,46,,26,26,32,43,14,9,0.6,0.8
2025-11-11T1400,1091A,111.6572,40.8033,呼和浩特市,小召,颗粒物(PM10),78,105,65,45,33,47,,26,26,42,54,18,11,0.6,0.8
2025-11-11T1400,1094A,111.7516,40.8369,呼和浩特市,如意水处理厂,颗粒物(PM10),76,101,65,43,28,48,,20,20,39,53,20,13,0.7,0.7
2025-11-11T1400,1095A,111.7276,40.8062,呼和浩特市,二十九中,颗粒物(PM10),74,98,63,41,30,50,,24,24,33,49,18,12,0.5,0.7
2025-11-11T1400,1096A,111.5512,40.7866,呼和浩特市,工大金川校区,颗粒物(PM10),84,117,79,43,30,46,,19,19,38,52,18,11,0.6,0.7
2025-11-11T1400,1097A,111.717,40.7612,呼和浩特市,化肥厂生活区,颗粒物(PM10),67,84,65,40,29,48,,23,23,39,49,15,9,0.6,0.9
2025-11-11T1400,3698A,111.5968,40.8178,呼和浩特市,红旗小学,颗粒物(PM10),75,100,70,43,31,47,,27,27,40,56,20,13,0.6,0.9
2025-11-11T1400,3699A,111.6518,40.8389,呼和浩特市,海东办,颗粒物(PM10),71,92,68,39,32,46,,23,23,37,48,15,9,0.7,0.8
2025-11-11T1400,3061A,119.7512,49.1577,呼伦贝尔市,国华电力东,,20,15,24,7,16,61,,50,50,10,12,10,9,0.3,0.3
2025-11-11T1400,4279A,119.7569,49.2222,呼伦贝尔市,伊敏大街东7号,,20,15,19,9,16,62,,49,49,3,7,5,5,0.3,0.3
2025-11-11T1400,1250A,120.0751,30.8669,湖州市,城西水厂,,,27,24,13,10,84,,80,80,,20,8,8,0.3,0.4
2025-11-11T1400,2873A,120.0830,30.8929,湖州市,仁皇山新区,,28,28,23,8,7,82,,78,78,20,21,6,6,0.4,0.4
2025-11-11T1400,2907A,120.1844,30.8596,湖州市,吴兴区站,,30,30,32,8,8,68,,62,62,19,22,7,7,0.4,0.4
2025-11-11T1400,3562A,120.4148,30.8538,湖州市,南浔区站,,25,19,23,3,8,79,,67,67,20,26,9,10,0.3,0.4
2025-11-11T1400,1607A,120.9049,40.7211,葫芦岛市,龙港区,,26,26,39,6,18,60,,39,39,12,35,9,18,0.3,0.6
2025-11-11T1400,1608A,120.8392,40.7514,葫芦岛市,化工街,,31,31,40,19,16,51,,35,35,16,34,54,18,0.3,0.6
2025-11-11T1400,1609A,120.8341,40.7073,葫芦岛市,新区,,18,17,33,3,15,56,,35,35,10,33,6,12,0.4,0.8
2025-11-11T1400,1610A,120.8695,40.7677,葫芦岛市,东城区,,20,20,38,12,20,54,,36,36,19,38,23,18,0.4,0.8
2025-11-11T1400,2482A,109.5981,27.5721,怀化市,林科所,,,,,,,,,,,,,,,,
2025-11-11T1400,2483A,109.9453,27.5444,怀化市,河西地税局,,37,37,32,20,17,65,,58,58,8,7,5,4,0.4,0.4
2025-11-11T1400,2484A,109.9781,27.5342,怀化市,市四医院,,47,47,38,19,17,60,,48,48,5,6,5,7,0.3,0.4
2025-11-11T1400,2485A,109.9972,27.5578,怀化市,监测楼,,39,39,31,18,16,66,,49,49,7,20,2,3,0.1,0.2
2025-11-11T1400,2486A,110.0394,27.583,怀化市,市委党校,,,35,27,19,16,69,,54,54,7,8,9,8,,0.2
2025-11-11T1400,1210A,119.036,33.5981,淮安市,钵池山,,28,22,35,15,20,88,,65,65,14,29,8,8,0.3,0.4
2025-11-11T1400,1211A,119.007,33.575,淮安市,北京南路,,27,24,36,15,17,86,,61,61,7,20,8,8,0.3,0.4
2025-11-11T1400,1212A,118.989,33.6067,淮安市,市监测站,,29,14,30,3,10,90,,68,68,15,25,8,7,0.4,0.4
2025-11-11T1400,1213A,119.135,33.5039,淮安市,楚州区监测站,,29,17,32,10,13,91,,72,72,10,25,8,9,0.3,0.4
2025-11-11T1400,3426A,118.8755,33.2894,淮安市,新华书店,,27,23,37,6,10,84,,62,62,13,29,8,10,0.4,0.4
2025-11-11T1400,4206A,119.0288,33.6319,淮安市,承德北路606号,,28,19,45,14,22,87,,59,59,10,32,7,7,0.3,0.4
2025-11-11T1400,2282A,116.8004,33.975,淮北市,监测站,,45,45,61,18,22,86,,55,55,20,33,9,9,0.4,0.5
2025-11-11T1400,2283A,116.8091,33.9007,淮北市,烈山区政府,,30,22,51,19,29,94,,66,66,21,29,9,9,0.3,0.4
2025-11-11T1400,3330A,116.8873,33.9836,淮北市,杜集区检察院,,50,50,59,24,29,94,,66,66,16,28,7,5,0.2,0.3
2025-11-11T1400,4017A,116.7923,33.9535,淮北市,市博物馆,,40,40,58,3,13,89,,62,62,16,29,8,8,0.3,0.3
2025-11-11T1400,2277A,116.8305,32.7727,淮南市,潘集区政府,,33,33,64,14,36,96,,63,63,8,21,6,6,0.4,0.4
2025-11-11T1400,2279A,116.8569,32.5951,淮南市,谢家集区政府,,,,46,8,19,96,,73,73,10,31,7,8,,0.4
2025-11-11T1400,2280A,116.8281,32.633,淮南市,八公山区政府,,31,28,58,7,23,98,,63,63,12,23,8,8,0.3,0.3
2025-11-11T1400,2281A,116.6325,32.6201,淮南市,焦岗湖风景区管理处,,,,,,,,,,,,,,,,
2025-11-11T1400,2894A,117.0566,32.6531,淮南市,经济技术开发区消防队,,29,28,61,8,19,92,,61,61,10,32,6,7,0.1,0.2
2025-11-11T1400,3329A,117.0108,32.5893,淮南市,山南新区,,32,19,48,3,7,100,,74,74,12,24,4,4,0.1,0.2
2025-11-11T1400,4209A,117.0031,32.6445,淮南市,国庆中路369号,,29,13,47,6,20,90,,59,59,8,28,8,10,0.4,0.5
2025-11-11T1400,2446A,114.9028,30.4742,黄冈市,职工中心,,,50,59,23,34,118,,79,79,9,15,4,4,,0.4
2025-11-11T1400,2929A,114.8858,30.4519,黄冈市,红卫路,颗粒物(PM10),58,66,56,34,37,117,,79,79,9,16,6,5,0.4,0.5
2025-11-11T1400,3398A,114.9136,30.4445,黄冈市,市林业局,颗粒物(PM10),51,52,63,30,37,122,,82,82,10,16,4,4,0.5,0.5
2025-11-11T1400,2672A,102.0199,35.5102,黄南藏族自治州,同仁县隆务镇,,33,33,45,22,18,82,,58,58,5,4,11,10,0.4,0.3
2025-11-11T1400,2295A,118.2903,29.6963,黄山市,延安路89号,,28,,48,19,31,89,,75,72,6,10,4,4,0.3,0.5
2025-11-11T1400,2297A,118.1371,30.2756,黄山市,黄山区政府5号楼,,29,27,57,17,32,91,,63,63,7,9,5,6,0.4,0.6
2025-11-11T1400,4210A,118.3354,29.7203,黄山市,滨江东路7-2号,,42,42,68,12,36,85,,70,68,8,11,4,4,0.3,0.5
2025-11-11T1400,2423A,115.0601,30.2313,黄石市,沈家营,颗粒物(PM10),55,60,71,28,32,120,,73,73,3,10,8,8,0.5,0.6
2025-11-11T1400,2426A,114.8988,30.2019,黄石市,铁山,,,,70,,37,,,59,,,29,,6,,0.6
2025-11-11T1400,2427A,115.0307,30.2092,黄石市,团城山,,35,30,62,24,32,105,,73,73,5,15,6,7,0.6,0.6
2025-11-11T1400,3149A,115.0235,30.1578,黄石市,笔架山北路,颗粒物(PM10),62,73,93,27,34,118,,72,72,1,15,3,4,0.7,0.7
2025-11-11T1400,4185A,115.0780,30.21118,黄石市,磁湖东路29号,颗粒物(PM10),52,54,69,30,37,113,,70,70,5,14,9,9,0.4,0.5
2025-11-11T1400,1392A,114.4183,23.0528,惠州市,河南岸金山湖子站,,23,23,17,12,9,72,,48,48,14,15,10,11,0.6,0.7
2025-11-11T1400,1393A,114.4053,23.0822,惠州市,下埔横江三路子站,,29,24,18,12,8,92,,63,63,6,7,4,6,0.7,0.7
2025-11-11T1400,1394A,114.4103,23.1142,惠州市,江北云山西路子站,,23,21,15,11,8,72,,50,50,10,11,5,6,0.5,0.5
2025-11-11T1400,1395A,114.4645,22.7833,惠州市,惠阳区承修路船湖子站,,22,22,19,10,10,62,,45,45,14,14,9,10,0.8,0.8
2025-11-11T1400,1396A,114.5317,22.7422,惠州市,大亚湾管委会子站,,20,20,16,12,11,57,,43,43,11,10,11,10,0.6,0.6
2025-11-11T1400,3314A,114.4338,22.8134,惠州市,惠阳秋长,,27,27,21,10,10,70,,52,52,9,9,16,16,0.7,0.7
2025-11-11T1400,3452A,114.6517,22.775,惠州市,大亚湾霞涌,,21,21,21,12,11,50,,39,39,8,8,10,10,0.6,0.6
2025-11-11T1400,2240A,130.9762,45.3001,鸡西市,环保局,,,34,28,28,20,67,,58,58,,9,5,6,0.5,0.6
2025-11-11T1400,2243A,130.9429,45.3039,鸡西市,第一中学,,22,17,34,11,22,68,,58,58,4,8,6,6,0.5,0.5
2025-11-11T1400,3707A,131.0207,45.3073,鸡西市,欧美日汽修厂,,25,25,30,15,22,63,,48,48,8,12,7,8,0.5,0.6
2025-11-11T1400,3709A,130.9967,45.3106,鸡西市,市政设施管理处,,37,37,31,19,23,66,,52,52,7,16,7,8,0.6,0.7
2025-11-11T1400,2367A,114.9754,27.0803,吉安市,红声器材厂,颗粒物(PM10),58,65,54,28,25,100,,81,81,17,17,8,8,0.7,0.7
2025-11-11T1400,2368A,114.9658,27.0999,吉安市,市森林工业局,颗粒物(PM10),58,66,54,31,27,89,,73,73,15,16,9,8,0.6,0.6
2025-11-11T1400,2369A,114.99,27.1312,吉安市,市环境监测站,,49,49,54,26,27,97,,78,78,13,12,14,13,0.6,0.6
2025-11-11T1400,2370A,115.0093,27.0968,吉安市,青原区法院,颗粒物(PM10),55,59,50,30,26,97,,78,78,14,16,10,10,0.8,0.8
2025-11-11T1400,1772A,126.54,43.8622,吉林市,哈达湾,细颗粒物(PM2.5),100,90,106,75,81,85,,56,56,14,32,9,17,0.6,0.9
2025-11-11T1400,1773A,126.5844,43.8358,吉林市,东局子,细颗粒物(PM2.5),134,121,102,102,84,87,,42,42,20,29,15,13,0.8,0.9
2025-11-11T1400,1774A,126.5052,43.8245,吉林市,电力学院,细颗粒物(PM2.5),94,75,119,70,95,80,,51,51,13,34,11,13,0.6,1
2025-11-11T1400,1775A,126.6133,43.8972,吉林市,江北,细颗粒物(PM2.5),83,82,113,61,97,70,,45,45,23,31,8,7,0.5,0.8
2025-11-11T1400,1776A,126.555,43.8306,吉林市,江南公园,细颗粒物(PM2.5),139,110,109,106,86,80,,41,41,20,35,15,13,0.6,0.8
2025-11-11T1400,1778A,126.7061,43.7133,吉林市,丰满,,,,,,,,,,,,,,,,
2025-11-11T1400,2868A,126.4739,43.953,吉林市,九站,,,71,126,67,95,80,,49,49,14,39,,11,0.5,0.8
2025-11-11T1400,1299A,116.9862,36.6114,济南市,科干所,颗粒物(PM10),67,83,60,34,25,116,,93,93,18,18,12,10,0.5,0.4
2025-11-11T1400,1300A,116.9376,36.665,济南市,农科所,颗粒物(PM10),62,73,68,27,24,93,,63,63,27,34,12,9,0.6,0.6
2025-11-11T1400,1301A,117.1265,36.6734,济南市,开发区,颗粒物(PM10),64,78,64,37,31,112,,68,68,22,29,7,5,0.7,0.6
2025-11-11T1400,1303A,117.0624,36.6868,济南市,省种子仓库,颗粒物(PM10),69,88,84,39,34,112,,59,59,23,47,10,9,0.6,0.8
2025-11-11T1400,1304A,116.9489,36.6447,济南市,机床二厂,颗粒物(PM10),69,88,78,42,35,102,,64,64,24,34,13,11,0.3,0.3
2025-11-11T1400,1305A,117.0495,36.663,济南市,市监测站,颗粒物(PM10),66,81,68,42,30,112,,65,65,21,37,6,4,0.8,0.8
2025-11-11T1400,1306A,116.7675,36.5484,济南市,长清党校,颗粒物(PM10),56,61,68,15,29,101,,78,78,19,26,10,10,0.6,0.6
2025-11-11T1400,1616A,117.6795,36.229,济南市,技术学院,细颗粒物(PM2.5),70,85,82,51,44,100,,46,46,24,47,19,16,0.9,1.3
2025-11-11T1400,1961A,117.532,36.6868,济南市,东山小学,颗粒物(PM10),67,83,71,37,29,123,,66,66,15,37,11,9,0.5,0.5
2025-11-11T1400,3059A,117.7161,36.2049,济南市,泰兴公司,颗粒物(PM10),68,85,85,41,44,105,,50,50,19,45,16,11,0.5,0.6
2025-11-11T1400,3064A,117.6867,36.2171,济南市,莱芜战役纪念馆,细颗粒物(PM2.5),72,73,83,52,47,105,,48,48,22,44,19,14,0.9,0.9
2025-11-11T1400,3494A,117.1673,36.9782,济南市,济阳区政府,颗粒物(PM10),67,83,84,42,30,103,,55,55,20,45,11,9,0.5,0.5
2025-11-11T1400,3495A,117.1171,36.63,济南市,锦屏中学,颗粒物(PM10),59,68,58,34,24,114,,90,90,21,20,5,4,0.5,0.8
2025-11-11T1400,3682A,116.9814,36.6819,济南市,济南四建,颗粒物(PM10),62,73,65,32,30,106,,70,70,18,28,10,8,0.7,0.7
2025-11-11T1400,1653A,116.6251,35.4302,济宁市,火炬城,,43,43,68,29,48,109,,61,61,7,26,9,9,0.1,0.2
2025-11-11T1400,1655A,116.5491,35.4042,济宁市,电化厂,颗粒物(PM10),63,76,90,29,45,107,,64,64,17,34,8,10,0.2,0.3
2025-11-11T1400,3500A,116.5814,35.3707,济宁市,北湖一中,,47,47,56,27,44,105,,63,63,11,24,10,10,0.3,0.4
2025-11-11T1400,3501A,116.8249,35.5593,济宁市,服务中心,颗粒物(PM10),62,73,90,32,39,94,,53,53,17,30,10,9,0.4,0.4
2025-11-11T1400,3678A,116.5907,35.4054,济宁市,市第七中学,,47,47,68,12,36,116,,66,66,8,29,10,12,0.2,0.5
2025-11-11T1400,2255A,130.2751,46.8028,佳木斯市,佳纺,,,,27,19,14,67,,46,46,9,11,,5,0.4,0.4
2025-11-11T1400,2256A,130.3995,46.8307,佳木斯市,发电厂,,32,32,22,17,12,68,,51,51,8,12,7,7,0.5,0.5
2025-11-11T1400,2257A,130.3258,46.7975,佳木斯市,环保局,,32,25,20,22,16,71,,49,49,8,13,3,4,0.3,0.3
2025-11-11T1400,2258A,130.3648,46.8032,佳木斯市,十一中,,33,23,19,23,14,65,,46,46,8,14,7,7,0.4,0.4
2025-11-11T1400,2259A,130.3794,46.7588,佳木斯市,四丰,,,,,,,,,,,,,,,,
2025-11-11T1400,1252A,120.7436,30.778,嘉兴市,清河小学,,23,23,28,8,11,71,,59,59,17,25,7,8,0.2,0.3
2025-11-11T1400,1253A,120.726,30.7478,嘉兴市,嘉兴学院,,24,24,27,8,8,68,,58,58,26,30,5,6,0.2,0.3
2025-11-11T1400,2872A,120.7846,30.7525,嘉兴市,南湖区残联,,23,21,24,6,8,71,,59,59,19,23,6,6,0.4,0.6
2025-11-11T1400,3407A,120.6916,30.7739,嘉兴市,秀洲住建,,26,26,27,6,8,67,,60,60,25,31,8,9,0.4,0.4
2025-11-11T1400,1945A,98.2908,39.7711,嘉峪关市,气象局,颗粒物(PM10),71,92,100,24,29,81,,60,46,17,29,27,24,0.7,0.7
2025-11-11T1400,2884A,98.2672,39.7978,嘉峪关市,酒钢宾馆,颗粒物(PM10),62,73,113,24,34,67,,52,50,24,22,51,36,1.5,0.9
2025-11-11T1400,3248A,98.2643,39.7724,嘉峪关市,雄关区,颗粒物(PM10),63,75,84,26,34,76,,52,40,21,33,29,25,0.8,0.7
2025-11-11T1400,1383A,113.1064,22.6058,江门市,北街,,31,31,20,9,10,67,,42,42,21,20,6,7,0.6,0.5
2025-11-11T1400,1384A,113.0731,22.5835,江门市,西区,,29,29,20,9,9,67,,39,39,17,19,6,6,0.8,0.7
2025-11-11T1400,1385A,113.0219,22.5311,江门市,圭峰西,,,27,18,8,8,71,,38,,,15,6,6,,0.6
2025-11-11T1400,1386A,113.0828,22.5947,江门市,东湖,,20,20,18,9,10,57,,36,36,18,18,7,8,0.5,0.5
2025-11-11T1400,3311A,113.1075,22.5647,江门市,江海富民,,24,24,22,7,10,68,,42,42,23,22,10,10,0.7,0.7
2025-11-11T1400,3449A,113.05,22.4667,江门市,新会银湖,,,25,20,10,10,62,,37,37,18,18,6,6,,0.7
2025-11-11T1400,1830A,113.1992,35.2590,焦作市,影视城,,,,113,,46,,,76,,,24,,19,,0.7
2025-11-11T1400,3335A,113.3137,35.2641,焦作市,马村街道办,细颗粒物(PM2.5),110,130,156,83,83,88,,47,47,29,39,11,8,0.8,0.7
2025-11-11T1400,3336A,113.2465,35.2373,焦作市,焦作技师学院,细颗粒物(PM2.5),100,128,148,75,78,82,,42,42,32,46,9,8,0.8,0.8
2025-11-11T1400,3477A,113.1656,35.2539,焦作市,中站许衡医院,细颗粒物(PM2.5),98,129,120,73,60,96,,59,59,28,30,12,11,0.8,0.7
2025-11-11T1400,3981A,113.2449,35.1803,焦作市,原李万街道办,细颗粒物(PM2.5),92,131,166,68,81,84,,46,46,25,46,16,11,0.8,0.7
2025-11-11T1400,4264A,113.2340,35.2190,焦作市,新安路1731号,细颗粒物(PM2.5),103,135,165,77,85,90,,45,45,23,43,13,11,1.1,1
2025-11-11T1400,4295A,113.2722,35.2121,焦作市,人民路3066号,细颗粒物(PM2.5),89,126,152,66,70,80,,38,38,22,41,11,7,1.0,0.9
2025-11-11T1400,1708A,116.3701,23.5345,揭阳市,新兴,,31,31,27,15,17,58,,48,48,13,15,8,8,0.6,0.7
2025-11-11T1400,1709A,116.3264,23.5443,揭阳市,西马,,34,34,29,14,16,56,,41,41,12,14,4,4,0.6,0.7
2025-11-11T1400,1710A,116.3611,23.5626,揭阳市,东兴,,36,36,31,13,14,50,,38,38,14,18,5,6,0.3,0.5
2025-11-11T1400,1711A,116.4151,23.5294,揭阳市,渔湖,,34,34,22,12,10,62,,56,56,13,11,6,6,0.6,0.6
2025-11-11T1400,3320A,116.403,23.5699,揭阳市,曲溪,,22,22,20,14,12,70,,63,63,7,9,2,2,0.5,0.5
2025-11-11T1400,1944A,102.1692,38.5167,金昌市,天庆家园,颗粒物(PM10),54,58,148,17,57,78,,44,44,7,30,3,13,0.5,0.9
2025-11-11T1400,4022A,102.1647,38.5371,金昌市,金川区人防中心,颗粒物(PM10),65,79,132,19,57,80,,50,50,6,26,4,12,0.5,1
2025-11-11T1400,4239A,102.1930,38.5319,金昌市,长春路96号,颗粒物(PM10),53,56,136,16,53,81,,54,54,5,25,6,28,0.5,0.8
2025-11-11T1400,1262A,119.647,29.077,金华市,十五中,,25,25,48,12,22,77,,55,55,14,22,3,3,0.3,0.4
2025-11-11T1400,1263A,119.686,29.1029,金华市,监测站,,29,29,45,13,19,76,,60,56,21,28,2,2,0.4,0.5
2025-11-11T1400,3659A,119.656,29.1131,金华市,气象局,,30,30,44,12,18,54,,49,42,33,28,4,4,0.5,0.6
2025-11-11T1400,1767A,121.1115,41.0879,锦州市,南山,,19,19,34,11,24,56,,41,41,16,35,7,17,0.5,0.9
2025-11-11T1400,1768A,121.0604,40.8428,锦州市,开发区,,18,12,43,10,20,56,,43,43,11,33,8,16,0.4,0.7
2025-11-11T1400,1769A,121.1836,41.1119,锦州市,百股街道,,,25,43,,22,57,,42,42,11,32,8,18,0.5,0.9
2025-11-11T1400,1770A,121.1178,41.1222,锦州市,天安街道,,31,31,46,13,32,56,,38,38,13,32,8,18,0.5,1
2025-11-11T1400,1771A,121.1303,41.1386,锦州市,北湖公园,,30,30,41,12,24,54,,36,36,16,32,11,17,0.4,0.9
2025-11-11T1400,2160A,112.85,35.5051,晋城市,自来水公司,,46,46,106,14,40,82,,44,44,18,32,9,10,0.7,1
2025-11-11T1400,2161A,112.8318,35.4936,晋城市,白云商贸,,47,47,114,7,29,85,,47,47,18,33,4,5,0.6,0.8
2025-11-11T1400,2162A,112.8508,35.4887,晋城市,市环保局,颗粒物(PM10),56,61,110,19,40,87,,48,48,11,26,7,7,0.7,1
2025-11-11T1400,2163A,112.8676,35.4897,晋城市,技术学院,颗粒物(PM10),52,54,107,17,42,77,,38,38,17,33,8,8,0.7,0.9
2025-11-11T1400,2165A,112.8453,35.546,晋城市,白马寺,,34,34,80,13,41,95,,67,67,10,21,9,11,0.4,0.8
2025-11-11T1400,3620A,112.8271,35.4828,晋城市,泽州一中,颗粒物(PM10),53,55,100,24,38,93,,54,54,16,33,5,5,0.4,0.6
2025-11-11T1400,2173A,112.7249,37.7067,晋中市,南都小区,颗粒物(PM10),71,91,115,40,45,75,,31,31,36,56,20,19,1.3,1.1
2025-11-11T1400,2174A,112.6991,37.6982,晋中市,榆次区政府,细颗粒物(PM2.5),70,78,132,51,61,78,,29,29,29,51,18,17,0.8,1.3
2025-11-11T1400,2865A,112.7195,37.6828,晋中市,榆次三中,颗粒物(PM10),68,85,116,34,44,76,,29,29,29,49,23,19,1.1,1.1
2025-11-11T1400,4200A,112.7478,37.6954,晋中市,迎宾街26号,颗粒物(PM10),68,85,112,36,46,84,,36,36,28,47,18,17,1.0,1.2
2025-11-11T1400,2439A,112.2014,31.0481,荆门市,竹园小学,颗粒物(PM10),66,81,91,40,43,116,,85,85,16,21,2,2,0,0
2025-11-11T1400,2440A,112.1969,30.9891,荆门市,掇刀,细颗粒物(PM2.5),140,,91,107,24,122,,95,95,10,15,1,2,0.4,0.4
2025-11-11T1400,2441A,112.2213,31.0386,荆门市,石化一小,,,93,98,42,45,110,,79,79,13,19,,4,0,0
2025-11-11T1400,3012A,112.1849,31.0362,荆门市,西山林语,颗粒物(PM10),69,87,96,37,42,118,,90,90,10,13,7,6,0.4,0.6
2025-11-11T1400,3547A,112.1632,31.0138,荆门市,龙泉中学南校,颗粒物(PM10),70,90,100,35,42,120,,99,99,16,17,8,8,0.2,0.4
2025-11-11T1400,1844A,112.2494,30.3197,荆州市,市图书馆,细颗粒物(PM2.5),63,49,57,45,31,110,,77,77,11,16,6,6,0.5,0.7
2025-11-11T1400,1845A,112.2008,30.3544,荆州市,市委党校,细颗粒物(PM2.5),62,54,62,44,30,101,,70,70,13,18,7,6,0.5,0.6
2025-11-11T1400,3194A,112.2747,30.3122,荆州市,管委会,细颗粒物(PM2.5),59,54,57,42,30,102,,72,72,13,14,7,6,0.4,0.5
2025-11-11T1400,4268A,112.1722,30.3366,荆州市,学苑路85号,颗粒物(PM10),55,60,59,33,34,120,,86,86,10,13,10,8,0.2,0.3
2025-11-11T1400,2342A,117.3102,29.3867,景德镇市,王港中学,,,,,,,,,,,,,,,,
2025-11-11T1400,2343A,117.2117,29.2933,景德镇市,老干部活动中心,,,42,47,23,28,78,,68,68,,6,4,4,0.4,0.5
2025-11-11T1400,2344A,117.1894,29.2789,景德镇市,兽医站,颗粒物(PM10),53,56,56,21,24,88,,80,80,6,8,6,6,0.4,0.5
2025-11-11T1400,2346A,117.2461,29.2956,景德镇市,陶研所,,40,39,44,28,30,85,,73,73,3,4,7,7,0.3,0.3
2025-11-11T1400,4289A,117.1542,29.2566,景德镇市,青少年活动中心,,42,42,52,28,28,86,,76,76,7,9,4,3,0.4,0.5
2025-11-11T1400,1803A,115.9872,29.6815,九江市,十里,颗粒物(PM10),54,57,69,23,36,110,,89,77,19,18,9,7,0.8,0.7
2025-11-11T1400,1804A,115.9584,29.7046,九江市,茅山头,,44,44,65,25,34,96,,77,67,16,16,4,5,0.7,0.7
2025-11-11T1400,1805A,115.9877,29.7295,九江市,西园,,42,42,58,19,28,113,,87,78,25,28,5,5,0.7,0.7
2025-11-11T1400,1808A,115.9114,29.6038,九江市,综合工业园,细颗粒物(PM2.5),52,49,65,36,38,104,,85,72,22,21,4,4,0.6,0.5
2025-11-11T1400,1809A,116.0721,29.7535,九江市,石化总厂,,,56,73,16,31,108,,77,72,,18,6,6,0.6,0.7
2025-11-11T1400,1810A,115.9773,29.5698,九江市,庐山气象台,,,,,,,,,,,,,,,,
2025-11-11T1400,3190A,116.0254,29.6994,九江市,外国语学校,,47,47,64,25,30,91,,61,58,28,30,5,5,0.5,0.5
2025-11-11T1400,4253A,116.0102,29.6594,九江市,莲花大道8号,颗粒物(PM10),60,70,73,33,33,95,,71,65,15,13,8,7,0.5,0.6
2025-11-11T1400,4240A,98.4958,39.7339,酒泉市,玉门东路5号,颗粒物(PM10),67,83,110,13,30,81,,46,46,12,26,18,15,0.5,0.6
2025-11-11T1400,4241A,98.5099,39.7506,酒泉市,北大街108号,颗粒物(PM10),68,85,111,6,35,79,,44,44,8,27,19,18,0.6,0.7
2025-11-11T1400,2698A,76.0072,39.4467,喀什地区,巡警大队,颗粒物(PM10),192,334,390,140,142,67,,13,13,38,73,13,14,0.9,2.2
2025-11-11T1400,2699A,75.9755,39.4694,喀什地区,吾办,颗粒物(PM10),248,383,343,149,159,56,,15,15,43,66,11,10,1.0,1.9
2025-11-11T1400,4027A,75.9483,39.4689,喀什地区,老干局,细颗粒物(PM2.5),114,,286,86,119,53,,12,12,52,63,11,7,1.6,2.5
2025-11-11T1400,1824A,114.3389,34.7781,开封市,肿瘤医院,颗粒物(PM10),57,64,94,30,55,80,,49,49,26,44,10,10,0.6,0.7
2025-11-11T1400,1826A,114.2885,34.7965,开封市,世纪星幼儿园,细颗粒物(PM2.5),82,,91,60,73,81,,55,55,26,39,10,9,0.6,0.7
2025-11-11T1400,3147A,114.3438,34.8106,开封市,龙亭公园,细颗粒物(PM2.5),68,50,98,49,68,86,,57,57,21,36,10,10,0.2,0.4
2025-11-11T1400,3210A,114.3644,34.7964,开封市,汴京公园,细颗粒物(PM2.5),64,63,105,46,63,80,,52,52,25,44,10,9,0.5,0.7
2025-11-11T1400,3473A,114.2485,34.8306,开封市,技师学院,细颗粒物(PM2.5),73,60,84,53,65,85,,66,66,23,29,9,9,0.8,0.9
2025-11-11T1400,3592A,114.4644,34.7556,开封市,祥符区生态环境局,细颗粒物(PM2.5),73,87,126,53,68,91,,54,54,29,54,7,7,0.6,0.7
2025-11-11T1400,1951A,84.895,45.6094,克拉玛依市,长征新村,,26,26,30,15,8,57,,59,46,10,13,1,2,0.5,0.4
2025-11-11T1400,1952A,84.8988,45.5893,克拉玛依市,南林小区,,17,13,26,9,9,54,,53,43,4,7,5,4,0.2,0.2
2025-11-11T1400,1954A,84.905,44.3396,克拉玛依市,独山子区,,33,33,67,18,43,67,,58,47,11,19,8,7,0.4,0.5
2025-11-11T1400,1955A,85.6979,46.098,克拉玛依市,乌尔禾区商贸楼,,29,29,29,3,6,62,,53,47,3,10,5,6,0.3,0.4
2025-11-11T1400,3612A,85.1045,45.6899,克拉玛依市,白碱滩区新站,,36,,45,25,19,73,,56,42,6,16,6,6,0.3,0.3
2025-11-11T1400,2697A,76.1454,39.7142,克孜勒苏柯尔克孜自治州,市人民政府,细颗粒物(PM2.5),169,246,274,128,119,95,,57,57,16,29,8,19,0.2,0.5
2025-11-11T1400,3665A,76.1658,39.7157,克孜勒苏柯尔克孜自治州,克州文化中心,颗粒物(PM10),149,248,269,86,105,92,,57,57,13,38,9,25,0.4,0.9
2025-11-11T1400,1450A,102.8204,24.8886,昆明市,呈贡新区,,27,,19,15,11,84,,39,39,6,17,5,5,0.7,0.8
2025-11-11T1400,1451A,102.6251,24.9608,昆明市,西山森林公园,,,,,,,,,,,,,,,,
2025-11-11T1400,1452A,102.7252,25.0902,昆明市,龙泉镇,,27,,24,3,8,85,,33,33,6,11,3,3,0.3,0.5
2025-11-11T1400,1453A,102.7266,25.0375,昆明市,东风东路,,28,10,21,8,15,88,,35,35,9,20,1,2,0.3,0.6
2025-11-11T1400,1454A,102.6742,25.0669,昆明市,金鼎山,,,10,30,7,11,84,,29,29,,17,2,2,0.3,0.5
2025-11-11T1400,1455A,102.6644,25.0401,昆明市,碧鸡广场,,,,25,,16,80,,27,27,,20,3,2,0.4,0.6
2025-11-11T1400,3179A,102.7494,25.0119,昆明市,官渡区博物馆,,28,,23,12,10,87,,34,34,6,18,2,3,0.2,0.8
2025-11-11T1400,3375A,102.8017,24.8336,昆明市,青年创业园,,26,10,13,8,7,83,,40,40,2,10,2,2,0.7,0.7
2025-11-11T1400,3550A,102.7997,24.9786,昆明市,昆明学院,,27,11,19,6,11,84,,38,38,10,17,1,2,0.4,0.6
2025-11-11T1400,3551A,102.5967,24.6736,昆明市,晋宁区生态环境分局,,28,10,16,3,7,87,,46,46,5,11,8,6,0.4,0.5
2025-11-11T1400,3552A,102.6678,24.9856,昆明市,云天化总部,,27,8,15,3,10,84,,35,35,5,16,5,5,0.5,0.7
2025-11-11T1400,1456A,91.1319,29.6514,拉萨市,八廓街,,30,24,28,15,20,95,,66,66,13,25,7,7,0.2,0.4
2025-11-11T1400,1457A,91.1221,29.6747,拉萨市,市环保局,,,22,41,6,21,,,46,46,14,22,8,9,,0.8
2025-11-11T1400,1458A,91.0874,29.6475,拉萨市,区监测站,,29,19,21,8,13,92,,60,60,17,38,5,6,0.3,0.5
2025-11-11T1400,1459A,91.1774,29.6541,拉萨市,西藏大学,,30,19,19,9,11,96,,61,61,16,25,5,6,0.3,0.3
2025-11-11T1400,1460A,90.9798,29.6588,拉萨市,区辐射站,,26,20,37,10,20,83,,41,41,16,32,6,7,0.4,0.5
2025-11-11T1400,1461A,91.0834,29.6292,拉萨市,拉萨火车站,,25,9,21,6,14,79,,35,35,16,32,6,6,0.4,0.7
2025-11-11T1400,2520A,109.2203,23.7256,来宾市,来宾技工学校,,21,20,11,3,3,66,,52,52,5,5,10,10,0.6,0.6
2025-11-11T1400,3535A,109.1781,23.7297,来宾市,兴宾区政府,,22,9,10,3,6,68,,54,54,5,5,9,8,0.6,0.5
2025-11-11T1400,4002A,109.2416,23.7461,来宾市,中南小学,,21,18,11,3,5,67,,53,53,6,6,8,8,0.6,0.6
2025-11-11T1400,1477A,104.1373,35.9454,兰州市,榆中兰大校区,,,,,,,,,,,,,,,,
2025-11-11T1400,1479A,103.831,36.0464,兰州市,铁路设计院,,,,,,,,,,,,,,,,
2025-11-11T1400,3241A,103.7439,36.0842,兰州市,百合公园,颗粒物(PM10),65,80,68,46,39,43,,14,14,38,42,14,5,1.2,1.2
2025-11-11T1400,3242A,103.9611,35.998,兰州市,和平,细颗粒物(PM2.5),72,81,64,52,36,33,,20,18,41,28,8,4,0.9,0.5
2025-11-11T1400,4236A,103.6293,36.0938,兰州市,庄浪东路808号,颗粒物(PM10),79,108,73,54,43,36,,18,18,69,47,21,12,1.1,0.7
2025-11-11T1400,4237A,103.7251,36.1043,兰州市,安宁西路88号,,,83,75,47,48,61,,22,22,,47,18,5,,0.8
2025-11-11T1400,4238A,103.8470,36.0676,兰州市,北滨河东路1号,颗粒物(PM10),60,69,62,40,35,27,,9,9,54,47,13,9,1.1,1.1
2025-11-11T1400,3245A,103.6633,36.533,兰州新区,新区管委会,细颗粒物(PM2.5),69,78,78,50,47,55,,28,28,17,17,20,14,0.6,0.6
2025-11-11T1400,3246A,103.6975,36.4789,兰州新区,舟曲中学,细颗粒物(PM2.5),69,79,77,50,44,64,,33,33,18,29,17,13,0.6,0.5
2025-11-11T1400,1067A,116.6708,39.5111,廊坊市,药材公司,细颗粒物(PM2.5),160,175,112,122,65,68,,25,25,68,60,28,7,0.9,0.8
2025-11-11T1400,1068A,116.7214,39.5589,廊坊市,开发区,细颗粒物(PM2.5),156,178,102,119,60,68,,22,22,62,59,9,4,0.7,0.7
2025-11-11T1400,1070A,116.7244,39.5269,廊坊市,北华航天学院,细颗粒物(PM2.5),160,184,122,122,69,72,,24,24,61,61,11,8,0.7,0.8
2025-11-11T1400,2919A,116.7022,39.5453,廊坊市,河北工业大学,细颗粒物(PM2.5),158,165,110,120,62,68,,21,21,59,60,10,6,0.7,0.7
2025-11-11T1400,2535A,103.7723,29.5462,乐山市,花湖湾,,,,,,,,,,,,,,,,
2025-11-11T1400,2536A,103.7627,29.5844,乐山市,牛耳桥,,29,29,31,19,18,38,,27,19,22,25,8,7,0.5,0.5
2025-11-11T1400,2537A,103.7508,29.6006,乐山市,市第三水厂,,,,31,,17,38,,28,23,22,24,7,7,,0.7
2025-11-11T1400,2538A,103.7571,29.5664,乐山市,市监测站,,36,36,30,19,18,33,,28,22,21,20,8,8,0.7,0.7
2025-11-11T1400,3361A,103.7311,29.5628,乐山市,理工大学,,35,35,30,21,18,45,,28,28,16,19,10,8,0.6,0.5
2025-11-11T1400,2598A,100.2143,26.8576,丽江市,西南郊,,25,19,15,8,6,78,,66,64,2,4,6,6,1.9,0.5
2025-11-11T1400,2599A,100.2497,26.8802,丽江市,丽江古城,,,22,17,8,4,78,,62,,,11,,8,0.3,0.3
2025-11-11T1400,2600A,100.2203,26.8906,丽江市,市中心,,26,15,11,3,5,82,,57,57,7,13,10,10,0.4,0.4
2025-11-11T1400,1267A,119.914,28.4514,丽水市,监测站大楼,,23,23,45,12,17,64,,68,57,10,11,5,5,0.4,0.5
2025-11-11T1400,1268A,119.93,28.4586,丽水市,莲都小学,,20,16,53,8,21,61,,66,59,11,13,4,4,0.3,0.4
2025-11-11T1400,1269A,119.879,28.4231,丽水市,余庄前,,20,18,44,9,22,62,,52,52,11,13,3,3,0.4,0.5
2025-11-11T1400,1173A,119.176,34.5885,连云港市,市环境监测站,,46,46,34,19,11,82,,45,43,24,23,11,9,0.6,0.6
2025-11-11T1400,3000A,119.3581,34.6972,连云港市,德源药业,,39,39,53,12,13,71,,24,24,25,45,7,5,0.4,0.5
2025-11-11T1400,3007A,119.178,34.844,连云港市,新城一中,颗粒物(PM10),54,57,52,27,18,92,,44,44,20,55,16,8,1.0,0.6
2025-11-11T1400,3008A,119.3608,34.7519,连云港市,胡沟管理处,,41,41,30,19,8,65,,32,30,32,45,12,12,0.4,0.4
2025-11-11T1400,3009A,119.1478,34.5911,连云港市,矿山设计院,,46,46,37,17,12,86,,38,34,14,16,8,7,0.5,0.5
2025-11-11T1400,3434A,119.2413,34.6539,连云港市,工贸学校,,49,49,29,22,10,78,,52,50,29,19,12,9,0.7,0.6
2025-11-11T1400,3664A,119.4172,34.7341,连云港市,连云街道,颗粒物(PM10),51,52,27,16,10,66,,52,32,37,28,9,8,0.3,0.2
2025-11-11T1400,2571A,102.3431,27.8099,凉山彝族自治州,青龙寺,,,,,,,,,,,,,,,,
2025-11-11T1400,2572A,102.2721,27.8415,凉山彝族自治州,邛海宾馆,,22,22,19,11,10,62,,36,36,4,13,5,7,0.4,0.5
2025-11-11T1400,2573A,102.2625,27.898,凉山彝族自治州,西昌市政府,,23,20,18,16,13,56,,33,33,10,11,8,9,0.6,0.6
2025-11-11T1400,2574A,102.2685,27.8851,凉山彝族自治州,凉山州政府,,20,20,21,14,14,57,,34,34,2,11,8,10,0.5,0.9
2025-11-11T1400,4229A,102.2342,27.8859,凉山彝族自治州,凯乐南路30号,,20,20,26,10,13,62,,30,30,7,20,7,8,0.5,0.7
2025-11-11T1400,2212A,123.2,41.1953,辽阳市,宏伟区,,38,38,69,20,23,66,,34,34,12,23,23,13,0.5,0.6
2025-11-11T1400,2213A,123.1683,41.2495,辽阳市,新华园,,32,32,40,14,22,59,,33,33,11,27,5,11,0.2,0.8
2025-11-11T1400,2214A,123.2354,41.2639,辽阳市,滨河路,,35,35,51,18,25,61,,30,30,13,32,8,11,0.4,0.6
2025-11-11T1400,2215A,123.149,41.2991,辽阳市,铁西工业园,,29,23,44,20,28,57,,29,29,15,28,12,10,0.5,0.7
2025-11-11T1400,2227A,125.1358,42.8845,辽源市,环保局,,,,109,,54,89,,55,55,16,33,8,8,0.4,0.7
2025-11-11T1400,3239A,125.0764,42.9078,辽源市,银鹰制药,细颗粒物(PM2.5),90,85,83,67,59,90,,52,52,12,35,7,8,0.6,0.9
2025-11-11T1400,1625A,115.9848,36.4372,聊城市,区政府,颗粒物(PM10),85,119,89,58,48,110,,62,62,26,36,14,12,0.7,0.6
2025-11-11T1400,2878A,116.0072,36.4343,聊城市,聊大东校,颗粒物(PM10),90,129,101,59,51,118,,67,67,28,37,14,10,0.7,0.7
2025-11-11T1400,3200A,115.9819,36.4978,聊城市,监控中心,颗粒物(PM10),92,133,90,61,48,116,,70,70,23,31,15,12,0.8,0.7
2025-11-11T1400,3513A,116.0445,36.4361,聊城市,九州社区,颗粒物(PM10),82,114,93,48,45,120,,72,72,18,28,6,5,0.5,0.5
2025-11-11T1400,4018A,116.0567,36.4608,聊城市,星美广场,颗粒物(PM10),82,114,92,41,41,119,,75,75,19,27,5,5,0.5,0.5
2025-11-11T1400,2632A,94.3681,29.6376,林芝市,林芝监测站,,24,7,12,3,5,76,,63,51,2,4,4,4,0.2,0.3
2025-11-11T1400,2633A,94.3616,29.6616,林芝市,林芝人民医院,,23,6,13,3,5,73,,58,50,2,4,6,6,0.3,0.3
2025-11-11T1400,2603A,100.0781,23.8982,临沧市,市环保局,,25,16,16,9,24,80,,40,40,4,5,7,8,0.6,0.7
2025-11-11T1400,2604A,100.0894,23.8822,临沧市,市气象局,,26,10,16,8,11,82,,43,43,7,7,9,10,0.5,0.6
2025-11-11T1400,1733A,111.5531,36.0783,临汾市,临钢医院,细颗粒物(PM2.5),127,179,108,96,38,63,,22,22,38,35,33,11,1.9,1
2025-11-11T1400,1734A,111.5028,36.0714,临汾市,技工学校,细颗粒物(PM2.5),109,139,113,82,44,57,,20,20,39,42,36,13,1.4,0.8
2025-11-11T1400,1736A,111.5018,36.0855,临汾市,市委,细颗粒物(PM2.5),108,162,137,81,42,54,,19,19,39,42,32,10,1.5,1
2025-11-11T1400,3018A,111.505,36.1014,临汾市,唐尧大酒店,细颗粒物(PM2.5),105,140,117,79,39,59,,18,18,36,39,30,9,1.4,1.4
2025-11-11T1400,4244A,111.4879,36.0530,临汾市,启星学校,,,,108,,37,60,,24,24,43,44,37,10,,1
2025-11-11T1400,4271A,103.2464,35.6123,临夏回族自治州,滨河东路1号,,,,88,,51,,,37,,,21,,4,,1.0
2025-11-11T1400,4310A,103.2093,35.5995,临夏回族自治州,新华街21号,细颗粒物(PM2.5),94,75,88,70,65,40,,14,14,14,21,12,10,0.9,1.1
2025-11-11T1400,1618A,118.3429,35.0532,临沂市,沂河小区,细颗粒物(PM2.5),67,75,60,48,36,112,,56,56,26,43,13,28,0.5,0.5
2025-11-11T1400,1619A,118.295,35.0583,临沂市,鲁南制药厂,细颗粒物(PM2.5),57,61,68,40,34,103,,51,51,23,48,14,18,0.4,0.6
2025-11-11T1400,1620A,118.2794,34.9976,临沂市,新光毛纺厂,细颗粒物(PM2.5),62,70,69,44,38,100,,53,53,22,47,14,16,0.4,0.6
2025-11-11T1400,1621A,118.3956,35.0888,临沂市,河东保险公司,颗粒物(PM10),63,75,80,43,40,106,,54,54,26,61,12,10,0.7,0.9
2025-11-11T1400,3370A,118.3564,35.0215,临沂市,十里堡居委,颗粒物(PM10),58,66,57,34,23,111,,60,60,26,51,15,30,0.5,0.6
2025-11-11T1400,3496A,118.3604,35.1084,临沂市,南坊新区,细颗粒物(PM2.5),64,75,60,46,29,117,,54,54,30,50,16,12,0.7,0.8
2025-11-11T1400,3860A,118.3920,35.0300,临沂市,皇山花园小区,细颗粒物(PM2.5),67,78,65,48,32,114,,60,60,22,52,16,15,0.5,0.6
2025-11-11T1400,1870A,109.4856,24.3895,柳州市,柳东小学,,18,6,10,3,5,55,,49,49,4,5,5,5,0.4,0.4
2025-11-11T1400,1871A,109.4157,24.3277,柳州市,环保监测站,,18,8,15,3,3,56,,48,48,6,7,9,8,0.8,0.7
2025-11-11T1400,1872A,109.389,24.341,柳州市,河西水厂,,19,17,13,6,7,59,,47,47,6,15,7,11,0.7,1.4
2025-11-11T1400,1873A,109.4311,24.2921,柳州市,市四中,,18,9,9,6,4,55,,47,47,8,8,9,9,0.7,0.7
2025-11-11T1400,1874A,109.4006,24.3631,柳州市,市九中,,18,16,13,6,5,57,,50,50,10,11,5,4,0.8,0.6
2025-11-11T1400,1875A,109.4958,24.3134,柳州市,古亭山,,22,22,9,7,4,55,,48,48,2,3,7,7,0.6,0.6
2025-11-11T1400,3402A,109.5422,24.3996,柳州市,市二中,,,15,8,7,4,53,,46,46,6,6,,7,0.6,0.7
2025-11-11T1400,2307A,116.5079,31.737,六安市,监测大楼,,43,43,55,12,29,104,,57,57,12,21,4,4,0.4,0.4
2025-11-11T1400,2308A,116.4738,31.7643,六安市,皖西学院,,39,39,65,15,32,108,,59,59,10,18,4,3,0.4,0.4
2025-11-11T1400,2309A,116.4996,31.7905,六安市,朝阳厂,,39,39,56,17,29,103,,56,56,14,22,5,4,0.4,0.4
2025-11-11T1400,2310A,116.5567,31.7886,六安市,开发区,,42,42,64,21,35,111,,58,58,12,23,3,2,0.4,0.4
2025-11-11T1400,2576A,104.8,26.5892,六盘水市,窑上,,33,33,24,16,10,45,,43,43,9,6,3,2,0.6,0.6
2025-11-11T1400,2577A,104.83,26.5917,六盘水市,黄土坡,,20,20,12,8,6,42,,47,45,13,13,5,5,0.8,0.7
2025-11-11T1400,2578A,104.89,26.5939,六盘水市,水钢,,36,36,14,18,6,31,,39,37,18,11,12,7,1.1,0.7
2025-11-11T1400,2579A,104.8475,26.5894,六盘水市,民中,,36,36,16,17,4,35,,40,36,15,12,4,3,0.5,0.4
2025-11-11T1400,2580A,104.9544,26.5506,六盘水市,双水,,27,27,13,17,8,41,,40,39,13,10,8,5,0.5,0.5
2025-11-11T1400,2335A,117.0189,25.1181,龙岩市,龙岩师专,,,,,,,,,,,,,,,,
2025-11-11T1400,2336A,117.0217,25.1033,龙岩市,龙岩市监测站,,23,23,20,13,8,68,,83,75,10,8,7,8,0.3,0.3
2025-11-11T1400,2337A,117.0258,25.0661,龙岩市,闽西职业技术学院,,24,24,19,9,8,76,,88,81,4,4,5,5,0.4,0.4
2025-11-11T1400,2338A,117.0196,25.0306,龙岩市,龙岩学院,,24,24,23,10,9,76,,87,78,6,6,6,7,0.4,0.3
2025-11-11T1400,2665A,105.0822,33.3261,陇南市,汉王镇固水子,,,,,,,,,,,,,,,,
2025-11-11T1400,2885A,104.9339,33.3826,陇南市,滨江中学,,32,32,48,18,23,53,,31,31,3,10,7,6,0.5,0.5
2025-11-11T1400,3247A,104.955,33.371,陇南市,市总工会,,37,37,42,19,18,50,,30,30,5,14,7,7,0.5,0.5
2025-11-11T1400,2487A,111.9589,27.8901,娄底市,电视发射台,,,,,,,,,,,,,,,,
2025-11-11T1400,2488A,111.9975,27.725,娄底市,市监测站,,,63,23,31,15,90,,72,72,2,11,9,10,,0.7
2025-11-11T1400,2489A,112.0194,27.7314,娄底市,市委党校,颗粒物(PM10),53,55,25,13,14,84,,73,73,6,9,5,6,0.5,0.6
2025-11-11T1400,2490A,111.9561,27.7569,娄底市,涟钢,,49,49,26,19,14,84,,71,71,7,8,8,8,0.3,0.4
2025-11-11T1400,2491A,111.9892,27.7044,娄底市,市政府,颗粒物(PM10),54,57,24,23,14,89,,72,72,7,11,9,9,0.7,0.9
2025-11-11T1400,1893A,105.4324,28.9634,泸州市,九狮山,,,,,,,,,,,,,,,,
2025-11-11T1400,1894A,105.4427,28.9063,泸州市,小市上码头,,25,25,24,13,12,25,,16,16,9,15,7,7,0.7,0.6
2025-11-11T1400,1895A,105.4241,28.8573,泸州市,兰田宪桥,,24,24,26,11,13,32,,21,21,7,12,5,6,0.5,0.5
2025-11-11T1400,1896A,105.4379,28.8833,泸州市,市环监站,,25,25,24,17,15,30,,18,18,10,16,6,6,0.6,0.5
2025-11-11T1400,4272A,105.3689,28.7783,泸州市,纳溪中医医院,,26,24,24,18,17,27,,19,19,15,15,6,5,0.5,0.5
2025-11-11T1400,2183A,111.1406,37.5211,吕梁市,环保局,颗粒物(PM10),55,60,110,19,29,74,,29,29,14,41,6,7,0.4,0.7
2025-11-11T1400,2185A,111.1297,37.5136,吕梁市,自来水公司,颗粒物(PM10),52,54,124,14,33,79,,28,28,14,42,2,6,0.4,0.7
2025-11-11T1400,2867A,111.1283,37.51,吕梁市,马茂庄小学,颗粒物(PM10),89,128,146,20,35,72,,28,28,18,45,4,9,0.5,0.8
2025-11-11T1400,1812A,112.3931,34.6516,洛阳市,市委党校,细颗粒物(PM2.5),83,111,138,61,75,82,,39,39,29,45,14,10,0.8,0.9
2025-11-11T1400,1815A,112.494,34.6886,洛阳市,河南林校,颗粒物(PM10),85,120,136,59,75,84,,34,34,32,47,13,10,0.8,0.8
2025-11-11T1400,1816A,112.3844,34.623,洛阳市,开发区管委会,细颗粒物(PM2.5),97,132,145,72,82,86,,35,35,26,36,13,9,0.8,0.8
2025-11-11T1400,1817A,112.4267,34.6258,洛阳市,市委新办公区,颗粒物(PM10),83,116,151,51,61,88,,36,36,27,46,12,10,0.7,0.8
2025-11-11T1400,3340A,112.6005,34.6326,洛阳市,伊滨,颗粒物(PM10),88,126,150,56,63,91,,40,40,19,36,13,8,0.7,0.6
2025-11-11T1400,3341A,112.4951,34.6332,洛阳市,中移产业园,颗粒物(PM10),82,113,146,57,74,97,,40,40,25,47,12,9,0.7,0.8
2025-11-11T1400,3593A,112.5736,34.8993,洛阳市,吉利监测站,细颗粒物(PM2.5),80,106,113,59,64,96,,46,46,24,36,12,8,0.8,0.7
2025-11-11T1400,3635A,112.3677,34.662,洛阳市,河科大西苑校区,颗粒物(PM10),79,107,136,48,70,92,,43,43,25,46,14,12,1.1,1.1
2025-11-11T1400,3636A,112.4388,34.6781,洛阳市,英才小学,颗粒物(PM10),90,130,160,66,88,82,,30,30,33,56,13,12,1.1,1.2
2025-11-11T1400,4214A,112.4600,34.6949,洛阳市,春都路1号院,颗粒物(PM10),88,125,140,52,66,68,,24,24,26,46,14,12,1.0,1.1
2025-11-11T1400,2399A,114.051,33.5699,漯河市,三五一五工厂,颗粒物(PM10),52,54,118,32,68,90,,56,56,11,25,7,8,0.3,0.6
2025-11-11T1400,2400A,114.0055,33.5698,漯河市,漯河大学,颗粒物(PM10),52,54,99,34,63,94,,63,63,18,28,7,8,0.3,0.5
2025-11-11T1400,2401A,114.0138,33.5828,漯河市,市水利局,,44,44,99,27,62,92,,60,60,16,24,8,8,0.5,0.7
2025-11-11T1400,2402A,114.0261,33.5698,漯河市,市广电局,,46,46,107,31,60,93,,61,61,13,25,6,7,0.4,0.6
2025-11-11T1400,3478A,113.9749,33.5664,漯河市,市图书馆,,,74,118,33,61,84,,56,56,16,25,5,6,,0.8
2025-11-11T1400,4250A,114.0892,33.5882,漯河市,韶山路11号,,37,37,114,23,67,83,,48,48,17,35,8,9,0.5,0.7
2025-11-11T1400,1798A,118.5092,31.6837,马鞍山市,湖东路四小,,30,26,37,8,11,94,,75,75,11,19,4,6,0.5,0.5
2025-11-11T1400,1799A,118.5024,31.6449,马鞍山市,开发区,,31,28,41,8,10,97,,74,74,15,21,3,5,0.5,0.5
2025-11-11T1400,1802A,118.6245,31.7241,马鞍山市,濮塘,,,,,,,,,,,,,,,,
2025-11-11T1400,3633A,118.4918,31.6809,马鞍山市,雨山,,31,24,40,8,10,98,,76,76,12,18,5,6,0.4,0.4
2025-11-11T1400,4191A,118.5274,31.72227,马鞍山市,慈湖高新区,,30,22,29,8,12,96,,77,77,13,17,4,4,0.4,0.5
2025-11-11T1400,1686A,111.0286,21.4688,茂名市,电白南海,颗粒物(PM10),53,56,39,19,16,81,,49,49,9,13,10,11,0.8,0.8
2025-11-11T1400,1687A,110.9294,21.6533,茂名市,茂石化七小,,27,27,28,12,13,66,,44,44,8,11,11,13,0.9,0.9
2025-11-11T1400,1688A,110.9107,21.6687,茂名市,健康路,,32,22,27,22,13,68,,47,47,8,12,10,18,1.0,1
2025-11-11T1400,1689A,110.8592,21.6828,茂名市,高岭,,39,39,38,7,12,64,,44,44,11,13,11,16,0.7,0.7
2025-11-11T1400,3450A,111.01,21.5165,茂名市,电白水东,,36,36,31,17,14,74,,45,45,10,13,8,10,0.9,1
2025-11-11T1400,2539A,104.0308,30.0478,眉山市,黑龙滩水库,,,,,,,,,,,,,,,,
2025-11-11T1400,2540A,103.8416,30.0874,眉山市,气象局,,43,43,40,19,15,40,,18,16,23,31,11,9,0.5,0.5
2025-11-11T1400,3137A,103.8578,30.0744,眉山市,市委党校,,39,39,24,14,8,36,,21,17,24,27,8,7,0.6,0.6
2025-11-11T1400,3148A,103.8291,30.0564,眉山市,区人社局,,42,42,39,19,12,32,,21,17,27,27,18,14,0.9,0.9
2025-11-11T1400,1690A,116.1231,24.3284,梅州市,梅江月梅,,31,31,18,13,8,66,,56,56,9,13,5,5,0.6,0.7
2025-11-11T1400,1691A,116.0797,24.2719,梅州市,梅县新城,,40,40,19,16,8,69,,58,58,10,11,7,7,0.5,0.6
2025-11-11T1400,1692A,116.1248,24.2654,梅州市,环境监控中心,,34,34,17,12,8,66,,54,54,8,11,5,5,0.5,0.6
2025-11-11T1400,3315A,116.1233,24.2991,梅州市,梅龙,,,31,16,16,9,59,,49,49,6,10,,7,0.6,0.7
2025-11-11T1400,1878A,104.7778,31.4741,绵阳市,富乐山,,39,39,20,16,12,58,,23,23,10,14,9,9,0.5,0.6
2025-11-11T1400,1880A,104.6697,31.4668,绵阳市,高新区自来水公司,,48,48,32,22,15,54,,17,17,13,22,8,8,0.5,0.5
2025-11-11T1400,1881A,104.7287,31.5075,绵阳市,三水厂,,36,36,25,19,14,60,,21,21,8,19,8,8,0.5,0.6
2025-11-11T1400,3491A,104.69,31.5322,绵阳市,西科大附属小学,,48,48,34,18,15,71,,24,24,10,22,10,10,0.4,0.5
2025-11-11T1400,3492A,104.5648,31.5343,绵阳市,安州区旅游局,,39,39,23,17,12,50,,19,19,11,13,7,9,0.5,0.5
2025-11-11T1400,4226A,104.7651,31.4531,绵阳市,绵阳市气象局,,39,39,24,9,11,54,,18,18,10,18,7,7,0.5,0.6
2025-11-11T1400,1784A,129.61,44.561,牡丹江市,环保大楼,,,,33,,26,69,,44,44,,14,5,5,0.3,0.4
2025-11-11T1400,1785A,129.6115,44.5782,牡丹江市,文化广场,,41,41,35,20,28,67,,45,45,10,13,6,7,0.4,0.4
2025-11-11T1400,1786A,129.5904,44.5963,牡丹江市,第一医院,细颗粒物(PM2.5),62,44,37,44,37,70,,45,45,7,13,3,3,0.3,0.4
2025-11-11T1400,1787A,129.6364,44.6075,牡丹江市,机车工厂,细颗粒物(PM2.5),55,42,37,39,25,67,,44,44,12,17,5,6,0.3,0.4
2025-11-11T1400,1788A,129.6386,44.5462,牡丹江市,第一中学,,50,,27,35,20,65,,42,42,7,11,4,3,0.3,0.3
2025-11-11T1400,2531A,105.0703,29.61,内江市,市监测站,,33,33,22,20,11,30,,38,30,19,12,4,3,0.8,0.7
2025-11-11T1400,2532A,105.0717,29.5947,内江市,东兴区政府,,24,24,16,10,7,27,,30,22,20,14,5,5,0.3,0.3
2025-11-11T1400,2533A,105.0653,29.5817,内江市,内江二中,,,23,18,20,10,29,,29,22,,15,4,4,0.6,0.6
2025-11-11T1400,2534A,105.0406,29.5822,内江市,内江日报社,,23,,16,16,10,35,,28,24,13,14,4,4,0.4,0.4
2025-11-11T1400,2628A,92.0657,31.4846,那曲市,那曲监测站,,32,26,59,14,35,102,,50,50,4,30,7,13,0.4,1.3
2025-11-11T1400,4243A,92.0515,31.4787,那曲市,那曲市委宣传部,,33,33,33,3,18,95,,47,47,3,22,6,9,0.4,1
2025-11-11T1400,1290A,115.8931,28.6843,南昌市,省外办,颗粒物(PM10),56,61,70,31,39,94,,79,74,14,17,5,5,0.8,0.9
2025-11-11T1400,1291A,115.8886,28.7003,南昌市,省林业公司,,,56,66,27,37,97,,86,81,,14,7,4,1.0,1.1
2025-11-11T1400,1292A,115.8126,28.7442,南昌市,林科所,颗粒物(PM10),58,66,69,31,35,94,,89,80,12,13,4,4,0.7,0.8
2025-11-11T1400,1294A,115.8518,28.687,南昌市,建工学校,颗粒物(PM10),59,67,82,31,40,93,,82,75,18,20,9,9,0.6,0.7
2025-11-11T1400,1295A,115.8921,28.6424,南昌市,象湖,,48,48,69,31,38,99,,83,77,15,19,9,9,0.7,0.8
2025-11-11T1400,1296A,115.7423,28.7996,南昌市,武术学校,,,,,,,,,,,,,,,,
2025-11-11T1400,3046A,115.9084,28.6062,南昌市,机电学校,颗粒物(PM10),60,69,82,36,43,106,,90,84,16,18,8,8,0.5,0.6
2025-11-11T1400,3690A,115.9721,28.7031,南昌市,外国语学校,颗粒物(PM10),55,59,77,30,45,104,,84,77,18,22,10,10,0.6,0.7
2025-11-11T1400,4192A,115.9316,28.68677,南昌市,南京东路235号,颗粒物(PM10),56,62,84,30,41,103,,88,80,18,18,6,7,0.6,0.7
2025-11-11T1400,1905A,106.056,30.8064,南充市,西山风景区,,,,,,,,,,,,,,,,
2025-11-11T1400,1906A,106.0789,30.8023,南充市,南充市委,,40,40,27,26,16,27,,17,14,16,16,4,4,0.4,0.4
2025-11-11T1400,1907A,106.1031,30.8217,南充市,南充炼油厂,颗粒物(PM10),52,53,37,26,20,23,,23,12,17,11,6,6,0.5,0.4
2025-11-11T1400,4227A,106.1083,30.7884,南充市,梨树横街98号,,41,41,30,13,14,33,,27,18,17,13,5,5,0.4,0.4
2025-11-11T1400,4304A,106.1172,30.843,南充市,清泉寺北路188号,,40,40,27,16,11,22,,26,14,18,10,7,7,0.5,0.4
2025-11-11T1400,4305A,106.067,30.7616,南充市,同庆路1号,,44,44,27,24,13,25,,19,11,17,18,7,6,0.4,0.5
2025-11-11T1400,1151A,118.8086,32.1065,南京市,迈皋桥,,28,21,29,9,12,87,,65,65,18,26,3,4,0.8,0.9
2025-11-11T1400,1152A,118.7538,32.0551,南京市,草场门,,29,29,38,7,12,71,,56,56,22,30,3,5,0.3,0.4
2025-11-11T1400,1153A,118.7794,32.0745,南京市,山西路,,,29,42,3,9,86,,62,62,,25,,4,0.2,0.3
2025-11-11T1400,1154A,118.7752,32.0023,南京市,中华门,,28,27,36,9,12,89,,73,73,13,21,3,4,0.2,0.3
2025-11-11T1400,1155A,118.8109,32.0309,南京市,瑞金路,,,6,29,3,11,82,,70,70,,15,4,4,0.6,0.7
2025-11-11T1400,1156A,118.7997,32.0754,南京市,玄武湖,,29,29,34,6,9,77,,56,56,17,19,4,4,0.4,0.3
2025-11-11T1400,1157A,118.6414,32.0931,南京市,浦口,,48,48,42,8,15,84,,60,60,18,28,7,8,0.2,0.3
2025-11-11T1400,1158A,118.7356,31.9996,南京市,奥体中心,,31,31,39,14,13,88,,75,75,18,26,6,6,0.4,0.5
2025-11-11T1400,1159A,118.9125,32.1028,南京市,仙林大学城,,31,31,45,9,10,77,,56,56,10,23,5,6,0.4,0.5
2025-11-11T1400,3422A,118.8436,31.9198,南京市,江宁彩虹桥,,37,37,36,9,11,102,,81,81,8,20,4,4,0.4,0.5
2025-11-11T1400,3427A,118.8554,32.3578,南京市,六合雄州,,29,27,26,3,9,92,,70,70,13,20,4,5,0.3,0.3
2025-11-11T1400,4249A,118.8708,31.3402,南京市,汶溪路181号,,,47,43,32,21,77,,58,58,22,28,,6,0.5,0.6
2025-11-11T1400,4312A,119.019,31.6512,南京市,中山西路1号,,39,39,36,18,16,72,,59,59,17,18,4,4,0.6,0.5
2025-11-11T1400,1401A,108.3103,22.7881,南宁市,二十一中,,25,25,19,8,9,64,,37,37,8,13,3,4,0.7,0.7
2025-11-11T1400,1402A,108.3141,22.8528,南宁市,北湖,,21,14,20,10,8,65,,36,36,6,12,7,8,0.6,0.7
2025-11-11T1400,1403A,108.3206,22.8225,南宁市,市监测站,,18,18,21,10,10,54,,29,29,12,16,7,8,0.7,0.7
2025-11-11T1400,1404A,108.3829,22.8037,南宁市,大自然花园,,24,24,20,7,7,66,,38,38,7,12,7,7,0.6,0.7
2025-11-11T1400,1405A,108.4394,22.7904,南宁市,仙葫,,,,,,,,,,,,,,,,
2025-11-11T1400,1406A,108.2397,22.8467,南宁市,区农职院,,,18,16,8,8,56,,34,34,6,9,,4,0.7,0.7
2025-11-11T1400,1407A,108.3275,22.735,南宁市,英华嘉园,,23,23,20,9,9,64,,37,37,8,14,2,3,0.6,0.6
2025-11-11T1400,3401A,108.4834,22.7618,南宁市,红星社区,,20,16,14,10,6,63,,46,46,8,10,5,5,0.5,0.6
2025-11-11T1400,4221A,108.2177,22.7774,南宁市,乐贤路16号,,19,12,20,3,7,58,,37,37,5,10,6,7,0.5,0.5
2025-11-11T1400,2331A,118.0966,26.6761,南平市,茫荡山,,,,26,,,,,75,,,,,1,,0.3
2025-11-11T1400,2332A,118.1681,26.6369,南平市,南平市监测站,,20,17,29,10,17,64,,73,63,6,10,3,4,0.5,0.5
2025-11-11T1400,2333A,118.1825,26.6489,南平市,南平铝业有限公司,,,19,33,16,14,64,,75,66,,12,4,3,,0.5
2025-11-11T1400,2334A,118.1756,26.6272,南平市,南平七中,,21,18,32,9,13,65,,75,68,6,8,6,5,0.5,0.5
2025-11-11T1400,1168A,120.9098,31.9663,南通市,狼山街道,,26,15,32,3,9,81,,62,62,10,22,2,3,0.4,0.5
2025-11-11T1400,1169A,120.86,32.0005,南通市,虹桥,,26,13,25,3,10,83,,64,64,9,20,3,4,0.4,0.5
2025-11-11T1400,1170A,120.87,32.02,南通市,城中,,25,25,36,3,12,77,,57,57,12,26,3,5,0.2,0.3
2025-11-11T1400,1171A,120.94,31.93,南通市,星湖花园,,27,21,32,3,12,84,,65,65,8,21,3,4,0.2,0.4
2025-11-11T1400,1172A,120.81,32.0417,南通市,紫琅学院,,25,18,40,3,11,79,,55,55,12,28,3,5,0.4,0.5
2025-11-11T1400,3291A,121.067,32.062,南通市,通州监测站,,28,7,19,3,9,89,,71,71,10,17,2,2,0.3,0.4
2025-11-11T1400,3432A,120.9348,31.9883,南通市,环境教育馆,,27,19,31,3,12,85,,60,60,8,26,3,4,0.3,0.4
2025-11-11T1400,2404A,112.5224,33.0122,南阳市,瓦房庄,颗粒物(PM10),61,72,104,38,55,108,,69,69,11,21,9,8,0.5,0.7
2025-11-11T1400,2405A,112.5003,32.9735,南阳市,汉画馆,颗粒物(PM10),57,63,95,36,51,102,,56,56,13,26,7,6,0.5,0.6
2025-11-11T1400,2406A,112.5573,33.027,南阳市,气象站,颗粒物(PM10),69,87,119,41,49,109,,69,69,13,24,8,7,0.4,0.5
2025-11-11T1400,2407A,112.5481,32.9689,南阳市,理工学院,颗粒物(PM10),61,72,105,28,43,109,,64,64,12,23,7,7,0.5,0.6
2025-11-11T1400,4008A,112.5234,32.9922,南阳市,卧龙区政府,颗粒物(PM10),60,69,110,41,54,101,,64,64,14,25,7,7,0.5,0.6
2025-11-11T1400,1234A,121.8358,29.911,宁波市,区环保大楼,,27,27,31,6,11,63,,67,60,21,23,5,6,0.4,0.4
2025-11-11T1400,1235A,121.56,29.82,宁波市,万里学院,,24,24,30,6,7,76,,69,63,16,19,7,7,0.5,0.5
2025-11-11T1400,1236A,121.713,29.9572,宁波市,龙赛医院,,25,23,27,3,3,77,,70,63,10,17,4,4,0.4,0.4
2025-11-11T1400,1239A,121.633,29.7733,宁波市,钱湖水厂,,23,23,27,6,7,71,,63,63,15,17,6,7,0.3,0.4
2025-11-11T1400,1240A,121.5856,29.8635,宁波市,太古小学,,24,20,26,8,7,76,,69,63,17,20,3,4,0.4,0.5
2025-11-11T1400,1241A,121.524,29.8674,宁波市,市环境监测中心,,24,19,28,6,9,76,,62,60,12,16,10,10,0.3,0.4
2025-11-11T1400,2871A,121.6147,29.9017,宁波市,万里国际学校,,24,21,28,8,6,76,,72,63,15,17,4,4,0.4,0.5
2025-11-11T1400,3710A,121.5594,29.8975,宁波市,白沙活动中心,,23,20,30,3,2,71,,61,58,14,18,5,5,0.3,0.3
2025-11-11T1400,2339A,119.5001,26.6946,宁德市,金涵水库,,,,45,,18,,,60,,,7,,2,,0.4
2025-11-11T1400,2341A,119.5388,26.6612,宁德市,宁德市监测站,,21,21,41,10,20,67,,78,65,10,12,5,6,0.3,0.3
2025-11-11T1400,3209A,119.5231,26.6562,宁德市,宁德一中,,22,22,43,14,17,69,,82,70,9,9,6,6,0.3,0.3
2025-11-11T1400,2618A,98.8601,25.8567,怒江傈僳族自治州,州监测站,,21,10,22,6,15,65,,39,39,5,9,7,7,0.2,0.3
2025-11-11T1400,2619A,98.8546,25.8417,怒江傈僳族自治州,泸水一中,,29,,16,20,9,54,,27,27,8,15,6,6,0.4,0.5
2025-11-11T1400,1888A,101.6891,26.571,攀枝花市,弄弄坪,,37,37,36,15,15,88,,39,39,22,25,4,3,1.2,1.3
2025-11-11T1400,1889A,101.5769,26.5928,攀枝花市,河门口,,27,17,22,10,13,84,,37,37,13,15,22,15,1.5,0.9
2025-11-11T1400,1890A,101.7169,26.585,攀枝花市,炳草岗,,35,35,41,12,19,93,,33,33,15,32,19,11,1.3,1.2
2025-11-11T1400,1891A,101.7369,26.5008,攀枝花市,仁和,,28,26,26,15,14,87,,38,38,10,16,19,13,0.7,0.8
2025-11-11T1400,2835A,101.7227,26.567,攀枝花市,四十中小,,37,37,40,21,20,88,,29,29,14,32,26,17,1.3,1.7
2025-11-11T1400,1604A,122.0303,41.1489,盘锦市,开发区,,20,16,19,10,10,62,,45,45,8,16,5,4,0.2,0.3
2025-11-11T1400,1605A,122.0485,41.0883,盘锦市,兴隆台,,30,30,21,11,10,60,,42,42,12,21,9,8,0.2,0.3
2025-11-11T1400,1606A,121.8297,41.1028,盘锦市,新生街道,,22,22,18,13,9,61,,41,41,15,24,8,8,0.2,0.2
2025-11-11T1400,1832A,113.3257,33.742,平顶山市,新华旅馆,细颗粒物(PM2.5),98,125,127,73,68,92,,60,60,31,40,13,11,0.6,0.6
2025-11-11T1400,1833A,113.2919,33.737,平顶山市,规划设计院,细颗粒物(PM2.5),105,135,127,79,70,104,,77,77,23,30,24,10,0.6,0.7
2025-11-11T1400,1834A,113.182,33.774,平顶山市,平顶山工学院,细颗粒物(PM2.5),110,131,120,83,66,100,,66,66,29,33,10,9,0.5,0.4
2025-11-11T1400,3204A,113.3025,33.73,平顶山市,规划局,颗粒物(PM10),89,127,130,63,62,102,,74,74,21,28,36,12,0.6,0.6
2025-11-11T1400,3594A,112.8867,33.9116,平顶山市,石龙区,颗粒物(PM10),93,135,148,52,61,117,,58,58,17,39,10,9,0.6,0.7
2025-11-11T1400,2656A,106.6692,35.5461,平凉市,聚贤嘉苑,颗粒物(PM10),65,80,79,34,37,62,,26,26,15,25,6,5,0.5,0.6
2025-11-11T1400,2657A,106.7021,35.5307,平凉市,博物馆,颗粒物(PM10),56,62,75,35,40,69,,26,26,14,30,12,10,0.7,0.8
2025-11-11T1400,2347A,114.0997,27.5002,萍乡市,武功山,,,,,,,,,,,,,,,,
2025-11-11T1400,2348A,113.8385,27.6434,萍乡市,中医院,颗粒物(PM10),60,69,26,25,15,50,,52,43,19,21,4,5,0.8,0.9
2025-11-11T1400,2349A,113.8493,27.6253,萍乡市,市政府车库,颗粒物(PM10),56,62,24,33,16,44,,54,42,20,22,6,7,0.6,0.8
2025-11-11T1400,2350A,113.8676,27.6435,萍乡市,市环保局,颗粒物(PM10),51,51,27,29,15,52,,60,46,14,16,6,8,0.6,0.7
2025-11-11T1400,2351A,113.866,27.6198,萍乡市,安源区政府,,47,47,22,32,17,48,,50,41,17,19,9,10,0.7,0.8
2025-11-11T1400,2319A,119.0141,25.4325,莆田市,荔城区仓后路,,22,13,33,3,12,70,,85,71,9,7,4,4,0.4,0.4
2025-11-11T1400,2320A,119.0015,25.4553,莆田市,莆田市监测站,,25,7,26,3,10,77,,88,77,6,6,3,4,0.4,0.5
2025-11-11T1400,2321A,119.1119,25.4561,莆田市,涵江区六中,,26,7,30,3,11,82,,88,80,5,6,2,2,0.4,0.5
2025-11-11T1400,2322A,119.1013,25.3215,莆田市,秀屿区政府,,25,19,41,3,17,77,,86,76,8,7,4,4,0.3,0.3
2025-11-11T1400,2323A,118.981,25.4792,莆田市,东圳水库,,,,22,,7,,,103,,,5,,3,,0.6
2025-11-11T1400,2392A,115.0312,35.7636,濮阳市,环保局,细颗粒物(PM2.5),83,92,71,61,48,105,,60,60,28,34,11,10,0.6,0.6
2025-11-11T1400,2394A,115.0574,35.7609,濮阳市,油田运输公司,细颗粒物(PM2.5),83,108,87,61,50,115,,63,63,23,31,14,12,0.8,0.8
2025-11-11T1400,3021A,115,35.7668,濮阳市,濮水河管理处,细颗粒物(PM2.5),103,118,90,77,62,108,,55,55,26,30,11,8,0.1,0.1
2025-11-11T1400,4216A,115.0924,35.7686,濮阳市,任丘路479号,细颗粒物(PM2.5),84,110,97,62,56,109,,54,54,22,41,14,12,0.7,0.7
2025-11-11T1400,2601A,100.98,22.7633,普洱市,市环保局,,29,29,25,11,13,48,,35,35,2,5,5,5,0.5,0.7
2025-11-11T1400,2602A,100.9817,22.8322,普洱市,普洱第二中学,,19,15,24,11,12,59,,35,35,4,7,5,4,0.2,0.4
2025-11-11T1400,2262A,131.0518,45.8751,七台河市,新一中,,,,,,,,,,,,,,,,
2025-11-11T1400,3345A,131.0577,45.7879,七台河市,中波台,,26,26,32,14,23,62,,47,47,5,15,6,8,0.4,0.5
2025-11-11T1400,3637A,131.0176,45.7761,七台河市,人民广场,,24,24,35,14,27,65,,50,50,9,16,7,7,0.4,0.5
2025-11-11T1400,3684A,130.8781,45.8222,七台河市,新建矿广场,,,,38,,26,55,,39,39,9,13,6,8,0.3,0.5
2025-11-11T1400,1779A,123.9305,47.3636,齐齐哈尔市,安居小区,,23,16,24,16,12,64,,44,44,6,14,4,5,0.4,0.5
2025-11-11T1400,1780A,123.9488,47.3386,齐齐哈尔市,中心广场,,20,11,20,3,11,64,,43,43,9,18,6,7,0.4,0.5
2025-11-11T1400,1781A,123.9483,47.3227,齐齐哈尔市,农牧车辆厂,,17,17,33,7,10,50,,34,34,21,18,4,6,0.3,0.5
2025-11-11T1400,1783A,123.945,47.2988,齐齐哈尔市,市环境监测站,,,19,31,15,16,61,,35,35,6,18,6,7,,0.7
2025-11-11T1400,3662A,123.6333,47.2075,齐齐哈尔市,富区青少年活动中心,,20,19,44,14,27,50,,37,37,22,33,7,7,0.4,0.8
2025-11-11T1400,2591A,107.9783,26.5747,黔东南苗族侗族自治州,市环境监测站,,26,23,11,18,9,58,,58,58,5,6,4,4,0.5,0.6
2025-11-11T1400,2881A,107.8908,26.5311,黔东南苗族侗族自治州,凯里学院,,20,17,10,12,7,64,,60,60,8,9,3,4,0.7,0.7
2025-11-11T1400,2593A,107.5228,26.2403,黔南布依族苗族自治州,小围寨,,15,6,2,3,1,48,,45,45,3,4,4,5,0.5,0.6
2025-11-11T1400,3538A,107.5175,26.2978,黔南布依族苗族自治州,沙坝,,18,12,8,3,3,55,,52,52,5,6,4,4,0.6,0.6
2025-11-11T1400,2589A,104.9022,25.0925,黔西南布依族苗族自治州,场坝街,,19,12,16,6,9,58,,40,40,7,9,6,6,0.5,0.6
2025-11-11T1400,2590A,104.8811,25.0992,黔西南布依族苗族自治州,坪东大道,,17,12,14,7,8,54,,36,36,6,8,2,2,0.5,0.6
2025-11-11T1400,2502A,108.6236,21.9667,钦州市,市环保站,,21,7,20,3,8,65,,48,48,6,10,3,4,0.6,0.9
2025-11-11T1400,2503A,108.6549,21.9481,钦州市,沙埠小学,,22,19,21,8,9,69,,52,52,6,8,4,4,0.6,0.7
2025-11-11T1400,2504A,108.5989,21.7431,钦州市,港区一小,,22,22,31,10,13,58,,41,41,14,20,5,6,0.7,0.8
2025-11-11T1400,3404A,108.5959,21.9633,钦州市,北职校,,20,9,17,3,8,64,,48,48,3,6,5,6,0.6,0.7
2025-11-11T1400,1043A,119.7493,40.0116,秦皇岛市,第一关,,20,15,61,8,35,62,,50,50,12,49,7,10,0.3,0.6
2025-11-11T1400,1044A,119.5897,39.9499,秦皇岛市,监测站,,33,33,68,15,27,54,,47,47,22,45,8,11,0.4,0.8
2025-11-11T1400,1046A,119.5251,39.9041,秦皇岛市,建设大厦,,29,29,67,11,31,57,,49,49,17,42,5,9,0.2,0.6
2025-11-11T1400,3132A,119.610547,39.943889,秦皇岛市,文明里,,31,31,64,3,26,52,,47,47,15,40,9,12,0.1,0.5
2025-11-11T1400,4198A,119.5090,39.8253,秦皇岛市,北戴河轮滑馆,,19,16,68,3,30,59,,46,46,4,32,5,7,0.2,0.7
2025-11-11T1400,1307A,120.6659,36.2403,青岛市,仰口,,,,,,,,,,,,,,,,
2025-11-11T1400,1310A,120.4134,36.0658,青岛市,市南区东部子站,颗粒物(PM10),63,75,45,22,16,52,,37,37,48,35,13,10,0.6,0.5
2025-11-11T1400,1311A,120.3664,36.1032,青岛市,四方区子站,颗粒物(PM10),70,90,54,34,25,69,,38,38,29,34,8,7,0.5,0.4
2025-11-11T1400,1312A,120.2994,36.054,青岛市,市南区西部子站,,,83,50,32,17,58,,43,43,47,42,16,11,,0.6
2025-11-11T1400,1313A,120.4581,36.0858,青岛市,崂山区子站,颗粒物(PM10),70,90,45,22,13,79,,39,34,27,32,11,11,0.6,0.5
2025-11-11T1400,1315A,120.3999,36.3083,青岛市,城阳区子站,颗粒物(PM10),64,78,55,34,19,113,,45,45,16,41,8,7,0.5,0.6
2025-11-11T1400,3362A,120.5014,36.4034,青岛市,即墨2号,颗粒物(PM10),67,83,57,40,22,102,,48,48,31,40,9,8,0.5,0.5
2025-11-11T1400,3642A,120.3503,36.0736,青岛市,市北区南部,颗粒物(PM10),65,79,48,24,15,63,,31,31,36,43,10,8,0.5,0.3
2025-11-11T1400,3643A,120.3948,36.1805,青岛市,李沧区北部,颗粒物(PM10),67,83,52,36,24,64,,41,41,45,42,12,9,0.7,0.6
2025-11-11T1400,4290A,120.1969,35.9546,青岛市,珠江路669号,颗粒物(PM10),68,85,50,39,22,50,,42,16,55,30,16,14,0.5,0.5
2025-11-11T1400,4291A,120.0424,35.8656,青岛市,黄岛区人民政府广场,颗粒物(PM10),53,56,52,22,21,98,,47,47,20,35,10,8,0.8,0.9
2025-11-11T1400,1702A,113.0426,23.691,清远市,环保大楼,,,,,,,,,,,,,,,,
2025-11-11T1400,1703A,113.0208,23.7106,清远市,凤城街办,,20,7,8,3,5,64,,43,43,11,13,6,6,0.6,0.6
2025-11-11T1400,3025A,113.0477,23.6344,清远市,技师学院,,21,8,12,3,6,66,,43,43,11,16,4,6,0.5,0.5
2025-11-11T1400,3318A,112.9903,23.7403,清远市,清新太和,,22,8,8,3,4,70,,47,47,10,10,12,10,0.4,0.3
2025-11-11T1400,3455A,113.076,23.7198,清远市,清城东城,,21,6,8,3,5,65,,44,44,10,13,6,7,0.7,0.7
2025-11-11T1400,2661A,107.6325,35.7357,庆阳市,庆阳五中,颗粒物(PM10),53,55,80,23,37,75,,52,50,10,18,6,4,0.3,0.4
2025-11-11T1400,2662A,107.6364,35.7067,庆阳市,市环保局,颗粒物(PM10),52,54,83,18,34,83,,61,61,10,15,4,3,0.7,0.7
2025-11-11T1400,1916A,103.7897,25.5035,曲靖市,环境监测站,,13,,19,9,8,31,,12,12,10,11,4,5,0.3,0.3
2025-11-11T1400,1917A,103.8,25.5364,曲靖市,烟厂办公区,,13,13,19,9,11,32,,16,16,10,14,4,5,0.4,0.5
2025-11-11T1400,3376A,103.7947,25.462,曲靖市,南苑二区,,16,16,11,3,5,40,,23,23,7,7,4,4,0.6,0.5
2025-11-11T1400,3377A,103.7444,25.5261,曲靖市,曲靖师范学院,,15,15,24,9,13,33,,13,13,11,11,3,4,0.5,0.4
2025-11-11T1400,1264A,118.8692,28.9398,衢州市,环保大楼,,31,31,56,11,23,81,,65,64,15,19,4,5,0.3,0.5
2025-11-11T1400,1265A,118.8709,28.9666,衢州市,实验学校,,30,30,53,11,22,78,,66,63,17,19,7,8,0.4,0.5
2025-11-11T1400,1266A,118.8621,28.9808,衢州市,衢州学院,,36,36,52,15,23,81,,67,65,14,18,6,6,0.1,0.2
2025-11-11T1400,1611A,118.5819,24.9117,泉州市,涂山街,,25,11,28,3,11,80,,92,81,5,5,2,2,0.3,0.4
2025-11-11T1400,1612A,118.5972,24.8978,泉州市,津头埔,,26,10,27,3,12,81,,93,81,5,6,2,2,0.2,0.3
2025-11-11T1400,1613A,118.6663,24.9424,泉州市,万安,,25,14,33,3,12,78,,89,78,6,6,3,2,0.4,0.4
2025-11-11T1400,1614A,118.6117,24.9604,泉州市,清源山,,,,20,,7,,,96,,,4,,3,,0.5
2025-11-11T1400,3529A,118.6333,24.9264,泉州市,城华南路,,25,9,27,3,12,80,,90,80,5,5,3,3,0.3,0.4
2025-11-11T1400,2626A,88.8876,29.2718,日喀则市,日喀则监测站,,33,6,16,3,6,104,,58,58,3,14,9,9,0.3,0.4
2025-11-11T1400,3726A,88.8781,29.2426,日喀则市,林业技术推广中心,,32,6,13,3,3,102,,74,67,3,5,6,6,0.3,0.3
2025-11-11T1400,1659A,119.471,35.4209,日照市,监测站,颗粒物(PM10),63,75,54,31,25,70,,29,29,37,47,12,9,0.6,0.7
2025-11-11T1400,1660A,119.523,35.4216,日照市,市政府广场,颗粒物(PM10),69,88,50,24,20,66,,34,34,36,44,13,11,0.8,0.9
2025-11-11T1400,1661A,119.5587,35.4044,日照市,港务局,"颗粒物(PM10),细颗粒物(PM2.5)",64,78,58,46,34,70,,38,38,41,53,12,10,0.8,0.9
2025-11-11T1400,3507A,119.5328,35.4625,日照市,职业技术学院,颗粒物(PM10),58,66,52,22,20,80,,37,37,25,43,9,7,0.7,0.8
2025-11-11T1400,3604A,119.3266,35.1044,日照市,岚山环保分局,颗粒物(PM10),60,70,54,36,24,86,,54,54,34,35,26,19,1.8,1
2025-11-11T1400,1835A,111.1922,34.7752,三门峡市,市政府,细颗粒物(PM2.5),94,123,118,70,77,77,,24,24,23,43,13,14,0.7,0.9
2025-11-11T1400,1836A,111.1587,34.7942,三门峡市,开发区,细颗粒物(PM2.5),102,151,166,76,78,71,,26,26,28,39,23,13,0.7,0.8
2025-11-11T1400,1838A,111.143,34.7955,三门峡市,风景区,"颗粒物(PM10),细颗粒物(PM2.5)",88,126,118,65,56,78,,28,28,24,32,20,12,0.8,0.9
2025-11-11T1400,3039A,111.1911,34.7829,三门峡市,三门峡市第一小学,颗粒物(PM10),89,128,135,64,73,86,,27,27,22,45,16,18,0.6,0.9
2025-11-11T1400,3598A,111.1,34.7167,三门峡市,富达温泉假日酒店,细颗粒物(PM2.5),104,141,152,78,79,64,,22,22,35,44,24,17,0.9,1
2025-11-11T1400,2324A,117.6211,26.2625,三明市,三钢,,,,33,,18,64,,64,64,8,13,2,6,,0.7
2025-11-11T1400,2325A,117.635,26.2714,三明市,三明二中,,26,26,29,14,16,62,,64,62,6,9,6,8,0.5,0.6
2025-11-11T1400,2326A,117.6028,26.2378,三明市,三元区政府,,22,22,32,12,12,67,,71,69,9,12,3,5,0.6,0.7
2025-11-11T1400,2327A,117.7275,26.3108,三明市,洋溪,,,,22,,15,,,56,,,9,,14,,1.2
2025-11-11T1400,1876A,109.5078,18.2489,三亚市,河东子站,,25,24,24,12,11,78,,53,53,9,14,4,4,0.6,0.6
2025-11-11T1400,1877A,109.4964,18.2681,三亚市,河西子站,,33,33,29,13,13,86,,63,63,3,15,6,6,0.6,0.5
2025-11-11T1400,3540A,109.7348,18.3443,三亚市,君悦子站,颗粒物(PM10),52,53,34,16,14,67,,37,37,5,10,4,4,0.5,0.5
2025-11-11T1400,2624A,91.7608,29.2313,山南市,山南监测站,,29,9,18,3,11,90,,60,48,4,12,5,5,0.2,0.3
2025-11-11T1400,2625A,91.7706,29.2436,山南市,山南人民医院,,,6,18,3,11,87,,60,50,3,8,,6,0.2,0.2
2025-11-11T1400,1674A,116.6794,23.3667,汕头市,金平子站,,36,36,27,18,12,64,,52,52,18,18,7,6,0.7,0.7
2025-11-11T1400,1675A,116.7244,23.3633,汕头市,龙湖子站,,33,33,27,17,12,58,,49,49,15,13,9,9,0.7,0.7
2025-11-11T1400,1676A,116.7258,23.2775,汕头市,濠江子站,,33,33,23,17,9,60,,52,49,15,10,7,6,0.8,0.7
2025-11-11T1400,1677A,116.7519,23.4714,汕头市,澄海子站,,20,17,25,14,10,57,,52,52,13,12,5,7,0.6,0.6
2025-11-11T1400,1678A,116.6092,23.2539,汕头市,潮阳子站,,34,34,24,12,9,64,,54,54,13,13,9,8,0.7,0.7
2025-11-11T1400,3444A,116.454,23.2684,汕头市,潮南峡山,,38,38,26,20,15,59,,48,48,13,10,8,9,0.7,0.7
2025-11-11T1400,3624A,116.4069,23.2533,汕头市,潮南子站,,47,47,37,21,19,50,,38,38,19,17,5,6,0.7,0.7
2025-11-11T1400,1693A,115.3653,22.775,汕尾市,市环保局,,19,,16,11,11,58,,48,48,5,6,5,5,0.5,0.6
2025-11-11T1400,1694A,115.3706,22.7898,汕尾市,市政府,,20,15,15,11,6,61,,50,50,6,7,7,7,0.4,0.5
2025-11-11T1400,1695A,115.3622,22.7925,汕尾市,新城中学,,26,26,16,14,10,60,,49,49,4,5,7,7,0.6,0.6
2025-11-11T1400,2645A,109.9154,33.8715,商洛市,监测站,颗粒物(PM10),57,63,90,24,35,102,,42,42,12,34,5,4,0.5,0.6
2025-11-11T1400,3045A,109.9643,33.8471,商洛市,商州区中学,颗粒物(PM10),78,106,92,24,35,103,,41,41,12,31,15,7,0.4,0.5
2025-11-11T1400,2408A,115.6702,34.4285,商丘市,环境监测站,,39,33,58,27,38,94,,51,51,15,41,2,2,0.2,0.4
2025-11-11T1400,2409A,115.6458,34.4045,商丘市,粮食局,,41,41,48,18,30,90,,52,52,16,34,3,3,0.2,0.4
2025-11-11T1400,2410A,115.6293,34.3948,商丘市,睢阳区环保局,,47,47,61,21,32,91,,51,51,17,44,3,3,0.3,0.5
2025-11-11T1400,3171A,115.6071,34.4465,商丘市,梁园区档案局,,45,45,50,14,31,89,,52,52,16,35,4,3,0.3,0.5
2025-11-11T1400,1141A,121.4,31.238,上海市,普陀,,26,18,19,8,8,81,,68,68,17,22,5,5,0.5,0.5
2025-11-11T1400,1142A,121.478,31.2036,上海市,十五厂,,25,24,23,8,11,77,,64,64,14,19,7,8,0.4,0.4
2025-11-11T1400,1143A,121.467,31.3008,上海市,虹口,,25,17,20,3,8,77,,63,63,5,14,8,9,0.3,0.4
2025-11-11T1400,1147A,121.425,31.2261,上海市,静安监测站,,25,20,20,6,8,80,,68,68,13,17,6,5,0.1,0.2
