timepoint,stationcode,longitude,latitude,area,positionname,primarypollutant,aqi,pm10,pm10_24h,pm2_5,pm2_5_24h,o3,o3_24h,o3_8h,o3_8h_24h,no2,no2_24h,so2,so2_24h,co,co_24h
2025-11-11T0000,2566A,102.1879,31.914,阿坝藏族羌族自治州,州农科所,,,,,,,,,,,,,,,,
2025-11-11T0000,2568A,102.2502,31.8896,阿坝藏族羌族自治州,马师校,,30,26,20,21,15,7,,48,15,31,23,7,7,0.7,0.8
2025-11-11T0000,3994A,102.2165,31.9024,阿坝藏族羌族自治州,马尔康中学西区,,25,25,14,11,13,10,,60,31,36,17,5,5,0.5,0.5
2025-11-11T0000,2695A,80.292,41.1694,阿克苏地区,电视台,颗粒物(PM10),228,369,251,156,83,8,,69,47,84,50,14,9,3.7,2
2025-11-11T0000,2696A,80.2613,41.1551,阿克苏地区,艺术中心,"颗粒物(PM10),细颗粒物(PM2.5)",179,307,198,135,75,10,,70,45,109,49,8,6,2.2,1.1
2025-11-11T0000,2204A,105.6467,38.8363,阿拉善盟,西城区西花园,,,,,,,,,,,,,,,,
2025-11-11T0000,2205A,105.6985,38.8411,阿拉善盟,蒙二幼,颗粒物(PM10),60,70,50,24,18,73,,85,70,9,13,11,9,0.7,0.7
2025-11-11T0000,2206A,105.724,38.8516,阿拉善盟,环保局新楼,颗粒物(PM10),56,61,40,24,16,75,,81,72,7,8,10,9,0.7,0.6
2025-11-11T0000,2708A,88.1264,47.8517,阿勒泰地区,市站,,26,26,25,11,7,69,,68,57,9,18,3,4,0.4,0.3
2025-11-11T0000,2630A,80.1161,32.5,阿里地区,阿里监测站,,25,6,3,3,3,78,,80,80,1,6,6,8,0.3,0.3
2025-11-11T0000,3192A,80.0903,32.5028,阿里地区,阿里藏医院,,27,6,13,3,5,85,,88,88,2,5,7,8,0.4,0.4
2025-11-11T0000,2642A,109.0318,32.6537,安康市,香溪洞,,,,,,,,,,,,,,,,
2025-11-11T0000,2644A,109.0072,32.6975,安康市,汉滨区检察院,颗粒物(PM10),59,67,61,30,26,22,,67,47,17,18,5,5,0.4,0.5
2025-11-11T0000,4054A,109.0325,32.6913,安康市,市邮政管理局,颗粒物(PM10),66,82,68,24,25,31,,63,49,26,22,4,4,0.6,0.6
2025-11-11T0000,2291A,117.0809,30.5177,安庆市,环科院,颗粒物(PM10),57,64,68,29,35,92,,131,116,14,11,6,5,0.5,0.6
2025-11-11T0000,2292A,117.0331,30.5119,安庆市,马山宾馆,颗粒物(PM10),54,58,70,30,34,95,,130,116,18,16,5,4,0.4,0.5
2025-11-11T0000,2294A,116.9896,30.6145,安庆市,安庆大学,颗粒物(PM10),58,66,70,30,33,83,,128,111,16,14,7,6,0.6,0.6
2025-11-11T0000,3173A,117.0598,30.5351,安庆市,市人大,颗粒物(PM10),52,54,70,33,37,95,,130,115,16,15,6,5,0.5,0.6
2025-11-11T0000,3122A,105.9606,26.2611,安顺市,伍家关,,,,19,11,9,37,,43,37,6,10,9,14,0.8,0.8
2025-11-11T0000,3123A,105.9408,26.2431,安顺市,凤凰山,,22,19,16,15,18,35,,42,35,7,10,7,14,0.6,0.6
2025-11-11T0000,3124A,105.9439,26.2564,安顺市,金钟山,,22,16,13,15,14,35,,45,38,6,8,9,13,0.7,0.7
2025-11-11T0000,3125A,105.8983,26.2481,安顺市,娄家坡,,20,18,17,14,14,37,,40,34,6,9,21,11,0.8,0.8
2025-11-11T0000,1818A,114.4839,36.0621,安阳市,棉研所,,,,,,,,,,,,,,,,
2025-11-11T0000,1819A,114.3551,36.1017,安阳市,红庙街,细颗粒物(PM2.5),89,96,110,66,63,39,,84,67,41,33,2,3,0.7,0.8
2025-11-11T0000,1820A,114.361,36.0681,安阳市,银杏小区,细颗粒物(PM2.5),93,95,106,69,70,32,,84,66,44,34,4,4,0.5,0.6
2025-11-11T0000,3141A,114.3922,36.0878,安阳市,信访局,细颗粒物(PM2.5),90,99,109,67,65,33,,91,72,39,30,1,2,0.5,0.6
2025-11-11T0000,3669A,114.4705,36.0637,安阳市,左辅环卫站,颗粒物(PM10),95,139,138,65,62,22,,84,49,46,37,2,2,0.5,0.6
2025-11-11T0000,3703A,114.2917,36.0949,安阳市,安钢职工学校,细颗粒物(PM2.5),104,115,123,78,72,44,,84,67,29,29,3,3,0.5,0.7
2025-11-11T0000,1748A,123.044,41.1196,鞍山市,深沟寺,颗粒物(PM10),53,55,28,33,14,44,,52,49,32,25,17,16,1.3,1.1
2025-11-11T0000,1749A,123.011,41.0931,鞍山市,太阳城,颗粒物(PM10),51,52,30,27,14,39,,52,46,33,22,17,16,1.1,0.8
2025-11-11T0000,1750A,123.0485,41.1442,鞍山市,太平,颗粒物(PM10),61,72,37,28,14,43,,51,48,29,26,19,14,1.4,1.2
2025-11-11T0000,1751A,122.9642,41.0971,鞍山市,铁西三道街,颗粒物(PM10),59,67,47,30,20,42,,48,38,26,31,14,14,1.1,1.2
2025-11-11T0000,1753A,123.022,41.0821,鞍山市,明达新区,颗粒物(PM10),53,56,26,29,12,42,,52,50,28,20,17,15,1.3,0.9
2025-11-11T0000,1754A,123.1289,41.0228,鞍山市,千山,,,,15,,8,,,65,65,,11,,5,,0.5
2025-11-11T0000,4201A,122.9446,41.0826,鞍山市,兴盛南路290号,颗粒物(PM10),56,61,50,24,18,46,,53,43,28,32,12,12,1.0,0.8
2025-11-11T0000,2195A,107.4212,40.761,巴彦淖尔市,附二中,细颗粒物(PM2.5),64,63,56,46,28,5,,62,28,55,22,6,6,0.7,0.5
2025-11-11T0000,2196A,107.37,40.7372,巴彦淖尔市,市环保大楼,颗粒物(PM10),58,65,51,40,26,4,,64,36,59,23,8,8,0.8,0.4
2025-11-11T0000,1956A,86.1472,41.7538,巴音郭楞蒙古自治州,孔雀公园,颗粒物(PM10),102,153,144,43,35,31,,71,56,46,51,8,8,0.8,0.7
2025-11-11T0000,1957A,86.1972,41.7166,巴音郭楞蒙古自治州,棉纺厂,颗粒物(PM10),162,273,195,55,33,26,,72,55,48,33,7,7,0.2,0.4
2025-11-11T0000,1958A,86.2357,41.7173,巴音郭楞蒙古自治州,经济开发区,颗粒物(PM10),117,184,168,37,29,48,,68,51,23,28,8,7,0.6,0.7
2025-11-11T0000,2914A,106.7677,31.8794,巴中市,苏山坪,,,,,,,,,,,,,,,,
2025-11-11T0000,3181A,106.7768,31.8526,巴中市,市五中,,38,38,27,16,12,2,,31,14,12,13,8,8,0.7,0.7
2025-11-11T0000,3183A,106.7418,31.8654,巴中市,圣泉水务公司,,30,30,24,14,12,1,,31,12,15,14,8,8,0.6,0.7
2025-11-11T0000,3616A,106.7616,31.8344,巴中市,市中心医院,,35,35,24,15,13,1,,33,13,18,15,4,9,0.5,0.6
2025-11-11T0000,2235A,122.7911,45.6077,白城市,洮北区环保局,,39,38,29,27,18,25,,45,20,17,13,5,6,0.5,0.4
2025-11-11T0000,2236A,122.8738,45.5725,白城市,市环保局,,45,41,25,31,18,8,,48,18,28,18,6,5,0.4,0.3
2025-11-11T0000,2231A,126.4219,41.9171,白山市,喜丰,,47,47,34,16,10,5,,60,22,40,16,8,9,0.8,0.6
2025-11-11T0000,2232A,126.4077,41.9419,白山市,环保局,,39,33,20,27,15,13,,54,23,22,13,7,9,0.9,0.8
2025-11-11T0000,2647A,104.1724,36.5446,白银市,第三小学,颗粒物(PM10),57,64,77,23,33,32,,68,54,29,22,36,21,1.0,0.5
2025-11-11T0000,2648A,104.1465,36.5482,白银市,动力公司,颗粒物(PM10),51,52,66,34,38,13,,73,45,35,18,7,12,0.6,0.6
2025-11-11T0000,2512A,106.6103,23.9011,百色市,市监测站,,21,21,17,9,6,9,,39,21,18,13,8,10,0.8,0.7
2025-11-11T0000,2513A,106.6538,23.8859,百色市,市中心血站,,24,24,18,8,4,3,,32,13,28,19,6,8,0.9,0.8
2025-11-11T0000,3406A,106.6085,23.8798,百色市,祈福高中,,40,40,21,12,6,3,,37,16,24,16,5,7,0.8,0.8
2025-11-11T0000,2270A,117.396,32.939,蚌埠市,工人疗养院,颗粒物(PM10),62,73,97,21,50,40,,85,55,36,28,4,5,0.2,0.4
2025-11-11T0000,2271A,117.3605,32.9427,蚌埠市,百货大楼,颗粒物(PM10),55,60,89,27,51,63,,85,61,21,28,7,8,0.3,0.5
2025-11-11T0000,2273A,117.4185,32.8911,蚌埠市,蚌埠学院,颗粒物(PM10),56,61,84,30,50,42,,78,36,42,44,7,7,0.3,0.5
2025-11-11T0000,2274A,117.3533,32.9673,蚌埠市,淮上区政府,颗粒物(PM10),56,61,86,34,53,58,,88,66,24,27,7,8,0.2,0.4
2025-11-11T0000,2275A,117.3145,32.8977,蚌埠市,高新区,颗粒物(PM10),52,53,81,28,49,61,,78,64,24,33,6,9,0.3,0.5
2025-11-11T0000,3715A,117.3092,32.9314,蚌埠市,蚌埠田家炳中学,颗粒物(PM10),51,51,93,28,53,61,,86,66,20,26,4,5,0.3,0.5
2025-11-11T0000,1585A,109.8756,40.6532,包头市,市环境监测站,颗粒物(PM10),84,117,68,44,30,2,,48,8,70,63,14,25,2.1,2.1
2025-11-11T0000,1587A,109.9991,40.5842,包头市,包头八中,颗粒物(PM10),74,97,80,49,42,3,,50,14,79,58,26,25,2.3,1.9
2025-11-11T0000,1588A,109.8538,40.6821,包头市,青山宾馆,颗粒物(PM10),68,85,69,37,41,2,,37,7,61,63,10,24,1.3,1.9
2025-11-11T0000,1589A,109.8642,40.6288,包头市,惠龙物流,颗粒物(PM10),75,99,65,48,34,2,,57,17,75,60,21,31,2.4,1.9
2025-11-11T0000,1590A,110.0377,40.5546,包头市,东河鸿龙湾,颗粒物(PM10),93,135,68,47,29,3,,58,22,75,55,11,12,1.9,1.3
2025-11-11T0000,3283A,109.9154,40.5685,包头市,滨河大厦,颗粒物(PM10),62,74,55,35,29,1,,58,22,77,54,13,19,1.4,1.3
2025-11-11T0000,3419A,109.9447,40.6261,包头市,包头市委党校,颗粒物(PM10),60,69,54,28,29,4,,60,22,76,61,10,26,0.9,1.8
2025-11-11T0000,3683A,109.8331,40.6576,包头市,昆区政府,颗粒物(PM10),76,101,72,49,42,1,,35,8,69,67,14,32,1.7,2.1
2025-11-11T0000,1930A,107.185,34.3063,宝鸡市,庙沟村,,,,,,,,,,,,,,,,
2025-11-11T0000,1931A,107.0708,34.3017,宝鸡市,竹园沟,颗粒物(PM10),64,77,84,32,41,21,,66,41,22,22,7,8,0.3,0.4
2025-11-11T0000,1932A,107.1906,34.3672,宝鸡市,三陆医院,颗粒物(PM10),76,102,107,54,41,12,,64,31,54,47,9,7,0.6,0.5
2025-11-11T0000,1933A,107.1431,34.3547,宝鸡市,监测站,颗粒物(PM10),74,97,99,43,47,15,,65,37,29,27,5,6,0.4,0.5
2025-11-11T0000,1934A,107.1186,34.3739,宝鸡市,技工学校,颗粒物(PM10),70,89,102,39,45,35,,69,44,19,26,5,6,0.4,0.5
2025-11-11T0000,1936A,107.2058,34.3497,宝鸡市,文理学院,颗粒物(PM10),77,104,104,46,48,20,,67,39,37,36,6,6,0.5,0.6
2025-11-11T0000,1937A,107.2386,34.3622,宝鸡市,三迪小学,颗粒物(PM10),79,107,112,52,47,10,,66,31,59,49,6,6,0.7,0.6
2025-11-11T0000,4308A,107.3898,34.3601,宝鸡市,陈仓区北开路21号,颗粒物(PM10),117,184,125,81,50,1,,65,32,56,37,7,12,0.7,0.6
2025-11-11T0000,1051A,115.493,38.8632,保定市,游泳馆,细颗粒物(PM2.5),122,155,85,92,44,4,,41,12,77,52,10,6,1.1,0.6
2025-11-11T0000,1052A,115.5213,38.8959,保定市,华电二区,细颗粒物(PM2.5),77,94,68,56,41,0,,44,14,64,47,6,4,0.7,0.6
2025-11-11T0000,1053A,115.4713,38.9108,保定市,接待中心,细颗粒物(PM2.5),80,93,72,59,41,0,,42,16,61,44,4,4,0.7,0.5
2025-11-11T0000,1054A,115.4612,38.8416,保定市,地表水厂,细颗粒物(PM2.5),100,145,94,75,40,2,,41,12,72,54,11,7,1.1,0.5
2025-11-11T0000,3581A,115.31981,38.95208,保定市,满城区生态环境分局,颗粒物(PM10),84,117,87,48,33,1,,48,14,48,46,3,3,0.7,0.5
2025-11-11T0000,3582A,115.47694,38.76408,保定市,清苑区第二中学,细颗粒物(PM2.5),156,227,116,119,44,6,,52,20,80,47,10,9,1.0,0.6
2025-11-11T0000,3583A,115.62909,39.02311,保定市,徐水物探局,细颗粒物(PM2.5),104,134,105,78,56,2,,40,12,61,50,9,7,0.9,0.7
2025-11-11T0000,4004A,115.4202,38.8656,保定市,双鹰农机,颗粒物(PM10),101,152,102,61,44,6,,46,18,62,50,4,4,0.9,0.8
2025-11-11T0000,4034A,115.5150,38.8590,保定市,植保所站,细颗粒物(PM2.5),133,193,103,101,48,2,,42,11,88,54,7,3,0.9,0.9
2025-11-11T0000,2594A,99.1678,25.1081,保山市,市环境监测站,,25,17,16,17,13,40,,77,55,6,7,1,4,0.4,0.4
2025-11-11T0000,2595A,99.1711,25.1328,保山市,市环保局,,28,,15,19,17,47,,81,66,3,4,6,7,0.4,0.4
2025-11-11T0000,1866A,109.2262,21.588,北海市,牛尾岭水库,,29,,10,20,19,43,,70,70,7,12,3,34,0.6,1.1
2025-11-11T0000,1867A,109.1436,21.4086,北海市,海滩公园,,30,30,27,12,13,60,,81,68,9,9,8,7,1.0,1
2025-11-11T0000,1868A,109.0981,21.4661,北海市,新市环保局,,31,31,26,17,15,53,,80,66,11,9,5,7,0.7,0.7
2025-11-11T0000,1869A,109.1778,21.5233,北海市,北海工业园,,23,23,29,15,18,55,,78,65,10,10,10,5,0.5,0.5
2025-11-11T0000,3400A,109.1911,21.4415,北海市,龙潭自来水厂,,25,25,27,17,15,59,,80,67,7,7,7,6,0.7,0.7
2025-11-11T0000,1001A,116.3621,39.8784,北京市,万寿西宫,颗粒物(PM10),63,76,54,37,22,2,,38,18,77,59,3,3,0.9,0.6
2025-11-11T0000,1002A,116.2202,40.2915,北京市,定陵,,,,,,,,,,,,,,,,
2025-11-11T0000,1003A,116.4174,39.9289,北京市,东四,颗粒物(PM10),65,79,55,36,22,3,,39,24,72,45,4,3,1.2,1
2025-11-11T0000,1004A,116.4072,39.8863,北京市,天坛,颗粒物(PM10),60,70,45,41,21,2,,35,16,57,42,3,2,0.9,0.6
2025-11-11T0000,1005A,116.462,39.9365,北京市,农展馆,颗粒物(PM10),64,77,50,44,24,3,,39,23,67,49,4,4,1.0,0.7
2025-11-11T0000,1006A,116.3392,39.9295,北京市,官园,颗粒物(PM10),59,68,50,28,20,0,,36,17,70,47,4,2,0.8,0.6
2025-11-11T0000,1007A,116.2878,39.9611,北京市,海淀万柳,颗粒物(PM10),52,53,45,21,16,1,,34,13,61,54,4,4,0.9,0.5
2025-11-11T0000,1008A,116.6636,40.135,北京市,顺义新城,颗粒物(PM10),58,65,43,31,17,2,,40,11,58,41,5,4,0.6,0.4
2025-11-11T0000,1009A,116.6275,40.3275,北京市,怀柔镇,,29,29,23,15,12,23,,42,20,20,26,4,4,0.7,0.7
2025-11-11T0000,1010A,116.2296,40.217,北京市,昌平镇,,39,39,31,17,12,20,,30,20,31,35,4,4,0.3,0.4
2025-11-11T0000,1011A,116.3966,39.9821,北京市,奥体中心,颗粒物(PM10),54,58,43,26,17,1,,30,14,72,58,4,5,0.6,0.5
2025-11-11T0000,3281A,115.9718,40.4529,北京市,延庆夏都,,48,48,33,20,14,6,,53,22,38,28,2,3,0.7,0.6
2025-11-11T0000,3418A,116.8336,40.4095,北京市,密云新城,,38,38,31,14,11,29,,48,18,19,31,2,2,0.3,0.4
2025-11-11T0000,3671A,116.088,39.9726,北京市,门头沟三家店,颗粒物(PM10),52,54,45,19,14,2,,40,8,37,30,3,2,0.4,0.4
2025-11-11T0000,3672A,116.1541,39.8204,北京市,丰台云岗,颗粒物(PM10),58,65,55,23,21,1,,43,12,56,39,3,3,0.5,0.4
2025-11-11T0000,3673A,116.6804,39.9081,北京市,通州东关,颗粒物(PM10),89,127,82,52,30,3,,41,20,80,52,5,4,0.7,0.7
2025-11-11T0000,3674A,115.9577,39.7603,北京市,房山燕山,,38,38,46,17,16,21,,41,23,17,22,3,3,0.4,0.3
2025-11-11T0000,3675A,116.4672,39.7733,北京市,大兴旧宫,颗粒物(PM10),68,86,65,40,25,3,,42,17,45,47,2,3,0.6,0.6
2025-11-11T0000,3694A,115.986,40.4563,北京市,延庆石河营,颗粒物(PM10),51,51,34,26,15,2,,47,17,36,30,2,3,0.6,0.5
2025-11-11T0000,3695A,116.6151,40.3053,北京市,怀柔新城,,31,31,22,17,10,23,,41,24,20,21,3,3,0.5,0.4
2025-11-11T0000,3696A,116.2545,39.8768,北京市,丰台小屯,颗粒物(PM10),52,53,55,21,19,1,,32,8,53,45,3,4,0.7,0.6
2025-11-11T0000,3697A,116.84,40.3844,北京市,密云镇,颗粒物(PM10),52,54,36,22,12,1,,47,11,43,35,1,2,0.5,0.4
2025-11-11T0000,4182A,116.1942,39.9158,北京市,八角北路9号,颗粒物(PM10),65,79,54,29,17,1,,36,13,76,56,1,2,0.7,0.4
2025-11-11T0000,4194A,117.0790,40.1518,北京市,洳河巡河路,颗粒物(PM10),60,69,44,41,20,4,,50,15,28,28,3,3,0.6,0.4
2025-11-11T0000,1761A,123.8275,41.3064,本溪市,大峪,颗粒物(PM10),53,55,27,29,14,3,,54,22,46,23,10,11,0.7,0.6
2025-11-11T0000,1762A,123.7567,41.3325,本溪市,溪湖,"颗粒物(PM10),细颗粒物(PM2.5)",57,64,48,40,20,7,,60,28,56,30,14,11,2.8,1.1
2025-11-11T0000,1763A,123.7169,41.3094,本溪市,彩屯,颗粒物(PM10),55,60,49,29,27,7,,55,17,46,28,12,15,2.2,0.9
2025-11-11T0000,1764A,123.7669,41.2864,本溪市,东明,颗粒物(PM10),57,63,42,35,20,2,,56,25,54,30,13,14,1.0,0.9
2025-11-11T0000,1765A,123.7992,41.2664,本溪市,新立屯,,33,33,30,13,12,33,,52,24,35,31,8,11,0.5,0.8
2025-11-11T0000,1766A,123.8142,41.3472,本溪市,威宁,颗粒物(PM10),60,69,63,30,20,5,,52,18,45,32,8,8,1.0,0.8
2025-11-11T0000,2587A,105.2864,27.3125,毕节市,八中,,15,,10,10,8,33,,39,39,4,7,6,7,0.6,0.6
2025-11-11T0000,2588A,105.31,27.2944,毕节市,师专,,12,10,10,8,8,38,,40,39,6,8,8,8,0.7,0.7
2025-11-11T0000,4263A,105.3688,27.3598,毕节市,工业大道,,15,6,9,3,7,45,,48,48,4,6,8,10,0.8,0.8
2025-11-11T0000,1629A,118.0018,37.3617,滨州市,第二水厂,颗粒物(PM10),68,85,84,39,39,4,,54,17,67,51,10,11,0.2,0.2
2025-11-11T0000,1630A,117.9776,37.393,滨州市,北中新校,"颗粒物(PM10),细颗粒物(PM2.5)",62,73,75,44,40,12,,55,16,53,48,8,10,0.2,0.3
2025-11-11T0000,3514A,117.9378,37.3956,滨州市,中海酒店,颗粒物(PM10),67,83,79,41,40,12,,56,14,67,36,8,8,0.5,0.6
2025-11-11T0000,3515A,117.9378,37.3553,滨州市,开发区一中,颗粒物(PM10),75,100,97,51,43,3,,57,12,65,47,11,13,0.8,0.9
2025-11-11T0000,3516A,118.0917,37.694,滨州市,金海六路,颗粒物(PM10),72,93,83,36,29,2,,60,16,79,55,12,10,0.2,0.2
2025-11-11T0000,4028A,117.9956,37.3753,滨州市,滨州市西街道办事处,细颗粒物(PM2.5),73,90,86,53,44,4,,60,15,47,41,7,9,0.7,0.5
2025-11-11T0000,2311A,115.8072,33.8399,亳州市,污水处理厂,细颗粒物(PM2.5),67,73,83,48,50,26,,76,34,46,38,48,19,0.6,0.7
2025-11-11T0000,2312A,115.7789,33.8518,亳州市,三国揽胜宫,细颗粒物(PM2.5),67,82,95,48,52,16,,73,35,58,35,25,11,0.5,0.6
2025-11-11T0000,3332A,115.7633,33.8034,亳州市,亳州学院,颗粒物(PM10),58,65,82,40,49,36,,78,50,40,27,13,9,0.5,0.7
2025-11-11T0000,2693A,82.0485,44.8556,博尔塔拉蒙古自治州,市党校,颗粒物(PM10),63,76,41,24,12,33,,42,25,18,22,5,5,0.2,0.3
2025-11-11T0000,2694A,82.0806,44.8969,博尔塔拉蒙古自治州,市环保局,颗粒物(PM10),57,64,60,22,21,26,,35,24,31,30,5,5,0.6,0.6
2025-11-11T0000,1071A,116.8842,38.2991,沧州市,沧县城建局,颗粒物(PM10),76,101,99,53,49,6,,80,34,67,49,6,7,0.7,0.7
2025-11-11T0000,1072A,116.8584,38.3254,沧州市,电视转播站,细颗粒物(PM2.5),79,95,89,58,53,3,,85,42,61,41,6,5,0.6,0.6
2025-11-11T0000,1073A,116.8709,38.3228,沧州市,市环保局,细颗粒物(PM2.5),93,98,98,69,55,4,,88,37,72,50,3,6,0.5,0.4
2025-11-11T0000,3324A,116.8136,38.3004,沧州市,河北水利电力学院,颗粒物(PM10),80,110,112,49,44,13,,81,36,67,51,13,13,0.5,0.5
2025-11-11T0000,2622A,97.1806,31.1273,昌都市,昌都监测站,颗粒物(PM10),51,52,30,26,16,47,,80,54,27,18,4,3,0.7,0.5
2025-11-11T0000,3719A,97.1714,31.1406,昌都市,昌都会议中心,,20,16,16,7,8,63,,83,75,2,5,3,3,0.1,0.1
2025-11-11T0000,2690A,88.1236,43.8886,昌吉回族自治州,天山天池,,,,,,,,,,,,,,,,
2025-11-11T0000,2692A,87.2717,44.0297,昌吉回族自治州,新区政务中心,细颗粒物(PM2.5),100,112,135,75,93,15,,17,10,47,51,11,8,1.2,1.3
2025-11-11T0000,3613A,87.3095,44.0142,昌吉回族自治州,亚心广场,细颗粒物(PM2.5),125,119,163,95,116,27,,17,13,36,45,11,9,1.0,1.3
2025-11-11T0000,1120A,125.2863,43.9027,长春市,客车厂,细颗粒物(PM2.5),285,,57,235,51,39,,52,30,61,32,10,9,1.4,0.6
2025-11-11T0000,1121A,125.2841,43.8463,长春市,邮电学院,细颗粒物(PM2.5),180,203,64,136,46,29,,53,28,46,29,7,7,1.0,0.5
2025-11-11T0000,1122A,125.3716,43.8772,长春市,劳动公园,细颗粒物(PM2.5),304,295,70,254,60,38,,58,36,63,29,12,11,2.1,0.8
2025-11-11T0000,1123A,125.3297,43.8805,长春市,园林处,细颗粒物(PM2.5),202,160,61,152,54,29,,53,36,52,29,9,8,1.1,0.6
2025-11-11T0000,1124A,125.4605,43.79,长春市,净月潭,细颗粒物(PM2.5),145,153,73,111,66,37,,63,51,24,18,6,7,0.7,0.5
2025-11-11T0000,1125A,125.7194,43.515,长春市,甩湾子,细颗粒物(PM2.5),68,61,55,49,42,25,,78,41,18,15,9,7,0.7,0.7
2025-11-11T0000,1126A,125.3863,43.8447,长春市,经开区环卫处,细颗粒物(PM2.5),145,132,67,111,52,6,,53,19,51,31,7,9,0.8,0.5
2025-11-11T0000,1127A,125.245,43.7783,长春市,高新区管委会,细颗粒物(PM2.5),148,162,81,113,74,24,,54,40,40,28,6,7,0.8,0.5
2025-11-11T0000,1128A,125.1761,43.8325,长春市,岱山公园,细颗粒物(PM2.5),219,189,67,169,57,10,,49,15,63,31,12,9,1.0,0.5
2025-11-11T0000,4281A,125.3346,43.9164,长春市,北亚泰大街1068号,细颗粒物(PM2.5),305,,61,255,52,15,,50,16,66,39,12,9,1.4,0.5
2025-11-11T0000,1335A,113.0833,28.2325,长沙市,经开区环保局,,36,28,20,25,18,64,,47,34,8,19,4,4,0.5,0.5
2025-11-11T0000,1336A,112.8872,28.2189,长沙市,高开区环保局,细颗粒物(PM2.5),64,,21,46,21,60,,59,49,18,21,4,4,0.5,0.6
2025-11-11T0000,1337A,113.0792,28.2053,长沙市,马坡岭,,24,24,21,16,13,63,,53,38,6,15,4,4,0.6,0.7
2025-11-11T0000,1338A,112.9394,28.19,长沙市,湖南师范大学,,33,33,21,23,13,58,,61,48,10,12,6,5,0.6,0.6
2025-11-11T0000,1339A,113.0178,28.1322,长沙市,雨花区环保局,,33,28,19,23,19,48,,53,37,12,15,5,6,0.7,0.8
2025-11-11T0000,1340A,112.9792,28.2597,长沙市,伍家岭,,43,42,22,30,19,58,,57,46,14,16,4,4,0.5,0.5
2025-11-11T0000,1341A,113.0014,28.1944,长沙市,火车新站,,39,35,21,27,16,58,,58,45,17,18,9,8,0.7,0.7
2025-11-11T0000,1342A,112.9844,28.1178,长沙市,天心区环保局,,28,22,18,19,12,56,,62,46,16,16,5,4,0.5,0.6
2025-11-11T0000,1343A,112.8908,28.1308,长沙市,湖南中医药大学,,36,36,20,24,11,57,,58,48,13,14,4,4,0.7,0.7
2025-11-11T0000,1344A,112.9581,28.3611,长沙市,沙坪,,,,,,,,,,,,,,,,
2025-11-11T0000,1727A,113.1147,36.1547,长治市,清华站,颗粒物(PM10),68,85,66,41,29,46,,55,46,32,39,18,16,0.9,0.8
2025-11-11T0000,1730A,113.0886,36.2125,长治市,审计局,颗粒物(PM10),65,79,59,46,29,39,,49,42,36,39,12,13,0.8,0.6
2025-11-11T0000,1731A,113.0844,36.1856,长治市,长治八中,颗粒物(PM10),83,115,86,50,35,41,,45,38,30,34,15,12,1.0,0.7
2025-11-11T0000,2845A,113.1569,36.1911,长治市,德盛苑,颗粒物(PM10),68,86,59,48,28,60,,58,56,21,30,14,10,0.9,0.9
2025-11-11T0000,3568A,113.06,36.0464,长治市,向阳小学,颗粒物(PM10),99,148,95,54,34,59,,65,42,38,39,27,13,0.9,0.8
2025-11-11T0000,3569A,112.8792,36.3144,长治市,屯留一中,,44,44,56,22,20,17,,52,20,34,34,14,13,0.7,0.6
2025-11-11T0000,4189A,113.1131,36.19948,长治市,英华南巷50号,颗粒物(PM10),75,100,74,46,31,36,,50,41,34,36,12,11,0.9,0.9
2025-11-11T0000,4190A,113.2367,36.3344,长治市,学府街1号,颗粒物(PM10),71,91,85,45,34,32,,49,25,39,44,10,14,0.8,1.5
2025-11-11T0000,1854A,111.6975,28.9703,常德市,市二中,,42,42,35,22,21,77,,84,79,6,9,4,4,0.4,0.5
2025-11-11T0000,1857A,111.7158,29.1456,常德市,白鹤山,,,,,,,,,,,,,,,,
2025-11-11T0000,3138A,111.7153,29.0289,常德市,武陵区永安,,39,39,38,21,20,79,,84,79,8,12,4,4,0.4,0.6
2025-11-11T0000,3139A,111.6892,28.9881,常德市,鼎城区玉霞,,45,45,39,23,21,77,,86,82,4,7,5,5,0.4,0.5
2025-11-11T0000,3140A,111.6625,29.0531,常德市,武陵区长庚,,41,41,39,21,20,73,,81,80,6,9,3,3,0.3,0.4
2025-11-11T0000,1196A,119.9633,31.762,常州市,市监测站,,28,28,58,15,35,56,,90,61,26,25,6,7,0.4,0.5
2025-11-11T0000,1200A,119.9468,31.7069,常州市,武进监测站,,31,31,61,12,26,53,,92,64,30,25,8,9,0.5,0.6
2025-11-11T0000,1201A,119.9255,31.9087,常州市,安家,,32,32,64,12,32,60,,94,70,28,28,10,11,0.4,0.5
2025-11-11T0000,3002A,119.9805,31.8174,常州市,行政中心,,41,41,74,11,36,63,,88,61,20,25,7,7,0.4,0.5
2025-11-11T0000,3003A,120.0522,31.7748,常州市,经开区,,38,38,64,12,31,46,,89,53,39,31,12,11,0.7,0.8
2025-11-11T0000,3010A,119.9025,31.7964,常州市,钟楼,,31,31,60,15,39,67,,89,67,22,30,10,10,0.7,0.8
2025-11-11T0000,3429A,119.8598,31.7066,常州市,武进经发区,,32,32,54,12,24,56,,86,58,29,36,8,9,0.6,0.7
2025-11-11T0000,3430A,119.5826,31.7245,常州市,金坛城区,,29,29,50,10,30,45,,94,64,27,22,6,6,0.5,0.6
2025-11-11T0000,2220A,120.4318,41.5881,朝阳市,西梁,颗粒物(PM10),55,59,45,26,21,12,,55,25,42,29,12,8,0.8,0.9
2025-11-11T0000,2221A,120.4521,41.5646,朝阳市,河畔小区,,40,40,34,28,15,21,,63,37,32,25,6,8,0.7,0.6
2025-11-11T0000,2222A,120.4176,41.5648,朝阳市,八里堡,颗粒物(PM10),56,61,45,28,20,6,,53,23,54,35,10,11,0.9,0.8
2025-11-11T0000,2223A,120.3806,41.5969,朝阳市,农业园区,颗粒物(PM10),52,54,32,16,15,17,,65,41,40,20,14,10,0.6,0.6
2025-11-11T0000,1705A,116.6367,23.6719,潮州市,西园路,,,,,,,,,,,,,,,,
2025-11-11T0000,3026A,116.6183,23.6608,潮州市,市政府,,27,27,30,10,10,43,,61,50,5,4,4,4,0.5,0.6
2025-11-11T0000,4036A,116.6461,23.6761,潮州市,金山,,25,,18,17,17,39,,52,41,6,7,2,2,0.5,0.6
2025-11-11T0000,2472A,113.0073,25.9061,郴州市,马头岭,,,,,,,,,,,,,,,,
2025-11-11T0000,2473A,113.0116,25.8226,郴州市,市职中,,12,9,8,8,6,25,,44,31,11,8,2,2,0.7,0.6
2025-11-11T0000,2475A,113.0383,25.8071,郴州市,市审计局,,8,7,8,3,7,25,,41,28,12,11,1,2,0.4,0.3
2025-11-11T0000,2476A,113.0348,25.7759,郴州市,市环保局,,12,9,14,8,7,26,,42,29,11,10,2,2,0.6,0.5
2025-11-11T0000,4252A,113.0138,25.8011,郴州市,好美居路49号,,10,7,8,6,6,31,,48,36,11,11,3,3,0.8,0.7
2025-11-11T0000,1431A,103.9728,30.7236,成都市,金泉两河,,25,25,31,3,7,27,,46,34,22,18,2,2,0.4,0.4
2025-11-11T0000,1432A,104.176,30.6872,成都市,十里店,,16,16,24,7,9,32,,51,37,28,20,3,3,0.4,0.4
2025-11-11T0000,1433A,104.079,30.5706,成都市,三瓦窑,,30,30,22,3,8,47,,55,45,17,16,3,3,0.5,0.5
2025-11-11T0000,1434A,104.1114,30.63,成都市,沙河铺,,32,25,27,22,14,33,,38,36,26,18,2,1,0.4,0.4
2025-11-11T0000,1437A,104.0786,30.6531,成都市,君平街,,22,19,28,15,13,37,,48,36,18,16,4,3,0.5,0.4
2025-11-11T0000,1438A,103.613,31.0283,成都市,灵岩寺,,,,,,,,,,,,,,,,
2025-11-11T0000,2880A,104.0239,30.65639,成都市,大石西路,,16,16,23,3,12,39,,48,37,22,20,2,3,0.5,0.5
2025-11-11T0000,3136A,104.2725,30.5589,成都市,龙泉驿区区政府,,14,14,11,3,2,21,,38,28,27,25,5,5,0.5,0.5
2025-11-11T0000,3357A,104.0106,30.6931,成都市,金博路,,15,11,22,3,9,23,,45,36,29,19,6,6,0.5,0.5
2025-11-11T0000,3359A,104.0578,30.5225,成都市,华阳,,14,14,18,9,12,44,,50,40,19,18,4,4,0.4,0.4
2025-11-11T0000,3488A,104.3880,30.7467,成都市,青石路225号,,22,22,20,3,10,27,,50,40,20,12,6,4,0.6,0.6
2025-11-11T0000,3489A,104.0789,30.4072,成都市,科学城,,14,14,16,7,8,42,,53,34,14,15,4,4,0.4,0.4
2025-11-11T0000,4011A,103.8506,30.6947,成都市,光华大道三段,,13,13,29,8,10,34,,51,38,20,17,1,1,0.6,0.6
2025-11-11T0000,4224A,104.2433,30.5353,成都市,鲸龙路1057号,,19,19,16,10,8,33,,52,37,17,13,5,5,0.5,0.5
2025-11-11T0000,1062A,117.9531,40.9081,承德市,铁路,,37,37,30,11,14,14,,44,14,29,28,7,4,0.8,0.5
2025-11-11T0000,1063A,117.9392,40.9763,承德市,中国银行,颗粒物(PM10),52,53,34,26,13,2,,51,15,41,24,3,4,0.6,0.5
2025-11-11T0000,1064A,117.9503,40.928,承德市,开发区,颗粒物(PM10),52,54,43,26,17,4,,48,17,40,28,8,6,0.6,0.4
2025-11-11T0000,1066A,117.9268,41.0026,承德市,离宫,,,,,,,,,,,,,,,,
2025-11-11T0000,4274A,117.7994,40.9605,承德市,滨河大街98号,,46,46,27,25,14,7,,49,24,35,22,3,11,0.4,0.5
2025-11-11T0000,2314A,117.47,30.6618,池州市,池州学院,颗粒物(PM10),52,53,62,26,37,56,,113,89,37,26,9,9,0.7,0.7
2025-11-11T0000,3237A,117.4918,30.6617,池州市,展览馆,颗粒物(PM10),53,55,60,27,36,60,,114,91,37,25,11,8,0.9,0.8
2025-11-11T0000,3333A,117.5627,30.695,池州市,第八中学,,45,45,54,18,31,77,,119,100,24,22,9,9,0.7,0.8
2025-11-11T0000,3334A,117.5038,30.6243,池州市,第十二中学,,49,49,53,21,28,75,,117,100,28,26,7,7,0.9,0.9
2025-11-11T0000,1744A,118.9233,42.2816,赤峰市,松山一中,,40,40,24,26,8,6,,70,38,57,30,16,8,1.3,0.7
2025-11-11T0000,1745A,118.9576,42.2728,赤峰市,哈达街,,26,26,22,13,7,23,,62,38,36,22,17,10,0.6,0.3
2025-11-11T0000,1746A,118.8788,42.2554,赤峰市,天义路,,23,18,10,16,7,22,,65,32,36,21,10,7,0.8,0.6
2025-11-11T0000,3058A,119.2658,42.0353,赤峰市,银河街,,24,24,29,12,16,33,,66,53,21,15,15,16,0.6,0.5
2025-11-11T0000,3286A,118.9359,42.3147,赤峰市,桥北物流园区,,24,19,20,12,11,5,,60,27,48,30,9,9,0.5,0.4
2025-11-11T0000,2521A,107.3476,22.4136,崇左市,市环保局江州分局,,20,20,14,8,5,8,,28,20,10,6,1,1,0.8,0.8
2025-11-11T0000,4256A,107.3750,22.3736,崇左市,石景林东路7号,,19,19,10,6,5,18,,39,29,14,8,11,7,0.7,0.7
2025-11-11T0000,2298A,118.3093,32.3153,滁州市,老年大学,,47,47,69,14,34,56,,96,74,18,16,11,11,0.1,0.3
2025-11-11T0000,2299A,118.3244,32.2786,滁州市,人大宾馆,,41,41,67,10,32,48,,91,70,21,16,5,5,0.2,0.4
2025-11-11T0000,3207A,118.3118,32.3038,滁州市,市政府原办公楼,,43,43,70,19,39,57,,96,76,22,19,6,6,0.3,0.5
2025-11-11T0000,3331A,118.3267,32.2634,滁州市,图书馆,,38,38,68,9,23,54,,100,73,20,18,8,7,0.2,0.4
2025-11-11T0000,2605A,101.5482,25.0441,楚雄彝族自治州,州环境监测站,,36,36,9,20,7,0,,42,28,26,6,16,7,0.7,0.6
2025-11-11T0000,2606A,101.538,25.0492,楚雄彝族自治州,市经济开发区,,23,23,10,9,5,0,,42,25,29,11,21,8,0.8,0.7
2025-11-11T0000,2548A,107.5277,31.2827,达州市,达州职业技术学院,,,,,,,,,,,,,,,,
2025-11-11T0000,2549A,107.5086,31.2186,达州市,市环境监测站,,39,39,34,9,10,1,,48,15,31,25,6,6,0.5,0.5
2025-11-11T0000,2550A,107.4988,31.2132,达州市,凤凰小区,,36,36,34,12,11,2,,55,20,32,24,5,5,0.4,0.4
2025-11-11T0000,2551A,107.5082,31.1986,达州市,达县机关宾馆,,41,41,34,16,12,3,,48,10,33,26,5,6,0.5,0.5
2025-11-11T0000,2552A,107.4644,31.2124,达州市,市政中心,,42,42,41,14,10,2,,48,16,36,26,5,6,0.5,0.5
2025-11-11T0000,2614A,100.1542,25.7054,大理白族自治州,大理市环境监测站,,19,13,11,13,11,55,,59,57,10,8,6,6,0.3,0.4
2025-11-11T0000,2615A,100.2171,25.5811,大理白族自治州,大理古城,,19,19,18,10,10,53,,76,57,14,10,7,7,0.5,0.5
2025-11-11T0000,1109A,121.612,38.9741,大连市,甘井子,细颗粒物(PM2.5),59,60,24,42,10,60,,58,56,39,25,9,8,0.6,0.5
2025-11-11T0000,1110A,121.565,38.9511,大连市,周水子,细颗粒物(PM2.5),57,51,24,40,11,80,,67,67,22,27,3,4,0.5,0.4
2025-11-11T0000,1111A,121.5637,38.8845,大连市,星海三站,细颗粒物(PM2.5),57,43,22,40,10,70,,62,62,13,13,6,6,0.4,0.3
2025-11-11T0000,1112A,121.6302,38.9117,大连市,青泥洼桥,颗粒物(PM10),62,74,25,40,10,68,,61,58,23,22,12,11,0.3,0.2
2025-11-11T0000,1113A,121.6251,38.8638,大连市,傅家庄,,50,50,20,34,7,70,,70,70,24,16,13,9,0.6,0.4
2025-11-11T0000,1114A,121.5213,38.8661,大连市,七贤岭,细颗粒物(PM2.5),52,52,25,36,9,71,,65,65,21,21,8,7,0.5,0.4
2025-11-11T0000,1115A,121.2529,38.8061,大连市,旅顺,颗粒物(PM10),52,54,27,24,11,68,,64,64,15,17,8,7,0.5,0.3
2025-11-11T0000,1116A,121.7485,39.1311,大连市,金州,颗粒物(PM10),63,76,27,37,12,60,,61,47,31,24,12,11,0.4,0.3
2025-11-11T0000,1117A,121.7811,39.0496,大连市,开发区,颗粒物(PM10),56,61,26,32,8,41,,50,30,10,8,5,5,0.4,0.3
2025-11-11T0000,1118A,121.9762,39.0631,大连市,双D港,颗粒物(PM10),61,72,28,36,8,67,,66,56,28,16,12,10,0.4,0.3
2025-11-11T0000,1789A,124.81117,46.03138,大庆市,大同区,,42,42,33,29,16,40,,58,,18,13,9,10,0.5,0.4
2025-11-11T0000,1790A,125.129,46.533,大庆市,龙凤区,,29,23,25,20,18,21,,50,32,33,18,5,5,0.7,0.5
2025-11-11T0000,1791A,124.902,46.408,大庆市,红岗区,,43,43,25,25,16,34,,52,36,18,17,6,5,0.5,0.6
2025-11-11T0000,1792A,125.153,46.586,大庆市,萨尔图区,,45,45,29,28,15,34,,51,40,30,21,8,8,0.4,0.4
2025-11-11T0000,1793A,124.9042,46.6215,大庆市,让胡路区,,29,29,23,19,19,43,,52,40,8,11,6,6,0.3,0.3
2025-11-11T0000,3481A,125.141,46.634,大庆市,萨区政府监测点,,29,29,21,12,7,23,,50,28,24,15,9,9,0.5,0.3
2025-11-11T0000,1721A,113.3819,40.1097,大同市,果树场,细颗粒物(PM2.5),60,54,60,43,29,15,,45,25,42,43,13,10,1.7,1
2025-11-11T0000,1723A,113.2994,40.0758,大同市,云冈宾馆,颗粒物(PM10),77,103,75,28,21,4,,51,33,53,36,7,9,0.8,0.8
2025-11-11T0000,1724A,113.3444,40.0917,大同市,大同大学,颗粒物(PM10),64,78,59,29,22,4,,52,29,58,43,10,11,0.6,0.8
2025-11-11T0000,1725A,113.2661,40.1269,大同市,安家小村,颗粒物(PM10),54,58,72,13,22,6,,57,28,49,38,8,11,0.5,1.1
2025-11-11T0000,1726A,113.2711,40.0844,大同市,教育学院,颗粒物(PM10),62,74,76,27,27,6,,50,35,58,43,10,10,0.8,1
2025-11-11T0000,3282A,113.3397,40.0597,大同市,大同市卫生学校,颗粒物(PM10),60,70,64,27,23,1,,45,27,62,45,8,9,0.9,1
2025-11-11T0000,3565A,113.1367,40.1122,大同市,云冈站,颗粒物(PM10),59,67,49,21,18,4,,62,26,38,27,7,9,0.5,0.4
2025-11-11T0000,3566A,113.1186,40.2556,大同市,图书馆,,45,45,45,14,22,22,,65,41,15,19,4,9,0.4,0.5
2025-11-11T0000,3567A,113.5931,40.0461,大同市,区一中,,44,44,59,20,24,28,,47,30,21,30,10,18,0.8,0.7
2025-11-11T0000,4199A,113.2798,40.0997,大同市,魏都大道141号,颗粒物(PM10),84,118,105,41,30,4,,47,27,58,45,10,9,2.7,1.7
2025-11-11T0000,2269A,124.1069,50.4097,大兴安岭地区,科技局,,23,19,20,16,13,28,,54,37,12,7,5,5,0.3,0.2
2025-11-11T0000,3663A,124.1164,50.4278,大兴安岭地区,红旗社区,,19,19,16,10,9,18,,54,28,30,13,7,6,0.4,0.4
2025-11-11T0000,1600A,124.3303,40.0625,丹东市,江湾东路,颗粒物(PM10),62,73,39,38,20,2,,52,23,50,24,12,10,1.8,1
2025-11-11T0000,1601A,124.4256,40.1503,丹东市,临江后街,,43,43,32,19,13,27,,56,31,17,23,7,9,0.7,0.6
2025-11-11T0000,1602A,124.3933,40.1461,丹东市,元宝山,,38,38,26,18,13,36,,55,38,14,16,9,11,0.7,0.7
2025-11-11T0000,1603A,124.3633,40.1092,丹东市,民主桥,颗粒物(PM10),56,62,32,32,13,0,,52,18,51,29,9,8,2.0,1.2
2025-11-11T0000,3541A,109.5726,19.5167,儋州市,第一中学子站,,32,32,53,17,29,65,,56,42,2,6,7,7,0.6,0.6
2025-11-11T0000,3542A,109.5567,19.5187,儋州市,东坡学校子站,,46,46,48,17,30,62,,48,39,7,12,2,3,0.7,0.7
2025-11-11T0000,2616A,98.5842,24.428,德宏傣族景颇族自治州,德宏州监测站,,20,20,27,14,15,34,,75,52,13,14,7,8,0.6,0.7
2025-11-11T0000,3677A,98.5881,24.4368,德宏傣族景颇族自治州,芒市人民政府综合楼,,26,26,35,14,14,30,,73,52,9,11,6,7,0.6,0.6
2025-11-11T0000,1901A,104.4239,31.1208,德阳市,东山公园,,16,12,16,11,11,44,,54,45,8,7,1,1,0.6,0.6
2025-11-11T0000,1902A,104.3826,31.1317,德阳市,西小区,,23,23,28,14,13,20,,55,43,31,11,1,1,0.5,0.5
2025-11-11T0000,1904A,104.3553,31.1091,德阳市,耐火材料厂,,35,31,26,24,10,27,,54,44,24,16,1,1,0.6,0.6
2025-11-11T0000,3639A,104.4019,31.1244,德阳市,市教育局,,16,16,20,7,8,22,,52,36,24,11,1,1,0.5,0.4
2025-11-11T0000,1622A,116.3032,37.4674,德州市,儿童乐园,颗粒物(PM10),74,97,97,46,40,44,,72,54,46,48,10,12,0.7,0.7
2025-11-11T0000,1624A,116.2991,37.4451,德州市,监理站,颗粒物(PM10),67,83,90,44,42,48,,75,58,47,48,13,14,0.5,0.6
2025-11-11T0000,3066A,116.2721,37.4379,德州市,九衢泉纯净水厂,颗粒物(PM10),69,88,99,44,42,19,,57,24,70,64,10,11,0.7,0.7
2025-11-11T0000,3371A,116.3728,37.4403,德州市,开发区人民医院,颗粒物(PM10),74,97,92,48,38,43,,69,51,47,52,13,15,0.7,0.7
2025-11-11T0000,3511A,116.5652,37.3319,德州市,陵城艺术中心,颗粒物(PM10),76,102,99,53,45,38,,70,37,50,53,25,20,0.8,0.8
2025-11-11T0000,4292A,116.3525,37.4209,德州市,新河东路,颗粒物(PM10),75,100,98,51,45,21,,62,30,81,69,10,11,0.7,0.7
2025-11-11T0000,2621A,99.7056,27.8317,迪庆藏族自治州,迪庆州站,,29,28,22,20,14,52,,84,73,14,9,6,6,0.5,0.4
2025-11-11T0000,3180A,99.7136,27.8094,迪庆藏族自治州,质量技术监督局,,20,13,23,6,13,62,,86,79,11,12,7,7,0.6,0.5
2025-11-11T0000,4257A,104.6092,35.5962,定西市,将台街,细颗粒物(PM2.5),59,45,46,42,28,43,,74,42,6,8,8,8,0.6,0.5
2025-11-11T0000,4309A,104.6159,35.5701,定西市,正龙路62号,细颗粒物(PM2.5),54,52,49,38,29,31,,71,41,16,11,6,6,0.4,0.3
2025-11-11T0000,1389A,113.7547,23.0494,东莞市,莞城梨川,,,12,13,6,7,43,,71,49,,10,2,4,,0.6
2025-11-11T0000,1390A,113.7944,23.0128,东莞市,东城石井,,15,11,12,6,7,45,,71,52,8,11,6,6,0.6,0.7
2025-11-11T0000,1391A,113.7383,22.9658,东莞市,南城西平,,14,12,12,3,7,43,,75,52,15,15,6,6,0.7,0.7
2025-11-11T0000,3319A,113.7338,23.0381,东莞市,万江金泰,,15,10,13,3,7,46,,71,51,7,11,4,5,0.7,0.7
2025-11-11T0000,3626A,113.7533,23.0202,东莞市,南城元岭,,16,10,12,3,6,49,,80,56,6,7,6,6,0.6,0.6
2025-11-11T0000,3627A,113.7875,23.0457,东莞市,东城主山,,15,14,17,3,6,47,,74,54,10,11,5,5,0.6,0.7
2025-11-11T0000,1666A,118.6614,37.4309,东营市,市环保局,颗粒物(PM10),67,83,84,39,36,3,,77,23,72,52,80,19,0.7,0.8
2025-11-11T0000,3036A,118.6904,37.4338,东营市,开发区管委会,颗粒物(PM10),64,77,87,34,39,2,,76,24,85,54,28,20,0.5,0.6
2025-11-11T0000,3365A,118.5719,37.565,东营市,垦利区民丰路,颗粒物(PM10),76,102,93,51,39,2,,71,21,78,57,7,8,0.7,0.7
2025-11-11T0000,3498A,118.5055,37.8612,东营市,河口城区,颗粒物(PM10),97,144,88,68,32,6,,77,32,86,43,14,11,0.7,0.5
2025-11-11T0000,3646A,118.4978,37.4623,东营市,胜利站,颗粒物(PM10),74,98,88,51,44,2,,65,16,83,67,14,15,0.9,1
2025-11-11T0000,3734A,118.35,37.26,东营市,理想之城,细颗粒物(PM2.5),89,110,84,66,37,2,,76,18,74,57,6,7,0.6,0.6
2025-11-11T0000,1591A,110.0023,39.8129,鄂尔多斯市,综合楼,颗粒物(PM10),67,83,44,34,14,18,,72,49,63,29,14,14,0.7,0.5
2025-11-11T0000,1592A,109.9486,39.8261,鄂尔多斯市,巴音孟克林场办事处,颗粒物(PM10),70,90,47,34,17,64,,84,75,23,14,16,9,0.8,0.6
2025-11-11T0000,1593A,109.7736,39.5986,鄂尔多斯市,康泽苑,颗粒物(PM10),60,70,48,34,22,13,,84,40,44,29,6,7,0.4,0.4
2025-11-11T0000,1594A,109.8119,39.5989,鄂尔多斯市,华泰汽车城,颗粒物(PM10),64,78,53,34,20,2,,85,33,58,36,6,8,0.6,0.4
2025-11-11T0000,1595A,109.9734,39.7884,鄂尔多斯市,奥林花园,颗粒物(PM10),82,114,61,31,18,2,,80,21,79,48,8,9,0.7,0.6
2025-11-11T0000,2436A,114.8938,30.3994,鄂州市,市政府,颗粒物(PM10),66,81,48,44,28,57,,72,58,22,19,9,9,0.6,0.5
2025-11-11T0000,2437A,114.8989,30.3714,鄂州市,赵家坝,细颗粒物(PM2.5),68,82,48,49,30,59,,70,59,15,14,8,8,0.8,0.7
2025-11-11T0000,3654A,114.8094,30.4089,鄂州市,精准医疗中心,细颗粒物(PM2.5),74,70,50,54,32,62,,70,60,14,16,5,6,1.2,0.7
2025-11-11T0000,2454A,109.4978,30.2981,恩施土家族苗族自治州,湖北民院,颗粒物(PM10),53,55,44,31,21,25,,86,54,11,9,6,6,0.5,0.4
2025-11-11T0000,2455A,109.4707,30.2798,恩施土家族苗族自治州,州电力总公司,颗粒物(PM10),52,54,42,30,20,22,,79,43,13,9,6,6,0.4,0.3
2025-11-11T0000,3549A,109.5061,30.3772,恩施土家族苗族自治州,龙凤新区,,47,47,39,25,18,14,,84,31,4,5,6,6,0.4,0.3
2025-11-11T0000,2499A,108.3411,21.6158,防城港市,沙万,,16,16,19,9,10,35,,51,44,9,7,6,6,0.6,0.6
2025-11-11T0000,2500A,108.3514,21.7731,防城港市,防城档案局,,20,20,28,8,11,31,,46,38,10,8,7,7,0.7,0.7
2025-11-11T0000,2501A,108.3506,21.6414,防城港市,大海花园,,20,15,18,14,11,39,,56,48,8,6,5,4,0.5,0.5
2025-11-11T0000,1371A,113.1294,23.0067,佛山市,湾梁,,14,14,18,7,9,39,,78,52,20,21,8,8,0.9,1
2025-11-11T0000,1372A,113.1083,23.0478,佛山市,华材职中,,17,17,18,10,9,38,,85,55,16,16,7,7,0.7,0.7
2025-11-11T0000,1373A,113.144,23.0453,佛山市,南海气象局,,19,19,18,10,10,41,,82,54,14,15,9,9,0.8,0.8
2025-11-11T0000,1374A,113.2881,22.8094,佛山市,顺德苏岗,,14,6,19,3,6,42,,86,58,16,17,7,9,0.5,0.6
2025-11-11T0000,1376A,112.8383,22.8678,佛山市,高明孔堂,,25,25,22,12,9,30,,88,52,25,17,11,7,0.6,0.6
2025-11-11T0000,1377A,112.8836,23.1588,佛山市,三水监测站,,14,14,12,6,3,32,,71,43,22,17,8,7,0.8,0.8
2025-11-11T0000,1378A,112.867,23.185,佛山市,三水云东海,,16,16,13,8,6,28,,73,45,23,17,9,6,0.9,0.8
2025-11-11T0000,3625A,113.2544,22.7642,佛山市,容桂街道办,,12,6,15,3,9,37,,84,54,18,20,6,7,0.6,0.7
2025-11-11T0000,1280A,119.3903,26.0543,福州市,鼓山,,,,29,,7,,,109,107,,6,,1,,0.4
2025-11-11T0000,1282A,119.2681,26.0504,福州市,师大,颗粒物(PM10),51,52,37,27,13,100,,111,109,8,8,5,5,0.5,0.4
2025-11-11T0000,1283A,119.2984,26.1028,福州市,五四北路,颗粒物(PM10),52,53,38,25,12,95,,104,102,9,11,4,4,0.4,0.4
2025-11-11T0000,1284A,119.2648,26.0768,福州市,杨桥西路,,50,50,36,22,11,99,,111,108,8,8,3,3,0.3,0.3
2025-11-11T0000,1285A,119.317,26.0746,福州市,紫阳,颗粒物(PM10),61,72,44,31,13,96,,105,104,8,11,6,6,0.4,0.4
2025-11-11T0000,3048A,119.5799,26.0936,福州市,九龙,颗粒物(PM10),58,65,40,23,10,96,,114,109,7,7,4,4,0.4,0.4
2025-11-11T0000,3526A,119.5189,25.9664,福州市,吴航,颗粒物(PM10),54,57,35,25,16,96,,118,112,6,5,6,5,0.5,0.5
2025-11-11T0000,1755A,123.7977,41.8491,抚顺市,望花区,细颗粒物(PM2.5),110,138,68,83,35,2,,45,14,54,38,10,13,1.5,1.1
2025-11-11T0000,1756A,123.9161,41.8822,抚顺市,顺城区,细颗粒物(PM2.5),97,128,69,72,36,4,,49,13,49,37,14,12,1.6,1
2025-11-11T0000,1757A,124.0436,41.8611,抚顺市,东洲区,细颗粒物(PM2.5),65,74,50,47,26,2,,54,23,46,29,7,21,1.0,0.9
2025-11-11T0000,1758A,123.9247,41.8642,抚顺市,新抚区,细颗粒物(PM2.5),110,127,72,83,36,3,,51,12,46,33,8,10,1.4,1
2025-11-11T0000,1759A,124.0972,41.8961,抚顺市,大伙房水库,,48,48,44,33,19,12,,63,44,48,29,11,12,0.7,0.8
2025-11-11T0000,1760A,123.7086,41.8391,抚顺市,沈抚新城,细颗粒物(PM2.5),95,114,59,71,31,4,,51,19,55,38,10,12,1.3,0.7
2025-11-11T0000,2376A,116.2127,28.0814,抚州市,桐源党溪,,,,,,,,,,,,,,,,
2025-11-11T0000,2377A,116.3544,27.9831,抚州市,市站,颗粒物(PM10),57,64,27,29,11,78,,67,67,8,8,5,6,0.7,0.8
2025-11-11T0000,2378A,116.3565,27.963,抚州市,血防站,颗粒物(PM10),60,69,28,32,11,82,,70,70,12,10,2,3,0.9,0.9
2025-11-11T0000,2379A,116.3564,28.0007,抚州市,采茶剧团,颗粒物(PM10),58,65,28,30,12,77,,68,68,5,4,3,4,0.9,0.8
2025-11-11T0000,2380A,116.385,27.9647,抚州市,医学分院,颗粒物(PM10),58,66,32,28,11,74,,66,66,11,8,5,8,1.3,1.2
2025-11-11T0000,2207A,121.6094,41.998,阜新市,工业园区,颗粒物(PM10),57,63,73,39,37,4,,81,15,43,34,10,17,0.7,0.6
2025-11-11T0000,2208A,121.6697,42.0279,阜新市,长青街,细颗粒物(PM2.5),74,60,41,54,27,9,,57,18,42,31,9,17,0.7,0.5
2025-11-11T0000,2209A,121.6673,42.0705,阜新市,农业园区,,19,19,33,3,14,46,,61,44,11,17,4,20,0.5,0.6
2025-11-11T0000,2210A,121.6717,42.0224,阜新市,东苑,颗粒物(PM10),51,51,48,24,22,23,,60,20,35,34,12,21,0.6,0.6
2025-11-11T0000,2211A,121.6506,42.0498,阜新市,玉龙新城,颗粒物(PM10),65,79,55,39,24,3,,63,16,48,30,11,16,0.8,0.6
2025-11-11T0000,2301A,115.8277,32.8929,阜阳市,市监测站,颗粒物(PM10),53,56,104,27,67,56,,88,68,25,37,5,6,0.3,0.5
2025-11-11T0000,2303A,115.8554,32.8605,阜阳市,开发区,颗粒物(PM10),53,56,120,26,62,41,,86,59,29,30,4,4,0.2,0.4
2025-11-11T0000,2875A,115.784,32.8892,阜阳市,阜阳职业技术学院,,47,47,96,22,63,62,,97,76,19,23,6,8,0.2,0.5
2025-11-11T0000,3468A,115.7901,32.8613,阜阳市,市规划展馆,,50,50,106,23,56,64,,104,86,18,18,5,8,0.5,0.7
2025-11-11T0000,3469A,115.836,32.9183,阜阳市,枣园社区,颗粒物(PM10),53,55,102,26,61,46,,89,60,31,35,7,10,0.5,0.8
2025-11-11T0000,2669A,102.9099,34.9841,甘南藏族自治州,州政府,颗粒物(PM10),70,89,28,47,25,3,,62,33,44,17,5,4,0.9,0.5
2025-11-11T0000,3380A,102.8914,34.9617,甘南藏族自治州,甘肃民族师范学院,颗粒物(PM10),78,106,34,37,18,4,,62,28,43,18,7,7,0.7,0.6
2025-11-11T0000,2570A,101.9603,30.0475,甘孜藏族自治州,水桥子,,12,,10,8,5,33,,59,45,15,13,8,8,0.5,0.5
2025-11-11T0000,3065A,101.9533,29.9972,甘孜藏族自治州,州环保局,,11,11,8,3,4,33,,56,43,13,12,5,6,0.4,0.4
2025-11-11T0000,3414A,115.8347,28.932,赣江新区,桑海产业园,颗粒物(PM10),75,100,68,48,41,96,,96,96,16,14,10,8,0.8,0.8
2025-11-11T0000,2362A,114.9017,25.9149,赣州市,通天岩,,12,12,16,3,8,29,,53,26,8,7,11,23,0.9,1.4
2025-11-11T0000,2363A,114.9367,25.8664,赣州市,地委,,15,15,21,6,8,34,,46,34,10,11,5,5,0.7,0.9
2025-11-11T0000,2364A,114.9461,25.8481,赣州市,气象台,,22,22,25,3,5,36,,48,34,8,12,4,5,0.9,0.9
2025-11-11T0000,2365A,114.9322,25.8333,赣州市,市图书馆,,14,14,12,6,8,36,,49,35,10,10,5,4,0.9,0.8
2025-11-11T0000,2366A,114.8905,25.8471,赣州市,华坚鞋城,,,7,15,7,6,33,,42,,10,11,4,4,,0.6
2025-11-11T0000,3109A,115.0093,25.8613,赣州市,赣县区卫计委,,11,9,8,7,8,34,,50,34,4,6,7,7,0.6,0.6
2025-11-11T0000,2683A,106.2319,36.1417,固原市,马园,,,,,,,,,,,,,,,,
2025-11-11T0000,2684A,106.2792,36.0022,固原市,监测站,颗粒物(PM10),62,73,60,26,26,50,,71,49,12,14,3,4,0.4,0.5
2025-11-11T0000,2685A,106.2375,36.0211,固原市,新区,颗粒物(PM10),58,66,57,34,25,45,,63,44,13,17,6,6,0.4,0.4
2025-11-11T0000,3522A,106.2177,35.9959,固原市,原州区十五小,,,76,66,35,29,39,,64,46,,15,4,5,0.6,0.5
2025-11-11T0000,2543A,106.6308,30.5278,广安市,小平旧居,,,,,,,,,,,,,,,,
2025-11-11T0000,2544A,106.6303,30.4576,广安市,市委,,35,35,18,17,12,41,,42,41,10,12,3,3,0.5,0.6
2025-11-11T0000,2545A,106.6271,30.4663,广安市,友谊中学,,27,27,18,16,11,43,,44,44,9,12,6,5,0.6,0.7
2025-11-11T0000,2547A,106.6388,30.4551,广安市,广电花园,,27,27,17,16,12,34,,36,36,11,13,1,1,0.5,0.6
2025-11-11T0000,2902A,106.6351,30.4865,广安市,北辰小学,,33,33,17,18,10,38,,42,42,8,8,8,8,0.4,0.5
2025-11-11T0000,2523A,105.8945,32.4535,广元市,黑石坡,,,,,,,,,,,,,,,,
2025-11-11T0000,2524A,105.821,32.4444,广元市,老城,,38,38,36,21,18,16,,64,42,37,22,3,3,0.6,0.6
2025-11-11T0000,2526A,105.8628,32.4287,广元市,监测站,,50,,19,35,16,14,,54,44,21,16,2,2,0.7,0.7
2025-11-11T0000,3617A,105.8047,32.4166,广元市,经开区,,50,50,39,22,16,16,,42,31,36,19,2,2,0.4,0.4
2025-11-11T0000,1345A,113.2347,23.1423,广州市,广雅中学,,29,29,23,7,12,32,,78,48,23,17,8,8,0.3,0.4
2025-11-11T0000,1346A,113.2612,23.105,广州市,市五中,,15,12,15,7,8,45,,92,61,20,18,7,8,0.5,0.6
2025-11-11T0000,1348A,113.3478,23.0916,广州市,广东商学院,,14,11,15,6,9,42,,83,56,14,10,4,6,0.3,0.4
2025-11-11T0000,1349A,113.4332,23.1047,广州市,市八十六中,,15,7,11,7,8,48,,74,52,12,14,5,7,0.5,0.5
2025-11-11T0000,1350A,113.3505,22.9483,广州市,番禺中学,,14,12,16,3,5,42,,85,57,16,12,5,7,0.5,0.6
2025-11-11T0000,1351A,113.2146,23.3916,广州市,花都师范,,17,17,17,7,6,40,,70,51,13,16,6,7,0.7,0.7
2025-11-11T0000,1352A,113.2597,23.1331,广州市,市监测站,,14,14,17,8,8,38,,81,54,20,16,7,8,0.6,0.7
2025-11-11T0000,1353A,113.5618,23.312,广州市,九龙镇镇龙,,15,6,10,3,6,47,,62,49,8,9,5,6,0.6,0.6
2025-11-11T0000,1354A,113.2765,23.1544,广州市,麓湖,,12,12,16,7,9,35,,77,50,20,16,9,10,0.4,0.5
2025-11-11T0000,1355A,113.443,23.3035,广州市,帽峰山森林公园,,,,,,,,,,,,,,,,
2025-11-11T0000,2846A,113.3221,23.1322,广州市,体育西,,13,13,16,9,11,36,,78,53,17,12,7,8,0.5,0.6
2025-11-11T0000,3298A,113.5717,23.5491,广州市,从化街口,,15,6,11,3,7,47,,61,48,8,8,8,10,0.5,0.6
2025-11-11T0000,3299A,113.3472,23.3692,广州市,白云竹料,,15,10,13,7,8,48,,77,56,9,8,7,7,0.6,0.6
2025-11-11T0000,3300A,113.2981,23.237,广州市,白云嘉禾,,14,12,15,7,9,43,,80,53,14,14,7,7,0.6,0.7
2025-11-11T0000,3301A,113.4256,23.1716,广州市,黄埔科学城,,18,12,15,3,7,55,,84,64,7,6,4,6,0.7,0.7
2025-11-11T0000,3302A,113.3942,23.0483,广州市,番禺大学城,,15,10,14,6,7,48,,87,61,14,10,8,10,0.5,0.6
2025-11-11T0000,3303A,113.4922,22.8168,广州市,南沙黄阁,,15,15,19,7,8,33,,82,49,26,20,8,8,0.7,0.7
2025-11-11T0000,3304A,113.5342,22.7896,广州市,南沙街,,17,17,19,8,9,35,,85,47,19,18,8,8,0.2,0.3
2025-11-11T0000,3443A,113.2902,23.5544,广州市,花都梯面,,13,13,12,9,6,41,,69,52,10,10,6,7,0.5,0.6
2025-11-11T0000,3445A,113.7858,23.7478,广州市,从化良口,,16,9,8,6,5,49,,64,55,10,9,6,6,0.7,0.7
2025-11-11T0000,3446A,113.8051,23.2614,广州市,增城荔城,,15,9,10,6,7,47,,71,55,8,8,7,8,0.5,0.5
2025-11-11T0000,2505A,109.568,23.1478,贵港市,德智高中,,,,,,,,,,,,,,,,
2025-11-11T0000,2506A,109.6047,23.0666,贵港市,江南子站,,17,17,20,11,11,40,,76,63,11,9,6,5,0.8,0.8
2025-11-11T0000,2508A,109.5669,23.1065,贵港市,荷城子站,,14,14,18,7,8,40,,70,56,10,10,4,4,0.8,0.8
2025-11-11T0000,3405A,109.5886,23.1172,贵港市,新世纪学校,,19,17,21,13,11,41,,75,61,6,6,4,4,0.7,0.6
2025-11-11T0000,4260A,109.5933,23.0951,贵港市,中山路155-3号,,19,19,19,10,13,42,,78,64,10,8,4,3,0.7,0.7
2025-11-11T0000,1439A,106.6899,26.5998,贵阳市,马鞍山,,9,7,5,3,4,27,,50,30,6,6,3,3,0.4,0.5
2025-11-11T0000,1441A,106.6243,26.6266,贵阳市,鉴湖路,,24,24,19,3,3,32,,42,32,7,9,4,4,0.5,0.5
2025-11-11T0000,1442A,106.7487,26.6343,贵阳市,燕子冲,,13,9,8,9,11,36,,56,36,6,8,4,5,0.5,0.5
2025-11-11T0000,1443A,106.6555,26.4365,贵阳市,碧云窝,,27,27,22,9,6,27,,49,34,11,12,3,2,0.4,0.4
2025-11-11T0000,1445A,106.7109,26.6027,贵阳市,红边门,,12,7,10,3,4,36,,49,33,6,10,4,4,0.6,0.7
2025-11-11T0000,1446A,106.7164,26.5699,贵阳市,新华路,,22,22,18,9,6,42,,63,43,9,9,7,10,0.4,0.5
2025-11-11T0000,1447A,106.674,26.5424,贵阳市,太慈桥,,14,14,10,3,5,31,,51,33,8,10,2,3,0.2,0.3
2025-11-11T0000,1552A,106.805,26.3003,贵阳市,桐木岭,,22,22,21,12,9,58,,63,56,4,4,6,6,0.7,0.7
2025-11-11T0000,4230A,106.6882,26.5695,贵阳市,花果园大街66号,,13,9,7,9,9,34,,49,36,8,9,1,2,0.7,0.7
2025-11-11T0000,4231A,106.6873,26.5169,贵阳市,漓江路57号,,10,,6,7,7,32,,55,34,8,8,7,7,0.5,0.5
2025-11-11T0000,1862A,110.4144,25.3167,桂林市,电子科大尧山校区,,,,,,,,,,,,,,,,
2025-11-11T0000,1864A,110.3089,25.2708,桂林市,龙隐路小学,,15,,9,3,5,48,,68,48,7,7,5,5,0.5,0.4
2025-11-11T0000,1865A,110.2869,25.2178,桂林市,八中,,15,,9,3,6,48,,67,47,6,7,6,6,0.5,0.5
2025-11-11T0000,3531A,110.296,25.1253,桂林市,旅游学院,,17,,4,3,5,52,,75,56,8,7,3,4,0.4,0.4
2025-11-11T0000,4222A,110.1835,25.2444,桂林市,环湖路276号,,,7,10,7,8,41,,64,46,,8,9,6,0.4,0.5
2025-11-11T0000,4301A,110.2803,25.2773,桂林市,信义路13号,,15,,10,3,9,48,,68,46,7,8,6,6,0.7,0.7
2025-11-11T0000,2674A,100.2561,34.4714,果洛藏族自治州,玛沁县大武镇,,47,47,45,8,15,59,,96,72,7,4,13,10,0.4,0.3
2025-11-11T0000,1129A,126.5422,45.755,哈尔滨市,岭北,,,,,,,,,,,,,,,,
2025-11-11T0000,1130A,126.561,45.8167,哈尔滨市,松北商大,,,24,36,,,35,,54,44,21,15,6,8,0.5,0.6
2025-11-11T0000,1131A,126.979,45.5419,哈尔滨市,阿城会宁,细颗粒物(PM2.5),87,73,31,64,23,3,,55,33,45,16,9,9,0.7,0.4
2025-11-11T0000,1132A,126.599,45.7222,哈尔滨市,南岗学府路,,,,43,,28,40,,54,,,12,15,11,0.4,0.6
2025-11-11T0000,1133A,126.689,45.7733,哈尔滨市,太平宏伟公园,,29,29,34,20,23,41,,57,52,21,12,29,12,0.7,0.6
2025-11-11T0000,1134A,126.635,45.7667,哈尔滨市,道外承德广场,,36,36,52,18,26,50,,52,49,12,13,9,9,0.6,0.6
2025-11-11T0000,1135A,126.685,45.7319,哈尔滨市,香坊红旗大街,,28,24,40,19,26,50,,52,48,14,15,13,9,0.4,0.5
2025-11-11T0000,1136A,126.6411,45.7258,哈尔滨市,动力和平路,,35,30,37,24,32,43,,53,49,20,14,14,4,0.5,0.5
2025-11-11T0000,1137A,126.593,45.7478,哈尔滨市,道里建国路,,42,38,37,29,29,42,,53,48,20,15,11,8,0.4,0.4
2025-11-11T0000,1138A,126.615,45.61,哈尔滨市,平房东轻厂,细颗粒物(PM2.5),103,79,39,77,26,4,,53,26,67,25,9,8,0.9,0.6
2025-11-11T0000,1139A,126.595,45.9855,哈尔滨市,呼兰师专,颗粒物(PM10),51,52,31,29,28,13,,52,36,36,13,6,7,0.6,0.5
2025-11-11T0000,1140A,126.6206,45.6842,哈尔滨市,省农科院,,50,50,50,26,45,50,,50,46,17,20,9,9,0.5,0.6
2025-11-11T0000,2688A,93.5128,42.8172,哈密市,地区监测站,颗粒物(PM10),64,78,68,30,26,15,,64,44,46,31,7,9,0.4,0.3
2025-11-11T0000,2689A,93.4961,42.8328,哈密市,哈密师范学校,颗粒物(PM10),57,64,58,32,26,5,,57,34,54,33,4,4,1.0,0.8
2025-11-11T0000,2671A,100.9048,36.9639,海北藏族自治州,海晏县西海镇,,24,24,36,12,24,46,,83,64,5,8,10,14,0.2,0.5
2025-11-11T0000,3867A,102.0738,36.5056,海东市,平安区公安北苑,"颗粒物(PM10),细颗粒物(PM2.5)",64,77,65,46,38,57,,68,53,15,17,14,18,0.8,0.8
2025-11-11T0000,1409A,110.576,19.9507,海口市,东寨港,,,,,,,,,,,,,,,,
2025-11-11T0000,1410A,110.3232,20.0574,海口市,海南大学,,35,35,32,21,20,56,,92,81,18,10,9,7,0.6,0.6
2025-11-11T0000,1411A,110.283,20.0053,海口市,秀英海南医院,,34,34,38,19,24,62,,87,73,16,15,9,8,0.5,0.5
2025-11-11T0000,1412A,110.338,19.9969,海口市,海南师范大学,,35,32,32,24,21,58,,103,82,24,12,9,7,0.8,0.7
2025-11-11T0000,1413A,110.33,20.0356,海口市,龙华路环保局宿舍,,,36,35,24,21,57,,98,79,,12,11,9,0.6,0.5
2025-11-11T0000,3539A,110.5111,19.9736,海口市,桂林洋子站,颗粒物(PM10),55,59,29,33,20,54,,86,66,23,13,7,7,0.5,0.3
2025-11-11T0000,2673A,100.6188,36.2866,海南藏族自治州,共和县恰卜恰镇,,47,47,42,14,21,24,,91,52,33,12,11,11,0.4,0.5
2025-11-11T0000,2676A,97.3731,37.3753,海西蒙古族藏族自治州,德令哈市,,23,23,42,11,14,72,,85,77,1,6,21,22,0.4,0.5
2025-11-11T0000,1048A,114.5302,36.6116,邯郸市,东污水处理厂,细颗粒物(PM2.5),112,97,94,84,74,44,,93,66,34,34,7,7,0.6,0.8
2025-11-11T0000,1049A,114.4918,36.5713,邯郸市,矿院,细颗粒物(PM2.5),110,100,85,83,70,43,,92,66,37,31,6,7,0.6,0.7
2025-11-11T0000,1050A,114.484,36.6133,邯郸市,丛台公园,细颗粒物(PM2.5),110,112,95,83,68,53,,96,73,32,31,7,8,0.5,0.7
2025-11-11T0000,3458A,114.7895,36.5593,邯郸市,香泉濮院小区,细颗粒物(PM2.5),100,140,119,75,69,42,,99,63,32,34,7,8,0.7,0.9
2025-11-11T0000,3579A,114.50634,36.77178,邯郸市,永年区实验高中,颗粒物(PM10),87,124,108,58,50,33,,99,69,52,36,5,7,0.9,1.1
2025-11-11T0000,3580A,114.20016,36.44293,邯郸市,峰峰矿区临水派出所,细颗粒物(PM2.5),138,111,80,105,65,56,,101,76,36,26,7,10,1.0,0.9
2025-11-11T0000,2634A,106.9893,33.1842,汉中市,汉川机床厂子校,,,,,,,,,,,,,,,,
2025-11-11T0000,2635A,107.0154,33.0706,汉中市,市监测站,颗粒物(PM10),51,51,51,18,22,28,,47,38,9,15,3,4,0.5,0.6
2025-11-11T0000,2636A,107.0089,33.1138,汉中市,鑫源开发区,颗粒物(PM10),62,74,56,27,26,14,,46,28,24,24,5,8,0.5,0.6
2025-11-11T0000,2637A,107.007,33.0323,汉中市,南郑大河坎水厂,,47,47,47,21,21,22,,43,32,12,16,4,5,0.4,0.5
2025-11-11T0000,1223A,120.2072,30.2111,杭州市,滨江,,27,27,55,10,23,56,,110,73,25,24,8,7,0.4,0.6
2025-11-11T0000,1224A,120.0633,30.2747,杭州市,西溪,,35,35,53,6,23,55,,107,74,26,23,9,8,0.5,0.7
2025-11-11T0000,1226A,120.3417,30.3150,杭州市,下沙,,33,33,40,7,21,61,,108,70,17,21,5,5,0.3,0.4
2025-11-11T0000,1227A,120.1269,30.2456,杭州市,卧龙桥,,28,28,46,6,26,53,,108,75,24,21,10,9,0.4,0.5
2025-11-11T0000,1228A,120.1903,30.2692,杭州市,浙江农大,,23,23,45,8,27,46,,110,69,26,23,8,7,0.1,0.3
2025-11-11T0000,1230A,120.1197,30.3119,杭州市,和睦小学,,22,22,40,14,23,60,,110,77,22,22,9,9,0.6,0.8
2025-11-11T0000,1231A,120.3019,30.4183,杭州市,临平镇,,24,24,52,9,33,50,,103,69,24,19,6,6,0.3,0.5
2025-11-11T0000,1232A,120.2753,30.1839,杭州市,城厢镇,,41,41,43,7,31,54,,112,72,35,32,8,7,0.2,0.2
2025-11-11T0000,1233A,120.0883,30.1808,杭州市,云栖,,32,32,55,7,30,66,,118,80,18,18,7,7,0.5,0.8
2025-11-11T0000,3557A,119.9464,30.0494,杭州市,镇二中,,22,22,46,3,19,57,,106,75,23,20,5,5,0.5,0.7
2025-11-11T0000,3558A,119.7183,30.2367,杭州市,市府大楼,,27,27,40,13,31,52,,115,84,26,17,9,9,0.4,0.6
2025-11-11T0000,3656A,120.1556,30.2864,杭州市,消防大队,,33,33,47,8,29,55,,106,74,28,25,9,9,0.3,0.5
2025-11-11T0000,1270A,117.1959,31.7848,合肥市,明珠广场,,46,46,87,14,51,67,,108,86,18,21,7,7,0.5,0.7
2025-11-11T0000,1271A,117.3072,31.8764,合肥市,三里街,,36,36,80,14,43,56,,90,68,23,25,6,6,0.4,0.6
2025-11-11T0000,1272A,117.2588,31.8707,合肥市,琥珀山庄,,44,44,81,11,36,68,,106,84,22,22,6,6,0.4,0.7
2025-11-11T0000,1273A,117.1604,31.9052,合肥市,董铺水库,,,,,,,,,,,,,,,,
2025-11-11T0000,1274A,117.25,31.8571,合肥市,长江中路,,48,48,90,12,54,66,,104,83,18,19,6,6,0.4,0.7
2025-11-11T0000,1275A,117.266,31.9436,合肥市,庐阳区,,41,41,87,9,48,61,,102,73,19,26,4,6,0.6,0.7
2025-11-11T0000,1276A,117.3453,31.8616,合肥市,瑶海区,,36,36,83,12,46,63,,99,76,21,23,7,7,0.4,0.7
2025-11-11T0000,1277A,117.3027,31.7964,合肥市,包河区,,41,41,86,17,50,41,,87,51,46,46,8,8,0.5,0.7
2025-11-11T0000,1278A,117.2776,31.7385,合肥市,滨湖新区,,44,44,90,19,57,58,,101,80,25,21,5,6,0.4,0.6
2025-11-11T0000,1279A,117.1318,31.8403,合肥市,高新区,颗粒物(PM10),51,51,85,12,50,60,,97,78,25,23,5,5,0.7,0.8
2025-11-11T0000,3464A,117.3803,31.9147,合肥市,高教基地,,31,31,77,19,23,60,,106,,17,16,8,8,0.4,0.6
2025-11-11T0000,3614A,79.924,37.0877,和田地区,地区环保局,细颗粒物(PM2.5),195,278,288,146,142,55,,100,80,35,30,11,9,1.9,1.5
2025-11-11T0000,3615A,79.9131,37.113,和田地区,市环保局,颗粒物(PM10),177,304,303,120,120,10,,109,79,95,45,9,6,2.4,0.6
2025-11-11T0000,2516A,108.2011,24.715,河池市,东仁乐园,,,,,,,,,,,,,,,,
2025-11-11T0000,2517A,108.0497,24.6947,河池市,市环保站,,13,6,9,3,3,39,,42,33,5,8,7,7,0.5,0.6
2025-11-11T0000,2518A,108.0983,24.6989,河池市,市疾控中心,,15,,7,3,2,47,,43,40,5,9,3,4,0.6,0.7
2025-11-11T0000,1696A,114.6778,23.7569,河源市,源西,,,,,,,,,,,,,,,,
2025-11-11T0000,1697A,114.6944,23.7586,河源市,东埔,,13,12,13,9,10,37,,60,48,10,8,4,5,0.6,0.6
2025-11-11T0000,1698A,114.6892,23.7233,河源市,老城,,12,8,12,7,6,36,,59,47,7,5,5,5,0.7,0.7
2025-11-11T0000,1718A,115.4208,35.2464,菏泽市,气象局,"颗粒物(PM10),细颗粒物(PM2.5)",70,90,108,51,59,47,,86,59,38,38,3,5,0.4,0.6
2025-11-11T0000,3374A,115.5564,35.0891,菏泽市,定陶老年大学,颗粒物(PM10),58,66,87,39,49,37,,81,62,48,33,4,5,0.4,0.6
2025-11-11T0000,4184A,115.4797,35.24401,菏泽市,永昌路1号,细颗粒物(PM2.5),55,53,100,39,53,64,,88,66,30,39,3,6,0.4,0.5
2025-11-11T0000,4193A,115.4715,35.2800,菏泽市,长城路999号,颗粒物(PM10),57,63,93,31,45,59,,83,67,35,42,2,3,0.5,0.7
2025-11-11T0000,2514A,111.5264,24.4172,贺州市,环保小区,,19,19,11,11,7,44,,65,50,7,7,5,5,0.6,0.6
2025-11-11T0000,2515A,111.5608,24.4078,贺州市,政协大楼,,21,21,12,12,7,39,,60,46,6,7,4,5,0.7,0.6
2025-11-11T0000,3534A,111.4744,24.4553,贺州市,西湾,,15,13,9,10,6,43,,58,47,7,7,5,4,0.8,0.8
2025-11-11T0000,2385A,114.17,35.9019,鹤壁市,市监测站,细颗粒物(PM2.5),113,141,108,85,65,61,,91,64,23,23,6,4,0.8,0.8
2025-11-11T0000,2386A,114.2956,35.7511,鹤壁市,市交警支队,细颗粒物(PM2.5),93,117,112,69,55,42,,83,65,48,36,4,3,0.6,0.7
2025-11-11T0000,2387A,114.2878,35.7306,鹤壁市,迎宾馆,颗粒物(PM10),90,130,124,66,56,48,,90,69,39,28,7,5,0.6,0.7
2025-11-11T0000,3474A,114.2617,35.6822,鹤壁市,大新区,细颗粒物(PM2.5),89,96,103,66,61,24,,75,46,54,31,5,5,0.6,0.8
2025-11-11T0000,3596A,114.1572,35.9603,鹤壁市,南山宾馆,细颗粒物(PM2.5),122,161,137,92,69,44,,96,70,30,22,4,6,0.7,0.6
2025-11-11T0000,2244A,130.2537,47.3416,鹤岗市,哈啤分公司,,23,23,24,9,13,68,,72,71,4,3,12,12,0.5,0.5
2025-11-11T0000,2245A,130.2684,47.3086,鹤岗市,斯达机电,,23,22,23,10,16,73,,73,72,4,5,12,12,0.5,0.5
2025-11-11T0000,2246A,130.3114,47.3388,鹤岗市,东山纸板厂,,23,19,21,12,15,72,,76,73,6,5,13,12,0.7,0.6
2025-11-11T0000,2247A,130.1097,47.3382,鹤岗市,五号水库,,,,,,,,,,,,,,,,
2025-11-11T0000,2263A,127.4833,50.2524,黑河市,交通局,,28,,31,19,15,39,,60,26,12,20,5,4,0.4,0.3
2025-11-11T0000,2264A,127.5144,50.2341,黑河市,环保局,,42,,22,29,17,19,,57,19,33,20,19,9,0.6,0.4
2025-11-11T0000,2265A,127.5291,50.2472,黑河市,大黑河岛,,,,,,,,,,,,,,,,
2025-11-11T0000,1074A,115.6838,37.7541,衡水市,电机北厂,颗粒物(PM10),72,94,104,50,53,45,,93,74,34,38,6,7,0.5,0.5
2025-11-11T0000,1075A,115.6303,37.7316,衡水市,市监测站,细颗粒物(PM2.5),72,90,94,52,50,32,,81,59,48,50,9,10,0.5,0.5
2025-11-11T0000,3188A,115.6683,37.7217,衡水市,市城管局,细颗粒物(PM2.5),79,95,105,58,51,34,,84,62,44,47,11,11,0.5,0.5
2025-11-11T0000,3459A,115.5989,37.5491,衡水市,地表水厂,细颗粒物(PM2.5),85,113,103,63,60,2,,89,44,79,52,7,9,0.4,0.5
2025-11-11T0000,2456A,112.5003,26.9167,衡阳市,原169医院,,,,,,,,,,,,,,,,
2025-11-11T0000,2457A,112.6194,26.9258,衡阳市,衡阳化工总厂,,16,8,17,3,11,51,,58,36,14,18,7,7,0.8,0.8
2025-11-11T0000,2458A,112.6211,26.8956,衡阳市,珠晖区环保局,,16,,16,9,10,50,,53,39,13,19,10,10,1.1,1.1
2025-11-11T0000,2459A,112.6197,26.8733,衡阳市,市委党校,,15,10,17,9,8,47,,58,36,14,15,4,3,0.9,0.8
2025-11-11T0000,2460A,112.6006,26.8919,衡阳市,市监测站,,16,12,18,6,11,49,,59,39,14,16,5,5,0.9,0.9
2025-11-11T0000,2461A,112.5664,26.9056,衡阳市,真空机电公司,,17,7,15,3,9,54,,59,44,9,11,6,6,0.9,0.9
2025-11-11T0000,3399A,112.6703,26.882,衡阳市,师范学院,,16,11,17,8,11,49,,62,40,12,15,8,8,0.9,0.9
2025-11-11T0000,2608A,103.3772,23.3993,红河哈尼族彝族自治州,污水处理厂,,18,,15,12,11,30,,38,32,8,7,6,6,0.3,0.3
2025-11-11T0000,2609A,103.3861,23.35,红河哈尼族彝族自治州,监测站,,13,13,12,7,9,32,,38,31,3,5,5,7,0.4,0.4
2025-11-11T0000,3038A,103.3758,23.368,红河哈尼族彝族自治州,州图书馆,,11,9,7,3,3,33,,39,34,4,4,3,3,0.5,0.5
2025-11-11T0000,1090A,111.6507,40.7517,呼和浩特市,呼市一监,颗粒物(PM10),54,58,60,33,29,5,,47,17,56,40,7,8,0.8,0.8
2025-11-11T0000,1091A,111.6572,40.8033,呼和浩特市,小召,细颗粒物(PM2.5),70,88,58,51,28,7,,42,15,64,50,8,10,1.2,0.7
2025-11-11T0000,1094A,111.7516,40.8369,呼和浩特市,如意水处理厂,颗粒物(PM10),54,57,55,27,24,0,,36,4,56,47,10,12,0.7,0.6
2025-11-11T0000,1095A,111.7276,40.8062,呼和浩特市,二十九中,颗粒物(PM10),56,62,59,29,27,3,,41,9,56,46,10,12,0.7,0.6
2025-11-11T0000,1096A,111.5512,40.7866,呼和浩特市,工大金川校区,"颗粒物(PM10),细颗粒物(PM2.5)",65,80,66,47,25,0,,36,6,62,49,8,10,0.7,0.6
2025-11-11T0000,1097A,111.717,40.7612,呼和浩特市,化肥厂生活区,颗粒物(PM10),62,74,60,31,27,2,,46,14,59,46,6,8,0.8,0.7
2025-11-11T0000,3698A,111.5968,40.8178,呼和浩特市,红旗小学,颗粒物(PM10),56,61,57,27,25,2,,36,8,64,51,11,11,0.8,0.8
2025-11-11T0000,3699A,111.6518,40.8389,呼和浩特市,海东办,颗粒物(PM10),62,73,55,36,25,4,,41,9,56,46,7,8,0.9,0.7
2025-11-11T0000,3061A,119.7512,49.1577,呼伦贝尔市,国华电力东,,30,29,24,21,15,41,,45,38,10,12,7,8,0.3,0.3
2025-11-11T0000,4279A,119.7569,49.2222,呼伦贝尔市,伊敏大街东7号,,23,,22,16,16,49,,43,41,3,8,4,5,0.3,0.3
2025-11-11T0000,1250A,120.0751,30.8669,湖州市,城西水厂,,24,24,44,10,21,69,,114,86,23,20,8,8,0.4,0.5
2025-11-11T0000,2873A,120.0830,30.8929,湖州市,仁皇山新区,,22,22,45,7,28,67,,112,84,24,20,6,6,0.4,0.6
2025-11-11T0000,2907A,120.1844,30.8596,湖州市,吴兴区站,,33,33,54,8,24,51,,93,66,24,20,7,7,0.4,0.6
2025-11-11T0000,3562A,120.4148,30.8538,湖州市,南浔区站,,23,23,50,8,26,52,,108,76,31,24,10,9,0.5,0.5
2025-11-11T0000,1607A,120.9049,40.7211,葫芦岛市,龙港区,,43,43,47,17,18,24,,57,32,43,35,13,15,0.8,0.7
2025-11-11T0000,1608A,120.8392,40.7514,葫芦岛市,化工街,,44,44,66,19,23,18,,44,17,50,44,16,26,0.8,0.7
2025-11-11T0000,1609A,120.8341,40.7073,葫芦岛市,新区,,40,40,36,16,16,35,,50,31,37,40,13,10,1.0,0.8
2025-11-11T0000,1610A,120.8695,40.7677,葫芦岛市,东城区,颗粒物(PM10),57,64,67,28,29,28,,50,20,40,46,43,43,1.0,0.8
2025-11-11T0000,2482A,109.5981,27.5721,怀化市,林科所,,,,,,,,,,,,,,,,
2025-11-11T0000,2483A,109.9453,27.5444,怀化市,河西地税局,,43,43,13,21,9,60,,69,63,6,8,4,4,0.4,0.4
2025-11-11T0000,2484A,109.9781,27.5342,怀化市,市四医院,,43,43,15,20,9,54,,64,54,5,6,7,7,0.4,0.5
2025-11-11T0000,2485A,109.9972,27.5578,怀化市,监测楼,,26,26,11,14,7,55,,63,56,22,14,2,2,0.2,0.2
2025-11-11T0000,2486A,110.0394,27.583,怀化市,市委党校,,18,16,9,12,7,49,,61,55,9,8,8,8,0.2,0.2
2025-11-11T0000,1210A,119.036,33.5981,淮安市,钵池山,,41,41,64,20,45,37,,72,54,37,37,8,8,0.4,0.5
2025-11-11T0000,1211A,119.007,33.575,淮安市,北京南路,,36,36,63,17,39,44,,72,57,27,22,11,9,0.4,0.5
2025-11-11T0000,1212A,118.989,33.6067,淮安市,市监测站,,31,31,59,9,35,48,,80,63,32,28,8,7,0.4,0.6
2025-11-11T0000,1213A,119.135,33.5039,淮安市,楚州区监测站,,32,32,60,12,33,51,,77,56,30,28,13,9,0.3,0.5
2025-11-11T0000,3426A,118.8755,33.2894,淮安市,新华书店,,34,34,75,8,26,46,,70,50,27,31,10,11,0.4,0.6
2025-11-11T0000,4206A,119.0288,33.6319,淮安市,承德北路606号,,46,46,82,22,47,26,,70,42,48,38,7,8,0.4,0.5
2025-11-11T0000,2282A,116.8004,33.975,淮北市,监测站,颗粒物(PM10),57,64,85,25,31,42,,73,48,31,33,8,9,0.4,0.7
2025-11-11T0000,2283A,116.8091,33.9007,淮北市,烈山区政府,细颗粒物(PM2.5),53,52,76,37,48,49,,80,57,28,34,8,9,0.4,0.5
2025-11-11T0000,3330A,116.8873,33.9836,淮北市,杜集区检察院,颗粒物(PM10),57,64,75,35,42,49,,79,53,21,31,4,5,0.3,0.4
2025-11-11T0000,4017A,116.7923,33.9535,淮北市,市博物馆,颗粒物(PM10),58,65,84,18,36,47,,77,54,29,28,8,9,0.4,0.5
2025-11-11T0000,2277A,116.8305,32.7727,淮南市,潘集区政府,颗粒物(PM10),61,72,100,30,62,39,,81,52,28,24,6,6,0.4,0.6
2025-11-11T0000,2279A,116.8569,32.5951,淮南市,谢家集区政府,,38,38,77,21,43,32,,88,48,34,25,9,10,0.4,0.6
2025-11-11T0000,2280A,116.8281,32.633,淮南市,八公山区政府,颗粒物(PM10),58,66,92,24,48,33,,91,54,30,22,9,9,0.3,0.5
2025-11-11T0000,2281A,116.6325,32.6201,淮南市,焦岗湖风景区管理处,,,,,,,,,,,,,,,,
2025-11-11T0000,2894A,117.0566,32.6531,淮南市,经济技术开发区消防队,颗粒物(PM10),56,62,94,24,48,34,,81,46,42,30,8,7,0.2,0.4
2025-11-11T0000,3329A,117.0108,32.5893,淮南市,山南新区,,48,48,84,3,37,68,,95,69,22,26,4,5,0.1,0.3
2025-11-11T0000,4209A,117.0031,32.6445,淮南市,国庆中路369号,,47,47,85,19,40,37,,79,50,34,27,10,14,0.5,0.6
2025-11-11T0000,2446A,114.9028,30.4742,黄冈市,职工中心,颗粒物(PM10),57,64,44,39,27,65,,76,66,16,14,4,4,0.4,0.4
2025-11-11T0000,2929A,114.8858,30.4519,黄冈市,红卫路,细颗粒物(PM2.5),57,57,41,40,27,62,,76,62,13,13,6,5,0.5,0.5
2025-11-11T0000,3398A,114.9136,30.4445,黄冈市,市林业局,"颗粒物(PM10),细颗粒物(PM2.5)",59,68,44,42,28,61,,77,66,18,13,4,4,0.6,0.5
2025-11-11T0000,2672A,102.0199,35.5102,黄南藏族自治州,同仁县隆务镇,,40,40,53,19,27,46,,74,58,5,6,11,11,0.4,0.4
2025-11-11T0000,2295A,118.2903,29.6963,黄山市,延安路89号,颗粒物(PM10),63,75,40,38,27,100,,97,96,10,8,4,4,0.5,0.5
2025-11-11T0000,2297A,118.1371,30.2756,黄山市,黄山区政府5号楼,,45,45,51,18,27,52,,101,78,9,8,5,5,0.7,0.7
2025-11-11T0000,4210A,118.3354,29.7203,黄山市,滨江东路7-2号,颗粒物(PM10),66,81,55,44,30,95,,94,93,11,9,4,4,0.5,0.5
2025-11-11T0000,2423A,115.0601,30.2313,黄石市,沈家营,颗粒物(PM10),58,65,53,34,22,31,,70,44,16,8,9,8,0.6,0.5
2025-11-11T0000,2426A,114.8988,30.2019,黄石市,铁山,细颗粒物(PM2.5),65,78,52,47,30,10,,67,41,54,26,6,6,0.7,0.6
2025-11-11T0000,2427A,115.0307,30.2092,黄石市,团城山,颗粒物(PM10),60,69,53,34,24,20,,60,39,23,13,7,7,0.7,0.6
2025-11-11T0000,3149A,115.0235,30.1578,黄石市,笔架山北路,颗粒物(PM10),79,108,72,37,23,16,,71,41,30,13,4,4,0.9,0.6
2025-11-11T0000,4185A,115.0780,30.21118,黄石市,磁湖东路29号,颗粒物(PM10),61,71,55,31,29,33,,69,46,16,13,8,8,0.5,0.5
2025-11-11T0000,1392A,114.4183,23.0528,惠州市,河南岸金山湖子站,,14,14,19,7,10,42,,65,54,13,15,10,11,0.6,0.7
2025-11-11T0000,1393A,114.4053,23.0822,惠州市,下埔横江三路子站,,18,17,19,7,9,57,,86,74,6,7,5,5,0.7,0.8
2025-11-11T0000,1394A,114.4103,23.1142,惠州市,江北云山西路子站,,15,13,17,7,10,45,,71,59,10,10,6,6,0.5,0.6
2025-11-11T0000,1395A,114.4645,22.7833,惠州市,惠阳区承修路船湖子站,,18,18,22,10,13,40,,72,57,14,13,9,9,0.8,0.8
2025-11-11T0000,1396A,114.5317,22.7422,惠州市,大亚湾管委会子站,,16,16,18,10,11,42,,66,57,10,9,10,11,0.6,0.6
2025-11-11T0000,3314A,114.4338,22.8134,惠州市,惠阳秋长,,15,14,21,9,12,48,,77,63,9,9,16,15,0.7,0.8
2025-11-11T0000,3452A,114.6517,22.775,惠州市,大亚湾霞涌,,16,16,21,11,11,40,,57,50,8,7,10,9,0.6,0.7
2025-11-11T0000,2240A,130.9762,45.3001,鸡西市,环保局,,19,18,22,13,12,53,,55,49,6,8,6,5,0.6,0.6
2025-11-11T0000,2243A,130.9429,45.3039,鸡西市,第一中学,,22,22,22,14,13,52,,56,52,6,5,5,5,0.5,0.4
2025-11-11T0000,3707A,131.0207,45.3073,鸡西市,欧美日汽修厂,,22,19,26,15,13,50,,54,50,7,7,7,7,0.5,0.5
2025-11-11T0000,3709A,130.9967,45.3106,鸡西市,市政设施管理处,,20,20,22,11,14,54,,58,49,6,10,8,8,0.6,0.6
2025-11-11T0000,2367A,114.9754,27.0803,吉安市,红声器材厂,,43,43,25,25,10,62,,44,44,15,16,7,6,0.7,0.7
2025-11-11T0000,2368A,114.9658,27.0999,吉安市,市森林工业局,,38,38,25,26,14,56,,40,40,14,15,7,6,0.6,0.6
2025-11-11T0000,2369A,114.99,27.1312,吉安市,市环境监测站,,44,44,27,23,13,62,,42,42,11,12,12,12,0.8,0.6
2025-11-11T0000,2370A,115.0093,27.0968,吉安市,青原区法院,,38,38,24,25,14,58,,39,39,12,15,8,9,0.8,0.8
2025-11-11T0000,1772A,126.54,43.8622,吉林市,哈达湾,细颗粒物(PM2.5),72,69,40,52,26,36,,75,49,31,16,11,9,0.8,0.6
2025-11-11T0000,1773A,126.5844,43.8358,吉林市,东局子,细颗粒物(PM2.5),57,56,36,40,24,46,,64,52,15,14,8,9,0.7,0.5
2025-11-11T0000,1774A,126.5052,43.8245,吉林市,电力学院,细颗粒物(PM2.5),129,118,65,98,45,11,,66,25,42,20,10,8,1.3,0.7
2025-11-11T0000,1775A,126.6133,43.8972,吉林市,江北,细颗粒物(PM2.5),68,60,47,49,35,32,,62,44,21,17,4,6,0.8,0.6
2025-11-11T0000,1776A,126.555,43.8306,吉林市,江南公园,细颗粒物(PM2.5),84,83,44,62,28,23,,70,43,37,15,10,6,0.7,0.4
2025-11-11T0000,1778A,126.7061,43.7133,吉林市,丰满,,,,,,,,,,,,,,,,
2025-11-11T0000,2868A,126.4739,43.953,吉林市,九站,细颗粒物(PM2.5),83,75,57,61,35,18,,64,36,45,25,12,6,0.7,0.5
2025-11-11T0000,1299A,116.9862,36.6114,济南市,科干所,颗粒物(PM10),52,53,49,24,18,77,,73,70,16,27,10,9,0.4,0.4
2025-11-11T0000,1300A,116.9376,36.665,济南市,农科所,颗粒物(PM10),61,71,63,24,19,43,,57,43,38,40,8,9,0.5,0.7
2025-11-11T0000,1301A,117.1265,36.6734,济南市,开发区,颗粒物(PM10),51,51,55,29,21,63,,70,63,22,30,5,4,0.6,0.6
2025-11-11T0000,1303A,117.0624,36.6868,济南市,省种子仓库,颗粒物(PM10),57,63,62,31,20,49,,68,58,36,39,8,8,0.6,0.6
2025-11-11T0000,1304A,116.9489,36.6447,济南市,机床二厂,颗粒物(PM10),59,68,76,32,25,60,,54,49,24,42,10,10,0.2,0.3
2025-11-11T0000,1305A,117.0495,36.663,济南市,市监测站,颗粒物(PM10),57,63,55,24,17,63,,64,56,25,36,3,4,0.7,0.8
2025-11-11T0000,1306A,116.7675,36.5484,济南市,长清党校,颗粒物(PM10),58,66,56,32,20,65,,70,61,26,34,10,8,0.6,0.5
2025-11-11T0000,1616A,117.6795,36.229,济南市,技术学院,颗粒物(PM10),68,85,69,46,33,1,,65,32,70,43,13,14,1.0,1.2
2025-11-11T0000,1961A,117.532,36.6868,济南市,东山小学,颗粒物(PM10),58,66,60,27,17,54,,67,57,30,34,9,8,0.5,0.5
2025-11-11T0000,3059A,117.7161,36.2049,济南市,泰兴公司,颗粒物(PM10),67,83,75,46,34,8,,68,23,56,40,10,10,0.7,0.5
2025-11-11T0000,3064A,117.6867,36.2171,济南市,莱芜战役纪念馆,颗粒物(PM10),70,90,73,50,38,3,,64,30,60,40,12,12,1.0,0.8
2025-11-11T0000,3494A,117.1673,36.9782,济南市,济阳区政府,颗粒物(PM10),69,88,84,32,26,36,,59,45,48,46,8,9,0.5,0.6
2025-11-11T0000,3495A,117.1171,36.63,济南市,锦屏中学,颗粒物(PM10),52,54,43,22,14,71,,74,67,18,20,4,3,0.8,0.8
2025-11-11T0000,3682A,116.9814,36.6819,济南市,济南四建,颗粒物(PM10),59,68,64,32,24,53,,65,56,29,36,7,7,0.6,0.8
2025-11-11T0000,1653A,116.6251,35.4302,济宁市,火炬城,细颗粒物(PM2.5),67,77,71,48,43,46,,79,65,42,31,9,8,0.3,0.2
2025-11-11T0000,1655A,116.5491,35.4042,济宁市,电化厂,颗粒物(PM10),76,102,95,53,42,49,,82,62,52,40,8,8,0.3,0.3
2025-11-11T0000,3500A,116.5814,35.3707,济宁市,北湖一中,细颗粒物(PM2.5),80,64,60,59,42,64,,83,74,28,28,8,9,0.4,0.3
2025-11-11T0000,3501A,116.8249,35.5593,济宁市,服务中心,颗粒物(PM10),76,102,90,51,38,56,,74,51,28,32,9,8,0.6,0.5
2025-11-11T0000,3678A,116.5907,35.4054,济宁市,市第七中学,细颗粒物(PM2.5),70,72,73,51,35,60,,85,72,38,32,11,12,0.5,0.5
2025-11-11T0000,2255A,130.2751,46.8028,佳木斯市,佳纺,,20,20,22,11,13,38,,54,49,11,10,4,5,0.3,0.3
2025-11-11T0000,2256A,130.3995,46.8307,佳木斯市,发电厂,,16,16,19,9,11,48,,59,56,12,6,8,6,0.4,0.4
2025-11-11T0000,2257A,130.3258,46.7975,佳木斯市,环保局,,20,16,18,14,14,40,,60,50,16,9,3,3,0.3,0.3
2025-11-11T0000,2258A,130.3648,46.8032,佳木斯市,十一中,,17,17,19,11,13,40,,54,47,16,10,7,7,0.4,0.4
2025-11-11T0000,2259A,130.3794,46.7588,佳木斯市,四丰,,,,,,,,,,,,,,,,
2025-11-11T0000,1252A,120.7436,30.778,嘉兴市,清河小学,,29,29,44,12,25,55,,94,63,25,21,7,8,0.2,0.4
2025-11-11T0000,1253A,120.726,30.7478,嘉兴市,嘉兴学院,,25,25,42,3,23,55,,93,65,32,23,6,6,0.3,0.5
2025-11-11T0000,2872A,120.7846,30.7525,嘉兴市,南湖区残联,,20,20,45,7,23,55,,95,64,22,19,7,7,0.6,0.7
2025-11-11T0000,3407A,120.6916,30.7739,嘉兴市,秀洲住建,,25,25,46,8,23,50,,98,67,37,26,8,9,0.4,0.6
2025-11-11T0000,1945A,98.2908,39.7711,嘉峪关市,气象局,颗粒物(PM10),91,132,100,46,31,44,,86,54,34,32,31,13,0.9,0.7
2025-11-11T0000,2884A,98.2672,39.7978,嘉峪关市,酒钢宾馆,颗粒物(PM10),80,110,113,39,36,41,,78,50,19,22,33,20,0.8,0.7
2025-11-11T0000,3248A,98.2643,39.7724,嘉峪关市,雄关区,颗粒物(PM10),73,95,83,44,32,38,,79,48,38,35,31,18,0.7,0.6
2025-11-11T0000,1383A,113.1064,22.6058,江门市,北街,,16,16,22,9,10,43,,107,64,18,21,6,7,0.5,0.6
2025-11-11T0000,1384A,113.0731,22.5835,江门市,西区,,16,13,21,11,10,39,,102,62,19,22,6,6,0.7,0.8
2025-11-11T0000,1385A,113.0219,22.5311,江门市,圭峰西,,14,14,19,8,9,42,,104,66,16,15,6,6,0.6,0.6
2025-11-11T0000,1386A,113.0828,22.5947,江门市,东湖,,14,14,18,9,12,35,,87,53,18,19,7,8,0.4,0.5
2025-11-11T0000,3311A,113.1075,22.5647,江门市,江海富民,,18,18,25,10,9,42,,106,66,20,23,10,10,0.6,0.7
2025-11-11T0000,3449A,113.05,22.4667,江门市,新会银湖,,18,18,22,10,11,38,,102,62,18,19,6,6,0.7,0.7
2025-11-11T0000,1830A,113.1992,35.2590,焦作市,影视城,,,,105,,44,,,91,76,,22,,14,,0.7
2025-11-11T0000,3335A,113.3137,35.2641,焦作市,马村街道办,细颗粒物(PM2.5),102,148,129,76,62,23,,90,51,55,30,7,7,0.7,0.7
2025-11-11T0000,3336A,113.2465,35.2373,焦作市,焦作技师学院,颗粒物(PM10),107,164,129,73,62,8,,86,43,71,36,16,7,0.8,0.7
2025-11-11T0000,3477A,113.1656,35.2539,焦作市,中站许衡医院,颗粒物(PM10),78,105,112,53,55,54,,84,60,31,27,11,10,0.5,0.6
2025-11-11T0000,3981A,113.2449,35.1803,焦作市,原李万街道办,颗粒物(PM10),105,159,148,73,68,6,,87,34,60,33,12,11,0.7,0.6
2025-11-11T0000,4264A,113.2340,35.2190,焦作市,新安路1731号,细颗粒物(PM2.5),118,182,138,89,67,22,,94,42,58,36,14,10,1.0,0.9
2025-11-11T0000,4295A,113.2722,35.2121,焦作市,人民路3066号,颗粒物(PM10),103,156,137,68,58,13,,80,40,61,32,6,7,0.9,0.9
2025-11-11T0000,1708A,116.3701,23.5345,揭阳市,新兴,,23,17,27,16,18,44,,54,40,10,15,7,8,0.6,0.8
2025-11-11T0000,1709A,116.3264,23.5443,揭阳市,西马,,23,17,27,16,15,24,,53,33,15,12,4,4,0.7,0.7
2025-11-11T0000,1710A,116.3611,23.5626,揭阳市,东兴,,18,16,32,12,15,33,,46,31,14,18,6,7,0.4,0.6
2025-11-11T0000,1711A,116.4151,23.5294,揭阳市,渔湖,,15,15,20,9,10,47,,57,49,7,10,6,8,0.6,0.7
2025-11-11T0000,3320A,116.403,23.5699,揭阳市,曲溪,,16,14,15,11,10,50,,64,55,8,8,1,2,0.5,0.6
2025-11-11T0000,1944A,102.1692,38.5167,金昌市,天庆家园,颗粒物(PM10),96,141,163,54,61,35,,74,49,28,28,11,10,0.9,0.8
2025-11-11T0000,4022A,102.1647,38.5371,金昌市,金川区人防中心,颗粒物(PM10),118,186,148,68,61,5,,77,45,53,25,7,8,1.1,0.9
2025-11-11T0000,4239A,102.1930,38.5319,金昌市,长春路96号,颗粒物(PM10),119,188,168,79,64,32,,80,53,37,26,29,39,1.1,0.8
2025-11-11T0000,1262A,119.647,29.077,金华市,十五中,,49,49,58,20,32,53,,103,81,29,20,3,3,0.4,0.5
2025-11-11T0000,1263A,119.686,29.1029,金华市,监测站,,45,45,55,16,28,56,,104,82,37,26,2,2,0.4,0.5
2025-11-11T0000,3659A,119.656,29.1131,金华市,气象局,,40,40,55,16,31,46,,88,67,36,27,4,4,0.6,0.7
2025-11-11T0000,1767A,121.1115,41.0879,锦州市,南山,细颗粒物(PM2.5),75,59,54,55,38,2,,53,11,58,43,12,19,1.5,1.1
2025-11-11T0000,1768A,121.0604,40.8428,锦州市,开发区,颗粒物(PM10),66,82,80,34,25,20,,45,14,45,51,24,47,1.5,1
2025-11-11T0000,1769A,121.1836,41.1119,锦州市,百股街道,颗粒物(PM10),57,63,52,31,25,19,,56,19,43,35,18,16,1.2,1.1
2025-11-11T0000,1770A,121.1178,41.1222,锦州市,天安街道,细颗粒物(PM2.5),73,77,54,53,33,2,,58,13,59,34,16,20,1.5,1
2025-11-11T0000,1771A,121.1303,41.1386,锦州市,北湖公园,,45,45,47,20,24,41,,53,26,23,32,13,17,0.8,0.9
2025-11-11T0000,2160A,112.85,35.5051,晋城市,自来水公司,颗粒物(PM10),86,122,101,41,34,49,,83,73,38,36,10,10,1.0,1.2
2025-11-11T0000,2161A,112.8318,35.4936,晋城市,白云商贸,颗粒物(PM10),90,129,104,36,21,44,,82,70,34,33,5,5,0.8,1
2025-11-11T0000,2162A,112.8508,35.4887,晋城市,市环保局,颗粒物(PM10),85,120,102,41,32,39,,88,76,24,28,6,7,1.0,1.1
2025-11-11T0000,2163A,112.8676,35.4897,晋城市,技术学院,颗粒物(PM10),85,120,99,51,34,35,,79,69,47,35,8,9,0.9,1
2025-11-11T0000,2165A,112.8453,35.546,晋城市,白马寺,颗粒物(PM10),74,98,86,51,40,56,,86,80,29,26,10,13,0.8,1.1
2025-11-11T0000,3620A,112.8271,35.4828,晋城市,泽州一中,颗粒物(PM10),83,115,97,53,33,34,,89,75,50,35,4,5,0.6,0.7
2025-11-11T0000,2173A,112.7249,37.7067,晋中市,南都小区,颗粒物(PM10),90,129,87,47,33,4,,37,9,67,48,15,18,1.0,0.8
2025-11-11T0000,2174A,112.6991,37.6982,晋中市,榆次区政府,颗粒物(PM10),106,161,95,59,40,2,,30,5,59,44,17,18,1.1,0.7
2025-11-11T0000,2865A,112.7195,37.6828,晋中市,榆次三中,颗粒物(PM10),84,117,96,41,32,2,,30,6,58,45,16,22,0.8,0.7
2025-11-11T0000,4200A,112.7478,37.6954,晋中市,迎宾街26号,颗粒物(PM10),82,114,89,46,33,3,,36,10,57,41,14,20,1.0,1
2025-11-11T0000,2439A,112.2014,31.0481,荆门市,竹园小学,颗粒物(PM10),62,74,113,35,37,74,,73,72,20,23,2,1,0,0.1
2025-11-11T0000,2440A,112.1969,30.9891,荆门市,掇刀,颗粒物(PM10),63,76,90,15,23,89,,89,87,13,16,2,2,0.4,0.5
2025-11-11T0000,2441A,112.2213,31.0386,荆门市,石化一小,颗粒物(PM10),66,81,99,31,41,66,,68,66,20,22,3,4,0,0
2025-11-11T0000,3012A,112.1849,31.0362,荆门市,西山林语,颗粒物(PM10),67,83,94,35,36,80,,83,76,11,14,6,6,0.6,0.6
2025-11-11T0000,3547A,112.1632,31.0138,荆门市,龙泉中学南校,颗粒物(PM10),73,95,101,40,37,83,,93,81,16,17,7,7,0.3,0.2
2025-11-11T0000,1844A,112.2494,30.3197,荆州市,市图书馆,,48,48,48,19,26,89,,83,82,13,18,4,5,0.5,0.7
2025-11-11T0000,1845A,112.2008,30.3544,荆州市,市委党校,,46,46,55,20,26,63,,74,72,17,21,5,5,0.5,0.7
2025-11-11T0000,3194A,112.2747,30.3122,荆州市,管委会,,45,45,48,19,27,82,,79,79,12,17,6,6,0.4,0.6
2025-11-11T0000,4268A,112.1722,30.3366,荆州市,学苑路85号,,39,39,48,23,31,71,,89,85,14,17,7,6,0.2,0.4
2025-11-11T0000,2342A,117.3102,29.3867,景德镇市,王港中学,,,,,,,,,,,,,,,,
2025-11-11T0000,2343A,117.2117,29.2933,景德镇市,老干部活动中心,,45,45,26,26,15,50,,63,55,11,4,4,4,0.6,0.5
2025-11-11T0000,2344A,117.1894,29.2789,景德镇市,兽医站,颗粒物(PM10),53,56,34,26,12,67,,74,70,9,7,6,6,0.5,0.4
2025-11-11T0000,2346A,117.2461,29.2956,景德镇市,陶研所,,46,46,23,31,19,30,,73,49,11,4,7,6,0.3,0.3
2025-11-11T0000,4289A,117.1542,29.2566,景德镇市,青少年活动中心,颗粒物(PM10),53,55,28,29,14,69,,70,67,7,8,3,3,0.6,0.6
2025-11-11T0000,1803A,115.9872,29.6815,九江市,十里,颗粒物(PM10),61,71,66,40,42,110,,121,117,18,15,6,5,0.8,0.9
2025-11-11T0000,1804A,115.9584,29.7046,九江市,茅山头,颗粒物(PM10),59,68,67,38,41,96,,105,102,15,14,4,4,0.8,0.8
2025-11-11T0000,1805A,115.9877,29.7295,九江市,西园,颗粒物(PM10),58,66,61,38,37,107,,117,113,27,25,5,4,0.8,0.8
2025-11-11T0000,1808A,115.9114,29.6038,九江市,综合工业园,"颗粒物(PM10),细颗粒物(PM2.5)",62,74,63,44,51,105,,113,109,19,17,4,3,0.6,0.6
2025-11-11T0000,1809A,116.0721,29.7535,九江市,石化总厂,颗粒物(PM10),64,78,73,28,47,103,,110,104,15,18,6,6,0.7,0.7
2025-11-11T0000,1810A,115.9773,29.5698,九江市,庐山气象台,,,,,,,,,,,,,,,,
2025-11-11T0000,3190A,116.0254,29.6994,九江市,外国语学校,颗粒物(PM10),65,79,63,35,38,84,,88,84,28,26,5,4,0.6,0.6
2025-11-11T0000,4253A,116.0102,29.6594,九江市,莲花大道8号,颗粒物(PM10),64,77,71,42,54,89,,100,96,12,10,7,7,0.6,0.6
2025-11-11T0000,4240A,98.4958,39.7339,酒泉市,玉门东路5号,颗粒物(PM10),90,129,115,41,31,41,,78,47,19,27,7,13,0.4,0.6
2025-11-11T0000,4241A,98.5099,39.7506,酒泉市,北大街108号,颗粒物(PM10),85,119,110,49,34,23,,75,37,32,27,10,13,0.6,0.6
2025-11-11T0000,2698A,76.0072,39.4467,喀什地区,巡警大队,颗粒物(PM10),500,629,383,238,134,5,,76,52,111,68,23,13,3.7,2
2025-11-11T0000,2699A,75.9755,39.4694,喀什地区,吾办,颗粒物(PM10),363,470,321,222,152,6,,75,47,106,61,13,7,3.4,1.7
2025-11-11T0000,4027A,75.9483,39.4689,喀什地区,老干局,细颗粒物(PM2.5),281,,359,231,126,6,,83,54,113,62,15,7,5.2,2.4
2025-11-11T0000,1824A,114.3389,34.7781,开封市,肿瘤医院,颗粒物(PM10),81,111,109,59,64,38,,77,54,51,42,10,11,0.8,0.9
2025-11-11T0000,1826A,114.2885,34.7965,开封市,世纪星幼儿园,细颗粒物(PM2.5),99,99,100,74,78,44,,80,61,46,37,8,9,0.7,0.9
2025-11-11T0000,3147A,114.3438,34.8106,开封市,龙亭公园,细颗粒物(PM2.5),97,105,109,72,75,49,,90,64,41,36,9,10,0.4,0.7
2025-11-11T0000,3210A,114.3644,34.7964,开封市,汴京公园,细颗粒物(PM2.5),88,111,116,65,69,40,,72,47,48,43,8,9,0.7,0.8
2025-11-11T0000,3473A,114.2485,34.8306,开封市,技师学院,细颗粒物(PM2.5),90,82,94,67,71,57,,88,76,38,35,8,9,0.9,1
2025-11-11T0000,3592A,114.4644,34.7556,开封市,祥符区生态环境局,细颗粒物(PM2.5),97,137,139,72,76,48,,85,42,52,52,7,7,0.7,0.9
2025-11-11T0000,1951A,84.895,45.6094,克拉玛依市,长征新村,,,46,43,3,12,84,,54,54,,25,2,3,0.1,0.4
2025-11-11T0000,1952A,84.8988,45.5893,克拉玛依市,南林小区,,34,34,38,9,13,67,,53,53,2,20,2,5,0.1,0.5
2025-11-11T0000,1954A,84.905,44.3396,克拉玛依市,独山子区,细颗粒物(PM2.5),75,,99,55,63,74,,82,79,10,26,7,7,0.3,0.8
2025-11-11T0000,1955A,85.6979,46.098,克拉玛依市,乌尔禾区商贸楼,,36,36,31,3,7,63,,52,47,5,20,6,6,0.3,0.5
2025-11-11T0000,3612A,85.1045,45.6899,克拉玛依市,白碱滩区新站,颗粒物(PM10),98,146,42,32,16,75,,57,57,4,20,6,7,0.2,0.4
2025-11-11T0000,2697A,76.1454,39.7142,克孜勒苏柯尔克孜自治州,市人民政府,颗粒物(PM10),175,299,265,109,107,44,,94,70,34,22,11,22,0.6,0.3
2025-11-11T0000,3665A,76.1658,39.7157,克孜勒苏柯尔克孜自治州,克州文化中心,颗粒物(PM10),160,270,252,95,96,46,,86,54,40,28,18,20,0.8,0.7
2025-11-11T0000,1450A,102.8204,24.8886,昆明市,呈贡新区,,19,14,16,13,3,8,,42,21,29,16,6,5,0.8,0.7
2025-11-11T0000,1451A,102.6251,24.9608,昆明市,西山森林公园,,,,,,,,,,,,,,,,
2025-11-11T0000,1452A,102.7252,25.0902,昆明市,龙泉镇,,34,34,16,10,6,1,,32,11,8,12,3,2,0.7,0.5
2025-11-11T0000,1453A,102.7266,25.0375,昆明市,东风东路,,26,24,13,18,11,5,,37,15,23,19,2,2,0.6,0.5
2025-11-11T0000,1454A,102.6742,25.0669,昆明市,金鼎山,,50,50,19,26,7,4,,32,15,20,15,2,1,0.7,0.4
2025-11-11T0000,1455A,102.6644,25.0401,昆明市,碧鸡广场,,43,40,13,30,8,2,,30,13,24,17,2,2,0.7,0.5
2025-11-11T0000,3179A,102.7494,25.0119,昆明市,官渡区博物馆,,17,17,12,9,6,8,,35,17,17,14,2,2,0.6,0.5
2025-11-11T0000,3375A,102.8017,24.8336,昆明市,青年创业园,,12,12,10,3,6,21,,47,24,9,9,2,2,0.7,0.7
2025-11-11T0000,3550A,102.7997,24.9786,昆明市,昆明学院,,20,20,10,11,6,10,,38,25,22,16,3,2,0.7,0.6
2025-11-11T0000,3551A,102.5967,24.6736,昆明市,晋宁区生态环境分局,,13,13,14,3,4,12,,43,25,15,8,6,6,0.4,0.4
2025-11-11T0000,3552A,102.6678,24.9856,昆明市,云天化总部,,19,19,8,13,5,3,,36,17,19,12,5,5,0.7,0.7
2025-11-11T0000,1456A,91.1319,29.6514,拉萨市,八廓街,,37,37,22,19,14,16,,93,59,54,26,6,6,0.6,0.4
2025-11-11T0000,1457A,91.1221,29.6747,拉萨市,市环保局,颗粒物(PM10),59,68,31,40,18,4,,88,55,41,23,9,8,1.8,0.9
2025-11-11T0000,1458A,91.0874,29.6475,拉萨市,区监测站,,38,33,19,22,10,13,,93,58,75,41,6,5,1.0,0.5
2025-11-11T0000,1459A,91.1774,29.6541,拉萨市,西藏大学,,34,34,17,19,10,19,,88,66,63,28,6,6,0.8,0.4
2025-11-11T0000,1460A,90.9798,29.6588,拉萨市,区辐射站,,40,40,24,15,12,33,,77,53,41,26,8,6,0.5,0.4
2025-11-11T0000,1461A,91.0834,29.6292,拉萨市,拉萨火车站,,25,23,20,16,10,27,,78,64,50,27,6,6,0.8,0.5
2025-11-11T0000,2520A,109.2203,23.7256,来宾市,来宾技工学校,,13,10,12,3,3,41,,63,49,6,6,10,10,0.6,0.7
2025-11-11T0000,3535A,109.1781,23.7297,来宾市,兴宾区政府,,14,8,11,3,6,43,,66,53,6,6,8,9,0.5,0.5
2025-11-11T0000,4002A,109.2416,23.7461,来宾市,中南小学,,13,9,13,3,6,41,,64,48,7,7,9,9,0.6,0.7
2025-11-11T0000,1477A,104.1373,35.9454,兰州市,榆中兰大校区,,,,,,,,,,,,,,,,
2025-11-11T0000,1479A,103.831,36.0464,兰州市,铁路设计院,,,,,,,,,,,,,,,,
2025-11-11T0000,3241A,103.7439,36.0842,兰州市,百合公园,颗粒物(PM10),61,72,64,43,32,2,,64,27,58,26,2,5,1.3,0.9
2025-11-11T0000,3242A,103.9611,35.998,兰州市,和平,,37,37,81,23,35,27,,65,38,24,21,3,5,0.4,0.4
2025-11-11T0000,4236A,103.6293,36.0938,兰州市,庄浪东路808号,细颗粒物(PM2.5),65,69,75,47,39,21,,66,29,48,37,9,11,0.7,0.5
2025-11-11T0000,4237A,103.7251,36.1043,兰州市,安宁西路88号,细颗粒物(PM2.5),74,86,78,54,42,4,,76,40,67,29,5,6,1.1,0.5
2025-11-11T0000,4238A,103.8470,36.0676,兰州市,北滨河东路1号,,48,48,67,33,33,30,,66,37,34,39,9,10,0.8,0.7
2025-11-11T0000,3245A,103.6633,36.533,兰州新区,新区管委会,细颗粒物(PM2.5),58,58,65,41,34,43,,88,59,15,12,9,13,0.4,0.4
2025-11-11T0000,3246A,103.6975,36.4789,兰州新区,舟曲中学,颗粒物(PM10),68,85,66,44,31,36,,92,65,34,14,24,11,0.5,0.4
2025-11-11T0000,1067A,116.6708,39.5111,廊坊市,药材公司,"颗粒物(PM10),细颗粒物(PM2.5)",90,129,106,67,57,2,,44,22,76,62,5,9,0.8,0.6
2025-11-11T0000,1068A,116.7214,39.5589,廊坊市,开发区,细颗粒物(PM2.5),77,98,93,56,52,1,,45,18,64,58,2,4,0.9,0.6
2025-11-11T0000,1070A,116.7244,39.5269,廊坊市,北华航天学院,细颗粒物(PM2.5),99,135,106,74,54,2,,48,20,69,59,4,8,1.1,0.7
2025-11-11T0000,2919A,116.7022,39.5453,廊坊市,河北工业大学,"颗粒物(PM10),细颗粒物(PM2.5)",85,120,103,63,54,1,,47,20,72,60,5,7,0.8,0.6
2025-11-11T0000,2535A,103.7723,29.5462,乐山市,花湖湾,,,,,,,,,,,,,,,,
2025-11-11T0000,2536A,103.7627,29.5844,乐山市,牛耳桥,,38,38,34,21,20,16,,28,21,28,24,8,7,0.6,0.5
2025-11-11T0000,2537A,103.7508,29.6006,乐山市,市第三水厂,,36,36,35,21,19,23,,29,20,24,24,7,6,0.7,0.7
2025-11-11T0000,2538A,103.7571,29.5664,乐山市,市监测站,,34,34,33,20,20,25,,26,22,20,20,8,8,0.7,0.7
2025-11-11T0000,3361A,103.7311,29.5628,乐山市,理工大学,,34,34,35,20,21,22,,30,18,19,19,8,8,0.5,0.5
2025-11-11T0000,2598A,100.2143,26.8576,丽江市,西南郊,,25,17,19,3,5,77,,79,74,2,4,6,6,0.4,0.5
2025-11-11T0000,2599A,100.2497,26.8802,丽江市,丽江古城,,,17,15,3,6,65,,73,,9,11,7,8,,0.4
2025-11-11T0000,2600A,100.2203,26.8906,丽江市,市中心,,23,,10,3,6,72,,81,68,8,12,11,11,0.4,0.4
2025-11-11T0000,1267A,119.914,28.4514,丽水市,监测站大楼,颗粒物(PM10),58,65,42,26,13,76,,94,84,13,11,5,5,0.6,0.6
2025-11-11T0000,1268A,119.93,28.4586,丽水市,莲都小学,颗粒物(PM10),63,76,46,32,18,77,,90,82,14,12,4,4,0.5,0.4
2025-11-11T0000,1269A,119.879,28.4231,丽水市,余庄前,颗粒物(PM10),56,62,40,35,19,40,,84,48,13,12,3,3,0.5,0.5
2025-11-11T0000,1173A,119.176,34.5885,连云港市,市环境监测站,,27,27,53,7,25,62,,79,71,18,24,7,10,0.6,0.9
2025-11-11T0000,3000A,119.3581,34.6972,连云港市,德源药业,颗粒物(PM10),51,51,53,9,14,6,,70,29,57,26,5,5,0.5,0.4
2025-11-11T0000,3007A,119.178,34.844,连云港市,新城一中,,48,47,68,12,28,0,,76,27,95,44,8,10,0.6,0.6
2025-11-11T0000,3008A,119.3608,34.7519,连云港市,胡沟管理处,,20,19,38,3,11,62,,75,60,26,24,10,11,0.3,0.3
2025-11-11T0000,3009A,119.1478,34.5911,连云港市,矿山设计院,,29,29,59,7,27,48,,80,63,15,14,5,7,0.5,0.6
2025-11-11T0000,3434A,119.2413,34.6539,连云港市,工贸学校,,25,25,38,7,16,62,,78,72,12,22,9,10,0.6,0.7
2025-11-11T0000,3664A,119.4172,34.7341,连云港市,连云街道,,21,15,28,8,10,65,,82,75,11,21,6,7,0.1,0.2
2025-11-11T0000,2571A,102.3431,27.8099,凉山彝族自治州,青龙寺,,,,,,,,,,,,,,,,
2025-11-11T0000,2572A,102.2721,27.8415,凉山彝族自治州,邛海宾馆,,16,16,22,9,10,45,,67,53,14,14,6,7,0.4,0.7
2025-11-11T0000,2573A,102.2625,27.898,凉山彝族自治州,西昌市政府,,14,10,17,3,9,44,,61,49,5,13,8,10,0.4,0.7
2025-11-11T0000,2574A,102.2685,27.8851,凉山彝族自治州,凉山州政府,,21,21,16,14,14,37,,62,47,8,10,10,10,0.9,0.9
2025-11-11T0000,4229A,102.2342,27.8859,凉山彝族自治州,凯乐南路30号,,29,29,22,16,11,14,,68,48,33,16,8,9,0.8,0.7
2025-11-11T0000,2212A,123.2,41.1953,辽阳市,宏伟区,颗粒物(PM10),51,51,70,22,14,42,,48,45,23,20,12,11,1.0,0.7
2025-11-11T0000,2213A,123.1683,41.2495,辽阳市,新华园,,44,44,48,26,20,34,,45,38,33,29,13,11,1.4,1.2
2025-11-11T0000,2214A,123.2354,41.2639,辽阳市,滨河路,颗粒物(PM10),56,62,46,25,19,30,,46,32,37,32,10,10,0.9,0.7
2025-11-11T0000,2215A,123.149,41.2991,辽阳市,铁西工业园,,47,47,50,29,24,29,,47,36,32,31,15,10,1.4,0.8
2025-11-11T0000,2227A,125.1358,42.8845,辽源市,环保局,颗粒物(PM10),70,90,73,41,22,11,,61,15,35,22,7,4,0.8,0.5
2025-11-11T0000,3239A,125.0764,42.9078,辽源市,银鹰制药,细颗粒物(PM2.5),88,95,42,65,25,8,,61,12,46,24,6,6,1.1,0.6
2025-11-11T0000,1625A,115.9848,36.4372,聊城市,区政府,细颗粒物(PM2.5),77,102,85,56,41,39,,82,57,44,42,11,10,0.6,0.7
2025-11-11T0000,2878A,116.0072,36.4343,聊城市,聊大东校,"颗粒物(PM10),细颗粒物(PM2.5)",80,110,93,59,44,39,,73,57,46,39,9,9,0.7,0.7
2025-11-11T0000,3200A,115.9819,36.4978,聊城市,监控中心,细颗粒物(PM2.5),83,99,86,61,41,50,,78,67,38,37,12,11,0.7,0.7
2025-11-11T0000,3513A,116.0445,36.4361,聊城市,九州社区,颗粒物(PM10),77,103,88,47,40,48,,77,60,33,31,2,4,0.5,0.5
2025-11-11T0000,4018A,116.0567,36.4608,聊城市,星美广场,颗粒物(PM10),74,97,96,44,41,48,,76,57,32,37,3,5,0.4,0.5
2025-11-11T0000,2632A,94.3681,29.6376,林芝市,林芝监测站,,24,6,9,3,5,74,,81,76,1,3,4,4,0.2,0.2
2025-11-11T0000,2633A,94.3616,29.6616,林芝市,林芝人民医院,,22,10,12,3,5,68,,78,73,1,3,5,6,0.3,0.3
2025-11-11T0000,2603A,100.0781,23.8982,临沧市,市环保局,,38,,18,26,27,20,,49,36,5,6,7,9,0.7,0.7
2025-11-11T0000,2604A,100.0894,23.8822,临沧市,市气象局,,30,25,17,21,10,25,,53,39,9,8,10,10,0.7,0.6
2025-11-11T0000,1733A,111.5531,36.0783,临汾市,临钢医院,颗粒物(PM10),82,114,102,45,31,2,,29,8,46,35,8,11,0.9,0.9
2025-11-11T0000,1734A,111.5028,36.0714,临汾市,技工学校,颗粒物(PM10),79,108,91,51,32,0,,37,12,55,41,11,14,0.8,0.8
2025-11-11T0000,1736A,111.5018,36.0855,临汾市,市委,颗粒物(PM10),109,167,103,43,24,1,,42,12,53,40,7,12,1.1,1
2025-11-11T0000,3018A,111.505,36.1014,临汾市,唐尧大酒店,颗粒物(PM10),90,129,99,39,27,0,,34,7,52,39,6,10,1.6,1.3
2025-11-11T0000,4244A,111.4879,36.0530,临汾市,启星学校,颗粒物(PM10),80,109,90,40,29,0,,38,8,51,46,6,10,1.0,1
2025-11-11T0000,4271A,103.2464,35.6123,临夏回族自治州,滨河东路1号,颗粒物(PM10),90,130,71,61,41,4,,58,20,24,16,4,4,1.0,0.6
2025-11-11T0000,4310A,103.2093,35.5995,临夏回族自治州,新华街21号,细颗粒物(PM2.5),127,132,70,96,49,4,,58,26,21,16,9,9,1.2,0.7
2025-11-11T0000,1618A,118.3429,35.0532,临沂市,沂河小区,,46,46,71,26,48,50,,68,55,36,39,9,9,0.3,0.6
2025-11-11T0000,1619A,118.295,35.0583,临沂市,鲁南制药厂,,46,46,71,24,40,50,,70,58,36,37,13,10,0.4,0.6
2025-11-11T0000,1620A,118.2794,34.9976,临沂市,新光毛纺厂,颗粒物(PM10),57,63,72,34,44,36,,72,48,46,38,18,10,0.4,0.6
2025-11-11T0000,1621A,118.3956,35.0888,临沂市,河东保险公司,颗粒物(PM10),65,80,80,41,45,32,,65,30,104,49,8,8,1.4,0.9
2025-11-11T0000,3370A,118.3564,35.0215,临沂市,十里堡居委,,41,41,72,12,32,49,,70,51,37,43,20,11,0.4,0.7
2025-11-11T0000,3496A,118.3604,35.1084,临沂市,南坊新区,,41,41,69,12,39,58,,68,54,32,38,9,10,0.6,0.8
2025-11-11T0000,3860A,118.3920,35.0300,临沂市,皇山花园小区,,46,46,78,22,43,50,,71,50,70,44,10,11,0.5,0.7
2025-11-11T0000,1870A,109.4856,24.3895,柳州市,柳东小学,,,,9,2,5,45,,47,42,4,5,5,5,0.4,0.5
2025-11-11T0000,1871A,109.4157,24.3277,柳州市,环保监测站,,15,15,17,3,2,42,,48,44,10,8,10,9,0.8,0.7
2025-11-11T0000,1872A,109.389,24.341,柳州市,河西水厂,,15,6,13,3,8,46,,47,36,9,15,9,11,0.8,1.3
2025-11-11T0000,1873A,109.4311,24.2921,柳州市,市四中,,14,6,8,3,4,44,,48,44,9,8,10,9,0.6,0.7
2025-11-11T0000,1874A,109.4006,24.3631,柳州市,市九中,,15,10,12,3,5,46,,49,45,11,10,6,4,0.7,0.6
2025-11-11T0000,1875A,109.4958,24.3134,柳州市,古亭山,,,,10,2,4,46,,49,46,2,3,7,7,0.6,0.7
2025-11-11T0000,3402A,109.5422,24.3996,柳州市,市二中,,15,6,11,3,5,45,,50,45,5,7,6,7,0.7,0.7
2025-11-11T0000,2307A,116.5079,31.737,六安市,监测大楼,颗粒物(PM10),54,57,76,26,53,53,,107,79,22,20,4,4,0.3,0.5
2025-11-11T0000,2308A,116.4738,31.7643,六安市,皖西学院,颗粒物(PM10),56,62,88,28,55,55,,110,81,19,18,3,3,0.3,0.5
2025-11-11T0000,2309A,116.4996,31.7905,六安市,朝阳厂,颗粒物(PM10),52,53,75,30,50,54,,105,77,20,23,4,4,0.3,0.5
2025-11-11T0000,2310A,116.5567,31.7886,六安市,开发区,颗粒物(PM10),54,58,82,34,47,49,,104,69,20,24,2,2,0.4,0.5
2025-11-11T0000,2576A,104.8,26.5892,六盘水市,窑上,,23,22,23,16,8,39,,40,28,5,7,2,2,0.6,0.6
2025-11-11T0000,2577A,104.83,26.5917,六盘水市,黄土坡,,12,10,14,3,9,36,,35,22,8,17,3,4,0.6,0.7
2025-11-11T0000,2578A,104.89,26.5939,六盘水市,水钢,,13,11,13,3,6,39,,36,30,8,10,5,6,0.6,0.6
2025-11-11T0000,2579A,104.8475,26.5894,六盘水市,民中,,11,9,13,3,4,33,,32,24,7,14,3,4,0.4,0.4
2025-11-11T0000,2580A,104.9544,26.5506,六盘水市,双水,,13,,12,6,8,40,,33,29,7,11,3,4,0.5,0.5
2025-11-11T0000,2335A,117.0189,25.1181,龙岩市,龙岩师专,,,,,,,,,,,,,,,,
2025-11-11T0000,2336A,117.0217,25.1033,龙岩市,龙岩市监测站,,25,15,10,7,5,77,,66,66,7,8,8,9,0.3,0.4
2025-11-11T0000,2337A,117.0258,25.0661,龙岩市,闽西职业技术学院,,27,19,11,8,7,84,,71,71,3,4,6,6,0.3,0.4
2025-11-11T0000,2338A,117.0196,25.0306,龙岩市,龙岩学院,,26,19,15,9,7,81,,68,68,4,7,7,7,0.3,0.4
2025-11-11T0000,2665A,105.0822,33.3261,陇南市,汉王镇固水子,,,,,,,,,,,,,,,,
2025-11-11T0000,2885A,104.9339,33.3826,陇南市,滨江中学,,49,49,54,25,22,28,,70,43,13,9,6,6,0.5,0.5
2025-11-11T0000,3247A,104.955,33.371,陇南市,市总工会,,43,43,47,18,18,26,,64,36,16,14,7,7,0.5,0.5
2025-11-11T0000,2487A,111.9589,27.8901,娄底市,电视发射台,,,,,,,,,,,,,,,,
2025-11-11T0000,2488A,111.9975,27.725,娄底市,市监测站,,17,12,14,6,11,52,,60,59,16,17,10,10,0.7,0.9
2025-11-11T0000,2489A,112.0194,27.7314,娄底市,市委党校,,18,7,12,3,11,56,,61,58,10,13,6,6,0.6,0.9
2025-11-11T0000,2490A,111.9561,27.7569,娄底市,涟钢,,32,25,13,22,10,49,,59,54,8,8,10,9,0.4,0.5
2025-11-11T0000,2491A,111.9892,27.7044,娄底市,市政府,,19,11,12,8,11,58,,66,56,11,11,9,9,1.0,1
2025-11-11T0000,1893A,105.4324,28.9634,泸州市,九狮山,,,,,,,,,,,,,,,,
2025-11-11T0000,1894A,105.4427,28.9063,泸州市,小市上码头,,15,15,40,7,21,8,,36,11,13,21,7,8,0.6,0.7
2025-11-11T0000,1895A,105.4241,28.8573,泸州市,兰田宪桥,,13,13,42,3,22,16,,45,21,9,17,5,7,0.4,0.6
2025-11-11T0000,1896A,105.4379,28.8833,泸州市,市环监站,,14,14,40,9,24,12,,36,14,12,22,6,6,0.5,0.6
2025-11-11T0000,4272A,105.3689,28.7783,泸州市,纳溪中医医院,,20,19,35,14,24,14,,46,27,13,19,5,6,0.5,0.6
2025-11-11T0000,2183A,111.1406,37.5211,吕梁市,环保局,颗粒物(PM10),104,157,105,38,28,2,,18,5,50,43,6,9,0.7,0.7
2025-11-11T0000,2185A,111.1297,37.5136,吕梁市,自来水公司,颗粒物(PM10),97,144,129,42,32,0,,8,2,47,47,3,5,0.8,0.6
2025-11-11T0000,2867A,111.1283,37.51,吕梁市,马茂庄小学,颗粒物(PM10),104,158,126,38,31,2,,10,3,51,47,4,8,0.9,0.8
2025-11-11T0000,1812A,112.3931,34.6516,洛阳市,市委党校,细颗粒物(PM2.5),114,153,134,86,66,3,,71,32,69,50,7,9,0.9,0.9
2025-11-11T0000,1815A,112.494,34.6886,洛阳市,河南林校,细颗粒物(PM2.5),117,151,131,88,66,4,,74,32,68,48,8,9,1.0,0.8
2025-11-11T0000,1816A,112.3844,34.623,洛阳市,开发区管委会,细颗粒物(PM2.5),122,156,129,92,67,7,,68,37,54,37,6,8,0.9,0.8
2025-11-11T0000,1817A,112.4267,34.6258,洛阳市,市委新办公区,颗粒物(PM10),115,180,148,71,58,3,,69,30,62,45,8,10,1.0,0.7
2025-11-11T0000,3340A,112.6005,34.6326,洛阳市,伊滨,颗粒物(PM10),108,166,139,73,56,2,,65,34,62,36,7,8,0.8,0.6
2025-11-11T0000,3341A,112.4951,34.6332,洛阳市,中移产业园,颗粒物(PM10),111,172,141,83,65,1,,69,32,74,48,7,9,1.1,0.7
2025-11-11T0000,3593A,112.5736,34.8993,洛阳市,吉利监测站,细颗粒物(PM2.5),82,107,122,60,67,32,,78,42,36,44,6,8,0.6,0.8
2025-11-11T0000,3635A,112.3677,34.662,洛阳市,河科大西苑校区,细颗粒物(PM2.5),107,146,137,80,64,8,,71,29,62,48,9,12,1.0,1.1
2025-11-11T0000,3636A,112.4388,34.6781,洛阳市,英才小学,细颗粒物(PM2.5),132,178,157,100,79,0,,65,27,88,59,9,11,1.2,1.1
2025-11-11T0000,4214A,112.4600,34.6949,洛阳市,春都路1号院,颗粒物(PM10),105,160,138,72,58,0,,64,26,73,44,8,11,1.2,1
2025-11-11T0000,2399A,114.051,33.5699,漯河市,三五一五工厂,细颗粒物(PM2.5),110,146,129,83,73,64,,98,78,24,26,8,8,0.7,0.7
2025-11-11T0000,2400A,114.0055,33.5698,漯河市,漯河大学,细颗粒物(PM2.5),117,,111,88,72,66,,104,84,31,30,7,8,0.6,0.6
2025-11-11T0000,2401A,114.0138,33.5828,漯河市,市水利局,细颗粒物(PM2.5),107,127,112,80,69,71,,101,84,23,29,8,9,0.8,0.8
2025-11-11T0000,2402A,114.0261,33.5698,漯河市,市广电局,细颗粒物(PM2.5),104,132,122,78,65,62,,100,84,28,25,7,7,0.7,0.7
2025-11-11T0000,3478A,113.9749,33.5664,漯河市,市图书馆,细颗粒物(PM2.5),117,152,129,88,69,61,,90,74,29,27,6,6,0.9,0.9
2025-11-11T0000,4250A,114.0892,33.5882,漯河市,韶山路11号,细颗粒物(PM2.5),123,150,131,93,71,54,,91,65,33,36,8,9,0.8,0.8
2025-11-11T0000,1798A,118.5092,31.6837,马鞍山市,湖东路四小,,35,35,59,7,28,61,,106,79,18,22,5,6,0.4,0.6
2025-11-11T0000,1799A,118.5024,31.6449,马鞍山市,开发区,,31,31,62,6,24,63,,113,87,20,21,4,5,0.4,0.6
2025-11-11T0000,1802A,118.6245,31.7241,马鞍山市,濮塘,,,,,,,,,,,,,,,,
2025-11-11T0000,3633A,118.4918,31.6809,马鞍山市,雨山,,34,34,60,6,25,64,,112,82,17,21,5,6,0.4,0.6
2025-11-11T0000,4191A,118.5274,31.72227,马鞍山市,慈湖高新区,,26,26,56,10,38,58,,108,82,18,20,4,5,0.4,0.6
2025-11-11T0000,1686A,111.0286,21.4688,茂名市,电白南海,,36,36,31,19,13,50,,99,79,12,12,13,10,0.8,0.8
2025-11-11T0000,1687A,110.9294,21.6533,茂名市,茂石化七小,,29,29,27,14,13,58,,86,63,13,11,13,14,0.9,0.9
2025-11-11T0000,1688A,110.9107,21.6687,茂名市,健康路,,31,31,26,14,12,62,,88,65,12,11,19,24,0.9,1
2025-11-11T0000,1689A,110.8592,21.6828,茂名市,高岭,,39,39,36,17,11,54,,79,60,15,13,30,15,0.8,0.7
2025-11-11T0000,3450A,111.01,21.5165,茂名市,电白水东,,29,29,23,17,11,51,,97,76,14,11,16,8,1.0,0.9
2025-11-11T0000,2539A,104.0308,30.0478,眉山市,黑龙滩水库,,,,,,,,,,,,,,,,
2025-11-11T0000,2540A,103.8416,30.0874,眉山市,气象局,,37,37,40,12,13,7,,41,12,36,26,8,8,0.4,0.4
2025-11-11T0000,3137A,103.8578,30.0744,眉山市,市委党校,,24,24,25,7,7,7,,40,23,40,21,6,6,0.6,0.6
2025-11-11T0000,3148A,103.8291,30.0564,眉山市,区人社局,,42,42,37,3,10,13,,44,20,31,21,13,11,0.8,0.7
2025-11-11T0000,1690A,116.1231,24.3284,梅州市,梅江月梅,,13,13,13,7,7,16,,49,27,20,14,5,5,0.7,0.7
2025-11-11T0000,1691A,116.0797,24.2719,梅州市,梅县新城,,10,10,13,3,6,28,,49,34,13,11,7,7,0.6,0.6
2025-11-11T0000,1692A,116.1248,24.2654,梅州市,环境监控中心,,12,12,12,7,6,22,,50,31,16,10,5,5,0.6,0.7
2025-11-11T0000,3315A,116.1233,24.2991,梅州市,梅龙,,10,9,11,7,7,18,,45,27,16,10,7,7,0.8,0.8
2025-11-11T0000,1878A,104.7778,31.4741,绵阳市,富乐山,,14,14,20,9,10,18,,56,34,15,7,9,9,0.6,0.5
2025-11-11T0000,1880A,104.6697,31.4668,绵阳市,高新区自来水公司,,32,32,22,12,11,1,,52,35,42,11,8,8,0.5,0.5
2025-11-11T0000,1881A,104.7287,31.5075,绵阳市,三水厂,,19,16,20,13,11,6,,58,36,30,12,8,7,0.6,0.5
2025-11-11T0000,3491A,104.69,31.5322,绵阳市,西科大附属小学,,25,25,25,12,10,3,,56,28,34,17,10,10,0.5,0.4
2025-11-11T0000,3492A,104.5648,31.5343,绵阳市,安州区旅游局,,18,16,21,12,12,13,,57,34,10,10,9,11,0.6,0.4
2025-11-11T0000,4226A,104.7651,31.4531,绵阳市,绵阳市气象局,,17,17,18,8,9,31,,52,41,16,9,7,7,0.6,0.5
2025-11-11T0000,1784A,129.61,44.561,牡丹江市,环保大楼,,23,,28,16,19,39,,55,49,15,8,5,4,0.3,0.3
2025-11-11T0000,1785A,129.6115,44.5782,牡丹江市,文化广场,,35,35,29,21,20,49,,56,51,8,7,6,6,0.3,0.3
2025-11-11T0000,1786A,129.5904,44.5963,牡丹江市,第一医院,细颗粒物(PM2.5),53,,29,37,28,43,,59,53,13,6,3,3,0.3,0.3
2025-11-11T0000,1787A,129.6364,44.6075,牡丹江市,机车工厂,,38,38,28,18,20,20,,58,49,34,10,4,5,0.4,0.3
2025-11-11T0000,1788A,129.6386,44.5462,牡丹江市,第一中学,,38,,25,26,18,31,,55,45,10,6,2,2,0.3,0.3
2025-11-11T0000,2531A,105.0703,29.61,内江市,市监测站,,17,17,24,3,11,34,,35,31,8,11,3,4,0.7,0.7
2025-11-11T0000,2532A,105.0717,29.5947,内江市,东兴区政府,,18,18,15,3,6,24,,26,24,11,13,5,5,0.3,0.3
2025-11-11T0000,2533A,105.0653,29.5817,内江市,内江二中,,10,10,21,6,13,23,,26,22,12,15,4,4,0.6,0.6
2025-11-11T0000,2534A,105.0406,29.5822,内江市,内江日报社,,29,29,15,6,12,24,,28,26,11,12,4,4,0.4,0.4
2025-11-11T0000,2628A,92.0657,31.4846,那曲市,那曲监测站,细颗粒物(PM2.5),79,101,51,58,29,5,,93,56,70,28,18,12,3.0,1.2
2025-11-11T0000,4243A,92.0515,31.4787,那曲市,那曲市委宣传部,,33,33,35,20,21,30,,91,63,34,22,12,9,1.4,1.1
2025-11-11T0000,1290A,115.8931,28.6843,南昌市,省外办,细颗粒物(PM2.5),62,69,61,44,39,83,,88,88,19,15,4,4,0.9,1
2025-11-11T0000,1291A,115.8886,28.7003,南昌市,省林业公司,颗粒物(PM10),64,78,52,39,37,92,,97,97,16,12,4,4,1.0,1.1
2025-11-11T0000,1292A,115.8126,28.7442,南昌市,林科所,颗粒物(PM10),64,78,51,39,33,99,,90,90,6,11,4,3,0.8,0.8
2025-11-11T0000,1294A,115.8518,28.687,南昌市,建工学校,颗粒物(PM10),69,88,67,43,39,89,,89,89,19,18,9,8,0.7,0.8
2025-11-11T0000,1295A,115.8921,28.6424,南昌市,象湖,颗粒物(PM10),64,77,54,44,35,87,,94,94,21,16,8,8,0.8,0.8
2025-11-11T0000,1296A,115.7423,28.7996,南昌市,武术学校,,,,,,,,,,,,,,,,
2025-11-11T0000,3046A,115.9084,28.6062,南昌市,机电学校,颗粒物(PM10),71,91,62,46,41,94,,102,102,20,15,8,7,0.6,0.6
2025-11-11T0000,3690A,115.9721,28.7031,南昌市,外国语学校,颗粒物(PM10),70,89,59,44,40,92,,97,97,22,18,10,9,0.7,0.7
2025-11-11T0000,4192A,115.9316,28.68677,南昌市,南京东路235号,颗粒物(PM10),73,96,67,40,41,94,,100,100,20,17,7,5,0.7,0.7
2025-11-11T0000,1905A,106.056,30.8064,南充市,西山风景区,,,,,,,,,,,,,,,,
2025-11-11T0000,1906A,106.0789,30.8023,南充市,南充市委,,28,28,12,13,6,33,,33,32,11,15,4,4,0.3,0.5
2025-11-11T0000,1907A,106.1031,30.8217,南充市,南充炼油厂,,37,37,20,18,10,37,,35,35,7,11,6,6,0.3,0.4
2025-11-11T0000,4227A,106.1083,30.7884,南充市,梨树横街98号,,30,30,12,14,8,40,,39,38,7,12,4,4,0.3,0.4
2025-11-11T0000,4304A,106.1172,30.843,南充市,清泉寺北路188号,,38,38,12,11,4,48,,42,41,6,9,7,6,0.4,0.5
2025-11-11T0000,4305A,106.067,30.7616,南充市,同庆路1号,,28,28,10,7,5,30,,28,28,12,15,6,6,0.4,0.5
2025-11-11T0000,1151A,118.8086,32.1065,南京市,迈皋桥,,25,25,54,9,30,63,,92,61,21,26,4,4,0.7,0.9
2025-11-11T0000,1152A,118.7538,32.0551,南京市,草场门,,36,36,74,9,36,44,,82,55,25,32,3,9,0.3,0.6
2025-11-11T0000,1153A,118.7794,32.0745,南京市,山西路,,34,34,78,9,37,52,,94,56,20,28,4,4,0.2,0.4
2025-11-11T0000,1154A,118.7752,32.0023,南京市,中华门,,27,27,75,3,39,60,,96,63,17,26,4,4,0.4,0.5
2025-11-11T0000,1155A,118.8109,32.0309,南京市,瑞金路,,24,24,70,7,36,61,,91,64,10,15,4,4,0.5,0.8
2025-11-11T0000,1156A,118.7997,32.0754,南京市,玄武湖,,28,28,57,8,36,42,,81,40,17,18,4,4,0.2,0.5
2025-11-11T0000,1157A,118.6414,32.0931,南京市,浦口,,41,41,68,15,41,52,,93,66,30,23,8,8,0.2,0.4
2025-11-11T0000,1158A,118.7356,31.9996,南京市,奥体中心,,31,31,78,9,40,63,,97,74,23,29,6,7,0.5,0.6
2025-11-11T0000,1159A,118.9125,32.1028,南京市,仙林大学城,,29,29,74,7,34,55,,86,53,14,25,6,6,0.4,0.6
2025-11-11T0000,3422A,118.8436,31.9198,南京市,江宁彩虹桥,,28,28,55,14,33,48,,106,75,28,24,4,4,0.4,0.6
2025-11-11T0000,3427A,118.8554,32.3578,南京市,六合雄州,,24,24,44,14,25,46,,89,63,24,25,5,5,0.3,0.5
2025-11-11T0000,4249A,118.8708,31.3402,南京市,汶溪路181号,,22,22,62,13,31,46,,108,73,32,26,6,6,0.6,0.7
2025-11-11T0000,4312A,119.019,31.6512,南京市,中山西路1号,,36,36,62,8,29,46,,91,63,17,17,4,4,0.5,0.6
2025-11-11T0000,1401A,108.3103,22.7881,南宁市,二十一中,,21,21,18,10,8,16,,38,26,20,14,4,5,0.8,0.7
2025-11-11T0000,1402A,108.3141,22.8528,南宁市,北湖,,21,21,18,8,8,18,,47,28,18,14,7,8,0.7,0.7
2025-11-11T0000,1403A,108.3206,22.8225,南宁市,市监测站,,25,25,17,11,8,14,,38,21,20,17,6,7,0.7,0.7
2025-11-11T0000,1404A,108.3829,22.8037,南宁市,大自然花园,,23,23,18,8,7,21,,50,34,18,11,7,6,0.7,0.7
2025-11-11T0000,1405A,108.4394,22.7904,南宁市,仙葫,,,,,,,,,,,,,,,,
2025-11-11T0000,1406A,108.2397,22.8467,南宁市,区农职院,,14,14,18,8,7,28,,42,33,8,10,3,5,0.7,0.7
2025-11-11T0000,1407A,108.3275,22.735,南宁市,英华嘉园,,18,18,17,10,8,15,,45,29,22,13,2,3,0.7,0.6
2025-11-11T0000,3401A,108.4834,22.7618,南宁市,红星社区,,16,12,12,11,7,28,,58,40,14,9,8,5,0.6,0.6
2025-11-11T0000,4221A,108.2177,22.7774,南宁市,乐贤路16号,,21,21,23,3,9,24,,43,33,14,11,9,6,0.5,0.5
2025-11-11T0000,2331A,118.0966,26.6761,南平市,茫荡山,,,,12,,,,,77,77,,,,2,,0.3
2025-11-11T0000,2332A,118.1681,26.6369,南平市,南平市监测站,,41,41,10,17,9,65,,50,41,9,11,4,4,0.3,0.6
2025-11-11T0000,2333A,118.1825,26.6489,南平市,南平铝业有限公司,,32,32,14,9,6,75,,50,42,9,11,3,3,0.4,0.6
2025-11-11T0000,2334A,118.1756,26.6272,南平市,南平七中,,41,41,17,12,5,68,,50,50,7,8,5,6,0.4,0.6
2025-11-11T0000,1168A,120.9098,31.9663,南通市,狼山街道,,39,39,54,13,21,46,,80,60,35,18,3,3,0.6,0.6
2025-11-11T0000,1169A,120.86,32.0005,南通市,虹桥,,34,34,45,13,25,59,,83,67,24,15,5,4,0.6,0.6
2025-11-11T0000,1170A,120.87,32.02,南通市,城中,,44,44,60,22,26,45,,76,57,36,20,6,4,0.4,0.4
2025-11-11T0000,1171A,120.94,31.93,南通市,星湖花园,,38,38,54,16,22,48,,83,63,32,18,4,4,0.4,0.4
2025-11-11T0000,1172A,120.81,32.0417,南通市,紫琅学院,,49,49,61,18,28,36,,77,46,38,22,7,5,0.6,0.6
2025-11-11T0000,3291A,121.067,32.062,南通市,通州监测站,,25,22,36,17,23,66,,87,74,20,16,2,2,0.4,0.5
2025-11-11T0000,3432A,120.9348,31.9883,南通市,环境教育馆,,36,36,48,18,28,22,,83,42,49,22,4,4,0.5,0.5
2025-11-11T0000,2404A,112.5224,33.0122,南阳市,瓦房庄,颗粒物(PM10),81,111,109,54,49,45,,102,76,32,20,8,8,0.6,0.6
2025-11-11T0000,2405A,112.5003,32.9735,南阳市,汉画馆,颗粒物(PM10),70,90,100,50,45,36,,99,70,30,21,6,6,0.6,0.6
2025-11-11T0000,2406A,112.5573,33.027,南阳市,气象站,颗粒物(PM10),88,125,123,53,41,55,,106,77,31,22,6,7,0.5,0.4
2025-11-11T0000,2407A,112.5481,32.9689,南阳市,理工学院,颗粒物(PM10),75,99,109,41,38,62,,100,76,22,22,6,7,0.6,0.6
2025-11-11T0000,4008A,112.5234,32.9922,南阳市,卧龙区政府,颗粒物(PM10),80,110,119,3,48,47,,100,74,32,21,6,7,0.6,0.6
2025-11-11T0000,1234A,121.8358,29.911,宁波市,区环保大楼,,29,29,46,13,19,62,,92,73,27,26,5,6,0.4,0.5
2025-11-11T0000,1235A,121.56,29.82,宁波市,万里学院,,31,31,41,7,20,70,,102,81,22,17,7,7,0.5,0.7
2025-11-11T0000,1236A,121.713,29.9572,宁波市,龙赛医院,,23,18,47,3,13,72,,95,76,14,17,4,4,0.4,0.5
2025-11-11T0000,1239A,121.633,29.7733,宁波市,钱湖水厂,,26,26,42,7,18,63,,101,73,16,15,6,7,0.4,0.5
2025-11-11T0000,1240A,121.5856,29.8635,宁波市,太古小学,,24,24,43,3,16,68,,100,80,22,18,4,4,0.5,0.6
2025-11-11T0000,1241A,121.524,29.8674,宁波市,市环境监测中心,,30,30,44,9,14,64,,96,75,18,16,10,10,0.4,0.5
2025-11-11T0000,2871A,121.6147,29.9017,宁波市,万里国际学校,,28,28,44,3,14,78,,101,83,13,16,4,5,0.5,0.6
2025-11-11T0000,3710A,121.5594,29.8975,宁波市,白沙活动中心,,32,32,37,3,15,66,,92,71,15,17,5,6,0.3,0.4
2025-11-11T0000,2339A,119.5001,26.6946,宁德市,金涵水库,,,,32,,12,,,75,75,,10,,2,,0.4
2025-11-11T0000,2341A,119.5388,26.6612,宁德市,宁德市监测站,颗粒物(PM10),54,58,35,28,15,95,,101,99,9,15,6,8,0.3,0.4
2025-11-11T0000,3209A,119.5231,26.6562,宁德市,宁德一中,颗粒物(PM10),54,58,37,21,11,94,,104,101,8,12,6,8,0.3,0.4
2025-11-11T0000,2618A,98.8601,25.8567,怒江傈僳族自治州,州监测站,,30,30,23,21,15,27,,61,44,13,9,8,8,0.3,0.3
2025-11-11T0000,2619A,98.8546,25.8417,怒江傈僳族自治州,泸水一中,,16,16,17,3,10,14,,47,24,17,15,6,6,0.6,0.5
2025-11-11T0000,1888A,101.6891,26.571,攀枝花市,弄弄坪,,50,50,32,21,14,0,,67,38,35,22,2,3,1.2,1.1
2025-11-11T0000,1889A,101.5769,26.5928,攀枝花市,河门口,,26,26,21,14,12,17,,65,45,18,11,16,13,0.8,0.8
2025-11-11T0000,1890A,101.7169,26.585,攀枝花市,炳草岗,颗粒物(PM10),53,56,34,26,15,1,,68,29,44,26,6,12,1.0,1.2
2025-11-11T0000,1891A,101.7369,26.5008,攀枝花市,仁和,,13,13,24,7,14,27,,64,33,10,12,6,10,0.4,0.8
2025-11-11T0000,2835A,101.7227,26.567,攀枝花市,四十中小,,46,46,34,24,18,3,,59,22,48,26,11,22,1.6,1.7
2025-11-11T0000,1604A,122.0303,41.1489,盘锦市,开发区,,45,45,25,22,12,5,,46,37,53,28,4,5,0.7,0.2
2025-11-11T0000,1605A,122.0485,41.0883,盘锦市,兴隆台,,45,45,22,21,10,4,,52,36,58,34,6,10,0.6,0.4
2025-11-11T0000,1606A,121.8297,41.1028,盘锦市,新生街道,,50,,17,35,7,4,,65,42,63,31,11,14,0.7,0.2
2025-11-11T0000,1832A,113.3257,33.742,平顶山市,新华旅馆,颗粒物(PM10),91,132,123,55,63,22,,104,61,61,35,8,9,0.6,0.7
2025-11-11T0000,1833A,113.2919,33.737,平顶山市,规划设计院,颗粒物(PM10),89,128,123,62,61,38,,103,68,43,38,6,8,0.7,0.7
2025-11-11T0000,1834A,113.182,33.774,平顶山市,平顶山工学院,颗粒物(PM10),91,131,124,63,62,28,,115,67,50,31,7,10,0.4,0.5
2025-11-11T0000,3204A,113.3025,33.73,平顶山市,规划局,颗粒物(PM10),84,117,129,48,54,40,,105,69,40,32,8,10,0.6,0.7
2025-11-11T0000,3594A,112.8867,33.9116,平顶山市,石龙区,,,125,155,56,54,58,,114,83,,47,7,9,0.7,0.7
2025-11-11T0000,2656A,106.6692,35.5461,平凉市,聚贤嘉苑,颗粒物(PM10),67,84,78,40,36,6,,67,40,51,24,6,5,0.6,0.5
2025-11-11T0000,2657A,106.7021,35.5307,平凉市,博物馆,颗粒物(PM10),72,93,74,47,35,15,,68,45,44,26,10,9,1.3,0.9
2025-11-11T0000,2347A,114.0997,27.5002,萍乡市,武功山,,,,,,,,,,,,,,,,
2025-11-11T0000,2348A,113.8385,27.6434,萍乡市,中医院,,13,,17,7,13,14,,22,14,26,25,4,7,0.9,1.2
2025-11-11T0000,2349A,113.8493,27.6253,萍乡市,市政府车库,,13,,15,9,15,11,,23,16,25,26,5,8,0.8,0.9
2025-11-11T0000,2350A,113.8676,27.6435,萍乡市,市环保局,,,,18,4,12,15,,19,14,22,22,7,10,0.7,0.9
2025-11-11T0000,2351A,113.866,27.6198,萍乡市,安源区政府,,16,,13,11,14,18,,23,20,20,19,9,11,0.9,0.8
2025-11-11T0000,2319A,119.0141,25.4325,莆田市,荔城区仓后路,,31,31,36,13,11,98,,106,105,6,7,4,4,0.4,0.4
2025-11-11T0000,2320A,119.0015,25.4553,莆田市,莆田市监测站,,32,22,29,12,9,101,,108,107,6,7,4,4,0.5,0.5
2025-11-11T0000,2321A,119.1119,25.4561,莆田市,涵江区六中,,38,38,34,15,11,100,,111,109,6,6,2,2,0.5,0.5
2025-11-11T0000,2322A,119.1013,25.3215,莆田市,秀屿区政府,,41,41,45,22,16,99,,112,110,6,7,4,4,0.3,0.3
2025-11-11T0000,2323A,118.981,25.4792,莆田市,东圳水库,,,,19,,4,,,118,118,,5,,3,,0.6
2025-11-11T0000,2392A,115.0312,35.7636,濮阳市,环保局,颗粒物(PM10),69,88,87,48,50,69,,70,64,28,42,9,11,0.6,0.8
2025-11-11T0000,2394A,115.0574,35.7609,濮阳市,油田运输公司,细颗粒物(PM2.5),74,82,96,54,52,69,,75,63,24,38,10,13,0.8,1
2025-11-11T0000,3021A,115,35.7668,濮阳市,濮水河管理处,细颗粒物(PM2.5),110,110,88,83,54,44,,69,49,33,33,8,8,0.1,0.2
2025-11-11T0000,4216A,115.0924,35.7686,濮阳市,任丘路479号,细颗粒物(PM2.5),84,107,104,62,57,36,,69,39,43,45,10,12,0.7,0.8
2025-11-11T0000,2601A,100.98,22.7633,普洱市,市环保局,,31,31,21,14,13,12,,37,21,6,4,5,5,0.7,0.6
2025-11-11T0000,2602A,100.9817,22.8322,普洱市,普洱第二中学,,32,32,21,13,13,5,,38,15,9,7,4,4,0.4,0.4
2025-11-11T0000,2262A,131.0518,45.8751,七台河市,新一中,,,,,,,,,,,,,,,,
2025-11-11T0000,3345A,131.0577,45.7879,七台河市,中波台,,20,19,15,14,10,39,,55,46,17,9,7,7,0.4,0.5
2025-11-11T0000,3637A,131.0176,45.7761,七台河市,人民广场,,23,23,17,15,14,48,,60,53,14,11,6,6,0.4,0.4
2025-11-11T0000,3684A,130.8781,45.8222,七台河市,新建矿广场,,29,,16,20,19,42,,53,45,7,7,8,7,0.5,0.4
2025-11-11T0000,1779A,123.9305,47.3636,齐齐哈尔市,安居小区,,30,24,20,21,12,37,,55,40,12,13,5,5,0.5,0.4
2025-11-11T0000,1780A,123.9488,47.3386,齐齐哈尔市,中心广场,,30,30,17,14,8,39,,53,42,16,16,6,6,0.4,0.4
2025-11-11T0000,1781A,123.9483,47.3227,齐齐哈尔市,农牧车辆厂,,24,24,26,10,7,34,,48,38,13,17,4,5,0.5,0.5
2025-11-11T0000,1783A,123.945,47.2988,齐齐哈尔市,市环境监测站,,25,25,29,13,13,36,,49,33,12,16,6,7,0.6,0.6
2025-11-11T0000,3662A,123.6333,47.2075,齐齐哈尔市,富区青少年活动中心,细颗粒物(PM2.5),83,72,36,61,19,5,,47,24,50,29,6,7,0.9,0.8
2025-11-11T0000,2591A,107.9783,26.5747,黔东南苗族侗族自治州,市环境监测站,,17,6,5,3,6,54,,71,59,5,6,4,4,0.6,0.6
2025-11-11T0000,2881A,107.8908,26.5311,黔东南苗族侗族自治州,凯里学院,,19,,7,6,5,60,,73,63,8,9,4,4,0.7,0.7
2025-11-11T0000,2593A,107.5228,26.2403,黔南布依族苗族自治州,小围寨,,15,6,2,3,1,45,,56,48,4,4,3,4,0.6,0.6
2025-11-11T0000,3538A,107.5175,26.2978,黔南布依族苗族自治州,沙坝,,15,7,9,3,3,46,,61,51,7,7,3,4,0.7,0.6
2025-11-11T0000,2589A,104.9022,25.0925,黔西南布依族苗族自治州,场坝街,,16,16,16,7,8,28,,31,30,10,10,2,6,0.6,0.6
2025-11-11T0000,2590A,104.8811,25.0992,黔西南布依族苗族自治州,坪东大道,,12,12,16,8,9,29,,29,28,8,9,2,2,0.6,0.6
2025-11-11T0000,2502A,108.6236,21.9667,钦州市,市环保站,,15,14,21,3,8,47,,57,50,7,9,3,4,0.6,0.8
2025-11-11T0000,2503A,108.6549,21.9481,钦州市,沙埠小学,,19,19,24,9,9,40,,60,52,13,10,4,4,1.0,0.8
2025-11-11T0000,2504A,108.5989,21.7431,钦州市,港区一小,,36,36,34,14,14,34,,52,37,22,19,6,6,0.7,0.8
2025-11-11T0000,3404A,108.5959,21.9633,钦州市,北职校,,18,18,20,8,8,44,,54,48,6,6,6,5,0.6,0.6
2025-11-11T0000,1043A,119.7493,40.0116,秦皇岛市,第一关,细颗粒物(PM2.5),79,82,50,58,25,7,,56,14,76,46,9,8,0.8,0.6
2025-11-11T0000,1044A,119.5897,39.9499,秦皇岛市,监测站,颗粒物(PM10),68,86,57,42,21,18,,54,27,66,45,11,10,1.0,0.7
2025-11-11T0000,1046A,119.5251,39.9041,秦皇岛市,建设大厦,颗粒物(PM10),69,87,53,47,23,20,,54,29,62,42,9,8,0.7,0.6
2025-11-11T0000,3132A,119.610547,39.943889,秦皇岛市,文明里,颗粒物(PM10),73,95,52,37,17,8,,47,21,74,41,13,11,0.8,0.5
2025-11-11T0000,4198A,119.5090,39.8253,秦皇岛市,北戴河轮滑馆,颗粒物(PM10),82,114,47,55,19,20,,56,37,51,29,10,5,1.2,0.7
2025-11-11T0000,1307A,120.6659,36.2403,青岛市,仰口,,,,,,,,,,,,,,,,
2025-11-11T0000,1310A,120.4134,36.0658,青岛市,市南区东部子站,,39,39,46,14,16,74,,90,87,20,29,8,10,0.3,0.4
2025-11-11T0000,1311A,120.3664,36.1032,青岛市,四方区子站,,39,39,43,17,23,59,,79,72,28,26,5,7,0.3,0.4
2025-11-11T0000,1312A,120.2994,36.054,青岛市,市南区西部子站,颗粒物(PM10),52,53,55,3,19,18,,78,66,75,36,9,10,0.4,0.5
2025-11-11T0000,1313A,120.4581,36.0858,青岛市,崂山区子站,,29,29,44,9,13,66,,82,75,19,26,9,11,0.4,0.5
2025-11-11T0000,1315A,120.3999,36.3083,青岛市,城阳区子站,颗粒物(PM10),51,51,53,10,19,28,,74,48,50,37,5,7,0.6,0.6
2025-11-11T0000,3362A,120.5014,36.4034,青岛市,即墨2号,,42,42,54,13,18,56,,68,55,28,38,6,6,0.4,0.4
2025-11-11T0000,3642A,120.3503,36.0736,青岛市,市北区南部,,39,39,52,14,17,46,,79,70,47,36,6,9,0.1,0.2
2025-11-11T0000,3643A,120.3948,36.1805,青岛市,李沧区北部,,39,39,53,17,24,30,,70,46,51,37,7,9,0.6,0.6
2025-11-11T0000,4290A,120.1969,35.9546,青岛市,珠江路669号,,34,34,50,17,21,74,,82,78,13,24,11,12,0.3,0.3
2025-11-11T0000,4291A,120.0424,35.8656,青岛市,黄岛区人民政府广场,颗粒物(PM10),56,61,53,27,18,37,,85,56,41,31,6,7,0.7,0.7
2025-11-11T0000,1702A,113.0426,23.691,清远市,环保大楼,,,,,,,,,,,,,,,,
2025-11-11T0000,1703A,113.0208,23.7106,清远市,凤城街办,,15,9,8,3,6,45,,60,52,13,13,7,6,0.6,0.6
2025-11-11T0000,3025A,113.0477,23.6344,清远市,技师学院,,13,13,11,7,6,39,,61,45,17,15,7,6,0.5,0.5
2025-11-11T0000,3318A,112.9903,23.7403,清远市,清新太和,,16,8,6,3,3,50,,65,59,9,9,9,10,0.3,0.3
2025-11-11T0000,3455A,113.076,23.7198,清远市,清城东城,,14,11,7,6,4,42,,62,49,13,12,7,6,0.7,0.6
2025-11-11T0000,2661A,107.6325,35.7357,庆阳市,庆阳五中,颗粒物(PM10),69,87,72,42,33,56,,71,60,17,16,4,4,0.4,0.3
2025-11-11T0000,2662A,107.6364,35.7067,庆阳市,市环保局,颗粒物(PM10),72,93,77,41,30,66,,76,66,13,16,3,5,0.7,0.7
2025-11-11T0000,1916A,103.7897,25.5035,曲靖市,环境监测站,,26,26,16,3,7,12,,40,30,9,11,4,6,0.3,0.5
2025-11-11T0000,1917A,103.8,25.5364,曲靖市,烟厂办公区,,22,22,13,11,7,4,,42,30,23,14,3,4,0.5,0.5
2025-11-11T0000,3376A,103.7947,25.462,曲靖市,南苑二区,,9,9,7,3,6,22,,45,32,5,10,4,4,0.4,0.6
2025-11-11T0000,3377A,103.7444,25.5261,曲靖市,曲靖师范学院,,33,31,15,23,11,6,,43,27,13,11,2,2,0.5,0.5
2025-11-11T0000,1264A,118.8692,28.9398,衢州市,环保大楼,颗粒物(PM10),58,66,59,28,30,73,,98,86,19,18,5,4,0.5,0.6
2025-11-11T0000,1265A,118.8709,28.9666,衢州市,实验学校,颗粒物(PM10),56,62,54,28,29,76,,101,87,20,19,7,7,0.5,0.5
2025-11-11T0000,1266A,118.8621,28.9808,衢州市,衢州学院,颗粒物(PM10),59,68,53,32,28,78,,103,91,20,17,6,5,0.2,0.3
2025-11-11T0000,1611A,118.5819,24.9117,泉州市,涂山街,,33,26,28,12,11,103,,102,102,4,5,2,3,0.4,0.4
2025-11-11T0000,1612A,118.5972,24.8978,泉州市,津头埔,,33,25,30,14,12,103,,103,103,4,7,2,2,0.3,0.3
2025-11-11T0000,1613A,118.6663,24.9424,泉州市,万安,,31,30,35,13,13,99,,102,102,5,5,3,2,0.4,0.4
2025-11-11T0000,1614A,118.6117,24.9604,泉州市,清源山,,,,19,,7,,,107,107,,5,,3,,0.5
2025-11-11T0000,3529A,118.6333,24.9264,泉州市,城华南路,,32,27,29,12,12,100,,102,102,4,6,3,3,0.4,0.4
2025-11-11T0000,2626A,88.8876,29.2718,日喀则市,日喀则监测站,,31,7,13,3,4,97,,89,89,4,11,7,9,0.3,0.3
2025-11-11T0000,3726A,88.8781,29.2426,日喀则市,林业技术推广中心,,32,7,13,3,2,100,,97,97,2,5,6,6,0.2,0.3
2025-11-11T0000,1659A,119.471,35.4209,日照市,监测站,颗粒物(PM10),54,58,50,35,23,0,,71,21,63,41,8,8,0.8,0.6
2025-11-11T0000,1660A,119.523,35.4216,日照市,市政府广场,颗粒物(PM10),52,53,51,21,18,19,,76,39,57,32,10,10,0.9,0.8
2025-11-11T0000,1661A,119.5587,35.4044,日照市,港务局,颗粒物(PM10),56,61,54,37,30,20,,76,38,68,35,10,9,1.0,0.5
2025-11-11T0000,3507A,119.5328,35.4625,日照市,职业技术学院,,48,48,53,24,20,12,,77,32,59,31,6,6,0.9,0.7
2025-11-11T0000,3604A,119.3266,35.1044,日照市,岚山环保分局,,48,48,55,17,23,33,,81,70,54,28,9,16,0.7,1.2
2025-11-11T0000,1835A,111.1922,34.7752,三门峡市,市政府,细颗粒物(PM2.5),103,114,109,77,60,8,,54,16,52,39,16,12,1.0,0.7
2025-11-11T0000,1836A,111.1587,34.7942,三门峡市,开发区,颗粒物(PM10),116,181,160,79,58,12,,55,26,45,36,11,10,0.9,0.6
2025-11-11T0000,1838A,111.143,34.7955,三门峡市,风景区,颗粒物(PM10),88,125,119,57,49,18,,61,33,32,30,13,11,1.0,0.8
2025-11-11T0000,3039A,111.1911,34.7829,三门峡市,三门峡市第一小学,细颗粒物(PM2.5),95,126,126,71,56,13,,60,26,53,37,20,16,1.0,0.6
2025-11-11T0000,3598A,111.1,34.7167,三门峡市,富达温泉假日酒店,颗粒物(PM10),104,157,140,75,64,4,,46,18,52,37,14,14,1.0,0.7
2025-11-11T0000,2324A,117.6211,26.2625,三明市,三钢,,36,36,12,18,10,51,,41,38,15,11,11,4,0.6,0.8
2025-11-11T0000,2325A,117.635,26.2714,三明市,三明二中,,30,30,12,13,7,51,,39,36,12,8,12,5,0.5,0.7
2025-11-11T0000,2326A,117.6028,26.2378,三明市,三元区政府,,28,28,10,11,4,59,,41,41,12,10,6,3,0.7,0.8
2025-11-11T0000,2327A,117.7275,26.3108,三明市,洋溪,,,,8,,5,,,49,48,,7,,12,,1.3
2025-11-11T0000,1876A,109.5078,18.2489,三亚市,河东子站,,24,24,22,11,10,65,,69,69,15,12,3,3,0.7,0.5
2025-11-11T0000,1877A,109.4964,18.2681,三亚市,河西子站,,28,28,24,15,12,76,,66,66,11,14,6,6,0.6,0.5
2025-11-11T0000,3540A,109.7348,18.3443,三亚市,君悦子站,,37,37,34,18,15,45,,93,64,10,11,4,4,0.5,0.5
2025-11-11T0000,2624A,91.7608,29.2313,山南市,山南监测站,,21,11,10,6,5,65,,89,74,14,11,5,5,0.2,0.3
2025-11-11T0000,2625A,91.7706,29.2436,山南市,山南人民医院,,27,11,11,3,5,84,,89,86,2,6,6,5,0.2,0.2
2025-11-11T0000,1674A,116.6794,23.3667,汕头市,金平子站,,20,20,24,13,13,52,,76,63,13,16,11,7,0.7,0.8
2025-11-11T0000,1675A,116.7244,23.3633,汕头市,龙湖子站,,21,21,24,10,13,51,,72,62,11,13,10,10,0.7,0.8
2025-11-11T0000,1676A,116.7258,23.2775,汕头市,濠江子站,,19,19,23,6,12,60,,77,69,6,9,6,7,0.6,0.7
2025-11-11T0000,1677A,116.7519,23.4714,汕头市,澄海子站,,17,17,26,10,12,51,,72,61,9,13,16,10,0.6,0.7
2025-11-11T0000,1678A,116.6092,23.2539,汕头市,潮阳子站,,19,19,23,3,10,59,,81,69,8,12,9,7,0.6,0.6
2025-11-11T0000,3444A,116.454,23.2684,汕头市,潮南峡山,,15,14,25,8,15,45,,70,50,7,10,9,10,0.7,0.8
2025-11-11T0000,3624A,116.4069,23.2533,汕头市,潮南子站,,32,32,34,17,19,26,,61,34,17,16,6,6,0.8,0.8
2025-11-11T0000,1693A,115.3653,22.775,汕尾市,市环保局,,16,13,15,11,13,42,,56,48,6,6,5,5,0.6,0.6
2025-11-11T0000,1694A,115.3706,22.7898,汕尾市,市政府,,16,16,14,3,5,45,,60,52,7,7,7,7,0.5,0.6
