timepoint,stationcode,longitude,latitude,area,positionname,primarypollutant,aqi,pm10,pm10_24h,pm2_5,pm2_5_24h,o3,o3_24h,o3_8h,o3_8h_24h,no2,no2_24h,so2,so2_24h,co,co_24h
2022-05-24T21:00:00,1001A,116.3621,39.8784,北京市,万寿西宫,,40,40,70,17,30,208,101,180,158,16,20,1,2,0.5,0.6
2022-05-24T21:00:00,1002A,116.2202,40.2915,北京市,定陵(对照点),,35,24,55,9,25,224,110,193,161,11,15,3,2,0.3,0.4
2022-05-24T21:00:00,1003A,116.4174,39.9289,北京市,东四,,46,46,75,18,32,211,143,190,172,16,18,3,2,0.5,0.6
2022-05-24T21:00:00,1004A,116.4072,39.8863,北京市,天坛,,35,35,65,17,29,201,95,175,153,11,20,1,2,0.5,0.6
2022-05-24T21:00:00,1005A,116.462,39.9365,北京市,农展馆,,44,43,72,18,31,222,138,192,174,18,21,3,2,0.7,0.7
2022-05-24T21:00:00,1006A,116.3392,39.9295,北京市,官园,,39,39,67,19,31,221,123,195,174,14,13,4,5,0.4,0.5
2022-05-24T21:00:00,1007A,116.2878,39.9611,北京市,海淀万柳,,35,33,62,12,22,213,112,180,162,18,24,3,2,0.4,0.4
2022-05-24T21:00:00,1008A,116.6636,40.135,北京市,顺义新城,,38,38,73,15,30,171,98,160,150,15,19,3,2,0.4,0.5
2022-05-24T21:00:00,1009A,116.6275,40.3275,北京市,怀柔镇,,41,41,58,20,29,227,126,210,190,8,14,3,2,0.4,0.5
2022-05-24T21:00:00,1010A,116.2296,40.217,北京市,昌平镇,,31,28,62,11,28,203,97,178,152,14,17,3,2,0.3,0.4
2022-05-24T21:00:00,1011A,116.3966,39.9821,北京市,奥体中心,,45,41,75,18,28,219,143,191,175,19,21,1,2,0.5,0.5
2022-05-24T21:00:00,1012A,116.184,39.9136,北京市,古城,,35,30,69,11,27,234,109,194,168,21,18,3,2,0.3,0.4
2022-05-24T21:00:00,1015A,117.1444,39.1661,天津市,勤俭道,颗粒物(PM10),69,87,78,34,38,223,167,217,204,21,22,11,14,0.9,0.9
2022-05-24T21:00:00,1017A,117.237,39.1082,天津市,大直沽八号路,颗粒物(PM10),71,91,78,35,38,208,159,199,187,21,20,10,10,0.7,0.6
2022-05-24T21:00:00,1018A,117.202,39.0927,天津市,前进道,颗粒物(PM10),62,74,71,33,36,206,148,194,181,26,23,11,11,1.0,0.8
2022-05-24T21:00:00,1019A,117.1837,39.2133,天津市,淮河道,,,,91,41,41,222,158,215,201,32,27,13,12,1.0,0.5
2022-05-24T21:00:00,1021A,117.307,39.0877,天津市,跃进路,颗粒物(PM10),66,81,79,34,35,218,150,208,190,20,29,11,10,0.7,0.6
2022-05-24T21:00:00,1023A,117.707,39.0343,天津市,第四大街,颗粒物(PM10),66,81,87,33,41,194,145,189,175,20,35,7,9,0.6,0.6
2022-05-24T21:00:00,1024A,117.457,38.8394,天津市,永明路,颗粒物(PM10),56,62,66,30,36,203,127,195,176,18,21,9,12,0.5,0.5
2022-05-24T21:00:00,1026A,117.764,39.1587,天津市,汉北路,颗粒物(PM10),64,77,74,33,37,219,149,210,190,20,34,10,12,1.3,1.1
2022-05-24T21:00:00,1027A,117.157,38.9194,天津市,团泊洼(对照点),颗粒物(PM10),60,70,72,28,35,222,147,209,188,19,22,8,10,1.0,1
2022-05-24T21:00:00,1029A,114.4422,38.0444,石家庄市,职工医院,颗粒物(PM10),53,55,63,34,26,237,160,218,212,29,42,14,16,0.8,0.9
2022-05-24T21:00:00,1030A,114.6063,38.0266,石家庄市,高新区,颗粒物(PM10),62,73,67,33,34,226,152,202,195,24,53,15,15,0.6,0.7
2022-05-24T21:00:00,1031A,114.4898,38.1328,石家庄市,西北水源,颗粒物(PM10),72,93,70,40,35,231,148,213,206,23,37,10,16,0.9,0.9
2022-05-24T21:00:00,1032A,114.4586,38.0058,石家庄市,西南高教,,49,49,58,26,29,199,145,199,171,23,60,10,7,1.0,1
2022-05-24T21:00:00,1033A,114.5331,38.0178,石家庄市,世纪公园,颗粒物(PM10),67,84,71,37,31,238,156,212,205,27,43,7,6,1.0,1
2022-05-24T21:00:00,1034A,114.509,38.0457,石家庄市,人民会堂,颗粒物(PM10),66,82,62,37,33,235,163,216,210,24,38,17,18,0.7,0.8
2022-05-24T21:00:00,1035A,114.3524,37.8911,石家庄市,封龙山(对照点),颗粒物(PM10),71,91,42,40,23,244,170,206,206,12,8,16,15,0.9,0.9
2022-05-24T21:00:00,1037A,118.131,39.6363,唐山市,雷达站,颗粒物(PM10),69,88,78,34,35,245,129,220,196,29,14,4,7,0.8,0.7
2022-05-24T21:00:00,1038A,118.1725,39.6334,唐山市,物资局,颗粒物(PM10),65,80,79,32,32,253,142,216,196,35,24,6,10,0.8,0.6
2022-05-24T21:00:00,1040A,118.1705,39.6506,唐山市,十二中,颗粒物(PM10),62,74,59,34,33,237,137,209,192,30,20,5,9,0.6,0.6
2022-05-24T21:00:00,1041A,118.1869,39.622,唐山市,小山,颗粒物(PM10),63,76,81,33,28,260,112,224,196,42,22,6,9,0.9,0.5
2022-05-24T21:00:00,1042A,119.5134,39.8207,秦皇岛市,北戴河环保局,,,79,73,44,30,291,,261,261,16,16,8,11,1.1,1.1
2022-05-24T21:00:00,1043A,119.7493,40.0116,秦皇岛市,第一关,臭氧1小时,109,83,73,41,38,281,218,254,254,20,32,17,20,0.8,0.8
2022-05-24T21:00:00,1044A,119.5897,39.9499,秦皇岛市,监测站,臭氧1小时,108,72,69,41,32,277,215,246,246,24,26,13,15,0.6,0.6
2022-05-24T21:00:00,1046A,119.5251,39.9041,秦皇岛市,建设大厦,臭氧1小时,104,76,69,44,32,255,207,231,231,20,22,18,18,1.3,1.2
2022-05-24T21:00:00,1048A,114.5302,36.6116,邯郸市,东污水处理厂,颗粒物(PM10),51,51,63,29,44,211,137,181,170,16,26,7,14,0.5,1.2
2022-05-24T21:00:00,1049A,114.4918,36.5713,邯郸市,矿院,颗粒物(PM10),55,59,70,33,43,209,133,182,168,11,31,34,17,0.5,1.2
2022-05-24T21:00:00,1050A,114.484,36.6133,邯郸市,丛台公园,细颗粒物(PM2.5),52,46,58,36,42,217,144,183,172,14,27,20,16,0.6,1.5
2022-05-24T21:00:00,1051A,115.493,38.8632,保定市,游泳馆,颗粒物(PM10),69,88,66,27,26,223,115,198,187,38,36,14,17,0.4,0.6
2022-05-24T21:00:00,1053A,115.4713,38.9108,保定市,接待中心,颗粒物(PM10),59,68,65,27,30,237,110,202,188,34,31,8,10,0.9,0.9
2022-05-24T21:00:00,1054A,115.4612,38.8416,保定市,地表水厂,颗粒物(PM10),84,118,76,37,29,221,103,192,178,36,34,11,13,0.7,0.8
2022-05-24T21:00:00,1055A,115.4323,38.8697,保定市,胶片厂,颗粒物(PM10),68,86,65,28,29,231,87,200,180,36,30,13,15,0.7,0.8
2022-05-24T21:00:00,1056A,115.5086,38.8639,保定市,监测站,颗粒物(PM10),68,85,75,32,35,227,133,202,191,27,30,10,11,0.7,0.8
2022-05-24T21:00:00,1057A,114.8883,40.8336,张家口市,人民公园,颗粒物(PM10),70,90,53,8,13,192,98,157,132,4,10,4,5,0.3,0.4
2022-05-24T21:00:00,1059A,114.8687,40.8042,张家口市,五金库,颗粒物(PM10),83,115,55,12,18,192,101,160,131,2,9,4,5,0.2,0.4
2022-05-24T21:00:00,1060A,114.8902,40.762,张家口市,世纪豪园,颗粒物(PM10),76,101,54,21,22,198,97,158,129,9,17,3,5,0.3,0.4
2022-05-24T21:00:00,1061A,114.8916,40.8661,张家口市,北泵房(对照点),颗粒物(PM10),63,75,42,23,21,173,96,173,121,2,7,9,12,0.5,0.6
2022-05-24T21:00:00,1062A,117.9531,40.9081,承德市,铁路,颗粒物(PM10),53,56,60,30,29,178,117,154,132,12,32,8,8,0.4,0.4
2022-05-24T21:00:00,1063A,117.9392,40.9763,承德市,中国银行,,34,29,56,20,27,174,106,162,143,18,23,2,5,0.4,0.4
2022-05-24T21:00:00,1064A,117.9503,40.928,承德市,开发区,,41,41,53,20,25,192,130,178,160,12,26,9,9,0.5,0.6
2022-05-24T21:00:00,1065A,117.8051,40.9655,承德市,文化中心,,42,29,60,29,32,194,130,183,169,7,15,4,8,0.3,0.5
2022-05-24T21:00:00,1066A,117.9268,41.0026,承德市,离宫(对照点),,42,36,50,29,27,187,108,176,147,8,16,5,7,0.3,0.4
2022-05-24T21:00:00,1067A,116.6708,39.5111,廊坊市,药材公司,颗粒物(PM10),64,77,82,32,39,228,135,215,197,36,32,8,10,0.7,0.6
2022-05-24T21:00:00,1068A,116.7214,39.5589,廊坊市,开发区,颗粒物(PM10),62,73,76,30,40,224,136,214,203,33,26,9,10,0.7,0.7
2022-05-24T21:00:00,1070A,116.7244,39.5269,廊坊市,北华航天学院,颗粒物(PM10),73,95,90,46,43,214,131,201,188,35,29,9,11,0.6,0.5
2022-05-24T21:00:00,1071A,116.8842,38.2991,沧州市,沧县城建局,颗粒物(PM10),54,57,72,35,37,197,128,185,171,27,32,11,15,0.3,0.6
2022-05-24T21:00:00,1072A,116.8584,38.3254,沧州市,电视转播站,颗粒物(PM10),66,81,76,35,39,187,133,176,165,22,26,9,14,0.4,0.5
2022-05-24T21:00:00,1073A,116.8709,38.3228,沧州市,市环保局,颗粒物(PM10),58,65,76,29,36,209,138,198,182,29,33,10,13,0.7,0.7
2022-05-24T21:00:00,1074A,115.6838,37.7541,衡水市,电机北厂,颗粒物(PM10),60,70,93,21,42,231,150,208,198,11,25,9,14,0.4,0.6
2022-05-24T21:00:00,1075A,115.6303,37.7316,衡水市,市监测站,颗粒物(PM10),68,86,100,24,43,225,130,198,186,13,26,12,19,0.4,0.6
2022-05-24T21:00:00,1077A,114.4704,37.0886,邢台市,达活泉,颗粒物(PM10),70,89,63,24,26,252,125,214,199,26,27,8,14,0.7,1.3
2022-05-24T21:00:00,1078A,114.5062,37.0349,邢台市,邢师高专,颗粒物(PM10),52,53,52,34,34,258,112,219,195,32,29,5,10,0.6,1
2022-05-24T21:00:00,1079A,114.5237,37.0851,邢台市,路桥公司,颗粒物(PM10),63,76,67,29,31,248,121,219,192,25,32,10,15,0.7,1.2
2022-05-24T21:00:00,1081A,112.5139,37.8873,太原市,尖草坪,臭氧1小时,107,109,77,65,41,247,213,213,213,31,33,26,12,1.0,0.8
2022-05-24T21:00:00,1083A,112.434,38.0108,太原市,上兰(对照点),臭氧1小时,53,32,43,12,19,199,162,172,171,11,13,8,6,0.5,0.6
2022-05-24T21:00:00,1084A,112.469,37.7124,太原市,晋源,颗粒物(PM10),63,76,64,42,43,228,158,196,195,51,33,17,4,0.9,0.6
2022-05-24T21:00:00,1085A,112.5583,37.7394,太原市,小店,颗粒物(PM10),62,73,72,37,36,229,126,210,204,85,47,8,9,0.9,0.9
2022-05-24T21:00:00,1086A,112.5369,37.8692,太原市,桃园,臭氧1小时,90,93,74,54,39,247,192,213,213,48,35,19,11,1.1,0.8
2022-05-24T21:00:00,1087A,112.57,37.8195,太原市,坞城,臭氧1小时,93,82,67,56,40,238,194,217,217,37,38,17,11,0.9,0.7
2022-05-24T21:00:00,1088A,112.549,37.9854,太原市,南寨,臭氧1小时,97,109,69,62,34,219,197,190,190,34,46,20,9,1.1,0.8
2022-05-24T21:00:00,1090A,111.6507,40.7517,呼和浩特市,呼市一监,颗粒物(PM10),54,58,76,6,30,150,92,123,108,7,35,5,8,0.2,0.4
2022-05-24T21:00:00,1091A,111.6572,40.8033,呼和浩特市,小召,颗粒物(PM10),54,58,57,8,27,154,97,120,108,9,41,5,8,0.2,0.5
2022-05-24T21:00:00,1094A,111.7516,40.8369,呼和浩特市,如意水处理厂,,30,20,57,3,25,169,96,132,115,10,38,8,10,0.2,0.5
2022-05-24T21:00:00,1095A,111.7276,40.8062,呼和浩特市,二十九中,,35,35,55,5,16,164,96,129,112,7,40,6,9,0.2,0.4
2022-05-24T21:00:00,1096A,111.5512,40.7866,呼和浩特市,工大金川校区,,31,21,56,3,24,170,98,131,114,8,34,5,8,0.3,0.5
2022-05-24T21:00:00,1097A,111.717,40.7612,呼和浩特市,化肥厂生活区,,,,70,,25,157,,126,116,6,31,8,12,0.3,0.5
2022-05-24T21:00:00,1098A,123.6836,41.9339,沈阳市,森林路(对照点),颗粒物(PM10),58,66,78,25,32,203,116,184,158,18,19,12,17,0.9,1
2022-05-24T21:00:00,1099A,123.505,41.7406,沈阳市,浑南东路,颗粒物(PM10),58,66,74,18,30,209,140,183,158,15,19,28,29,0.6,0.8
2022-05-24T21:00:00,1100A,123.4231,41.6989,沈阳市,新秀街,颗粒物(PM10),60,70,74,24,29,194,142,175,154,23,25,17,24,0.7,0.9
2022-05-24T21:00:00,1102A,123.5903,41.8411,沈阳市,东陵路,,46,46,74,27,33,203,147,185,161,16,20,12,24,0.6,0.9
2022-05-24T21:00:00,1103A,123.4264,41.8467,沈阳市,陵东街,颗粒物(PM10),71,91,62,36,29,199,143,178,164,18,20,11,15,0.6,0.8
2022-05-24T21:00:00,1104A,123.4114,41.7653,沈阳市,文化路,颗粒物(PM10),66,82,80,33,36,206,153,177,155,11,15,14,20,0.7,0.9
2022-05-24T21:00:00,1105A,123.4678,41.7867,沈阳市,小河沿,颗粒物(PM10),66,82,75,29,30,195,141,170,154,16,23,15,17,0.6,0.7
2022-05-24T21:00:00,1106A,123.4017,41.7972,沈阳市,太原街,颗粒物(PM10),101,151,76,36,38,215,162,192,175,19,20,13,17,0.7,0.9
2022-05-24T21:00:00,1108A,123.3783,41.9228,沈阳市,京沈街,颗粒物(PM10),94,137,99,39,35,202,150,189,172,13,19,12,17,0.7,0.9
2022-05-24T21:00:00,1109A,121.612,38.9741,大连市,甘井子,细颗粒物(PM2.5),72,92,74,52,43,205,166,189,189,41,30,9,10,0.6,0.6
2022-05-24T21:00:00,1110A,121.565,38.9511,大连市,周水子,细颗粒物(PM2.5),73,85,65,53,43,205,171,185,185,30,23,5,9,0.9,0.8
2022-05-24T21:00:00,1111A,121.5637,38.8845,大连市,星海三站,臭氧1小时,106,66,60,50,45,215,211,199,199,34,26,10,10,0.6,0.7
2022-05-24T21:00:00,1112A,121.6302,38.9117,大连市,青泥洼桥,臭氧1小时,94,54,53,33,32,222,195,213,213,25,19,9,9,0.5,0.5
2022-05-24T21:00:00,1113A,121.6251,38.8638,大连市,傅家庄,臭氧1小时,104,51,51,32,34,216,207,183,183,15,16,7,4,0.9,0.8
2022-05-24T21:00:00,1114A,121.5213,38.8661,大连市,七贤岭,,,84,57,,,28,,22,,,22,,15,1.2,0.6
2022-05-24T21:00:00,1115A,121.2529,38.8061,大连市,旅顺,臭氧1小时,69,47,43,29,26,250,175,188,188,22,21,7,8,0.8,0.7
2022-05-24T21:00:00,1116A,121.7485,39.1311,大连市,金州,颗粒物(PM10),56,61,57,38,32,165,155,146,146,19,24,10,12,0.6,0.6
2022-05-24T21:00:00,1117A,121.7811,39.0496,大连市,开发区,臭氧1小时,99,58,61,38,37,215,199,196,196,28,33,10,8,0.9,0.9
2022-05-24T21:00:00,1118A,121.9762,39.0631,大连市,双D港,臭氧1小时,85,48,39,34,27,247,188,184,184,27,28,14,11,0.9,0.8
2022-05-24T21:00:00,1119A,125.3325,43.9166,长春市,食品厂,颗粒物(PM10),73,95,100,7,35,200,58,169,130,24,27,5,9,0.4,0.7
2022-05-24T21:00:00,1120A,125.2863,43.9027,长春市,客车厂,颗粒物(PM10),59,67,108,15,32,197,70,170,134,12,22,6,9,0.5,0.9
2022-05-24T21:00:00,1121A,125.2841,43.8463,长春市,邮电学院,颗粒物(PM10),94,137,114,12,31,197,67,176,141,15,20,2,5,0.5,0.8
2022-05-24T21:00:00,1122A,125.3716,43.8772,长春市,劳动公园,颗粒物(PM10),63,76,92,8,30,209,67,181,144,14,17,3,6,0.5,0.8
2022-05-24T21:00:00,1123A,125.3297,43.8805,长春市,园林处,,33,33,66,15,27,199,70,177,138,14,20,5,8,0.3,0.7
2022-05-24T21:00:00,1124A,125.4605,43.79,长春市,净月潭,,39,39,62,7,28,199,73,175,149,7,10,6,9,0.3,0.6
2022-05-24T21:00:00,1125A,125.7194,43.515,长春市,甩湾子(对照点),颗粒物(PM10),56,62,56,5,29,192,67,175,158,10,14,8,11,0.5,0.8
2022-05-24T21:00:00,1126A,125.3863,43.8447,长春市,经开区环卫处,颗粒物(PM10),54,57,79,12,26,209,66,182,148,11,12,9,11,0.6,0.9
2022-05-24T21:00:00,1127A,125.245,43.7783,长春市,高新区管委会,颗粒物(PM10),65,79,82,17,31,206,69,186,151,17,17,5,9,0.3,0.6
2022-05-24T21:00:00,1128A,125.1761,43.8325,长春市,岱山公园,颗粒物(PM10),74,97,103,16,30,187,63,166,128,15,19,5,9,0.3,0.7
2022-05-24T21:00:00,1129A,126.5422,45.755,哈尔滨市,岭北(对照点),,15,12,30,10,14,88,47,84,70,15,16,12,12,0.3,0.2
2022-05-24T21:00:00,1130A,126.561,45.8167,哈尔滨市,松北商大,,,,12,15,10,94,38,86,62,7,15,3,4,0.6,0.4
2022-05-24T21:00:00,1131A,126.979,45.5419,哈尔滨市,阿城会宁,,20,13,48,14,20,97,38,89,73,15,21,7,9,0.6,0.6
2022-05-24T21:00:00,1132A,126.599,45.7222,哈尔滨市,南岗学府路,,,7,28,4,9,97,31,89,62,16,17,,10,1.1,0.7
2022-05-24T21:00:00,1133A,126.689,45.7733,哈尔滨市,太平宏伟公园,,29,29,64,13,19,91,43,85,69,23,22,13,12,0.5,0.5
2022-05-24T21:00:00,1134A,126.635,45.7667,哈尔滨市,道外承德广场,,30,30,46,2,14,93,46,87,73,23,22,8,8,0.4,0.4
2022-05-24T21:00:00,1135A,126.685,45.7319,哈尔滨市,香坊红旗大街,,23,23,59,11,22,89,43,81,66,18,19,9,10,0.6,0.6
2022-05-24T21:00:00,1136A,126.6411,45.7258,哈尔滨市,动力和平路,,23,23,39,3,9,93,50,84,71,13,12,9,10,0.4,0.4
2022-05-24T21:00:00,1137A,126.593,45.7478,哈尔滨市,道里建国路,,20,20,33,10,13,85,53,82,71,16,19,16,18,0.5,0.4
2022-05-24T21:00:00,1138A,126.615,45.61,哈尔滨市,平房东轻厂,,26,26,48,11,15,83,23,74,55,32,28,5,6,0.9,0.8
2022-05-24T21:00:00,1139A,126.595,45.9855,哈尔滨市,呼兰师专,,,15,30,8,15,91,56,87,71,15,15,8,9,,0.5
2022-05-24T21:00:00,1140A,126.6206,45.6842,哈尔滨市,省农科院,,15,9,50,7,14,96,48,88,74,16,18,8,9,0.6,0.6
2022-05-24T21:00:00,1141A,121.4,31.238,上海市,普陀,,34,19,12,14,7,125,107,122,114,12,11,2,2,1.0,1
2022-05-24T21:00:00,1142A,121.478,31.2036,上海市,十五厂,,31,14,7,9,10,117,97,112,104,12,10,5,5,1.1,1.1
2022-05-24T21:00:00,1143A,121.467,31.3008,上海市,虹口,,28,17,8,10,9,113,88,107,96,12,6,4,4,1.1,1.2
2022-05-24T21:00:00,1144A,121.412,31.1654,上海市,徐汇上师大,,31,12,13,11,9,118,99,111,105,6,6,6,6,1.2,1.2
2022-05-24T21:00:00,1145A,121.536,31.2659,上海市,杨浦四漂,,27,9,4,7,7,120,86,114,102,13,5,6,6,0.2,0.2
2022-05-24T21:00:00,1147A,121.425,31.2261,上海市,静安监测站,,31,18,12,11,10,119,98,114,106,13,12,4,4,0.4,0.2
2022-05-24T21:00:00,1148A,121.703,31.1907,上海市,浦东川沙,,32,18,17,8,11,129,100,125,111,18,13,4,4,1.1,1.1
2022-05-24T21:00:00,1149A,121.533,31.2284,上海市,浦东新区监测站,,29,17,12,13,10,123,90,119,109,16,8,5,5,0.7,0.7
2022-05-24T21:00:00,1150A,121.577,31.2071,上海市,浦东张江,,25,12,5,10,13,110,79,106,97,17,10,4,3,0.7,0.7
2022-05-24T21:00:00,1151A,118.8086,32.1065,南京市,迈皋桥,,45,45,23,17,7,129,92,123,120,50,25,3,4,0.7,0.6
2022-05-24T21:00:00,1152A,118.7538,32.0551,南京市,草场门,,44,44,20,19,10,149,121,138,138,26,16,3,3,0.7,0.5
2022-05-24T21:00:00,1153A,118.7794,32.0745,南京市,山西路,,41,39,24,14,10,156,129,144,144,17,9,4,4,0.2,0
2022-05-24T21:00:00,1154A,118.7752,32.0023,南京市,中华门,,41,41,27,12,8,153,111,141,139,20,7,4,4,0.5,0.4
2022-05-24T21:00:00,1155A,118.8109,32.0309,南京市,瑞金路,,47,47,32,24,11,150,114,136,135,19,11,4,4,0.4,0.3
2022-05-24T21:00:00,1156A,118.7997,32.0754,南京市,玄武湖,,37,37,21,22,10,142,117,130,130,19,14,5,5,0.3,0.2
2022-05-24T21:00:00,1157A,118.6414,32.0931,南京市,浦口,颗粒物(PM10),54,58,25,26,10,152,112,141,140,43,18,3,4,0.4,0.2
2022-05-24T21:00:00,1158A,118.7356,31.9996,南京市,奥体中心,,35,31,23,17,10,144,112,134,133,26,13,1,1,0.8,0.6
2022-05-24T21:00:00,1159A,118.9125,32.1028,南京市,仙林大学城,,40,39,21,19,13,154,125,141,140,17,5,5,5,0.8,0.6
2022-05-24T21:00:00,1160A,120.561,31.2472,苏州市,上方山(对照点),,30,8,9,11,15,114,94,106,103,13,13,5,5,0.4,0.4
2022-05-24T21:00:00,1162A,120.591,31.3019,苏州市,彩香,,30,11,13,15,15,123,95,113,109,7,6,5,5,0.4,0.4
2022-05-24T21:00:00,1163A,120.596,31.3264,苏州市,轧钢厂,,33,15,19,9,12,136,103,118,115,9,9,6,6,0.4,0.4
2022-05-24T21:00:00,1164A,120.613,31.2703,苏州市,吴中区,,31,18,17,14,14,127,99,115,112,8,8,5,5,0.3,0.4
2022-05-24T21:00:00,1165A,120.543,31.2994,苏州市,苏州新区,,,10,15,,16,129,106,119,117,8,7,5,5,0.5,0.5
2022-05-24T21:00:00,1166A,120.669,31.3097,苏州市,苏州工业园区,,30,11,15,6,10,117,95,112,98,7,9,5,6,0.5,0.5
2022-05-24T21:00:00,1167A,120.641,31.3708,苏州市,相城区,,26,20,21,18,18,100,79,100,76,14,16,5,5,0.4,0.5
2022-05-24T21:00:00,1168A,120.9098,31.9663,南通市,狼山街道,,34,8,17,5,5,121,107,115,113,6,10,9,9,0.4,0.5
2022-05-24T21:00:00,1169A,120.86,32.0005,南通市,虹桥,,33,15,14,15,12,118,104,113,110,6,11,5,5,0.4,0.5
2022-05-24T21:00:00,1170A,120.87,32.02,南通市,城中,,31,12,15,11,12,110,98,103,100,8,14,8,8,0.3,0.4
2022-05-24T21:00:00,1171A,120.94,31.93,南通市,星湖花园,,29,19,13,7,6,107,92,100,96,10,12,8,8,0.6,0.6
2022-05-24T21:00:00,1172A,120.81,32.0417,南通市,紫琅学院,,31,14,17,12,5,111,99,105,104,9,15,5,6,0.4,0.4
2022-05-24T21:00:00,1173A,119.176,34.5885,连云港市,市环境监测站,,44,44,41,17,19,127,95,122,114,12,11,7,15,0.1,0.2
2022-05-24T21:00:00,1177A,117.179,34.2761,徐州市,黄河新村,颗粒物(PM10),53,56,64,18,28,189,134,177,171,11,15,3,5,0.4,0.5
2022-05-24T21:00:00,1178A,117.1918,34.2384,徐州市,淮塔,颗粒物(PM10),54,57,58,19,31,189,130,176,169,12,14,8,10,0.5,0.6
2022-05-24T21:00:00,1180A,117.256,34.2153,徐州市,新城区,颗粒物(PM10),55,59,61,23,28,185,134,171,167,10,15,6,8,0.6,0.6
2022-05-24T21:00:00,1181A,117.244,34.2911,徐州市,桃园路,颗粒物(PM10),54,58,64,22,29,202,131,186,179,16,15,10,12,0.7,0.7
2022-05-24T21:00:00,1182A,117.2933,34.2778,徐州市,农科院,颗粒物(PM10),52,53,57,14,20,193,125,176,170,19,20,6,7,0.5,0.6
2022-05-24T21:00:00,1186A,119.389,32.3761,扬州市,邗江监测站,颗粒物(PM10),53,56,34,25,19,148,84,134,128,26,13,9,7,1.2,0.8
2022-05-24T21:00:00,1188A,120.269,31.4867,无锡市,雪浪,,24,24,22,9,9,110,65,98,92,20,13,8,8,0.6,0.6
2022-05-24T21:00:00,1189A,120.275,31.6219,无锡市,黄巷,,28,20,21,19,11,131,81,108,106,22,19,6,6,0.3,0.3
2022-05-24T21:00:00,1190A,120.294,31.56,无锡市,曹张,,25,21,16,12,10,120,78,102,100,17,14,4,5,0.6,0.6
2022-05-24T21:00:00,1191A,120.242,31.5031,无锡市,漆塘,,25,24,18,11,12,123,79,108,106,25,19,5,5,0.4,0.4
2022-05-24T21:00:00,1192A,120.3489,31.5863,无锡市,东亭,,26,14,20,12,12,123,81,102,98,11,11,7,6,0.6,0.6
2022-05-24T21:00:00,1193A,120.354,31.5475,无锡市,旺庄,,25,12,18,9,10,124,77,105,101,20,15,4,4,0.7,0.7
2022-05-24T21:00:00,1194A,120.245,31.5631,无锡市,荣巷,,,14,18,17,15,125,,109,109,29,18,8,8,0.3,0.3
2022-05-24T21:00:00,1195A,120.299,31.6817,无锡市,堰桥,,27,17,23,9,13,135,86,116,111,17,13,5,6,0.6,0.6
2022-05-24T21:00:00,1196A,119.9633,31.762,常州市,市监测站,,44,44,37,17,11,119,73,96,95,36,25,7,6,0.8,0.7
2022-05-24T21:00:00,1200A,119.9468,31.7069,常州市,武进监测站,,44,44,29,6,16,160,101,127,124,18,12,4,5,0.6,0.6
2022-05-24T21:00:00,1201A,119.9255,31.9087,常州市,安家,,49,45,35,34,26,144,99,119,117,14,14,4,4,0.6,0.6
2022-05-24T21:00:00,1203A,119.6707,32.1875,镇江市,新区办事处,颗粒物(PM10),51,52,34,29,18,149,68,128,117,45,27,9,6,0.9,0.5
2022-05-24T21:00:00,1204A,119.4974,32.1968,镇江市,职教中心,细颗粒物(PM2.5),70,51,31,51,23,142,78,128,119,34,20,12,7,0.9,0.5
2022-05-24T21:00:00,1205A,119.4303,32.1328,镇江市,丹徒区监测站,细颗粒物(PM2.5),85,54,31,63,30,166,92,152,145,31,17,15,5,0.9,0.6
2022-05-24T21:00:00,1206A,119.905,32.4878,泰州市,公园路,,27,24,24,7,16,128,84,119,114,16,16,5,6,0.7,0.8
2022-05-24T21:00:00,1207A,119.9189,32.4625,泰州市,莲花,细颗粒物(PM2.5),58,24,25,41,23,127,88,120,115,13,12,4,5,0.7,0.7
2022-05-24T21:00:00,1209A,119.888,32.4639,泰州市,留学生创业园,,33,31,32,23,21,132,90,120,116,12,12,5,6,0.5,0.7
2022-05-24T21:00:00,1210A,119.036,33.5981,淮安市,钵池山,,38,31,36,18,22,162,121,132,131,12,15,6,7,0.6,0.7
2022-05-24T21:00:00,1211A,119.007,33.575,淮安市,北京南路,,40,36,38,28,26,154,109,133,130,17,15,11,11,0.5,0.5
2022-05-24T21:00:00,1213A,119.135,33.5039,淮安市,楚州区监测站,细颗粒物(PM2.5),75,34,38,55,26,131,92,120,116,16,17,8,11,0.6,0.6
2022-05-24T21:00:00,1214A,119.0186,33.6297,淮安市,淮阴区监测站,,36,36,36,22,25,148,107,120,118,13,14,9,8,0.6,0.6
2022-05-24T21:00:00,1215A,120.118,33.4022,盐城市,盐城电厂,,36,17,24,13,19,128,113,124,123,10,11,9,10,0.5,0.5
2022-05-24T21:00:00,1216A,120.156,33.3942,盐城市,市监测站,,31,15,20,6,6,115,97,112,109,9,11,8,8,0.3,0.3
2022-05-24T21:00:00,1218A,120.2144,33.38,盐城市,开发区管委会,,,12,20,11,11,113,97,109,106,,13,9,7,0.3,0.3
2022-05-24T21:00:00,1220A,118.293,33.9528,宿迁市,宿迁学院,,46,46,42,22,22,168,122,157,150,23,20,8,6,0.9,0.6
2022-05-24T21:00:00,1221A,118.2442,33.9592,宿迁市,宿迁中学,,43,39,37,16,20,175,135,162,157,9,9,6,7,0.5,0.4
2022-05-24T21:00:00,1223A,120.2072,30.2111,杭州市,滨江,颗粒物(PM10),51,51,44,26,21,162,98,135,134,21,27,4,5,0.5,0.6
2022-05-24T21:00:00,1224A,120.0633,30.2747,杭州市,西溪,,45,45,38,24,23,157,99,137,135,19,19,10,10,0.6,0.6
2022-05-24T21:00:00,1226A,120.3461,30.3153,杭州市,下沙,,34,34,36,19,19,175,99,148,146,22,19,6,7,0.4,0.5
2022-05-24T21:00:00,1227A,120.1269,30.2456,杭州市,卧龙桥,,45,45,36,30,26,168,100,147,144,18,21,5,6,0.6,0.6
2022-05-24T21:00:00,1228A,120.1903,30.2692,杭州市,浙江农大,,39,32,34,27,30,174,100,149,147,19,22,5,6,0.5,0.5
2022-05-24T21:00:00,1230A,120.1197,30.3119,杭州市,和睦小学,,34,34,43,17,22,157,103,136,134,22,27,3,4,0.6,0.7
2022-05-24T21:00:00,1231A,120.3019,30.4183,杭州市,临平镇,,37,37,38,19,18,159,109,141,139,16,16,3,3,0.6,0.6
2022-05-24T21:00:00,1232A,120.2697,30.1819,杭州市,城厢镇,细颗粒物(PM2.5),60,52,36,43,26,160,82,130,128,30,27,7,7,0.6,0.5
2022-05-24T21:00:00,1233A,120.0883,30.1808,杭州市,云栖,颗粒物(PM10),59,67,41,31,17,171,113,152,150,27,28,8,8,0.3,0.3
2022-05-24T21:00:00,1234A,121.8358,29.911,宁波市,区环保大楼,,28,21,15,14,11,95,38,86,58,55,45,6,6,0.4,0.5
2022-05-24T21:00:00,1235A,121.56,29.82,宁波市,万里学院,,25,14,12,7,9,116,78,103,98,20,15,7,7,0.4,0.4
2022-05-24T21:00:00,1236A,121.713,29.9572,宁波市,龙赛医院,,23,16,15,10,10,103,56,103,64,46,40,8,9,0.6,0.6
2022-05-24T21:00:00,1239A,121.633,29.7733,宁波市,钱湖水厂,,26,6,9,3,9,108,83,98,96,9,8,5,6,0.5,0.5
2022-05-24T21:00:00,1240A,121.5856,29.8635,宁波市,太古小学,,20,8,13,10,11,92,64,91,65,28,26,7,7,0.5,0.4
2022-05-24T21:00:00,1241A,121.524,29.8674,宁波市,市环境监测中心,,19,14,14,6,6,107,58,104,64,32,25,7,7,0.4,0.5
2022-05-24T21:00:00,1242A,120.634,28.0089,温州市,瓯海,,48,48,26,30,17,81,42,63,58,42,41,5,5,0.6,0.5
2022-05-24T21:00:00,1243A,120.6748,27.9939,温州市,南浦,颗粒物(PM10),54,58,31,31,17,82,48,65,55,41,41,6,6,0.7,0.6
2022-05-24T21:00:00,1244A,120.76,27.9747,温州市,龙湾,,39,39,35,15,13,78,63,46,46,33,52,4,5,0.5,0.6
2022-05-24T21:00:00,1245A,120.6709,28.0167,温州市,市站,颗粒物(PM10),53,56,35,30,20,72,32,63,53,53,41,4,5,0.6,0.6
2022-05-24T21:00:00,1247A,120.6053,29.9928,绍兴市,城东开发委,细颗粒物(PM2.5),69,57,28,50,21,145,54,118,109,35,15,10,9,0.6,0.5
2022-05-24T21:00:00,1250A,120.0751,30.8669,湖州市,城西水厂,,30,30,22,20,14,144,94,126,125,13,12,4,4,0.4,0.4
2022-05-24T21:00:00,1252A,120.7436,30.778,嘉兴市,清河小学,,32,15,21,10,11,128,100,117,115,8,10,5,6,0.6,0.6
2022-05-24T21:00:00,1253A,120.726,30.7478,嘉兴市,嘉兴学院,,30,27,25,19,19,121,95,117,114,16,16,4,5,0.3,0.3
2022-05-24T21:00:00,1255A,121.273,28.6459,台州市,黄岩环保大楼,,30,30,17,10,10,98,60,85,78,18,15,5,5,0.5,0.4
2022-05-24T21:00:00,1256A,121.419,28.6542,台州市,台州环保大楼,,30,21,15,8,9,109,95,107,96,10,12,4,4,0.3,0.3
2022-05-24T21:00:00,1257A,121.377,28.5773,台州市,路桥田洋王,,26,20,16,18,15,98,83,91,90,13,14,5,5,0.2,0.2
2022-05-24T21:00:00,1258A,122.122,30.0203,舟山市,定海檀枫,,27,6,9,5,7,111,86,108,93,3,5,2,2,0.2,0.2
2022-05-24T21:00:00,1259A,122.3094,29.9558,舟山市,普陀东港,,31,14,14,6,6,130,97,123,106,3,4,3,3,0.3,0.3
2022-05-24T21:00:00,1260A,122.19,29.9944,舟山市,临城新区,,26,11,14,8,7,110,82,105,87,5,6,2,2,0.3,0.4
2022-05-24T21:00:00,1262A,119.647,29.077,金华市,十五中,细颗粒物(PM2.5),64,46,34,46,25,102,52,89,83,30,26,6,11,0.6,0.5
2022-05-24T21:00:00,1263A,119.686,29.1029,金华市,监测站,,43,43,31,18,20,106,64,94,91,30,23,5,21,0.7,0.5
2022-05-24T21:00:00,1264A,118.8692,28.9398,衢州市,环保大楼,颗粒物(PM10),65,79,43,44,21,111,43,95,91,41,22,15,13,1.0,0.7
2022-05-24T21:00:00,1265A,118.8709,28.9666,衢州市,实验学校,,47,47,32,30,19,115,25,96,90,33,16,6,5,0.7,0.6
2022-05-24T21:00:00,1266A,118.8621,28.9808,衢州市,衢州学院,,49,49,35,21,15,121,13,101,89,63,23,8,8,0.7,0.5
2022-05-24T21:00:00,1267A,119.914,28.4514,丽水市,监测站大楼,,26,26,17,18,9,70,32,66,59,27,18,4,5,0.5,0.4
2022-05-24T21:00:00,1268A,119.93,28.4586,丽水市,莲都小学,,38,38,25,17,8,82,34,71,60,28,15,5,5,0.4,0.3
2022-05-24T21:00:00,1269A,119.879,28.4231,丽水市,余庄前,,29,29,21,9,6,84,6,65,52,14,15,5,5,0.4,0.3
2022-05-24T21:00:00,1270A,117.1959,31.7848,合肥市,明珠广场,,39,39,44,19,18,177,115,156,151,35,24,6,7,0.6,0.5
2022-05-24T21:00:00,1271A,117.3072,31.8764,合肥市,三里街,颗粒物(PM10),51,51,50,22,20,141,114,130,126,28,25,10,10,0.7,0.5
2022-05-24T21:00:00,1272A,117.2588,31.8707,合肥市,琥珀山庄,,41,36,44,14,17,163,130,149,145,18,17,9,9,0.6,0.6
2022-05-24T21:00:00,1273A,117.1604,31.9052,合肥市,董铺水库(对照点),,43,31,48,12,14,164,135,148,145,16,18,8,8,0.4,0.4
2022-05-24T21:00:00,1274A,117.25,31.8571,合肥市,长江中路,,44,41,47,22,24,170,140,157,154,23,23,9,9,0.5,0.5
2022-05-24T21:00:00,1275A,117.266,31.9436,合肥市,庐阳区,,,41,48,12,24,158,114,146,140,,26,9,11,0.6,0.5
2022-05-24T21:00:00,1276A,117.336,31.8586,合肥市,瑶海区,颗粒物(PM10),52,53,48,22,24,155,111,146,138,32,21,8,8,0.6,0.5
2022-05-24T21:00:00,1277A,117.3027,31.7964,合肥市,包河区,,46,46,46,17,21,174,141,162,158,19,21,8,10,0.4,0.4
2022-05-24T21:00:00,1278A,117.2776,31.7385,合肥市,滨湖新区,,43,39,43,22,20,172,137,167,164,17,13,11,9,0.3,0.3
2022-05-24T21:00:00,1279A,117.1318,31.8403,合肥市,高新区,,43,36,43,17,20,189,135,167,162,25,20,10,10,0.7,0.6
2022-05-24T21:00:00,1280A,119.3903,26.0543,福州市,鼓山(对照点),,,8,10,5,10,62,37,46,30,22,25,,2,0.3,0.3
2022-05-24T21:00:00,1282A,119.2681,26.0504,福州市,师大,,35,32,20,24,19,57,9,54,22,56,33,2,2,0.5,0.4
2022-05-24T21:00:00,1283A,119.2984,26.1028,福州市,五四北路,,45,40,23,31,27,52,3,51,15,63,33,3,2,0.8,0.6
2022-05-24T21:00:00,1284A,119.2648,26.0768,福州市,杨桥西路,,40,33,20,28,20,62,9,62,21,59,30,3,3,0.5,0.6
2022-05-24T21:00:00,1285A,119.317,26.0746,福州市,紫阳,,43,38,28,30,21,55,4,51,16,66,38,5,5,0.7,0.7
2022-05-24T21:00:00,1286A,118.1608,24.8169,厦门市,溪东(对照点),,20,14,55,14,34,69,31,58,55,19,15,2,4,0.6,0.6
2022-05-24T21:00:00,1287A,118.1514,24.4767,厦门市,洪文,,16,16,31,10,17,86,47,73,66,30,29,3,4,0.8,0.7
2022-05-24T21:00:00,1288A,118.0661,24.4444,厦门市,鼓浪屿,,25,18,21,17,18,80,47,75,70,17,13,1,2,0.7,0.6
2022-05-24T21:00:00,1290A,115.8931,28.6843,南昌市,省外办,,36,36,38,23,25,116,80,111,106,16,20,4,4,0.8,1
2022-05-24T21:00:00,1291A,115.8886,28.7003,南昌市,省林业公司,,43,43,53,17,12,114,81,108,104,24,35,12,12,0.9,1
2022-05-24T21:00:00,1292A,115.8126,28.7442,南昌市,林科所,颗粒物(PM10),52,53,38,24,25,127,22,116,91,74,25,6,6,0.8,0.7
2022-05-24T21:00:00,1294A,115.8518,28.687,南昌市,建工学校,,42,42,44,22,29,125,74,116,109,24,31,9,10,0.7,0.7
2022-05-24T21:00:00,1295A,115.8921,28.6424,南昌市,象湖,,26,25,41,18,23,113,74,105,102,16,28,2,5,0.7,0.9
2022-05-24T21:00:00,1296A,115.7423,28.7996,南昌市,武术学校(对照点),,33,33,39,12,18,127,29,111,89,7,7,14,14,0.5,0.5
2022-05-24T21:00:00,1298A,115.9314,28.6842,南昌市,省站,颗粒物(PM10),51,51,44,21,21,112,84,108,103,17,20,7,7,0.4,0.5
2022-05-24T21:00:00,1299A,116.9862,36.6114,济南市,科干所,臭氧1小时,73,66,60,29,31,212,178,197,190,10,13,11,14,0.5,0.5
2022-05-24T21:00:00,1301A,117.1265,36.6734,济南市,开发区,臭氧1小时,85,56,60,34,30,212,188,206,199,15,23,10,12,0.4,0.4
2022-05-24T21:00:00,1303A,117.0624,36.6868,济南市,省种子仓库,臭氧1小时,63,61,71,34,37,198,170,190,184,12,25,9,12,0.5,0.6
2022-05-24T21:00:00,1304A,116.9489,36.6447,济南市,机床二厂,颗粒物(PM10),62,73,92,27,33,191,154,176,168,16,28,6,8,0.5,0.5
2022-05-24T21:00:00,1305A,117.0495,36.663,济南市,市监测站,臭氧1小时,75,63,62,27,30,205,180,196,190,18,24,8,10,0.6,0.6
2022-05-24T21:00:00,1306A,116.7675,36.5484,济南市,长清党校,臭氧1小时,68,59,66,29,36,198,174,184,175,16,17,49,17,0.7,0.8
2022-05-24T21:00:00,1307A,120.6659,36.2403,青岛市,仰口(对照点),,34,5,30,9,22,136,107,124,110,13,8,3,7,0.7,0.5
2022-05-24T21:00:00,1310A,120.4134,36.0658,青岛市,市南区东部子站,,26,19,27,9,9,118,82,107,98,19,14,4,5,0.2,0.3
2022-05-24T21:00:00,1311A,120.3664,36.1032,青岛市,四方区子站,,29,14,28,12,15,126,91,116,102,12,13,5,6,0.6,0.6
2022-05-24T21:00:00,1312A,120.2994,36.054,青岛市,市南区西部子站,,31,12,26,2,8,133,97,124,111,15,16,6,7,0.4,0.4
2022-05-24T21:00:00,1313A,120.4581,36.0858,青岛市,崂山区子站,,32,9,19,7,8,134,101,118,109,14,17,7,8,0.3,0.3
2022-05-24T21:00:00,1314A,120.1983,35.9608,青岛市,黄岛区子站,,36,9,22,10,15,145,113,132,122,13,17,4,5,0.2,0.3
2022-05-24T21:00:00,1315A,120.3999,36.3083,青岛市,城阳区子站,,26,13,39,5,12,127,81,115,101,18,14,5,6,0.5,0.5
2022-05-24T21:00:00,1316A,113.69031,34.76122,郑州市,烟厂,,46,34,53,28,28,189,146,182,177,21,20,7,11,0.6,0.8
2022-05-24T21:00:00,1317A,113.65724,34.77134,郑州市,郑纺机,,45,45,54,24,22,176,142,170,165,16,19,7,13,0.7,0.7
2022-05-24T21:00:00,1318A,113.67526,34.80246,郑州市,银行学校,,50,45,48,26,27,198,158,192,186,21,19,7,11,0.5,0.5
2022-05-24T21:00:00,1319A,113.56746,34.81334,郑州市,供水公司,颗粒物(PM10),54,58,55,24,22,182,145,175,170,25,22,6,12,0.5,0.5
2022-05-24T21:00:00,1320A,113.7329,34.7178,郑州市,经开区管委,颗粒物(PM10),56,61,57,34,29,184,120,174,165,31,27,6,7,0.6,0.6
2022-05-24T21:00:00,1321A,113.73961,34.77172,郑州市,四十七中,颗粒物(PM10),53,55,61,28,25,185,135,176,169,26,22,7,8,0.6,0.5
2022-05-24T21:00:00,1322A,113.60532,34.74838,郑州市,市监测站,颗粒物(PM10),53,55,58,26,23,170,143,167,162,19,22,8,15,0.6,0.6
2022-05-24T21:00:00,1323A,113.64164,34.7525,郑州市,河医大,颗粒物(PM10),53,56,54,23,24,183,144,176,171,18,17,5,11,0.6,0.6
2022-05-24T21:00:00,1324A,113.51488,34.91089,郑州市,岗李水库(对照点),,43,31,55,28,27,193,136,182,175,21,18,8,8,0.6,0.5
2022-05-24T21:00:00,1325A,114.3677,30.5584,武汉市,东湖梨园,,38,31,39,24,20,160,121,152,143,16,17,10,12,0.9,1
2022-05-24T21:00:00,1326A,114.2529,30.558,武汉市,汉阳月湖,,31,28,37,14,19,193,80,173,159,62,34,8,10,0.9,0.9
2022-05-24T21:00:00,1327A,114.282,30.6189,武汉市,汉口花桥,,39,35,38,27,23,168,101,153,142,42,33,11,12,1.1,1
2022-05-24T21:00:00,1328A,114.3025,30.5332,武汉市,武昌紫阳,,38,36,37,26,15,163,93,150,140,52,29,11,11,1.2,1.1
2022-05-24T21:00:00,1329A,114.3646,30.6217,武汉市,青山钢花,,30,30,43,19,24,165,89,150,142,45,24,9,11,1.0,1
2022-05-24T21:00:00,1330A,114.1566,30.4825,武汉市,沌口新区,,36,32,42,25,23,182,101,161,154,45,34,12,12,0.9,0.9
2022-05-24T21:00:00,1331A,114.3014,30.5944,武汉市,汉口江滩,,41,41,43,20,17,186,110,164,153,50,41,9,9,0.9,1
2022-05-24T21:00:00,1333A,114.135,30.6319,武汉市,吴家山,颗粒物(PM10),53,55,51,15,24,202,78,179,162,52,36,8,9,0.8,0.8
2022-05-24T21:00:00,1334A,113.8454,30.2917,武汉市,沉湖七壕(对照点),,38,30,32,26,17,176,116,158,155,15,21,6,6,0.8,0.9
2022-05-24T21:00:00,1335A,113.0833,28.2325,长沙市,经开区环保局,,29,19,30,20,29,92,34,80,69,35,18,3,3,0.8,0.8
2022-05-24T21:00:00,1336A,112.8872,28.2189,长沙市,高开区环保局,,40,7,20,28,29,103,55,92,82,23,15,6,8,0.7,0.6
2022-05-24T21:00:00,1337A,113.0792,28.2053,长沙市,马坡岭,,20,20,33,9,24,101,44,89,76,28,20,4,5,0.7,0.7
2022-05-24T21:00:00,1338A,112.9394,28.19,长沙市,湖南师范大学,细颗粒物(PM2.5),77,29,26,56,40,106,56,93,83,22,17,2,3,1.1,0.9
2022-05-24T21:00:00,1339A,113.0178,28.1322,长沙市,雨花区环保局,,35,13,28,24,27,96,66,87,82,22,15,5,6,0.8,0.7
2022-05-24T21:00:00,1340A,112.9792,28.2597,长沙市,伍家岭,,28,21,37,19,25,102,61,89,82,20,22,7,8,0.7,0.7
2022-05-24T21:00:00,1341A,113.0014,28.1944,长沙市,火车新站,,30,26,35,21,28,91,50,81,72,28,19,6,7,0.7,0.6
2022-05-24T21:00:00,1342A,112.9844,28.1178,长沙市,天心区环保局,,29,29,34,17,24,87,54,74,68,11,12,4,5,0.7,0.6
2022-05-24T21:00:00,1343A,112.8908,28.1308,长沙市,湖南中医药大学,,48,27,34,33,37,82,42,71,64,26,23,3,4,1.1,0.8
2022-05-24T21:00:00,1344A,112.9581,28.3611,长沙市,沙坪(对照点),,36,36,47,17,29,105,32,92,81,24,19,4,4,0.7,0.8
2022-05-24T21:00:00,1345A,113.2347,23.1423,广州市,广雅中学,,41,41,45,25,27,98,78,86,86,41,43,6,7,1.0,1
2022-05-24T21:00:00,1346A,113.2612,23.105,广州市,市五中,,39,39,43,27,29,154,82,113,112,41,41,5,6,0.8,0.8
2022-05-24T21:00:00,1348A,113.3478,23.0916,广州市,广东商学院,,49,49,47,33,27,164,71,118,117,49,44,5,5,0.9,0.9
2022-05-24T21:00:00,1349A,113.4332,23.1047,广州市,市八十六中,颗粒物(PM10),60,69,56,35,27,155,29,115,102,87,45,7,8,0.8,0.7
2022-05-24T21:00:00,1350A,113.3505,22.9483,广州市,番禺中学,,41,41,34,22,18,174,41,135,128,57,38,9,10,0.7,0.7
2022-05-24T21:00:00,1351A,113.2146,23.3916,广州市,花都师范,,42,42,27,25,18,106,48,88,86,35,26,4,3,0.7,0.7
2022-05-24T21:00:00,1352A,113.2597,23.1331,广州市,市监测站,,46,46,45,23,24,114,83,99,99,38,39,6,6,0.8,0.8
2022-05-24T21:00:00,1353A,113.5618,23.312,广州市,九龙镇镇龙,,26,26,30,10,19,92,48,75,74,34,19,5,5,0.6,0.6
2022-05-24T21:00:00,1354A,113.2765,23.1544,广州市,麓湖,颗粒物(PM10),51,51,42,27,24,109,8,72,65,58,36,3,4,1.2,1
2022-05-24T21:00:00,1355A,113.443,23.3035,广州市,帽峰山森林公园(对照点),,23,23,27,14,17,92,49,67,64,14,9,4,4,0.6,0.7
2022-05-24T21:00:00,1356A,114.1063,22.5545,深圳市,通心岭子站,,17,14,13,8,7,77,53,76,59,14,10,3,3,0.4,0.3
2022-05-24T21:00:00,1357A,114.117,22.5625,深圳市,洪湖,,29,29,15,16,7,82,44,78,60,26,15,6,6,0.4,0.3
2022-05-24T21:00:00,1358A,113.987,22.5417,深圳市,华侨城,,18,18,14,6,6,81,56,79,61,17,12,4,4,0.7,0.7
2022-05-24T21:00:00,1359A,113.9181,22.5171,深圳市,南海子站,,,12,12,5,6,79,60,78,68,,5,3,3,0.6,0.5
2022-05-24T21:00:00,1360A,114.2458,22.5689,深圳市,盐田,,28,11,13,5,8,70,21,55,42,56,40,5,4,0.7,0.6
2022-05-24T21:00:00,1361A,114.2283,22.7244,深圳市,龙岗,,24,24,21,14,11,77,34,68,58,44,26,3,3,0.6,0.6
2022-05-24T21:00:00,1363A,114.494,22.5422,深圳市,南澳,,12,12,8,2,3,96,37,93,72,15,7,7,6,0.8,0.7
2022-05-24T21:00:00,1364A,114.41,22.6342,深圳市,葵涌,,17,12,11,5,6,89,54,86,61,9,7,5,5,0.4,0.4
2022-05-24T21:00:00,1365A,114.297,22.5978,深圳市,梅沙,,17,13,14,5,6,100,53,100,71,12,7,5,5,0.4,0.5
2022-05-24T21:00:00,1366A,114.0678,22.738,深圳市,观澜,,25,25,24,10,11,61,26,58,49,31,18,5,5,0.6,0.5
2022-05-24T21:00:00,1367A,113.5814,22.2618,珠海市,吉大,,16,11,13,4,9,66,51,62,51,20,23,7,6,0.6,0.6
2022-05-24T21:00:00,1368A,113.4881,22.2335,珠海市,前山,,31,11,12,3,6,68,21,63,46,61,29,8,8,0.5,0.4
2022-05-24T21:00:00,1369A,113.628,22.4251,珠海市,唐家,,21,13,13,10,10,73,35,73,51,42,22,8,8,0.4,0.4
2022-05-24T21:00:00,1370A,113.299,22.2281,珠海市,斗门,,20,17,16,8,10,58,21,55,43,40,23,8,8,0.6,0.5
2022-05-24T21:00:00,1371A,113.1294,23.0067,佛山市,湾梁,颗粒物(PM10),51,51,52,25,24,148,85,116,116,40,40,5,5,0.7,0.7
2022-05-24T21:00:00,1372A,113.1083,23.0478,佛山市,华材职中,颗粒物(PM10),53,56,49,30,26,151,105,129,129,27,41,5,6,0.8,0.5
2022-05-24T21:00:00,1373A,113.144,23.0453,佛山市,南海气象局,,41,41,43,27,28,135,87,112,112,36,46,4,4,0.6,0.6
2022-05-24T21:00:00,1374A,113.2881,22.8094,佛山市,顺德苏岗,,39,32,21,27,17,159,24,126,116,53,34,5,5,0.8,0.8
2022-05-24T21:00:00,1376A,112.8383,22.8678,佛山市,高明孔堂,颗粒物(PM10),57,63,41,32,20,183,84,143,143,32,30,6,6,0.7,0.5
2022-05-24T21:00:00,1377A,112.8836,23.1588,佛山市,三水监测站,细颗粒物(PM2.5),59,66,39,42,28,143,38,95,95,66,37,5,4,1.1,0.9
2022-05-24T21:00:00,1378A,112.867,23.185,佛山市,三水云东海,,37,37,36,24,18,155,34,92,91,22,29,4,6,0.6,0.8
2022-05-24T21:00:00,1379A,113.3769,22.5211,中山市,华柏园,,15,13,18,10,10,97,47,75,68,23,18,3,3,0.5,0.6
2022-05-24T21:00:00,1380A,113.3881,22.5497,中山市,张溪,,28,28,28,4,9,92,48,75,68,21,19,1,1,0.6,0.6
2022-05-24T21:00:00,1381A,113.4075,22.5111,中山市,紫马岭,,15,8,16,7,9,95,45,79,68,22,19,4,4,0.6,0.6
2022-05-24T21:00:00,1382A,113.4411,22.4853,中山市,长江旅游区(对照点),,15,6,13,9,9,95,46,69,65,18,15,3,3,0.5,0.5
2022-05-24T21:00:00,1383A,113.1064,22.6058,江门市,北街,,25,25,27,14,11,157,38,109,94,34,26,5,5,0.7,0.6
2022-05-24T21:00:00,1384A,113.0731,22.5835,江门市,西区,,29,29,27,16,15,163,39,113,103,32,27,3,4,0.6,0.6
2022-05-24T21:00:00,1385A,113.0219,22.5311,江门市,圭峰西,,28,28,27,14,15,148,32,98,93,36,24,4,5,0.7,0.5
2022-05-24T21:00:00,1386A,113.0828,22.5947,江门市,东湖,,38,38,32,14,13,160,44,114,104,28,22,6,5,0.6,0.5
2022-05-24T21:00:00,1389A,113.7547,23.0494,东莞市,莞城梨川,,23,23,36,12,23,140,56,127,114,30,25,8,9,0.9,0.9
2022-05-24T21:00:00,1390A,113.7944,23.0128,东莞市,东城石井,,23,23,30,12,17,139,64,127,114,24,26,7,6,0.6,0.6
2022-05-24T21:00:00,1391A,113.7383,22.9658,东莞市,南城西平,,28,28,28,16,19,138,50,122,111,43,25,3,4,0.6,0.5
2022-05-24T21:00:00,1392A,114.4183,23.0528,惠州市,河南岸金山湖子站,,19,19,27,5,16,72,43,65,60,10,10,3,3,0.6,0.6
2022-05-24T21:00:00,1393A,114.4053,23.0822,惠州市,下埔横江三路子站,,,16,30,,18,79,44,70,64,18,15,5,4,0.6,0.5
2022-05-24T21:00:00,1394A,114.4103,23.1142,惠州市,江北云山西路子站,,14,10,32,8,19,81,42,71,64,14,14,5,8,0.5,0.6
2022-05-24T21:00:00,1395A,114.4645,22.7833,惠州市,惠阳区承修路船湖子站,,,,15,,12,72,36,68,53,24,9,3,2,0.7,0.5
2022-05-24T21:00:00,1396A,114.5317,22.7422,惠州市,大亚湾管委会子站,,18,18,19,8,11,82,54,80,58,18,20,4,5,0.4,0.4
2022-05-24T21:00:00,1397A,112.4267,23.0706,肇庆市,睦岗子站,细颗粒物(PM2.5),79,62,33,58,29,173,142,131,131,37,33,8,8,1.0,1
2022-05-24T21:00:00,1398A,112.4645,23.0475,肇庆市,城中子站,细颗粒物(PM2.5),82,82,38,60,26,146,94,108,108,55,36,7,8,1.0,0.8
2022-05-24T21:00:00,1399A,112.5544,23.1522,肇庆市,坑口子站,细颗粒物(PM2.5),69,53,42,50,35,192,84,126,126,13,29,3,4,0.7,0.8
2022-05-24T21:00:00,1400A,112.4753,23.1,肇庆市,七星岩子站(对照点),,46,31,30,27,25,170,146,131,131,10,24,11,8,0.5,0.5
2022-05-24T21:00:00,1401A,108.3103,22.7881,南宁市,二十一中,,25,23,17,17,13,32,23,23,23,25,23,5,6,1.0,0.9
2022-05-24T21:00:00,1402A,108.3141,22.8528,南宁市,北湖,颗粒物(PM10),52,54,22,20,15,42,4,29,26,30,21,14,11,1.1,0.9
2022-05-24T21:00:00,1403A,108.3206,22.8225,南宁市,市监测站,,24,24,18,11,12,31,18,21,21,38,29,8,10,1.0,0.9
2022-05-24T21:00:00,1404A,108.3829,22.8037,南宁市,大自然花园,,16,6,11,11,9,51,32,37,37,24,22,7,6,0.9,0.8
2022-05-24T21:00:00,1405A,108.4394,22.7904,南宁市,仙葫(对照点),,12,12,10,6,7,49,35,38,38,12,16,6,5,0.8,0.8
2022-05-24T21:00:00,1406A,108.2397,22.8467,南宁市,区农职院,,20,20,15,9,8,44,22,32,32,17,19,7,7,0.7,0.7
2022-05-24T21:00:00,1407A,108.3275,22.735,南宁市,英华嘉园,,34,34,16,18,10,45,19,32,32,26,23,5,5,0.9,0.8
2022-05-24T21:00:00,1408A,108.2257,22.7757,南宁市,沙井镇街道办,,28,28,16,13,10,37,4,25,23,32,25,5,6,0.9,0.8
2022-05-24T21:00:00,1409A,110.576,19.9507,海口市,东寨港(对照点),,8,5,10,5,4,30,12,19,15,2,2,5,7,0.2,0.1
2022-05-24T21:00:00,1410A,110.3232,20.0574,海口市,海南大学,,15,10,12,7,8,56,45,46,46,1,2,4,4,0.4,0.4
2022-05-24T21:00:00,1411A,110.283,20.0053,海口市,秀英海南医院,,17,17,13,6,7,48,28,46,37,11,5,3,3,0.5,0.4
2022-05-24T21:00:00,1412A,110.338,19.9969,海口市,海南师范大学,,16,16,13,7,5,43,25,40,35,6,3,1,1,0.4,0.3
2022-05-24T21:00:00,1413A,110.33,20.0356,海口市,龙华路环保局宿舍,,15,15,14,5,5,51,33,46,41,6,5,4,4,0.4,0.4
2022-05-24T21:00:00,1414A,106.3787,29.8279,重庆市,缙云山(对照点),,35,27,22,14,16,132,111,124,117,9,11,8,10,0.5,0.5
2022-05-24T21:00:00,1416A,106.4213,29.8253,重庆市,天生,,50,50,55,31,25,130,67,103,99,23,38,6,14,0.9,0.9
2022-05-24T21:00:00,1417A,106.6263,29.7228,重庆市,两路,,37,37,32,12,13,154,60,115,110,49,49,6,7,0.6,0.7
2022-05-24T21:00:00,1418A,106.2953,29.5983,重庆市,虎溪,,48,48,43,22,21,143,68,110,108,23,37,6,7,0.8,0.9
2022-05-24T21:00:00,1419A,106.5777,29.5102,重庆市,南坪,颗粒物(PM10),56,61,49,30,22,146,81,119,116,47,55,6,7,0.6,0.6
2022-05-24T21:00:00,1420A,106.6556,29.6277,重庆市,唐家沱,颗粒物(PM10),57,63,37,29,17,170,73,142,134,70,47,7,6,0.8,0.6
2022-05-24T21:00:00,1421A,106.6349,29.4906,重庆市,茶园,颗粒物(PM10),52,54,51,23,21,166,53,142,135,93,60,14,10,1.0,0.7
2022-05-24T21:00:00,1422A,106.3754,29.4572,重庆市,白市驿,细颗粒物(PM2.5),55,44,54,39,26,131,79,109,109,19,40,6,8,0.7,0.8
2022-05-24T21:00:00,1425A,106.6205,29.7166,重庆市,空港,,38,36,34,26,18,132,65,104,99,29,43,5,6,0.8,1
2022-05-24T21:00:00,1426A,106.4782,29.4875,重庆市,新山村,,44,44,51,24,23,121,51,105,96,70,73,10,15,1.2,1.3
2022-05-24T21:00:00,1427A,106.5616,29.6453,重庆市,礼嘉,,46,46,43,21,20,138,23,107,94,87,68,6,6,0.6,0.5
2022-05-24T21:00:00,1428A,106.4522,29.7091,重庆市,蔡家,,,42,33,24,17,134,35,106,96,,40,5,5,0.7,0.6
2022-05-24T21:00:00,1429A,106.5093,29.3917,重庆市,鱼新街,二氧化氮,68,71,51,33,24,148,13,115,101,135,74,17,17,1.5,1
2022-05-24T21:00:00,1431A,103.9728,30.7236,成都市,金泉两河,"颗粒物(PM10),细颗粒物(PM2.5)",52,54,66,36,48,108,77,94,94,31,30,7,4,0.6,0.6
2022-05-24T21:00:00,1432A,104.1419,30.6764,成都市,十里店,细颗粒物(PM2.5),54,39,63,38,53,84,71,77,77,31,44,4,6,0.6,0.7
2022-05-24T21:00:00,1433A,104.0594,30.5767,成都市,三瓦窑,细颗粒物(PM2.5),70,75,74,51,53,95,7,61,58,104,58,6,5,1.0,0.7
2022-05-24T21:00:00,1434A,104.1122,30.6306,成都市,沙河铺,细颗粒物(PM2.5),99,104,103,74,90,90,73,73,73,38,44,3,2,0.6,0.6
2022-05-24T21:00:00,1437A,104.0431,30.6556,成都市,君平街,细颗粒物(PM2.5),95,96,100,71,77,99,77,88,88,43,46,6,5,0.7,0.9
2022-05-24T21:00:00,1438A,103.6202,31.0201,成都市,灵岩寺(对照点),,43,26,30,30,36,148,115,106,87,3,8,1,7,0.4,0.5
2022-05-24T21:00:00,1439A,106.6899,26.5998,贵阳市,马鞍山,,,9,10,,0,76,14,53,40,15,12,4,4,0.4,0.4
2022-05-24T21:00:00,1440A,106.6971,26.5694,贵阳市,市环保站,,25,17,12,17,8,79,2,54,38,42,22,15,10,0.7,0.5
2022-05-24T21:00:00,1441A,106.6243,26.6266,贵阳市,鉴湖路,,19,19,21,9,7,74,23,57,48,21,12,1,1,0.6,0.4
2022-05-24T21:00:00,1442A,106.7487,26.6343,贵阳市,燕子冲,,19,19,16,9,12,80,23,62,50,9,7,6,6,0.6,0.5
2022-05-24T21:00:00,1443A,106.6555,26.4365,贵阳市,碧云窝,,35,29,27,24,12,72,19,55,44,11,14,4,5,0.7,0.6
2022-05-24T21:00:00,1444A,106.694,26.5161,贵阳市,中院村,,22,22,19,9,6,76,10,49,38,31,18,5,4,0.7,0.6
2022-05-24T21:00:00,1445A,106.7109,26.6027,贵阳市,红边门,,20,14,15,14,10,74,16,52,37,22,21,3,3,0.6,0.4
2022-05-24T21:00:00,1446A,106.7164,26.5699,贵阳市,新华路,,17,7,8,7,7,74,6,54,40,34,12,5,8,0.7,0.4
2022-05-24T21:00:00,1447A,106.674,26.5424,贵阳市,太慈桥,,14,14,19,2,4,80,9,56,45,19,16,4,3,0.6,0.6
2022-05-24T21:00:00,1450A,102.8204,24.8886,昆明市,呈贡新区,,25,25,13,4,3,77,51,69,67,12,12,8,7,0.6,0.6
2022-05-24T21:00:00,1451A,102.6251,24.9608,昆明市,西山森林公园(对照点),,22,5,6,0,5,117,68,91,91,2,6,8,7,0.5,0.6
2022-05-24T21:00:00,1452A,102.7252,25.0902,昆明市,龙泉镇,,42,42,20,12,11,99,41,67,67,20,20,9,9,0.6,0.6
2022-05-24T21:00:00,1453A,102.7266,25.0375,昆明市,东风东路,,20,20,16,13,11,74,39,59,58,29,26,7,6,0.6,0.5
2022-05-24T21:00:00,1454A,102.6742,25.0669,昆明市,金鼎山,,24,24,23,13,14,90,42,70,69,24,19,17,13,0.5,0.5
2022-05-24T21:00:00,1455A,102.6644,25.0401,昆明市,碧鸡广场,,17,12,17,7,13,103,38,74,71,33,26,11,9,0.7,0.7
2022-05-24T21:00:00,1456A,91.1319,29.6514,拉萨市,八廓街,,49,14,12,7,6,160,154,156,156,20,11,6,5,0.3,0.2
2022-05-24T21:00:00,1457A,91.1221,29.6747,拉萨市,市环保局,,,,13,,8,164,,158,158,32,9,,6,0.4,0.2
2022-05-24T21:00:00,1458A,91.0874,29.6475,拉萨市,区监测站,,41,11,12,5,2,152,129,146,144,19,9,7,7,0.2,0.3
2022-05-24T21:00:00,1459A,91.1774,29.6541,拉萨市,西藏大学,,,,,7,6,159,152,154,154,12,10,8,8,0.2,0.2
2022-05-24T21:00:00,1460A,90.9798,29.6588,拉萨市,区辐射站,,41,12,11,5,6,145,129,141,140,26,11,7,7,0.3,0.3
2022-05-24T21:00:00,1461A,91.0834,29.6292,拉萨市,拉萨火车站,,40,21,18,4,4,153,127,144,140,12,6,8,8,0.2,0.2
2022-05-24T21:00:00,1462A,108.882,34.2749,西安市,高压开关厂,颗粒物(PM10),56,61,74,33,32,231,139,195,188,36,46,8,8,0.4,0.4
2022-05-24T21:00:00,1463A,108.993,34.2629,西安市,兴庆小区,颗粒物(PM10),55,60,75,37,37,193,140,184,178,28,47,8,8,0.8,0.8
2022-05-24T21:00:00,1464A,109.06,34.2572,西安市,纺织城,颗粒物(PM10),56,61,80,32,34,196,54,180,160,70,49,7,9,0.6,0.5
2022-05-24T21:00:00,1465A,108.9356,34.2173,西安市,小寨,颗粒物(PM10),58,65,66,29,30,222,105,190,181,49,50,4,4,0.6,0.6
2022-05-24T21:00:00,1466A,108.954,34.2713,西安市,市人民体育场,颗粒物(PM10),58,65,76,29,33,194,140,183,176,28,43,7,8,0.4,0.4
2022-05-24T21:00:00,1467A,108.8922,34.2322,西安市,高新西区,,,,73,,33,229,,193,193,,53,,10,,0.6
2022-05-24T21:00:00,1468A,108.935,34.3474,西安市,经开区,颗粒物(PM10),56,62,65,35,32,190,120,178,168,35,43,6,7,0.5,0.4
2022-05-24T21:00:00,1469A,108.906,34.1546,西安市,长安区,颗粒物(PM10),55,59,68,33,30,270,140,210,207,32,38,8,8,0.7,0.6
2022-05-24T21:00:00,1471A,109.2186,34.3731,西安市,临潼区,,48,48,79,25,33,191,147,182,174,12,35,5,11,0.6,0.6
2022-05-24T21:00:00,1472A,108.869,34.378,西安市,草滩(对照点),,42,42,54,27,27,192,92,171,154,43,34,14,14,0.7,0.6
2022-05-24T21:00:00,1473A,108.985,34.1978,西安市,曲江文化产业集团,颗粒物(PM10),53,56,74,35,31,211,57,188,173,81,57,5,5,1.1,0.9
2022-05-24T21:00:00,1474A,109.051,34.3213,西安市,广运潭,颗粒物(PM10),65,80,81,37,35,174,93,166,156,43,41,9,13,0.5,0.5
2022-05-24T21:00:00,1476A,103.631,36.1031,兰州市,兰炼宾馆,颗粒物(PM10),57,64,52,22,21,136,98,128,122,14,25,4,5,0.3,0.3
2022-05-24T21:00:00,1478A,103.8412,36.0726,兰州市,生物制品所,颗粒物(PM10),68,86,47,20,19,125,94,118,116,23,21,5,6,0.2,0.3
2022-05-24T21:00:00,1479A,103.831,36.0464,兰州市,铁路设计院,,46,46,39,27,17,118,96,112,111,17,28,5,6,0.4,0.5
2022-05-24T21:00:00,1483A,101.524,36.6867,西宁市,第五水厂(对照点),,47,31,35,10,13,161,149,155,154,16,13,12,12,0.6,0.6
2022-05-24T21:00:00,1484A,105.9512,38.6016,银川市,贺兰山马莲口(对照点),,49,31,30,23,20,212,154,187,179,11,11,8,17,0.3,0.6
2022-05-24T21:00:00,1488A,106.2328,38.4975,银川市,贺兰山东路,,41,27,37,17,17,184,131,173,166,30,31,5,14,0.5,0.5
2022-05-24T21:00:00,1489A,106.1358,38.5036,银川市,学院路,,41,22,49,7,15,193,130,181,171,29,24,6,11,0.1,0.2
2022-05-24T21:00:00,1490A,87.5801,43.8303,乌鲁木齐市,监测站,,38,38,59,21,28,131,76,108,108,33,29,8,11,0.6,0.6
2022-05-24T21:00:00,1491A,87.6046,43.768,乌鲁木齐市,收费所,,46,46,69,12,21,129,76,108,108,34,30,7,7,0.4,0.4
2022-05-24T21:00:00,1492A,87.4754,43.9469,乌鲁木齐市,新疆农科院农场(对照点),颗粒物(PM10),54,58,59,14,19,119,87,108,107,7,15,7,10,0.0,0.2
2022-05-24T21:00:00,1493A,87.5525,43.8711,乌鲁木齐市,铁路局,,48,48,57,18,24,128,85,107,107,17,28,9,12,0.6,0.6
2022-05-24T21:00:00,1494A,87.6432,43.831,乌鲁木齐市,三十一中学,,49,49,60,5,13,131,81,110,109,23,18,12,15,0.4,0.4
2022-05-24T21:00:00,1496A,87.7216,44.1747,乌鲁木齐市,米东区环保局,,33,33,57,13,19,111,91,104,102,6,14,8,11,0.2,0.2
2022-05-24T21:00:00,1508A,112.9433,27.8614,湘潭市,板塘,,18,18,32,8,18,78,45,69,65,24,16,6,8,1.0,0.8
2022-05-24T21:00:00,1511A,112.9118,27.8403,湘潭市,市监测站,,17,17,20,10,18,70,29,62,56,31,18,8,9,1.2,0.9
2022-05-24T21:00:00,1512A,112.8937,27.8728,湘潭市,江麓,,,,32,7,25,74,52,69,66,15,15,5,6,1.3,1
2022-05-24T21:00:00,1513A,112.9227,27.8159,湘潭市,岳塘,,15,15,28,10,17,78,36,75,65,26,16,10,9,0.9,0.8
2022-05-24T21:00:00,1514A,112.9074,27.9119,湘潭市,科大,,,,23,16,22,79,47,71,68,26,23,4,5,1.0,0.9
2022-05-24T21:00:00,1515A,113.135,27.8244,株洲市,天台山庄,,15,7,19,9,20,69,46,62,60,25,18,4,6,1.3,0.9
2022-05-24T21:00:00,1518A,113.095,27.8867,株洲市,株冶医院,,17,7,20,11,22,81,52,72,67,21,19,6,8,1.2,1
2022-05-24T21:00:00,1519A,113.167,27.8667,株洲市,市四中,,19,8,21,13,24,76,52,70,68,15,13,4,5,1.0,0.8
2022-05-24T21:00:00,1520A,113.143,27.8381,株洲市,火车站,,16,14,26,10,20,76,50,64,63,20,19,5,6,0.9,0.8
2022-05-24T21:00:00,1524A,113.13,27.8528,株洲市,市监测站,,17,7,26,1,17,74,52,66,65,18,16,4,5,0.8,0.7
2022-05-24T21:00:00,1552A,106.805,26.3003,贵阳市,桐木岭(对照点),,18,17,20,12,11,52,43,48,47,3,4,7,8,0.5,0.4
2022-05-24T21:00:00,1559A,113.251,27.8336,株洲市,大京风景区(对照点),,15,5,26,9,18,58,46,55,53,8,7,5,5,0.9,0.8
2022-05-24T21:00:00,1562A,113.0048,27.9153,湘潭市,昭山,,12,12,25,6,21,73,36,63,59,22,22,8,7,1.1,1
2022-05-24T21:00:00,1564A,112.4876,27.9164,湘潭市,韶山(对照点),,18,18,26,7,15,75,23,67,56,8,6,3,4,1.0,0.8
2022-05-24T21:00:00,1585A,109.8756,40.6532,包头市,市环境监测站,颗粒物(PM10),78,106,72,13,30,179,95,131,113,6,49,9,15,0.4,1
2022-05-24T21:00:00,1587A,109.9991,40.5842,包头市,包头八中,颗粒物(PM10),86,121,81,7,29,211,101,153,125,6,44,7,18,0.3,0.8
2022-05-24T21:00:00,1588A,109.8538,40.6821,包头市,青山宾馆,颗粒物(PM10),89,128,94,21,28,168,93,132,110,10,51,14,17,0.3,0.8
2022-05-24T21:00:00,1589A,109.8642,40.6288,包头市,惠龙物流,颗粒物(PM10),70,90,68,19,25,197,100,138,120,7,43,6,18,0.5,1.1
2022-05-24T21:00:00,1590A,110.0377,40.5546,包头市,东河鸿龙湾,颗粒物(PM10),93,135,76,28,32,215,96,156,122,4,36,9,17,0.3,0.6
2022-05-24T21:00:00,1591A,110.0023,39.8129,鄂尔多斯市,综合楼,颗粒物(PM10),62,73,67,12,21,172,93,163,148,15,27,7,9,0.4,0.7
2022-05-24T21:00:00,1592A,109.9486,39.8261,鄂尔多斯市,巴音孟克林场办事处,颗粒物(PM10),57,63,54,19,23,178,91,163,145,14,18,7,9,0.4,0.6
2022-05-24T21:00:00,1593A,109.7736,39.5986,鄂尔多斯市,康泽苑,颗粒物(PM10),86,122,54,24,17,184,121,175,163,11,16,9,5,0.5,0.5
2022-05-24T21:00:00,1594A,109.8119,39.5989,鄂尔多斯市,华泰汽车城,颗粒物(PM10),74,97,57,27,23,183,109,176,162,16,25,8,6,0.4,0.5
2022-05-24T21:00:00,1595A,109.9734,39.7884,鄂尔多斯市,奥林花园,,,90,64,17,23,174,,162,159,10,45,10,8,0.5,0.8
2022-05-24T21:00:00,1597A,122.2703,40.7094,营口市,大庆路,臭氧1小时,117,94,53,63,34,238,233,214,214,8,9,10,8,0.9,0.8
2022-05-24T21:00:00,1598A,122.215,40.6511,营口市,镜湖西路,臭氧1小时,119,71,56,42,28,252,237,230,230,13,12,10,8,0.8,0.6
2022-05-24T21:00:00,1600A,124.3303,40.0625,丹东市,江湾东路,,39,17,29,10,21,127,122,121,121,7,9,7,8,0.4,0.5
2022-05-24T21:00:00,1601A,124.4256,40.1503,丹东市,临江后街,,,,,10,14,127,110,118,117,7,6,12,11,1.3,1.3
2022-05-24T21:00:00,1602A,124.3933,40.1461,丹东市,元宝山,,35,22,32,12,21,131,112,114,114,6,7,10,11,0.8,0.8
2022-05-24T21:00:00,1603A,124.3633,40.1092,丹东市,民主桥,,36,16,28,8,18,119,115,115,115,2,7,9,10,0.8,1
2022-05-24T21:00:00,1604A,122.0303,41.1489,盘锦市,开发区,颗粒物(PM10),106,162,79,22,45,233,193,206,206,20,17,6,7,0.9,0.8
2022-05-24T21:00:00,1605A,122.0485,41.0883,盘锦市,兴隆台,颗粒物(PM10),147,244,96,75,46,231,203,209,209,22,18,5,6,1.0,0.9
2022-05-24T21:00:00,1607A,120.9092,40.7136,葫芦岛市,龙港区,"颗粒物(PM10),细颗粒物(PM2.5)",54,58,57,38,38,264,117,184,183,32,15,76,12,0.8,0.6
2022-05-24T21:00:00,1608A,120.8392,40.7514,葫芦岛市,化工街,颗粒物(PM10),98,146,77,43,41,236,121,186,182,19,21,6,10,0.5,0.6
2022-05-24T21:00:00,1609A,120.8341,40.7073,葫芦岛市,新区,颗粒物(PM10),59,67,66,16,35,257,129,190,189,21,18,9,12,0.7,0.8
2022-05-24T21:00:00,1610A,120.8695,40.7677,葫芦岛市,东城区,,41,41,66,18,37,237,119,184,181,21,20,9,12,0.4,0.6
2022-05-24T21:00:00,1611A,118.5819,24.9117,泉州市,涂山街,,18,12,24,7,22,84,39,70,57,36,23,6,8,0.7,0.6
2022-05-24T21:00:00,1612A,118.5972,24.8978,泉州市,津头埔,,23,23,34,16,23,73,24,62,50,46,27,4,4,0.7,0.6
2022-05-24T21:00:00,1613A,118.6663,24.9424,泉州市,万安,,15,12,27,10,24,73,41,67,60,25,22,6,8,0.7,0.6
2022-05-24T21:00:00,1614A,118.6117,24.9604,泉州市,清源山(对照点),,15,5,17,3,15,69,47,60,56,22,16,6,7,0.6,0.6
2022-05-24T21:00:00,1616A,117.6795,36.229,济南市,技术学院,臭氧1小时,82,68,67,32,31,225,185,217,211,14,19,19,16,0.7,0.8
2022-05-24T21:00:00,1618A,118.3429,35.0532,临沂市,沂河小区,,36,36,53,13,26,182,105,163,148,8,12,8,12,0.3,0.4
2022-05-24T21:00:00,1619A,118.295,35.0583,临沂市,鲁南制药厂,,41,41,53,12,26,196,114,178,161,15,21,6,13,0.4,0.5
2022-05-24T21:00:00,1620A,118.2794,34.9976,临沂市,新光毛纺厂,,,,68,16,28,185,109,166,150,3,14,5,10,0.4,0.5
2022-05-24T21:00:00,1621A,118.3956,35.0888,临沂市,河东保险公司,,39,39,52,12,26,181,110,164,148,16,21,8,11,0.0,0.1
2022-05-24T21:00:00,1622A,116.3032,37.4674,德州市,儿童乐园,颗粒物(PM10),62,74,92,31,38,200,140,191,178,16,18,7,11,0.7,0.9
2022-05-24T21:00:00,1624A,116.2991,37.4451,德州市,监理站,颗粒物(PM10),83,116,93,40,41,191,132,183,169,14,18,16,19,0.4,0.6
2022-05-24T21:00:00,1625A,115.9848,36.4372,聊城市,区政府,颗粒物(PM10),63,75,82,33,32,175,141,167,160,15,34,9,20,0.7,0.7
2022-05-24T21:00:00,1628A,118.0062,37.3803,滨州市,市环保局,颗粒物(PM10),65,80,90,46,47,266,167,253,232,22,24,9,16,0.4,0.5
2022-05-24T21:00:00,1629A,118.0018,37.3617,滨州市,第二水厂,颗粒物(PM10),78,106,94,38,38,218,127,207,184,32,33,10,15,0.6,0.7
2022-05-24T21:00:00,1630A,117.9776,37.393,滨州市,北中新校,颗粒物(PM10),57,63,72,24,41,241,139,227,205,34,30,10,16,0.7,0.7
2022-05-24T21:00:00,1631A,118.0414,36.8103,淄博市,人民公园,细颗粒物(PM2.5),65,75,63,47,30,220,140,208,186,40,18,16,11,0.5,0.4
2022-05-24T21:00:00,1633A,117.8525,36.4847,淄博市,双山,细颗粒物(PM2.5),68,63,57,49,40,216,169,209,201,17,16,14,16,0.5,0.5
2022-05-24T21:00:00,1634A,117.9592,36.6331,淄博市,气象站,臭氧1小时,70,64,69,39,35,209,176,199,190,14,17,15,14,0.3,0.4
2022-05-24T21:00:00,1635A,118.3092,36.8194,淄博市,莆田园,颗粒物(PM10),71,92,73,39,32,227,135,213,189,35,22,12,14,0.3,0.6
2022-05-24T21:00:00,1637A,117.558,34.8438,枣庄市,市中区政府,颗粒物(PM10),59,68,63,27,25,209,158,202,198,26,25,13,13,0.4,0.4
2022-05-24T21:00:00,1638A,117.2852,34.7837,枣庄市,薛城环保局,颗粒物(PM10),74,98,72,24,31,213,141,199,191,31,22,12,12,0.6,0.7
2022-05-24T21:00:00,1639A,117.5852,34.7745,枣庄市,峄城区政府,颗粒物(PM10),65,80,63,22,20,197,127,183,178,32,24,7,8,0.6,0.5
2022-05-24T21:00:00,1640A,117.7276,34.5578,枣庄市,台儿庄区环保局,,43,41,44,24,17,192,137,173,170,16,20,7,9,0.8,0.8
2022-05-24T21:00:00,1641A,117.4518,35.0992,枣庄市,山亭区环保局,颗粒物(PM10),58,66,56,27,32,203,159,190,184,21,17,36,15,0.6,0.6
2022-05-24T21:00:00,1642A,121.2514,37.5639,烟台市,开发区,,35,27,51,5,17,195,112,174,144,9,10,5,7,0.3,0.4
2022-05-24T21:00:00,1643A,121.3719,37.5433,烟台市,轴承厂,,37,24,41,14,19,184,116,170,144,6,8,4,5,0.4,0.5
2022-05-24T21:00:00,1644A,121.3181,37.5436,烟台市,西郊化工站,,35,22,42,7,15,175,112,157,134,8,11,6,8,0.5,0.5
2022-05-24T21:00:00,1645A,121.4478,37.4822,烟台市,莱山环保局,,36,19,42,11,15,182,114,163,141,7,10,5,6,0.2,0.3
2022-05-24T21:00:00,1646A,121.2611,37.4967,烟台市,福山环保局,,36,19,44,7,16,184,114,164,138,2,5,8,9,0.5,0.6
2022-05-24T21:00:00,1650A,119.1437,36.7023,潍坊市,环保局,,41,41,69,14,33,215,113,200,157,14,16,8,8,0.7,0.7
2022-05-24T21:00:00,1653A,116.6251,35.4302,济宁市,火炬城,颗粒物(PM10),61,71,67,31,32,204,166,195,193,15,15,11,14,0.8,0.9
2022-05-24T21:00:00,1655A,116.5491,35.4042,济宁市,电化厂,臭氧1小时,70,66,68,29,31,210,176,200,199,7,11,4,7,0.8,0.9
2022-05-24T21:00:00,1656A,117.1437,36.1937,泰安市,监测站,颗粒物(PM10),59,68,70,36,39,212,162,206,197,16,17,9,13,0.4,0.5
2022-05-24T21:00:00,1657A,117.0885,36.2017,泰安市,人口学校,臭氧1小时,68,61,66,31,31,207,174,203,197,19,19,7,12,0.3,0.3
2022-05-24T21:00:00,1658A,117.1089,36.1758,泰安市,电力学校,颗粒物(PM10),69,88,70,32,34,198,146,195,184,22,19,8,12,0.9,0.9
2022-05-24T21:00:00,1659A,119.471,35.4209,日照市,监测站,,34,34,45,15,23,129,51,114,94,53,26,17,11,1.3,0.5
2022-05-24T21:00:00,1660A,119.523,35.4216,日照市,市政府广场,,28,24,50,13,19,142,87,120,110,19,27,6,10,0.4,0.6
2022-05-24T21:00:00,1661A,119.5587,35.4044,日照市,港务局,,31,24,51,7,17,141,99,126,118,11,21,3,6,0.4,0.5
2022-05-24T21:00:00,1662A,122.1214,37.4236,威海市,华夏技校,,33,17,32,12,14,137,103,133,123,7,7,4,4,0.3,0.3
2022-05-24T21:00:00,1663A,122.0508,37.5236,威海市,山大分校,,39,39,35,2,10,163,113,149,137,8,8,5,6,0.2,0.2
2022-05-24T21:00:00,1664A,122.1067,37.5072,威海市,市监测站,,38,15,31,9,14,155,119,146,136,6,7,7,7,0.2,0.2
2022-05-24T21:00:00,1666A,118.6614,37.4309,东营市,市环保局,,48,48,64,9,32,261,115,252,210,12,19,16,16,0.4,0.6
2022-05-24T21:00:00,1669A,113.5824,24.7733,韶关市,市八中,,,39,20,20,16,88,,62,62,11,12,9,9,0.6,0.7
2022-05-24T21:00:00,1671A,113.5917,24.7972,韶关市,园林处,,25,25,19,17,12,96,26,60,52,9,9,8,8,0.5,0.5
2022-05-24T21:00:00,1672A,113.6735,24.7791,韶关市,韶关学院,,30,23,14,21,15,70,19,64,55,15,14,9,8,0.5,0.5
2022-05-24T21:00:00,1673A,113.5971,24.6863,韶关市,曲江监测站,,35,31,25,24,25,72,20,58,54,18,20,7,8,0.7,0.8
2022-05-24T21:00:00,1674A,116.6794,23.3667,汕头市,金平子站,,18,5,19,8,11,104,56,87,65,12,11,8,8,0.7,0.6
2022-05-24T21:00:00,1675A,116.7244,23.3633,汕头市,龙湖子站,,19,7,17,8,10,101,59,86,69,14,12,7,6,0.6,0.6
2022-05-24T21:00:00,1676A,116.7258,23.2775,汕头市,濠江子站,,17,9,12,9,10,99,54,86,69,16,9,9,8,0.7,0.5
2022-05-24T21:00:00,1677A,116.7519,23.4714,汕头市,澄海子站,,19,9,17,8,13,110,59,80,66,18,16,5,6,0.8,0.7
2022-05-24T21:00:00,1678A,116.6092,23.2539,汕头市,潮阳子站,,18,12,15,10,14,108,56,92,63,14,13,7,7,0.6,0.5
2022-05-24T21:00:00,1680A,110.3539,21.2706,湛江市,湛江影剧院,,21,6,16,7,6,65,65,56,56,6,4,5,4,0.4,0.3
2022-05-24T21:00:00,1681A,110.3928,21.2228,湛江市,市环境监测站,,25,4,15,6,7,78,78,68,68,5,3,4,4,0.4,0.4
2022-05-24T21:00:00,1682A,110.4019,21.1997,湛江市,环保局宿舍,,23,9,16,9,8,73,73,65,65,6,3,4,3,0.4,0.4
2022-05-24T21:00:00,1683A,110.4111,21.2028,湛江市,霞山游泳场,,23,11,16,7,8,71,71,64,64,9,5,5,5,0.5,0.4
2022-05-24T21:00:00,1684A,110.3316,21.2679,湛江市,麻章区环保局,,20,15,15,8,7,62,62,56,56,6,4,4,4,0.5,0.4
2022-05-24T21:00:00,1685A,110.4558,21.2567,湛江市,坡头区环保局,,27,18,16,8,8,84,84,72,72,5,4,5,5,0.7,0.6
2022-05-24T21:00:00,1686A,111.0286,21.4688,茂名市,电白南海,,,14,21,7,8,67,67,64,64,10,10,,4,0.5,0.5
2022-05-24T21:00:00,1687A,110.9294,21.6533,茂名市,茂石化七小,,16,14,20,9,12,58,51,55,54,10,8,6,7,0.5,0.5
2022-05-24T21:00:00,1688A,110.9107,21.6687,茂名市,健康路,,15,7,12,1,4,56,48,52,51,8,7,6,6,0.6,0.6
2022-05-24T21:00:00,1689A,110.8592,21.6828,茂名市,高岭,,14,7,6,0,5,58,44,52,51,14,11,6,8,0.6,0.5
2022-05-24T21:00:00,1690A,116.1231,24.3284,梅州市,梅江月梅,,12,0,25,6,17,58,31,50,47,23,18,2,4,0.6,0.6
2022-05-24T21:00:00,1691A,116.0797,24.2719,梅州市,梅县新城,,,12,26,,17,79,36,63,55,22,20,5,6,0.7,0.7
2022-05-24T21:00:00,1692A,116.1248,24.2654,梅州市,环境监控中心,,12,8,27,8,19,63,37,55,50,18,18,7,6,0.6,0.6
2022-05-24T21:00:00,1693A,115.3653,22.775,汕尾市,市环保局,,18,10,14,5,9,96,56,96,64,13,9,4,7,0.6,0.6
2022-05-24T21:00:00,1694A,115.3706,22.7898,汕尾市,市政府,,20,16,16,4,12,100,62,100,64,11,11,6,6,0.6,0.6
2022-05-24T21:00:00,1695A,115.3622,22.7925,汕尾市,新城中学,,21,8,14,6,9,96,67,96,71,6,6,6,6,0.6,0.6
2022-05-24T21:00:00,1696A,114.6778,23.7569,河源市,源西(对照点),,12,7,22,4,10,82,37,66,59,9,5,3,4,0.6,0.5
2022-05-24T21:00:00,1697A,114.6944,23.7586,河源市,东埔,,13,8,20,9,11,82,30,71,56,21,14,3,3,0.9,0.7
2022-05-24T21:00:00,1698A,114.6892,23.7233,河源市,老城,,14,11,22,6,14,84,25,67,59,28,14,2,2,0.8,0.7
2022-05-24T21:00:00,1699A,111.9797,21.8593,阳江市,鸳鸯湖(对照点),,26,26,18,9,11,76,32,65,57,20,6,7,8,0.7,0.6
2022-05-24T21:00:00,1701A,111.9491,21.8658,阳江市,马南垌,,16,16,20,10,14,76,33,61,55,20,8,6,6,0.6,0.5
2022-05-24T21:00:00,1702A,113.0426,23.691,清远市,环保大楼(对照点),,18,12,12,9,9,113,55,89,88,7,12,2,2,0.5,0.6
2022-05-24T21:00:00,1703A,113.0208,23.7106,清远市,凤城街办,,25,25,18,14,11,101,34,78,74,18,14,4,4,1.1,0.9
2022-05-24T21:00:00,1705A,116.6367,23.6719,潮州市,西园路(对照点),,22,20,25,15,20,91,36,85,51,22,17,6,6,0.9,0.8
2022-05-24T21:00:00,1706A,116.6447,23.6706,潮州市,档案局,,28,16,28,19,20,96,34,94,53,24,17,12,11,0.9,0.8
2022-05-24T21:00:00,1708A,116.3701,23.5345,揭阳市,新兴,,40,40,41,23,23,100,40,94,74,24,15,7,8,0.9,0.8
2022-05-24T21:00:00,1709A,116.3264,23.5443,揭阳市,西马,,30,30,28,15,20,100,40,94,78,24,14,6,6,0.8,0.8
2022-05-24T21:00:00,1710A,116.3611,23.5626,揭阳市,东兴,,43,43,36,16,18,95,44,87,73,17,13,6,6,0.8,0.7
2022-05-24T21:00:00,1711A,116.4151,23.5294,揭阳市,渔湖,,30,30,27,18,14,96,37,86,68,22,15,6,7,0.7,0.6
2022-05-24T21:00:00,1714A,112.0539,22.9539,云浮市,牧羊,,44,44,36,19,25,114,69,83,83,20,23,10,10,0.5,0.6
2022-05-24T21:00:00,1715A,102.575,24.3711,玉溪市,东风水库,,25,25,9,4,4,74,54,65,65,8,8,8,7,0.6,0.6
2022-05-24T21:00:00,1718A,115.4208,35.2464,菏泽市,气象局,颗粒物(PM10),60,70,74,29,37,180,150,174,171,16,17,13,13,0.5,0.5
2022-05-24T21:00:00,1719A,115.4747,35.2375,菏泽市,市政协,颗粒物(PM10),67,83,76,29,31,175,144,169,167,20,15,8,13,0.3,0.3
2022-05-24T21:00:00,1721A,113.3819,40.1097,大同市,果树场(对照点),,32,32,84,13,36,176,97,147,121,5,28,9,18,0.4,0.7
2022-05-24T21:00:00,1723A,113.2994,40.0758,大同市,云冈宾馆,颗粒物(PM10),74,98,112,22,38,169,90,136,117,10,37,6,13,0.6,0.8
2022-05-24T21:00:00,1724A,113.3444,40.0917,大同市,大同大学,颗粒物(PM10),58,66,101,15,31,178,92,148,121,14,35,9,17,0.2,0.5
2022-05-24T21:00:00,1725A,113.2661,40.1269,大同市,安家小村,颗粒物(PM10),71,91,105,13,28,175,96,143,124,10,29,14,23,0.4,0.9
2022-05-24T21:00:00,1726A,113.2711,40.0844,大同市,教育学院,颗粒物(PM10),68,86,99,18,29,169,96,141,119,7,34,9,20,0.3,0.6
2022-05-24T21:00:00,1727A,113.1147,36.1547,长治市,清华站,臭氧1小时,54,56,48,22,31,200,163,191,188,16,23,16,13,0.4,0.5
2022-05-24T21:00:00,1728A,113.1031,36.1989,长治市,监测站,臭氧1小时,72,63,57,29,35,201,177,197,192,6,25,8,14,0.6,0.9
2022-05-24T21:00:00,1730A,113.0886,36.2125,长治市,审计局,臭氧1小时,64,61,47,34,35,204,171,196,192,25,27,9,25,1.1,1.2
2022-05-24T21:00:00,1731A,113.0844,36.1856,长治市,长治八中,臭氧1小时,65,65,55,17,27,198,172,191,189,20,29,9,14,0.7,0.8
2022-05-24T21:00:00,1733A,111.5531,36.0783,临汾市,临钢医院,颗粒物(PM10),71,92,50,28,26,201,61,197,173,82,27,4,6,1.1,0.7
2022-05-24T21:00:00,1734A,111.5028,36.0714,临汾市,技工学校,,43,39,41,30,30,200,119,188,176,32,23,12,9,0.8,0.7
2022-05-24T21:00:00,1736A,111.5018,36.0855,临汾市,市委,,45,45,43,17,26,220,108,204,188,58,26,14,16,0.7,0.7
2022-05-24T21:00:00,1738A,113.5758,37.8572,阳泉市,市中心,臭氧1小时,83,78,60,21,27,208,186,194,192,23,42,24,14,1.0,0.9
2022-05-24T21:00:00,1739A,113.4894,37.8731,阳泉市,赛鱼,,48,45,37,20,23,210,88,185,146,96,59,16,12,1.0,0.8
2022-05-24T21:00:00,1740A,113.5819,37.8486,阳泉市,南庄,臭氧1小时,75,84,62,38,28,208,180,193,192,28,37,30,13,0.9,0.8
2022-05-24T21:00:00,1742A,113.5614,37.8703,阳泉市,平坦,颗粒物(PM10),63,76,61,30,28,199,164,188,186,28,46,28,14,1.0,0.9
2022-05-24T21:00:00,1743A,113.5158,37.8392,阳泉市,大阳泉,臭氧1小时,83,13,39,35,28,203,186,194,194,22,24,18,12,0.7,0.6
2022-05-24T21:00:00,1744A,118.9233,42.2816,赤峰市,松山一中,颗粒物(PM10),65,79,49,17,16,163,61,152,90,15,25,8,10,0.7,0.8
2022-05-24T21:00:00,1745A,118.9576,42.2728,赤峰市,哈达街,颗粒物(PM10),70,89,48,17,16,152,63,145,85,14,23,7,11,0.6,0.7
2022-05-24T21:00:00,1746A,118.8788,42.2554,赤峰市,天义路,颗粒物(PM10),61,71,45,14,15,165,64,158,92,11,17,8,12,0.5,0.5
2022-05-24T21:00:00,1748A,123.044,41.1196,鞍山市,深沟寺,臭氧1小时,65,77,66,32,30,198,172,181,159,13,12,13,11,0.9,0.8
2022-05-24T21:00:00,1749A,123.011,41.0931,鞍山市,太阳城,臭氧1小时,68,75,67,34,31,188,174,170,152,13,15,10,10,0.7,0.8
2022-05-24T21:00:00,1750A,123.0485,41.1442,鞍山市,太平,颗粒物(PM10),62,73,66,41,33,189,166,172,153,12,13,13,14,0.8,1
2022-05-24T21:00:00,1751A,122.9642,41.0971,鞍山市,铁西三道街,颗粒物(PM10),76,102,87,45,37,176,166,156,152,19,19,10,12,1.0,1.2
2022-05-24T21:00:00,1752A,122.9341,41.0833,鞍山市,铁西工业园区,臭氧1小时,70,78,76,35,35,187,176,164,158,9,13,12,12,0.6,0.9
2022-05-24T21:00:00,1753A,123.022,41.0821,鞍山市,明达新区,臭氧1小时,72,62,61,35,32,196,177,183,157,11,13,7,8,0.6,0.7
2022-05-24T21:00:00,1754A,123.1289,41.0228,鞍山市,千山(对照点),,34,34,34,23,25,135,98,131,118,9,7,10,10,0.5,0.5
2022-05-24T21:00:00,1755A,123.7977,41.8491,抚顺市,望花区,颗粒物(PM10),52,54,97,26,40,183,114,170,145,20,20,9,13,0.8,0.9
2022-05-24T21:00:00,1756A,123.9161,41.8822,抚顺市,顺城区,,44,44,84,20,35,176,114,162,136,12,19,7,14,0.4,0.8
2022-05-24T21:00:00,1757A,124.0436,41.8611,抚顺市,东洲区,,40,37,67,22,47,204,126,188,160,11,13,6,9,1.0,0.9
2022-05-24T21:00:00,1758A,123.9247,41.8642,抚顺市,新抚区,,39,36,82,13,35,185,122,172,144,9,19,4,9,0.2,0.6
2022-05-24T21:00:00,1759A,124.0972,41.8961,抚顺市,大伙房水库,,47,35,77,20,36,223,148,209,176,2,6,8,10,0.4,0.7
2022-05-24T21:00:00,1760A,123.7086,41.8391,抚顺市,沈抚新城,,50,50,78,28,37,200,116,182,154,21,22,12,14,0.4,0.6
2022-05-24T21:00:00,1761A,123.8275,41.3064,本溪市,大峪,臭氧1小时,69,61,48,26,17,175,175,156,156,8,8,10,8,0.7,0.6
2022-05-24T21:00:00,1762A,123.7567,41.3325,本溪市,溪湖,颗粒物(PM10),56,62,63,28,30,170,134,153,134,17,21,6,11,0.8,1
2022-05-24T21:00:00,1763A,123.7169,41.3094,本溪市,彩屯,细颗粒物(PM2.5),72,84,82,52,50,138,100,130,113,48,43,29,28,2.7,2.6
2022-05-24T21:00:00,1764A,123.7669,41.2864,本溪市,东明,颗粒物(PM10),59,67,66,25,26,189,146,178,133,12,10,9,10,0.6,0.7
2022-05-24T21:00:00,1765A,123.7992,41.2664,本溪市,新立屯,颗粒物(PM10),56,62,62,31,30,191,158,183,140,6,5,8,7,0.9,0.9
2022-05-24T21:00:00,1766A,123.8142,41.3472,本溪市,威宁,,40,40,65,24,31,143,124,134,116,7,14,11,11,0.5,0.6
2022-05-24T21:00:00,1767A,121.1115,41.0879,锦州市,南山,细颗粒物(PM2.5),54,36,82,38,51,194,111,170,162,11,23,7,18,0.9,1.1
2022-05-24T21:00:00,1768A,121.0533,40.8434,锦州市,开发区,细颗粒物(PM2.5),89,126,149,66,53,233,146,165,165,14,31,9,16,1.1,1
2022-05-24T21:00:00,1769A,121.1836,41.1119,锦州市,百股街道,,40,28,67,21,44,202,128,174,172,16,39,5,12,0.8,0.8
2022-05-24T21:00:00,1770A,121.1178,41.1222,锦州市,天安街道,颗粒物(PM10),79,107,126,31,56,202,114,182,173,19,35,6,19,1.2,1.2
2022-05-24T21:00:00,1771A,121.1303,41.1386,锦州市,北湖公园,,40,28,86,28,46,208,107,208,172,13,24,7,17,1.1,1
2022-05-24T21:00:00,1772A,126.54,43.8622,吉林市,哈达湾,,33,33,60,10,34,206,63,179,134,16,12,16,8,0.7,0.9
2022-05-24T21:00:00,1773A,126.5844,43.8358,吉林市,东局子,,32,32,62,12,32,188,54,177,131,25,18,14,8,0.8,0.8
2022-05-24T21:00:00,1774A,126.5052,43.8245,吉林市,电力学院,,32,32,60,8,31,207,69,192,145,18,16,19,14,0.6,0.8
2022-05-24T21:00:00,1775A,126.6133,43.8972,吉林市,江北,,28,28,58,9,32,181,61,168,130,17,14,9,12,0.6,0.8
2022-05-24T21:00:00,1776A,126.555,43.8306,吉林市,江南公园,,31,31,61,13,32,191,55,175,130,21,14,14,9,0.7,0.8
2022-05-24T21:00:00,1778A,126.7061,43.7133,吉林市,丰满(对照点),,46,46,69,28,37,214,75,186,127,16,7,5,7,1.0,1
2022-05-24T21:00:00,1779A,123.9305,47.3636,齐齐哈尔市,安居小区,,20,20,20,13,8,88,28,67,42,18,13,3,3,0.7,0.6
2022-05-24T21:00:00,1780A,123.9488,47.3386,齐齐哈尔市,中心广场,,12,12,14,8,5,94,32,73,40,17,14,4,4,0.5,0.4
2022-05-24T21:00:00,1781A,123.9483,47.3227,齐齐哈尔市,农牧车辆厂,,24,24,21,12,7,97,36,76,42,14,12,3,3,0.2,0.2
2022-05-24T21:00:00,1783A,123.945,47.2988,齐齐哈尔市,市环境监测站,,20,20,20,8,22,99,22,81,41,29,14,4,4,0.6,0.6
2022-05-24T21:00:00,1784A,129.61,44.561,牡丹江市,环保大楼,,26,26,43,14,15,160,79,144,114,9,12,4,4,0.5,0.6
2022-05-24T21:00:00,1785A,129.6115,44.5782,牡丹江市,文化广场,,33,21,26,23,18,150,70,131,95,10,16,6,6,0.4,0.5
2022-05-24T21:00:00,1786A,129.5904,44.5963,牡丹江市,第一医院,,22,16,22,15,17,137,65,119,88,8,13,5,5,0.7,0.8
2022-05-24T21:00:00,1787A,129.6364,44.6075,牡丹江市,机车工厂,,,,34,10,15,146,65,130,92,7,16,8,12,0.3,0.4
2022-05-24T21:00:00,1788A,129.6386,44.5462,牡丹江市,第一中学,,28,28,33,15,14,141,63,127,94,10,14,5,5,0.5,0.5
2022-05-24T21:00:00,1789A,124.81117,46.03138,大庆市,大同区,,19,15,28,7,8,88,58,74,62,5,8,3,4,0.3,0.4
2022-05-24T21:00:00,1790A,125.129,46.533,大庆市,龙凤区,,20,20,22,13,10,84,43,82,40,20,14,3,4,0.3,0.2
2022-05-24T21:00:00,1791A,124.902,46.408,大庆市,红岗区,,17,16,20,11,10,80,53,76,51,8,10,6,5,0.3,0.3
2022-05-24T21:00:00,1792A,125.153,46.586,大庆市,萨尔图区,,16,13,14,11,7,88,36,87,33,21,13,5,5,0.3,0.3
2022-05-24T21:00:00,1793A,124.9042,46.6215,大庆市,让胡路区,,25,21,19,17,21,93,52,88,48,13,12,14,15,0.3,0.3
2022-05-24T21:00:00,1794A,118.3606,31.3519,芜湖市,监测站,,38,38,23,24,16,140,115,132,132,32,17,7,7,0.5,0.5
2022-05-24T21:00:00,1795A,118.3714,31.4134,芜湖市,科创中心,,46,46,24,26,16,142,112,136,134,30,14,6,6,0.6,0.5
2022-05-24T21:00:00,1796A,118.3673,31.3131,芜湖市,四水厂,,36,34,27,23,16,145,113,138,137,34,17,7,7,0.6,0.5
2022-05-24T21:00:00,1798A,118.5092,31.6837,马鞍山市,湖东路四小,,36,25,25,15,16,148,114,141,138,21,12,3,3,0.4,0.4
2022-05-24T21:00:00,1799A,118.5024,31.6449,马鞍山市,开发区,颗粒物(PM10),51,51,31,20,16,143,82,135,127,41,18,9,8,0.8,0.7
2022-05-24T21:00:00,1800A,118.5228,31.7231,马鞍山市,慈湖,,34,34,32,21,16,131,94,123,119,31,16,34,15,0.6,0.5
2022-05-24T21:00:00,1802A,118.6245,31.7241,马鞍山市,濮塘(对照点),,36,36,25,13,11,124,99,118,116,7,6,8,8,0.6,0.5
2022-05-24T21:00:00,1803A,115.9872,29.6815,九江市,十里,,36,36,24,17,15,108,63,98,92,30,22,5,5,0.6,0.5
2022-05-24T21:00:00,1804A,115.9584,29.7046,九江市,茅山头,,30,24,21,21,13,113,67,102,97,26,19,3,4,0.6,0.5
2022-05-24T21:00:00,1805A,115.9877,29.7295,九江市,西园,,38,38,28,16,14,107,61,99,90,34,25,5,8,0.7,0.6
2022-05-24T21:00:00,1806A,116.0172,29.6547,九江市,五七二七厂,,24,22,18,6,5,108,74,100,96,3,4,5,5,0.4,0.4
2022-05-24T21:00:00,1808A,115.9114,29.6038,九江市,综合工业园,,44,44,26,24,13,131,44,112,99,29,21,6,6,0.6,0.7
2022-05-24T21:00:00,1809A,116.0721,29.7535,九江市,石化总厂,,36,36,23,20,13,117,65,110,100,29,14,10,9,0.6,0.5
2022-05-24T21:00:00,1810A,115.9773,29.5698,九江市,庐山气象台(对照点),,35,10,13,6,9,109,109,101,101,3,3,6,9,0.3,0.5
2022-05-24T21:00:00,1812A,112.3931,34.6516,洛阳市,市委党校,,48,48,53,22,25,188,133,178,168,11,17,2,6,0.5,0.6
2022-05-24T21:00:00,1814A,112.4657,34.6871,洛阳市,豫西宾馆,颗粒物(PM10),54,57,58,26,28,212,147,189,183,14,21,7,4,0.6,0.6
2022-05-24T21:00:00,1815A,112.494,34.6886,洛阳市,河南林校,颗粒物(PM10),54,57,55,23,25,218,154,196,191,17,22,11,9,0.3,0.3
2022-05-24T21:00:00,1816A,112.3844,34.623,洛阳市,开发区管委会,颗粒物(PM10),52,54,50,25,28,217,145,199,192,18,14,9,8,0.4,0.3
2022-05-24T21:00:00,1817A,112.4267,34.6258,洛阳市,市委新办公区,,48,44,51,23,26,209,151,194,188,11,15,9,8,0.4,0.4
2022-05-24T21:00:00,1818A,114.4839,36.0621,安阳市,棉研所(对照点),颗粒物(PM10),68,86,73,32,31,163,110,156,149,24,26,8,8,0.6,1
2022-05-24T21:00:00,1819A,114.3551,36.1017,安阳市,红庙街,颗粒物(PM10),55,60,75,25,34,180,139,173,168,21,27,12,13,0.4,1.2
2022-05-24T21:00:00,1820A,114.361,36.0681,安阳市,银杏小区,,,62,77,,,189,139,180,174,23,29,10,10,0.6,1.2
2022-05-24T21:00:00,1824A,114.3389,34.7781,开封市,肿瘤医院,颗粒物(PM10),66,81,77,34,34,176,130,174,166,18,18,6,12,0.6,0.7
2022-05-24T21:00:00,1826A,114.2885,34.7965,开封市,世纪星幼儿园,颗粒物(PM10),61,71,66,28,28,180,155,178,174,13,15,5,11,0.7,0.7
2022-05-24T21:00:00,1828A,113.2269,35.2127,焦作市,市环保局,颗粒物(PM10),53,56,57,31,30,205,151,193,189,27,20,11,8,0.4,0.5
2022-05-24T21:00:00,1829A,113.2467,35.176,焦作市,高新区政府,颗粒物(PM10),73,96,80,24,31,176,139,168,165,37,23,9,14,0.3,0.4
2022-05-24T21:00:00,1830A,113.1987,35.2703,焦作市,影视城(对照点),臭氧1小时,58,40,40,21,25,191,166,185,182,9,10,7,9,0.4,0.5
2022-05-24T21:00:00,1832A,113.3257,33.742,平顶山市,新华旅馆,,,56,55,,28,160,142,157,154,14,11,3,2,0.2,0.2
2022-05-24T21:00:00,1833A,113.2919,33.737,平顶山市,规划设计院,颗粒物(PM10),51,51,43,19,19,159,133,154,150,20,16,5,5,0.5,0.4
2022-05-24T21:00:00,1834A,113.182,33.774,平顶山市,平顶山工学院,颗粒物(PM10),53,56,46,25,27,155,134,150,148,11,8,3,3,0.4,0.4
2022-05-24T21:00:00,1835A,111.1922,34.7752,三门峡市,市政府,,46,46,53,25,28,202,115,172,160,34,22,8,10,0.5,0.5
2022-05-24T21:00:00,1836A,111.1587,34.7942,三门峡市,开发区,颗粒物(PM10),52,54,59,30,28,188,119,167,154,20,12,6,8,0.6,0.6
2022-05-24T21:00:00,1838A,111.143,34.7955,三门峡市,风景区(对照点),,37,34,54,19,26,192,116,173,160,18,11,5,7,0.6,0.6
2022-05-24T21:00:00,1840A,111.2992,30.6981,宜昌市,白龙岗,颗粒物(PM10),56,61,49,34,29,201,112,178,170,36,26,9,8,0.5,0.4
2022-05-24T21:00:00,1841A,111.3549,30.6465,宜昌市,伍家岗,颗粒物(PM10),53,56,50,31,33,192,63,167,153,64,33,6,6,0.5,0.5
2022-05-24T21:00:00,1842A,111.2628,30.6961,宜昌市,点军区,颗粒物(PM10),57,64,52,39,36,191,100,176,170,36,25,6,6,0.4,0.3
2022-05-24T21:00:00,1843A,111.3275,30.7819,宜昌市,夷陵区,,,58,49,46,29,178,,161,161,28,19,7,7,0.5,0.3
2022-05-24T21:00:00,1844A,112.2494,30.3197,荆州市,市图书馆,,45,39,54,31,39,185,103,165,147,29,27,7,8,0.7,0.6
2022-05-24T21:00:00,1845A,112.2008,30.3544,荆州市,市委党校,,42,42,53,22,34,191,115,164,151,26,29,10,12,0.7,0.7
2022-05-24T21:00:00,1847A,113.1094,29.3578,岳阳市,南湖风景区,,49,47,48,34,32,166,126,152,150,15,28,7,10,0.8,0.9
2022-05-24T21:00:00,1848A,113.1493,29.4251,岳阳市,城陵矶,,44,44,52,28,31,146,114,126,123,17,41,11,12,0.9,0.7
2022-05-24T21:00:00,1849A,113.1497,29.3575,岳阳市,开发区,,48,48,50,29,31,166,130,157,154,8,21,7,8,0.7,0.8
2022-05-24T21:00:00,1850A,113.2621,29.4758,岳阳市,云溪区,,33,32,40,23,29,161,92,153,146,39,17,8,12,1.0,0.9
2022-05-24T21:00:00,1851A,112.9943,29.4402,岳阳市,君山区,,42,42,40,26,32,151,114,146,143,10,13,5,6,0.9,0.9
2022-05-24T21:00:00,1852A,113.2117,29.355,岳阳市,金凤水库(对照点),,50,44,39,35,31,155,106,147,138,14,9,8,10,1.0,1
2022-05-24T21:00:00,1854A,111.6975,28.9703,常德市,市二中,,43,38,45,30,29,130,96,120,116,9,17,9,8,0.7,0.7
2022-05-24T21:00:00,1857A,111.7158,29.1456,常德市,白鹤山(对照点),,35,35,39,24,33,118,70,108,101,5,4,5,6,0.5,0.6
2022-05-24T21:00:00,1858A,110.5319,29.1217,张家界市,永定新区,,,42,30,42,26,118,,115,114,11,12,2,2,0.5,0.6
2022-05-24T21:00:00,1859A,110.4697,29.1242,张家界市,电业局,,43,27,24,30,20,115,101,109,105,8,10,2,2,0.3,0.2
2022-05-24T21:00:00,1860A,110.5594,29.3547,张家界市,未央路,,49,34,28,34,17,110,51,105,92,7,5,2,2,0.4,0.3
2022-05-24T21:00:00,1861A,110.4417,29.315,张家界市,袁家界(对照点),,39,39,27,10,20,140,117,133,132,7,6,8,8,0.2,0.2
2022-05-24T21:00:00,1862A,110.4144,25.3167,桂林市,电子科大尧山校区(对照点),,,,13,,6,65,,59,56,4,4,11,7,0.7,0.8
2022-05-24T21:00:00,1863A,110.2819,25.2697,桂林市,监测站,,20,20,12,4,5,63,38,62,53,18,12,4,3,0.9,0.8
2022-05-24T21:00:00,1864A,110.3089,25.2708,桂林市,龙隐路小学,,18,14,9,12,7,69,35,64,57,16,11,12,11,0.8,0.8
2022-05-24T21:00:00,1865A,110.2869,25.2178,桂林市,八中,,13,13,11,9,8,70,36,59,56,22,15,6,8,0.8,0.7
2022-05-24T21:00:00,1866A,109.2262,21.588,北海市,牛尾岭水库(对照点),,16,16,16,5,7,62,47,59,58,6,8,19,5,0.3,0.3
2022-05-24T21:00:00,1867A,109.1436,21.4086,北海市,海滩公园,,17,10,14,2,5,72,54,66,64,2,3,4,4,0.5,0.5
2022-05-24T21:00:00,1868A,109.0981,21.4661,北海市,新市环保局,,18,15,12,12,7,63,48,58,56,4,3,3,3,0.5,0.4
2022-05-24T21:00:00,1869A,109.1778,21.5233,北海市,北海工业园,,24,24,26,15,12,62,45,59,57,5,4,5,5,0.3,0.4
2022-05-24T21:00:00,1870A,109.4856,24.3895,柳州市,柳东小学,,,19,21,28,18,114,27,52,50,8,6,19,15,,0.9
2022-05-24T21:00:00,1871A,109.4157,24.3277,柳州市,环保监测站,,23,18,20,16,15,36,15,31,27,22,24,5,12,1.0,1
2022-05-24T21:00:00,1872A,109.389,24.341,柳州市,河西水厂,,27,27,36,10,9,38,17,32,29,18,13,5,6,1.2,1.1
2022-05-24T21:00:00,1873A,109.4311,24.2921,柳州市,市四中,,47,47,25,14,13,43,16,34,27,23,18,7,11,1.1,0.9
2022-05-24T21:00:00,1874A,109.4006,24.3631,柳州市,市九中,,50,31,23,35,29,37,11,28,20,24,24,12,15,1.4,1.3
2022-05-24T21:00:00,1875A,109.4958,24.3134,柳州市,古亭山,,30,30,22,18,11,41,6,35,25,24,11,4,6,0.9,0.6
2022-05-24T21:00:00,1876A,109.5078,18.2489,三亚市,河东子站,,17,17,19,10,10,66,49,62,58,5,4,2,2,0.5,0.4
2022-05-24T21:00:00,1877A,109.4964,18.2681,三亚市,河西子站,,19,19,18,11,9,62,40,57,54,8,5,1,2,0.3,0.3
2022-05-24T21:00:00,1878A,104.7778,31.4741,绵阳市,富乐山,,50,40,48,35,34,117,75,95,92,9,25,2,3,0.6,0.7
2022-05-24T21:00:00,1879A,104.7563,31.4535,绵阳市,市人大,颗粒物(PM10),60,70,64,24,38,115,63,95,94,20,35,8,8,0.5,0.6
2022-05-24T21:00:00,1880A,104.6697,31.4668,绵阳市,高新区自来水公司,细颗粒物(PM2.5),64,48,61,46,43,119,78,95,95,14,36,4,5,0.7,0.8
2022-05-24T21:00:00,1881A,104.7287,31.5075,绵阳市,三水厂,细颗粒物(PM2.5),65,75,73,47,45,117,84,85,85,8,37,7,8,0.5,0.6
2022-05-24T21:00:00,1882A,104.563,28.793,宜宾市,石马中学(对照点),细颗粒物(PM2.5),142,146,73,108,53,92,84,84,84,9,20,6,9,0.7,0.6
2022-05-24T21:00:00,1883A,104.6201,28.7728,宜宾市,市委,细颗粒物(PM2.5),120,109,67,91,45,91,66,76,76,25,34,6,7,0.8,0.7
2022-05-24T21:00:00,1884A,104.6055,28.793,宜宾市,宜宾四中,细颗粒物(PM2.5),115,120,74,87,51,86,58,76,75,34,32,6,8,0.6,0.6
2022-05-24T21:00:00,1885A,104.639,28.7562,宜宾市,市政府,细颗粒物(PM2.5),102,103,77,76,48,105,69,90,90,32,38,5,7,0.8,0.8
2022-05-24T21:00:00,1886A,104.5742,28.7199,宜宾市,黄金嘴,细颗粒物(PM2.5),100,94,64,75,43,93,60,82,81,23,34,6,8,0.7,0.7
2022-05-24T21:00:00,1888A,101.6891,26.571,攀枝花市,弄弄坪,,24,22,33,13,20,123,76,104,102,10,20,4,10,0.9,1.3
2022-05-24T21:00:00,1889A,101.5769,26.5928,攀枝花市,河门口,,25,20,31,13,18,146,80,108,108,11,26,7,17,0.7,1.6
2022-05-24T21:00:00,1890A,101.7169,26.585,攀枝花市,炳草岗,,30,30,43,13,23,130,65,101,98,24,30,12,27,0.7,1
2022-05-24T21:00:00,1891A,101.7369,26.5008,攀枝花市,仁和,,31,31,25,18,16,114,63,101,97,24,18,5,6,0.7,0.8
2022-05-24T21:00:00,1893A,105.4324,28.9634,泸州市,九狮山(对照点),颗粒物(PM10),75,100,77,42,34,147,50,113,102,19,21,13,19,0.6,0.6
2022-05-24T21:00:00,1894A,105.4427,28.9063,泸州市,小市上码头,颗粒物(PM10),69,88,75,41,28,151,59,125,110,25,35,9,21,0.6,0.7
2022-05-24T21:00:00,1895A,105.4241,28.8573,泸州市,兰田宪桥,颗粒物(PM10),66,82,69,31,25,136,59,116,105,25,29,29,15,0.7,0.7
2022-05-24T21:00:00,1896A,105.4379,28.8833,泸州市,市环监站,颗粒物(PM10),66,82,67,32,24,145,59,121,106,30,35,11,18,0.6,0.6
2022-05-24T21:00:00,1901A,104.4239,31.1208,德阳市,东山公园,颗粒物(PM10),52,53,54,33,33,106,52,88,84,49,26,6,7,0.6,0.6
2022-05-24T21:00:00,1902A,104.3826,31.1317,德阳市,西小区,颗粒物(PM10),59,67,70,31,38,111,62,93,92,37,31,6,10,0.7,0.7
2022-05-24T21:00:00,1904A,104.3553,31.1091,德阳市,耐火材料厂,,47,47,68,23,35,112,60,95,92,35,34,6,9,0.6,0.6
2022-05-24T21:00:00,1905A,106.056,30.8064,南充市,西山风景区(对照点),细颗粒物(PM2.5),52,40,39,36,33,107,68,96,81,12,10,2,3,0.6,0.5
2022-05-24T21:00:00,1906A,106.0789,30.8023,南充市,南充市委,"颗粒物(PM10),细颗粒物(PM2.5)",54,57,54,38,32,95,77,87,86,11,15,4,3,0.6,0.6
2022-05-24T21:00:00,1907A,106.1031,30.8217,南充市,南充炼油厂,颗粒物(PM10),52,54,59,33,35,90,56,77,74,3,16,3,2,0.5,0.6
2022-05-24T21:00:00,1908A,106.1064,30.7856,南充市,高坪区监测站,,46,46,53,25,34,87,55,75,72,16,25,2,7,0.6,0.6
2022-05-24T21:00:00,1909A,106.0642,30.7636,南充市,嘉陵区环保局,细颗粒物(PM2.5),53,43,42,37,38,110,57,87,78,17,26,3,4,0.6,0.6
2022-05-24T21:00:00,1910A,106.1087,30.8388,南充市,市环境监测站,颗粒物(PM10),60,69,59,40,37,87,46,74,69,18,19,6,7,0.5,0.5
2022-05-24T21:00:00,1911A,106.9222,27.6869,遵义市,丁字口,,23,23,39,15,29,59,26,54,46,18,15,7,6,0.8,0.8
2022-05-24T21:00:00,1912A,106.9242,27.7019,遵义市,凤凰山,,12,11,23,8,21,59,38,55,51,9,12,5,6,0.6,0.6
2022-05-24T21:00:00,1913A,106.8906,27.6486,遵义市,忠庄,,26,22,32,18,21,56,23,47,42,14,15,2,2,0.5,0.4
2022-05-24T21:00:00,1914A,106.9231,27.6506,遵义市,舟水桥,,28,25,36,19,26,56,27,51,46,10,12,3,2,0.4,0.4
2022-05-24T21:00:00,1915A,106.9178,27.72,遵义市,干田坝,,14,14,26,6,19,59,19,54,46,22,14,5,5,0.7,0.7
2022-05-24T21:00:00,1916A,103.7897,25.5035,曲靖市,环境监测站,,29,20,15,20,11,77,25,53,49,24,17,8,7,0.8,0.9
2022-05-24T21:00:00,1917A,103.8,25.5364,曲靖市,烟厂办公区,,13,10,13,2,9,97,39,72,68,15,12,4,4,0.7,0.9
2022-05-24T21:00:00,1918A,108.7197,34.3956,咸阳市,气象站(对照点),颗粒物(PM10),64,77,75,35,30,211,64,186,165,72,51,7,9,0.9,0.8
2022-05-24T21:00:00,1919A,108.673,34.3155,咸阳市,实验中学,,46,45,67,22,28,244,146,200,194,16,38,4,6,0.6,0.5
2022-05-24T21:00:00,1920A,108.7233,34.3617,咸阳市,师范学院,颗粒物(PM10),86,121,73,34,32,213,111,191,179,39,44,18,16,0.5,0.6
2022-05-24T21:00:00,1922A,109.0656,35.0994,铜川市,党校(对照点),,46,46,44,19,19,190,80,169,155,42,33,8,8,0.5,0.5
2022-05-24T21:00:00,1923A,109.0697,35.0697,铜川市,王益区政府,颗粒物(PM10),54,57,45,24,22,201,84,177,159,26,25,6,7,0.5,0.5
2022-05-24T21:00:00,1924A,108.9344,34.9058,铜川市,新区管委会,,,52,45,32,21,194,,176,166,32,20,7,11,0.6,0.4
2022-05-24T21:00:00,1926A,109.4131,36.6275,延安市,枣园(对照点),颗粒物(PM10),53,55,29,13,13,182,64,168,151,48,21,4,4,0.6,0.5
2022-05-24T21:00:00,1927A,109.4761,36.6028,延安市,延大医附院,,43,43,34,23,15,187,63,170,152,59,27,4,4,0.8,0.5
2022-05-24T21:00:00,1929A,109.5056,36.6106,延安市,百米大道,颗粒物(PM10),58,65,48,17,18,172,70,156,139,52,33,2,2,0.9,0.7
2022-05-24T21:00:00,1930A,107.185,34.3063,宝鸡市,庙沟村(对照点),颗粒物(PM10),54,58,30,22,17,166,105,144,140,34,12,6,5,0.5,0.4
2022-05-24T21:00:00,1931A,107.0708,34.3017,宝鸡市,竹园沟,,48,48,30,23,20,180,101,162,154,21,12,4,5,0.5,0.5
2022-05-24T21:00:00,1932A,107.1906,34.3672,宝鸡市,三陆医院,,49,49,48,19,21,187,106,168,161,37,29,7,10,0.7,0.6
2022-05-24T21:00:00,1933A,107.1431,34.3547,宝鸡市,监测站,颗粒物(PM10),53,55,38,26,21,190,84,168,159,33,20,5,5,0.6,0.5
2022-05-24T21:00:00,1934A,107.1186,34.3739,宝鸡市,技工学校,,48,41,43,33,22,191,120,171,165,26,19,5,6,0.5,0.4
2022-05-24T21:00:00,1935A,107.3906,34.3528,宝鸡市,陈仓区环保局家属楼,颗粒物(PM10),57,64,56,24,25,180,104,162,152,25,27,6,14,0.5,0.5
2022-05-24T21:00:00,1936A,107.2058,34.3497,宝鸡市,文理学院,颗粒物(PM10),53,55,46,22,25,189,91,174,163,41,26,8,9,0.4,0.4
2022-05-24T21:00:00,1937A,107.2386,34.3622,宝鸡市,三迪小学,颗粒物(PM10),55,59,52,23,27,184,92,166,155,45,29,8,10,0.6,0.4
2022-05-24T21:00:00,1938A,109.5293,34.5101,渭南市,农科所(对照点),颗粒物(PM10),57,63,60,34,35,179,60,168,149,48,10,15,13,0.4,0.4
2022-05-24T21:00:00,1939A,109.4974,34.4877,渭南市,日报社,,,63,62,24,29,155,106,145,140,43,36,13,8,,0.5
2022-05-24T21:00:00,1940A,109.4636,34.493,渭南市,体育馆,颗粒物(PM10),56,61,64,24,27,203,75,186,171,81,38,10,10,0.7,0.6
2022-05-24T21:00:00,1941A,109.4259,34.5023,渭南市,高新一小,颗粒物(PM10),59,68,83,34,34,191,108,176,165,42,29,7,9,0.7,0.6
2022-05-24T21:00:00,1943A,102.1725,38.5339,金昌市,新川苑,颗粒物(PM10),136,222,127,50,26,150,140,145,145,14,16,9,27,0.4,0.6
2022-05-24T21:00:00,1944A,102.1692,38.5167,金昌市,天庆家园,颗粒物(PM10),127,203,128,42,41,156,141,150,150,15,20,4,67,0.7,0.7
2022-05-24T21:00:00,1945A,98.2908,39.7711,嘉峪关市,气象局,颗粒物(PM10),500,1072,281,254,75,162,151,155,154,4,7,2,3,0.4,0.6
2022-05-24T21:00:00,1947A,106.3394,38.817,石嘴山市,沙湖旅游区(对照点),,46,46,69,16,27,190,130,177,170,17,28,42,51,0.4,1.2
2022-05-24T21:00:00,1948A,106.3668,39.0145,石嘴山市,大武口朝阳西街,,49,49,49,17,22,175,128,171,162,21,29,8,21,0.3,0.6
2022-05-24T21:00:00,1949A,106.7704,39.2282,石嘴山市,惠农南大街,,42,27,35,14,17,168,134,163,158,21,25,8,8,0.5,0.6
2022-05-24T21:00:00,1950A,106.7099,39.1325,石嘴山市,红果子镇惠新街,,46,46,50,19,22,150,111,144,138,25,28,7,7,0.3,0.3
2022-05-24T21:00:00,1951A,84.895,45.6094,克拉玛依市,长征新村,,38,38,35,14,6,122,90,110,110,23,13,6,5,0.3,0.2
2022-05-24T21:00:00,1952A,84.8988,45.5893,克拉玛依市,南林小区,,40,40,41,10,13,119,36,107,100,67,21,9,9,0.7,0.3
2022-05-24T21:00:00,1954A,84.905,44.3396,克拉玛依市,独山子区,,46,46,30,15,12,140,124,120,120,14,9,23,9,0.6,0.4
2022-05-24T21:00:00,1955A,85.6979,46.098,克拉玛依市,乌尔禾区商贸楼,,24,23,31,7,4,111,74,101,100,25,4,12,10,0.5,0.3
2022-05-24T21:00:00,1956A,86.1472,41.7538,巴音郭楞州,孔雀公园,颗粒物(PM10),61,71,50,12,12,131,111,125,122,17,8,1,2,0.3,0.3
2022-05-24T21:00:00,1957A,86.1972,41.7166,巴音郭楞州,棉纺厂,,33,31,33,13,16,118,103,114,112,21,12,2,3,0.2,0.1
2022-05-24T21:00:00,1958A,86.2357,41.7173,巴音郭楞州,经济开发区,,49,49,47,22,12,122,119,120,120,9,7,1,2,0.2,0.2
2022-05-24T21:00:00,1961A,117.532,36.6868,济南市,东山小学,颗粒物(PM10),79,107,77,34,32,217,148,204,190,42,25,9,13,0.3,0.5
2022-05-24T21:00:00,1966A,120.0405,35.8735,青岛市,黄岛区4号,,34,19,33,9,11,138,107,124,114,13,16,6,8,0.3,0.4
2022-05-24T21:00:00,1982A,122.0693,37.2174,威海市,文登开发区,,36,14,34,7,11,133,113,128,122,11,14,4,4,0.2,0.2
2022-05-24T21:00:00,2031A,113.1817,27.9958,株洲市,云田中学,,23,9,29,16,25,92,58,76,70,16,13,5,8,1.0,0.9
2022-05-24T21:00:00,2054A,114.1099,32.1059,信阳市,平桥分局,颗粒物(PM10),51,51,42,33,34,174,124,163,158,7,8,9,8,0.7,0.7
2022-05-24T21:00:00,2064A,113.9956,32.1271,信阳市,南湾水厂,,43,37,43,17,30,173,136,164,160,8,9,9,8,0.6,0.5
2022-05-24T21:00:00,2065A,114.0775,32.1195,信阳市,市酿酒公司,,41,28,30,25,30,171,129,163,157,15,17,7,7,0.7,0.6
2022-05-24T21:00:00,2066A,114.0609,32.1399,信阳市,审计局,,,,45,,33,172,119,161,156,13,14,6,7,0.5,0.4
2022-05-24T21:00:00,2067A,114.6613,33.6128,周口市,市环境监测站,,,70,67,,38,171,145,169,166,16,20,4,6,0.6,0.6
2022-05-24T21:00:00,2068A,114.6758,33.6347,周口市,周口师范,颗粒物(PM10),56,61,67,25,36,167,145,164,161,15,15,7,7,0.7,0.7
2022-05-24T21:00:00,2069A,114.6546,33.5979,周口市,市运管处,颗粒物(PM10),55,60,68,25,36,168,131,165,159,26,20,8,6,0.5,0.5
2022-05-24T21:00:00,2070A,114.6369,33.6406,周口市,川汇区环保局,颗粒物(PM10),53,56,60,28,32,170,141,167,163,19,17,5,5,0.5,0.5
2022-05-24T21:00:00,2075A,117.6336,24.4674,漳州市,九湖(对照点),,25,17,40,17,25,74,28,65,45,43,31,4,5,0.7,0.6
2022-05-24T21:00:00,2160A,112.85,35.5051,晋城市,自来水公司,臭氧1小时,83,38,52,27,25,205,186,199,198,16,25,10,11,0.6,0.9
2022-05-24T21:00:00,2161A,112.8318,35.4936,晋城市,白云商贸,臭氧1小时,83,75,62,24,25,210,186,205,203,17,18,11,8,0.5,0.7
2022-05-24T21:00:00,2162A,112.8508,35.4887,晋城市,市环保局,臭氧1小时,72,77,81,31,29,201,177,196,193,17,28,10,11,0.6,0.8
2022-05-24T21:00:00,2163A,112.8676,35.4897,晋城市,技术学院,,,56,59,,25,206,,202,202,14,29,29,10,1.3,0.7
2022-05-24T21:00:00,2165A,112.8453,35.546,晋城市,白马寺 (对照点),臭氧1小时,108,53,54,22,26,241,215,229,226,16,17,8,8,0.7,0.8
2022-05-24T21:00:00,2166A,112.4397,39.3522,朔州市,平朔,颗粒物(PM10),69,88,83,22,40,182,117,164,146,31,34,5,9,0.5,0.5
2022-05-24T21:00:00,2167A,112.4575,39.3617,朔州市,朔唯,颗粒物(PM10),75,100,87,23,43,184,115,166,146,31,36,5,9,0.6,0.7
2022-05-24T21:00:00,2168A,112.4258,39.3197,朔州市,区政府,颗粒物(PM10),71,91,77,19,26,178,132,169,155,28,24,8,11,0.5,0.5
2022-05-24T21:00:00,2169A,112.4072,39.3278,朔州市,市环保局,颗粒物(PM10),72,94,77,36,31,179,128,162,144,26,22,10,14,0.6,0.6
2022-05-24T21:00:00,2170A,112.4272,39.3681,朔州市,市二中,颗粒物(PM10),75,99,85,20,40,174,99,161,141,38,34,11,13,0.6,0.6
2022-05-24T21:00:00,2171A,112.7532,37.6945,晋中市,锦纶小区,,48,48,56,26,34,221,140,206,200,51,35,17,10,0.7,0.6
2022-05-24T21:00:00,2173A,112.7249,37.7067,晋中市,南都小区,颗粒物(PM10),59,67,60,37,33,220,159,204,202,38,39,6,6,0.6,0.5
2022-05-24T21:00:00,2174A,112.6991,37.6982,晋中市,榆次区政府,,,,57,,33,211,,199,199,,29,,6,,0.8
2022-05-24T21:00:00,2175A,110.9956,35.0147,运城市,运城中学,,45,36,50,23,27,163,143,147,147,7,10,5,7,0.5,0.6
2022-05-24T21:00:00,2178A,110.9686,35.0303,运城市,地区技校,,44,34,53,18,23,162,140,154,150,6,11,4,7,0.5,0.6
2022-05-24T21:00:00,2179A,111.0414,35.1147,运城市,空港新区,,47,43,72,24,33,176,148,164,162,8,17,7,12,0.4,0.7
2022-05-24T21:00:00,2181A,112.7383,38.4519,忻州市,开发区,颗粒物(PM10),52,53,51,17,36,208,147,189,169,22,27,11,14,0.5,0.4
2022-05-24T21:00:00,2182A,112.7003,38.4928,忻州市,会展中心,颗粒物(PM10),56,62,54,24,27,207,138,180,167,21,32,9,12,0.3,0.4
2022-05-24T21:00:00,2183A,111.1406,37.5211,吕梁市,环保局,颗粒物(PM10),68,85,56,26,18,204,92,192,175,68,32,8,8,0.8,0.5
2022-05-24T21:00:00,2185A,111.1297,37.5136,吕梁市,自来水公司,,,,67,,19,205,107,192,176,43,32,7,8,0.6,0.4
2022-05-24T21:00:00,2187A,106.8174,39.6973,乌海市,市林业局,颗粒物(PM10),123,195,55,23,22,172,104,156,147,4,19,5,19,0.5,0.8
2022-05-24T21:00:00,2188A,106.7907,39.6667,乌海市,中海勃湾学校,,46,46,40,15,24,172,103,156,146,10,30,7,20,0.3,0.7
2022-05-24T21:00:00,2191A,122.2532,43.6801,通辽市,艺术职业学校,颗粒物(PM10),86,122,124,8,34,148,68,130,97,10,16,5,6,0.1,0.1
2022-05-24T21:00:00,2192A,119.7594,49.2261,呼伦贝尔市,区环保局,,42,36,29,29,21,94,63,92,86,24,12,5,5,0.4,0.4
2022-05-24T21:00:00,2195A,107.4212,40.761,巴彦淖尔市,附二中,颗粒物(PM10),94,137,90,24,26,169,92,153,123,8,13,3,9,0.3,0.3
2022-05-24T21:00:00,2196A,107.37,40.7372,巴彦淖尔市,市环保大楼,颗粒物(PM10),82,114,67,23,28,153,89,135,116,8,8,5,5,0.3,0.4
2022-05-24T21:00:00,2197A,113.1306,40.9923,乌兰察布市,集宁新区,,45,45,47,20,24,164,96,123,103,6,25,9,11,0.3,0.4
2022-05-24T21:00:00,2200A,122.0392,46.0656,兴安盟,胜华新制药厂,,27,27,35,15,18,79,61,77,66,15,15,3,3,0.2,0.2
2022-05-24T21:00:00,2201A,121.9504,46.0741,兴安盟,科右前旗环保局,,28,22,23,19,20,84,57,78,66,9,11,3,3,0.2,0.2
2022-05-24T21:00:00,2202A,116.1042,43.9317,锡林郭勒盟,市环保监测站,颗粒物(PM10),56,61,42,13,7,132,89,119,90,3,4,10,11,0.4,0.4
2022-05-24T21:00:00,2203A,116.0781,43.9311,锡林郭勒盟,市政府,,46,46,34,13,6,135,93,122,95,5,6,8,7,0.4,0.4
2022-05-24T21:00:00,2204A,105.6467,38.8363,阿拉善盟,西城区西花园(对照点),臭氧1小时,64,37,36,28,22,189,171,180,180,9,6,18,17,0.2,0.2
2022-05-24T21:00:00,2205A,105.6985,38.8411,阿拉善盟,蒙二幼,臭氧1小时,65,40,38,20,20,186,172,178,178,6,6,7,8,0.3,0.3
2022-05-24T21:00:00,2206A,105.724,38.8516,阿拉善盟,环保局新楼,臭氧1小时,72,37,30,20,21,188,177,179,179,7,7,7,8,0.3,0.3
2022-05-24T21:00:00,2207A,121.6094,41.998,阜新市,工业园区,颗粒物(PM10),86,121,106,2,33,215,65,204,156,6,24,6,22,0.4,0.9
2022-05-24T21:00:00,2208A,121.6697,42.0279,阜新市,长青街,颗粒物(PM10),55,60,77,8,27,194,60,186,142,5,20,9,27,0.7,1.1
2022-05-24T21:00:00,2209A,121.6673,42.0705,阜新市,农业园区,颗粒物(PM10),85,120,109,9,37,204,65,196,151,9,20,7,21,0.2,0.7
2022-05-24T21:00:00,2210A,121.6717,42.0224,阜新市,东苑,颗粒物(PM10),96,141,101,12,37,175,28,166,106,8,26,8,29,0.3,0.9
2022-05-24T21:00:00,2211A,121.6506,42.0498,阜新市,玉龙新城,颗粒物(PM10),96,142,94,13,21,192,61,184,141,8,17,8,21,0.4,0.8
2022-05-24T21:00:00,2212A,123.2,41.1953,辽阳市,宏伟区,,46,42,55,25,26,176,146,165,125,6,8,10,10,0.5,0.6
2022-05-24T21:00:00,2213A,123.1683,41.2495,辽阳市,新华园,,49,49,68,27,27,169,141,158,141,13,14,9,10,0.2,0.3
2022-05-24T21:00:00,2214A,123.2354,41.2639,辽阳市,滨河路,颗粒物(PM10),53,56,62,26,36,166,143,151,135,12,12,23,13,0.6,0.6
2022-05-24T21:00:00,2215A,123.149,41.2991,辽阳市,铁西工业园,细颗粒物(PM2.5),65,50,78,47,43,173,148,154,138,17,20,11,13,0.5,0.7
2022-05-24T21:00:00,2216A,123.8139,42.3022,铁岭市,汇工街西,颗粒物(PM10),102,153,101,56,41,214,166,203,186,17,23,14,18,0.6,0.7
2022-05-24T21:00:00,2217A,123.8649,42.2923,铁岭市,水上乐园,颗粒物(PM10),87,123,80,44,36,226,169,213,192,17,22,9,13,0.4,0.5
2022-05-24T21:00:00,2218A,123.8486,42.2867,铁岭市,银州路东段,,,,105,54,42,211,148,204,182,19,24,9,13,0.6,0.7
2022-05-24T21:00:00,2219A,123.7153,42.2217,铁岭市,金沙江路北,颗粒物(PM10),64,78,94,33,32,210,152,198,178,22,28,7,13,0.8,1
2022-05-24T21:00:00,2220A,120.4318,41.5881,朝阳市,西梁,颗粒物(PM10),91,131,78,18,30,184,64,175,134,8,17,9,12,0.6,0.9
2022-05-24T21:00:00,2221A,120.4521,41.5646,朝阳市,河畔小区,颗粒物(PM10),86,122,73,18,27,185,66,175,137,8,13,9,12,0.5,0.8
2022-05-24T21:00:00,2222A,120.4176,41.5648,朝阳市,八里堡,颗粒物(PM10),102,153,76,17,30,189,70,176,139,6,18,8,12,0.6,0.9
2022-05-24T21:00:00,2223A,120.3806,41.5969,朝阳市,农业园区,颗粒物(PM10),94,137,73,17,28,189,62,182,135,9,13,8,11,0.6,0.9
2022-05-24T21:00:00,2225A,124.4002,43.1713,四平市,一商场,颗粒物(PM10),90,129,101,40,37,212,71,206,176,17,19,9,13,0.3,0.6
2022-05-24T21:00:00,2226A,124.388,43.193,四平市,境园,颗粒物(PM10),66,81,84,17,28,212,66,202,172,9,13,2,7,0.2,0.6
2022-05-24T21:00:00,2227A,125.1358,42.8845,辽源市,环保局,细颗粒物(PM2.5),53,50,54,37,35,217,132,215,197,8,7,5,12,0.5,0.7
2022-05-24T21:00:00,2229A,125.9358,41.7173,通化市,光明,,43,28,42,13,22,194,136,187,150,5,7,7,9,0.5,0.6
2022-05-24T21:00:00,2230A,125.9446,41.7325,通化市,铁路,,41,16,40,11,25,182,131,180,146,7,10,6,9,0.5,0.8
2022-05-24T21:00:00,2231A,126.4219,41.9171,白山市,喜丰,,48,48,83,15,29,189,122,177,150,6,19,8,13,0.6,1
2022-05-24T21:00:00,2232A,126.4077,41.9419,白山市,环保局,颗粒物(PM10),52,54,60,18,29,195,95,178,143,22,20,10,11,0.9,0.9
2022-05-24T21:00:00,2233A,124.8006,45.1214,松原市,江南,,21,20,29,8,13,99,66,92,83,12,12,1,2,0.3,0.3
2022-05-24T21:00:00,2234A,124.7965,45.1722,松原市,江北,,41,41,68,13,17,104,49,94,80,16,13,1,2,0.3,0.4
2022-05-24T21:00:00,2235A,122.7911,45.6077,白城市,洮北区环保局,,24,24,35,5,8,83,58,79,72,17,11,8,8,0.2,0.2
2022-05-24T21:00:00,2236A,122.8738,45.5725,白城市,市环保局,,26,26,39,18,18,68,53,62,58,24,26,5,6,0.3,0.3
2022-05-24T21:00:00,2237A,129.47,42.8883,延边朝鲜族自治州,妇幼医院,颗粒物(PM10),52,54,35,26,22,162,112,139,135,15,12,6,6,0.7,0.6
2022-05-24T21:00:00,2238A,129.5055,42.9108,延边朝鲜族自治州,延边医院,颗粒物(PM10),59,68,36,25,22,166,94,132,128,15,10,7,7,0.6,0.6
2022-05-24T21:00:00,2239A,129.3964,42.8881,延边朝鲜族自治州,朝阳川镇医院,,46,46,34,22,20,169,102,153,144,18,10,9,10,0.6,0.5
2022-05-24T21:00:00,2240A,130.9762,45.3001,鸡西市,环保局,,20,20,37,13,17,140,46,116,71,20,23,3,4,0.1,0.2
2022-05-24T21:00:00,2243A,130.9429,45.3039,鸡西市,第一中学,,21,21,39,7,13,152,47,125,77,18,20,8,8,0.3,0.3
2022-05-24T21:00:00,2244A,130.2537,47.3416,鹤岗市,哈啤分公司,,37,37,31,17,13,101,21,71,34,14,11,7,9,0.5,0.4
2022-05-24T21:00:00,2245A,130.2684,47.3086,鹤岗市,斯达机电,,32,32,27,14,12,101,22,71,38,23,12,6,7,0.5,0.3
2022-05-24T21:00:00,2246A,130.3114,47.3388,鹤岗市,东山纸板厂,颗粒物(PM10),71,92,52,19,14,97,12,54,33,22,17,9,9,0.4,0.3
2022-05-24T21:00:00,2247A,130.1097,47.3382,鹤岗市,五号水库(对照点),,13,10,12,9,3,95,15,58,34,7,6,6,5,0.1,0.2
2022-05-24T21:00:00,2248A,131.1511,46.6937,双鸭山市,双合村,,,,68,5,22,92,36,75,46,13,17,5,21,0.2,0.8
2022-05-24T21:00:00,2249A,131.1652,46.6191,双鸭山市,南小市,,15,14,35,5,13,96,47,82,52,5,7,5,5,0.2,0.3
2022-05-24T21:00:00,2250A,131.1524,46.6554,双鸭山市,环保局,,22,17,28,15,18,98,47,87,55,8,14,4,9,0.2,0.4
2022-05-24T21:00:00,2251A,131.12,46.5656,双鸭山市,苗圃(对照点),,33,21,19,23,19,106,39,89,53,6,6,3,3,0.3,0.3
2022-05-24T21:00:00,2252A,128.5159,47.4311,伊春市,环保局,,15,12,12,5,8,68,48,53,53,9,9,5,6,0.2,0.2
2022-05-24T21:00:00,2253A,128.9102,47.7412,伊春市,电力嘉园,,25,25,22,14,17,76,57,63,63,4,6,5,5,0.4,0.4
2022-05-24T21:00:00,2254A,129.5029,48.471,伊春市,汤旺河国家公园(对照点),,16,3,5,0,3,70,49,67,64,1,1,9,8,0.2,0.2
2022-05-24T21:00:00,2255A,130.2751,46.8028,佳木斯市,佳纺,,16,14,32,11,14,87,38,73,48,13,16,5,3,0.4,0.4
2022-05-24T21:00:00,2256A,130.3995,46.8307,佳木斯市,发电厂,,16,16,27,7,14,97,46,75,56,10,11,8,7,0.5,0.6
2022-05-24T21:00:00,2257A,130.3258,46.7975,佳木斯市,环保局,,20,20,30,5,13,91,34,80,48,21,16,9,7,0.5,0.4
2022-05-24T21:00:00,2258A,130.3648,46.8032,佳木斯市,十一中,,15,14,30,10,16,92,35,78,52,22,16,7,5,0.3,0.3
2022-05-24T21:00:00,2259A,130.3794,46.7588,佳木斯市,四丰(对照点),,18,18,23,9,12,95,28,78,46,21,13,5,4,0.5,0.5
2022-05-24T21:00:00,2262A,131.0518,45.8751,七台河市,新一中(对照点),,15,11,22,7,13,139,47,125,63,9,12,5,9,0.7,0.8
2022-05-24T21:00:00,2263A,127.4833,50.2524,黑河市,交通局,,19,19,11,8,8,72,38,68,57,13,6,4,4,0.4,0.3
2022-05-24T21:00:00,2264A,127.5144,50.2341,黑河市,环保局,,23,23,18,6,10,70,41,65,59,20,8,5,8,0.6,0.4
2022-05-24T21:00:00,2265A,127.5291,50.2472,黑河市,大黑河岛(对照点),,29,29,13,12,5,76,45,72,62,8,4,5,6,0.4,0.3
2022-05-24T21:00:00,2266A,126.9785,46.6365,绥化市,人和东街,,34,34,24,18,9,68,23,58,40,23,13,9,9,0.4,0.4
2022-05-24T21:00:00,2267A,126.964,46.6528,绥化市,党政办公中心,,28,28,18,19,10,74,24,62,43,24,12,6,6,0.4,0.3
2022-05-24T21:00:00,2269A,124.1069,50.4097,大兴安岭地区,科技局,,21,11,11,12,9,92,65,86,83,12,5,4,3,0.4,0.3
2022-05-24T21:00:00,2270A,117.396,32.939,蚌埠市,工人疗养院,颗粒物(PM10),54,58,36,30,20,174,142,160,157,20,12,8,7,0.3,0.2
2022-05-24T21:00:00,2271A,117.3605,32.9427,蚌埠市,百货大楼,颗粒物(PM10),68,85,54,31,13,179,139,163,159,22,13,8,8,0.4,0.4
2022-05-24T21:00:00,2273A,117.4185,32.8911,蚌埠市,蚌埠学院,,48,48,37,12,14,176,141,156,155,15,13,9,9,0.4,0.3
2022-05-24T21:00:00,2274A,117.3533,32.9673,蚌埠市,淮上区政府,颗粒物(PM10),58,66,44,17,15,175,123,158,152,23,11,11,10,0.5,0.4
2022-05-24T21:00:00,2275A,117.3145,32.8977,蚌埠市,高新区,颗粒物(PM10),58,66,42,31,21,193,135,173,168,16,15,7,8,0.5,0.5
2022-05-24T21:00:00,2277A,116.8305,32.7727,淮南市,潘集区政府,颗粒物(PM10),57,64,47,28,28,189,123,175,169,18,16,7,8,0.2,0.3
2022-05-24T21:00:00,2278A,117.0067,32.6524,淮南市,师范学院,,42,34,42,12,22,183,132,163,161,14,13,6,9,0.3,0.4
2022-05-24T21:00:00,2279A,116.8569,32.5951,淮南市,谢家集区政府,,40,40,41,15,19,180,118,161,156,22,18,6,7,0.3,0.3
2022-05-24T21:00:00,2280A,116.8281,32.633,淮南市,八公山区政府,,44,44,45,19,22,182,124,167,163,14,14,3,7,0.3,0.3
2022-05-24T21:00:00,2281A,116.6325,32.6201,淮南市,焦岗湖风景区管理处(对照点),,44,44,42,13,19,190,131,172,170,17,18,10,10,0.2,0.2
2022-05-24T21:00:00,2282A,116.8004,33.975,淮北市,监测站,颗粒物(PM10),57,63,61,20,29,190,136,179,171,6,8,3,5,0.4,0.5
2022-05-24T21:00:00,2283A,116.8091,33.9007,淮北市,烈山区政府,颗粒物(PM10),59,68,63,30,38,196,138,188,178,16,19,7,9,0.4,0.5
2022-05-24T21:00:00,2284A,116.7856,33.9477,淮北市,职业技术学院,颗粒物(PM10),55,59,57,20,32,194,138,183,175,13,15,7,8,0.4,0.5
2022-05-24T21:00:00,2285A,117.8177,30.9412,铜陵市,市第四中学,,36,20,21,22,20,202,115,179,170,14,15,7,9,0.2,0.3
2022-05-24T21:00:00,2286A,117.8059,30.9273,铜陵市,市公路局,,40,40,44,16,21,172,96,153,145,13,15,4,5,0.4,0.5
2022-05-24T21:00:00,2287A,117.7807,30.9413,铜陵市,市新民污水厂,,40,40,51,27,27,181,99,156,149,17,19,4,10,0.3,0.4
2022-05-24T21:00:00,2288A,117.7439,30.8792,铜陵市,市第九中学,,47,47,61,20,27,140,116,125,118,10,63,6,9,0.4,0.6
2022-05-24T21:00:00,2289A,117.846,30.9413,铜陵市,车站新区,,39,34,36,27,24,189,100,166,156,17,18,5,5,0.3,0.3
2022-05-24T21:00:00,2290A,117.8483,30.97,铜陵市,市职教基地,,41,41,38,21,16,179,111,157,150,12,12,5,7,0.4,0.5
2022-05-24T21:00:00,2291A,117.0809,30.5177,安庆市,环科院,,45,42,29,27,17,170,142,161,161,17,26,10,7,0.5,0.4
2022-05-24T21:00:00,2292A,117.0331,30.5119,安庆市,马山宾馆,,44,44,27,25,17,165,125,152,151,21,24,10,8,0.6,0.5
2022-05-24T21:00:00,2294A,116.9896,30.6145,安庆市,安庆大学,,45,45,26,27,16,143,114,137,135,21,20,6,5,0.5,0.4
2022-05-24T21:00:00,2295A,118.2903,29.6963,黄山市,延安路89号,,36,36,23,2,11,121,59,111,103,4,3,5,5,0.3,0.2
2022-05-24T21:00:00,2296A,118.327,29.7178,黄山市,黄山东路89号,,20,17,17,7,10,123,62,111,101,7,5,5,5,0.5,0.4
2022-05-24T21:00:00,2297A,118.1371,30.2756,黄山市,黄山区政府5号楼,,39,28,26,27,10,155,82,137,132,11,5,5,6,0.5,0.3
2022-05-24T21:00:00,2298A,118.3093,32.3153,滁州市,老年大学,颗粒物(PM10),54,57,34,22,16,169,120,154,152,34,25,10,7,0.6,0.4
2022-05-24T21:00:00,2299A,118.3244,32.2786,滁州市,人大宾馆,,44,44,29,23,15,165,107,147,144,29,19,7,6,0.6,0.3
2022-05-24T21:00:00,2301A,115.8277,32.8929,阜阳市,市监测站,臭氧1小时,55,44,41,23,22,192,164,183,182,13,14,9,10,0.6,0.6
2022-05-24T21:00:00,2303A,115.8554,32.8605,阜阳市,开发区,颗粒物(PM10),62,73,50,22,22,183,157,176,175,15,16,6,8,0.5,0.5
2022-05-24T21:00:00,2307A,116.5079,31.737,六安市,监测大楼,,47,43,35,12,12,181,150,168,168,10,10,7,6,0.3,0.3
2022-05-24T21:00:00,2308A,116.4738,31.7643,六安市,皖西学院,颗粒物(PM10),51,51,38,20,18,186,151,173,173,11,11,9,9,0.3,0.3
2022-05-24T21:00:00,2309A,116.4996,31.7905,六安市,朝阳厂,,49,49,39,20,19,177,136,164,163,12,9,8,7,0.4,0.4
2022-05-24T21:00:00,2310A,116.5567,31.7886,六安市,开发区,颗粒物(PM10),69,87,55,25,23,205,126,180,176,34,17,15,10,0.4,0.4
2022-05-24T21:00:00,2311A,115.8072,33.8399,亳州市,污水处理厂,,44,44,39,29,25,191,138,184,178,16,11,7,8,0.7,0.5
2022-05-24T21:00:00,2312A,115.7789,33.8518,亳州市,三国揽胜宫,,48,45,47,23,25,178,153,173,170,11,13,5,6,0.4,0.4
2022-05-24T21:00:00,2314A,117.47,30.6618,池州市,池州学院,,38,38,43,22,23,168,117,160,156,14,17,7,9,0.5,0.5
2022-05-24T21:00:00,2316A,118.7581,30.9454,宣城市,鳌峰子站,,39,39,27,19,17,112,99,106,106,22,17,5,4,0.4,0.4
2022-05-24T21:00:00,2317A,118.7385,30.9743,宣城市,敬亭山子站,,38,38,25,16,16,111,65,102,97,27,19,5,5,0.4,0.3
2022-05-24T21:00:00,2318A,118.7173,30.9427,宣城市,开发区子站,,36,36,25,17,16,112,94,106,106,16,14,5,5,0.4,0.4
2022-05-24T21:00:00,2319A,119.0141,25.4325,莆田市,荔城区仓后路,,18,17,21,11,15,62,56,55,52,22,26,4,4,0.7,0.7
2022-05-24T21:00:00,2320A,119.0015,25.4553,莆田市,莆田市监测站,,33,10,25,23,22,60,54,54,50,16,18,4,4,0.7,0.7
2022-05-24T21:00:00,2321A,119.1119,25.4561,莆田市,涵江区六中,,25,14,21,17,27,68,56,62,61,18,20,6,5,0.7,0.7
2022-05-24T21:00:00,2322A,119.1013,25.3215,莆田市,秀屿区政府,,19,15,19,8,16,78,58,64,56,11,15,6,8,0.7,0.9
2022-05-24T21:00:00,2324A,117.6211,26.2625,三明市,三钢,,23,20,19,16,17,20,2,13,12,34,28,2,4,1.0,0.9
2022-05-24T21:00:00,2325A,117.635,26.2714,三明市,三明二中,,22,7,19,15,16,20,6,15,14,27,25,3,3,0.7,0.8
2022-05-24T21:00:00,2326A,117.6028,26.2378,三明市,三元区政府,,,28,21,16,16,14,2,9,8,,30,4,4,1.7,1.3
2022-05-24T21:00:00,2327A,117.7275,26.3108,三明市,洋溪(对照点),,19,17,18,13,13,30,4,19,17,27,19,4,5,0.8,0.8
2022-05-24T21:00:00,2331A,118.0966,26.6761,南平市,茫荡山(对照点),,14,0,2,2,2,62,42,58,44,2,2,4,4,0.6,0.7
2022-05-24T21:00:00,2332A,118.1681,26.6369,南平市,南平市监测站,,28,28,26,18,18,30,11,26,22,22,15,10,6,1.1,0.9
2022-05-24T21:00:00,2333A,118.1825,26.6489,南平市,南平铝业有限公司,,28,28,26,18,16,31,11,27,24,21,15,10,6,1.1,0.9
2022-05-24T21:00:00,2334A,118.1756,26.6272,南平市,南平七中,,26,22,23,18,18,28,8,23,20,16,12,3,2,0.9,0.6
2022-05-24T21:00:00,2335A,117.0189,25.1181,龙岩市,龙岩师专(对照点),,11,10,16,6,8,69,35,54,48,12,14,5,6,0.6,0.7
2022-05-24T21:00:00,2336A,117.0217,25.1033,龙岩市,龙岩市监测站,,17,17,20,11,13,74,24,56,47,26,25,5,8,0.7,0.6
2022-05-24T21:00:00,2337A,117.0258,25.0661,龙岩市,闽西职业技术学院,,20,20,22,11,14,75,30,56,50,18,23,4,6,0.7,0.7
2022-05-24T21:00:00,2338A,117.0196,25.0306,龙岩市,龙岩学院,,15,15,21,10,12,82,32,58,53,17,22,2,3,0.6,0.7
2022-05-24T21:00:00,2339A,119.5001,26.6946,宁德市,金涵水库(对照点),,32,32,20,22,16,31,16,25,17,40,22,8,7,1.2,0.7
2022-05-24T21:00:00,2341A,119.5388,26.6612,宁德市,宁德市监测站,,27,27,23,18,18,29,16,29,16,36,30,6,8,1.3,0.9
2022-05-24T21:00:00,2343A,117.2117,29.2933,景德镇市,老干部活动中心,颗粒物(PM10),55,60,35,28,17,128,62,112,106,37,14,33,7,0.6,0.4
2022-05-24T21:00:00,2344A,117.1894,29.2789,景德镇市,兽医站,,45,45,30,26,17,124,11,110,97,69,17,12,7,0.8,0.9
2022-05-24T21:00:00,2345A,117.1547,29.2617,景德镇市,台达陶瓷,颗粒物(PM10),51,51,35,31,20,130,74,115,110,16,19,28,16,0.8,0.7
2022-05-24T21:00:00,2346A,117.2461,29.2956,景德镇市,陶研所,,46,46,24,25,11,99,38,93,82,13,9,4,6,0.5,0.3
2022-05-24T21:00:00,2347A,114.0997,27.5002,萍乡市,武功山(对照点),,12,2,3,5,3,45,38,42,42,12,6,14,15,0.7,0.5
2022-05-24T21:00:00,2348A,113.8385,27.6434,萍乡市,中医院,,33,17,23,23,22,87,36,71,52,25,15,6,10,1.5,1
2022-05-24T21:00:00,2349A,113.8493,27.6253,萍乡市,市政府车库,,14,9,27,9,13,65,37,51,51,27,20,8,12,1.4,1.2
2022-05-24T21:00:00,2350A,113.8676,27.6435,萍乡市,市环保局,,22,17,24,15,24,78,34,65,60,37,17,10,12,1.1,0.8
2022-05-24T21:00:00,2351A,113.866,27.6198,萍乡市,安源区政府,,18,18,28,4,14,69,37,54,54,29,27,7,10,1.0,1.1
2022-05-24T21:00:00,2352A,115.0861,27.9317,新余市,北岗(对照点),,29,19,21,20,16,84,40,74,69,2,8,5,5,0.5,0.5
2022-05-24T21:00:00,2353A,114.9886,27.8431,新余市,飞宇,颗粒物(PM10),53,55,43,33,21,90,52,75,73,23,15,5,6,0.6,0.5
2022-05-24T21:00:00,2354A,114.9231,27.8246,新余市,第二水厂,,,44,27,29,19,83,30,68,62,43,20,7,6,,0.5
2022-05-24T21:00:00,2355A,114.9308,27.8036,新余市,市气象局,,39,32,28,27,19,79,50,67,67,18,15,6,5,0.7,0.6
2022-05-24T21:00:00,2357A,116.9822,28.1136,鹰潭市,龙虎山(对照点),,27,27,19,14,10,76,20,65,54,2,2,2,4,0.5,0.5
2022-05-24T21:00:00,2358A,117.0564,28.2642,鹰潭市,新监测站,,31,31,31,19,19,140,35,105,84,23,9,4,14,0.7,0.6
2022-05-24T21:00:00,2359A,117.0311,28.2475,鹰潭市,财苑宾馆,,31,31,29,7,15,156,48,99,83,9,9,4,10,0.7,0.6
2022-05-24T21:00:00,2360A,117.0222,28.2264,鹰潭市,体育馆,,38,38,37,9,19,171,33,112,73,14,9,4,22,0.7,0.7
2022-05-24T21:00:00,2361A,117.0017,28.2131,鹰潭市,三川水表,,37,37,33,9,21,114,35,83,67,9,11,5,15,0.8,0.9
2022-05-24T21:00:00,2363A,114.9367,25.8664,赣州市,地委,,13,13,8,5,6,53,22,37,31,12,12,5,5,0.7,0.7
2022-05-24T21:00:00,2364A,114.9461,25.8481,赣州市,气象台,,,,10,,9,58,26,52,38,6,5,7,5,,0.9
2022-05-24T21:00:00,2365A,114.9322,25.8333,赣州市,市图书馆,,10,10,11,5,7,55,24,52,30,17,17,9,7,1.0,1
2022-05-24T21:00:00,2366A,114.8905,25.8471,赣州市,华坚鞋城,,,9,11,3,7,61,33,46,35,9,17,,2,1.0,1.1
2022-05-24T21:00:00,2367A,114.9754,27.0803,吉安市,红声器材厂,,26,26,28,5,14,51,27,42,36,17,14,6,8,0.6,0.5
2022-05-24T21:00:00,2368A,114.9658,27.0999,吉安市,市森林工业局,,19,19,24,9,14,51,33,44,41,16,12,4,4,0.5,0.5
2022-05-24T21:00:00,2369A,114.99,27.1312,吉安市,市环境监测站,,20,20,26,11,16,47,24,37,35,22,13,6,7,0.8,0.6
2022-05-24T21:00:00,2370A,115.0093,27.0968,吉安市,青原区法院,,26,26,25,12,14,59,25,44,40,25,15,11,15,0.6,0.5
2022-05-24T21:00:00,2371A,114.3408,27.8064,宜春市,槟榔水业(对照点),,,25,30,,26,75,32,66,58,24,16,5,6,1.0,0.8
2022-05-24T21:00:00,2373A,114.3956,27.7844,宜春市,市石油公司,,,30,32,15,20,76,,66,62,7,12,6,7,1.2,0.8
2022-05-24T21:00:00,2374A,114.3703,27.7914,宜春市,市气象局,,33,33,32,20,22,80,35,72,63,31,19,4,7,1.1,0.8
2022-05-24T21:00:00,2375A,114.4013,27.8074,宜春市,市广电局,,32,29,35,22,21,76,34,69,61,26,18,1,6,1.1,0.7
2022-05-24T21:00:00,2376A,116.2127,28.0814,抚州市,桐源党溪(对照点),,33,33,32,19,19,91,10,76,64,19,14,12,12,0.7,0.5
2022-05-24T21:00:00,2377A,116.3544,27.9831,抚州市,市站,,30,30,26,17,14,70,31,64,61,27,12,6,6,1.1,0.9
2022-05-24T21:00:00,2378A,116.3565,27.963,抚州市,血防站,,,28,23,13,10,65,29,58,55,30,12,,4,0.7,0.8
2022-05-24T21:00:00,2379A,116.3564,28.0007,抚州市,采茶剧团,,25,25,24,16,12,68,31,59,56,22,12,4,4,1.0,0.9
2022-05-24T21:00:00,2380A,116.385,27.9647,抚州市,医学分院,,27,27,21,13,12,70,34,61,57,19,13,4,6,0.8,0.8
2022-05-24T21:00:00,2381A,118.005,28.4572,上饶市,百草园(对照点),,20,20,26,5,13,86,41,70,66,5,8,5,9,0.5,0.4
2022-05-24T21:00:00,2382A,117.9756,28.4436,上饶市,市监测站,,,18,32,13,21,151,,90,86,6,10,5,10,0.3,0.4
2022-05-24T21:00:00,2383A,117.9519,28.4628,上饶市,凤凰光学,,,,33,16,19,89,58,78,75,8,9,5,10,0.7,0.6
2022-05-24T21:00:00,2385A,114.17,35.9019,鹤壁市,市监测站,颗粒物(PM10),66,81,83,28,36,201,127,185,178,25,26,13,12,1.0,1
2022-05-24T21:00:00,2386A,114.2956,35.7511,鹤壁市,市交警支队,颗粒物(PM10),63,76,78,40,39,181,122,168,161,21,35,12,12,0.8,1.2
2022-05-24T21:00:00,2387A,114.2878,35.7306,鹤壁市,迎宾馆,颗粒物(PM10),63,75,74,32,37,184,122,172,164,27,36,8,11,0.6,0.8
2022-05-24T21:00:00,2389A,113.836,35.311,新乡市,环保西院,颗粒物(PM10),53,56,77,29,34,210,140,192,187,16,26,8,10,0.6,0.7
2022-05-24T21:00:00,2390A,113.884,35.272,新乡市,开发区,颗粒物(PM10),60,70,66,27,29,204,131,189,179,20,26,6,7,0.5,0.6
2022-05-24T21:00:00,2391A,113.883,35.303,新乡市,环保东院,颗粒物(PM10),55,59,67,27,29,213,137,194,187,22,32,5,8,0.2,0.4
2022-05-24T21:00:00,2392A,115.0312,35.7636,濮阳市,环保局,颗粒物(PM10),58,65,65,40,38,163,126,155,152,23,24,7,10,0.6,0.6
2022-05-24T21:00:00,2394A,115.0574,35.7609,濮阳市,油田运输公司,颗粒物(PM10),63,75,78,38,40,182,145,171,168,21,27,8,12,0.4,0.5
2022-05-24T21:00:00,2395A,115.0866,35.7754,濮阳市,油田物探公司,颗粒物(PM10),67,84,73,34,34,184,119,176,167,37,23,12,15,0.4,0.4
2022-05-24T21:00:00,2396A,113.8276,34.0159,许昌市,监测站,细颗粒物(PM2.5),52,51,46,36,29,162,137,154,153,13,12,5,14,0.4,0.3
2022-05-24T21:00:00,2398A,113.7906,33.9953,许昌市,开发区,颗粒物(PM10),67,84,57,36,30,175,93,165,153,43,19,5,13,0.7,0.6
2022-05-24T21:00:00,2399A,114.051,33.5699,漯河市,三五一五工厂,颗粒物(PM10),63,76,54,36,31,204,142,185,179,21,18,5,8,0.6,0.6
2022-05-24T21:00:00,2400A,114.0055,33.5698,漯河市,漯河大学,颗粒物(PM10),52,54,46,35,27,189,144,172,170,17,18,10,9,0.8,0.8
2022-05-24T21:00:00,2401A,114.0138,33.5828,漯河市,市水利局,颗粒物(PM10),59,68,49,37,31,191,155,173,172,10,11,6,7,0.6,0.6
2022-05-24T21:00:00,2402A,114.0261,33.5698,漯河市,市广电局,颗粒物(PM10),63,76,47,35,29,195,139,176,172,20,15,7,8,0.6,0.6
2022-05-24T21:00:00,2403A,112.5192,32.9917,南阳市,环保局,颗粒物(PM10),52,54,60,26,37,166,133,156,154,15,16,2,5,0.5,0.5
2022-05-24T21:00:00,2404A,112.5339,33.0086,南阳市,瓦房庄,颗粒物(PM10),54,57,55,27,32,171,137,158,157,18,14,5,7,0.7,0.6
2022-05-24T21:00:00,2405A,112.5003,32.9735,南阳市,汉画馆,,,,50,,34,172,,164,164,,19,,8,,0.5
2022-05-24T21:00:00,2406A,112.5779,33.0144,南阳市,气象站,,,50,56,20,33,168,,166,166,,20,6,9,0.6,0.5
2022-05-24T21:00:00,2407A,112.548,32.9692,南阳市,理工学院,颗粒物(PM10),55,60,52,27,32,164,122,152,149,15,14,2,7,0.7,0.7
2022-05-24T21:00:00,2408A,115.6702,34.4285,商丘市,环境监测站,颗粒物(PM10),54,58,57,28,28,173,146,168,165,15,18,9,12,0.5,0.5
2022-05-24T21:00:00,2409A,115.6458,34.4045,商丘市,粮食局,颗粒物(PM10),55,60,53,29,30,175,147,170,167,19,20,7,13,0.6,0.6
2022-05-24T21:00:00,2410A,115.6293,34.3948,商丘市,睢阳区环保局,颗粒物(PM10),77,103,52,28,30,169,146,164,162,17,18,10,12,0.5,0.5
2022-05-24T21:00:00,2420A,114.0189,32.9656,驻马店市,市一纸厂,细颗粒物(PM2.5),58,53,46,41,27,178,149,176,170,18,19,12,18,0.4,0.5
2022-05-24T21:00:00,2421A,114.0114,33.015,驻马店市,市彩印厂,颗粒物(PM10),56,62,45,27,23,184,157,178,173,14,11,5,5,0.4,0.4
2022-05-24T21:00:00,2422A,113.9976,32.9771,驻马店市,天方二分厂,颗粒物(PM10),70,89,46,33,23,180,145,176,169,14,13,3,3,0.6,0.6
2022-05-24T21:00:00,2423A,115.0601,30.2313,黄石市,沈家营,,37,32,38,23,15,156,116,145,142,20,22,13,14,0.6,0.9
2022-05-24T21:00:00,2424A,115.0817,30.2006,黄石市,陈家湾,颗粒物(PM10),95,140,45,27,17,164,116,143,141,22,17,8,6,0.6,0.7
2022-05-24T21:00:00,2426A,114.8988,30.2019,黄石市,铁山,,38,38,38,17,17,159,107,147,142,19,10,8,9,0.5,0.3
2022-05-24T21:00:00,2427A,115.0307,30.2092,黄石市,团城山,,48,48,36,16,13,164,131,148,147,18,14,12,9,0.6,0.7
2022-05-24T21:00:00,2428A,111.0419,32.395,十堰市,武当山(对照点),,38,38,32,25,25,138,116,132,131,7,7,8,8,0.4,0.5
2022-05-24T21:00:00,2429A,110.78,32.6494,十堰市,滨河新村,颗粒物(PM10),53,56,67,27,35,154,55,139,121,57,22,7,10,0.7,0.6
2022-05-24T21:00:00,2430A,110.7258,32.6389,十堰市,刘家沟,,,,62,30,33,168,,154,152,20,14,8,10,0.6,0.8
2022-05-24T21:00:00,2431A,110.8839,32.5714,十堰市,铁二处,,41,41,41,18,26,154,99,147,136,12,11,7,8,0.3,0.3
2022-05-24T21:00:00,2432A,112.155,32.0197,襄阳市,襄城运动路,颗粒物(PM10),57,64,70,34,46,188,135,172,169,19,16,16,17,0.9,0.8
