timepoint,stationcode,longitude,latitude,area,positionname,primarypollutant,aqi,pm10,pm10_24h,pm2_5,pm2_5_24h,o3,o3_24h,o3_8h,o3_8h_24h,no2,no2_24h,so2,so2_24h,co,co_24h
2022-05-24T20:00:00,1001A,116.3621,39.8784,北京市,万寿西宫,,37,33,71,14,30,208,116,180,169,13,20,3,2,0.5,0.6
2022-05-24T20:00:00,1002A,116.2202,40.2915,北京市,定陵(对照点),,31,23,57,9,26,224,99,193,175,12,15,3,2,0.3,0.4
2022-05-24T20:00:00,1003A,116.4174,39.9289,北京市,东四,,45,34,75,13,33,211,143,190,179,13,18,3,2,0.4,0.6
2022-05-24T20:00:00,1004A,116.4072,39.8863,北京市,天坛,,34,28,65,14,30,201,108,175,163,11,20,3,2,0.4,0.6
2022-05-24T20:00:00,1005A,116.462,39.9365,北京市,农展馆,,43,28,73,12,31,222,135,192,181,13,21,3,2,0.6,0.7
2022-05-24T20:00:00,1006A,116.3392,39.9295,北京市,官园,,46,34,67,16,32,221,145,195,183,10,13,4,5,0.4,0.5
2022-05-24T20:00:00,1007A,116.2878,39.9611,北京市,海淀万柳,,41,31,63,12,22,213,129,180,170,14,24,3,2,0.3,0.4
2022-05-24T20:00:00,1008A,116.6636,40.135,北京市,顺义新城,,41,41,74,18,31,171,125,160,158,14,19,1,2,0.5,0.5
2022-05-24T20:00:00,1009A,116.6275,40.3275,北京市,怀柔镇,,44,38,59,22,29,227,140,210,202,9,14,1,2,0.4,0.5
2022-05-24T20:00:00,1010A,116.2296,40.217,北京市,昌平镇,,34,21,64,9,29,203,108,178,165,15,17,3,2,0.3,0.5
2022-05-24T20:00:00,1011A,116.3966,39.9821,北京市,奥体中心,,45,28,75,12,29,219,141,191,181,17,21,3,2,0.3,0.5
2022-05-24T20:00:00,1012A,116.184,39.9136,北京市,古城,,42,31,70,11,27,234,133,194,179,14,18,3,2,0.3,0.4
2022-05-24T20:00:00,1015A,117.1444,39.1661,天津市,勤俭道,臭氧1小时,87,74,78,29,38,223,189,217,211,17,21,12,14,0.9,0.9
2022-05-24T20:00:00,1017A,117.237,39.1082,天津市,大直沽八号路,臭氧1小时,70,86,77,34,37,208,176,199,192,19,20,10,10,0.7,0.6
2022-05-24T20:00:00,1018A,117.202,39.0927,天津市,前进道,臭氧1小时,65,69,70,31,36,206,172,194,188,21,23,11,11,0.9,0.8
2022-05-24T20:00:00,1019A,117.1837,39.2133,天津市,淮河道,,,,89,35,41,222,188,215,208,26,26,12,12,0.9,0.4
2022-05-24T20:00:00,1021A,117.307,39.0877,天津市,跃进路,臭氧1小时,72,74,78,32,35,218,177,208,199,17,29,10,9,0.7,0.6
2022-05-24T20:00:00,1023A,117.707,39.0343,天津市,第四大街,颗粒物(PM10),65,79,88,33,41,194,158,189,181,20,36,7,10,0.6,0.6
2022-05-24T20:00:00,1024A,117.457,38.8394,天津市,永明路,颗粒物(PM10),56,62,66,28,36,203,159,195,185,13,22,10,12,0.4,0.5
2022-05-24T20:00:00,1026A,117.764,39.1587,天津市,汉北路,"颗粒物(PM10),臭氧1小时",62,74,74,32,37,219,169,210,199,18,35,10,12,1.3,1.1
2022-05-24T20:00:00,1027A,117.157,38.9194,天津市,团泊洼(对照点),臭氧1小时,62,68,71,27,35,222,169,209,196,16,22,8,10,1.0,1
2022-05-24T20:00:00,1029A,114.4422,38.0444,石家庄市,职工医院,臭氧1小时,89,69,62,33,25,237,191,218,218,28,42,14,16,0.9,0.9
2022-05-24T20:00:00,1030A,114.6063,38.0266,石家庄市,高新区,颗粒物(PM10),64,77,67,39,35,226,162,202,202,28,55,16,15,0.7,0.7
2022-05-24T20:00:00,1031A,114.4898,38.1328,石家庄市,西北水源,颗粒物(PM10),73,96,68,40,34,231,168,213,213,18,38,12,16,0.9,0.9
2022-05-24T20:00:00,1032A,114.4586,38.0058,石家庄市,西南高教,臭氧1小时,62,48,60,18,30,199,169,199,184,24,62,10,7,1.1,1
2022-05-24T20:00:00,1033A,114.5331,38.0178,石家庄市,世纪公园,颗粒物(PM10),69,87,70,37,31,238,168,212,211,28,43,6,6,1.0,1
2022-05-24T20:00:00,1034A,114.509,38.0457,石家庄市,人民会堂,臭氧1小时,74,75,61,43,33,235,179,216,216,28,38,16,17,0.8,0.8
2022-05-24T20:00:00,1035A,114.3524,37.8911,石家庄市,封龙山(对照点),臭氧1小时,103,87,39,31,23,244,206,206,206,14,8,18,14,1.1,0.9
2022-05-24T20:00:00,1037A,118.131,39.6363,唐山市,雷达站,颗粒物(PM10),66,82,79,29,36,245,146,220,208,25,13,4,7,1.1,0.7
2022-05-24T20:00:00,1038A,118.1725,39.6334,唐山市,物资局,颗粒物(PM10),67,83,79,33,32,253,149,216,206,38,24,6,10,0.7,0.6
2022-05-24T20:00:00,1040A,118.1705,39.6506,唐山市,十二中,颗粒物(PM10),61,72,59,42,31,237,154,209,202,28,20,5,9,0.7,0.6
2022-05-24T20:00:00,1041A,118.1869,39.622,唐山市,小山,颗粒物(PM10),65,79,82,32,29,260,144,224,213,29,22,6,9,0.5,0.5
2022-05-24T20:00:00,1042A,119.5134,39.8207,秦皇岛市,北戴河环保局,,,99,73,48,30,291,,246,246,18,16,9,11,1.2,1.1
2022-05-24T20:00:00,1043A,119.7493,40.0116,秦皇岛市,第一关,臭氧1小时,123,94,72,51,38,281,246,249,249,17,32,18,20,0.8,0.8
2022-05-24T20:00:00,1044A,119.5897,39.9499,秦皇岛市,监测站,臭氧1小时,125,80,69,36,32,277,250,242,242,21,26,13,15,0.6,0.6
2022-05-24T20:00:00,1046A,119.5251,39.9041,秦皇岛市,建设大厦,臭氧1小时,119,88,68,46,31,255,238,230,230,22,22,14,18,1.1,1.2
2022-05-24T20:00:00,1048A,114.5302,36.6116,邯郸市,东污水处理厂,颗粒物(PM10),55,60,62,31,44,211,149,181,177,14,27,7,14,0.5,1.3
2022-05-24T20:00:00,1049A,114.4918,36.5713,邯郸市,矿院,,,49,71,29,44,209,149,182,177,,32,66,17,0.5,1.3
2022-05-24T20:00:00,1050A,114.484,36.6133,邯郸市,丛台公园,,49,42,59,29,42,217,154,183,179,14,28,24,16,0.6,1.6
2022-05-24T20:00:00,1051A,115.493,38.8632,保定市,游泳馆,臭氧1小时,55,58,66,24,26,223,164,198,196,22,36,15,17,0.4,0.6
2022-05-24T20:00:00,1053A,115.4713,38.9108,保定市,接待中心,颗粒物(PM10),62,73,65,36,30,237,144,202,198,26,31,8,10,0.9,0.9
2022-05-24T20:00:00,1054A,115.4612,38.8416,保定市,地表水厂,颗粒物(PM10),76,101,75,32,29,221,147,192,189,30,34,11,13,0.7,0.8
2022-05-24T20:00:00,1055A,115.4323,38.8697,保定市,胶片厂,颗粒物(PM10),63,76,65,27,29,231,127,200,193,25,30,14,15,0.7,0.8
2022-05-24T20:00:00,1056A,115.5086,38.8639,保定市,监测站,颗粒物(PM10),62,74,75,34,35,227,163,202,197,24,29,10,11,0.7,0.8
2022-05-24T20:00:00,1057A,114.8883,40.8336,张家口市,人民公园,颗粒物(PM10),84,117,51,11,13,192,99,157,145,5,10,5,5,0.3,0.4
2022-05-24T20:00:00,1059A,114.8687,40.8042,张家口市,五金库,颗粒物(PM10),86,122,52,15,19,192,104,160,142,1,9,4,5,0.3,0.4
2022-05-24T20:00:00,1060A,114.8902,40.762,张家口市,世纪豪园,颗粒物(PM10),78,106,52,31,23,198,101,158,142,9,17,3,5,0.3,0.4
2022-05-24T20:00:00,1061A,114.8916,40.8661,张家口市,北泵房(对照点),颗粒物(PM10),59,67,40,25,21,173,100,173,125,2,7,10,12,0.5,0.6
2022-05-24T20:00:00,1062A,117.9531,40.9081,承德市,铁路,颗粒物(PM10),57,63,60,27,29,178,100,154,138,44,33,8,8,0.4,0.4
2022-05-24T20:00:00,1063A,117.9392,40.9763,承德市,中国银行,,41,41,58,21,27,174,100,162,150,26,23,4,5,0.4,0.4
2022-05-24T20:00:00,1064A,117.9503,40.928,承德市,开发区,,40,36,55,21,26,192,128,178,167,19,26,9,9,0.5,0.6
2022-05-24T20:00:00,1065A,117.8051,40.9655,承德市,文化中心,,50,46,60,28,32,194,160,183,177,12,16,9,8,0.4,0.5
2022-05-24T20:00:00,1066A,117.9268,41.0026,承德市,离宫(对照点),,42,39,50,29,27,187,70,176,156,23,16,5,7,0.4,0.4
2022-05-24T20:00:00,1067A,116.6708,39.5111,廊坊市,药材公司,颗粒物(PM10),62,74,82,39,39,228,155,215,206,40,32,8,10,0.6,0.6
2022-05-24T20:00:00,1068A,116.7214,39.5589,廊坊市,开发区,,,80,76,32,40,224,,214,214,30,26,9,10,0.7,0.6
2022-05-24T20:00:00,1070A,116.7244,39.5269,廊坊市,北华航天学院,颗粒物(PM10),69,87,89,44,43,214,158,201,196,29,28,9,11,0.6,0.5
2022-05-24T20:00:00,1071A,116.8842,38.2991,沧州市,沧县城建局,颗粒物(PM10),64,78,73,31,37,197,156,185,180,32,32,12,15,0.4,0.6
2022-05-24T20:00:00,1072A,116.8584,38.3254,沧州市,电视转播站,颗粒物(PM10),65,79,75,33,39,187,157,176,170,22,27,11,14,0.4,0.5
2022-05-24T20:00:00,1073A,116.8709,38.3228,沧州市,市环保局,颗粒物(PM10),68,85,77,29,36,209,169,198,190,28,34,11,13,0.7,0.7
2022-05-24T20:00:00,1074A,115.6838,37.7541,衡水市,电机北厂,颗粒物(PM10),59,68,94,23,42,231,161,208,206,9,25,10,14,0.4,0.6
2022-05-24T20:00:00,1075A,115.6303,37.7316,衡水市,市监测站,颗粒物(PM10),69,88,101,24,43,225,146,198,195,13,27,12,19,0.4,0.6
2022-05-24T20:00:00,1077A,114.4704,37.0886,邢台市,达活泉,,,,61,21,26,252,144,214,211,21,27,6,15,0.6,1.4
2022-05-24T20:00:00,1078A,114.5062,37.0349,邢台市,邢师高专,,50,50,51,27,34,258,133,219,211,26,28,4,9,0.6,1
2022-05-24T20:00:00,1079A,114.5237,37.0851,邢台市,路桥公司,颗粒物(PM10),57,64,65,27,31,248,139,219,206,18,32,8,15,0.6,1.3
2022-05-24T20:00:00,1081A,112.5139,37.8873,太原市,尖草坪,臭氧1小时,118,103,75,62,40,247,236,210,210,28,34,17,11,0.9,0.8
2022-05-24T20:00:00,1083A,112.434,38.0108,太原市,上兰(对照点),,44,20,44,0,20,199,140,172,172,14,14,4,6,0.4,0.6
2022-05-24T20:00:00,1084A,112.469,37.7124,太原市,晋源,颗粒物(PM10),67,83,63,45,43,228,157,196,196,72,32,16,3,1.0,0.6
2022-05-24T20:00:00,1085A,112.5583,37.7394,太原市,小店,臭氧1小时,93,68,71,35,35,229,194,210,210,45,45,8,9,0.8,0.9
2022-05-24T20:00:00,1086A,112.5369,37.8692,太原市,桃园,臭氧1小时,117,84,73,48,38,247,234,213,213,32,34,15,10,1.0,0.8
2022-05-24T20:00:00,1087A,112.57,37.8195,太原市,坞城,臭氧1小时,113,70,65,44,38,238,226,216,216,28,38,12,11,0.7,0.7
2022-05-24T20:00:00,1088A,112.549,37.9854,太原市,南寨,臭氧1小时,110,90,67,52,33,219,219,187,187,34,47,16,8,1.0,0.7
2022-05-24T20:00:00,1090A,111.6507,40.7517,呼和浩特市,呼市一监,颗粒物(PM10),56,61,77,6,30,150,95,123,115,6,36,5,8,0.2,0.4
2022-05-24T20:00:00,1091A,111.6572,40.8033,呼和浩特市,小召,颗粒物(PM10),54,58,57,8,28,154,96,120,113,12,43,6,8,0.2,0.5
2022-05-24T20:00:00,1094A,111.7516,40.8369,呼和浩特市,如意水处理厂,,31,21,59,3,26,169,99,132,124,9,40,8,10,0.3,0.5
2022-05-24T20:00:00,1095A,111.7276,40.8062,呼和浩特市,二十九中,,45,45,55,2,17,164,98,129,121,8,41,7,9,0.2,0.4
2022-05-24T20:00:00,1096A,111.5512,40.7866,呼和浩特市,工大金川校区,,31,22,58,4,25,170,97,131,122,10,35,5,8,0.3,0.5
2022-05-24T20:00:00,1097A,111.717,40.7612,呼和浩特市,化肥厂生活区,,,27,71,,25,157,,126,123,5,33,8,12,0.3,0.5
2022-05-24T20:00:00,1098A,123.6836,41.9339,沈阳市,森林路(对照点),,46,46,77,18,32,203,111,184,169,19,19,11,17,0.9,1
2022-05-24T20:00:00,1099A,123.505,41.7406,沈阳市,浑南东路,颗粒物(PM10),55,60,74,15,31,209,126,183,167,20,18,12,28,0.5,0.8
2022-05-24T20:00:00,1100A,123.4231,41.6989,沈阳市,新秀街,颗粒物(PM10),51,52,75,17,30,196,124,175,161,23,25,25,24,0.7,1
2022-05-24T20:00:00,1102A,123.5903,41.8411,沈阳市,东陵路,,50,50,75,23,33,203,129,185,168,17,20,8,24,0.5,0.9
2022-05-24T20:00:00,1103A,123.4264,41.8467,沈阳市,陵东街,,42,38,61,16,29,199,134,178,170,17,20,12,15,0.4,0.8
2022-05-24T20:00:00,1104A,123.4114,41.7653,沈阳市,文化路,,46,46,81,15,36,206,133,177,163,12,15,14,20,0.5,0.9
2022-05-24T20:00:00,1105A,123.4678,41.7867,沈阳市,小河沿,颗粒物(PM10),51,51,76,16,30,197,129,170,161,17,23,23,17,0.4,0.8
2022-05-24T20:00:00,1106A,123.4017,41.7972,沈阳市,太原街,,47,47,74,20,38,215,139,192,181,18,20,17,17,0.5,0.9
2022-05-24T20:00:00,1108A,123.3783,41.9228,沈阳市,京沈街,颗粒物(PM10),71,91,97,14,35,202,133,189,178,16,19,16,18,0.5,0.9
2022-05-24T20:00:00,1109A,121.612,38.9741,大连市,甘井子,臭氧1小时,80,89,77,50,44,205,184,189,189,34,32,10,10,0.6,0.6
2022-05-24T20:00:00,1110A,121.565,38.9511,大连市,周水子,"细颗粒物(PM2.5),臭氧1小时",74,88,67,54,45,205,179,183,183,30,24,5,9,0.9,0.8
2022-05-24T20:00:00,1111A,121.5637,38.8845,大连市,星海三站,臭氧1小时,108,61,62,46,47,215,215,191,191,37,26,12,10,0.6,0.7
2022-05-24T20:00:00,1112A,121.6302,38.9117,大连市,青泥洼桥,臭氧1小时,109,60,57,35,34,222,217,212,212,21,20,9,9,0.5,0.5
2022-05-24T20:00:00,1113A,121.6251,38.8638,大连市,傅家庄,臭氧1小时,108,50,52,32,36,220,216,173,173,18,16,7,4,0.9,0.8
2022-05-24T20:00:00,1114A,121.5213,38.8661,大连市,七贤岭,,,87,58,,,28,,22,22,,22,,15,2.0,0.6
2022-05-24T20:00:00,1115A,121.2529,38.8061,大连市,旅顺,臭氧1小时,77,47,43,30,27,250,181,186,186,27,21,7,8,0.8,0.7
2022-05-24T20:00:00,1116A,121.7485,39.1311,大连市,金州,"颗粒物(PM10),细颗粒物(PM2.5)",58,65,59,41,33,165,151,142,142,25,25,12,12,0.6,0.6
2022-05-24T20:00:00,1117A,121.7811,39.0496,大连市,开发区,臭氧1小时,108,56,63,35,40,215,215,192,192,28,34,10,8,1.0,0.9
2022-05-24T20:00:00,1118A,121.9762,39.0631,大连市,双D港,臭氧1小时,103,44,41,37,28,247,206,178,178,30,28,15,11,0.9,0.8
2022-05-24T20:00:00,1119A,125.3325,43.9166,长春市,食品厂,颗粒物(PM10),88,125,101,10,37,200,62,169,146,24,28,6,9,0.4,0.8
2022-05-24T20:00:00,1120A,125.2863,43.9027,长春市,客车厂,颗粒物(PM10),79,108,109,15,32,197,69,170,148,17,23,6,9,0.6,0.9
2022-05-24T20:00:00,1121A,125.2841,43.8463,长春市,邮电学院,颗粒物(PM10),67,84,113,14,32,197,65,176,156,18,21,3,5,0.5,0.8
2022-05-24T20:00:00,1122A,125.3716,43.8772,长春市,劳动公园,颗粒物(PM10),75,100,93,10,31,209,73,181,159,16,17,3,6,0.6,0.8
2022-05-24T20:00:00,1123A,125.3297,43.8805,长春市,园林处,,37,37,67,14,28,199,71,177,154,16,20,5,8,0.3,0.7
2022-05-24T20:00:00,1124A,125.4605,43.79,长春市,净月潭,,43,43,63,11,28,199,82,175,161,7,10,6,9,0.3,0.6
2022-05-24T20:00:00,1125A,125.7194,43.515,长春市,甩湾子(对照点),颗粒物(PM10),60,69,56,25,30,192,132,175,172,13,14,10,11,0.6,0.8
2022-05-24T20:00:00,1126A,125.3863,43.8447,长春市,经开区环卫处,颗粒物(PM10),53,55,80,12,27,209,74,182,164,14,12,8,11,0.7,0.9
2022-05-24T20:00:00,1127A,125.245,43.7783,长春市,高新区管委会,颗粒物(PM10),54,58,83,18,32,206,72,186,167,22,18,6,9,0.4,0.6
2022-05-24T20:00:00,1128A,125.1761,43.8325,长春市,岱山公园,颗粒物(PM10),125,199,104,20,31,187,60,166,142,23,19,6,9,0.4,0.7
2022-05-24T20:00:00,1129A,126.5422,45.755,哈尔滨市,岭北(对照点),,15,15,30,10,14,88,46,84,74,16,17,13,12,0.2,0.2
2022-05-24T20:00:00,1130A,126.561,45.8167,哈尔滨市,松北商大,,,,12,17,10,94,43,86,70,12,16,3,4,0.5,0.4
2022-05-24T20:00:00,1131A,126.979,45.5419,哈尔滨市,阿城会宁,,29,23,49,20,20,97,48,89,80,12,21,7,9,0.6,0.7
2022-05-24T20:00:00,1132A,126.599,45.7222,哈尔滨市,南岗学府路,,,0,31,4,10,97,24,89,69,20,19,,10,0.9,0.6
2022-05-24T20:00:00,1133A,126.689,45.7733,哈尔滨市,太平宏伟公园,,35,35,65,14,20,91,46,85,75,22,23,11,12,0.5,0.5
2022-05-24T20:00:00,1134A,126.635,45.7667,哈尔滨市,道外承德广场,,24,24,46,6,16,93,49,87,78,21,22,8,8,0.4,0.4
2022-05-24T20:00:00,1135A,126.685,45.7319,哈尔滨市,香坊红旗大街,,48,48,60,11,23,89,45,81,71,17,19,8,10,0.6,0.6
2022-05-24T20:00:00,1136A,126.6411,45.7258,哈尔滨市,动力和平路,,17,17,43,6,10,93,48,84,75,17,12,9,10,0.4,0.4
2022-05-24T20:00:00,1137A,126.593,45.7478,哈尔滨市,道里建国路,,17,17,34,11,14,85,52,82,74,15,20,16,18,0.4,0.4
2022-05-24T20:00:00,1138A,126.615,45.61,哈尔滨市,平房东轻厂,,29,22,48,20,16,83,18,74,62,41,29,4,6,1.0,0.8
2022-05-24T20:00:00,1139A,126.595,45.9855,哈尔滨市,呼兰师专,,,11,31,13,15,91,46,87,75,16,15,8,10,,0.5
2022-05-24T20:00:00,1140A,126.6206,45.6842,哈尔滨市,省农科院,,17,17,52,7,15,96,50,88,78,17,18,8,9,0.6,0.6
2022-05-24T20:00:00,1141A,121.4,31.238,上海市,普陀,,34,9,11,9,7,125,107,122,116,12,11,2,2,1.0,1
2022-05-24T20:00:00,1142A,121.478,31.2036,上海市,十五厂,,31,5,7,11,10,117,97,112,106,12,10,5,5,1.1,1.1
2022-05-24T20:00:00,1143A,121.467,31.3008,上海市,虹口,,28,7,8,12,9,113,88,107,98,11,6,5,4,1.1,1.2
2022-05-24T20:00:00,1144A,121.412,31.1654,上海市,徐汇上师大,,31,12,12,10,9,118,99,111,107,6,6,6,6,1.2,1.2
2022-05-24T20:00:00,1145A,121.536,31.2659,上海市,杨浦四漂,,30,9,4,8,7,120,93,114,106,9,5,6,6,0.2,0.2
2022-05-24T20:00:00,1147A,121.425,31.2261,上海市,静安监测站,,32,10,12,10,10,119,100,114,108,13,12,4,4,0.4,0.2
2022-05-24T20:00:00,1148A,121.703,31.1907,上海市,浦东川沙,,30,23,17,9,11,130,96,125,114,21,13,4,4,1.1,1.1
2022-05-24T20:00:00,1149A,121.533,31.2284,上海市,浦东新区监测站,,32,14,12,9,10,124,101,119,112,12,8,5,5,0.7,0.7
2022-05-24T20:00:00,1150A,121.577,31.2071,上海市,浦东张江,,27,10,5,11,13,111,86,106,100,15,10,3,3,0.7,0.7
2022-05-24T20:00:00,1151A,118.8086,32.1065,南京市,迈皋桥,,45,45,23,22,7,129,111,123,123,43,24,3,4,0.7,0.5
2022-05-24T20:00:00,1152A,118.7538,32.0551,南京市,草场门,,45,39,20,19,10,149,143,138,138,23,16,3,3,0.8,0.5
2022-05-24T20:00:00,1153A,118.7794,32.0745,南京市,山西路,,48,39,24,24,10,156,152,144,144,15,9,4,4,0.2,0
2022-05-24T20:00:00,1154A,118.7752,32.0023,南京市,中华门,,44,34,27,19,8,153,140,141,141,10,6,4,4,0.5,0.4
2022-05-24T20:00:00,1155A,118.8109,32.0309,南京市,瑞金路,颗粒物(PM10),51,52,32,22,11,150,136,136,136,16,11,4,4,0.5,0.3
2022-05-24T20:00:00,1156A,118.7997,32.0754,南京市,玄武湖,,42,39,20,24,10,142,134,130,130,16,13,4,5,0.4,0.2
2022-05-24T20:00:00,1157A,118.6414,32.0931,南京市,浦口,,45,41,24,19,9,152,142,141,141,25,17,3,4,0.3,0.2
2022-05-24T20:00:00,1158A,118.7356,31.9996,南京市,奥体中心,,43,41,23,22,10,144,135,134,134,20,12,1,1,0.8,0.6
2022-05-24T20:00:00,1159A,118.9125,32.1028,南京市,仙林大学城,,43,36,21,24,12,154,135,141,141,12,4,5,5,0.7,0.6
2022-05-24T20:00:00,1160A,120.561,31.2472,苏州市,上方山(对照点),,30,2,9,12,15,114,93,106,104,15,13,5,5,0.4,0.4
2022-05-24T20:00:00,1162A,120.591,31.3019,苏州市,彩香,,31,16,13,11,15,123,99,113,111,6,6,5,5,0.4,0.4
2022-05-24T20:00:00,1163A,120.596,31.3264,苏州市,轧钢厂,,32,15,19,10,12,136,101,118,117,12,9,6,6,0.4,0.4
2022-05-24T20:00:00,1164A,120.613,31.2703,苏州市,吴中区,,33,8,17,10,14,127,104,115,114,8,8,5,5,0.3,0.4
2022-05-24T20:00:00,1165A,120.543,31.2994,苏州市,苏州新区,,,10,16,,15,129,105,119,118,9,7,5,5,0.5,0.5
2022-05-24T20:00:00,1166A,120.669,31.3097,苏州市,苏州工业园区,,27,16,15,10,10,117,86,112,99,13,9,7,6,0.6,0.5
2022-05-24T20:00:00,1167A,120.641,31.3708,苏州市,相城区,,25,17,21,17,18,100,77,100,77,17,16,4,5,0.4,0.5
2022-05-24T20:00:00,1168A,120.9098,31.9663,南通市,狼山街道,,34,14,17,5,4,121,108,115,114,7,11,9,9,0.4,0.5
2022-05-24T20:00:00,1169A,120.86,32.0005,南通市,虹桥,,33,13,14,18,12,118,105,113,112,8,12,5,5,0.4,0.5
2022-05-24T20:00:00,1170A,120.87,32.02,南通市,城中,,31,17,15,15,12,110,98,103,102,10,14,8,8,0.3,0.4
2022-05-24T20:00:00,1171A,120.94,31.93,南通市,星湖花园,,30,18,13,7,6,107,93,100,98,12,13,8,8,0.6,0.6
2022-05-24T20:00:00,1172A,120.81,32.0417,南通市,紫琅学院,,32,9,17,2,5,111,100,105,104,10,16,5,6,0.4,0.4
2022-05-24T20:00:00,1173A,119.176,34.5885,连云港市,市环境监测站,,36,36,42,14,19,127,105,122,118,10,11,6,15,0.1,0.2
2022-05-24T20:00:00,1177A,117.179,34.2761,徐州市,黄河新村,颗粒物(PM10),52,53,64,19,28,189,153,177,176,12,16,4,6,0.4,0.5
2022-05-24T20:00:00,1178A,117.1918,34.2384,徐州市,淮塔,颗粒物(PM10),57,63,58,24,31,189,144,176,173,14,15,9,10,0.6,0.6
2022-05-24T20:00:00,1180A,117.256,34.2153,徐州市,新城区,颗粒物(PM10),56,61,61,22,28,185,146,171,170,10,16,7,8,0.6,0.6
2022-05-24T20:00:00,1181A,117.244,34.2911,徐州市,桃园路,颗粒物(PM10),54,58,64,25,29,202,148,186,184,16,16,10,12,0.6,0.7
2022-05-24T20:00:00,1182A,117.2933,34.2778,徐州市,农科院,,44,44,57,12,20,193,139,176,175,19,21,5,7,0.5,0.6
2022-05-24T20:00:00,1186A,119.389,32.3761,扬州市,邗江监测站,颗粒物(PM10),53,56,33,28,19,148,107,134,133,22,12,8,7,1.0,0.8
2022-05-24T20:00:00,1188A,120.269,31.4867,无锡市,雪浪,,41,41,22,17,9,110,75,98,94,23,12,8,8,0.6,0.6
2022-05-24T20:00:00,1189A,120.275,31.6219,无锡市,黄巷,,28,26,22,14,11,131,88,108,107,25,19,5,6,0.3,0.3
2022-05-24T20:00:00,1190A,120.294,31.56,无锡市,曹张,,26,25,16,12,9,120,83,102,101,21,14,4,5,0.6,0.6
2022-05-24T20:00:00,1191A,120.242,31.5031,无锡市,漆塘,,30,12,18,11,12,123,94,108,108,28,19,5,5,0.4,0.4
2022-05-24T20:00:00,1192A,120.3489,31.5863,无锡市,东亭,,26,19,20,7,12,123,81,102,100,13,11,6,6,0.6,0.6
2022-05-24T20:00:00,1193A,120.354,31.5475,无锡市,旺庄,,25,22,18,14,10,124,77,105,103,24,14,5,4,0.7,0.7
2022-05-24T20:00:00,1194A,120.245,31.5631,无锡市,荣巷,,,22,19,17,14,125,98,107,107,,17,8,8,0.3,0.3
2022-05-24T20:00:00,1195A,120.299,31.6817,无锡市,堰桥,,31,31,24,12,13,135,91,116,114,18,13,5,6,0.6,0.6
2022-05-24T20:00:00,1196A,119.9633,31.762,常州市,市监测站,,34,34,36,12,11,119,73,96,96,38,24,6,6,0.9,0.7
2022-05-24T20:00:00,1200A,119.9468,31.7069,常州市,武进监测站,,44,44,28,6,17,160,90,127,125,28,11,5,5,0.6,0.6
2022-05-24T20:00:00,1201A,119.9255,31.9087,常州市,安家,,35,33,34,24,25,144,101,119,118,19,14,4,4,0.6,0.6
2022-05-24T20:00:00,1203A,119.6707,32.1875,镇江市,新区办事处,,45,45,33,27,17,149,86,128,124,44,26,8,6,0.8,0.5
2022-05-24T20:00:00,1204A,119.4974,32.1968,镇江市,职教中心,细颗粒物(PM2.5),73,50,30,53,21,142,93,128,125,37,19,10,7,0.8,0.5
2022-05-24T20:00:00,1205A,119.4303,32.1328,镇江市,丹徒区监测站,细颗粒物(PM2.5),60,41,30,43,27,166,124,152,151,25,16,8,5,0.7,0.6
2022-05-24T20:00:00,1206A,119.905,32.4878,泰州市,公园路,,32,17,24,9,16,128,100,119,118,16,16,5,6,0.6,0.8
2022-05-24T20:00:00,1207A,119.9189,32.4625,泰州市,莲花,,32,15,26,17,22,127,100,120,118,14,12,4,5,0.6,0.7
2022-05-24T20:00:00,1209A,119.888,32.4639,泰州市,留学生创业园,,34,25,32,18,20,132,106,120,119,14,12,4,6,0.5,0.7
2022-05-24T20:00:00,1210A,119.036,33.5981,淮安市,钵池山,,40,26,38,18,22,170,127,132,132,12,15,7,8,0.7,0.7
2022-05-24T20:00:00,1211A,119.007,33.575,淮安市,北京南路,,39,36,38,23,26,162,122,133,133,13,15,10,11,0.4,0.5
2022-05-24T20:00:00,1213A,119.135,33.5039,淮安市,楚州区监测站,细颗粒物(PM2.5),52,29,40,36,25,148,103,120,119,14,17,8,11,0.6,0.6
2022-05-24T20:00:00,1214A,119.0186,33.6297,淮安市,淮阴区监测站,,35,29,38,17,25,154,110,120,120,16,14,8,8,0.5,0.6
2022-05-24T20:00:00,1215A,120.118,33.4022,盐城市,盐城电厂,,37,19,25,12,19,128,117,124,124,10,11,9,10,0.5,0.5
2022-05-24T20:00:00,1216A,120.156,33.3942,盐城市,市监测站,,32,19,21,7,6,115,100,112,111,10,11,8,8,0.3,0.3
2022-05-24T20:00:00,1218A,120.2144,33.38,盐城市,开发区管委会,,,14,21,8,11,113,101,109,108,11,13,,7,0.3,0.3
2022-05-24T20:00:00,1220A,118.293,33.9528,宿迁市,宿迁学院,,48,48,42,20,22,168,130,157,155,16,21,4,6,0.5,0.6
2022-05-24T20:00:00,1221A,118.2442,33.9592,宿迁市,宿迁中学,,43,35,39,18,20,175,136,162,160,9,10,6,7,0.5,0.4
2022-05-24T20:00:00,1223A,120.2072,30.2111,杭州市,滨江,颗粒物(PM10),56,61,44,32,20,162,115,135,135,24,28,4,5,0.6,0.6
2022-05-24T20:00:00,1224A,120.0633,30.2747,杭州市,西溪,,48,48,37,26,23,157,122,137,137,20,19,10,10,0.6,0.6
2022-05-24T20:00:00,1226A,120.3461,30.3153,杭州市,下沙,,36,33,37,18,19,175,115,148,148,20,20,6,7,0.4,0.5
2022-05-24T20:00:00,1227A,120.1269,30.2456,杭州市,卧龙桥,颗粒物(PM10),51,52,36,33,26,168,120,147,147,19,21,6,6,0.6,0.6
2022-05-24T20:00:00,1228A,120.1903,30.2692,杭州市,浙江农大,,46,39,34,32,30,174,117,149,149,19,23,5,6,0.5,0.5
2022-05-24T20:00:00,1230A,120.1197,30.3119,杭州市,和睦小学,,40,40,43,21,22,157,109,136,136,25,27,3,4,0.7,0.7
2022-05-24T20:00:00,1231A,120.3019,30.4183,杭州市,临平镇,,39,39,38,14,18,159,123,141,141,15,16,3,3,0.6,0.6
2022-05-24T20:00:00,1232A,120.2697,30.1819,杭州市,城厢镇,细颗粒物(PM2.5),67,58,35,48,25,160,106,130,130,28,27,7,7,0.6,0.5
2022-05-24T20:00:00,1233A,120.0883,30.1808,杭州市,云栖,颗粒物(PM10),58,66,40,30,16,171,131,152,152,30,28,8,8,0.3,0.3
2022-05-24T20:00:00,1234A,121.8358,29.911,宁波市,区环保大楼,,20,16,14,9,11,95,58,86,61,40,45,6,6,0.4,0.5
2022-05-24T20:00:00,1235A,121.56,29.82,宁波市,万里学院,,27,9,11,3,9,116,86,103,101,17,15,6,7,0.4,0.4
2022-05-24T20:00:00,1236A,121.713,29.9572,宁波市,龙赛医院,,24,15,15,8,10,103,75,103,66,35,39,8,9,0.7,0.6
2022-05-24T20:00:00,1239A,121.633,29.7733,宁波市,钱湖水厂,,27,5,9,2,9,108,85,98,98,12,8,5,6,0.5,0.5
2022-05-24T20:00:00,1240A,121.5856,29.8635,宁波市,太古小学,,20,3,13,6,11,92,62,91,67,33,25,6,7,0.4,0.4
2022-05-24T20:00:00,1241A,121.524,29.8674,宁波市,市环境监测中心,,21,8,14,4,6,107,66,104,66,30,24,6,7,0.4,0.5
2022-05-24T20:00:00,1242A,120.634,28.0089,温州市,瓯海,,43,43,25,26,16,81,24,63,60,62,41,5,5,0.7,0.5
2022-05-24T20:00:00,1243A,120.6748,27.9939,温州市,南浦,颗粒物(PM10),62,74,30,40,17,82,23,65,57,62,41,6,6,0.8,0.6
2022-05-24T20:00:00,1244A,120.76,27.9747,温州市,龙湾,颗粒物(PM10),52,54,35,20,13,78,49,42,42,40,53,5,5,0.6,0.6
2022-05-24T20:00:00,1245A,120.6709,28.0167,温州市,市站,,45,45,34,23,20,72,12,63,57,72,41,5,5,0.7,0.6
2022-05-24T20:00:00,1247A,120.6053,29.9928,绍兴市,城东开发委,细颗粒物(PM2.5),62,54,27,44,20,145,72,118,115,28,14,10,8,0.6,0.5
2022-05-24T20:00:00,1250A,120.0751,30.8669,湖州市,城西水厂,,40,40,22,23,14,144,108,126,126,15,12,4,4,0.4,0.4
2022-05-24T20:00:00,1252A,120.7436,30.778,嘉兴市,清河小学,,33,14,21,10,11,128,104,117,117,8,10,5,6,0.6,0.6
2022-05-24T20:00:00,1253A,120.726,30.7478,嘉兴市,嘉兴学院,,,25,25,18,19,121,,117,117,17,16,4,5,0.3,0.3
2022-05-24T20:00:00,1255A,121.273,28.6459,台州市,黄岩环保大楼,,34,34,17,15,10,101,55,85,82,22,15,5,5,0.5,0.4
2022-05-24T20:00:00,1256A,121.419,28.6542,台州市,台州环保大楼,,30,21,15,10,9,114,96,107,97,10,12,4,4,0.3,0.3
2022-05-24T20:00:00,1257A,121.377,28.5773,台州市,路桥田洋王,,29,17,16,13,15,99,91,91,91,11,14,5,5,0.2,0.2
2022-05-24T20:00:00,1258A,122.122,30.0203,舟山市,定海檀枫,,29,7,9,6,7,111,92,108,94,5,5,1,2,0.2,0.2
2022-05-24T20:00:00,1259A,122.3094,29.9558,舟山市,普陀东港,,33,13,14,6,6,130,103,123,108,3,4,3,3,0.3,0.3
2022-05-24T20:00:00,1260A,122.19,29.9944,舟山市,临城新区,,28,13,14,9,7,110,88,105,88,7,6,2,2,0.3,0.4
2022-05-24T20:00:00,1262A,119.647,29.077,金华市,十五中,细颗粒物(PM2.5),70,54,33,51,23,102,81,89,88,25,25,6,11,0.6,0.5
2022-05-24T20:00:00,1263A,119.686,29.1029,金华市,监测站,颗粒物(PM10),51,52,30,18,19,106,78,94,94,35,22,5,21,0.7,0.5
2022-05-24T20:00:00,1264A,118.8692,28.9398,衢州市,环保大楼,颗粒物(PM10),76,102,41,52,20,111,80,95,95,33,21,35,13,1.0,0.7
2022-05-24T20:00:00,1265A,118.8709,28.9666,衢州市,实验学校,细颗粒物(PM2.5),77,77,31,56,19,115,72,96,96,30,15,14,4,1.0,0.5
2022-05-24T20:00:00,1266A,118.8621,28.9808,衢州市,衢州学院,颗粒物(PM10),52,54,34,28,15,121,33,101,97,75,21,20,8,0.8,0.5
2022-05-24T20:00:00,1267A,119.914,28.4514,丽水市,监测站大楼,,25,25,16,17,8,70,46,66,63,23,18,5,5,0.5,0.4
2022-05-24T20:00:00,1268A,119.93,28.4586,丽水市,莲都小学,,45,45,24,19,7,82,47,71,66,24,15,5,5,0.4,0.3
2022-05-24T20:00:00,1269A,119.879,28.4231,丽水市,余庄前,,22,22,20,6,5,84,15,65,59,14,15,5,5,0.4,0.3
2022-05-24T20:00:00,1270A,117.1959,31.7848,合肥市,明珠广场,,43,41,44,14,18,177,137,156,156,25,24,6,7,0.6,0.5
2022-05-24T20:00:00,1271A,117.3072,31.8764,合肥市,三里街,,41,41,50,9,19,141,121,130,129,27,25,10,10,0.6,0.5
2022-05-24T20:00:00,1272A,117.2588,31.8707,合肥市,琥珀山庄,,46,39,44,9,17,163,145,149,149,14,17,9,9,0.6,0.6
2022-05-24T20:00:00,1273A,117.1604,31.9052,合肥市,董铺水库(对照点),,45,34,48,7,14,164,143,148,148,13,18,8,8,0.4,0.4
2022-05-24T20:00:00,1274A,117.25,31.8571,合肥市,长江中路,,46,39,47,27,25,170,146,157,157,26,23,8,9,0.5,0.5
2022-05-24T20:00:00,1275A,117.266,31.9436,合肥市,庐阳区,,,31,48,12,24,158,,146,146,,25,9,11,0.5,0.5
2022-05-24T20:00:00,1276A,117.336,31.8586,合肥市,瑶海区,,39,39,48,15,24,155,122,146,143,26,20,7,8,0.6,0.5
2022-05-24T20:00:00,1277A,117.3027,31.7964,合肥市,包河区,,48,39,46,17,21,174,151,162,162,22,21,10,10,0.4,0.4
2022-05-24T20:00:00,1278A,117.2776,31.7385,合肥市,滨湖新区,,50,41,42,14,20,172,157,167,167,14,12,8,9,0.3,0.3
2022-05-24T20:00:00,1279A,117.1318,31.8403,合肥市,高新区,,46,39,43,17,20,189,146,167,167,19,20,10,10,0.6,0.6
2022-05-24T20:00:00,1280A,119.3903,26.0543,福州市,鼓山(对照点),,,11,10,,10,62,50,46,28,18,25,,2,0.3,0.3
2022-05-24T20:00:00,1282A,119.2681,26.0504,福州市,师大,,36,34,20,25,18,58,14,54,24,57,32,3,2,0.5,0.4
2022-05-24T20:00:00,1283A,119.2984,26.1028,福州市,五四北路,,45,37,22,31,27,52,8,51,17,63,32,3,2,0.8,0.6
2022-05-24T20:00:00,1284A,119.2648,26.0768,福州市,杨桥西路,,39,32,19,27,20,62,8,62,23,62,29,3,3,0.6,0.6
2022-05-24T20:00:00,1285A,119.317,26.0746,福州市,紫阳,,48,39,27,33,20,55,8,51,17,64,36,4,5,0.8,0.7
2022-05-24T20:00:00,1286A,118.1608,24.8169,厦门市,溪东(对照点),,30,14,57,21,35,69,43,58,57,23,15,2,4,0.6,0.6
2022-05-24T20:00:00,1287A,118.1514,24.4767,厦门市,洪文,,18,18,32,11,18,86,48,73,70,30,29,2,4,0.9,0.7
2022-05-24T20:00:00,1288A,118.0661,24.4444,厦门市,鼓浪屿,,18,14,21,12,18,80,52,75,73,14,13,1,2,0.6,0.6
2022-05-24T20:00:00,1290A,115.8931,28.6843,南昌市,省外办,,39,39,38,23,26,116,91,111,110,16,20,4,4,0.9,1
2022-05-24T20:00:00,1291A,115.8886,28.7003,南昌市,省林业公司,,38,38,54,14,12,114,97,108,108,23,35,17,11,0.9,1
2022-05-24T20:00:00,1292A,115.8126,28.7442,南昌市,林科所,,36,36,37,17,25,127,29,116,104,61,23,5,6,0.7,0.7
2022-05-24T20:00:00,1294A,115.8518,28.687,南昌市,建工学校,,32,30,44,22,29,125,94,116,115,20,31,9,10,0.7,0.7
2022-05-24T20:00:00,1295A,115.8921,28.6424,南昌市,象湖,,30,25,42,13,23,113,95,105,105,10,28,2,5,0.7,0.9
2022-05-24T20:00:00,1296A,115.7423,28.7996,南昌市,武术学校(对照点),,26,26,40,13,18,127,46,111,100,8,7,14,14,0.5,0.5
2022-05-24T20:00:00,1298A,115.9314,28.6842,南昌市,省站,颗粒物(PM10),55,59,45,21,22,112,85,108,106,23,20,8,7,0.5,0.5
2022-05-24T20:00:00,1299A,116.9862,36.6114,济南市,科干所,臭氧1小时,78,63,60,29,32,212,182,197,194,10,13,12,14,0.5,0.5
2022-05-24T20:00:00,1301A,117.1265,36.6734,济南市,开发区,臭氧1小时,87,54,61,30,31,212,189,206,202,14,24,10,13,0.4,0.4
2022-05-24T20:00:00,1303A,117.0624,36.6868,济南市,省种子仓库,臭氧1小时,65,61,72,34,37,198,172,190,187,14,26,9,12,0.5,0.6
2022-05-24T20:00:00,1304A,116.9489,36.6447,济南市,机床二厂,颗粒物(PM10),63,76,92,34,34,191,164,176,172,15,29,6,8,0.4,0.5
2022-05-24T20:00:00,1305A,117.0495,36.663,济南市,市监测站,臭氧1小时,72,54,62,30,30,205,177,196,193,22,25,8,10,0.6,0.6
2022-05-24T20:00:00,1306A,116.7675,36.5484,济南市,长清党校,颗粒物(PM10),56,61,67,32,36,198,160,184,178,17,17,10,15,0.7,0.8
2022-05-24T20:00:00,1307A,120.6659,36.2403,青岛市,仰口(对照点),,,,32,,22,136,113,124,110,9,8,2,7,0.7,0.5
2022-05-24T20:00:00,1310A,120.4134,36.0658,青岛市,市南区东部子站,,27,19,27,7,10,118,84,107,102,19,14,4,5,0.2,0.3
2022-05-24T20:00:00,1311A,120.3664,36.1032,青岛市,四方区子站,,28,22,29,7,15,126,89,116,107,15,13,5,6,0.6,0.6
2022-05-24T20:00:00,1312A,120.2994,36.054,青岛市,市南区西部子站,,32,14,27,5,8,133,102,124,115,14,16,6,7,0.4,0.4
2022-05-24T20:00:00,1313A,120.4581,36.0858,青岛市,崂山区子站,,32,9,20,7,8,134,102,118,113,14,17,7,8,0.3,0.3
2022-05-24T20:00:00,1314A,120.1983,35.9608,青岛市,黄岛区子站,,35,12,22,7,15,145,112,132,126,14,17,4,5,0.2,0.3
2022-05-24T20:00:00,1315A,120.3999,36.3083,青岛市,城阳区子站,,28,24,40,5,13,127,89,115,106,14,15,5,6,0.5,0.5
2022-05-24T20:00:00,1316A,113.69031,34.76122,郑州市,烟厂,臭氧1小时,52,37,53,27,28,189,161,182,180,16,20,6,11,0.5,0.8
2022-05-24T20:00:00,1317A,113.65724,34.77134,郑州市,郑纺机,,47,45,54,25,22,176,150,170,168,16,19,7,13,0.7,0.7
2022-05-24T20:00:00,1318A,113.67526,34.80246,郑州市,银行学校,臭氧1小时,63,46,48,26,27,198,170,192,190,21,19,6,11,0.5,0.5
2022-05-24T20:00:00,1319A,113.56746,34.81334,郑州市,供水公司,颗粒物(PM10),54,58,54,21,22,182,154,175,174,26,22,6,12,0.5,0.5
2022-05-24T20:00:00,1320A,113.7329,34.7178,郑州市,经开区管委,颗粒物(PM10),51,51,57,29,29,184,143,174,171,21,27,6,7,0.5,0.6
2022-05-24T20:00:00,1321A,113.73961,34.77172,郑州市,四十七中,颗粒物(PM10),52,53,61,25,25,185,149,176,174,22,22,6,8,0.5,0.5
2022-05-24T20:00:00,1322A,113.60532,34.74838,郑州市,市监测站,颗粒物(PM10),52,54,57,25,22,170,146,167,165,23,22,7,15,0.5,0.6
2022-05-24T20:00:00,1323A,113.64164,34.7525,郑州市,河医大,颗粒物(PM10),56,62,54,22,24,183,157,176,174,14,17,5,11,0.6,0.6
2022-05-24T20:00:00,1324A,113.51488,34.91089,郑州市,岗李水库(对照点),,50,29,55,29,27,193,158,182,180,19,18,8,8,0.5,0.5
2022-05-24T20:00:00,1325A,114.3677,30.5584,武汉市,东湖梨园,,46,24,39,10,20,160,146,152,152,13,17,11,12,0.8,1
2022-05-24T20:00:00,1326A,114.2529,30.558,武汉市,汉阳月湖,,44,28,37,9,19,193,140,173,171,23,34,8,10,0.8,0.9
2022-05-24T20:00:00,1327A,114.282,30.6189,武汉市,汉口花桥,,,,39,22,23,168,112,153,148,40,33,10,12,1.0,1
2022-05-24T20:00:00,1328A,114.3025,30.5332,武汉市,武昌紫阳,,38,31,37,25,15,163,119,150,148,36,29,10,11,1.1,1.1
2022-05-24T20:00:00,1329A,114.3646,30.6217,武汉市,青山钢花,,42,22,43,17,25,165,132,150,150,21,23,10,11,0.8,1
2022-05-24T20:00:00,1330A,114.1566,30.4825,武汉市,沌口新区,,39,27,42,23,23,182,124,161,161,34,33,11,12,0.9,0.9
2022-05-24T20:00:00,1331A,114.3014,30.5944,武汉市,汉口江滩,,39,31,43,17,17,186,123,164,162,46,41,8,9,0.9,1
2022-05-24T20:00:00,1333A,114.135,30.6319,武汉市,吴家山,,50,50,51,20,25,202,110,179,174,36,36,8,9,0.7,0.7
2022-05-24T20:00:00,1334A,113.8454,30.2917,武汉市,沉湖七壕(对照点),,40,28,32,20,17,176,127,158,158,13,22,6,6,0.8,0.9
2022-05-24T20:00:00,1335A,113.0833,28.2325,长沙市,经开区环保局,,23,15,30,16,29,92,40,80,75,33,17,3,3,0.8,0.8
2022-05-24T20:00:00,1336A,112.8872,28.2189,长沙市,高开区环保局,,30,9,22,21,29,103,63,92,88,18,15,6,8,0.5,0.6
2022-05-24T20:00:00,1337A,113.0792,28.2053,长沙市,马坡岭,,20,15,34,14,24,101,48,89,82,28,19,4,5,0.6,0.7
2022-05-24T20:00:00,1338A,112.9394,28.19,长沙市,湖南师范大学,细颗粒物(PM2.5),52,17,26,36,39,106,65,93,89,18,16,1,3,0.8,0.9
2022-05-24T20:00:00,1339A,113.0178,28.1322,长沙市,雨花区环保局,,32,14,29,22,27,96,71,87,84,22,14,5,6,0.7,0.6
2022-05-24T20:00:00,1340A,112.9792,28.2597,长沙市,伍家岭,,26,21,38,18,26,102,65,89,86,21,22,6,8,0.6,0.7
2022-05-24T20:00:00,1341A,113.0014,28.1944,长沙市,火车新站,,23,23,36,9,28,91,57,81,76,24,19,5,7,0.6,0.6
2022-05-24T20:00:00,1342A,112.9844,28.1178,长沙市,天心区环保局,,36,14,34,25,24,87,49,74,71,19,12,4,6,0.7,0.6
2022-05-24T20:00:00,1343A,112.8908,28.1308,长沙市,湖南中医药大学,,48,17,35,33,37,82,49,71,68,25,23,3,4,1.0,0.8
2022-05-24T20:00:00,1344A,112.9581,28.3611,长沙市,沙坪(对照点),,,37,48,18,30,105,52,92,88,,20,4,4,0.7,0.8
2022-05-24T20:00:00,1345A,113.2347,23.1423,广州市,广雅中学,,49,49,46,29,27,98,76,85,85,45,44,6,7,1.1,1
2022-05-24T20:00:00,1346A,113.2612,23.105,广州市,市五中,,35,35,44,24,30,154,101,113,113,35,42,5,6,0.8,0.8
2022-05-24T20:00:00,1348A,113.3478,23.0916,广州市,广东商学院,,35,35,47,23,28,164,88,118,118,40,45,4,5,0.7,0.9
2022-05-24T20:00:00,1349A,113.4332,23.1047,广州市,市八十六中,颗粒物(PM10),54,57,55,26,27,155,68,115,109,62,44,7,8,0.7,0.7
2022-05-24T20:00:00,1350A,113.3505,22.9483,广州市,番禺中学,,50,50,34,31,19,174,80,135,135,56,38,9,10,0.9,0.7
2022-05-24T20:00:00,1351A,113.2146,23.3916,广州市,花都师范,,30,30,26,19,17,106,66,88,88,24,26,4,3,0.7,0.7
2022-05-24T20:00:00,1352A,113.2597,23.1331,广州市,市监测站,,,,45,,24,114,92,97,97,39,40,6,6,0.8,0.8
2022-05-24T20:00:00,1353A,113.5618,23.312,广州市,九龙镇镇龙,,35,35,31,16,19,92,64,75,75,25,18,5,5,0.6,0.6
2022-05-24T20:00:00,1354A,113.2765,23.1544,广州市,麓湖,,42,42,42,22,24,109,39,72,72,39,36,3,4,1.0,1
2022-05-24T20:00:00,1355A,113.443,23.3035,广州市,帽峰山森林公园(对照点),,24,24,27,14,17,92,33,67,66,10,9,4,4,0.6,0.7
2022-05-24T20:00:00,1356A,114.1063,22.5545,深圳市,通心岭子站,,17,12,13,6,7,77,54,76,61,15,10,3,3,0.4,0.3
2022-05-24T20:00:00,1357A,114.117,22.5625,深圳市,洪湖,,31,31,15,16,7,82,45,78,64,29,14,6,6,0.4,0.3
2022-05-24T20:00:00,1358A,113.987,22.5417,深圳市,华侨城,,19,19,14,8,6,81,43,79,63,28,11,4,4,0.8,0.6
2022-05-24T20:00:00,1359A,113.9181,22.5171,深圳市,南海子站,,,13,13,6,6,79,59,78,70,,5,3,2,0.5,0.5
2022-05-24T20:00:00,1360A,114.2458,22.5689,深圳市,盐田,,21,10,13,5,8,75,37,55,47,41,39,3,4,0.6,0.6
2022-05-24T20:00:00,1361A,114.2283,22.7244,深圳市,龙岗,,24,24,20,14,10,77,41,68,63,42,25,3,3,0.6,0.6
2022-05-24T20:00:00,1363A,114.494,22.5422,深圳市,南澳,,20,9,9,2,3,96,62,93,78,16,7,7,6,0.8,0.7
2022-05-24T20:00:00,1364A,114.41,22.6342,深圳市,葵涌,,16,11,11,5,6,89,50,86,63,9,7,5,5,0.5,0.4
2022-05-24T20:00:00,1365A,114.297,22.5978,深圳市,梅沙,,20,10,14,3,7,100,64,100,74,9,7,5,5,0.4,0.5
2022-05-24T20:00:00,1366A,114.0678,22.738,深圳市,观澜,,22,22,24,9,11,61,34,58,53,27,18,5,5,0.6,0.5
2022-05-24T20:00:00,1367A,113.5814,22.2618,珠海市,吉大,,14,11,14,4,10,66,32,62,50,28,23,6,6,0.6,0.6
2022-05-24T20:00:00,1368A,113.4881,22.2335,珠海市,前山,,27,10,12,3,6,68,29,63,50,53,28,8,8,0.5,0.4
2022-05-24T20:00:00,1369A,113.628,22.4251,珠海市,唐家,,21,14,13,9,11,73,33,73,55,42,21,8,8,0.4,0.4
2022-05-24T20:00:00,1370A,113.299,22.2281,珠海市,斗门,,16,13,15,5,11,58,33,55,48,32,22,8,8,0.6,0.5
2022-05-24T20:00:00,1371A,113.1294,23.0067,佛山市,湾梁,颗粒物(PM10),60,70,52,24,24,148,104,110,110,38,40,5,5,0.7,0.7
2022-05-24T20:00:00,1372A,113.1083,23.0478,佛山市,华材职中,颗粒物(PM10),59,68,49,32,27,151,101,121,121,35,41,5,6,0.8,0.5
2022-05-24T20:00:00,1373A,113.144,23.0453,佛山市,南海气象局,,46,46,43,30,29,135,102,106,106,40,46,4,4,0.7,0.6
2022-05-24T20:00:00,1374A,113.2881,22.8094,佛山市,顺德苏岗,细颗粒物(PM2.5),64,39,21,46,17,159,42,126,124,53,35,5,5,1.0,0.8
2022-05-24T20:00:00,1376A,112.8383,22.8678,佛山市,高明孔堂,颗粒物(PM10),58,65,40,30,20,183,116,142,142,36,31,6,6,0.7,0.5
2022-05-24T20:00:00,1377A,112.8836,23.1588,佛山市,三水监测站,颗粒物(PM10),52,53,38,33,27,143,87,94,94,37,36,5,4,0.9,0.9
2022-05-24T20:00:00,1378A,112.867,23.185,佛山市,三水云东海,,40,40,35,19,18,155,52,92,92,20,30,4,6,0.7,0.8
2022-05-24T20:00:00,1379A,113.3769,22.5211,中山市,华柏园,,18,17,19,12,10,97,52,75,71,25,18,3,3,0.6,0.6
2022-05-24T20:00:00,1380A,113.3881,22.5497,中山市,张溪,,29,29,28,6,9,92,48,75,71,29,19,1,1,0.6,0.6
2022-05-24T20:00:00,1381A,113.4075,22.5111,中山市,紫马岭,,17,17,17,8,10,95,51,79,71,26,19,4,4,0.6,0.6
2022-05-24T20:00:00,1382A,113.4411,22.4853,中山市,长江旅游区(对照点),,15,8,13,10,9,95,48,69,67,23,15,3,3,0.5,0.5
2022-05-24T20:00:00,1383A,113.1064,22.6058,江门市,北街,,25,25,28,15,11,157,50,109,105,37,27,6,5,0.7,0.6
2022-05-24T20:00:00,1384A,113.0731,22.5835,江门市,西区,,33,33,28,16,15,163,53,113,112,33,27,4,4,0.7,0.6
2022-05-24T20:00:00,1385A,113.0219,22.5311,江门市,圭峰西,,22,19,26,15,15,148,54,98,98,28,24,4,5,0.6,0.5
2022-05-24T20:00:00,1386A,113.0828,22.5947,江门市,东湖,,30,30,32,13,13,160,56,114,112,28,22,7,5,0.6,0.5
2022-05-24T20:00:00,1389A,113.7547,23.0494,东莞市,莞城梨川,,30,30,37,15,23,140,81,127,124,29,25,8,9,0.9,0.9
2022-05-24T20:00:00,1390A,113.7944,23.0128,东莞市,东城石井,,31,31,32,16,18,139,83,127,122,26,27,6,6,0.6,0.6
2022-05-24T20:00:00,1391A,113.7383,22.9658,东莞市,南城西平,,28,28,28,17,20,138,71,122,120,34,25,4,4,0.6,0.5
2022-05-24T20:00:00,1392A,114.4183,23.0528,惠州市,河南岸金山湖子站,,28,28,28,8,16,72,45,65,63,15,10,5,3,0.7,0.6
2022-05-24T20:00:00,1393A,114.4053,23.0822,惠州市,下埔横江三路子站,,18,18,31,8,18,79,49,70,68,18,15,2,4,0.5,0.5
2022-05-24T20:00:00,1394A,114.4103,23.1142,惠州市,江北云山西路子站,,15,4,32,7,20,81,48,71,69,14,14,5,8,0.5,0.6
2022-05-24T20:00:00,1395A,114.4645,22.7833,惠州市,惠阳区承修路船湖子站,,20,20,15,11,12,72,38,68,56,22,8,3,1,0.7,0.5
2022-05-24T20:00:00,1396A,114.5317,22.7422,惠州市,大亚湾管委会子站,,19,19,19,9,11,82,51,80,60,24,20,5,5,0.5,0.4
2022-05-24T20:00:00,1397A,112.4267,23.0706,肇庆市,睦岗子站,细颗粒物(PM2.5),89,68,32,66,28,173,157,120,120,32,33,7,7,1.0,1.1
2022-05-24T20:00:00,1398A,112.4645,23.0475,肇庆市,城中子站,细颗粒物(PM2.5),75,90,36,55,25,146,133,103,103,45,35,8,8,0.9,0.8
2022-05-24T20:00:00,1399A,112.5544,23.1522,肇庆市,坑口子站,细颗粒物(PM2.5),84,66,42,62,35,192,101,124,121,20,29,4,4,0.8,0.8
2022-05-24T20:00:00,1400A,112.4753,23.1,肇庆市,七星岩子站(对照点),臭氧1小时,53,36,30,30,25,170,162,119,119,12,25,8,8,0.5,0.5
2022-05-24T20:00:00,1401A,108.3103,22.7881,南宁市,二十一中,,35,35,17,17,13,32,32,21,21,17,23,5,6,0.9,0.9
2022-05-24T20:00:00,1402A,108.3141,22.8528,南宁市,北湖,,50,50,21,21,15,42,12,29,28,30,20,8,11,1.0,0.8
2022-05-24T20:00:00,1403A,108.3206,22.8225,南宁市,市监测站,,26,26,18,12,12,31,18,21,21,42,28,8,10,1.0,0.9
2022-05-24T20:00:00,1404A,108.3829,22.8037,南宁市,大自然花园,,17,17,11,10,9,51,45,35,35,18,21,7,6,0.9,0.8
2022-05-24T20:00:00,1405A,108.4394,22.7904,南宁市,仙葫(对照点),,16,16,10,6,7,49,38,35,35,13,16,6,5,0.8,0.7
2022-05-24T20:00:00,1406A,108.2397,22.8467,南宁市,区农职院,,18,18,15,9,8,44,22,32,32,17,19,7,7,0.7,0.7
2022-05-24T20:00:00,1407A,108.3275,22.735,南宁市,英华嘉园,,27,27,16,18,10,45,34,32,32,21,23,5,5,1.0,0.8
2022-05-24T20:00:00,1408A,108.2257,22.7757,南宁市,沙井镇街道办,,31,31,16,14,9,37,14,25,25,26,25,5,6,0.8,0.8
2022-05-24T20:00:00,1409A,110.576,19.9507,海口市,东寨港(对照点),,11,11,10,4,4,30,12,19,16,2,2,6,7,0.2,0.1
2022-05-24T20:00:00,1410A,110.3232,20.0574,海口市,海南大学,,18,8,12,8,8,56,56,46,45,2,2,5,4,0.4,0.4
2022-05-24T20:00:00,1411A,110.283,20.0053,海口市,秀英海南医院,,16,16,13,8,7,48,30,46,40,13,5,3,3,0.5,0.4
2022-05-24T20:00:00,1412A,110.338,19.9969,海口市,海南师范大学,,10,10,13,4,5,43,26,40,37,5,3,1,1,0.4,0.3
2022-05-24T20:00:00,1413A,110.33,20.0356,海口市,龙华路环保局宿舍,,14,14,14,8,5,51,35,46,43,10,5,3,4,0.4,0.4
2022-05-24T20:00:00,1414A,106.3787,29.8279,重庆市,缙云山(对照点),,37,26,22,16,16,135,117,124,115,10,11,8,10,0.5,0.5
2022-05-24T20:00:00,1416A,106.4213,29.8253,重庆市,天生,,,,55,,25,130,73,103,103,24,39,6,14,0.8,0.9
2022-05-24T20:00:00,1417A,106.6263,29.7228,重庆市,两路,,41,41,32,15,13,154,72,115,115,44,50,6,7,0.7,0.7
2022-05-24T20:00:00,1418A,106.2953,29.5983,重庆市,虎溪,颗粒物(PM10),51,52,42,24,21,143,77,110,110,21,37,6,7,0.8,0.9
2022-05-24T20:00:00,1419A,106.5777,29.5102,重庆市,南坪,颗粒物(PM10),65,80,48,30,22,146,89,119,118,49,54,6,7,0.6,0.6
2022-05-24T20:00:00,1420A,106.6556,29.6277,重庆市,唐家沱,颗粒物(PM10),59,68,36,26,16,170,103,142,142,72,46,8,6,0.8,0.6
2022-05-24T20:00:00,1421A,106.6349,29.4906,重庆市,茶园,颗粒物(PM10),51,52,52,24,21,166,123,142,142,51,61,16,10,0.8,0.7
2022-05-24T20:00:00,1422A,106.3754,29.4572,重庆市,白市驿,,46,46,54,29,26,131,92,105,105,18,40,7,8,0.7,0.8
2022-05-24T20:00:00,1425A,106.6205,29.7166,重庆市,空港,,45,45,34,25,18,132,64,104,104,37,44,5,6,0.9,1
2022-05-24T20:00:00,1426A,106.4782,29.4875,重庆市,新山村,,49,49,51,25,23,121,72,105,102,60,73,11,15,1.2,1.3
2022-05-24T20:00:00,1427A,106.5616,29.6453,重庆市,礼嘉,,37,37,43,22,19,138,62,107,104,61,67,6,6,0.5,0.5
2022-05-24T20:00:00,1428A,106.4522,29.7091,重庆市,蔡家,,33,31,33,23,17,134,53,106,103,51,39,5,5,0.6,0.6
2022-05-24T20:00:00,1429A,106.5093,29.3917,重庆市,鱼新街,二氧化氮,61,52,49,27,24,148,45,115,112,122,73,16,16,1.2,1
2022-05-24T20:00:00,1431A,103.9728,30.7236,成都市,金泉两河,"颗粒物(PM10),细颗粒物(PM2.5)",52,53,67,36,49,108,95,93,93,27,30,6,4,0.6,0.6
2022-05-24T20:00:00,1432A,104.1419,30.6764,成都市,十里店,细颗粒物(PM2.5),62,47,66,44,54,97,76,75,75,33,44,6,6,0.7,0.7
2022-05-24T20:00:00,1433A,104.0594,30.5767,成都市,三瓦窑,细颗粒物(PM2.5),73,77,74,53,53,107,34,61,61,79,55,5,5,0.8,0.7
2022-05-24T20:00:00,1434A,104.1122,30.6306,成都市,沙河铺,细颗粒物(PM2.5),95,96,104,71,90,108,75,70,70,41,44,3,2,0.6,0.6
2022-05-24T20:00:00,1437A,104.0431,30.6556,成都市,君平街,细颗粒物(PM2.5),89,91,101,66,78,112,93,84,84,39,46,6,5,0.7,0.9
2022-05-24T20:00:00,1438A,103.6202,31.0201,成都市,灵岩寺(对照点),,40,24,31,28,37,160,112,106,80,3,8,1,7,0.4,0.5
2022-05-24T20:00:00,1439A,106.6899,26.5998,贵阳市,马鞍山,,,14,10,,0,76,13,53,47,21,12,4,4,0.5,0.4
2022-05-24T20:00:00,1440A,106.6971,26.5694,贵阳市,市环保站,,23,8,11,14,8,79,5,54,46,45,21,16,10,0.8,0.4
2022-05-24T20:00:00,1441A,106.6243,26.6266,贵阳市,鉴湖路,,24,24,20,5,7,74,23,57,49,25,11,1,1,0.6,0.3
2022-05-24T20:00:00,1442A,106.7487,26.6343,贵阳市,燕子冲,,14,14,16,9,13,80,31,62,56,6,7,6,6,0.6,0.5
2022-05-24T20:00:00,1443A,106.6555,26.4365,贵阳市,碧云窝,,22,22,28,14,13,72,26,55,50,13,14,5,6,0.6,0.7
2022-05-24T20:00:00,1444A,106.694,26.5161,贵阳市,中院村,,14,14,19,5,6,76,18,49,45,28,17,4,4,0.7,0.5
2022-05-24T20:00:00,1445A,106.7109,26.6027,贵阳市,红边门,,,19,20,17,10,74,11,52,44,24,22,3,3,,0.4
2022-05-24T20:00:00,1446A,106.7164,26.5699,贵阳市,新华路,,20,14,8,14,7,74,11,54,49,36,11,4,8,0.7,0.4
2022-05-24T20:00:00,1447A,106.674,26.5424,贵阳市,太慈桥,,14,14,19,5,4,80,29,56,51,17,16,4,3,0.6,0.6
2022-05-24T20:00:00,1450A,102.8204,24.8886,昆明市,呈贡新区,,20,18,13,2,3,77,61,69,69,10,12,8,7,0.6,0.6
2022-05-24T20:00:00,1451A,102.6251,24.9608,昆明市,西山森林公园(对照点),,25,6,6,2,5,117,77,90,90,4,7,8,7,0.6,0.6
2022-05-24T20:00:00,1452A,102.7252,25.0902,昆明市,龙泉镇,,25,25,19,12,11,99,51,67,67,22,20,11,9,0.7,0.6
2022-05-24T20:00:00,1453A,102.7266,25.0375,昆明市,东风东路,,16,16,17,11,11,74,50,59,58,25,26,9,6,0.7,0.5
2022-05-24T20:00:00,1454A,102.6742,25.0669,昆明市,金鼎山,,,16,24,9,14,90,58,70,70,,20,16,13,0.5,0.5
2022-05-24T20:00:00,1455A,102.6644,25.0401,昆明市,碧鸡广场,,18,9,18,6,13,103,55,74,74,28,27,8,9,0.7,0.7
2022-05-24T20:00:00,1456A,91.1319,29.6514,拉萨市,八廓街,,50,11,13,6,6,160,160,155,155,16,10,7,5,0.2,0.2
2022-05-24T20:00:00,1457A,91.1221,29.6747,拉萨市,市环保局,,,12,14,20,8,164,159,157,157,6,8,,6,,0.2
2022-05-24T20:00:00,1458A,91.0874,29.6475,拉萨市,区监测站,,45,6,12,2,2,152,141,146,146,14,9,7,7,0.2,0.3
2022-05-24T20:00:00,1459A,91.1774,29.6541,拉萨市,西藏大学,,,,,5,6,159,159,154,154,10,10,8,8,0.2,0.2
2022-05-24T20:00:00,1460A,90.9798,29.6588,拉萨市,区辐射站,,45,12,12,1,6,145,143,141,141,15,11,7,7,0.3,0.3
2022-05-24T20:00:00,1461A,91.0834,29.6292,拉萨市,拉萨火车站,,35,22,18,2,4,153,112,144,141,9,6,8,8,0.3,0.2
2022-05-24T20:00:00,1462A,108.882,34.2749,西安市,高压开关厂,颗粒物(PM10),55,60,73,29,32,231,163,195,195,24,45,7,8,0.3,0.4
2022-05-24T20:00:00,1463A,108.993,34.2629,西安市,兴庆小区,臭氧1小时,59,62,75,36,37,193,167,184,184,20,47,7,8,0.6,0.7
2022-05-24T20:00:00,1464A,109.06,34.2572,西安市,纺织城,颗粒物(PM10),57,63,80,27,33,196,122,180,177,32,48,8,9,0.5,0.5
2022-05-24T20:00:00,1465A,108.9356,34.2173,西安市,小寨,颗粒物(PM10),55,60,65,26,29,222,147,190,190,29,49,4,4,0.6,0.6
2022-05-24T20:00:00,1466A,108.954,34.2713,西安市,市人民体育场,颗粒物(PM10),57,63,75,29,33,194,158,183,183,24,43,7,8,0.4,0.4
2022-05-24T20:00:00,1467A,108.8922,34.2322,西安市,高新西区,颗粒物(PM10),51,52,72,30,32,229,151,192,192,29,52,10,9,0.6,0.6
2022-05-24T20:00:00,1468A,108.935,34.3474,西安市,经开区,颗粒物(PM10),54,58,64,31,31,190,150,178,177,24,42,6,7,0.4,0.4
2022-05-24T20:00:00,1469A,108.906,34.1546,西安市,长安区,臭氧1小时,63,58,68,30,29,270,170,210,210,21,38,9,8,0.6,0.6
2022-05-24T20:00:00,1471A,109.2186,34.3731,西安市,临潼区,颗粒物(PM10),51,52,78,26,32,191,154,182,180,14,35,5,11,0.6,0.6
2022-05-24T20:00:00,1472A,108.869,34.378,西安市,草滩(对照点),,46,46,54,25,26,192,130,171,167,26,34,15,14,0.7,0.6
2022-05-24T20:00:00,1473A,108.985,34.1978,西安市,曲江文化产业集团,颗粒物(PM10),58,65,74,31,30,211,143,188,188,31,55,6,5,0.9,0.8
2022-05-24T20:00:00,1474A,109.051,34.3213,西安市,广运潭,颗粒物(PM10),60,69,81,30,35,174,147,166,165,22,40,10,13,0.5,0.5
2022-05-24T20:00:00,1476A,103.631,36.1031,兰州市,兰炼宾馆,颗粒物(PM10),66,81,52,26,21,136,111,128,127,14,25,4,5,0.3,0.3
2022-05-24T20:00:00,1478A,103.8412,36.0726,兰州市,生物制品所,颗粒物(PM10),65,79,45,14,19,125,106,118,118,22,21,5,6,0.2,0.3
2022-05-24T20:00:00,1479A,103.831,36.0464,兰州市,铁路设计院,,47,47,39,20,17,118,104,112,112,19,29,5,6,0.6,0.5
2022-05-24T20:00:00,1483A,101.524,36.6867,西宁市,第五水厂(对照点),,46,32,36,9,13,167,146,155,155,13,13,12,12,0.5,0.6
2022-05-24T20:00:00,1484A,105.9512,38.6016,银川市,贺兰山马莲口(对照点),臭氧1小时,59,26,30,18,20,212,167,187,184,8,10,8,17,0.3,0.6
2022-05-24T20:00:00,1488A,106.2328,38.4975,银川市,贺兰山东路,,46,24,37,8,16,184,145,173,172,25,31,5,14,0.4,0.5
2022-05-24T20:00:00,1489A,106.1358,38.5036,银川市,学院路,,47,19,50,11,15,193,149,181,178,21,25,6,11,0.1,0.2
2022-05-24T20:00:00,1490A,87.5801,43.8303,乌鲁木齐市,监测站,,38,38,60,26,28,131,92,108,108,21,29,9,11,0.6,0.6
2022-05-24T20:00:00,1491A,87.6046,43.768,乌鲁木齐市,收费所,,43,43,70,20,22,129,90,108,108,25,29,8,7,0.4,0.4
2022-05-24T20:00:00,1492A,87.4754,43.9469,乌鲁木齐市,新疆农科院农场(对照点),,33,33,59,13,20,119,97,108,108,6,15,8,10,0.1,0.2
2022-05-24T20:00:00,1493A,87.5525,43.8711,乌鲁木齐市,铁路局,,47,47,57,21,24,128,91,107,107,15,28,10,12,0.6,0.6
2022-05-24T20:00:00,1494A,87.6432,43.831,乌鲁木齐市,三十一中学,,49,49,62,0,13,131,92,110,110,14,18,11,15,0.4,0.4
2022-05-24T20:00:00,1496A,87.7216,44.1747,乌鲁木齐市,米东区环保局,,36,36,59,13,19,111,98,104,104,4,14,8,11,0.2,0.2
2022-05-24T20:00:00,1508A,112.9433,27.8614,湘潭市,板塘,,24,24,33,7,19,83,57,69,67,16,15,6,8,0.8,0.8
2022-05-24T20:00:00,1511A,112.9118,27.8403,湘潭市,市监测站,,17,12,21,11,18,70,38,62,60,34,17,8,9,1.1,0.9
2022-05-24T20:00:00,1512A,112.8937,27.8728,湘潭市,江麓,,24,24,32,9,26,82,59,69,68,18,15,7,6,1.3,1
2022-05-24T20:00:00,1513A,112.9227,27.8159,湘潭市,岳塘,,18,18,29,11,18,78,51,75,70,22,16,11,9,1.0,0.8
2022-05-24T20:00:00,1514A,112.9074,27.9119,湘潭市,科大,,23,14,23,16,22,79,59,71,70,24,22,4,5,1.0,0.9
2022-05-24T20:00:00,1515A,113.135,27.8244,株洲市,天台山庄,,18,2,19,10,20,76,55,62,61,23,18,3,6,1.1,0.9
2022-05-24T20:00:00,1518A,113.095,27.8867,株洲市,株冶医院,,18,12,21,12,22,84,56,72,69,24,18,7,8,1.0,1
2022-05-24T20:00:00,1519A,113.167,27.8667,株洲市,市四中,,20,9,22,14,25,81,59,70,69,16,13,4,5,1.0,0.8
2022-05-24T20:00:00,1520A,113.143,27.8381,株洲市,火车站,,18,14,27,12,20,84,56,64,64,19,19,5,6,0.9,0.8
2022-05-24T20:00:00,1524A,113.13,27.8528,株洲市,市监测站,,19,7,27,0,18,83,59,66,66,19,16,4,6,0.8,0.7
2022-05-24T20:00:00,1552A,106.805,26.3003,贵阳市,桐木岭(对照点),,18,14,20,12,12,52,42,48,48,3,4,17,8,0.5,0.4
2022-05-24T20:00:00,1559A,113.251,27.8336,株洲市,大京风景区(对照点),,15,1,27,10,18,58,46,55,54,7,7,5,5,0.8,0.8
2022-05-24T20:00:00,1562A,113.0048,27.9153,湘潭市,昭山,,14,9,25,5,22,73,43,63,60,23,22,6,7,1.0,1
2022-05-24T20:00:00,1564A,112.4876,27.9164,湘潭市,韶山(对照点),,25,25,27,11,15,75,39,67,62,8,6,4,4,1.1,0.8
2022-05-24T20:00:00,1585A,109.8756,40.6532,包头市,市环境监测站,颗粒物(PM10),73,96,69,16,30,179,100,131,123,7,53,11,15,0.4,1
2022-05-24T20:00:00,1587A,109.9991,40.5842,包头市,包头八中,颗粒物(PM10),83,116,78,8,30,211,107,153,136,6,46,7,18,0.3,0.8
2022-05-24T20:00:00,1588A,109.8538,40.6821,包头市,青山宾馆,颗粒物(PM10),99,148,90,26,29,168,98,132,120,10,54,11,17,0.4,0.8
2022-05-24T20:00:00,1589A,109.8642,40.6288,包头市,惠龙物流,颗粒物(PM10),67,84,66,15,25,197,105,138,130,7,45,8,18,0.5,1.1
2022-05-24T20:00:00,1590A,110.0377,40.5546,包头市,东河鸿龙湾,颗粒物(PM10),78,106,72,35,31,215,102,156,135,4,40,9,17,0.3,0.7
2022-05-24T20:00:00,1591A,110.0023,39.8129,鄂尔多斯市,综合楼,颗粒物(PM10),67,84,66,22,22,172,118,163,156,16,28,11,9,0.5,0.7
2022-05-24T20:00:00,1592A,109.9486,39.8261,鄂尔多斯市,巴音孟克林场办事处,颗粒物(PM10),65,80,54,30,24,178,118,163,153,13,19,8,9,0.5,0.6
2022-05-24T20:00:00,1593A,109.7736,39.5986,鄂尔多斯市,康泽苑,颗粒物(PM10),104,158,50,24,16,184,154,175,171,15,16,7,5,0.6,0.5
2022-05-24T20:00:00,1594A,109.8119,39.5989,鄂尔多斯市,华泰汽车城,颗粒物(PM10),104,158,56,31,23,183,146,176,171,16,25,8,6,0.3,0.5
2022-05-24T20:00:00,1595A,109.9734,39.7884,鄂尔多斯市,奥林花园,,,,62,,24,174,,162,158,16,46,22,7,0.6,0.9
2022-05-24T20:00:00,1597A,122.2703,40.7094,营口市,大庆路,臭氧1小时,114,60,52,40,33,238,227,206,206,9,9,13,8,0.9,0.8
2022-05-24T20:00:00,1598A,122.215,40.6511,营口市,镜湖西路,臭氧1小时,119,61,55,39,28,252,237,224,224,16,13,14,8,0.8,0.6
2022-05-24T20:00:00,1600A,124.3303,40.0625,丹东市,江湾东路,,37,21,30,10,22,127,116,120,120,8,9,9,8,0.4,0.5
2022-05-24T20:00:00,1601A,124.4256,40.1503,丹东市,临江后街,,,,,7,15,127,112,118,118,6,6,11,11,1.2,1.3
2022-05-24T20:00:00,1602A,124.3933,40.1461,丹东市,元宝山,,35,22,33,10,22,131,110,113,113,6,7,10,11,0.7,0.9
2022-05-24T20:00:00,1603A,124.3633,40.1092,丹东市,民主桥,,36,19,29,10,19,119,114,114,114,2,7,9,10,0.8,1
2022-05-24T20:00:00,1604A,122.0303,41.1489,盘锦市,开发区,臭氧1小时,117,97,75,55,49,233,233,203,203,21,17,12,8,1.0,0.8
2022-05-24T20:00:00,1605A,122.0485,41.0883,盘锦市,兴隆台,臭氧1小时,116,111,90,59,46,231,231,204,204,22,18,11,6,1.0,0.9
2022-05-24T20:00:00,1606A,121.8297,41.1028,盘锦市,新生街道,臭氧1小时,117,104,67,66,40,260,233,207,207,29,18,14,10,1.0,0.8
2022-05-24T20:00:00,1607A,120.9092,40.7136,葫芦岛市,龙港区,臭氧1小时,87,88,57,40,39,264,189,184,184,24,15,57,9,0.9,0.6
2022-05-24T20:00:00,1608A,120.8392,40.7514,葫芦岛市,化工街,细颗粒物(PM2.5),84,101,75,62,41,236,156,186,186,22,21,11,10,0.5,0.6
2022-05-24T20:00:00,1609A,120.8341,40.7073,葫芦岛市,新区,臭氧1小时,80,99,67,29,36,257,184,190,190,21,18,14,12,0.8,0.8
2022-05-24T20:00:00,1610A,120.8695,40.7677,葫芦岛市,东城区,颗粒物(PM10),65,79,68,22,38,237,156,184,184,17,21,12,12,0.5,0.6
2022-05-24T20:00:00,1611A,118.5819,24.9117,泉州市,涂山街,,17,10,24,6,22,84,52,70,63,32,23,6,8,0.6,0.6
2022-05-24T20:00:00,1612A,118.5972,24.8978,泉州市,津头埔,,18,12,34,12,23,73,46,62,56,32,26,3,4,0.6,0.6
2022-05-24T20:00:00,1613A,118.6663,24.9424,泉州市,万安,,16,13,28,11,24,73,46,67,63,29,22,6,8,0.7,0.6
2022-05-24T20:00:00,1614A,118.6117,24.9604,泉州市,清源山(对照点),,17,4,18,3,16,69,54,60,57,23,16,6,7,0.6,0.6
2022-05-24T20:00:00,1616A,117.6795,36.229,济南市,技术学院,臭氧1小时,97,66,67,30,31,225,197,217,215,14,20,16,16,0.7,0.8
2022-05-24T20:00:00,1618A,118.3429,35.0532,临沂市,沂河小区,,41,41,54,14,26,182,119,163,157,7,12,10,12,0.3,0.4
2022-05-24T20:00:00,1619A,118.295,35.0583,临沂市,鲁南制药厂,,40,39,54,12,26,196,125,178,171,16,22,11,13,0.4,0.5
2022-05-24T20:00:00,1620A,118.2794,34.9976,临沂市,新光毛纺厂,,,,68,17,28,185,119,166,158,3,15,6,10,0.4,0.5
2022-05-24T20:00:00,1621A,118.3956,35.0888,临沂市,河东保险公司,,39,34,52,14,27,181,122,164,157,13,22,4,11,0.0,0.1
2022-05-24T20:00:00,1622A,116.3032,37.4674,德州市,儿童乐园,颗粒物(PM10),60,70,92,33,38,200,158,191,186,14,18,7,11,0.6,0.9
2022-05-24T20:00:00,1624A,116.2991,37.4451,德州市,监理站,颗粒物(PM10),79,107,91,38,41,191,147,183,176,15,18,16,19,0.4,0.6
2022-05-24T20:00:00,1625A,115.9848,36.4372,聊城市,区政府,颗粒物(PM10),58,66,82,29,32,175,141,167,163,13,36,9,20,0.7,0.7
2022-05-24T20:00:00,1628A,118.0062,37.3803,滨州市,市环保局,臭氧1小时,98,84,90,41,46,266,198,253,241,18,24,9,17,0.3,0.5
2022-05-24T20:00:00,1629A,118.0018,37.3617,滨州市,第二水厂,颗粒物(PM10),78,106,93,39,38,218,145,207,194,34,32,9,15,0.6,0.7
2022-05-24T20:00:00,1630A,117.9776,37.393,滨州市,北中新校,颗粒物(PM10),59,67,72,35,42,241,156,227,215,38,29,11,16,0.7,0.7
2022-05-24T20:00:00,1631A,118.0414,36.8103,淄博市,人民公园,臭氧1小时,62,51,63,37,30,220,169,208,196,20,17,6,10,0.4,0.5
2022-05-24T20:00:00,1633A,117.8525,36.4847,淄博市,双山,臭氧1小时,99,57,57,36,39,216,199,209,207,11,16,11,16,0.5,0.5
2022-05-24T20:00:00,1634A,117.9592,36.6331,淄博市,气象站,臭氧1小时,70,81,70,34,35,209,176,199,194,26,17,12,14,0.4,0.4
2022-05-24T20:00:00,1635A,118.3092,36.8194,淄博市,莆田园,颗粒物(PM10),60,70,72,29,32,227,154,213,199,31,22,12,14,0.2,0.6
2022-05-24T20:00:00,1637A,117.558,34.8438,枣庄市,市中区政府,臭氧1小时,88,58,63,19,25,209,190,202,202,21,25,9,12,0.3,0.4
2022-05-24T20:00:00,1638A,117.2852,34.7837,枣庄市,薛城环保局,颗粒物(PM10),69,88,72,29,31,213,160,199,197,30,22,12,12,0.6,0.7
2022-05-24T20:00:00,1639A,117.5852,34.7745,枣庄市,峄城区政府,颗粒物(PM10),60,70,65,12,21,197,154,183,182,25,24,8,9,0.6,0.5
2022-05-24T20:00:00,1640A,117.7276,34.5578,枣庄市,台儿庄区环保局,颗粒物(PM10),52,53,47,17,17,192,149,173,173,20,22,8,9,0.8,0.8
2022-05-24T20:00:00,1641A,117.4518,35.0992,枣庄市,山亭区环保局,颗粒物(PM10),58,66,56,29,32,203,161,190,188,20,18,9,14,0.6,0.6
2022-05-24T20:00:00,1642A,121.2514,37.5639,烟台市,开发区,,37,29,52,7,18,195,117,174,154,8,10,4,7,0.3,0.4
2022-05-24T20:00:00,1643A,121.3719,37.5433,烟台市,轴承厂,,39,31,41,15,19,184,124,170,153,5,8,4,5,0.4,0.5
2022-05-24T20:00:00,1644A,121.3181,37.5436,烟台市,西郊化工站,,36,24,42,12,15,175,114,157,142,9,11,6,8,0.5,0.5
2022-05-24T20:00:00,1645A,121.4478,37.4822,烟台市,莱山环保局,,36,22,43,11,15,182,114,163,149,9,10,5,6,0.3,0.3
2022-05-24T20:00:00,1646A,121.2611,37.4967,烟台市,福山环保局,,37,29,45,14,17,184,116,164,147,1,5,7,9,0.5,0.6
2022-05-24T20:00:00,1650A,119.1437,36.7023,潍坊市,环保局,,39,39,69,7,33,215,116,200,170,13,16,7,8,0.6,0.6
2022-05-24T20:00:00,1653A,116.6251,35.4302,济宁市,火炬城,臭氧1小时,78,70,67,31,32,204,182,195,195,14,15,12,14,0.8,0.8
2022-05-24T20:00:00,1655A,116.5491,35.4042,济宁市,电化厂,臭氧1小时,98,69,68,29,31,210,198,200,200,5,12,4,7,0.8,0.9
2022-05-24T20:00:00,1656A,117.1437,36.1937,泰安市,监测站,臭氧1小时,80,66,70,34,39,212,184,206,203,13,17,9,13,0.4,0.5
2022-05-24T20:00:00,1657A,117.0885,36.2017,泰安市,人口学校,臭氧1小时,84,66,66,28,31,207,187,203,201,21,19,8,12,0.3,0.3
2022-05-24T20:00:00,1658A,117.1089,36.1758,泰安市,电力学校,颗粒物(PM10),69,88,70,31,35,198,161,195,190,20,19,8,12,0.9,0.9
2022-05-24T20:00:00,1659A,119.471,35.4209,日照市,监测站,,29,27,46,20,23,129,79,114,103,23,25,12,11,0.3,0.5
2022-05-24T20:00:00,1660A,119.523,35.4216,日照市,市政府广场,,32,27,50,9,19,142,101,120,116,9,27,5,10,0.4,0.6
2022-05-24T20:00:00,1661A,119.5587,35.4044,日照市,港务局,,35,19,51,6,18,141,109,126,123,3,21,4,6,0.4,0.5
2022-05-24T20:00:00,1662A,122.1214,37.4236,威海市,华夏技校,,34,22,33,12,14,137,106,133,127,9,7,4,4,0.4,0.3
2022-05-24T20:00:00,1663A,122.0508,37.5236,威海市,山大分校,,38,29,34,2,10,163,119,149,143,8,9,5,6,0.2,0.2
2022-05-24T20:00:00,1664A,122.1067,37.5072,威海市,市监测站,,38,22,32,8,14,155,119,146,140,8,7,6,7,0.2,0.2
2022-05-24T20:00:00,1666A,118.6614,37.4309,东营市,市环保局,颗粒物(PM10),64,78,65,12,33,261,140,252,228,13,19,8,17,0.4,0.7
2022-05-24T20:00:00,1669A,113.5824,24.7733,韶关市,市八中,,,,19,,16,88,21,62,60,11,13,8,9,,0.7
2022-05-24T20:00:00,1671A,113.5917,24.7972,韶关市,园林处,,32,32,18,16,11,96,11,60,55,10,10,9,8,0.5,0.5
2022-05-24T20:00:00,1672A,113.6735,24.7791,韶关市,韶关学院,,29,16,14,20,15,70,34,64,59,13,14,12,8,0.5,0.5
2022-05-24T20:00:00,1673A,113.5971,24.6863,韶关市,曲江监测站,,35,35,24,24,24,72,36,58,58,14,20,7,9,0.7,0.8
2022-05-24T20:00:00,1674A,116.6794,23.3667,汕头市,金平子站,,19,18,20,10,12,116,58,87,68,16,10,8,8,0.7,0.6
2022-05-24T20:00:00,1675A,116.7244,23.3633,汕头市,龙湖子站,,20,14,18,8,10,108,61,86,72,17,12,6,6,0.7,0.6
2022-05-24T20:00:00,1676A,116.7258,23.2775,汕头市,濠江子站,,20,11,12,8,11,103,64,86,72,13,8,8,8,0.7,0.5
2022-05-24T20:00:00,1677A,116.7519,23.4714,汕头市,澄海子站,,19,15,18,11,13,112,59,80,68,22,16,5,6,0.8,0.7
2022-05-24T20:00:00,1678A,116.6092,23.2539,汕头市,潮阳子站,,19,14,16,9,15,112,58,92,65,18,13,8,7,0.6,0.5
2022-05-24T20:00:00,1680A,110.3539,21.2706,湛江市,湛江影剧院,,20,4,17,6,6,64,64,55,55,4,4,5,4,0.4,0.3
2022-05-24T20:00:00,1681A,110.3928,21.2228,湛江市,市环境监测站,,24,9,16,6,7,76,76,67,67,3,3,4,4,0.4,0.4
2022-05-24T20:00:00,1682A,110.4019,21.1997,湛江市,环保局宿舍,,23,13,16,8,8,72,72,64,64,3,3,3,3,0.4,0.4
2022-05-24T20:00:00,1683A,110.4111,21.2028,湛江市,霞山游泳场,,22,9,16,7,8,71,70,63,63,6,4,5,5,0.5,0.4
2022-05-24T20:00:00,1684A,110.3316,21.2679,湛江市,麻章区环保局,,20,8,15,7,7,61,61,55,55,5,4,4,4,0.5,0.4
2022-05-24T20:00:00,1685A,110.4558,21.2567,湛江市,坡头区环保局,,25,9,15,8,8,82,79,69,69,4,3,5,5,0.7,0.6
2022-05-24T20:00:00,1686A,111.0286,21.4688,茂名市,电白南海,,21,12,21,5,8,67,67,63,63,14,10,4,4,0.5,0.5
2022-05-24T20:00:00,1687A,110.9294,21.6533,茂名市,茂石化七小,,19,19,20,7,12,58,58,55,55,9,8,6,7,0.5,0.5
2022-05-24T20:00:00,1688A,110.9107,21.6687,茂名市,健康路,,18,9,12,1,4,56,56,52,52,8,6,5,6,0.6,0.6
2022-05-24T20:00:00,1689A,110.8592,21.6828,茂名市,高岭,,16,7,6,2,5,58,51,52,52,11,10,6,8,0.6,0.5
2022-05-24T20:00:00,1690A,116.1231,24.3284,梅州市,梅江月梅,,15,4,27,6,18,58,48,50,49,10,18,1,4,0.5,0.6
2022-05-24T20:00:00,1691A,116.0797,24.2719,梅州市,梅县新城,,,6,26,,17,79,44,63,59,21,21,4,6,0.7,0.7
2022-05-24T20:00:00,1692A,116.1248,24.2654,梅州市,环境监控中心,,13,4,28,7,20,63,40,55,53,24,18,4,6,0.6,0.6
2022-05-24T20:00:00,1693A,115.3653,22.775,汕尾市,市环保局,,19,11,15,6,9,103,58,96,67,14,9,4,7,0.6,0.6
2022-05-24T20:00:00,1694A,115.3706,22.7898,汕尾市,市政府,,21,15,17,3,13,102,67,100,65,11,11,6,6,0.6,0.6
2022-05-24T20:00:00,1695A,115.3622,22.7925,汕尾市,新城中学,,22,10,15,5,9,101,70,96,71,6,6,6,6,0.6,0.6
2022-05-24T20:00:00,1696A,114.6778,23.7569,河源市,源西(对照点),,11,6,23,6,12,82,34,66,62,13,5,3,4,0.7,0.5
2022-05-24T20:00:00,1697A,114.6944,23.7586,河源市,东埔,,12,2,21,6,12,82,37,71,59,16,13,3,3,0.9,0.7
2022-05-24T20:00:00,1698A,114.6892,23.7233,河源市,老城,,14,8,22,5,14,84,43,67,64,16,14,2,2,0.8,0.7
2022-05-24T20:00:00,1699A,111.9797,21.8593,阳江市,鸳鸯湖(对照点),,10,10,17,6,11,76,30,65,60,16,6,7,8,0.7,0.6
2022-05-24T20:00:00,1701A,111.9491,21.8658,阳江市,马南垌,,13,13,20,8,14,76,29,61,58,22,7,6,6,0.7,0.5
2022-05-24T20:00:00,1702A,113.0426,23.691,清远市,环保大楼(对照点),,20,13,12,10,9,113,62,89,89,11,12,2,2,0.6,0.6
2022-05-24T20:00:00,1703A,113.0208,23.7106,清远市,凤城街办,,25,25,17,14,11,101,53,78,78,16,14,4,4,1.0,0.9
2022-05-24T20:00:00,1705A,116.6367,23.6719,潮州市,西园路(对照点),,27,27,27,16,21,91,36,85,54,26,17,6,6,1.1,0.8
2022-05-24T20:00:00,1706A,116.6447,23.6706,潮州市,档案局,,32,24,30,22,21,96,36,94,56,28,17,11,11,1.0,0.8
2022-05-24T20:00:00,1708A,116.3701,23.5345,揭阳市,新兴,,29,29,43,19,23,100,56,94,80,20,15,7,8,0.9,0.8
2022-05-24T20:00:00,1709A,116.3264,23.5443,揭阳市,西马,,30,30,31,12,20,100,53,94,83,22,13,5,6,1.0,0.8
2022-05-24T20:00:00,1710A,116.3611,23.5626,揭阳市,东兴,,32,32,37,11,19,96,55,87,78,21,13,6,6,0.8,0.7
2022-05-24T20:00:00,1711A,116.4151,23.5294,揭阳市,渔湖,,29,22,28,20,14,96,47,86,74,22,15,6,7,0.7,0.6
2022-05-24T20:00:00,1714A,112.0539,22.9539,云浮市,牧羊,,43,43,36,20,25,114,81,81,81,18,24,10,10,0.5,0.6
2022-05-24T20:00:00,1715A,102.575,24.3711,玉溪市,东风水库,,22,15,9,3,4,74,69,65,65,6,7,7,7,0.6,0.6
2022-05-24T20:00:00,1718A,115.4208,35.2464,菏泽市,气象局,颗粒物(PM10),62,73,74,38,37,180,156,174,174,14,17,11,13,0.5,0.5
2022-05-24T20:00:00,1719A,115.4747,35.2375,菏泽市,市政协,颗粒物(PM10),59,68,76,30,31,175,157,169,169,12,16,8,13,0.3,0.3
2022-05-24T20:00:00,1721A,113.3819,40.1097,大同市,果树场(对照点),,40,40,85,20,37,176,99,147,131,5,31,10,18,0.4,0.7
2022-05-24T20:00:00,1723A,113.2994,40.0758,大同市,云冈宾馆,颗粒物(PM10),64,78,111,18,38,169,92,136,126,13,38,7,14,0.5,0.8
2022-05-24T20:00:00,1724A,113.3444,40.0917,大同市,大同大学,颗粒物(PM10),57,64,101,20,31,178,87,148,132,16,36,8,17,0.2,0.5
2022-05-24T20:00:00,1725A,113.2661,40.1269,大同市,安家小村,颗粒物(PM10),59,67,103,23,29,175,99,143,133,10,29,14,23,0.4,0.9
2022-05-24T20:00:00,1726A,113.2711,40.0844,大同市,教育学院,颗粒物(PM10),62,73,98,21,29,169,90,141,128,15,35,10,20,0.3,0.6
2022-05-24T20:00:00,1727A,113.1147,36.1547,长治市,清华站,臭氧1小时,63,47,47,27,31,200,170,191,191,15,23,11,13,0.5,0.5
2022-05-24T20:00:00,1728A,113.1031,36.1989,长治市,监测站,臭氧1小时,72,56,56,27,35,201,177,197,194,11,25,10,14,0.8,0.9
2022-05-24T20:00:00,1730A,113.0886,36.2125,长治市,审计局,臭氧1小时,68,50,46,34,35,204,174,196,196,21,26,9,25,1.3,1.2
2022-05-24T20:00:00,1731A,113.0844,36.1856,长治市,长治八中,臭氧1小时,68,62,54,17,27,198,174,191,191,21,29,9,14,0.8,0.8
2022-05-24T20:00:00,1733A,111.5531,36.0783,临汾市,临钢医院,,44,44,48,30,26,201,140,197,190,41,26,4,6,0.8,0.7
2022-05-24T20:00:00,1734A,111.5028,36.0714,临汾市,技工学校,,47,44,41,26,30,200,148,188,185,27,22,6,8,0.8,0.7
2022-05-24T20:00:00,1736A,111.5018,36.0855,临汾市,市委,,49,41,43,23,26,220,154,204,201,40,25,13,16,0.7,0.7
2022-05-24T20:00:00,1738A,113.5758,37.8572,阳泉市,市中心,颗粒物(PM10),51,52,60,17,28,208,149,194,191,32,44,30,14,0.9,0.8
2022-05-24T20:00:00,1739A,113.4894,37.8731,阳泉市,赛鱼,二氧化氮,83,34,37,18,23,210,17,185,158,165,58,16,12,0.8,0.8
2022-05-24T20:00:00,1740A,113.5819,37.8486,阳泉市,南庄,颗粒物(PM10),55,60,61,33,27,208,154,193,192,38,37,40,12,0.8,0.8
2022-05-24T20:00:00,1742A,113.5614,37.8703,阳泉市,平坦,颗粒物(PM10),55,60,60,33,27,199,162,188,188,29,48,29,13,0.8,0.9
2022-05-24T20:00:00,1743A,113.5158,37.8392,阳泉市,大阳泉,臭氧1小时,87,8,40,23,28,203,189,192,192,23,24,19,12,0.5,0.6
2022-05-24T20:00:00,1744A,118.9233,42.2816,赤峰市,松山一中,颗粒物(PM10),62,73,47,10,15,163,58,152,101,20,25,9,10,0.7,0.8
2022-05-24T20:00:00,1745A,118.9576,42.2728,赤峰市,哈达街,颗粒物(PM10),66,81,46,18,15,152,52,145,96,23,23,8,12,0.7,0.7
2022-05-24T20:00:00,1746A,118.8788,42.2554,赤峰市,天义路,颗粒物(PM10),56,62,44,13,15,165,60,158,103,19,17,9,12,0.5,0.6
2022-05-24T20:00:00,1748A,123.044,41.1196,鞍山市,深沟寺,,50,48,67,20,30,198,159,181,159,8,13,8,12,0.6,0.9
2022-05-24T20:00:00,1749A,123.011,41.0931,鞍山市,太阳城,,49,45,68,20,32,188,154,170,152,12,15,8,10,0.6,0.8
2022-05-24T20:00:00,1750A,123.0485,41.1442,鞍山市,太平,,48,43,67,22,34,189,152,172,153,7,15,10,16,0.7,1.2
2022-05-24T20:00:00,1751A,122.9642,41.0971,鞍山市,铁西三道街,颗粒物(PM10),59,67,87,26,37,177,147,156,153,15,20,7,12,0.8,1.2
2022-05-24T20:00:00,1752A,122.9341,41.0833,鞍山市,铁西工业园区,颗粒物(PM10),53,56,78,20,36,187,148,164,160,12,13,11,12,0.7,0.9
2022-05-24T20:00:00,1753A,123.022,41.0821,鞍山市,明达新区,,50,43,62,22,33,196,160,183,155,8,13,6,8,0.4,0.7
2022-05-24T20:00:00,1754A,123.1289,41.0228,鞍山市,千山(对照点),,34,30,34,21,26,135,108,131,123,7,7,10,10,0.4,0.5
2022-05-24T20:00:00,1755A,123.7977,41.8491,抚顺市,望花区,颗粒物(PM10),65,80,99,20,41,183,124,170,154,10,20,5,13,0.5,0.9
2022-05-24T20:00:00,1756A,123.9161,41.8822,抚顺市,顺城区,,46,46,86,18,35,176,113,162,143,12,20,7,15,0.3,0.8
2022-05-24T20:00:00,1757A,124.0436,41.8611,抚顺市,东洲区,,43,43,68,20,48,204,135,188,171,6,13,6,9,0.6,0.9
2022-05-24T20:00:00,1758A,123.9247,41.8642,抚顺市,新抚区,,41,41,84,15,36,185,118,172,152,13,20,5,10,0.2,0.6
2022-05-24T20:00:00,1759A,124.0972,41.8961,抚顺市,大伙房水库,,49,49,82,18,37,223,147,209,185,2,7,9,10,0.4,0.7
2022-05-24T20:00:00,1760A,123.7086,41.8391,抚顺市,沈抚新城,颗粒物(PM10),59,68,78,21,37,200,111,182,165,21,22,12,14,0.4,0.7
2022-05-24T20:00:00,1761A,123.8275,41.3064,本溪市,大峪,,48,40,42,14,13,152,152,147,147,9,8,7,6,0.6,0.5
2022-05-24T20:00:00,1762A,123.7567,41.3325,本溪市,溪湖,,49,49,64,20,30,170,124,153,137,11,21,6,11,0.6,1
2022-05-24T20:00:00,1763A,123.7169,41.3094,本溪市,彩屯,颗粒物(PM10),62,74,82,38,50,138,85,130,115,56,43,45,27,3.0,2.6
2022-05-24T20:00:00,1764A,123.7669,41.2864,本溪市,东明,颗粒物(PM10),52,53,65,20,27,189,131,178,133,10,10,9,10,0.5,0.7
2022-05-24T20:00:00,1765A,123.7992,41.2664,本溪市,新立屯,,45,33,62,19,30,191,141,183,140,4,5,6,7,0.7,0.9
2022-05-24T20:00:00,1766A,123.8142,41.3472,本溪市,威宁,,37,37,65,17,32,143,107,134,118,6,15,10,11,0.5,0.6
2022-05-24T20:00:00,1767A,121.1115,41.0879,锦州市,南山,颗粒物(PM10),71,92,86,35,53,194,125,170,168,12,24,8,19,1.0,1.1
2022-05-24T20:00:00,1768A,121.0533,40.8434,锦州市,开发区,颗粒物(PM10),129,207,150,57,53,233,160,159,159,19,33,15,16,1.1,1
2022-05-24T20:00:00,1769A,121.1836,41.1119,锦州市,百股街道,颗粒物(PM10),72,94,71,51,46,202,153,174,174,18,41,8,13,0.9,0.9
2022-05-24T20:00:00,1770A,121.1178,41.1222,锦州市,天安街道,颗粒物(PM10),175,299,129,34,58,202,134,182,180,17,37,6,20,1.1,1.3
2022-05-24T20:00:00,1771A,121.1303,41.1386,锦州市,北湖公园,颗粒物(PM10),70,90,89,36,47,208,128,208,180,13,24,9,18,1.1,1
2022-05-24T20:00:00,1772A,126.54,43.8622,吉林市,哈达湾,,36,36,61,12,35,211,67,179,147,20,12,9,7,0.7,0.9
2022-05-24T20:00:00,1773A,126.5844,43.8358,吉林市,东局子,,37,37,64,15,33,188,52,177,145,29,18,7,8,0.8,0.8
2022-05-24T20:00:00,1774A,126.5052,43.8245,吉林市,电力学院,,42,42,62,14,33,207,64,192,158,25,16,19,14,0.8,0.8
2022-05-24T20:00:00,1775A,126.6133,43.8972,吉林市,江北,,34,34,60,13,34,185,63,168,141,13,14,8,12,0.6,0.8
2022-05-24T20:00:00,1776A,126.555,43.8306,吉林市,江南公园,,38,38,63,17,33,191,54,175,143,28,14,9,8,0.9,0.8
2022-05-24T20:00:00,1778A,126.7061,43.7133,吉林市,丰满(对照点),颗粒物(PM10),52,54,71,31,37,214,88,186,137,12,6,5,7,0.9,1
2022-05-24T20:00:00,1779A,123.9305,47.3636,齐齐哈尔市,安居小区,,21,21,21,5,8,88,34,67,45,19,14,4,3,0.7,0.6
2022-05-24T20:00:00,1780A,123.9488,47.3386,齐齐哈尔市,中心广场,,12,12,15,6,5,94,35,73,42,18,15,4,4,0.5,0.4
2022-05-24T20:00:00,1781A,123.9483,47.3227,齐齐哈尔市,农牧车辆厂,,24,24,21,13,7,97,33,76,43,19,13,3,3,0.2,0.2
2022-05-24T20:00:00,1783A,123.945,47.2988,齐齐哈尔市,市环境监测站,,23,23,20,11,23,99,32,81,45,21,14,4,4,0.6,0.6
2022-05-24T20:00:00,1784A,129.61,44.561,牡丹江市,环保大楼,,40,40,44,19,14,160,92,144,124,16,12,4,4,0.6,0.6
2022-05-24T20:00:00,1785A,129.6115,44.5782,牡丹江市,文化广场,,35,29,26,24,18,150,74,131,105,20,16,6,6,0.6,0.5
2022-05-24T20:00:00,1786A,129.5904,44.5963,牡丹江市,第一医院,,30,21,24,21,18,137,73,119,97,14,13,6,5,0.8,0.8
2022-05-24T20:00:00,1787A,129.6364,44.6075,牡丹江市,机车工厂,,34,34,34,18,15,146,64,130,102,18,17,10,12,0.4,0.4
2022-05-24T20:00:00,1788A,129.6386,44.5462,牡丹江市,第一中学,,35,35,33,19,13,141,80,127,104,12,14,6,5,0.6,0.5
2022-05-24T20:00:00,1789A,124.81117,46.03138,大庆市,大同区,,18,7,29,5,8,88,56,74,65,8,8,3,4,0.3,0.5
2022-05-24T20:00:00,1790A,125.129,46.533,大庆市,龙凤区,,14,12,23,7,10,84,36,82,43,27,14,3,4,0.3,0.2
2022-05-24T20:00:00,1791A,124.902,46.408,大庆市,红岗区,,17,17,20,5,10,91,52,76,51,9,10,6,4,0.3,0.3
2022-05-24T20:00:00,1792A,125.153,46.586,大庆市,萨尔图区,,16,15,15,11,8,88,36,87,36,21,12,5,5,0.3,0.3
2022-05-24T20:00:00,1793A,124.9042,46.6215,大庆市,让胡路区,,26,15,20,18,23,105,55,88,48,12,12,14,15,0.3,0.3
2022-05-24T20:00:00,1794A,118.3606,31.3519,芜湖市,监测站,,40,33,23,21,15,140,128,132,132,26,17,7,7,0.5,0.4
2022-05-24T20:00:00,1795A,118.3714,31.4134,芜湖市,科创中心,,40,33,24,25,16,142,128,136,136,23,13,6,6,0.6,0.5
2022-05-24T20:00:00,1796A,118.3673,31.3131,芜湖市,四水厂,,42,32,27,19,16,145,132,138,138,23,16,6,7,0.6,0.5
2022-05-24T20:00:00,1798A,118.5092,31.6837,马鞍山市,湖东路四小,,42,35,26,15,16,148,132,141,141,18,12,3,3,0.4,0.4
2022-05-24T20:00:00,1799A,118.5024,31.6449,马鞍山市,开发区,,44,44,32,20,16,143,106,135,133,28,18,9,8,0.8,0.7
2022-05-24T20:00:00,1800A,118.5228,31.7231,马鞍山市,慈湖,颗粒物(PM10),55,59,33,20,16,131,103,123,122,32,15,33,14,0.5,0.5
2022-05-24T20:00:00,1802A,118.6245,31.7241,马鞍山市,濮塘(对照点),,35,27,25,21,12,124,112,118,118,7,6,8,8,0.5,0.5
2022-05-24T20:00:00,1803A,115.9872,29.6815,九江市,十里,,36,36,23,22,15,108,77,98,96,28,21,5,5,0.6,0.5
2022-05-24T20:00:00,1804A,115.9584,29.7046,九江市,茅山头,,28,21,21,19,12,113,89,102,102,16,19,3,4,0.6,0.5
2022-05-24T20:00:00,1805A,115.9877,29.7295,九江市,西园,,30,30,27,11,14,107,74,99,95,28,24,7,8,0.8,0.6
2022-05-24T20:00:00,1806A,116.0172,29.6547,九江市,五七二七厂,,29,22,17,3,5,108,90,100,100,3,4,5,5,0.6,0.4
2022-05-24T20:00:00,1808A,115.9114,29.6038,九江市,综合工业园,,38,38,25,17,12,131,66,112,108,15,21,6,6,0.7,0.6
2022-05-24T20:00:00,1809A,116.0721,29.7535,九江市,石化总厂,,25,19,22,8,13,117,80,110,105,25,13,10,9,0.6,0.5
2022-05-24T20:00:00,1810A,115.9773,29.5698,九江市,庐山气象台(对照点),,30,14,13,11,9,104,94,99,99,5,3,7,9,0.4,0.5
2022-05-24T20:00:00,1812A,112.3931,34.6516,洛阳市,市委党校,颗粒物(PM10),52,53,52,25,25,188,146,178,172,9,17,2,6,0.5,0.6
2022-05-24T20:00:00,1814A,112.4657,34.6871,洛阳市,豫西宾馆,颗粒物(PM10),51,52,59,26,28,212,159,189,188,12,21,6,4,0.5,0.6
2022-05-24T20:00:00,1815A,112.494,34.6886,洛阳市,河南林校,臭氧1小时,55,58,56,24,25,218,164,196,195,15,22,10,8,0.3,0.3
2022-05-24T20:00:00,1816A,112.3844,34.623,洛阳市,开发区管委会,颗粒物(PM10),52,53,50,24,28,217,159,199,197,17,14,13,8,0.4,0.3
2022-05-24T20:00:00,1817A,112.4267,34.6258,洛阳市,市委新办公区,臭氧1小时,58,47,51,24,26,209,166,194,192,13,15,9,8,0.4,0.4
2022-05-24T20:00:00,1818A,114.4839,36.0621,安阳市,棉研所(对照点),颗粒物(PM10),63,76,73,29,31,163,128,156,153,20,26,6,8,0.6,1
2022-05-24T20:00:00,1819A,114.3551,36.1017,安阳市,红庙街,颗粒物(PM10),57,64,75,19,34,180,152,173,171,18,28,10,13,0.4,1.2
2022-05-24T20:00:00,1820A,114.361,36.0681,安阳市,银杏小区,,,69,77,,,189,157,180,178,17,30,8,10,0.6,1.2
2022-05-24T20:00:00,1824A,114.3389,34.7781,开封市,肿瘤医院,颗粒物(PM10),60,70,76,29,34,176,154,174,171,12,19,6,12,0.6,0.7
2022-05-24T20:00:00,1826A,114.2885,34.7965,开封市,世纪星幼儿园,颗粒物(PM10),58,65,65,34,28,180,164,178,176,13,15,4,11,0.7,0.7
2022-05-24T20:00:00,1828A,113.2269,35.2127,焦作市,市环保局,臭氧1小时,75,52,57,24,30,205,180,193,193,20,20,5,8,0.4,0.5
2022-05-24T20:00:00,1829A,113.2467,35.176,焦作市,高新区政府,颗粒物(PM10),67,84,80,19,31,176,157,168,168,31,19,8,14,0.3,0.5
2022-05-24T20:00:00,1830A,113.1987,35.2703,焦作市,影视城(对照点),臭氧1小时,70,46,40,27,25,191,176,185,185,9,10,7,9,0.4,0.5
2022-05-24T20:00:00,1832A,113.3257,33.742,平顶山市,新华旅馆,颗粒物(PM10),51,51,54,22,27,160,141,157,155,15,11,3,2,0.2,0.2
2022-05-24T20:00:00,1833A,113.2919,33.737,平顶山市,规划设计院,颗粒物(PM10),51,51,42,16,19,159,135,154,152,20,16,5,5,0.5,0.4
2022-05-24T20:00:00,1834A,113.182,33.774,平顶山市,平顶山工学院,,45,41,45,23,27,155,143,150,150,10,8,3,3,0.4,0.4
2022-05-24T20:00:00,1835A,111.1922,34.7752,三门峡市,市政府,,43,40,53,22,28,202,137,172,167,19,22,7,11,0.5,0.5
2022-05-24T20:00:00,1836A,111.1587,34.7942,三门峡市,开发区,颗粒物(PM10),52,54,60,27,28,188,123,167,160,20,12,4,8,0.6,0.6
2022-05-24T20:00:00,1838A,111.143,34.7955,三门峡市,风景区(对照点),,44,44,54,20,26,192,134,173,167,14,10,3,7,0.5,0.6
2022-05-24T20:00:00,1840A,111.2992,30.6981,宜昌市,白龙岗,颗粒物(PM10),53,56,48,31,29,201,121,178,176,46,26,11,8,0.5,0.4
2022-05-24T20:00:00,1841A,111.3549,30.6465,宜昌市,伍家岗,颗粒物(PM10),51,52,50,34,33,192,116,167,166,38,32,7,6,0.5,0.5
2022-05-24T20:00:00,1842A,111.2628,30.6961,宜昌市,点军区,颗粒物(PM10),56,62,52,34,36,191,157,176,176,26,24,7,6,0.4,0.3
2022-05-24T20:00:00,1843A,111.3275,30.7819,宜昌市,夷陵区,颗粒物(PM10),53,56,48,31,28,178,136,160,160,33,18,7,7,0.5,0.3
2022-05-24T20:00:00,1844A,112.2494,30.3197,荆州市,市图书馆,,46,46,55,24,39,185,115,165,158,26,27,7,8,0.6,0.6
2022-05-24T20:00:00,1845A,112.2008,30.3544,荆州市,市委党校,,40,40,53,25,34,191,117,164,159,26,29,10,12,0.6,0.7
2022-05-24T20:00:00,1847A,113.1094,29.3578,岳阳市,南湖风景区,,45,45,48,31,32,166,133,152,152,15,28,8,10,0.8,0.9
2022-05-24T20:00:00,1848A,113.1493,29.4251,岳阳市,城陵矶,,37,37,52,23,31,146,107,126,125,42,44,9,12,0.7,0.7
2022-05-24T20:00:00,1849A,113.1497,29.3575,岳阳市,开发区,颗粒物(PM10),52,54,49,27,31,166,146,157,157,10,22,7,8,0.8,0.8
2022-05-24T20:00:00,1850A,113.2621,29.4758,岳阳市,云溪区,,48,28,40,24,29,161,152,153,153,22,15,9,12,0.9,0.9
2022-05-24T20:00:00,1851A,112.9943,29.4402,岳阳市,君山区,,47,36,40,25,32,151,150,146,146,8,13,5,6,0.9,0.9
2022-05-24T20:00:00,1852A,113.2117,29.355,岳阳市,金凤水库(对照点),,39,31,39,27,30,155,122,147,145,16,9,8,10,1.0,1
2022-05-24T20:00:00,1854A,111.6975,28.9703,常德市,市二中,,38,33,45,26,29,130,105,120,118,7,18,7,8,0.7,0.7
2022-05-24T20:00:00,1857A,111.7158,29.1456,常德市,白鹤山(对照点),,33,33,39,23,33,118,73,108,106,4,4,5,6,0.5,0.6
2022-05-24T20:00:00,1858A,110.5319,29.1217,张家界市,永定新区,,,39,29,38,25,118,,115,115,7,12,2,2,0.4,0.6
2022-05-24T20:00:00,1859A,110.4697,29.1242,张家界市,电业局,,38,27,24,26,19,115,101,109,107,7,10,2,2,0.3,0.2
2022-05-24T20:00:00,1860A,110.5594,29.3547,张家界市,未央路,,45,32,28,31,16,110,70,105,99,6,5,3,2,0.4,0.3
2022-05-24T20:00:00,1861A,110.4417,29.315,张家界市,袁家界(对照点),,43,34,27,10,20,140,136,133,133,8,6,8,8,0.2,0.2
2022-05-24T20:00:00,1862A,110.4144,25.3167,桂林市,电子科大尧山校区(对照点),,,17,12,14,6,69,48,59,57,,4,27,6,0.7,0.8
2022-05-24T20:00:00,1863A,110.2819,25.2697,桂林市,监测站,,23,23,12,3,5,63,45,62,56,16,12,2,3,0.9,0.8
2022-05-24T20:00:00,1864A,110.3089,25.2708,桂林市,龙隐路小学,,16,12,9,11,6,69,44,64,60,15,11,7,11,0.8,0.7
2022-05-24T20:00:00,1865A,110.2869,25.2178,桂林市,八中,,15,11,11,9,8,70,47,59,58,17,15,6,8,0.8,0.7
2022-05-24T20:00:00,1866A,109.2262,21.588,北海市,牛尾岭水库(对照点),,22,22,17,5,8,62,57,59,59,5,8,12,5,0.2,0.3
2022-05-24T20:00:00,1867A,109.1436,21.4086,北海市,海滩公园,,19,19,14,5,5,72,56,66,66,2,3,4,4,0.5,0.5
2022-05-24T20:00:00,1868A,109.0981,21.4661,北海市,新市环保局,,18,18,12,7,7,63,50,58,58,3,3,3,3,0.5,0.4
2022-05-24T20:00:00,1869A,109.1778,21.5233,北海市,北海工业园,,36,36,26,15,12,62,50,59,59,4,4,4,5,0.3,0.4
2022-05-24T20:00:00,1870A,109.4856,24.3895,柳州市,柳东小学,,,,21,,17,114,52,52,52,9,5,,15,1.0,0.9
2022-05-24T20:00:00,1871A,109.4157,24.3277,柳州市,环保监测站,,25,18,20,17,15,36,19,31,29,23,25,5,13,1.0,1
2022-05-24T20:00:00,1872A,109.389,24.341,柳州市,河西水厂,,31,31,37,11,8,38,20,32,31,18,13,6,6,1.2,1.1
2022-05-24T20:00:00,1873A,109.4311,24.2921,柳州市,市四中,,38,38,24,18,13,43,15,34,30,29,18,8,12,1.2,0.9
2022-05-24T20:00:00,1874A,109.4006,24.3631,柳州市,市九中,细颗粒物(PM2.5),54,27,23,38,29,37,15,28,24,24,24,9,15,1.4,1.3
2022-05-24T20:00:00,1875A,109.4958,24.3134,柳州市,古亭山,,26,26,22,15,11,41,15,35,29,21,10,4,6,0.8,0.6
2022-05-24T20:00:00,1876A,109.5078,18.2489,三亚市,河东子站,,20,20,19,12,10,66,51,62,60,4,4,2,2,0.4,0.4
2022-05-24T20:00:00,1877A,109.4964,18.2681,三亚市,河西子站,,24,24,19,13,9,62,45,57,56,7,5,1,2,0.3,0.3
2022-05-24T20:00:00,1878A,104.7778,31.4741,绵阳市,富乐山,细颗粒物(PM2.5),52,45,49,36,34,117,85,95,95,11,25,2,3,0.6,0.7
2022-05-24T20:00:00,1879A,104.7563,31.4535,绵阳市,市人大,颗粒物(PM10),59,68,64,38,39,115,73,95,95,25,36,10,8,0.5,0.6
2022-05-24T20:00:00,1880A,104.6697,31.4668,绵阳市,高新区自来水公司,颗粒物(PM10),59,67,62,40,43,119,76,95,95,26,38,5,5,0.7,0.8
2022-05-24T20:00:00,1881A,104.7287,31.5075,绵阳市,三水厂,颗粒物(PM10),60,70,73,42,45,117,82,79,79,14,39,8,8,0.5,0.6
2022-05-24T20:00:00,1882A,104.563,28.793,宜宾市,石马中学(对照点),细颗粒物(PM2.5),156,155,68,119,49,92,86,82,82,11,20,8,9,0.7,0.6
2022-05-24T20:00:00,1883A,104.6201,28.7728,宜宾市,市委,细颗粒物(PM2.5),118,105,64,89,42,91,74,76,76,25,34,6,7,0.8,0.7
2022-05-24T20:00:00,1884A,104.6055,28.793,宜宾市,宜宾四中,细颗粒物(PM2.5),118,118,70,89,48,86,74,76,76,28,32,6,8,0.6,0.6
2022-05-24T20:00:00,1885A,104.639,28.7562,宜宾市,市政府,细颗粒物(PM2.5),112,114,74,84,45,105,83,90,90,26,38,5,7,0.8,0.7
2022-05-24T20:00:00,1886A,104.5742,28.7199,宜宾市,黄金嘴,细颗粒物(PM2.5),94,89,62,70,41,93,70,82,82,24,34,6,8,0.7,0.7
2022-05-24T20:00:00,1888A,101.6891,26.571,攀枝花市,弄弄坪,,28,18,33,15,21,123,89,104,104,6,21,4,11,0.8,1.3
2022-05-24T20:00:00,1889A,101.5769,26.5928,攀枝花市,河门口,,28,22,31,13,18,146,88,108,108,10,26,8,17,0.6,1.6
2022-05-24T20:00:00,1890A,101.7169,26.585,攀枝花市,炳草岗,,33,33,43,12,23,130,81,101,101,18,30,13,28,0.7,1
2022-05-24T20:00:00,1891A,101.7369,26.5008,攀枝花市,仁和,,27,24,25,14,16,114,85,101,101,16,18,6,6,0.7,0.8
2022-05-24T20:00:00,1893A,105.4324,28.9634,泸州市,九狮山(对照点),颗粒物(PM10),87,124,74,39,33,147,61,113,110,18,21,11,19,0.6,0.6
2022-05-24T20:00:00,1894A,105.4427,28.9063,泸州市,小市上码头,颗粒物(PM10),72,94,72,43,27,151,60,125,120,25,34,9,21,0.6,0.7
2022-05-24T20:00:00,1895A,105.4241,28.8573,泸州市,兰田宪桥,颗粒物(PM10),64,77,67,33,24,136,59,116,113,30,29,13,14,0.7,0.7
2022-05-24T20:00:00,1896A,105.4379,28.8833,泸州市,市环监站,颗粒物(PM10),65,80,65,37,24,145,55,121,114,41,35,8,18,0.7,0.6
2022-05-24T20:00:00,1901A,104.4239,31.1208,德阳市,东山公园,,48,48,55,27,34,106,65,88,88,40,25,6,7,0.6,0.6
2022-05-24T20:00:00,1902A,104.3826,31.1317,德阳市,西小区,颗粒物(PM10),56,62,70,30,38,111,76,93,93,33,31,7,11,0.7,0.7
2022-05-24T20:00:00,1904A,104.3553,31.1091,德阳市,耐火材料厂,,45,45,69,23,35,112,74,95,95,32,34,6,10,0.5,0.6
2022-05-24T20:00:00,1905A,106.056,30.8064,南充市,西山风景区(对照点),,48,48,38,33,32,107,73,96,83,12,10,3,3,0.6,0.5
2022-05-24T20:00:00,1906A,106.0789,30.8023,南充市,南充市委,颗粒物(PM10),53,56,53,26,32,95,75,87,87,14,16,4,3,0.6,0.6
2022-05-24T20:00:00,1907A,106.1031,30.8217,南充市,南充炼油厂,,50,50,59,31,35,90,57,77,77,7,17,3,2,0.5,0.6
2022-05-24T20:00:00,1908A,106.1064,30.7856,南充市,高坪区监测站,,35,35,52,22,34,87,54,75,75,13,25,2,7,0.6,0.6
2022-05-24T20:00:00,1909A,106.0642,30.7636,南充市,嘉陵区环保局,细颗粒物(PM2.5),54,36,42,38,38,110,60,87,83,22,28,4,4,0.6,0.6
2022-05-24T20:00:00,1910A,106.1087,30.8388,南充市,市环境监测站,,49,49,58,28,36,87,49,74,73,16,19,15,7,0.5,0.5
2022-05-24T20:00:00,1911A,106.9222,27.6869,遵义市,丁字口,,21,21,40,12,30,59,34,54,50,15,15,7,6,0.7,0.8
2022-05-24T20:00:00,1912A,106.9242,27.7019,遵义市,凤凰山,,18,9,23,12,21,59,42,55,54,9,12,6,6,0.6,0.6
2022-05-24T20:00:00,1913A,106.8906,27.6486,遵义市,忠庄,,26,19,34,18,22,56,30,47,46,12,15,2,2,0.5,0.4
2022-05-24T20:00:00,1914A,106.9231,27.6506,遵义市,舟水桥,,19,19,37,8,27,56,37,51,49,7,12,2,2,0.4,0.4
2022-05-24T20:00:00,1915A,106.9178,27.72,遵义市,干田坝,,15,7,28,10,20,59,37,54,52,10,13,5,5,0.7,0.7
2022-05-24T20:00:00,1916A,103.7897,25.5035,曲靖市,环境监测站,,22,20,15,15,11,77,36,53,52,19,17,9,7,0.7,0.9
2022-05-24T20:00:00,1917A,103.8,25.5364,曲靖市,烟厂办公区,,15,10,13,7,9,97,48,72,72,13,12,5,4,0.8,0.9
2022-05-24T20:00:00,1918A,108.7197,34.3956,咸阳市,气象站(对照点),颗粒物(PM10),57,63,75,26,29,211,130,186,181,29,49,8,9,0.8,0.8
2022-05-24T20:00:00,1919A,108.673,34.3155,咸阳市,实验中学,,50,50,67,24,28,244,158,200,200,13,39,4,6,0.6,0.5
2022-05-24T20:00:00,1920A,108.7233,34.3617,咸阳市,师范学院,,,,70,34,31,213,153,191,189,27,44,15,16,0.5,0.6
2022-05-24T20:00:00,1922A,109.0656,35.0994,铜川市,党校(对照点),,40,40,43,20,19,190,128,169,165,14,32,7,8,0.5,0.5
2022-05-24T20:00:00,1923A,109.0697,35.0697,铜川市,王益区政府,,41,41,44,28,22,201,120,177,172,17,25,6,7,0.6,0.5
2022-05-24T20:00:00,1924A,108.9344,34.9058,铜川市,新区管委会,,,41,44,25,20,194,133,176,169,,19,6,11,0.4,0.4
2022-05-24T20:00:00,1926A,109.4131,36.6275,延安市,枣园(对照点),,44,44,29,13,13,182,100,168,163,30,22,4,4,0.7,0.5
2022-05-24T20:00:00,1927A,109.4761,36.6028,延安市,延大医附院,,42,42,34,13,15,187,98,170,165,44,27,4,4,0.7,0.5
2022-05-24T20:00:00,1929A,109.5056,36.6106,延安市,百米大道,颗粒物(PM10),60,70,48,16,18,172,84,156,149,48,33,2,2,0.9,0.7
2022-05-24T20:00:00,1930A,107.185,34.3063,宝鸡市,庙沟村(对照点),,50,50,29,22,16,166,104,144,144,33,12,5,5,0.5,0.4
2022-05-24T20:00:00,1931A,107.0708,34.3017,宝鸡市,竹园沟,颗粒物(PM10),53,55,29,21,20,180,121,162,160,16,12,4,5,0.5,0.4
2022-05-24T20:00:00,1932A,107.1906,34.3672,宝鸡市,三陆医院,,42,42,48,21,21,187,134,168,168,24,29,7,10,0.6,0.6
2022-05-24T20:00:00,1933A,107.1431,34.3547,宝鸡市,监测站,,48,48,38,25,21,190,135,168,168,27,20,5,5,0.6,0.5
2022-05-24T20:00:00,1934A,107.1186,34.3739,宝鸡市,技工学校,,44,33,43,30,22,191,139,171,171,28,20,5,6,0.5,0.4
2022-05-24T20:00:00,1935A,107.3906,34.3528,宝鸡市,陈仓区环保局家属楼,颗粒物(PM10),56,61,56,25,25,180,126,162,159,34,27,7,14,0.5,0.5
2022-05-24T20:00:00,1936A,107.2058,34.3497,宝鸡市,文理学院,,49,49,45,23,25,189,149,174,174,24,25,9,9,0.4,0.4
2022-05-24T20:00:00,1937A,107.2386,34.3622,宝鸡市,三迪小学,颗粒物(PM10),53,56,52,23,27,184,131,166,166,31,29,9,10,0.5,0.4
2022-05-24T20:00:00,1938A,109.5293,34.5101,渭南市,农科所(对照点),颗粒物(PM10),51,51,61,27,35,179,113,168,163,17,9,10,12,0.4,0.4
2022-05-24T20:00:00,1939A,109.4974,34.4877,渭南市,日报社,,,51,63,24,29,155,,145,145,41,37,12,8,,0.5
2022-05-24T20:00:00,1940A,109.4636,34.493,渭南市,体育馆,,49,48,64,22,27,203,154,186,184,30,38,7,9,0.6,0.6
2022-05-24T20:00:00,1941A,109.4259,34.5023,渭南市,高新一小,颗粒物(PM10),61,71,84,27,34,191,147,176,172,13,30,5,9,0.6,0.6
2022-05-24T20:00:00,1943A,102.1725,38.5339,金昌市,新川苑,颗粒物(PM10),158,265,122,50,25,150,147,144,144,13,16,8,27,0.4,0.6
2022-05-24T20:00:00,1944A,102.1692,38.5167,金昌市,天庆家园,颗粒物(PM10),141,232,123,46,40,156,152,150,150,10,20,4,67,0.7,0.7
2022-05-24T20:00:00,1945A,98.2908,39.7711,嘉峪关市,气象局,颗粒物(PM10),500,1211,242,241,67,162,150,155,154,5,7,1,3,0.3,0.6
2022-05-24T20:00:00,1947A,106.3394,38.817,石嘴山市,沙湖旅游区(对照点),臭氧1小时,52,40,70,16,27,190,161,177,176,11,28,41,50,0.3,1.2
2022-05-24T20:00:00,1948A,106.3668,39.0145,石嘴山市,大武口朝阳西街,,46,40,49,16,22,175,146,171,168,18,29,8,21,0.3,0.6
2022-05-24T20:00:00,1949A,106.7704,39.2282,石嘴山市,惠农南大街,,48,30,35,13,17,168,152,163,162,14,25,8,8,0.5,0.6
2022-05-24T20:00:00,1950A,106.7099,39.1325,石嘴山市,红果子镇惠新街,颗粒物(PM10),69,87,50,22,22,150,126,144,142,19,28,7,7,0.3,0.3
2022-05-24T20:00:00,1951A,84.895,45.6094,克拉玛依市,长征新村,,39,39,35,6,5,122,100,110,110,14,13,5,5,0.3,0.2
2022-05-24T20:00:00,1952A,84.8988,45.5893,克拉玛依市,南林小区,,41,41,42,17,13,119,84,107,107,27,19,8,9,0.4,0.3
2022-05-24T20:00:00,1954A,84.905,44.3396,克拉玛依市,独山子区,,47,47,29,14,12,140,140,117,117,12,9,21,8,0.6,0.4
2022-05-24T20:00:00,1955A,85.6979,46.098,克拉玛依市,乌尔禾区商贸楼,,29,29,32,1,4,111,89,101,101,10,3,11,10,0.4,0.3
2022-05-24T20:00:00,1956A,86.1472,41.7538,巴音郭楞州,孔雀公园,颗粒物(PM10),56,61,49,19,12,131,109,125,124,18,7,1,2,0.4,0.3
2022-05-24T20:00:00,1957A,86.1972,41.7166,巴音郭楞州,棉纺厂,,33,29,33,14,16,123,105,114,114,16,12,2,3,0.2,0.1
2022-05-24T20:00:00,1958A,86.2357,41.7173,巴音郭楞州,经济开发区,颗粒物(PM10),53,56,46,26,12,130,118,120,120,7,7,1,2,0.2,0.2
2022-05-24T20:00:00,1961A,117.532,36.6868,济南市,东山小学,臭氧1小时,65,78,76,29,32,217,172,204,198,27,24,10,13,0.4,0.5
2022-05-24T20:00:00,1966A,120.0405,35.8735,青岛市,黄岛区4号,,36,36,33,7,11,138,104,124,118,15,16,6,8,0.3,0.4
2022-05-24T20:00:00,1982A,122.0693,37.2174,威海市,文登开发区,,35,17,34,9,12,133,112,128,124,13,14,4,4,0.2,0.2
2022-05-24T20:00:00,2031A,113.1817,27.9958,株洲市,云田中学,,23,12,30,16,25,92,56,76,74,19,13,9,9,0.9,0.9
2022-05-24T20:00:00,2054A,114.1099,32.1059,信阳市,平桥分局,颗粒物(PM10),52,54,40,27,34,174,136,163,161,7,8,8,8,0.7,0.7
2022-05-24T20:00:00,2064A,113.9956,32.1271,信阳市,南湾水厂,,47,44,44,20,31,173,148,164,164,8,9,9,8,0.6,0.5
2022-05-24T20:00:00,2065A,114.0775,32.1195,信阳市,市酿酒公司,,42,22,31,25,30,171,132,163,160,17,17,7,7,0.7,0.6
2022-05-24T20:00:00,2066A,114.0609,32.1399,信阳市,审计局,,,42,45,28,33,172,,161,161,14,15,6,7,0.5,0.4
2022-05-24T20:00:00,2067A,114.6613,33.6128,周口市,市环境监测站,,,,66,29,38,171,,169,169,21,20,4,6,0.6,0.6
2022-05-24T20:00:00,2068A,114.6758,33.6347,周口市,周口师范,颗粒物(PM10),56,62,67,28,36,167,153,164,163,15,15,6,7,0.6,0.7
2022-05-24T20:00:00,2069A,114.6546,33.5979,周口市,市运管处,颗粒物(PM10),55,59,68,22,36,168,145,165,163,19,20,5,6,0.5,0.5
2022-05-24T20:00:00,2070A,114.6369,33.6406,周口市,川汇区环保局,颗粒物(PM10),51,52,60,25,32,170,154,167,166,17,17,4,5,0.4,0.5
2022-05-24T20:00:00,2075A,117.6336,24.4674,漳州市,九湖(对照点),,33,22,41,23,25,93,34,65,50,48,30,4,5,0.7,0.6
2022-05-24T20:00:00,2160A,112.85,35.5051,晋城市,自来水公司,臭氧1小时,92,44,52,24,25,205,193,199,199,15,25,13,11,0.6,0.9
2022-05-24T20:00:00,2161A,112.8318,35.4936,晋城市,白云商贸,臭氧1小时,92,50,61,22,25,210,193,205,205,16,18,8,8,0.5,0.7
2022-05-24T20:00:00,2162A,112.8508,35.4887,晋城市,市环保局,臭氧1小时,85,70,82,24,29,201,188,196,195,14,28,13,11,0.6,0.8
2022-05-24T20:00:00,2163A,112.8676,35.4897,晋城市,技术学院,,,0,61,19,25,206,,201,201,,29,46,9,0.8,0.6
2022-05-24T20:00:00,2165A,112.8453,35.546,晋城市,白马寺 (对照点),臭氧1小时,112,63,54,27,26,241,224,229,229,14,17,8,8,0.7,0.8
2022-05-24T20:00:00,2166A,112.4397,39.3522,朔州市,平朔,颗粒物(PM10),73,95,81,20,40,182,116,164,153,35,34,3,9,0.5,0.5
2022-05-24T20:00:00,2167A,112.4575,39.3617,朔州市,朔唯,颗粒物(PM10),74,97,85,19,43,184,120,166,154,31,35,7,8,0.6,0.7
2022-05-24T20:00:00,2168A,112.4258,39.3197,朔州市,区政府,颗粒物(PM10),75,100,75,17,27,178,128,169,161,32,24,7,11,0.5,0.5
2022-05-24T20:00:00,2169A,112.4072,39.3278,朔州市,市环保局,颗粒物(PM10),75,100,75,46,33,179,118,162,150,34,22,10,14,0.7,0.6
2022-05-24T20:00:00,2170A,112.4272,39.3681,朔州市,市二中,颗粒物(PM10),71,91,83,17,40,174,113,161,149,29,33,7,13,0.6,0.6
2022-05-24T20:00:00,2171A,112.7532,37.6945,晋中市,锦纶小区,臭氧1小时,77,35,55,19,34,221,181,206,206,32,34,10,10,0.5,0.6
2022-05-24T20:00:00,2173A,112.7249,37.7067,晋中市,南都小区,臭氧1小时,82,40,59,23,33,220,185,204,204,29,39,4,6,0.5,0.5
2022-05-24T20:00:00,2174A,112.6991,37.6982,晋中市,榆次区政府,,,36,56,25,33,211,179,195,195,,29,4,6,0.6,0.8
2022-05-24T20:00:00,2175A,110.9956,35.0147,运城市,运城中学,,46,29,50,26,27,170,145,147,147,7,10,5,7,0.5,0.6
2022-05-24T20:00:00,2178A,110.9686,35.0303,运城市,地区技校,,46,33,53,18,23,166,145,154,153,6,11,4,7,0.4,0.6
2022-05-24T20:00:00,2179A,111.0414,35.1147,运城市,空港新区,,48,40,74,20,33,176,152,164,163,10,17,6,12,0.6,0.7
2022-05-24T20:00:00,2181A,112.7383,38.4519,忻州市,开发区,,44,21,52,18,38,208,139,189,176,22,27,13,14,0.5,0.4
2022-05-24T20:00:00,2182A,112.7003,38.4928,忻州市,会展中心,,40,22,54,8,27,207,127,180,174,25,32,8,12,0.2,0.4
2022-05-24T20:00:00,2183A,111.1406,37.5211,吕梁市,环保局,颗粒物(PM10),55,60,55,24,18,204,127,192,187,55,30,8,7,0.6,0.5
2022-05-24T20:00:00,2185A,111.1297,37.5136,吕梁市,自来水公司,,47,47,67,11,19,205,125,192,186,44,31,7,8,0.6,0.4
2022-05-24T20:00:00,2187A,106.8174,39.6973,乌海市,市林业局,,46,30,48,13,22,172,145,156,152,9,19,5,19,0.5,0.8
2022-05-24T20:00:00,2188A,106.7907,39.6667,乌海市,中海勃湾学校,,45,24,39,13,24,172,143,156,152,19,30,7,20,0.5,0.7
2022-05-24T20:00:00,2191A,122.2532,43.6801,通辽市,艺术职业学校,颗粒物(PM10),77,104,126,17,35,148,68,130,107,11,16,5,6,0.1,0.1
2022-05-24T20:00:00,2192A,119.7594,49.2261,呼伦贝尔市,区环保局,,40,40,29,26,21,94,71,92,89,23,12,5,5,0.4,0.4
2022-05-24T20:00:00,2195A,107.4212,40.761,巴彦淖尔市,附二中,颗粒物(PM10),144,237,86,29,26,169,99,153,132,7,13,4,10,0.3,0.3
2022-05-24T20:00:00,2196A,107.37,40.7372,巴彦淖尔市,市环保大楼,颗粒物(PM10),102,153,64,24,28,153,96,135,124,6,8,4,5,0.3,0.4
2022-05-24T20:00:00,2197A,113.1306,40.9923,乌兰察布市,集宁新区,颗粒物(PM10),54,57,47,15,24,164,101,123,107,6,26,8,11,0.3,0.4
2022-05-24T20:00:00,2200A,122.0392,46.0656,兴安盟,胜华新制药厂,,28,28,36,10,18,79,70,77,67,14,15,3,3,0.2,0.2
2022-05-24T20:00:00,2201A,121.9504,46.0741,兴安盟,科右前旗环保局,,21,19,24,12,20,84,66,78,68,8,12,3,3,0.2,0.2
2022-05-24T20:00:00,2202A,116.1042,43.9317,锡林郭勒盟,市环保监测站,颗粒物(PM10),98,146,42,17,7,134,84,119,91,4,4,12,11,0.4,0.4
2022-05-24T20:00:00,2203A,116.0781,43.9311,锡林郭勒盟,市政府,颗粒物(PM10),51,51,33,15,7,136,89,122,96,5,6,8,7,0.4,0.4
2022-05-24T20:00:00,2204A,105.6467,38.8363,阿拉善盟,西城区西花园(对照点),臭氧1小时,74,38,36,24,22,189,179,179,179,7,6,18,17,0.1,0.2
2022-05-24T20:00:00,2205A,105.6985,38.8411,阿拉善盟,蒙二幼,臭氧1小时,73,52,39,24,20,186,178,178,178,8,6,8,9,0.3,0.3
2022-05-24T20:00:00,2206A,105.724,38.8516,阿拉善盟,环保局新楼,臭氧1小时,79,42,31,21,21,188,183,177,177,8,7,7,8,0.3,0.3
2022-05-24T20:00:00,2207A,121.6094,41.998,阜新市,工业园区,颗粒物(PM10),59,68,105,10,33,215,72,204,174,10,24,8,22,0.5,0.9
2022-05-24T20:00:00,2208A,121.6697,42.0279,阜新市,长青街,颗粒物(PM10),69,87,76,16,27,194,69,186,159,9,20,10,27,0.7,1.1
2022-05-24T20:00:00,2209A,121.6673,42.0705,阜新市,农业园区,颗粒物(PM10),90,129,107,16,37,204,73,196,168,10,20,8,21,0.2,0.7
2022-05-24T20:00:00,2210A,121.6717,42.0224,阜新市,东苑,颗粒物(PM10),76,101,96,21,37,175,37,166,122,11,27,8,29,0.4,0.9
2022-05-24T20:00:00,2211A,121.6506,42.0498,阜新市,玉龙新城,颗粒物(PM10),89,127,89,28,21,192,66,184,157,10,17,9,21,0.4,0.8
2022-05-24T20:00:00,2212A,123.2,41.1953,辽阳市,宏伟区,,44,42,57,20,26,176,140,165,126,6,8,9,11,0.5,0.6
2022-05-24T20:00:00,2213A,123.1683,41.2495,辽阳市,新华园,颗粒物(PM10),60,70,70,20,28,170,139,158,144,11,15,8,11,0.1,0.3
2022-05-24T20:00:00,2214A,123.2354,41.2639,辽阳市,滨河路,,50,50,62,21,38,168,139,151,136,9,12,14,12,0.5,0.7
2022-05-24T20:00:00,2215A,123.149,41.2991,辽阳市,铁西工业园,,48,48,80,31,43,179,135,154,140,14,20,9,14,0.4,0.7
2022-05-24T20:00:00,2216A,123.8139,42.3022,铁岭市,汇工街西,颗粒物(PM10),57,64,98,24,40,214,142,203,192,19,23,12,18,0.4,0.7
2022-05-24T20:00:00,2217A,123.8649,42.2923,铁岭市,水上乐园,颗粒物(PM10),58,66,78,17,36,226,129,213,199,31,22,10,13,0.3,0.6
2022-05-24T20:00:00,2218A,123.8486,42.2867,铁岭市,银州路东段,,,,104,28,42,211,112,204,191,22,24,9,14,0.5,0.7
2022-05-24T20:00:00,2219A,123.7153,42.2217,铁岭市,金沙江路北,颗粒物(PM10),61,71,95,16,32,210,136,198,185,24,28,6,14,0.6,1
2022-05-24T20:00:00,2220A,120.4318,41.5881,朝阳市,西梁,,48,47,74,33,31,184,88,175,148,14,17,10,12,0.8,0.9
2022-05-24T20:00:00,2221A,120.4521,41.5646,朝阳市,河畔小区,,35,30,69,24,27,185,95,175,151,11,14,9,12,0.6,0.8
2022-05-24T20:00:00,2222A,120.4176,41.5648,朝阳市,八里堡,,43,42,72,30,30,189,96,176,153,16,18,10,12,0.8,0.9
2022-05-24T20:00:00,2223A,120.3806,41.5969,朝阳市,农业园区,,43,40,69,30,28,189,77,182,150,16,14,10,11,0.9,0.9
2022-05-24T20:00:00,2225A,124.4002,43.1713,四平市,一商场,颗粒物(PM10),86,121,100,42,37,212,108,206,193,21,18,11,13,1.4,0.6
2022-05-24T20:00:00,2226A,124.388,43.193,四平市,境园,颗粒物(PM10),68,86,84,27,28,212,101,202,190,13,13,3,7,0.4,0.6
2022-05-24T20:00:00,2227A,125.1358,42.8845,辽源市,环保局,臭氧1小时,68,52,54,33,35,217,174,215,207,7,7,6,12,0.6,0.8
2022-05-24T20:00:00,2229A,125.9358,41.7173,通化市,光明,,42,33,43,8,23,194,133,187,154,5,7,7,9,0.5,0.6
2022-05-24T20:00:00,2230A,125.9446,41.7325,通化市,铁路,,41,27,42,20,26,182,130,180,150,6,10,7,9,0.5,0.8
2022-05-24T20:00:00,2231A,126.4219,41.9171,白山市,喜丰,,46,46,84,12,29,189,122,177,157,9,19,10,13,0.7,1
2022-05-24T20:00:00,2232A,126.4077,41.9419,白山市,环保局,,36,36,61,13,29,195,100,178,154,24,19,10,11,0.9,0.9
2022-05-24T20:00:00,2233A,124.8006,45.1214,松原市,江南,,28,28,29,7,13,99,73,92,87,12,13,2,2,0.3,0.3
2022-05-24T20:00:00,2234A,124.7965,45.1722,松原市,江北,颗粒物(PM10),68,86,67,8,16,104,69,94,87,13,13,1,2,0.3,0.4
2022-05-24T20:00:00,2235A,122.7911,45.6077,白城市,洮北区环保局,,22,21,35,7,8,83,69,79,75,14,11,8,8,0.2,0.2
2022-05-24T20:00:00,2236A,122.8738,45.5725,白城市,市环保局,,28,22,40,19,18,68,55,62,60,26,26,5,6,0.3,0.3
2022-05-24T20:00:00,2237A,129.47,42.8883,延边朝鲜族自治州,妇幼医院,颗粒物(PM10),51,52,35,35,22,162,107,139,138,21,11,6,6,0.8,0.6
2022-05-24T20:00:00,2238A,129.5055,42.9108,延边朝鲜族自治州,延边医院,颗粒物(PM10),58,66,34,30,22,166,106,132,132,19,10,7,7,0.7,0.6
2022-05-24T20:00:00,2239A,129.3964,42.8881,延边朝鲜族自治州,朝阳川镇医院,,45,45,33,28,20,169,106,153,150,21,10,9,10,0.6,0.5
2022-05-24T20:00:00,2240A,130.9762,45.3001,鸡西市,环保局,,23,23,38,15,17,140,50,116,83,24,23,4,4,0.2,0.2
2022-05-24T20:00:00,2243A,130.9429,45.3039,鸡西市,第一中学,,17,10,41,5,14,152,54,125,90,20,21,8,8,0.3,0.3
2022-05-24T20:00:00,2244A,130.2537,47.3416,鹤岗市,哈啤分公司,,38,38,32,14,13,130,17,71,39,19,10,9,9,0.6,0.4
2022-05-24T20:00:00,2245A,130.2684,47.3086,鹤岗市,斯达机电,,28,28,27,13,13,123,33,71,43,15,11,6,7,0.3,0.3
2022-05-24T20:00:00,2246A,130.3114,47.3388,鹤岗市,东山纸板厂,,49,49,50,18,14,113,18,54,39,28,16,10,10,0.6,0.3
2022-05-24T20:00:00,2247A,130.1097,47.3382,鹤岗市,五号水库(对照点),,12,10,12,8,3,95,16,58,39,9,6,5,5,0.1,0.2
2022-05-24T20:00:00,2248A,131.1511,46.6937,双鸭山市,双合村,,,,66,5,23,92,41,75,51,11,17,5,22,0.2,0.8
2022-05-24T20:00:00,2249A,131.1652,46.6191,双鸭山市,南小市,,17,17,37,5,13,96,46,82,56,7,7,5,5,0.2,0.3
2022-05-24T20:00:00,2250A,131.1524,46.6554,双鸭山市,环保局,,19,15,28,13,17,98,48,87,59,9,14,3,9,0.2,0.4
2022-05-24T20:00:00,2251A,131.12,46.5656,双鸭山市,苗圃(对照点),,23,23,19,13,19,106,43,89,59,6,6,1,3,0.3,0.3
2022-05-24T20:00:00,2252A,128.5159,47.4311,伊春市,环保局,,16,10,12,4,9,75,49,53,53,11,9,6,6,0.2,0.2
2022-05-24T20:00:00,2253A,128.9102,47.7412,伊春市,电力嘉园,,21,21,21,12,17,82,64,62,62,4,6,5,5,0.4,0.4
2022-05-24T20:00:00,2254A,129.5029,48.471,伊春市,汤旺河国家公园(对照点),,17,3,5,0,3,70,54,67,66,1,1,10,8,0.2,0.2
2022-05-24T20:00:00,2255A,130.2751,46.8028,佳木斯市,佳纺,,19,19,33,10,14,90,35,73,54,16,16,5,3,0.4,0.4
2022-05-24T20:00:00,2256A,130.3995,46.8307,佳木斯市,发电厂,,16,15,28,3,14,108,50,75,59,7,11,8,7,0.5,0.6
2022-05-24T20:00:00,2257A,130.3258,46.7975,佳木斯市,环保局,,18,18,30,2,14,98,40,80,55,18,16,6,6,0.5,0.4
2022-05-24T20:00:00,2258A,130.3648,46.8032,佳木斯市,十一中,,14,13,32,9,16,95,43,78,59,14,16,4,5,0.3,0.3
2022-05-24T20:00:00,2259A,130.3794,46.7588,佳木斯市,四丰(对照点),,16,16,23,10,12,104,26,78,53,25,12,6,4,0.5,0.5
2022-05-24T20:00:00,2262A,131.0518,45.8751,七台河市,新一中(对照点),,15,10,23,5,13,139,46,125,72,9,13,7,10,0.8,0.8
2022-05-24T20:00:00,2263A,127.4833,50.2524,黑河市,交通局,,22,22,11,9,8,72,50,68,61,10,6,4,4,0.4,0.3
2022-05-24T20:00:00,2264A,127.5144,50.2341,黑河市,环保局,,18,18,18,8,11,70,51,65,62,17,8,5,9,0.5,0.4
2022-05-24T20:00:00,2265A,127.5291,50.2472,黑河市,大黑河岛(对照点),,19,19,12,13,5,76,50,72,65,11,4,6,6,0.5,0.3
2022-05-24T20:00:00,2266A,126.9785,46.6365,绥化市,人和东街,,31,31,24,15,9,68,31,58,44,18,12,10,9,0.4,0.4
2022-05-24T20:00:00,2267A,126.964,46.6528,绥化市,党政办公中心,,26,26,18,17,10,74,33,62,48,18,12,6,6,0.3,0.3
2022-05-24T20:00:00,2269A,124.1069,50.4097,大兴安岭地区,科技局,,26,11,11,6,9,92,81,86,86,8,5,3,3,0.3,0.3
2022-05-24T20:00:00,2270A,117.396,32.939,蚌埠市,工人疗养院,,40,32,36,15,20,174,126,160,159,24,12,10,6,0.3,0.2
2022-05-24T20:00:00,2271A,117.3605,32.9427,蚌埠市,百货大楼,,40,39,54,8,13,179,127,163,161,24,13,8,8,0.5,0.4
2022-05-24T20:00:00,2273A,117.4185,32.8911,蚌埠市,蚌埠学院,,43,39,37,9,15,176,136,156,156,14,13,7,9,0.3,0.3
2022-05-24T20:00:00,2274A,117.3533,32.9673,蚌埠市,淮上区政府,颗粒物(PM10),54,58,43,17,15,175,129,158,157,17,11,11,10,0.5,0.4
2022-05-24T20:00:00,2275A,117.3145,32.8977,蚌埠市,高新区,,46,46,42,24,21,193,133,173,171,22,15,8,9,0.6,0.5
2022-05-24T20:00:00,2277A,116.8305,32.7727,淮南市,潘集区政府,颗粒物(PM10),53,56,47,24,28,189,140,175,174,18,16,10,8,0.2,0.3
2022-05-24T20:00:00,2278A,117.0067,32.6524,淮南市,师范学院,,44,35,43,18,22,183,140,163,163,15,13,6,9,0.3,0.4
2022-05-24T20:00:00,2279A,116.8569,32.5951,淮南市,谢家集区政府,,41,40,40,17,19,180,129,161,160,22,18,7,7,0.2,0.3
2022-05-24T20:00:00,2280A,116.8281,32.633,淮南市,八公山区政府,,44,41,46,20,22,182,139,167,167,12,14,2,7,0.2,0.3
2022-05-24T20:00:00,2281A,116.6325,32.6201,淮南市,焦岗湖风景区管理处(对照点),,49,42,42,20,20,190,154,172,172,16,18,9,10,0.2,0.2
2022-05-24T20:00:00,2282A,116.8004,33.975,淮北市,监测站,,,62,61,,30,190,146,179,176,8,9,3,5,0.4,0.5
2022-05-24T20:00:00,2283A,116.8091,33.9007,淮北市,烈山区政府,颗粒物(PM10),56,61,63,34,39,196,150,188,184,18,20,5,10,0.6,0.5
2022-05-24T20:00:00,2284A,116.7856,33.9477,淮北市,职业技术学院,颗粒物(PM10),52,53,57,26,33,194,149,183,180,15,15,6,8,0.4,0.5
2022-05-24T20:00:00,2285A,117.8177,30.9412,铜陵市,市第四中学,,42,21,21,18,20,202,133,179,177,13,15,6,9,0.2,0.3
2022-05-24T20:00:00,2286A,117.8059,30.9273,铜陵市,市公路局,颗粒物(PM10),52,53,44,19,21,172,106,153,151,13,15,4,6,0.4,0.5
2022-05-24T20:00:00,2287A,117.7807,30.9413,铜陵市,市新民污水厂,颗粒物(PM10),53,56,51,27,27,181,118,156,156,14,19,4,10,0.3,0.4
2022-05-24T20:00:00,2288A,117.7439,30.8792,铜陵市,市第九中学,,39,39,61,14,27,140,115,125,117,28,64,7,9,0.5,0.6
2022-05-24T20:00:00,2289A,117.846,30.9413,铜陵市,车站新区,,36,30,36,14,24,189,115,166,163,18,18,4,5,0.2,0.3
2022-05-24T20:00:00,2290A,117.8483,30.97,铜陵市,市职教基地,,39,39,38,12,16,179,117,157,155,12,12,4,7,0.4,0.5
2022-05-24T20:00:00,2291A,117.0809,30.5177,安庆市,环科院,,49,49,29,21,16,170,149,160,160,15,26,7,7,0.4,0.4
2022-05-24T20:00:00,2292A,117.0331,30.5119,安庆市,马山宾馆,,42,41,26,22,16,165,132,152,152,17,26,8,7,0.6,0.5
2022-05-24T20:00:00,2294A,116.9896,30.6145,安庆市,安庆大学,,,,25,23,15,143,,137,137,18,20,4,5,0.5,0.4
2022-05-24T20:00:00,2295A,118.2903,29.6963,黄山市,延安路89号,,28,28,23,12,12,121,73,111,108,5,3,6,5,0.2,0.2
2022-05-24T20:00:00,2296A,118.327,29.7178,黄山市,黄山东路89号,,21,15,17,10,10,123,65,111,107,8,5,5,5,0.5,0.4
2022-05-24T20:00:00,2297A,118.1371,30.2756,黄山市,黄山区政府5号楼,,36,36,26,12,10,155,115,137,137,7,5,6,6,0.4,0.3
2022-05-24T20:00:00,2298A,118.3093,32.3153,滁州市,老年大学,颗粒物(PM10),58,66,34,22,16,169,128,154,154,37,25,9,7,0.7,0.3
2022-05-24T20:00:00,2299A,118.3244,32.2786,滁州市,人大宾馆,,42,42,30,20,15,165,126,147,147,26,19,6,6,0.6,0.3
2022-05-24T20:00:00,2301A,115.8277,32.8929,阜阳市,市监测站,臭氧1小时,60,54,41,25,22,192,168,183,183,13,15,8,10,0.6,0.5
2022-05-24T20:00:00,2303A,115.8554,32.8605,阜阳市,开发区,"颗粒物(PM10),臭氧1小时",57,63,50,19,22,183,165,176,176,13,16,6,8,0.5,0.5
2022-05-24T20:00:00,2307A,116.5079,31.737,六安市,监测大楼,臭氧1小时,63,42,34,12,12,181,170,167,167,11,11,6,6,0.3,0.3
2022-05-24T20:00:00,2308A,116.4738,31.7643,六安市,皖西学院,臭氧1小时,65,43,37,20,18,186,172,173,173,11,11,8,9,0.3,0.3
2022-05-24T20:00:00,2309A,116.4996,31.7905,六安市,朝阳厂,颗粒物(PM10),54,57,38,13,19,177,161,164,164,12,9,7,7,0.4,0.4
2022-05-24T20:00:00,2310A,116.5567,31.7886,六安市,开发区,臭氧1小时,62,61,53,29,23,205,169,180,178,17,15,9,9,0.4,0.4
2022-05-24T20:00:00,2311A,115.8072,33.8399,亳州市,污水处理厂,臭氧1小时,53,42,39,27,24,191,162,184,184,8,10,6,8,0.7,0.4
2022-05-24T20:00:00,2312A,115.7789,33.8518,亳州市,三国揽胜宫,,50,50,46,24,25,178,158,173,173,12,13,4,6,0.4,0.4
2022-05-24T20:00:00,2314A,117.47,30.6618,池州市,池州学院,颗粒物(PM10),51,51,43,27,23,168,146,160,160,20,17,10,9,0.5,0.5
2022-05-24T20:00:00,2316A,118.7581,30.9454,宣城市,鳌峰子站,,40,40,26,13,17,112,112,106,106,11,17,4,4,0.4,0.4
2022-05-24T20:00:00,2317A,118.7385,30.9743,宣城市,敬亭山子站,,35,35,24,13,16,111,74,102,100,16,18,5,5,0.4,0.3
2022-05-24T20:00:00,2318A,118.7173,30.9427,宣城市,开发区子站,,34,33,25,14,16,112,106,106,106,10,14,5,5,0.4,0.4
2022-05-24T20:00:00,2319A,119.0141,25.4325,莆田市,荔城区仓后路,,20,14,21,8,15,62,61,55,52,24,26,4,4,0.7,0.7
2022-05-24T20:00:00,2320A,119.0015,25.4553,莆田市,莆田市监测站,,28,14,26,19,22,60,60,54,49,20,18,4,4,0.7,0.7
2022-05-24T20:00:00,2321A,119.1119,25.4561,莆田市,涵江区六中,,28,11,22,19,28,68,63,62,62,16,20,6,5,0.8,0.7
2022-05-24T20:00:00,2322A,119.1013,25.3215,莆田市,秀屿区政府,,18,11,18,6,16,78,57,64,54,13,16,6,8,0.7,0.9
2022-05-24T20:00:00,2324A,117.6211,26.2625,三明市,三钢,,27,27,20,16,17,20,4,13,13,36,29,2,4,1.1,0.9
2022-05-24T20:00:00,2325A,117.635,26.2714,三明市,三明二中,,22,22,19,14,16,20,9,15,15,27,25,2,3,0.8,0.8
2022-05-24T20:00:00,2326A,117.6028,26.2378,三明市,三元区政府,,,,21,,16,14,,9,9,38,31,3,4,,1.3
2022-05-24T20:00:00,2327A,117.7275,26.3108,三明市,洋溪(对照点),,18,14,18,12,13,30,6,19,18,26,19,4,5,0.8,0.8
2022-05-24T20:00:00,2331A,118.0966,26.6761,南平市,茫荡山(对照点),,14,0,3,2,2,62,42,58,46,2,2,4,4,0.6,0.7
2022-05-24T20:00:00,2332A,118.1681,26.6369,南平市,南平市监测站,,27,27,26,18,17,30,10,26,24,25,15,8,6,1.3,0.8
2022-05-24T20:00:00,2333A,118.1825,26.6489,南平市,南平铝业有限公司,,29,23,26,20,16,31,13,27,26,22,15,8,6,1.1,0.9
2022-05-24T20:00:00,2334A,118.1756,26.6272,南平市,南平七中,,32,32,23,16,18,28,10,23,22,18,12,2,2,0.9,0.6
2022-05-24T20:00:00,2335A,117.0189,25.1181,龙岩市,龙岩师专(对照点),,16,16,17,6,9,69,28,54,51,16,14,5,6,0.7,0.7
2022-05-24T20:00:00,2336A,117.0217,25.1033,龙岩市,龙岩市监测站,,18,18,21,12,14,74,24,56,52,27,25,5,8,0.8,0.6
2022-05-24T20:00:00,2337A,117.0258,25.0661,龙岩市,闽西职业技术学院,,26,26,23,12,14,75,28,56,54,21,24,5,6,0.8,0.7
2022-05-24T20:00:00,2338A,117.0196,25.0306,龙岩市,龙岩学院,,22,22,21,12,12,82,30,58,56,21,23,2,3,0.7,0.7
2022-05-24T20:00:00,2339A,119.5001,26.6946,宁德市,金涵水库(对照点),,25,24,19,17,15,31,12,25,18,44,21,7,7,1.2,0.7
2022-05-24T20:00:00,2341A,119.5388,26.6612,宁德市,宁德市监测站,,25,22,23,17,18,42,13,29,16,42,29,6,8,1.4,0.9
2022-05-24T20:00:00,2343A,117.2117,29.2933,景德镇市,老干部活动中心,颗粒物(PM10),54,58,34,25,17,128,97,112,112,16,13,15,6,0.5,0.4
2022-05-24T20:00:00,2344A,117.1894,29.2789,景德镇市,兽医站,颗粒物(PM10),59,68,28,15,16,124,87,110,110,19,14,4,7,0.8,0.9
2022-05-24T20:00:00,2345A,117.1547,29.2617,景德镇市,台达陶瓷,,45,45,33,27,19,130,91,115,115,16,20,24,16,0.8,0.7
2022-05-24T20:00:00,2346A,117.2461,29.2956,景德镇市,陶研所,,34,34,23,19,11,99,46,93,89,16,8,4,6,0.5,0.3
2022-05-24T20:00:00,2347A,114.0997,27.5002,萍乡市,武功山(对照点),,13,3,3,2,3,45,41,42,42,13,6,15,15,0.7,0.5
2022-05-24T20:00:00,2348A,113.8385,27.6434,萍乡市,中医院,,36,27,23,25,23,87,49,71,53,19,15,7,10,1.1,1
2022-05-24T20:00:00,2349A,113.8493,27.6253,萍乡市,市政府车库,,26,26,29,7,14,71,36,51,51,33,20,10,12,2.2,1.2
2022-05-24T20:00:00,2350A,113.8676,27.6435,萍乡市,市环保局,,20,17,25,14,24,85,49,65,61,23,16,6,12,0.9,0.8
2022-05-24T20:00:00,2351A,113.866,27.6198,萍乡市,安源区政府,,16,15,28,2,15,69,43,54,54,31,26,8,11,1.1,1.1
2022-05-24T20:00:00,2352A,115.0861,27.9317,新余市,北岗(对照点),,35,21,21,24,16,84,46,74,72,1,8,4,5,0.5,0.5
2022-05-24T20:00:00,2353A,114.9886,27.8431,新余市,飞宇,颗粒物(PM10),51,51,43,31,21,90,54,75,74,26,15,5,6,0.7,0.5
2022-05-24T20:00:00,2354A,114.9231,27.8246,新余市,第二水厂,,45,38,27,31,19,83,40,68,67,36,19,7,6,0.8,0.5
2022-05-24T20:00:00,2355A,114.9308,27.8036,新余市,市气象局,,33,30,27,23,19,79,57,67,67,14,14,4,5,0.8,0.6
2022-05-24T20:00:00,2357A,116.9822,28.1136,鹰潭市,龙虎山(对照点),,,22,18,7,9,76,35,65,61,3,2,,4,0.5,0.5
2022-05-24T20:00:00,2358A,117.0564,28.2642,鹰潭市,新监测站,,30,30,31,12,19,140,56,105,96,9,9,4,14,0.6,0.6
2022-05-24T20:00:00,2359A,117.0311,28.2475,鹰潭市,财苑宾馆,,20,19,29,5,14,156,62,99,95,5,9,2,10,0.6,0.6
2022-05-24T20:00:00,2360A,117.0222,28.2264,鹰潭市,体育馆,,28,28,36,7,19,171,56,112,78,3,8,6,22,0.6,0.7
2022-05-24T20:00:00,2361A,117.0017,28.2131,鹰潭市,三川水表,,36,36,32,9,21,114,50,83,72,2,12,4,15,0.8,0.9
2022-05-24T20:00:00,2363A,114.9367,25.8664,赣州市,地委,,8,8,8,4,6,60,24,37,33,13,12,5,5,0.7,0.7
2022-05-24T20:00:00,2364A,114.9461,25.8481,赣州市,气象台,,,10,10,11,9,58,,52,38,7,3,,4,0.8,1
2022-05-24T20:00:00,2365A,114.9322,25.8333,赣州市,市图书馆,,11,11,11,5,7,55,26,52,29,18,17,22,7,1.1,1
2022-05-24T20:00:00,2366A,114.8905,25.8471,赣州市,华坚鞋城,,,11,11,2,7,61,35,46,34,,17,2,2,1.1,1.1
2022-05-24T20:00:00,2367A,114.9754,27.0803,吉安市,红声器材厂,,,27,29,6,15,51,,42,38,20,14,7,8,0.6,0.5
2022-05-24T20:00:00,2368A,114.9658,27.0999,吉安市,市森林工业局,,14,14,24,7,15,51,30,44,42,16,12,3,5,0.5,0.5
2022-05-24T20:00:00,2369A,114.99,27.1312,吉安市,市环境监测站,,18,18,27,12,16,55,32,37,37,16,12,6,7,0.7,0.6
2022-05-24T20:00:00,2370A,115.0093,27.0968,吉安市,青原区法院,,20,20,26,9,15,59,26,44,42,24,15,12,15,0.6,0.5
2022-05-24T20:00:00,2371A,114.3408,27.8064,宜春市,槟榔水业(对照点),,,24,31,,26,75,39,66,62,21,15,5,6,1.0,0.8
2022-05-24T20:00:00,2373A,114.3956,27.7844,宜春市,市石油公司,,,,33,,21,76,42,66,62,8,12,9,7,,0.8
2022-05-24T20:00:00,2374A,114.3703,27.7914,宜春市,市气象局,,36,33,32,25,22,80,46,72,67,26,18,4,7,1.1,0.8
2022-05-24T20:00:00,2375A,114.4013,27.8074,宜春市,市广电局,,29,26,36,20,21,76,43,69,64,24,17,1,7,0.9,0.7
2022-05-24T20:00:00,2376A,116.2127,28.0814,抚州市,桐源党溪(对照点),,26,26,32,15,20,91,28,76,72,13,13,19,12,0.6,0.5
2022-05-24T20:00:00,2377A,116.3544,27.9831,抚州市,市站,,28,25,26,19,14,70,53,64,64,15,11,6,6,1.0,0.8
2022-05-24T20:00:00,2378A,116.3565,27.963,抚州市,血防站,,,24,23,11,10,67,,58,58,26,11,6,4,0.9,0.7
2022-05-24T20:00:00,2379A,116.3564,28.0007,抚州市,采茶剧团,,25,25,24,13,13,68,52,59,59,12,11,3,4,1.0,0.9
2022-05-24T20:00:00,2380A,116.385,27.9647,抚州市,医学分院,,20,20,21,12,12,70,36,61,60,25,12,3,6,0.8,0.8
2022-05-24T20:00:00,2381A,118.005,28.4572,上饶市,百草园(对照点),,25,25,26,3,13,86,53,70,69,4,8,6,9,0.5,0.4
2022-05-24T20:00:00,2382A,117.9756,28.4436,上饶市,市监测站,,29,21,32,20,21,151,44,90,87,5,10,4,10,0.4,0.4
2022-05-24T20:00:00,2383A,117.9519,28.4628,上饶市,凤凰光学,,36,36,33,23,19,89,69,78,78,5,9,5,11,0.6,0.6
2022-05-24T20:00:00,2385A,114.17,35.9019,鹤壁市,市监测站,颗粒物(PM10),66,81,83,22,36,201,146,185,184,21,26,9,12,1.1,1
2022-05-24T20:00:00,2386A,114.2956,35.7511,鹤壁市,市交警支队,颗粒物(PM10),59,67,79,38,39,181,133,168,167,20,35,9,12,0.7,1.2
2022-05-24T20:00:00,2387A,114.2878,35.7306,鹤壁市,迎宾馆,颗粒物(PM10),58,66,74,36,37,184,130,172,170,26,37,5,11,0.6,0.8
2022-05-24T20:00:00,2389A,113.836,35.311,新乡市,环保西院,颗粒物(PM10),53,55,78,29,34,210,160,192,191,17,26,6,10,0.6,0.7
2022-05-24T20:00:00,2390A,113.884,35.272,新乡市,开发区,颗粒物(PM10),63,76,67,24,29,204,146,189,185,18,26,5,7,0.5,0.6
2022-05-24T20:00:00,2391A,113.883,35.303,新乡市,环保东院,颗粒物(PM10),52,54,67,25,29,213,155,194,193,20,32,4,8,0.2,0.4
2022-05-24T20:00:00,2392A,115.0312,35.7636,濮阳市,环保局,颗粒物(PM10),54,57,64,37,37,163,138,155,155,20,24,6,11,0.5,0.6
2022-05-24T20:00:00,2394A,115.0574,35.7609,濮阳市,油田运输公司,颗粒物(PM10),58,65,78,40,39,182,154,171,171,24,27,7,13,0.4,0.5
2022-05-24T20:00:00,2395A,115.0866,35.7754,濮阳市,油田物探公司,颗粒物(PM10),62,73,72,32,34,184,143,176,174,29,23,11,15,0.4,0.4
2022-05-24T20:00:00,2396A,113.8276,34.0159,许昌市,监测站,,50,50,46,30,28,162,145,154,154,10,12,5,14,0.4,0.3
2022-05-24T20:00:00,2398A,113.7906,33.9953,许昌市,开发区,颗粒物(PM10),61,72,56,30,30,175,119,165,161,27,18,4,13,0.6,0.6
2022-05-24T20:00:00,2399A,114.051,33.5699,漯河市,三五一五工厂,颗粒物(PM10),55,59,53,31,31,204,162,185,183,14,18,5,8,0.6,0.6
2022-05-24T20:00:00,2400A,114.0055,33.5698,漯河市,漯河大学,颗粒物(PM10),53,55,45,31,26,189,160,172,172,15,18,8,9,0.7,0.8
2022-05-24T20:00:00,2401A,114.0138,33.5828,漯河市,市水利局,颗粒物(PM10),58,66,48,37,31,191,163,173,173,9,11,6,7,0.5,0.6
2022-05-24T20:00:00,2402A,114.0261,33.5698,漯河市,市广电局,颗粒物(PM10),56,61,47,32,29,195,151,176,175,17,15,7,8,0.5,0.6
2022-05-24T20:00:00,2403A,112.5192,32.9917,南阳市,环保局,颗粒物(PM10),55,60,60,27,37,166,146,156,156,13,16,2,5,0.5,0.5
2022-05-24T20:00:00,2404A,112.5339,33.0086,南阳市,瓦房庄,颗粒物(PM10),78,105,55,26,32,171,148,158,158,17,14,4,7,0.7,0.6
2022-05-24T20:00:00,2406A,112.5779,33.0144,南阳市,气象站,,,63,55,15,33,168,,164,164,29,20,5,9,0.6,0.5
2022-05-24T20:00:00,2407A,112.548,32.9692,南阳市,理工学院,颗粒物(PM10),54,58,52,27,32,164,132,152,151,21,15,2,7,0.7,0.7
2022-05-24T20:00:00,2408A,115.6702,34.4285,商丘市,环境监测站,颗粒物(PM10),57,63,57,26,28,173,154,168,168,15,18,8,12,0.5,0.5
2022-05-24T20:00:00,2409A,115.6458,34.4045,商丘市,粮食局,颗粒物(PM10),56,61,52,28,30,175,154,170,170,19,20,7,13,0.6,0.6
2022-05-24T20:00:00,2410A,115.6293,34.3948,商丘市,睢阳区环保局,颗粒物(PM10),54,58,50,25,30,169,150,164,164,18,18,6,12,0.5,0.5
2022-05-24T20:00:00,2420A,114.0189,32.9656,驻马店市,市一纸厂,"颗粒物(PM10),细颗粒物(PM2.5)",53,56,47,37,26,178,158,176,173,16,19,12,18,0.4,0.5
2022-05-24T20:00:00,2421A,114.0114,33.015,驻马店市,市彩印厂,臭氧1小时,58,58,44,27,23,184,166,178,176,10,11,5,5,0.4,0.4
2022-05-24T20:00:00,2422A,113.9976,32.9771,驻马店市,天方二分厂,颗粒物(PM10),67,83,45,32,23,180,158,176,173,9,13,2,3,0.5,0.6
2022-05-24T20:00:00,2423A,115.0601,30.2313,黄石市,沈家营,,44,29,38,17,15,156,139,145,145,15,21,11,14,0.7,0.9
2022-05-24T20:00:00,2424A,115.0817,30.2006,黄石市,陈家湾,颗粒物(PM10),94,138,40,21,16,164,130,143,142,18,16,6,5,0.6,0.7
2022-05-24T20:00:00,2426A,114.8988,30.2019,黄石市,铁山,,41,33,38,20,18,159,129,147,146,12,10,19,9,0.5,0.3
2022-05-24T20:00:00,2427A,115.0307,30.2092,黄石市,团城山,,47,45,35,21,12,164,150,148,148,18,14,13,8,0.6,0.7
2022-05-24T20:00:00,2428A,111.0419,32.395,十堰市,武当山(对照点),,40,32,32,21,26,138,126,132,132,8,7,9,8,0.5,0.5
2022-05-24T20:00:00,2429A,110.78,32.6494,十堰市,滨河新村,颗粒物(PM10),51,52,68,25,35,154,114,139,134,25,21,7,10,0.5,0.6
2022-05-24T20:00:00,2430A,110.7258,32.6389,十堰市,刘家沟,,,,62,,33,168,,154,154,18,14,8,10,0.6,0.8
2022-05-24T20:00:00,2431A,110.8839,32.5714,十堰市,铁二处,,44,44,41,18,27,154,117,147,142,17,11,9,8,0.2,0.3
2022-05-24T20:00:00,2432A,112.155,32.0197,襄阳市,襄城运动路,颗粒物(PM10),60,70,70,29,46,188,142,172,172,19,16,16,17,0.9,0.8
2022-05-24T20:00:00,2433A,112.1392,32.0564,襄阳市,樊城新华路,颗粒物(PM10),57,63,74,36,55,186,144,174,172,17,15,13,14,1.1,0.9
