timepoint,stationcode,longitude,latitude,area,positionname,primarypollutant,aqi,pm10,pm10_24h,pm2_5,pm2_5_24h,o3,o3_24h,o3_8h,o3_8h_24h,no2,no2_24h,so2,so2_24h,co,co_24h
2024-09-07T1600,2566A,102.1879,31.914,阿坝藏族羌族自治州,州农科所,,34,34,24,10,7,76,,60,60,25,13,10,7,0,0
2024-09-07T1600,2568A,102.2502,31.8896,阿坝藏族羌族自治州,马师校,,31,13,11,3,6,97,,73,73,7,8,4,4,0.4,0.4
2024-09-07T1600,3994A,102.2165,31.9024,阿坝藏族羌族自治州,马尔康中学西区,,30,15,13,3,8,96,,73,73,8,9,5,5,0.4,0.4
2024-09-07T1600,2695A,80.292,41.1694,阿克苏地区,电视台,颗粒物(PM10),74,98,152,31,51,131,,75,75,8,29,4,3,0.3,0.5
2024-09-07T1600,2696A,80.2613,41.1551,阿克苏地区,艺术中心,颗粒物(PM10),70,90,136,26,47,126,,75,75,5,27,3,3,0.5,0.8
2024-09-07T1600,2204A,105.6467,38.8363,阿拉善盟,西城区西花园,,44,19,10,11,8,138,,113,113,9,11,10,10,1.3,1
2024-09-07T1600,2205A,105.6985,38.8411,阿拉善盟,蒙二幼,,37,21,8,20,4,116,,97,97,7,8,10,9,0.8,0.6
2024-09-07T1600,2206A,105.724,38.8516,阿拉善盟,环保局新楼,,37,34,7,20,4,118,,99,99,8,7,10,10,0.6,0.4
2024-09-07T1600,2708A,88.1264,47.8517,阿勒泰地区,市站,,21,16,15,6,7,67,,84,59,11,9,7,7,0.3,0.3
2024-09-07T1600,2630A,80.1161,32.5,阿里地区,阿里监测站,,34,6,9,3,3,107,,89,89,2,8,10,9,0.3,0.3
2024-09-07T1600,3192A,80.0903,32.5028,阿里地区,阿里藏医院,,31,6,15,3,1,97,,87,82,2,4,6,6,0.3,0.3
2024-09-07T1600,2642A,109.0318,32.6537,安康市,香溪洞,颗粒物(PM10),80,109,57,22,15,121,,119,119,16,7,7,7,0.4,0.4
2024-09-07T1600,2643A,109.0281,32.6939,安康市,安康市监测站,,40,31,28,13,13,127,,123,123,4,6,7,8,0.6,0.6
2024-09-07T1600,2644A,109.0072,32.6975,安康市,汉滨区检察院,,41,27,27,16,12,129,,125,125,6,7,9,8,0.7,0.7
2024-09-07T1600,2291A,117.0809,30.5177,安庆市,环科院,臭氧1小时,74,44,39,34,30,179,,142,142,10,11,8,8,0.6,0.8
2024-09-07T1600,2292A,117.0331,30.5119,安庆市,马山宾馆,臭氧1小时,53,35,38,23,29,162,,142,142,8,10,9,10,0.5,0.5
2024-09-07T1600,2294A,116.9896,30.6145,安庆市,安庆大学,,,35,41,35,33,,,122,122,7,8,8,8,0.5,0.6
2024-09-07T1600,3173A,117.0598,30.5351,安庆市,市人大,臭氧1小时,55,39,40,26,30,164,,144,144,4,8,8,9,0.7,1.1
2024-09-07T1600,3122A,105.9606,26.2611,安顺市,伍家关,,,,,,,,,,,,,,,,
2024-09-07T1600,3123A,105.9408,26.2431,安顺市,凤凰山,,31,21,31,14,23,97,,92,92,5,7,7,10,0.5,0.6
2024-09-07T1600,3124A,105.9439,26.2564,安顺市,金钟山,,32,24,36,15,24,100,,94,94,4,5,7,8,0.4,0.5
2024-09-07T1600,3125A,105.8983,26.2481,安顺市,娄家坡,,31,18,26,14,21,97,,91,91,5,6,6,6,0.7,0.8
2024-09-07T1600,1818A,114.4839,36.0621,安阳市,棉研所,,,,,,,,,,,,,,,,
2024-09-07T1600,1819A,114.3551,36.1017,安阳市,红庙街,,43,43,42,19,16,126,,144,142,10,22,3,8,0.6,0.6
2024-09-07T1600,1820A,114.361,36.0681,安阳市,银杏小区,,,34,40,,,120,,128,128,8,21,2,6,0.7,0.6
2024-09-07T1600,3141A,114.3922,36.0878,安阳市,信访局,细颗粒物(PM2.5),55,44,43,39,18,132,,134,134,14,29,3,6,0.6,0.5
2024-09-07T1600,3669A,114.4705,36.0637,安阳市,左辅环卫站,,46,46,56,26,25,125,,126,126,8,26,3,5,0.6,0.5
2024-09-07T1600,3703A,114.2917,36.0949,安阳市,安钢职工学校,,41,41,56,26,24,117,,118,118,11,28,4,7,0.6,0.5
2024-09-07T1600,1748A,123.044,41.1196,鞍山市,深沟寺,,32,32,27,12,13,50,,45,35,22,20,7,6,0.8,0.7
2024-09-07T1600,1749A,123.011,41.0931,鞍山市,太阳城,,31,31,29,14,13,60,,49,35,18,22,8,7,0.6,0.7
2024-09-07T1600,1750A,123.0485,41.1442,鞍山市,太平,,41,41,43,14,21,26,,52,28,70,37,10,9,0.7,0.7
2024-09-07T1600,1751A,122.9642,41.0971,鞍山市,铁西三道街,,42,42,54,13,22,69,,39,39,28,46,9,8,0.8,0.9
2024-09-07T1600,1752A,122.9341,41.0833,鞍山市,铁西工业园区,颗粒物(PM10),52,54,76,17,26,48,,18,18,38,50,11,10,1.1,1
2024-09-07T1600,1753A,123.022,41.0821,鞍山市,明达新区,,37,37,38,19,14,69,,42,42,14,26,8,7,0.7,0.6
2024-09-07T1600,1754A,123.1289,41.0228,鞍山市,千山,,,,,,,,,,,,,,,,
2024-09-07T1600,2195A,107.4212,40.761,巴彦淖尔市,附二中,,31,19,26,10,14,97,,92,92,8,14,5,6,0.5,0.5
2024-09-07T1600,2196A,107.37,40.7372,巴彦淖尔市,市环保大楼,,32,24,27,18,13,102,,95,95,4,7,4,4,0.5,0.3
2024-09-07T1600,1956A,86.1472,41.7538,巴音郭楞蒙古自治州,孔雀公园,颗粒物(PM10),117,183,188,50,42,107,,65,65,5,38,7,6,0.2,0.4
2024-09-07T1600,1957A,86.1972,41.7166,巴音郭楞蒙古自治州,棉纺厂,颗粒物(PM10),128,206,223,50,51,107,,71,71,6,23,6,5,0.3,0.3
2024-09-07T1600,1958A,86.2357,41.7173,巴音郭楞蒙古自治州,经济开发区,颗粒物(PM10),114,178,189,50,49,104,,78,78,7,14,8,7,0.3,0.3
2024-09-07T1600,2914A,106.7677,31.8794,巴中市,苏山坪,,44,26,26,18,17,138,,105,105,7,6,4,4,0.6,0.5
2024-09-07T1600,3182A,106.7656,31.8545,巴中市,丽阳花园,,42,27,26,20,19,133,,96,96,7,10,4,4,0.6,0.6
2024-09-07T1600,3183A,106.7418,31.8654,巴中市,圣泉水务公司,,44,28,20,23,16,138,,96,96,7,9,3,3,0.6,0.6
2024-09-07T1600,3616A,106.7616,31.8344,巴中市,市中心医院,,41,28,26,19,18,129,,102,102,5,11,4,4,0.6,0.6
2024-09-07T1600,2235A,122.7911,45.6077,白城市,洮北区环保局,,34,14,18,3,8,106,,97,97,4,7,4,4,0.1,0.1
2024-09-07T1600,2236A,122.8738,45.5725,白城市,市环保局,,30,30,24,3,4,92,,86,86,9,14,3,4,0.2,0.2
2024-09-07T1600,2231A,126.4219,41.9171,白山市,喜丰,颗粒物(PM10),57,63,45,16,11,20,,15,15,37,21,6,7,0.6,0.5
2024-09-07T1600,2232A,126.4077,41.9419,白山市,环保局,,45,45,32,10,8,30,,17,17,32,19,10,10,0.6,0.5
2024-09-07T1600,2647A,104.1724,36.5446,白银市,第三小学,,30,8,20,3,15,96,,81,81,7,18,6,8,0.5,0.6
2024-09-07T1600,2648A,104.1465,36.5482,白银市,动力公司,,32,14,19,3,10,101,,88,88,5,16,5,5,0.4,0.5
2024-09-07T1600,2512A,106.6103,23.9011,百色市,市监测站,,,,40,,20,,,79,,,18,,21,,0.7
2024-09-07T1600,2513A,106.6538,23.8859,百色市,市中心血站,,19,,30,13,18,55,,36,36,7,14,3,5,0.6,0.7
2024-09-07T1600,3406A,106.6085,23.8798,百色市,祈福高中,,14,11,31,8,14,43,,40,40,11,13,3,4,0.7,0.8
2024-09-07T1600,2270A,117.396,32.939,蚌埠市,工人疗养院,颗粒物(PM10),57,63,54,31,17,134,,102,102,4,8,4,4,0.4,0.4
2024-09-07T1600,2271A,117.3605,32.9427,蚌埠市,百货大楼,颗粒物(PM10),56,61,51,35,22,132,,94,94,1,5,6,6,0.5,0.4
2024-09-07T1600,2273A,117.4185,32.8911,蚌埠市,蚌埠学院,颗粒物(PM10),52,53,41,31,20,136,,98,98,10,16,7,8,0.5,0.4
2024-09-07T1600,2274A,117.3533,32.9673,蚌埠市,淮上区政府,颗粒物(PM10),51,51,43,30,19,132,,92,92,3,8,7,7,0.4,0.6
2024-09-07T1600,2275A,117.3145,32.8977,蚌埠市,高新区,颗粒物(PM10),52,53,41,35,21,146,,102,102,7,8,6,6,0.6,0.5
2024-09-07T1600,3715A,117.3092,32.9314,蚌埠市,蚌埠田家炳中学,颗粒物(PM10),55,59,48,35,22,132,,95,95,4,6,5,5,0.5,0.4
2024-09-07T1600,1585A,109.8756,40.6532,包头市,市环境监测站,,38,30,28,26,23,82,,70,70,13,27,5,7,0.6,1.1
2024-09-07T1600,1587A,109.9991,40.5842,包头市,包头八中,,32,31,36,22,26,82,,51,51,11,29,4,9,0.7,1.2
2024-09-07T1600,1588A,109.8538,40.6821,包头市,青山宾馆,,39,39,20,21,18,84,,76,76,10,23,4,5,0.7,0.8
2024-09-07T1600,1589A,109.8642,40.6288,包头市,惠龙物流,,40,33,36,28,18,85,,70,70,12,28,6,10,0.7,1
2024-09-07T1600,1590A,110.0377,40.5546,包头市,东河鸿龙湾,,28,28,26,14,16,89,,66,66,6,18,7,11,0.6,0.9
2024-09-07T1600,3283A,109.9154,40.5685,包头市,滨河大厦,,28,18,29,17,20,88,,65,65,8,21,7,11,0.7,1
2024-09-07T1600,3419A,109.9447,40.6261,包头市,包头市委党校,,33,,29,23,19,87,,62,62,11,29,7,8,0.7,1.2
2024-09-07T1600,3683A,109.8331,40.6576,包头市,昆区政府,,38,32,32,26,26,84,,74,74,12,26,4,5,0.9,1.4
2024-09-07T1600,1930A,107.185,34.3063,宝鸡市,庙沟村,,38,28,20,6,9,121,,99,99,7,8,9,8,0.3,0.3
2024-09-07T1600,1931A,107.0708,34.3017,宝鸡市,竹园沟,,46,17,17,3,10,146,,92,92,12,10,10,9,0.5,0.4
2024-09-07T1600,1932A,107.1906,34.3672,宝鸡市,三陆医院,,40,31,27,14,14,126,,90,90,12,18,10,10,0.6,0.6
2024-09-07T1600,1933A,107.1431,34.3547,宝鸡市,监测站,,,,26,,14,,,72,,,14,,6,,0.6
2024-09-07T1600,1934A,107.1186,34.3739,宝鸡市,技工学校,,42,40,24,16,13,134,,92,92,17,13,9,8,0.5,0.6
2024-09-07T1600,1935A,107.3906,34.3528,宝鸡市,陈仓区环保局家属楼,,37,20,23,9,12,116,,88,88,10,15,9,9,0.6,0.6
2024-09-07T1600,1936A,107.2058,34.3497,宝鸡市,文理学院,,39,22,20,3,10,122,,95,95,8,11,10,10,0.5,0.5
2024-09-07T1600,1937A,107.2386,34.3622,宝鸡市,三迪小学,,38,25,24,11,12,121,,92,92,14,17,9,9,0.6,0.6
2024-09-07T1600,1051A,115.493,38.8632,保定市,游泳馆,,31,31,34,19,17,79,,82,63,16,19,3,3,0.1,0.2
2024-09-07T1600,1052A,115.5213,38.8959,保定市,华电二区,,29,29,36,12,15,74,,75,57,11,15,2,4,0.2,0.2
2024-09-07T1600,1053A,115.4713,38.9108,保定市,接待中心,,29,28,33,20,18,67,,71,56,13,14,1,3,0.3,0.3
2024-09-07T1600,1054A,115.4612,38.8416,保定市,地表水厂,,40,40,45,18,16,71,,63,57,12,19,1,2,0.1,0.1
2024-09-07T1600,3581A,115.31981,38.95208,保定市,满城区生态环境分局,,31,31,39,19,15,82,,72,72,15,18,3,4,0.3,0.3
2024-09-07T1600,3582A,115.47694,38.76408,保定市,清苑区第二中学,,40,40,49,26,22,68,,57,56,15,23,3,2,0.3,0.4
2024-09-07T1600,3583A,115.62909,39.02311,保定市,徐水物探局,,25,20,34,12,16,78,,65,65,15,22,2,3,0.4,0.4
2024-09-07T1600,4004A,115.4202,38.8656,保定市,双鹰农机,,25,25,40,15,16,76,,66,62,14,19,3,2,0.4,0.4
2024-09-07T1600,4034A,115.5150,38.8590,保定市,植保所站,,33,29,40,23,21,75,,68,61,13,22,3,5,0.3,0.3
2024-09-07T1600,2594A,99.1678,25.1081,保山市,市环境监测站,,39,37,34,10,20,122,,79,79,7,9,7,7,0.4,0.4
2024-09-07T1600,2595A,99.1711,25.1328,保山市,市环保局,颗粒物(PM10),85,120,38,18,16,128,,83,83,6,6,6,4,0.5,0.5
2024-09-07T1600,1866A,109.2262,21.588,北海市,牛尾岭水库,,,,,,,,,,,,,,,,
2024-09-07T1600,1867A,109.1436,21.4086,北海市,海滩公园,,,,,,,,,,,,,,,,
2024-09-07T1600,1868A,109.0981,21.4661,北海市,新市环保局,,22,17,14,3,5,70,,74,74,3,4,3,3,0.7,0.6
2024-09-07T1600,1869A,109.1778,21.5233,北海市,北海工业园,,21,21,22,3,8,66,,66,,4,5,4,4,0.4,0.5
2024-09-07T1600,3400A,109.1911,21.4415,北海市,龙潭自来水厂,,23,22,16,9,8,72,,76,76,2,3,3,4,0.6,0.6
2024-09-07T1600,1001A,116.3621,39.8784,北京市,万寿西宫,,33,32,25,23,13,72,,72,72,17,16,3,2,0.6,0.5
2024-09-07T1600,1002A,116.2202,40.2915,北京市,定陵,,15,14,15,10,9,41,,46,42,9,5,5,4,0.4,0.4
2024-09-07T1600,1003A,116.4174,39.9289,北京市,东四,,36,31,26,25,15,62,,78,78,23,24,3,3,0.6,0.5
2024-09-07T1600,1004A,116.4072,39.8863,北京市,天坛,,33,30,23,23,13,63,,69,69,20,19,3,3,0.6,0.5
2024-09-07T1600,1005A,116.462,39.9365,北京市,农展馆,,29,28,25,20,12,57,,64,64,16,23,3,3,0.5,0.4
2024-09-07T1600,1006A,116.3392,39.9295,北京市,官园,,,,49,21,12,61,,64,62,19,20,3,4,0.5,0.5
2024-09-07T1600,1007A,116.2878,39.9611,北京市,海淀万柳,,26,24,21,18,10,58,,55,54,15,18,2,3,0.3,0.4
2024-09-07T1600,1008A,116.6636,40.135,北京市,顺义新城,,24,19,18,10,8,76,,65,65,4,10,3,3,0.4,0.3
2024-09-07T1600,1009A,116.6275,40.3275,北京市,怀柔镇,,21,10,11,6,7,66,,58,57,8,11,3,3,0.2,0.3
2024-09-07T1600,1010A,116.2296,40.217,北京市,昌平镇,,17,17,19,11,11,44,,54,50,13,12,3,3,0.3,0.4
2024-09-07T1600,1011A,116.3966,39.9821,北京市,奥体中心,,26,22,20,18,11,62,,58,58,18,24,1,2,0.5,0.5
2024-09-07T1600,1012A,116.184,39.9136,北京市,古城,,34,34,23,19,12,62,,63,62,15,18,2,2,0.5,0.4
2024-09-07T1600,3281A,115.9718,40.4529,北京市,延庆夏都,,22,9,14,6,7,69,,61,58,4,6,3,3,0.3,0.3
2024-09-07T1600,3417A,117.0709,40.1465,北京市,平谷新城,,27,23,23,17,13,85,,70,70,4,6,3,3,0.2,0.3
2024-09-07T1600,3418A,116.8336,40.4095,北京市,密云新城,,23,9,10,6,5,71,,62,60,2,3,3,3,0.3,0.3
2024-09-07T1600,3671A,116.088,39.9726,北京市,门头沟三家店,,21,18,24,11,12,66,,61,59,12,13,3,3,0.4,0.4
2024-09-07T1600,3672A,116.1541,39.8204,北京市,丰台云岗,,30,25,27,21,12,45,,49,49,11,15,2,2,0.5,0.4
2024-09-07T1600,3673A,116.6804,39.9081,北京市,通州东关,,35,29,30,24,17,78,,84,84,15,22,3,2,0.5,0.5
2024-09-07T1600,3674A,115.9577,39.7603,北京市,房山燕山,,28,23,21,19,14,75,,72,72,9,7,3,3,0.4,0.4
2024-09-07T1600,3675A,116.4672,39.7733,北京市,大兴旧宫,,35,30,26,24,15,88,,79,79,12,16,3,3,0.5,0.4
2024-09-07T1600,3694A,115.986,40.4563,北京市,延庆石河营,,20,8,12,6,7,63,,55,55,3,6,3,3,0.3,0.3
2024-09-07T1600,3695A,116.6151,40.3053,北京市,怀柔新城,,20,9,12,3,6,62,,60,57,4,6,3,3,0.3,0.3
2024-09-07T1600,3696A,116.2545,39.8768,北京市,丰台小屯,颗粒物(PM10),52,54,27,21,11,45,,55,52,17,15,3,3,0.5,0.4
2024-09-07T1600,3697A,116.84,40.3844,北京市,密云镇,,19,9,13,6,5,60,,56,53,1,8,3,3,0.3,0.4
2024-09-07T1600,1761A,123.8275,41.3064,本溪市,大峪,,30,30,34,12,10,58,,26,26,24,25,8,8,0.8,1
2024-09-07T1600,1762A,123.7567,41.3325,本溪市,溪湖,,36,36,45,11,13,58,,30,30,20,28,6,5,0.7,0.8
2024-09-07T1600,1763A,123.7169,41.3094,本溪市,彩屯,,33,33,41,14,18,59,,30,30,29,37,11,10,0.7,0.8
2024-09-07T1600,1764A,123.7669,41.2864,本溪市,东明,,49,49,43,17,14,46,,28,28,38,38,6,7,0.9,1
2024-09-07T1600,1765A,123.7992,41.2664,本溪市,新立屯,,38,38,33,10,10,40,,29,27,36,38,4,5,0.8,1
2024-09-07T1600,1766A,123.8142,41.3472,本溪市,威宁,,36,36,39,12,14,36,,22,22,25,27,6,8,0.7,0.9
2024-09-07T1600,2587A,105.2864,27.3125,毕节市,八中,,26,13,28,8,25,83,,86,86,6,11,5,6,0.5,0.6
2024-09-07T1600,2588A,105.31,27.2944,毕节市,师专,,28,12,32,9,24,87,,91,91,8,13,6,8,0.5,0.6
2024-09-07T1600,3537A,105.3631,27.3533,毕节市,长征村,,29,11,45,9,38,91,,93,93,5,9,6,8,0.5,0.6
2024-09-07T1600,1629A,118.0018,37.3617,滨州市,第二水厂,,40,19,22,7,10,128,,124,124,6,24,20,11,0.4,0.5
2024-09-07T1600,1630A,117.9776,37.393,滨州市,北中新校,,43,17,23,7,7,137,,131,131,5,17,16,10,0.6,0.7
2024-09-07T1600,3514A,117.9378,37.3956,滨州市,中海酒店,细颗粒物(PM2.5),55,,16,39,14,146,,131,131,7,18,18,10,0.5,0.6
2024-09-07T1600,3515A,117.9378,37.3553,滨州市,开发区一中,,47,19,27,7,13,148,,133,133,9,26,19,11,0.5,0.6
2024-09-07T1600,3516A,118.0917,37.694,滨州市,金海六路,,40,17,24,3,5,126,,123,123,6,19,7,8,0.4,0.4
2024-09-07T1600,4028A,117.9956,37.3753,滨州市,滨州市西街道办事处,,42,19,19,9,12,134,,130,130,4,25,20,10,0.5,0.6
2024-09-07T1600,2311A,115.8072,33.8399,亳州市,污水处理厂,,39,39,40,25,23,111,,82,82,6,14,5,12,0.6,0.5
2024-09-07T1600,2312A,115.7789,33.8518,亳州市,三国揽胜宫,,48,48,42,32,24,107,,79,79,3,8,4,10,0.5,0.5
2024-09-07T1600,3332A,115.7633,33.8034,亳州市,亳州学院,,38,30,43,26,18,111,,84,84,5,10,2,9,0.5,0.5
2024-09-07T1600,2693A,82.0485,44.8556,博尔塔拉蒙古自治州,市党校,,28,10,30,6,12,87,,97,86,5,6,5,5,0.3,0.3
2024-09-07T1600,2694A,82.0806,44.8969,博尔塔拉蒙古自治州,市环保局,,25,23,38,9,10,78,,90,77,7,8,4,4,0.3,0.3
2024-09-07T1600,1071A,116.8842,38.2991,沧州市,沧县城建局,臭氧1小时,68,30,32,13,13,174,,107,107,18,24,10,5,0.6,0.4
2024-09-07T1600,1072A,116.8584,38.3254,沧州市,电视转播站,臭氧1小时,83,33,27,19,12,186,,117,117,17,21,6,6,0.6,0.4
2024-09-07T1600,1073A,116.8709,38.3228,沧州市,市环保局,臭氧1小时,65,40,34,18,14,172,,106,106,13,18,11,6,0.4,0.3
2024-09-07T1600,3324A,116.8136,38.3004,沧州市,河北水利电力学院,臭氧1小时,75,44,23,17,14,180,,115,115,17,20,10,6,0.5,0.3
2024-09-07T1600,2622A,97.1806,31.1273,昌都市,昌都监测站,,21,,6,3,4,65,,63,63,4,7,7,7,0.6,0.6
2024-09-07T1600,3719A,97.1714,31.1406,昌都市,昌都会议中心,,23,8,7,3,4,71,,63,63,2,6,8,7,0.6,0.6
2024-09-07T1600,2690A,88.1236,43.8886,昌吉回族自治州,天山天池,,20,18,25,3,11,64,,73,70,10,6,1,3,0.5,0.5
2024-09-07T1600,2692A,87.2717,44.0297,昌吉回族自治州,新区政务中心,,27,27,38,12,12,77,,69,67,8,16,5,7,0.5,0.6
2024-09-07T1600,3613A,87.3095,44.0142,昌吉回族自治州,亚心广场,,23,19,41,3,9,73,,74,69,16,21,3,6,0.3,0.4
2024-09-07T1600,1119A,125.3325,43.9166,长春市,食品厂,,32,30,27,11,10,100,,81,81,15,30,6,6,0.4,0.4
2024-09-07T1600,1120A,125.2863,43.9027,长春市,客车厂,,31,28,24,11,9,99,,84,84,13,26,8,8,0.4,0.5
2024-09-07T1600,1121A,125.2841,43.8463,长春市,邮电学院,,34,21,23,3,5,106,,87,87,11,22,8,8,0.3,0.4
2024-09-07T1600,1122A,125.3716,43.8772,长春市,劳动公园,,35,24,24,10,6,112,,90,90,10,23,9,8,0.3,0.3
2024-09-07T1600,1123A,125.3297,43.8805,长春市,园林处,,31,27,23,8,5,99,,84,84,10,20,4,6,0.4,0.4
2024-09-07T1600,1124A,125.4605,43.79,长春市,净月潭,,35,28,17,9,4,111,,85,85,8,8,8,6,0.4,0.4
2024-09-07T1600,1125A,125.7194,43.515,长春市,甩湾子,,,,,,,,,,,,,,,,
2024-09-07T1600,1126A,125.3863,43.8447,长春市,经开区环卫处,,34,29,24,7,6,108,,81,81,12,22,8,8,0.4,0.4
2024-09-07T1600,1127A,125.245,43.7783,长春市,高新区管委会,,36,23,23,8,6,114,,86,86,8,24,6,5,0.5,0.5
2024-09-07T1600,1128A,125.1761,43.8325,长春市,岱山公园,,,,27,,7,,,45,,,38,,6,,0.4
2024-09-07T1600,1335A,113.0833,28.2325,长沙市,经开区环保局,,33,33,57,3,31,82,,109,109,7,15,2,3,0.3,0.6
2024-09-07T1600,1336A,112.8872,28.2189,长沙市,高开区环保局,,29,21,57,20,32,83,,95,95,5,11,2,3,0.5,0.9
2024-09-07T1600,1337A,113.0792,28.2053,长沙市,马坡岭,,41,41,56,10,36,76,,118,118,9,12,2,3,0.4,0.7
2024-09-07T1600,1338A,112.9394,28.19,长沙市,湖南师范大学,,25,13,60,3,38,79,,106,106,2,8,5,4,0.5,0.8
2024-09-07T1600,1339A,113.0178,28.1322,长沙市,雨花区环保局,,29,,55,20,30,78,,115,115,7,12,4,5,0.3,0.6
2024-09-07T1600,1340A,112.9792,28.2597,长沙市,伍家岭,,30,30,59,6,33,81,,102,102,2,8,1,2,0.5,0.8
2024-09-07T1600,1341A,113.0014,28.1944,长沙市,火车新站,,24,23,57,3,33,75,,110,110,2,9,3,4,0.3,0.7
2024-09-07T1600,1342A,112.9844,28.1178,长沙市,天心区环保局,,22,13,60,3,33,68,,101,101,7,10,2,4,0.3,0.7
2024-09-07T1600,1343A,112.8908,28.1308,长沙市,湖南中医药大学,,27,10,57,3,36,85,,99,99,4,8,4,4,0.8,1.1
2024-09-07T1600,1344A,112.9581,28.3611,长沙市,沙坪,,38,38,73,15,30,103,,92,92,8,9,7,8,0.5,0.7
2024-09-07T1600,1727A,113.1147,36.1547,长治市,清华站,,48,24,24,12,10,151,,138,138,5,8,7,8,0.5,0.6
2024-09-07T1600,1728A,113.1031,36.1989,长治市,监测站,,47,29,25,14,11,150,,138,138,10,14,8,9,0.8,0.7
2024-09-07T1600,1730A,113.0886,36.2125,长治市,审计局,,46,30,24,14,11,147,,131,131,13,16,7,7,0.6,0.4
2024-09-07T1600,1731A,113.0844,36.1856,长治市,长治八中,,49,34,28,20,12,156,,137,137,8,12,7,8,0.7,0.6
2024-09-07T1600,2845A,113.1569,36.1911,长治市,德盛苑,,47,24,27,12,11,148,,133,133,8,9,5,5,0.5,0.5
2024-09-07T1600,3568A,113.06,36.0464,长治市,向阳小学,,47,47,44,26,21,148,,138,138,8,12,7,9,0.4,0.4
2024-09-07T1600,3569A,112.8792,36.3144,长治市,屯留一中,,47,39,38,24,18,150,,142,142,4,10,6,8,0.4,0.5
2024-09-07T1600,3570A,113.235,36.3489,长治市,潞城四中,,44,30,32,18,14,139,,140,140,6,13,6,7,0.5,0.6
2024-09-07T1600,1854A,111.6975,28.9703,常德市,市二中,,,50,46,,42,156,,113,113,5,7,7,8,0.7,0.7
2024-09-07T1600,1857A,111.7158,29.1456,常德市,白鹤山,,,,,,,,,,,,,,,,
2024-09-07T1600,3138A,111.7153,29.0289,常德市,武陵区永安,,48,44,45,32,30,152,,110,110,6,8,7,8,0.8,0.7
2024-09-07T1600,3139A,111.6892,28.9881,常德市,鼎城区玉霞,,49,49,46,34,29,155,,113,113,5,7,6,7,0.7,0.7
2024-09-07T1600,3140A,111.6625,29.0531,常德市,武陵区长庚,,48,46,48,30,29,151,,116,116,7,9,8,9,0.6,0.6
2024-09-07T1600,1196A,119.9633,31.762,常州市,市监测站,臭氧1小时,67,56,60,38,35,173,,142,142,14,29,7,10,0.4,0.7
2024-09-07T1600,1200A,119.9468,31.7069,常州市,武进监测站,颗粒物(PM10),53,56,47,33,33,139,,121,121,10,21,5,10,0.7,0.9
2024-09-07T1600,1201A,119.9255,31.9087,常州市,安家,臭氧1小时,55,42,48,27,31,164,,149,149,11,19,7,9,0.6,0.7
2024-09-07T1600,3002A,119.9805,31.8174,常州市,行政中心,臭氧1小时,65,55,49,30,31,172,,138,138,11,24,7,8,0.3,0.5
2024-09-07T1600,3003A,120.0522,31.7748,常州市,经开区,"颗粒物(PM10),臭氧1小时",57,63,57,24,33,165,,132,132,6,26,10,14,0.5,0.7
2024-09-07T1600,3010A,119.9025,31.7964,常州市,钟楼,细颗粒物(PM2.5),52,47,53,36,32,150,,126,126,14,25,8,11,0.5,0.7
2024-09-07T1600,3429A,119.8598,31.7066,常州市,武进经发区,,,,55,,35,,,103,,,29,,12,,0.6
2024-09-07T1600,3430A,119.5826,31.7245,常州市,金坛城区,臭氧1小时,60,47,44,42,28,168,,28,,10,15,8,8,0.5,0.6
2024-09-07T1600,2220A,120.4318,41.5881,朝阳市,西梁,,29,7,29,3,13,91,,56,56,6,23,6,6,0.4,0.6
2024-09-07T1600,2221A,120.4521,41.5646,朝阳市,河畔小区,,29,16,25,10,12,90,,56,56,6,16,9,8,0.6,0.6
2024-09-07T1600,2222A,120.4176,41.5648,朝阳市,八里堡,,29,18,33,8,15,91,,58,58,10,24,12,11,0.8,0.8
2024-09-07T1600,2223A,120.3806,41.5969,朝阳市,农业园区,,29,14,19,8,12,92,,61,61,2,15,7,7,0.5,0.6
2024-09-07T1600,1705A,116.6367,23.6719,潮州市,西园路,,21,15,16,11,6,65,,47,47,6,9,6,6,0.3,0.3
2024-09-07T1600,3026A,116.6183,23.6608,潮州市,市政府,,22,21,13,3,4,68,,52,52,4,7,5,6,0.6,0.6
2024-09-07T1600,4036A,116.6461,23.6761,潮州市,金山,,22,20,13,11,11,70,,52,52,4,8,7,7,0.5,0.5
2024-09-07T1600,2472A,113.0073,25.9061,郴州市,马头岭,,18,11,19,9,8,55,,51,51,2,7,6,8,0.3,0.3
2024-09-07T1600,2473A,113.0116,25.8226,郴州市,市职中,,19,6,14,3,9,60,,57,57,6,11,3,4,0.3,0.4
2024-09-07T1600,2474A,113.0161,25.8001,郴州市,兴隆步行街,,20,6,19,3,10,61,,56,56,5,10,6,8,0.4,0.4
2024-09-07T1600,2475A,113.0383,25.8071,郴州市,市审计局,,19,7,18,3,10,58,,55,55,3,9,3,4,0.3,0.4
2024-09-07T1600,2476A,113.0348,25.7759,郴州市,市环保局,,22,12,22,3,10,70,,64,64,8,12,4,6,0.4,0.5
2024-09-07T1600,1431A,103.9728,30.7236,成都市,金泉两河,臭氧1小时,109,37,26,12,10,218,,151,151,5,9,1,2,0.5,0.4
2024-09-07T1600,1432A,104.176,30.6872,成都市,十里店,臭氧1小时,69,38,27,18,18,175,,136,136,12,7,5,5,0.4,0.4
2024-09-07T1600,1433A,104.079,30.5706,成都市,三瓦窑,臭氧1小时,85,,28,36,19,188,,148,148,19,21,2,2,0.5,0.5
2024-09-07T1600,1434A,104.1114,30.63,成都市,沙河铺,臭氧1小时,88,26,30,18,17,190,,141,141,8,13,8,8,0.4,0.5
2024-09-07T1600,1437A,104.0786,30.6531,成都市,君平街,臭氧1小时,111,43,27,22,17,222,,151,151,11,13,2,2,0.6,0.6
2024-09-07T1600,1438A,103.613,31.0283,成都市,灵岩寺,,,,,,,,,,,,,,,,
2024-09-07T1600,2880A,104.0239,30.65639,成都市,大石西路,臭氧1小时,107,38,27,20,18,213,,149,149,12,12,5,5,0.7,0.6
2024-09-07T1600,3136A,104.2725,30.5589,成都市,龙泉驿区区政府,,50,24,23,17,16,160,,140,140,6,9,5,5,0.4,0.4
2024-09-07T1600,3357A,104.0106,30.6931,成都市,金博路,臭氧1小时,110,26,18,20,11,219,,144,144,10,11,2,2,0.4,0.4
2024-09-07T1600,3359A,104.0578,30.5225,成都市,华阳,臭氧1小时,78,31,27,12,12,182,,143,143,5,12,3,3,0.6,0.6
2024-09-07T1600,3487A,104.2394,30.5319,成都市,车城东七路,臭氧1小时,98,38,33,21,39,198,,157,157,8,11,3,3,0.5,0.5
2024-09-07T1600,3488A,104.3853,30.7453,成都市,青白江技师分院,臭氧1小时,83,24,28,15,21,186,,141,141,8,16,3,3,0.4,0.5
2024-09-07T1600,3489A,104.0789,30.4072,成都市,科学城,臭氧1小时,74,34,31,29,25,179,,152,152,2,9,2,3,0.5,0.5
2024-09-07T1600,4011A,103.8506,30.6947,成都市,光华大道三段,臭氧1小时,69,16,22,9,8,175,,140,140,3,9,2,2,0.5,0.6
2024-09-07T1600,1062A,117.9531,40.9081,承德市,铁路,,19,14,24,11,11,58,,56,52,19,26,7,15,0.2,0.4
2024-09-07T1600,1063A,117.9392,40.9763,承德市,中国银行,,20,13,21,7,6,64,,60,60,14,20,5,6,0.3,0.3
2024-09-07T1600,1064A,117.9503,40.928,承德市,开发区,,21,21,28,8,11,63,,64,58,15,23,5,11,0.4,0.6
2024-09-07T1600,1065A,117.8051,40.9655,承德市,文化中心,,20,19,25,14,6,60,,63,63,12,18,11,10,0.5,0.3
2024-09-07T1600,1066A,117.9268,41.0026,承德市,离宫,,23,,20,16,18,53,,47,47,6,11,5,2,0.4,0.3
2024-09-07T1600,2314A,117.47,30.6618,池州市,池州学院,臭氧1小时,58,50,48,34,32,166,,149,149,9,17,7,10,0.5,0.7
2024-09-07T1600,3237A,117.4918,30.6617,池州市,展览馆,臭氧1小时,57,50,47,34,29,165,,149,149,6,13,7,6,0.6,0.8
2024-09-07T1600,3333A,117.5627,30.695,池州市,第八中学,,48,41,48,32,29,152,,143,143,10,18,6,5,0.5,0.6
2024-09-07T1600,3334A,117.5038,30.6243,池州市,第十二中学,臭氧1小时,64,47,43,29,27,171,,148,148,11,14,5,5,0.5,0.7
2024-09-07T1600,1744A,118.9233,42.2816,赤峰市,松山一中,,33,6,14,3,6,103,,83,83,19,20,9,9,0.4,0.4
2024-09-07T1600,1745A,118.9576,42.2728,赤峰市,哈达街,,32,7,14,3,6,101,,80,80,12,15,8,8,0.2,0.2
2024-09-07T1600,1746A,118.8788,42.2554,赤峰市,天义路,,34,6,14,3,6,107,,86,86,12,17,6,10,0.1,0.1
2024-09-07T1600,3058A,119.2658,42.0353,赤峰市,银河街,,34,10,40,3,23,106,,82,82,9,21,18,18,0.3,0.7
2024-09-07T1600,3286A,118.9359,42.3147,赤峰市,桥北物流园区,,34,,23,6,9,108,,84,84,12,24,6,6,0.4,0.5
2024-09-07T1600,2521A,107.3476,22.4136,崇左市,市环保局江州分局,,20,,16,3,8,62,,64,60,2,2,6,6,0.6,0.6
2024-09-07T1600,2522A,107.3702,22.3707,崇左市,城南新区,,22,10,14,3,9,68,,67,65,2,2,2,2,0.5,0.6
2024-09-07T1600,2298A,118.3093,32.3153,滁州市,老年大学,臭氧1小时,87,42,37,33,22,189,,134,134,9,8,8,5,0.4,0.4
2024-09-07T1600,2299A,118.3244,32.2786,滁州市,人大宾馆,臭氧1小时,103,51,44,39,25,205,,141,141,12,12,8,6,0.6,0.5
2024-09-07T1600,3207A,118.3118,32.3038,滁州市,市政府原办公楼,臭氧1小时,88,38,36,36,26,190,,132,132,8,9,8,7,0.5,0.5
2024-09-07T1600,3331A,118.3267,32.2634,滁州市,图书馆,臭氧1小时,103,48,39,26,22,205,,140,140,8,8,7,5,0.2,0.1
2024-09-07T1600,2605A,101.5482,25.0441,楚雄彝族自治州,州环境监测站,,39,22,28,12,23,122,,95,95,6,18,9,10,0.4,0.6
2024-09-07T1600,2606A,101.538,25.0492,楚雄彝族自治州,市经济开发区,,38,18,28,18,22,120,,94,94,7,17,8,10,0.6,0.7
2024-09-07T1600,2548A,107.5277,31.2827,达州市,达州职业技术学院,,35,24,33,9,14,111,,98,98,3,10,5,5,0.5,0.6
2024-09-07T1600,2549A,107.5086,31.2186,达州市,市环境监测站,,38,23,37,7,17,119,,102,102,10,26,5,6,0.4,0.5
2024-09-07T1600,2550A,107.4988,31.2132,达州市,凤凰小区,,40,17,32,7,20,126,,123,123,7,22,5,6,0.4,0.6
2024-09-07T1600,2551A,107.5082,31.1986,达州市,达县机关宾馆,,39,22,36,14,18,122,,107,107,12,28,4,4,0.3,0.4
2024-09-07T1600,2552A,107.4644,31.2124,达州市,市政中心,,40,39,43,14,22,127,,116,116,7,19,2,4,0.2,0.3
2024-09-07T1600,2614A,100.1542,25.7054,大理白族自治州,大理市环境监测站,,37,17,33,14,19,116,,70,70,5,23,4,4,0.5,0.7
2024-09-07T1600,2615A,100.2171,25.5811,大理白族自治州,大理古城,,35,14,29,12,17,111,,73,73,3,11,8,9,0.6,0.6
2024-09-07T1600,1109A,121.612,38.9741,大连市,甘井子,,44,28,22,10,8,139,,116,116,12,21,12,10,0.7,0.5
2024-09-07T1600,1110A,121.565,38.9511,大连市,周水子,,40,28,21,12,9,128,,101,101,14,34,8,8,0.9,0.7
2024-09-07T1600,1111A,121.5637,38.8845,大连市,星海三站,,42,19,18,6,8,133,,128,128,6,12,8,7,0.4,0.4
2024-09-07T1600,1112A,121.6302,38.9117,大连市,青泥洼桥,,45,19,25,10,11,144,,121,121,9,26,11,10,0.6,0.5
2024-09-07T1600,1113A,121.6251,38.8638,大连市,傅家庄,,46,23,18,10,10,145,,132,132,7,16,10,10,0.6,0.6
2024-09-07T1600,1114A,121.5213,38.8661,大连市,七贤岭,,47,22,20,12,8,150,,137,137,7,12,11,8,0.7,0.5
2024-09-07T1600,1115A,121.2529,38.8061,大连市,旅顺,,45,25,13,9,8,144,,122,122,10,15,10,8,0.6,0.4
2024-09-07T1600,1116A,121.7485,39.1311,大连市,金州,,44,20,17,10,10,139,,120,120,10,14,9,8,0.7,0.5
2024-09-07T1600,1117A,121.7811,39.0496,大连市,开发区,,44,23,21,10,10,138,,127,127,14,17,10,13,0.5,0.4
2024-09-07T1600,1118A,121.9762,39.0631,大连市,双D港,臭氧1小时,53,22,21,12,11,162,,135,135,17,19,9,10,0.7,0.6
2024-09-07T1600,1789A,124.81117,46.03138,大庆市,大同区,颗粒物(PM10),88,125,59,20,15,91,,75,75,9,9,4,4,0.3,0.3
2024-09-07T1600,1790A,125.129,46.533,大庆市,龙凤区,颗粒物(PM10),54,58,61,7,15,87,,72,72,14,16,3,7,0.4,0.5
2024-09-07T1600,1791A,124.902,46.408,大庆市,红岗区,,30,29,27,8,15,95,,76,76,6,15,6,6,0.3,0.3
2024-09-07T1600,1792A,125.153,46.586,大庆市,萨尔图区,,38,38,30,9,9,88,,71,71,9,16,5,5,0.3,0.3
2024-09-07T1600,1793A,124.9042,46.6215,大庆市,让胡路区,,30,30,27,8,12,87,,71,71,7,12,4,4,0.3,0.3
2024-09-07T1600,3481A,125.141,46.634,大庆市,萨区政府监测点,,30,30,24,3,6,92,,77,77,8,14,5,6,0.3,0.4
2024-09-07T1600,1721A,113.3819,40.1097,大同市,果树场,,,,,,,,,,,,,,,,
2024-09-07T1600,1723A,113.2994,40.0758,大同市,云冈宾馆,,25,18,20,13,11,78,,55,55,14,18,8,7,0.6,0.7
2024-09-07T1600,1724A,113.3444,40.0917,大同市,大同大学,,28,10,13,10,10,88,,56,56,9,17,9,9,0.5,0.6
2024-09-07T1600,1725A,113.2661,40.1269,大同市,安家小村,,28,22,16,8,11,89,,63,63,11,16,10,9,0.9,1
2024-09-07T1600,1726A,113.2711,40.0844,大同市,教育学院,,25,22,18,14,13,77,,54,54,13,20,7,6,0.8,0.9
2024-09-07T1600,3282A,113.3397,40.0597,大同市,大同市卫生学校,,25,20,17,11,12,80,,50,50,9,13,8,7,0.7,0.8
2024-09-07T1600,3565A,113.1367,40.1122,大同市,云冈站,,47,47,19,23,10,73,,64,64,19,15,11,9,0.3,0.5
2024-09-07T1600,3566A,113.1186,40.2556,大同市,图书馆,,24,18,10,14,7,76,,68,68,14,14,8,9,0.7,0.7
2024-09-07T1600,3567A,113.5931,40.0461,大同市,区一中,,29,9,10,3,6,90,,74,74,10,11,8,8,0.6,0.6
2024-09-07T1600,3676A,113.2802,40.0995,大同市,第二人民医院,,27,22,17,14,14,84,,58,58,13,18,10,10,0.7,0.8
2024-09-07T1600,2269A,124.1069,50.4097,大兴安岭地区,科技局,,23,7,14,7,13,73,,58,58,2,4,5,5,0.2,0.2
2024-09-07T1600,3663A,124.1164,50.4278,大兴安岭地区,红旗社区,,22,6,16,3,9,69,,55,55,4,9,4,4,0.3,0.3
2024-09-07T1600,1600A,124.3303,40.0625,丹东市,江湾东路,,23,20,21,9,8,72,,78,78,11,19,6,5,0.5,0.6
2024-09-07T1600,1601A,124.4256,40.1503,丹东市,临江后街,,24,13,17,3,5,75,,82,82,6,15,5,7,0.6,0.7
2024-09-07T1600,1602A,124.3933,40.1461,丹东市,元宝山,,20,11,13,3,6,63,,70,70,7,14,2,3,0.7,0.8
2024-09-07T1600,1603A,124.3633,40.1092,丹东市,民主桥,,21,16,15,6,4,67,,83,83,10,18,4,4,0.6,0.6
2024-09-07T1600,3541A,109.5726,19.5167,儋州市,第一中学子站,,17,6,7,3,3,54,,61,57,3,2,4,4,0.5,0.5
2024-09-07T1600,3542A,109.5567,19.5187,儋州市,东坡学校子站,,,,12,13,10,53,,,,5,3,4,5,0.7,0.7
2024-09-07T1600,2616A,98.5842,24.428,德宏傣族景颇族自治州,德宏州监测站,,47,47,31,32,19,135,,75,75,11,11,32,10,0.6,0.7
2024-09-07T1600,3677A,98.5881,24.4368,德宏傣族景颇族自治州,芒市人民政府综合楼,,46,33,32,29,17,147,,83,83,11,9,34,9,0.5,0.7
2024-09-07T1600,1901A,104.4239,31.1208,德阳市,东山公园,臭氧1小时,59,19,21,16,16,167,,132,132,6,8,2,3,0.6,0.6
2024-09-07T1600,1902A,104.3826,31.1317,德阳市,西小区,臭氧1小时,78,28,25,15,17,182,,138,138,10,10,3,3,0.5,0.5
2024-09-07T1600,1904A,104.3553,31.1091,德阳市,耐火材料厂,,46,24,26,17,17,146,,126,126,9,16,3,4,0.5,0.5
2024-09-07T1600,3639A,104.4019,31.1244,德阳市,市教育局,臭氧1小时,78,24,27,12,15,182,,137,137,9,14,1,2,0.6,0.6
2024-09-07T1600,1622A,116.3032,37.4674,德州市,儿童乐园,臭氧1小时,116,58,48,27,18,232,,168,168,15,20,14,14,0.6,0.6
2024-09-07T1600,1624A,116.2991,37.4451,德州市,监理站,臭氧1小时,85,36,32,14,16,188,,158,158,7,14,13,15,0.6,0.7
2024-09-07T1600,3066A,116.2721,37.4379,德州市,九衢泉纯净水厂,臭氧1小时,64,34,34,17,16,171,,147,147,10,20,10,14,0.6,0.7
2024-09-07T1600,3371A,116.3728,37.4403,德州市,开发区人民医院,臭氧1小时,101,46,40,14,15,202,,162,162,13,25,11,13,0.7,0.6
2024-09-07T1600,3372A,116.3572,37.4094,德州市,太阳城中学,,,39,36,,15,192,,48,,7,25,13,15,0.3,0.5
2024-09-07T1600,3511A,116.5652,37.3319,德州市,陵城艺术中心,臭氧1小时,102,46,38,19,14,204,,161,161,13,25,12,15,0.6,0.6
2024-09-07T1600,2621A,99.7056,27.8317,迪庆藏族自治州,迪庆州站,,31,17,23,10,12,98,,84,84,11,11,8,7,0.4,0.5
2024-09-07T1600,3180A,99.7136,27.8094,迪庆藏族自治州,质量技术监督局,,30,20,23,7,9,93,,73,73,15,13,9,9,0.4,0.5
2024-09-07T1600,2663A,104.6241,35.5734,定西市,东关小学,,27,24,20,14,16,86,,76,74,3,7,4,3,0.3,0.3
2024-09-07T1600,2664A,104.6194,35.5934,定西市,供电公司,,29,13,22,8,17,91,,78,78,2,8,8,6,0.2,0.2
2024-09-07T1600,1389A,113.7547,23.0494,东莞市,莞城梨川,,22,13,14,12,9,69,,44,44,10,13,5,5,0.6,0.6
2024-09-07T1600,1390A,113.7944,23.0128,东莞市,东城石井,,22,13,13,8,6,70,,45,45,10,16,4,4,0.6,0.6
2024-09-07T1600,1391A,113.7383,22.9658,东莞市,南城西平,,,18,13,15,6,64,,48,48,,15,3,2,0.6,0.6
2024-09-07T1600,3319A,113.7338,23.0381,东莞市,万江金泰,,24,12,13,8,7,75,,50,50,9,12,9,8,0.6,0.6
2024-09-07T1600,3626A,113.7533,23.0202,东莞市,南城元岭,,22,17,13,11,8,69,,50,50,12,11,6,7,0.5,0.6
2024-09-07T1600,3627A,113.7875,23.0457,东莞市,东城主山,,27,27,15,14,8,70,,44,44,12,11,8,8,0.6,0.5
2024-09-07T1600,1666A,118.6614,37.4309,东营市,市环保局,,48,22,17,3,3,153,,142,142,15,25,16,6,0.2,0.2
2024-09-07T1600,3036A,118.6904,37.4338,东营市,开发区管委会,,46,28,20,9,7,145,,133,133,10,18,17,5,0.2,0.2
2024-09-07T1600,3365A,118.5719,37.565,东营市,垦利区民丰路,,42,22,14,7,4,134,,114,114,3,18,5,3,0.4,0.3
2024-09-07T1600,3498A,118.5055,37.8612,东营市,河口城区,,36,12,15,3,4,114,,102,102,5,11,5,6,0.6,0.6
2024-09-07T1600,3646A,118.4978,37.4623,东营市,胜利站,,43,35,20,3,5,135,,120,120,12,19,9,6,0.3,0.3
2024-09-07T1600,3734A,118.35,37.26,东营市,理想之城,,45,24,17,12,10,142,,130,130,15,22,14,6,0.1,0.2
2024-09-07T1600,1591A,110.0023,39.8129,鄂尔多斯市,综合楼,,35,22,14,3,4,111,,88,88,8,12,8,8,0.6,0.6
2024-09-07T1600,1592A,109.9486,39.8261,鄂尔多斯市,巴音孟克林场办事处,,32,24,13,9,7,102,,84,83,10,14,4,5,0.5,0.6
2024-09-07T1600,1593A,109.7736,39.5986,鄂尔多斯市,康泽苑,,35,24,12,9,6,112,,92,92,9,8,8,6,0.5,0.5
2024-09-07T1600,1594A,109.8119,39.5989,鄂尔多斯市,华泰汽车城,,34,27,15,7,9,106,,85,85,7,10,7,7,0.4,0.5
2024-09-07T1600,1595A,109.9734,39.7884,鄂尔多斯市,奥林花园,,32,22,16,7,8,102,,80,80,8,16,4,5,0.6,0.7
2024-09-07T1600,2436A,114.8938,30.3994,鄂州市,市政府,臭氧1小时,84,47,59,22,23,187,,152,152,11,13,10,9,0.7,0.9
2024-09-07T1600,2437A,114.8989,30.3714,鄂州市,赵家坝,臭氧1小时,58,32,49,19,22,166,,143,143,10,12,10,10,0.9,1.1
2024-09-07T1600,3654A,114.8094,30.4089,鄂州市,精准医疗中心,臭氧1小时,54,36,46,17,25,163,,144,144,7,10,6,6,0.5,0.7
2024-09-07T1600,2454A,109.4978,30.2981,恩施土家族苗族自治州,湖北民院,,38,27,24,19,18,119,,113,113,12,13,8,8,0.9,0.9
2024-09-07T1600,2455A,109.4707,30.2798,恩施土家族苗族自治州,州电力总公司,,33,21,24,21,17,105,,105,105,12,15,8,8,0.6,0.7
2024-09-07T1600,3549A,109.5061,30.3772,恩施土家族苗族自治州,龙凤新区,,39,27,20,27,18,123,,108,108,11,9,7,6,0.9,0.9
2024-09-07T1600,2499A,108.3411,21.6158,防城港市,沙万,,20,17,14,6,8,64,,64,64,8,5,7,5,0.5,0.5
2024-09-07T1600,2500A,108.3514,21.7731,防城港市,防城档案局,,21,9,14,3,9,66,,60,60,4,6,7,7,0.4,0.5
2024-09-07T1600,2501A,108.3506,21.6414,防城港市,大海花园,,35,35,18,3,7,66,,58,58,5,9,5,6,0.4,0.5
2024-09-07T1600,1371A,113.1294,23.0067,佛山市,湾梁,,35,17,11,17,16,110,,66,66,17,19,6,7,0.6,0.6
2024-09-07T1600,1372A,113.1083,23.0478,佛山市,华材职中,,35,17,9,8,6,112,,65,65,14,17,6,6,0.3,0.3
2024-09-07T1600,1373A,113.144,23.0453,佛山市,南海气象局,,34,24,13,13,6,108,,60,60,10,14,6,6,0.6,0.5
2024-09-07T1600,1374A,113.2881,22.8094,佛山市,顺德苏岗,,23,14,10,7,4,72,,53,53,12,14,7,6,0.6,0.6
2024-09-07T1600,1376A,112.8383,22.8678,佛山市,高明孔堂,,31,10,15,10,7,97,,73,73,14,16,4,4,0.6,0.7
2024-09-07T1600,1377A,112.8836,23.1588,佛山市,三水监测站,,34,19,6,16,8,106,,68,68,15,17,6,6,0.4,0.3
2024-09-07T1600,1378A,112.867,23.185,佛山市,三水云东海,,34,20,13,13,8,107,,70,70,17,14,7,6,0.5,0.5
2024-09-07T1600,3625A,113.2544,22.7642,佛山市,容桂街道办,,19,17,6,9,8,60,,52,52,16,18,6,6,0.6,0.6
2024-09-07T1600,1280A,119.3903,26.0543,福州市,鼓山,,,,,,,,,,,,,,,,
2024-09-07T1600,1282A,119.2681,26.0504,福州市,师大,,19,10,14,3,4,58,,48,48,4,5,4,4,0.2,0.3
2024-09-07T1600,1283A,119.2984,26.1028,福州市,五四北路,,,,,1,3,56,,50,50,2,4,3,4,0.3,0.4
2024-09-07T1600,1284A,119.2648,26.0768,福州市,杨桥西路,,18,11,16,3,3,57,,51,51,2,6,3,3,0.2,0.3
2024-09-07T1600,1285A,119.317,26.0746,福州市,紫阳,,,,,,,,,,,,,,,,
2024-09-07T1600,3048A,119.5799,26.0936,福州市,九龙,,18,7,11,3,1,55,,50,50,2,5,5,6,0.3,0.3
2024-09-07T1600,3526A,119.5189,25.9664,福州市,吴航,,17,8,8,3,4,53,,44,44,2,2,5,6,0.1,0.2
2024-09-07T1600,1755A,123.7977,41.8491,抚顺市,望花区,,32,30,44,22,19,81,,44,44,36,33,24,10,1.2,0.9
2024-09-07T1600,1756A,123.9161,41.8822,抚顺市,顺城区,,34,34,32,12,12,87,,45,45,27,32,7,7,0.6,0.6
2024-09-07T1600,1757A,124.0436,41.8611,抚顺市,东洲区,,29,24,23,7,11,90,,48,48,7,14,8,6,0.5,0.5
2024-09-07T1600,1758A,123.9247,41.8642,抚顺市,新抚区,,29,28,34,12,11,91,,42,42,25,29,10,8,0.5,0.5
2024-09-07T1600,1759A,124.0972,41.8961,抚顺市,大伙房水库,,30,24,14,8,9,93,,50,50,4,13,5,5,0.5,0.5
2024-09-07T1600,1760A,123.7086,41.8391,抚顺市,沈抚新城,,40,38,36,28,20,87,,51,51,35,36,18,10,1.1,0.7
2024-09-07T1600,2376A,116.2127,28.0814,抚州市,桐源党溪,,28,8,32,3,18,89,,65,65,3,6,6,7,0.3,0.4
2024-09-07T1600,2377A,116.3544,27.9831,抚州市,市站,,27,18,26,3,12,84,,62,62,3,6,5,6,0.5,0.6
2024-09-07T1600,2378A,116.3565,27.963,抚州市,血防站,,26,17,25,3,13,82,,60,60,5,8,3,4,0.7,0.7
2024-09-07T1600,2379A,116.3564,28.0007,抚州市,采茶剧团,,27,20,26,6,15,84,,63,63,3,6,5,7,0.6,0.6
2024-09-07T1600,2380A,116.385,27.9647,抚州市,医学分院,,28,16,27,3,11,87,,64,64,3,7,5,6,0.4,0.5
2024-09-07T1600,2207A,121.6094,41.998,阜新市,工业园区,,32,,35,3,12,100,,68,68,8,28,6,10,0.4,0.6
2024-09-07T1600,2208A,121.6697,42.0279,阜新市,长青街,,30,,30,10,14,94,,66,66,6,23,6,11,0.3,0.5
2024-09-07T1600,2209A,121.6673,42.0705,阜新市,农业园区,,,3,25,,13,86,,73,73,8,24,5,10,0.2,0.4
2024-09-07T1600,2210A,121.6717,42.0224,阜新市,东苑,,29,6,39,3,16,90,,65,65,6,26,9,20,0.3,0.6
2024-09-07T1600,2211A,121.6506,42.0498,阜新市,玉龙新城,,31,,38,7,13,99,,65,65,6,24,8,9,0.2,0.4
2024-09-07T1600,2301A,115.8277,32.8929,阜阳市,市监测站,臭氧1小时,57,45,45,35,25,165,,107,107,6,10,13,7,0.6,0.6
2024-09-07T1600,2303A,115.8554,32.8605,阜阳市,开发区,臭氧1小时,63,55,54,33,27,170,,110,110,8,14,8,6,0.5,0.6
2024-09-07T1600,2875A,115.784,32.8892,阜阳市,阜阳职业技术学院,臭氧1小时,55,53,51,27,22,164,,106,106,7,11,9,6,0.4,0.4
2024-09-07T1600,3468A,115.7901,32.8613,阜阳市,市规划展馆,臭氧1小时,55,42,49,25,32,164,,111,111,9,13,6,6,0.7,0.6
2024-09-07T1600,3469A,115.836,32.9183,阜阳市,枣园社区,颗粒物(PM10),54,57,50,34,30,158,,100,100,8,13,6,6,0.6,0.7
2024-09-07T1600,2669A,102.9099,34.9841,甘南藏族自治州,州政府,,24,15,17,11,12,76,,63,63,1,12,9,8,0.3,0.4
2024-09-07T1600,3380A,102.8914,34.9617,甘南藏族自治州,甘肃民族师范学院,,24,10,8,3,9,74,,59,59,2,10,4,4,0.5,0.5
2024-09-07T1600,2570A,101.9603,30.0475,甘孜藏族自治州,水桥子,,32,8,7,8,4,100,,76,76,2,14,4,5,0.2,0.3
2024-09-07T1600,3065A,101.9533,29.9972,甘孜藏族自治州,州环保局,,30,20,12,3,5,96,,73,73,8,17,3,2,0.2,0.2
2024-09-07T1600,3414A,115.8347,28.932,赣江新区,桑海产业园,,28,12,28,11,21,89,,102,102,5,10,10,11,0.1,0.3
2024-09-07T1600,2362A,114.9017,25.9149,赣州市,通天岩,,,,,,,,,,,,,,,,
2024-09-07T1600,2363A,114.9367,25.8664,赣州市,地委,,23,,20,10,13,71,,60,60,6,9,11,11,0.8,0.8
2024-09-07T1600,2364A,114.9461,25.8481,赣州市,气象台,,21,13,22,8,13,66,,59,59,6,9,3,4,0.6,0.8
2024-09-07T1600,2365A,114.9322,25.8333,赣州市,市图书馆,,23,14,21,7,10,72,,66,66,3,8,4,4,0.7,0.8
2024-09-07T1600,2366A,114.8905,25.8471,赣州市,华坚鞋城,,23,19,24,6,12,71,,58,58,4,5,1,2,0.5,0.5
2024-09-07T1600,3109A,115.0093,25.8613,赣州市,赣县区卫计委,,23,16,17,8,10,73,,64,64,4,8,6,6,0.6,0.6
2024-09-07T1600,2683A,106.2319,36.1417,固原市,马园,,32,32,25,3,6,84,,71,71,13,21,6,5,0.9,0.8
2024-09-07T1600,2684A,106.2792,36.0022,固原市,监测站,,29,19,8,11,8,90,,78,78,8,12,4,4,0.5,0.5
2024-09-07T1600,2685A,106.2375,36.0211,固原市,新区,,26,22,11,3,6,81,,68,68,8,11,8,7,0.4,0.4
2024-09-07T1600,3522A,106.2177,35.9959,固原市,原州区十五小,,,,,,,,,,,,,,,,
2024-09-07T1600,2543A,106.6308,30.5278,广安市,小平旧居,,,,,,,,,,,,,,,,
2024-09-07T1600,2544A,106.6303,30.4576,广安市,市委,臭氧1小时,53,19,34,18,19,162,,127,127,8,14,2,3,0.4,0.4
2024-09-07T1600,2545A,106.6271,30.4663,广安市,友谊中学,臭氧1小时,55,22,25,18,16,164,,126,126,10,16,4,3,0.5,0.5
2024-09-07T1600,2547A,106.6388,30.4551,广安市,广电花园,臭氧1小时,57,24,34,17,16,165,,124,124,9,15,1,3,0.5,0.5
2024-09-07T1600,2902A,106.6351,30.4865,广安市,北辰小学,臭氧1小时,64,30,34,25,17,171,,131,131,7,14,5,5,0.4,0.4
2024-09-07T1600,2523A,105.8945,32.4535,广元市,黑石坡,,33,14,21,6,19,104,,73,73,8,9,5,6,0.5,0.5
2024-09-07T1600,2524A,105.821,32.4444,广元市,老城,,32,17,25,7,10,100,,84,84,8,15,1,3,0.8,0.8
2024-09-07T1600,2526A,105.8628,32.4287,广元市,监测站,,36,20,25,17,16,113,,90,90,11,16,5,6,0.8,0.8
2024-09-07T1600,3617A,105.8047,32.4166,广元市,经开区,,32,26,33,18,22,100,,78,78,12,16,5,7,0.8,0.8
2024-09-07T1600,1345A,113.2347,23.1423,广州市,广雅中学,,35,21,13,12,8,110,,68,68,14,16,5,5,0.8,0.8
2024-09-07T1600,1346A,113.2612,23.105,广州市,市五中,,36,19,14,15,10,114,,72,72,12,12,4,3,0.7,0.6
2024-09-07T1600,1348A,113.3478,23.0916,广州市,广东商学院,,31,19,14,14,9,97,,62,62,15,16,5,4,0.6,0.6
2024-09-07T1600,1349A,113.4332,23.1047,广州市,市八十六中,,28,16,14,10,8,88,,54,54,13,18,4,4,0.5,0.6
2024-09-07T1600,1350A,113.3505,22.9483,广州市,番禺中学,,35,,14,19,8,110,,72,72,12,15,4,4,0.6,0.7
2024-09-07T1600,1351A,113.2146,23.3916,广州市,花都师范,,26,18,12,13,6,82,,54,54,11,17,3,3,0.4,0.6
2024-09-07T1600,1352A,113.2597,23.1331,广州市,市监测站,,31,22,13,11,7,99,,60,60,13,15,5,4,0.6,0.6
2024-09-07T1600,1353A,113.5618,23.312,广州市,九龙镇镇龙,,23,15,9,11,6,73,,42,42,6,9,6,6,0.5,0.5
2024-09-07T1600,1354A,113.2765,23.1544,广州市,麓湖,,35,25,13,13,7,110,,64,64,15,17,5,4,0.6,0.5
2024-09-07T1600,1355A,113.443,23.3035,广州市,帽峰山森林公园,,28,10,4,6,2,87,,57,57,6,4,4,4,0.4,0.4
2024-09-07T1600,2846A,113.3221,23.1322,广州市,体育西,,32,19,13,13,8,100,,60,60,14,13,6,4,0.6,0.5
2024-09-07T1600,3298A,113.5717,23.5491,广州市,从化街口,,20,12,11,8,5,62,,52,52,6,8,6,6,0.5,0.5
2024-09-07T1600,3299A,113.3472,23.3692,广州市,白云竹料,,28,28,11,11,6,76,,48,48,9,10,4,4,0.5,0.5
2024-09-07T1600,3300A,113.2981,23.237,广州市,白云嘉禾,,29,18,10,10,6,91,,60,60,15,16,4,4,0.8,0.7
2024-09-07T1600,3301A,113.4256,23.1716,广州市,黄埔科学城,,30,16,11,8,6,93,,60,60,5,5,9,9,0.6,0.6
2024-09-07T1600,3302A,113.3942,23.0483,广州市,番禺大学城,,,16,14,15,8,96,,57,57,13,20,6,9,,0.6
2024-09-07T1600,3303A,113.4922,22.8168,广州市,南沙黄阁,,29,28,14,20,10,89,,65,65,16,18,5,5,0.7,0.7
2024-09-07T1600,3304A,113.5342,22.7896,广州市,南沙街,,27,23,11,11,8,84,,64,64,15,12,3,4,0.7,0.7
2024-09-07T1600,3443A,113.2902,23.5544,广州市,花都梯面,,20,13,12,8,5,61,,49,49,5,9,4,4,0.5,0.5
2024-09-07T1600,3445A,113.7858,23.7478,广州市,从化良口,,13,10,9,6,5,41,,48,47,4,4,6,6,0.6,0.6
2024-09-07T1600,3446A,113.8051,23.2614,广州市,增城荔城,,18,13,12,10,7,57,,44,44,4,8,4,4,0.5,0.5
2024-09-07T1600,2505A,109.568,23.1478,贵港市,德智高中,,,,,,,,,,,,,,,,
2024-09-07T1600,2506A,109.6047,23.0666,贵港市,江南子站,,20,12,16,11,11,61,,52,52,9,13,9,11,0.6,0.9
2024-09-07T1600,2507A,109.6014,23.0948,贵港市,贵城子站,,19,18,14,7,8,59,,57,54,7,6,7,6,0.5,0.5
2024-09-07T1600,2508A,109.5669,23.1065,贵港市,荷城子站,,20,14,11,3,4,63,,61,58,5,4,10,9,0.4,0.4
2024-09-07T1600,3405A,109.5886,23.1172,贵港市,新世纪学校,,19,,14,10,6,59,,60,56,3,3,8,8,0.5,0.5
2024-09-07T1600,1439A,106.6899,26.5998,贵阳市,马鞍山,,25,6,17,3,7,78,,72,72,6,10,2,3,0.5,0.6
2024-09-07T1600,1440A,106.6971,26.5694,贵阳市,市环保站,,27,27,27,11,23,77,,94,86,12,9,3,4,0.4,0.4
2024-09-07T1600,1441A,106.6243,26.6266,贵阳市,鉴湖路,,22,9,23,3,14,70,,74,72,5,6,4,4,0.3,0.4
2024-09-07T1600,1442A,106.7487,26.6343,贵阳市,燕子冲,,25,,15,7,17,80,,82,82,4,7,5,5,0.5,0.6
2024-09-07T1600,1443A,106.6555,26.4365,贵阳市,碧云窝,,25,14,38,3,14,79,,94,81,8,8,4,4,0.3,0.4
2024-09-07T1600,1444A,106.694,26.5161,贵阳市,中院村,,23,17,26,9,17,72,,93,80,9,7,6,7,0.5,0.6
2024-09-07T1600,1445A,106.7109,26.6027,贵阳市,红边门,,28,,27,19,24,77,,89,83,8,11,4,5,0.4,0.5
2024-09-07T1600,1446A,106.7164,26.5699,贵阳市,新华路,,25,,15,14,19,79,,89,87,6,8,1,3,0.4,0.4
2024-09-07T1600,1447A,106.674,26.5424,贵阳市,太慈桥,,25,9,18,3,11,80,,97,87,6,8,3,3,0.4,0.5
2024-09-07T1600,1552A,106.805,26.3003,贵阳市,桐木岭,,,,,,,,,,,,,,,,
2024-09-07T1600,1862A,110.4144,25.3167,桂林市,电子科大尧山校区,,32,32,23,10,13,66,,72,61,6,5,4,9,0.5,0.6
2024-09-07T1600,1863A,110.2819,25.2697,桂林市,监测站,,22,22,20,12,15,55,,68,55,8,8,7,10,0.4,0.5
2024-09-07T1600,1864A,110.3089,25.2708,桂林市,龙隐路小学,,20,14,16,13,16,63,,68,59,2,5,6,9,0.3,0.4
2024-09-07T1600,1865A,110.2869,25.2178,桂林市,八中,,26,26,19,10,13,56,,67,55,6,6,6,9,0.3,0.5
2024-09-07T1600,3403A,110.1764,25.2381,桂林市,创业大厦,,19,19,17,7,17,57,,66,57,5,5,7,7,0.4,0.4
2024-09-07T1600,3531A,110.296,25.1253,桂林市,旅游学院,,19,,8,7,9,59,,65,57,3,5,5,6,0.3,0.4
2024-09-07T1600,2674A,100.2561,34.4714,果洛藏族自治州,玛沁县大武镇,,32,16,16,8,11,100,,90,90,2,2,13,13,0.4,0.4
2024-09-07T1600,1129A,126.5422,45.755,哈尔滨市,岭北,,30,13,17,3,8,96,,90,90,6,12,5,8,0.9,0.3
2024-09-07T1600,1130A,126.561,45.8167,哈尔滨市,松北商大,,27,27,19,3,5,76,,65,65,11,15,7,7,0.4,0.4
2024-09-07T1600,1131A,126.979,45.5419,哈尔滨市,阿城会宁,,32,32,17,6,8,96,,72,72,11,11,11,11,0.4,0.5
2024-09-07T1600,1132A,126.599,45.7222,哈尔滨市,南岗学府路,,27,25,28,3,6,85,,70,70,7,14,6,6,0.4,0.5
2024-09-07T1600,1133A,126.689,45.7733,哈尔滨市,太平宏伟公园,,31,31,22,8,9,77,,63,63,15,20,6,4,0.4,0.4
2024-09-07T1600,1134A,126.635,45.7667,哈尔滨市,道外承德广场,,39,39,30,16,9,74,,62,62,15,24,6,6,0.3,0.3
2024-09-07T1600,1135A,126.685,45.7319,哈尔滨市,香坊红旗大街,,34,34,37,6,11,81,,67,67,11,24,7,7,0.5,0.6
2024-09-07T1600,1136A,126.6411,45.7258,哈尔滨市,动力和平路,,26,23,24,8,13,83,,65,65,8,20,5,7,0.4,0.5
2024-09-07T1600,1137A,126.593,45.7478,哈尔滨市,道里建国路,,35,35,26,3,8,80,,66,66,6,16,9,8,0.1,0.3
2024-09-07T1600,1138A,126.615,45.61,哈尔滨市,平房东轻厂,,35,35,26,11,7,87,,69,69,10,21,6,5,0.3,0.3
2024-09-07T1600,1139A,126.595,45.9855,哈尔滨市,呼兰师专,,27,23,22,8,8,84,,68,68,7,15,10,10,0.4,0.4
2024-09-07T1600,1140A,126.6206,45.6842,哈尔滨市,省农科院,,30,30,35,8,10,71,,61,61,18,32,4,6,0.3,0.4
2024-09-07T1600,2688A,93.5128,42.8172,哈密市,地区监测站,,42,42,73,12,21,129,,108,108,6,26,4,6,0.2,0.3
2024-09-07T1600,2689A,93.4961,42.8328,哈密市,哈密师范学校,,41,23,62,11,21,131,,104,104,5,32,4,4,0.2,0.5
2024-09-07T1600,2671A,100.9048,36.9639,海北藏族自治州,海晏县西海镇,,39,22,29,16,20,123,,100,100,4,10,15,16,0.4,0.6
2024-09-07T1600,3867A,102.0738,36.5056,海东市,平安区公安北苑,,40,16,25,7,14,125,,87,87,6,17,8,11,0.5,0.8
2024-09-07T1600,1409A,110.576,19.9507,海口市,东寨港,,,,,,,,,,,,,,,,
2024-09-07T1600,1410A,110.3232,20.0574,海口市,海南大学,,,,44,,10,,,67,,,3,,5,,0.4
2024-09-07T1600,1411A,110.283,20.0053,海口市,秀英海南医院,,15,13,20,10,9,38,,60,49,25,15,4,4,0.6,0.5
2024-09-07T1600,1412A,110.338,19.9969,海口市,海南师范大学,,19,14,17,6,6,60,,62,62,5,5,5,4,1.3,1.3
2024-09-07T1600,1413A,110.33,20.0356,海口市,龙华路环保局宿舍,,,,30,,14,,,,,,2,,4,,0.2
2024-09-07T1600,3539A,110.5111,19.9736,海口市,桂林洋子站,,,,36,,16,,,68,,,2,,4,,0.4
2024-09-07T1600,2673A,100.6188,36.2866,海南藏族自治州,共和县恰卜恰镇,,35,11,30,3,11,111,,101,101,2,13,13,14,0.3,0.4
2024-09-07T1600,2676A,97.3731,37.3753,海西蒙古族藏族自治州,德令哈市,,50,22,18,6,9,159,,134,134,6,7,10,9,0.3,0.4
2024-09-07T1600,1048A,114.5302,36.6116,邯郸市,东污水处理厂,,43,37,33,19,13,135,,126,126,4,16,3,4,0.5,0.4
2024-09-07T1600,1049A,114.4918,36.5713,邯郸市,矿院,,44,28,32,17,14,140,,131,131,6,22,2,4,0.4,0.4
2024-09-07T1600,1050A,114.484,36.6133,邯郸市,丛台公园,,44,44,28,18,11,133,,133,133,4,15,2,4,0.4,0.3
2024-09-07T1600,3458A,114.7895,36.5593,邯郸市,香泉濮院小区,,50,50,40,16,14,148,,145,145,6,16,1,4,0.6,0.4
2024-09-07T1600,3579A,114.50634,36.77178,邯郸市,永年区实验高中,臭氧1小时,65,50,50,35,22,172,,139,139,7,28,3,3,0.5,0.6
2024-09-07T1600,3580A,114.20016,36.44293,邯郸市,峰峰矿区临水派出所,臭氧1小时,52,21,20,17,8,161,,155,155,2,8,3,5,0.3,0.5
2024-09-07T1600,2634A,106.9893,33.1842,汉中市,汉川机床厂子校,,38,23,26,16,16,120,,90,90,5,6,4,4,0.8,0.8
2024-09-07T1600,2635A,107.0154,33.0706,汉中市,市监测站,,35,22,28,15,17,109,,98,98,2,6,7,7,0.7,0.7
2024-09-07T1600,2636A,107.0089,33.1138,汉中市,鑫源开发区,,39,27,29,13,16,124,,102,102,3,9,9,9,0.5,0.6
2024-09-07T1600,2637A,107.007,33.0323,汉中市,南郑大河坎水厂,,34,26,25,15,16,106,,93,93,2,6,8,8,0.7,0.7
2024-09-07T1600,1223A,120.2072,30.2111,杭州市,滨江,细颗粒物(PM2.5),54,56,59,38,38,153,,110,110,8,17,6,6,0.6,0.6
2024-09-07T1600,1224A,120.0633,30.2747,杭州市,西溪,细颗粒物(PM2.5),59,48,47,42,41,152,,111,111,12,19,7,7,0.6,0.7
2024-09-07T1600,1226A,120.3461,30.3153,杭州市,下沙,细颗粒物(PM2.5),59,51,57,42,38,149,,114,114,18,22,8,9,0.6,0.6
2024-09-07T1600,1227A,120.1269,30.2456,杭州市,卧龙桥,"细颗粒物(PM2.5),臭氧1小时",59,48,49,42,41,167,,126,126,11,18,7,8,0.6,0.6
2024-09-07T1600,1228A,120.1903,30.2692,杭州市,浙江农大,,50,48,49,35,37,155,,111,111,12,19,10,11,0.5,0.5
2024-09-07T1600,1230A,120.1197,30.3119,杭州市,和睦小学,臭氧1小时,59,51,48,39,32,167,,115,115,11,16,8,8,0.5,0.5
2024-09-07T1600,1231A,120.3019,30.4183,杭州市,临平镇,,49,42,56,34,35,137,,108,108,5,10,6,6,0.5,0.6
2024-09-07T1600,1232A,120.2697,30.1819,杭州市,城厢镇,细颗粒物(PM2.5),57,61,59,40,43,161,,115,115,19,24,8,9,0.4,0.5
2024-09-07T1600,1233A,120.0883,30.1808,杭州市,云栖,臭氧1小时,59,52,47,29,32,167,,126,126,10,16,7,7,0.5,0.6
2024-09-07T1600,3557A,119.9464,30.0494,杭州市,镇二中,,46,37,52,24,43,145,,106,106,13,18,8,9,0.6,0.7
2024-09-07T1600,3558A,119.7183,30.2367,杭州市,市府大楼,臭氧1小时,80,41,49,39,42,184,,135,135,11,16,7,7,0.5,0.5
2024-09-07T1600,3656A,120.1556,30.2864,杭州市,消防大队,细颗粒物(PM2.5),64,66,57,46,39,163,,117,117,8,13,9,9,0.6,0.6
2024-09-07T1600,1270A,117.1959,31.7848,合肥市,明珠广场,,47,36,38,29,26,148,,122,122,10,13,8,7,0.4,0.6
2024-09-07T1600,1271A,117.3072,31.8764,合肥市,三里街,,43,39,38,24,20,135,,102,102,6,8,6,6,0.5,0.5
2024-09-07T1600,1272A,117.2588,31.8707,合肥市,琥珀山庄,,45,41,39,29,28,143,,112,112,6,8,7,6,0.6,0.6
2024-09-07T1600,1273A,117.1604,31.9052,合肥市,董铺水库,,42,39,41,29,24,129,,108,108,6,8,3,2,0.4,0.4
2024-09-07T1600,1274A,117.25,31.8571,合肥市,长江中路,,48,48,44,30,28,142,,111,111,8,7,9,8,0.7,0.8
2024-09-07T1600,1275A,117.266,31.9436,合肥市,庐阳区,,48,36,41,24,22,152,,119,119,7,12,5,4,0.5,0.5
2024-09-07T1600,1276A,117.336,31.8586,合肥市,瑶海区,,46,,39,32,24,136,,105,105,9,11,7,6,0.5,0.6
2024-09-07T1600,1277A,117.3027,31.7964,合肥市,包河区,,46,46,45,31,27,144,,113,113,11,18,7,6,0.4,0.5
2024-09-07T1600,1278A,117.2776,31.7385,合肥市,滨湖新区,,43,31,40,22,25,135,,114,114,4,10,7,6,0.4,0.6
2024-09-07T1600,1279A,117.1318,31.8403,合肥市,高新区,,41,41,44,22,23,129,,110,110,8,10,7,7,0.6,0.8
2024-09-07T1600,3464A,117.3803,31.9147,合肥市,高教基地,,45,45,37,27,22,141,,106,106,5,7,3,2,0.5,0.5
2024-09-07T1600,3614A,79.924,37.0877,和田地区,地区环保局,颗粒物(PM10),107,164,202,68,56,118,,85,85,5,13,7,8,0.5,0.5
2024-09-07T1600,3615A,79.9131,37.113,和田地区,市环保局,颗粒物(PM10),87,124,208,59,56,114,,75,75,3,23,6,11,0.3,0.6
2024-09-07T1600,2516A,108.2011,24.715,河池市,东仁乐园,,16,14,26,3,20,50,,46,46,5,8,4,4,0.4,0.4
2024-09-07T1600,2517A,108.0497,24.6947,河池市,市环保站,,19,19,30,10,17,39,,55,55,8,11,7,7,0.6,0.7
2024-09-07T1600,2518A,108.0983,24.6989,河池市,市疾控中心,,22,22,34,12,20,31,,39,39,26,19,10,9,0.7,0.7
2024-09-07T1600,1696A,114.6778,23.7569,河源市,源西,,18,17,10,3,6,56,,51,51,5,11,4,4,0.5,0.5
2024-09-07T1600,1697A,114.6944,23.7586,河源市,东埔,,18,15,11,7,5,57,,52,52,6,9,2,2,0.6,0.6
2024-09-07T1600,1698A,114.6892,23.7233,河源市,老城,,20,10,11,7,5,62,,51,51,3,7,2,2,0.6,0.7
2024-09-07T1600,1718A,115.4208,35.2464,菏泽市,气象局,,42,40,50,16,20,133,,134,134,5,16,3,6,0.3,0.4
2024-09-07T1600,1719A,115.4747,35.2375,菏泽市,市政协,,41,35,43,20,20,129,,131,131,3,12,3,7,0.3,0.3
2024-09-07T1600,3374A,115.5564,35.0891,菏泽市,定陶老年大学,,36,27,39,12,14,113,,111,111,3,13,5,6,0.5,0.5
2024-09-07T1600,3647A,115.4702,35.2706,菏泽市,菏泽医专,,41,33,51,12,17,130,,131,131,6,24,3,6,0.7,0.7
2024-09-07T1600,2514A,111.5264,24.4172,贺州市,环保小区,,18,13,18,3,10,55,,49,49,7,10,4,6,0.5,0.5
2024-09-07T1600,2515A,111.5608,24.4078,贺州市,政协大楼,,18,16,21,7,9,56,,52,52,8,9,5,7,0.4,0.4
2024-09-07T1600,3534A,111.4744,24.4553,贺州市,西湾,,18,17,21,3,9,56,,48,48,9,11,6,5,0.4,0.5
2024-09-07T1600,2385A,114.17,35.9019,鹤壁市,市监测站,,48,36,32,18,15,152,,138,138,11,15,3,5,0.7,0.7
2024-09-07T1600,2386A,114.2956,35.7511,鹤壁市,市交警支队,,38,23,35,14,16,120,,121,121,6,20,4,8,0.7,0.5
2024-09-07T1600,2387A,114.2878,35.7306,鹤壁市,迎宾馆,,39,,28,26,16,124,,120,120,6,20,2,4,0.7,0.6
2024-09-07T1600,3474A,114.2617,35.6822,鹤壁市,大新区,,,33,32,,10,118,,112,112,6,18,4,6,0.7,0.3
2024-09-07T1600,3596A,114.1572,35.9603,鹤壁市,南山宾馆,,44,21,28,16,15,140,,135,135,3,9,3,5,0.7,0.5
2024-09-07T1600,2244A,130.2537,47.3416,鹤岗市,哈啤分公司,,25,21,24,13,14,79,,69,69,3,8,14,14,0.3,0.3
2024-09-07T1600,2245A,130.2684,47.3086,鹤岗市,斯达机电,,25,20,29,17,18,76,,67,67,9,12,13,13,0.2,0.3
2024-09-07T1600,2246A,130.3114,47.3388,鹤岗市,东山纸板厂,,38,38,30,17,16,72,,62,62,4,11,16,16,0.3,0.4
2024-09-07T1600,2247A,130.1097,47.3382,鹤岗市,五号水库,,26,7,13,3,7,82,,73,73,4,5,5,6,0.5,0.5
2024-09-07T1600,2263A,127.4833,50.2524,黑河市,交通局,,28,28,24,17,15,46,,46,46,7,5,9,8,0.3,0.3
2024-09-07T1600,2264A,127.5144,50.2341,黑河市,环保局,,24,24,22,9,14,52,,51,51,6,9,4,5,0.2,0.2
2024-09-07T1600,2265A,127.5291,50.2472,黑河市,大黑河岛,,26,26,20,10,14,52,,52,52,1,2,3,2,0.0,0
2024-09-07T1600,1074A,115.6838,37.7541,衡水市,电机北厂,臭氧1小时,82,51,45,25,20,185,,119,119,10,20,9,8,0.4,0.3
2024-09-07T1600,1075A,115.6303,37.7316,衡水市,市监测站,臭氧1小时,89,49,43,22,13,191,,130,130,13,20,9,9,0.5,0.4
2024-09-07T1600,3188A,115.6683,37.7217,衡水市,市城管局,臭氧1小时,90,52,42,11,19,192,,129,129,10,20,5,7,0.5,0.5
2024-09-07T1600,3459A,115.5989,37.5491,衡水市,地表水厂,臭氧1小时,89,48,47,13,17,191,,132,132,9,35,5,6,0.4,0.4
2024-09-07T1600,2456A,112.5003,26.9167,衡阳市,原169医院,,27,,37,18,25,86,,93,93,1,11,7,8,0.4,0.6
2024-09-07T1600,2457A,112.6194,26.9258,衡阳市,衡阳化工总厂,,,26,46,,,79,,89,89,2,6,9,9,0.5,0.7
2024-09-07T1600,2458A,112.6211,26.8956,衡阳市,珠晖区环保局,,,17,43,,,76,,90,90,4,12,6,7,0.5,0.8
2024-09-07T1600,2459A,112.6197,26.8733,衡阳市,市委党校,,26,17,44,10,24,81,,94,94,4,9,8,11,0.6,0.8
2024-09-07T1600,2460A,112.6006,26.8919,衡阳市,市监测站,,27,13,40,7,27,84,,98,98,1,7,7,9,0.5,0.8
2024-09-07T1600,2461A,112.5664,26.9056,衡阳市,真空机电公司,,26,,41,16,27,83,,93,93,2,5,7,8,0.6,0.9
2024-09-07T1600,3399A,112.6703,26.882,衡阳市,师范学院,,25,12,44,6,24,79,,91,91,6,9,7,12,0.4,0.8
2024-09-07T1600,2608A,103.3772,23.3993,红河哈尼族彝族自治州,污水处理厂,,24,20,28,14,25,76,,72,72,7,10,14,12,0.4,0.5
2024-09-07T1600,2609A,103.3861,23.35,红河哈尼族彝族自治州,监测站,,26,18,31,13,21,83,,78,78,9,12,14,12,0.6,0.6
2024-09-07T1600,3038A,103.3758,23.368,红河哈尼族彝族自治州,州图书馆,,24,16,31,11,16,75,,71,71,7,11,12,13,0.3,0.4
2024-09-07T1600,1090A,111.6507,40.7517,呼和浩特市,呼市一监,,33,7,12,3,13,105,,82,82,3,13,5,5,0.5,0.6
2024-09-07T1600,1091A,111.6572,40.8033,呼和浩特市,小召,,33,9,7,3,10,103,,91,91,11,20,6,6,0.5,0.6
2024-09-07T1600,1094A,111.7516,40.8369,呼和浩特市,如意水处理厂,,31,10,16,3,10,99,,85,85,8,20,6,6,0.4,0.5
2024-09-07T1600,1095A,111.7276,40.8062,呼和浩特市,二十九中,,34,18,14,6,12,107,,87,87,10,21,4,4,0.5,0.7
2024-09-07T1600,1096A,111.5512,40.7866,呼和浩特市,工大金川校区,,32,27,17,13,15,102,,85,85,10,23,4,3,0.5,0.6
2024-09-07T1600,1097A,111.717,40.7612,呼和浩特市,化肥厂生活区,,33,9,20,3,14,104,,86,86,10,16,8,8,0.4,0.6
2024-09-07T1600,3698A,111.5968,40.8178,呼和浩特市,红旗小学,,35,27,10,15,9,112,,94,94,13,27,6,3,0.4,0.4
2024-09-07T1600,3699A,111.6518,40.8389,呼和浩特市,海东办,,36,17,8,9,10,113,,95,95,9,22,7,6,0.5,0.6
2024-09-07T1600,2192A,119.7594,49.2261,呼伦贝尔市,区环保局,,30,27,29,12,13,94,,72,72,14,15,13,7,0.4,0.4
2024-09-07T1600,3061A,119.7512,49.1577,呼伦贝尔市,国华电力东,,29,21,25,10,9,90,,75,75,4,8,4,4,0.3,0.3
2024-09-07T1600,1250A,120.0751,30.8669,湖州市,城西水厂,细颗粒物(PM2.5),57,51,50,40,39,144,,111,111,8,12,4,6,0.2,0.3
2024-09-07T1600,2873A,120.0875,30.8955,湖州市,仁皇山新区,细颗粒物(PM2.5),63,54,53,45,43,147,,113,113,7,14,7,7,0.6,0.6
2024-09-07T1600,2907A,120.1844,30.8596,湖州市,吴兴区站,细颗粒物(PM2.5),67,52,48,48,48,129,,96,96,6,11,5,6,0.4,0.4
2024-09-07T1600,3562A,120.4148,30.8538,湖州市,南浔区站,,39,35,56,27,40,110,,92,92,6,12,5,7,0.4,0.5
2024-09-07T1600,1607A,120.9092,40.7136,葫芦岛市,龙港区,,22,17,24,7,13,68,,50,50,18,29,31,14,0.5,0.5
2024-09-07T1600,1608A,120.8392,40.7514,葫芦岛市,化工街,,36,36,43,12,15,98,,59,59,27,35,16,64,0.5,0.5
2024-09-07T1600,1609A,120.8341,40.7073,葫芦岛市,新区,,23,18,30,3,10,71,,54,54,21,46,16,14,0.4,0.5
2024-09-07T1600,1610A,120.8695,40.7677,葫芦岛市,东城区,,29,29,44,6,20,74,,45,45,14,37,17,84,0.3,0.4
2024-09-07T1600,2482A,109.5981,27.5721,怀化市,林科所,,28,27,32,17,20,88,,76,68,6,6,6,6,0.7,0.6
2024-09-07T1600,2483A,109.9453,27.5444,怀化市,河西地税局,,40,34,40,28,28,95,,80,74,7,9,4,5,0.7,0.7
2024-09-07T1600,2484A,109.9781,27.5342,怀化市,市四医院,,35,30,35,24,30,95,,86,76,5,6,6,6,0.7,0.6
2024-09-07T1600,2485A,109.9972,27.5578,怀化市,监测楼,,32,29,41,22,27,96,,88,79,5,7,1,2,1.0,1
2024-09-07T1600,2486A,110.0394,27.583,怀化市,市委党校,,36,36,68,24,24,90,,75,73,4,6,4,6,0.8,0.8
2024-09-07T1600,1210A,119.036,33.5981,淮安市,钵池山,,27,24,24,11,12,86,,87,87,13,17,7,7,0.7,0.7
2024-09-07T1600,1211A,119.007,33.575,淮安市,北京南路,,29,29,29,14,12,87,,87,87,8,10,5,6,0.6,0.6
2024-09-07T1600,1212A,118.989,33.6067,淮安市,市监测站,,30,29,27,17,14,93,,94,94,9,12,6,7,0.7,0.6
2024-09-07T1600,1213A,119.135,33.5039,淮安市,楚州区监测站,,37,37,32,11,11,83,,86,86,8,11,5,6,0.7,0.7
2024-09-07T1600,1214A,119.0186,33.6297,淮安市,淮阴区监测站,,28,27,31,12,14,88,,88,88,11,19,4,4,0.5,0.5
2024-09-07T1600,3426A,118.8755,33.2894,淮安市,新华书店,,39,35,31,27,14,100,,91,91,8,15,7,7,0.6,0.5
2024-09-07T1600,2282A,116.8004,33.975,淮北市,监测站,,33,31,37,15,17,103,,99,99,1,9,5,6,0.5,0.6
2024-09-07T1600,2283A,116.8091,33.9007,淮北市,烈山区政府,,33,33,36,19,19,104,,100,100,3,8,6,6,0.4,0.5
2024-09-07T1600,3330A,116.8873,33.9836,淮北市,杜集区检察院,,32,27,37,13,19,102,,103,103,3,8,2,3,0.5,0.5
2024-09-07T1600,4017A,116.7923,33.9535,淮北市,市博物馆,,32,22,32,16,16,102,,101,101,5,9,4,4,0.6,0.7
2024-09-07T1600,2277A,116.8305,32.7727,淮南市,潘集区政府,,49,48,39,34,24,147,,94,94,8,11,6,5,0.7,0.7
2024-09-07T1600,2278A,117.0067,32.6524,淮南市,师范学院,细颗粒物(PM2.5),55,55,50,39,31,139,,105,105,4,7,5,6,0.5,0.5
2024-09-07T1600,2279A,116.8569,32.5951,淮南市,谢家集区政府,细颗粒物(PM2.5),53,43,40,37,31,149,,106,106,9,11,6,5,0.4,0.4
2024-09-07T1600,2280A,116.8281,32.633,淮南市,八公山区政府,颗粒物(PM10),56,61,56,36,33,146,,100,100,10,11,7,4,0.5,0.4
2024-09-07T1600,2281A,116.6325,32.6201,淮南市,焦岗湖风景区管理处,颗粒物(PM10),53,56,49,30,20,133,,78,78,9,10,12,12,0.1,0.1
2024-09-07T1600,2894A,117.0566,32.6531,淮南市,经济技术开发区消防队,,45,45,30,28,12,137,,102,102,9,10,6,4,0.4,0.4
2024-09-07T1600,3329A,117.0108,32.5893,淮南市,山南新区,,,,57,,24,,,71,,,12,,4,,0.6
2024-09-07T1600,2446A,114.9028,30.4742,黄冈市,职工中心,,48,32,48,19,30,152,,131,131,11,11,9,8,0.4,0.6
2024-09-07T1600,2929A,114.8858,30.4519,黄冈市,红卫路,臭氧1小时,55,35,44,25,32,164,,144,144,19,10,9,8,0.3,0.5
2024-09-07T1600,3398A,114.9136,30.4445,黄冈市,市林业局,臭氧1小时,85,46,48,22,28,188,,150,150,14,9,9,8,0.4,0.5
2024-09-07T1600,2672A,102.0199,35.5102,黄南藏族自治州,同仁县隆务镇,,29,29,24,3,8,87,,76,76,6,6,11,10,0.6,0.6
2024-09-07T1600,2295A,118.2903,29.6963,黄山市,延安路89号,,34,33,43,15,15,108,,113,113,2,8,6,6,0.2,0.3
2024-09-07T1600,2296A,118.327,29.7178,黄山市,黄山东路89号,,33,27,32,8,14,103,,105,105,2,7,4,4,0.2,0.3
2024-09-07T1600,2297A,118.1371,30.2756,黄山市,黄山区政府5号楼,,45,42,30,31,20,131,,112,112,6,8,7,7,0.3,0.4
2024-09-07T1600,2423A,115.0601,30.2313,黄石市,沈家营,,48,40,66,16,24,151,,144,144,9,14,9,8,0.6,0.7
2024-09-07T1600,2424A,115.0817,30.2006,黄石市,陈家湾,,49,46,66,17,26,154,,141,141,13,18,9,12,0.5,0.7
2024-09-07T1600,2426A,114.8988,30.2019,黄石市,铁山,臭氧1小时,55,37,49,19,28,164,,152,152,6,12,8,8,0.5,0.6
2024-09-07T1600,2427A,115.0307,30.2092,黄石市,团城山,臭氧1小时,55,36,54,16,26,164,,152,152,10,16,16,10,0.6,0.7
2024-09-07T1600,3149A,115.0235,30.1578,黄石市,笔架山北路,,47,23,51,11,18,148,,142,142,4,10,7,9,0.5,0.7
2024-09-07T1600,1392A,114.4183,23.0528,惠州市,河南岸金山湖子站,,22,15,14,10,8,69,,53,53,6,5,4,4,0.3,0.3
2024-09-07T1600,1393A,114.4053,23.0822,惠州市,下埔横江三路子站,,23,15,13,9,7,71,,60,60,7,7,5,4,0.6,0.6
2024-09-07T1600,1394A,114.4103,23.1142,惠州市,江北云山西路子站,,23,16,12,16,4,64,,54,54,3,3,4,4,0.8,0.7
2024-09-07T1600,1395A,114.4645,22.7833,惠州市,惠阳区承修路船湖子站,,18,10,11,8,7,56,,52,52,10,10,4,4,0.4,0.4
2024-09-07T1600,1396A,114.5317,22.7422,惠州市,大亚湾管委会子站,,21,13,13,9,7,65,,59,59,8,13,6,7,0.4,0.4
2024-09-07T1600,3314A,114.4338,22.8134,惠州市,惠阳秋长,,20,12,9,7,7,64,,55,55,8,9,4,4,0.6,0.6
2024-09-07T1600,3452A,114.6517,22.775,惠州市,大亚湾霞涌,,40,,13,28,7,62,,57,57,5,5,5,4,0.3,0.6
2024-09-07T1600,2240A,130.9762,45.3001,鸡西市,环保局,,23,19,22,3,7,72,,68,68,3,6,5,5,0.2,0.2
2024-09-07T1600,2243A,130.9429,45.3039,鸡西市,第一中学,,24,16,20,3,6,75,,69,69,5,7,4,4,0.1,0.2
2024-09-07T1600,3707A,131.0207,45.3073,鸡西市,欧美日汽修厂,,24,16,25,8,10,75,,70,70,13,14,5,5,0.0,0.1
2024-09-07T1600,3709A,130.9967,45.3106,鸡西市,市政设施管理处,,25,25,30,7,8,76,,73,73,8,15,5,6,0.1,0.1
2024-09-07T1600,2367A,114.9754,27.0803,吉安市,红声器材厂,,26,26,25,15,10,67,,71,71,8,12,14,13,0.4,0.4
2024-09-07T1600,2368A,114.9658,27.0999,吉安市,市森林工业局,,25,25,20,13,9,76,,75,75,14,16,13,11,0.3,0.4
2024-09-07T1600,2369A,114.99,27.1312,吉安市,市环境监测站,,27,24,21,3,9,84,,77,77,7,11,14,14,0.4,0.5
2024-09-07T1600,2370A,115.0093,27.0968,吉安市,青原区法院,,22,19,20,7,10,70,,73,73,7,10,13,12,0.4,0.5
2024-09-07T1600,1772A,126.54,43.8622,吉林市,哈达湾,,30,14,17,6,8,93,,79,79,8,19,6,6,0.5,0.5
2024-09-07T1600,1773A,126.5844,43.8358,吉林市,东局子,,31,15,17,7,7,97,,82,82,8,13,6,5,0.4,0.4
2024-09-07T1600,1774A,126.5052,43.8245,吉林市,电力学院,,30,13,22,11,10,93,,78,78,6,18,4,4,0.6,0.6
2024-09-07T1600,1775A,126.6133,43.8972,吉林市,江北,,29,13,24,7,9,92,,81,81,8,13,9,8,0.6,0.6
2024-09-07T1600,1776A,126.555,43.8306,吉林市,江南公园,,30,18,18,14,9,96,,83,83,9,16,6,6,0.6,0.6
2024-09-07T1600,1778A,126.7061,43.7133,吉林市,丰满,,,,,,,,,,,,,,,,
2024-09-07T1600,2868A,126.4739,43.953,吉林市,九站,,30,24,23,8,8,95,,82,82,9,20,8,9,0.6,0.6
2024-09-07T1600,1299A,116.9862,36.6114,济南市,科干所,臭氧1小时,87,53,34,24,14,189,,159,159,16,17,9,8,0.7,0.6
2024-09-07T1600,1300A,116.9376,36.665,济南市,农科所,臭氧1小时,82,46,37,20,15,185,,154,154,14,37,9,9,0.6,0.6
2024-09-07T1600,1301A,117.1265,36.6734,济南市,开发区,臭氧1小时,109,56,38,27,16,217,,172,172,22,33,10,9,0.6,0.5
2024-09-07T1600,1303A,117.0624,36.6868,济南市,省种子仓库,臭氧1小时,106,58,52,17,13,212,,172,172,14,40,7,8,0.7,0.7
2024-09-07T1600,1304A,116.9489,36.6447,济南市,机床二厂,臭氧1小时,104,46,44,15,11,207,,172,172,14,34,11,10,0.7,0.7
2024-09-07T1600,1305A,117.0495,36.663,济南市,市监测站,臭氧1小时,106,51,37,20,13,212,,172,172,17,32,10,10,0.6,0.6
2024-09-07T1600,1306A,116.7675,36.5484,济南市,长清党校,臭氧1小时,87,49,35,22,16,189,,163,163,10,23,8,9,0.8,0.7
2024-09-07T1600,1616A,117.6795,36.229,济南市,技术学院,臭氧1小时,108,53,33,27,14,216,,158,158,10,19,21,14,2.1,1
2024-09-07T1600,1961A,117.532,36.6868,济南市,东山小学,臭氧1小时,102,42,33,12,8,203,,173,173,14,32,8,8,0.7,0.7
2024-09-07T1600,3059A,117.7161,36.2049,济南市,泰兴公司,臭氧1小时,109,48,30,27,12,218,,160,160,11,28,16,13,1.0,0.7
2024-09-07T1600,3064A,117.6867,36.2171,济南市,莱芜战役纪念馆,臭氧1小时,89,34,36,17,11,191,,151,151,11,22,17,15,1.1,0.8
2024-09-07T1600,3494A,117.1673,36.9782,济南市,济阳区政府,臭氧1小时,112,56,47,20,11,223,,169,169,12,23,10,12,0.7,0.8
2024-09-07T1600,3495A,117.1171,36.63,济南市,锦屏中学,臭氧1小时,120,59,26,15,9,240,,176,176,22,19,8,6,0.6,0.5
2024-09-07T1600,3682A,116.9814,36.6819,济南市,济南四建,臭氧1小时,88,36,40,20,15,190,,161,161,11,41,10,10,0.7,0.7
2024-09-07T1600,1653A,116.6251,35.4302,济宁市,火炬城,臭氧1小时,94,44,45,19,17,195,,162,162,10,18,11,11,0.8,0.8
2024-09-07T1600,1655A,116.5491,35.4042,济宁市,电化厂,臭氧1小时,101,40,50,22,23,202,,171,171,9,22,11,11,0.7,0.7
2024-09-07T1600,3500A,116.5814,35.3707,济宁市,北湖一中,臭氧1小时,94,38,43,12,16,195,,166,166,9,21,5,6,0.5,0.5
2024-09-07T1600,3501A,116.8249,35.5593,济宁市,服务中心,臭氧1小时,85,42,48,12,17,188,,155,155,7,23,6,8,0.5,0.5
2024-09-07T1600,3678A,116.5907,35.4054,济宁市,市第七中学,臭氧1小时,95,46,42,17,18,196,,164,164,9,19,8,10,0.7,0.6
2024-09-07T1600,2255A,130.2751,46.8028,佳木斯市,佳纺,,23,17,14,9,6,71,,75,75,6,6,6,5,0.4,0.5
2024-09-07T1600,2256A,130.3995,46.8307,佳木斯市,发电厂,,25,14,14,3,7,77,,72,72,2,7,5,7,0.4,0.5
2024-09-07T1600,2257A,130.3258,46.7975,佳木斯市,环保局,,25,11,18,3,5,78,,72,72,4,7,7,8,0.4,0.4
2024-09-07T1600,2258A,130.3648,46.8032,佳木斯市,十一中,,26,14,21,3,8,81,,75,75,7,12,7,7,0.4,0.4
2024-09-07T1600,2259A,130.3794,46.7588,佳木斯市,四丰,,23,12,11,3,5,72,,70,70,11,10,1,5,0.3,0.3
2024-09-07T1600,1252A,120.7436,30.778,嘉兴市,清河小学,,30,30,49,21,34,90,,80,80,8,14,6,6,0.4,0.8
2024-09-07T1600,1253A,120.726,30.7478,嘉兴市,嘉兴学院,,34,34,47,22,36,91,,82,82,9,14,4,4,0.4,0.4
2024-09-07T1600,2872A,120.7846,30.7525,嘉兴市,南湖区残联,,35,34,49,24,37,93,,85,85,7,16,6,6,0.3,0.4
2024-09-07T1600,3407A,120.6916,30.7739,嘉兴市,秀洲住建,,35,31,47,24,36,97,,84,84,5,11,4,4,0.5,0.5
2024-09-07T1600,1945A,98.2908,39.7711,嘉峪关市,气象局,,39,22,25,3,8,123,,97,97,4,13,8,6,0.2,0.3
2024-09-07T1600,2884A,98.2672,39.7978,嘉峪关市,酒钢宾馆,,39,19,33,7,10,122,,92,92,6,17,9,12,0.3,0.4
2024-09-07T1600,3248A,98.2643,39.7724,嘉峪关市,雄关区,,37,27,33,9,10,117,,97,97,7,20,11,9,0.0,0.3
2024-09-07T1600,1383A,113.1064,22.6058,江门市,北街,,28,28,15,11,9,61,,55,55,8,14,4,4,0.4,0.4
2024-09-07T1600,1384A,113.0731,22.5835,江门市,西区,,25,,16,17,6,66,,64,64,6,12,4,5,0.4,0.6
2024-09-07T1600,1385A,113.0219,22.5311,江门市,圭峰西,,25,25,16,13,9,67,,62,62,5,10,2,2,0.3,0.3
2024-09-07T1600,1386A,113.0828,22.5947,江门市,东湖,,28,24,16,19,7,63,,56,56,7,12,6,5,0.3,0.4
2024-09-07T1600,3311A,113.1075,22.5647,江门市,江海富民,,23,23,25,11,11,70,,64,64,7,14,6,6,0.4,0.5
2024-09-07T1600,3449A,113.05,22.4667,江门市,新会银湖,,28,28,15,15,8,64,,61,61,2,5,4,3,0.5,0.6
2024-09-07T1600,1828A,113.227,35.2125,焦作市,市环保局,,48,39,35,19,15,153,,140,140,9,16,1,5,0.4,0.3
2024-09-07T1600,1830A,113.1992,35.2590,焦作市,影视城,,,,,,,,,,,,,,,,
2024-09-07T1600,3169A,113.2725,35.2067,焦作市,太极体育中心,,49,33,45,22,18,155,,143,143,7,16,1,5,0.7,0.6
2024-09-07T1600,3335A,113.3137,35.2641,焦作市,马村街道办,臭氧1小时,63,,34,40,15,170,,151,151,11,14,2,3,0.5,0.3
2024-09-07T1600,3336A,113.2465,35.2373,焦作市,焦作技师学院,臭氧1小时,62,42,33,27,18,169,,152,152,10,13,3,6,0.7,0.5
2024-09-07T1600,3477A,113.1656,35.2539,焦作市,中站许衡医院,臭氧1小时,55,33,29,13,16,164,,147,147,7,15,4,6,0.5,0.3
2024-09-07T1600,3981A,113.2449,35.1803,焦作市,原李万街道办,,45,32,42,17,17,143,,125,125,4,13,3,4,0.5,0.4
2024-09-07T1600,1708A,116.3701,23.5345,揭阳市,新兴,,23,21,19,7,8,73,,58,58,7,15,4,7,0.4,0.5
2024-09-07T1600,1709A,116.3264,23.5443,揭阳市,西马,,25,13,16,3,6,79,,63,63,1,6,5,8,0.5,0.5
2024-09-07T1600,1710A,116.3611,23.5626,揭阳市,东兴,,23,23,20,6,6,70,,58,58,2,10,5,7,0.5,0.6
2024-09-07T1600,1711A,116.4151,23.5294,揭阳市,渔湖,,,,14,6,9,69,,63,63,5,12,4,5,0.6,0.5
2024-09-07T1600,3320A,116.403,23.5699,揭阳市,曲溪,,,19,13,6,8,64,,58,58,5,11,,8,0.4,0.4
2024-09-07T1600,1944A,102.1692,38.5167,金昌市,天庆家园,,31,17,19,13,14,99,,90,90,11,13,47,13,0.4,0.6
2024-09-07T1600,3170A,102.1864,38.5253,金昌市,市委党校,,36,15,34,8,20,114,,87,87,6,16,9,62,0.5,1
2024-09-07T1600,4022A,102.1647,38.5371,金昌市,金川区人防中心,,38,16,28,12,14,120,,104,104,7,12,23,17,0.5,0.6
2024-09-07T1600,1262A,119.647,29.077,金华市,十五中,,48,35,39,19,19,152,,115,115,7,12,2,2,0.4,0.5
2024-09-07T1600,1263A,119.686,29.1029,金华市,监测站,,46,36,41,23,24,146,,112,112,9,16,3,3,0.5,0.6
2024-09-07T1600,3659A,119.656,29.1131,金华市,气象局,,49,43,40,22,26,154,,112,112,10,18,4,5,0.7,0.8
2024-09-07T1600,1767A,121.1115,41.0879,锦州市,南山,,26,13,26,7,13,83,,55,55,9,29,10,12,0.6,0.6
2024-09-07T1600,1768A,121.0533,40.8434,锦州市,开发区,,37,37,59,7,23,53,,36,36,32,52,8,18,0.5,0.8
2024-09-07T1600,1769A,121.1836,41.1119,锦州市,百股街道,,27,11,31,3,9,84,,52,52,7,24,9,14,0.8,0.8
2024-09-07T1600,1770A,121.1178,41.1222,锦州市,天安街道,,29,15,30,11,16,90,,62,62,7,25,14,14,0.8,0.7
2024-09-07T1600,1771A,121.1303,41.1386,锦州市,北湖公园,,,,35,14,19,91,,,,6,22,13,10,0.9,0.7
2024-09-07T1600,2160A,112.85,35.5051,晋城市,自来水公司,臭氧1小时,59,35,34,14,10,167,,141,141,9,17,9,9,0.8,0.7
2024-09-07T1600,2161A,112.8318,35.4936,晋城市,白云商贸,臭氧1小时,60,27,26,14,9,168,,142,142,13,18,10,10,0.9,0.8
2024-09-07T1600,2162A,112.8508,35.4887,晋城市,市环保局,臭氧1小时,55,43,39,19,12,164,,138,138,12,20,10,10,0.6,0.6
2024-09-07T1600,2163A,112.8676,35.4897,晋城市,技术学院,,50,38,35,17,10,158,,137,137,14,21,10,9,0.8,0.7
2024-09-07T1600,2165A,112.8453,35.546,晋城市,白马寺,,,,,,,,,,,,,,,,
2024-09-07T1600,3620A,112.8271,35.4828,晋城市,泽州一中,臭氧1小时,55,38,32,14,11,164,,133,133,12,20,12,11,0.9,0.8
2024-09-07T1600,2171A,112.7532,37.6945,晋中市,锦纶小区,臭氧1小时,75,63,40,29,14,180,,128,128,12,17,12,10,0.6,0.4
2024-09-07T1600,2173A,112.7249,37.7067,晋中市,南都小区,臭氧1小时,73,55,38,31,20,178,,125,125,14,17,12,9,1.0,0.8
2024-09-07T1600,2174A,112.6991,37.6982,晋中市,榆次区政府,颗粒物(PM10),65,80,42,34,23,167,,123,123,23,18,15,12,0.6,0.4
2024-09-07T1600,2865A,112.7195,37.6828,晋中市,榆次三中,臭氧1小时,80,66,41,27,12,184,,129,129,13,16,15,11,0.8,0.7
2024-09-07T1600,2439A,112.2014,31.0481,荆门市,竹园小学,臭氧1小时,70,48,50,30,26,176,,135,135,9,13,11,10,0.8,0.7
2024-09-07T1600,2440A,112.1969,30.9891,荆门市,掇刀,臭氧1小时,64,42,47,28,28,171,,141,141,11,13,13,7,0.7,0.6
2024-09-07T1600,2441A,112.2213,31.0386,荆门市,石化一小,臭氧1小时,72,56,54,36,26,177,,141,141,8,10,14,13,0.7,0.6
2024-09-07T1600,3012A,112.1849,31.0362,荆门市,西山林语,臭氧1小时,75,48,47,27,27,180,,139,139,10,11,9,8,0.8,0.7
2024-09-07T1600,3547A,112.1632,31.0138,荆门市,龙泉中学南校,臭氧1小时,79,45,40,30,21,183,,140,140,11,8,10,10,0.7,0.6
2024-09-07T1600,1844A,112.2494,30.3197,荆州市,市图书馆,,50,33,36,24,26,159,,130,130,9,12,8,8,0.6,0.7
2024-09-07T1600,1845A,112.2008,30.3544,荆州市,市委党校,臭氧1小时,63,32,42,23,27,170,,134,134,6,11,8,11,0.8,0.8
2024-09-07T1600,3194A,112.2747,30.3122,荆州市,管委会,臭氧1小时,59,30,34,29,26,167,,134,134,6,9,6,7,0.7,0.7
2024-09-07T1600,3548A,112.1655,30.3364,荆州市,学苑路,臭氧1小时,62,34,41,25,29,169,,139,139,7,13,23,8,0.7,0.8
2024-09-07T1600,2342A,117.3102,29.3867,景德镇市,王港中学,,,,,,,,,,,,,,,,
2024-09-07T1600,2343A,117.2117,29.2933,景德镇市,老干部活动中心,,31,24,25,12,16,99,,95,95,5,10,4,7,0.4,0.3
2024-09-07T1600,2344A,117.1894,29.2789,景德镇市,兽医站,,31,25,28,17,15,99,,95,95,3,7,7,9,0.4,0.4
2024-09-07T1600,2345A,117.1547,29.2617,景德镇市,台达陶瓷,,30,19,24,13,14,96,,93,93,6,7,12,8,0.3,0.3
2024-09-07T1600,2346A,117.2461,29.2956,景德镇市,陶研所,,33,26,27,12,13,103,,98,98,11,13,4,4,0.3,0.3
2024-09-07T1600,1803A,115.9872,29.6815,九江市,十里,,50,37,35,16,21,157,,140,140,9,11,9,10,0.7,0.8
2024-09-07T1600,1804A,115.9584,29.7046,九江市,茅山头,,46,33,40,16,26,145,,131,131,12,13,10,11,0.6,0.7
2024-09-07T1600,1805A,115.9877,29.7295,九江市,西园,,48,34,37,21,24,153,,135,135,6,12,7,8,0.6,0.7
2024-09-07T1600,1806A,116.0172,29.6547,九江市,五七二七厂,,47,,31,31,22,148,,125,125,10,13,6,8,0.6,0.7
2024-09-07T1600,1808A,115.9114,29.6038,九江市,综合工业园,,46,31,39,18,22,145,,145,145,9,11,9,10,0.9,1
2024-09-07T1600,1809A,116.0721,29.7535,九江市,石化总厂,,42,31,46,20,29,134,,126,126,9,13,9,10,0.8,0.9
2024-09-07T1600,1810A,115.9773,29.5698,九江市,庐山气象台,,39,31,26,16,17,124,,116,116,4,5,6,10,0.8,1
2024-09-07T1600,3190A,116.0254,29.6994,九江市,外国语学校,,47,26,39,15,20,148,,139,139,10,12,9,10,0.4,0.6
2024-09-07T1600,2658A,98.5061,39.7443,酒泉市,仓门街子站,,37,9,24,7,13,117,,83,83,6,15,11,23,0.3,0.4
2024-09-07T1600,2659A,98.4989,39.7256,酒泉市,油田生活基地,,39,27,31,3,8,122,,82,82,6,19,26,43,0.3,0.3
2024-09-07T1600,2698A,76.0072,39.4467,喀什地区,巡警大队,颗粒物(PM10),72,93,187,12,39,124,,75,75,9,42,4,7,0.4,0.7
2024-09-07T1600,2699A,75.9755,39.4694,喀什地区,吾办,颗粒物(PM10),64,77,151,28,47,110,,68,68,8,31,2,2,0.2,0.5
2024-09-07T1600,4027A,75.9483,39.4689,喀什地区,老干局,颗粒物(PM10),69,87,173,11,30,111,,63,63,5,29,4,4,0.3,0.6
2024-09-07T1600,1824A,114.3389,34.7781,开封市,肿瘤医院,,49,49,56,30,24,125,,94,94,10,17,4,6,0.5,0.4
2024-09-07T1600,1826A,114.2885,34.7965,开封市,世纪星幼儿园,,,47,51,,11,139,,102,102,10,17,1,3,0.6,0.5
2024-09-07T1600,3147A,114.3438,34.8106,开封市,龙亭公园,颗粒物(PM10),60,70,56,33,22,111,,82,82,12,20,5,6,0.7,0.6
2024-09-07T1600,3210A,114.3644,34.7964,开封市,汴京公园,颗粒物(PM10),63,75,58,37,33,112,,88,88,13,18,5,6,0.8,0.7
2024-09-07T1600,3473A,114.2485,34.8306,开封市,技师学院,颗粒物(PM10),63,75,54,38,22,121,,87,87,16,25,6,8,1.0,0.8
2024-09-07T1600,3592A,114.4644,34.7556,开封市,祥符区生态环境局,颗粒物(PM10),51,51,58,25,29,119,,85,85,12,34,5,6,0.7,0.7
2024-09-07T1600,1951A,84.895,45.6094,克拉玛依市,长征新村,,15,6,13,3,5,47,,98,71,6,3,6,6,0.2,0.2
2024-09-07T1600,1952A,84.8988,45.5893,克拉玛依市,南林小区,,16,7,12,3,8,49,,104,66,9,4,8,8,0.3,0.2
2024-09-07T1600,1954A,84.905,44.3396,克拉玛依市,独山子区,,28,,45,3,13,89,,89,82,7,11,7,8,0.3,0.4
2024-09-07T1600,1955A,85.6979,46.098,克拉玛依市,乌尔禾区商贸楼,,19,10,17,7,4,58,,101,76,1,2,6,8,0.2,0.2
2024-09-07T1600,3612A,85.1045,45.6899,克拉玛依市,白碱滩区新站,,19,6,16,3,6,58,,108,80,4,2,6,7,0.3,0.2
2024-09-07T1600,2697A,76.1454,39.7142,克孜勒苏柯尔克孜自治州,市人民政府,颗粒物(PM10),64,77,127,26,45,117,,90,90,4,17,3,10,0.6,0.6
2024-09-07T1600,3665A,76.1658,39.7157,克孜勒苏柯尔克孜自治州,克州文化中心,颗粒物(PM10),68,85,114,23,48,122,,95,95,2,15,7,18,0.5,0.6
2024-09-07T1600,1450A,102.8204,24.8886,昆明市,呈贡新区,,31,20,36,13,22,99,,92,92,10,21,4,7,0.6,0.6
2024-09-07T1600,1451A,102.6251,24.9608,昆明市,西山森林公园,,,,,,,,,,,,,,,,
2024-09-07T1600,1452A,102.7252,25.0902,昆明市,龙泉镇,,37,,24,10,15,117,,108,108,6,10,6,6,0.5,0.6
2024-09-07T1600,1453A,102.7266,25.0375,昆明市,东风东路,,35,15,27,13,19,112,,103,103,11,16,4,6,0.5,0.6
2024-09-07T1600,1454A,102.6742,25.0669,昆明市,金鼎山,,35,13,29,10,18,111,,107,107,9,12,4,4,0.5,0.6
2024-09-07T1600,1455A,102.6644,25.0401,昆明市,碧鸡广场,,35,12,32,3,20,109,,105,105,9,13,4,4,0.5,0.6
2024-09-07T1600,3179A,102.7494,25.0119,昆明市,官渡区博物馆,,35,19,30,15,17,112,,103,103,10,20,6,7,0.3,0.4
2024-09-07T1600,3375A,102.8017,24.8336,昆明市,青年创业园,,33,13,32,10,22,104,,96,96,7,20,3,4,0.6,0.6
2024-09-07T1600,3550A,102.7997,24.9786,昆明市,昆明学院,,35,21,42,9,26,111,,102,102,14,25,5,6,0.4,0.6
2024-09-07T1600,3551A,102.5967,24.6736,昆明市,晋宁区生态环境分局,,40,,33,12,21,128,,114,114,7,12,3,5,0.6,0.7
2024-09-07T1600,3552A,102.6678,24.9856,昆明市,云天化总部,,38,16,28,9,21,119,,112,112,6,15,5,6,0.4,0.5
2024-09-07T1600,1456A,91.1319,29.6514,拉萨市,八廓街,,32,8,16,8,7,102,,85,85,9,15,8,8,0.2,0.2
2024-09-07T1600,1457A,91.1221,29.6747,拉萨市,市环保局,,35,10,12,7,8,109,,90,90,8,16,7,8,0.3,0.4
2024-09-07T1600,1458A,91.0874,29.6475,拉萨市,区监测站,,30,7,9,3,7,96,,79,79,8,18,8,8,0.2,0.3
2024-09-07T1600,1459A,91.1774,29.6541,拉萨市,西藏大学,,33,7,10,3,6,104,,89,89,5,9,5,8,0.4,0.4
2024-09-07T1600,1460A,90.9798,29.6588,拉萨市,区辐射站,,26,10,10,3,6,81,,77,74,12,13,8,8,0.2,0.2
2024-09-07T1600,1461A,91.0834,29.6292,拉萨市,拉萨火车站,,28,12,9,6,6,89,,77,73,9,13,5,5,0.2,0.2
2024-09-07T1600,2520A,109.2203,23.7256,来宾市,来宾技工学校,,14,8,17,3,10,42,,45,44,7,9,3,4,0.7,0.7
2024-09-07T1600,3535A,109.1781,23.7297,来宾市,兴宾区政府,,15,13,17,3,10,47,,55,47,4,5,5,6,0.6,0.7
2024-09-07T1600,4002A,109.2416,23.7461,来宾市,中南小学,,15,9,18,3,13,48,,51,51,6,8,1,2,0.7,0.8
2024-09-07T1600,1476A,103.631,36.1031,兰州市,兰炼宾馆,臭氧1小时,109,44,30,31,23,218,,130,130,15,22,7,4,0.5,0.4
2024-09-07T1600,1477A,104.1373,35.9454,兰州市,榆中兰大校区,,,,,,,,,,,,,,,,
2024-09-07T1600,1478A,103.8412,36.0726,兰州市,生物制品所,,45,23,21,16,17,144,,84,84,18,25,9,9,0.5,0.4
2024-09-07T1600,1479A,103.831,36.0464,兰州市,铁路设计院,,46,32,30,19,22,147,,86,86,20,37,6,6,0.5,0.5
2024-09-07T1600,3186A,103.7158,36.1058,兰州市,教育港,臭氧1小时,65,33,31,27,24,172,,103,103,11,16,10,8,0.5,0.4
2024-09-07T1600,3241A,103.7439,36.0842,兰州市,百合公园,臭氧1小时,65,33,25,18,16,172,,97,97,12,25,10,7,0.6,0.6
2024-09-07T1600,3242A,103.9611,35.998,兰州市,和平,,45,21,26,6,12,144,,88,88,12,27,16,10,0.8,0.6
2024-09-07T1600,3245A,103.6633,36.533,兰州新区,新区管委会,,37,21,26,16,15,116,,94,94,6,12,8,6,0.4,0.5
2024-09-07T1600,3246A,103.6975,36.4789,兰州新区,舟曲中学,,40,9,17,8,13,126,,100,100,7,11,13,10,0.5,0.5
2024-09-07T1600,1067A,116.6708,39.5111,廊坊市,药材公司,,28,26,41,17,17,88,,83,83,17,21,1,2,0.5,0.5
2024-09-07T1600,1068A,116.7214,39.5589,廊坊市,开发区,,29,20,30,16,16,90,,83,83,10,17,1,2,0.3,0.3
2024-09-07T1600,1070A,116.7244,39.5269,廊坊市,北华航天学院,,42,42,46,23,18,91,,87,87,11,17,1,3,0.4,0.4
2024-09-07T1600,2919A,116.7022,39.5453,廊坊市,河北工业大学,,29,22,39,12,18,92,,85,85,9,17,1,2,0.4,0.4
2024-09-07T1600,2535A,103.7723,29.5462,乐山市,花湖湾,臭氧1小时,62,,20,31,26,169,,118,118,6,14,6,6,0.4,0.4
2024-09-07T1600,2536A,103.7627,29.5844,乐山市,牛耳桥,臭氧1小时,63,30,28,22,22,170,,124,124,10,18,3,4,0.5,0.5
2024-09-07T1600,2537A,103.7508,29.6006,乐山市,市第三水厂,臭氧1小时,70,33,29,23,17,176,,130,130,10,18,2,3,0.4,0.4
2024-09-07T1600,2538A,103.7571,29.5664,乐山市,市监测站,臭氧1小时,53,34,30,28,21,162,,120,120,10,13,3,4,0.4,0.4
2024-09-07T1600,3361A,103.7311,29.5628,乐山市,理工大学,臭氧1小时,82,37,31,28,24,185,,139,139,7,16,1,5,0.6,0.5
2024-09-07T1600,2598A,100.2143,26.8576,丽江市,西南郊,,,,,,,,,,,,,,,,
2024-09-07T1600,2599A,100.2497,26.8802,丽江市,丽江古城,,32,20,24,11,17,102,,68,68,7,14,10,9,0.5,0.6
2024-09-07T1600,2600A,100.2203,26.8906,丽江市,市中心,,34,20,19,16,14,107,,72,72,1,8,9,9,0.7,0.7
2024-09-07T1600,1267A,119.914,28.4514,丽水市,监测站大楼,,26,23,19,13,11,82,,75,75,3,8,3,4,0.3,0.4
2024-09-07T1600,1268A,119.93,28.4586,丽水市,莲都小学,,26,24,20,9,13,81,,74,74,2,7,4,4,0.3,0.4
2024-09-07T1600,1269A,119.879,28.4231,丽水市,余庄前,,32,20,21,13,13,102,,81,81,3,10,4,4,0.4,0.4
2024-09-07T1600,1173A,119.176,34.5885,连云港市,市环境监测站,,46,22,26,7,9,147,,143,143,8,14,7,8,0.4,0.4
2024-09-07T1600,3000A,119.3581,34.6972,连云港市,德源药业,,40,14,24,3,8,127,,132,132,5,13,5,5,0.3,0.3
2024-09-07T1600,3007A,119.178,34.844,连云港市,新城一中,,50,40,31,8,14,158,,143,143,14,26,4,8,0.5,0.8
2024-09-07T1600,3008A,119.3608,34.7519,连云港市,胡沟管理处,,42,14,26,3,7,133,,134,134,7,22,5,7,0.5,0.6
2024-09-07T1600,3009A,119.1478,34.5911,连云港市,矿山设计院,,46,19,27,7,12,146,,138,138,7,16,8,8,0.5,0.7
2024-09-07T1600,3434A,119.2413,34.6539,连云港市,工贸学校,,46,19,22,8,10,147,,139,139,10,11,7,7,0.5,0.6
2024-09-07T1600,3664A,119.4172,34.7341,连云港市,连云街道,,40,24,24,8,9,125,,133,133,18,10,6,5,0.5,0.5
2024-09-07T1600,2571A,102.3431,27.8099,凉山彝族自治州,青龙寺,,39,14,23,9,10,124,,93,93,3,7,5,5,0.6,0.7
2024-09-07T1600,2572A,102.2721,27.8415,凉山彝族自治州,邛海宾馆,,42,28,20,19,17,133,,92,92,5,15,7,9,0.5,0.6
2024-09-07T1600,2573A,102.2625,27.898,凉山彝族自治州,西昌市政府,,40,21,20,14,12,127,,80,80,4,11,7,8,0.3,0.4
2024-09-07T1600,2574A,102.2685,27.8851,凉山彝族自治州,凉山州政府,,41,25,24,15,15,130,,83,83,5,14,6,8,0.4,0.7
2024-09-07T1600,2575A,102.237,27.8914,凉山彝族自治州,长安,,40,17,26,13,17,128,,79,79,3,18,6,9,0.5,0.8
2024-09-07T1600,2212A,123.2,41.1953,辽阳市,宏伟区,,23,17,30,16,12,67,,43,43,15,26,10,10,0.7,0.7
2024-09-07T1600,2213A,123.1683,41.2495,辽阳市,新华园,,38,38,43,20,14,61,,39,39,28,35,16,10,1.1,1
2024-09-07T1600,2214A,123.2354,41.2639,辽阳市,滨河路,,36,36,41,15,13,57,,38,38,25,32,13,11,1.0,0.8
2024-09-07T1600,2215A,123.149,41.2991,辽阳市,铁西工业园,颗粒物(PM10),53,56,60,21,25,74,,35,35,34,33,14,12,1.3,1
2024-09-07T1600,2227A,125.1358,42.8845,辽源市,环保局,,28,8,21,3,8,88,,68,68,6,16,7,6,0.5,0.6
2024-09-07T1600,3239A,125.0764,42.9078,辽源市,银鹰制药,,30,10,18,3,8,95,,73,73,7,21,6,5,0.7,0.7
2024-09-07T1600,1625A,115.9848,36.4372,聊城市,区政府,臭氧1小时,84,46,47,19,18,187,,151,151,11,27,13,16,0.6,0.5
2024-09-07T1600,2878A,116.0072,36.4343,聊城市,聊大东校,臭氧1小时,92,51,46,30,25,193,,158,158,13,27,12,13,0.6,0.5
2024-09-07T1600,3200A,115.9819,36.4978,聊城市,监控中心,臭氧1小时,72,50,48,22,18,177,,154,154,11,43,9,11,0.4,0.4
2024-09-07T1600,3513A,116.0445,36.4361,聊城市,九州社区,,,,50,,21,,,131,,,33,,8,,0.4
2024-09-07T1600,4018A,116.0567,36.4608,聊城市,星美广场,臭氧1小时,82,48,51,25,21,185,,154,154,9,28,7,10,0.6,0.4
2024-09-07T1600,2632A,94.3681,29.6376,林芝市,林芝监测站,,23,8,10,3,2,72,,64,64,2,2,9,9,0.2,0.2
2024-09-07T1600,2633A,94.3616,29.6616,林芝市,林芝人民医院,,23,12,12,3,4,73,,65,65,3,4,8,7,0.2,0.2
2024-09-07T1600,2603A,100.0781,23.8982,临沧市,市环保局,,35,29,31,14,20,111,,73,73,8,11,6,8,0.3,0.4
2024-09-07T1600,2604A,100.0894,23.8822,临沧市,市气象局,,34,27,25,20,22,108,,72,72,8,11,5,9,0.4,0.5
2024-09-07T1600,1733A,111.5531,36.0783,临汾市,临钢医院,臭氧1小时,79,54,57,20,20,183,,145,145,7,20,5,6,1.0,0.8
2024-09-07T1600,1734A,111.5028,36.0714,临汾市,技工学校,臭氧1小时,80,41,52,25,20,184,,149,149,9,18,8,9,1.0,0.9
2024-09-07T1600,1736A,111.5018,36.0855,临汾市,市委,臭氧1小时,97,34,43,14,14,197,,159,159,8,16,8,9,1.0,0.8
2024-09-07T1600,3018A,111.505,36.1014,临汾市,唐尧大酒店,臭氧1小时,70,40,42,20,15,176,,144,144,8,14,6,7,1.0,0.8
2024-09-07T1600,3668A,111.5036,36.0414,临汾市,城南,臭氧1小时,102,42,49,22,20,204,,164,164,4,16,9,9,0.9,0.8
2024-09-07T1600,2667A,103.2069,35.5993,临夏回族自治州,环保局,,27,26,30,9,7,86,,60,60,3,10,8,7,0.4,0.5
2024-09-07T1600,2668A,103.2417,35.6057,临夏回族自治州,建设大厦,,29,13,18,7,13,91,,64,64,4,9,8,7,0.4,0.4
2024-09-07T1600,1618A,118.3429,35.0532,临沂市,沂河小区,臭氧1小时,95,39,36,19,15,196,,156,156,9,18,8,8,0.4,0.4
2024-09-07T1600,1619A,118.295,35.0583,临沂市,鲁南制药厂,臭氧1小时,107,36,30,16,12,214,,170,170,12,20,8,7,0.4,0.4
2024-09-07T1600,1620A,118.2794,34.9976,临沂市,新光毛纺厂,臭氧1小时,95,27,26,12,10,196,,161,161,10,20,8,8,0.6,0.6
2024-09-07T1600,1621A,118.3956,35.0888,临沂市,河东保险公司,臭氧1小时,97,24,32,21,18,197,,162,162,10,24,8,8,0.5,0.6
2024-09-07T1600,3370A,118.3564,35.0215,临沂市,十里堡居委,臭氧1小时,95,24,27,14,14,196,,160,160,12,21,10,9,0.7,0.7
2024-09-07T1600,3496A,118.3604,35.1084,临沂市,南坊新区,臭氧1小时,103,39,35,14,11,206,,162,162,12,21,10,9,0.5,0.6
2024-09-07T1600,3860A,118.3920,35.0300,临沂市,皇山花园小区,臭氧1小时,83,41,39,15,19,186,,150,150,13,29,10,7,0.6,0.5
2024-09-07T1600,1870A,109.4856,24.3895,柳州市,柳东小学,,17,13,17,9,12,53,,60,56,8,7,6,7,0.7,0.6
2024-09-07T1600,1871A,109.4157,24.3277,柳州市,环保监测站,,25,25,19,11,13,54,,60,57,5,5,7,8,0.7,0.7
2024-09-07T1600,1872A,109.389,24.341,柳州市,河西水厂,,18,16,21,8,13,55,,57,57,3,5,6,6,0.7,0.7
2024-09-07T1600,1873A,109.4311,24.2921,柳州市,市四中,,19,17,15,3,12,58,,66,60,7,6,5,6,0.7,0.6
2024-09-07T1600,1874A,109.4006,24.3631,柳州市,市九中,,18,18,23,11,14,55,,58,58,5,6,5,5,0.5,0.6
2024-09-07T1600,1875A,109.4958,24.3134,柳州市,古亭山,,18,14,17,9,13,56,,65,58,8,8,7,7,0.6,0.7
2024-09-07T1600,3402A,109.5422,24.3996,柳州市,市二中,,16,14,17,9,10,51,,60,55,10,9,7,7,0.6,0.7
2024-09-07T1600,2307A,116.5079,31.737,六安市,监测大楼,,43,,35,23,26,135,,110,110,4,6,6,5,0.4,0.6
2024-09-07T1600,2308A,116.4738,31.7643,六安市,皖西学院,臭氧1小时,59,64,52,25,25,167,,121,121,6,8,5,5,0.2,0.3
2024-09-07T1600,2309A,116.4996,31.7905,六安市,朝阳厂,臭氧1小时,62,47,36,24,23,169,,121,121,4,7,2,2,0.3,0.4
2024-09-07T1600,2310A,116.5567,31.7886,六安市,开发区,臭氧1小时,58,51,48,29,23,166,,121,121,6,7,4,3,0.4,0.5
2024-09-07T1600,2576A,104.8,26.5892,六盘水市,窑上,,,,,,,,,,,,,,,,
2024-09-07T1600,2577A,104.83,26.5917,六盘水市,黄土坡,,27,6,23,3,21,85,,93,89,7,9,7,8,0.5,0.5
2024-09-07T1600,2578A,104.89,26.5939,六盘水市,水钢,,27,16,32,7,16,86,,90,90,7,13,7,8,0.5,0.7
2024-09-07T1600,2579A,104.8475,26.5894,六盘水市,民中,,26,13,24,3,16,81,,88,88,11,12,9,8,0.6,0.6
2024-09-07T1600,2580A,104.9544,26.5506,六盘水市,双水,,28,14,27,6,14,88,,86,86,4,11,6,6,0.4,0.5
2024-09-07T1600,2335A,117.0189,25.1181,龙岩市,龙岩师专,,,,,,,,,,,,,,,,
2024-09-07T1600,2336A,117.0217,25.1033,龙岩市,龙岩市监测站,,18,7,14,3,12,55,,51,51,7,14,5,6,0.4,0.5
2024-09-07T1600,2337A,117.0258,25.0661,龙岩市,闽西职业技术学院,,18,12,19,3,10,56,,49,49,5,16,4,7,0.4,0.5
2024-09-07T1600,2338A,117.0196,25.0306,龙岩市,龙岩学院,,18,12,15,3,8,56,,48,48,7,12,3,3,0.4,0.4
2024-09-07T1600,2665A,105.0822,33.3261,陇南市,汉王镇固水子,,,,,,,,,,,,,,,,
2024-09-07T1600,2885A,104.9339,33.3826,陇南市,滨江中学,,40,33,41,19,20,126,,93,93,6,10,6,6,0.5,0.6
2024-09-07T1600,3247A,104.955,33.371,陇南市,市总工会,,41,25,37,7,14,129,,94,94,3,8,7,7,0.5,0.6
2024-09-07T1600,2487A,111.9589,27.8901,娄底市,电视发射台,颗粒物(PM10),51,51,55,25,28,122,,96,96,6,6,8,7,0.6,0.7
2024-09-07T1600,2488A,111.9975,27.725,娄底市,市监测站,颗粒物(PM10),51,51,48,33,31,128,,103,103,6,7,4,4,0.7,0.8
2024-09-07T1600,2489A,112.0194,27.7314,娄底市,市委党校,,49,49,47,32,30,116,,95,95,5,6,5,6,0.6,0.6
2024-09-07T1600,2490A,111.9561,27.7569,娄底市,涟钢,,41,41,49,26,31,100,,82,82,19,16,9,6,0.6,0.9
2024-09-07T1600,2491A,111.9892,27.7044,娄底市,市政府,,44,44,44,22,32,130,,106,106,9,9,2,3,0.4,0.5
2024-09-07T1600,1893A,105.4324,28.9634,泸州市,九狮山,,40,14,27,6,17,126,,99,99,2,9,5,5,0.4,0.4
2024-09-07T1600,1894A,105.4427,28.9063,泸州市,小市上码头,,48,31,31,14,16,151,,114,114,10,18,6,6,0.4,0.5
2024-09-07T1600,1895A,105.4241,28.8573,泸州市,兰田宪桥,,50,31,30,19,19,157,,128,128,14,16,6,7,0.5,0.5
2024-09-07T1600,1896A,105.4379,28.8833,泸州市,市环监站,,45,28,32,17,22,141,,116,116,8,16,5,5,0.5,0.4
2024-09-07T1600,3490A,105.3617,28.7703,泸州市,纳溪区环保局,臭氧1小时,54,35,29,26,26,163,,124,124,9,14,4,13,0.3,0.4
2024-09-07T1600,2183A,111.1406,37.5211,吕梁市,环保局,,38,38,36,24,19,52,,37,37,24,21,4,3,0.7,0.7
2024-09-07T1600,2185A,111.1297,37.5136,吕梁市,自来水公司,,34,34,34,22,17,64,,39,39,19,22,3,3,0.7,0.7
2024-09-07T1600,2867A,111.1283,37.51,吕梁市,马茂庄小学,,49,49,37,22,17,53,,38,36,29,28,8,5,0.5,0.5
2024-09-07T1600,1812A,112.3931,34.6516,洛阳市,市委党校,臭氧1小时,54,47,44,26,23,163,,142,142,5,19,5,9,0.7,0.6
2024-09-07T1600,1814A,112.4657,34.6871,洛阳市,豫西宾馆,,50,48,44,21,17,157,,138,138,1,13,6,10,0.5,0.4
2024-09-07T1600,1815A,112.494,34.6886,洛阳市,河南林校,,50,38,36,22,19,157,,136,136,6,16,6,10,0.6,0.6
2024-09-07T1600,1816A,112.3844,34.623,洛阳市,开发区管委会,,49,41,34,30,20,154,,136,136,5,17,3,5,0.5,0.4
2024-09-07T1600,1817A,112.4267,34.6258,洛阳市,市委新办公区,,49,40,36,33,23,154,,137,137,2,10,3,6,0.7,0.6
2024-09-07T1600,3340A,112.6005,34.6326,洛阳市,伊滨,颗粒物(PM10),53,55,43,26,23,153,,133,133,5,18,6,9,0.6,0.5
2024-09-07T1600,3341A,112.4951,34.6332,洛阳市,中移产业园,,50,44,43,26,22,160,,143,143,3,15,2,6,0.9,0.7
2024-09-07T1600,3593A,112.5736,34.8993,洛阳市,吉利监测站,臭氧1小时,85,69,47,32,21,188,,150,150,6,20,6,7,0.5,0.5
2024-09-07T1600,3635A,112.3677,34.662,洛阳市,河科大西苑校区,,,45,39,21,17,172,,155,155,3,19,5,8,,0.6
2024-09-07T1600,3636A,112.4388,34.6781,洛阳市,英才小学,臭氧1小时,52,42,39,21,20,161,,140,140,5,17,2,6,0.6,0.5
2024-09-07T1600,2399A,114.051,33.5699,漯河市,三五一五工厂,颗粒物(PM10),53,56,58,31,29,132,,103,103,7,13,5,7,0.9,0.9
2024-09-07T1600,2400A,114.0055,33.5698,漯河市,漯河大学,颗粒物(PM10),55,60,56,34,32,133,,108,108,7,12,3,6,0.7,0.7
2024-09-07T1600,2401A,114.0138,33.5828,漯河市,市水利局,颗粒物(PM10),58,66,62,39,30,138,,105,105,5,9,3,5,0.7,0.7
2024-09-07T1600,2402A,114.0261,33.5698,漯河市,市广电局,细颗粒物(PM2.5),60,54,57,43,38,131,,106,106,4,10,6,8,0.7,0.7
2024-09-07T1600,3478A,113.9749,33.5664,漯河市,市图书馆,颗粒物(PM10),54,58,55,30,32,132,,108,108,5,11,5,9,0.7,0.6
2024-09-07T1600,3479A,114.0967,33.5906,漯河市,召陵区卫健委,颗粒物(PM10),55,60,60,33,34,139,,108,108,6,15,5,6,0.7,0.6
2024-09-07T1600,1798A,118.5092,31.6837,马鞍山市,湖东路四小,,42,39,42,26,29,134,,110,110,10,13,6,6,0.6,0.8
2024-09-07T1600,1799A,118.5024,31.6449,马鞍山市,开发区,,42,39,44,28,28,132,,105,105,8,12,6,6,0.7,0.8
2024-09-07T1600,1800A,118.5228,31.7231,马鞍山市,慈湖,,44,37,46,29,26,138,,112,112,4,9,7,7,0.7,0.9
2024-09-07T1600,1802A,118.6245,31.7241,马鞍山市,濮塘,,43,36,34,30,27,128,,104,104,9,15,6,6,0.7,0.8
2024-09-07T1600,3633A,118.4918,31.6809,马鞍山市,雨山,,42,35,38,29,27,132,,108,108,5,9,8,8,0.7,0.9
2024-09-07T1600,1686A,111.0286,21.4688,茂名市,电白南海,,24,19,29,9,13,74,,83,78,3,3,8,8,0.6,0.6
2024-09-07T1600,1687A,110.9294,21.6533,茂名市,茂石化七小,,19,14,15,7,6,60,,74,66,4,3,5,5,0.5,0.4
2024-09-07T1600,1688A,110.9107,21.6687,茂名市,健康路,,21,14,13,3,7,66,,78,71,4,3,10,10,0.5,0.5
2024-09-07T1600,1689A,110.8592,21.6828,茂名市,高岭,,21,14,14,7,8,65,,74,70,7,7,10,12,0.6,0.6
2024-09-07T1600,3450A,111.01,21.5165,茂名市,电白水东,,21,14,20,7,11,66,,75,70,4,3,4,4,0.4,0.4
2024-09-07T1600,2539A,104.0308,30.0478,眉山市,黑龙滩水库,臭氧1小时,63,27,37,15,23,170,,132,132,2,6,1,2,0.5,0.5
2024-09-07T1600,2540A,103.8416,30.0874,眉山市,气象局,臭氧1小时,99,24,27,19,19,199,,145,145,10,20,6,6,0.5,0.5
2024-09-07T1600,3137A,103.8578,30.0744,眉山市,市委党校,臭氧1小时,79,24,28,14,14,183,,144,144,6,16,8,8,0.5,0.5
2024-09-07T1600,3148A,103.8291,30.0564,眉山市,区人社局,臭氧1小时,102,23,25,12,11,203,,148,148,12,20,8,9,0.6,0.5
2024-09-07T1600,1690A,116.1231,24.3284,梅州市,梅江月梅,,16,,6,3,2,50,,46,46,1,3,6,6,0.3,0.4
2024-09-07T1600,1691A,116.0797,24.2719,梅州市,梅县新城,,16,12,13,3,4,51,,46,46,3,8,4,4,0.3,0.3
2024-09-07T1600,1692A,116.1248,24.2654,梅州市,环境监控中心,,14,11,14,3,5,42,,42,42,4,10,4,6,0.4,0.4
2024-09-07T1600,3315A,116.1233,24.2991,梅州市,梅龙,,17,,8,3,4,52,,45,45,3,5,8,8,0.4,0.5
2024-09-07T1600,1878A,104.7778,31.4741,绵阳市,富乐山,臭氧1小时,74,36,34,28,27,179,,126,126,9,9,2,2,0.6,0.6
2024-09-07T1600,1879A,104.7563,31.4535,绵阳市,市人大,臭氧1小时,77,39,35,24,25,181,,130,130,11,12,7,8,0.5,0.5
2024-09-07T1600,1880A,104.6697,31.4668,绵阳市,高新区自来水公司,臭氧1小时,53,27,31,12,21,162,,130,130,7,12,3,3,0.7,0.7
2024-09-07T1600,1881A,104.7287,31.5075,绵阳市,三水厂,臭氧1小时,65,29,30,24,29,172,,127,127,17,12,4,5,0.7,0.7
2024-09-07T1600,3491A,104.69,31.5322,绵阳市,西科大附属小学,臭氧1小时,70,25,38,18,24,176,,125,125,10,17,4,4,0.6,0.6
2024-09-07T1600,3492A,104.5648,31.5343,绵阳市,安州区旅游局,,50,,31,22,27,160,,126,126,6,11,8,8,0.6,0.6
2024-09-07T1600,1784A,129.61,44.561,牡丹江市,环保大楼,,27,27,32,10,15,80,,65,65,6,13,7,8,0.3,0.4
2024-09-07T1600,1785A,129.6115,44.5782,牡丹江市,文化广场,,24,18,29,15,18,74,,59,59,9,18,8,8,0.2,0.3
2024-09-07T1600,1786A,129.5904,44.5963,牡丹江市,第一医院,,32,32,32,9,17,78,,65,65,8,15,6,6,0.3,0.4
2024-09-07T1600,1787A,129.6364,44.6075,牡丹江市,机车工厂,,32,30,30,22,20,75,,62,62,9,14,6,6,0.2,0.3
2024-09-07T1600,1788A,129.6386,44.5462,牡丹江市,第一中学,,26,11,28,6,12,83,,71,71,7,16,6,6,0.2,0.3
2024-09-07T1600,2531A,105.0703,29.61,内江市,市监测站,臭氧1小时,104,27,22,24,14,208,,156,156,12,14,4,4,0.4,0.3
2024-09-07T1600,2532A,105.0717,29.5947,内江市,东兴区政府,臭氧1小时,87,,22,22,17,189,,132,132,16,19,3,3,0.6,0.6
2024-09-07T1600,2533A,105.0653,29.5817,内江市,内江二中,臭氧1小时,75,29,24,20,24,180,,132,132,11,16,6,6,0.6,0.6
2024-09-07T1600,2534A,105.0406,29.5822,内江市,内江日报社,臭氧1小时,83,24,25,24,22,186,,136,136,15,23,6,5,0.5,0.5
2024-09-07T1600,2628A,92.0657,31.4846,那曲市,那曲监测站,,26,26,26,9,16,77,,62,62,5,8,6,6,0.3,0.4
2024-09-07T1600,3128A,92.0506,31.4797,那曲市,那曲会议中心,,27,9,19,3,9,84,,71,71,4,10,4,5,0.4,0.5
2024-09-07T1600,1290A,115.8931,28.6843,南昌市,省外办,,30,30,37,14,22,94,,110,110,12,16,9,10,0.4,0.5
2024-09-07T1600,1291A,115.8886,28.7003,南昌市,省林业公司,,31,17,37,9,18,98,,117,117,5,12,6,8,0.4,0.6
2024-09-07T1600,1292A,115.8126,28.7442,南昌市,林科所,,32,14,26,9,13,102,,119,119,11,16,9,10,0.7,0.7
2024-09-07T1600,1294A,115.8518,28.687,南昌市,建工学校,,32,18,34,11,15,102,,119,119,3,11,9,10,0.5,0.7
2024-09-07T1600,1295A,115.8921,28.6424,南昌市,象湖,,33,14,27,8,17,104,,113,113,4,9,4,6,0.3,0.5
2024-09-07T1600,1296A,115.7423,28.7996,南昌市,武术学校,,39,,27,27,21,104,,104,104,5,7,3,3,0.7,0.7
2024-09-07T1600,1298A,115.9314,28.6842,南昌市,省站,,29,28,30,16,21,91,,105,105,14,9,6,8,0.6,0.7
2024-09-07T1600,3046A,115.9084,28.6062,南昌市,机电学校,,33,26,36,9,16,105,,103,103,5,9,9,9,0.4,0.5
2024-09-07T1600,3690A,115.9721,28.7031,南昌市,外国语学校,,31,22,34,6,17,98,,114,114,5,9,5,6,0.4,0.5
2024-09-07T1600,1905A,106.056,30.8064,南充市,西山风景区,,43,,22,20,25,135,,104,104,4,7,1,1,0.7,1
2024-09-07T1600,1906A,106.0789,30.8023,南充市,南充市委,,46,42,36,25,28,146,,114,114,6,13,6,6,0.5,0.5
2024-09-07T1600,1907A,106.1031,30.8217,南充市,南充炼油厂,,48,33,39,23,27,151,,124,124,7,10,2,2,0.5,0.6
2024-09-07T1600,1908A,106.1064,30.7856,南充市,高坪区监测站,,45,24,35,14,25,142,,113,113,9,15,3,3,0.4,0.5
2024-09-07T1600,1909A,106.0642,30.7636,南充市,嘉陵区环保局,,44,22,35,14,23,140,,110,110,8,16,5,5,0.6,0.5
2024-09-07T1600,1910A,106.1087,30.8388,南充市,市环境监测站,,47,34,39,17,26,148,,121,121,8,13,3,2,0.4,0.4
2024-09-07T1600,1151A,118.8086,32.1065,南京市,迈皋桥,臭氧1小时,83,47,31,36,21,186,,125,125,11,16,3,4,0.5,0.4
2024-09-07T1600,1152A,118.7538,32.0551,南京市,草场门,,,51,36,31,22,167,,131,131,,15,6,6,0.5,0.5
2024-09-07T1600,1153A,118.7794,32.0745,南京市,山西路,臭氧1小时,73,51,37,31,23,178,,122,122,2,8,3,4,0.4,0.5
2024-09-07T1600,1154A,118.7752,32.0023,南京市,中华门,,49,39,31,24,21,154,,109,109,18,18,5,5,0.5,0.6
2024-09-07T1600,1155A,118.8109,32.0309,南京市,瑞金路,臭氧1小时,68,46,36,34,23,174,,118,118,5,8,4,5,0.5,0.6
2024-09-07T1600,1156A,118.7997,32.0754,南京市,玄武湖,臭氧1小时,72,51,40,34,18,177,,119,119,8,12,6,6,0.8,0.8
2024-09-07T1600,1157A,118.6414,32.0931,南京市,浦口,臭氧1小时,80,55,37,39,20,184,,135,135,12,10,4,5,0.5,0.6
2024-09-07T1600,1158A,118.7356,31.9996,南京市,奥体中心,臭氧1小时,52,41,37,31,27,161,,117,117,8,13,4,5,0.3,0.5
2024-09-07T1600,1159A,118.9125,32.1028,南京市,仙林大学城,,,53,39,46,28,193,,139,139,9,12,8,7,,0.6
2024-09-07T1600,3422A,118.8436,31.9198,南京市,江宁彩虹桥,,,51,44,29,25,142,,123,123,,9,4,4,0.4,0.6
2024-09-07T1600,3423A,119.0138,31.6494,南京市,溧水永阳,,49,36,34,34,28,116,,102,102,5,12,4,4,0.4,0.6
2024-09-07T1600,3424A,118.879,31.3302,南京市,高淳老职中,,48,40,37,33,28,142,,117,117,6,12,6,7,0.3,0.4
2024-09-07T1600,3427A,118.8554,32.3578,南京市,六合雄州,细颗粒物(PM2.5),54,48,36,38,22,153,,114,114,11,9,3,3,0.6,0.6
2024-09-07T1600,1401A,108.3103,22.7881,南宁市,二十一中,,19,16,16,6,11,60,,61,58,6,7,3,4,0.7,0.6
2024-09-07T1600,1402A,108.3141,22.8528,南宁市,北湖,,20,10,19,6,12,61,,57,56,7,9,3,3,0.5,0.6
2024-09-07T1600,1403A,108.3206,22.8225,南宁市,市监测站,,20,15,16,8,13,61,,61,56,8,9,4,5,0.7,0.7
2024-09-07T1600,1404A,108.3829,22.8037,南宁市,大自然花园,,20,10,14,3,11,61,,61,57,7,9,4,6,0.6,0.6
2024-09-07T1600,1405A,108.4394,22.7904,南宁市,仙葫,,20,,17,8,10,61,,60,59,3,5,7,7,0.7,0.7
2024-09-07T1600,1406A,108.2397,22.8467,南宁市,区农职院,,19,9,18,3,10,58,,56,52,6,6,3,4,0.6,0.6
2024-09-07T1600,1407A,108.3275,22.735,南宁市,英华嘉园,,20,10,17,6,12,61,,60,57,6,8,4,5,0.5,0.5
2024-09-07T1600,1408A,108.2257,22.7757,南宁市,沙井镇街道办,,19,11,21,7,11,58,,58,56,8,9,2,3,0.5,0.5
2024-09-07T1600,3401A,108.4834,22.7618,南宁市,红星社区,,21,21,17,3,10,60,,56,56,4,6,5,6,0.7,0.7
2024-09-07T1600,2331A,118.0966,26.6761,南平市,茫荡山,,,,,,,,,,,,,,,,
2024-09-07T1600,2332A,118.1681,26.6369,南平市,南平市监测站,,21,10,11,3,6,65,,53,53,4,11,4,5,0.4,0.6
2024-09-07T1600,2333A,118.1825,26.6489,南平市,南平铝业有限公司,,19,8,14,3,6,60,,51,51,3,11,4,5,0.4,0.5
2024-09-07T1600,2334A,118.1756,26.6272,南平市,南平七中,,20,15,18,3,8,63,,52,52,2,11,3,5,0.4,0.6
2024-09-07T1600,1168A,120.9098,31.9663,南通市,狼山街道,,40,34,37,28,33,93,,85,85,8,12,7,8,0.4,0.4
2024-09-07T1600,1169A,120.86,32.0005,南通市,虹桥,,35,35,40,24,30,91,,79,79,9,11,6,7,0.4,0.5
2024-09-07T1600,1170A,120.87,32.02,南通市,城中,,43,43,40,23,27,88,,88,88,12,12,6,7,0.5,0.8
2024-09-07T1600,1171A,120.94,31.93,南通市,星湖花园,,38,28,32,26,28,90,,83,83,11,12,6,6,0.5,0.5
2024-09-07T1600,1172A,120.81,32.0417,南通市,紫琅学院,,34,34,33,22,24,87,,78,78,10,16,8,9,0.5,0.5
2024-09-07T1600,3291A,121.067,32.062,南通市,通州监测站,,39,31,38,27,28,82,,81,81,8,8,3,4,0.7,0.6
2024-09-07T1600,3432A,120.9348,31.9883,南通市,环境教育馆,,36,36,42,19,30,94,,83,83,5,10,4,5,0.4,0.5
2024-09-07T1600,2404A,112.5224,33.0122,南阳市,瓦房庄,,50,50,46,27,23,136,,116,116,10,13,3,4,0.6,0.5
2024-09-07T1600,2405A,112.5003,32.9735,南阳市,汉画馆,,47,47,48,32,29,129,,110,110,10,14,6,7,0.7,0.6
2024-09-07T1600,2406A,112.5573,33.027,南阳市,气象站,,46,46,46,27,23,136,,114,114,8,14,5,6,0.7,0.6
2024-09-07T1600,2407A,112.5481,32.9689,南阳市,理工学院,,41,41,41,25,19,130,,110,110,9,13,5,6,0.7,0.6
2024-09-07T1600,4008A,112.5234,32.9922,南阳市,卧龙区政府,,44,44,43,28,25,129,,109,109,12,16,5,6,0.8,0.6
2024-09-07T1600,1234A,121.8358,29.911,宁波市,区环保大楼,,36,36,49,24,35,82,,77,77,29,26,7,5,0.6,0.6
2024-09-07T1600,1235A,121.56,29.82,宁波市,万里学院,,45,41,38,29,36,143,,104,104,14,16,12,11,0.6,0.5
2024-09-07T1600,1236A,121.713,29.9572,宁波市,龙赛医院,,44,44,41,26,28,124,,92,92,17,23,8,10,0.6,0.7
2024-09-07T1600,1239A,121.633,29.7733,宁波市,钱湖水厂,,35,27,38,24,30,89,,90,90,6,9,8,9,0.4,0.5
2024-09-07T1600,1240A,121.5856,29.8635,宁波市,太古小学,细颗粒物(PM2.5),53,48,46,37,30,141,,104,104,22,19,10,10,0.8,0.7
2024-09-07T1600,1241A,121.524,29.8674,宁波市,市环境监测中心,,50,46,41,29,29,158,,113,113,20,15,7,7,0.7,0.6
2024-09-07T1600,2871A,121.6147,29.9017,宁波市,万里国际学校,,,,38,,29,,,66,,,17,,9,,0.4
2024-09-07T1600,3710A,121.5594,29.8975,宁波市,白沙活动中心,,,45,40,31,28,154,,115,115,,17,11,11,0.6,0.4
2024-09-07T1600,2339A,119.5001,26.6946,宁德市,金涵水库,,,,,,,,,,,,,,,,
2024-09-07T1600,2341A,119.5388,26.6612,宁德市,宁德市监测站,,20,20,14,8,6,43,,53,53,17,10,10,6,0.5,0.4
2024-09-07T1600,3209A,119.5231,26.6562,宁德市,宁德一中,,34,34,18,3,7,52,,53,53,12,6,21,4,0.4,0.3
2024-09-07T1600,2618A,98.8601,25.8567,怒江傈僳族自治州,州监测站,,34,20,26,13,18,106,,64,64,5,10,10,8,0.5,0.5
2024-09-07T1600,2619A,98.8546,25.8417,怒江傈僳族自治州,泸水一中,,36,35,26,25,16,98,,56,56,9,14,9,7,0.4,0.4
2024-09-07T1600,1888A,101.6891,26.571,攀枝花市,弄弄坪,,36,23,39,22,21,115,,77,77,8,19,15,15,0.6,0.8
2024-09-07T1600,1889A,101.5769,26.5928,攀枝花市,河门口,,38,24,28,16,18,119,,68,68,11,14,7,6,0.6,0.6
2024-09-07T1600,1890A,101.7169,26.585,攀枝花市,炳草岗,,39,34,39,18,20,124,,78,78,6,28,10,11,0.6,1
2024-09-07T1600,1891A,101.7369,26.5008,攀枝花市,仁和,,41,30,39,19,23,131,,84,84,8,18,6,12,0.7,1.2
2024-09-07T1600,2835A,101.7227,26.567,攀枝花市,四十中小,,40,30,31,20,17,125,,84,84,10,32,15,13,0.9,1.3
2024-09-07T1600,1604A,122.0303,41.1489,盘锦市,开发区,,42,42,40,16,21,70,,52,52,24,41,9,8,0.3,0.4
2024-09-07T1600,1605A,122.0485,41.0883,盘锦市,兴隆台,,33,33,37,17,15,69,,47,47,28,53,9,11,0.5,0.6
2024-09-07T1600,1606A,121.8297,41.1028,盘锦市,新生街道,,22,13,20,8,11,68,,55,55,21,31,7,8,0.4,0.5
2024-09-07T1600,1832A,113.3257,33.742,平顶山市,新华旅馆,颗粒物(PM10),61,72,65,36,32,133,,98,98,7,16,5,8,0.9,0.9
2024-09-07T1600,1833A,113.2919,33.737,平顶山市,规划设计院,细颗粒物(PM2.5),55,53,53,39,30,129,,104,104,15,22,7,9,0.9,0.8
2024-09-07T1600,1834A,113.182,33.774,平顶山市,平顶山工学院,细颗粒物(PM2.5),52,46,56,36,27,145,,109,109,9,18,7,8,0.9,0.9
2024-09-07T1600,3204A,113.3025,33.73,平顶山市,规划局,颗粒物(PM10),58,66,57,35,29,129,,96,96,10,17,3,6,0.7,0.6
2024-09-07T1600,3594A,112.8867,33.9116,平顶山市,石龙区,颗粒物(PM10),66,82,78,38,27,157,,116,116,10,35,10,13,0.6,0.6
2024-09-07T1600,2656A,106.6692,35.5461,平凉市,聚贤嘉苑,,28,27,23,14,11,88,,84,84,13,16,11,9,0.6,0.5
2024-09-07T1600,2657A,106.7021,35.5307,平凉市,博物馆,,29,29,27,11,8,90,,86,86,13,16,10,9,0.5,0.4
2024-09-07T1600,2347A,114.0997,27.5002,萍乡市,武功山,,21,6,7,3,4,66,,66,66,3,5,9,8,0.2,0.3
2024-09-07T1600,2348A,113.8385,27.6434,萍乡市,中医院,,22,14,37,3,22,68,,91,89,1,5,5,23,0.5,0.7
2024-09-07T1600,2349A,113.8493,27.6253,萍乡市,市政府车库,,22,6,33,6,24,69,,88,87,2,8,8,17,0.7,1.1
2024-09-07T1600,2350A,113.8676,27.6435,萍乡市,市环保局,,20,10,38,3,23,62,,81,80,2,5,5,19,0.3,0.6
2024-09-07T1600,2351A,113.866,27.6198,萍乡市,安源区政府,,22,6,36,3,14,68,,85,85,6,14,9,16,0.4,0.9
2024-09-07T1600,2319A,119.0141,25.4325,莆田市,荔城区仓后路,,19,,16,8,5,58,,46,46,8,6,7,7,0.6,0.5
2024-09-07T1600,2320A,119.0015,25.4553,莆田市,莆田市监测站,,23,23,13,6,3,63,,50,50,7,5,7,6,0.5,0.4
2024-09-07T1600,2321A,119.1119,25.4561,莆田市,涵江区六中,,35,35,17,16,6,55,,52,52,13,7,7,7,0.5,0.5
2024-09-07T1600,2322A,119.1013,25.3215,莆田市,秀屿区政府,,20,16,19,3,4,64,,47,47,7,6,8,7,0.6,0.6
2024-09-07T1600,2323A,118.981,25.4792,莆田市,东圳水库,,,,,,,,,,,,,,,,
2024-09-07T1600,2392A,115.0312,35.7636,濮阳市,环保局,,42,32,38,22,23,134,,119,119,10,19,6,16,0.6,0.5
2024-09-07T1600,2394A,115.0574,35.7609,濮阳市,油田运输公司,,44,34,41,21,25,138,,122,122,9,19,3,12,0.6,0.5
2024-09-07T1600,2395A,115.0866,35.7754,濮阳市,油田物探公司,,44,35,49,25,27,138,,121,121,7,19,2,8,0.6,0.5
2024-09-07T1600,3021A,115,35.7668,濮阳市,濮水河管理处,,38,25,35,23,24,121,,111,111,8,16,5,7,0.6,0.4
2024-09-07T1600,2601A,100.98,22.7633,普洱市,市环保局,,34,31,39,15,19,108,,86,86,6,9,9,9,0.5,0.6
2024-09-07T1600,2602A,100.9817,22.8322,普洱市,普洱第二中学,,36,34,39,3,16,114,,94,94,5,10,8,8,0.6,0.7
2024-09-07T1600,2262A,131.0518,45.8751,七台河市,新一中,,30,11,18,3,8,93,,88,88,5,12,9,9,0.8,1
2024-09-07T1600,3345A,131.0577,45.7879,七台河市,中波台,,23,11,13,9,6,71,,67,67,11,18,7,7,0.4,0.5
2024-09-07T1600,3637A,131.0176,45.7761,七台河市,人民广场,,23,14,18,3,8,71,,67,67,11,12,8,8,0.2,0.3
2024-09-07T1600,3684A,130.8781,45.8222,七台河市,新建矿广场,,22,22,23,12,16,68,,65,65,14,17,5,7,0.3,0.4
2024-09-07T1600,1779A,123.9305,47.3636,齐齐哈尔市,安居小区,,28,28,26,3,7,77,,64,64,11,14,9,10,0.4,0.4
2024-09-07T1600,1780A,123.9488,47.3386,齐齐哈尔市,中心广场,,25,24,18,8,6,77,,62,62,9,13,3,4,0.2,0.3
2024-09-07T1600,1781A,123.9483,47.3227,齐齐哈尔市,农牧车辆厂,,31,31,33,6,7,79,,64,64,7,14,8,10,0.1,0.3
2024-09-07T1600,1783A,123.945,47.2988,齐齐哈尔市,市环境监测站,,26,19,28,10,10,82,,64,64,4,13,8,9,0.3,0.3
2024-09-07T1600,3662A,123.6333,47.2075,齐齐哈尔市,富区青少年活动中心,,26,26,44,3,13,82,,62,62,11,18,9,13,0.7,0.9
2024-09-07T1600,2591A,107.9783,26.5747,黔东南苗族侗族自治州,市环境监测站,,23,21,28,16,23,68,,98,75,13,11,3,3,0.6,0.7
2024-09-07T1600,2881A,107.8908,26.5311,黔东南苗族侗族自治州,凯里学院,,25,,24,17,21,72,,101,84,8,9,2,2,0.6,0.7
2024-09-07T1600,2593A,107.5228,26.2403,黔南布依族苗族自治州,小围寨,,24,12,20,3,12,75,,94,81,4,5,5,4,0.4,0.5
2024-09-07T1600,3538A,107.5175,26.2978,黔南布依族苗族自治州,沙坝,,,,23,7,15,80,,95,88,3,5,3,4,0.2,0.3
2024-09-07T1600,2589A,104.9022,25.0925,黔西南布依族苗族自治州,场坝街,,24,11,31,9,20,74,,75,75,8,14,7,21,0.1,0.3
2024-09-07T1600,2590A,104.8811,25.0992,黔西南布依族苗族自治州,坪东大道,,25,10,27,3,15,78,,78,78,3,11,8,8,0.2,0.3
2024-09-07T1600,2502A,108.6236,21.9667,钦州市,市环保站,,,,12,2,4,64,,58,58,4,6,5,5,0.6,0.6
2024-09-07T1600,2503A,108.6549,21.9481,钦州市,沙埠小学,,21,8,13,3,8,67,,61,61,4,6,4,4,0.4,0.5
2024-09-07T1600,2504A,108.5989,21.7431,钦州市,港区一小,,23,6,26,3,8,73,,70,70,4,6,4,5,0.4,0.4
2024-09-07T1600,3404A,108.5959,21.9633,钦州市,北职校,,22,7,16,3,7,68,,62,62,3,4,4,4,0.5,0.6
2024-09-07T1600,1042A,119.5134,39.8207,秦皇岛市,北戴河环保局,,23,11,36,3,9,72,,63,63,11,19,2,3,0.4,0.6
2024-09-07T1600,1043A,119.7493,40.0116,秦皇岛市,第一关,,25,19,32,11,17,77,,48,48,8,39,3,2,0.2,0.3
2024-09-07T1600,1044A,119.5897,39.9499,秦皇岛市,监测站,,16,16,26,11,16,51,,57,57,25,27,3,3,0.4,0.4
2024-09-07T1600,1046A,119.5251,39.9041,秦皇岛市,建设大厦,,27,27,37,11,9,60,,59,59,22,29,3,3,0.3,0.3
2024-09-07T1600,3132A,119.610547,39.943889,秦皇岛市,文明里,,30,30,31,3,7,47,,58,58,33,27,1,2,0.5,0.5
2024-09-07T1600,1307A,120.6659,36.2403,青岛市,仰口,,,33,23,20,14,179,,144,144,8,7,7,6,,3.1
2024-09-07T1600,1310A,120.4134,36.0658,青岛市,市南区东部子站,臭氧1小时,113,39,42,9,13,226,,158,158,15,31,8,10,0.5,0.5
2024-09-07T1600,1311A,120.3664,36.1032,青岛市,四方区子站,臭氧1小时,111,39,42,17,16,222,,154,154,24,36,12,14,0.7,0.7
2024-09-07T1600,1312A,120.2994,36.054,青岛市,市南区西部子站,臭氧1小时,83,36,37,10,9,186,,147,147,29,25,9,9,0.7,0.7
2024-09-07T1600,1313A,120.4581,36.0858,青岛市,崂山区子站,臭氧1小时,112,39,34,12,9,223,,148,148,17,28,10,10,0.6,0.6
2024-09-07T1600,1314A,120.1983,35.9608,青岛市,黄岛区子站,臭氧1小时,100,27,34,15,13,200,,159,159,12,29,10,10,0.4,0.4
2024-09-07T1600,1315A,120.3999,36.3083,青岛市,城阳区子站,臭氧1小时,85,34,36,10,13,188,,149,149,21,28,9,9,0.5,0.6
2024-09-07T1600,1966A,120.0405,35.8735,青岛市,黄岛区4号,臭氧1小时,80,24,30,3,10,184,,149,149,7,19,12,12,0.5,0.5
2024-09-07T1600,3362A,120.5014,36.4034,青岛市,即墨2号,臭氧1小时,75,40,39,10,15,180,,156,156,10,19,7,7,0.5,0.5
2024-09-07T1600,3642A,120.3503,36.0736,青岛市,市北区南部,臭氧1小时,103,40,39,12,13,206,,152,152,23,36,10,11,0.5,0.6
2024-09-07T1600,3643A,120.3948,36.1805,青岛市,李沧区北部,臭氧1小时,101,31,41,12,17,201,,146,146,19,34,10,10,0.5,0.6
2024-09-07T1600,1702A,113.0426,23.691,清远市,环保大楼,,21,13,9,8,6,67,,54,54,5,6,6,6,0.5,0.5
2024-09-07T1600,1703A,113.0208,23.7106,清远市,凤城街办,,20,14,9,14,9,60,,46,46,4,5,6,6,0.4,0.4
2024-09-07T1600,3025A,113.0477,23.6344,清远市,技师学院,,20,15,11,8,6,64,,51,51,3,6,5,5,0.8,0.6
2024-09-07T1600,3318A,112.9903,23.7403,清远市,清新太和,,20,20,10,14,5,64,,55,55,2,2,7,5,0.7,0.6
2024-09-07T1600,3455A,113.076,23.7198,清远市,清城东城,,20,15,7,9,3,63,,46,46,2,3,6,6,0.6,0.6
2024-09-07T1600,2661A,107.6325,35.7357,庆阳市,庆阳五中,,31,31,26,18,13,84,,61,61,6,7,6,6,0.5,0.5
2024-09-07T1600,2662A,107.6364,35.7067,庆阳市,市环保局,,29,27,23,20,12,85,,62,62,7,8,4,4,0.6,0.6
2024-09-07T1600,1916A,103.7897,25.5035,曲靖市,环境监测站,,26,10,30,3,16,82,,91,91,6,11,4,7,0.4,0.7
2024-09-07T1600,1917A,103.8,25.5364,曲靖市,烟厂办公区,,25,11,31,7,18,77,,89,89,7,11,3,5,0.5,0.9
2024-09-07T1600,3376A,103.7947,25.462,曲靖市,南苑二区,,26,9,28,9,18,83,,92,92,6,11,8,9,0.5,0.8
2024-09-07T1600,3377A,103.7444,25.5261,曲靖市,曲靖师范学院,,,,32,,23,,,116,,,12,,10,,0.8
2024-09-07T1600,1264A,118.8692,28.9398,衢州市,环保大楼,,41,23,40,15,27,131,,114,114,6,14,2,2,0.5,0.5
2024-09-07T1600,1265A,118.8709,28.9666,衢州市,实验学校,,41,19,41,14,28,131,,119,119,4,11,4,4,0.5,0.6
2024-09-07T1600,1266A,118.8621,28.9808,衢州市,衢州学院,,40,20,40,14,27,127,,112,112,5,14,4,4,0.3,0.4
2024-09-07T1600,1611A,118.5819,24.9117,泉州市,涂山街,,22,16,14,8,7,69,,49,49,8,14,1,3,0.4,0.5
2024-09-07T1600,1612A,118.5972,24.8978,泉州市,津头埔,,20,11,16,3,8,64,,46,46,9,14,3,4,0.4,0.5
2024-09-07T1600,1613A,118.6663,24.9424,泉州市,万安,,28,14,16,8,8,88,,52,52,6,10,2,3,0.6,0.6
2024-09-07T1600,1614A,118.6117,24.9604,泉州市,清源山,,,,,,,,,,,,,,,,
2024-09-07T1600,3529A,118.6333,24.9264,泉州市,城华南路,,21,9,13,3,7,65,,44,44,2,7,3,4,0.4,0.4
2024-09-07T1600,2626A,88.8876,29.2718,日喀则市,日喀则监测站,,34,11,10,3,4,108,,97,97,4,6,6,5,0.4,0.4
2024-09-07T1600,3726A,88.8781,29.2426,日喀则市,林业技术推广中心,,32,6,6,3,5,100,,86,86,5,7,8,8,0.5,0.5
2024-09-07T1600,1659A,119.471,35.4209,日照市,监测站,臭氧1小时,74,29,22,13,11,179,,136,136,25,29,12,11,0.5,0.4
2024-09-07T1600,1660A,119.523,35.4216,日照市,市政府广场,臭氧1小时,92,34,23,9,8,193,,151,151,13,16,11,10,0.6,0.6
2024-09-07T1600,1661A,119.5587,35.4044,日照市,港务局,臭氧1小时,93,22,22,17,14,194,,152,152,8,12,12,10,0.8,0.7
2024-09-07T1600,3507A,119.5328,35.4625,日照市,职业技术学院,臭氧1小时,90,24,24,14,8,192,,148,148,15,19,11,10,0.7,0.6
2024-09-07T1600,3604A,119.3266,35.1044,日照市,岚山环保分局,臭氧1小时,74,31,43,7,11,179,,148,148,13,34,12,29,0.8,2.9
2024-09-07T1600,1835A,111.1922,34.7752,三门峡市,市政府,,47,40,36,16,14,148,,143,143,9,13,10,14,0.6,0.6
2024-09-07T1600,1836A,111.1587,34.7942,三门峡市,开发区,臭氧1小时,54,45,41,24,22,163,,146,146,9,11,13,14,0.7,0.6
2024-09-07T1600,1838A,111.143,34.7955,三门峡市,风景区,,,,,,,,,,,,,,,,
2024-09-07T1600,3039A,111.1911,34.7829,三门峡市,三门峡市第一小学,,48,48,36,32,16,142,,137,137,9,12,10,14,0.6,0.6
2024-09-07T1600,3598A,111.1,34.7167,三门峡市,富达温泉假日酒店,,44,43,44,18,20,138,,135,135,9,13,12,15,0.5,0.5
2024-09-07T1600,2324A,117.6211,26.2625,三明市,三钢,,,12,15,9,10,69,,56,56,4,11,,7,0.2,0.2
2024-09-07T1600,2325A,117.635,26.2714,三明市,三明二中,,23,14,14,11,11,71,,57,57,4,10,4,4,0.3,0.4
2024-09-07T1600,2326A,117.6028,26.2378,三明市,三元区政府,,23,18,20,9,14,73,,57,57,6,14,4,4,0.3,0.4
2024-09-07T1600,2327A,117.7275,26.3108,三明市,洋溪,,,,,,,,,,,,,,,,
2024-09-07T1600,1876A,109.5078,18.2489,三亚市,河东子站,,23,22,27,8,8,71,,76,68,3,2,3,3,0.4,0.4
2024-09-07T1600,1877A,109.4964,18.2681,三亚市,河西子站,,33,33,32,8,5,67,,70,65,3,2,3,3,0.4,0.4
2024-09-07T1600,3540A,109.7348,18.3443,三亚市,君悦子站,,22,16,14,7,6,69,,74,66,5,3,6,5,0.6,0.6
2024-09-07T1600,2624A,91.7608,29.2313,山南市,山南监测站,,33,9,10,3,4,105,,75,75,3,11,7,7,0.2,0.3
2024-09-07T1600,2625A,91.7706,29.2436,山南市,山南人民医院,,33,9,17,3,6,104,,72,72,6,13,8,8,0.4,0.4
2024-09-07T1600,1674A,116.6794,23.3667,汕头市,金平子站,,18,16,14,3,5,57,,54,54,4,7,4,4,0.4,0.4
2024-09-07T1600,1675A,116.7244,23.3633,汕头市,龙湖子站,,18,,14,12,5,51,,49,49,2,4,6,6,0.5,0.6
2024-09-07T1600,1676A,116.7258,23.2775,汕头市,濠江子站,,16,16,15,8,6,47,,46,46,9,8,6,6,0.6,0.6
2024-09-07T1600,1677A,116.7519,23.4714,汕头市,澄海子站,,20,15,14,8,5,63,,57,57,3,8,4,4,0.6,0.7
2024-09-07T1600,1678A,116.6092,23.2539,汕头市,潮阳子站,,44,44,17,3,15,53,,53,53,3,4,4,4,0.4,0.3
2024-09-07T1600,3444A,116.454,23.2684,汕头市,潮南峡山,,18,9,12,3,3,56,,55,55,1,2,5,5,0.5,0.5
2024-09-07T1600,3624A,116.4069,23.2533,汕头市,潮南子站,,24,24,15,3,6,52,,51,51,11,10,4,5,0.5,0.5
2024-09-07T1600,1693A,115.3653,22.775,汕尾市,市环保局,,18,17,14,6,6,57,,53,53,3,5,7,6,0.5,0.5
2024-09-07T1600,1694A,115.3706,22.7898,汕尾市,市政府,,18,16,13,8,7,55,,51,51,5,7,6,6,0.4,0.4
2024-09-07T1600,1695A,115.3622,22.7925,汕尾市,新城中学,,41,41,16,7,4,56,,52,52,4,5,5,5,0.7,0.7
2024-09-07T1600,2645A,109.9154,33.8715,商洛市,监测站,,37,36,36,18,20,117,,115,115,9,15,6,4,0.7,0.7
2024-09-07T1600,3045A,109.9643,33.8471,商洛市,商州区中学,,35,35,38,16,19,112,,107,107,9,18,6,8,0.7,0.7
2024-09-07T1600,2408A,115.6702,34.4285,商丘市,环境监测站,,43,43,43,26,24,120,,92,92,7,19,3,4,0.7,0.6
2024-09-07T1600,2409A,115.6458,34.4045,商丘市,粮食局,颗粒物(PM10),52,54,43,32,26,129,,105,105,6,13,7,8,0.5,0.4
2024-09-07T1600,2410A,115.6293,34.3948,商丘市,睢阳区环保局,,50,50,42,33,29,120,,98,98,5,11,6,7,0.5,0.5
2024-09-07T1600,3171A,115.6071,34.4465,商丘市,梁园区档案局,,44,44,41,28,28,133,,105,105,5,11,7,8,0.5,0.5
2024-09-07T1600,1141A,121.4,31.238,上海市,普陀,,44,44,49,30,30,108,,89,89,26,21,6,7,0.4,0.4
2024-09-07T1600,1142A,121.478,31.2036,上海市,十五厂,,45,39,48,31,35,93,,83,83,19,17,9,10,0.4,0.4
2024-09-07T1600,1143A,121.467,31.3008,上海市,虹口,,39,39,44,25,32,84,,79,79,25,19,10,10,0.6,0.6
2024-09-07T1600,1144A,121.412,31.1654,上海市,徐汇上师大,,50,45,50,35,36,107,,86,86,20,18,7,7,0.6,0.6
2024-09-07T1600,1145A,121.536,31.2659,上海市,杨浦四漂,颗粒物(PM10),54,58,51,32,33,80,,75,75,20,18,9,9,0.5,0.6
2024-09-07T1600,1147A,121.425,31.2261,上海市,静安监测站,,46,42,49,32,35,107,,85,85,14,15,7,8,0.5,0.4
2024-09-07T1600,1148A,121.703,31.1907,上海市,浦东川沙,,33,33,47,22,27,79,,66,66,11,23,7,8,0.4,0.4
2024-09-07T1600,1149A,121.533,31.2284,上海市,浦东新区监测站,,40,34,45,28,34,81,,69,69,23,23,8,8,0.6,0.6
2024-09-07T1600,1150A,121.577,31.2071,上海市,浦东张江,,48,33,48,33,34,69,,59,59,18,23,6,7,0.7,0.7
2024-09-07T1600,3265A,121.4316,31.3322,上海市,宝山庙行,,46,46,47,32,32,66,,81,81,42,19,13,9,0.6,0.5
2024-09-07T1600,3266A,121.8791,31.4662,上海市,崇明上实东滩,,43,35,38,30,32,77,,71,71,9,7,10,10,0.7,0.7
2024-09-07T1600,3268A,121.3162,31.2838,上海市,嘉定南翔,,46,46,48,29,34,98,,86,86,32,24,9,9,0.5,0.5
2024-09-07T1600,3269A,121.3359,30.7456,上海市,金山新城,,42,39,42,29,32,99,,75,75,14,15,5,7,0.6,0.6
2024-09-07T1600,3270A,121.4996,31.0739,上海市,闵行浦江,,42,36,46,29,36,96,,81,81,15,18,7,8,0.7,0.7
2024-09-07T1600,3271A,121.2886,31.1663,上海市,青浦徐泾,,50,43,48,35,37,120,,94,94,15,15,7,9,0.5,0.5
2024-09-07T1600,3272A,121.2186,31.0378,上海市,松江图书馆,,42,36,41,29,33,116,,93,93,10,16,6,7,0.4,0.4
2024-09-07T1600,3273A,121.3902,31.2059,上海市,长宁仙霞,,45,45,48,29,33,116,,96,96,15,16,10,11,0.5,0.6
2024-09-07T1600,3274A,121.7965,31.0507,上海市,浦东惠南,,39,39,47,27,35,66,,67,67,11,11,11,10,0.5,0.5
