timepoint,stationcode,longitude,latitude,area,positionname,primarypollutant,aqi,pm10,pm10_24h,pm2_5,pm2_5_24h,o3,o3_24h,o3_8h,o3_8h_24h,no2,no2_24h,so2,so2_24h,co,co_24h
2024-09-07T0000,2566A,102.1879,31.914,阿坝藏族羌族自治州,州农科所,,19,19,18,6,8,51,,79,59,6,12,6,7,0,0
2024-09-07T0000,2568A,102.2502,31.8896,阿坝藏族羌族自治州,马师校,,22,22,10,9,7,54,,88,67,5,10,5,4,0.4,0.4
2024-09-07T0000,3994A,102.2165,31.9024,阿坝藏族羌族自治州,马尔康中学西区,,17,15,14,10,10,54,,91,71,8,9,5,5,0.4,0.4
2024-09-07T0000,2695A,80.292,41.1694,阿克苏地区,电视台,颗粒物(PM10),114,177,176,52,60,66,,109,89,24,16,4,3,0.5,0.4
2024-09-07T0000,2696A,80.2613,41.1551,阿克苏地区,艺术中心,颗粒物(PM10),114,177,171,65,55,51,,110,85,38,18,3,4,0.9,0.6
2024-09-07T0000,2204A,105.6467,38.8363,阿拉善盟,西城区西花园,,32,8,15,6,12,101,,122,109,10,11,12,9,0.9,1
2024-09-07T0000,2205A,105.6985,38.8411,阿拉善盟,蒙二幼,,28,6,6,3,4,89,,98,91,6,9,8,8,0.6,0.7
2024-09-07T0000,2206A,105.724,38.8516,阿拉善盟,环保局新楼,,29,6,5,3,3,92,,98,91,6,8,10,10,0.4,0.4
2024-09-07T0000,2708A,88.1264,47.8517,阿勒泰地区,市站,,29,19,24,3,6,90,,90,90,7,11,7,7,0.3,0.4
2024-09-07T0000,2630A,80.1161,32.5,阿里地区,阿里监测站,,32,16,10,3,4,101,,107,106,7,8,10,9,0.3,0.3
2024-09-07T0000,3192A,80.0903,32.5028,阿里地区,阿里藏医院,,31,14,15,3,1,97,,101,101,4,5,6,6,0.3,0.3
2024-09-07T0000,2642A,109.0318,32.6537,安康市,香溪洞,,37,23,55,15,17,117,,110,110,4,6,7,7,0.4,0.4
2024-09-07T0000,2643A,109.0281,32.6939,安康市,安康市监测站,,34,24,33,12,14,108,,106,106,5,5,7,7,0.6,0.5
2024-09-07T0000,2644A,109.0072,32.6975,安康市,汉滨区检察院,,37,24,36,8,15,118,,113,113,5,6,8,8,0.6,0.7
2024-09-07T0000,2291A,117.0809,30.5177,安庆市,环科院,,38,38,34,23,21,118,,148,134,12,12,8,8,0.8,0.7
2024-09-07T0000,2292A,117.0331,30.5119,安庆市,马山宾馆,,39,30,33,27,20,121,,148,136,11,10,10,10,0.5,0.5
2024-09-07T0000,2294A,116.9896,30.6145,安庆市,安庆大学,,48,48,34,33,24,96,,141,128,9,9,10,9,0.7,0.6
2024-09-07T0000,3173A,117.0598,30.5351,安庆市,市人大,,43,42,35,30,22,114,,143,129,9,8,10,9,1.2,1.2
2024-09-07T0000,3122A,105.9606,26.2611,安顺市,伍家关,,,,,,,,,,,,,,,,
2024-09-07T0000,3123A,105.9408,26.2431,安顺市,凤凰山,,36,36,43,25,26,86,,135,110,8,6,13,10,0.6,0.6
2024-09-07T0000,3124A,105.9439,26.2564,安顺市,金钟山,,38,38,37,26,29,87,,135,112,6,6,10,8,0.5,0.5
2024-09-07T0000,3125A,105.8983,26.2481,安顺市,娄家坡,,29,21,29,19,24,91,,133,113,6,7,6,5,0.8,0.8
2024-09-07T0000,1818A,114.4839,36.0621,安阳市,棉研所,,,,,,,,,,,,,,,,
2024-09-07T0000,1819A,114.3551,36.1017,安阳市,红庙街,,35,26,27,8,9,109,,119,114,15,15,6,5,0.5,0.4
2024-09-07T0000,1820A,114.361,36.0681,安阳市,银杏小区,,,29,26,,,100,,119,112,20,15,6,4,0.5,0.4
2024-09-07T0000,3141A,114.3922,36.0878,安阳市,信访局,,30,30,26,6,6,94,,121,109,28,20,5,4,0.4,0.4
2024-09-07T0000,3669A,114.4705,36.0637,安阳市,左辅环卫站,,48,48,41,15,13,68,,120,100,30,15,6,9,0.4,0.4
2024-09-07T0000,3703A,114.2917,36.0949,安阳市,安钢职工学校,,48,48,28,19,12,36,,113,97,55,18,7,6,0.5,0.4
2024-09-07T0000,1748A,123.044,41.1196,鞍山市,深沟寺,,22,22,22,9,10,38,,86,54,14,20,5,6,0.6,0.7
2024-09-07T0000,1749A,123.011,41.0931,鞍山市,太阳城,,29,29,27,12,14,36,,89,64,26,22,5,8,0.4,0.6
2024-09-07T0000,1750A,123.0485,41.1442,鞍山市,太平,,23,23,31,10,14,61,,88,61,17,29,6,8,0.5,0.6
2024-09-07T0000,1751A,122.9642,41.0971,鞍山市,铁西三道街,颗粒物(PM10),57,63,45,28,21,6,,87,44,52,35,5,12,0.8,0.9
2024-09-07T0000,1752A,122.9341,41.0833,鞍山市,铁西工业园区,,50,50,47,14,19,6,,85,39,52,36,6,15,0.6,1.1
2024-09-07T0000,1753A,123.022,41.0821,鞍山市,明达新区,颗粒物(PM10),51,51,29,16,8,20,,86,54,33,23,4,7,0.5,0.6
2024-09-07T0000,1754A,123.1289,41.0228,鞍山市,千山,,,,,,,,,,,,,,,,
2024-09-07T0000,2195A,107.4212,40.761,巴彦淖尔市,附二中,,29,29,31,14,17,71,,90,75,16,11,5,6,0.6,0.5
2024-09-07T0000,2196A,107.37,40.7372,巴彦淖尔市,市环保大楼,,30,30,35,12,13,58,,93,68,13,8,4,4,0.2,0.2
2024-09-07T0000,1956A,86.1472,41.7538,巴音郭楞蒙古自治州,孔雀公园,颗粒物(PM10),145,239,178,52,41,1,,98,66,77,34,6,5,1.0,0.4
2024-09-07T0000,1957A,86.1972,41.7166,巴音郭楞蒙古自治州,棉纺厂,颗粒物(PM10),163,275,222,46,48,41,,101,79,34,23,5,4,0.3,0.3
2024-09-07T0000,1958A,86.2357,41.7173,巴音郭楞蒙古自治州,经济开发区,颗粒物(PM10),120,190,192,54,49,60,,96,82,13,18,7,6,0.3,0.3
2024-09-07T0000,2914A,106.7677,31.8794,巴中市,苏山坪,,32,31,26,22,17,77,,109,90,7,7,4,4,0.5,0.6
2024-09-07T0000,3182A,106.7656,31.8545,巴中市,丽阳花园,,35,34,27,24,21,44,,108,76,14,11,4,4,0.6,0.6
2024-09-07T0000,3183A,106.7418,31.8654,巴中市,圣泉水务公司,,20,19,24,14,19,48,,109,81,11,10,3,3,0.6,0.6
2024-09-07T0000,3616A,106.7616,31.8344,巴中市,市中心医院,,29,26,27,20,20,35,,109,74,16,10,4,4,0.6,0.6
2024-09-07T0000,2235A,122.7911,45.6077,白城市,洮北区环保局,,18,18,30,8,9,46,,76,56,7,7,5,6,0.1,0.1
2024-09-07T0000,2236A,122.8738,45.5725,白城市,市环保局,,26,26,24,3,3,34,,64,41,14,13,3,3,0.2,0.2
2024-09-07T0000,2231A,126.4219,41.9171,白山市,喜丰,,43,43,45,12,8,7,,82,30,20,14,7,7,0.5,0.4
2024-09-07T0000,2232A,126.4077,41.9419,白山市,环保局,,22,22,31,11,9,20,,72,38,12,13,10,10,0.5,0.5
2024-09-07T0000,2647A,104.1724,36.5446,白银市,第三小学,,30,28,11,21,7,30,,86,69,36,12,6,8,0.6,0.6
2024-09-07T0000,2648A,104.1465,36.5482,白银市,动力公司,,15,10,6,10,4,37,,88,64,20,9,4,4,0.5,0.4
2024-09-07T0000,2512A,106.6103,23.9011,百色市,市监测站,,,,33,,19,,,92,60,,12,,10,,0.6
2024-09-07T0000,2513A,106.6538,23.8859,百色市,市中心血站,,46,46,37,22,17,30,,91,55,16,18,7,5,0.7,0.7
2024-09-07T0000,3406A,106.6085,23.8798,百色市,祈福高中,颗粒物(PM10),53,56,41,32,18,22,,92,54,25,14,5,4,0.8,0.8
2024-09-07T0000,2270A,117.396,32.939,蚌埠市,工人疗养院,颗粒物(PM10),52,54,54,12,18,60,,79,64,10,8,4,7,0.4,0.5
2024-09-07T0000,2271A,117.3605,32.9427,蚌埠市,百货大楼,颗粒物(PM10),51,51,53,19,24,56,,64,62,8,4,6,6,0.5,0.6
2024-09-07T0000,2273A,117.4185,32.8911,蚌埠市,蚌埠学院,,44,44,48,18,23,36,,60,54,37,13,15,7,0.5,0.6
2024-09-07T0000,2274A,117.3533,32.9673,蚌埠市,淮上区政府,,41,41,42,17,21,58,,63,60,6,8,6,7,0.7,0.7
2024-09-07T0000,2275A,117.3145,32.8977,蚌埠市,高新区,,34,34,45,18,24,68,,68,68,7,8,6,6,0.5,0.7
2024-09-07T0000,3715A,117.3092,32.9314,蚌埠市,蚌埠田家炳中学,,46,46,48,16,21,58,,61,61,6,6,5,4,0.4,0.5
2024-09-07T0000,1585A,109.8756,40.6532,包头市,市环境监测站,颗粒物(PM10),57,64,20,39,15,13,,73,30,45,34,4,7,2.3,0.9
2024-09-07T0000,1587A,109.9991,40.5842,包头市,包头八中,细颗粒物(PM2.5),54,,24,38,12,8,,70,39,41,27,10,9,2.0,0.9
2024-09-07T0000,1588A,109.8538,40.6821,包头市,青山宾馆,,40,,17,28,14,23,,74,38,32,30,4,6,0.8,0.8
2024-09-07T0000,1589A,109.8642,40.6288,包头市,惠龙物流,颗粒物(PM10),66,81,23,25,12,21,,75,40,44,31,21,10,1.8,0.8
2024-09-07T0000,1590A,110.0377,40.5546,包头市,东河鸿龙湾,,16,15,14,11,7,37,,79,59,24,17,13,10,1.0,0.5
2024-09-07T0000,3283A,109.9154,40.5685,包头市,滨河大厦,,29,26,13,20,8,38,,81,59,26,28,16,9,1.0,0.7
2024-09-07T0000,3419A,109.9447,40.6261,包头市,包头市委党校,颗粒物(PM10),55,59,19,21,10,8,,75,45,60,31,12,8,2.1,0.8
2024-09-07T0000,3683A,109.8331,40.6576,包头市,昆区政府,细颗粒物(PM2.5),72,82,25,52,20,14,,72,28,44,35,4,6,2.7,1.2
2024-09-07T0000,1930A,107.185,34.3063,宝鸡市,庙沟村,,25,,32,10,13,78,,100,88,6,13,8,9,0.3,0.3
2024-09-07T0000,1931A,107.0708,34.3017,宝鸡市,竹园沟,,18,11,26,10,15,56,,104,80,10,11,9,10,0.5,0.4
2024-09-07T0000,1932A,107.1906,34.3672,宝鸡市,三陆医院,,20,8,40,7,21,61,,109,87,13,23,9,12,0.6,0.6
2024-09-07T0000,1933A,107.1431,34.3547,宝鸡市,监测站,,20,10,37,6,20,62,,109,83,10,17,6,7,0.6,0.6
2024-09-07T0000,1934A,107.1186,34.3739,宝鸡市,技工学校,,20,6,35,3,20,62,,110,85,14,15,8,9,0.6,0.6
2024-09-07T0000,1935A,107.3906,34.3528,宝鸡市,陈仓区环保局家属楼,,20,11,43,9,18,61,,120,82,12,24,8,9,0.6,0.6
2024-09-07T0000,1936A,107.2058,34.3497,宝鸡市,文理学院,,21,,33,8,18,66,,112,86,10,15,9,10,0.5,0.5
2024-09-07T0000,1937A,107.2386,34.3622,宝鸡市,三迪小学,,22,6,39,3,28,68,,114,84,10,22,8,9,0.5,0.6
2024-09-07T0000,1051A,115.493,38.8632,保定市,游泳馆,,35,35,33,12,12,98,,138,121,17,26,3,3,0.2,0.1
2024-09-07T0000,1052A,115.5213,38.8959,保定市,华电二区,,39,39,35,15,12,86,,131,110,15,17,6,4,0.1,0.1
2024-09-07T0000,1053A,115.4713,38.9108,保定市,接待中心,,30,29,31,16,14,96,,125,114,11,16,3,3,0.2,0.2
2024-09-07T0000,1054A,115.4612,38.8416,保定市,地表水厂,,41,41,42,18,14,69,,124,98,25,22,2,2,0.1,0.1
2024-09-07T0000,3581A,115.31981,38.95208,保定市,满城区生态环境分局,颗粒物(PM10),52,53,35,24,9,78,,134,109,21,19,4,4,0.4,0.4
2024-09-07T0000,3582A,115.47694,38.76408,保定市,清苑区第二中学,,45,45,39,22,16,60,,132,93,30,23,3,3,0.6,0.3
2024-09-07T0000,3583A,115.62909,39.02311,保定市,徐水物探局,,47,47,34,19,12,68,,137,106,28,23,4,3,0.5,0.4
2024-09-07T0000,4004A,115.4202,38.8656,保定市,双鹰农机,颗粒物(PM10),51,52,38,24,15,71,,131,105,23,24,1,2,0.4,0.4
2024-09-07T0000,4034A,115.5150,38.8590,保定市,植保所站,,48,48,39,21,18,74,,133,104,29,26,5,4,0.3,0.3
2024-09-07T0000,2594A,99.1678,25.1081,保山市,市环境监测站,,32,32,29,13,17,53,,101,77,6,8,6,7,0.4,0.4
2024-09-07T0000,2595A,99.1711,25.1328,保山市,市环保局,,31,31,27,15,12,67,,101,82,3,5,4,5,0.4,0.5
2024-09-07T0000,1866A,109.2262,21.588,北海市,牛尾岭水库,,,,,,,,,,,,,,,,
2024-09-07T0000,1867A,109.1436,21.4086,北海市,海滩公园,,,,,,,,,,,,,,,,
2024-09-07T0000,1868A,109.0981,21.4661,北海市,新市环保局,,19,11,33,3,21,58,,84,63,4,8,3,5,0.6,0.6
2024-09-07T0000,1869A,109.1778,21.5233,北海市,北海工业园,,17,,35,3,21,54,,76,58,5,11,4,6,0.5,0.6
2024-09-07T0000,3400A,109.1911,21.4415,北海市,龙潭自来水厂,,,,31,,23,,,75,62,,7,,5,,0.7
2024-09-07T0000,1001A,116.3621,39.8784,北京市,万寿西宫,,41,41,21,15,9,81,,132,116,21,25,1,2,0.5,0.5
2024-09-07T0000,1002A,116.2202,40.2915,北京市,定陵,,13,13,9,7,5,30,,78,52,4,4,3,4,0.4,0.4
2024-09-07T0000,1003A,116.4174,39.9289,北京市,东四,,34,34,27,15,12,40,,153,104,47,31,5,4,0.6,0.5
2024-09-07T0000,1004A,116.4072,39.8863,北京市,天坛,,29,29,19,13,9,85,,140,114,18,25,1,2,0.5,0.5
2024-09-07T0000,1005A,116.462,39.9365,北京市,农展馆,,29,29,24,12,10,28,,132,91,46,30,2,2,0.6,0.5
2024-09-07T0000,1006A,116.3392,39.9295,北京市,官园,,27,27,21,11,8,49,,145,106,26,23,5,5,0.6,0.5
2024-09-07T0000,1007A,116.2878,39.9611,北京市,海淀万柳,,22,22,19,9,7,44,,132,99,25,22,3,3,0.5,0.4
2024-09-07T0000,1008A,116.6636,40.135,北京市,顺义新城,,19,19,18,9,8,38,,115,75,14,14,3,3,0.4,0.4
2024-09-07T0000,1009A,116.6275,40.3275,北京市,怀柔镇,,12,12,11,7,6,30,,94,60,15,12,3,3,0.3,0.3
2024-09-07T0000,1010A,116.2296,40.217,北京市,昌平镇,,17,17,14,9,6,47,,98,69,12,14,3,4,0.3,0.3
2024-09-07T0000,1011A,116.3966,39.9821,北京市,奥体中心,,24,24,18,10,8,37,,118,85,35,29,2,2,0.6,0.5
2024-09-07T0000,1012A,116.184,39.9136,北京市,古城,,18,18,15,9,5,55,,115,93,23,21,2,2,0.4,0.4
2024-09-07T0000,3281A,115.9718,40.4529,北京市,延庆夏都,,17,17,14,8,6,43,,64,48,6,10,3,3,0.4,0.3
2024-09-07T0000,3417A,117.0709,40.1465,北京市,平谷新城,,26,26,19,11,8,45,,120,72,8,9,3,3,0.3,0.3
2024-09-07T0000,3418A,116.8336,40.4095,北京市,密云新城,,13,11,10,3,4,39,,83,61,5,5,1,2,0.3,0.3
2024-09-07T0000,3671A,116.088,39.9726,北京市,门头沟三家店,,32,32,18,14,7,40,,100,69,15,11,3,3,0.5,0.4
2024-09-07T0000,3672A,116.1541,39.8204,北京市,丰台云岗,,28,28,19,9,6,46,,109,77,20,17,3,3,0.4,0.3
2024-09-07T0000,3673A,116.6804,39.9081,北京市,通州东关,,45,45,30,20,13,34,,151,104,50,27,1,2,0.6,0.4
2024-09-07T0000,3674A,115.9577,39.7603,北京市,房山燕山,,25,25,14,15,6,70,,104,93,7,7,3,2,0.6,0.5
2024-09-07T0000,3675A,116.4672,39.7733,北京市,大兴旧宫,,31,31,21,13,9,54,,133,92,24,23,3,2,0.5,0.4
2024-09-07T0000,3694A,115.986,40.4563,北京市,延庆石河营,,15,15,13,9,6,33,,56,39,7,10,3,3,0.3,0.2
2024-09-07T0000,3695A,116.6151,40.3053,北京市,怀柔新城,,11,11,10,6,6,35,,96,67,10,6,3,3,0.3,0.3
2024-09-07T0000,3696A,116.2545,39.8768,北京市,丰台小屯,,23,23,18,9,8,46,,120,97,21,20,3,3,0.5,0.4
2024-09-07T0000,3697A,116.84,40.3844,北京市,密云镇,,17,17,13,6,6,22,,83,53,20,14,3,2,0.5,0.4
2024-09-07T0000,1761A,123.8275,41.3064,本溪市,大峪,,38,38,23,8,5,42,,87,68,23,17,8,8,1.0,0.8
2024-09-07T0000,1762A,123.7567,41.3325,本溪市,溪湖,,43,43,30,11,8,26,,85,53,29,21,4,5,0.7,0.7
2024-09-07T0000,1763A,123.7169,41.3094,本溪市,彩屯,,33,33,34,16,15,13,,76,38,42,28,7,10,0.6,0.8
2024-09-07T0000,1764A,123.7669,41.2864,本溪市,东明,,46,46,35,15,11,31,,90,62,48,27,7,8,1.0,0.9
2024-09-07T0000,1765A,123.7992,41.2664,本溪市,新立屯,,28,28,25,10,8,58,,87,56,36,28,5,6,0.8,0.9
2024-09-07T0000,1766A,123.8142,41.3472,本溪市,威宁,,35,35,32,16,13,13,,74,36,23,21,8,8,0.9,0.8
2024-09-07T0000,2587A,105.2864,27.3125,毕节市,八中,,38,29,29,26,25,50,,122,89,11,11,5,7,0.6,0.5
2024-09-07T0000,2588A,105.31,27.2944,毕节市,师专,,43,38,32,30,25,54,,126,95,19,14,7,10,0.7,0.6
2024-09-07T0000,3537A,105.3631,27.3533,毕节市,长征村,细颗粒物(PM2.5),63,54,38,45,32,59,,135,99,13,9,7,8,0.6,0.6
2024-09-07T0000,1629A,118.0018,37.3617,滨州市,第二水厂,,17,17,16,7,6,54,,110,77,32,17,10,8,0.4,0.4
2024-09-07T0000,1630A,117.9776,37.393,滨州市,北中新校,,22,22,22,7,6,59,,120,91,27,21,9,9,0.7,0.6
2024-09-07T0000,3514A,117.9378,37.3956,滨州市,中海酒店,,23,12,15,9,9,71,,122,95,26,25,8,7,0.6,0.5
2024-09-07T0000,3515A,117.9378,37.3553,滨州市,开发区一中,,22,22,22,7,8,64,,116,80,24,22,9,10,0.4,0.4
2024-09-07T0000,3516A,118.0917,37.694,滨州市,金海六路,,27,27,21,7,4,52,,101,80,26,26,4,7,0.5,0.4
2024-09-07T0000,4028A,117.9956,37.3753,滨州市,滨州市西街道办事处,,19,19,15,12,9,45,,117,78,38,18,10,8,0.5,0.5
2024-09-07T0000,2311A,115.8072,33.8399,亳州市,污水处理厂,,42,42,30,23,12,55,,80,71,16,12,47,7,0.5,0.4
2024-09-07T0000,2312A,115.7789,33.8518,亳州市,三国揽胜宫,,43,43,30,24,13,53,,80,72,11,7,29,5,0.5,0.5
2024-09-07T0000,3332A,115.7633,33.8034,亳州市,亳州学院,,49,49,35,20,9,63,,85,79,14,10,21,5,0.6,0.5
2024-09-07T0000,2693A,82.0485,44.8556,博尔塔拉蒙古自治州,市党校,,40,40,33,15,14,102,,112,107,5,11,5,6,0.4,0.4
2024-09-07T0000,2694A,82.0806,44.8969,博尔塔拉蒙古自治州,市环保局,颗粒物(PM10),51,52,43,13,11,95,,107,101,7,11,2,5,0.4,0.4
2024-09-07T0000,1071A,116.8842,38.2991,沧州市,沧县城建局,,34,34,33,14,16,49,,129,92,28,22,3,6,0.3,0.4
2024-09-07T0000,1072A,116.8584,38.3254,沧州市,电视转播站,,25,25,29,7,13,56,,139,106,31,22,4,7,0.3,0.4
2024-09-07T0000,1073A,116.8709,38.3228,沧州市,市环保局,,31,31,31,13,16,57,,132,98,21,20,2,6,0.2,0.3
2024-09-07T0000,3324A,116.8136,38.3004,沧州市,河北水利电力学院,,22,22,29,10,17,66,,151,112,22,26,4,6,0.2,0.3
2024-09-07T0000,2622A,97.1806,31.1273,昌都市,昌都监测站,,14,9,10,3,6,44,,64,55,12,11,7,7,0.7,0.7
2024-09-07T0000,3719A,97.1714,31.1406,昌都市,昌都会议中心,,12,6,10,3,5,38,,72,58,7,7,7,7,0.6,0.6
2024-09-07T0000,2690A,88.1236,43.8886,昌吉回族自治州,天山天池,,27,27,18,11,7,74,,119,96,4,4,3,3,0.5,0.5
2024-09-07T0000,2692A,87.2717,44.0297,昌吉回族自治州,新区政务中心,,41,41,53,19,16,92,,138,122,22,20,7,9,0.6,0.7
2024-09-07T0000,3613A,87.3095,44.0142,昌吉回族自治州,亚心广场,颗粒物(PM10),54,58,70,14,18,77,,139,118,38,29,4,9,0.5,0.6
2024-09-07T0000,1119A,125.3325,43.9166,长春市,食品厂,,24,24,23,9,10,44,,64,44,32,29,5,5,0.3,0.4
2024-09-07T0000,1120A,125.2863,43.9027,长春市,客车厂,,17,17,20,9,9,53,,65,49,22,26,7,7,0.4,0.4
2024-09-07T0000,1121A,125.2841,43.8463,长春市,邮电学院,,18,17,18,9,6,57,,69,56,23,22,7,6,0.3,0.3
2024-09-07T0000,1122A,125.3716,43.8772,长春市,劳动公园,,24,24,19,3,4,62,,74,59,20,23,8,8,0.2,0.3
2024-09-07T0000,1123A,125.3297,43.8805,长春市,园林处,,19,18,23,3,4,60,,67,59,19,21,5,4,0.3,0.4
2024-09-07T0000,1124A,125.4605,43.79,长春市,净月潭,,15,15,12,3,2,45,,70,49,8,7,6,6,0.4,0.3
2024-09-07T0000,1125A,125.7194,43.515,长春市,甩湾子,,,,,,,,,,,,,,,,
2024-09-07T0000,1126A,125.3863,43.8447,长春市,经开区环卫处,,24,24,21,6,5,53,,66,50,19,24,8,7,0.3,0.4
2024-09-07T0000,1127A,125.245,43.7783,长春市,高新区管委会,,21,21,18,6,4,40,,69,41,24,21,4,4,0.4,0.4
2024-09-07T0000,1128A,125.1761,43.8325,长春市,岱山公园,,19,19,25,7,5,43,,66,33,34,33,4,4,0.4,0.3
2024-09-07T0000,1335A,113.0833,28.2325,长沙市,经开区环保局,颗粒物(PM10),55,59,52,32,27,114,,148,129,17,14,4,4,0.8,0.7
2024-09-07T0000,1336A,112.8872,28.2189,长沙市,高开区环保局,颗粒物(PM10),54,57,62,30,33,111,,152,136,13,13,4,4,1.0,0.9
2024-09-07T0000,1337A,113.0792,28.2053,长沙市,马坡岭,"颗粒物(PM10),细颗粒物(PM2.5)",52,54,53,36,32,119,,165,139,16,11,3,3,0.9,0.8
2024-09-07T0000,1338A,112.9394,28.19,长沙市,湖南师范大学,颗粒物(PM10),56,62,65,37,37,106,,158,139,15,10,4,3,0.9,0.9
2024-09-07T0000,1339A,113.0178,28.1322,长沙市,雨花区环保局,颗粒物(PM10),53,56,55,29,25,122,,154,,15,11,5,5,0.7,0.6
2024-09-07T0000,1340A,112.9792,28.2597,长沙市,伍家岭,颗粒物(PM10),60,70,62,32,30,91,,154,124,15,12,1,2,0.9,0.8
2024-09-07T0000,1341A,113.0014,28.1944,长沙市,火车新站,,,62,58,39,32,,,165,,15,9,4,4,0.7,0.7
2024-09-07T0000,1342A,112.9844,28.1178,长沙市,天心区环保局,颗粒物(PM10),61,71,58,33,29,121,,151,,12,12,4,4,0.7,1
2024-09-07T0000,1343A,112.8908,28.1308,长沙市,湖南中医药大学,颗粒物(PM10),56,62,63,31,34,100,,164,142,16,9,4,4,1.2,1.1
2024-09-07T0000,1344A,112.9581,28.3611,长沙市,沙坪,颗粒物(PM10),64,78,54,22,33,106,,146,132,9,9,8,8,0.7,0.7
2024-09-07T0000,1727A,113.1147,36.1547,长治市,清华站,,32,24,27,7,9,102,,132,123,8,10,7,7,0.5,0.5
2024-09-07T0000,1728A,113.1031,36.1989,长治市,监测站,,30,20,22,7,7,96,,124,118,16,13,10,9,0.7,0.6
2024-09-07T0000,1730A,113.0886,36.2125,长治市,审计局,,31,22,22,7,8,98,,115,115,15,11,7,6,0.4,0.3
2024-09-07T0000,1731A,113.0844,36.1856,长治市,长治八中,,32,26,22,13,9,102,,124,118,10,9,8,7,0.6,0.5
2024-09-07T0000,2845A,113.1569,36.1911,长治市,德盛苑,,49,49,19,17,8,91,,129,118,20,8,5,4,0.7,0.5
2024-09-07T0000,3568A,113.06,36.0464,长治市,向阳小学,,41,41,44,10,20,80,,134,119,17,14,9,7,0.4,0.6
2024-09-07T0000,3569A,112.8792,36.3144,长治市,屯留一中,,40,40,37,23,17,111,,142,131,13,14,9,10,0.6,0.7
2024-09-07T0000,3570A,113.235,36.3489,长治市,潞城四中,,32,24,31,10,16,101,,144,135,14,7,6,6,0.6,0.7
2024-09-07T0000,1854A,111.6975,28.9703,常德市,市二中,细颗粒物(PM2.5),74,,54,54,27,102,,156,144,8,6,9,8,0.7,0.6
2024-09-07T0000,1857A,111.7158,29.1456,常德市,白鹤山,,,,,,,,,,,,,,,,
2024-09-07T0000,3138A,111.7153,29.0289,常德市,武陵区永安,,43,43,50,30,24,95,,152,139,9,7,9,8,0.7,0.7
2024-09-07T0000,3139A,111.6892,28.9881,常德市,鼎城区玉霞,,45,45,51,26,24,101,,156,144,8,6,8,7,0.8,0.7
2024-09-07T0000,3140A,111.6625,29.0531,常德市,武陵区长庚,,42,42,52,27,24,98,,156,143,10,8,9,9,0.6,0.5
2024-09-07T0000,1196A,119.9633,31.762,常州市,市监测站,,43,43,36,21,21,22,,168,81,36,26,10,8,0.8,0.7
2024-09-07T0000,1200A,119.9468,31.7069,常州市,武进监测站,细颗粒物(PM2.5),52,46,34,36,21,27,,154,86,33,22,12,9,1.2,1
2024-09-07T0000,1201A,119.9255,31.9087,常州市,安家,,42,42,39,24,26,36,,148,69,13,21,7,9,0.6,0.9
2024-09-07T0000,3002A,119.9805,31.8174,常州市,行政中心,,37,37,36,17,20,22,,154,79,27,23,7,7,0.6,0.6
2024-09-07T0000,3003A,120.0522,31.7748,常州市,经开区,颗粒物(PM10),52,53,38,28,21,10,,140,63,54,28,14,12,1.1,0.8
2024-09-07T0000,3010A,119.9025,31.7964,常州市,钟楼,颗粒物(PM10),51,52,40,21,20,25,,150,79,28,22,10,9,0.8,0.7
2024-09-07T0000,3429A,119.8598,31.7066,常州市,武进经发区,颗粒物(PM10),52,54,38,32,21,23,,156,86,36,24,14,11,0.8,0.6
2024-09-07T0000,3430A,119.5826,31.7245,常州市,金坛城区,,44,44,43,18,19,33,,176,98,19,19,7,8,0.8,0.8
2024-09-07T0000,2220A,120.4318,41.5881,朝阳市,西梁,,36,36,35,15,7,6,,65,24,33,24,6,8,0.5,0.7
2024-09-07T0000,2221A,120.4521,41.5646,朝阳市,河畔小区,,22,22,29,11,9,20,,66,40,18,16,7,9,0.6,0.6
2024-09-07T0000,2222A,120.4176,41.5648,朝阳市,八里堡,,35,35,39,20,13,8,,70,24,28,25,8,12,0.7,0.8
2024-09-07T0000,2223A,120.3806,41.5969,朝阳市,农业园区,,15,13,25,10,12,17,,66,27,18,15,7,8,0.5,0.6
2024-09-07T0000,1705A,116.6367,23.6719,潮州市,西园路,,11,8,14,3,10,34,,40,31,8,10,5,6,0.2,0.3
2024-09-07T0000,3026A,116.6183,23.6608,潮州市,市政府,,12,7,12,3,8,38,,44,34,5,7,6,6,0.6,0.6
2024-09-07T0000,4036A,116.6461,23.6761,潮州市,金山,,16,,13,11,13,39,,45,34,6,9,6,7,0.5,0.5
2024-09-07T0000,2472A,113.0073,25.9061,郴州市,马头岭,,20,20,32,3,9,22,,78,44,15,9,8,11,0.3,0.4
2024-09-07T0000,2473A,113.0116,25.8226,郴州市,市职中,,11,11,26,3,19,26,,78,42,11,12,3,5,0.4,0.6
2024-09-07T0000,2474A,113.0161,25.8001,郴州市,兴隆步行街,,24,24,31,6,18,26,,77,41,10,11,6,9,0.4,0.6
2024-09-07T0000,2475A,113.0383,25.8071,郴州市,市审计局,,13,12,26,9,20,23,,77,37,11,11,3,5,0.4,0.6
2024-09-07T0000,2476A,113.0348,25.7759,郴州市,市环保局,,24,24,32,10,19,16,,77,34,18,17,6,6,0.5,0.6
2024-09-07T0000,1431A,103.9728,30.7236,成都市,金泉两河,,38,38,30,24,14,103,,142,116,12,14,3,3,0.5,0.4
2024-09-07T0000,1432A,104.176,30.6872,成都市,十里店,,37,21,43,12,28,116,,188,164,2,13,4,6,0.5,0.5
2024-09-07T0000,1433A,104.079,30.5706,成都市,三瓦窑,,36,19,37,6,25,115,,181,148,7,35,2,4,0.5,0.6
2024-09-07T0000,1434A,104.1114,30.63,成都市,沙河铺,,38,38,41,26,23,103,,198,161,10,18,7,8,0.5,0.5
2024-09-07T0000,1437A,104.0786,30.6531,成都市,君平街,,45,12,36,9,19,141,,174,156,10,17,2,4,0.6,0.6
2024-09-07T0000,1438A,103.613,31.0283,成都市,灵岩寺,,,,,,,,,,,,,,,,
2024-09-07T0000,2880A,104.0239,30.65639,成都市,大石西路,,36,,30,3,19,115,,149,130,9,17,5,6,0.7,0.5
2024-09-07T0000,3136A,104.2725,30.5589,成都市,龙泉驿区区政府,,35,29,34,22,21,112,,194,162,7,15,4,6,0.5,0.5
2024-09-07T0000,3357A,104.0106,30.6931,成都市,金博路,,37,6,24,3,14,118,,146,119,9,18,1,2,0.5,0.4
2024-09-07T0000,3359A,104.0578,30.5225,成都市,华阳,,31,24,37,17,16,97,,177,145,9,19,3,4,0.6,0.6
2024-09-07T0000,3487A,104.2394,30.5319,成都市,车城东七路,细颗粒物(PM2.5),89,,42,66,32,118,,200,164,9,16,3,4,0.6,0.5
2024-09-07T0000,3488A,104.3853,30.7453,成都市,青白江技师分院,,41,22,39,3,30,131,,209,182,13,25,2,4,0.5,0.6
2024-09-07T0000,3489A,104.0789,30.4072,成都市,科学城,,45,39,36,31,26,124,,191,164,4,15,3,3,0.5,0.5
2024-09-07T0000,4011A,103.8506,30.6947,成都市,光华大道三段,,46,46,27,26,12,79,,142,122,22,12,3,3,0.6,0.2
2024-09-07T0000,1062A,117.9531,40.9081,承德市,铁路,,34,34,26,11,9,6,,38,15,29,28,9,19,0.5,0.4
2024-09-07T0000,1063A,117.9392,40.9763,承德市,中国银行,,29,29,29,8,6,5,,52,17,28,24,4,7,0.5,0.4
2024-09-07T0000,1064A,117.9503,40.928,承德市,开发区,,32,32,29,14,13,2,,43,13,33,26,7,14,0.7,0.6
2024-09-07T0000,1065A,117.8051,40.9655,承德市,文化中心,,44,44,33,14,6,4,,47,19,33,24,12,16,0.3,0.4
2024-09-07T0000,1066A,117.9268,41.0026,承德市,离宫,,26,26,28,18,16,0,,30,5,22,15,2,3,0.3,0.4
2024-09-07T0000,2314A,117.47,30.6618,池州市,池州学院,,50,50,36,33,22,83,,130,114,26,17,26,10,0.8,0.7
2024-09-07T0000,3237A,117.4918,30.6617,池州市,展览馆,颗粒物(PM10),52,54,36,28,21,77,,129,115,24,13,6,6,0.8,0.7
2024-09-07T0000,3333A,117.5627,30.695,池州市,第八中学,颗粒物(PM10),52,53,36,29,19,72,,123,110,26,16,5,5,0.7,0.6
2024-09-07T0000,3334A,117.5038,30.6243,池州市,第十二中学,,36,36,33,23,18,83,,124,116,18,13,4,5,0.7,0.6
2024-09-07T0000,1744A,118.9233,42.2816,赤峰市,松山一中,,21,21,17,6,5,19,,54,33,29,22,10,9,0.5,0.5
2024-09-07T0000,1745A,118.9576,42.2728,赤峰市,哈达街,,15,15,16,6,5,27,,45,30,16,17,7,7,0.2,0.2
2024-09-07T0000,1746A,118.8788,42.2554,赤峰市,天义路,,19,19,15,6,7,18,,49,28,25,20,19,10,0.1,0.2
2024-09-07T0000,3058A,119.2658,42.0353,赤峰市,银河街,颗粒物(PM10),64,78,49,35,25,5,,45,21,25,23,14,20,0.8,0.8
2024-09-07T0000,3286A,118.9359,42.3147,赤峰市,桥北物流园区,,36,36,24,12,10,4,,41,11,37,29,7,7,0.5,0.5
2024-09-07T0000,2521A,107.3476,22.4136,崇左市,市环保局江州分局,,22,20,32,13,19,70,,94,76,3,6,6,6,0.6,0.7
2024-09-07T0000,2522A,107.3702,22.3707,崇左市,城南新区,,23,19,30,13,20,73,,99,80,2,7,3,2,0.6,0.7
2024-09-07T0000,2298A,118.3093,32.3153,滁州市,老年大学,,30,30,38,17,25,72,,123,89,8,7,4,6,0.3,0.4
2024-09-07T0000,2299A,118.3244,32.2786,滁州市,人大宾馆,,35,35,48,14,28,69,,120,86,13,10,6,6,0.5,0.6
2024-09-07T0000,3207A,118.3118,32.3038,滁州市,市政府原办公楼,,32,32,39,21,29,71,,117,84,7,8,6,6,0.5,0.6
2024-09-07T0000,3331A,118.3267,32.2634,滁州市,图书馆,,32,32,40,11,27,71,,120,85,7,7,4,4,0.1,0.2
2024-09-07T0000,2605A,101.5482,25.0441,楚雄彝族自治州,州环境监测站,,43,42,27,30,22,25,,109,75,40,18,16,9,0.6,0.5
2024-09-07T0000,2606A,101.538,25.0492,楚雄彝族自治州,市经济开发区,,42,40,26,29,21,27,,103,72,33,17,16,8,0.7,0.6
2024-09-07T0000,2548A,107.5277,31.2827,达州市,达州职业技术学院,,36,36,31,13,13,20,,112,75,13,9,5,5,0.6,0.6
2024-09-07T0000,2549A,107.5086,31.2186,达州市,市环境监测站,,32,32,34,17,14,26,,124,89,37,22,6,6,0.5,0.5
2024-09-07T0000,2550A,107.4988,31.2132,达州市,凤凰小区,,34,34,28,22,17,35,,132,98,32,18,6,6,0.6,0.5
2024-09-07T0000,2551A,107.5082,31.1986,达州市,达县机关宾馆,,41,41,35,27,14,41,,125,90,39,26,4,5,0.5,0.4
2024-09-07T0000,2552A,107.4644,31.2124,达州市,市政中心,,42,41,42,29,18,56,,133,100,19,17,4,4,0.4,0.4
2024-09-07T0000,2614A,100.1542,25.7054,大理白族自治州,大理市环境监测站,,38,38,24,19,11,26,,96,69,39,18,4,5,0.7,0.6
2024-09-07T0000,2615A,100.2171,25.5811,大理白族自治州,大理古城,,40,40,24,12,12,64,,90,73,12,10,7,8,0.6,0.6
2024-09-07T0000,1109A,121.612,38.9741,大连市,甘井子,,23,20,19,9,8,73,,105,77,22,21,9,10,0.5,0.5
2024-09-07T0000,1110A,121.565,38.9511,大连市,周水子,,21,18,18,10,8,42,,96,52,41,34,7,8,0.7,0.6
2024-09-07T0000,1111A,121.5637,38.8845,大连市,星海三站,,26,16,17,6,7,82,,104,81,7,14,6,7,0.4,0.4
2024-09-07T0000,1112A,121.6302,38.9117,大连市,青泥洼桥,,26,26,23,12,9,60,,104,65,28,24,9,10,0.5,0.3
2024-09-07T0000,1113A,121.6251,38.8638,大连市,傅家庄,,24,17,14,9,8,74,,120,77,17,17,9,10,0.6,0.6
2024-09-07T0000,1114A,121.5213,38.8661,大连市,七贤岭,,23,23,19,9,7,72,,113,84,8,12,6,7,0.4,0.5
2024-09-07T0000,1115A,121.2529,38.8061,大连市,旅顺,,27,9,11,7,7,85,,114,94,13,13,8,7,0.4,0.4
2024-09-07T0000,1116A,121.7485,39.1311,大连市,金州,,18,18,15,10,8,55,,111,73,14,14,7,8,0.5,0.5
2024-09-07T0000,1117A,121.7811,39.0496,大连市,开发区,,23,22,16,16,8,68,,113,88,21,12,28,10,0.5,0.4
2024-09-07T0000,1118A,121.9762,39.0631,大连市,双D港,,29,22,16,11,7,91,,117,106,24,19,10,7,0.6,0.6
2024-09-07T0000,1789A,124.81117,46.03138,大庆市,大同区,,20,20,49,14,13,34,,65,46,8,7,4,4,0.4,0.3
2024-09-07T0000,1790A,125.129,46.533,大庆市,龙凤区,,44,44,66,9,13,29,,66,46,19,17,5,7,0.7,0.5
2024-09-07T0000,1791A,124.902,46.408,大庆市,红岗区,,30,25,27,21,12,31,,67,49,24,12,5,5,0.3,0.3
2024-09-07T0000,1792A,125.153,46.586,大庆市,萨尔图区,,20,20,31,12,8,35,,66,50,20,14,5,5,0.3,0.3
2024-09-07T0000,1793A,124.9042,46.6215,大庆市,让胡路区,,26,26,21,15,12,42,,66,48,8,10,4,4,0.3,0.3
2024-09-07T0000,3481A,125.141,46.634,大庆市,萨区政府监测点,,21,21,26,3,5,38,,72,53,16,13,5,5,0.4,0.4
2024-09-07T0000,1721A,113.3819,40.1097,大同市,果树场,,,,,,,,,,,,,,,,
2024-09-07T0000,1723A,113.2994,40.0758,大同市,云冈宾馆,,18,18,24,10,9,52,,52,38,15,25,6,10,0.5,0.7
2024-09-07T0000,1724A,113.3444,40.0917,大同市,大同大学,,16,10,18,8,8,49,,44,37,12,21,8,11,0.4,0.5
2024-09-07T0000,1725A,113.2661,40.1269,大同市,安家小村,,18,,19,12,7,45,,53,36,13,23,9,11,0.8,0.9
2024-09-07T0000,1726A,113.2711,40.0844,大同市,教育学院,,17,17,25,10,11,44,,49,33,16,28,6,9,0.8,0.9
2024-09-07T0000,3282A,113.3397,40.0597,大同市,大同市卫生学校,,20,15,20,14,10,46,,54,46,12,17,6,8,0.6,0.6
2024-09-07T0000,3565A,113.1367,40.1122,大同市,云冈站,,12,10,28,3,12,20,,49,33,23,18,8,11,0.4,0.4
2024-09-07T0000,3566A,113.1186,40.2556,大同市,图书馆,,11,8,13,7,8,33,,52,41,21,15,8,8,0.9,0.7
2024-09-07T0000,3567A,113.5931,40.0461,大同市,区一中,,13,,15,8,8,40,,69,53,10,9,7,9,0.7,0.5
2024-09-07T0000,3676A,113.2802,40.0995,大同市,第二人民医院,,19,15,26,13,11,48,,52,35,14,26,10,12,0.7,0.8
2024-09-07T0000,2269A,124.1069,50.4097,大兴安岭地区,科技局,,25,19,15,17,15,36,,68,49,4,4,5,5,0.2,0.2
2024-09-07T0000,3663A,124.1164,50.4278,大兴安岭地区,红旗社区,,9,,14,6,9,13,,63,36,9,10,4,4,0.3,0.3
2024-09-07T0000,1600A,124.3303,40.0625,丹东市,江湾东路,,29,29,14,15,6,27,,82,40,24,16,4,4,0.7,0.5
2024-09-07T0000,1601A,124.4256,40.1503,丹东市,临江后街,,15,15,12,3,3,40,,87,50,15,11,8,6,0.6,0.6
2024-09-07T0000,1602A,124.3933,40.1461,丹东市,元宝山,,14,14,10,7,5,32,,74,56,18,10,3,3,0.8,0.7
2024-09-07T0000,1603A,124.3633,40.1092,丹东市,民主桥,,23,16,13,3,3,73,,80,53,11,17,3,2,0.6,0.5
2024-09-07T0000,3541A,109.5726,19.5167,儋州市,第一中学子站,,18,10,13,3,7,56,,65,61,2,3,4,4,0.5,0.5
2024-09-07T0000,3542A,109.5567,19.5187,儋州市,东坡学校子站,,,,13,,9,,,66,,,3,,5,,0.6
2024-09-07T0000,2616A,98.5842,24.428,德宏傣族景颇族自治州,德宏州监测站,,26,23,27,18,15,38,,66,53,7,11,4,10,0.7,0.7
2024-09-07T0000,3677A,98.5881,24.4368,德宏傣族景颇族自治州,芒市人民政府综合楼,,35,35,28,17,15,22,,70,45,9,11,5,7,0.8,0.7
2024-09-07T0000,1901A,104.4239,31.1208,德阳市,东山公园,,37,29,31,22,19,116,,164,152,7,13,2,4,0.6,0.5
2024-09-07T0000,1902A,104.3826,31.1317,德阳市,西小区,,36,29,32,17,20,113,,162,147,8,16,3,5,0.5,0.5
2024-09-07T0000,1904A,104.3553,31.1091,德阳市,耐火材料厂,,33,30,33,18,21,103,,153,135,8,17,3,6,0.5,0.5
2024-09-07T0000,3639A,104.4019,31.1244,德阳市,市教育局,,35,33,34,18,18,111,,161,144,10,20,1,3,0.6,0.6
2024-09-07T0000,1622A,116.3032,37.4674,德州市,儿童乐园,,31,31,32,14,11,70,,127,110,24,22,10,11,0.5,0.5
2024-09-07T0000,1624A,116.2991,37.4451,德州市,监理站,,26,22,21,9,10,83,,134,122,14,12,12,11,0.6,0.6
2024-09-07T0000,3066A,116.2721,37.4379,德州市,九衢泉纯净水厂,,27,19,24,9,10,86,,130,119,16,18,12,10,0.6,0.6
2024-09-07T0000,3371A,116.3728,37.4403,德州市,开发区人民医院,,31,31,27,17,10,63,,127,96,31,30,8,10,0.4,0.5
2024-09-07T0000,3372A,116.3572,37.4094,德州市,太阳城中学,,34,34,24,17,10,51,,129,93,34,20,11,12,0.5,0.5
2024-09-07T0000,3511A,116.5652,37.3319,德州市,陵城艺术中心,,31,31,26,9,8,68,,132,107,24,17,25,15,0.5,0.5
2024-09-07T0000,2621A,99.7056,27.8317,迪庆藏族自治州,迪庆州站,,24,24,26,13,13,49,,90,76,13,12,7,8,0.5,0.5
2024-09-07T0000,3180A,99.7136,27.8094,迪庆藏族自治州,质量技术监督局,,17,17,19,7,9,47,,83,71,12,13,9,9,0.6,0.5
2024-09-07T0000,2663A,104.6241,35.5734,定西市,东关小学,,21,21,23,14,20,56,,80,76,8,8,3,3,0.3,0.3
2024-09-07T0000,2664A,104.6194,35.5934,定西市,供电公司,,32,22,20,22,20,70,,81,73,3,9,6,6,0.2,0.2
2024-09-07T0000,1389A,113.7547,23.0494,东莞市,莞城梨川,,10,9,11,3,4,31,,37,34,8,11,4,5,0.6,0.6
2024-09-07T0000,1390A,113.7944,23.0128,东莞市,东城石井,,11,11,11,3,5,35,,35,34,14,14,5,4,0.6,0.6
2024-09-07T0000,1391A,113.7383,22.9658,东莞市,南城西平,,14,13,11,3,3,42,,44,44,11,16,2,2,0.6,0.6
2024-09-07T0000,3319A,113.7338,23.0381,东莞市,万江金泰,,13,10,10,3,5,41,,41,41,7,10,8,8,0.5,0.6
2024-09-07T0000,3626A,113.7533,23.0202,东莞市,南城元岭,,14,12,10,7,6,42,,43,43,9,8,7,7,0.5,0.5
2024-09-07T0000,3627A,113.7875,23.0457,东莞市,东城主山,,14,10,11,6,6,43,,41,41,5,8,7,8,0.5,0.6
2024-09-07T0000,1666A,118.6614,37.4309,东营市,市环保局,,26,12,12,3,1,83,,115,107,22,15,3,3,0.4,0.1
2024-09-07T0000,3036A,118.6904,37.4338,东营市,开发区管委会,,25,18,18,3,3,78,,111,104,18,11,3,3,0.3,0.2
2024-09-07T0000,3365A,118.5719,37.565,东营市,垦利区民丰路,,18,17,12,7,2,47,,108,82,35,14,3,3,0.4,0.3
2024-09-07T0000,3498A,118.5055,37.8612,东营市,河口城区,,20,12,13,7,3,62,,97,76,13,11,5,6,0.6,0.6
2024-09-07T0000,3646A,118.4978,37.4623,东营市,胜利站,,25,13,19,7,5,79,,102,93,16,16,4,7,0.4,0.5
2024-09-07T0000,3734A,118.35,37.26,东营市,理想之城,,18,12,13,9,6,38,,102,82,35,19,3,4,0.2,0.2
2024-09-07T0000,1591A,110.0023,39.8129,鄂尔多斯市,综合楼,,29,6,15,3,4,92,,77,77,10,19,7,8,0.5,0.5
2024-09-07T0000,1592A,109.9486,39.8261,鄂尔多斯市,巴音孟克林场办事处,,28,9,14,3,8,87,,73,73,12,16,6,7,0.5,0.5
2024-09-07T0000,1593A,109.7736,39.5986,鄂尔多斯市,康泽苑,,25,7,15,7,6,78,,65,65,5,17,6,6,0.4,0.5
2024-09-07T0000,1594A,109.8119,39.5989,鄂尔多斯市,华泰汽车城,,21,9,16,7,10,67,,57,54,7,21,6,6,0.4,0.4
2024-09-07T0000,1595A,109.9734,39.7884,鄂尔多斯市,奥林花园,,26,14,12,3,5,82,,70,70,15,19,6,6,0.6,0.6
2024-09-07T0000,2436A,114.8938,30.3994,鄂州市,市政府,颗粒物(PM10),59,67,64,32,31,62,,142,84,22,13,9,9,0.9,1
2024-09-07T0000,2437A,114.8989,30.3714,鄂州市,赵家坝,颗粒物(PM10),56,62,60,29,29,76,,145,90,12,11,8,9,1.1,1.1
2024-09-07T0000,3654A,114.8094,30.4089,鄂州市,精准医疗中心,颗粒物(PM10),51,51,53,29,31,47,,144,85,12,10,6,6,0.7,0.7
2024-09-07T0000,2454A,109.4978,30.2981,恩施土家族苗族自治州,湖北民院,,31,24,30,17,21,98,,119,104,12,12,8,8,0.9,0.9
2024-09-07T0000,2455A,109.4707,30.2798,恩施土家族苗族自治州,州电力总公司,,29,22,30,18,21,90,,113,96,12,12,7,8,0.7,0.7
2024-09-07T0000,3549A,109.5061,30.3772,恩施土家族苗族自治州,龙凤新区,,27,23,26,16,21,86,,112,98,9,9,7,6,0.9,0.8
2024-09-07T0000,2499A,108.3411,21.6158,防城港市,沙万,,19,,30,12,19,58,,94,73,4,7,5,6,0.4,0.6
2024-09-07T0000,2500A,108.3514,21.7731,防城港市,防城档案局,,16,,55,10,26,51,,84,66,7,14,7,7,0.5,0.6
2024-09-07T0000,2501A,108.3506,21.6414,防城港市,大海花园,,17,,30,11,21,53,,88,68,8,10,6,6,0.3,0.5
2024-09-07T0000,1371A,113.1294,23.0067,佛山市,湾梁,,25,,7,17,16,36,,44,44,21,18,8,6,0.6,0.6
2024-09-07T0000,1372A,113.1083,23.0478,佛山市,华材职中,,11,9,7,3,8,35,,46,46,19,14,6,6,0.3,0.3
2024-09-07T0000,1373A,113.144,23.0453,佛山市,南海气象局,,12,12,10,3,5,27,,41,40,18,11,6,5,0.5,0.5
2024-09-07T0000,1374A,113.2881,22.8094,佛山市,顺德苏岗,,14,,7,3,3,43,,42,42,12,13,6,7,0.6,0.6
2024-09-07T0000,1376A,112.8383,22.8678,佛山市,高明孔堂,,15,10,13,6,6,46,,46,46,13,17,4,4,0.6,0.6
2024-09-07T0000,1377A,112.8836,23.1588,佛山市,三水监测站,,11,,6,6,10,33,,42,34,17,19,6,5,0.3,0.3
2024-09-07T0000,1378A,112.867,23.185,佛山市,三水云东海,,17,17,11,3,8,37,,39,36,12,16,6,7,0.5,0.5
2024-09-07T0000,3625A,113.2544,22.7642,佛山市,容桂街道办,,15,,3,7,5,46,,44,44,15,16,6,6,0.6,0.6
2024-09-07T0000,1280A,119.3903,26.0543,福州市,鼓山,,,,,,,,,,,,,,,,
2024-09-07T0000,1282A,119.2681,26.0504,福州市,师大,,8,8,14,3,5,24,,35,27,4,4,4,4,0.2,0.2
2024-09-07T0000,1283A,119.2984,26.1028,福州市,五四北路,,,,,1,4,30,,38,32,4,5,3,3,0.3,0.4
2024-09-07T0000,1284A,119.2648,26.0768,福州市,杨桥西路,,10,10,15,3,2,28,,38,31,4,5,3,3,0.2,0.2
2024-09-07T0000,1285A,119.317,26.0746,福州市,紫阳,,,,,,,,,,,,,,,,
2024-09-07T0000,3048A,119.5799,26.0936,福州市,九龙,,7,6,11,3,2,22,,45,36,9,4,7,6,0.3,0.3
2024-09-07T0000,3526A,119.5189,25.9664,福州市,吴航,,10,6,7,3,3,31,,41,36,2,2,6,5,0.1,0.1
2024-09-07T0000,1755A,123.7977,41.8491,抚顺市,望花区,细颗粒物(PM2.5),72,75,40,52,19,7,,104,36,46,27,9,10,1.0,0.8
2024-09-07T0000,1756A,123.9161,41.8822,抚顺市,顺城区,,37,37,27,8,12,12,,95,26,30,26,8,6,0.5,0.4
2024-09-07T0000,1757A,124.0436,41.8611,抚顺市,东洲区,,24,24,21,7,11,19,,82,47,19,12,5,6,0.4,0.4
2024-09-07T0000,1758A,123.9247,41.8642,抚顺市,新抚区,,45,45,29,8,8,5,,100,35,32,22,8,8,0.3,0.3
2024-09-07T0000,1759A,124.0972,41.8961,抚顺市,大伙房水库,,18,18,12,10,7,10,,86,46,31,11,5,5,0.5,0.5
2024-09-07T0000,1760A,123.7086,41.8391,抚顺市,沈抚新城,,36,36,35,17,19,4,,117,39,39,28,7,8,0.4,0.5
2024-09-07T0000,2376A,116.2127,28.0814,抚州市,桐源党溪,,33,33,38,19,23,63,,142,90,9,3,15,10,0.5,0.5
2024-09-07T0000,2377A,116.3544,27.9831,抚州市,市站,,38,38,36,19,19,57,,101,92,8,8,9,7,0.6,0.7
2024-09-07T0000,2378A,116.3565,27.963,抚州市,血防站,,37,37,33,24,18,54,,101,94,12,11,6,3,0.8,0.8
2024-09-07T0000,2379A,116.3564,28.0007,抚州市,采茶剧团,,38,37,35,26,21,55,,109,91,8,7,9,10,0.7,1
2024-09-07T0000,2380A,116.385,27.9647,抚州市,医学分院,,39,39,35,21,16,54,,101,92,9,9,9,5,0.6,0.6
2024-09-07T0000,2207A,121.6094,41.998,阜新市,工业园区,,43,43,37,17,11,5,,74,18,39,28,9,10,0.6,0.5
2024-09-07T0000,2208A,121.6697,42.0279,阜新市,长青街,,42,42,31,13,8,3,,75,26,40,22,11,11,0.6,0.5
2024-09-07T0000,2209A,121.6673,42.0705,阜新市,农业园区,,25,25,27,9,11,26,,69,38,30,20,8,11,0.4,0.3
2024-09-07T0000,2210A,121.6717,42.0224,阜新市,东苑,,47,47,40,18,15,23,,76,31,29,23,26,17,0.6,0.5
2024-09-07T0000,2211A,121.6506,42.0498,阜新市,玉龙新城,,48,48,40,14,7,6,,72,14,25,23,8,9,0.4,0.4
2024-09-07T0000,2301A,115.8277,32.8929,阜阳市,市监测站,,41,41,37,22,19,62,,69,65,10,12,7,7,0.6,0.6
2024-09-07T0000,2303A,115.8554,32.8605,阜阳市,开发区,,42,42,46,25,19,57,,70,63,16,14,6,6,0.7,0.6
2024-09-07T0000,2875A,115.784,32.8892,阜阳市,阜阳职业技术学院,,45,45,42,17,17,65,,70,67,10,12,6,6,0.5,0.5
2024-09-07T0000,3468A,115.7901,32.8613,阜阳市,市规划展馆,,42,42,41,29,26,64,,72,69,14,14,7,7,0.7,0.6
2024-09-07T0000,3469A,115.836,32.9183,阜阳市,枣园社区,,39,35,39,27,23,60,,69,64,12,13,6,6,0.7,0.7
2024-09-07T0000,2669A,102.9099,34.9841,甘南藏族自治州,州政府,,22,18,18,12,14,69,,73,57,6,9,8,9,0.4,0.4
2024-09-07T0000,3380A,102.8914,34.9617,甘南藏族自治州,甘肃民族师范学院,,16,16,11,7,10,47,,71,57,16,7,4,4,0.5,0.5
2024-09-07T0000,2570A,101.9603,30.0475,甘孜藏族自治州,水桥子,,22,10,9,7,4,68,,89,80,14,15,4,5,0.3,0.3
2024-09-07T0000,3065A,101.9533,29.9972,甘孜藏族自治州,州环保局,,22,6,15,3,4,68,,92,76,14,20,2,2,0.3,0.2
2024-09-07T0000,3414A,115.8347,28.932,赣江新区,桑海产业园,,34,34,27,22,20,94,,131,127,14,9,11,11,0.4,0.3
2024-09-07T0000,2362A,114.9017,25.9149,赣州市,通天岩,,,,,,,,,,,,,,,,
2024-09-07T0000,2363A,114.9367,25.8664,赣州市,地委,,22,,20,15,13,26,,65,36,10,10,11,11,0.8,0.9
2024-09-07T0000,2364A,114.9461,25.8481,赣州市,气象台,,20,16,20,14,12,28,,65,37,8,8,6,5,0.8,0.8
2024-09-07T0000,2365A,114.9322,25.8333,赣州市,市图书馆,,19,19,18,6,8,29,,75,42,8,8,4,5,0.8,0.8
2024-09-07T0000,2366A,114.8905,25.8471,赣州市,华坚鞋城,,27,27,22,12,11,28,,66,38,4,8,2,1,0.5,0.5
2024-09-07T0000,3109A,115.0093,25.8613,赣州市,赣县区卫计委,,14,14,16,9,9,32,,68,40,9,8,6,6,0.6,0.6
2024-09-07T0000,2683A,106.2319,36.1417,固原市,马园,,20,20,19,11,5,39,,71,47,32,16,5,6,0.8,0.8
2024-09-07T0000,2684A,106.2792,36.0022,固原市,监测站,,13,11,12,9,7,31,,84,59,26,11,4,4,0.5,0.5
2024-09-07T0000,2685A,106.2375,36.0211,固原市,新区,,15,,12,9,6,45,,76,55,13,10,7,7,0.4,0.4
2024-09-07T0000,3522A,106.2177,35.9959,固原市,原州区十五小,,,,18,,9,,,85,,,9,,8,,0.5
2024-09-07T0000,2543A,106.6308,30.5278,广安市,小平旧居,,,,,,,,,,,,,,,,
2024-09-07T0000,2544A,106.6303,30.4576,广安市,市委,,33,19,35,15,22,104,,160,129,12,11,1,2,0.4,0.4
2024-09-07T0000,2545A,106.6271,30.4663,广安市,友谊中学,,33,19,29,11,20,104,,162,129,11,12,4,4,0.5,0.5
2024-09-07T0000,2547A,106.6388,30.4551,广安市,广电花园,,29,18,39,10,20,92,,159,126,13,12,3,3,0.4,0.5
2024-09-07T0000,2902A,106.6351,30.4865,广安市,北辰小学,,26,20,36,11,20,82,,165,124,11,10,4,6,0.3,0.4
2024-09-07T0000,2523A,105.8945,32.4535,广元市,黑石坡,,35,28,18,24,14,34,,74,66,10,10,5,5,0.4,0.4
2024-09-07T0000,2524A,105.821,32.4444,广元市,老城,,25,25,18,9,9,54,,77,72,16,18,2,3,0.7,0.6
2024-09-07T0000,2526A,105.8628,32.4287,广元市,监测站,,33,33,22,11,13,50,,86,79,25,16,7,6,0.8,0.7
2024-09-07T0000,3617A,105.8047,32.4166,广元市,经开区,,29,29,30,18,19,47,,89,75,20,17,4,9,0.7,0.7
2024-09-07T0000,1345A,113.2347,23.1423,广州市,广雅中学,,14,10,12,7,6,44,,42,42,14,18,5,5,0.8,0.8
2024-09-07T0000,1346A,113.2612,23.105,广州市,市五中,,14,14,12,8,7,44,,51,51,13,10,3,3,0.6,0.6
2024-09-07T0000,1348A,113.3478,23.0916,广州市,广东商学院,,13,13,12,8,7,38,,43,43,15,15,4,4,0.6,0.6
2024-09-07T0000,1349A,113.4332,23.1047,广州市,市八十六中,,13,13,13,8,6,37,,37,37,14,16,3,3,0.6,0.6
2024-09-07T0000,1350A,113.3505,22.9483,广州市,番禺中学,,14,14,18,7,7,35,,44,44,18,17,4,5,0.7,0.7
2024-09-07T0000,1351A,113.2146,23.3916,广州市,花都师范,,13,13,12,8,7,37,,40,35,15,16,3,3,0.6,0.6
2024-09-07T0000,1352A,113.2597,23.1331,广州市,市监测站,,12,11,11,6,6,38,,39,39,15,15,4,4,0.6,0.6
2024-09-07T0000,1353A,113.5618,23.312,广州市,九龙镇镇龙,,13,8,10,3,6,41,,42,42,7,9,6,6,0.5,0.5
2024-09-07T0000,1354A,113.2765,23.1544,广州市,麓湖,,12,11,11,3,5,37,,39,38,19,18,4,4,0.5,0.5
2024-09-07T0000,1355A,113.443,23.3035,广州市,帽峰山森林公园,,16,9,4,3,4,50,,52,52,5,5,4,5,0.4,0.4
2024-09-07T0000,2846A,113.3221,23.1322,广州市,体育西,,12,12,12,7,6,35,,39,39,14,12,4,4,0.5,0.5
2024-09-07T0000,3298A,113.5717,23.5491,广州市,从化街口,,17,7,11,3,6,52,,42,42,6,10,6,7,0.5,0.5
2024-09-07T0000,3299A,113.3472,23.3692,广州市,白云竹料,,12,7,10,3,7,36,,41,35,10,9,4,4,0.4,0.6
2024-09-07T0000,3300A,113.2981,23.237,广州市,白云嘉禾,,15,10,10,7,6,46,,42,42,16,17,4,4,0.7,0.7
2024-09-07T0000,3301A,113.4256,23.1716,广州市,黄埔科学城,,17,11,9,6,5,52,,46,46,3,6,8,7,0.6,0.6
2024-09-07T0000,3302A,113.3942,23.0483,广州市,番禺大学城,,14,14,17,8,6,27,,34,32,22,19,11,6,0.6,0.5
2024-09-07T0000,3303A,113.4922,22.8168,广州市,南沙黄阁,,16,10,11,9,7,50,,49,49,16,17,4,5,0.7,0.7
2024-09-07T0000,3304A,113.5342,22.7896,广州市,南沙街,,17,14,11,9,6,52,,52,52,9,13,6,4,0.6,0.7
2024-09-07T0000,3443A,113.2902,23.5544,广州市,花都梯面,,11,10,13,3,7,33,,40,36,10,10,4,4,0.5,0.5
2024-09-07T0000,3445A,113.7858,23.7478,广州市,从化良口,,17,6,10,3,6,53,,48,48,5,6,6,6,0.6,0.6
2024-09-07T0000,3446A,113.8051,23.2614,广州市,增城荔城,,12,12,9,3,5,35,,40,38,8,8,4,4,0.5,0.5
2024-09-07T0000,2505A,109.568,23.1478,贵港市,德智高中,,,,,,,,,,,,,,,,
2024-09-07T0000,2506A,109.6047,23.0666,贵港市,江南子站,,18,,30,12,21,51,,84,50,10,14,9,9,0.9,0.9
2024-09-07T0000,2507A,109.6014,23.0948,贵港市,贵城子站,,18,12,33,8,21,56,,83,58,4,9,7,7,0.5,0.6
2024-09-07T0000,2508A,109.5669,23.1065,贵港市,荷城子站,,19,9,26,3,15,58,,78,61,2,7,9,10,0.4,0.5
2024-09-07T0000,3405A,109.5886,23.1172,贵港市,新世纪学校,,18,7,31,3,17,57,,76,60,2,8,8,9,0.4,0.6
2024-09-07T0000,1439A,106.6899,26.5998,贵阳市,马鞍山,,13,12,25,9,11,25,,102,68,18,9,3,3,0.7,0.6
2024-09-07T0000,1440A,106.6971,26.5694,贵阳市,市环保站,,40,29,33,28,28,92,,116,106,9,10,4,4,0.5,0.5
2024-09-07T0000,1441A,106.6243,26.6266,贵阳市,鉴湖路,,32,29,30,22,18,59,,102,83,7,6,4,4,0.4,0.5
2024-09-07T0000,1442A,106.7487,26.6343,贵阳市,燕子冲,,25,17,20,17,21,37,,111,84,17,7,4,5,0.8,0.7
2024-09-07T0000,1443A,106.6555,26.4365,贵阳市,碧云窝,,30,29,36,19,18,94,,116,103,8,9,4,4,0.4,0.4
2024-09-07T0000,1444A,106.694,26.5161,贵阳市,中院村,,35,31,32,24,20,93,,113,102,6,7,7,7,0.8,0.7
2024-09-07T0000,1445A,106.7109,26.6027,贵阳市,红边门,,41,41,34,24,28,69,,113,95,18,12,5,5,0.7,0.6
2024-09-07T0000,1446A,106.7164,26.5699,贵阳市,新华路,,32,22,21,22,24,87,,118,105,9,8,6,5,0.3,0.4
2024-09-07T0000,1447A,106.674,26.5424,贵阳市,太慈桥,,29,22,26,14,16,92,,110,100,10,8,4,3,0.5,0.5
2024-09-07T0000,1552A,106.805,26.3003,贵阳市,桐木岭,,,,,,,,,,,,,,,,
2024-09-07T0000,1862A,110.4144,25.3167,桂林市,电子科大尧山校区,,29,8,39,7,21,91,,106,92,4,6,9,10,0.6,0.7
2024-09-07T0000,1863A,110.2819,25.2697,桂林市,监测站,,25,,31,13,20,79,,101,83,8,8,8,7,0.4,0.5
2024-09-07T0000,1864A,110.3089,25.2708,桂林市,龙隐路小学,,26,,30,16,24,82,,102,87,6,6,9,9,0.4,0.5
2024-09-07T0000,1865A,110.2869,25.2178,桂林市,八中,,26,,32,10,20,81,,103,85,5,6,10,8,0.4,0.5
2024-09-07T0000,3403A,110.1764,25.2381,桂林市,创业大厦,,25,,32,14,26,78,,93,78,5,6,7,8,0.4,0.4
2024-09-07T0000,3531A,110.296,25.1253,桂林市,旅游学院,,26,,21,3,19,81,,100,79,4,6,6,8,0.4,0.5
2024-09-07T0000,2674A,100.2561,34.4714,果洛藏族自治州,玛沁县大武镇,,23,15,11,12,10,72,,95,84,2,2,14,13,0.4,0.5
2024-09-07T0000,1129A,126.5422,45.755,哈尔滨市,岭北,,23,14,12,6,6,72,,84,77,10,9,8,8,0.3,0.2
2024-09-07T0000,1130A,126.561,45.8167,哈尔滨市,松北商大,,16,12,14,3,4,50,,62,49,10,14,7,7,0.4,0.4
2024-09-07T0000,1131A,126.979,45.5419,哈尔滨市,阿城会宁,,14,14,17,7,7,36,,66,46,12,12,11,10,0.4,0.5
2024-09-07T0000,1132A,126.599,45.7222,哈尔滨市,南岗学府路,,23,23,23,3,5,52,,71,61,12,11,6,7,0.5,0.5
2024-09-07T0000,1133A,126.689,45.7733,哈尔滨市,太平宏伟公园,,24,24,20,11,9,46,,62,54,18,19,3,3,0.2,0.3
2024-09-07T0000,1134A,126.635,45.7667,哈尔滨市,道外承德广场,,26,26,24,3,3,39,,60,47,26,23,6,6,0.2,0.3
2024-09-07T0000,1135A,126.685,45.7319,哈尔滨市,香坊红旗大街,,27,27,29,8,8,38,,67,49,26,22,6,7,0.5,0.5
2024-09-07T0000,1136A,126.6411,45.7258,哈尔滨市,动力和平路,,20,20,24,10,7,44,,68,54,19,17,7,8,0.4,0.4
2024-09-07T0000,1137A,126.593,45.7478,哈尔滨市,道里建国路,,20,20,22,11,7,40,,63,48,16,15,8,8,0.2,0.2
2024-09-07T0000,1138A,126.615,45.61,哈尔滨市,平房东轻厂,,28,28,32,6,7,28,,65,44,33,20,5,5,0.3,0.2
2024-09-07T0000,1139A,126.595,45.9855,哈尔滨市,呼兰师专,,15,15,16,8,6,43,,69,54,15,12,10,10,0.4,0.4
2024-09-07T0000,1140A,126.6206,45.6842,哈尔滨市,省农科院,,35,35,29,9,6,11,,60,28,51,27,7,7,0.4,0.4
2024-09-07T0000,2688A,93.5128,42.8172,哈密市,地区监测站,颗粒物(PM10),86,121,51,37,16,59,,126,90,47,22,7,7,0.6,0.4
2024-09-07T0000,2689A,93.4961,42.8328,哈密市,哈密师范学校,颗粒物(PM10),90,130,55,40,17,27,,123,76,75,27,4,4,0.9,0.5
2024-09-07T0000,2671A,100.9048,36.9639,海北藏族自治州,海晏县西海镇,,33,32,15,23,12,43,,104,85,17,7,16,13,0.7,0.4
2024-09-07T0000,3867A,102.0738,36.5056,海东市,平安区公安北苑,,26,26,24,15,12,58,,81,74,20,14,12,9,1.2,0.8
2024-09-07T0000,1409A,110.576,19.9507,海口市,东寨港,,,,,,,,,,,,,,,,
2024-09-07T0000,1410A,110.3232,20.0574,海口市,海南大学,,,,24,,8,,,68,,,5,,6,,0.3
2024-09-07T0000,1411A,110.283,20.0053,海口市,秀英海南医院,,23,23,22,3,7,61,,71,,10,6,4,4,0.5,0.3
2024-09-07T0000,1412A,110.338,19.9969,海口市,海南师范大学,,,,17,,7,,,67,,,4,,5,,0.4
2024-09-07T0000,1413A,110.33,20.0356,海口市,龙华路环保局宿舍,,,,22,,9,,,70,,,3,,4,,0.2
2024-09-07T0000,3539A,110.5111,19.9736,海口市,桂林洋子站,,,,29,,9,,,69,,,3,,4,,0.3
2024-09-07T0000,2673A,100.6188,36.2866,海南藏族自治州,共和县恰卜恰镇,,36,36,25,23,8,59,,119,97,23,8,18,16,0.5,0.3
2024-09-07T0000,2676A,97.3731,37.3753,海西蒙古族藏族自治州,德令哈市,,34,14,29,8,12,107,,148,130,8,10,8,9,0.4,0.3
2024-09-07T0000,1048A,114.5302,36.6116,邯郸市,东污水处理厂,,29,19,22,7,8,90,,98,96,13,12,4,3,0.3,0.3
2024-09-07T0000,1049A,114.4918,36.5713,邯郸市,矿院,,22,,21,9,8,69,,109,97,29,15,3,3,0.4,0.4
2024-09-07T0000,1050A,114.484,36.6133,邯郸市,丛台公园,,30,15,20,11,8,94,,102,99,12,12,4,4,0.3,0.3
2024-09-07T0000,3458A,114.7895,36.5593,邯郸市,香泉濮院小区,,35,35,28,7,10,86,,110,105,19,13,2,2,0.3,0.3
2024-09-07T0000,3579A,114.50634,36.77178,邯郸市,永年区实验高中,,34,34,33,9,15,83,,111,94,23,18,2,3,0.5,0.5
2024-09-07T0000,3580A,114.20016,36.44293,邯郸市,峰峰矿区临水派出所,,33,15,17,3,6,104,,124,109,6,8,2,3,0.2,0.3
2024-09-07T0000,2634A,106.9893,33.1842,汉中市,汉川机床厂子校,,27,27,34,16,17,27,,105,59,9,6,4,4,0.8,0.8
2024-09-07T0000,2635A,107.0154,33.0706,汉中市,市监测站,,28,28,37,16,18,43,,108,78,6,8,7,7,0.7,0.7
2024-09-07T0000,2636A,107.0089,33.1138,汉中市,鑫源开发区,,35,35,42,17,24,45,,107,72,13,12,8,9,0.6,0.6
2024-09-07T0000,2637A,107.007,33.0323,汉中市,南郑大河坎水厂,,26,26,31,15,17,33,,106,69,8,7,7,8,0.7,0.6
2024-09-07T0000,1223A,120.2072,30.2111,杭州市,滨江,颗粒物(PM10),59,67,48,38,25,32,,124,74,22,17,6,6,0.7,0.6
2024-09-07T0000,1224A,120.0633,30.2747,杭州市,西溪,细颗粒物(PM2.5),59,51,31,42,28,44,,123,86,20,17,7,6,0.7,0.7
2024-09-07T0000,1226A,120.3461,30.3153,杭州市,下沙,颗粒物(PM10),55,59,40,37,24,40,,112,74,27,20,9,8,0.6,0.6
2024-09-07T0000,1227A,120.1269,30.2456,杭州市,卧龙桥,细颗粒物(PM2.5),57,49,34,40,28,44,,139,90,22,16,9,8,0.6,0.6
2024-09-07T0000,1228A,120.1903,30.2692,杭州市,浙江农大,细颗粒物(PM2.5),55,51,36,39,25,37,,119,77,21,17,11,10,0.5,0.5
2024-09-07T0000,1230A,120.1197,30.3119,杭州市,和睦小学,颗粒物(PM10),51,51,36,33,21,49,,130,88,18,16,8,7,0.5,0.6
2024-09-07T0000,1231A,120.3019,30.4183,杭州市,临平镇,颗粒物(PM10),55,60,41,37,23,49,,108,79,10,10,5,5,0.6,0.6
2024-09-07T0000,1232A,120.2697,30.1819,杭州市,城厢镇,细颗粒物(PM2.5),67,61,49,48,35,37,,136,79,27,23,9,8,0.5,0.5
2024-09-07T0000,1233A,120.0883,30.1808,杭州市,云栖,,46,46,35,31,22,38,,147,92,20,17,7,7,0.6,0.6
2024-09-07T0000,3557A,119.9464,30.0494,杭州市,镇二中,细颗粒物(PM2.5),69,55,42,50,33,52,,147,101,17,19,10,9,0.7,0.7
2024-09-07T0000,3558A,119.7183,30.2367,杭州市,市府大楼,细颗粒物(PM2.5),58,50,32,41,26,71,,150,110,16,15,7,6,0.5,0.5
2024-09-07T0000,3656A,120.1556,30.2864,杭州市,消防大队,细颗粒物(PM2.5),54,56,43,38,26,43,,126,84,16,13,9,9,0.6,0.7
2024-09-07T0000,1270A,117.1959,31.7848,合肥市,明珠广场,,32,27,41,22,29,73,,129,88,12,12,6,7,0.6,0.7
2024-09-07T0000,1271A,117.3072,31.8764,合肥市,三里街,,31,31,44,14,26,66,,111,78,8,8,5,5,0.5,0.6
2024-09-07T0000,1272A,117.2588,31.8707,合肥市,琥珀山庄,,38,34,45,26,33,75,,116,83,6,8,6,6,0.6,0.7
2024-09-07T0000,1273A,117.1604,31.9052,合肥市,董铺水库,,34,34,52,22,31,68,,106,76,8,8,2,2,0.4,0.5
2024-09-07T0000,1274A,117.25,31.8571,合肥市,长江中路,,43,36,48,30,32,74,,120,85,6,6,8,8,0.8,0.9
2024-09-07T0000,1275A,117.266,31.9436,合肥市,庐阳区,,39,39,50,19,28,65,,123,81,17,12,4,4,0.6,0.7
2024-09-07T0000,1276A,117.336,31.8586,合肥市,瑶海区,,38,31,47,26,28,70,,118,83,10,11,6,6,0.6,0.7
2024-09-07T0000,1277A,117.3027,31.7964,合肥市,包河区,,36,36,48,24,31,65,,116,75,18,18,5,6,0.5,0.6
2024-09-07T0000,1278A,117.2776,31.7385,合肥市,滨湖新区,,34,34,44,19,29,70,,124,88,10,10,5,6,0.5,0.6
2024-09-07T0000,1279A,117.1318,31.8403,合肥市,高新区,,44,44,51,20,30,69,,113,77,10,11,6,6,0.8,1
2024-09-07T0000,3464A,117.3803,31.9147,合肥市,高教基地,,34,34,43,20,26,61,,109,74,8,7,2,2,0.5,0.6
2024-09-07T0000,3614A,79.924,37.0877,和田地区,地区环保局,颗粒物(PM10),132,213,218,60,54,49,,100,83,33,14,7,8,0.6,0.5
2024-09-07T0000,3615A,79.9131,37.113,和田地区,市环保局,颗粒物(PM10),165,280,210,58,54,7,,103,76,61,26,12,10,1.2,0.6
2024-09-07T0000,2516A,108.2011,24.715,河池市,东仁乐园,,26,26,37,16,16,17,,31,,9,10,4,4,0.4,0.7
2024-09-07T0000,2517A,108.0497,24.6947,河池市,市环保站,,32,32,37,21,20,19,,92,51,21,11,7,9,0.7,0.7
2024-09-07T0000,2518A,108.0983,24.6989,河池市,市疾控中心,,32,32,36,21,20,16,,96,47,25,16,8,9,0.7,0.7
2024-09-07T0000,1696A,114.6778,23.7569,河源市,源西,,10,9,11,7,10,22,,42,31,16,12,4,4,0.5,0.5
2024-09-07T0000,1697A,114.6944,23.7586,河源市,东埔,,10,6,9,3,6,29,,43,34,12,10,2,2,0.6,0.6
2024-09-07T0000,1698A,114.6892,23.7233,河源市,老城,,12,12,14,3,8,26,,42,33,10,10,2,2,0.6,0.7
2024-09-07T0000,1718A,115.4208,35.2464,菏泽市,气象局,,48,48,37,17,11,82,,149,126,22,12,5,5,0.3,0.3
2024-09-07T0000,1719A,115.4747,35.2375,菏泽市,市政协,颗粒物(PM10),54,58,33,24,12,75,,146,122,21,11,5,6,0.3,0.3
2024-09-07T0000,3374A,115.5564,35.0891,菏泽市,定陶老年大学,,39,39,29,12,7,69,,136,106,17,11,6,7,0.5,0.4
2024-09-07T0000,3647A,115.4702,35.2706,菏泽市,菏泽医专,颗粒物(PM10),56,61,36,18,8,66,,148,120,33,14,13,8,0.6,0.6
2024-09-07T0000,2514A,111.5264,24.4172,贺州市,环保小区,,29,29,31,15,18,37,,60,43,9,12,6,6,0.4,0.6
2024-09-07T0000,2515A,111.5608,24.4078,贺州市,政协大楼,,26,26,32,12,19,37,,58,43,9,15,9,8,0.4,0.6
2024-09-07T0000,3534A,111.4744,24.4553,贺州市,西湾,,20,20,32,13,16,29,,67,36,11,12,4,5,0.5,0.6
2024-09-07T0000,2385A,114.17,35.9019,鹤壁市,市监测站,,50,50,34,26,14,51,,128,101,25,14,6,5,0.4,0.6
2024-09-07T0000,2386A,114.2956,35.7511,鹤壁市,市交警支队,,36,36,30,19,11,56,,119,102,33,13,10,6,0.5,0.5
2024-09-07T0000,2387A,114.2878,35.7306,鹤壁市,迎宾馆,,,28,21,10,11,,,121,106,32,16,2,3,0.6,0.5
2024-09-07T0000,3474A,114.2617,35.6822,鹤壁市,大新区,,38,38,26,9,7,51,,122,99,30,15,5,6,0.2,0.3
2024-09-07T0000,3596A,114.1572,35.9603,鹤壁市,南山宾馆,,32,26,26,22,14,90,,126,106,12,11,6,4,0.4,0.6
2024-09-07T0000,2244A,130.2537,47.3416,鹤岗市,哈啤分公司,,36,36,21,19,16,47,,68,54,7,7,14,14,0.3,0.3
2024-09-07T0000,2245A,130.2684,47.3086,鹤岗市,斯达机电,,40,40,25,20,15,56,,65,59,12,9,14,13,0.3,0.3
2024-09-07T0000,2246A,130.3114,47.3388,鹤岗市,东山纸板厂,,28,,28,19,18,47,,65,54,12,8,17,17,0.7,0.3
2024-09-07T0000,2247A,130.1097,47.3382,鹤岗市,五号水库,,19,15,12,13,7,18,,73,49,7,4,6,6,0.5,0.4
2024-09-07T0000,2263A,127.4833,50.2524,黑河市,交通局,,28,,19,19,13,52,,57,53,2,4,4,4,0.3,0.3
2024-09-07T0000,2264A,127.5144,50.2341,黑河市,环保局,,29,,18,20,14,57,,64,57,3,6,3,4,0.2,0.2
2024-09-07T0000,2265A,127.5291,50.2472,黑河市,大黑河岛,,22,22,15,13,12,56,,63,59,2,2,2,2,0.0,0
2024-09-07T0000,1074A,115.6838,37.7541,衡水市,电机北厂,,36,36,31,21,12,104,,124,109,14,19,6,6,0.4,0.4
2024-09-07T0000,1075A,115.6303,37.7316,衡水市,市监测站,,34,33,34,19,8,107,,130,118,18,20,8,7,0.4,0.4
2024-09-07T0000,3188A,115.6683,37.7217,衡水市,市城管局,,35,30,25,24,11,95,,129,110,21,14,6,5,0.5,0.4
2024-09-07T0000,3459A,115.5989,37.5491,衡水市,地表水厂,颗粒物(PM10),51,52,30,19,9,24,,130,80,55,24,5,4,0.4,0.4
2024-09-07T0000,2456A,112.5003,26.9167,衡阳市,原169医院,颗粒物(PM10),51,52,45,28,26,87,,131,106,20,14,8,7,0.8,0.7
2024-09-07T0000,2457A,112.6194,26.9258,衡阳市,衡阳化工总厂,,,65,51,,,100,,122,116,8,7,10,8,0.9,0.8
2024-09-07T0000,2458A,112.6211,26.8956,衡阳市,珠晖区环保局,,,64,47,,,96,,128,115,18,13,8,7,1.0,0.9
2024-09-07T0000,2459A,112.6197,26.8733,衡阳市,市委党校,颗粒物(PM10),56,62,47,32,25,112,,141,130,10,9,14,10,1.0,0.9
2024-09-07T0000,2460A,112.6006,26.8919,衡阳市,市监测站,细颗粒物(PM2.5),54,55,44,38,30,109,,136,126,12,9,11,8,1.0,0.9
2024-09-07T0000,2461A,112.5664,26.9056,衡阳市,真空机电公司,细颗粒物(PM2.5),52,52,47,36,28,110,,131,121,7,8,8,8,1.0,1
2024-09-07T0000,3399A,112.6703,26.882,衡阳市,师范学院,颗粒物(PM10),56,61,51,38,26,105,,137,123,10,11,14,12,0.9,0.8
2024-09-07T0000,2608A,103.3772,23.3993,红河哈尼族彝族自治州,污水处理厂,,42,35,26,29,21,73,,117,99,10,13,7,12,0.5,0.5
2024-09-07T0000,2609A,103.3861,23.35,红河哈尼族彝族自治州,监测站,,35,31,29,24,18,76,,125,103,14,13,12,22,0.6,0.6
2024-09-07T0000,3038A,103.3758,23.368,红河哈尼族彝族自治州,州图书馆,,38,38,28,18,11,70,,112,96,13,11,10,16,0.4,0.4
2024-09-07T0000,1090A,111.6507,40.7517,呼和浩特市,呼市一监,,18,,7,12,6,39,,73,60,18,16,4,4,0.7,0.6
2024-09-07T0000,1091A,111.6572,40.8033,呼和浩特市,小召,,20,,3,14,6,40,,80,64,31,20,6,6,0.8,0.6
2024-09-07T0000,1094A,111.7516,40.8369,呼和浩特市,如意水处理厂,,17,17,11,10,5,42,,75,56,28,22,5,6,0.6,0.5
2024-09-07T0000,1095A,111.7276,40.8062,呼和浩特市,二十九中,,20,12,12,12,6,33,,77,62,39,25,4,4,0.9,0.7
2024-09-07T0000,1096A,111.5512,40.7866,呼和浩特市,工大金川校区,,29,,12,18,7,12,,61,41,58,29,2,2,0.6,0.5
2024-09-07T0000,1097A,111.717,40.7612,呼和浩特市,化肥厂生活区,,18,14,12,8,6,57,,85,75,19,17,8,8,0.8,0.6
2024-09-07T0000,3698A,111.5968,40.8178,呼和浩特市,红旗小学,,29,,7,17,6,15,,71,45,57,32,2,2,0.6,0.4
2024-09-07T0000,3699A,111.6518,40.8389,呼和浩特市,海东办,,26,,7,18,8,34,,78,62,42,29,5,6,0.7,0.6
2024-09-07T0000,2192A,119.7594,49.2261,呼伦贝尔市,区环保局,,39,39,26,19,11,24,,74,55,28,11,6,6,0.5,0.3
2024-09-07T0000,3061A,119.7512,49.1577,呼伦贝尔市,国华电力东,,26,26,24,10,11,38,,75,53,10,6,3,3,0.3,0.3
2024-09-07T0000,1250A,120.0751,30.8669,湖州市,城西水厂,细颗粒物(PM2.5),62,59,36,44,25,46,,123,76,16,13,6,5,0.3,0.3
2024-09-07T0000,2873A,120.0875,30.8955,湖州市,仁皇山新区,细颗粒物(PM2.5),60,50,37,43,26,48,,122,79,12,14,7,7,0.6,0.6
2024-09-07T0000,2907A,120.1844,30.8596,湖州市,吴兴区站,细颗粒物(PM2.5),69,,36,50,29,40,,112,67,13,12,6,5,0.5,0.5
2024-09-07T0000,3562A,120.4148,30.8538,湖州市,南浔区站,细颗粒物(PM2.5),57,54,47,40,26,42,,100,60,13,13,8,6,0.5,0.5
2024-09-07T0000,1607A,120.9092,40.7136,葫芦岛市,龙港区,,23,14,22,8,8,73,,115,98,15,24,8,15,0.3,0.4
2024-09-07T0000,1608A,120.8392,40.7514,葫芦岛市,化工街,颗粒物(PM10),53,56,38,19,14,7,,103,55,51,30,72,67,0.6,0.4
2024-09-07T0000,1609A,120.8341,40.7073,葫芦岛市,新区,,39,30,31,8,13,5,,116,61,77,39,10,15,0.4,0.4
2024-09-07T0000,1610A,120.8695,40.7677,葫芦岛市,东城区,细颗粒物(PM2.5),75,80,41,55,16,4,,110,53,50,31,253,73,0.5,0.3
2024-09-07T0000,2482A,109.5981,27.5721,怀化市,林科所,,35,34,36,21,21,112,,116,115,7,6,7,6,0.5,0.6
2024-09-07T0000,2483A,109.9453,27.5444,怀化市,河西地税局,,43,42,43,30,30,105,,118,116,10,8,9,5,0.7,0.7
2024-09-07T0000,2484A,109.9781,27.5342,怀化市,市四医院,颗粒物(PM10),53,55,41,35,32,112,,116,114,8,8,9,9,0.6,0.6
2024-09-07T0000,2485A,109.9972,27.5578,怀化市,监测楼,,49,49,45,30,27,114,,119,118,8,9,3,5,0.9,0.9
2024-09-07T0000,2486A,110.0394,27.583,怀化市,市委党校,颗粒物(PM10),56,62,68,29,25,103,,114,112,7,8,6,15,0.7,0.7
2024-09-07T0000,1210A,119.036,33.5981,淮安市,钵池山,,30,22,27,13,18,94,,86,86,14,15,7,7,0.7,0.7
2024-09-07T0000,1211A,119.007,33.575,淮安市,北京南路,,31,31,30,12,14,94,,85,85,7,9,5,5,0.6,0.7
2024-09-07T0000,1212A,118.989,33.6067,淮安市,市监测站,,31,22,30,12,17,98,,90,90,12,10,7,6,0.6,0.7
2024-09-07T0000,1213A,119.135,33.5039,淮安市,楚州区监测站,,30,27,40,11,15,94,,83,83,10,11,6,5,0.6,0.7
2024-09-07T0000,1214A,119.0186,33.6297,淮安市,淮阴区监测站,,30,24,34,13,18,96,,83,83,13,16,4,4,0.5,0.6
2024-09-07T0000,3426A,118.8755,33.2894,淮安市,新华书店,,26,24,39,10,18,82,,86,79,15,16,7,7,0.5,0.6
2024-09-07T0000,2282A,116.8004,33.975,淮北市,监测站,,38,38,32,16,14,79,,82,82,8,12,6,7,0.6,0.6
2024-09-07T0000,2283A,116.8091,33.9007,淮北市,烈山区政府,,39,39,35,19,16,77,,94,92,21,8,6,6,0.5,0.4
2024-09-07T0000,3330A,116.8873,33.9836,淮北市,杜集区检察院,,38,38,41,16,16,94,,93,93,7,10,2,4,0.5,0.7
2024-09-07T0000,4017A,116.7923,33.9535,淮北市,市博物馆,,34,34,30,15,13,91,,89,89,8,12,4,5,0.7,0.7
2024-09-07T0000,2277A,116.8305,32.7727,淮南市,潘集区政府,,39,39,37,21,24,52,,62,58,10,13,5,6,0.8,0.8
2024-09-07T0000,2278A,117.0067,32.6524,淮南市,师范学院,颗粒物(PM10),53,55,51,30,30,66,,66,62,6,10,5,6,0.5,0.7
2024-09-07T0000,2279A,116.8569,32.5951,淮南市,谢家集区政府,,42,37,44,29,31,60,,62,60,13,12,5,5,0.4,0.5
2024-09-07T0000,2280A,116.8281,32.633,淮南市,八公山区政府,颗粒物(PM10),54,58,56,35,37,55,,60,58,11,12,2,4,0.4,0.6
2024-09-07T0000,2281A,116.6325,32.6201,淮南市,焦岗湖风景区管理处,颗粒物(PM10),53,55,49,21,20,32,,48,43,11,10,12,12,0.1,0.2
2024-09-07T0000,2894A,117.0566,32.6531,淮南市,经济技术开发区消防队,,24,24,41,13,15,59,,65,58,10,14,4,5,0.4,0.5
2024-09-07T0000,3329A,117.0108,32.5893,淮南市,山南新区,颗粒物(PM10),53,56,59,16,32,69,,73,65,12,16,4,4,0.6,0.7
2024-09-07T0000,2446A,114.9028,30.4742,黄冈市,职工中心,细颗粒物(PM2.5),54,54,56,38,36,48,,138,79,11,9,7,8,0.6,0.6
2024-09-07T0000,2929A,114.8858,30.4519,黄冈市,红卫路,细颗粒物(PM2.5),53,50,54,37,39,53,,141,82,12,8,7,8,0.5,0.5
2024-09-07T0000,3398A,114.9136,30.4445,黄冈市,市林业局,颗粒物(PM10),54,57,58,32,37,68,,150,90,9,8,7,7,0.6,0.6
2024-09-07T0000,2672A,102.0199,35.5102,黄南藏族自治州,同仁县隆务镇,,,29,23,8,8,,,87,79,6,6,10,10,0.5,0.5
2024-09-07T0000,2295A,118.2903,29.6963,黄山市,延安路89号,,42,42,38,11,11,50,,103,74,10,6,6,6,0.3,0.4
2024-09-07T0000,2296A,118.327,29.7178,黄山市,黄山东路89号,,45,45,28,24,10,98,,101,82,8,6,5,5,0.3,0.3
2024-09-07T0000,2297A,118.1371,30.2756,黄山市,黄山区政府5号楼,,30,30,28,21,16,47,,122,98,9,8,6,6,0.4,0.4
2024-09-07T0000,2423A,115.0601,30.2313,黄石市,沈家营,颗粒物(PM10),68,85,67,29,25,45,,158,96,17,12,7,6,0.6,0.6
2024-09-07T0000,2424A,115.0817,30.2006,黄石市,陈家湾,颗粒物(PM10),69,87,66,30,25,52,,155,92,12,15,13,12,0.7,0.6
2024-09-07T0000,2426A,114.8988,30.2019,黄石市,铁山,,48,43,45,33,29,77,,171,109,8,5,6,6,0.5,0.6
2024-09-07T0000,2427A,115.0307,30.2092,黄石市,团城山,颗粒物(PM10),61,72,52,30,26,47,,158,93,18,13,8,8,0.7,0.6
2024-09-07T0000,3149A,115.0235,30.1578,黄石市,笔架山北路,颗粒物(PM10),58,65,49,23,19,76,,164,108,12,8,9,9,0.8,0.7
2024-09-07T0000,1392A,114.4183,23.0528,惠州市,河南岸金山湖子站,,14,14,9,8,6,42,,46,43,6,4,4,4,0.4,0.4
2024-09-07T0000,1393A,114.4053,23.0822,惠州市,下埔横江三路子站,,16,13,10,8,7,50,,48,45,6,7,4,4,0.6,0.6
2024-09-07T0000,1394A,114.4103,23.1142,惠州市,江北云山西路子站,,15,13,9,3,4,47,,43,43,2,3,4,4,0.7,0.7
2024-09-07T0000,1395A,114.4645,22.7833,惠州市,惠阳区承修路船湖子站,,16,10,7,6,4,50,,57,54,8,10,4,4,0.4,0.4
2024-09-07T0000,1396A,114.5317,22.7422,惠州市,大亚湾管委会子站,,16,12,10,3,4,49,,58,54,10,14,7,7,0.4,0.5
2024-09-07T0000,3314A,114.4338,22.8134,惠州市,惠阳秋长,,17,12,7,3,5,52,,58,56,6,9,4,4,0.5,0.5
2024-09-07T0000,3452A,114.6517,22.775,惠州市,大亚湾霞涌,,16,10,6,6,1,50,,64,58,6,5,4,3,0.7,0.8
2024-09-07T0000,2240A,130.9762,45.3001,鸡西市,环保局,,21,19,19,7,5,67,,63,56,1,5,6,6,0.2,0.1
2024-09-07T0000,2243A,130.9429,45.3039,鸡西市,第一中学,,20,18,20,7,5,62,,66,57,5,6,5,4,0.2,0.1
2024-09-07T0000,3707A,131.0207,45.3073,鸡西市,欧美日汽修厂,,26,26,19,11,7,48,,66,53,11,13,4,5,0.2,0.1
2024-09-07T0000,3709A,130.9967,45.3106,鸡西市,市政设施管理处,,27,27,27,11,7,44,,68,47,19,14,6,6,0.1,0.1
2024-09-07T0000,2367A,114.9754,27.0803,吉安市,红声器材厂,,22,22,35,10,17,35,,86,48,14,11,10,14,0.4,0.5
2024-09-07T0000,2368A,114.9658,27.0999,吉安市,市森林工业局,,23,23,30,10,18,37,,90,50,18,16,8,14,0.4,0.5
2024-09-07T0000,2369A,114.99,27.1312,吉安市,市环境监测站,,25,25,32,11,17,42,,87,49,11,12,10,16,0.5,0.6
2024-09-07T0000,2370A,115.0093,27.0968,吉安市,青原区法院,,,23,33,12,19,,,84,48,10,12,9,19,0.5,0.6
2024-09-07T0000,1772A,126.54,43.8622,吉林市,哈达湾,,19,19,15,8,7,36,,79,55,24,17,6,5,0.5,0.5
2024-09-07T0000,1773A,126.5844,43.8358,吉林市,东局子,,19,19,16,8,7,49,,79,54,11,13,4,4,0.4,0.4
2024-09-07T0000,1774A,126.5052,43.8245,吉林市,电力学院,,20,20,16,10,8,34,,79,44,18,15,3,3,0.5,0.5
2024-09-07T0000,1775A,126.6133,43.8972,吉林市,江北,,17,17,18,8,7,45,,77,50,10,12,7,7,0.6,0.6
2024-09-07T0000,1776A,126.555,43.8306,吉林市,江南公园,,17,17,14,6,8,38,,81,56,18,16,5,5,0.6,0.6
2024-09-07T0000,1778A,126.7061,43.7133,吉林市,丰满,,,,,,,,,,,,,,,,
2024-09-07T0000,2868A,126.4739,43.953,吉林市,九站,,17,17,17,7,7,47,,78,60,19,17,8,7,0.6,0.6
2024-09-07T0000,1299A,116.9862,36.6114,济南市,科干所,,29,24,25,7,9,92,,150,124,21,19,6,8,0.6,0.5
2024-09-07T0000,1300A,116.9376,36.665,济南市,农科所,,24,24,33,10,12,60,,148,107,38,30,8,13,0.5,0.6
2024-09-07T0000,1301A,117.1265,36.6734,济南市,开发区,颗粒物(PM10),51,51,28,15,12,36,,146,101,60,24,7,10,0.5,0.4
2024-09-07T0000,1303A,117.0624,36.6868,济南市,省种子仓库,,44,44,41,9,10,44,,148,104,54,33,6,11,0.6,0.6
2024-09-07T0000,1304A,116.9489,36.6447,济南市,机床二厂,,29,29,35,3,8,51,,154,113,49,35,8,13,0.7,0.7
2024-09-07T0000,1305A,117.0495,36.663,济南市,市监测站,,37,37,32,7,8,70,,151,117,37,27,9,12,0.5,0.5
2024-09-07T0000,1306A,116.7675,36.5484,济南市,长清党校,,27,27,32,12,12,82,,169,141,34,28,6,10,0.6,0.7
2024-09-07T0000,1616A,117.6795,36.229,济南市,技术学院,,23,22,18,9,6,73,,127,107,22,13,10,11,0.8,0.7
2024-09-07T0000,1961A,117.532,36.6868,济南市,东山小学,,42,42,37,12,9,56,,145,91,46,31,9,8,0.8,0.7
2024-09-07T0000,3059A,117.7161,36.2049,济南市,泰兴公司,,27,27,17,9,5,61,,122,99,34,15,10,10,0.6,0.6
2024-09-07T0000,3064A,117.6867,36.2171,济南市,莱芜战役纪念馆,,27,27,20,3,5,72,,124,109,24,13,11,11,0.5,0.5
2024-09-07T0000,3494A,117.1673,36.9782,济南市,济阳区政府,,42,42,28,7,5,64,,133,107,30,18,14,10,0.8,0.6
2024-09-07T0000,3495A,117.1171,36.63,济南市,锦屏中学,,21,15,20,3,5,67,,161,112,21,18,4,8,0.5,0.4
2024-09-07T0000,3682A,116.9814,36.6819,济南市,济南四建,,31,31,34,10,12,55,,143,104,44,33,8,15,0.6,0.7
2024-09-07T0000,1653A,116.6251,35.4302,济宁市,火炬城,,,50,30,14,8,,,145,133,26,14,10,10,0.8,0.6
2024-09-07T0000,1655A,116.5491,35.4042,济宁市,电化厂,,49,49,34,24,14,112,,152,131,20,15,9,9,0.7,0.6
2024-09-07T0000,3500A,116.5814,35.3707,济宁市,北湖一中,,46,46,28,17,11,95,,154,131,26,16,6,5,0.5,0.4
2024-09-07T0000,3501A,116.8249,35.5593,济宁市,服务中心,颗粒物(PM10),54,58,30,15,6,43,,132,102,56,15,7,7,0.5,0.4
2024-09-07T0000,3678A,116.5907,35.4054,济宁市,市第七中学,,42,42,32,17,9,110,,149,132,21,15,10,9,0.6,0.6
2024-09-07T0000,2255A,130.2751,46.8028,佳木斯市,佳纺,,19,14,14,3,4,59,,80,72,7,5,4,5,0.5,0.4
2024-09-07T0000,2256A,130.3995,46.8307,佳木斯市,发电厂,,21,21,16,9,5,60,,75,69,6,8,8,6,0.5,0.4
2024-09-07T0000,2257A,130.3258,46.7975,佳木斯市,环保局,,18,17,19,3,5,57,,74,68,7,6,7,8,0.4,0.4
2024-09-07T0000,2258A,130.3648,46.8032,佳木斯市,十一中,,24,24,19,8,7,57,,73,66,13,12,7,7,0.3,0.4
2024-09-07T0000,2259A,130.3794,46.7588,佳木斯市,四丰,,20,12,9,6,3,61,,72,68,8,8,1,1,0.3,0.3
2024-09-07T0000,1252A,120.7436,30.778,嘉兴市,清河小学,,50,50,36,34,23,46,,90,62,18,13,6,5,1.4,1
2024-09-07T0000,1253A,120.726,30.7478,嘉兴市,嘉兴学院,,49,43,35,34,24,54,,86,60,12,15,3,3,0.4,0.5
2024-09-07T0000,2872A,120.7846,30.7525,嘉兴市,南湖区残联,细颗粒物(PM2.5),52,52,36,36,25,42,,91,65,23,17,5,5,0.4,0.4
2024-09-07T0000,3407A,120.6916,30.7739,嘉兴市,秀洲住建,,,50,34,38,23,,,91,,15,13,4,4,0.6,0.5
2024-09-07T0000,1945A,98.2908,39.7711,嘉峪关市,气象局,,33,19,29,3,8,105,,133,119,11,16,3,4,0.2,0.3
2024-09-07T0000,2884A,98.2672,39.7978,嘉峪关市,酒钢宾馆,,33,22,27,3,10,104,,134,120,13,14,11,8,0.3,0.3
2024-09-07T0000,3248A,98.2643,39.7724,嘉峪关市,雄关区,,34,34,28,13,9,92,,128,114,18,18,9,8,0.4,0.4
2024-09-07T0000,1383A,113.1064,22.6058,江门市,北街,,17,11,11,7,6,52,,52,52,12,16,4,4,0.4,0.4
2024-09-07T0000,1384A,113.0731,22.5835,江门市,西区,,18,9,14,3,3,55,,51,51,10,14,4,5,0.5,0.5
2024-09-07T0000,1385A,113.0219,22.5311,江门市,圭峰西,,20,11,9,3,6,63,,52,52,8,11,2,3,0.3,0.3
2024-09-07T0000,1386A,113.0828,22.5947,江门市,东湖,,17,11,10,3,5,53,,50,50,11,14,5,5,0.3,0.4
2024-09-07T0000,3311A,113.1075,22.5647,江门市,江海富民,,22,17,21,15,10,61,,55,55,12,15,6,6,0.5,0.5
2024-09-07T0000,3449A,113.05,22.4667,江门市,新会银湖,,23,6,6,3,4,72,,53,53,2,7,4,4,0.6,0.6
2024-09-07T0000,1828A,113.227,35.2125,焦作市,市环保局,,39,39,31,13,15,93,,125,104,19,14,6,7,0.3,0.3
2024-09-07T0000,1830A,113.1992,35.2590,焦作市,影视城,,,,,,,,,,,,,,,,
2024-09-07T0000,3169A,113.2725,35.2067,焦作市,太极体育中心,,47,47,39,17,14,93,,128,105,16,10,5,5,0.5,0.6
2024-09-07T0000,3335A,113.3137,35.2641,焦作市,马村街道办,,39,39,35,10,14,86,,126,98,20,14,2,3,0.4,0.4
2024-09-07T0000,3336A,113.2465,35.2373,焦作市,焦作技师学院,,33,33,31,19,17,91,,124,104,16,12,5,6,0.5,0.5
2024-09-07T0000,3477A,113.1656,35.2539,焦作市,中站许衡医院,,35,30,26,19,19,111,,130,109,13,16,5,5,0.3,0.4
2024-09-07T0000,3981A,113.2449,35.1803,焦作市,原李万街道办,,39,39,34,17,12,89,,124,102,13,7,4,4,0.3,0.4
2024-09-07T0000,1708A,116.3701,23.5345,揭阳市,新兴,,14,13,16,9,9,43,,45,35,11,12,4,4,0.4,0.4
2024-09-07T0000,1709A,116.3264,23.5443,揭阳市,西马,,14,10,14,7,7,44,,49,40,5,5,7,5,0.4,0.5
2024-09-07T0000,1710A,116.3611,23.5626,揭阳市,东兴,,14,,18,6,8,42,,49,39,10,9,6,6,0.5,0.7
2024-09-07T0000,1711A,116.4151,23.5294,揭阳市,渔湖,,13,13,20,3,5,41,,43,35,12,12,4,4,0.4,0.5
2024-09-07T0000,3320A,116.403,23.5699,揭阳市,曲溪,,12,,11,3,8,37,,43,35,11,10,2,6,0.4,0.4
2024-09-07T0000,1944A,102.1692,38.5167,金昌市,天庆家园,,28,12,27,7,21,87,,99,89,8,11,10,10,0.3,0.6
2024-09-07T0000,3170A,102.1864,38.5253,金昌市,市委党校,,39,39,26,24,16,78,,111,98,18,9,102,16,1.7,0.7
2024-09-07T0000,4022A,102.1647,38.5371,金昌市,金川区人防中心,,30,22,28,7,15,95,,116,106,12,9,13,12,0.5,0.6
2024-09-07T0000,1262A,119.647,29.077,金华市,十五中,,45,45,31,22,13,62,,117,105,16,12,2,2,0.6,0.6
2024-09-07T0000,1263A,119.686,29.1029,金华市,监测站,颗粒物(PM10),51,51,33,28,17,60,,116,104,25,16,3,3,0.6,0.6
2024-09-07T0000,3659A,119.656,29.1131,金华市,气象局,细颗粒物(PM2.5),57,52,30,40,19,60,,114,100,26,18,6,5,1.0,0.8
2024-09-07T0000,1767A,121.1115,41.0879,锦州市,南山,,38,38,26,13,11,16,,80,59,59,25,10,12,0.7,0.7
2024-09-07T0000,1768A,121.0533,40.8434,锦州市,开发区,颗粒物(PM10),78,106,65,25,18,4,,101,49,95,45,19,27,0.8,0.8
2024-09-07T0000,1769A,121.1836,41.1119,锦州市,百股街道,,41,41,29,14,7,8,,84,51,36,21,8,11,0.8,0.7
2024-09-07T0000,1770A,121.1178,41.1222,锦州市,天安街道,,50,50,29,27,13,20,,86,56,51,28,14,15,0.9,0.6
2024-09-07T0000,1771A,121.1303,41.1386,锦州市,北湖公园,细颗粒物(PM2.5),53,46,25,37,13,11,,86,51,36,19,9,10,0.9,0.6
2024-09-07T0000,2160A,112.85,35.5051,晋城市,自来水公司,,38,31,35,3,12,121,,142,134,11,16,9,8,0.6,0.8
2024-09-07T0000,2161A,112.8318,35.4936,晋城市,白云商贸,,37,,33,7,10,116,,142,133,17,18,9,9,0.7,0.8
2024-09-07T0000,2162A,112.8508,35.4887,晋城市,市环保局,,36,36,36,12,11,113,,138,129,18,19,9,9,0.5,0.6
2024-09-07T0000,2163A,112.8676,35.4897,晋城市,技术学院,,38,29,29,7,11,119,,139,131,17,21,9,9,0.7,0.8
2024-09-07T0000,2165A,112.8453,35.546,晋城市,白马寺,,,,,,,,,,,,,,,,
2024-09-07T0000,3620A,112.8271,35.4828,晋城市,泽州一中,,32,32,32,7,10,93,,137,120,20,17,10,10,0.7,0.9
2024-09-07T0000,2171A,112.7532,37.6945,晋中市,锦纶小区,,29,27,24,9,8,90,,101,95,17,12,8,9,0.4,0.2
2024-09-07T0000,2173A,112.7249,37.7067,晋中市,南都小区,,31,31,27,16,15,87,,99,91,17,14,7,7,0.7,0.5
2024-09-07T0000,2174A,112.6991,37.6982,晋中市,榆次区政府,,31,31,27,18,16,86,,98,90,18,15,9,10,0.3,0.3
2024-09-07T0000,2865A,112.7195,37.6828,晋中市,榆次三中,,29,29,28,7,6,88,,99,92,13,12,9,9,0.6,0.5
2024-09-07T0000,2439A,112.2014,31.0481,荆门市,竹园小学,,47,47,44,17,17,106,,114,109,15,12,11,11,0.7,0.7
2024-09-07T0000,2440A,112.1969,30.9891,荆门市,掇刀,,42,42,43,22,20,112,,118,113,13,13,4,7,0.6,0.6
2024-09-07T0000,2441A,112.2213,31.0386,荆门市,石化一小,,42,42,48,14,13,110,,119,114,9,9,14,11,0.6,0.6
2024-09-07T0000,3012A,112.1849,31.0362,荆门市,西山林语,,40,40,41,18,18,118,,121,119,11,11,7,8,0.6,0.6
2024-09-07T0000,3547A,112.1632,31.0138,荆门市,龙泉中学南校,,43,43,38,16,16,115,,119,117,9,8,10,10,0.6,0.6
2024-09-07T0000,1844A,112.2494,30.3197,荆州市,市图书馆,,43,43,34,27,21,80,,130,106,17,11,9,8,0.7,0.6
2024-09-07T0000,1845A,112.2008,30.3544,荆州市,市委党校,,50,41,39,35,23,81,,136,108,18,10,13,10,0.7,0.7
2024-09-07T0000,3194A,112.2747,30.3122,荆州市,管委会,,38,38,33,26,20,81,,132,108,13,8,8,7,0.7,0.6
2024-09-07T0000,3548A,112.1655,30.3364,荆州市,学苑路,,46,43,37,32,23,88,,140,113,17,12,7,7,0.7,0.8
2024-09-07T0000,2342A,117.3102,29.3867,景德镇市,王港中学,,,,,,,,,,,,,,,,
2024-09-07T0000,2343A,117.2117,29.2933,景德镇市,老干部活动中心,,28,28,24,18,15,47,,106,71,21,9,14,5,0.3,0.3
2024-09-07T0000,2344A,117.1894,29.2789,景德镇市,兽医站,,32,32,30,14,16,58,,104,76,8,6,9,8,0.3,0.4
2024-09-07T0000,2345A,117.1547,29.2617,景德镇市,台达陶瓷,,23,23,24,16,15,61,,103,75,7,5,7,7,0.3,0.3
2024-09-07T0000,2346A,117.2461,29.2956,景德镇市,陶研所,,27,27,26,11,13,52,,112,65,13,11,4,4,0.3,0.3
2024-09-07T0000,1803A,115.9872,29.6815,九江市,十里,,35,29,33,17,20,111,,162,127,12,11,10,10,0.7,0.7
2024-09-07T0000,1804A,115.9584,29.7046,九江市,茅山头,,40,,32,28,22,115,,154,125,10,12,9,11,0.6,0.7
2024-09-07T0000,1805A,115.9877,29.7295,九江市,西园,,37,28,31,22,20,118,,162,124,12,13,8,8,0.6,0.6
2024-09-07T0000,1806A,116.0172,29.6547,九江市,五七二七厂,,32,25,27,12,19,100,,153,121,13,13,8,9,0.6,0.7
2024-09-07T0000,1808A,115.9114,29.6038,九江市,综合工业园,,42,42,40,16,18,105,,175,138,18,8,9,10,0.8,0.8
2024-09-07T0000,1809A,116.0721,29.7535,九江市,石化总厂,,43,39,36,30,24,110,,150,115,15,15,10,10,0.9,0.9
2024-09-07T0000,1810A,115.9773,29.5698,九江市,庐山气象台,,35,29,30,13,18,109,,156,136,3,6,6,13,0.6,1
2024-09-07T0000,3190A,116.0254,29.6994,九江市,外国语学校,,36,29,38,14,19,114,,162,126,11,12,10,9,0.6,0.6
2024-09-07T0000,2658A,98.5061,39.7443,酒泉市,仓门街子站,,29,29,22,17,11,73,,124,106,26,15,23,27,0.4,0.4
2024-09-07T0000,2659A,98.4989,39.7256,酒泉市,油田生活基地,,28,27,32,9,7,87,,132,115,21,18,26,42,0.3,0.3
2024-09-07T0000,2698A,76.0072,39.4467,喀什地区,巡警大队,颗粒物(PM10),131,212,178,63,38,25,,108,88,88,43,5,5,1.2,0.7
2024-09-07T0000,2699A,75.9755,39.4694,喀什地区,吾办,颗粒物(PM10),120,190,146,69,47,19,,108,84,67,30,2,2,1.1,0.5
2024-09-07T0000,4027A,75.9483,39.4689,喀什地区,老干局,颗粒物(PM10),168,285,169,51,31,15,,105,82,78,31,4,4,1.1,0.6
2024-09-07T0000,1824A,114.3389,34.7781,开封市,肿瘤医院,颗粒物(PM10),69,87,33,23,14,73,,134,112,18,10,5,6,0.4,0.3
2024-09-07T0000,1826A,114.2885,34.7965,开封市,世纪星幼儿园,,,76,29,,11,,,122,,17,11,2,3,0.5,0.5
2024-09-07T0000,3147A,114.3438,34.8106,开封市,龙亭公园,,,,29,,9,,,124,114,24,12,7,6,0.5,0.6
2024-09-07T0000,3210A,114.3644,34.7964,开封市,汴京公园,颗粒物(PM10),60,69,32,30,15,63,,130,106,24,11,6,6,0.6,0.5
2024-09-07T0000,3473A,114.2485,34.8306,开封市,技师学院,颗粒物(PM10),58,65,30,20,12,26,,124,92,54,15,6,10,0.8,0.6
2024-09-07T0000,3592A,114.4644,34.7556,开封市,祥符区生态环境局,颗粒物(PM10),55,59,36,26,14,44,,122,85,39,20,6,9,0.6,0.6
2024-09-07T0000,1951A,84.895,45.6094,克拉玛依市,长征新村,,33,21,28,3,5,103,,107,104,2,5,6,7,0.1,0.2
2024-09-07T0000,1952A,84.8988,45.5893,克拉玛依市,南林小区,,35,16,26,15,12,109,,110,109,2,8,8,9,0.2,0.3
2024-09-07T0000,1954A,84.905,44.3396,克拉玛依市,独山子区,,42,42,35,26,13,93,,121,97,14,12,8,11,0.4,0.4
2024-09-07T0000,1955A,85.6979,46.098,克拉玛依市,乌尔禾区商贸楼,,35,16,20,3,6,109,,110,110,2,5,8,11,0.2,0.3
2024-09-07T0000,3612A,85.1045,45.6899,克拉玛依市,白碱滩区新站,,35,16,25,3,7,111,,114,114,2,7,7,8,0.1,0.1
2024-09-07T0000,2697A,76.1454,39.7142,克孜勒苏柯尔克孜自治州,市人民政府,颗粒物(PM10),117,183,141,60,45,32,,116,87,59,19,2,4,0.7,0.6
2024-09-07T0000,3665A,76.1658,39.7157,克孜勒苏柯尔克孜自治州,克州文化中心,颗粒物(PM10),100,150,126,59,48,28,,116,95,80,18,6,9,0.6,0.5
2024-09-07T0000,1450A,102.8204,24.8886,昆明市,呈贡新区,,40,34,37,28,21,75,,127,104,22,22,6,7,0.7,0.6
2024-09-07T0000,1451A,102.6251,24.9608,昆明市,西山森林公园,,,,,,,,,,,,,,,,
2024-09-07T0000,1452A,102.7252,25.0902,昆明市,龙泉镇,,33,30,26,13,16,103,,141,124,11,17,6,7,0.6,0.8
2024-09-07T0000,1453A,102.7266,25.0375,昆明市,东风东路,,33,33,30,18,20,78,,134,114,26,20,8,6,0.6,0.6
2024-09-07T0000,1454A,102.6742,25.0669,昆明市,金鼎山,,33,26,32,18,18,103,,135,112,12,18,3,4,0.5,0.5
2024-09-07T0000,1455A,102.6644,25.0401,昆明市,碧鸡广场,,37,37,34,24,20,94,,132,102,16,18,4,5,0.6,0.6
2024-09-07T0000,3179A,102.7494,25.0119,昆明市,官渡区博物馆,,39,39,31,17,17,62,,136,106,40,25,6,7,0.4,0.4
2024-09-07T0000,3375A,102.8017,24.8336,昆明市,青年创业园,,41,41,28,25,21,29,,130,90,52,24,3,4,0.7,0.6
2024-09-07T0000,3550A,102.7997,24.9786,昆明市,昆明学院,颗粒物(PM10),56,61,52,36,29,33,,133,99,59,31,5,6,0.7,0.6
2024-09-07T0000,3551A,102.5967,24.6736,昆明市,晋宁区生态环境分局,颗粒物(PM10),64,77,32,44,20,50,,138,104,26,14,6,4,0.9,0.7
2024-09-07T0000,3552A,102.6678,24.9856,昆明市,云天化总部,,46,40,31,32,22,28,,142,110,57,19,5,6,0.6,0.5
2024-09-07T0000,1456A,91.1319,29.6514,拉萨市,八廓街,,18,18,16,9,7,57,,114,98,29,16,9,7,0.3,0.2
2024-09-07T0000,1457A,91.1221,29.6747,拉萨市,市环保局,,22,22,13,15,7,46,,106,84,32,17,8,8,0.5,0.4
2024-09-07T0000,1458A,91.0874,29.6475,拉萨市,区监测站,,20,15,11,13,7,63,,100,79,30,19,8,8,0.3,0.3
2024-09-07T0000,1459A,91.1774,29.6541,拉萨市,西藏大学,,18,17,11,9,6,56,,112,99,20,10,12,8,0.4,0.4
2024-09-07T0000,1460A,90.9798,29.6588,拉萨市,区辐射站,,27,16,10,8,6,86,,97,90,14,13,9,8,0.2,0.2
2024-09-07T0000,1461A,91.0834,29.6292,拉萨市,拉萨火车站,,23,11,9,9,6,73,,103,92,18,13,6,5,0.2,0.2
2024-09-07T0000,2520A,109.2203,23.7256,来宾市,来宾技工学校,,25,22,33,17,21,49,,95,57,11,10,4,7,0.8,0.8
2024-09-07T0000,3535A,109.1781,23.7297,来宾市,兴宾区政府,,23,23,31,14,18,58,,101,65,6,6,6,6,0.7,0.8
2024-09-07T0000,4002A,109.2416,23.7461,来宾市,中南小学,,29,24,36,20,22,54,,105,66,12,9,3,4,0.8,0.9
2024-09-07T0000,1476A,103.631,36.1031,兰州市,兰炼宾馆,,30,23,20,21,17,55,,84,74,25,12,4,3,0.3,0.3
2024-09-07T0000,1477A,104.1373,35.9454,兰州市,榆中兰大校区,,,,,,,,,,,,,,,,
2024-09-07T0000,1478A,103.8412,36.0726,兰州市,生物制品所,,20,,12,13,13,62,,82,77,13,11,8,7,0.3,0.4
2024-09-07T0000,1479A,103.831,36.0464,兰州市,铁路设计院,,33,23,20,23,20,48,,74,62,36,24,7,5,0.5,0.4
2024-09-07T0000,3186A,103.7158,36.1058,兰州市,教育港,,36,32,25,25,16,68,,85,79,17,11,6,5,0.3,0.3
2024-09-07T0000,3241A,103.7439,36.0842,兰州市,百合公园,,25,25,21,13,12,55,,82,72,27,13,5,5,0.5,0.4
2024-09-07T0000,3242A,103.9611,35.998,兰州市,和平,,18,13,13,8,8,57,,84,68,22,13,8,8,0.5,0.4
2024-09-07T0000,3245A,103.6633,36.533,兰州新区,新区管委会,,21,21,20,13,14,56,,93,76,14,9,4,5,0.5,0.4
2024-09-07T0000,3246A,103.6975,36.4789,兰州新区,舟曲中学,,20,15,9,10,6,63,,98,85,15,9,7,11,0.4,0.4
2024-09-07T0000,1067A,116.6708,39.5111,廊坊市,药材公司,颗粒物(PM10),53,56,38,24,12,49,,132,93,31,27,2,2,0.6,0.4
2024-09-07T0000,1068A,116.7214,39.5589,廊坊市,开发区,,41,41,28,16,13,90,,126,98,19,18,2,2,0.5,0.3
2024-09-07T0000,1070A,116.7244,39.5269,廊坊市,北华航天学院,颗粒物(PM10),52,54,43,11,12,96,,139,122,15,24,3,3,0.5,0.4
2024-09-07T0000,2919A,116.7022,39.5453,廊坊市,河北工业大学,颗粒物(PM10),51,52,41,21,15,79,,137,115,21,28,2,2,0.5,0.4
2024-09-07T0000,2535A,103.7723,29.5462,乐山市,花湖湾,颗粒物(PM10),52,53,19,33,18,73,,159,140,20,12,7,5,0.6,0.4
2024-09-07T0000,2536A,103.7627,29.5844,乐山市,牛耳桥,,39,35,24,27,16,82,,151,129,23,17,3,3,0.5,0.4
2024-09-07T0000,2537A,103.7508,29.6006,乐山市,市第三水厂,,33,33,25,19,16,88,,156,132,25,18,2,2,0.5,0.4
2024-09-07T0000,2538A,103.7571,29.5664,乐山市,市监测站,,37,37,24,24,16,91,,156,142,17,12,3,3,0.5,0.4
2024-09-07T0000,3361A,103.7311,29.5628,乐山市,理工大学,,42,35,24,29,18,75,,160,132,22,14,6,6,0.6,0.5
2024-09-07T0000,2598A,100.2143,26.8576,丽江市,西南郊,,,,,,,,,,,,,,,,
2024-09-07T0000,2599A,100.2497,26.8802,丽江市,丽江古城,,33,33,18,22,15,32,,88,62,16,15,8,8,0.7,0.6
2024-09-07T0000,2600A,100.2203,26.8906,丽江市,市中心,,24,24,15,14,12,27,,95,64,13,13,9,9,0.8,0.7
2024-09-07T0000,1267A,119.914,28.4514,丽水市,监测站大楼,,19,15,18,13,9,49,,68,61,6,8,3,4,0.4,0.4
2024-09-07T0000,1268A,119.93,28.4586,丽水市,莲都小学,,20,20,17,13,10,49,,71,62,8,8,4,4,0.4,0.4
2024-09-07T0000,1269A,119.879,28.4231,丽水市,余庄前,,16,16,17,10,10,16,,69,50,17,11,4,4,0.4,0.4
2024-09-07T0000,1173A,119.176,34.5885,连云港市,市环境监测站,,34,17,26,9,8,106,,121,115,13,14,7,7,0.4,0.4
2024-09-07T0000,3000A,119.3581,34.6972,连云港市,德源药业,,34,34,25,9,8,45,,117,97,46,10,5,5,0.3,0.3
2024-09-07T0000,3007A,119.178,34.844,连云港市,新城一中,,39,26,23,10,10,124,,132,121,21,26,4,8,0.6,1.1
2024-09-07T0000,3008A,119.3608,34.7519,连云港市,胡沟管理处,,31,31,25,7,7,85,,122,88,35,16,6,6,0.6,0.6
2024-09-07T0000,3009A,119.1478,34.5911,连云港市,矿山设计院,,31,24,26,14,10,97,,121,111,12,12,6,7,0.6,0.6
2024-09-07T0000,3434A,119.2413,34.6539,连云港市,工贸学校,,33,21,24,10,10,104,,124,108,10,12,6,7,0.6,0.7
2024-09-07T0000,3664A,119.4172,34.7341,连云港市,连云街道,,41,20,22,8,8,130,,126,122,5,11,5,5,0.5,0.5
2024-09-07T0000,2571A,102.3431,27.8099,凉山彝族自治州,青龙寺,,33,33,14,10,7,58,,108,84,8,5,5,5,0.8,0.6
2024-09-07T0000,2572A,102.2721,27.8415,凉山彝族自治州,邛海宾馆,,19,15,17,13,12,51,,110,82,18,11,9,8,0.6,0.6
2024-09-07T0000,2573A,102.2625,27.898,凉山彝族自治州,西昌市政府,,21,11,15,3,10,66,,114,90,5,8,7,7,0.4,0.4
2024-09-07T0000,2574A,102.2685,27.8851,凉山彝族自治州,凉山州政府,,20,16,19,14,13,63,,116,92,11,11,7,7,0.7,0.7
2024-09-07T0000,2575A,102.237,27.8914,凉山彝族自治州,长安,,28,28,25,17,14,52,,119,85,14,14,8,8,0.9,0.8
2024-09-07T0000,2212A,123.2,41.1953,辽阳市,宏伟区,,37,37,29,8,6,31,,89,50,29,26,8,10,0.6,0.6
2024-09-07T0000,2213A,123.1683,41.2495,辽阳市,新华园,颗粒物(PM10),51,51,34,10,8,18,,80,38,42,30,11,10,0.7,0.7
2024-09-07T0000,2214A,123.2354,41.2639,辽阳市,滨河路,颗粒物(PM10),51,51,46,7,12,28,,86,32,32,28,10,12,0.4,0.5
2024-09-07T0000,2215A,123.149,41.2991,辽阳市,铁西工业园,颗粒物(PM10),72,93,46,44,18,2,,74,25,34,25,10,11,1.0,0.8
2024-09-07T0000,2227A,125.1358,42.8845,辽源市,环保局,,30,30,20,12,8,13,,82,34,20,14,6,6,0.6,0.5
2024-09-07T0000,3239A,125.0764,42.9078,辽源市,银鹰制药,,25,25,17,12,7,9,,79,35,27,17,6,5,0.8,0.7
2024-09-07T0000,1625A,115.9848,36.4372,聊城市,区政府,,39,39,28,12,8,77,,155,134,38,20,13,15,0.5,0.5
2024-09-07T0000,2878A,116.0072,36.4343,聊城市,聊大东校,,34,34,27,19,15,87,,161,140,29,20,11,13,0.4,0.4
2024-09-07T0000,3200A,115.9819,36.4978,聊城市,监控中心,,42,42,31,14,10,41,,138,79,59,32,7,10,0.3,0.3
2024-09-07T0000,3513A,116.0445,36.4361,聊城市,九州社区,,39,39,32,19,11,72,,151,126,33,16,8,5,0.4,0.4
2024-09-07T0000,4018A,116.0567,36.4608,聊城市,星美广场,,47,47,34,16,10,60,,151,119,42,20,8,10,0.4,0.4
2024-09-07T0000,2632A,94.3681,29.6376,林芝市,林芝监测站,,16,13,7,3,3,50,,68,59,2,2,10,9,0.2,0.3
2024-09-07T0000,2633A,94.3616,29.6616,林芝市,林芝人民医院,,11,9,7,6,4,34,,68,57,6,4,7,7,0.2,0.2
2024-09-07T0000,2603A,100.0781,23.8982,临沧市,市环保局,,43,34,27,30,17,30,,84,55,9,10,5,5,0.4,0.4
2024-09-07T0000,2604A,100.0894,23.8822,临沧市,市气象局,,36,26,20,25,17,33,,89,,8,10,5,5,0.4,0.4
2024-09-07T0000,1733A,111.5531,36.0783,临汾市,临钢医院,颗粒物(PM10),59,67,48,24,19,59,,138,115,37,15,6,4,0.7,0.7
2024-09-07T0000,1734A,111.5028,36.0714,临汾市,技工学校,颗粒物(PM10),60,70,49,22,19,83,,146,120,25,15,10,7,0.8,0.8
2024-09-07T0000,1736A,111.5018,36.0855,临汾市,市委,,40,40,36,13,13,91,,156,129,20,13,9,7,0.7,0.7
2024-09-07T0000,3018A,111.505,36.1014,临汾市,唐尧大酒店,,45,45,37,17,15,88,,142,120,17,12,7,6,0.7,0.7
2024-09-07T0000,3668A,111.5036,36.0414,临汾市,城南,颗粒物(PM10),67,84,44,30,19,40,,152,112,48,13,6,6,0.7,0.7
2024-09-07T0000,2667A,103.2069,35.5993,临夏回族自治州,环保局,,35,35,29,6,6,58,,71,60,10,9,7,7,0.5,0.5
2024-09-07T0000,2668A,103.2417,35.6057,临夏回族自治州,建设大厦,,28,28,19,7,15,58,,74,68,17,9,6,6,0.5,0.4
2024-09-07T0000,1618A,118.3429,35.0532,临沂市,沂河小区,,30,29,25,14,10,94,,140,119,12,10,7,7,0.3,0.3
2024-09-07T0000,1619A,118.295,35.0583,临沂市,鲁南制药厂,,39,19,21,9,5,122,,153,135,14,15,7,6,0.4,0.3
2024-09-07T0000,1620A,118.2794,34.9976,临沂市,新光毛纺厂,,34,34,18,15,6,82,,144,119,28,15,11,6,0.6,0.5
2024-09-07T0000,1621A,118.3956,35.0888,临沂市,河东保险公司,,34,34,22,23,12,79,,145,120,25,19,7,7,0.6,0.5
2024-09-07T0000,3370A,118.3564,35.0215,临沂市,十里堡居委,,32,14,15,14,7,100,,142,121,15,14,8,8,0.6,0.5
2024-09-07T0000,3496A,118.3604,35.1084,临沂市,南坊新区,,46,46,26,12,5,70,,146,117,31,14,8,9,0.6,0.4
2024-09-07T0000,3860A,118.3920,35.0300,临沂市,皇山花园小区,,31,31,24,18,12,82,,132,111,24,17,6,6,0.5,0.4
2024-09-07T0000,1870A,109.4856,24.3895,柳州市,柳东小学,,23,19,31,15,20,73,,89,74,8,10,7,8,0.7,0.7
2024-09-07T0000,1871A,109.4157,24.3277,柳州市,环保监测站,,29,20,33,20,22,71,,92,75,6,10,7,9,0.8,0.8
2024-09-07T0000,1872A,109.389,24.341,柳州市,河西水厂,,33,33,46,20,27,62,,88,69,7,11,6,15,0.8,1.1
2024-09-07T0000,1873A,109.4311,24.2921,柳州市,市四中,,25,17,28,17,22,79,,99,82,6,8,6,6,0.7,0.7
2024-09-07T0000,1874A,109.4006,24.3631,柳州市,市九中,,30,30,38,20,22,60,,93,69,10,10,5,9,0.6,0.7
2024-09-07T0000,1875A,109.4958,24.3134,柳州市,古亭山,,26,26,31,16,20,78,,97,79,8,7,7,7,0.7,0.8
2024-09-07T0000,3402A,109.5422,24.3996,柳州市,市二中,,24,22,34,12,18,76,,92,75,9,11,8,7,0.7,0.8
2024-09-07T0000,2307A,116.5079,31.737,六安市,监测大楼,,41,41,51,21,43,52,,91,66,7,7,5,5,0.7,0.9
2024-09-07T0000,2308A,116.4738,31.7643,六安市,皖西学院,,43,43,56,25,36,52,,93,68,8,8,4,5,0.4,0.5
2024-09-07T0000,2309A,116.4996,31.7905,六安市,朝阳厂,,39,39,49,22,32,48,,88,63,6,7,3,1,0.4,0.6
2024-09-07T0000,2310A,116.5567,31.7886,六安市,开发区,,50,50,59,21,30,49,,87,62,8,9,3,3,0.5,0.6
2024-09-07T0000,2576A,104.8,26.5892,六盘水市,窑上,,,,,,,,,,,,,,,,
2024-09-07T0000,2577A,104.83,26.5917,六盘水市,黄土坡,,,23,30,20,24,102,,128,110,7,13,7,10,,0.6
2024-09-07T0000,2578A,104.89,26.5939,六盘水市,水钢,颗粒物(PM10),51,51,39,20,20,83,,128,103,24,16,7,10,1.0,0.8
2024-09-07T0000,2579A,104.8475,26.5894,六盘水市,民中,,32,19,26,17,19,101,,128,104,7,17,7,10,0.5,0.7
2024-09-07T0000,2580A,104.9544,26.5506,六盘水市,双水,,41,41,35,17,19,77,,128,93,16,15,6,10,0.5,0.5
2024-09-07T0000,2335A,117.0189,25.1181,龙岩市,龙岩师专,,,,,,,,,,,,,,,,
2024-09-07T0000,2336A,117.0217,25.1033,龙岩市,龙岩市监测站,,20,15,15,14,12,29,,66,43,16,12,9,8,0.4,0.7
2024-09-07T0000,2337A,117.0258,25.0661,龙岩市,闽西职业技术学院,,20,20,16,13,8,16,,71,46,23,9,5,5,0.5,0.6
2024-09-07T0000,2338A,117.0196,25.0306,龙岩市,龙岩学院,,11,11,16,7,8,18,,68,50,22,10,3,4,0.4,0.6
2024-09-07T0000,2665A,105.0822,33.3261,陇南市,汉王镇固水子,,,,,,,,,,,,,,,,
2024-09-07T0000,2885A,104.9339,33.3826,陇南市,滨江中学,,40,40,38,25,16,104,,102,102,8,10,6,7,0.6,0.6
2024-09-07T0000,3247A,104.955,33.371,陇南市,市总工会,,35,35,37,20,12,112,,107,107,5,8,7,8,0.5,0.6
2024-09-07T0000,2487A,111.9589,27.8901,娄底市,电视发射台,颗粒物(PM10),53,56,65,28,31,127,,124,124,6,6,7,7,0.8,0.7
2024-09-07T0000,2488A,111.9975,27.725,娄底市,市监测站,,43,40,56,30,34,118,,118,118,8,7,4,4,0.8,0.8
2024-09-07T0000,2489A,112.0194,27.7314,娄底市,市委党校,,48,45,54,33,33,113,,113,113,5,6,4,5,0.6,0.6
2024-09-07T0000,2490A,111.9561,27.7569,娄底市,涟钢,,46,46,56,19,33,102,,103,103,19,18,5,6,1.2,1.4
2024-09-07T0000,2491A,111.9892,27.7044,娄底市,市政府,,49,36,48,34,38,125,,125,124,8,9,3,5,0.6,0.7
2024-09-07T0000,1893A,105.4324,28.9634,泸州市,九狮山,,30,30,24,20,16,32,,124,83,15,7,4,4,0.3,0.4
2024-09-07T0000,1894A,105.4427,28.9063,泸州市,小市上码头,,26,25,25,18,13,71,,142,105,15,14,5,5,0.5,0.5
2024-09-07T0000,1895A,105.4241,28.8573,泸州市,兰田宪桥,,33,33,25,22,16,54,,148,97,19,16,6,6,0.5,0.5
2024-09-07T0000,1896A,105.4379,28.8833,泸州市,市环监站,,38,37,28,26,20,73,,140,104,15,13,4,5,0.4,0.5
2024-09-07T0000,3490A,105.3617,28.7703,泸州市,纳溪区环保局,细颗粒物(PM2.5),60,,25,43,22,68,,154,107,16,13,21,7,0.4,0.4
2024-09-07T0000,2183A,111.1406,37.5211,吕梁市,环保局,颗粒物(PM10),57,64,59,39,24,32,,98,71,32,27,7,5,0.8,0.7
2024-09-07T0000,2185A,111.1297,37.5136,吕梁市,自来水公司,颗粒物(PM10),57,64,60,33,25,28,,99,73,34,25,8,5,0.8,0.7
2024-09-07T0000,2867A,111.1283,37.51,吕梁市,马茂庄小学,颗粒物(PM10),59,67,64,32,24,40,,96,64,31,34,9,6,0.5,0.5
2024-09-07T0000,1812A,112.3931,34.6516,洛阳市,市委党校,,35,35,28,16,14,81,,143,112,19,9,7,7,0.5,0.5
2024-09-07T0000,1814A,112.4657,34.6871,洛阳市,豫西宾馆,,37,37,33,13,12,76,,140,104,17,9,11,8,0.3,0.4
2024-09-07T0000,1815A,112.494,34.6886,洛阳市,河南林校,,33,33,25,16,13,75,,143,103,20,13,10,8,0.5,0.5
2024-09-07T0000,1816A,112.3844,34.623,洛阳市,开发区管委会,,30,30,23,16,14,78,,142,112,13,8,3,4,0.3,0.3
2024-09-07T0000,1817A,112.4267,34.6258,洛阳市,市委新办公区,,33,33,26,17,16,74,,141,110,16,5,4,3,0.5,0.5
2024-09-07T0000,3340A,112.6005,34.6326,洛阳市,伊滨,,43,43,28,17,15,66,,141,106,23,12,8,7,0.5,0.4
2024-09-07T0000,3341A,112.4951,34.6332,洛阳市,中移产业园,,37,37,29,20,15,70,,147,110,22,9,5,4,0.6,0.6
2024-09-07T0000,3593A,112.5736,34.8993,洛阳市,吉利监测站,,39,39,30,14,14,67,,130,102,24,9,6,4,0.4,0.4
2024-09-07T0000,3635A,112.3677,34.662,洛阳市,河科大西苑校区,,33,33,25,12,12,80,,147,116,21,9,6,5,0.5,0.6
2024-09-07T0000,3636A,112.4388,34.6781,洛阳市,英才小学,,33,33,24,17,16,76,,141,105,20,12,6,4,0.4,0.4
2024-09-07T0000,2399A,114.051,33.5699,漯河市,三五一五工厂,颗粒物(PM10),57,63,41,26,19,64,,119,87,12,10,6,6,0.8,0.8
2024-09-07T0000,2400A,114.0055,33.5698,漯河市,漯河大学,颗粒物(PM10),55,59,38,31,18,66,,124,95,15,9,4,5,0.6,0.6
2024-09-07T0000,2401A,114.0138,33.5828,漯河市,市水利局,颗粒物(PM10),62,73,38,29,17,66,,120,92,9,6,4,4,0.6,0.6
2024-09-07T0000,2402A,114.0261,33.5698,漯河市,市广电局,颗粒物(PM10),58,66,35,36,16,65,,122,91,12,8,6,7,0.6,0.6
2024-09-07T0000,3478A,113.9749,33.5664,漯河市,市图书馆,颗粒物(PM10),64,77,38,41,19,57,,127,96,14,8,8,8,0.6,0.5
2024-09-07T0000,3479A,114.0967,33.5906,漯河市,召陵区卫健委,颗粒物(PM10),61,72,41,39,23,44,,122,79,22,10,6,6,0.7,0.6
2024-09-07T0000,1798A,118.5092,31.6837,马鞍山市,湖东路四小,,42,32,44,29,31,71,,158,115,12,16,6,6,0.8,0.9
2024-09-07T0000,1799A,118.5024,31.6449,马鞍山市,开发区,,36,36,46,23,28,72,,162,118,9,15,5,6,0.9,0.9
2024-09-07T0000,1800A,118.5228,31.7231,马鞍山市,慈湖,,48,48,46,24,29,73,,158,113,8,12,7,7,0.9,1
2024-09-07T0000,1802A,118.6245,31.7241,马鞍山市,濮塘,,30,30,35,20,27,66,,148,106,15,18,6,6,0.8,0.9
2024-09-07T0000,3633A,118.4918,31.6809,马鞍山市,雨山,,32,32,41,22,26,68,,155,114,8,12,7,8,0.9,0.9
2024-09-07T0000,1686A,111.0286,21.4688,茂名市,电白南海,,44,44,21,22,9,82,,78,78,3,5,8,9,0.6,0.6
2024-09-07T0000,1687A,110.9294,21.6533,茂名市,茂石化七小,,29,29,15,7,4,77,,68,68,2,4,5,6,0.4,0.4
2024-09-07T0000,1688A,110.9107,21.6687,茂名市,健康路,,27,27,11,3,4,79,,71,71,2,4,10,11,0.5,0.5
2024-09-07T0000,1689A,110.8592,21.6828,茂名市,高岭,,23,19,24,7,6,71,,69,69,8,4,19,8,0.6,0.5
2024-09-07T0000,3450A,111.01,21.5165,茂名市,电白水东,,34,34,16,17,8,75,,70,70,3,6,4,5,0.4,0.4
2024-09-07T0000,2539A,104.0308,30.0478,眉山市,黑龙滩水库,细颗粒物(PM2.5),57,42,38,40,27,97,,171,148,6,7,2,3,0.5,0.4
2024-09-07T0000,2540A,103.8416,30.0874,眉山市,气象局,,35,35,28,22,17,66,,159,136,32,27,7,6,0.5,0.5
2024-09-07T0000,3137A,103.8578,30.0744,眉山市,市委党校,,34,34,24,9,11,107,,161,148,16,19,7,8,0.4,0.4
2024-09-07T0000,3148A,103.8291,30.0564,眉山市,区人社局,,32,28,22,9,10,101,,163,147,24,25,8,8,0.5,0.5
2024-09-07T0000,1690A,116.1231,24.3284,梅州市,梅江月梅,,,,15,,7,,,50,36,,5,,6,,0.4
2024-09-07T0000,1691A,116.0797,24.2719,梅州市,梅县新城,,11,11,14,3,7,30,,49,35,12,9,4,4,0.3,0.3
2024-09-07T0000,1692A,116.1248,24.2654,梅州市,环境监控中心,,9,9,17,3,8,28,,44,28,13,11,4,6,0.4,0.4
2024-09-07T0000,3315A,116.1233,24.2991,梅州市,梅龙,,19,19,10,8,6,32,,50,38,8,5,9,8,0.5,0.5
2024-09-07T0000,1878A,104.7778,31.4741,绵阳市,富乐山,,35,29,28,24,22,78,,135,118,9,9,2,2,0.6,0.5
2024-09-07T0000,1879A,104.7563,31.4535,绵阳市,市人大,,32,30,31,22,21,93,,142,123,11,12,9,8,0.5,0.5
2024-09-07T0000,1880A,104.6697,31.4668,绵阳市,高新区自来水公司,,34,34,29,22,17,77,,143,121,17,13,1,2,0.7,0.6
2024-09-07T0000,1881A,104.7287,31.5075,绵阳市,三水厂,,36,28,30,25,23,76,,135,117,16,12,5,4,0.7,0.6
2024-09-07T0000,3491A,104.69,31.5322,绵阳市,西科大附属小学,,45,45,35,24,21,72,,135,114,25,17,4,4,0.6,0.6
2024-09-07T0000,3492A,104.5648,31.5343,绵阳市,安州区旅游局,,49,42,32,34,23,90,,144,123,11,13,8,8,0.6,0.6
2024-09-07T0000,1784A,129.61,44.561,牡丹江市,环保大楼,,25,25,22,14,14,30,,63,39,14,11,7,7,0.3,0.3
2024-09-07T0000,1785A,129.6115,44.5782,牡丹江市,文化广场,,28,20,23,19,18,24,,58,32,19,14,9,8,0.3,0.3
2024-09-07T0000,1786A,129.5904,44.5963,牡丹江市,第一医院,,41,41,29,21,19,12,,66,25,18,14,6,6,0.4,0.3
2024-09-07T0000,1787A,129.6364,44.6075,牡丹江市,机车工厂,,32,31,29,22,18,5,,60,26,18,12,6,6,0.3,0.3
2024-09-07T0000,1788A,129.6386,44.5462,牡丹江市,第一中学,,30,28,25,21,14,25,,66,34,22,12,6,6,0.3,0.2
2024-09-07T0000,2531A,105.0703,29.61,内江市,市监测站,,32,25,26,15,18,101,,154,134,12,13,4,5,0.3,0.4
2024-09-07T0000,2532A,105.0717,29.5947,内江市,东兴区政府,,34,16,22,11,12,106,,141,123,14,17,3,3,0.5,0.6
2024-09-07T0000,2533A,105.0653,29.5817,内江市,内江二中,,34,,19,16,19,106,,149,127,13,14,6,6,0.5,0.6
2024-09-07T0000,2534A,105.0406,29.5822,内江市,内江日报社,,33,21,24,15,18,103,,148,126,20,22,4,5,0.4,0.5
2024-09-07T0000,2628A,92.0657,31.4846,那曲市,那曲监测站,,25,24,18,17,19,66,,115,68,6,8,6,6,0.3,0.4
2024-09-07T0000,3128A,92.0506,31.4797,那曲市,那曲会议中心,,23,14,13,3,7,73,,119,77,7,9,4,5,0.5,0.5
2024-09-07T0000,1290A,115.8931,28.6843,南昌市,省外办,,33,32,40,22,22,105,,137,130,16,14,9,9,0.5,0.4
2024-09-07T0000,1291A,115.8886,28.7003,南昌市,省林业公司,,34,34,34,19,19,108,,145,136,15,11,8,7,0.6,0.7
2024-09-07T0000,1292A,115.8126,28.7442,南昌市,林科所,,39,27,26,17,13,123,,139,135,16,15,9,9,0.7,0.7
2024-09-07T0000,1294A,115.8518,28.687,南昌市,建工学校,,37,33,33,14,16,116,,144,136,14,10,10,10,0.7,0.7
2024-09-07T0000,1295A,115.8921,28.6424,南昌市,象湖,,38,31,28,19,18,121,,149,145,12,8,5,4,0.5,0.6
2024-09-07T0000,1296A,115.7423,28.7996,南昌市,武术学校,,46,46,27,23,18,62,,121,81,10,7,2,2,0.8,0.7
2024-09-07T0000,1298A,115.9314,28.6842,南昌市,省站,,35,28,28,22,21,109,,134,128,5,9,7,7,0.7,0.7
2024-09-07T0000,3046A,115.9084,28.6062,南昌市,机电学校,,40,38,37,14,17,125,,141,138,7,7,8,8,0.4,0.5
2024-09-07T0000,3690A,115.9721,28.7031,南昌市,外国语学校,,36,34,32,21,17,114,,145,140,10,8,6,6,0.5,0.5
2024-09-07T0000,1905A,106.056,30.8064,南充市,西山风景区,,34,,35,21,35,106,,135,124,6,7,1,3,1.0,1.1
2024-09-07T0000,1906A,106.0789,30.8023,南充市,南充市委,,33,20,49,15,37,104,,144,126,12,14,6,7,0.4,0.6
2024-09-07T0000,1907A,106.1031,30.8217,南充市,南充炼油厂,,46,44,51,32,39,98,,150,130,10,12,2,5,0.5,0.6
2024-09-07T0000,1908A,106.1064,30.7856,南充市,高坪区监测站,,34,22,50,19,37,107,,145,125,13,17,3,4,0.4,0.5
2024-09-07T0000,1909A,106.0642,30.7636,南充市,嘉陵区环保局,,33,33,48,22,37,95,,141,123,19,17,4,6,0.4,0.6
2024-09-07T0000,1910A,106.1087,30.8388,南充市,市环境监测站,,31,31,51,20,36,95,,146,127,12,15,2,3,0.4,0.5
2024-09-07T0000,1151A,118.8086,32.1065,南京市,迈皋桥,,24,24,31,14,21,64,,120,81,14,18,4,4,0.3,0.3
2024-09-07T0000,1152A,118.7538,32.0551,南京市,草场门,,31,31,37,14,22,63,,125,82,15,16,5,6,0.6,0.6
2024-09-07T0000,1153A,118.7794,32.0745,南京市,山西路,,31,31,41,12,24,67,,126,85,10,9,4,4,0.5,0.6
2024-09-07T0000,1154A,118.7752,32.0023,南京市,中华门,,27,27,33,17,21,63,,122,81,20,20,5,5,0.5,0.6
2024-09-07T0000,1155A,118.8109,32.0309,南京市,瑞金路,,28,24,41,19,24,68,,130,83,4,9,4,5,0.5,0.6
2024-09-07T0000,1156A,118.7997,32.0754,南京市,玄武湖,,32,32,42,14,19,62,,124,82,15,14,6,6,0.8,0.8
2024-09-07T0000,1157A,118.6414,32.0931,南京市,浦口,,28,28,40,16,24,66,,109,78,5,9,3,5,0.5,0.8
2024-09-07T0000,1158A,118.7356,31.9996,南京市,奥体中心,,31,31,37,19,26,66,,136,87,12,15,4,5,0.5,0.6
2024-09-07T0000,1159A,118.9125,32.1028,南京市,仙林大学城,,29,29,37,19,28,72,,126,85,10,14,7,7,0.5,0.6
2024-09-07T0000,3422A,118.8436,31.9198,南京市,江宁彩虹桥,,35,30,40,24,24,62,,134,90,7,11,4,4,0.6,0.7
2024-09-07T0000,3423A,119.0138,31.6494,南京市,溧水永阳,,29,29,35,18,23,50,,177,114,13,17,4,4,0.6,0.7
2024-09-07T0000,3424A,118.879,31.3302,南京市,高淳老职中,,38,,29,26,20,55,,141,114,15,13,5,7,0.5,0.5
2024-09-07T0000,3427A,118.8554,32.3578,南京市,六合雄州,,22,21,39,6,23,70,,106,78,6,8,2,2,0.5,0.7
2024-09-07T0000,1401A,108.3103,22.7881,南宁市,二十一中,,24,24,37,15,23,65,,95,74,7,14,4,8,0.6,0.8
2024-09-07T0000,1402A,108.3141,22.8528,南宁市,北湖,,27,27,38,16,28,62,,86,67,8,19,3,12,0.6,0.7
2024-09-07T0000,1403A,108.3206,22.8225,南宁市,市监测站,,30,30,35,18,24,66,,87,69,7,18,5,9,0.8,0.9
2024-09-07T0000,1404A,108.3829,22.8037,南宁市,大自然花园,,22,19,30,15,22,67,,95,74,9,13,8,5,0.6,0.7
2024-09-07T0000,1405A,108.4394,22.7904,南宁市,仙葫,,23,23,37,13,22,66,,89,72,5,12,8,9,0.7,0.8
2024-09-07T0000,1406A,108.2397,22.8467,南宁市,区农职院,,24,24,38,12,23,62,,89,68,5,9,5,6,0.7,0.8
2024-09-07T0000,1407A,108.3275,22.735,南宁市,英华嘉园,,27,27,36,16,25,66,,93,73,8,18,7,7,0.6,0.7
2024-09-07T0000,1408A,108.2257,22.7757,南宁市,沙井镇街道办,,24,24,45,14,25,64,,91,67,7,21,2,5,0.6,0.7
2024-09-07T0000,3401A,108.4834,22.7618,南宁市,红星社区,,29,29,34,17,24,65,,96,72,6,13,7,8,0.7,0.8
2024-09-07T0000,2331A,118.0966,26.6761,南平市,茫荡山,,,,,,,,,,,,,,,,
2024-09-07T0000,2332A,118.1681,26.6369,南平市,南平市监测站,,14,14,15,6,9,4,,65,32,22,12,6,5,0.8,0.6
2024-09-07T0000,2333A,118.1825,26.6489,南平市,南平铝业有限公司,,24,24,17,3,9,5,,64,30,20,14,5,6,0.6,0.6
2024-09-07T0000,2334A,118.1756,26.6272,南平市,南平七中,,21,21,21,8,11,8,,64,32,19,10,4,6,0.7,0.6
2024-09-07T0000,1168A,120.9098,31.9663,南通市,狼山街道,细颗粒物(PM2.5),59,50,25,42,17,34,,94,54,12,14,8,7,0.4,0.5
2024-09-07T0000,1169A,120.86,32.0005,南通市,虹桥,细颗粒物(PM2.5),58,50,28,41,16,32,,86,52,14,12,7,7,0.5,0.5
2024-09-07T0000,1170A,120.87,32.02,南通市,城中,细颗粒物(PM2.5),55,52,29,39,13,44,,88,58,12,13,8,7,0.9,0.9
2024-09-07T0000,1171A,120.94,31.93,南通市,星湖花园,,48,38,19,33,15,56,,92,62,10,12,6,6,0.5,0.6
2024-09-07T0000,1172A,120.81,32.0417,南通市,紫琅学院,,48,40,17,33,10,35,,84,51,17,14,9,8,0.5,0.6
2024-09-07T0000,3291A,121.067,32.062,南通市,通州监测站,细颗粒物(PM2.5),55,48,25,39,15,53,,90,60,6,8,4,4,0.6,0.7
2024-09-07T0000,3432A,120.9348,31.9883,南通市,环境教育馆,细颗粒物(PM2.5),57,48,38,40,26,30,,85,55,14,9,5,5,0.5,0.5
2024-09-07T0000,2404A,112.5224,33.0122,南阳市,瓦房庄,,38,38,32,22,14,119,,142,132,11,11,6,4,0.5,0.4
2024-09-07T0000,2405A,112.5003,32.9735,南阳市,汉画馆,,46,46,34,26,21,110,,133,125,13,12,7,6,0.5,0.4
2024-09-07T0000,2406A,112.5573,33.027,南阳市,气象站,,39,39,28,17,9,113,,140,129,13,11,8,6,0.6,0.5
2024-09-07T0000,2407A,112.5481,32.9689,南阳市,理工学院,,42,42,30,12,9,106,,140,127,13,11,7,6,0.5,0.4
2024-09-07T0000,4008A,112.5234,32.9922,南阳市,卧龙区政府,,42,42,31,19,15,113,,134,125,13,14,7,6,0.6,0.5
2024-09-07T0000,1234A,121.8358,29.911,宁波市,区环保大楼,,50,50,46,34,30,37,,82,38,16,23,5,5,0.6,0.6
2024-09-07T0000,1235A,121.56,29.82,宁波市,万里学院,细颗粒物(PM2.5),55,,29,39,26,42,,82,55,14,15,11,11,0.5,0.5
2024-09-07T0000,1236A,121.713,29.9572,宁波市,龙赛医院,,38,38,34,25,22,38,,83,45,17,26,8,12,0.5,0.8
2024-09-07T0000,1239A,121.633,29.7733,宁波市,钱湖水厂,,45,38,30,31,23,38,,77,52,10,9,8,8,0.4,0.4
2024-09-07T0000,1240A,121.5856,29.8635,宁波市,太古小学,颗粒物(PM10),51,51,40,29,22,36,,87,49,19,18,14,9,0.7,0.7
2024-09-07T0000,1241A,121.524,29.8674,宁波市,市环境监测中心,,46,40,33,32,19,50,,89,53,10,15,7,6,0.6,0.6
2024-09-07T0000,2871A,121.6147,29.9017,宁波市,万里国际学校,,43,41,33,30,21,33,,97,53,23,19,11,9,0.3,0.4
2024-09-07T0000,3710A,121.5594,29.8975,宁波市,白沙活动中心,,45,40,31,31,22,32,,99,,23,18,17,10,0.4,0.4
2024-09-07T0000,2339A,119.5001,26.6946,宁德市,金涵水库,,,,,,,,,,,,,,,,
2024-09-07T0000,2341A,119.5388,26.6612,宁德市,宁德市监测站,,9,9,15,3,8,7,,50,25,18,12,6,6,0.5,0.5
2024-09-07T0000,3209A,119.5231,26.6562,宁德市,宁德一中,,13,12,22,9,10,12,,49,29,9,8,3,4,0.3,0.3
2024-09-07T0000,2618A,98.8601,25.8567,怒江傈僳族自治州,州监测站,,45,38,23,31,14,29,,67,61,19,9,7,7,0.5,0.5
2024-09-07T0000,2619A,98.8546,25.8417,怒江傈僳族自治州,泸水一中,,33,31,22,23,9,23,,56,50,20,13,7,6,0.5,0.4
2024-09-07T0000,1888A,101.6891,26.571,攀枝花市,弄弄坪,,48,48,28,20,12,56,,109,82,24,13,14,12,0.8,0.6
2024-09-07T0000,1889A,101.5769,26.5928,攀枝花市,河门口,,28,28,18,19,10,47,,114,88,20,11,5,6,0.7,0.6
2024-09-07T0000,1890A,101.7169,26.585,攀枝花市,炳草岗,,36,36,21,23,12,32,,120,78,41,15,8,6,0.9,0.6
2024-09-07T0000,1891A,101.7369,26.5008,攀枝花市,仁和,,38,38,29,21,16,47,,119,80,17,17,5,13,0.7,1.2
2024-09-07T0000,2835A,101.7227,26.567,攀枝花市,四十中小,,34,34,17,16,8,26,,121,73,54,18,12,10,1.4,0.9
2024-09-07T0000,1604A,122.0303,41.1489,盘锦市,开发区,,46,46,25,26,12,12,,102,36,54,28,7,8,0.5,0.3
2024-09-07T0000,1605A,122.0485,41.0883,盘锦市,兴隆台,,39,39,24,16,7,11,,101,35,75,34,11,9,0.5,0.4
2024-09-07T0000,1606A,121.8297,41.1028,盘锦市,新生街道,,31,22,16,14,8,18,,90,35,61,30,10,10,0.6,0.4
2024-09-07T0000,1832A,113.3257,33.742,平顶山市,新华旅馆,颗粒物(PM10),56,62,42,24,22,62,,135,109,22,10,5,5,0.8,0.7
2024-09-07T0000,1833A,113.2919,33.737,平顶山市,规划设计院,颗粒物(PM10),55,60,32,33,13,81,,137,115,18,17,8,8,0.8,0.6
2024-09-07T0000,1834A,113.182,33.774,平顶山市,平顶山工学院,颗粒物(PM10),53,55,31,22,11,80,,143,120,18,12,7,8,0.9,0.7
2024-09-07T0000,3204A,113.3025,33.73,平顶山市,规划局,颗粒物(PM10),53,56,35,29,18,75,,135,114,17,11,4,4,0.6,0.4
2024-09-07T0000,3594A,112.8867,33.9116,平顶山市,石龙区,颗粒物(PM10),109,168,61,25,16,2,,144,88,105,33,18,12,0.6,0.5
2024-09-07T0000,2656A,106.6692,35.5461,平凉市,聚贤嘉苑,,26,26,34,12,14,54,,85,68,22,24,9,10,0.5,0.6
2024-09-07T0000,2657A,106.7021,35.5307,平凉市,博物馆,,25,25,37,8,13,62,,85,76,21,23,8,11,0.4,0.4
2024-09-07T0000,2347A,114.0997,27.5002,萍乡市,武功山,,32,11,12,3,6,102,,106,85,5,5,9,9,0.3,0.4
2024-09-07T0000,2348A,113.8385,27.6434,萍乡市,中医院,,42,39,37,29,25,103,,126,114,5,5,48,20,0.7,0.8
2024-09-07T0000,2349A,113.8493,27.6253,萍乡市,市政府车库,,43,38,33,30,24,102,,122,110,5,5,30,13,0.8,1.1
2024-09-07T0000,2350A,113.8676,27.6435,萍乡市,市环保局,,43,41,37,30,24,96,,116,107,2,3,41,11,0.4,0.5
2024-09-07T0000,2351A,113.866,27.6198,萍乡市,安源区政府,颗粒物(PM10),51,52,38,20,17,96,,122,108,19,12,17,16,1.0,1.4
2024-09-07T0000,2319A,119.0141,25.4325,莆田市,荔城区仓后路,,11,11,14,3,2,26,,43,33,6,6,7,7,0.5,0.5
2024-09-07T0000,2320A,119.0015,25.4553,莆田市,莆田市监测站,,18,18,12,3,2,23,,46,34,4,4,6,6,0.4,0.4
2024-09-07T0000,2321A,119.1119,25.4561,莆田市,涵江区六中,,10,10,14,3,3,29,,45,35,5,6,7,7,0.4,0.4
2024-09-07T0000,2322A,119.1013,25.3215,莆田市,秀屿区政府,,17,17,21,3,3,22,,49,36,11,4,6,7,0.5,0.6
2024-09-07T0000,2323A,118.981,25.4792,莆田市,东圳水库,,,,,,,,,,,,,,,,
2024-09-07T0000,2392A,115.0312,35.7636,濮阳市,环保局,,41,35,23,21,11,131,,140,139,22,15,10,9,0.4,0.3
2024-09-07T0000,2394A,115.0574,35.7609,濮阳市,油田运输公司,,40,37,22,20,12,128,,144,142,18,12,6,5,0.5,0.4
2024-09-07T0000,2395A,115.0866,35.7754,濮阳市,油田物探公司,,48,48,29,26,15,112,,139,132,22,12,4,7,0.4,0.4
2024-09-07T0000,3021A,115,35.7668,濮阳市,濮水河管理处,,40,40,22,23,14,62,,132,117,27,13,5,7,0.4,0.3
2024-09-07T0000,2601A,100.98,22.7633,普洱市,市环保局,,45,45,33,22,15,18,,72,43,10,10,9,9,0.6,0.5
2024-09-07T0000,2602A,100.9817,22.8322,普洱市,普洱第二中学,,40,40,31,19,15,28,,69,41,10,9,8,8,0.7,0.6
2024-09-07T0000,2262A,131.0518,45.8751,七台河市,新一中,,19,19,15,6,6,53,,84,54,17,11,11,9,1.0,0.9
2024-09-07T0000,3345A,131.0577,45.7879,七台河市,中波台,,21,8,14,3,7,67,,57,50,10,21,6,7,0.5,0.5
2024-09-07T0000,3637A,131.0176,45.7761,七台河市,人民广场,,22,15,16,3,10,69,,57,53,7,14,7,8,0.2,0.3
2024-09-07T0000,3684A,130.8781,45.8222,七台河市,新建矿广场,,32,,21,22,16,46,,56,42,13,15,7,5,0.5,0.4
2024-09-07T0000,1779A,123.9305,47.3636,齐齐哈尔市,安居小区,,26,26,21,7,4,43,,66,47,9,10,9,9,0.3,0.4
2024-09-07T0000,1780A,123.9488,47.3386,齐齐哈尔市,中心广场,,17,16,15,3,4,53,,63,47,7,10,2,3,0.2,0.2
2024-09-07T0000,1781A,123.9483,47.3227,齐齐哈尔市,农牧车辆厂,,22,22,30,7,3,54,,65,50,5,9,8,9,0.2,0.2
2024-09-07T0000,1783A,123.945,47.2988,齐齐哈尔市,市环境监测站,,15,13,25,3,8,46,,62,43,8,11,8,9,0.3,0.3
2024-09-07T0000,3662A,123.6333,47.2075,齐齐哈尔市,富区青少年活动中心,,33,33,46,3,13,41,,59,40,15,20,5,16,0.4,0.9
2024-09-07T0000,2591A,107.9783,26.5747,黔东南苗族侗族自治州,市环境监测站,,35,30,32,24,25,89,,105,92,6,11,3,3,0.7,0.7
2024-09-07T0000,2881A,107.8908,26.5311,黔东南苗族侗族自治州,凯里学院,,30,27,30,21,22,94,,113,95,8,9,2,2,0.7,0.7
2024-09-07T0000,2593A,107.5228,26.2403,黔南布依族苗族自治州,小围寨,,30,22,25,17,19,95,,115,102,5,6,5,5,0.5,0.5
2024-09-07T0000,3538A,107.5175,26.2978,黔南布依族苗族自治州,沙坝,,32,29,30,22,20,83,,116,100,8,6,5,4,0.4,0.6
2024-09-07T0000,2589A,104.9022,25.0925,黔西南布依族苗族自治州,场坝街,,35,35,30,23,20,47,,112,77,21,15,57,34,0.3,0.3
2024-09-07T0000,2590A,104.8811,25.0992,黔西南布依族苗族自治州,坪东大道,,45,39,30,31,18,39,,115,57,23,14,8,9,0.3,0.3
2024-09-07T0000,2502A,108.6236,21.9667,钦州市,市环保站,,17,17,39,3,21,54,,90,66,6,10,6,8,0.6,0.9
2024-09-07T0000,2503A,108.6549,21.9481,钦州市,沙埠小学,,17,,43,9,24,54,,90,68,6,12,4,5,0.4,1
2024-09-07T0000,2504A,108.5989,21.7431,钦州市,港区一小,,18,18,61,9,28,56,,86,65,5,12,5,8,0.4,0.6
2024-09-07T0000,3404A,108.5959,21.9633,钦州市,北职校,,20,14,44,6,26,61,,93,72,5,8,4,5,0.5,0.7
2024-09-07T0000,1042A,119.5134,39.8207,秦皇岛市,北戴河环保局,,37,37,21,10,5,73,,113,103,22,17,4,2,0.7,0.4
2024-09-07T0000,1043A,119.7493,40.0116,秦皇岛市,第一关,,41,33,26,19,16,0,,112,66,82,32,2,2,0.4,0.3
2024-09-07T0000,1044A,119.5897,39.9499,秦皇岛市,监测站,,38,33,20,12,14,0,,108,79,75,19,3,3,0.6,0.4
2024-09-07T0000,1046A,119.5251,39.9041,秦皇岛市,建设大厦,颗粒物(PM10),54,58,29,3,8,11,,105,73,52,20,2,3,0.4,0.3
2024-09-07T0000,3132A,119.610547,39.943889,秦皇岛市,文明里,颗粒物(PM10),51,51,23,10,5,16,,110,91,65,18,2,2,0.7,0.5
2024-09-07T0000,1307A,120.6659,36.2403,青岛市,仰口,,32,18,27,16,11,100,,127,116,7,7,6,6,1.9,1
2024-09-07T0000,1310A,120.4134,36.0658,青岛市,市南区东部子站,,48,48,31,14,7,57,,140,102,44,20,8,8,0.6,0.5
2024-09-07T0000,1311A,120.3664,36.1032,青岛市,四方区子站,,46,46,32,17,9,63,,139,99,43,23,11,11,0.7,0.6
2024-09-07T0000,1312A,120.2994,36.054,青岛市,市南区西部子站,,31,31,29,10,5,81,,135,110,21,15,9,9,0.6,0.6
2024-09-07T0000,1313A,120.4581,36.0858,青岛市,崂山区子站,,34,34,27,9,4,73,,139,102,32,19,9,9,0.6,0.5
2024-09-07T0000,1314A,120.1983,35.9608,青岛市,黄岛区子站,,31,31,27,7,8,76,,158,121,27,27,10,9,0.4,0.4
2024-09-07T0000,1315A,120.3999,36.3083,青岛市,城阳区子站,,28,27,23,7,8,89,,132,108,20,18,8,8,0.6,0.5
2024-09-07T0000,1966A,120.0405,35.8735,青岛市,黄岛区4号,,31,31,25,14,6,70,,158,114,24,16,14,11,0.6,0.5
2024-09-07T0000,3362A,120.5014,36.4034,青岛市,即墨2号,,29,26,26,20,9,78,,130,109,20,14,7,7,0.4,0.4
2024-09-07T0000,3642A,120.3503,36.0736,青岛市,市北区南部,,42,42,28,14,8,68,,134,99,36,25,17,10,0.5,0.5
2024-09-07T0000,3643A,120.3948,36.1805,青岛市,李沧区北部,,31,31,29,19,12,77,,141,102,30,21,9,10,0.6,0.5
2024-09-07T0000,1702A,113.0426,23.691,清远市,环保大楼,,13,,12,8,9,39,,50,38,4,7,6,7,0.5,0.5
2024-09-07T0000,1703A,113.0208,23.7106,清远市,凤城街办,,,7,13,,8,,,44,,4,6,6,7,0.4,0.4
2024-09-07T0000,3025A,113.0477,23.6344,清远市,技师学院,,14,6,15,3,8,42,,48,39,3,8,5,6,0.6,0.7
2024-09-07T0000,3318A,112.9903,23.7403,清远市,清新太和,,17,6,11,3,5,52,,51,48,2,3,5,5,0.6,0.6
2024-09-07T0000,3455A,113.076,23.7198,清远市,清城东城,,13,6,10,3,6,39,,46,37,2,5,6,8,0.6,0.5
2024-09-07T0000,2661A,107.6325,35.7357,庆阳市,庆阳五中,,26,24,41,18,16,62,,100,57,5,9,6,6,0.5,0.5
2024-09-07T0000,2662A,107.6364,35.7067,庆阳市,市环保局,,23,23,36,14,16,66,,92,62,6,10,4,5,0.6,0.6
2024-09-07T0000,1916A,103.7897,25.5035,曲靖市,环境监测站,,31,26,31,15,16,98,,134,123,14,12,6,7,0.6,0.8
2024-09-07T0000,1917A,103.8,25.5364,曲靖市,烟厂办公区,,31,31,32,19,18,84,,127,116,17,11,4,5,0.9,0.9
2024-09-07T0000,3376A,103.7947,25.462,曲靖市,南苑二区,,37,26,28,17,17,117,,134,127,9,11,6,10,0.6,0.7
2024-09-07T0000,3377A,103.7444,25.5261,曲靖市,曲靖师范学院,,35,35,29,24,21,96,,142,129,18,12,12,11,1.0,0.8
2024-09-07T0000,1264A,118.8692,28.9398,衢州市,环保大楼,"颗粒物(PM10),细颗粒物(PM2.5)",54,58,34,38,20,118,,130,116,13,14,2,2,0.5,0.5
2024-09-07T0000,1265A,118.8709,28.9666,衢州市,实验学校,细颗粒物(PM2.5),57,58,33,40,20,117,,130,115,11,10,6,4,0.6,0.6
2024-09-07T0000,1266A,118.8621,28.9808,衢州市,衢州学院,颗粒物(PM10),54,58,32,37,19,94,,120,105,21,13,4,4,0.4,0.4
2024-09-07T0000,1611A,118.5819,24.9117,泉州市,涂山街,,,13,18,3,8,,,68,43,18,9,6,2,0.4,0.5
2024-09-07T0000,1612A,118.5972,24.8978,泉州市,津头埔,,20,20,20,12,8,24,,65,36,15,11,4,4,0.5,0.5
2024-09-07T0000,1613A,118.6663,24.9424,泉州市,万安,,16,16,18,9,7,22,,64,37,10,6,4,3,0.6,0.5
2024-09-07T0000,1614A,118.6117,24.9604,泉州市,清源山,,,,,,,,,,,,,,,,
2024-09-07T0000,3529A,118.6333,24.9264,泉州市,城华南路,,16,16,16,11,8,21,,62,34,10,5,6,4,0.5,0.4
2024-09-07T0000,2626A,88.8876,29.2718,日喀则市,日喀则监测站,,25,17,12,6,6,77,,103,87,9,8,5,5,0.5,0.4
2024-09-07T0000,3726A,88.8781,29.2426,日喀则市,林业技术推广中心,,27,6,5,3,4,84,,97,86,5,7,8,8,0.5,0.5
2024-09-07T0000,1659A,119.471,35.4209,日照市,监测站,,28,19,20,11,9,87,,137,110,17,15,12,11,0.3,0.3
2024-09-07T0000,1660A,119.523,35.4216,日照市,市政府广场,,29,19,21,6,7,92,,157,134,15,11,10,10,0.5,0.5
2024-09-07T0000,1661A,119.5587,35.4044,日照市,港务局,,35,19,22,12,13,111,,163,136,7,8,9,10,0.7,0.7
2024-09-07T0000,3507A,119.5328,35.4625,日照市,职业技术学院,,29,19,22,7,7,90,,147,121,15,13,10,10,0.5,0.6
2024-09-07T0000,3604A,119.3266,35.1044,日照市,岚山环保分局,,34,34,36,3,7,75,,142,125,33,24,17,20,0.8,1.9
2024-09-07T0000,1835A,111.1922,34.7752,三门峡市,市政府,,38,33,31,15,14,121,,139,136,14,12,21,12,0.6,0.6
2024-09-07T0000,1836A,111.1587,34.7942,三门峡市,开发区,,37,27,32,9,17,118,,140,137,12,10,14,12,0.5,0.6
2024-09-07T0000,1838A,111.143,34.7955,三门峡市,风景区,,,,,,,,,,,,,,,,
2024-09-07T0000,3039A,111.1911,34.7829,三门峡市,三门峡市第一小学,,35,26,31,7,15,112,,133,129,13,11,18,13,0.5,0.5
2024-09-07T0000,3598A,111.1,34.7167,三门峡市,富达温泉假日酒店,,44,44,36,12,16,126,,141,141,12,9,14,12,0.4,0.4
2024-09-07T0000,2324A,117.6211,26.2625,三明市,三钢,,16,12,16,11,12,13,,61,25,19,12,7,8,0.2,0.2
2024-09-07T0000,2325A,117.635,26.2714,三明市,三明二中,,16,,15,11,12,24,,64,30,10,12,3,5,0.3,0.4
2024-09-07T0000,2326A,117.6028,26.2378,三明市,三元区政府,,33,27,21,23,13,6,,61,20,23,14,3,4,0.5,0.4
2024-09-07T0000,2327A,117.7275,26.3108,三明市,洋溪,,,,,,,,,,,,,,,,
2024-09-07T0000,1876A,109.5078,18.2489,三亚市,河东子站,,31,31,20,8,7,81,,84,83,1,3,3,3,0.4,0.4
2024-09-07T0000,1877A,109.4964,18.2681,三亚市,河西子站,,31,31,17,6,4,78,,82,82,2,3,3,3,0.4,0.3
2024-09-07T0000,3540A,109.7348,18.3443,三亚市,君悦子站,,25,9,11,3,4,77,,79,79,3,4,5,4,0.7,0.6
2024-09-07T0000,2624A,91.7608,29.2313,山南市,山南监测站,,22,13,9,3,3,70,,86,80,11,8,7,7,0.3,0.3
2024-09-07T0000,2625A,91.7706,29.2436,山南市,山南人民医院,,23,14,18,3,7,72,,87,82,13,11,8,8,0.4,0.4
2024-09-07T0000,1674A,116.6794,23.3667,汕头市,金平子站,,16,8,11,3,8,50,,40,40,4,6,4,4,0.4,0.4
2024-09-07T0000,1675A,116.7244,23.3633,汕头市,龙湖子站,,15,7,11,3,5,46,,44,42,1,3,6,6,0.6,0.5
2024-09-07T0000,1676A,116.7258,23.2775,汕头市,濠江子站,,15,12,14,3,6,47,,43,43,6,7,5,5,0.6,0.6
2024-09-07T0000,1677A,116.7519,23.4714,汕头市,澄海子站,,17,8,11,3,9,53,,50,48,6,7,4,4,0.6,0.7
2024-09-07T0000,1678A,116.6092,23.2539,汕头市,潮阳子站,,18,17,12,12,15,50,,47,47,2,3,4,4,0.3,0.3
2024-09-07T0000,3444A,116.454,23.2684,汕头市,潮南峡山,,16,14,12,3,3,50,,46,45,1,2,5,5,0.5,0.5
2024-09-07T0000,3624A,116.4069,23.2533,汕头市,潮南子站,,16,16,13,9,6,44,,41,37,9,9,4,4,0.5,0.4
2024-09-07T0000,1693A,115.3653,22.775,汕尾市,市环保局,,16,16,8,3,5,48,,55,51,3,5,6,6,0.5,0.5
2024-09-07T0000,1694A,115.3706,22.7898,汕尾市,市政府,,19,,10,13,6,38,,51,46,6,7,6,6,0.4,0.5
2024-09-07T0000,1695A,115.3622,22.7925,汕尾市,新城中学,,13,11,8,3,4,39,,53,48,5,5,5,5,0.7,0.7
2024-09-07T0000,2645A,109.9154,33.8715,商洛市,监测站,,40,40,40,18,18,45,,93,72,24,17,3,3,0.7,0.7
2024-09-07T0000,3045A,109.9643,33.8471,商洛市,商州区中学,,43,43,44,21,21,33,,86,60,30,18,7,7,0.7,0.7
2024-09-07T0000,2408A,115.6702,34.4285,商丘市,环境监测站,,33,33,29,20,13,58,,96,80,24,14,4,5,0.6,0.5
2024-09-07T0000,2409A,115.6458,34.4045,商丘市,粮食局,,33,33,28,21,15,81,,102,93,14,11,8,9,0.4,0.3
2024-09-07T0000,2410A,115.6293,34.3948,商丘市,睢阳区环保局,,38,38,31,22,15,73,,94,84,12,9,7,8,0.4,0.4
2024-09-07T0000,3171A,115.6071,34.4465,商丘市,梁园区档案局,,35,33,35,24,16,80,,110,98,10,8,8,9,0.5,0.4
2024-09-07T0000,1141A,121.4,31.238,上海市,普陀,,41,41,43,26,21,54,,82,57,19,19,7,6,0.4,0.4
2024-09-07T0000,1142A,121.478,31.2036,上海市,十五厂,,48,41,42,33,26,58,,86,62,15,16,10,10,0.4,0.4
2024-09-07T0000,1143A,121.467,31.3008,上海市,虹口,,38,37,41,26,24,45,,77,57,24,18,10,10,0.6,0.6
2024-09-07T0000,1144A,121.412,31.1654,上海市,徐汇上师大,,46,43,44,32,26,54,,87,63,19,18,7,7,0.7,0.6
2024-09-07T0000,1145A,121.536,31.2659,上海市,杨浦四漂,,40,36,47,28,25,35,,76,51,29,18,8,8,0.6,0.6
2024-09-07T0000,1147A,121.425,31.2261,上海市,静安监测站,,42,42,41,27,26,57,,84,59,14,15,8,7,0.5,0.5
2024-09-07T0000,1148A,121.703,31.1907,上海市,浦东川沙,,38,38,45,22,22,37,,70,55,33,25,8,8,0.5,0.4
2024-09-07T0000,1149A,121.533,31.2284,上海市,浦东新区监测站,,48,39,39,33,26,50,,73,49,20,20,7,8,0.6,0.6
2024-09-07T0000,1150A,121.577,31.2071,上海市,浦东张江,,45,45,43,31,27,49,,64,48,18,22,6,7,0.7,0.7
2024-09-07T0000,3265A,121.4316,31.3322,上海市,宝山庙行,,43,36,43,30,24,54,,79,62,18,19,9,9,0.5,0.5
2024-09-07T0000,3266A,121.8791,31.4662,上海市,崇明上实东滩,,38,31,38,26,31,66,,73,70,8,5,10,10,0.7,0.7
2024-09-07T0000,3268A,121.3162,31.2838,上海市,嘉定南翔,,50,42,42,35,26,42,,80,46,27,23,8,8,0.5,0.5
2024-09-07T0000,3269A,121.3359,30.7456,上海市,金山新城,,45,42,34,31,23,60,,83,71,18,12,7,6,0.6,0.6
2024-09-07T0000,3270A,121.4996,31.0739,上海市,闵行浦江,,48,42,41,33,28,50,,82,65,20,17,8,8,0.7,0.7
2024-09-07T0000,3271A,121.2886,31.1663,上海市,青浦徐泾,,50,42,40,35,27,60,,93,66,13,16,8,8,0.5,0.5
2024-09-07T0000,3272A,121.2186,31.0378,上海市,松江图书馆,细颗粒物(PM2.5),53,,50,37,26,42,,96,62,24,18,8,7,0.5,0.3
2024-09-07T0000,3273A,121.3902,31.2059,上海市,长宁仙霞,,42,38,42,29,25,63,,89,67,13,17,10,10,0.7,0.7
2024-09-07T0000,3274A,121.7965,31.0507,上海市,浦东惠南,,48,48,42,31,29,55,,75,67,8,12,9,10,0.5,0.5
2024-09-07T0000,3544A,121.4891,30.925,上海市,奉贤南桥新城,,46,41,42,32,27,50,,76,54,17,17,10,9,0.6,0.6
