timepoint,stationcode,longitude,latitude,area,positionname,primarypollutant,aqi,pm10,pm10_24h,pm2_5,pm2_5_24h,o3,o3_24h,o3_8h,o3_8h_24h,no2,no2_24h,so2,so2_24h,co,co_24h
2022-09-11T23:00:00,1001A,116.3621,39.8784,北京市,万寿西宫,"颗粒物(PM10),细颗粒物(PM2.5)",59,67,48,42,28,173,96,159,135,27,19,3,3,0.8,0.6
2022-09-11T23:00:00,1002A,116.2202,40.2915,北京市,定陵(对照点),细颗粒物(PM2.5),58,64,46,41,29,220,87,176,151,7,7,3,3,0.7,0.6
2022-09-11T23:00:00,1003A,116.4174,39.9289,北京市,东四,颗粒物(PM10),64,77,52,40,28,179,101,170,154,30,17,3,2,0.8,0.6
2022-09-11T23:00:00,1004A,116.4072,39.8863,北京市,天坛,颗粒物(PM10),60,69,46,42,26,150,56,140,110,26,17,3,3,0.8,0.6
2022-09-11T23:00:00,1005A,116.462,39.9365,北京市,农展馆,颗粒物(PM10),54,58,46,33,25,161,83,147,129,27,21,3,3,0.7,0.6
2022-09-11T23:00:00,1006A,116.3392,39.9295,北京市,官园,颗粒物(PM10),63,75,50,43,28,175,106,158,143,19,14,3,3,0.8,0.6
2022-09-11T23:00:00,1007A,116.2878,39.9611,北京市,海淀万柳,细颗粒物(PM2.5),77,93,52,56,32,190,64,166,138,52,25,1,2,0.9,0.6
2022-09-11T23:00:00,1008A,116.6636,40.135,北京市,顺义新城,颗粒物(PM10),65,79,47,38,25,174,48,154,119,30,13,3,3,0.7,0.5
2022-09-11T23:00:00,1009A,116.6275,40.3275,北京市,怀柔镇,细颗粒物(PM2.5),60,62,39,43,24,183,70,160,133,15,10,3,3,0.7,0.5
2022-09-11T23:00:00,1010A,116.2296,40.217,北京市,昌平镇,细颗粒物(PM2.5),67,74,51,48,31,189,99,159,144,18,17,3,2,0.7,0.6
2022-09-11T23:00:00,1011A,116.3966,39.9821,北京市,奥体中心,颗粒物(PM10),59,68,48,40,26,169,108,159,148,27,18,1,2,0.7,0.5
2022-09-11T23:00:00,1012A,116.184,39.9136,北京市,古城,颗粒物(PM10),79,108,60,57,33,192,52,164,128,49,20,1,2,0.9,0.7
2022-09-11T23:00:00,1015A,117.1444,39.1661,天津市,勤俭道,,50,50,45,26,25,193,133,176,163,16,16,7,8,0.8,0.9
2022-09-11T23:00:00,1017A,117.237,39.1082,天津市,大直沽八号路,"颗粒物(PM10),细颗粒物(PM2.5)",62,73,44,44,30,175,99,158,136,20,15,6,9,0.5,0.7
2022-09-11T23:00:00,1018A,117.202,39.0927,天津市,前进道,颗粒物(PM10),55,60,42,36,24,188,118,171,156,17,15,7,10,0.7,0.8
2022-09-11T23:00:00,1019A,117.1837,39.2133,天津市,淮河道,颗粒物(PM10),55,59,47,30,26,185,125,165,150,19,19,7,9,0.7,0.8
2022-09-11T23:00:00,1021A,117.307,39.0877,天津市,跃进路,颗粒物(PM10),59,68,48,39,25,158,99,151,134,28,23,7,9,0.5,0.7
2022-09-11T23:00:00,1023A,117.707,39.0343,天津市,第四大街,,39,39,38,21,21,157,79,136,113,44,21,6,6,0.6,0.8
2022-09-11T23:00:00,1024A,117.457,38.8394,天津市,永明路,细颗粒物(PM2.5),83,78,40,61,28,158,100,144,125,17,10,6,7,0.5,0.6
2022-09-11T23:00:00,1026A,117.764,39.1587,天津市,汉北路,,35,22,38,12,21,174,110,155,136,12,10,8,9,0.6,0.8
2022-09-11T23:00:00,1027A,117.157,38.9194,天津市,团泊洼(对照点),颗粒物(PM10),55,60,41,27,20,178,87,163,132,23,13,6,9,0.8,1
2022-09-11T23:00:00,1029A,114.4422,38.0444,石家庄市,职工医院,颗粒物(PM10),75,99,71,48,48,217,127,202,175,19,19,19,9,0.6,0.8
2022-09-11T23:00:00,1030A,114.6063,38.0266,石家庄市,高新区,颗粒物(PM10),100,150,101,62,46,229,129,208,179,25,21,6,7,0.6,0.5
2022-09-11T23:00:00,1031A,114.4898,38.1328,石家庄市,西北水源,细颗粒物(PM2.5),108,112,92,81,49,243,152,215,192,18,19,3,4,0.8,0.8
2022-09-11T23:00:00,1032A,114.4586,38.0058,石家庄市,西南高教,颗粒物(PM10),90,130,87,48,47,206,108,192,154,31,26,28,6,1.0,0.9
2022-09-11T23:00:00,1033A,114.5331,38.0178,石家庄市,世纪公园,颗粒物(PM10),79,107,91,56,45,230,113,207,176,29,20,7,8,0.7,0.6
2022-09-11T23:00:00,1034A,114.509,38.0457,石家庄市,人民会堂,细颗粒物(PM2.5),88,120,79,65,47,237,128,212,190,24,16,12,9,0.9,0.9
2022-09-11T23:00:00,1035A,114.3524,37.8911,石家庄市,封龙山(对照点),臭氧1小时,95,68,68,48,39,208,196,205,194,14,15,18,24,0.9,0.9
2022-09-11T23:00:00,1037A,118.131,39.6363,唐山市,雷达站,,39,39,54,17,28,168,91,157,130,10,14,2,7,0.4,1.1
2022-09-11T23:00:00,1038A,118.1725,39.6334,唐山市,物资局,,48,48,71,27,31,162,97,151,123,17,23,4,9,0.4,1.1
2022-09-11T23:00:00,1040A,118.1705,39.6506,唐山市,十二中,,29,21,45,11,23,157,92,149,123,7,15,3,8,0.4,0.9
2022-09-11T23:00:00,1041A,118.1869,39.622,唐山市,小山,,28,27,48,9,25,161,88,150,121,19,22,3,7,0.5,1.2
2022-09-11T23:00:00,1042A,119.5134,39.8207,秦皇岛市,北戴河环保局,,30,18,27,6,12,128,95,122,119,7,15,6,7,0.2,0.2
2022-09-11T23:00:00,1043A,119.7493,40.0116,秦皇岛市,第一关,,47,29,31,14,15,121,6,118,78,93,39,5,4,0.4,0.4
2022-09-11T23:00:00,1044A,119.5897,39.9499,秦皇岛市,监测站,,39,28,30,16,16,115,22,110,88,78,28,7,4,0.1,0.1
2022-09-11T23:00:00,1046A,119.5251,39.9041,秦皇岛市,建设大厦,颗粒物(PM10),64,78,45,11,10,132,7,126,93,70,25,4,5,0.5,0.3
2022-09-11T23:00:00,1047A,114.5129,36.61763,邯郸市,环保局,,,,,,,,,,,,,,,,
2022-09-11T23:00:00,1048A,114.5302,36.6116,邯郸市,东污水处理厂,细颗粒物(PM2.5),77,96,81,56,50,205,52,190,137,72,34,10,26,0.7,2.1
2022-09-11T23:00:00,1049A,114.4918,36.5713,邯郸市,矿院,细颗粒物(PM2.5),87,98,88,64,56,206,67,197,168,47,41,29,40,1.0,2.5
2022-09-11T23:00:00,1050A,114.484,36.6133,邯郸市,丛台公园,颗粒物(PM10),79,108,81,56,52,202,69,189,153,48,34,10,20,0.9,2.1
2022-09-11T23:00:00,1051A,115.493,38.8632,保定市,游泳馆,细颗粒物(PM2.5),65,69,62,47,37,203,108,195,162,49,22,12,7,0.6,0.5
2022-09-11T23:00:00,1052A,115.5213,38.8959,保定市,华电二区,颗粒物(PM10),71,91,80,47,36,184,94,176,148,52,19,8,7,0.8,0.7
2022-09-11T23:00:00,1053A,115.4713,38.9108,保定市,接待中心,颗粒物(PM10),65,79,71,33,31,221,146,204,184,27,17,10,8,0.7,0.7
2022-09-11T23:00:00,1054A,115.4612,38.8416,保定市,地表水厂,颗粒物(PM10),78,106,86,43,37,200,107,188,153,47,18,6,8,0.8,0.7
2022-09-11T23:00:00,1055A,115.4323,38.8697,保定市,胶片厂,颗粒物(PM10),64,78,61,44,41,207,124,196,163,36,18,8,9,0.6,0.6
2022-09-11T23:00:00,1056A,115.5086,38.8639,保定市,监测站,颗粒物(PM10),62,73,74,42,42,204,112,194,164,40,17,5,5,0.5,0.4
2022-09-11T23:00:00,1057A,114.8883,40.8336,张家口市,人民公园,,21,21,36,1,11,198,61,171,94,7,7,5,6,0.3,0.5
2022-09-11T23:00:00,1059A,114.8687,40.8042,张家口市,五金库,,22,22,40,12,24,176,52,156,88,18,15,8,8,0.3,0.5
2022-09-11T23:00:00,1060A,114.8902,40.762,张家口市,世纪豪园,,34,34,41,20,23,178,61,162,96,19,13,2,3,0.3,0.3
2022-09-11T23:00:00,1061A,114.8916,40.8661,张家口市,北泵房(对照点),,30,30,39,16,24,209,60,175,93,9,8,6,7,0.4,0.4
2022-09-11T23:00:00,1062A,117.9531,40.9081,承德市,铁路,颗粒物(PM10),61,72,37,30,19,153,64,140,124,58,18,6,10,0.7,0.6
2022-09-11T23:00:00,1063A,117.9392,40.9763,承德市,中国银行,,50,50,35,28,16,166,50,150,118,14,12,8,15,0.6,0.6
2022-09-11T23:00:00,1064A,117.9503,40.928,承德市,开发区,,49,49,34,30,19,165,83,153,132,16,14,5,11,0.8,0.7
2022-09-11T23:00:00,1065A,117.8051,40.9655,承德市,文化中心,颗粒物(PM10),54,57,45,27,24,172,46,151,118,29,16,8,27,0.6,0.9
2022-09-11T23:00:00,1066A,117.9268,41.0026,承德市,离宫(对照点),,46,39,31,32,18,169,53,139,100,8,9,4,10,0.6,0.6
2022-09-11T23:00:00,1067A,116.6708,39.5111,廊坊市,药材公司,,48,48,58,31,35,165,120,153,134,23,19,8,8,0.6,0.6
2022-09-11T23:00:00,1068A,116.7214,39.5589,廊坊市,开发区,"颗粒物(PM10),细颗粒物(PM2.5)",57,63,50,40,33,169,110,151,124,27,17,6,5,0.6,0.6
2022-09-11T23:00:00,1070A,116.7244,39.5269,廊坊市,北华航天学院,颗粒物(PM10),65,80,66,36,39,168,108,157,130,27,17,8,7,0.5,0.5
2022-09-11T23:00:00,1071A,116.8842,38.2991,沧州市,沧县城建局,颗粒物(PM10),53,55,53,22,27,160,89,145,126,34,23,5,6,0.3,0.3
2022-09-11T23:00:00,1072A,116.8584,38.3254,沧州市,电视转播站,颗粒物(PM10),52,53,52,29,28,178,108,162,144,19,16,3,3,0.3,0.4
2022-09-11T23:00:00,1073A,116.8709,38.3228,沧州市,市环保局,颗粒物(PM10),54,58,55,26,28,172,94,156,134,21,13,8,8,0.4,0.4
2022-09-11T23:00:00,1074A,115.6838,37.7541,衡水市,电机北厂,,44,44,74,20,45,212,104,195,158,24,23,11,15,0.5,0.7
2022-09-11T23:00:00,1075A,115.6303,37.7316,衡水市,市监测站,颗粒物(PM10),52,54,86,22,45,202,98,190,154,22,18,7,11,0.8,0.9
2022-09-11T23:00:00,1077A,114.4704,37.0886,邢台市,达活泉,颗粒物(PM10),81,112,82,56,46,204,59,193,155,55,22,5,6,0.8,1
2022-09-11T23:00:00,1078A,114.5062,37.0349,邢台市,邢师高专,颗粒物(PM10),84,118,82,56,43,203,44,188,133,65,27,4,6,0.7,0.7
2022-09-11T23:00:00,1079A,114.5237,37.0851,邢台市,路桥公司,颗粒物(PM10),80,109,81,57,46,208,118,191,162,24,20,15,11,0.7,0.9
2022-09-11T23:00:00,1080A,114.4725,37.0719,邢台市,市环保局,细颗粒物(PM2.5),77,86,63,56,43,212,76,197,166,49,21,6,8,0.8,1
2022-09-11T23:00:00,1081A,112.5139,37.8873,太原市,尖草坪,颗粒物(PM10),54,58,51,31,35,189,24,162,109,81,31,5,8,0.6,0.8
2022-09-11T23:00:00,1083A,112.434,38.0108,太原市,上兰(对照点),,,,,,,,,,,,,,,,
2022-09-11T23:00:00,1084A,112.469,37.7124,太原市,晋源,,48,48,42,30,29,162,11,137,82,85,35,4,5,0.6,0.6
2022-09-11T23:00:00,1085A,112.5583,37.7394,太原市,小店,颗粒物(PM10),70,89,51,38,35,175,4,153,84,102,45,8,7,0.9,0.7
2022-09-11T23:00:00,1086A,112.5369,37.8692,太原市,桃园,颗粒物(PM10),53,56,49,27,33,191,48,169,123,60,30,5,9,0.8,0.9
2022-09-11T23:00:00,1087A,112.57,37.8195,太原市,坞城,颗粒物(PM10),72,93,54,45,36,188,5,169,104,118,38,6,11,1.0,0.9
2022-09-11T23:00:00,1088A,112.549,37.9854,太原市,南寨,颗粒物(PM10),57,64,45,29,26,160,10,136,80,38,20,5,7,0.7,0.6
2022-09-11T23:00:00,1089A,112.4701,37.782,太原市,金胜,,,,,,,,,,,,,,,,
2022-09-11T23:00:00,1090A,111.6507,40.7517,呼和浩特市,呼市一监,颗粒物(PM10),65,80,65,38,39,148,49,135,100,42,23,7,10,0.6,0.6
2022-09-11T23:00:00,1091A,111.6572,40.8033,呼和浩特市,小召,颗粒物(PM10),71,92,50,38,31,154,31,143,105,74,28,8,9,0.7,0.5
2022-09-11T23:00:00,1094A,111.7516,40.8369,呼和浩特市,如意水处理厂,颗粒物(PM10),59,67,53,25,25,159,63,148,110,44,24,9,12,0.6,0.6
2022-09-11T23:00:00,1095A,111.7276,40.8062,呼和浩特市,二十九中,颗粒物(PM10),75,100,53,43,31,156,16,145,102,76,28,6,10,0.8,0.6
2022-09-11T23:00:00,1096A,111.5512,40.7866,呼和浩特市,工大金川校区,颗粒物(PM10),87,123,68,29,37,154,2,142,91,94,32,6,9,0.8,0.6
2022-09-11T23:00:00,1097A,111.717,40.7612,呼和浩特市,化肥厂生活区,颗粒物(PM10),70,90,59,45,39,152,16,140,98,72,25,8,11,0.6,0.6
2022-09-11T23:00:00,1098A,123.6836,41.9339,沈阳市,森林路(对照点),,,,,,,,,,,,,,,,
2022-09-11T23:00:00,1099A,123.505,41.7406,沈阳市,浑南东路,颗粒物(PM10),54,58,45,24,20,155,30,130,74,40,32,51,19,0.8,0.8
2022-09-11T23:00:00,1100A,123.4231,41.6989,沈阳市,新秀街,颗粒物(PM10),54,58,49,22,21,145,34,118,69,44,38,39,16,0.6,0.8
2022-09-11T23:00:00,1102A,123.5903,41.8411,沈阳市,东陵路,颗粒物(PM10),57,64,49,21,19,148,23,124,81,32,17,21,15,0.6,0.8
2022-09-11T23:00:00,1103A,123.4264,41.8467,沈阳市,陵东街,,47,47,48,22,23,150,35,124,84,36,29,7,11,0.9,1.2
2022-09-11T23:00:00,1104A,123.4114,41.7653,沈阳市,文化路,颗粒物(PM10),66,81,51,40,25,145,23,122,83,65,31,11,16,1.0,0.9
2022-09-11T23:00:00,1105A,123.4678,41.7867,沈阳市,小河沿,颗粒物(PM10),54,58,48,30,24,144,34,124,93,50,29,16,12,0.8,1
2022-09-11T23:00:00,1106A,123.4017,41.7972,沈阳市,太原街,颗粒物(PM10),54,58,48,29,26,147,65,129,100,39,34,7,13,0.7,0.9
2022-09-11T23:00:00,1108A,123.3783,41.9228,沈阳市,京沈街,颗粒物(PM10),66,82,61,32,29,151,56,134,109,50,36,15,17,0.6,1
2022-09-11T23:00:00,1109A,121.612,38.9741,大连市,甘井子,,26,20,15,10,8,106,81,104,93,16,15,4,5,0.4,0.4
2022-09-11T23:00:00,1110A,121.565,38.9511,大连市,周水子,,18,16,15,12,9,105,54,102,90,19,7,5,5,0.2,0.2
2022-09-11T23:00:00,1111A,121.5637,38.8845,大连市,星海三站,,28,20,11,19,7,132,57,129,106,21,15,6,6,0.3,0.3
2022-09-11T23:00:00,1112A,121.6302,38.9117,大连市,青泥洼桥,,,9,8,8,6,113,74,110,94,,35,4,4,0.1,0.2
2022-09-11T23:00:00,1113A,121.6251,38.8638,大连市,傅家庄,,33,13,14,10,10,112,104,109,107,19,16,12,11,0.6,0.6
2022-09-11T23:00:00,1114A,121.5213,38.8661,大连市,七贤岭,,21,16,14,4,5,140,66,137,108,5,5,6,6,0.6,0.4
2022-09-11T23:00:00,1115A,121.2529,38.8061,大连市,旅顺,,27,27,15,17,8,112,74,108,96,9,6,8,7,0.8,0.8
2022-09-11T23:00:00,1116A,121.7485,39.1311,大连市,金州,,26,26,21,18,14,121,56,116,86,14,11,4,5,0.3,0.4
2022-09-11T23:00:00,1117A,121.7811,39.0496,大连市,开发区,,23,20,21,16,14,113,66,108,95,25,19,5,8,0.6,0.6
2022-09-11T23:00:00,1118A,121.9762,39.0631,大连市,双D港,,,,,,,,,,,,,,,,
2022-09-11T23:00:00,1119A,125.3325,43.9166,长春市,食品厂,,27,12,57,9,25,137,84,115,84,20,37,2,6,0.2,0.5
2022-09-11T23:00:00,1120A,125.2863,43.9027,长春市,客车厂,,30,20,60,10,21,143,93,118,77,13,39,4,7,0.5,0.8
2022-09-11T23:00:00,1121A,125.2841,43.8463,长春市,邮电学院,,23,23,48,7,21,136,68,122,86,11,28,4,5,0.4,0.7
2022-09-11T23:00:00,1122A,125.3716,43.8772,长春市,劳动公园,,27,15,64,7,23,140,85,128,97,15,31,5,7,0.3,0.7
2022-09-11T23:00:00,1123A,125.3297,43.8805,长春市,园林处,,29,17,53,8,21,138,90,119,88,16,33,5,7,0.3,0.6
2022-09-11T23:00:00,1124A,125.4605,43.79,长春市,净月潭,,24,5,34,6,16,135,74,115,86,7,9,5,6,0.3,0.5
2022-09-11T23:00:00,1125A,125.7194,43.515,长春市,甩湾子(对照点),,,,,,,,,,,,,,,,
2022-09-11T23:00:00,1126A,125.3863,43.8447,长春市,经开区环卫处,,27,12,50,4,19,136,85,127,94,14,31,5,6,0.3,0.6
2022-09-11T23:00:00,1127A,125.245,43.7783,长春市,高新区管委会,,27,11,48,0,22,133,85,125,90,9,28,4,7,0.2,0.5
2022-09-11T23:00:00,1128A,125.1761,43.8325,长春市,岱山公园,,23,19,55,6,19,131,71,117,69,28,43,5,9,0.3,0.6
2022-09-11T23:00:00,1129A,126.5422,45.755,哈尔滨市,岭北(对照点),颗粒物(PM10),57,64,66,33,36,145,87,131,109,29,17,3,3,0.6,0.7
2022-09-11T23:00:00,1130A,126.561,45.8167,哈尔滨市,松北商大,,50,50,51,23,24,145,48,128,86,35,23,5,6,0.9,0.8
2022-09-11T23:00:00,1131A,126.979,45.5419,哈尔滨市,阿城会宁,颗粒物(PM10),87,124,58,37,28,130,4,118,47,46,23,10,10,0.9,0.8
2022-09-11T23:00:00,1132A,126.599,45.7222,哈尔滨市,南岗学府路,颗粒物(PM10),60,70,50,36,32,136,36,119,59,69,30,15,14,0.7,0.6
2022-09-11T23:00:00,1133A,126.689,45.7733,哈尔滨市,太平宏伟公园,颗粒物(PM10),65,80,63,28,26,150,52,130,83,67,35,16,16,0.7,0.7
2022-09-11T23:00:00,1134A,126.635,45.7667,哈尔滨市,道外承德广场,颗粒物(PM10),54,57,60,23,31,146,81,122,90,42,32,12,12,0.7,0.7
2022-09-11T23:00:00,1135A,126.685,45.7319,哈尔滨市,香坊红旗大街,颗粒物(PM10),57,64,60,31,26,140,65,119,68,58,43,8,8,0.8,0.7
2022-09-11T23:00:00,1136A,126.6411,45.7258,哈尔滨市,动力和平路,,,97,63,,,140,23,121,65,84,38,14,14,0.8,0.6
2022-09-11T23:00:00,1137A,126.593,45.7478,哈尔滨市,道里建国路,颗粒物(PM10),60,69,61,30,31,144,39,123,82,88,38,18,18,1.6,1.4
2022-09-11T23:00:00,1138A,126.615,45.61,哈尔滨市,平房东轻厂,颗粒物(PM10),53,55,48,22,22,138,90,118,94,21,18,5,6,0.7,0.7
2022-09-11T23:00:00,1139A,126.595,45.9855,哈尔滨市,呼兰师专,颗粒物(PM10),57,64,72,26,31,134,79,118,94,35,27,10,10,0.8,0.9
2022-09-11T23:00:00,1140A,126.6206,45.6842,哈尔滨市,省农科院,颗粒物(PM10),54,58,62,23,26,142,44,125,62,71,39,6,12,0.7,0.7
2022-09-11T23:00:00,1141A,121.4,31.238,上海市,普陀,,36,36,32,21,11,100,50,89,69,26,19,3,3,0.4,0.4
2022-09-11T23:00:00,1142A,121.478,31.2036,上海市,十五厂,,37,37,31,21,18,99,51,90,67,23,16,10,6,0.3,0.1
2022-09-11T23:00:00,1143A,121.467,31.3008,上海市,虹口,,31,31,29,20,11,87,50,80,62,21,15,4,4,0.6,0.5
2022-09-11T23:00:00,1144A,121.412,31.1654,上海市,徐汇上师大,,40,40,31,19,13,100,50,90,68,25,15,11,5,1.2,0.6
2022-09-11T23:00:00,1145A,121.536,31.2659,上海市,杨浦四漂,,31,31,28,16,9,92,52,87,70,26,20,7,5,0.7,0.5
2022-09-11T23:00:00,1146A,120.978,31.0935,上海市,青浦淀山湖(对照点),,,,,,,,,,,,,,,,
2022-09-11T23:00:00,1147A,121.425,31.2261,上海市,静安监测站,,42,42,35,21,16,90,38,88,62,30,15,4,4,0.5,0.5
2022-09-11T23:00:00,1148A,121.703,31.1907,上海市,浦东川沙,,36,36,34,15,13,77,58,72,64,13,13,6,6,0.6,0.6
2022-09-11T23:00:00,1149A,121.533,31.2284,上海市,浦东新区监测站,,38,38,30,19,12,88,61,85,76,18,17,5,5,0.7,0.6
2022-09-11T23:00:00,1150A,121.577,31.2071,上海市,浦东张江,,32,30,27,22,16,78,38,72,55,33,21,4,4,0.7,0.6
2022-09-11T23:00:00,1151A,118.8086,32.1065,南京市,迈皋桥,,48,48,50,19,21,149,22,137,84,54,25,2,3,0.4,0.4
2022-09-11T23:00:00,1152A,118.7538,32.0551,南京市,草场门,,36,36,39,14,18,168,51,152,103,52,21,2,2,0.5,0.5
2022-09-11T23:00:00,1153A,118.7794,32.0745,南京市,山西路,颗粒物(PM10),53,56,45,27,23,179,36,159,103,55,15,4,4,0.4,0.4
2022-09-11T23:00:00,1154A,118.7752,32.0023,南京市,中华门,,44,44,44,12,14,190,78,165,118,21,15,3,4,0.5,0.5
2022-09-11T23:00:00,1155A,118.8109,32.0309,南京市,瑞金路,,38,38,40,26,23,179,75,164,116,30,14,4,4,0.6,0.6
2022-09-11T23:00:00,1156A,118.7997,32.0754,南京市,玄武湖,,46,46,43,19,21,174,41,152,96,48,17,4,4,0.5,0.5
2022-09-11T23:00:00,1157A,118.6414,32.0931,南京市,浦口,,35,35,43,9,18,176,98,157,116,12,18,6,6,0.5,0.6
2022-09-11T23:00:00,1158A,118.7356,31.9996,南京市,奥体中心,,39,39,43,19,22,200,86,176,126,28,19,5,5,0.5,0.5
2022-09-11T23:00:00,1159A,118.9125,32.1028,南京市,仙林大学城,,39,31,39,27,23,170,34,145,98,48,14,5,4,0.5,0.6
2022-09-11T23:00:00,1160A,120.561,31.2472,苏州市,上方山(对照点),,45,45,42,15,18,136,57,129,101,19,13,8,8,0.7,0.5
2022-09-11T23:00:00,1161A,120.628,31.2864,苏州市,南门,,,,,,,,,,,,,,,,
2022-09-11T23:00:00,1162A,120.591,31.3019,苏州市,彩香,,36,36,32,16,14,154,58,139,107,21,13,6,5,0.9,0.7
2022-09-11T23:00:00,1163A,120.596,31.3264,苏州市,轧钢厂,,41,41,35,22,15,145,51,130,97,20,7,6,5,0.8,0.6
2022-09-11T23:00:00,1164A,120.613,31.2703,苏州市,吴中区,,30,30,28,15,13,145,62,133,104,22,15,9,8,0.8,0.6
2022-09-11T23:00:00,1165A,120.543,31.2994,苏州市,苏州新区,,35,35,33,21,18,151,57,140,105,24,17,6,6,0.9,0.7
2022-09-11T23:00:00,1166A,120.669,31.3097,苏州市,苏州工业园区,,34,34,30,17,15,134,59,119,96,19,14,6,5,0.8,0.7
2022-09-11T23:00:00,1167A,120.641,31.3708,苏州市,相城区,,35,35,23,13,18,146,52,129,98,22,13,6,4,0.9,0.6
2022-09-11T23:00:00,1168A,120.9098,31.9663,南通市,狼山街道,,47,47,27,9,7,116,68,109,86,16,16,5,5,0.4,0.3
2022-09-11T23:00:00,1169A,120.86,32.0005,南通市,虹桥,,30,30,27,20,18,112,60,104,78,14,8,4,4,0.5,0.5
2022-09-11T23:00:00,1170A,120.87,32.02,南通市,城中,,,38,29,23,17,109,,99,83,12,13,4,4,0.5,0.5
2022-09-11T23:00:00,1171A,120.94,31.93,南通市,星湖花园,,36,36,26,12,11,110,64,103,82,10,10,5,5,0.5,0.5
2022-09-11T23:00:00,1172A,120.81,32.0417,南通市,紫琅学院,,39,39,31,7,8,121,68,113,84,12,12,5,5,0.4,0.4
2022-09-11T23:00:00,1173A,119.176,34.5885,连云港市,市环境监测站,,27,27,29,7,12,124,77,119,101,12,10,5,5,0.3,0.3
2022-09-11T23:00:00,1177A,117.179,34.2761,徐州市,黄河新村,颗粒物(PM10),57,63,65,39,35,203,130,182,153,15,20,8,10,0.9,0.8
2022-09-11T23:00:00,1178A,117.1918,34.2384,徐州市,淮塔,颗粒物(PM10),60,69,63,41,35,198,124,187,156,17,17,10,11,0.9,0.9
2022-09-11T23:00:00,1180A,117.256,34.2153,徐州市,新城区,细颗粒物(PM2.5),64,73,68,46,38,203,115,187,156,24,22,10,10,0.7,0.7
2022-09-11T23:00:00,1181A,117.244,34.2911,徐州市,桃园路,颗粒物(PM10),58,66,69,31,29,209,121,192,157,10,18,8,9,0.8,0.8
2022-09-11T23:00:00,1182A,117.2933,34.2778,徐州市,农科院,颗粒物(PM10),51,51,62,31,29,201,119,184,150,19,30,11,10,0.9,0.9
2022-09-11T23:00:00,1186A,119.389,32.3761,扬州市,邗江监测站,,41,41,42,22,24,129,62,124,100,15,13,8,7,0.6,0.6
2022-09-11T23:00:00,1188A,120.269,31.4867,无锡市,雪浪,,44,44,36,22,18,174,50,153,112,11,6,6,6,0.6,0.7
2022-09-11T23:00:00,1189A,120.275,31.6219,无锡市,黄巷,,45,45,43,14,20,179,50,159,115,20,10,6,6,0.7,0.8
2022-09-11T23:00:00,1190A,120.294,31.56,无锡市,曹张,,38,38,35,24,18,185,57,163,118,23,14,8,8,0.9,0.8
2022-09-11T23:00:00,1191A,120.242,31.5031,无锡市,漆塘,颗粒物(PM10),53,56,31,17,13,177,49,157,116,24,16,8,8,0.6,0.6
2022-09-11T23:00:00,1192A,120.3489,31.5863,无锡市,东亭,,34,34,38,19,18,182,59,157,112,12,10,8,9,0.8,0.9
2022-09-11T23:00:00,1193A,120.354,31.5475,无锡市,旺庄,,41,41,37,14,16,190,48,158,109,17,8,7,6,0.7,0.6
2022-09-11T23:00:00,1194A,120.245,31.5631,无锡市,荣巷,,31,31,36,19,22,204,73,181,138,16,15,8,8,0.6,0.7
2022-09-11T23:00:00,1195A,120.299,31.6817,无锡市,堰桥,,41,41,44,27,21,180,53,154,110,21,19,8,8,0.7,0.8
2022-09-11T23:00:00,1196A,119.9633,31.762,常州市,市监测站,,48,48,41,22,21,170,44,154,107,34,18,8,6,0.7,0.6
2022-09-11T23:00:00,1200A,119.9468,31.7069,常州市,武进监测站,,50,50,45,21,21,193,55,176,129,21,13,8,9,0.7,1
2022-09-11T23:00:00,1201A,119.9255,31.9087,常州市,安家,,44,44,43,23,26,171,50,155,105,28,16,10,8,0.5,0.5
2022-09-11T23:00:00,1203A,119.6707,32.1875,镇江市,新区办事处,,38,27,34,26,24,153,67,141,103,14,19,9,10,0.3,0.5
2022-09-11T23:00:00,1204A,119.4974,32.1968,镇江市,职教中心,,37,37,41,13,21,150,61,137,98,21,21,5,5,0.2,0.3
2022-09-11T23:00:00,1205A,119.4303,32.1328,镇江市,丹徒区监测站,,48,48,43,25,27,164,61,148,106,22,17,4,4,0.5,0.5
2022-09-11T23:00:00,1206A,119.905,32.4878,泰州市,公园路,,29,29,37,14,25,115,63,112,87,9,10,6,6,0.5,0.6
2022-09-11T23:00:00,1207A,119.9189,32.4625,泰州市,莲花,,27,27,34,9,25,129,63,122,94,11,11,7,8,0.6,0.6
2022-09-11T23:00:00,1209A,119.888,32.4639,泰州市,留学生创业园,,31,31,37,16,22,126,68,121,96,10,11,4,6,0.5,0.5
2022-09-11T23:00:00,1210A,119.036,33.5981,淮安市,钵池山,,29,29,30,14,19,121,69,110,89,12,12,5,5,0.6,0.6
2022-09-11T23:00:00,1211A,119.007,33.575,淮安市,北京南路,,29,29,34,18,20,128,64,115,86,13,11,6,6,0.5,0.5
2022-09-11T23:00:00,1212A,118.989,33.6067,淮安市,市监测站,,29,29,32,11,18,130,75,118,96,14,12,7,7,0.6,0.6
2022-09-11T23:00:00,1213A,119.135,33.5039,淮安市,楚州区监测站,,,29,37,12,21,103,,96,89,14,9,5,5,0.6,0.7
2022-09-11T23:00:00,1214A,119.0186,33.6297,淮安市,淮阴区监测站,,35,35,36,15,21,120,65,112,87,16,12,8,8,0.6,0.7
2022-09-11T23:00:00,1215A,120.118,33.4022,盐城市,盐城电厂,,27,27,32,12,20,120,52,111,86,23,11,4,5,0.4,0.4
2022-09-11T23:00:00,1216A,120.156,33.3942,盐城市,市监测站,,26,26,30,14,18,109,68,103,82,13,12,10,10,0.4,0.5
2022-09-11T23:00:00,1218A,120.2144,33.38,盐城市,开发区管委会,,28,16,16,19,11,107,65,101,80,6,7,14,9,0.3,0.3
2022-09-11T23:00:00,1220A,118.293,33.9528,宿迁市,宿迁学院,,38,38,39,16,25,167,51,154,100,46,20,4,7,0.1,0.2
2022-09-11T23:00:00,1221A,118.2442,33.9592,宿迁市,宿迁中学,,48,36,41,33,28,186,64,179,112,49,18,8,8,0.6,0.6
2022-09-11T23:00:00,1223A,120.2072,30.2111,杭州市,滨江,,,60,42,,43,164,93,158,140,36,20,8,7,0.6,0.5
2022-09-11T23:00:00,1224A,120.0633,30.2747,杭州市,西溪,,41,41,41,23,23,153,44,141,109,24,16,8,8,0.7,0.7
2022-09-11T23:00:00,1225A,119.026,29.635,杭州市,千岛湖(对照点),,,,,,,,,,,,,,,,
2022-09-11T23:00:00,1226A,120.3461,30.3153,杭州市,下沙,颗粒物(PM10),56,62,45,29,19,171,63,153,128,55,25,6,6,0.6,0.6
2022-09-11T23:00:00,1227A,120.1269,30.2456,杭州市,卧龙桥,,36,36,34,23,21,167,53,150,109,24,19,5,5,0.6,0.6
2022-09-11T23:00:00,1228A,120.1903,30.2692,杭州市,浙江农大,,47,47,35,24,20,167,88,157,136,36,21,5,5,0.5,0.4
2022-09-11T23:00:00,1229A,120.157,30.2897,杭州市,朝晖五区,,,,,,,,,,,,,,,,
2022-09-11T23:00:00,1230A,120.1197,30.3119,杭州市,和睦小学,颗粒物(PM10),53,56,47,17,26,160,82,149,123,43,25,4,3,0.7,0.6
2022-09-11T23:00:00,1231A,120.3019,30.4183,杭州市,临平镇,颗粒物(PM10),60,70,39,30,16,157,77,145,130,38,18,7,6,0.5,0.3
2022-09-11T23:00:00,1232A,120.2697,30.1819,杭州市,城厢镇,细颗粒物(PM2.5),60,56,40,43,26,162,91,154,140,37,19,6,6,0.5,0.5
2022-09-11T23:00:00,1233A,120.0883,30.1808,杭州市,云栖,,36,36,32,17,16,163,68,142,109,23,16,6,6,0.5,0.4
2022-09-11T23:00:00,1234A,121.8358,29.911,宁波市,区环保大楼,,31,31,30,16,16,123,55,109,77,20,18,9,12,0.5,0.6
2022-09-11T23:00:00,1235A,121.56,29.82,宁波市,万里学院,,38,38,34,19,23,122,60,112,93,18,17,6,6,0.7,0.8
2022-09-11T23:00:00,1236A,121.713,29.9572,宁波市,龙赛医院,,34,34,35,18,21,103,59,98,74,18,23,6,7,0.5,0.6
2022-09-11T23:00:00,1239A,121.633,29.7733,宁波市,钱湖水厂,,26,26,34,14,23,144,51,126,84,12,12,4,8,0.7,0.7
2022-09-11T23:00:00,1240A,121.5856,29.8635,宁波市,太古小学,,30,22,41,21,19,116,55,104,76,18,20,8,8,0.6,0.6
2022-09-11T23:00:00,1241A,121.524,29.8674,宁波市,市环境监测中心,,33,33,35,16,16,113,48,104,75,17,17,6,6,0.5,0.5
2022-09-11T23:00:00,1242A,120.634,28.0089,温州市,瓯海,颗粒物(PM10),54,58,42,30,23,165,87,150,116,25,23,7,7,0.5,0.5
2022-09-11T23:00:00,1243A,120.6748,27.9939,温州市,南浦,颗粒物(PM10),57,63,41,39,23,175,96,158,123,15,17,5,5,0.4,0.4
2022-09-11T23:00:00,1244A,120.76,27.9747,温州市,龙湾,"颗粒物(PM10),细颗粒物(PM2.5)",54,58,41,38,21,158,105,145,112,12,19,6,6,0.5,0.4
2022-09-11T23:00:00,1245A,120.6709,28.0167,温州市,市站,,48,42,35,33,21,175,75,156,120,33,19,6,6,0.4,0.4
2022-09-11T23:00:00,1246A,120.598,30.0911,绍兴市,袍江站,,,,,,,,,,,,,,,,
2022-09-11T23:00:00,1247A,120.6053,29.9928,绍兴市,城东开发委,细颗粒物(PM2.5),69,59,43,50,29,135,51,122,96,30,18,9,9,0.7,0.6
2022-09-11T23:00:00,1250A,120.0751,30.8669,湖州市,城西水厂,颗粒物(PM10),58,65,39,14,15,159,71,145,111,26,27,5,5,0.4,0.3
2022-09-11T23:00:00,1252A,120.7436,30.778,嘉兴市,清河小学,,40,40,27,16,12,151,54,142,110,16,15,5,5,0.4,0.4
2022-09-11T23:00:00,1253A,120.726,30.7478,嘉兴市,嘉兴学院,,37,37,32,20,15,150,54,143,115,16,14,4,4,0.4,0.4
2022-09-11T23:00:00,1255A,121.273,28.6459,台州市,黄岩环保大楼,,40,40,37,21,17,143,113,128,126,12,13,6,5,0.4,0.4
2022-09-11T23:00:00,1256A,121.419,28.6542,台州市,台州环保大楼,,34,32,33,21,19,143,107,129,124,13,14,7,7,0.4,0.4
2022-09-11T23:00:00,1257A,121.377,28.5773,台州市,路桥田洋王,,41,41,35,20,19,132,98,121,114,13,10,6,6,0.3,0.3
2022-09-11T23:00:00,1258A,122.122,30.0203,舟山市,定海檀枫,,30,30,26,16,12,94,61,88,73,11,9,2,2,0.5,0.4
2022-09-11T23:00:00,1259A,122.3094,29.9558,舟山市,普陀东港,,26,26,27,15,13,98,66,93,84,16,15,4,4,0.5,0.5
2022-09-11T23:00:00,1260A,122.19,29.9944,舟山市,临城新区,,32,32,29,16,13,95,62,87,76,9,9,3,4,0.4,0.3
2022-09-11T23:00:00,1261A,119.649,29.1131,金华市,四中(停运161031),,,,,,,,,,,,,,,,
2022-09-11T23:00:00,1262A,119.647,29.077,金华市,十五中,,41,41,44,27,28,200,127,169,144,16,19,6,6,0.4,0.5
2022-09-11T23:00:00,1263A,119.686,29.1029,金华市,监测站,,50,50,47,27,29,198,118,175,148,28,21,10,8,0.5,0.5
2022-09-11T23:00:00,1264A,118.8692,28.9398,衢州市,环保大楼,,48,48,50,29,32,183,116,178,148,20,19,7,8,0.4,0.5
2022-09-11T23:00:00,1265A,118.8709,28.9666,衢州市,实验学校,,43,43,43,23,30,194,136,187,158,17,18,7,9,0.4,0.5
2022-09-11T23:00:00,1266A,118.8621,28.9808,衢州市,衢州学院,,47,47,46,29,32,191,118,184,150,22,17,9,12,0.5,0.6
2022-09-11T23:00:00,1267A,119.914,28.4514,丽水市,监测站大楼,,36,36,41,18,26,176,77,161,137,22,15,6,7,0.4,0.4
2022-09-11T23:00:00,1268A,119.93,28.4586,丽水市,莲都小学,颗粒物(PM10),53,55,49,35,23,182,100,167,144,14,13,6,6,0.3,0.3
2022-09-11T23:00:00,1269A,119.879,28.4231,丽水市,余庄前,,38,27,38,26,22,186,54,170,128,19,14,7,8,0.4,0.4
2022-09-11T23:00:00,1270A,117.1959,31.7848,合肥市,明珠广场,颗粒物(PM10),52,53,50,24,24,194,90,182,144,24,23,8,9,0.5,0.5
2022-09-11T23:00:00,1271A,117.3072,31.8764,合肥市,三里街,,47,47,46,12,21,179,76,162,120,30,22,5,9,0.6,0.6
2022-09-11T23:00:00,1272A,117.2588,31.8707,合肥市,琥珀山庄,,44,44,41,19,20,176,88,163,126,17,15,8,8,0.4,0.5
2022-09-11T23:00:00,1273A,117.1604,31.9052,合肥市,董铺水库(对照点),,46,46,43,14,18,166,82,150,117,18,23,8,9,0.5,0.6
2022-09-11T23:00:00,1274A,117.25,31.8571,合肥市,长江中路,,46,46,47,31,27,184,90,171,134,18,13,9,11,0.7,0.7
2022-09-11T23:00:00,1275A,117.266,31.9436,合肥市,庐阳区,颗粒物(PM10),51,51,50,24,25,178,84,172,120,22,18,9,10,0.2,0.6
2022-09-11T23:00:00,1276A,117.336,31.8586,合肥市,瑶海区,颗粒物(PM10),56,61,54,27,23,195,64,176,120,43,19,10,12,0.6,0.6
2022-09-11T23:00:00,1277A,117.3027,31.7964,合肥市,包河区,颗粒物(PM10),57,63,52,34,26,205,48,177,114,59,36,9,11,0.5,0.6
2022-09-11T23:00:00,1278A,117.2776,31.7385,合肥市,滨湖新区,颗粒物(PM10),52,53,53,24,23,212,95,188,144,18,21,8,10,0.5,0.6
2022-09-11T23:00:00,1279A,117.1318,31.8403,合肥市,高新区,,46,46,46,19,19,180,103,167,135,18,22,4,5,0.5,0.6
2022-09-11T23:00:00,1280A,119.3903,26.0543,福州市,鼓山(对照点),,,,,,,,,,,,,,,,
2022-09-11T23:00:00,1282A,119.2681,26.0504,福州市,师大,,45,45,36,18,14,169,120,154,136,16,8,5,4,0.4,0.4
2022-09-11T23:00:00,1283A,119.2984,26.1028,福州市,五四北路,,38,38,30,18,12,150,112,143,133,22,16,4,4,0.4,0.4
2022-09-11T23:00:00,1284A,119.2648,26.0768,福州市,杨桥西路,,48,48,34,15,14,160,116,151,138,15,7,5,4,0.4,0.4
2022-09-11T23:00:00,1285A,119.317,26.0746,福州市,紫阳,,43,43,31,18,13,152,121,146,138,15,9,6,5,0.4,0.4
2022-09-11T23:00:00,1286A,118.1608,24.8169,厦门市,溪东(对照点),,,,,,,,,,,,,,,,
2022-09-11T23:00:00,1287A,118.1514,24.4767,厦门市,洪文,,39,39,42,19,25,161,80,138,104,15,9,2,2,0.4,0.4
2022-09-11T23:00:00,1288A,118.0661,24.4444,厦门市,鼓浪屿,,29,29,39,16,25,137,71,118,95,19,9,2,2,0.4,0.5
2022-09-11T23:00:00,1290A,115.8931,28.6843,南昌市,省外办,颗粒物(PM10),58,65,48,20,19,175,128,167,148,19,14,11,12,0.9,0.9
2022-09-11T23:00:00,1291A,115.8886,28.7003,南昌市,省林业公司,颗粒物(PM10),59,68,44,24,22,182,120,171,149,28,20,7,8,0.8,0.7
2022-09-11T23:00:00,1292A,115.8126,28.7442,南昌市,林科所,,47,41,38,19,19,186,149,178,157,15,11,8,8,0.7,0.7
2022-09-11T23:00:00,1294A,115.8518,28.687,南昌市,建工学校,颗粒物(PM10),56,62,46,32,26,177,135,173,159,27,20,11,12,0.9,0.8
2022-09-11T23:00:00,1295A,115.8921,28.6424,南昌市,象湖,,47,47,39,22,18,184,131,174,160,18,13,6,8,0.8,0.7
2022-09-11T23:00:00,1296A,115.7423,28.7996,南昌市,武术学校(对照点),,38,35,33,26,26,170,58,153,116,6,4,3,4,0.4,0.4
2022-09-11T23:00:00,1298A,115.9314,28.6842,南昌市,省站,颗粒物(PM10),65,80,56,28,27,174,122,162,146,26,19,7,8,1.0,0.9
2022-09-11T23:00:00,1299A,116.9862,36.6114,济南市,科干所,细颗粒物(PM2.5),70,85,81,51,50,217,66,198,141,50,24,4,7,0.8,0.8
2022-09-11T23:00:00,1300A,116.9376,36.665,济南市,农科所,颗粒物(PM10),57,63,76,32,41,208,57,189,135,42,24,5,7,0.6,0.7
2022-09-11T23:00:00,1301A,117.1265,36.6734,济南市,开发区,颗粒物(PM10),70,90,77,40,40,214,39,191,130,82,30,3,6,0.8,0.8
2022-09-11T23:00:00,1303A,117.0624,36.6868,济南市,省种子仓库,颗粒物(PM10),76,102,90,44,50,208,52,190,136,59,26,4,6,0.9,1
2022-09-11T23:00:00,1304A,116.9489,36.6447,济南市,机床二厂,颗粒物(PM10),81,111,100,54,47,219,55,200,151,58,26,6,8,1.4,1
2022-09-11T23:00:00,1305A,117.0495,36.663,济南市,市监测站,细颗粒物(PM2.5),68,83,80,49,48,210,61,189,134,64,25,6,8,1.0,1
2022-09-11T23:00:00,1306A,116.7675,36.5484,济南市,长清党校,细颗粒物(PM2.5),80,93,86,59,58,210,76,202,154,50,26,5,6,0.8,0.8
2022-09-11T23:00:00,1307A,120.6659,36.2403,青岛市,仰口(对照点),,,,,,,,,,,,,,,,
2022-09-11T23:00:00,1308A,120.3905,36.1851,青岛市,李沧区子站,,,,,,,,,,,,,,,,
2022-09-11T23:00:00,1309A,120.3471,36.0699,青岛市,市北区子站,,,,,,,,,,,,,,,,
2022-09-11T23:00:00,1310A,120.4134,36.0658,青岛市,市南区东部子站,,38,12,13,5,8,124,119,120,120,5,10,6,6,0.2,0.3
2022-09-11T23:00:00,1311A,120.3664,36.1032,青岛市,四方区子站,,35,12,16,9,9,113,111,111,111,7,11,5,5,0.4,0.4
2022-09-11T23:00:00,1312A,120.2994,36.054,青岛市,市南区西部子站,,37,17,13,2,5,138,116,127,127,5,7,6,6,0.5,0.5
2022-09-11T23:00:00,1313A,120.4581,36.0858,青岛市,崂山区子站,,36,17,17,7,9,130,114,126,125,6,10,5,5,0.3,0.3
2022-09-11T23:00:00,1314A,120.1983,35.9608,青岛市,黄岛区子站,,35,9,15,15,12,136,110,124,123,5,9,4,5,0.4,0.4
2022-09-11T23:00:00,1315A,120.3999,36.3083,青岛市,城阳区子站,,30,25,22,14,9,130,93,123,106,23,16,5,5,0.6,0.5
2022-09-11T23:00:00,1316A,113.69031,34.76122,郑州市,烟厂,颗粒物(PM10),66,81,58,47,32,194,69,185,148,68,26,2,5,0.8,0.6
2022-09-11T23:00:00,1317A,113.65724,34.77134,郑州市,郑纺机,颗粒物(PM10),65,79,60,40,29,196,71,185,147,58,28,6,10,0.8,0.5
2022-09-11T23:00:00,1318A,113.67526,34.80246,郑州市,银行学校,颗粒物(PM10),65,80,57,40,33,188,75,176,143,55,27,5,9,1.1,0.9
2022-09-11T23:00:00,1319A,113.56746,34.81334,郑州市,供水公司,颗粒物(PM10),63,75,60,31,28,200,54,181,144,60,26,3,7,0.8,0.6
2022-09-11T23:00:00,1320A,113.7329,34.7178,郑州市,经开区管委,"颗粒物(PM10),细颗粒物(PM2.5)",72,94,57,52,31,204,27,192,142,91,28,3,4,0.9,0.7
2022-09-11T23:00:00,1321A,113.73961,34.77172,郑州市,四十七中,颗粒物(PM10),57,63,53,38,27,203,96,191,158,38,25,5,8,0.8,0.7
2022-09-11T23:00:00,1322A,113.60532,34.74838,郑州市,市监测站,,,97,64,,,210,8,196,139,124,34,2,5,0.9,0.6
2022-09-11T23:00:00,1323A,113.64164,34.7525,郑州市,河医大,颗粒物(PM10),61,71,62,36,30,204,24,188,130,93,30,6,9,1.0,0.7
2022-09-11T23:00:00,1324A,113.51488,34.91089,郑州市,岗李水库(对照点),,,,,,,,,,,,,,,,
2022-09-11T23:00:00,1325A,114.3677,30.5584,武汉市,东湖梨园,,44,44,50,17,33,243,136,193,154,13,22,9,18,0.7,1.4
2022-09-11T23:00:00,1326A,114.2529,30.558,武汉市,汉阳月湖,,42,40,42,17,26,190,133,173,146,17,19,7,7,0.7,0.8
2022-09-11T23:00:00,1327A,114.282,30.6189,武汉市,汉口花桥,,46,46,48,22,29,190,144,174,153,10,13,8,8,0.8,0.9
2022-09-11T23:00:00,1328A,114.3025,30.5332,武汉市,武昌紫阳,,43,40,41,18,29,189,135,175,148,13,22,11,17,0.6,1.1
2022-09-11T23:00:00,1329A,114.3646,30.6217,武汉市,青山钢花,,43,43,50,27,33,185,120,167,135,22,17,8,8,0.6,0.7
2022-09-11T23:00:00,1330A,114.1566,30.4825,武汉市,沌口新区,,44,44,50,24,31,204,129,186,154,16,20,8,10,0.7,1
2022-09-11T23:00:00,1331A,114.3014,30.5944,武汉市,汉口江滩,,43,41,44,18,28,191,137,174,146,13,15,8,7,0.7,0.9
2022-09-11T23:00:00,1333A,114.135,30.6319,武汉市,吴家山,,44,40,50,20,28,185,140,175,153,12,12,6,6,0.7,0.8
2022-09-11T23:00:00,1334A,113.8454,30.2917,武汉市,沉湖七壕(对照点),颗粒物(PM10),53,55,50,23,29,229,118,204,164,38,40,8,10,0.7,0.9
2022-09-11T23:00:00,1335A,113.0833,28.2325,长沙市,经开区环保局,细颗粒物(PM2.5),65,64,49,47,42,212,127,191,163,26,16,9,11,0.6,0.5
2022-09-11T23:00:00,1336A,112.8872,28.2189,长沙市,高开区环保局,颗粒物(PM10),55,60,59,28,39,207,138,190,166,15,17,9,9,0.6,0.6
2022-09-11T23:00:00,1337A,113.0792,28.2053,长沙市,马坡岭,"颗粒物(PM10),细颗粒物(PM2.5)",62,73,58,44,43,208,120,185,157,26,16,10,11,0.4,0.3
2022-09-11T23:00:00,1338A,112.9394,28.19,长沙市,湖南师范大学,颗粒物(PM10),55,59,60,34,44,209,138,200,160,8,9,5,4,0.5,0.5
2022-09-11T23:00:00,1339A,113.0178,28.1322,长沙市,雨花区环保局,颗粒物(PM10),54,58,51,34,34,231,158,209,185,18,17,8,9,0.4,0.3
2022-09-11T23:00:00,1340A,112.9792,28.2597,长沙市,伍家岭,细颗粒物(PM2.5),57,59,60,40,41,207,136,187,160,16,18,8,7,0.5,0.5
2022-09-11T23:00:00,1341A,113.0014,28.1944,长沙市,火车新站,细颗粒物(PM2.5),55,49,50,39,39,216,148,194,170,12,12,8,8,0.6,0.6
2022-09-11T23:00:00,1342A,112.9844,28.1178,长沙市,天心区环保局,颗粒物(PM10),57,64,57,34,39,202,136,190,165,20,17,6,6,0.6,0.5
2022-09-11T23:00:00,1343A,112.8908,28.1308,长沙市,湖南中医药大学,,,57,51,41,43,203,115,190,156,12,11,,5,0.7,0.6
2022-09-11T23:00:00,1344A,112.9581,28.3611,长沙市,沙坪(对照点),,49,49,52,33,34,194,141,186,169,10,12,6,7,0.8,0.7
2022-09-11T23:00:00,1345A,113.2347,23.1423,广州市,广雅中学,颗粒物(PM10),66,81,54,42,33,192,50,165,115,87,30,8,8,1.1,0.9
2022-09-11T23:00:00,1346A,113.2612,23.105,广州市,市五中,细颗粒物(PM2.5),79,83,51,58,38,211,57,182,125,70,21,7,7,1.1,0.8
2022-09-11T23:00:00,1348A,113.3478,23.0916,广州市,广东商学院,细颗粒物(PM2.5),77,96,56,56,37,189,21,164,111,98,28,6,5,0.9,0.6
2022-09-11T23:00:00,1349A,113.4332,23.1047,广州市,市八十六中,颗粒物(PM10),63,76,57,44,36,186,93,163,130,44,27,7,6,0.9,0.8
2022-09-11T23:00:00,1350A,113.3505,22.9483,广州市,番禺中学,颗粒物(PM10),69,87,56,47,34,204,53,184,135,54,18,4,5,1.2,0.9
2022-09-11T23:00:00,1351A,113.2146,23.3916,广州市,花都师范,颗粒物(PM10),62,74,52,41,35,186,83,169,145,35,22,8,8,1.1,0.9
2022-09-11T23:00:00,1352A,113.2597,23.1331,广州市,市监测站,细颗粒物(PM2.5),69,86,55,50,36,207,48,178,117,70,24,7,7,1.2,1
2022-09-11T23:00:00,1353A,113.5618,23.312,广州市,九龙镇镇龙,颗粒物(PM10),65,80,63,46,41,143,22,133,81,37,19,5,5,1.0,0.9
2022-09-11T23:00:00,1354A,113.2765,23.1544,广州市,麓湖,细颗粒物(PM2.5),69,74,49,50,33,200,54,168,107,46,26,4,5,1.0,0.8
2022-09-11T23:00:00,1355A,113.443,23.3035,广州市,帽峰山森林公园(对照点),,49,49,47,33,33,164,124,136,120,6,8,6,5,0.8,0.7
2022-09-11T23:00:00,1356A,114.1063,22.5545,深圳市,通心岭子站,细颗粒物(PM2.5),58,58,55,41,39,210,79,180,153,20,14,4,4,1.0,0.9
2022-09-11T23:00:00,1357A,114.117,22.5625,深圳市,洪湖,细颗粒物(PM2.5),63,73,64,45,43,216,107,183,158,19,15,7,6,0.6,0.6
2022-09-11T23:00:00,1358A,113.987,22.5417,深圳市,华侨城,颗粒物(PM10),56,61,63,31,41,208,114,176,150,20,18,4,4,0.7,0.7
2022-09-11T23:00:00,1359A,113.9181,22.5171,深圳市,南海子站,细颗粒物(PM2.5),58,57,57,41,38,253,68,209,157,61,22,7,5,0.7,0.8
2022-09-11T23:00:00,1360A,114.2458,22.5689,深圳市,盐田,,49,44,45,34,38,194,123,172,144,17,24,4,5,0.9,1
2022-09-11T23:00:00,1361A,114.2283,22.7244,深圳市,龙岗,"颗粒物(PM10),细颗粒物(PM2.5)",63,75,64,45,42,180,13,160,100,101,21,6,5,0.7,0.5
2022-09-11T23:00:00,1362A,113.8953,22.5861,深圳市,西乡,,,,,,,,,,,,,,,,
2022-09-11T23:00:00,1363A,114.494,22.5422,深圳市,南澳,颗粒物(PM10),51,52,53,32,37,211,91,184,144,10,11,5,3,0.9,1
2022-09-11T23:00:00,1364A,114.41,22.6342,深圳市,葵涌,细颗粒物(PM2.5),53,52,54,37,39,185,65,174,132,16,10,9,9,0.9,0.9
2022-09-11T23:00:00,1365A,114.297,22.5978,深圳市,梅沙,,47,47,52,32,38,188,109,170,138,13,16,8,7,0.8,0.9
2022-09-11T23:00:00,1366A,114.0678,22.738,深圳市,观澜,颗粒物(PM10),90,129,69,49,39,189,12,164,96,28,16,7,7,0.6,0.6
2022-09-11T23:00:00,1367A,113.5814,22.2618,珠海市,吉大,,50,50,46,35,34,159,91,147,121,15,8,6,6,0.9,0.8
2022-09-11T23:00:00,1368A,113.4881,22.2335,珠海市,前山,细颗粒物(PM2.5),54,56,56,38,29,175,91,154,123,25,19,7,5,0.7,0.6
2022-09-11T23:00:00,1369A,113.628,22.4251,珠海市,唐家,细颗粒物(PM2.5),60,53,47,43,36,186,92,174,148,15,9,6,6,0.7,0.6
2022-09-11T23:00:00,1370A,113.299,22.2281,珠海市,斗门,,50,42,39,35,27,167,116,148,134,10,10,7,8,0.7,0.7
2022-09-11T23:00:00,1371A,113.1294,23.0067,佛山市,湾梁,颗粒物(PM10),69,88,51,40,31,221,61,188,142,48,16,8,8,0.8,0.5
2022-09-11T23:00:00,1372A,113.1083,23.0478,佛山市,华材职中,颗粒物(PM10),63,75,53,43,35,212,30,170,110,66,28,10,11,0.8,0.5
2022-09-11T23:00:00,1373A,113.144,23.0453,佛山市,南海气象局,细颗粒物(PM2.5),69,82,52,50,35,208,49,177,131,67,22,11,10,0.8,0.6
2022-09-11T23:00:00,1374A,113.2881,22.8094,佛山市,顺德苏岗,细颗粒物(PM2.5),55,50,34,39,30,228,64,190,138,39,16,6,6,1.0,0.7
2022-09-11T23:00:00,1375A,113.2544,22.7642,佛山市,容桂街道办,,,,,,,,,,,,,,,,
2022-09-11T23:00:00,1376A,112.8383,22.8678,佛山市,高明孔堂,颗粒物(PM10),52,53,48,33,29,184,78,161,129,22,16,8,10,0.6,0.6
2022-09-11T23:00:00,1377A,112.8836,23.1588,佛山市,三水监测站,细颗粒物(PM2.5),82,85,50,60,35,172,15,152,103,67,23,9,6,0.9,0.7
2022-09-11T23:00:00,1378A,112.867,23.185,佛山市,三水云东海,颗粒物(PM10),67,83,51,34,32,156,14,128,77,52,23,6,8,0.7,0.6
2022-09-11T23:00:00,1379A,113.3769,22.5211,中山市,华柏园,,50,50,51,20,31,220,114,202,177,17,14,6,6,0.7,0.7
2022-09-11T23:00:00,1380A,113.3881,22.5497,中山市,张溪,颗粒物(PM10),54,58,56,29,32,229,112,208,181,16,11,4,5,0.8,0.7
2022-09-11T23:00:00,1381A,113.4075,22.5111,中山市,紫马岭,颗粒物(PM10),53,56,55,33,31,221,87,194,164,26,14,6,6,0.7,0.6
2022-09-11T23:00:00,1382A,113.4411,22.4853,中山市,长江旅游区(对照点),细颗粒物(PM2.5),54,48,45,38,33,200,83,173,138,9,8,9,10,0.6,0.6
2022-09-11T23:00:00,1383A,113.1064,22.6058,江门市,北街,颗粒物(PM10),54,57,46,31,27,248,135,212,193,19,10,10,7,0.8,0.7
2022-09-11T23:00:00,1384A,113.0731,22.5835,江门市,西区,细颗粒物(PM2.5),59,60,50,42,33,248,127,200,181,30,16,10,7,0.7,0.7
2022-09-11T23:00:00,1385A,113.0219,22.5311,江门市,圭峰西,颗粒物(PM10),59,68,49,41,32,220,90,192,176,22,11,7,7,0.8,0.7
2022-09-11T23:00:00,1386A,113.0828,22.5947,江门市,东湖,"颗粒物(PM10),细颗粒物(PM2.5)",57,64,50,40,32,246,131,206,184,21,13,9,7,0.8,0.7
2022-09-11T23:00:00,1387A,113.7875,23.0457,东莞市,东城主山,,,,,,,,,,,,,,,,
2022-09-11T23:00:00,1388A,113.7533,23.0202,东莞市,南城元岭,,,,,,,,,,,,,,,,
2022-09-11T23:00:00,1389A,113.7547,23.0494,东莞市,莞城梨川,细颗粒物(PM2.5),63,73,54,45,35,201,66,171,122,42,18,11,10,1.3,1.2
2022-09-11T23:00:00,1390A,113.7944,23.0128,东莞市,东城石井,细颗粒物(PM2.5),58,57,49,41,34,202,63,169,118,27,17,12,12,0.9,0.9
2022-09-11T23:00:00,1391A,113.7383,22.9658,东莞市,南城西平,颗粒物(PM10),55,60,50,38,34,211,67,177,119,38,18,14,12,1.0,0.9
2022-09-11T23:00:00,1392A,114.4183,23.0528,惠州市,河南岸金山湖子站,颗粒物(PM10),71,92,77,35,36,163,49,146,89,34,19,4,5,0.9,0.8
2022-09-11T23:00:00,1393A,114.4053,23.0822,惠州市,下埔横江三路子站,颗粒物(PM10),63,76,62,31,28,179,43,158,108,50,17,4,5,0.9,0.8
2022-09-11T23:00:00,1394A,114.4103,23.1142,惠州市,江北云山西路子站,,47,47,65,28,38,177,77,160,113,20,10,5,6,0.7,0.7
2022-09-11T23:00:00,1395A,114.4645,22.7833,惠州市,惠阳区承修路船湖子站,颗粒物(PM10),71,91,61,40,38,161,88,152,116,18,11,7,6,1.0,0.9
2022-09-11T23:00:00,1396A,114.5317,22.7422,惠州市,大亚湾管委会子站,颗粒物(PM10),70,89,60,34,37,176,114,156,116,22,19,4,3,0.8,0.7
2022-09-11T23:00:00,1397A,112.4267,23.0706,肇庆市,睦岗子站,,40,40,36,25,22,144,32,115,69,43,26,4,4,0.6,0.5
2022-09-11T23:00:00,1398A,112.4645,23.0475,肇庆市,城中子站,,38,38,34,26,22,158,34,124,76,46,28,7,9,0.7,0.6
2022-09-11T23:00:00,1399A,112.5544,23.1522,肇庆市,坑口子站,,42,34,34,29,23,152,72,129,100,17,16,7,8,0.6,0.5
2022-09-11T23:00:00,1400A,112.4753,23.1,肇庆市,七星岩子站(对照点),,,,,,,,,,,,,,,,
2022-09-11T23:00:00,1401A,108.3103,22.7881,南宁市,二十一中,,24,24,30,15,19,92,31,69,49,23,18,9,10,0.7,0.7
2022-09-11T23:00:00,1402A,108.3141,22.8528,南宁市,北湖,,30,28,39,21,22,87,27,64,42,19,15,10,8,0.6,0.7
2022-09-11T23:00:00,1403A,108.3206,22.8225,南宁市,市监测站,,22,18,34,15,24,90,24,62,41,31,20,10,9,0.6,0.7
2022-09-11T23:00:00,1404A,108.3829,22.8037,南宁市,大自然花园,,18,16,23,12,18,85,29,67,45,21,14,8,7,0.7,0.7
2022-09-11T23:00:00,1405A,108.4394,22.7904,南宁市,仙葫(对照点),,42,42,27,12,16,88,24,60,41,23,15,7,7,0.8,0.7
2022-09-11T23:00:00,1406A,108.2397,22.8467,南宁市,区农职院,,29,26,32,20,20,88,29,72,54,17,13,8,10,0.8,0.7
2022-09-11T23:00:00,1407A,108.3275,22.735,南宁市,英华嘉园,,20,20,28,14,16,85,18,63,44,30,16,6,6,0.8,0.7
2022-09-11T23:00:00,1408A,108.2257,22.7757,南宁市,沙井镇街道办,,36,30,29,25,19,85,28,73,53,22,15,8,10,0.7,0.6
2022-09-11T23:00:00,1409A,110.576,19.9507,海口市,东寨港(对照点),,,38,43,32,22,,,,,,,3,3,0.0,0.1
2022-09-11T23:00:00,1410A,110.3232,20.0574,海口市,海南大学,颗粒物(PM10),53,55,43,25,22,152,84,144,125,12,8,6,6,0.9,0.8
2022-09-11T23:00:00,1411A,110.283,20.0053,海口市,秀英海南医院,,,,53,20,30,147,83,136,117,26,15,6,6,0.6,0.6
2022-09-11T23:00:00,1412A,110.338,19.9969,海口市,海南师范大学,颗粒物(PM10),54,58,47,30,20,151,76,142,116,28,13,4,4,0.7,0.7
2022-09-11T23:00:00,1413A,110.33,20.0356,海口市,龙华路环保局宿舍,,48,48,43,21,18,150,82,141,123,24,8,4,4,0.7,0.6
2022-09-11T23:00:00,1414A,106.3787,29.8279,重庆市,缙云山(对照点),,50,49,63,35,44,192,152,172,164,30,34,15,17,0.5,0.5
2022-09-11T23:00:00,1416A,106.4213,29.8253,重庆市,天生,细颗粒物(PM2.5),89,76,68,66,54,200,79,181,150,25,23,7,7,0.8,0.8
2022-09-11T23:00:00,1417A,106.6263,29.7228,重庆市,两路,细颗粒物(PM2.5),75,67,68,55,48,203,99,179,152,42,44,13,9,1.0,1.1
2022-09-11T23:00:00,1418A,106.2953,29.5983,重庆市,虎溪,细颗粒物(PM2.5),65,67,58,47,38,178,75,163,140,37,25,8,9,0.6,0.5
2022-09-11T23:00:00,1419A,106.5777,29.5102,重庆市,南坪,细颗粒物(PM2.5),73,80,62,53,41,227,102,187,165,38,26,4,9,0.8,0.8
2022-09-11T23:00:00,1420A,106.6556,29.6277,重庆市,唐家沱,细颗粒物(PM2.5),68,72,56,49,38,221,83,192,162,47,36,7,7,0.7,0.7
2022-09-11T23:00:00,1421A,106.6349,29.4906,重庆市,茶园,细颗粒物(PM2.5),70,80,54,51,33,250,86,208,179,73,34,7,7,0.7,0.6
2022-09-11T23:00:00,1422A,106.3754,29.4572,重庆市,白市驿,细颗粒物(PM2.5),75,68,59,55,35,203,127,181,158,16,17,7,10,0.7,0.7
2022-09-11T23:00:00,1425A,106.6205,29.7166,重庆市,空港,细颗粒物(PM2.5),75,89,69,55,50,218,89,186,153,46,33,8,6,0.9,1
2022-09-11T23:00:00,1426A,106.4782,29.4875,重庆市,新山村,细颗粒物(PM2.5),78,54,63,57,39,224,95,186,163,54,45,8,11,0.7,0.6
2022-09-11T23:00:00,1427A,106.5616,29.6453,重庆市,礼嘉,细颗粒物(PM2.5),58,51,52,41,32,223,126,202,177,29,42,11,11,0.9,1
2022-09-11T23:00:00,1428A,106.4522,29.7091,重庆市,蔡家,细颗粒物(PM2.5),64,66,65,46,47,181,83,162,142,28,24,5,6,0.7,0.7
2022-09-11T23:00:00,1429A,106.5093,29.3917,重庆市,鱼新街,细颗粒物(PM2.5),84,77,53,62,40,186,47,165,140,72,26,8,14,1.3,1
2022-09-11T23:00:00,1431A,103.9728,30.7236,成都市,金泉两河,细颗粒物(PM2.5),78,59,47,57,40,138,73,128,113,22,14,2,3,0.8,0.7
2022-09-11T23:00:00,1432A,104.1419,30.6764,成都市,十里店,细颗粒物(PM2.5),74,70,48,54,38,130,70,124,111,17,8,5,5,0.7,0.6
2022-09-11T23:00:00,1433A,104.0594,30.5767,成都市,三瓦窑,细颗粒物(PM2.5),55,48,43,39,37,129,68,122,107,34,18,2,3,0.8,0.8
2022-09-11T23:00:00,1434A,104.1122,30.6306,成都市,沙河铺,颗粒物(PM10),52,54,48,33,33,130,59,121,106,17,10,5,5,0.8,0.7
2022-09-11T23:00:00,1437A,104.0431,30.6556,成都市,君平街,细颗粒物(PM2.5),59,48,48,42,40,132,81,127,116,15,7,1,3,0.9,0.8
2022-09-11T23:00:00,1438A,103.6202,31.0201,成都市,灵岩寺(对照点),细颗粒物(PM2.5),53,49,38,37,28,135,132,119,119,6,7,6,5,0.8,0.8
2022-09-11T23:00:00,1439A,106.6899,26.5998,贵阳市,马鞍山,,45,34,38,31,33,100,29,85,64,6,7,5,5,0.6,0.6
2022-09-11T23:00:00,1440A,106.6971,26.5694,贵阳市,市环保站,,49,41,37,34,34,113,72,97,92,13,10,3,4,0.4,0.4
2022-09-11T23:00:00,1441A,106.6243,26.6266,贵阳市,鉴湖路,,42,41,44,29,32,117,72,106,92,6,8,3,4,0.4,0.4
2022-09-11T23:00:00,1442A,106.7487,26.6343,贵阳市,燕子冲,细颗粒物(PM2.5),52,41,45,36,42,114,56,93,86,4,6,6,6,0.6,0.7
2022-09-11T23:00:00,1443A,106.6555,26.4365,贵阳市,碧云窝,,39,39,54,27,35,114,103,104,91,5,7,4,4,0.4,0.6
2022-09-11T23:00:00,1444A,106.694,26.5161,贵阳市,中院村,,,34,47,29,37,102,86,95,92,6,8,8,8,,
2022-09-11T23:00:00,1445A,106.7109,26.6027,贵阳市,红边门,,,,,,,,,,,,,,,,
2022-09-11T23:00:00,1446A,106.7164,26.5699,贵阳市,新华路,细颗粒物(PM2.5),58,41,39,41,40,107,79,95,92,8,4,4,3,0.5,0.6
2022-09-11T23:00:00,1447A,106.674,26.5424,贵阳市,太慈桥,,44,44,45,27,29,111,37,97,81,7,7,4,4,0.5,0.5
2022-09-11T23:00:00,1450A,102.8204,24.8886,昆明市,呈贡新区,,18,17,18,5,10,68,57,61,54,9,12,10,7,0.3,0.2
2022-09-11T23:00:00,1451A,102.6251,24.9608,昆明市,西山森林公园(对照点),,15,7,7,0,3,62,47,52,48,6,8,5,5,0.5,0.6
2022-09-11T23:00:00,1452A,102.7252,25.0902,昆明市,龙泉镇,,14,14,10,7,7,72,26,55,41,27,10,6,6,0.4,0.4
2022-09-11T23:00:00,1453A,102.7266,25.0375,昆明市,东风东路,,12,9,11,6,7,66,36,52,38,18,16,4,5,0.4,0.5
2022-09-11T23:00:00,1454A,102.6742,25.0669,昆明市,金鼎山,,13,5,12,5,7,71,40,56,44,10,9,4,4,0.4,0.5
2022-09-11T23:00:00,1455A,102.6644,25.0401,昆明市,碧鸡广场,,15,3,9,10,11,71,45,62,50,12,12,7,7,0.5,0.6
2022-09-11T23:00:00,1456A,91.1319,29.6514,拉萨市,八廓街,,28,5,5,0,1,105,87,101,94,8,6,8,7,0,0
2022-09-11T23:00:00,1457A,91.1221,29.6747,拉萨市,市环保局,,26,6,5,2,2,103,82,98,91,9,6,7,7,0.1,0.1
2022-09-11T23:00:00,1458A,91.0874,29.6475,拉萨市,区监测站,,32,4,6,0,0,114,100,110,103,4,4,9,8,0.2,0.2
2022-09-11T23:00:00,1459A,91.1774,29.6541,拉萨市,西藏大学,,28,11,7,4,2,105,87,101,96,9,7,11,10,0.2,0.1
2022-09-11T23:00:00,1460A,90.9798,29.6588,拉萨市,区辐射站,,27,4,5,16,17,101,86,96,89,5,8,9,9,0.1,0.1
2022-09-11T23:00:00,1461A,91.0834,29.6292,拉萨市,拉萨火车站,,,,,1,3,105,92,101,95,5,5,10,10,0,0
2022-09-11T23:00:00,1462A,108.882,34.2749,西安市,高压开关厂,细颗粒物(PM2.5),80,94,68,59,40,165,72,149,128,30,17,7,10,0.9,0.7
2022-09-11T23:00:00,1463A,108.993,34.2629,西安市,兴庆小区,细颗粒物(PM2.5),82,85,63,60,38,141,83,129,115,34,17,5,7,1.0,0.8
2022-09-11T23:00:00,1464A,109.06,34.2572,西安市,纺织城,细颗粒物(PM2.5),83,104,76,61,43,148,9,129,82,85,40,6,8,1.1,1
2022-09-11T23:00:00,1465A,108.9356,34.2173,西安市,小寨,颗粒物(PM10),66,82,65,47,39,160,78,137,121,39,24,3,3,0.8,0.7
2022-09-11T23:00:00,1466A,108.954,34.2713,西安市,市人民体育场,细颗粒物(PM2.5),78,91,66,57,39,162,73,146,127,37,19,7,10,0.9,0.7
2022-09-11T23:00:00,1467A,108.8922,34.2322,西安市,高新西区,细颗粒物(PM2.5),80,93,69,59,43,160,64,139,122,50,21,9,10,1.0,0.8
2022-09-11T23:00:00,1468A,108.935,34.3474,西安市,经开区,细颗粒物(PM2.5),89,91,58,66,35,151,57,142,120,58,17,5,7,0.8,0.7
2022-09-11T23:00:00,1469A,108.906,34.1546,西安市,长安区,颗粒物(PM10),76,101,77,46,46,160,36,136,112,59,23,5,6,0.8,0.7
2022-09-11T23:00:00,1470A,109.2,34.6575,西安市,阎良区,,,,,,,,,,,,,,,,
2022-09-11T23:00:00,1471A,109.2186,34.3731,西安市,临潼区,颗粒物(PM10),52,54,64,33,40,157,92,141,124,22,15,5,8,0.6,0.6
2022-09-11T23:00:00,1472A,108.869,34.378,西安市,草滩(对照点),细颗粒物(PM2.5),80,68,50,59,33,152,22,135,97,56,23,5,7,1.1,1
2022-09-11T23:00:00,1473A,108.985,34.1978,西安市,曲江文化产业集团,颗粒物(PM10),81,111,86,59,49,164,51,141,122,53,22,4,5,1.1,0.9
2022-09-11T23:00:00,1474A,109.051,34.3213,西安市,广运潭,颗粒物(PM10),81,111,64,53,35,145,29,135,101,78,22,5,8,0.8,0.7
2022-09-11T23:00:00,1476A,103.631,36.1031,兰州市,兰炼宾馆,颗粒物(PM10),68,85,63,45,30,281,45,223,150,89,45,7,21,0.8,0.7
2022-09-11T23:00:00,1477A,104.1373,35.9454,兰州市,榆中兰大校区(对照点),,,,,,,,,,,,,,,,
2022-09-11T23:00:00,1478A,103.8412,36.0726,兰州市,生物制品所,颗粒物(PM10),65,80,54,41,28,199,35,176,124,73,52,6,9,0.6,0.6
2022-09-11T23:00:00,1479A,103.831,36.0464,兰州市,铁路设计院,颗粒物(PM10),66,81,64,41,29,194,25,159,96,83,60,9,12,0.8,0.7
2022-09-11T23:00:00,1480A,101.748,36.6428,西宁市,市环境监测站,,,,,,,,,,,,,,,,
2022-09-11T23:00:00,1482A,101.834,36.5819,西宁市,四陆医院,,,,,,,,,,,,,,,,
2022-09-11T23:00:00,1483A,101.524,36.6867,西宁市,第五水厂(对照点),,31,31,27,20,18,155,65,121,100,10,10,8,11,0.6,0.7
2022-09-11T23:00:00,1484A,105.9512,38.6016,银川市,贺兰山马莲口(对照点),,37,14,18,9,15,173,116,152,138,6,9,11,14,0.4,0.5
2022-09-11T23:00:00,1488A,106.2328,38.4975,银川市,贺兰山东路,,25,25,23,14,16,141,77,130,107,30,23,5,10,0.6,0.6
2022-09-11T23:00:00,1489A,106.1358,38.5036,银川市,学院路,,50,50,38,22,21,138,43,125,92,52,28,8,10,0.5,0.5
2022-09-11T23:00:00,1490A,87.5801,43.8303,乌鲁木齐市,监测站,,,,37,,15,65,,69,,,17,,5,,0.7
2022-09-11T23:00:00,1491A,87.6046,43.768,乌鲁木齐市,收费所,颗粒物(PM10),78,106,59,26,18,175,110,165,150,17,22,8,9,0.4,0.3
2022-09-11T23:00:00,1492A,87.4754,43.9469,乌鲁木齐市,新疆农科院农场(对照点),颗粒物(PM10),78,106,88,24,19,140,79,120,115,13,31,10,10,0.8,0.8
2022-09-11T23:00:00,1493A,87.5525,43.8711,乌鲁木齐市,铁路局,颗粒物(PM10),86,122,58,45,20,181,108,156,152,13,17,6,7,0.6,0.6
2022-09-11T23:00:00,1494A,87.6432,43.831,乌鲁木齐市,三十一中学,颗粒物(PM10),85,120,67,22,16,179,123,157,156,6,10,9,9,0.3,0.3
2022-09-11T23:00:00,1496A,87.7216,44.1747,乌鲁木齐市,米东区环保局,颗粒物(PM10),94,137,72,29,18,153,111,132,126,11,16,8,7,0.3,0.3
2022-09-11T23:00:00,1508A,112.9433,27.8614,湘潭市,板塘,颗粒物(PM10),59,67,59,39,36,240,143,218,184,22,21,5,5,0.5,0.4
2022-09-11T23:00:00,1511A,112.9118,27.8403,湘潭市,市监测站,,,,47,43,39,215,145,194,171,,16,8,9,0.7,0.7
2022-09-11T23:00:00,1512A,112.8937,27.8728,湘潭市,江麓,颗粒物(PM10),60,70,74,25,41,220,125,205,170,23,15,9,11,0.8,0.7
2022-09-11T23:00:00,1513A,112.9227,27.8159,湘潭市,岳塘,颗粒物(PM10),59,68,68,40,39,247,154,224,187,19,25,9,9,0.7,0.6
2022-09-11T23:00:00,1514A,112.9074,27.9119,湘潭市,科大,颗粒物(PM10),62,73,67,36,37,225,143,211,178,14,13,6,6,0.8,0.7
2022-09-11T23:00:00,1515A,113.135,27.8244,株洲市,天台山庄,细颗粒物(PM2.5),72,60,48,52,39,224,117,210,178,33,21,7,7,0.9,0.6
2022-09-11T23:00:00,1518A,113.095,27.8867,株洲市,株冶医院,细颗粒物(PM2.5),60,61,49,43,37,244,95,216,167,42,28,5,5,0.7,0.7
2022-09-11T23:00:00,1519A,113.167,27.8667,株洲市,市四中,颗粒物(PM10),71,92,52,50,38,229,96,202,161,46,23,4,4,0.8,0.6
2022-09-11T23:00:00,1520A,113.143,27.8381,株洲市,火车站,,,78,58,,40,220,93,210,170,39,21,10,10,1.3,0.7
2022-09-11T23:00:00,1524A,113.13,27.8528,株洲市,市监测站,细颗粒物(PM2.5),67,80,59,48,44,229,99,209,172,39,24,5,6,1.0,0.8
2022-09-11T23:00:00,1552A,106.805,26.3003,贵阳市,桐木岭(对照点),,,,,,,,,,,,,,,,
2022-09-11T23:00:00,1559A,113.251,27.8336,株洲市,大京风景区(对照点),细颗粒物(PM2.5),52,41,47,36,33,175,75,160,117,10,9,2,4,0.6,0.6
2022-09-11T23:00:00,1562A,113.0048,27.9153,湘潭市,昭山,颗粒物(PM10),62,73,56,38,39,224,34,199,143,72,42,4,4,0.9,0.7
2022-09-11T23:00:00,1564A,112.4876,27.9164,湘潭市,韶山(对照点),,40,40,50,19,23,187,83,179,132,15,12,6,8,0.7,0.7
2022-09-11T23:00:00,1585A,109.8756,40.6532,包头市,市环境监测站,颗粒物(PM10),56,62,43,27,19,148,7,130,66,89,50,8,15,1.0,1
2022-09-11T23:00:00,1587A,109.9991,40.5842,包头市,包头八中,颗粒物(PM10),75,100,49,40,24,148,0,138,84,103,40,8,4,0.8,0.7
2022-09-11T23:00:00,1588A,109.8538,40.6821,包头市,青山宾馆,颗粒物(PM10),55,60,46,21,24,143,15,124,61,83,51,10,16,0.9,1.2
2022-09-11T23:00:00,1589A,109.8642,40.6288,包头市,惠龙物流,颗粒物(PM10),59,67,40,20,20,145,2,133,84,109,37,8,16,0.8,0.7
2022-09-11T23:00:00,1590A,110.0377,40.5546,包头市,东河鸿龙湾,颗粒物(PM10),62,73,44,26,20,149,49,141,98,54,23,8,6,0.9,0.6
2022-09-11T23:00:00,1591A,110.0023,39.8129,鄂尔多斯市,综合楼,颗粒物(PM10),57,63,36,11,12,152,76,141,119,47,21,29,11,0.8,0.6
2022-09-11T23:00:00,1592A,109.9486,39.8261,鄂尔多斯市,巴音孟克林场办事处,颗粒物(PM10),57,63,38,27,22,167,113,157,148,40,20,13,11,0.4,0.4
2022-09-11T23:00:00,1593A,109.7736,39.5986,鄂尔多斯市,康泽苑,颗粒物(PM10),58,66,34,27,17,156,30,148,109,40,14,6,6,0.8,0.7
2022-09-11T23:00:00,1594A,109.8119,39.5989,鄂尔多斯市,华泰汽车城,颗粒物(PM10),54,58,35,29,22,153,17,147,93,69,23,6,7,1.1,0.6
2022-09-11T23:00:00,1595A,109.9734,39.7884,鄂尔多斯市,奥林花园,颗粒物(PM10),74,97,48,29,20,151,11,139,82,105,39,7,6,1.0,0.8
2022-09-11T23:00:00,1596A,122.2414,40.6592,营口市,学府南路,,,,,,,,,,,,,,,,
2022-09-11T23:00:00,1597A,122.2703,40.7094,营口市,大庆路,,45,45,76,10,36,150,91,133,112,12,28,4,24,0.5,1.2
2022-09-11T23:00:00,1598A,122.215,40.6511,营口市,镜湖西路,,37,37,47,8,24,139,95,121,102,12,28,4,11,0.7,1
2022-09-11T23:00:00,1599A,122.167,40.6655,营口市,西炮台,,34,27,52,14,26,136,108,124,113,7,24,3,10,0.5,1
2022-09-11T23:00:00,1600A,124.3303,40.0625,丹东市,江湾东路,,45,45,30,21,16,105,25,96,60,32,17,10,9,0.7,0.7
2022-09-11T23:00:00,1601A,124.4256,40.1503,丹东市,临江后街,,38,38,25,20,13,105,43,96,66,13,13,8,8,0.6,0.5
2022-09-11T23:00:00,1602A,124.3933,40.1461,丹东市,元宝山,,44,44,30,24,16,97,30,90,66,18,15,6,7,0.5,0.4
2022-09-11T23:00:00,1603A,124.3633,40.1092,丹东市,民主桥,,35,35,28,18,15,106,24,96,57,25,19,8,11,0.6,0.5
2022-09-11T23:00:00,1604A,122.0303,41.1489,盘锦市,开发区,,35,35,33,23,18,139,54,120,76,34,29,5,6,0.6,0.7
2022-09-11T23:00:00,1605A,122.0485,41.0883,盘锦市,兴隆台,,28,28,33,12,15,165,65,131,75,27,25,7,10,0.6,0.7
2022-09-11T23:00:00,1606A,121.8297,41.1028,盘锦市,新生街道,,25,22,19,17,13,106,38,98,60,22,15,6,6,0.5,0.5
2022-09-11T23:00:00,1607A,120.9092,40.7136,葫芦岛市,龙港区,,30,22,26,12,21,119,93,117,108,12,20,8,8,0.3,0.5
2022-09-11T23:00:00,1608A,120.8392,40.7514,葫芦岛市,化工街,,47,32,42,14,20,123,12,118,86,93,34,8,12,0.6,0.4
2022-09-11T23:00:00,1609A,120.8341,40.7073,葫芦岛市,新区,,42,30,35,14,19,126,27,122,95,83,35,10,11,0.6,0.7
2022-09-11T23:00:00,1610A,120.8695,40.7677,葫芦岛市,东城区,,41,37,39,12,12,113,6,109,79,82,24,12,13,0.7,0.6
2022-09-11T23:00:00,1611A,118.5819,24.9117,泉州市,涂山街,,43,43,43,19,21,181,110,160,137,22,12,10,10,0.6,0.6
2022-09-11T23:00:00,1612A,118.5972,24.8978,泉州市,津头埔,,50,50,41,34,23,164,108,152,130,22,15,13,10,0.5,0.5
2022-09-11T23:00:00,1613A,118.6663,24.9424,泉州市,万安,,43,43,40,23,22,197,109,173,143,15,11,10,10,0.6,0.6
2022-09-11T23:00:00,1614A,118.6117,24.9604,泉州市,清源山(对照点),,,,,,,,,,,,,,,,
2022-09-11T23:00:00,1616A,117.6795,36.229,济南市,技术学院,细颗粒物(PM2.5),77,78,85,56,44,231,101,213,174,34,25,5,10,0.8,1
2022-09-11T23:00:00,1618A,118.3429,35.0532,临沂市,沂河小区,,48,48,46,21,27,194,77,162,125,19,12,8,16,0.5,0.5
2022-09-11T23:00:00,1619A,118.295,35.0583,临沂市,鲁南制药厂,,44,44,43,18,24,198,86,172,131,26,16,8,15,0.7,0.7
2022-09-11T23:00:00,1620A,118.2794,34.9976,临沂市,新光毛纺厂,,,44,52,22,30,195,65,166,119,,20,4,13,0.6,0.6
2022-09-11T23:00:00,1621A,118.3956,35.0888,临沂市,河东保险公司,,36,36,41,16,24,193,63,155,109,25,16,5,9,0.6,0.6
2022-09-11T23:00:00,1622A,116.3032,37.4674,德州市,儿童乐园,颗粒物(PM10),53,56,64,18,40,183,61,164,118,54,22,7,14,0.8,0.7
2022-09-11T23:00:00,1624A,116.2991,37.4451,德州市,监理站,,40,40,68,20,37,202,86,176,129,30,16,14,19,0.5,0.6
2022-09-11T23:00:00,1625A,115.9848,36.4372,聊城市,区政府,颗粒物(PM10),86,121,90,59,48,205,58,195,148,52,21,5,10,1.2,1
2022-09-11T23:00:00,1628A,118.0062,37.3803,滨州市,市环保局,,48,48,51,24,32,185,83,173,130,23,15,20,13,0.8,0.7
2022-09-11T23:00:00,1629A,118.0018,37.3617,滨州市,第二水厂,,49,49,46,30,31,180,66,167,124,37,19,16,12,0.7,0.6
2022-09-11T23:00:00,1630A,117.9776,37.393,滨州市,北中新校,颗粒物(PM10),51,51,44,22,29,174,49,163,108,37,17,12,10,0.7,0.5
2022-09-11T23:00:00,1631A,118.0414,36.8103,淄博市,人民公园,细颗粒物(PM2.5),98,95,93,73,76,219,51,201,144,64,30,11,20,0.6,0.6
2022-09-11T23:00:00,1632A,118.0253,36.8406,淄博市,东风化工厂,,,,,,,,,,,,,,,,
2022-09-11T23:00:00,1633A,117.8525,36.4847,淄博市,双山,细颗粒物(PM2.5),82,81,79,60,53,254,108,228,167,27,23,11,12,0.8,0.9
2022-09-11T23:00:00,1634A,117.9592,36.6331,淄博市,气象站,细颗粒物(PM2.5),110,166,105,83,61,245,47,225,142,70,34,22,26,1.0,0.9
2022-09-11T23:00:00,1635A,118.3092,36.8194,淄博市,莆田园,细颗粒物(PM2.5),128,190,101,97,64,248,22,223,152,102,39,31,18,6.2,2.2
2022-09-11T23:00:00,1636A,117.8661,36.805,淄博市,三金集团,,,,,,,,,,,,,,,,
2022-09-11T23:00:00,1637A,117.558,34.8438,枣庄市,市中区政府,颗粒物(PM10),74,97,88,53,51,223,102,191,142,38,28,21,24,0.7,0.7
2022-09-11T23:00:00,1638A,117.2852,34.7837,枣庄市,薛城环保局,细颗粒物(PM2.5),70,76,86,51,49,232,133,197,163,25,26,14,18,0.8,0.9
2022-09-11T23:00:00,1639A,117.5852,34.7745,枣庄市,峄城区政府,细颗粒物(PM2.5),85,97,75,63,40,216,81,188,151,43,20,9,12,0.8,0.7
2022-09-11T23:00:00,1640A,117.7276,34.5578,枣庄市,台儿庄区环保局,细颗粒物(PM2.5),79,78,69,58,45,208,97,184,144,18,18,11,14,0.9,0.8
2022-09-11T23:00:00,1641A,117.4518,35.0992,枣庄市,山亭区环保局,细颗粒物(PM2.5),64,53,76,46,50,242,147,222,141,15,19,17,20,0.7,0.8
2022-09-11T23:00:00,1642A,121.2514,37.5639,烟台市,开发区,,29,29,35,14,19,154,76,137,105,16,14,7,11,0.6,0.6
2022-09-11T23:00:00,1643A,121.3719,37.5433,烟台市,轴承厂,,27,27,26,14,17,131,81,125,109,10,5,7,7,0.1,0.1
2022-09-11T23:00:00,1644A,121.3181,37.5436,烟台市,西郊化工站,,27,22,28,12,14,138,86,132,115,10,11,7,7,0.4,0.5
2022-09-11T23:00:00,1645A,121.4478,37.4822,烟台市,莱山环保局,,26,19,25,8,16,137,83,130,109,10,6,6,9,0.4,0.4
2022-09-11T23:00:00,1646A,121.2611,37.4967,烟台市,福山环保局,,31,31,35,19,16,123,56,111,85,22,18,7,8,0.3,0.3
2022-09-11T23:00:00,1648A,119.12,36.7019,潍坊市,仲裁委,,,,,,,,,,,,,,,,
2022-09-11T23:00:00,1650A,119.1437,36.7023,潍坊市,环保局,,34,34,37,17,19,171,85,151,118,16,14,5,5,0.4,0.5
2022-09-11T23:00:00,1652A,119.1936,36.7729,潍坊市,寒亭监测站,,,,,,,,,,,,,,,,
2022-09-11T23:00:00,1653A,116.6251,35.4302,济宁市,火炬城,颗粒物(PM10),64,77,80,41,41,204,131,199,175,8,6,9,14,0.7,0.7
2022-09-11T23:00:00,1655A,116.5491,35.4042,济宁市,电化厂,细颗粒物(PM2.5),83,84,85,61,55,218,133,209,178,18,18,10,14,0.9,0.8
2022-09-11T23:00:00,1656A,117.1437,36.1937,泰安市,监测站,细颗粒物(PM2.5),77,85,83,56,52,195,100,172,139,26,19,8,10,0.8,0.8
2022-09-11T23:00:00,1657A,117.0885,36.2017,泰安市,人口学校,颗粒物(PM10),64,78,77,38,47,181,122,172,156,20,16,8,11,0.5,0.6
2022-09-11T23:00:00,1658A,117.1089,36.1758,泰安市,电力学校,细颗粒物(PM2.5),73,90,80,53,49,196,68,183,151,50,22,6,9,0.8,0.7
2022-09-11T23:00:00,1659A,119.471,35.4209,日照市,监测站,,19,19,24,11,13,137,48,124,96,23,28,6,7,0.4,0.4
2022-09-11T23:00:00,1660A,119.523,35.4216,日照市,市政府广场,,26,19,22,7,11,145,83,130,108,12,14,3,3,0.4,0.4
2022-09-11T23:00:00,1661A,119.5587,35.4044,日照市,港务局,,30,17,22,5,10,157,96,139,115,4,18,2,3,0.3,0.4
2022-09-11T23:00:00,1662A,122.1214,37.4236,威海市,华夏技校,,31,9,21,17,15,128,98,121,107,4,9,5,5,0.1,0.2
2022-09-11T23:00:00,1663A,122.0508,37.5236,威海市,山大分校,,34,10,12,10,7,137,108,127,118,7,9,3,4,0.5,0.5
2022-09-11T23:00:00,1664A,122.1067,37.5072,威海市,市监测站,,32,15,19,10,15,129,101,120,112,4,9,5,7,0.3,0.3
2022-09-11T23:00:00,1665A,118.5019,37.4658,东营市,西城阳光环保公司,,,,,,,,,,,,,,,,
2022-09-11T23:00:00,1666A,118.6614,37.4309,东营市,市环保局,,38,29,46,17,27,202,121,165,132,4,12,8,25,0.5,0.8
2022-09-11T23:00:00,1669A,113.5824,24.7733,韶关市,市八中,,46,46,48,10,26,163,63,151,118,30,15,14,14,0.7,0.7
2022-09-11T23:00:00,1670A,113.5556,24.8082,韶关市,碧湖山庄,,,,,,,,,,,,,,,,
2022-09-11T23:00:00,1671A,113.5917,24.7972,韶关市,园林处,,32,23,49,22,33,154,69,143,115,20,14,17,20,0.7,0.7
2022-09-11T23:00:00,1672A,113.6735,24.7791,韶关市,韶关学院,颗粒物(PM10),58,65,52,34,32,155,44,146,100,26,13,13,17,0.7,0.6
2022-09-11T23:00:00,1673A,113.5971,24.6863,韶关市,曲江监测站,颗粒物(PM10),53,56,53,35,29,172,48,154,102,30,15,10,14,0.6,0.8
2022-09-11T23:00:00,1674A,116.6794,23.3667,汕头市,金平子站,细颗粒物(PM2.5),57,48,47,40,34,188,139,178,162,13,10,8,8,0.7,0.7
2022-09-11T23:00:00,1675A,116.7244,23.3633,汕头市,龙湖子站,颗粒物(PM10),59,68,64,30,29,177,137,167,153,12,11,8,8,0.7,0.8
2022-09-11T23:00:00,1676A,116.7258,23.2775,汕头市,濠江子站,细颗粒物(PM2.5),53,49,42,37,29,180,130,170,159,16,8,9,8,0.8,0.7
2022-09-11T23:00:00,1677A,116.7519,23.4714,汕头市,澄海子站,,48,36,52,29,34,187,152,171,162,12,9,9,10,0.8,0.8
2022-09-11T23:00:00,1678A,116.6092,23.2539,汕头市,潮阳子站,细颗粒物(PM2.5),59,60,47,42,34,176,118,163,148,12,8,7,8,0.9,0.7
2022-09-11T23:00:00,1679A,116.4069,23.2533,汕头市,潮南子站,,,,,,,,,,,,,,,,
2022-09-11T23:00:00,1680A,110.3539,21.2706,湛江市,湛江影剧院,,42,42,35,19,21,153,94,128,125,16,12,8,13,0.7,0.7
2022-09-11T23:00:00,1681A,110.3928,21.2228,湛江市,市环境监测站,颗粒物(PM10),53,55,35,32,24,145,91,125,122,20,14,8,15,0.7,0.6
2022-09-11T23:00:00,1682A,110.4019,21.1997,湛江市,环保局宿舍,颗粒物(PM10),51,52,37,29,24,152,96,124,122,17,11,19,19,0.8,0.7
2022-09-11T23:00:00,1683A,110.4111,21.2028,湛江市,霞山游泳场,颗粒物(PM10),51,51,36,31,24,152,98,125,123,16,11,9,18,0.7,0.7
2022-09-11T23:00:00,1684A,110.3316,21.2679,湛江市,麻章区环保局,,45,45,35,24,21,156,95,124,122,13,12,7,13,0.7,0.8
2022-09-11T23:00:00,1685A,110.4558,21.2567,湛江市,坡头区环保局,,46,46,35,26,25,155,98,126,122,15,13,16,14,0.8,0.8
2022-09-11T23:00:00,1686A,111.0286,21.4688,茂名市,电白南海,,48,48,50,27,28,147,61,131,87,15,11,15,10,0.5,0.5
2022-09-11T23:00:00,1687A,110.9294,21.6533,茂名市,茂石化七小,,45,36,48,31,35,126,68,122,88,13,12,16,20,0.7,0.8
2022-09-11T23:00:00,1688A,110.9107,21.6687,茂名市,健康路,,29,27,43,20,28,124,62,117,85,12,7,37,22,0.8,0.8
2022-09-11T23:00:00,1689A,110.8592,21.6828,茂名市,高岭,颗粒物(PM10),51,51,40,31,30,107,46,100,76,19,9,25,16,0.7,0.8
2022-09-11T23:00:00,1690A,116.1231,24.3284,梅州市,梅江月梅,颗粒物(PM10),51,52,51,34,35,180,100,161,125,13,14,9,10,0.7,0.6
2022-09-11T23:00:00,1691A,116.0797,24.2719,梅州市,梅县新城,,46,46,47,29,32,173,42,150,103,42,16,8,8,0.8,0.7
2022-09-11T23:00:00,1692A,116.1248,24.2654,梅州市,环境监控中心,颗粒物(PM10),51,51,50,34,37,190,49,165,111,40,18,6,6,0.6,0.6
2022-09-11T23:00:00,1693A,115.3653,22.775,汕尾市,市环保局,,42,42,54,25,28,150,108,140,133,6,6,6,6,0.8,0.7
2022-09-11T23:00:00,1694A,115.3706,22.7898,汕尾市,市政府,,46,46,49,24,35,185,133,168,164,6,6,6,7,1.0,1
2022-09-11T23:00:00,1695A,115.3622,22.7925,汕尾市,新城中学,颗粒物(PM10),51,51,55,29,32,188,137,173,168,5,5,7,8,0.9,0.9
2022-09-11T23:00:00,1696A,114.6778,23.7569,河源市,源西(对照点),,46,46,55,23,31,144,69,132,90,27,14,4,5,0.8,0.8
2022-09-11T23:00:00,1697A,114.6944,23.7586,河源市,东埔,,44,44,50,26,33,156,98,146,127,16,13,5,6,0.8,0.9
2022-09-11T23:00:00,1698A,114.6892,23.7233,河源市,老城,,42,42,59,15,32,151,96,140,118,7,7,3,4,0.8,0.9
2022-09-11T23:00:00,1699A,111.9797,21.8593,阳江市,鸳鸯湖(对照点),,,,,,,,,,,,,,,,
2022-09-11T23:00:00,1700A,111.9508,21.8536,阳江市,南恩路,,,,,,,,,,,,,,,,
2022-09-11T23:00:00,1701A,111.9491,21.8658,阳江市,马南垌,,40,39,61,28,45,154,68,130,110,15,12,6,11,0.6,0.8
2022-09-11T23:00:00,1702A,113.0426,23.691,清远市,环保大楼(对照点),,,54,50,34,37,199,66,175,132,,7,6,7,0.7,0.6
2022-09-11T23:00:00,1703A,113.0208,23.7106,清远市,凤城街办,,49,49,50,34,41,150,72,142,102,17,14,7,7,1.0,0.9
2022-09-11T23:00:00,1705A,116.6367,23.6719,潮州市,西园路(对照点),颗粒物(PM10),57,64,59,38,39,126,87,110,104,10,7,7,6,0.7,0.7
2022-09-11T23:00:00,1706A,116.6447,23.6706,潮州市,档案局,细颗粒物(PM2.5),55,53,58,39,38,183,133,161,156,12,10,12,10,0.8,0.8
2022-09-11T23:00:00,1708A,116.3701,23.5345,揭阳市,新兴,细颗粒物(PM2.5),62,64,67,44,46,181,120,164,140,12,6,11,8,1.2,0.8
2022-09-11T23:00:00,1709A,116.3264,23.5443,揭阳市,西马,颗粒物(PM10),58,65,68,36,43,156,106,143,129,11,6,9,8,0.9,0.7
2022-09-11T23:00:00,1710A,116.3611,23.5626,揭阳市,东兴,颗粒物(PM10),71,92,74,49,36,162,102,151,132,16,4,12,7,1.1,0.9
2022-09-11T23:00:00,1711A,116.4151,23.5294,揭阳市,渔湖,颗粒物(PM10),60,70,70,38,43,174,108,159,135,15,7,10,6,1.2,0.8
2022-09-11T23:00:00,1712A,112.0392,22.9169,云浮市,新市府(对照点),,,,,,,,,,,,,,,,
2022-09-11T23:00:00,1713A,112.0369,22.9394,云浮市,市监测站,,,,,,,,,,,,,,,,
2022-09-11T23:00:00,1714A,112.0539,22.9539,云浮市,牧羊,,40,40,39,21,23,138,21,102,55,30,22,16,22,0.7,0.6
2022-09-11T23:00:00,1715A,102.575,24.3711,玉溪市,东风水库,,10,10,9,6,5,50,22,42,36,13,7,5,4,1.0,0.7
2022-09-11T23:00:00,1718A,115.4208,35.2464,菏泽市,气象局,细颗粒物(PM2.5),100,131,88,75,49,207,112,200,166,46,26,9,11,1.0,0.8
2022-09-11T23:00:00,1719A,115.4747,35.2375,菏泽市,市政协,细颗粒物(PM2.5),92,129,88,68,41,212,91,205,168,41,19,6,9,0.8,0.7
2022-09-11T23:00:00,1720A,115.455,35.27,菏泽市,菏泽学院,,,,,,,,,,,,,,,,
2022-09-11T23:00:00,1721A,113.3819,40.1097,大同市,果树场(对照点),,,,,,,,,,,,,,,,
2022-09-11T23:00:00,1723A,113.2994,40.0758,大同市,云冈宾馆,颗粒物(PM10),77,104,74,32,28,157,67,146,118,51,29,26,21,0.8,1.1
2022-09-11T23:00:00,1724A,113.3444,40.0917,大同市,大同大学,颗粒物(PM10),79,108,62,30,24,157,30,144,114,57,21,13,35,0.4,0.6
2022-09-11T23:00:00,1725A,113.2661,40.1269,大同市,安家小村,颗粒物(PM10),67,84,92,20,23,165,58,153,124,54,27,21,24,0.5,0.8
2022-09-11T23:00:00,1726A,113.2711,40.0844,大同市,教育学院,颗粒物(PM10),82,113,90,45,31,149,72,137,108,33,34,33,23,0.5,1.4
2022-09-11T23:00:00,1727A,113.1147,36.1547,长治市,清华站,细颗粒物(PM2.5),52,52,49,36,33,201,56,169,128,50,28,10,13,0.6,0.7
2022-09-11T23:00:00,1728A,113.1031,36.1989,长治市,监测站,颗粒物(PM10),53,56,44,29,31,192,71,165,128,20,19,9,9,0.7,0.7
2022-09-11T23:00:00,1730A,113.0886,36.2125,长治市,审计局,细颗粒物(PM2.5),52,51,41,36,31,212,86,185,148,19,16,10,9,0.9,0.9
2022-09-11T23:00:00,1731A,113.0844,36.1856,长治市,长治八中,细颗粒物(PM2.5),57,59,47,40,22,196,109,176,144,21,24,9,13,1.0,0.9
2022-09-11T23:00:00,1733A,111.5531,36.0783,临汾市,临钢医院,颗粒物(PM10),52,53,47,27,27,167,9,153,94,66,28,3,3,0.9,0.8
2022-09-11T23:00:00,1734A,111.5028,36.0714,临汾市,技工学校,颗粒物(PM10),51,52,45,26,32,188,66,165,118,30,19,3,6,0.7,0.7
2022-09-11T23:00:00,1735A,111.5169,36.0822,临汾市,工商学校,,,,,,,,,,,,,,,,
2022-09-11T23:00:00,1736A,111.5018,36.0855,临汾市,市委,,47,47,41,25,29,181,40,161,110,43,21,2,4,0.9,0.9
2022-09-11T23:00:00,1738A,113.5758,37.8572,阳泉市,市中心,颗粒物(PM10),74,98,66,28,29,186,5,174,99,109,47,9,15,0.8,0.8
2022-09-11T23:00:00,1739A,113.4894,37.8731,阳泉市,赛鱼,颗粒物(PM10),59,67,56,31,32,194,19,165,71,88,50,8,13,0.7,0.7
2022-09-11T23:00:00,1740A,113.5819,37.8486,阳泉市,南庄,颗粒物(PM10),65,80,66,40,36,182,12,169,114,104,35,12,19,1.1,1
2022-09-11T23:00:00,1741A,113.6292,37.8531,阳泉市,白羊墅,,,,,,,,,,,,,,,,
2022-09-11T23:00:00,1742A,113.5614,37.8703,阳泉市,平坦,颗粒物(PM10),67,83,66,30,35,183,34,171,99,93,52,9,13,0.7,0.8
2022-09-11T23:00:00,1743A,113.5158,37.8392,阳泉市,大阳泉,细颗粒物(PM2.5),55,47,43,39,39,186,121,181,167,34,19,15,15,0.8,0.7
2022-09-11T23:00:00,1744A,118.9233,42.2816,赤峰市,松山一中,,33,7,8,23,11,145,83,138,124,27,19,15,14,0.8,0.6
2022-09-11T23:00:00,1745A,118.9576,42.2728,赤峰市,哈达街,,40,40,19,10,10,160,93,150,136,25,14,14,14,0.6,0.4
2022-09-11T23:00:00,1746A,118.8788,42.2554,赤峰市,天义路,,30,30,18,16,8,150,85,141,126,22,15,13,14,0.7,0.5
2022-09-11T23:00:00,1748A,123.044,41.1196,鞍山市,深沟寺,,31,31,26,19,14,99,59,91,68,10,8,8,8,0.6,0.5
2022-09-11T23:00:00,1749A,123.011,41.0931,鞍山市,太阳城,,33,33,27,17,13,102,51,94,65,10,12,7,7,0.7,0.7
2022-09-11T23:00:00,1750A,123.0485,41.1442,鞍山市,太平,,40,40,29,24,15,98,53,91,66,18,14,8,8,0.7,0.6
2022-09-11T23:00:00,1751A,122.9642,41.0971,鞍山市,铁西三道街,颗粒物(PM10),59,68,53,26,17,101,42,90,61,33,30,8,7,1.0,0.9
2022-09-11T23:00:00,1752A,122.9341,41.0833,鞍山市,铁西工业园区,颗粒物(PM10),56,62,52,24,17,106,42,97,70,29,25,10,9,1.3,0.8
2022-09-11T23:00:00,1753A,123.022,41.0821,鞍山市,明达新区,,36,36,34,17,15,97,66,88,69,7,17,6,7,0.4,0.7
2022-09-11T23:00:00,1754A,123.1289,41.0228,鞍山市,千山(对照点),,,,,,,,,,,,,,,,
2022-09-11T23:00:00,1755A,123.7977,41.8491,抚顺市,望花区,,39,39,48,6,17,149,42,111,104,33,22,12,9,0.7,0.7
2022-09-11T23:00:00,1756A,123.9161,41.8822,抚顺市,顺城区,细颗粒物(PM2.5),85,103,47,63,22,148,3,122,76,68,29,10,10,1.2,0.8
2022-09-11T23:00:00,1757A,124.0436,41.8611,抚顺市,东洲区,,42,42,31,16,14,141,49,111,91,18,15,7,5,0.9,0.9
2022-09-11T23:00:00,1758A,123.9247,41.8642,抚顺市,新抚区,颗粒物(PM10),53,55,48,27,19,146,21,118,90,39,20,2,4,0.8,0.6
2022-09-11T23:00:00,1759A,124.0972,41.8961,抚顺市,大伙房水库,,26,26,25,14,14,132,51,121,94,14,11,7,8,0.5,0.5
2022-09-11T23:00:00,1760A,123.7086,41.8391,抚顺市,沈抚新城,,46,46,51,19,22,161,48,136,100,22,18,12,14,0.7,0.9
2022-09-11T23:00:00,1761A,123.8275,41.3064,本溪市,大峪,,27,27,31,9,11,107,46,89,69,16,19,6,8,0.5,0.8
2022-09-11T23:00:00,1762A,123.7567,41.3325,本溪市,溪湖,,36,36,47,17,19,102,37,89,65,20,23,12,20,1.0,1.3
2022-09-11T23:00:00,1763A,123.7169,41.3094,本溪市,彩屯,,48,48,53,31,28,103,31,88,57,17,25,6,15,0.8,1.6
2022-09-11T23:00:00,1764A,123.7669,41.2864,本溪市,东明,颗粒物(PM10),51,51,36,16,13,101,28,93,70,37,23,7,10,0.6,0.7
2022-09-11T23:00:00,1765A,123.7992,41.2664,本溪市,新立屯,,27,27,28,12,12,103,40,84,54,35,20,7,7,0.7,0.8
2022-09-11T23:00:00,1766A,123.8142,41.3472,本溪市,威宁,,35,35,27,12,9,107,22,83,50,19,16,5,7,0.6,0.6
2022-09-11T23:00:00,1767A,121.1115,41.0879,锦州市,南山,,39,34,43,27,37,116,48,107,74,39,25,9,10,0.5,0.6
2022-09-11T23:00:00,1768A,121.0533,40.8434,锦州市,开发区,颗粒物(PM10),53,55,71,15,39,127,55,116,100,46,32,24,17,0.7,0.9
2022-09-11T23:00:00,1769A,121.1836,41.1119,锦州市,百股街道,,43,43,38,15,19,115,63,108,80,20,20,17,8,1.0,0.9
2022-09-11T23:00:00,1770A,121.1178,41.1222,锦州市,天安街道,,45,45,50,20,24,120,56,111,84,34,24,12,16,1.0,1.1
2022-09-11T23:00:00,1771A,121.1303,41.1386,锦州市,北湖公园,,32,32,41,15,22,122,73,108,84,22,20,9,12,0.7,0.8
2022-09-11T23:00:00,1772A,126.54,43.8622,吉林市,哈达湾,,28,28,37,12,19,187,78,155,106,15,20,5,11,0.6,0.8
2022-09-11T23:00:00,1773A,126.5844,43.8358,吉林市,东局子,,28,28,37,10,18,199,69,154,107,16,19,5,9,0.6,0.8
2022-09-11T23:00:00,1774A,126.5052,43.8245,吉林市,电力学院,,24,24,43,13,21,154,70,140,101,11,13,8,9,0.4,0.6
2022-09-11T23:00:00,1775A,126.6133,43.8972,吉林市,江北,,25,22,39,17,22,226,67,166,88,13,17,7,12,0.6,0.8
2022-09-11T23:00:00,1776A,126.555,43.8306,吉林市,江南公园,,32,32,37,11,22,174,67,141,100,14,20,4,9,0.6,0.8
2022-09-11T23:00:00,1778A,126.7061,43.7133,吉林市,丰满(对照点),,,,,,,,,,,,,,,,
2022-09-11T23:00:00,1779A,123.9305,47.3636,齐齐哈尔市,安居小区,,29,29,59,10,27,127,76,127,83,13,17,6,7,0.6,0.8
2022-09-11T23:00:00,1780A,123.9488,47.3386,齐齐哈尔市,中心广场,颗粒物(PM10),64,78,88,19,27,129,66,122,79,15,17,4,5,0.7,0.9
2022-09-11T23:00:00,1781A,123.9483,47.3227,齐齐哈尔市,农牧车辆厂,,31,31,62,12,25,135,76,125,91,5,9,6,8,0.1,0.4
2022-09-11T23:00:00,1783A,123.945,47.2988,齐齐哈尔市,市环境监测站,,26,22,59,18,31,140,73,126,93,7,10,4,5,0.3,0.6
2022-09-11T23:00:00,1784A,129.61,44.561,牡丹江市,环保大楼,,23,23,17,12,9,149,38,116,74,23,16,5,5,0.5,0.4
2022-09-11T23:00:00,1785A,129.6115,44.5782,牡丹江市,文化广场,,45,45,36,19,15,138,33,105,60,26,25,3,3,0.7,0.7
2022-09-11T23:00:00,1786A,129.5904,44.5963,牡丹江市,第一医院,,50,50,27,12,13,137,32,104,62,22,20,5,5,0.8,0.7
2022-09-11T23:00:00,1787A,129.6364,44.6075,牡丹江市,机车工厂,,47,47,32,18,10,154,37,126,84,22,15,7,9,0.6,0.5
2022-09-11T23:00:00,1788A,129.6386,44.5462,牡丹江市,第一中学,,28,28,21,13,10,122,41,96,58,11,13,5,4,0.5,0.4
2022-09-11T23:00:00,1789A,124.81117,46.03138,大庆市,大同区,,,33,50,,,117,68,114,86,12,9,5,5,0.5,0.7
2022-09-11T23:00:00,1790A,125.129,46.533,大庆市,龙凤区,,26,25,35,18,20,120,76,109,94,4,4,5,4,0.2,0.4
2022-09-11T23:00:00,1791A,124.902,46.408,大庆市,红岗区,,27,27,30,17,19,121,75,108,88,7,7,4,3,0.6,0.8
2022-09-11T23:00:00,1792A,125.153,46.586,大庆市,萨尔图区,,33,33,43,17,31,118,84,108,95,6,6,7,6,0.2,0.4
2022-09-11T23:00:00,1793A,124.9042,46.6215,大庆市,让胡路区,,,,,,,126,79,110,89,6,8,2,3,1.2,1.3
2022-09-11T23:00:00,1794A,118.3606,31.3519,芜湖市,监测站,颗粒物(PM10),64,77,53,42,33,213,117,185,152,26,22,7,8,0.6,0.6
2022-09-11T23:00:00,1795A,118.3714,31.4134,芜湖市,科创中心,,50,50,49,33,31,214,103,194,160,35,26,6,8,0.8,0.8
2022-09-11T23:00:00,1796A,118.3673,31.3131,芜湖市,四水厂,颗粒物(PM10),58,65,49,35,30,192,141,180,159,21,20,7,7,0.6,0.5
2022-09-11T23:00:00,1797A,118.4022,31.3839,芜湖市,济民医院(对照点),,,,,,,,,,,,,,,,
2022-09-11T23:00:00,1798A,118.5092,31.6837,马鞍山市,湖东路四小,,45,45,47,25,25,210,88,190,157,23,19,23,8,0.8,0.9
2022-09-11T23:00:00,1799A,118.5024,31.6449,马鞍山市,开发区,,38,38,54,24,34,214,106,191,162,17,24,6,9,0.8,1
2022-09-11T23:00:00,1800A,118.5228,31.7231,马鞍山市,慈湖,,34,34,49,22,30,214,90,195,158,23,24,6,13,0.8,0.9
2022-09-11T23:00:00,1801A,118.48,31.6928,马鞍山市,马钢动力厂,,,,,,,,,,,,,,,,
2022-09-11T23:00:00,1802A,118.6245,31.7241,马鞍山市,濮塘(对照点),,33,33,35,23,26,221,89,188,152,14,12,4,5,0.5,0.7
2022-09-11T23:00:00,1803A,115.9872,29.6815,九江市,十里,细颗粒物(PM2.5),52,50,37,36,23,191,141,185,164,24,19,10,10,0.9,0.8
2022-09-11T23:00:00,1804A,115.9584,29.7046,九江市,茅山头,,48,42,33,33,22,183,134,176,162,26,17,8,9,0.9,0.8
2022-09-11T23:00:00,1805A,115.9877,29.7295,九江市,西园,颗粒物(PM10),57,63,40,34,23,193,146,184,170,21,16,11,12,0.9,0.8
2022-09-11T23:00:00,1806A,116.0172,29.6547,九江市,五七二七厂,,48,37,33,24,22,190,151,177,156,12,15,10,9,1.0,0.7
2022-09-11T23:00:00,1808A,115.9114,29.6038,九江市,综合工业园,,42,42,37,24,21,181,134,165,157,26,21,17,10,1.8,0.8
2022-09-11T23:00:00,1809A,116.0721,29.7535,九江市,石化总厂,颗粒物(PM10),59,68,42,36,21,183,104,173,144,47,20,9,9,0.9,0.8
2022-09-11T23:00:00,1810A,115.9773,29.5698,九江市,庐山气象台(对照点),,50,41,37,18,25,191,160,191,175,10,8,23,13,0.9,0.7
2022-09-11T23:00:00,1811A,112.3628,34.6692,洛阳市,中信二小,,,,,,,,,,,,,,,,
2022-09-11T23:00:00,1812A,112.3931,34.6516,洛阳市,市委党校,颗粒物(PM10),64,77,49,40,24,193,36,168,115,71,26,11,7,0.6,0.5
2022-09-11T23:00:00,1814A,112.4657,34.6871,洛阳市,豫西宾馆,颗粒物(PM10),54,58,47,27,27,176,29,159,116,96,39,8,9,0.6,0.4
2022-09-11T23:00:00,1815A,112.494,34.6886,洛阳市,河南林校,,49,49,40,26,22,163,37,150,113,45,19,4,6,0.5,0.5
2022-09-11T23:00:00,1816A,112.3844,34.623,洛阳市,开发区管委会,,44,44,42,28,27,196,49,169,127,37,14,1,3,0.4,0.4
2022-09-11T23:00:00,1817A,112.4267,34.6258,洛阳市,市委新办公区,颗粒物(PM10),61,72,45,33,28,176,33,159,116,48,17,4,6,0.7,0.5
2022-09-11T23:00:00,1818A,114.4839,36.0621,安阳市,棉研所(对照点),,,,,,,,,,,,,,,,
2022-09-11T23:00:00,1819A,114.3551,36.1017,安阳市,红庙街,细颗粒物(PM2.5),94,94,65,70,45,213,89,205,164,35,19,24,17,0.8,1.1
2022-09-11T23:00:00,1820A,114.361,36.0681,安阳市,银杏小区,颗粒物(PM10),80,110,65,53,36,209,96,200,159,30,15,51,12,0.8,0.9
2022-09-11T23:00:00,1824A,114.3389,34.7781,开封市,肿瘤医院,细颗粒物(PM2.5),70,83,55,51,34,205,98,198,167,40,17,6,8,0.9,0.7
2022-09-11T23:00:00,1826A,114.2885,34.7965,开封市,世纪星幼儿园,颗粒物(PM10),67,84,57,45,30,190,97,183,154,31,16,8,10,0.7,0.6
2022-09-11T23:00:00,1828A,113.227,35.2125,焦作市,市环保局,颗粒物(PM10),54,58,50,29,22,181,90,170,137,18,16,4,5,0.5,0.5
2022-09-11T23:00:00,1829A,113.2464,35.1764,焦作市,高新区政府（停运20220628）,,,,,,,,,,,,,,,,
2022-09-11T23:00:00,1830A,113.1992,35.2590,焦作市,影视城(对照点),,,,,,,,,,,,,,,,
2022-09-11T23:00:00,1832A,113.3257,33.742,平顶山市,新华旅馆,细颗粒物(PM2.5),62,64,70,44,41,175,98,170,138,42,23,5,8,0.4,0.5
2022-09-11T23:00:00,1833A,113.2919,33.737,平顶山市,规划设计院,颗粒物(PM10),72,93,76,39,35,182,39,170,124,67,26,8,10,0.8,0.6
2022-09-11T23:00:00,1834A,113.182,33.774,平顶山市,平顶山工学院,颗粒物(PM10),57,64,73,29,37,182,154,173,162,23,25,21,19,0.4,0.4
2022-09-11T23:00:00,1835A,111.1922,34.7752,三门峡市,市政府,,50,50,36,27,25,158,55,146,120,45,10,8,7,0.6,0.6
2022-09-11T23:00:00,1836A,111.1587,34.7942,三门峡市,开发区,颗粒物(PM10),57,63,44,30,27,161,86,151,130,19,11,8,6,0.8,0.6
2022-09-11T23:00:00,1838A,111.143,34.7955,三门峡市,风景区(对照点),,,,,,,,,,,,,,,,
2022-09-11T23:00:00,1839A,111.3009,30.7157,宜昌市,四零三,,,,,,,,,,,,,,,,
2022-09-11T23:00:00,1840A,111.2992,30.6981,宜昌市,白龙岗,,39,36,39,24,25,169,123,157,135,9,17,4,5,0.5,0.6
2022-09-11T23:00:00,1841A,111.3549,30.6465,宜昌市,伍家岗,,45,45,42,27,26,170,122,154,136,14,26,7,8,0.5,0.5
2022-09-11T23:00:00,1842A,111.2628,30.6961,宜昌市,点军区,颗粒物(PM10),57,64,49,17,23,176,122,162,140,8,18,7,8,0.4,0.5
2022-09-11T23:00:00,1843A,111.3275,30.7819,宜昌市,夷陵区,,36,36,40,19,22,173,110,154,123,10,17,6,7,0.3,0.4
2022-09-11T23:00:00,1844A,112.2494,30.3197,荆州市,市图书馆,颗粒物(PM10),61,72,61,36,36,199,132,188,172,22,16,6,8,0.8,0.7
2022-09-11T23:00:00,1845A,112.2008,30.3544,荆州市,市委党校,颗粒物(PM10),59,68,62,36,36,188,108,180,161,29,17,6,8,1.0,0.9
2022-09-11T23:00:00,1847A,113.1094,29.3578,岳阳市,南湖风景区,细颗粒物(PM2.5),73,42,60,53,45,212,147,203,189,30,21,20,16,1.1,0.9
2022-09-11T23:00:00,1848A,113.1493,29.4251,岳阳市,城陵矶,颗粒物(PM10),67,84,70,43,38,199,136,188,174,36,33,12,13,0.9,0.9
2022-09-11T23:00:00,1849A,113.1497,29.3575,岳阳市,开发区,细颗粒物(PM2.5),73,65,65,53,46,213,163,203,192,31,24,14,13,0.8,0.8
2022-09-11T23:00:00,1850A,113.2621,29.4758,岳阳市,云溪区,细颗粒物(PM2.5),67,74,64,48,40,211,157,202,189,16,17,13,13,0.9,0.9
2022-09-11T23:00:00,1851A,112.9943,29.4402,岳阳市,君山区,细颗粒物(PM2.5),68,74,65,49,44,200,135,190,176,16,16,6,7,1.0,0.9
2022-09-11T23:00:00,1852A,113.2117,29.355,岳阳市,金凤水库(对照点),颗粒物(PM10),58,65,56,40,33,208,158,201,186,15,10,10,7,0.9,0.8
2022-09-11T23:00:00,1854A,111.6975,28.9703,常德市,市二中,,,73,67,51,46,168,,164,144,11,14,11,10,0.7,0.7
2022-09-11T23:00:00,1857A,111.7158,29.1456,常德市,白鹤山(对照点),细颗粒物(PM2.5),58,58,56,41,37,193,164,179,175,5,6,6,6,0.7,0.6
2022-09-11T23:00:00,1858A,110.5319,29.1217,张家界市,永定新区,颗粒物(PM10),52,54,51,35,32,168,108,160,129,10,12,2,4,0.3,0.4
2022-09-11T23:00:00,1859A,110.4697,29.1242,张家界市,电业局,,46,46,49,29,26,177,114,165,138,6,11,3,4,0.4,0.4
2022-09-11T23:00:00,1860A,110.5594,29.3547,张家界市,未央路,,38,31,40,20,29,165,120,160,126,5,8,2,3,0.5,0.2
2022-09-11T23:00:00,1861A,110.4417,29.315,张家界市,袁家界(对照点),,42,22,55,17,28,180,132,178,146,13,14,9,9,0.6,0.7
2022-09-11T23:00:00,1862A,110.4144,25.3167,桂林市,电子科大尧山校区(对照点),"颗粒物(PM10),细颗粒物(PM2.5)",52,54,60,36,43,184,58,169,120,17,14,5,14,0.7,0.7
2022-09-11T23:00:00,1863A,110.2819,25.2697,桂林市,监测站,颗粒物(PM10),56,62,67,36,38,169,100,158,133,21,19,27,17,0.9,0.9
2022-09-11T23:00:00,1864A,110.3089,25.2708,桂林市,龙隐路小学,细颗粒物(PM2.5),59,57,62,42,46,174,80,162,135,20,18,14,25,0.9,0.9
2022-09-11T23:00:00,1865A,110.2869,25.2178,桂林市,八中,细颗粒物(PM2.5),59,65,61,42,41,171,77,161,129,37,19,16,16,0.7,0.7
2022-09-11T23:00:00,1866A,109.2262,21.588,北海市,牛尾岭水库(对照点),,20,20,27,12,18,134,34,120,82,11,8,4,6,0.5,0.6
2022-09-11T23:00:00,1867A,109.1436,21.4086,北海市,海滩公园,,20,14,28,10,14,156,62,138,112,5,7,5,6,0.6,0.7
2022-09-11T23:00:00,1868A,109.0981,21.4661,北海市,新市环保局,,19,18,25,7,16,154,60,135,102,5,6,6,8,0.5,0.6
2022-09-11T23:00:00,1869A,109.1778,21.5233,北海市,北海工业园,,25,25,34,17,20,166,48,142,109,10,7,6,9,0.5,0.5
2022-09-11T23:00:00,1870A,109.4856,24.3895,柳州市,柳东小学,细颗粒物(PM2.5),87,81,51,64,37,115,62,105,97,16,10,10,12,0.9,0.7
2022-09-11T23:00:00,1871A,109.4157,24.3277,柳州市,环保监测站,细颗粒物(PM2.5),75,78,49,55,35,97,60,82,76,23,19,13,13,0.9,0.9
2022-09-11T23:00:00,1872A,109.389,24.341,柳州市,河西水厂,细颗粒物(PM2.5),73,87,50,53,36,91,48,75,67,22,18,9,9,1.0,1
2022-09-11T23:00:00,1873A,109.4311,24.2921,柳州市,市四中,细颗粒物(PM2.5),68,79,51,49,32,91,45,80,74,26,19,8,11,1.5,1
2022-09-11T23:00:00,1874A,109.4006,24.3631,柳州市,市九中,,,82,62,57,37,100,,84,80,17,19,13,13,,0.8
2022-09-11T23:00:00,1875A,109.4958,24.3134,柳州市,古亭山,,49,46,40,34,30,111,30,94,82,49,21,7,9,1.0,0.9
2022-09-11T23:00:00,1876A,109.5078,18.2489,三亚市,河东子站,,26,25,33,18,21,118,63,109,88,5,4,2,3,0.7,0.7
2022-09-11T23:00:00,1877A,109.4964,18.2681,三亚市,河西子站,,25,25,32,12,13,118,74,110,90,4,4,2,2,0.7,0.7
2022-09-11T23:00:00,1878A,104.7778,31.4741,绵阳市,富乐山,细颗粒物(PM2.5),62,52,50,44,44,145,56,138,110,29,11,3,3,0.9,0.8
2022-09-11T23:00:00,1879A,104.7563,31.4535,绵阳市,市人大,细颗粒物(PM2.5),79,91,78,58,52,129,48,124,96,50,19,5,6,0.8,0.6
2022-09-11T23:00:00,1880A,104.6697,31.4668,绵阳市,高新区自来水公司,细颗粒物(PM2.5),95,114,86,71,70,137,64,132,109,46,20,7,7,0.8,0.7
2022-09-11T23:00:00,1881A,104.7287,31.5075,绵阳市,三水厂,细颗粒物(PM2.5),94,99,75,70,63,143,21,131,89,66,29,6,6,1.1,0.8
2022-09-11T23:00:00,1882A,104.563,28.793,宜宾市,石马中学(对照点),细颗粒物(PM2.5),58,64,45,41,34,129,37,116,96,18,12,4,5,0.7,0.6
2022-09-11T23:00:00,1883A,104.6201,28.7728,宜宾市,市委,细颗粒物(PM2.5),58,46,41,41,34,120,59,108,95,19,17,7,8,0.6,0.5
2022-09-11T23:00:00,1884A,104.6055,28.793,宜宾市,宜宾四中,细颗粒物(PM2.5),67,62,47,48,38,140,62,131,111,19,11,9,10,0.6,0.6
2022-09-11T23:00:00,1885A,104.639,28.7562,宜宾市,市政府,细颗粒物(PM2.5),59,49,40,42,33,133,68,126,114,17,10,9,10,0.7,0.6
2022-09-11T23:00:00,1886A,104.5742,28.7199,宜宾市,黄金嘴,细颗粒物(PM2.5),70,59,41,51,34,136,61,120,107,18,12,8,8,0.5,0.4
2022-09-11T23:00:00,1888A,101.6891,26.571,攀枝花市,弄弄坪,颗粒物(PM10),62,73,70,17,22,128,42,99,82,14,17,7,11,0.8,1.2
2022-09-11T23:00:00,1889A,101.5769,26.5928,攀枝花市,河门口,,30,30,24,17,14,104,50,85,76,15,13,10,11,1.2,1.1
2022-09-11T23:00:00,1890A,101.7169,26.585,攀枝花市,炳草岗,颗粒物(PM10),53,56,34,35,32,133,25,105,85,40,26,47,27,0.8,1.3
2022-09-11T23:00:00,1891A,101.7369,26.5008,攀枝花市,仁和,,,,17,26,25,114,29,97,70,10,8,8,9,0.7,0.7
2022-09-11T23:00:00,1893A,105.4324,28.9634,泸州市,九狮山(对照点),细颗粒物(PM2.5),54,43,36,38,28,122,40,111,83,3,2,5,6,0.5,0.4
2022-09-11T23:00:00,1894A,105.4427,28.9063,泸州市,小市上码头,细颗粒物(PM2.5),79,69,59,58,48,136,96,130,120,12,15,10,14,0.8,0.8
2022-09-11T23:00:00,1895A,105.4241,28.8573,泸州市,兰田宪桥,颗粒物(PM10),79,107,47,46,36,138,53,129,109,19,13,12,11,1.0,0.7
2022-09-11T23:00:00,1896A,105.4379,28.8833,泸州市,市环监站,细颗粒物(PM2.5),85,76,53,63,43,132,92,125,120,13,10,5,8,0.7,0.6
2022-09-11T23:00:00,1897A,104.7547,29.3628,自贡市,大塘山(对照点),,,,,,,,,,,,,,,,
2022-09-11T23:00:00,1900A,104.7692,29.3411,自贡市,春华路,,,,,,,,,,,,,,,,
2022-09-11T23:00:00,1901A,104.4239,31.1208,德阳市,东山公园,细颗粒物(PM2.5),64,69,50,46,34,139,69,126,117,32,13,2,4,0.8,0.8
2022-09-11T23:00:00,1902A,104.3826,31.1317,德阳市,西小区,颗粒物(PM10),71,91,67,51,36,136,58,123,103,38,26,5,6,0.8,0.8
2022-09-11T23:00:00,1903A,104.4053,31.1167,德阳市,市检察院,,,,,,,,,,,,,,,,
2022-09-11T23:00:00,1904A,104.3553,31.1091,德阳市,耐火材料厂,颗粒物(PM10),81,112,64,56,37,139,81,125,108,25,22,5,7,0.8,0.7
2022-09-11T23:00:00,1905A,106.056,30.8064,南充市,西山风景区(对照点),细颗粒物(PM2.5),58,48,43,41,48,149,126,143,137,9,13,7,2,0.9,0.9
2022-09-11T23:00:00,1906A,106.0789,30.8023,南充市,南充市委,细颗粒物(PM2.5),68,76,62,49,44,152,78,145,120,30,14,3,4,0.8,0.6
2022-09-11T23:00:00,1907A,106.1031,30.8217,南充市,南充炼油厂,细颗粒物(PM2.5),70,81,71,51,48,169,39,159,124,46,16,4,9,0.7,0.4
2022-09-11T23:00:00,1908A,106.1064,30.7856,南充市,高坪区监测站,颗粒物(PM10),70,90,72,45,54,161,43,149,116,55,15,1,2,0.9,0.7
2022-09-11T23:00:00,1909A,106.0642,30.7636,南充市,嘉陵区环保局,细颗粒物(PM2.5),72,79,69,52,51,144,47,138,101,57,18,4,4,0.8,0.7
2022-09-11T23:00:00,1910A,106.1087,30.8388,南充市,市环境监测站,,,76,67,54,52,139,,135,135,,13,,10,0.7,0.5
2022-09-11T23:00:00,1911A,106.9222,27.6869,遵义市,丁字口,细颗粒物(PM2.5),58,40,49,41,38,127,62,113,99,10,5,7,6,0.8,0.8
2022-09-11T23:00:00,1912A,106.9242,27.7019,遵义市,凤凰山,细颗粒物(PM2.5),54,45,43,38,33,128,77,120,114,15,10,6,5,0.8,0.8
2022-09-11T23:00:00,1913A,106.8906,27.6486,遵义市,忠庄,,49,41,47,34,30,125,70,112,102,11,11,2,2,0.6,0.6
2022-09-11T23:00:00,1914A,106.9231,27.6506,遵义市,舟水桥,颗粒物(PM10),57,64,52,30,29,128,42,114,93,16,11,2,2,0.4,0.5
2022-09-11T23:00:00,1915A,106.9178,27.72,遵义市,干田坝,细颗粒物(PM2.5),53,45,40,37,34,132,46,117,101,19,8,5,6,0.6,0.6
2022-09-11T23:00:00,1916A,103.7897,25.5035,曲靖市,环境监测站,,32,32,19,17,18,99,35,79,45,17,13,2,3,0.8,0.7
2022-09-11T23:00:00,1917A,103.8,25.5364,曲靖市,烟厂办公区,,25,22,20,17,14,92,34,78,43,21,12,5,5,0.7,0.7
2022-09-11T23:00:00,1918A,108.7197,34.3956,咸阳市,气象站(对照点),细颗粒物(PM2.5),94,99,58,70,32,135,31,123,91,64,23,6,8,1.0,1
2022-09-11T23:00:00,1919A,108.673,34.3155,咸阳市,实验中学,细颗粒物(PM2.5),80,92,58,59,36,172,90,154,136,35,20,5,8,1.0,1
2022-09-11T23:00:00,1920A,108.7233,34.3617,咸阳市,师范学院,细颗粒物(PM2.5),97,124,61,72,34,166,58,150,121,36,16,5,8,1.0,0.9
2022-09-11T23:00:00,1922A,109.0656,35.0994,铜川市,党校(对照点),,,84,46,44,25,105,6,94,54,,27,5,6,0.9,0.9
2022-09-11T23:00:00,1923A,109.0697,35.0697,铜川市,王益区政府,颗粒物(PM10),62,74,41,36,25,148,33,136,102,26,13,8,7,1.0,0.8
2022-09-11T23:00:00,1924A,108.9344,34.9058,铜川市,新区管委会,颗粒物(PM10),67,84,60,43,33,163,81,148,127,34,27,16,11,0.8,0.8
2022-09-11T23:00:00,1925A,108.9589,34.8731,铜川市,新区兰芝公司,,,,,,,,,,,,,,,,
2022-09-11T23:00:00,1926A,109.4131,36.6275,延安市,枣园(对照点),,36,36,26,14,14,150,6,126,75,40,20,4,4,0.6,0.6
2022-09-11T23:00:00,1927A,109.4761,36.6028,延安市,延大医附院,,,46,36,17,18,148,,128,111,,19,4,4,0.6,0.6
2022-09-11T23:00:00,1928A,109.4824,36.5767,延安市,市监测站,,,,,,,,,,,,,,,,
2022-09-11T23:00:00,1929A,109.5056,36.6106,延安市,百米大道,,49,49,31,18,16,141,8,120,71,45,25,6,6,0.7,0.6
2022-09-11T23:00:00,1930A,107.185,34.3063,宝鸡市,庙沟村(对照点),颗粒物(PM10),55,59,52,30,32,92,64,87,76,9,13,5,5,0.5,0.5
2022-09-11T23:00:00,1931A,107.0708,34.3017,宝鸡市,竹园沟,细颗粒物(PM2.5),52,48,50,36,35,109,43,99,78,16,16,7,7,0.8,0.7
2022-09-11T23:00:00,1932A,107.1906,34.3672,宝鸡市,三陆医院,细颗粒物(PM2.5),67,66,66,48,43,113,46,107,80,31,22,8,6,0.8,0.8
2022-09-11T23:00:00,1933A,107.1431,34.3547,宝鸡市,监测站,颗粒物(PM10),56,61,60,38,41,113,35,105,74,30,20,6,7,0.8,0.8
2022-09-11T23:00:00,1934A,107.1186,34.3739,宝鸡市,技工学校,细颗粒物(PM2.5),65,70,62,47,48,122,45,110,87,28,19,5,5,0.7,0.7
2022-09-11T23:00:00,1935A,107.3906,34.3528,宝鸡市,陈仓区环保局家属楼,颗粒物(PM10),64,77,60,45,38,120,30,113,93,38,18,6,7,0.8,0.7
2022-09-11T23:00:00,1936A,107.2058,34.3497,宝鸡市,文理学院,颗粒物(PM10),58,66,61,38,35,114,32,111,78,42,21,6,6,0.9,0.8
2022-09-11T23:00:00,1937A,107.2386,34.3622,宝鸡市,三迪小学,颗粒物(PM10),61,72,62,40,44,112,40,104,82,37,23,8,7,0.8,0.7
2022-09-11T23:00:00,1938A,109.5293,34.5101,渭南市,农科所(对照点),,,,,,,,,,,,,,,,
2022-09-11T23:00:00,1939A,109.4974,34.4877,渭南市,日报社,细颗粒物(PM2.5),87,85,64,64,45,164,30,150,99,48,27,11,11,0.8,0.7
2022-09-11T23:00:00,1940A,109.4636,34.493,渭南市,体育馆,细颗粒物(PM2.5),73,66,55,53,40,167,27,156,107,72,24,6,9,0.8,0.6
2022-09-11T23:00:00,1941A,109.4259,34.5023,渭南市,高新一小,细颗粒物(PM2.5),87,100,65,64,38,156,15,145,102,76,20,14,9,0.9,0.7
2022-09-11T23:00:00,1943A,102.1725,38.5339,金昌市,新川苑,,46,46,42,14,16,161,132,152,138,18,20,49,25,0.6,0.6
2022-09-11T23:00:00,1944A,102.1692,38.5167,金昌市,天庆家园,,41,41,40,14,12,153,114,146,129,18,18,9,31,0.6,0.7
2022-09-11T23:00:00,1945A,98.2908,39.7711,嘉峪关市,气象局,二氧化氮,53,41,33,17,12,143,10,136,104,105,27,6,4,0.8,0.4
2022-09-11T23:00:00,1947A,106.3394,38.817,石嘴山市,沙湖旅游区(对照点),,39,39,44,14,17,150,84,142,114,17,15,5,9,0.5,0.6
2022-09-11T23:00:00,1948A,106.3668,39.0145,石嘴山市,大武口朝阳西街,,39,39,34,20,20,146,46,136,108,52,26,4,11,0.7,0.9
2022-09-11T23:00:00,1949A,106.7704,39.2282,石嘴山市,惠农南大街,,30,30,22,14,14,125,50,121,97,36,17,5,7,0.3,0.3
2022-09-11T23:00:00,1950A,106.7099,39.1325,石嘴山市,红果子镇惠新街,,45,45,31,16,13,139,61,123,95,31,16,7,8,0.4,0.4
2022-09-11T23:00:00,1951A,84.895,45.6094,克拉玛依市,长征新村,颗粒物(PM10),51,52,40,3,4,101,101,88,84,4,16,5,5,0.2,0.2
2022-09-11T23:00:00,1952A,84.8988,45.5893,克拉玛依市,南林小区,颗粒物(PM10),54,57,35,16,15,109,105,92,67,5,30,3,3,0.1,0.3
2022-09-11T23:00:00,1953A,85.1186,45.6886,克拉玛依市,白碱滩区,,,,,,,,,,,,,,,,
2022-09-11T23:00:00,1954A,84.905,44.3396,克拉玛依市,独山子区,,46,46,47,18,19,129,105,122,120,8,11,9,9,0.3,0.4
2022-09-11T23:00:00,1955A,85.6979,46.098,克拉玛依市,乌尔禾区商贸楼,,,,28,19,12,106,97,96,91,2,14,5,6,0.1,0.2
2022-09-11T23:00:00,1956A,86.1472,41.7538,巴音郭楞州,孔雀公园,颗粒物(PM10),56,61,54,14,14,136,78,127,96,22,10,4,5,0.4,0.3
2022-09-11T23:00:00,1957A,86.1972,41.7166,巴音郭楞州,棉纺厂,颗粒物(PM10),54,58,51,14,16,126,53,120,102,48,9,5,5,0.3,0.2
2022-09-11T23:00:00,1958A,86.2357,41.7173,巴音郭楞州,经济开发区,颗粒物(PM10),65,80,38,23,16,130,82,125,110,10,4,5,6,0.2,0.2
2022-09-11T23:00:00,1959A,118.746,36.881,寿光市,监测站,,,,,,,,,,,,,,,,
2022-09-11T23:00:00,1960A,118.780,36.864,寿光市,世纪学校,,,,,,,,,,,,,,,,
2022-09-11T23:00:00,1961A,117.532,36.6868,济南市,东山小学,细颗粒物(PM2.5),80,105,80,59,41,209,53,190,122,60,23,4,7,0.6,0.7
2022-09-11T23:00:00,1962A,117.541,36.710,章丘市,明水开发区,,,,,,,,,,,,,,,,
2022-09-11T23:00:00,1963A,120.610,36.440,即墨市,环保局子站,,,,,,,,,,,,,,,,
2022-09-11T23:00:00,1964A,120.470,36.390,即墨市,开发区子站,,,,,,,,,,,,,,,,
2022-09-11T23:00:00,1965A,120.005,35.878,胶南市,JN子站,,,,,,,,,,,,,,,,
2022-09-11T23:00:00,1966A,120.0405,35.8735,青岛市,黄岛区4号,,32,22,22,5,7,141,100,122,119,11,13,4,5,0.5,0.5
2022-09-11T23:00:00,1967A,120.008,36.283,胶州市,胶州环保局,,,,,,,,,,,,,,,,
2022-09-11T23:00:00,1968A,120.014,36.253,胶州市,胶州一中,,,,,,,,,,,,,,,,
2022-09-11T23:00:00,1969A,120.537,36.865,莱西市,环保局子站,,,,,,,,,,,,,,,,
2022-09-11T23:00:00,1970A,120.515,36.885,莱西市,人民广场子站,,,,,,,,,,,,,,,,
2022-09-11T23:00:00,1971A,119.952,36.792,平度市,1号,,,,,,,,,,,,,,,,
2022-09-11T23:00:00,1972A,119.976,36.799,平度市,2号,,,,,,,,,,,,,,,,
2022-09-11T23:00:00,1973A,120.747,37.825,蓬莱市,蓬莱环保局,,,,,,,,,,,,,,,,
2022-09-11T23:00:00,1974A,120.773,37.809,蓬莱市,蓬莱博物馆,,,,,,,,,,,,,,,,
2022-09-11T23:00:00,1975A,120.399,37.374,招远市,招远环保局,,,,,,,,,,,,,,,,
2022-09-11T23:00:00,1976A,120.394,37.364,招远市,招远教育局,,,,,,,,,,,,,,,,
2022-09-11T23:00:00,1977A,119.941,37.177,莱州市,莱州环保局,,,,,,,,,,,,,,,,
2022-09-11T23:00:00,1978A,119.959,37.180,莱州市,莱州外经委,,,,,,,,,,,,,,,,
2022-09-11T23:00:00,1979A,122.471,37.154,荣成市,荣成市环保局办公楼,,,,,,,,,,,,,,,,
2022-09-11T23:00:00,1980A,122.410,37.161,荣成市,山东成山轮胎公司,,,,,,,,,,,,,,,,
2022-09-11T23:00:00,1981A,122.038,37.197,文登市,文登市环保局,,,,,,,,,,,,,,,,
2022-09-11T23:00:00,1982A,122.0693,37.2174,威海市,文登开发区,,27,24,22,12,10,122,84,117,100,11,12,6,6,0.6,0.5
2022-09-11T23:00:00,1983A,121.531,36.913,乳山市,乳山市环保局,,,,,,,,,,,,,,,,
2022-09-11T23:00:00,1984A,121.544,36.907,乳山市,乳山市气象局,,,,,,,,,,,,,,,,
2022-09-11T23:00:00,1985A,120.636,31.155,吴江市,吴江市环保局,,,,,,,,,,,,,,,,
2022-09-11T23:00:00,1986A,120.635,31.170,吴江市,教师进修学校,,,,,,,,,,,,,,,,
2022-09-11T23:00:00,1987A,120.658,31.172,吴江市,吴江开发区,,,,,,,,,,,,,,,,
2022-09-11T23:00:00,1988A,120.953,31.388,昆山市,昆山实验小学,,,,,,,,,,,,,,,,
2022-09-11T23:00:00,1989A,120.999,31.381,昆山市,震川中学,,,,,,,,,,,,,,,,
2022-09-11T23:00:00,1990A,120.758,31.670,常熟市,海虞子站,,,,,,,,,,,,,,,,
2022-09-11T23:00:00,1991A,120.721,31.671,常熟市,兴福子站,,,,,,,,,,,,,,,,
2022-09-11T23:00:00,1992A,120.734,31.656,常熟市,菱塘子站,,,,,,,,,,,,,,,,
2022-09-11T23:00:00,1993A,120.526,31.874,张家港市,张家港市监测站,,,,,,,,,,,,,,,,
2022-09-11T23:00:00,1994A,120.550,31.882,张家港市,城北小学,,,,,,,,,,,,,,,,
2022-09-11T23:00:00,1995A,121.115,31.453,太仓市,太仓市监测站,,,,,,,,,,,,,,,,
2022-09-11T23:00:00,1996A,121.140,31.422,太仓市,科教新城实小,,,,,,,,,,,,,,,,
2022-09-11T23:00:00,1997A,119.146,31.955,句容市,消防指挥中心,,,,,,,,,,,,,,,,
2022-09-11T23:00:00,1998A,119.180,31.955,句容市,房家坝,,,,,,,,,,,,,,,,
2022-09-11T23:00:00,1999A,120.268,31.920,江阴市,虹桥邮政,,,,,,,,,,,,,,,,
2022-09-11T23:00:00,2000A,120.237,31.909,江阴市,五星公园,,,,,,,,,,,,,,,,
2022-09-11T23:00:00,2001A,120.302,31.920,江阴市,第二实验小学,,,,,,,,,,,,,,,,
2022-09-11T23:00:00,2002A,119.818,31.354,宜兴市,宜兴市环保局,,,,,,,,,,,,,,,,
2022-09-11T23:00:00,2003A,119.794,31.371,宜兴市,宜园,,,,,,,,,,,,,,,,
2022-09-11T23:00:00,2004A,119.579,31.751,金坛市,金坛市环境监测站,,,,,,,,,,,,,,,,
2022-09-11T23:00:00,2005A,119.579,31.737,金坛市,金坛市自来水公司,,,,,,,,,,,,,,,,
2022-09-11T23:00:00,2006A,119.460,31.400,溧阳市,溧阳市东门子站,,,,,,,,,,,,,,,,
2022-09-11T23:00:00,2007A,119.438,31.317,溧阳市,燕山子站,,,,,,,,,,,,,,,,
2022-09-11T23:00:00,2008A,121.173,31.896,海门市,海门市监测站,,,,,,,,,,,,,,,,
2022-09-11T23:00:00,2009A,121.1518,31.89708,海门市,社会福利院,,,,,,,,,,,,,,,,
2022-09-11T23:00:00,2010A,119.7183,30.2366,临安市,市政府,,,,,,,,,,,,,,,,
2022-09-11T23:00:00,2011A,119.6942,30.2311,临安市,四中,,,,,,,,,,,,,,,,
2022-09-11T23:00:00,2012A,119.954,30.054,富阳市,监测站,,,,,,,,,,,,,,,,
2022-09-11T23:00:00,2013A,119.946,30.049,富阳市,富春二小,,,,,,,,,,,,,,,,
2022-09-11T23:00:00,2014A,120.091,29.305,义乌市,江东,,,,,,,,,,,,,,,,
2022-09-11T23:00:00,2015A,120.040,29.334,义乌市,北苑,,,,,,,,,,,,,,,,
2022-09-11T23:00:00,2016A,120.251,29.719,诸暨市,图书馆,,,,,,,,,,,,,,,,
2022-09-11T23:00:00,2017A,120.209,29.732,诸暨市,富林印务,,,,,,,,,,,,,,,,
2022-09-11T23:00:00,2018A,121.989,39.625,瓦房店市,抱龙山庄,,,,,,,,,,,,,,,,
2022-09-11T23:00:00,2019A,122.011,39.617,瓦房店市,东山公园,,,,,,,,,,,,,,,,
2022-09-11T23:00:00,2031A,113.1817,27.9958,株洲市,云田中学,颗粒物(PM10),64,78,56,42,38,222,147,201,170,18,13,7,7,0.8,0.7
2022-09-11T23:00:00,2054A,114.1099,32.1059,信阳市,平桥分局,颗粒物(PM10),75,100,64,34,28,169,88,164,138,33,17,10,11,0.9,0.9
2022-09-11T23:00:00,2064A,113.9956,32.1271,信阳市,南湾水厂,,,54,54,27,32,162,,158,151,24,14,8,10,0.8,0.8
2022-09-11T23:00:00,2065A,114.0775,32.1195,信阳市,市酿酒公司,,42,42,47,27,30,163,108,158,141,21,14,11,11,0.8,0.8
2022-09-11T23:00:00,2066A,114.0609,32.1399,信阳市,审计局,颗粒物(PM10),61,71,53,32,36,168,90,162,139,37,17,7,8,0.9,0.9
2022-09-11T23:00:00,2067A,114.6613,33.6128,周口市,市环境监测站,颗粒物(PM10),66,81,61,29,26,171,76,162,132,40,15,16,20,0.5,0.5
2022-09-11T23:00:00,2068A,114.6758,33.6347,周口市,周口师范,颗粒物(PM10),57,63,56,18,24,175,85,168,134,34,17,8,12,0.8,0.7
2022-09-11T23:00:00,2069A,114.6546,33.5979,周口市,市运管处,颗粒物(PM10),61,72,55,24,24,176,70,169,137,42,16,15,20,0.8,0.7
2022-09-11T23:00:00,2070A,114.6369,33.6406,周口市,川汇区环保局,颗粒物(PM10),71,92,62,25,24,171,45,165,121,45,17,9,18,0.8,0.6
2022-09-11T23:00:00,2075A,117.6336,24.4674,漳州市,九湖(对照点),,,,,,,,,,,,,,,,
2022-09-11T23:00:00,2160A,112.85,35.5051,晋城市,自来水公司,颗粒物(PM10),66,81,51,44,34,191,28,184,136,61,25,5,7,1.0,1.4
2022-09-11T23:00:00,2161A,112.8318,35.4936,晋城市,白云商贸,细颗粒物(PM2.5),55,58,51,39,28,186,49,180,133,38,22,3,5,0.6,0.9
2022-09-11T23:00:00,2162A,112.8508,35.4887,晋城市,市环保局,颗粒物(PM10),66,81,46,46,33,187,33,181,136,56,24,5,7,0.8,1.1
2022-09-11T23:00:00,2163A,112.8676,35.4897,晋城市,技术学院,颗粒物(PM10),68,86,43,46,29,183,28,177,133,74,28,4,6,0.8,1
2022-09-11T23:00:00,2164A,112.8271,35.4828,晋城市,泽州一中,,,,,,,,,,,,,,,,
2022-09-11T23:00:00,2165A,112.8453,35.546,晋城市,白马寺 (对照点),,,,,,,,,,,,,,,,
2022-09-11T23:00:00,2166A,112.4397,39.3522,朔州市,平朔,颗粒物(PM10),98,146,82,46,35,152,17,135,90,58,38,3,7,0.9,0.7
2022-09-11T23:00:00,2167A,112.4575,39.3617,朔州市,朔唯,,,,89,,38,63,,44,,,41,,11,,0.6
2022-09-11T23:00:00,2168A,112.4258,39.3197,朔州市,区政府,颗粒物(PM10),69,88,82,29,30,153,70,136,104,31,26,8,9,0.7,0.7
2022-09-11T23:00:00,2169A,112.4072,39.3278,朔州市,市环保局,颗粒物(PM10),69,88,77,17,23,148,79,133,99,21,29,7,10,0.5,0.6
2022-09-11T23:00:00,2170A,112.4272,39.3681,朔州市,市二中,颗粒物(PM10),108,166,87,46,35,154,16,133,88,63,38,8,10,1.1,0.8
2022-09-11T23:00:00,2171A,112.7532,37.6945,晋中市,锦纶小区,颗粒物(PM10),57,63,44,32,29,172,18,158,98,62,27,8,8,0.4,0.4
2022-09-11T23:00:00,2173A,112.7249,37.7067,晋中市,南都小区,颗粒物(PM10),61,72,48,27,28,172,51,161,110,47,30,7,8,0.5,0.4
2022-09-11T23:00:00,2174A,112.6991,37.6982,晋中市,榆次区政府,细颗粒物(PM2.5),55,56,45,39,30,160,50,151,104,39,22,9,9,0.6,0.6
2022-09-11T23:00:00,2175A,110.9956,35.0147,运城市,运城中学,"颗粒物(PM10),细颗粒物(PM2.5)",53,55,60,37,32,144,84,135,120,21,13,7,12,1.2,1.4
2022-09-11T23:00:00,2176A,111.0233,35.0611,运城市,禹都开发区,,,,,,,,,,,,,,,,
2022-09-11T23:00:00,2178A,110.9686,35.0303,运城市,地区技校,颗粒物(PM10),53,55,53,30,32,174,78,157,127,38,18,8,13,1.2,1.5
2022-09-11T23:00:00,2179A,111.0414,35.1147,运城市,空港新区,细颗粒物(PM2.5),60,67,67,43,40,164,36,155,120,59,26,15,18,1.0,1.3
2022-09-11T23:00:00,2181A,112.7383,38.4519,忻州市,开发区,,48,48,50,26,30,157,54,144,101,27,18,18,12,0.6,0.6
2022-09-11T23:00:00,2182A,112.7003,38.4928,忻州市,会展中心,颗粒物(PM10),54,57,50,25,28,149,10,139,77,50,28,11,10,0.5,0.5
2022-09-11T23:00:00,2183A,111.1406,37.5211,吕梁市,环保局,颗粒物(PM10),61,72,53,24,21,158,0,142,80,72,36,5,5,0.5,0.6
2022-09-11T23:00:00,2185A,111.1297,37.5136,吕梁市,自来水公司,颗粒物(PM10),57,63,58,26,22,155,6,136,78,52,27,4,3,0.6,0.6
2022-09-11T23:00:00,2186A,106.8288,39.6778,乌海市,聚英学校,,,,,,,,,,,,,,,,
2022-09-11T23:00:00,2187A,106.8174,39.6973,乌海市,市林业局,颗粒物(PM10),57,63,50,16,21,158,82,142,119,32,26,44,32,0.6,0.8
2022-09-11T23:00:00,2188A,106.7907,39.6667,乌海市,中海勃湾学校,颗粒物(PM10),59,68,46,21,19,162,56,146,113,60,28,22,29,0.7,0.8
2022-09-11T23:00:00,2191A,122.2532,43.6801,通辽市,艺术职业学校,,50,50,48,10,16,128,94,121,102,15,13,11,8,0,0.2
2022-09-11T23:00:00,2192A,119.7594,49.2261,呼伦贝尔市,区环保局,,30,30,42,20,18,85,43,78,44,6,15,5,5,0.5,0.5
2022-09-11T23:00:00,2194A,107.5936,40.916,巴彦淖尔市,秋林养殖基地(对照点),,,,,,,,,,,,,,,,
2022-09-11T23:00:00,2195A,107.4212,40.761,巴彦淖尔市,附二中,,40,38,42,28,23,147,97,138,112,14,13,3,5,0.6,0.6
2022-09-11T23:00:00,2196A,107.37,40.7372,巴彦淖尔市,市环保大楼,,43,43,39,26,23,152,106,140,117,7,9,4,5,0.7,0.7
2022-09-11T23:00:00,2197A,113.1306,40.9923,乌兰察布市,集宁新区,,45,45,38,28,24,158,128,146,130,12,23,10,19,0.4,0.4
2022-09-11T23:00:00,2200A,122.0392,46.0656,兴安盟,胜华新制药厂,,35,35,44,20,25,131,86,124,105,10,16,5,4,0.3,0.5
2022-09-11T23:00:00,2201A,121.9504,46.0741,兴安盟,科右前旗环保局,,50,47,46,35,32,142,80,136,115,14,12,4,4,0.3,0.4
2022-09-11T23:00:00,2202A,116.1042,43.9317,锡林郭勒盟,市环保监测站,,28,28,19,9,6,130,60,121,95,11,4,8,8,0.2,0.2
2022-09-11T23:00:00,2203A,116.0781,43.9311,锡林郭勒盟,市政府,,,12,7,,,129,43,118,87,25,8,7,8,0.2,0.2
2022-09-11T23:00:00,2204A,105.6467,38.8363,阿拉善盟,西城区西花园(对照点),,40,32,30,21,15,165,128,157,148,6,9,6,8,0.4,0.4
2022-09-11T23:00:00,2205A,105.6985,38.8411,阿拉善盟,蒙二幼,,49,19,26,34,23,163,125,157,147,6,6,12,11,0.3,0.3
2022-09-11T23:00:00,2206A,105.724,38.8516,阿拉善盟,环保局新楼,,40,18,17,16,15,169,128,156,151,7,8,8,10,0.3,0.3
2022-09-11T23:00:00,2207A,121.6094,41.998,阜新市,工业园区,,40,40,41,25,17,120,33,114,82,31,20,12,13,0.7,0.7
2022-09-11T23:00:00,2208A,121.6697,42.0279,阜新市,长青街,,30,30,41,18,24,126,75,118,100,22,20,19,12,0.6,0.6
2022-09-11T23:00:00,2209A,121.6673,42.0705,阜新市,农业园区,颗粒物(PM10),61,72,59,12,20,117,78,110,98,16,15,12,15,0.6,0.7
2022-09-11T23:00:00,2210A,121.6717,42.0224,阜新市,东苑,,34,34,53,16,23,117,85,110,95,18,22,13,11,0.5,0.7
2022-09-11T23:00:00,2211A,121.6506,42.0498,阜新市,玉龙新城,颗粒物(PM10),54,58,39,24,18,126,46,118,96,26,18,11,11,0.4,0.5
2022-09-11T23:00:00,2212A,123.2,41.1953,辽阳市,宏伟区,,27,27,22,11,10,86,73,82,74,4,7,7,7,0.6,0.5
2022-09-11T23:00:00,2213A,123.1683,41.2495,辽阳市,新华园,,36,36,41,19,15,91,55,82,60,19,19,7,8,0.6,0.8
2022-09-11T23:00:00,2214A,123.2354,41.2639,辽阳市,滨河路,,38,38,35,9,18,98,69,92,66,14,20,5,6,0.7,0.9
2022-09-11T23:00:00,2215A,123.149,41.2991,辽阳市,铁西工业园,,46,46,46,23,23,150,47,117,77,25,23,7,9,0.6,0.8
2022-09-11T23:00:00,2216A,123.8139,42.3022,铁岭市,汇工街西,颗粒物(PM10),59,67,49,24,23,184,55,151,109,37,22,9,14,0.5,0.5
2022-09-11T23:00:00,2217A,123.8649,42.2923,铁岭市,水上乐园,,45,45,36,28,17,163,70,140,118,33,28,9,11,0.4,0.3
2022-09-11T23:00:00,2218A,123.8486,42.2867,铁岭市,银州路东段,,39,34,19,27,14,162,63,134,116,26,19,5,6,0.9,0.9
2022-09-11T23:00:00,2219A,123.7153,42.2217,铁岭市,金沙江路北,颗粒物(PM10),57,64,39,26,18,176,66,142,97,39,25,5,6,0.5,0.5
2022-09-11T23:00:00,2220A,120.4318,41.5881,朝阳市,西梁,,30,17,35,10,20,116,93,105,100,7,13,10,9,0.6,0.8
2022-09-11T23:00:00,2221A,120.4521,41.5646,朝阳市,河畔小区,,32,12,30,10,19,116,101,110,108,5,11,11,9,0.5,0.6
2022-09-11T23:00:00,2222A,120.4176,41.5648,朝阳市,八里堡,,27,17,38,10,21,115,86,103,93,9,13,6,6,0.6,0.7
2022-09-11T23:00:00,2223A,120.3806,41.5969,朝阳市,农业园区,,24,24,32,13,23,117,27,106,80,43,15,6,9,0.6,0.8
2022-09-11T23:00:00,2225A,124.4002,43.1713,四平市,一商场,颗粒物(PM10),58,66,47,28,21,118,74,111,81,13,23,3,7,0.3,0.6
2022-09-11T23:00:00,2226A,124.388,43.193,四平市,境园,颗粒物(PM10),55,60,43,19,17,113,77,108,75,12,19,4,4,0.3,0.5
2022-09-11T23:00:00,2227A,125.1358,42.8845,辽源市,环保局,,24,14,31,12,19,115,75,109,97,8,9,6,7,0.4,0.5
2022-09-11T23:00:00,2229A,125.9358,41.7173,通化市,光明,,37,37,28,12,12,113,11,78,42,26,18,17,12,0.6,0.6
2022-09-11T23:00:00,2230A,125.9446,41.7325,通化市,铁路,,46,46,31,22,14,116,10,79,38,27,18,7,12,0.5,0.6
2022-09-11T23:00:00,2231A,126.4219,41.9171,白山市,喜丰,颗粒物(PM10),51,51,49,18,18,116,13,99,56,28,18,14,10,0.8,1.1
2022-09-11T23:00:00,2232A,126.4077,41.9419,白山市,环保局,,36,36,39,9,17,109,23,96,60,19,16,7,12,0.6,0.8
2022-09-11T23:00:00,2233A,124.8006,45.1214,松原市,江南,,24,11,32,16,26,130,74,124,82,8,12,4,6,0.5,0.7
2022-09-11T23:00:00,2234A,124.7965,45.1722,松原市,江北,,31,28,43,12,24,156,98,133,97,8,10,4,7,0.2,0.5
2022-09-11T23:00:00,2235A,122.7911,45.6077,白城市,洮北区环保局,,33,33,46,13,28,117,55,111,80,20,11,5,5,0.3,0.5
2022-09-11T23:00:00,2236A,122.8738,45.5725,白城市,市环保局,,31,31,44,8,18,115,57,115,62,15,14,3,4,0.3,0.6
2022-09-11T23:00:00,2237A,129.47,42.8883,延边朝鲜族自治州,妇幼医院,,30,24,24,21,16,82,21,67,48,12,11,8,8,0.5,0.5
2022-09-11T23:00:00,2238A,129.5055,42.9108,延边朝鲜族自治州,延边医院,,21,21,22,12,11,73,48,65,54,10,12,7,8,0.5,0.5
2022-09-11T23:00:00,2239A,129.3964,42.8881,延边朝鲜族自治州,朝阳川镇医院,,19,19,23,11,8,87,23,68,46,15,12,6,6,0.5,0.5
2022-09-11T23:00:00,2240A,130.9762,45.3001,鸡西市,环保局,,38,38,52,13,17,92,11,64,29,24,19,3,5,0.4,0.5
2022-09-11T23:00:00,2243A,130.9429,45.3039,鸡西市,第一中学,,30,30,44,12,13,104,20,76,35,17,13,5,5,0.4,0.4
2022-09-11T23:00:00,2244A,130.2537,47.3416,鹤岗市,哈啤分公司,,28,28,27,10,11,100,31,80,64,10,20,6,10,0.2,0.3
2022-09-11T23:00:00,2245A,130.2684,47.3086,鹤岗市,斯达机电,颗粒物(PM10),58,65,32,20,9,114,18,96,78,36,14,4,4,0.7,0.5
2022-09-11T23:00:00,2246A,130.3114,47.3388,鹤岗市,东山纸板厂,颗粒物(PM10),95,139,73,22,14,87,3,70,33,26,19,9,9,1.0,0.7
2022-09-11T23:00:00,2247A,130.1097,47.3382,鹤岗市,五号水库(对照点),,13,9,14,9,7,99,27,81,42,7,7,3,4,0.3,0.4
2022-09-11T23:00:00,2248A,131.1511,46.6937,双鸭山市,双合村,颗粒物(PM10),74,97,56,39,25,107,16,90,39,33,19,22,23,3.8,1.7
2022-09-11T23:00:00,2249A,131.1652,46.6191,双鸭山市,南小市,,32,31,43,22,12,117,37,98,57,5,11,4,4,0.1,0.1
2022-09-11T23:00:00,2250A,131.1524,46.6554,双鸭山市,环保局,,34,34,30,19,9,100,29,87,48,19,18,4,5,0.4,0.4
2022-09-11T23:00:00,2251A,131.12,46.5656,双鸭山市,苗圃(对照点),,34,34,15,17,11,119,28,101,57,3,2,3,3,0.4,0.4
2022-09-11T23:00:00,2252A,128.5159,47.4311,伊春市,环保局,,48,41,24,33,20,121,7,92,40,17,15,6,8,0.6,0.6
2022-09-11T23:00:00,2253A,128.9102,47.7412,伊春市,电力嘉园,,31,31,22,8,11,125,4,96,29,15,15,4,9,0.6,0.6
2022-09-11T23:00:00,2254A,129.5029,48.471,伊春市,汤旺河国家公园(对照点),,35,35,29,12,10,107,0,91,23,2,2,5,7,0.3,0.4
2022-09-11T23:00:00,2255A,130.2751,46.8028,佳木斯市,佳纺,颗粒物(PM10),73,95,57,36,19,110,10,93,40,34,22,3,4,0.6,0.4
2022-09-11T23:00:00,2256A,130.3995,46.8307,佳木斯市,发电厂,颗粒物(PM10),83,116,52,39,20,109,2,94,39,39,21,1,2,0.7,0.4
2022-09-11T23:00:00,2257A,130.3258,46.7975,佳木斯市,环保局,颗粒物(PM10),80,110,50,44,21,99,7,86,34,52,31,3,3,0.8,0.7
2022-09-11T23:00:00,2258A,130.3648,46.8032,佳木斯市,十一中,细颗粒物(PM2.5),59,66,51,42,26,97,24,87,47,50,33,5,5,1.0,0.7
2022-09-11T23:00:00,2259A,130.3794,46.7588,佳木斯市,四丰(对照点),,34,34,22,23,13,124,98,107,96,4,6,1,1,0.4,0.3
2022-09-11T23:00:00,2262A,131.0518,45.8751,七台河市,新一中(对照点),,17,17,20,9,9,119,32,98,60,13,12,7,8,0.6,0.6
2022-09-11T23:00:00,2263A,127.4833,50.2524,黑河市,交通局,,22,22,27,12,12,96,34,65,33,6,11,4,5,0.5,0.5
2022-09-11T23:00:00,2264A,127.5144,50.2341,黑河市,环保局,,21,21,16,8,11,95,38,75,38,12,13,5,10,0.5,0.5
2022-09-11T23:00:00,2265A,127.5291,50.2472,黑河市,大黑河岛(对照点),,18,18,28,11,10,83,37,67,33,4,3,5,5,0.3,0.2
2022-09-11T23:00:00,2266A,126.9785,46.6365,绥化市,人和东街,颗粒物(PM10),52,54,46,27,24,176,93,148,109,18,12,10,10,0.9,0.8
2022-09-11T23:00:00,2267A,126.964,46.6528,绥化市,党政办公中心,,44,44,43,24,26,177,118,152,126,11,10,11,17,0.8,0.8
2022-09-11T23:00:00,2269A,124.1069,50.4097,大兴安岭地区,科技局,,15,6,9,10,12,53,42,49,43,5,7,4,4,0.3,0.3
2022-09-11T23:00:00,2270A,117.396,32.939,蚌埠市,工人疗养院,颗粒物(PM10),64,78,45,33,27,139,55,130,96,44,16,14,13,0.3,0.3
2022-09-11T23:00:00,2271A,117.3605,32.9427,蚌埠市,百货大楼,颗粒物(PM10),56,62,42,21,18,137,53,129,100,66,23,13,10,0.4,0.4
2022-09-11T23:00:00,2273A,117.4185,32.8911,蚌埠市,蚌埠学院,颗粒物(PM10),84,118,46,22,22,139,71,133,102,41,30,7,12,0.2,0.2
2022-09-11T23:00:00,2274A,117.3533,32.9673,蚌埠市,淮上区政府,颗粒物(PM10),52,53,44,22,23,140,98,131,117,14,10,8,9,0.4,0.4
2022-09-11T23:00:00,2275A,117.3145,32.8977,蚌埠市,高新区,颗粒物(PM10),51,51,38,24,25,141,102,130,117,23,23,8,10,0.2,0.2
2022-09-11T23:00:00,2277A,116.8305,32.7727,淮南市,潘集区政府,颗粒物(PM10),53,55,40,24,23,143,81,138,116,19,12,13,12,0.3,0.3
2022-09-11T23:00:00,2278A,117.0067,32.6524,淮南市,师范学院,,39,39,47,16,28,160,85,139,99,15,16,11,11,0.7,0.5
2022-09-11T23:00:00,2279A,116.8569,32.5951,淮南市,谢家集区政府,颗粒物(PM10),56,62,41,23,18,154,68,140,104,36,18,12,12,0.5,0.4
2022-09-11T23:00:00,2280A,116.8281,32.633,淮南市,八公山区政府,,44,44,33,27,20,147,67,138,108,27,17,10,10,0.3,0.3
2022-09-11T23:00:00,2281A,116.6325,32.6201,淮南市,焦岗湖风景区管理处(对照点),,,54,40,33,18,130,51,124,90,51,27,,,0.3,0.3
2022-09-11T23:00:00,2282A,116.8004,33.975,淮北市,监测站,颗粒物(PM10),66,82,55,45,30,180,109,173,148,18,12,8,8,0.7,0.7
2022-09-11T23:00:00,2283A,116.8091,33.9007,淮北市,烈山区政府,颗粒物(PM10),62,73,54,42,32,205,108,197,163,26,13,6,8,0.7,0.7
2022-09-11T23:00:00,2284A,116.7856,33.9477,淮北市,职业技术学院,颗粒物(PM10),60,70,59,41,33,172,103,166,143,23,16,8,8,0.7,0.7
2022-09-11T23:00:00,2285A,117.8177,30.9412,铜陵市,市第四中学,颗粒物(PM10),52,54,48,34,26,200,91,185,150,32,23,5,6,0.5,0.5
2022-09-11T23:00:00,2286A,117.8059,30.9273,铜陵市,市公路局,细颗粒物(PM2.5),58,53,48,41,31,194,111,184,153,20,18,8,9,0.4,0.5
2022-09-11T23:00:00,2287A,117.7807,30.9413,铜陵市,市新民污水厂,,48,48,47,21,25,191,85,182,149,25,39,5,9,0.4,0.4
2022-09-11T23:00:00,2288A,117.7439,30.8792,铜陵市,市第九中学,颗粒物(PM10),58,65,65,31,27,184,129,167,150,22,42,12,17,0.5,0.6
2022-09-11T23:00:00,2289A,117.846,30.9413,铜陵市,车站新区,,,,44,25,23,201,55,184,133,46,20,5,6,0.5,0.5
2022-09-11T23:00:00,2290A,117.8483,30.97,铜陵市,市职教基地,颗粒物(PM10),76,102,49,46,26,207,95,189,150,19,16,5,7,0.7,0.7
2022-09-11T23:00:00,2291A,117.0809,30.5177,安庆市,环科院,细颗粒物(PM2.5),65,73,42,47,27,201,145,191,164,25,15,8,9,0.8,0.7
2022-09-11T23:00:00,2292A,117.0331,30.5119,安庆市,马山宾馆,细颗粒物(PM2.5),59,58,42,42,25,193,148,186,170,18,14,7,8,0.7,0.6
2022-09-11T23:00:00,2294A,116.9896,30.6145,安庆市,安庆大学,细颗粒物(PM2.5),52,48,37,36,25,184,151,172,166,12,12,8,8,0.6,0.6
2022-09-11T23:00:00,2295A,118.2903,29.6963,黄山市,延安路89号,,32,32,27,11,15,169,76,159,136,12,10,8,8,0.3,0.3
2022-09-11T23:00:00,2296A,118.327,29.7178,黄山市,黄山东路89号,,36,36,28,20,16,169,107,155,130,13,12,8,7,0.2,0.1
2022-09-11T23:00:00,2297A,118.1371,30.2756,黄山市,黄山区政府5号楼,颗粒物(PM10),52,53,41,32,21,181,63,166,124,9,8,7,8,0.6,0.4
2022-09-11T23:00:00,2298A,118.3093,32.3153,滁州市,老年大学,,32,27,39,22,23,157,54,139,99,30,17,7,7,0.3,0.3
2022-09-11T23:00:00,2299A,118.3244,32.2786,滁州市,人大宾馆,,37,37,43,19,21,159,84,141,102,23,22,5,5,0.2,0.3
2022-09-11T23:00:00,2301A,115.8277,32.8929,阜阳市,市监测站,颗粒物(PM10),54,58,48,37,27,167,96,160,134,22,20,9,10,0.6,0.6
2022-09-11T23:00:00,2303A,115.8554,32.8605,阜阳市,开发区,细颗粒物(PM2.5),64,75,57,46,32,162,92,155,128,30,20,7,8,0.7,0.6
2022-09-11T23:00:00,2306A,116.989,33.6306,宿州市,火车站,,,,,,,,,,,,,,,,
2022-09-11T23:00:00,2307A,116.5079,31.737,六安市,监测大楼,,41,41,38,21,16,143,115,139,130,14,14,8,7,0.3,0.4
2022-09-11T23:00:00,2308A,116.4738,31.7643,六安市,皖西学院,,42,42,39,22,14,149,122,146,138,11,11,5,6,0.4,0.4
2022-09-11T23:00:00,2309A,116.4996,31.7905,六安市,朝阳厂,,40,40,30,22,15,146,118,142,135,10,10,11,13,0.4,0.4
2022-09-11T23:00:00,2310A,116.5567,31.7886,六安市,开发区,颗粒物(PM10),51,51,37,29,21,140,93,136,119,18,13,8,10,0.5,0.4
2022-09-11T23:00:00,2311A,115.8072,33.8399,亳州市,污水处理厂,颗粒物(PM10),62,74,53,40,32,192,79,179,138,22,12,22,9,0.5,0.4
2022-09-11T23:00:00,2312A,115.7789,33.8518,亳州市,三国揽胜宫,,,,50,,31,122,,106,,,9,,7,,0.6
2022-09-11T23:00:00,2314A,117.47,30.6618,池州市,池州学院,颗粒物(PM10),54,57,46,37,29,198,128,184,158,17,19,6,9,0.7,0.7
2022-09-11T23:00:00,2315A,117.4974,30.6539,池州市,平天湖(对照点),,,,,,,,,,,,,,,,
2022-09-11T23:00:00,2316A,118.7581,30.9454,宣城市,鳌峰子站,颗粒物(PM10),54,58,44,34,29,156,85,149,127,30,16,5,8,0.4,0.4
2022-09-11T23:00:00,2317A,118.7385,30.9743,宣城市,敬亭山子站,,40,40,38,25,22,160,96,153,129,14,15,6,9,0.3,0.3
2022-09-11T23:00:00,2318A,118.7173,30.9427,宣城市,开发区子站,颗粒物(PM10),51,52,41,29,26,162,96,156,132,26,17,5,9,0.4,0.3
2022-09-11T23:00:00,2319A,119.0141,25.4325,莆田市,荔城区仓后路,,34,21,35,11,16,166,108,151,134,13,9,4,5,0.8,0.8
2022-09-11T23:00:00,2320A,119.0015,25.4553,莆田市,莆田市监测站,,36,21,35,22,21,169,113,153,134,3,4,6,7,0.5,0.6
2022-09-11T23:00:00,2321A,119.1119,25.4561,莆田市,涵江区六中,,34,20,32,10,19,162,107,151,125,2,6,5,8,0.6,0.7
2022-09-11T23:00:00,2322A,119.1013,25.3215,莆田市,秀屿区政府,,28,25,34,12,15,162,88,151,118,5,6,6,8,0.6,0.7
2022-09-11T23:00:00,2323A,118.981,25.4792,莆田市,东圳水库(对照点),,,,,,,,,,,,,,,,
