timepoint,stationcode,longitude,latitude,area,positionname,primarypollutant,aqi,pm10,pm10_24h,pm2_5,pm2_5_24h,o3,o3_24h,o3_8h,o3_8h_24h,no2,no2_24h,so2,so2_24h,co,co_24h
2022-09-11T22:00:00,1001A,116.3621,39.8784,北京市,万寿西宫,细颗粒物(PM2.5),69,77,47,50,27,173,91,159,145,33,18,3,3,0.9,0.6
2022-09-11T22:00:00,1002A,116.2202,40.2915,北京市,定陵(对照点),"颗粒物(PM10),细颗粒物(PM2.5)",59,67,45,42,28,220,100,176,162,8,7,3,3,0.7,0.6
2022-09-11T22:00:00,1003A,116.4174,39.9289,北京市,东四,颗粒物(PM10),61,71,51,36,27,179,134,170,164,18,16,1,2,0.8,0.6
2022-09-11T22:00:00,1004A,116.4072,39.8863,北京市,天坛,颗粒物(PM10),59,67,46,41,25,150,55,140,122,20,16,3,2,0.8,0.6
2022-09-11T22:00:00,1005A,116.462,39.9365,北京市,农展馆,颗粒物(PM10),60,69,45,38,24,161,98,147,139,26,20,3,3,0.8,0.6
2022-09-11T22:00:00,1006A,116.3392,39.9295,北京市,官园,颗粒物(PM10),66,82,48,47,27,175,116,158,152,17,13,3,3,0.9,0.6
2022-09-11T22:00:00,1007A,116.2878,39.9611,北京市,海淀万柳,细颗粒物(PM2.5),69,85,49,50,31,190,96,166,154,46,24,1,2,0.9,0.5
2022-09-11T22:00:00,1008A,116.6636,40.135,北京市,顺义新城,颗粒物(PM10),64,78,45,38,24,174,62,154,135,34,12,3,3,0.7,0.5
2022-09-11T22:00:00,1009A,116.6275,40.3275,北京市,怀柔镇,细颗粒物(PM2.5),60,64,37,43,23,183,83,160,145,20,10,3,3,0.7,0.5
2022-09-11T22:00:00,1010A,116.2296,40.217,北京市,昌平镇,细颗粒物(PM2.5),68,78,49,49,29,189,112,159,152,20,17,3,2,0.7,0.5
2022-09-11T22:00:00,1011A,116.3966,39.9821,北京市,奥体中心,颗粒物(PM10),62,73,46,42,24,169,125,159,156,21,18,1,2,0.8,0.5
2022-09-11T22:00:00,1012A,116.184,39.9136,北京市,古城,颗粒物(PM10),82,113,58,59,32,192,75,164,146,51,19,1,2,0.9,0.6
2022-09-11T22:00:00,1015A,117.1444,39.1661,天津市,勤俭道,颗粒物(PM10),56,62,46,31,25,193,134,176,169,19,16,10,9,0.9,0.9
2022-09-11T22:00:00,1017A,117.237,39.1082,天津市,大直沽八号路,颗粒物(PM10),56,62,44,34,30,175,105,158,145,22,15,7,9,0.6,0.7
2022-09-11T22:00:00,1018A,117.202,39.0927,天津市,前进道,颗粒物(PM10),51,52,42,30,24,188,123,171,163,18,16,8,10,0.7,0.8
2022-09-11T22:00:00,1019A,117.1837,39.2133,天津市,淮河道,颗粒物(PM10),58,66,47,32,26,185,122,165,157,23,18,11,9,0.9,0.8
2022-09-11T22:00:00,1021A,117.307,39.0877,天津市,跃进路,颗粒物(PM10),57,64,48,34,25,158,118,151,142,19,23,6,9,0.5,0.7
2022-09-11T22:00:00,1023A,117.707,39.0343,天津市,第四大街,,41,41,38,24,21,157,92,136,122,35,20,6,6,0.7,0.8
2022-09-11T22:00:00,1024A,117.457,38.8394,天津市,永明路,细颗粒物(PM2.5),62,61,38,44,27,158,103,144,132,16,9,5,7,0.4,0.6
2022-09-11T22:00:00,1026A,117.764,39.1587,天津市,汉北路,,37,28,38,16,21,174,118,155,143,9,10,8,9,0.6,0.8
2022-09-11T22:00:00,1027A,117.157,38.9194,天津市,团泊洼(对照点),颗粒物(PM10),52,54,41,26,19,178,86,163,143,24,13,7,9,0.9,1
2022-09-11T22:00:00,1029A,114.4422,38.0444,石家庄市,职工医院,细颗粒物(PM2.5),90,79,69,67,48,217,125,202,185,24,20,6,8,0.5,0.8
2022-09-11T22:00:00,1030A,114.6063,38.0266,石家庄市,高新区,颗粒物(PM10),96,142,97,61,45,229,142,208,191,21,21,6,7,0.6,0.5
2022-09-11T22:00:00,1031A,114.4898,38.1328,石家庄市,西北水源,细颗粒物(PM2.5),90,110,94,67,48,243,154,215,201,21,19,3,4,0.8,0.8
2022-09-11T22:00:00,1032A,114.4586,38.0058,石家庄市,西南高教,细颗粒物(PM2.5),99,115,85,74,47,206,103,192,166,37,27,4,5,0.9,0.9
2022-09-11T22:00:00,1033A,114.5331,38.0178,石家庄市,世纪公园,颗粒物(PM10),79,107,91,53,45,230,144,207,191,25,20,8,8,0.6,0.6
2022-09-11T22:00:00,1034A,114.509,38.0457,石家庄市,人民会堂,细颗粒物(PM2.5),100,87,77,75,47,237,159,212,202,17,16,7,9,0.9,0.9
2022-09-11T22:00:00,1035A,114.3524,37.8911,石家庄市,封龙山(对照点),臭氧1小时,90,91,68,48,39,208,192,205,194,16,15,18,24,0.9,0.9
2022-09-11T22:00:00,1037A,118.131,39.6363,唐山市,雷达站,,37,37,54,22,29,168,102,157,139,10,14,2,7,0.4,1.1
2022-09-11T22:00:00,1038A,118.1725,39.6334,唐山市,物资局,颗粒物(PM10),52,54,73,32,32,162,102,151,130,19,23,5,9,0.4,1.1
2022-09-11T22:00:00,1040A,118.1705,39.6506,唐山市,十二中,,33,30,46,8,24,157,103,149,131,8,16,4,8,0.4,1
2022-09-11T22:00:00,1041A,118.1869,39.622,唐山市,小山,,32,23,50,19,25,161,100,150,130,18,22,3,7,0.5,1.2
2022-09-11T22:00:00,1042A,119.5134,39.8207,秦皇岛市,北戴河环保局,,38,21,28,6,12,128,119,122,122,5,16,6,7,0.1,0.2
2022-09-11T22:00:00,1043A,119.7493,40.0116,秦皇岛市,第一关,,32,31,32,9,16,121,41,118,93,64,39,4,4,0.4,0.4
2022-09-11T22:00:00,1044A,119.5897,39.9499,秦皇岛市,监测站,,42,21,31,17,17,115,23,110,100,84,27,5,4,0.1,0.1
2022-09-11T22:00:00,1046A,119.5251,39.9041,秦皇岛市,建设大厦,,39,39,45,14,10,132,11,126,108,75,24,3,5,0.4,0.3
2022-09-11T22:00:00,1047A,114.5129,36.61763,邯郸市,环保局,,,,,,,,,,,,,,,,
2022-09-11T22:00:00,1048A,114.5302,36.6116,邯郸市,东污水处理厂,颗粒物(PM10),69,88,80,49,50,205,70,190,156,61,33,6,27,0.6,2.2
2022-09-11T22:00:00,1049A,114.4918,36.5713,邯郸市,矿院,,,106,87,61,55,206,,197,186,37,41,47,40,0.9,2.5
2022-09-11T22:00:00,1050A,114.484,36.6133,邯郸市,丛台公园,颗粒物(PM10),76,101,80,52,52,202,122,189,169,33,34,15,21,0.8,2.2
2022-09-11T22:00:00,1051A,115.493,38.8632,保定市,游泳馆,细颗粒物(PM2.5),60,65,62,43,37,203,113,195,174,48,21,8,7,0.6,0.5
2022-09-11T22:00:00,1052A,115.5213,38.8959,保定市,华电二区,颗粒物(PM10),67,83,80,45,36,184,104,176,159,44,18,7,7,0.8,0.7
2022-09-11T22:00:00,1053A,115.4713,38.9108,保定市,接待中心,颗粒物(PM10),62,74,72,30,32,221,158,204,194,25,17,10,8,0.7,0.7
2022-09-11T22:00:00,1054A,115.4612,38.8416,保定市,地表水厂,颗粒物(PM10),75,99,86,41,37,200,125,188,165,37,17,7,8,0.7,0.7
2022-09-11T22:00:00,1055A,115.4323,38.8697,保定市,胶片厂,"颗粒物(PM10),细颗粒物(PM2.5)",64,78,61,46,42,207,126,196,174,38,17,8,9,0.6,0.6
2022-09-11T22:00:00,1056A,115.5086,38.8639,保定市,监测站,颗粒物(PM10),67,84,74,43,42,204,104,194,176,54,17,5,5,0.6,0.5
2022-09-11T22:00:00,1057A,114.8883,40.8336,张家口市,人民公园,,20,15,36,2,11,198,64,171,110,7,7,5,6,0.4,0.5
2022-09-11T22:00:00,1059A,114.8687,40.8042,张家口市,五金库,,25,19,40,17,24,176,56,156,102,18,15,8,8,0.3,0.5
2022-09-11T22:00:00,1060A,114.8902,40.762,张家口市,世纪豪园,,29,23,41,20,23,178,67,162,111,20,13,2,3,0.3,0.3
2022-09-11T22:00:00,1061A,114.8916,40.8661,张家口市,北泵房(对照点),,30,30,38,15,24,209,58,175,110,10,8,6,7,0.4,0.4
2022-09-11T22:00:00,1062A,117.9531,40.9081,承德市,铁路,颗粒物(PM10),59,68,35,33,19,153,126,140,136,19,16,6,10,0.7,0.6
2022-09-11T22:00:00,1063A,117.9392,40.9763,承德市,中国银行,颗粒物(PM10),51,51,34,30,15,166,65,150,132,15,12,10,15,0.7,0.6
2022-09-11T22:00:00,1064A,117.9503,40.928,承德市,开发区,颗粒物(PM10),52,54,33,29,19,165,98,153,142,17,14,5,10,0.8,0.7
2022-09-11T22:00:00,1065A,117.8051,40.9655,承德市,文化中心,颗粒物(PM10),57,63,43,36,23,172,60,151,134,23,15,9,27,0.6,0.9
2022-09-11T22:00:00,1066A,117.9268,41.0026,承德市,离宫(对照点),,42,41,30,29,17,169,63,139,115,9,9,4,10,0.6,0.6
2022-09-11T22:00:00,1067A,116.6708,39.5111,廊坊市,药材公司,颗粒物(PM10),63,75,59,39,35,165,112,153,140,32,19,8,8,0.7,0.6
2022-09-11T22:00:00,1068A,116.7214,39.5589,廊坊市,开发区,颗粒物(PM10),64,77,50,34,33,169,90,151,130,34,17,5,5,0.7,0.6
2022-09-11T22:00:00,1070A,116.7244,39.5269,廊坊市,北华航天学院,颗粒物(PM10),76,102,65,44,40,168,96,157,137,36,17,9,7,0.6,0.5
2022-09-11T22:00:00,1071A,116.8842,38.2991,沧州市,沧县城建局,颗粒物(PM10),52,53,53,24,27,160,92,145,134,33,22,7,7,0.3,0.3
2022-09-11T22:00:00,1072A,116.8584,38.3254,沧州市,电视转播站,颗粒物(PM10),52,54,53,20,29,178,113,162,152,20,16,3,3,0.3,0.4
2022-09-11T22:00:00,1073A,116.8709,38.3228,沧州市,市环保局,颗粒物(PM10),53,56,57,20,28,172,97,156,142,21,13,8,8,0.4,0.4
2022-09-11T22:00:00,1074A,115.6838,37.7541,衡水市,电机北厂,颗粒物(PM10),53,56,75,29,46,212,103,195,169,27,23,12,15,0.6,0.7
2022-09-11T22:00:00,1075A,115.6303,37.7316,衡水市,市监测站,颗粒物(PM10),55,60,88,23,46,202,108,190,166,22,18,7,11,0.8,0.9
2022-09-11T22:00:00,1077A,114.4704,37.0886,邢台市,达活泉,颗粒物(PM10),78,105,81,53,46,204,77,193,173,44,21,4,6,0.8,1
2022-09-11T22:00:00,1078A,114.5062,37.0349,邢台市,邢师高专,颗粒物(PM10),74,97,80,53,42,203,64,188,152,49,26,5,6,0.7,0.8
2022-09-11T22:00:00,1079A,114.5237,37.0851,邢台市,路桥公司,细颗粒物(PM2.5),73,82,81,53,46,208,128,191,172,24,21,10,11,0.7,1
2022-09-11T22:00:00,1080A,114.4725,37.0719,邢台市,市环保局,细颗粒物(PM2.5),70,83,62,51,43,212,123,197,181,32,20,6,8,0.7,1
2022-09-11T22:00:00,1081A,112.5139,37.8873,太原市,尖草坪,颗粒物(PM10),52,54,50,30,35,189,49,162,128,64,29,5,8,0.6,0.8
2022-09-11T22:00:00,1083A,112.434,38.0108,太原市,上兰(对照点),,,,,,,,,,,,,,,,
2022-09-11T22:00:00,1084A,112.469,37.7124,太原市,晋源,,49,49,41,30,29,162,20,137,100,80,39,4,5,0.6,0.6
2022-09-11T22:00:00,1085A,112.5583,37.7394,太原市,小店,颗粒物(PM10),68,86,50,40,35,175,13,153,104,104,44,9,6,0.8,0.7
2022-09-11T22:00:00,1086A,112.5369,37.8692,太原市,桃园,颗粒物(PM10),53,56,48,29,32,191,40,169,140,73,29,5,9,0.8,0.9
2022-09-11T22:00:00,1087A,112.57,37.8195,太原市,坞城,颗粒物(PM10),67,83,52,46,36,188,16,169,126,109,35,6,11,1.0,0.9
2022-09-11T22:00:00,1088A,112.549,37.9854,太原市,南寨,颗粒物(PM10),53,56,44,24,26,160,19,136,96,34,19,5,7,0.6,0.6
2022-09-11T22:00:00,1089A,112.4701,37.782,太原市,金胜,,,,,,,,,,,,,,,,
2022-09-11T22:00:00,1090A,111.6507,40.7517,呼和浩特市,呼市一监,颗粒物(PM10),75,100,68,40,41,148,57,135,112,41,23,7,11,0.6,0.6
2022-09-11T22:00:00,1091A,111.6572,40.8033,呼和浩特市,小召,颗粒物(PM10),65,80,50,34,32,154,54,143,120,60,27,9,10,0.7,0.5
2022-09-11T22:00:00,1094A,111.7516,40.8369,呼和浩特市,如意水处理厂,颗粒物(PM10),61,72,53,27,25,159,33,148,122,74,24,9,12,0.7,0.6
2022-09-11T22:00:00,1095A,111.7276,40.8062,呼和浩特市,二十九中,颗粒物(PM10),67,84,53,39,31,156,35,145,120,69,27,8,10,0.8,0.6
2022-09-11T22:00:00,1096A,111.5512,40.7866,呼和浩特市,工大金川校区,颗粒物(PM10),78,106,68,33,38,154,8,142,110,85,30,6,10,0.8,0.6
2022-09-11T22:00:00,1097A,111.717,40.7612,呼和浩特市,化肥厂生活区,颗粒物(PM10),66,81,60,40,41,152,46,140,115,63,24,8,11,0.6,0.6
2022-09-11T22:00:00,1098A,123.6836,41.9339,沈阳市,森林路(对照点),,,,,,,,,,,,,,,,
2022-09-11T22:00:00,1099A,123.505,41.7406,沈阳市,浑南东路,颗粒物(PM10),58,66,44,27,19,155,12,130,90,70,32,34,17,0.8,0.8
2022-09-11T22:00:00,1100A,123.4231,41.6989,沈阳市,新秀街,颗粒物(PM10),57,64,48,23,21,145,27,118,83,55,39,34,16,0.7,0.8
2022-09-11T22:00:00,1102A,123.5903,41.8411,沈阳市,东陵路,颗粒物(PM10),56,61,49,20,19,148,45,124,96,26,17,16,14,0.6,0.8
2022-09-11T22:00:00,1103A,123.4264,41.8467,沈阳市,陵东街,颗粒物(PM10),64,78,50,33,24,150,19,124,98,78,30,8,11,1.4,1.2
2022-09-11T22:00:00,1104A,123.4114,41.7653,沈阳市,文化路,颗粒物(PM10),68,85,50,41,25,145,29,122,98,69,30,12,18,1.1,0.9
2022-09-11T22:00:00,1105A,123.4678,41.7867,沈阳市,小河沿,颗粒物(PM10),54,57,48,30,24,144,42,124,106,56,29,18,11,1.1,1
2022-09-11T22:00:00,1106A,123.4017,41.7972,沈阳市,太原街,颗粒物(PM10),52,54,48,28,26,147,76,129,111,38,34,9,15,0.8,0.9
2022-09-11T22:00:00,1108A,123.3783,41.9228,沈阳市,京沈街,颗粒物(PM10),65,80,61,35,29,151,64,134,120,47,37,14,17,0.8,1
2022-09-11T22:00:00,1109A,121.612,38.9741,大连市,甘井子,,25,20,15,9,8,106,80,104,96,16,15,4,5,0.3,0.4
2022-09-11T22:00:00,1110A,121.565,38.9511,大连市,周水子,,26,16,15,12,9,105,82,102,96,7,7,4,5,0.2,0.2
2022-09-11T22:00:00,1111A,121.5637,38.8845,大连市,星海三站,,30,22,11,21,6,132,62,129,115,20,14,5,6,0.3,0.3
2022-09-11T22:00:00,1112A,121.6302,38.9117,大连市,青泥洼桥,,,10,7,8,5,113,76,110,98,,35,3,4,0.1,0.2
2022-09-11T22:00:00,1113A,121.6251,38.8638,大连市,傅家庄,,32,14,14,10,10,112,100,109,107,21,16,12,11,0.6,0.6
2022-09-11T22:00:00,1114A,121.5213,38.8661,大连市,七贤岭,,23,16,14,4,5,140,73,137,116,5,5,6,6,0.5,0.4
2022-09-11T22:00:00,1115A,121.2529,38.8061,大连市,旅顺,,25,22,14,15,8,112,77,108,100,8,6,7,7,0.8,0.8
2022-09-11T22:00:00,1116A,121.7485,39.1311,大连市,金州,,27,27,20,18,13,121,51,116,94,15,11,4,6,0.3,0.4
2022-09-11T22:00:00,1117A,121.7811,39.0496,大连市,开发区,,24,20,22,16,14,113,75,108,100,22,19,5,8,0.6,0.6
2022-09-11T22:00:00,1118A,121.9762,39.0631,大连市,双D港,,,,,,,,,,,,,,,,
2022-09-11T22:00:00,1119A,125.3325,43.9166,长春市,食品厂,颗粒物(PM10),51,51,59,8,26,137,95,115,88,13,37,2,6,0.2,0.5
2022-09-11T22:00:00,1120A,125.2863,43.9027,长春市,客车厂,,37,37,62,11,21,143,100,118,80,10,40,4,7,0.5,0.9
2022-09-11T22:00:00,1121A,125.2841,43.8463,长春市,邮电学院,,40,40,50,9,22,136,94,122,95,11,30,4,6,0.4,0.7
2022-09-11T22:00:00,1122A,125.3716,43.8772,长春市,劳动公园,,30,26,66,9,25,140,95,128,104,11,32,5,7,0.3,0.7
2022-09-11T22:00:00,1123A,125.3297,43.8805,长春市,园林处,,32,27,54,8,22,138,100,119,94,12,34,4,7,0.3,0.6
2022-09-11T22:00:00,1124A,125.4605,43.79,长春市,净月潭,,28,5,36,7,17,135,87,115,92,7,9,5,6,0.3,0.5
2022-09-11T22:00:00,1125A,125.7194,43.515,长春市,甩湾子(对照点),,,,,,,,,,,,,,,,
2022-09-11T22:00:00,1126A,125.3863,43.8447,长春市,经开区环卫处,,30,15,53,4,21,136,95,127,99,10,33,5,6,0.3,0.6
2022-09-11T22:00:00,1127A,125.245,43.7783,长春市,高新区管委会,,,18,50,,24,133,89,125,96,9,29,4,7,0.3,0.5
2022-09-11T22:00:00,1128A,125.1761,43.8325,长春市,岱山公园,,29,18,57,6,20,131,90,117,76,16,45,5,9,0.3,0.7
2022-09-11T22:00:00,1129A,126.5422,45.755,哈尔滨市,岭北(对照点),颗粒物(PM10),58,66,65,36,36,145,104,131,114,27,17,3,3,0.6,0.7
2022-09-11T22:00:00,1130A,126.561,45.8167,哈尔滨市,松北商大,,44,44,51,21,23,145,81,128,96,25,23,5,6,0.9,0.8
2022-09-11T22:00:00,1131A,126.979,45.5419,哈尔滨市,阿城会宁,颗粒物(PM10),94,137,55,39,28,130,5,118,62,46,22,9,10,1.0,0.8
2022-09-11T22:00:00,1132A,126.599,45.7222,哈尔滨市,南岗学府路,颗粒物(PM10),63,76,49,37,32,136,32,119,69,74,28,14,14,0.8,0.6
2022-09-11T22:00:00,1133A,126.689,45.7733,哈尔滨市,太平宏伟公园,颗粒物(PM10),69,88,63,29,26,150,64,130,92,65,34,18,16,0.8,0.7
2022-09-11T22:00:00,1134A,126.635,45.7667,哈尔滨市,道外承德广场,颗粒物(PM10),60,70,60,24,30,146,74,122,92,51,32,12,12,0.8,0.7
2022-09-11T22:00:00,1135A,126.685,45.7319,哈尔滨市,香坊红旗大街,颗粒物(PM10),70,90,60,33,26,140,51,119,74,79,42,12,7,0.9,0.7
2022-09-11T22:00:00,1136A,126.6411,45.7258,哈尔滨市,动力和平路,,,82,62,,,140,17,121,77,91,35,14,14,0.9,0.6
2022-09-11T22:00:00,1137A,126.593,45.7478,哈尔滨市,道里建国路,颗粒物(PM10),63,75,61,31,31,144,47,123,92,84,37,17,18,1.4,1.4
2022-09-11T22:00:00,1138A,126.615,45.61,哈尔滨市,平房东轻厂,颗粒物(PM10),58,65,48,27,22,138,84,118,99,30,18,6,6,0.8,0.7
2022-09-11T22:00:00,1139A,126.595,45.9855,哈尔滨市,呼兰师专,颗粒物(PM10),62,74,72,31,30,134,82,118,98,35,27,11,9,0.9,0.9
2022-09-11T22:00:00,1140A,126.6206,45.6842,哈尔滨市,省农科院,颗粒物(PM10),59,68,62,26,25,142,39,125,72,84,39,6,13,0.8,0.7
2022-09-11T22:00:00,1141A,121.4,31.238,上海市,普陀,,36,36,31,20,11,100,53,89,75,26,19,4,3,0.5,0.4
2022-09-11T22:00:00,1142A,121.478,31.2036,上海市,十五厂,,37,37,30,21,18,99,55,90,72,21,15,5,6,0.1,0.1
2022-09-11T22:00:00,1143A,121.467,31.3008,上海市,虹口,,34,34,28,21,11,87,47,80,66,24,15,4,4,0.6,0.5
2022-09-11T22:00:00,1144A,121.412,31.1654,上海市,徐汇上师大,,40,40,30,18,12,100,56,90,74,22,15,7,4,0.8,0.6
2022-09-11T22:00:00,1145A,121.536,31.2659,上海市,杨浦四漂,,34,34,28,10,9,92,56,87,75,23,20,4,5,0.7,0.5
2022-09-11T22:00:00,1146A,120.978,31.0935,上海市,青浦淀山湖(对照点),,,,,,,,,,,,,,,,
2022-09-11T22:00:00,1147A,121.425,31.2261,上海市,静安监测站,,42,42,33,21,16,90,46,88,68,24,14,6,4,0.7,0.5
2022-09-11T22:00:00,1148A,121.703,31.1907,上海市,浦东川沙,,32,32,34,13,13,77,59,72,65,13,13,5,6,0.6,0.6
2022-09-11T22:00:00,1149A,121.533,31.2284,上海市,浦东新区监测站,,50,50,29,17,11,88,69,85,79,15,17,5,5,0.7,0.6
2022-09-11T22:00:00,1150A,121.577,31.2071,上海市,浦东张江,,29,28,26,20,16,78,42,72,59,31,21,4,4,0.7,0.6
2022-09-11T22:00:00,1151A,118.8086,32.1065,南京市,迈皋桥,,46,46,50,14,21,149,40,137,99,48,24,2,3,0.4,0.4
2022-09-11T22:00:00,1152A,118.7538,32.0551,南京市,草场门,,36,36,39,19,18,168,68,152,118,42,20,2,2,0.4,0.5
2022-09-11T22:00:00,1153A,118.7794,32.0745,南京市,山西路,颗粒物(PM10),53,56,45,19,23,179,51,159,121,42,15,4,4,0.4,0.4
2022-09-11T22:00:00,1154A,118.7752,32.0023,南京市,中华门,,31,31,44,9,14,190,93,165,130,16,15,5,4,0.4,0.5
2022-09-11T22:00:00,1155A,118.8109,32.0309,南京市,瑞金路,,36,36,40,24,23,179,90,164,129,26,13,4,4,0.6,0.6
2022-09-11T22:00:00,1156A,118.7997,32.0754,南京市,玄武湖,,47,47,43,24,21,174,44,152,112,49,16,4,4,0.5,0.5
2022-09-11T22:00:00,1157A,118.6414,32.0931,南京市,浦口,,39,39,43,17,18,176,95,157,125,15,18,11,6,0.7,0.6
2022-09-11T22:00:00,1158A,118.7356,31.9996,南京市,奥体中心,,36,36,43,19,22,200,99,176,140,22,19,4,5,0.5,0.5
2022-09-11T22:00:00,1159A,118.9125,32.1028,南京市,仙林大学城,,29,29,39,19,23,170,67,145,112,27,13,4,4,0.5,0.6
2022-09-11T22:00:00,1160A,120.561,31.2472,苏州市,上方山(对照点),,45,45,41,14,18,136,65,129,110,16,13,8,8,0.6,0.5
2022-09-11T22:00:00,1161A,120.628,31.2864,苏州市,南门,,,,,,,,,,,,,,,,
2022-09-11T22:00:00,1162A,120.591,31.3019,苏州市,彩香,,39,39,31,17,14,154,62,139,117,23,13,6,5,0.8,0.7
2022-09-11T22:00:00,1163A,120.596,31.3264,苏州市,轧钢厂,,42,42,34,22,14,145,58,130,108,20,6,6,5,0.8,0.5
2022-09-11T22:00:00,1164A,120.613,31.2703,苏州市,吴中区,,31,31,28,15,13,145,69,133,114,20,15,8,8,0.8,0.6
2022-09-11T22:00:00,1165A,120.543,31.2994,苏州市,苏州新区,,35,35,33,21,18,151,63,140,116,23,17,6,6,0.8,0.7
2022-09-11T22:00:00,1166A,120.669,31.3097,苏州市,苏州工业园区,,38,38,30,18,15,134,63,119,104,20,14,6,5,0.8,0.7
2022-09-11T22:00:00,1167A,120.641,31.3708,苏州市,相城区,,30,30,23,11,19,146,62,129,108,20,12,6,4,0.9,0.6
2022-09-11T22:00:00,1168A,120.9098,31.9663,南通市,狼山街道,,48,48,27,14,7,116,69,109,91,17,16,6,6,0.4,0.3
2022-09-11T22:00:00,1169A,120.86,32.0005,南通市,虹桥,,32,29,27,22,18,112,61,104,84,13,8,4,4,0.5,0.5
2022-09-11T22:00:00,1170A,120.87,32.02,南通市,城中,,,38,29,22,17,109,,99,86,12,13,4,4,0.5,0.5
2022-09-11T22:00:00,1171A,120.94,31.93,南通市,星湖花园,,32,32,26,17,11,110,64,103,87,10,11,5,5,0.5,0.5
2022-09-11T22:00:00,1172A,120.81,32.0417,南通市,紫琅学院,,49,49,31,12,8,121,67,113,90,14,12,5,5,0.4,0.4
2022-09-11T22:00:00,1173A,119.176,34.5885,连云港市,市环境监测站,,26,19,29,9,13,124,82,119,107,12,10,5,5,0.3,0.3
2022-09-11T22:00:00,1177A,117.179,34.2761,徐州市,黄河新村,细颗粒物(PM2.5),60,61,64,43,34,203,143,182,161,14,20,8,10,0.9,0.8
2022-09-11T22:00:00,1178A,117.1918,34.2384,徐州市,淮塔,细颗粒物(PM2.5),62,70,63,44,35,198,133,187,164,18,16,10,11,0.9,0.9
2022-09-11T22:00:00,1180A,117.256,34.2153,徐州市,新城区,细颗粒物(PM2.5),64,73,67,46,37,203,135,187,166,21,22,10,10,0.7,0.7
2022-09-11T22:00:00,1181A,117.244,34.2911,徐州市,桃园路,颗粒物(PM10),64,78,68,36,28,209,128,192,167,15,18,7,9,0.8,0.8
2022-09-11T22:00:00,1182A,117.2933,34.2778,徐州市,农科院,颗粒物(PM10),56,61,62,36,28,201,115,184,160,32,30,9,10,0.9,0.9
2022-09-11T22:00:00,1186A,119.389,32.3761,扬州市,邗江监测站,,39,39,42,20,24,129,72,124,108,22,13,8,7,0.5,0.6
2022-09-11T22:00:00,1188A,120.269,31.4867,无锡市,雪浪,颗粒物(PM10),53,56,36,27,18,174,53,153,126,15,6,6,6,0.7,0.7
2022-09-11T22:00:00,1189A,120.275,31.6219,无锡市,黄巷,,49,49,44,19,21,179,64,159,131,15,10,5,6,0.7,0.8
2022-09-11T22:00:00,1190A,120.294,31.56,无锡市,曹张,,38,38,35,12,18,185,65,163,134,23,13,8,8,0.9,0.9
2022-09-11T22:00:00,1191A,120.242,31.5031,无锡市,漆塘,,39,39,30,22,13,177,60,157,132,22,16,9,8,0.6,0.6
2022-09-11T22:00:00,1192A,120.3489,31.5863,无锡市,东亭,,41,41,39,22,19,182,65,157,127,14,10,8,9,0.8,0.9
2022-09-11T22:00:00,1193A,120.354,31.5475,无锡市,旺庄,,39,39,37,14,17,190,54,158,127,18,8,6,6,0.5,0.6
2022-09-11T22:00:00,1194A,120.245,31.5631,无锡市,荣巷,,34,34,36,17,22,204,77,181,154,18,15,8,8,0.6,0.7
2022-09-11T22:00:00,1195A,120.299,31.6817,无锡市,堰桥,,48,48,45,22,22,180,59,154,125,23,19,8,8,0.8,0.8
2022-09-11T22:00:00,1196A,119.9633,31.762,常州市,市监测站,,46,46,41,18,21,170,54,154,123,32,18,7,6,0.6,0.5
2022-09-11T22:00:00,1200A,119.9468,31.7069,常州市,武进监测站,颗粒物(PM10),51,51,45,17,20,193,63,176,146,20,13,7,9,0.7,1
2022-09-11T22:00:00,1201A,119.9255,31.9087,常州市,安家,,45,45,43,28,27,171,59,155,120,26,16,9,8,0.6,0.5
2022-09-11T22:00:00,1203A,119.6707,32.1875,镇江市,新区办事处,,39,31,34,27,24,153,68,141,114,18,19,10,10,0.4,0.5
2022-09-11T22:00:00,1204A,119.4974,32.1968,镇江市,职教中心,,41,41,41,17,21,150,62,137,109,28,21,5,5,0.2,0.3
2022-09-11T22:00:00,1205A,119.4303,32.1328,镇江市,丹徒区监测站,,41,41,42,24,27,164,71,148,119,23,16,4,4,0.4,0.5
2022-09-11T22:00:00,1206A,119.905,32.4878,泰州市,公园路,,29,29,38,19,26,115,64,112,94,10,10,6,6,0.5,0.6
2022-09-11T22:00:00,1207A,119.9189,32.4625,泰州市,莲花,,28,27,35,19,27,129,67,122,102,11,11,8,8,0.6,0.6
2022-09-11T22:00:00,1209A,119.888,32.4639,泰州市,留学生创业园,,31,31,38,15,23,126,71,121,104,12,11,5,6,0.5,0.5
2022-09-11T22:00:00,1210A,119.036,33.5981,淮安市,钵池山,,27,27,30,15,19,121,75,110,94,13,12,5,5,0.6,0.6
2022-09-11T22:00:00,1211A,119.007,33.575,淮安市,北京南路,,27,27,35,16,20,128,71,115,93,13,11,6,7,0.5,0.5
2022-09-11T22:00:00,1212A,118.989,33.6067,淮安市,市监测站,,31,31,33,12,19,130,83,118,102,12,12,7,7,0.6,0.6
2022-09-11T22:00:00,1213A,119.135,33.5039,淮安市,楚州区监测站,,,32,38,12,22,103,,96,90,14,9,5,5,0.7,0.7
2022-09-11T22:00:00,1214A,119.0186,33.6297,淮安市,淮阴区监测站,,39,39,36,16,21,120,72,112,94,15,12,8,8,0.7,0.7
2022-09-11T22:00:00,1215A,120.118,33.4022,盐城市,盐城电厂,,31,31,32,13,20,120,67,111,94,16,10,4,5,0.4,0.4
2022-09-11T22:00:00,1216A,120.156,33.3942,盐城市,市监测站,,26,26,29,14,18,109,69,103,86,14,12,10,10,0.4,0.5
2022-09-11T22:00:00,1218A,120.2144,33.38,盐城市,开发区管委会,,23,17,17,5,11,107,72,101,85,6,7,14,8,0.3,0.4
2022-09-11T22:00:00,1220A,118.293,33.9528,宿迁市,宿迁学院,,32,32,39,11,25,167,50,154,114,50,19,6,7,0.1,0.2
2022-09-11T22:00:00,1221A,118.2442,33.9592,宿迁市,宿迁中学,细颗粒物(PM2.5),59,35,41,42,28,186,66,179,132,49,16,8,8,0.6,0.6
2022-09-11T22:00:00,1223A,120.2072,30.2111,杭州市,滨江,,,60,42,,42,164,105,158,149,35,19,7,7,0.6,0.5
2022-09-11T22:00:00,1224A,120.0633,30.2747,杭州市,西溪,,38,38,41,20,22,153,55,141,122,22,16,8,8,0.7,0.7
2022-09-11T22:00:00,1225A,119.026,29.635,杭州市,千岛湖(对照点),,,,,,,,,,,,,,,,
2022-09-11T22:00:00,1226A,120.3461,30.3153,杭州市,下沙,颗粒物(PM10),65,79,44,36,18,171,78,153,139,55,23,8,6,0.8,0.6
2022-09-11T22:00:00,1227A,120.1269,30.2456,杭州市,卧龙桥,,35,35,33,22,20,167,60,150,124,22,19,5,5,0.6,0.6
2022-09-11T22:00:00,1228A,120.1903,30.2692,杭州市,浙江农大,,44,44,35,23,20,167,105,157,145,32,21,5,5,0.5,0.4
2022-09-11T22:00:00,1229A,120.157,30.2897,杭州市,朝晖五区,,,,,,,,,,,,,,,,
2022-09-11T22:00:00,1230A,120.1197,30.3119,杭州市,和睦小学,颗粒物(PM10),55,60,46,19,26,160,67,149,132,61,24,4,3,0.7,0.6
2022-09-11T22:00:00,1231A,120.3019,30.4183,杭州市,临平镇,颗粒物(PM10),60,69,38,33,15,157,95,145,138,34,18,7,6,0.4,0.3
2022-09-11T22:00:00,1232A,120.2697,30.1819,杭州市,城厢镇,细颗粒物(PM2.5),57,54,40,40,25,162,117,154,148,27,18,6,6,0.5,0.5
2022-09-11T22:00:00,1233A,120.0883,30.1808,杭州市,云栖,,33,33,32,16,16,163,81,142,121,19,16,5,6,0.5,0.4
2022-09-11T22:00:00,1234A,121.8358,29.911,宁波市,区环保大楼,,33,33,29,16,16,123,59,109,86,20,18,8,12,0.5,0.6
2022-09-11T22:00:00,1235A,121.56,29.82,宁波市,万里学院,,,,34,,23,122,,112,103,22,17,6,6,0.7,0.8
2022-09-11T22:00:00,1236A,121.713,29.9572,宁波市,龙赛医院,,33,33,34,17,20,103,60,98,79,17,24,6,8,0.5,0.6
2022-09-11T22:00:00,1239A,121.633,29.7733,宁波市,钱湖水厂,,28,28,34,14,24,144,55,126,96,13,12,4,8,0.7,0.7
2022-09-11T22:00:00,1240A,121.5856,29.8635,宁波市,太古小学,,23,23,41,15,18,116,50,104,84,24,20,9,8,0.6,0.6
2022-09-11T22:00:00,1241A,121.524,29.8674,宁波市,市环境监测中心,,35,35,35,18,16,113,51,104,84,18,17,6,6,0.5,0.5
2022-09-11T22:00:00,1242A,120.634,28.0089,温州市,瓯海,颗粒物(PM10),54,57,41,30,22,165,86,150,126,27,22,7,7,0.5,0.5
2022-09-11T22:00:00,1243A,120.6748,27.9939,温州市,南浦,颗粒物(PM10),56,62,39,37,22,175,98,158,132,20,16,5,5,0.4,0.4
2022-09-11T22:00:00,1244A,120.76,27.9747,温州市,龙湾,"颗粒物(PM10),细颗粒物(PM2.5)",60,70,40,43,20,158,81,145,117,36,19,6,6,0.5,0.4
2022-09-11T22:00:00,1245A,120.6709,28.0167,温州市,市站,,39,39,34,27,21,175,89,156,132,27,18,6,6,0.4,0.4
2022-09-11T22:00:00,1246A,120.598,30.0911,绍兴市,袍江站,,,,,,,,,,,,,,,,
2022-09-11T22:00:00,1247A,120.6053,29.9928,绍兴市,城东开发委,细颗粒物(PM2.5),80,68,42,59,29,135,56,122,105,35,17,9,9,0.7,0.6
2022-09-11T22:00:00,1250A,120.0751,30.8669,湖州市,城西水厂,颗粒物(PM10),53,55,39,24,15,159,5,145,121,97,28,5,5,0.5,0.3
2022-09-11T22:00:00,1252A,120.7436,30.778,嘉兴市,清河小学,,41,41,26,16,11,151,62,142,122,19,15,5,5,0.4,0.4
2022-09-11T22:00:00,1253A,120.726,30.7478,嘉兴市,嘉兴学院,,39,39,31,27,15,150,69,143,126,21,14,4,4,0.4,0.4
2022-09-11T22:00:00,1255A,121.273,28.6459,台州市,黄岩环保大楼,,46,46,37,21,17,143,119,128,128,15,13,6,5,0.4,0.4
2022-09-11T22:00:00,1256A,121.419,28.6542,台州市,台州环保大楼,,36,36,32,23,19,143,113,129,127,13,14,6,7,0.4,0.4
2022-09-11T22:00:00,1257A,121.377,28.5773,台州市,路桥田洋王,,44,44,35,22,19,132,105,121,118,12,10,5,6,0.3,0.3
2022-09-11T22:00:00,1258A,122.122,30.0203,舟山市,定海檀枫,,31,31,26,17,12,94,68,88,77,10,9,2,2,0.4,0.4
2022-09-11T22:00:00,1259A,122.3094,29.9558,舟山市,普陀东港,,26,26,26,14,13,98,75,93,88,16,15,3,4,0.5,0.5
2022-09-11T22:00:00,1260A,122.19,29.9944,舟山市,临城新区,,30,30,29,15,13,95,71,87,80,8,9,4,4,0.3,0.3
2022-09-11T22:00:00,1261A,119.649,29.1131,金华市,四中(停运161031),,,,,,,,,,,,,,,,
2022-09-11T22:00:00,1262A,119.647,29.077,金华市,十五中,,42,40,45,25,28,200,133,169,148,17,19,5,6,0.4,0.5
2022-09-11T22:00:00,1263A,119.686,29.1029,金华市,监测站,,49,49,47,26,28,198,132,175,153,23,21,6,8,0.4,0.5
2022-09-11T22:00:00,1264A,118.8692,28.9398,衢州市,环保大楼,颗粒物(PM10),58,65,51,36,33,183,113,178,156,24,19,11,8,0.5,0.5
2022-09-11T22:00:00,1265A,118.8709,28.9666,衢州市,实验学校,,50,50,44,29,31,194,123,187,166,24,18,10,9,0.5,0.5
2022-09-11T22:00:00,1266A,118.8621,28.9808,衢州市,衢州学院,颗粒物(PM10),52,53,47,34,32,191,124,184,159,21,17,10,12,0.6,0.6
2022-09-11T22:00:00,1267A,119.914,28.4514,丽水市,监测站大楼,,31,31,41,17,25,176,94,161,148,17,15,6,7,0.3,0.4
2022-09-11T22:00:00,1268A,119.93,28.4586,丽水市,莲都小学,,47,47,48,23,21,182,107,167,154,13,13,6,6,0.3,0.3
2022-09-11T22:00:00,1269A,119.879,28.4231,丽水市,余庄前,,39,29,39,27,22,186,65,170,143,18,14,8,8,0.4,0.4
2022-09-11T22:00:00,1270A,117.1959,31.7848,合肥市,明珠广场,,41,41,49,17,24,194,98,182,157,23,23,8,9,0.5,0.5
2022-09-11T22:00:00,1271A,117.3072,31.8764,合肥市,三里街,,47,47,45,17,21,179,80,162,133,26,22,6,9,0.6,0.6
2022-09-11T22:00:00,1272A,117.2588,31.8707,合肥市,琥珀山庄,,39,39,40,19,20,176,92,163,137,17,15,8,7,0.4,0.5
2022-09-11T22:00:00,1273A,117.1604,31.9052,合肥市,董铺水库(对照点),,44,44,42,17,18,166,88,150,127,17,23,8,9,0.5,0.6
2022-09-11T22:00:00,1274A,117.25,31.8571,合肥市,长江中路,,46,46,46,27,27,184,95,171,146,16,13,10,11,0.7,0.7
2022-09-11T22:00:00,1275A,117.266,31.9436,合肥市,庐阳区,颗粒物(PM10),52,53,49,17,25,178,84,172,138,25,18,9,10,0.2,0.6
2022-09-11T22:00:00,1276A,117.336,31.8586,合肥市,瑶海区,颗粒物(PM10),56,61,53,23,23,195,77,176,137,31,18,11,12,0.6,0.6
2022-09-11T22:00:00,1277A,117.3027,31.7964,合肥市,包河区,颗粒物(PM10),54,58,50,24,26,205,48,177,131,65,35,9,11,0.5,0.6
2022-09-11T22:00:00,1278A,117.2776,31.7385,合肥市,滨湖新区,颗粒物(PM10),53,56,52,27,22,212,98,188,158,20,21,9,11,0.6,0.6
2022-09-11T22:00:00,1279A,117.1318,31.8403,合肥市,高新区,,44,44,46,19,18,180,100,167,144,22,22,5,5,0.5,0.6
2022-09-11T22:00:00,1280A,119.3903,26.0543,福州市,鼓山(对照点),,,,,,,,,,,,,,,,
2022-09-11T22:00:00,1282A,119.2681,26.0504,福州市,师大,颗粒物(PM10),52,54,35,18,14,169,110,154,143,18,7,4,4,0.4,0.4
2022-09-11T22:00:00,1283A,119.2984,26.1028,福州市,五四北路,,38,38,29,20,12,150,119,143,137,22,16,5,3,0.4,0.4
2022-09-11T22:00:00,1284A,119.2648,26.0768,福州市,杨桥西路,,41,41,33,14,14,160,130,151,142,12,7,5,4,0.3,0.4
2022-09-11T22:00:00,1285A,119.317,26.0746,福州市,紫阳,,43,43,30,17,13,152,137,146,141,12,9,6,5,0.4,0.4
2022-09-11T22:00:00,1286A,118.1608,24.8169,厦门市,溪东(对照点),,,,,,,,,,,,,,,,
2022-09-11T22:00:00,1287A,118.1514,24.4767,厦门市,洪文,,40,40,42,21,25,161,74,138,113,29,8,2,2,0.3,0.4
2022-09-11T22:00:00,1288A,118.0661,24.4444,厦门市,鼓浪屿,,28,28,39,16,25,137,82,118,102,8,8,2,2,0.4,0.5
2022-09-11T22:00:00,1290A,115.8931,28.6843,南昌市,省外办,颗粒物(PM10),55,59,48,20,19,175,128,167,154,18,14,11,12,0.9,0.9
2022-09-11T22:00:00,1291A,115.8886,28.7003,南昌市,省林业公司,颗粒物(PM10),59,68,44,27,22,182,117,171,156,29,20,7,8,0.8,0.7
2022-09-11T22:00:00,1292A,115.8126,28.7442,南昌市,林科所,,48,48,38,19,19,186,118,178,161,33,10,8,8,0.8,0.7
2022-09-11T22:00:00,1294A,115.8518,28.687,南昌市,建工学校,颗粒物(PM10),58,66,45,37,26,177,138,173,164,28,19,13,12,0.9,0.8
2022-09-11T22:00:00,1295A,115.8921,28.6424,南昌市,象湖,,46,46,39,19,18,184,147,174,166,13,13,7,8,0.8,0.7
2022-09-11T22:00:00,1296A,115.7423,28.7996,南昌市,武术学校(对照点),,40,40,33,26,25,170,73,153,129,7,4,3,4,0.5,0.4
2022-09-11T22:00:00,1298A,115.9314,28.6842,南昌市,省站,颗粒物(PM10),60,70,55,27,27,174,129,162,152,22,19,8,8,1.1,0.9
2022-09-11T22:00:00,1299A,116.9862,36.6114,济南市,科干所,细颗粒物(PM2.5),77,88,80,56,49,217,90,198,158,37,23,4,7,0.8,0.8
2022-09-11T22:00:00,1300A,116.9376,36.665,济南市,农科所,颗粒物(PM10),57,63,77,32,42,208,82,189,152,32,23,5,7,0.6,0.7
2022-09-11T22:00:00,1301A,117.1265,36.6734,济南市,开发区,颗粒物(PM10),64,78,76,38,40,214,63,191,148,59,28,3,6,0.9,0.8
2022-09-11T22:00:00,1303A,117.0624,36.6868,济南市,省种子仓库,颗粒物(PM10),69,88,89,41,50,208,85,190,153,41,25,4,6,0.8,1
2022-09-11T22:00:00,1304A,116.9489,36.6447,济南市,机床二厂,颗粒物(PM10),68,86,100,34,47,219,100,200,169,36,26,7,8,1.0,1
2022-09-11T22:00:00,1305A,117.0495,36.663,济南市,市监测站,颗粒物(PM10),72,93,79,51,48,210,72,189,148,62,24,7,8,1.0,1
2022-09-11T22:00:00,1306A,116.7675,36.5484,济南市,长清党校,细颗粒物(PM2.5),77,93,87,56,58,210,94,202,170,43,25,6,6,0.8,0.8
2022-09-11T22:00:00,1307A,120.6659,36.2403,青岛市,仰口(对照点),,,,,,,,,,,,,,,,
2022-09-11T22:00:00,1308A,120.3905,36.1851,青岛市,李沧区子站,,,,,,,,,,,,,,,,
2022-09-11T22:00:00,1309A,120.3471,36.0699,青岛市,市北区子站,,,,,,,,,,,,,,,,
2022-09-11T22:00:00,1310A,120.4134,36.0658,青岛市,市南区东部子站,,38,12,13,7,8,124,120,119,119,9,10,6,6,0.3,0.3
2022-09-11T22:00:00,1311A,120.3664,36.1032,青岛市,四方区子站,,36,17,16,7,8,113,113,110,110,11,11,5,5,0.4,0.4
2022-09-11T22:00:00,1312A,120.2994,36.054,青岛市,市南区西部子站,,40,17,13,7,5,138,128,127,127,6,7,6,6,0.5,0.5
2022-09-11T22:00:00,1313A,120.4581,36.0858,青岛市,崂山区子站,,40,14,16,14,9,130,126,126,126,9,10,5,5,0.3,0.3
2022-09-11T22:00:00,1314A,120.1983,35.9608,青岛市,黄岛区子站,,38,12,15,10,12,136,119,124,124,7,9,4,5,0.4,0.4
2022-09-11T22:00:00,1315A,120.3999,36.3083,青岛市,城阳区子站,,31,25,21,9,8,130,99,123,110,22,16,5,5,0.6,0.5
2022-09-11T22:00:00,1316A,113.69031,34.76122,郑州市,烟厂,颗粒物(PM10),63,75,57,41,31,194,87,185,163,66,25,2,5,0.8,0.6
2022-09-11T22:00:00,1317A,113.65724,34.77134,郑州市,郑纺机,颗粒物(PM10),64,77,58,37,29,196,107,185,162,42,27,6,10,0.7,0.5
2022-09-11T22:00:00,1318A,113.67526,34.80246,郑州市,银行学校,颗粒物(PM10),59,68,55,34,32,188,103,176,156,42,26,6,9,1.0,0.9
2022-09-11T22:00:00,1319A,113.56746,34.81334,郑州市,供水公司,颗粒物(PM10),59,68,58,28,28,200,101,181,161,37,24,3,7,0.7,0.6
2022-09-11T22:00:00,1320A,113.7329,34.7178,郑州市,经开区管委,颗粒物(PM10),66,81,55,47,30,204,72,192,164,61,26,3,4,0.8,0.7
2022-09-11T22:00:00,1321A,113.73961,34.77172,郑州市,四十七中,颗粒物(PM10),56,61,51,35,27,203,114,191,171,34,25,5,8,0.7,0.7
2022-09-11T22:00:00,1322A,113.60532,34.74838,郑州市,市监测站,,,80,62,,,210,56,196,164,101,31,2,5,0.8,0.5
2022-09-11T22:00:00,1323A,113.64164,34.7525,郑州市,河医大,颗粒物(PM10),62,73,61,31,29,204,48,188,152,75,27,6,9,0.9,0.7
2022-09-11T22:00:00,1324A,113.51488,34.91089,郑州市,岗李水库(对照点),,,,,,,,,,,,,,,,
2022-09-11T22:00:00,1325A,114.3677,30.5584,武汉市,东湖梨园,,45,44,50,22,34,243,143,193,160,12,22,9,18,0.6,1.4
2022-09-11T22:00:00,1326A,114.2529,30.558,武汉市,汉阳月湖,,45,45,43,29,26,190,135,173,152,18,19,7,7,0.7,0.8
2022-09-11T22:00:00,1327A,114.282,30.6189,武汉市,汉口花桥,,45,44,48,24,29,190,141,174,157,12,13,8,8,0.8,0.9
2022-09-11T22:00:00,1328A,114.3025,30.5332,武汉市,武昌紫阳,,42,38,41,20,30,189,134,175,154,14,22,12,17,0.6,1.2
2022-09-11T22:00:00,1329A,114.3646,30.6217,武汉市,青山钢花,细颗粒物(PM2.5),52,46,50,36,33,185,127,167,142,17,17,8,8,0.6,0.7
2022-09-11T22:00:00,1330A,114.1566,30.4825,武汉市,沌口新区,,45,45,52,25,32,204,124,186,161,19,20,8,10,0.7,1
2022-09-11T22:00:00,1331A,114.3014,30.5944,武汉市,汉口江滩,,43,40,44,22,28,191,135,174,152,13,15,8,7,0.8,0.9
2022-09-11T22:00:00,1333A,114.135,30.6319,武汉市,吴家山,,46,46,51,29,29,185,140,175,157,13,12,6,6,0.7,0.8
2022-09-11T22:00:00,1334A,113.8454,30.2917,武汉市,沉湖七壕(对照点),,49,49,50,33,29,229,124,204,176,36,39,8,10,0.8,0.9
2022-09-11T22:00:00,1335A,113.0833,28.2325,长沙市,经开区环保局,细颗粒物(PM2.5),69,61,48,50,42,212,127,191,173,29,16,9,11,0.6,0.5
2022-09-11T22:00:00,1336A,112.8872,28.2189,长沙市,高开区环保局,颗粒物(PM10),64,77,58,31,39,207,150,190,174,10,17,9,9,0.6,0.5
2022-09-11T22:00:00,1337A,113.0792,28.2053,长沙市,马坡岭,细颗粒物(PM2.5),67,62,58,48,42,208,124,185,166,24,16,9,11,0.5,0.3
2022-09-11T22:00:00,1338A,112.9394,28.19,长沙市,湖南师范大学,颗粒物(PM10),60,70,61,32,43,209,144,200,168,8,9,5,4,0.5,0.5
2022-09-11T22:00:00,1339A,113.0178,28.1322,长沙市,雨花区环保局,"颗粒物(PM10),细颗粒物(PM2.5)",54,58,51,38,34,231,158,209,193,15,17,8,9,0.5,0.3
2022-09-11T22:00:00,1340A,112.9792,28.2597,长沙市,伍家岭,细颗粒物(PM2.5),59,59,59,42,41,207,145,187,168,16,18,6,7,0.5,0.5
2022-09-11T22:00:00,1341A,113.0014,28.1944,长沙市,火车新站,细颗粒物(PM2.5),58,50,50,41,39,216,155,194,179,13,12,7,8,0.7,0.6
2022-09-11T22:00:00,1342A,112.9844,28.1178,长沙市,天心区环保局,颗粒物(PM10),56,62,57,37,39,202,141,190,172,16,17,6,6,0.7,0.5
2022-09-11T22:00:00,1343A,112.8908,28.1308,长沙市,湖南中医药大学,,,,50,,43,203,129,190,166,14,11,5,5,0.7,0.6
2022-09-11T22:00:00,1344A,112.9581,28.3611,长沙市,沙坪(对照点),颗粒物(PM10),55,59,52,34,34,194,155,186,176,9,12,6,7,0.8,0.7
2022-09-11T22:00:00,1345A,113.2347,23.1423,广州市,广雅中学,颗粒物(PM10),62,73,53,37,32,192,69,165,132,74,27,9,8,1.1,0.9
2022-09-11T22:00:00,1346A,113.2612,23.105,广州市,市五中,细颗粒物(PM2.5),72,75,50,52,37,211,66,182,143,60,19,7,7,1.1,0.8
2022-09-11T22:00:00,1348A,113.3478,23.0916,广州市,广东商学院,细颗粒物(PM2.5),67,80,54,48,36,189,65,164,130,61,24,6,5,0.8,0.6
2022-09-11T22:00:00,1349A,113.4332,23.1047,广州市,市八十六中,颗粒物(PM10),61,71,56,42,36,186,105,163,140,37,26,7,6,0.9,0.8
2022-09-11T22:00:00,1350A,113.3505,22.9483,广州市,番禺中学,颗粒物(PM10),64,78,54,41,33,204,86,184,153,41,17,4,5,1.1,0.8
2022-09-11T22:00:00,1351A,113.2146,23.3916,广州市,花都师范,颗粒物(PM10),66,81,52,45,35,186,85,169,154,40,22,8,8,1.2,0.9
2022-09-11T22:00:00,1352A,113.2597,23.1331,广州市,市监测站,细颗粒物(PM2.5),65,76,53,47,35,207,43,178,136,81,21,6,7,1.3,1
2022-09-11T22:00:00,1353A,113.5618,23.312,广州市,九龙镇镇龙,"颗粒物(PM10),细颗粒物(PM2.5)",67,83,62,48,40,143,43,133,94,33,18,5,5,1.1,0.9
2022-09-11T22:00:00,1354A,113.2765,23.1544,广州市,麓湖,细颗粒物(PM2.5),63,66,48,45,33,200,59,168,124,42,25,4,5,0.9,0.8
2022-09-11T22:00:00,1355A,113.443,23.3035,广州市,帽峰山森林公园(对照点),颗粒物(PM10),52,53,47,35,34,164,128,136,124,8,9,5,5,0.8,0.7
2022-09-11T22:00:00,1356A,114.1063,22.5545,深圳市,通心岭子站,细颗粒物(PM2.5),54,56,55,38,39,210,105,180,167,20,14,5,4,0.9,0.9
2022-09-11T22:00:00,1357A,114.117,22.5625,深圳市,洪湖,细颗粒物(PM2.5),69,79,64,50,44,216,116,183,169,21,15,8,6,0.7,0.6
2022-09-11T22:00:00,1358A,113.987,22.5417,深圳市,华侨城,颗粒物(PM10),56,61,64,29,41,208,119,176,161,20,18,4,4,0.7,0.7
2022-09-11T22:00:00,1359A,113.9181,22.5171,深圳市,南海子站,细颗粒物(PM2.5),53,51,58,37,38,253,99,209,177,40,20,7,5,0.7,0.8
2022-09-11T22:00:00,1360A,114.2458,22.5689,深圳市,盐田,细颗粒物(PM2.5),53,46,46,37,38,194,126,172,152,18,24,4,5,0.9,1
2022-09-11T22:00:00,1361A,114.2283,22.7244,深圳市,龙岗,颗粒物(PM10),56,62,64,38,42,180,60,160,120,58,17,6,5,0.6,0.5
2022-09-11T22:00:00,1362A,113.8953,22.5861,深圳市,西乡,,,,,,,,,,,,,,,,
2022-09-11T22:00:00,1363A,114.494,22.5422,深圳市,南澳,细颗粒物(PM2.5),55,55,54,39,37,211,100,184,157,11,10,3,3,0.9,1
2022-09-11T22:00:00,1364A,114.41,22.6342,深圳市,葵涌,细颗粒物(PM2.5),52,52,55,36,39,185,80,174,147,12,10,9,8,0.9,0.8
2022-09-11T22:00:00,1365A,114.297,22.5978,深圳市,梅沙,,49,48,53,34,38,188,97,170,147,27,16,8,7,0.8,0.9
2022-09-11T22:00:00,1366A,114.0678,22.738,深圳市,观澜,颗粒物(PM10),72,93,67,41,38,189,34,164,118,28,15,7,7,0.6,0.6
2022-09-11T22:00:00,1367A,113.5814,22.2618,珠海市,吉大,细颗粒物(PM2.5),55,52,46,39,34,159,101,147,129,14,8,5,6,0.8,0.8
2022-09-11T22:00:00,1368A,113.4881,22.2335,珠海市,前山,细颗粒物(PM2.5),57,61,57,40,29,175,87,154,133,35,19,5,5,0.7,0.5
2022-09-11T22:00:00,1369A,113.628,22.4251,珠海市,唐家,细颗粒物(PM2.5),59,53,47,42,36,186,122,174,160,15,9,6,6,0.6,0.6
2022-09-11T22:00:00,1370A,113.299,22.2281,珠海市,斗门,细颗粒物(PM2.5),53,42,39,37,27,167,111,148,139,14,10,8,8,0.7,0.7
2022-09-11T22:00:00,1371A,113.1294,23.0067,佛山市,湾梁,颗粒物(PM10),59,68,49,37,30,221,90,188,161,32,14,7,8,0.7,0.5
2022-09-11T22:00:00,1372A,113.1083,23.0478,佛山市,华材职中,颗粒物(PM10),62,73,52,43,34,212,49,170,133,62,26,11,11,0.8,0.5
2022-09-11T22:00:00,1373A,113.144,23.0453,佛山市,南海气象局,细颗粒物(PM2.5),63,62,50,45,34,208,90,177,150,42,19,9,10,0.8,0.5
2022-09-11T22:00:00,1374A,113.2881,22.8094,佛山市,顺德苏岗,,49,43,33,34,30,228,78,190,159,34,15,5,6,1.0,0.7
2022-09-11T22:00:00,1375A,113.2544,22.7642,佛山市,容桂街道办,,,,,,,,,,,,,,,,
2022-09-11T22:00:00,1376A,112.8383,22.8678,佛山市,高明孔堂,颗粒物(PM10),55,60,47,35,28,184,88,161,143,20,16,8,10,0.6,0.6
2022-09-11T22:00:00,1377A,112.8836,23.1588,佛山市,三水监测站,颗粒物(PM10),63,75,48,44,34,172,38,152,122,56,21,6,6,0.9,0.7
2022-09-11T22:00:00,1378A,112.867,23.185,佛山市,三水云东海,颗粒物(PM10),63,75,50,37,32,156,25,128,95,49,21,6,8,0.7,0.6
2022-09-11T22:00:00,1379A,113.3769,22.5211,中山市,华柏园,颗粒物(PM10),51,51,51,17,32,220,120,202,188,18,14,6,6,0.7,0.7
2022-09-11T22:00:00,1380A,113.3881,22.5497,中山市,张溪,颗粒物(PM10),57,64,56,23,32,229,122,208,193,15,11,5,5,0.8,0.7
2022-09-11T22:00:00,1381A,113.4075,22.5111,中山市,紫马岭,颗粒物(PM10),55,59,54,33,31,221,111,194,179,18,14,6,6,0.7,0.6
2022-09-11T22:00:00,1382A,113.4411,22.4853,中山市,长江旅游区(对照点),,46,45,44,32,33,200,94,173,151,10,8,9,10,0.6,0.6
2022-09-11T22:00:00,1383A,113.1064,22.6058,江门市,北街,,49,48,45,31,27,248,154,212,206,17,10,11,7,0.8,0.7
2022-09-11T22:00:00,1384A,113.0731,22.5835,江门市,西区,细颗粒物(PM2.5),60,63,50,43,33,248,136,200,194,24,15,9,7,0.8,0.7
2022-09-11T22:00:00,1385A,113.0219,22.5311,江门市,圭峰西,细颗粒物(PM2.5),65,78,48,47,31,220,101,192,188,27,11,8,6,0.8,0.7
2022-09-11T22:00:00,1386A,113.0828,22.5947,江门市,东湖,细颗粒物(PM2.5),63,67,50,45,31,246,137,206,198,21,13,9,7,0.8,0.7
2022-09-11T22:00:00,1387A,113.7875,23.0457,东莞市,东城主山,,,,,,,,,,,,,,,,
2022-09-11T22:00:00,1388A,113.7533,23.0202,东莞市,南城元岭,,,,,,,,,,,,,,,,
2022-09-11T22:00:00,1389A,113.7547,23.0494,东莞市,莞城梨川,颗粒物(PM10),58,66,55,40,35,201,92,171,136,28,17,12,10,1.2,1.2
2022-09-11T22:00:00,1390A,113.7944,23.0128,东莞市,东城石井,,,56,49,40,34,202,,169,133,24,16,12,12,0.9,0.8
2022-09-11T22:00:00,1391A,113.7383,22.9658,东莞市,南城西平,颗粒物(PM10),52,54,50,34,33,211,82,177,132,34,17,13,12,1.0,0.9
2022-09-11T22:00:00,1392A,114.4183,23.0528,惠州市,河南岸金山湖子站,颗粒物(PM10),95,139,77,29,37,163,43,146,102,58,18,5,5,0.9,0.8
2022-09-11T22:00:00,1393A,114.4053,23.0822,惠州市,下埔横江三路子站,颗粒物(PM10),62,74,61,26,28,179,56,158,124,45,15,5,5,0.9,0.8
2022-09-11T22:00:00,1394A,114.4103,23.1142,惠州市,江北云山西路子站,颗粒物(PM10),54,57,66,28,38,177,68,160,124,29,10,4,6,0.8,0.7
2022-09-11T22:00:00,1395A,114.4645,22.7833,惠州市,惠阳区承修路船湖子站,颗粒物(PM10),71,91,60,42,38,161,62,152,124,22,11,7,6,1.2,0.9
2022-09-11T22:00:00,1396A,114.5317,22.7422,惠州市,大亚湾管委会子站,颗粒物(PM10),59,68,59,35,37,176,77,156,121,44,18,3,3,0.8,0.7
2022-09-11T22:00:00,1397A,112.4267,23.0706,肇庆市,睦岗子站,,44,44,36,27,21,144,36,115,83,42,26,4,4,0.7,0.5
2022-09-11T22:00:00,1398A,112.4645,23.0475,肇庆市,城中子站,,43,43,34,28,22,158,40,124,90,47,27,11,9,0.7,0.6
2022-09-11T22:00:00,1399A,112.5544,23.1522,肇庆市,坑口子站,,40,35,34,28,23,152,83,129,110,13,16,7,8,0.6,0.5
2022-09-11T22:00:00,1400A,112.4753,23.1,肇庆市,七星岩子站(对照点),,,,,,,,,,,,,,,,
2022-09-11T22:00:00,1401A,108.3103,22.7881,南宁市,二十一中,,22,22,30,15,19,92,25,69,54,29,17,8,9,0.7,0.7
2022-09-11T22:00:00,1402A,108.3141,22.8528,南宁市,北湖,,27,27,39,12,22,87,35,64,46,18,15,10,8,0.6,0.7
2022-09-11T22:00:00,1403A,108.3206,22.8225,南宁市,市监测站,,25,25,34,15,24,90,19,62,46,36,20,10,9,0.7,0.7
2022-09-11T22:00:00,1404A,108.3829,22.8037,南宁市,大自然花园,,16,16,23,10,19,85,38,67,49,15,13,7,7,0.7,0.7
2022-09-11T22:00:00,1405A,108.4394,22.7904,南宁市,仙葫(对照点),,22,22,26,14,16,88,34,60,45,17,14,7,7,0.7,0.7
2022-09-11T22:00:00,1406A,108.2397,22.8467,南宁市,区农职院,,22,22,32,11,20,88,39,72,59,14,13,8,10,0.8,0.7
2022-09-11T22:00:00,1407A,108.3275,22.735,南宁市,英华嘉园,,15,14,28,10,15,85,32,63,51,19,16,6,6,0.7,0.7
2022-09-11T22:00:00,1408A,108.2257,22.7757,南宁市,沙井镇街道办,,24,24,28,16,19,85,41,73,59,17,15,6,11,0.6,0.6
2022-09-11T22:00:00,1409A,110.576,19.9507,海口市,东寨港(对照点),,,36,43,27,21,,,,,,,3,4,0.0,0.1
2022-09-11T22:00:00,1410A,110.3232,20.0574,海口市,海南大学,,49,49,42,23,22,152,105,144,133,10,7,6,6,0.9,0.8
2022-09-11T22:00:00,1411A,110.283,20.0053,海口市,秀英海南医院,,,,53,20,30,147,83,136,124,32,15,6,6,0.6,0.6
2022-09-11T22:00:00,1412A,110.338,19.9969,海口市,海南师范大学,颗粒物(PM10),51,51,47,24,20,151,76,142,125,28,12,4,4,0.7,0.7
2022-09-11T22:00:00,1413A,110.33,20.0356,海口市,龙华路环保局宿舍,,43,43,43,18,18,150,110,141,132,12,7,4,4,0.7,0.6
2022-09-11T22:00:00,1414A,106.3787,29.8279,重庆市,缙云山(对照点),细颗粒物(PM2.5),58,53,64,41,45,192,141,172,168,36,34,22,17,0.5,0.6
2022-09-11T22:00:00,1416A,106.4213,29.8253,重庆市,天生,细颗粒物(PM2.5),88,66,68,65,54,200,96,181,165,26,23,5,7,0.8,0.8
2022-09-11T22:00:00,1417A,106.6263,29.7228,重庆市,两路,细颗粒物(PM2.5),73,69,68,53,47,203,106,179,165,40,44,11,9,1.0,1.1
2022-09-11T22:00:00,1418A,106.2953,29.5983,重庆市,虎溪,细颗粒物(PM2.5),77,69,57,56,38,178,109,163,153,22,25,12,8,0.5,0.5
2022-09-11T22:00:00,1419A,106.5777,29.5102,重庆市,南坪,细颗粒物(PM2.5),80,81,62,59,41,227,106,187,175,44,26,4,9,0.9,0.8
2022-09-11T22:00:00,1420A,106.6556,29.6277,重庆市,唐家沱,细颗粒物(PM2.5),67,77,56,48,38,221,111,192,176,42,36,8,7,0.7,0.7
2022-09-11T22:00:00,1421A,106.6349,29.4906,重庆市,茶园,细颗粒物(PM2.5),68,75,53,49,33,250,139,208,196,37,33,7,7,0.6,0.6
2022-09-11T22:00:00,1422A,106.3754,29.4572,重庆市,白市驿,细颗粒物(PM2.5),72,67,58,52,35,203,133,181,168,15,17,7,10,0.7,0.7
2022-09-11T22:00:00,1425A,106.6205,29.7166,重庆市,空港,细颗粒物(PM2.5),77,75,67,56,49,218,113,186,169,33,33,7,6,0.9,1
2022-09-11T22:00:00,1426A,106.4782,29.4875,重庆市,新山村,细颗粒物(PM2.5),73,71,63,53,38,224,122,186,178,42,46,9,11,0.6,0.6
2022-09-11T22:00:00,1427A,106.5616,29.6453,重庆市,礼嘉,细颗粒物(PM2.5),57,50,52,40,31,223,126,202,189,32,42,10,11,0.9,1
2022-09-11T22:00:00,1428A,106.4522,29.7091,重庆市,蔡家,细颗粒物(PM2.5),63,54,66,45,47,181,105,162,154,27,25,5,6,0.7,0.7
2022-09-11T22:00:00,1429A,106.5093,29.3917,重庆市,鱼新街,细颗粒物(PM2.5),87,65,52,64,39,186,97,165,155,42,25,8,14,1.1,1
2022-09-11T22:00:00,1431A,103.9728,30.7236,成都市,金泉两河,细颗粒物(PM2.5),77,59,46,56,40,138,96,128,120,18,14,2,3,0.8,0.7
2022-09-11T22:00:00,1432A,104.1419,30.6764,成都市,十里店,细颗粒物(PM2.5),67,62,47,48,37,130,87,124,117,12,8,5,5,0.6,0.6
2022-09-11T22:00:00,1433A,104.0594,30.5767,成都市,三瓦窑,,49,42,43,34,36,129,73,122,114,34,17,2,3,0.8,0.8
2022-09-11T22:00:00,1434A,104.1122,30.6306,成都市,沙河铺,颗粒物(PM10),51,51,48,31,33,130,82,121,112,15,10,5,5,0.8,0.7
2022-09-11T22:00:00,1437A,104.0431,30.6556,成都市,君平街,细颗粒物(PM2.5),55,45,48,39,40,132,100,127,121,11,6,1,3,0.9,0.8
2022-09-11T22:00:00,1438A,103.6202,31.0201,成都市,灵岩寺(对照点),细颗粒物(PM2.5),53,48,38,37,28,135,121,114,114,8,7,6,5,0.8,0.8
2022-09-11T22:00:00,1439A,106.6899,26.5998,贵阳市,马鞍山,细颗粒物(PM2.5),52,39,38,36,34,100,40,85,73,5,7,5,5,0.6,0.6
2022-09-11T22:00:00,1440A,106.6971,26.5694,贵阳市,市环保站,,48,34,37,33,35,113,79,97,95,9,10,3,4,0.4,0.4
2022-09-11T22:00:00,1441A,106.6243,26.6266,贵阳市,鉴湖路,,45,39,44,31,32,117,71,106,98,5,8,3,4,0.3,0.4
2022-09-11T22:00:00,1442A,106.7487,26.6343,贵阳市,燕子冲,细颗粒物(PM2.5),52,44,45,36,42,114,66,93,90,4,6,6,6,0.6,0.7
2022-09-11T22:00:00,1443A,106.6555,26.4365,贵阳市,碧云窝,细颗粒物(PM2.5),52,51,54,36,35,114,88,104,91,7,8,4,4,0.4,0.6
2022-09-11T22:00:00,1444A,106.694,26.5161,贵阳市,中院村,,,46,48,27,38,102,79,95,92,8,8,8,8,,
2022-09-11T22:00:00,1445A,106.7109,26.6027,贵阳市,红边门,,,,,,,,,,,,,,,,
2022-09-11T22:00:00,1446A,106.7164,26.5699,贵阳市,新华路,,49,24,39,34,40,107,77,95,94,5,4,4,3,0.5,0.6
2022-09-11T22:00:00,1447A,106.674,26.5424,贵阳市,太慈桥,,41,41,45,27,29,111,49,97,88,7,7,4,4,0.5,0.5
2022-09-11T22:00:00,1450A,102.8204,24.8886,昆明市,呈贡新区,,18,17,18,7,11,68,55,61,55,8,12,6,7,0.2,0.2
2022-09-11T22:00:00,1451A,102.6251,24.9608,昆明市,西山森林公园(对照点),,15,7,7,0,4,62,47,52,49,4,8,5,5,0.4,0.6
2022-09-11T22:00:00,1452A,102.7252,25.0902,昆明市,龙泉镇,,12,10,10,5,7,72,36,55,46,11,9,6,6,0.4,0.4
2022-09-11T22:00:00,1453A,102.7266,25.0375,昆明市,东风东路,,13,10,11,9,7,66,25,52,41,24,16,5,5,0.5,0.5
2022-09-11T22:00:00,1454A,102.6742,25.0669,昆明市,金鼎山,,12,7,13,6,7,71,37,56,48,14,9,4,4,0.4,0.5
2022-09-11T22:00:00,1455A,102.6644,25.0401,昆明市,碧鸡广场,,15,4,9,10,11,71,40,62,52,14,12,7,7,0.5,0.6
2022-09-11T22:00:00,1456A,91.1319,29.6514,拉萨市,八廓街,,25,15,5,4,1,105,79,101,96,11,6,8,7,0,0
2022-09-11T22:00:00,1457A,91.1221,29.6747,拉萨市,市环保局,,24,15,5,6,2,103,75,98,93,11,6,8,7,0.1,0.1
2022-09-11T22:00:00,1458A,91.0874,29.6475,拉萨市,区监测站,,28,13,6,0,0,114,89,110,105,10,4,9,8,0.2,0.2
2022-09-11T22:00:00,1459A,91.1774,29.6541,拉萨市,西藏大学,,27,9,7,2,2,105,84,101,98,10,6,11,10,0.1,0.1
2022-09-11T22:00:00,1460A,90.9798,29.6588,拉萨市,区辐射站,,25,8,5,17,17,101,74,96,90,15,8,10,9,0.1,0.1
2022-09-11T22:00:00,1461A,91.0834,29.6292,拉萨市,拉萨火车站,,,,,6,3,112,80,101,96,13,5,11,10,0,0
2022-09-11T22:00:00,1462A,108.882,34.2749,西安市,高压开关厂,"颗粒物(PM10),细颗粒物(PM2.5)",78,105,68,57,40,165,84,149,139,28,17,6,10,0.9,0.7
2022-09-11T22:00:00,1463A,108.993,34.2629,西安市,兴庆小区,细颗粒物(PM2.5),80,87,63,59,38,141,92,129,122,29,17,5,7,0.9,0.7
2022-09-11T22:00:00,1464A,109.06,34.2572,西安市,纺织城,颗粒物(PM10),81,112,75,58,42,148,13,129,100,99,39,6,8,1.1,1
2022-09-11T22:00:00,1465A,108.9356,34.2173,西安市,小寨,颗粒物(PM10),67,83,65,47,39,160,85,137,131,40,23,3,2,0.8,0.7
2022-09-11T22:00:00,1466A,108.954,34.2713,西安市,市人民体育场,细颗粒物(PM2.5),74,93,65,54,39,162,96,146,138,30,18,8,10,0.8,0.7
2022-09-11T22:00:00,1467A,108.8922,34.2322,西安市,高新西区,细颗粒物(PM2.5),78,90,68,57,43,160,88,139,132,38,20,8,10,0.9,0.8
2022-09-11T22:00:00,1468A,108.935,34.3474,西安市,经开区,细颗粒物(PM2.5),93,93,57,69,34,151,88,142,132,32,15,5,7,0.8,0.7
2022-09-11T22:00:00,1469A,108.906,34.1546,西安市,长安区,颗粒物(PM10),69,88,76,45,46,160,56,136,127,49,22,5,6,0.8,0.7
2022-09-11T22:00:00,1470A,109.2,34.6575,西安市,阎良区,,,,,,,,,,,,,,,,
2022-09-11T22:00:00,1471A,109.2186,34.3731,西安市,临潼区,,50,50,65,32,40,157,105,141,133,18,15,5,8,0.6,0.6
2022-09-11T22:00:00,1472A,108.869,34.378,西安市,草滩(对照点),细颗粒物(PM2.5),84,77,50,62,32,152,41,135,113,51,22,6,7,1.1,1
2022-09-11T22:00:00,1473A,108.985,34.1978,西安市,曲江文化产业集团,细颗粒物(PM2.5),77,98,87,56,49,164,84,141,136,39,21,4,5,1.0,0.9
2022-09-11T22:00:00,1474A,109.051,34.3213,西安市,广运潭,颗粒物(PM10),81,112,63,52,35,145,42,135,115,81,20,6,8,0.8,0.7
2022-09-11T22:00:00,1476A,103.631,36.1031,兰州市,兰炼宾馆,颗粒物(PM10),67,84,63,44,30,281,73,223,180,82,44,8,21,0.8,0.7
2022-09-11T22:00:00,1477A,104.1373,35.9454,兰州市,榆中兰大校区(对照点),,,,,,,,,,,,,,,,
2022-09-11T22:00:00,1478A,103.8412,36.0726,兰州市,生物制品所,颗粒物(PM10),68,86,54,37,28,199,34,176,144,84,53,5,9,0.6,0.6
2022-09-11T22:00:00,1479A,103.831,36.0464,兰州市,铁路设计院,颗粒物(PM10),78,106,64,44,29,194,7,159,115,123,61,10,12,1.2,0.7
2022-09-11T22:00:00,1480A,101.748,36.6428,西宁市,市环境监测站,,,,,,,,,,,,,,,,
2022-09-11T22:00:00,1482A,101.834,36.5819,西宁市,四陆医院,,,,,,,,,,,,,,,,
2022-09-11T22:00:00,1483A,101.524,36.6867,西宁市,第五水厂(对照点),,25,21,27,13,18,155,79,121,111,14,10,9,11,0.7,0.7
2022-09-11T22:00:00,1484A,105.9512,38.6016,银川市,贺兰山马莲口(对照点),,39,17,18,13,15,173,123,152,144,5,9,11,14,0.4,0.4
2022-09-11T22:00:00,1488A,106.2328,38.4975,银川市,贺兰山东路,,26,26,23,13,17,141,75,130,114,37,23,5,11,0.6,0.6
2022-09-11T22:00:00,1489A,106.1358,38.5036,银川市,学院路,颗粒物(PM10),55,59,38,20,21,138,62,125,103,37,28,7,11,0.5,0.5
2022-09-11T22:00:00,1490A,87.5801,43.8303,乌鲁木齐市,监测站,,,,37,,15,66,,71,,,17,,5,,0.7
2022-09-11T22:00:00,1491A,87.6046,43.768,乌鲁木齐市,收费所,颗粒物(PM10),71,92,57,22,18,175,118,165,155,21,22,8,9,0.4,0.3
2022-09-11T22:00:00,1492A,87.4754,43.9469,乌鲁木齐市,新疆农科院农场(对照点),颗粒物(PM10),93,136,88,28,19,140,85,120,119,14,34,11,10,0.8,0.8
2022-09-11T22:00:00,1493A,87.5525,43.8711,乌鲁木齐市,铁路局,颗粒物(PM10),81,112,54,43,19,181,113,156,154,15,18,7,7,0.6,0.6
2022-09-11T22:00:00,1494A,87.6432,43.831,乌鲁木齐市,三十一中学,颗粒物(PM10),76,101,64,19,16,179,128,157,157,8,10,10,9,0.4,0.3
2022-09-11T22:00:00,1496A,87.7216,44.1747,乌鲁木齐市,米东区环保局,颗粒物(PM10),150,249,68,38,18,153,118,132,129,9,16,9,7,0.4,0.3
2022-09-11T22:00:00,1508A,112.9433,27.8614,湘潭市,板塘,颗粒物(PM10),60,69,58,41,36,240,132,218,196,24,21,4,5,0.5,0.4
2022-09-11T22:00:00,1511A,112.9118,27.8403,湘潭市,市监测站,,,51,47,,38,215,134,194,180,19,16,,9,0.7,0.7
2022-09-11T22:00:00,1512A,112.8937,27.8728,湘潭市,江麓,颗粒物(PM10),61,72,74,26,41,220,131,205,182,20,15,11,11,0.8,0.7
2022-09-11T22:00:00,1513A,112.9227,27.8159,湘潭市,岳塘,颗粒物(PM10),57,64,67,39,38,247,153,224,196,20,26,8,9,0.6,0.6
2022-09-11T22:00:00,1514A,112.9074,27.9119,湘潭市,科大,颗粒物(PM10),56,62,67,35,37,225,147,211,189,12,13,5,6,0.8,0.7
2022-09-11T22:00:00,1515A,113.135,27.8244,株洲市,天台山庄,细颗粒物(PM2.5),72,54,48,52,39,224,130,210,190,30,21,8,8,0.8,0.6
2022-09-11T22:00:00,1518A,113.095,27.8867,株洲市,株冶医院,细颗粒物(PM2.5),73,75,50,53,37,244,105,216,182,45,29,6,5,1.0,0.7
2022-09-11T22:00:00,1519A,113.167,27.8667,株洲市,市四中,细颗粒物(PM2.5),64,75,50,46,38,229,89,202,176,55,22,4,4,0.9,0.6
2022-09-11T22:00:00,1520A,113.143,27.8381,株洲市,火车站,,,70,57,,40,220,117,210,185,32,21,10,10,1.0,0.7
2022-09-11T22:00:00,1524A,113.13,27.8528,株洲市,市监测站,细颗粒物(PM2.5),68,78,58,49,44,229,123,209,186,30,24,5,6,1.0,0.7
2022-09-11T22:00:00,1552A,106.805,26.3003,贵阳市,桐木岭(对照点),,,,,,,,,,,,,,,,
2022-09-11T22:00:00,1559A,113.251,27.8336,株洲市,大京风景区(对照点),细颗粒物(PM2.5),52,41,47,36,33,175,78,160,128,10,9,3,4,0.6,0.6
2022-09-11T22:00:00,1562A,113.0048,27.9153,湘潭市,昭山,细颗粒物(PM2.5),55,58,56,39,39,224,61,199,167,51,41,4,4,0.8,0.7
2022-09-11T22:00:00,1564A,112.4876,27.9164,湘潭市,韶山(对照点),,46,46,50,28,24,187,88,179,145,13,12,6,8,0.6,0.7
2022-09-11T22:00:00,1585A,109.8756,40.6532,包头市,市环境监测站,,48,45,42,21,19,148,7,130,82,96,50,8,15,1.1,1
2022-09-11T22:00:00,1587A,109.9991,40.5842,包头市,包头八中,颗粒物(PM10),57,64,47,39,24,148,2,138,101,107,38,5,4,1.1,0.7
2022-09-11T22:00:00,1588A,109.8538,40.6821,包头市,青山宾馆,颗粒物(PM10),54,57,45,16,24,143,13,124,76,84,52,10,16,1.0,1.1
2022-09-11T22:00:00,1589A,109.8642,40.6288,包头市,惠龙物流,颗粒物(PM10),52,53,39,16,20,145,36,133,101,84,33,7,16,0.7,0.7
2022-09-11T22:00:00,1590A,110.0377,40.5546,包头市,东河鸿龙湾,颗粒物(PM10),52,54,44,24,20,149,46,141,110,54,22,6,6,0.8,0.6
2022-09-11T22:00:00,1591A,110.0023,39.8129,鄂尔多斯市,综合楼,颗粒物(PM10),57,63,35,17,13,152,91,141,127,40,20,15,10,0.7,0.6
2022-09-11T22:00:00,1592A,109.9486,39.8261,鄂尔多斯市,巴音孟克林场办事处,,,75,37,31,22,167,,157,155,35,20,14,11,0.5,0.4
2022-09-11T22:00:00,1593A,109.7736,39.5986,鄂尔多斯市,康泽苑,颗粒物(PM10),58,66,33,34,17,156,38,148,124,54,14,7,6,1.0,0.7
2022-09-11T22:00:00,1594A,109.8119,39.5989,鄂尔多斯市,华泰汽车城,颗粒物(PM10),53,56,34,29,22,153,20,147,109,79,22,8,7,0.8,0.6
2022-09-11T22:00:00,1595A,109.9734,39.7884,鄂尔多斯市,奥林花园,颗粒物(PM10),76,102,46,31,20,151,4,139,99,113,37,7,6,1.0,0.8
2022-09-11T22:00:00,1596A,122.2414,40.6592,营口市,学府南路,,,,,,,,,,,,,,,,
2022-09-11T22:00:00,1597A,122.2703,40.7094,营口市,大庆路,,48,48,76,11,36,150,93,133,117,13,29,4,24,0.4,1.3
2022-09-11T22:00:00,1598A,122.215,40.6511,营口市,镜湖西路,,39,39,47,10,25,139,84,121,107,21,29,4,11,0.7,1
2022-09-11T22:00:00,1599A,122.167,40.6655,营口市,西炮台,,34,21,52,11,26,136,108,124,116,7,25,3,11,0.5,1
2022-09-11T22:00:00,1600A,124.3303,40.0625,丹东市,江湾东路,,44,44,30,18,17,105,17,96,70,39,17,7,9,0.7,0.7
2022-09-11T22:00:00,1601A,124.4256,40.1503,丹东市,临江后街,,46,46,25,25,13,105,28,96,74,25,13,8,8,0.7,0.5
2022-09-11T22:00:00,1602A,124.3933,40.1461,丹东市,元宝山,,49,49,30,28,16,97,28,90,74,27,15,7,7,0.6,0.4
2022-09-11T22:00:00,1603A,124.3633,40.1092,丹东市,民主桥,,38,38,28,19,14,106,26,96,68,25,19,8,11,0.6,0.5
2022-09-11T22:00:00,1604A,122.0303,41.1489,盘锦市,开发区,,38,38,34,23,18,139,38,120,87,55,29,5,6,0.6,0.7
2022-09-11T22:00:00,1605A,122.0485,41.0883,盘锦市,兴隆台,,33,33,33,13,16,165,43,131,86,48,26,6,10,0.6,0.7
2022-09-11T22:00:00,1606A,121.8297,41.1028,盘锦市,新生街道,,23,18,19,16,13,106,32,98,69,24,14,6,6,0.5,0.6
2022-09-11T22:00:00,1607A,120.9092,40.7136,葫芦岛市,龙港区,,34,13,26,11,22,119,107,117,111,8,20,7,8,0.4,0.5
2022-09-11T22:00:00,1608A,120.8392,40.7514,葫芦岛市,化工街,颗粒物(PM10),55,60,44,19,20,123,51,118,98,56,33,6,12,0.4,0.4
2022-09-11T22:00:00,1609A,120.8341,40.7073,葫芦岛市,新区,,22,21,36,9,19,126,63,122,106,44,34,10,11,0.6,0.8
2022-09-11T22:00:00,1610A,120.8695,40.7677,葫芦岛市,东城区,,36,36,40,10,12,113,54,109,92,46,22,11,13,0.6,0.6
2022-09-11T22:00:00,1611A,118.5819,24.9117,泉州市,涂山街,,43,43,43,20,21,181,119,160,146,16,11,11,10,0.6,0.6
2022-09-11T22:00:00,1612A,118.5972,24.8978,泉州市,津头埔,,43,40,41,30,23,164,108,152,137,22,14,12,10,0.5,0.5
2022-09-11T22:00:00,1613A,118.6663,24.9424,泉州市,万安,,40,40,40,22,23,197,113,173,154,17,10,13,9,0.6,0.6
2022-09-11T22:00:00,1614A,118.6117,24.9604,泉州市,清源山(对照点),,,,,,,,,,,,,,,,
2022-09-11T22:00:00,1616A,117.6795,36.229,济南市,技术学院,细颗粒物(PM2.5),97,110,85,72,43,231,120,213,188,38,25,7,10,0.9,1
2022-09-11T22:00:00,1618A,118.3429,35.0532,临沂市,沂河小区,,46,46,45,20,27,194,88,162,140,20,12,8,16,0.5,0.5
2022-09-11T22:00:00,1619A,118.295,35.0583,临沂市,鲁南制药厂,,41,41,42,19,24,198,93,172,145,44,15,9,15,0.7,0.7
2022-09-11T22:00:00,1620A,118.2794,34.9976,临沂市,新光毛纺厂,颗粒物(PM10),53,56,51,27,30,195,74,166,135,30,20,4,13,0.6,0.6
2022-09-11T22:00:00,1621A,118.3956,35.0888,临沂市,河东保险公司,,34,34,40,17,24,193,80,155,124,21,16,5,9,0.6,0.6
2022-09-11T22:00:00,1622A,116.3032,37.4674,德州市,儿童乐园,,48,48,65,18,41,183,75,164,130,48,21,8,14,0.7,0.7
2022-09-11T22:00:00,1624A,116.2991,37.4451,德州市,监理站,,46,46,70,20,38,202,88,176,139,32,16,14,19,0.5,0.6
2022-09-11T22:00:00,1625A,115.9848,36.4372,聊城市,区政府,颗粒物(PM10),74,97,90,53,48,205,73,195,166,40,22,5,11,1.2,0.9
2022-09-11T22:00:00,1628A,118.0062,37.3803,滨州市,市环保局,细颗粒物(PM2.5),62,72,52,44,33,185,81,173,143,30,14,20,12,0.8,0.7
2022-09-11T22:00:00,1629A,118.0018,37.3617,滨州市,第二水厂,,48,48,46,29,32,180,74,167,138,36,18,14,12,0.6,0.6
2022-09-11T22:00:00,1630A,117.9776,37.393,滨州市,北中新校,颗粒物(PM10),51,51,44,22,30,174,42,163,124,43,16,9,10,0.7,0.5
2022-09-11T22:00:00,1631A,118.0414,36.8103,淄博市,人民公园,细颗粒物(PM2.5),113,114,93,85,76,219,97,201,165,57,28,13,20,0.6,0.6
2022-09-11T22:00:00,1632A,118.0253,36.8406,淄博市,东风化工厂,,,,,,,,,,,,,,,,
2022-09-11T22:00:00,1633A,117.8525,36.4847,淄博市,双山,细颗粒物(PM2.5),92,86,80,68,53,254,113,228,186,30,23,11,13,0.9,0.9
2022-09-11T22:00:00,1634A,117.9592,36.6331,淄博市,气象站,细颗粒物(PM2.5),113,174,105,85,62,245,48,225,167,74,33,23,26,1.0,0.9
2022-09-11T22:00:00,1635A,118.3092,36.8194,淄博市,莆田园,细颗粒物(PM2.5),107,144,96,80,63,248,46,223,177,76,36,13,17,1.9,2
2022-09-11T22:00:00,1636A,117.8661,36.805,淄博市,三金集团,,,,,,,,,,,,,,,,
2022-09-11T22:00:00,1637A,117.558,34.8438,枣庄市,市中区政府,细颗粒物(PM2.5),85,102,87,63,50,223,103,191,157,40,27,32,24,0.7,0.7
2022-09-11T22:00:00,1638A,117.2852,34.7837,枣庄市,薛城环保局,细颗粒物(PM2.5),77,88,86,56,49,232,132,197,175,29,26,14,18,0.8,0.9
2022-09-11T22:00:00,1639A,117.5852,34.7745,枣庄市,峄城区政府,细颗粒物(PM2.5),77,83,74,56,39,216,136,188,168,20,19,10,12,0.8,0.7
2022-09-11T22:00:00,1640A,117.7276,34.5578,枣庄市,台儿庄区环保局,细颗粒物(PM2.5),73,83,69,53,45,208,97,184,157,22,18,11,14,0.9,0.9
2022-09-11T22:00:00,1641A,117.4518,35.0992,枣庄市,山亭区环保局,细颗粒物(PM2.5),70,75,76,51,50,242,141,222,157,18,19,13,20,0.8,0.8
2022-09-11T22:00:00,1642A,121.2514,37.5639,烟台市,开发区,,36,36,35,17,19,154,77,137,114,22,13,8,11,0.6,0.6
2022-09-11T22:00:00,1643A,121.3719,37.5433,烟台市,轴承厂,,29,29,26,11,18,131,86,125,115,9,5,6,7,0.1,0.1
2022-09-11T22:00:00,1644A,121.3181,37.5436,烟台市,西郊化工站,,,,28,,14,138,85,132,122,12,10,6,7,0.4,0.5
2022-09-11T22:00:00,1645A,121.4478,37.4822,烟台市,莱山环保局,,27,24,25,11,17,137,86,130,116,9,6,7,9,0.4,0.4
2022-09-11T22:00:00,1646A,121.2611,37.4967,烟台市,福山环保局,,31,31,36,17,16,123,53,111,93,29,18,7,8,0.3,0.3
2022-09-11T22:00:00,1648A,119.12,36.7019,潍坊市,仲裁委,,,,,,,,,,,,,,,,
2022-09-11T22:00:00,1650A,119.1437,36.7023,潍坊市,环保局,,39,39,37,17,20,171,88,151,129,16,14,4,6,0.5,0.5
2022-09-11T22:00:00,1652A,119.1936,36.7729,潍坊市,寒亭监测站,,,,,,,,,,,,,,,,
2022-09-11T22:00:00,1653A,116.6251,35.4302,济宁市,火炬城,,,76,80,,40,204,151,199,184,6,7,10,14,0.7,0.7
2022-09-11T22:00:00,1655A,116.5491,35.4042,济宁市,电化厂,细颗粒物(PM2.5),73,82,84,53,54,218,148,209,187,19,18,10,14,0.8,0.8
2022-09-11T22:00:00,1656A,117.1437,36.1937,泰安市,监测站,细颗粒物(PM2.5),72,80,84,52,52,195,120,172,147,26,19,8,10,0.8,0.9
2022-09-11T22:00:00,1657A,117.0885,36.2017,泰安市,人口学校,颗粒物(PM10),59,68,77,39,47,181,145,172,163,12,16,8,11,0.4,0.6
2022-09-11T22:00:00,1658A,117.1089,36.1758,泰安市,电力学校,细颗粒物(PM2.5),64,73,81,46,50,196,127,183,165,29,22,6,9,0.7,0.7
2022-09-11T22:00:00,1659A,119.471,35.4209,日照市,监测站,,22,19,25,10,13,137,68,124,107,16,29,6,7,0.3,0.5
2022-09-11T22:00:00,1660A,119.523,35.4216,日照市,市政府广场,,30,14,22,10,10,145,93,130,115,8,14,3,3,0.4,0.4
2022-09-11T22:00:00,1661A,119.5587,35.4044,日照市,港务局,,31,17,22,5,10,157,98,139,122,5,18,3,3,0.3,0.4
2022-09-11T22:00:00,1662A,122.1214,37.4236,威海市,华夏技校,,29,24,21,19,15,128,92,121,111,8,9,7,5,0.1,0.2
2022-09-11T22:00:00,1663A,122.0508,37.5236,威海市,山大分校,,34,15,12,7,7,137,106,127,121,8,10,3,4,0.5,0.5
2022-09-11T22:00:00,1664A,122.1067,37.5072,威海市,市监测站,,33,15,19,15,15,129,104,120,114,4,9,5,7,0.3,0.3
2022-09-11T22:00:00,1665A,118.5019,37.4658,东营市,西城阳光环保公司,,,,,,,,,,,,,,,,
2022-09-11T22:00:00,1666A,118.6614,37.4309,东营市,市环保局,,38,27,46,14,26,202,120,165,142,5,12,7,25,0.5,0.8
2022-09-11T22:00:00,1669A,113.5824,24.7733,韶关市,市八中,,33,33,48,11,26,163,86,151,132,20,15,19,14,0.7,0.7
2022-09-11T22:00:00,1670A,113.5556,24.8082,韶关市,碧湖山庄,,,,,,,,,,,,,,,,
2022-09-11T22:00:00,1671A,113.5917,24.7972,韶关市,园林处,,35,20,49,24,34,154,83,143,125,19,13,21,20,0.7,0.7
2022-09-11T22:00:00,1672A,113.6735,24.7791,韶关市,韶关学院,细颗粒物(PM2.5),54,52,52,38,32,155,57,146,113,19,12,14,17,0.7,0.6
2022-09-11T22:00:00,1673A,113.5971,24.6863,韶关市,曲江监测站,"颗粒物(PM10),细颗粒物(PM2.5)",53,56,52,37,29,172,55,154,116,26,15,10,14,0.7,0.8
2022-09-11T22:00:00,1674A,116.6794,23.3667,汕头市,金平子站,细颗粒物(PM2.5),59,63,47,42,34,188,144,178,167,11,10,8,8,0.7,0.7
2022-09-11T22:00:00,1675A,116.7244,23.3633,汕头市,龙湖子站,颗粒物(PM10),59,68,64,30,29,177,141,167,158,12,11,8,8,0.8,0.8
2022-09-11T22:00:00,1676A,116.7258,23.2775,汕头市,濠江子站,细颗粒物(PM2.5),55,51,42,39,29,180,147,170,165,8,8,7,8,0.8,0.7
2022-09-11T22:00:00,1677A,116.7519,23.4714,汕头市,澄海子站,颗粒物(PM10),51,52,53,35,34,187,150,171,166,9,9,9,10,0.8,0.8
2022-09-11T22:00:00,1678A,116.6092,23.2539,汕头市,潮阳子站,细颗粒物(PM2.5),55,56,47,39,33,176,123,163,154,13,8,7,8,0.9,0.7
2022-09-11T22:00:00,1679A,116.4069,23.2533,汕头市,潮南子站,,,,,,,,,,,,,,,,
2022-09-11T22:00:00,1680A,110.3539,21.2706,湛江市,湛江影剧院,,39,39,35,18,21,153,110,128,127,14,12,8,13,0.7,0.7
2022-09-11T22:00:00,1681A,110.3928,21.2228,湛江市,市环境监测站,,50,50,35,26,24,145,109,125,125,18,14,9,15,0.7,0.6
2022-09-11T22:00:00,1682A,110.4019,21.1997,湛江市,环保局宿舍,颗粒物(PM10),53,55,37,25,24,152,110,124,124,16,11,9,19,0.9,0.7
2022-09-11T22:00:00,1683A,110.4111,21.2028,湛江市,霞山游泳场,颗粒物(PM10),51,51,35,29,24,152,111,125,125,15,11,9,18,0.7,0.7
2022-09-11T22:00:00,1684A,110.3316,21.2679,湛江市,麻章区环保局,颗粒物(PM10),52,54,35,22,21,156,103,124,124,15,12,9,13,0.8,0.8
2022-09-11T22:00:00,1685A,110.4558,21.2567,湛江市,坡头区环保局,颗粒物(PM10),51,51,34,25,25,155,115,126,124,15,13,17,14,0.9,0.8
2022-09-11T22:00:00,1686A,111.0286,21.4688,茂名市,电白南海,,46,46,51,31,29,150,70,131,94,13,11,7,9,0.5,0.5
2022-09-11T22:00:00,1687A,110.9294,21.6533,茂名市,茂石化七小,,42,36,49,29,35,138,73,122,93,12,12,12,19,0.7,0.8
2022-09-11T22:00:00,1688A,110.9107,21.6687,茂名市,健康路,,36,36,44,25,28,130,70,117,90,8,7,9,21,0.7,0.8
2022-09-11T22:00:00,1689A,110.8592,21.6828,茂名市,高岭,,39,36,40,27,31,110,53,100,81,22,9,31,15,1.5,0.8
2022-09-11T22:00:00,1690A,116.1231,24.3284,梅州市,梅江月梅,颗粒物(PM10),51,52,51,32,35,180,92,161,133,20,14,9,10,0.7,0.6
2022-09-11T22:00:00,1691A,116.0797,24.2719,梅州市,梅县新城,颗粒物(PM10),53,56,47,27,32,173,50,150,118,39,15,8,8,0.8,0.7
2022-09-11T22:00:00,1692A,116.1248,24.2654,梅州市,环境监控中心,,49,49,50,28,37,190,83,165,129,26,17,6,6,0.6,0.6
2022-09-11T22:00:00,1693A,115.3653,22.775,汕尾市,市环保局,,46,46,55,27,29,150,112,140,137,6,6,6,7,0.8,0.7
2022-09-11T22:00:00,1694A,115.3706,22.7898,汕尾市,市政府,,45,44,50,25,36,185,144,168,167,5,6,6,7,1.0,1
2022-09-11T22:00:00,1695A,115.3622,22.7925,汕尾市,新城中学,颗粒物(PM10),52,54,55,30,32,188,144,173,171,4,5,7,8,0.9,0.9
2022-09-11T22:00:00,1696A,114.6778,23.7569,河源市,源西(对照点),颗粒物(PM10),58,65,56,22,31,144,81,132,98,23,13,5,5,0.8,0.8
2022-09-11T22:00:00,1697A,114.6944,23.7586,河源市,东埔,颗粒物(PM10),52,53,50,29,33,156,109,146,133,17,13,5,6,0.9,0.9
2022-09-11T22:00:00,1698A,114.6892,23.7233,河源市,老城,,44,44,60,16,33,151,101,140,124,6,8,3,4,0.8,0.9
2022-09-11T22:00:00,1699A,111.9797,21.8593,阳江市,鸳鸯湖(对照点),,,,,,,,,,,,,,,,
2022-09-11T22:00:00,1700A,111.9508,21.8536,阳江市,南恩路,,,,,,,,,,,,,,,,
2022-09-11T22:00:00,1701A,111.9491,21.8658,阳江市,马南垌,细颗粒物(PM2.5),53,29,65,37,48,154,82,130,120,15,12,6,11,0.7,0.8
2022-09-11T22:00:00,1702A,113.0426,23.691,清远市,环保大楼(对照点),颗粒物(PM10),51,52,50,34,37,199,95,175,147,10,7,11,7,0.7,0.6
2022-09-11T22:00:00,1703A,113.0208,23.7106,清远市,凤城街办,细颗粒物(PM2.5),53,54,51,37,42,150,59,142,110,26,14,8,7,1.1,0.9
2022-09-11T22:00:00,1705A,116.6367,23.6719,潮州市,西园路(对照点),颗粒物(PM10),64,77,59,38,39,126,92,110,106,10,7,6,6,0.8,0.6
2022-09-11T22:00:00,1706A,116.6447,23.6706,潮州市,档案局,颗粒物(PM10),59,68,58,38,38,183,138,161,158,13,10,11,10,0.9,0.8
2022-09-11T22:00:00,1708A,116.3701,23.5345,揭阳市,新兴,"颗粒物(PM10),细颗粒物(PM2.5)",59,67,66,42,46,181,124,164,148,10,6,8,8,0.9,0.8
2022-09-11T22:00:00,1709A,116.3264,23.5443,揭阳市,西马,颗粒物(PM10),62,73,68,36,43,156,112,143,135,9,6,8,8,0.8,0.7
2022-09-11T22:00:00,1710A,116.3611,23.5626,揭阳市,东兴,颗粒物(PM10),72,94,73,40,36,162,116,151,140,9,3,8,7,1.1,0.9
2022-09-11T22:00:00,1711A,116.4151,23.5294,揭阳市,渔湖,颗粒物(PM10),61,72,69,37,43,174,116,159,143,12,7,9,6,1.1,0.8
2022-09-11T22:00:00,1712A,112.0392,22.9169,云浮市,新市府(对照点),,,,,,,,,,,,,,,,
2022-09-11T22:00:00,1713A,112.0369,22.9394,云浮市,市监测站,,,,,,,,,,,,,,,,
2022-09-11T22:00:00,1714A,112.0539,22.9539,云浮市,牧羊,,42,42,38,19,22,138,17,102,70,33,22,14,22,0.7,0.6
2022-09-11T22:00:00,1715A,102.575,24.3711,玉溪市,东风水库,,10,10,9,5,5,50,26,42,39,11,7,5,4,0.9,0.7
2022-09-11T22:00:00,1718A,115.4208,35.2464,菏泽市,气象局,,,,85,68,48,207,117,200,178,49,25,8,12,0.9,0.8
2022-09-11T22:00:00,1719A,115.4747,35.2375,菏泽市,市政协,颗粒物(PM10),80,110,85,55,40,212,122,205,183,31,19,4,9,0.7,0.6
2022-09-11T22:00:00,1720A,115.455,35.27,菏泽市,菏泽学院,,,,,,,,,,,,,,,,
2022-09-11T22:00:00,1721A,113.3819,40.1097,大同市,果树场(对照点),,,,,,,,,,,,,,,,
2022-09-11T22:00:00,1723A,113.2994,40.0758,大同市,云冈宾馆,颗粒物(PM10),76,102,72,36,28,157,76,146,129,50,28,17,21,0.7,1.1
2022-09-11T22:00:00,1724A,113.3444,40.0917,大同市,大同大学,颗粒物(PM10),67,84,60,21,24,157,67,144,130,40,19,11,35,0.5,0.6
2022-09-11T22:00:00,1725A,113.2661,40.1269,大同市,安家小村,颗粒物(PM10),87,124,92,29,22,165,107,153,136,32,25,18,24,0.5,0.8
2022-09-11T22:00:00,1726A,113.2711,40.0844,大同市,教育学院,颗粒物(PM10),91,132,88,36,31,149,59,137,116,58,34,23,22,0.5,1.4
2022-09-11T22:00:00,1727A,113.1147,36.1547,长治市,清华站,,49,45,48,34,32,201,93,169,145,22,27,10,13,0.6,0.7
2022-09-11T22:00:00,1728A,113.1031,36.1989,长治市,监测站,,49,49,43,31,30,192,84,165,141,18,19,9,9,0.6,0.7
2022-09-11T22:00:00,1730A,113.0886,36.2125,长治市,审计局,,48,48,39,29,30,212,105,185,163,16,16,9,9,0.8,0.9
2022-09-11T22:00:00,1731A,113.0844,36.1856,长治市,长治八中,颗粒物(PM10),51,52,46,35,20,196,104,176,154,19,24,8,13,0.9,0.9
2022-09-11T22:00:00,1733A,111.5531,36.0783,临汾市,临钢医院,,47,47,46,24,27,167,23,153,114,62,26,3,3,0.9,0.8
2022-09-11T22:00:00,1734A,111.5028,36.0714,临汾市,技工学校,颗粒物(PM10),52,53,45,31,32,188,64,165,133,36,19,4,6,0.7,0.7
2022-09-11T22:00:00,1735A,111.5169,36.0822,临汾市,工商学校,,,,,,,,,,,,,,,,
2022-09-11T22:00:00,1736A,111.5018,36.0855,临汾市,市委,,50,50,41,32,29,181,50,161,127,41,20,2,4,1.0,0.9
2022-09-11T22:00:00,1738A,113.5758,37.8572,阳泉市,市中心,颗粒物(PM10),77,104,64,25,29,186,5,174,121,113,44,9,15,0.8,0.8
2022-09-11T22:00:00,1739A,113.4894,37.8731,阳泉市,赛鱼,颗粒物(PM10),57,64,55,32,32,194,4,165,93,102,48,8,13,0.7,0.7
2022-09-11T22:00:00,1740A,113.5819,37.8486,阳泉市,南庄,颗粒物(PM10),66,82,66,39,36,182,43,169,135,70,31,14,19,1.3,1
2022-09-11T22:00:00,1741A,113.6292,37.8531,阳泉市,白羊墅,,,,,,,,,,,,,,,,
2022-09-11T22:00:00,1742A,113.5614,37.8703,阳泉市,平坦,颗粒物(PM10),77,104,64,29,35,183,14,171,118,122,51,10,13,0.9,0.8
2022-09-11T22:00:00,1743A,113.5158,37.8392,阳泉市,大阳泉,细颗粒物(PM2.5),60,53,42,43,38,186,153,181,175,18,18,27,15,0.8,0.7
2022-09-11T22:00:00,1744A,118.9233,42.2816,赤峰市,松山一中,,34,7,9,21,10,145,106,138,132,21,19,14,14,0.8,0.5
2022-09-11T22:00:00,1745A,118.9576,42.2728,赤峰市,哈达街,,39,39,19,15,10,160,112,150,143,17,14,14,14,0.6,0.4
2022-09-11T22:00:00,1746A,118.8788,42.2554,赤峰市,天义路,,35,35,18,16,8,150,102,141,134,19,15,15,14,0.7,0.5
2022-09-11T22:00:00,1748A,123.044,41.1196,鞍山市,深沟寺,,31,31,26,19,14,99,72,91,72,9,8,8,8,0.6,0.5
2022-09-11T22:00:00,1749A,123.011,41.0931,鞍山市,太阳城,,34,34,26,18,13,102,57,94,72,13,12,7,7,0.8,0.7
2022-09-11T22:00:00,1750A,123.0485,41.1442,鞍山市,太平,,40,40,28,24,14,98,63,91,72,18,14,8,8,0.9,0.6
2022-09-11T22:00:00,1751A,122.9642,41.0971,鞍山市,铁西三道街,颗粒物(PM10),60,69,51,29,17,101,34,90,68,44,31,9,7,1.5,0.9
2022-09-11T22:00:00,1752A,122.9341,41.0833,鞍山市,铁西工业园区,颗粒物(PM10),55,60,50,23,17,106,48,97,78,23,25,8,9,1.2,0.7
2022-09-11T22:00:00,1753A,123.022,41.0821,鞍山市,明达新区,,38,38,34,17,15,97,65,88,73,8,18,6,7,0.5,0.7
2022-09-11T22:00:00,1754A,123.1289,41.0228,鞍山市,千山(对照点),,,,,,,,,,,,,,,,
2022-09-11T22:00:00,1755A,123.7977,41.8491,抚顺市,望花区,,47,47,48,4,18,149,62,111,111,28,23,10,9,0.6,0.7
2022-09-11T22:00:00,1756A,123.9161,41.8822,抚顺市,顺城区,细颗粒物(PM2.5),79,105,45,58,21,148,14,122,90,79,28,10,10,1.1,0.8
2022-09-11T22:00:00,1757A,124.0436,41.8611,抚顺市,东洲区,颗粒物(PM10),55,59,30,21,14,141,55,111,97,26,15,7,5,1.1,0.9
2022-09-11T22:00:00,1758A,123.9247,41.8642,抚顺市,新抚区,颗粒物(PM10),55,60,48,23,19,146,44,118,100,35,20,4,4,1.0,0.6
2022-09-11T22:00:00,1759A,124.0972,41.8961,抚顺市,大伙房水库,,43,43,25,15,14,132,55,121,102,12,11,8,8,0.6,0.5
2022-09-11T22:00:00,1760A,123.7086,41.8391,抚顺市,沈抚新城,颗粒物(PM10),57,64,52,25,23,161,51,136,112,32,19,12,13,0.6,0.9
2022-09-11T22:00:00,1761A,123.8275,41.3064,本溪市,大峪,,24,24,31,8,11,107,51,89,74,18,19,7,8,0.5,0.8
2022-09-11T22:00:00,1762A,123.7567,41.3325,本溪市,溪湖,,35,35,48,15,19,102,49,89,72,14,23,13,20,0.8,1.3
2022-09-11T22:00:00,1763A,123.7169,41.3094,本溪市,彩屯,,40,40,53,20,28,103,38,88,65,15,25,7,15,0.7,1.6
2022-09-11T22:00:00,1764A,123.7669,41.2864,本溪市,东明,,44,44,36,17,13,101,24,93,79,46,23,8,10,0.6,0.7
2022-09-11T22:00:00,1765A,123.7992,41.2664,本溪市,新立屯,,28,28,27,12,11,103,44,84,61,32,21,6,7,0.7,0.8
2022-09-11T22:00:00,1766A,123.8142,41.3472,本溪市,威宁,,30,30,26,7,9,107,25,83,59,19,16,5,7,0.6,0.6
2022-09-11T22:00:00,1767A,121.1115,41.0879,锦州市,南山,,43,43,44,27,37,116,60,107,82,40,24,13,10,0.6,0.6
2022-09-11T22:00:00,1768A,121.0533,40.8434,锦州市,开发区,颗粒物(PM10),58,65,73,10,40,127,103,116,106,20,34,10,16,0.6,0.9
2022-09-11T22:00:00,1769A,121.1836,41.1119,锦州市,百股街道,,44,44,38,20,20,115,57,108,85,30,20,10,7,0.9,0.9
2022-09-11T22:00:00,1770A,121.1178,41.1222,锦州市,天安街道,,44,44,51,18,26,120,67,111,91,29,24,13,19,1.0,1.1
2022-09-11T22:00:00,1771A,121.1303,41.1386,锦州市,北湖公园,,32,32,42,16,23,122,75,108,86,23,21,12,12,0.7,0.8
2022-09-11T22:00:00,1772A,126.54,43.8622,吉林市,哈达湾,,30,24,38,9,20,187,96,155,120,8,20,5,11,0.5,0.8
2022-09-11T22:00:00,1773A,126.5844,43.8358,吉林市,东局子,,29,29,38,10,18,199,78,154,121,13,19,4,9,0.6,0.8
2022-09-11T22:00:00,1774A,126.5052,43.8245,吉林市,电力学院,,30,23,45,14,22,154,95,140,111,8,13,8,9,0.4,0.6
2022-09-11T22:00:00,1775A,126.6133,43.8972,吉林市,江北,,27,24,40,18,22,226,85,166,105,11,18,7,12,0.6,0.9
2022-09-11T22:00:00,1776A,126.555,43.8306,吉林市,江南公园,,27,25,37,12,22,174,86,141,114,10,20,4,9,0.6,0.8
2022-09-11T22:00:00,1778A,126.7061,43.7133,吉林市,丰满(对照点),,,,,,,,,,,,,,,,
2022-09-11T22:00:00,1779A,123.9305,47.3636,齐齐哈尔市,安居小区,,39,39,60,7,27,130,76,127,89,18,17,6,7,0.7,0.9
2022-09-11T22:00:00,1780A,123.9488,47.3386,齐齐哈尔市,中心广场,颗粒物(PM10),66,82,87,12,27,129,63,122,87,18,17,4,5,0.6,0.9
2022-09-11T22:00:00,1781A,123.9483,47.3227,齐齐哈尔市,农牧车辆厂,,36,36,62,14,25,135,79,125,98,6,9,6,8,0.1,0.4
2022-09-11T22:00:00,1783A,123.945,47.2988,齐齐哈尔市,市环境监测站,,32,30,60,22,31,140,77,126,102,8,10,4,5,0.3,0.6
2022-09-11T22:00:00,1784A,129.61,44.561,牡丹江市,环保大楼,,27,27,17,12,9,149,42,116,87,23,16,5,5,0.5,0.4
2022-09-11T22:00:00,1785A,129.6115,44.5782,牡丹江市,文化广场,,43,43,36,17,15,138,45,105,72,21,25,2,3,0.6,0.7
2022-09-11T22:00:00,1786A,129.5904,44.5963,牡丹江市,第一医院,颗粒物(PM10),55,59,27,21,13,137,33,104,76,29,19,5,5,0.9,0.7
2022-09-11T22:00:00,1787A,129.6364,44.6075,牡丹江市,机车工厂,,48,48,32,21,10,154,25,126,98,27,15,7,9,0.6,0.5
2022-09-11T22:00:00,1788A,129.6386,44.5462,牡丹江市,第一中学,,30,30,20,13,10,122,31,96,68,22,13,4,4,0.5,0.4
2022-09-11T22:00:00,1789A,124.81117,46.03138,大庆市,大同区,,,39,51,,,117,70,114,92,11,10,5,5,0.5,0.7
2022-09-11T22:00:00,1790A,125.129,46.533,大庆市,龙凤区,,29,29,35,15,19,120,81,109,98,4,4,6,4,0.2,0.4
2022-09-11T22:00:00,1791A,124.902,46.408,大庆市,红岗区,,27,27,29,16,19,121,75,108,92,8,7,4,3,0.8,0.8
2022-09-11T22:00:00,1792A,125.153,46.586,大庆市,萨尔图区,,36,36,42,19,30,118,90,108,97,6,6,9,6,0.2,0.4
2022-09-11T22:00:00,1793A,124.9042,46.6215,大庆市,让胡路区,,,,,,,126,80,110,92,8,8,2,3,1.2,1.3
2022-09-11T22:00:00,1794A,118.3606,31.3519,芜湖市,监测站,细颗粒物(PM2.5),63,61,51,45,32,213,130,185,164,23,22,8,8,0.6,0.6
2022-09-11T22:00:00,1795A,118.3714,31.4134,芜湖市,科创中心,"颗粒物(PM10),细颗粒物(PM2.5)",54,58,49,38,31,214,145,194,173,22,26,6,8,0.7,0.8
2022-09-11T22:00:00,1796A,118.3673,31.3131,芜湖市,四水厂,颗粒物(PM10),55,60,47,36,30,192,143,180,164,23,20,7,7,0.6,0.5
2022-09-11T22:00:00,1797A,118.4022,31.3839,芜湖市,济民医院(对照点),,,,,,,,,,,,,,,,
2022-09-11T22:00:00,1798A,118.5092,31.6837,马鞍山市,湖东路四小,,46,46,47,27,25,210,108,190,172,22,19,14,7,0.8,0.9
2022-09-11T22:00:00,1799A,118.5024,31.6449,马鞍山市,开发区,,44,44,55,27,34,214,123,191,174,16,24,6,9,0.8,1
2022-09-11T22:00:00,1800A,118.5228,31.7231,马鞍山市,慈湖,,41,41,49,23,30,214,97,195,172,25,24,6,13,0.8,0.9
2022-09-11T22:00:00,1801A,118.48,31.6928,马鞍山市,马钢动力厂,,,,,,,,,,,,,,,,
2022-09-11T22:00:00,1802A,118.6245,31.7241,马鞍山市,濮塘(对照点),,46,37,35,32,26,221,97,188,168,14,12,4,5,0.6,0.7
2022-09-11T22:00:00,1803A,115.9872,29.6815,九江市,十里,细颗粒物(PM2.5),57,58,36,40,23,191,136,185,170,28,19,9,10,0.9,0.8
2022-09-11T22:00:00,1804A,115.9584,29.7046,九江市,茅山头,,47,46,33,32,22,183,150,176,168,22,16,9,9,0.9,0.8
2022-09-11T22:00:00,1805A,115.9877,29.7295,九江市,西园,颗粒物(PM10),55,59,40,34,23,193,157,184,176,22,16,11,12,0.9,0.8
2022-09-11T22:00:00,1806A,116.0172,29.6547,九江市,五七二七厂,臭氧1小时,54,40,33,24,22,190,163,177,161,7,15,7,8,0.7,0.7
2022-09-11T22:00:00,1808A,115.9114,29.6038,九江市,综合工业园,臭氧1小时,55,47,36,29,21,181,164,165,161,11,21,9,10,0.8,0.8
2022-09-11T22:00:00,1809A,116.0721,29.7535,九江市,石化总厂,"颗粒物(PM10),细颗粒物(PM2.5)",67,83,42,48,21,183,109,173,153,48,20,8,9,0.9,0.8
2022-09-11T22:00:00,1810A,115.9773,29.5698,九江市,庐山气象台(对照点),臭氧1小时,62,45,37,28,25,191,169,191,176,14,8,23,12,1.6,0.7
2022-09-11T22:00:00,1811A,112.3628,34.6692,洛阳市,中信二小,,,,,,,,,,,,,,,,
2022-09-11T22:00:00,1812A,112.3931,34.6516,洛阳市,市委党校,颗粒物(PM10),60,70,48,24,24,193,15,168,135,91,26,5,7,0.7,0.5
2022-09-11T22:00:00,1814A,112.4657,34.6871,洛阳市,豫西宾馆,颗粒物(PM10),52,53,46,26,27,176,67,159,134,68,37,8,9,0.6,0.4
2022-09-11T22:00:00,1815A,112.494,34.6886,洛阳市,河南林校,颗粒物(PM10),52,53,40,23,22,163,59,150,127,30,18,4,6,0.6,0.5
2022-09-11T22:00:00,1816A,112.3844,34.623,洛阳市,开发区管委会,,38,38,42,22,27,196,78,169,145,22,14,3,3,0.4,0.4
2022-09-11T22:00:00,1817A,112.4267,34.6258,洛阳市,市委新办公区,颗粒物(PM10),57,64,44,31,28,176,52,159,134,44,16,4,6,0.8,0.5
2022-09-11T22:00:00,1818A,114.4839,36.0621,安阳市,棉研所(对照点),,,,,,,,,,,,,,,,
2022-09-11T22:00:00,1819A,114.3551,36.1017,安阳市,红庙街,细颗粒物(PM2.5),84,79,64,62,44,213,104,205,180,27,19,10,17,0.8,1.1
2022-09-11T22:00:00,1820A,114.361,36.0681,安阳市,银杏小区,颗粒物(PM10),76,101,62,52,35,209,98,200,172,32,15,8,11,0.8,0.9
2022-09-11T22:00:00,1824A,114.3389,34.7781,开封市,肿瘤医院,细颗粒物(PM2.5),83,81,53,61,33,205,130,198,180,26,16,6,8,0.9,0.7
2022-09-11T22:00:00,1826A,114.2885,34.7965,开封市,世纪星幼儿园,颗粒物(PM10),68,86,55,43,29,190,116,183,166,29,15,8,10,0.8,0.6
2022-09-11T22:00:00,1828A,113.227,35.2125,焦作市,市环保局,颗粒物(PM10),56,62,50,27,21,181,105,170,148,18,16,4,5,0.6,0.5
2022-09-11T22:00:00,1829A,113.2464,35.1764,焦作市,高新区政府（停运20220628）,,,,,,,,,,,,,,,,
2022-09-11T22:00:00,1830A,113.1992,35.2590,焦作市,影视城(对照点),,,,,,,,,,,,,,,,
2022-09-11T22:00:00,1832A,113.3257,33.742,平顶山市,新华旅馆,颗粒物(PM10),69,87,70,46,40,175,94,170,146,45,22,8,9,0.5,0.5
2022-09-11T22:00:00,1833A,113.2919,33.737,平顶山市,规划设计院,颗粒物(PM10),73,96,75,41,35,182,56,170,141,51,24,14,10,0.8,0.6
2022-09-11T22:00:00,1834A,113.182,33.774,平顶山市,平顶山工学院,颗粒物(PM10),62,74,73,31,37,182,146,173,164,26,25,38,18,0.4,0.4
2022-09-11T22:00:00,1835A,111.1922,34.7752,三门峡市,市政府,颗粒物(PM10),52,54,36,26,25,158,95,146,131,22,9,7,7,0.6,0.6
2022-09-11T22:00:00,1836A,111.1587,34.7942,三门峡市,开发区,颗粒物(PM10),54,57,44,28,27,161,94,151,138,19,11,8,6,0.7,0.6
2022-09-11T22:00:00,1838A,111.143,34.7955,三门峡市,风景区(对照点),,,,,,,,,,,,,,,,
2022-09-11T22:00:00,1839A,111.3009,30.7157,宜昌市,四零三,,,,,,,,,,,,,,,,
2022-09-11T22:00:00,1840A,111.2992,30.6981,宜昌市,白龙岗,,43,39,40,22,24,169,136,157,140,10,17,4,5,0.6,0.6
2022-09-11T22:00:00,1841A,111.3549,30.6465,宜昌市,伍家岗,颗粒物(PM10),54,57,43,29,26,170,137,154,142,15,26,7,9,0.5,0.5
2022-09-11T22:00:00,1842A,111.2628,30.6961,宜昌市,点军区,颗粒物(PM10),53,55,49,22,23,176,144,162,146,9,18,8,8,0.5,0.5
2022-09-11T22:00:00,1843A,111.3275,30.7819,宜昌市,夷陵区,,37,37,41,24,23,173,105,154,130,11,17,6,7,0.3,0.4
2022-09-11T22:00:00,1844A,112.2494,30.3197,荆州市,市图书馆,颗粒物(PM10),56,62,60,39,36,199,144,188,179,19,16,6,9,0.8,0.7
2022-09-11T22:00:00,1845A,112.2008,30.3544,荆州市,市委党校,颗粒物(PM10),64,77,61,41,36,188,135,180,170,25,17,6,8,0.9,0.9
2022-09-11T22:00:00,1847A,113.1094,29.3578,岳阳市,南湖风景区,臭氧1小时,77,42,61,44,45,212,181,203,196,23,20,22,16,1.1,0.9
2022-09-11T22:00:00,1848A,113.1493,29.4251,岳阳市,城陵矶,颗粒物(PM10),64,78,70,37,38,199,150,188,181,37,33,14,13,1.1,0.9
2022-09-11T22:00:00,1849A,113.1497,29.3575,岳阳市,开发区,臭氧1小时,83,67,64,46,46,213,186,203,198,26,24,10,13,0.8,0.8
2022-09-11T22:00:00,1850A,113.2621,29.4758,岳阳市,云溪区,细颗粒物(PM2.5),69,73,63,50,40,211,173,202,195,17,16,16,13,1.0,0.9
2022-09-11T22:00:00,1851A,112.9943,29.4402,岳阳市,君山区,颗粒物(PM10),65,80,65,40,44,200,157,190,184,16,16,6,7,1.0,0.9
2022-09-11T22:00:00,1852A,113.2117,29.355,岳阳市,金凤水库(对照点),臭氧1小时,65,66,56,39,33,208,172,201,192,13,10,9,7,0.9,0.8
2022-09-11T22:00:00,1854A,111.6975,28.9703,常德市,市二中,细颗粒物(PM2.5),78,72,67,57,46,168,125,164,146,16,14,12,10,0.7,0.7
2022-09-11T22:00:00,1857A,111.7158,29.1456,常德市,白鹤山(对照点),臭氧1小时,58,54,56,34,36,193,166,179,177,6,6,6,6,0.7,0.6
2022-09-11T22:00:00,1858A,110.5319,29.1217,张家界市,永定新区,"颗粒物(PM10),细颗粒物(PM2.5)",53,56,51,37,32,168,87,160,136,15,12,2,4,0.4,0.4
2022-09-11T22:00:00,1859A,110.4697,29.1242,张家界市,电业局,颗粒物(PM10),58,65,49,27,26,177,108,165,145,9,11,4,5,0.3,0.4
2022-09-11T22:00:00,1860A,110.5594,29.3547,张家界市,未央路,,45,29,40,24,30,165,141,160,132,5,9,2,3,0.2,0.2
2022-09-11T22:00:00,1861A,110.4417,29.315,张家界市,袁家界(对照点),,48,40,56,22,28,180,152,178,152,13,14,8,9,0.6,0.7
2022-09-11T22:00:00,1862A,110.4144,25.3167,桂林市,电子科大尧山校区(对照点),细颗粒物(PM2.5),55,49,60,39,43,184,74,169,134,16,14,7,14,0.7,0.7
2022-09-11T22:00:00,1863A,110.2819,25.2697,桂林市,监测站,,48,48,67,33,38,169,112,158,142,20,19,13,16,0.9,0.9
2022-09-11T22:00:00,1864A,110.3089,25.2708,桂林市,龙隐路小学,细颗粒物(PM2.5),58,56,63,41,46,174,110,162,146,13,17,29,25,0.8,1
2022-09-11T22:00:00,1865A,110.2869,25.2178,桂林市,八中,,49,48,61,34,41,171,96,161,140,26,18,20,16,0.7,0.7
2022-09-11T22:00:00,1866A,109.2262,21.588,北海市,牛尾岭水库(对照点),,20,16,27,14,18,134,37,120,94,8,8,4,6,0.5,0.6
2022-09-11T22:00:00,1867A,109.1436,21.4086,北海市,海滩公园,,24,24,28,7,14,156,63,138,122,5,7,5,6,0.6,0.7
2022-09-11T22:00:00,1868A,109.0981,21.4661,北海市,新市环保局,,19,7,25,12,17,154,60,135,114,5,6,8,8,0.5,0.6
2022-09-11T22:00:00,1869A,109.1778,21.5233,北海市,北海工业园,,25,18,34,17,20,166,52,142,125,8,7,6,9,0.4,0.5
2022-09-11T22:00:00,1870A,109.4856,24.3895,柳州市,柳东小学,细颗粒物(PM2.5),88,84,48,65,35,115,79,105,102,14,9,11,11,0.9,0.7
2022-09-11T22:00:00,1871A,109.4157,24.3277,柳州市,环保监测站,细颗粒物(PM2.5),74,78,47,54,34,97,61,82,80,30,19,20,12,1.0,0.9
2022-09-11T22:00:00,1872A,109.389,24.341,柳州市,河西水厂,细颗粒物(PM2.5),95,98,47,71,35,91,40,75,72,33,17,9,9,1.1,1
2022-09-11T22:00:00,1873A,109.4311,24.2921,柳州市,市四中,,,,49,,31,91,,80,80,33,18,8,11,1.2,1
2022-09-11T22:00:00,1874A,109.4006,24.3631,柳州市,市九中,,,101,60,69,36,100,60,84,81,25,19,13,13,,0.8
2022-09-11T22:00:00,1875A,109.4958,24.3134,柳州市,古亭山,,49,49,39,31,29,111,54,94,91,30,19,5,9,0.9,0.9
2022-09-11T22:00:00,1876A,109.5078,18.2489,三亚市,河东子站,,26,25,34,18,22,118,72,109,94,5,4,3,3,0.7,0.7
2022-09-11T22:00:00,1877A,109.4964,18.2681,三亚市,河西子站,,22,22,33,12,13,118,68,110,94,4,4,2,2,0.7,0.7
2022-09-11T22:00:00,1878A,104.7778,31.4741,绵阳市,富乐山,细颗粒物(PM2.5),55,46,49,39,44,145,84,138,121,19,11,3,3,0.8,0.8
2022-09-11T22:00:00,1879A,104.7563,31.4535,绵阳市,市人大,细颗粒物(PM2.5),64,76,77,46,52,129,68,124,105,39,18,5,7,0.7,0.6
2022-09-11T22:00:00,1880A,104.6697,31.4668,绵阳市,高新区自来水公司,颗粒物(PM10),79,107,85,57,69,137,84,132,118,38,18,7,7,0.8,0.7
2022-09-11T22:00:00,1881A,104.7287,31.5075,绵阳市,三水厂,细颗粒物(PM2.5),90,93,73,67,62,143,28,131,102,73,27,5,6,1.0,0.8
2022-09-11T22:00:00,1882A,104.563,28.793,宜宾市,石马中学(对照点),,49,48,45,34,33,129,58,116,106,15,12,4,5,0.6,0.6
2022-09-11T22:00:00,1883A,104.6201,28.7728,宜宾市,市委,细颗粒物(PM2.5),53,42,41,37,33,120,69,108,103,18,17,7,8,0.5,0.5
2022-09-11T22:00:00,1884A,104.6055,28.793,宜宾市,宜宾四中,细颗粒物(PM2.5),59,55,46,42,37,140,80,131,121,14,11,9,10,0.6,0.6
2022-09-11T22:00:00,1885A,104.639,28.7562,宜宾市,市政府,细颗粒物(PM2.5),52,42,40,36,33,133,87,126,122,14,10,9,10,0.7,0.6
2022-09-11T22:00:00,1886A,104.5742,28.7199,宜宾市,黄金嘴,细颗粒物(PM2.5),55,45,40,39,34,136,68,120,115,16,12,7,8,0.5,0.4
2022-09-11T22:00:00,1888A,101.6891,26.571,攀枝花市,弄弄坪,颗粒物(PM10),69,87,69,42,22,128,30,99,90,44,17,20,11,1.1,1.2
2022-09-11T22:00:00,1889A,101.5769,26.5928,攀枝花市,河门口,,40,40,24,21,14,104,45,85,81,20,12,22,11,1.3,1.1
2022-09-11T22:00:00,1890A,101.7169,26.585,攀枝花市,炳草岗,细颗粒物(PM2.5),64,58,33,46,32,133,24,105,96,55,25,51,25,0.9,1.3
2022-09-11T22:00:00,1891A,101.7369,26.5008,攀枝花市,仁和,,,,18,23,25,114,40,97,81,12,8,9,9,0.7,0.8
2022-09-11T22:00:00,1893A,105.4324,28.9634,泸州市,九狮山(对照点),,46,42,35,32,28,122,39,111,93,1,2,5,6,0.5,0.4
2022-09-11T22:00:00,1894A,105.4427,28.9063,泸州市,小市上码头,细颗粒物(PM2.5),73,63,59,53,48,136,101,130,125,14,15,10,14,0.8,0.8
2022-09-11T22:00:00,1895A,105.4241,28.8573,泸州市,兰田宪桥,颗粒物(PM10),59,67,45,39,36,138,73,129,119,16,12,8,11,0.8,0.7
2022-09-11T22:00:00,1896A,105.4379,28.8833,泸州市,市环监站,细颗粒物(PM2.5),68,63,53,49,43,132,122,125,125,5,10,3,8,0.6,0.6
2022-09-11T22:00:00,1897A,104.7547,29.3628,自贡市,大塘山(对照点),,,,,,,,,,,,,,,,
2022-09-11T22:00:00,1900A,104.7692,29.3411,自贡市,春华路,,,,,,,,,,,,,,,,
2022-09-11T22:00:00,1901A,104.4239,31.1208,德阳市,东山公园,细颗粒物(PM2.5),57,60,49,40,34,139,103,126,124,11,12,1,4,0.8,0.8
2022-09-11T22:00:00,1902A,104.3826,31.1317,德阳市,西小区,颗粒物(PM10),65,80,65,42,35,136,45,123,111,44,26,4,5,0.9,0.8
2022-09-11T22:00:00,1903A,104.4053,31.1167,德阳市,市检察院,,,,,,,,,,,,,,,,
2022-09-11T22:00:00,1904A,104.3553,31.1091,德阳市,耐火材料厂,颗粒物(PM10),81,112,62,47,36,139,58,125,114,35,22,5,7,0.9,0.8
2022-09-11T22:00:00,1905A,106.056,30.8064,南充市,西山风景区(对照点),细颗粒物(PM2.5),64,52,42,46,48,149,128,143,139,9,13,12,2,0.9,0.9
2022-09-11T22:00:00,1906A,106.0789,30.8023,南充市,南充市委,细颗粒物(PM2.5),75,64,61,55,44,152,73,145,129,45,14,3,4,0.9,0.6
2022-09-11T22:00:00,1907A,106.1031,30.8217,南充市,南充炼油厂,细颗粒物(PM2.5),70,75,71,51,47,169,58,159,140,42,15,4,9,0.6,0.4
2022-09-11T22:00:00,1908A,106.1064,30.7856,南充市,高坪区监测站,细颗粒物(PM2.5),77,72,70,56,55,161,49,149,130,50,14,1,2,0.9,0.7
2022-09-11T22:00:00,1909A,106.0642,30.7636,南充市,嘉陵区环保局,细颗粒物(PM2.5),74,73,68,54,51,144,52,138,113,60,17,4,4,0.9,0.7
2022-09-11T22:00:00,1910A,106.1087,30.8388,南充市,市环境监测站,,,66,67,55,52,139,,135,135,,13,,10,0.6,0.5
2022-09-11T22:00:00,1911A,106.9222,27.6869,遵义市,丁字口,细颗粒物(PM2.5),54,41,49,38,38,127,75,113,107,6,5,6,6,0.8,0.8
2022-09-11T22:00:00,1912A,106.9242,27.7019,遵义市,凤凰山,细颗粒物(PM2.5),52,44,43,36,33,128,99,120,119,12,10,8,5,0.8,0.8
2022-09-11T22:00:00,1913A,106.8906,27.6486,遵义市,忠庄,颗粒物(PM10),51,51,47,35,30,125,77,112,108,12,11,2,2,0.6,0.6
2022-09-11T22:00:00,1914A,106.9231,27.6506,遵义市,舟水桥,颗粒物(PM10),58,66,51,35,30,128,52,114,104,13,11,1,2,0.4,0.5
2022-09-11T22:00:00,1915A,106.9178,27.72,遵义市,干田坝,细颗粒物(PM2.5),52,49,40,36,34,132,69,117,110,14,8,6,6,0.6,0.6
2022-09-11T22:00:00,1916A,103.7897,25.5035,曲靖市,环境监测站,,26,22,18,18,19,99,26,79,49,24,13,3,3,0.9,0.7
2022-09-11T22:00:00,1917A,103.8,25.5364,曲靖市,烟厂办公区,,21,21,20,12,14,92,12,78,48,38,12,6,5,0.8,0.7
2022-09-11T22:00:00,1918A,108.7197,34.3956,咸阳市,气象站(对照点),细颗粒物(PM2.5),102,111,59,76,32,135,43,123,104,45,23,6,8,1.0,1
2022-09-11T22:00:00,1919A,108.673,34.3155,咸阳市,实验中学,细颗粒物(PM2.5),77,88,57,56,35,172,101,154,144,34,20,5,8,1.0,1
2022-09-11T22:00:00,1920A,108.7233,34.3617,咸阳市,师范学院,细颗粒物(PM2.5),93,122,59,69,33,166,66,150,133,37,16,6,8,1.0,0.9
2022-09-11T22:00:00,1922A,109.0656,35.0994,铜川市,党校(对照点),,,100,44,40,24,105,12,94,67,,27,5,6,0.9,0.9
2022-09-11T22:00:00,1923A,109.0697,35.0697,铜川市,王益区政府,颗粒物(PM10),67,83,40,37,24,148,47,136,115,27,12,7,7,1.0,0.8
2022-09-11T22:00:00,1924A,108.9344,34.9058,铜川市,新区管委会,颗粒物(PM10),65,80,58,42,33,163,84,148,136,41,26,10,10,0.9,0.8
2022-09-11T22:00:00,1925A,108.9589,34.8731,铜川市,新区兰芝公司,,,,,,,,,,,,,,,,
2022-09-11T22:00:00,1926A,109.4131,36.6275,延安市,枣园(对照点),,38,38,26,13,14,150,6,126,92,49,20,4,4,0.6,0.6
2022-09-11T22:00:00,1927A,109.4761,36.6028,延安市,延大医附院,,,43,35,18,18,148,,128,117,,20,4,4,0.7,0.6
2022-09-11T22:00:00,1928A,109.4824,36.5767,延安市,市监测站,,,,,,,,,,,,,,,,
2022-09-11T22:00:00,1929A,109.5056,36.6106,延安市,百米大道,,42,42,31,17,16,141,20,120,88,45,24,6,6,0.7,0.6
2022-09-11T22:00:00,1930A,107.185,34.3063,宝鸡市,庙沟村(对照点),颗粒物(PM10),58,65,51,33,32,92,64,87,80,25,13,5,5,0.6,0.5
2022-09-11T22:00:00,1931A,107.0708,34.3017,宝鸡市,竹园沟,颗粒物(PM10),51,52,50,35,34,109,48,99,85,17,16,7,7,0.8,0.7
2022-09-11T22:00:00,1932A,107.1906,34.3672,宝鸡市,三陆医院,颗粒物(PM10),61,72,66,41,42,113,42,107,88,40,22,8,6,0.9,0.8
2022-09-11T22:00:00,1933A,107.1431,34.3547,宝鸡市,监测站,颗粒物(PM10),64,78,59,44,41,113,35,105,83,30,19,6,7,0.9,0.8
2022-09-11T22:00:00,1934A,107.1186,34.3739,宝鸡市,技工学校,"颗粒物(PM10),细颗粒物(PM2.5)",59,68,62,42,48,122,57,110,95,24,18,5,5,0.7,0.7
2022-09-11T22:00:00,1935A,107.3906,34.3528,宝鸡市,陈仓区环保局家属楼,颗粒物(PM10),62,74,60,43,38,120,48,113,104,32,17,7,7,0.8,0.7
2022-09-11T22:00:00,1936A,107.2058,34.3497,宝鸡市,文理学院,颗粒物(PM10),65,80,60,40,35,114,42,111,88,38,21,5,6,0.9,0.8
2022-09-11T22:00:00,1937A,107.2386,34.3622,宝鸡市,三迪小学,颗粒物(PM10),66,82,62,42,44,112,44,104,90,36,22,6,7,0.8,0.7
2022-09-11T22:00:00,1938A,109.5293,34.5101,渭南市,农科所(对照点),,,,,,,,,,,,,,,,
2022-09-11T22:00:00,1939A,109.4974,34.4877,渭南市,日报社,细颗粒物(PM2.5),85,85,62,63,44,164,40,150,116,50,26,8,10,0.9,0.7
2022-09-11T22:00:00,1940A,109.4636,34.493,渭南市,体育馆,细颗粒物(PM2.5),69,63,54,50,40,167,21,156,125,100,22,11,9,0.8,0.6
2022-09-11T22:00:00,1941A,109.4259,34.5023,渭南市,高新一小,颗粒物(PM10),76,101,64,55,37,156,30,145,119,69,17,18,9,0.9,0.7
2022-09-11T22:00:00,1943A,102.1725,38.5339,金昌市,新川苑,颗粒物(PM10),54,57,41,16,16,161,120,152,140,21,20,17,26,0.7,0.6
2022-09-11T22:00:00,1944A,102.1692,38.5167,金昌市,天庆家园,,40,40,40,13,12,153,94,146,133,29,19,76,33,0.9,0.7
2022-09-11T22:00:00,1945A,98.2908,39.7711,嘉峪关市,气象局,,44,44,34,22,12,143,62,136,120,59,24,4,4,0.6,0.4
2022-09-11T22:00:00,1947A,106.3394,38.817,石嘴山市,沙湖旅游区(对照点),颗粒物(PM10),75,100,44,14,17,150,73,142,122,34,15,5,9,0.5,0.6
2022-09-11T22:00:00,1948A,106.3668,39.0145,石嘴山市,大武口朝阳西街,,31,31,34,16,20,146,68,136,120,39,26,3,11,0.6,0.9
2022-09-11T22:00:00,1949A,106.7704,39.2282,石嘴山市,惠农南大街,,33,33,22,14,14,125,75,121,106,26,16,5,7,0.3,0.3
2022-09-11T22:00:00,1950A,106.7099,39.1325,石嘴山市,红果子镇惠新街,颗粒物(PM10),53,56,30,18,13,139,55,123,104,49,15,8,8,0.5,0.4
2022-09-11T22:00:00,1951A,84.895,45.6094,克拉玛依市,长征新村,颗粒物(PM10),69,87,39,5,4,101,97,88,84,4,17,5,5,0.2,0.2
2022-09-11T22:00:00,1952A,84.8988,45.5893,克拉玛依市,南林小区,颗粒物(PM10),64,78,35,25,15,109,101,92,67,7,33,3,4,0.1,0.3
2022-09-11T22:00:00,1953A,85.1186,45.6886,克拉玛依市,白碱滩区,,,,,,,,,,,,,,,,
2022-09-11T22:00:00,1954A,84.905,44.3396,克拉玛依市,独山子区,,48,48,48,24,19,129,108,122,122,16,11,9,9,0.4,0.4
2022-09-11T22:00:00,1955A,85.6979,46.098,克拉玛依市,乌尔禾区商贸楼,,,,30,21,13,106,98,96,92,1,15,5,6,0.1,0.2
2022-09-11T22:00:00,1956A,86.1472,41.7538,巴音郭楞州,孔雀公园,颗粒物(PM10),64,77,54,18,14,136,65,127,103,25,10,4,5,0.5,0.3
2022-09-11T22:00:00,1957A,86.1972,41.7166,巴音郭楞州,棉纺厂,颗粒物(PM10),56,62,51,26,17,126,70,120,111,27,8,5,5,0.3,0.2
2022-09-11T22:00:00,1958A,86.2357,41.7173,巴音郭楞州,经济开发区,,49,49,37,19,16,130,88,125,116,12,3,5,6,0.2,0.2
2022-09-11T22:00:00,1959A,118.746,36.881,寿光市,监测站,,,,,,,,,,,,,,,,
2022-09-11T22:00:00,1960A,118.780,36.864,寿光市,世纪学校,,,,,,,,,,,,,,,,
2022-09-11T22:00:00,1961A,117.532,36.6868,济南市,东山小学,颗粒物(PM10),70,90,80,46,41,209,60,190,139,58,22,4,7,0.6,0.7
2022-09-11T22:00:00,1962A,117.541,36.710,章丘市,明水开发区,,,,,,,,,,,,,,,,
2022-09-11T22:00:00,1963A,120.610,36.440,即墨市,环保局子站,,,,,,,,,,,,,,,,
2022-09-11T22:00:00,1964A,120.470,36.390,即墨市,开发区子站,,,,,,,,,,,,,,,,
2022-09-11T22:00:00,1965A,120.005,35.878,胶南市,JN子站,,,,,,,,,,,,,,,,
2022-09-11T22:00:00,1966A,120.0405,35.8735,青岛市,黄岛区4号,,35,17,21,7,6,141,112,122,121,9,13,5,5,0.5,0.5
2022-09-11T22:00:00,1967A,120.008,36.283,胶州市,胶州环保局,,,,,,,,,,,,,,,,
2022-09-11T22:00:00,1968A,120.014,36.253,胶州市,胶州一中,,,,,,,,,,,,,,,,
2022-09-11T22:00:00,1969A,120.537,36.865,莱西市,环保局子站,,,,,,,,,,,,,,,,
2022-09-11T22:00:00,1970A,120.515,36.885,莱西市,人民广场子站,,,,,,,,,,,,,,,,
2022-09-11T22:00:00,1971A,119.952,36.792,平度市,1号,,,,,,,,,,,,,,,,
2022-09-11T22:00:00,1972A,119.976,36.799,平度市,2号,,,,,,,,,,,,,,,,
2022-09-11T22:00:00,1973A,120.747,37.825,蓬莱市,蓬莱环保局,,,,,,,,,,,,,,,,
2022-09-11T22:00:00,1974A,120.773,37.809,蓬莱市,蓬莱博物馆,,,,,,,,,,,,,,,,
2022-09-11T22:00:00,1975A,120.399,37.374,招远市,招远环保局,,,,,,,,,,,,,,,,
2022-09-11T22:00:00,1976A,120.394,37.364,招远市,招远教育局,,,,,,,,,,,,,,,,
2022-09-11T22:00:00,1977A,119.941,37.177,莱州市,莱州环保局,,,,,,,,,,,,,,,,
2022-09-11T22:00:00,1978A,119.959,37.180,莱州市,莱州外经委,,,,,,,,,,,,,,,,
2022-09-11T22:00:00,1979A,122.471,37.154,荣成市,荣成市环保局办公楼,,,,,,,,,,,,,,,,
2022-09-11T22:00:00,1980A,122.410,37.161,荣成市,山东成山轮胎公司,,,,,,,,,,,,,,,,
2022-09-11T22:00:00,1981A,122.038,37.197,文登市,文登市环保局,,,,,,,,,,,,,,,,
2022-09-11T22:00:00,1982A,122.0693,37.2174,威海市,文登开发区,,28,22,22,9,10,122,87,117,104,11,12,6,6,0.5,0.5
2022-09-11T22:00:00,1983A,121.531,36.913,乳山市,乳山市环保局,,,,,,,,,,,,,,,,
2022-09-11T22:00:00,1984A,121.544,36.907,乳山市,乳山市气象局,,,,,,,,,,,,,,,,
2022-09-11T22:00:00,1985A,120.636,31.155,吴江市,吴江市环保局,,,,,,,,,,,,,,,,
2022-09-11T22:00:00,1986A,120.635,31.170,吴江市,教师进修学校,,,,,,,,,,,,,,,,
2022-09-11T22:00:00,1987A,120.658,31.172,吴江市,吴江开发区,,,,,,,,,,,,,,,,
2022-09-11T22:00:00,1988A,120.953,31.388,昆山市,昆山实验小学,,,,,,,,,,,,,,,,
2022-09-11T22:00:00,1989A,120.999,31.381,昆山市,震川中学,,,,,,,,,,,,,,,,
2022-09-11T22:00:00,1990A,120.758,31.670,常熟市,海虞子站,,,,,,,,,,,,,,,,
2022-09-11T22:00:00,1991A,120.721,31.671,常熟市,兴福子站,,,,,,,,,,,,,,,,
2022-09-11T22:00:00,1992A,120.734,31.656,常熟市,菱塘子站,,,,,,,,,,,,,,,,
2022-09-11T22:00:00,1993A,120.526,31.874,张家港市,张家港市监测站,,,,,,,,,,,,,,,,
2022-09-11T22:00:00,1994A,120.550,31.882,张家港市,城北小学,,,,,,,,,,,,,,,,
2022-09-11T22:00:00,1995A,121.115,31.453,太仓市,太仓市监测站,,,,,,,,,,,,,,,,
2022-09-11T22:00:00,1996A,121.140,31.422,太仓市,科教新城实小,,,,,,,,,,,,,,,,
2022-09-11T22:00:00,1997A,119.146,31.955,句容市,消防指挥中心,,,,,,,,,,,,,,,,
2022-09-11T22:00:00,1998A,119.180,31.955,句容市,房家坝,,,,,,,,,,,,,,,,
2022-09-11T22:00:00,1999A,120.268,31.920,江阴市,虹桥邮政,,,,,,,,,,,,,,,,
2022-09-11T22:00:00,2000A,120.237,31.909,江阴市,五星公园,,,,,,,,,,,,,,,,
2022-09-11T22:00:00,2001A,120.302,31.920,江阴市,第二实验小学,,,,,,,,,,,,,,,,
2022-09-11T22:00:00,2002A,119.818,31.354,宜兴市,宜兴市环保局,,,,,,,,,,,,,,,,
2022-09-11T22:00:00,2003A,119.794,31.371,宜兴市,宜园,,,,,,,,,,,,,,,,
2022-09-11T22:00:00,2004A,119.579,31.751,金坛市,金坛市环境监测站,,,,,,,,,,,,,,,,
2022-09-11T22:00:00,2005A,119.579,31.737,金坛市,金坛市自来水公司,,,,,,,,,,,,,,,,
2022-09-11T22:00:00,2006A,119.460,31.400,溧阳市,溧阳市东门子站,,,,,,,,,,,,,,,,
2022-09-11T22:00:00,2007A,119.438,31.317,溧阳市,燕山子站,,,,,,,,,,,,,,,,
2022-09-11T22:00:00,2008A,121.173,31.896,海门市,海门市监测站,,,,,,,,,,,,,,,,
2022-09-11T22:00:00,2009A,121.1518,31.89708,海门市,社会福利院,,,,,,,,,,,,,,,,
2022-09-11T22:00:00,2010A,119.7183,30.2366,临安市,市政府,,,,,,,,,,,,,,,,
2022-09-11T22:00:00,2011A,119.6942,30.2311,临安市,四中,,,,,,,,,,,,,,,,
2022-09-11T22:00:00,2012A,119.954,30.054,富阳市,监测站,,,,,,,,,,,,,,,,
2022-09-11T22:00:00,2013A,119.946,30.049,富阳市,富春二小,,,,,,,,,,,,,,,,
2022-09-11T22:00:00,2014A,120.091,29.305,义乌市,江东,,,,,,,,,,,,,,,,
2022-09-11T22:00:00,2015A,120.040,29.334,义乌市,北苑,,,,,,,,,,,,,,,,
2022-09-11T22:00:00,2016A,120.251,29.719,诸暨市,图书馆,,,,,,,,,,,,,,,,
2022-09-11T22:00:00,2017A,120.209,29.732,诸暨市,富林印务,,,,,,,,,,,,,,,,
2022-09-11T22:00:00,2018A,121.989,39.625,瓦房店市,抱龙山庄,,,,,,,,,,,,,,,,
2022-09-11T22:00:00,2019A,122.011,39.617,瓦房店市,东山公园,,,,,,,,,,,,,,,,
2022-09-11T22:00:00,2031A,113.1817,27.9958,株洲市,云田中学,颗粒物(PM10),70,90,55,48,38,222,125,201,180,20,13,6,7,0.8,0.7
2022-09-11T22:00:00,2054A,114.1099,32.1059,信阳市,平桥分局,颗粒物(PM10),70,90,62,31,28,169,99,164,148,31,17,11,11,0.9,0.9
2022-09-11T22:00:00,2064A,113.9956,32.1271,信阳市,南湾水厂,,,66,54,34,32,162,,158,153,23,14,8,10,0.8,0.8
2022-09-11T22:00:00,2065A,114.0775,32.1195,信阳市,市酿酒公司,,38,38,48,25,30,163,119,158,147,18,13,9,11,0.8,0.8
2022-09-11T22:00:00,2066A,114.0609,32.1399,信阳市,审计局,,50,50,52,32,36,168,116,162,149,26,16,7,8,0.9,0.9
2022-09-11T22:00:00,2067A,114.6613,33.6128,周口市,市环境监测站,颗粒物(PM10),61,72,60,26,26,171,96,162,143,31,14,12,19,0.5,0.5
2022-09-11T22:00:00,2068A,114.6758,33.6347,周口市,周口师范,颗粒物(PM10),57,63,56,14,25,175,103,168,145,32,16,6,12,0.7,0.7
2022-09-11T22:00:00,2069A,114.6546,33.5979,周口市,市运管处,颗粒物(PM10),58,65,55,15,25,176,99,169,150,30,15,14,20,0.7,0.7
2022-09-11T22:00:00,2070A,114.6369,33.6406,周口市,川汇区环保局,颗粒物(PM10),67,84,61,21,24,171,60,165,136,45,15,9,19,0.7,0.6
2022-09-11T22:00:00,2075A,117.6336,24.4674,漳州市,九湖(对照点),,,,,,,,,,,,,,,,
2022-09-11T22:00:00,2160A,112.85,35.5051,晋城市,自来水公司,细颗粒物(PM2.5),62,63,50,44,32,191,36,184,156,61,24,5,7,1.0,1.4
2022-09-11T22:00:00,2161A,112.8318,35.4936,晋城市,白云商贸,细颗粒物(PM2.5),58,64,50,41,27,186,48,180,149,46,22,3,5,0.8,0.9
2022-09-11T22:00:00,2162A,112.8508,35.4887,晋城市,市环保局,细颗粒物(PM2.5),58,59,44,41,32,187,45,181,154,72,23,5,7,0.9,1.1
2022-09-11T22:00:00,2163A,112.8676,35.4897,晋城市,技术学院,颗粒物(PM10),60,70,41,39,28,183,79,177,151,58,26,5,6,0.6,1
2022-09-11T22:00:00,2164A,112.8271,35.4828,晋城市,泽州一中,,,,,,,,,,,,,,,,
2022-09-11T22:00:00,2165A,112.8453,35.546,晋城市,白马寺 (对照点),,,,,,,,,,,,,,,,
2022-09-11T22:00:00,2166A,112.4397,39.3522,朔州市,平朔,颗粒物(PM10),90,129,79,48,35,152,25,135,106,57,36,4,7,0.9,0.7
2022-09-11T22:00:00,2167A,112.4575,39.3617,朔州市,朔唯,,,,88,,38,62,,47,,,40,,10,,0.6
2022-09-11T22:00:00,2168A,112.4258,39.3197,朔州市,区政府,颗粒物(PM10),87,124,81,40,30,153,68,136,114,36,26,7,9,0.8,0.7
2022-09-11T22:00:00,2169A,112.4072,39.3278,朔州市,市环保局,颗粒物(PM10),100,150,76,27,23,148,66,133,107,29,28,8,10,0.6,0.6
2022-09-11T22:00:00,2170A,112.4272,39.3681,朔州市,市二中,颗粒物(PM10),99,147,82,48,34,154,28,133,105,52,36,7,9,1.0,0.8
2022-09-11T22:00:00,2171A,112.7532,37.6945,晋中市,锦纶小区,颗粒物(PM10),54,57,43,30,28,172,30,158,116,58,26,8,8,0.4,0.4
2022-09-11T22:00:00,2173A,112.7249,37.7067,晋中市,南都小区,颗粒物(PM10),59,68,46,33,28,172,26,161,124,80,29,8,8,0.6,0.4
2022-09-11T22:00:00,2174A,112.6991,37.6982,晋中市,榆次区政府,细颗粒物(PM2.5),62,64,45,44,30,160,48,151,118,48,22,10,9,0.6,0.6
2022-09-11T22:00:00,2175A,110.9956,35.0147,运城市,运城中学,,46,46,60,28,32,144,107,135,127,13,13,7,12,1.1,1.4
2022-09-11T22:00:00,2176A,111.0233,35.0611,运城市,禹都开发区,,,,,,,,,,,,,,,,
2022-09-11T22:00:00,2178A,110.9686,35.0303,运城市,地区技校,,41,41,53,22,32,174,91,157,139,32,17,7,13,1.3,1.5
2022-09-11T22:00:00,2179A,111.0414,35.1147,运城市,空港新区,细颗粒物(PM2.5),65,62,67,47,41,164,81,155,136,27,25,13,20,1.2,1.3
2022-09-11T22:00:00,2181A,112.7383,38.4519,忻州市,开发区,,46,44,50,32,30,157,57,144,112,28,18,15,11,0.6,0.7
2022-09-11T22:00:00,2182A,112.7003,38.4928,忻州市,会展中心,颗粒物(PM10),57,63,49,33,28,149,14,139,93,63,26,10,10,0.6,0.5
2022-09-11T22:00:00,2183A,111.1406,37.5211,吕梁市,环保局,颗粒物(PM10),66,82,53,30,21,158,1,142,100,72,35,5,5,0.6,0.6
2022-09-11T22:00:00,2185A,111.1297,37.5136,吕梁市,自来水公司,颗粒物(PM10),67,84,58,28,22,155,14,136,97,38,27,4,3,0.6,0.6
2022-09-11T22:00:00,2186A,106.8288,39.6778,乌海市,聚英学校,,,,,,,,,,,,,,,,
2022-09-11T22:00:00,2187A,106.8174,39.6973,乌海市,市林业局,,32,32,49,21,21,158,74,142,127,43,25,22,31,0.6,0.8
2022-09-11T22:00:00,2188A,106.7907,39.6667,乌海市,中海勃湾学校,,38,38,45,14,19,162,69,146,126,54,27,12,29,0.5,0.8
2022-09-11T22:00:00,2191A,122.2532,43.6801,通辽市,艺术职业学校,颗粒物(PM10),52,54,49,13,17,140,93,121,104,18,13,14,8,0.1,0.3
2022-09-11T22:00:00,2192A,119.7594,49.2261,呼伦贝尔市,区环保局,,44,44,42,23,18,85,39,78,48,8,15,5,5,0.5,0.5
2022-09-11T22:00:00,2194A,107.5936,40.916,巴彦淖尔市,秋林养殖基地(对照点),,,,,,,,,,,,,,,,
2022-09-11T22:00:00,2195A,107.4212,40.761,巴彦淖尔市,附二中,颗粒物(PM10),58,66,43,36,23,147,98,138,118,17,13,3,5,0.6,0.6
2022-09-11T22:00:00,2196A,107.37,40.7372,巴彦淖尔市,市环保大楼,,48,48,40,30,22,152,98,140,122,9,9,4,5,0.7,0.7
2022-09-11T22:00:00,2197A,113.1306,40.9923,乌兰察布市,集宁新区,,45,45,38,27,24,158,123,146,133,16,23,11,19,0.4,0.4
2022-09-11T22:00:00,2200A,122.0392,46.0656,兴安盟,胜华新制药厂,,39,39,45,23,25,131,90,124,111,12,16,6,5,0.4,0.5
2022-09-11T22:00:00,2201A,121.9504,46.0741,兴安盟,科右前旗环保局,细颗粒物(PM2.5),59,54,46,42,33,142,92,136,123,10,13,4,4,0.3,0.4
2022-09-11T22:00:00,2202A,116.1042,43.9317,锡林郭勒盟,市环保监测站,,24,24,18,8,6,130,76,121,102,3,4,8,9,0.2,0.2
2022-09-11T22:00:00,2203A,116.0781,43.9311,锡林郭勒盟,市政府,,,13,7,,,129,64,118,96,14,7,8,8,0.2,0.2
2022-09-11T22:00:00,2204A,105.6467,38.8363,阿拉善盟,西城区西花园(对照点),,41,34,30,24,14,165,130,157,152,6,9,7,8,0.3,0.4
2022-09-11T22:00:00,2205A,105.6985,38.8411,阿拉善盟,蒙二幼,,49,24,26,34,23,163,128,157,151,7,6,11,11,0.3,0.3
2022-09-11T22:00:00,2206A,105.724,38.8516,阿拉善盟,环保局新楼,,43,30,17,13,15,169,135,156,153,6,8,10,10,0.3,0.3
2022-09-11T22:00:00,2207A,121.6094,41.998,阜新市,工业园区,,45,45,42,16,18,120,61,114,92,28,21,26,13,0.7,0.7
2022-09-11T22:00:00,2208A,121.6697,42.0279,阜新市,长青街,,30,26,42,15,25,126,95,118,106,16,20,9,12,0.5,0.7
2022-09-11T22:00:00,2209A,121.6673,42.0705,阜新市,农业园区,,,,56,8,21,117,94,110,103,14,15,9,15,0.5,0.7
2022-09-11T22:00:00,2210A,121.6717,42.0224,阜新市,东苑,,32,32,54,15,23,117,97,110,99,10,23,8,12,0.5,0.7
2022-09-11T22:00:00,2211A,121.6506,42.0498,阜新市,玉龙新城,,34,34,39,16,18,126,85,118,106,17,18,13,11,0.4,0.6
2022-09-11T22:00:00,2212A,123.2,41.1953,辽阳市,宏伟区,,25,25,22,11,10,86,73,82,75,5,7,8,7,0.6,0.5
2022-09-11T22:00:00,2213A,123.1683,41.2495,辽阳市,新华园,,47,47,42,16,16,91,55,82,64,20,20,6,8,0.6,0.8
2022-09-11T22:00:00,2214A,123.2354,41.2639,辽阳市,滨河路,颗粒物(PM10),51,52,36,10,18,98,60,92,70,22,20,5,6,0.7,0.9
2022-09-11T22:00:00,2215A,123.149,41.2991,辽阳市,铁西工业园,颗粒物(PM10),52,54,45,23,23,150,43,117,90,30,24,8,9,0.7,0.8
2022-09-11T22:00:00,2216A,123.8139,42.3022,铁岭市,汇工街西,颗粒物(PM10),77,104,49,32,23,184,49,151,123,47,22,15,16,0.6,0.5
2022-09-11T22:00:00,2217A,123.8649,42.2923,铁岭市,水上乐园,颗粒物(PM10),57,64,36,29,17,163,76,140,128,33,28,10,11,0.4,0.3
2022-09-11T22:00:00,2218A,123.8486,42.2867,铁岭市,银州路东段,,45,34,19,31,14,162,77,134,126,26,18,5,6,1.0,0.9
2022-09-11T22:00:00,2219A,123.7153,42.2217,铁岭市,金沙江路北,颗粒物(PM10),57,63,38,24,18,176,25,142,109,66,25,4,6,0.6,0.5
2022-09-11T22:00:00,2220A,120.4318,41.5881,朝阳市,西梁,,30,19,35,10,20,116,96,105,101,7,14,7,9,0.6,0.8
2022-09-11T22:00:00,2221A,120.4521,41.5646,朝阳市,河畔小区,,33,19,30,10,19,116,103,110,108,5,11,8,9,0.4,0.6
2022-09-11T22:00:00,2222A,120.4176,41.5648,朝阳市,八里堡,,29,22,39,10,21,115,90,103,94,9,13,5,6,0.6,0.7
2022-09-11T22:00:00,2223A,120.3806,41.5969,朝阳市,农业园区,,25,25,32,13,24,117,43,106,90,31,14,6,9,0.6,0.8
2022-09-11T22:00:00,2225A,124.4002,43.1713,四平市,一商场,颗粒物(PM10),65,79,47,33,21,118,67,111,86,17,24,6,7,0.5,0.6
2022-09-11T22:00:00,2226A,124.388,43.193,四平市,境园,颗粒物(PM10),56,61,44,18,17,113,60,108,79,19,20,4,4,0.5,0.5
2022-09-11T22:00:00,2227A,125.1358,42.8845,辽源市,环保局,,26,20,32,13,20,115,81,109,101,6,9,6,7,0.4,0.5
2022-09-11T22:00:00,2229A,125.9358,41.7173,通化市,光明,,30,30,27,16,12,113,14,78,50,29,18,16,12,0.6,0.6
2022-09-11T22:00:00,2230A,125.9446,41.7325,通化市,铁路,,45,45,29,18,14,116,16,79,47,27,18,10,12,0.5,0.6
2022-09-11T22:00:00,2231A,126.4219,41.9171,白山市,喜丰,,44,44,49,11,18,116,22,99,68,30,17,13,10,0.8,1.1
2022-09-11T22:00:00,2232A,126.4077,41.9419,白山市,环保局,,37,37,40,6,18,109,34,96,70,19,16,12,12,0.6,0.8
2022-09-11T22:00:00,2233A,124.8006,45.1214,松原市,江南,,24,16,33,16,26,130,75,124,88,11,12,4,6,0.5,0.7
2022-09-11T22:00:00,2234A,124.7965,45.1722,松原市,江北,,35,25,44,24,24,156,89,133,100,9,11,4,7,0.1,0.5
2022-09-11T22:00:00,2235A,122.7911,45.6077,白城市,洮北区环保局,,31,31,47,14,29,117,63,111,88,18,10,5,4,0.3,0.5
2022-09-11T22:00:00,2236A,122.8738,45.5725,白城市,市环保局,,38,38,46,12,19,115,51,115,68,20,14,3,4,0.4,0.6
2022-09-11T22:00:00,2237A,129.47,42.8883,延边朝鲜族自治州,妇幼医院,,28,23,24,19,16,82,43,67,54,15,11,8,8,0.5,0.5
2022-09-11T22:00:00,2238A,129.5055,42.9108,延边朝鲜族自治州,延边医院,,26,26,22,12,11,73,50,65,56,13,11,8,8,0.5,0.5
2022-09-11T22:00:00,2239A,129.3964,42.8881,延边朝鲜族自治州,朝阳川镇医院,,25,25,22,10,8,87,38,68,53,11,12,6,6,0.5,0.5
2022-09-11T22:00:00,2240A,130.9762,45.3001,鸡西市,环保局,,44,44,51,14,17,92,19,64,35,20,19,3,5,0.4,0.5
2022-09-11T22:00:00,2243A,130.9429,45.3039,鸡西市,第一中学,,30,30,44,10,13,104,28,76,42,15,13,4,5,0.3,0.4
2022-09-11T22:00:00,2244A,130.2537,47.3416,鹤岗市,哈啤分公司,,34,34,27,15,11,100,49,80,70,10,20,6,10,0.2,0.3
2022-09-11T22:00:00,2245A,130.2684,47.3086,鹤岗市,斯达机电,颗粒物(PM10),67,83,30,14,9,114,31,96,88,31,13,4,4,0.7,0.4
2022-09-11T22:00:00,2246A,130.3114,47.3388,鹤岗市,东山纸板厂,颗粒物(PM10),84,118,74,24,14,87,5,70,43,25,18,9,9,1.1,0.7
2022-09-11T22:00:00,2247A,130.1097,47.3382,鹤岗市,五号水库(对照点),,12,8,14,8,7,99,26,81,51,7,6,3,4,0.4,0.4
2022-09-11T22:00:00,2248A,131.1511,46.6937,双鸭山市,双合村,颗粒物(PM10),73,95,54,35,24,107,15,90,49,36,19,26,23,3.8,1.6
2022-09-11T22:00:00,2249A,131.1652,46.6191,双鸭山市,南小市,,36,36,42,23,11,117,39,98,65,8,11,4,4,0.2,0.1
2022-09-11T22:00:00,2250A,131.1524,46.6554,双鸭山市,环保局,,46,46,29,14,8,100,25,87,57,24,18,4,5,0.5,0.4
2022-09-11T22:00:00,2251A,131.12,46.5656,双鸭山市,苗圃(对照点),,33,33,14,18,11,119,32,101,68,2,2,3,3,0.4,0.4
2022-09-11T22:00:00,2252A,128.5159,47.4311,伊春市,环保局,细颗粒物(PM2.5),52,46,24,36,19,121,14,92,54,21,15,6,8,0.6,0.6
2022-09-11T22:00:00,2253A,128.9102,47.7412,伊春市,电力嘉园,,37,37,21,12,11,125,2,96,44,20,15,4,9,0.6,0.6
2022-09-11T22:00:00,2254A,129.5029,48.471,伊春市,汤旺河国家公园(对照点),,32,32,29,14,10,107,0,91,35,2,2,6,7,0.3,0.3
2022-09-11T22:00:00,2255A,130.2751,46.8028,佳木斯市,佳纺,颗粒物(PM10),83,116,55,47,18,110,4,93,52,41,22,4,4,0.6,0.4
2022-09-11T22:00:00,2256A,130.3995,46.8307,佳木斯市,发电厂,颗粒物(PM10),92,134,50,40,20,109,1,94,52,47,20,2,2,0.8,0.4
2022-09-11T22:00:00,2257A,130.3258,46.7975,佳木斯市,环保局,颗粒物(PM10),82,114,48,44,20,99,2,86,45,51,30,4,3,1.3,0.7
2022-09-11T22:00:00,2258A,130.3648,46.8032,佳木斯市,十一中,颗粒物(PM10),60,70,50,40,25,97,13,87,55,59,33,5,5,1.1,0.7
2022-09-11T22:00:00,2259A,130.3794,46.7588,佳木斯市,四丰(对照点),,33,33,21,22,13,124,101,107,100,4,6,1,1,0.4,0.3
2022-09-11T22:00:00,2262A,131.0518,45.8751,七台河市,新一中(对照点),,18,18,20,8,9,119,36,98,70,14,12,7,8,0.6,0.6
2022-09-11T22:00:00,2263A,127.4833,50.2524,黑河市,交通局,,25,25,26,2,11,96,28,65,35,9,11,4,6,0.5,0.5
2022-09-11T22:00:00,2264A,127.5144,50.2341,黑河市,环保局,,34,34,16,10,11,95,43,75,40,11,13,5,11,0.5,0.5
2022-09-11T22:00:00,2265A,127.5291,50.2472,黑河市,大黑河岛(对照点),,42,42,28,16,10,83,42,67,34,4,3,5,6,0.3,0.2
2022-09-11T22:00:00,2266A,126.9785,46.6365,绥化市,人和东街,,50,50,44,25,23,176,102,148,117,15,12,10,10,0.9,0.8
2022-09-11T22:00:00,2267A,126.964,46.6528,绥化市,党政办公中心,,45,45,43,26,25,177,125,152,132,10,10,12,17,0.8,0.7
2022-09-11T22:00:00,2269A,124.1069,50.4097,大兴安岭地区,科技局,,14,5,9,9,12,83,42,49,44,5,7,4,4,0.3,0.3
2022-09-11T22:00:00,2270A,117.396,32.939,蚌埠市,工人疗养院,颗粒物(PM10),60,70,44,34,27,139,34,130,104,81,15,15,13,0.4,0.3
2022-09-11T22:00:00,2271A,117.3605,32.9427,蚌埠市,百货大楼,颗粒物(PM10),55,60,41,30,18,137,48,129,109,69,21,12,10,0.4,0.4
2022-09-11T22:00:00,2273A,117.4185,32.8911,蚌埠市,蚌埠学院,颗粒物(PM10),62,73,43,24,23,139,73,133,109,38,30,7,12,0.2,0.2
2022-09-11T22:00:00,2274A,117.3533,32.9673,蚌埠市,淮上区政府,颗粒物(PM10),53,56,44,27,23,140,91,131,121,16,10,8,9,0.4,0.4
2022-09-11T22:00:00,2275A,117.3145,32.8977,蚌埠市,高新区,,48,48,38,24,26,141,86,130,118,28,26,7,10,0.2,0.2
2022-09-11T22:00:00,2277A,116.8305,32.7727,淮南市,潘集区政府,,50,50,40,24,24,143,96,138,124,18,12,15,12,0.3,0.3
2022-09-11T22:00:00,2278A,117.0067,32.6524,淮南市,师范学院,颗粒物(PM10),60,70,47,19,29,160,76,139,108,25,16,12,11,0.6,0.5
2022-09-11T22:00:00,2279A,116.8569,32.5951,淮南市,谢家集区政府,颗粒物(PM10),64,78,41,28,18,154,68,140,114,40,18,12,12,0.4,0.4
2022-09-11T22:00:00,2280A,116.8281,32.633,淮南市,八公山区政府,,39,39,32,27,21,147,75,138,118,28,16,8,10,0.3,0.3
2022-09-11T22:00:00,2281A,116.6325,32.6201,淮南市,焦岗湖风景区管理处(对照点),,,61,40,27,18,130,52,124,100,56,26,,9,0.3,0.3
2022-09-11T22:00:00,2282A,116.8004,33.975,淮北市,监测站,颗粒物(PM10),69,87,53,49,29,180,124,173,157,18,12,8,8,0.8,0.7
2022-09-11T22:00:00,2283A,116.8091,33.9007,淮北市,烈山区政府,颗粒物(PM10),62,73,53,38,31,205,133,197,175,12,12,6,8,0.7,0.7
2022-09-11T22:00:00,2284A,116.7856,33.9477,淮北市,职业技术学院,颗粒物(PM10),63,76,57,44,32,172,122,166,151,20,16,7,8,0.7,0.6
2022-09-11T22:00:00,2285A,117.8177,30.9412,铜陵市,市第四中学,颗粒物(PM10),53,56,47,30,25,200,108,185,163,29,23,5,6,0.5,0.5
2022-09-11T22:00:00,2286A,117.8059,30.9273,铜陵市,市公路局,颗粒物(PM10),60,70,47,28,30,194,115,184,163,20,18,8,9,0.5,0.5
2022-09-11T22:00:00,2287A,117.7807,30.9413,铜陵市,市新民污水厂,,47,47,47,30,25,191,109,182,160,25,40,6,9,0.4,0.4
2022-09-11T22:00:00,2288A,117.7439,30.8792,铜陵市,市第九中学,颗粒物(PM10),56,61,65,26,27,184,134,167,155,21,42,14,17,0.5,0.6
2022-09-11T22:00:00,2289A,117.846,30.9413,铜陵市,车站新区,,,,43,,23,201,85,184,160,,20,5,6,0.5,0.5
2022-09-11T22:00:00,2290A,117.8483,30.97,铜陵市,市职教基地,颗粒物(PM10),64,77,46,40,25,207,102,189,162,22,16,5,7,0.7,0.7
2022-09-11T22:00:00,2291A,117.0809,30.5177,安庆市,环科院,细颗粒物(PM2.5),65,70,41,47,26,201,122,191,170,38,15,8,9,0.8,0.7
2022-09-11T22:00:00,2292A,117.0331,30.5119,安庆市,马山宾馆,细颗粒物(PM2.5),59,58,42,42,24,193,155,186,176,16,14,6,8,0.7,0.6
2022-09-11T22:00:00,2294A,116.9896,30.6145,安庆市,安庆大学,,50,45,36,32,24,184,157,172,167,13,13,8,8,0.6,0.6
2022-09-11T22:00:00,2295A,118.2903,29.6963,黄山市,延安路89号,,42,28,27,20,14,169,134,159,148,11,10,9,8,0.3,0.3
2022-09-11T22:00:00,2296A,118.327,29.7178,黄山市,黄山东路89号,,40,36,28,16,15,169,127,155,137,13,12,8,7,0.2,0.1
2022-09-11T22:00:00,2297A,118.1371,30.2756,黄山市,黄山区政府5号楼,,44,44,41,24,21,181,73,166,138,10,8,7,8,0.6,0.4
2022-09-11T22:00:00,2298A,118.3093,32.3153,滁州市,老年大学,,30,23,39,21,22,157,88,139,110,16,16,6,7,0.2,0.3
2022-09-11T22:00:00,2299A,118.3244,32.2786,滁州市,人大宾馆,,42,42,43,19,21,159,93,141,109,18,22,4,5,0.2,0.3
2022-09-11T22:00:00,2301A,115.8277,32.8929,阜阳市,市监测站,颗粒物(PM10),53,56,48,34,26,167,84,160,142,42,19,9,10,0.7,0.5
2022-09-11T22:00:00,2303A,115.8554,32.8605,阜阳市,开发区,颗粒物(PM10),72,93,57,48,32,162,86,155,137,34,20,6,8,0.8,0.6
2022-09-11T22:00:00,2306A,116.989,33.6306,宿州市,火车站,,,,,,,,,,,,,,,,
2022-09-11T22:00:00,2307A,116.5079,31.737,六安市,监测大楼,,47,47,37,18,16,143,118,139,133,14,14,6,7,0.3,0.4
2022-09-11T22:00:00,2308A,116.4738,31.7643,六安市,皖西学院,,50,50,39,20,14,149,134,146,142,8,11,5,6,0.4,0.4
2022-09-11T22:00:00,2309A,116.4996,31.7905,六安市,朝阳厂,,42,36,30,19,15,146,132,142,138,8,10,11,13,0.4,0.4
2022-09-11T22:00:00,2310A,116.5567,31.7886,六安市,开发区,颗粒物(PM10),52,53,37,28,21,140,93,136,125,24,12,8,10,0.5,0.4
2022-09-11T22:00:00,2311A,115.8072,33.8399,亳州市,污水处理厂,颗粒物(PM10),62,74,52,42,32,192,84,179,153,23,11,7,8,0.5,0.4
2022-09-11T22:00:00,2312A,115.7789,33.8518,亳州市,三国揽胜宫,,,,50,,31,120,,106,,,9,,7,,0.6
2022-09-11T22:00:00,2314A,117.47,30.6618,池州市,池州学院,"颗粒物(PM10),细颗粒物(PM2.5)",59,68,45,42,28,198,125,184,166,22,19,6,9,0.7,0.7
2022-09-11T22:00:00,2315A,117.4974,30.6539,池州市,平天湖(对照点),,,,,,,,,,,,,,,,
2022-09-11T22:00:00,2316A,118.7581,30.9454,宣城市,鳌峰子站,颗粒物(PM10),55,60,42,34,28,156,98,149,136,29,15,5,9,0.5,0.4
2022-09-11T22:00:00,2317A,118.7385,30.9743,宣城市,敬亭山子站,,43,43,38,27,21,160,106,153,136,20,15,5,9,0.3,0.3
2022-09-11T22:00:00,2318A,118.7173,30.9427,宣城市,开发区子站,颗粒物(PM10),51,52,41,31,26,162,113,156,140,22,16,6,9,0.4,0.3
2022-09-11T22:00:00,2319A,119.0141,25.4325,莆田市,荔城区仓后路,,37,19,36,8,17,166,118,151,141,10,9,5,5,0.7,0.8
2022-09-11T22:00:00,2320A,119.0015,25.4553,莆田市,莆田市监测站,,,20,36,18,21,169,,153,144,3,4,6,7,0.5,0.6
