timepoint,stationcode,longitude,latitude,area,positionname,primarypollutant,aqi,pm10,pm10_24h,pm2_5,pm2_5_24h,o3,o3_24h,o3_8h,o3_8h_24h,no2,no2_24h,so2,so2_24h,co,co_24h
2025-04-14T1500,2566A,102.1879,31.914,阿坝藏族羌族自治州,州农科所,,30,9,20,3,7,93,,81,81,4,7,11,15,0.4,0.5
2025-04-14T1500,2568A,102.2502,31.8896,阿坝藏族羌族自治州,马师校,,35,,18,6,15,110,,84,84,5,9,5,5,0.4,0.4
2025-04-14T1500,3994A,102.2165,31.9024,阿坝藏族羌族自治州,马尔康中学西区,,36,14,16,3,9,113,,90,90,7,5,4,4,0.5,0.2
2025-04-14T1500,2695A,80.292,41.1694,阿克苏地区,电视台,颗粒物(PM10),441,541,511,148,151,101,,62,62,11,21,3,6,0.4,0.4
2025-04-14T1500,2696A,80.2613,41.1551,阿克苏地区,艺术中心,颗粒物(PM10),500,606,526,158,147,103,,56,56,7,28,4,4,0.4,0.3
2025-04-14T1500,2204A,105.6467,38.8363,阿拉善盟,西城区西花园,,33,20,42,3,9,104,,91,91,10,10,19,19,0.8,0.8
2025-04-14T1500,2205A,105.6985,38.8411,阿拉善盟,蒙二幼,,30,12,42,3,11,94,,86,86,4,5,6,6,0.4,0.5
2025-04-14T1500,2206A,105.724,38.8516,阿拉善盟,环保局新楼,细颗粒物(PM2.5),85,,29,63,10,97,,96,94,3,3,9,9,0.6,0.5
2025-04-14T1500,2708A,88.1264,47.8517,阿勒泰地区,市站,,33,33,20,11,5,103,,100,88,5,6,2,2,0.2,0.2
2025-04-14T1500,2630A,80.1161,32.5,阿里地区,阿里监测站,,39,11,12,3,7,122,,98,98,4,7,7,6,0.4,0.4
2025-04-14T1500,3192A,80.0903,32.5028,阿里地区,阿里藏医院,,41,10,17,3,10,130,,102,96,2,7,6,8,0.4,0.5
2025-04-14T1500,2642A,109.0318,32.6537,安康市,香溪洞,颗粒物(PM10),66,81,220,30,72,106,,86,86,3,6,7,7,0.4,0.5
2025-04-14T1500,2644A,109.0072,32.6975,安康市,汉滨区检察院,细颗粒物(PM2.5),59,51,217,42,91,105,,77,77,4,19,8,10,0.3,0.4
2025-04-14T1500,4054A,109.0325,32.6913,安康市,市邮政管理局,颗粒物(PM10),53,55,220,7,61,109,,72,72,4,21,6,9,0.3,0.5
2025-04-14T1500,2291A,117.0809,30.5177,安庆市,环科院,颗粒物(PM10),87,124,207,31,54,137,,93,93,7,23,9,9,0.4,0.5
2025-04-14T1500,2292A,117.0331,30.5119,安庆市,马山宾馆,颗粒物(PM10),87,123,195,37,61,139,,91,91,8,34,5,6,0.3,0.3
2025-04-14T1500,2294A,116.9896,30.6145,安庆市,安庆大学,颗粒物(PM10),79,108,205,30,54,144,,102,102,4,14,6,6,0.2,0.3
2025-04-14T1500,3173A,117.0598,30.5351,安庆市,市人大,颗粒物(PM10),83,115,206,31,54,141,,102,102,2,18,8,10,0.2,0.3
2025-04-14T1500,3122A,105.9606,26.2611,安顺市,伍家关,颗粒物(PM10),69,87,195,49,68,173,,127,127,3,9,5,8,0.2,0.3
2025-04-14T1500,3123A,105.9408,26.2431,安顺市,凤凰山,颗粒物(PM10),78,106,190,34,69,141,,103,103,6,21,7,13,0.3,0.4
2025-04-14T1500,3124A,105.9439,26.2564,安顺市,金钟山,颗粒物(PM10),80,110,204,31,64,137,,104,104,6,11,7,10,0.4,0.5
2025-04-14T1500,3125A,105.8983,26.2481,安顺市,娄家坡,颗粒物(PM10),70,89,178,35,63,136,,107,107,10,11,8,10,0.6,0.6
2025-04-14T1500,1818A,114.4839,36.0621,安阳市,棉研所,,,,,,,,,,,,,,,,
2025-04-14T1500,1819A,114.3551,36.1017,安阳市,红庙街,,38,24,57,12,18,121,,96,96,2,10,4,4,0.3,0.4
2025-04-14T1500,1820A,114.361,36.0681,安阳市,银杏小区,,41,21,72,10,23,129,,103,103,3,12,4,5,0.2,0.3
2025-04-14T1500,3141A,114.3922,36.0878,安阳市,信访局,,43,30,60,3,12,136,,110,110,2,13,4,4,0,0.1
2025-04-14T1500,3669A,114.4705,36.0637,安阳市,左辅环卫站,,45,32,74,8,16,143,,115,115,14,22,3,4,0.8,0.8
2025-04-14T1500,3703A,114.2917,36.0949,安阳市,安钢职工学校,,38,38,77,22,23,118,,95,95,9,14,4,4,0.3,0.4
2025-04-14T1500,1748A,123.044,41.1196,鞍山市,深沟寺,,27,22,24,17,16,84,,62,62,11,15,11,11,0.5,0.7
2025-04-14T1500,1749A,123.011,41.0931,鞍山市,太阳城,,28,23,27,18,18,88,,66,66,11,12,4,4,0.7,0.8
2025-04-14T1500,1750A,123.0485,41.1442,鞍山市,太平,,40,40,31,20,16,80,,60,60,9,13,9,9,0.5,0.9
2025-04-14T1500,1751A,122.9642,41.0971,鞍山市,铁西三道街,,30,30,28,20,20,83,,61,61,18,19,9,6,0.9,0.8
2025-04-14T1500,1753A,123.022,41.0821,鞍山市,明达新区,,28,23,25,18,17,88,,66,66,10,12,7,7,0.5,0.6
2025-04-14T1500,1754A,123.1289,41.0228,鞍山市,千山,,,,17,,8,,,55,,,14,,3,,0.9
2025-04-14T1500,4201A,122.9446,41.0826,鞍山市,兴盛南路290号,,28,28,30,17,19,87,,61,61,16,21,8,10,0.6,0.9
2025-04-14T1500,2195A,107.4212,40.761,巴彦淖尔市,附二中,,38,28,53,9,22,119,,85,85,4,13,8,8,0.4,0.4
2025-04-14T1500,2196A,107.37,40.7372,巴彦淖尔市,市环保大楼,,38,21,45,10,17,119,,87,87,5,12,6,6,0.2,0.3
2025-04-14T1500,1956A,86.1472,41.7538,巴音郭楞蒙古自治州,孔雀公园,颗粒物(PM10),229,370,345,89,75,102,,50,50,5,31,6,6,0.2,0.3
2025-04-14T1500,1957A,86.1972,41.7166,巴音郭楞蒙古自治州,棉纺厂,颗粒物(PM10),334,447,402,99,75,101,,58,58,5,20,2,3,0.2,0.3
2025-04-14T1500,1958A,86.2357,41.7173,巴音郭楞蒙古自治州,经济开发区,颗粒物(PM10),348,458,352,87,67,104,,65,65,6,17,5,5,0.4,0.3
2025-04-14T1500,2914A,106.7677,31.8794,巴中市,苏山坪,细颗粒物(PM2.5),129,128,248,98,98,114,,87,87,6,12,2,4,0.2,0.3
2025-04-14T1500,3181A,106.7768,31.8526,巴中市,市五中,颗粒物(PM10),87,123,237,61,74,114,,70,70,6,22,5,6,0.5,0.7
2025-04-14T1500,3183A,106.7418,31.8654,巴中市,圣泉水务公司,颗粒物(PM10),85,119,194,45,66,117,,81,81,3,26,3,3,0.5,0.7
2025-04-14T1500,3616A,106.7616,31.8344,巴中市,市中心医院,颗粒物(PM10),84,118,220,58,83,116,,75,75,5,25,6,6,0.4,0.5
2025-04-14T1500,2235A,122.7911,45.6077,白城市,洮北区环保局,,30,15,21,14,10,96,,86,84,9,8,4,3,0.2,0.2
2025-04-14T1500,2236A,122.8738,45.5725,白城市,市环保局,,30,14,10,13,11,95,,85,82,4,3,6,6,0.5,0.4
2025-04-14T1500,2231A,126.4219,41.9171,白山市,喜丰,,,12,24,8,12,88,,82,82,,8,13,12,0.9,1.1
2025-04-14T1500,2232A,126.4077,41.9419,白山市,环保局,,28,18,31,6,10,89,,78,78,6,11,5,6,0.9,1.1
2025-04-14T1500,2647A,104.1724,36.5446,白银市,第三小学,,,50,125,,32,118,,89,89,5,8,21,11,0.3,0.3
2025-04-14T1500,2648A,104.1465,36.5482,白银市,动力公司,颗粒物(PM10),52,54,111,21,36,121,,92,92,6,9,16,7,0.4,0.4
2025-04-14T1500,2512A,106.6103,23.9011,百色市,市监测站,颗粒物(PM10),153,255,258,76,79,122,,79,79,11,21,10,10,0.3,0.3
2025-04-14T1500,2513A,106.6538,23.8859,百色市,市中心血站,颗粒物(PM10),172,293,308,92,91,136,,87,87,13,26,17,9,0.5,0.5
2025-04-14T1500,3406A,106.6085,23.8798,百色市,祈福高中,颗粒物(PM10),171,292,289,79,80,122,,79,79,12,24,11,7,0.3,0.3
2025-04-14T1500,2270A,117.396,32.939,蚌埠市,工人疗养院,颗粒物(PM10),55,60,126,19,32,119,,99,99,8,13,4,5,0.5,0.5
2025-04-14T1500,2271A,117.3605,32.9427,蚌埠市,百货大楼,颗粒物(PM10),62,73,133,35,45,116,,96,96,14,19,5,6,0.3,0.4
2025-04-14T1500,2273A,117.4185,32.8911,蚌埠市,蚌埠学院,颗粒物(PM10),54,58,128,10,27,122,,103,103,8,12,3,4,0.4,0.4
2025-04-14T1500,2274A,117.3533,32.9673,蚌埠市,淮上区政府,,,100,142,24,38,113,,95,95,10,18,5,6,,0.3
2025-04-14T1500,2275A,117.3145,32.8977,蚌埠市,高新区,颗粒物(PM10),52,53,131,13,39,119,,100,100,8,16,4,6,0.2,0.4
2025-04-14T1500,3715A,117.3092,32.9314,蚌埠市,蚌埠田家炳中学,颗粒物(PM10),65,79,145,11,30,120,,100,100,16,23,5,6,0.3,0.3
2025-04-14T1500,1585A,109.8756,40.6532,包头市,市环境监测站,,34,34,42,7,15,100,,85,85,7,10,7,10,0.3,0.5
2025-04-14T1500,1587A,109.9991,40.5842,包头市,包头八中,,33,31,64,11,10,105,,77,77,9,17,10,13,0.3,0.5
2025-04-14T1500,1588A,109.8538,40.6821,包头市,青山宾馆,,32,24,30,14,7,101,,86,86,6,10,9,9,0.4,0.4
2025-04-14T1500,1589A,109.8642,40.6288,包头市,惠龙物流,,34,28,39,14,19,108,,84,84,7,12,8,15,0.4,0.5
2025-04-14T1500,1590A,110.0377,40.5546,包头市,东河鸿龙湾,,34,24,39,14,7,106,,83,83,9,19,8,11,0.2,0.3
2025-04-14T1500,3283A,109.9154,40.5685,包头市,滨河大厦,,34,19,35,3,9,106,,78,78,4,20,10,14,0.4,0.6
2025-04-14T1500,3419A,109.9447,40.6261,包头市,包头市委党校,,34,28,39,9,7,107,,83,83,4,11,7,9,0.7,0.5
2025-04-14T1500,3683A,109.8331,40.6576,包头市,昆区政府,,33,21,36,12,8,104,,81,81,9,13,6,7,0.6,0.6
2025-04-14T1500,1930A,107.185,34.3063,宝鸡市,庙沟村,,35,27,117,8,30,110,,96,96,1,3,6,6,0.4,0.4
2025-04-14T1500,1931A,107.0708,34.3017,宝鸡市,竹园沟,,46,46,111,16,39,110,,89,89,4,9,7,6,0.4,0.4
2025-04-14T1500,1932A,107.1906,34.3672,宝鸡市,三陆医院,,35,32,154,3,49,111,,78,78,2,23,4,5,0.4,0.5
2025-04-14T1500,1933A,107.1431,34.3547,宝鸡市,监测站,颗粒物(PM10),85,119,158,12,60,102,,80,80,7,14,8,7,0.2,0.5
2025-04-14T1500,1934A,107.1186,34.3739,宝鸡市,技工学校,,46,46,150,9,44,108,,84,84,7,11,5,5,0.5,0.5
2025-04-14T1500,1935A,107.3906,34.3528,宝鸡市,陈仓区环保局家属楼,,35,28,136,16,38,112,,80,80,6,16,7,15,0.3,0.3
2025-04-14T1500,1936A,107.2058,34.3497,宝鸡市,文理学院,,35,27,154,18,66,110,,84,84,5,12,5,6,0.3,0.3
2025-04-14T1500,1937A,107.2386,34.3622,宝鸡市,三迪小学,,35,35,157,12,49,111,,80,80,7,15,5,6,0.6,0.6
2025-04-14T1500,1051A,115.493,38.8632,保定市,游泳馆,,41,30,58,15,19,129,,117,117,6,9,1,1,0.2,0.2
2025-04-14T1500,1052A,115.5213,38.8959,保定市,华电二区,,41,24,53,7,22,130,,117,117,1,2,3,3,0,0
2025-04-14T1500,1053A,115.4713,38.9108,保定市,接待中心,,39,30,60,13,17,124,,114,114,5,5,1,2,0.0,0
2025-04-14T1500,1054A,115.4612,38.8416,保定市,地表水厂,,41,23,76,16,18,130,,119,119,11,11,1,2,0.3,0.4
2025-04-14T1500,3581A,115.31981,38.95208,保定市,满城区生态环境分局,,39,17,60,3,14,122,,120,120,5,5,3,2,0.1,0.1
2025-04-14T1500,3582A,115.47694,38.76408,保定市,清苑区第二中学,,42,29,82,8,18,132,,118,118,5,8,3,3,0.3,0.3
2025-04-14T1500,3583A,115.62909,39.02311,保定市,徐水物探局,,40,18,62,3,18,127,,116,116,4,7,3,3,0,0
2025-04-14T1500,4004A,115.4202,38.8656,保定市,双鹰农机,,,38,70,11,24,122,,113,113,2,5,2,2,,0.1
2025-04-14T1500,4034A,115.5150,38.8590,保定市,植保所站,,40,20,64,9,25,127,,113,113,2,4,3,3,0.4,0.4
2025-04-14T1500,2594A,99.1678,25.1081,保山市,市环境监测站,,40,30,29,28,20,113,,71,71,8,12,12,11,0.5,0.5
2025-04-14T1500,2595A,99.1711,25.1328,保山市,市环保局,,38,32,28,13,13,121,,86,86,7,8,6,6,0.4,0.5
2025-04-14T1500,1866A,109.2262,21.588,北海市,牛尾岭水库,颗粒物(PM10),154,258,240,69,71,133,,80,80,,29,7,7,0.6,0.6
2025-04-14T1500,1867A,109.1436,21.4086,北海市,海滩公园,颗粒物(PM10),228,369,355,78,82,152,,108,108,18,22,11,11,0.6,0.5
2025-04-14T1500,1868A,109.0981,21.4661,北海市,新市环保局,颗粒物(PM10),223,366,354,95,92,148,,90,90,18,23,11,10,0.6,0.4
2025-04-14T1500,1869A,109.1778,21.5233,北海市,北海工业园,颗粒物(PM10),209,356,346,95,99,159,,97,97,12,23,14,14,0.5,0.5
2025-04-14T1500,3400A,109.1911,21.4415,北海市,龙潭自来水厂,颗粒物(PM10),230,371,329,96,96,154,,105,105,16,24,12,12,0.3,0.3
2025-04-14T1500,1001A,116.3621,39.8784,北京市,万寿西宫,,36,30,76,17,21,115,,115,115,8,9,6,6,0.5,0.6
2025-04-14T1500,1002A,116.2202,40.2915,北京市,定陵,,,,,,,,,,,,,,,,
2025-04-14T1500,1003A,116.4174,39.9289,北京市,东四,,35,35,81,11,19,106,,107,107,3,6,6,6,0.4,0.3
2025-04-14T1500,1004A,116.4072,39.8863,北京市,天坛,,37,37,74,17,22,102,,104,104,7,8,3,3,0.4,0.4
2025-04-14T1500,1005A,116.462,39.9365,北京市,农展馆,,35,34,79,24,24,108,,110,110,5,6,6,6,0.3,0.3
2025-04-14T1500,1006A,116.3392,39.9295,北京市,官园,,31,30,77,14,20,97,,97,97,4,4,6,6,0.3,0.3
2025-04-14T1500,1007A,116.2878,39.9611,北京市,海淀万柳,,29,28,74,17,23,90,,92,92,8,9,4,3,0.5,0.5
2025-04-14T1500,1008A,116.6636,40.135,北京市,顺义新城,,41,34,88,18,20,130,,114,114,3,2,5,5,0.3,0.3
2025-04-14T1500,1009A,116.6275,40.3275,北京市,怀柔镇,颗粒物(PM10),53,56,84,32,32,104,,102,102,2,4,3,2,0.3,0.3
2025-04-14T1500,1010A,116.2296,40.217,北京市,昌平镇,,30,25,73,9,18,95,,101,101,4,5,1,2,0.5,0.5
2025-04-14T1500,1011A,116.3966,39.9821,北京市,奥体中心,,31,31,77,18,24,96,,101,101,6,8,3,3,0.3,0.3
2025-04-14T1500,3281A,115.9718,40.4529,北京市,延庆夏都,,34,34,62,14,19,93,,112,109,3,3,5,5,0.3,0.3
2025-04-14T1500,3418A,116.8336,40.4095,北京市,密云新城,,43,43,68,27,21,105,,105,105,7,4,3,2,0.3,0.3
2025-04-14T1500,3671A,116.088,39.9726,北京市,门头沟三家店,颗粒物(PM10),61,72,104,13,23,82,,87,87,6,3,3,4,0.2,0.3
2025-04-14T1500,3672A,116.1541,39.8204,北京市,丰台云岗,,33,24,78,19,27,103,,109,109,2,2,2,2,0.2,0.2
2025-04-14T1500,3673A,116.6804,39.9081,北京市,通州东关,,42,42,117,22,27,111,,106,106,10,2,4,4,0.4,0.5
2025-04-14T1500,3674A,115.9577,39.7603,北京市,房山燕山,,29,21,78,12,21,91,,102,102,3,2,4,4,0.3,0.3
2025-04-14T1500,3675A,116.4672,39.7733,北京市,大兴旧宫,,35,35,70,19,25,108,,107,107,2,3,1,3,0.1,0.1
2025-04-14T1500,3694A,115.986,40.4563,北京市,延庆石河营,,33,33,65,13,15,93,,112,109,3,3,4,4,0.3,0.3
2025-04-14T1500,3695A,116.6151,40.3053,北京市,怀柔新城,,34,34,76,14,18,104,,102,102,2,2,1,1,0.4,0.4
2025-04-14T1500,3696A,116.2545,39.8768,北京市,丰台小屯,,33,33,70,12,17,94,,98,98,4,3,2,1,0.2,0.2
2025-04-14T1500,3697A,116.84,40.3844,北京市,密云镇,,43,43,66,21,15,112,,110,110,2,2,4,3,0.3,0.4
2025-04-14T1500,4182A,116.1942,39.9158,北京市,八角北路9号,,32,26,72,14,23,102,,104,104,1,2,3,2,0.0,0.1
2025-04-14T1500,4194A,117.0790,40.1518,北京市,洳河巡河路,,45,45,47,23,11,131,,114,114,4,4,4,2,0.4,0.3
2025-04-14T1500,1761A,123.8275,41.3064,本溪市,大峪,,29,13,24,8,10,91,,72,72,8,15,5,5,0.5,0.5
2025-04-14T1500,1762A,123.7567,41.3325,本溪市,溪湖,,30,13,23,9,16,93,,79,79,13,13,9,6,0.7,0.6
2025-04-14T1500,1763A,123.7169,41.3094,本溪市,彩屯,,,16,24,10,17,91,,71,71,14,18,,9,,0.9
2025-04-14T1500,1764A,123.7669,41.2864,本溪市,东明,,29,22,24,11,14,90,,71,71,12,14,6,6,0.7,0.8
2025-04-14T1500,1765A,123.7992,41.2664,本溪市,新立屯,,30,16,18,7,12,95,,73,73,13,18,7,7,0.5,0.5
2025-04-14T1500,1766A,123.8142,41.3472,本溪市,威宁,,30,15,23,9,14,93,,73,73,2,9,4,4,0.6,0.7
2025-04-14T1500,2587A,105.2864,27.3125,毕节市,八中,颗粒物(PM10),62,73,122,22,41,118,,85,85,5,11,6,8,0.2,0.3
2025-04-14T1500,2588A,105.31,27.2944,毕节市,师专,,,66,126,24,50,138,,100,100,,18,8,10,0.2,0.4
2025-04-14T1500,4263A,105.3688,27.3598,毕节市,工业大道,颗粒物(PM10),72,93,136,26,46,116,,76,76,7,23,10,10,0.2,0.4
2025-04-14T1500,1629A,118.0018,37.3617,滨州市,第二水厂,,39,34,86,7,12,123,,98,98,6,11,6,7,0.0,0
2025-04-14T1500,1630A,117.9776,37.393,滨州市,北中新校,,43,39,67,9,20,135,,106,106,8,11,6,5,0.5,0.6
2025-04-14T1500,3514A,117.9378,37.3956,滨州市,中海酒店,,41,29,66,14,20,130,,104,104,5,8,6,7,0.5,0.5
2025-04-14T1500,3515A,117.9378,37.3553,滨州市,开发区一中,,40,34,92,14,20,126,,98,98,10,16,3,20,0.3,0.3
2025-04-14T1500,3516A,118.0917,37.694,滨州市,金海六路,,41,34,84,3,8,131,,107,107,8,9,6,6,0.4,0.4
2025-04-14T1500,4028A,117.9956,37.3753,滨州市,滨州市西街道办事处,,44,27,76,19,33,140,,112,112,7,10,4,4,0.2,0.2
2025-04-14T1500,2311A,115.8072,33.8399,亳州市,污水处理厂,,,71,101,7,21,124,,106,106,,15,4,4,0.2,0.3
2025-04-14T1500,2312A,115.7789,33.8518,亳州市,三国揽胜宫,颗粒物(PM10),56,62,99,3,18,126,,103,103,12,15,4,4,0.1,0.1
2025-04-14T1500,3332A,115.7633,33.8034,亳州市,亳州学院,颗粒物(PM10),53,55,95,8,18,127,,104,104,9,14,5,4,0.3,0.3
2025-04-14T1500,2693A,82.0485,44.8556,博尔塔拉蒙古自治州,市党校,颗粒物(PM10),109,168,123,43,34,110,,64,64,31,37,3,3,0.4,0.3
2025-04-14T1500,2694A,82.0806,44.8969,博尔塔拉蒙古自治州,市环保局,颗粒物(PM10),107,164,146,24,23,112,,62,62,17,20,2,2,0.3,0.5
2025-04-14T1500,1071A,116.8842,38.2991,沧州市,沧县城建局,,50,50,98,24,25,129,,107,107,8,10,4,2,0.1,0.1
2025-04-14T1500,1072A,116.8584,38.3254,沧州市,电视转播站,,46,46,94,27,30,136,,112,112,10,13,4,5,0.1,0.2
2025-04-14T1500,1073A,116.8709,38.3228,沧州市,市环保局,,,,90,,24,134,,113,113,8,11,6,6,0.3,0.3
2025-04-14T1500,3324A,116.8136,38.3004,沧州市,河北水利电力学院,,48,48,109,10,19,146,,121,121,10,12,5,5,0.2,0.3
2025-04-14T1500,2622A,97.1806,31.1273,昌都市,昌都监测站,,40,6,10,3,7,128,,70,70,5,7,2,2,0.3,0.3
2025-04-14T1500,3719A,97.1714,31.1406,昌都市,昌都会议中心,,41,8,9,3,6,129,,72,72,5,7,2,2,0.1,0.2
2025-04-14T1500,2690A,88.1236,43.8886,昌吉回族自治州,天山天池,颗粒物(PM10),66,81,64,25,17,118,,105,105,4,4,4,4,0.5,0.5
2025-04-14T1500,2692A,87.2717,44.0297,昌吉回族自治州,新区政务中心,颗粒物(PM10),87,124,75,36,20,126,,98,96,8,11,6,7,0.3,0.5
2025-04-14T1500,3613A,87.3095,44.0142,昌吉回族自治州,亚心广场,颗粒物(PM10),97,144,94,39,21,120,,92,90,6,16,7,8,0.2,0.5
2025-04-14T1500,1119A,125.3325,43.9166,长春市,食品厂,,25,18,26,15,20,78,,70,70,15,16,6,7,0.3,0.4
2025-04-14T1500,1120A,125.2863,43.9027,长春市,客车厂,,25,23,20,17,18,70,,60,60,21,21,5,5,0.4,0.4
2025-04-14T1500,1121A,125.2841,43.8463,长春市,邮电学院,,25,17,17,17,17,76,,65,65,18,17,5,5,0.4,0.4
2025-04-14T1500,1122A,125.3716,43.8772,长春市,劳动公园,,24,,20,15,18,76,,64,64,14,17,6,6,0.2,0.3
2025-04-14T1500,1123A,125.3297,43.8805,长春市,园林处,,25,17,20,15,19,77,,67,67,16,15,6,6,0.4,0.5
2025-04-14T1500,1124A,125.4605,43.79,长春市,净月潭,,23,14,13,12,11,72,,68,68,11,14,6,5,0.2,0.2
2025-04-14T1500,1125A,125.7194,43.515,长春市,甩湾子,,,,,,,,,,,,,,,,
2025-04-14T1500,1126A,125.3863,43.8447,长春市,经开区环卫处,,21,19,18,12,13,67,,59,59,15,17,5,5,0.4,0.4
2025-04-14T1500,1127A,125.245,43.7783,长春市,高新区管委会,,23,22,15,16,16,70,,62,62,18,16,7,7,0.4,0.4
2025-04-14T1500,1128A,125.1761,43.8325,长春市,岱山公园,,25,19,20,17,18,76,,57,57,18,22,4,4,0.4,0.4
2025-04-14T1500,1335A,113.0833,28.2325,长沙市,经开区环保局,颗粒物(PM10),138,225,268,52,76,138,,91,91,4,18,6,9,0.3,0.5
2025-04-14T1500,1336A,112.8872,28.2189,长沙市,高开区环保局,颗粒物(PM10),125,199,265,38,66,143,,96,96,4,9,6,8,0.4,0.4
2025-04-14T1500,1337A,113.0792,28.2053,长沙市,马坡岭,颗粒物(PM10),132,214,261,53,76,144,,91,91,6,19,5,7,0.3,0.6
2025-04-14T1500,1338A,112.9394,28.19,长沙市,湖南师范大学,颗粒物(PM10),128,206,260,43,69,136,,86,86,5,16,7,8,0.3,0.4
2025-04-14T1500,1339A,113.0178,28.1322,长沙市,雨花区环保局,颗粒物(PM10),123,196,264,51,81,136,,99,99,,20,6,10,0.3,0.5
2025-04-14T1500,1340A,112.9792,28.2597,长沙市,伍家岭,颗粒物(PM10),130,209,274,45,67,131,,82,82,8,22,4,6,0.2,0.4
2025-04-14T1500,1341A,113.0014,28.1944,长沙市,火车新站,颗粒物(PM10),132,213,272,44,69,140,,90,90,7,19,8,10,0.3,0.5
2025-04-14T1500,1342A,112.9844,28.1178,长沙市,天心区环保局,颗粒物(PM10),117,184,264,48,81,143,,88,88,8,19,5,8,0.2,0.4
2025-04-14T1500,1343A,112.8908,28.1308,长沙市,湖南中医药大学,颗粒物(PM10),124,197,262,46,60,140,,88,88,8,21,5,5,0.2,0.3
2025-04-14T1500,1344A,112.9581,28.3611,长沙市,沙坪,颗粒物(PM10),118,186,245,57,81,114,,78,78,4,14,7,7,0.3,0.5
2025-04-14T1500,1727A,113.1147,36.1547,长治市,清华站,,35,28,45,3,8,110,,96,96,6,9,6,7,0.5,0.7
2025-04-14T1500,1730A,113.0886,36.2125,长治市,审计局,,35,17,34,7,7,110,,97,97,11,14,9,10,0.1,0.3
2025-04-14T1500,1731A,113.0844,36.1856,长治市,长治八中,,43,,41,30,20,113,,100,100,8,11,10,10,0.4,0.4
2025-04-14T1500,2845A,113.1569,36.1911,长治市,德盛苑,,35,28,42,7,7,110,,96,96,5,9,5,7,0.3,0.5
2025-04-14T1500,3568A,113.06,36.0464,长治市,向阳小学,,38,37,57,9,12,119,,103,103,9,14,11,13,0.2,0.2
2025-04-14T1500,3569A,112.8792,36.3144,长治市,屯留一中,,35,18,40,11,8,111,,99,99,8,15,7,12,0.3,0.3
2025-04-14T1500,4189A,113.1131,36.19948,长治市,英华南巷50号,,35,35,44,3,7,112,,98,98,7,10,5,7,0.4,0.5
2025-04-14T1500,4190A,113.2367,36.3344,长治市,学府街1号,,,,48,6,12,114,,101,101,5,7,4,4,0.3,0.3
2025-04-14T1500,1854A,111.6975,28.9703,常德市,市二中,颗粒物(PM10),119,188,220,61,73,121,,94,94,4,10,5,5,0.4,0.4
2025-04-14T1500,1857A,111.7158,29.1456,常德市,白鹤山,,,,,,,,,,,,,,,,
2025-04-14T1500,3138A,111.7153,29.0289,常德市,武陵区永安,颗粒物(PM10),129,207,257,67,77,126,,96,96,7,11,4,3,0.4,0.4
2025-04-14T1500,3139A,111.6892,28.9881,常德市,鼎城区玉霞,颗粒物(PM10),127,203,224,62,70,123,,92,92,5,11,3,3,0.4,0.5
2025-04-14T1500,3140A,111.6625,29.0531,常德市,武陵区长庚,颗粒物(PM10),130,210,249,67,80,123,,92,92,3,7,5,5,0.4,0.4
2025-04-14T1500,1196A,119.9633,31.762,常州市,市监测站,颗粒物(PM10),66,81,131,25,29,129,,108,108,16,21,8,9,0.5,0.5
2025-04-14T1500,1200A,119.9468,31.7069,常州市,武进监测站,颗粒物(PM10),62,74,124,16,33,125,,105,105,13,19,13,13,0.1,0.2
2025-04-14T1500,1201A,119.9255,31.9087,常州市,安家,颗粒物(PM10),74,98,127,16,27,120,,99,99,12,19,9,9,0.4,0.5
2025-04-14T1500,3002A,119.9805,31.8174,常州市,行政中心,颗粒物(PM10),52,53,90,8,24,122,,100,100,12,17,15,17,0.4,0.4
2025-04-14T1500,3003A,120.0522,31.7748,常州市,经开区,颗粒物(PM10),75,100,132,14,25,121,,100,100,16,20,9,8,0.5,0.5
2025-04-14T1500,3010A,119.9025,31.7964,常州市,钟楼,颗粒物(PM10),62,74,123,9,26,118,,100,100,14,19,7,8,0.2,0.3
2025-04-14T1500,3429A,119.8598,31.7066,常州市,武进经发区,颗粒物(PM10),62,73,141,15,36,123,,103,103,9,15,8,9,0.6,0.6
2025-04-14T1500,3430A,119.5826,31.7245,常州市,金坛城区,颗粒物(PM10),57,63,143,15,38,125,,108,108,10,13,7,9,0.4,0.5
2025-04-14T1500,2220A,120.4318,41.5881,朝阳市,西梁,,28,18,9,17,6,87,,92,86,9,8,13,12,0.4,0.4
2025-04-14T1500,2221A,120.4521,41.5646,朝阳市,河畔小区,,29,17,6,13,5,91,,98,92,6,8,7,7,0.6,0.5
2025-04-14T1500,2222A,120.4176,41.5648,朝阳市,八里堡,,28,18,9,9,4,89,,96,89,10,9,7,7,0.6,0.5
2025-04-14T1500,2223A,120.3806,41.5969,朝阳市,农业园区,,29,21,8,18,8,91,,98,88,10,8,9,8,0.6,0.5
2025-04-14T1500,1705A,116.6367,23.6719,潮州市,西园路,,,,,,,,,,,,,,,,
2025-04-14T1500,3026A,116.6183,23.6608,潮州市,市政府,颗粒物(PM10),107,164,142,47,41,144,,82,82,23,26,11,10,0.7,0.8
2025-04-14T1500,4036A,116.6461,23.6761,潮州市,金山,颗粒物(PM10),104,157,121,52,39,149,,88,88,20,22,14,9,0.5,0.4
2025-04-14T1500,2472A,113.0073,25.9061,郴州市,马头岭,颗粒物(PM10),143,235,198,41,35,102,,68,68,11,16,8,8,0.7,0.7
2025-04-14T1500,2473A,113.0116,25.8226,郴州市,市职中,颗粒物(PM10),122,194,171,54,48,109,,75,75,6,19,2,3,0.4,0.5
2025-04-14T1500,2475A,113.0383,25.8071,郴州市,市审计局,颗粒物(PM10),118,185,179,49,50,113,,76,76,7,20,4,5,0.3,0.4
2025-04-14T1500,2476A,113.0348,25.7759,郴州市,市环保局,颗粒物(PM10),127,204,199,54,54,106,,72,72,4,18,4,4,0.3,0.3
2025-04-14T1500,4252A,113.0138,25.8011,郴州市,好美居路49号,颗粒物(PM10),110,169,146,59,56,109,,74,74,8,22,3,3,0.4,0.5
2025-04-14T1500,1431A,103.9728,30.7236,成都市,金泉两河,颗粒物(PM10),88,126,121,22,37,128,,70,70,17,36,4,4,0.8,1
2025-04-14T1500,1432A,104.176,30.6872,成都市,十里店,颗粒物(PM10),92,133,152,39,48,128,,65,65,33,47,6,5,0.7,0.9
2025-04-14T1500,1433A,104.079,30.5706,成都市,三瓦窑,颗粒物(PM10),85,120,145,35,48,123,,59,59,31,60,7,6,0.6,0.8
2025-04-14T1500,1434A,104.1114,30.63,成都市,沙河铺,,,,140,,47,117,,42,42,24,47,7,6,0.8,1.1
2025-04-14T1500,1437A,104.0786,30.6531,成都市,君平街,,,101,122,43,52,,,8,,26,54,9,9,0.8,1
2025-04-14T1500,1438A,103.613,31.0283,成都市,灵岩寺,,,,,,,,,,,,,,,,
2025-04-14T1500,2880A,104.0239,30.65639,成都市,大石西路,颗粒物(PM10),85,120,118,41,45,137,,67,67,27,55,6,5,0.6,0.9
2025-04-14T1500,3136A,104.2725,30.5589,成都市,龙泉驿区区政府,颗粒物(PM10),106,161,156,46,39,114,,82,82,35,24,5,4,0.7,0.6
2025-04-14T1500,3357A,104.0106,30.6931,成都市,金博路,颗粒物(PM10),86,122,119,31,40,144,,66,66,26,50,10,9,0.5,0.6
2025-04-14T1500,3359A,104.0578,30.5225,成都市,华阳,颗粒物(PM10),89,127,134,46,55,121,,55,55,25,56,9,7,0.8,1.1
2025-04-14T1500,3488A,104.3853,30.7453,成都市,青白江技师分院,颗粒物(PM10),100,150,167,49,56,118,,66,66,52,47,7,8,0.5,0.4
2025-04-14T1500,3489A,104.0789,30.4072,成都市,科学城,颗粒物(PM10),86,122,156,48,52,124,,62,62,22,33,7,5,0.4,0.4
2025-04-14T1500,4011A,103.8506,30.6947,成都市,光华大道三段,颗粒物(PM10),71,91,108,31,36,114,,69,69,19,38,3,2,0.6,0.7
2025-04-14T1500,4224A,104.2433,30.5353,成都市,鲸龙路1057号,颗粒物(PM10),110,170,181,54,51,125,,74,74,39,48,6,5,0.5,0.6
2025-04-14T1500,1062A,117.9531,40.9081,承德市,铁路,,42,42,22,11,6,120,,108,108,5,3,7,6,0.3,0.2
2025-04-14T1500,1063A,117.9392,40.9763,承德市,中国银行,,40,40,20,7,4,120,,108,108,3,2,3,3,0.4,0.3
2025-04-14T1500,1064A,117.9503,40.928,承德市,开发区,,39,39,27,12,14,116,,107,107,7,4,7,7,0.3,0.2
2025-04-14T1500,1065A,117.8051,40.9655,承德市,文化中心,,45,45,30,3,7,120,,108,108,4,4,4,6,0.3,0.2
2025-04-14T1500,1066A,117.9268,41.0026,承德市,离宫,,,42,18,,,80,,,,,4,,32,0.1,0.1
2025-04-14T1500,2314A,117.47,30.6618,池州市,池州学院,颗粒物(PM10),71,92,196,31,65,132,,97,97,6,12,5,7,0.3,0.4
2025-04-14T1500,3237A,117.4918,30.6617,池州市,展览馆,颗粒物(PM10),64,78,192,22,60,132,,99,99,6,11,6,7,0.3,0.4
2025-04-14T1500,3333A,117.5627,30.695,池州市,第八中学,颗粒物(PM10),68,86,204,22,53,130,,99,99,6,10,11,9,0.3,0.4
2025-04-14T1500,3334A,117.5038,30.6243,池州市,第十二中学,,,101,222,26,65,134,,100,100,5,11,7,8,,0.8
2025-04-14T1500,1744A,118.9233,42.2816,赤峰市,松山一中,,40,25,14,8,3,126,,117,117,11,10,10,10,0.4,0.4
2025-04-14T1500,1745A,118.9576,42.2728,赤峰市,哈达街,,36,21,12,12,5,115,,106,106,11,10,12,10,0.5,0.5
2025-04-14T1500,1746A,118.8788,42.2554,赤峰市,天义路,,36,12,11,11,6,114,,109,109,12,9,7,7,0.5,0.2
2025-04-14T1500,3058A,119.2658,42.0353,赤峰市,银河街,,35,27,13,19,10,112,,102,102,6,8,14,16,0.4,0.5
2025-04-14T1500,3286A,118.9359,42.3147,赤峰市,桥北物流园区,,34,,12,23,8,106,,100,100,8,5,10,8,0.5,0.7
2025-04-14T1500,2521A,107.3476,22.4136,崇左市,市环保局江州分局,颗粒物(PM10),163,275,284,70,71,162,,97,97,10,17,8,7,0.5,0.4
2025-04-14T1500,4256A,107.3750,22.3736,崇左市,石景林东路7号,颗粒物(PM10),152,254,264,78,67,162,,105,105,10,15,8,6,0.5,0.5
2025-04-14T1500,2298A,118.3093,32.3153,滁州市,老年大学,颗粒物(PM10),57,63,112,29,37,127,,106,106,11,12,4,4,0.2,0.2
2025-04-14T1500,2299A,118.3244,32.2786,滁州市,人大宾馆,颗粒物(PM10),62,73,130,20,33,128,,109,109,5,10,9,8,0.3,0.3
2025-04-14T1500,3207A,118.3118,32.3038,滁州市,市政府原办公楼,颗粒物(PM10),54,58,107,18,32,125,,106,106,3,6,5,4,0.2,0.2
2025-04-14T1500,3331A,118.3267,32.2634,滁州市,图书馆,颗粒物(PM10),56,62,113,18,32,126,,107,107,7,9,7,7,0.4,0.3
2025-04-14T1500,2605A,101.5482,25.0441,楚雄彝族自治州,州环境监测站,,,29,45,14,27,112,,71,71,,15,7,9,0.4,0.5
2025-04-14T1500,2606A,101.538,25.0492,楚雄彝族自治州,市经济开发区,,38,,43,14,25,120,,78,78,5,14,6,8,0.5,0.6
2025-04-14T1500,2548A,107.5277,31.2827,达州市,达州职业技术学院,颗粒物(PM10),154,257,279,73,87,121,,68,68,13,26,8,7,0.8,0.3
2025-04-14T1500,2549A,107.5086,31.2186,达州市,市环境监测站,颗粒物(PM10),144,238,296,56,77,128,,70,70,16,34,7,6,0.5,0.5
2025-04-14T1500,2550A,107.4988,31.2132,达州市,凤凰小区,颗粒物(PM10),147,244,307,83,87,125,,77,77,19,33,10,9,0.3,0.3
2025-04-14T1500,2551A,107.5082,31.1986,达州市,达县机关宾馆,颗粒物(PM10),151,251,311,78,92,123,,75,75,20,35,7,6,0.3,0.4
2025-04-14T1500,2552A,107.4644,31.2124,达州市,市政中心,颗粒物(PM10),150,250,302,58,81,134,,71,71,15,37,5,4,0.4,0.5
2025-04-14T1500,2614A,100.1542,25.7054,大理白族自治州,大理市环境监测站,,40,24,21,16,16,125,,86,86,10,13,7,7,0.7,0.7
2025-04-14T1500,2615A,100.2171,25.5811,大理白族自治州,大理古城,,38,17,24,10,16,119,,83,83,7,17,8,7,0.4,0.5
2025-04-14T1500,1109A,121.612,38.9741,大连市,甘井子,,30,17,20,15,9,96,,88,84,12,11,6,5,0.5,0.4
2025-04-14T1500,1110A,121.565,38.9511,大连市,周水子,,26,20,20,15,10,82,,79,72,11,8,5,6,0.4,0.3
2025-04-14T1500,1111A,121.5637,38.8845,大连市,星海三站,,35,,23,24,11,87,,86,80,6,3,9,7,0.4,0.3
2025-04-14T1500,1112A,121.6302,38.9117,大连市,青泥洼桥,,29,26,21,18,9,92,,88,82,13,10,8,8,0.5,0.4
2025-04-14T1500,1113A,121.6251,38.8638,大连市,傅家庄,,27,18,22,17,8,85,,81,77,15,11,6,6,0.4,0.3
2025-04-14T1500,1114A,121.5213,38.8661,大连市,七贤岭,,28,,20,19,10,86,,83,79,14,11,5,4,0.2,0.4
2025-04-14T1500,1115A,121.2529,38.8061,大连市,旅顺,,,,19,13,7,76,,79,78,,11,7,7,0.5,0.4
2025-04-14T1500,1116A,121.7485,39.1311,大连市,金州,,38,33,21,26,12,89,,86,77,16,13,6,6,0.5,0.3
2025-04-14T1500,1117A,121.7811,39.0496,大连市,开发区,,32,,22,22,11,82,,77,70,10,8,6,8,0.7,0.6
2025-04-14T1500,1118A,121.9762,39.0631,大连市,双D港,,36,,14,25,11,91,,88,81,6,4,8,8,0.5,0.3
2025-04-14T1500,1789A,124.81117,46.03138,大庆市,大同区,,25,23,25,17,21,44,,62,52,17,9,4,5,0.6,0.5
2025-04-14T1500,1790A,125.129,46.533,大庆市,龙凤区,,31,31,32,20,15,58,,67,52,11,10,5,5,0.5,0.4
2025-04-14T1500,1791A,124.902,46.408,大庆市,红岗区,,,,21,,22,,,81,,,10,,8,,0.4
2025-04-14T1500,1792A,125.153,46.586,大庆市,萨尔图区,,,21,24,13,15,53,,64,49,,10,7,7,0.4,0.4
2025-04-14T1500,1793A,124.9042,46.6215,大庆市,让胡路区,,23,16,21,16,19,49,,59,50,18,12,5,5,0.3,0.3
2025-04-14T1500,3481A,125.141,46.634,大庆市,萨区政府监测点,,20,20,25,3,6,58,,62,53,6,6,5,5,0.4,0.4
2025-04-14T1500,1721A,113.3819,40.1097,大同市,果树场,,30,,22,9,13,94,,82,82,3,6,8,9,0.3,0.4
2025-04-14T1500,1723A,113.2994,40.0758,大同市,云冈宾馆,,32,,26,19,8,100,,86,86,6,6,7,8,0.4,0.4
2025-04-14T1500,1724A,113.3444,40.0917,大同市,大同大学,,29,16,32,10,10,92,,81,81,3,4,10,10,0.4,0.5
2025-04-14T1500,1725A,113.2661,40.1269,大同市,安家小村,,32,10,28,3,5,100,,86,86,1,2,10,10,0.3,0.4
2025-04-14T1500,1726A,113.2711,40.0844,大同市,教育学院,,31,12,28,6,8,99,,83,83,5,7,7,8,0.3,0.3
2025-04-14T1500,3282A,113.3397,40.0597,大同市,大同市卫生学校,,30,14,24,3,11,96,,81,81,6,7,6,7,0.4,0.5
2025-04-14T1500,3565A,113.1367,40.1122,大同市,云冈站,,29,25,27,3,7,92,,80,80,9,9,9,11,0.4,0.4
2025-04-14T1500,3566A,113.1186,40.2556,大同市,图书馆,,27,14,27,3,13,85,,72,72,4,6,8,9,0.6,0.7
2025-04-14T1500,3567A,113.5931,40.0461,大同市,区一中,,31,19,35,3,12,98,,87,87,4,4,13,15,0.4,0.4
2025-04-14T1500,4199A,113.2798,40.0997,大同市,魏都大道141号,,33,21,32,7,12,104,,89,89,6,7,11,12,0.3,0.3
2025-04-14T1500,2269A,124.1069,50.4097,大兴安岭地区,科技局,,,15,16,15,13,96,,86,86,,5,3,3,0.2,0.2
2025-04-14T1500,3663A,124.1164,50.4278,大兴安岭地区,红旗社区,,30,9,7,9,7,95,,80,80,2,12,4,5,0.3,0.3
2025-04-14T1500,1600A,124.3303,40.0625,丹东市,江湾东路,,28,12,15,6,10,88,,80,80,6,9,7,10,0.1,0.2
2025-04-14T1500,1601A,124.4256,40.1503,丹东市,临江后街,,28,10,16,3,10,87,,79,79,7,9,4,5,0.5,0.6
2025-04-14T1500,1602A,124.3933,40.1461,丹东市,元宝山,,25,9,14,6,9,77,,72,72,8,10,6,6,0.3,0.4
2025-04-14T1500,1603A,124.3633,40.1092,丹东市,民主桥,,26,23,20,7,10,83,,75,75,9,11,7,9,0.3,0.8
2025-04-14T1500,3541A,109.5726,19.5167,儋州市,第一中学子站,颗粒物(PM10),139,227,283,63,70,139,,114,114,10,10,5,5,0.6,0.5
2025-04-14T1500,3542A,109.5567,19.5187,儋州市,东坡学校子站,颗粒物(PM10),115,180,259,60,72,139,,116,116,7,8,6,6,0.4,0.4
2025-04-14T1500,2616A,98.5842,24.428,德宏傣族景颇族自治州,德宏州监测站,,38,26,34,11,22,120,,60,60,6,21,7,7,0.3,0.6
2025-04-14T1500,3677A,98.5881,24.4368,德宏傣族景颇族自治州,芒市人民政府综合楼,,43,43,42,18,23,127,,68,68,7,14,7,7,0.4,0.6
2025-04-14T1500,1901A,104.4239,31.1208,德阳市,东山公园,颗粒物(PM10),107,163,174,60,55,140,,86,86,39,22,13,12,0.7,0.5
2025-04-14T1500,1902A,104.3826,31.1317,德阳市,西小区,颗粒物(PM10),103,155,171,59,66,143,,71,71,38,54,13,12,0.8,0.8
2025-04-14T1500,1904A,104.3553,31.1091,德阳市,耐火材料厂,颗粒物(PM10),96,142,170,50,66,147,,77,77,24,51,11,15,0.6,0.6
2025-04-14T1500,3639A,104.4019,31.1244,德阳市,市教育局,颗粒物(PM10),104,158,157,60,59,147,,77,77,42,44,15,10,0.9,0.8
2025-04-14T1500,1622A,116.3032,37.4674,德州市,儿童乐园,,46,46,88,19,21,138,,110,110,5,11,4,5,0.4,0.4
2025-04-14T1500,1624A,116.2991,37.4451,德州市,监理站,,45,36,89,17,17,141,,112,112,12,15,4,6,0.3,0.3
2025-04-14T1500,3066A,116.2721,37.4379,德州市,九衢泉纯净水厂,颗粒物(PM10),54,58,92,27,22,137,,109,109,15,18,10,15,0.6,0.6
2025-04-14T1500,3371A,116.3728,37.4403,德州市,开发区人民医院,,42,41,89,29,26,134,,106,106,5,9,5,6,0.5,0.5
2025-04-14T1500,3372A,116.3572,37.4094,德州市,太阳城中学,,44,39,87,12,21,140,,111,111,5,9,3,5,0.5,0.6
2025-04-14T1500,3511A,116.5652,37.3319,德州市,陵城艺术中心,颗粒物(PM10),51,51,93,9,13,135,,107,107,9,11,2,3,0.5,0.5
2025-04-14T1500,2621A,99.7056,27.8317,迪庆藏族自治州,迪庆州站,,40,27,25,11,13,125,,100,100,9,10,9,9,0.4,0.5
2025-04-14T1500,3180A,99.7136,27.8094,迪庆藏族自治州,质量技术监督局,,41,41,23,12,12,126,,96,96,9,11,9,10,0.6,0.6
2025-04-14T1500,4257A,104.6092,35.5962,定西市,将台街,,36,26,127,10,37,114,,82,82,6,18,6,7,0,0.1
2025-04-14T1500,4309A,104.6159,35.5701,定西市,正龙路62号,,36,22,135,3,36,114,,90,90,2,9,8,10,0.2,0.3
2025-04-14T1500,1389A,113.7547,23.0494,东莞市,莞城梨川,颗粒物(PM10),184,318,386,84,89,159,,80,80,37,47,12,9,0.5,0.6
2025-04-14T1500,1390A,113.7944,23.0128,东莞市,东城石井,颗粒物(PM10),193,335,308,98,103,157,,84,84,39,44,10,9,0.6,0.7
2025-04-14T1500,1391A,113.7383,22.9658,东莞市,南城西平,颗粒物(PM10),168,285,316,89,84,158,,80,80,35,48,9,10,0.6,0.6
2025-04-14T1500,3319A,113.7338,23.0381,东莞市,万江金泰,颗粒物(PM10),171,292,337,112,100,163,,85,85,41,50,14,18,0.7,0.9
2025-04-14T1500,3626A,113.7533,23.0202,东莞市,南城元岭,颗粒物(PM10),171,291,346,83,90,149,,76,76,35,47,11,14,0.6,0.6
2025-04-14T1500,3627A,113.7875,23.0457,东莞市,东城主山,颗粒物(PM10),179,307,332,77,89,141,,75,75,44,50,10,8,0.5,0.5
2025-04-14T1500,1666A,118.6614,37.4309,东营市,市环保局,,40,34,78,3,9,128,,108,108,6,8,4,5,0.2,0.3
2025-04-14T1500,3036A,118.6904,37.4338,东营市,开发区管委会,,45,45,95,12,19,115,,92,92,15,14,3,4,0.5,0.5
2025-04-14T1500,3365A,118.5719,37.565,东营市,垦利区民丰路,,40,31,81,7,12,127,,102,102,6,8,8,8,0.3,0.4
2025-04-14T1500,3498A,118.5055,37.8612,东营市,河口城区,,46,46,87,3,16,134,,109,109,13,12,4,4,0.7,0.8
2025-04-14T1500,3646A,118.4978,37.4623,东营市,胜利站,,41,32,89,3,12,131,,107,107,10,13,8,9,0.6,0.6
2025-04-14T1500,3734A,118.35,37.26,东营市,理想之城,,44,44,88,17,17,129,,104,104,8,12,4,6,0.3,0.4
2025-04-14T1500,1591A,110.0023,39.8129,鄂尔多斯市,综合楼,,34,34,63,3,7,105,,91,91,9,15,4,6,0.1,0.2
2025-04-14T1500,1592A,109.9486,39.8261,鄂尔多斯市,巴音孟克林场办事处,,34,27,60,9,9,107,,90,90,6,19,6,8,0.2,0.2
2025-04-14T1500,1593A,109.7736,39.5986,鄂尔多斯市,康泽苑,颗粒物(PM10),53,56,60,9,20,101,,92,92,4,6,4,4,0.2,0.2
2025-04-14T1500,1594A,109.8119,39.5989,鄂尔多斯市,华泰汽车城,,30,29,58,7,11,96,,86,86,6,10,4,4,0.3,0.3
2025-04-14T1500,1595A,109.9734,39.7884,鄂尔多斯市,奥林花园,,33,27,64,12,10,105,,90,90,7,17,5,6,0.3,0.4
2025-04-14T1500,2436A,114.8938,30.3994,鄂州市,市政府,颗粒物(PM10),88,126,161,28,51,109,,75,75,8,20,5,10,0.6,1
2025-04-14T1500,2437A,114.8989,30.3714,鄂州市,赵家坝,颗粒物(PM10),107,163,200,20,46,131,,93,93,12,21,6,6,0.9,0.8
2025-04-14T1500,3654A,114.8094,30.4089,鄂州市,精准医疗中心,颗粒物(PM10),94,137,169,27,47,136,,105,105,2,13,5,4,0.4,0.5
2025-04-14T1500,2454A,109.4978,30.2981,恩施土家族苗族自治州,湖北民院,颗粒物(PM10),141,232,156,65,60,118,,79,79,1,10,6,6,0.0,0.1
2025-04-14T1500,2455A,109.4707,30.2798,恩施土家族苗族自治州,州电力总公司,颗粒物(PM10),116,182,195,59,62,121,,70,70,3,20,5,5,0.4,0.5
2025-04-14T1500,3549A,109.5061,30.3772,恩施土家族苗族自治州,龙凤新区,颗粒物(PM10),136,222,202,66,61,113,,68,68,7,12,7,6,0.3,0.4
2025-04-14T1500,2499A,108.3411,21.6158,防城港市,沙万,颗粒物(PM10),171,292,208,97,66,128,,75,75,,16,20,5,0.8,0.4
2025-04-14T1500,2500A,108.3514,21.7731,防城港市,防城档案局,颗粒物(PM10),156,261,254,74,66,104,,72,72,7,26,2,2,0.2,0.4
2025-04-14T1500,2501A,108.3506,21.6414,防城港市,大海花园,颗粒物(PM10),215,360,237,87,59,138,,81,81,28,17,19,7,1.0,0.5
2025-04-14T1500,1371A,113.1294,23.0067,佛山市,湾梁,颗粒物(PM10),147,244,325,68,75,,,38,,22,42,8,13,0.5,0.5
2025-04-14T1500,1372A,113.1083,23.0478,佛山市,华材职中,颗粒物(PM10),153,256,333,76,88,147,,86,86,26,54,8,10,0.4,0.5
2025-04-14T1500,1373A,113.144,23.0453,佛山市,南海气象局,颗粒物(PM10),165,280,321,76,77,163,,88,88,22,47,8,12,0.5,0.6
2025-04-14T1500,1374A,113.2881,22.8094,佛山市,顺德苏岗,颗粒物(PM10),163,276,319,73,79,136,,71,71,32,40,9,9,0.5,0.6
2025-04-14T1500,1376A,112.8383,22.8678,佛山市,高明孔堂,颗粒物(PM10),160,270,319,67,72,131,,78,78,17,27,10,10,0.5,0.4
2025-04-14T1500,1377A,112.8836,23.1588,佛山市,三水监测站,颗粒物(PM10),134,217,330,79,84,109,,62,62,17,58,5,7,0.2,0.3
2025-04-14T1500,1378A,112.867,23.185,佛山市,三水云东海,颗粒物(PM10),131,212,265,68,77,112,,66,66,23,48,5,5,0.4,0.5
2025-04-14T1500,3625A,113.2544,22.7642,佛山市,容桂街道办,颗粒物(PM10),165,280,342,80,82,135,,75,75,39,46,12,9,0.5,0.5
2025-04-14T1500,1280A,119.3903,26.0543,福州市,鼓山,,,,124,,28,,,96,,,6,,2,,0.2
2025-04-14T1500,1282A,119.2681,26.0504,福州市,师大,颗粒物(PM10),127,203,117,50,36,111,,88,88,7,19,4,5,0.2,0.3
2025-04-14T1500,1283A,119.2984,26.1028,福州市,五四北路,颗粒物(PM10),130,209,123,59,40,110,,82,82,5,19,5,5,0.4,0.4
2025-04-14T1500,1284A,119.2648,26.0768,福州市,杨桥西路,颗粒物(PM10),155,260,150,57,36,108,,85,85,5,18,4,5,0.2,0.3
2025-04-14T1500,1285A,119.317,26.0746,福州市,紫阳,颗粒物(PM10),142,233,140,56,40,100,,76,76,18,25,5,6,0.3,0.3
2025-04-14T1500,3048A,119.5799,26.0936,福州市,九龙,颗粒物(PM10),126,201,139,61,42,105,,86,86,6,19,4,4,0.2,0.3
2025-04-14T1500,3526A,119.5189,25.9664,福州市,吴航,颗粒物(PM10),96,142,136,45,39,128,,90,90,8,19,5,6,0.2,0.2
2025-04-14T1500,1755A,123.7977,41.8491,抚顺市,望花区,,31,11,21,9,18,99,,82,82,9,14,6,8,0.4,0.5
2025-04-14T1500,1756A,123.9161,41.8822,抚顺市,顺城区,,30,16,23,6,15,96,,81,81,7,13,7,7,0.4,0.5
2025-04-14T1500,1757A,124.0436,41.8611,抚顺市,东洲区,,30,16,22,6,16,94,,78,78,10,14,4,6,0.4,0.5
2025-04-14T1500,1758A,123.9247,41.8642,抚顺市,新抚区,,29,16,21,8,14,90,,72,72,6,14,5,5,0.6,0.6
2025-04-14T1500,1759A,124.0972,41.8961,抚顺市,大伙房水库,,30,14,18,3,15,94,,78,78,7,10,9,6,0.4,0.5
2025-04-14T1500,1760A,123.7086,41.8391,抚顺市,沈抚新城,,30,,23,19,15,95,,79,79,11,14,5,5,0.6,0.7
2025-04-14T1500,2376A,116.2127,28.0814,抚州市,桐源党溪,颗粒物(PM10),131,211,209,50,50,120,,90,90,3,3,9,8,0.5,0.4
2025-04-14T1500,2377A,116.3544,27.9831,抚州市,市站,颗粒物(PM10),133,216,192,46,42,98,,76,76,2,6,7,7,1.0,1
2025-04-14T1500,2378A,116.3565,27.963,抚州市,血防站,颗粒物(PM10),125,200,174,50,40,106,,77,77,2,7,12,10,1.3,1
2025-04-14T1500,2379A,116.3564,28.0007,抚州市,采茶剧团,颗粒物(PM10),131,212,188,46,44,104,,80,80,2,3,2,3,1.0,0.9
2025-04-14T1500,2380A,116.385,27.9647,抚州市,医学分院,颗粒物(PM10),136,222,181,49,38,102,,74,74,2,9,3,4,0.6,0.5
2025-04-14T1500,2207A,121.6094,41.998,阜新市,工业园区,,26,9,6,3,5,81,,85,82,10,9,6,6,0.3,0.3
2025-04-14T1500,2208A,121.6697,42.0279,阜新市,长青街,,,,6,2,4,81,,84,82,6,6,4,4,0.4,0.4
2025-04-14T1500,2209A,121.6673,42.0705,阜新市,农业园区,,24,8,5,3,2,76,,83,79,3,4,6,6,0.7,0.7
2025-04-14T1500,2210A,121.6717,42.0224,阜新市,东苑,,25,21,9,10,7,79,,81,79,7,7,5,4,0.4,0.5
2025-04-14T1500,2211A,121.6506,42.0498,阜新市,玉龙新城,,25,6,7,3,6,78,,83,80,8,8,7,7,0.4,0.4
2025-04-14T1500,2301A,115.8277,32.8929,阜阳市,市监测站,颗粒物(PM10),56,62,122,16,40,121,,99,99,8,11,8,7,0.2,0.2
2025-04-14T1500,2303A,115.8554,32.8605,阜阳市,开发区,颗粒物(PM10),76,101,167,17,37,124,,101,101,10,13,8,7,0.4,0.4
2025-04-14T1500,2875A,115.784,32.8892,阜阳市,阜阳职业技术学院,颗粒物(PM10),67,83,140,10,34,124,,101,101,7,11,10,8,0.2,0.2
2025-04-14T1500,3468A,115.7901,32.8613,阜阳市,市规划展馆,颗粒物(PM10),62,73,130,19,33,127,,103,103,6,8,9,7,0.4,0.5
2025-04-14T1500,3469A,115.836,32.9183,阜阳市,枣园社区,颗粒物(PM10),57,64,133,19,39,128,,105,105,11,13,7,6,0.3,0.3
2025-04-14T1500,2669A,102.9099,34.9841,甘南藏族自治州,州政府,,33,25,75,14,24,103,,74,74,2,29,7,8,0.2,0.5
2025-04-14T1500,3380A,102.8914,34.9617,甘南藏族自治州,甘肃民族师范学院,,35,23,96,3,24,112,,71,71,2,32,8,11,0.3,0.5
2025-04-14T1500,2570A,101.9603,30.0475,甘孜藏族自治州,水桥子,,,10,7,6,22,91,,48,48,4,25,4,4,,0.2
2025-04-14T1500,3065A,101.9533,29.9972,甘孜藏族自治州,州环保局,,29,15,29,3,5,92,,48,48,6,21,1,1,0.2,0.2
2025-04-14T1500,3414A,115.8347,28.932,赣江新区,桑海产业园,颗粒物(PM10),120,190,261,26,56,104,,75,75,11,17,6,9,0.3,0.2
2025-04-14T1500,2362A,114.9017,25.9149,赣州市,通天岩,颗粒物(PM10),115,179,234,17,18,137,,105,105,3,5,30,26,1.3,1.3
2025-04-14T1500,2363A,114.9367,25.8664,赣州市,地委,颗粒物(PM10),104,157,201,52,54,103,,66,66,,21,1,1,1.1,1.1
2025-04-14T1500,2364A,114.9461,25.8481,赣州市,气象台,颗粒物(PM10),104,158,198,45,51,123,,79,79,10,25,9,11,0.6,0.6
2025-04-14T1500,2365A,114.9322,25.8333,赣州市,市图书馆,颗粒物(PM10),114,178,230,51,53,129,,80,80,8,28,3,5,0.5,0.5
2025-04-14T1500,2366A,114.8905,25.8471,赣州市,华坚鞋城,颗粒物(PM10),120,190,250,48,53,134,,91,91,12,20,11,12,0.3,0.3
2025-04-14T1500,3109A,115.0093,25.8613,赣州市,赣县区卫计委,颗粒物(PM10),112,173,211,53,58,117,,72,72,5,21,5,5,0.3,0.3
2025-04-14T1500,2683A,106.2319,36.1417,固原市,马园,,,36,236,3,38,,,72,72,9,18,5,6,0.4,0.7
2025-04-14T1500,2684A,106.2792,36.0022,固原市,监测站,,33,,130,19,44,103,,87,87,3,8,5,4,0.2,0.2
2025-04-14T1500,2685A,106.2375,36.0211,固原市,新区,,32,20,126,14,35,100,,86,86,5,10,6,6,0.2,0.3
2025-04-14T1500,3522A,106.2177,35.9959,固原市,原州区十五小,,33,28,122,10,32,103,,91,91,4,6,7,6,0.2,0.2
2025-04-14T1500,2543A,106.6308,30.5278,广安市,小平旧居,,,,,,,,,,,,,,,,
2025-04-14T1500,2544A,106.6303,30.4576,广安市,市委,颗粒物(PM10),176,302,330,90,96,136,,84,84,7,29,10,9,0.3,0.4
2025-04-14T1500,2545A,106.6271,30.4663,广安市,友谊中学,颗粒物(PM10),168,286,296,80,86,135,,79,79,12,26,6,5,0.3,0.4
2025-04-14T1500,2547A,106.6388,30.4551,广安市,广电花园,颗粒物(PM10),164,278,315,83,92,133,,81,81,11,32,6,4,0.4,0.5
2025-04-14T1500,2902A,106.6351,30.4865,广安市,北辰小学,颗粒物(PM10),194,338,338,83,90,122,,68,68,13,21,12,10,0.5,0.5
2025-04-14T1500,2523A,105.8945,32.4535,广元市,黑石坡,细颗粒物(PM2.5),155,,148,118,46,93,,66,66,3,13,1,3,0.2,0.3
2025-04-14T1500,2524A,105.821,32.4444,广元市,老城,细颗粒物(PM2.5),219,,142,169,63,97,,64,64,3,31,1,3,0.4,0.7
2025-04-14T1500,2526A,105.8628,32.4287,广元市,监测站,颗粒物(PM10),74,98,113,39,50,99,,66,66,6,16,4,8,0.3,0.4
2025-04-14T1500,3617A,105.8047,32.4166,广元市,经开区,颗粒物(PM10),69,88,147,28,60,90,,58,58,7,34,3,7,0.3,0.5
2025-04-14T1500,1345A,113.2347,23.1423,广州市,广雅中学,颗粒物(PM10),159,267,357,71,89,170,,100,100,20,52,6,8,0.4,0.4
2025-04-14T1500,1346A,113.2612,23.105,广州市,市五中,颗粒物(PM10),158,266,348,83,96,182,,106,106,16,43,3,5,0.6,0.6
2025-04-14T1500,1348A,113.3478,23.0916,广州市,广东商学院,颗粒物(PM10),162,273,335,108,112,207,,108,108,24,48,6,6,0.3,0.4
2025-04-14T1500,1349A,113.4332,23.1047,广州市,市八十六中,颗粒物(PM10),170,290,350,77,89,195,,89,89,,63,7,6,0.8,0.8
2025-04-14T1500,1350A,113.3505,22.9483,广州市,番禺中学,颗粒物(PM10),178,306,366,81,96,171,,90,90,29,47,6,7,0.4,0.4
2025-04-14T1500,1351A,113.2146,23.3916,广州市,花都师范,颗粒物(PM10),162,273,322,75,81,150,,86,86,25,47,11,7,0.4,0.5
2025-04-14T1500,1352A,113.2597,23.1331,广州市,市监测站,颗粒物(PM10),162,274,349,76,90,163,,96,96,24,52,6,9,0.3,0.5
2025-04-14T1500,1353A,113.5618,23.312,广州市,九龙镇镇龙,颗粒物(PM10),150,250,316,72,86,144,,75,75,20,31,7,6,0.5,0.5
2025-04-14T1500,1354A,113.2765,23.1544,广州市,麓湖,颗粒物(PM10),154,258,311,77,83,186,,100,100,21,50,7,7,0.4,0.4
2025-04-14T1500,1355A,113.443,23.3035,广州市,帽峰山森林公园,颗粒物(PM10),146,242,273,68,73,166,,91,91,20,28,10,8,0.3,0.3
2025-04-14T1500,2846A,113.3221,23.1322,广州市,体育西,颗粒物(PM10),164,278,351,77,88,200,,103,103,16,41,8,8,0.4,0.4
2025-04-14T1500,3298A,113.5717,23.5491,广州市,从化街口,颗粒物(PM10),132,214,294,66,81,134,,77,77,9,26,12,10,0.5,0.7
2025-04-14T1500,3299A,113.3472,23.3692,广州市,白云竹料,颗粒物(PM10),178,305,331,83,85,186,,91,91,25,44,8,6,0.5,0.5
2025-04-14T1500,3300A,113.2981,23.237,广州市,白云嘉禾,颗粒物(PM10),164,277,349,71,82,169,,78,78,28,63,9,9,0.3,0.4
2025-04-14T1500,3301A,113.4256,23.1716,广州市,黄埔科学城,颗粒物(PM10),141,232,313,77,89,179,,86,86,26,41,11,8,0.2,0.4
2025-04-14T1500,3302A,113.3942,23.0483,广州市,番禺大学城,颗粒物(PM10),157,264,324,83,95,219,,115,115,26,56,9,9,0.6,0.6
2025-04-14T1500,3303A,113.4922,22.8168,广州市,南沙黄阁,颗粒物(PM10),191,331,365,89,94,162,,83,83,33,54,7,7,0.6,0.7
2025-04-14T1500,3304A,113.5342,22.7896,广州市,南沙街,颗粒物(PM10),181,312,350,86,91,162,,85,85,28,43,6,7,0.5,0.5
2025-04-14T1500,3443A,113.2902,23.5544,广州市,花都梯面,颗粒物(PM10),152,253,239,80,69,168,,80,80,19,30,9,7,0.5,0.5
2025-04-14T1500,3445A,113.7858,23.7478,广州市,从化良口,颗粒物(PM10),137,223,235,81,68,116,,79,79,6,9,8,6,0.3,0.3
2025-04-14T1500,3446A,113.8051,23.2614,广州市,增城荔城,颗粒物(PM10),155,259,299,82,81,156,,91,91,13,21,8,8,0.3,0.3
2025-04-14T1500,2505A,109.568,23.1478,贵港市,德智高中,,,,,,,,,,,,,,,,
2025-04-14T1500,2506A,109.6047,23.0666,贵港市,江南子站,颗粒物(PM10),168,285,401,73,99,147,,94,94,9,31,,5,0.5,0.6
2025-04-14T1500,2508A,109.5669,23.1065,贵港市,荷城子站,颗粒物(PM10),155,259,356,68,85,118,,84,84,12,26,5,5,0.3,0.4
2025-04-14T1500,3405A,109.5886,23.1172,贵港市,新世纪学校,颗粒物(PM10),156,261,352,77,88,120,,91,91,11,25,9,6,0.6,0.7
2025-04-14T1500,4260A,109.5933,23.0951,贵港市,中山路155-3号,颗粒物(PM10),163,276,350,92,96,133,,96,96,9,31,7,8,0.2,0.8
2025-04-14T1500,1439A,106.6899,26.5998,贵阳市,马鞍山,,,122,145,29,45,141,,90,90,,25,10,6,0.2,0.3
2025-04-14T1500,1441A,106.6243,26.6266,贵阳市,鉴湖路,颗粒物(PM10),79,107,193,31,53,139,,89,89,2,17,11,14,0.3,0.4
2025-04-14T1500,1442A,106.7487,26.6343,贵阳市,燕子冲,,,114,158,31,58,135,,75,75,8,28,,12,0.1,0.3
2025-04-14T1500,1443A,106.6555,26.4365,贵阳市,碧云窝,颗粒物(PM10),92,134,179,31,53,148,,83,83,10,19,7,11,0.4,0.4
2025-04-14T1500,1445A,106.7109,26.6027,贵阳市,红边门,颗粒物(PM10),92,134,177,48,64,143,,78,78,13,51,10,11,0.0,0.3
2025-04-14T1500,1446A,106.7164,26.5699,贵阳市,新华路,颗粒物(PM10),90,129,191,39,59,143,,84,84,5,42,57,16,0.5,0.6
2025-04-14T1500,1447A,106.674,26.5424,贵阳市,太慈桥,颗粒物(PM10),95,139,161,39,48,150,,78,78,13,26,12,9,0.5,0.5
2025-04-14T1500,1552A,106.805,26.3003,贵阳市,桐木岭,颗粒物(PM10),84,117,216,39,81,133,,107,107,1,4,1,7,0.4,0.5
2025-04-14T1500,4230A,106.6882,26.5695,贵阳市,花果园大街66号,颗粒物(PM10),92,134,183,59,74,144,,68,68,11,43,8,10,0.2,0.6
2025-04-14T1500,4231A,106.6873,26.5169,贵阳市,漓江路57号,颗粒物(PM10),101,151,171,51,59,156,,90,90,,35,13,12,0.4,0.5
2025-04-14T1500,1862A,110.4144,25.3167,桂林市,电子科大尧山校区,,,,,,,,,,,,,,,,
2025-04-14T1500,1864A,110.3089,25.2708,桂林市,龙隐路小学,颗粒物(PM10),144,237,319,80,97,141,,86,86,10,17,10,9,0.4,0.3
2025-04-14T1500,1865A,110.2869,25.2178,桂林市,八中,颗粒物(PM10),152,254,347,71,95,135,,78,78,15,23,11,10,0.8,0.8
2025-04-14T1500,3531A,110.296,25.1253,桂林市,旅游学院,颗粒物(PM10),129,207,312,66,83,125,,76,76,8,17,4,2,0.6,0.6
2025-04-14T1500,4222A,110.1835,25.2444,桂林市,环湖路276号,颗粒物(PM10),140,229,319,68,88,124,,62,62,18,26,8,8,0.4,0.4
2025-04-14T1500,4301A,110.2803,25.2773,桂林市,信义路13号,颗粒物(PM10),155,259,336,76,96,158,,86,86,14,19,8,7,0.3,0.4
2025-04-14T1500,2674A,100.2561,34.4714,果洛藏族自治州,玛沁县大武镇,,39,22,30,6,13,122,,92,92,1,4,16,15,0.3,0.4
2025-04-14T1500,1129A,126.5422,45.755,哈尔滨市,岭北,,31,23,22,14,16,99,,88,88,12,12,11,14,0.7,0.7
2025-04-14T1500,1130A,126.561,45.8167,哈尔滨市,松北商大,,31,23,24,12,14,99,,88,88,11,13,10,14,0.7,0.7
2025-04-14T1500,1131A,126.979,45.5419,哈尔滨市,阿城会宁,,48,48,34,18,16,102,,89,89,8,10,8,4,0.4,0.4
2025-04-14T1500,1132A,126.599,45.7222,哈尔滨市,南岗学府路,,33,33,41,11,15,88,,86,81,14,15,8,8,0.4,0.8
2025-04-14T1500,1133A,126.689,45.7733,哈尔滨市,太平宏伟公园,,30,25,28,21,17,96,,88,88,12,12,5,5,0.5,0.5
2025-04-14T1500,1134A,126.635,45.7667,哈尔滨市,道外承德广场,,30,26,24,17,22,93,,85,85,13,13,7,6,0.5,0.4
2025-04-14T1500,1135A,126.685,45.7319,哈尔滨市,香坊红旗大街,,30,27,28,18,19,96,,86,86,15,15,8,8,0.5,0.5
2025-04-14T1500,1136A,126.6411,45.7258,哈尔滨市,动力和平路,,36,36,37,20,14,89,,84,82,15,12,7,9,0.5,0.5
2025-04-14T1500,1137A,126.593,45.7478,哈尔滨市,道里建国路,,29,,28,18,18,92,,86,85,14,14,5,5,0.6,0.6
2025-04-14T1500,1138A,126.615,45.61,哈尔滨市,平房东轻厂,颗粒物(PM10),51,51,35,25,18,92,,84,84,25,13,13,9,0.6,0.5
2025-04-14T1500,1139A,126.595,45.9855,哈尔滨市,呼兰师专,,28,17,23,17,13,88,,82,82,8,10,6,6,0.4,0.4
2025-04-14T1500,1140A,126.6206,45.6842,哈尔滨市,省农科院,,36,36,35,18,19,94,,86,86,13,14,9,10,0.6,0.6
2025-04-14T1500,2688A,93.5128,42.8172,哈密市,地区监测站,颗粒物(PM10),473,573,133,199,37,82,,75,75,8,17,4,6,0.1,0.3
2025-04-14T1500,2689A,93.4961,42.8328,哈密市,哈密师范学校,颗粒物(PM10),289,412,104,107,23,,,73,73,6,27,5,5,0.2,0.5
2025-04-14T1500,2671A,100.9048,36.9639,海北藏族自治州,海晏县西海镇,,36,19,17,8,12,114,,90,90,1,3,9,8,0.4,0.4
2025-04-14T1500,3867A,102.0738,36.5056,海东市,平安区公安北苑,,35,35,42,10,15,112,,76,76,4,13,2,4,0.7,0.7
2025-04-14T1500,1409A,110.576,19.9507,海口市,东寨港,颗粒物(PM10),143,236,269,65,63,127,,105,105,4,6,10,11,0.5,0.4
2025-04-14T1500,1410A,110.3232,20.0574,海口市,海南大学,颗粒物(PM10),157,263,315,63,74,132,,112,112,12,10,4,3,0.3,0.3
2025-04-14T1500,1411A,110.283,20.0053,海口市,秀英海南医院,颗粒物(PM10),154,258,313,65,70,129,,100,100,17,15,6,6,0.2,0.2
2025-04-14T1500,1412A,110.338,19.9969,海口市,海南师范大学,颗粒物(PM10),154,258,315,69,76,147,,114,114,9,8,5,5,0.3,0.3
2025-04-14T1500,1413A,110.33,20.0356,海口市,龙华路环保局宿舍,颗粒物(PM10),143,235,307,65,78,136,,107,107,7,7,6,5,0.3,0.4
2025-04-14T1500,3539A,110.5111,19.9736,海口市,桂林洋子站,颗粒物(PM10),154,258,318,70,78,141,,112,112,6,10,5,5,0.3,0.3
2025-04-14T1500,2673A,100.6188,36.2866,海南藏族自治州,共和县恰卜恰镇,,40,19,29,7,11,125,,86,86,2,10,12,13,0.4,0.4
2025-04-14T1500,2676A,97.3731,37.3753,海西蒙古族藏族自治州,德令哈市,,40,40,29,9,12,101,,96,96,7,5,14,13,0.4,0.4
2025-04-14T1500,1048A,114.5302,36.6116,邯郸市,东污水处理厂,,,15,52,,12,116,,105,105,15,18,2,3,0.4,0.4
2025-04-14T1500,1049A,114.4918,36.5713,邯郸市,矿院,,35,,42,24,22,99,,86,86,2,7,2,3,0.3,0.4
2025-04-14T1500,1050A,114.484,36.6133,邯郸市,丛台公园,,38,15,47,3,7,121,,108,108,8,12,5,5,0.2,0.3
2025-04-14T1500,3458A,114.7895,36.5593,邯郸市,香泉濮院小区,,,25,68,,9,112,,91,91,6,15,2,4,0.3,0.4
2025-04-14T1500,3579A,114.50634,36.77178,邯郸市,永年区实验高中,细颗粒物(PM2.5),83,,57,61,19,111,,98,98,4,10,4,4,0.5,0.5
2025-04-14T1500,3580A,114.20016,36.44293,邯郸市,峰峰矿区临水派出所,,39,18,44,3,7,123,,112,112,11,15,6,6,0.6,0.7
2025-04-14T1500,2634A,106.9893,33.1842,汉中市,汉川机床厂子校,颗粒物(PM10),67,84,175,35,115,114,,94,94,4,7,8,8,1.2,1.2
2025-04-14T1500,2635A,107.0154,33.0706,汉中市,市监测站,颗粒物(PM10),78,106,161,45,68,103,,83,83,4,12,5,6,0.7,0.9
2025-04-14T1500,2636A,107.0089,33.1138,汉中市,鑫源开发区,颗粒物(PM10),82,114,180,40,75,104,,88,88,6,15,4,9,0.3,0.6
2025-04-14T1500,2637A,107.007,33.0323,汉中市,南郑大河坎水厂,颗粒物(PM10),75,100,144,48,77,110,,78,78,5,15,5,5,0.4,0.5
2025-04-14T1500,1223A,120.2072,30.2111,杭州市,滨江,颗粒物(PM10),79,107,153,20,39,118,,102,102,17,13,7,7,0.6,0.6
2025-04-14T1500,1224A,120.0633,30.2747,杭州市,西溪,颗粒物(PM10),63,75,134,27,27,128,,104,104,7,10,6,6,0.5,0.4
2025-04-14T1500,1226A,120.3417,30.3150,杭州市,下沙,,,,142,,34,126,,100,100,,20,7,7,0.3,0.3
2025-04-14T1500,1227A,120.1269,30.2456,杭州市,卧龙桥,颗粒物(PM10),59,67,135,20,36,124,,105,105,6,7,7,7,0.4,0.4
2025-04-14T1500,1228A,120.1903,30.2692,杭州市,浙江农大,颗粒物(PM10),61,72,152,17,43,123,,98,98,10,14,3,3,0.2,0.3
2025-04-14T1500,1230A,120.1197,30.3119,杭州市,和睦小学,颗粒物(PM10),64,77,140,24,33,124,,106,106,11,12,7,7,0.5,0.6
2025-04-14T1500,1231A,120.3019,30.4183,杭州市,临平镇,颗粒物(PM10),68,86,152,17,35,128,,106,106,19,20,7,6,0.3,0.3
2025-04-14T1500,1232A,120.2753,30.1839,杭州市,城厢镇,颗粒物(PM10),65,79,145,21,40,131,,111,111,8,13,8,7,0.4,0.4
2025-04-14T1500,1233A,120.0883,30.1808,杭州市,云栖,颗粒物(PM10),59,68,129,15,30,126,,108,108,12,15,9,9,0.4,0.4
2025-04-14T1500,3557A,119.9464,30.0494,杭州市,镇二中,颗粒物(PM10),68,86,137,23,39,124,,101,101,14,18,2,3,0.2,0.3
2025-04-14T1500,3558A,119.7183,30.2367,杭州市,市府大楼,颗粒物(PM10),66,82,147,22,37,129,,106,106,8,12,8,8,0.6,0.5
2025-04-14T1500,3656A,120.1556,30.2864,杭州市,消防大队,颗粒物(PM10),64,77,145,18,37,129,,108,108,12,15,5,4,0.5,0.5
2025-04-14T1500,1270A,117.1959,31.7848,合肥市,明珠广场,颗粒物(PM10),67,83,123,12,28,121,,99,99,6,13,4,3,0.3,0.3
2025-04-14T1500,1271A,117.3072,31.8764,合肥市,三里街,颗粒物(PM10),70,90,124,9,29,111,,91,91,7,16,6,6,0.2,0.2
2025-04-14T1500,1272A,117.2588,31.8707,合肥市,琥珀山庄,,,107,139,16,34,112,,94,94,7,13,,3,0.4,0.4
2025-04-14T1500,1273A,117.1604,31.9052,合肥市,董铺水库,颗粒物(PM10),65,80,147,9,36,113,,97,97,3,12,1,2,0.3,0.3
2025-04-14T1500,1274A,117.25,31.8571,合肥市,长江中路,颗粒物(PM10),78,105,134,13,32,117,,95,95,8,14,8,8,0.4,0.4
2025-04-14T1500,1275A,117.266,31.9436,合肥市,庐阳区,颗粒物(PM10),64,78,134,7,30,112,,92,92,4,10,5,5,0.2,0.2
2025-04-14T1500,1276A,117.3453,31.8616,合肥市,瑶海区,颗粒物(PM10),71,92,131,10,26,111,,90,90,8,15,6,6,0.3,0.3
2025-04-14T1500,1277A,117.3027,31.7964,合肥市,包河区,颗粒物(PM10),71,92,132,14,43,111,,90,90,10,17,5,5,0.3,0.3
2025-04-14T1500,1278A,117.2776,31.7385,合肥市,滨湖新区,颗粒物(PM10),81,112,133,19,46,114,,94,94,11,22,6,6,0.4,0.5
2025-04-14T1500,1279A,117.1318,31.8403,合肥市,高新区,颗粒物(PM10),78,105,135,10,34,116,,94,94,8,11,2,2,0.4,0.4
2025-04-14T1500,3464A,117.3803,31.9147,合肥市,高教基地,颗粒物(PM10),74,97,128,22,43,109,,94,94,17,13,5,6,0.3,0.3
2025-04-14T1500,3614A,79.924,37.0877,和田地区,地区环保局,颗粒物(PM10),469,569,699,150,212,85,,51,51,5,17,2,2,0.6,0.5
2025-04-14T1500,3615A,79.9131,37.113,和田地区,市环保局,颗粒物(PM10),402,502,709,140,195,90,,52,52,2,16,3,2,0.4,0.6
2025-04-14T1500,2516A,108.2011,24.715,河池市,东仁乐园,颗粒物(PM10),134,217,270,80,81,125,,82,82,13,27,10,12,1.1,1.2
2025-04-14T1500,2517A,108.0497,24.6947,河池市,市环保站,颗粒物(PM10),119,188,231,52,72,126,,82,82,5,17,7,7,0.3,0.3
2025-04-14T1500,2518A,108.0983,24.6989,河池市,市疾控中心,颗粒物(PM10),114,178,233,58,77,131,,83,83,9,27,9,11,0.4,0.5
2025-04-14T1500,1696A,114.6778,23.7569,河源市,源西,颗粒物(PM10),118,185,181,42,44,133,,69,69,11,29,4,4,0.3,0.3
2025-04-14T1500,1697A,114.6944,23.7586,河源市,东埔,颗粒物(PM10),133,216,199,56,38,132,,74,74,13,23,4,4,0.6,0.5
2025-04-14T1500,1698A,114.6892,23.7233,河源市,老城,颗粒物(PM10),121,192,165,54,49,141,,73,73,,22,5,4,0.4,0.4
2025-04-14T1500,1718A,115.4208,35.2464,菏泽市,气象局,颗粒物(PM10),54,58,100,34,34,130,,102,102,8,14,2,5,0.3,0.3
2025-04-14T1500,3374A,115.5564,35.0891,菏泽市,定陶老年大学,,,,89,,31,,,89,,,18,,5,,0.4
2025-04-14T1500,4184A,115.4797,35.24401,菏泽市,永昌路1号,颗粒物(PM10),68,86,91,40,30,116,,90,90,9,15,3,6,0.2,0.3
2025-04-14T1500,4193A,115.4715,35.2800,菏泽市,长城路999号,,45,45,96,28,20,124,,99,99,15,19,4,7,0.2,0.1
2025-04-14T1500,2514A,111.5264,24.4172,贺州市,环保小区,颗粒物(PM10),147,244,323,96,103,126,,71,71,10,23,7,8,0.3,0.4
2025-04-14T1500,2515A,111.5608,24.4078,贺州市,政协大楼,颗粒物(PM10),128,205,276,80,97,131,,74,74,10,23,8,12,0.7,0.6
2025-04-14T1500,3534A,111.4744,24.4553,贺州市,西湾,颗粒物(PM10),153,255,268,80,76,130,,78,78,9,22,10,9,0.4,0.6
2025-04-14T1500,2385A,114.17,35.9019,鹤壁市,市监测站,,42,22,56,3,17,132,,112,112,6,14,7,4,0.7,0.7
2025-04-14T1500,2386A,114.2956,35.7511,鹤壁市,市交警支队,,42,28,64,3,13,132,,102,102,7,21,9,7,0.3,0.5
2025-04-14T1500,2387A,114.2878,35.7306,鹤壁市,迎宾馆,,42,29,70,3,15,134,,103,103,11,20,1,4,0.5,0.5
2025-04-14T1500,3474A,114.2617,35.6822,鹤壁市,大新区,,40,19,79,7,17,128,,94,94,9,18,7,6,0.3,0.4
2025-04-14T1500,3596A,114.1572,35.9603,鹤壁市,南山宾馆,,42,19,57,14,26,132,,115,115,5,12,4,4,0.6,0.6
2025-04-14T1500,2244A,130.2537,47.3416,鹤岗市,哈啤分公司,,29,18,25,13,15,90,,81,81,8,9,17,16,0.2,0.2
2025-04-14T1500,2245A,130.2684,47.3086,鹤岗市,斯达机电,,28,21,26,7,15,89,,82,82,6,6,14,12,0.6,0.6
2025-04-14T1500,2246A,130.3114,47.3388,鹤岗市,东山纸板厂,,43,43,33,10,14,85,,77,77,7,7,13,13,0.3,0.3
2025-04-14T1500,2247A,130.1097,47.3382,鹤岗市,五号水库,,,,,,,,,,,,,,,,
2025-04-14T1500,2263A,127.4833,50.2524,黑河市,交通局,,34,34,18,15,10,76,,68,66,17,7,13,10,0.2,0.2
2025-04-14T1500,2264A,127.5144,50.2341,黑河市,环保局,,45,45,17,12,11,70,,70,67,23,10,22,7,0.3,0.3
2025-04-14T1500,2265A,127.5291,50.2472,黑河市,大黑河岛,,,,,,,,,,,,,,,,
2025-04-14T1500,1074A,115.6838,37.7541,衡水市,电机北厂,,44,39,69,6,20,138,,115,115,9,10,7,8,0.3,0.3
2025-04-14T1500,1075A,115.6303,37.7316,衡水市,市监测站,,43,40,71,11,12,135,,112,112,9,9,16,13,0.3,0.3
2025-04-14T1500,3188A,115.6683,37.7217,衡水市,市城管局,,43,22,69,10,17,136,,114,114,7,8,4,4,0.3,0.3
2025-04-14T1500,3459A,115.5989,37.5491,衡水市,地表水厂,,44,34,77,20,16,140,,118,118,8,7,6,6,0.3,0.3
2025-04-14T1500,2456A,112.5003,26.9167,衡阳市,原169医院,颗粒物(PM10),124,197,242,67,104,139,,89,89,6,21,10,19,0.5,0.6
2025-04-14T1500,2457A,112.6194,26.9258,衡阳市,衡阳化工总厂,颗粒物(PM10),145,240,286,63,72,132,,80,80,,18,9,10,0.6,0.7
2025-04-14T1500,2458A,112.6211,26.8956,衡阳市,珠晖区环保局,颗粒物(PM10),126,201,262,60,67,132,,82,82,6,12,9,13,0.4,0.5
2025-04-14T1500,2459A,112.6197,26.8733,衡阳市,市委党校,颗粒物(PM10),129,208,270,58,84,130,,83,83,7,18,8,10,0.3,0.4
2025-04-14T1500,2460A,112.6006,26.8919,衡阳市,市监测站,颗粒物(PM10),134,217,273,70,76,129,,81,81,10,21,10,12,0.5,0.6
2025-04-14T1500,2461A,112.5664,26.9056,衡阳市,真空机电公司,细颗粒物(PM2.5),186,230,299,140,101,127,,78,78,7,20,8,18,0.3,0.8
2025-04-14T1500,3399A,112.6703,26.882,衡阳市,师范学院,颗粒物(PM10),132,213,276,62,77,141,,88,88,8,17,,12,0.5,0.5
2025-04-14T1500,2608A,103.3772,23.3993,红河哈尼族彝族自治州,污水处理厂,,37,33,71,23,41,116,,79,79,7,14,12,17,0.3,0.3
2025-04-14T1500,2609A,103.3861,23.35,红河哈尼族彝族自治州,监测站,,,44,70,22,32,112,,80,80,10,11,8,8,,0.4
2025-04-14T1500,3038A,103.3758,23.368,红河哈尼族彝族自治州,州图书馆,,35,30,63,21,27,110,,82,82,7,11,8,10,0.2,0.2
2025-04-14T1500,1090A,111.6507,40.7517,呼和浩特市,呼市一监,,,19,19,3,8,100,,86,86,1,3,,10,0.4,0.5
2025-04-14T1500,1091A,111.6572,40.8033,呼和浩特市,小召,,31,9,14,6,4,98,,81,81,8,10,5,5,0.3,0.3
2025-04-14T1500,1094A,111.7516,40.8369,呼和浩特市,如意水处理厂,,42,,12,29,12,97,,82,82,4,5,6,6,0.3,0.3
2025-04-14T1500,1095A,111.7276,40.8062,呼和浩特市,二十九中,,32,11,14,3,3,102,,84,84,2,3,3,3,0.5,0.5
2025-04-14T1500,1096A,111.5512,40.7866,呼和浩特市,工大金川校区,,34,11,14,3,6,106,,80,80,5,9,5,6,0.3,0.4
2025-04-14T1500,1097A,111.717,40.7612,呼和浩特市,化肥厂生活区,,33,14,18,14,11,104,,85,85,6,8,7,7,0.3,0.3
2025-04-14T1500,3698A,111.5968,40.8178,呼和浩特市,红旗小学,,34,6,9,3,3,108,,93,93,6,7,3,3,0.4,0.4
2025-04-14T1500,3699A,111.6518,40.8389,呼和浩特市,海东办,,32,,8,8,5,100,,84,84,2,2,6,6,0.5,0.5
2025-04-14T1500,2192A,119.7594,49.2261,呼伦贝尔市,区环保局,,39,35,29,27,18,101,,79,79,10,20,7,6,0.4,0.3
2025-04-14T1500,3061A,119.7512,49.1577,呼伦贝尔市,国华电力东,,35,34,26,24,15,97,,84,84,7,10,4,4,0.4,0.4
2025-04-14T1500,1250A,120.0751,30.8669,湖州市,城西水厂,颗粒物(PM10),65,80,126,17,34,116,,92,92,22,29,8,8,0.2,0.3
2025-04-14T1500,2873A,120.0830,30.8929,湖州市,仁皇山新区,颗粒物(PM10),71,92,128,16,36,124,,92,92,14,23,5,5,0.5,0.5
2025-04-14T1500,2907A,120.1844,30.8596,湖州市,吴兴区站,颗粒物(PM10),61,71,123,13,36,121,,97,97,10,17,6,6,0.3,0.3
2025-04-14T1500,3562A,120.4148,30.8538,湖州市,南浔区站,颗粒物(PM10),58,66,128,18,34,130,,108,108,14,18,4,4,0.2,0.3
2025-04-14T1500,1607A,120.9049,40.7211,葫芦岛市,龙港区,,28,15,9,8,6,89,,94,89,10,9,9,9,0.5,0.4
2025-04-14T1500,1608A,120.8392,40.7514,葫芦岛市,化工街,,29,6,4,3,3,90,,93,88,13,13,6,7,0.4,0.4
2025-04-14T1500,1609A,120.8341,40.7073,葫芦岛市,新区,,30,11,9,10,6,95,,93,92,11,12,8,9,0.5,0.5
2025-04-14T1500,1610A,120.8695,40.7677,葫芦岛市,东城区,,27,15,7,10,5,84,,98,87,10,12,5,5,0.5,0.5
2025-04-14T1500,2482A,109.5981,27.5721,怀化市,林科所,颗粒物(PM10),112,174,214,55,63,96,,69,69,,11,4,8,0.2,0.6
2025-04-14T1500,2483A,109.9453,27.5444,怀化市,河西地税局,,,55,179,24,61,106,,66,66,12,13,11,12,,0.5
2025-04-14T1500,2484A,109.9781,27.5342,怀化市,市四医院,颗粒物(PM10),133,215,226,81,69,118,,77,77,6,19,8,14,0.3,0.3
2025-04-14T1500,2485A,109.9972,27.5578,怀化市,监测楼,颗粒物(PM10),123,196,216,64,66,100,,64,64,7,17,9,13,0.3,0.4
2025-04-14T1500,2486A,110.0394,27.583,怀化市,市委党校,颗粒物(PM10),118,186,202,64,67,119,,83,83,4,14,,7,,0.4
2025-04-14T1500,1210A,119.036,33.5981,淮安市,钵池山,颗粒物(PM10),60,70,88,20,24,126,,99,99,12,16,12,12,0.5,0.5
2025-04-14T1500,1211A,119.007,33.575,淮安市,北京南路,,,66,86,17,21,127,,98,98,9,15,,10,0.5,0.5
2025-04-14T1500,1212A,118.989,33.6067,淮安市,市监测站,,,,87,,38,122,,95,95,6,19,8,11,0.3,0.5
2025-04-14T1500,1213A,119.135,33.5039,淮安市,楚州区监测站,颗粒物(PM10),58,66,89,26,30,116,,90,90,4,11,9,9,0.5,0.5
2025-04-14T1500,3426A,118.8755,33.2894,淮安市,新华书店,,48,48,86,27,34,124,,98,98,9,12,8,8,0.5,0.5
2025-04-14T1500,4206A,119.0288,33.6319,淮安市,承德北路606号,颗粒物(PM10),59,68,94,21,24,122,,92,92,7,14,8,9,0.5,0.5
2025-04-14T1500,2282A,116.8004,33.975,淮北市,监测站,颗粒物(PM10),55,59,98,16,33,129,,96,96,9,14,6,7,0.6,0.6
2025-04-14T1500,2283A,116.8091,33.9007,淮北市,烈山区政府,,,53,90,20,28,130,,98,98,11,17,5,6,,0.6
2025-04-14T1500,3330A,116.8873,33.9836,淮北市,杜集区检察院,,,99,111,33,35,113,,67,,,18,6,6,0.7,0.7
2025-04-14T1500,4017A,116.7923,33.9535,淮北市,市博物馆,颗粒物(PM10),63,76,96,23,32,127,,92,92,10,16,7,8,0.7,0.6
2025-04-14T1500,2277A,116.8305,32.7727,淮南市,潘集区政府,颗粒物(PM10),73,96,158,17,38,118,,92,92,8,12,4,5,0.3,0.3
2025-04-14T1500,2279A,116.8569,32.5951,淮南市,谢家集区政府,颗粒物(PM10),80,109,137,45,34,116,,93,93,6,12,7,8,0.5,0.5
2025-04-14T1500,2280A,116.8281,32.633,淮南市,八公山区政府,颗粒物(PM10),71,92,148,19,36,114,,93,93,5,10,5,6,0.2,0.3
2025-04-14T1500,2281A,116.6325,32.6201,淮南市,焦岗湖风景区管理处,,,,,,,,,,,,,,,,
2025-04-14T1500,2894A,117.0566,32.6531,淮南市,经济技术开发区消防队,颗粒物(PM10),78,105,161,31,43,122,,98,98,8,16,5,7,0.3,0.3
2025-04-14T1500,3329A,117.0108,32.5893,淮南市,山南新区,颗粒物(PM10),67,83,162,3,31,122,,100,100,7,8,8,8,0.2,0.2
2025-04-14T1500,4209A,117.0031,32.6445,淮南市,国庆中路369号,颗粒物(PM10),72,93,153,20,41,118,,94,94,8,16,7,8,0.4,0.4
2025-04-14T1500,2446A,114.9028,30.4742,黄冈市,职工中心,颗粒物(PM10),77,104,133,28,46,140,,97,97,11,20,6,8,0.5,0.7
2025-04-14T1500,2929A,114.8858,30.4519,黄冈市,红卫路,颗粒物(PM10),88,125,158,22,39,125,,87,87,6,16,6,8,0.6,0.8
2025-04-14T1500,3398A,114.9136,30.4445,黄冈市,市林业局,颗粒物(PM10),91,131,156,20,37,128,,86,86,1,17,7,10,0.4,0.5
2025-04-14T1500,2672A,102.0199,35.5102,黄南藏族自治州,同仁县隆务镇,,35,27,32,9,8,111,,89,89,3,3,15,13,0.1,0.1
2025-04-14T1500,2295A,118.2903,29.6963,黄山市,延安路89号,颗粒物(PM10),97,143,166,61,81,121,,91,91,1,9,5,5,0.1,0.2
2025-04-14T1500,2297A,118.1371,30.2756,黄山市,黄山区政府5号楼,,,,220,,43,129,,106,106,2,2,5,5,0,0.9
2025-04-14T1500,4210A,118.3354,29.7203,黄山市,滨江东路7-2号,颗粒物(PM10),106,162,164,39,46,122,,90,90,5,9,6,6,0.4,0.4
2025-04-14T1500,2423A,115.0601,30.2313,黄石市,沈家营,颗粒物(PM10),91,131,160,24,41,145,,101,101,6,16,7,7,0.5,0.6
2025-04-14T1500,2426A,114.8988,30.2019,黄石市,铁山,颗粒物(PM10),100,150,172,35,56,128,,93,93,13,19,8,9,0.7,0.4
2025-04-14T1500,2427A,115.0307,30.2092,黄石市,团城山,颗粒物(PM10),88,126,155,28,42,132,,96,96,8,18,7,9,0.4,0.5
2025-04-14T1500,3149A,115.0235,30.1578,黄石市,笔架山北路,颗粒物(PM10),80,109,130,24,42,145,,102,102,5,16,6,10,0.5,0.6
2025-04-14T1500,4185A,115.0780,30.21118,黄石市,磁湖东路29号,颗粒物(PM10),89,128,158,31,51,147,,103,103,4,17,7,8,0.6,0.6
2025-04-14T1500,1392A,114.4183,23.0528,惠州市,河南岸金山湖子站,颗粒物(PM10),151,252,264,88,75,185,,87,87,25,32,12,10,0.6,0.6
2025-04-14T1500,1393A,114.4053,23.0822,惠州市,下埔横江三路子站,颗粒物(PM10),152,253,286,69,77,167,,86,86,,29,11,11,0.5,0.5
2025-04-14T1500,1394A,114.4103,23.1142,惠州市,江北云山西路子站,颗粒物(PM10),148,245,282,70,79,160,,86,86,13,27,10,12,0.3,0.4
2025-04-14T1500,1395A,114.4645,22.7833,惠州市,惠阳区承修路船湖子站,颗粒物(PM10),123,195,273,61,74,152,,101,101,15,31,9,10,0.4,0.5
2025-04-14T1500,1396A,114.5317,22.7422,惠州市,大亚湾管委会子站,颗粒物(PM10),121,191,264,59,73,149,,101,101,,34,7,9,0.4,0.4
2025-04-14T1500,3314A,114.4338,22.8134,惠州市,惠阳秋长,颗粒物(PM10),113,175,257,62,73,159,,103,103,11,30,10,12,0.2,0.3
2025-04-14T1500,3452A,114.6517,22.775,惠州市,大亚湾霞涌,颗粒物(PM10),157,263,258,84,74,204,,115,115,21,23,8,10,0.6,0.5
2025-04-14T1500,2240A,130.9762,45.3001,鸡西市,环保局,,36,36,32,11,10,77,,68,68,10,7,7,5,0.5,0.5
2025-04-14T1500,2243A,130.9429,45.3039,鸡西市,第一中学,,33,33,23,13,11,92,,85,85,6,7,6,6,0.5,0.6
2025-04-14T1500,3707A,131.0207,45.3073,鸡西市,欧美日汽修厂,,33,33,26,15,11,86,,82,82,8,5,4,4,0.5,0.4
2025-04-14T1500,3709A,130.9967,45.3106,鸡西市,市政设施管理处,,41,41,31,12,10,87,,81,81,8,7,7,7,0.4,0.4
2025-04-14T1500,2367A,114.9754,27.0803,吉安市,红声器材厂,颗粒物(PM10),122,194,204,52,47,110,,81,81,7,13,11,12,0.4,0.4
2025-04-14T1500,2368A,114.9658,27.0999,吉安市,市森林工业局,颗粒物(PM10),119,188,199,56,48,108,,78,78,4,17,10,11,0.2,0.3
2025-04-14T1500,2369A,114.99,27.1312,吉安市,市环境监测站,颗粒物(PM10),119,188,196,48,45,117,,86,86,4,9,16,18,0.2,0.2
2025-04-14T1500,2370A,115.0093,27.0968,吉安市,青原区法院,颗粒物(PM10),131,211,210,54,50,118,,86,86,4,10,12,14,0.3,0.4
2025-04-14T1500,1772A,126.54,43.8622,吉林市,哈达湾,,26,9,12,6,9,82,,70,70,12,16,6,6,0.4,0.4
2025-04-14T1500,1773A,126.5844,43.8358,吉林市,东局子,,,,11,7,8,80,,70,70,,14,,5,0.5,0.5
2025-04-14T1500,1774A,126.5052,43.8245,吉林市,电力学院,,27,6,13,3,13,85,,70,70,9,15,4,4,0.4,0.5
2025-04-14T1500,1775A,126.6133,43.8972,吉林市,江北,,27,10,13,3,7,84,,75,75,10,13,4,4,0.6,0.7
2025-04-14T1500,1776A,126.555,43.8306,吉林市,江南公园,,25,9,11,9,9,80,,68,68,8,13,6,5,0.3,0.4
2025-04-14T1500,1778A,126.7061,43.7133,吉林市,丰满,,,,,,,,,,,,,,,,
2025-04-14T1500,2868A,126.4739,43.953,吉林市,九站,,26,15,14,6,10,82,,69,69,9,16,14,10,0.6,0.6
2025-04-14T1500,1299A,116.9862,36.6114,济南市,科干所,,40,22,72,12,14,128,,101,101,6,13,6,6,0.4,0.4
2025-04-14T1500,1300A,116.9376,36.665,济南市,农科所,,41,32,77,12,21,129,,99,99,8,19,5,6,0.3,0.3
2025-04-14T1500,1301A,117.1265,36.6734,济南市,开发区,,41,34,78,10,24,129,,103,103,11,14,7,7,0.4,0.4
2025-04-14T1500,1303A,117.0624,36.6868,济南市,省种子仓库,,,36,102,24,20,129,,100,100,2,9,,11,0.5,0.6
2025-04-14T1500,1304A,116.9489,36.6447,济南市,机床二厂,,42,29,103,7,12,134,,104,104,11,20,6,7,0.3,0.4
2025-04-14T1500,1305A,117.0495,36.663,济南市,市监测站,,39,39,102,10,15,120,,94,94,8,16,7,7,0.3,0.4
2025-04-14T1500,1306A,116.7675,36.5484,济南市,长清党校,,46,,79,32,21,137,,108,108,8,18,4,5,0.4,0.4
2025-04-14T1500,1616A,117.6795,36.229,济南市,技术学院,,41,41,80,24,21,126,,106,106,11,13,9,10,0.4,0.4
2025-04-14T1500,1961A,117.532,36.6868,济南市,东山小学,,44,44,88,17,18,133,,106,106,6,10,6,6,0.2,0.3
2025-04-14T1500,3059A,117.7161,36.2049,济南市,泰兴公司,,46,46,68,7,16,130,,107,107,10,12,8,8,0.4,0.4
2025-04-14T1500,3064A,117.6867,36.2171,济南市,莱芜战役纪念馆,,41,41,73,3,11,130,,109,109,13,15,5,5,0.4,0.3
2025-04-14T1500,3494A,117.1673,36.9782,济南市,济阳区政府,颗粒物(PM10),52,54,96,17,17,137,,108,108,24,22,8,9,0.4,0.3
2025-04-14T1500,3495A,117.1171,36.63,济南市,锦屏中学,,,32,77,7,17,128,,105,105,11,15,,8,0.1,0.2
2025-04-14T1500,3682A,116.9814,36.6819,济南市,济南四建,,40,24,81,7,22,127,,99,99,7,16,3,4,0.2,0.3
2025-04-14T1500,1653A,116.6251,35.4302,济宁市,火炬城,颗粒物(PM10),57,64,67,14,19,124,,92,92,1,7,2,4,0.1,0.2
2025-04-14T1500,1655A,116.5491,35.4042,济宁市,电化厂,颗粒物(PM10),64,78,92,22,27,123,,92,92,8,19,1,3,0.1,0.1
2025-04-14T1500,3500A,116.5814,35.3707,济宁市,北湖一中,颗粒物(PM10),54,58,65,12,14,123,,95,95,13,16,1,2,0.1,0.1
2025-04-14T1500,3501A,116.8249,35.5593,济宁市,服务中心,颗粒物(PM10),54,58,66,9,21,128,,95,95,6,17,2,2,0.3,0.6
2025-04-14T1500,3678A,116.5907,35.4054,济宁市,市第七中学,颗粒物(PM10),63,75,83,3,10,128,,97,97,5,13,3,3,0.2,0.3
2025-04-14T1500,2255A,130.2751,46.8028,佳木斯市,佳纺,,31,18,26,8,13,98,,89,89,1,6,6,7,0.5,0.6
2025-04-14T1500,2256A,130.3995,46.8307,佳木斯市,发电厂,,31,28,33,10,16,99,,90,90,9,14,4,7,0.6,0.6
2025-04-14T1500,2257A,130.3258,46.7975,佳木斯市,环保局,,32,25,28,6,15,100,,92,92,8,14,2,3,0.4,0.4
2025-04-14T1500,2258A,130.3648,46.8032,佳木斯市,十一中,,29,21,26,10,16,90,,84,84,6,11,6,7,0.4,0.5
2025-04-14T1500,2259A,130.3794,46.7588,佳木斯市,四丰,,29,14,25,11,16,90,,82,82,4,6,1,1,0.9,0.9
2025-04-14T1500,1252A,120.7436,30.778,嘉兴市,清河小学,颗粒物(PM10),58,65,142,14,34,111,,90,90,12,18,6,7,0.6,0.7
2025-04-14T1500,1253A,120.726,30.7478,嘉兴市,嘉兴学院,颗粒物(PM10),61,71,129,13,31,129,,105,105,8,19,7,7,1.0,1
2025-04-14T1500,2872A,120.7846,30.7525,嘉兴市,南湖区残联,颗粒物(PM10),76,102,140,26,48,128,,103,103,8,15,7,7,0.5,0.5
2025-04-14T1500,3407A,120.6916,30.7739,嘉兴市,秀洲住建,,40,35,135,15,38,128,,103,103,9,18,7,8,0.5,0.4
2025-04-14T1500,1945A,98.2908,39.7711,嘉峪关市,气象局,颗粒物(PM10),81,112,37,27,12,96,,81,81,23,24,16,16,1.2,0.7
2025-04-14T1500,2884A,98.2672,39.7978,嘉峪关市,酒钢宾馆,颗粒物(PM10),95,139,50,41,18,98,,75,75,14,22,36,22,0,0.6
2025-04-14T1500,3248A,98.2643,39.7724,嘉峪关市,雄关区,颗粒物(PM10),61,72,37,25,16,91,,69,69,25,30,23,13,0.7,0.8
2025-04-14T1500,1383A,113.1064,22.6058,江门市,北街,颗粒物(PM10),160,270,319,82,87,144,,81,81,,39,,6,0.4,0.4
2025-04-14T1500,1384A,113.0731,22.5835,江门市,西区,颗粒物(PM10),155,260,346,75,87,169,,94,94,17,44,9,11,0.4,0.5
2025-04-14T1500,1385A,113.0219,22.5311,江门市,圭峰西,颗粒物(PM10),170,290,315,85,87,131,,83,83,14,26,7,10,0.3,0.4
2025-04-14T1500,1386A,113.0828,22.5947,江门市,东湖,颗粒物(PM10),151,251,323,81,93,162,,95,95,17,40,8,9,0.4,0.4
2025-04-14T1500,3311A,113.1075,22.5647,江门市,江海富民,颗粒物(PM10),153,256,316,73,83,156,,91,91,16,37,8,10,0.5,0.6
2025-04-14T1500,3449A,113.05,22.4667,江门市,新会银湖,颗粒物(PM10),158,266,311,77,89,161,,91,91,10,31,4,4,0.3,0.4
2025-04-14T1500,1830A,113.1992,35.2590,焦作市,影视城,,,,24,,16,,,,,,8,,6,,0.8
2025-04-14T1500,3169A,113.2725,35.2067,焦作市,太极体育中心,,40,23,82,10,16,126,,112,112,9,10,8,8,0.2,0.2
2025-04-14T1500,3335A,113.3137,35.2641,焦作市,马村街道办,,40,40,63,19,25,117,,104,104,6,8,12,10,0.1,0.1
2025-04-14T1500,3336A,113.2465,35.2373,焦作市,焦作技师学院,,39,35,79,3,12,122,,106,106,8,9,5,5,0.3,0.4
2025-04-14T1500,3477A,113.1656,35.2539,焦作市,中站许衡医院,,40,18,55,7,18,126,,112,112,5,8,6,7,0.4,0.5
2025-04-14T1500,3981A,113.2449,35.1803,焦作市,原李万街道办,,38,26,73,14,19,119,,108,108,12,12,8,9,0.4,0.4
2025-04-14T1500,4264A,113.2340,35.2190,焦作市,新安路1731号,,40,27,69,8,11,126,,111,111,3,7,5,6,0.3,0.3
2025-04-14T1500,1708A,116.3701,23.5345,揭阳市,新兴,颗粒物(PM10),98,145,140,43,44,112,,84,84,11,24,6,8,0.5,0.6
2025-04-14T1500,1709A,116.3264,23.5443,揭阳市,西马,颗粒物(PM10),101,151,141,42,46,114,,81,81,7,22,8,10,0.4,0.5
2025-04-14T1500,1710A,116.3611,23.5626,揭阳市,东兴,颗粒物(PM10),115,180,148,44,41,120,,87,87,7,24,9,11,0.5,0.7
2025-04-14T1500,1711A,116.4151,23.5294,揭阳市,渔湖,颗粒物(PM10),104,158,137,57,44,124,,92,92,13,24,7,7,0.4,0.5
2025-04-14T1500,3320A,116.403,23.5699,揭阳市,曲溪,颗粒物(PM10),114,178,146,58,45,138,,95,95,13,31,2,2,0.4,0.5
2025-04-14T1500,1944A,102.1692,38.5167,金昌市,天庆家园,,34,29,36,9,16,108,,94,94,5,12,22,15,0.5,0.7
2025-04-14T1500,4022A,102.1647,38.5371,金昌市,金川区人防中心,,35,35,55,9,16,105,,89,89,6,11,16,16,0.4,0.7
2025-04-14T1500,4239A,102.1930,38.5319,金昌市,长春路96号,,32,32,60,9,16,102,,93,93,3,12,15,27,0.5,0.7
2025-04-14T1500,1262A,119.647,29.077,金华市,十五中,颗粒物(PM10),112,173,133,36,33,118,,88,88,9,22,7,7,0.4,0.5
2025-04-14T1500,1263A,119.686,29.1029,金华市,监测站,颗粒物(PM10),103,155,136,40,35,121,,91,91,5,18,5,6,0.2,0.3
2025-04-14T1500,3659A,119.656,29.1131,金华市,气象局,颗粒物(PM10),116,182,157,72,50,118,,94,94,9,21,3,6,0.3,0.4
2025-04-14T1500,1767A,121.1115,41.0879,锦州市,南山,,25,9,6,3,6,80,,92,85,12,10,8,8,0.6,0.5
2025-04-14T1500,1768A,121.0604,40.8428,锦州市,开发区,,25,11,11,8,6,78,,89,83,13,11,6,5,0.6,0.5
2025-04-14T1500,1769A,121.1836,41.1119,锦州市,百股街道,,,10,14,3,3,80,,90,80,10,8,,6,0.5,0.4
2025-04-14T1500,1770A,121.1178,41.1222,锦州市,天安街道,,,,6,46,11,80,,89,82,14,11,9,10,0.6,0.5
2025-04-14T1500,1771A,121.1303,41.1386,锦州市,北湖公园,,26,8,6,3,6,81,,90,83,11,11,8,7,0.6,0.5
2025-04-14T1500,2160A,112.85,35.5051,晋城市,自来水公司,,36,30,74,3,9,115,,99,99,9,10,7,9,0.4,0.4
2025-04-14T1500,2161A,112.8318,35.4936,晋城市,白云商贸,,,41,77,,32,114,,98,98,,12,5,6,0.3,0.5
2025-04-14T1500,2162A,112.8508,35.4887,晋城市,市环保局,,35,32,73,3,7,111,,97,97,7,9,3,6,0.2,0.2
2025-04-14T1500,2163A,112.8676,35.4897,晋城市,技术学院,颗粒物(PM10),69,88,90,27,14,109,,94,94,9,11,6,7,0.3,0.3
2025-04-14T1500,2165A,112.8453,35.546,晋城市,白马寺,,,16,57,8,19,,,101,101,4,14,4,5,0.6,0.6
2025-04-14T1500,3620A,112.8271,35.4828,晋城市,泽州一中,,37,27,64,3,12,116,,99,99,8,8,8,7,0.3,0.3
2025-04-14T1500,2173A,112.7249,37.7067,晋中市,南都小区,,34,24,32,12,9,108,,92,92,6,8,3,4,0.2,0.3
2025-04-14T1500,2174A,112.6991,37.6982,晋中市,榆次区政府,,34,19,31,3,9,107,,92,92,9,10,5,5,0.2,0.2
2025-04-14T1500,2865A,112.7195,37.6828,晋中市,榆次三中,,34,24,34,3,6,108,,94,94,9,7,3,3,0.1,0.1
2025-04-14T1500,4200A,112.7478,37.6954,晋中市,迎宾街26号,,34,29,33,3,4,108,,93,93,3,4,3,3,0.2,0.3
2025-04-14T1500,2439A,112.2014,31.0481,荆门市,竹园小学,颗粒物(PM10),64,78,230,28,70,126,,98,98,10,22,4,5,0,0.2
2025-04-14T1500,2440A,112.1969,30.9891,荆门市,掇刀,颗粒物(PM10),65,80,230,33,75,125,,98,98,3,15,7,9,0.1,0.2
2025-04-14T1500,2441A,112.2213,31.0386,荆门市,石化一小,颗粒物(PM10),65,80,229,24,72,129,,102,102,4,25,6,9,0,0.3
2025-04-14T1500,3012A,112.1849,31.0362,荆门市,西山林语,颗粒物(PM10),62,74,197,27,65,128,,106,106,2,8,5,5,0.1,0.2
2025-04-14T1500,3547A,112.1632,31.0138,荆门市,龙泉中学南校,颗粒物(PM10),66,81,238,23,67,124,,103,103,9,15,7,6,0.1,0.2
2025-04-14T1500,1844A,112.2494,30.3197,荆州市,市图书馆,颗粒物(PM10),97,144,243,66,87,136,,108,108,12,16,4,5,0.3,0.5
2025-04-14T1500,1845A,112.2008,30.3544,荆州市,市委党校,颗粒物(PM10),108,165,250,75,89,142,,106,106,11,17,5,6,0.5,0.5
2025-04-14T1500,3194A,112.2747,30.3122,荆州市,管委会,细颗粒物(PM2.5),94,128,224,70,92,144,,110,110,15,15,6,6,0.4,0.5
2025-04-14T1500,4268A,112.1722,30.3366,荆州市,学苑路85号,颗粒物(PM10),104,158,231,76,89,138,,107,107,13,17,1,1,0.2,0.3
2025-04-14T1500,2342A,117.3102,29.3867,景德镇市,王港中学,,,,,,,,,,,,,,,,
2025-04-14T1500,2343A,117.2117,29.2933,景德镇市,老干部活动中心,颗粒物(PM10),101,152,160,21,40,121,,83,83,6,22,6,10,0.2,0.4
2025-04-14T1500,2344A,117.1894,29.2789,景德镇市,兽医站,颗粒物(PM10),113,175,195,30,38,114,,83,83,6,20,3,8,0.3,0.5
2025-04-14T1500,2345A,117.1547,29.2617,景德镇市,台达陶瓷,颗粒物(PM10),130,209,220,38,50,117,,91,91,7,27,9,55,0.3,0.5
2025-04-14T1500,2346A,117.2461,29.2956,景德镇市,陶研所,颗粒物(PM10),95,140,147,25,49,117,,82,82,7,16,4,9,0.3,0.4
2025-04-14T1500,1803A,115.9872,29.6815,九江市,十里,颗粒物(PM10),99,148,182,28,46,130,,99,99,6,16,4,4,0.4,0.4
2025-04-14T1500,1804A,115.9584,29.7046,九江市,茅山头,颗粒物(PM10),95,139,188,27,41,123,,90,90,15,17,5,6,0.3,0.3
2025-04-14T1500,1805A,115.9877,29.7295,九江市,西园,颗粒物(PM10),86,121,174,30,44,126,,94,94,19,25,7,8,0.4,0.7
2025-04-14T1500,1808A,115.9114,29.6038,九江市,综合工业园,颗粒物(PM10),104,157,198,32,49,128,,94,94,17,25,9,8,0.6,0.5
2025-04-14T1500,1809A,116.0721,29.7535,九江市,石化总厂,颗粒物(PM10),114,178,208,23,50,119,,89,89,14,23,3,6,0.5,0.6
2025-04-14T1500,1810A,115.9773,29.5698,九江市,庐山气象台,颗粒物(PM10),97,144,175,26,40,118,,97,97,8,6,6,6,0.5,0.6
2025-04-14T1500,3190A,116.0254,29.6994,九江市,外国语学校,颗粒物(PM10),178,305,213,76,52,115,,85,85,10,17,12,9,0.8,0.9
2025-04-14T1500,4253A,116.0102,29.6594,九江市,莲花大道8号,颗粒物(PM10),111,171,192,32,47,122,,94,94,8,9,6,5,0.4,0.4
2025-04-14T1500,4240A,98.4958,39.7339,酒泉市,玉门东路5号,,39,39,50,12,23,112,,72,72,5,22,9,13,0.3,0.5
2025-04-14T1500,4241A,98.5099,39.7506,酒泉市,北大街108号,,38,36,55,17,18,120,,75,75,6,26,10,15,0.4,0.4
2025-04-14T1500,2698A,76.0072,39.4467,喀什地区,巡警大队,颗粒物(PM10),470,570,577,160,155,107,,47,47,11,34,4,4,0.4,0.6
2025-04-14T1500,2699A,75.9755,39.4694,喀什地区,吾办,颗粒物(PM10),460,560,529,237,193,108,,55,55,8,26,5,4,0.5,0.7
2025-04-14T1500,4027A,75.9483,39.4689,喀什地区,老干局,颗粒物(PM10),473,573,543,153,146,113,,62,62,8,25,3,2,0.4,0.4
2025-04-14T1500,1824A,114.3389,34.7781,开封市,肿瘤医院,,44,32,91,9,17,139,,98,98,6,13,9,8,0.5,0.5
2025-04-14T1500,1826A,114.2885,34.7965,开封市,世纪星幼儿园,,,,102,46,32,147,,105,105,12,17,6,5,0.5,0.5
2025-04-14T1500,3147A,114.3438,34.8106,开封市,龙亭公园,,45,43,93,25,29,141,,105,105,10,17,4,3,0.5,0.5
2025-04-14T1500,3210A,114.3644,34.7964,开封市,汴京公园,细颗粒物(PM2.5),93,,121,69,59,144,,105,105,8,15,4,4,0.9,1
2025-04-14T1500,3473A,114.2485,34.8306,开封市,技师学院,,43,39,83,9,29,137,,99,99,13,22,4,4,0.6,0.7
2025-04-14T1500,3592A,114.4644,34.7556,开封市,祥符区生态环境局,,,,127,73,39,132,,91,91,10,27,6,9,0.4,0.6
2025-04-14T1500,1951A,84.895,45.6094,克拉玛依市,长征新村,颗粒物(PM10),70,89,62,16,14,99,,97,80,5,17,7,8,0.1,0.3
2025-04-14T1500,1952A,84.8988,45.5893,克拉玛依市,南林小区,颗粒物(PM10),62,74,63,20,18,110,,96,90,2,15,2,3,0.2,0.5
2025-04-14T1500,1954A,84.905,44.3396,克拉玛依市,独山子区,颗粒物(PM10),87,124,102,32,32,130,,99,99,5,11,7,7,0.3,0.3
2025-04-14T1500,1955A,85.6979,46.098,克拉玛依市,乌尔禾区商贸楼,,,,39,,9,111,,80,80,2,8,6,7,0.3,0.4
2025-04-14T1500,3612A,85.1045,45.6899,克拉玛依市,白碱滩区新站,颗粒物(PM10),68,86,69,20,14,106,,80,76,2,14,9,11,0.2,0.3
2025-04-14T1500,2697A,76.1454,39.7142,克孜勒苏柯尔克孜自治州,市人民政府,颗粒物(PM10),475,575,587,188,181,120,,86,86,1,11,6,7,0.3,0.3
2025-04-14T1500,3665A,76.1658,39.7157,克孜勒苏柯尔克孜自治州,克州文化中心,颗粒物(PM10),484,584,555,183,191,117,,81,81,2,16,7,13,0.3,0.4
2025-04-14T1500,1450A,102.8204,24.8886,昆明市,呈贡新区,,48,48,75,21,38,145,,87,87,13,37,5,10,0.4,0.6
2025-04-14T1500,1451A,102.6251,24.9608,昆明市,西山森林公园,,,,,,,,,,,,,,,,
2025-04-14T1500,1452A,102.7252,25.0902,昆明市,龙泉镇,,46,35,59,22,30,146,,83,83,14,35,9,10,0.4,0.6
2025-04-14T1500,1453A,102.7266,25.0375,昆明市,东风东路,,48,46,76,23,37,152,,83,83,15,34,9,12,0.4,0.6
2025-04-14T1500,1454A,102.6742,25.0669,昆明市,金鼎山,,43,39,63,14,34,137,,87,87,12,34,8,11,0.6,0.8
2025-04-14T1500,1455A,102.6644,25.0401,昆明市,碧鸡广场,,45,36,65,18,30,142,,79,79,12,35,7,11,0.3,0.8
2025-04-14T1500,3179A,102.7494,25.0119,昆明市,官渡区博物馆,颗粒物(PM10),54,58,78,21,37,148,,81,81,13,38,8,9,0.3,0.6
2025-04-14T1500,3375A,102.8017,24.8336,昆明市,青年创业园,颗粒物(PM10),51,51,74,29,31,146,,86,86,12,33,10,12,0.5,0.5
2025-04-14T1500,3550A,102.7997,24.9786,昆明市,昆明学院,颗粒物(PM10),54,57,96,24,39,144,,83,83,14,34,7,9,0.3,0.5
2025-04-14T1500,3551A,102.5967,24.6736,昆明市,晋宁区生态环境分局,,46,39,56,24,31,147,,96,96,10,16,11,11,0.7,0.8
2025-04-14T1500,3552A,102.6678,24.9856,昆明市,云天化总部,,49,36,65,17,30,156,,77,77,13,34,10,10,0.5,0.7
2025-04-14T1500,1456A,91.1319,29.6514,拉萨市,八廓街,臭氧1小时,52,15,19,9,8,161,,138,138,5,13,5,6,0.4,0.5
2025-04-14T1500,1457A,91.1221,29.6747,拉萨市,市环保局,,49,10,18,7,8,155,,133,133,11,14,3,4,0.3,0.3
2025-04-14T1500,1458A,91.0874,29.6475,拉萨市,区监测站,,47,8,15,6,8,150,,130,130,7,14,5,6,0.5,0.5
2025-04-14T1500,1459A,91.1774,29.6541,拉萨市,西藏大学,,50,8,18,6,8,158,,132,132,8,15,6,6,0.3,0.3
2025-04-14T1500,1460A,90.9798,29.6588,拉萨市,区辐射站,,45,45,18,9,9,138,,114,114,17,20,9,8,0.4,0.4
2025-04-14T1500,1461A,91.0834,29.6292,拉萨市,拉萨火车站,,45,20,16,7,7,141,,131,131,7,10,2,3,0.3,0.2
2025-04-14T1500,2520A,109.2203,23.7256,来宾市,来宾技工学校,颗粒物(PM10),163,275,277,78,74,149,,84,84,10,29,7,15,0.6,0.7
2025-04-14T1500,3535A,109.1781,23.7297,来宾市,兴宾区政府,颗粒物(PM10),166,282,253,93,79,152,,86,86,8,17,7,10,0.5,0.5
2025-04-14T1500,4002A,109.2416,23.7461,来宾市,中南小学,颗粒物(PM10),162,273,289,63,66,142,,81,81,8,28,8,12,0.4,0.5
2025-04-14T1500,1477A,104.1373,35.9454,兰州市,榆中兰大校区,,,,,,,,,,,,,,,,
2025-04-14T1500,1479A,103.831,36.0464,兰州市,铁路设计院,,37,37,127,9,32,116,,63,63,11,54,7,12,0.5,0.9
2025-04-14T1500,3241A,103.7439,36.0842,兰州市,百合公园,,37,33,108,9,27,117,,73,73,3,35,6,7,0.3,0.5
2025-04-14T1500,3242A,103.9611,35.998,兰州市,和平,,41,41,124,14,38,113,,82,82,3,11,10,10,0.4,0.5
2025-04-14T1500,4236A,103.6293,36.0938,兰州市,庄浪东路808号,颗粒物(PM10),52,54,111,23,47,125,,82,82,13,25,9,14,0.3,0.4
2025-04-14T1500,4237A,103.7251,36.1043,兰州市,安宁西路88号,颗粒物(PM10),73,95,143,39,42,120,,79,79,4,24,5,6,0.4,0.3
2025-04-14T1500,4238A,103.8470,36.0676,兰州市,北滨河东路1号,,40,30,120,18,38,126,,73,73,8,42,10,12,0.4,0.7
2025-04-14T1500,3245A,103.6633,36.533,兰州新区,新区管委会,,44,44,83,16,30,126,,97,97,4,8,14,11,0.3,0.3
2025-04-14T1500,3246A,103.6975,36.4789,兰州新区,舟曲中学,颗粒物(PM10),52,53,120,19,32,120,,92,92,6,14,7,7,0.1,0.1
2025-04-14T1500,1067A,116.6708,39.5111,廊坊市,药材公司,,50,50,68,14,19,116,,106,106,5,6,1,1,0.3,0.3
2025-04-14T1500,1068A,116.7214,39.5589,廊坊市,开发区,颗粒物(PM10),51,52,85,15,20,124,,111,111,5,5,2,2,0.3,0.3
2025-04-14T1500,1070A,116.7244,39.5269,廊坊市,北华航天学院,,41,41,92,19,14,119,,107,107,4,7,4,4,0.3,0.2
2025-04-14T1500,2919A,116.7022,39.5453,廊坊市,河北工业大学,,49,49,80,21,24,123,,110,110,6,6,5,4,0.3,0.3
2025-04-14T1500,2535A,103.7723,29.5462,乐山市,花湖湾,颗粒物(PM10),105,160,143,59,58,118,,47,47,18,29,7,8,0.5,0.8
2025-04-14T1500,2536A,103.7627,29.5844,乐山市,牛耳桥,颗粒物(PM10),106,162,132,57,50,100,,44,44,28,38,9,8,0.6,0.7
2025-04-14T1500,2537A,103.7508,29.6006,乐山市,市第三水厂,颗粒物(PM10),111,172,132,49,46,102,,53,53,28,32,6,5,0.5,0.6
2025-04-14T1500,2538A,103.7571,29.5664,乐山市,市监测站,颗粒物(PM10),119,187,145,65,55,110,,45,45,21,28,7,9,0.6,0.9
2025-04-14T1500,3361A,103.7311,29.5628,乐山市,理工大学,颗粒物(PM10),124,197,141,61,53,119,,47,47,20,32,6,6,0.5,0.8
2025-04-14T1500,2598A,100.2143,26.8576,丽江市,西南郊,,38,21,31,11,19,120,,101,101,4,10,6,15,0.6,0.9
2025-04-14T1500,2599A,100.2497,26.8802,丽江市,丽江古城,,36,29,32,20,19,113,,78,78,12,14,9,10,0.4,0.5
2025-04-14T1500,2600A,100.2203,26.8906,丽江市,市中心,,36,17,26,13,16,113,,79,79,6,11,6,6,0.4,0.4
2025-04-14T1500,1267A,119.914,28.4514,丽水市,监测站大楼,颗粒物(PM10),105,160,78,30,20,114,,81,81,6,25,3,3,0,0.1
2025-04-14T1500,1268A,119.93,28.4586,丽水市,莲都小学,颗粒物(PM10),111,172,85,30,20,112,,81,81,9,20,4,4,0.1,0.2
2025-04-14T1500,1269A,119.879,28.4231,丽水市,余庄前,颗粒物(PM10),92,134,78,34,24,121,,84,84,8,13,4,3,0.1,0.2
2025-04-14T1500,1173A,119.176,34.5885,连云港市,市环境监测站,,44,44,74,7,14,122,,93,93,10,21,9,10,0.5,0.5
2025-04-14T1500,3000A,119.3581,34.6972,连云港市,德源药业,颗粒物(PM10),51,51,77,7,14,116,,91,91,12,28,9,9,0.4,0.4
2025-04-14T1500,3007A,119.178,34.844,连云港市,新城一中,颗粒物(PM10),56,61,68,12,19,124,,100,100,9,19,8,9,0.7,0.7
2025-04-14T1500,3008A,119.3608,34.7519,连云港市,胡沟管理处,,39,27,42,7,10,123,,106,106,9,10,8,8,0.5,0.6
2025-04-14T1500,3009A,119.1478,34.5911,连云港市,矿山设计院,,48,48,73,7,14,118,,88,88,20,34,7,8,0.4,0.4
2025-04-14T1500,3434A,119.2413,34.6539,连云港市,工贸学校,,50,50,75,22,22,122,,96,96,14,20,8,9,0.5,0.6
2025-04-14T1500,3664A,119.4172,34.7341,连云港市,连云街道,颗粒物(PM10),55,59,68,31,24,111,,90,90,22,22,6,7,0.5,0.5
2025-04-14T1500,2571A,102.3431,27.8099,凉山彝族自治州,青龙寺,,40,40,26,10,7,64,,50,50,16,12,11,10,0.7,0.6
2025-04-14T1500,2572A,102.2721,27.8415,凉山彝族自治州,邛海宾馆,,33,33,32,18,17,70,,46,46,18,24,11,10,0.7,0.7
2025-04-14T1500,2573A,102.2625,27.898,凉山彝族自治州,西昌市政府,,50,50,33,30,20,55,,51,39,24,18,11,12,0.7,0.7
2025-04-14T1500,2574A,102.2685,27.8851,凉山彝族自治州,凉山州政府,,45,45,36,22,16,59,,48,41,24,22,8,9,0.7,0.7
2025-04-14T1500,4229A,102.2342,27.8859,凉山彝族自治州,凯乐南路30号,颗粒物(PM10),55,60,40,27,20,35,,37,23,43,29,11,12,1.0,0.9
2025-04-14T1500,2212A,123.2,41.1953,辽阳市,宏伟区,,30,30,24,11,15,92,,72,72,10,11,8,9,0.5,0.7
2025-04-14T1500,2213A,123.1683,41.2495,辽阳市,新华园,,30,26,21,16,16,95,,71,71,9,11,7,8,0.6,0.7
2025-04-14T1500,2214A,123.2354,41.2639,辽阳市,滨河路,,27,17,19,14,17,86,,66,66,10,13,5,7,0.5,0.6
2025-04-14T1500,2215A,123.149,41.2991,辽阳市,铁西工业园,,28,22,24,13,21,89,,63,63,9,12,8,9,0.5,0.7
2025-04-14T1500,2227A,125.1358,42.8845,辽源市,环保局,,34,29,23,14,7,107,,90,90,11,12,6,5,0.5,0.4
2025-04-14T1500,3239A,125.0764,42.9078,辽源市,银鹰制药,,,,13,,9,117,,98,98,6,12,10,13,0.7,0.6
2025-04-14T1500,1625A,115.9848,36.4372,聊城市,区政府,,42,42,70,18,14,134,,108,108,8,20,8,8,0.5,0.3
2025-04-14T1500,2878A,116.0072,36.4343,聊城市,聊大东校,,48,48,78,30,18,133,,106,106,10,14,7,8,0.6,0.6
2025-04-14T1500,3200A,115.9819,36.4978,聊城市,监控中心,,43,40,79,24,20,135,,106,106,9,16,5,6,0.3,0.3
2025-04-14T1500,3513A,116.0445,36.4361,聊城市,九州社区,颗粒物(PM10),51,52,82,16,10,142,,115,115,3,10,7,9,0.4,0.4
2025-04-14T1500,4018A,116.0567,36.4608,聊城市,星美广场,,43,41,62,11,7,136,,110,110,10,13,7,8,0.5,0.5
2025-04-14T1500,2632A,94.3681,29.6376,林芝市,林芝监测站,,41,16,12,3,8,131,,98,98,5,5,5,5,0.3,0.3
2025-04-14T1500,2633A,94.3616,29.6616,林芝市,林芝人民医院,,40,14,14,10,9,126,,91,91,2,3,5,5,0.3,0.3
2025-04-14T1500,2603A,100.0781,23.8982,临沧市,市环保局,,,33,36,26,23,93,,74,74,10,12,9,7,,0.6
2025-04-14T1500,2604A,100.0894,23.8822,临沧市,市气象局,,38,31,34,26,31,107,,72,72,12,13,8,7,0.6,0.7
2025-04-14T1500,1733A,111.5531,36.0783,临汾市,临钢医院,,32,,97,19,9,101,,84,84,7,7,5,4,0.3,0.2
2025-04-14T1500,1734A,111.5028,36.0714,临汾市,技工学校,,33,8,98,3,14,105,,85,85,4,5,3,2,0.3,0.3
2025-04-14T1500,1736A,111.5018,36.0855,临汾市,市委,,33,24,92,9,18,105,,85,85,5,5,4,3,0.4,0.4
2025-04-14T1500,3018A,111.505,36.1014,临汾市,唐尧大酒店,,33,31,91,16,18,104,,84,84,4,3,7,6,0.4,0.4
2025-04-14T1500,4244A,111.4879,36.0530,临汾市,启星学校,,33,26,91,10,14,103,,84,84,2,2,4,3,0.3,0.3
2025-04-14T1500,4271A,103.2464,35.6123,临夏回族自治州,滨河东路1号,颗粒物(PM10),66,81,103,20,30,115,,74,74,2,14,5,5,0.2,0.4
2025-04-14T1500,4310A,103.2093,35.5995,临夏回族自治州,新华街21号,,,55,95,19,34,104,,71,71,,22,9,10,0.2,0.4
2025-04-14T1500,1618A,118.3429,35.0532,临沂市,沂河小区,,44,44,80,25,23,121,,99,99,10,12,8,8,0.4,0.5
2025-04-14T1500,1619A,118.295,35.0583,临沂市,鲁南制药厂,,44,44,82,18,23,132,,108,108,12,22,9,10,0.3,0.3
2025-04-14T1500,1620A,118.2794,34.9976,临沂市,新光毛纺厂,,46,46,71,21,22,124,,101,101,17,26,5,7,0.2,0.2
2025-04-14T1500,1621A,118.3956,35.0888,临沂市,河东保险公司,,40,34,61,6,11,125,,100,100,8,14,2,2,0.2,0.3
2025-04-14T1500,3370A,118.3564,35.0215,临沂市,十里堡居委,,41,41,80,7,14,128,,104,104,13,17,3,3,0.5,0.6
2025-04-14T1500,3496A,118.3604,35.1084,临沂市,南坊新区,,,46,85,12,17,133,,107,107,14,16,5,6,,0.5
2025-04-14T1500,3860A,118.3920,35.0300,临沂市,皇山花园小区,,48,48,78,11,16,130,,106,106,7,11,6,7,0.4,0.4
2025-04-14T1500,1870A,109.4856,24.3895,柳州市,柳东小学,颗粒物(PM10),148,245,275,81,79,150,,90,90,14,29,14,20,0.6,0.6
2025-04-14T1500,1871A,109.4157,24.3277,柳州市,环保监测站,颗粒物(PM10),187,323,286,110,77,146,,84,84,25,33,41,20,1.6,1
2025-04-14T1500,1872A,109.389,24.341,柳州市,河西水厂,颗粒物(PM10),178,305,296,74,74,135,,75,75,19,42,30,20,1.1,1.1
2025-04-14T1500,1873A,109.4311,24.2921,柳州市,市四中,颗粒物(PM10),168,285,271,63,60,131,,77,77,19,31,29,16,1.4,0.9
2025-04-14T1500,1874A,109.4006,24.3631,柳州市,市九中,颗粒物(PM10),168,285,310,90,73,137,,82,82,17,26,33,19,1.2,1
2025-04-14T1500,1875A,109.4958,24.3134,柳州市,古亭山,颗粒物(PM10),186,321,274,80,67,167,,90,90,14,31,18,17,1.1,0.7
2025-04-14T1500,3402A,109.5422,24.3996,柳州市,市二中,颗粒物(PM10),161,272,288,77,86,148,,87,87,14,35,13,20,0.4,0.5
2025-04-14T1500,2307A,116.5079,31.737,六安市,监测大楼,颗粒物(PM10),61,72,137,8,39,114,,96,96,5,8,6,5,0.3,0.3
2025-04-14T1500,2308A,116.4738,31.7643,六安市,皖西学院,颗粒物(PM10),68,85,166,16,44,118,,97,97,3,7,5,4,0.4,0.4
2025-04-14T1500,2309A,116.4996,31.7905,六安市,朝阳厂,颗粒物(PM10),75,99,144,11,41,117,,95,95,11,14,4,4,0.3,0.3
2025-04-14T1500,2310A,116.5567,31.7886,六安市,开发区,颗粒物(PM10),75,100,175,17,46,119,,99,99,12,15,5,4,0.5,0.4
2025-04-14T1500,2576A,104.8,26.5892,六盘水市,窑上,颗粒物(PM10),56,61,103,34,44,132,,95,95,5,8,5,5,0.2,0.3
2025-04-14T1500,2577A,104.83,26.5917,六盘水市,黄土坡,颗粒物(PM10),59,68,125,30,43,128,,89,89,8,19,10,10,0.2,0.2
2025-04-14T1500,2578A,104.89,26.5939,六盘水市,水钢,颗粒物(PM10),63,76,165,31,55,133,,84,84,5,24,8,13,0.3,1.3
2025-04-14T1500,2579A,104.8475,26.5894,六盘水市,民中,颗粒物(PM10),60,69,131,22,44,134,,84,84,6,25,9,11,0.3,0.6
2025-04-14T1500,2580A,104.9544,26.5506,六盘水市,双水,颗粒物(PM10),56,61,162,17,51,131,,78,78,7,19,9,12,0.3,0.5
2025-04-14T1500,2335A,117.0189,25.1181,龙岩市,龙岩师专,,,,,,,,,,,,,,,,
2025-04-14T1500,2336A,117.0217,25.1033,龙岩市,龙岩市监测站,颗粒物(PM10),104,157,91,44,28,113,,75,75,7,22,4,9,0.2,0.3
2025-04-14T1500,2337A,117.0258,25.0661,龙岩市,闽西职业技术学院,颗粒物(PM10),89,128,99,32,29,115,,77,77,5,24,4,26,0.3,0.4
2025-04-14T1500,2338A,117.0196,25.0306,龙岩市,龙岩学院,颗粒物(PM10),89,127,84,32,27,118,,89,89,3,8,4,4,0.4,0.3
2025-04-14T1500,2665A,105.0822,33.3261,陇南市,汉王镇固水子,,,,,,,,,,,,,,,,
2025-04-14T1500,2885A,104.9339,33.3826,陇南市,滨江中学,颗粒物(PM10),67,83,126,13,32,109,,74,74,3,16,7,8,0.5,0.5
2025-04-14T1500,3247A,104.955,33.371,陇南市,市总工会,颗粒物(PM10),71,91,111,31,38,110,,76,76,4,9,8,8,0.3,0.3
2025-04-14T1500,2487A,111.9589,27.8901,娄底市,电视发射台,颗粒物(PM10),135,219,226,48,55,131,,84,84,5,5,11,9,0.8,0.6
2025-04-14T1500,2488A,111.9975,27.725,娄底市,市监测站,颗粒物(PM10),131,211,235,76,105,144,,81,81,7,23,15,13,1.0,1
2025-04-14T1500,2489A,112.0194,27.7314,娄底市,市委党校,颗粒物(PM10),124,198,250,63,83,131,,78,78,9,16,5,5,0.5,0.4
2025-04-14T1500,2490A,111.9561,27.7569,娄底市,涟钢,颗粒物(PM10),133,215,225,62,69,123,,69,69,21,30,30,23,1.2,0.6
2025-04-14T1500,2491A,111.9892,27.7044,娄底市,市政府,颗粒物(PM10),121,192,217,60,67,127,,78,78,7,16,8,6,0.6,0.5
2025-04-14T1500,1893A,105.4324,28.9634,泸州市,九狮山,,,,,,,,,,,,,,,,
2025-04-14T1500,1894A,105.4427,28.9063,泸州市,小市上码头,,,,120,,72,,,71,,,38,,5,,0.7
2025-04-14T1500,1895A,105.4241,28.8573,泸州市,兰田宪桥,细颗粒物(PM2.5),92,130,129,68,74,151,,88,88,11,29,14,8,0.5,0.7
2025-04-14T1500,1896A,105.4379,28.8833,泸州市,市环监站,,,,,,,,,,,,,,,,
2025-04-14T1500,4272A,105.3689,28.7783,泸州市,纳溪中医医院,颗粒物(PM10),157,263,259,55,63,155,,94,94,12,27,14,9,0.5,0.6
2025-04-14T1500,2183A,111.1406,37.5211,吕梁市,环保局,,33,33,63,11,18,95,,78,78,5,7,7,6,0.2,0.3
2025-04-14T1500,2185A,111.1297,37.5136,吕梁市,自来水公司,,30,26,60,3,11,95,,77,77,7,9,6,5,0.5,0.5
2025-04-14T1500,2867A,111.1283,37.51,吕梁市,马茂庄小学,,34,34,65,3,10,99,,80,80,7,11,4,3,0.3,0.3
2025-04-14T1500,1812A,112.3931,34.6516,洛阳市,市委党校,,38,38,112,3,34,107,,92,92,7,13,3,2,0.4,0.4
2025-04-14T1500,1815A,112.494,34.6886,洛阳市,河南林校,,35,29,121,3,24,112,,96,96,6,8,4,3,0.5,0.5
2025-04-14T1500,1816A,112.3844,34.623,洛阳市,开发区管委会,,46,,95,32,39,110,,95,95,10,11,8,6,0.2,0.2
2025-04-14T1500,1817A,112.4267,34.6258,洛阳市,市委新办公区,,37,33,92,8,18,116,,100,100,8,9,5,4,0.2,0.2
2025-04-14T1500,3340A,112.6005,34.6326,洛阳市,伊滨,,35,21,78,12,24,112,,97,97,8,8,5,4,0.4,0.4
2025-04-14T1500,3341A,112.4951,34.6332,洛阳市,中移产业园,,45,45,174,15,28,112,,96,96,8,8,6,5,0.3,0.3
2025-04-14T1500,3593A,112.5736,34.8993,洛阳市,吉利监测站,,35,33,102,7,15,112,,90,90,6,10,8,6,0.5,0.4
2025-04-14T1500,3635A,112.3677,34.662,洛阳市,河科大西苑校区,,35,35,115,6,16,109,,94,94,12,12,7,6,0.4,0.4
2025-04-14T1500,3636A,112.4388,34.6781,洛阳市,英才小学,,35,25,106,8,39,112,,94,94,7,8,6,5,0.3,0.3
2025-04-14T1500,4214A,112.4600,34.6949,洛阳市,春都路1号院,,45,45,123,7,18,118,,101,101,8,9,6,5,0.4,0.4
2025-04-14T1500,2399A,114.051,33.5699,漯河市,三五一五工厂,,49,49,120,15,31,128,,97,97,5,13,5,7,0.4,0.4
2025-04-14T1500,2400A,114.0055,33.5698,漯河市,漯河大学,颗粒物(PM10),52,53,111,17,36,126,,92,92,6,16,6,8,0.2,0.3
2025-04-14T1500,2401A,114.0138,33.5828,漯河市,市水利局,,,44,115,14,31,123,,92,92,10,18,5,6,,0.7
2025-04-14T1500,2402A,114.0261,33.5698,漯河市,市广电局,,49,49,116,8,28,122,,93,93,8,16,5,7,0.3,0.4
2025-04-14T1500,3478A,113.9749,33.5664,漯河市,市图书馆,,48,48,115,11,32,125,,90,90,10,18,5,6,0.5,0.6
2025-04-14T1500,4250A,114.0892,33.5882,漯河市,韶山路11号,颗粒物(PM10),54,58,116,3,29,129,,93,93,9,23,3,6,0.3,0.4
2025-04-14T1500,1798A,118.5092,31.6837,马鞍山市,湖东路四小,颗粒物(PM10),64,78,161,29,51,121,,98,98,12,17,15,13,0.8,0.9
2025-04-14T1500,1799A,118.5024,31.6449,马鞍山市,开发区,颗粒物(PM10),70,89,162,38,58,125,,102,102,10,18,6,9,0.5,0.7
2025-04-14T1500,1802A,118.6245,31.7241,马鞍山市,濮塘,颗粒物(PM10),70,89,161,16,46,132,,111,111,2,9,7,10,0.3,0.5
2025-04-14T1500,3633A,118.4918,31.6809,马鞍山市,雨山,颗粒物(PM10),70,90,171,19,52,122,,101,101,8,17,9,12,0.7,0.9
2025-04-14T1500,4191A,118.5274,31.72227,马鞍山市,慈湖高新区,颗粒物(PM10),69,88,177,38,55,115,,99,99,15,20,13,14,0.8,0.7
2025-04-14T1500,1686A,111.0286,21.4688,茂名市,电白南海,颗粒物(PM10),172,293,304,95,82,148,,109,109,15,26,,14,0.6,0.8
2025-04-14T1500,1687A,110.9294,21.6533,茂名市,茂石化七小,颗粒物(PM10),156,261,282,80,78,122,,95,95,9,19,11,17,0.9,0.9
2025-04-14T1500,1688A,110.9107,21.6687,茂名市,健康路,颗粒物(PM10),151,251,275,70,75,130,,100,100,6,17,11,23,0.6,0.8
2025-04-14T1500,1689A,110.8592,21.6828,茂名市,高岭,颗粒物(PM10),163,276,312,75,77,111,,84,84,9,23,7,17,0.5,0.7
2025-04-14T1500,3450A,111.01,21.5165,茂名市,电白水东,颗粒物(PM10),159,268,287,85,83,134,,104,104,17,23,11,14,0.5,0.6
2025-04-14T1500,2539A,104.0308,30.0478,眉山市,黑龙滩水库,颗粒物(PM10),75,99,82,16,18,132,,70,70,16,12,4,2,0.5,0.3
2025-04-14T1500,2540A,103.8416,30.0874,眉山市,气象局,颗粒物(PM10),112,174,139,58,39,114,,61,61,48,43,9,4,0.7,0.6
2025-04-14T1500,3137A,103.8578,30.0744,眉山市,市委党校,颗粒物(PM10),101,151,113,48,35,112,,57,57,38,43,13,8,0.9,0.8
2025-04-14T1500,3148A,103.8291,30.0564,眉山市,区人社局,细颗粒物(PM2.5),85,79,61,63,39,119,,61,61,48,51,19,11,1.1,0.8
2025-04-14T1500,1690A,116.1231,24.3284,梅州市,梅江月梅,颗粒物(PM10),104,158,112,50,35,128,,78,78,6,21,5,5,0.4,0.4
2025-04-14T1500,1691A,116.0797,24.2719,梅州市,梅县新城,颗粒物(PM10),113,176,120,64,39,121,,77,77,11,20,7,6,0.4,0.4
2025-04-14T1500,1692A,116.1248,24.2654,梅州市,环境监控中心,颗粒物(PM10),108,165,114,46,35,116,,76,76,11,22,7,8,0.4,0.5
2025-04-14T1500,3315A,116.1233,24.2991,梅州市,梅龙,颗粒物(PM10),109,168,116,68,37,119,,81,81,7,19,7,7,0.3,0.4
2025-04-14T1500,1878A,104.7778,31.4741,绵阳市,富乐山,颗粒物(PM10),90,130,161,41,54,126,,80,80,9,24,8,8,0.3,0.4
2025-04-14T1500,1880A,104.6697,31.4668,绵阳市,高新区自来水公司,颗粒物(PM10),89,128,134,44,45,130,,63,63,9,50,3,4,0.4,0.6
2025-04-14T1500,1881A,104.7287,31.5075,绵阳市,三水厂,细颗粒物(PM2.5),145,140,159,111,65,129,,63,63,11,43,7,6,0.5,0.7
2025-04-14T1500,3491A,104.69,31.5322,绵阳市,西科大附属小学,颗粒物(PM10),109,168,152,54,51,135,,75,75,8,42,7,7,0.6,0.7
2025-04-14T1500,3492A,104.5648,31.5343,绵阳市,安州区旅游局,颗粒物(PM10),115,180,139,41,39,126,,75,75,9,29,7,7,0.2,0.4
2025-04-14T1500,4226A,104.7651,31.4531,绵阳市,绵阳市气象局,颗粒物(PM10),106,161,176,40,55,124,,65,65,10,38,7,6,0.3,0.4
2025-04-14T1500,1784A,129.61,44.561,牡丹江市,环保大楼,,28,14,20,6,14,87,,78,78,6,7,5,6,0.2,0.2
2025-04-14T1500,1785A,129.6115,44.5782,牡丹江市,文化广场,,29,21,27,16,18,90,,80,80,6,7,9,10,0.5,0.4
2025-04-14T1500,1786A,129.5904,44.5963,牡丹江市,第一医院,,29,16,28,7,17,90,,82,82,6,7,5,7,0.2,0.3
2025-04-14T1500,1787A,129.6364,44.6075,牡丹江市,机车工厂,,28,9,40,3,17,89,,82,82,12,12,7,11,0.4,0.4
2025-04-14T1500,1788A,129.6386,44.5462,牡丹江市,第一中学,,30,9,18,6,14,95,,86,86,2,4,6,7,0.4,0.5
2025-04-14T1500,2531A,105.0703,29.61,内江市,市监测站,颗粒物(PM10),120,190,178,78,67,140,,76,76,16,29,12,11,0.5,0.6
2025-04-14T1500,2532A,105.0717,29.5947,内江市,东兴区政府,颗粒物(PM10),137,224,183,61,55,134,,70,70,17,37,7,6,0.4,0.6
2025-04-14T1500,2533A,105.0653,29.5817,内江市,内江二中,颗粒物(PM10),136,221,191,68,65,125,,66,66,21,41,9,8,0.4,0.5
2025-04-14T1500,2534A,105.0406,29.5822,内江市,内江日报社,颗粒物(PM10),127,204,215,70,70,138,,77,77,9,40,6,8,0.3,0.4
2025-04-14T1500,2628A,92.0657,31.4846,那曲市,那曲监测站,,37,17,30,8,20,118,,97,97,12,21,7,8,0.4,0.6
2025-04-14T1500,4243A,92.0515,31.4787,那曲市,那曲市委宣传部,,42,22,22,7,11,133,,110,110,4,13,5,6,0.3,0.5
2025-04-14T1500,1290A,115.8931,28.6843,南昌市,省外办,颗粒物(PM10),101,151,203,48,67,119,,85,85,14,22,7,12,0.3,0.4
2025-04-14T1500,1291A,115.8886,28.7003,南昌市,省林业公司,颗粒物(PM10),126,202,278,48,70,110,,76,76,8,14,8,13,0.2,0.4
2025-04-14T1500,1292A,115.8126,28.7442,南昌市,林科所,颗粒物(PM10),126,202,274,48,66,130,,87,87,2,15,7,11,0.1,0.3
2025-04-14T1500,1294A,115.8518,28.687,南昌市,建工学校,颗粒物(PM10),135,219,275,65,68,134,,90,90,5,14,4,10,0.4,0.6
2025-04-14T1500,1295A,115.8921,28.6424,南昌市,象湖,颗粒物(PM10),128,206,235,58,64,149,,98,98,9,14,11,14,0.5,0.5
2025-04-14T1500,1296A,115.7423,28.7996,南昌市,武术学校,颗粒物(PM10),116,181,194,13,34,119,,89,89,,4,115,14,0.5,0.5
2025-04-14T1500,3046A,115.9084,28.6062,南昌市,机电学校,颗粒物(PM10),153,255,277,75,74,134,,90,90,13,22,6,10,0.4,0.5
2025-04-14T1500,3690A,115.9721,28.7031,南昌市,外国语学校,颗粒物(PM10),124,198,263,48,59,139,,100,100,9,18,9,12,0,0.1
2025-04-14T1500,4192A,115.9316,28.68677,南昌市,南京东路235号,颗粒物(PM10),143,236,285,49,67,139,,98,98,11,20,9,11,0.4,0.4
2025-04-14T1500,1905A,106.056,30.8064,南充市,西山风景区,颗粒物(PM10),101,151,275,53,88,124,,88,88,10,13,5,7,0.4,0.4
2025-04-14T1500,1906A,106.0789,30.8023,南充市,南充市委,颗粒物(PM10),144,238,332,78,99,132,,77,77,13,28,5,4,0.4,0.5
2025-04-14T1500,1907A,106.1031,30.8217,南充市,南充炼油厂,颗粒物(PM10),133,215,323,81,105,114,,66,66,15,31,4,4,0.4,0.6
2025-04-14T1500,4227A,106.1083,30.7884,南充市,梨树横街98号,颗粒物(PM10),137,224,342,50,66,125,,72,72,17,31,7,6,0.3,0.3
2025-04-14T1500,4304A,106.1172,30.843,南充市,清泉寺北路188号,颗粒物(PM10),132,213,326,84,90,121,,71,71,14,24,5,5,0.2,0.2
2025-04-14T1500,4305A,106.067,30.7616,南充市,同庆路1号,颗粒物(PM10),129,207,316,61,88,107,,64,64,12,30,5,5,0.4,0.4
2025-04-14T1500,1151A,118.8086,32.1065,南京市,迈皋桥,颗粒物(PM10),53,55,102,9,26,119,,100,100,1,11,4,4,0.2,0.2
2025-04-14T1500,1152A,118.7538,32.0551,南京市,草场门,颗粒物(PM10),70,90,149,9,37,121,,103,103,13,17,5,5,0.4,0.6
2025-04-14T1500,1153A,118.7794,32.0745,南京市,山西路,颗粒物(PM10),130,210,173,27,48,125,,105,105,13,16,3,4,0.1,0.2
2025-04-14T1500,1154A,118.7752,32.0023,南京市,中华门,颗粒物(PM10),59,68,135,7,40,105,,91,91,1,13,8,10,0.6,0.6
2025-04-14T1500,1155A,118.8109,32.0309,南京市,瑞金路,颗粒物(PM10),64,78,135,17,32,115,,95,95,1,4,7,6,0.3,0.3
2025-04-14T1500,1156A,118.7997,32.0754,南京市,玄武湖,颗粒物(PM10),60,69,128,7,23,106,,90,90,6,10,5,5,0.5,0.5
2025-04-14T1500,1157A,118.6414,32.0931,南京市,浦口,颗粒物(PM10),94,138,134,22,21,126,,109,109,14,17,6,7,0.4,0.4
2025-04-14T1500,1158A,118.7356,31.9996,南京市,奥体中心,颗粒物(PM10),64,78,139,17,34,116,,99,99,10,17,7,8,0.3,0.4
2025-04-14T1500,1159A,118.9125,32.1028,南京市,仙林大学城,颗粒物(PM10),70,90,164,14,40,119,,99,99,7,14,10,12,0.6,0.8
2025-04-14T1500,3422A,118.8436,31.9198,南京市,江宁彩虹桥,颗粒物(PM10),70,90,158,12,32,122,,103,103,3,6,4,4,0.5,0.5
2025-04-14T1500,3427A,118.8554,32.3578,南京市,六合雄州,颗粒物(PM10),57,63,103,18,20,115,,96,96,2,4,5,5,0.3,0.3
2025-04-14T1500,4249A,118.8708,31.3402,南京市,汶溪路181号,颗粒物(PM10),53,56,142,9,49,121,,98,98,14,17,2,5,0.5,0.6
2025-04-14T1500,4312A,119.019,31.6512,南京市,中山西路1号,细颗粒物(PM2.5),122,107,124,92,50,121,,102,102,9,14,4,5,0.4,0.5
2025-04-14T1500,1401A,108.3103,22.7881,南宁市,二十一中,颗粒物(PM10),160,270,236,79,70,182,,95,95,18,34,12,8,0.6,0.6
2025-04-14T1500,1402A,108.3141,22.8528,南宁市,北湖,颗粒物(PM10),155,259,243,76,67,182,,100,100,16,34,14,13,0.7,0.8
2025-04-14T1500,1403A,108.3206,22.8225,南宁市,市监测站,颗粒物(PM10),160,269,247,73,65,167,,92,92,23,29,14,9,0.3,0.3
2025-04-14T1500,1404A,108.3829,22.8037,南宁市,大自然花园,颗粒物(PM10),167,283,249,74,66,186,,106,106,17,21,9,9,0.4,0.5
2025-04-14T1500,1405A,108.4394,22.7904,南宁市,仙葫,颗粒物(PM10),163,276,247,79,78,154,,87,87,14,25,9,8,0.5,0.5
2025-04-14T1500,1406A,108.2397,22.8467,南宁市,区农职院,颗粒物(PM10),165,280,239,72,64,168,,103,103,13,24,11,9,0.6,0.6
2025-04-14T1500,1407A,108.3275,22.735,南宁市,英华嘉园,颗粒物(PM10),150,250,234,70,61,183,,100,100,17,32,12,9,0.4,0.5
2025-04-14T1500,3401A,108.4834,22.7618,南宁市,红星社区,颗粒物(PM10),159,268,248,71,61,191,,114,114,14,23,13,10,0.5,0.6
2025-04-14T1500,4221A,108.2177,22.7774,南宁市,乐贤路16号,颗粒物(PM10),161,271,246,67,62,160,,93,93,11,36,16,13,0.6,0.6
2025-04-14T1500,2331A,118.0966,26.6761,南平市,茫荡山,,,,,,,,,,,,,,,,
2025-04-14T1500,2332A,118.1681,26.6369,南平市,南平市监测站,颗粒物(PM10),109,167,92,47,28,108,,76,76,5,19,5,5,0.5,0.6
2025-04-14T1500,2333A,118.1825,26.6489,南平市,南平铝业有限公司,颗粒物(PM10),119,187,90,48,27,107,,78,78,6,17,4,5,0.5,0.6
2025-04-14T1500,2334A,118.1756,26.6272,南平市,南平七中,颗粒物(PM10),123,195,88,54,28,114,,79,79,5,15,6,5,0.5,0.6
2025-04-14T1500,1168A,120.9098,31.9663,南通市,狼山街道,颗粒物(PM10),72,94,97,15,20,117,,97,97,21,24,6,7,0.5,0.6
2025-04-14T1500,1169A,120.86,32.0005,南通市,虹桥,颗粒物(PM10),60,69,96,10,25,122,,100,100,12,26,6,8,0.4,0.5
2025-04-14T1500,1170A,120.87,32.02,南通市,城中,颗粒物(PM10),75,99,113,7,21,126,,103,103,13,22,2,5,0.3,0.4
2025-04-14T1500,1171A,120.94,31.93,南通市,星湖花园,颗粒物(PM10),68,85,98,15,23,88,,70,70,51,34,6,9,0.5,0.7
2025-04-14T1500,1172A,120.81,32.0417,南通市,紫琅学院,颗粒物(PM10),63,76,104,6,18,123,,102,102,12,21,4,7,0.6,0.8
2025-04-14T1500,3291A,121.067,32.062,南通市,通州监测站,,,119,90,7,18,120,,99,99,10,17,4,6,,0.4
2025-04-14T1500,3432A,120.9348,31.9883,南通市,环境教育馆,颗粒物(PM10),89,127,109,15,23,134,,108,108,9,18,6,7,0.5,0.4
2025-04-14T1500,2404A,112.5224,33.0122,南阳市,瓦房庄,,44,44,156,12,43,119,,104,104,9,16,4,4,0.4,0.4
2025-04-14T1500,2405A,112.5003,32.9735,南阳市,汉画馆,,39,39,140,3,36,108,,96,96,11,19,4,4,0.2,0.3
2025-04-14T1500,2406A,112.5573,33.027,南阳市,气象站,,36,36,173,3,36,114,,97,97,6,15,3,3,0.3,0.3
2025-04-14T1500,2407A,112.5481,32.9689,南阳市,理工学院,,,38,153,16,42,117,,106,106,,20,2,3,0.3,0.4
2025-04-14T1500,4008A,112.5234,32.9922,南阳市,卧龙区政府,,37,37,152,7,36,115,,102,102,10,17,3,3,0.4,0.5
2025-04-14T1500,1234A,121.8358,29.911,宁波市,区环保大楼,颗粒物(PM10),76,102,148,24,33,123,,100,100,20,17,11,9,0.5,0.5
2025-04-14T1500,1235A,121.56,29.82,宁波市,万里学院,颗粒物(PM10),89,127,151,34,43,142,,114,114,7,10,7,7,0.4,0.4
2025-04-14T1500,1236A,121.713,29.9572,宁波市,龙赛医院,颗粒物(PM10),71,91,144,28,29,129,,104,104,9,15,9,8,0.5,0.5
2025-04-14T1500,1239A,121.633,29.7733,宁波市,钱湖水厂,颗粒物(PM10),90,130,131,33,36,141,,110,110,11,10,8,7,0.5,0.5
2025-04-14T1500,1240A,121.5856,29.8635,宁波市,太古小学,颗粒物(PM10),81,111,144,27,32,144,,113,113,9,15,9,9,0.3,0.3
2025-04-14T1500,1241A,121.524,29.8674,宁波市,市环境监测中心,颗粒物(PM10),75,100,139,31,31,138,,107,107,12,17,10,9,0.4,0.4
2025-04-14T1500,2871A,121.6147,29.9017,宁波市,万里国际学校,,,104,129,35,36,136,,91,,4,9,8,8,,0.3
2025-04-14T1500,3710A,121.5594,29.8975,宁波市,白沙活动中心,颗粒物(PM10),73,95,124,31,44,137,,109,109,7,13,8,8,0.5,0.5
2025-04-14T1500,2339A,119.5001,26.6946,宁德市,金涵水库,,,,,,,,,,,,,,,,
2025-04-14T1500,2341A,119.5388,26.6612,宁德市,宁德市监测站,颗粒物(PM10),90,130,109,42,36,117,,73,73,14,18,7,6,0.4,0.7
2025-04-14T1500,3209A,119.5231,26.6562,宁德市,宁德一中,颗粒物(PM10),89,128,104,53,36,116,,78,78,12,14,7,7,0.3,0.5
2025-04-14T1500,2618A,98.8601,25.8567,怒江傈僳族自治州,州监测站,,32,20,31,14,21,102,,64,64,4,9,8,7,0.2,0.3
2025-04-14T1500,2619A,98.8546,25.8417,怒江傈僳族自治州,泸水一中,,40,40,34,27,25,89,,52,52,8,16,6,6,0.3,0.4
2025-04-14T1500,1888A,101.6891,26.571,攀枝花市,弄弄坪,,45,40,40,23,16,141,,84,84,15,20,6,10,0.6,0.9
2025-04-14T1500,1889A,101.5769,26.5928,攀枝花市,河门口,,44,39,40,14,18,139,,87,87,8,17,14,20,0.9,1
2025-04-14T1500,1890A,101.7169,26.585,攀枝花市,炳草岗,,42,42,38,11,16,134,,72,72,19,26,10,15,0.3,0.7
2025-04-14T1500,1891A,101.7369,26.5008,攀枝花市,仁和,,44,33,41,20,20,140,,109,109,10,17,11,13,0.4,0.6
2025-04-14T1500,2835A,101.7227,26.567,攀枝花市,四十中小,,44,36,35,20,20,139,,77,77,9,21,7,10,0.5,0.6
2025-04-14T1500,1604A,122.0303,41.1489,盘锦市,开发区,,27,9,11,3,14,84,,68,67,9,10,8,8,0.4,0.4
2025-04-14T1500,1605A,122.0485,41.0883,盘锦市,兴隆台,,25,8,13,6,13,77,,66,62,14,15,9,8,0.5,0.5
2025-04-14T1500,1606A,121.8297,41.1028,盘锦市,新生街道,,27,6,9,3,11,86,,66,66,13,15,14,14,0.3,0.4
2025-04-14T1500,1832A,113.3257,33.742,平顶山市,新华旅馆,,,35,116,13,25,121,,77,,8,14,,6,0.2,0.2
2025-04-14T1500,1833A,113.2919,33.737,平顶山市,规划设计院,,39,26,99,8,21,122,,98,98,5,12,4,6,0.6,0.6
2025-04-14T1500,1834A,113.182,33.774,平顶山市,平顶山工学院,,38,27,107,22,20,121,,99,99,6,10,6,6,0.4,0.4
2025-04-14T1500,3204A,113.3025,33.73,平顶山市,规划局,,38,29,112,3,16,121,,98,98,13,11,4,6,0.5,0.6
2025-04-14T1500,3594A,112.8867,33.9116,平顶山市,石龙区,颗粒物(PM10),74,98,217,12,29,116,,98,98,10,13,5,6,0.3,0.3
2025-04-14T1500,2656A,106.6692,35.5461,平凉市,聚贤嘉苑,,34,28,126,7,30,106,,95,95,3,8,8,9,0.5,0.5
2025-04-14T1500,2657A,106.7021,35.5307,平凉市,博物馆,,34,34,131,7,31,104,,90,90,3,7,9,9,0.4,0.4
2025-04-14T1500,2347A,114.0997,27.5002,萍乡市,武功山,颗粒物(PM10),125,199,158,42,38,109,,78,78,6,6,14,12,0.3,0.6
2025-04-14T1500,2348A,113.8385,27.6434,萍乡市,中医院,颗粒物(PM10),135,219,252,54,63,128,,89,89,5,17,10,16,0.4,0.7
2025-04-14T1500,2349A,113.8493,27.6253,萍乡市,市政府车库,颗粒物(PM10),122,193,201,61,63,128,,91,91,8,20,7,8,0.3,0.5
2025-04-14T1500,2350A,113.8676,27.6435,萍乡市,市环保局,颗粒物(PM10),132,214,245,67,86,128,,90,90,3,23,5,11,0.4,0.8
2025-04-14T1500,2351A,113.866,27.6198,萍乡市,安源区政府,颗粒物(PM10),128,206,222,54,62,124,,85,85,6,13,12,11,0.2,0.4
2025-04-14T1500,2319A,119.0141,25.4325,莆田市,荔城区仓后路,细颗粒物(PM2.5),109,155,165,82,56,211,,130,130,37,22,6,5,0.7,0.5
2025-04-14T1500,2320A,119.0015,25.4553,莆田市,莆田市监测站,臭氧1小时,110,136,134,72,50,220,,122,122,32,16,9,5,0.6,0.4
2025-04-14T1500,2321A,119.1119,25.4561,莆田市,涵江区六中,臭氧1小时,106,148,156,68,56,211,,127,127,28,23,8,5,0.6,0.5
2025-04-14T1500,2322A,119.1013,25.3215,莆田市,秀屿区政府,颗粒物(PM10),97,143,168,55,57,192,,126,126,24,26,7,6,0.6,0.6
2025-04-14T1500,2323A,118.981,25.4792,莆田市,东圳水库,,,,,,,,,,,,,,,,
2025-04-14T1500,2392A,115.0312,35.7636,濮阳市,环保局,,41,26,63,10,20,129,,104,104,9,16,5,7,0.9,1
2025-04-14T1500,2394A,115.0574,35.7609,濮阳市,油田运输公司,,45,39,73,7,14,141,,110,110,10,16,4,5,0.4,0.5
2025-04-14T1500,3021A,115,35.7668,濮阳市,濮水河管理处,,43,33,72,6,14,136,,104,104,6,16,3,5,0.5,0.6
2025-04-14T1500,4216A,115.0924,35.7686,濮阳市,任丘路479号,,45,41,80,12,17,142,,111,111,8,15,4,6,0.4,0.4
2025-04-14T1500,2601A,100.98,22.7633,普洱市,市环保局,,36,36,52,7,19,96,,59,59,7,12,3,2,0.5,0.5
2025-04-14T1500,2602A,100.9817,22.8322,普洱市,普洱第二中学,,38,33,43,7,20,120,,65,65,9,23,7,7,0.4,0.4
2025-04-14T1500,2262A,131.0518,45.8751,七台河市,新一中,,40,40,22,11,12,102,,96,96,10,9,12,12,0.5,0.5
2025-04-14T1500,3345A,131.0577,45.7879,七台河市,中波台,,27,25,19,3,6,85,,78,78,10,12,7,6,0.4,0.4
2025-04-14T1500,3637A,131.0176,45.7761,七台河市,人民广场,,36,36,24,21,14,95,,88,88,11,12,8,9,0.8,0.8
2025-04-14T1500,3684A,130.8781,45.8222,七台河市,新建矿广场,颗粒物(PM10),54,58,25,9,12,84,,84,84,22,14,6,8,0.6,0.5
2025-04-14T1500,1779A,123.9305,47.3636,齐齐哈尔市,安居小区,,33,29,15,3,6,103,,85,85,8,7,3,2,0.3,0.2
2025-04-14T1500,1780A,123.9488,47.3386,齐齐哈尔市,中心广场,,,34,20,,,94,,79,79,10,8,6,6,0.5,0.4
2025-04-14T1500,1781A,123.9483,47.3227,齐齐哈尔市,农牧车辆厂,,31,24,16,9,7,99,,84,84,10,7,5,5,0.1,0.1
2025-04-14T1500,1783A,123.945,47.2988,齐齐哈尔市,市环境监测站,,32,19,17,13,8,100,,85,85,7,6,2,2,0.4,0.4
2025-04-14T1500,3662A,123.6333,47.2075,齐齐哈尔市,富区青少年活动中心,,33,22,10,17,8,103,,86,86,6,5,2,2,0.3,0.3
2025-04-14T1500,2591A,107.9783,26.5747,黔东南苗族侗族自治州,市环境监测站,颗粒物(PM10),87,124,155,50,58,139,,80,80,8,21,7,4,0.2,0.3
2025-04-14T1500,2881A,107.8908,26.5311,黔东南苗族侗族自治州,凯里学院,颗粒物(PM10),97,144,144,49,52,134,,77,77,6,16,7,3,0.4,0.4
2025-04-14T1500,2593A,107.5228,26.2403,黔南布依族苗族自治州,小围寨,颗粒物(PM10),69,88,118,24,39,137,,79,79,4,14,8,4,0.4,0.4
2025-04-14T1500,3538A,107.5175,26.2978,黔南布依族苗族自治州,沙坝,颗粒物(PM10),81,112,141,51,43,138,,78,78,5,12,8,4,0.4,0.4
2025-04-14T1500,2589A,104.9022,25.0925,黔西南布依族苗族自治州,场坝街,颗粒物(PM10),80,109,151,36,67,138,,91,91,10,17,8,29,0.2,0.3
2025-04-14T1500,2590A,104.8811,25.0992,黔西南布依族苗族自治州,坪东大道,颗粒物(PM10),72,94,127,37,60,141,,99,99,10,23,10,11,0.3,0.4
2025-04-14T1500,2502A,108.6236,21.9667,钦州市,市环保站,,,,285,,66,126,,86,86,,40,3,10,0.6,1.1
2025-04-14T1500,2503A,108.6549,21.9481,钦州市,沙埠小学,颗粒物(PM10),177,304,289,67,70,134,,82,82,13,41,7,9,0.9,1.1
2025-04-14T1500,2504A,108.5989,21.7431,钦州市,港区一小,颗粒物(PM10),168,286,262,75,67,139,,78,78,15,42,10,10,0.7,0.8
2025-04-14T1500,3404A,108.5959,21.9633,钦州市,北职校,颗粒物(PM10),171,292,248,69,69,127,,86,86,10,32,8,8,0.5,1.2
2025-04-14T1500,1043A,119.7493,40.0116,秦皇岛市,第一关,,40,30,13,28,16,88,,101,98,16,13,4,4,0.3,0.3
2025-04-14T1500,1044A,119.5897,39.9499,秦皇岛市,监测站,,35,35,23,20,11,90,,104,104,8,3,3,3,0.3,0.3
2025-04-14T1500,1046A,119.5251,39.9041,秦皇岛市,建设大厦,,30,23,26,20,13,95,,103,103,14,13,2,2,0.3,0.3
2025-04-14T1500,3132A,119.610547,39.943889,秦皇岛市,文明里,,30,30,25,6,9,93,,100,100,3,3,3,3,0.3,0.3
2025-04-14T1500,4198A,119.5090,39.8253,秦皇岛市,北戴河轮滑馆,,44,44,21,10,6,93,,100,100,4,3,5,5,0.3,0.3
2025-04-14T1500,1307A,120.6659,36.2403,青岛市,仰口,,35,22,80,9,20,111,,96,96,4,4,4,4,0.5,0.5
2025-04-14T1500,1310A,120.4134,36.0658,青岛市,市南区东部子站,颗粒物(PM10),54,58,92,3,11,104,,88,88,8,11,7,8,0.5,0.5
2025-04-14T1500,1311A,120.3664,36.1032,青岛市,四方区子站,,37,29,77,9,15,116,,98,98,7,11,4,6,0.4,0.4
2025-04-14T1500,1312A,120.2994,36.054,青岛市,市南区西部子站,,31,29,77,7,11,97,,84,84,12,16,7,7,0.5,0.5
2025-04-14T1500,1313A,120.4581,36.0858,青岛市,崂山区子站,,,29,77,3,9,116,,97,97,,8,7,8,0.4,0.4
2025-04-14T1500,1315A,120.3999,36.3083,青岛市,城阳区子站,,36,27,75,3,12,114,,94,94,8,12,8,9,0.5,0.5
2025-04-14T1500,1966A,120.0405,35.8735,青岛市,黄岛区4号,,37,22,71,3,9,116,,97,97,10,12,7,8,0.6,0.6
2025-04-14T1500,3362A,120.5014,36.4034,青岛市,即墨2号,,34,27,86,12,19,108,,89,89,6,9,7,8,0.5,0.5
2025-04-14T1500,3642A,120.3503,36.0736,青岛市,市北区南部,,39,39,73,3,10,106,,90,90,10,12,7,7,0.5,0.5
2025-04-14T1500,3643A,120.3948,36.1805,青岛市,李沧区北部,,36,36,84,14,19,103,,86,86,8,11,8,8,0.5,0.5
2025-04-14T1500,4290A,120.1969,35.9546,青岛市,珠江路669号,,36,31,78,10,17,114,,97,97,10,11,6,6,0.5,0.5
2025-04-14T1500,1702A,113.0426,23.691,清远市,环保大楼,颗粒物(PM10),114,178,193,67,58,138,,77,77,20,27,10,18,0.6,0.7
2025-04-14T1500,1703A,113.0208,23.7106,清远市,凤城街办,颗粒物(PM10),145,240,285,80,71,131,,78,78,16,26,10,20,0.4,0.5
2025-04-14T1500,3025A,113.0477,23.6344,清远市,技师学院,颗粒物(PM10),135,219,282,54,66,125,,65,65,12,31,11,26,0.5,0.6
2025-04-14T1500,3318A,112.9903,23.7403,清远市,清新太和,颗粒物(PM10),154,257,266,71,67,133,,70,70,19,21,11,8,0.5,0.5
2025-04-14T1500,3455A,113.076,23.7198,清远市,清城东城,颗粒物(PM10),156,262,255,67,60,129,,77,77,19,22,8,10,0.9,0.8
2025-04-14T1500,2661A,107.6325,35.7357,庆阳市,庆阳五中,,34,32,141,3,32,106,,90,90,5,5,3,2,0.2,0.2
2025-04-14T1500,2662A,107.6364,35.7067,庆阳市,市环保局,,35,27,135,9,29,109,,96,96,4,4,5,5,0.2,0.2
2025-04-14T1500,1916A,103.7897,25.5035,曲靖市,环境监测站,颗粒物(PM10),67,84,120,47,41,144,,96,96,14,21,9,16,0.4,0.5
2025-04-14T1500,1917A,103.8,25.5364,曲靖市,烟厂办公区,颗粒物(PM10),69,87,121,26,36,156,,105,105,11,16,4,15,0.4,0.7
2025-04-14T1500,3376A,103.7947,25.462,曲靖市,南苑二区,颗粒物(PM10),65,79,116,28,33,125,,90,90,11,17,10,15,0.6,0.7
2025-04-14T1500,3377A,103.7444,25.5261,曲靖市,曲靖师范学院,颗粒物(PM10),60,69,103,33,48,152,,97,97,10,22,10,28,0.4,0.6
2025-04-14T1500,1264A,118.8692,28.9398,衢州市,环保大楼,颗粒物(PM10),104,158,159,37,42,120,,96,96,8,17,4,8,0.2,0.4
2025-04-14T1500,1265A,118.8709,28.9666,衢州市,实验学校,颗粒物(PM10),90,129,144,30,39,118,,87,87,9,18,7,9,0.3,0.4
2025-04-14T1500,1266A,118.8621,28.9808,衢州市,衢州学院,颗粒物(PM10),97,143,158,30,38,113,,84,84,12,21,7,9,0.3,0.3
2025-04-14T1500,1611A,118.5819,24.9117,泉州市,涂山街,颗粒物(PM10),71,92,177,28,51,140,,105,105,23,30,6,7,0.4,0.5
2025-04-14T1500,1612A,118.5972,24.8978,泉州市,津头埔,颗粒物(PM10),75,99,173,29,50,138,,102,102,28,36,5,6,0.5,0.5
