timepoint,stationcode,longitude,latitude,area,positionname,primarypollutant,aqi,pm10,pm10_24h,pm2_5,pm2_5_24h,o3,o3_24h,o3_8h,o3_8h_24h,no2,no2_24h,so2,so2_24h,co,co_24h
2023-12-05T2200,2566A,102.1879,31.914,阿坝藏族羌族自治州,州农科所,,,,,,,42,,46,46,5,10,5,7,0,0
2023-12-05T2200,2568A,102.2502,31.8896,阿坝藏族羌族自治州,马师校,,39,30,13,27,13,38,,77,74,32,16,4,4,0.8,0.6
2023-12-05T2200,3994A,102.2165,31.9024,阿坝藏族羌族自治州,马尔康中学西区,,24,21,18,13,12,75,,77,77,2,11,3,4,0.4,0.5
2023-12-05T2200,2695A,80.292,41.1694,阿克苏地区,电视台,颗粒物(PM10),141,231,176,85,80,5,,93,74,101,53,16,9,2.9,2
2023-12-05T2200,2696A,80.2613,41.1551,阿克苏地区,艺术中心,颗粒物(PM10),114,177,154,56,67,9,,94,74,106,55,12,9,2.5,1.6
2023-12-05T2200,2204A,105.6467,38.8363,阿拉善盟,西城区西花园,颗粒物(PM10),87,124,86,34,28,80,,88,82,14,14,9,9,0.5,0.5
2023-12-05T2200,2205A,105.6985,38.8411,阿拉善盟,蒙二幼,颗粒物(PM10),92,133,93,32,24,81,,87,83,14,15,4,4,0.7,0.7
2023-12-05T2200,2206A,105.724,38.8516,阿拉善盟,环保局新楼,颗粒物(PM10),65,79,72,30,24,86,,91,86,6,7,7,7,0.5,0.6
2023-12-05T2200,2708A,88.1264,47.8517,阿勒泰地区,市站,,15,6,9,6,4,45,,43,42,18,22,4,4,0.3,0.3
2023-12-05T2200,2630A,80.1161,32.5,阿里地区,阿里监测站,,25,10,17,2,7,79,,77,77,5,28,8,15,0.4,0.5
2023-12-05T2200,3192A,80.0903,32.5028,阿里地区,阿里藏医院,,25,13,16,4,7,77,,81,81,11,26,10,11,0.6,0.6
2023-12-05T2200,2642A,109.0318,32.6537,安康市,香溪洞,细颗粒物(PM2.5),65,,40,47,33,22,,20,20,26,18,21,10,0.9,0.7
2023-12-05T2200,2643A,109.0281,32.6939,安康市,安康市监测站,细颗粒物(PM2.5),102,100,75,76,56,4,,12,10,30,31,12,17,1.2,1
2023-12-05T2200,2644A,109.0072,32.6975,安康市,汉滨区检察院,细颗粒物(PM2.5),80,79,69,59,52,5,,14,12,24,27,9,24,0.9,0.8
2023-12-05T2200,2291A,117.0809,30.5177,安庆市,环科院,细颗粒物(PM2.5),104,95,92,78,67,14,,61,42,45,42,8,10,0.8,0.6
2023-12-05T2200,2292A,117.0331,30.5119,安庆市,马山宾馆,细颗粒物(PM2.5),90,94,90,67,58,20,,54,21,31,41,5,8,0.9,0.6
2023-12-05T2200,2294A,116.9896,30.6145,安庆市,安庆大学,细颗粒物(PM2.5),94,130,102,70,68,12,,77,50,71,36,9,11,0.9,0.8
2023-12-05T2200,3173A,117.0598,30.5351,安庆市,市人大,细颗粒物(PM2.5),105,103,91,79,67,28,,67,54,35,37,7,10,1.0,0.7
2023-12-05T2200,3122A,105.9606,26.2611,安顺市,伍家关,细颗粒物(PM2.5),144,,42,110,45,41,,40,34,14,12,13,17,0.6,0.7
2023-12-05T2200,3123A,105.9408,26.2431,安顺市,凤凰山,细颗粒物(PM2.5),79,64,44,58,36,35,,34,32,19,16,19,22,0.8,0.6
2023-12-05T2200,3124A,105.9439,26.2564,安顺市,金钟山,细颗粒物(PM2.5),82,68,47,60,39,36,,36,33,16,14,18,23,0.7,0.6
2023-12-05T2200,3125A,105.8983,26.2481,安顺市,娄家坡,细颗粒物(PM2.5),78,72,48,57,39,40,,36,30,14,12,16,20,0.6,0.6
2023-12-05T2200,1818A,114.4839,36.0621,安阳市,棉研所,细颗粒物(PM2.5),104,132,163,78,124,15,,58,46,81,73,25,18,1.8,1.6
2023-12-05T2200,1819A,114.3551,36.1017,安阳市,红庙街,颗粒物(PM10),91,131,171,38,127,35,,55,45,55,70,22,20,2.0,2.4
2023-12-05T2200,1820A,114.361,36.0681,安阳市,银杏小区,颗粒物(PM10),96,142,157,39,135,39,,53,45,51,65,15,17,1.7,2.1
2023-12-05T2200,3141A,114.3922,36.0878,安阳市,信访局,颗粒物(PM10),105,159,181,52,128,31,,56,48,69,80,16,18,1.7,2
2023-12-05T2200,3669A,114.4705,36.0637,安阳市,左辅环卫站,细颗粒物(PM2.5),113,152,180,85,143,16,,62,49,94,84,22,17,1.8,1.6
2023-12-05T2200,3703A,114.2917,36.0949,安阳市,安钢职工学校,颗粒物(PM10),125,200,206,61,138,29,,60,46,65,63,16,17,2.2,2.4
2023-12-05T2200,1748A,123.044,41.1196,鞍山市,深沟寺,细颗粒物(PM2.5),75,78,106,55,77,88,,99,92,14,24,9,10,0.7,0.9
2023-12-05T2200,1749A,123.011,41.0931,鞍山市,太阳城,细颗粒物(PM2.5),70,76,97,51,88,89,,99,93,20,29,11,11,0.8,1
2023-12-05T2200,1750A,123.0485,41.1442,鞍山市,太平,细颗粒物(PM2.5),73,77,115,53,78,91,,93,79,23,37,13,13,0.8,1.1
2023-12-05T2200,1751A,122.9642,41.0971,鞍山市,铁西三道街,细颗粒物(PM2.5),84,99,131,62,85,65,,77,61,43,53,19,17,1.8,1.2
2023-12-05T2200,1752A,122.9341,41.0833,鞍山市,铁西工业园区,细颗粒物(PM2.5),88,87,140,65,102,88,,92,89,19,45,12,15,1.1,1.9
2023-12-05T2200,1753A,123.022,41.0821,鞍山市,明达新区,细颗粒物(PM2.5),75,80,103,55,75,88,,95,91,20,30,10,10,0.6,0.9
2023-12-05T2200,1754A,123.1289,41.0228,鞍山市,千山,,,,79,,65,,,31,,,15,,4,,0.7
2023-12-05T2200,2195A,107.4212,40.761,巴彦淖尔市,附二中,颗粒物(PM10),492,592,533,122,99,66,,76,64,6,9,2,2,0.5,0.5
2023-12-05T2200,2196A,107.37,40.7372,巴彦淖尔市,市环保大楼,颗粒物(PM10),500,651,533,123,101,67,,73,64,4,6,2,3,0.4,0.4
2023-12-05T2200,1956A,86.1472,41.7538,巴音郭楞州,孔雀公园,颗粒物(PM10),98,145,156,45,46,63,,69,69,34,51,14,6,0.5,0.7
2023-12-05T2200,1957A,86.1972,41.7166,巴音郭楞州,棉纺厂,颗粒物(PM10),128,206,190,53,59,15,,75,61,88,47,4,4,0.9,0.8
2023-12-05T2200,1958A,86.2357,41.7173,巴音郭楞州,经济开发区,颗粒物(PM10),89,127,156,36,43,32,,76,60,65,37,4,5,0.6,0.5
2023-12-05T2200,2914A,106.7677,31.8794,巴中市,苏山坪,细颗粒物(PM2.5),68,54,36,49,32,29,,53,38,24,19,3,3,0.6,0.6
2023-12-05T2200,3182A,106.7656,31.8545,巴中市,丽阳花园,细颗粒物(PM2.5),75,76,61,55,47,4,,27,20,33,34,4,4,1.0,0.9
2023-12-05T2200,3183A,106.7418,31.8654,巴中市,圣泉水务公司,细颗粒物(PM2.5),69,67,50,50,41,2,,36,23,37,33,5,5,0.9,0.8
2023-12-05T2200,3616A,106.7616,31.8344,巴中市,市中心医院,细颗粒物(PM2.5),75,70,59,55,49,4,,24,20,32,28,5,5,0.8,0.8
2023-12-05T2200,2235A,122.7911,45.6077,白城市,洮北区环保局,,26,26,43,9,25,64,,70,65,8,15,7,8,0.4,0.7
2023-12-05T2200,2236A,122.8738,45.5725,白城市,市环保局,,33,33,52,9,25,65,,63,62,7,17,2,5,0.4,0.6
2023-12-05T2200,2231A,126.4219,41.9171,白山市,喜丰,颗粒物(PM10),57,64,99,29,54,84,,81,,13,43,16,13,0.9,1.1
2023-12-05T2200,2232A,126.4077,41.9419,白山市,环保局,细颗粒物(PM2.5),77,78,96,56,65,21,,60,58,64,48,14,16,1.8,1.7
2023-12-05T2200,2647A,104.1724,36.5446,白银市,第三小学,颗粒物(PM10),152,254,246,32,34,54,,86,78,33,35,17,25,0.5,0.7
2023-12-05T2200,2648A,104.1465,36.5482,白银市,动力公司,颗粒物(PM10),118,185,200,33,39,63,,90,86,25,26,1,8,0.5,0.6
2023-12-05T2200,2512A,106.6103,23.9011,百色市,市监测站,细颗粒物(PM2.5),57,58,54,40,29,32,,51,46,26,26,20,21,1.0,1
2023-12-05T2200,2513A,106.6538,23.8859,百色市,市中心血站,颗粒物(PM10),51,51,54,34,32,33,,52,46,25,28,18,20,0.9,1
2023-12-05T2200,3406A,106.6085,23.8798,百色市,祈福高中,细颗粒物(PM2.5),58,56,52,41,30,28,,42,33,27,27,22,16,1.2,1
2023-12-05T2200,2270A,117.396,32.939,蚌埠市,工人疗养院,细颗粒物(PM2.5),77,85,96,56,67,70,,83,77,34,42,14,12,0.7,0.8
2023-12-05T2200,2271A,117.3605,32.9427,蚌埠市,百货大楼,细颗粒物(PM2.5),79,93,98,58,66,64,,82,71,41,43,10,10,0.7,0.8
2023-12-05T2200,2273A,117.4185,32.8911,蚌埠市,蚌埠学院,细颗粒物(PM2.5),82,83,106,60,70,76,,90,79,28,51,6,11,0.6,0.8
2023-12-05T2200,2274A,117.3533,32.9673,蚌埠市,淮上区政府,细颗粒物(PM2.5),89,107,102,66,73,68,,82,74,38,41,11,13,0.8,0.8
2023-12-05T2200,2275A,117.3145,32.8977,蚌埠市,高新区,细颗粒物(PM2.5),112,124,108,84,75,51,,82,64,58,63,8,9,0.8,0.8
2023-12-05T2200,3715A,117.3092,32.9314,蚌埠市,蚌埠田家炳中学,细颗粒物(PM2.5),97,111,116,72,79,53,,77,59,48,58,9,17,0.7,0.7
2023-12-05T2200,1585A,109.8756,40.6532,包头市,市环境监测站,颗粒物(PM10),212,358,223,70,65,50,,58,55,17,47,10,21,0.5,1.3
2023-12-05T2200,1587A,109.9991,40.5842,包头市,包头八中,颗粒物(PM10),388,490,241,132,66,13,,56,51,41,50,23,30,0.8,1.5
2023-12-05T2200,1588A,109.8538,40.6821,包头市,青山宾馆,颗粒物(PM10),232,372,236,116,72,51,,64,56,18,51,7,18,0.5,1.4
2023-12-05T2200,1589A,109.8642,40.6288,包头市,惠龙物流,颗粒物(PM10),393,494,231,87,64,28,,54,51,38,57,16,30,0.9,1.4
2023-12-05T2200,1590A,110.0377,40.5546,包头市,东河鸿龙湾,颗粒物(PM10),378,482,242,98,62,36,,56,51,26,51,10,31,0.5,1.5
2023-12-05T2200,3283A,109.9154,40.5685,包头市,滨河大厦,颗粒物(PM10),500,861,240,196,71,34,,55,47,26,52,9,25,0.5,1.2
2023-12-05T2200,3419A,109.9447,40.6261,包头市,包头市委党校,颗粒物(PM10),183,315,185,52,49,52,,62,59,18,46,8,17,0.6,1.1
2023-12-05T2200,3683A,109.8331,40.6576,包头市,昆区政府,颗粒物(PM10),262,393,228,104,77,50,,58,56,20,57,10,27,0.4,1.7
2023-12-05T2200,1930A,107.185,34.3063,宝鸡市,庙沟村,颗粒物(PM10),198,345,73,38,20,72,,75,74,4,11,7,8,0.2,0.6
2023-12-05T2200,1931A,107.0708,34.3017,宝鸡市,竹园沟,颗粒物(PM10),248,383,83,51,25,78,,84,84,14,26,4,4,0.4,0.5
2023-12-05T2200,1932A,107.1906,34.3672,宝鸡市,三陆医院,颗粒物(PM10),236,375,124,77,41,56,,64,64,36,48,4,17,0.3,0.7
2023-12-05T2200,1933A,107.1431,34.3547,宝鸡市,监测站,颗粒物(PM10),265,395,103,66,33,58,,68,68,31,38,4,5,0.5,0.6
2023-12-05T2200,1934A,107.1186,34.3739,宝鸡市,技工学校,颗粒物(PM10),212,358,109,74,37,56,,77,75,36,36,6,7,0.5,0.7
2023-12-05T2200,1935A,107.3906,34.3528,宝鸡市,陈仓区环保局家属楼,颗粒物(PM10),184,318,122,48,55,52,,61,61,44,48,8,13,0.6,0.9
2023-12-05T2200,1936A,107.2058,34.3497,宝鸡市,文理学院,颗粒物(PM10),273,401,115,70,36,77,,75,75,23,41,5,10,0.5,0.7
2023-12-05T2200,1937A,107.2386,34.3622,宝鸡市,三迪小学,颗粒物(PM10),278,404,126,74,43,78,,74,74,16,41,6,12,0.4,0.7
2023-12-05T2200,1051A,115.493,38.8632,保定市,游泳馆,细颗粒物(PM2.5),192,184,157,144,128,6,,20,10,96,78,14,15,1.2,1.2
2023-12-05T2200,1052A,115.5213,38.8959,保定市,华电二区,细颗粒物(PM2.5),206,174,154,156,127,4,,11,7,111,87,10,11,1.5,1.5
2023-12-05T2200,1053A,115.4713,38.9108,保定市,接待中心,细颗粒物(PM2.5),166,191,176,126,127,0,,11,4,114,96,10,9,2.0,2
2023-12-05T2200,1054A,115.4612,38.8416,保定市,地表水厂,细颗粒物(PM2.5),185,173,193,139,147,4,,14,7,105,89,12,12,1.5,1.4
2023-12-05T2200,1056A,115.5086,38.8639,保定市,监测站,细颗粒物(PM2.5),198,174,168,148,131,2,,13,5,110,93,16,13,1.5,1.5
2023-12-05T2200,3581A,115.31981,38.95208,保定市,满城区生态环境分局,细颗粒物(PM2.5),180,191,148,136,94,2,,21,10,105,83,6,6,1.6,1.5
2023-12-05T2200,3582A,115.47694,38.76408,保定市,清苑区第二中学,细颗粒物(PM2.5),193,231,178,145,121,6,,23,14,98,86,12,14,1.8,1.5
2023-12-05T2200,3583A,115.62909,39.02311,保定市,徐水物探局,细颗粒物(PM2.5),168,219,198,127,116,2,,19,9,100,77,14,13,1.6,1.6
2023-12-05T2200,4004A,115.4202,38.8656,保定市,双鹰农机,细颗粒物(PM2.5),195,178,170,146,115,4,,16,7,98,78,13,14,1.7,1.8
2023-12-05T2200,2594A,99.1678,25.1081,保山市,市环境监测站,,22,18,18,15,9,59,,74,67,7,9,3,3,0.5,0.5
2023-12-05T2200,2595A,99.1711,25.1328,保山市,市环保局,,26,26,23,13,13,62,,76,72,4,7,5,4,0.5,0.5
2023-12-05T2200,1866A,109.2262,21.588,北海市,牛尾岭水库,细颗粒物(PM2.5),65,58,31,47,25,18,,46,33,11,9,21,11,0.6,0.6
2023-12-05T2200,1867A,109.1436,21.4086,北海市,海滩公园,细颗粒物(PM2.5),68,65,40,49,25,31,,52,43,23,19,10,9,0.8,0.6
2023-12-05T2200,1868A,109.0981,21.4661,北海市,新市环保局,细颗粒物(PM2.5),89,76,38,66,30,20,,52,42,37,16,9,10,1.0,0.7
2023-12-05T2200,1869A,109.1778,21.5233,北海市,北海工业园,细颗粒物(PM2.5),70,63,42,51,31,20,,43,33,28,20,18,13,0.9,0.8
2023-12-05T2200,3400A,109.1911,21.4415,北海市,龙潭自来水厂,细颗粒物(PM2.5),89,82,38,66,29,18,,51,36,23,16,12,10,0.9,0.7
2023-12-05T2200,1001A,116.3621,39.8784,北京市,万寿西宫,细颗粒物(PM2.5),103,152,144,77,77,0,,12,4,108,94,8,6,1.3,1.3
2023-12-05T2200,1002A,116.2202,40.2915,北京市,定陵,细颗粒物(PM2.5),94,118,94,70,50,0,,21,5,66,40,3,3,0.8,0.5
2023-12-05T2200,1003A,116.4174,39.9289,北京市,东四,细颗粒物(PM2.5),129,168,163,98,89,1,,10,4,103,87,14,8,1.6,1.6
2023-12-05T2200,1004A,116.4072,39.8863,北京市,天坛,细颗粒物(PM2.5),137,144,134,104,85,5,,13,7,96,80,6,6,1.6,1.4
2023-12-05T2200,1005A,116.462,39.9365,北京市,农展馆,细颗粒物(PM2.5),128,159,161,97,91,2,,10,5,104,91,8,7,1.4,1.5
2023-12-05T2200,1006A,116.3392,39.9295,北京市,官园,细颗粒物(PM2.5),122,167,141,92,77,0,,14,5,96,80,10,8,1.2,1.1
2023-12-05T2200,1007A,116.2878,39.9611,北京市,海淀万柳,细颗粒物(PM2.5),114,169,142,86,65,7,,14,10,104,88,4,4,1.5,1.5
2023-12-05T2200,1008A,116.6636,40.135,北京市,顺义新城,细颗粒物(PM2.5),149,179,140,114,78,4,,23,11,91,66,8,6,1.3,1
2023-12-05T2200,1009A,116.6275,40.3275,北京市,怀柔镇,细颗粒物(PM2.5),109,132,101,82,57,8,,25,11,72,48,4,5,1.1,0.8
2023-12-05T2200,1010A,116.2296,40.217,北京市,昌平镇,细颗粒物(PM2.5),113,144,106,85,54,3,,15,6,86,62,4,4,1.5,0.8
2023-12-05T2200,1011A,116.3966,39.9821,北京市,奥体中心,细颗粒物(PM2.5),134,164,135,102,75,1,,10,4,97,79,12,5,1.8,1.3
2023-12-05T2200,1012A,116.184,39.9136,北京市,古城,颗粒物(PM10),117,183,144,59,66,26,,12,8,51,71,3,5,0.8,1.2
2023-12-05T2200,3281A,115.9718,40.4529,北京市,延庆夏都,细颗粒物(PM2.5),104,155,120,78,57,4,,16,8,56,44,5,5,1.3,1.1
2023-12-05T2200,3417A,117.0709,40.1465,北京市,平谷新城,细颗粒物(PM2.5),144,178,138,110,76,3,,24,11,73,59,2,5,1.4,1.1
2023-12-05T2200,3418A,116.8336,40.4095,北京市,密云新城,颗粒物(PM10),102,154,125,74,55,17,,31,21,52,51,4,5,0.9,0.7
2023-12-05T2200,3671A,116.088,39.9726,北京市,门头沟三家店,,,,,,,,,,,,,,,,
2023-12-05T2200,3672A,116.1541,39.8204,北京市,丰台云岗,颗粒物(PM10),118,185,138,71,63,21,,15,8,70,70,5,6,1.0,1
2023-12-05T2200,3673A,116.6804,39.9081,北京市,通州东关,细颗粒物(PM2.5),150,187,185,115,104,2,,13,7,123,102,10,7,1.5,1.5
2023-12-05T2200,3674A,115.9577,39.7603,北京市,房山燕山,颗粒物(PM10),106,162,111,40,58,62,,20,16,5,54,2,8,0,0.7
2023-12-05T2200,3675A,116.4672,39.7733,北京市,大兴旧宫,细颗粒物(PM2.5),179,196,164,135,102,3,,10,5,136,107,1,3,1.6,1.3
2023-12-05T2200,3694A,115.986,40.4563,北京市,延庆石河营,"颗粒物(PM10),细颗粒物(PM2.5)",108,165,117,81,57,4,,16,8,50,40,2,3,1.5,1.2
2023-12-05T2200,3695A,116.6151,40.3053,北京市,怀柔新城,细颗粒物(PM2.5),104,133,98,78,55,10,,25,12,64,38,4,4,1.0,0.6
2023-12-05T2200,3696A,116.2545,39.8768,北京市,丰台小屯,颗粒物(PM10),101,152,148,73,72,4,,12,5,96,91,4,5,1.4,1.4
2023-12-05T2200,3697A,116.84,40.3844,北京市,密云镇,细颗粒物(PM2.5),124,166,123,94,61,4,,26,14,72,57,2,4,1.3,0.9
2023-12-05T2200,1761A,123.8275,41.3064,本溪市,大峪,细颗粒物(PM2.5),93,98,98,69,65,91,,106,104,28,32,10,9,1.2,1.3
2023-12-05T2200,1762A,123.7567,41.3325,本溪市,溪湖,细颗粒物(PM2.5),115,116,108,87,78,76,,93,88,35,34,20,13,1.7,1.3
2023-12-05T2200,1763A,123.7169,41.3094,本溪市,彩屯,细颗粒物(PM2.5),123,126,125,93,91,50,,64,49,64,60,46,38,3.3,2.6
2023-12-05T2200,1764A,123.7669,41.2864,本溪市,东明,细颗粒物(PM2.5),102,,73,76,70,83,,92,90,38,36,14,13,0.6,0.7
2023-12-05T2200,1765A,123.7992,41.2664,本溪市,新立屯,细颗粒物(PM2.5),88,78,71,65,61,100,,105,105,25,22,13,12,0.7,0.7
2023-12-05T2200,1766A,123.8142,41.3472,本溪市,威宁,细颗粒物(PM2.5),90,104,108,67,68,65,,93,82,30,35,5,7,0.6,1.1
2023-12-05T2200,2587A,105.2864,27.3125,毕节市,八中,,20,19,47,13,38,62,,56,56,8,17,6,8,0.6,0.9
2023-12-05T2200,2588A,105.31,27.2944,毕节市,师专,,26,22,58,18,46,59,,53,53,8,19,6,8,0.5,0.8
2023-12-05T2200,3537A,105.3631,27.3533,毕节市,长征村,细颗粒物(PM2.5),60,54,74,43,56,55,,59,59,8,16,6,9,0.8,0.8
2023-12-05T2200,1629A,118.0018,37.3617,滨州市,第二水厂,细颗粒物(PM2.5),190,200,189,143,135,6,,86,48,97,68,20,20,2.2,1.5
2023-12-05T2200,1630A,117.9776,37.393,滨州市,北中新校,细颗粒物(PM2.5),202,217,188,152,132,2,,64,35,147,100,15,17,2.0,1.4
2023-12-05T2200,3514A,117.9378,37.3956,滨州市,中海酒店,细颗粒物(PM2.5),216,223,171,166,134,9,,70,45,143,91,28,22,1.7,1
2023-12-05T2200,3515A,117.9378,37.3553,滨州市,开发区一中,细颗粒物(PM2.5),216,234,186,166,132,0,,72,49,118,77,34,25,1.6,1.2
2023-12-05T2200,3516A,118.0917,37.694,滨州市,金海六路,细颗粒物(PM2.5),278,272,214,228,161,34,,66,42,74,96,17,28,1.6,1.5
2023-12-05T2200,4028A,117.9956,37.3753,滨州市,滨州市西街道办事处,细颗粒物(PM2.5),223,237,198,173,145,5,,73,39,109,77,18,19,2.6,1.3
2023-12-05T2200,2311A,115.8072,33.8399,亳州市,污水处理厂,细颗粒物(PM2.5),78,90,79,57,43,55,,80,71,26,26,8,8,0.9,0.8
2023-12-05T2200,2312A,115.7789,33.8518,亳州市,三国揽胜宫,颗粒物(PM10),78,106,96,54,44,55,,85,75,24,22,10,10,0.7,0.7
2023-12-05T2200,3332A,115.7633,33.8034,亳州市,亳州学院,颗粒物(PM10),75,99,81,54,43,52,,86,73,25,23,9,10,0.4,0.4
2023-12-05T2200,2693A,82.0485,44.8556,博尔塔拉蒙古自治州,市党校,,46,46,32,17,12,31,,41,35,18,12,12,9,0.4,0.4
2023-12-05T2200,2694A,82.0806,44.8969,博尔塔拉蒙古自治州,市环保局,,45,45,37,16,16,28,,34,28,17,20,9,12,0.4,0.5
2023-12-05T2200,1071A,116.8842,38.2991,沧州市,沧县城建局,细颗粒物(PM2.5),285,287,218,235,182,9,,47,27,116,94,16,14,2.3,1.9
2023-12-05T2200,1072A,116.8584,38.3254,沧州市,电视转播站,细颗粒物(PM2.5),265,253,207,215,170,3,,52,31,122,90,13,15,2.0,1.6
2023-12-05T2200,1073A,116.8709,38.3228,沧州市,市环保局,细颗粒物(PM2.5),262,238,192,212,168,5,,52,30,102,80,12,13,1.6,1.4
2023-12-05T2200,3324A,116.8136,38.3004,沧州市,河北水利电力学院,细颗粒物(PM2.5),242,254,227,192,170,2,,42,26,120,94,18,20,2.1,1.5
2023-12-05T2200,2622A,97.1806,31.1273,昌都市,昌都监测站,细颗粒物(PM2.5),55,51,27,39,12,18,,64,56,68,25,11,10,1.3,0.6
2023-12-05T2200,3719A,97.1714,31.1406,昌都市,昌都会议中心,,20,17,14,11,10,64,,79,78,18,13,5,6,0.3,0.3
2023-12-05T2200,2690A,88.1236,43.8886,昌吉州,天山天池,,23,0,3,0,7,72,,74,71,4,4,6,6,0.4,0.5
2023-12-05T2200,2692A,87.2717,44.0297,昌吉州,新区政务中心,颗粒物(PM10),51,52,26,23,15,12,,35,32,50,42,6,7,1.1,0.9
2023-12-05T2200,3613A,87.3095,44.0142,昌吉州,亚心广场,,48,48,24,19,10,15,,37,33,43,35,6,5,0.9,0.8
2023-12-05T2200,1119A,125.3325,43.9166,长春市,食品厂,细颗粒物(PM2.5),128,,76,97,73,64,,78,75,42,44,14,15,1.0,1
2023-12-05T2200,1120A,125.2863,43.9027,长春市,客车厂,细颗粒物(PM2.5),128,,70,97,69,65,,71,68,37,45,12,17,1.0,1
2023-12-05T2200,1121A,125.2841,43.8463,长春市,邮电学院,细颗粒物(PM2.5),138,,79,105,77,70,,64,63,37,43,15,22,1.0,1
2023-12-05T2200,1122A,125.3716,43.8772,长春市,劳动公园,细颗粒物(PM2.5),118,90,79,89,71,74,,83,80,38,41,19,11,0.5,0.7
2023-12-05T2200,1123A,125.3297,43.8805,长春市,园林处,细颗粒物(PM2.5),129,,70,98,75,68,,88,86,44,38,19,11,0.9,1
2023-12-05T2200,1124A,125.4605,43.79,长春市,净月潭,,,,59,54,54,,,86,80,8,13,6,6,0.6,0.7
2023-12-05T2200,1125A,125.7194,43.515,长春市,甩湾子,细颗粒物(PM2.5),63,59,82,45,60,76,,91,85,11,21,7,7,0.7,1
2023-12-05T2200,1126A,125.3863,43.8447,长春市,经开区环卫处,细颗粒物(PM2.5),109,,78,82,70,66,,78,75,41,41,11,9,0.9,0.9
2023-12-05T2200,1127A,125.245,43.7783,长春市,高新区管委会,细颗粒物(PM2.5),129,,83,98,85,73,,84,81,35,37,13,10,1.0,1.1
2023-12-05T2200,1128A,125.1761,43.8325,长春市,岱山公园,细颗粒物(PM2.5),119,,77,90,73,70,,76,72,30,43,8,7,0.9,0.9
2023-12-05T2200,1335A,113.0833,28.2325,长沙市,经开区环保局,细颗粒物(PM2.5),98,117,72,73,52,4,,68,51,99,41,13,7,1.2,0.8
2023-12-05T2200,1336A,112.8872,28.2189,长沙市,高开区环保局,细颗粒物(PM2.5),94,136,71,70,52,4,,73,51,83,33,6,9,1.6,1.1
2023-12-05T2200,1337A,113.0792,28.2053,长沙市,马坡岭,细颗粒物(PM2.5),97,130,71,72,53,4,,71,45,84,41,7,7,1.1,0.8
2023-12-05T2200,1338A,112.9394,28.19,长沙市,湖南师范大学,细颗粒物(PM2.5),60,62,71,43,56,11,,65,50,54,30,7,9,0.8,0.9
2023-12-05T2200,1339A,113.0178,28.1322,长沙市,雨花区环保局,细颗粒物(PM2.5),102,85,59,76,54,10,,73,59,88,33,2,3,1.3,0.8
2023-12-05T2200,1340A,112.9792,28.2597,长沙市,伍家岭,细颗粒物(PM2.5),95,129,81,71,54,0,,59,36,75,40,6,6,1.4,0.9
2023-12-05T2200,1341A,113.0014,28.1944,长沙市,火车新站,细颗粒物(PM2.5),144,145,71,110,55,5,,70,48,95,45,4,5,2.3,0.9
2023-12-05T2200,1342A,112.9844,28.1178,长沙市,天心区环保局,细颗粒物(PM2.5),82,110,62,60,47,10,,73,,86,36,4,8,1.0,0.7
2023-12-05T2200,1343A,112.8908,28.1308,长沙市,湖南中医药大学,颗粒物(PM10),79,107,69,55,54,2,,66,41,55,37,4,7,1.4,1.3
2023-12-05T2200,1344A,112.9581,28.3611,长沙市,沙坪,颗粒物(PM10),54,57,58,37,41,39,,71,64,26,34,4,5,0.7,0.8
2023-12-05T2200,1727A,113.1147,36.1547,长治市,清华站,颗粒物(PM10),77,103,108,29,48,49,,80,76,34,50,16,20,0.9,1.1
2023-12-05T2200,1728A,113.1031,36.1989,长治市,监测站,颗粒物(PM10),67,84,91,34,51,47,,73,71,39,54,14,19,0.9,1.2
2023-12-05T2200,1730A,113.0886,36.2125,长治市,审计局,颗粒物(PM10),70,90,94,39,52,53,,73,71,37,58,17,21,0.6,1
2023-12-05T2200,1731A,113.0844,36.1856,长治市,长治八中,颗粒物(PM10),77,103,108,25,47,45,,76,73,42,49,18,23,0.5,0.8
2023-12-05T2200,2845A,113.1569,36.1911,长治市,德盛苑,颗粒物(PM10),74,98,89,22,46,59,,83,80,22,41,14,22,0.7,1
2023-12-05T2200,3568A,113.06,36.0464,长治市,向阳小学,细颗粒物(PM2.5),80,93,95,59,62,48,,96,86,53,34,22,23,0.8,0.7
2023-12-05T2200,3569A,112.8792,36.3144,长治市,屯留一中,颗粒物(PM10),70,90,79,41,48,56,,90,78,36,45,15,29,0.8,1
2023-12-05T2200,3570A,113.235,36.3489,长治市,潞城四中,颗粒物(PM10),132,213,130,22,54,63,,98,83,18,43,8,21,0.4,1.2
2023-12-05T2200,1854A,111.6975,28.9703,常德市,市二中,"颗粒物(PM10),细颗粒物(PM2.5)",68,86,44,49,22,55,,84,73,37,27,7,8,0.7,0.5
2023-12-05T2200,1857A,111.7158,29.1456,常德市,白鹤山,"颗粒物(PM10),细颗粒物(PM2.5)",59,67,58,42,35,76,,85,85,10,14,6,7,0.6,0.6
2023-12-05T2200,3138A,111.7153,29.0289,常德市,武陵区永安,细颗粒物(PM2.5),78,76,55,57,37,72,,78,78,21,27,8,8,0.7,0.6
2023-12-05T2200,3139A,111.6892,28.9881,常德市,鼎城区玉霞,细颗粒物(PM2.5),77,88,53,56,33,61,,80,76,30,27,8,9,0.9,0.7
2023-12-05T2200,3140A,111.6625,29.0531,常德市,武陵区长庚,细颗粒物(PM2.5),72,73,56,52,39,65,,83,82,30,32,7,7,0.8,0.7
2023-12-05T2200,1196A,119.9633,31.762,常州市,市监测站,细颗粒物(PM2.5),133,139,128,101,92,5,,70,39,108,68,17,12,1.4,1.2
2023-12-05T2200,1200A,119.9468,31.7069,常州市,武进监测站,细颗粒物(PM2.5),93,96,119,69,82,32,,78,58,71,63,29,17,0.9,1.1
2023-12-05T2200,1201A,119.9255,31.9087,常州市,安家,细颗粒物(PM2.5),122,131,133,92,94,5,,87,52,116,74,14,15,1.4,1.2
2023-12-05T2200,3002A,119.9805,31.8174,常州市,行政中心,细颗粒物(PM2.5),100,100,110,75,81,21,,77,49,93,72,46,18,0.9,1
2023-12-05T2200,3003A,120.0522,31.7748,常州市,经开区,细颗粒物(PM2.5),105,116,128,79,71,6,,89,57,116,64,10,11,1.0,0.9
2023-12-05T2200,3010A,119.9025,31.7964,常州市,钟楼,细颗粒物(PM2.5),117,113,117,88,88,7,,80,51,108,71,14,12,1.4,1.3
2023-12-05T2200,3429A,119.8598,31.7066,常州市,武进经发区,细颗粒物(PM2.5),95,100,118,71,75,6,,86,54,108,68,8,12,0.5,0.7
2023-12-05T2200,3430A,119.5826,31.7245,常州市,金坛城区,细颗粒物(PM2.5),97,92,118,72,88,24,,93,77,75,53,12,13,1.0,1.2
2023-12-05T2200,2220A,120.4318,41.5881,朝阳市,西梁,细颗粒物(PM2.5),75,98,104,55,53,41,,54,51,35,39,23,20,1.6,1.7
2023-12-05T2200,2221A,120.4521,41.5646,朝阳市,河畔小区,细颗粒物(PM2.5),85,117,97,63,47,35,,54,46,45,40,23,17,1.8,1.4
2023-12-05T2200,2222A,120.4176,41.5648,朝阳市,八里堡,细颗粒物(PM2.5),79,104,101,58,43,36,,50,44,46,43,28,22,1.7,1.4
2023-12-05T2200,2223A,120.3806,41.5969,朝阳市,农业园区,细颗粒物(PM2.5),75,87,92,55,51,34,,58,52,44,39,22,19,1.5,1.4
2023-12-05T2200,1705A,116.6367,23.6719,潮州市,西园路,,26,,30,18,27,38,,96,85,13,15,5,6,0.7,0.7
2023-12-05T2200,1706A,116.6447,23.6706,潮州市,档案局,,25,,25,17,25,39,,98,83,14,15,4,5,0.7,0.7
2023-12-05T2200,3026A,116.6183,23.6608,潮州市,市政府,,19,18,28,13,21,35,,103,88,20,18,5,6,0.5,0.5
2023-12-05T2200,2472A,113.0073,25.9061,郴州市,马头岭,,39,39,37,12,14,11,,52,40,27,18,5,5,1.1,1.1
2023-12-05T2200,2473A,113.0116,25.8226,郴州市,市职中,细颗粒物(PM2.5),53,46,42,37,32,10,,48,32,26,21,5,6,0.9,0.8
2023-12-05T2200,2474A,113.0161,25.8001,郴州市,兴隆步行街,,50,49,56,35,42,10,,47,31,34,23,3,5,0.9,0.7
2023-12-05T2200,2475A,113.0383,25.8071,郴州市,市审计局,颗粒物(PM10),51,52,56,35,41,4,,43,27,32,21,4,6,1.0,0.7
2023-12-05T2200,2476A,113.0348,25.7759,郴州市,市环保局,细颗粒物(PM2.5),58,48,74,41,48,28,,33,31,29,22,13,7,1.0,0.7
2023-12-05T2200,1431A,103.9728,30.7236,成都市,金泉两河,细颗粒物(PM2.5),93,72,86,69,66,0,,9,8,33,44,1,2,0.7,0.8
2023-12-05T2200,1432A,104.176,30.6872,成都市,十里店,细颗粒物(PM2.5),84,88,63,62,44,3,,33,28,57,38,1,2,0.9,0.7
2023-12-05T2200,1433A,104.079,30.5706,成都市,三瓦窑,细颗粒物(PM2.5),80,101,71,59,46,0,,29,17,34,26,2,2,0.8,0.7
2023-12-05T2200,1434A,104.1114,30.63,成都市,沙河铺,细颗粒物(PM2.5),82,96,74,60,48,0,,24,22,48,32,3,3,0.8,0.7
2023-12-05T2200,1437A,104.0786,30.6531,成都市,君平街,细颗粒物(PM2.5),85,96,74,63,48,0,,33,22,58,38,3,2,0.9,0.7
2023-12-05T2200,1438A,103.613,31.0283,成都市,灵岩寺,细颗粒物(PM2.5),59,64,65,42,46,25,,42,18,18,22,15,9,1.2,1.2
2023-12-05T2200,2880A,104.0239,30.65639,成都市,大石西路,细颗粒物(PM2.5),97,87,81,72,54,0,,29,22,54,42,4,3,0.8,0.8
2023-12-05T2200,3136A,104.2725,30.5589,成都市,龙泉驿区区政府,细颗粒物(PM2.5),62,68,49,44,35,7,,57,34,51,22,1,1,0.7,0.5
2023-12-05T2200,3357A,104.0106,30.6931,成都市,金博路,细颗粒物(PM2.5),85,81,79,63,61,1,,19,17,42,46,3,3,1.0,0.9
2023-12-05T2200,3359A,104.0578,30.5225,成都市,华阳,细颗粒物(PM2.5),83,95,68,61,49,0,,33,19,57,28,1,2,0.8,0.6
2023-12-05T2200,3487A,104.2394,30.5319,成都市,车城东七路,细颗粒物(PM2.5),67,81,60,48,45,13,,48,35,53,33,2,2,0.7,0.6
2023-12-05T2200,3488A,104.3853,30.7453,成都市,青白江技师分院,细颗粒物(PM2.5),63,61,42,45,34,2,,55,31,45,20,5,4,0.8,0.7
2023-12-05T2200,3489A,104.0789,30.4072,成都市,科学城,细颗粒物(PM2.5),62,67,61,44,50,4,,44,27,43,32,3,3,0.7,0.6
2023-12-05T2200,4011A,103.8506,30.6947,成都市,光华大道三段,细颗粒物(PM2.5),80,78,93,59,76,0,,12,10,40,48,2,2,1.0,0.9
2023-12-05T2200,1062A,117.9531,40.9081,承德市,铁路,细颗粒物(PM2.5),104,138,140,78,79,5,,10,6,63,56,22,15,2.0,1.7
2023-12-05T2200,1063A,117.9392,40.9763,承德市,中国银行,细颗粒物(PM2.5),117,160,130,88,62,10,,16,11,,50,11,10,1.9,1.4
2023-12-05T2200,1064A,117.9503,40.928,承德市,开发区,细颗粒物(PM2.5),128,149,128,97,63,4,,11,4,65,57,20,15,2.0,1.6
2023-12-05T2200,1065A,117.8051,40.9655,承德市,文化中心,细颗粒物(PM2.5),129,185,197,98,90,8,,13,10,70,61,25,25,2.3,2
2023-12-05T2200,1066A,117.9268,41.0026,承德市,离宫,细颗粒物(PM2.5),103,132,103,77,52,2,,13,4,48,40,7,5,1.6,1
2023-12-05T2200,2314A,117.47,30.6618,池州市,池州学院,细颗粒物(PM2.5),89,105,81,66,55,35,,79,69,42,24,13,10,0.8,0.6
2023-12-05T2200,3237A,117.4918,30.6617,池州市,展览馆,细颗粒物(PM2.5),90,113,70,67,53,36,,81,66,47,30,11,8,1.0,0.6
2023-12-05T2200,3333A,117.5627,30.695,池州市,第八中学,细颗粒物(PM2.5),72,74,61,52,44,21,,86,73,51,25,4,9,0.7,0.7
2023-12-05T2200,3334A,117.5038,30.6243,池州市,第十二中学,细颗粒物(PM2.5),75,73,75,55,56,26,,74,57,55,34,5,6,0.8,1.1
2023-12-05T2200,1744A,118.9233,42.2816,赤峰市,松山一中,颗粒物(PM10),58,66,86,11,28,68,,66,66,16,38,9,15,0.4,1.2
2023-12-05T2200,1745A,118.9576,42.2728,赤峰市,哈达街,颗粒物(PM10),63,75,86,18,36,64,,60,60,15,38,14,26,0.5,1.1
2023-12-05T2200,1746A,118.8788,42.2554,赤峰市,天义路,颗粒物(PM10),63,76,85,18,26,72,,72,72,9,27,6,9,0.4,0.9
2023-12-05T2200,3058A,119.2658,42.0353,赤峰市,银河街,颗粒物(PM10),63,76,108,17,46,69,,60,60,12,36,12,35,0.4,1.2
2023-12-05T2200,3286A,118.9359,42.3147,赤峰市,桥北物流园区,颗粒物(PM10),66,82,86,16,36,70,,62,56,14,38,10,23,0.4,0.9
2023-12-05T2200,2521A,107.3476,22.4136,崇左市,市环保局江州分局,,37,37,30,18,16,18,,48,44,29,18,6,6,0.9,0.8
2023-12-05T2200,2522A,107.3702,22.3707,崇左市,城南新区,,33,33,24,19,18,30,,52,47,22,18,6,6,0.9,0.8
2023-12-05T2200,2298A,118.3093,32.3153,滁州市,老年大学,细颗粒物(PM2.5),109,108,96,82,71,62,,104,98,49,52,12,11,0.8,0.8
2023-12-05T2200,2299A,118.3244,32.2786,滁州市,人大宾馆,细颗粒物(PM2.5),108,116,101,81,76,36,,98,80,81,52,10,10,0.8,0.7
2023-12-05T2200,3207A,118.3118,32.3038,滁州市,市政府原办公楼,细颗粒物(PM2.5),102,103,91,76,69,67,,100,93,50,56,10,8,0.8,0.8
2023-12-05T2200,3331A,118.3267,32.2634,滁州市,图书馆,细颗粒物(PM2.5),112,98,102,84,77,62,,101,89,55,43,12,12,0.9,0.9
2023-12-05T2200,2605A,101.5482,25.0441,楚雄州,州环境监测站,,48,48,22,28,14,15,,68,54,50,29,12,18,0.9,0.6
2023-12-05T2200,2606A,101.538,25.0492,楚雄州,市经济开发区,,44,44,24,20,14,28,,66,56,35,26,6,14,0.7,0.5
2023-12-05T2200,2548A,107.5277,31.2827,达州市,达州职业技术学院,细颗粒物(PM2.5),65,68,59,47,46,6,,37,22,31,28,4,6,0.6,0.6
2023-12-05T2200,2549A,107.5086,31.2186,达州市,市环境监测站,颗粒物(PM10),62,74,70,36,41,2,,19,12,44,40,7,7,0.8,0.7
2023-12-05T2200,2550A,107.4988,31.2132,达州市,凤凰小区,细颗粒物(PM2.5),67,73,63,48,44,6,,29,20,47,39,9,8,0.9,0.7
2023-12-05T2200,2551A,107.5082,31.1986,达州市,达县机关宾馆,颗粒物(PM10),69,88,70,38,44,4,,23,15,46,41,8,7,1.0,0.8
2023-12-05T2200,2552A,107.4644,31.2124,达州市,市政中心,颗粒物(PM10),66,81,73,39,40,3,,23,15,55,45,7,6,1.2,0.9
2023-12-05T2200,2614A,100.1542,25.7054,大理州,大理市环境监测站,,,26,20,16,13,,,74,71,12,15,6,5,0.5,0.4
2023-12-05T2200,2615A,100.2171,25.5811,大理州,大理古城,,40,40,16,15,8,49,,78,64,21,7,7,6,0.6,0.5
2023-12-05T2200,1109A,121.612,38.9741,大连市,甘井子,细颗粒物(PM2.5),188,192,158,141,108,37,,66,56,80,71,15,13,1.4,1.3
2023-12-05T2200,1110A,121.565,38.9511,大连市,周水子,细颗粒物(PM2.5),206,198,160,156,121,18,,46,40,77,62,60,29,2.4,1.7
2023-12-05T2200,1111A,121.5637,38.8845,大连市,星海三站,细颗粒物(PM2.5),193,179,144,145,111,47,,70,66,56,55,10,10,1.1,1
2023-12-05T2200,1112A,121.6302,38.9117,大连市,青泥洼桥,细颗粒物(PM2.5),190,165,134,143,111,58,,70,67,45,57,14,13,1.4,1.3
2023-12-05T2200,1113A,121.6251,38.8638,大连市,傅家庄,细颗粒物(PM2.5),172,180,139,130,99,63,,78,78,47,40,14,14,1.5,1.3
2023-12-05T2200,1114A,121.5213,38.8661,大连市,七贤岭,细颗粒物(PM2.5),200,200,145,150,109,13,,70,52,69,46,9,11,,1.3
2023-12-05T2200,1115A,121.2529,38.8061,大连市,旅顺,细颗粒物(PM2.5),183,166,137,138,111,80,,87,85,42,37,16,11,1.5,1.3
2023-12-05T2200,1116A,121.7485,39.1311,大连市,金州,细颗粒物(PM2.5),185,172,131,139,100,42,,67,56,52,37,16,11,1.6,1.5
2023-12-05T2200,1117A,121.7811,39.0496,大连市,开发区,细颗粒物(PM2.5),137,146,135,104,100,8,,39,16,88,63,8,8,1.4,1.1
2023-12-05T2200,1118A,121.9762,39.0631,大连市,双D港,细颗粒物(PM2.5),133,130,108,101,89,36,,70,54,30,25,6,8,1.2,1
2023-12-05T2200,1789A,124.81117,46.03138,大庆市,大同区,细颗粒物(PM2.5),68,80,82,49,60,49,,64,59,21,24,8,9,0.6,0.8
2023-12-05T2200,1790A,125.129,46.533,大庆市,龙凤区,颗粒物(PM10),55,59,68,35,48,47,,67,62,24,25,8,17,0.6,0.7
2023-12-05T2200,1791A,124.902,46.408,大庆市,红岗区,细颗粒物(PM2.5),73,53,60,53,43,50,,58,56,17,22,6,7,0.4,0.7
2023-12-05T2200,1792A,125.153,46.586,大庆市,萨尔图区,细颗粒物(PM2.5),67,74,76,48,54,41,,58,52,24,24,9,10,0.6,0.7
2023-12-05T2200,1793A,124.9042,46.6215,大庆市,让胡路区,颗粒物(PM10),57,64,66,33,35,48,,59,54,15,32,4,6,0.5,0.7
2023-12-05T2200,3481A,125.141,46.634,大庆市,萨区政府监测点,颗粒物(PM10),61,72,62,32,51,46,,65,56,21,22,9,11,0.6,0.7
2023-12-05T2200,1721A,113.3819,40.1097,大同市,果树场,颗粒物(PM10),104,158,151,34,64,62,,59,57,11,39,6,13,0.2,0.9
2023-12-05T2200,1723A,113.2994,40.0758,大同市,云冈宾馆,颗粒物(PM10),108,165,154,24,45,72,,72,70,6,35,6,13,0.3,1.1
2023-12-05T2200,1724A,113.3444,40.0917,大同市,大同大学,颗粒物(PM10),133,216,160,22,43,73,,74,72,10,42,7,16,0.3,1
2023-12-05T2200,1725A,113.2661,40.1269,大同市,安家小村,颗粒物(PM10),141,232,157,28,42,72,,78,74,8,39,6,18,0.4,1.1
2023-12-05T2200,1726A,113.2711,40.0844,大同市,教育学院,颗粒物(PM10),141,231,195,33,51,69,,71,68,10,45,3,17,0.3,1.4
2023-12-05T2200,3282A,113.3397,40.0597,大同市,大同市卫生学校,颗粒物(PM10),118,185,139,24,41,67,,65,64,10,44,4,13,0.3,0.9
2023-12-05T2200,3565A,113.1367,40.1122,大同市,云冈站,颗粒物(PM10),126,201,142,45,38,61,,75,70,14,31,12,36,0.5,0.7
2023-12-05T2200,3566A,113.1186,40.2556,大同市,图书馆,颗粒物(PM10),111,171,126,27,46,63,,68,65,10,26,6,24,0.3,0.8
2023-12-05T2200,3567A,113.5931,40.0461,大同市,区一中,颗粒物(PM10),144,238,163,43,42,69,,72,69,10,38,1,24,0.5,0.9
2023-12-05T2200,3676A,113.2802,40.0995,大同市,第二人民医院,颗粒物(PM10),141,231,198,23,57,68,,72,70,8,44,6,23,0.3,1.8
2023-12-05T2200,2269A,124.1069,50.4097,大兴安岭地区,科技局,,38,34,30,26,21,47,,53,50,11,12,4,4,0.6,0.6
2023-12-05T2200,3663A,124.1164,50.4278,大兴安岭地区,红旗社区,,43,36,21,30,17,34,,50,42,20,18,7,8,0.6,0.4
2023-12-05T2200,1600A,124.3303,40.0625,丹东市,江湾东路,细颗粒物(PM2.5),65,66,73,47,51,68,,66,66,19,29,11,17,0.8,1.2
2023-12-05T2200,1601A,124.4256,40.1503,丹东市,临江后街,细颗粒物(PM2.5),62,69,85,44,52,70,,68,68,13,33,16,18,1.0,1.2
2023-12-05T2200,1602A,124.3933,40.1461,丹东市,元宝山,细颗粒物(PM2.5),64,66,72,46,55,57,,61,57,25,38,17,14,1.3,1.4
2023-12-05T2200,1603A,124.3633,40.1092,丹东市,民主桥,颗粒物(PM10),61,72,76,42,45,59,,55,55,16,36,12,14,0.9,1.1
2023-12-05T2200,3541A,109.5726,19.5167,儋州市,第一中学子站,颗粒物(PM10),56,61,49,38,33,67,,82,80,14,9,4,5,1.0,0.8
2023-12-05T2200,3542A,109.5567,19.5187,儋州市,东坡学校子站,,,75,53,45,33,44,,87,80,,10,5,5,1.0,0.8
2023-12-05T2200,2616A,98.5842,24.428,德宏州,德宏州监测站,细颗粒物(PM2.5),87,81,47,64,21,8,,31,24,33,26,14,19,0.9,0.6
2023-12-05T2200,3677A,98.5881,24.4368,德宏州,芒市人民政府综合楼,颗粒物(PM10),56,61,44,38,27,15,,37,32,26,23,12,14,0.7,0.5
2023-12-05T2200,1901A,104.4239,31.1208,德阳市,东山公园,细颗粒物(PM2.5),83,95,68,61,47,10,,49,31,50,22,1,1,0.7,0.6
2023-12-05T2200,1902A,104.3826,31.1317,德阳市,西小区,细颗粒物(PM2.5),97,95,66,72,52,6,,40,24,47,25,3,2,0.8,0.7
2023-12-05T2200,1904A,104.3553,31.1091,德阳市,耐火材料厂,细颗粒物(PM2.5),99,102,81,74,56,4,,24,21,44,29,1,2,0.8,0.7
2023-12-05T2200,3639A,104.4019,31.1244,德阳市,市教育局,细颗粒物(PM2.5),88,80,58,65,47,14,,36,30,45,27,3,2,0.8,0.7
2023-12-05T2200,1622A,116.3032,37.4674,德州市,儿童乐园,细颗粒物(PM2.5),230,244,202,180,144,20,,81,60,87,77,19,19,1.7,1.5
2023-12-05T2200,1624A,116.2991,37.4451,德州市,监理站,细颗粒物(PM2.5),228,246,204,178,143,8,,76,51,126,83,18,21,1.7,1.4
2023-12-05T2200,3066A,116.2721,37.4379,德州市,九衢泉纯净水厂,细颗粒物(PM2.5),214,273,206,164,139,6,,73,58,132,83,16,17,2.4,1.5
2023-12-05T2200,3371A,116.3728,37.4403,德州市,开发区人民医院,细颗粒物(PM2.5),238,268,214,188,142,5,,73,44,106,79,16,17,1.6,1.5
2023-12-05T2200,3372A,116.3572,37.4094,德州市,太阳城中学,细颗粒物(PM2.5),222,230,200,172,145,3,,80,55,112,72,13,16,1.9,1.3
2023-12-05T2200,3511A,116.5652,37.3319,德州市,陵城艺术中心,细颗粒物(PM2.5),225,246,211,175,147,36,,68,57,70,60,14,17,1.5,1.3
2023-12-05T2200,2621A,99.7056,27.8317,迪庆州,迪庆州站,,35,35,22,21,14,57,,81,74,21,14,11,9,0.9,0.6
2023-12-05T2200,3180A,99.7136,27.8094,迪庆州,质量技术监督局,,,,24,,25,,,59,,,14,,6,,1.0
2023-12-05T2200,2663A,104.6241,35.5734,定西市,东关小学,颗粒物(PM10),487,587,271,86,62,58,,71,68,16,18,9,17,0.4,0.8
2023-12-05T2200,2664A,104.6194,35.5934,定西市,供电公司,颗粒物(PM10),404,504,207,87,63,44,,84,77,40,30,3,14,0.2,1
2023-12-05T2200,1389A,113.7547,23.0494,东莞市,莞城梨川,颗粒物(PM10),53,56,42,26,26,13,,82,61,81,35,10,9,1.0,0.9
2023-12-05T2200,1390A,113.7944,23.0128,东莞市,东城石井,,36,36,38,19,24,21,,93,73,36,25,8,9,0.9,0.9
2023-12-05T2200,1391A,113.7383,22.9658,东莞市,南城西平,颗粒物(PM10),53,56,43,29,26,6,,76,54,71,39,11,9,0.9,0.8
2023-12-05T2200,3319A,113.7338,23.0381,东莞市,万江金泰,颗粒物(PM10),56,62,43,27,25,19,,68,53,70,32,10,10,1.1,1
2023-12-05T2200,3626A,113.7533,23.0202,东莞市,南城元岭,颗粒物(PM10),54,58,43,25,26,18,,94,67,66,29,8,9,0.9,0.9
2023-12-05T2200,3627A,113.7875,23.0457,东莞市,东城主山,,48,48,40,22,24,20,,89,67,68,32,8,9,0.9,0.9
2023-12-05T2200,1666A,118.6614,37.4309,东营市,市环保局,细颗粒物(PM2.5),221,219,191,171,142,23,,78,53,93,74,14,22,1.5,1.4
2023-12-05T2200,3036A,118.6904,37.4338,东营市,开发区管委会,细颗粒物(PM2.5),216,216,193,166,148,35,,90,63,91,76,10,19,1.4,1.2
2023-12-05T2200,3365A,118.5719,37.565,东营市,垦利区民丰路,细颗粒物(PM2.5),245,246,196,195,143,7,,77,52,120,82,14,17,2.1,1.5
2023-12-05T2200,3498A,118.5055,37.8612,东营市,河口城区,细颗粒物(PM2.5),272,293,222,222,160,39,,103,78,76,65,10,15,1.9,1.6
2023-12-05T2200,3646A,118.4978,37.4623,东营市,胜利站,细颗粒物(PM2.5),238,274,211,188,146,12,,72,45,139,98,22,21,1.8,1.5
2023-12-05T2200,3734A,118.35,37.26,东营市,理想之城,细颗粒物(PM2.5),206,241,197,156,120,9,,77,43,125,93,11,16,1.8,1.4
2023-12-05T2200,1591A,110.0023,39.8129,鄂尔多斯市,综合楼,颗粒物(PM10),500,1406,448,271,64,64,,78,66,9,18,2,7,0.3,0.4
2023-12-05T2200,1592A,109.9486,39.8261,鄂尔多斯市,巴音孟克林场办事处,颗粒物(PM10),500,1353,429,263,68,63,,75,66,6,11,5,9,0.4,0.5
2023-12-05T2200,1593A,109.7736,39.5986,鄂尔多斯市,康泽苑,颗粒物(PM10),500,1328,525,274,76,58,,72,,13,18,6,7,0.4,0.4
2023-12-05T2200,1594A,109.8119,39.5989,鄂尔多斯市,华泰汽车城,颗粒物(PM10),500,1360,552,259,72,68,,81,70,6,24,6,8,0.4,0.5
2023-12-05T2200,1595A,109.9734,39.7884,鄂尔多斯市,奥林花园,颗粒物(PM10),500,1357,470,266,68,65,,71,63,7,24,5,12,0.4,0.4
2023-12-05T2200,2436A,114.8938,30.3994,鄂州市,市政府,细颗粒物(PM2.5),115,138,114,87,85,1,,74,49,88,65,10,19,1.5,1.5
2023-12-05T2200,2437A,114.8989,30.3714,鄂州市,赵家坝,细颗粒物(PM2.5),112,118,103,84,73,4,,69,47,106,78,14,22,1.2,1
2023-12-05T2200,3654A,114.8094,30.4089,鄂州市,精准医疗中心,细颗粒物(PM2.5),122,192,144,92,85,4,,79,60,110,68,17,19,1.2,1.2
2023-12-05T2200,2499A,108.3411,21.6158,防城港市,沙万,细颗粒物(PM2.5),97,112,34,72,20,6,,39,30,51,21,38,6,0.9,0.5
2023-12-05T2200,2500A,108.3514,21.7731,防城港市,防城档案局,颗粒物(PM10),68,86,40,45,23,9,,51,40,48,24,7,5,0.7,0.4
2023-12-05T2200,2501A,108.3506,21.6414,防城港市,大海花园,细颗粒物(PM2.5),75,86,34,55,19,11,,41,30,53,24,18,4,0.9,0.6
2023-12-05T2200,1371A,113.1294,23.0067,佛山市,湾梁,颗粒物(PM10),53,56,34,18,17,38,,77,69,44,30,14,13,0.8,0.8
2023-12-05T2200,1372A,113.1083,23.0478,佛山市,华材职中,颗粒物(PM10),53,56,33,24,22,21,,70,59,61,34,11,10,0.8,0.8
2023-12-05T2200,1373A,113.144,23.0453,佛山市,南海气象局,,50,50,30,25,20,26,,77,66,57,32,9,8,0.8,0.8
2023-12-05T2200,1374A,113.2881,22.8094,佛山市,顺德苏岗,颗粒物(PM10),65,80,35,34,19,10,,70,60,73,38,9,9,0.9,0.8
2023-12-05T2200,1376A,112.8383,22.8678,佛山市,高明孔堂,颗粒物(PM10),51,52,38,19,19,21,,68,60,50,32,9,13,0.8,0.8
2023-12-05T2200,1377A,112.8836,23.1588,佛山市,三水监测站,,46,46,29,32,23,14,,62,50,52,28,5,7,1.0,1
2023-12-05T2200,1378A,112.867,23.185,佛山市,三水云东海,,31,31,22,18,15,7,,58,42,49,26,6,9,0.8,0.9
2023-12-05T2200,3625A,113.2544,22.7642,佛山市,容桂街道办,颗粒物(PM10),60,70,37,27,16,14,,66,55,81,42,6,6,0.9,0.7
2023-12-05T2200,1280A,119.3903,26.0543,福州市,鼓山,,,,8,,9,,,,,,10,,2,,
2023-12-05T2200,1282A,119.2681,26.0504,福州市,师大,,29,24,20,20,14,52,,69,62,21,18,5,5,0.6,0.7
2023-12-05T2200,1283A,119.2984,26.1028,福州市,五四北路,,22,14,21,14,14,68,,67,65,16,22,3,3,0.5,0.6
2023-12-05T2200,1284A,119.2648,26.0768,福州市,杨桥西路,,26,24,20,18,10,56,,70,62,18,18,3,3,0.5,0.5
2023-12-05T2200,1285A,119.317,26.0746,福州市,紫阳,,22,16,22,11,14,68,,61,57,14,24,6,5,0.5,0.7
2023-12-05T2200,3048A,119.5799,26.0936,福州市,九龙,,22,15,18,2,12,69,,80,79,14,15,3,4,0.3,0.7
2023-12-05T2200,3526A,119.5189,25.9664,福州市,吴航,,16,10,18,7,15,49,,64,62,22,23,3,4,0.5,0.7
2023-12-05T2200,1755A,123.7977,41.8491,抚顺市,望花区,细颗粒物(PM2.5),102,99,125,76,89,75,,93,88,39,43,19,16,1.0,1.2
2023-12-05T2200,1756A,123.9161,41.8822,抚顺市,顺城区,细颗粒物(PM2.5),147,116,129,112,108,4,,90,74,85,46,7,9,1.8,1.5
2023-12-05T2200,1757A,124.0436,41.8611,抚顺市,东洲区,细颗粒物(PM2.5),99,90,117,74,93,78,,99,92,24,29,9,11,1.0,1.2
2023-12-05T2200,1758A,123.9247,41.8642,抚顺市,新抚区,细颗粒物(PM2.5),107,90,117,80,96,23,,92,76,64,38,8,10,1.2,1.3
2023-12-05T2200,1759A,124.0972,41.8961,抚顺市,大伙房水库,细颗粒物(PM2.5),83,80,100,61,80,93,,106,103,15,30,11,10,0.7,0.9
2023-12-05T2200,1760A,123.7086,41.8391,抚顺市,沈抚新城,细颗粒物(PM2.5),99,112,128,74,82,58,,88,75,47,47,16,13,1.2,1.4
2023-12-05T2200,2376A,116.2127,28.0814,抚州市,桐源党溪,颗粒物(PM10),55,59,40,38,26,3,,44,26,18,17,3,4,0.9,0.9
2023-12-05T2200,2377A,116.3544,27.9831,抚州市,市站,"颗粒物(PM10),细颗粒物(PM2.5)",62,73,50,44,34,4,,45,30,46,26,3,3,1.1,1
2023-12-05T2200,2378A,116.3565,27.963,抚州市,血防站,细颗粒物(PM2.5),65,70,52,47,32,4,,45,33,50,24,2,3,1.4,1
2023-12-05T2200,2379A,116.3564,28.0007,抚州市,采茶剧团,细颗粒物(PM2.5),67,66,48,48,35,2,,47,29,45,24,3,3,0.9,1.4
2023-12-05T2200,2380A,116.385,27.9647,抚州市,医学分院,颗粒物(PM10),57,64,48,32,24,9,,49,34,43,23,5,6,1.1,1.1
2023-12-05T2200,2207A,121.6094,41.998,阜新市,工业园区,颗粒物(PM10),105,160,169,72,63,5,,59,43,79,44,29,23,2.2,1.4
2023-12-05T2200,2208A,121.6697,42.0279,阜新市,长青街,细颗粒物(PM2.5),195,184,136,146,95,11,,60,45,86,51,36,23,2.5,3.8
2023-12-05T2200,2209A,121.6673,42.0705,阜新市,农业园区,细颗粒物(PM2.5),188,205,138,141,90,,,59,54,68,43,28,49,2.0,1.4
2023-12-05T2200,2210A,121.6717,42.0224,阜新市,东苑,细颗粒物(PM2.5),117,136,125,88,77,15,,62,45,70,45,46,30,2.2,4.2
2023-12-05T2200,2211A,121.6506,42.0498,阜新市,玉龙新城,细颗粒物(PM2.5),110,156,111,83,64,6,,56,39,71,45,20,19,1.9,1.6
2023-12-05T2200,2301A,115.8277,32.8929,阜阳市,市监测站,细颗粒物(PM2.5),72,63,78,52,59,76,,88,72,26,27,8,8,0.6,0.5
2023-12-05T2200,2303A,115.8554,32.8605,阜阳市,开发区,细颗粒物(PM2.5),95,97,103,71,58,53,,91,70,46,36,12,12,0.5,0.5
2023-12-05T2200,2875A,115.784,32.8892,阜阳市,阜阳职业技术学院,颗粒物(PM10),68,85,86,48,56,71,,90,76,29,27,6,6,0.7,0.7
2023-12-05T2200,3468A,115.7901,32.8613,阜阳市,市规划展馆,细颗粒物(PM2.5),83,82,82,61,57,67,,97,88,39,29,5,5,0.6,0.5
2023-12-05T2200,3469A,115.836,32.9183,阜阳市,枣园社区,细颗粒物(PM2.5),67,68,75,48,52,80,,89,77,24,26,5,6,0.7,0.6
2023-12-05T2200,2669A,102.9099,34.9841,甘南州,州政府,颗粒物(PM10),148,245,113,61,37,16,,82,69,57,32,22,20,0.9,0.7
2023-12-05T2200,3380A,102.8914,34.9617,甘南州,甘肃民族师范学院,颗粒物(PM10),159,268,103,49,24,23,,86,73,40,30,7,11,0.5,0.4
2023-12-05T2200,2570A,101.9603,30.0475,甘孜藏族自治州,水桥子,,20,17,27,14,11,33,,31,31,30,30,9,9,0.4,0.5
2023-12-05T2200,3065A,101.9533,29.9972,甘孜藏族自治州,州环保局,,25,25,27,12,6,69,,47,47,7,20,8,8,0.2,0.3
2023-12-05T2200,3414A,115.8347,28.932,赣江新区,桑海产业园,细颗粒物(PM2.5),95,107,97,71,60,2,,30,17,64,54,4,9,0.9,0.7
2023-12-05T2200,2362A,114.9017,25.9149,赣州市,通天岩,,,,,,,,,,,,,,,,
2023-12-05T2200,2363A,114.9367,25.8664,赣州市,地委,,48,48,34,26,20,23,,51,39,24,16,24,10,1.2,1.2
2023-12-05T2200,2364A,114.9461,25.8481,赣州市,气象台,,42,,28,29,21,19,,48,36,34,20,13,9,1.0,1
2023-12-05T2200,2365A,114.9322,25.8333,赣州市,市图书馆,,40,40,32,27,18,22,,49,35,38,22,18,9,1.0,1
2023-12-05T2200,2366A,114.8905,25.8471,赣州市,华坚鞋城,,47,47,35,27,20,29,,55,36,24,20,13,11,1.1,1.1
2023-12-05T2200,3109A,115.0093,25.8613,赣州市,赣县区卫计委,,40,40,27,22,21,17,,54,43,32,14,10,10,1.0,0.9
2023-12-05T2200,2683A,106.2319,36.1417,固原市,马园,颗粒物(PM10),500,648,235,137,60,68,,12,,14,42,4,6,0.4,0.7
2023-12-05T2200,2684A,106.2792,36.0022,固原市,监测站,颗粒物(PM10),399,499,267,82,46,74,,83,80,11,25,3,7,0.4,1
2023-12-05T2200,2685A,106.2375,36.0211,固原市,新区,颗粒物(PM10),363,470,237,76,41,76,,84,80,8,26,2,3,0.1,0.4
2023-12-05T2200,3522A,106.2177,35.9959,固原市,原州区十五小,颗粒物(PM10),338,450,205,81,35,80,,88,85,6,9,3,2,0.3,0.3
2023-12-05T2200,2543A,106.6308,30.5278,广安市,小平旧居,,,,,,,,,,,,,,,,
2023-12-05T2200,2544A,106.6303,30.4576,广安市,市委,细颗粒物(PM2.5),89,101,57,66,42,7,,56,39,54,25,9,8,1.3,0.8
2023-12-05T2200,2545A,106.6271,30.4663,广安市,友谊中学,细颗粒物(PM2.5),72,71,54,52,41,6,,53,37,42,23,7,6,1.1,0.8
2023-12-05T2200,2547A,106.6388,30.4551,广安市,广电花园,细颗粒物(PM2.5),77,82,52,56,43,9,,54,38,49,24,9,8,1.3,0.7
2023-12-05T2200,2902A,106.6351,30.4865,广安市,北辰小学,细颗粒物(PM2.5),69,79,51,50,36,5,,56,37,44,23,8,8,0.8,0.6
2023-12-05T2200,2523A,105.8945,32.4535,广元市,黑石坡,细颗粒物(PM2.5),65,66,58,47,40,53,,68,66,22,21,10,8,0.7,0.7
2023-12-05T2200,2524A,105.821,32.4444,广元市,老城,颗粒物(PM10),70,89,77,50,45,3,,52,35,56,30,3,2,0.9,0.9
2023-12-05T2200,2526A,105.8628,32.4287,广元市,监测站,细颗粒物(PM2.5),70,74,65,51,51,22,,49,42,32,29,3,5,0.8,0.9
2023-12-05T2200,3617A,105.8047,32.4166,广元市,经开区,细颗粒物(PM2.5),77,73,72,56,64,3,,52,38,57,37,3,4,0.9,0.8
2023-12-05T2200,1345A,113.2347,23.1423,广州市,广雅中学,颗粒物(PM10),57,63,43,27,21,4,,55,46,83,44,7,7,1.1,1
2023-12-05T2200,1346A,113.2612,23.105,广州市,市五中,颗粒物(PM10),55,60,43,24,20,8,,68,59,75,38,9,8,0.9,0.9
2023-12-05T2200,1348A,113.3478,23.0916,广州市,广东商学院,颗粒物(PM10),54,58,40,24,19,19,,56,43,64,42,7,6,0.8,0.8
2023-12-05T2200,1349A,113.4332,23.1047,广州市,市八十六中,颗粒物(PM10),55,60,40,26,21,6,,58,47,75,38,6,5,1.0,0.9
2023-12-05T2200,1350A,113.3505,22.9483,广州市,番禺中学,颗粒物(PM10),56,62,40,28,22,17,,74,67,82,44,6,6,0.9,0.8
2023-12-05T2200,1351A,113.2146,23.3916,广州市,花都师范,,39,39,28,22,18,24,,78,65,45,30,10,8,0.8,0.8
2023-12-05T2200,1352A,113.2597,23.1331,广州市,市监测站,颗粒物(PM10),56,62,44,26,21,6,,60,48,78,45,6,6,0.9,0.8
2023-12-05T2200,1353A,113.5618,23.312,广州市,九龙镇镇龙,颗粒物(PM10),54,57,37,23,19,29,,62,53,33,29,10,7,0.8,0.8
2023-12-05T2200,1354A,113.2765,23.1544,广州市,麓湖,,48,48,38,25,20,3,,56,44,63,35,5,6,0.8,0.8
2023-12-05T2200,1355A,113.443,23.3035,广州市,帽峰山森林公园,,33,33,21,17,13,40,,89,80,21,17,9,9,0.8,0.7
2023-12-05T2200,2846A,113.3221,23.1322,广州市,体育西,颗粒物(PM10),53,55,40,25,21,13,,62,53,66,31,9,7,1.0,0.9
2023-12-05T2200,3298A,113.5717,23.5491,广州市,从化街口,,42,42,27,26,18,5,,74,52,52,25,12,7,0.9,0.8
2023-12-05T2200,3299A,113.3472,23.3692,广州市,白云竹料,颗粒物(PM10),62,73,35,37,18,10,,60,47,57,35,6,8,1.1,1
2023-12-05T2200,3300A,113.2981,23.237,广州市,白云嘉禾,颗粒物(PM10),65,79,43,27,21,4,,61,48,78,42,10,9,1.0,0.8
2023-12-05T2200,3301A,113.4256,23.1716,广州市,黄埔科学城,颗粒物(PM10),54,57,31,24,19,9,,56,42,67,35,6,5,1.0,0.9
2023-12-05T2200,3302A,113.3942,23.0483,广州市,番禺大学城,颗粒物(PM10),51,51,40,22,19,30,,68,60,61,41,9,8,0.9,0.8
2023-12-05T2200,3303A,113.4922,22.8168,广州市,南沙黄阁,颗粒物(PM10),63,76,53,30,30,8,,45,34,91,48,6,7,1.2,0.9
2023-12-05T2200,3304A,113.5342,22.7896,广州市,南沙街,颗粒物(PM10),56,62,44,23,25,10,,57,40,90,45,6,8,1.1,0.9
2023-12-05T2200,3443A,113.2902,23.5544,广州市,花都梯面,,30,30,23,20,17,8,,60,46,44,25,11,9,0.8,0.8
2023-12-05T2200,3445A,113.7858,23.7478,广州市,从化良口,,16,15,12,11,11,24,,63,53,19,12,5,6,0.7,0.6
2023-12-05T2200,3446A,113.8051,23.2614,广州市,增城荔城,,40,38,30,28,22,27,,64,51,29,18,6,7,0.8,0.7
2023-12-05T2200,2505A,109.568,23.1478,贵港市,德智高中,,43,36,24,30,17,43,,54,50,23,20,12,6,0.9,0.8
2023-12-05T2200,2506A,109.6047,23.0666,贵港市,江南子站,颗粒物(PM10),53,56,44,25,22,31,,60,52,31,25,12,9,1.2,0.9
2023-12-05T2200,2507A,109.6014,23.0948,贵港市,贵城子站,颗粒物(PM10),52,54,27,34,15,28,,58,50,28,20,13,9,0.9,0.8
2023-12-05T2200,2508A,109.5669,23.1065,贵港市,荷城子站,颗粒物(PM10),51,51,26,24,12,35,,60,54,26,17,16,10,1.0,0.9
2023-12-05T2200,3405A,109.5886,23.1172,贵港市,新世纪学校,颗粒物(PM10),51,51,27,25,15,34,,62,55,29,19,13,12,1.0,0.8
2023-12-05T2200,1439A,106.6899,26.5998,贵阳市,马鞍山,细颗粒物(PM2.5),83,68,40,61,31,38,,34,34,20,24,10,8,0.6,0.7
2023-12-05T2200,1440A,106.6971,26.5694,贵阳市,市环保站,细颗粒物(PM2.5),107,83,53,80,41,25,,28,24,27,39,,18,,0.9
2023-12-05T2200,1441A,106.6243,26.6266,贵阳市,鉴湖路,细颗粒物(PM2.5),70,61,49,51,30,42,,36,36,22,30,12,10,0.7,0.7
2023-12-05T2200,1442A,106.7487,26.6343,贵阳市,燕子冲,细颗粒物(PM2.5),92,83,42,68,34,36,,38,38,17,22,10,11,0.8,0.9
2023-12-05T2200,1443A,106.6555,26.4365,贵阳市,碧云窝,细颗粒物(PM2.5),92,95,48,68,28,24,,42,34,31,24,23,17,0.9,0.8
2023-12-05T2200,1444A,106.694,26.5161,贵阳市,中院村,细颗粒物(PM2.5),122,95,49,92,33,24,,30,29,25,36,20,19,0.8,0.8
2023-12-05T2200,1445A,106.7109,26.6027,贵阳市,红边门,细颗粒物(PM2.5),104,,49,78,39,28,,26,25,27,36,16,16,0.6,1
2023-12-05T2200,1446A,106.7164,26.5699,贵阳市,新华路,细颗粒物(PM2.5),117,102,52,88,34,30,,38,35,23,34,12,11,0.7,0.8
2023-12-05T2200,1447A,106.674,26.5424,贵阳市,太慈桥,细颗粒物(PM2.5),77,73,42,56,29,39,,32,31,24,29,8,7,0.7,0.7
2023-12-05T2200,1552A,106.805,26.3003,贵阳市,桐木岭,颗粒物(PM10),56,62,45,39,30,35,,49,37,7,4,11,12,1.1,0.7
2023-12-05T2200,1862A,110.4144,25.3167,桂林市,电子科大尧山校区,,33,26,19,23,16,25,,54,43,10,7,8,8,0.7,0.7
2023-12-05T2200,1863A,110.2819,25.2697,桂林市,监测站,颗粒物(PM10),51,51,36,33,24,11,,56,41,36,19,9,14,0.9,0.7
2023-12-05T2200,1864A,110.3089,25.2708,桂林市,龙隐路小学,,48,36,32,33,29,5,,54,31,37,20,9,18,0.8,0.7
2023-12-05T2200,1865A,110.2869,25.2178,桂林市,八中,,46,46,34,27,28,8,,51,33,37,24,6,10,0.7,0.6
2023-12-05T2200,3403A,110.1764,25.2381,桂林市,创业大厦,细颗粒物(PM2.5),52,51,39,36,31,5,,52,38,42,21,7,9,0.6,0.5
2023-12-05T2200,3531A,110.296,25.1253,桂林市,旅游学院,,25,17,15,17,14,17,,51,36,16,12,4,8,0.6,0.7
2023-12-05T2200,2674A,100.2561,34.4714,果洛藏族自治州,玛沁县大武镇,颗粒物(PM10),62,73,40,16,15,94,,92,92,6,12,6,9,0.5,0.5
2023-12-05T2200,1129A,126.5422,45.755,哈尔滨市,岭北,细颗粒物(PM2.5),123,115,91,93,73,82,,96,93,19,27,16,16,2.0,1.8
2023-12-05T2200,1130A,126.561,45.8167,哈尔滨市,松北商大,细颗粒物(PM2.5),122,103,79,92,69,72,,84,82,26,37,9,9,0.9,0.9
2023-12-05T2200,1131A,126.979,45.5419,哈尔滨市,阿城会宁,细颗粒物(PM2.5),73,68,81,53,65,82,,92,89,20,23,13,11,0.5,0.6
2023-12-05T2200,1132A,126.599,45.7222,哈尔滨市,南岗学府路,细颗粒物(PM2.5),113,120,108,85,70,81,,85,84,25,46,10,11,0.9,0.9
2023-12-05T2200,1133A,126.689,45.7733,哈尔滨市,太平宏伟公园,细颗粒物(PM2.5),114,94,89,86,76,71,,80,78,28,36,12,13,0.7,0.8
2023-12-05T2200,1134A,126.635,45.7667,哈尔滨市,道外承德广场,细颗粒物(PM2.5),123,118,99,93,73,56,,80,76,45,44,17,16,1.2,1.2
2023-12-05T2200,1135A,126.685,45.7319,哈尔滨市,香坊红旗大街,细颗粒物(PM2.5),130,,90,99,85,60,,78,74,43,43,18,17,1.0,0.9
2023-12-05T2200,1136A,126.6411,45.7258,哈尔滨市,动力和平路,细颗粒物(PM2.5),139,,93,106,85,73,,75,75,33,49,15,18,0.8,0.9
2023-12-05T2200,1137A,126.593,45.7478,哈尔滨市,道里建国路,细颗粒物(PM2.5),144,,90,110,87,71,,82,78,33,47,13,24,0.9,2
2023-12-05T2200,1138A,126.615,45.61,哈尔滨市,平房东轻厂,细颗粒物(PM2.5),108,85,86,81,72,75,,98,94,30,24,8,7,0.9,0.9
2023-12-05T2200,1139A,126.595,45.9855,哈尔滨市,呼兰师专,细颗粒物(PM2.5),138,127,90,105,78,84,,97,95,30,41,13,18,0.9,0.8
2023-12-05T2200,1140A,126.6206,45.6842,哈尔滨市,省农科院,细颗粒物(PM2.5),119,107,104,90,77,63,,74,72,41,52,17,15,1.0,1
2023-12-05T2200,2688A,93.5128,42.8172,哈密地区,地区监测站,颗粒物(PM10),93,136,93,45,29,9,,51,38,73,34,7,6,1.1,0.6
2023-12-05T2200,2689A,93.4961,42.8328,哈密地区,哈密师范学校,颗粒物(PM10),104,158,99,49,29,8,,45,31,72,34,9,7,1.0,0.4
2023-12-05T2200,2671A,100.9048,36.9639,海北藏族自治州,海晏县西海镇,,41,41,47,11,12,82,,89,89,4,5,12,13,0.5,0.4
2023-12-05T2200,3867A,102.0738,36.5056,海东地区,平安区公安北苑,颗粒物(PM10),136,221,100,51,31,71,,71,71,16,25,19,14,0.5,0.7
2023-12-05T2200,1409A,110.576,19.9507,海口市,东寨港,,,,,,,,,,,,,,,,
2023-12-05T2200,1410A,110.3232,20.0574,海口市,海南大学,细颗粒物(PM2.5),75,61,63,55,50,116,,115,115,26,16,8,11,0.8,0.8
2023-12-05T2200,1411A,110.283,20.0053,海口市,秀英海南医院,细颗粒物(PM2.5),78,66,63,57,50,111,,110,110,23,18,8,10,0.8,0.8
2023-12-05T2200,1412A,110.338,19.9969,海口市,海南师范大学,细颗粒物(PM2.5),84,67,62,62,50,111,,106,106,23,19,7,9,0.8,0.8
2023-12-05T2200,1413A,110.33,20.0356,海口市,龙华路环保局宿舍,细颗粒物(PM2.5),89,,57,66,50,122,,113,113,17,18,9,11,0.7,0.7
2023-12-05T2200,3539A,110.5111,19.9736,海口市,桂林洋子站,细颗粒物(PM2.5),82,71,66,60,51,97,,105,105,31,18,5,7,0.7,0.7
2023-12-05T2200,2673A,100.6188,36.2866,海南藏族自治州,共和县恰卜恰镇,颗粒物(PM10),79,108,136,31,35,78,,91,88,14,27,10,11,0.8,1
2023-12-05T2200,2676A,97.3731,37.3753,海西蒙古族藏族自治州,德令哈市,,48,48,40,14,11,45,,75,70,33,28,12,10,0.6,0.5
2023-12-05T2200,1048A,114.5302,36.6116,邯郸市,东污水处理厂,细颗粒物(PM2.5),206,208,180,156,135,13,,48,30,92,80,10,13,1.7,1.8
2023-12-05T2200,1049A,114.4918,36.5713,邯郸市,矿院,细颗粒物(PM2.5),196,180,156,147,127,13,,37,25,82,72,6,6,1.9,1.9
2023-12-05T2200,1050A,114.484,36.6133,邯郸市,丛台公园,细颗粒物(PM2.5),202,185,165,152,125,20,,55,39,94,80,10,13,1.5,1.9
2023-12-05T2200,3458A,114.7895,36.5593,邯郸市,香泉濮院小区,细颗粒物(PM2.5),195,226,203,146,142,17,,76,51,99,72,18,18,1.8,1.5
2023-12-05T2200,3579A,114.50634,36.77178,邯郸市,永年区实验高中,细颗粒物(PM2.5),211,241,202,161,143,5,,64,33,117,81,17,18,2.1,2
2023-12-05T2200,3580A,114.20016,36.44293,邯郸市,峰峰矿区临水派出所,颗粒物(PM10),74,98,135,19,91,74,,78,74,10,54,8,26,0.3,1.9
2023-12-05T2200,2634A,106.9893,33.1842,汉中市,汉川机床厂子校,细颗粒物(PM2.5),60,44,56,43,40,11,,46,35,34,20,4,8,1.0,1.1
2023-12-05T2200,2635A,107.0154,33.0706,汉中市,市监测站,细颗粒物(PM2.5),135,122,93,103,79,14,,24,20,50,41,9,11,2.1,1.8
2023-12-05T2200,2636A,107.0089,33.1138,汉中市,鑫源开发区,细颗粒物(PM2.5),142,124,96,108,81,10,,30,23,52,40,12,14,1.8,1.5
2023-12-05T2200,2637A,107.007,33.0323,汉中市,南郑大河坎水厂,细颗粒物(PM2.5),186,169,92,140,75,11,,26,22,42,33,8,9,2.6,1.5
2023-12-05T2200,1223A,120.2072,30.2111,杭州市,滨江,颗粒物(PM10),60,70,48,41,34,1,,38,24,68,38,9,8,0.9,0.7
2023-12-05T2200,1224A,120.0633,30.2747,杭州市,西溪,细颗粒物(PM2.5),58,45,41,41,39,3,,50,24,29,26,6,6,0.8,0.8
2023-12-05T2200,1226A,120.3461,30.3153,杭州市,下沙,细颗粒物(PM2.5),82,83,61,60,47,4,,48,23,85,45,8,7,0.8,0.7
2023-12-05T2200,1227A,120.1269,30.2456,杭州市,卧龙桥,,36,36,39,25,28,2,,40,18,25,23,7,8,0.8,0.8
2023-12-05T2200,1228A,120.1903,30.2692,杭州市,浙江农大,细颗粒物(PM2.5),62,57,42,44,30,2,,40,15,62,38,8,7,0.8,0.8
2023-12-05T2200,1230A,120.1197,30.3119,杭州市,和睦小学,细颗粒物(PM2.5),67,78,64,48,44,5,,38,23,71,42,10,10,1.3,0.8
2023-12-05T2200,1231A,120.3019,30.4183,杭州市,临平镇,细颗粒物(PM2.5),87,96,66,64,50,3,,37,18,72,42,5,5,1.2,0.9
2023-12-05T2200,1232A,120.2697,30.1819,杭州市,城厢镇,细颗粒物(PM2.5),65,68,46,47,34,2,,42,22,69,40,6,6,0.9,0.7
2023-12-05T2200,1233A,120.0883,30.1808,杭州市,云栖,,40,35,38,28,30,6,,42,23,32,25,6,6,0.8,0.8
2023-12-05T2200,3557A,119.9464,30.0494,杭州市,镇二中,细颗粒物(PM2.5),58,62,46,41,30,4,,41,25,46,34,5,4,1.1,0.8
2023-12-05T2200,3558A,119.7183,30.2367,杭州市,市府大楼,细颗粒物(PM2.5),63,71,56,45,44,10,,44,28,43,33,5,5,0.8,0.8
2023-12-05T2200,3656A,120.1556,30.2864,杭州市,消防大队,颗粒物(PM10),63,76,67,41,40,4,,39,20,72,45,9,9,0.9,0.6
2023-12-05T2200,1270A,117.1959,31.7848,合肥市,明珠广场,细颗粒物(PM2.5),92,102,101,68,63,40,,66,51,45,60,8,8,0.9,0.8
2023-12-05T2200,1271A,117.3072,31.8764,合肥市,三里街,细颗粒物(PM2.5),83,105,116,61,72,30,,70,57,66,66,8,9,0.9,1
2023-12-05T2200,1272A,117.2588,31.8707,合肥市,琥珀山庄,细颗粒物(PM2.5),85,88,99,63,63,39,,76,66,51,62,6,6,0.9,1
2023-12-05T2200,1273A,117.1604,31.9052,合肥市,董铺水库,细颗粒物(PM2.5),77,97,94,56,52,71,,109,96,34,43,5,5,0.7,0.7
2023-12-05T2200,1274A,117.25,31.8571,合肥市,长江中路,细颗粒物(PM2.5),98,90,101,73,74,35,,68,60,52,55,9,10,1.0,1
2023-12-05T2200,1275A,117.266,31.9436,合肥市,庐阳区,细颗粒物(PM2.5),94,105,110,70,64,42,,65,58,55,70,5,6,0.8,0.8
2023-12-05T2200,1276A,117.336,31.8586,合肥市,瑶海区,,,,125,,81,,,20,,,64,,4,,0.7
2023-12-05T2200,1277A,117.3027,31.7964,合肥市,包河区,细颗粒物(PM2.5),85,85,98,63,71,51,,80,73,43,59,7,7,0.6,0.7
2023-12-05T2200,1278A,117.2776,31.7385,合肥市,滨湖新区,细颗粒物(PM2.5),83,95,101,61,65,58,,89,84,34,53,7,7,0.7,0.7
2023-12-05T2200,1279A,117.1318,31.8403,合肥市,高新区,细颗粒物(PM2.5),94,105,95,70,60,30,,71,58,60,61,9,10,1.0,0.9
2023-12-05T2200,3464A,117.3803,31.9147,合肥市,高教基地,细颗粒物(PM2.5),87,100,98,64,59,60,,89,82,42,52,5,5,0.7,0.7
2023-12-05T2200,3614A,79.924,37.0877,和田地区,地区环保局,颗粒物(PM10),92,133,131,39,21,50,,80,75,36,17,29,14,0.9,0.6
2023-12-05T2200,3615A,79.9131,37.113,和田地区,市环保局,颗粒物(PM10),68,85,148,34,43,21,,78,68,71,32,13,17,3.0,4.3
2023-12-05T2200,2516A,108.2011,24.715,河池市,东仁乐园,,40,33,31,28,18,2,,28,21,28,12,5,5,0.6,0.6
2023-12-05T2200,2517A,108.0497,24.6947,河池市,市环保站,颗粒物(PM10),56,61,40,33,25,7,,36,28,38,22,6,8,0.9,0.7
2023-12-05T2200,2518A,108.0983,24.6989,河池市,市疾控中心,颗粒物(PM10),59,68,41,35,26,5,,36,30,37,25,6,7,0.8,0.7
2023-12-05T2200,1696A,114.6778,23.7569,河源市,源西,,23,18,18,16,12,34,,68,55,12,15,3,4,0.6,0.7
2023-12-05T2200,1697A,114.6944,23.7586,河源市,东埔,,33,,21,23,13,34,,71,58,12,14,5,6,0.7,0.7
2023-12-05T2200,1698A,114.6892,23.7233,河源市,老城,,,,18,,11,,,55,,,13,,5,,0.6
2023-12-05T2200,1718A,115.4208,35.2464,菏泽市,气象局,细颗粒物(PM2.5),118,133,157,89,104,39,,89,77,57,50,4,6,0.5,0.7
2023-12-05T2200,1719A,115.4747,35.2375,菏泽市,市政协,细颗粒物(PM2.5),127,132,155,96,107,49,,83,76,44,59,3,5,0.6,0.8
2023-12-05T2200,3374A,115.5564,35.0891,菏泽市,定陶老年大学,细颗粒物(PM2.5),104,107,128,78,94,50,,79,74,24,37,8,6,0.6,0.7
2023-12-05T2200,3647A,115.4702,35.2706,菏泽市,菏泽医专,细颗粒物(PM2.5),98,127,152,73,98,60,,88,84,41,63,9,10,0.6,0.9
2023-12-05T2200,2514A,111.5264,24.4172,贺州市,环保小区,颗粒物(PM10),51,52,38,33,25,16,,34,24,25,20,7,8,1.0,0.8
2023-12-05T2200,2515A,111.5608,24.4078,贺州市,政协大楼,颗粒物(PM10),57,63,44,30,24,5,,34,18,39,21,7,7,1.1,0.8
2023-12-05T2200,3534A,111.4744,24.4553,贺州市,西湾,颗粒物(PM10),51,52,35,34,26,12,,40,31,32,20,7,7,1.1,0.9
2023-12-05T2200,2385A,114.17,35.9019,鹤壁市,市监测站,颗粒物(PM10),69,88,143,33,107,70,,47,42,18,54,4,12,0.2,1.4
2023-12-05T2200,2386A,114.2956,35.7511,鹤壁市,市交警支队,,,104,156,63,109,29,,61,55,,68,14,18,0.9,1.4
2023-12-05T2200,2387A,114.2878,35.7306,鹤壁市,迎宾馆,颗粒物(PM10),71,92,138,50,101,39,,65,54,53,63,13,20,0.9,1.5
2023-12-05T2200,3474A,114.2617,35.6822,鹤壁市,大新区,细颗粒物(PM2.5),75,98,132,55,91,11,,45,31,88,69,15,14,1.1,1.4
2023-12-05T2200,3596A,114.1572,35.9603,鹤壁市,南山宾馆,颗粒物(PM10),95,139,159,31,109,81,,68,66,16,58,9,29,0.5,1.8
2023-12-05T2200,2244A,130.2537,47.3416,鹤岗市,哈啤分公司,,47,47,44,30,29,39,,44,41,27,25,14,15,0.5,0.4
2023-12-05T2200,2245A,130.2684,47.3086,鹤岗市,斯达机电,颗粒物(PM10),57,63,58,39,34,44,,44,42,35,34,14,14,0.5,0.4
2023-12-05T2200,2246A,130.3114,47.3388,鹤岗市,东山纸板厂,细颗粒物(PM2.5),67,78,85,48,37,9,,33,20,56,45,16,16,1.0,1.2
2023-12-05T2200,2247A,130.1097,47.3382,鹤岗市,五号水库,细颗粒物(PM2.5),87,80,46,64,35,13,,50,28,49,27,9,9,0.7,0.5
2023-12-05T2200,2263A,127.4833,50.2524,黑河市,交通局,颗粒物(PM10),68,85,34,46,19,57,,54,54,19,16,9,6,0.7,0.5
2023-12-05T2200,2264A,127.5144,50.2341,黑河市,环保局,颗粒物(PM10),74,97,28,49,20,67,,68,68,18,10,7,5,0.7,0.4
2023-12-05T2200,2265A,127.5291,50.2472,黑河市,大黑河岛,细颗粒物(PM2.5),82,76,25,60,20,62,,64,64,17,8,8,6,0.9,0.5
2023-12-05T2200,1074A,115.6838,37.7541,衡水市,电机北厂,细颗粒物(PM2.5),253,228,209,203,152,0,,63,34,107,81,16,15,1.3,1.3
2023-12-05T2200,1075A,115.6303,37.7316,衡水市,市监测站,细颗粒物(PM2.5),232,220,188,182,146,2,,58,37,123,89,14,15,1.4,1.2
2023-12-05T2200,3188A,115.6683,37.7217,衡水市,市城管局,细颗粒物(PM2.5),247,233,196,197,155,3,,69,45,110,78,14,14,1.3,1.3
2023-12-05T2200,3459A,115.5989,37.5491,衡水市,地表水厂,细颗粒物(PM2.5),227,242,199,177,150,18,,70,54,82,67,11,12,1.3,1.2
2023-12-05T2200,2456A,112.5003,26.9167,衡阳市,原169医院,颗粒物(PM10),59,67,44,40,27,4,,50,41,53,28,9,12,1.0,0.8
2023-12-05T2200,2457A,112.6194,26.9258,衡阳市,衡阳化工总厂,细颗粒物(PM2.5),79,67,44,58,37,7,,65,48,67,32,5,5,1.0,0.8
2023-12-05T2200,2458A,112.6211,26.8956,衡阳市,珠晖区环保局,细颗粒物(PM2.5),95,122,48,71,44,5,,63,43,63,30,10,9,1.5,1
2023-12-05T2200,2459A,112.6197,26.8733,衡阳市,市委党校,细颗粒物(PM2.5),65,75,44,47,33,18,,71,56,45,22,5,5,1.2,0.9
2023-12-05T2200,2460A,112.6006,26.8919,衡阳市,市监测站,细颗粒物(PM2.5),102,117,55,76,38,2,,61,40,66,29,7,8,1.7,1
2023-12-05T2200,2461A,112.5664,26.9056,衡阳市,真空机电公司,细颗粒物(PM2.5),93,102,58,69,45,4,,56,40,75,32,7,13,2.1,1.4
2023-12-05T2200,3399A,112.6703,26.882,衡阳市,师范学院,细颗粒物(PM2.5),74,65,37,54,31,38,,73,62,25,22,8,7,0.8,0.8
2023-12-05T2200,2608A,103.3772,23.3993,红河州,污水处理厂,,37,37,20,23,16,33,,58,52,17,9,8,9,0.4,0.4
2023-12-05T2200,2609A,103.3861,23.35,红河州,监测站,,33,30,18,23,15,33,,52,48,12,10,10,10,0.6,0.6
2023-12-05T2200,3038A,103.3758,23.368,红河州,州图书馆,,33,30,18,23,13,31,,53,45,13,10,6,7,0.4,0.4
2023-12-05T2200,1090A,111.6507,40.7517,呼和浩特市,呼市一监,颗粒物(PM10),98,146,126,20,47,65,,44,44,8,48,6,7,0.4,0.9
2023-12-05T2200,1091A,111.6572,40.8033,呼和浩特市,小召,颗粒物(PM10),104,158,134,22,45,64,,54,54,14,54,7,18,0.3,1.1
2023-12-05T2200,1094A,111.7516,40.8369,呼和浩特市,如意水处理厂,颗粒物(PM10),92,133,125,26,48,49,,46,46,17,51,8,14,0.4,0.9
2023-12-05T2200,1095A,111.7276,40.8062,呼和浩特市,二十九中,颗粒物(PM10),95,140,122,25,45,58,,50,50,14,51,9,16,0.4,0.8
2023-12-05T2200,1096A,111.5512,40.7866,呼和浩特市,工大金川校区,颗粒物(PM10),91,131,124,25,47,52,,41,41,16,54,6,17,0.4,0.8
2023-12-05T2200,1097A,111.717,40.7612,呼和浩特市,化肥厂生活区,颗粒物(PM10),78,105,104,20,43,60,,45,45,13,52,8,16,0.4,0.9
2023-12-05T2200,3698A,111.5968,40.8178,呼和浩特市,红旗小学,颗粒物(PM10),108,166,140,24,50,56,,48,48,17,55,8,19,0.5,1
2023-12-05T2200,3699A,111.6518,40.8389,呼和浩特市,海东办,颗粒物(PM10),108,166,144,23,50,53,,48,48,17,55,9,15,0.3,0.9
2023-12-05T2200,2192A,119.7594,49.2261,呼伦贝尔市,区环保局,,25,25,25,14,17,59,,76,58,8,8,5,5,0.3,0.3
2023-12-05T2200,3061A,119.7512,49.1577,呼伦贝尔市,国华电力东,,19,17,26,11,13,60,,77,60,3,5,5,5,0.2,0.2
2023-12-05T2200,1250A,120.0751,30.8669,湖州市,城西水厂,颗粒物(PM10),73,96,86,52,58,4,,48,21,86,64,7,7,1.1,0.8
2023-12-05T2200,2873A,120.0875,30.8955,湖州市,仁皇山新区,细颗粒物(PM2.5),59,66,83,42,61,3,,54,33,78,61,6,7,1.0,0.8
2023-12-05T2200,2907A,120.1844,30.8596,湖州市,吴兴区站,细颗粒物(PM2.5),74,91,83,54,58,1,,56,34,90,60,7,6,0.9,0.7
2023-12-05T2200,3562A,120.4148,30.8538,湖州市,南浔区站,细颗粒物(PM2.5),77,84,80,56,59,0,,53,31,87,50,7,6,0.7,0.7
2023-12-05T2200,1607A,120.9092,40.7136,葫芦岛市,龙港区,细颗粒物(PM2.5),182,160,167,137,128,15,,45,38,80,63,20,102,1.5,2
2023-12-05T2200,1608A,120.8392,40.7514,葫芦岛市,化工街,细颗粒物(PM2.5),185,197,179,139,104,3,,40,24,88,59,14,20,2.2,1.9
2023-12-05T2200,1609A,120.8341,40.7073,葫芦岛市,新区,细颗粒物(PM2.5),180,178,145,136,119,6,,55,35,102,67,20,19,2.3,2
2023-12-05T2200,1610A,120.8695,40.7677,葫芦岛市,东城区,细颗粒物(PM2.5),215,172,142,165,106,6,,46,28,97,56,19,23,2.4,1.8
2023-12-05T2200,2482A,109.5981,27.5721,怀化市,林科所,,36,36,34,24,26,34,,60,54,4,4,1,3,1.0,0.9
2023-12-05T2200,2483A,109.9453,27.5444,怀化市,河西地税局,细颗粒物(PM2.5),59,54,39,42,29,7,,49,32,27,22,4,4,0.5,0.5
2023-12-05T2200,2484A,109.9781,27.5342,怀化市,市四医院,颗粒物(PM10),75,100,43,51,37,0,,49,28,45,29,6,5,0.9,0.6
2023-12-05T2200,2485A,109.9972,27.5578,怀化市,监测楼,细颗粒物(PM2.5),99,96,47,74,41,11,,61,37,51,30,7,6,1.9,0.9
2023-12-05T2200,2486A,110.0394,27.583,怀化市,市委党校,颗粒物(PM10),84,117,46,57,34,2,,54,31,42,24,13,8,1.0,0.7
2023-12-05T2200,1210A,119.036,33.5981,淮安市,钵池山,细颗粒物(PM2.5),118,107,116,89,96,55,,74,70,45,50,9,15,1.0,1.4
2023-12-05T2200,1211A,119.007,33.575,淮安市,北京南路,细颗粒物(PM2.5),115,107,114,87,93,40,,65,54,53,59,8,13,0.8,1.1
2023-12-05T2200,1212A,118.989,33.6067,淮安市,市监测站,细颗粒物(PM2.5),122,114,119,92,91,50,,77,68,57,53,22,14,2.2,1.2
2023-12-05T2200,1213A,119.135,33.5039,淮安市,楚州区监测站,细颗粒物(PM2.5),115,115,122,87,97,35,,77,62,57,59,7,10,0.8,1
2023-12-05T2200,1214A,119.0186,33.6297,淮安市,淮阴区监测站,细颗粒物(PM2.5),110,119,130,83,93,52,,73,60,49,53,10,12,0.8,1
2023-12-05T2200,3426A,118.8755,33.2894,淮安市,新华书店,细颗粒物(PM2.5),92,90,115,68,89,31,,78,58,68,62,11,13,0.8,0.8
2023-12-05T2200,2282A,116.8004,33.975,淮北市,监测站,细颗粒物(PM2.5),107,126,132,80,86,35,,78,64,55,48,8,9,1.0,1
2023-12-05T2200,2283A,116.8091,33.9007,淮北市,烈山区政府,细颗粒物(PM2.5),112,133,123,84,87,23,,80,59,68,51,7,8,0.6,0.6
2023-12-05T2200,3330A,116.8873,33.9836,淮北市,杜集区检察院,细颗粒物(PM2.5),113,131,127,85,85,44,,86,73,35,30,8,10,0.8,0.8
2023-12-05T2200,4017A,116.7923,33.9535,淮北市,市博物馆,细颗粒物(PM2.5),109,138,130,82,87,34,,84,67,58,49,10,9,1.1,0.8
2023-12-05T2200,2277A,116.8305,32.7727,淮南市,潘集区政府,细颗粒物(PM2.5),113,113,110,85,79,43,,79,60,50,40,10,11,0.7,0.7
2023-12-05T2200,2278A,117.0067,32.6524,淮南市,师范学院,细颗粒物(PM2.5),103,105,97,77,66,53,,84,68,57,45,9,10,0.7,0.7
2023-12-05T2200,2279A,116.8569,32.5951,淮南市,谢家集区政府,细颗粒物(PM2.5),82,103,80,60,59,39,,83,65,56,49,9,8,0.8,0.8
2023-12-05T2200,2280A,116.8281,32.633,淮南市,八公山区政府,细颗粒物(PM2.5),90,104,85,67,56,53,,80,66,43,32,7,7,0.7,0.6
2023-12-05T2200,2281A,116.6325,32.6201,淮南市,焦岗湖风景区管理处,细颗粒物(PM2.5),69,78,89,50,57,29,,74,61,42,33,2,3,0.3,0.4
2023-12-05T2200,2894A,117.0566,32.6531,淮南市,经济技术开发区消防队,细颗粒物(PM2.5),87,103,90,64,59,57,,86,73,45,42,7,7,0.4,0.5
2023-12-05T2200,3329A,117.0108,32.5893,淮南市,山南新区,,,,91,73,70,42,,81,63,55,45,7,7,0.7,0.6
2023-12-05T2200,2446A,114.9028,30.4742,黄冈市,职工中心,细颗粒物(PM2.5),117,132,113,88,80,8,,92,61,66,40,17,15,1.0,1
2023-12-05T2200,2929A,114.8858,30.4519,黄冈市,红卫路,细颗粒物(PM2.5),114,119,114,86,83,13,,86,58,66,52,10,11,0.9,1.1
2023-12-05T2200,3398A,114.9136,30.4445,黄冈市,市林业局,细颗粒物(PM2.5),108,117,103,81,78,11,,91,60,75,53,7,11,0.8,0.9
2023-12-05T2200,2672A,102.0199,35.5102,黄南藏族自治州,同仁县隆务镇,颗粒物(PM10),86,121,105,22,26,92,,91,91,3,7,10,11,0.3,0.4
2023-12-05T2200,2295A,118.2903,29.6963,黄山市,延安路89号,细颗粒物(PM2.5),74,59,39,54,29,4,,43,29,16,13,5,4,0.6,0.3
2023-12-05T2200,2296A,118.327,29.7178,黄山市,黄山东路89号,细颗粒物(PM2.5),68,70,62,49,37,2,,39,24,20,17,4,4,0.6,0.5
2023-12-05T2200,2297A,118.1371,30.2756,黄山市,黄山区政府5号楼,细颗粒物(PM2.5),89,97,52,66,34,11,,73,41,22,17,4,4,0.8,0.5
2023-12-05T2200,2423A,115.0601,30.2313,黄石市,沈家营,细颗粒物(PM2.5),98,115,111,73,72,3,,77,55,75,60,13,17,1.0,1
2023-12-05T2200,2424A,115.0817,30.2006,黄石市,陈家湾,细颗粒物(PM2.5),88,86,103,65,81,27,,58,51,51,52,10,16,0.9,1.2
2023-12-05T2200,2426A,114.8988,30.2019,黄石市,铁山,,,100,80,,70,46,,97,66,40,44,10,12,1.0,1
2023-12-05T2200,2427A,115.0307,30.2092,黄石市,团城山,细颗粒物(PM2.5),99,118,109,74,74,6,,79,65,93,61,14,16,0.9,0.9
2023-12-05T2200,3149A,115.0235,30.1578,黄石市,笔架山北路,细颗粒物(PM2.5),97,103,103,72,80,21,,80,61,58,53,14,13,1.3,1.2
2023-12-05T2200,1392A,114.4183,23.0528,惠州市,河南岸金山湖子站,颗粒物(PM10),53,56,25,28,14,47,,79,70,31,16,8,6,1.1,1
2023-12-05T2200,1393A,114.4053,23.0822,惠州市,下埔横江三路子站,,50,50,23,26,13,50,,88,76,31,19,9,9,0.8,0.7
2023-12-05T2200,1394A,114.4103,23.1142,惠州市,江北云山西路子站,,44,44,23,20,12,51,,82,76,25,17,9,8,0.8,0.7
2023-12-05T2200,1395A,114.4645,22.7833,惠州市,惠阳区承修路船湖子站,颗粒物(PM10),68,85,32,39,17,11,,84,67,55,19,9,7,1.5,1.1
2023-12-05T2200,1396A,114.5317,22.7422,惠州市,大亚湾管委会子站,颗粒物(PM10),51,52,35,20,18,8,,93,66,79,33,6,6,0.9,0.8
2023-12-05T2200,3314A,114.4338,22.8134,惠州市,惠阳秋长,颗粒物(PM10),57,63,32,27,16,44,,94,79,38,18,6,5,1.0,0.8
2023-12-05T2200,3452A,114.6517,22.775,惠州市,大亚湾霞涌,,39,34,33,27,24,40,,39,,25,18,6,6,0.4,0.5
2023-12-05T2200,2240A,130.9762,45.3001,鸡西市,环保局,,,,58,,49,,,32,,,43,,8,,1.1
2023-12-05T2200,2243A,130.9429,45.3039,鸡西市,第一中学,细颗粒物(PM2.5),114,116,61,86,45,6,,58,18,73,39,23,14,1.0,0.5
2023-12-05T2200,3707A,131.0207,45.3073,鸡西市,欧美日汽修厂,颗粒物(PM10),63,76,105,44,82,2,,26,13,79,61,65,38,2.6,1.8
2023-12-05T2200,3709A,130.9967,45.3106,鸡西市,市政设施管理处,细颗粒物(PM2.5),80,,84,59,71,3,,20,12,70,56,7,6,1.8,1.1
2023-12-05T2200,2367A,114.9754,27.0803,吉安市,红声器材厂,,44,44,45,23,28,19,,42,42,37,24,16,17,0.7,0.9
2023-12-05T2200,2368A,114.9658,27.0999,吉安市,市森林工业局,,,35,41,24,28,19,,56,45,27,22,15,13,,0.5
2023-12-05T2200,2369A,114.99,27.1312,吉安市,市环境监测站,,44,44,44,26,24,13,,62,44,32,20,7,10,0.9,0.9
2023-12-05T2200,2370A,115.0093,27.0968,吉安市,青原区法院,,45,45,40,26,27,3,,62,43,35,23,11,14,0.8,0.8
2023-12-05T2200,1772A,126.54,43.8622,吉林市,哈达湾,细颗粒物(PM2.5),54,52,81,38,58,90,,99,94,17,29,10,12,0.8,1
2023-12-05T2200,1773A,126.5844,43.8358,吉林市,东局子,细颗粒物(PM2.5),60,54,85,43,64,89,,97,94,16,34,7,8,0.8,1.1
2023-12-05T2200,1774A,126.5052,43.8245,吉林市,电力学院,细颗粒物(PM2.5),55,53,98,39,70,88,,95,91,16,35,9,12,0.7,1.1
2023-12-05T2200,1775A,126.6133,43.8972,吉林市,江北,细颗粒物(PM2.5),54,53,93,38,70,91,,99,96,20,39,10,11,0.7,1.2
2023-12-05T2200,1776A,126.555,43.8306,吉林市,江南公园,细颗粒物(PM2.5),68,57,83,49,67,91,,94,90,15,37,9,10,0.7,1
2023-12-05T2200,1778A,126.7061,43.7133,吉林市,丰满,细颗粒物(PM2.5),62,50,64,44,49,98,,103,102,8,10,11,10,0.7,0.8
2023-12-05T2200,2868A,126.4739,43.953,吉林市,九站,细颗粒物(PM2.5),62,59,99,44,73,93,,97,95,16,37,7,15,0.7,1.1
2023-12-05T2200,1299A,116.9862,36.6114,济南市,科干所,细颗粒物(PM2.5),98,119,118,73,73,95,,124,113,26,43,12,12,0.9,1
2023-12-05T2200,1300A,116.9376,36.665,济南市,农科所,细颗粒物(PM2.5),98,129,148,73,77,52,,94,78,52,72,10,15,0.7,1.1
2023-12-05T2200,1301A,117.1265,36.6734,济南市,开发区,细颗粒物(PM2.5),104,107,120,78,68,49,,91,80,62,75,9,10,1.2,0.8
2023-12-05T2200,1303A,117.0624,36.6868,济南市,省种子仓库,细颗粒物(PM2.5),128,163,159,97,84,8,,96,72,109,72,15,14,1.5,1.1
2023-12-05T2200,1304A,116.9489,36.6447,济南市,机床二厂,细颗粒物(PM2.5),125,144,159,95,98,44,,90,68,77,86,20,28,1.0,1.4
2023-12-05T2200,1305A,117.0495,36.663,济南市,市监测站,细颗粒物(PM2.5),104,125,134,78,75,42,,102,89,80,70,14,14,1.0,1.1
2023-12-05T2200,1306A,116.7675,36.5484,济南市,长清党校,细颗粒物(PM2.5),119,139,138,90,91,73,,107,94,49,67,12,14,0.6,0.8
2023-12-05T2200,1616A,117.6795,36.229,济南市,技术学院,细颗粒物(PM2.5),206,202,165,156,118,21,,99,78,112,81,18,15,1.0,1.1
2023-12-05T2200,1961A,117.532,36.6868,济南市,东山小学,细颗粒物(PM2.5),108,122,122,81,77,86,,123,110,39,55,15,13,0.8,0.9
2023-12-05T2200,3059A,117.7161,36.2049,济南市,泰兴公司,细颗粒物(PM2.5),195,197,180,146,120,6,,79,48,115,85,18,13,1.4,1.3
2023-12-05T2200,3064A,117.6867,36.2171,济南市,莱芜战役纪念馆,细颗粒物(PM2.5),188,202,176,141,118,3,,88,64,128,86,16,15,1.3,1.3
2023-12-05T2200,3494A,117.1673,36.9782,济南市,济阳区政府,细颗粒物(PM2.5),168,188,149,127,98,36,,77,72,74,66,14,13,1.2,1
2023-12-05T2200,3495A,117.1171,36.63,济南市,锦屏中学,细颗粒物(PM2.5),102,107,84,76,59,88,,128,116,28,25,10,10,0.7,0.7
2023-12-05T2200,3682A,116.9814,36.6819,济南市,济南四建,细颗粒物(PM2.5),119,124,150,90,95,62,,92,82,46,75,17,19,0.6,1.3
2023-12-05T2200,1653A,116.6251,35.4302,济宁市,火炬城,细颗粒物(PM2.5),94,100,132,70,99,54,,72,68,36,53,8,10,0.8,1
2023-12-05T2200,1655A,116.5491,35.4042,济宁市,电化厂,细颗粒物(PM2.5),125,142,158,95,111,41,,74,67,52,54,11,12,0.8,1
2023-12-05T2200,3500A,116.5814,35.3707,济宁市,北湖一中,细颗粒物(PM2.5),107,102,136,80,111,57,,75,73,30,52,12,12,0.4,0.8
2023-12-05T2200,3501A,116.8249,35.5593,济宁市,服务中心,细颗粒物(PM2.5),130,180,192,99,112,16,,70,52,76,67,11,12,0.6,1.3
2023-12-05T2200,3678A,116.5907,35.4054,济宁市,市第七中学,细颗粒物(PM2.5),98,89,133,73,106,60,,72,70,30,55,10,12,0.7,0.9
2023-12-05T2200,2255A,130.2751,46.8028,佳木斯市,佳纺,细颗粒物(PM2.5),98,91,73,73,56,23,,36,21,47,51,6,7,0.8,0.9
2023-12-05T2200,2256A,130.3995,46.8307,佳木斯市,发电厂,细颗粒物(PM2.5),60,60,46,43,34,42,,54,48,25,36,5,5,0.7,0.6
2023-12-05T2200,2257A,130.3258,46.7975,佳木斯市,环保局,细颗粒物(PM2.5),97,91,58,72,46,14,,26,13,53,55,6,6,1.0,0.9
2023-12-05T2200,2258A,130.3648,46.8032,佳木斯市,十一中,细颗粒物(PM2.5),87,77,54,64,50,24,,37,21,45,51,6,7,0.8,0.8
2023-12-05T2200,2259A,130.3794,46.7588,佳木斯市,四丰,细颗粒物(PM2.5),83,107,50,61,28,5,,67,21,66,30,1,1,1.4,0.8
2023-12-05T2200,1252A,120.7436,30.778,嘉兴市,清河小学,细颗粒物(PM2.5),77,99,73,56,44,6,,54,32,89,55,8,9,0.8,0.8
2023-12-05T2200,1253A,120.726,30.7478,嘉兴市,嘉兴学院,细颗粒物(PM2.5),79,95,76,58,51,2,,56,31,86,56,7,8,1.2,0.7
2023-12-05T2200,2872A,120.7846,30.7525,嘉兴市,南湖区残联,细颗粒物(PM2.5),77,94,77,56,54,6,,58,38,96,55,6,7,0.9,0.9
2023-12-05T2200,3407A,120.6916,30.7739,嘉兴市,秀洲住建,细颗粒物(PM2.5),82,94,70,60,55,2,,56,33,86,51,8,9,1.1,1
2023-12-05T2200,1945A,98.2908,39.7711,嘉峪关市,气象局,,36,36,148,12,31,78,,97,89,19,7,9,7,0.6,0.5
2023-12-05T2200,2884A,98.2672,39.7978,嘉峪关市,酒钢宾馆,,31,31,195,7,23,76,,88,86,13,8,9,10,0.4,0.4
2023-12-05T2200,3248A,98.2643,39.7724,嘉峪关市,雄关区,,42,42,159,14,27,70,,96,86,22,9,11,7,0.5,0.4
2023-12-05T2200,1383A,113.1064,22.6058,江门市,北街,,40,40,34,23,22,37,,96,85,62,39,12,9,0.8,0.8
2023-12-05T2200,1384A,113.0731,22.5835,江门市,西区,颗粒物(PM10),54,58,40,26,23,9,,92,76,91,40,10,10,0.9,0.7
2023-12-05T2200,1385A,113.0219,22.5311,江门市,圭峰西,,40,32,33,28,24,62,,93,88,32,29,8,6,0.8,0.8
2023-12-05T2200,1386A,113.0828,22.5947,江门市,东湖,,46,46,36,32,23,34,,93,81,60,36,9,7,0.9,0.7
2023-12-05T2200,3311A,113.1075,22.5647,江门市,江海富民,颗粒物(PM10),51,52,43,28,20,35,,92,80,65,43,14,10,1.0,0.9
2023-12-05T2200,3449A,113.05,22.4667,江门市,新会银湖,,50,50,39,25,25,8,,95,72,70,40,9,9,0.9,0.8
2023-12-05T2200,1828A,113.227,35.2125,焦作市,市环保局,颗粒物(PM10),106,162,113,37,61,76,,60,60,18,52,10,21,0.4,0.9
2023-12-05T2200,1830A,113.1992,35.2590,焦作市,影视城,颗粒物(PM10),90,129,84,40,45,72,,60,60,20,37,5,11,0.7,1.1
2023-12-05T2200,3169A,113.2725,35.2067,焦作市,太极体育中心,颗粒物(PM10),108,165,114,29,58,77,,62,62,19,53,11,20,0.6,1
2023-12-05T2200,3335A,113.3137,35.2641,焦作市,马村街道办,颗粒物(PM10),296,417,147,53,73,83,,64,64,16,55,7,19,0.5,1.1
2023-12-05T2200,3336A,113.2465,35.2373,焦作市,焦作技师学院,颗粒物(PM10),110,170,117,34,63,83,,64,64,21,54,9,21,0.3,1
2023-12-05T2200,3477A,113.1656,35.2539,焦作市,中站许衡医院,颗粒物(PM10),110,169,112,37,57,75,,59,59,24,48,12,24,0.6,1.2
2023-12-05T2200,3981A,113.2449,35.1803,焦作市,原李万街道办,颗粒物(PM10),121,192,111,31,59,74,,62,61,22,48,14,23,0.5,0.9
2023-12-05T2200,1708A,116.3701,23.5345,揭阳市,新兴,细颗粒物(PM2.5),63,,35,45,29,79,,107,97,18,20,10,10,0.7,0.8
2023-12-05T2200,1709A,116.3264,23.5443,揭阳市,西马,细颗粒物(PM2.5),70,,37,51,23,82,,104,98,16,17,9,9,0.7,0.7
2023-12-05T2200,1710A,116.3611,23.5626,揭阳市,东兴,细颗粒物(PM2.5),59,,40,42,24,78,,108,99,18,19,10,8,0.8,0.9
2023-12-05T2200,1711A,116.4151,23.5294,揭阳市,渔湖,细颗粒物(PM2.5),54,39,41,38,22,80,,104,97,17,20,8,11,0.7,0.7
2023-12-05T2200,3320A,116.403,23.5699,揭阳市,曲溪,,34,34,40,18,24,78,,108,97,21,21,5,4,0.7,0.8
2023-12-05T2200,1944A,102.1692,38.5167,金昌市,天庆家园,颗粒物(PM10),70,89,170,13,25,89,,92,91,11,17,10,11,0.5,0.6
2023-12-05T2200,3170A,102.1864,38.5253,金昌市,市委党校,颗粒物(PM10),100,150,177,30,35,86,,94,92,9,10,13,15,0.4,0.5
2023-12-05T2200,4022A,102.1647,38.5371,金昌市,金川区人防中心,颗粒物(PM10),77,103,324,18,30,97,,94,94,6,9,12,13,0.5,0.5
2023-12-05T2200,1262A,119.647,29.077,金华市,十五中,细颗粒物(PM2.5),60,67,60,43,49,8,,58,33,45,43,5,8,1.0,0.8
2023-12-05T2200,1263A,119.686,29.1029,金华市,监测站,细颗粒物(PM2.5),64,65,51,46,45,3,,61,36,56,41,6,9,1.0,0.9
2023-12-05T2200,3659A,119.656,29.1131,金华市,气象局,"颗粒物(PM10),细颗粒物(PM2.5)",72,94,62,52,45,4,,59,33,60,40,3,6,1.4,1
2023-12-05T2200,1767A,121.1115,41.0879,锦州市,南山,细颗粒物(PM2.5),236,197,146,186,129,8,,43,28,92,56,21,31,2.4,1.9
2023-12-05T2200,1768A,121.0533,40.8434,锦州市,开发区,细颗粒物(PM2.5),206,188,197,156,128,4,,37,28,97,68,22,67,2.0,1.6
2023-12-05T2200,1769A,121.1836,41.1119,锦州市,百股街道,细颗粒物(PM2.5),199,154,125,149,106,5,,50,37,92,54,20,20,2.1,1.6
2023-12-05T2200,1770A,121.1178,41.1222,锦州市,天安街道,细颗粒物(PM2.5),226,201,137,176,106,6,,45,27,93,59,21,28,2.7,1.8
2023-12-05T2200,1771A,121.1303,41.1386,锦州市,北湖公园,细颗粒物(PM2.5),233,,114,183,114,9,,56,33,92,54,22,24,2.6,1.7
2023-12-05T2200,2160A,112.85,35.5051,晋城市,自来水公司,颗粒物(PM10),97,144,112,36,57,64,,80,78,30,56,11,22,0.9,2
2023-12-05T2200,2161A,112.8318,35.4936,晋城市,白云商贸,颗粒物(PM10),108,166,107,36,48,63,,87,84,35,50,9,13,0.7,1.6
2023-12-05T2200,2162A,112.8508,35.4887,晋城市,市环保局,颗粒物(PM10),100,150,120,36,57,62,,83,80,30,55,10,19,0.9,1.9
2023-12-05T2200,2163A,112.8676,35.4897,晋城市,技术学院,颗粒物(PM10),110,169,115,34,53,74,,92,90,29,58,9,18,0.7,1.7
2023-12-05T2200,2165A,112.8453,35.546,晋城市,白马寺,颗粒物(PM10),90,130,89,33,46,72,,93,90,21,30,12,20,0.7,1.7
2023-12-05T2200,3620A,112.8271,35.4828,晋城市,泽州一中,颗粒物(PM10),98,146,95,31,42,64,,90,87,33,49,10,14,0.9,1.5
2023-12-05T2200,2171A,112.7532,37.6945,晋中市,锦纶小区,颗粒物(PM10),373,478,163,41,56,75,,72,72,12,46,3,16,0.4,1
2023-12-05T2200,2173A,112.7249,37.7067,晋中市,南都小区,颗粒物(PM10),332,445,163,43,56,73,,72,72,12,52,5,21,0.4,1.3
2023-12-05T2200,2174A,112.6991,37.6982,晋中市,榆次区政府,颗粒物(PM10),378,482,149,45,57,70,,70,70,16,52,5,18,0.4,1.2
2023-12-05T2200,2865A,112.7195,37.6828,晋中市,榆次三中,颗粒物(PM10),486,586,170,39,52,71,,72,72,14,47,7,21,0.4,1.1
2023-12-05T2200,2439A,112.2014,31.0481,荆门市,竹园小学,细颗粒物(PM2.5),128,147,108,97,78,5,,54,37,64,42,9,10,1.2,0.8
2023-12-05T2200,2440A,112.1969,30.9891,荆门市,掇刀,细颗粒物(PM2.5),134,146,104,102,79,7,,63,46,69,44,10,10,1.1,0.8
2023-12-05T2200,2441A,112.2213,31.0386,荆门市,石化一小,细颗粒物(PM2.5),127,154,124,96,85,6,,64,45,77,54,12,13,1.1,0.7
2023-12-05T2200,3012A,112.1849,31.0362,荆门市,西山林语,细颗粒物(PM2.5),102,104,88,76,68,46,,63,59,24,28,6,8,0.6,0.7
2023-12-05T2200,3547A,112.1632,31.0138,荆门市,龙泉中学南校,细颗粒物(PM2.5),120,,93,91,76,39,,64,55,39,32,9,10,0.7,0.6
2023-12-05T2200,1844A,112.2494,30.3197,荆州市,市图书馆,细颗粒物(PM2.5),85,93,77,63,59,5,,66,48,77,31,10,9,1.1,0.7
2023-12-05T2200,1845A,112.2008,30.3544,荆州市,市委党校,细颗粒物(PM2.5),93,98,73,69,61,4,,65,46,78,36,11,10,1.1,0.9
2023-12-05T2200,3194A,112.2747,30.3122,荆州市,管委会,细颗粒物(PM2.5),98,92,70,73,57,9,,69,52,79,33,9,10,1.3,0.9
2023-12-05T2200,3548A,112.1655,30.3364,荆州市,学苑路,细颗粒物(PM2.5),103,89,72,77,67,14,,66,52,72,30,11,9,1.0,0.9
2023-12-05T2200,2342A,117.3102,29.3867,景德镇市,王港中学,,46,46,38,30,28,7,,59,43,6,6,2,3,0.5,0.5
2023-12-05T2200,2343A,117.2117,29.2933,景德镇市,老干部活动中心,细颗粒物(PM2.5),88,91,70,65,51,3,,38,27,39,26,4,5,1.0,0.8
2023-12-05T2200,2344A,117.1894,29.2789,景德镇市,兽医站,细颗粒物(PM2.5),77,,64,56,44,7,,39,28,38,29,7,10,1.0,0.8
2023-12-05T2200,2345A,117.1547,29.2617,景德镇市,台达陶瓷,颗粒物(PM10),93,136,77,60,51,2,,38,23,46,36,19,24,1.3,1
2023-12-05T2200,2346A,117.2461,29.2956,景德镇市,陶研所,细颗粒物(PM2.5),58,64,53,41,33,4,,36,25,31,26,10,7,0.8,0.8
2023-12-05T2200,1803A,115.9872,29.6815,九江市,十里,细颗粒物(PM2.5),84,92,86,62,50,30,,32,21,31,45,7,10,0.9,0.9
2023-12-05T2200,1804A,115.9584,29.7046,九江市,茅山头,细颗粒物(PM2.5),73,68,71,53,52,24,,47,33,42,45,12,15,1.0,1
2023-12-05T2200,1805A,115.9877,29.7295,九江市,西园,细颗粒物(PM2.5),83,86,78,61,56,12,,31,14,44,44,7,11,0.8,0.9
2023-12-05T2200,1806A,116.0172,29.6547,九江市,五七二七厂,细颗粒物(PM2.5),74,78,65,54,53,19,,49,33,28,27,9,11,0.9,0.9
2023-12-05T2200,1808A,115.9114,29.6038,九江市,综合工业园,细颗粒物(PM2.5),84,63,74,62,68,50,,51,49,25,40,10,14,0.8,0.9
2023-12-05T2200,1809A,116.0721,29.7535,九江市,石化总厂,细颗粒物(PM2.5),80,86,88,59,54,40,,34,34,30,35,11,16,0.8,0.8
2023-12-05T2200,1810A,115.9773,29.5698,九江市,庐山气象台,,31,11,12,7,16,98,,99,92,4,4,6,6,0.5,0.6
2023-12-05T2200,3190A,116.0254,29.6994,九江市,外国语学校,细颗粒物(PM2.5),87,96,76,64,58,3,,34,20,47,42,10,16,0.9,0.8
2023-12-05T2200,2658A,98.5061,39.7443,酒泉市,仓门街子站,颗粒物(PM10),114,178,281,42,47,19,,78,59,60,26,10,14,1.5,0.6
2023-12-05T2200,2659A,98.4989,39.7256,酒泉市,油田生活基地,颗粒物(PM10),75,100,265,32,45,47,,92,74,43,23,7,15,0.7,0.6
2023-12-05T2200,2698A,76.0072,39.4467,喀什地区,巡警大队,颗粒物(PM10),127,204,136,73,45,31,,94,86,99,62,13,9,1.5,1.9
2023-12-05T2200,2699A,75.9755,39.4694,喀什地区,吾办,颗粒物(PM10),153,256,145,114,62,10,,77,68,122,71,14,6,2.5,2.1
2023-12-05T2200,4027A,75.9483,39.4689,喀什地区,老干局,颗粒物(PM10),152,253,221,102,86,20,,29,,116,63,19,12,2.3,2.4
2023-12-05T2200,1824A,114.3389,34.7781,开封市,肿瘤医院,,,136,149,66,95,42,,67,55,,77,8,8,0.2,0.5
2023-12-05T2200,1826A,114.2885,34.7965,开封市,世纪星幼儿园,颗粒物(PM10),68,86,124,47,98,55,,64,57,30,63,8,7,0.6,0.8
2023-12-05T2200,3147A,114.3438,34.8106,开封市,龙亭公园,颗粒物(PM10),82,113,134,48,103,61,,76,68,29,58,7,6,0.5,1
2023-12-05T2200,3210A,114.3644,34.7964,开封市,汴京公园,颗粒物(PM10),88,125,143,59,115,46,,62,53,43,67,7,6,0.6,0.8
2023-12-05T2200,3473A,114.2485,34.8306,开封市,技师学院,颗粒物(PM10),67,84,130,39,98,58,,76,72,28,57,11,12,0.3,0.5
2023-12-05T2200,3592A,114.4644,34.7556,开封市,祥符区生态环境局,细颗粒物(PM2.5),107,139,170,80,104,29,,71,56,61,67,6,8,0.8,0.9
2023-12-05T2200,1951A,84.895,45.6094,克拉玛依市,长征新村,,30,30,23,8,13,13,,39,25,36,18,9,9,0.5,0.4
2023-12-05T2200,1952A,84.8988,45.5893,克拉玛依市,南林小区,,26,26,26,12,18,6,,40,27,40,17,5,4,0.7,0.4
2023-12-05T2200,1954A,84.905,44.3396,克拉玛依市,独山子区,,29,29,24,18,16,42,,48,47,13,16,5,4,0.6,0.6
2023-12-05T2200,1955A,85.6979,46.098,克拉玛依市,乌尔禾区商贸楼,,11,10,24,7,12,35,,42,39,14,18,7,6,0.3,0.5
2023-12-05T2200,3612A,85.1045,45.6899,克拉玛依市,白碱滩区新站,,15,,22,10,15,26,,42,38,21,16,8,8,0.3,0.3
2023-12-05T2200,2697A,76.1454,39.7142,克孜勒苏柯尔克孜自治州,市人民政府,颗粒物(PM10),88,126,73,49,39,65,,107,106,64,22,5,5,0.7,0.6
2023-12-05T2200,3665A,76.1658,39.7157,克孜勒苏柯尔克孜自治州,克州文化中心,颗粒物(PM10),113,175,111,53,46,68,,104,101,60,31,10,9,1.1,0.9
2023-12-05T2200,1450A,102.8204,24.8886,昆明市,呈贡新区,,29,,14,20,9,53,,64,59,14,14,5,6,0.6,0.6
2023-12-05T2200,1451A,102.6251,24.9608,昆明市,西山森林公园,,23,16,12,14,8,72,,78,73,9,12,5,6,0.4,0.5
2023-12-05T2200,1452A,102.7252,25.0902,昆明市,龙泉镇,,37,37,34,12,12,28,,67,51,37,35,10,9,0.6,0.7
2023-12-05T2200,1453A,102.7266,25.0375,昆明市,东风东路,,24,24,21,13,14,42,,63,54,22,23,8,10,0.4,0.6
2023-12-05T2200,1454A,102.6742,25.0669,昆明市,金鼎山,,27,27,25,18,13,37,,68,58,33,30,4,4,0.6,0.6
2023-12-05T2200,1455A,102.6644,25.0401,昆明市,碧鸡广场,,32,32,27,16,14,25,,67,54,43,36,10,11,0.5,0.7
2023-12-05T2200,3179A,102.7494,25.0119,昆明市,官渡区博物馆,,22,22,29,13,17,51,,65,56,14,32,8,9,0.3,0.5
2023-12-05T2200,3375A,102.8017,24.8336,昆明市,青年创业园,,27,27,14,16,8,38,,74,67,28,9,8,9,0.5,0.5
2023-12-05T2200,3550A,102.7997,24.9786,昆明市,昆明学院,,28,28,26,13,12,53,,70,63,12,18,9,9,0.3,0.4
2023-12-05T2200,3551A,102.5967,24.6736,昆明市,晋宁区生态环境分局,,25,,14,17,14,48,,70,65,14,10,2,2,0.5,0.6
2023-12-05T2200,3552A,102.6678,24.9856,昆明市,云天化总部,,21,19,17,10,9,65,,74,68,5,19,8,10,0.5,0.5
2023-12-05T2200,1456A,91.1319,29.6514,拉萨市,八廓街,,24,24,36,11,20,68,,82,80,21,27,4,5,0.6,1
2023-12-05T2200,1457A,91.1221,29.6747,拉萨市,市环保局,,25,12,55,8,30,77,,76,76,12,31,6,8,0.4,1.4
2023-12-05T2200,1458A,91.0874,29.6475,拉萨市,区监测站,,22,,29,13,16,70,,86,82,21,34,9,10,0.6,1
2023-12-05T2200,1459A,91.1774,29.6541,拉萨市,西藏大学,,24,14,35,7,18,75,,83,82,11,22,6,8,0.5,0.9
2023-12-05T2200,1460A,90.9798,29.6588,拉萨市,区辐射站,,,16,44,11,24,,,84,,24,37,6,8,0.6,0.9
2023-12-05T2200,1461A,91.0834,29.6292,拉萨市,拉萨火车站,,22,18,22,6,10,69,,83,80,18,19,4,6,0.5,0.6
2023-12-05T2200,2520A,109.2203,23.7256,来宾市,来宾技工学校,,35,33,34,24,22,41,,60,58,23,18,5,10,0.9,0.9
2023-12-05T2200,3535A,109.1781,23.7297,来宾市,兴宾区政府,,37,37,31,23,20,40,,60,57,20,15,7,8,0.8,0.8
2023-12-05T2200,4002A,109.2416,23.7461,来宾市,中南小学,,33,27,34,23,22,29,,60,56,31,19,7,14,0.9,0.9
2023-12-05T2200,1476A,103.631,36.1031,兰州市,兰炼宾馆,颗粒物(PM10),485,585,218,116,70,46,,69,68,40,58,6,36,0.5,1.2
2023-12-05T2200,1477A,104.1373,35.9454,兰州市,榆中兰大校区,,,,,,,,,,,,,,,,
2023-12-05T2200,1478A,103.8412,36.0726,兰州市,生物制品所,颗粒物(PM10),500,626,247,91,70,14,,63,60,67,60,7,13,0.7,1.4
2023-12-05T2200,1479A,103.831,36.0464,兰州市,铁路设计院,颗粒物(PM10),456,556,226,98,75,54,,69,69,43,66,9,20,0.4,1.8
2023-12-05T2200,3186A,103.7158,36.1058,兰州市,教育港,颗粒物(PM10),500,668,221,109,65,30,,67,64,54,55,14,22,0.8,1.4
2023-12-05T2200,3241A,103.7439,36.0842,兰州市,百合公园,颗粒物(PM10),500,610,214,85,62,30,,68,65,64,57,5,14,0.6,1.5
2023-12-05T2200,3242A,103.9611,35.998,兰州市,和平,颗粒物(PM10),500,772,266,158,73,38,,68,66,44,56,6,21,0.8,1.6
2023-12-05T2200,3245A,103.6633,36.533,兰州新区,新区管委会,颗粒物(PM10),164,277,106,47,36,53,,83,81,30,26,6,11,0.5,0.6
2023-12-05T2200,3246A,103.6975,36.4789,兰州新区,舟曲中学,颗粒物(PM10),372,477,147,65,41,67,,80,79,19,36,4,11,0.5,0.8
2023-12-05T2200,1067A,116.6708,39.5111,廊坊市,药材公司,细颗粒物(PM2.5),224,251,200,174,126,4,,19,13,126,93,13,10,1.8,1.7
2023-12-05T2200,1068A,116.7214,39.5589,廊坊市,开发区,细颗粒物(PM2.5),224,226,178,174,133,0,,11,5,134,111,10,10,1.7,1.6
2023-12-05T2200,1070A,116.7244,39.5269,廊坊市,北华航天学院,细颗粒物(PM2.5),215,237,214,165,141,0,,14,8,134,102,15,14,1.8,1.9
2023-12-05T2200,2919A,116.7022,39.5453,廊坊市,河北工业大学,细颗粒物(PM2.5),218,235,203,168,129,0,,6,5,,96,17,14,1.5,1.8
2023-12-05T2200,2535A,103.7723,29.5462,乐山市,花湖湾,细颗粒物(PM2.5),104,139,85,78,56,1,,32,23,47,21,4,4,1.2,0.8
2023-12-05T2200,2536A,103.7627,29.5844,乐山市,牛耳桥,细颗粒物(PM2.5),82,80,68,60,54,4,,31,22,56,30,5,4,1.4,0.9
2023-12-05T2200,2537A,103.7508,29.6006,乐山市,市第三水厂,细颗粒物(PM2.5),82,85,79,60,54,6,,34,24,57,32,6,4,1.2,0.6
2023-12-05T2200,2538A,103.7571,29.5664,乐山市,市监测站,细颗粒物(PM2.5),72,73,63,52,53,5,,36,26,53,26,3,4,1.2,0.6
2023-12-05T2200,3361A,103.7311,29.5628,乐山市,理工大学,细颗粒物(PM2.5),75,82,74,55,49,2,,35,23,52,24,5,6,1.4,0.9
2023-12-05T2200,2598A,100.2143,26.8576,丽江市,西南郊,,28,9,12,6,6,88,,89,87,2,3,3,3,0.7,0.7
2023-12-05T2200,2599A,100.2497,26.8802,丽江市,丽江古城,,26,20,31,15,12,82,,84,84,17,20,7,8,0.7,0.6
2023-12-05T2200,2600A,100.2203,26.8906,丽江市,市中心,,26,12,10,5,5,81,,84,83,7,9,5,6,0.5,0.5
2023-12-05T2200,1267A,119.914,28.4514,丽水市,监测站大楼,,38,38,34,17,19,23,,52,36,31,31,6,6,0.6,0.9
2023-12-05T2200,1268A,119.93,28.4586,丽水市,莲都小学,,22,22,32,12,24,41,,52,46,21,31,6,6,0.6,0.8
2023-12-05T2200,1269A,119.879,28.4231,丽水市,余庄前,,24,24,24,13,19,5,,45,29,16,21,5,5,0.5,0.6
2023-12-05T2200,1173A,119.176,34.5885,连云港市,市环境监测站,细颗粒物(PM2.5),156,144,170,119,132,65,,77,74,37,72,11,14,0.9,1.3
2023-12-05T2200,3000A,119.3581,34.6972,连云港市,德源药业,细颗粒物(PM2.5),117,119,154,88,109,73,,84,82,35,68,8,11,0.9,1.1
2023-12-05T2200,3007A,119.178,34.844,连云港市,新城一中,细颗粒物(PM2.5),162,150,169,123,143,54,,83,67,54,77,11,18,0.8,1.1
2023-12-05T2200,3008A,119.3608,34.7519,连云港市,胡沟管理处,细颗粒物(PM2.5),85,83,138,63,101,77,,66,66,34,62,10,18,0.6,1.2
2023-12-05T2200,3009A,119.1478,34.5911,连云港市,矿山设计院,细颗粒物(PM2.5),149,156,171,114,120,59,,83,74,37,61,8,10,0.7,1
2023-12-05T2200,3434A,119.2413,34.6539,连云港市,工贸学校,细颗粒物(PM2.5),135,142,166,103,119,93,,99,97,23,43,11,14,0.8,1
2023-12-05T2200,3664A,119.4172,34.7341,连云港市,连云街道,细颗粒物(PM2.5),83,102,151,61,102,98,,78,68,18,55,6,13,0.6,0.8
2023-12-05T2200,2571A,102.3431,27.8099,凉山彝族自治州,青龙寺,,,,24,,21,,,44,,,12,,8,,0.7
2023-12-05T2200,2572A,102.2721,27.8415,凉山彝族自治州,邛海宾馆,,28,28,28,19,18,37,,86,76,36,20,13,14,0.7,0.8
2023-12-05T2200,2573A,102.2625,27.898,凉山彝族自治州,西昌市政府,,26,26,31,14,20,64,,85,83,12,18,10,13,0.6,0.7
2023-12-05T2200,2574A,102.2685,27.8851,凉山彝族自治州,凉山州政府,,47,47,37,25,21,33,,81,73,34,20,11,12,0.7,0.7
2023-12-05T2200,2575A,102.237,27.8914,凉山彝族自治州,长安,,49,49,48,24,26,30,,81,72,42,31,13,16,0.7,0.8
2023-12-05T2200,2212A,123.2,41.1953,辽阳市,宏伟区,细颗粒物(PM2.5),105,,87,79,84,81,,86,84,16,21,11,12,0.6,0.8
2023-12-05T2200,2213A,123.1683,41.2495,辽阳市,新华园,细颗粒物(PM2.5),94,88,97,70,90,70,,79,75,18,29,12,13,0.9,1.3
2023-12-05T2200,2214A,123.2354,41.2639,辽阳市,滨河路,细颗粒物(PM2.5),113,,74,85,89,72,,78,76,19,29,22,13,1.0,1.1
2023-12-05T2200,2215A,123.149,41.2991,辽阳市,铁西工业园,细颗粒物(PM2.5),104,90,123,78,121,71,,83,79,22,30,13,13,0.8,1.5
2023-12-05T2200,2227A,125.1358,42.8845,辽源市,环保局,,50,41,71,35,53,101,,100,97,12,28,9,11,0.7,1.4
2023-12-05T2200,3239A,125.0764,42.9078,辽源市,银鹰制药,细颗粒物(PM2.5),52,50,81,36,64,101,,98,97,14,29,7,14,0.8,1.2
2023-12-05T2200,1625A,115.9848,36.4372,聊城市,区政府,细颗粒物(PM2.5),179,189,183,135,129,44,,83,74,48,59,7,9,0.9,1.1
2023-12-05T2200,2878A,116.0072,36.4343,聊城市,聊大东校,细颗粒物(PM2.5),168,171,175,127,135,49,,85,74,47,61,8,12,0.9,1
2023-12-05T2200,3200A,115.9819,36.4978,聊城市,监控中心,细颗粒物(PM2.5),203,213,194,153,143,25,,82,69,72,70,7,10,0.8,0.9
2023-12-05T2200,3513A,116.0445,36.4361,聊城市,九州社区,细颗粒物(PM2.5),139,150,170,106,123,55,,82,69,46,76,7,12,0.7,1
2023-12-05T2200,4018A,116.0567,36.4608,聊城市,星美广场,细颗粒物(PM2.5),160,166,173,122,125,32,,87,74,78,71,8,13,0.8,1
2023-12-05T2200,2632A,94.3681,29.6376,林芝市,林芝监测站,,24,7,7,0,4,74,,80,76,3,3,6,6,0.4,0.4
2023-12-05T2200,2633A,94.3616,29.6616,林芝市,林芝人民医院,,,9,9,6,5,69,,77,72,5,5,8,7,,0.3
2023-12-05T2200,2603A,100.0781,23.8982,临沧市,市环保局,,36,36,27,22,17,29,,52,48,18,16,6,7,0.5,0.4
2023-12-05T2200,2604A,100.0894,23.8822,临沧市,市气象局,细颗粒物(PM2.5),53,42,31,37,23,15,,53,46,31,20,3,5,0.6,0.4
2023-12-05T2200,1733A,111.5531,36.0783,临汾市,临钢医院,细颗粒物(PM2.5),223,296,214,173,130,18,,43,31,88,65,21,14,3.3,2.1
2023-12-05T2200,1734A,111.5028,36.0714,临汾市,技工学校,细颗粒物(PM2.5),256,322,230,206,150,6,,43,28,112,83,27,21,3.4,2.4
2023-12-05T2200,1736A,111.5018,36.0855,临汾市,市委,细颗粒物(PM2.5),241,304,234,191,147,9,,41,28,109,82,29,22,2.8,2.2
2023-12-05T2200,3018A,111.505,36.1014,临汾市,唐尧大酒店,细颗粒物(PM2.5),228,260,209,178,144,4,,36,23,106,78,25,19,3.0,2.2
2023-12-05T2200,3668A,111.5036,36.0414,临汾市,城南,,,,227,,155,,,34,25,,75,,15,,2.1
2023-12-05T2200,2667A,103.2069,35.5993,临夏回族自治州,环保局,颗粒物(PM10),210,357,172,43,68,61,,62,62,28,42,17,19,0.2,1.4
2023-12-05T2200,2668A,103.2417,35.6057,临夏回族自治州,建设大厦,颗粒物(PM10),218,362,119,53,55,,,71,70,20,24,7,10,0.9,0.9
2023-12-05T2200,1618A,118.3429,35.0532,临沂市,沂河小区,细颗粒物(PM2.5),166,168,190,126,145,38,,68,63,69,84,29,24,1.0,1.2
2023-12-05T2200,1619A,118.295,35.0583,临沂市,鲁南制药厂,细颗粒物(PM2.5),205,193,205,155,164,33,,78,68,75,84,38,37,1.0,1.5
2023-12-05T2200,1620A,118.2794,34.9976,临沂市,新光毛纺厂,细颗粒物(PM2.5),180,190,204,136,149,26,,72,60,79,79,36,30,1.4,1.6
2023-12-05T2200,1621A,118.3956,35.0888,临沂市,河东保险公司,细颗粒物(PM2.5),208,210,190,158,154,4,,74,60,96,80,11,18,1.3,1.4
2023-12-05T2200,3370A,118.3564,35.0215,临沂市,十里堡居委,细颗粒物(PM2.5),160,171,192,122,141,39,,72,62,61,73,21,22,1.1,1.5
2023-12-05T2200,3496A,118.3604,35.1084,临沂市,南坊新区,细颗粒物(PM2.5),199,188,184,149,137,8,,76,67,97,84,15,21,1.3,1.4
2023-12-05T2200,3860A,118.3920,35.0300,临沂市,皇山花园小区,细颗粒物(PM2.5),149,163,193,114,133,32,,75,64,60,74,16,26,0.9,1.1
2023-12-05T2200,1870A,109.4856,24.3895,柳州市,柳东小学,细颗粒物(PM2.5),52,43,28,36,24,31,,54,47,23,16,9,10,0.5,0.4
2023-12-05T2200,1871A,109.4157,24.3277,柳州市,环保监测站,细颗粒物(PM2.5),54,50,40,38,29,15,,48,42,44,26,9,9,1.0,0.9
2023-12-05T2200,1872A,109.389,24.341,柳州市,河西水厂,颗粒物(PM10),71,92,61,40,29,1,,37,26,50,28,8,9,1.2,1
2023-12-05T2200,1873A,109.4311,24.2921,柳州市,市四中,细颗粒物(PM2.5),55,48,40,39,25,18,,50,41,46,30,9,8,1.0,1
2023-12-05T2200,1874A,109.4006,24.3631,柳州市,市九中,颗粒物(PM10),61,72,46,36,28,10,,45,36,44,24,5,6,1.1,1
2023-12-05T2200,1875A,109.4958,24.3134,柳州市,古亭山,细颗粒物(PM2.5),52,44,28,36,21,4,,51,37,45,22,34,15,0.7,0.6
2023-12-05T2200,3402A,109.5422,24.3996,柳州市,市二中,细颗粒物(PM2.5),59,59,32,42,23,11,,52,38,37,19,13,9,0.8,0.7
2023-12-05T2200,2307A,116.5079,31.737,六安市,监测大楼,细颗粒物(PM2.5),64,63,64,46,47,56,,86,74,45,39,6,6,0.5,0.6
2023-12-05T2200,2308A,116.4738,31.7643,六安市,皖西学院,细颗粒物(PM2.5),65,76,71,47,43,41,,80,72,49,41,6,6,0.5,0.6
2023-12-05T2200,2309A,116.4996,31.7905,六安市,朝阳厂,细颗粒物(PM2.5),73,72,63,53,45,41,,83,72,50,34,7,7,0.7,0.7
2023-12-05T2200,2310A,116.5567,31.7886,六安市,开发区,细颗粒物(PM2.5),103,132,96,77,59,13,,73,50,62,46,8,7,0.9,0.8
2023-12-05T2200,2576A,104.8,26.5892,六盘水市,窑上,细颗粒物(PM2.5),77,63,54,56,39,64,,66,66,9,13,4,4,0.7,0.8
2023-12-05T2200,2577A,104.83,26.5917,六盘水市,黄土坡,细颗粒物(PM2.5),64,59,51,46,34,58,,62,62,13,18,10,11,0.7,0.8
2023-12-05T2200,2578A,104.89,26.5939,六盘水市,水钢,细颗粒物(PM2.5),68,70,45,49,38,45,,63,60,14,14,5,6,0.9,0.8
2023-12-05T2200,2579A,104.8475,26.5894,六盘水市,民中,细颗粒物(PM2.5),64,51,46,46,36,52,,57,57,13,16,7,8,0.8,0.8
2023-12-05T2200,2580A,104.9544,26.5506,六盘水市,双水,细颗粒物(PM2.5),67,63,40,48,32,53,,61,60,11,12,8,7,0.8,0.8
2023-12-05T2200,2335A,117.0189,25.1181,龙岩市,龙岩师专,,,,,,,,,,,,,,,,
2023-12-05T2200,2336A,117.0217,25.1033,龙岩市,龙岩市监测站,,32,32,17,18,14,18,,53,43,28,18,6,5,0.8,0.8
2023-12-05T2200,2337A,117.0258,25.0661,龙岩市,闽西职业技术学院,,31,31,19,18,15,3,,48,33,23,16,8,8,0.9,1
2023-12-05T2200,2338A,117.0196,25.0306,龙岩市,龙岩学院,,26,24,22,18,13,3,,45,30,16,14,7,5,0.7,0.7
2023-12-05T2200,2665A,105.0822,33.3261,陇南市,汉王镇固水子,,,,,,,,,,,,,,,,
2023-12-05T2200,2885A,104.9339,33.3826,陇南市,滨江中学,,,124,95,56,40,,,44,36,87,56,36,38,3.5,2.3
2023-12-05T2200,3247A,104.955,33.371,陇南市,市总工会,颗粒物(PM10),59,68,64,36,33,43,,61,53,42,37,9,15,0.6,0.7
2023-12-05T2200,2487A,111.9589,27.8901,娄底市,电视发射台,,41,41,61,28,40,37,,52,50,20,24,6,7,1.0,1.4
2023-12-05T2200,2488A,111.9975,27.725,娄底市,市监测站,细颗粒物(PM2.5),107,114,75,80,57,4,,63,46,74,42,14,12,1.9,1.1
2023-12-05T2200,2489A,112.0194,27.7314,娄底市,市委党校,细颗粒物(PM2.5),84,107,66,62,47,4,,52,37,59,31,8,6,1.4,0.9
2023-12-05T2200,2490A,111.9561,27.7569,娄底市,涟钢,细颗粒物(PM2.5),99,129,94,74,67,4,,42,32,53,38,9,11,1.3,1.5
2023-12-05T2200,2491A,111.9892,27.7044,娄底市,市政府,细颗粒物(PM2.5),87,100,63,64,48,0,,55,39,46,25,35,14,1.0,0.8
2023-12-05T2200,1893A,105.4324,28.9634,泸州市,九狮山,细颗粒物(PM2.5),72,84,67,52,43,3,,12,10,32,28,6,6,0.7,0.6
2023-12-05T2200,1894A,105.4427,28.9063,泸州市,小市上码头,细颗粒物(PM2.5),89,98,85,66,60,12,,17,14,39,35,9,8,1.0,0.9
2023-12-05T2200,1895A,105.4241,28.8573,泸州市,兰田宪桥,细颗粒物(PM2.5),93,95,88,69,65,9,,11,10,30,33,6,9,0.8,0.8
2023-12-05T2200,1896A,105.4379,28.8833,泸州市,市环监站,细颗粒物(PM2.5),103,82,72,77,67,11,,13,8,35,34,6,5,0.9,0.8
2023-12-05T2200,3490A,105.3617,28.7703,泸州市,纳溪区环保局,细颗粒物(PM2.5),89,93,76,66,56,6,,15,12,40,34,7,6,0.8,0.6
2023-12-05T2200,2183A,111.1406,37.5211,吕梁市,环保局,颗粒物(PM10),175,300,142,45,34,71,,74,74,7,41,4,10,0.4,0.8
2023-12-05T2200,2185A,111.1297,37.5136,吕梁市,自来水公司,颗粒物(PM10),162,274,177,40,45,73,,75,75,7,34,2,11,0.3,0.6
2023-12-05T2200,2867A,111.1283,37.51,吕梁市,马茂庄小学,颗粒物(PM10),166,282,164,42,49,71,,70,70,8,37,3,9,0.4,0.8
2023-12-05T2200,1812A,112.3931,34.6516,洛阳市,市委党校,细颗粒物(PM2.5),89,102,107,66,75,66,,76,76,33,45,13,10,0.9,0.9
2023-12-05T2200,1814A,112.4657,34.6871,洛阳市,豫西宾馆,细颗粒物(PM2.5),95,117,129,71,74,47,,72,69,52,54,12,16,1.0,1.1
2023-12-05T2200,1815A,112.494,34.6886,洛阳市,河南林校,细颗粒物(PM2.5),94,109,105,70,69,61,,73,72,42,51,8,8,0.9,0.9
2023-12-05T2200,1816A,112.3844,34.623,洛阳市,开发区管委会,细颗粒物(PM2.5),92,105,79,68,54,60,,85,84,37,35,7,4,0.9,0.7
2023-12-05T2200,1817A,112.4267,34.6258,洛阳市,市委新办公区,细颗粒物(PM2.5),89,99,76,66,56,72,,86,85,32,36,8,4,0.9,0.7
2023-12-05T2200,3340A,112.6005,34.6326,洛阳市,伊滨,细颗粒物(PM2.5),90,110,106,67,62,64,,73,71,38,44,8,5,0.8,0.6
2023-12-05T2200,3341A,112.4951,34.6332,洛阳市,中移产业园,细颗粒物(PM2.5),79,96,77,58,55,72,,77,76,25,36,12,7,0.8,0.7
2023-12-05T2200,3593A,112.5736,34.8993,洛阳市,吉利监测站,细颗粒物(PM2.5),94,106,69,70,46,55,,57,57,44,50,12,13,0.9,0.5
2023-12-05T2200,3635A,112.3677,34.662,洛阳市,河科大西苑校区,细颗粒物(PM2.5),85,108,126,63,85,64,,75,75,34,50,8,10,0.8,0.8
2023-12-05T2200,3636A,112.4388,34.6781,洛阳市,英才小学,颗粒物(PM10),80,110,122,52,72,66,,75,75,33,53,12,17,0.8,0.9
2023-12-05T2200,2399A,114.051,33.5699,漯河市,三五一五工厂,细颗粒物(PM2.5),100,98,85,75,72,50,,70,59,26,37,11,10,0.6,0.6
2023-12-05T2200,2400A,114.0055,33.5698,漯河市,漯河大学,细颗粒物(PM2.5),102,103,97,76,68,51,,74,58,27,33,8,9,0.7,0.7
2023-12-05T2200,2401A,114.0138,33.5828,漯河市,市水利局,细颗粒物(PM2.5),103,105,88,77,67,45,,71,60,26,25,9,10,0.7,0.8
2023-12-05T2200,2402A,114.0261,33.5698,漯河市,市广电局,细颗粒物(PM2.5),107,95,87,80,69,49,,72,60,22,31,6,5,0.6,0.6
2023-12-05T2200,3478A,113.9749,33.5664,漯河市,市图书馆,细颗粒物(PM2.5),112,108,92,84,73,45,,72,59,21,22,6,8,0.6,0.6
2023-12-05T2200,3479A,114.0967,33.5906,漯河市,召陵区卫健委,细颗粒物(PM2.5),93,100,97,69,65,56,,72,62,20,33,8,8,0.6,0.7
2023-12-05T2200,1798A,118.5092,31.6837,马鞍山市,湖东路四小,细颗粒物(PM2.5),80,82,72,59,63,6,,80,62,105,62,13,13,1.6,1.1
2023-12-05T2200,1799A,118.5024,31.6449,马鞍山市,开发区,细颗粒物(PM2.5),90,96,93,67,80,3,,77,52,102,66,15,15,1.2,0.9
2023-12-05T2200,1800A,118.5228,31.7231,马鞍山市,慈湖,细颗粒物(PM2.5),97,94,93,72,79,1,,79,59,109,66,9,10,1.2,1.1
2023-12-05T2200,1802A,118.6245,31.7241,马鞍山市,濮塘,"颗粒物(PM10),细颗粒物(PM2.5)",72,93,100,52,56,42,,75,70,45,47,12,10,1.2,1
2023-12-05T2200,3633A,118.4918,31.6809,马鞍山市,雨山,细颗粒物(PM2.5),92,102,109,68,76,3,,83,56,101,60,12,13,1.4,1
2023-12-05T2200,1686A,111.0286,21.4688,茂名市,电白南海,颗粒物(PM10),68,85,85,46,51,53,,84,82,37,26,12,19,0.9,1.1
2023-12-05T2200,1687A,110.9294,21.6533,茂名市,茂石化七小,细颗粒物(PM2.5),119,124,79,90,56,32,,70,66,38,25,16,25,1.1,1
2023-12-05T2200,1688A,110.9107,21.6687,茂名市,健康路,,,102,75,68,51,33,,70,65,,23,22,44,0.8,0.8
2023-12-05T2200,1689A,110.8592,21.6828,茂名市,高岭,,,,112,,,,,60,,,25,,34,,0.7
2023-12-05T2200,3450A,111.01,21.5165,茂名市,电白水东,细颗粒物(PM2.5),67,68,78,48,51,69,,90,90,22,24,9,26,0.9,1
2023-12-05T2200,2539A,104.0308,30.0478,眉山市,黑龙滩水库,细颗粒物(PM2.5),62,72,64,44,41,18,,64,54,23,8,6,5,0.6,0.5
2023-12-05T2200,2540A,103.8416,30.0874,眉山市,气象局,细颗粒物(PM2.5),92,101,72,68,59,5,,47,34,60,38,8,9,1.0,0.8
2023-12-05T2200,3137A,103.8578,30.0744,眉山市,市委党校,细颗粒物(PM2.5),85,92,70,63,54,2,,49,33,67,37,8,14,0.8,0.7
2023-12-05T2200,3148A,103.8291,30.0564,眉山市,区人社局,细颗粒物(PM2.5),94,95,63,70,59,5,,53,35,62,37,8,15,1.0,0.7
2023-12-05T2200,1690A,116.1231,24.3284,梅州市,梅江月梅,,19,19,13,12,8,4,,21,17,32,21,6,5,0.6,0.6
2023-12-05T2200,1691A,116.0797,24.2719,梅州市,梅县新城,,25,18,13,17,16,23,,30,28,17,14,7,7,0.7,0.7
2023-12-05T2200,1692A,116.1248,24.2654,梅州市,环境监控中心,,30,22,15,21,11,26,,22,22,22,21,4,4,0.7,0.7
2023-12-05T2200,3315A,116.1233,24.2991,梅州市,梅龙,,25,19,10,17,10,12,,24,21,22,16,4,4,0.8,0.7
2023-12-05T2200,1878A,104.7778,31.4741,绵阳市,富乐山,细颗粒物(PM2.5),58,59,50,41,43,32,,54,46,34,20,7,7,0.8,0.7
2023-12-05T2200,1879A,104.7563,31.4535,绵阳市,市人大,细颗粒物(PM2.5),73,76,60,53,45,6,,48,37,66,29,9,9,0.8,0.7
2023-12-05T2200,1880A,104.6697,31.4668,绵阳市,高新区自来水公司,颗粒物(PM10),72,94,64,51,40,9,,50,31,55,28,7,7,0.8,0.7
2023-12-05T2200,1881A,104.7287,31.5075,绵阳市,三水厂,细颗粒物(PM2.5),64,67,66,46,49,14,,48,38,53,34,6,5,0.7,0.7
2023-12-05T2200,3491A,104.69,31.5322,绵阳市,西科大附属小学,细颗粒物(PM2.5),83,84,58,61,44,19,,54,45,49,33,14,4,0.8,0.7
2023-12-05T2200,3492A,104.5648,31.5343,绵阳市,安州区旅游局,细颗粒物(PM2.5),114,128,62,86,49,18,,49,42,42,26,28,12,1.0,0.7
2023-12-05T2200,1784A,129.61,44.561,牡丹江市,环保大楼,细颗粒物(PM2.5),138,136,85,105,61,10,,26,12,74,59,14,12,1.7,1
2023-12-05T2200,1785A,129.6115,44.5782,牡丹江市,文化广场,细颗粒物(PM2.5),139,147,105,106,77,8,,14,9,71,67,17,15,2.5,1.6
2023-12-05T2200,1786A,129.5904,44.5963,牡丹江市,第一医院,细颗粒物(PM2.5),199,156,120,149,101,5,,20,6,81,64,14,13,3.0,1.6
2023-12-05T2200,1787A,129.6364,44.6075,牡丹江市,机车工厂,细颗粒物(PM2.5),223,227,134,173,90,13,,18,10,68,55,38,29,2.5,1.2
2023-12-05T2200,1788A,129.6386,44.5462,牡丹江市,第一中学,细颗粒物(PM2.5),120,125,81,91,59,6,,19,8,80,55,12,10,1.6,0.9
2023-12-05T2200,2531A,105.0703,29.61,内江市,市监测站,细颗粒物(PM2.5),89,72,53,66,54,21,,37,31,42,28,11,6,0.8,0.7
2023-12-05T2200,2532A,105.0717,29.5947,内江市,东兴区政府,细颗粒物(PM2.5),77,62,52,56,45,17,,37,29,44,28,13,10,0.7,0.6
2023-12-05T2200,2533A,105.0653,29.5817,内江市,内江二中,细颗粒物(PM2.5),83,66,56,61,53,9,,34,26,53,31,9,7,0.6,0.6
2023-12-05T2200,2534A,105.0406,29.5822,内江市,内江日报社,细颗粒物(PM2.5),72,70,59,52,43,6,,36,28,54,36,6,4,0.7,0.6
2023-12-05T2200,1290A,115.8931,28.6843,南昌市,省外办,细颗粒物(PM2.5),107,140,110,80,76,0,,22,14,57,47,6,14,1.4,1
2023-12-05T2200,1291A,115.8886,28.7003,南昌市,省林业公司,细颗粒物(PM2.5),94,112,88,70,67,2,,27,17,67,50,5,17,1.2,1
2023-12-05T2200,1292A,115.8126,28.7442,南昌市,林科所,细颗粒物(PM2.5),94,100,84,70,59,3,,32,22,59,49,7,13,1.1,0.9
2023-12-05T2200,1294A,115.8518,28.687,南昌市,建工学校,细颗粒物(PM2.5),114,141,93,86,62,2,,27,18,67,54,7,18,1.4,1
2023-12-05T2200,1295A,115.8921,28.6424,南昌市,象湖,细颗粒物(PM2.5),118,129,83,89,69,1,,23,14,57,47,8,13,2.5,1
2023-12-05T2200,1296A,115.7423,28.7996,南昌市,武术学校,颗粒物(PM10),61,72,48,41,38,4,,34,13,30,21,3,4,0.7,0.6
2023-12-05T2200,1298A,115.9314,28.6842,南昌市,省站,细颗粒物(PM2.5),108,140,115,81,73,3,,25,18,50,40,5,14,1.3,0.9
2023-12-05T2200,3046A,115.9084,28.6062,南昌市,机电学校,细颗粒物(PM2.5),104,135,94,78,66,8,,27,20,54,43,6,6,0.7,0.5
2023-12-05T2200,3690A,115.9721,28.7031,南昌市,外国语学校,细颗粒物(PM2.5),84,96,109,62,70,10,,28,25,49,43,6,13,0.9,1
2023-12-05T2200,1905A,106.056,30.8064,南充市,西山风景区,,42,31,39,29,35,69,,72,72,9,22,3,3,0.2,0.5
2023-12-05T2200,1906A,106.0789,30.8023,南充市,南充市委,颗粒物(PM10),63,75,61,43,44,19,,48,44,41,27,3,4,0.7,0.7
2023-12-05T2200,1907A,106.1031,30.8217,南充市,南充炼油厂,细颗粒物(PM2.5),67,64,58,48,41,12,,54,47,54,25,5,5,0.9,0.7
2023-12-05T2200,1908A,106.1064,30.7856,南充市,高坪区监测站,颗粒物(PM10),52,54,52,34,37,27,,56,53,41,24,5,6,0.6,0.5
2023-12-05T2200,1909A,106.0642,30.7636,南充市,嘉陵区环保局,细颗粒物(PM2.5),58,54,52,41,37,4,,47,41,61,29,4,4,0.6,0.5
2023-12-05T2200,1910A,106.1087,30.8388,南充市,市环境监测站,细颗粒物(PM2.5),67,73,58,48,43,33,,60,56,30,19,8,6,0.6,0.6
2023-12-05T2200,1151A,118.8086,32.1065,南京市,迈皋桥,"颗粒物(PM10),细颗粒物(PM2.5)",70,89,109,51,69,23,,78,60,84,71,7,11,0.9,1.3
2023-12-05T2200,1152A,118.7538,32.0551,南京市,草场门,细颗粒物(PM2.5),77,85,99,56,61,31,,78,63,86,77,9,13,0.7,1
2023-12-05T2200,1153A,118.7794,32.0745,南京市,山西路,细颗粒物(PM2.5),85,90,108,63,75,49,,86,75,61,64,12,16,1.1,1.4
2023-12-05T2200,1154A,118.7752,32.0023,南京市,中华门,细颗粒物(PM2.5),73,75,99,53,66,27,,72,60,76,67,7,13,1.1,1.5
2023-12-05T2200,1155A,118.8109,32.0309,南京市,瑞金路,细颗粒物(PM2.5),89,107,124,66,75,8,,63,40,123,79,6,22,1.6,1.5
2023-12-05T2200,1156A,118.7997,32.0754,南京市,玄武湖,细颗粒物(PM2.5),79,89,107,58,73,17,,72,57,83,66,11,15,0.8,1.5
2023-12-05T2200,1157A,118.6414,32.0931,南京市,浦口,细颗粒物(PM2.5),89,110,122,66,71,25,,92,78,79,56,7,9,0.7,0.8
2023-12-05T2200,1158A,118.7356,31.9996,南京市,奥体中心,细颗粒物(PM2.5),79,97,114,58,69,33,,78,60,79,75,11,15,0.6,1.1
2023-12-05T2200,1159A,118.9125,32.1028,南京市,仙林大学城,细颗粒物(PM2.5),77,90,102,56,74,23,,79,59,93,75,9,13,1.1,1.6
2023-12-05T2200,3422A,118.8436,31.9198,南京市,江宁彩虹桥,细颗粒物(PM2.5),83,114,127,61,70,8,,78,51,114,81,9,10,1.3,1.3
2023-12-05T2200,3423A,119.0138,31.6494,南京市,溧水永阳,细颗粒物(PM2.5),122,117,103,92,87,3,,81,47,75,44,4,4,1.5,1.3
2023-12-05T2200,3424A,118.879,31.3302,南京市,高淳老职中,,,,84,,64,72,,107,96,39,37,10,8,0.7,0.7
2023-12-05T2200,3427A,118.8554,32.3578,南京市,六合雄州,细颗粒物(PM2.5),80,86,95,59,63,4,,101,71,109,51,13,17,1.1,1.1
2023-12-05T2200,1401A,108.3103,22.7881,南宁市,二十一中,细颗粒物(PM2.5),53,46,39,37,23,45,,56,55,24,27,7,9,1.0,0.9
2023-12-05T2200,1402A,108.3141,22.8528,南宁市,北湖,细颗粒物(PM2.5),69,59,38,50,29,33,,51,47,27,21,6,8,1.0,0.9
2023-12-05T2200,1403A,108.3206,22.8225,南宁市,市监测站,细颗粒物(PM2.5),62,57,36,44,22,33,,50,46,37,32,7,9,1.1,1
2023-12-05T2200,1404A,108.3829,22.8037,南宁市,大自然花园,细颗粒物(PM2.5),69,53,31,50,22,30,,53,51,36,26,7,8,0.8,0.6
2023-12-05T2200,1405A,108.4394,22.7904,南宁市,仙葫,细颗粒物(PM2.5),57,50,33,40,21,39,,62,59,28,25,6,7,0.9,0.7
2023-12-05T2200,1406A,108.2397,22.8467,南宁市,区农职院,细颗粒物(PM2.5),59,63,39,42,18,31,,40,40,41,32,8,10,0.8,0.7
2023-12-05T2200,1407A,108.3275,22.735,南宁市,英华嘉园,细颗粒物(PM2.5),60,47,35,43,23,35,,46,44,31,31,8,8,0.8,0.7
2023-12-05T2200,1408A,108.2257,22.7757,南宁市,沙井镇街道办,细颗粒物(PM2.5),64,50,50,46,27,27,,32,30,44,36,9,14,0.8,0.7
2023-12-05T2200,3401A,108.4834,22.7618,南宁市,红星社区,细颗粒物(PM2.5),68,61,32,49,22,42,,61,58,24,26,8,9,1.0,0.8
2023-12-05T2200,2331A,118.0966,26.6761,南平市,茫荡山,,,,,,,,,,,,,,,,
2023-12-05T2200,2332A,118.1681,26.6369,南平市,南平市监测站,,20,20,15,14,13,3,,58,37,29,17,4,4,1.0,0.9
2023-12-05T2200,2333A,118.1825,26.6489,南平市,南平铝业有限公司,,23,,19,16,14,4,,57,33,27,17,6,5,0.8,0.8
2023-12-05T2200,2334A,118.1756,26.6272,南平市,南平七中,,14,14,17,8,15,10,,56,38,22,16,4,6,0.8,0.8
2023-12-05T2200,1168A,120.9098,31.9663,南通市,狼山街道,细颗粒物(PM2.5),112,94,101,84,87,12,,59,45,92,76,8,12,1.3,1.5
2023-12-05T2200,1169A,120.86,32.0005,南通市,虹桥,细颗粒物(PM2.5),128,132,131,97,97,24,,52,42,105,96,11,13,1.1,1.3
2023-12-05T2200,1170A,120.87,32.02,南通市,城中,细颗粒物(PM2.5),114,111,110,86,86,13,,60,45,115,86,11,14,0.8,1
2023-12-05T2200,1171A,120.94,31.93,南通市,星湖花园,细颗粒物(PM2.5),119,120,123,90,90,0,,54,40,121,88,8,13,1.1,1.3
2023-12-05T2200,1172A,120.81,32.0417,南通市,紫琅学院,细颗粒物(PM2.5),103,122,117,77,79,2,,52,29,124,89,10,11,0.7,0.8
2023-12-05T2200,3291A,121.067,32.062,南通市,通州监测站,细颗粒物(PM2.5),138,144,128,105,91,9,,73,50,122,80,10,13,1.0,1.2
2023-12-05T2200,3432A,120.9348,31.9883,南通市,环境教育馆,细颗粒物(PM2.5),117,97,108,88,86,8,,53,33,96,81,11,13,1.0,1.3
2023-12-05T2200,2404A,112.5224,33.0122,南阳市,瓦房庄,细颗粒物(PM2.5),127,116,98,96,88,0,,41,18,63,41,9,9,1.2,0.8
2023-12-05T2200,2405A,112.5003,32.9735,南阳市,汉画馆,细颗粒物(PM2.5),127,127,107,96,84,3,,45,20,60,40,7,7,1.2,0.9
2023-12-05T2200,2406A,112.5573,33.027,南阳市,气象站,细颗粒物(PM2.5),117,118,101,88,82,5,,48,23,64,42,11,7,1.1,0.8
2023-12-05T2200,2407A,112.5481,32.9689,南阳市,理工学院,细颗粒物(PM2.5),118,125,102,89,84,3,,50,28,68,39,8,9,0.9,0.6
2023-12-05T2200,4008A,112.5234,32.9922,南阳市,卧龙区政府,细颗粒物(PM2.5),127,117,101,96,85,2,,44,19,64,42,8,8,1.1,0.7
2023-12-05T2200,1234A,121.8358,29.911,宁波市,区环保大楼,细颗粒物(PM2.5),83,100,84,61,57,13,,75,54,73,57,5,6,0.9,1.1
2023-12-05T2200,1235A,121.56,29.82,宁波市,万里学院,颗粒物(PM10),76,102,71,45,39,2,,80,45,88,57,6,6,1.0,0.8
2023-12-05T2200,1236A,121.713,29.9572,宁波市,龙赛医院,颗粒物(PM10),79,107,64,48,36,4,,83,59,112,59,9,7,0.9,0.7
2023-12-05T2200,1239A,121.633,29.7733,宁波市,钱湖水厂,细颗粒物(PM2.5),69,78,62,50,45,46,,76,66,36,42,6,7,0.8,0.8
2023-12-05T2200,1240A,121.5856,29.8635,宁波市,太古小学,颗粒物(PM10),84,117,73,48,37,3,,83,51,109,55,13,9,1.6,1
2023-12-05T2200,1241A,121.524,29.8674,宁波市,市环境监测中心,细颗粒物(PM2.5),80,103,60,59,42,3,,74,46,99,51,10,9,1.6,1.1
2023-12-05T2200,2871A,121.6147,29.9017,宁波市,万里国际学校,细颗粒物(PM2.5),115,112,74,87,60,10,,80,52,105,57,8,7,1.1,0.8
2023-12-05T2200,3710A,121.5594,29.8975,宁波市,白沙活动中心,颗粒物(PM10),68,86,51,48,37,2,,72,38,100,56,7,7,1.4,0.8
2023-12-05T2200,2339A,119.5001,26.6946,宁德市,金涵水库,,,,,,,,,,,,,,,,
2023-12-05T2200,2341A,119.5388,26.6612,宁德市,宁德市监测站,,,35,19,,18,26,,58,54,34,23,4,5,0.8,0.7
2023-12-05T2200,3209A,119.5231,26.6562,宁德市,宁德一中,,22,16,17,15,16,42,,57,56,12,16,6,6,0.8,0.8
2023-12-05T2200,2618A,98.8601,25.8567,怒江州,州监测站,颗粒物(PM10),55,60,34,37,21,10,,58,47,43,20,8,8,0.8,0.5
2023-12-05T2200,2619A,98.8546,25.8417,怒江州,泸水一中,,48,46,30,33,20,10,,50,40,38,22,6,6,0.8,0.5
2023-12-05T2200,1888A,101.6891,26.571,攀枝花市,弄弄坪,颗粒物(PM10),67,83,61,36,31,11,,59,52,79,51,22,35,1.3,1.8
2023-12-05T2200,1889A,101.5769,26.5928,攀枝花市,河门口,颗粒物(PM10),51,51,48,24,25,34,,66,59,34,35,26,26,1.1,1.4
2023-12-05T2200,1890A,101.7169,26.585,攀枝花市,炳草岗,颗粒物(PM10),72,93,65,38,26,6,,65,46,85,54,23,23,2.0,1.6
2023-12-05T2200,1891A,101.7369,26.5008,攀枝花市,仁和,,39,39,45,23,24,21,,65,52,38,34,9,21,0.7,1.4
2023-12-05T2200,2835A,101.7227,26.567,攀枝花市,四十中小,颗粒物(PM10),59,68,65,30,29,16,,60,48,74,58,21,24,1.5,1.9
2023-12-05T2200,1604A,122.0303,41.1489,盘锦市,开发区,细颗粒物(PM2.5),159,,108,121,111,47,,73,65,43,62,11,31,1.2,1.6
2023-12-05T2200,1605A,122.0485,41.0883,盘锦市,兴隆台,细颗粒物(PM2.5),160,,116,122,109,50,,79,68,38,51,10,17,1.1,1.5
2023-12-05T2200,1606A,121.8297,41.1028,盘锦市,新生街道,细颗粒物(PM2.5),147,146,116,112,97,40,,73,65,37,41,9,13,1.0,1.3
2023-12-05T2200,1832A,113.3257,33.742,平顶山市,新华旅馆,细颗粒物(PM2.5),105,140,119,79,79,28,,63,38,42,40,10,10,0.9,0.9
2023-12-05T2200,1833A,113.2919,33.737,平顶山市,规划设计院,细颗粒物(PM2.5),118,133,118,89,79,11,,60,32,54,42,9,9,0.9,0.8
2023-12-05T2200,1834A,113.182,33.774,平顶山市,平顶山工学院,细颗粒物(PM2.5),100,117,106,75,70,38,,72,55,38,26,6,7,1.0,0.9
2023-12-05T2200,3204A,113.3025,33.73,平顶山市,规划局,细颗粒物(PM2.5),119,132,115,90,79,16,,65,34,48,45,9,9,1.2,1.1
2023-12-05T2200,3594A,112.8867,33.9116,平顶山市,石龙区,颗粒物(PM10),119,187,120,35,63,82,,84,74,28,63,8,11,0.8,1
2023-12-05T2200,2656A,106.6692,35.5461,平凉市,聚贤嘉苑,颗粒物(PM10),286,410,206,58,31,87,,98,94,10,20,4,5,0.3,0.3
2023-12-05T2200,2657A,106.7021,35.5307,平凉市,博物馆,颗粒物(PM10),258,390,185,61,33,81,,94,90,11,22,15,10,0.3,0.4
2023-12-05T2200,2347A,114.0997,27.5002,萍乡市,武功山,细颗粒物(PM2.5),54,,23,38,21,12,,64,41,16,11,4,4,0.9,0.8
2023-12-05T2200,2348A,113.8385,27.6434,萍乡市,中医院,细颗粒物(PM2.5),62,69,62,44,43,33,,40,38,25,29,14,15,1.3,1.7
2023-12-05T2200,2349A,113.8493,27.6253,萍乡市,市政府车库,细颗粒物(PM2.5),64,71,61,46,43,11,,37,29,47,29,13,12,1.0,1.5
2023-12-05T2200,2350A,113.8676,27.6435,萍乡市,市环保局,颗粒物(PM10),53,55,54,36,39,22,,42,38,30,23,14,13,0.9,1.2
2023-12-05T2200,2351A,113.866,27.6198,萍乡市,安源区政府,细颗粒物(PM2.5),65,67,61,47,41,4,,40,31,50,27,22,13,1.1,0.9
2023-12-05T2200,2319A,119.0141,25.4325,莆田市,荔城区仓后路,,24,24,25,12,18,62,,76,72,16,23,6,6,0.7,0.8
2023-12-05T2200,2320A,119.0015,25.4553,莆田市,莆田市监测站,,29,29,26,12,18,50,,75,70,16,24,7,7,0.8,0.9
2023-12-05T2200,2321A,119.1119,25.4561,莆田市,涵江区六中,,27,11,22,2,12,84,,76,76,11,26,8,8,0.6,0.8
2023-12-05T2200,2322A,119.1013,25.3215,莆田市,秀屿区政府,,25,20,20,7,15,77,,83,82,13,19,8,8,0.7,0.8
2023-12-05T2200,2323A,118.981,25.4792,莆田市,东圳水库,,,,,,,,,,,,,,,,
2023-12-05T2200,2392A,115.0312,35.7636,濮阳市,环保局,细颗粒物(PM2.5),149,151,159,114,135,19,,72,59,72,71,9,10,0.8,1.1
2023-12-05T2200,2394A,115.0574,35.7609,濮阳市,油田运输公司,细颗粒物(PM2.5),138,162,183,105,132,30,,73,62,63,69,10,12,1.0,1.2
2023-12-05T2200,2395A,115.0866,35.7754,濮阳市,油田物探公司,细颗粒物(PM2.5),138,148,195,105,144,36,,71,61,59,77,8,9,0.9,1.2
2023-12-05T2200,3021A,115,35.7668,濮阳市,濮水河管理处,细颗粒物(PM2.5),152,160,168,116,136,20,,70,52,70,67,8,9,1.0,1.3
2023-12-05T2200,2601A,100.98,22.7633,普洱市,市环保局,,35,35,32,16,15,16,,48,40,13,14,5,5,0.5,0.6
2023-12-05T2200,2602A,100.9817,22.8322,普洱市,普洱第二中学,,28,28,29,18,11,16,,52,42,24,18,5,6,0.5,0.5
2023-12-05T2200,2262A,131.0518,45.8751,七台河市,新一中,细颗粒物(PM2.5),63,58,41,45,32,78,,77,76,24,19,14,12,1.1,1
2023-12-05T2200,3345A,131.0577,45.7879,七台河市,中波台,细颗粒物(PM2.5),60,57,68,43,41,78,,67,67,22,29,11,9,0.6,0.9
2023-12-05T2200,3637A,131.0176,45.7761,七台河市,人民广场,细颗粒物(PM2.5),62,68,69,44,51,78,,59,59,25,42,10,8,1.0,1.1
2023-12-05T2200,3684A,130.8781,45.8222,七台河市,新建矿广场,细颗粒物(PM2.5),62,61,71,44,51,61,,39,39,30,48,20,25,0.8,1
2023-12-05T2200,1779A,123.9305,47.3636,齐齐哈尔市,安居小区,,29,29,52,19,25,58,,56,52,8,16,7,8,0.3,0.5
2023-12-05T2200,1780A,123.9488,47.3386,齐齐哈尔市,中心广场,,44,44,59,17,17,52,,48,48,9,16,5,5,0.3,0.4
2023-12-05T2200,1781A,123.9483,47.3227,齐齐哈尔市,农牧车辆厂,,41,41,54,16,13,54,,54,,7,14,10,9,0.5,0.6
2023-12-05T2200,1783A,123.945,47.2988,齐齐哈尔市,市环境监测站,,35,35,55,13,18,55,,56,51,8,12,6,5,0.4,0.4
2023-12-05T2200,3662A,123.6333,47.2075,齐齐哈尔市,富区青少年活动中心,,37,37,68,8,14,56,,52,46,7,11,7,11,0.2,0.6
2023-12-05T2200,2591A,107.9783,26.5747,黔东南苗族侗族自治州,市环境监测站,,,,46,,34,6,,16,15,48,32,11,7,,0.8
2023-12-05T2200,2881A,107.8908,26.5311,黔东南苗族侗族自治州,凯里学院,,45,40,33,31,24,33,,35,35,18,18,6,5,0.7,0.6
2023-12-05T2200,2593A,107.5228,26.2403,黔南布依族苗族自治州,小围寨,,42,29,23,29,18,31,,39,37,8,13,4,4,0.5,0.5
2023-12-05T2200,3538A,107.5175,26.2978,黔南布依族苗族自治州,沙坝,,45,39,27,31,18,30,,34,34,14,16,6,6,0.5,0.7
2023-12-05T2200,2589A,104.9022,25.0925,黔西南布依族苗族自治州,场坝街,,38,38,31,24,19,18,,48,29,16,8,2,2,0.5,0.5
2023-12-05T2200,2590A,104.8811,25.0992,黔西南布依族苗族自治州,坪东大道,,42,,31,29,25,12,,48,22,19,10,2,3,0.6,0.5
