timepoint,stationcode,longitude,latitude,area,positionname,primarypollutant,aqi,pm10,pm10_24h,pm2_5,pm2_5_24h,o3,o3_24h,o3_8h,o3_8h_24h,no2,no2_24h,so2,so2_24h,co,co_24h
2025-06-17T1400,2566A,102.1879,31.914,阿坝藏族羌族自治州,州农科所,,26,19,24,6,9,83,,56,56,8,12,12,13,0.5,0.5
2025-06-17T1400,2568A,102.2502,31.8896,阿坝藏族羌族自治州,马师校,,32,17,21,8,18,101,,65,65,11,15,6,6,0.5,0.5
2025-06-17T1400,3994A,102.2165,31.9024,阿坝藏族羌族自治州,马尔康中学西区,,39,11,20,8,18,122,,76,76,5,9,6,5,0.3,0.3
2025-06-17T1400,2695A,80.292,41.1694,阿克苏地区,电视台,,40,26,93,20,45,127,,111,102,6,8,8,5,0.4,0.4
2025-06-17T1400,2696A,80.2613,41.1551,阿克苏地区,艺术中心,,40,32,95,28,43,120,,106,99,5,7,3,4,0.4,0.4
2025-06-17T1400,2204A,105.6467,38.8363,阿拉善盟,西城区西花园,臭氧1小时,52,30,18,24,15,161,,147,147,7,9,6,6,0.7,0.7
2025-06-17T1400,2205A,105.6985,38.8411,阿拉善盟,蒙二幼,颗粒物(PM10),52,54,25,13,8,127,,118,118,1,3,9,9,0.5,0.5
2025-06-17T1400,2206A,105.724,38.8516,阿拉善盟,环保局新楼,,48,33,19,12,8,152,,142,142,4,5,8,9,0.4,0.4
2025-06-17T1400,2708A,88.1264,47.8517,阿勒泰地区,市站,,37,22,21,3,6,118,,92,92,9,7,2,2,0.5,0.5
2025-06-17T1400,2630A,80.1161,32.5,阿里地区,阿里监测站,,38,,4,3,4,120,,120,115,4,6,3,7,0.4,0.4
2025-06-17T1400,3192A,80.0903,32.5028,阿里地区,阿里藏医院,,40,6,11,3,8,126,,125,121,1,2,7,7,0.4,0.4
2025-06-17T1400,2642A,109.0318,32.6537,安康市,香溪洞,,47,42,44,24,19,150,,103,103,6,7,6,6,0.5,0.4
2025-06-17T1400,2644A,109.0072,32.6975,安康市,汉滨区检察院,,48,48,48,24,18,147,,93,93,5,10,10,16,0.4,0.5
2025-06-17T1400,4054A,109.0325,32.6913,安康市,市邮政管理局,,47,44,48,23,20,148,,98,98,6,14,9,12,0.7,0.7
2025-06-17T1400,2291A,117.0809,30.5177,安庆市,环科院,,30,24,36,13,15,95,,84,84,3,14,3,3,0.4,0.4
2025-06-17T1400,2292A,117.0331,30.5119,安庆市,马山宾馆,,31,22,32,11,13,97,,79,79,6,18,4,5,0.4,0.4
2025-06-17T1400,2294A,116.9896,30.6145,安庆市,安庆大学,,33,25,36,16,14,104,,82,82,6,10,4,4,0.3,0.3
2025-06-17T1400,3173A,117.0598,30.5351,安庆市,市人大,,34,24,33,13,16,108,,91,91,4,11,3,5,0.4,0.4
2025-06-17T1400,3122A,105.9606,26.2611,安顺市,伍家关,,19,15,18,13,15,59,,41,41,1,4,1,1,0.2,0.3
2025-06-17T1400,3123A,105.9408,26.2431,安顺市,凤凰山,,26,,42,13,17,82,,68,67,3,6,2,3,0.4,0.4
2025-06-17T1400,3124A,105.9439,26.2564,安顺市,金钟山,,26,16,18,12,15,83,,70,69,3,5,4,4,0.3,0.3
2025-06-17T1400,3125A,105.8983,26.2481,安顺市,娄家坡,,25,16,16,14,14,78,,69,64,3,3,3,4,0.5,0.5
2025-06-17T1400,1818A,114.4839,36.0621,安阳市,棉研所,,,,,,,,,,,,,,,,
2025-06-17T1400,1819A,114.3551,36.1017,安阳市,红庙街,臭氧1小时,80,28,37,9,9,184,,147,147,2,6,3,4,0.3,0.5
2025-06-17T1400,1820A,114.361,36.0681,安阳市,银杏小区,,,39,37,23,19,184,,147,147,,11,5,7,0.2,0.3
2025-06-17T1400,3141A,114.3922,36.0878,安阳市,信访局,臭氧1小时,82,27,36,19,12,185,,137,137,1,9,3,5,0.7,0.8
2025-06-17T1400,3669A,114.4705,36.0637,安阳市,左辅环卫站,臭氧1小时,82,23,37,13,15,185,,139,139,2,21,4,5,0.7,0.8
2025-06-17T1400,3703A,114.2917,36.0949,安阳市,安钢职工学校,臭氧1小时,74,27,43,15,15,179,,134,134,1,15,5,6,0.2,0.3
2025-06-17T1400,1748A,123.044,41.1196,鞍山市,深沟寺,,49,30,29,18,17,154,,106,,12,17,11,9,0.8,0.9
2025-06-17T1400,1749A,123.011,41.0931,鞍山市,太阳城,,49,23,32,14,17,156,,120,120,10,15,12,11,0.8,1
2025-06-17T1400,1750A,123.0485,41.1442,鞍山市,太平,,47,33,36,17,19,149,,118,118,13,16,11,10,0.8,1
2025-06-17T1400,1751A,122.9642,41.0971,鞍山市,铁西三道街,,48,33,34,18,17,151,,117,117,14,21,12,10,1.0,1.1
2025-06-17T1400,1753A,123.022,41.0821,鞍山市,明达新区,,45,25,30,16,14,142,,112,112,10,14,11,10,0.8,0.9
2025-06-17T1400,1754A,123.1289,41.0228,鞍山市,千山,,,,,,,,,,,,,,,,
2025-06-17T1400,4201A,122.9446,41.0826,鞍山市,兴盛南路290号,,47,31,37,18,18,148,,115,115,16,21,10,8,0.7,0.8
2025-06-17T1400,2195A,107.4212,40.761,巴彦淖尔市,附二中,臭氧1小时,55,31,26,13,14,164,,106,106,8,15,11,11,0.5,0.4
2025-06-17T1400,2196A,107.37,40.7372,巴彦淖尔市,市环保大楼,臭氧1小时,65,40,28,8,12,172,,121,121,8,15,9,8,0.5,0.5
2025-06-17T1400,1956A,86.1472,41.7538,巴音郭楞蒙古自治州,孔雀公园,颗粒物(PM10),54,57,68,22,25,104,,109,104,7,19,8,8,0.2,0.3
2025-06-17T1400,1957A,86.1972,41.7166,巴音郭楞蒙古自治州,棉纺厂,颗粒物(PM10),64,78,96,22,18,109,,106,100,7,19,4,4,0.2,0.3
2025-06-17T1400,1958A,86.2357,41.7173,巴音郭楞蒙古自治州,经济开发区,,40,40,82,12,19,111,,106,104,4,11,9,10,0.3,0.3
2025-06-17T1400,2914A,106.7677,31.8794,巴中市,苏山坪,,45,33,37,24,20,143,,156,144,5,7,5,5,0.4,0.4
2025-06-17T1400,3181A,106.7768,31.8526,巴中市,市五中,,45,34,42,18,21,144,,112,112,8,17,8,8,0.6,0.6
2025-06-17T1400,3183A,106.7418,31.8654,巴中市,圣泉水务公司,,45,32,38,22,21,144,,120,120,5,22,6,6,0.5,0.5
2025-06-17T1400,3616A,106.7616,31.8344,巴中市,市中心医院,,43,35,41,22,24,137,,104,104,6,21,7,7,0.4,0.5
2025-06-17T1400,2235A,122.7911,45.6077,白城市,洮北区环保局,,28,12,21,6,11,89,,72,72,5,9,4,4,0.2,0.3
2025-06-17T1400,2236A,122.8738,45.5725,白城市,市环保局,,28,9,16,3,11,89,,68,68,1,11,4,5,0.3,0.4
2025-06-17T1400,2231A,126.4219,41.9171,白山市,喜丰,,32,20,21,9,10,102,,101,101,10,12,8,6,0.8,0.9
2025-06-17T1400,2232A,126.4077,41.9419,白山市,环保局,,32,14,22,10,9,102,,99,99,12,11,2,2,0.7,0.8
2025-06-17T1400,2647A,104.1724,36.5446,白银市,第三小学,,,,51,26,22,143,,103,103,11,25,96,115,,0.7
2025-06-17T1400,2648A,104.1465,36.5482,白银市,动力公司,,50,50,42,23,19,150,,95,95,13,21,141,62,0.5,0.4
2025-06-17T1400,2512A,106.6103,23.9011,百色市,市监测站,,38,35,36,26,20,92,,49,49,8,14,8,13,0.5,0.6
2025-06-17T1400,2513A,106.6538,23.8859,百色市,市中心血站,,38,31,32,26,18,84,,49,49,8,11,4,7,0.7,0.7
2025-06-17T1400,3406A,106.6085,23.8798,百色市,祈福高中,,47,47,42,32,23,90,,41,41,8,19,9,14,0.6,0.7
2025-06-17T1400,2270A,117.396,32.939,蚌埠市,工人疗养院,臭氧1小时,64,54,64,13,19,171,,146,146,2,13,4,6,0.4,0.5
2025-06-17T1400,2271A,117.3605,32.9427,蚌埠市,百货大楼,臭氧1小时,68,50,63,12,19,174,,145,145,6,16,6,7,0.4,0.5
2025-06-17T1400,2273A,117.4185,32.8911,蚌埠市,蚌埠学院,臭氧1小时,60,48,60,19,23,168,,134,134,2,16,4,6,0.4,0.5
2025-06-17T1400,2274A,117.3533,32.9673,蚌埠市,淮上区政府,臭氧1小时,74,44,63,21,22,179,,146,146,6,20,6,7,0.5,0.5
2025-06-17T1400,2275A,117.3145,32.8977,蚌埠市,高新区,臭氧1小时,69,48,68,16,24,175,,143,143,7,24,6,8,0.5,0.5
2025-06-17T1400,3715A,117.3092,32.9314,蚌埠市,蚌埠田家炳中学,臭氧1小时,80,59,70,22,25,184,,142,142,10,22,9,10,0.4,0.4
2025-06-17T1400,1585A,109.8756,40.6532,包头市,市环境监测站,臭氧1小时,74,28,29,9,13,179,,105,105,10,36,12,10,0.4,0.5
2025-06-17T1400,1587A,109.9991,40.5842,包头市,包头八中,臭氧1小时,68,38,40,15,17,174,,99,99,11,34,14,14,0.5,0.6
2025-06-17T1400,1588A,109.8538,40.6821,包头市,青山宾馆,臭氧1小时,77,21,29,13,14,181,,104,104,10,33,11,10,0.5,0.5
2025-06-17T1400,1589A,109.8642,40.6288,包头市,惠龙物流,臭氧1小时,77,33,30,14,15,181,,114,114,10,28,10,11,0.3,0.4
2025-06-17T1400,1590A,110.0377,40.5546,包头市,东河鸿龙湾,臭氧1小时,70,35,38,3,12,176,,94,94,14,35,10,10,0.5,0.5
2025-06-17T1400,3283A,109.9154,40.5685,包头市,滨河大厦,臭氧1小时,79,41,31,17,16,183,,112,112,12,30,12,11,0.5,0.6
2025-06-17T1400,3419A,109.9447,40.6261,包头市,包头市委党校,臭氧1小时,74,28,28,11,12,179,,111,111,10,26,14,12,0.4,0.4
2025-06-17T1400,3683A,109.8331,40.6576,包头市,昆区政府,臭氧1小时,78,30,31,17,16,182,,107,107,12,38,10,10,0.4,0.6
2025-06-17T1400,1930A,107.185,34.3063,宝鸡市,庙沟村,臭氧1小时,85,51,32,25,12,188,,134,134,12,12,8,6,0.4,0.3
2025-06-17T1400,1931A,107.0708,34.3017,宝鸡市,竹园沟,臭氧1小时,92,54,34,25,16,193,,122,122,12,15,10,6,0.4,0.3
2025-06-17T1400,1932A,107.1906,34.3672,宝鸡市,三陆医院,,,62,42,,20,185,,117,117,14,27,8,8,0.4,0.3
2025-06-17T1400,1933A,107.1431,34.3547,宝鸡市,监测站,臭氧1小时,87,61,42,26,20,189,,118,118,14,16,10,7,0.3,0.3
2025-06-17T1400,1934A,107.1186,34.3739,宝鸡市,技工学校,臭氧1小时,95,65,41,32,21,196,,126,126,11,11,10,8,0.5,0.4
2025-06-17T1400,1935A,107.3906,34.3528,宝鸡市,陈仓区环保局家属楼,臭氧1小时,93,62,46,27,20,194,,125,125,12,26,10,16,0.4,0.4
2025-06-17T1400,1936A,107.2058,34.3497,宝鸡市,文理学院,臭氧1小时,89,57,40,23,19,191,,125,125,12,15,8,6,0.5,0.4
2025-06-17T1400,1937A,107.2386,34.3622,宝鸡市,三迪小学,臭氧1小时,87,70,45,31,22,189,,117,117,13,21,8,7,0.5,0.5
2025-06-17T1400,1051A,115.493,38.8632,保定市,游泳馆,臭氧1小时,82,49,47,11,19,185,,101,101,7,30,4,5,0.1,0.1
2025-06-17T1400,1052A,115.5213,38.8959,保定市,华电二区,臭氧1小时,97,29,45,16,19,197,,96,96,9,27,4,2,0.3,0.3
2025-06-17T1400,1053A,115.4713,38.9108,保定市,接待中心,臭氧1小时,97,45,46,14,19,197,,100,100,7,24,2,2,0.4,0.4
2025-06-17T1400,1054A,115.4612,38.8416,保定市,地表水厂,臭氧1小时,85,60,59,11,18,188,,103,103,10,38,1,2,0.2,0.3
2025-06-17T1400,3581A,115.31981,38.95208,保定市,满城区生态环境分局,臭氧1小时,117,70,57,17,17,234,,107,107,12,25,7,6,0.3,0.3
2025-06-17T1400,3582A,115.47694,38.76408,保定市,清苑区第二中学,臭氧1小时,92,42,71,18,25,193,,106,106,2,29,3,3,0.3,0.3
2025-06-17T1400,3583A,115.62909,39.02311,保定市,徐水物探局,臭氧1小时,95,61,64,12,10,196,,101,101,2,19,2,2,0.1,0.1
2025-06-17T1400,4004A,115.4202,38.8656,保定市,双鹰农机,臭氧1小时,98,42,44,22,18,198,,111,111,11,30,4,3,0.2,0.2
2025-06-17T1400,4034A,115.5150,38.8590,保定市,植保所站,臭氧1小时,95,49,58,12,20,196,,98,98,3,25,3,3,0.3,0.3
2025-06-17T1400,2594A,99.1678,25.1081,保山市,市环境监测站,,18,,12,12,13,51,,41,41,4,6,8,7,0.3,0.4
2025-06-17T1400,2595A,99.1711,25.1328,保山市,市环保局,,17,13,15,6,9,54,,42,42,3,5,7,6,0.4,0.5
2025-06-17T1400,1866A,109.2262,21.588,北海市,牛尾岭水库,,25,14,18,3,9,78,,60,60,3,4,2,3,0.5,0.6
2025-06-17T1400,1867A,109.1436,21.4086,北海市,海滩公园,,18,17,34,3,6,56,,48,47,4,5,2,2,0.6,0.6
2025-06-17T1400,1868A,109.0981,21.4661,北海市,新市环保局,,19,18,17,12,11,60,,55,50,8,8,2,3,0.4,0.4
2025-06-17T1400,1869A,109.1778,21.5233,北海市,北海工业园,,23,23,24,7,10,52,,40,40,5,10,2,3,0.6,0.6
2025-06-17T1400,3400A,109.1911,21.4415,北海市,龙潭自来水厂,,21,21,18,9,12,58,,52,48,4,5,3,6,0.4,0.5
2025-06-17T1400,1001A,116.3621,39.8784,北京市,万寿西宫,臭氧1小时,102,26,27,19,17,204,,116,116,11,23,4,3,0.2,0.2
2025-06-17T1400,1002A,116.2202,40.2915,北京市,定陵,,,,,,,,,,,,,,,,
2025-06-17T1400,1003A,116.4174,39.9289,北京市,东四,臭氧1小时,105,33,28,15,14,209,,115,115,17,24,3,2,0.4,0.4
2025-06-17T1400,1004A,116.4072,39.8863,北京市,天坛,臭氧1小时,101,32,26,13,15,201,,107,107,9,19,4,2,0.4,0.4
2025-06-17T1400,1005A,116.462,39.9365,北京市,农展馆,臭氧1小时,80,32,27,17,14,184,,97,97,11,22,5,4,0.5,0.6
2025-06-17T1400,1006A,116.3392,39.9295,北京市,官园,臭氧1小时,84,31,32,15,19,187,,108,108,14,24,3,2,0.4,0.4
2025-06-17T1400,1007A,116.2878,39.9611,北京市,海淀万柳,臭氧1小时,75,35,33,18,16,180,,93,93,12,28,4,3,0.3,0.2
2025-06-17T1400,1008A,116.6636,40.135,北京市,顺义新城,臭氧1小时,72,32,26,18,13,177,,91,91,9,16,3,2,0.4,0.4
2025-06-17T1400,1009A,116.6275,40.3275,北京市,怀柔镇,,46,46,24,15,14,145,,85,85,8,10,2,1,0.4,0.4
2025-06-17T1400,1010A,116.2296,40.217,北京市,昌平镇,,50,24,20,12,12,159,,90,90,9,14,5,4,0.3,0.3
2025-06-17T1400,1011A,116.3966,39.9821,北京市,奥体中心,,50,31,27,17,14,159,,92,92,12,23,4,3,0.6,0.5
2025-06-17T1400,3281A,115.9718,40.4529,北京市,延庆夏都,,48,17,20,14,14,153,,81,81,7,16,6,4,0.3,0.3
2025-06-17T1400,3418A,116.8336,40.4095,北京市,密云新城,,45,23,21,18,13,143,,82,82,10,7,2,1,0.3,0.3
2025-06-17T1400,3671A,116.088,39.9726,北京市,门头沟三家店,臭氧1小时,78,25,19,13,16,182,,96,96,13,11,3,2,0.5,0.4
2025-06-17T1400,3672A,116.1541,39.8204,北京市,丰台云岗,臭氧1小时,79,30,29,24,16,183,,95,95,8,22,3,3,0.4,0.3
2025-06-17T1400,3673A,116.6804,39.9081,北京市,通州东关,臭氧1小时,80,32,39,16,17,184,,97,97,7,25,2,1,0.3,0.3
2025-06-17T1400,3674A,115.9577,39.7603,北京市,房山燕山,臭氧1小时,64,43,25,20,16,171,,101,101,11,13,3,2,0.4,0.4
2025-06-17T1400,3675A,116.4672,39.7733,北京市,大兴旧宫,臭氧1小时,74,27,30,17,16,179,,95,95,9,25,2,2,0.4,0.5
2025-06-17T1400,3694A,115.986,40.4563,北京市,延庆石河营,,45,24,20,12,13,141,,75,75,5,12,3,2,0.4,0.3
2025-06-17T1400,3695A,116.6151,40.3053,北京市,怀柔新城,,45,21,20,16,15,141,,84,84,7,7,2,2,0.3,0.3
2025-06-17T1400,3696A,116.2545,39.8768,北京市,丰台小屯,臭氧1小时,77,38,31,21,15,181,,93,93,10,25,2,2,0.5,0.4
2025-06-17T1400,3697A,116.84,40.3844,北京市,密云镇,,43,34,19,26,14,137,,82,82,5,14,6,6,0.4,0.4
2025-06-17T1400,4182A,116.1942,39.9158,北京市,八角北路9号,臭氧1小时,87,31,30,17,17,189,,95,95,11,30,3,2,0.3,0.3
2025-06-17T1400,4194A,117.0790,40.1518,北京市,洳河巡河路,臭氧1小时,53,32,27,15,13,162,,97,97,7,11,5,2,0.6,0.5
2025-06-17T1400,1761A,123.8275,41.3064,本溪市,大峪,,39,16,18,11,11,124,,89,89,8,14,7,6,0.7,0.3
2025-06-17T1400,1762A,123.7567,41.3325,本溪市,溪湖,,43,26,28,10,16,135,,87,87,10,23,10,8,1.0,1.5
2025-06-17T1400,1763A,123.7169,41.3094,本溪市,彩屯,,42,19,26,10,16,132,,88,88,14,20,12,10,1.0,1.1
2025-06-17T1400,1764A,123.7669,41.2864,本溪市,东明,,41,24,26,13,11,129,,97,97,6,18,6,6,0.7,1
2025-06-17T1400,1765A,123.7992,41.2664,本溪市,新立屯,,38,19,21,8,10,119,,96,96,7,16,5,5,0.6,0.6
2025-06-17T1400,1766A,123.8142,41.3472,本溪市,威宁,,41,34,35,16,17,129,,88,88,17,22,9,6,1.2,0.7
2025-06-17T1400,2587A,105.2864,27.3125,毕节市,八中,,,27,36,24,27,97,,64,64,6,12,,6,,0.5
2025-06-17T1400,2588A,105.31,27.2944,毕节市,师专,,32,31,46,18,27,100,,64,64,8,17,3,4,0.5,0.5
2025-06-17T1400,4263A,105.3688,27.3598,毕节市,工业大道,,33,27,40,18,27,105,,70,70,9,21,7,8,0.8,0.8
2025-06-17T1400,1629A,118.0018,37.3617,滨州市,第二水厂,臭氧1小时,55,22,42,17,16,164,,129,129,2,17,6,6,0.3,0.4
2025-06-17T1400,1630A,117.9776,37.393,滨州市,北中新校,臭氧1小时,65,27,34,9,12,172,,132,132,2,15,12,12,0.3,0.3
2025-06-17T1400,3514A,117.9378,37.3956,滨州市,中海酒店,臭氧1小时,73,29,42,17,19,178,,143,143,5,21,8,13,0.6,0.7
2025-06-17T1400,3515A,117.9378,37.3553,滨州市,开发区一中,细颗粒物(PM2.5),55,,47,39,16,159,,136,136,7,24,10,13,0.3,0.5
2025-06-17T1400,3516A,118.0917,37.694,滨州市,金海六路,臭氧1小时,92,34,35,12,10,193,,138,138,10,30,10,10,0.1,0.2
2025-06-17T1400,4028A,117.9956,37.3753,滨州市,滨州市西街道办事处,臭氧1小时,64,24,37,9,15,171,,138,138,6,13,6,7,0.4,0.4
2025-06-17T1400,2311A,115.8072,33.8399,亳州市,污水处理厂,臭氧1小时,77,52,47,11,14,181,,147,147,5,11,4,6,0.4,0.4
2025-06-17T1400,2312A,115.7789,33.8518,亳州市,三国揽胜宫,臭氧1小时,78,62,48,19,14,182,,151,151,14,13,3,4,0.3,0.3
2025-06-17T1400,3332A,115.7633,33.8034,亳州市,亳州学院,臭氧1小时,88,45,42,18,18,190,,152,152,12,17,4,4,0.1,0.2
2025-06-17T1400,2693A,82.0485,44.8556,博尔塔拉蒙古自治州,市党校,,41,18,17,14,7,130,,90,90,6,6,3,2,0,0
2025-06-17T1400,2694A,82.0806,44.8969,博尔塔拉蒙古自治州,市环保局,,43,33,25,8,9,136,,93,93,11,6,78,5,1.7,0.5
2025-06-17T1400,1071A,116.8842,38.2991,沧州市,沧县城建局,,,,33,,14,,,96,,,26,,3,,0.4
2025-06-17T1400,1072A,116.8584,38.3254,沧州市,电视转播站,臭氧1小时,103,41,38,19,16,205,,122,122,10,19,8,4,0.3,0.4
2025-06-17T1400,1073A,116.8709,38.3228,沧州市,市环保局,臭氧1小时,102,49,48,21,19,204,,123,123,11,24,2,3,0.3,0.3
2025-06-17T1400,3324A,116.8136,38.3004,沧州市,河北水利电力学院,臭氧1小时,111,51,42,10,17,222,,137,137,9,28,4,5,0.3,0.3
2025-06-17T1400,2622A,97.1806,31.1273,昌都市,昌都监测站,,26,8,8,3,6,83,,57,57,2,4,6,5,0.4,0.3
2025-06-17T1400,3719A,97.1714,31.1406,昌都市,昌都会议中心,,,10,16,,9,84,,60,60,5,5,,4,,0.1
2025-06-17T1400,2690A,88.1236,43.8886,昌吉回族自治州,天山天池,,39,13,21,7,6,124,,88,88,5,6,5,5,0.6,0.6
2025-06-17T1400,2692A,87.2717,44.0297,昌吉回族自治州,新区政务中心,,45,26,23,16,8,142,,100,97,4,6,11,8,0.4,0.3
2025-06-17T1400,3613A,87.3095,44.0142,昌吉回族自治州,亚心广场,,41,19,31,3,4,130,,91,91,6,10,10,9,0.2,0.2
2025-06-17T1400,1120A,125.2863,43.9027,长春市,客车厂,,31,19,25,13,16,98,,64,64,17,37,5,5,0.3,0.4
2025-06-17T1400,1121A,125.2841,43.8463,长春市,邮电学院,,32,18,21,11,11,100,,71,71,9,30,6,7,0.4,0.5
2025-06-17T1400,1122A,125.3716,43.8772,长春市,劳动公园,,,,24,18,16,106,,70,70,13,27,,7,,0.7
2025-06-17T1400,1123A,125.3297,43.8805,长春市,园林处,,33,19,24,9,13,105,,64,64,9,30,5,6,0.5,0.6
2025-06-17T1400,1124A,125.4605,43.79,长春市,净月潭,,35,15,23,6,10,109,,73,73,8,18,6,6,0.3,0.4
2025-06-17T1400,1125A,125.7194,43.515,长春市,甩湾子,,,,,,,,,,,,,,,,
2025-06-17T1400,1126A,125.3863,43.8447,长春市,经开区环卫处,,35,20,32,8,12,109,,70,70,9,28,5,6,0.2,0.3
2025-06-17T1400,1127A,125.245,43.7783,长春市,高新区管委会,,38,16,23,8,18,121,,78,78,8,31,3,4,0.3,0.4
2025-06-17T1400,1128A,125.1761,43.8325,长春市,岱山公园,,39,,27,17,17,122,,80,80,9,49,3,4,0.2,0.3
2025-06-17T1400,4281A,125.3346,43.9164,长春市,北亚泰大街1068号,,30,15,25,11,15,95,,68,68,16,33,4,5,0.4,0.5
2025-06-17T1400,1335A,113.0833,28.2325,长沙市,经开区环保局,,28,18,25,6,12,87,,,,5,8,4,4,0.3,0.3
2025-06-17T1400,1336A,112.8872,28.2189,长沙市,高开区环保局,,32,18,26,8,9,102,,70,70,3,7,1,3,0.6,0.8
2025-06-17T1400,1337A,113.0792,28.2053,长沙市,马坡岭,,29,14,21,6,11,92,,70,70,6,11,4,5,0.5,0.5
2025-06-17T1400,1338A,112.9394,28.19,长沙市,湖南师范大学,,31,21,23,6,10,97,,74,74,2,7,2,3,0.3,0.4
2025-06-17T1400,1339A,113.0178,28.1322,长沙市,雨花区环保局,,30,16,22,3,8,93,,69,69,2,5,4,5,0.4,0.5
2025-06-17T1400,1340A,112.9792,28.2597,长沙市,伍家岭,,30,19,22,9,11,94,,72,72,3,6,2,3,0.5,0.5
2025-06-17T1400,1341A,113.0014,28.1944,长沙市,火车新站,,27,21,23,3,7,86,,66,66,3,6,7,8,0.4,0.5
2025-06-17T1400,1342A,112.9844,28.1178,长沙市,天心区环保局,,30,15,18,3,8,95,,74,74,4,7,1,2,0.5,0.5
2025-06-17T1400,1343A,112.8908,28.1308,长沙市,湖南中医药大学,,33,20,29,9,12,104,,74,74,1,8,3,5,0.4,0.6
2025-06-17T1400,1344A,112.9581,28.3611,长沙市,沙坪,,32,13,18,9,10,101,,73,73,6,10,3,4,0.4,0.5
2025-06-17T1400,1727A,113.1147,36.1547,长治市,清华站,臭氧1小时,77,34,37,9,12,181,,132,132,7,25,6,6,0.4,0.7
2025-06-17T1400,1730A,113.0886,36.2125,长治市,审计局,臭氧1小时,65,14,26,3,12,172,,106,106,7,23,9,9,0.3,0.6
2025-06-17T1400,1731A,113.0844,36.1856,长治市,长治八中,臭氧1小时,70,22,37,14,17,176,,121,121,4,19,10,10,0.5,0.7
2025-06-17T1400,2845A,113.1569,36.1911,长治市,德盛苑,臭氧1小时,65,26,27,9,11,172,,125,125,6,14,8,14,0.5,0.8
2025-06-17T1400,3568A,113.06,36.0464,长治市,向阳小学,臭氧1小时,84,34,50,7,13,187,,146,146,7,16,6,7,0.4,0.6
2025-06-17T1400,3569A,112.8792,36.3144,长治市,屯留一中,臭氧1小时,68,,21,16,19,174,,108,108,8,26,5,6,0.4,0.4
2025-06-17T1400,4189A,113.1131,36.19948,长治市,英华南巷50号,臭氧1小时,63,18,31,7,12,170,,117,117,6,19,7,8,0.4,0.7
2025-06-17T1400,4190A,113.2367,36.3344,长治市,学府街1号,臭氧1小时,78,29,56,18,20,182,,124,124,6,55,7,10,0.4,0.6
2025-06-17T1400,1854A,111.6975,28.9703,常德市,市二中,,28,23,27,13,18,88,,74,74,6,9,5,6,0.6,0.6
2025-06-17T1400,1857A,111.7158,29.1456,常德市,白鹤山,,,,,,,,,,,,,,,,
2025-06-17T1400,3138A,111.7153,29.0289,常德市,武陵区永安,,30,22,32,14,20,94,,77,77,2,11,4,5,0.5,0.5
2025-06-17T1400,3139A,111.6892,28.9881,常德市,鼎城区玉霞,,31,17,30,14,18,97,,78,78,2,8,4,6,0.4,0.5
2025-06-17T1400,3140A,111.6625,29.0531,常德市,武陵区长庚,,30,20,30,13,17,95,,83,83,2,6,3,4,0.4,0.5
2025-06-17T1400,1196A,119.9633,31.762,常州市,市监测站,臭氧1小时,75,43,40,18,18,180,,127,127,3,11,8,10,0.4,0.4
2025-06-17T1400,1200A,119.9468,31.7069,常州市,武进监测站,臭氧1小时,62,44,41,16,15,169,,122,122,13,15,12,14,0.7,0.8
2025-06-17T1400,1201A,119.9255,31.9087,常州市,安家,臭氧1小时,58,37,46,17,18,166,,122,122,10,18,9,11,0.4,0.5
2025-06-17T1400,3002A,119.9805,31.8174,常州市,行政中心,臭氧1小时,70,23,30,15,16,176,,123,123,8,10,10,10,0.2,0.2
2025-06-17T1400,3003A,120.0522,31.7748,常州市,经开区,臭氧1小时,84,55,59,15,15,187,,134,134,10,12,7,7,0.2,0.2
2025-06-17T1400,3010A,119.9025,31.7964,常州市,钟楼,臭氧1小时,53,46,43,18,16,162,,118,118,9,14,6,7,0.4,0.4
2025-06-17T1400,3429A,119.8598,31.7066,常州市,武进经发区,颗粒物(PM10),51,51,49,21,18,160,,114,114,6,10,7,7,0.9,0.9
2025-06-17T1400,3430A,119.5826,31.7245,常州市,金坛城区,,49,39,41,18,18,156,,119,119,8,10,7,7,0.4,0.4
2025-06-17T1400,2220A,120.4318,41.5881,朝阳市,西梁,,39,23,22,8,14,123,,74,74,8,14,11,10,0.5,0.6
2025-06-17T1400,2221A,120.4521,41.5646,朝阳市,河畔小区,,40,33,21,7,10,125,,84,84,7,12,8,7,0.5,0.5
2025-06-17T1400,2222A,120.4176,41.5648,朝阳市,八里堡,,41,32,24,8,13,130,,83,83,10,17,7,6,0.5,0.6
2025-06-17T1400,2223A,120.3806,41.5969,朝阳市,农业园区,,38,15,17,12,15,119,,74,74,8,13,5,4,0.4,0.6
2025-06-17T1400,1705A,116.6367,23.6719,潮州市,西园路,,8,,8,3,5,21,,16,16,4,8,2,2,0.6,0.7
2025-06-17T1400,3026A,116.6183,23.6608,潮州市,市政府,,25,25,12,7,6,23,,18,18,5,8,3,3,0.4,0.6
2025-06-17T1400,4036A,116.6461,23.6761,潮州市,金山,,12,,9,8,8,20,,17,17,1,5,6,6,0.4,0.5
2025-06-17T1400,2472A,113.0073,25.9061,郴州市,马头岭,,16,6,7,3,7,51,,39,39,4,7,6,7,0.4,0.4
2025-06-17T1400,2473A,113.0116,25.8226,郴州市,市职中,,19,6,8,3,6,58,,46,46,4,5,1,1,0.2,0.2
2025-06-17T1400,2475A,113.0383,25.8071,郴州市,市审计局,,17,,8,3,5,53,,39,39,3,5,3,3,0.4,0.4
2025-06-17T1400,2476A,113.0348,25.7759,郴州市,市环保局,,19,6,10,3,1,59,,52,52,6,6,2,3,0.1,0.1
2025-06-17T1400,4252A,113.0138,25.8011,郴州市,好美居路49号,,22,22,9,11,5,62,,52,52,3,4,4,3,0.5,0.5
2025-06-17T1400,1431A,103.9728,30.7236,成都市,金泉两河,臭氧1小时,142,64,58,16,30,284,,167,167,16,30,5,5,0.6,0.8
2025-06-17T1400,1432A,104.176,30.6872,成都市,十里店,臭氧1小时,107,40,52,3,28,214,,145,145,8,26,8,7,0.5,0.6
2025-06-17T1400,1433A,104.079,30.5706,成都市,三瓦窑,臭氧1小时,112,47,55,25,30,224,,124,124,21,55,8,5,0.7,0.7
2025-06-17T1400,1434A,104.1114,30.63,成都市,沙河铺,臭氧1小时,98,42,53,21,29,198,,124,124,9,25,7,5,0.6,0.7
2025-06-17T1400,1437A,104.0786,30.6531,成都市,君平街,臭氧1小时,126,52,61,25,33,252,,146,146,15,31,8,7,0.7,0.8
2025-06-17T1400,1438A,103.613,31.0283,成都市,灵岩寺,,,,,,,,,,,,,,,,
2025-06-17T1400,2880A,104.0239,30.65639,成都市,大石西路,臭氧1小时,137,55,60,26,36,274,,157,157,21,30,8,7,0.7,0.7
2025-06-17T1400,3136A,104.2725,30.5589,成都市,龙泉驿区区政府,臭氧1小时,109,41,31,19,16,218,,157,157,10,13,7,6,0.8,0.7
2025-06-17T1400,3357A,104.0106,30.6931,成都市,金博路,臭氧1小时,139,48,59,16,32,277,,151,151,20,41,6,11,0.8,0.8
2025-06-17T1400,3359A,104.0578,30.5225,成都市,华阳,臭氧1小时,107,41,44,29,28,214,,125,125,12,28,11,8,0.6,0.7
2025-06-17T1400,3488A,104.3853,30.7453,成都市,青白江技师分院,臭氧1小时,142,57,42,26,20,283,,186,186,17,23,10,8,0.7,0.6
2025-06-17T1400,3489A,104.0789,30.4072,成都市,科学城,臭氧1小时,109,41,42,29,25,217,,136,136,9,26,5,4,0.6,0.5
2025-06-17T1400,4011A,103.8506,30.6947,成都市,光华大道三段,臭氧1小时,135,52,53,33,30,269,,166,166,14,22,7,6,0.6,0.7
2025-06-17T1400,4224A,104.2433,30.5353,成都市,鲸龙路1057号,臭氧1小时,106,47,42,25,24,212,,145,145,11,26,11,10,0.7,0.7
2025-06-17T1400,1062A,117.9531,40.9081,承德市,铁路,,38,9,22,3,10,119,,56,56,6,12,4,4,0.3,0.4
2025-06-17T1400,1063A,117.9392,40.9763,承德市,中国银行,,38,6,25,3,7,120,,65,65,2,9,1,2,0.2,0.3
2025-06-17T1400,1064A,117.9503,40.928,承德市,开发区,,40,26,33,18,15,125,,58,58,5,10,3,5,0.3,0.5
2025-06-17T1400,1065A,117.8051,40.9655,承德市,文化中心,,37,14,36,3,15,116,,48,48,6,16,2,3,0.4,0.7
2025-06-17T1400,1066A,117.9268,41.0026,承德市,离宫,,38,,22,18,15,119,,55,55,3,7,1,2,0.2,0.2
2025-06-17T1400,2314A,117.47,30.6618,池州市,池州学院,,39,28,38,12,15,122,,94,94,4,7,6,6,0.4,0.3
2025-06-17T1400,3237A,117.4918,30.6617,池州市,展览馆,,38,24,35,10,13,120,,93,93,3,5,4,4,0.5,0.5
2025-06-17T1400,3333A,117.5627,30.695,池州市,第八中学,,40,28,36,15,14,126,,102,102,4,5,5,5,0.5,0.5
2025-06-17T1400,3334A,117.5038,30.6243,池州市,第十二中学,,37,27,35,15,15,118,,89,89,2,7,4,3,0.5,0.7
2025-06-17T1400,1744A,118.9233,42.2816,赤峰市,松山一中,,40,19,15,3,11,125,,86,86,6,23,6,6,0.4,0.6
2025-06-17T1400,1745A,118.9576,42.2728,赤峰市,哈达街,,37,,16,14,13,117,,76,76,9,18,12,12,0.4,0.5
2025-06-17T1400,1746A,118.8788,42.2554,赤峰市,天义路,,37,,15,13,12,118,,80,80,5,15,7,7,0.4,0.4
2025-06-17T1400,3058A,119.2658,42.0353,赤峰市,银河街,,37,,22,20,21,117,,77,77,3,12,8,9,0.5,0.8
2025-06-17T1400,3286A,118.9359,42.3147,赤峰市,桥北物流园区,,37,,13,21,17,116,,78,78,1,12,7,7,0.4,0.7
2025-06-17T1400,2521A,107.3476,22.4136,崇左市,市环保局江州分局,,28,28,23,7,7,87,,52,52,5,14,6,6,0.5,0.5
2025-06-17T1400,4256A,107.3750,22.3736,崇左市,石景林东路7号,,33,33,22,8,6,85,,55,55,6,15,2,2,0.4,0.4
2025-06-17T1400,2298A,118.3093,32.3153,滁州市,老年大学,臭氧1小时,54,37,40,13,19,163,,117,117,6,9,13,11,0.3,0.3
2025-06-17T1400,2299A,118.3244,32.2786,滁州市,人大宾馆,,49,32,35,17,19,156,,119,119,13,7,6,5,0.2,0.2
2025-06-17T1400,3207A,118.3118,32.3038,滁州市,市政府原办公楼,臭氧1小时,57,37,39,20,23,165,,119,119,2,5,5,4,0.3,0.4
2025-06-17T1400,3331A,118.3267,32.2634,滁州市,图书馆,,50,40,38,18,20,157,,118,118,1,3,9,8,0.4,0.4
2025-06-17T1400,2605A,101.5482,25.0441,楚雄彝族自治州,州环境监测站,,13,11,8,3,6,41,,41,41,4,8,10,10,0.5,0.5
2025-06-17T1400,2606A,101.538,25.0492,楚雄彝族自治州,市经济开发区,,13,10,12,3,7,39,,38,38,4,9,6,6,0.5,0.6
2025-06-17T1400,2548A,107.5277,31.2827,达州市,达州职业技术学院,,38,33,51,9,18,121,,89,89,3,27,7,8,0.5,0.2
2025-06-17T1400,2549A,107.5086,31.2186,达州市,市环境监测站,,41,31,52,12,17,130,,93,93,14,35,6,8,0.4,0.5
2025-06-17T1400,2550A,107.4988,31.2132,达州市,凤凰小区,,45,24,47,12,20,143,,105,105,9,31,10,10,0.3,0.4
2025-06-17T1400,2551A,107.5082,31.1986,达州市,达县机关宾馆,,44,31,53,3,13,138,,103,103,12,38,8,8,0.5,0.6
2025-06-17T1400,2552A,107.4644,31.2124,达州市,市政中心,,37,37,55,9,17,117,,84,84,8,34,4,5,0.5,0.6
2025-06-17T1400,2614A,100.1542,25.7054,大理白族自治州,大理市环境监测站,,16,,8,8,11,49,,46,42,4,5,5,6,0.4,0.4
2025-06-17T1400,2615A,100.2171,25.5811,大理白族自治州,大理古城,,24,12,15,3,6,74,,47,47,4,8,8,8,0.6,0.6
2025-06-17T1400,1109A,121.612,38.9741,大连市,甘井子,臭氧1小时,59,30,31,9,16,167,,116,116,23,22,10,6,0.6,0.4
2025-06-17T1400,1110A,121.565,38.9511,大连市,周水子,臭氧1小时,73,22,21,8,13,178,,122,122,9,14,19,11,0.7,0.4
2025-06-17T1400,1111A,121.5637,38.8845,大连市,星海三站,,43,33,30,16,14,135,,101,101,15,10,8,5,0.4,0.4
2025-06-17T1400,1112A,121.6302,38.9117,大连市,青泥洼桥,,45,15,24,8,12,144,,109,109,17,13,11,8,0.8,0.7
2025-06-17T1400,1113A,121.6251,38.8638,大连市,傅家庄,,40,19,17,13,12,126,,105,105,23,13,11,9,0.3,0.2
2025-06-17T1400,1114A,121.5213,38.8661,大连市,七贤岭,,36,36,26,16,15,83,,72,72,24,14,12,10,0.4,0.6
2025-06-17T1400,1115A,121.2529,38.8061,大连市,旅顺,,42,19,17,15,13,133,,94,94,17,17,3,3,0.3,0.3
2025-06-17T1400,1116A,121.7485,39.1311,大连市,金州,臭氧1小时,93,14,31,10,19,194,,138,138,12,19,18,8,1.0,0.4
2025-06-17T1400,1117A,121.7811,39.0496,大连市,开发区,,46,26,29,7,14,146,,112,112,19,24,3,3,0.6,0.5
2025-06-17T1400,1118A,121.9762,39.0631,大连市,双D港,,39,22,22,11,16,124,,101,101,10,17,10,9,0.6,0.5
2025-06-17T1400,1789A,124.81117,46.03138,大庆市,大同区,,,,21,,6,,,51,,,9,,6,,0.4
2025-06-17T1400,1790A,125.129,46.533,大庆市,龙凤区,,29,24,25,12,17,90,,67,67,7,13,5,4,0.2,0.3
2025-06-17T1400,1791A,124.902,46.408,大庆市,红岗区,,32,,21,22,18,95,,70,70,1,7,7,7,0.2,0.5
2025-06-17T1400,1792A,125.153,46.586,大庆市,萨尔图区,,24,22,22,9,9,76,,57,57,8,14,8,8,0.3,0.4
2025-06-17T1400,1793A,124.9042,46.6215,大庆市,让胡路区,,30,19,23,10,19,95,,68,68,4,8,4,4,0.2,0.3
2025-06-17T1400,3481A,125.141,46.634,大庆市,萨区政府监测点,,29,22,21,3,4,90,,69,69,2,7,5,6,0.2,0.4
2025-06-17T1400,1721A,113.3819,40.1097,大同市,果树场,,,,,,,,,,,,,,,,
2025-06-17T1400,1723A,113.2994,40.0758,大同市,云冈宾馆,颗粒物(PM10),59,68,46,20,18,148,,90,90,16,21,12,7,0.5,1
2025-06-17T1400,1724A,113.3444,40.0917,大同市,大同大学,,50,44,36,22,17,158,,99,99,17,22,15,12,0.4,0.5
2025-06-17T1400,1725A,113.2661,40.1269,大同市,安家小村,颗粒物(PM10),55,59,35,18,11,159,,102,102,17,18,14,9,0.6,1.7
2025-06-17T1400,1726A,113.2711,40.0844,大同市,教育学院,颗粒物(PM10),53,55,43,20,20,154,,95,95,18,24,15,10,0.4,1.1
2025-06-17T1400,3282A,113.3397,40.0597,大同市,大同市卫生学校,,47,47,37,16,19,146,,94,94,16,22,17,11,0.5,0.7
2025-06-17T1400,3565A,113.1367,40.1122,大同市,云冈站,颗粒物(PM10),64,77,42,27,20,142,,103,103,16,18,8,6,0.7,0.7
2025-06-17T1400,3566A,113.1186,40.2556,大同市,图书馆,,47,29,28,11,17,148,,102,102,5,10,7,7,0.7,0.7
2025-06-17T1400,3567A,113.5931,40.0461,大同市,区一中,臭氧1小时,58,43,37,12,18,166,,116,116,11,15,20,15,0.4,0.5
2025-06-17T1400,4199A,113.2798,40.0997,大同市,魏都大道141号,,,67,47,26,21,158,,95,95,15,24,,9,0.5,1.5
2025-06-17T1400,2269A,124.1069,50.4097,大兴安岭地区,科技局,,23,22,29,10,14,73,,64,64,1,2,6,7,0,0
2025-06-17T1400,3663A,124.1164,50.4278,大兴安岭地区,红旗社区,,23,12,13,3,3,72,,64,64,1,2,4,5,0.1,0.1
2025-06-17T1400,1600A,124.3303,40.0625,丹东市,江湾东路,臭氧1小时,52,22,16,20,12,161,,130,130,11,16,7,5,0.6,0.6
2025-06-17T1400,1601A,124.4256,40.1503,丹东市,临江后街,,49,25,19,10,10,155,,127,127,7,14,8,8,0.7,0.7
2025-06-17T1400,1602A,124.3933,40.1461,丹东市,元宝山,,43,23,19,11,10,136,,113,113,8,12,8,7,0.6,0.5
2025-06-17T1400,1603A,124.3633,40.1092,丹东市,民主桥,,49,22,19,15,9,154,,128,128,3,11,8,8,0.6,0.6
2025-06-17T1400,3541A,109.5726,19.5167,儋州市,第一中学子站,,13,7,15,7,8,39,,35,35,2,4,6,7,0.4,0.4
2025-06-17T1400,3542A,109.5567,19.5187,儋州市,东坡学校子站,,14,8,13,3,3,42,,38,38,1,2,5,6,0.5,0.5
2025-06-17T1400,2616A,98.5842,24.428,德宏傣族景颇族自治州,德宏州监测站,,20,13,14,9,7,61,,38,38,5,7,7,8,0.5,0.5
2025-06-17T1400,3677A,98.5881,24.4368,德宏傣族景颇族自治州,芒市人民政府综合楼,,18,12,20,3,5,55,,34,34,4,6,7,8,0.4,0.4
2025-06-17T1400,1901A,104.4239,31.1208,德阳市,东山公园,臭氧1小时,103,41,48,26,28,205,,142,142,11,14,9,8,0.9,0.8
2025-06-17T1400,1902A,104.3826,31.1317,德阳市,西小区,臭氧1小时,109,55,59,32,33,218,,152,152,15,26,9,8,0.7,0.7
2025-06-17T1400,1904A,104.3553,31.1091,德阳市,耐火材料厂,臭氧1小时,126,52,62,31,33,252,,168,168,14,29,9,10,0.6,0.6
2025-06-17T1400,3639A,104.4019,31.1244,德阳市,市教育局,臭氧1小时,115,41,48,29,27,229,,160,160,7,20,9,8,0.9,0.9
2025-06-17T1400,1622A,116.3032,37.4674,德州市,儿童乐园,臭氧1小时,70,22,43,12,12,176,,146,146,1,15,8,8,0.4,0.4
2025-06-17T1400,1624A,116.2991,37.4451,德州市,监理站,臭氧1小时,68,17,37,7,10,174,,141,141,4,20,8,8,0.3,0.3
2025-06-17T1400,3066A,116.2721,37.4379,德州市,九衢泉纯净水厂,臭氧1小时,52,24,42,12,14,161,,126,126,4,35,6,8,0.4,0.5
2025-06-17T1400,3371A,116.3728,37.4403,德州市,开发区人民医院,臭氧1小时,53,17,38,7,10,162,,135,135,6,24,7,8,0.5,0.6
2025-06-17T1400,3372A,116.3572,37.4094,德州市,太阳城中学,,,,45,,16,,,,,,70,,6,,0.4
2025-06-17T1400,3511A,116.5652,37.3319,德州市,陵城艺术中心,臭氧1小时,53,17,44,3,10,162,,133,133,3,19,5,8,0.5,0.5
2025-06-17T1400,2621A,99.7056,27.8317,迪庆藏族自治州,迪庆州站,,18,14,15,12,11,52,,62,59,4,7,7,6,0.6,0.6
2025-06-17T1400,3180A,99.7136,27.8094,迪庆藏族自治州,质量技术监督局,,,,13,,8,50,,61,56,9,9,7,6,0.4,0.5
2025-06-17T1400,4257A,104.6092,35.5962,定西市,将台街,,50,44,46,17,20,160,,109,109,6,20,6,5,0.1,0.1
2025-06-17T1400,4309A,104.6159,35.5701,定西市,正龙路62号,,50,35,39,18,20,158,,125,125,3,6,5,5,0.3,0.3
2025-06-17T1400,1389A,113.7547,23.0494,东莞市,莞城梨川,,21,21,11,13,7,37,,33,33,24,17,6,6,0.4,0.4
2025-06-17T1400,1390A,113.7944,23.0128,东莞市,东城石井,,,20,13,,6,26,,23,23,28,22,1,1,0.5,0.7
2025-06-17T1400,1391A,113.7383,22.9658,东莞市,南城西平,,12,12,12,8,5,24,,33,30,22,24,3,3,0.5,0.5
2025-06-17T1400,3319A,113.7338,23.0381,东莞市,万江金泰,,15,15,10,8,5,21,,22,22,22,16,2,2,0.6,0.6
2025-06-17T1400,3626A,113.7533,23.0202,东莞市,南城元岭,,16,16,9,11,6,27,,28,28,25,20,4,4,0.6,0.6
2025-06-17T1400,3627A,113.7875,23.0457,东莞市,东城主山,,18,18,11,12,6,35,,22,,25,19,5,6,0.7,0.7
2025-06-17T1400,1666A,118.6614,37.4309,东营市,市环保局,臭氧1小时,97,41,36,9,12,197,,151,151,15,24,7,9,0.4,0.4
2025-06-17T1400,3036A,118.6904,37.4338,东营市,开发区管委会,臭氧1小时,99,46,42,7,11,199,,148,148,12,25,7,9,0.4,0.4
2025-06-17T1400,3365A,118.5719,37.565,东营市,垦利区民丰路,臭氧1小时,84,36,39,9,12,187,,148,148,12,25,10,11,0.6,0.6
2025-06-17T1400,3498A,118.5055,37.8612,东营市,河口城区,臭氧1小时,108,36,30,15,10,216,,130,130,17,23,11,11,0.4,0.6
2025-06-17T1400,3646A,118.4978,37.4623,东营市,胜利站,臭氧1小时,70,52,40,9,11,176,,134,134,16,26,9,10,0.6,0.6
2025-06-17T1400,3734A,118.35,37.26,东营市,理想之城,臭氧1小时,89,39,37,9,14,191,,145,145,9,23,8,8,0.5,0.6
2025-06-17T1400,1591A,110.0023,39.8129,鄂尔多斯市,综合楼,,47,22,30,12,14,149,,122,122,9,24,4,5,0.4,0.6
2025-06-17T1400,1592A,109.9486,39.8261,鄂尔多斯市,巴音孟克林场办事处,臭氧1小时,54,31,37,7,14,163,,142,142,8,24,6,7,0.3,0.4
2025-06-17T1400,1593A,109.7736,39.5986,鄂尔多斯市,康泽苑,臭氧1小时,58,34,33,27,10,166,,122,122,6,16,6,6,0.2,0.3
2025-06-17T1400,1594A,109.8119,39.5989,鄂尔多斯市,华泰汽车城,,48,29,32,9,12,153,,105,105,8,29,4,5,0.4,0.5
2025-06-17T1400,1595A,109.9734,39.7884,鄂尔多斯市,奥林花园,臭氧1小时,53,31,44,12,17,162,,128,128,7,31,6,7,0.3,0.5
2025-06-17T1400,2436A,114.8938,30.3994,鄂州市,市政府,,45,41,46,16,19,143,,106,106,6,11,6,7,0.6,1.2
2025-06-17T1400,2437A,114.8989,30.3714,鄂州市,赵家坝,,46,40,42,6,12,147,,109,109,2,8,9,9,0.9,0.9
2025-06-17T1400,3654A,114.8094,30.4089,鄂州市,精准医疗中心,,39,30,38,13,15,122,,96,96,2,11,3,9,0.9,1.6
2025-06-17T1400,2454A,109.4978,30.2981,恩施土家族苗族自治州,湖北民院,,45,32,37,27,22,142,,100,100,4,11,5,5,0.5,0.4
2025-06-17T1400,2455A,109.4707,30.2798,恩施土家族苗族自治州,州电力总公司,,40,22,37,18,20,128,,77,77,2,21,8,8,0.5,0.4
2025-06-17T1400,3549A,109.5061,30.3772,恩施土家族苗族自治州,龙凤新区,,45,32,32,31,22,134,,108,108,4,7,7,24,0.3,0.3
2025-06-17T1400,2499A,108.3411,21.6158,防城港市,沙万,,36,36,32,8,8,43,,45,38,9,14,1,1,1.0,0.4
2025-06-17T1400,2500A,108.3514,21.7731,防城港市,防城档案局,,15,,22,3,10,45,,40,40,4,7,2,2,0.5,0.6
2025-06-17T1400,2501A,108.3506,21.6414,防城港市,大海花园,,26,26,27,8,9,49,,52,44,7,12,2,3,0.5,0.5
2025-06-17T1400,1371A,113.1294,23.0067,佛山市,湾梁,,17,12,12,6,7,25,,20,20,33,31,8,8,0.8,0.8
2025-06-17T1400,1372A,113.1083,23.0478,佛山市,华材职中,,14,14,8,6,7,33,,28,28,19,24,6,6,0.5,0.6
2025-06-17T1400,1373A,113.144,23.0453,佛山市,南海气象局,,26,26,12,8,8,27,,19,19,26,28,3,3,0.6,0.6
2025-06-17T1400,1374A,113.2881,22.8094,佛山市,顺德苏岗,,17,10,17,7,6,53,,29,29,10,23,6,7,0.4,0.4
2025-06-17T1400,1376A,112.8383,22.8678,佛山市,高明孔堂,,13,8,18,6,9,41,,35,35,5,22,5,5,0.4,0.5
2025-06-17T1400,1377A,112.8836,23.1588,佛山市,三水监测站,,18,12,10,12,13,39,,22,22,26,32,2,3,0.6,0.6
2025-06-17T1400,1378A,112.867,23.185,佛山市,三水云东海,,29,29,30,10,9,36,,24,24,25,32,1,2,0.6,0.6
2025-06-17T1400,3625A,113.2544,22.7642,佛山市,容桂街道办,,14,7,7,3,8,44,,35,35,16,27,5,5,0.7,0.7
2025-06-17T1400,1280A,119.3903,26.0543,福州市,鼓山,,,,,,,,,,,,,,,,
2025-06-17T1400,1282A,119.2681,26.0504,福州市,师大,,26,18,32,3,9,81,,52,52,4,10,4,4,0.2,0.3
2025-06-17T1400,1283A,119.2984,26.1028,福州市,五四北路,,27,13,33,9,10,85,,52,52,7,14,4,4,0.5,0.5
2025-06-17T1400,1284A,119.2648,26.0768,福州市,杨桥西路,,28,16,30,11,12,88,,54,54,6,13,4,4,0.3,0.4
2025-06-17T1400,1285A,119.317,26.0746,福州市,紫阳,,24,20,40,8,13,76,,46,46,10,22,6,6,0.3,0.4
2025-06-17T1400,3048A,119.5799,26.0936,福州市,九龙,,29,10,31,6,13,90,,61,61,8,14,4,4,0.3,0.3
2025-06-17T1400,3526A,119.5189,25.9664,福州市,吴航,,23,12,32,6,17,72,,50,50,6,15,5,5,0.3,0.5
2025-06-17T1400,1755A,123.7977,41.8491,抚顺市,望花区,臭氧1小时,60,35,30,17,20,168,,119,119,13,25,4,3,0.5,0.5
2025-06-17T1400,1756A,123.9161,41.8822,抚顺市,顺城区,,50,38,33,15,18,159,,110,110,13,22,9,10,0.6,0.9
2025-06-17T1400,1757A,124.0436,41.8611,抚顺市,东洲区,,47,44,29,13,17,150,,107,107,10,19,8,10,0.5,0.7
2025-06-17T1400,1758A,123.9247,41.8642,抚顺市,新抚区,,49,32,32,13,15,156,,108,108,3,14,8,9,0.6,0.9
2025-06-17T1400,1759A,124.0972,41.8961,抚顺市,大伙房水库,,45,29,25,16,17,142,,104,104,9,15,9,11,0.5,0.6
2025-06-17T1400,1760A,123.7086,41.8391,抚顺市,沈抚新城,臭氧1小时,57,31,32,18,19,165,,113,113,14,25,9,8,0.7,0.7
2025-06-17T1400,2376A,116.2127,28.0814,抚州市,桐源党溪,,24,24,29,3,10,58,,65,63,3,3,4,4,0.3,0.4
2025-06-17T1400,2377A,116.3544,27.9831,抚州市,市站,,24,15,26,3,11,74,,67,67,2,5,1,2,0.3,0.7
2025-06-17T1400,2378A,116.3565,27.963,抚州市,血防站,,22,10,26,3,11,69,,64,64,2,5,2,3,0.3,0.4
2025-06-17T1400,2379A,116.3564,28.0007,抚州市,采茶剧团,,25,13,25,3,8,78,,69,69,2,3,3,4,0.4,0.4
2025-06-17T1400,2380A,116.385,27.9647,抚州市,医学分院,,25,6,28,3,9,77,,68,68,2,3,4,5,0.4,0.6
2025-06-17T1400,2207A,121.6094,41.998,阜新市,工业园区,,32,13,21,7,12,100,,79,79,7,16,6,15,0.3,0.5
2025-06-17T1400,2208A,121.6697,42.0279,阜新市,长青街,,31,12,16,3,7,98,,77,77,5,12,5,15,0.3,0.5
2025-06-17T1400,2209A,121.6673,42.0705,阜新市,农业园区,,29,14,15,3,6,92,,72,72,8,13,2,7,0.4,0.5
2025-06-17T1400,2210A,121.6717,42.0224,阜新市,东苑,,32,22,23,3,12,102,,78,78,6,14,4,20,0.4,0.6
2025-06-17T1400,2211A,121.6506,42.0498,阜新市,玉龙新城,,31,15,18,3,7,97,,71,71,5,15,5,9,0.4,0.6
2025-06-17T1400,2301A,115.8277,32.8929,阜阳市,市监测站,,45,45,63,22,28,144,,115,115,6,25,3,3,0.3,0.5
2025-06-17T1400,2303A,115.8554,32.8605,阜阳市,开发区,,46,39,61,13,20,146,,123,123,6,24,7,7,0.2,0.3
2025-06-17T1400,2875A,115.784,32.8892,阜阳市,阜阳职业技术学院,,49,43,51,17,18,154,,138,138,5,18,5,5,0.4,0.4
2025-06-17T1400,3468A,115.7901,32.8613,阜阳市,市规划展馆,,45,45,66,18,25,144,,117,117,5,19,3,4,0.2,0.2
2025-06-17T1400,3469A,115.836,32.9183,阜阳市,枣园社区,,46,38,56,23,26,146,,114,114,8,22,5,4,0.3,0.4
2025-06-17T1400,2669A,102.9099,34.9841,甘南藏族自治州,州政府,,36,33,53,19,22,113,,69,69,6,26,6,6,0.3,0.4
2025-06-17T1400,3380A,102.8914,34.9617,甘南藏族自治州,甘肃民族师范学院,,49,49,65,15,20,120,,73,73,2,23,9,9,0.4,0.4
2025-06-17T1400,2570A,101.9603,30.0475,甘孜藏族自治州,水桥子,,38,28,28,10,14,121,,67,67,6,23,6,5,0.3,0.3
2025-06-17T1400,3065A,101.9533,29.9972,甘孜藏族自治州,州环保局,,40,23,34,14,11,126,,82,82,8,24,2,2,0.3,0.3
2025-06-17T1400,3414A,115.8347,28.932,赣江新区,桑海产业园,,41,19,31,6,11,129,,93,93,8,14,8,8,0.4,0.4
2025-06-17T1400,2362A,114.9017,25.9149,赣州市,通天岩,,15,6,12,3,3,48,,45,41,4,4,1,2,0.1,0.1
2025-06-17T1400,2363A,114.9367,25.8664,赣州市,地委,,15,12,18,8,9,48,,35,35,5,10,3,2,0.5,0.6
2025-06-17T1400,2364A,114.9461,25.8481,赣州市,气象台,,16,13,19,3,6,49,,35,34,4,9,7,7,0.3,0.4
2025-06-17T1400,2365A,114.9322,25.8333,赣州市,市图书馆,,16,11,11,3,7,49,,46,39,3,6,4,4,0.3,0.3
2025-06-17T1400,2366A,114.8905,25.8471,赣州市,华坚鞋城,,17,11,17,3,7,54,,41,41,4,8,4,3,0.2,0.2
2025-06-17T1400,3109A,115.0093,25.8613,赣州市,赣县区卫计委,,14,6,16,3,7,42,,29,29,4,12,2,2,0.1,0.2
2025-06-17T1400,2683A,106.2319,36.1417,固原市,马园,颗粒物(PM10),51,52,45,16,15,148,,110,110,18,31,6,6,0.6,0.5
2025-06-17T1400,2684A,106.2792,36.0022,固原市,监测站,臭氧1小时,52,33,34,16,16,161,,127,127,6,12,6,5,0.3,0.3
2025-06-17T1400,2685A,106.2375,36.0211,固原市,新区,,47,47,35,16,14,149,,115,115,7,11,3,3,0.3,0.2
2025-06-17T1400,3522A,106.2177,35.9959,固原市,原州区十五小,,50,47,38,20,16,160,,127,127,6,8,8,7,0.3,0.1
2025-06-17T1400,2543A,106.6308,30.5278,广安市,小平旧居,,,,,,,,,,,,,,,,
2025-06-17T1400,2544A,106.6303,30.4576,广安市,市委,,45,22,38,15,21,141,,106,106,12,30,9,7,0.4,0.5
2025-06-17T1400,2545A,106.6271,30.4663,广安市,友谊中学,,,18,33,15,17,153,,114,114,,20,7,7,0.8,0.9
2025-06-17T1400,2547A,106.6388,30.4551,广安市,广电花园,,46,24,40,9,20,145,,104,104,6,24,10,9,0.5,0.6
2025-06-17T1400,2902A,106.6351,30.4865,广安市,北辰小学,,48,29,38,14,19,152,,117,117,6,17,9,8,0.6,0.7
2025-06-17T1400,2523A,105.8945,32.4535,广元市,黑石坡,,,44,43,3,15,155,,127,127,,10,9,8,0.4,0.4
2025-06-17T1400,2524A,105.821,32.4444,广元市,老城,臭氧1小时,80,28,34,6,15,184,,125,125,12,33,27,16,0.6,0.6
2025-06-17T1400,2526A,105.8628,32.4287,广元市,监测站,臭氧1小时,72,,28,23,18,177,,134,134,8,15,6,7,0.4,0.5
2025-06-17T1400,3617A,105.8047,32.4166,广元市,经开区,臭氧1小时,83,44,54,26,29,186,,121,121,9,27,10,12,0.5,0.5
2025-06-17T1400,1345A,113.2347,23.1423,广州市,广雅中学,,18,18,13,11,8,39,,31,31,23,26,2,2,0.5,0.5
2025-06-17T1400,1346A,113.2612,23.105,广州市,市五中,,21,21,16,13,10,34,,28,28,15,19,3,3,0.7,0.7
2025-06-17T1400,1348A,113.3478,23.0916,广州市,广东商学院,,13,12,12,3,5,41,,31,31,19,27,2,3,0.6,0.6
2025-06-17T1400,1349A,113.4332,23.1047,广州市,市八十六中,,14,12,18,3,8,21,,22,22,28,28,3,3,0.3,0.4
2025-06-17T1400,1350A,113.3505,22.9483,广州市,番禺中学,,14,12,13,3,7,42,,32,32,14,25,6,6,0.5,0.5
2025-06-17T1400,1351A,113.2146,23.3916,广州市,花都师范,,13,13,12,8,7,28,,21,21,25,30,3,4,0.7,0.8
2025-06-17T1400,1352A,113.2597,23.1331,广州市,市监测站,,14,14,12,9,7,38,,32,32,18,27,5,5,0.4,0.4
2025-06-17T1400,1353A,113.5618,23.312,广州市,九龙镇镇龙,,17,17,11,9,5,28,,20,20,22,18,6,5,0.4,0.4
2025-06-17T1400,1354A,113.2765,23.1544,广州市,麓湖,,17,17,12,8,5,29,,25,25,16,23,2,2,0.7,0.7
2025-06-17T1400,1355A,113.443,23.3035,广州市,帽峰山森林公园,,14,6,3,3,5,42,,36,36,22,14,5,5,0.4,0.4
2025-06-17T1400,2846A,113.3221,23.1322,广州市,体育西,,16,16,12,10,7,32,,26,26,22,28,4,4,0.4,0.5
2025-06-17T1400,3298A,113.5717,23.5491,广州市,从化街口,,12,8,10,3,5,38,,24,24,15,19,7,7,0.6,0.6
2025-06-17T1400,3299A,113.3472,23.3692,广州市,白云竹料,,14,14,9,9,5,25,,23,23,21,17,3,2,0.6,0.6
2025-06-17T1400,3300A,113.2981,23.237,广州市,白云嘉禾,,15,14,10,10,6,23,,23,23,26,25,6,6,0.9,0.9
2025-06-17T1400,3301A,113.4256,23.1716,广州市,黄埔科学城,,18,18,12,10,6,21,,18,18,23,15,5,4,0.7,0.5
2025-06-17T1400,3302A,113.3942,23.0483,广州市,番禺大学城,,11,10,12,6,7,33,,32,32,18,25,3,4,0.4,0.5
2025-06-17T1400,3303A,113.4922,22.8168,广州市,南沙黄阁,,29,29,13,9,8,44,,41,41,3,20,4,4,0.5,0.6
2025-06-17T1400,3304A,113.5342,22.7896,广州市,南沙街,,13,10,13,6,7,41,,40,40,9,19,2,3,0.5,0.5
2025-06-17T1400,3443A,113.2902,23.5544,广州市,花都梯面,,12,7,9,3,4,23,,24,23,24,14,4,4,0.5,0.4
2025-06-17T1400,3445A,113.7858,23.7478,广州市,从化良口,,13,6,8,3,3,41,,32,32,6,9,6,6,0.6,0.6
2025-06-17T1400,3446A,113.8051,23.2614,广州市,增城荔城,,13,12,13,6,6,40,,25,25,12,13,5,6,0.3,0.4
2025-06-17T1400,2505A,109.568,23.1478,贵港市,德智高中,,,,,,,,,,,,,,,,
2025-06-17T1400,2506A,109.6047,23.0666,贵港市,江南子站,,17,,20,10,12,53,,30,30,2,13,4,5,0.4,0.6
2025-06-17T1400,2508A,109.5669,23.1065,贵港市,荷城子站,,15,,20,3,8,48,,30,30,6,14,4,6,0.2,0.3
2025-06-17T1400,3405A,109.5886,23.1172,贵港市,新世纪学校,,17,,14,9,11,52,,33,33,5,11,1,2,0.4,0.5
2025-06-17T1400,4260A,109.5933,23.0951,贵港市,中山路155-3号,,19,19,27,10,12,52,,29,29,6,14,3,4,0.2,0.4
2025-06-17T1400,1439A,106.6899,26.5998,贵阳市,马鞍山,,25,17,18,3,2,79,,59,59,5,7,4,4,0.3,0.3
2025-06-17T1400,1441A,106.6243,26.6266,贵阳市,鉴湖路,,24,24,26,3,11,74,,57,57,6,10,7,8,0.4,0.4
2025-06-17T1400,1442A,106.7487,26.6343,贵阳市,燕子冲,,28,22,23,19,19,89,,70,70,8,10,5,4,0.4,0.4
2025-06-17T1400,1443A,106.6555,26.4365,贵阳市,碧云窝,,25,17,23,7,9,77,,64,64,4,6,6,6,0.4,0.4
2025-06-17T1400,1445A,106.7109,26.6027,贵阳市,红边门,,,22,22,7,10,81,,66,66,10,8,,9,0.5,0.3
2025-06-17T1400,1446A,106.7164,26.5699,贵阳市,新华路,,26,12,18,9,10,82,,65,65,8,12,21,15,0.5,0.4
2025-06-17T1400,1447A,106.674,26.5424,贵阳市,太慈桥,,25,24,20,7,9,79,,62,62,9,12,6,5,0.3,0.3
2025-06-17T1400,1552A,106.805,26.3003,贵阳市,桐木岭,,27,27,28,14,17,69,,66,66,2,2,1,1,0.9,0.9
2025-06-17T1400,4230A,106.6882,26.5695,贵阳市,花果园大街66号,,26,,16,14,16,83,,66,66,6,7,4,4,0.3,0.3
2025-06-17T1400,4231A,106.6873,26.5169,贵阳市,漓江路57号,,24,19,20,7,10,75,,60,60,5,8,2,2,0.3,0.3
2025-06-17T1400,1862A,110.4144,25.3167,桂林市,电子科大尧山校区,,,,,,,,,,,,,,,,
2025-06-17T1400,1864A,110.3089,25.2708,桂林市,龙隐路小学,,16,13,13,3,7,50,,38,38,8,5,8,8,0.5,0.4
2025-06-17T1400,1865A,110.2869,25.2178,桂林市,八中,,17,17,13,3,4,48,,40,40,10,7,6,6,0.8,0.7
2025-06-17T1400,3531A,110.296,25.1253,桂林市,旅游学院,,15,6,5,3,4,47,,36,36,7,4,5,5,0.3,0.3
2025-06-17T1400,4222A,110.1835,25.2444,桂林市,环湖路276号,,14,7,9,3,5,44,,42,40,6,4,5,5,0.3,0.3
2025-06-17T1400,4301A,110.2803,25.2773,桂林市,信义路13号,,16,8,11,3,4,51,,40,38,5,6,1,1,0.5,0.5
2025-06-17T1400,2674A,100.2561,34.4714,果洛藏族自治州,玛沁县大武镇,,39,26,37,7,15,123,,84,84,1,7,18,17,0.4,0.4
2025-06-17T1400,1129A,126.5422,45.755,哈尔滨市,岭北,,30,6,13,3,11,93,,88,82,6,11,9,9,0.7,0.8
2025-06-17T1400,1130A,126.561,45.8167,哈尔滨市,松北商大,,23,9,20,3,10,72,,60,60,5,10,6,6,0.4,0.6
2025-06-17T1400,1131A,126.979,45.5419,哈尔滨市,阿城会宁,,27,7,20,3,13,86,,81,80,9,18,7,8,0.3,0.4
2025-06-17T1400,1132A,126.599,45.7222,哈尔滨市,南岗学府路,,25,18,25,3,9,77,,80,67,4,10,6,6,0.3,0.4
2025-06-17T1400,1133A,126.689,45.7733,哈尔滨市,太平宏伟公园,,25,19,20,3,12,78,,73,67,4,8,5,5,0.2,0.4
2025-06-17T1400,1134A,126.635,45.7667,哈尔滨市,道外承德广场,,33,33,40,6,10,73,,70,64,8,10,6,6,0.1,0.4
2025-06-17T1400,1135A,126.685,45.7319,哈尔滨市,香坊红旗大街,,25,14,30,3,15,80,,83,71,8,13,8,8,0.5,0.7
2025-06-17T1400,1136A,126.6411,45.7258,哈尔滨市,动力和平路,,,9,24,3,9,77,,87,67,,14,8,8,0.4,0.5
2025-06-17T1400,1137A,126.593,45.7478,哈尔滨市,道里建国路,,25,17,20,7,10,80,,82,70,5,10,8,7,0.3,0.6
2025-06-17T1400,1138A,126.615,45.61,哈尔滨市,平房东轻厂,,25,14,20,7,10,77,,76,69,7,17,8,9,0.2,0.4
2025-06-17T1400,1139A,126.595,45.9855,哈尔滨市,呼兰师专,,23,12,16,3,8,71,,65,59,6,11,8,9,0.2,0.4
2025-06-17T1400,1140A,126.6206,45.6842,哈尔滨市,省农科院,,,30,34,3,19,64,,73,61,,17,6,6,0.5,0.6
2025-06-17T1400,2688A,93.5128,42.8172,哈密市,地区监测站,,39,35,38,12,17,124,,96,96,6,12,22,10,0.1,0.1
2025-06-17T1400,2689A,93.4961,42.8328,哈密市,哈密师范学校,,40,15,38,9,15,125,,88,87,8,15,6,5,0.3,0.3
2025-06-17T1400,2671A,100.9048,36.9639,海北藏族自治州,海晏县西海镇,,50,30,32,15,16,158,,119,119,3,8,14,10,0.5,0.5
2025-06-17T1400,3867A,102.0738,36.5056,海东市,平安区公安北苑,颗粒物(PM10),58,66,37,26,18,143,,104,104,8,7,17,12,0.7,0.6
2025-06-17T1400,1409A,110.576,19.9507,海口市,东寨港,,16,16,19,8,10,47,,40,40,2,3,12,10,0.4,0.4
2025-06-17T1400,1410A,110.3232,20.0574,海口市,海南大学,,17,16,24,8,12,52,,44,44,2,7,3,3,0.3,0.3
2025-06-17T1400,1411A,110.283,20.0053,海口市,秀英海南医院,,25,25,23,8,13,50,,39,39,4,7,4,4,0.3,0.3
2025-06-17T1400,1412A,110.338,19.9969,海口市,海南师范大学,,17,17,24,8,12,51,,41,41,2,5,3,3,0.3,0.4
2025-06-17T1400,1413A,110.33,20.0356,海口市,龙华路环保局宿舍,,18,18,22,8,12,50,,41,41,4,6,4,4,0.3,0.3
2025-06-17T1400,3539A,110.5111,19.9736,海口市,桂林洋子站,,23,23,25,14,14,48,,41,41,4,4,4,4,0.2,0.2
2025-06-17T1400,2673A,100.6188,36.2866,海南藏族自治州,共和县恰卜恰镇,,44,36,36,20,16,140,,113,108,3,13,12,14,0.5,0.4
2025-06-17T1400,2676A,97.3731,37.3753,海西蒙古族藏族自治州,德令哈市,颗粒物(PM10),54,57,45,17,18,154,,139,137,3,7,16,10,0.6,0.5
2025-06-17T1400,1048A,114.5302,36.6116,邯郸市,东污水处理厂,,,5,35,,1,187,,153,153,7,24,5,7,0.3,0.5
2025-06-17T1400,1049A,114.4918,36.5713,邯郸市,矿院,臭氧1小时,89,9,26,3,6,191,,146,146,7,23,7,9,0.3,0.5
2025-06-17T1400,1050A,114.484,36.6133,邯郸市,丛台公园,臭氧1小时,88,13,26,7,8,190,,147,147,10,19,6,8,0.4,0.5
2025-06-17T1400,3458A,114.7895,36.5593,邯郸市,香泉濮院小区,臭氧1小时,63,23,43,3,1,170,,138,138,9,16,3,4,0.3,0.3
2025-06-17T1400,3579A,114.50634,36.77178,邯郸市,永年区实验高中,臭氧1小时,106,27,50,22,24,211,,65,,12,22,7,11,0.2,0.9
2025-06-17T1400,3580A,114.20016,36.44293,邯郸市,峰峰矿区临水派出所,臭氧1小时,85,14,22,3,2,188,,151,151,5,13,10,12,0.6,0.6
2025-06-17T1400,2634A,106.9893,33.1842,汉中市,汉川机床厂子校,,48,40,42,23,21,152,,115,115,5,12,4,4,0.6,0.6
2025-06-17T1400,2635A,107.0154,33.0706,汉中市,市监测站,,48,43,47,16,20,152,,113,113,2,11,7,7,0.5,0.5
2025-06-17T1400,2636A,107.0089,33.1138,汉中市,鑫源开发区,,47,33,44,14,20,150,,108,108,5,19,6,6,0.4,0.4
2025-06-17T1400,2637A,107.007,33.0323,汉中市,南郑大河坎水厂,,47,33,46,20,23,148,,98,98,5,15,6,6,0.3,0.4
2025-06-17T1400,1223A,120.2072,30.2111,杭州市,滨江,颗粒物(PM10),52,53,43,20,15,149,,113,113,24,23,6,6,0.2,0.4
2025-06-17T1400,1224A,120.0633,30.2747,杭州市,西溪,,46,34,32,17,21,146,,96,96,5,9,4,4,0.4,0.4
2025-06-17T1400,1226A,120.3417,30.3150,杭州市,下沙,臭氧1小时,65,43,34,27,19,172,,119,119,14,16,7,6,0.2,0.4
2025-06-17T1400,1227A,120.1269,30.2456,杭州市,卧龙桥,,50,41,32,28,19,158,,111,111,6,9,8,7,0.4,0.4
2025-06-17T1400,1228A,120.1903,30.2692,杭州市,浙江农大,,,39,37,19,18,149,,98,98,,16,10,9,0.4,0.5
2025-06-17T1400,1230A,120.1197,30.3119,杭州市,和睦小学,,49,36,32,17,14,154,,106,106,2,6,8,8,0.4,0.4
2025-06-17T1400,1231A,120.3019,30.4183,杭州市,临平镇,臭氧1小时,73,60,52,18,15,178,,116,116,10,17,6,5,0.4,0.4
2025-06-17T1400,1232A,120.2753,30.1839,杭州市,城厢镇,,49,42,42,20,20,154,,103,103,16,25,7,7,0.5,0.6
2025-06-17T1400,1233A,120.0883,30.1808,杭州市,云栖,,50,26,17,16,12,157,,100,100,9,10,7,7,0.5,0.5
2025-06-17T1400,3557A,119.9464,30.0494,杭州市,镇二中,,39,33,40,22,20,124,,88,88,11,15,4,4,0.1,0.2
2025-06-17T1400,3558A,119.7183,30.2367,杭州市,市府大楼,,40,40,34,19,17,122,,89,89,10,12,8,7,0.3,0.3
2025-06-17T1400,3656A,120.1556,30.2864,杭州市,消防大队,,47,41,31,18,17,148,,102,102,14,11,5,5,0.7,0.7
2025-06-17T1400,1270A,117.1959,31.7848,合肥市,明珠广场,,49,39,44,22,20,154,,116,116,8,17,5,5,0.4,0.5
2025-06-17T1400,1271A,117.3072,31.8764,合肥市,三里街,,46,46,46,24,19,128,,96,96,9,18,6,5,0.5,0.6
2025-06-17T1400,1272A,117.2588,31.8707,合肥市,琥珀山庄,,48,48,48,22,24,146,,120,120,8,16,6,6,0.4,0.5
2025-06-17T1400,1273A,117.1604,31.9052,合肥市,董铺水库,,46,46,53,17,19,118,,105,105,4,11,1,1,0.3,0.4
2025-06-17T1400,1274A,117.25,31.8571,合肥市,长江中路,,45,41,48,18,20,143,,116,116,7,14,7,6,0.4,0.5
2025-06-17T1400,1275A,117.266,31.9436,合肥市,庐阳区,颗粒物(PM10),51,51,49,14,18,146,,117,117,4,11,9,8,0.6,0.6
2025-06-17T1400,1276A,117.3453,31.8616,合肥市,瑶海区,,,,49,,19,127,,95,95,10,17,8,7,0.4,0.6
2025-06-17T1400,1277A,117.3027,31.7964,合肥市,包河区,,41,39,42,24,19,130,,104,104,6,15,4,4,0.5,0.5
2025-06-17T1400,1278A,117.2776,31.7385,合肥市,滨湖新区,,41,31,39,24,23,129,,106,106,6,12,10,9,0.5,0.5
2025-06-17T1400,1279A,117.1318,31.8403,合肥市,高新区,颗粒物(PM10),51,51,49,20,21,143,,119,119,8,14,7,7,0.4,0.5
2025-06-17T1400,3464A,117.3803,31.9147,合肥市,高教基地,,47,44,44,22,19,150,,112,112,7,12,7,7,0.5,0.5
2025-06-17T1400,3614A,79.924,37.0877,和田地区,地区环保局,颗粒物(PM10),126,202,291,88,96,108,,97,94,2,8,3,2,0.3,0.4
2025-06-17T1400,3615A,79.9131,37.113,和田地区,市环保局,颗粒物(PM10),131,212,264,83,99,107,,87,86,4,11,3,2,0.3,0.3
2025-06-17T1400,2516A,108.2011,24.715,河池市,东仁乐园,,,,,,,,,,,,,,,,
2025-06-17T1400,2517A,108.0497,24.6947,河池市,市环保站,,30,30,17,11,8,62,,39,39,2,5,3,3,0.5,0.5
2025-06-17T1400,2518A,108.0983,24.6989,河池市,市疾控中心,,21,16,17,10,8,65,,41,41,6,9,9,9,0.6,0.6
2025-06-17T1400,1696A,114.6778,23.7569,河源市,源西,,,,10,10,10,50,,43,43,,15,4,4,0.6,0.7
2025-06-17T1400,1697A,114.6944,23.7586,河源市,东埔,,10,7,10,3,5,32,,24,24,11,17,4,4,0.6,0.7
2025-06-17T1400,1698A,114.6892,23.7233,河源市,老城,,12,12,14,3,9,31,,20,20,3,10,3,4,0.2,0.4
2025-06-17T1400,1718A,115.4208,35.2464,菏泽市,气象局,臭氧1小时,103,55,50,17,18,206,,156,156,7,20,5,6,0.4,0.4
2025-06-17T1400,3374A,115.5564,35.0891,菏泽市,定陶老年大学,臭氧1小时,99,46,40,17,13,199,,152,152,8,15,2,3,0.2,0.2
2025-06-17T1400,4184A,115.4797,35.24401,菏泽市,永昌路1号,臭氧1小时,103,51,43,16,13,205,,164,164,5,14,6,5,0.2,0.2
2025-06-17T1400,4193A,115.4715,35.2800,菏泽市,长城路999号,臭氧1小时,108,52,42,14,11,216,,171,171,12,20,6,6,0.3,0.3
2025-06-17T1400,2514A,111.5264,24.4172,贺州市,环保小区,,13,6,10,3,7,40,,27,24,6,10,8,9,0.8,0.8
2025-06-17T1400,2515A,111.5608,24.4078,贺州市,政协大楼,,20,,8,14,7,40,,28,26,7,10,12,13,0.6,0.6
2025-06-17T1400,3534A,111.4744,24.4553,贺州市,西湾,,15,6,8,3,8,47,,27,27,7,12,10,9,0.5,0.5
2025-06-17T1400,2385A,114.17,35.9019,鹤壁市,市监测站,臭氧1小时,89,22,30,17,11,191,,159,159,7,11,9,9,1.0,1
2025-06-17T1400,2386A,114.2956,35.7511,鹤壁市,市交警支队,臭氧1小时,79,22,28,3,11,183,,146,146,9,21,4,7,0.4,0.5
2025-06-17T1400,2387A,114.2878,35.7306,鹤壁市,迎宾馆,臭氧1小时,80,32,32,13,12,184,,144,144,6,17,2,4,0.5,0.6
2025-06-17T1400,3474A,114.2617,35.6822,鹤壁市,大新区,,,40,40,19,13,181,,73,,,23,,8,0.4,0.5
2025-06-17T1400,3596A,114.1572,35.9603,鹤壁市,南山宾馆,,,35,40,16,22,190,,161,161,,11,6,6,0.5,0.6
2025-06-17T1400,2244A,130.2537,47.3416,鹤岗市,哈啤分公司,,28,19,15,3,9,87,,92,90,3,8,15,15,0.1,0.2
2025-06-17T1400,2245A,130.2684,47.3086,鹤岗市,斯达机电,,35,32,25,24,15,79,,81,77,7,9,13,14,0.2,0.4
2025-06-17T1400,2246A,130.3114,47.3388,鹤岗市,东山纸板厂,,23,21,19,12,9,72,,71,68,13,12,14,15,1.2,1.2
2025-06-17T1400,2247A,130.1097,47.3382,鹤岗市,五号水库,,,14,11,6,6,76,,79,79,,13,13,11,0.5,0.5
2025-06-17T1400,2263A,127.4833,50.2524,黑河市,交通局,,27,27,21,13,12,53,,50,50,5,6,6,6,0.1,0.2
2025-06-17T1400,2264A,127.5144,50.2341,黑河市,环保局,,19,18,22,6,10,58,,56,56,3,5,5,6,0.3,0.3
2025-06-17T1400,2265A,127.5291,50.2472,黑河市,大黑河岛,,10,7,13,3,8,31,,24,24,6,10,16,18,0.3,0.3
2025-06-17T1400,1074A,115.6838,37.7541,衡水市,电机北厂,,49,19,40,3,10,156,,130,130,3,14,2,6,0.2,0.4
2025-06-17T1400,1075A,115.6303,37.7316,衡水市,市监测站,,48,23,43,3,10,152,,123,123,1,15,2,4,0.2,0.3
2025-06-17T1400,3188A,115.6683,37.7217,衡水市,市城管局,,49,10,42,3,16,156,,126,126,1,17,3,6,0.3,0.4
2025-06-17T1400,3459A,115.5989,37.5491,衡水市,地表水厂,臭氧1小时,77,40,52,9,12,181,,126,126,6,27,8,8,0.4,0.3
2025-06-17T1400,2456A,112.5003,26.9167,衡阳市,原169医院,,31,11,17,10,10,97,,73,73,2,6,4,7,0.5,0.6
2025-06-17T1400,2457A,112.6194,26.9258,衡阳市,衡阳化工总厂,,25,10,16,6,8,79,,60,60,4,7,5,5,0.4,0.4
2025-06-17T1400,2458A,112.6211,26.8956,衡阳市,珠晖区环保局,,,13,16,,,85,,62,62,2,5,7,7,0.4,0.5
2025-06-17T1400,2459A,112.6197,26.8733,衡阳市,市委党校,,25,18,16,7,7,79,,60,60,4,6,6,6,0.4,0.4
2025-06-17T1400,2460A,112.6006,26.8919,衡阳市,市监测站,,26,15,13,3,8,82,,62,62,4,6,9,9,0.3,0.3
2025-06-17T1400,2461A,112.5664,26.9056,衡阳市,真空机电公司,,26,,24,11,12,82,,62,62,4,7,7,7,0.6,0.9
2025-06-17T1400,3399A,112.6703,26.882,衡阳市,师范学院,,30,30,21,12,10,77,,61,61,10,7,6,6,0.6,0.6
2025-06-17T1400,2608A,103.3772,23.3993,红河哈尼族彝族自治州,污水处理厂,,16,,16,6,9,51,,43,43,2,4,7,7,0.3,0.3
2025-06-17T1400,2609A,103.3861,23.35,红河哈尼族彝族自治州,监测站,,22,22,21,11,12,44,,41,39,1,3,4,4,0.2,0.2
2025-06-17T1400,3038A,103.3758,23.368,红河哈尼族彝族自治州,州图书馆,,16,,10,3,9,50,,47,46,2,4,2,2,0.2,0.2
2025-06-17T1400,1090A,111.6507,40.7517,呼和浩特市,呼市一监,臭氧1小时,52,39,36,22,21,161,,90,90,10,24,11,9,0.5,0.4
2025-06-17T1400,1091A,111.6572,40.8033,呼和浩特市,小召,,50,41,28,29,18,159,,95,95,17,27,8,6,0.9,0.8
2025-06-17T1400,1094A,111.7516,40.8369,呼和浩特市,如意水处理厂,臭氧1小时,63,58,32,33,17,170,,99,99,14,26,9,6,0.5,0.4
2025-06-17T1400,1095A,111.7276,40.8062,呼和浩特市,二十九中,臭氧1小时,52,42,32,31,20,161,,93,93,14,26,8,5,0.7,0.6
2025-06-17T1400,1096A,111.5512,40.7866,呼和浩特市,工大金川校区,,50,47,31,31,17,157,,84,84,15,26,11,7,0.6,0.5
2025-06-17T1400,1097A,111.717,40.7612,呼和浩特市,化肥厂生活区,臭氧1小时,60,49,38,30,19,168,,96,96,18,30,10,7,0.5,0.4
2025-06-17T1400,3698A,111.5968,40.8178,呼和浩特市,红旗小学,"颗粒物(PM10),臭氧1小时",52,53,28,32,17,161,,96,96,17,32,9,4,0.5,0.3
2025-06-17T1400,3699A,111.6518,40.8389,呼和浩特市,海东办,颗粒物(PM10),51,51,26,30,18,158,,88,88,13,29,10,5,0.4,0.3
2025-06-17T1400,2192A,119.7594,49.2261,呼伦贝尔市,区环保局,,28,28,32,10,24,75,,65,65,10,12,5,6,0.5,0.5
2025-06-17T1400,3061A,119.7512,49.1577,呼伦贝尔市,国华电力东,,,,33,,15,88,,79,79,5,7,3,4,0.3,0.3
2025-06-17T1400,1250A,120.0751,30.8669,湖州市,城西水厂,,,,44,23,22,157,,98,98,14,30,6,6,0.6,0.6
2025-06-17T1400,2873A,120.0830,30.8929,湖州市,仁皇山新区,臭氧1小时,79,60,45,21,20,183,,100,100,15,32,6,5,0.5,0.5
2025-06-17T1400,2907A,120.1844,30.8596,湖州市,吴兴区站,臭氧1小时,89,48,34,27,19,191,,122,122,8,17,7,7,0.3,0.4
2025-06-17T1400,3562A,120.4148,30.8538,湖州市,南浔区站,臭氧1小时,69,46,39,20,20,175,,118,118,9,14,6,5,0.6,0.6
2025-06-17T1400,1607A,120.9049,40.7211,葫芦岛市,龙港区,,43,32,26,22,23,136,,81,81,9,24,12,9,0.5,0.6
2025-06-17T1400,1608A,120.8392,40.7514,葫芦岛市,化工街,,42,27,29,17,15,132,,73,73,14,43,21,13,0.7,0.6
2025-06-17T1400,1609A,120.8341,40.7073,葫芦岛市,新区,,39,22,23,12,18,124,,84,84,8,31,10,6,0.6,0.7
2025-06-17T1400,1610A,120.8695,40.7677,葫芦岛市,东城区,,47,47,34,22,16,134,,75,75,13,37,28,12,0.8,0.8
2025-06-17T1400,2482A,109.5981,27.5721,怀化市,林科所,,22,10,18,3,3,69,,61,61,2,4,4,4,0.8,0.5
2025-06-17T1400,2483A,109.9453,27.5444,怀化市,河西地税局,,22,17,16,3,10,70,,62,62,2,5,3,3,0.1,0.1
2025-06-17T1400,2484A,109.9781,27.5342,怀化市,市四医院,,23,,28,16,14,68,,56,56,3,9,3,2,0.0,0
2025-06-17T1400,2485A,109.9972,27.5578,怀化市,监测楼,,18,18,19,6,10,33,,31,31,2,7,3,4,0.1,0.1
2025-06-17T1400,2486A,110.0394,27.583,怀化市,市委党校,,23,7,17,6,12,72,,60,60,2,5,4,4,0,0.1
2025-06-17T1400,1210A,119.036,33.5981,淮安市,钵池山,臭氧1小时,52,,64,19,26,161,,143,143,12,20,8,13,0.6,0.9
2025-06-17T1400,1211A,119.007,33.575,淮安市,北京南路,,47,,69,15,27,149,,129,129,4,21,8,12,0.3,0.8
2025-06-17T1400,1212A,118.989,33.6067,淮安市,市监测站,臭氧1小时,64,22,66,9,27,171,,157,157,8,21,11,11,0.4,0.4
2025-06-17T1400,1213A,119.135,33.5039,淮安市,楚州区监测站,臭氧1小时,68,32,74,21,27,174,,131,131,3,21,10,9,0.5,0.6
2025-06-17T1400,3426A,118.8755,33.2894,淮安市,新华书店,臭氧1小时,67,18,48,13,24,173,,142,142,9,12,8,8,0.4,0.5
2025-06-17T1400,4206A,119.0288,33.6319,淮安市,承德北路606号,,50,22,66,20,27,160,,141,141,9,17,9,8,0.5,0.5
2025-06-17T1400,2282A,116.8004,33.975,淮北市,监测站,臭氧1小时,98,68,57,31,22,198,,160,160,11,14,7,8,0.7,0.8
2025-06-17T1400,2283A,116.8091,33.9007,淮北市,烈山区政府,臭氧1小时,93,65,69,17,24,194,,147,147,8,21,7,9,0.8,0.8
2025-06-17T1400,3330A,116.8873,33.9836,淮北市,杜集区检察院,臭氧1小时,97,55,68,24,24,197,,155,155,4,13,9,11,0.6,0.7
2025-06-17T1400,4017A,116.7923,33.9535,淮北市,市博物馆,臭氧1小时,97,56,62,27,22,197,,155,155,3,11,8,9,0.7,0.7
2025-06-17T1400,2277A,116.8305,32.7727,淮南市,潘集区政府,臭氧1小时,70,50,72,23,28,176,,127,127,4,18,4,6,0.4,0.4
2025-06-17T1400,2279A,116.8569,32.5951,淮南市,谢家集区政府,臭氧1小时,74,42,59,16,19,179,,125,125,7,13,6,6,0.3,0.2
2025-06-17T1400,2280A,116.8281,32.633,淮南市,八公山区政府,臭氧1小时,80,54,59,18,19,184,,138,138,8,10,6,7,0.3,0.3
2025-06-17T1400,2281A,116.6325,32.6201,淮南市,焦岗湖风景区管理处,,,,,,,,,,,,,,,,
2025-06-17T1400,2894A,117.0566,32.6531,淮南市,经济技术开发区消防队,臭氧1小时,75,40,65,24,30,180,,115,115,8,23,7,8,0.4,0.4
2025-06-17T1400,3329A,117.0108,32.5893,淮南市,山南新区,臭氧1小时,92,90,73,20,24,193,,128,128,7,13,8,9,0.3,0.3
2025-06-17T1400,4209A,117.0031,32.6445,淮南市,国庆中路369号,臭氧1小时,79,46,65,28,28,183,,128,128,10,16,5,8,0.3,0.3
2025-06-17T1400,2446A,114.9028,30.4742,黄冈市,职工中心,臭氧1小时,67,32,36,22,22,173,,123,123,2,4,12,10,0.6,0.6
2025-06-17T1400,2929A,114.8858,30.4519,黄冈市,红卫路,臭氧1小时,63,36,37,18,19,170,,120,120,2,4,10,9,0.5,0.5
2025-06-17T1400,3398A,114.9136,30.4445,黄冈市,市林业局,,48,39,40,31,22,152,,107,107,5,8,9,9,0.7,0.7
2025-06-17T1400,2672A,102.0199,35.5102,黄南藏族自治州,同仁县隆务镇,颗粒物(PM10),57,63,39,22,15,116,,89,88,5,6,8,7,0.2,0.3
2025-06-17T1400,2295A,118.2903,29.6963,黄山市,延安路89号,,28,19,34,7,14,87,,66,66,1,5,6,6,0.4,0.5
2025-06-17T1400,2297A,118.1371,30.2756,黄山市,黄山区政府5号楼,,28,27,37,15,20,89,,67,67,2,3,4,4,0.4,0.6
2025-06-17T1400,4210A,118.3354,29.7203,黄山市,滨江东路7-2号,,29,12,39,3,11,91,,69,69,1,4,4,4,0.3,0.4
2025-06-17T1400,2423A,115.0601,30.2313,黄石市,沈家营,,49,49,55,12,17,143,,100,100,6,18,7,8,0.7,0.8
2025-06-17T1400,2426A,114.8988,30.2019,黄石市,铁山,,42,34,40,11,16,133,,107,107,9,20,5,4,0.3,0.4
2025-06-17T1400,2427A,115.0307,30.2092,黄石市,团城山,,47,26,42,8,12,150,,108,108,3,13,9,12,0.5,0.7
2025-06-17T1400,3149A,115.0235,30.1578,黄石市,笔架山北路,,42,23,36,8,13,134,,103,103,3,8,6,7,0.6,0.7
2025-06-17T1400,4185A,115.0780,30.21118,黄石市,磁湖东路29号,,47,36,53,13,19,148,,108,108,2,19,8,10,0.7,0.9
2025-06-17T1400,1392A,114.4183,23.0528,惠州市,河南岸金山湖子站,,13,8,8,3,4,40,,30,30,8,11,7,7,0.4,0.5
2025-06-17T1400,1393A,114.4053,23.0822,惠州市,下埔横江三路子站,,15,14,10,6,5,46,,33,33,8,10,4,4,0.3,0.3
2025-06-17T1400,1394A,114.4103,23.1142,惠州市,江北云山西路子站,,16,11,13,8,6,50,,36,36,7,8,6,6,0.2,0.3
2025-06-17T1400,1395A,114.4645,22.7833,惠州市,惠阳区承修路船湖子站,,19,19,19,11,9,44,,32,32,13,15,6,6,0.4,0.5
2025-06-17T1400,1396A,114.5317,22.7422,惠州市,大亚湾管委会子站,,25,25,26,14,11,45,,29,29,9,16,9,8,0.5,0.5
2025-06-17T1400,3314A,114.4338,22.8134,惠州市,惠阳秋长,,19,9,13,3,7,58,,35,35,13,16,3,3,0.6,0.6
2025-06-17T1400,3452A,114.6517,22.775,惠州市,大亚湾霞涌,,15,,13,7,6,46,,38,38,5,10,6,6,0.8,0.7
2025-06-17T1400,2240A,130.9762,45.3001,鸡西市,环保局,,38,15,22,10,10,120,,90,90,8,16,1,1,0.4,0.4
2025-06-17T1400,2243A,130.9429,45.3039,鸡西市,第一中学,,34,9,18,7,9,107,,80,80,5,9,6,7,0.4,0.4
2025-06-17T1400,3707A,131.0207,45.3073,鸡西市,欧美日汽修厂,,38,13,20,6,11,121,,86,86,7,13,6,6,0.5,0.5
2025-06-17T1400,3709A,130.9967,45.3106,鸡西市,市政设施管理处,,,16,25,3,12,119,,86,86,,20,,7,,0.5
2025-06-17T1400,2367A,114.9754,27.0803,吉安市,红声器材厂,,18,18,20,3,7,55,,57,56,2,5,8,9,0.1,0.2
2025-06-17T1400,2368A,114.9658,27.0999,吉安市,市森林工业局,,20,11,18,3,8,61,,66,65,1,3,7,8,0.3,0.3
2025-06-17T1400,2369A,114.99,27.1312,吉安市,市环境监测站,,20,16,15,3,7,62,,64,64,2,2,13,13,0.3,0.4
2025-06-17T1400,2370A,115.0093,27.0968,吉安市,青原区法院,,18,15,21,6,9,55,,53,53,10,8,8,7,0.2,0.2
2025-06-17T1400,1772A,126.54,43.8622,吉林市,哈达湾,,39,37,36,27,20,116,,88,88,10,21,6,6,0.3,0.3
2025-06-17T1400,1773A,126.5844,43.8358,吉林市,东局子,,38,29,25,21,19,119,,86,86,11,22,5,5,0.6,0.6
2025-06-17T1400,1774A,126.5052,43.8245,吉林市,电力学院,,37,26,33,21,19,118,,90,90,8,25,4,4,0.5,0.5
2025-06-17T1400,1775A,126.6133,43.8972,吉林市,江北,,34,34,26,15,16,108,,73,73,12,22,9,8,0.7,0.7
2025-06-17T1400,1776A,126.555,43.8306,吉林市,江南公园,,37,25,27,19,13,116,,89,89,9,20,4,4,0.3,0.4
2025-06-17T1400,1778A,126.7061,43.7133,吉林市,丰满,,,,,,,,,,,,,,,,
2025-06-17T1400,2868A,126.4739,43.953,吉林市,九站,"颗粒物(PM10),细颗粒物(PM2.5)",54,58,37,38,22,103,,94,94,14,23,4,5,0.3,0.3
2025-06-17T1400,1299A,116.9862,36.6114,济南市,科干所,臭氧1小时,93,24,22,10,7,194,,151,151,9,14,7,5,0.4,0.3
2025-06-17T1400,1300A,116.9376,36.665,济南市,农科所,臭氧1小时,63,27,38,7,6,170,,137,137,11,22,8,8,0.2,0.2
2025-06-17T1400,1301A,117.1265,36.6734,济南市,开发区,臭氧1小时,84,22,26,12,9,187,,145,145,13,18,9,7,0.7,0.6
2025-06-17T1400,1303A,117.0624,36.6868,济南市,省种子仓库,臭氧1小时,83,29,33,9,9,186,,152,152,7,20,6,6,0.3,0.3
2025-06-17T1400,1304A,116.9489,36.6447,济南市,机床二厂,臭氧1小时,72,32,40,7,6,177,,144,144,12,20,6,6,0.5,0.4
2025-06-17T1400,1305A,117.0495,36.663,济南市,市监测站,臭氧1小时,82,27,28,10,7,185,,146,146,6,16,10,8,0.4,0.3
2025-06-17T1400,1306A,116.7675,36.5484,济南市,长清党校,臭氧1小时,77,,24,24,11,181,,149,149,10,24,6,6,0.6,0.6
2025-06-17T1400,1616A,117.6795,36.229,济南市,技术学院,臭氧1小时,79,22,31,12,12,183,,121,121,7,27,12,12,0.6,0.7
2025-06-17T1400,1961A,117.532,36.6868,济南市,东山小学,臭氧1小时,57,22,28,10,8,165,,126,126,3,15,7,6,0.2,0.1
2025-06-17T1400,3059A,117.7161,36.2049,济南市,泰兴公司,臭氧1小时,78,22,32,14,13,182,,128,128,8,31,9,9,0.5,0.7
2025-06-17T1400,3064A,117.6867,36.2171,济南市,莱芜战役纪念馆,臭氧1小时,85,31,36,11,14,188,,122,122,5,26,11,8,0.5,0.9
2025-06-17T1400,3494A,117.1673,36.9782,济南市,济阳区政府,臭氧1小时,87,27,45,7,6,189,,155,155,8,24,8,7,0.2,0.2
2025-06-17T1400,3495A,117.1171,36.63,济南市,锦屏中学,臭氧1小时,87,22,20,12,6,189,,151,151,11,11,11,8,0.5,0.6
2025-06-17T1400,3682A,116.9814,36.6819,济南市,济南四建,臭氧1小时,64,19,30,7,10,171,,143,143,11,24,5,5,0.4,0.4
2025-06-17T1400,1653A,116.6251,35.4302,济宁市,火炬城,臭氧1小时,79,46,36,14,11,183,,130,130,6,14,6,6,0.5,0.4
2025-06-17T1400,1655A,116.5491,35.4042,济宁市,电化厂,臭氧1小时,93,38,45,24,18,194,,142,142,3,25,5,7,0.6,0.4
2025-06-17T1400,3500A,116.5814,35.3707,济宁市,北湖一中,臭氧1小时,104,46,41,14,23,207,,156,156,7,24,12,11,0.4,0.3
2025-06-17T1400,3501A,116.8249,35.5593,济宁市,服务中心,臭氧1小时,69,35,42,10,8,175,,112,112,8,24,3,3,0.3,0.4
2025-06-17T1400,3678A,116.5907,35.4054,济宁市,市第七中学,臭氧1小时,95,50,43,7,9,196,,150,150,2,12,8,7,0.4,0.3
2025-06-17T1400,2255A,130.2751,46.8028,佳木斯市,佳纺,,25,10,23,10,11,79,,84,83,4,11,7,7,0.3,0.4
2025-06-17T1400,2256A,130.3995,46.8307,佳木斯市,发电厂,,27,12,17,8,11,86,,89,89,5,14,4,4,0.2,0.3
2025-06-17T1400,2257A,130.3258,46.7975,佳木斯市,环保局,,27,21,24,12,12,84,,87,87,4,13,4,4,0.4,0.5
2025-06-17T1400,2258A,130.3648,46.8032,佳木斯市,十一中,,27,18,18,8,12,85,,85,84,6,14,4,5,0.3,0.4
2025-06-17T1400,2259A,130.3794,46.7588,佳木斯市,四丰,,,4,10,,,7,,,,4,8,1,4,0.4,0.5
2025-06-17T1400,1252A,120.7436,30.778,嘉兴市,清河小学,臭氧1小时,80,58,51,19,18,184,,123,123,10,22,8,8,0.6,0.6
2025-06-17T1400,1253A,120.726,30.7478,嘉兴市,嘉兴学院,臭氧1小时,78,47,38,20,19,182,,121,121,8,23,6,5,0.6,0.6
2025-06-17T1400,2872A,120.7846,30.7525,嘉兴市,南湖区残联,臭氧1小时,89,48,44,22,19,191,,125,125,8,19,6,6,0.5,0.6
2025-06-17T1400,3407A,120.6916,30.7739,嘉兴市,秀洲住建,臭氧1小时,89,50,43,21,18,191,,127,127,8,21,6,7,0.7,0.7
2025-06-17T1400,1945A,98.2908,39.7711,嘉峪关市,气象局,,44,17,27,7,12,138,,125,125,2,15,2,10,0.3,0.4
2025-06-17T1400,2884A,98.2672,39.7978,嘉峪关市,酒钢宾馆,,40,17,29,7,11,128,,117,117,2,10,13,21,0.4,0.5
2025-06-17T1400,3248A,98.2643,39.7724,嘉峪关市,雄关区,,42,26,29,7,13,133,,120,120,5,16,8,11,0.0,0
2025-06-17T1400,1383A,113.1064,22.6058,江门市,北街,,17,17,10,8,7,30,,32,30,5,18,2,3,0.4,0.4
2025-06-17T1400,1384A,113.0731,22.5835,江门市,西区,,15,15,13,3,8,43,,38,38,6,16,7,7,0.4,0.4
2025-06-17T1400,1385A,113.0219,22.5311,江门市,圭峰西,,,36,16,12,10,44,,38,38,6,13,4,4,,0.4
2025-06-17T1400,1386A,113.0828,22.5947,江门市,东湖,,12,10,12,7,8,37,,36,36,7,17,9,6,0.4,0.5
2025-06-17T1400,3311A,113.1075,22.5647,江门市,江海富民,,16,16,24,10,11,43,,36,36,9,19,9,9,0.5,0.6
2025-06-17T1400,3449A,113.05,22.4667,江门市,新会银湖,,13,,18,9,11,38,,34,34,4,16,1,2,0.3,0.4
2025-06-17T1400,1830A,113.1992,35.2590,焦作市,影视城,,,,17,,9,,,,,,6,,13,,0.4
2025-06-17T1400,3169A,113.2725,35.2067,焦作市,太极体育中心,臭氧1小时,101,30,44,15,17,201,,147,147,8,16,5,7,0,0.2
2025-06-17T1400,3335A,113.3137,35.2641,焦作市,马村街道办,臭氧1小时,89,,41,24,17,191,,154,154,15,18,10,11,0.4,0.5
2025-06-17T1400,3336A,113.2465,35.2373,焦作市,焦作技师学院,臭氧1小时,78,18,30,3,8,182,,153,153,11,12,5,6,0.4,0.6
2025-06-17T1400,3477A,113.1656,35.2539,焦作市,中站许衡医院,臭氧1小时,67,32,36,12,19,173,,146,146,7,21,8,9,0.3,0.4
2025-06-17T1400,3981A,113.2449,35.1803,焦作市,原李万街道办,臭氧1小时,88,41,44,3,9,190,,146,146,13,21,7,16,0.4,0.5
2025-06-17T1400,4264A,113.2340,35.2190,焦作市,新安路1731号,臭氧1小时,83,23,38,7,12,186,,146,146,6,14,6,8,0.3,0.4
2025-06-17T1400,1708A,116.3701,23.5345,揭阳市,新兴,,18,15,12,12,10,28,,22,22,13,18,5,6,0.5,0.6
2025-06-17T1400,1709A,116.3264,23.5443,揭阳市,西马,,18,17,14,12,9,25,,20,20,13,15,1,3,0.8,0.8
2025-06-17T1400,1710A,116.3611,23.5626,揭阳市,东兴,,16,16,12,7,8,26,,22,22,11,18,2,4,0.6,0.6
2025-06-17T1400,1711A,116.4151,23.5294,揭阳市,渔湖,,13,13,18,7,4,23,,16,16,11,22,3,2,0.4,0.6
2025-06-17T1400,3320A,116.403,23.5699,揭阳市,曲溪,,10,8,11,7,9,26,,22,22,13,19,6,8,0.4,0.5
2025-06-17T1400,1944A,102.1692,38.5167,金昌市,天庆家园,,47,19,34,9,13,148,,109,109,4,11,13,16,0.6,0.7
2025-06-17T1400,4022A,102.1647,38.5371,金昌市,金川区人防中心,,48,25,32,9,12,152,,103,103,4,8,11,10,0.4,0.5
2025-06-17T1400,4239A,102.1930,38.5319,金昌市,长春路96号,,,,,,,,,,,,,,,,
2025-06-17T1400,1262A,119.647,29.077,金华市,十五中,臭氧1小时,99,38,43,19,14,199,,160,160,8,15,2,2,0.7,0.8
2025-06-17T1400,1263A,119.686,29.1029,金华市,监测站,臭氧1小时,55,33,38,18,19,164,,108,108,7,14,2,2,0.5,0.5
2025-06-17T1400,3659A,119.656,29.1131,金华市,气象局,,48,38,37,15,20,152,,100,100,12,22,3,3,0.8,0.7
2025-06-17T1400,1767A,121.1115,41.0879,锦州市,南山,,40,34,26,16,26,126,,87,87,9,12,9,19,0.6,1
2025-06-17T1400,1768A,121.0604,40.8428,锦州市,开发区,,40,31,40,14,22,128,,72,72,12,45,8,21,0.7,0.8
2025-06-17T1400,1769A,121.1836,41.1119,锦州市,百股街道,,41,34,25,17,14,130,,86,86,11,13,8,13,0.6,1.1
2025-06-17T1400,1770A,121.1178,41.1222,锦州市,天安街道,,41,24,21,13,16,130,,96,96,11,16,9,11,0.7,0.9
2025-06-17T1400,1771A,121.1303,41.1386,锦州市,北湖公园,,34,8,22,8,15,107,,82,82,4,12,6,7,0.5,0.7
2025-06-17T1400,2160A,112.85,35.5051,晋城市,自来水公司,臭氧1小时,84,28,43,9,13,187,,131,131,6,22,3,3,0,0.3
2025-06-17T1400,2161A,112.8318,35.4936,晋城市,白云商贸,臭氧1小时,79,25,45,3,6,183,,129,129,13,26,10,9,0.3,0.5
2025-06-17T1400,2162A,112.8508,35.4887,晋城市,市环保局,臭氧1小时,74,22,47,14,14,179,,122,122,10,31,9,8,0,0.3
2025-06-17T1400,2163A,112.8676,35.4897,晋城市,技术学院,臭氧1小时,73,20,43,3,13,178,,121,121,9,30,10,8,0.1,0.4
2025-06-17T1400,2165A,112.8453,35.546,晋城市,白马寺,臭氧1小时,83,19,21,10,14,186,,,,3,9,5,5,0.3,0.4
2025-06-17T1400,3620A,112.8271,35.4828,晋城市,泽州一中,臭氧1小时,80,53,37,3,9,184,,128,128,9,20,3,5,0.3,0.5
2025-06-17T1400,2173A,112.7249,37.7067,晋中市,南都小区,臭氧1小时,85,38,35,16,17,188,,121,121,8,21,5,5,0.3,0.5
2025-06-17T1400,2174A,112.6991,37.6982,晋中市,榆次区政府,臭氧1小时,95,19,39,18,18,196,,123,123,8,23,5,5,0.2,0.3
2025-06-17T1400,2865A,112.7195,37.6828,晋中市,榆次三中,臭氧1小时,97,22,32,9,12,197,,126,126,11,22,6,6,0.1,0.2
2025-06-17T1400,4200A,112.7478,37.6954,晋中市,迎宾街26号,臭氧1小时,99,27,30,7,12,199,,126,126,11,22,7,6,0.4,0.4
2025-06-17T1400,2439A,112.2014,31.0481,荆门市,竹园小学,,45,45,51,23,28,114,,88,88,6,13,6,6,0.4,0.4
2025-06-17T1400,2440A,112.1969,30.9891,荆门市,掇刀,,38,33,49,24,35,121,,86,86,4,10,6,8,0.6,0.6
2025-06-17T1400,2441A,112.2213,31.0386,荆门市,石化一小,细颗粒物(PM2.5),55,49,57,39,36,121,,92,92,7,20,20,13,0.3,0.4
2025-06-17T1400,3012A,112.1849,31.0362,荆门市,西山林语,,41,41,46,23,25,118,,88,88,3,7,10,10,0.5,0.4
2025-06-17T1400,3547A,112.1632,31.0138,荆门市,龙泉中学南校,,40,26,42,22,24,127,,91,91,10,14,4,5,0.4,0.5
2025-06-17T1400,1844A,112.2494,30.3197,荆州市,市图书馆,,41,27,33,17,19,131,,92,92,6,11,4,4,0.6,0.6
2025-06-17T1400,1845A,112.2008,30.3544,荆州市,市委党校,,35,24,31,14,20,112,,76,76,10,14,6,7,0.6,0.6
2025-06-17T1400,3194A,112.2747,30.3122,荆州市,管委会,,38,,31,16,21,121,,84,84,6,12,8,7,0.7,0.7
2025-06-17T1400,4268A,112.1722,30.3366,荆州市,学苑路85号,,37,16,25,15,21,116,,79,79,2,10,4,3,0.4,0.3
2025-06-17T1400,2342A,117.3102,29.3867,景德镇市,王港中学,,,,,,,,,,,,,,,,
2025-06-17T1400,2343A,117.2117,29.2933,景德镇市,老干部活动中心,,32,12,33,8,14,100,,75,75,8,20,7,7,0.5,0.6
2025-06-17T1400,2344A,117.1894,29.2789,景德镇市,兽医站,,30,30,43,10,14,96,,72,72,6,14,8,8,0.4,0.5
2025-06-17T1400,2345A,117.1547,29.2617,景德镇市,台达陶瓷,,31,31,48,8,21,96,,73,73,17,18,16,34,0.5,0.9
2025-06-17T1400,2346A,117.2461,29.2956,景德镇市,陶研所,,31,22,34,9,14,98,,74,74,4,9,4,2,0.4,0.6
2025-06-17T1400,1803A,115.9872,29.6815,九江市,十里,,32,,33,16,20,101,,82,82,4,16,3,4,0.7,0.7
2025-06-17T1400,1804A,115.9584,29.7046,九江市,茅山头,,35,21,33,6,16,111,,83,83,9,19,3,4,0.3,0.4
2025-06-17T1400,1805A,115.9877,29.7295,九江市,西园,,34,14,32,3,14,107,,86,86,6,22,6,8,0.5,0.6
2025-06-17T1400,1808A,115.9114,29.6038,九江市,综合工业园,,,22,32,13,12,107,,83,83,12,11,,9,0.6,0.7
2025-06-17T1400,1809A,116.0721,29.7535,九江市,石化总厂,,28,7,31,3,16,88,,72,72,4,8,7,8,0.7,0.7
2025-06-17T1400,1810A,115.9773,29.5698,九江市,庐山气象台,,31,12,25,6,10,98,,99,94,3,4,14,8,0.7,1
2025-06-17T1400,3190A,116.0254,29.6994,九江市,外国语学校,,,16,28,10,16,93,,73,73,4,12,,13,0.4,0.5
2025-06-17T1400,4253A,116.0102,29.6594,九江市,莲花大道8号,,29,,24,12,12,90,,74,74,2,5,3,4,0.5,0.6
2025-06-17T1400,4240A,98.4958,39.7339,酒泉市,玉门东路5号,,39,19,34,15,19,122,,110,110,2,7,9,15,0.3,0.3
2025-06-17T1400,4241A,98.5099,39.7506,酒泉市,北大街108号,,,19,33,8,16,129,,114,114,,12,11,17,0.2,0.3
2025-06-17T1400,2698A,76.0072,39.4467,喀什地区,巡警大队,,41,31,121,8,31,129,,103,103,11,18,2,2,0.2,0.3
2025-06-17T1400,2699A,75.9755,39.4694,喀什地区,吾办,,39,24,123,8,58,123,,100,100,8,17,3,2,0.1,0.3
2025-06-17T1400,4027A,75.9483,39.4689,喀什地区,老干局,,39,23,108,3,35,124,,100,100,3,8,4,4,0.4,0.3
2025-06-17T1400,1824A,114.3389,34.7781,开封市,肿瘤医院,,,79,58,22,19,197,,148,148,11,20,,4,,0.6
2025-06-17T1400,1826A,114.2885,34.7965,开封市,世纪星幼儿园,臭氧1小时,108,75,56,3,6,215,,160,160,12,23,3,3,0.5,0.6
2025-06-17T1400,3147A,114.3438,34.8106,开封市,龙亭公园,臭氧1小时,105,47,50,19,24,209,,155,155,5,20,4,7,0.2,0.3
2025-06-17T1400,3210A,114.3644,34.7964,开封市,汴京公园,臭氧1小时,104,69,58,20,23,207,,157,157,16,28,6,8,0.2,0.4
2025-06-17T1400,3473A,114.2485,34.8306,开封市,技师学院,臭氧1小时,108,50,42,25,21,216,,164,164,9,21,5,6,0.2,0.3
2025-06-17T1400,3592A,114.4644,34.7556,开封市,祥符区生态环境局,臭氧1小时,101,45,53,26,26,201,,138,138,14,31,5,6,0.4,0.6
2025-06-17T1400,1951A,84.895,45.6094,克拉玛依市,长征新村,,41,12,21,3,6,130,,97,97,5,8,4,4,0.2,0.2
2025-06-17T1400,1952A,84.8988,45.5893,克拉玛依市,南林小区,,39,11,25,7,8,122,,84,84,6,10,9,9,0.1,0.1
2025-06-17T1400,1954A,84.905,44.3396,克拉玛依市,独山子区,,44,21,36,10,11,138,,108,108,7,8,6,6,0.3,0.3
2025-06-17T1400,1955A,85.6979,46.098,克拉玛依市,乌尔禾区商贸楼,,37,6,20,3,5,116,,83,83,3,8,4,4,0.4,0.4
2025-06-17T1400,3612A,85.1045,45.6899,克拉玛依市,白碱滩区新站,,,21,37,,27,125,,106,106,2,5,,15,0.6,0.6
2025-06-17T1400,2697A,76.1454,39.7142,克孜勒苏柯尔克孜自治州,市人民政府,,44,32,117,11,48,140,,121,121,4,6,3,7,0.2,0.2
2025-06-17T1400,3665A,76.1658,39.7157,克孜勒苏柯尔克孜自治州,克州文化中心,,44,20,106,17,56,140,,126,126,3,3,2,9,0.3,0.3
2025-06-17T1400,1450A,102.8204,24.8886,昆明市,呈贡新区,,22,6,10,3,12,68,,47,47,5,12,7,6,0.2,0.3
2025-06-17T1400,1451A,102.6251,24.9608,昆明市,西山森林公园,,,,,,,,,,,,,,,,
2025-06-17T1400,1452A,102.7252,25.0902,昆明市,龙泉镇,,22,13,24,6,12,70,,36,36,8,19,1,1,0.3,0.5
2025-06-17T1400,1453A,102.7266,25.0375,昆明市,东风东路,,20,7,23,6,15,61,,44,44,10,17,5,7,0.3,0.5
2025-06-17T1400,1454A,102.6742,25.0669,昆明市,金鼎山,,23,23,26,3,12,51,,38,38,10,19,1,2,0.3,0.5
2025-06-17T1400,1455A,102.6644,25.0401,昆明市,碧鸡广场,,17,6,27,3,18,52,,35,35,7,20,5,7,0.4,0.6
2025-06-17T1400,3179A,102.7494,25.0119,昆明市,官渡区博物馆,,20,11,17,3,10,61,,43,43,7,13,6,7,0.3,0.4
2025-06-17T1400,3375A,102.8017,24.8336,昆明市,青年创业园,,22,6,13,3,9,68,,46,46,4,13,7,9,0.3,0.4
2025-06-17T1400,3550A,102.7997,24.9786,昆明市,昆明学院,,20,6,18,3,12,64,,48,48,7,12,5,7,0.3,0.4
2025-06-17T1400,3551A,102.5967,24.6736,昆明市,晋宁区生态环境分局,,15,10,13,3,8,48,,38,38,3,10,3,2,0.5,0.5
2025-06-17T1400,3552A,102.6678,24.9856,昆明市,云天化总部,,15,6,19,3,14,48,,38,38,6,16,4,5,0.8,0.9
2025-06-17T1400,1456A,91.1319,29.6514,拉萨市,八廓街,,,22,11,,8,114,,97,97,9,13,9,9,0.4,0.3
2025-06-17T1400,1457A,91.1221,29.6747,拉萨市,市环保局,,34,14,12,7,7,107,,91,90,10,12,8,8,0.3,0.4
2025-06-17T1400,1458A,91.0874,29.6475,拉萨市,区监测站,,35,10,9,8,6,110,,92,92,11,17,8,9,0.4,0.4
2025-06-17T1400,1459A,91.1774,29.6541,拉萨市,西藏大学,,34,6,10,3,6,106,,97,97,8,13,10,10,0.3,0.3
2025-06-17T1400,1460A,90.9798,29.6588,拉萨市,区辐射站,,31,8,12,3,7,97,,92,78,4,17,6,7,0.3,0.3
2025-06-17T1400,1461A,91.0834,29.6292,拉萨市,拉萨火车站,,35,11,8,8,6,110,,92,92,10,11,6,5,0.2,0.2
2025-06-17T1400,2520A,109.2203,23.7256,来宾市,来宾技工学校,,28,26,25,19,16,85,,52,52,4,8,6,7,0.7,0.7
2025-06-17T1400,3535A,109.1781,23.7297,来宾市,兴宾区政府,,35,26,17,24,11,81,,52,52,1,5,5,7,0.6,0.6
2025-06-17T1400,4002A,109.2416,23.7461,来宾市,中南小学,,27,23,18,17,10,86,,52,52,4,7,5,7,0.6,0.6
2025-06-17T1400,1477A,104.1373,35.9454,兰州市,榆中兰大校区,,,,,,,,,,,,,,,,
2025-06-17T1400,1479A,103.831,36.0464,兰州市,铁路设计院,颗粒物(PM10),51,51,55,28,26,149,,76,76,33,55,14,15,0.6,0.7
2025-06-17T1400,3241A,103.7439,36.0842,兰州市,百合公园,,47,46,47,24,19,148,,75,75,20,46,11,12,0.6,0.5
2025-06-17T1400,3242A,103.9611,35.998,兰州市,和平,颗粒物(PM10),51,52,46,27,20,160,,106,106,11,13,11,9,0.6,0.4
2025-06-17T1400,4236A,103.6293,36.0938,兰州市,庄浪东路808号,颗粒物(PM10),54,57,53,32,31,160,,79,79,21,38,18,21,0.5,0.5
2025-06-17T1400,4237A,103.7251,36.1043,兰州市,安宁西路88号,臭氧1小时,68,64,60,26,34,174,,118,118,19,38,16,15,0.7,0.5
2025-06-17T1400,4238A,103.8470,36.0676,兰州市,北滨河东路1号,臭氧1小时,53,50,53,22,19,162,,77,77,21,44,14,14,0.7,0.7
2025-06-17T1400,3245A,103.6633,36.533,兰州新区,新区管委会,,49,42,40,21,24,156,,111,111,5,10,10,19,0.3,0.4
2025-06-17T1400,3246A,103.6975,36.4789,兰州新区,舟曲中学,臭氧1小时,55,46,42,20,16,164,,123,123,9,14,28,23,0.6,0.6
2025-06-17T1400,1067A,116.6708,39.5111,廊坊市,药材公司,臭氧1小时,112,62,44,32,21,223,,,,16,25,4,4,0.3,0.3
2025-06-17T1400,1068A,116.7214,39.5589,廊坊市,开发区,臭氧1小时,119,58,36,29,16,237,,114,114,15,22,3,2,0.3,0.3
2025-06-17T1400,1070A,116.7244,39.5269,廊坊市,北华航天学院,臭氧1小时,110,55,55,32,23,220,,112,112,12,23,4,4,0.3,0.3
2025-06-17T1400,2919A,116.7022,39.5453,廊坊市,河北工业大学,臭氧1小时,115,57,48,24,19,229,,117,117,13,24,5,5,0.3,0.3
2025-06-17T1400,2535A,103.7723,29.5462,乐山市,花湖湾,臭氧1小时,119,49,56,29,37,238,,140,140,10,22,6,10,0.7,0.9
2025-06-17T1400,2536A,103.7627,29.5844,乐山市,牛耳桥,臭氧1小时,110,42,45,26,28,220,,131,131,14,27,9,10,0.7,0.8
2025-06-17T1400,2537A,103.7508,29.6006,乐山市,市第三水厂,臭氧1小时,114,43,46,33,28,227,,142,142,16,31,8,8,0.5,0.5
2025-06-17T1400,2538A,103.7571,29.5664,乐山市,市监测站,臭氧1小时,118,51,50,29,30,236,,140,140,8,20,9,12,0.6,0.8
2025-06-17T1400,3361A,103.7311,29.5628,乐山市,理工大学,臭氧1小时,110,50,49,25,25,220,,130,130,9,26,9,13,0.6,0.9
2025-06-17T1400,2598A,100.2143,26.8576,丽江市,西南郊,,20,8,8,3,5,61,,68,67,4,9,6,15,0.9,1.1
2025-06-17T1400,2599A,100.2497,26.8802,丽江市,丽江古城,,17,13,15,3,5,52,,56,56,9,13,10,9,0.4,0.4
2025-06-17T1400,2600A,100.2203,26.8906,丽江市,市中心,,15,9,8,3,8,46,,51,49,10,18,11,11,0.7,0.8
2025-06-17T1400,1267A,119.914,28.4514,丽水市,监测站大楼,,44,35,27,7,8,139,,83,83,10,17,4,3,0.4,0.5
2025-06-17T1400,1268A,119.93,28.4586,丽水市,莲都小学,,43,36,23,12,13,137,,81,81,8,17,4,4,0.3,0.4
2025-06-17T1400,1269A,119.879,28.4231,丽水市,余庄前,,37,20,27,9,12,118,,82,82,5,10,4,4,0.4,0.4
2025-06-17T1400,1173A,119.176,34.5885,连云港市,市环境监测站,臭氧1小时,75,36,49,14,14,180,,127,127,10,26,10,12,0.7,0.7
2025-06-17T1400,3000A,119.3581,34.6972,连云港市,德源药业,,45,34,55,7,10,143,,106,106,20,34,10,11,0.3,0.5
2025-06-17T1400,3007A,119.178,34.844,连云港市,新城一中,,49,49,47,17,17,143,,122,122,14,18,7,8,0.6,0.6
2025-06-17T1400,3008A,119.3608,34.7519,连云港市,胡沟管理处,,41,14,28,3,9,129,,124,124,22,26,8,10,0.4,0.4
2025-06-17T1400,3009A,119.1478,34.5911,连云港市,矿山设计院,臭氧1小时,75,36,52,9,12,180,,114,114,10,35,7,8,0.6,0.6
2025-06-17T1400,3434A,119.2413,34.6539,连云港市,工贸学校,臭氧1小时,73,36,51,18,15,178,,137,137,8,14,9,13,0.5,0.5
2025-06-17T1400,3664A,119.4172,34.7341,连云港市,连云街道,,40,40,43,17,12,127,,113,113,24,14,9,9,0.4,0.5
2025-06-17T1400,2571A,102.3431,27.8099,凉山彝族自治州,青龙寺,,27,,18,3,7,86,,57,57,2,10,4,4,0.4,0.6
2025-06-17T1400,2572A,102.2721,27.8415,凉山彝族自治州,邛海宾馆,,26,26,22,14,13,78,,65,65,7,13,9,10,0.3,0.7
2025-06-17T1400,2573A,102.2625,27.898,凉山彝族自治州,西昌市政府,,30,23,20,3,13,95,,70,70,7,11,9,9,0.7,0.7
2025-06-17T1400,2574A,102.2685,27.8851,凉山彝族自治州,凉山州政府,,28,12,20,6,16,88,,67,67,9,14,12,13,0.7,0.8
2025-06-17T1400,4229A,102.2342,27.8859,凉山彝族自治州,凯乐南路30号,,27,11,21,3,12,84,,62,62,6,15,14,15,0.9,0.9
2025-06-17T1400,2212A,123.2,41.1953,辽阳市,宏伟区,颗粒物(PM10),58,66,26,15,7,160,,128,128,8,13,10,8,0.7,0.7
2025-06-17T1400,2213A,123.1683,41.2495,辽阳市,新华园,,50,37,35,15,12,158,,132,132,12,17,15,8,1.0,0.5
2025-06-17T1400,2214A,123.2354,41.2639,辽阳市,滨河路,,48,42,25,13,10,153,,118,118,12,16,15,10,0.9,0.6
2025-06-17T1400,2215A,123.149,41.2991,辽阳市,铁西工业园,,50,50,54,18,22,146,,107,107,12,20,11,8,1.0,1.1
2025-06-17T1400,2227A,125.1358,42.8845,辽源市,环保局,,43,23,25,17,11,137,,115,115,7,17,3,4,0.5,0.5
2025-06-17T1400,3239A,125.0764,42.9078,辽源市,银鹰制药,,45,20,22,15,15,144,,122,122,11,19,3,4,0.4,0.4
2025-06-17T1400,1625A,115.9848,36.4372,聊城市,区政府,臭氧1小时,98,25,37,9,12,198,,153,153,5,17,9,11,0.5,0.5
2025-06-17T1400,2878A,116.0072,36.4343,聊城市,聊大东校,臭氧1小时,102,27,36,16,15,203,,172,172,7,18,9,10,0.5,0.4
2025-06-17T1400,3200A,115.9819,36.4978,聊城市,监控中心,臭氧1小时,87,18,33,7,9,189,,155,155,6,21,8,9,0.3,0.3
2025-06-17T1400,3513A,116.0445,36.4361,聊城市,九州社区,,,29,42,9,12,199,,152,152,,16,1,7,0.4,0.5
2025-06-17T1400,4018A,116.0567,36.4608,聊城市,星美广场,臭氧1小时,94,32,39,12,11,195,,155,155,9,17,10,9,0.8,0.6
2025-06-17T1400,2632A,94.3681,29.6376,林芝市,林芝监测站,,21,8,7,3,5,66,,48,48,4,5,4,3,0.4,0.5
2025-06-17T1400,2633A,94.3616,29.6616,林芝市,林芝人民医院,,19,6,8,3,4,58,,42,42,2,4,5,4,0.3,0.3
2025-06-17T1400,2603A,100.0781,23.8982,临沧市,市环保局,,,,42,17,15,50,,40,40,5,7,5,6,0.2,0.3
2025-06-17T1400,2604A,100.0894,23.8822,临沧市,市气象局,,15,9,13,8,12,46,,40,40,4,8,7,8,0.4,0.4
2025-06-17T1400,1733A,111.5531,36.0783,临汾市,临钢医院,臭氧1小时,89,19,40,9,10,191,,115,115,11,24,6,7,0.6,0.7
2025-06-17T1400,1734A,111.5028,36.0714,临汾市,技工学校,臭氧1小时,94,23,36,15,20,195,,121,121,8,22,7,7,0.5,0.5
2025-06-17T1400,1736A,111.5018,36.0855,临汾市,市委,臭氧1小时,101,35,46,8,12,201,,125,125,7,22,8,7,0.6,0.7
2025-06-17T1400,3018A,111.505,36.1014,临汾市,唐尧大酒店,臭氧1小时,98,40,52,18,15,198,,113,113,8,24,7,7,0.5,0.6
2025-06-17T1400,4244A,111.4879,36.0530,临汾市,启星学校,臭氧1小时,92,22,40,9,24,193,,124,124,6,21,6,5,0.3,0.6
2025-06-17T1400,4271A,103.2464,35.6123,临夏回族自治州,滨河东路1号,颗粒物(PM10),67,84,61,38,28,113,,63,63,12,16,13,10,0.5,0.4
2025-06-17T1400,4310A,103.2093,35.5995,临夏回族自治州,新华街21号,颗粒物(PM10),69,88,63,44,32,116,,70,70,18,15,11,8,0.6,0.4
2025-06-17T1400,1618A,118.3429,35.0532,临沂市,沂河小区,臭氧1小时,64,34,40,19,16,171,,131,131,13,21,10,9,0.3,0.4
2025-06-17T1400,1619A,118.295,35.0583,临沂市,鲁南制药厂,臭氧1小时,75,29,44,19,14,180,,133,133,14,27,10,10,0.2,0.4
2025-06-17T1400,1620A,118.2794,34.9976,临沂市,新光毛纺厂,臭氧1小时,65,27,37,16,14,172,,131,131,9,24,8,10,0.3,0.5
2025-06-17T1400,1621A,118.3956,35.0888,临沂市,河东保险公司,臭氧1小时,78,24,29,11,9,182,,140,140,13,21,8,8,0.4,0.5
2025-06-17T1400,3370A,118.3564,35.0215,临沂市,十里堡居委,臭氧1小时,74,24,33,9,10,179,,137,137,16,25,9,10,0.4,0.4
2025-06-17T1400,3496A,118.3604,35.1084,临沂市,南坊新区,臭氧1小时,70,46,40,17,11,176,,135,135,18,28,10,11,0.3,0.3
2025-06-17T1400,3860A,118.3920,35.0300,临沂市,皇山花园小区,臭氧1小时,69,29,32,12,11,175,,136,136,14,25,10,11,0.3,0.3
2025-06-17T1400,1870A,109.4856,24.3895,柳州市,柳东小学,,25,22,16,12,7,77,,40,40,4,8,10,10,0.5,0.4
2025-06-17T1400,1871A,109.4157,24.3277,柳州市,环保监测站,,29,21,15,20,10,77,,40,40,3,8,7,6,0.7,0.7
2025-06-17T1400,1872A,109.389,24.341,柳州市,河西水厂,,25,22,15,13,9,79,,44,44,5,10,4,4,0.6,0.6
2025-06-17T1400,1873A,109.4311,24.2921,柳州市,市四中,,30,30,18,10,7,78,,41,41,8,13,7,7,0.6,0.6
2025-06-17T1400,1874A,109.4006,24.3631,柳州市,市九中,,24,,19,13,9,75,,41,41,6,9,9,9,0.6,0.6
2025-06-17T1400,1875A,109.4958,24.3134,柳州市,古亭山,,34,34,20,15,7,75,,38,38,4,10,5,4,0.5,0.5
2025-06-17T1400,3402A,109.5422,24.3996,柳州市,市二中,,,32,16,15,9,82,,49,49,,11,12,12,0.4,0.4
2025-06-17T1400,2307A,116.5079,31.737,六安市,监测大楼,,43,39,45,15,20,136,,113,113,2,4,4,4,0.3,0.4
2025-06-17T1400,2308A,116.4738,31.7643,六安市,皖西学院,颗粒物(PM10),53,55,49,11,18,140,,120,120,2,3,5,5,0.3,0.3
2025-06-17T1400,2309A,116.4996,31.7905,六安市,朝阳厂,,43,43,47,14,19,121,,104,104,7,10,6,6,0.3,0.3
2025-06-17T1400,2310A,116.5567,31.7886,六安市,开发区,颗粒物(PM10),52,53,52,16,23,124,,104,104,5,5,10,8,0.4,0.4
2025-06-17T1400,2576A,104.8,26.5892,六盘水市,窑上,,32,32,33,9,9,78,,54,54,5,6,4,3,0.3,0.3
2025-06-17T1400,2577A,104.83,26.5917,六盘水市,黄土坡,,27,11,22,10,15,86,,68,68,6,10,10,10,0.3,0.4
2025-06-17T1400,2578A,104.89,26.5939,六盘水市,水钢,,28,23,39,14,28,88,,71,71,5,7,10,10,0.4,0.4
2025-06-17T1400,2579A,104.8475,26.5894,六盘水市,民中,,27,17,20,7,12,85,,75,69,5,7,8,8,0.3,0.4
2025-06-17T1400,2580A,104.9544,26.5506,六盘水市,双水,,28,17,18,3,11,87,,68,68,7,8,9,9,0.3,0.3
2025-06-17T1400,2335A,117.0189,25.1181,龙岩市,龙岩师专,,,,,,,,,,,,,,,,
2025-06-17T1400,2336A,117.0217,25.1033,龙岩市,龙岩市监测站,,15,15,17,3,7,43,,31,30,5,18,3,9,0.3,0.5
2025-06-17T1400,2337A,117.0258,25.0661,龙岩市,闽西职业技术学院,,13,6,23,3,5,40,,26,26,1,13,3,22,0.3,0.4
2025-06-17T1400,2338A,117.0196,25.0306,龙岩市,龙岩学院,,13,6,12,3,4,40,,36,31,2,6,4,4,0.6,0.7
2025-06-17T1400,2665A,105.0822,33.3261,陇南市,汉王镇固水子,,,,,,,,,,,,,,,,
2025-06-17T1400,2885A,104.9339,33.3826,陇南市,滨江中学,臭氧1小时,64,42,44,21,24,171,,139,139,2,6,4,5,0.7,0.6
2025-06-17T1400,3247A,104.955,33.371,陇南市,市总工会,臭氧1小时,64,58,56,19,20,171,,144,144,4,6,6,6,0.6,0.6
2025-06-17T1400,2487A,111.9589,27.8901,娄底市,电视发射台,,30,19,41,14,12,96,,56,56,7,6,10,8,0.6,0.5
2025-06-17T1400,2488A,111.9975,27.725,娄底市,市监测站,,,,20,8,19,76,,64,64,6,8,8,9,0.3,0.8
2025-06-17T1400,2489A,112.0194,27.7314,娄底市,市委党校,,24,18,20,10,13,75,,60,60,2,2,7,8,0.3,0.3
2025-06-17T1400,2490A,111.9561,27.7569,娄底市,涟钢,,47,47,27,24,15,75,,58,58,19,16,11,7,1.4,1
2025-06-17T1400,2491A,111.9892,27.7044,娄底市,市政府,,42,42,21,15,12,84,,65,65,4,4,6,6,0.5,0.6
2025-06-17T1400,1893A,105.4324,28.9634,泸州市,九狮山,臭氧1小时,54,37,37,20,29,163,,119,119,14,22,5,6,0.5,0.4
2025-06-17T1400,1894A,105.4427,28.9063,泸州市,小市上码头,,34,28,35,12,17,107,,81,81,4,11,12,13,0.7,0.7
2025-06-17T1400,1895A,105.4241,28.8573,泸州市,兰田宪桥,,42,33,37,17,20,132,,102,102,4,17,8,8,0.6,0.6
2025-06-17T1400,1896A,105.4379,28.8833,泸州市,市环监站,臭氧1小时,70,28,33,22,24,176,,127,127,8,20,6,7,0.8,0.8
2025-06-17T1400,4272A,105.3689,28.7783,泸州市,纳溪中医医院,,,30,47,26,32,140,,98,98,,19,6,9,0.7,0.9
2025-06-17T1400,2183A,111.1406,37.5211,吕梁市,环保局,臭氧1小时,60,25,47,9,17,168,,103,103,6,20,5,5,0.3,0.4
2025-06-17T1400,2185A,111.1297,37.5136,吕梁市,自来水公司,臭氧1小时,54,21,45,12,17,163,,94,94,7,17,5,6,0.2,0.3
2025-06-17T1400,2867A,111.1283,37.51,吕梁市,马茂庄小学,,47,32,52,3,16,149,,102,102,6,22,4,5,0.3,0.5
2025-06-17T1400,1812A,112.3931,34.6516,洛阳市,市委党校,臭氧1小时,105,,42,44,33,210,,136,136,10,25,12,11,0.5,0.5
2025-06-17T1400,1815A,112.494,34.6886,洛阳市,河南林校,臭氧1小时,106,49,45,3,23,212,,148,148,8,24,10,7,,0.6
2025-06-17T1400,1816A,112.3844,34.623,洛阳市,开发区管委会,臭氧1小时,110,41,42,22,22,220,,131,131,12,20,15,9,0.5,0.5
2025-06-17T1400,1817A,112.4267,34.6258,洛阳市,市委新办公区,臭氧1小时,107,45,61,19,21,214,,129,129,13,19,13,9,0.6,0.6
2025-06-17T1400,3340A,112.6005,34.6326,洛阳市,伊滨,臭氧1小时,110,44,48,20,22,219,,136,136,10,19,10,8,0.4,0.4
2025-06-17T1400,3341A,112.4951,34.6332,洛阳市,中移产业园,臭氧1小时,111,50,42,22,22,222,,140,140,14,23,17,9,0.7,0.6
2025-06-17T1400,3593A,112.5736,34.8993,洛阳市,吉利监测站,臭氧1小时,99,34,36,15,20,199,,148,148,8,24,8,8,0.4,0.5
2025-06-17T1400,3635A,112.3677,34.662,洛阳市,河科大西苑校区,臭氧1小时,106,41,44,20,21,212,,137,137,9,27,12,14,0.4,0.5
2025-06-17T1400,3636A,112.4388,34.6781,洛阳市,英才小学,臭氧1小时,105,39,50,20,24,209,,129,129,11,34,13,13,0.6,0.7
2025-06-17T1400,4214A,112.4600,34.6949,洛阳市,春都路1号院,臭氧1小时,105,52,51,23,21,210,,122,122,10,28,10,9,0.6,0.7
2025-06-17T1400,2399A,114.051,33.5699,漯河市,三五一五工厂,臭氧1小时,92,45,57,16,23,193,,136,136,8,24,5,6,0.5,0.5
2025-06-17T1400,2400A,114.0055,33.5698,漯河市,漯河大学,臭氧1小时,98,51,61,19,19,198,,142,142,11,26,5,8,0.5,0.4
2025-06-17T1400,2401A,114.0138,33.5828,漯河市,市水利局,臭氧1小时,101,41,53,22,21,201,,144,144,6,19,6,8,0.9,0.8
2025-06-17T1400,2402A,114.0261,33.5698,漯河市,市广电局,臭氧1小时,98,37,53,21,24,198,,137,137,5,27,3,6,0.3,0.3
2025-06-17T1400,3478A,113.9749,33.5664,漯河市,市图书馆,臭氧1小时,93,62,55,37,26,194,,140,140,12,28,4,5,0.4,0.4
2025-06-17T1400,4250A,114.0892,33.5882,漯河市,韶山路11号,臭氧1小时,92,52,62,20,26,193,,137,137,6,27,5,7,0.5,0.5
2025-06-17T1400,1798A,118.5092,31.6837,马鞍山市,湖东路四小,臭氧1小时,103,80,48,10,16,206,,131,131,9,8,9,8,0.7,0.5
2025-06-17T1400,1799A,118.5024,31.6449,马鞍山市,开发区,臭氧1小时,100,55,48,24,18,200,,122,122,10,14,9,7,0.9,0.6
2025-06-17T1400,1802A,118.6245,31.7241,马鞍山市,濮塘,臭氧1小时,83,52,46,20,21,186,,129,129,1,5,10,9,0.8,0.7
2025-06-17T1400,3633A,118.4918,31.6809,马鞍山市,雨山,臭氧1小时,95,53,47,24,20,196,,120,120,8,10,7,7,0.9,0.7
2025-06-17T1400,4191A,118.5274,31.72227,马鞍山市,慈湖高新区,臭氧1小时,102,53,46,25,19,204,,123,123,11,14,9,9,0.6,0.5
2025-06-17T1400,1686A,111.0286,21.4688,茂名市,电白南海,,,,24,,14,,,,,,6,,2,,0.5
2025-06-17T1400,1687A,110.9294,21.6533,茂名市,茂石化七小,,22,22,17,9,6,44,,38,38,7,9,3,3,0.4,0.4
2025-06-17T1400,1688A,110.9107,21.6687,茂名市,健康路,,18,17,13,12,9,49,,45,42,7,8,4,3,0.5,0.5
2025-06-17T1400,1689A,110.8592,21.6828,茂名市,高岭,,24,19,20,3,5,76,,50,50,9,12,3,5,0.4,0.4
2025-06-17T1400,3450A,111.01,21.5165,茂名市,电白水东,,22,22,14,9,6,49,,48,44,5,6,3,3,0.4,0.4
2025-06-17T1400,2539A,104.0308,30.0478,眉山市,黑龙滩水库,臭氧1小时,109,14,20,13,18,217,,136,136,4,15,2,2,0,0.5
2025-06-17T1400,2540A,103.8416,30.0874,眉山市,气象局,臭氧1小时,112,37,43,14,25,224,,138,138,9,50,3,3,0.5,0.5
2025-06-17T1400,3137A,103.8578,30.0744,眉山市,市委党校,臭氧1小时,108,31,46,19,20,215,,,,13,47,7,7,0.6,0.7
2025-06-17T1400,3148A,103.8291,30.0564,眉山市,区人社局,臭氧1小时,117,52,57,12,17,234,,147,147,16,48,14,16,0.8,0.8
2025-06-17T1400,1690A,116.1231,24.3284,梅州市,梅江月梅,,8,6,9,3,3,25,,26,26,5,8,6,6,0.5,0.5
2025-06-17T1400,1691A,116.0797,24.2719,梅州市,梅县新城,,10,8,8,3,4,29,,33,26,6,9,6,6,0.5,0.5
2025-06-17T1400,1692A,116.1248,24.2654,梅州市,环境监控中心,,10,10,7,3,5,27,,28,27,9,12,2,3,0.6,0.6
2025-06-17T1400,3315A,116.1233,24.2991,梅州市,梅龙,,10,6,6,3,5,29,,28,27,3,6,6,6,0.4,0.5
2025-06-17T1400,1878A,104.7778,31.4741,绵阳市,富乐山,臭氧1小时,95,57,49,25,29,196,,142,142,8,16,11,10,0.6,0.6
2025-06-17T1400,1880A,104.6697,31.4668,绵阳市,高新区自来水公司,,,32,59,17,20,160,,125,125,5,39,8,9,,0.7
2025-06-17T1400,1881A,104.7287,31.5075,绵阳市,三水厂,臭氧1小时,101,40,54,27,34,201,,128,128,10,36,11,10,0.6,0.7
2025-06-17T1400,3491A,104.69,31.5322,绵阳市,西科大附属小学,臭氧1小时,102,42,58,24,27,203,,136,136,9,31,10,10,0.5,0.6
2025-06-17T1400,3492A,104.5648,31.5343,绵阳市,安州区旅游局,臭氧1小时,104,52,51,19,23,208,,144,144,11,16,10,7,0.5,0.6
2025-06-17T1400,4226A,104.7651,31.4531,绵阳市,绵阳市气象局,臭氧1小时,70,41,50,22,28,176,,122,122,10,22,3,8,0.4,0.4
2025-06-17T1400,1784A,129.61,44.561,牡丹江市,环保大楼,,38,,16,15,15,121,,85,85,7,15,7,8,0.3,0.3
2025-06-17T1400,1785A,129.6115,44.5782,牡丹江市,文化广场,,,,17,,15,119,,84,84,8,17,6,6,0.3,0.3
2025-06-17T1400,1786A,129.5904,44.5963,牡丹江市,第一医院,,38,11,14,6,10,120,,82,82,10,17,6,6,0.2,0.2
2025-06-17T1400,1787A,129.6364,44.6075,牡丹江市,机车工厂,,36,10,18,3,7,113,,76,76,10,19,7,7,0.3,0.4
2025-06-17T1400,1788A,129.6386,44.5462,牡丹江市,第一中学,,38,8,17,6,11,119,,84,84,6,18,9,8,0.4,0.4
2025-06-17T1400,2531A,105.0703,29.61,内江市,市监测站,,50,,29,22,22,158,,125,125,8,16,8,5,0.6,0.6
2025-06-17T1400,2532A,105.0717,29.5947,内江市,东兴区政府,臭氧1小时,57,16,27,13,18,165,,138,138,12,14,2,2,0.9,0.9
2025-06-17T1400,2533A,105.0653,29.5817,内江市,内江二中,臭氧1小时,53,,31,26,25,162,,135,135,8,15,8,8,0.5,0.5
2025-06-17T1400,2534A,105.0406,29.5822,内江市,内江日报社,臭氧1小时,63,,29,31,25,170,,138,138,9,17,24,13,0.3,0.3
2025-06-17T1400,2628A,92.0657,31.4846,那曲市,那曲监测站,,36,20,18,7,9,114,,110,104,5,11,6,7,0.2,0.3
2025-06-17T1400,4243A,92.0515,31.4787,那曲市,那曲市委宣传部,,39,8,10,3,4,123,,,,2,7,5,5,0.1,0.2
2025-06-17T1400,1290A,115.8931,28.6843,南昌市,省外办,,39,13,26,12,16,123,,89,89,5,14,12,10,0.3,0.4
2025-06-17T1400,1291A,115.8886,28.7003,南昌市,省林业公司,,36,12,28,3,13,113,,76,76,8,14,10,10,0.5,0.5
2025-06-17T1400,1292A,115.8126,28.7442,南昌市,林科所,,31,7,25,3,10,98,,76,76,2,14,5,7,0.2,0.3
2025-06-17T1400,1294A,115.8518,28.687,南昌市,建工学校,,35,6,32,3,19,110,,74,74,2,11,8,9,0.2,0.3
2025-06-17T1400,1295A,115.8921,28.6424,南昌市,象湖,,34,9,27,3,11,107,,74,74,6,15,8,9,0.6,0.6
2025-06-17T1400,1296A,115.7423,28.7996,南昌市,武术学校,,39,,20,27,11,100,,74,74,4,4,10,8,0.3,0.3
2025-06-17T1400,3046A,115.9084,28.6062,南昌市,机电学校,,32,14,37,9,14,101,,76,76,1,11,5,6,0.1,0.2
2025-06-17T1400,3690A,115.9721,28.7031,南昌市,外国语学校,,33,16,34,3,11,104,,76,76,6,14,10,12,0.4,0.4
2025-06-17T1400,4192A,115.9316,28.68677,南昌市,南京东路235号,,36,19,42,6,13,114,,79,79,8,16,10,11,0.5,0.5
2025-06-17T1400,1905A,106.056,30.8064,南充市,西山风景区,,,,,,,,,,,,,,,,
2025-06-17T1400,1906A,106.0789,30.8023,南充市,南充市委,臭氧1小时,70,47,44,33,24,176,,115,115,8,21,5,6,0.3,0.3
2025-06-17T1400,1907A,106.1031,30.8217,南充市,南充炼油厂,臭氧1小时,57,40,44,21,26,165,,121,121,8,17,8,7,0.5,0.5
2025-06-17T1400,4227A,106.1083,30.7884,南充市,梨树横街98号,臭氧1小时,53,43,43,16,22,162,,118,118,8,16,6,6,0.4,0.4
2025-06-17T1400,4304A,106.1172,30.843,南充市,清泉寺北路188号,,,,43,,27,,,143,,,13,,6,,0.3
2025-06-17T1400,4305A,106.067,30.7616,南充市,同庆路1号,臭氧1小时,60,39,47,31,25,168,,121,121,8,18,6,5,0.4,0.3
2025-06-17T1400,1151A,118.8086,32.1065,南京市,迈皋桥,臭氧1小时,60,36,39,24,17,168,,115,115,2,10,4,4,0.6,0.7
2025-06-17T1400,1152A,118.7538,32.0551,南京市,草场门,臭氧1小时,75,36,45,24,17,180,,134,134,9,16,3,4,0.3,0.5
2025-06-17T1400,1153A,118.7794,32.0745,南京市,山西路,臭氧1小时,92,48,54,12,13,193,,139,139,10,16,6,7,0.2,0.4
2025-06-17T1400,1154A,118.7752,32.0023,南京市,中华门,臭氧1小时,69,39,45,12,16,175,,114,114,14,21,8,11,0.3,0.7
2025-06-17T1400,1155A,118.8109,32.0309,南京市,瑞金路,臭氧1小时,68,34,46,22,18,174,,120,120,12,10,7,6,0.3,0.3
2025-06-17T1400,1156A,118.7997,32.0754,南京市,玄武湖,臭氧1小时,80,50,47,10,10,184,,128,128,15,13,4,5,0.1,0.4
2025-06-17T1400,1157A,118.6414,32.0931,南京市,浦口,臭氧1小时,70,45,43,17,15,176,,120,120,14,10,7,4,1.1,0.8
2025-06-17T1400,1158A,118.7356,31.9996,南京市,奥体中心,臭氧1小时,62,41,48,9,18,169,,117,117,7,13,5,8,0.3,0.7
2025-06-17T1400,1159A,118.9125,32.1028,南京市,仙林大学城,臭氧1小时,57,39,54,7,13,165,,125,125,4,11,7,9,0.5,0.7
2025-06-17T1400,3422A,118.8436,31.9198,南京市,江宁彩虹桥,臭氧1小时,85,47,48,14,17,188,,130,130,7,13,4,4,0.5,0.5
2025-06-17T1400,3427A,118.8554,32.3578,南京市,六合雄州,臭氧1小时,109,41,44,23,16,217,,138,138,19,19,7,5,0.8,0.7
2025-06-17T1400,4249A,118.8708,31.3402,南京市,汶溪路181号,,,63,39,56,22,138,,106,106,9,9,1,2,,0.6
2025-06-17T1400,4312A,119.019,31.6512,南京市,中山西路1号,臭氧1小时,52,44,36,25,19,161,,114,114,6,9,3,4,0.4,0.5
2025-06-17T1400,1401A,108.3103,22.7881,南宁市,二十一中,,20,15,21,10,7,64,,49,49,5,12,3,3,0.5,0.6
2025-06-17T1400,1402A,108.3141,22.8528,南宁市,北湖,,22,,20,7,10,69,,52,52,6,14,3,3,0.4,0.5
2025-06-17T1400,1403A,108.3206,22.8225,南宁市,市监测站,,20,,21,11,12,64,,48,48,5,13,3,3,0.5,0.6
2025-06-17T1400,1404A,108.3829,22.8037,南宁市,大自然花园,,22,,19,10,9,70,,55,55,2,9,4,4,0.4,0.5
2025-06-17T1400,1405A,108.4394,22.7904,南宁市,仙葫,,22,8,19,8,10,68,,57,57,3,7,4,6,0.5,0.6
2025-06-17T1400,1406A,108.2397,22.8467,南宁市,区农职院,,,50,25,6,9,69,,51,51,8,17,4,4,,0.8
2025-06-17T1400,1407A,108.3275,22.735,南宁市,英华嘉园,,22,10,21,6,9,68,,53,53,4,10,6,6,0.4,0.4
2025-06-17T1400,3401A,108.4834,22.7618,南宁市,红星社区,,21,,18,3,9,65,,51,51,2,6,1,1,0.5,0.5
2025-06-17T1400,4221A,108.2177,22.7774,南宁市,乐贤路16号,,23,23,24,7,9,56,,46,46,8,23,5,5,0.5,0.5
2025-06-17T1400,2331A,118.0966,26.6761,南平市,茫荡山,,,,,,,,,,,,,,,,
2025-06-17T1400,2332A,118.1681,26.6369,南平市,南平市监测站,,20,12,22,11,9,61,,55,55,3,9,4,5,0.5,0.6
2025-06-17T1400,2333A,118.1825,26.6489,南平市,南平铝业有限公司,,21,15,25,10,10,67,,54,54,3,10,4,4,0.5,0.6
2025-06-17T1400,2334A,118.1756,26.6272,南平市,南平七中,,20,14,22,11,8,64,,55,55,2,7,4,5,0.4,0.5
2025-06-17T1400,1168A,120.9098,31.9663,南通市,狼山街道,臭氧1小时,106,37,40,16,18,212,,155,155,18,26,12,6,1.4,0.9
2025-06-17T1400,1169A,120.86,32.0005,南通市,虹桥,,47,18,42,12,22,150,,124,124,16,35,3,5,0.5,0.8
2025-06-17T1400,1170A,120.87,32.02,南通市,城中,臭氧1小时,69,30,49,14,19,175,,130,130,15,29,8,7,0.5,0.8
2025-06-17T1400,1171A,120.94,31.93,南通市,星湖花园,臭氧1小时,117,56,42,28,22,234,,142,142,18,27,13,7,1.1,0.8
2025-06-17T1400,1172A,120.81,32.0417,南通市,紫琅学院,臭氧1小时,82,29,46,8,15,185,,132,132,10,29,6,8,0.4,0.6
2025-06-17T1400,3291A,121.067,32.062,南通市,通州监测站,臭氧1小时,70,22,40,12,19,176,,132,132,6,20,7,8,0.5,0.7
2025-06-17T1400,3432A,120.9348,31.9883,南通市,环境教育馆,臭氧1小时,87,46,50,14,16,189,,138,138,18,25,8,6,0.5,0.5
2025-06-17T1400,2404A,112.5224,33.0122,南阳市,瓦房庄,臭氧1小时,65,45,53,21,21,172,,123,123,7,18,5,6,0.6,0.5
2025-06-17T1400,2405A,112.5003,32.9735,南阳市,汉画馆,臭氧1小时,80,46,50,14,16,184,,128,128,9,19,6,6,0.5,0.4
2025-06-17T1400,2406A,112.5573,33.027,南阳市,气象站,臭氧1小时,73,38,51,19,19,178,,133,133,4,15,5,6,0.3,0.3
2025-06-17T1400,2407A,112.5481,32.9689,南阳市,理工学院,臭氧1小时,79,42,50,22,22,183,,130,130,8,22,6,6,0.4,0.3
2025-06-17T1400,4008A,112.5234,32.9922,南阳市,卧龙区政府,,,48,50,31,26,186,,98,,8,22,,5,0.6,0.5
2025-06-17T1400,1234A,121.8358,29.911,宁波市,区环保大楼,颗粒物(PM10),58,66,47,16,12,153,,78,78,53,42,10,5,0.5,0.5
2025-06-17T1400,1235A,121.56,29.82,宁波市,万里学院,,44,41,29,27,20,138,,87,87,7,16,3,3,0.4,0.5
2025-06-17T1400,1236A,121.713,29.9572,宁波市,龙赛医院,臭氧1小时,62,44,43,18,9,169,,108,108,14,19,4,4,0.5,0.5
2025-06-17T1400,1239A,121.633,29.7733,宁波市,钱湖水厂,,40,32,27,19,13,126,,93,93,5,9,4,4,0.4,0.4
2025-06-17T1400,1240A,121.5856,29.8635,宁波市,太古小学,,46,39,34,16,13,146,,94,94,6,17,4,4,0.5,0.6
2025-06-17T1400,1241A,121.524,29.8674,宁波市,市环境监测中心,,44,28,27,14,10,138,,99,99,9,17,4,3,0.5,0.5
2025-06-17T1400,2871A,121.6147,29.9017,宁波市,万里国际学校,,47,32,22,18,13,148,,106,106,8,16,3,3,0.4,0.5
2025-06-17T1400,3710A,121.5594,29.8975,宁波市,白沙活动中心,,50,32,24,13,11,160,,111,111,5,16,3,3,0.4,0.4
2025-06-17T1400,2339A,119.5001,26.6946,宁德市,金涵水库,,,,,,,,,,,,,,,,
2025-06-17T1400,2341A,119.5388,26.6612,宁德市,宁德市监测站,,24,13,20,7,12,76,,69,69,6,15,5,5,0.5,0.4
2025-06-17T1400,3209A,119.5231,26.6562,宁德市,宁德一中,,25,16,21,13,7,80,,74,74,4,8,4,4,0.2,0.3
2025-06-17T1400,2618A,98.8601,25.8567,怒江傈僳族自治州,州监测站,,20,14,19,8,13,62,,43,43,7,9,9,9,0.5,0.4
2025-06-17T1400,2619A,98.8546,25.8417,怒江傈僳族自治州,泸水一中,,17,16,17,9,10,52,,30,30,6,10,5,6,0.3,0.4
2025-06-17T1400,1888A,101.6891,26.571,攀枝花市,弄弄坪,,29,29,34,18,15,88,,57,57,13,20,9,9,1.0,1.3
2025-06-17T1400,1889A,101.5769,26.5928,攀枝花市,河门口,,32,16,18,10,9,101,,63,63,9,11,7,6,1.7,1
2025-06-17T1400,1890A,101.7169,26.585,攀枝花市,炳草岗,,,29,32,20,15,83,,51,51,,25,13,11,,1.3
2025-06-17T1400,1891A,101.7369,26.5008,攀枝花市,仁和,,30,25,20,18,13,96,,47,47,8,18,15,18,1.2,2.2
2025-06-17T1400,2835A,101.7227,26.567,攀枝花市,四十中小,,30,18,29,15,16,95,,53,53,8,19,10,12,0.9,1.3
2025-06-17T1400,1604A,122.0303,41.1489,盘锦市,开发区,,47,36,21,20,18,150,,113,113,16,18,11,10,0.4,0.4
2025-06-17T1400,1605A,122.0485,41.0883,盘锦市,兴隆台,,45,25,21,21,13,143,,110,110,16,23,6,5,0.4,0.4
2025-06-17T1400,1606A,121.8297,41.1028,盘锦市,新生街道,,48,21,18,10,14,152,,114,114,8,19,10,11,0.6,0.6
2025-06-17T1400,1832A,113.3257,33.742,平顶山市,新华旅馆,臭氧1小时,83,34,51,3,16,186,,124,124,10,22,7,7,0.5,0.5
2025-06-17T1400,1833A,113.2919,33.737,平顶山市,规划设计院,臭氧1小时,79,41,60,28,25,183,,119,119,11,25,6,9,0.4,0.4
2025-06-17T1400,1834A,113.182,33.774,平顶山市,平顶山工学院,臭氧1小时,77,37,45,29,20,181,,124,124,7,22,2,7,0.4,0.3
2025-06-17T1400,3204A,113.3025,33.73,平顶山市,规划局,臭氧1小时,80,48,50,15,19,184,,118,118,8,21,5,7,0.4,0.4
2025-06-17T1400,3594A,112.8867,33.9116,平顶山市,石龙区,臭氧1小时,84,53,85,21,26,187,,135,135,13,45,8,13,0.6,0.5
2025-06-17T1400,2656A,106.6692,35.5461,平凉市,聚贤嘉苑,颗粒物(PM10),55,59,52,21,21,150,,95,95,7,33,6,5,0.6,0.5
2025-06-17T1400,2657A,106.7021,35.5307,平凉市,博物馆,颗粒物(PM10),51,52,64,18,19,158,,99,99,6,34,11,10,0.6,0.7
2025-06-17T1400,2347A,114.0997,27.5002,萍乡市,武功山,,17,,5,3,4,54,,46,46,2,3,14,13,0.3,0.3
2025-06-17T1400,2348A,113.8385,27.6434,萍乡市,中医院,,31,18,24,8,14,99,,63,63,5,8,12,14,0.9,0.8
2025-06-17T1400,2349A,113.8493,27.6253,萍乡市,市政府车库,,26,13,19,6,15,83,,51,51,4,7,8,9,0.5,0.5
2025-06-17T1400,2350A,113.8676,27.6435,萍乡市,市环保局,,28,,29,14,19,87,,55,55,5,9,9,9,0.8,0.7
2025-06-17T1400,2351A,113.866,27.6198,萍乡市,安源区政府,,23,,28,14,9,73,,44,44,5,7,9,9,0.4,0.5
2025-06-17T1400,2319A,119.0141,25.4325,莆田市,荔城区仓后路,,26,26,30,7,18,61,,43,43,9,14,4,4,0.4,0.5
2025-06-17T1400,2320A,119.0015,25.4553,莆田市,莆田市监测站,,21,19,29,8,16,66,,54,54,7,10,4,3,0.3,0.4
2025-06-17T1400,2321A,119.1119,25.4561,莆田市,涵江区六中,,23,23,32,6,17,67,,43,43,7,23,2,2,0.3,0.5
2025-06-17T1400,2322A,119.1013,25.3215,莆田市,秀屿区政府,,20,12,25,6,17,62,,44,44,8,20,3,6,0.4,0.4
2025-06-17T1400,2323A,118.981,25.4792,莆田市,东圳水库,,,,,,,,,,,,,,,,
2025-06-17T1400,2392A,115.0312,35.7636,濮阳市,环保局,臭氧1小时,82,30,31,13,12,185,,150,150,10,19,6,7,0.5,0.5
2025-06-17T1400,2394A,115.0574,35.7609,濮阳市,油田运输公司,臭氧1小时,87,32,30,15,10,189,,151,151,10,18,5,7,0.5,0.7
2025-06-17T1400,3021A,115,35.7668,濮阳市,濮水河管理处,,,29,31,16,14,179,,52,,12,27,6,5,,0.7
2025-06-17T1400,4216A,115.0924,35.7686,濮阳市,任丘路479号,臭氧1小时,84,41,40,10,10,187,,140,140,8,17,7,8,0.4,0.5
2025-06-17T1400,2601A,100.98,22.7633,普洱市,市环保局,,32,,20,22,16,37,,32,32,3,4,4,4,0.5,0.5
2025-06-17T1400,2602A,100.9817,22.8322,普洱市,普洱第二中学,,14,14,18,7,14,41,,31,31,6,7,6,6,0.5,0.5
2025-06-17T1400,2262A,131.0518,45.8751,七台河市,新一中,,41,,15,8,9,130,,111,111,7,10,9,10,0.9,1
2025-06-17T1400,3345A,131.0577,45.7879,七台河市,中波台,,31,,7,9,7,97,,79,79,8,14,6,7,0.3,0.3
2025-06-17T1400,3637A,131.0176,45.7761,七台河市,人民广场,,33,16,18,12,10,105,,80,80,8,10,11,11,0.5,0.5
2025-06-17T1400,3684A,130.8781,45.8222,七台河市,新建矿广场,,32,17,14,6,9,101,,84,84,9,12,10,9,0.4,0.4
2025-06-17T1400,1779A,123.9305,47.3636,齐齐哈尔市,安居小区,,29,14,17,12,9,90,,69,69,10,11,6,7,0.4,0.5
2025-06-17T1400,1780A,123.9488,47.3386,齐齐哈尔市,中心广场,,31,14,21,3,5,98,,73,73,9,13,6,6,0.3,0.4
2025-06-17T1400,1781A,123.9483,47.3227,齐齐哈尔市,农牧车辆厂,,30,22,22,3,7,94,,70,70,5,8,6,5,0.2,0.1
2025-06-17T1400,1783A,123.945,47.2988,齐齐哈尔市,市环境监测站,,,,15,,5,97,,73,73,6,8,4,3,0.2,0.2
2025-06-17T1400,3662A,123.6333,47.2075,齐齐哈尔市,富区青少年活动中心,,31,15,17,9,10,98,,74,74,5,8,3,3,0.3,0.3
2025-06-17T1400,2591A,107.9783,26.5747,黔东南苗族侗族自治州,市环境监测站,,20,12,18,8,13,63,,56,54,2,4,2,2,0.4,0.4
2025-06-17T1400,2881A,107.8908,26.5311,黔东南苗族侗族自治州,凯里学院,,20,,12,10,12,63,,52,52,2,3,2,2,0.4,0.4
2025-06-17T1400,2593A,107.5228,26.2403,黔南布依族苗族自治州,小围寨,,19,7,8,3,6,60,,51,51,3,4,1,2,0.4,0.4
2025-06-17T1400,3538A,107.5175,26.2978,黔南布依族苗族自治州,沙坝,,20,9,13,3,6,62,,48,48,4,6,4,5,0.2,0.2
2025-06-17T1400,2589A,104.9022,25.0925,黔西南布依族苗族自治州,场坝街,,20,17,20,9,12,64,,54,50,3,4,2,3,0.3,0.3
2025-06-17T1400,2590A,104.8811,25.0992,黔西南布依族苗族自治州,坪东大道,,18,14,21,9,12,57,,49,48,6,7,2,2,0.1,0.1
2025-06-17T1400,2502A,108.6236,21.9667,钦州市,市环保站,,17,6,20,3,7,52,,46,46,9,11,1,2,0.5,0.5
2025-06-17T1400,2503A,108.6549,21.9481,钦州市,沙埠小学,,17,6,27,3,11,53,,42,42,8,12,3,2,0.3,0.3
2025-06-17T1400,2504A,108.5989,21.7431,钦州市,港区一小,,17,17,26,8,10,44,,58,46,10,13,1,1,0.6,0.6
2025-06-17T1400,3404A,108.5959,21.9633,钦州市,北职校,,15,10,25,3,10,46,,41,41,7,9,3,2,0.4,0.4
2025-06-17T1400,1043A,119.7493,40.0116,秦皇岛市,第一关,颗粒物(PM10),51,51,27,11,12,129,,87,87,8,32,6,5,0.3,0.3
2025-06-17T1400,1044A,119.5897,39.9499,秦皇岛市,监测站,,40,29,37,16,10,128,,97,97,10,32,6,8,0.3,0.4
2025-06-17T1400,1046A,119.5251,39.9041,秦皇岛市,建设大厦,,42,26,38,18,12,133,,86,86,7,34,6,6,0.3,0.3
2025-06-17T1400,3132A,119.610547,39.943889,秦皇岛市,文明里,,41,32,42,8,9,130,,87,87,7,32,6,6,0.3,0.3
2025-06-17T1400,4198A,119.5090,39.8253,秦皇岛市,北戴河轮滑馆,臭氧1小时,89,62,33,18,11,191,,108,108,12,15,10,6,0.8,0.5
2025-06-17T1400,1307A,120.6659,36.2403,青岛市,仰口,,50,25,32,17,16,157,,137,137,9,10,7,8,0.6,0.6
2025-06-17T1400,1310A,120.4134,36.0658,青岛市,市南区东部子站,臭氧1小时,93,51,49,17,17,194,,127,127,20,37,12,11,0.5,0.5
2025-06-17T1400,1311A,120.3664,36.1032,青岛市,四方区子站,臭氧1小时,120,36,44,24,19,240,,148,148,16,38,9,11,0.5,0.5
2025-06-17T1400,1312A,120.2994,36.054,青岛市,市南区西部子站,,50,44,45,15,16,157,,111,111,49,50,10,10,0.6,0.5
2025-06-17T1400,1313A,120.4581,36.0858,青岛市,崂山区子站,臭氧1小时,84,48,44,19,14,187,,122,122,26,26,12,10,0.5,0.4
2025-06-17T1400,1315A,120.3999,36.3083,青岛市,城阳区子站,臭氧1小时,118,41,45,20,16,236,,157,157,20,32,8,8,0.4,0.4
2025-06-17T1400,1966A,120.0405,35.8735,青岛市,黄岛区4号,臭氧1小时,80,31,34,7,10,184,,133,133,14,25,11,11,0.7,0.6
2025-06-17T1400,3362A,120.5014,36.4034,青岛市,即墨2号,臭氧1小时,64,31,51,11,18,171,,129,129,9,25,22,16,0.3,0.3
2025-06-17T1400,3642A,120.3503,36.0736,青岛市,市北区南部,臭氧1小时,67,44,42,19,16,173,,118,118,19,35,10,9,0.5,0.5
2025-06-17T1400,3643A,120.3948,36.1805,青岛市,李沧区北部,臭氧1小时,102,41,41,19,17,203,,132,132,19,31,11,10,0.6,0.6
2025-06-17T1400,4290A,120.1969,35.9546,青岛市,珠江路669号,臭氧1小时,82,31,29,12,8,185,,140,140,12,18,9,8,0.3,0.3
2025-06-17T1400,1702A,113.0426,23.691,清远市,环保大楼,,12,12,5,8,5,10,,18,8,24,14,5,5,0.6,0.5
2025-06-17T1400,1703A,113.0208,23.7106,清远市,凤城街办,,17,17,10,10,5,13,,19,13,28,19,5,6,0.6,0.5
2025-06-17T1400,3025A,113.0477,23.6344,清远市,技师学院,,11,8,12,7,8,20,,16,16,22,19,6,7,0.5,0.5
2025-06-17T1400,3318A,112.9903,23.7403,清远市,清新太和,,,11,12,7,7,,,24,20,23,18,7,7,0.5,0.5
2025-06-17T1400,3455A,113.076,23.7198,清远市,清城东城,,16,16,10,10,3,17,,22,16,21,10,7,7,0.7,0.6
2025-06-17T1400,2661A,107.6325,35.7357,庆阳市,庆阳五中,,50,48,52,18,21,157,,149,149,9,10,5,6,0.3,0.3
2025-06-17T1400,2662A,107.6364,35.7067,庆阳市,市环保局,臭氧1小时,54,50,52,18,18,163,,152,152,6,8,7,7,0.6,0.5
2025-06-17T1400,1916A,103.7897,25.5035,曲靖市,环境监测站,,25,,24,9,13,77,,50,50,5,11,2,3,0.5,0.5
2025-06-17T1400,1917A,103.8,25.5364,曲靖市,烟厂办公区,,25,12,21,11,12,78,,51,51,3,7,4,4,0.6,0.6
2025-06-17T1400,3376A,103.7947,25.462,曲靖市,南苑二区,,25,9,19,7,11,79,,51,51,4,8,4,4,0.4,0.5
2025-06-17T1400,3377A,103.7444,25.5261,曲靖市,曲靖师范学院,,25,,18,12,13,80,,52,52,7,11,7,9,0.4,0.5
2025-06-17T1400,1264A,118.8692,28.9398,衢州市,环保大楼,,34,27,41,13,18,108,,77,77,7,12,5,5,0.3,0.4
2025-06-17T1400,1265A,118.8709,28.9666,衢州市,实验学校,,41,26,39,13,17,131,,84,84,6,21,4,4,0.3,0.3
2025-06-17T1400,1266A,118.8621,28.9808,衢州市,衢州学院,,42,27,39,13,18,134,,84,84,8,22,2,3,0.3,0.1
2025-06-17T1400,1611A,118.5819,24.9117,泉州市,涂山街,,23,21,30,16,17,54,,32,32,16,33,2,7,0.6,0.6
2025-06-17T1400,1612A,118.5972,24.8978,泉州市,津头埔,,20,19,27,14,17,46,,35,28,18,30,4,6,0.6,0.6
2025-06-17T1400,1613A,118.6663,24.9424,泉州市,万安,,16,16,27,10,14,46,,30,29,15,24,2,3,0.5,0.6
2025-06-17T1400,1614A,118.6117,24.9604,泉州市,清源山,,,,,,,,,,,,,,,,
2025-06-17T1400,3529A,118.6333,24.9264,泉州市,城华南路,,23,23,24,15,15,51,,33,32,12,25,3,6,0.5,0.5
2025-06-17T1400,2626A,88.8876,29.2718,日喀则市,日喀则监测站,,33,,6,3,3,103,,104,93,4,5,13,12,0.4,0.4
2025-06-17T1400,3726A,88.8781,29.2426,日喀则市,林业技术推广中心,,33,10,8,3,3,103,,104,94,3,3,8,9,0.3,0.2
2025-06-17T1400,1659A,119.471,35.4209,日照市,监测站,臭氧1小时,63,31,25,16,11,170,,116,116,14,25,10,7,0.6,0.5
2025-06-17T1400,1660A,119.523,35.4216,日照市,市政府广场,,45,24,26,7,8,144,,114,114,8,18,8,7,0.6,0.6
2025-06-17T1400,1661A,119.5587,35.4044,日照市,港务局,,47,27,37,13,15,149,,104,104,9,24,7,7,0.6,0.6
2025-06-17T1400,3507A,119.5328,35.4625,日照市,职业技术学院,,47,22,30,3,9,149,,116,116,7,22,7,6,0.5,0.6
2025-06-17T1400,3604A,119.3266,35.1044,日照市,岚山环保分局,臭氧1小时,88,51,53,18,19,190,,136,136,9,27,10,20,0.7,0.9
2025-06-17T1400,1835A,111.1922,34.7752,三门峡市,市政府,,,,42,,19,183,,112,112,6,20,7,6,0.4,0.4
2025-06-17T1400,1836A,111.1587,34.7942,三门峡市,开发区,臭氧1小时,90,40,47,14,19,192,,136,136,12,21,6,8,0.3,0.4
2025-06-17T1400,1838A,111.143,34.7955,三门峡市,风景区,臭氧1小时,95,46,42,13,17,196,,139,139,6,11,11,10,0.3,0.3
2025-06-17T1400,3039A,111.1911,34.7829,三门峡市,三门峡市第一小学,臭氧1小时,78,47,45,21,18,182,,134,134,6,17,10,10,0.5,0.5
2025-06-17T1400,3598A,111.1,34.7167,三门峡市,富达温泉假日酒店,臭氧1小时,89,40,55,18,24,191,,123,123,10,28,10,12,0.2,0.3
2025-06-17T1400,2324A,117.6211,26.2625,三明市,三钢,,18,,31,11,28,55,,45,45,12,19,8,8,1.1,1.3
2025-06-17T1400,2325A,117.635,26.2714,三明市,三明二中,,18,12,28,12,16,52,,45,45,13,16,5,5,0.8,1
2025-06-17T1400,2326A,117.6028,26.2378,三明市,三元区政府,,22,17,31,15,13,56,,47,47,15,16,10,9,0.4,0.5
2025-06-17T1400,2327A,117.7275,26.3108,三明市,洋溪,,,,,,,,,,,,,,,,
2025-06-17T1400,1876A,109.5078,18.2489,三亚市,河东子站,,31,31,23,14,16,54,,55,55,2,3,2,2,0.3,0.3
2025-06-17T1400,1877A,109.4964,18.2681,三亚市,河西子站,,20,17,23,14,15,53,,56,56,4,5,2,2,0.4,0.4
2025-06-17T1400,3540A,109.7348,18.3443,三亚市,君悦子站,,18,16,20,8,12,57,,57,57,3,3,2,2,0.4,0.4
2025-06-17T1400,2624A,91.7608,29.2313,山南市,山南监测站,,25,8,8,3,3,79,,59,59,5,11,8,9,0.3,0.3
2025-06-17T1400,2625A,91.7706,29.2436,山南市,山南人民医院,,26,10,13,10,9,83,,63,63,11,12,6,7,0.3,0.2
2025-06-17T1400,1674A,116.6794,23.3667,汕头市,金平子站,,18,13,11,12,7,28,,33,23,18,11,4,4,0.5,0.5
2025-06-17T1400,1675A,116.7244,23.3633,汕头市,龙湖子站,,,,12,,6,25,,31,20,14,11,5,5,0.5,0.5
2025-06-17T1400,1676A,116.7258,23.2775,汕头市,濠江子站,,20,20,19,6,7,28,,,,8,11,4,4,0.6,0.6
2025-06-17T1400,1677A,116.7519,23.4714,汕头市,澄海子站,,13,,12,9,7,27,,28,20,9,13,2,3,0.5,0.6
2025-06-17T1400,1678A,116.6092,23.2539,汕头市,潮阳子站,,13,13,13,7,6,30,,24,21,13,9,4,4,0.9,0.7
2025-06-17T1400,3444A,116.454,23.2684,汕头市,潮南峡山,,11,11,10,3,2,30,,26,24,9,8,4,4,0.7,0.6
2025-06-17T1400,3624A,116.4069,23.2533,汕头市,潮南子站,,13,11,11,9,8,25,,26,23,13,10,4,4,0.5,0.6
2025-06-17T1400,1693A,115.3653,22.775,汕尾市,市环保局,,17,17,12,3,5,38,,32,30,13,8,2,2,0.5,0.4
2025-06-17T1400,1694A,115.3706,22.7898,汕尾市,市政府,,19,19,10,3,5,30,,31,26,12,7,4,4,0.5,0.5
2025-06-17T1400,1695A,115.3622,22.7925,汕尾市,新城中学,,15,15,14,3,5,33,,41,27,9,7,1,1,0.5,0.6
2025-06-17T1400,2645A,109.9154,33.8715,商洛市,监测站,臭氧1小时,64,46,45,22,20,171,,115,115,9,16,8,8,0.4,0.3
2025-06-17T1400,3045A,109.9643,33.8471,商洛市,商州区中学,臭氧1小时,60,55,51,20,18,168,,110,110,10,20,6,5,0.4,0.3
2025-06-17T1400,2408A,115.6702,34.4285,商丘市,环境监测站,臭氧1小时,85,48,58,20,17,188,,154,154,4,12,3,3,0.2,0.3
2025-06-17T1400,2409A,115.6458,34.4045,商丘市,粮食局,臭氧1小时,82,58,53,21,22,185,,151,151,5,15,2,2,0.3,0.4
2025-06-17T1400,2410A,115.6293,34.3948,商丘市,睢阳区环保局,臭氧1小时,79,52,48,22,20,183,,103,,7,22,2,2,0.2,0.4
2025-06-17T1400,3171A,115.6071,34.4465,商丘市,梁园区档案局,臭氧1小时,74,55,46,18,21,179,,146,146,7,18,4,4,0.3,0.3
2025-06-17T1400,1141A,121.4,31.238,上海市,普陀,臭氧1小时,123,65,48,34,24,245,,140,140,18,21,6,6,0.4,0.4
2025-06-17T1400,1142A,121.478,31.2036,上海市,十五厂,臭氧1小时,122,63,47,34,22,244,,139,139,18,31,8,8,0.5,0.5
2025-06-17T1400,1143A,121.467,31.3008,上海市,虹口,臭氧1小时,107,57,48,29,22,213,,131,131,10,16,9,8,0.6,0.7
2025-06-17T1400,1147A,121.425,31.2261,上海市,静安监测站,臭氧1小时,114,59,46,37,24,228,,127,127,19,22,9,8,0.5,0.4
2025-06-17T1400,1148A,121.703,31.1907,上海市,浦东川沙,臭氧1小时,113,62,46,25,19,226,,130,130,21,22,8,8,0.6,0.6
2025-06-17T1400,1149A,121.533,31.2284,上海市,浦东新区监测站,臭氧1小时,118,59,43,32,19,235,,124,124,10,17,8,9,0.3,0.3
2025-06-17T1400,1150A,121.577,31.2071,上海市,浦东张江,臭氧1小时,109,65,51,33,25,217,,127,127,13,25,6,6,1.2,1.2
