timepoint,stationcode,longitude,latitude,area,positionname,primarypollutant,aqi,pm10,pm10_24h,pm2_5,pm2_5_24h,o3,o3_24h,o3_8h,o3_8h_24h,no2,no2_24h,so2,so2_24h,co,co_24h
2024-12-27T2100,2566A,102.1879,31.914,阿坝藏族羌族自治州,州农科所,,38,38,44,20,19,56,,72,71,19,18,7,9,0.8,0.8
2024-12-27T2100,2568A,102.2502,31.8896,阿坝藏族羌族自治州,马师校,,42,42,18,28,15,24,,65,54,39,26,4,4,0.6,0.4
2024-12-27T2100,3994A,102.2165,31.9024,阿坝藏族羌族自治州,马尔康中学西区,,45,44,28,31,15,28,,71,59,40,23,6,6,0.6,0.5
2024-12-27T2100,2695A,80.292,41.1694,阿克苏地区,电视台,颗粒物(PM10),80,109,78,50,44,53,,71,71,43,31,2,2,1.1,1.1
2024-12-27T2100,2696A,80.2613,41.1551,阿克苏地区,艺术中心,颗粒物(PM10),117,184,78,53,44,28,,74,71,66,30,4,4,0.9,1
2024-12-27T2100,2204A,105.6467,38.8363,阿拉善盟,西城区西花园,,33,,31,23,17,71,,78,73,11,10,8,8,0.6,0.6
2024-12-27T2100,2205A,105.6985,38.8411,阿拉善盟,蒙二幼,,21,20,38,9,8,66,,72,69,12,10,4,4,0.5,0.4
2024-12-27T2100,2206A,105.724,38.8516,阿拉善盟,环保局新楼,,,,21,,8,59,,72,64,15,8,7,7,0.5,0.5
2024-12-27T2100,2708A,88.1264,47.8517,阿勒泰地区,市站,,38,,13,26,11,6,,67,44,69,23,9,9,0.5,0.3
2024-12-27T2100,2630A,80.1161,32.5,阿里地区,阿里监测站,,21,21,18,12,9,59,,67,67,22,15,12,8,0.8,0.7
2024-12-27T2100,3192A,80.0903,32.5028,阿里地区,阿里藏医院,,22,13,14,3,10,68,,73,72,13,16,11,14,0.7,0.8
2024-12-27T2100,2642A,109.0318,32.6537,安康市,香溪洞,,40,38,80,28,70,74,,80,80,14,27,12,12,0.5,0.7
2024-12-27T2100,2644A,109.0072,32.6975,安康市,汉滨区检察院,细颗粒物(PM2.5),68,79,109,49,83,36,,52,52,37,44,6,7,0.8,1
2024-12-27T2100,4054A,109.0325,32.6913,安康市,市邮政管理局,细颗粒物(PM2.5),105,128,115,79,81,11,,41,40,61,45,8,8,1.4,1.1
2024-12-27T2100,2291A,117.0809,30.5177,安庆市,环科院,细颗粒物(PM2.5),78,89,112,57,70,54,,63,61,34,35,8,10,0.7,0.8
2024-12-27T2100,2292A,117.0331,30.5119,安庆市,马山宾馆,细颗粒物(PM2.5),80,94,116,59,69,46,,58,54,28,39,10,11,0.6,0.6
2024-12-27T2100,2294A,116.9896,30.6145,安庆市,安庆大学,细颗粒物(PM2.5),110,103,115,83,75,77,,75,75,33,34,14,13,0.7,0.8
2024-12-27T2100,3173A,117.0598,30.5351,安庆市,市人大,细颗粒物(PM2.5),83,93,110,61,72,45,,60,56,43,39,8,10,0.6,0.8
2024-12-27T2100,3122A,105.9606,26.2611,安顺市,伍家关,,,,,,,,,,,,,,,,
2024-12-27T2100,3123A,105.9408,26.2431,安顺市,凤凰山,细颗粒物(PM2.5),53,37,32,37,31,52,,43,42,17,20,13,19,0.7,0.9
2024-12-27T2100,3124A,105.9439,26.2564,安顺市,金钟山,,42,40,31,29,26,55,,44,44,10,14,16,19,0.9,0.9
2024-12-27T2100,3125A,105.8983,26.2481,安顺市,娄家坡,,48,36,33,33,27,59,,42,42,11,16,18,20,0.7,0.8
2024-12-27T2100,1818A,114.4839,36.0621,安阳市,棉研所,细颗粒物(PM2.5),79,82,99,58,55,24,,50,43,46,41,11,12,0.5,0.7
2024-12-27T2100,1819A,114.3551,36.1017,安阳市,红庙街,细颗粒物(PM2.5),79,91,85,58,49,8,,50,39,57,37,6,9,1.2,0.9
2024-12-27T2100,1820A,114.361,36.0681,安阳市,银杏小区,细颗粒物(PM2.5),83,102,86,61,46,7,,49,36,68,51,6,7,1.4,0.8
2024-12-27T2100,3141A,114.3922,36.0878,安阳市,信访局,颗粒物(PM10),66,82,85,35,43,3,,47,39,64,44,4,7,0.7,0.6
2024-12-27T2100,3669A,114.4705,36.0637,安阳市,左辅环卫站,"颗粒物(PM10),细颗粒物(PM2.5)",74,97,105,54,59,31,,54,48,33,38,7,9,0.6,0.7
2024-12-27T2100,3703A,114.2917,36.0949,安阳市,安钢职工学校,细颗粒物(PM2.5),80,83,97,59,58,9,,46,37,62,47,6,8,1.0,1
2024-12-27T2100,1748A,123.044,41.1196,鞍山市,深沟寺,,46,46,46,16,24,46,,59,54,22,20,17,15,0.8,0.8
2024-12-27T2100,1749A,123.011,41.0931,鞍山市,太阳城,细颗粒物(PM2.5),70,78,50,51,27,21,,58,48,46,29,14,16,1.3,1.1
2024-12-27T2100,1750A,123.0485,41.1442,鞍山市,太平,,49,49,75,21,37,47,,57,51,20,32,13,15,0.6,1
2024-12-27T2100,1751A,122.9642,41.0971,鞍山市,铁西三道街,细颗粒物(PM2.5),128,143,105,97,57,9,,54,34,59,43,11,14,1.4,1.2
2024-12-27T2100,1752A,122.9341,41.0833,鞍山市,铁西工业园区,细颗粒物(PM2.5),180,184,98,136,63,20,,58,41,86,52,24,18,2.2,1.5
2024-12-27T2100,1753A,123.022,41.0821,鞍山市,明达新区,细颗粒物(PM2.5),90,109,54,67,29,18,,56,44,44,24,18,16,1.3,1
2024-12-27T2100,1754A,123.1289,41.0228,鞍山市,千山,,,,39,,19,,,41,,,21,,8,,0.5
2024-12-27T2100,2195A,107.4212,40.761,巴彦淖尔市,附二中,颗粒物(PM10),63,76,81,19,18,61,,64,63,9,13,4,5,0.4,0.4
2024-12-27T2100,2196A,107.37,40.7372,巴彦淖尔市,市环保大楼,颗粒物(PM10),56,61,87,18,18,64,,65,65,5,9,4,4,0.4,0.4
2024-12-27T2100,1956A,86.1472,41.7538,巴音郭楞蒙古自治州,孔雀公园,颗粒物(PM10),89,127,69,23,36,44,,69,68,37,24,4,7,0.7,0.6
2024-12-27T2100,1957A,86.1972,41.7166,巴音郭楞蒙古自治州,棉纺厂,颗粒物(PM10),89,127,84,31,34,51,,66,66,33,42,2,5,0.6,0.7
2024-12-27T2100,1958A,86.2357,41.7173,巴音郭楞蒙古自治州,经济开发区,颗粒物(PM10),84,117,63,37,28,55,,73,68,35,24,3,4,0.6,0.6
2024-12-27T2100,2914A,106.7677,31.8794,巴中市,苏山坪,,26,26,43,16,36,80,,76,76,5,13,3,2,0.1,0.5
2024-12-27T2100,3182A,106.7656,31.8545,巴中市,丽阳花园,细颗粒物(PM2.5),89,99,81,66,61,4,,47,45,66,34,4,4,1.2,0.9
2024-12-27T2100,3183A,106.7418,31.8654,巴中市,圣泉水务公司,细颗粒物(PM2.5),58,63,73,41,55,32,,49,49,50,34,3,3,0.4,0.7
2024-12-27T2100,3616A,106.7616,31.8344,巴中市,市中心医院,细颗粒物(PM2.5),83,92,76,61,69,7,,44,42,58,31,3,3,0.9,0.8
2024-12-27T2100,2235A,122.7911,45.6077,白城市,洮北区环保局,,43,43,28,24,19,56,,64,56,10,14,5,5,0.4,0.4
2024-12-27T2100,2236A,122.8738,45.5725,白城市,市环保局,,44,44,33,18,18,47,,60,42,11,16,3,4,0.4,0.4
2024-12-27T2100,2231A,126.4219,41.9171,白山市,喜丰,颗粒物(PM10),51,51,61,23,28,30,,53,48,33,28,16,17,0.9,0.8
2024-12-27T2100,2232A,126.4077,41.9419,白山市,环保局,细颗粒物(PM2.5),64,62,76,46,35,27,,51,45,28,23,11,10,1.0,1
2024-12-27T2100,2647A,104.1724,36.5446,白银市,第三小学,颗粒物(PM10),51,51,42,33,17,39,,68,55,31,12,16,10,0.7,0.5
2024-12-27T2100,2648A,104.1465,36.5482,白银市,动力公司,颗粒物(PM10),60,70,38,33,19,26,,72,56,48,13,6,4,0.9,0.6
2024-12-27T2100,2512A,106.6103,23.9011,百色市,市监测站,颗粒物(PM10),54,58,58,36,43,31,,54,49,24,22,8,10,1.0,0.9
2024-12-27T2100,2513A,106.6538,23.8859,百色市,市中心血站,细颗粒物(PM2.5),68,84,73,49,57,18,,56,45,49,33,8,11,1.1,1
2024-12-27T2100,3406A,106.6085,23.8798,百色市,祈福高中,颗粒物(PM10),79,108,76,40,45,9,,53,38,43,28,6,9,1.2,1
2024-12-27T2100,2270A,117.396,32.939,蚌埠市,工人疗养院,细颗粒物(PM2.5),100,122,103,75,62,48,,64,64,39,49,9,8,0.7,0.6
2024-12-27T2100,2271A,117.3605,32.9427,蚌埠市,百货大楼,细颗粒物(PM2.5),100,135,106,75,62,40,,65,62,42,45,9,8,0.7,0.7
2024-12-27T2100,2273A,117.4185,32.8911,蚌埠市,蚌埠学院,细颗粒物(PM2.5),93,124,108,69,62,54,,72,71,36,50,10,13,0.6,0.6
2024-12-27T2100,2274A,117.3533,32.9673,蚌埠市,淮上区政府,细颗粒物(PM2.5),113,158,120,85,70,28,,64,59,52,43,11,10,0.7,0.6
2024-12-27T2100,2275A,117.3145,32.8977,蚌埠市,高新区,细颗粒物(PM2.5),114,146,109,86,66,41,,66,61,50,53,10,11,0.7,0.6
2024-12-27T2100,3715A,117.3092,32.9314,蚌埠市,蚌埠田家炳中学,细颗粒物(PM2.5),134,161,119,102,69,31,,64,57,49,45,9,9,0.8,0.7
2024-12-27T2100,1585A,109.8756,40.6532,包头市,市环境监测站,颗粒物(PM10),74,98,40,7,8,13,,66,52,64,16,9,8,0.9,0.5
2024-12-27T2100,1587A,109.9991,40.5842,包头市,包头八中,颗粒物(PM10),125,200,77,51,14,34,,67,51,36,13,9,9,0.8,0.7
2024-12-27T2100,1588A,109.8538,40.6821,包头市,青山宾馆,颗粒物(PM10),72,94,33,28,8,11,,67,50,63,13,9,8,0.6,0.3
2024-12-27T2100,1589A,109.8642,40.6288,包头市,惠龙物流,颗粒物(PM10),119,188,71,31,11,20,,66,47,51,18,16,10,1.2,0.7
2024-12-27T2100,1590A,110.0377,40.5546,包头市,东河鸿龙湾,颗粒物(PM10),107,164,55,27,9,41,,58,55,26,15,9,11,0.6,0.6
2024-12-27T2100,3283A,109.9154,40.5685,包头市,滨河大厦,颗粒物(PM10),127,204,75,38,11,48,,62,58,19,14,5,7,0.5,0.4
2024-12-27T2100,3419A,109.9447,40.6261,包头市,包头市委党校,颗粒物(PM10),84,117,58,18,11,13,,66,50,57,13,12,9,0.9,0.9
2024-12-27T2100,3683A,109.8331,40.6576,包头市,昆区政府,颗粒物(PM10),82,113,50,26,11,37,,67,51,35,17,12,11,0.8,0.6
2024-12-27T2100,1930A,107.185,34.3063,宝鸡市,庙沟村,,35,27,61,24,31,59,,72,70,20,17,6,8,0.4,0.5
2024-12-27T2100,1931A,107.0708,34.3017,宝鸡市,竹园沟,颗粒物(PM10),53,56,74,28,41,48,,76,68,18,19,6,6,0.5,0.5
2024-12-27T2100,1932A,107.1906,34.3672,宝鸡市,三陆医院,细颗粒物(PM2.5),92,81,83,68,50,20,,71,57,48,33,4,5,0.8,0.6
2024-12-27T2100,1933A,107.1431,34.3547,宝鸡市,监测站,细颗粒物(PM2.5),72,84,83,52,44,25,,70,57,43,29,7,7,0.8,0.7
2024-12-27T2100,1934A,107.1186,34.3739,宝鸡市,技工学校,细颗粒物(PM2.5),63,57,80,45,52,47,,70,62,18,24,4,6,0.5,0.5
2024-12-27T2100,1935A,107.3906,34.3528,宝鸡市,陈仓区环保局家属楼,细颗粒物(PM2.5),160,,94,122,53,19,,76,60,60,34,8,12,0.9,0.8
2024-12-27T2100,1936A,107.2058,34.3497,宝鸡市,文理学院,细颗粒物(PM2.5),62,60,77,44,41,25,,75,57,49,27,6,6,0.6,0.5
2024-12-27T2100,1937A,107.2386,34.3622,宝鸡市,三迪小学,"颗粒物(PM10),细颗粒物(PM2.5)",59,68,82,42,46,14,,69,56,63,29,5,6,0.8,0.7
2024-12-27T2100,1051A,115.493,38.8632,保定市,游泳馆,颗粒物(PM10),55,60,65,18,27,21,,64,52,51,43,1,3,0.4,0.3
2024-12-27T2100,1052A,115.5213,38.8959,保定市,华电二区,,44,44,55,18,31,32,,64,54,26,32,1,2,0.2,0.1
2024-12-27T2100,1053A,115.4713,38.9108,保定市,接待中心,,45,45,64,16,28,38,,65,54,25,31,1,2,0.2,0.3
2024-12-27T2100,1054A,115.4612,38.8416,保定市,地表水厂,颗粒物(PM10),70,90,80,27,34,26,,66,52,37,38,3,3,0.2,0.3
2024-12-27T2100,3581A,115.31981,38.95208,保定市,满城区生态环境分局,,34,34,65,3,27,61,,72,67,11,31,3,3,0,0.1
2024-12-27T2100,3582A,115.47694,38.76408,保定市,清苑区第二中学,颗粒物(PM10),55,59,71,16,26,50,,63,58,14,37,2,3,0.3,0.5
2024-12-27T2100,3583A,115.62909,39.02311,保定市,徐水物探局,颗粒物(PM10),53,56,53,12,22,16,,64,45,43,33,1,3,0.3,0.4
2024-12-27T2100,4004A,115.4202,38.8656,保定市,双鹰农机,颗粒物(PM10),56,62,67,27,32,39,,71,58,25,34,3,3,0.0,0.2
2024-12-27T2100,4034A,115.5150,38.8590,保定市,植保所站,颗粒物(PM10),54,58,71,29,35,36,,65,56,28,33,4,4,0.3,0.3
2024-12-27T2100,2594A,99.1678,25.1081,保山市,市环境监测站,,50,45,39,35,30,69,,97,94,13,11,4,4,0.5,0.4
2024-12-27T2100,2595A,99.1711,25.1328,保山市,市环保局,,43,43,43,28,32,87,,102,100,5,8,6,6,0.4,0.4
2024-12-27T2100,1866A,109.2262,21.588,北海市,牛尾岭水库,,,,56,58,68,56,,64,63,,14,5,5,0.7,0.7
2024-12-27T2100,1867A,109.1436,21.4086,北海市,海滩公园,细颗粒物(PM2.5),89,,73,66,64,69,,72,70,17,17,5,6,0.8,0.7
2024-12-27T2100,1868A,109.0981,21.4661,北海市,新市环保局,细颗粒物(PM2.5),113,,66,85,66,74,,72,69,19,19,5,6,1.0,0.9
2024-12-27T2100,1869A,109.1778,21.5233,北海市,北海工业园,细颗粒物(PM2.5),92,,81,68,71,69,,70,70,19,17,9,9,1.0,0.9
2024-12-27T2100,3400A,109.1911,21.4415,北海市,龙潭自来水厂,细颗粒物(PM2.5),88,,72,65,73,61,,67,64,17,17,6,6,1.0,1
2024-12-27T2100,1001A,116.3621,39.8784,北京市,万寿西宫,,17,17,19,3,6,54,,59,56,11,9,2,3,0.2,0.2
2024-12-27T2100,1002A,116.2202,40.2915,北京市,定陵,,16,16,16,3,7,46,,47,47,2,2,1,2,0.2,0.2
2024-12-27T2100,1003A,116.4174,39.9289,北京市,东四,,22,22,21,6,7,56,,58,57,11,10,3,2,0.1,0.1
2024-12-27T2100,1004A,116.4072,39.8863,北京市,天坛,,20,20,21,6,8,63,,66,64,6,5,3,2,0.2,0.2
2024-12-27T2100,1005A,116.462,39.9365,北京市,农展馆,,20,20,19,6,7,62,,65,63,9,9,1,2,0.3,0.4
2024-12-27T2100,1006A,116.3392,39.9295,北京市,官园,,19,19,20,3,6,57,,58,58,7,5,2,4,0.2,0.2
2024-12-27T2100,1007A,116.2878,39.9611,北京市,海淀万柳,,18,18,19,3,6,55,,57,57,9,6,2,3,0.3,0.2
2024-12-27T2100,1008A,116.6636,40.135,北京市,顺义新城,,19,18,19,3,7,58,,63,61,5,6,3,2,0.1,0.2
2024-12-27T2100,1009A,116.6275,40.3275,北京市,怀柔镇,,20,11,11,3,6,62,,67,66,5,3,1,2,0.4,0.4
2024-12-27T2100,1010A,116.2296,40.217,北京市,昌平镇,,27,27,22,9,8,56,,60,60,7,4,1,2,0.2,0.4
2024-12-27T2100,1011A,116.3966,39.9821,北京市,奥体中心,,23,23,22,3,7,57,,60,58,9,12,4,4,0.3,0.3
2024-12-27T2100,1012A,116.184,39.9136,北京市,古城,,20,19,25,3,9,61,,66,64,5,3,5,6,0.2,0.1
2024-12-27T2100,3281A,115.9718,40.4529,北京市,延庆夏都,,19,19,14,3,5,59,,60,60,2,2,1,2,0.1,0.1
2024-12-27T2100,3417A,117.0709,40.1465,北京市,平谷新城,,16,14,14,3,6,49,,59,56,12,6,1,2,0.3,0.2
2024-12-27T2100,3418A,116.8336,40.4095,北京市,密云新城,,17,17,14,8,5,49,,62,59,6,3,1,1,0.2,0.2
2024-12-27T2100,3671A,116.088,39.9726,北京市,门头沟三家店,,18,16,23,3,6,56,,57,55,3,6,4,4,0.2,0.2
2024-12-27T2100,3672A,116.1541,39.8204,北京市,丰台云岗,,18,17,23,3,9,57,,57,57,1,6,2,2,0.2,0.3
2024-12-27T2100,3673A,116.6804,39.9081,北京市,通州东关,,33,33,34,8,9,40,,55,50,17,13,1,2,0.1,0.2
2024-12-27T2100,3674A,115.9577,39.7603,北京市,房山燕山,,20,20,16,11,9,50,,66,60,9,5,4,2,0.2,0.2
2024-12-27T2100,3675A,116.4672,39.7733,北京市,大兴旧宫,,18,18,25,3,7,44,,58,54,12,9,3,2,0.2,0.2
2024-12-27T2100,3694A,115.986,40.4563,北京市,延庆石河营,,19,14,12,3,5,60,,61,61,2,3,3,2,0.2,0.2
2024-12-27T2100,3695A,116.6151,40.3053,北京市,怀柔新城,,20,8,12,3,6,63,,64,64,2,2,3,2,0.1,0.1
2024-12-27T2100,3696A,116.2545,39.8768,北京市,丰台小屯,,18,16,21,3,7,55,,56,55,1,4,3,4,0.2,0.2
2024-12-27T2100,3697A,116.84,40.3844,北京市,密云镇,,30,30,18,14,7,19,,61,54,36,14,3,3,0.3,0.2
2024-12-27T2100,1761A,123.8275,41.3064,本溪市,大峪,,41,41,46,22,21,39,,54,50,23,33,11,11,1.2,1.6
2024-12-27T2100,1762A,123.7567,41.3325,本溪市,溪湖,颗粒物(PM10),63,76,61,42,24,15,,60,46,42,28,12,10,1.1,0.8
2024-12-27T2100,1763A,123.7169,41.3094,本溪市,彩屯,,34,34,52,23,32,39,,59,47,24,25,8,9,0.7,0.7
2024-12-27T2100,1764A,123.7669,41.2864,本溪市,东明,,44,44,56,16,29,53,,61,55,15,30,9,11,0.7,1
2024-12-27T2100,1765A,123.7992,41.2664,本溪市,新立屯,,38,38,42,12,19,13,,60,39,51,38,6,9,0.5,0.9
2024-12-27T2100,1766A,123.8142,41.3472,本溪市,威宁,颗粒物(PM10),78,106,79,56,28,14,,60,44,56,37,6,5,1.2,0.9
2024-12-27T2100,2587A,105.2864,27.3125,毕节市,八中,细颗粒物(PM2.5),52,49,32,36,24,70,,72,71,11,10,7,6,0.6,0.7
2024-12-27T2100,2588A,105.31,27.2944,毕节市,师专,细颗粒物(PM2.5),52,51,28,36,20,69,,68,68,9,11,5,6,0.5,0.6
2024-12-27T2100,3537A,105.3631,27.3533,毕节市,长征村,细颗粒物(PM2.5),59,48,23,42,20,72,,74,72,7,6,7,7,0.5,0.6
2024-12-27T2100,1629A,118.0018,37.3617,滨州市,第二水厂,颗粒物(PM10),59,68,66,19,25,42,,63,59,30,33,9,13,0.5,0.5
2024-12-27T2100,1630A,117.9776,37.393,滨州市,北中新校,颗粒物(PM10),58,66,64,29,28,29,,64,58,43,42,9,13,0.6,0.6
2024-12-27T2100,3514A,117.9378,37.3956,滨州市,中海酒店,颗粒物(PM10),59,68,59,27,30,11,,57,45,54,39,11,12,0.6,0.5
2024-12-27T2100,3515A,117.9378,37.3553,滨州市,开发区一中,颗粒物(PM10),62,73,68,24,28,24,,53,47,53,40,21,16,0.5,0.4
2024-12-27T2100,3516A,118.0917,37.694,滨州市,金海六路,颗粒物(PM10),57,63,73,24,31,13,,59,44,46,38,4,7,0.7,0.8
2024-12-27T2100,4028A,117.9956,37.3753,滨州市,滨州市西街道办事处,颗粒物(PM10),59,68,62,34,32,36,,59,55,31,33,7,9,0.7,0.7
2024-12-27T2100,2311A,115.8072,33.8399,亳州市,污水处理厂,细颗粒物(PM2.5),83,109,125,61,74,38,,53,51,38,44,7,9,0.7,0.8
2024-12-27T2100,2312A,115.7789,33.8518,亳州市,三国揽胜宫,细颗粒物(PM2.5),88,120,138,65,75,45,,58,57,39,48,7,7,0.7,0.8
2024-12-27T2100,3332A,115.7633,33.8034,亳州市,亳州学院,颗粒物(PM10),77,103,118,51,67,52,,58,57,30,41,7,6,0.6,0.7
2024-12-27T2100,2693A,82.0485,44.8556,博尔塔拉蒙古自治州,市党校,细颗粒物(PM2.5),90,80,58,67,50,18,,49,32,44,27,9,9,1.4,1
2024-12-27T2100,2694A,82.0806,44.8969,博尔塔拉蒙古自治州,市环保局,,,79,80,44,43,,,44,40,,28,7,8,1.6,1.2
2024-12-27T2100,1071A,116.8842,38.2991,沧州市,沧县城建局,颗粒物(PM10),55,60,64,27,27,16,,58,48,55,43,5,6,0.9,0.7
2024-12-27T2100,1072A,116.8584,38.3254,沧州市,电视转播站,颗粒物(PM10),56,61,57,27,22,13,,60,49,59,47,4,6,0.5,0.4
2024-12-27T2100,1073A,116.8709,38.3228,沧州市,市环保局,,50,50,51,35,33,24,,59,50,42,38,5,4,0.5,0.4
2024-12-27T2100,3324A,116.8136,38.3004,沧州市,河北水利电力学院,颗粒物(PM10),58,66,58,30,30,10,,57,45,60,37,11,7,0.6,0.4
2024-12-27T2100,2622A,97.1806,31.1273,昌都市,昌都监测站,细颗粒物(PM2.5),64,64,28,46,16,11,,76,66,88,29,9,6,1.9,0.8
2024-12-27T2100,3719A,97.1714,31.1406,昌都市,昌都会议中心,,20,18,10,14,9,52,,80,76,19,8,4,6,1.0,1.1
2024-12-27T2100,2690A,88.1236,43.8886,昌吉回族自治州,天山天池,,24,,1,3,2,76,,79,74,2,2,7,6,0.3,0.4
2024-12-27T2100,2692A,87.2717,44.0297,昌吉回族自治州,新区政务中心,细颗粒物(PM2.5),105,148,133,79,88,12,,56,53,72,52,6,8,1.6,1.4
2024-12-27T2100,3613A,87.3095,44.0142,昌吉回族自治州,亚心广场,细颗粒物(PM2.5),156,144,139,119,114,17,,49,44,82,50,7,7,1.4,1.3
2024-12-27T2100,1119A,125.3325,43.9166,长春市,食品厂,,42,42,37,28,20,20,,47,38,42,24,17,11,0.5,0.3
2024-12-27T2100,1120A,125.2863,43.9027,长春市,客车厂,细颗粒物(PM2.5),58,54,38,41,24,18,,44,32,47,26,20,20,0.5,0.3
2024-12-27T2100,1121A,125.2841,43.8463,长春市,邮电学院,颗粒物(PM10),52,53,37,32,20,12,,49,38,56,25,33,21,0.4,0.3
2024-12-27T2100,1122A,125.3716,43.8772,长春市,劳动公园,,43,40,32,30,17,25,,54,45,45,23,23,13,0.7,0.8
2024-12-27T2100,1123A,125.3297,43.8805,长春市,园林处,,41,41,33,26,17,30,,49,42,33,20,10,10,0.8,0.6
2024-12-27T2100,1124A,125.4605,43.79,长春市,净月潭,细颗粒物(PM2.5),57,56,34,40,18,25,,53,45,30,18,8,8,0.5,0.4
2024-12-27T2100,1125A,125.7194,43.515,长春市,甩湾子,,,,,,,,,,,,,,,,
2024-12-27T2100,1126A,125.3863,43.8447,长春市,经开区环卫处,颗粒物(PM10),54,58,35,31,15,11,,52,37,51,25,29,21,0.5,0.5
2024-12-27T2100,1127A,125.245,43.7783,长春市,高新区管委会,细颗粒物(PM2.5),78,76,38,57,21,10,,51,34,54,23,8,8,0.8,0.4
2024-12-27T2100,1128A,125.1761,43.8325,长春市,岱山公园,细颗粒物(PM2.5),65,59,35,47,26,26,,54,38,34,19,8,7,0.6,0.5
2024-12-27T2100,1335A,113.0833,28.2325,长沙市,经开区环保局,细颗粒物(PM2.5),180,189,176,136,131,96,,72,72,29,42,8,8,0.8,0.8
2024-12-27T2100,1336A,112.8872,28.2189,长沙市,高开区环保局,细颗粒物(PM2.5),175,187,179,132,137,89,,80,80,24,33,10,9,1.0,0.9
2024-12-27T2100,1337A,113.0792,28.2053,长沙市,马坡岭,细颗粒物(PM2.5),189,177,166,142,163,98,,74,74,28,40,8,8,1.0,1
2024-12-27T2100,1338A,112.9394,28.19,长沙市,湖南师范大学,细颗粒物(PM2.5),179,200,181,135,133,85,,79,79,30,37,9,9,1.0,0.9
2024-12-27T2100,1339A,113.0178,28.1322,长沙市,雨花区环保局,细颗粒物(PM2.5),183,179,165,138,130,86,,70,70,33,44,11,11,0.9,0.8
2024-12-27T2100,1340A,112.9792,28.2597,长沙市,伍家岭,细颗粒物(PM2.5),175,191,179,132,135,86,,74,74,33,40,10,8,0.9,0.9
2024-12-27T2100,1341A,113.0014,28.1944,长沙市,火车新站,细颗粒物(PM2.5),185,192,175,139,138,91,,75,75,30,42,10,8,0.9,0.9
2024-12-27T2100,1342A,112.9844,28.1178,长沙市,天心区环保局,,,,183,,135,,,29,,,39,,8,,1.2
2024-12-27T2100,1343A,112.8908,28.1308,长沙市,湖南中医药大学,细颗粒物(PM2.5),204,190,178,154,143,95,,84,84,27,38,11,11,0.4,0.5
2024-12-27T2100,1344A,112.9581,28.3611,长沙市,沙坪,细颗粒物(PM2.5),192,161,156,144,141,88,,76,76,21,33,13,11,1.1,1
2024-12-27T2100,1727A,113.1147,36.1547,长治市,清华站,,22,22,62,3,30,55,,67,64,16,30,10,15,0.4,0.9
2024-12-27T2100,1728A,113.1031,36.1989,长治市,监测站,,30,30,62,9,36,55,,70,66,17,29,7,14,0.4,0.8
2024-12-27T2100,1730A,113.0886,36.2125,长治市,审计局,,28,28,67,3,35,48,,69,62,20,29,8,15,0.4,0.8
2024-12-27T2100,1731A,113.0844,36.1856,长治市,长治八中,,18,16,76,12,46,55,,67,64,16,28,8,15,0.2,0.7
2024-12-27T2100,2845A,113.1569,36.1911,长治市,德盛苑,,31,31,64,7,31,50,,67,62,18,24,6,15,0.6,0.9
2024-12-27T2100,3568A,113.06,36.0464,长治市,向阳小学,,42,42,78,22,41,55,,72,67,19,27,9,14,0.4,0.8
2024-12-27T2100,3569A,112.8792,36.3144,长治市,屯留一中,,28,28,47,3,28,51,,76,68,33,38,7,16,0.5,0.9
2024-12-27T2100,3570A,113.235,36.3489,长治市,潞城四中,,48,48,97,12,41,48,,73,66,27,34,26,25,0.7,1.1
2024-12-27T2100,1854A,111.6975,28.9703,常德市,市二中,细颗粒物(PM2.5),185,177,174,139,149,77,,101,100,21,32,10,8,1.0,1
2024-12-27T2100,1857A,111.7158,29.1456,常德市,白鹤山,,,,,,,,,,,,,,,,
2024-12-27T2100,3138A,111.7153,29.0289,常德市,武陵区永安,细颗粒物(PM2.5),155,175,187,118,150,77,,103,102,18,33,8,8,0.9,1.1
2024-12-27T2100,3139A,111.6892,28.9881,常德市,鼎城区玉霞,细颗粒物(PM2.5),159,178,189,121,148,79,,102,102,17,31,9,9,0.8,1
2024-12-27T2100,3140A,111.6625,29.0531,常德市,武陵区长庚,细颗粒物(PM2.5),142,165,193,108,147,74,,94,94,18,31,6,6,0.8,1
2024-12-27T2100,1196A,119.9633,31.762,常州市,市监测站,细颗粒物(PM2.5),83,97,56,61,36,31,,69,56,68,38,11,10,0.7,0.6
2024-12-27T2100,1200A,119.9468,31.7069,常州市,武进监测站,细颗粒物(PM2.5),94,91,62,70,35,6,,65,44,94,39,8,5,0.8,0.5
2024-12-27T2100,1201A,119.9255,31.9087,常州市,安家,细颗粒物(PM2.5),99,104,61,74,39,10,,61,46,93,47,12,11,0.9,0.7
2024-12-27T2100,3002A,119.9805,31.8174,常州市,行政中心,细颗粒物(PM2.5),87,90,49,64,37,13,,62,42,75,33,9,9,0.7,0.5
2024-12-27T2100,3003A,120.0522,31.7748,常州市,经开区,细颗粒物(PM2.5),80,87,69,59,34,17,,70,51,80,44,15,13,0.9,0.8
2024-12-27T2100,3010A,119.9025,31.7964,常州市,钟楼,细颗粒物(PM2.5),87,89,56,64,36,8,,62,46,84,39,10,10,0.9,0.7
2024-12-27T2100,3429A,119.8598,31.7066,常州市,武进经发区,细颗粒物(PM2.5),107,127,73,80,40,9,,68,52,84,44,7,5,0.8,0.5
2024-12-27T2100,3430A,119.5826,31.7245,常州市,金坛城区,细颗粒物(PM2.5),83,94,71,61,41,30,,76,58,54,34,10,9,0.7,0.6
2024-12-27T2100,2220A,120.4318,41.5881,朝阳市,西梁,,21,21,31,11,10,57,,66,62,6,7,3,6,0.5,0.5
2024-12-27T2100,2221A,120.4521,41.5646,朝阳市,河畔小区,,19,19,29,10,11,54,,64,60,11,11,5,7,0.5,0.5
2024-12-27T2100,2222A,120.4176,41.5648,朝阳市,八里堡,,18,18,39,12,10,51,,62,58,10,10,9,11,0.4,0.3
2024-12-27T2100,2223A,120.3806,41.5969,朝阳市,农业园区,,19,16,30,10,12,58,,75,70,11,7,7,8,0.5,0.5
2024-12-27T2100,1705A,116.6367,23.6719,潮州市,西园路,细颗粒物(PM2.5),123,139,73,93,59,66,,95,88,42,29,10,9,0.4,0.6
2024-12-27T2100,3026A,116.6183,23.6608,潮州市,市政府,细颗粒物(PM2.5),95,118,67,71,49,72,,91,89,34,26,7,8,0.8,0.7
2024-12-27T2100,4036A,116.6461,23.6761,潮州市,金山,细颗粒物(PM2.5),118,118,65,89,55,57,,85,81,41,27,10,10,0.9,0.7
2024-12-27T2100,2472A,113.0073,25.9061,郴州市,马头岭,细颗粒物(PM2.5),124,136,128,94,83,65,,71,71,33,32,13,14,0.9,0.8
2024-12-27T2100,2473A,113.0116,25.8226,郴州市,市职中,细颗粒物(PM2.5),138,116,109,105,96,65,,67,67,27,28,10,10,0.8,0.8
2024-12-27T2100,2474A,113.0161,25.8001,郴州市,兴隆步行街,细颗粒物(PM2.5),143,131,124,109,104,60,,62,62,32,29,10,10,0.8,0.8
2024-12-27T2100,2475A,113.0383,25.8071,郴州市,市审计局,细颗粒物(PM2.5),138,125,113,105,99,66,,64,64,23,23,10,10,0.9,0.8
2024-12-27T2100,2476A,113.0348,25.7759,郴州市,市环保局,细颗粒物(PM2.5),148,132,117,113,106,68,,69,69,29,24,10,10,0.9,0.8
2024-12-27T2100,1431A,103.9728,30.7236,成都市,金泉两河,细颗粒物(PM2.5),87,93,106,64,83,2,,25,11,67,60,3,3,1.0,0.8
2024-12-27T2100,1432A,104.176,30.6872,成都市,十里店,细颗粒物(PM2.5),98,106,108,73,87,10,,20,20,72,63,2,2,0.8,0.7
2024-12-27T2100,1433A,104.079,30.5706,成都市,三瓦窑,细颗粒物(PM2.5),77,88,99,56,77,35,,45,32,42,47,2,1,0.8,0.7
2024-12-27T2100,1434A,104.1114,30.63,成都市,沙河铺,细颗粒物(PM2.5),84,86,103,62,80,25,,35,22,48,46,1,3,0.6,0.7
2024-12-27T2100,1437A,104.0786,30.6531,成都市,君平街,细颗粒物(PM2.5),98,100,103,73,86,19,,28,24,58,51,5,5,0.8,0.7
2024-12-27T2100,1438A,103.613,31.0283,成都市,灵岩寺,,,,,,,,,,,,,,,,
2024-12-27T2100,2880A,104.0239,30.65639,成都市,大石西路,细颗粒物(PM2.5),82,95,104,60,81,7,,26,21,63,48,4,4,0.8,0.7
2024-12-27T2100,3136A,104.2725,30.5589,成都市,龙泉驿区区政府,细颗粒物(PM2.5),89,92,95,66,74,20,,69,25,40,33,2,2,1.0,0.8
2024-12-27T2100,3357A,104.0106,30.6931,成都市,金博路,细颗粒物(PM2.5),84,98,101,62,74,3,,24,10,64,57,1,1,0.7,0.7
2024-12-27T2100,3359A,104.0578,30.5225,成都市,华阳,细颗粒物(PM2.5),98,102,99,73,76,7,,41,22,67,47,3,2,1.1,0.7
2024-12-27T2100,3487A,104.2394,30.5319,成都市,车城东七路,细颗粒物(PM2.5),92,98,93,68,73,5,,56,15,67,44,2,2,1.1,0.9
2024-12-27T2100,3488A,104.3853,30.7453,成都市,青白江技师分院,细颗粒物(PM2.5),87,86,90,64,78,9,,40,39,63,40,4,3,0.8,0.8
2024-12-27T2100,3489A,104.0789,30.4072,成都市,科学城,细颗粒物(PM2.5),94,93,86,70,71,4,,20,20,63,49,4,4,0.9,0.8
2024-12-27T2100,4011A,103.8506,30.6947,成都市,光华大道三段,细颗粒物(PM2.5),107,126,115,80,88,1,,20,11,59,52,2,2,1.1,0.9
2024-12-27T2100,1062A,117.9531,40.9081,承德市,铁路,,25,25,23,3,6,59,,65,64,6,5,4,5,0.2,0.2
2024-12-27T2100,1063A,117.9392,40.9763,承德市,中国银行,,,,29,,7,,,62,62,22,7,1,2,0.4,0.3
2024-12-27T2100,1064A,117.9503,40.928,承德市,开发区,,31,31,31,10,13,64,,70,70,4,5,3,4,0.3,0.3
2024-12-27T2100,1065A,117.8051,40.9655,承德市,文化中心,,36,36,26,3,4,65,,69,68,5,5,2,3,0.2,0.2
2024-12-27T2100,1066A,117.9268,41.0026,承德市,离宫,,,,21,,26,,,56,,,6,,4,,0.2
2024-12-27T2100,2314A,117.47,30.6618,池州市,池州学院,细颗粒物(PM2.5),95,124,118,71,78,60,,58,58,28,44,8,12,0.5,0.7
2024-12-27T2100,3237A,117.4918,30.6617,池州市,展览馆,细颗粒物(PM2.5),93,115,116,69,77,51,,52,52,32,45,8,10,0.7,0.8
2024-12-27T2100,3333A,117.5627,30.695,池州市,第八中学,细颗粒物(PM2.5),102,132,118,76,78,53,,54,54,36,46,8,8,0.6,0.7
2024-12-27T2100,3334A,117.5038,30.6243,池州市,第十二中学,颗粒物(PM10),75,99,110,46,66,48,,56,54,38,38,7,7,0.5,0.6
2024-12-27T2100,1744A,118.9233,42.2816,赤峰市,松山一中,,17,17,24,6,7,54,,61,58,14,12,10,9,0.5,0.6
2024-12-27T2100,1745A,118.9576,42.2728,赤峰市,哈达街,,,22,20,3,12,,,45,41,22,20,5,6,0.6,0.6
2024-12-27T2100,1746A,118.8788,42.2554,赤峰市,天义路,,18,18,23,10,9,44,,56,51,21,14,10,8,0.6,0.5
2024-12-27T2100,3058A,119.2658,42.0353,赤峰市,银河街,,19,19,19,12,10,54,,58,54,11,14,14,14,0.4,0.5
2024-12-27T2100,3286A,118.9359,42.3147,赤峰市,桥北物流园区,,23,23,17,9,10,53,,60,56,18,17,11,9,0.6,0.6
2024-12-27T2100,2521A,107.3476,22.4136,崇左市,市环保局江州分局,细颗粒物(PM2.5),68,68,77,49,53,24,,64,32,20,17,4,7,0.9,0.8
2024-12-27T2100,2522A,107.3702,22.3707,崇左市,城南新区,细颗粒物(PM2.5),64,49,69,46,61,41,,64,49,15,18,4,6,0.8,0.8
2024-12-27T2100,2298A,118.3093,32.3153,滁州市,老年大学,细颗粒物(PM2.5),100,114,73,75,42,60,,74,71,36,44,10,7,0.7,0.7
2024-12-27T2100,2299A,118.3244,32.2786,滁州市,人大宾馆,细颗粒物(PM2.5),115,128,73,87,40,62,,77,73,27,34,12,11,0.7,0.6
2024-12-27T2100,3207A,118.3118,32.3038,滁州市,市政府原办公楼,细颗粒物(PM2.5),103,115,68,77,43,61,,72,67,35,41,9,8,0.9,0.7
2024-12-27T2100,3331A,118.3267,32.2634,滁州市,图书馆,细颗粒物(PM2.5),102,100,71,76,32,63,,78,73,32,36,10,8,0.6,0.8
2024-12-27T2100,2605A,101.5482,25.0441,楚雄彝族自治州,州环境监测站,,46,34,35,32,32,76,,86,84,8,22,5,7,0.5,0.5
2024-12-27T2100,2606A,101.538,25.0492,楚雄彝族自治州,市经济开发区,,48,44,41,33,34,70,,83,80,13,19,6,7,0.7,0.6
2024-12-27T2100,2548A,107.5277,31.2827,达州市,达州职业技术学院,细颗粒物(PM2.5),114,108,101,86,91,9,,46,44,42,21,6,6,0.8,0.7
2024-12-27T2100,2549A,107.5086,31.2186,达州市,市环境监测站,细颗粒物(PM2.5),79,93,103,58,76,10,,42,41,73,36,8,7,1.1,1.1
2024-12-27T2100,2550A,107.4988,31.2132,达州市,凤凰小区,细颗粒物(PM2.5),89,88,100,66,79,10,,41,40,72,36,9,9,1.1,1.1
2024-12-27T2100,2551A,107.5082,31.1986,达州市,达县机关宾馆,细颗粒物(PM2.5),95,97,97,71,77,5,,35,33,69,39,8,7,1.2,1.2
2024-12-27T2100,2552A,107.4644,31.2124,达州市,市政中心,细颗粒物(PM2.5),85,100,116,63,83,6,,36,35,84,45,9,14,1.2,1.6
2024-12-27T2100,2614A,100.1542,25.7054,大理白族自治州,大理市环境监测站,,40,31,30,28,26,102,,101,101,10,8,7,7,0.7,0.7
2024-12-27T2100,2615A,100.2171,25.5811,大理白族自治州,大理古城,,43,32,34,30,25,73,,96,91,30,15,5,6,0.8,0.8
2024-12-27T2100,1109A,121.612,38.9741,大连市,甘井子,,24,24,33,10,15,70,,65,65,13,26,7,10,0.6,0.7
2024-12-27T2100,1110A,121.565,38.9511,大连市,周水子,,28,28,27,12,15,65,,62,62,18,26,8,9,0.4,0.6
2024-12-27T2100,1111A,121.5637,38.8845,大连市,星海三站,,23,22,25,9,13,71,,68,68,6,19,10,12,0.7,0.6
2024-12-27T2100,1112A,121.6302,38.9117,大连市,青泥洼桥,,26,26,29,13,14,56,,55,54,13,19,13,13,0.4,0.4
2024-12-27T2100,1113A,121.6251,38.8638,大连市,傅家庄,,24,24,23,12,11,61,,62,62,13,15,19,17,0.5,0.5
2024-12-27T2100,1114A,121.5213,38.8661,大连市,七贤岭,,24,18,23,9,12,74,,71,71,6,14,11,12,0.5,0.6
2024-12-27T2100,1115A,121.2529,38.8061,大连市,旅顺,,21,12,15,10,10,66,,70,70,14,13,12,12,0.5,0.5
2024-12-27T2100,1116A,121.7485,39.1311,大连市,金州,,47,47,33,30,19,51,,63,58,16,14,7,9,0.7,0.6
2024-12-27T2100,1117A,121.7811,39.0496,大连市,开发区,,46,,28,32,19,44,,62,56,28,25,11,11,0.7,0.5
2024-12-27T2100,1118A,121.9762,39.0631,大连市,双D港,,27,27,28,17,13,63,,73,67,10,11,10,11,0.5,0.5
2024-12-27T2100,1789A,124.81117,46.03138,大庆市,大同区,颗粒物(PM10),64,77,46,45,30,33,,50,42,31,20,16,6,0.8,0.6
2024-12-27T2100,1790A,125.129,46.533,大庆市,龙凤区,,45,39,45,31,32,26,,52,45,54,30,12,16,0.7,0.6
2024-12-27T2100,1791A,124.902,46.408,大庆市,红岗区,,41,41,28,25,17,39,,54,47,25,20,7,6,0.5,0.4
2024-12-27T2100,1792A,125.153,46.586,大庆市,萨尔图区,细颗粒物(PM2.5),59,50,34,42,25,44,,54,43,36,32,11,8,0.5,0.6
2024-12-27T2100,1793A,124.9042,46.6215,大庆市,让胡路区,细颗粒物(PM2.5),54,51,37,38,29,33,,57,51,47,20,6,8,0.7,0.6
2024-12-27T2100,3481A,125.141,46.634,大庆市,萨区政府监测点,,37,37,32,12,14,35,,55,45,42,28,8,6,0.7,0.5
2024-12-27T2100,1721A,113.3819,40.1097,大同市,果树场,颗粒物(PM10),55,59,36,14,13,26,,66,49,53,24,12,9,0.7,0.4
2024-12-27T2100,1723A,113.2994,40.0758,大同市,云冈宾馆,颗粒物(PM10),57,64,26,15,10,59,,69,66,14,14,10,10,0.6,0.6
2024-12-27T2100,1724A,113.3444,40.0917,大同市,大同大学,颗粒物(PM10),55,60,28,11,9,51,,66,61,15,16,11,12,0.5,0.5
2024-12-27T2100,1725A,113.2661,40.1269,大同市,安家小村,颗粒物(PM10),61,71,32,14,9,45,,66,61,21,13,17,14,0.6,0.6
2024-12-27T2100,1726A,113.2711,40.0844,大同市,教育学院,颗粒物(PM10),62,74,37,12,10,51,,62,57,21,23,8,9,0.5,0.5
2024-12-27T2100,3282A,113.3397,40.0597,大同市,大同市卫生学校,颗粒物(PM10),70,90,33,13,10,47,,63,58,21,15,9,7,0.4,0.4
2024-12-27T2100,3565A,113.1367,40.1122,大同市,云冈站,颗粒物(PM10),61,72,39,9,11,58,,66,62,13,20,10,14,0.4,0.4
2024-12-27T2100,3566A,113.1186,40.2556,大同市,图书馆,,,89,18,,9,55,,67,63,13,7,9,8,0.4,0.3
2024-12-27T2100,3567A,113.5931,40.0461,大同市,区一中,颗粒物(PM10),60,69,36,3,8,32,,61,52,38,18,11,9,0.5,0.4
2024-12-27T2100,3676A,113.2802,40.0995,大同市,第二人民医院,颗粒物(PM10),60,70,38,14,11,54,,66,61,17,19,12,12,0.7,0.7
2024-12-27T2100,2269A,124.1069,50.4097,大兴安岭地区,科技局,,26,19,16,18,14,65,,72,71,5,4,5,5,0.4,0.4
2024-12-27T2100,3663A,124.1164,50.4278,大兴安岭地区,红旗社区,,20,,9,6,5,64,,68,66,4,7,3,3,0.3,0.3
2024-12-27T2100,1600A,124.3303,40.0625,丹东市,江湾东路,细颗粒物(PM2.5),94,85,59,70,36,24,,62,51,39,25,17,18,1.5,1.3
2024-12-27T2100,1601A,124.4256,40.1503,丹东市,临江后街,,47,47,52,30,35,32,,61,55,35,32,10,16,0.8,1
2024-12-27T2100,1602A,124.3933,40.1461,丹东市,元宝山,,30,30,45,20,25,47,,56,51,14,21,14,11,0.5,0.8
2024-12-27T2100,1603A,124.3633,40.1092,丹东市,民主桥,细颗粒物(PM2.5),60,56,54,43,29,13,,57,45,51,36,10,11,1.4,1.1
2024-12-27T2100,3541A,109.5726,19.5167,儋州市,第一中学子站,细颗粒物(PM2.5),58,60,68,41,43,85,,71,71,14,15,5,6,0.7,0.7
2024-12-27T2100,3542A,109.5567,19.5187,儋州市,东坡学校子站,细颗粒物(PM2.5),63,66,67,45,45,92,,78,78,13,13,4,6,0.8,0.8
2024-12-27T2100,2616A,98.5842,24.428,德宏傣族景颇族自治州,德宏州监测站,,,,66,,44,,,44,,,26,,10,,0.8
2024-12-27T2100,3677A,98.5881,24.4368,德宏傣族景颇族自治州,芒市人民政府综合楼,"颗粒物(PM10),细颗粒物(PM2.5)",59,67,59,42,41,60,,93,91,18,16,6,7,0.6,0.8
2024-12-27T2100,1901A,104.4239,31.1208,德阳市,东山公园,细颗粒物(PM2.5),87,91,94,64,82,26,,68,64,64,29,2,2,0.8,0.7
2024-12-27T2100,1902A,104.3826,31.1317,德阳市,西小区,细颗粒物(PM2.5),153,120,103,117,86,6,,54,46,70,36,3,2,1.1,0.9
2024-12-27T2100,1904A,104.3553,31.1091,德阳市,耐火材料厂,细颗粒物(PM2.5),129,128,100,98,89,9,,48,40,62,41,4,4,0.9,0.8
2024-12-27T2100,3639A,104.4019,31.1244,德阳市,市教育局,细颗粒物(PM2.5),102,101,95,76,85,5,,52,42,80,39,4,2,1.5,1.1
2024-12-27T2100,1622A,116.3032,37.4674,德州市,儿童乐园,颗粒物(PM10),64,78,70,19,27,26,,53,48,44,40,9,9,0.7,0.7
2024-12-27T2100,1624A,116.2991,37.4451,德州市,监理站,颗粒物(PM10),60,70,60,3,25,53,,61,60,21,39,11,11,0.6,0.7
2024-12-27T2100,3066A,116.2721,37.4379,德州市,九衢泉纯净水厂,颗粒物(PM10),62,73,78,17,36,42,,56,54,28,48,18,14,0.4,0.6
2024-12-27T2100,3371A,116.3728,37.4403,德州市,开发区人民医院,,,70,66,17,25,46,,58,57,26,45,,11,0.5,0.5
2024-12-27T2100,3372A,116.3572,37.4094,德州市,太阳城中学,颗粒物(PM10),63,75,69,9,30,57,,63,62,18,40,8,10,0.5,0.6
2024-12-27T2100,3511A,116.5652,37.3319,德州市,陵城艺术中心,颗粒物(PM10),67,83,93,19,44,28,,50,44,38,41,11,12,0.8,1
2024-12-27T2100,2621A,99.7056,27.8317,迪庆藏族自治州,迪庆州站,,30,26,27,21,20,85,,94,92,14,12,8,7,0.6,0.6
2024-12-27T2100,3180A,99.7136,27.8094,迪庆藏族自治州,质量技术监督局,,25,19,26,17,16,79,,87,86,9,14,8,8,0.5,0.6
2024-12-27T2100,2663A,104.6241,35.5734,定西市,东关小学,细颗粒物(PM2.5),97,109,68,72,36,11,,56,46,53,20,29,11,1.3,0.7
2024-12-27T2100,2664A,104.6194,35.5934,定西市,供电公司,颗粒物(PM10),69,88,57,45,23,23,,67,59,48,21,17,8,1.2,1.1
2024-12-27T2100,1389A,113.7547,23.0494,东莞市,莞城梨川,细颗粒物(PM2.5),62,71,63,44,41,75,,119,,31,32,7,8,0.8,0.8
2024-12-27T2100,1390A,113.7944,23.0128,东莞市,东城石井,颗粒物(PM10),56,61,60,35,39,73,,115,105,27,33,8,8,1.0,0.9
2024-12-27T2100,1391A,113.7383,22.9658,东莞市,南城西平,颗粒物(PM10),56,61,64,36,39,73,,120,110,34,50,5,6,0.8,0.8
2024-12-27T2100,3319A,113.7338,23.0381,东莞市,万江金泰,细颗粒物(PM2.5),57,62,61,40,41,72,,109,100,25,29,9,10,0.7,0.7
2024-12-27T2100,3626A,113.7533,23.0202,东莞市,南城元岭,颗粒物(PM10),56,62,56,38,40,78,,122,111,26,28,8,9,0.9,0.9
2024-12-27T2100,3627A,113.7875,23.0457,东莞市,东城主山,颗粒物(PM10),55,59,66,37,43,68,,101,89,31,32,9,10,0.7,0.7
2024-12-27T2100,1666A,118.6614,37.4309,东营市,市环保局,颗粒物(PM10),56,61,62,19,21,41,,63,56,29,36,20,14,0.5,0.5
2024-12-27T2100,3036A,118.6904,37.4338,东营市,开发区管委会,颗粒物(PM10),53,56,68,17,21,42,,62,55,34,42,19,12,0.4,0.5
2024-12-27T2100,3365A,118.5719,37.565,东营市,垦利区民丰路,颗粒物(PM10),53,56,61,12,18,25,,60,52,43,35,26,18,0.4,0.5
2024-12-27T2100,3498A,118.5055,37.8612,东营市,河口城区,,48,48,58,10,16,50,,68,64,12,19,3,5,0.7,0.6
2024-12-27T2100,3646A,118.4978,37.4623,东营市,胜利站,,,86,73,51,27,41,,58,51,,44,,16,0.7,0.9
2024-12-27T2100,3734A,118.35,37.26,东营市,理想之城,颗粒物(PM10),53,56,73,17,25,44,,61,54,24,38,10,12,0.9,0.9
2024-12-27T2100,1591A,110.0023,39.8129,鄂尔多斯市,综合楼,颗粒物(PM10),58,66,49,14,4,67,,73,70,10,12,4,3,0.4,0.2
2024-12-27T2100,1592A,109.9486,39.8261,鄂尔多斯市,巴音孟克林场办事处,颗粒物(PM10),54,58,47,9,8,63,,72,69,10,10,6,6,0.4,0.4
2024-12-27T2100,1593A,109.7736,39.5986,鄂尔多斯市,康泽苑,,44,44,32,9,8,60,,64,64,6,6,5,5,0.3,0.3
2024-12-27T2100,1594A,109.8119,39.5989,鄂尔多斯市,华泰汽车城,,41,41,32,9,10,62,,70,68,7,4,5,6,0.4,0.3
2024-12-27T2100,1595A,109.9734,39.7884,鄂尔多斯市,奥林花园,颗粒物(PM10),57,63,48,9,5,63,,70,66,10,11,5,5,0.5,0.4
2024-12-27T2100,2436A,114.8938,30.3994,鄂州市,市政府,细颗粒物(PM2.5),128,134,169,97,137,53,,72,70,37,58,12,10,1.2,1.4
2024-12-27T2100,2437A,114.8989,30.3714,鄂州市,赵家坝,细颗粒物(PM2.5),123,134,169,93,130,61,,78,76,35,58,11,10,0.9,1.3
2024-12-27T2100,3654A,114.8094,30.4089,鄂州市,精准医疗中心,细颗粒物(PM2.5),128,120,165,97,135,59,,85,79,31,50,11,12,0.8,1.1
2024-12-27T2100,2454A,109.4978,30.2981,恩施土家族苗族自治州,湖北民院,细颗粒物(PM2.5),132,,91,100,113,38,,52,50,15,18,7,7,0.8,0.9
2024-12-27T2100,2455A,109.4707,30.2798,恩施土家族苗族自治州,州电力总公司,细颗粒物(PM2.5),129,114,115,98,102,19,,45,42,48,29,7,7,1.3,1.1
2024-12-27T2100,3549A,109.5061,30.3772,恩施土家族苗族自治州,龙凤新区,细颗粒物(PM2.5),118,107,114,89,91,28,,44,43,24,19,5,6,1.0,1
2024-12-27T2100,2499A,108.3411,21.6158,防城港市,沙万,细颗粒物(PM2.5),73,,52,53,49,68,,76,70,18,17,6,6,1.0,0.9
2024-12-27T2100,2500A,108.3514,21.7731,防城港市,防城档案局,细颗粒物(PM2.5),84,72,70,62,54,66,,68,61,22,23,5,5,0.8,0.8
2024-12-27T2100,2501A,108.3506,21.6414,防城港市,大海花园,细颗粒物(PM2.5),83,,55,61,53,72,,77,71,14,15,4,5,0.8,0.8
2024-12-27T2100,1371A,113.1294,23.0067,佛山市,湾梁,颗粒物(PM10),70,90,89,49,49,67,,103,96,40,42,9,10,1.0,1
2024-12-27T2100,1372A,113.1083,23.0478,佛山市,华材职中,细颗粒物(PM2.5),99,102,95,74,71,67,,105,95,45,49,9,11,0.8,0.8
2024-12-27T2100,1373A,113.144,23.0453,佛山市,南海气象局,细颗粒物(PM2.5),72,78,77,52,53,65,,101,94,39,40,12,11,0.8,0.8
2024-12-27T2100,1374A,113.2881,22.8094,佛山市,顺德苏岗,"颗粒物(PM10),细颗粒物(PM2.5)",67,84,74,48,48,61,,110,100,36,40,9,10,0.9,0.9
2024-12-27T2100,1376A,112.8383,22.8678,佛山市,高明孔堂,细颗粒物(PM2.5),93,90,83,69,63,71,,115,104,24,20,10,11,0.8,0.8
2024-12-27T2100,1377A,112.8836,23.1588,佛山市,三水监测站,细颗粒物(PM2.5),100,90,86,75,72,79,,103,96,25,30,7,9,0.9,0.9
2024-12-27T2100,1378A,112.867,23.185,佛山市,三水云东海,细颗粒物(PM2.5),97,83,73,72,64,80,,110,100,31,33,12,12,0.8,0.9
2024-12-27T2100,3625A,113.2544,22.7642,佛山市,容桂街道办,细颗粒物(PM2.5),73,80,80,53,52,66,,114,103,36,41,10,9,0.8,0.8
2024-12-27T2100,1280A,119.3903,26.0543,福州市,鼓山,,,,47,,45,,,103,,,16,,3,,0.6
2024-12-27T2100,1282A,119.2681,26.0504,福州市,师大,细颗粒物(PM2.5),70,69,58,51,54,86,,105,97,34,23,5,5,0.5,0.6
2024-12-27T2100,1283A,119.2984,26.1028,福州市,五四北路,细颗粒物(PM2.5),73,66,53,53,54,83,,98,92,32,27,2,2,0.7,0.7
2024-12-27T2100,1284A,119.2648,26.0768,福州市,杨桥西路,细颗粒物(PM2.5),73,72,60,53,56,83,,105,96,30,18,2,3,0.7,0.7
2024-12-27T2100,1285A,119.317,26.0746,福州市,紫阳,细颗粒物(PM2.5),75,81,59,55,53,67,,91,80,42,27,4,5,0.7,0.7
2024-12-27T2100,3048A,119.5799,26.0936,福州市,九龙,细颗粒物(PM2.5),59,56,55,42,50,91,,105,104,19,20,2,3,0.5,0.6
2024-12-27T2100,3526A,119.5189,25.9664,福州市,吴航,细颗粒物(PM2.5),67,72,75,48,54,93,,106,104,25,24,3,4,0.5,0.5
2024-12-27T2100,1755A,123.7977,41.8491,抚顺市,望花区,颗粒物(PM10),69,87,66,44,30,13,,55,44,58,36,9,4,1.3,1
2024-12-27T2100,1756A,123.9161,41.8822,抚顺市,顺城区,细颗粒物(PM2.5),97,121,77,72,39,17,,56,41,53,37,9,7,1.8,1.1
2024-12-27T2100,1757A,124.0436,41.8611,抚顺市,东洲区,颗粒物(PM10),67,84,80,43,34,22,,56,45,45,33,15,8,1.3,0.9
2024-12-27T2100,1758A,123.9247,41.8642,抚顺市,新抚区,细颗粒物(PM2.5),69,78,102,50,50,15,,56,46,50,33,6,5,1.0,0.8
2024-12-27T2100,1759A,124.0972,41.8961,抚顺市,大伙房水库,颗粒物(PM10),65,80,69,42,40,10,,54,39,57,37,10,9,0.8,0.7
2024-12-27T2100,1760A,123.7086,41.8391,抚顺市,沈抚新城,细颗粒物(PM2.5),60,60,57,43,25,14,,61,46,52,31,10,6,1.0,0.7
2024-12-27T2100,2376A,116.2127,28.0814,抚州市,桐源党溪,颗粒物(PM10),79,107,114,57,82,67,,72,72,2,8,5,5,0.4,0.6
2024-12-27T2100,2377A,116.3544,27.9831,抚州市,市站,细颗粒物(PM2.5),98,106,111,73,82,69,,68,68,24,27,7,7,1.3,1.5
2024-12-27T2100,2378A,116.3565,27.963,抚州市,血防站,细颗粒物(PM2.5),99,111,116,74,81,65,,68,67,22,23,18,19,0.8,1
2024-12-27T2100,2379A,116.3564,28.0007,抚州市,采茶剧团,,,,107,,85,58,,56,55,21,23,3,4,1.2,1.4
2024-12-27T2100,2380A,116.385,27.9647,抚州市,医学分院,细颗粒物(PM2.5),92,107,113,68,77,53,,58,57,28,28,7,9,1.0,1.2
2024-12-27T2100,2207A,121.6094,41.998,阜新市,工业园区,颗粒物(PM10),76,101,49,17,16,45,,72,61,24,14,14,8,0.5,0.5
2024-12-27T2100,2208A,121.6697,42.0279,阜新市,长青街,,37,37,35,14,15,49,,64,55,12,9,6,7,0.7,0.6
2024-12-27T2100,2209A,121.6673,42.0705,阜新市,农业园区,,42,42,27,9,6,47,,61,56,12,5,8,9,0.7,0.6
2024-12-27T2100,2210A,121.6717,42.0224,阜新市,东苑,颗粒物(PM10),53,56,47,10,8,50,,62,56,10,8,2,3,0.5,0.5
2024-12-27T2100,2211A,121.6506,42.0498,阜新市,玉龙新城,颗粒物(PM10),53,55,44,16,12,38,,70,56,25,13,5,6,0.7,0.3
2024-12-27T2100,2301A,115.8277,32.8929,阜阳市,市监测站,细颗粒物(PM2.5),139,152,148,106,118,27,,58,54,54,50,10,9,0.8,0.8
2024-12-27T2100,2303A,115.8554,32.8605,阜阳市,开发区,细颗粒物(PM2.5),113,169,178,85,107,31,,64,60,48,45,11,11,0.8,0.8
2024-12-27T2100,2875A,115.784,32.8892,阜阳市,阜阳职业技术学院,细颗粒物(PM2.5),132,154,150,100,108,14,,62,54,61,44,10,10,1.0,1
2024-12-27T2100,3468A,115.7901,32.8613,阜阳市,市规划展馆,细颗粒物(PM2.5),117,141,151,88,105,30,,62,59,47,37,10,10,0.8,0.8
2024-12-27T2100,3469A,115.836,32.9183,阜阳市,枣园社区,颗粒物(PM10),97,144,165,60,108,35,,65,62,44,47,9,8,0.7,0.8
2024-12-27T2100,2669A,102.9099,34.9841,甘南藏族自治州,州政府,颗粒物(PM10),54,58,71,31,36,49,,77,75,28,24,9,8,0.9,0.9
2024-12-27T2100,3380A,102.8914,34.9617,甘南藏族自治州,甘肃民族师范学院,颗粒物(PM10),88,126,79,28,23,10,,75,68,71,36,6,7,0.7,0.7
2024-12-27T2100,2570A,101.9603,30.0475,甘孜藏族自治州,水桥子,,15,11,24,10,12,46,,59,58,13,32,2,2,0.5,0.7
2024-12-27T2100,3065A,101.9533,29.9972,甘孜藏族自治州,州环保局,,24,24,26,9,7,59,,65,65,13,18,4,4,0.6,0.5
2024-12-27T2100,3414A,115.8347,28.932,赣江新区,桑海产业园,细颗粒物(PM2.5),147,173,136,112,94,48,,76,73,46,35,16,13,1.0,0.9
2024-12-27T2100,2362A,114.9017,25.9149,赣州市,通天岩,细颗粒物(PM2.5),112,89,69,84,61,94,,96,96,16,11,7,7,0.6,0.5
2024-12-27T2100,2363A,114.9367,25.8664,赣州市,地委,细颗粒物(PM2.5),82,91,80,60,50,86,,88,87,21,21,18,10,1.1,1.1
2024-12-27T2100,2364A,114.9461,25.8481,赣州市,气象台,颗粒物(PM10),77,104,88,53,46,95,,101,101,46,41,15,15,0.9,0.9
2024-12-27T2100,2365A,114.9322,25.8333,赣州市,市图书馆,细颗粒物(PM2.5),80,89,77,59,46,81,,87,87,28,26,8,8,0.9,0.9
2024-12-27T2100,2366A,114.8905,25.8471,赣州市,华坚鞋城,细颗粒物(PM2.5),79,89,75,58,49,87,,91,91,19,18,10,10,0.7,0.7
2024-12-27T2100,3109A,115.0093,25.8613,赣州市,赣县区卫计委,细颗粒物(PM2.5),132,125,99,100,76,80,,86,86,21,21,7,8,0.6,0.5
2024-12-27T2100,2683A,106.2319,36.1417,固原市,马园,细颗粒物(PM2.5),92,72,32,68,21,15,,65,51,53,20,12,7,0.7,0.7
2024-12-27T2100,2684A,106.2792,36.0022,固原市,监测站,细颗粒物(PM2.5),102,81,45,76,18,26,,70,62,51,18,16,6,1.6,0.6
2024-12-27T2100,2685A,106.2375,36.0211,固原市,新区,颗粒物(PM10),60,70,43,39,15,6,,66,52,69,22,6,7,1.2,0.6
2024-12-27T2100,3522A,106.2177,35.9959,固原市,原州区十五小,细颗粒物(PM2.5),83,101,49,61,20,22,,68,56,48,19,13,5,1.5,0.6
2024-12-27T2100,2543A,106.6308,30.5278,广安市,小平旧居,,,,,,,,,,,,,,,,
2024-12-27T2100,2544A,106.6303,30.4576,广安市,市委,细颗粒物(PM2.5),114,110,104,86,96,20,,62,55,54,29,2,2,1.4,1.1
2024-12-27T2100,2545A,106.6271,30.4663,广安市,友谊中学,细颗粒物(PM2.5),124,104,107,94,92,7,,64,55,67,31,2,2,1.2,1
2024-12-27T2100,2547A,106.6388,30.4551,广安市,广电花园,细颗粒物(PM2.5),125,113,100,95,91,5,,57,46,66,32,4,8,1.3,0.9
2024-12-27T2100,2902A,106.6351,30.4865,广安市,北辰小学,细颗粒物(PM2.5),104,89,103,78,92,28,,65,61,36,25,5,5,1.0,1
2024-12-27T2100,2523A,105.8945,32.4535,广元市,黑石坡,,42,38,56,29,39,74,,76,76,2,9,3,3,0.2,0.5
2024-12-27T2100,2524A,105.821,32.4444,广元市,老城,颗粒物(PM10),59,68,72,32,36,5,,76,58,74,40,1,3,0.6,0.8
2024-12-27T2100,2526A,105.8628,32.4287,广元市,监测站,颗粒物(PM10),57,64,63,33,40,35,,84,74,44,30,2,3,0.6,0.9
2024-12-27T2100,3617A,105.8047,32.4166,广元市,经开区,颗粒物(PM10),59,67,71,37,47,6,,76,63,67,36,5,6,0.8,0.8
2024-12-27T2100,1345A,113.2347,23.1423,广州市,广雅中学,细颗粒物(PM2.5),87,100,93,64,60,70,,98,89,37,48,12,12,0.9,1
2024-12-27T2100,1346A,113.2612,23.105,广州市,市五中,细颗粒物(PM2.5),95,94,85,71,65,77,,108,100,28,43,8,7,0.9,0.9
2024-12-27T2100,1348A,113.3478,23.0916,广州市,广东商学院,细颗粒物(PM2.5),77,89,72,56,48,71,,111,101,34,33,8,8,0.8,0.7
2024-12-27T2100,1349A,113.4332,23.1047,广州市,市八十六中,细颗粒物(PM2.5),69,84,72,50,45,84,,108,103,24,38,7,7,0.6,0.6
2024-12-27T2100,1350A,113.3505,22.9483,广州市,番禺中学,细颗粒物(PM2.5),72,80,77,52,49,71,,118,110,39,43,6,7,0.6,0.6
2024-12-27T2100,1351A,113.2146,23.3916,广州市,花都师范,细颗粒物(PM2.5),85,90,78,63,58,79,,101,96,26,22,11,11,0.8,0.7
2024-12-27T2100,1352A,113.2597,23.1331,广州市,市监测站,细颗粒物(PM2.5),80,86,82,59,53,70,,101,92,35,50,10,9,0.7,0.7
2024-12-27T2100,1353A,113.5618,23.312,广州市,九龙镇镇龙,细颗粒物(PM2.5),63,72,63,45,41,92,,103,101,19,27,8,8,0.8,0.8
2024-12-27T2100,1354A,113.2765,23.1544,广州市,麓湖,细颗粒物(PM2.5),88,97,79,65,53,73,,109,99,33,46,8,6,0.8,0.7
2024-12-27T2100,1355A,113.443,23.3035,广州市,帽峰山森林公园,颗粒物(PM10),56,61,52,35,40,97,,113,109,16,18,11,10,0.6,0.5
2024-12-27T2100,2846A,113.3221,23.1322,广州市,体育西,细颗粒物(PM2.5),89,100,80,66,52,63,,100,91,29,32,8,8,0.8,0.8
2024-12-27T2100,3298A,113.5717,23.5491,广州市,从化街口,细颗粒物(PM2.5),68,70,64,49,45,97,,106,104,17,28,9,10,0.7,0.7
2024-12-27T2100,3299A,113.3472,23.3692,广州市,白云竹料,细颗粒物(PM2.5),75,76,66,55,47,90,,112,103,19,21,11,10,0.8,0.9
2024-12-27T2100,3300A,113.2981,23.237,广州市,白云嘉禾,细颗粒物(PM2.5),88,110,91,65,54,65,,101,89,40,46,10,11,1.1,1.1
2024-12-27T2100,3301A,113.4256,23.1716,广州市,黄埔科学城,细颗粒物(PM2.5),70,75,63,51,44,92,,114,110,18,22,11,10,1.0,0.9
2024-12-27T2100,3302A,113.3942,23.0483,广州市,番禺大学城,细颗粒物(PM2.5),63,69,67,45,42,82,,114,107,32,42,16,15,1.0,1
2024-12-27T2100,3303A,113.4922,22.8168,广州市,南沙黄阁,颗粒物(PM10),65,79,78,44,48,71,,111,103,31,37,6,8,0.7,0.7
2024-12-27T2100,3304A,113.5342,22.7896,广州市,南沙街,细颗粒物(PM2.5),69,85,75,50,46,72,,124,118,34,48,7,10,0.6,0.8
2024-12-27T2100,3443A,113.2902,23.5544,广州市,花都梯面,,,78,77,62,59,,,98,97,15,20,12,13,0.9,1
2024-12-27T2100,3445A,113.7858,23.7478,广州市,从化良口,,46,46,51,30,40,102,,105,103,9,13,7,7,0.7,0.7
2024-12-27T2100,3446A,113.8051,23.2614,广州市,增城荔城,细颗粒物(PM2.5),54,48,49,38,38,95,,110,106,16,18,5,6,0.6,0.6
2024-12-27T2100,2505A,109.568,23.1478,贵港市,德智高中,,,,,,,,,,,,,,,,
2024-12-27T2100,2506A,109.6047,23.0666,贵港市,江南子站,细颗粒物(PM2.5),113,95,103,85,85,46,,84,72,27,24,7,9,0.8,0.7
2024-12-27T2100,2507A,109.6014,23.0948,贵港市,贵城子站,细颗粒物(PM2.5),90,112,96,67,80,31,,78,65,36,27,8,10,1.0,0.9
2024-12-27T2100,2508A,109.5669,23.1065,贵港市,荷城子站,细颗粒物(PM2.5),100,80,102,75,80,42,,77,66,30,25,12,13,1.0,0.8
2024-12-27T2100,3405A,109.5886,23.1172,贵港市,新世纪学校,细颗粒物(PM2.5),105,85,111,79,84,43,,81,70,28,24,7,8,1.0,0.9
2024-12-27T2100,1439A,106.6899,26.5998,贵阳市,马鞍山,细颗粒物(PM2.5),62,48,39,44,31,32,,39,36,19,19,6,6,0.7,0.6
2024-12-27T2100,1440A,106.6971,26.5694,贵阳市,市环保站,细颗粒物(PM2.5),80,63,49,59,43,30,,41,38,37,25,10,8,0.7,0.6
2024-12-27T2100,1441A,106.6243,26.6266,贵阳市,鉴湖路,细颗粒物(PM2.5),83,78,42,61,34,35,,43,43,18,15,6,5,0.7,0.7
2024-12-27T2100,1442A,106.7487,26.6343,贵阳市,燕子冲,细颗粒物(PM2.5),67,,39,48,38,34,,39,39,20,19,9,9,0.7,0.6
2024-12-27T2100,1443A,106.6555,26.4365,贵阳市,碧云窝,细颗粒物(PM2.5),64,58,49,46,33,37,,37,35,27,26,14,12,0.7,0.7
2024-12-27T2100,1444A,106.694,26.5161,贵阳市,中院村,细颗粒物(PM2.5),64,66,48,46,37,36,,37,37,28,24,20,14,0.9,0.8
2024-12-27T2100,1445A,106.7109,26.6027,贵阳市,红边门,细颗粒物(PM2.5),83,61,47,61,41,36,,38,38,27,26,20,13,0.9,1
2024-12-27T2100,1446A,106.7164,26.5699,贵阳市,新华路,细颗粒物(PM2.5),67,61,44,48,35,37,,41,40,23,19,8,5,0.9,0.7
2024-12-27T2100,1447A,106.674,26.5424,贵阳市,太慈桥,细颗粒物(PM2.5),64,53,40,46,32,44,,43,42,19,21,12,9,0.7,0.6
2024-12-27T2100,1552A,106.805,26.3003,贵阳市,桐木岭,,,,,,,,,,,,,,,,
2024-12-27T2100,1862A,110.4144,25.3167,桂林市,电子科大尧山校区,细颗粒物(PM2.5),64,65,61,46,49,99,,102,102,16,15,8,8,0.6,0.6
2024-12-27T2100,1863A,110.2819,25.2697,桂林市,监测站,细颗粒物(PM2.5),80,74,77,59,65,95,,89,89,24,24,11,12,0.8,0.8
2024-12-27T2100,1864A,110.3089,25.2708,桂林市,龙隐路小学,细颗粒物(PM2.5),85,72,72,63,70,104,,101,101,22,22,14,13,0.6,0.6
2024-12-27T2100,1865A,110.2869,25.2178,桂林市,八中,细颗粒物(PM2.5),84,64,72,62,69,99,,114,113,20,21,12,11,0.8,0.8
2024-12-27T2100,3403A,110.1764,25.2381,桂林市,创业大厦,细颗粒物(PM2.5),85,90,88,63,68,101,,95,95,23,25,10,11,0.7,0.7
2024-12-27T2100,3531A,110.296,25.1253,桂林市,旅游学院,细颗粒物(PM2.5),79,70,75,58,63,106,,102,102,20,22,10,10,0.7,0.7
2024-12-27T2100,2674A,100.2561,34.4714,果洛藏族自治州,玛沁县大武镇,,49,49,72,14,16,85,,89,89,2,4,5,6,0.4,0.4
2024-12-27T2100,1129A,126.5422,45.755,哈尔滨市,岭北,,50,40,39,35,34,47,,62,55,27,31,10,10,0.6,0.6
2024-12-27T2100,1130A,126.561,45.8167,哈尔滨市,松北商大,颗粒物(PM10),52,54,41,32,26,36,,56,50,32,28,4,4,0.7,0.6
2024-12-27T2100,1131A,126.979,45.5419,哈尔滨市,阿城会宁,细颗粒物(PM2.5),85,70,58,63,44,21,,53,44,43,28,8,6,1.0,0.9
2024-12-27T2100,1132A,126.599,45.7222,哈尔滨市,南岗学府路,细颗粒物(PM2.5),57,62,49,40,32,36,,52,48,36,30,8,8,0.7,0.6
2024-12-27T2100,1133A,126.689,45.7733,哈尔滨市,太平宏伟公园,,38,36,31,26,23,27,,50,39,41,26,7,7,0.4,0.6
2024-12-27T2100,1134A,126.635,45.7667,哈尔滨市,道外承德广场,细颗粒物(PM2.5),63,62,47,45,26,15,,54,40,55,30,9,8,0.8,0.6
2024-12-27T2100,1135A,126.685,45.7319,哈尔滨市,香坊红旗大街,细颗粒物(PM2.5),83,70,38,61,34,16,,49,42,52,31,7,13,0.9,0.6
2024-12-27T2100,1136A,126.6411,45.7258,哈尔滨市,动力和平路,"颗粒物(PM10),细颗粒物(PM2.5)",53,55,42,37,30,25,,46,40,39,31,10,10,0.7,0.6
2024-12-27T2100,1137A,126.593,45.7478,哈尔滨市,道里建国路,细颗粒物(PM2.5),72,52,42,52,34,17,,51,40,52,32,8,5,0.7,0.4
2024-12-27T2100,1138A,126.615,45.61,哈尔滨市,平房东轻厂,细颗粒物(PM2.5),52,48,47,36,32,16,,49,30,51,42,14,20,0.6,0.6
2024-12-27T2100,1139A,126.595,45.9855,哈尔滨市,呼兰师专,细颗粒物(PM2.5),80,66,53,59,43,27,,52,41,41,32,11,6,0.8,0.7
2024-12-27T2100,1140A,126.6206,45.6842,哈尔滨市,省农科院,细颗粒物(PM2.5),65,66,57,47,46,29,,50,40,34,39,7,9,0.8,0.8
2024-12-27T2100,2688A,93.5128,42.8172,哈密市,地区监测站,细颗粒物(PM2.5),57,61,62,40,36,28,,53,48,39,36,3,4,0.6,0.7
2024-12-27T2100,2689A,93.4961,42.8328,哈密市,哈密师范学校,颗粒物(PM10),68,85,57,33,33,16,,50,46,52,42,4,6,0.9,0.9
2024-12-27T2100,2671A,100.9048,36.9639,海北藏族自治州,海晏县西海镇,,22,19,36,9,16,68,,86,85,13,10,7,11,0.4,0.5
2024-12-27T2100,3867A,102.0738,36.5056,海东市,平安区公安北苑,颗粒物(PM10),75,100,72,46,36,48,,73,67,38,21,24,13,0.7,0.6
2024-12-27T2100,1409A,110.576,19.9507,海口市,东寨港,,49,44,47,34,37,92,,94,94,8,7,11,10,0.6,0.6
2024-12-27T2100,1410A,110.3232,20.0574,海口市,海南大学,细颗粒物(PM2.5),74,73,72,54,51,106,,110,110,21,20,6,9,0.6,0.7
2024-12-27T2100,1411A,110.283,20.0053,海口市,秀英海南医院,细颗粒物(PM2.5),77,78,69,56,50,109,,106,106,18,22,4,7,0.6,0.6
2024-12-27T2100,1412A,110.338,19.9969,海口市,海南师范大学,细颗粒物(PM2.5),69,70,69,50,49,111,,111,111,17,16,6,8,0.6,0.7
2024-12-27T2100,1413A,110.33,20.0356,海口市,龙华路环保局宿舍,细颗粒物(PM2.5),69,66,66,50,49,110,,109,109,18,19,6,8,0.6,0.7
2024-12-27T2100,3539A,110.5111,19.9736,海口市,桂林洋子站,细颗粒物(PM2.5),59,56,58,42,42,107,,110,110,14,14,5,7,0.5,0.5
2024-12-27T2100,2673A,100.6188,36.2866,海南藏族自治州,共和县恰卜恰镇,,33,33,27,3,6,35,,93,82,48,10,9,5,0.7,0.4
2024-12-27T2100,2676A,97.3731,37.3753,海西蒙古族藏族自治州,德令哈市,,,30,27,14,14,,,89,88,7,14,15,16,0.5,0.6
2024-12-27T2100,1048A,114.5302,36.6116,邯郸市,东污水处理厂,颗粒物(PM10),55,60,66,17,35,17,,49,39,56,50,3,6,0.6,0.7
2024-12-27T2100,1049A,114.4918,36.5713,邯郸市,矿院,颗粒物(PM10),57,64,80,17,35,3,,42,30,65,51,3,5,0.9,0.8
2024-12-27T2100,1050A,114.484,36.6133,邯郸市,丛台公园,颗粒物(PM10),68,85,72,22,34,11,,46,36,58,43,2,4,0.6,0.6
2024-12-27T2100,3458A,114.7895,36.5593,邯郸市,香泉濮院小区,颗粒物(PM10),53,55,70,13,32,44,,60,58,26,31,4,7,0.4,0.6
2024-12-27T2100,3579A,114.50634,36.77178,邯郸市,永年区实验高中,颗粒物(PM10),51,52,89,20,33,28,,46,43,25,32,5,8,0.4,0.6
2024-12-27T2100,3580A,114.20016,36.44293,邯郸市,峰峰矿区临水派出所,颗粒物(PM10),63,76,81,38,39,36,,54,49,32,33,10,14,0.7,0.8
2024-12-27T2100,2634A,106.9893,33.1842,汉中市,汉川机床厂子校,,28,20,44,11,33,88,,91,91,2,7,6,6,0.5,0.7
2024-12-27T2100,2635A,107.0154,33.0706,汉中市,市监测站,细颗粒物(PM2.5),79,80,96,58,74,39,,79,74,53,45,8,9,1.0,1.2
2024-12-27T2100,2636A,107.0089,33.1138,汉中市,鑫源开发区,,49,38,88,34,66,57,,83,81,30,36,6,8,0.5,1
2024-12-27T2100,2637A,107.007,33.0323,汉中市,南郑大河坎水厂,细颗粒物(PM2.5),100,105,122,75,92,36,,84,75,45,33,7,8,1.3,1.5
2024-12-27T2100,1223A,120.2072,30.2111,杭州市,滨江,颗粒物(PM10),55,59,80,29,51,50,,63,60,42,40,7,7,0.5,0.6
2024-12-27T2100,1224A,120.0633,30.2747,杭州市,西溪,,48,48,77,29,54,47,,64,61,47,46,8,9,0.6,0.7
2024-12-27T2100,1226A,120.3461,30.3153,杭州市,下沙,颗粒物(PM10),64,77,78,41,50,38,,73,66,70,52,9,8,0.8,0.7
2024-12-27T2100,1227A,120.1269,30.2456,杭州市,卧龙桥,,44,44,70,27,49,49,,65,60,46,45,8,8,0.6,0.7
2024-12-27T2100,1228A,120.1903,30.2692,杭州市,浙江农大,颗粒物(PM10),53,55,75,25,46,38,,60,58,53,41,8,8,0.7,0.7
2024-12-27T2100,1230A,120.1197,30.3119,杭州市,和睦小学,,49,49,69,32,53,43,,60,58,54,49,8,8,0.7,0.7
2024-12-27T2100,1231A,120.3019,30.4183,杭州市,临平镇,颗粒物(PM10),63,76,72,36,39,56,,79,75,37,29,9,8,0.7,0.7
2024-12-27T2100,1232A,120.2697,30.1819,杭州市,城厢镇,颗粒物(PM10),53,55,83,31,53,52,,68,64,40,41,7,7,1.0,1
2024-12-27T2100,1233A,120.0883,30.1808,杭州市,云栖,,42,42,85,19,48,35,,70,58,50,46,6,8,0.5,0.6
2024-12-27T2100,3557A,119.9464,30.0494,杭州市,镇二中,,45,42,72,31,62,48,,66,60,37,35,7,8,0.7,0.8
2024-12-27T2100,3558A,119.7183,30.2367,杭州市,市府大楼,细颗粒物(PM2.5),52,50,82,36,65,53,,76,69,52,52,8,9,0.8,0.8
2024-12-27T2100,3656A,120.1556,30.2864,杭州市,消防大队,颗粒物(PM10),54,57,80,32,54,46,,63,61,48,40,10,10,0.5,0.6
2024-12-27T2100,1270A,117.1959,31.7848,合肥市,明珠广场,细颗粒物(PM2.5),149,163,106,114,61,53,,52,52,40,47,12,11,0.9,0.9
2024-12-27T2100,1271A,117.3072,31.8764,合肥市,三里街,细颗粒物(PM2.5),144,171,97,110,54,50,,56,55,43,46,8,8,0.9,0.8
2024-12-27T2100,1272A,117.2588,31.8707,合肥市,琥珀山庄,细颗粒物(PM2.5),132,163,98,100,55,50,,58,58,48,45,8,8,1.2,1.1
2024-12-27T2100,1273A,117.1604,31.9052,合肥市,董铺水库,细颗粒物(PM2.5),104,143,105,78,50,47,,59,58,37,38,6,6,0.8,0.6
2024-12-27T2100,1274A,117.25,31.8571,合肥市,长江中路,细颗粒物(PM2.5),145,151,97,111,59,38,,51,50,51,44,8,9,0.7,0.6
2024-12-27T2100,1275A,117.266,31.9436,合肥市,庐阳区,细颗粒物(PM2.5),125,168,101,95,48,44,,64,60,47,46,5,6,0.9,0.8
2024-12-27T2100,1276A,117.336,31.8586,合肥市,瑶海区,细颗粒物(PM2.5),143,171,97,109,53,49,,53,53,52,47,7,7,0.8,0.7
2024-12-27T2100,1277A,117.3027,31.7964,合肥市,包河区,细颗粒物(PM2.5),144,168,106,110,59,48,,49,48,49,62,6,7,0.7,0.6
2024-12-27T2100,1278A,117.2776,31.7385,合肥市,滨湖新区,细颗粒物(PM2.5),128,183,104,97,48,54,,50,50,40,43,10,9,0.8,0.7
2024-12-27T2100,1279A,117.1318,31.8403,合肥市,高新区,细颗粒物(PM2.5),145,163,100,111,58,43,,58,56,50,51,3,3,1.0,0.9
2024-12-27T2100,3464A,117.3803,31.9147,合肥市,高教基地,细颗粒物(PM2.5),158,161,91,120,47,49,,61,58,47,42,10,10,0.8,0.6
2024-12-27T2100,3614A,79.924,37.0877,和田地区,地区环保局,颗粒物(PM10),112,174,114,68,52,40,,59,58,31,19,12,12,1.0,0.9
2024-12-27T2100,3615A,79.9131,37.113,和田地区,市环保局,颗粒物(PM10),81,112,70,55,45,44,,60,58,40,28,11,11,1.1,1.2
2024-12-27T2100,2516A,108.2011,24.715,河池市,东仁乐园,细颗粒物(PM2.5),108,123,76,81,58,21,,67,54,59,24,13,12,1.0,0.7
2024-12-27T2100,2517A,108.0497,24.6947,河池市,市环保站,细颗粒物(PM2.5),80,74,63,59,53,29,,74,64,35,13,8,8,0.9,0.7
2024-12-27T2100,2518A,108.0983,24.6989,河池市,市疾控中心,细颗粒物(PM2.5),112,110,69,84,59,28,,77,59,48,19,7,8,1.0,0.8
2024-12-27T2100,1696A,114.6778,23.7569,河源市,源西,细颗粒物(PM2.5),69,62,57,50,49,92,,108,105,6,7,8,7,0.8,0.8
2024-12-27T2100,1697A,114.6944,23.7586,河源市,东埔,细颗粒物(PM2.5),75,,59,55,54,97,,116,113,21,23,7,7,0.8,0.8
2024-12-27T2100,1698A,114.6892,23.7233,河源市,老城,细颗粒物(PM2.5),78,66,64,57,54,91,,108,105,20,24,7,6,0.6,0.7
2024-12-27T2100,1718A,115.4208,35.2464,菏泽市,气象局,细颗粒物(PM2.5),100,135,105,75,49,17,,61,51,66,46,9,8,0.9,0.7
2024-12-27T2100,1719A,115.4747,35.2375,菏泽市,市政协,颗粒物(PM10),88,125,100,47,47,26,,59,51,53,46,9,9,0.8,0.8
2024-12-27T2100,3374A,115.5564,35.0891,菏泽市,定陶老年大学,细颗粒物(PM2.5),92,117,94,68,44,18,,60,47,64,48,12,13,1.0,0.7
2024-12-27T2100,3647A,115.4702,35.2706,菏泽市,菏泽医专,,,122,99,56,44,38,,63,58,41,45,13,13,,0.9
2024-12-27T2100,2514A,111.5264,24.4172,贺州市,环保小区,细颗粒物(PM2.5),110,103,112,83,99,67,,81,78,28,24,9,9,0.8,0.9
2024-12-27T2100,2515A,111.5608,24.4078,贺州市,政协大楼,细颗粒物(PM2.5),90,110,106,67,78,71,,84,81,27,24,13,10,0.8,0.9
2024-12-27T2100,3534A,111.4744,24.4553,贺州市,西湾,细颗粒物(PM2.5),104,97,117,78,92,85,,88,88,18,21,9,10,0.8,0.8
2024-12-27T2100,2385A,114.17,35.9019,鹤壁市,市监测站,颗粒物(PM10),77,104,104,53,58,27,,48,37,40,40,8,7,0.2,0.6
2024-12-27T2100,2386A,114.2956,35.7511,鹤壁市,市交警支队,细颗粒物(PM2.5),95,117,91,71,44,0,,49,35,70,44,6,7,1.3,0.8
2024-12-27T2100,2387A,114.2878,35.7306,鹤壁市,迎宾馆,细颗粒物(PM2.5),95,130,92,71,39,2,,52,39,66,41,7,8,1.0,0.7
2024-12-27T2100,3474A,114.2617,35.6822,鹤壁市,大新区,细颗粒物(PM2.5),100,102,88,75,44,4,,47,35,66,46,7,9,0.8,0.7
2024-12-27T2100,3596A,114.1572,35.9603,鹤壁市,南山宾馆,,48,48,96,29,64,58,,51,48,2,22,3,6,0.0,0.7
2024-12-27T2100,2244A,130.2537,47.3416,鹤岗市,哈啤分公司,,23,21,22,16,18,57,,60,58,4,4,14,14,0.8,0.8
2024-12-27T2100,2245A,130.2684,47.3086,鹤岗市,斯达机电,,22,21,19,15,17,59,,62,61,5,4,12,12,0.5,0.4
2024-12-27T2100,2246A,130.3114,47.3388,鹤岗市,东山纸板厂,,25,,21,17,15,60,,61,60,5,7,13,13,0.3,0.5
2024-12-27T2100,2247A,130.1097,47.3382,鹤岗市,五号水库,,28,28,21,19,11,57,,79,71,15,8,4,5,0.1,0.1
2024-12-27T2100,2263A,127.4833,50.2524,黑河市,交通局,,32,30,21,22,18,44,,68,46,18,12,6,6,0.6,0.5
2024-12-27T2100,2264A,127.5144,50.2341,黑河市,环保局,细颗粒物(PM2.5),70,75,27,51,21,20,,70,35,38,15,5,4,1.0,0.5
2024-12-27T2100,2265A,127.5291,50.2472,黑河市,大黑河岛,,,,,,,,,,,,,,,,
2024-12-27T2100,1074A,115.6838,37.7541,衡水市,电机北厂,颗粒物(PM10),61,71,78,14,30,54,,62,62,11,32,5,10,0.3,0.5
2024-12-27T2100,1075A,115.6303,37.7316,衡水市,市监测站,颗粒物(PM10),56,61,72,23,28,45,,50,50,19,40,10,12,0.3,0.5
2024-12-27T2100,3188A,115.6683,37.7217,衡水市,市城管局,颗粒物(PM10),63,76,72,29,30,54,,62,62,9,31,5,8,0.3,0.5
2024-12-27T2100,3459A,115.5989,37.5491,衡水市,地表水厂,,,76,61,8,34,54,,64,63,,39,4,12,0.3,0.5
2024-12-27T2100,2456A,112.5003,26.9167,衡阳市,原169医院,细颗粒物(PM2.5),142,121,89,108,82,66,,58,58,30,32,18,36,0.6,0.4
2024-12-27T2100,2457A,112.6194,26.9258,衡阳市,衡阳化工总厂,细颗粒物(PM2.5),166,132,111,126,104,83,,67,67,27,24,12,12,1.0,0.8
2024-12-27T2100,2458A,112.6211,26.8956,衡阳市,珠晖区环保局,细颗粒物(PM2.5),153,122,100,117,100,80,,68,68,36,33,11,12,0.9,0.8
2024-12-27T2100,2459A,112.6197,26.8733,衡阳市,市委党校,细颗粒物(PM2.5),145,130,103,111,96,80,,76,76,26,22,10,11,1.0,0.9
2024-12-27T2100,2460A,112.6006,26.8919,衡阳市,市监测站,细颗粒物(PM2.5),173,159,124,131,108,89,,77,77,24,22,10,12,1.1,0.9
2024-12-27T2100,2461A,112.5664,26.9056,衡阳市,真空机电公司,细颗粒物(PM2.5),163,160,121,124,93,96,,82,82,20,21,7,9,0.9,0.8
2024-12-27T2100,3399A,112.6703,26.882,衡阳市,师范学院,细颗粒物(PM2.5),170,146,121,129,109,84,,77,77,24,23,10,12,1.0,0.9
2024-12-27T2100,2608A,103.3772,23.3993,红河哈尼族彝族自治州,污水处理厂,细颗粒物(PM2.5),108,,72,81,67,61,,80,76,11,12,9,12,0.9,0.8
2024-12-27T2100,2609A,103.3861,23.35,红河哈尼族彝族自治州,监测站,细颗粒物(PM2.5),119,,68,90,62,67,,84,80,11,12,6,8,0.8,0.7
2024-12-27T2100,3038A,103.3758,23.368,红河哈尼族彝族自治州,州图书馆,细颗粒物(PM2.5),107,86,65,80,57,57,,76,71,11,10,7,9,0.8,0.7
2024-12-27T2100,1090A,111.6507,40.7517,呼和浩特市,呼市一监,颗粒物(PM10),70,90,38,18,8,41,,66,60,16,9,8,7,0.5,0.3
2024-12-27T2100,1091A,111.6572,40.8033,呼和浩特市,小召,颗粒物(PM10),81,112,38,22,8,33,,67,61,32,15,22,8,0.6,0.3
2024-12-27T2100,1094A,111.7516,40.8369,呼和浩特市,如意水处理厂,颗粒物(PM10),66,82,23,18,5,28,,63,57,30,10,15,8,0.5,0.2
2024-12-27T2100,1095A,111.7276,40.8062,呼和浩特市,二十九中,颗粒物(PM10),77,103,29,23,6,32,,60,55,27,9,14,7,0.5,0.3
2024-12-27T2100,1096A,111.5512,40.7866,呼和浩特市,工大金川校区,颗粒物(PM10),84,118,37,21,9,21,,62,55,38,14,17,9,0.5,0.3
2024-12-27T2100,1097A,111.717,40.7612,呼和浩特市,化肥厂生活区,颗粒物(PM10),70,90,31,29,8,32,,62,53,32,10,8,6,0.6,0.4
2024-12-27T2100,3698A,111.5968,40.8178,呼和浩特市,红旗小学,颗粒物(PM10),91,132,39,23,8,18,,64,55,43,16,32,8,0.6,0.3
2024-12-27T2100,3699A,111.6518,40.8389,呼和浩特市,海东办,颗粒物(PM10),85,119,29,19,6,27,,69,62,35,14,21,7,0.9,0.6
2024-12-27T2100,2192A,119.7594,49.2261,呼伦贝尔市,区环保局,细颗粒物(PM2.5),53,40,24,37,20,33,,47,40,28,18,6,7,0.6,0.5
2024-12-27T2100,3061A,119.7512,49.1577,呼伦贝尔市,国华电力东,,32,30,31,22,20,56,,56,55,7,6,4,5,0.4,0.4
2024-12-27T2100,1250A,120.0751,30.8669,湖州市,城西水厂,颗粒物(PM10),64,78,63,43,37,17,,78,65,83,36,10,8,0.6,0.5
2024-12-27T2100,2873A,120.0875,30.8955,湖州市,仁皇山新区,颗粒物(PM10),59,68,61,41,39,44,,75,70,58,35,10,8,0.6,0.7
2024-12-27T2100,2907A,120.1844,30.8596,湖州市,吴兴区站,细颗粒物(PM2.5),54,43,46,38,34,63,,73,66,32,33,9,8,0.5,0.7
2024-12-27T2100,3562A,120.4148,30.8538,湖州市,南浔区站,细颗粒物(PM2.5),60,67,49,43,33,56,,72,64,38,37,9,8,0.6,0.7
2024-12-27T2100,1607A,120.9092,40.7136,葫芦岛市,龙港区,颗粒物(PM10),69,88,44,45,29,26,,70,54,63,35,23,18,1.1,0.7
2024-12-27T2100,1608A,120.8392,40.7514,葫芦岛市,化工街,颗粒物(PM10),64,78,79,31,30,9,,61,40,60,35,19,17,0.9,0.7
2024-12-27T2100,1609A,120.8341,40.7073,葫芦岛市,新区,细颗粒物(PM2.5),57,56,39,40,25,24,,69,45,48,37,22,17,1.1,0.8
2024-12-27T2100,1610A,120.8695,40.7677,葫芦岛市,东城区,细颗粒物(PM2.5),94,77,41,70,29,10,,63,38,64,29,20,19,1.3,0.6
2024-12-27T2100,2482A,109.5981,27.5721,怀化市,林科所,细颗粒物(PM2.5),67,58,50,48,44,99,,86,86,19,17,8,22,1.2,1
2024-12-27T2100,2483A,109.9453,27.5444,怀化市,河西地税局,细颗粒物(PM2.5),123,104,88,93,63,72,,78,70,26,22,8,14,1.0,0.7
2024-12-27T2100,2484A,109.9781,27.5342,怀化市,市四医院,细颗粒物(PM2.5),107,108,94,80,64,67,,66,66,20,18,12,8,1.0,0.8
2024-12-27T2100,2485A,109.9972,27.5578,怀化市,监测楼,细颗粒物(PM2.5),95,113,91,71,57,61,,67,67,32,21,6,6,0.5,0.8
2024-12-27T2100,2486A,110.0394,27.583,怀化市,市委党校,细颗粒物(PM2.5),102,111,88,76,60,54,,61,57,35,21,13,11,0.9,0.7
2024-12-27T2100,1210A,119.036,33.5981,淮安市,钵池山,颗粒物(PM10),90,129,80,55,43,42,,62,57,37,45,10,7,0.7,0.6
2024-12-27T2100,1211A,119.007,33.575,淮安市,北京南路,颗粒物(PM10),92,134,84,51,40,38,,55,44,40,51,13,10,0.9,0.8
2024-12-27T2100,1212A,118.989,33.6067,淮安市,市监测站,细颗粒物(PM2.5),94,114,78,70,54,35,,57,45,46,49,10,7,0.6,0.5
2024-12-27T2100,1213A,119.135,33.5039,淮安市,楚州区监测站,颗粒物(PM10),96,142,85,56,42,32,,52,46,47,51,13,9,0.9,0.8
2024-12-27T2100,1214A,119.0186,33.6297,淮安市,淮阴区监测站,颗粒物(PM10),97,144,96,62,47,34,,56,47,47,50,11,8,0.8,0.8
2024-12-27T2100,3426A,118.8755,33.2894,淮安市,新华书店,颗粒物(PM10),106,162,80,72,41,47,,64,60,38,37,12,10,1.1,0.7
2024-12-27T2100,2282A,116.8004,33.975,淮北市,监测站,颗粒物(PM10),75,100,102,50,50,43,,57,55,31,36,8,9,0.6,0.7
2024-12-27T2100,2283A,116.8091,33.9007,淮北市,烈山区政府,细颗粒物(PM2.5),90,124,126,67,76,38,,58,55,42,44,7,7,0.8,0.7
2024-12-27T2100,3330A,116.8873,33.9836,淮北市,杜集区检察院,颗粒物(PM10),76,101,123,47,71,44,,58,56,27,40,5,6,0.4,0.2
2024-12-27T2100,4017A,116.7923,33.9535,淮北市,市博物馆,细颗粒物(PM2.5),143,,99,109,57,32,,56,52,46,43,9,9,1.0,0.9
2024-12-27T2100,2277A,116.8305,32.7727,淮南市,潘集区政府,细颗粒物(PM2.5),178,178,149,134,102,46,,66,66,39,45,12,12,1.0,0.9
2024-12-27T2100,2278A,117.0067,32.6524,淮南市,师范学院,细颗粒物(PM2.5),168,182,134,127,75,38,,63,61,42,48,6,7,1.0,0.9
2024-12-27T2100,2279A,116.8569,32.5951,淮南市,谢家集区政府,细颗粒物(PM2.5),139,172,128,106,75,51,,66,66,31,37,9,10,1.0,0.9
2024-12-27T2100,2280A,116.8281,32.633,淮南市,八公山区政府,细颗粒物(PM2.5),148,168,125,113,78,50,,68,67,28,37,12,10,1.0,0.8
2024-12-27T2100,2281A,116.6325,32.6201,淮南市,焦岗湖风景区管理处,细颗粒物(PM2.5),134,155,112,102,73,36,,51,50,40,53,2,3,0.7,0.6
2024-12-27T2100,2894A,117.0566,32.6531,淮南市,经济技术开发区消防队,细颗粒物(PM2.5),140,173,126,107,71,44,,69,66,36,44,10,10,0.9,0.8
2024-12-27T2100,3329A,117.0108,32.5893,淮南市,山南新区,细颗粒物(PM2.5),180,206,126,136,71,49,,64,63,42,36,12,11,0.9,0.7
2024-12-27T2100,2446A,114.9028,30.4742,黄冈市,职工中心,细颗粒物(PM2.5),120,131,165,91,123,58,,78,75,40,70,11,10,0.5,0.6
2024-12-27T2100,2929A,114.8858,30.4519,黄冈市,红卫路,细颗粒物(PM2.5),120,129,158,91,121,55,,75,72,33,55,10,9,1.1,1.2
2024-12-27T2100,3398A,114.9136,30.4445,黄冈市,市林业局,细颗粒物(PM2.5),112,119,156,84,126,59,,76,74,31,60,15,13,0.9,1
2024-12-27T2100,2672A,102.0199,35.5102,黄南藏族自治州,同仁县隆务镇,细颗粒物(PM2.5),69,69,74,50,44,71,,86,81,8,10,9,10,0.6,0.7
2024-12-27T2100,2295A,118.2903,29.6963,黄山市,延安路89号,颗粒物(PM10),58,66,119,40,85,89,,103,101,17,20,13,12,0.3,0.6
2024-12-27T2100,2296A,118.327,29.7178,黄山市,黄山东路89号,,,,127,,94,83,,98,96,14,19,9,10,,0.6
2024-12-27T2100,2297A,118.1371,30.2756,黄山市,黄山区政府5号楼,颗粒物(PM10),72,94,112,37,74,61,,91,84,30,25,11,10,0.7,0.8
2024-12-27T2100,2423A,115.0601,30.2313,黄石市,沈家营,细颗粒物(PM2.5),104,134,166,78,122,64,,82,82,29,58,19,15,0.9,1.1
2024-12-27T2100,2424A,115.0817,30.2006,黄石市,陈家湾,细颗粒物(PM2.5),122,117,152,92,130,62,,78,78,33,63,15,13,0.8,1.1
2024-12-27T2100,2426A,114.8988,30.2019,黄石市,铁山,细颗粒物(PM2.5),108,97,149,81,132,70,,89,88,22,47,20,17,1.6,1.4
2024-12-27T2100,2427A,115.0307,30.2092,黄石市,团城山,细颗粒物(PM2.5),102,127,157,76,125,69,,84,84,31,65,13,11,1.0,1.1
2024-12-27T2100,3149A,115.0235,30.1578,黄石市,笔架山北路,细颗粒物(PM2.5),103,109,151,77,130,72,,88,88,25,67,14,15,1.0,1.3
2024-12-27T2100,1392A,114.4183,23.0528,惠州市,河南岸金山湖子站,细颗粒物(PM2.5),59,65,62,42,44,92,,108,106,18,19,9,10,0.8,0.8
2024-12-27T2100,1393A,114.4053,23.0822,惠州市,下埔横江三路子站,细颗粒物(PM2.5),63,65,66,45,47,100,,119,117,18,22,8,9,0.7,0.7
2024-12-27T2100,1394A,114.4103,23.1142,惠州市,江北云山西路子站,细颗粒物(PM2.5),63,64,63,45,45,104,,124,123,21,22,9,10,0.7,0.7
2024-12-27T2100,1395A,114.4645,22.7833,惠州市,惠阳区承修路船湖子站,颗粒物(PM10),63,76,73,41,42,81,,100,99,19,21,10,10,0.6,0.6
2024-12-27T2100,1396A,114.5317,22.7422,惠州市,大亚湾管委会子站,"颗粒物(PM10),细颗粒物(PM2.5)",55,59,59,39,39,86,,106,103,34,28,12,9,0.6,0.9
2024-12-27T2100,3314A,114.4338,22.8134,惠州市,惠阳秋长,颗粒物(PM10),56,61,63,37,41,104,,118,117,13,17,12,11,0.7,0.7
2024-12-27T2100,3452A,114.6517,22.775,惠州市,大亚湾霞涌,颗粒物(PM10),65,79,56,42,45,93,,107,107,14,16,9,8,0.7,0.3
2024-12-27T2100,2240A,130.9762,45.3001,鸡西市,环保局,,,18,16,13,10,,,67,,3,3,5,6,0.5,0.4
2024-12-27T2100,2243A,130.9429,45.3039,鸡西市,第一中学,,21,16,19,11,10,66,,66,64,5,5,5,5,0.2,0.1
2024-12-27T2100,3707A,131.0207,45.3073,鸡西市,欧美日汽修厂,,32,23,23,22,16,64,,68,66,17,13,21,19,0.5,0.2
2024-12-27T2100,3709A,130.9967,45.3106,鸡西市,市政设施管理处,,27,27,24,11,12,64,,67,62,9,9,5,5,0.4,0.3
2024-12-27T2100,2367A,114.9754,27.0803,吉安市,红声器材厂,细颗粒物(PM2.5),112,115,97,84,68,70,,77,76,44,39,16,16,0.8,0.8
2024-12-27T2100,2368A,114.9658,27.0999,吉安市,市森林工业局,细颗粒物(PM2.5),117,115,94,88,70,71,,80,78,46,40,18,18,1.0,0.8
2024-12-27T2100,2369A,114.99,27.1312,吉安市,市环境监测站,细颗粒物(PM2.5),112,128,93,84,69,,,82,,44,39,19,18,0.8,0.5
2024-12-27T2100,2370A,115.0093,27.0968,吉安市,青原区法院,细颗粒物(PM2.5),128,125,101,97,73,72,,80,80,42,41,14,16,0.9,0.9
2024-12-27T2100,1772A,126.54,43.8622,吉林市,哈达湾,,35,31,28,24,17,52,,59,56,15,15,8,8,0.6,0.5
2024-12-27T2100,1773A,126.5844,43.8358,吉林市,东局子,,48,48,30,22,14,41,,59,54,29,16,5,6,0.8,0.6
2024-12-27T2100,1774A,126.5052,43.8245,吉林市,电力学院,细颗粒物(PM2.5),54,56,36,38,22,31,,58,46,32,18,9,9,1.0,0.7
2024-12-27T2100,1775A,126.6133,43.8972,吉林市,江北,,50,50,36,25,17,45,,60,54,22,17,9,12,0.6,0.6
2024-12-27T2100,1776A,126.555,43.8306,吉林市,江南公园,,36,36,28,23,16,48,,57,53,18,14,9,9,0.6,0.5
2024-12-27T2100,1778A,126.7061,43.7133,吉林市,丰满,,32,31,24,22,15,52,,58,54,7,7,6,9,0.3,0.5
2024-12-27T2100,2868A,126.4739,43.953,吉林市,九站,,34,34,32,23,18,48,,58,52,18,15,6,6,0.6,0.6
2024-12-27T2100,1299A,116.9862,36.6114,济南市,科干所,颗粒物(PM10),54,58,58,20,24,42,,52,51,35,51,6,15,0.6,0.8
2024-12-27T2100,1300A,116.9376,36.665,济南市,农科所,颗粒物(PM10),57,63,82,20,25,15,,49,42,70,60,12,17,0.7,0.8
2024-12-27T2100,1301A,117.1265,36.6734,济南市,开发区,颗粒物(PM10),58,66,60,24,25,35,,49,46,45,52,7,9,0.6,0.7
2024-12-27T2100,1303A,117.0624,36.6868,济南市,省种子仓库,颗粒物(PM10),63,75,81,22,27,34,,51,48,39,52,10,13,0.6,0.8
2024-12-27T2100,1304A,116.9489,36.6447,济南市,机床二厂,颗粒物(PM10),161,271,100,37,33,16,,56,48,64,52,29,32,1.1,1.2
2024-12-27T2100,1305A,117.0495,36.663,济南市,市监测站,颗粒物(PM10),63,76,67,27,23,37,,52,50,40,49,9,10,0.6,0.7
2024-12-27T2100,1306A,116.7675,36.5484,济南市,长清党校,颗粒物(PM10),56,61,59,24,23,25,,60,52,49,49,8,9,0.8,0.8
2024-12-27T2100,1616A,117.6795,36.229,济南市,技术学院,颗粒物(PM10),52,53,64,22,32,19,,52,40,53,48,15,12,0.6,0.8
2024-12-27T2100,1961A,117.532,36.6868,济南市,东山小学,颗粒物(PM10),61,71,56,29,19,15,,54,48,53,42,9,8,0.6,0.6
2024-12-27T2100,3059A,117.7161,36.2049,济南市,泰兴公司,颗粒物(PM10),53,56,76,27,38,33,,53,47,37,45,12,13,0.3,0.6
2024-12-27T2100,3064A,117.6867,36.2171,济南市,莱芜战役纪念馆,颗粒物(PM10),52,53,72,27,33,24,,52,44,51,49,15,11,0.5,0.7
2024-12-27T2100,3494A,117.1673,36.9782,济南市,济阳区政府,颗粒物(PM10),64,78,60,15,22,36,,48,45,35,55,11,11,1.1,1.2
2024-12-27T2100,3495A,117.1171,36.63,济南市,锦屏中学,颗粒物(PM10),51,51,43,22,17,26,,57,51,48,39,5,7,0.5,0.4
2024-12-27T2100,3682A,116.9814,36.6819,济南市,济南四建,颗粒物(PM10),60,70,68,32,30,24,,47,43,53,60,12,16,0.8,0.9
2024-12-27T2100,1653A,116.6251,35.4302,济宁市,火炬城,颗粒物(PM10),60,70,66,31,30,28,,53,48,44,46,10,12,0.6,0.7
2024-12-27T2100,1655A,116.5491,35.4042,济宁市,电化厂,颗粒物(PM10),77,103,91,46,38,13,,48,43,66,52,20,16,0.9,1
2024-12-27T2100,3500A,116.5814,35.3707,济宁市,北湖一中,,,71,69,46,50,18,,50,45,54,47,8,9,,0.7
2024-12-27T2100,3501A,116.8249,35.5593,济宁市,服务中心,颗粒物(PM10),66,81,86,36,37,32,,56,50,50,51,17,17,1.0,1.1
2024-12-27T2100,3678A,116.5907,35.4054,济宁市,市第七中学,颗粒物(PM10),66,82,70,41,32,25,,55,50,50,43,9,8,0.8,0.9
2024-12-27T2100,2255A,130.2751,46.8028,佳木斯市,佳纺,,48,38,35,33,28,49,,58,44,22,18,24,16,0.6,0.6
2024-12-27T2100,2256A,130.3995,46.8307,佳木斯市,发电厂,,28,22,20,19,16,55,,61,54,13,11,8,7,0.9,0.8
2024-12-27T2100,2257A,130.3258,46.7975,佳木斯市,环保局,细颗粒物(PM2.5),59,58,31,42,23,33,,52,35,35,23,11,13,0.7,0.6
2024-12-27T2100,2258A,130.3648,46.8032,佳木斯市,十一中,,40,34,23,28,18,47,,56,42,25,20,8,8,0.6,0.7
2024-12-27T2100,2259A,130.3794,46.7588,佳木斯市,四丰,,23,23,15,16,12,60,,61,55,5,7,1,1,0.4,0.4
2024-12-27T2100,1252A,120.7436,30.778,嘉兴市,清河小学,颗粒物(PM10),63,75,47,43,24,45,,64,54,49,37,8,7,0.6,0.6
2024-12-27T2100,1253A,120.726,30.7478,嘉兴市,嘉兴学院,颗粒物(PM10),64,78,53,44,28,50,,66,56,42,31,9,7,0.7,0.6
2024-12-27T2100,2872A,120.7846,30.7525,嘉兴市,南湖区残联,细颗粒物(PM2.5),65,75,70,47,30,52,,69,61,41,31,10,9,0.7,0.6
2024-12-27T2100,3407A,120.6916,30.7739,嘉兴市,秀洲住建,颗粒物(PM10),69,88,49,47,29,47,,65,54,44,35,8,6,0.4,0.4
2024-12-27T2100,1945A,98.2908,39.7711,嘉峪关市,气象局,颗粒物(PM10),79,107,53,44,25,8,,54,43,62,30,8,6,0.9,0.6
2024-12-27T2100,2884A,98.2672,39.7978,嘉峪关市,酒钢宾馆,颗粒物(PM10),60,70,53,34,27,21,,56,46,48,34,12,13,0.5,0.6
2024-12-27T2100,3248A,98.2643,39.7724,嘉峪关市,雄关区,颗粒物(PM10),69,88,55,38,28,16,,54,47,54,43,9,8,0.6,0.5
2024-12-27T2100,1383A,113.1064,22.6058,江门市,北街,细颗粒物(PM2.5),80,67,76,59,60,65,,123,113,40,40,6,8,0.8,0.8
2024-12-27T2100,1384A,113.0731,22.5835,江门市,西区,颗粒物(PM10),73,95,92,48,52,67,,123,116,34,36,9,11,0.8,0.9
2024-12-27T2100,1385A,113.0219,22.5311,江门市,圭峰西,细颗粒物(PM2.5),77,62,70,56,56,80,,132,127,27,30,3,5,0.6,0.6
2024-12-27T2100,1386A,113.0828,22.5947,江门市,东湖,颗粒物(PM10),71,91,85,49,40,69,,124,117,29,31,8,10,0.7,0.7
2024-12-27T2100,3311A,113.1075,22.5647,江门市,江海富民,颗粒物(PM10),78,105,83,56,51,70,,129,121,40,43,11,13,1.0,0.9
2024-12-27T2100,3449A,113.05,22.4667,江门市,新会银湖,细颗粒物(PM2.5),82,74,73,60,62,79,,131,125,26,34,7,9,0.9,0.9
2024-12-27T2100,1828A,113.227,35.2125,焦作市,市环保局,颗粒物(PM10),52,54,87,8,36,62,,68,68,12,26,4,9,0.3,0.6
2024-12-27T2100,1830A,113.1992,35.2590,焦作市,影视城,,41,41,71,19,37,67,,72,71,13,24,5,9,0.3,0.8
2024-12-27T2100,3169A,113.2725,35.2067,焦作市,太极体育中心,颗粒物(PM10),54,57,89,9,29,60,,67,66,14,28,6,11,0.3,0.6
2024-12-27T2100,3335A,113.3137,35.2641,焦作市,马村街道办,颗粒物(PM10),51,52,81,10,35,61,,67,66,10,22,4,11,0.3,0.7
2024-12-27T2100,3336A,113.2465,35.2373,焦作市,焦作技师学院,,34,34,85,3,34,57,,62,62,14,31,1,9,0.4,0.9
2024-12-27T2100,3477A,113.1656,35.2539,焦作市,中站许衡医院,,45,45,80,19,38,50,,55,54,9,26,5,11,0.1,0.4
2024-12-27T2100,3981A,113.2449,35.1803,焦作市,原李万街道办,颗粒物(PM10),53,55,86,9,33,59,,69,68,12,28,2,7,0.4,0.7
2024-12-27T2100,1708A,116.3701,23.5345,揭阳市,新兴,细颗粒物(PM2.5),87,110,63,64,47,56,,101,96,55,29,8,9,1.0,0.8
2024-12-27T2100,1709A,116.3264,23.5443,揭阳市,西马,细颗粒物(PM2.5),83,102,67,61,44,67,,111,107,44,25,12,11,0.9,0.8
2024-12-27T2100,1710A,116.3611,23.5626,揭阳市,东兴,细颗粒物(PM2.5),99,124,74,74,44,57,,108,103,52,28,12,13,1.1,0.9
2024-12-27T2100,1711A,116.4151,23.5294,揭阳市,渔湖,细颗粒物(PM2.5),82,111,62,60,33,56,,102,95,57,30,11,12,0.9,0.7
2024-12-27T2100,3320A,116.403,23.5699,揭阳市,曲溪,细颗粒物(PM2.5),95,122,70,71,42,61,,112,107,57,34,5,8,1.0,0.8
2024-12-27T2100,1944A,102.1692,38.5167,金昌市,天庆家园,细颗粒物(PM2.5),59,51,34,42,20,45,,62,60,22,13,13,29,0.9,0.8
2024-12-27T2100,3170A,102.1864,38.5253,金昌市,市委党校,颗粒物(PM10),60,70,50,34,23,53,,69,65,25,15,7,24,0.8,0.6
2024-12-27T2100,4022A,102.1647,38.5371,金昌市,金川区人防中心,细颗粒物(PM2.5),70,74,41,51,25,51,,65,62,14,12,10,22,0.8,0.7
2024-12-27T2100,1262A,119.647,29.077,金华市,十五中,细颗粒物(PM2.5),89,120,132,66,88,41,,51,51,59,55,6,6,1.0,1
2024-12-27T2100,1263A,119.686,29.1029,金华市,监测站,细颗粒物(PM2.5),105,129,138,79,93,14,,49,45,85,56,7,7,1.0,1
2024-12-27T2100,3659A,119.656,29.1131,金华市,气象局,细颗粒物(PM2.5),105,142,142,79,93,18,,48,44,76,56,6,6,1.2,1
2024-12-27T2100,1767A,121.1115,41.0879,锦州市,南山,,27,27,39,18,24,56,,70,64,19,25,20,11,0.7,0.7
2024-12-27T2100,1768A,121.0533,40.8434,锦州市,开发区,颗粒物(PM10),64,78,79,42,37,11,,55,31,79,53,17,29,0.8,1
2024-12-27T2100,1769A,121.1836,41.1119,锦州市,百股街道,,22,22,38,14,23,56,,69,65,15,21,14,14,0.5,0.7
2024-12-27T2100,1770A,121.1178,41.1222,锦州市,天安街道,,31,31,33,11,14,56,,68,65,13,15,20,17,0.5,0.6
2024-12-27T2100,1771A,121.1303,41.1386,锦州市,北湖公园,,18,15,23,11,12,57,,66,63,8,9,19,15,0.4,0.4
2024-12-27T2100,2160A,112.85,35.5051,晋城市,自来水公司,颗粒物(PM10),53,56,81,9,32,65,,70,69,15,33,5,10,0.4,0.7
2024-12-27T2100,2161A,112.8318,35.4936,晋城市,白云商贸,,36,36,72,3,25,64,,69,68,16,31,5,9,0.4,0.7
2024-12-27T2100,2162A,112.8508,35.4887,晋城市,市环保局,颗粒物(PM10),55,59,76,9,31,65,,70,69,14,34,4,10,0.4,0.7
2024-12-27T2100,2163A,112.8676,35.4897,晋城市,技术学院,,50,50,72,7,29,68,,74,72,14,36,4,10,0.4,0.7
2024-12-27T2100,2165A,112.8453,35.546,晋城市,白马寺,,30,30,60,15,29,53,,59,58,9,15,15,15,0.4,0.6
2024-12-27T2100,3620A,112.8271,35.4828,晋城市,泽州一中,,,26,73,3,28,,,71,71,12,29,4,9,0.3,0.9
2024-12-27T2100,2171A,112.7532,37.6945,晋中市,锦纶小区,颗粒物(PM10),63,75,78,7,11,53,,67,57,19,26,6,6,0.3,0.2
2024-12-27T2100,2173A,112.7249,37.7067,晋中市,南都小区,颗粒物(PM10),58,65,70,11,20,54,,67,60,20,27,4,5,0.5,0.5
2024-12-27T2100,2174A,112.6991,37.6982,晋中市,榆次区政府,颗粒物(PM10),54,58,81,19,20,55,,66,60,19,23,4,6,0.3,0.4
2024-12-27T2100,2865A,112.7195,37.6828,晋中市,榆次三中,颗粒物(PM10),59,68,78,7,10,55,,67,61,16,20,6,8,0.3,0.4
2024-12-27T2100,2439A,112.2014,31.0481,荆门市,竹园小学,细颗粒物(PM2.5),137,185,200,104,160,39,,73,62,44,38,15,15,0.9,1.1
2024-12-27T2100,2440A,112.1969,30.9891,荆门市,掇刀,细颗粒物(PM2.5),144,178,196,110,146,65,,80,75,36,36,14,14,1.0,1.1
2024-12-27T2100,2441A,112.2213,31.0386,荆门市,石化一小,细颗粒物(PM2.5),153,201,211,117,152,46,,76,66,46,36,14,13,1.0,1
2024-12-27T2100,3012A,112.1849,31.0362,荆门市,西山林语,颗粒物(PM10),109,167,189,81,152,54,,78,68,35,33,13,12,0.7,0.8
2024-12-27T2100,3547A,112.1632,31.0138,荆门市,龙泉中学南校,细颗粒物(PM2.5),158,188,203,120,152,60,,79,70,33,33,15,15,0.8,1
2024-12-27T2100,1844A,112.2494,30.3197,荆州市,市图书馆,细颗粒物(PM2.5),208,169,159,158,152,49,,87,79,44,42,8,8,1.0,1
2024-12-27T2100,1845A,112.2008,30.3544,荆州市,市委党校,细颗粒物(PM2.5),190,170,166,143,152,67,,95,89,40,41,10,10,1.1,1.1
2024-12-27T2100,3194A,112.2747,30.3122,荆州市,管委会,细颗粒物(PM2.5),209,166,170,159,152,47,,88,80,44,39,7,8,1.1,1.2
2024-12-27T2100,3548A,112.1655,30.3364,荆州市,学苑路,细颗粒物(PM2.5),213,183,191,163,146,61,,89,82,,41,13,12,1.3,1.3
2024-12-27T2100,2342A,117.3102,29.3867,景德镇市,王港中学,,,,,,,,,,,,,,,,
2024-12-27T2100,2343A,117.2117,29.2933,景德镇市,老干部活动中心,细颗粒物(PM2.5),68,62,75,49,71,69,,87,86,22,23,8,8,0.5,0.6
2024-12-27T2100,2344A,117.1894,29.2789,景德镇市,兽医站,颗粒物(PM10),68,86,83,44,49,78,,92,92,13,16,4,4,0.6,0.6
2024-12-27T2100,2345A,117.1547,29.2617,景德镇市,台达陶瓷,细颗粒物(PM2.5),74,89,77,54,52,66,,86,78,32,25,16,7,0.4,0.5
2024-12-27T2100,2346A,117.2461,29.2956,景德镇市,陶研所,细颗粒物(PM2.5),79,63,70,58,48,72,,88,87,23,22,4,4,0.5,0.6
2024-12-27T2100,1803A,115.9872,29.6815,九江市,十里,细颗粒物(PM2.5),165,168,114,125,83,57,,76,73,41,29,12,11,1.2,1
2024-12-27T2100,1804A,115.9584,29.7046,九江市,茅山头,细颗粒物(PM2.5),155,164,119,118,77,63,,78,76,53,43,11,10,1.3,1.2
2024-12-27T2100,1805A,115.9877,29.7295,九江市,西园,细颗粒物(PM2.5),175,167,117,132,90,50,,65,63,56,44,11,12,0.9,0.8
2024-12-27T2100,1806A,116.0172,29.6547,九江市,五七二七厂,细颗粒物(PM2.5),155,193,130,118,85,65,,72,70,45,34,12,10,1.1,0.9
2024-12-27T2100,1808A,115.9114,29.6038,九江市,综合工业园,细颗粒物(PM2.5),217,195,126,167,111,68,,72,70,47,46,16,13,1.1,0.9
2024-12-27T2100,1809A,116.0721,29.7535,九江市,石化总厂,细颗粒物(PM2.5),196,182,123,147,92,45,,68,65,59,45,11,12,1.1,1
2024-12-27T2100,1810A,115.9773,29.5698,九江市,庐山气象台,细颗粒物(PM2.5),163,163,74,124,65,77,,92,80,30,20,9,11,1.2,0.9
2024-12-27T2100,3190A,116.0254,29.6994,九江市,外国语学校,细颗粒物(PM2.5),173,191,132,131,92,58,,67,66,37,31,10,12,1.1,0.9
2024-12-27T2100,2658A,98.5061,39.7443,酒泉市,仓门街子站,颗粒物(PM10),79,107,54,50,28,33,,67,63,35,15,50,31,1.0,0.5
2024-12-27T2100,2659A,98.4989,39.7256,酒泉市,油田生活基地,颗粒物(PM10),102,153,66,52,29,10,,62,53,54,23,23,12,1.3,0.5
2024-12-27T2100,2698A,76.0072,39.4467,喀什地区,巡警大队,,,100,76,52,45,,,48,48,38,29,2,2,1.0,0.9
2024-12-27T2100,2699A,75.9755,39.4694,喀什地区,吾办,细颗粒物(PM2.5),80,76,107,59,57,42,,48,48,37,33,1,1,1.0,1
2024-12-27T2100,4027A,75.9483,39.4689,喀什地区,老干局,细颗粒物(PM2.5),85,97,83,63,49,19,,48,46,59,30,2,2,1.5,1.1
2024-12-27T2100,1824A,114.3389,34.7781,开封市,肿瘤医院,颗粒物(PM10),72,93,99,18,54,56,,52,52,10,40,2,14,0.3,0.7
2024-12-27T2100,1826A,114.2885,34.7965,开封市,世纪星幼儿园,颗粒物(PM10),61,72,92,14,60,56,,51,51,13,41,3,7,0.2,0.6
2024-12-27T2100,3147A,114.3438,34.8106,开封市,龙亭公园,颗粒物(PM10),64,77,92,12,48,52,,52,52,24,50,2,6,0.0,0.5
2024-12-27T2100,3210A,114.3644,34.7964,开封市,汴京公园,颗粒物(PM10),68,85,109,12,59,54,,49,48,18,49,3,7,0.3,0.7
2024-12-27T2100,3473A,114.2485,34.8306,开封市,技师学院,颗粒物(PM10),66,81,92,11,48,48,,48,48,22,52,4,9,0.4,0.8
2024-12-27T2100,3592A,114.4644,34.7556,开封市,祥符区生态环境局,,49,49,116,12,63,56,,50,49,13,47,2,7,0.3,0.6
2024-12-27T2100,1951A,84.895,45.6094,克拉玛依市,长征新村,颗粒物(PM10),53,56,49,35,33,27,,36,36,32,31,5,5,0.5,0.5
2024-12-27T2100,1952A,84.8988,45.5893,克拉玛依市,南林小区,细颗粒物(PM2.5),54,51,44,38,32,30,,37,37,29,30,2,3,0.8,0.8
2024-12-27T2100,1954A,84.905,44.3396,克拉玛依市,独山子区,细颗粒物(PM2.5),54,,92,38,85,64,,64,63,23,43,4,4,0.4,0.8
2024-12-27T2100,1955A,85.6979,46.098,克拉玛依市,乌尔禾区商贸楼,,46,32,28,32,20,55,,54,54,29,37,4,4,0.7,0.7
2024-12-27T2100,3612A,85.1045,45.6899,克拉玛依市,白碱滩区新站,颗粒物(PM10),53,56,43,30,25,25,,34,34,41,40,8,7,1.1,1
2024-12-27T2100,2697A,76.1454,39.7142,克孜勒苏柯尔克孜自治州,市人民政府,细颗粒物(PM2.5),79,73,66,58,48,51,,55,55,25,16,3,3,1.4,1.1
2024-12-27T2100,3665A,76.1658,39.7157,克孜勒苏柯尔克孜自治州,克州文化中心,颗粒物(PM10),104,158,67,64,50,43,,52,52,36,18,6,6,1.2,1
2024-12-27T2100,1450A,102.8204,24.8886,昆明市,呈贡新区,细颗粒物(PM2.5),55,48,29,39,26,44,,89,81,34,17,8,7,0.6,0.5
2024-12-27T2100,1451A,102.6251,24.9608,昆明市,西山森林公园,,,,,,,,,,,,,,,,
2024-12-27T2100,1452A,102.7252,25.0902,昆明市,龙泉镇,细颗粒物(PM2.5),57,61,39,40,28,26,,96,87,55,30,7,7,0.7,0.6
2024-12-27T2100,1453A,102.7266,25.0375,昆明市,东风东路,,28,28,40,18,28,62,,84,80,22,24,5,6,0.6,0.7
2024-12-27T2100,1454A,102.6742,25.0669,昆明市,金鼎山,,49,49,42,32,27,44,,90,82,42,25,11,11,0.7,0.7
2024-12-27T2100,1455A,102.6644,25.0401,昆明市,碧鸡广场,颗粒物(PM10),54,58,47,36,31,28,,86,76,57,30,8,9,0.6,0.6
2024-12-27T2100,3179A,102.7494,25.0119,昆明市,官渡区博物馆,,37,37,44,21,27,56,,95,89,30,26,8,8,0.5,0.6
2024-12-27T2100,3375A,102.8017,24.8336,昆明市,青年创业园,颗粒物(PM10),55,59,36,38,24,9,,99,84,62,19,7,8,0.8,0.6
2024-12-27T2100,3550A,102.7997,24.9786,昆明市,昆明学院,,42,42,42,26,28,56,,96,90,29,20,9,9,0.6,0.6
2024-12-27T2100,3551A,102.5967,24.6736,昆明市,晋宁区生态环境分局,"颗粒物(PM10),细颗粒物(PM2.5)",55,60,39,39,28,56,,92,87,26,18,3,4,0.8,0.6
2024-12-27T2100,3552A,102.6678,24.9856,昆明市,云天化总部,,26,23,34,15,24,81,,100,98,10,17,5,6,0.3,0.5
2024-12-27T2100,1456A,91.1319,29.6514,拉萨市,八廓街,细颗粒物(PM2.5),69,71,17,50,12,21,,90,76,89,20,11,6,1.6,0.5
2024-12-27T2100,1457A,91.1221,29.6747,拉萨市,市环保局,细颗粒物(PM2.5),139,131,26,106,17,23,,75,75,68,24,20,5,2.9,0.7
2024-12-27T2100,1458A,91.0874,29.6475,拉萨市,区监测站,,45,40,12,15,7,14,,89,74,90,23,8,5,0.8,0.3
2024-12-27T2100,1459A,91.1774,29.6541,拉萨市,西藏大学,,33,33,17,16,7,67,,90,88,27,11,6,5,0.4,0.5
2024-12-27T2100,1460A,90.9798,29.6588,拉萨市,区辐射站,细颗粒物(PM2.5),114,115,28,86,19,22,,81,69,91,32,21,9,2.2,0.8
2024-12-27T2100,1461A,91.0834,29.6292,拉萨市,拉萨火车站,,31,31,12,18,9,46,,94,87,51,21,6,4,1.0,0.6
2024-12-27T2100,2520A,109.2203,23.7256,来宾市,来宾技工学校,细颗粒物(PM2.5),77,76,83,56,68,77,,93,91,19,19,7,7,0.8,0.8
2024-12-27T2100,3535A,109.1781,23.7297,来宾市,兴宾区政府,细颗粒物(PM2.5),77,87,92,56,67,82,,94,92,18,19,7,8,0.8,0.8
2024-12-27T2100,4002A,109.2416,23.7461,来宾市,中南小学,细颗粒物(PM2.5),78,73,82,57,64,70,,89,86,19,17,16,17,0.9,0.9
2024-12-27T2100,1476A,103.631,36.1031,兰州市,兰炼宾馆,颗粒物(PM10),71,91,61,44,29,10,,63,37,76,30,15,12,1.0,0.5
2024-12-27T2100,1477A,104.1373,35.9454,兰州市,榆中兰大校区,,,,,,,,,,,,,,,,
2024-12-27T2100,1478A,103.8412,36.0726,兰州市,生物制品所,颗粒物(PM10),74,98,60,43,31,4,,60,34,75,27,13,11,1.0,0.6
2024-12-27T2100,1479A,103.831,36.0464,兰州市,铁路设计院,颗粒物(PM10),70,90,63,48,32,4,,57,32,84,38,13,10,1.3,0.7
2024-12-27T2100,3186A,103.7158,36.1058,兰州市,教育港,颗粒物(PM10),65,80,67,40,32,2,,58,37,79,30,17,14,1.0,0.5
2024-12-27T2100,3241A,103.7439,36.0842,兰州市,百合公园,颗粒物(PM10),62,73,57,39,24,7,,60,37,74,25,17,12,1.1,0.6
2024-12-27T2100,3242A,103.9611,35.998,兰州市,和平,颗粒物(PM10),67,83,64,45,28,26,,62,46,54,27,13,17,0.7,0.5
2024-12-27T2100,3245A,103.6633,36.533,兰州新区,新区管委会,细颗粒物(PM2.5),127,124,55,96,31,9,,71,56,68,20,25,10,1.1,0.3
2024-12-27T2100,3246A,103.6975,36.4789,兰州新区,舟曲中学,颗粒物(PM10),59,67,60,24,19,20,,66,54,55,19,11,8,0.6,0.4
2024-12-27T2100,1067A,116.6708,39.5111,廊坊市,药材公司,,33,33,32,14,10,35,,64,55,31,24,2,3,0.5,0.4
2024-12-27T2100,1068A,116.7214,39.5589,廊坊市,开发区,,26,26,32,10,9,44,,65,58,22,20,4,4,0.3,0.3
2024-12-27T2100,1070A,116.7244,39.5269,廊坊市,北华航天学院,,21,21,32,7,10,52,,69,62,17,17,5,6,0.4,0.4
2024-12-27T2100,2919A,116.7022,39.5453,廊坊市,河北工业大学,,29,29,37,11,11,54,,67,62,18,21,3,4,0.3,0.3
2024-12-27T2100,2535A,103.7723,29.5462,乐山市,花湖湾,细颗粒物(PM2.5),108,93,97,81,84,45,,30,30,22,28,5,4,0.6,0.7
2024-12-27T2100,2536A,103.7627,29.5844,乐山市,牛耳桥,细颗粒物(PM2.5),108,91,93,81,79,40,,26,26,32,35,6,5,0.7,0.8
2024-12-27T2100,2537A,103.7508,29.6006,乐山市,市第三水厂,细颗粒物(PM2.5),105,92,90,79,74,45,,34,34,31,36,4,4,0.9,1.1
2024-12-27T2100,2538A,103.7571,29.5664,乐山市,市监测站,细颗粒物(PM2.5),95,86,85,71,68,44,,31,31,22,33,3,4,0.7,0.8
2024-12-27T2100,3361A,103.7311,29.5628,乐山市,理工大学,细颗粒物(PM2.5),112,100,90,84,75,34,,25,25,27,37,5,6,0.7,0.9
2024-12-27T2100,2598A,100.2143,26.8576,丽江市,西南郊,颗粒物(PM10),57,63,35,36,25,81,,101,100,22,8,6,4,1.2,0.7
2024-12-27T2100,2599A,100.2497,26.8802,丽江市,丽江古城,颗粒物(PM10),54,58,30,33,21,92,,97,97,15,12,12,10,0.6,0.6
2024-12-27T2100,2600A,100.2203,26.8906,丽江市,市中心,,36,29,20,25,15,88,,93,93,16,14,10,7,0.8,0.6
2024-12-27T2100,1267A,119.914,28.4514,丽水市,监测站大楼,细颗粒物(PM2.5),125,98,98,95,106,41,,76,69,44,33,5,6,0.7,0.9
2024-12-27T2100,1268A,119.93,28.4586,丽水市,莲都小学,细颗粒物(PM2.5),120,133,135,91,105,39,,73,68,49,40,7,8,0.8,0.8
2024-12-27T2100,1269A,119.879,28.4231,丽水市,余庄前,细颗粒物(PM2.5),127,126,119,96,95,39,,82,75,38,34,6,7,0.8,0.8
2024-12-27T2100,1173A,119.176,34.5885,连云港市,市环境监测站,颗粒物(PM10),80,110,82,44,43,26,,48,42,51,62,13,16,1.0,1.2
2024-12-27T2100,3000A,119.3581,34.6972,连云港市,德源药业,颗粒物(PM10),73,95,75,41,36,32,,47,37,49,60,16,12,1.1,0.7
2024-12-27T2100,3007A,119.178,34.844,连云港市,新城一中,细颗粒物(PM2.5),69,80,74,50,42,13,,56,46,68,57,18,18,0.7,0.9
2024-12-27T2100,3008A,119.3608,34.7519,连云港市,胡沟管理处,颗粒物(PM10),70,90,51,31,24,33,,56,48,34,31,14,12,1.4,1.2
2024-12-27T2100,3009A,119.1478,34.5911,连云港市,矿山设计院,颗粒物(PM10),80,110,84,41,44,22,,44,36,48,59,12,15,0.6,0.9
2024-12-27T2100,3434A,119.2413,34.6539,连云港市,工贸学校,"颗粒物(PM10),细颗粒物(PM2.5)",69,88,65,50,37,14,,54,44,66,43,14,14,0.6,0.8
2024-12-27T2100,3664A,119.4172,34.7341,连云港市,连云街道,颗粒物(PM10),62,73,50,26,24,32,,53,45,44,40,11,14,0.8,0.8
2024-12-27T2100,2571A,102.3431,27.8099,凉山彝族自治州,青龙寺,颗粒物(PM10),54,57,57,22,23,62,,94,90,13,12,5,6,0.9,1
2024-12-27T2100,2572A,102.2721,27.8415,凉山彝族自治州,邛海宾馆,颗粒物(PM10),59,67,65,37,43,85,,76,76,8,21,9,10,0.7,0.9
2024-12-27T2100,2573A,102.2625,27.898,凉山彝族自治州,西昌市政府,细颗粒物(PM2.5),89,80,52,66,40,50,,82,78,22,19,9,9,1.1,0.9
2024-12-27T2100,2574A,102.2685,27.8851,凉山彝族自治州,凉山州政府,细颗粒物(PM2.5),103,103,57,77,40,45,,83,80,29,22,9,9,1.0,0.8
2024-12-27T2100,2575A,102.237,27.8914,凉山彝族自治州,长安,细颗粒物(PM2.5),82,85,66,60,40,65,,82,81,19,30,9,9,0.8,0.8
2024-12-27T2100,2212A,123.2,41.1953,辽阳市,宏伟区,细颗粒物(PM2.5),69,73,51,50,25,14,,53,40,36,20,17,12,0.8,0.5
2024-12-27T2100,2213A,123.1683,41.2495,辽阳市,新华园,细颗粒物(PM2.5),88,79,78,65,51,8,,51,36,74,43,19,16,1.6,1.1
2024-12-27T2100,2214A,123.2354,41.2639,辽阳市,滨河路,,46,46,49,29,29,30,,60,52,39,29,7,12,0.7,0.7
2024-12-27T2100,2215A,123.149,41.2991,辽阳市,铁西工业园,细颗粒物(PM2.5),122,,71,92,44,9,,62,36,60,39,11,9,1.7,1
2024-12-27T2100,2227A,125.1358,42.8845,辽源市,环保局,,49,49,27,28,12,24,,61,48,37,15,15,8,1.0,0.5
2024-12-27T2100,3239A,125.0764,42.9078,辽源市,银鹰制药,颗粒物(PM10),54,58,32,34,20,11,,60,43,45,22,7,10,0.8,0.5
2024-12-27T2100,1625A,115.9848,36.4372,聊城市,区政府,颗粒物(PM10),65,79,68,23,27,38,,60,57,38,48,11,12,0.7,0.8
2024-12-27T2100,2878A,116.0072,36.4343,聊城市,聊大东校,颗粒物(PM10),64,78,76,23,32,46,,58,56,30,50,8,11,0.7,0.8
2024-12-27T2100,3200A,115.9819,36.4978,聊城市,监控中心,颗粒物(PM10),73,96,99,34,45,34,,56,48,48,60,14,14,0.8,0.9
2024-12-27T2100,3513A,116.0445,36.4361,聊城市,九州社区,颗粒物(PM10),56,61,68,19,31,55,,62,60,19,38,9,15,0.4,0.6
2024-12-27T2100,4018A,116.0567,36.4608,聊城市,星美广场,,,65,79,19,34,56,,59,57,24,41,10,16,,0.8
2024-12-27T2100,2632A,94.3681,29.6376,林芝市,林芝监测站,颗粒物(PM10),53,55,21,23,11,9,,73,53,64,17,7,6,0.8,0.3
2024-12-27T2100,2633A,94.3616,29.6616,林芝市,林芝人民医院,,33,33,18,19,10,47,,71,67,24,10,6,6,0.7,0.4
2024-12-27T2100,2603A,100.0781,23.8982,临沧市,市环保局,细颗粒物(PM2.5),78,72,44,57,50,42,,87,82,27,18,7,6,0.9,0.6
2024-12-27T2100,2604A,100.0894,23.8822,临沧市,市气象局,,45,44,44,31,32,54,,84,82,16,19,8,8,0.7,0.6
2024-12-27T2100,1733A,111.5531,36.0783,临汾市,临钢医院,,24,24,49,3,13,44,,71,66,26,20,1,4,0.3,0.3
2024-12-27T2100,1734A,111.5028,36.0714,临汾市,技工学校,,25,25,57,10,21,60,,67,66,10,19,2,4,0.3,0.5
2024-12-27T2100,1736A,111.5018,36.0855,临汾市,市委,,24,24,60,3,11,64,,73,71,13,21,3,4,0.2,0.3
2024-12-27T2100,3018A,111.505,36.1014,临汾市,唐尧大酒店,,19,19,49,3,11,58,,68,66,10,16,4,6,0.3,0.4
2024-12-27T2100,3668A,111.5036,36.0414,临汾市,城南,,20,20,56,3,20,54,,70,67,15,22,3,4,0.1,0.2
2024-12-27T2100,2667A,103.2069,35.5993,临夏回族自治州,环保局,细颗粒物(PM2.5),125,132,63,95,32,34,,64,61,48,22,11,11,1.5,0.6
2024-12-27T2100,2668A,103.2417,35.6057,临夏回族自治州,建设大厦,细颗粒物(PM2.5),138,155,74,105,37,21,,71,65,57,16,10,12,1.5,0.7
2024-12-27T2100,1618A,118.3429,35.0532,临沂市,沂河小区,颗粒物(PM10),64,78,79,36,38,37,,50,48,43,49,14,16,0.5,0.6
2024-12-27T2100,1619A,118.295,35.0583,临沂市,鲁南制药厂,颗粒物(PM10),75,100,94,41,38,16,,50,45,60,50,14,17,0.6,0.8
2024-12-27T2100,1620A,118.2794,34.9976,临沂市,新光毛纺厂,颗粒物(PM10),64,78,96,34,46,26,,52,49,52,58,12,19,0.5,0.9
2024-12-27T2100,1621A,118.3956,35.0888,临沂市,河东保险公司,颗粒物(PM10),62,73,83,22,41,42,,51,48,26,49,9,13,0.5,0.8
2024-12-27T2100,3370A,118.3564,35.0215,临沂市,十里堡居委,颗粒物(PM10),65,80,78,19,37,40,,55,52,34,43,12,15,0.7,0.8
2024-12-27T2100,3496A,118.3604,35.1084,临沂市,南坊新区,颗粒物(PM10),59,68,81,22,39,40,,51,48,38,54,10,13,0.7,0.9
2024-12-27T2100,3860A,118.3920,35.0300,临沂市,皇山花园小区,颗粒物(PM10),60,70,90,22,38,41,,51,49,34,59,8,12,0.5,0.8
2024-12-27T2100,1870A,109.4856,24.3895,柳州市,柳东小学,细颗粒物(PM2.5),82,85,78,60,59,66,,81,79,30,19,14,12,0.6,0.5
2024-12-27T2100,1871A,109.4157,24.3277,柳州市,环保监测站,细颗粒物(PM2.5),79,90,86,58,58,65,,81,77,26,20,12,13,1.0,0.9
2024-12-27T2100,1872A,109.389,24.341,柳州市,河西水厂,细颗粒物(PM2.5),82,88,98,60,64,65,,76,72,28,27,11,23,0.9,1.5
2024-12-27T2100,1873A,109.4311,24.2921,柳州市,市四中,细颗粒物(PM2.5),75,68,68,55,58,70,,86,82,25,20,11,10,0.8,0.7
2024-12-27T2100,1874A,109.4006,24.3631,柳州市,市九中,细颗粒物(PM2.5),80,94,79,59,62,60,,77,74,32,23,9,10,0.7,0.7
2024-12-27T2100,1875A,109.4958,24.3134,柳州市,古亭山,细颗粒物(PM2.5),74,72,72,54,52,76,,83,82,21,17,14,12,0.8,0.9
2024-12-27T2100,3402A,109.5422,24.3996,柳州市,市二中,细颗粒物(PM2.5),94,88,71,70,57,55,,74,68,34,22,13,11,0.8,0.7
2024-12-27T2100,2307A,116.5079,31.737,六安市,监测大楼,细颗粒物(PM2.5),150,159,117,115,83,49,,60,60,36,40,8,7,1.0,0.9
2024-12-27T2100,2308A,116.4738,31.7643,六安市,皖西学院,细颗粒物(PM2.5),152,170,124,116,82,44,,59,58,41,45,6,6,1.2,1
2024-12-27T2100,2309A,116.4996,31.7905,六安市,朝阳厂,细颗粒物(PM2.5),148,148,112,113,80,41,,59,58,43,47,4,4,1.2,1.1
2024-12-27T2100,2310A,116.5567,31.7886,六安市,开发区,细颗粒物(PM2.5),137,176,135,104,79,44,,60,58,44,48,3,3,1.0,0.8
2024-12-27T2100,2576A,104.8,26.5892,六盘水市,窑上,,,,,,,,,,,,,,,,
2024-12-27T2100,2577A,104.83,26.5917,六盘水市,黄土坡,,36,33,26,25,18,58,,52,52,11,15,9,12,0.8,1
2024-12-27T2100,2578A,104.89,26.5939,六盘水市,水钢,,40,34,27,28,19,54,,54,54,17,16,8,9,1.3,1
2024-12-27T2100,2579A,104.8475,26.5894,六盘水市,民中,,35,35,20,24,14,56,,49,49,13,16,9,11,0.6,0.8
2024-12-27T2100,2580A,104.9544,26.5506,六盘水市,双水,,38,36,22,26,14,62,,62,62,10,11,7,8,0.7,0.7
2024-12-27T2100,2335A,117.0189,25.1181,龙岩市,龙岩师专,,,,,,,,,,,,,,,,
2024-12-27T2100,2336A,117.0217,25.1033,龙岩市,龙岩市监测站,细颗粒物(PM2.5),88,,46,65,43,52,,50,47,19,23,6,7,0.9,0.9
2024-12-27T2100,2337A,117.0258,25.0661,龙岩市,闽西职业技术学院,细颗粒物(PM2.5),84,74,52,62,38,53,,48,46,16,22,4,5,0.9,0.9
2024-12-27T2100,2338A,117.0196,25.0306,龙岩市,龙岩学院,细颗粒物(PM2.5),79,59,46,58,36,49,,49,45,16,22,9,11,0.7,0.6
2024-12-27T2100,2665A,105.0822,33.3261,陇南市,汉王镇固水子,,,,,,,,,,,,,,,,
2024-12-27T2100,2885A,104.9339,33.3826,陇南市,滨江中学,细颗粒物(PM2.5),57,59,77,40,40,61,,81,77,24,26,6,9,0.9,1
2024-12-27T2100,3247A,104.955,33.371,陇南市,市总工会,颗粒物(PM10),53,55,66,29,33,83,,88,87,11,16,3,5,0.2,0.3
2024-12-27T2100,2487A,111.9589,27.8901,娄底市,电视发射台,细颗粒物(PM2.5),186,,61,140,69,109,,107,107,32,21,12,9,1.0,0.6
2024-12-27T2100,2488A,111.9975,27.725,娄底市,市监测站,细颗粒物(PM2.5),200,189,108,150,83,108,,102,102,24,29,11,14,0.9,1
2024-12-27T2100,2489A,112.0194,27.7314,娄底市,市委党校,细颗粒物(PM2.5),198,191,109,148,82,104,,96,96,29,28,8,8,0.9,0.7
2024-12-27T2100,2490A,111.9561,27.7569,娄底市,涟钢,细颗粒物(PM2.5),192,184,103,144,80,102,,98,98,22,18,12,9,2.7,0.7
2024-12-27T2100,2491A,111.9892,27.7044,娄底市,市政府,细颗粒物(PM2.5),198,182,102,148,83,106,,95,95,31,28,9,8,1.0,0.8
2024-12-27T2100,1893A,105.4324,28.9634,泸州市,九狮山,,,,,,,,,,,,,,,,
2024-12-27T2100,1894A,105.4427,28.9063,泸州市,小市上码头,细颗粒物(PM2.5),133,122,126,101,106,49,,71,71,24,31,2,2,0.7,0.8
2024-12-27T2100,1895A,105.4241,28.8573,泸州市,兰田宪桥,细颗粒物(PM2.5),123,118,109,93,97,53,,70,70,24,32,2,2,0.8,0.9
2024-12-27T2100,1896A,105.4379,28.8833,泸州市,市环监站,细颗粒物(PM2.5),119,115,125,90,101,41,,57,57,30,34,4,4,0.6,0.8
2024-12-27T2100,3490A,105.3617,28.7703,泸州市,纳溪区环保局,细颗粒物(PM2.5),122,104,105,92,85,55,,65,65,18,30,4,5,0.8,0.9
2024-12-27T2100,2183A,111.1406,37.5211,吕梁市,环保局,颗粒物(PM10),78,106,48,21,14,4,,64,48,54,20,2,3,0.5,0.3
2024-12-27T2100,2185A,111.1297,37.5136,吕梁市,自来水公司,,34,34,49,13,13,27,,64,53,32,19,4,4,0.4,0.4
2024-12-27T2100,2867A,111.1283,37.51,吕梁市,马茂庄小学,颗粒物(PM10),66,81,68,28,14,4,,68,47,58,25,10,5,0.4,0.4
2024-12-27T2100,1812A,112.3931,34.6516,洛阳市,市委党校,颗粒物(PM10),53,55,112,16,45,39,,58,56,37,42,11,7,0.5,0.6
2024-12-27T2100,1814A,112.4657,34.6871,洛阳市,豫西宾馆,颗粒物(PM10),54,57,129,20,53,62,,68,68,16,35,4,7,0.5,0.9
2024-12-27T2100,1815A,112.494,34.6886,洛阳市,河南林校,颗粒物(PM10),55,59,115,20,63,60,,65,65,8,32,3,3,0.4,0.7
2024-12-27T2100,1816A,112.3844,34.623,洛阳市,开发区管委会,,40,40,107,16,60,55,,61,61,12,31,6,7,0.4,0.7
2024-12-27T2100,1817A,112.4267,34.6258,洛阳市,市委新办公区,,46,46,114,24,63,57,,66,66,18,31,10,5,0.4,0.6
2024-12-27T2100,3340A,112.6005,34.6326,洛阳市,伊滨,颗粒物(PM10),52,54,118,15,47,65,,68,68,9,32,2,5,0.2,0.5
2024-12-27T2100,3341A,112.4951,34.6332,洛阳市,中移产业园,,49,49,108,11,45,57,,69,68,19,32,2,5,0.3,0.6
2024-12-27T2100,3593A,112.5736,34.8993,洛阳市,吉利监测站,,43,43,85,8,40,59,,65,64,13,33,4,5,0.2,0.5
2024-12-27T2100,3635A,112.3677,34.662,洛阳市,河科大西苑校区,颗粒物(PM10),56,61,121,23,54,40,,65,61,34,38,13,9,0.6,0.8
2024-12-27T2100,3636A,112.4388,34.6781,洛阳市,英才小学,颗粒物(PM10),53,55,120,19,52,56,,62,62,15,37,1,5,0.2,0.6
2024-12-27T2100,2399A,114.051,33.5699,漯河市,三五一五工厂,颗粒物(PM10),74,98,192,22,113,57,,60,60,16,42,8,10,0.3,0.7
2024-12-27T2100,2400A,114.0055,33.5698,漯河市,漯河大学,颗粒物(PM10),74,97,175,22,103,56,,62,61,20,43,6,8,0.4,0.7
2024-12-27T2100,2401A,114.0138,33.5828,漯河市,市水利局,颗粒物(PM10),71,92,184,22,99,52,,59,58,19,42,8,10,0.6,1
2024-12-27T2100,2402A,114.0261,33.5698,漯河市,市广电局,颗粒物(PM10),72,93,179,25,107,56,,62,61,16,39,7,10,0.2,0.9
2024-12-27T2100,3478A,113.9749,33.5664,漯河市,市图书馆,颗粒物(PM10),67,84,183,14,111,54,,61,60,18,46,6,8,0.5,0.8
2024-12-27T2100,3479A,114.0967,33.5906,漯河市,召陵区卫健委,颗粒物(PM10),76,102,174,19,125,54,,58,58,26,53,8,10,0.4,0.9
2024-12-27T2100,1798A,118.5092,31.6837,马鞍山市,湖东路四小,颗粒物(PM10),66,82,72,41,28,33,,67,57,57,42,38,10,3.0,0.9
2024-12-27T2100,1799A,118.5024,31.6449,马鞍山市,开发区,细颗粒物(PM2.5),65,71,75,47,38,56,,66,58,30,36,10,8,0.7,0.7
2024-12-27T2100,1800A,118.5228,31.7231,马鞍山市,慈湖,细颗粒物(PM2.5),69,80,68,50,41,45,,66,56,44,42,28,11,1.1,1
2024-12-27T2100,1802A,118.6245,31.7241,马鞍山市,濮塘,颗粒物(PM10),68,85,65,45,37,62,,80,73,27,31,10,8,0.4,0.3
2024-12-27T2100,3633A,118.4918,31.6809,马鞍山市,雨山,颗粒物(PM10),72,93,73,43,33,36,,63,53,51,37,17,10,1.0,1
2024-12-27T2100,1686A,111.0286,21.4688,茂名市,电白南海,"颗粒物(PM10),细颗粒物(PM2.5)",70,90,72,51,45,126,,125,125,24,22,9,12,0.9,0.9
2024-12-27T2100,1687A,110.9294,21.6533,茂名市,茂石化七小,细颗粒物(PM2.5),92,92,82,68,59,70,,106,97,16,17,17,17,0.9,0.8
2024-12-27T2100,1688A,110.9107,21.6687,茂名市,健康路,细颗粒物(PM2.5),89,88,85,66,60,74,,117,109,19,17,21,26,1.0,1
2024-12-27T2100,1689A,110.8592,21.6828,茂名市,高岭,细颗粒物(PM2.5),83,88,82,61,57,67,,103,96,20,19,35,29,0.9,0.9
2024-12-27T2100,3450A,111.01,21.5165,茂名市,电白水东,细颗粒物(PM2.5),104,119,76,78,55,74,,118,114,26,20,34,26,0.9,0.7
2024-12-27T2100,2539A,104.0308,30.0478,眉山市,黑龙滩水库,细颗粒物(PM2.5),79,70,91,58,63,45,,59,56,21,18,2,2,0.8,0.7
2024-12-27T2100,2540A,103.8416,30.0874,眉山市,气象局,细颗粒物(PM2.5),110,119,90,83,82,13,,24,24,56,43,4,5,0.9,1
2024-12-27T2100,3137A,103.8578,30.0744,眉山市,市委党校,细颗粒物(PM2.5),100,107,90,75,71,14,,23,23,59,48,3,4,0.6,0.6
2024-12-27T2100,3148A,103.8291,30.0564,眉山市,区人社局,细颗粒物(PM2.5),94,82,70,70,71,12,,22,22,64,52,2,5,0.7,0.8
2024-12-27T2100,1690A,116.1231,24.3284,梅州市,梅江月梅,细颗粒物(PM2.5),88,65,58,65,47,88,,88,88,16,28,12,10,0.7,0.7
2024-12-27T2100,1691A,116.0797,24.2719,梅州市,梅县新城,细颗粒物(PM2.5),77,72,60,56,47,88,,84,84,17,33,8,7,0.7,0.7
2024-12-27T2100,1692A,116.1248,24.2654,梅州市,环境监控中心,细颗粒物(PM2.5),77,64,58,56,46,80,,76,76,20,32,9,8,0.8,0.8
2024-12-27T2100,3315A,116.1233,24.2991,梅州市,梅龙,细颗粒物(PM2.5),80,73,64,59,47,78,,75,75,19,35,9,8,0.8,0.9
2024-12-27T2100,1878A,104.7778,31.4741,绵阳市,富乐山,细颗粒物(PM2.5),72,73,87,52,67,37,,65,65,45,29,2,2,0.9,0.8
2024-12-27T2100,1879A,104.7563,31.4535,绵阳市,市人大,细颗粒物(PM2.5),92,109,104,68,70,4,,42,40,88,51,4,4,1.4,1
2024-12-27T2100,1880A,104.6697,31.4668,绵阳市,高新区自来水公司,细颗粒物(PM2.5),92,122,98,68,69,3,,50,44,66,47,6,3,1.2,1
2024-12-27T2100,1881A,104.7287,31.5075,绵阳市,三水厂,细颗粒物(PM2.5),87,99,104,64,77,4,,53,50,67,49,6,6,1.1,0.9
2024-12-27T2100,3491A,104.69,31.5322,绵阳市,西科大附属小学,细颗粒物(PM2.5),98,108,100,73,75,11,,51,46,63,40,6,5,0.9,0.9
2024-12-27T2100,3492A,104.5648,31.5343,绵阳市,安州区旅游局,细颗粒物(PM2.5),144,149,100,110,84,6,,50,44,53,34,9,9,1.4,1
2024-12-27T2100,1784A,129.61,44.561,牡丹江市,环保大楼,,42,,30,29,19,60,,62,61,11,13,5,7,0.4,0.4
2024-12-27T2100,1785A,129.6115,44.5782,牡丹江市,文化广场,,43,37,35,30,24,55,,60,59,21,18,9,8,0.7,0.6
2024-12-27T2100,1786A,129.5904,44.5963,牡丹江市,第一医院,,42,42,37,28,28,57,,62,59,15,18,6,6,0.6,0.6
2024-12-27T2100,1787A,129.6364,44.6075,牡丹江市,机车工厂,,33,33,39,18,23,54,,66,63,21,20,17,11,0.5,0.6
2024-12-27T2100,1788A,129.6386,44.5462,牡丹江市,第一中学,,28,22,30,19,21,54,,61,57,18,17,6,6,0.4,0.4
2024-12-27T2100,2531A,105.0703,29.61,内江市,市监测站,细颗粒物(PM2.5),153,,86,117,97,21,,37,28,29,31,4,6,0.9,0.9
2024-12-27T2100,2532A,105.0717,29.5947,内江市,东兴区政府,细颗粒物(PM2.5),133,107,83,101,84,18,,38,30,37,36,2,3,1.0,1
2024-12-27T2100,2533A,105.0653,29.5817,内江市,内江二中,细颗粒物(PM2.5),144,121,97,110,93,16,,36,28,38,38,7,8,1.0,1
2024-12-27T2100,2534A,105.0406,29.5822,内江市,内江日报社,细颗粒物(PM2.5),134,113,93,102,91,14,,36,28,39,40,5,7,0.9,0.9
2024-12-27T2100,2628A,92.0657,31.4846,那曲市,那曲监测站,细颗粒物(PM2.5),92,103,44,68,31,26,,83,76,52,24,20,10,1.5,1
2024-12-27T2100,3128A,92.0506,31.4797,那曲市,那曲会议中心,"颗粒物(PM10),细颗粒物(PM2.5)",52,53,34,36,24,56,,90,87,34,18,10,4,1.1,0.8
2024-12-27T2100,1290A,115.8931,28.6843,南昌市,省外办,细颗粒物(PM2.5),149,148,130,114,100,56,,76,74,50,37,14,10,0.9,0.9
2024-12-27T2100,1291A,115.8886,28.7003,南昌市,省林业公司,细颗粒物(PM2.5),138,156,127,105,94,55,,76,73,44,39,20,12,0.7,0.6
2024-12-27T2100,1292A,115.8126,28.7442,南昌市,林科所,细颗粒物(PM2.5),144,151,123,110,91,67,,86,83,47,33,15,13,1.0,0.9
2024-12-27T2100,1294A,115.8518,28.687,南昌市,建工学校,"颗粒物(PM10),细颗粒物(PM2.5)",90,130,131,67,92,53,,77,73,58,38,16,14,0.9,0.8
2024-12-27T2100,1295A,115.8921,28.6424,南昌市,象湖,细颗粒物(PM2.5),145,122,114,111,100,64,,82,80,48,40,14,12,0.9,0.8
2024-12-27T2100,1296A,115.7423,28.7996,南昌市,武术学校,细颗粒物(PM2.5),107,115,109,80,83,66,,72,69,32,24,6,4,1.0,0.9
2024-12-27T2100,1298A,115.9314,28.6842,南昌市,省站,细颗粒物(PM2.5),144,128,133,110,98,56,,78,75,43,32,16,12,0.7,0.7
2024-12-27T2100,3046A,115.9084,28.6062,南昌市,机电学校,细颗粒物(PM2.5),153,179,143,117,98,65,,81,78,41,32,16,14,0.8,0.5
2024-12-27T2100,3690A,115.9721,28.7031,南昌市,外国语学校,颗粒物(PM10),89,127,135,61,88,58,,74,72,43,34,11,10,0.7,0.7
2024-12-27T2100,1905A,106.056,30.8064,南充市,西山风景区,细颗粒物(PM2.5),69,71,69,50,64,74,,59,59,10,11,2,2,0.6,0.7
2024-12-27T2100,1906A,106.0789,30.8023,南充市,南充市委,细颗粒物(PM2.5),102,96,94,76,80,8,,33,30,53,34,3,3,0.9,0.7
2024-12-27T2100,1907A,106.1031,30.8217,南充市,南充炼油厂,细颗粒物(PM2.5),95,103,93,71,81,24,,37,35,56,33,4,3,0.7,0.6
2024-12-27T2100,1908A,106.1064,30.7856,南充市,高坪区监测站,细颗粒物(PM2.5),78,78,105,57,81,27,,37,37,51,35,3,2,0.8,0.8
2024-12-27T2100,1909A,106.0642,30.7636,南充市,嘉陵区环保局,细颗粒物(PM2.5),104,104,97,78,77,3,,32,27,67,40,4,4,1.0,0.8
2024-12-27T2100,1910A,106.1087,30.8388,南充市,市环境监测站,细颗粒物(PM2.5),83,97,95,61,73,51,,47,47,24,22,5,4,0.7,0.7
2024-12-27T2100,1151A,118.8086,32.1065,南京市,迈皋桥,细颗粒物(PM2.5),83,96,56,61,28,55,,68,68,43,56,12,8,1.6,1.2
2024-12-27T2100,1152A,118.7538,32.0551,南京市,草场门,颗粒物(PM10),71,92,60,46,30,48,,65,60,45,44,9,6,0.3,0.3
2024-12-27T2100,1153A,118.7794,32.0745,南京市,山西路,颗粒物(PM10),74,97,70,53,32,41,,58,53,57,42,4,3,0.7,0.6
2024-12-27T2100,1154A,118.7752,32.0023,南京市,中华门,"颗粒物(PM10),细颗粒物(PM2.5)",58,66,59,41,29,39,,56,51,26,28,10,5,0.8,0.7
2024-12-27T2100,1155A,118.8109,32.0309,南京市,瑞金路,颗粒物(PM10),73,95,65,51,31,36,,69,51,49,42,7,5,1.0,0.9
2024-12-27T2100,1156A,118.7997,32.0754,南京市,玄武湖,细颗粒物(PM2.5),83,82,67,61,30,50,,62,58,36,44,11,10,0.5,0.5
2024-12-27T2100,1157A,118.6414,32.0931,南京市,浦口,细颗粒物(PM2.5),82,86,70,60,30,47,,66,65,29,30,12,9,0.6,0.7
2024-12-27T2100,1158A,118.7356,31.9996,南京市,奥体中心,颗粒物(PM10),64,78,64,44,29,46,,68,61,53,52,12,10,0.6,0.6
2024-12-27T2100,1159A,118.9125,32.1028,南京市,仙林大学城,"颗粒物(PM10),细颗粒物(PM2.5)",70,90,66,51,32,40,,66,58,48,46,8,7,0.4,0.4
2024-12-27T2100,3422A,118.8436,31.9198,南京市,江宁彩虹桥,颗粒物(PM10),57,64,70,31,29,40,,68,58,46,45,9,8,0.5,0.4
2024-12-27T2100,3423A,119.0138,31.6494,南京市,溧水永阳,颗粒物(PM10),51,51,65,35,40,32,,70,56,43,40,4,4,0.5,0.5
2024-12-27T2100,3424A,118.879,31.3302,南京市,高淳老职中,细颗粒物(PM2.5),63,62,69,45,46,46,,76,69,33,32,6,6,0.4,0.3
2024-12-27T2100,3427A,118.8554,32.3578,南京市,六合雄州,细颗粒物(PM2.5),75,90,66,55,34,35,,62,51,31,24,5,5,0.5,0.6
2024-12-27T2100,1401A,108.3103,22.7881,南宁市,二十一中,细颗粒物(PM2.5),92,71,67,68,55,37,,72,50,47,27,4,5,0.9,1.1
2024-12-27T2100,1402A,108.3141,22.8528,南宁市,北湖,细颗粒物(PM2.5),87,92,72,64,59,28,,68,52,52,27,15,8,1.0,0.8
2024-12-27T2100,1403A,108.3206,22.8225,南宁市,市监测站,细颗粒物(PM2.5),78,73,71,57,56,31,,68,46,48,28,7,9,1.0,0.8
2024-12-27T2100,1404A,108.3829,22.8037,南宁市,大自然花园,细颗粒物(PM2.5),75,65,65,55,55,24,,70,49,35,24,5,6,0.9,0.8
2024-12-27T2100,1405A,108.4394,22.7904,南宁市,仙葫,细颗粒物(PM2.5),72,62,60,52,60,7,,66,44,67,22,3,5,0.9,0.7
2024-12-27T2100,1406A,108.2397,22.8467,南宁市,区农职院,细颗粒物(PM2.5),78,83,71,57,56,17,,62,46,37,23,5,8,0.8,0.7
2024-12-27T2100,1407A,108.3275,22.735,南宁市,英华嘉园,细颗粒物(PM2.5),82,75,66,60,57,20,,68,43,41,23,6,7,0.9,1
2024-12-27T2100,1408A,108.2257,22.7757,南宁市,沙井镇街道办,细颗粒物(PM2.5),79,89,77,58,58,20,,60,43,52,34,8,8,1.0,0.8
2024-12-27T2100,3401A,108.4834,22.7618,南宁市,红星社区,细颗粒物(PM2.5),70,59,63,51,54,56,,74,64,19,17,6,8,0.8,1
2024-12-27T2100,2331A,118.0966,26.6761,南平市,茫荡山,,,,,,,,,,,,,,,,
2024-12-27T2100,2332A,118.1681,26.6369,南平市,南平市监测站,细颗粒物(PM2.5),84,78,59,62,48,40,,56,46,25,21,4,4,0.7,0.8
2024-12-27T2100,2333A,118.1825,26.6489,南平市,南平铝业有限公司,细颗粒物(PM2.5),82,76,50,60,48,50,,55,51,19,21,4,5,0.8,0.8
2024-12-27T2100,2334A,118.1756,26.6272,南平市,南平七中,细颗粒物(PM2.5),83,,49,61,46,37,,56,46,20,18,1,3,0.6,0.6
2024-12-27T2100,1168A,120.9098,31.9663,南通市,狼山街道,细颗粒物(PM2.5),62,63,51,44,27,56,,75,71,24,17,10,8,0.9,0.8
2024-12-27T2100,1169A,120.86,32.0005,南通市,虹桥,细颗粒物(PM2.5),63,64,46,45,27,51,,71,66,30,21,8,6,0.5,0.4
2024-12-27T2100,1170A,120.87,32.02,南通市,城中,颗粒物(PM10),63,75,56,40,24,51,,77,71,33,23,10,8,0.9,0.7
2024-12-27T2100,1171A,120.94,31.93,南通市,星湖花园,"颗粒物(PM10),细颗粒物(PM2.5)",60,70,49,43,26,45,,72,66,40,24,9,6,0.6,0.5
2024-12-27T2100,1172A,120.81,32.0417,南通市,紫琅学院,细颗粒物(PM2.5),65,72,53,47,26,46,,72,65,37,27,7,6,0.7,0.7
2024-12-27T2100,3291A,121.067,32.062,南通市,通州监测站,细颗粒物(PM2.5),79,85,50,58,25,43,,82,76,38,21,6,3,0.9,0.9
2024-12-27T2100,3432A,120.9348,31.9883,南通市,环境教育馆,颗粒物(PM10),59,68,51,39,25,57,,88,79,26,18,7,5,0.6,0.6
2024-12-27T2100,2404A,112.5224,33.0122,南阳市,瓦房庄,颗粒物(PM10),65,80,190,25,150,76,,77,77,11,35,6,10,0.4,1.1
2024-12-27T2100,2405A,112.5003,32.9735,南阳市,汉画馆,颗粒物(PM10),58,65,181,27,138,76,,76,76,11,39,6,9,0.3,1
2024-12-27T2100,2406A,112.5573,33.027,南阳市,气象站,颗粒物(PM10),64,78,205,12,137,76,,80,80,11,33,6,9,0.4,1.1
2024-12-27T2100,2407A,112.5481,32.9689,南阳市,理工学院,颗粒物(PM10),59,67,175,21,143,73,,75,75,15,41,6,10,0.3,1
2024-12-27T2100,4008A,112.5234,32.9922,南阳市,卧龙区政府,颗粒物(PM10),55,59,184,23,135,73,,73,73,13,41,4,9,0.5,1.2
2024-12-27T2100,1234A,121.8358,29.911,宁波市,区环保大楼,颗粒物(PM10),58,66,39,38,20,40,,65,55,59,36,17,11,0.6,0.5
2024-12-27T2100,1235A,121.56,29.82,宁波市,万里学院,颗粒物(PM10),66,82,43,43,25,47,,66,60,46,27,6,5,0.8,0.7
2024-12-27T2100,1236A,121.713,29.9572,宁波市,龙赛医院,颗粒物(PM10),61,72,43,28,21,30,,70,53,64,31,11,9,0.6,0.4
2024-12-27T2100,1239A,121.633,29.7733,宁波市,钱湖水厂,颗粒物(PM10),63,76,50,37,24,32,,64,49,50,26,6,6,0.6,0.5
2024-12-27T2100,1240A,121.5856,29.8635,宁波市,太古小学,颗粒物(PM10),60,70,48,36,23,49,,64,60,46,29,9,8,0.8,0.7
2024-12-27T2100,1241A,121.524,29.8674,宁波市,市环境监测中心,颗粒物(PM10),66,82,43,46,20,40,,64,60,47,23,9,8,0.8,0.6
2024-12-27T2100,2871A,121.6147,29.9017,宁波市,万里国际学校,颗粒物(PM10),57,63,47,34,18,30,,63,55,59,29,8,7,0.8,0.6
2024-12-27T2100,3710A,121.5594,29.8975,宁波市,白沙活动中心,颗粒物(PM10),52,53,46,29,20,50,,67,63,43,26,10,9,0.7,0.5
2024-12-27T2100,2339A,119.5001,26.6946,宁德市,金涵水库,,,,,,,,,,,,,,,,
2024-12-27T2100,2341A,119.5388,26.6612,宁德市,宁德市监测站,细颗粒物(PM2.5),94,72,72,70,76,84,,97,95,32,30,5,6,0.6,0.7
2024-12-27T2100,3209A,119.5231,26.6562,宁德市,宁德一中,细颗粒物(PM2.5),93,76,74,69,72,94,,100,97,25,26,5,6,0.7,0.7
2024-12-27T2100,2618A,98.8601,25.8567,怒江傈僳族自治州,州监测站,,,54,39,34,23,65,,89,86,21,13,,4,0.8,0.7
2024-12-27T2100,2619A,98.8546,25.8417,怒江傈僳族自治州,泸水一中,,48,48,42,30,30,25,,68,57,42,24,7,7,1.0,0.7
2024-12-27T2100,1888A,101.6891,26.571,攀枝花市,弄弄坪,细颗粒物(PM2.5),64,73,88,46,55,65,,95,94,34,50,22,34,0.8,2.2
2024-12-27T2100,1889A,101.5769,26.5928,攀枝花市,河门口,颗粒物(PM10),55,59,58,37,37,72,,105,105,26,33,12,14,1.0,1.3
2024-12-27T2100,1890A,101.7169,26.585,攀枝花市,炳草岗,细颗粒物(PM2.5),67,77,82,48,47,8,,89,82,100,56,18,23,1.2,1.1
2024-12-27T2100,1891A,101.7369,26.5008,攀枝花市,仁和,细颗粒物(PM2.5),60,67,65,43,43,48,,101,96,30,35,10,17,0.7,1.5
2024-12-27T2100,2835A,101.7227,26.567,攀枝花市,四十中小,细颗粒物(PM2.5),92,99,80,68,49,27,,78,74,85,60,16,27,1.8,2
2024-12-27T2100,1604A,122.0303,41.1489,盘锦市,开发区,颗粒物(PM10),52,54,35,26,18,29,,59,52,36,20,10,13,0.7,0.5
2024-12-27T2100,1605A,122.0485,41.0883,盘锦市,兴隆台,细颗粒物(PM2.5),53,52,42,37,16,26,,58,52,43,28,14,15,0.9,0.7
2024-12-27T2100,1606A,121.8297,41.1028,盘锦市,新生街道,颗粒物(PM10),57,64,36,38,18,10,,62,38,64,47,11,13,0.7,0.7
2024-12-27T2100,1832A,113.3257,33.742,平顶山市,新华旅馆,颗粒物(PM10),62,74,164,35,79,66,,69,69,9,35,7,10,0.2,0.5
2024-12-27T2100,1833A,113.2919,33.737,平顶山市,规划设计院,颗粒物(PM10),55,59,161,26,84,65,,70,70,7,36,6,8,0.4,0.7
2024-12-27T2100,1834A,113.182,33.774,平顶山市,平顶山工学院,,,64,157,29,73,63,,70,70,5,27,,,0.5,0.9
2024-12-27T2100,3204A,113.3025,33.73,平顶山市,规划局,颗粒物(PM10),60,70,161,29,86,60,,65,65,7,34,7,9,0.3,0.6
2024-12-27T2100,3594A,112.8867,33.9116,平顶山市,石龙区,颗粒物(PM10),71,92,165,38,75,61,,71,70,5,26,5,8,0.5,0.8
2024-12-27T2100,2656A,106.6692,35.5461,平凉市,聚贤嘉苑,细颗粒物(PM2.5),53,50,64,37,25,26,,84,73,60,21,12,12,0.7,0.5
2024-12-27T2100,2657A,106.7021,35.5307,平凉市,博物馆,,,,,,,,,,,,,,,,
2024-12-27T2100,2347A,114.0997,27.5002,萍乡市,武功山,细颗粒物(PM2.5),176,153,120,133,98,32,,49,46,34,28,10,10,1.4,1.3
2024-12-27T2100,2348A,113.8385,27.6434,萍乡市,中医院,细颗粒物(PM2.5),179,181,169,135,117,22,,26,26,50,44,11,19,1.3,1.4
2024-12-27T2100,2349A,113.8493,27.6253,萍乡市,市政府车库,细颗粒物(PM2.5),227,181,146,177,137,19,,31,29,54,44,12,20,1.3,1.1
2024-12-27T2100,2350A,113.8676,27.6435,萍乡市,市环保局,细颗粒物(PM2.5),225,211,169,175,139,19,,28,26,56,46,12,19,1.5,1.2
2024-12-27T2100,2351A,113.866,27.6198,萍乡市,安源区政府,细颗粒物(PM2.5),224,212,164,174,129,19,,33,31,50,42,8,16,1.4,1
2024-12-27T2100,2319A,119.0141,25.4325,莆田市,荔城区仓后路,细颗粒物(PM2.5),57,53,56,40,48,70,,111,98,27,17,2,2,0.8,0.7
2024-12-27T2100,2320A,119.0015,25.4553,莆田市,莆田市监测站,细颗粒物(PM2.5),53,48,56,37,46,89,,118,106,23,19,4,4,0.6,0.6
2024-12-27T2100,2321A,119.1119,25.4561,莆田市,涵江区六中,细颗粒物(PM2.5),65,62,59,47,49,80,,110,101,19,20,2,2,0.5,0.7
2024-12-27T2100,2322A,119.1013,25.3215,莆田市,秀屿区政府,细颗粒物(PM2.5),65,48,54,47,56,95,,108,101,24,22,4,3,0.5,0.6
2024-12-27T2100,2323A,118.981,25.4792,莆田市,东圳水库,,,,,,,,,,,,,,,,
2024-12-27T2100,2392A,115.0312,35.7636,濮阳市,环保局,颗粒物(PM10),62,74,59,25,25,16,,56,45,56,38,4,10,1.0,0.7
2024-12-27T2100,2394A,115.0574,35.7609,濮阳市,油田运输公司,颗粒物(PM10),62,73,68,19,24,17,,54,44,53,40,4,10,0.7,0.6
2024-12-27T2100,2395A,115.0866,35.7754,濮阳市,油田物探公司,颗粒物(PM10),67,84,73,28,32,7,,54,42,64,44,5,13,0.8,0.8
2024-12-27T2100,3021A,115,35.7668,濮阳市,濮水河管理处,颗粒物(PM10),74,98,79,33,40,5,,57,41,46,36,3,5,0.6,0.6
2024-12-27T2100,2601A,100.98,22.7633,普洱市,市环保局,颗粒物(PM10),54,57,47,26,12,39,,69,66,11,13,5,5,0.6,0.7
2024-12-27T2100,2602A,100.9817,22.8322,普洱市,普洱第二中学,颗粒物(PM10),52,53,44,26,19,44,,72,70,11,16,8,9,0.7,0.7
2024-12-27T2100,2262A,131.0518,45.8751,七台河市,新一中,,22,,20,11,13,69,,77,75,14,8,10,10,1.7,1.6
2024-12-27T2100,3345A,131.0577,45.7879,七台河市,中波台,,38,32,28,26,17,47,,60,56,29,21,14,12,0.8,0.7
2024-12-27T2100,3637A,131.0176,45.7761,七台河市,人民广场,,46,36,34,32,23,60,,64,63,18,20,7,8,0.6,0.5
2024-12-27T2100,3684A,130.8781,45.8222,七台河市,新建矿广场,细颗粒物(PM2.5),53,,14,37,24,54,,61,59,20,17,12,10,0.5,0.4
2024-12-27T2100,1779A,123.9305,47.3636,齐齐哈尔市,安居小区,,46,46,28,25,14,46,,63,56,24,14,9,7,0.4,0.3
2024-12-27T2100,1780A,123.9488,47.3386,齐齐哈尔市,中心广场,,31,31,20,20,12,55,,62,48,15,15,6,4,0.4,0.5
2024-12-27T2100,1781A,123.9483,47.3227,齐齐哈尔市,农牧车辆厂,,28,27,17,19,11,54,,63,49,15,14,8,6,0.4,0.3
2024-12-27T2100,1783A,123.945,47.2988,齐齐哈尔市,市环境监测站,,45,40,25,31,14,45,,63,52,28,14,7,4,0.6,0.5
2024-12-27T2100,3662A,123.6333,47.2075,齐齐哈尔市,富区青少年活动中心,颗粒物(PM10),72,94,35,42,12,30,,59,44,42,19,20,15,1.2,0.6
2024-12-27T2100,2591A,107.9783,26.5747,黔东南苗族侗族自治州,市环境监测站,细颗粒物(PM2.5),63,57,65,45,55,59,,63,61,18,15,4,4,0.5,0.5
2024-12-27T2100,2881A,107.8908,26.5311,黔东南苗族侗族自治州,凯里学院,细颗粒物(PM2.5),59,58,63,42,49,53,,64,58,19,13,4,3,0.6,0.6
2024-12-27T2100,2593A,107.5228,26.2403,黔南布依族苗族自治州,小围寨,,39,34,45,27,41,60,,59,59,11,14,5,5,0.8,0.8
2024-12-27T2100,3538A,107.5175,26.2978,黔南布依族苗族自治州,沙坝,,45,39,53,31,46,61,,59,59,14,17,6,6,0.8,0.6
2024-12-27T2100,2589A,104.9022,25.0925,黔西南布依族苗族自治州,场坝街,细颗粒物(PM2.5),75,62,41,55,27,23,,27,24,27,17,9,13,0.8,0.7
2024-12-27T2100,2590A,104.8811,25.0992,黔西南布依族苗族自治州,坪东大道,细颗粒物(PM2.5),54,47,32,38,27,25,,27,24,23,16,11,9,0.8,0.8
2024-12-27T2100,2502A,108.6236,21.9667,钦州市,市环保站,细颗粒物(PM2.5),92,92,87,68,62,63,,68,66,18,19,9,10,0.9,1.1
2024-12-27T2100,2503A,108.6549,21.9481,钦州市,沙埠小学,细颗粒物(PM2.5),94,98,72,70,60,54,,70,63,29,21,5,5,1.5,0.9
2024-12-27T2100,2504A,108.5989,21.7431,钦州市,港区一小,细颗粒物(PM2.5),74,78,78,54,56,53,,65,61,27,25,6,6,0.8,0.8
2024-12-27T2100,3404A,108.5959,21.9633,钦州市,北职校,细颗粒物(PM2.5),88,,66,65,66,50,,68,60,22,22,5,6,0.8,0.9
2024-12-27T2100,1042A,119.5134,39.8207,秦皇岛市,北戴河环保局,,37,37,19,13,12,49,,64,59,18,14,3,2,0.5,0.5
2024-12-27T2100,1043A,119.7493,40.0116,秦皇岛市,第一关,,36,,19,25,17,40,,62,44,32,28,2,3,0.3,0.3
2024-12-27T2100,1044A,119.5897,39.9499,秦皇岛市,监测站,,44,44,28,17,14,34,,66,54,31,22,3,4,0.4,0.4
