timepoint,stationcode,longitude,latitude,area,positionname,primarypollutant,aqi,pm10,pm10_24h,pm2_5,pm2_5_24h,o3,o3_24h,o3_8h,o3_8h_24h,no2,no2_24h,so2,so2_24h,co,co_24h
2022-11-12T02:00:00,1001A,116.3621,39.8784,北京市,万寿西宫,,21,8,108,8,85,14,0,0,0,41,46,3,3,1.8,1.8
2022-11-12T02:00:00,1002A,116.2202,40.2915,北京市,定陵(对照点),,12,3,106,3,87,40,38,31,31,4,17,3,3,0.5,1.4
2022-11-12T02:00:00,1003A,116.4174,39.9289,北京市,东四,,16,8,88,9,76,17,1,0,0,30,28,3,3,1.6,1.6
2022-11-12T02:00:00,1004A,116.4072,39.8863,北京市,天坛,,23,9,90,8,72,13,0,1,0,45,36,3,3,1.9,1.7
2022-11-12T02:00:00,1005A,116.462,39.9365,北京市,农展馆,,20,8,87,7,71,14,1,0,0,39,39,3,2,1.8,1.8
2022-11-12T02:00:00,1006A,116.3392,39.9295,北京市,官园,,20,11,134,10,114,28,0,0,0,39,50,1,1,1.6,1.6
2022-11-12T02:00:00,1007A,116.2878,39.9611,北京市,海淀万柳,,21,16,151,13,119,19,0,0,0,42,60,3,2,1.6,1.5
2022-11-12T02:00:00,1008A,116.6636,40.135,北京市,顺义新城,,17,6,91,5,72,18,0,0,0,34,31,3,3,1.7,1.7
2022-11-12T02:00:00,1009A,116.6275,40.3275,北京市,怀柔镇,,16,4,80,4,66,19,3,3,3,24,40,3,3,1.6,1.7
2022-11-12T02:00:00,1010A,116.2296,40.217,北京市,昌平镇,,12,3,95,2,73,54,37,19,19,8,32,3,3,0.5,1.6
2022-11-12T02:00:00,1011A,116.3966,39.9821,北京市,奥体中心,,21,13,124,9,88,12,2,1,1,42,49,3,1,1.8,1.8
2022-11-12T02:00:00,1012A,116.184,39.9136,北京市,古城,,20,11,169,10,130,14,8,4,4,39,66,3,3,1.5,1.6
2022-11-12T02:00:00,1015A,117.1444,39.1661,天津市,勤俭道,细颗粒物(PM2.5),134,131,164,102,114,10,0,0,0,47,46,6,7,1.2,1.5
2022-11-12T02:00:00,1017A,117.237,39.1082,天津市,大直沽八号路,细颗粒物(PM2.5),190,161,150,143,120,24,0,0,0,55,48,6,7,1.9,1.5
2022-11-12T02:00:00,1018A,117.202,39.0927,天津市,前进道,细颗粒物(PM2.5),179,174,152,135,113,11,3,4,4,57,53,8,8,1.6,1.4
2022-11-12T02:00:00,1019A,117.1837,39.2133,天津市,淮河道,细颗粒物(PM2.5),118,135,160,89,96,9,0,0,0,59,49,8,11,2.2,1.5
2022-11-12T02:00:00,1021A,117.307,39.0877,天津市,跃进路,细颗粒物(PM2.5),183,188,167,138,109,23,0,3,2,57,50,8,8,2.3,1.5
2022-11-12T02:00:00,1023A,117.707,39.0343,天津市,第四大街,细颗粒物(PM2.5),143,149,163,109,113,15,12,6,6,32,50,6,6,1.2,1.3
2022-11-12T02:00:00,1024A,117.457,38.8394,天津市,永明路,细颗粒物(PM2.5),138,122,148,105,106,14,8,6,6,38,47,6,6,0.9,1
2022-11-12T02:00:00,1026A,117.764,39.1587,天津市,汉北路,颗粒物(PM10),101,151,138,71,79,56,20,18,18,21,24,7,7,1.2,1.1
2022-11-12T02:00:00,1027A,117.157,38.9194,天津市,团泊洼(对照点),颗粒物(PM10),92,133,171,55,48,6,4,6,5,43,49,2,2,2.0,1.6
2022-11-12T02:00:00,1029A,114.4422,38.0444,石家庄市,职工医院,细颗粒物(PM2.5),68,62,114,49,94,80,38,36,36,21,22,4,4,1.1,0.8
2022-11-12T02:00:00,1030A,114.6063,38.0266,石家庄市,高新区,细颗粒物(PM2.5),58,25,109,41,87,86,50,65,58,22,21,2,1,0.8,0.7
2022-11-12T02:00:00,1031A,114.4898,38.1328,石家庄市,西北水源,细颗粒物(PM2.5),65,56,117,47,84,81,32,38,35,24,22,4,4,1.3,1
2022-11-12T02:00:00,1032A,114.4586,38.0058,石家庄市,西南高教,细颗粒物(PM2.5),73,55,111,53,94,77,32,38,35,25,22,3,3,1.3,1
2022-11-12T02:00:00,1033A,114.5331,38.0178,石家庄市,世纪公园,细颗粒物(PM2.5),58,32,98,41,83,69,34,43,38,19,18,4,4,1.4,1.1
2022-11-12T02:00:00,1034A,114.509,38.0457,石家庄市,人民会堂,细颗粒物(PM2.5),59,40,103,42,96,91,51,58,54,23,20,5,2,1.1,0.8
2022-11-12T02:00:00,1035A,114.3524,37.8911,石家庄市,封龙山(对照点),,,22,81,25,42,114,39,37,37,31,23,,,1.3,1.2
2022-11-12T02:00:00,1037A,118.131,39.6363,唐山市,雷达站,细颗粒物(PM2.5),117,92,148,88,106,22,16,14,14,30,42,1,2,1.3,1.5
2022-11-12T02:00:00,1038A,118.1725,39.6334,唐山市,物资局,细颗粒物(PM2.5),138,103,145,105,101,21,17,17,17,33,45,3,5,1.3,1.5
2022-11-12T02:00:00,1040A,118.1705,39.6506,唐山市,十二中,细颗粒物(PM2.5),108,84,146,81,94,22,15,16,16,30,43,2,4,1.2,1.4
2022-11-12T02:00:00,1041A,118.1869,39.622,唐山市,小山,细颗粒物(PM2.5),119,105,143,90,98,18,18,18,18,29,44,4,5,1.3,1.3
2022-11-12T02:00:00,1042A,119.5134,39.8207,秦皇岛市,北戴河环保局,,39,39,82,16,51,68,68,64,64,13,31,3,5,0.2,0.2
2022-11-12T02:00:00,1043A,119.7493,40.0116,秦皇岛市,第一关,颗粒物(PM10),52,54,90,26,53,49,49,48,48,22,43,4,5,0.4,0.7
2022-11-12T02:00:00,1044A,119.5897,39.9499,秦皇岛市,监测站,,41,41,95,28,65,62,62,54,54,11,45,5,6,0.3,0.5
2022-11-12T02:00:00,1046A,119.5251,39.9041,秦皇岛市,建设大厦,,49,49,88,24,51,68,68,61,61,18,48,3,6,0.4,0.6
2022-11-12T02:00:00,1047A,114.5129,36.61763,邯郸市,环保局,,,,,,,,,,,,,,,,
2022-11-12T02:00:00,1048A,114.5302,36.6116,邯郸市,东污水处理厂,细颗粒物(PM2.5),216,188,216,166,187,56,2,1,1,49,46,2,4,1.4,1.1
2022-11-12T02:00:00,1049A,114.4918,36.5713,邯郸市,矿院,细颗粒物(PM2.5),230,216,221,180,204,72,4,6,5,52,43,3,5,1.7,1.4
2022-11-12T02:00:00,1050A,114.484,36.6133,邯郸市,丛台公园,细颗粒物(PM2.5),228,226,229,178,188,63,10,8,8,38,36,5,6,1.2,1
2022-11-12T02:00:00,1051A,115.493,38.8632,保定市,游泳馆,细颗粒物(PM2.5),69,53,172,50,169,56,41,48,44,23,39,7,7,0.5,0.7
2022-11-12T02:00:00,1052A,115.5213,38.8959,保定市,华电二区,细颗粒物(PM2.5),77,59,161,56,154,58,40,43,42,29,46,4,5,1.1,1.3
2022-11-12T02:00:00,1053A,115.4713,38.9108,保定市,接待中心,细颗粒物(PM2.5),69,58,189,50,152,53,32,36,34,21,37,3,4,1.1,1.3
2022-11-12T02:00:00,1054A,115.4612,38.8416,保定市,地表水厂,细颗粒物(PM2.5),68,66,163,49,110,60,33,32,32,24,36,5,6,1.0,1.2
2022-11-12T02:00:00,1055A,115.4323,38.8697,保定市,胶片厂,,,,,,,,,,,,,,,,
2022-11-12T02:00:00,1056A,115.5086,38.8639,保定市,监测站,细颗粒物(PM2.5),64,56,164,46,166,63,45,50,48,29,45,3,4,1.1,1.3
2022-11-12T02:00:00,1057A,114.8883,40.8336,张家口市,人民公园,,15,7,54,2,47,72,46,44,44,8,23,4,6,0.2,0.6
2022-11-12T02:00:00,1059A,114.8687,40.8042,张家口市,五金库,,14,0,43,5,44,76,44,42,42,6,19,8,9,0.3,0.7
2022-11-12T02:00:00,1060A,114.8902,40.762,张家口市,世纪豪园,,14,10,71,1,55,88,42,45,44,6,21,2,2,0.1,0.8
2022-11-12T02:00:00,1061A,114.8916,40.8661,张家口市,北泵房(对照点),,23,3,56,16,49,83,47,43,43,12,24,6,10,0.6,1
2022-11-12T02:00:00,1062A,117.9531,40.9081,承德市,铁路,细颗粒物(PM2.5),60,64,113,43,66,17,3,3,3,50,53,8,8,1.2,1.1
2022-11-12T02:00:00,1063A,117.9392,40.9763,承德市,中国银行,细颗粒物(PM2.5),64,53,97,46,69,29,1,2,2,43,43,3,4,1.1,1
2022-11-12T02:00:00,1064A,117.9503,40.928,承德市,开发区,细颗粒物(PM2.5),59,50,101,42,70,28,4,4,4,49,50,7,7,1.3,1.2
2022-11-12T02:00:00,1065A,117.8051,40.9655,承德市,文化中心,细颗粒物(PM2.5),77,69,119,56,89,32,1,1,1,45,42,4,4,1.7,1.2
2022-11-12T02:00:00,1066A,117.9268,41.0026,承德市,离宫(对照点),细颗粒物(PM2.5),58,30,89,41,70,38,0,0,0,34,36,7,8,1.1,0.8
2022-11-12T02:00:00,1067A,116.6708,39.5111,廊坊市,药材公司,,28,14,112,19,73,28,0,0,0,41,39,6,6,1.2,1.3
2022-11-12T02:00:00,1068A,116.7214,39.5589,廊坊市,开发区,,27,10,96,6,69,20,1,1,1,53,48,8,7,1.3,1.3
2022-11-12T02:00:00,1070A,116.7244,39.5269,廊坊市,北华航天学院,,25,15,107,17,94,30,3,3,3,42,42,4,4,1.2,1.3
2022-11-12T02:00:00,1071A,116.8842,38.2991,沧州市,沧县城建局,细颗粒物(PM2.5),297,216,161,247,154,85,22,25,24,37,43,8,9,1.4,1.3
2022-11-12T02:00:00,1072A,116.8584,38.3254,沧州市,电视转播站,细颗粒物(PM2.5),244,220,175,194,132,99,20,21,20,32,29,7,10,1.2,1.2
2022-11-12T02:00:00,1073A,116.8709,38.3228,沧州市,市环保局,细颗粒物(PM2.5),270,179,169,220,141,98,26,30,28,36,34,10,12,1.3,1.2
2022-11-12T02:00:00,1074A,115.6838,37.7541,衡水市,电机北厂,细颗粒物(PM2.5),123,134,300,93,225,24,9,6,6,30,45,8,10,1.1,1.2
2022-11-12T02:00:00,1075A,115.6303,37.7316,衡水市,市监测站,细颗粒物(PM2.5),128,121,332,97,232,23,6,4,4,31,43,5,2,0.9,1
2022-11-12T02:00:00,1077A,114.4704,37.0886,邢台市,达活泉,细颗粒物(PM2.5),115,88,198,87,170,79,8,5,5,41,35,6,6,1.1,1.1
2022-11-12T02:00:00,1078A,114.5062,37.0349,邢台市,邢师高专,细颗粒物(PM2.5),132,93,174,100,179,83,16,10,10,25,30,6,7,1.0,1.1
2022-11-12T02:00:00,1079A,114.5237,37.0851,邢台市,路桥公司,细颗粒物(PM2.5),102,103,215,76,159,82,15,10,10,28,31,4,6,1.0,0.9
2022-11-12T02:00:00,1080A,114.4725,37.0719,邢台市,市环保局,细颗粒物(PM2.5),122,85,206,92,178,76,9,4,4,36,33,4,5,0.9,0.9
2022-11-12T02:00:00,1081A,112.5139,37.8873,太原市,尖草坪,,12,4,65,2,55,73,36,37,36,16,27,4,4,0.5,0.9
2022-11-12T02:00:00,1083A,112.434,38.0108,太原市,上兰(对照点),,,,,,,,,,,,,,,,
2022-11-12T02:00:00,1084A,112.469,37.7124,太原市,晋源,,14,14,64,5,49,76,25,28,26,25,36,6,7,0.7,1.2
2022-11-12T02:00:00,1085A,112.5583,37.7394,太原市,小店,,14,1,70,2,57,63,25,31,28,27,46,4,6,0.5,1.4
2022-11-12T02:00:00,1086A,112.5369,37.8692,太原市,桃园,,11,0,62,1,54,63,34,36,35,18,36,2,4,0.5,1.2
2022-11-12T02:00:00,1087A,112.57,37.8195,太原市,坞城,,12,2,59,2,54,71,37,37,37,18,32,4,6,0.4,1.2
2022-11-12T02:00:00,1088A,112.549,37.9854,太原市,南寨,,10,3,51,0,46,83,32,36,34,17,36,3,3,0.5,1
2022-11-12T02:00:00,1089A,112.4701,37.782,太原市,金胜,,,,,,,,,,,,,,,,
2022-11-12T02:00:00,1090A,111.6507,40.7517,呼和浩特市,呼市一监,,15,2,35,2,32,49,45,42,42,6,21,6,6,0.5,0.8
2022-11-12T02:00:00,1091A,111.6572,40.8033,呼和浩特市,小召,,15,2,36,1,34,52,48,44,44,10,25,8,10,0.2,0.6
2022-11-12T02:00:00,1094A,111.7516,40.8369,呼和浩特市,如意水处理厂,,12,2,40,2,32,37,37,32,32,17,33,2,3,0.7,1
2022-11-12T02:00:00,1095A,111.7276,40.8062,呼和浩特市,二十九中,,15,4,41,2,34,53,46,41,41,9,22,5,7,0.7,1.1
2022-11-12T02:00:00,1096A,111.5512,40.7866,呼和浩特市,工大金川校区,,,,,,,,,,,,,,,,
2022-11-12T02:00:00,1097A,111.717,40.7612,呼和浩特市,化肥厂生活区,,,1,41,1,37,51,37,37,37,,,7,9,0.5,0.9
2022-11-12T02:00:00,1098A,123.6836,41.9339,沈阳市,森林路(对照点),,,,,,,,,,,,,,,,
2022-11-12T02:00:00,1099A,123.505,41.7406,沈阳市,浑南东路,,37,37,49,24,29,86,40,36,36,36,44,10,15,0.9,1
2022-11-12T02:00:00,1100A,123.4231,41.6989,沈阳市,新秀街,,39,35,40,27,32,92,65,62,62,19,26,27,30,0.9,1
2022-11-12T02:00:00,1102A,123.5903,41.8411,沈阳市,东陵路,,42,42,48,29,39,87,55,59,57,22,34,8,10,0.8,1
2022-11-12T02:00:00,1103A,123.4264,41.8467,沈阳市,陵东街,,42,42,54,27,32,91,51,56,54,29,37,10,15,0.9,0.9
2022-11-12T02:00:00,1104A,123.4114,41.7653,沈阳市,文化路,细颗粒物(PM2.5),58,48,55,41,45,94,67,70,68,27,31,14,26,0.8,0.8
2022-11-12T02:00:00,1105A,123.4678,41.7867,沈阳市,小河沿,,40,38,54,28,34,87,52,55,54,26,38,6,16,0.9,0.9
2022-11-12T02:00:00,1106A,123.4017,41.7972,沈阳市,太原街,,50,50,59,32,35,86,66,72,69,25,32,16,23,0.9,0.9
2022-11-12T02:00:00,1108A,123.3783,41.9228,沈阳市,京沈街,,49,49,56,31,42,87,52,60,56,27,34,12,23,1.1,0.8
2022-11-12T02:00:00,1109A,121.612,38.9741,大连市,甘井子,细颗粒物(PM2.5),90,83,69,67,58,122,101,100,100,16,27,5,5,0.6,0.6
2022-11-12T02:00:00,1110A,121.565,38.9511,大连市,周水子,细颗粒物(PM2.5),78,101,83,57,48,100,81,86,84,17,27,2,4,0.7,0.7
2022-11-12T02:00:00,1111A,121.5637,38.8845,大连市,星海三站,细颗粒物(PM2.5),95,104,84,71,70,107,80,78,78,22,27,5,8,0.7,0.8
2022-11-12T02:00:00,1112A,121.6302,38.9117,大连市,青泥洼桥,颗粒物(PM10),81,112,90,52,47,119,103,104,104,25,34,5,11,0.7,0.8
2022-11-12T02:00:00,1113A,121.6251,38.8638,大连市,傅家庄,细颗粒物(PM2.5),82,90,75,60,48,120,85,88,86,27,22,5,6,0.7,0.7
2022-11-12T02:00:00,1114A,121.5213,38.8661,大连市,七贤岭,颗粒物(PM10),74,98,78,53,45,140,109,106,106,18,22,8,8,0.6,0.6
2022-11-12T02:00:00,1115A,121.2529,38.8061,大连市,旅顺,细颗粒物(PM2.5),68,82,52,49,32,113,96,95,95,15,20,4,3,0.5,0.5
2022-11-12T02:00:00,1116A,121.7485,39.1311,大连市,金州,细颗粒物(PM2.5),72,91,61,52,43,115,105,111,108,16,19,8,8,0.7,0.6
2022-11-12T02:00:00,1117A,121.7811,39.0496,大连市,开发区,细颗粒物(PM2.5),75,69,65,55,46,125,109,115,112,26,34,5,6,0.6,0.7
2022-11-12T02:00:00,1118A,121.9762,39.0631,大连市,双D港,颗粒物(PM10),84,118,80,58,49,122,95,102,98,15,11,8,8,0.8,0.8
2022-11-12T02:00:00,1119A,125.3325,43.9166,长春市,食品厂,细颗粒物(PM2.5),90,83,74,67,67,63,48,48,48,14,37,4,9,0.4,0.8
2022-11-12T02:00:00,1120A,125.2863,43.9027,长春市,客车厂,细颗粒物(PM2.5),108,74,68,81,68,72,43,45,44,17,36,7,10,0.4,0.8
2022-11-12T02:00:00,1121A,125.2841,43.8463,长春市,邮电学院,细颗粒物(PM2.5),77,87,86,56,57,84,50,52,51,16,34,5,8,0.7,1
2022-11-12T02:00:00,1122A,125.3716,43.8772,长春市,劳动公园,细颗粒物(PM2.5),77,81,70,56,65,82,46,50,48,16,32,6,11,0.4,0.7
2022-11-12T02:00:00,1123A,125.3297,43.8805,长春市,园林处,细颗粒物(PM2.5),78,75,71,57,63,78,49,50,50,15,31,5,8,0.6,0.9
2022-11-12T02:00:00,1124A,125.4605,43.79,长春市,净月潭,细颗粒物(PM2.5),65,73,60,47,50,79,46,48,47,16,21,6,6,0.4,0.6
2022-11-12T02:00:00,1125A,125.7194,43.515,长春市,甩湾子(对照点),,,,,,,,,,,,,,,,
2022-11-12T02:00:00,1126A,125.3863,43.8447,长春市,经开区环卫处,细颗粒物(PM2.5),87,90,89,64,67,74,44,48,46,17,32,7,9,0.5,0.8
2022-11-12T02:00:00,1127A,125.245,43.7783,长春市,高新区管委会,细颗粒物(PM2.5),74,67,66,54,60,76,42,46,44,17,27,5,6,0.4,0.7
2022-11-12T02:00:00,1128A,125.1761,43.8325,长春市,岱山公园,细颗粒物(PM2.5),82,71,69,60,69,81,43,49,46,21,28,4,6,0.5,0.7
2022-11-12T02:00:00,1129A,126.5422,45.755,哈尔滨市,岭北(对照点),细颗粒物(PM2.5),215,216,164,165,138,122,37,42,40,25,32,14,18,0.9,0.9
2022-11-12T02:00:00,1130A,126.561,45.8167,哈尔滨市,松北商大,细颗粒物(PM2.5),201,175,178,151,138,106,34,40,37,20,36,4,10,0.9,1.2
2022-11-12T02:00:00,1131A,126.979,45.5419,哈尔滨市,阿城会宁,细颗粒物(PM2.5),268,240,142,218,106,49,48,48,48,22,27,7,19,0.9,0.9
2022-11-12T02:00:00,1132A,126.599,45.7222,哈尔滨市,南岗学府路,细颗粒物(PM2.5),196,179,152,147,109,54,47,49,48,22,34,5,18,0.6,0.6
2022-11-12T02:00:00,1133A,126.689,45.7733,哈尔滨市,太平宏伟公园,细颗粒物(PM2.5),218,211,200,168,147,59,44,47,46,21,38,12,18,0.8,1
2022-11-12T02:00:00,1134A,126.635,45.7667,哈尔滨市,道外承德广场,细颗粒物(PM2.5),220,297,198,170,117,52,36,39,38,23,36,7,12,0.8,0.9
2022-11-12T02:00:00,1135A,126.685,45.7319,哈尔滨市,香坊红旗大街,细颗粒物(PM2.5),206,198,155,156,113,55,47,49,48,23,40,19,27,0.8,0.9
2022-11-12T02:00:00,1136A,126.6411,45.7258,哈尔滨市,动力和平路,细颗粒物(PM2.5),211,175,138,161,116,56,43,48,46,30,40,12,17,0.8,0.9
2022-11-12T02:00:00,1137A,126.593,45.7478,哈尔滨市,道里建国路,细颗粒物(PM2.5),207,174,138,157,103,50,40,45,42,26,38,8,17,0.6,1.2
2022-11-12T02:00:00,1138A,126.615,45.61,哈尔滨市,平房东轻厂,细颗粒物(PM2.5),207,177,121,157,100,48,34,38,36,34,25,12,12,0.7,0.8
2022-11-12T02:00:00,1139A,126.595,45.9855,哈尔滨市,呼兰师专,细颗粒物(PM2.5),218,170,167,168,135,83,31,35,33,21,49,10,20,1.1,1.8
2022-11-12T02:00:00,1140A,126.6206,45.6842,哈尔滨市,省农科院,细颗粒物(PM2.5),183,193,137,138,102,55,39,44,42,27,37,16,17,0.8,0.9
2022-11-12T02:00:00,1141A,121.4,31.238,上海市,普陀,,22,22,27,12,24,45,45,44,44,16,29,3,4,0.6,0.6
2022-11-12T02:00:00,1142A,121.478,31.2036,上海市,十五厂,,29,19,28,20,28,40,35,39,37,30,38,7,7,0.5,0.5
2022-11-12T02:00:00,1143A,121.467,31.3008,上海市,虹口,,25,17,28,17,21,46,44,46,45,16,37,4,4,0.4,0.5
2022-11-12T02:00:00,1144A,121.412,31.1654,上海市,徐汇上师大,,22,20,24,15,22,48,40,42,41,31,43,7,7,0.7,0.7
2022-11-12T02:00:00,1145A,121.536,31.2659,上海市,杨浦四漂,,26,22,26,18,24,40,35,34,34,30,43,6,7,0.7,0.7
2022-11-12T02:00:00,1146A,120.978,31.0935,上海市,青浦淀山湖(对照点),,,,,,,,,,,,,,,,
2022-11-12T02:00:00,1147A,121.425,31.2261,上海市,静安监测站,,29,29,39,16,25,47,47,47,47,18,29,5,5,0.5,0.6
2022-11-12T02:00:00,1148A,121.703,31.1907,上海市,浦东川沙,,33,18,21,23,21,51,34,32,32,17,27,5,6,0.5,0.5
2022-11-12T02:00:00,1149A,121.533,31.2284,上海市,浦东新区监测站,,30,30,36,19,24,125,47,47,47,10,22,5,5,0.6,0.6
2022-11-12T02:00:00,1150A,121.577,31.2071,上海市,浦东张江,,38,18,22,26,31,46,44,42,42,14,27,3,4,0.8,0.8
2022-11-12T02:00:00,1151A,118.8086,32.1065,南京市,迈皋桥,,37,37,57,24,33,68,29,32,30,20,34,4,4,0.3,0.5
2022-11-12T02:00:00,1152A,118.7538,32.0551,南京市,草场门,,36,36,45,22,33,71,25,29,27,26,25,1,2,0.4,0.6
2022-11-12T02:00:00,1153A,118.7794,32.0745,南京市,山西路,,39,29,47,27,31,82,35,38,36,12,16,3,3,0.2,0.3
2022-11-12T02:00:00,1154A,118.7752,32.0023,南京市,中华门,,36,36,48,22,28,76,24,25,24,21,24,5,4,0.5,0.3
2022-11-12T02:00:00,1155A,118.8109,32.0309,南京市,瑞金路,,35,34,41,24,32,76,29,34,32,13,9,4,4,0.4,0.3
2022-11-12T02:00:00,1156A,118.7997,32.0754,南京市,玄武湖,,38,38,49,17,35,80,34,37,36,14,18,3,4,0.2,0.4
2022-11-12T02:00:00,1157A,118.6414,32.0931,南京市,浦口,,33,33,47,19,33,61,23,29,26,29,33,2,3,0.4,0.6
2022-11-12T02:00:00,1158A,118.7356,31.9996,南京市,奥体中心,,49,31,42,34,36,71,22,25,24,25,27,2,2,0.3,0.4
2022-11-12T02:00:00,1159A,118.9125,32.1028,南京市,仙林大学城,,31,31,47,17,26,78,34,36,35,17,23,2,2,0.5,0.6
2022-11-12T02:00:00,1160A,120.561,31.2472,苏州市,上方山(对照点),,32,32,39,17,23,47,32,36,34,11,20,5,5,0.5,0.5
2022-11-12T02:00:00,1161A,120.628,31.2864,苏州市,南门,,,,,,,,,,,,,,,,
2022-11-12T02:00:00,1162A,120.591,31.3019,苏州市,彩香,,29,29,35,16,21,45,38,37,37,13,28,5,5,0.5,0.6
2022-11-12T02:00:00,1163A,120.596,31.3264,苏州市,轧钢厂,,26,26,35,12,18,50,39,38,38,8,27,5,5,0.6,0.7
2022-11-12T02:00:00,1164A,120.613,31.2703,苏州市,吴中区,,28,28,40,17,26,54,38,36,36,10,28,6,6,0.4,0.5
2022-11-12T02:00:00,1165A,120.543,31.2994,苏州市,苏州新区,,31,31,37,18,24,46,37,39,38,6,21,5,5,0.5,0.5
2022-11-12T02:00:00,1166A,120.669,31.3097,苏州市,苏州工业园区,,31,31,35,20,21,40,33,33,33,10,28,5,5,0.5,0.7
2022-11-12T02:00:00,1167A,120.641,31.3708,苏州市,相城区,,27,27,32,6,16,40,38,38,38,8,27,5,5,0.6,0.6
2022-11-12T02:00:00,1168A,120.9098,31.9663,南通市,狼山街道,,22,22,24,12,11,65,39,42,40,18,14,7,6,0.5,0.4
2022-11-12T02:00:00,1169A,120.86,32.0005,南通市,虹桥,,29,28,27,20,16,64,38,38,38,20,17,6,5,0.6,0.5
2022-11-12T02:00:00,1170A,120.87,32.02,南通市,城中,细颗粒物(PM2.5),57,30,26,40,27,67,43,42,42,16,14,4,4,0.3,0.2
2022-11-12T02:00:00,1171A,120.94,31.93,南通市,星湖花园,,30,30,25,14,13,59,35,40,38,18,14,7,6,0.5,0.4
2022-11-12T02:00:00,1172A,120.81,32.0417,南通市,紫琅学院,,28,28,29,14,15,67,36,36,36,17,15,7,6,0.6,0.4
2022-11-12T02:00:00,1173A,119.176,34.5885,连云港市,市环境监测站,,27,27,40,14,19,94,41,44,42,15,19,4,6,0.2,0.3
2022-11-12T02:00:00,1177A,117.179,34.2761,徐州市,黄河新村,,50,46,66,35,40,79,20,26,23,26,26,8,8,0.7,0.7
2022-11-12T02:00:00,1178A,117.1918,34.2384,徐州市,淮塔,颗粒物(PM10),55,60,81,36,47,87,20,26,23,32,28,7,7,0.6,0.6
2022-11-12T02:00:00,1180A,117.256,34.2153,徐州市,新城区,颗粒物(PM10),57,63,82,39,53,85,20,25,22,37,31,8,9,0.6,0.7
2022-11-12T02:00:00,1181A,117.244,34.2911,徐州市,桃园路,细颗粒物(PM2.5),83,88,92,61,51,82,9,14,12,37,25,4,3,0.8,0.8
2022-11-12T02:00:00,1182A,117.2933,34.2778,徐州市,农科院,颗粒物(PM10),68,85,75,48,47,74,4,4,4,41,33,7,6,0.8,0.8
2022-11-12T02:00:00,1186A,119.389,32.3761,扬州市,邗江监测站,,41,41,55,20,28,58,1,1,1,47,35,8,8,0.9,1
2022-11-12T02:00:00,1188A,120.269,31.4867,无锡市,雪浪,,27,27,44,12,24,39,29,29,29,16,31,5,6,0.6,0.7
2022-11-12T02:00:00,1189A,120.275,31.6219,无锡市,黄巷,,26,26,48,12,25,40,28,30,29,22,33,7,7,0.4,0.6
2022-11-12T02:00:00,1190A,120.294,31.56,无锡市,曹张,,25,22,33,17,24,40,28,32,30,16,26,7,8,0.6,0.7
2022-11-12T02:00:00,1191A,120.242,31.5031,无锡市,漆塘,,22,22,40,7,21,54,35,36,36,15,27,8,9,0.4,0.5
2022-11-12T02:00:00,1192A,120.3489,31.5863,无锡市,东亭,,22,22,41,12,25,42,15,20,18,25,28,6,6,0.6,0.7
2022-11-12T02:00:00,1193A,120.354,31.5475,无锡市,旺庄,,22,22,41,9,25,37,29,28,28,19,34,7,8,0.5,0.9
2022-11-12T02:00:00,1194A,120.245,31.5631,无锡市,荣巷,,22,22,40,12,25,42,29,32,30,27,38,8,7,0.5,0.6
2022-11-12T02:00:00,1195A,120.299,31.6817,无锡市,堰桥,,19,19,37,9,23,43,31,34,32,16,29,5,5,0.7,0.8
2022-11-12T02:00:00,1196A,119.9633,31.762,常州市,市监测站,,38,38,60,15,31,42,26,26,26,28,41,5,6,0.4,0.7
2022-11-12T02:00:00,1200A,119.9468,31.7069,常州市,武进监测站,,40,40,56,11,23,55,27,27,27,25,35,7,8,0.5,0.7
2022-11-12T02:00:00,1201A,119.9255,31.9087,常州市,安家,颗粒物(PM10),52,54,59,24,35,58,14,10,10,37,39,4,5,0.6,0.7
2022-11-12T02:00:00,1203A,119.6707,32.1875,镇江市,新区办事处,,31,31,45,17,28,52,11,11,11,52,43,7,5,0.7,0.9
2022-11-12T02:00:00,1204A,119.4974,32.1968,镇江市,职教中心,,43,29,44,30,62,40,11,13,12,45,48,2,5,0.6,0.9
2022-11-12T02:00:00,1205A,119.4303,32.1328,镇江市,丹徒区监测站,,30,30,48,20,39,56,25,14,14,27,39,3,5,0.3,0.6
2022-11-12T02:00:00,1206A,119.905,32.4878,泰州市,公园路,,35,34,42,24,26,56,19,21,20,27,20,10,8,0.9,0.8
2022-11-12T02:00:00,1207A,119.9189,32.4625,泰州市,莲花,,44,44,41,29,30,65,19,21,20,32,25,10,8,0.8,0.6
2022-11-12T02:00:00,1209A,119.888,32.4639,泰州市,留学生创业园,,48,39,35,33,28,62,20,20,20,29,18,8,6,1.0,0.8
2022-11-12T02:00:00,1210A,119.036,33.5981,淮安市,钵池山,,28,27,36,19,20,80,33,34,34,13,16,6,6,0.7,0.7
2022-11-12T02:00:00,1211A,119.007,33.575,淮安市,北京南路,,36,29,39,25,29,73,25,27,26,15,16,6,6,0.8,0.7
2022-11-12T02:00:00,1212A,118.989,33.6067,淮安市,市监测站,,36,36,40,22,13,80,36,37,36,16,19,4,4,0.8,0.7
2022-11-12T02:00:00,1213A,119.135,33.5039,淮安市,楚州区监测站,,27,27,40,17,20,74,23,25,24,14,15,7,6,0.7,0.7
2022-11-12T02:00:00,1214A,119.0186,33.6297,淮安市,淮阴区监测站,,33,33,38,22,19,76,33,34,34,14,18,6,6,0.5,0.4
2022-11-12T02:00:00,1215A,120.118,33.4022,盐城市,盐城电厂,,18,17,25,12,17,96,57,59,58,6,13,6,6,0.4,0.4
2022-11-12T02:00:00,1216A,120.156,33.3942,盐城市,市监测站,,16,15,30,11,15,82,43,47,45,9,14,8,8,0.3,0.3
2022-11-12T02:00:00,1218A,120.2144,33.38,盐城市,开发区管委会,,17,13,24,10,14,92,52,57,54,14,17,6,8,0.2,0.3
2022-11-12T02:00:00,1220A,118.293,33.9528,宿迁市,宿迁学院,,47,47,41,19,23,76,12,14,13,30,25,6,5,0.6,0.6
2022-11-12T02:00:00,1221A,118.2442,33.9592,宿迁市,宿迁中学,颗粒物(PM10),53,55,44,30,25,79,23,26,24,23,23,5,5,0.5,0.5
2022-11-12T02:00:00,1223A,120.2072,30.2111,杭州市,滨江,颗粒物(PM10),53,55,58,25,31,52,2,2,2,48,47,5,5,0.8,0.6
2022-11-12T02:00:00,1224A,120.0633,30.2747,杭州市,西溪,,38,38,54,19,30,60,4,4,4,12,26,10,10,0.6,0.5
2022-11-12T02:00:00,1225A,119.026,29.635,杭州市,千岛湖(对照点),,,,,,,,,,,,,,,,
2022-11-12T02:00:00,1226A,120.3461,30.3153,杭州市,下沙,,40,40,44,21,25,65,4,4,4,47,40,9,8,0.7,0.6
2022-11-12T02:00:00,1227A,120.1269,30.2456,杭州市,卧龙桥,,30,30,64,21,37,60,1,1,1,9,26,6,6,0.6,0.6
2022-11-12T02:00:00,1228A,120.1903,30.2692,杭州市,浙江农大,,33,33,42,20,28,60,4,4,4,36,38,7,6,0.7,0.6
2022-11-12T02:00:00,1229A,120.157,30.2897,杭州市,朝晖五区,,,,,,,,,,,,,,,,
2022-11-12T02:00:00,1230A,120.1197,30.3119,杭州市,和睦小学,颗粒物(PM10),53,56,52,27,30,51,2,2,2,48,40,2,1,0.8,0.6
2022-11-12T02:00:00,1231A,120.3019,30.4183,杭州市,临平镇,,39,39,39,16,18,70,4,4,4,44,33,6,6,0.7,0.7
2022-11-12T02:00:00,1232A,120.2697,30.1819,杭州市,城厢镇,颗粒物(PM10),51,52,52,33,34,61,2,2,2,44,46,8,7,0.9,0.7
2022-11-12T02:00:00,1233A,120.0883,30.1808,杭州市,云栖,,36,36,84,19,28,62,4,4,4,11,30,6,6,0.6,0.5
2022-11-12T02:00:00,1234A,121.8358,29.911,宁波市,区环保大楼,,17,16,21,8,10,54,54,52,52,9,34,5,5,0.3,0.4
2022-11-12T02:00:00,1235A,121.56,29.82,宁波市,万里学院,,17,17,22,9,12,78,49,51,50,9,21,5,6,0.4,0.5
2022-11-12T02:00:00,1236A,121.713,29.9572,宁波市,龙赛医院,,32,32,28,17,16,54,7,6,6,47,38,10,12,0.6,0.6
2022-11-12T02:00:00,1239A,121.633,29.7733,宁波市,钱湖水厂,,13,10,15,9,11,76,36,36,36,6,12,5,5,0.4,0.4
2022-11-12T02:00:00,1240A,121.5856,29.8635,宁波市,太古小学,,15,15,16,8,11,71,40,38,38,16,29,8,9,0.5,0.6
2022-11-12T02:00:00,1241A,121.524,29.8674,宁波市,市环境监测中心,,12,12,27,6,12,68,38,46,42,12,25,6,7,0.4,0.6
2022-11-12T02:00:00,1242A,120.634,28.0089,温州市,瓯海,,47,47,51,24,23,68,2,2,2,42,42,8,7,0.6,0.6
2022-11-12T02:00:00,1243A,120.6748,27.9939,温州市,南浦,,41,41,38,22,19,65,1,1,1,43,36,5,5,0.4,0.3
2022-11-12T02:00:00,1244A,120.76,27.9747,温州市,龙湾,,35,35,38,18,17,67,2,2,2,48,43,5,6,0.6,0.5
2022-11-12T02:00:00,1245A,120.6709,28.0167,温州市,市站,,47,47,48,26,21,64,3,2,2,46,38,5,5,0.6,0.5
2022-11-12T02:00:00,1246A,120.598,30.0911,绍兴市,袍江站,,,,,,,,,,,,,,,,
2022-11-12T02:00:00,1247A,120.6053,29.9928,绍兴市,城东开发委,,43,40,47,30,36,59,2,2,2,24,35,8,10,0.9,0.8
2022-11-12T02:00:00,1250A,120.0751,30.8669,湖州市,城西水厂,,37,37,34,13,14,66,12,19,16,32,29,6,5,0.4,0.5
2022-11-12T02:00:00,1252A,120.7436,30.778,嘉兴市,清河小学,,20,20,21,10,13,62,28,31,30,24,21,8,7,0.4,0.4
2022-11-12T02:00:00,1253A,120.726,30.7478,嘉兴市,嘉兴学院,,22,22,25,11,13,56,30,33,32,21,22,7,6,0.3,0.3
2022-11-12T02:00:00,1255A,121.273,28.6459,台州市,黄岩环保大楼,,16,16,27,6,13,82,22,19,19,17,20,5,5,0.3,0.4
2022-11-12T02:00:00,1256A,121.419,28.6542,台州市,台州环保大楼,,31,31,28,16,15,76,16,23,20,22,14,6,6,0.4,0.4
2022-11-12T02:00:00,1257A,121.377,28.5773,台州市,路桥田洋王,,19,19,27,8,14,75,20,21,20,21,17,6,5,0.3,0.3
2022-11-12T02:00:00,1258A,122.122,30.0203,舟山市,定海檀枫,,19,19,18,9,9,70,51,52,52,18,11,5,4,0.2,0.2
2022-11-12T02:00:00,1259A,122.3094,29.9558,舟山市,普陀东港,,20,16,20,9,11,68,61,63,62,9,21,4,5,0.2,0.3
2022-11-12T02:00:00,1260A,122.19,29.9944,舟山市,临城新区,,19,17,15,6,7,68,60,56,56,12,11,5,5,0.2,0.2
2022-11-12T02:00:00,1261A,119.649,29.1131,金华市,四中(停运161031),,,,,,,,,,,,,,,,
2022-11-12T02:00:00,1262A,119.647,29.077,金华市,十五中,,44,44,50,26,28,84,21,24,22,40,38,6,6,0.5,0.5
2022-11-12T02:00:00,1263A,119.686,29.1029,金华市,监测站,颗粒物(PM10),54,58,48,26,23,89,3,22,12,48,30,6,7,0.6,0.5
2022-11-12T02:00:00,1264A,118.8692,28.9398,衢州市,环保大楼,,49,40,41,34,28,117,29,36,32,29,27,7,8,0.4,0.4
2022-11-12T02:00:00,1265A,118.8709,28.9666,衢州市,实验学校,,43,43,34,26,22,82,24,31,28,24,25,10,8,0.6,0.6
2022-11-12T02:00:00,1266A,118.8621,28.9808,衢州市,衢州学院,,43,43,40,24,21,105,35,41,38,24,24,9,8,0.5,0.5
2022-11-12T02:00:00,1267A,119.914,28.4514,丽水市,监测站大楼,,24,24,27,14,15,71,5,5,5,33,22,12,7,0.4,0.5
2022-11-12T02:00:00,1268A,119.93,28.4586,丽水市,莲都小学,,26,26,27,7,11,73,24,22,22,20,19,6,6,0.4,0.4
2022-11-12T02:00:00,1269A,119.879,28.4231,丽水市,余庄前,,27,27,19,17,10,77,4,4,4,20,16,5,6,0.4,0.3
2022-11-12T02:00:00,1270A,117.1959,31.7848,合肥市,明珠广场,,48,48,90,31,57,93,14,18,16,35,39,10,9,0.5,0.7
2022-11-12T02:00:00,1271A,117.3072,31.8764,合肥市,三里街,颗粒物(PM10),56,61,98,22,56,77,1,3,2,52,45,8,7,1.0,0.9
2022-11-12T02:00:00,1272A,117.2588,31.8707,合肥市,琥珀山庄,颗粒物(PM10),53,56,98,34,56,82,0,1,0,50,38,8,8,0.8,0.8
2022-11-12T02:00:00,1273A,117.1604,31.9052,合肥市,董铺水库(对照点),颗粒物(PM10),59,68,94,31,57,88,5,4,4,58,36,5,9,0.6,0.9
2022-11-12T02:00:00,1274A,117.25,31.8571,合肥市,长江中路,颗粒物(PM10),57,63,99,34,59,85,2,4,3,49,34,10,9,0.6,0.8
2022-11-12T02:00:00,1275A,117.266,31.9436,合肥市,庐阳区,颗粒物(PM10),63,75,96,39,54,85,0,0,0,52,38,6,5,0.6,0.6
2022-11-12T02:00:00,1276A,117.336,31.8586,合肥市,瑶海区,细颗粒物(PM2.5),82,56,99,60,73,89,4,9,6,52,51,11,11,0.9,0.9
2022-11-12T02:00:00,1277A,117.3027,31.7964,合肥市,包河区,细颗粒物(PM2.5),58,53,98,41,68,101,23,22,22,31,40,10,10,0.4,0.8
2022-11-12T02:00:00,1278A,117.2776,31.7385,合肥市,滨湖新区,颗粒物(PM10),52,53,104,29,61,112,23,22,22,28,28,12,11,0.7,0.9
2022-11-12T02:00:00,1279A,117.1318,31.8403,合肥市,高新区,颗粒物(PM10),62,73,106,34,66,84,21,20,20,36,39,7,6,0.5,0.6
2022-11-12T02:00:00,1280A,119.3903,26.0543,福州市,鼓山(对照点),,,,,,,,,,,,,,,,
2022-11-12T02:00:00,1282A,119.2681,26.0504,福州市,师大,,30,30,25,17,14,64,11,10,10,33,19,5,4,0.7,0.6
2022-11-12T02:00:00,1283A,119.2984,26.1028,福州市,五四北路,,28,23,16,19,10,65,7,6,6,35,13,3,3,0.7,0.7
2022-11-12T02:00:00,1284A,119.2648,26.0768,福州市,杨桥西路,,34,34,26,13,13,67,3,3,3,39,20,4,3,0.6,0.6
2022-11-12T02:00:00,1285A,119.317,26.0746,福州市,紫阳,,35,35,24,15,13,66,4,5,4,42,19,4,4,0.6,0.5
2022-11-12T02:00:00,1286A,118.1608,24.8169,厦门市,溪东(对照点),,,,,,,,,,,,,,,,
2022-11-12T02:00:00,1287A,118.1514,24.4767,厦门市,洪文,,34,34,29,18,11,118,8,13,10,42,26,3,3,0.4,0.4
2022-11-12T02:00:00,1288A,118.0661,24.4444,厦门市,鼓浪屿,,28,28,33,14,18,66,2,4,3,56,38,6,8,0.5,0.5
2022-11-12T02:00:00,1290A,115.8931,28.6843,南昌市,省外办,颗粒物(PM10),68,85,74,44,30,133,4,4,4,70,43,7,9,1.1,0.8
2022-11-12T02:00:00,1291A,115.8886,28.7003,南昌市,省林业公司,颗粒物(PM10),71,92,72,48,34,139,1,2,2,78,55,8,9,1.2,0.8
2022-11-12T02:00:00,1292A,115.8126,28.7442,南昌市,林科所,,29,29,48,19,23,157,67,54,54,23,32,10,12,0.7,0.7
2022-11-12T02:00:00,1294A,115.8518,28.687,南昌市,建工学校,颗粒物(PM10),60,70,67,31,28,144,7,7,7,72,44,9,11,0.9,0.7
2022-11-12T02:00:00,1295A,115.8921,28.6424,南昌市,象湖,颗粒物(PM10),65,79,60,44,31,137,2,2,2,75,46,8,9,1.2,0.7
2022-11-12T02:00:00,1296A,115.7423,28.7996,南昌市,武术学校(对照点),,33,22,35,23,21,143,9,10,10,13,14,19,21,0.6,0.7
2022-11-12T02:00:00,1298A,115.9314,28.6842,南昌市,省站,颗粒物(PM10),71,91,75,46,38,134,3,6,4,75,44,11,11,1.4,1
2022-11-12T02:00:00,1299A,116.9862,36.6114,济南市,科干所,,35,27,68,24,47,93,37,64,50,32,37,4,5,0.6,0.9
2022-11-12T02:00:00,1300A,116.9376,36.665,济南市,农科所,颗粒物(PM10),68,85,94,39,50,96,2,2,2,73,53,7,6,0.4,0.6
2022-11-12T02:00:00,1301A,117.1265,36.6734,济南市,开发区,颗粒物(PM10),64,78,92,42,52,73,4,5,4,78,61,8,8,0.9,1
2022-11-12T02:00:00,1303A,117.0624,36.6868,济南市,省种子仓库,细颗粒物(PM2.5),89,112,120,66,66,88,5,6,6,85,69,5,4,0.7,0.9
2022-11-12T02:00:00,1304A,116.9489,36.6447,济南市,机床二厂,颗粒物(PM10),70,90,108,42,57,102,5,5,5,74,50,6,6,0.9,1.1
2022-11-12T02:00:00,1305A,117.0495,36.663,济南市,市监测站,颗粒物(PM10),77,103,101,51,53,91,3,20,12,78,61,8,7,1.0,1
2022-11-12T02:00:00,1306A,116.7675,36.5484,济南市,长清党校,,46,46,69,32,46,102,49,61,55,20,24,3,3,0.5,0.7
2022-11-12T02:00:00,1307A,120.6659,36.2403,青岛市,仰口(对照点),,29,9,28,7,20,150,92,98,95,7,10,4,5,0.4,0.4
2022-11-12T02:00:00,1308A,120.3905,36.1851,青岛市,李沧区子站,,,,,,,,,,,,,,,,
2022-11-12T02:00:00,1309A,120.3471,36.0699,青岛市,市北区子站,,,,,,,,,,,,,,,,
2022-11-12T02:00:00,1310A,120.4134,36.0658,青岛市,市南区东部子站,,28,9,29,9,16,133,88,84,84,5,11,6,7,0.5,0.6
2022-11-12T02:00:00,1311A,120.3664,36.1032,青岛市,四方区子站,,25,22,35,7,21,116,79,79,79,8,18,5,5,0.5,0.5
2022-11-12T02:00:00,1312A,120.2994,36.054,青岛市,市南区西部子站,,28,19,30,7,13,135,89,87,87,17,19,6,7,0.7,0.7
2022-11-12T02:00:00,1313A,120.4581,36.0858,青岛市,崂山区子站,,29,17,31,7,14,142,92,88,88,15,20,5,5,0.2,0.3
2022-11-12T02:00:00,1314A,120.1983,35.9608,青岛市,黄岛区子站,,31,19,28,7,15,142,98,99,98,8,13,4,5,0.3,0.4
2022-11-12T02:00:00,1315A,120.3999,36.3083,青岛市,城阳区子站,,27,27,41,16,18,118,83,88,86,9,28,5,5,0.4,0.5
2022-11-12T02:00:00,1316A,113.69031,34.76122,郑州市,烟厂,颗粒物(PM10),52,54,201,12,138,44,23,13,13,17,36,3,4,0.9,1.4
2022-11-12T02:00:00,1317A,113.65724,34.77134,郑州市,郑纺机,颗粒物(PM10),52,53,212,18,157,49,27,16,16,18,36,7,8,1.0,1.7
2022-11-12T02:00:00,1318A,113.67526,34.80246,郑州市,银行学校,,33,33,204,18,140,55,29,20,20,22,38,6,8,1.3,1.9
2022-11-12T02:00:00,1319A,113.56746,34.81334,郑州市,供水公司,,35,35,125,8,82,51,29,18,18,13,33,5,6,0.9,1.6
2022-11-12T02:00:00,1320A,113.7329,34.7178,郑州市,经开区管委,颗粒物(PM10),62,74,227,19,98,38,19,10,10,18,30,5,6,1.2,1.5
2022-11-12T02:00:00,1321A,113.73961,34.77172,郑州市,四十七中,颗粒物(PM10),67,84,244,17,82,44,21,12,12,20,36,8,9,1.1,1.6
2022-11-12T02:00:00,1322A,113.60532,34.74838,郑州市,市监测站,,37,37,225,8,88,46,27,17,17,16,34,7,8,0.7,1.4
2022-11-12T02:00:00,1323A,113.64164,34.7525,郑州市,河医大,颗粒物(PM10),54,58,224,30,123,40,24,15,15,19,42,8,9,1.1,1.7
2022-11-12T02:00:00,1324A,113.51488,34.91089,郑州市,岗李水库(对照点),,,,,,,,,,,,,,,,
2022-11-12T02:00:00,1325A,114.3677,30.5584,武汉市,东湖梨园,细颗粒物(PM2.5),98,115,80,73,50,111,35,34,34,33,41,9,11,1.0,1.1
2022-11-12T02:00:00,1326A,114.2529,30.558,武汉市,汉阳月湖,细颗粒物(PM2.5),94,106,74,70,48,98,15,14,14,56,58,8,10,1.1,1.1
2022-11-12T02:00:00,1327A,114.282,30.6189,武汉市,汉口花桥,细颗粒物(PM2.5),83,100,81,61,50,88,5,9,7,51,48,6,7,0.9,0.9
2022-11-12T02:00:00,1328A,114.3025,30.5332,武汉市,武昌紫阳,细颗粒物(PM2.5),102,96,72,76,54,98,28,42,35,42,44,10,12,1.1,1.2
2022-11-12T02:00:00,1329A,114.3646,30.6217,武汉市,青山钢花,细颗粒物(PM2.5),104,129,94,78,59,105,7,8,8,44,54,11,15,1.2,1.5
2022-11-12T02:00:00,1330A,114.1566,30.4825,武汉市,沌口新区,细颗粒物(PM2.5),99,122,85,74,50,93,50,48,48,63,52,12,14,1.1,1.1
2022-11-12T02:00:00,1331A,114.3014,30.5944,武汉市,汉口江滩,细颗粒物(PM2.5),89,108,75,66,53,79,7,8,8,54,48,8,10,1.2,1
2022-11-12T02:00:00,1333A,114.135,30.6319,武汉市,吴家山,细颗粒物(PM2.5),89,105,80,66,50,81,27,25,25,33,55,8,10,0.9,1.1
2022-11-12T02:00:00,1334A,113.8454,30.2917,武汉市,沉湖七壕(对照点),"颗粒物(PM10),细颗粒物(PM2.5)",72,94,58,52,36,97,17,33,25,46,30,10,11,1.0,0.8
2022-11-12T02:00:00,1335A,113.0833,28.2325,长沙市,经开区环保局,,40,40,39,21,21,127,49,44,44,31,31,10,10,0.6,0.6
2022-11-12T02:00:00,1336A,112.8872,28.2189,长沙市,高开区环保局,,35,35,33,16,24,116,14,13,13,55,20,9,13,0.5,0.4
2022-11-12T02:00:00,1337A,113.0792,28.2053,长沙市,马坡岭,,38,38,49,18,22,126,54,48,48,17,23,10,11,0.5,0.5
2022-11-12T02:00:00,1338A,112.9394,28.19,长沙市,湖南师范大学,,38,37,40,26,27,104,9,4,4,39,19,4,7,0.7,0.7
2022-11-12T02:00:00,1339A,113.0178,28.1322,长沙市,雨花区环保局,,43,43,35,22,19,108,22,18,18,39,25,12,12,0.3,0.4
2022-11-12T02:00:00,1340A,112.9792,28.2597,长沙市,伍家岭,颗粒物(PM10),65,80,69,26,29,135,5,5,5,55,46,6,7,0.8,0.8
2022-11-12T02:00:00,1341A,113.0014,28.1944,长沙市,火车新站,,48,48,45,19,23,114,20,24,22,47,30,9,11,0.6,0.7
2022-11-12T02:00:00,1342A,112.9844,28.1178,长沙市,天心区环保局,,39,39,36,16,21,117,29,22,22,37,27,9,11,0.5,0.5
2022-11-12T02:00:00,1343A,112.8908,28.1308,长沙市,湖南中医药大学,,,75,62,23,26,104,0,0,0,52,39,3,6,0.6,0.5
2022-11-12T02:00:00,1344A,112.9581,28.3611,长沙市,沙坪(对照点),,32,32,34,21,23,113,39,41,40,24,21,3,5,0.5,0.6
2022-11-12T02:00:00,1345A,113.2347,23.1423,广州市,广雅中学,细颗粒物(PM2.5),105,119,93,79,59,221,4,4,4,129,79,4,4,1.3,1.1
2022-11-12T02:00:00,1346A,113.2612,23.105,广州市,市五中,细颗粒物(PM2.5),119,97,81,90,65,239,16,14,14,85,62,5,6,1.5,1.2
2022-11-12T02:00:00,1348A,113.3478,23.0916,广州市,广东商学院,细颗粒物(PM2.5),94,96,77,70,51,237,4,4,4,125,67,6,6,1.3,1
2022-11-12T02:00:00,1349A,113.4332,23.1047,广州市,市八十六中,颗粒物(PM10),108,166,120,70,56,236,3,4,4,149,98,5,7,1.5,1.2
2022-11-12T02:00:00,1350A,113.3505,22.9483,广州市,番禺中学,细颗粒物(PM2.5),88,100,75,65,48,235,0,10,5,115,56,6,6,1.2,1
2022-11-12T02:00:00,1351A,113.2146,23.3916,广州市,花都师范,细颗粒物(PM2.5),98,122,97,73,61,256,0,5,2,123,59,6,7,1.1,0.9
2022-11-12T02:00:00,1352A,113.2597,23.1331,广州市,市监测站,细颗粒物(PM2.5),97,111,87,72,54,243,3,4,4,124,68,5,6,1.2,1
2022-11-12T02:00:00,1353A,113.5618,23.312,广州市,九龙镇镇龙,颗粒物(PM10),72,93,79,47,44,180,0,3,2,68,50,5,6,0.9,0.8
2022-11-12T02:00:00,1354A,113.2765,23.1544,广州市,麓湖,细颗粒物(PM2.5),89,105,78,66,49,238,4,4,4,108,64,4,4,1.1,0.9
2022-11-12T02:00:00,1355A,113.443,23.3035,广州市,帽峰山森林公园(对照点),细颗粒物(PM2.5),99,114,137,74,80,207,154,174,164,22,33,7,6,0.7,0.7
2022-11-12T02:00:00,1356A,114.1063,22.5545,深圳市,通心岭子站,,20,20,22,11,13,119,34,29,29,30,22,4,3,0.4,0.4
2022-11-12T02:00:00,1357A,114.117,22.5625,深圳市,洪湖,,26,26,27,14,14,152,28,27,27,31,23,6,6,0.6,0.6
2022-11-12T02:00:00,1358A,113.987,22.5417,深圳市,华侨城,,22,22,23,11,14,100,34,28,28,25,28,6,6,0.5,0.7
2022-11-12T02:00:00,1359A,113.9181,22.5171,深圳市,南海子站,,27,27,34,15,17,114,48,41,41,24,37,4,4,0.4,0.5
2022-11-12T02:00:00,1360A,114.2458,22.5689,深圳市,盐田,,12,12,18,6,12,107,36,36,36,19,33,6,7,0.6,0.6
2022-11-12T02:00:00,1361A,114.2283,22.7244,深圳市,龙岗,,22,22,41,10,22,172,45,43,43,19,33,4,4,0.5,0.6
2022-11-12T02:00:00,1362A,113.8953,22.5861,深圳市,西乡,,,,,,,,,,,,,,,,
2022-11-12T02:00:00,1363A,114.494,22.5422,深圳市,南澳,,14,14,18,5,10,95,30,31,30,7,10,6,6,0.4,0.4
2022-11-12T02:00:00,1364A,114.41,22.6342,深圳市,葵涌,,13,11,21,5,13,105,39,38,38,5,10,8,8,0.4,0.5
2022-11-12T02:00:00,1365A,114.297,22.5978,深圳市,梅沙,,15,12,25,4,12,114,48,52,50,9,10,8,8,0.5,0.5
2022-11-12T02:00:00,1366A,114.0678,22.738,深圳市,观澜,颗粒物(PM10),58,65,71,26,36,160,1,1,1,71,50,8,8,0.7,0.7
2022-11-12T02:00:00,1367A,113.5814,22.2618,珠海市,吉大,,36,19,22,25,20,84,26,24,24,33,21,6,6,0.4,0.4
2022-11-12T02:00:00,1368A,113.4881,22.2335,珠海市,前山,颗粒物(PM10),53,56,31,25,19,99,0,0,0,53,39,6,6,0.5,0.4
2022-11-12T02:00:00,1369A,113.628,22.4251,珠海市,唐家,,25,19,26,17,15,132,27,39,33,26,22,7,7,0.2,0.2
2022-11-12T02:00:00,1370A,113.299,22.2281,珠海市,斗门,,36,36,30,19,18,120,10,20,15,44,34,8,8,0.5,0.5
2022-11-12T02:00:00,1371A,113.1294,23.0067,佛山市,湾梁,"颗粒物(PM10),细颗粒物(PM2.5)",78,105,98,57,49,262,7,13,10,104,64,11,12,1.4,1.1
2022-11-12T02:00:00,1372A,113.1083,23.0478,佛山市,华材职中,细颗粒物(PM2.5),97,107,100,72,62,248,4,15,10,98,62,7,8,1.1,0.9
2022-11-12T02:00:00,1373A,113.144,23.0453,佛山市,南海气象局,细颗粒物(PM2.5),113,145,100,85,64,246,20,31,26,121,74,6,8,1.3,1
2022-11-12T02:00:00,1374A,113.2881,22.8094,佛山市,顺德苏岗,细颗粒物(PM2.5),113,81,72,85,63,224,4,19,12,109,59,6,6,1.8,1.2
2022-11-12T02:00:00,1375A,113.2544,22.7642,佛山市,容桂街道办,,,,,,,,,,,,,,,,
2022-11-12T02:00:00,1376A,112.8383,22.8678,佛山市,高明孔堂,,41,41,56,24,31,204,50,64,57,13,22,5,7,0.6,0.7
2022-11-12T02:00:00,1377A,112.8836,23.1588,佛山市,三水监测站,颗粒物(PM10),84,117,100,61,55,200,11,14,12,102,79,9,7,0.8,0.8
2022-11-12T02:00:00,1378A,112.867,23.185,佛山市,三水云东海,细颗粒物(PM2.5),65,78,73,47,42,236,2,2,2,64,44,5,6,0.6,0.6
2022-11-12T02:00:00,1379A,113.3769,22.5211,中山市,华柏园,,46,46,46,25,28,168,24,21,21,37,38,5,5,0.8,0.9
2022-11-12T02:00:00,1380A,113.3881,22.5497,中山市,张溪,,49,49,65,30,29,196,2,8,5,23,19,5,5,0.9,0.8
2022-11-12T02:00:00,1381A,113.4075,22.5111,中山市,紫马岭,,35,35,41,20,20,154,25,31,28,20,22,6,6,0.5,0.5
2022-11-12T02:00:00,1382A,113.4411,22.4853,中山市,长江旅游区(对照点),,,,,,,,,,,,,,,,
2022-11-12T02:00:00,1383A,113.1064,22.6058,江门市,北街,颗粒物(PM10),56,61,66,22,32,201,13,14,14,52,43,6,6,0.6,1
2022-11-12T02:00:00,1384A,113.0731,22.5835,江门市,西区,颗粒物(PM10),65,79,72,26,38,198,4,2,2,66,53,8,7,0.6,1.1
2022-11-12T02:00:00,1385A,113.0219,22.5311,江门市,圭峰西,颗粒物(PM10),55,59,56,25,31,182,34,50,42,38,32,5,6,0.8,0.8
2022-11-12T02:00:00,1386A,113.0828,22.5947,江门市,东湖,颗粒物(PM10),59,68,75,29,37,187,2,2,2,60,44,7,7,0.9,1.1
2022-11-12T02:00:00,1387A,113.7875,23.0457,东莞市,东城主山,,,,,,,,,,,,,,,,
2022-11-12T02:00:00,1388A,113.7533,23.0202,东莞市,南城元岭,,,,,,,,,,,,,,,,
2022-11-12T02:00:00,1389A,113.7547,23.0494,东莞市,莞城梨川,,,,99,,71,105,,83,,,59,,10,,1.0
2022-11-12T02:00:00,1390A,113.7944,23.0128,东莞市,东城石井,细颗粒物(PM2.5),90,93,85,67,54,219,29,28,28,38,39,11,11,0.9,0.9
2022-11-12T02:00:00,1391A,113.7383,22.9658,东莞市,南城西平,颗粒物(PM10),77,103,94,47,46,226,13,58,36,106,51,10,9,1.0,0.9
2022-11-12T02:00:00,1392A,114.4183,23.0528,惠州市,河南岸金山湖子站,颗粒物(PM10),54,58,70,22,25,128,21,29,25,30,32,4,6,0.7,0.8
2022-11-12T02:00:00,1393A,114.4053,23.0822,惠州市,下埔横江三路子站,,43,43,54,23,27,157,36,40,38,28,27,6,8,0.5,0.6
2022-11-12T02:00:00,1394A,114.4103,23.1142,惠州市,江北云山西路子站,颗粒物(PM10),51,51,56,28,28,164,39,42,40,24,24,5,6,0.4,0.4
2022-11-12T02:00:00,1395A,114.4645,22.7833,惠州市,惠阳区承修路船湖子站,,18,18,42,11,21,150,55,55,55,13,18,3,4,0.4,0.5
2022-11-12T02:00:00,1396A,114.5317,22.7422,惠州市,大亚湾管委会子站,,18,15,37,12,19,148,54,56,55,13,20,4,4,0.3,0.4
2022-11-12T02:00:00,1397A,112.4267,23.0706,肇庆市,睦岗子站,颗粒物(PM10),51,52,53,32,34,163,7,9,8,98,71,5,7,0.6,0.6
2022-11-12T02:00:00,1398A,112.4645,23.0475,肇庆市,城中子站,颗粒物(PM10),59,67,55,39,36,153,9,8,8,68,49,26,15,0.8,0.9
2022-11-12T02:00:00,1399A,112.5544,23.1522,肇庆市,坑口子站,颗粒物(PM10),51,51,75,35,53,191,82,85,84,19,25,8,11,0.5,0.5
2022-11-12T02:00:00,1400A,112.4753,23.1,肇庆市,七星岩子站(对照点),,43,43,43,28,28,163,77,69,69,22,21,4,5,0.6,0.7
2022-11-12T02:00:00,1401A,108.3103,22.7881,南宁市,二十一中,颗粒物(PM10),52,54,40,26,23,104,77,86,82,18,14,15,7,0.7,0.7
2022-11-12T02:00:00,1402A,108.3141,22.8528,南宁市,北湖,颗粒物(PM10),51,51,42,30,24,95,66,89,78,24,13,9,8,0.7,0.6
2022-11-12T02:00:00,1403A,108.3206,22.8225,南宁市,市监测站,,42,37,43,29,26,96,85,89,87,19,20,13,12,0.7,0.7
2022-11-12T02:00:00,1404A,108.3829,22.8037,南宁市,大自然花园,,43,42,41,30,26,98,57,75,66,17,12,7,8,0.7,0.7
2022-11-12T02:00:00,1405A,108.4394,22.7904,南宁市,仙葫(对照点),颗粒物(PM10),55,60,42,32,24,96,58,78,68,22,10,8,7,0.8,0.7
2022-11-12T02:00:00,1406A,108.2397,22.8467,南宁市,区农职院,,41,41,38,20,23,99,81,86,84,31,24,8,7,0.6,0.6
2022-11-12T02:00:00,1407A,108.3275,22.735,南宁市,英华嘉园,颗粒物(PM10),52,53,45,34,26,93,52,62,57,31,23,9,8,0.7,0.7
2022-11-12T02:00:00,1408A,108.2257,22.7757,南宁市,沙井镇街道办,颗粒物(PM10),51,52,62,29,30,89,36,47,42,50,37,6,6,0.6,0.6
2022-11-12T02:00:00,1409A,110.576,19.9507,海口市,东寨港(对照点),,,12,18,5,9,74,13,15,14,,,8,8,0.2,0.2
2022-11-12T02:00:00,1410A,110.3232,20.0574,海口市,海南大学,,23,21,24,16,17,125,67,66,66,12,9,4,3,0.5,0.5
2022-11-12T02:00:00,1411A,110.283,20.0053,海口市,秀英海南医院,,21,21,27,11,11,112,58,62,60,14,9,5,4,0.5,0.5
2022-11-12T02:00:00,1412A,110.338,19.9969,海口市,海南师范大学,,24,24,30,5,10,120,58,62,60,17,9,2,2,0.5,0.5
2022-11-12T02:00:00,1413A,110.33,20.0356,海口市,龙华路环保局宿舍,,26,26,26,8,11,115,62,63,62,9,9,6,4,0.4,0.5
2022-11-12T02:00:00,1414A,106.3787,29.8279,重庆市,缙云山(对照点),颗粒物(PM10),52,53,62,24,33,111,39,50,44,18,16,5,5,0.6,0.6
2022-11-12T02:00:00,1416A,106.4213,29.8253,重庆市,天生,细颗粒物(PM2.5),99,83,96,74,68,114,28,31,30,21,24,23,13,0.9,0.9
2022-11-12T02:00:00,1417A,106.6263,29.7228,重庆市,两路,颗粒物(PM10),63,75,82,44,53,62,24,29,26,49,47,13,10,0.8,0.9
2022-11-12T02:00:00,1418A,106.2953,29.5983,重庆市,虎溪,细颗粒物(PM2.5),107,90,79,80,72,130,40,39,39,19,30,21,12,1.2,1.2
2022-11-12T02:00:00,1419A,106.5777,29.5102,重庆市,南坪,细颗粒物(PM2.5),89,102,100,66,68,130,33,31,31,47,43,9,15,0.9,0.9
2022-11-12T02:00:00,1420A,106.6556,29.6277,重庆市,唐家沱,细颗粒物(PM2.5),75,97,85,55,56,114,4,13,8,85,52,8,10,0.7,0.7
2022-11-12T02:00:00,1421A,106.6349,29.4906,重庆市,茶园,细颗粒物(PM2.5),83,96,113,61,69,141,28,29,28,59,52,9,12,0.5,0.6
2022-11-12T02:00:00,1422A,106.3754,29.4572,重庆市,白市驿,细颗粒物(PM2.5),107,96,86,80,62,145,39,44,42,27,26,11,11,0.9,0.9
2022-11-12T02:00:00,1425A,106.6205,29.7166,重庆市,空港,细颗粒物(PM2.5),88,104,90,65,61,113,28,28,28,42,41,13,10,0.8,0.9
2022-11-12T02:00:00,1426A,106.4782,29.4875,重庆市,新山村,细颗粒物(PM2.5),77,86,98,56,68,134,12,30,21,68,42,4,8,0.7,0.7
2022-11-12T02:00:00,1427A,106.5616,29.6453,重庆市,礼嘉,细颗粒物(PM2.5),75,87,89,55,56,134,47,60,54,35,48,16,15,0.6,0.8
2022-11-12T02:00:00,1428A,106.4522,29.7091,重庆市,蔡家,细颗粒物(PM2.5),85,71,76,63,56,125,27,27,27,30,30,6,8,0.8,0.9
2022-11-12T02:00:00,1429A,106.5093,29.3917,重庆市,鱼新街,细颗粒物(PM2.5),102,121,105,76,73,128,6,6,6,64,48,25,18,1.3,1.3
2022-11-12T02:00:00,1431A,103.9728,30.7236,成都市,金泉两河,,33,33,86,14,60,96,68,62,62,4,25,2,4,0.3,0.6
2022-11-12T02:00:00,1432A,104.1419,30.6764,成都市,十里店,,23,23,81,2,56,95,61,54,54,8,35,2,3,0.4,0.7
2022-11-12T02:00:00,1433A,104.0594,30.5767,成都市,三瓦窑,,46,46,87,7,60,98,60,46,46,7,36,1,2,0.3,0.7
2022-11-12T02:00:00,1434A,104.1122,30.6306,成都市,沙河铺,,35,35,83,16,56,98,62,53,53,6,31,1,3,0.4,0.7
2022-11-12T02:00:00,1437A,104.0431,30.6556,成都市,君平街,,44,44,81,20,64,108,66,50,50,6,33,2,4,0.3,0.6
2022-11-12T02:00:00,1438A,103.6202,31.0201,成都市,灵岩寺(对照点),,15,10,47,4,37,85,45,43,43,12,16,1,5,0.6,0.7
2022-11-12T02:00:00,1439A,106.6899,26.5998,贵阳市,马鞍山,,28,24,36,19,26,96,73,72,72,13,12,5,5,0.4,0.6
2022-11-12T02:00:00,1440A,106.6971,26.5694,贵阳市,市环保站,,30,29,42,21,26,87,66,68,67,19,19,4,5,0.3,0.4
2022-11-12T02:00:00,1441A,106.6243,26.6266,贵阳市,鉴湖路,,34,34,41,17,26,97,81,80,80,8,9,4,5,0.3,0.3
2022-11-12T02:00:00,1442A,106.7487,26.6343,贵阳市,燕子冲,,42,41,47,29,35,105,72,72,72,11,18,5,5,0.5,0.5
2022-11-12T02:00:00,1443A,106.6555,26.4365,贵阳市,碧云窝,,36,36,48,19,27,100,88,89,88,6,8,5,5,0.4,0.5
2022-11-12T02:00:00,1444A,106.694,26.5161,贵阳市,中院村,,39,39,49,19,26,84,74,74,74,13,22,8,8,0.4,0.4
2022-11-12T02:00:00,1445A,106.7109,26.6027,贵阳市,红边门,,39,31,45,27,31,96,73,72,72,17,22,4,5,0.4,0.5
2022-11-12T02:00:00,1446A,106.7164,26.5699,贵阳市,新华路,,39,34,43,27,29,96,74,72,72,10,14,5,5,0.3,0.4
2022-11-12T02:00:00,1447A,106.674,26.5424,贵阳市,太慈桥,,41,41,48,22,22,98,73,69,69,14,12,5,5,0.3,0.4
2022-11-12T02:00:00,1450A,102.8204,24.8886,昆明市,呈贡新区,,34,34,31,16,17,110,26,27,26,50,25,11,11,0.5,0.5
2022-11-12T02:00:00,1451A,102.6251,24.9608,昆明市,西山森林公园(对照点),,24,23,24,11,15,98,76,76,76,5,12,7,11,0.6,0.8
2022-11-12T02:00:00,1452A,102.7252,25.0902,昆明市,龙泉镇,颗粒物(PM10),55,60,49,32,23,93,6,6,6,52,42,5,6,1.0,0.9
2022-11-12T02:00:00,1453A,102.7266,25.0375,昆明市,东风东路,,42,42,38,24,23,93,26,32,29,41,32,10,11,0.6,0.7
2022-11-12T02:00:00,1454A,102.6742,25.0669,昆明市,金鼎山,颗粒物(PM10),63,76,47,22,25,94,19,14,14,42,31,9,10,0.6,0.7
2022-11-12T02:00:00,1455A,102.6644,25.0401,昆明市,碧鸡广场,,42,42,37,27,23,94,32,38,35,42,37,14,13,0.4,0.6
2022-11-12T02:00:00,1456A,91.1319,29.6514,拉萨市,八廓街,,,13,10,,,98,79,85,82,9,8,8,8,0,0
2022-11-12T02:00:00,1457A,91.1221,29.6747,拉萨市,市环保局,,27,12,13,6,6,97,84,86,85,5,8,2,2,0.3,0.3
2022-11-12T02:00:00,1458A,91.0874,29.6475,拉萨市,区监测站,,30,12,10,3,3,108,94,97,96,5,5,8,9,0.4,0.4
2022-11-12T02:00:00,1459A,91.1774,29.6541,拉萨市,西藏大学,,25,16,14,3,4,100,80,82,81,9,9,8,10,0,0.1
2022-11-12T02:00:00,1460A,90.9798,29.6588,拉萨市,区辐射站,,28,6,7,3,5,99,88,89,88,4,7,8,8,0.4,0.4
2022-11-12T02:00:00,1461A,91.0834,29.6292,拉萨市,拉萨火车站,,30,13,9,7,4,105,94,94,94,3,6,10,10,0,0
2022-11-12T02:00:00,1462A,108.882,34.2749,西安市,高压开关厂,,18,17,49,3,21,60,56,54,54,17,25,5,5,0.3,0.7
2022-11-12T02:00:00,1463A,108.993,34.2629,西安市,兴庆小区,,16,13,42,4,17,56,50,48,48,13,24,4,5,0.4,1.2
2022-11-12T02:00:00,1464A,109.06,34.2572,西安市,纺织城,,16,16,56,9,22,58,50,48,48,17,26,7,7,0.3,0.8
2022-11-12T02:00:00,1465A,108.9356,34.2173,西安市,小寨,,17,13,40,4,15,63,53,52,52,15,24,5,6,0.3,0.8
2022-11-12T02:00:00,1466A,108.954,34.2713,西安市,市人民体育场,,15,11,41,6,25,57,46,44,44,12,21,5,5,0.1,0.6
2022-11-12T02:00:00,1467A,108.8922,34.2322,西安市,高新西区,,21,21,40,6,17,61,56,56,56,9,21,5,6,0.4,0.8
2022-11-12T02:00:00,1468A,108.935,34.3474,西安市,经开区,,17,17,42,2,19,52,48,48,48,12,24,5,5,0.4,0.8
2022-11-12T02:00:00,1469A,108.906,34.1546,西安市,长安区,,18,8,27,6,16,67,57,57,57,12,20,5,5,0.2,0.8
2022-11-12T02:00:00,1470A,109.2,34.6575,西安市,阎良区,,,,,,,,,,,,,,,,
2022-11-12T02:00:00,1471A,109.2186,34.3731,西安市,临潼区,,20,19,75,14,32,57,57,56,56,13,28,4,4,0.2,0.7
2022-11-12T02:00:00,1472A,108.869,34.378,西安市,草滩(对照点),,14,14,42,7,19,48,38,32,32,26,32,6,7,0.3,0.8
2022-11-12T02:00:00,1473A,108.985,34.1978,西安市,曲江文化产业集团,,19,18,45,7,25,63,58,58,58,15,26,4,4,0.4,0.8
2022-11-12T02:00:00,1474A,109.051,34.3213,西安市,广运潭,,18,18,57,4,23,54,49,46,46,12,22,5,5,0.3,0.7
2022-11-12T02:00:00,1476A,103.631,36.1031,兰州市,兰炼宾馆,,45,45,58,27,29,96,62,66,64,22,17,9,9,0.4,0.4
2022-11-12T02:00:00,1477A,104.1373,35.9454,兰州市,榆中兰大校区(对照点),,,,,,,,,,,,,,,,
2022-11-12T02:00:00,1478A,103.8412,36.0726,兰州市,生物制品所,,43,43,51,29,27,95,40,53,46,33,19,10,10,0.9,0.9
2022-11-12T02:00:00,1479A,103.831,36.0464,兰州市,铁路设计院,,45,45,50,29,26,102,43,59,51,38,20,14,11,0.7,0.6
2022-11-12T02:00:00,1480A,101.748,36.6428,西宁市,市环境监测站,,,,,,,,,,,,,,,,
2022-11-12T02:00:00,1482A,101.834,36.5819,西宁市,四陆医院,,,,,,,,,,,,,,,,
2022-11-12T02:00:00,1483A,101.524,36.6867,西宁市,第五水厂(对照点),,,,,,,,,,,,,,,,
2022-11-12T02:00:00,1484A,105.9512,38.6016,银川市,贺兰山马莲口(对照点),,30,30,49,12,35,89,84,84,84,10,23,8,9,0.3,0.6
2022-11-12T02:00:00,1488A,106.2328,38.4975,银川市,贺兰山东路,,45,33,57,31,39,57,27,22,22,35,31,11,8,0.4,0.5
2022-11-12T02:00:00,1489A,106.1358,38.5036,银川市,学院路,,39,39,68,21,33,42,25,29,27,31,29,12,9,0.4,0.6
2022-11-12T02:00:00,1490A,87.5801,43.8303,乌鲁木齐市,监测站,,24,23,17,16,11,56,8,26,17,48,33,5,6,1.2,1.1
2022-11-12T02:00:00,1491A,87.6046,43.768,乌鲁木齐市,收费所,,31,31,18,17,15,66,23,39,31,46,31,7,8,0.4,0.4
2022-11-12T02:00:00,1492A,87.4754,43.9469,乌鲁木齐市,新疆农科院农场(对照点),,26,11,11,18,18,50,8,7,7,30,29,8,8,1.2,1.1
2022-11-12T02:00:00,1493A,87.5525,43.8711,乌鲁木齐市,铁路局,,,31,18,23,12,55,12,16,14,,23,5,5,1.1,1
2022-11-12T02:00:00,1494A,87.6432,43.831,乌鲁木齐市,三十一中学,,,26,27,,,69,44,46,45,18,25,8,10,0.3,0.3
2022-11-12T02:00:00,1496A,87.7216,44.1747,乌鲁木齐市,米东区环保局,颗粒物(PM10),57,63,39,26,20,58,2,2,2,36,26,8,8,0.7,0.5
2022-11-12T02:00:00,1508A,112.9433,27.8614,湘潭市,板塘,,49,49,45,23,22,107,23,27,25,38,27,6,6,0.3,0.4
2022-11-12T02:00:00,1511A,112.9118,27.8403,湘潭市,市监测站,,37,37,50,22,23,94,28,43,36,31,24,10,16,0.8,0.8
2022-11-12T02:00:00,1512A,112.8937,27.8728,湘潭市,江麓,,46,46,40,19,23,103,29,27,27,42,28,46,19,1.3,0.6
2022-11-12T02:00:00,1513A,112.9227,27.8159,湘潭市,岳塘,,47,47,47,26,24,111,18,26,22,39,25,8,12,0.6,0.5
2022-11-12T02:00:00,1514A,112.9074,27.9119,湘潭市,科大,,30,19,24,21,20,113,35,51,43,33,24,10,12,0.4,0.5
2022-11-12T02:00:00,1515A,113.135,27.8244,株洲市,天台山庄,,23,23,25,12,19,104,62,65,64,7,9,6,9,0.3,0.3
2022-11-12T02:00:00,1518A,113.095,27.8867,株洲市,株冶医院,细颗粒物(PM2.5),55,32,29,39,24,112,20,14,14,58,34,14,11,0.5,0.4
2022-11-12T02:00:00,1519A,113.167,27.8667,株洲市,市四中,,28,27,22,19,22,112,67,72,70,19,16,14,8,0.5,0.4
2022-11-12T02:00:00,1520A,113.143,27.8381,株洲市,火车站,,27,27,29,14,22,99,52,54,53,20,15,12,12,0.8,0.7
2022-11-12T02:00:00,1524A,113.13,27.8528,株洲市,市监测站,,29,27,29,20,21,110,63,63,63,15,14,12,10,0.5,0.5
2022-11-12T02:00:00,1552A,106.805,26.3003,贵阳市,桐木岭(对照点),,,,,,,,,,,,,,,,
2022-11-12T02:00:00,1559A,113.251,27.8336,株洲市,大京风景区(对照点),,,,,12,16,103,21,23,22,4,4,7,8,0.5,0.5
2022-11-12T02:00:00,1562A,113.0048,27.9153,湘潭市,昭山,,30,30,41,19,22,109,33,25,25,32,31,5,7,0.3,0.4
2022-11-12T02:00:00,1564A,112.4876,27.9164,湘潭市,韶山(对照点),,27,27,36,10,19,103,30,34,32,16,18,8,8,0.5,0.6
2022-11-12T02:00:00,1585A,109.8756,40.6532,包头市,市环境监测站,,15,8,47,6,37,48,46,44,44,8,25,7,10,0.3,0.6
2022-11-12T02:00:00,1587A,109.9991,40.5842,包头市,包头八中,,14,14,60,5,39,48,41,42,42,7,19,8,14,0.4,0.7
2022-11-12T02:00:00,1588A,109.8538,40.6821,包头市,青山宾馆,,15,4,50,3,40,49,45,44,44,7,22,11,14,0.3,0.7
2022-11-12T02:00:00,1589A,109.8642,40.6288,包头市,惠龙物流,,15,9,58,10,41,49,47,46,46,9,28,5,10,0.5,0.8
2022-11-12T02:00:00,1590A,110.0377,40.5546,包头市,东河鸿龙湾,,12,7,51,6,35,41,38,38,38,7,17,12,11,0.4,0.7
2022-11-12T02:00:00,1591A,110.0023,39.8129,鄂尔多斯市,综合楼,,14,10,25,8,21,57,42,44,43,10,24,5,8,0.5,0.7
2022-11-12T02:00:00,1592A,109.9486,39.8261,鄂尔多斯市,巴音孟克林场办事处,,20,19,31,14,26,61,44,47,46,12,24,5,7,0.8,1
2022-11-12T02:00:00,1593A,109.7736,39.5986,鄂尔多斯市,康泽苑,,17,17,32,7,23,60,39,39,39,11,14,5,4,0.5,0.5
2022-11-12T02:00:00,1594A,109.8119,39.5989,鄂尔多斯市,华泰汽车城,,25,12,30,17,27,60,50,51,50,6,19,4,3,0.1,0.3
2022-11-12T02:00:00,1595A,109.9734,39.7884,鄂尔多斯市,奥林花园,,19,19,33,12,23,64,46,49,48,10,24,4,6,0.6,0.9
2022-11-12T02:00:00,1596A,122.2414,40.6592,营口市,学府南路,,,,,,,,,,,,,,,,
2022-11-12T02:00:00,1597A,122.2703,40.7094,营口市,大庆路,,,,,,,,,,,,,,,,
2022-11-12T02:00:00,1598A,122.215,40.6511,营口市,镜湖西路,颗粒物(PM10),52,54,58,33,38,89,89,86,86,11,20,6,7,0.9,1
2022-11-12T02:00:00,1599A,122.167,40.6655,营口市,西炮台,细颗粒物(PM2.5),53,44,57,37,47,108,101,108,104,15,26,8,7,0.7,0.7
2022-11-12T02:00:00,1600A,124.3303,40.0625,丹东市,江湾东路,细颗粒物(PM2.5),84,79,61,62,48,86,44,46,45,20,29,13,14,2.7,1.7
2022-11-12T02:00:00,1601A,124.4256,40.1503,丹东市,临江后街,颗粒物(PM10),56,61,54,39,36,85,46,48,47,13,21,9,12,1.0,1.2
2022-11-12T02:00:00,1602A,124.3933,40.1461,丹东市,元宝山,细颗粒物(PM2.5),79,67,55,58,45,88,55,50,50,18,25,12,14,1.1,1
2022-11-12T02:00:00,1603A,124.3633,40.1092,丹东市,民主桥,"颗粒物(PM10),细颗粒物(PM2.5)",60,69,55,43,37,85,30,23,23,32,29,9,12,1.5,1.3
2022-11-12T02:00:00,1604A,122.0303,41.1489,盘锦市,开发区,细颗粒物(PM2.5),53,34,45,37,63,83,81,83,82,20,38,26,11,0.7,0.9
2022-11-12T02:00:00,1605A,122.0485,41.0883,盘锦市,兴隆台,细颗粒物(PM2.5),55,57,72,39,63,72,69,72,70,17,34,11,14,0.8,0.9
2022-11-12T02:00:00,1606A,121.8297,41.1028,盘锦市,新生街道,细颗粒物(PM2.5),68,40,55,49,61,93,90,90,90,7,13,7,7,0.6,0.7
2022-11-12T02:00:00,1607A,120.9092,40.7136,葫芦岛市,龙港区,,45,45,55,30,64,91,85,84,84,6,16,10,11,0.4,0.6
2022-11-12T02:00:00,1608A,120.8392,40.7514,葫芦岛市,化工街,细颗粒物(PM2.5),64,59,84,46,60,89,75,82,78,10,21,5,6,0.3,0.5
2022-11-12T02:00:00,1609A,120.8341,40.7073,葫芦岛市,新区,颗粒物(PM10),56,61,75,35,64,90,82,84,83,5,17,8,9,0.2,0.5
2022-11-12T02:00:00,1610A,120.8695,40.7677,葫芦岛市,东城区,颗粒物(PM10),51,52,61,35,55,79,75,79,77,13,29,8,9,0.7,1
2022-11-12T02:00:00,1611A,118.5819,24.9117,泉州市,涂山街,,25,25,29,12,12,114,17,26,22,24,17,8,9,0.6,0.6
2022-11-12T02:00:00,1612A,118.5972,24.8978,泉州市,津头埔,,20,20,29,13,13,106,22,24,23,21,21,9,8,0.5,0.5
2022-11-12T02:00:00,1613A,118.6663,24.9424,泉州市,万安,,25,24,26,17,12,116,10,14,12,27,18,8,8,0.7,0.5
2022-11-12T02:00:00,1614A,118.6117,24.9604,泉州市,清源山(对照点),,,,,,,,,,,,,,,,
2022-11-12T02:00:00,1616A,117.6795,36.229,济南市,技术学院,颗粒物(PM10),52,53,73,28,33,107,61,60,60,18,38,5,6,1.0,0.9
2022-11-12T02:00:00,1618A,118.3429,35.0532,临沂市,沂河小区,,41,41,42,25,23,100,42,45,44,19,21,6,6,0.3,0.3
2022-11-12T02:00:00,1619A,118.295,35.0583,临沂市,鲁南制药厂,,35,31,36,24,17,101,43,46,44,22,22,6,7,0.6,0.6
2022-11-12T02:00:00,1620A,118.2794,34.9976,临沂市,新光毛纺厂,,41,41,40,24,19,98,40,42,41,23,23,2,3,0.6,0.6
2022-11-12T02:00:00,1621A,118.3956,35.0888,临沂市,河东保险公司,,39,39,40,26,23,97,45,50,48,16,20,4,5,0.3,0.4
2022-11-12T02:00:00,1622A,116.3032,37.4674,德州市,儿童乐园,细颗粒物(PM2.5),269,327,290,219,185,81,15,14,14,51,54,7,12,1.3,1.4
2022-11-12T02:00:00,1624A,116.2991,37.4451,德州市,监理站,细颗粒物(PM2.5),277,273,247,227,142,85,21,18,18,40,48,12,15,1.3,1.4
2022-11-12T02:00:00,1625A,115.9848,36.4372,聊城市,区政府,细颗粒物(PM2.5),125,118,161,95,124,87,7,9,8,56,48,7,11,0.9,1.1
2022-11-12T02:00:00,1628A,118.0062,37.3803,滨州市,市环保局,细颗粒物(PM2.5),62,64,102,44,66,125,20,25,22,34,33,11,15,0.9,1
2022-11-12T02:00:00,1629A,118.0018,37.3617,滨州市,第二水厂,颗粒物(PM10),55,60,75,35,55,126,22,27,24,51,44,11,14,0.9,0.9
2022-11-12T02:00:00,1630A,117.9776,37.393,滨州市,北中新校,细颗粒物(PM2.5),59,53,61,42,56,129,20,29,24,46,45,10,15,0.8,0.8
2022-11-12T02:00:00,1631A,118.0414,36.8103,淄博市,人民公园,细颗粒物(PM2.5),79,63,101,58,75,116,16,19,18,41,48,3,8,0.8,1
2022-11-12T02:00:00,1632A,118.0253,36.8406,淄博市,东风化工厂,,,,,,,,,,,,,,,,
2022-11-12T02:00:00,1633A,117.8525,36.4847,淄博市,双山,,50,50,48,21,29,111,71,78,74,9,13,4,4,0.3,0.4
2022-11-12T02:00:00,1634A,117.9592,36.6331,淄博市,气象站,,35,35,65,24,40,116,69,79,74,12,29,8,11,0.3,0.5
2022-11-12T02:00:00,1635A,118.3092,36.8194,淄博市,莆田园,,36,36,79,24,47,111,39,45,42,29,38,2,6,0.3,1.5
2022-11-12T02:00:00,1636A,117.8661,36.805,淄博市,三金集团,,,,,,,,,,,,,,,,
2022-11-12T02:00:00,1637A,117.558,34.8438,枣庄市,市中区政府,颗粒物(PM10),56,61,59,36,32,103,37,44,40,26,25,9,12,0.4,0.5
2022-11-12T02:00:00,1638A,117.2852,34.7837,枣庄市,薛城环保局,细颗粒物(PM2.5),67,76,60,48,39,99,35,44,40,28,22,9,7,0.7,0.7
2022-11-12T02:00:00,1639A,117.5852,34.7745,枣庄市,峄城区政府,细颗粒物(PM2.5),62,66,53,44,34,99,35,40,38,24,16,9,8,0.4,0.3
2022-11-12T02:00:00,1640A,117.7276,34.5578,枣庄市,台儿庄区环保局,颗粒物(PM10),53,56,54,36,36,92,26,32,29,25,21,10,10,1.0,0.9
2022-11-12T02:00:00,1641A,117.4518,35.0992,枣庄市,山亭区环保局,细颗粒物(PM2.5),62,56,40,44,28,115,54,65,60,29,28,7,8,1.0,0.9
2022-11-12T02:00:00,1642A,121.2514,37.5639,烟台市,开发区,,29,9,37,17,32,98,91,91,91,10,23,9,10,0.7,0.7
2022-11-12T02:00:00,1643A,121.3719,37.5433,烟台市,轴承厂,,33,19,39,11,31,137,104,109,106,4,9,7,9,0.2,0.3
2022-11-12T02:00:00,1644A,121.3181,37.5436,烟台市,西郊化工站,,32,22,44,14,27,126,100,106,103,5,10,8,8,0.7,0.8
2022-11-12T02:00:00,1645A,121.4478,37.4822,烟台市,莱山环保局,,,12,49,14,34,131,97,104,100,,11,6,10,0.5,0.6
2022-11-12T02:00:00,1646A,121.2611,37.4967,烟台市,福山环保局,,,22,48,14,28,77,,,,10,23,5,6,0.2,0.4
2022-11-12T02:00:00,1648A,119.12,36.7019,潍坊市,仲裁委,,,,,,,,,,,,,,,,
2022-11-12T02:00:00,1650A,119.1437,36.7023,潍坊市,环保局,,29,29,52,19,32,98,70,70,70,10,20,3,3,0.3,0.4
2022-11-12T02:00:00,1652A,119.1936,36.7729,潍坊市,寒亭监测站,,,,,,,,,,,,,,,,
2022-11-12T02:00:00,1653A,116.6251,35.4302,济宁市,火炬城,颗粒物(PM10),62,74,60,39,49,104,45,50,48,15,27,10,8,0.6,0.5
2022-11-12T02:00:00,1655A,116.5491,35.4042,济宁市,电化厂,细颗粒物(PM2.5),58,61,65,41,46,102,37,46,42,21,23,12,10,0.6,0.6
2022-11-12T02:00:00,1656A,117.1437,36.1937,泰安市,监测站,颗粒物(PM10),54,58,74,34,38,95,58,60,59,9,17,9,9,0.5,0.5
2022-11-12T02:00:00,1657A,117.0885,36.2017,泰安市,人口学校,颗粒物(PM10),54,58,68,23,30,89,52,52,52,26,21,9,9,0.3,0.4
2022-11-12T02:00:00,1658A,117.1089,36.1758,泰安市,电力学校,颗粒物(PM10),53,56,70,35,44,102,58,62,60,17,27,7,7,0.1,0.2
2022-11-12T02:00:00,1659A,119.471,35.4209,日照市,监测站,,20,7,25,5,14,96,61,65,63,18,21,5,6,0.4,0.5
2022-11-12T02:00:00,1660A,119.523,35.4216,日照市,市政府广场,,23,7,23,5,12,105,71,70,70,5,7,4,4,0.4,0.4
2022-11-12T02:00:00,1661A,119.5587,35.4044,日照市,港务局,,25,7,23,5,12,111,77,80,78,2,3,4,4,0.4,0.4
2022-11-12T02:00:00,1662A,122.1214,37.4236,威海市,华夏技校,,42,39,45,29,35,119,107,105,105,18,24,5,5,0.3,0.3
2022-11-12T02:00:00,1663A,122.0508,37.5236,威海市,山大分校,,35,27,48,17,26,120,109,107,107,11,24,2,3,0.3,0.4
2022-11-12T02:00:00,1664A,122.1067,37.5072,威海市,市监测站,,34,34,51,20,33,119,106,105,105,8,24,6,5,0.6,0.7
2022-11-12T02:00:00,1665A,118.5019,37.4658,东营市,西城阳光环保公司,,,,,,,,,,,,,,,,
2022-11-12T02:00:00,1666A,118.6614,37.4309,东营市,市环保局,,49,39,55,34,42,102,48,52,50,19,22,8,13,0.6,0.8
2022-11-12T02:00:00,1669A,113.5824,24.7733,韶关市,市八中,,42,42,42,21,25,136,26,33,30,27,25,9,14,0.5,0.6
2022-11-12T02:00:00,1670A,113.5556,24.8082,韶关市,碧湖山庄,,,,,,,,,,,,,,,,
2022-11-12T02:00:00,1671A,113.5917,24.7972,韶关市,园林处,颗粒物(PM10),54,58,46,33,27,140,4,5,4,47,28,9,10,0.9,1
2022-11-12T02:00:00,1672A,113.6735,24.7791,韶关市,韶关学院,,38,27,38,26,29,141,9,16,12,20,22,10,13,0.5,0.9
2022-11-12T02:00:00,1673A,113.5971,24.6863,韶关市,曲江监测站,,43,43,46,24,25,140,15,17,16,34,24,7,10,0.5,0.7
2022-11-12T02:00:00,1674A,116.6794,23.3667,汕头市,金平子站,,16,7,27,9,15,113,51,54,52,9,19,8,13,0.4,0.5
2022-11-12T02:00:00,1675A,116.7244,23.3633,汕头市,龙湖子站,,17,17,33,5,13,108,52,57,54,11,16,9,11,0.5,0.6
2022-11-12T02:00:00,1676A,116.7258,23.2775,汕头市,濠江子站,,16,8,20,11,15,107,50,56,53,12,16,8,9,0.6,0.8
2022-11-12T02:00:00,1677A,116.7519,23.4714,汕头市,澄海子站,,,,31,,22,62,,52,,,19,,8,,0.6
2022-11-12T02:00:00,1678A,116.6092,23.2539,汕头市,潮阳子站,,17,7,24,5,13,100,54,56,55,6,14,6,8,0.6,0.7
2022-11-12T02:00:00,1679A,116.4069,23.2533,汕头市,潮南子站,,,,,,,,,,,,,,,,
2022-11-12T02:00:00,1680A,110.3539,21.2706,湛江市,湛江影剧院,,24,18,31,9,18,127,76,77,76,14,12,5,6,0.4,0.5
2022-11-12T02:00:00,1681A,110.3928,21.2228,湛江市,市环境监测站,,24,20,25,11,17,126,75,75,75,8,9,5,6,0.5,0.5
2022-11-12T02:00:00,1682A,110.4019,21.1997,湛江市,环保局宿舍,,24,24,27,12,22,137,72,70,70,9,9,6,6,0.4,0.5
2022-11-12T02:00:00,1683A,110.4111,21.2028,湛江市,霞山游泳场,,23,18,29,12,19,134,72,70,70,6,8,6,7,0.3,0.4
2022-11-12T02:00:00,1684A,110.3316,21.2679,湛江市,麻章区环保局,,47,47,35,28,21,124,47,51,49,24,14,6,6,0.6,0.6
2022-11-12T02:00:00,1685A,110.4558,21.2567,湛江市,坡头区环保局,,25,16,29,12,20,129,78,75,75,6,8,5,6,0.4,0.4
2022-11-12T02:00:00,1686A,111.0286,21.4688,茂名市,电白南海,,34,34,45,22,23,137,42,44,43,21,16,11,13,0.3,0.4
2022-11-12T02:00:00,1687A,110.9294,21.6533,茂名市,茂石化七小,,,27,38,17,28,118,47,64,56,,,16,15,0.5,0.5
2022-11-12T02:00:00,1688A,110.9107,21.6687,茂名市,健康路,,19,19,34,11,19,121,55,74,64,13,10,14,14,0.6,0.6
2022-11-12T02:00:00,1689A,110.8592,21.6828,茂名市,高岭,,35,29,37,24,30,123,24,25,24,20,16,21,13,0.1,0
2022-11-12T02:00:00,1690A,116.1231,24.3284,梅州市,梅江月梅,颗粒物(PM10),53,56,44,22,24,136,3,4,4,42,27,3,4,0.4,0.5
2022-11-12T02:00:00,1691A,116.0797,24.2719,梅州市,梅县新城,,47,47,46,30,30,123,2,3,2,38,32,7,7,0.5,0.6
2022-11-12T02:00:00,1692A,116.1248,24.2654,梅州市,环境监控中心,,50,50,43,29,24,121,4,4,4,40,32,6,7,0.4,0.4
2022-11-12T02:00:00,1693A,115.3653,22.775,汕尾市,市环保局,,18,11,22,6,11,98,56,52,52,6,9,5,7,0.5,0.5
2022-11-12T02:00:00,1694A,115.3706,22.7898,汕尾市,市政府,,13,13,21,9,16,101,39,43,41,15,10,7,8,0.5,0.5
2022-11-12T02:00:00,1695A,115.3622,22.7925,汕尾市,新城中学,,30,30,27,18,15,102,39,44,42,10,8,8,8,0.6,0.6
2022-11-12T02:00:00,1696A,114.6778,23.7569,河源市,源西(对照点),颗粒物(PM10),56,62,53,33,26,100,3,3,3,38,31,4,4,0.8,0.7
2022-11-12T02:00:00,1697A,114.6944,23.7586,河源市,东埔,颗粒物(PM10),56,62,55,33,28,115,0,3,2,49,30,4,4,0.9,0.9
2022-11-12T02:00:00,1698A,114.6892,23.7233,河源市,老城,颗粒物(PM10),53,55,53,18,25,107,10,7,7,34,24,3,4,0.7,0.7
2022-11-12T02:00:00,1699A,111.9797,21.8593,阳江市,鸳鸯湖(对照点),,27,27,34,18,28,105,38,58,48,21,14,7,7,0.8,0.7
2022-11-12T02:00:00,1700A,111.9508,21.8536,阳江市,南恩路,,,,,,,,,,,,,,,,
2022-11-12T02:00:00,1701A,111.9491,21.8658,阳江市,马南垌,,49,49,38,31,33,105,16,14,14,39,20,7,8,0.7,0.7
2022-11-12T02:00:00,1702A,113.0426,23.691,清远市,环保大楼(对照点),细颗粒物(PM2.5),89,98,71,66,56,275,67,87,77,16,19,4,6,0.8,0.8
2022-11-12T02:00:00,1703A,113.0208,23.7106,清远市,凤城街办,细颗粒物(PM2.5),65,58,65,47,58,161,69,68,68,14,21,11,10,0.9,0.9
2022-11-12T02:00:00,1705A,116.6367,23.6719,潮州市,西园路(对照点),,49,49,43,26,29,129,28,27,27,17,14,14,13,0.6,0.7
2022-11-12T02:00:00,1706A,116.6447,23.6706,潮州市,档案局,,42,42,43,15,26,126,26,28,27,17,15,13,14,0.7,0.7
2022-11-12T02:00:00,1708A,116.3701,23.5345,揭阳市,新兴,,23,16,44,16,27,150,54,48,48,7,18,8,12,0.4,0.6
2022-11-12T02:00:00,1709A,116.3264,23.5443,揭阳市,西马,,24,24,48,14,25,148,52,46,46,4,13,6,9,0.5,0.7
2022-11-12T02:00:00,1710A,116.3611,23.5626,揭阳市,东兴,,29,22,51,20,26,141,54,52,52,5,16,7,10,0.4,0.7
2022-11-12T02:00:00,1711A,116.4151,23.5294,揭阳市,渔湖,,21,21,43,13,24,136,48,46,46,6,16,7,10,0.4,0.7
2022-11-12T02:00:00,1712A,112.0392,22.9169,云浮市,新市府(对照点),,35,32,34,24,22,130,47,53,50,6,10,5,6,0.5,0.6
2022-11-12T02:00:00,1713A,112.0369,22.9394,云浮市,市监测站,,,,,,,,,,,,,,,,
2022-11-12T02:00:00,1714A,112.0539,22.9539,云浮市,牧羊,,44,44,51,24,24,131,33,45,39,26,25,51,24,0.7,0.7
2022-11-12T02:00:00,1715A,102.575,24.3711,玉溪市,东风水库,,26,23,26,18,17,96,21,23,22,16,15,5,5,0.6,0.7
2022-11-12T02:00:00,1718A,115.4208,35.2464,菏泽市,气象局,细颗粒物(PM2.5),228,231,172,178,130,71,6,39,22,44,31,4,4,1.1,0.8
2022-11-12T02:00:00,1719A,115.4747,35.2375,菏泽市,市政协,细颗粒物(PM2.5),170,156,155,129,123,75,18,48,33,35,32,4,5,0.7,0.6
2022-11-12T02:00:00,1720A,115.455,35.27,菏泽市,菏泽学院,,,,,,,,,,,,,,,,
2022-11-12T02:00:00,1721A,113.3819,40.1097,大同市,果树场(对照点),,,,,,,,,,,,,,,,
2022-11-12T02:00:00,1723A,113.2994,40.0758,大同市,云冈宾馆,,11,2,42,4,34,56,33,33,33,15,31,8,8,0.7,1.1
2022-11-12T02:00:00,1724A,113.3444,40.0917,大同市,大同大学,,,,,0,29,64,35,36,36,14,22,8,8,0.7,1
2022-11-12T02:00:00,1725A,113.2661,40.1269,大同市,安家小村,,,,,,,,,,,,,,,,
2022-11-12T02:00:00,1726A,113.2711,40.0844,大同市,教育学院,,,10,50,,,56,35,36,36,11,23,7,8,0.3,0.7
2022-11-12T02:00:00,1727A,113.1147,36.1547,长治市,清华站,,11,8,62,2,60,126,34,33,33,13,21,6,8,0.6,1.3
2022-11-12T02:00:00,1728A,113.1031,36.1989,长治市,监测站,,10,6,63,5,63,114,30,31,30,18,27,6,7,0.5,1.3
2022-11-12T02:00:00,1730A,113.0886,36.2125,长治市,审计局,,10,3,62,2,66,116,31,32,32,10,20,2,3,0.4,1.2
2022-11-12T02:00:00,1731A,113.0844,36.1856,长治市,长治八中,,12,9,77,8,57,122,31,32,32,13,21,9,10,0.6,1.4
2022-11-12T02:00:00,1733A,111.5531,36.0783,临汾市,临钢医院,,17,3,70,8,72,54,52,54,53,3,35,4,3,0.3,1.1
2022-11-12T02:00:00,1734A,111.5028,36.0714,临汾市,技工学校,,19,8,70,13,69,68,46,47,46,11,35,4,5,0.3,0.9
2022-11-12T02:00:00,1735A,111.5169,36.0822,临汾市,工商学校,,,,,,,,,,,,,,,,
2022-11-12T02:00:00,1736A,111.5018,36.0855,临汾市,市委,,17,6,71,11,54,72,52,52,52,9,34,3,3,0.2,0.7
2022-11-12T02:00:00,1738A,113.5758,37.8572,阳泉市,市中心,,21,21,101,12,80,74,27,26,26,21,37,6,9,0.7,1.3
2022-11-12T02:00:00,1739A,113.4894,37.8731,阳泉市,赛鱼,,11,3,99,2,71,68,22,22,22,22,31,6,6,0.8,1.4
2022-11-12T02:00:00,1740A,113.5819,37.8486,阳泉市,南庄,,29,4,116,20,81,76,29,29,29,19,31,5,8,0.8,1.4
2022-11-12T02:00:00,1741A,113.6292,37.8531,阳泉市,白羊墅,,,,,,,,,,,,,,,,
2022-11-12T02:00:00,1742A,113.5614,37.8703,阳泉市,平坦,,14,10,109,3,86,78,26,26,26,28,31,5,7,0.9,1.5
2022-11-12T02:00:00,1743A,113.5158,37.8392,阳泉市,大阳泉,,23,2,72,16,50,88,30,30,30,27,31,5,10,0.7,1.2
2022-11-12T02:00:00,1744A,118.9233,42.2816,赤峰市,松山一中,,14,10,65,3,37,98,43,42,42,19,36,6,15,0.4,1.1
2022-11-12T02:00:00,1745A,118.9576,42.2728,赤峰市,哈达街,,15,12,62,8,29,105,48,46,46,5,26,8,11,0.3,0.9
2022-11-12T02:00:00,1746A,118.8788,42.2554,赤峰市,天义路,,13,6,55,5,28,104,41,42,42,17,33,10,14,0.5,1
2022-11-12T02:00:00,1748A,123.044,41.1196,鞍山市,深沟寺,,32,28,40,22,32,104,95,95,95,6,10,6,6,0.6,0.7
2022-11-12T02:00:00,1749A,123.011,41.0931,鞍山市,太阳城,,30,30,38,20,28,101,94,93,93,7,11,7,7,0.7,0.7
2022-11-12T02:00:00,1750A,123.0485,41.1442,鞍山市,太平,,29,27,46,20,36,94,90,90,90,9,17,9,9,0.2,0.4
2022-11-12T02:00:00,1751A,122.9642,41.0971,鞍山市,铁西三道街,,39,38,50,27,33,82,60,61,60,46,42,46,26,0.7,0.8
2022-11-12T02:00:00,1752A,122.9341,41.0833,鞍山市,铁西工业园区,,38,38,46,26,33,91,84,84,84,9,19,8,8,0.5,0.6
2022-11-12T02:00:00,1753A,123.022,41.0821,鞍山市,明达新区,,30,28,34,21,28,96,91,90,90,5,10,9,8,0.5,0.6
2022-11-12T02:00:00,1754A,123.1289,41.0228,鞍山市,千山(对照点),,,,,,,,,,,,,,,,
2022-11-12T02:00:00,1755A,123.7977,41.8491,抚顺市,望花区,,49,44,83,34,63,85,60,54,54,17,33,13,15,0.9,1.1
2022-11-12T02:00:00,1756A,123.9161,41.8822,抚顺市,顺城区,,48,34,73,33,56,86,52,57,54,32,43,9,10,0.7,1
2022-11-12T02:00:00,1757A,124.0436,41.8611,抚顺市,东洲区,,35,35,62,24,47,99,78,78,78,9,20,10,10,0.7,1
2022-11-12T02:00:00,1758A,123.9247,41.8642,抚顺市,新抚区,,36,35,88,25,59,80,45,48,46,16,37,9,10,0.7,1
2022-11-12T02:00:00,1759A,124.0972,41.8961,抚顺市,大伙房水库,,32,27,48,22,39,99,80,80,80,8,14,4,5,0.6,0.8
2022-11-12T02:00:00,1760A,123.7086,41.8391,抚顺市,沈抚新城,,43,43,72,27,52,88,70,68,68,10,28,11,13,0.8,1.2
2022-11-12T02:00:00,1761A,123.8275,41.3064,本溪市,大峪,,30,22,26,13,18,95,95,92,92,4,10,7,7,0.4,0.5
2022-11-12T02:00:00,1762A,123.7567,41.3325,本溪市,溪湖,,50,49,47,35,31,96,53,52,52,52,31,32,16,1.6,0.7
2022-11-12T02:00:00,1763A,123.7169,41.3094,本溪市,彩屯,细颗粒物(PM2.5),92,97,84,68,58,74,51,50,50,51,55,32,32,3.0,3
2022-11-12T02:00:00,1764A,123.7669,41.2864,本溪市,东明,,40,40,33,24,24,99,96,94,94,21,23,12,11,0.6,0.6
2022-11-12T02:00:00,1765A,123.7992,41.2664,本溪市,新立屯,,36,30,30,25,24,102,102,100,100,11,13,7,7,0.4,0.4
2022-11-12T02:00:00,1766A,123.8142,41.3472,本溪市,威宁,,25,19,35,17,24,92,75,71,71,17,23,6,6,0.4,0.6
2022-11-12T02:00:00,1767A,121.1115,41.0879,锦州市,南山,细颗粒物(PM2.5),73,53,51,53,73,72,60,64,62,20,31,7,7,0.7,1
2022-11-12T02:00:00,1768A,121.0533,40.8434,锦州市,开发区,细颗粒物(PM2.5),72,73,65,52,74,74,63,68,66,34,39,9,9,0.5,0.9
2022-11-12T02:00:00,1769A,121.1836,41.1119,锦州市,百股街道,细颗粒物(PM2.5),80,60,66,59,68,89,78,82,80,10,16,8,9,1.1,1.3
2022-11-12T02:00:00,1770A,121.1178,41.1222,锦州市,天安街道,细颗粒物(PM2.5),83,64,59,61,86,71,68,70,69,20,36,7,7,0.9,1.2
2022-11-12T02:00:00,1771A,121.1303,41.1386,锦州市,北湖公园,细颗粒物(PM2.5),70,64,56,51,72,77,68,74,71,17,29,6,6,0.7,0.9
2022-11-12T02:00:00,1772A,126.54,43.8622,吉林市,哈达湾,细颗粒物(PM2.5),114,109,82,86,60,90,48,46,46,18,28,9,10,0.8,0.9
2022-11-12T02:00:00,1773A,126.5844,43.8358,吉林市,东局子,细颗粒物(PM2.5),132,126,83,100,58,85,44,43,43,17,27,5,6,0.8,0.8
2022-11-12T02:00:00,1774A,126.5052,43.8245,吉林市,电力学院,细颗粒物(PM2.5),123,127,102,93,68,80,43,38,38,18,30,8,9,0.8,1
2022-11-12T02:00:00,1775A,126.6133,43.8972,吉林市,江北,细颗粒物(PM2.5),108,117,79,81,54,82,48,46,46,13,27,5,7,0.8,0.9
2022-11-12T02:00:00,1776A,126.555,43.8306,吉林市,江南公园,细颗粒物(PM2.5),123,119,82,93,60,86,44,42,42,18,25,9,8,0.9,0.9
2022-11-12T02:00:00,1778A,126.7061,43.7133,吉林市,丰满(对照点),,,,,,,,,,,,,,,,
2022-11-12T02:00:00,1779A,123.9305,47.3636,齐齐哈尔市,安居小区,,,,170,,123,40,,41,,,28,,8,,0.9
2022-11-12T02:00:00,1780A,123.9488,47.3386,齐齐哈尔市,中心广场,,16,16,181,2,118,57,43,45,44,5,31,2,6,0.3,0.8
2022-11-12T02:00:00,1781A,123.9483,47.3227,齐齐哈尔市,农牧车辆厂,,13,12,146,4,100,58,41,44,42,6,28,5,9,0.3,0.8
2022-11-12T02:00:00,1783A,123.945,47.2988,齐齐哈尔市,市环境监测站,,35,28,155,24,128,64,43,44,44,9,31,4,6,0.1,0.5
2022-11-12T02:00:00,1784A,129.61,44.561,牡丹江市,环保大楼,细颗粒物(PM2.5),54,39,86,38,62,46,8,21,14,45,39,3,6,0.8,0.8
2022-11-12T02:00:00,1785A,129.6115,44.5782,牡丹江市,文化广场,细颗粒物(PM2.5),67,43,99,48,70,26,3,15,9,51,47,3,9,0.9,1
2022-11-12T02:00:00,1786A,129.5904,44.5963,牡丹江市,第一医院,,43,40,102,30,73,33,17,18,18,20,40,7,14,1.0,1.2
2022-11-12T02:00:00,1787A,129.6364,44.6075,牡丹江市,机车工厂,细颗粒物(PM2.5),69,68,121,50,74,27,6,5,5,38,50,1,4,0.9,1.1
2022-11-12T02:00:00,1788A,129.6386,44.5462,牡丹江市,第一中学,,41,41,81,22,55,50,20,40,30,29,40,3,5,0.7,0.8
2022-11-12T02:00:00,1789A,124.81117,46.03138,大庆市,大同区,细颗粒物(PM2.5),65,29,182,47,147,58,33,37,35,15,29,4,7,0.3,0.8
2022-11-12T02:00:00,1790A,125.129,46.533,大庆市,龙凤区,细颗粒物(PM2.5),212,175,170,162,138,54,38,49,44,25,31,5,8,2.5,1.2
2022-11-12T02:00:00,1791A,124.902,46.408,大庆市,红岗区,,49,39,148,34,118,60,39,40,40,11,24,4,6,0.1,0.6
2022-11-12T02:00:00,1792A,125.153,46.586,大庆市,萨尔图区,细颗粒物(PM2.5),243,211,185,193,158,49,38,42,40,25,37,6,10,0.7,0.8
2022-11-12T02:00:00,1793A,124.9042,46.6215,大庆市,让胡路区,,45,37,167,31,132,58,35,36,36,8,30,3,7,0.6,1.1
2022-11-12T02:00:00,1794A,118.3606,31.3519,芜湖市,监测站,,28,24,38,19,28,94,32,32,32,24,30,8,8,0.6,0.7
2022-11-12T02:00:00,1795A,118.3714,31.4134,芜湖市,科创中心,,42,42,45,19,26,104,21,21,21,28,31,4,5,0.5,0.6
2022-11-12T02:00:00,1796A,118.3673,31.3131,芜湖市,四水厂,,37,37,43,16,24,102,28,30,29,24,29,6,7,0.6,0.7
2022-11-12T02:00:00,1797A,118.4022,31.3839,芜湖市,济民医院(对照点),,,,,,,,,,,,,,,,
2022-11-12T02:00:00,1798A,118.5092,31.6837,马鞍山市,湖东路四小,,32,32,51,17,23,88,40,41,40,17,24,6,5,0.7,0.7
2022-11-12T02:00:00,1799A,118.5024,31.6449,马鞍山市,开发区,颗粒物(PM10),69,87,52,17,47,88,34,37,36,26,29,7,6,0.7,0.8
2022-11-12T02:00:00,1800A,118.5228,31.7231,马鞍山市,慈湖,,46,46,50,19,27,85,37,39,38,26,29,9,16,0.6,0.7
2022-11-12T02:00:00,1801A,118.48,31.6928,马鞍山市,马钢动力厂,,,,,,,,,,,,,,,,
2022-11-12T02:00:00,1802A,118.6245,31.7241,马鞍山市,濮塘(对照点),,32,28,55,22,33,81,32,43,38,15,16,4,4,0.6,0.7
2022-11-12T02:00:00,1803A,115.9872,29.6815,九江市,十里,细颗粒物(PM2.5),95,115,98,71,63,159,7,49,28,78,34,10,18,1.2,1.3
2022-11-12T02:00:00,1804A,115.9584,29.7046,九江市,茅山头,细颗粒物(PM2.5),107,109,95,80,66,152,9,10,10,68,37,7,12,1.1,1.2
2022-11-12T02:00:00,1805A,115.9877,29.7295,九江市,西园,细颗粒物(PM2.5),105,121,102,79,63,142,20,55,38,72,39,13,14,0.9,0.9
2022-11-12T02:00:00,1806A,116.0172,29.6547,九江市,五七二七厂,细颗粒物(PM2.5),137,139,89,104,66,148,36,45,40,35,34,14,16,1.3,1.3
2022-11-12T02:00:00,1808A,115.9114,29.6038,九江市,综合工业园,细颗粒物(PM2.5),110,117,119,83,72,137,22,21,21,56,60,8,13,0.4,0.8
2022-11-12T02:00:00,1809A,116.0721,29.7535,九江市,石化总厂,细颗粒物(PM2.5),98,119,100,73,57,145,50,57,54,41,41,16,13,1.0,1
2022-11-12T02:00:00,1810A,115.9773,29.5698,九江市,庐山气象台(对照点),,29,13,16,10,14,110,90,98,94,6,8,7,12,0,0.2
2022-11-12T02:00:00,1811A,112.3628,34.6692,洛阳市,中信二小,,,,,,,,,,,,,,,,
2022-11-12T02:00:00,1812A,112.3931,34.6516,洛阳市,市委党校,,23,23,177,6,122,52,52,50,50,6,24,4,5,0.3,1.1
2022-11-12T02:00:00,1814A,112.4657,34.6871,洛阳市,豫西宾馆,,18,0,183,11,127,57,57,54,54,6,26,3,4,0.3,1.1
2022-11-12T02:00:00,1815A,112.494,34.6886,洛阳市,河南林校,,,21,157,6,127,54,54,51,51,7,25,,,0.2,1
2022-11-12T02:00:00,1816A,112.3844,34.623,洛阳市,开发区管委会,,18,18,156,11,117,53,53,52,52,9,24,2,4,0.2,1
2022-11-12T02:00:00,1817A,112.4267,34.6258,洛阳市,市委新办公区,,18,18,169,8,124,54,54,51,51,5,24,3,4,0.2,1.1
2022-11-12T02:00:00,1818A,114.4839,36.0621,安阳市,棉研所(对照点),,,,,,,,,,,,,,,,
2022-11-12T02:00:00,1819A,114.3551,36.1017,安阳市,红庙街,细颗粒物(PM2.5),251,247,254,201,210,61,3,4,4,56,45,6,10,1.6,1.5
2022-11-12T02:00:00,1820A,114.361,36.0681,安阳市,银杏小区,细颗粒物(PM2.5),221,249,238,171,198,67,4,10,7,52,41,5,10,2.0,2
2022-11-12T02:00:00,1824A,114.3389,34.7781,开封市,肿瘤医院,细颗粒物(PM2.5),163,54,167,124,203,31,7,5,5,36,43,3,4,1.5,1.3
2022-11-12T02:00:00,1826A,114.2885,34.7965,开封市,世纪星幼儿园,细颗粒物(PM2.5),114,152,252,86,183,24,6,4,4,35,42,5,6,1.5,1.4
2022-11-12T02:00:00,1828A,113.227,35.2125,焦作市,市环保局,细颗粒物(PM2.5),55,41,173,39,128,41,22,16,16,16,29,3,9,0.8,1.4
2022-11-12T02:00:00,1829A,113.2464,35.1764,焦作市,高新区政府（停运20220628）,,,,,,,,,,,,,,,,
2022-11-12T02:00:00,1830A,113.1992,35.2590,焦作市,影视城(对照点),,,,,,,,,,,,,,,,
2022-11-12T02:00:00,1832A,113.3257,33.742,平顶山市,新华旅馆,细颗粒物(PM2.5),88,35,145,65,147,46,46,41,41,7,29,4,4,0.7,1
2022-11-12T02:00:00,1833A,113.2919,33.737,平顶山市,规划设计院,,39,39,163,7,130,49,49,44,44,5,34,3,4,0.6,1.2
2022-11-12T02:00:00,1834A,113.182,33.774,平顶山市,平顶山工学院,,32,32,164,7,133,46,46,38,38,13,32,3,3,0.5,1
2022-11-12T02:00:00,1835A,111.1922,34.7752,三门峡市,市政府,,20,2,37,6,37,62,62,56,56,7,21,5,5,0.3,1
2022-11-12T02:00:00,1836A,111.1587,34.7942,三门峡市,开发区,,20,1,64,12,42,63,63,56,56,10,19,4,4,0.7,1.2
2022-11-12T02:00:00,1838A,111.143,34.7955,三门峡市,风景区(对照点),,,,,,,,,,,,,,,,
2022-11-12T02:00:00,1839A,111.3009,30.7157,宜昌市,四零三,,,,,,,,,,,,,,,,
2022-11-12T02:00:00,1840A,111.2992,30.6981,宜昌市,白龙岗,细颗粒物(PM2.5),92,90,85,68,61,129,41,59,50,33,41,4,5,0.7,0.7
2022-11-12T02:00:00,1841A,111.3549,30.6465,宜昌市,伍家岗,细颗粒物(PM2.5),128,124,93,97,65,125,15,15,15,45,43,5,6,0.7,0.8
2022-11-12T02:00:00,1842A,111.2628,30.6961,宜昌市,点军区,细颗粒物(PM2.5),119,120,93,90,68,142,30,38,34,23,30,5,5,0.9,0.8
2022-11-12T02:00:00,1843A,111.3275,30.7819,宜昌市,夷陵区,细颗粒物(PM2.5),94,98,81,70,60,136,12,12,12,48,32,6,8,0.8,0.7
2022-11-12T02:00:00,1844A,112.2494,30.3197,荆州市,市图书馆,细颗粒物(PM2.5),138,125,109,105,86,140,48,53,50,23,26,6,9,1.0,1.1
2022-11-12T02:00:00,1845A,112.2008,30.3544,荆州市,市委党校,细颗粒物(PM2.5),119,137,126,90,73,143,50,58,54,24,24,4,6,0.9,1
2022-11-12T02:00:00,1847A,113.1094,29.3578,岳阳市,南湖风景区,细颗粒物(PM2.5),64,52,62,46,44,171,48,39,39,29,40,11,19,0.8,0.8
2022-11-12T02:00:00,1848A,113.1493,29.4251,岳阳市,城陵矶,颗粒物(PM10),63,75,66,41,38,149,37,28,28,31,49,9,14,1.2,0.9
2022-11-12T02:00:00,1849A,113.1497,29.3575,岳阳市,开发区,,50,50,60,30,33,158,23,29,26,38,40,21,12,0.9,0.7
2022-11-12T02:00:00,1850A,113.2621,29.4758,岳阳市,云溪区,颗粒物(PM10),53,56,55,36,36,149,34,28,28,33,27,10,13,1.0,0.7
2022-11-12T02:00:00,1851A,112.9943,29.4402,岳阳市,君山区,细颗粒物(PM2.5),63,56,58,45,47,155,46,51,48,21,25,8,10,0.9,0.7
2022-11-12T02:00:00,1852A,113.2117,29.355,岳阳市,金凤水库(对照点),,46,39,44,32,29,160,26,29,28,32,18,6,8,1.0,0.8
2022-11-12T02:00:00,1854A,111.6975,28.9703,常德市,市二中,细颗粒物(PM2.5),122,111,109,92,88,173,73,88,80,28,30,7,10,0.9,0.8
2022-11-12T02:00:00,1857A,111.7158,29.1456,常德市,白鹤山(对照点),细颗粒物(PM2.5),92,89,85,68,61,153,68,83,76,6,6,4,7,0.7,0.7
2022-11-12T02:00:00,1858A,110.5319,29.1217,张家界市,永定新区,细颗粒物(PM2.5),82,70,57,60,39,110,79,76,76,20,24,5,4,0.6,0.5
2022-11-12T02:00:00,1859A,110.4697,29.1242,张家界市,电业局,,,,54,,36,65,,57,,,32,,5,,0.5
2022-11-12T02:00:00,1860A,110.5594,29.3547,张家界市,未央路,细颗粒物(PM2.5),65,54,57,47,38,135,39,41,40,9,12,3,4,0.2,0.1
2022-11-12T02:00:00,1861A,110.4417,29.315,张家界市,袁家界(对照点),细颗粒物(PM2.5),102,77,55,76,36,149,149,148,148,9,8,11,12,0.6,0.5
2022-11-12T02:00:00,1862A,110.4144,25.3167,桂林市,电子科大尧山校区(对照点),,42,31,29,29,23,104,40,40,40,10,8,8,7,0.6,0.5
2022-11-12T02:00:00,1863A,110.2819,25.2697,桂林市,监测站,,36,36,37,21,21,102,61,68,64,14,14,3,4,0.6,0.5
2022-11-12T02:00:00,1864A,110.3089,25.2708,桂林市,龙隐路小学,,30,30,32,20,20,88,51,55,53,13,13,4,6,0.6,0.5
2022-11-12T02:00:00,1865A,110.2869,25.2178,桂林市,八中,,30,29,31,21,17,86,44,52,48,20,18,4,4,0.3,0.3
2022-11-12T02:00:00,1866A,109.2262,21.588,北海市,牛尾岭水库(对照点),细颗粒物(PM2.5),52,27,35,36,28,165,35,51,43,5,8,7,23,0.6,0.8
2022-11-12T02:00:00,1867A,109.1436,21.4086,北海市,海滩公园,,27,22,35,7,17,161,86,94,90,5,6,6,8,0.5,0.6
2022-11-12T02:00:00,1868A,109.0981,21.4661,北海市,新市环保局,,27,27,31,14,22,141,82,86,84,8,11,5,6,0.4,0.5
2022-11-12T02:00:00,1869A,109.1778,21.5233,北海市,北海工业园,,39,36,45,27,24,135,46,62,54,27,15,7,9,0.5,0.4
2022-11-12T02:00:00,1870A,109.4856,24.3895,柳州市,柳东小学,,40,40,45,28,34,104,62,68,65,10,14,6,9,1.0,0.8
2022-11-12T02:00:00,1871A,109.4157,24.3277,柳州市,环保监测站,,42,42,45,26,27,98,55,48,48,16,17,6,5,0.7,0.7
2022-11-12T02:00:00,1872A,109.389,24.341,柳州市,河西水厂,,48,48,45,30,28,96,49,49,49,18,16,12,10,0.7,1
2022-11-12T02:00:00,1873A,109.4311,24.2921,柳州市,市四中,,50,50,54,27,25,102,57,57,57,14,16,8,8,0.8,0.8
2022-11-12T02:00:00,1874A,109.4006,24.3631,柳州市,市九中,颗粒物(PM10),51,52,51,34,26,98,44,51,48,21,18,10,8,0.9,0.8
2022-11-12T02:00:00,1875A,109.4958,24.3134,柳州市,古亭山,,49,49,40,28,24,96,8,14,11,53,26,6,7,0.5,0.5
2022-11-12T02:00:00,1876A,109.5078,18.2489,三亚市,河东子站,,25,25,18,15,9,62,55,56,56,5,5,1,1,0.3,0.3
2022-11-12T02:00:00,1877A,109.4964,18.2681,三亚市,河西子站,,22,22,17,10,8,56,50,49,49,6,7,1,1,0.3,0.3
2022-11-12T02:00:00,1878A,104.7778,31.4741,绵阳市,富乐山,,25,20,43,9,33,84,80,80,80,7,19,4,4,0.1,0.3
2022-11-12T02:00:00,1879A,104.7563,31.4535,绵阳市,市人大,,23,17,58,12,37,72,72,71,71,6,28,3,4,0.1,0.5
2022-11-12T02:00:00,1880A,104.6697,31.4668,绵阳市,高新区自来水公司,,25,20,56,6,44,95,78,77,77,3,20,5,6,0.5,0.7
2022-11-12T02:00:00,1881A,104.7287,31.5075,绵阳市,三水厂,,24,13,59,4,46,93,76,75,75,6,22,3,4,0.4,0.7
2022-11-12T02:00:00,1882A,104.563,28.793,宜宾市,石马中学(对照点),细颗粒物(PM2.5),97,108,90,72,70,86,23,22,22,30,26,6,6,0.9,0.9
2022-11-12T02:00:00,1883A,104.6201,28.7728,宜宾市,市委,细颗粒物(PM2.5),125,108,93,95,78,97,12,20,16,46,32,8,10,1.0,1
2022-11-12T02:00:00,1884A,104.6055,28.793,宜宾市,宜宾四中,细颗粒物(PM2.5),142,132,105,108,84,89,50,46,46,22,33,9,7,0.9,1
2022-11-12T02:00:00,1885A,104.639,28.7562,宜宾市,市政府,细颗粒物(PM2.5),124,118,102,94,78,98,8,6,6,48,37,8,11,0.9,0.8
2022-11-12T02:00:00,1886A,104.5742,28.7199,宜宾市,黄金嘴,细颗粒物(PM2.5),107,103,92,80,73,100,3,2,2,45,32,7,9,0.9,0.9
2022-11-12T02:00:00,1888A,101.6891,26.571,攀枝花市,弄弄坪,颗粒物(PM10),57,63,56,33,31,127,5,11,8,62,42,15,18,1.5,1.8
2022-11-12T02:00:00,1889A,101.5769,26.5928,攀枝花市,河门口,,36,36,37,20,22,126,31,30,30,25,28,11,20,1.1,1.3
2022-11-12T02:00:00,1890A,101.7169,26.585,攀枝花市,炳草岗,颗粒物(PM10),55,60,52,21,19,129,2,4,3,67,51,11,17,1.4,1.6
2022-11-12T02:00:00,1891A,101.7369,26.5008,攀枝花市,仁和,,47,47,45,29,25,131,23,27,25,28,26,7,16,1.0,1.4
2022-11-12T02:00:00,1893A,105.4324,28.9634,泸州市,九狮山(对照点),细颗粒物(PM2.5),114,105,66,86,65,71,23,22,22,22,19,12,12,0.7,0.5
2022-11-12T02:00:00,1894A,105.4427,28.9063,泸州市,小市上码头,细颗粒物(PM2.5),156,133,114,119,102,100,40,38,38,20,28,10,13,0.9,0.8
2022-11-12T02:00:00,1895A,105.4241,28.8573,泸州市,兰田宪桥,细颗粒物(PM2.5),178,144,112,134,88,95,39,37,37,17,22,18,20,0.9,0.9
2022-11-12T02:00:00,1896A,105.4379,28.8833,泸州市,市环监站,细颗粒物(PM2.5),143,125,107,109,92,92,43,42,42,14,25,14,19,0.7,0.8
2022-11-12T02:00:00,1897A,104.7547,29.3628,自贡市,大塘山(对照点),,,,,,,,,,,,,,,,
2022-11-12T02:00:00,1900A,104.7692,29.3411,自贡市,春华路,,,,,,,,,,,,,,,,
2022-11-12T02:00:00,1901A,104.4239,31.1208,德阳市,东山公园,,36,36,62,8,36,96,72,71,71,5,21,4,6,0.5,0.8
2022-11-12T02:00:00,1902A,104.3826,31.1317,德阳市,西小区,,33,33,68,4,34,98,69,67,67,6,28,3,6,0.3,0.7
2022-11-12T02:00:00,1903A,104.4053,31.1167,德阳市,市检察院,,,,,,,,,,,,,,,,
2022-11-12T02:00:00,1904A,104.3553,31.1091,德阳市,耐火材料厂,,28,28,84,6,40,94,67,64,64,8,28,5,8,0.4,0.7
2022-11-12T02:00:00,1905A,106.056,30.8064,南充市,西山风景区(对照点),,28,28,57,9,47,65,65,64,64,4,13,2,9,0.5,0.9
2022-11-12T02:00:00,1906A,106.0789,30.8023,南充市,南充市委,,32,32,68,12,47,59,59,58,58,5,21,4,11,0.3,0.7
2022-11-12T02:00:00,1907A,106.1031,30.8217,南充市,南充炼油厂,,40,40,71,17,44,65,65,64,64,5,19,6,13,0.5,0.8
2022-11-12T02:00:00,1908A,106.1064,30.7856,南充市,高坪区监测站,,37,37,69,15,53,57,57,56,56,2,14,8,17,0.3,0.7
2022-11-12T02:00:00,1909A,106.0642,30.7636,南充市,嘉陵区环保局,,24,24,72,6,50,66,66,65,65,6,22,8,16,0.5,0.8
2022-11-12T02:00:00,1910A,106.1087,30.8388,南充市,市环境监测站,,35,35,66,21,52,60,60,60,60,6,20,9,15,0.5,0.8
2022-11-12T02:00:00,1911A,106.9222,27.6869,遵义市,丁字口,,46,46,45,31,31,124,19,25,22,45,28,9,10,0.8,0.7
2022-11-12T02:00:00,1912A,106.9242,27.7019,遵义市,凤凰山,,36,36,40,18,24,128,82,88,85,10,12,5,7,0.5,0.5
2022-11-12T02:00:00,1913A,106.8906,27.6486,遵义市,忠庄,颗粒物(PM10),53,56,45,28,24,123,39,49,44,28,16,2,4,0.5,0.4
2022-11-12T02:00:00,1914A,106.9231,27.6506,遵义市,舟水桥,细颗粒物(PM2.5),88,107,53,65,29,122,10,15,12,32,24,3,5,0.6,0.5
2022-11-12T02:00:00,1915A,106.9178,27.72,遵义市,干田坝,,39,39,43,27,32,122,6,24,15,49,19,7,8,0.5,0.4
2022-11-12T02:00:00,1916A,103.7897,25.5035,曲靖市,环境监测站,,28,28,29,14,17,140,52,55,54,16,13,3,5,0.4,0.4
2022-11-12T02:00:00,1917A,103.8,25.5364,曲靖市,烟厂办公区,,24,24,29,13,13,125,62,65,64,12,13,5,7,0.4,0.4
2022-11-12T02:00:00,1918A,108.7197,34.3956,咸阳市,气象站(对照点),,20,20,47,4,22,49,33,30,30,23,23,6,6,0.4,0.8
2022-11-12T02:00:00,1919A,108.673,34.3155,咸阳市,实验中学,,16,16,52,8,24,59,49,51,50,21,27,2,3,0.2,0.6
2022-11-12T02:00:00,1920A,108.7233,34.3617,咸阳市,师范学院,,16,15,52,8,24,56,50,48,48,15,25,6,6,0.3,0.8
2022-11-12T02:00:00,1922A,109.0656,35.0994,铜川市,党校(对照点),,22,19,45,4,28,74,10,24,17,44,24,13,14,0.5,0.8
2022-11-12T02:00:00,1923A,109.0697,35.0697,铜川市,王益区政府,,15,13,49,2,27,70,24,22,22,29,22,8,5,0.4,0.7
2022-11-12T02:00:00,1924A,108.9344,34.9058,铜川市,新区管委会,,15,10,60,5,28,56,47,51,49,10,20,6,7,0.3,0.8
2022-11-12T02:00:00,1925A,108.9589,34.8731,铜川市,新区兰芝公司,,,,,,,,,,,,,,,,
2022-11-12T02:00:00,1926A,109.4131,36.6275,延安市,枣园(对照点),,43,43,52,9,23,62,49,55,52,12,24,4,4,0.7,1.1
2022-11-12T02:00:00,1927A,109.4761,36.6028,延安市,延大医附院,,42,42,43,2,25,54,43,37,37,13,30,5,5,0.4,0.9
2022-11-12T02:00:00,1928A,109.4824,36.5767,延安市,市监测站,,,,,,,,,,,,,,,,
2022-11-12T02:00:00,1929A,109.5056,36.6106,延安市,百米大道,,23,23,47,16,32,56,28,23,23,27,39,6,7,0.4,0.9
2022-11-12T02:00:00,1930A,107.185,34.3063,宝鸡市,庙沟村(对照点),,29,29,20,5,9,71,57,40,40,6,14,5,4,0.7,1
2022-11-12T02:00:00,1931A,107.0708,34.3017,宝鸡市,竹园沟,,14,14,22,9,13,65,24,26,25,13,18,6,5,0.4,0.7
2022-11-12T02:00:00,1932A,107.1906,34.3672,宝鸡市,三陆医院,,31,31,28,11,13,51,18,28,23,26,28,7,7,0.5,0.8
2022-11-12T02:00:00,1933A,107.1431,34.3547,宝鸡市,监测站,,21,21,27,12,15,52,26,30,28,20,28,6,6,0.4,0.7
2022-11-12T02:00:00,1934A,107.1186,34.3739,宝鸡市,技工学校,,29,22,26,20,23,62,33,38,36,20,26,5,5,0.4,0.8
2022-11-12T02:00:00,1935A,107.3906,34.3528,宝鸡市,陈仓区环保局家属楼,,29,29,31,16,17,60,21,18,18,33,29,6,6,0.5,0.7
2022-11-12T02:00:00,1936A,107.2058,34.3497,宝鸡市,文理学院,,28,28,28,15,16,71,30,32,31,22,29,7,7,0.4,0.7
2022-11-12T02:00:00,1937A,107.2386,34.3622,宝鸡市,三迪小学,,30,25,30,21,21,54,24,30,27,26,32,8,8,0.4,0.8
2022-11-12T02:00:00,1938A,109.5293,34.5101,渭南市,农科所(对照点),,18,7,79,12,62,57,57,56,56,16,26,5,6,0.5,1
2022-11-12T02:00:00,1939A,109.4974,34.4877,渭南市,日报社,,20,7,77,14,56,57,52,52,52,23,32,6,7,0.3,0.8
2022-11-12T02:00:00,1940A,109.4636,34.493,渭南市,体育馆,,18,17,73,11,57,58,55,52,52,18,30,5,6,0.3,0.8
2022-11-12T02:00:00,1941A,109.4259,34.5023,渭南市,高新一小,,24,24,70,9,50,57,51,49,49,21,30,4,5,0.3,0.7
2022-11-12T02:00:00,1943A,102.1725,38.5339,金昌市,新川苑,颗粒物(PM10),53,56,39,5,12,82,80,78,78,9,12,9,5,0.6,0.8
2022-11-12T02:00:00,1944A,102.1692,38.5167,金昌市,天庆家园,,37,37,32,4,6,82,73,77,75,10,9,6,5,0.5,0.6
2022-11-12T02:00:00,1945A,98.2908,39.7711,嘉峪关市,气象局,,48,48,75,12,20,89,63,58,58,13,18,4,16,0.1,0.4
2022-11-12T02:00:00,1947A,106.3394,38.817,石嘴山市,沙湖旅游区(对照点),,42,42,58,22,38,64,8,15,12,44,23,24,12,0.9,0.7
2022-11-12T02:00:00,1948A,106.3668,39.0145,石嘴山市,大武口朝阳西街,,39,39,37,9,16,76,73,68,68,3,13,2,3,0.3,0.4
2022-11-12T02:00:00,1949A,106.7704,39.2282,石嘴山市,惠农南大街,,42,42,66,9,15,64,56,44,44,14,62,17,12,0.4,0.5
2022-11-12T02:00:00,1950A,106.7099,39.1325,石嘴山市,红果子镇惠新街,,49,49,48,9,16,76,55,48,48,17,17,13,20,0.5,0.5
2022-11-12T02:00:00,1951A,84.895,45.6094,克拉玛依市,长征新村,,25,23,14,17,8,50,12,12,12,31,22,5,5,0.3,0.2
2022-11-12T02:00:00,1952A,84.8988,45.5893,克拉玛依市,南林小区,,26,13,17,18,12,51,5,5,5,38,27,1,2,0.7,0.5
2022-11-12T02:00:00,1953A,85.1186,45.6886,克拉玛依市,白碱滩区,,,,,,,,,,,,,,,,
2022-11-12T02:00:00,1954A,84.905,44.3396,克拉玛依市,独山子区,,26,26,26,18,16,65,54,53,53,12,16,6,6,0.5,0.5
2022-11-12T02:00:00,1955A,85.6979,46.098,克拉玛依市,乌尔禾区商贸楼,,13,10,10,4,8,54,8,14,11,25,13,2,2,0.9,0.6
2022-11-12T02:00:00,1956A,86.1472,41.7538,巴音郭楞州,孔雀公园,颗粒物(PM10),78,105,59,34,19,77,1,2,2,61,19,4,5,0.4,0.3
2022-11-12T02:00:00,1957A,86.1972,41.7166,巴音郭楞州,棉纺厂,颗粒物(PM10),82,114,72,32,21,81,10,7,7,45,23,5,5,0.3,0.3
2022-11-12T02:00:00,1958A,86.2357,41.7173,巴音郭楞州,经济开发区,颗粒物(PM10),115,180,58,16,13,80,12,10,10,41,17,7,7,0.3,0.3
2022-11-12T02:00:00,1961A,117.532,36.6868,济南市,东山小学,,34,34,60,20,33,105,65,70,68,12,26,4,5,0.5,0.6
2022-11-12T02:00:00,1966A,120.0405,35.8735,青岛市,黄岛区4号,,28,17,27,12,14,131,88,91,90,11,15,4,5,0.6,0.6
2022-11-12T02:00:00,1982A,122.0693,37.2174,威海市,文登开发区,,35,34,57,24,38,120,108,114,111,14,22,4,4,0.6,0.6
2022-11-12T02:00:00,2031A,113.1817,27.9958,株洲市,云田中学,,28,28,32,14,18,105,53,62,58,17,14,10,12,0.5,0.5
2022-11-12T02:00:00,2054A,114.1099,32.1059,信阳市,平桥分局,细颗粒物(PM2.5),89,84,136,66,105,56,11,11,11,30,30,6,6,1.1,1.1
2022-11-12T02:00:00,2064A,113.9956,32.1271,信阳市,南湾水厂,颗粒物(PM10),61,71,148,34,89,49,13,18,16,20,24,6,7,1.3,1.2
2022-11-12T02:00:00,2065A,114.0775,32.1195,信阳市,市酿酒公司,颗粒物(PM10),69,87,157,48,97,52,8,8,8,25,25,6,6,1.2,1.1
2022-11-12T02:00:00,2066A,114.0609,32.1399,信阳市,审计局,"颗粒物(PM10),细颗粒物(PM2.5)",70,90,146,51,94,55,11,12,12,26,28,7,7,1.4,1.2
2022-11-12T02:00:00,2067A,114.6613,33.6128,周口市,市环境监测站,颗粒物(PM10),77,103,115,33,45,52,4,16,10,27,18,7,7,0.9,0.9
2022-11-12T02:00:00,2068A,114.6758,33.6347,周口市,周口师范,,,,110,,45,40,,41,,,21,,5,,1.1
2022-11-12T02:00:00,2069A,114.6546,33.5979,周口市,市运管处,颗粒物(PM10),82,113,121,39,46,53,7,19,13,25,18,2,4,1.1,1
2022-11-12T02:00:00,2070A,114.6369,33.6406,周口市,川汇区环保局,颗粒物(PM10),66,81,101,43,53,51,3,11,7,33,22,4,5,1.0,0.9
2022-11-12T02:00:00,2075A,117.6336,24.4674,漳州市,九湖(对照点),,,,,,,,,,,,,,,,
2022-11-12T02:00:00,2160A,112.85,35.5051,晋城市,自来水公司,,18,18,63,0,44,106,49,48,48,19,17,6,6,0.5,0.7
2022-11-12T02:00:00,2161A,112.8318,35.4936,晋城市,白云商贸,,20,20,70,0,38,106,52,52,52,11,15,3,3,0.6,0.9
2022-11-12T02:00:00,2162A,112.8508,35.4887,晋城市,市环保局,,17,15,63,7,48,105,53,52,52,17,17,5,5,0.5,0.8
2022-11-12T02:00:00,2163A,112.8676,35.4897,晋城市,技术学院,,,,,,,,,,,,,,,,
2022-11-12T02:00:00,2164A,112.8271,35.4828,晋城市,泽州一中,,,,,,,,,,,,,,,,
2022-11-12T02:00:00,2165A,112.8453,35.546,晋城市,白马寺 (对照点),,,,,,,,,,,,,,,,
2022-11-12T02:00:00,2166A,112.4397,39.3522,朔州市,平朔,,,,60,3,58,53,49,49,49,2,17,5,7,0.2,0.8
2022-11-12T02:00:00,2167A,112.4575,39.3617,朔州市,朔唯,,17,2,53,4,57,56,52,53,52,5,19,4,8,0.4,0.8
2022-11-12T02:00:00,2168A,112.4258,39.3197,朔州市,区政府,,18,10,74,1,57,55,55,54,54,6,22,4,7,0.4,0.9
2022-11-12T02:00:00,2169A,112.4072,39.3278,朔州市,市环保局,,17,8,70,2,65,53,53,52,52,6,22,3,8,0.4,0.9
2022-11-12T02:00:00,2170A,112.4272,39.3681,朔州市,市二中,,16,7,69,3,56,50,49,50,50,9,23,4,7,0.8,1.3
2022-11-12T02:00:00,2171A,112.7532,37.6945,晋中市,锦纶小区,,15,9,54,9,49,79,24,37,30,29,43,3,4,0.6,1.1
2022-11-12T02:00:00,2173A,112.7249,37.7067,晋中市,南都小区,,13,4,52,5,44,74,32,37,34,25,46,5,6,0.4,1.1
2022-11-12T02:00:00,2174A,112.6991,37.6982,晋中市,榆次区政府,,14,6,56,3,53,71,25,34,30,27,44,4,5,0.5,1.1
2022-11-12T02:00:00,2175A,110.9956,35.0147,运城市,运城中学,,17,9,63,3,50,83,53,55,54,8,13,6,6,0.2,0.8
2022-11-12T02:00:00,2176A,111.0233,35.0611,运城市,禹都开发区,,,,,,,,,,,,,,,,
2022-11-12T02:00:00,2178A,110.9686,35.0303,运城市,地区技校,,16,12,65,8,47,83,51,54,52,7,13,7,6,0,0.7
2022-11-12T02:00:00,2179A,111.0414,35.1147,运城市,空港新区,,19,8,83,6,54,87,59,58,58,9,17,7,7,0.6,0.9
2022-11-12T02:00:00,2181A,112.7383,38.4519,忻州市,开发区,,11,11,71,1,68,91,27,30,28,14,20,5,5,0.6,0.9
2022-11-12T02:00:00,2182A,112.7003,38.4928,忻州市,会展中心,,19,13,73,13,68,62,26,26,26,14,28,5,6,0.2,0.5
2022-11-12T02:00:00,2183A,111.1406,37.5211,吕梁市,环保局,,13,13,19,4,16,50,38,26,26,19,34,5,6,0.2,0.7
2022-11-12T02:00:00,2185A,111.1297,37.5136,吕梁市,自来水公司,,21,21,19,8,16,47,37,33,33,18,29,5,5,0.3,0.8
2022-11-12T02:00:00,2186A,106.8288,39.6778,乌海市,聚英学校,,,,,,,,,,,,,,,,
2022-11-12T02:00:00,2187A,106.8174,39.6973,乌海市,市林业局,颗粒物(PM10),61,72,60,29,28,74,36,56,46,25,12,8,8,0.4,0.4
2022-11-12T02:00:00,2188A,106.7907,39.6667,乌海市,中海勃湾学校,颗粒物(PM10),51,52,56,23,25,81,55,62,58,18,11,10,10,0.4,0.3
2022-11-12T02:00:00,2191A,122.2532,43.6801,通辽市,艺术职业学校,细颗粒物(PM2.5),57,48,93,40,49,106,54,47,47,16,22,5,8,0.6,0.9
2022-11-12T02:00:00,2192A,119.7594,49.2261,呼伦贝尔市,区环保局,,27,27,24,10,15,45,44,44,44,7,11,4,5,0.3,0.4
2022-11-12T02:00:00,2194A,107.5936,40.916,巴彦淖尔市,秋林养殖基地(对照点),,,,,,,,,,,,,,,,
2022-11-12T02:00:00,2195A,107.4212,40.761,巴彦淖尔市,附二中,颗粒物(PM10),70,89,81,28,34,59,38,40,39,18,23,3,5,0.4,0.6
2022-11-12T02:00:00,2196A,107.37,40.7372,巴彦淖尔市,市环保大楼,颗粒物(PM10),54,58,70,37,35,69,34,35,34,15,23,4,5,0.6,0.6
2022-11-12T02:00:00,2197A,113.1306,40.9923,乌兰察布市,集宁新区,,23,22,41,16,35,50,39,38,38,6,24,7,8,0.5,0.7
2022-11-12T02:00:00,2200A,122.0392,46.0656,兴安盟,胜华新制药厂,,27,27,110,10,95,55,47,49,48,8,22,2,5,0.2,0.5
2022-11-12T02:00:00,2201A,121.9504,46.0741,兴安盟,科右前旗环保局,,17,15,104,11,91,58,54,54,54,5,21,3,5,0.1,0.3
2022-11-12T02:00:00,2202A,116.1042,43.9317,锡林郭勒盟,市环保监测站,颗粒物(PM10),55,59,63,3,15,70,58,56,56,3,7,9,9,0.2,0.3
2022-11-12T02:00:00,2203A,116.0781,43.9311,锡林郭勒盟,市政府,,19,13,24,2,15,66,59,56,56,5,11,12,11,0.2,0.4
2022-11-12T02:00:00,2204A,105.6467,38.8363,阿拉善盟,西城区西花园(对照点),,33,33,35,19,15,78,76,68,68,7,11,8,8,0.2,0.2
2022-11-12T02:00:00,2205A,105.6985,38.8411,阿拉善盟,蒙二幼,,41,41,32,17,24,82,80,78,78,6,8,8,8,0.2,0.2
2022-11-12T02:00:00,2206A,105.724,38.8516,阿拉善盟,环保局新楼,,31,31,29,15,18,88,81,82,82,5,7,7,6,0.3,0.3
2022-11-12T02:00:00,2207A,121.6094,41.998,阜新市,工业园区,,15,2,89,3,49,75,45,42,42,11,32,5,13,0.6,1.1
2022-11-12T02:00:00,2208A,121.6697,42.0279,阜新市,长青街,,20,20,89,14,70,79,44,43,43,9,30,3,9,0.5,1
2022-11-12T02:00:00,2209A,121.6673,42.0705,阜新市,农业园区,,13,0,47,5,31,72,40,40,40,5,17,7,10,0.4,0.9
2022-11-12T02:00:00,2210A,121.6717,42.0224,阜新市,东苑,,16,14,85,11,48,79,44,43,43,12,31,6,12,0.4,1
2022-11-12T02:00:00,2211A,121.6506,42.0498,阜新市,玉龙新城,,13,10,67,3,59,68,39,38,38,14,28,7,11,0.3,0.8
2022-11-12T02:00:00,2212A,123.2,41.1953,辽阳市,宏伟区,,41,41,36,25,26,92,81,80,80,7,9,6,6,0.6,0.6
2022-11-12T02:00:00,2213A,123.1683,41.2495,辽阳市,新华园,,39,38,41,27,29,92,79,79,79,11,12,11,11,0.5,0.5
2022-11-12T02:00:00,2214A,123.2354,41.2639,辽阳市,滨河路,细颗粒物(PM2.5),60,38,37,43,33,95,86,86,86,12,14,10,6,0.7,0.7
2022-11-12T02:00:00,2215A,123.149,41.2991,辽阳市,铁西工业园,细颗粒物(PM2.5),53,35,41,37,40,95,86,87,86,8,12,8,9,0.7,0.7
2022-11-12T02:00:00,2216A,123.8139,42.3022,铁岭市,汇工街西,,39,27,53,27,41,90,76,74,74,17,27,8,11,0.5,0.7
2022-11-12T02:00:00,2217A,123.8649,42.2923,铁岭市,水上乐园,,43,42,79,30,67,87,71,64,64,24,31,6,8,0.5,0.6
2022-11-12T02:00:00,2218A,123.8486,42.2867,铁岭市,银州路东段,,31,31,62,20,38,88,77,66,66,17,28,5,6,0.6,0.8
2022-11-12T02:00:00,2219A,123.7153,42.2217,铁岭市,金沙江路北,,43,42,44,30,40,87,63,74,68,24,33,8,11,0.9,1
2022-11-12T02:00:00,2220A,120.4318,41.5881,朝阳市,西梁,,19,9,105,13,65,75,40,39,39,6,18,7,11,0.6,1.1
2022-11-12T02:00:00,2221A,120.4521,41.5646,朝阳市,河畔小区,,15,5,73,10,55,79,34,34,34,6,11,11,10,0.7,1
2022-11-12T02:00:00,2222A,120.4176,41.5648,朝阳市,八里堡,,25,11,75,17,63,68,41,40,40,5,22,7,11,0.3,0.8
2022-11-12T02:00:00,2223A,120.3806,41.5969,朝阳市,农业园区,,25,12,90,17,74,85,36,37,36,14,30,5,9,0.7,1.2
2022-11-12T02:00:00,2225A,124.4002,43.1713,四平市,一商场,细颗粒物(PM2.5),55,51,70,39,53,75,42,57,50,15,22,4,6,0.5,0.7
2022-11-12T02:00:00,2226A,124.388,43.193,四平市,境园,颗粒物(PM10),52,53,70,35,51,73,40,52,46,18,25,6,9,0.6,0.6
2022-11-12T02:00:00,2227A,125.1358,42.8845,辽源市,环保局,,42,32,57,29,48,105,73,70,70,7,19,8,8,0.7,0.9
2022-11-12T02:00:00,2229A,125.9358,41.7173,通化市,光明,,32,29,56,19,36,102,102,100,100,9,29,12,26,0.7,0.9
2022-11-12T02:00:00,2230A,125.9446,41.7325,通化市,铁路,,38,38,48,25,34,103,101,96,96,10,31,8,22,0.6,1
2022-11-12T02:00:00,2231A,126.4219,41.9171,白山市,喜丰,,47,47,68,23,32,97,23,24,24,37,29,9,14,0.8,0.9
2022-11-12T02:00:00,2232A,126.4077,41.9419,白山市,环保局,,45,45,72,26,39,97,18,28,23,36,31,7,12,1.0,1.1
2022-11-12T02:00:00,2233A,124.8006,45.1214,松原市,江南,细颗粒物(PM2.5),180,155,104,136,79,63,45,45,45,23,21,6,8,0.8,0.8
2022-11-12T02:00:00,2234A,124.7965,45.1722,松原市,江北,细颗粒物(PM2.5),153,126,90,117,71,64,38,38,38,22,18,3,5,0.7,0.7
2022-11-12T02:00:00,2235A,122.7911,45.6077,白城市,洮北区环保局,,48,35,157,33,139,81,65,62,62,13,35,3,6,0.3,0.8
2022-11-12T02:00:00,2236A,122.8738,45.5725,白城市,市环保局,,47,47,140,18,73,85,59,58,58,11,35,5,7,0.2,0.6
2022-11-12T02:00:00,2237A,129.47,42.8883,延边朝鲜族自治州,妇幼医院,细颗粒物(PM2.5),67,66,77,48,58,53,6,6,6,31,40,8,14,0.9,1
2022-11-12T02:00:00,2238A,129.5055,42.9108,延边朝鲜族自治州,延边医院,细颗粒物(PM2.5),85,74,76,63,56,56,7,6,6,43,39,13,17,1.1,1
2022-11-12T02:00:00,2239A,129.3964,42.8881,延边朝鲜族自治州,朝阳川镇医院,细颗粒物(PM2.5),57,60,75,40,52,62,11,10,10,24,31,6,10,0.7,0.8
2022-11-12T02:00:00,2240A,130.9762,45.3001,鸡西市,环保局,,45,45,127,28,71,54,40,48,44,13,37,5,16,0.6,1.1
2022-11-12T02:00:00,2243A,130.9429,45.3039,鸡西市,第一中学,,46,41,125,32,61,64,46,58,52,8,33,4,13,0.6,0.9
2022-11-12T02:00:00,2244A,130.2537,47.3416,鹤岗市,哈啤分公司,细颗粒物(PM2.5),150,134,57,115,32,37,36,36,36,18,25,10,14,0.7,0.5
2022-11-12T02:00:00,2245A,130.2684,47.3086,鹤岗市,斯达机电,细颗粒物(PM2.5),175,148,65,132,44,47,40,47,44,21,26,5,9,0.8,0.6
2022-11-12T02:00:00,2246A,130.3114,47.3388,鹤岗市,东山纸板厂,细颗粒物(PM2.5),196,157,89,147,38,38,38,36,36,16,23,10,14,0.8,0.8
2022-11-12T02:00:00,2247A,130.1097,47.3382,鹤岗市,五号水库(对照点),细颗粒物(PM2.5),206,171,56,156,41,64,53,58,56,17,19,7,10,0.7,0.5
2022-11-12T02:00:00,2248A,131.1511,46.6937,双鸭山市,双合村,,,,50,,30,21,,21,,,25,,14,,0.8
2022-11-12T02:00:00,2249A,131.1652,46.6191,双鸭山市,南小市,细颗粒物(PM2.5),87,97,65,64,36,58,23,22,22,22,21,5,7,0.4,0.4
2022-11-12T02:00:00,2250A,131.1524,46.6554,双鸭山市,环保局,细颗粒物(PM2.5),79,94,50,58,32,61,23,20,20,21,24,4,6,0.5,0.5
2022-11-12T02:00:00,2251A,131.12,46.5656,双鸭山市,苗圃(对照点),细颗粒物(PM2.5),75,54,38,55,36,62,3,2,2,26,13,6,4,0.6,0.5
2022-11-12T02:00:00,2252A,128.5159,47.4311,伊春市,环保局,细颗粒物(PM2.5),173,95,84,131,88,48,44,46,45,16,26,6,12,0.7,1.2
2022-11-12T02:00:00,2253A,128.9102,47.7412,伊春市,电力嘉园,细颗粒物(PM2.5),122,113,91,92,71,49,44,44,44,11,23,1,10,0.6,0.8
2022-11-12T02:00:00,2254A,129.5029,48.471,伊春市,汤旺河国家公园(对照点),,43,39,54,30,43,46,43,42,42,4,8,5,7,0.2,0.3
2022-11-12T02:00:00,2255A,130.2751,46.8028,佳木斯市,佳纺,颗粒物(PM10),56,62,80,34,35,16,16,11,11,27,25,5,5,0.8,0.7
2022-11-12T02:00:00,2256A,130.3995,46.8307,佳木斯市,发电厂,细颗粒物(PM2.5),74,60,57,54,45,16,4,4,4,32,24,4,4,0.7,0.7
2022-11-12T02:00:00,2257A,130.3258,46.7975,佳木斯市,环保局,细颗粒物(PM2.5),79,68,91,58,52,8,6,4,4,36,33,7,9,0.8,1
2022-11-12T02:00:00,2258A,130.3648,46.8032,佳木斯市,十一中,细颗粒物(PM2.5),83,64,73,61,52,19,19,12,12,31,34,5,8,0.8,0.9
2022-11-12T02:00:00,2259A,130.3794,46.7588,佳木斯市,四丰(对照点),细颗粒物(PM2.5),62,50,60,44,43,20,4,4,4,28,32,1,3,0.7,0.7
2022-11-12T02:00:00,2262A,131.0518,45.8751,七台河市,新一中(对照点),细颗粒物(PM2.5),107,94,59,80,39,80,49,54,52,15,18,8,11,1.2,0.9
2022-11-12T02:00:00,2263A,127.4833,50.2524,黑河市,交通局,,20,11,25,14,21,45,45,44,44,2,12,5,7,0.4,0.5
2022-11-12T02:00:00,2264A,127.5144,50.2341,黑河市,环保局,,19,5,35,13,26,46,46,45,45,3,12,5,7,0.2,0.3
2022-11-12T02:00:00,2265A,127.5291,50.2472,黑河市,大黑河岛(对照点),,16,3,22,11,25,43,43,42,42,1,4,13,4,0.2,0.3
2022-11-12T02:00:00,2266A,126.9785,46.6365,绥化市,人和东街,细颗粒物(PM2.5),147,126,180,112,152,58,41,44,42,14,25,3,4,1.1,1.4
2022-11-12T02:00:00,2267A,126.964,46.6528,绥化市,党政办公中心,细颗粒物(PM2.5),159,119,171,121,159,71,53,56,54,10,20,2,4,0.9,1.3
2022-11-12T02:00:00,2269A,124.1069,50.4097,大兴安岭地区,科技局,,18,7,35,12,30,52,52,50,50,3,18,3,8,0.2,0.4
2022-11-12T02:00:00,2270A,117.396,32.939,蚌埠市,工人疗养院,细颗粒物(PM2.5),67,71,63,48,36,66,4,4,4,42,22,11,5,0.5,0.4
2022-11-12T02:00:00,2271A,117.3605,32.9427,蚌埠市,百货大楼,细颗粒物(PM2.5),58,52,46,41,41,62,4,3,3,34,22,11,9,0.6,0.5
2022-11-12T02:00:00,2273A,117.4185,32.8911,蚌埠市,蚌埠学院,颗粒物(PM10),59,68,63,39,40,60,9,8,8,35,25,7,6,0.6,0.5
2022-11-12T02:00:00,2274A,117.3533,32.9673,蚌埠市,淮上区政府,细颗粒物(PM2.5),62,70,68,44,43,59,3,7,5,40,23,9,8,0.5,0.4
2022-11-12T02:00:00,2275A,117.3145,32.8977,蚌埠市,高新区,细颗粒物(PM2.5),67,63,58,48,40,66,15,17,16,35,27,4,14,0.7,0.6
2022-11-12T02:00:00,2277A,116.8305,32.7727,淮南市,潘集区政府,细颗粒物(PM2.5),99,117,78,74,56,63,14,12,12,34,22,6,3,0.8,0.4
2022-11-12T02:00:00,2278A,117.0067,32.6524,淮南市,师范学院,细颗粒物(PM2.5),87,95,88,64,62,58,21,20,20,24,29,9,7,0.6,0.8
2022-11-12T02:00:00,2279A,116.8569,32.5951,淮南市,谢家集区政府,颗粒物(PM10),52,53,74,35,42,58,8,13,10,37,30,10,10,0.4,0.5
2022-11-12T02:00:00,2280A,116.8281,32.633,淮南市,八公山区政府,颗粒物(PM10),53,55,72,33,40,55,15,17,16,22,23,10,10,0.5,0.6
2022-11-12T02:00:00,2281A,116.6325,32.6201,淮南市,焦岗湖风景区管理处(对照点),颗粒物(PM10),51,51,70,33,47,57,17,20,18,3,5,12,11,0.4,0.5
2022-11-12T02:00:00,2282A,116.8004,33.975,淮北市,监测站,,45,45,49,26,29,80,30,34,32,10,11,5,5,0.5,0.4
2022-11-12T02:00:00,2283A,116.8091,33.9007,淮北市,烈山区政府,细颗粒物(PM2.5),58,49,51,41,44,76,26,32,29,24,18,4,4,0.6,0.5
2022-11-12T02:00:00,2284A,116.7856,33.9477,淮北市,职业技术学院,,37,37,47,23,28,79,28,34,31,17,14,6,6,0.8,0.7
2022-11-12T02:00:00,2285A,117.8177,30.9412,铜陵市,市第四中学,颗粒物(PM10),52,53,74,25,46,121,7,15,11,34,28,4,5,0.2,0.3
2022-11-12T02:00:00,2286A,117.8059,30.9273,铜陵市,市公路局,,47,47,78,27,46,119,13,20,16,32,28,6,6,0.5,0.6
2022-11-12T02:00:00,2287A,117.7807,30.9413,铜陵市,市新民污水厂,颗粒物(PM10),54,57,81,31,40,126,2,10,6,44,36,6,7,0.3,0.4
2022-11-12T02:00:00,2288A,117.7439,30.8792,铜陵市,市第九中学,细颗粒物(PM2.5),80,104,111,59,55,99,4,4,4,60,70,7,9,0.7,0.9
2022-11-12T02:00:00,2289A,117.846,30.9413,铜陵市,车站新区,颗粒物(PM10),53,56,75,32,49,105,8,10,9,34,27,2,4,0.2,0.4
2022-11-12T02:00:00,2290A,117.8483,30.97,铜陵市,市职教基地,颗粒物(PM10),51,51,72,32,48,127,21,24,22,17,19,6,7,0.3,0.5
2022-11-12T02:00:00,2291A,117.0809,30.5177,安庆市,环科院,颗粒物(PM10),63,75,82,40,58,157,36,42,39,23,23,11,8,0.7,0.9
2022-11-12T02:00:00,2292A,117.0331,30.5119,安庆市,马山宾馆,颗粒物(PM10),65,80,76,37,49,155,39,47,43,31,28,8,8,1.0,1
2022-11-12T02:00:00,2294A,116.9896,30.6145,安庆市,安庆大学,细颗粒物(PM2.5),83,86,86,61,63,154,46,47,46,23,23,5,6,1.0,1.1
2022-11-12T02:00:00,2295A,118.2903,29.6963,黄山市,延安路89号,,23,23,26,15,16,105,19,18,18,16,17,5,5,0.6,0.5
2022-11-12T02:00:00,2296A,118.327,29.7178,黄山市,黄山东路89号,,26,26,27,14,14,99,15,27,21,23,19,5,5,0.3,0.2
2022-11-12T02:00:00,2297A,118.1371,30.2756,黄山市,黄山区政府5号楼,,39,34,44,27,24,87,5,6,6,7,14,5,5,0.5,0.6
2022-11-12T02:00:00,2298A,118.3093,32.3153,滁州市,老年大学,颗粒物(PM10),52,53,69,23,46,46,1,0,0,49,42,8,8,0.7,0.6
2022-11-12T02:00:00,2299A,118.3244,32.2786,滁州市,人大宾馆,,25,25,69,14,45,49,20,24,22,31,39,3,4,0.4,0.7
2022-11-12T02:00:00,2301A,115.8277,32.8929,阜阳市,市监测站,细颗粒物(PM2.5),70,80,94,51,53,48,2,8,5,38,25,8,7,0.8,0.7
2022-11-12T02:00:00,2303A,115.8554,32.8605,阜阳市,开发区,细颗粒物(PM2.5),74,78,87,54,69,50,5,6,6,35,33,5,5,0.6,0.7
2022-11-12T02:00:00,2306A,116.989,33.6306,宿州市,火车站,,,,,,,,,,,,,,,,
2022-11-12T02:00:00,2307A,116.5079,31.737,六安市,监测大楼,细颗粒物(PM2.5),97,106,102,72,66,93,36,21,21,31,41,6,6,0.6,0.7
2022-11-12T02:00:00,2308A,116.4738,31.7643,六安市,皖西学院,细颗粒物(PM2.5),127,148,119,96,70,96,30,18,18,36,41,7,6,0.7,1
2022-11-12T02:00:00,2309A,116.4996,31.7905,六安市,朝阳厂,颗粒物(PM10),78,105,106,56,65,90,26,21,21,33,38,4,4,0.7,0.8
2022-11-12T02:00:00,2310A,116.5567,31.7886,六安市,开发区,细颗粒物(PM2.5),99,116,113,74,65,96,18,27,22,37,35,10,7,0.5,0.6
2022-11-12T02:00:00,2311A,115.8072,33.8399,亳州市,污水处理厂,细颗粒物(PM2.5),80,75,85,59,67,66,4,5,4,28,15,6,5,0.8,0.8
2022-11-12T02:00:00,2312A,115.7789,33.8518,亳州市,三国揽胜宫,细颗粒物(PM2.5),97,58,60,72,67,66,8,10,9,31,19,5,3,0.9,0.8
2022-11-12T02:00:00,2314A,117.47,30.6618,池州市,池州学院,颗粒物(PM10),51,52,73,32,50,132,21,30,26,29,40,6,9,0.8,0.9
2022-11-12T02:00:00,2315A,117.4974,30.6539,池州市,平天湖(对照点),,,,,,,,,,,,,,,,
2022-11-12T02:00:00,2316A,118.7581,30.9454,宣城市,鳌峰子站,,46,46,44,21,25,87,32,31,31,36,31,4,5,0.4,0.5
2022-11-12T02:00:00,2317A,118.7385,30.9743,宣城市,敬亭山子站,,34,34,45,18,24,76,23,23,23,25,31,7,7,0.3,0.5
2022-11-12T02:00:00,2318A,118.7173,30.9427,宣城市,开发区子站,,45,45,41,25,26,82,36,36,36,26,28,5,5,0.4,0.4
2022-11-12T02:00:00,2319A,119.0141,25.4325,莆田市,荔城区仓后路,,49,49,25,17,11,83,6,17,12,33,14,6,5,0.8,0.7
2022-11-12T02:00:00,2320A,119.0015,25.4553,莆田市,莆田市监测站,,9,7,13,5,7,77,28,31,30,5,6,5,5,0.6,0.6
2022-11-12T02:00:00,2321A,119.1119,25.4561,莆田市,涵江区六中,,30,30,19,17,11,75,6,6,6,38,13,9,7,0.7,0.6
2022-11-12T02:00:00,2322A,119.1013,25.3215,莆田市,秀屿区政府,,18,15,17,12,9,80,36,40,38,13,11,7,7,0.8,0.7
2022-11-12T02:00:00,2323A,118.981,25.4792,莆田市,东圳水库(对照点),,,,,,,,,,,,,,,,
2022-11-12T02:00:00,2324A,117.6211,26.2625,三明市,三钢,,33,26,34,23,21,107,10,12,11,34,33,5,10,0.5,0.8
2022-11-12T02:00:00,2325A,117.635,26.2714,三明市,三明二中,,29,25,28,20,17,105,5,6,6,40,28,7,12,0.6,0.8
2022-11-12T02:00:00,2326A,117.6028,26.2378,三明市,三元区政府,,41,41,46,27,26,94,3,4,4,37,35,3,14,0.6,1
2022-11-12T02:00:00,2327A,117.7275,26.3108,三明市,洋溪(对照点),,,,,,,,,,,,,,,,
2022-11-12T02:00:00,2331A,118.0966,26.6761,南平市,茫荡山(对照点),,,,,,,,,,,,,,,,
2022-11-12T02:00:00,2332A,118.1681,26.6369,南平市,南平市监测站,,35,31,30,24,19,98,4,4,4,33,23,9,8,0.7,0.8
2022-11-12T02:00:00,2333A,118.1825,26.6489,南平市,南平铝业有限公司,,38,31,29,26,21,97,4,4,4,36,26,20,13,0.7,0.7
2022-11-12T02:00:00,2334A,118.1756,26.6272,南平市,南平七中,,37,37,32,24,21,114,11,10,10,28,22,7,5,0.7,0.7
2022-11-12T02:00:00,2335A,117.0189,25.1181,龙岩市,龙岩师专(对照点),,,,,,,,,,,,,,,,
2022-11-12T02:00:00,2336A,117.0217,25.1033,龙岩市,龙岩市监测站,,36,33,36,25,19,104,9,11,10,41,32,9,9,0.6,0.7
2022-11-12T02:00:00,2337A,117.0258,25.0661,龙岩市,闽西职业技术学院,颗粒物(PM10),51,52,54,31,26,112,7,16,12,45,35,36,22,0.7,0.7
2022-11-12T02:00:00,2338A,117.0196,25.0306,龙岩市,龙岩学院,,29,29,42,14,23,109,32,38,35,18,21,5,7,0.4,0.4
2022-11-12T02:00:00,2339A,119.5001,26.6946,宁德市,金涵水库(对照点),,,,,,,,,,,,,,,,
2022-11-12T02:00:00,2341A,119.5388,26.6612,宁德市,宁德市监测站,,19,16,25,13,15,55,2,2,2,22,23,5,5,0.7,0.7
2022-11-12T02:00:00,2342A,117.3102,29.3867,景德镇市,王港中学(对照点),,23,17,30,16,14,81,12,16,14,7,8,4,4,0.3,0.4
2022-11-12T02:00:00,2343A,117.2117,29.2933,景德镇市,老干部活动中心,颗粒物(PM10),57,63,48,20,21,106,33,35,34,21,24,7,9,0.6,0.6
2022-11-12T02:00:00,2344A,117.1894,29.2789,景德镇市,兽医站,,29,29,35,19,22,116,46,60,53,20,20,6,7,0.5,0.6
2022-11-12T02:00:00,2345A,117.1547,29.2617,景德镇市,台达陶瓷,,41,41,45,18,21,87,36,36,36,29,28,11,16,0.7,0.8
2022-11-12T02:00:00,2346A,117.2461,29.2956,景德镇市,陶研所,,38,38,39,14,16,112,8,47,28,53,23,4,4,0.8,0.6
2022-11-12T02:00:00,2347A,114.0997,27.5002,萍乡市,武功山(对照点),,16,10,11,11,9,81,46,46,46,9,9,17,16,0.5,0.4
2022-11-12T02:00:00,2348A,113.8385,27.6434,萍乡市,中医院,,45,26,38,31,27,130,25,28,26,35,25,8,24,0.8,0.9
2022-11-12T02:00:00,2349A,113.8493,27.6253,萍乡市,市政府车库,细颗粒物(PM2.5),57,48,51,40,38,136,13,10,10,28,27,12,28,0.5,1
2022-11-12T02:00:00,2350A,113.8676,27.6435,萍乡市,市环保局,细颗粒物(PM2.5),58,50,48,41,32,135,14,19,16,30,18,14,33,0.9,0.9
2022-11-12T02:00:00,2351A,113.866,27.6198,萍乡市,安源区政府,细颗粒物(PM2.5),55,38,46,39,33,125,18,18,18,25,21,17,33,0.6,0.8
2022-11-12T02:00:00,2352A,115.0861,27.9317,新余市,北岗(对照点),颗粒物(PM10),80,109,77,30,33,88,8,7,7,21,17,10,27,0.5,0.6
2022-11-12T02:00:00,2353A,114.9886,27.8431,新余市,飞宇,颗粒物(PM10),57,64,60,30,33,104,5,16,10,51,30,14,30,1.0,0.9
2022-11-12T02:00:00,2354A,114.9231,27.8246,新余市,第二水厂,细颗粒物(PM2.5),70,78,71,51,37,98,0,1,0,57,39,21,28,2.4,1.4
2022-11-12T02:00:00,2355A,114.9308,27.8036,新余市,市气象局,颗粒物(PM10),56,61,57,30,34,106,4,10,7,52,39,14,28,0.9,0.7
2022-11-12T02:00:00,2357A,116.9822,28.1136,鹰潭市,龙虎山(对照点),,19,19,21,11,6,114,42,40,40,10,10,1,2,0.3,0.3
2022-11-12T02:00:00,2358A,117.0564,28.2642,鹰潭市,新监测站,,33,33,35,16,19,117,41,46,44,13,13,5,8,0.5,0.5
2022-11-12T02:00:00,2359A,117.0311,28.2475,鹰潭市,财苑宾馆,,40,40,44,25,20,116,44,38,38,18,22,12,11,0.3,0.3
2022-11-12T02:00:00,2360A,117.0222,28.2264,鹰潭市,体育馆,,43,43,34,20,17,110,54,52,52,11,13,16,9,0.3,0.3
2022-11-12T02:00:00,2361A,117.0017,28.2131,鹰潭市,三川水表,,33,33,34,19,14,108,50,50,50,12,12,26,6,0.5,0.4
2022-11-12T02:00:00,2362A,114.9017,25.9149,赣州市,通天岩(对照点),,46,39,36,32,19,144,20,22,21,32,31,6,8,0.5,0.6
2022-11-12T02:00:00,2363A,114.9367,25.8664,赣州市,地委,颗粒物(PM10),68,86,64,26,26,142,3,3,3,45,36,13,16,0.8,0.8
2022-11-12T02:00:00,2364A,114.9461,25.8481,赣州市,气象台,颗粒物(PM10),60,69,50,32,28,133,1,0,0,53,37,17,18,0.7,0.7
2022-11-12T02:00:00,2365A,114.9322,25.8333,赣州市,市图书馆,颗粒物(PM10),67,84,54,35,28,173,3,3,3,49,39,8,9,1.1,1
2022-11-12T02:00:00,2366A,114.8905,25.8471,赣州市,华坚鞋城,颗粒物(PM10),82,113,72,38,31,139,17,13,13,56,41,58,15,1.0,1
2022-11-12T02:00:00,2367A,114.9754,27.0803,吉安市,红声器材厂,颗粒物(PM10),51,52,48,29,25,106,57,50,50,17,19,16,11,0.4,0.5
2022-11-12T02:00:00,2368A,114.9658,27.0999,吉安市,市森林工业局,,48,44,47,33,29,97,40,38,38,20,21,13,11,0.2,0.4
2022-11-12T02:00:00,2369A,114.99,27.1312,吉安市,市环境监测站,颗粒物(PM10),54,57,48,30,27,109,36,30,30,28,28,7,8,0.4,0.4
2022-11-12T02:00:00,2370A,115.0093,27.0968,吉安市,青原区法院,,43,43,44,25,23,108,42,54,48,19,26,15,13,0.6,0.5
2022-11-12T02:00:00,2371A,114.3408,27.8064,宜春市,槟榔水业(对照点),,,,,,,,,,,,,,,,
2022-11-12T02:00:00,2373A,114.3956,27.7844,宜春市,市石油公司,,45,45,70,28,36,129,18,34,26,39,34,4,17,0.8,1
2022-11-12T02:00:00,2374A,114.3703,27.7914,宜春市,市气象局,,46,46,61,24,34,120,31,32,32,29,31,7,18,0.7,0.9
2022-11-12T02:00:00,2375A,114.4013,27.8074,宜春市,市广电局,颗粒物(PM10),55,60,63,28,35,120,26,26,26,42,35,10,23,0.9,1.1
2022-11-12T02:00:00,2376A,116.2127,28.0814,抚州市,桐源党溪(对照点),颗粒物(PM10),57,63,46,35,22,114,1,2,2,30,26,5,6,0.4,0.4
2022-11-12T02:00:00,2377A,116.3544,27.9831,抚州市,市站,,39,39,41,25,21,112,36,42,39,24,20,7,5,0.5,0.5
2022-11-12T02:00:00,2378A,116.3565,27.963,抚州市,血防站,,33,33,40,19,20,104,33,41,37,27,20,17,7,0.5,0.4
2022-11-12T02:00:00,2379A,116.3564,28.0007,抚州市,采茶剧团,,36,36,44,22,24,112,33,44,38,26,21,5,4,0.6,0.6
2022-11-12T02:00:00,2380A,116.385,27.9647,抚州市,医学分院,,32,32,38,19,19,102,33,43,38,27,21,6,6,0.7,0.6
2022-11-12T02:00:00,2381A,118.005,28.4572,上饶市,百草园(对照点),,45,45,34,21,16,81,41,45,43,23,18,11,11,0.8,0.8
2022-11-12T02:00:00,2382A,117.9756,28.4436,上饶市,市监测站,颗粒物(PM10),52,54,43,25,22,116,48,54,51,26,19,16,16,0.5,0.4
2022-11-12T02:00:00,2383A,117.9519,28.4628,上饶市,凤凰光学,颗粒物(PM10),54,57,48,28,21,114,32,40,36,38,30,63,28,0.5,0.5
2022-11-12T02:00:00,2385A,114.17,35.9019,鹤壁市,市监测站,细颗粒物(PM2.5),229,266,261,179,199,72,3,4,4,51,45,9,13,2.3,2.6
2022-11-12T02:00:00,2386A,114.2956,35.7511,鹤壁市,市交警支队,细颗粒物(PM2.5),112,138,247,84,179,63,10,6,6,45,42,13,18,1.2,2.1
2022-11-12T02:00:00,2387A,114.2878,35.7306,鹤壁市,迎宾馆,细颗粒物(PM2.5),105,115,214,79,171,64,11,8,8,50,48,5,12,1.1,2.2
2022-11-12T02:00:00,2389A,113.836,35.311,新乡市,环保西院,细颗粒物(PM2.5),153,146,212,117,147,68,17,16,16,28,37,5,7,1.4,1.7
2022-11-12T02:00:00,2390A,113.884,35.272,新乡市,开发区,细颗粒物(PM2.5),163,145,231,124,159,66,21,28,24,28,40,9,10,1.3,1.7
2022-11-12T02:00:00,2391A,113.883,35.303,新乡市,环保东院,细颗粒物(PM2.5),133,132,192,101,138,62,21,28,24,29,42,4,6,1.3,1.6
2022-11-12T02:00:00,2392A,115.0312,35.7636,濮阳市,环保局,细颗粒物(PM2.5),249,181,201,199,196,49,16,15,15,32,51,9,11,1.1,1.2
2022-11-12T02:00:00,2394A,115.0574,35.7609,濮阳市,油田运输公司,细颗粒物(PM2.5),276,218,216,226,203,70,19,18,18,31,41,8,9,1.2,1.1
2022-11-12T02:00:00,2395A,115.0866,35.7754,濮阳市,油田物探公司,细颗粒物(PM2.5),271,213,178,221,200,63,16,12,12,30,41,6,8,1.1,1.1
2022-11-12T02:00:00,2396A,113.8276,34.0159,许昌市,监测站,颗粒物(PM10),63,75,246,16,101,19,19,12,12,20,39,34,8,0.9,1.2
2022-11-12T02:00:00,2398A,113.7906,33.9953,许昌市,开发区,颗粒物(PM10),56,62,220,10,92,22,22,12,12,16,36,5,6,0.7,1.1
2022-11-12T02:00:00,2399A,114.051,33.5699,漯河市,三五一五工厂,细颗粒物(PM2.5),79,51,163,58,138,58,4,2,2,33,30,5,6,1.2,1.1
2022-11-12T02:00:00,2400A,114.0055,33.5698,漯河市,漯河大学,细颗粒物(PM2.5),88,59,167,65,131,60,8,6,6,37,38,6,6,1.1,1.1
