timepoint,stationcode,longitude,latitude,area,positionname,primarypollutant,aqi,pm10,pm10_24h,pm2_5,pm2_5_24h,o3,o3_24h,o3_8h,o3_8h_24h,no2,no2_24h,so2,so2_24h,co,co_24h
2025-11-04T0700,2566A,102.1879,31.914,阿坝藏族羌族自治州,州农科所,,,,,,,,,,,,,,,,
2025-11-04T0700,2568A,102.2502,31.8896,阿坝藏族羌族自治州,马师校,,19,,13,13,17,8,,,,4,12,7,8,0.5,0.6
2025-11-04T0700,3994A,102.2165,31.9024,阿坝藏族羌族自治州,马尔康中学西区,,15,12,14,10,14,15,,,,5,10,5,5,0.4,0.5
2025-11-04T0700,2695A,80.292,41.1694,阿克苏地区,电视台,颗粒物(PM10),81,111,145,39,47,52,,,,18,39,6,7,0.4,0.7
2025-11-04T0700,2696A,80.2613,41.1551,阿克苏地区,艺术中心,颗粒物(PM10),75,100,130,43,51,54,,,,13,40,5,5,0.6,0.9
2025-11-04T0700,2204A,105.6467,38.8363,阿拉善盟,西城区西花园,,,,,,,,,,,,,,,,
2025-11-04T0700,2205A,105.6985,38.8411,阿拉善盟,蒙二幼,,26,20,45,13,23,81,,,,9,11,8,10,0.6,0.7
2025-11-04T0700,2206A,105.724,38.8516,阿拉善盟,环保局新楼,,27,18,37,11,21,85,,,,5,8,8,10,0.5,0.5
2025-11-04T0700,2708A,88.1264,47.8517,阿勒泰地区,市站,,20,17,31,8,7,61,,,,6,23,3,4,0.4,0.3
2025-11-04T0700,2630A,80.1161,32.5,阿里地区,阿里监测站,,21,6,3,3,2,66,,,,20,8,3,3,0.3,0.3
2025-11-04T0700,3192A,80.0903,32.5028,阿里地区,阿里藏医院,,30,10,15,3,4,93,,,,2,5,9,8,0.3,0.3
2025-11-04T0700,2642A,109.0318,32.6537,安康市,香溪洞,,,,,,,,,,,,,,,,
2025-11-04T0700,2644A,109.0072,32.6975,安康市,汉滨区检察院,,34,34,47,22,25,4,,,,13,18,2,3,0.5,0.5
2025-11-04T0700,4054A,109.0325,32.6913,安康市,市邮政管理局,颗粒物(PM10),56,61,54,36,26,26,,,,12,20,6,6,0.6,0.7
2025-11-04T0700,2291A,117.0809,30.5177,安庆市,环科院,细颗粒物(PM2.5),59,60,64,42,39,30,,,,26,18,7,7,0.5,0.5
2025-11-04T0700,2292A,117.0331,30.5119,安庆市,马山宾馆,细颗粒物(PM2.5),57,56,63,40,38,40,,,,25,21,7,6,0.4,0.4
2025-11-04T0700,2294A,116.9896,30.6145,安庆市,安庆大学,细颗粒物(PM2.5),67,71,60,48,35,26,,,,25,16,6,6,0.5,0.5
2025-11-04T0700,3173A,117.0598,30.5351,安庆市,市人大,细颗粒物(PM2.5),62,56,62,44,41,37,,,,25,20,7,7,0.6,0.5
2025-11-04T0700,3122A,105.9606,26.2611,安顺市,伍家关,,,,8,6,6,58,,,,3,7,5,9,0.5,0.5
2025-11-04T0700,3123A,105.9408,26.2431,安顺市,凤凰山,,16,8,10,3,7,50,,,,5,10,9,12,0.3,0.3
2025-11-04T0700,3124A,105.9439,26.2564,安顺市,金钟山,,16,7,9,6,8,51,,,,4,8,7,10,0.3,0.4
2025-11-04T0700,3125A,105.8983,26.2481,安顺市,娄家坡,,14,9,10,6,7,44,,,,7,10,11,12,0.5,0.5
2025-11-04T0700,1818A,114.4839,36.0621,安阳市,棉研所,,,,,,,,,,,,,,,,
2025-11-04T0700,1819A,114.3551,36.1017,安阳市,红庙街,细颗粒物(PM2.5),87,104,109,64,67,4,,,,46,36,1,4,0.6,0.7
2025-11-04T0700,1820A,114.361,36.0681,安阳市,银杏小区,细颗粒物(PM2.5),84,94,105,62,70,2,,,,47,37,2,5,0.5,0.5
2025-11-04T0700,3141A,114.3922,36.0878,安阳市,信访局,细颗粒物(PM2.5),82,109,109,60,68,5,,,,44,34,2,5,0.3,0.3
2025-11-04T0700,3669A,114.4705,36.0637,安阳市,左辅环卫站,颗粒物(PM10),84,118,169,54,70,8,,,,44,46,2,4,0.7,0.7
2025-11-04T0700,3703A,114.2917,36.0949,安阳市,安钢职工学校,细颗粒物(PM2.5),94,104,110,70,83,2,,,,43,29,2,4,0.6,0.6
2025-11-04T0700,1748A,123.044,41.1196,鞍山市,深沟寺,,50,50,34,35,15,60,,,,18,16,8,9,0.6,0.6
2025-11-04T0700,1749A,123.011,41.0931,鞍山市,太阳城,,43,37,30,30,14,60,,,,18,16,10,12,0.4,0.5
2025-11-04T0700,1750A,123.0485,41.1442,鞍山市,太平,颗粒物(PM10),57,63,38,31,16,57,,,,18,15,8,10,0.6,0.7
2025-11-04T0700,1751A,122.9642,41.0971,鞍山市,铁西三道街,颗粒物(PM10),66,82,51,34,20,46,,,,28,22,13,12,0.8,0.6
2025-11-04T0700,1753A,123.022,41.0821,鞍山市,明达新区,,50,50,32,35,17,60,,,,12,11,9,11,0.5,0.6
2025-11-04T0700,1754A,123.1289,41.0228,鞍山市,千山,,,,76,,15,,,47,,,8,,4,,0.1
2025-11-04T0700,4201A,122.9446,41.0826,鞍山市,兴盛南路290号,颗粒物(PM10),57,64,54,30,20,48,,,,32,29,16,17,0.6,0.8
2025-11-04T0700,2195A,107.4212,40.761,巴彦淖尔市,附二中,颗粒物(PM10),73,96,84,46,38,18,,,,31,32,12,10,0.8,0.7
2025-11-04T0700,2196A,107.37,40.7372,巴彦淖尔市,市环保大楼,颗粒物(PM10),67,84,79,30,35,21,,,,40,27,10,9,0.7,0.6
2025-11-04T0700,1956A,86.1472,41.7538,巴音郭楞蒙古自治州,孔雀公园,颗粒物(PM10),102,153,158,50,45,72,,,,20,49,19,11,0.5,0.7
2025-11-04T0700,1957A,86.1972,41.7166,巴音郭楞蒙古自治州,棉纺厂,颗粒物(PM10),107,164,192,36,41,75,,,,16,30,6,6,0.6,0.5
2025-11-04T0700,1958A,86.2357,41.7173,巴音郭楞蒙古自治州,经济开发区,颗粒物(PM10),87,123,171,38,40,81,,,,8,25,8,7,0.6,0.6
2025-11-04T0700,2914A,106.7677,31.8794,巴中市,苏山坪,,,,,,,,,,,,,,,,
2025-11-04T0700,3181A,106.7768,31.8526,巴中市,市五中,细颗粒物(PM2.5),55,50,40,39,31,14,,,,12,12,7,8,0.8,0.7
2025-11-04T0700,3183A,106.7418,31.8654,巴中市,圣泉水务公司,,48,36,33,33,27,7,,,,15,12,8,8,0.7,0.7
2025-11-04T0700,3616A,106.7616,31.8344,巴中市,市中心医院,,41,41,38,28,27,9,,,,16,12,10,10,0.8,0.7
2025-11-04T0700,2235A,122.7911,45.6077,白城市,洮北区环保局,,28,28,55,16,24,35,,,,19,12,8,8,0.4,0.5
2025-11-04T0700,2236A,122.8738,45.5725,白城市,市环保局,,27,27,72,18,27,33,,,,20,13,5,5,0.3,0.4
2025-11-04T0700,2231A,126.4219,41.9171,白山市,喜丰,颗粒物(PM10),56,62,66,21,18,4,,,,29,27,12,11,0.9,0.8
2025-11-04T0700,2232A,126.4077,41.9419,白山市,环保局,,27,27,34,12,21,4,,,,24,22,7,9,0.9,0.7
2025-11-04T0700,2647A,104.1724,36.5446,白银市,第三小学,,47,47,61,32,37,4,,,,34,36,38,29,0.9,0.7
2025-11-04T0700,2648A,104.1465,36.5482,白银市,动力公司,,43,35,55,30,36,17,,,,25,32,12,14,0.6,0.6
2025-11-04T0700,2512A,106.6103,23.9011,百色市,市监测站,,10,8,13,3,3,29,,,,9,8,8,7,0.3,0.4
2025-11-04T0700,2513A,106.6538,23.8859,百色市,市中心血站,,12,12,17,7,9,30,,,,12,18,5,5,0.5,0.5
2025-11-04T0700,3406A,106.6085,23.8798,百色市,祈福高中,,10,6,18,3,7,31,,,,9,16,4,4,0.5,0.5
2025-11-04T0700,2270A,117.396,32.939,蚌埠市,工人疗养院,颗粒物(PM10),61,71,58,38,21,22,,,,40,38,7,6,0.3,0.2
2025-11-04T0700,2271A,117.3605,32.9427,蚌埠市,百货大楼,颗粒物(PM10),56,61,50,29,21,21,,,,45,36,9,8,0.5,0.3
2025-11-04T0700,2273A,117.4185,32.8911,蚌埠市,蚌埠学院,细颗粒物(PM2.5),63,61,51,45,24,24,,,,31,30,5,5,0.4,0.3
2025-11-04T0700,2274A,117.3533,32.9673,蚌埠市,淮上区政府,细颗粒物(PM2.5),62,66,55,44,27,15,,,,57,38,10,8,0.4,0.3
2025-11-04T0700,2275A,117.3145,32.8977,蚌埠市,高新区,颗粒物(PM10),62,73,51,43,25,27,,,,34,26,6,6,0.4,0.3
2025-11-04T0700,3715A,117.3092,32.9314,蚌埠市,蚌埠田家炳中学,,,58,49,,22,32,,,,30,23,,4,0.5,0.3
2025-11-04T0700,1585A,109.8756,40.6532,包头市,市环境监测站,颗粒物(PM10),57,63,75,22,33,1,,,,64,66,12,23,0.9,1.3
2025-11-04T0700,1587A,109.9991,40.5842,包头市,包头八中,细颗粒物(PM2.5),98,107,82,73,46,2,,,,68,64,27,23,1.4,1.2
2025-11-04T0700,1588A,109.8538,40.6821,包头市,青山宾馆,细颗粒物(PM2.5),53,48,78,37,46,2,,,,56,65,11,25,0.9,1.6
2025-11-04T0700,1589A,109.8642,40.6288,包头市,惠龙物流,细颗粒物(PM2.5),58,51,65,41,35,2,,,,68,66,14,24,1.1,1.4
2025-11-04T0700,1590A,110.0377,40.5546,包头市,东河鸿龙湾,细颗粒物(PM2.5),69,86,84,50,40,3,,,,71,66,39,18,1.1,1.2
2025-11-04T0700,3283A,109.9154,40.5685,包头市,滨河大厦,细颗粒物(PM2.5),65,71,57,47,31,3,,,,65,60,29,17,1.0,0.8
2025-11-04T0700,3419A,109.9447,40.6261,包头市,包头市委党校,细颗粒物(PM2.5),55,55,57,39,28,2,,,,71,61,25,21,1.3,1.1
2025-11-04T0700,3683A,109.8331,40.6576,包头市,昆区政府,颗粒物(PM10),56,61,72,35,41,8,,,,53,60,15,28,1.1,1.7
2025-11-04T0700,1930A,107.185,34.3063,宝鸡市,庙沟村,,,,,,,,,,,,,,,,
2025-11-04T0700,1931A,107.0708,34.3017,宝鸡市,竹园沟,细颗粒物(PM2.5),89,75,84,66,71,12,,,,15,27,7,9,0.5,0.6
2025-11-04T0700,1932A,107.1906,34.3672,宝鸡市,三陆医院,细颗粒物(PM2.5),158,125,121,120,104,2,,,,44,50,6,8,1.0,0.9
2025-11-04T0700,1933A,107.1431,34.3547,宝鸡市,监测站,细颗粒物(PM2.5),88,77,106,65,75,4,,,,21,31,5,7,0.5,0.6
2025-11-04T0700,1934A,107.1186,34.3739,宝鸡市,技工学校,细颗粒物(PM2.5),145,,110,111,103,10,,,,27,31,12,8,1.6,1.3
2025-11-04T0700,1936A,107.2058,34.3497,宝鸡市,文理学院,细颗粒物(PM2.5),94,97,97,70,74,6,,,,28,37,5,7,0.8,0.8
2025-11-04T0700,1937A,107.2386,34.3622,宝鸡市,三迪小学,细颗粒物(PM2.5),137,,115,104,97,0,,,,46,53,6,7,0.9,0.9
2025-11-04T0700,4308A,107.3898,34.3601,宝鸡市,陈仓区北开路21号,细颗粒物(PM2.5),152,166,143,116,101,0,,,,50,47,6,8,0.8,0.8
2025-11-04T0700,1051A,115.493,38.8632,保定市,游泳馆,细颗粒物(PM2.5),87,97,86,64,58,2,,,,70,56,6,8,0.3,0.4
2025-11-04T0700,1052A,115.5213,38.8959,保定市,华电二区,细颗粒物(PM2.5),94,88,74,70,56,0,,,,61,49,1,6,0.6,0.6
2025-11-04T0700,1053A,115.4713,38.9108,保定市,接待中心,细颗粒物(PM2.5),85,84,80,63,59,0,,,,62,51,5,9,0.3,0.4
2025-11-04T0700,1054A,115.4612,38.8416,保定市,地表水厂,细颗粒物(PM2.5),84,90,97,62,60,1,,,,70,60,10,15,0.5,0.5
2025-11-04T0700,3581A,115.31981,38.95208,保定市,满城区生态环境分局,细颗粒物(PM2.5),77,97,90,56,49,3,,,,60,47,3,4,0.5,0.4
2025-11-04T0700,3582A,115.47694,38.76408,保定市,清苑区第二中学,颗粒物(PM10),86,121,100,62,51,5,,,,66,46,5,9,0.6,0.6
2025-11-04T0700,3583A,115.62909,39.02311,保定市,徐水物探局,细颗粒物(PM2.5),94,118,106,70,60,2,,,,54,50,6,10,0.7,0.7
2025-11-04T0700,4004A,115.4202,38.8656,保定市,双鹰农机,细颗粒物(PM2.5),78,104,103,57,55,6,,,,66,49,3,7,0.7,0.8
2025-11-04T0700,4034A,115.5150,38.8590,保定市,植保所站,细颗粒物(PM2.5),108,106,98,81,58,1,,,,65,52,1,8,0.8,0.9
2025-11-04T0700,2594A,99.1678,25.1081,保山市,市环境监测站,,19,,8,13,9,16,,,,8,7,9,9,0.5,0.5
2025-11-04T0700,2595A,99.1711,25.1328,保山市,市环保局,,12,,11,8,9,20,,,,5,5,6,6,0.7,0.6
2025-11-04T0700,1866A,109.2262,21.588,北海市,牛尾岭水库,,12,6,18,3,11,36,,,,6,13,2,29,0,0.6
2025-11-04T0700,1867A,109.1436,21.4086,北海市,海滩公园,,15,6,19,3,11,47,,,,7,9,6,6,0.5,0.5
2025-11-04T0700,1868A,109.0981,21.4661,北海市,新市环保局,,16,,16,7,13,51,,,,6,8,4,5,0.6,0.5
2025-11-04T0700,1869A,109.1778,21.5233,北海市,北海工业园,,,,21,2,13,46,,,,8,11,5,5,0.4,0.4
2025-11-04T0700,3400A,109.1911,21.4415,北海市,龙潭自来水厂,,15,,19,7,14,45,,,,6,8,1,2,0.4,0.5
2025-11-04T0700,1001A,116.3621,39.8784,北京市,万寿西宫,颗粒物(PM10),63,75,74,43,39,0,,,,65,53,3,4,0.8,0.7
2025-11-04T0700,1002A,116.2202,40.2915,北京市,定陵,,,,,,,,,,,,,,,,
2025-11-04T0700,1003A,116.4174,39.9289,北京市,东四,颗粒物(PM10),66,81,78,43,40,3,,,,59,49,4,5,0.7,0.7
2025-11-04T0700,1004A,116.4072,39.8863,北京市,天坛,细颗粒物(PM2.5),55,54,59,39,37,0,,,,34,39,3,3,0.6,0.6
2025-11-04T0700,1005A,116.462,39.9365,北京市,农展馆,细颗粒物(PM2.5),60,67,70,43,41,2,,,,54,48,4,5,0.7,0.7
2025-11-04T0700,1006A,116.3392,39.9295,北京市,官园,颗粒物(PM10),64,78,74,40,36,1,,,,61,49,2,4,0.6,0.5
2025-11-04T0700,1007A,116.2878,39.9611,北京市,海淀万柳,颗粒物(PM10),64,77,74,43,37,1,,,,53,52,4,5,0.6,0.5
2025-11-04T0700,1008A,116.6636,40.135,北京市,顺义新城,颗粒物(PM10),59,68,76,39,39,24,,,,29,44,4,6,0.5,0.6
2025-11-04T0700,1009A,116.6275,40.3275,北京市,怀柔镇,细颗粒物(PM2.5),60,60,61,43,39,19,,,,26,36,4,6,0.5,0.6
2025-11-04T0700,1010A,116.2296,40.217,北京市,昌平镇,细颗粒物(PM2.5),62,66,65,44,37,2,,,,48,42,5,6,0.5,0.5
2025-11-04T0700,1011A,116.3966,39.9821,北京市,奥体中心,"颗粒物(PM10),细颗粒物(PM2.5)",60,70,64,43,35,0,,,,61,56,5,5,0.5,0.5
2025-11-04T0700,3281A,115.9718,40.4529,北京市,延庆夏都,颗粒物(PM10),58,65,66,38,36,4,,,,27,37,2,3,0.6,0.5
2025-11-04T0700,3418A,116.8336,40.4095,北京市,密云新城,细颗粒物(PM2.5),54,55,45,38,37,10,,,,46,29,2,3,0.5,0.5
2025-11-04T0700,3671A,116.088,39.9726,北京市,门头沟三家店,颗粒物(PM10),60,69,72,42,37,11,,,,29,39,3,2,0.6,0.6
2025-11-04T0700,3672A,116.1541,39.8204,北京市,丰台云岗,颗粒物(PM10),66,82,82,43,38,1,,,,45,46,3,4,0.6,0.6
2025-11-04T0700,3673A,116.6804,39.9081,北京市,通州东关,"颗粒物(PM10),细颗粒物(PM2.5)",64,78,78,46,41,1,,,,55,54,4,6,0.6,0.6
2025-11-04T0700,3674A,115.9577,39.7603,北京市,房山燕山,细颗粒物(PM2.5),69,72,70,50,38,7,,,,32,30,3,4,0.5,0.4
2025-11-04T0700,3675A,116.4672,39.7733,北京市,大兴旧宫,颗粒物(PM10),63,76,70,41,37,1,,,,53,38,3,4,0.8,0.7
2025-11-04T0700,3694A,115.986,40.4563,北京市,延庆石河营,颗粒物(PM10),55,60,67,36,35,2,,,,21,34,2,3,0.6,0.5
2025-11-04T0700,3695A,116.6151,40.3053,北京市,怀柔新城,细颗粒物(PM2.5),58,59,61,41,39,26,,,,19,33,3,5,0.3,0.4
2025-11-04T0700,3696A,116.2545,39.8768,北京市,丰台小屯,颗粒物(PM10),64,77,76,44,38,1,,,,47,46,3,4,0.6,0.6
2025-11-04T0700,3697A,116.84,40.3844,北京市,密云镇,颗粒物(PM10),58,66,68,39,36,2,,,,41,39,5,7,0.5,0.5
2025-11-04T0700,4182A,116.1942,39.9158,北京市,八角北路9号,颗粒物(PM10),69,88,86,46,38,2,,,,59,55,1,2,0.6,0.4
2025-11-04T0700,4194A,117.0790,40.1518,北京市,洳河巡河路,颗粒物(PM10),51,51,64,30,33,4,,,,20,31,3,5,0.4,0.5
2025-11-04T0700,1761A,123.8275,41.3064,本溪市,大峪,,42,42,34,26,15,62,,,,14,12,8,8,0.2,0.2
2025-11-04T0700,1762A,123.7567,41.3325,本溪市,溪湖,,32,32,40,21,19,53,,,,24,22,17,18,1.1,1.1
2025-11-04T0700,1763A,123.7169,41.3094,本溪市,彩屯,,39,39,46,24,27,30,,,,38,36,18,22,2.9,2.6
2025-11-04T0700,1764A,123.7669,41.2864,本溪市,东明,,28,28,48,18,18,64,,,,14,16,7,7,0.7,0.8
2025-11-04T0700,1765A,123.7992,41.2664,本溪市,新立屯,,28,26,30,19,15,62,,,,16,15,6,6,0.2,0.3
2025-11-04T0700,1766A,123.8142,41.3472,本溪市,威宁,,33,31,38,23,17,52,,,,18,17,6,6,0.5,0.5
2025-11-04T0700,2587A,105.2864,27.3125,毕节市,八中,,19,,10,13,8,30,,,,4,7,6,7,0.5,0.5
2025-11-04T0700,2588A,105.31,27.2944,毕节市,师专,,26,,9,18,8,33,,,,6,8,8,9,0.5,0.5
2025-11-04T0700,4263A,105.3688,27.3598,毕节市,工业大道,,12,8,7,7,7,36,,,,5,7,9,10,0.5,0.5
2025-11-04T0700,1629A,118.0018,37.3617,滨州市,第二水厂,细颗粒物(PM2.5),84,100,93,62,58,7,,,,68,54,15,14,0.7,0.4
2025-11-04T0700,1630A,117.9776,37.393,滨州市,北中新校,细颗粒物(PM2.5),77,88,84,56,55,13,,,,62,53,14,12,0.8,0.7
2025-11-04T0700,3514A,117.9378,37.3956,滨州市,中海酒店,细颗粒物(PM2.5),70,80,82,51,56,35,,,,37,43,12,11,0.9,0.8
2025-11-04T0700,3515A,117.9378,37.3553,滨州市,开发区一中,颗粒物(PM10),78,105,100,56,60,9,,,,67,55,16,14,0.9,0.8
2025-11-04T0700,3516A,118.0917,37.694,滨州市,金海六路,颗粒物(PM10),74,98,82,48,41,6,,,,65,49,9,10,0.6,0.3
2025-11-04T0700,4028A,117.9956,37.3753,滨州市,滨州市西街道办事处,细颗粒物(PM2.5),104,117,99,78,67,4,,,,65,50,12,12,1.0,0.7
2025-11-04T0700,2311A,115.8072,33.8399,亳州市,污水处理厂,细颗粒物(PM2.5),92,93,71,68,41,5,,,,55,41,6,9,0.6,0.4
2025-11-04T0700,2312A,115.7789,33.8518,亳州市,三国揽胜宫,细颗粒物(PM2.5),74,90,65,54,33,23,,,,47,32,4,5,0.5,0.3
2025-11-04T0700,3332A,115.7633,33.8034,亳州市,亳州学院,颗粒物(PM10),69,88,67,49,31,25,,,,42,27,8,7,0.5,0.4
2025-11-04T0700,2693A,82.0485,44.8556,博尔塔拉蒙古自治州,市党校,细颗粒物(PM2.5),59,44,44,42,28,14,,,,15,15,4,3,0.5,0.5
2025-11-04T0700,2694A,82.0806,44.8969,博尔塔拉蒙古自治州,市环保局,,48,48,82,24,22,12,,,,24,36,2,4,0.4,0.5
2025-11-04T0700,1071A,116.8842,38.2991,沧州市,沧县城建局,细颗粒物(PM2.5),67,72,69,48,37,24,,,,33,35,6,7,0.8,0.6
2025-11-04T0700,1072A,116.8584,38.3254,沧州市,电视转播站,细颗粒物(PM2.5),89,81,69,66,45,29,,,,30,36,4,8,0.7,0.6
2025-11-04T0700,1073A,116.8709,38.3228,沧州市,市环保局,细颗粒物(PM2.5),98,88,73,73,51,22,,,,33,39,7,10,0.5,0.4
2025-11-04T0700,3324A,116.8136,38.3004,沧州市,河北水利电力学院,细颗粒物(PM2.5),75,88,80,55,33,25,,,,32,36,8,10,0.5,0.4
2025-11-04T0700,2622A,97.1806,31.1273,昌都市,昌都监测站,,11,11,18,7,11,34,,,,8,13,3,3,0.2,0.3
2025-11-04T0700,3719A,97.1714,31.1406,昌都市,昌都会议中心,,12,9,11,6,7,37,,,,2,4,4,4,0.2,0.1
2025-11-04T0700,2690A,88.1236,43.8886,昌吉回族自治州,天山天池,,,,,,,,,,,,,,,,
2025-11-04T0700,2692A,87.2717,44.0297,昌吉回族自治州,新区政务中心,颗粒物(PM10),55,59,71,24,30,2,,,,53,46,4,8,0.8,0.8
2025-11-04T0700,3613A,87.3095,44.0142,昌吉回族自治州,亚心广场,颗粒物(PM10),82,114,92,39,33,2,,,,58,45,8,11,0.8,0.7
2025-11-04T0700,1120A,125.2863,43.9027,长春市,客车厂,,28,28,35,19,28,46,,,,22,15,8,8,0.5,0.4
2025-11-04T0700,1121A,125.2841,43.8463,长春市,邮电学院,,29,29,37,20,24,48,,,,23,20,9,18,0.5,0.5
2025-11-04T0700,1122A,125.3716,43.8772,长春市,劳动公园,,29,29,34,16,21,48,,,,24,16,12,10,0.4,0.3
2025-11-04T0700,1123A,125.3297,43.8805,长春市,园林处,,29,29,35,20,25,45,,,,26,18,9,6,0.4,0.4
2025-11-04T0700,1124A,125.4605,43.79,长春市,净月潭,,29,29,28,13,14,48,,,,12,9,7,6,0.4,0.4
2025-11-04T0700,1125A,125.7194,43.515,长春市,甩湾子,,,,25,,18,,,52,,,12,,5,,0.3
2025-11-04T0700,1126A,125.3863,43.8447,长春市,经开区环卫处,,25,25,31,13,16,44,,,,23,16,9,7,0.5,0.5
2025-11-04T0700,1127A,125.245,43.7783,长春市,高新区管委会,,27,27,32,18,24,51,,,,18,14,8,6,0.4,0.4
2025-11-04T0700,1128A,125.1761,43.8325,长春市,岱山公园,,26,23,41,18,25,47,,,,15,22,7,7,0.4,0.4
2025-11-04T0700,4281A,125.3346,43.9164,长春市,北亚泰大街1068号,,34,34,39,21,24,38,,,,32,21,9,8,0.5,0.4
2025-11-04T0700,1335A,113.0833,28.2325,长沙市,经开区环保局,细颗粒物(PM2.5),59,,38,42,36,74,,,,10,22,5,4,0.4,0.5
2025-11-04T0700,1336A,112.8872,28.2189,长沙市,高开区环保局,,33,29,39,23,31,70,,,,15,23,5,5,0.4,0.4
2025-11-04T0700,1337A,113.0792,28.2053,长沙市,马坡岭,,43,,37,30,31,65,,,,15,19,4,4,0.5,0.5
2025-11-04T0700,1338A,112.9394,28.19,长沙市,湖南师范大学,,28,24,37,19,28,77,,,,10,18,4,4,0.4,0.4
2025-11-04T0700,1339A,113.0178,28.1322,长沙市,雨花区环保局,细颗粒物(PM2.5),53,,36,37,37,66,,,,12,18,6,6,0.6,0.6
2025-11-04T0700,1340A,112.9792,28.2597,长沙市,伍家岭,,42,29,40,29,34,77,,,,14,22,4,4,0.3,0.3
2025-11-04T0700,1341A,113.0014,28.1944,长沙市,火车新站,,49,,38,34,31,85,,,,14,24,8,9,0.5,0.5
2025-11-04T0700,1342A,112.9844,28.1178,长沙市,天心区环保局,,45,38,39,31,31,83,,,,14,23,5,5,0.5,0.5
2025-11-04T0700,1343A,112.8908,28.1308,长沙市,湖南中医药大学,,35,28,36,24,25,68,,,,12,21,4,4,0.7,0.7
2025-11-04T0700,1344A,112.9581,28.3611,长沙市,沙坪,,,,,,,,,,,,,,,,
2025-11-04T0700,1727A,113.1147,36.1547,长治市,清华站,细颗粒物(PM2.5),98,76,60,73,58,10,,,,57,26,10,13,0.8,0.7
2025-11-04T0700,1730A,113.0886,36.2125,长治市,审计局,细颗粒物(PM2.5),113,,53,85,61,2,,,,49,25,7,10,0.9,0.6
2025-11-04T0700,1731A,113.0844,36.1856,长治市,长治八中,细颗粒物(PM2.5),117,116,83,88,64,4,,,,42,20,7,11,0.8,0.6
2025-11-04T0700,2845A,113.1569,36.1911,长治市,德盛苑,细颗粒物(PM2.5),110,,61,83,60,47,,,,22,16,4,7,1.1,0.7
2025-11-04T0700,3568A,113.06,36.0464,长治市,向阳小学,细颗粒物(PM2.5),87,110,96,64,62,22,,,,36,29,6,15,0.8,0.7
2025-11-04T0700,3569A,112.8792,36.3144,长治市,屯留一中,细颗粒物(PM2.5),87,81,75,64,57,28,,,,30,26,8,10,0.6,0.8
2025-11-04T0700,4189A,113.1131,36.19948,长治市,英华南巷50号,细颗粒物(PM2.5),125,,70,95,61,7,,,,44,21,5,9,1.0,0.7
2025-11-04T0700,4190A,113.2367,36.3344,长治市,学府街1号,细颗粒物(PM2.5),107,92,75,80,58,12,,,,60,32,6,8,2.1,0.9
2025-11-04T0700,1854A,111.6975,28.9703,常德市,市二中,,18,18,39,8,21,11,,,,11,12,4,5,0.4,0.6
2025-11-04T0700,1857A,111.7158,29.1456,常德市,白鹤山,,,,,,,,,,,,,,,,
2025-11-04T0700,3138A,111.7153,29.0289,常德市,武陵区永安,,16,16,36,9,19,15,,,,16,12,4,5,0.4,0.5
2025-11-04T0700,3139A,111.6892,28.9881,常德市,鼎城区玉霞,,22,22,53,11,23,6,,,,14,16,5,6,0.3,0.4
2025-11-04T0700,3140A,111.6625,29.0531,常德市,武陵区长庚,,10,9,37,7,20,12,,,,17,14,2,2,0.2,0.3
2025-11-04T0700,1196A,119.9633,31.762,常州市,市监测站,,42,42,38,21,21,27,,,,39,34,9,10,0.5,0.6
2025-11-04T0700,1200A,119.9468,31.7069,常州市,武进监测站,颗粒物(PM10),54,57,37,24,16,12,,,,61,33,10,10,0.8,0.6
2025-11-04T0700,1201A,119.9255,31.9087,常州市,安家,颗粒物(PM10),57,64,45,30,19,8,,,,47,36,12,12,1.0,0.8
2025-11-04T0700,3002A,119.9805,31.8174,常州市,行政中心,,44,44,48,21,21,35,,,,38,36,6,7,0.5,0.5
2025-11-04T0700,3003A,120.0522,31.7748,常州市,经开区,颗粒物(PM10),67,83,47,33,18,11,,,,56,38,10,10,0.6,0.6
2025-11-04T0700,3010A,119.9025,31.7964,常州市,钟楼,,37,37,37,20,20,35,,,,42,34,9,9,0.7,0.7
2025-11-04T0700,3429A,119.8598,31.7066,常州市,武进经发区,颗粒物(PM10),51,51,41,30,18,4,,,,68,42,10,10,1.1,0.8
2025-11-04T0700,3430A,119.5826,31.7245,常州市,金坛城区,,48,48,42,28,21,20,,,,43,30,7,7,0.8,0.5
2025-11-04T0700,2220A,120.4318,41.5881,朝阳市,西梁,细颗粒物(PM2.5),70,58,59,51,30,33,,,,39,29,11,10,0.9,0.9
2025-11-04T0700,2221A,120.4521,41.5646,朝阳市,河畔小区,细颗粒物(PM2.5),64,,45,46,27,41,,,,33,26,11,8,0.9,0.7
2025-11-04T0700,2222A,120.4176,41.5648,朝阳市,八里堡,细颗粒物(PM2.5),60,45,51,43,27,26,,,,47,31,12,12,1.0,1.1
2025-11-04T0700,2223A,120.3806,41.5969,朝阳市,农业园区,细颗粒物(PM2.5),63,,45,45,32,39,,,,33,25,10,12,0.9,0.9
2025-11-04T0700,1705A,116.6367,23.6719,潮州市,西园路,,,,,,,,,,,,,,,,
2025-11-04T0700,3026A,116.6183,23.6608,潮州市,市政府,,22,21,36,15,21,54,,,,5,5,3,4,0.3,0.4
2025-11-04T0700,4036A,116.6461,23.6761,潮州市,金山,,26,18,33,18,25,48,,,,8,7,3,3,0.5,0.5
2025-11-04T0700,2472A,113.0073,25.9061,郴州市,马头岭,,,,,,,,,,,,,,,,
2025-11-04T0700,2473A,113.0116,25.8226,郴州市,市职中,,16,6,13,3,12,49,,,,9,10,2,3,0.5,0.5
2025-11-04T0700,2475A,113.0383,25.8071,郴州市,市审计局,,17,9,15,3,13,54,,,,7,9,1,2,0.2,0.2
2025-11-04T0700,2476A,113.0348,25.7759,郴州市,市环保局,,16,6,18,3,12,50,,,,9,12,3,3,0.4,0.3
2025-11-04T0700,4252A,113.0138,25.8011,郴州市,好美居路49号,,19,11,14,6,12,59,,,,11,12,3,4,0.5,0.5
2025-11-04T0700,1431A,103.9728,30.7236,成都市,金泉两河,,26,25,26,18,15,7,,,,23,25,2,2,0.6,0.6
2025-11-04T0700,1432A,104.176,30.6872,成都市,十里店,细颗粒物(PM2.5),59,46,44,42,34,4,,,,38,33,3,3,0.6,0.5
2025-11-04T0700,1433A,104.079,30.5706,成都市,三瓦窑,,38,38,44,21,24,2,,,,36,27,4,4,0.7,0.7
2025-11-04T0700,1434A,104.1114,30.63,成都市,沙河铺,细颗粒物(PM2.5),53,54,47,37,43,2,,,,36,36,4,4,0.5,0.6
2025-11-04T0700,1437A,104.0786,30.6531,成都市,君平街,,38,27,41,26,33,15,,,,24,24,4,4,0.7,0.6
2025-11-04T0700,1438A,103.613,31.0283,成都市,灵岩寺,,,,,,,,,,,,,,,,
2025-11-04T0700,2880A,104.0239,30.65639,成都市,大石西路,,35,35,33,3,36,2,,,,37,28,4,3,0.8,0.7
2025-11-04T0700,3136A,104.2725,30.5589,成都市,龙泉驿区区政府,,10,7,15,7,14,18,,,,16,17,5,5,0.4,0.5
2025-11-04T0700,3357A,104.0106,30.6931,成都市,金博路,,,,35,,22,1,,,,30,27,,6,0.7,0.7
2025-11-04T0700,3359A,104.0578,30.5225,成都市,华阳,,35,27,28,24,29,28,,,,19,23,5,4,0.4,0.5
2025-11-04T0700,3488A,104.3880,30.7467,成都市,青石路225号,,20,16,27,14,19,20,,,,18,23,5,5,0.6,0.6
2025-11-04T0700,3489A,104.0789,30.4072,成都市,科学城,,30,24,24,21,19,16,,,,21,16,5,5,0.6,0.6
2025-11-04T0700,4011A,103.8506,30.6947,成都市,光华大道三段,细颗粒物(PM2.5),55,39,38,39,26,19,,,,20,21,1,1,0.7,0.7
2025-11-04T0700,4224A,104.2433,30.5353,成都市,鲸龙路1057号,,29,23,27,20,23,11,,,,29,25,5,5,0.5,0.6
2025-11-04T0700,1062A,117.9531,40.9081,承德市,铁路,颗粒物(PM10),53,56,45,35,21,5,,,,33,33,1,3,0.6,0.4
2025-11-04T0700,1063A,117.9392,40.9763,承德市,中国银行,颗粒物(PM10),54,57,49,33,24,2,,,,27,30,2,3,0.5,0.5
2025-11-04T0700,1064A,117.9503,40.928,承德市,开发区,颗粒物(PM10),65,79,54,34,26,3,,,,39,32,4,5,0.4,0.3
2025-11-04T0700,1066A,117.9268,41.0026,承德市,离宫,,,,,,,,,,,,,,,,
2025-11-04T0700,4274A,117.7994,40.9605,承德市,滨河大街98号,颗粒物(PM10),55,59,41,33,26,4,,,,26,24,1,7,0.6,0.5
2025-11-04T0700,2314A,117.47,30.6618,池州市,池州学院,细颗粒物(PM2.5),74,72,59,54,38,26,,,,30,28,7,8,1.0,0.7
2025-11-04T0700,3237A,117.4918,30.6617,池州市,展览馆,细颗粒物(PM2.5),75,80,56,55,34,17,,,,30,25,6,7,1.3,0.9
2025-11-04T0700,3333A,117.5627,30.695,池州市,第八中学,细颗粒物(PM2.5),73,80,54,53,30,7,,,,32,21,7,8,1.3,0.8
2025-11-04T0700,3334A,117.5038,30.6243,池州市,第十二中学,细颗粒物(PM2.5),63,65,52,45,30,7,,,,43,28,7,7,1.0,0.8
2025-11-04T0700,1744A,118.9233,42.2816,赤峰市,松山一中,颗粒物(PM10),52,54,49,31,26,12,,,,52,28,7,9,0.6,0.6
2025-11-04T0700,1745A,118.9576,42.2728,赤峰市,哈达街,颗粒物(PM10),51,52,54,31,26,30,,,,32,26,10,11,0.6,0.7
2025-11-04T0700,1746A,118.8788,42.2554,赤峰市,天义路,细颗粒物(PM2.5),59,,33,42,27,24,,,,42,24,6,8,0.6,0.6
2025-11-04T0700,3058A,119.2658,42.0353,赤峰市,银河街,细颗粒物(PM2.5),60,56,69,43,31,14,,,,38,26,14,20,0.8,0.6
2025-11-04T0700,3286A,118.9359,42.3147,赤峰市,桥北物流园区,细颗粒物(PM2.5),63,62,48,45,34,12,,,,39,26,10,12,0.7,0.6
2025-11-04T0700,2521A,107.3476,22.4136,崇左市,市环保局江州分局,,17,10,9,3,4,53,,,,2,5,1,2,0.6,0.6
2025-11-04T0700,4256A,107.3750,22.3736,崇左市,石景林东路7号,,17,6,6,3,4,53,,,,5,6,6,6,0.5,0.5
2025-11-04T0700,2298A,118.3093,32.3153,滁州市,老年大学,细颗粒物(PM2.5),54,52,50,38,28,1,,,,45,33,11,11,0.3,0.2
2025-11-04T0700,2299A,118.3244,32.2786,滁州市,人大宾馆,颗粒物(PM10),52,53,49,30,21,1,,,,51,35,7,7,0.3,0.3
2025-11-04T0700,3207A,118.3118,32.3038,滁州市,市政府原办公楼,颗粒物(PM10),54,57,54,32,24,5,,,,54,39,8,8,0.5,0.5
2025-11-04T0700,3331A,118.3267,32.2634,滁州市,图书馆,颗粒物(PM10),52,53,49,29,22,1,,,,56,43,10,9,0.4,0.4
2025-11-04T0700,2605A,101.5482,25.0441,楚雄彝族自治州,州环境监测站,,8,7,5,3,5,23,,,,8,9,9,8,0.6,0.6
2025-11-04T0700,2606A,101.538,25.0492,楚雄彝族自治州,市经济开发区,,8,,7,3,5,21,,,,11,11,8,7,0.8,0.9
2025-11-04T0700,2548A,107.5277,31.2827,达州市,达州职业技术学院,,,,,,,,,,,,,,,,
2025-11-04T0700,2549A,107.5086,31.2186,达州市,市环境监测站,,39,37,59,27,43,2,,,,20,29,6,7,0.7,0.7
2025-11-04T0700,2550A,107.4988,31.2132,达州市,凤凰小区,,44,44,64,29,44,4,,,,21,28,5,6,0.6,0.6
2025-11-04T0700,2551A,107.5082,31.1986,达州市,达县机关宾馆,细颗粒物(PM2.5),58,46,59,41,39,4,,,,25,31,4,5,0.6,0.6
2025-11-04T0700,2552A,107.4644,31.2124,达州市,市政中心,,49,49,70,31,42,3,,,,26,28,5,6,0.6,0.6
2025-11-04T0700,2614A,100.1542,25.7054,大理白族自治州,大理市环境监测站,,14,,7,9,9,43,,,,4,11,5,5,0.6,0.7
2025-11-04T0700,2615A,100.2171,25.5811,大理白族自治州,大理古城,,11,11,6,3,5,25,,,,4,6,6,6,0.5,0.6
2025-11-04T0700,1109A,121.612,38.9741,大连市,甘井子,,46,46,24,31,13,31,,,,54,25,10,9,0.8,0.5
2025-11-04T0700,1110A,121.565,38.9511,大连市,周水子,,45,42,25,31,14,61,,,,34,25,4,4,0.6,0.4
2025-11-04T0700,1111A,121.5637,38.8845,大连市,星海三站,,39,33,20,27,12,59,,,,14,13,5,6,0.5,0.4
2025-11-04T0700,1112A,121.6302,38.9117,大连市,青泥洼桥,,49,49,17,23,9,55,,,,26,17,11,12,0.5,0.2
2025-11-04T0700,1113A,121.6251,38.8638,大连市,傅家庄,,43,43,22,29,11,63,,,,16,12,10,8,0.7,0.5
2025-11-04T0700,1114A,121.5213,38.8661,大连市,七贤岭,,40,40,23,26,11,39,,,,38,19,8,9,0.6,0.5
2025-11-04T0700,1115A,121.2529,38.8061,大连市,旅顺,,46,46,23,28,12,56,,,,16,11,9,9,0.4,0.3
2025-11-04T0700,1116A,121.7485,39.1311,大连市,金州,颗粒物(PM10),54,58,29,28,13,53,,,,31,23,13,12,0.4,0.3
2025-11-04T0700,1117A,121.7811,39.0496,大连市,开发区,,42,35,24,29,11,27,,,,53,22,4,5,0.4,0.4
2025-11-04T0700,1118A,121.9762,39.0631,大连市,双D港,,42,36,22,29,11,43,,,,30,14,10,9,0.5,0.3
2025-11-04T0700,1789A,124.81117,46.03138,大庆市,大同区,细颗粒物(PM2.5),65,68,169,47,120,26,,,,20,22,8,11,0.8,0.9
2025-11-04T0700,1790A,125.129,46.533,大庆市,龙凤区,颗粒物(PM10),53,55,130,32,79,32,,,,26,21,6,7,0.6,0.8
2025-11-04T0700,1791A,124.902,46.408,大庆市,红岗区,细颗粒物(PM2.5),55,58,174,39,117,10,,,,38,24,6,8,0.6,0.9
2025-11-04T0700,1792A,125.153,46.586,大庆市,萨尔图区,细颗粒物(PM2.5),59,62,147,42,94,23,,,,37,24,12,13,0.5,0.6
2025-11-04T0700,1793A,124.9042,46.6215,大庆市,让胡路区,细颗粒物(PM2.5),55,44,163,39,113,37,,,,16,23,5,9,0.3,0.8
2025-11-04T0700,3481A,125.141,46.634,大庆市,萨区政府监测点,颗粒物(PM10),56,62,138,17,77,25,,,,20,14,9,11,0.7,0.9
2025-11-04T0700,1721A,113.3819,40.1097,大同市,果树场,颗粒物(PM10),70,89,82,48,42,8,,,,33,47,9,14,1.1,1
2025-11-04T0700,1723A,113.2994,40.0758,大同市,云冈宾馆,颗粒物(PM10),65,80,91,30,38,11,,,,44,48,16,12,1.8,1.6
2025-11-04T0700,1724A,113.3444,40.0917,大同市,大同大学,颗粒物(PM10),53,56,77,25,35,14,,,,51,48,18,15,0.9,0.9
2025-11-04T0700,1725A,113.2661,40.1269,大同市,安家小村,颗粒物(PM10),60,69,93,27,37,4,,,,46,45,14,12,1.9,1.4
2025-11-04T0700,1726A,113.2711,40.0844,大同市,教育学院,颗粒物(PM10),80,110,97,40,43,2,,,,55,54,18,12,2.0,1.6
2025-11-04T0700,3282A,113.3397,40.0597,大同市,大同市卫生学校,颗粒物(PM10),56,62,80,36,38,6,,,,50,45,20,12,0.9,0.9
2025-11-04T0700,3565A,113.1367,40.1122,大同市,云冈站,颗粒物(PM10),81,112,92,38,37,2,,,,36,41,9,13,0.8,0.7
2025-11-04T0700,3566A,113.1186,40.2556,大同市,图书馆,,41,41,74,24,33,7,,,,17,23,3,9,0.6,0.6
2025-11-04T0700,3567A,113.5931,40.0461,大同市,区一中,细颗粒物(PM2.5),65,49,63,47,30,30,,,,23,28,7,15,0.8,0.6
2025-11-04T0700,4199A,113.2798,40.0997,大同市,魏都大道141号,颗粒物(PM10),69,88,105,34,41,6,,,,50,51,14,12,1.7,1.6
2025-11-04T0700,2269A,124.1069,50.4097,大兴安岭地区,科技局,,30,23,36,21,19,30,,,,4,7,4,5,0.3,0.3
2025-11-04T0700,3663A,124.1164,50.4278,大兴安岭地区,红旗社区,,19,19,37,12,18,31,,,,16,15,4,7,0.4,0.4
2025-11-04T0700,1600A,124.3303,40.0625,丹东市,江湾东路,,34,34,43,20,28,21,,,,30,23,11,9,0.9,1
2025-11-04T0700,1601A,124.4256,40.1503,丹东市,临江后街,,41,41,46,21,25,8,,,,40,23,8,8,1.0,0.9
2025-11-04T0700,1602A,124.3933,40.1461,丹东市,元宝山,,,48,35,28,23,13,,,,29,19,,9,1.1,0.9
2025-11-04T0700,1603A,124.3633,40.1092,丹东市,民主桥,,36,36,34,19,22,6,,,,52,28,7,7,0.7,1
2025-11-04T0700,3541A,109.5726,19.5167,儋州市,第一中学子站,,28,24,25,19,17,42,,,,8,10,6,6,0.3,0.3
2025-11-04T0700,3542A,109.5567,19.5187,儋州市,东坡学校子站,,25,24,23,17,17,49,,,,9,11,3,3,0.3,0.3
2025-11-04T0700,2616A,98.5842,24.428,德宏傣族景颇族自治州,德宏州监测站,,10,10,15,3,10,25,,,,6,11,6,9,0.7,0.7
2025-11-04T0700,3677A,98.5881,24.4368,德宏傣族景颇族自治州,芒市人民政府综合楼,,17,17,21,3,5,23,,,,5,8,6,7,0.7,0.7
2025-11-04T0700,1901A,104.4239,31.1208,德阳市,东山公园,,18,12,15,12,15,9,,,,8,10,1,1,0.6,0.7
2025-11-04T0700,1902A,104.3826,31.1317,德阳市,西小区,,33,33,38,20,25,4,,,,27,28,2,2,0.8,0.8
2025-11-04T0700,1904A,104.3553,31.1091,德阳市,耐火材料厂,,29,29,36,19,24,3,,,,32,30,2,2,0.7,0.7
2025-11-04T0700,3639A,104.4019,31.1244,德阳市,市教育局,,18,18,27,12,19,2,,,,20,22,3,4,0.6,0.5
2025-11-04T0700,1622A,116.3032,37.4674,德州市,儿童乐园,细颗粒物(PM2.5),89,107,100,66,45,26,,,,43,37,12,14,0.7,0.7
2025-11-04T0700,1624A,116.2991,37.4451,德州市,监理站,细颗粒物(PM2.5),77,100,85,56,40,28,,,,51,44,16,17,0.7,0.7
2025-11-04T0700,3066A,116.2721,37.4379,德州市,九衢泉纯净水厂,细颗粒物(PM2.5),79,100,95,58,40,13,,,,51,46,15,15,0.7,0.7
2025-11-04T0700,3371A,116.3728,37.4403,德州市,开发区人民医院,颗粒物(PM10),80,110,90,58,41,21,,,,43,45,19,17,0.8,0.8
2025-11-04T0700,3511A,116.5652,37.3319,德州市,陵城艺术中心,细颗粒物(PM2.5),83,97,80,61,41,23,,,,40,40,15,17,1.2,0.9
2025-11-04T0700,4292A,116.3525,37.4209,德州市,新河东路,细颗粒物(PM2.5),85,110,88,63,40,21,,,,52,50,14,13,0.8,0.8
2025-11-04T0700,2621A,99.7056,27.8317,迪庆藏族自治州,迪庆州站,,16,14,18,11,14,39,,,,4,9,6,6,0.5,0.6
2025-11-04T0700,3180A,99.7136,27.8094,迪庆藏族自治州,质量技术监督局,,17,10,17,6,11,53,,,,4,10,6,7,0.4,0.6
2025-11-04T0700,4257A,104.6092,35.5962,定西市,将台街,,35,29,32,24,20,40,,,,18,16,15,13,0.5,0.4
2025-11-04T0700,4309A,104.6159,35.5701,定西市,正龙路62号,,33,33,38,14,23,54,,,,5,8,5,6,0.2,0.2
2025-11-04T0700,1389A,113.7547,23.0494,东莞市,莞城梨川,,20,16,27,14,19,45,,,,13,14,4,5,0.5,0.5
2025-11-04T0700,1390A,113.7944,23.0128,东莞市,东城石井,,18,17,26,12,16,38,,,,18,14,5,6,0.6,0.5
2025-11-04T0700,1391A,113.7383,22.9658,东莞市,南城西平,,22,19,28,15,17,32,,,,26,22,5,6,0.7,0.6
2025-11-04T0700,3319A,113.7338,23.0381,东莞市,万江金泰,,18,16,28,12,17,44,,,,10,12,4,4,0.6,0.6
2025-11-04T0700,3626A,113.7533,23.0202,东莞市,南城元岭,,17,17,26,10,16,48,,,,9,11,6,6,0.5,0.5
2025-11-04T0700,3627A,113.7875,23.0457,东莞市,东城主山,,18,18,31,12,17,42,,,,16,15,4,4,0.5,0.5
2025-11-04T0700,1666A,118.6614,37.4309,东营市,市环保局,颗粒物(PM10),68,85,56,48,26,18,,,,43,37,49,28,0.8,0.6
2025-11-04T0700,3036A,118.6904,37.4338,东营市,开发区管委会,细颗粒物(PM2.5),70,80,55,51,26,32,,,,38,30,37,17,0.7,0.5
2025-11-04T0700,3365A,118.5719,37.565,东营市,垦利区民丰路,颗粒物(PM10),63,75,52,44,23,11,,,,54,35,9,7,0.6,0.4
2025-11-04T0700,3498A,118.5055,37.8612,东营市,河口城区,"颗粒物(PM10),细颗粒物(PM2.5)",70,90,56,51,23,23,,,,45,34,10,8,0.6,0.4
2025-11-04T0700,3646A,118.4978,37.4623,东营市,胜利站,颗粒物(PM10),70,89,64,48,28,13,,,,57,47,10,11,0.8,0.5
2025-11-04T0700,3734A,118.35,37.26,东营市,理想之城,细颗粒物(PM2.5),67,80,59,48,29,1,,,,60,49,12,8,0.7,0.5
2025-11-04T0700,1591A,110.0023,39.8129,鄂尔多斯市,综合楼,细颗粒物(PM2.5),83,92,58,61,24,23,,,,48,32,20,14,1.0,0.5
2025-11-04T0700,1592A,109.9486,39.8261,鄂尔多斯市,巴音孟克林场办事处,"颗粒物(PM10),细颗粒物(PM2.5)",73,95,68,53,30,40,,,,46,40,17,12,1.2,0.9
2025-11-04T0700,1593A,109.7736,39.5986,鄂尔多斯市,康泽苑,,39,39,47,19,20,16,,,,26,27,5,6,0.3,0.4
2025-11-04T0700,1594A,109.8119,39.5989,鄂尔多斯市,华泰汽车城,,39,39,50,17,20,1,,,,34,35,3,5,0.3,0.4
2025-11-04T0700,1595A,109.9734,39.7884,鄂尔多斯市,奥林花园,颗粒物(PM10),80,110,74,51,25,8,,,,73,51,13,12,1.0,0.7
2025-11-04T0700,2436A,114.8938,30.3994,鄂州市,市政府,细颗粒物(PM2.5),64,65,75,46,55,32,,,,43,25,18,13,0.8,0.6
2025-11-04T0700,2437A,114.8989,30.3714,鄂州市,赵家坝,细颗粒物(PM2.5),60,52,68,43,52,46,,,,20,16,11,10,1.2,1.1
2025-11-04T0700,3654A,114.8094,30.4089,鄂州市,精准医疗中心,,,,82,,62,,,91,,,29,,8,,0.7
2025-11-04T0700,2454A,109.4978,30.2981,恩施土家族苗族自治州,湖北民院,,32,32,35,18,24,30,,,,4,11,6,6,0.6,0.7
2025-11-04T0700,2455A,109.4707,30.2798,恩施土家族苗族自治州,州电力总公司,,33,24,34,23,24,24,,,,10,15,6,6,0.4,0.4
2025-11-04T0700,3549A,109.5061,30.3772,恩施土家族苗族自治州,龙凤新区,,30,30,39,21,28,11,,,,4,10,6,6,0.4,0.5
2025-11-04T0700,2499A,108.3411,21.6158,防城港市,沙万,,19,7,9,3,10,60,,,,3,5,5,4,0.3,0.3
2025-11-04T0700,2500A,108.3514,21.7731,防城港市,防城档案局,,18,10,11,3,4,56,,,,4,7,6,6,0.5,0.5
2025-11-04T0700,2501A,108.3506,21.6414,防城港市,大海花园,,20,,10,3,8,64,,,,3,5,4,4,0.4,0.4
2025-11-04T0700,1371A,113.1294,23.0067,佛山市,湾梁,,15,7,27,3,15,26,,,,29,28,6,7,0.8,0.7
2025-11-04T0700,1372A,113.1083,23.0478,佛山市,华材职中,,19,,26,13,20,24,,,,22,20,5,6,0.6,0.6
2025-11-04T0700,1373A,113.144,23.0453,佛山市,南海气象局,,16,,26,11,17,39,,,,15,20,6,7,0.7,0.6
2025-11-04T0700,1374A,113.2881,22.8094,佛山市,顺德苏岗,,15,15,30,3,17,32,,,,21,21,6,7,0.4,0.4
2025-11-04T0700,1376A,112.8383,22.8678,佛山市,高明孔堂,,18,13,26,12,17,39,,,,16,19,4,4,0.5,0.4
2025-11-04T0700,1377A,112.8836,23.1588,佛山市,三水监测站,,26,,18,18,16,39,,,,17,20,4,4,0.6,0.6
2025-11-04T0700,1378A,112.867,23.185,佛山市,三水云东海,,13,,18,3,14,39,,,,11,13,3,5,0.5,0.6
2025-11-04T0700,3625A,113.2544,22.7642,佛山市,容桂街道办,,18,12,26,12,18,32,,,,23,24,5,6,0.5,0.5
2025-11-04T0700,1280A,119.3903,26.0543,福州市,鼓山,,21,21,44,7,20,67,,,,6,11,1,2,0.2,0.5
2025-11-04T0700,1282A,119.2681,26.0504,福州市,师大,,18,12,32,3,22,57,,,,12,14,5,6,0.4,0.5
2025-11-04T0700,1283A,119.2984,26.1028,福州市,五四北路,,18,12,32,3,23,55,,,,12,16,3,5,0.3,0.4
2025-11-04T0700,1284A,119.2648,26.0768,福州市,杨桥西路,,18,10,30,3,22,56,,,,12,12,3,4,0.2,0.4
2025-11-04T0700,1285A,119.317,26.0746,福州市,紫阳,,18,11,37,3,24,56,,,,14,14,6,7,0.3,0.5
2025-11-04T0700,3048A,119.5799,26.0936,福州市,九龙,,20,12,24,3,15,61,,,,8,12,4,4,0.3,0.5
2025-11-04T0700,3526A,119.5189,25.9664,福州市,吴航,,19,12,28,7,17,59,,,,14,11,5,6,0.4,0.6
2025-11-04T0700,1755A,123.7977,41.8491,抚顺市,望花区,,30,,46,21,25,52,,,,20,21,12,12,0.6,0.8
2025-11-04T0700,1756A,123.9161,41.8822,抚顺市,顺城区,,32,28,39,22,19,42,,,,32,19,8,8,0.6,0.7
2025-11-04T0700,1757A,124.0436,41.8611,抚顺市,东洲区,,28,26,32,19,21,66,,,,11,12,8,9,0.6,0.6
2025-11-04T0700,1758A,123.9247,41.8642,抚顺市,新抚区,,30,30,43,19,22,29,,,,44,20,8,10,0.8,0.7
2025-11-04T0700,1759A,124.0972,41.8961,抚顺市,大伙房水库,,28,24,24,19,14,70,,,,10,11,10,10,0.8,0.9
2025-11-04T0700,1760A,123.7086,41.8391,抚顺市,沈抚新城,,33,31,51,23,24,44,,,,28,24,8,10,0.9,0.8
2025-11-04T0700,2376A,116.2127,28.0814,抚州市,桐源党溪,,,,,,,,,,,,,,,,
2025-11-04T0700,2377A,116.3544,27.9831,抚州市,市站,,40,38,64,28,41,37,,,,14,18,12,11,0.9,0.7
2025-11-04T0700,2378A,116.3565,27.963,抚州市,血防站,,41,41,65,25,43,39,,,,14,21,2,4,1.1,1.1
2025-11-04T0700,2379A,116.3564,28.0007,抚州市,采茶剧团,,43,43,67,29,45,37,,,,10,15,6,9,0.9,1
2025-11-04T0700,2380A,116.385,27.9647,抚州市,医学分院,,45,45,68,23,40,39,,,,16,21,4,10,1.1,1.3
2025-11-04T0700,2207A,121.6094,41.998,阜新市,工业园区,颗粒物(PM10),83,116,93,41,24,21,,,,43,28,26,16,0.8,0.8
2025-11-04T0700,2208A,121.6697,42.0279,阜新市,长青街,,36,31,61,25,20,34,,,,24,25,11,16,0.9,0.7
2025-11-04T0700,2209A,121.6673,42.0705,阜新市,农业园区,,32,27,69,22,21,54,,,,13,20,11,12,0.7,0.8
2025-11-04T0700,2210A,121.6717,42.0224,阜新市,东苑,,31,31,87,21,25,38,,,,34,27,26,19,0.9,0.7
2025-11-04T0700,2211A,121.6506,42.0498,阜新市,玉龙新城,颗粒物(PM10),51,51,74,31,21,7,,,,58,27,11,14,1.1,0.7
2025-11-04T0700,2301A,115.8277,32.8929,阜阳市,市监测站,细颗粒物(PM2.5),75,70,66,55,35,25,,,,36,30,5,5,0.5,0.3
2025-11-04T0700,2303A,115.8554,32.8605,阜阳市,开发区,颗粒物(PM10),70,89,80,46,33,32,,,,36,26,9,9,0.3,0.2
2025-11-04T0700,2875A,115.784,32.8892,阜阳市,阜阳职业技术学院,细颗粒物(PM2.5),73,70,46,53,29,57,,,,22,19,7,7,0.2,0.2
2025-11-04T0700,3468A,115.7901,32.8613,阜阳市,市规划展馆,颗粒物(PM10),65,80,55,42,24,26,,,,30,21,6,6,0.7,0.5
2025-11-04T0700,3469A,115.836,32.9183,阜阳市,枣园社区,颗粒物(PM10),60,70,59,38,27,30,,,,35,27,9,8,0.6,0.6
2025-11-04T0700,2669A,102.9099,34.9841,甘南藏族自治州,州政府,,38,32,39,26,27,19,,,,21,21,7,7,0.3,0.5
2025-11-04T0700,3380A,102.8914,34.9617,甘南藏族自治州,甘肃民族师范学院,,35,35,42,22,21,10,,,,22,24,4,6,0.5,0.5
2025-11-04T0700,2570A,101.9603,30.0475,甘孜藏族自治州,水桥子,,9,,5,3,4,8,,,,17,13,7,8,0.4,0.4
2025-11-04T0700,3065A,101.9533,29.9972,甘孜藏族自治州,州环保局,,7,6,7,3,5,20,,,,11,12,5,5,0.3,0.4
2025-11-04T0700,3414A,115.8347,28.932,赣江新区,桑海产业园,细颗粒物(PM2.5),80,92,108,59,71,2,,,,34,34,7,10,0.6,0.7
2025-11-04T0700,2362A,114.9017,25.9149,赣州市,通天岩,,26,13,21,8,15,82,,,,3,7,15,15,0.7,0.8
2025-11-04T0700,2363A,114.9367,25.8664,赣州市,地委,,23,23,32,9,16,61,,,,7,11,4,4,0.6,0.7
2025-11-04T0700,2364A,114.9461,25.8481,赣州市,气象台,,22,21,34,3,12,69,,,,6,11,4,5,0.6,0.7
2025-11-04T0700,2365A,114.9322,25.8333,赣州市,市图书馆,,22,,21,8,16,68,,,,5,11,5,5,0.5,0.6
2025-11-04T0700,2366A,114.8905,25.8471,赣州市,华坚鞋城,,16,11,25,11,16,50,,,,9,16,3,4,0.4,0.4
2025-11-04T0700,3109A,115.0093,25.8613,赣州市,赣县区卫计委,,24,8,17,8,19,75,,,,4,6,7,7,0.5,0.6
2025-11-04T0700,2683A,106.2319,36.1417,固原市,马园,,,,,,,,,,,,,,,,
2025-11-04T0700,2684A,106.2792,36.0022,固原市,监测站,,23,23,44,15,32,4,,,,39,32,4,4,0.7,0.5
2025-11-04T0700,2685A,106.2375,36.0211,固原市,新区,,27,27,42,14,30,1,,,,29,28,3,3,0.7,0.6
2025-11-04T0700,3522A,106.2177,35.9959,固原市,原州区十五小,,14,10,28,7,19,44,,,,19,15,5,5,0.6,0.5
2025-11-04T0700,2543A,106.6308,30.5278,广安市,小平旧居,,,,,,,,,,,,,,,,
2025-11-04T0700,2544A,106.6303,30.4576,广安市,市委,,49,37,52,34,44,15,,,,13,22,3,3,0.6,0.7
2025-11-04T0700,2545A,106.6271,30.4663,广安市,友谊中学,,,44,54,29,37,23,,,,,21,6,6,0.8,0.9
2025-11-04T0700,2547A,106.6388,30.4551,广安市,广电花园,,45,,37,31,39,20,,,,8,20,1,1,0.5,0.6
2025-11-04T0700,2902A,106.6351,30.4865,广安市,北辰小学,,40,32,52,28,36,19,,,,10,16,10,11,0.7,0.8
2025-11-04T0700,2523A,105.8945,32.4535,广元市,黑石坡,,,,,,,,,,,,,,,,
2025-11-04T0700,2524A,105.821,32.4444,广元市,老城,,17,17,24,9,22,32,,,,14,22,4,6,0.6,0.8
2025-11-04T0700,2526A,105.8628,32.4287,广元市,监测站,,11,11,18,6,14,25,,,,13,22,2,4,0.7,0.9
2025-11-04T0700,3617A,105.8047,32.4166,广元市,经开区,,12,11,32,8,25,25,,,,17,28,2,5,0.4,0.7
2025-11-04T0700,1345A,113.2347,23.1423,广州市,广雅中学,,11,6,31,3,18,34,,,,22,25,5,6,0.7,0.5
2025-11-04T0700,1346A,113.2612,23.105,广州市,市五中,,16,8,27,3,18,33,,,,32,23,5,7,0.7,0.7
2025-11-04T0700,1348A,113.3478,23.0916,广州市,广东商学院,,13,7,28,6,20,41,,,,14,18,3,5,0.3,0.2
2025-11-04T0700,1349A,113.4332,23.1047,广州市,市八十六中,,11,7,24,3,16,26,,,,22,18,5,6,0.6,0.5
2025-11-04T0700,1350A,113.3505,22.9483,广州市,番禺中学,,15,12,30,10,19,37,,,,17,18,4,5,0.5,0.5
2025-11-04T0700,1351A,113.2146,23.3916,广州市,花都师范,,12,6,24,3,13,36,,,,14,15,4,5,0.6,0.6
2025-11-04T0700,1352A,113.2597,23.1331,广州市,市监测站,,15,6,27,3,17,27,,,,30,19,6,7,0.6,0.6
2025-11-04T0700,1353A,113.5618,23.312,广州市,九龙镇镇龙,,10,9,24,6,18,32,,,,14,14,5,5,0.6,0.5
2025-11-04T0700,1354A,113.2765,23.1544,广州市,麓湖,,14,6,24,3,17,24,,,,28,18,7,8,0.4,0.3
2025-11-04T0700,1355A,113.443,23.3035,广州市,帽峰山森林公园,,,,,,,,,,,,,,,,
2025-11-04T0700,2846A,113.3221,23.1322,广州市,体育西,,11,9,30,6,20,35,,,,17,17,6,7,0.8,0.8
2025-11-04T0700,3298A,113.5717,23.5491,广州市,从化街口,,10,6,20,3,14,29,,,,15,11,7,8,0.5,0.4
2025-11-04T0700,3299A,113.3472,23.3692,广州市,白云竹料,,15,6,20,3,15,46,,,,10,11,5,7,0.6,0.6
2025-11-04T0700,3300A,113.2981,23.237,广州市,白云嘉禾,,14,6,27,3,18,43,,,,13,15,5,6,0.6,0.5
2025-11-04T0700,3301A,113.4256,23.1716,广州市,黄埔科学城,,14,6,28,3,19,44,,,,9,11,4,5,0.7,0.6
2025-11-04T0700,3302A,113.3942,23.0483,广州市,番禺大学城,,21,21,35,7,18,36,,,,20,20,5,6,0.6,0.6
2025-11-04T0700,3303A,113.4922,22.8168,广州市,南沙黄阁,,24,24,38,15,22,26,,,,32,27,7,9,0.5,0.4
2025-11-04T0700,3304A,113.5342,22.7896,广州市,南沙街,,25,25,36,15,21,28,,,,25,23,8,9,0.6,0.6
2025-11-04T0700,3443A,113.2902,23.5544,广州市,花都梯面,,13,6,18,3,13,40,,,,8,8,3,5,0.5,0.4
2025-11-04T0700,3445A,113.7858,23.7478,广州市,从化良口,,14,6,15,3,12,43,,,,10,10,6,6,0.5,0.4
2025-11-04T0700,3446A,113.8051,23.2614,广州市,增城荔城,,18,13,22,12,18,42,,,,10,9,7,7,0.5,0.5
2025-11-04T0700,2505A,109.568,23.1478,贵港市,德智高中,,,,,,,,,,,,,,,,
2025-11-04T0700,2506A,109.6047,23.0666,贵港市,江南子站,,16,,8,6,12,49,,,,6,8,3,3,0.6,0.5
2025-11-04T0700,2508A,109.5669,23.1065,贵港市,荷城子站,,15,6,9,3,3,45,,,,8,10,2,2,0.5,0.5
2025-11-04T0700,3405A,109.5886,23.1172,贵港市,新世纪学校,,15,,9,3,6,48,,,,5,6,1,1,0.3,0.4
2025-11-04T0700,4260A,109.5933,23.0951,贵港市,中山路155-3号,,16,,9,3,10,50,,,,6,8,2,2,0.4,0.4
2025-11-04T0700,1439A,106.6899,26.5998,贵阳市,马鞍山,,,5,2,,1,32,,,,6,9,3,2,0.3,0.3
2025-11-04T0700,1441A,106.6243,26.6266,贵阳市,鉴湖路,,19,19,14,3,0,42,,,,5,10,3,3,0.3,0.3
2025-11-04T0700,1442A,106.7487,26.6343,贵阳市,燕子冲,,20,,4,14,8,38,,,,9,9,5,5,0.5,0.5
2025-11-04T0700,1443A,106.6555,26.4365,贵阳市,碧云窝,,,9,17,,2,46,,,,6,14,5,5,0.2,0.2
2025-11-04T0700,1445A,106.7109,26.6027,贵阳市,红边门,,14,6,6,3,2,42,,,,12,14,4,3,0.4,0.5
2025-11-04T0700,1446A,106.7164,26.5699,贵阳市,新华路,,16,9,11,3,5,51,,,,6,11,5,5,0.3,0.4
2025-11-04T0700,1447A,106.674,26.5424,贵阳市,太慈桥,,15,6,6,3,2,46,,,,8,14,3,3,0.5,0.5
2025-11-04T0700,1552A,106.805,26.3003,贵阳市,桐木岭,,19,19,17,9,8,59,,,,2,2,23,24,0.6,0.6
2025-11-04T0700,4230A,106.6882,26.5695,贵阳市,花果园大街66号,,15,,4,3,5,46,,,,8,12,3,2,0.4,0.4
2025-11-04T0700,4231A,106.6873,26.5169,贵阳市,漓江路57号,,14,,2,3,4,44,,,,6,11,7,7,0.3,0.4
2025-11-04T0700,1862A,110.4144,25.3167,桂林市,电子科大尧山校区,,,,,,,,,,,,,,,,
2025-11-04T0700,1864A,110.3089,25.2708,桂林市,龙隐路小学,,19,,11,9,8,60,,,,8,7,7,5,0.3,0.3
2025-11-04T0700,1865A,110.2869,25.2178,桂林市,八中,,19,,14,7,10,60,,,,11,10,7,6,0.4,0.4
2025-11-04T0700,3531A,110.296,25.1253,桂林市,旅游学院,,19,6,6,3,6,59,,,,12,8,3,3,0.2,0.2
2025-11-04T0700,4222A,110.1835,25.2444,桂林市,环湖路276号,,20,19,14,14,13,61,,,,11,10,42,15,0.3,0.3
2025-11-04T0700,4301A,110.2803,25.2773,桂林市,信义路13号,,19,7,14,3,13,59,,,,11,9,8,6,0.6,0.6
2025-11-04T0700,2674A,100.2561,34.4714,果洛藏族自治州,玛沁县大武镇,,25,25,31,3,12,33,,,,4,6,14,16,0.3,0.4
2025-11-04T0700,1129A,126.5422,45.755,哈尔滨市,岭北,,,,,,,,,,,,,,,,
2025-11-04T0700,1130A,126.561,45.8167,哈尔滨市,松北商大,细颗粒物(PM2.5),92,,38,68,49,33,,,,21,16,7,7,0.6,0.6
2025-11-04T0700,1131A,126.979,45.5419,哈尔滨市,阿城会宁,,28,28,33,17,23,47,,,,13,14,4,5,0.4,0.5
2025-11-04T0700,1132A,126.599,45.7222,哈尔滨市,南岗学府路,,47,47,42,16,19,35,,,,18,17,10,10,0.5,0.5
2025-11-04T0700,1133A,126.689,45.7733,哈尔滨市,太平宏伟公园,,45,45,43,29,27,28,,,,27,18,12,11,0.7,0.6
2025-11-04T0700,1134A,126.635,45.7667,哈尔滨市,道外承德广场,颗粒物(PM10),59,67,53,27,25,24,,,,37,22,10,11,0.6,0.4
2025-11-04T0700,1135A,126.685,45.7319,哈尔滨市,香坊红旗大街,颗粒物(PM10),51,51,49,22,22,19,,,,36,18,2,4,0.7,0.6
2025-11-04T0700,1136A,126.6411,45.7258,哈尔滨市,动力和平路,,41,41,40,25,26,24,,,,28,20,3,3,0.6,0.6
2025-11-04T0700,1137A,126.593,45.7478,哈尔滨市,道里建国路,,44,44,37,29,24,15,,,,39,20,10,9,0.2,0.5
2025-11-04T0700,1138A,126.615,45.61,哈尔滨市,平房东轻厂,,35,35,32,18,22,34,,,,19,13,11,10,0.4,0.4
2025-11-04T0700,1139A,126.595,45.9855,哈尔滨市,呼兰师专,细颗粒物(PM2.5),52,44,41,36,29,36,,,,17,19,11,11,0.6,0.5
2025-11-04T0700,1140A,126.6206,45.6842,哈尔滨市,省农科院,,48,40,67,33,28,28,,,,32,32,7,7,0.7,0.6
2025-11-04T0700,2688A,93.5128,42.8172,哈密市,地区监测站,颗粒物(PM10),73,96,114,33,43,64,,,,15,38,9,10,0.1,0.3
2025-11-04T0700,2689A,93.4961,42.8328,哈密市,哈密师范学校,颗粒物(PM10),56,61,104,27,37,61,,,,16,46,4,6,0.4,0.8
2025-11-04T0700,2671A,100.9048,36.9639,海北藏族自治州,海晏县西海镇,,32,22,26,22,21,42,,,,11,10,11,11,0.5,0.4
2025-11-04T0700,3867A,102.0738,36.5056,海东市,平安区公安北苑,细颗粒物(PM2.5),63,45,46,45,36,21,,,,17,16,8,13,0.7,0.8
2025-11-04T0700,1409A,110.576,19.9507,海口市,东寨港,,,,,,,,,,,,,,,,
2025-11-04T0700,1410A,110.3232,20.0574,海口市,海南大学,,30,30,45,17,27,56,,,,9,11,5,6,0.4,0.4
2025-11-04T0700,1411A,110.283,20.0053,海口市,秀英海南医院,,25,25,40,12,19,55,,,,10,12,6,7,0.4,0.3
2025-11-04T0700,1412A,110.338,19.9969,海口市,海南师范大学,,25,25,40,14,26,58,,,,10,12,5,6,0.5,0.5
2025-11-04T0700,1413A,110.33,20.0356,海口市,龙华路环保局宿舍,,28,28,40,17,28,58,,,,11,12,7,7,0.3,0.3
2025-11-04T0700,3539A,110.5111,19.9736,海口市,桂林洋子站,,18,18,43,11,25,55,,,,8,10,6,6,0.4,0.4
2025-11-04T0700,2673A,100.6188,36.2866,海南藏族自治州,共和县恰卜恰镇,,30,30,36,12,19,44,,,,21,17,9,11,0.5,0.5
2025-11-04T0700,2676A,97.3731,37.3753,海西蒙古族藏族自治州,德令哈市,,26,22,20,9,14,83,,,,1,4,16,16,0.4,0.4
2025-11-04T0700,1048A,114.5302,36.6116,邯郸市,东污水处理厂,细颗粒物(PM2.5),138,115,102,105,82,,,,,,40,5,8,0.9,0.6
2025-11-04T0700,1049A,114.4918,36.5713,邯郸市,矿院,细颗粒物(PM2.5),119,106,98,90,81,2,,,,49,46,4,9,0.5,0.6
2025-11-04T0700,1050A,114.484,36.6133,邯郸市,丛台公园,细颗粒物(PM2.5),125,117,98,95,77,4,,,,49,40,5,10,1.0,0.5
2025-11-04T0700,3458A,114.7895,36.5593,邯郸市,香泉濮院小区,细颗粒物(PM2.5),73,78,114,53,65,17,,,,33,36,7,10,0.3,0.7
2025-11-04T0700,3579A,114.50634,36.77178,邯郸市,永年区实验高中,细颗粒物(PM2.5),89,120,104,66,52,5,,,,47,43,4,7,1.0,0.7
2025-11-04T0700,3580A,114.20016,36.44293,邯郸市,峰峰矿区临水派出所,细颗粒物(PM2.5),144,,76,110,77,39,,,,37,34,12,11,1.0,0.7
2025-11-04T0700,2634A,106.9893,33.1842,汉中市,汉川机床厂子校,,,,,,,,,,,,,,,,
2025-11-04T0700,2635A,107.0154,33.0706,汉中市,市监测站,,39,37,49,27,31,8,,,,12,20,4,4,0.7,0.6
2025-11-04T0700,2636A,107.0089,33.1138,汉中市,鑫源开发区,,46,46,51,30,29,0,,,,20,24,5,8,0.6,0.6
2025-11-04T0700,2637A,107.007,33.0323,汉中市,南郑大河坎水厂,,35,29,48,24,30,6,,,,11,19,4,4,0.6,0.6
2025-11-04T0700,1223A,120.2072,30.2111,杭州市,滨江,颗粒物(PM10),53,55,31,20,13,0,,,,56,31,7,7,0.7,0.5
2025-11-04T0700,1224A,120.0633,30.2747,杭州市,西溪,,48,39,35,33,14,0,,,,34,29,8,8,0.5,0.4
2025-11-04T0700,1226A,120.3417,30.3150,杭州市,下沙,,38,38,31,21,12,4,,,,58,39,6,5,0.4,0.2
2025-11-04T0700,1227A,120.1269,30.2456,杭州市,卧龙桥,,36,36,27,22,9,2,,,,30,22,8,9,0.6,0.5
2025-11-04T0700,1228A,120.1903,30.2692,杭州市,浙江农大,颗粒物(PM10),52,54,34,24,13,1,,,,57,34,7,7,0.6,0.5
2025-11-04T0700,1230A,120.1197,30.3119,杭州市,和睦小学,,43,43,32,25,16,6,,,,47,32,8,8,0.6,0.6
2025-11-04T0700,1231A,120.3019,30.4183,杭州市,临平镇,,34,34,34,14,14,19,,,,45,38,7,7,0.2,0.2
2025-11-04T0700,1232A,120.2753,30.1839,杭州市,城厢镇,,46,46,39,24,14,2,,,,65,40,8,7,0.4,0.3
2025-11-04T0700,1233A,120.0883,30.1808,杭州市,云栖,,30,30,28,14,9,4,,,,29,24,6,6,0.5,0.4
2025-11-04T0700,3557A,119.9464,30.0494,杭州市,镇二中,,40,37,32,28,19,2,,,,44,32,7,6,0.6,0.5
2025-11-04T0700,3558A,119.7183,30.2367,杭州市,市府大楼,,41,41,36,21,16,18,,,,25,23,9,9,0.4,0.4
2025-11-04T0700,3656A,120.1556,30.2864,杭州市,消防大队,颗粒物(PM10),51,52,38,30,17,5,,,,54,36,8,8,0.3,0.2
2025-11-04T0700,1270A,117.1959,31.7848,合肥市,明珠广场,颗粒物(PM10),56,61,56,36,24,13,,,,53,42,12,10,0.7,0.6
2025-11-04T0700,1271A,117.3072,31.8764,合肥市,三里街,颗粒物(PM10),58,66,58,31,31,5,,,,58,45,6,7,0.7,0.7
2025-11-04T0700,1272A,117.2588,31.8707,合肥市,琥珀山庄,颗粒物(PM10),59,68,54,36,26,23,,,,42,31,7,7,0.7,0.6
2025-11-04T0700,1273A,117.1604,31.9052,合肥市,董铺水库,,,,,,,,,,,,,,,,
2025-11-04T0700,1274A,117.25,31.8571,合肥市,长江中路,颗粒物(PM10),57,63,59,31,29,28,,,,38,32,8,8,0.6,0.6
2025-11-04T0700,1275A,117.266,31.9436,合肥市,庐阳区,颗粒物(PM10),62,73,67,34,31,6,,,,63,47,7,20,0.6,0.6
2025-11-04T0700,1276A,117.3453,31.8616,合肥市,瑶海区,颗粒物(PM10),63,75,64,39,30,4,,,,63,50,11,9,0.7,0.6
2025-11-04T0700,1277A,117.3027,31.7964,合肥市,包河区,颗粒物(PM10),58,66,63,36,30,4,,,,78,56,10,9,0.7,0.7
2025-11-04T0700,1278A,117.2776,31.7385,合肥市,滨湖新区,颗粒物(PM10),56,61,53,39,31,30,,,,38,23,7,7,0.7,0.7
2025-11-04T0700,1279A,117.1318,31.8403,合肥市,高新区,颗粒物(PM10),53,56,53,34,25,23,,,,44,33,8,7,0.6,0.6
2025-11-04T0700,3464A,117.3803,31.9147,合肥市,高教基地,,44,44,56,25,29,6,,,,34,35,7,7,0.5,0.5
2025-11-04T0700,3614A,79.924,37.0877,和田地区,地区环保局,颗粒物(PM10),91,132,120,48,41,52,,,,19,19,26,5,0.7,0.6
2025-11-04T0700,3615A,79.9131,37.113,和田地区,市环保局,颗粒物(PM10),79,108,126,34,36,51,,,,22,31,12,7,0.4,0.7
2025-11-04T0700,2516A,108.2011,24.715,河池市,东仁乐园,,,,,,,,,,,,,,,,
2025-11-04T0700,2517A,108.0497,24.6947,河池市,市环保站,,14,,5,3,3,42,,,,8,7,7,7,0.4,0.4
2025-11-04T0700,2518A,108.0983,24.6989,河池市,市疾控中心,,17,6,4,3,3,52,,,,5,8,4,4,0.5,0.5
2025-11-04T0700,1696A,114.6778,23.7569,河源市,源西,,,,,,,,,,,,,,,,
2025-11-04T0700,1697A,114.6944,23.7586,河源市,东埔,,19,,17,13,19,52,,,,8,9,4,4,0.5,0.5
2025-11-04T0700,1698A,114.6892,23.7233,河源市,老城,,17,11,19,3,13,52,,,,6,6,5,5,0.6,0.6
2025-11-04T0700,1718A,115.4208,35.2464,菏泽市,气象局,细颗粒物(PM2.5),75,88,95,55,44,38,,,,37,35,5,4,0.4,0.4
2025-11-04T0700,3374A,115.5564,35.0891,菏泽市,定陶老年大学,细颗粒物(PM2.5),117,122,80,88,37,20,,,,49,40,8,7,0.5,0.4
2025-11-04T0700,4184A,115.4797,35.24401,菏泽市,永昌路1号,,,,88,55,41,20,,,,52,36,2,4,0.4,0.3
2025-11-04T0700,4193A,115.4715,35.2800,菏泽市,长城路999号,颗粒物(PM10),67,84,82,42,31,33,,,,43,30,14,12,0.7,0.6
2025-11-04T0700,2514A,111.5264,24.4172,贺州市,环保小区,,16,6,12,3,9,49,,,,6,9,4,4,0.5,0.4
2025-11-04T0700,2515A,111.5608,24.4078,贺州市,政协大楼,,14,10,13,3,9,43,,,,6,9,2,4,0.5,0.5
2025-11-04T0700,3534A,111.4744,24.4553,贺州市,西湾,,15,6,16,3,8,45,,,,5,7,5,4,0.6,0.6
2025-11-04T0700,2385A,114.17,35.9019,鹤壁市,市监测站,细颗粒物(PM2.5),100,111,101,75,68,16,,,,23,31,4,5,0.7,0.7
2025-11-04T0700,2386A,114.2956,35.7511,鹤壁市,市交警支队,颗粒物(PM10),89,127,123,56,62,4,,,,53,45,4,6,0.6,0.6
2025-11-04T0700,2387A,114.2878,35.7306,鹤壁市,迎宾馆,颗粒物(PM10),98,146,145,65,64,4,,,,56,49,6,8,0.6,0.6
2025-11-04T0700,3474A,114.2617,35.6822,鹤壁市,大新区,细颗粒物(PM2.5),82,100,112,60,74,4,,,,50,54,5,6,0.7,0.7
2025-11-04T0700,3596A,114.1572,35.9603,鹤壁市,南山宾馆,细颗粒物(PM2.5),125,150,110,95,72,48,,,,27,31,5,6,0.8,0.8
2025-11-04T0700,2244A,130.2537,47.3416,鹤岗市,哈啤分公司,,45,38,62,31,62,41,,,,19,19,13,14,0.6,0.6
2025-11-04T0700,2245A,130.2684,47.3086,鹤岗市,斯达机电,,46,46,70,24,51,39,,,,24,18,16,15,0.7,0.7
2025-11-04T0700,2246A,130.3114,47.3388,鹤岗市,东山纸板厂,,48,48,78,33,59,44,,,,22,17,14,13,0.6,0.7
2025-11-04T0700,2247A,130.1097,47.3382,鹤岗市,五号水库,,,,,,,,,,,,,,,,
2025-11-04T0700,2263A,127.4833,50.2524,黑河市,交通局,细颗粒物(PM2.5),145,140,60,111,40,40,,,,23,23,4,6,0.9,0.6
2025-11-04T0700,2264A,127.5144,50.2341,黑河市,环保局,细颗粒物(PM2.5),149,136,57,114,39,38,,,,24,18,8,9,0.7,0.4
2025-11-04T0700,2265A,127.5291,50.2472,黑河市,大黑河岛,,,,,,,,,,,,,,,,
2025-11-04T0700,1074A,115.6838,37.7541,衡水市,电机北厂,细颗粒物(PM2.5),97,106,92,72,56,12,,,,36,33,10,12,0.4,0.5
2025-11-04T0700,1075A,115.6303,37.7316,衡水市,市监测站,细颗粒物(PM2.5),77,79,82,56,52,8,,,,42,40,7,10,0.5,0.6
2025-11-04T0700,3188A,115.6683,37.7217,衡水市,市城管局,细颗粒物(PM2.5),85,87,96,63,50,15,,,,43,40,10,11,0.5,0.6
2025-11-04T0700,3459A,115.5989,37.5491,衡水市,地表水厂,细颗粒物(PM2.5),92,90,94,68,61,0,,,,47,47,5,7,0.4,0.5
2025-11-04T0700,2456A,112.5003,26.9167,衡阳市,原169医院,,,,,,,,,,,,,,,,
2025-11-04T0700,2457A,112.6194,26.9258,衡阳市,衡阳化工总厂,,36,,24,25,19,72,,,,12,15,6,7,0.8,0.7
2025-11-04T0700,2458A,112.6211,26.8956,衡阳市,珠晖区环保局,,28,20,24,19,18,53,,,,25,20,8,9,1.2,1.1
2025-11-04T0700,2459A,112.6197,26.8733,衡阳市,市委党校,,25,20,21,17,16,66,,,,6,9,3,3,0.8,0.7
2025-11-04T0700,2460A,112.6006,26.8919,衡阳市,市监测站,,26,26,26,14,19,71,,,,10,13,4,5,0.9,0.8
2025-11-04T0700,2461A,112.5664,26.9056,衡阳市,真空机电公司,,32,28,22,22,16,68,,,,12,11,6,6,0.9,0.8
2025-11-04T0700,3399A,112.6703,26.882,衡阳市,师范学院,,25,25,23,17,17,69,,,,11,13,8,8,0.8,0.8
2025-11-04T0700,2608A,103.3772,23.3993,红河哈尼族彝族自治州,污水处理厂,,26,24,15,18,15,26,,,,12,10,13,5,0.5,0.3
2025-11-04T0700,2609A,103.3861,23.35,红河哈尼族彝族自治州,监测站,,21,21,17,14,10,30,,,,9,8,19,5,0.5,0.3
2025-11-04T0700,3038A,103.3758,23.368,红河哈尼族彝族自治州,州图书馆,,30,,12,21,18,29,,,,9,8,23,4,0.5,0.4
2025-11-04T0700,1090A,111.6507,40.7517,呼和浩特市,呼市一监,颗粒物(PM10),53,56,70,29,37,9,,,,53,53,6,11,0.9,0.8
2025-11-04T0700,1091A,111.6572,40.8033,呼和浩特市,小召,,44,44,67,22,35,19,,,,54,61,7,11,1.1,0.9
2025-11-04T0700,1094A,111.7516,40.8369,呼和浩特市,如意水处理厂,,39,39,67,18,29,2,,,,65,58,8,13,0.5,0.7
2025-11-04T0700,1095A,111.7276,40.8062,呼和浩特市,二十九中,,39,39,62,23,30,20,,,,44,51,9,13,0.8,0.8
2025-11-04T0700,1096A,111.5512,40.7866,呼和浩特市,工大金川校区,,42,42,72,21,25,10,,,,62,57,6,10,0.4,0.4
2025-11-04T0700,1097A,111.717,40.7612,呼和浩特市,化肥厂生活区,,48,48,72,24,35,18,,,,48,56,5,10,0.9,0.8
2025-11-04T0700,3698A,111.5968,40.8178,呼和浩特市,红旗小学,,48,48,72,25,30,5,,,,67,63,7,11,0.7,0.7
2025-11-04T0700,3699A,111.6518,40.8389,呼和浩特市,海东办,颗粒物(PM10),51,51,76,22,39,1,,,,55,56,5,9,0.5,0.7
2025-11-04T0700,3061A,119.7512,49.1577,呼伦贝尔市,国华电力东,,30,,19,21,14,45,,,,6,8,14,8,0.2,0.2
2025-11-04T0700,4279A,119.7569,49.2222,呼伦贝尔市,伊敏大街东7号,,25,18,23,17,18,48,,,,2,3,5,5,0.7,0.6
2025-11-04T0700,1250A,120.0751,30.8669,湖州市,城西水厂,,40,40,26,17,12,33,,,,38,31,8,8,0.4,0.4
2025-11-04T0700,2873A,120.0830,30.8929,湖州市,仁皇山新区,,35,35,22,16,9,12,,,,48,24,7,7,0.4,0.3
2025-11-04T0700,2907A,120.1844,30.8596,湖州市,吴兴区站,,38,38,31,18,9,21,,,,45,28,7,7,0.5,0.5
2025-11-04T0700,3562A,120.4148,30.8538,湖州市,南浔区站,,26,26,30,13,13,34,,,,43,36,9,9,0.4,0.4
2025-11-04T0700,1607A,120.9049,40.7211,葫芦岛市,龙港区,细颗粒物(PM2.5),52,52,48,36,16,20,,,,53,22,11,12,0.8,0.6
2025-11-04T0700,1608A,120.8392,40.7514,葫芦岛市,化工街,颗粒物(PM10),69,88,58,44,18,10,,,,74,32,13,14,0.8,0.5
2025-11-04T0700,1609A,120.8341,40.7073,葫芦岛市,新区,,42,34,41,29,17,11,,,,70,31,11,10,1.0,0.7
2025-11-04T0700,1610A,120.8695,40.7677,葫芦岛市,东城区,细颗粒物(PM2.5),67,53,47,48,20,4,,,,76,35,13,13,1.1,0.9
2025-11-04T0700,2482A,109.5981,27.5721,怀化市,林科所,,,,,,,,,,,,,,,,
2025-11-04T0700,2483A,109.9453,27.5444,怀化市,河西地税局,,15,14,13,10,10,38,,,,10,11,3,3,0.3,0.3
2025-11-04T0700,2484A,109.9781,27.5342,怀化市,市四医院,,30,30,16,12,11,39,,,,6,7,11,7,0.3,0.2
2025-11-04T0700,2485A,109.9972,27.5578,怀化市,监测楼,,23,23,16,13,10,32,,,,12,10,10,2,0.2,0.1
2025-11-04T0700,2486A,110.0394,27.583,怀化市,市委党校,,25,25,13,16,10,32,,,,8,8,12,9,0.1,0
2025-11-04T0700,1210A,119.036,33.5981,淮安市,钵池山,,31,31,30,17,16,26,,,,38,32,8,8,0.3,0.3
2025-11-04T0700,1211A,119.007,33.575,淮安市,北京南路,,36,36,32,13,15,33,,,,29,23,9,8,0.7,0.6
2025-11-04T0700,1212A,118.989,33.6067,淮安市,市监测站,,29,29,28,19,15,50,,,,24,29,7,7,0.4,0.5
2025-11-04T0700,1213A,119.135,33.5039,淮安市,楚州区监测站,,49,49,33,21,14,23,,,,38,36,9,9,0.3,0.2
2025-11-04T0700,3426A,118.8755,33.2894,淮安市,新华书店,颗粒物(PM10),52,53,40,22,14,16,,,,43,36,9,8,0.5,0.4
2025-11-04T0700,4206A,119.0288,33.6319,淮安市,承德北路606号,颗粒物(PM10),57,63,46,21,21,11,,,,46,32,6,7,0.5,0.4
2025-11-04T0700,2282A,116.8004,33.975,淮北市,监测站,细颗粒物(PM2.5),114,119,88,86,54,32,,,,45,30,12,10,0.9,0.7
2025-11-04T0700,2283A,116.8091,33.9007,淮北市,烈山区政府,细颗粒物(PM2.5),192,152,103,144,80,28,,,,45,35,15,12,0.7,0.5
2025-11-04T0700,3330A,116.8873,33.9836,淮北市,杜集区检察院,细颗粒物(PM2.5),114,110,79,86,46,42,,,,28,22,8,6,0.5,0.3
2025-11-04T0700,4017A,116.7923,33.9535,淮北市,市博物馆,细颗粒物(PM2.5),133,118,93,101,62,32,,,,39,29,12,10,0.5,0.3
2025-11-04T0700,2277A,116.8305,32.7727,淮南市,潘集区政府,颗粒物(PM10),90,130,79,64,44,18,,,,37,28,15,8,0.6,0.5
2025-11-04T0700,2279A,116.8569,32.5951,淮南市,谢家集区政府,,,47,45,25,19,,,,,27,23,,8,0.4,0.4
2025-11-04T0700,2280A,116.8281,32.633,淮南市,八公山区政府,颗粒物(PM10),52,54,49,30,21,41,,,,26,19,14,10,0.5,0.4
2025-11-04T0700,2281A,116.6325,32.6201,淮南市,焦岗湖风景区管理处,,,,,,,,,,,,,,,,
2025-11-04T0700,2894A,117.0566,32.6531,淮南市,经济技术开发区消防队,颗粒物(PM10),61,71,62,36,30,19,,,,41,32,11,11,0.2,0.2
2025-11-04T0700,3329A,117.0108,32.5893,淮南市,山南新区,颗粒物(PM10),56,61,50,21,15,40,,,,32,24,5,5,0.3,0.2
2025-11-04T0700,4209A,117.0031,32.6445,淮南市,国庆中路369号,颗粒物(PM10),51,51,44,26,23,39,,,,29,23,16,15,0.5,0.5
2025-11-04T0700,2446A,114.9028,30.4742,黄冈市,职工中心,细颗粒物(PM2.5),68,64,67,49,50,38,,,,25,23,9,10,0.8,0.9
2025-11-04T0700,2929A,114.8858,30.4519,黄冈市,红卫路,细颗粒物(PM2.5),72,61,60,52,47,40,,,,24,22,8,10,0.7,0.7
2025-11-04T0700,3398A,114.9136,30.4445,黄冈市,市林业局,细颗粒物(PM2.5),69,66,72,50,50,40,,,,27,25,6,8,1.0,1
2025-11-04T0700,2672A,102.0199,35.5102,黄南藏族自治州,同仁县隆务镇,,27,27,44,8,19,39,,,,1,7,10,11,0.2,0.3
2025-11-04T0700,2295A,118.2903,29.6963,黄山市,延安路89号,细颗粒物(PM2.5),83,,53,61,32,15,,,,19,13,4,4,0.5,0.5
2025-11-04T0700,2297A,118.1371,30.2756,黄山市,黄山区政府5号楼,细颗粒物(PM2.5),58,,53,41,38,10,,,,8,8,5,5,0.5,0.5
2025-11-04T0700,4210A,118.3354,29.7203,黄山市,滨江东路7-2号,,43,43,56,27,39,46,,,,14,13,5,4,0.4,0.4
2025-11-04T0700,2423A,115.0601,30.2313,黄石市,沈家营,,,,79,,47,,,80,,,15,,10,,0.7
2025-11-04T0700,2426A,114.8988,30.2019,黄石市,铁山,颗粒物(PM10),56,61,66,31,49,58,,,,15,20,6,8,0.4,0.4
2025-11-04T0700,2427A,115.0307,30.2092,黄石市,团城山,细颗粒物(PM2.5),53,52,73,37,50,73,,,,14,14,11,8,0.7,0.7
2025-11-04T0700,3149A,115.0235,30.1578,黄石市,笔架山北路,颗粒物(PM10),61,71,100,38,51,60,,,,9,13,8,8,0.5,0.5
2025-11-04T0700,4185A,115.0780,30.21118,黄石市,磁湖东路29号,细颗粒物(PM2.5),65,66,81,47,57,58,,,,22,19,17,12,1.0,0.7
2025-11-04T0700,1392A,114.4183,23.0528,惠州市,河南岸金山湖子站,,20,20,30,14,19,45,,,,18,17,12,11,0.7,0.6
2025-11-04T0700,1393A,114.4053,23.0822,惠州市,下埔横江三路子站,,20,20,30,14,19,64,,,,8,8,6,6,0.6,0.6
2025-11-04T0700,1394A,114.4103,23.1142,惠州市,江北云山西路子站,,20,19,29,14,20,54,,,,10,12,6,6,0.5,0.5
2025-11-04T0700,1395A,114.4645,22.7833,惠州市,惠阳区承修路船湖子站,,26,23,35,18,22,42,,,,13,15,9,10,0.7,0.7
2025-11-04T0700,1396A,114.5317,22.7422,惠州市,大亚湾管委会子站,,26,26,34,18,22,37,,,,13,12,10,10,0.6,0.5
2025-11-04T0700,3314A,114.4338,22.8134,惠州市,惠阳秋长,,25,19,31,17,22,48,,,,10,10,9,9,0.4,0.4
2025-11-04T0700,3452A,114.6517,22.775,惠州市,大亚湾霞涌,,26,24,33,18,21,38,,,,11,11,7,7,0.6,0.5
2025-11-04T0700,2240A,130.9762,45.3001,鸡西市,环保局,细颗粒物(PM2.5),79,100,73,58,43,14,,,,36,30,8,8,1.0,0.9
2025-11-04T0700,2243A,130.9429,45.3039,鸡西市,第一中学,,25,25,42,13,33,49,,,,8,11,6,7,0.3,0.4
2025-11-04T0700,3707A,131.0207,45.3073,鸡西市,欧美日汽修厂,颗粒物(PM10),114,177,125,80,69,15,,,,34,28,27,15,1.4,1
2025-11-04T0700,3709A,130.9967,45.3106,鸡西市,市政设施管理处,颗粒物(PM10),93,136,104,68,58,8,,,,40,29,13,11,1.6,0.9
2025-11-04T0700,2367A,114.9754,27.0803,吉安市,红声器材厂,,43,43,49,27,31,71,,,,13,19,7,9,0.6,0.8
2025-11-04T0700,2368A,114.9658,27.0999,吉安市,市森林工业局,,43,37,47,30,35,71,,,,10,19,7,10,0.5,0.6
2025-11-04T0700,2369A,114.99,27.1312,吉安市,市环境监测站,,32,,58,22,30,71,,,,8,15,8,12,0.4,0.6
2025-11-04T0700,2370A,115.0093,27.0968,吉安市,青原区法院,,43,38,46,30,35,64,,,,14,19,10,10,0.7,0.8
2025-11-04T0700,1772A,126.54,43.8622,吉林市,哈达湾,,21,21,28,12,20,64,,,,10,9,7,7,0.2,0.2
2025-11-04T0700,1773A,126.5844,43.8358,吉林市,东局子,,21,21,19,12,18,54,,,,17,9,10,7,0.5,0.5
2025-11-04T0700,1774A,126.5052,43.8245,吉林市,电力学院,,22,22,23,14,20,56,,,,13,11,7,8,0.5,0.5
2025-11-04T0700,1775A,126.6133,43.8972,吉林市,江北,,21,21,30,11,20,57,,,,14,9,6,4,0.2,0.2
2025-11-04T0700,1776A,126.555,43.8306,吉林市,江南公园,,23,19,26,16,24,63,,,,8,10,6,6,0.3,0.4
2025-11-04T0700,1778A,126.7061,43.7133,吉林市,丰满,,31,,19,15,23,98,,,,5,4,8,8,0.7,0.7
2025-11-04T0700,2868A,126.4739,43.953,吉林市,九站,,24,24,24,14,18,63,,,,15,11,3,3,0.3,0.4
2025-11-04T0700,1299A,116.9862,36.6114,济南市,科干所,,44,44,57,22,25,91,,,,13,19,9,10,0.4,0.4
2025-11-04T0700,1300A,116.9376,36.665,济南市,农科所,颗粒物(PM10),55,59,69,22,26,74,,,,24,31,9,9,0.6,0.7
2025-11-04T0700,1301A,117.1265,36.6734,济南市,开发区,,,59,59,29,31,87,,,,14,29,,5,0.5,0.6
2025-11-04T0700,1303A,117.0624,36.6868,济南市,省种子仓库,颗粒物(PM10),53,56,66,29,29,83,,,,21,31,7,8,0.5,0.6
2025-11-04T0700,1304A,116.9489,36.6447,济南市,机床二厂,颗粒物(PM10),55,59,75,32,35,74,,,,22,27,10,10,0.2,0.2
2025-11-04T0700,1305A,117.0495,36.663,济南市,市监测站,,46,46,61,22,28,88,,,,15,25,4,5,0.6,0.8
2025-11-04T0700,1306A,116.7675,36.5484,济南市,长清党校,颗粒物(PM10),52,54,65,29,28,81,,,,18,24,9,10,0.5,0.5
2025-11-04T0700,1616A,117.6795,36.229,济南市,技术学院,细颗粒物(PM2.5),73,78,72,53,41,17,,,,64,51,17,17,0.7,0.7
2025-11-04T0700,1961A,117.532,36.6868,济南市,东山小学,颗粒物(PM10),109,168,67,39,32,75,,,,22,24,11,11,0.5,0.5
2025-11-04T0700,3059A,117.7161,36.2049,济南市,泰兴公司,细颗粒物(PM2.5),67,68,76,48,43,2,,,,49,49,11,14,0.9,0.7
2025-11-04T0700,3064A,117.6867,36.2171,济南市,莱芜战役纪念馆,细颗粒物(PM2.5),90,95,79,67,48,12,,,,62,49,13,15,0.5,0.5
2025-11-04T0700,3494A,117.1673,36.9782,济南市,济阳区政府,"颗粒物(PM10),细颗粒物(PM2.5)",68,85,85,49,33,42,,,,33,55,8,8,0.6,0.6
2025-11-04T0700,3495A,117.1171,36.63,济南市,锦屏中学,,39,39,50,17,23,96,,,,14,20,5,5,0.6,0.7
2025-11-04T0700,3682A,116.9814,36.6819,济南市,济南四建,颗粒物(PM10),51,51,62,27,31,75,,,,17,22,7,7,0.7,0.7
2025-11-04T0700,1653A,116.6251,35.4302,济宁市,火炬城,细颗粒物(PM2.5),79,73,73,58,43,43,,,,32,33,5,5,0.5,0.3
2025-11-04T0700,1655A,116.5491,35.4042,济宁市,电化厂,细颗粒物(PM2.5),73,92,85,53,39,37,,,,33,28,4,6,0.4,0.2
2025-11-04T0700,3500A,116.5814,35.3707,济宁市,北湖一中,细颗粒物(PM2.5),85,72,53,63,39,24,,,,33,25,4,5,0.5,0.3
2025-11-04T0700,3501A,116.8249,35.5593,济宁市,服务中心,颗粒物(PM10),64,77,79,37,34,20,,,,32,26,8,9,0.4,0.4
2025-11-04T0700,3678A,116.5907,35.4054,济宁市,市第七中学,细颗粒物(PM2.5),70,62,56,51,32,36,,,,32,27,8,9,0.6,0.4
2025-11-04T0700,2255A,130.2751,46.8028,佳木斯市,佳纺,,42,42,54,25,40,53,,,,6,9,5,4,0.5,0.5
2025-11-04T0700,2256A,130.3995,46.8307,佳木斯市,发电厂,,39,38,54,27,43,55,,,,11,15,7,7,0.5,0.5
2025-11-04T0700,2257A,130.3258,46.7975,佳木斯市,环保局,,40,40,51,28,44,54,,,,10,10,4,4,0.4,0.4
2025-11-04T0700,2258A,130.3648,46.8032,佳木斯市,十一中,,45,45,55,29,44,52,,,,9,13,9,9,0.4,0.5
2025-11-04T0700,2259A,130.3794,46.7588,佳木斯市,四丰,,,,,,,,,,,,,,,,
2025-11-04T0700,1252A,120.7436,30.778,嘉兴市,清河小学,,46,46,28,17,11,14,,,,62,28,8,8,0.5,0.3
2025-11-04T0700,1253A,120.726,30.7478,嘉兴市,嘉兴学院,,30,30,24,11,7,24,,,,49,30,5,6,0.6,0.5
2025-11-04T0700,2872A,120.7846,30.7525,嘉兴市,南湖区残联,,39,39,23,18,8,19,,,,52,26,6,7,0.6,0.5
2025-11-04T0700,3407A,120.6916,30.7739,嘉兴市,秀洲住建,,40,40,29,16,10,8,,,,70,36,8,8,0.5,0.4
2025-11-04T0700,1945A,98.2908,39.7711,嘉峪关市,气象局,,46,46,79,9,22,41,,,,25,27,3,6,0.6,0.8
2025-11-04T0700,2884A,98.2672,39.7978,嘉峪关市,酒钢宾馆,颗粒物(PM10),57,63,87,14,24,49,,,,12,17,12,19,0.4,0.6
2025-11-04T0700,3248A,98.2643,39.7724,嘉峪关市,雄关区,,46,46,58,18,26,27,,,,41,31,14,14,0,0.7
2025-11-04T0700,1383A,113.1064,22.6058,江门市,北街,,20,20,36,13,24,32,,,,25,29,5,6,0.6,0.5
2025-11-04T0700,1384A,113.0731,22.5835,江门市,西区,,20,15,38,14,21,30,,,,23,27,4,5,0.3,0.3
2025-11-04T0700,1385A,113.0219,22.5311,江门市,圭峰西,,20,18,34,14,23,41,,,,17,23,4,5,0.5,0.4
2025-11-04T0700,1386A,113.0828,22.5947,江门市,东湖,,25,18,38,17,24,31,,,,21,25,5,6,0.4,0.4
2025-11-04T0700,3311A,113.1075,22.5647,江门市,江海富民,,28,28,42,15,20,32,,,,27,31,8,9,0.7,0.6
2025-11-04T0700,3449A,113.05,22.4667,江门市,新会银湖,,23,22,39,16,27,24,,,,26,27,4,6,0.6,0.6
2025-11-04T0700,1830A,113.1992,35.2590,焦作市,影视城,细颗粒物(PM2.5),87,104,85,64,52,69,,,,15,21,10,11,0.5,0.5
2025-11-04T0700,3335A,113.3137,35.2641,焦作市,马村街道办,细颗粒物(PM2.5),109,112,102,82,67,21,,,,36,25,5,7,0.8,0.5
2025-11-04T0700,3336A,113.2465,35.2373,焦作市,焦作技师学院,细颗粒物(PM2.5),117,115,97,88,66,6,,,,43,31,6,8,0.7,0.5
2025-11-04T0700,3477A,113.1656,35.2539,焦作市,中站许衡医院,细颗粒物(PM2.5),109,97,101,82,65,49,,,,24,23,9,8,0.6,0.5
2025-11-04T0700,3981A,113.2449,35.1803,焦作市,原李万街道办,细颗粒物(PM2.5),144,181,114,110,68,3,,,,42,29,14,14,1.5,0.9
2025-11-04T0700,4264A,113.2340,35.2190,焦作市,新安路1731号,细颗粒物(PM2.5),130,117,107,99,73,22,,,,38,29,7,9,0.7,0.7
2025-11-04T0700,4295A,113.2722,35.2121,焦作市,人民路3066号,细颗粒物(PM2.5),109,132,108,82,61,10,,,,55,40,8,12,0.8,0.8
2025-11-04T0700,1708A,116.3701,23.5345,揭阳市,新兴,,29,,37,20,28,62,,,,9,12,6,8,0.5,0.6
2025-11-04T0700,1709A,116.3264,23.5443,揭阳市,西马,,35,25,39,24,26,46,,,,13,12,4,5,0.6,0.6
2025-11-04T0700,1710A,116.3611,23.5626,揭阳市,东兴,,20,17,37,14,23,56,,,,12,13,5,7,0.3,0.4
2025-11-04T0700,1711A,116.4151,23.5294,揭阳市,渔湖,,28,20,43,19,26,60,,,,11,13,5,7,0.6,0.6
2025-11-04T0700,3320A,116.403,23.5699,揭阳市,曲溪,,26,21,37,18,27,66,,,,9,10,2,2,0.4,0.5
2025-11-04T0700,1944A,102.1692,38.5167,金昌市,天庆家园,,,,119,50,49,32,,,,34,31,41,31,1.4,0.9
2025-11-04T0700,4022A,102.1647,38.5371,金昌市,金川区人防中心,"颗粒物(PM10),细颗粒物(PM2.5)",65,80,98,47,52,36,,,,22,24,48,25,1.1,0.9
2025-11-04T0700,4239A,102.1930,38.5319,金昌市,长春路96号,颗粒物(PM10),70,90,95,46,46,28,,,,32,27,43,26,1.0,0.9
2025-11-04T0700,1262A,119.647,29.077,金华市,十五中,颗粒物(PM10),54,58,54,34,28,19,,,,34,35,5,5,0.5,0.5
2025-11-04T0700,1263A,119.686,29.1029,金华市,监测站,,46,46,50,28,33,16,,,,22,30,3,3,0.2,0.3
2025-11-04T0700,3659A,119.656,29.1131,金华市,气象局,,48,48,47,30,26,12,,,,39,40,4,4,0.6,0.6
2025-11-04T0700,1767A,121.1115,41.0879,锦州市,南山,细颗粒物(PM2.5),79,,44,58,19,2,,,,78,33,11,14,0.8,0.7
2025-11-04T0700,1768A,121.0604,40.8428,锦州市,开发区,颗粒物(PM10),59,68,98,39,25,2,,,,86,36,31,27,0.9,0.8
2025-11-04T0700,1769A,121.1836,41.1119,锦州市,百股街道,,49,45,52,34,21,24,,,,53,26,12,15,1.2,0.9
2025-11-04T0700,1770A,121.1178,41.1222,锦州市,天安街道,细颗粒物(PM2.5),54,49,47,38,20,8,,,,65,27,27,15,1.0,0.8
2025-11-04T0700,1771A,121.1303,41.1386,锦州市,北湖公园,细颗粒物(PM2.5),58,49,52,41,17,33,,,,49,29,19,12,0.9,0.7
2025-11-04T0700,2160A,112.85,35.5051,晋城市,自来水公司,细颗粒物(PM2.5),134,144,115,102,72,5,,,,52,36,7,8,1.7,0.8
2025-11-04T0700,2161A,112.8318,35.4936,晋城市,白云商贸,细颗粒物(PM2.5),113,149,119,85,56,17,,,,33,30,3,3,1.3,0.5
2025-11-04T0700,2162A,112.8508,35.4887,晋城市,市环保局,细颗粒物(PM2.5),119,157,119,90,60,7,,,,45,34,4,6,1.7,0.8
2025-11-04T0700,2163A,112.8676,35.4897,晋城市,技术学院,细颗粒物(PM2.5),125,155,110,95,66,9,,,,52,42,4,6,1.4,0.8
2025-11-04T0700,2165A,112.8453,35.546,晋城市,白马寺,细颗粒物(PM2.5),125,134,89,95,61,69,,,,28,18,19,10,3.0,1
2025-11-04T0700,3620A,112.8271,35.4828,晋城市,泽州一中,细颗粒物(PM2.5),134,158,124,102,71,28,,,,31,29,4,4,1.7,0.8
2025-11-04T0700,2173A,112.7249,37.7067,晋中市,南都小区,细颗粒物(PM2.5),69,85,104,50,55,18,,,,36,40,5,13,0.7,0.8
2025-11-04T0700,2174A,112.6991,37.6982,晋中市,榆次区政府,细颗粒物(PM2.5),92,88,108,68,75,24,,,,27,42,6,12,0.6,0.9
2025-11-04T0700,2865A,112.7195,37.6828,晋中市,榆次三中,细颗粒物(PM2.5),79,92,115,58,62,22,,,,29,44,8,16,0.3,0.6
2025-11-04T0700,4200A,112.7478,37.6954,晋中市,迎宾街26号,细颗粒物(PM2.5),85,92,104,63,63,30,,,,22,38,6,14,0.7,0.8
2025-11-04T0700,2439A,112.2014,31.0481,荆门市,竹园小学,细颗粒物(PM2.5),123,119,123,93,81,19,,,,32,33,3,2,0.4,0.4
2025-11-04T0700,2440A,112.1969,30.9891,荆门市,掇刀,细颗粒物(PM2.5),190,220,150,143,98,13,,,,45,28,1,1,1.2,0.7
2025-11-04T0700,2441A,112.2213,31.0386,荆门市,石化一小,细颗粒物(PM2.5),152,194,161,116,90,3,,,,56,38,5,5,0.9,0.8
2025-11-04T0700,3012A,112.1849,31.0362,荆门市,西山林语,细颗粒物(PM2.5),145,143,124,111,82,22,,,,33,21,4,4,0.8,0.7
2025-11-04T0700,3547A,112.1632,31.0138,荆门市,龙泉中学南校,细颗粒物(PM2.5),95,114,116,71,66,17,,,,39,24,7,8,0.9,0.7
2025-11-04T0700,1844A,112.2494,30.3197,荆州市,市图书馆,细颗粒物(PM2.5),77,70,92,56,62,18,,,,28,25,8,8,0.8,0.9
2025-11-04T0700,1845A,112.2008,30.3544,荆州市,市委党校,细颗粒物(PM2.5),84,70,106,62,63,14,,,,25,25,9,9,0.8,0.9
2025-11-04T0700,3194A,112.2747,30.3122,荆州市,管委会,细颗粒物(PM2.5),84,77,96,62,65,18,,,,20,24,8,8,0.7,0.8
2025-11-04T0700,4268A,112.1722,30.3366,荆州市,学苑路85号,细颗粒物(PM2.5),92,,92,68,85,10,,,,23,20,4,3,0.4,0.6
2025-11-04T0700,2342A,117.3102,29.3867,景德镇市,王港中学,,,,,,,,,,,,,,,,
2025-11-04T0700,2343A,117.2117,29.2933,景德镇市,老干部活动中心,,38,34,42,26,29,37,,,,7,8,4,5,0.7,0.7
2025-11-04T0700,2344A,117.1894,29.2789,景德镇市,兽医站,,42,42,50,22,27,47,,,,11,12,6,7,0.5,0.4
2025-11-04T0700,2346A,117.2461,29.2956,景德镇市,陶研所,,45,31,40,31,35,28,,,,3,6,6,7,0.7,0.8
2025-11-04T0700,4289A,117.1542,29.2566,景德镇市,青少年活动中心,,33,32,46,23,29,46,,,,11,12,3,6,0.4,0.5
2025-11-04T0700,1803A,115.9872,29.6815,九江市,十里,细颗粒物(PM2.5),78,73,76,57,55,32,,,,38,31,7,7,0.8,0.9
2025-11-04T0700,1804A,115.9584,29.7046,九江市,茅山头,颗粒物(PM10),61,71,73,40,48,36,,,,27,24,7,8,0.7,0.8
2025-11-04T0700,1805A,115.9877,29.7295,九江市,西园,细颗粒物(PM2.5),58,53,67,41,43,48,,,,36,34,6,5,0.7,0.7
2025-11-04T0700,1808A,115.9114,29.6038,九江市,综合工业园,细颗粒物(PM2.5),83,77,77,61,62,28,,,,40,38,5,6,0.6,0.7
2025-11-04T0700,1809A,116.0721,29.7535,九江市,石化总厂,颗粒物(PM10),63,75,87,40,55,39,,,,30,30,6,5,0.7,0.7
2025-11-04T0700,1810A,115.9773,29.5698,九江市,庐山气象台,,,,,,,,,,,,,,,,
2025-11-04T0700,3190A,116.0254,29.6994,九江市,外国语学校,颗粒物(PM10),61,71,73,41,49,31,,,,45,37,10,9,0.8,0.8
2025-11-04T0700,4253A,116.0102,29.6594,九江市,莲花大道8号,细颗粒物(PM2.5),75,86,81,55,65,30,,,,24,21,9,9,0.6,0.7
2025-11-04T0700,4240A,98.4958,39.7339,酒泉市,玉门东路5号,,46,46,86,18,23,45,,,,16,21,16,13,0.3,0.4
2025-11-04T0700,4241A,98.5099,39.7506,酒泉市,北大街108号,颗粒物(PM10),56,61,83,16,22,34,,,,21,22,18,12,0.4,0.4
2025-11-04T0700,2698A,76.0072,39.4467,喀什地区,巡警大队,颗粒物(PM10),145,239,241,79,84,1,,,,74,69,8,10,1.3,1.4
2025-11-04T0700,2699A,75.9755,39.4694,喀什地区,吾办,颗粒物(PM10),99,147,208,54,82,10,,,,46,57,6,5,1.1,1.3
2025-11-04T0700,4027A,75.9483,39.4689,喀什地区,老干局,颗粒物(PM10),90,129,220,38,66,31,,,,26,59,2,4,0.6,1.1
2025-11-04T0700,1824A,114.3389,34.7781,开封市,肿瘤医院,颗粒物(PM10),74,98,102,47,43,4,,,,62,45,10,10,0.6,0.6
2025-11-04T0700,1826A,114.2885,34.7965,开封市,世纪星幼儿园,细颗粒物(PM2.5),72,79,94,52,55,11,,,,52,37,8,9,0.6,0.6
2025-11-04T0700,3147A,114.3438,34.8106,开封市,龙亭公园,颗粒物(PM10),66,82,95,47,53,9,,,,57,37,10,10,0.5,0.6
2025-11-04T0700,3210A,114.3644,34.7964,开封市,汴京公园,颗粒物(PM10),82,113,105,53,50,2,,,,64,43,9,9,0.8,0.6
2025-11-04T0700,3473A,114.2485,34.8306,开封市,技师学院,"颗粒物(PM10),细颗粒物(PM2.5)",64,77,88,46,49,30,,,,38,32,12,11,0.6,0.6
2025-11-04T0700,3592A,114.4644,34.7556,开封市,祥符区生态环境局,颗粒物(PM10),83,115,116,51,51,4,,,,62,58,7,7,0.7,0.6
2025-11-04T0700,1951A,84.895,45.6094,克拉玛依市,长征新村,,37,37,32,18,14,39,,,,12,19,3,3,0.3,0.3
2025-11-04T0700,1952A,84.8988,45.5893,克拉玛依市,南林小区,,43,43,37,20,13,21,,,,24,25,3,3,0.5,0.4
2025-11-04T0700,1954A,84.905,44.3396,克拉玛依市,独山子区,颗粒物(PM10),51,51,91,22,31,26,,,,15,30,4,5,0.5,0.6
2025-11-04T0700,1955A,85.6979,46.098,克拉玛依市,乌尔禾区商贸楼,,17,17,30,10,7,20,,,,24,22,6,6,0.7,0.3
2025-11-04T0700,3612A,85.1045,45.6899,克拉玛依市,白碱滩区新站,颗粒物(PM10),58,66,44,23,13,51,,,,6,13,6,6,0.3,0.3
2025-11-04T0700,2697A,76.1454,39.7142,克孜勒苏柯尔克孜自治州,市人民政府,颗粒物(PM10),88,126,141,54,54,82,,,,7,18,16,10,0.0,0.1
2025-11-04T0700,3665A,76.1658,39.7157,克孜勒苏柯尔克孜自治州,克州文化中心,颗粒物(PM10),81,112,136,44,50,80,,,,4,18,14,14,0.3,0.5
2025-11-04T0700,1450A,102.8204,24.8886,昆明市,呈贡新区,,11,,7,3,3,19,,,,22,14,4,5,0.6,0.5
2025-11-04T0700,1451A,102.6251,24.9608,昆明市,西山森林公园,,,,,,,,,,,,,,,,
2025-11-04T0700,1452A,102.7252,25.0902,昆明市,龙泉镇,,10,8,6,3,3,16,,,,19,12,2,2,0.4,0.5
2025-11-04T0700,1453A,102.7266,25.0375,昆明市,东风东路,,9,6,8,3,4,27,,,,17,18,1,1,0.4,0.5
2025-11-04T0700,1454A,102.6742,25.0669,昆明市,金鼎山,,18,,22,12,14,29,,,,12,14,1,2,0.4,0.5
2025-11-04T0700,1455A,102.6644,25.0401,昆明市,碧鸡广场,,9,,7,3,3,27,,,,14,21,2,6,0.5,0.5
2025-11-04T0700,3179A,102.7494,25.0119,昆明市,官渡区博物馆,,20,,6,3,6,6,,,,39,30,2,2,0.6,0.6
2025-11-04T0700,3375A,102.8017,24.8336,昆明市,青年创业园,,8,6,4,3,3,24,,,,10,8,1,1,0.5,0.5
2025-11-04T0700,3550A,102.7997,24.9786,昆明市,昆明学院,,9,7,8,3,5,24,,,,17,20,8,8,0.4,0.4
2025-11-04T0700,3551A,102.5967,24.6736,昆明市,晋宁区生态环境分局,,14,10,12,3,4,44,,,,7,8,3,2,0.4,0.4
2025-11-04T0700,3552A,102.6678,24.9856,昆明市,云天化总部,,9,6,8,3,5,27,,,,17,21,4,4,0.6,0.6
2025-11-04T0700,1456A,91.1319,29.6514,拉萨市,八廓街,,21,8,15,6,10,66,,,,8,18,8,6,0.2,0.3
2025-11-04T0700,1457A,91.1221,29.6747,拉萨市,市环保局,,23,23,23,12,13,34,,,,15,18,8,8,0.3,0.5
2025-11-04T0700,1458A,91.0874,29.6475,拉萨市,区监测站,,20,11,13,3,8,61,,,,15,29,7,4,0.1,0.3
2025-11-04T0700,1459A,91.1774,29.6541,拉萨市,西藏大学,,19,8,12,6,8,59,,,,13,20,6,5,0.1,0.2
2025-11-04T0700,1460A,90.9798,29.6588,拉萨市,区辐射站,,15,10,20,6,10,45,,,,16,22,10,7,0.3,0.4
2025-11-04T0700,1461A,91.0834,29.6292,拉萨市,拉萨火车站,,18,13,16,7,9,24,,,,35,19,5,5,0.5,0.5
2025-11-04T0700,2520A,109.2203,23.7256,来宾市,来宾技工学校,,18,6,14,3,7,56,,,,5,7,8,8,0.5,0.4
2025-11-04T0700,3535A,109.1781,23.7297,来宾市,兴宾区政府,,18,7,13,3,10,57,,,,4,7,8,8,0.4,0.4
2025-11-04T0700,4002A,109.2416,23.7461,来宾市,中南小学,,21,21,15,3,9,53,,,,6,8,6,6,0.8,0.6
2025-11-04T0700,1477A,104.1373,35.9454,兰州市,榆中兰大校区,,,,,,,,,,,,,,,,
2025-11-04T0700,1479A,103.831,36.0464,兰州市,铁路设计院,,,,,,,,,,,,,,,,
2025-11-04T0700,3241A,103.7439,36.0842,兰州市,百合公园,,42,39,63,29,38,2,,,,28,43,1,7,1.0,1.2
2025-11-04T0700,3242A,103.9611,35.998,兰州市,和平,,49,39,48,34,29,22,,,,19,21,3,4,0.5,0.5
2025-11-04T0700,4236A,103.6293,36.0938,兰州市,庄浪东路808号,,45,45,67,29,42,7,,,,35,52,8,14,0.9,0.8
2025-11-04T0700,4237A,103.7251,36.1043,兰州市,安宁西路88号,细颗粒物(PM2.5),64,64,82,46,51,3,,,,40,51,3,7,0.7,0.8
2025-11-04T0700,4238A,103.8470,36.0676,兰州市,北滨河东路1号,,46,45,57,32,32,0,,,,36,43,6,10,1.1,0.9
2025-11-04T0700,3245A,103.6633,36.533,兰州新区,新区管委会,颗粒物(PM10),55,60,72,32,38,6,,,,17,22,14,14,0.6,0.6
2025-11-04T0700,3246A,103.6975,36.4789,兰州新区,舟曲中学,细颗粒物(PM2.5),70,76,72,51,41,4,,,,31,31,10,18,0.8,0.7
2025-11-04T0700,1067A,116.6708,39.5111,廊坊市,药材公司,颗粒物(PM10),65,80,82,41,47,0,,,,68,57,4,6,0.8,0.7
2025-11-04T0700,1068A,116.7214,39.5589,廊坊市,开发区,细颗粒物(PM2.5),64,71,74,46,46,1,,,,57,47,1,4,0.6,0.6
2025-11-04T0700,1070A,116.7244,39.5269,廊坊市,北华航天学院,颗粒物(PM10),66,82,89,46,47,2,,,,61,55,4,7,0.7,0.7
2025-11-04T0700,2919A,116.7022,39.5453,廊坊市,河北工业大学,细颗粒物(PM2.5),72,83,80,52,46,0,,,,59,52,4,6,0.7,0.6
2025-11-04T0700,2535A,103.7723,29.5462,乐山市,花湖湾,,,,,,,,,,,,,,,,
2025-11-04T0700,2536A,103.7627,29.5844,乐山市,牛耳桥,,28,25,18,19,15,12,,,,17,20,7,7,0.7,0.7
2025-11-04T0700,2537A,103.7508,29.6006,乐山市,市第三水厂,,29,26,20,20,15,17,,,,14,17,5,6,0.7,0.7
2025-11-04T0700,2538A,103.7571,29.5664,乐山市,市监测站,,30,25,19,21,14,14,,,,13,14,6,6,0.7,0.7
2025-11-04T0700,3361A,103.7311,29.5628,乐山市,理工大学,,30,26,16,21,16,15,,,,12,14,7,7,0.6,0.6
2025-11-04T0700,2598A,100.2143,26.8576,丽江市,西南郊,,14,,3,3,2,43,,,,5,5,5,5,0.9,0.9
2025-11-04T0700,2599A,100.2497,26.8802,丽江市,丽江古城,,14,12,12,3,5,44,,,,8,11,8,9,0.5,0.5
2025-11-04T0700,2600A,100.2203,26.8906,丽江市,市中心,,12,6,6,3,6,37,,,,14,12,11,11,0.5,0.6
2025-11-04T0700,1267A,119.914,28.4514,丽水市,监测站大楼,,32,22,39,22,27,36,,,,13,20,5,5,0.4,0.5
2025-11-04T0700,1268A,119.93,28.4586,丽水市,莲都小学,,23,23,45,11,21,32,,,,15,21,4,4,0.4,0.4
2025-11-04T0700,1269A,119.879,28.4231,丽水市,余庄前,,33,30,42,23,32,28,,,,18,18,4,3,0.4,0.5
2025-11-04T0700,1173A,119.176,34.5885,连云港市,市环境监测站,,27,27,28,9,10,52,,,,17,20,8,8,0.5,0.5
2025-11-04T0700,3000A,119.3581,34.6972,连云港市,德源药业,,24,24,26,12,6,46,,,,19,20,7,6,0.4,0.2
2025-11-04T0700,3007A,119.178,34.844,连云港市,新城一中,,25,25,34,12,10,42,,,,26,30,7,9,0.7,0.8
2025-11-04T0700,3008A,119.3608,34.7519,连云港市,胡沟管理处,,23,17,18,3,2,71,,,,14,23,11,12,0.2,0.2
2025-11-04T0700,3009A,119.1478,34.5911,连云港市,矿山设计院,,31,31,30,12,11,43,,,,18,18,7,6,0.5,0.5
2025-11-04T0700,3434A,119.2413,34.6539,连云港市,工贸学校,,24,14,22,3,7,76,,,,8,14,9,10,0.5,0.6
2025-11-04T0700,3664A,119.4172,34.7341,连云港市,连云街道,,27,23,16,8,5,84,,,,10,14,5,5,0.1,0.2
2025-11-04T0700,2571A,102.3431,27.8099,凉山彝族自治州,青龙寺,,,,,,,,,,,,,,,,
2025-11-04T0700,2572A,102.2721,27.8415,凉山彝族自治州,邛海宾馆,,40,34,18,28,15,9,,,,15,14,11,10,1.3,1
2025-11-04T0700,2573A,102.2625,27.898,凉山彝族自治州,西昌市政府,细颗粒物(PM2.5),52,,21,36,21,10,,,,21,18,8,7,0.9,0.7
2025-11-04T0700,2574A,102.2685,27.8851,凉山彝族自治州,凉山州政府,,39,37,26,27,20,13,,,,20,18,9,9,1.2,1
2025-11-04T0700,4229A,102.2342,27.8859,凉山彝族自治州,凯乐南路30号,,49,40,26,34,20,4,,,,30,27,8,8,1.2,1
2025-11-04T0700,2212A,123.2,41.1953,辽阳市,宏伟区,,28,28,60,18,18,59,,,,10,11,6,7,0.4,0.4
2025-11-04T0700,2213A,123.1683,41.2495,辽阳市,新华园,,36,,43,25,19,52,,,,17,16,4,7,0.4,0.5
2025-11-04T0700,2214A,123.2354,41.2639,辽阳市,滨河路,,32,32,41,20,18,44,,,,25,19,5,8,0.5,0.5
2025-11-04T0700,2215A,123.149,41.2991,辽阳市,铁西工业园,,32,31,46,22,21,48,,,,16,17,7,10,0.6,0.7
2025-11-04T0700,2227A,125.1358,42.8845,辽源市,环保局,,34,34,49,3,11,68,,,,7,11,4,8,0.7,0.7
2025-11-04T0700,3239A,125.0764,42.9078,辽源市,银鹰制药,,28,28,28,11,14,73,,,,3,18,4,6,0.4,0.5
2025-11-04T0700,1625A,115.9848,36.4372,聊城市,区政府,细颗粒物(PM2.5),94,102,90,70,44,38,,,,38,36,11,11,0.6,0.6
2025-11-04T0700,2878A,116.0072,36.4343,聊城市,聊大东校,细颗粒物(PM2.5),97,122,98,72,48,37,,,,36,35,9,10,0.6,0.6
2025-11-04T0700,3200A,115.9819,36.4978,聊城市,监控中心,细颗粒物(PM2.5),94,110,88,70,43,45,,,,33,29,11,11,0.8,0.7
2025-11-04T0700,3513A,116.0445,36.4361,聊城市,九州社区,细颗粒物(PM2.5),87,108,85,64,39,36,,,,29,27,1,3,0.6,0.5
2025-11-04T0700,4018A,116.0567,36.4608,聊城市,星美广场,细颗粒物(PM2.5),83,103,86,61,36,43,,,,26,28,5,5,0.6,0.5
2025-11-04T0700,2632A,94.3681,29.6376,林芝市,林芝监测站,,11,6,11,3,6,35,,,,4,8,7,5,0.4,0.4
2025-11-04T0700,2633A,94.3616,29.6616,林芝市,林芝人民医院,,10,6,14,3,7,32,,,,5,8,8,6,0.4,0.5
2025-11-04T0700,2603A,100.0781,23.8982,临沧市,市环保局,,39,,13,27,24,24,,,,4,6,2,3,1.0,1
2025-11-04T0700,2604A,100.0894,23.8822,临沧市,市气象局,,12,12,13,7,10,25,,,,6,9,5,5,0.8,0.8
2025-11-04T0700,1733A,111.5531,36.0783,临汾市,临钢医院,细颗粒物(PM2.5),99,105,115,74,63,25,,,,31,38,7,8,1.1,1.1
2025-11-04T0700,1734A,111.5028,36.0714,临汾市,技工学校,细颗粒物(PM2.5),88,120,116,65,75,1,,,,53,44,8,8,0.6,0.6
2025-11-04T0700,1736A,111.5018,36.0855,临汾市,市委,细颗粒物(PM2.5),98,124,128,73,69,2,,,,50,42,5,7,0.9,0.9
2025-11-04T0700,3018A,111.505,36.1014,临汾市,唐尧大酒店,细颗粒物(PM2.5),93,131,118,69,65,1,,,,40,37,4,4,1.0,1.1
2025-11-04T0700,4244A,111.4879,36.0530,临汾市,启星学校,细颗粒物(PM2.5),92,105,112,68,67,8,,,,50,49,5,7,0.9,1
2025-11-04T0700,4271A,103.2464,35.6123,临夏回族自治州,滨河东路1号,细颗粒物(PM2.5),68,78,113,49,66,2,,,,16,25,8,9,0.7,0.8
2025-11-04T0700,4310A,103.2093,35.5995,临夏回族自治州,新华街21号,细颗粒物(PM2.5),83,95,119,61,74,8,,,,23,33,8,9,1.2,1
2025-11-04T0700,1618A,118.3429,35.0532,临沂市,沂河小区,细颗粒物(PM2.5),79,70,60,58,44,2,,,,59,37,10,12,0.6,0.5
2025-11-04T0700,1619A,118.295,35.0583,临沂市,鲁南制药厂,细颗粒物(PM2.5),79,80,64,58,37,12,,,,62,41,15,14,0.7,0.7
2025-11-04T0700,1620A,118.2794,34.9976,临沂市,新光毛纺厂,细颗粒物(PM2.5),68,70,66,49,42,3,,,,59,39,16,16,0.5,0.5
2025-11-04T0700,1621A,118.3956,35.0888,临沂市,河东保险公司,细颗粒物(PM2.5),62,63,61,44,33,6,,,,47,46,8,8,0.8,0.7
2025-11-04T0700,3370A,118.3564,35.0215,临沂市,十里堡居委,颗粒物(PM10),60,70,60,36,31,7,,,,83,45,15,14,0.7,0.6
2025-11-04T0700,3496A,118.3604,35.1084,临沂市,南坊新区,颗粒物(PM10),65,80,59,46,29,4,,,,56,40,14,12,1.0,0.8
2025-11-04T0700,3860A,118.3920,35.0300,临沂市,皇山花园小区,细颗粒物(PM2.5),65,78,64,47,32,6,,,,51,38,12,13,0.7,0.6
2025-11-04T0700,1870A,109.4856,24.3895,柳州市,柳东小学,,17,6,11,3,8,54,,,,4,5,5,5,0.4,0.4
2025-11-04T0700,1871A,109.4157,24.3277,柳州市,环保监测站,,17,6,13,3,4,54,,,,4,5,6,7,0.5,0.5
2025-11-04T0700,1872A,109.389,24.341,柳州市,河西水厂,,17,,11,3,8,53,,,,7,8,4,5,0.4,0.4
2025-11-04T0700,1873A,109.4311,24.2921,柳州市,市四中,,16,12,12,3,6,51,,,,8,8,7,8,0.5,0.5
2025-11-04T0700,1874A,109.4006,24.3631,柳州市,市九中,,14,8,13,3,7,42,,,,9,8,2,2,0.6,0.4
2025-11-04T0700,1875A,109.4958,24.3134,柳州市,古亭山,,19,,11,3,7,60,,,,4,5,6,7,0.6,0.5
2025-11-04T0700,3402A,109.5422,24.3996,柳州市,市二中,,17,6,10,3,7,54,,,,7,9,6,6,0.5,0.5
2025-11-04T0700,2307A,116.5079,31.737,六安市,监测大楼,细颗粒物(PM2.5),85,86,57,63,32,26,,,,41,21,4,5,0.4,0.4
2025-11-04T0700,2308A,116.4738,31.7643,六安市,皖西学院,"颗粒物(PM10),细颗粒物(PM2.5)",68,85,59,49,29,41,,,,28,17,5,4,0.4,0.4
2025-11-04T0700,2309A,116.4996,31.7905,六安市,朝阳厂,细颗粒物(PM2.5),72,75,53,52,29,37,,,,38,24,5,5,0.5,0.4
2025-11-04T0700,2310A,116.5567,31.7886,六安市,开发区,颗粒物(PM10),73,96,69,50,35,20,,,,34,23,2,3,0.5,0.4
2025-11-04T0700,2576A,104.8,26.5892,六盘水市,窑上,,18,18,20,7,11,29,,,,4,7,2,2,0.4,0.4
2025-11-04T0700,2577A,104.83,26.5917,六盘水市,黄土坡,,20,20,11,3,8,27,,,,15,16,5,6,0.6,0.6
2025-11-04T0700,2578A,104.89,26.5939,六盘水市,水钢,,15,15,15,6,5,31,,,,10,10,6,6,0.5,0.5
2025-11-04T0700,2579A,104.8475,26.5894,六盘水市,民中,,9,7,12,3,4,26,,,,14,15,4,3,0.6,0.6
2025-11-04T0700,2580A,104.9544,26.5506,六盘水市,双水,,12,12,9,7,7,33,,,,7,8,6,4,0.4,0.4
2025-11-04T0700,2335A,117.0189,25.1181,龙岩市,龙岩师专,,,,,,,,,,,,,,,,
2025-11-04T0700,2336A,117.0217,25.1033,龙岩市,龙岩市监测站,,21,6,19,3,16,65,,,,8,10,8,8,0.3,0.4
2025-11-04T0700,2337A,117.0258,25.0661,龙岩市,闽西职业技术学院,,21,9,20,3,16,66,,,,5,6,4,5,0.4,0.5
2025-11-04T0700,2338A,117.0196,25.0306,龙岩市,龙岩学院,,20,6,25,3,18,62,,,,5,9,5,6,0.4,0.4
2025-11-04T0700,2665A,105.0822,33.3261,陇南市,汉王镇固水子,,,,,,,,,,,,,,,,
2025-11-04T0700,2885A,104.9339,33.3826,陇南市,滨江中学,,38,38,39,22,20,18,,,,19,11,7,6,0.7,0.5
2025-11-04T0700,3247A,104.955,33.371,陇南市,市总工会,,29,29,31,13,11,26,,,,18,8,8,8,0.6,0.5
2025-11-04T0700,2487A,111.9589,27.8901,娄底市,电视发射台,,,,,,,,,,,,,,,,
2025-11-04T0700,2488A,111.9975,27.725,娄底市,市监测站,,48,,27,33,20,90,,,,14,20,9,9,0.6,0.3
2025-11-04T0700,2489A,112.0194,27.7314,娄底市,市委党校,,39,28,25,27,20,88,,,,8,12,6,6,0.8,0.5
2025-11-04T0700,2490A,111.9561,27.7569,娄底市,涟钢,,39,38,24,27,18,67,,,,14,9,8,8,0.4,0.1
2025-11-04T0700,2491A,111.9892,27.7044,娄底市,市政府,,39,37,26,27,22,96,,,,7,13,8,8,1.0,0.8
2025-11-04T0700,1893A,105.4324,28.9634,泸州市,九狮山,,,,,,,,,,,,,,,,
2025-11-04T0700,1894A,105.4427,28.9063,泸州市,小市上码头,,31,31,30,21,22,10,,,,13,16,9,9,0.5,0.6
2025-11-04T0700,1895A,105.4241,28.8573,泸州市,兰田宪桥,,26,26,28,17,20,9,,,,8,16,8,7,0.4,0.5
2025-11-04T0700,1896A,105.4379,28.8833,泸州市,市环监站,,29,28,29,20,20,8,,,,14,27,5,5,0.4,0.5
2025-11-04T0700,4272A,105.3689,28.7783,泸州市,纳溪中医医院,,33,26,27,23,17,8,,,,19,20,6,5,0.5,0.5
2025-11-04T0700,2183A,111.1406,37.5211,吕梁市,环保局,颗粒物(PM10),63,76,87,36,35,3,,,,34,48,2,6,0.4,0.5
2025-11-04T0700,2185A,111.1297,37.5136,吕梁市,自来水公司,颗粒物(PM10),91,131,104,38,36,2,,,,31,36,3,7,0.6,0.6
2025-11-04T0700,2867A,111.1283,37.51,吕梁市,马茂庄小学,颗粒物(PM10),92,133,113,41,34,2,,,,37,48,5,7,0.6,0.6
2025-11-04T0700,1812A,112.3931,34.6516,洛阳市,市委党校,细颗粒物(PM2.5),120,116,122,91,78,15,,,,34,55,6,9,0.7,0.7
2025-11-04T0700,1815A,112.494,34.6886,洛阳市,河南林校,细颗粒物(PM2.5),123,122,122,93,74,4,,,,42,51,6,9,0.7,0.6
2025-11-04T0700,1816A,112.3844,34.623,洛阳市,开发区管委会,细颗粒物(PM2.5),128,134,123,97,76,10,,,,32,44,5,8,0.7,0.7
2025-11-04T0700,1817A,112.4267,34.6258,洛阳市,市委新办公区,细颗粒物(PM2.5),108,136,133,81,66,3,,,,38,50,6,9,0.6,0.6
2025-11-04T0700,3340A,112.6005,34.6326,洛阳市,伊滨,细颗粒物(PM2.5),123,142,145,93,81,3,,,,45,53,6,9,0.5,0.5
2025-11-04T0700,3341A,112.4951,34.6332,洛阳市,中移产业园,细颗粒物(PM2.5),119,127,139,90,76,4,,,,41,57,6,9,0.5,0.5
2025-11-04T0700,3593A,112.5736,34.8993,洛阳市,吉利监测站,细颗粒物(PM2.5),113,,100,85,73,17,,,,29,44,6,8,0.7,0.6
2025-11-04T0700,3635A,112.3677,34.662,洛阳市,河科大西苑校区,细颗粒物(PM2.5),120,127,125,91,74,4,,,,46,55,9,11,1.0,0.8
2025-11-04T0700,3636A,112.4388,34.6781,洛阳市,英才小学,细颗粒物(PM2.5),140,172,144,107,81,0,,,,51,58,10,10,1.2,0.8
2025-11-04T0700,4214A,112.4600,34.6949,洛阳市,春都路1号院,细颗粒物(PM2.5),109,122,123,82,59,0,,,,44,51,9,9,1.2,0.8
2025-11-04T0700,2399A,114.051,33.5699,漯河市,三五一五工厂,细颗粒物(PM2.5),172,212,195,130,77,14,,,,47,32,7,8,1.0,0.8
2025-11-04T0700,2400A,114.0055,33.5698,漯河市,漯河大学,细颗粒物(PM2.5),119,144,180,90,74,29,,,,35,32,6,7,0.6,0.6
2025-11-04T0700,2401A,114.0138,33.5828,漯河市,市水利局,细颗粒物(PM2.5),156,190,181,119,73,18,,,,39,29,7,8,1.1,0.8
2025-11-04T0700,2402A,114.0261,33.5698,漯河市,市广电局,细颗粒物(PM2.5),173,205,206,131,74,15,,,,47,33,6,7,0.8,0.7
2025-11-04T0700,3478A,113.9749,33.5664,漯河市,市图书馆,细颗粒物(PM2.5),193,232,197,145,78,13,,,,44,32,4,5,0.7,0.6
2025-11-04T0700,4250A,114.0892,33.5882,漯河市,韶山路11号,细颗粒物(PM2.5),200,227,209,150,77,7,,,,50,43,7,8,0.8,0.6
2025-11-04T0700,1798A,118.5092,31.6837,马鞍山市,湖东路四小,颗粒物(PM10),53,56,41,32,15,8,,,,45,30,6,6,0.5,0.5
2025-11-04T0700,1799A,118.5024,31.6449,马鞍山市,开发区,颗粒物(PM10),63,75,55,38,22,2,,,,48,35,7,8,0.5,0.5
2025-11-04T0700,1802A,118.6245,31.7241,马鞍山市,濮塘,,,,,,,,,,,,,,,,
2025-11-04T0700,3633A,118.4918,31.6809,马鞍山市,雨山,颗粒物(PM10),54,57,41,33,15,12,,,,44,29,5,7,0.5,0.5
2025-11-04T0700,4191A,118.5274,31.72227,马鞍山市,慈湖高新区,颗粒物(PM10),55,60,43,34,20,9,,,,47,31,3,4,0.6,0.5
2025-11-04T0700,1686A,111.0286,21.4688,茂名市,电白南海,,34,34,48,14,27,54,,,,11,12,10,10,0.3,0.4
2025-11-04T0700,1687A,110.9294,21.6533,茂名市,茂石化七小,,15,12,44,3,24,45,,,,9,14,12,17,0.7,0.7
2025-11-04T0700,1688A,110.9107,21.6687,茂名市,健康路,,20,,35,14,25,50,,,,10,14,22,17,0.6,0.6
2025-11-04T0700,1689A,110.8592,21.6828,茂名市,高岭,,22,22,52,7,24,41,,,,13,15,36,18,0.5,0.6
2025-11-04T0700,3450A,111.01,21.5165,茂名市,电白水东,,17,12,36,3,23,54,,,,9,13,8,10,0.7,0.7
2025-11-04T0700,2539A,104.0308,30.0478,眉山市,黑龙滩水库,,,,,,,,,,,,,,,,
2025-11-04T0700,2540A,103.8416,30.0874,眉山市,气象局,,31,31,32,19,15,18,,,,17,19,8,8,0.5,0.4
2025-11-04T0700,3137A,103.8578,30.0744,眉山市,市委党校,,22,22,19,14,10,17,,,,15,18,5,5,0.6,0.6
2025-11-04T0700,3148A,103.8291,30.0564,眉山市,区人社局,,35,35,32,17,12,17,,,,15,19,5,5,0.8,0.8
2025-11-04T0700,1690A,116.1231,24.3284,梅州市,梅江月梅,,25,,25,17,24,27,,,,20,15,5,6,0.7,0.6
2025-11-04T0700,1691A,116.0797,24.2719,梅州市,梅县新城,,18,18,30,11,23,39,,,,16,16,7,8,0.6,0.6
2025-11-04T0700,1692A,116.1248,24.2654,梅州市,环境监控中心,,20,16,26,14,23,44,,,,12,15,4,6,0.5,0.5
2025-11-04T0700,3315A,116.1233,24.2991,梅州市,梅龙,,18,12,23,12,20,30,,,,14,10,6,7,0.7,0.7
2025-11-04T0700,1878A,104.7778,31.4741,绵阳市,富乐山,,19,19,23,13,16,16,,,,11,12,8,8,0.4,0.5
2025-11-04T0700,1880A,104.6697,31.4668,绵阳市,高新区自来水公司,,25,21,30,17,25,19,,,,18,24,8,8,0.4,0.5
2025-11-04T0700,1881A,104.7287,31.5075,绵阳市,三水厂,,23,22,31,16,25,21,,,,24,24,7,7,0.5,0.5
2025-11-04T0700,3491A,104.69,31.5322,绵阳市,西科大附属小学,,26,26,29,16,19,6,,,,31,29,10,10,0.6,0.7
2025-11-04T0700,3492A,104.5648,31.5343,绵阳市,安州区旅游局,,20,,16,14,23,6,,,,38,28,7,8,0.5,0.7
2025-11-04T0700,4226A,104.7651,31.4531,绵阳市,绵阳市气象局,,23,23,24,13,18,14,,,,15,15,9,8,0.6,0.7
2025-11-04T0700,1784A,129.61,44.561,牡丹江市,环保大楼,,34,34,51,23,40,24,,,,24,26,8,7,0.4,0.5
2025-11-04T0700,1785A,129.6115,44.5782,牡丹江市,文化广场,,43,30,53,30,44,18,,,,35,30,8,8,0.5,0.6
2025-11-04T0700,1786A,129.5904,44.5963,牡丹江市,第一医院,细颗粒物(PM2.5),54,47,60,38,53,6,,,,49,30,4,4,0.8,0.6
2025-11-04T0700,1787A,129.6364,44.6075,牡丹江市,机车工厂,细颗粒物(PM2.5),78,78,70,57,47,4,,,,33,28,8,28,0.7,0.6
2025-11-04T0700,1788A,129.6386,44.5462,牡丹江市,第一中学,,28,26,48,19,36,17,,,,31,29,6,4,0.5,0.5
2025-11-04T0700,2531A,105.0703,29.61,内江市,市监测站,,42,31,29,29,20,18,,,,12,14,5,4,0.6,0.6
2025-11-04T0700,2532A,105.0717,29.5947,内江市,东兴区政府,,27,27,18,17,15,23,,,,9,16,5,5,0.3,0.3
2025-11-04T0700,2533A,105.0653,29.5817,内江市,内江二中,,31,31,28,20,16,19,,,,12,17,4,4,0.6,0.6
2025-11-04T0700,2534A,105.0406,29.5822,内江市,内江日报社,,38,,24,26,20,21,,,,12,20,4,4,0.5,0.5
2025-11-04T0700,2628A,92.0657,31.4846,那曲市,那曲监测站,,21,21,48,13,28,40,,,,16,26,9,9,0.5,0.8
2025-11-04T0700,4243A,92.0515,31.4787,那曲市,那曲市委宣传部,,39,39,22,26,13,39,,,,26,20,8,7,1.2,0.3
2025-11-04T0700,1290A,115.8931,28.6843,南昌市,省外办,,43,43,91,29,63,51,,,,15,22,7,7,1.1,1.1
2025-11-04T0700,1291A,115.8886,28.7003,南昌市,省林业公司,,45,39,84,31,63,54,,,,16,27,8,7,1.7,1.5
2025-11-04T0700,1292A,115.8126,28.7442,南昌市,林科所,,42,36,86,29,61,41,,,,16,33,4,6,0.6,0.8
2025-11-04T0700,1294A,115.8518,28.687,南昌市,建工学校,,50,50,101,30,61,61,,,,15,30,10,11,0.6,0.8
2025-11-04T0700,1295A,115.8921,28.6424,南昌市,象湖,,,48,84,,61,55,,,,20,25,11,10,0.6,0.9
2025-11-04T0700,1296A,115.7423,28.7996,南昌市,武术学校,,,,,,,,,,,,,,,,
2025-11-04T0700,3046A,115.9084,28.6062,南昌市,机电学校,,45,43,97,31,65,47,,,,23,27,8,8,0.5,0.7
2025-11-04T0700,3690A,115.9721,28.7031,南昌市,外国语学校,,46,38,85,32,67,53,,,,21,29,12,12,0.4,0.6
2025-11-04T0700,4192A,115.9316,28.68677,南昌市,南京东路235号,颗粒物(PM10),51,52,98,35,70,53,,,,28,32,9,8,0.7,0.8
2025-11-04T0700,1905A,106.056,30.8064,南充市,西山风景区,,,,,,,,,,,,,,,,
2025-11-04T0700,1906A,106.0789,30.8023,南充市,南充市委,细颗粒物(PM2.5),52,45,51,36,40,3,,,,22,25,4,4,0.5,0.6
2025-11-04T0700,1907A,106.1031,30.8217,南充市,南充炼油厂,细颗粒物(PM2.5),57,53,57,40,40,6,,,,20,24,6,6,0.7,0.7
2025-11-04T0700,4227A,106.1083,30.7884,南充市,梨树横街98号,细颗粒物(PM2.5),53,47,50,37,35,8,,,,21,25,4,4,0.5,0.5
2025-11-04T0700,4304A,106.1172,30.843,南充市,清泉寺北路188号,,41,41,40,26,31,17,,,,15,23,6,6,0.5,0.5
2025-11-04T0700,4305A,106.067,30.7616,南充市,同庆路1号,,49,34,42,34,37,2,,,,21,23,6,6,0.6,0.6
2025-11-04T0700,1151A,118.8086,32.1065,南京市,迈皋桥,,32,32,31,19,14,11,,,,38,24,4,3,0.6,0.5
2025-11-04T0700,1152A,118.7538,32.0551,南京市,草场门,,44,44,38,24,16,19,,,,46,30,10,9,0.4,0.3
2025-11-04T0700,1153A,118.7794,32.0745,南京市,山西路,,39,39,38,14,10,33,,,,27,17,3,4,0.7,0.6
2025-11-04T0700,1154A,118.7752,32.0023,南京市,中华门,,39,39,38,19,15,15,,,,42,35,4,4,0.3,0.3
2025-11-04T0700,1155A,118.8109,32.0309,南京市,瑞金路,,39,39,34,24,15,17,,,,37,21,4,4,0.8,0.7
2025-11-04T0700,1156A,118.7997,32.0754,南京市,玄武湖,,37,37,31,18,10,23,,,,19,18,4,4,0.3,0.2
2025-11-04T0700,1157A,118.6414,32.0931,南京市,浦口,,49,49,40,21,16,13,,,,46,38,7,7,0.6,0.5
2025-11-04T0700,1158A,118.7356,31.9996,南京市,奥体中心,,45,45,40,22,16,23,,,,47,38,6,6,0.5,0.4
2025-11-04T0700,1159A,118.9125,32.1028,南京市,仙林大学城,,39,39,37,22,12,25,,,,28,21,5,7,0.5,0.4
2025-11-04T0700,3422A,118.8436,31.9198,南京市,江宁彩虹桥,,42,42,40,27,16,13,,,,53,38,7,6,0.5,0.4
2025-11-04T0700,3427A,118.8554,32.3578,南京市,六合雄州,,47,47,41,31,18,9,,,,33,30,5,6,0.6,0.4
2025-11-04T0700,4249A,118.8708,31.3402,南京市,汶溪路181号,,36,35,37,25,20,16,,,,48,26,6,6,0.6,0.5
2025-11-04T0700,4312A,119.019,31.6512,南京市,中山西路1号,,41,41,34,27,19,6,,,,42,24,3,4,0.8,0.7
2025-11-04T0700,1401A,108.3103,22.7881,南宁市,二十一中,,16,,8,3,7,50,,,,8,13,3,3,0.7,0.6
2025-11-04T0700,1402A,108.3141,22.8528,南宁市,北湖,,15,,11,3,7,47,,,,12,13,7,9,0.5,0.5
2025-11-04T0700,1403A,108.3206,22.8225,南宁市,市监测站,,15,,11,6,9,46,,,,13,18,7,6,0.5,0.5
2025-11-04T0700,1404A,108.3829,22.8037,南宁市,大自然花园,,16,6,11,6,10,49,,,,7,11,5,5,0.6,0.6
2025-11-04T0700,1405A,108.4394,22.7904,南宁市,仙葫,,,,,,,,,,,,,,,,
2025-11-04T0700,1406A,108.2397,22.8467,南宁市,区农职院,,,,11,4,7,47,,,,9,10,3,3,0.5,0.6
2025-11-04T0700,1407A,108.3275,22.735,南宁市,英华嘉园,,15,6,11,3,8,46,,,,7,12,2,2,0.4,0.5
2025-11-04T0700,3401A,108.4834,22.7618,南宁市,红星社区,,15,6,7,3,6,45,,,,7,7,4,4,0.3,0.3
2025-11-04T0700,4221A,108.2177,22.7774,南宁市,乐贤路16号,,13,13,12,3,8,40,,,,11,12,3,4,0.4,0.4
2025-11-04T0700,2331A,118.0966,26.6761,南平市,茫荡山,,,5,24,,,102,,,,,,1,1,,0.3
2025-11-04T0700,2332A,118.1681,26.6369,南平市,南平市监测站,,18,15,32,12,26,50,,,,9,11,4,3,0.6,0.6
2025-11-04T0700,2333A,118.1825,26.6489,南平市,南平铝业有限公司,,17,15,28,11,28,52,,,,8,10,2,2,0.5,0.6
2025-11-04T0700,2334A,118.1756,26.6272,南平市,南平七中,,19,17,28,13,28,44,,,,7,8,4,5,0.5,0.6
2025-11-04T0700,1168A,120.9098,31.9663,南通市,狼山街道,,22,19,24,15,14,28,,,,33,26,3,3,0.4,0.4
2025-11-04T0700,1169A,120.86,32.0005,南通市,虹桥,,30,30,20,18,8,30,,,,40,16,4,3,0.8,0.7
2025-11-04T0700,1170A,120.87,32.02,南通市,城中,,39,39,29,20,9,13,,,,56,24,4,3,0.7,0.6
2025-11-04T0700,1171A,120.94,31.93,南通市,星湖花园,,28,28,28,18,15,37,,,,33,21,3,4,0.5,0.5
2025-11-04T0700,1172A,120.81,32.0417,南通市,紫琅学院,颗粒物(PM10),56,61,30,33,10,12,,,,55,29,4,5,0.2,0.1
2025-11-04T0700,3291A,121.067,32.062,南通市,通州监测站,,18,14,14,7,8,31,,,,35,14,2,2,0.4,0.3
2025-11-04T0700,3432A,120.9348,31.9883,南通市,环境教育馆,,26,24,26,18,13,3,,,,46,28,3,3,0.4,0.4
2025-11-04T0700,2404A,112.5224,33.0122,南阳市,瓦房庄,细颗粒物(PM2.5),129,146,148,98,98,7,,,,40,35,5,7,0.9,0.9
2025-11-04T0700,2405A,112.5003,32.9735,南阳市,汉画馆,细颗粒物(PM2.5),114,121,128,86,87,1,,,,37,45,4,6,0.9,1
2025-11-04T0700,2406A,112.5573,33.027,南阳市,气象站,细颗粒物(PM2.5),113,168,173,85,85,11,,,,43,35,5,7,0.8,0.8
2025-11-04T0700,2407A,112.5481,32.9689,南阳市,理工学院,细颗粒物(PM2.5),123,153,152,93,80,22,,,,28,40,5,7,0.8,0.8
2025-11-04T0700,4008A,112.5234,32.9922,南阳市,卧龙区政府,细颗粒物(PM2.5),113,172,155,85,68,5,,,,41,41,7,8,1.0,0.9
2025-11-04T0700,1234A,121.8358,29.911,宁波市,区环保大楼,颗粒物(PM10),59,67,23,20,10,4,,,,60,30,6,5,0.5,0.3
2025-11-04T0700,1235A,121.56,29.82,宁波市,万里学院,,31,31,26,15,10,22,,,,37,28,7,7,0.5,0.4
2025-11-04T0700,1236A,121.713,29.9572,宁波市,龙赛医院,颗粒物(PM10),62,74,26,34,8,2,,,,56,28,4,3,0.8,0.7
2025-11-04T0700,1239A,121.633,29.7733,宁波市,钱湖水厂,颗粒物(PM10),52,53,37,28,16,20,,,,35,27,8,7,0.5,0.4
2025-11-04T0700,1240A,121.5856,29.8635,宁波市,太古小学,,29,29,24,14,10,42,,,,28,24,4,3,0.9,0.5
2025-11-04T0700,1241A,121.524,29.8674,宁波市,市环境监测中心,,34,34,29,8,7,31,,,,33,26,10,9,0.6,0.5
2025-11-04T0700,2871A,121.6147,29.9017,宁波市,万里国际学校,,28,28,23,14,10,39,,,,24,23,5,4,0.4,0.4
2025-11-04T0700,3710A,121.5594,29.8975,宁波市,白沙活动中心,,28,28,25,11,9,35,,,,26,25,5,5,0.5,0.4
2025-11-04T0700,2339A,119.5001,26.6946,宁德市,金涵水库,,10,7,29,6,23,31,,,,6,9,2,2,0.3,0.4
2025-11-04T0700,2341A,119.5388,26.6612,宁德市,宁德市监测站,,28,,45,19,33,39,,,,14,14,7,6,0.6,0.5
2025-11-04T0700,3209A,119.5231,26.6562,宁德市,宁德一中,,19,15,32,13,30,43,,,,10,10,5,6,0.3,0.4
2025-11-04T0700,2618A,98.8601,25.8567,怒江傈僳族自治州,州监测站,,19,19,19,10,13,15,,,,6,9,8,8,0.3,0.4
2025-11-04T0700,2619A,98.8546,25.8417,怒江傈僳族自治州,泸水一中,,15,15,15,10,10,2,,,,9,14,6,6,0.6,0.6
2025-11-04T0700,1888A,101.6891,26.571,攀枝花市,弄弄坪,,45,45,25,24,16,9,,,,21,23,6,6,0.9,0.9
2025-11-04T0700,1889A,101.5769,26.5928,攀枝花市,河门口,,35,,16,24,15,6,,,,18,20,10,11,1.1,0.9
2025-11-04T0700,1890A,101.7169,26.585,攀枝花市,炳草岗,,31,31,24,21,19,11,,,,19,25,44,17,0.8,0.9
2025-11-04T0700,1891A,101.7369,26.5008,攀枝花市,仁和,,23,21,18,16,14,7,,,,13,14,5,6,0.7,0.7
2025-11-04T0700,2835A,101.7227,26.567,攀枝花市,四十中小,,32,32,20,22,12,14,,,,18,22,67,22,1.1,1.1
2025-11-04T0700,1604A,122.0303,41.1489,盘锦市,开发区,,46,36,27,32,14,24,,,,33,16,3,5,0.5,0.4
2025-11-04T0700,1605A,122.0485,41.0883,盘锦市,兴隆台,,33,33,28,21,14,26,,,,34,19,5,8,0.3,0.3
2025-11-04T0700,1606A,121.8297,41.1028,盘锦市,新生街道,细颗粒物(PM2.5),64,46,25,46,14,36,,,,37,17,7,9,0.7,0.4
2025-11-04T0700,1832A,113.3257,33.742,平顶山市,新华旅馆,细颗粒物(PM2.5),124,161,159,94,89,1,,,,48,42,7,10,0.6,0.6
2025-11-04T0700,1833A,113.2919,33.737,平顶山市,规划设计院,细颗粒物(PM2.5),118,173,155,89,86,1,,,,50,41,5,9,0.8,0.7
2025-11-04T0700,1834A,113.182,33.774,平顶山市,平顶山工学院,细颗粒物(PM2.5),122,151,140,92,80,2,,,,51,38,6,8,0.7,0.5
2025-11-04T0700,3204A,113.3025,33.73,平顶山市,规划局,细颗粒物(PM2.5),113,168,171,85,80,1,,,,50,37,6,11,0.9,0.8
2025-11-04T0700,3594A,112.8867,33.9116,平顶山市,石龙区,细颗粒物(PM2.5),135,206,193,103,92,0,,,,64,55,6,9,0.9,1
2025-11-04T0700,2656A,106.6692,35.5461,平凉市,聚贤嘉苑,,46,46,66,31,39,1,,,,30,29,8,10,1.1,1.2
2025-11-04T0700,2657A,106.7021,35.5307,平凉市,博物馆,,50,47,69,35,47,1,,,,33,31,13,12,0.9,0.8
2025-11-04T0700,2347A,114.0997,27.5002,萍乡市,武功山,,,,,,,,,,,,,,,,
2025-11-04T0700,2348A,113.8385,27.6434,萍乡市,中医院,,50,42,44,35,36,88,,,,14,19,2,4,0.8,0.8
2025-11-04T0700,2349A,113.8493,27.6253,萍乡市,市政府车库,,47,47,42,26,31,89,,,,17,20,5,7,0.7,0.8
2025-11-04T0700,2350A,113.8676,27.6435,萍乡市,市环保局,,46,39,38,32,31,94,,,,14,15,6,6,0.6,0.6
2025-11-04T0700,2351A,113.866,27.6198,萍乡市,安源区政府,细颗粒物(PM2.5),58,,40,41,38,82,,,,21,21,9,9,2.2,1.2
2025-11-04T0700,2319A,119.0141,25.4325,莆田市,荔城区仓后路,,23,6,32,3,17,71,,,,7,10,4,4,0.4,0.5
2025-11-04T0700,2320A,119.0015,25.4553,莆田市,莆田市监测站,,24,9,23,3,26,75,,,,6,9,4,5,0.4,0.5
2025-11-04T0700,2321A,119.1119,25.4561,莆田市,涵江区六中,,20,6,25,3,15,64,,,,11,10,3,4,0.4,0.5
2025-11-04T0700,2322A,119.1013,25.3215,莆田市,秀屿区政府,,19,8,31,3,17,60,,,,12,13,5,5,0.4,0.5
2025-11-04T0700,2323A,118.981,25.4792,莆田市,东圳水库,,25,6,21,3,17,78,,,,5,7,6,6,0.5,0.4
2025-11-04T0700,2392A,115.0312,35.7636,濮阳市,环保局,细颗粒物(PM2.5),55,52,70,39,40,20,,,,53,44,10,11,0.8,0.8
2025-11-04T0700,2394A,115.0574,35.7609,濮阳市,油田运输公司,颗粒物(PM10),65,79,84,42,41,18,,,,44,36,11,12,0.8,0.7
2025-11-04T0700,3021A,115,35.7668,濮阳市,濮水河管理处,颗粒物(PM10),61,72,85,41,48,21,,,,36,36,8,10,1.1,1
2025-11-04T0700,4216A,115.0924,35.7686,濮阳市,任丘路479号,颗粒物(PM10),63,75,89,43,46,13,,,,45,43,10,11,0.7,0.7
2025-11-04T0700,2601A,100.98,22.7633,普洱市,市环保局,细颗粒物(PM2.5),52,,19,36,14,33,,,,3,3,4,4,0.6,0.6
2025-11-04T0700,2602A,100.9817,22.8322,普洱市,普洱第二中学,,22,,17,15,13,27,,,,6,5,4,4,0.4,0.5
2025-11-04T0700,2262A,131.0518,45.8751,七台河市,新一中,,,,,,,,,,,,,,,,
2025-11-04T0700,3345A,131.0577,45.7879,七台河市,中波台,,41,41,53,13,23,50,,,,12,10,6,6,0.4,0.4
2025-11-04T0700,3637A,131.0176,45.7761,七台河市,人民广场,,31,31,48,18,32,59,,,,12,12,7,6,0.4,0.5
2025-11-04T0700,3684A,130.8781,45.8222,七台河市,新建矿广场,,41,41,47,20,30,53,,,,9,12,6,6,0.4,0.5
2025-11-04T0700,1779A,123.9305,47.3636,齐齐哈尔市,安居小区,颗粒物(PM10),73,96,113,23,54,43,,,,13,22,6,9,0.9,0.8
2025-11-04T0700,1780A,123.9488,47.3386,齐齐哈尔市,中心广场,,19,19,122,9,59,40,,,,13,22,6,9,0.3,0.6
2025-11-04T0700,1781A,123.9483,47.3227,齐齐哈尔市,农牧车辆厂,,30,27,124,21,52,41,,,,14,19,7,7,0.5,0.8
2025-11-04T0700,1783A,123.945,47.2988,齐齐哈尔市,市环境监测站,细颗粒物(PM2.5),52,52,130,36,65,25,,,,26,21,6,9,0.6,0.8
2025-11-04T0700,3662A,123.6333,47.2075,齐齐哈尔市,富区青少年活动中心,细颗粒物(PM2.5),55,43,145,39,70,33,,,,23,23,9,11,0.7,0.9
2025-11-04T0700,2591A,107.9783,26.5747,黔东南苗族侗族自治州,市环境监测站,,19,7,9,3,6,58,,,,3,6,4,4,0.4,0.4
2025-11-04T0700,2881A,107.8908,26.5311,黔东南苗族侗族自治州,凯里学院,,,,3,3,5,59,,,,8,11,3,3,0.3,0.4
2025-11-04T0700,2593A,107.5228,26.2403,黔南布依族苗族自治州,小围寨,,15,6,1,3,0,45,,,,4,5,4,5,0.4,0.4
2025-11-04T0700,3538A,107.5175,26.2978,黔南布依族苗族自治州,沙坝,,15,6,6,3,7,47,,,,5,8,4,3,0.5,0.5
2025-11-04T0700,2589A,104.9022,25.0925,黔西南布依族苗族自治州,场坝街,,14,13,16,9,6,44,,,,6,10,8,4,0.3,0.3
2025-11-04T0700,2590A,104.8811,25.0992,黔西南布依族苗族自治州,坪东大道,,13,12,12,7,6,39,,,,5,7,2,2,0.3,0.3
2025-11-04T0700,2502A,108.6236,21.9667,钦州市,市环保站,,17,,12,3,6,53,,,,6,10,2,2,0.3,0.6
2025-11-04T0700,2503A,108.6549,21.9481,钦州市,沙埠小学,,18,,14,3,10,55,,,,6,11,2,3,0.4,0.6
2025-11-04T0700,2504A,108.5989,21.7431,钦州市,港区一小,,15,11,17,10,14,35,,,,24,23,5,5,0.5,0.5
2025-11-04T0700,3404A,108.5959,21.9633,钦州市,北职校,,17,6,10,3,7,54,,,,3,5,4,4,0.4,0.4
2025-11-04T0700,1043A,119.7493,40.0116,秦皇岛市,第一关,细颗粒物(PM2.5),98,96,45,73,30,18,,,,50,41,13,11,1.1,0.7
2025-11-04T0700,1044A,119.5897,39.9499,秦皇岛市,监测站,颗粒物(PM10),77,103,55,54,22,34,,,,38,32,20,12,1.5,0.7
2025-11-04T0700,1046A,119.5251,39.9041,秦皇岛市,建设大厦,细颗粒物(PM2.5),80,78,46,59,26,33,,,,38,32,21,12,1.7,0.7
2025-11-04T0700,3132A,119.610547,39.943889,秦皇岛市,文明里,细颗粒物(PM2.5),72,79,46,52,20,27,,,,39,30,19,13,1.7,0.6
2025-11-04T0700,4198A,119.5090,39.8253,秦皇岛市,北戴河轮滑馆,颗粒物(PM10),66,82,38,45,15,34,,,,34,25,8,8,1.0,0.5
2025-11-04T0700,1307A,120.6659,36.2403,青岛市,仰口,,,,,,,,,,,,,,,,
2025-11-04T0700,1310A,120.4134,36.0658,青岛市,市南区东部子站,,29,29,16,9,4,47,,,,24,8,7,7,0.3,0.3
2025-11-04T0700,1311A,120.3664,36.1032,青岛市,四方区子站,,22,22,13,9,10,44,,,,29,11,3,3,0.2,0.2
2025-11-04T0700,1312A,120.2994,36.054,青岛市,市南区西部子站,,44,44,19,12,6,39,,,,39,20,8,8,0.5,0.3
2025-11-04T0700,1313A,120.4581,36.0858,青岛市,崂山区子站,,22,17,10,3,2,23,,,,44,11,8,8,0.3,0.3
2025-11-04T0700,1315A,120.3999,36.3083,青岛市,城阳区子站,,19,19,25,7,8,42,,,,30,21,3,4,0.4,0.4
2025-11-04T0700,3362A,120.5014,36.4034,青岛市,即墨2号,,20,15,20,11,7,62,,,,25,21,4,4,0.3,0.3
2025-11-04T0700,3642A,120.3503,36.0736,青岛市,市北区南部,,24,24,19,7,2,56,,,,20,14,4,3,0.2,0.1
2025-11-04T0700,3643A,120.3948,36.1805,青岛市,李沧区北部,,24,24,19,9,8,62,,,,25,22,6,6,0.3,0.4
2025-11-04T0700,4290A,120.1969,35.9546,青岛市,珠江路669号,,36,36,15,17,7,48,,,,28,13,11,9,0.6,0.3
2025-11-04T0700,4291A,120.0424,35.8656,青岛市,黄岛区人民政府广场,,31,31,22,17,5,19,,,,42,22,6,5,1.0,0.6
2025-11-04T0700,1702A,113.0426,23.691,清远市,环保大楼,,,,,,,,,,,,,,,,
2025-11-04T0700,1703A,113.0208,23.7106,清远市,凤城街办,,17,6,12,3,8,54,,,,10,11,6,6,0.5,0.5
2025-11-04T0700,3025A,113.0477,23.6344,清远市,技师学院,,14,6,18,3,10,43,,,,13,17,4,4,0.5,0.5
2025-11-04T0700,3318A,112.9903,23.7403,清远市,清新太和,,15,8,11,3,7,45,,,,18,9,8,7,0.6,0.5
2025-11-04T0700,3455A,113.076,23.7198,清远市,清城东城,,14,6,14,3,8,44,,,,11,13,5,5,0.6,0.6
2025-11-04T0700,2661A,107.6325,35.7357,庆阳市,庆阳五中,细颗粒物(PM2.5),73,78,69,53,49,69,,,,16,19,1,2,0.5,0.5
2025-11-04T0700,2662A,107.6364,35.7067,庆阳市,市环保局,细颗粒物(PM2.5),79,76,68,58,51,81,,,,13,19,4,8,0.6,0.6
2025-11-04T0700,1916A,103.7897,25.5035,曲靖市,环境监测站,,10,10,9,3,5,26,,,,14,13,2,3,0.5,0.5
2025-11-04T0700,1917A,103.8,25.5364,曲靖市,烟厂办公区,,15,12,7,10,5,26,,,,17,13,5,4,0.3,0.2
2025-11-04T0700,3376A,103.7947,25.462,曲靖市,南苑二区,,11,8,8,3,5,35,,,,11,12,3,4,0.4,0.4
2025-11-04T0700,3377A,103.7444,25.5261,曲靖市,曲靖师范学院,,16,,7,11,6,24,,,,17,12,2,2,0.2,0.2
2025-11-04T0700,1264A,118.8692,28.9398,衢州市,环保大楼,,39,39,56,20,28,42,,,,19,25,4,5,0.4,0.5
2025-11-04T0700,1265A,118.8709,28.9666,衢州市,实验学校,,34,34,50,21,27,41,,,,20,24,5,7,0.4,0.4
2025-11-04T0700,1266A,118.8621,28.9808,衢州市,衢州学院,,37,37,54,21,28,32,,,,20,21,5,6,0.4,0.4
2025-11-04T0700,1611A,118.5819,24.9117,泉州市,涂山街,,20,14,28,8,18,61,,,,9,9,3,3,0.4,0.4
2025-11-04T0700,1612A,118.5972,24.8978,泉州市,津头埔,,19,15,24,7,17,59,,,,15,14,2,3,0.4,0.5
2025-11-04T0700,1613A,118.6663,24.9424,泉州市,万安,,20,13,29,3,16,64,,,,12,10,2,3,0.5,0.6
2025-11-04T0700,1614A,118.6117,24.9604,泉州市,清源山,,16,,27,8,22,50,,,,3,5,1,1,0.4,0.5
2025-11-04T0700,3529A,118.6333,24.9264,泉州市,城华南路,,23,8,27,3,16,72,,,,4,8,3,3,0.3,0.4
2025-11-04T0700,2626A,88.8876,29.2718,日喀则市,日喀则监测站,,13,13,14,3,5,30,,,,13,12,13,14,0.4,0.5
2025-11-04T0700,3726A,88.8781,29.2426,日喀则市,林业技术推广中心,,13,9,10,3,4,39,,,,4,7,6,6,0.4,0.4
2025-11-04T0700,1659A,119.471,35.4209,日照市,监测站,,34,34,29,23,13,0,,,,45,34,7,7,0.7,0.5
2025-11-04T0700,1660A,119.523,35.4216,日照市,市政府广场,,34,34,28,15,7,27,,,,34,30,10,9,0.9,0.7
2025-11-04T0700,1661A,119.5587,35.4044,日照市,港务局,,39,39,29,24,14,13,,,,56,33,10,9,0.9,0.6
2025-11-04T0700,3507A,119.5328,35.4625,日照市,职业技术学院,,34,34,22,17,7,25,,,,42,26,6,5,0.9,0.6
2025-11-04T0700,3604A,119.3266,35.1044,日照市,岚山环保分局,,46,46,32,17,10,24,,,,44,26,10,13,0.7,1
2025-11-04T0700,1835A,111.1922,34.7752,三门峡市,市政府,细颗粒物(PM2.5),94,82,81,70,61,42,,,,19,24,11,11,0.5,0.5
2025-11-04T0700,1836A,111.1587,34.7942,三门峡市,开发区,细颗粒物(PM2.5),124,131,114,94,70,38,,,,29,31,8,11,0.5,0.4
2025-11-04T0700,1838A,111.143,34.7955,三门峡市,风景区,细颗粒物(PM2.5),103,88,82,77,64,39,,,,20,23,10,13,0.5,0.5
2025-11-04T0700,3039A,111.1911,34.7829,三门峡市,三门峡市第一小学,细颗粒物(PM2.5),119,,86,90,72,42,,,,20,23,14,15,0.6,0.5
2025-11-04T0700,3598A,111.1,34.7167,三门峡市,富达温泉假日酒店,细颗粒物(PM2.5),129,116,104,98,77,30,,,,32,32,10,13,0.6,0.5
2025-11-04T0700,2324A,117.6211,26.2625,三明市,三钢,,20,8,26,7,28,63,,,,9,11,3,2,0.6,0.6
2025-11-04T0700,2325A,117.635,26.2714,三明市,三明二中,,21,,23,11,24,65,,,,4,10,3,3,0.5,0.6
2025-11-04T0700,2326A,117.6028,26.2378,三明市,三元区政府,,22,,22,10,24,68,,,,6,11,3,5,0.8,1
2025-11-04T0700,2327A,117.7275,26.3108,三明市,洋溪,,22,7,17,6,23,68,,,,5,9,9,9,1.1,1.2
2025-11-04T0700,1876A,109.5078,18.2489,三亚市,河东子站,,21,21,13,8,6,52,,,,5,5,3,4,0.4,0.4
2025-11-04T0700,1877A,109.4964,18.2681,三亚市,河西子站,,22,22,16,7,7,54,,,,4,4,6,6,0.3,0.4
2025-11-04T0700,3540A,109.7348,18.3443,三亚市,君悦子站,,28,28,18,15,9,65,,,,3,4,4,4,0.5,0.6
2025-11-04T0700,2624A,91.7608,29.2313,山南市,山南监测站,,10,8,10,3,5,30,,,,7,12,5,5,0.3,0.3
2025-11-04T0700,2625A,91.7706,29.2436,山南市,山南人民医院,,16,8,11,3,6,50,,,,5,8,4,4,0.1,0.2
2025-11-04T0700,1674A,116.6794,23.3667,汕头市,金平子站,,23,21,34,16,22,63,,,,17,14,9,5,0.7,0.7
2025-11-04T0700,1675A,116.7244,23.3633,汕头市,龙湖子站,,20,19,34,12,19,62,,,,13,11,10,9,0.6,0.6
2025-11-04T0700,1676A,116.7258,23.2775,汕头市,濠江子站,,25,23,35,17,22,64,,,,8,7,7,6,0.6,0.6
2025-11-04T0700,1677A,116.7519,23.4714,汕头市,澄海子站,,22,22,38,14,22,64,,,,13,13,19,8,0.7,0.7
2025-11-04T0700,1678A,116.6092,23.2539,汕头市,潮阳子站,,23,19,32,16,22,69,,,,11,9,7,6,0.4,0.4
2025-11-04T0700,3444A,116.454,23.2684,汕头市,潮南峡山,,36,34,37,25,24,44,,,,15,9,13,9,0.9,0.6
2025-11-04T0700,3624A,116.4069,23.2533,汕头市,潮南子站,,39,38,46,27,27,47,,,,16,14,9,7,0.8,0.7
2025-11-04T0700,1693A,115.3653,22.775,汕尾市,市环保局,,43,32,39,30,32,50,,,,10,11,6,6,0.8,0.8
2025-11-04T0700,1694A,115.3706,22.7898,汕尾市,市政府,,39,27,40,27,29,50,,,,12,13,8,8,0.5,0.5
2025-11-04T0700,1695A,115.3622,22.7925,汕尾市,新城中学,,40,,40,28,27,53,,,,8,10,8,8,0.6,0.6
2025-11-04T0700,2645A,109.9154,33.8715,商洛市,监测站,颗粒物(PM10),63,76,79,42,46,22,,,,22,23,4,5,0.7,0.7
2025-11-04T0700,3045A,109.9643,33.8471,商洛市,商州区中学,细颗粒物(PM2.5),70,56,77,51,53,11,,,,30,29,5,7,0.7,0.6
2025-11-04T0700,2408A,115.6702,34.4285,商丘市,环境监测站,细颗粒物(PM2.5),75,70,56,55,30,38,,,,32,24,3,2,0.4,0.3
2025-11-04T0700,2409A,115.6458,34.4045,商丘市,粮食局,细颗粒物(PM2.5),79,69,57,58,29,32,,,,33,24,3,3,0.5,0.4
2025-11-04T0700,2410A,115.6293,34.3948,商丘市,睢阳区环保局,细颗粒物(PM2.5),70,79,58,51,28,33,,,,35,24,3,3,0.5,0.4
2025-11-04T0700,3171A,115.6071,34.4465,商丘市,梁园区档案局,细颗粒物(PM2.5),65,60,51,47,27,43,,,,26,19,4,3,0.5,0.4
2025-11-04T0700,1141A,121.4,31.238,上海市,普陀,,24,24,17,11,10,45,,,,42,32,5,5,0.5,0.4
2025-11-04T0700,1142A,121.478,31.2036,上海市,十五厂,,,19,18,,9,50,,,,,24,8,7,0.6,0.5
2025-11-04T0700,1143A,121.467,31.3008,上海市,虹口,,25,25,16,10,9,30,,,,42,23,8,8,0.5,0.5
2025-11-04T0700,1147A,121.425,31.2261,上海市,静安监测站,,22,22,17,11,9,52,,,,32,26,5,5,0.2,0.1
2025-11-04T0700,1148A,121.703,31.1907,上海市,浦东川沙,,30,30,17,10,8,27,,,,51,25,9,9,0.6,0.5
2025-11-04T0700,1149A,121.533,31.2284,上海市,浦东新区监测站,,23,22,16,15,13,35,,,,46,33,6,6,0.5,0.4
2025-11-04T0700,1150A,121.577,31.2071,上海市,浦东张江,,31,24,17,11,9,21,,,,61,39,6,6,0.3,0.2
2025-11-04T0700,3265A,121.4316,31.3322,上海市,宝山庙行,,41,30,18,8,9,4,,,,82,39,9,8,0.5,0.4
2025-11-04T0700,3266A,121.8791,31.4662,上海市,崇明上实东滩,,18,18,12,8,5,38,,,,22,16,3,4,0.5,0.5
2025-11-04T0700,3268A,121.3162,31.2838,上海市,嘉定南翔,,28,24,18,11,11,30,,,,55,37,6,6,0.3,0.3
2025-11-04T0700,3269A,121.3359,30.7456,上海市,金山新城,,21,21,17,12,9,50,,,,28,23,5,5,0.3,0.3
2025-11-04T0700,3270A,121.4996,31.0739,上海市,闵行浦江,,32,28,19,11,10,16,,,,64,32,5,5,1.1,0.9
2025-11-04T0700,3271A,121.2886,31.1663,上海市,青浦徐泾,,27,24,18,11,11,25,,,,53,39,8,8,0.5,0.5
2025-11-04T0700,3272A,121.2186,31.0378,上海市,松江图书馆,,38,38,20,11,10,11,,,,68,41,5,5,0.4,0.4
2025-11-04T0700,3273A,121.3902,31.2059,上海市,长宁仙霞,,23,23,17,12,8,37,,,,43,26,6,6,0.6,0.5
2025-11-04T0700,3274A,121.7965,31.0507,上海市,浦东惠南,,38,38,17,13,9,53,,,,30,30,8,8,0.2,0.1
2025-11-04T0700,3544A,121.4891,30.925,上海市,奉贤南桥新城,,26,26,21,11,12,46,,,,37,29,5,5,0.5,0.5
2025-11-04T0700,4183A,121.4174,31.16637,上海市,冠生园路458号,,19,19,16,6,9,49,,,,27,30,5,6,0.4,0.3
2025-11-04T0700,4205A,121.5419,31.2683,上海市,宁武路151号,,29,29,20,15,11,37,,,,41,34,5,5,0.4,0.4
2025-11-04T0700,2381A,118.005,28.4572,上饶市,百草园,,,,,,,,,,,,,,,,
2025-11-04T0700,2382A,117.9756,28.4436,上饶市,市监测站,,41,41,57,22,27,34,,,,23,18,15,8,0.3,0.4
2025-11-04T0700,2383A,117.9519,28.4628,上饶市,凤凰光学,,41,41,58,20,29,42,,,,18,21,13,14,0.6,0.7
2025-11-04T0700,3685A,117.897,28.4315,上饶市,双创科技城,,46,36,55,32,34,47,,,,23,25,12,10,0.2,0.3
2025-11-04T0700,4211A,118.1904,28.4448,上饶市,裕丰大道,细颗粒物(PM2.5),62,55,72,44,37,33,,,,22,25,1,4,0.5,0.5
2025-11-04T0700,1669A,113.5824,24.7733,韶关市,市八中,,15,6,16,3,10,45,,,,11,12,5,6,0.6,0.5
2025-11-04T0700,1671A,113.5917,24.7972,韶关市,园林处,,16,6,15,3,13,49,,,,9,10,5,7,0.6,0.5
2025-11-04T0700,1673A,113.5971,24.6863,韶关市,曲江监测站,,15,6,16,3,10,45,,,,11,13,9,11,0.6,0.5
2025-11-04T0700,2809A,113.6668,24.7756,韶关市,大学路288号,,17,6,11,3,9,52,,,,9,11,9,10,0.6,0.5
2025-11-04T0700,3622A,113.5556,24.8082,韶关市,碧湖山庄,,14,7,19,3,11,43,,,,8,11,7,7,0.8,0.7
2025-11-04T0700,2462A,111.5239,27.3033,邵阳市,市水土所,,,,,,,,,,,,,,,,
2025-11-04T0700,2464A,111.5283,27.2442,邵阳市,市化工厂,,30,25,17,21,15,92,,,,16,17,7,7,0.5,0.5
2025-11-04T0700,2466A,111.4328,27.2272,邵阳市,市环保局,,35,,19,24,15,92,,,,9,12,3,3,0.7,0.6
2025-11-04T0700,4218A,111.4460,27.2472,邵阳市,北塔二期4-26地块,,,20,18,15,16,86,,,,,18,4,4,0.6,0.6
2025-11-04T0700,4219A,111.4739,27.2282,邵阳市,邵水西路287号,,30,,18,19,15,93,,,,9,12,7,7,0.3,0.2
2025-11-04T0700,1247A,120.6053,29.9928,绍兴市,城东开发委,,33,33,35,18,13,12,,,,30,27,7,7,0.4,0.3
2025-11-04T0700,2921A,120.5483,30.0003,绍兴市,树下王站,,47,47,32,24,13,1,,,,43,29,6,6,0.8,0.7
2025-11-04T0700,3408A,120.5683,29.9361,绍兴市,绍兴中专,,26,26,26,16,12,5,,,,33,28,5,6,0.4,0.4
2025-11-04T0700,3409A,120.4906,30.0861,绍兴市,柯桥区政府,,41,41,29,27,12,19,,,,43,30,5,6,0.5,0.4
2025-11-04T0700,3410A,120.8752,30.0249,绍兴市,重华小学,,30,28,28,21,13,17,,,,31,20,8,8,0.8,0.8
2025-11-04T0700,3411A,120.8369,30.0137,绍兴市,上虞中学,,32,28,24,22,14,18,,,,30,31,6,6,0.5,0.5
2025-11-04T0700,3560A,120.4722,30.0415,绍兴市,柯桥妇保,,27,27,34,13,14,30,,,,21,27,5,5,0.5,0.5
