timepoint,stationcode,longitude,latitude,area,positionname,primarypollutant,aqi,pm10,pm10_24h,pm2_5,pm2_5_24h,o3,o3_24h,o3_8h,o3_8h_24h,no2,no2_24h,so2,so2_24h,co,co_24h
2023-08-19T03:00:00,1001A,116.3621,39.8784,北京市,万寿西宫,颗粒物(PM10),75,99,56,42,24,154,47,49,48,39,26,1,3,0.6,0.4
2023-08-19T03:00:00,1002A,116.2202,40.2915,北京市,定陵,,16,16,27,7,10,112,46,50,49,7,7,3,3,0.3,0.3
2023-08-19T03:00:00,1003A,116.4174,39.9289,北京市,东四,颗粒物(PM10),74,98,57,38,22,165,55,73,63,34,21,1,2,0.5,0.4
2023-08-19T03:00:00,1004A,116.4072,39.8863,北京市,天坛,颗粒物(PM10),62,74,46,34,21,158,21,30,27,39,25,3,3,0.4,0.3
2023-08-19T03:00:00,1005A,116.462,39.9365,北京市,农展馆,颗粒物(PM10),66,81,54,33,23,159,18,67,44,67,30,3,3,0.6,0.3
2023-08-19T03:00:00,1006A,116.3392,39.9295,北京市,官园,颗粒物(PM10),51,51,54,16,20,160,8,63,37,66,27,3,3,0.4,0.3
2023-08-19T03:00:00,1007A,116.2878,39.9611,北京市,海淀万柳,,33,33,48,11,19,135,25,36,25,56,30,3,2,0.2,0.3
2023-08-19T03:00:00,1008A,116.6636,40.135,北京市,顺义新城,,36,36,52,11,22,155,57,54,54,15,18,3,3,0.3,0.3
2023-08-19T03:00:00,1009A,116.6275,40.3275,北京市,怀柔镇,,20,20,43,8,20,126,60,68,64,10,11,3,3,0.3,0.3
2023-08-19T03:00:00,1010A,116.2296,40.217,北京市,昌平镇,,22,18,29,8,14,119,68,73,71,8,10,3,3,0.2,0.2
2023-08-19T03:00:00,1011A,116.3966,39.9821,北京市,奥体中心,,47,47,51,18,20,122,3,12,6,74,32,4,3,0.7,0.5
2023-08-19T03:00:00,1012A,116.184,39.9136,北京市,古城,,48,48,60,15,22,142,41,70,45,34,20,3,3,0.2,0.2
2023-08-19T03:00:00,1015A,117.1444,39.1661,天津市,勤俭道,细颗粒物(PM2.5),75,97,61,55,41,210,77,93,86,19,17,6,7,0.8,0.7
2023-08-19T03:00:00,1017A,117.237,39.1082,天津市,大直沽八号路,细颗粒物(PM2.5),93,116,80,69,48,196,58,72,66,27,19,3,4,0.9,0.8
2023-08-19T03:00:00,1018A,117.202,39.0927,天津市,前进道,细颗粒物(PM2.5),87,109,77,64,46,201,54,68,62,29,23,5,7,0.9,0.8
2023-08-19T03:00:00,1019A,117.1837,39.2133,天津市,淮河道,细颗粒物(PM2.5),87,111,78,64,45,203,82,94,88,25,21,3,4,0.9,0.9
2023-08-19T03:00:00,1021A,117.307,39.0877,天津市,跃进路,细颗粒物(PM2.5),80,100,76,59,44,214,32,74,59,38,20,4,6,0.8,0.8
2023-08-19T03:00:00,1023A,117.707,39.0343,天津市,第四大街,细颗粒物(PM2.5),83,97,73,61,46,196,61,82,73,17,19,5,6,0.7,0.8
2023-08-19T03:00:00,1024A,117.457,38.8394,天津市,永明路,细颗粒物(PM2.5),54,54,70,38,48,189,77,63,63,7,14,4,5,0.5,0.7
2023-08-19T03:00:00,1026A,117.764,39.1587,天津市,汉北路,细颗粒物(PM2.5),99,103,79,74,46,225,49,74,64,21,24,4,5,2.4,1
2023-08-19T03:00:00,1027A,117.157,38.9194,天津市,团泊洼,细颗粒物(PM2.5),80,90,73,59,47,196,61,80,67,26,20,2,3,0.9,0.9
2023-08-19T03:00:00,1029A,114.4422,38.0444,石家庄市,职工医院,颗粒物(PM10),86,121,92,45,41,149,30,40,37,51,24,4,3,0.9,0.7
2023-08-19T03:00:00,1030A,114.6063,38.0266,石家庄市,高新区,细颗粒物(PM2.5),79,91,80,58,44,143,40,62,49,32,22,2,1,0.6,0.7
2023-08-19T03:00:00,1031A,114.4898,38.1328,石家庄市,西北水源,颗粒物(PM10),86,122,88,47,37,126,12,18,16,61,27,3,3,0.8,0.7
2023-08-19T03:00:00,1032A,114.4586,38.0058,石家庄市,西南高教,颗粒物(PM10),78,105,81,54,38,142,55,49,49,23,19,1,3,0.9,0.7
2023-08-19T03:00:00,1033A,114.5331,38.0178,石家庄市,世纪公园,颗粒物(PM10),65,79,70,39,35,131,47,60,55,26,20,3,3,0.6,0.6
2023-08-19T03:00:00,1034A,114.509,38.0457,石家庄市,人民会堂,颗粒物(PM10),71,91,90,46,41,162,36,68,55,39,22,2,3,0.8,0.6
2023-08-19T03:00:00,1035A,114.3524,37.8911,石家庄市,封龙山,颗粒物(PM10),99,148,110,26,38,166,145,155,150,9,9,2,2,0.9,1
2023-08-19T03:00:00,1037A,118.131,39.6363,唐山市,雷达站,细颗粒物(PM2.5),105,103,86,79,53,182,93,129,110,11,18,1,2,0.9,0.8
2023-08-19T03:00:00,1038A,118.1725,39.6334,唐山市,物资局,细颗粒物(PM2.5),105,106,78,79,50,175,47,105,78,22,19,2,5,1.2,0.9
2023-08-19T03:00:00,1040A,118.1705,39.6506,唐山市,十二中,细颗粒物(PM2.5),94,98,75,70,46,180,60,121,89,21,21,1,3,1.2,0.8
2023-08-19T03:00:00,1041A,118.1869,39.622,唐山市,小山,细颗粒物(PM2.5),92,116,89,68,46,211,43,91,68,20,21,3,2,1.2,0.9
2023-08-19T03:00:00,1042A,119.5134,39.8207,秦皇岛市,北戴河环保局,,49,35,39,34,23,172,127,142,135,10,13,4,5,0.1,0.1
2023-08-19T03:00:00,1043A,119.7493,40.0116,秦皇岛市,第一关,细颗粒物(PM2.5),72,82,61,52,37,154,6,4,4,92,44,2,3,0.3,0.7
2023-08-19T03:00:00,1044A,119.5897,39.9499,秦皇岛市,监测站,细颗粒物(PM2.5),77,85,61,56,36,147,9,15,10,91,33,6,8,0.8,1
2023-08-19T03:00:00,1046A,119.5251,39.9041,秦皇岛市,建设大厦,颗粒物(PM10),71,92,63,42,37,174,32,23,23,39,30,10,6,0.9,1
2023-08-19T03:00:00,1048A,114.5302,36.6116,邯郸市,东污水处理厂,细颗粒物(PM2.5),52,46,50,36,36,229,33,35,27,30,27,6,12,1.0,1.5
2023-08-19T03:00:00,1049A,114.4918,36.5713,邯郸市,矿院,细颗粒物(PM2.5),70,42,51,51,36,203,28,55,42,33,24,16,10,1.1,1.5
2023-08-19T03:00:00,1050A,114.484,36.6133,邯郸市,丛台公园,颗粒物(PM10),59,67,61,33,34,216,36,58,46,27,16,8,15,1.2,1.9
2023-08-19T03:00:00,1051A,115.493,38.8632,保定市,游泳馆,颗粒物(PM10),64,78,78,37,43,162,34,74,58,34,19,6,5,0.4,0.4
2023-08-19T03:00:00,1052A,115.5213,38.8959,保定市,华电二区,颗粒物(PM10),73,95,84,34,34,161,62,88,78,15,14,4,4,0.6,0.6
2023-08-19T03:00:00,1053A,115.4713,38.9108,保定市,接待中心,颗粒物(PM10),69,88,89,34,32,158,55,71,62,20,16,7,7,0.7,0.7
2023-08-19T03:00:00,1054A,115.4612,38.8416,保定市,地表水厂,颗粒物(PM10),70,89,102,34,35,156,32,56,43,31,27,7,7,0.6,0.6
2023-08-19T03:00:00,1056A,115.5086,38.8639,保定市,监测站,颗粒物(PM10),66,82,84,39,37,163,45,77,66,28,18,4,5,0.4,0.3
2023-08-19T03:00:00,1057A,114.8883,40.8336,张家口市,人民公园,,24,19,25,6,8,131,76,78,77,6,10,2,3,0.1,0.1
2023-08-19T03:00:00,1059A,114.8687,40.8042,张家口市,五金库,,26,14,29,7,9,131,83,79,79,5,13,2,3,0.1,0.2
2023-08-19T03:00:00,1060A,114.8902,40.762,张家口市,世纪豪园,,24,21,28,10,14,131,74,73,73,12,16,1,2,0,0
2023-08-19T03:00:00,1061A,114.8916,40.8661,张家口市,北泵房,,25,16,21,8,8,138,80,79,79,5,7,6,7,0.1,0.2
2023-08-19T03:00:00,1062A,117.9531,40.9081,承德市,铁路,,41,41,47,10,19,128,1,2,1,57,39,8,10,0.3,0.4
2023-08-19T03:00:00,1063A,117.9392,40.9763,承德市,中国银行,,31,31,41,14,16,143,18,15,15,31,22,7,8,0.3,0.3
2023-08-19T03:00:00,1064A,117.9503,40.928,承德市,开发区,,38,38,42,18,17,146,30,52,39,35,19,5,8,0.4,0.4
2023-08-19T03:00:00,1065A,117.8051,40.9655,承德市,文化中心,,41,41,48,16,17,139,12,14,13,54,33,5,8,0.3,0.4
2023-08-19T03:00:00,1066A,117.9268,41.0026,承德市,离宫,,46,46,35,15,16,140,26,40,33,26,12,6,8,0.3,0.3
2023-08-19T03:00:00,1067A,116.6708,39.5111,廊坊市,药材公司,颗粒物(PM10),69,87,74,43,32,212,36,61,47,27,25,2,2,0.5,0.5
2023-08-19T03:00:00,1068A,116.7214,39.5589,廊坊市,开发区,颗粒物(PM10),66,81,61,43,33,181,45,79,68,21,19,1,2,0.5,0.5
2023-08-19T03:00:00,1070A,116.7244,39.5269,廊坊市,北华航天学院,细颗粒物(PM2.5),74,94,76,54,36,214,48,82,66,26,23,8,8,0.6,0.5
2023-08-19T03:00:00,1071A,116.8842,38.2991,沧州市,沧县城建局,,46,46,51,23,31,139,58,63,59,22,20,5,4,0.5,0.5
2023-08-19T03:00:00,1072A,116.8584,38.3254,沧州市,电视转播站,,50,50,49,24,31,134,49,80,69,25,17,5,6,0.5,0.5
2023-08-19T03:00:00,1073A,116.8709,38.3228,沧州市,市环保局,颗粒物(PM10),51,52,57,30,33,131,42,78,64,40,26,3,2,0.3,0.4
2023-08-19T03:00:00,1074A,115.6838,37.7541,衡水市,电机北厂,,36,36,49,17,31,127,64,51,51,12,11,2,2,0.6,0.7
2023-08-19T03:00:00,1075A,115.6303,37.7316,衡水市,市监测站,,31,31,42,16,21,124,58,52,52,16,15,4,4,0.6,0.6
2023-08-19T03:00:00,1077A,114.4704,37.0886,邢台市,达活泉,颗粒物(PM10),54,58,41,31,24,152,31,55,43,22,9,4,9,0.6,0.7
2023-08-19T03:00:00,1078A,114.5062,37.0349,邢台市,邢师高专,颗粒物(PM10),62,73,50,32,27,174,30,32,31,32,18,4,5,0.8,0.7
2023-08-19T03:00:00,1079A,114.5237,37.0851,邢台市,路桥公司,颗粒物(PM10),59,68,46,32,27,169,52,70,63,19,11,8,7,0.8,0.8
2023-08-19T03:00:00,1080A,114.4725,37.0719,邢台市,市环保局,颗粒物(PM10),56,61,46,33,27,171,42,66,50,17,10,4,4,0.6,0.6
2023-08-19T03:00:00,1081A,112.522,37.8873,太原市,尖草坪,颗粒物(PM10),64,77,115,27,42,158,36,80,55,49,25,4,7,0.5,0.7
2023-08-19T03:00:00,1083A,112.434,38.0108,太原市,上兰,,,,,,,,,,,,,,,,
2023-08-19T03:00:00,1084A,112.469,37.7124,太原市,晋源,颗粒物(PM10),91,132,117,49,48,159,76,78,77,16,29,3,6,0.6,0.8
2023-08-19T03:00:00,1085A,112.5583,37.7394,太原市,小店,颗粒物(PM10),125,200,132,61,44,153,37,56,47,42,32,6,5,0.7,0.6
2023-08-19T03:00:00,1086A,112.5369,37.8692,太原市,桃园,颗粒物(PM10),63,75,114,22,39,156,34,49,41,51,26,3,4,0.5,0.6
2023-08-19T03:00:00,1087A,112.57,37.8195,太原市,坞城,颗粒物(PM10),76,102,124,37,49,153,39,49,43,49,24,12,11,0.7,0.6
2023-08-19T03:00:00,1088A,112.549,37.9854,太原市,南寨,颗粒物(PM10),81,111,112,36,40,156,6,31,20,51,31,3,4,0.6,0.6
2023-08-19T03:00:00,1090A,111.6507,40.7517,呼和浩特市,呼市一监,,39,39,59,14,23,135,32,46,39,51,28,6,11,0.4,0.5
2023-08-19T03:00:00,1091A,111.6572,40.8033,呼和浩特市,小召,,,,,,,,,,,,,,,,
2023-08-19T03:00:00,1094A,111.7516,40.8369,呼和浩特市,如意水处理厂,,22,22,40,5,15,150,40,49,43,38,27,6,8,0.4,0.6
2023-08-19T03:00:00,1095A,111.7276,40.8062,呼和浩特市,二十九中,,34,34,50,8,20,141,31,55,41,50,30,6,9,0.5,0.6
2023-08-19T03:00:00,1096A,111.5512,40.7866,呼和浩特市,工大金川校区,,24,21,53,3,17,140,75,60,60,14,28,3,6,0.3,0.5
2023-08-19T03:00:00,1097A,111.717,40.7612,呼和浩特市,化肥厂生活区,,32,32,63,8,21,122,42,60,51,33,29,6,9,0.4,0.6
2023-08-19T03:00:00,1098A,123.6836,41.9339,沈阳市,森林路,,,,,,,,,,,,,,,,
2023-08-19T03:00:00,1099A,123.505,41.7406,沈阳市,浑南东路,,38,38,47,22,25,186,6,25,15,52,35,6,9,0.8,1.2
2023-08-19T03:00:00,1100A,123.4231,41.6989,沈阳市,新秀街,,38,38,43,18,22,182,19,22,21,45,34,5,17,0.8,1.2
2023-08-19T03:00:00,1102A,123.5903,41.8411,沈阳市,东陵路,,46,46,41,18,22,176,18,13,13,19,18,6,8,0.8,1.1
2023-08-19T03:00:00,1103A,123.4264,41.8467,沈阳市,陵东街,,35,35,37,22,24,172,12,19,13,42,25,5,9,1.0,1
2023-08-19T03:00:00,1104A,123.4114,41.7653,沈阳市,文化路,,49,49,49,28,29,194,27,25,23,43,29,7,16,0.8,1.1
2023-08-19T03:00:00,1105A,123.4678,41.7867,沈阳市,小河沿,,36,36,36,18,24,180,22,39,33,31,29,4,8,0.9,1.1
2023-08-19T03:00:00,1106A,123.4017,41.7972,沈阳市,太原街,细颗粒物(PM2.5),52,47,46,36,34,195,30,50,35,36,25,6,16,0.7,1
2023-08-19T03:00:00,1108A,123.3783,41.9228,沈阳市,京沈街,,46,46,45,30,28,198,33,54,44,34,20,7,10,1.1,1.1
2023-08-19T03:00:00,1109A,121.612,38.9741,大连市,甘井子,,46,38,41,32,32,190,101,106,102,11,16,3,4,0.7,1.3
2023-08-19T03:00:00,1110A,121.565,38.9511,大连市,周水子,细颗粒物(PM2.5),54,41,40,38,36,188,74,94,85,16,17,2,2,0.2,0.4
2023-08-19T03:00:00,1111A,121.5637,38.8845,大连市,星海三站,,50,34,36,35,38,177,84,100,92,10,12,8,7,0.5,0.6
2023-08-19T03:00:00,1112A,121.6302,38.9117,大连市,青泥洼桥,细颗粒物(PM2.5),65,45,42,47,41,191,68,87,73,10,10,4,4,1.0,0.9
2023-08-19T03:00:00,1113A,121.6251,38.8638,大连市,傅家庄,,46,34,37,32,36,186,94,113,101,10,7,8,8,0.8,0.9
2023-08-19T03:00:00,1114A,121.5213,38.8661,大连市,七贤岭,,50,31,39,35,38,217,54,66,60,9,10,5,6,0.5,0.5
2023-08-19T03:00:00,1115A,121.2529,38.8061,大连市,旅顺,,,34,35,30,29,223,113,123,117,,13,4,4,0.7,0.8
2023-08-19T03:00:00,1116A,121.7485,39.1311,大连市,金州,,38,26,35,25,34,180,119,143,129,9,12,6,6,0.7,0.8
2023-08-19T03:00:00,1117A,121.7811,39.0496,大连市,开发区,细颗粒物(PM2.5),52,42,46,36,38,182,82,92,88,14,13,6,6,0.9,1
2023-08-19T03:00:00,1118A,121.9762,39.0631,大连市,双D港,,30,30,41,20,34,183,47,47,46,9,11,5,6,0.5,0.6
2023-08-19T03:00:00,1119A,125.3325,43.9166,长春市,食品厂,,19,19,41,8,18,142,39,57,47,22,26,4,3,0.4,0.7
2023-08-19T03:00:00,1120A,125.2863,43.9027,长春市,客车厂,,19,18,37,10,18,144,23,50,36,38,20,4,4,0.4,0.6
2023-08-19T03:00:00,1121A,125.2841,43.8463,长春市,邮电学院,,13,11,34,9,17,133,37,59,48,10,13,4,5,0.4,0.6
2023-08-19T03:00:00,1122A,125.3716,43.8772,长春市,劳动公园,,17,10,34,9,15,156,52,65,57,14,15,6,6,0.4,0.6
2023-08-19T03:00:00,1123A,125.3297,43.8805,长春市,园林处,,17,12,37,7,19,131,54,56,54,16,18,2,3,0.5,0.7
2023-08-19T03:00:00,1124A,125.4605,43.79,长春市,净月潭,,12,12,25,6,11,127,38,74,54,9,9,5,5,0.3,0.5
2023-08-19T03:00:00,1125A,125.7194,43.515,长春市,甩湾子,,,,,,,,,,,,,,,,
2023-08-19T03:00:00,1126A,125.3863,43.8447,长春市,经开区环卫处,,18,18,34,6,15,145,42,66,54,12,16,4,4,0.2,0.5
2023-08-19T03:00:00,1127A,125.245,43.7783,长春市,高新区管委会,,15,14,33,10,18,145,33,61,47,19,14,3,3,0.4,0.6
2023-08-19T03:00:00,1128A,125.1761,43.8325,长春市,岱山公园,,17,17,34,7,16,144,34,52,42,32,19,3,2,0.5,0.6
2023-08-19T03:00:00,1129A,126.5422,45.755,哈尔滨市,岭北,,18,10,22,6,13,139,56,58,57,8,11,8,9,0.2,0.5
2023-08-19T03:00:00,1130A,126.561,45.8167,哈尔滨市,松北商大,,14,8,29,9,13,116,15,20,18,28,14,5,6,0.3,0.5
2023-08-19T03:00:00,1131A,126.979,45.5419,哈尔滨市,阿城会宁,,33,33,29,17,8,114,18,49,31,22,11,5,5,0.5,0.6
2023-08-19T03:00:00,1132A,126.599,45.7222,哈尔滨市,南岗学府路,,29,29,39,6,13,136,37,48,44,11,12,5,6,0.6,0.7
2023-08-19T03:00:00,1133A,126.689,45.7733,哈尔滨市,太平宏伟公园,,14,12,36,6,10,132,42,46,44,16,18,8,8,0.4,0.5
2023-08-19T03:00:00,1134A,126.635,45.7667,哈尔滨市,道外承德广场,,19,19,32,12,13,134,54,52,52,12,19,6,6,0.3,0.5
2023-08-19T03:00:00,1135A,126.685,45.7319,哈尔滨市,香坊红旗大街,,25,25,34,3,16,141,54,54,54,11,21,8,9,0.6,0.7
2023-08-19T03:00:00,1136A,126.6411,45.7258,哈尔滨市,动力和平路,,,10,33,,,138,43,49,47,19,20,7,9,0.4,0.6
2023-08-19T03:00:00,1137A,126.593,45.7478,哈尔滨市,道里建国路,,13,13,31,7,12,127,40,43,42,18,21,5,7,0.2,1
2023-08-19T03:00:00,1138A,126.615,45.61,哈尔滨市,平房东轻厂,,24,24,32,6,10,116,18,35,27,24,11,6,6,0.3,0.5
2023-08-19T03:00:00,1139A,126.595,45.9855,哈尔滨市,呼兰师专,,14,14,32,8,12,98,24,27,25,13,16,9,8,0.5,0.5
2023-08-19T03:00:00,1140A,126.6206,45.6842,哈尔滨市,省农科院,,30,30,41,5,10,137,12,54,34,47,22,11,12,0.5,0.5
2023-08-19T03:00:00,1141A,121.4,31.238,上海市,普陀,,44,44,32,21,19,128,68,66,66,13,27,5,5,0.5,0.7
2023-08-19T03:00:00,1142A,121.478,31.2036,上海市,十五厂,,50,45,30,35,22,122,64,56,56,2,11,10,10,0.4,0.4
2023-08-19T03:00:00,1143A,121.467,31.3008,上海市,虹口,,40,40,28,18,17,124,71,68,68,17,31,8,8,0.5,0.5
2023-08-19T03:00:00,1144A,121.412,31.1654,上海市,徐汇上师大,颗粒物(PM10),52,54,38,29,20,131,63,54,54,19,30,5,5,0.7,0.8
2023-08-19T03:00:00,1145A,121.536,31.2659,上海市,杨浦四漂,颗粒物(PM10),52,54,32,23,17,119,51,54,53,22,28,6,6,0.6,0.7
2023-08-19T03:00:00,1147A,121.425,31.2261,上海市,静安监测站,,43,43,32,27,21,139,76,70,70,12,25,2,2,0.7,0.7
2023-08-19T03:00:00,1148A,121.703,31.1907,上海市,浦东川沙,细颗粒物(PM2.5),52,51,28,36,19,120,46,58,51,26,25,6,6,0.7,0.7
2023-08-19T03:00:00,1149A,121.533,31.2284,上海市,浦东新区监测站,,45,45,28,21,16,114,52,51,51,17,24,2,2,0.4,0.5
2023-08-19T03:00:00,1150A,121.577,31.2071,上海市,浦东张江,,43,43,29,18,18,106,44,51,48,20,24,5,5,0.5,0.6
2023-08-19T03:00:00,1151A,118.8086,32.1065,南京市,迈皋桥,,21,21,27,9,15,214,43,56,50,30,18,4,4,0.6,0.5
2023-08-19T03:00:00,1152A,118.7538,32.0551,南京市,草场门,,25,25,31,17,16,221,45,59,51,26,19,4,3,0.7,0.7
2023-08-19T03:00:00,1153A,118.7794,32.0745,南京市,山西路,,34,34,33,17,15,232,52,73,60,23,14,3,4,0.4,0.4
2023-08-19T03:00:00,1154A,118.7752,32.0023,南京市,中华门,,29,29,28,12,17,196,35,53,43,35,20,8,8,0.9,0.9
2023-08-19T03:00:00,1155A,118.8109,32.0309,南京市,瑞金路,,29,29,31,14,18,211,38,53,45,25,16,5,3,0.5,0.4
2023-08-19T03:00:00,1156A,118.7997,32.0754,南京市,玄武湖,,32,32,28,13,12,208,41,81,54,31,16,8,8,0.6,0.6
2023-08-19T03:00:00,1157A,118.6414,32.0931,南京市,浦口,,32,32,32,9,16,211,40,62,51,27,23,5,5,0.6,0.6
2023-08-19T03:00:00,1158A,118.7356,31.9996,南京市,奥体中心,,35,29,31,24,23,204,47,66,56,31,21,9,8,0.6,0.6
2023-08-19T03:00:00,1159A,118.9125,32.1028,南京市,仙林大学城,,25,22,27,17,14,235,54,70,62,16,12,9,9,0.7,0.7
2023-08-19T03:00:00,1160A,120.561,31.2472,苏州市,上方山,,42,42,37,20,18,171,50,54,51,15,20,7,6,0.4,0.5
2023-08-19T03:00:00,1162A,120.591,31.3019,苏州市,彩香,,36,36,31,24,19,170,58,59,59,10,21,7,8,0.7,0.7
2023-08-19T03:00:00,1163A,120.596,31.3264,苏州市,轧钢厂,,42,42,33,24,18,171,58,55,55,9,26,9,10,0.6,0.7
2023-08-19T03:00:00,1164A,120.613,31.2703,苏州市,吴中区,,39,39,33,22,18,177,58,57,56,12,24,10,11,0.5,0.6
2023-08-19T03:00:00,1165A,120.543,31.2994,苏州市,苏州新区,,38,38,29,21,17,165,55,65,60,11,21,8,8,0.7,0.7
2023-08-19T03:00:00,1166A,120.669,31.3097,苏州市,苏州工业园区,,43,43,32,29,21,171,50,49,49,11,23,9,9,0.5,0.6
2023-08-19T03:00:00,1167A,120.641,31.3708,苏州市,相城区,,39,39,30,27,19,164,41,40,40,20,29,6,7,0.7,0.7
2023-08-19T03:00:00,1168A,120.9098,31.9663,南通市,狼山街道,,18,11,18,4,7,128,56,79,68,15,15,8,9,0.4,0.5
2023-08-19T03:00:00,1169A,120.86,32.0005,南通市,虹桥,,22,19,21,14,14,135,70,78,74,14,17,5,6,0.6,0.7
2023-08-19T03:00:00,1170A,120.87,32.02,南通市,城中,,22,12,17,8,9,138,70,81,76,9,13,6,6,0.6,0.7
2023-08-19T03:00:00,1171A,120.94,31.93,南通市,星湖花园,,21,11,15,2,7,114,65,73,69,12,14,5,6,0.5,0.6
2023-08-19T03:00:00,1172A,120.81,32.0417,南通市,紫琅学院,,19,19,20,7,9,142,53,82,71,18,19,5,6,0.6,0.6
2023-08-19T03:00:00,1173A,119.176,34.5885,连云港市,市环境监测站,,39,39,34,27,18,147,89,90,89,6,7,6,6,0.5,0.4
2023-08-19T03:00:00,1177A,117.179,34.2761,徐州市,黄河新村,颗粒物(PM10),51,51,44,29,26,168,103,114,109,12,12,12,8,0.5,0.5
2023-08-19T03:00:00,1178A,117.1918,34.2384,徐州市,淮塔,颗粒物(PM10),54,58,49,36,29,159,88,98,94,15,15,11,10,0.4,0.4
2023-08-19T03:00:00,1180A,117.256,34.2153,徐州市,新城区,颗粒物(PM10),53,56,47,30,26,164,105,103,103,9,10,10,8,0.5,0.5
2023-08-19T03:00:00,1181A,117.244,34.2911,徐州市,桃园路,颗粒物(PM10),51,51,42,31,25,170,94,104,98,16,15,9,8,0.5,0.5
2023-08-19T03:00:00,1182A,117.2933,34.2778,徐州市,农科院,,48,48,39,31,26,168,80,87,84,20,19,7,6,0.5,0.4
2023-08-19T03:00:00,1186A,119.389,32.3761,扬州市,邗江监测站,,38,29,37,26,22,167,48,58,53,20,20,4,5,0.5,0.6
2023-08-19T03:00:00,1188A,120.269,31.4867,无锡市,雪浪,,34,34,35,22,19,155,28,27,27,32,26,4,5,0.7,0.6
2023-08-19T03:00:00,1189A,120.275,31.6219,无锡市,黄巷,,31,31,35,19,19,139,38,44,42,37,42,7,7,0.8,0.8
2023-08-19T03:00:00,1190A,120.294,31.56,无锡市,曹张,,30,30,27,19,19,143,32,44,37,33,33,9,8,0.8,0.8
2023-08-19T03:00:00,1191A,120.242,31.5031,无锡市,漆塘,,35,31,28,24,19,176,29,22,22,43,32,5,5,0.7,0.7
2023-08-19T03:00:00,1192A,120.3489,31.5863,无锡市,东亭,,31,31,27,14,18,146,38,52,45,38,33,6,5,0.7,0.6
2023-08-19T03:00:00,1193A,120.354,31.5475,无锡市,旺庄,,36,36,30,17,21,154,38,47,42,25,27,10,9,0.9,0.8
2023-08-19T03:00:00,1194A,120.245,31.5631,无锡市,荣巷,,32,29,24,22,15,150,31,36,34,28,23,10,10,0.6,0.6
2023-08-19T03:00:00,1195A,120.299,31.6817,无锡市,堰桥,,28,24,24,19,14,128,42,46,45,25,22,7,7,1.0,0.9
2023-08-19T03:00:00,1196A,119.9633,31.762,常州市,市监测站,,41,41,34,26,24,153,34,32,32,32,31,9,9,0.6,0.6
2023-08-19T03:00:00,1200A,119.9468,31.7069,常州市,武进监测站,颗粒物(PM10),52,54,40,22,23,167,25,31,29,39,26,11,11,1.0,0.8
2023-08-19T03:00:00,1201A,119.9255,31.9087,常州市,安家,,28,28,30,19,24,158,41,38,38,25,26,7,8,0.5,0.6
2023-08-19T03:00:00,1203A,119.6707,32.1875,镇江市,新区办事处,,38,34,29,26,20,164,32,44,37,30,27,3,4,0.6,0.7
2023-08-19T03:00:00,1204A,119.4974,32.1968,镇江市,职教中心,,46,46,35,26,23,198,29,39,34,36,29,4,4,0.7,0.8
2023-08-19T03:00:00,1205A,119.4303,32.1328,镇江市,丹徒区监测站,颗粒物(PM10),51,51,42,33,34,224,36,43,40,29,24,3,3,0.8,0.9
2023-08-19T03:00:00,1206A,119.905,32.4878,泰州市,公园路,,25,19,27,17,21,136,70,76,73,11,11,4,5,0.7,0.8
2023-08-19T03:00:00,1207A,119.9189,32.4625,泰州市,莲花,,21,17,27,14,17,131,67,76,71,8,10,3,4,0.7,0.7
2023-08-19T03:00:00,1209A,119.888,32.4639,泰州市,留学生创业园,,28,28,24,18,15,132,65,75,70,11,11,5,6,0.6,0.7
2023-08-19T03:00:00,1210A,119.036,33.5981,淮安市,钵池山,,36,24,23,25,17,126,63,74,69,13,14,6,6,1.0,0.9
2023-08-19T03:00:00,1211A,119.007,33.575,淮安市,北京南路,,35,29,27,24,16,140,71,74,73,16,15,7,7,1.0,0.9
2023-08-19T03:00:00,1212A,118.989,33.6067,淮安市,市监测站,,34,34,32,17,13,142,81,82,82,10,13,6,6,0.9,0.8
2023-08-19T03:00:00,1213A,119.135,33.5039,淮安市,楚州区监测站,,40,29,23,28,17,123,62,60,60,14,13,7,7,0.9,0.8
2023-08-19T03:00:00,1214A,119.0186,33.6297,淮安市,淮阴区监测站,,38,29,31,26,18,134,70,78,75,11,13,7,8,0.7,0.6
2023-08-19T03:00:00,1215A,120.118,33.4022,盐城市,盐城电厂,,29,27,29,19,18,119,92,95,94,2,5,4,5,0.7,0.6
2023-08-19T03:00:00,1216A,120.156,33.3942,盐城市,市监测站,,36,33,26,25,17,135,93,99,95,8,8,5,5,0.6,0.6
2023-08-19T03:00:00,1218A,120.2144,33.38,盐城市,开发区管委会,,48,30,27,33,22,119,74,92,84,11,11,5,3,0.5,0.5
2023-08-19T03:00:00,1220A,118.293,33.9528,宿迁市,宿迁学院,细颗粒物(PM2.5),70,56,36,51,26,157,52,60,56,19,19,8,9,0.6,0.5
2023-08-19T03:00:00,1221A,118.2442,33.9592,宿迁市,宿迁中学,颗粒物(PM10),56,61,45,39,24,171,65,66,66,16,17,8,7,0.5,0.5
2023-08-19T03:00:00,1223A,120.2072,30.2111,杭州市,滨江,,20,20,41,12,23,225,57,63,60,9,19,6,7,0.5,0.6
2023-08-19T03:00:00,1224A,120.0633,30.2747,杭州市,西溪,,29,29,38,15,20,244,17,36,27,15,15,4,4,0.8,0.8
2023-08-19T03:00:00,1226A,120.3461,30.3153,杭州市,下沙,,31,31,38,15,22,201,58,50,50,19,31,4,4,0.6,0.6
2023-08-19T03:00:00,1227A,120.1269,30.2456,杭州市,卧龙桥,,23,23,34,13,23,265,14,16,15,13,16,3,4,0.4,0.5
2023-08-19T03:00:00,1228A,120.1903,30.2692,杭州市,浙江农大,,23,21,30,16,24,222,62,70,65,14,20,7,8,0.4,0.5
2023-08-19T03:00:00,1230A,120.1197,30.3119,杭州市,和睦小学,,25,25,36,16,23,245,71,83,77,18,26,8,9,0.5,0.6
2023-08-19T03:00:00,1231A,120.3019,30.4183,杭州市,临平镇,,31,31,61,15,22,201,55,54,54,25,25,5,5,0.6,0.7
2023-08-19T03:00:00,1232A,120.2697,30.1819,杭州市,城厢镇,,22,20,35,15,25,221,64,61,61,13,21,6,7,0.5,0.6
2023-08-19T03:00:00,1233A,120.0883,30.1808,杭州市,云栖,,25,25,31,12,17,256,12,14,13,17,16,6,6,0.5,0.6
2023-08-19T03:00:00,1234A,121.8358,29.911,宁波市,区环保大楼,,21,21,24,14,15,100,39,72,58,29,32,2,6,0.6,0.7
2023-08-19T03:00:00,1235A,121.56,29.82,宁波市,万里学院,,33,30,29,23,16,147,45,21,21,23,31,5,5,0.7,0.7
2023-08-19T03:00:00,1236A,121.713,29.9572,宁波市,龙赛医院,,18,18,32,11,14,140,56,77,65,12,26,6,9,0.5,0.7
2023-08-19T03:00:00,1239A,121.633,29.7733,宁波市,钱湖水厂,,30,30,28,14,14,113,26,36,30,7,12,5,5,0.7,0.7
2023-08-19T03:00:00,1240A,121.5856,29.8635,宁波市,太古小学,,28,28,22,16,12,117,39,56,45,25,26,5,5,1.0,1
2023-08-19T03:00:00,1241A,121.524,29.8674,宁波市,市环境监测中心,,30,30,25,17,11,147,39,44,41,26,23,5,6,0.5,0.5
2023-08-19T03:00:00,1242A,120.634,28.0089,温州市,瓯海,,30,11,24,5,14,115,95,88,88,12,20,5,5,0.5,0.6
2023-08-19T03:00:00,1243A,120.6748,27.9939,温州市,南浦,,35,6,23,6,15,118,110,105,105,8,17,6,6,0.4,0.5
2023-08-19T03:00:00,1244A,120.76,27.9747,温州市,龙湾,,31,6,17,1,8,119,98,107,103,15,21,6,6,0.5,0.5
2023-08-19T03:00:00,1245A,120.6709,28.0167,温州市,市站,,28,4,20,4,13,100,89,86,86,12,16,4,5,0.4,0.5
2023-08-19T03:00:00,1247A,120.6053,29.9928,绍兴市,城东开发委,,25,25,21,14,12,140,37,44,41,17,15,5,5,0.4,0.4
2023-08-19T03:00:00,1250A,120.0751,30.8669,湖州市,城西水厂,"颗粒物(PM10),细颗粒物(PM2.5)",52,54,39,36,27,232,45,69,56,24,23,3,3,0.6,0.6
2023-08-19T03:00:00,1252A,120.7436,30.778,嘉兴市,清河小学,,30,30,26,16,13,173,59,70,62,8,16,5,5,0.8,0.8
2023-08-19T03:00:00,1253A,120.726,30.7478,嘉兴市,嘉兴学院,,29,24,26,20,19,195,69,71,69,11,19,4,4,0.5,0.5
2023-08-19T03:00:00,1255A,121.273,28.6459,台州市,黄岩环保大楼,,18,18,27,12,17,137,41,53,46,11,17,3,4,0.5,0.5
2023-08-19T03:00:00,1256A,121.419,28.6542,台州市,台州环保大楼,,25,25,29,10,16,128,51,46,46,10,21,4,4,0.4,0.6
2023-08-19T03:00:00,1257A,121.377,28.5773,台州市,路桥田洋王,,22,10,24,9,16,130,70,51,51,8,21,3,4,0.3,0.4
2023-08-19T03:00:00,1258A,122.122,30.0203,舟山市,定海檀枫,,26,22,29,18,21,105,26,30,28,14,14,6,6,0.4,0.5
2023-08-19T03:00:00,1259A,122.3094,29.9558,舟山市,普陀东港,,25,25,28,17,18,109,33,56,42,25,16,4,5,0.4,0.4
2023-08-19T03:00:00,1260A,122.19,29.9944,舟山市,临城新区,,26,26,30,18,16,117,20,27,23,14,14,5,6,0.4,0.4
2023-08-19T03:00:00,1262A,119.647,29.077,金华市,十五中,,24,24,29,13,15,179,50,56,54,19,17,3,3,0.5,0.5
2023-08-19T03:00:00,1263A,119.686,29.1029,金华市,监测站,,28,28,32,17,17,177,42,48,46,26,21,4,4,0.6,0.6
2023-08-19T03:00:00,1264A,118.8692,28.9398,衢州市,环保大楼,,22,22,32,12,21,154,58,60,59,17,17,4,4,0.5,0.6
2023-08-19T03:00:00,1265A,118.8709,28.9666,衢州市,实验学校,,24,24,39,12,21,146,69,82,76,15,16,4,5,0.5,0.5
2023-08-19T03:00:00,1266A,118.8621,28.9808,衢州市,衢州学院,,21,19,30,10,19,141,67,76,70,17,18,4,4,0.4,0.5
2023-08-19T03:00:00,1267A,119.914,28.4514,丽水市,监测站大楼,,13,13,23,7,11,136,38,71,53,20,13,5,5,0.6,0.6
2023-08-19T03:00:00,1268A,119.93,28.4586,丽水市,莲都小学,,16,15,28,6,12,136,49,73,62,11,10,5,5,0.5,0.5
2023-08-19T03:00:00,1269A,119.879,28.4231,丽水市,余庄前,,29,29,25,9,12,129,20,24,23,13,12,5,5,0.5,0.5
2023-08-19T03:00:00,1270A,117.1959,31.7848,合肥市,明珠广场,,34,34,42,22,26,189,89,108,98,29,25,9,7,0.9,0.8
2023-08-19T03:00:00,1271A,117.3072,31.8764,合肥市,三里街,,39,34,36,27,26,152,94,104,100,21,19,5,6,0.5,0.5
2023-08-19T03:00:00,1272A,117.2588,31.8707,合肥市,琥珀山庄,,35,29,35,19,25,171,109,123,113,17,15,5,6,0.8,0.8
2023-08-19T03:00:00,1273A,117.1604,31.9052,合肥市,董铺水库,,41,41,35,17,20,162,90,119,101,23,15,14,9,0.7,0.6
2023-08-19T03:00:00,1274A,117.25,31.8571,合肥市,长江中路,,34,34,43,21,26,169,106,115,108,15,15,8,8,0.7,0.7
2023-08-19T03:00:00,1275A,117.266,31.9436,合肥市,庐阳区,,41,41,39,27,26,151,89,110,100,25,19,6,5,0.7,0.6
2023-08-19T03:00:00,1276A,117.336,31.8586,合肥市,瑶海区,,44,44,42,16,21,156,96,103,98,14,15,5,5,0.9,0.8
2023-08-19T03:00:00,1277A,117.3027,31.7964,合肥市,包河区,,39,34,43,27,29,168,60,65,62,54,40,8,7,0.8,0.7
2023-08-19T03:00:00,1278A,117.2776,31.7385,合肥市,滨湖新区,,36,36,39,24,23,164,93,109,102,22,16,10,7,1.1,0.9
2023-08-19T03:00:00,1279A,117.1318,31.8403,合肥市,高新区,,38,34,40,26,26,186,106,124,114,20,20,11,10,0.8,0.8
2023-08-19T03:00:00,1280A,119.3903,26.0543,福州市,鼓山,,,,,,,,,,,,,,,,
2023-08-19T03:00:00,1282A,119.2681,26.0504,福州市,师大,,28,0,25,0,10,172,87,98,92,7,11,4,4,0.2,0.3
2023-08-19T03:00:00,1283A,119.2984,26.1028,福州市,五四北路,,26,0,24,0,10,171,82,100,92,7,12,2,3,0.3,0.4
2023-08-19T03:00:00,1284A,119.2648,26.0768,福州市,杨桥西路,,25,8,28,0,10,167,80,92,87,5,11,3,3,0.2,0.2
2023-08-19T03:00:00,1285A,119.317,26.0746,福州市,紫阳,,25,7,24,1,10,167,80,99,89,7,11,3,3,0.3,0.4
2023-08-19T03:00:00,1286A,118.1608,24.8169,厦门市,溪东,,,,,,,,,,,,,,,,
2023-08-19T03:00:00,1287A,118.1514,24.4767,厦门市,洪文,,30,30,20,20,19,98,44,64,54,16,10,1,1,0.3,0.2
2023-08-19T03:00:00,1288A,118.0661,24.4444,厦门市,鼓浪屿,,26,26,20,14,13,110,39,54,43,23,14,1,2,0.4,0.4
2023-08-19T03:00:00,1290A,115.8931,28.6843,南昌市,省外办,,50,50,44,27,28,160,91,100,97,20,15,4,5,0.7,0.7
2023-08-19T03:00:00,1291A,115.8886,28.7003,南昌市,省林业公司,颗粒物(PM10),56,61,39,27,25,160,83,92,88,27,16,6,8,0.7,0.7
2023-08-19T03:00:00,1292A,115.8126,28.7442,南昌市,林科所,,39,27,28,24,20,171,123,124,122,9,10,8,6,0.6,0.7
2023-08-19T03:00:00,1294A,115.8518,28.687,南昌市,建工学校,,37,36,40,12,19,181,116,127,123,9,9,8,8,0.8,0.8
2023-08-19T03:00:00,1295A,115.8921,28.6424,南昌市,象湖,,39,36,33,27,26,177,114,124,121,13,11,6,7,0.7,0.7
2023-08-19T03:00:00,1296A,115.7423,28.7996,南昌市,武术学校,,30,19,19,21,21,153,24,49,35,7,7,6,6,0.4,0.5
2023-08-19T03:00:00,1298A,115.9314,28.6842,南昌市,省站,,45,45,40,24,25,181,104,117,113,12,9,8,7,0.7,0.7
2023-08-19T03:00:00,1299A,116.9862,36.6114,济南市,科干所,细颗粒物(PM2.5),80,92,85,59,51,179,7,10,9,41,28,7,7,1.0,0.7
2023-08-19T03:00:00,1300A,116.9376,36.665,济南市,农科所,颗粒物(PM10),58,66,68,37,39,158,4,4,4,47,31,9,9,0.6,0.5
2023-08-19T03:00:00,1301A,117.1265,36.6734,济南市,开发区,细颗粒物(PM2.5),62,71,67,44,38,192,63,59,59,27,33,4,5,0.8,0.8
2023-08-19T03:00:00,1303A,117.0624,36.6868,济南市,省种子仓库,细颗粒物(PM2.5),70,78,71,51,41,186,14,32,24,56,28,4,5,0.8,0.7
2023-08-19T03:00:00,1304A,116.9489,36.6447,济南市,机床二厂,颗粒物(PM10),79,107,81,56,42,181,8,13,9,61,36,5,7,0.9,0.9
2023-08-19T03:00:00,1305A,117.0495,36.663,济南市,市监测站,细颗粒物(PM2.5),74,90,71,54,44,185,14,94,51,64,32,2,3,0.8,0.7
2023-08-19T03:00:00,1306A,116.7675,36.5484,济南市,长清党校,细颗粒物(PM2.5),80,83,74,59,48,173,4,14,9,49,28,6,6,0.8,0.7
2023-08-19T03:00:00,1307A,120.6659,36.2403,青岛市,仰口,,42,31,33,29,25,134,100,105,101,4,7,6,6,0.6,0.8
2023-08-19T03:00:00,1310A,120.4134,36.0658,青岛市,市南区东部子站,,32,27,23,22,18,143,91,101,97,10,12,5,7,0.6,0.7
2023-08-19T03:00:00,1311A,120.3664,36.1032,青岛市,四方区子站,,35,24,26,22,17,153,111,115,113,4,11,5,7,0.6,0.7
2023-08-19T03:00:00,1312A,120.2994,36.054,青岛市,市南区西部子站,,46,46,32,27,17,133,82,96,91,25,20,9,9,0.6,0.7
2023-08-19T03:00:00,1313A,120.4581,36.0858,青岛市,崂山区子站,,35,34,24,24,20,151,88,103,96,8,12,7,8,0.4,0.5
2023-08-19T03:00:00,1314A,120.1983,35.9608,青岛市,黄岛区子站,,37,31,24,22,20,155,116,114,114,8,13,5,6,0.7,0.7
2023-08-19T03:00:00,1315A,120.3999,36.3083,青岛市,城阳区子站,,41,41,43,17,19,193,96,102,99,14,22,5,7,0.6,0.7
2023-08-19T03:00:00,1316A,113.69031,34.76122,郑州市,烟厂,细颗粒物(PM2.5),62,57,65,44,42,220,98,109,103,14,19,1,2,0.7,0.8
2023-08-19T03:00:00,1317A,113.65724,34.77134,郑州市,郑纺机,,,47,67,,,214,108,121,117,17,19,1,2,0.9,1
2023-08-19T03:00:00,1318A,113.67526,34.80246,郑州市,银行学校,,47,47,60,27,34,220,110,128,122,12,16,2,3,0.7,0.8
2023-08-19T03:00:00,1319A,113.56746,34.81334,郑州市,供水公司,细颗粒物(PM2.5),52,52,76,36,38,218,102,133,119,23,22,1,1,0.6,0.7
2023-08-19T03:00:00,1320A,113.7329,34.7178,郑州市,经开区管委,细颗粒物(PM2.5),64,69,64,46,37,190,84,101,90,11,13,3,3,0.6,0.7
2023-08-19T03:00:00,1321A,113.73961,34.77172,郑州市,四十七中,,,,,,,,,,,,,,,,
2023-08-19T03:00:00,1322A,113.60532,34.74838,郑州市,市监测站,颗粒物(PM10),56,62,74,38,40,207,115,115,111,15,19,3,3,0.6,0.7
2023-08-19T03:00:00,1323A,113.64164,34.7525,郑州市,河医大,颗粒物(PM10),51,52,69,35,38,195,124,110,110,5,16,2,3,0.7,0.8
2023-08-19T03:00:00,1324A,113.51488,34.91089,郑州市,岗李水库,,,,,,,,,,,,,,,,
2023-08-19T03:00:00,1325A,114.3677,30.5584,武汉市,东湖梨园,,36,36,40,24,26,203,82,82,82,22,20,8,9,0.8,1
2023-08-19T03:00:00,1326A,114.2529,30.558,武汉市,汉阳月湖,,34,34,40,19,21,178,70,97,85,25,21,9,9,0.9,0.8
2023-08-19T03:00:00,1327A,114.282,30.6189,武汉市,汉口花桥,,33,33,39,22,26,174,84,101,94,17,15,5,5,0.7,0.6
2023-08-19T03:00:00,1328A,114.3025,30.5332,武汉市,武昌紫阳,,40,40,43,17,36,193,80,86,84,19,21,9,9,0.8,1
2023-08-19T03:00:00,1329A,114.3646,30.6217,武汉市,青山钢花,细颗粒物(PM2.5),52,36,40,36,28,177,79,109,95,26,21,12,8,1.4,0.7
2023-08-19T03:00:00,1330A,114.1566,30.4825,武汉市,沌口新区,,43,43,43,29,33,222,78,90,84,22,22,8,7,0.9,0.8
2023-08-19T03:00:00,1331A,114.3014,30.5944,武汉市,汉口江滩,,29,29,39,15,24,182,90,87,87,14,21,6,6,0.5,0.6
2023-08-19T03:00:00,1333A,114.135,30.6319,武汉市,吴家山,,37,37,41,22,23,173,101,112,108,11,16,7,7,0.7,0.6
2023-08-19T03:00:00,1334A,113.8454,30.2917,武汉市,沉湖七壕,颗粒物(PM10),51,52,44,22,25,202,69,67,67,20,18,7,7,0.8,0.9
2023-08-19T03:00:00,1335A,113.0833,28.2325,长沙市,经开区环保局,颗粒物(PM10),52,53,42,34,26,163,96,139,118,15,10,6,5,0.6,0.5
2023-08-19T03:00:00,1336A,112.8872,28.2189,长沙市,高开区环保局,细颗粒物(PM2.5),57,56,53,40,35,186,120,121,117,7,15,6,6,0.8,0.8
2023-08-19T03:00:00,1337A,113.0792,28.2053,长沙市,马坡岭,细颗粒物(PM2.5),59,59,52,42,33,173,111,130,123,8,7,7,5,0.5,0.5
2023-08-19T03:00:00,1338A,112.9394,28.19,长沙市,湖南师范大学,细颗粒物(PM2.5),54,52,47,38,35,194,106,116,112,12,14,3,2,0.6,0.6
2023-08-19T03:00:00,1339A,113.0178,28.1322,长沙市,雨花区环保局,,47,47,47,30,27,188,117,136,130,16,18,6,6,0.4,0.5
2023-08-19T03:00:00,1340A,112.9792,28.2597,长沙市,伍家岭,颗粒物(PM10),54,58,51,22,28,192,85,84,84,29,21,4,2,0.6,0.6
2023-08-19T03:00:00,1341A,113.0014,28.1944,长沙市,火车新站,细颗粒物(PM2.5),58,52,42,41,32,182,94,97,93,20,11,6,5,0.7,0.7
2023-08-19T03:00:00,1342A,112.9844,28.1178,长沙市,天心区环保局,,48,48,43,32,32,169,120,123,122,13,20,4,4,0.6,0.6
2023-08-19T03:00:00,1343A,112.8908,28.1308,长沙市,湖南中医药大学,细颗粒物(PM2.5),60,54,54,43,33,205,102,99,97,13,16,2,2,1.0,0.9
2023-08-19T03:00:00,1344A,112.9581,28.3611,长沙市,沙坪,,49,47,42,34,29,171,105,116,112,10,8,10,8,0.7,0.6
2023-08-19T03:00:00,1345A,113.2347,23.1423,广州市,广雅中学,颗粒物(PM10),51,52,49,34,30,104,4,6,5,68,50,6,5,1.2,1
2023-08-19T03:00:00,1346A,113.2612,23.105,广州市,市五中,颗粒物(PM10),53,55,48,31,32,100,4,22,10,75,41,6,5,1.0,0.9
2023-08-19T03:00:00,1348A,113.3478,23.0916,广州市,广东商学院,细颗粒物(PM2.5),59,62,54,42,34,87,5,12,7,72,52,4,4,1.0,0.9
2023-08-19T03:00:00,1349A,113.4332,23.1047,广州市,市八十六中,颗粒物(PM10),65,79,63,42,35,141,2,13,6,77,53,5,6,1.1,1
2023-08-19T03:00:00,1350A,113.3505,22.9483,广州市,番禺中学,细颗粒物(PM2.5),53,53,41,37,26,127,38,28,28,33,32,4,5,0.9,0.8
2023-08-19T03:00:00,1351A,113.2146,23.3916,广州市,花都师范,,34,34,39,23,27,125,24,41,35,34,37,6,7,0.9,0.8
2023-08-19T03:00:00,1352A,113.2597,23.1331,广州市,市监测站,,49,49,44,26,28,110,4,9,5,75,48,8,8,1.0,0.9
2023-08-19T03:00:00,1353A,113.5618,23.312,广州市,九龙镇镇龙,,48,46,42,33,28,151,5,5,5,48,30,6,5,0.8,0.7
2023-08-19T03:00:00,1354A,113.2765,23.1544,广州市,麓湖,,50,50,46,30,27,94,3,5,4,52,43,6,5,0.9,1
2023-08-19T03:00:00,1355A,113.443,23.3035,广州市,帽峰山森林公园,,43,43,35,20,23,154,10,25,17,41,23,6,6,0.7,0.6
2023-08-19T03:00:00,1356A,114.1063,22.5545,深圳市,通心岭子站,,,42,27,30,18,113,,,,42,22,4,4,0.7,0.8
2023-08-19T03:00:00,1357A,114.117,22.5625,深圳市,洪湖,,47,47,34,26,20,99,11,16,14,28,25,5,5,0.9,0.9
2023-08-19T03:00:00,1358A,113.987,22.5417,深圳市,华侨城,,48,40,31,33,20,73,10,26,17,33,30,7,6,0.8,0.7
2023-08-19T03:00:00,1359A,113.9181,22.5171,深圳市,南海子站,,,33,52,22,26,53,,,,22,36,4,4,1.0,1
2023-08-19T03:00:00,1360A,114.2458,22.5689,深圳市,盐田,,30,30,26,17,14,108,2,2,2,57,35,5,4,0.7,0.7
2023-08-19T03:00:00,1361A,114.2283,22.7244,深圳市,龙岗,,34,34,30,23,17,179,26,19,19,40,32,7,7,0.9,0.9
2023-08-19T03:00:00,1363A,114.494,22.5422,深圳市,南澳,,30,30,20,16,8,109,14,20,18,20,20,6,6,0.8,0.8
2023-08-19T03:00:00,1364A,114.41,22.6342,深圳市,葵涌,,37,37,27,15,14,142,6,17,10,26,25,3,3,0.7,0.7
2023-08-19T03:00:00,1365A,114.297,22.5978,深圳市,梅沙,,40,40,29,23,14,100,10,12,11,19,21,5,5,0.7,0.7
2023-08-19T03:00:00,1366A,114.0678,22.738,深圳市,观澜,颗粒物(PM10),60,70,43,38,22,167,0,1,0,59,39,8,8,1.0,0.7
2023-08-19T03:00:00,1367A,113.5814,22.2618,珠海市,吉大,,30,30,30,8,19,70,33,30,30,16,19,7,5,0.8,0.6
2023-08-19T03:00:00,1368A,113.4881,22.2335,珠海市,前山,,29,29,35,15,17,73,36,36,36,15,22,9,8,0.5,0.5
2023-08-19T03:00:00,1369A,113.628,22.4251,珠海市,唐家,,29,29,29,13,18,76,22,24,21,14,12,7,5,0.6,0.4
2023-08-19T03:00:00,1370A,113.299,22.2281,珠海市,斗门,,23,23,29,10,12,71,51,56,55,6,13,5,6,0.5,0.5
2023-08-19T03:00:00,1371A,113.1294,23.0067,佛山市,湾梁,,33,24,35,23,25,86,37,25,25,40,35,6,5,0.6,0.6
2023-08-19T03:00:00,1372A,113.1083,23.0478,佛山市,华材职中,,46,46,41,30,29,80,3,4,4,64,39,9,8,0.6,0.5
2023-08-19T03:00:00,1373A,113.144,23.0453,佛山市,南海气象局,,49,49,46,28,28,61,4,5,4,49,30,6,5,0.8,0.7
2023-08-19T03:00:00,1374A,113.2881,22.8094,佛山市,顺德苏岗,,45,24,25,31,27,142,28,27,27,23,22,6,6,0.8,0.8
2023-08-19T03:00:00,1376A,112.8383,22.8678,佛山市,高明孔堂,,39,39,42,23,33,119,24,28,26,23,17,6,7,0.5,0.4
2023-08-19T03:00:00,1377A,112.8836,23.1588,佛山市,三水监测站,,34,34,45,19,28,92,14,12,12,45,32,5,4,0.7,0.7
2023-08-19T03:00:00,1378A,112.867,23.185,佛山市,三水云东海,,45,45,42,22,35,87,3,2,2,36,31,5,8,0.7,0.6
2023-08-19T03:00:00,1379A,113.3769,22.5211,中山市,华柏园,,34,34,39,19,23,143,23,31,27,18,19,3,4,0.6,0.6
2023-08-19T03:00:00,1380A,113.3881,22.5497,中山市,张溪,,44,44,44,20,29,183,11,31,23,29,20,4,4,0.7,0.6
2023-08-19T03:00:00,1381A,113.4075,22.5111,中山市,紫马岭,,33,33,33,20,27,123,25,27,26,9,14,6,4,0.4,0.4
2023-08-19T03:00:00,1382A,113.4411,22.4853,中山市,长江旅游区,,,,,,,,,,,,,,,,
2023-08-19T03:00:00,1383A,113.1064,22.6058,江门市,北街,,32,30,44,22,34,123,50,40,40,9,17,5,5,0.4,0.5
2023-08-19T03:00:00,1384A,113.0731,22.5835,江门市,西区,,39,39,45,25,25,117,54,58,56,16,18,6,6,0.5,0.6
2023-08-19T03:00:00,1385A,113.0219,22.5311,江门市,圭峰西,,34,34,42,17,24,117,51,62,56,8,11,3,3,0.7,0.7
2023-08-19T03:00:00,1386A,113.0828,22.5947,江门市,东湖,,35,35,45,23,25,120,56,59,58,10,13,7,7,0.5,0.6
2023-08-19T03:00:00,1389A,113.7547,23.0494,东莞市,莞城梨川,细颗粒物(PM2.5),68,63,48,49,32,188,28,45,34,43,32,9,9,1.0,0.9
2023-08-19T03:00:00,1390A,113.7944,23.0128,东莞市,东城石井,"颗粒物(PM10),细颗粒物(PM2.5)",54,57,44,38,28,160,12,22,18,34,25,6,6,0.9,0.9
2023-08-19T03:00:00,1391A,113.7383,22.9658,东莞市,南城西平,细颗粒物(PM2.5),69,74,45,50,31,178,3,28,14,66,34,6,6,1.0,0.9
2023-08-19T03:00:00,1392A,114.4183,23.0528,惠州市,河南岸金山湖子站,,34,34,30,15,15,116,46,54,49,18,20,4,4,0.5,0.5
2023-08-19T03:00:00,1393A,114.4053,23.0822,惠州市,下埔横江三路子站,,27,27,29,18,18,125,69,68,67,11,18,4,4,0.7,0.7
2023-08-19T03:00:00,1394A,114.4103,23.1142,惠州市,江北云山西路子站,,27,27,30,16,18,133,68,73,70,9,16,5,5,0.6,0.6
2023-08-19T03:00:00,1395A,114.4645,22.7833,惠州市,惠阳区承修路船湖子站,,39,39,35,24,17,121,29,38,35,21,19,4,4,0.6,0.7
2023-08-19T03:00:00,1396A,114.5317,22.7422,惠州市,大亚湾管委会子站,颗粒物(PM10),54,58,36,21,18,138,7,38,20,54,33,5,4,0.8,0.8
2023-08-19T03:00:00,1397A,112.4267,23.0706,肇庆市,睦岗子站,,,37,39,24,23,91,6,11,9,35,28,10,11,,0.7
2023-08-19T03:00:00,1398A,112.4645,23.0475,肇庆市,城中子站,,33,32,33,23,22,83,11,14,12,30,24,9,12,0.6,0.7
2023-08-19T03:00:00,1399A,112.5544,23.1522,肇庆市,坑口子站,,26,26,30,14,19,79,27,34,32,14,19,4,7,0.3,0.4
2023-08-19T03:00:00,1400A,112.4753,23.1,肇庆市,七星岩子站,,,,,,,,,,,,,,,,
2023-08-19T03:00:00,1401A,108.3103,22.7881,南宁市,二十一中,,39,39,30,24,18,80,34,24,24,32,29,3,4,0.8,0.8
2023-08-19T03:00:00,1402A,108.3141,22.8528,南宁市,北湖,颗粒物(PM10),53,56,34,28,19,89,8,10,9,31,19,7,5,0.9,0.8
2023-08-19T03:00:00,1403A,108.3206,22.8225,南宁市,市监测站,,40,40,29,27,17,85,28,46,40,37,29,6,6,0.8,0.7
2023-08-19T03:00:00,1404A,108.3829,22.8037,南宁市,大自然花园,,38,38,25,26,16,79,13,19,15,23,19,5,5,0.8,0.7
2023-08-19T03:00:00,1405A,108.4394,22.7904,南宁市,仙葫,,30,30,22,20,11,87,32,22,22,25,23,4,4,0.7,0.6
2023-08-19T03:00:00,1406A,108.2397,22.8467,南宁市,区农职院,,48,48,32,20,16,183,8,8,7,26,20,11,9,0.6,0.6
2023-08-19T03:00:00,1407A,108.3275,22.735,南宁市,英华嘉园,,43,43,54,12,20,71,9,4,4,46,32,5,5,0.7,0.8
2023-08-19T03:00:00,1408A,108.2257,22.7757,南宁市,沙井镇街道办,颗粒物(PM10),53,55,31,24,18,71,2,1,1,26,24,11,6,0.6,0.6
2023-08-19T03:00:00,1409A,110.576,19.9507,海口市,东寨港,,,,,,,,,,,,,,,,
2023-08-19T03:00:00,1410A,110.3232,20.0574,海口市,海南大学,,26,26,25,14,14,114,25,38,31,14,12,6,6,0.5,0.4
2023-08-19T03:00:00,1411A,110.283,20.0053,海口市,秀英海南医院,,27,27,27,15,15,97,24,24,24,14,18,6,6,0.5,0.4
2023-08-19T03:00:00,1412A,110.338,19.9969,海口市,海南师范大学,,23,23,27,12,15,102,25,27,25,12,11,8,8,0.4,0.4
2023-08-19T03:00:00,1413A,110.33,20.0356,海口市,龙华路环保局宿舍,,26,26,24,15,14,99,26,32,28,12,10,7,7,0.4,0.4
2023-08-19T03:00:00,1414A,106.3787,29.8279,重庆市,缙云山,,50,50,51,9,23,176,90,97,93,8,12,11,11,0.2,0.4
2023-08-19T03:00:00,1416A,106.4213,29.8253,重庆市,天生,,48,47,50,33,35,160,40,36,36,20,33,5,7,1.0,1
2023-08-19T03:00:00,1417A,106.6263,29.7228,重庆市,两路,,39,37,49,27,38,267,80,82,81,17,39,6,7,0.9,1.1
2023-08-19T03:00:00,1418A,106.2953,29.5983,重庆市,虎溪,,45,36,53,31,45,154,58,66,61,10,24,4,4,0.7,0.8
2023-08-19T03:00:00,1419A,106.5777,29.5102,重庆市,南坪,,46,46,54,29,38,211,70,69,68,16,22,10,9,0.7,0.8
2023-08-19T03:00:00,1420A,106.6556,29.6277,重庆市,唐家沱,,40,36,48,28,34,278,56,74,64,35,38,6,6,0.5,0.6
2023-08-19T03:00:00,1421A,106.6349,29.4906,重庆市,茶园,,33,33,51,19,29,243,76,75,75,15,25,5,5,0.7,0.8
2023-08-19T03:00:00,1422A,106.3754,29.4572,重庆市,白市驿,,32,30,49,22,33,223,80,87,83,11,16,8,9,0.7,0.8
2023-08-19T03:00:00,1425A,106.6205,29.7166,重庆市,空港,,43,43,56,25,34,254,94,96,95,15,35,8,8,0.9,1
2023-08-19T03:00:00,1426A,106.4782,29.4875,重庆市,新山村,,36,36,58,24,39,177,73,81,77,16,27,9,7,0.5,0.6
2023-08-19T03:00:00,1427A,106.5616,29.6453,重庆市,礼嘉,,40,37,56,28,32,221,55,52,52,23,39,8,9,0.9,1
2023-08-19T03:00:00,1428A,106.4522,29.7091,重庆市,蔡家,,50,50,63,27,33,190,54,64,58,20,29,6,6,0.8,0.9
2023-08-19T03:00:00,1429A,106.5093,29.3917,重庆市,鱼新街,,32,32,47,20,33,195,66,63,63,14,31,5,6,0.9,1
2023-08-19T03:00:00,1431A,103.9728,30.7236,成都市,金泉两河,,32,32,50,8,24,124,61,51,51,4,17,3,5,0.3,0.5
2023-08-19T03:00:00,1432A,104.176,30.6872,成都市,十里店,,38,38,55,22,27,118,76,60,60,6,21,3,5,0.4,0.5
2023-08-19T03:00:00,1433A,104.079,30.5706,成都市,三瓦窑,,46,46,56,30,28,122,11,25,15,33,30,2,2,0.3,0.4
2023-08-19T03:00:00,1434A,104.1114,30.63,成都市,沙河铺,颗粒物(PM10),52,54,62,32,31,118,61,45,45,12,25,3,4,0.4,0.5
2023-08-19T03:00:00,1437A,104.0786,30.6531,成都市,君平街,,42,42,62,24,34,133,69,52,52,13,23,3,3,0.4,0.6
2023-08-19T03:00:00,1438A,103.613,31.0283,成都市,灵岩寺,,27,27,30,15,17,87,59,58,58,7,6,11,13,0.7,0.7
2023-08-19T03:00:00,1439A,106.6899,26.5998,贵阳市,马鞍山,,27,27,26,9,10,111,32,40,36,18,12,6,5,0.6,0.6
2023-08-19T03:00:00,1440A,106.6971,26.5694,贵阳市,市环保站,颗粒物(PM10),51,51,32,29,22,118,33,52,46,42,23,4,3,0.4,0.3
2023-08-19T03:00:00,1441A,106.6243,26.6266,贵阳市,鉴湖路,,31,31,27,12,12,111,55,59,58,22,14,4,4,0.5,0.5
2023-08-19T03:00:00,1442A,106.7487,26.6343,贵阳市,燕子冲,,44,44,26,17,15,112,29,42,37,30,14,5,5,0.6,0.6
2023-08-19T03:00:00,1443A,106.6555,26.4365,贵阳市,碧云窝,,36,36,38,14,17,122,13,33,22,17,13,5,6,0.6,0.5
2023-08-19T03:00:00,1444A,106.694,26.5161,贵阳市,中院村,颗粒物(PM10),51,51,36,27,18,106,4,13,7,51,23,6,6,0.5,0.4
2023-08-19T03:00:00,1445A,106.7109,26.6027,贵阳市,红边门,,46,46,32,24,22,111,44,47,46,30,18,5,6,0.7,0.6
2023-08-19T03:00:00,1446A,106.7164,26.5699,贵阳市,新华路,,42,41,34,29,19,114,37,39,34,27,16,7,6,0.5,0.4
2023-08-19T03:00:00,1447A,106.674,26.5424,贵阳市,太慈桥,,32,29,21,22,13,109,7,16,12,34,17,3,4,0.6,0.6
2023-08-19T03:00:00,1450A,102.8204,24.8886,昆明市,呈贡新区,,48,48,40,16,22,114,34,64,54,49,28,8,8,0.7,0.7
2023-08-19T03:00:00,1451A,102.6251,24.9608,昆明市,西山森林公园,,36,12,20,1,14,154,115,113,113,6,13,6,7,0.1,0.4
2023-08-19T03:00:00,1452A,102.7252,25.0902,昆明市,龙泉镇,,23,23,24,11,13,138,17,56,30,37,17,10,11,0.8,0.7
2023-08-19T03:00:00,1453A,102.7266,25.0375,昆明市,东风东路,,26,26,31,13,15,132,54,85,68,21,25,13,8,0.5,0.5
2023-08-19T03:00:00,1454A,102.6742,25.0669,昆明市,金鼎山,,28,28,42,11,17,134,51,72,60,18,15,10,19,0.5,0.6
2023-08-19T03:00:00,1455A,102.6644,25.0401,昆明市,碧鸡广场,,21,21,36,10,21,149,63,66,65,17,23,5,27,0.6,0.7
2023-08-19T03:00:00,1456A,91.1319,29.6514,拉萨市,八廓街,,19,11,13,7,7,111,58,67,61,8,17,6,7,0.2,0.2
2023-08-19T03:00:00,1457A,91.1221,29.6747,拉萨市,市环保局,,24,24,14,9,7,106,45,45,45,22,15,8,7,0.3,0.2
2023-08-19T03:00:00,1458A,91.0874,29.6475,拉萨市,区监测站,,16,16,11,6,6,102,47,54,51,28,15,10,9,0.3,0.2
2023-08-19T03:00:00,1459A,91.1774,29.6541,拉萨市,西藏大学,,17,15,11,7,7,111,54,59,57,14,11,8,9,0.2,0.3
2023-08-19T03:00:00,1460A,90.9798,29.6588,拉萨市,区辐射站,,17,13,12,5,6,97,53,64,59,20,12,10,10,0.1,0.1
2023-08-19T03:00:00,1461A,91.0834,29.6292,拉萨市,拉萨火车站,,19,12,15,5,6,99,59,75,67,12,8,11,11,0.3,0.2
2023-08-19T03:00:00,1462A,108.882,34.2749,西安市,高压开关厂,颗粒物(PM10),62,73,76,23,22,130,49,43,43,38,36,8,12,0.5,0.5
2023-08-19T03:00:00,1463A,108.993,34.2629,西安市,兴庆小区,颗粒物(PM10),51,51,59,16,21,124,75,74,74,14,20,7,8,0.4,0.6
2023-08-19T03:00:00,1464A,109.06,34.2572,西安市,纺织城,颗粒物(PM10),57,63,75,23,27,130,18,15,15,54,41,4,4,0.5,0.5
2023-08-19T03:00:00,1465A,108.9356,34.2173,西安市,小寨,颗粒物(PM10),53,55,73,16,18,124,78,77,77,14,19,10,10,0.3,0.4
2023-08-19T03:00:00,1466A,108.954,34.2713,西安市,市人民体育场,颗粒物(PM10),52,54,66,20,24,118,70,69,69,19,23,7,8,0.5,0.6
2023-08-19T03:00:00,1467A,108.8922,34.2322,西安市,高新西区,,46,46,59,20,24,129,85,71,71,15,23,10,10,0.4,0.5
2023-08-19T03:00:00,1468A,108.935,34.3474,西安市,经开区,颗粒物(PM10),54,57,66,23,24,128,35,58,51,36,22,4,5,0.4,0.4
2023-08-19T03:00:00,1469A,108.906,34.1546,西安市,长安区,颗粒物(PM10),59,68,75,22,28,135,39,45,41,38,23,6,6,0.5,0.4
2023-08-19T03:00:00,1471A,109.2186,34.3731,西安市,临潼区,颗粒物(PM10),65,79,63,30,26,131,29,115,65,49,19,7,7,0.5,0.4
2023-08-19T03:00:00,1472A,108.869,34.378,西安市,草滩,颗粒物(PM10),61,72,68,14,13,129,14,14,14,76,61,16,21,0.5,0.4
2023-08-19T03:00:00,1473A,108.985,34.1978,西安市,曲江文化产业集团,,44,44,64,15,20,123,70,75,72,22,28,7,7,0.4,0.4
2023-08-19T03:00:00,1474A,109.051,34.3213,西安市,广运潭,颗粒物(PM10),51,51,62,19,25,128,57,55,55,26,24,7,9,0.4,0.5
2023-08-19T03:00:00,1476A,103.631,36.1031,兰州市,兰炼宾馆,颗粒物(PM10),61,71,59,38,37,172,20,29,26,72,43,6,10,0.6,0.5
2023-08-19T03:00:00,1477A,104.1373,35.9454,兰州市,榆中兰大校区,,,,,,,,,,,,,,,,
2023-08-19T03:00:00,1478A,103.8412,36.0726,兰州市,生物制品所,颗粒物(PM10),53,55,59,32,31,156,11,6,6,84,51,8,9,0.9,0.7
2023-08-19T03:00:00,1479A,103.831,36.0464,兰州市,铁路设计院,颗粒物(PM10),52,53,54,25,29,166,27,20,20,71,58,12,13,1.1,0.9
2023-08-19T03:00:00,1483A,101.524,36.6867,西宁市,第五水厂,,,,,,,,,,,,,,,,
2023-08-19T03:00:00,1484A,105.9512,38.6016,银川市,贺兰山马莲口,,40,31,20,9,10,185,127,150,137,9,8,14,11,0.3,0.2
2023-08-19T03:00:00,1488A,106.2328,38.4975,银川市,贺兰山东路,颗粒物(PM10),55,60,48,21,19,165,38,98,70,59,32,10,15,0.7,0.6
2023-08-19T03:00:00,1489A,106.1358,38.5036,银川市,学院路,颗粒物(PM10),67,84,52,19,18,176,47,95,71,32,25,10,16,0.7,0.6
2023-08-19T03:00:00,1490A,87.5801,43.8303,乌鲁木齐市,监测站,颗粒物(PM10),64,78,54,19,14,139,0,1,0,81,50,5,5,1.1,0.8
2023-08-19T03:00:00,1491A,87.6046,43.768,乌鲁木齐市,收费所,颗粒物(PM10),74,97,48,37,18,147,4,4,4,86,45,4,6,0.6,0.4
2023-08-19T03:00:00,1492A,87.4754,43.9469,乌鲁木齐市,新疆农科院农场,颗粒物(PM10),126,202,48,44,25,118,4,4,4,88,40,5,6,0.7,0.5
2023-08-19T03:00:00,1493A,87.5525,43.8711,乌鲁木齐市,铁路局,颗粒物(PM10),72,94,64,34,19,136,0,0,0,102,48,5,5,0.9,0.6
2023-08-19T03:00:00,1494A,87.6432,43.831,乌鲁木齐市,三十一中学,颗粒物(PM10),64,78,47,14,14,130,0,12,4,102,39,5,5,1.1,0.6
2023-08-19T03:00:00,1496A,87.7216,44.1747,乌鲁木齐市,米东区环保局,颗粒物(PM10),56,61,50,26,23,118,32,42,37,63,30,6,7,0.5,0.4
2023-08-19T03:00:00,1508A,112.9433,27.8614,湘潭市,板塘,"颗粒物(PM10),细颗粒物(PM2.5)",62,74,56,44,34,221,68,87,78,28,19,4,4,0.7,0.7
2023-08-19T03:00:00,1511A,112.9118,27.8403,湘潭市,市监测站,颗粒物(PM10),58,66,50,37,28,228,82,102,92,16,13,4,4,0.7,0.8
2023-08-19T03:00:00,1512A,112.8937,27.8728,湘潭市,江麓,颗粒物(PM10),69,87,56,40,30,213,81,88,84,18,16,7,6,0.3,0.4
2023-08-19T03:00:00,1513A,112.9227,27.8159,湘潭市,岳塘,颗粒物(PM10),60,69,55,33,32,208,71,95,84,24,18,5,5,0.4,0.4
2023-08-19T03:00:00,1514A,112.9074,27.9119,湘潭市,科大,颗粒物(PM10),68,86,64,42,30,211,75,81,78,16,15,6,5,0.5,0.6
2023-08-19T03:00:00,1515A,113.135,27.8244,株洲市,天台山庄,颗粒物(PM10),51,51,55,29,30,190,83,83,80,12,16,5,6,0.6,0.6
2023-08-19T03:00:00,1518A,113.095,27.8867,株洲市,株冶医院,颗粒物(PM10),56,61,57,32,30,188,43,59,49,27,26,4,4,0.8,0.9
2023-08-19T03:00:00,1519A,113.167,27.8667,株洲市,市四中,颗粒物(PM10),52,54,58,30,33,182,61,64,63,14,17,6,7,0.5,0.5
2023-08-19T03:00:00,1520A,113.143,27.8381,株洲市,火车站,,50,50,59,20,33,185,73,78,76,11,20,8,14,0.5,0.6
2023-08-19T03:00:00,1524A,113.13,27.8528,株洲市,市监测站,颗粒物(PM10),53,56,55,34,32,180,80,77,77,11,18,5,5,0.8,0.8
2023-08-19T03:00:00,1552A,106.805,26.3003,贵阳市,桐木岭,,,,,,,,,,,,,,,,
2023-08-19T03:00:00,1559A,113.251,27.8336,株洲市,大京风景区,颗粒物(PM10),51,51,46,32,27,156,16,35,25,9,5,8,8,0.6,0.5
2023-08-19T03:00:00,1562A,113.0048,27.9153,湘潭市,昭山,颗粒物(PM10),57,63,56,34,30,223,62,41,38,27,26,5,4,0.7,0.7
2023-08-19T03:00:00,1564A,112.4876,27.9164,湘潭市,韶山,颗粒物(PM10),59,67,45,28,21,158,82,93,89,8,8,7,6,0.4,0.3
2023-08-19T03:00:00,1585A,109.8756,40.6532,包头市,市环境监测站,,24,19,51,11,19,165,76,92,84,18,28,8,13,0.6,0.7
2023-08-19T03:00:00,1587A,109.9991,40.5842,包头市,包头八中,,31,31,64,7,23,157,81,94,88,26,30,14,17,0.8,0.7
2023-08-19T03:00:00,1588A,109.8538,40.6821,包头市,青山宾馆,,24,24,44,7,17,156,63,82,71,18,26,4,10,0.6,0.7
2023-08-19T03:00:00,1589A,109.8642,40.6288,包头市,惠龙物流,,25,20,56,7,19,157,78,102,90,21,25,10,18,0.6,0.6
2023-08-19T03:00:00,1590A,110.0377,40.5546,包头市,东河鸿龙湾,,26,22,55,2,19,154,82,110,95,18,19,13,14,0.6,0.6
2023-08-19T03:00:00,1591A,110.0023,39.8129,鄂尔多斯市,综合楼,,36,36,43,5,10,136,84,100,94,35,25,4,13,0.4,0.5
2023-08-19T03:00:00,1592A,109.9486,39.8261,鄂尔多斯市,巴音孟克林场办事处,,29,29,41,12,13,151,91,89,89,27,33,8,7,0.4,0.5
2023-08-19T03:00:00,1593A,109.7736,39.5986,鄂尔多斯市,康泽苑,,20,17,29,7,10,134,61,69,66,19,13,8,8,0.3,0.4
2023-08-19T03:00:00,1594A,109.8119,39.5989,鄂尔多斯市,华泰汽车城,,24,24,34,12,12,132,20,19,19,46,29,5,6,0.7,0.6
2023-08-19T03:00:00,1595A,109.9734,39.7884,鄂尔多斯市,奥林花园,,34,34,42,2,11,133,81,72,72,21,34,5,7,0.6,0.6
2023-08-19T03:00:00,1597A,122.2703,40.7094,营口市,大庆路,细颗粒物(PM2.5),88,59,43,65,37,178,74,71,71,17,13,8,7,1.2,0.9
2023-08-19T03:00:00,1598A,122.2150,40.6511,营口市,镜湖西路,细颗粒物(PM2.5),57,56,44,40,32,188,77,114,93,9,10,6,5,0.7,0.8
2023-08-19T03:00:00,1599A,122.1658,40.6789,营口市,西炮台,,46,46,45,24,26,196,113,113,99,10,12,5,6,0.7,0.8
2023-08-19T03:00:00,1600A,124.3303,40.0625,丹东市,江湾东路,,30,30,27,17,17,98,16,16,16,11,10,6,5,1.1,0.8
2023-08-19T03:00:00,1601A,124.4256,40.1503,丹东市,临江后街,,24,24,24,10,11,99,15,22,20,9,8,5,5,0.7,0.7
2023-08-19T03:00:00,1602A,124.3933,40.1461,丹东市,元宝山,,32,32,24,16,14,96,22,20,20,8,9,6,7,0.8,0.8
2023-08-19T03:00:00,1603A,124.3633,40.1092,丹东市,民主桥,,25,25,24,14,14,103,15,11,11,11,11,3,4,0.8,0.8
2023-08-19T03:00:00,1604A,122.0303,41.1489,盘锦市,开发区,细颗粒物(PM2.5),54,42,41,38,27,156,28,48,36,36,15,7,4,0.9,0.9
2023-08-19T03:00:00,1605A,122.0485,41.0883,盘锦市,兴隆台,细颗粒物(PM2.5),52,52,40,36,28,158,55,64,61,28,23,3,3,0.8,0.7
2023-08-19T03:00:00,1606A,121.8297,41.1028,盘锦市,新生街道,,30,24,35,21,24,156,20,17,17,28,16,4,5,0.6,0.7
2023-08-19T03:00:00,1607A,120.9092,40.7136,葫芦岛市,龙港区,细颗粒物(PM2.5),92,91,45,68,37,159,26,70,45,44,6,13,5,0.8,0.7
2023-08-19T03:00:00,1608A,120.8392,40.7514,葫芦岛市,化工街,颗粒物(PM10),54,58,45,37,31,137,11,17,11,42,14,5,5,0.7,0.8
2023-08-19T03:00:00,1609A,120.8341,40.7073,葫芦岛市,新区,细颗粒物(PM2.5),93,64,43,69,38,135,24,48,33,47,9,7,5,1.1,0.8
2023-08-19T03:00:00,1610A,120.8695,40.7677,葫芦岛市,东城区,细颗粒物(PM2.5),60,59,44,43,30,141,14,6,6,55,24,11,6,0.9,0.8
2023-08-19T03:00:00,1611A,118.5819,24.9117,泉州市,涂山街,,21,6,28,6,11,161,66,67,66,5,10,3,4,0.7,0.9
2023-08-19T03:00:00,1612A,118.5972,24.8978,泉州市,津头埔,,23,3,26,1,16,161,73,69,69,6,15,3,4,0.6,0.7
2023-08-19T03:00:00,1613A,118.6663,24.9424,泉州市,万安,,20,6,27,2,16,154,61,64,63,14,14,2,3,0.5,0.6
2023-08-19T03:00:00,1614A,118.6117,24.9604,泉州市,清源山,,,,,,,,,,,,,,,,
2023-08-19T03:00:00,1616A,117.6795,36.229,济南市,技术学院,细颗粒物(PM2.5),57,61,60,40,34,204,81,87,83,32,26,6,9,1.0,1
2023-08-19T03:00:00,1618A,118.3429,35.0532,临沂市,沂河小区,细颗粒物(PM2.5),54,46,50,38,30,171,63,64,64,10,21,8,11,0.4,0.4
2023-08-19T03:00:00,1619A,118.295,35.0583,临沂市,鲁南制药厂,,48,48,45,28,25,184,67,71,69,10,14,8,10,0.4,0.4
2023-08-19T03:00:00,1620A,118.2794,34.9976,临沂市,新光毛纺厂,,49,44,44,34,27,166,53,54,54,19,21,12,11,0.6,0.6
2023-08-19T03:00:00,1621A,118.3956,35.0888,临沂市,河东保险公司,细颗粒物(PM2.5),57,41,44,40,28,156,48,57,52,11,19,6,6,0.4,0.5
2023-08-19T03:00:00,1622A,116.3032,37.4674,德州市,儿童乐园,,29,29,35,17,21,152,85,88,87,13,13,8,7,0.8,0.8
2023-08-19T03:00:00,1624A,116.2991,37.4451,德州市,监理站,,30,30,33,19,24,140,79,79,79,19,18,8,7,0.6,0.6
2023-08-19T03:00:00,1625A,115.9848,36.4372,聊城市,区政府,,36,33,45,25,30,198,69,89,80,19,16,2,4,0.6,0.6
2023-08-19T03:00:00,1628A,118.0062,37.3803,滨州市,市环保局,,49,38,60,34,39,197,70,74,73,17,13,6,7,0.5,0.6
2023-08-19T03:00:00,1629A,118.0018,37.3617,滨州市,第二水厂,,41,41,58,23,39,198,39,88,67,41,21,6,8,0.6,0.8
2023-08-19T03:00:00,1630A,117.9776,37.393,滨州市,北中新校,细颗粒物(PM2.5),54,47,65,38,41,179,62,68,65,22,16,3,6,0.5,0.7
2023-08-19T03:00:00,1631A,118.0414,36.8103,淄博市,人民公园,细颗粒物(PM2.5),77,92,81,56,48,248,37,54,45,62,37,17,17,0.7,0.7
2023-08-19T03:00:00,1633A,117.8525,36.4847,淄博市,双山,细颗粒物(PM2.5),52,41,54,36,35,192,95,82,82,18,23,10,13,0.6,0.8
2023-08-19T03:00:00,1634A,117.9592,36.6331,淄博市,气象站,细颗粒物(PM2.5),79,81,67,58,46,207,54,65,61,37,25,13,12,0.9,0.7
2023-08-19T03:00:00,1635A,118.3092,36.8194,淄博市,莆田园,细颗粒物(PM2.5),89,117,81,66,51,263,63,57,57,48,29,24,16,3.2,1.4
2023-08-19T03:00:00,1637A,117.558,34.8438,枣庄市,市中区政府,颗粒物(PM10),63,75,60,36,31,174,47,55,52,39,29,16,17,0.4,0.4
2023-08-19T03:00:00,1638A,117.2852,34.7837,枣庄市,薛城环保局,颗粒物(PM10),51,51,56,26,30,187,92,109,98,23,28,9,11,0.5,0.7
2023-08-19T03:00:00,1639A,117.5852,34.7745,枣庄市,峄城区政府,颗粒物(PM10),54,58,54,29,27,175,64,78,72,24,20,15,11,0.6,0.6
2023-08-19T03:00:00,1640A,117.7276,34.5578,枣庄市,台儿庄区环保局,,44,44,45,29,26,163,50,66,57,23,22,11,8,0.8,0.7
2023-08-19T03:00:00,1641A,117.4518,35.0992,枣庄市,山亭区环保局,,44,44,37,29,29,188,105,110,107,11,13,8,9,0.4,0.4
2023-08-19T03:00:00,1642A,121.2514,37.5639,烟台市,开发区,,39,31,42,27,28,217,102,114,108,8,16,5,5,0.9,1
2023-08-19T03:00:00,1643A,121.3719,37.5433,烟台市,轴承厂,,39,31,39,27,28,186,103,104,104,8,9,5,5,0.4,0.5
2023-08-19T03:00:00,1644A,121.3181,37.5436,烟台市,西郊化工站,细颗粒物(PM2.5),54,31,37,38,26,183,112,114,113,9,11,4,5,0.2,0.3
2023-08-19T03:00:00,1645A,121.4478,37.4822,烟台市,莱山环保局,,35,24,31,22,22,183,110,107,107,4,8,5,6,0.6,0.7
2023-08-19T03:00:00,1646A,121.2611,37.4967,烟台市,福山环保局,,39,39,45,14,20,170,95,96,93,13,19,6,6,0.6,0.7
2023-08-19T03:00:00,1650A,119.1437,36.7023,潍坊市,环保局,细颗粒物(PM2.5),54,53,55,38,37,216,96,117,108,16,18,9,10,1.2,0.7
2023-08-19T03:00:00,1653A,116.6251,35.4302,济宁市,火炬城,颗粒物(PM10),54,57,53,34,30,178,62,101,82,21,14,11,9,0.8,0.8
2023-08-19T03:00:00,1655A,116.5491,35.4042,济宁市,电化厂,颗粒物(PM10),56,61,54,34,30,174,68,93,80,21,14,10,9,0.8,0.8
2023-08-19T03:00:00,1656A,117.1437,36.1937,泰安市,监测站,细颗粒物(PM2.5),79,83,70,58,48,212,62,58,58,20,17,10,10,0.7,0.7
2023-08-19T03:00:00,1657A,117.0885,36.2017,泰安市,人口学校,细颗粒物(PM2.5),53,53,55,37,33,207,90,118,106,9,13,9,9,0.7,0.6
2023-08-19T03:00:00,1658A,117.1089,36.1758,泰安市,电力学校,细颗粒物(PM2.5),70,83,65,51,39,217,17,48,29,49,17,7,6,0.8,0.5
2023-08-19T03:00:00,1659A,119.471,35.4209,日照市,监测站,,39,36,38,27,24,168,87,103,95,5,25,5,6,0.8,1.2
2023-08-19T03:00:00,1660A,119.523,35.4216,日照市,市政府广场,,45,44,38,31,21,165,91,101,96,12,21,10,13,0.8,0.9
2023-08-19T03:00:00,1661A,119.5587,35.4044,日照市,港务局,,41,41,41,28,21,162,94,108,104,15,21,9,10,0.8,0.9
2023-08-19T03:00:00,1662A,122.1214,37.4236,威海市,华夏技校,,36,22,33,24,26,182,114,113,113,6,12,4,5,0.4,0.5
2023-08-19T03:00:00,1663A,122.0508,37.5236,威海市,山大分校,,40,29,35,22,23,192,127,133,130,1,5,8,7,0.5,0.6
2023-08-19T03:00:00,1664A,122.1067,37.5072,威海市,市监测站,,40,24,36,22,30,170,128,134,132,2,12,7,7,0.6,0.7
2023-08-19T03:00:00,1666A,118.6614,37.4309,东营市,市环保局,细颗粒物(PM2.5),67,63,56,48,44,211,99,113,107,12,12,7,8,0.5,0.5
2023-08-19T03:00:00,1669A,113.5824,24.7733,韶关市,市八中,颗粒物(PM10),61,72,43,15,22,123,61,86,78,13,15,9,11,0.7,0.7
2023-08-19T03:00:00,1671A,113.5917,24.7972,韶关市,园林处,,49,31,37,34,23,127,44,55,51,17,12,11,11,0.9,0.8
2023-08-19T03:00:00,1672A,113.6735,24.7791,韶关市,韶关学院,,33,31,41,23,22,120,40,32,32,7,9,8,9,0.6,0.6
2023-08-19T03:00:00,1673A,113.5971,24.6863,韶关市,曲江监测站,,43,43,45,21,26,166,44,60,47,17,12,8,9,0.7,0.7
2023-08-19T03:00:00,1674A,116.6794,23.3667,汕头市,金平子站,,33,22,28,22,18,175,103,95,95,9,14,4,8,0.7,0.9
2023-08-19T03:00:00,1675A,116.7244,23.3633,汕头市,龙湖子站,,38,26,27,22,15,189,119,112,112,8,14,4,6,0.7,0.8
2023-08-19T03:00:00,1676A,116.7258,23.2775,汕头市,濠江子站,,34,24,25,23,14,187,108,94,94,4,9,9,10,0.8,0.8
2023-08-19T03:00:00,1677A,116.7519,23.4714,汕头市,澄海子站,,35,27,26,19,15,148,112,116,111,9,13,6,7,0.7,0.8
2023-08-19T03:00:00,1678A,116.6092,23.2539,汕头市,潮阳子站,,28,28,24,15,7,164,73,67,67,10,11,8,9,0.6,0.8
2023-08-19T03:00:00,1680A,110.3539,21.2706,湛江市,湛江影剧院,,42,42,29,26,14,84,76,71,71,7,9,28,12,0.6,0.6
2023-08-19T03:00:00,1681A,110.3928,21.2228,湛江市,市环境监测站,,27,27,31,18,16,86,76,79,78,7,12,7,15,0.6,0.6
2023-08-19T03:00:00,1682A,110.4019,21.1997,湛江市,环保局宿舍,,26,26,28,15,16,83,73,78,76,7,9,4,12,0.5,0.5
2023-08-19T03:00:00,1683A,110.4111,21.2028,湛江市,霞山游泳场,,37,37,32,14,16,77,74,77,75,9,11,6,12,0.6,0.6
2023-08-19T03:00:00,1684A,110.3316,21.2679,湛江市,麻章区环保局,,40,40,34,22,17,74,66,60,60,10,12,16,8,0.7,0.7
2023-08-19T03:00:00,1685A,110.4558,21.2567,湛江市,坡头区环保局,,23,23,24,14,16,90,64,78,74,15,15,5,8,0.4,0.4
2023-08-19T03:00:00,1686A,111.0286,21.4688,茂名市,电白南海,,21,12,34,9,22,117,67,81,74,6,8,5,7,0.5,0.6
2023-08-19T03:00:00,1687A,110.9294,21.6533,茂名市,茂石化七小,,20,9,37,12,24,89,63,62,62,6,9,5,9,0.4,0.6
2023-08-19T03:00:00,1688A,110.9107,21.6687,茂名市,健康路,,20,9,31,5,14,91,63,60,60,4,7,3,7,0.3,0.4
2023-08-19T03:00:00,1689A,110.8592,21.6828,茂名市,高岭,,,,44,31,25,89,57,56,54,6,12,6,11,0.6,0.6
2023-08-19T03:00:00,1690A,116.1231,24.3284,梅州市,梅江月梅,,29,12,25,10,13,111,90,68,68,14,10,2,3,0.8,0.7
2023-08-19T03:00:00,1691A,116.0797,24.2719,梅州市,梅县新城,,27,27,30,11,16,124,58,53,53,8,15,3,4,0.7,0.8
2023-08-19T03:00:00,1692A,116.1248,24.2654,梅州市,环境监控中心,,35,35,28,14,17,125,66,40,40,11,15,7,8,0.7,0.7
2023-08-19T03:00:00,1693A,115.3653,22.775,汕尾市,市环保局,,23,23,24,12,13,108,56,71,66,14,13,2,2,0.7,0.7
2023-08-19T03:00:00,1694A,115.3706,22.7898,汕尾市,市政府,,23,23,21,10,15,112,55,67,59,11,11,4,4,0.7,0.7
2023-08-19T03:00:00,1695A,115.3622,22.7925,汕尾市,新城中学,,22,22,26,12,12,107,50,55,50,9,10,6,6,0.7,0.7
2023-08-19T03:00:00,1696A,114.6778,23.7569,河源市,源西,,44,44,46,27,24,120,22,57,41,26,12,4,4,0.8,0.8
2023-08-19T03:00:00,1697A,114.6944,23.7586,河源市,东埔,颗粒物(PM10),51,52,47,23,25,110,51,65,59,10,15,6,5,0.7,0.6
2023-08-19T03:00:00,1698A,114.6892,23.7233,河源市,老城,,48,48,49,21,20,130,34,50,41,13,10,4,4,0.8,0.8
2023-08-19T03:00:00,1699A,111.9797,21.8593,阳江市,鸳鸯湖,,43,37,32,30,20,106,71,80,74,8,9,7,7,0.7,0.8
2023-08-19T03:00:00,1701A,111.9491,21.8658,阳江市,马南垌,细颗粒物(PM2.5),52,40,36,36,22,105,71,78,75,5,9,4,7,0.4,0.5
2023-08-19T03:00:00,1702A,113.0426,23.691,清远市,环保大楼,,24,24,31,11,21,129,34,31,31,12,16,8,8,0.2,0.5
2023-08-19T03:00:00,1703A,113.0208,23.7106,清远市,凤城街办,,32,32,41,16,23,122,27,28,28,13,16,5,5,0.7,0.7
2023-08-19T03:00:00,1705A,116.6367,23.6719,潮州市,西园路,,40,25,23,28,14,133,44,71,55,10,9,4,5,0.4,0.4
2023-08-19T03:00:00,1706A,116.6447,23.6706,潮州市,档案局,,20,20,23,13,11,137,52,72,57,8,8,6,7,0.3,0.4
2023-08-19T03:00:00,1708A,116.3701,23.5345,揭阳市,新兴,颗粒物(PM10),63,76,36,31,18,172,60,66,63,16,12,12,10,0.8,0.9
2023-08-19T03:00:00,1709A,116.3264,23.5443,揭阳市,西马,,49,49,35,29,18,174,62,68,62,16,12,11,7,0.9,0.9
2023-08-19T03:00:00,1710A,116.3611,23.5626,揭阳市,东兴,颗粒物(PM10),59,68,39,27,16,170,57,63,59,23,16,15,6,0.9,0.9
2023-08-19T03:00:00,1711A,116.4151,23.5294,揭阳市,渔湖,颗粒物(PM10),78,105,50,37,18,176,55,66,60,17,11,5,8,0.7,0.7
2023-08-19T03:00:00,1712A,112.0392,22.9169,云浮市,新市府,,32,32,26,18,16,67,12,16,15,19,6,5,4,0.7,0.6
2023-08-19T03:00:00,1714A,112.0539,22.9539,云浮市,牧羊,,44,44,40,22,18,66,4,8,6,26,24,16,19,0.6,0.6
2023-08-19T03:00:00,1715A,102.575,24.3711,玉溪市,东风水库,,23,23,26,16,14,99,32,50,41,16,15,4,6,0.9,1
2023-08-19T03:00:00,1718A,115.4208,35.2464,菏泽市,气象局,,43,43,60,28,35,215,74,99,89,6,7,4,4,0.5,0.5
2023-08-19T03:00:00,1719A,115.4747,35.2375,菏泽市,市政协,,48,39,59,33,38,196,63,94,78,18,17,5,6,0.5,0.5
2023-08-19T03:00:00,1721A,113.3819,40.1097,大同市,果树场,,,,,,,,,,,,,,,,
2023-08-19T03:00:00,1723A,113.2994,40.0758,大同市,云冈宾馆,颗粒物(PM10),56,62,45,23,17,141,47,41,41,38,29,16,11,1.7,0.8
2023-08-19T03:00:00,1724A,113.3444,40.0917,大同市,大同大学,,41,41,44,14,17,140,74,74,74,20,22,14,11,0.4,0.7
2023-08-19T03:00:00,1725A,113.2661,40.1269,大同市,安家小村,颗粒物(PM10),64,78,51,18,15,140,52,40,40,33,21,17,13,1.2,0.9
2023-08-19T03:00:00,1726A,113.2711,40.0844,大同市,教育学院,颗粒物(PM10),66,81,48,17,17,138,40,44,37,46,31,18,14,1.7,0.8
2023-08-19T03:00:00,1727A,113.1147,36.1547,长治市,清华站,颗粒物(PM10),61,71,72,36,37,184,38,97,60,32,16,10,10,1.3,1.2
2023-08-19T03:00:00,1728A,113.1031,36.1989,长治市,监测站,"颗粒物(PM10),细颗粒物(PM2.5)",55,60,67,39,38,172,70,86,80,20,20,4,5,1.4,1.2
2023-08-19T03:00:00,1730A,113.0886,36.2125,长治市,审计局,细颗粒物(PM2.5),70,54,64,51,39,161,75,95,87,9,12,6,6,1.5,1.2
2023-08-19T03:00:00,1731A,113.0844,36.1856,长治市,长治八中,颗粒物(PM10),59,68,80,37,36,167,41,84,60,27,16,9,10,1.5,1.2
2023-08-19T03:00:00,1733A,111.5531,36.0783,临汾市,临钢医院,颗粒物(PM10),103,155,199,42,56,158,62,61,61,25,20,15,12,1.2,1
2023-08-19T03:00:00,1734A,111.5028,36.0714,临汾市,技工学校,颗粒物(PM10),92,134,202,45,56,177,78,76,76,22,25,24,16,1.0,0.9
2023-08-19T03:00:00,1736A,111.5018,36.0855,临汾市,市委,颗粒物(PM10),95,140,205,52,66,156,66,68,67,23,24,20,14,0.9,0.8
2023-08-19T03:00:00,1738A,113.5758,37.8572,阳泉市,市中心,颗粒物(PM10),89,127,109,35,37,141,4,6,5,63,35,10,10,0.8,0.9
2023-08-19T03:00:00,1739A,113.4894,37.8731,阳泉市,赛鱼,颗粒物(PM10),96,141,107,47,38,127,3,15,8,54,35,8,8,0.7,0.7
2023-08-19T03:00:00,1740A,113.5819,37.8486,阳泉市,南庄,颗粒物(PM10),115,180,139,44,35,144,16,29,25,44,24,10,10,0.9,0.8
2023-08-19T03:00:00,1742A,113.5614,37.8703,阳泉市,平坦,颗粒物(PM10),95,140,122,50,40,143,12,13,13,62,40,8,9,0.6,0.7
2023-08-19T03:00:00,1743A,113.5158,37.8392,阳泉市,大阳泉,颗粒物(PM10),97,143,103,41,42,144,96,76,76,12,14,11,10,0.7,0.7
2023-08-19T03:00:00,1744A,118.9233,42.2816,赤峰市,松山一中,,21,12,22,8,8,116,67,111,86,25,20,10,12,0.3,0.2
2023-08-19T03:00:00,1745A,118.9576,42.2728,赤峰市,哈达街,,26,26,26,4,8,117,76,115,97,20,23,13,22,0.2,0.2
2023-08-19T03:00:00,1746A,118.8788,42.2554,赤峰市,天义路,,30,13,21,7,9,130,93,126,109,13,16,9,18,0.4,0.3
2023-08-19T03:00:00,1748A,123.044,41.1196,鞍山市,深沟寺,,43,43,37,29,24,164,42,56,45,10,11,2,3,0.9,1
2023-08-19T03:00:00,1749A,123.011,41.0931,鞍山市,太阳城,颗粒物(PM10),59,67,43,41,26,177,34,44,40,25,17,2,3,1.5,1.1
2023-08-19T03:00:00,1750A,123.0485,41.1442,鞍山市,太平,颗粒物(PM10),59,68,56,29,27,171,53,63,57,11,19,4,7,0.9,1.1
2023-08-19T03:00:00,1751A,122.9642,41.0971,鞍山市,铁西三道街,细颗粒物(PM2.5),77,80,54,56,33,176,51,81,60,37,20,5,5,1.1,1.1
2023-08-19T03:00:00,1752A,122.9341,41.0833,鞍山市,铁西工业园区,细颗粒物(PM2.5),70,77,55,51,34,175,54,62,49,23,23,4,5,1.1,1.1
2023-08-19T03:00:00,1753A,123.022,41.0821,鞍山市,明达新区,"颗粒物(PM10),细颗粒物(PM2.5)",57,63,47,40,28,164,41,36,36,28,19,3,4,1.1,0.9
2023-08-19T03:00:00,1754A,123.1289,41.0228,鞍山市,千山,,,,,,,,,,,,,,,,
2023-08-19T03:00:00,1755A,123.7977,41.8491,抚顺市,望花区,颗粒物(PM10),52,53,42,21,25,164,37,34,34,23,22,5,7,0.6,0.8
2023-08-19T03:00:00,1756A,123.9161,41.8822,抚顺市,顺城区,,22,22,33,12,20,154,33,50,45,21,17,4,5,0.6,0.7
2023-08-19T03:00:00,1757A,124.0436,41.8611,抚顺市,东洲区,,15,10,26,10,15,140,38,41,40,9,8,4,5,0.5,0.6
2023-08-19T03:00:00,1758A,123.9247,41.8642,抚顺市,新抚区,,26,22,33,18,18,150,23,32,29,20,15,5,6,0.6,0.7
2023-08-19T03:00:00,1759A,124.0972,41.8961,抚顺市,大伙房水库,,21,21,23,11,13,136,25,44,36,20,7,4,5,0.5,0.5
2023-08-19T03:00:00,1760A,123.7086,41.8391,抚顺市,沈抚新城,,33,33,38,20,19,166,13,18,17,27,18,5,8,0.9,0.9
2023-08-19T03:00:00,1761A,123.8275,41.3064,本溪市,大峪,,43,43,37,15,16,98,29,37,33,14,14,4,4,1.2,0.8
2023-08-19T03:00:00,1762A,123.7567,41.3325,本溪市,溪湖,,48,48,43,28,23,87,9,16,13,27,20,6,8,2.0,1.6
2023-08-19T03:00:00,1763A,123.7169,41.3094,本溪市,彩屯,细颗粒物(PM2.5),57,62,47,40,27,101,7,9,8,38,26,6,6,3.1,2.1
2023-08-19T03:00:00,1764A,123.7669,41.2864,本溪市,东明,颗粒物(PM10),51,52,36,24,23,102,18,31,24,18,16,5,5,1.1,0.9
2023-08-19T03:00:00,1765A,123.7992,41.2664,本溪市,新立屯,,42,42,30,16,17,94,13,19,16,24,16,6,7,1.0,0.9
2023-08-19T03:00:00,1766A,123.8142,41.3472,本溪市,威宁,颗粒物(PM10),63,76,44,41,27,86,16,20,18,16,18,6,6,1.0,1
2023-08-19T03:00:00,1767A,121.1115,41.0879,锦州市,南山,,46,46,37,31,28,134,27,44,35,16,18,9,8,0.8,0.9
2023-08-19T03:00:00,1768A,121.0533,40.8434,锦州市,开发区,细颗粒物(PM2.5),79,67,59,58,36,140,5,48,19,49,20,5,8,1.0,1
2023-08-19T03:00:00,1769A,121.1836,41.1119,锦州市,百股街道,,42,42,33,29,25,127,28,38,33,11,13,6,11,0.7,0.7
2023-08-19T03:00:00,1770A,121.1178,41.1222,锦州市,天安街道,,46,46,42,26,24,138,34,43,40,23,20,4,4,0.9,1
2023-08-19T03:00:00,1771A,121.1303,41.1386,锦州市,北湖公园,,39,39,47,19,25,147,32,45,40,15,15,6,7,0.9,0.8
2023-08-19T03:00:00,1772A,126.54,43.8622,吉林市,哈达湾,,39,36,28,27,16,146,69,62,62,12,14,6,6,0.6,0.7
2023-08-19T03:00:00,1773A,126.5844,43.8358,吉林市,东局子,,29,29,26,18,14,156,43,71,53,20,13,6,6,0.8,0.8
2023-08-19T03:00:00,1774A,126.5052,43.8245,吉林市,电力学院,,30,30,33,13,17,147,56,51,51,7,14,8,7,0.7,0.7
2023-08-19T03:00:00,1775A,126.6133,43.8972,吉林市,江北,,39,39,34,22,19,144,28,39,32,11,11,7,8,0.9,0.8
2023-08-19T03:00:00,1776A,126.555,43.8306,吉林市,江南公园,,38,33,27,26,19,151,60,74,63,11,14,3,3,0.7,0.8
2023-08-19T03:00:00,1778A,126.7061,43.7133,吉林市,丰满,,,,,,,,,,,,,,,,
2023-08-19T03:00:00,1779A,123.9305,47.3636,齐齐哈尔市,安居小区,,15,15,17,9,17,95,42,38,38,5,6,5,5,0.2,0.3
2023-08-19T03:00:00,1780A,123.9488,47.3386,齐齐哈尔市,中心广场,,14,7,11,3,2,95,43,41,41,3,10,2,2,0.2,0.3
2023-08-19T03:00:00,1781A,123.9483,47.3227,齐齐哈尔市,农牧车辆厂,,27,27,24,11,5,91,42,42,42,5,8,9,7,0.3,0.2
2023-08-19T03:00:00,1783A,123.945,47.2988,齐齐哈尔市,市环境监测站,,15,4,13,10,8,91,36,38,37,7,8,7,7,0.1,0.2
2023-08-19T03:00:00,1784A,129.61,44.561,牡丹江市,环保大楼,,32,11,13,13,8,101,101,58,58,3,9,5,5,0.4,0.4
2023-08-19T03:00:00,1785A,129.6115,44.5782,牡丹江市,文化广场,,29,15,14,19,12,90,90,54,54,3,12,5,6,0.4,0.5
2023-08-19T03:00:00,1786A,129.5904,44.5963,牡丹江市,第一医院,,25,20,22,8,8,77,77,48,48,5,10,4,4,0.4,0.4
2023-08-19T03:00:00,1787A,129.6364,44.6075,牡丹江市,机车工厂,,25,25,23,5,6,75,75,40,40,2,10,2,2,0.5,0.5
2023-08-19T03:00:00,1788A,129.6386,44.5462,牡丹江市,第一中学,,30,16,23,8,6,95,95,50,50,4,10,5,5,0.4,0.3
2023-08-19T03:00:00,1789A,124.81117,46.03138,大庆市,大同区,,13,3,13,9,10,105,37,36,36,8,8,5,5,0.2,0.3
2023-08-19T03:00:00,1790A,125.129,46.533,大庆市,龙凤区,,12,6,16,8,9,99,32,32,32,12,15,5,6,0.5,0.4
2023-08-19T03:00:00,1791A,124.902,46.408,大庆市,红岗区,,13,11,10,9,11,100,33,45,40,6,9,2,3,0.2,0.3
2023-08-19T03:00:00,1792A,125.153,46.586,大庆市,萨尔图区,,42,36,23,29,9,92,31,42,38,10,16,5,4,0.5,0.3
2023-08-19T03:00:00,1793A,124.9042,46.6215,大庆市,让胡路区,,15,15,15,8,7,92,28,37,33,6,16,5,4,0.3,0.4
2023-08-19T03:00:00,1794A,118.3606,31.3519,芜湖市,监测站,,32,30,32,16,18,173,101,116,108,16,17,6,6,0.6,0.6
2023-08-19T03:00:00,1795A,118.3714,31.4134,芜湖市,科创中心,,37,37,35,24,21,174,68,97,80,31,23,7,7,0.8,0.7
2023-08-19T03:00:00,1796A,118.3673,31.3131,芜湖市,四水厂,,35,29,31,19,19,184,109,127,118,15,15,4,4,0.7,0.7
2023-08-19T03:00:00,1798A,118.5092,31.6837,马鞍山市,湖东路四小,细颗粒物(PM2.5),55,33,27,39,21,177,67,91,79,17,15,8,7,0.8,0.7
2023-08-19T03:00:00,1799A,118.5024,31.6449,马鞍山市,开发区,,50,48,39,35,21,172,64,80,75,4,11,6,6,0.7,0.9
2023-08-19T03:00:00,1800A,118.5228,31.7231,马鞍山市,慈湖,颗粒物(PM10),55,59,36,31,22,184,59,91,76,22,17,8,9,0.8,0.7
2023-08-19T03:00:00,1802A,118.6245,31.7241,马鞍山市,濮塘,,43,25,22,30,22,177,54,85,69,18,10,3,3,0.8,0.8
2023-08-19T03:00:00,1803A,115.9872,29.6815,九江市,十里,,39,38,34,27,21,157,116,122,120,13,13,9,9,0.7,0.7
2023-08-19T03:00:00,1804A,115.9584,29.7046,九江市,茅山头,,40,27,30,23,24,155,128,128,128,13,16,7,9,0.9,0.9
2023-08-19T03:00:00,1805A,115.9877,29.7295,九江市,西园,,41,32,31,18,17,167,129,129,129,17,16,10,10,0.7,0.7
2023-08-19T03:00:00,1806A,116.0172,29.6547,九江市,五七二七厂,,37,29,29,21,20,151,118,104,104,8,8,11,9,0.7,0.7
2023-08-19T03:00:00,1808A,115.9114,29.6038,九江市,综合工业园,,44,30,30,20,21,166,139,130,130,18,20,12,12,0.7,0.8
2023-08-19T03:00:00,1809A,116.0721,29.7535,九江市,石化总厂,,34,28,33,20,21,159,108,107,107,22,19,11,11,0.8,0.9
2023-08-19T03:00:00,1810A,115.9773,29.5698,九江市,庐山气象台,,47,27,26,26,21,160,149,160,154,8,8,12,9,0.8,0.8
2023-08-19T03:00:00,1812A,112.3931,34.6516,洛阳市,市委党校,细颗粒物(PM2.5),58,55,107,41,42,162,107,108,107,9,11,6,8,0.7,0.6
2023-08-19T03:00:00,1814A,112.4657,34.6871,洛阳市,豫西宾馆,颗粒物(PM10),55,60,123,35,43,180,108,113,110,9,17,2,6,0.9,0.7
2023-08-19T03:00:00,1815A,112.494,34.6886,洛阳市,河南林校,,42,42,112,28,38,176,104,112,107,14,20,5,7,0.9,0.8
2023-08-19T03:00:00,1816A,112.3844,34.623,洛阳市,开发区管委会,颗粒物(PM10),61,72,100,36,34,169,88,102,97,16,13,7,9,0.6,0.4
2023-08-19T03:00:00,1817A,112.4267,34.6258,洛阳市,市委新办公区,细颗粒物(PM2.5),64,69,105,46,39,170,101,106,105,9,13,7,8,0.7,0.6
2023-08-19T03:00:00,1818A,114.4839,36.0621,安阳市,棉研所,,,,,,,,,,,,,,,,
2023-08-19T03:00:00,1819A,114.3551,36.1017,安阳市,红庙街,,40,40,58,26,29,191,82,83,82,11,10,9,9,1.3,1.3
2023-08-19T03:00:00,1820A,114.361,36.0681,安阳市,银杏小区,,,53,58,,,207,62,85,75,16,8,11,5,1.1,1.2
2023-08-19T03:00:00,1824A,114.3389,34.7781,开封市,肿瘤医院,,40,40,63,25,35,182,80,81,81,8,13,4,4,0.6,0.7
2023-08-19T03:00:00,1826A,114.2885,34.7965,开封市,世纪星幼儿园,,,38,57,,,187,90,96,94,11,17,6,6,0.8,0.9
2023-08-19T03:00:00,1828A,113.227,35.2125,焦作市,市环保局,细颗粒物(PM2.5),57,40,77,40,40,201,102,108,103,15,18,19,10,0.7,0.8
2023-08-19T03:00:00,1830A,113.1992,35.2590,焦作市,影视城,,,,,,,,,,,,,,,,
2023-08-19T03:00:00,1832A,113.3257,33.742,平顶山市,新华旅馆,颗粒物(PM10),65,79,78,34,32,210,75,96,81,28,15,3,5,0.6,0.6
2023-08-19T03:00:00,1833A,113.2919,33.737,平顶山市,规划设计院,细颗粒物(PM2.5),67,66,88,48,39,194,95,102,97,14,12,10,10,0.8,0.7
2023-08-19T03:00:00,1834A,113.182,33.774,平顶山市,平顶山工学院,颗粒物(PM10),74,97,103,39,36,182,66,58,51,28,17,4,6,0.7,0.7
2023-08-19T03:00:00,1835A,111.1922,34.7752,三门峡市,市政府,颗粒物(PM10),58,65,100,25,36,145,42,37,32,32,25,4,8,0.4,0.5
2023-08-19T03:00:00,1836A,111.1587,34.7942,三门峡市,开发区,颗粒物(PM10),71,92,108,35,44,143,56,61,50,20,15,7,7,0.5,0.5
2023-08-19T03:00:00,1838A,111.143,34.7955,三门峡市,风景区,,,,,,,,,,,,,,,,
2023-08-19T03:00:00,1840A,111.2992,30.6981,宜昌市,白龙岗,,46,46,48,29,28,160,69,81,75,14,23,5,5,0.6,0.6
2023-08-19T03:00:00,1841A,111.3549,30.6465,宜昌市,伍家岗,颗粒物(PM10),52,54,46,31,30,164,52,62,57,27,25,3,3,0.7,0.7
2023-08-19T03:00:00,1842A,111.2628,30.6961,宜昌市,点军区,,49,40,38,34,34,188,44,61,52,13,19,5,5,0.6,0.5
2023-08-19T03:00:00,1843A,111.3275,30.7819,宜昌市,夷陵区,,29,29,43,12,24,157,61,75,67,12,20,3,4,0.5,0.6
2023-08-19T03:00:00,1844A,112.2494,30.3197,荆州市,市图书馆,细颗粒物(PM2.5),73,77,63,53,42,184,79,104,90,16,26,8,8,0.7,0.8
2023-08-19T03:00:00,1845A,112.2008,30.3544,荆州市,市委党校,细颗粒物(PM2.5),67,76,61,48,38,182,70,90,79,16,16,12,10,0.8,0.8
2023-08-19T03:00:00,1847A,113.1094,29.3578,岳阳市,南湖风景区,细颗粒物(PM2.5),58,56,47,41,32,173,50,82,70,32,17,8,8,0.9,0.8
2023-08-19T03:00:00,1848A,113.1493,29.4251,岳阳市,城陵矶,细颗粒物(PM2.5),72,66,50,52,37,162,9,44,32,67,33,8,12,0.9,0.8
2023-08-19T03:00:00,1849A,113.1497,29.3575,岳阳市,开发区,细颗粒物(PM2.5),68,70,53,49,36,171,30,29,28,40,21,9,9,0.8,0.8
2023-08-19T03:00:00,1850A,113.2621,29.4758,岳阳市,云溪区,,40,40,48,27,37,167,68,60,60,11,13,6,10,0.7,0.7
2023-08-19T03:00:00,1851A,112.9943,29.4402,岳阳市,君山区,细颗粒物(PM2.5),79,66,51,58,42,162,80,84,82,19,19,12,11,0.8,0.8
2023-08-19T03:00:00,1852A,113.2117,29.355,岳阳市,金凤水库,细颗粒物(PM2.5),52,46,46,36,31,184,87,90,82,18,10,5,6,0.6,0.5
2023-08-19T03:00:00,1854A,111.6975,28.9703,常德市,市二中,细颗粒物(PM2.5),90,78,54,67,40,162,54,105,76,18,10,3,3,0.9,0.7
2023-08-19T03:00:00,1857A,111.7158,29.1456,常德市,白鹤山,,36,26,30,4,9,165,113,128,119,5,4,8,9,0.4,0.4
2023-08-19T03:00:00,1858A,110.5319,29.1217,张家界市,永定新区,细颗粒物(PM2.5),75,86,50,55,36,151,69,81,76,12,10,6,6,0.5,0.4
2023-08-19T03:00:00,1859A,110.4697,29.1242,张家界市,电业局,,,,,,,,,,,,,,,,
2023-08-19T03:00:00,1860A,110.5594,29.3547,张家界市,未央路,,46,44,49,32,30,142,45,47,46,5,9,3,3,0.4,0.4
2023-08-19T03:00:00,1861A,110.4417,29.315,张家界市,袁家界,,39,30,38,27,28,146,81,86,82,3,6,7,7,0.6,0.7
2023-08-19T03:00:00,1862A,110.4144,25.3167,桂林市,电子科大尧山校区,,37,37,37,18,22,100,19,32,28,9,7,9,11,0.6,0.6
2023-08-19T03:00:00,1863A,110.2819,25.2697,桂林市,监测站,颗粒物(PM10),51,52,32,27,18,147,27,36,33,24,15,59,9,0.8,0.7
2023-08-19T03:00:00,1864A,110.3089,25.2708,桂林市,龙隐路小学,,28,28,28,18,15,152,38,34,34,14,12,21,12,0.6,0.6
2023-08-19T03:00:00,1865A,110.2869,25.2178,桂林市,八中,,32,32,28,22,15,127,28,26,26,15,16,11,8,0.7,0.7
2023-08-19T03:00:00,1866A,109.2262,21.588,北海市,牛尾岭水库,,25,25,18,8,8,60,20,15,15,12,8,3,3,0.4,0.4
2023-08-19T03:00:00,1867A,109.1436,21.4086,北海市,海滩公园,,21,21,33,7,6,78,62,61,59,5,5,2,3,0.5,0.6
2023-08-19T03:00:00,1868A,109.0981,21.4661,北海市,新市环保局,,18,17,19,5,8,65,57,58,57,4,4,3,3,0.5,0.5
2023-08-19T03:00:00,1869A,109.1778,21.5233,北海市,北海工业园,,24,24,28,10,12,72,49,42,42,6,9,4,4,0.5,0.5
2023-08-19T03:00:00,1870A,109.4856,24.3895,柳州市,柳东小学,,25,25,28,12,21,124,34,31,31,8,9,9,9,0.4,0.5
2023-08-19T03:00:00,1871A,109.4157,24.3277,柳州市,环保监测站,,45,45,46,23,28,140,17,32,27,21,19,4,4,0.8,0.9
2023-08-19T03:00:00,1872A,109.389,24.341,柳州市,河西水厂,,44,44,45,22,26,129,13,15,14,23,20,5,5,1.0,1.1
2023-08-19T03:00:00,1873A,109.4311,24.2921,柳州市,市四中,,33,33,45,20,28,137,35,41,37,17,18,7,6,0.8,0.9
2023-08-19T03:00:00,1874A,109.4006,24.3631,柳州市,市九中,,31,31,49,17,25,125,15,28,23,18,17,8,11,0.9,1.1
2023-08-19T03:00:00,1875A,109.4958,24.3134,柳州市,古亭山,,28,28,40,15,26,135,4,20,15,31,18,13,9,0.7,0.7
2023-08-19T03:00:00,1876A,109.5078,18.2489,三亚市,河东子站,,18,18,19,10,10,67,57,57,56,5,5,3,3,0.3,0.3
2023-08-19T03:00:00,1877A,109.4964,18.2681,三亚市,河西子站,,,,27,10,10,65,53,57,51,7,8,2,2,0.5,0.4
2023-08-19T03:00:00,1878A,104.7778,31.4741,绵阳市,富乐山,,28,28,52,14,24,84,4,14,10,40,14,3,4,0.7,0.6
2023-08-19T03:00:00,1879A,104.7563,31.4535,绵阳市,市人大,,33,33,53,16,22,73,2,30,16,50,25,9,9,0.5,0.4
2023-08-19T03:00:00,1880A,104.6697,31.4668,绵阳市,高新区自来水公司,,29,29,57,18,20,83,7,4,4,50,28,8,7,0.5,0.5
2023-08-19T03:00:00,1881A,104.7287,31.5075,绵阳市,三水厂,,47,47,60,20,26,72,0,4,2,47,30,8,7,0.5,0.4
2023-08-19T03:00:00,1882A,104.563,28.793,宜宾市,石马中学,颗粒物(PM10),54,57,50,27,30,135,32,63,48,19,18,6,8,0.6,0.6
2023-08-19T03:00:00,1883A,104.6201,28.7728,宜宾市,市委,颗粒物(PM10),62,74,54,43,33,127,49,69,60,21,18,9,12,0.7,0.8
2023-08-19T03:00:00,1884A,104.6055,28.793,宜宾市,宜宾四中,细颗粒物(PM2.5),64,74,55,46,35,133,66,83,75,16,15,10,11,0.7,0.7
2023-08-19T03:00:00,1885A,104.639,28.7562,宜宾市,市政府,颗粒物(PM10),59,68,54,37,32,130,72,81,74,20,17,8,7,0.6,0.7
2023-08-19T03:00:00,1886A,104.5742,28.7199,宜宾市,黄金嘴,颗粒物(PM10),57,63,55,33,31,128,45,43,43,28,16,7,11,0.5,0.6
2023-08-19T03:00:00,1888A,101.6891,26.571,攀枝花市,弄弄坪,,40,40,44,14,22,86,63,72,67,14,18,18,14,0.7,0.8
2023-08-19T03:00:00,1889A,101.5769,26.5928,攀枝花市,河门口,,23,23,42,11,25,169,64,59,59,15,26,14,30,1.1,1.7
2023-08-19T03:00:00,1890A,101.7169,26.585,攀枝花市,炳草岗,,44,44,48,18,25,139,70,74,67,12,27,34,34,0.8,0.9
2023-08-19T03:00:00,1891A,101.7369,26.5008,攀枝花市,仁和,,23,23,32,16,23,155,44,69,56,16,16,7,14,0.5,0.6
2023-08-19T03:00:00,1893A,105.4324,28.9634,泸州市,九狮山,,40,39,43,28,19,147,9,14,12,16,14,5,7,0.5,0.5
2023-08-19T03:00:00,1894A,105.4427,28.9063,泸州市,小市上码头,颗粒物(PM10),52,53,52,26,32,182,55,61,59,7,9,3,5,0.7,0.7
2023-08-19T03:00:00,1895A,105.4241,28.8573,泸州市,兰田宪桥,颗粒物(PM10),52,53,50,27,31,198,47,68,57,10,9,4,7,0.8,0.7
2023-08-19T03:00:00,1896A,105.4379,28.8833,泸州市,市环监站,颗粒物(PM10),55,60,54,24,26,180,52,69,61,10,8,6,6,0.5,0.6
2023-08-19T03:00:00,1901A,104.4239,31.1208,德阳市,东山公园,颗粒物(PM10),58,65,67,21,23,101,27,22,22,12,19,2,4,0.5,0.5
2023-08-19T03:00:00,1902A,104.3826,31.1317,德阳市,西小区,颗粒物(PM10),59,67,62,31,29,94,35,46,43,24,23,3,6,0.6,0.6
2023-08-19T03:00:00,1904A,104.3553,31.1091,德阳市,耐火材料厂,颗粒物(PM10),63,75,79,32,30,97,27,41,35,21,24,2,6,0.7,0.6
2023-08-19T03:00:00,1905A,106.056,30.8064,南充市,西山风景区,,,22,69,,36,139,90,92,92,5,6,6,3,0.3,0.4
2023-08-19T03:00:00,1906A,106.0789,30.8023,南充市,南充市委,,39,39,86,20,37,141,58,62,60,15,13,13,9,0.3,0.3
2023-08-19T03:00:00,1907A,106.1031,30.8217,南充市,南充炼油厂,,47,47,86,16,30,138,70,78,75,11,11,20,9,0.3,0.3
2023-08-19T03:00:00,1908A,106.1064,30.7856,南充市,高坪区监测站,,39,39,84,21,26,136,75,78,76,11,12,9,8,0.3,0.3
2023-08-19T03:00:00,1909A,106.0642,30.7636,南充市,嘉陵区环保局,,37,37,84,17,31,152,64,64,64,17,17,18,7,0.5,0.4
2023-08-19T03:00:00,1910A,106.1087,30.8388,南充市,市环境监测站,,30,29,87,21,37,127,62,71,66,14,15,12,8,0.3,0.3
2023-08-19T03:00:00,1911A,106.9222,27.6869,遵义市,丁字口,,20,20,19,10,13,111,44,39,39,17,20,5,5,0.6,0.7
2023-08-19T03:00:00,1912A,106.9242,27.7019,遵义市,凤凰山,,24,24,27,16,20,130,68,59,59,11,12,7,7,0.6,0.6
2023-08-19T03:00:00,1913A,106.8906,27.6486,遵义市,忠庄,,28,28,27,17,17,116,43,40,40,21,16,2,2,0.6,0.6
2023-08-19T03:00:00,1914A,106.9231,27.6506,遵义市,舟水桥,,30,30,27,15,10,120,20,24,23,22,15,1,1,0.6,0.6
2023-08-19T03:00:00,1915A,106.9178,27.72,遵义市,干田坝,,14,14,23,9,14,120,43,40,40,15,16,6,6,0.5,0.6
2023-08-19T03:00:00,1916A,103.7897,25.5035,曲靖市,环境监测站,,33,33,35,14,17,121,47,72,57,22,21,7,4,1.3,0.8
2023-08-19T03:00:00,1917A,103.8,25.5364,曲靖市,烟厂办公区,,35,35,32,11,17,118,34,60,48,29,17,8,6,0.8,0.6
2023-08-19T03:00:00,1918A,108.7197,34.3956,咸阳市,气象站,,,,,,,,,,,,,,,,
2023-08-19T03:00:00,1919A,108.673,34.3155,咸阳市,实验中学,颗粒物(PM10),51,52,66,24,26,120,54,56,55,30,39,6,7,0.4,0.5
2023-08-19T03:00:00,1920A,108.7233,34.3617,咸阳市,师范学院,颗粒物(PM10),60,69,65,31,23,125,23,71,43,45,25,3,4,0.6,0.5
2023-08-19T03:00:00,1922A,109.0656,35.0994,铜川市,党校,颗粒物(PM10),61,71,93,28,28,115,3,3,3,40,32,7,8,0.7,0.7
2023-08-19T03:00:00,1923A,109.0697,35.0697,铜川市,王益区政府,颗粒物(PM10),52,53,70,22,29,119,8,4,4,46,31,6,6,0.4,0.4
2023-08-19T03:00:00,1924A,108.9344,34.9058,铜川市,新区管委会,,43,43,83,21,30,142,49,41,41,12,19,4,5,0.5,0.6
2023-08-19T03:00:00,1926A,109.4131,36.6275,延安市,枣园,,38,38,49,15,19,150,20,22,21,35,32,5,6,0.6,0.6
2023-08-19T03:00:00,1927A,109.4761,36.6028,延安市,延大医附院,,45,45,50,10,13,167,17,15,15,40,33,4,5,0.3,0.3
2023-08-19T03:00:00,1929A,109.5056,36.6106,延安市,百米大道,,40,40,64,11,16,163,22,17,17,47,39,4,6,0.4,0.5
2023-08-19T03:00:00,1930A,107.185,34.3063,宝鸡市,庙沟村,,25,25,32,14,16,114,42,52,48,29,16,7,7,0.3,0.3
2023-08-19T03:00:00,1931A,107.0708,34.3017,宝鸡市,竹园沟,,26,26,30,12,13,130,57,57,57,12,12,5,7,0.4,0.4
2023-08-19T03:00:00,1932A,107.1906,34.3672,宝鸡市,三陆医院,,31,31,47,16,17,135,39,37,37,27,24,12,10,0.4,0.5
2023-08-19T03:00:00,1933A,107.1431,34.3547,宝鸡市,监测站,,32,32,52,20,19,119,54,50,50,16,21,6,6,0.4,0.4
2023-08-19T03:00:00,1934A,107.1186,34.3739,宝鸡市,技工学校,,34,34,41,17,17,124,46,52,48,14,13,6,7,0.4,0.3
2023-08-19T03:00:00,1935A,107.3906,34.3528,宝鸡市,陈仓区环保局家属楼,,39,39,48,18,19,140,41,38,38,24,24,6,7,0.5,0.5
2023-08-19T03:00:00,1936A,107.2058,34.3497,宝鸡市,文理学院,,42,42,46,10,13,129,47,43,43,16,17,3,5,0.4,0.4
2023-08-19T03:00:00,1937A,107.2386,34.3622,宝鸡市,三迪小学,,37,37,44,15,14,138,36,39,38,18,17,11,6,0.5,0.5
2023-08-19T03:00:00,1938A,109.5293,34.5101,渭南市,农科所,,46,46,64,22,25,118,68,113,93,24,14,4,5,0.2,0.3
2023-08-19T03:00:00,1939A,109.4974,34.4877,渭南市,日报社,,46,46,64,22,26,121,75,75,75,21,24,4,7,0.2,0.3
2023-08-19T03:00:00,1940A,109.4636,34.493,渭南市,体育馆,,41,41,60,15,18,127,87,100,96,18,15,4,4,0.3,0.3
2023-08-19T03:00:00,1941A,109.4259,34.5023,渭南市,高新一小,颗粒物(PM10),56,61,67,22,20,135,40,101,74,30,19,5,6,0.4,0.4
2023-08-19T03:00:00,1943A,102.1725,38.5339,金昌市,新川苑,,33,13,28,4,3,134,104,110,107,6,11,7,8,0.5,0.5
2023-08-19T03:00:00,1944A,102.1692,38.5167,金昌市,天庆家园,,33,24,14,9,6,140,104,104,104,9,13,6,8,0.5,0.6
2023-08-19T03:00:00,1945A,98.2908,39.7711,嘉峪关市,气象局,,19,19,33,5,9,132,54,50,50,23,17,1,3,0.3,0.4
2023-08-19T03:00:00,1947A,106.3394,38.817,石嘴山市,沙湖旅游区,颗粒物(PM10),58,65,63,20,23,180,45,72,57,26,24,10,22,0.8,0.8
2023-08-19T03:00:00,1948A,106.3668,39.0145,石嘴山市,大武口朝阳西街,颗粒物(PM10),52,53,82,28,34,172,65,70,60,45,48,18,28,0.6,0.8
2023-08-19T03:00:00,1949A,106.7704,39.2282,石嘴山市,惠农南大街,,43,43,68,12,19,172,20,18,17,59,48,74,18,0.8,0.6
2023-08-19T03:00:00,1950A,106.7099,39.1325,石嘴山市,红果子镇惠新街,,36,36,64,8,21,229,47,36,36,33,40,12,20,0.4,0.6
2023-08-19T03:00:00,1951A,84.895,45.6094,克拉玛依市,长征新村,,33,18,19,2,5,127,105,112,110,3,13,10,10,0.2,0.2
2023-08-19T03:00:00,1952A,84.8988,45.5893,克拉玛依市,南林小区,,31,20,23,14,11,125,99,103,102,10,20,10,9,0.1,0.2
2023-08-19T03:00:00,1954A,84.905,44.3396,克拉玛依市,独山子区,,41,26,27,15,12,161,129,108,108,4,14,8,10,0.3,0.4
2023-08-19T03:00:00,1955A,85.6979,46.098,克拉玛依市,乌尔禾区商贸楼,,27,18,18,5,8,119,84,68,68,2,7,7,6,0.4,0.5
2023-08-19T03:00:00,1956A,86.1472,41.7538,巴音郭楞州,孔雀公园,颗粒物(PM10),57,63,86,21,22,127,75,27,27,41,34,6,7,0.3,0.5
2023-08-19T03:00:00,1957A,86.1972,41.7166,巴音郭楞州,棉纺厂,,,143,90,9,26,131,93,41,41,16,22,,5,0.4,0.4
2023-08-19T03:00:00,1958A,86.2357,41.7173,巴音郭楞州,经济开发区,,41,41,83,18,24,132,122,73,73,3,14,6,6,0.3,0.3
2023-08-19T03:00:00,1961A,117.532,36.6868,济南市,东山小学,颗粒物(PM10),58,66,67,32,36,193,69,72,71,35,27,4,5,0.5,0.6
2023-08-19T03:00:00,1966A,120.0405,35.8735,青岛市,黄岛区4号,,34,34,28,22,20,151,107,108,100,11,13,3,4,0.5,0.6
2023-08-19T03:00:00,1982A,122.0693,37.2174,威海市,文登开发区,,36,27,41,22,23,168,115,114,114,5,10,6,6,0.6,0.7
2023-08-19T03:00:00,2031A,113.1817,27.9958,株洲市,云田中学,,49,49,51,26,29,185,76,81,78,10,14,4,6,0.7,0.8
2023-08-19T03:00:00,2054A,114.1099,32.1059,信阳市,平桥分局,,40,40,38,28,26,163,74,98,86,14,12,1,1,1.0,0.9
2023-08-19T03:00:00,2064A,113.9956,32.1271,信阳市,南湾水厂,,46,46,48,21,26,155,87,83,83,8,8,2,2,0.9,0.8
2023-08-19T03:00:00,2065A,114.0775,32.1195,信阳市,市酿酒公司,颗粒物(PM10),56,61,47,22,28,165,86,102,94,15,13,3,2,0.8,0.7
2023-08-19T03:00:00,2066A,114.0609,32.1399,信阳市,审计局,颗粒物(PM10),52,53,47,25,30,167,82,89,84,22,13,3,3,0.8,0.8
2023-08-19T03:00:00,2067A,114.6613,33.6128,周口市,市环境监测站,,,,,,,,,,,,,,,,
2023-08-19T03:00:00,2068A,114.6758,33.6347,周口市,周口师范,颗粒物(PM10),56,61,67,29,34,168,84,95,89,10,16,5,4,0.7,0.9
2023-08-19T03:00:00,2069A,114.6546,33.5979,周口市,市运管处,细颗粒物(PM2.5),55,52,69,39,37,153,79,82,79,18,27,11,5,0.6,0.7
2023-08-19T03:00:00,2070A,114.6369,33.6406,周口市,川汇区环保局,,50,50,60,27,31,161,89,100,93,11,17,3,3,0.9,1
2023-08-19T03:00:00,2075A,117.6336,24.4674,漳州市,九湖,,,,,,,,,,,,,,,,
2023-08-19T03:00:00,2160A,112.85,35.5051,晋城市,自来水公司,颗粒物(PM10),67,83,135,24,48,173,99,86,86,12,16,8,9,1.0,1.2
2023-08-19T03:00:00,2161A,112.8318,35.4936,晋城市,白云商贸,颗粒物(PM10),88,125,132,34,36,134,72,85,76,25,22,9,9,0.9,1
2023-08-19T03:00:00,2162A,112.8508,35.4887,晋城市,市环保局,颗粒物(PM10),66,81,148,46,52,172,73,91,79,21,21,9,10,1.0,1.2
2023-08-19T03:00:00,2163A,112.8676,35.4897,晋城市,技术学院,颗粒物(PM10),65,80,128,39,47,181,84,94,86,20,20,8,9,1.1,1.3
2023-08-19T03:00:00,2165A,112.8453,35.546,晋城市,白马寺,,,,,,,,,,,,,,,,
2023-08-19T03:00:00,2166A,112.4397,39.3522,朔州市,平朔,颗粒物(PM10),70,90,87,22,27,147,31,38,35,58,29,27,11,0.6,0.5
2023-08-19T03:00:00,2167A,112.4575,39.3617,朔州市,朔唯,颗粒物(PM10),111,171,112,39,32,156,0,0,0,88,38,42,13,0.7,0.5
2023-08-19T03:00:00,2168A,112.4258,39.3197,朔州市,区政府,颗粒物(PM10),56,62,86,13,26,147,71,63,63,25,25,15,10,0.5,0.6
2023-08-19T03:00:00,2169A,112.4072,39.3278,朔州市,市环保局,颗粒物(PM10),65,79,84,3,25,158,76,76,74,24,23,15,11,0.5,0.5
2023-08-19T03:00:00,2170A,112.4272,39.3681,朔州市,市二中,颗粒物(PM10),77,104,106,24,29,154,31,30,30,62,33,25,11,0.5,0.5
2023-08-19T03:00:00,2171A,112.7532,37.6945,晋中市,锦纶小区,颗粒物(PM10),113,175,121,35,30,166,36,54,45,40,21,10,10,0.6,0.6
2023-08-19T03:00:00,2173A,112.7249,37.7067,晋中市,南都小区,颗粒物(PM10),111,171,133,46,45,161,55,70,60,33,21,7,8,0.5,0.5
2023-08-19T03:00:00,2174A,112.6991,37.6982,晋中市,榆次区政府,颗粒物(PM10),111,172,121,42,43,159,47,71,55,35,22,8,9,0.5,0.6
2023-08-19T03:00:00,2175A,110.9956,35.0147,运城市,运城中学,颗粒物(PM10),68,86,104,11,31,148,117,119,118,9,15,5,7,0.5,0.5
2023-08-19T03:00:00,2178A,110.9686,35.0303,运城市,地区技校,颗粒物(PM10),67,84,97,24,25,147,91,90,90,22,15,6,7,0.4,0.4
2023-08-19T03:00:00,2179A,111.0414,35.1147,运城市,空港新区,颗粒物(PM10),79,107,121,28,32,147,55,71,62,32,20,13,7,0.8,0.5
2023-08-19T03:00:00,2181A,112.7383,38.4519,忻州市,开发区,颗粒物(PM10),51,51,101,22,40,145,41,55,49,38,22,10,11,0.6,0.7
2023-08-19T03:00:00,2182A,112.7003,38.4928,忻州市,会展中心,颗粒物(PM10),56,61,103,26,39,136,22,48,33,37,21,8,9,0.5,0.5
2023-08-19T03:00:00,2183A,111.1406,37.5211,吕梁市,环保局,颗粒物(PM10),74,98,130,33,41,149,14,38,29,61,40,10,9,0.5,0.5
2023-08-19T03:00:00,2185A,111.1297,37.5136,吕梁市,自来水公司,颗粒物(PM10),77,103,116,24,37,144,26,37,32,48,27,12,8,0.4,0.5
2023-08-19T03:00:00,2187A,106.8174,39.6973,乌海市,市林业局,颗粒物(PM10),68,86,61,24,21,135,9,29,19,71,30,16,19,0.8,0.8
2023-08-19T03:00:00,2188A,106.7907,39.6667,乌海市,中海勃湾学校,颗粒物(PM10),60,69,54,22,18,137,6,6,6,83,39,26,22,0.4,0.5
2023-08-19T03:00:00,2191A,122.2532,43.6801,通辽市,艺术职业学校,,39,39,35,21,15,118,18,66,47,42,18,5,5,0.3,0.4
2023-08-19T03:00:00,2192A,119.7594,49.2261,呼伦贝尔市,区环保局,,33,19,20,23,24,70,50,55,52,5,8,4,4,0.2,0.3
2023-08-19T03:00:00,2195A,107.4212,40.761,巴彦淖尔市,附二中,,49,49,48,18,15,145,65,56,56,28,19,34,12,0.4,0.5
2023-08-19T03:00:00,2196A,107.37,40.7372,巴彦淖尔市,市环保大楼,,33,33,49,22,19,131,86,92,89,19,19,3,4,0.4,0.5
2023-08-19T03:00:00,2197A,113.1306,40.9923,乌兰察布市,集宁新区,,30,30,32,15,16,150,82,95,88,10,14,13,12,0.1,0.2
2023-08-19T03:00:00,2200A,122.0392,46.0656,兴安盟,胜华新制药厂,,22,22,18,9,11,115,29,29,29,8,10,2,2,0.3,0.3
2023-08-19T03:00:00,2201A,121.9504,46.0741,兴安盟,科右前旗环保局,,24,24,21,16,19,116,30,28,28,10,8,2,2,0.4,0.4
2023-08-19T03:00:00,2202A,116.1042,43.9317,锡林郭勒盟,市环保监测站,,19,13,27,5,5,116,60,69,63,2,8,8,9,0.2,0.2
2023-08-19T03:00:00,2203A,116.0781,43.9311,锡林郭勒盟,市政府,,21,12,24,7,4,119,65,74,68,3,11,11,11,0.2,0.2
2023-08-19T03:00:00,2204A,105.6467,38.8363,阿拉善盟,西城区西花园,,38,34,27,14,11,148,121,148,132,10,10,9,7,0.5,0.4
2023-08-19T03:00:00,2205A,105.6985,38.8411,阿拉善盟,蒙二幼,,39,28,20,10,7,150,123,136,126,5,7,6,6,0.4,0.4
2023-08-19T03:00:00,2206A,105.724,38.8516,阿拉善盟,环保局新楼,,40,28,17,9,6,142,126,127,124,5,5,9,7,0.4,0.4
2023-08-19T03:00:00,2207A,121.6094,41.998,阜新市,工业园区,颗粒物(PM10),53,56,55,25,26,158,3,6,5,42,25,7,11,1.2,0.7
2023-08-19T03:00:00,2208A,121.6697,42.0279,阜新市,长青街,细颗粒物(PM2.5),59,66,53,42,35,141,12,25,17,25,16,8,12,1.0,0.8
2023-08-19T03:00:00,2209A,121.6673,42.0705,阜新市,农业园区,颗粒物(PM10),52,54,46,33,34,158,53,70,58,14,11,18,12,1.1,0.9
2023-08-19T03:00:00,2210A,121.6717,42.0224,阜新市,东苑,颗粒物(PM10),55,59,52,35,31,146,23,32,23,23,15,21,18,0.9,0.7
2023-08-19T03:00:00,2211A,121.6506,42.0498,阜新市,玉龙新城,颗粒物(PM10),55,60,55,28,25,134,11,11,11,27,15,6,9,2.3,1
2023-08-19T03:00:00,2212A,123.2,41.1953,辽阳市,宏伟区,,41,41,30,23,17,136,30,65,49,28,9,6,5,0.8,0.6
2023-08-19T03:00:00,2213A,123.1683,41.2495,辽阳市,新华园,颗粒物(PM10),59,67,42,32,22,144,51,47,46,23,11,7,7,0.9,0.7
2023-08-19T03:00:00,2214A,123.2354,41.2639,辽阳市,滨河路,,44,44,35,25,22,133,50,43,43,17,15,6,6,0.9,0.8
2023-08-19T03:00:00,2215A,123.149,41.2991,辽阳市,铁西工业园,颗粒物(PM10),67,83,53,34,27,196,2,24,11,51,21,9,10,1.1,1
2023-08-19T03:00:00,2216A,123.8139,42.3022,铁岭市,汇工街西,,42,42,41,22,26,177,28,15,15,21,20,14,12,0.6,0.9
2023-08-19T03:00:00,2217A,123.8649,42.2923,铁岭市,水上乐园,,37,37,47,22,23,163,31,29,29,18,25,3,5,0.8,1.1
2023-08-19T03:00:00,2218A,123.8486,42.2867,铁岭市,银州路东段,颗粒物(PM10),51,52,51,13,18,157,15,19,17,30,27,6,8,0.6,0.8
2023-08-19T03:00:00,2219A,123.7153,42.2217,铁岭市,金沙江路北,,29,29,51,16,24,167,26,33,29,23,22,6,7,0.8,1.1
2023-08-19T03:00:00,2220A,120.4318,41.5881,朝阳市,西梁,颗粒物(PM10),65,79,66,31,29,155,53,65,60,11,9,9,8,0.9,0.9
2023-08-19T03:00:00,2221A,120.4521,41.5646,朝阳市,河畔小区,颗粒物(PM10),72,94,76,29,28,151,51,64,56,11,8,6,6,0.8,0.9
2023-08-19T03:00:00,2222A,120.4176,41.5648,朝阳市,八里堡,颗粒物(PM10),62,73,60,36,32,154,69,68,64,13,13,15,8,1.0,1
2023-08-19T03:00:00,2223A,120.3806,41.5969,朝阳市,农业园区,颗粒物(PM10),53,56,59,32,31,132,12,35,21,24,15,3,3,0.9,0.9
2023-08-19T03:00:00,2225A,124.4002,43.1713,四平市,一商场,,23,20,37,16,25,159,54,79,65,18,13,6,7,0.4,0.6
2023-08-19T03:00:00,2226A,124.388,43.193,四平市,境园,,29,29,37,13,24,153,13,73,45,26,10,6,7,0.2,0.4
2023-08-19T03:00:00,2227A,125.1358,42.8845,辽源市,环保局,,29,17,24,10,16,144,90,101,96,3,9,8,7,0.5,0.6
2023-08-19T03:00:00,2229A,125.9358,41.7173,通化市,光明,,14,14,26,5,14,83,7,8,7,13,14,9,12,0.2,0.4
2023-08-19T03:00:00,2230A,125.9446,41.7325,通化市,铁路,,20,16,23,14,14,82,8,13,9,15,16,6,11,0.6,0.7
2023-08-19T03:00:00,2231A,126.4219,41.9171,白山市,喜丰,,43,43,36,7,11,112,5,10,7,14,14,7,7,0.6,0.6
2023-08-19T03:00:00,2232A,126.4077,41.9419,白山市,环保局,,32,32,35,14,13,122,5,10,7,13,12,6,8,0.5,0.6
2023-08-19T03:00:00,2233A,124.8006,45.1214,松原市,江南,,22,22,30,8,14,102,17,25,19,18,13,6,7,0.4,0.4
2023-08-19T03:00:00,2234A,124.7965,45.1722,松原市,江北,,20,20,19,5,11,95,14,20,17,14,9,4,4,0.2,0.5
2023-08-19T03:00:00,2235A,122.7911,45.6077,白城市,洮北区环保局,,9,5,9,6,6,121,26,35,30,15,11,6,9,0.1,0.1
2023-08-19T03:00:00,2236A,122.8738,45.5725,白城市,市环保局,,13,11,15,0,4,120,33,50,44,25,13,6,8,0.2,0.2
2023-08-19T03:00:00,2237A,129.47,42.8883,延边朝鲜族自治州,妇幼医院,,12,12,23,2,9,80,20,24,22,8,10,7,8,0.5,0.5
2023-08-19T03:00:00,2238A,129.5055,42.9108,延边朝鲜族自治州,延边医院,,9,9,22,4,10,73,26,28,27,7,10,7,7,0.5,0.5
2023-08-19T03:00:00,2239A,129.3964,42.8881,延边朝鲜族自治州,朝阳川镇医院,,11,11,20,4,10,112,19,27,23,6,7,7,7,0.5,0.6
2023-08-19T03:00:00,2240A,130.9762,45.3001,鸡西市,环保局,,25,25,38,10,14,61,24,45,33,20,16,6,7,0.3,0.4
2023-08-19T03:00:00,2243A,130.9429,45.3039,鸡西市,第一中学,,13,13,31,7,12,88,26,59,42,20,14,7,7,0.3,0.4
2023-08-19T03:00:00,2244A,130.2537,47.3416,鹤岗市,哈啤分公司,,15,14,18,10,9,97,30,34,33,11,12,10,12,0.2,0.3
2023-08-19T03:00:00,2245A,130.2684,47.3086,鹤岗市,斯达机电,,13,13,16,3,7,92,37,33,33,12,10,8,8,0.4,0.4
2023-08-19T03:00:00,2246A,130.3114,47.3388,鹤岗市,东山纸板厂,,12,9,17,6,8,85,37,38,37,13,11,12,12,0.5,0.4
2023-08-19T03:00:00,2247A,130.1097,47.3382,鹤岗市,五号水库,,7,6,10,4,7,98,20,25,21,5,6,11,11,0.1,0.1
2023-08-19T03:00:00,2248A,131.1511,46.6937,双鸭山市,双合村,,32,32,24,5,8,78,30,32,28,9,8,8,6,0.7,0.4
2023-08-19T03:00:00,2249A,131.1652,46.6191,双鸭山市,南小市,,12,9,24,1,9,79,36,37,36,3,6,6,6,0.0,0.1
2023-08-19T03:00:00,2250A,131.1524,46.6554,双鸭山市,环保局,,12,10,15,4,6,78,36,40,38,6,8,7,7,0.4,0.3
2023-08-19T03:00:00,2251A,131.12,46.5656,双鸭山市,苗圃,,14,6,9,9,11,95,43,47,43,3,4,3,4,0.3,0.4
2023-08-19T03:00:00,2252A,128.5159,47.4311,伊春市,环保局,,13,11,16,5,8,82,41,35,35,3,9,3,7,0.2,0.4
2023-08-19T03:00:00,2253A,128.9102,47.7412,伊春市,电力嘉园,,14,11,11,8,9,89,42,35,34,6,8,6,6,0.5,0.7
2023-08-19T03:00:00,2254A,129.5029,48.471,伊春市,汤旺河国家公园,,31,31,30,16,13,69,22,40,34,1,1,14,13,1.6,1.1
2023-08-19T03:00:00,2255A,130.2751,46.8028,佳木斯市,佳纺,,20,20,29,5,11,84,31,32,32,10,9,4,5,0.4,0.5
2023-08-19T03:00:00,2256A,130.3995,46.8307,佳木斯市,发电厂,,25,25,24,12,12,93,50,42,42,5,8,4,5,0.4,0.5
2023-08-19T03:00:00,2257A,130.3258,46.7975,佳木斯市,环保局,,16,10,21,4,10,88,49,42,42,4,8,4,4,0.4,0.4
2023-08-19T03:00:00,2258A,130.3648,46.8032,佳木斯市,十一中,,16,15,23,7,12,85,50,45,45,6,14,6,5,0.4,0.5
2023-08-19T03:00:00,2259A,130.3794,46.7588,佳木斯市,四丰,,20,18,15,0,7,108,61,66,61,2,3,1,1,0.3,0.4
2023-08-19T03:00:00,2262A,131.0518,45.8751,七台河市,新一中,,18,18,23,10,12,114,37,60,48,6,6,8,8,0.7,0.7
2023-08-19T03:00:00,2263A,127.4833,50.2524,黑河市,交通局,,19,10,9,13,6,85,33,34,33,6,12,5,6,0.4,0.5
2023-08-19T03:00:00,2264A,127.5144,50.2341,黑河市,环保局,,16,14,16,11,6,95,38,38,38,3,7,2,3,0.2,0.4
2023-08-19T03:00:00,2265A,127.5291,50.2472,黑河市,大黑河岛,,19,2,9,13,11,112,43,43,43,2,2,1,7,0.2,0.4
2023-08-19T03:00:00,2266A,126.9785,46.6365,绥化市,人和东街,,17,17,23,6,10,111,38,38,38,8,10,5,5,0.3,0.4
2023-08-19T03:00:00,2267A,126.964,46.6528,绥化市,党政办公中心,,12,12,19,6,10,104,36,37,36,7,11,7,6,0.2,0.3
2023-08-19T03:00:00,2269A,124.1069,50.4097,大兴安岭地区,科技局,,22,16,11,15,11,92,29,32,31,2,3,3,6,0.2,0.2
2023-08-19T03:00:00,2270A,117.396,32.939,蚌埠市,工人疗养院,,46,46,44,24,24,188,56,48,48,25,24,4,6,0.5,0.5
2023-08-19T03:00:00,2271A,117.3605,32.9427,蚌埠市,百货大楼,,48,48,47,26,21,192,46,70,62,46,21,8,8,0.6,0.5
2023-08-19T03:00:00,2273A,117.4185,32.8911,蚌埠市,蚌埠学院,,39,34,42,27,28,165,64,84,74,18,15,4,6,0.5,0.6
2023-08-19T03:00:00,2274A,117.3533,32.9673,蚌埠市,淮上区政府,,48,48,48,26,29,184,64,59,56,27,22,6,7,0.6,0.6
2023-08-19T03:00:00,2275A,117.3145,32.8977,蚌埠市,高新区,,36,36,37,14,20,189,98,98,98,11,12,4,5,0.4,0.5
2023-08-19T03:00:00,2277A,116.8305,32.7727,淮南市,潘集区政府,,48,45,40,33,27,181,77,104,92,11,11,8,8,0.6,0.5
2023-08-19T03:00:00,2278A,117.0067,32.6524,淮南市,师范学院,,50,50,45,29,21,168,87,111,101,15,11,7,8,0.7,0.7
2023-08-19T03:00:00,2279A,116.8569,32.5951,淮南市,谢家集区政府,,36,28,31,24,12,164,113,112,112,16,12,22,16,0.5,0.5
2023-08-19T03:00:00,2280A,116.8281,32.633,淮南市,八公山区政府,,45,45,45,31,27,161,109,115,113,12,12,9,9,0.6,0.6
2023-08-19T03:00:00,2281A,116.6325,32.6201,淮南市,焦岗湖风景区管理处,,39,39,30,15,13,156,75,86,79,21,14,3,3,0.5,0.5
2023-08-19T03:00:00,2282A,116.8004,33.975,淮北市,监测站,,41,41,39,26,21,167,103,105,101,13,13,5,4,0.7,0.7
2023-08-19T03:00:00,2283A,116.8091,33.9007,淮北市,烈山区政府,颗粒物(PM10),58,65,56,28,27,182,118,111,111,14,15,4,5,0.5,0.6
2023-08-19T03:00:00,2285A,117.8177,30.9412,铜陵市,市第四中学,,36,36,39,21,25,172,105,118,110,8,9,8,6,0.3,0.4
2023-08-19T03:00:00,2286A,117.8059,30.9273,铜陵市,市公路局,,40,40,37,15,25,194,118,133,125,11,12,6,5,0.4,0.5
2023-08-19T03:00:00,2287A,117.7807,30.9413,铜陵市,市新民污水厂,颗粒物(PM10),51,51,48,23,20,203,114,102,102,17,14,6,6,0.5,0.5
2023-08-19T03:00:00,2288A,117.7439,30.8792,铜陵市,市第九中学,颗粒物(PM10),57,64,60,19,26,191,62,99,80,51,31,7,7,0.6,0.8
2023-08-19T03:00:00,2289A,117.846,30.9413,铜陵市,车站新区,,35,35,38,23,28,186,109,125,118,10,12,5,6,0.3,0.4
2023-08-19T03:00:00,2290A,117.8483,30.97,铜陵市,市职教基地,,38,38,39,18,19,184,98,113,100,10,11,4,5,0.6,0.7
2023-08-19T03:00:00,2291A,117.0809,30.5177,安庆市,环科院,,40,33,36,23,26,184,128,136,130,11,12,7,5,0.8,0.8
2023-08-19T03:00:00,2292A,117.0331,30.5119,安庆市,马山宾馆,,39,39,34,26,25,186,122,143,134,14,12,6,5,0.8,0.9
2023-08-19T03:00:00,2294A,116.9896,30.6145,安庆市,安庆大学,,35,34,31,24,25,159,101,117,108,10,9,5,4,0.6,0.7
2023-08-19T03:00:00,2295A,118.2903,29.6963,黄山市,延安路89号,,22,22,30,2,6,133,68,116,96,6,5,6,6,0.4,0.4
2023-08-19T03:00:00,2296A,118.327,29.7178,黄山市,黄山东路89号,,27,16,19,2,7,118,85,108,98,5,6,7,7,0.4,0.5
2023-08-19T03:00:00,2297A,118.1371,30.2756,黄山市,黄山区政府5号楼,,27,27,32,14,16,161,49,68,60,6,7,6,6,0.4,0.5
2023-08-19T03:00:00,2298A,118.3093,32.3153,滁州市,老年大学,,32,32,39,19,21,222,58,72,64,21,25,7,7,0.4,0.5
2023-08-19T03:00:00,2299A,118.3244,32.2786,滁州市,人大宾馆,,35,30,34,24,25,219,55,64,59,25,24,9,9,0.4,0.6
2023-08-19T03:00:00,2301A,115.8277,32.8929,阜阳市,市监测站,细颗粒物(PM2.5),60,67,38,43,19,169,77,85,79,17,15,12,8,0.7,0.6
2023-08-19T03:00:00,2303A,115.8554,32.8605,阜阳市,开发区,颗粒物(PM10),56,62,38,14,12,169,73,91,82,19,14,10,8,0.6,0.6
2023-08-19T03:00:00,2307A,116.5079,31.737,六安市,监测大楼,,35,35,31,22,15,211,91,101,94,13,8,4,5,0.5,0.5
2023-08-19T03:00:00,2308A,116.4738,31.7643,六安市,皖西学院,,45,45,38,21,15,217,97,120,108,14,10,7,7,0.3,0.3
2023-08-19T03:00:00,2309A,116.4996,31.7905,六安市,朝阳厂,,49,36,26,34,19,220,80,114,96,18,10,8,9,0.6,0.6
2023-08-19T03:00:00,2310A,116.5567,31.7886,六安市,开发区,,46,46,39,25,21,210,54,87,71,17,10,6,6,0.7,0.6
2023-08-19T03:00:00,2311A,115.8072,33.8399,亳州市,污水处理厂,,41,41,46,27,27,150,82,86,82,7,8,16,13,0.6,0.7
2023-08-19T03:00:00,2312A,115.7789,33.8518,亳州市,三国揽胜宫,,49,49,49,24,27,138,80,94,87,10,10,11,10,0.8,0.8
2023-08-19T03:00:00,2314A,117.47,30.6618,池州市,池州学院,,38,16,29,26,30,208,84,95,91,16,13,8,7,0.6,0.7
2023-08-19T03:00:00,2316A,118.7581,30.9454,宣城市,鳌峰子站,,34,34,30,19,19,146,73,88,82,17,15,6,5,0.4,0.4
2023-08-19T03:00:00,2317A,118.7385,30.9743,宣城市,敬亭山子站,,34,34,31,22,20,146,60,66,63,27,18,8,8,0.4,0.5
2023-08-19T03:00:00,2318A,118.7173,30.9427,宣城市,开发区子站,,27,27,31,16,19,143,81,93,88,17,12,9,6,0.4,0.4
2023-08-19T03:00:00,2319A,119.0141,25.4325,莆田市,荔城区仓后路,,,,28,1,9,137,82,92,84,4,10,7,7,0.6,0.7
2023-08-19T03:00:00,2320A,119.0015,25.4553,莆田市,莆田市监测站,,,,24,0,7,141,86,84,84,2,5,6,6,0.5,0.6
2023-08-19T03:00:00,2321A,119.1119,25.4561,莆田市,涵江区六中,,22,16,21,1,7,131,68,74,71,11,9,7,8,0.6,0.7
2023-08-19T03:00:00,2322A,119.1013,25.3215,莆田市,秀屿区政府,,22,15,23,2,11,132,70,87,80,9,10,8,8,0.6,0.7
2023-08-19T03:00:00,2323A,118.981,25.4792,莆田市,东圳水库,,,,,,,,,,,,,,,,
2023-08-19T03:00:00,2324A,117.6211,26.2625,三明市,三钢,,34,34,36,16,22,118,27,39,31,15,14,8,9,0.7,0.7
2023-08-19T03:00:00,2325A,117.635,26.2714,三明市,三明二中,,28,28,34,15,19,123,29,35,30,15,14,3,4,0.9,0.8
2023-08-19T03:00:00,2326A,117.6028,26.2378,三明市,三元区政府,,31,31,32,13,17,119,21,36,31,20,14,11,13,0.8,0.9
2023-08-19T03:00:00,2327A,117.7275,26.3108,三明市,洋溪,,,,,,,,,,,,,,,,
2023-08-19T03:00:00,2331A,118.0966,26.6761,南平市,茫荡山,,,,,,,,,,,,,,,,
2023-08-19T03:00:00,2332A,118.1681,26.6369,南平市,南平市监测站,,21,20,22,7,9,103,66,90,80,7,5,6,5,0.5,0.5
2023-08-19T03:00:00,2333A,118.1825,26.6489,南平市,南平铝业有限公司,,37,37,24,8,9,107,57,85,74,14,8,5,5,0.6,0.6
2023-08-19T03:00:00,2334A,118.1756,26.6272,南平市,南平七中,,26,26,38,4,6,109,69,95,86,7,4,5,4,0.7,0.6
2023-08-19T03:00:00,2335A,117.0189,25.1181,龙岩市,龙岩师专,,,,,,,,,,,,,,,,
2023-08-19T03:00:00,2336A,117.0217,25.1033,龙岩市,龙岩市监测站,,29,28,22,20,9,116,44,45,44,16,15,3,3,0.5,0.5
2023-08-19T03:00:00,2337A,117.0258,25.0661,龙岩市,闽西职业技术学院,,28,28,27,15,10,126,12,32,25,31,16,7,5,0.5,0.5
2023-08-19T03:00:00,2338A,117.0196,25.0306,龙岩市,龙岩学院,,24,24,19,10,9,137,41,51,46,12,9,3,4,0.3,0.3
2023-08-19T03:00:00,2339A,119.5001,26.6946,宁德市,金涵水库,,,,,,,,,,,,,,,,
2023-08-19T03:00:00,2341A,119.5388,26.6612,宁德市,宁德市监测站,,26,14,25,18,11,141,72,92,83,12,9,3,3,0.8,0.7
2023-08-19T03:00:00,2342A,117.3102,29.3867,景德镇市,王港中学,,32,14,21,22,15,131,5,5,5,3,4,3,3,0.6,0.6
2023-08-19T03:00:00,2343A,117.2117,29.2933,景德镇市,老干部活动中心,细颗粒物(PM2.5),53,31,31,37,22,118,34,37,35,13,12,4,5,0.5,0.5
2023-08-19T03:00:00,2344A,117.1894,29.2789,景德镇市,兽医站,,,38,27,20,22,129,51,48,48,,12,7,7,0.5,0.5
2023-08-19T03:00:00,2345A,117.1547,29.2617,景德镇市,台达陶瓷,,35,35,27,24,23,134,44,44,44,2,2,10,23,0.6,0.6
2023-08-19T03:00:00,2346A,117.2461,29.2956,景德镇市,陶研所,,40,40,34,18,14,120,48,45,45,3,10,6,7,0.4,0.4
2023-08-19T03:00:00,2347A,114.0997,27.5002,萍乡市,武功山,,23,19,16,16,17,127,51,56,54,5,4,6,9,1.4,1.3
2023-08-19T03:00:00,2348A,113.8385,27.6434,萍乡市,中医院,颗粒物(PM10),58,65,44,37,31,151,90,101,97,6,12,25,13,0.7,0.8
2023-08-19T03:00:00,2349A,113.8493,27.6253,萍乡市,市政府车库,颗粒物(PM10),58,66,48,28,30,158,58,76,65,27,15,49,19,1.3,0.7
2023-08-19T03:00:00,2350A,113.8676,27.6435,萍乡市,市环保局,细颗粒物(PM2.5),55,47,48,39,32,141,74,86,82,10,14,53,19,0.4,0.6
2023-08-19T03:00:00,2351A,113.866,27.6198,萍乡市,安源区政府,"颗粒物(PM10),细颗粒物(PM2.5)",55,59,46,39,31,157,61,69,66,18,14,31,17,0.6,0.9
2023-08-19T03:00:00,2352A,115.0861,27.9317,新余市,北岗,,45,41,49,31,32,162,24,40,32,13,8,14,13,0.8,0.9
2023-08-19T03:00:00,2353A,114.9886,27.8431,新余市,飞宇,颗粒物(PM10),54,58,63,36,37,156,61,76,66,17,14,10,11,0.7,0.7
2023-08-19T03:00:00,2354A,114.9231,27.8246,新余市,第二水厂,颗粒物(PM10),61,72,72,35,35,174,78,102,91,20,15,9,8,0.4,0.4
2023-08-19T03:00:00,2355A,114.9308,27.8036,新余市,市气象局,细颗粒物(PM2.5),64,69,59,46,37,155,75,75,75,12,11,8,6,1.0,1.1
2023-08-19T03:00:00,2357A,116.9822,28.1136,鹰潭市,龙虎山,,46,39,37,32,31,161,26,32,28,3,4,4,4,0.3,0.3
2023-08-19T03:00:00,2358A,117.0564,28.2642,鹰潭市,新监测站,,28,11,43,19,28,154,44,35,34,8,8,3,9,0.6,0.7
2023-08-19T03:00:00,2359A,117.0311,28.2475,鹰潭市,财苑宾馆,,36,34,48,25,28,151,45,38,38,8,9,2,11,0.5,0.5
2023-08-19T03:00:00,2360A,117.0222,28.2264,鹰潭市,体育馆,,30,24,48,21,30,150,44,53,44,9,13,2,8,0.5,0.5
2023-08-19T03:00:00,2361A,117.0017,28.2131,鹰潭市,三川水表,,44,44,52,29,30,151,41,44,36,1,7,1,5,0.6,0.6
2023-08-19T03:00:00,2362A,114.9017,25.9149,赣州市,通天岩,,,,,,,,,,,,,,,,
2023-08-19T03:00:00,2363A,114.9367,25.8664,赣州市,地委,,41,41,40,24,25,135,70,84,79,6,6,9,12,1.2,1.1
2023-08-19T03:00:00,2364A,114.9461,25.8481,赣州市,气象台,,37,37,33,23,22,154,91,105,96,10,11,7,8,0.7,0.7
2023-08-19T03:00:00,2365A,114.9322,25.8333,赣州市,市图书馆,,37,37,37,23,23,139,85,99,90,10,10,4,5,1.3,1.2
2023-08-19T03:00:00,2366A,114.8905,25.8471,赣州市,华坚鞋城,,40,38,41,28,26,113,51,58,56,10,9,9,11,0.6,0.8
2023-08-19T03:00:00,2367A,114.9754,27.0803,吉安市,红声器材厂,颗粒物(PM10),54,57,55,37,35,175,56,71,60,12,11,17,15,0.9,0.9
2023-08-19T03:00:00,2368A,114.9658,27.0999,吉安市,市森林工业局,颗粒物(PM10),56,62,53,36,37,169,48,70,60,20,10,9,11,0.6,0.6
2023-08-19T03:00:00,2369A,114.99,27.1312,吉安市,市环境监测站,颗粒物(PM10),60,70,55,33,32,156,60,59,59,16,13,18,12,0.9,0.9
2023-08-19T03:00:00,2370A,115.0093,27.0968,吉安市,青原区法院,,46,46,52,32,35,178,51,65,58,17,13,20,18,0.7,0.8
2023-08-19T03:00:00,2371A,114.3408,27.8064,宜春市,槟榔水业,,43,43,43,29,33,142,64,77,73,18,13,1,3,2.1,1.2
2023-08-19T03:00:00,2373A,114.3956,27.7844,宜春市,市石油公司,细颗粒物(PM2.5),52,50,52,36,31,167,52,50,50,15,15,3,4,1.0,1
2023-08-19T03:00:00,2374A,114.3703,27.7914,宜春市,市气象局,颗粒物(PM10),51,51,50,34,31,152,46,48,48,18,16,5,6,1.0,0.9
2023-08-19T03:00:00,2375A,114.4013,27.8074,宜春市,市广电局,,46,42,45,32,31,176,82,80,80,9,12,7,7,0.8,0.9
2023-08-19T03:00:00,2376A,116.2127,28.0814,抚州市,桐源党溪,,49,41,38,34,25,146,52,73,63,3,4,1,3,1.0,0.8
2023-08-19T03:00:00,2377A,116.3544,27.9831,抚州市,市站,"颗粒物(PM10),细颗粒物(PM2.5)",54,57,55,38,37,137,96,92,92,7,9,11,13,1.3,0.9
2023-08-19T03:00:00,2378A,116.3565,27.963,抚州市,血防站,颗粒物(PM10),53,56,54,34,34,138,108,100,100,3,6,6,6,0.9,0.9
2023-08-19T03:00:00,2379A,116.3564,28.0007,抚州市,采茶剧团,细颗粒物(PM2.5),57,54,52,40,34,132,91,89,89,8,12,4,6,0.9,0.8
2023-08-19T03:00:00,2380A,116.385,27.9647,抚州市,医学分院,颗粒物(PM10),52,54,57,32,34,137,98,102,101,10,11,5,5,1.3,1.3
2023-08-19T03:00:00,2381A,118.005,28.4572,上饶市,百草园,,43,43,31,22,19,117,70,63,63,9,9,4,9,0.8,0.8
2023-08-19T03:00:00,2382A,117.9756,28.4436,上饶市,市监测站,,32,32,34,15,18,139,83,73,73,9,10,7,11,0.5,0.6
2023-08-19T03:00:00,2383A,117.9519,28.4628,上饶市,凤凰光学,,28,25,35,19,18,139,76,76,76,8,9,6,11,0.7,0.8
2023-08-19T03:00:00,2385A,114.17,35.9019,鹤壁市,市监测站,,49,23,50,34,39,202,75,95,86,10,21,1,4,0.9,1.1
2023-08-19T03:00:00,2386A,114.2956,35.7511,鹤壁市,市交警支队,细颗粒物(PM2.5),58,59,60,41,35,182,39,55,50,22,18,8,14,0.8,1
2023-08-19T03:00:00,2387A,114.2878,35.7306,鹤壁市,迎宾馆,,39,39,53,25,33,188,50,62,58,17,21,8,10,0.9,1
2023-08-19T03:00:00,2389A,113.836,35.311,新乡市,环保西院,细颗粒物(PM2.5),58,56,59,41,38,180,47,69,59,21,15,5,6,0.9,0.9
2023-08-19T03:00:00,2390A,113.884,35.272,新乡市,开发区,,45,40,51,31,36,188,48,82,69,17,12,3,4,0.7,1
2023-08-19T03:00:00,2391A,113.883,35.303,新乡市,环保东院,颗粒物(PM10),51,52,67,35,35,187,71,88,73,15,17,8,5,0.7,0.9
2023-08-19T03:00:00,2392A,115.0312,35.7636,濮阳市,环保局,细颗粒物(PM2.5),60,31,42,43,35,162,58,55,54,13,13,6,5,0.8,0.9
2023-08-19T03:00:00,2394A,115.0574,35.7609,濮阳市,油田运输公司,细颗粒物(PM2.5),57,45,52,40,35,162,51,50,50,13,14,6,6,0.8,0.8
2023-08-19T03:00:00,2395A,115.0866,35.7754,濮阳市,油田物探公司,细颗粒物(PM2.5),62,50,52,44,36,170,53,47,47,12,13,4,4,0.7,0.9
2023-08-19T03:00:00,2396A,113.8276,34.0159,许昌市,监测站,细颗粒物(PM2.5),69,59,66,50,42,171,87,104,95,17,19,3,4,0.5,0.6
2023-08-19T03:00:00,2398A,113.7906,33.9953,许昌市,开发区,细颗粒物(PM2.5),63,56,67,45,36,164,78,80,80,16,24,2,2,0.6,0.7
2023-08-19T03:00:00,2399A,114.051,33.5699,漯河市,三五一五工厂,颗粒物(PM10),56,61,70,39,38,166,92,91,91,23,21,14,11,0.7,0.6
2023-08-19T03:00:00,2400A,114.0055,33.5698,漯河市,漯河大学,细颗粒物(PM2.5),67,56,65,48,42,168,115,110,110,8,16,10,9,0.6,0.6
2023-08-19T03:00:00,2401A,114.0138,33.5828,漯河市,市水利局,细颗粒物(PM2.5),64,58,63,46,38,164,113,106,106,8,16,11,9,0.9,0.9
2023-08-19T03:00:00,2402A,114.0261,33.5698,漯河市,市广电局,细颗粒物(PM2.5),58,59,63,41,39,168,104,96,96,13,17,8,8,0.7,0.6
2023-08-19T03:00:00,2404A,112.5224,33.0122,南阳市,瓦房庄,,48,48,54,33,31,178,64,77,70,13,15,6,6,0.6,0.7
2023-08-19T03:00:00,2405A,112.5003,32.9735,南阳市,汉画馆,,43,43,51,27,31,197,61,85,72,13,14,7,8,0.6,0.7
2023-08-19T03:00:00,2406A,112.5573,33.027,南阳市,气象站,颗粒物(PM10),57,64,57,35,34,172,47,71,58,17,12,6,6,0.6,0.6
2023-08-19T03:00:00,2407A,112.5481,32.9689,南阳市,理工学院,颗粒物(PM10),53,55,55,24,28,174,75,81,75,12,12,8,8,0.5,0.5
2023-08-19T03:00:00,2408A,115.6702,34.4285,商丘市,环境监测站,细颗粒物(PM2.5),52,29,56,36,37,151,98,112,107,9,11,7,7,0.7,0.7
2023-08-19T03:00:00,2409A,115.6458,34.4045,商丘市,粮食局,,45,33,59,31,38,151,107,113,109,9,11,3,4,0.5,0.6
2023-08-19T03:00:00,2410A,115.6293,34.3948,商丘市,睢阳区环保局,,46,46,67,27,35,145,101,102,102,11,16,7,7,0.5,0.6
2023-08-19T03:00:00,2420A,114.0189,32.9656,驻马店市,市一纸厂,,44,44,50,24,28,171,86,75,75,11,20,6,7,0.4,0.5
2023-08-19T03:00:00,2421A,114.0114,33.015,驻马店市,市彩印厂,,46,46,56,31,27,163,108,88,88,7,16,10,8,0.7,0.6
2023-08-19T03:00:00,2422A,113.9976,32.9771,驻马店市,天方二分厂,,49,49,63,24,34,166,99,89,89,8,13,4,6,0.5,0.6
2023-08-19T03:00:00,2423A,115.0601,30.2313,黄石市,沈家营,颗粒物(PM10),53,56,53,27,22,180,74,101,91,28,21,10,10,1.0,0.6
2023-08-19T03:00:00,2424A,115.0817,30.2006,黄石市,陈家湾,,48,48,50,22,24,172,126,126,126,2,16,7,7,0.6,0.7
2023-08-19T03:00:00,2426A,114.8988,30.2019,黄石市,铁山,,38,28,41,20,22,189,121,124,123,9,11,4,5,0.7,0.8
2023-08-19T03:00:00,2427A,115.0307,30.2092,黄石市,团城山,,45,42,45,19,18,193,142,145,144,6,14,4,7,0.6,0.6
2023-08-19T03:00:00,2428A,111.0419,32.395,十堰市,武当山,颗粒物(PM10),55,60,39,34,24,141,96,104,100,6,7,9,9,0.6,0.7
2023-08-19T03:00:00,2429A,110.78,32.6494,十堰市,滨河新村,颗粒物(PM10),75,100,57,35,28,173,57,58,57,11,11,11,8,0.7,0.6
2023-08-19T03:00:00,2430A,110.7258,32.6389,十堰市,刘家沟,颗粒物(PM10),67,84,89,44,38,150,60,67,63,6,9,8,8,0.8,0.7
2023-08-19T03:00:00,2431A,110.8839,32.5714,十堰市,铁二处,,46,46,46,21,22,203,57,64,61,3,7,5,6,0.6,0.6
2023-08-19T03:00:00,2432A,112.155,32.0197,襄阳市,襄城运动路,颗粒物(PM10),57,63,69,27,34,176,93,104,98,12,13,3,2,0.9,0.9
2023-08-19T03:00:00,2433A,112.1392,32.0564,襄阳市,樊城新华路,"颗粒物(PM10),细颗粒物(PM2.5)",59,67,67,42,35,178,93,108,101,12,11,6,6,0.7,0.7
2023-08-19T03:00:00,2434A,112.1825,32.1142,襄阳市,高新管委会,颗粒物(PM10),70,89,74,46,41,174,75,82,79,14,14,5,5,0.8,0.8
2023-08-19T03:00:00,2435A,112.2106,32.0903,襄阳市,襄州航空路,颗粒物(PM10),67,83,76,45,36,163,67,82,75,19,15,6,7,0.8,0.8
2023-08-19T03:00:00,2436A,114.8938,30.3994,鄂州市,市政府,,50,50,43,28,21,172,90,103,99,14,13,3,3,0.6,0.6
2023-08-19T03:00:00,2437A,114.8989,30.3714,鄂州市,赵家坝,,38,38,53,25,22,178,83,89,86,21,20,4,4,0.5,0.5
2023-08-19T03:00:00,2439A,112.2014,31.0481,荆门市,竹园小学,细颗粒物(PM2.5),77,54,60,56,38,198,91,88,88,18,16,8,10,1.2,0.9
2023-08-19T03:00:00,2440A,112.1969,30.9891,荆门市,掇刀,颗粒物(PM10),62,74,54,36,36,180,55,104,88,38,18,16,15,1.2,0.7
2023-08-19T03:00:00,2441A,112.2213,31.0386,荆门市,石化一小,颗粒物(PM10),72,93,63,46,42,197,53,99,76,36,19,7,9,1.0,0.6
2023-08-19T03:00:00,2443A,113.9153,30.9285,孝感市,文化路,,36,22,34,19,24,156,114,112,112,7,10,6,7,0.7,0.7
2023-08-19T03:00:00,2444A,113.942,30.9075,孝感市,东城区,,38,25,39,17,22,164,120,122,120,6,8,7,7,0.7,0.7
2023-08-19T03:00:00,2446A,114.9028,30.4742,黄冈市,职工中心,,44,44,46,28,28,169,93,98,94,2,7,9,12,0.7,0.7
2023-08-19T03:00:00,2447A,114.3175,29.8142,咸宁市,森林公园,,40,40,45,25,25,172,110,119,116,4,4,5,5,0.8,0.8
2023-08-19T03:00:00,2448A,114.3107,29.8454,咸宁市,市发改委,,,42,47,,19,186,91,82,81,10,9,6,6,0.7,0.6
2023-08-19T03:00:00,2449A,114.2936,29.8566,咸宁市,咸安区政府,,43,41,42,30,30,162,83,104,92,11,13,6,6,0.7,0.6
2023-08-19T03:00:00,2451A,113.3583,31.7275,随州市,市委党校,,37,37,46,24,29,146,102,111,108,4,6,7,7,0.7,0.7
2023-08-19T03:00:00,2452A,113.3833,31.6908,随州市,市林业局,,37,34,42,25,30,158,118,118,118,6,12,4,5,0.7,0.8
2023-08-19T03:00:00,2453A,113.3983,31.7308,随州市,市立交桥水厂,,38,34,40,26,29,147,76,80,70,12,12,7,8,0.8,0.8
2023-08-19T03:00:00,2454A,109.4978,30.2981,恩施土家族苗族自治州,湖北民院,,,,,,,,,,,,,,,,
2023-08-19T03:00:00,2455A,109.4707,30.2798,恩施土家族苗族自治州,州电力总公司,,38,24,35,26,25,134,83,64,64,6,14,8,8,0.7,0.7
