timepoint,stationcode,longitude,latitude,area,positionname,primarypollutant,aqi,pm10,pm10_24h,pm2_5,pm2_5_24h,o3,o3_24h,o3_8h,o3_8h_24h,no2,no2_24h,so2,so2_24h,co,co_24h
2023-08-19T00:00:00,1001A,116.3621,39.8784,北京市,万寿西宫,颗粒物(PM10),67,84,55,37,25,154,72,134,120,37,24,3,3,0.6,0.5
2023-08-19T00:00:00,1002A,116.2202,40.2915,北京市,定陵,,19,19,34,6,14,112,51,103,68,7,7,3,3,0.3,0.3
2023-08-19T00:00:00,1003A,116.4174,39.9289,北京市,东四,颗粒物(PM10),67,84,54,31,22,165,89,141,131,29,19,1,2,0.5,0.4
2023-08-19T00:00:00,1004A,116.4072,39.8863,北京市,天坛,颗粒物(PM10),60,70,44,31,21,158,59,129,106,36,23,3,3,0.4,0.3
2023-08-19T00:00:00,1005A,116.462,39.9365,北京市,农展馆,颗粒物(PM10),63,75,52,29,23,159,95,138,132,28,29,3,3,0.4,0.4
2023-08-19T00:00:00,1006A,116.3392,39.9295,北京市,官园,颗粒物(PM10),65,80,55,31,22,160,75,141,127,38,25,3,2,0.4,0.3
2023-08-19T00:00:00,1007A,116.2878,39.9611,北京市,海淀万柳,颗粒物(PM10),57,63,51,23,22,135,69,122,110,34,28,1,2,0.3,0.3
2023-08-19T00:00:00,1008A,116.6636,40.135,北京市,顺义新城,颗粒物(PM10),54,58,60,17,26,155,58,132,113,34,16,3,3,0.4,0.3
2023-08-19T00:00:00,1009A,116.6275,40.3275,北京市,怀柔镇,,22,16,53,7,26,126,68,109,92,11,12,3,3,0.3,0.3
2023-08-19T00:00:00,1010A,116.2296,40.217,北京市,昌平镇,,24,18,36,7,18,119,76,110,89,6,10,3,2,0.2,0.2
2023-08-19T00:00:00,1011A,116.3966,39.9821,北京市,奥体中心,颗粒物(PM10),57,64,54,27,22,122,70,99,97,37,27,3,3,0.6,0.5
2023-08-19T00:00:00,1012A,116.184,39.9136,北京市,古城,颗粒物(PM10),51,52,70,17,26,142,77,119,102,20,16,3,3,0.2,0.2
2023-08-19T00:00:00,1015A,117.1444,39.1661,天津市,勤俭道,细颗粒物(PM2.5),83,100,57,61,39,210,104,189,158,15,16,6,8,0.8,0.7
2023-08-19T00:00:00,1017A,117.237,39.1082,天津市,大直沽八号路,细颗粒物(PM2.5),82,106,76,60,45,196,76,163,132,22,18,3,4,0.8,0.8
2023-08-19T00:00:00,1018A,117.202,39.0927,天津市,前进道,细颗粒物(PM2.5),78,103,72,57,44,201,73,167,133,27,22,6,7,0.8,0.8
2023-08-19T00:00:00,1019A,117.1837,39.2133,天津市,淮河道,颗粒物(PM10),80,110,73,55,44,203,104,177,152,17,21,3,5,1.0,0.9
2023-08-19T00:00:00,1021A,117.307,39.0877,天津市,跃进路,细颗粒物(PM2.5),77,99,73,56,42,214,78,179,141,21,20,5,7,0.8,0.8
2023-08-19T00:00:00,1023A,117.707,39.0343,天津市,第四大街,细颗粒物(PM2.5),87,108,66,64,43,196,78,172,140,23,20,5,6,0.8,0.8
2023-08-19T00:00:00,1024A,117.457,38.8394,天津市,永明路,细颗粒物(PM2.5),92,104,67,68,46,189,71,166,117,16,14,2,6,0.6,0.7
2023-08-19T00:00:00,1026A,117.764,39.1587,天津市,汉北路,细颗粒物(PM2.5),94,101,72,70,39,225,72,189,156,23,27,4,5,1.4,0.8
2023-08-19T00:00:00,1027A,117.157,38.9194,天津市,团泊洼,细颗粒物(PM2.5),62,72,70,44,46,196,79,153,116,19,19,2,3,0.8,0.9
2023-08-19T00:00:00,1029A,114.4422,38.0444,石家庄市,职工医院,颗粒物(PM10),67,83,88,46,40,149,57,138,112,33,21,2,3,0.7,0.7
2023-08-19T00:00:00,1030A,114.6063,38.0266,石家庄市,高新区,细颗粒物(PM2.5),64,65,77,46,41,143,81,129,103,18,22,2,1,0.9,0.7
2023-08-19T00:00:00,1031A,114.4898,38.1328,石家庄市,西北水源,颗粒物(PM10),72,93,78,40,35,126,31,117,86,44,23,3,3,0.6,0.7
2023-08-19T00:00:00,1032A,114.4586,38.0058,石家庄市,西南高教,颗粒物(PM10),55,59,76,30,36,142,52,135,101,30,18,3,4,0.6,0.7
2023-08-19T00:00:00,1033A,114.5331,38.0178,石家庄市,世纪公园,颗粒物(PM10),53,56,68,34,35,131,69,121,99,21,20,3,3,0.5,0.6
2023-08-19T00:00:00,1034A,114.509,38.0457,石家庄市,人民会堂,颗粒物(PM10),69,88,87,44,40,162,81,138,116,22,21,2,3,0.6,0.6
2023-08-19T00:00:00,1035A,114.3524,37.8911,石家庄市,封龙山,颗粒物(PM10),72,93,101,30,39,166,153,148,148,6,9,1,2,0.8,1
2023-08-19T00:00:00,1037A,118.131,39.6363,唐山市,雷达站,细颗粒物(PM2.5),115,121,79,87,46,182,132,162,157,17,19,3,2,1.1,0.8
2023-08-19T00:00:00,1038A,118.1725,39.6334,唐山市,物资局,细颗粒物(PM2.5),117,102,71,88,43,175,129,158,151,16,19,4,5,1.2,0.8
2023-08-19T00:00:00,1040A,118.1705,39.6506,唐山市,十二中,细颗粒物(PM2.5),100,93,68,75,40,180,138,156,152,19,21,3,3,1.0,0.8
2023-08-19T00:00:00,1041A,118.1869,39.622,唐山市,小山,细颗粒物(PM2.5),110,124,80,83,39,211,121,164,150,13,22,3,2,1.3,0.8
2023-08-19T00:00:00,1042A,119.5134,39.8207,秦皇岛市,北戴河环保局,细颗粒物(PM2.5),53,37,39,37,22,172,144,161,160,10,13,4,5,0.1,0.2
2023-08-19T00:00:00,1043A,119.7493,40.0116,秦皇岛市,第一关,颗粒物(PM10),69,88,59,45,34,154,4,141,106,108,40,3,3,0.8,0.8
2023-08-19T00:00:00,1044A,119.5897,39.9499,秦皇岛市,监测站,颗粒物(PM10),70,89,57,46,33,147,44,138,114,63,29,6,9,0.8,1
2023-08-19T00:00:00,1046A,119.5251,39.9041,秦皇岛市,建设大厦,颗粒物(PM10),68,85,60,39,37,174,0,153,104,104,27,4,5,0.8,1
2023-08-19T00:00:00,1048A,114.5302,36.6116,邯郸市,东污水处理厂,细颗粒物(PM2.5),55,53,50,39,36,229,37,168,104,43,27,10,12,0.7,1.5
2023-08-19T00:00:00,1049A,114.4918,36.5713,邯郸市,矿院,细颗粒物(PM2.5),52,44,52,36,36,203,46,159,104,35,26,3,11,0.9,1.7
2023-08-19T00:00:00,1050A,114.484,36.6133,邯郸市,丛台公园,颗粒物(PM10),56,61,59,33,32,216,91,167,110,12,15,10,15,1.6,1.9
2023-08-19T00:00:00,1051A,115.493,38.8632,保定市,游泳馆,颗粒物(PM10),67,83,78,39,44,162,85,147,122,25,22,5,5,0.4,0.4
2023-08-19T00:00:00,1052A,115.5213,38.8959,保定市,华电二区,颗粒物(PM10),68,85,85,42,34,161,100,144,130,14,17,6,4,0.7,0.6
2023-08-19T00:00:00,1053A,115.4713,38.9108,保定市,接待中心,颗粒物(PM10),70,90,87,30,33,158,81,135,112,17,17,7,7,0.7,0.7
2023-08-19T00:00:00,1054A,115.4612,38.8416,保定市,地表水厂,颗粒物(PM10),65,79,103,28,36,156,81,136,104,18,32,7,7,0.5,0.7
2023-08-19T00:00:00,1056A,115.5086,38.8639,保定市,监测站,颗粒物(PM10),71,91,83,40,37,163,85,150,127,23,22,7,5,0.3,0.4
2023-08-19T00:00:00,1057A,114.8883,40.8336,张家口市,人民公园,,26,21,28,5,10,131,81,125,100,10,10,2,3,0.1,0.1
2023-08-19T00:00:00,1059A,114.8687,40.8042,张家口市,五金库,,32,32,31,4,11,131,72,124,87,19,12,3,3,0.2,0.2
2023-08-19T00:00:00,1060A,114.8902,40.762,张家口市,世纪豪园,,36,36,30,7,16,131,65,122,88,30,15,2,2,0.0,0
2023-08-19T00:00:00,1061A,114.8916,40.8661,张家口市,北泵房,,25,23,24,12,8,138,77,129,97,9,7,6,7,0.2,0.2
2023-08-19T00:00:00,1062A,117.9531,40.9081,承德市,铁路,颗粒物(PM10),56,62,48,19,21,128,9,110,60,76,34,8,11,0.5,0.5
2023-08-19T00:00:00,1063A,117.9392,40.9763,承德市,中国银行,颗粒物(PM10),52,54,43,12,18,143,16,127,65,41,19,7,8,0.3,0.3
2023-08-19T00:00:00,1064A,117.9503,40.928,承德市,开发区,,37,37,44,14,18,146,72,135,108,24,16,6,10,0.6,0.4
2023-08-19T00:00:00,1065A,117.8051,40.9655,承德市,文化中心,,50,50,50,7,19,139,14,124,57,62,28,5,8,0.4,0.4
2023-08-19T00:00:00,1066A,117.9268,41.0026,承德市,离宫,,24,24,37,9,16,140,42,121,78,23,10,8,9,0.3,0.3
2023-08-19T00:00:00,1067A,116.6708,39.5111,廊坊市,药材公司,颗粒物(PM10),58,65,72,27,32,212,70,184,138,34,24,1,2,0.5,0.5
2023-08-19T00:00:00,1068A,116.7214,39.5589,廊坊市,开发区,颗粒物(PM10),52,53,57,33,33,181,103,167,142,19,19,2,2,0.5,0.5
2023-08-19T00:00:00,1070A,116.7244,39.5269,廊坊市,北华航天学院,颗粒物(PM10),53,56,72,23,36,214,102,180,159,30,22,7,7,0.5,0.5
2023-08-19T00:00:00,1071A,116.8842,38.2991,沧州市,沧县城建局,,,,55,,33,139,68,130,94,,20,,4,0.5,0.6
2023-08-19T00:00:00,1072A,116.8584,38.3254,沧州市,电视转播站,,33,33,50,17,34,134,73,122,95,22,17,6,7,0.3,0.5
2023-08-19T00:00:00,1073A,116.8709,38.3228,沧州市,市环保局,,42,41,59,29,34,131,73,120,92,27,26,1,2,0.3,0.4
2023-08-19T00:00:00,1074A,115.6838,37.7541,衡水市,电机北厂,,41,41,49,14,32,127,30,115,82,22,9,4,2,0.7,0.6
2023-08-19T00:00:00,1075A,115.6303,37.7316,衡水市,市监测站,,33,33,43,11,21,124,57,117,85,17,14,5,4,0.6,0.6
2023-08-19T00:00:00,1077A,114.4704,37.0886,邢台市,达活泉,颗粒物(PM10),60,70,35,29,22,152,73,142,102,12,7,3,10,0.6,0.7
2023-08-19T00:00:00,1078A,114.5062,37.0349,邢台市,邢师高专,颗粒物(PM10),53,56,45,29,27,174,53,150,103,23,18,4,5,0.5,0.7
2023-08-19T00:00:00,1079A,114.5237,37.0851,邢台市,路桥公司,颗粒物(PM10),52,53,43,31,26,169,82,145,108,14,10,8,7,1.0,0.8
2023-08-19T00:00:00,1080A,114.4725,37.0719,邢台市,市环保局,颗粒物(PM10),58,65,41,34,26,171,80,149,109,12,8,4,4,0.6,0.6
2023-08-19T00:00:00,1081A,112.522,37.8873,太原市,尖草坪,颗粒物(PM10),58,65,116,23,43,158,76,144,114,31,24,5,7,0.5,0.7
2023-08-19T00:00:00,1083A,112.434,38.0108,太原市,上兰,,,,,,,,,,,,,,,,
2023-08-19T00:00:00,1084A,112.469,37.7124,太原市,晋源,颗粒物(PM10),86,122,112,49,46,159,88,146,114,18,34,4,6,0.6,0.8
2023-08-19T00:00:00,1085A,112.5583,37.7394,太原市,小店,颗粒物(PM10),126,201,116,65,40,153,64,143,108,37,36,7,4,0.6,0.7
2023-08-19T00:00:00,1086A,112.5369,37.8692,太原市,桃园,颗粒物(PM10),57,64,115,19,41,156,62,140,115,41,25,4,4,0.5,0.7
2023-08-19T00:00:00,1087A,112.57,37.8195,太原市,坞城,颗粒物(PM10),96,142,121,53,50,153,72,143,120,38,24,11,11,0.6,0.7
2023-08-19T00:00:00,1088A,112.549,37.9854,太原市,南寨,颗粒物(PM10),65,80,108,25,41,156,29,141,81,47,32,3,4,0.5,0.6
2023-08-19T00:00:00,1090A,111.6507,40.7517,呼和浩特市,呼市一监,颗粒物(PM10),68,85,60,31,24,135,25,127,95,71,25,7,11,0.7,0.5
2023-08-19T00:00:00,1091A,111.6572,40.8033,呼和浩特市,小召,,,,48,,21,144,,109,,,27,,8,,0.6
2023-08-19T00:00:00,1094A,111.7516,40.8369,呼和浩特市,如意水处理厂,,42,42,43,14,17,150,48,144,105,49,26,7,8,0.6,0.6
2023-08-19T00:00:00,1095A,111.7276,40.8062,呼和浩特市,二十九中,颗粒物(PM10),58,65,52,19,21,141,37,136,105,64,30,6,9,0.7,0.6
2023-08-19T00:00:00,1096A,111.5512,40.7866,呼和浩特市,工大金川校区,颗粒物(PM10),55,60,55,10,20,140,37,136,96,54,29,4,6,0.4,0.6
2023-08-19T00:00:00,1097A,111.717,40.7612,呼和浩特市,化肥厂生活区,颗粒物(PM10),58,65,64,16,23,122,50,117,83,46,29,6,9,0.6,0.6
2023-08-19T00:00:00,1098A,123.6836,41.9339,沈阳市,森林路,,,,,,,,,,,,,,,,
2023-08-19T00:00:00,1099A,123.505,41.7406,沈阳市,浑南东路,,39,39,51,20,26,186,43,155,93,33,37,6,12,0.8,1.2
2023-08-19T00:00:00,1100A,123.4231,41.6989,沈阳市,新秀街,,32,32,51,17,24,182,26,152,86,53,33,5,28,0.8,1.3
2023-08-19T00:00:00,1102A,123.5903,41.8411,沈阳市,东陵路,,37,37,44,17,23,176,17,143,78,18,20,5,9,1.1,1.1
2023-08-19T00:00:00,1103A,123.4264,41.8467,沈阳市,陵东街,,32,32,39,17,26,172,19,146,71,41,22,5,9,0.7,1.1
2023-08-19T00:00:00,1104A,123.4114,41.7653,沈阳市,文化路,,45,45,51,26,30,194,59,165,106,40,26,9,19,0.8,1.1
2023-08-19T00:00:00,1105A,123.4678,41.7867,沈阳市,小河沿,,31,31,39,15,25,180,45,150,84,28,29,4,10,0.8,1.2
2023-08-19T00:00:00,1106A,123.4017,41.7972,沈阳市,太原街,细颗粒物(PM2.5),54,45,49,38,35,195,80,163,100,30,23,17,17,0.7,1.1
2023-08-19T00:00:00,1108A,123.3783,41.9228,沈阳市,京沈街,,36,36,47,22,29,198,65,162,88,26,20,5,10,0.7,1.2
2023-08-19T00:00:00,1109A,121.612,38.9741,大连市,甘井子,,,35,43,31,34,190,112,175,155,14,16,,4,,1.3
2023-08-19T00:00:00,1110A,121.565,38.9511,大连市,周水子,,48,34,41,33,38,188,105,173,146,11,18,2,2,0.2,0.4
2023-08-19T00:00:00,1111A,121.5637,38.8845,大连市,星海三站,,46,32,38,32,40,177,111,159,141,6,13,6,7,0.5,0.6
2023-08-19T00:00:00,1112A,121.6302,38.9117,大连市,青泥洼桥,细颗粒物(PM2.5),52,36,42,36,41,191,103,170,138,6,9,4,4,0.9,0.9
2023-08-19T00:00:00,1113A,121.6251,38.8638,大连市,傅家庄,,49,32,37,34,37,186,131,174,153,7,6,8,8,0.8,0.9
2023-08-19T00:00:00,1114A,121.5213,38.8661,大连市,七贤岭,,42,36,40,29,39,217,111,197,166,9,10,5,6,0.5,0.5
2023-08-19T00:00:00,1115A,121.2529,38.8061,大连市,旅顺,,40,36,36,27,30,223,126,205,171,8,13,4,4,0.7,0.8
2023-08-19T00:00:00,1116A,121.7485,39.1311,大连市,金州,,43,25,36,24,35,180,137,166,136,9,12,6,6,0.7,0.8
2023-08-19T00:00:00,1117A,121.7811,39.0496,大连市,开发区,,39,37,47,27,39,182,112,171,138,6,12,3,6,0.9,1
2023-08-19T00:00:00,1118A,121.9762,39.0631,大连市,双D港,,32,28,41,22,34,183,52,168,100,10,11,5,6,0.5,0.6
2023-08-19T00:00:00,1119A,125.3325,43.9166,长春市,食品厂,,24,24,44,11,18,142,73,129,88,12,29,3,3,0.4,0.7
2023-08-19T00:00:00,1120A,125.2863,43.9027,长春市,客车厂,,20,20,39,9,18,144,60,132,93,10,20,3,4,0.4,0.6
2023-08-19T00:00:00,1121A,125.2841,43.8463,长春市,邮电学院,,24,23,35,10,17,133,76,133,98,7,14,5,5,0.4,0.6
2023-08-19T00:00:00,1122A,125.3716,43.8772,长春市,劳动公园,,25,16,36,11,15,156,79,144,109,10,17,5,6,0.4,0.7
2023-08-19T00:00:00,1123A,125.3297,43.8805,长春市,园林处,,19,15,41,10,20,131,60,113,97,10,21,1,3,0.6,0.7
2023-08-19T00:00:00,1124A,125.4605,43.79,长春市,净月潭,,28,28,27,10,12,127,78,113,90,10,10,5,5,0.3,0.5
2023-08-19T00:00:00,1125A,125.7194,43.515,长春市,甩湾子,,,,,,,,,,,,,,,,
2023-08-19T00:00:00,1126A,125.3863,43.8447,长春市,经开区环卫处,,25,25,37,10,16,145,70,136,105,11,19,3,4,0.3,0.5
2023-08-19T00:00:00,1127A,125.245,43.7783,长春市,高新区管委会,,24,24,35,13,18,145,71,134,100,10,14,3,3,0.4,0.6
2023-08-19T00:00:00,1128A,125.1761,43.8325,长春市,岱山公园,,22,21,37,11,16,144,68,130,90,8,20,2,2,0.4,0.6
2023-08-19T00:00:00,1129A,126.5422,45.755,哈尔滨市,岭北,,19,17,23,13,13,139,56,113,86,11,13,9,9,0.4,0.6
2023-08-19T00:00:00,1130A,126.561,45.8167,哈尔滨市,松北商大,,23,20,31,16,13,116,28,87,51,15,15,6,6,0.3,0.6
2023-08-19T00:00:00,1131A,126.979,45.5419,哈尔滨市,阿城会宁,,24,15,32,12,6,114,75,93,84,9,12,5,5,0.6,0.6
2023-08-19T00:00:00,1132A,126.599,45.7222,哈尔滨市,南岗学府路,,32,32,45,10,15,136,49,107,77,5,17,4,6,0.6,0.7
2023-08-19T00:00:00,1133A,126.689,45.7733,哈尔滨市,太平宏伟公园,,24,24,37,10,10,132,47,100,69,12,22,7,8,0.4,0.6
2023-08-19T00:00:00,1134A,126.635,45.7667,哈尔滨市,道外承德广场,,28,28,36,4,14,134,49,108,78,12,22,5,6,0.4,0.5
2023-08-19T00:00:00,1135A,126.685,45.7319,哈尔滨市,香坊红旗大街,,28,23,37,19,17,141,56,111,72,10,25,7,9,0.6,0.7
2023-08-19T00:00:00,1136A,126.6411,45.7258,哈尔滨市,动力和平路,,,0,38,,,138,50,112,77,15,23,6,10,0.4,0.6
2023-08-19T00:00:00,1137A,126.593,45.7478,哈尔滨市,道里建国路,,15,8,33,10,12,127,44,105,73,15,24,4,8,0.3,1.2
2023-08-19T00:00:00,1138A,126.615,45.61,哈尔滨市,平房东轻厂,,14,3,34,6,11,116,42,95,65,10,10,5,6,0.4,0.5
2023-08-19T00:00:00,1139A,126.595,45.9855,哈尔滨市,呼兰师专,,11,11,37,7,14,98,34,83,51,9,21,8,8,0.4,0.6
2023-08-19T00:00:00,1140A,126.6206,45.6842,哈尔滨市,省农科院,,35,35,50,6,11,137,60,115,76,9,26,11,12,0.4,0.5
2023-08-19T00:00:00,1141A,121.4,31.238,上海市,普陀,,35,35,32,22,19,128,58,111,78,15,33,4,5,0.6,0.7
2023-08-19T00:00:00,1142A,121.478,31.2036,上海市,十五厂,,38,38,28,23,21,122,52,107,73,6,15,10,10,0.4,0.4
2023-08-19T00:00:00,1143A,121.467,31.3008,上海市,虹口,,36,36,27,16,17,124,70,109,84,16,38,8,9,0.5,0.6
2023-08-19T00:00:00,1144A,121.412,31.1654,上海市,徐汇上师大,,43,43,34,20,19,131,46,108,72,26,32,4,5,0.7,0.8
2023-08-19T00:00:00,1145A,121.536,31.2659,上海市,杨浦四漂,,44,44,30,23,17,119,63,105,77,17,35,6,6,0.6,0.7
2023-08-19T00:00:00,1147A,121.425,31.2261,上海市,静安监测站,,37,37,31,24,20,139,58,114,83,14,31,2,2,0.7,0.8
2023-08-19T00:00:00,1148A,121.703,31.1907,上海市,浦东川沙,,49,49,26,26,17,120,62,110,78,21,28,7,6,0.7,0.7
2023-08-19T00:00:00,1149A,121.533,31.2284,上海市,浦东新区监测站,,47,47,26,22,16,114,51,103,74,18,28,2,3,0.4,0.5
2023-08-19T00:00:00,1150A,121.577,31.2071,上海市,浦东张江,,43,43,27,19,18,106,56,94,71,15,27,5,5,0.5,0.6
2023-08-19T00:00:00,1151A,118.8086,32.1065,南京市,迈皋桥,,27,27,28,14,16,214,69,175,121,30,17,4,4,0.6,0.5
2023-08-19T00:00:00,1152A,118.7538,32.0551,南京市,草场门,,29,29,31,12,16,221,83,172,137,24,18,3,3,0.7,0.7
2023-08-19T00:00:00,1153A,118.7794,32.0745,南京市,山西路,,30,29,34,17,15,232,94,190,143,13,13,5,4,0.4,0.4
2023-08-19T00:00:00,1154A,118.7752,32.0023,南京市,中华门,,31,31,28,12,18,196,70,154,122,30,19,8,8,0.9,0.9
2023-08-19T00:00:00,1155A,118.8109,32.0309,南京市,瑞金路,,32,29,32,22,18,211,63,157,116,28,15,6,2,0.5,0.4
2023-08-19T00:00:00,1156A,118.7997,32.0754,南京市,玄武湖,,29,28,28,11,13,208,92,165,125,11,15,8,7,0.6,0.7
2023-08-19T00:00:00,1157A,118.6414,32.0931,南京市,浦口,,47,47,31,14,17,211,75,183,122,27,21,5,5,0.6,0.6
2023-08-19T00:00:00,1158A,118.7356,31.9996,南京市,奥体中心,,34,34,31,22,24,204,83,164,130,27,19,9,8,0.6,0.6
2023-08-19T00:00:00,1159A,118.9125,32.1028,南京市,仙林大学城,,25,22,29,9,15,235,77,185,127,17,12,9,9,0.8,0.7
2023-08-19T00:00:00,1160A,120.561,31.2472,苏州市,上方山,,39,39,36,19,17,171,60,142,106,16,21,7,6,0.4,0.5
2023-08-19T00:00:00,1162A,120.591,31.3019,苏州市,彩香,,38,38,32,20,20,170,61,146,104,17,24,8,8,0.6,0.8
2023-08-19T00:00:00,1163A,120.596,31.3264,苏州市,轧钢厂,,49,49,33,25,19,171,52,140,93,25,31,10,10,0.6,0.7
2023-08-19T00:00:00,1164A,120.613,31.2703,苏州市,吴中区,,43,43,34,22,19,177,54,152,109,25,26,12,11,0.5,0.6
2023-08-19T00:00:00,1165A,120.543,31.2994,苏州市,苏州新区,,35,35,29,20,18,165,67,144,105,15,25,8,8,0.7,0.8
2023-08-19T00:00:00,1166A,120.669,31.3097,苏州市,苏州工业园区,,48,48,31,31,21,171,43,142,88,30,26,9,8,0.6,0.7
2023-08-19T00:00:00,1167A,120.641,31.3708,苏州市,相城区,,38,31,29,26,19,164,36,130,76,45,30,7,8,0.7,0.8
2023-08-19T00:00:00,1168A,120.9098,31.9663,南通市,狼山街道,,25,12,20,5,9,128,78,117,93,10,18,8,9,0.4,0.5
2023-08-19T00:00:00,1169A,120.86,32.0005,南通市,虹桥,,26,12,23,8,15,135,81,120,90,11,18,5,6,0.6,0.7
2023-08-19T00:00:00,1170A,120.87,32.02,南通市,城中,,26,16,18,7,10,138,81,122,94,8,14,6,6,0.6,0.7
2023-08-19T00:00:00,1171A,120.94,31.93,南通市,星湖花园,,24,8,17,4,9,114,76,105,85,9,18,5,6,0.5,0.6
2023-08-19T00:00:00,1172A,120.81,32.0417,南通市,紫琅学院,,26,12,23,10,10,142,82,125,90,10,24,5,6,0.6,0.7
2023-08-19T00:00:00,1173A,119.176,34.5885,连云港市,市环境监测站,,41,41,32,22,16,147,93,137,106,6,8,6,6,0.5,0.4
2023-08-19T00:00:00,1177A,117.179,34.2761,徐州市,黄河新村,颗粒物(PM10),53,56,43,30,26,168,102,155,124,15,13,8,8,0.6,0.5
2023-08-19T00:00:00,1178A,117.1918,34.2384,徐州市,淮塔,颗粒物(PM10),51,51,47,32,30,159,99,146,112,17,14,10,10,0.4,0.4
2023-08-19T00:00:00,1180A,117.256,34.2153,徐州市,新城区,颗粒物(PM10),52,53,46,28,26,164,100,148,121,13,10,9,8,0.6,0.5
2023-08-19T00:00:00,1181A,117.244,34.2911,徐州市,桃园路,,48,48,42,26,25,170,96,156,121,18,15,8,8,0.5,0.5
2023-08-19T00:00:00,1182A,117.2933,34.2778,徐州市,农科院,,44,44,37,29,25,168,90,152,114,22,21,7,6,0.5,0.4
2023-08-19T00:00:00,1186A,119.389,32.3761,扬州市,邗江监测站,,36,36,40,22,23,167,52,146,90,21,20,3,5,0.5,0.7
2023-08-19T00:00:00,1188A,120.269,31.4867,无锡市,雪浪,,48,48,34,24,19,155,27,127,72,41,25,4,5,0.7,0.6
2023-08-19T00:00:00,1189A,120.275,31.6219,无锡市,黄巷,,27,22,40,14,20,139,35,118,70,53,46,6,7,0.7,0.8
2023-08-19T00:00:00,1190A,120.294,31.56,无锡市,曹张,,30,30,25,19,19,143,44,105,75,35,34,8,8,0.8,0.8
2023-08-19T00:00:00,1191A,120.242,31.5031,无锡市,漆塘,,24,24,27,14,17,176,8,127,62,30,30,4,5,0.7,0.6
2023-08-19T00:00:00,1192A,120.3489,31.5863,无锡市,东亭,,25,22,28,17,20,146,50,124,82,38,34,5,5,0.6,0.6
2023-08-19T00:00:00,1193A,120.354,31.5475,无锡市,旺庄,,32,29,31,22,21,154,49,125,77,35,30,9,9,0.8,0.8
2023-08-19T00:00:00,1194A,120.245,31.5631,无锡市,荣巷,,29,29,24,19,14,150,33,123,66,33,24,9,10,0.6,0.6
2023-08-19T00:00:00,1195A,120.299,31.6817,无锡市,堰桥,,19,19,27,9,15,128,43,111,75,27,24,6,7,1.0,0.9
2023-08-19T00:00:00,1196A,119.9633,31.762,常州市,市监测站,,32,32,35,21,24,153,40,130,84,40,33,8,8,0.6,0.6
2023-08-19T00:00:00,1200A,119.9468,31.7069,常州市,武进监测站,,29,29,41,17,22,167,42,144,94,37,26,8,11,0.5,0.8
2023-08-19T00:00:00,1201A,119.9255,31.9087,常州市,安家,,32,30,33,22,26,158,45,142,89,28,28,8,8,0.5,0.6
2023-08-19T00:00:00,1203A,119.6707,32.1875,镇江市,新区办事处,,27,27,34,17,23,164,49,149,85,29,28,3,4,0.6,0.7
2023-08-19T00:00:00,1204A,119.4974,32.1968,镇江市,职教中心,,36,36,37,20,25,198,41,163,87,44,28,3,4,0.7,0.8
2023-08-19T00:00:00,1205A,119.4303,32.1328,镇江市,丹徒区监测站,,50,47,42,35,37,224,42,180,89,39,23,1,3,0.9,0.9
2023-08-19T00:00:00,1206A,119.905,32.4878,泰州市,公园路,,32,22,30,22,24,136,82,125,81,8,12,4,5,0.7,0.8
2023-08-19T00:00:00,1207A,119.9189,32.4625,泰州市,莲花,,25,22,31,17,20,131,76,120,90,7,11,3,4,0.7,0.8
2023-08-19T00:00:00,1209A,119.888,32.4639,泰州市,留学生创业园,,25,25,28,14,18,132,78,120,86,9,12,5,6,0.6,0.7
2023-08-19T00:00:00,1210A,119.036,33.5981,淮安市,钵池山,,30,24,22,21,15,126,73,117,93,12,15,5,6,1.0,0.9
2023-08-19T00:00:00,1211A,119.007,33.575,淮安市,北京南路,,29,29,27,18,15,140,75,127,95,15,16,6,7,0.9,0.8
2023-08-19T00:00:00,1212A,118.989,33.6067,淮安市,市监测站,,31,31,31,14,12,142,84,132,105,10,13,6,6,0.8,0.8
2023-08-19T00:00:00,1213A,119.135,33.5039,淮安市,楚州区监测站,,32,32,21,22,15,123,60,112,89,18,14,7,8,0.8,0.8
2023-08-19T00:00:00,1214A,119.0186,33.6297,淮安市,淮阴区监测站,,32,31,30,22,17,134,77,127,97,11,14,8,8,0.6,0.6
2023-08-19T00:00:00,1215A,120.118,33.4022,盐城市,盐城电厂,,36,36,28,22,17,119,100,111,104,4,5,5,5,0.7,0.6
2023-08-19T00:00:00,1216A,120.156,33.3942,盐城市,市监测站,,39,32,24,27,15,135,104,127,114,7,8,4,5,0.7,0.6
2023-08-19T00:00:00,1218A,120.2144,33.38,盐城市,开发区管委会,,45,31,25,31,20,119,93,114,103,10,11,2,2,0.6,0.5
2023-08-19T00:00:00,1220A,118.293,33.9528,宿迁市,宿迁学院,,42,38,34,29,24,157,61,150,106,26,19,9,9,0.5,0.5
2023-08-19T00:00:00,1221A,118.2442,33.9592,宿迁市,宿迁中学,颗粒物(PM10),56,61,45,28,23,171,70,156,116,24,19,8,7,0.5,0.6
2023-08-19T00:00:00,1223A,120.2072,30.2111,杭州市,滨江,,21,21,43,14,24,225,64,178,90,17,20,6,7,0.5,0.6
2023-08-19T00:00:00,1224A,120.0633,30.2747,杭州市,西溪,,34,34,38,19,19,244,15,194,82,22,15,4,4,0.9,0.8
2023-08-19T00:00:00,1226A,120.3461,30.3153,杭州市,下沙,,35,35,40,19,23,201,31,174,95,57,31,4,4,0.7,0.6
2023-08-19T00:00:00,1227A,120.1269,30.2456,杭州市,卧龙桥,,35,33,34,24,24,265,13,210,70,21,17,5,4,0.6,0.5
2023-08-19T00:00:00,1228A,120.1903,30.2692,杭州市,浙江农大,,25,21,31,14,25,222,77,179,104,15,21,7,8,0.4,0.5
2023-08-19T00:00:00,1230A,120.1197,30.3119,杭州市,和睦小学,,27,27,37,18,23,245,85,206,120,24,28,8,9,0.6,0.6
2023-08-19T00:00:00,1231A,120.3019,30.4183,杭州市,临平镇,颗粒物(PM10),53,55,67,31,23,201,60,164,115,42,25,6,5,0.7,0.7
2023-08-19T00:00:00,1232A,120.2697,30.1819,杭州市,城厢镇,,23,19,37,14,28,221,73,185,93,14,21,7,7,0.5,0.6
2023-08-19T00:00:00,1233A,120.0883,30.1808,杭州市,云栖,,29,29,31,15,17,256,25,204,96,20,15,6,6,0.6,0.6
2023-08-19T00:00:00,1234A,121.8358,29.911,宁波市,区环保大楼,,25,20,24,15,16,100,77,89,81,13,34,3,6,0.6,0.7
2023-08-19T00:00:00,1235A,121.56,29.82,宁波市,万里学院,,33,33,28,22,16,147,24,111,61,53,27,5,5,0.8,0.7
2023-08-19T00:00:00,1236A,121.713,29.9572,宁波市,龙赛医院,,27,27,36,12,15,140,67,112,77,17,28,6,9,0.5,0.7
2023-08-19T00:00:00,1239A,121.633,29.7733,宁波市,钱湖水厂,,29,29,28,14,13,113,49,103,62,12,12,4,5,0.6,0.7
2023-08-19T00:00:00,1240A,121.5856,29.8635,宁波市,太古小学,,28,28,21,15,10,117,43,103,62,31,25,5,5,1.0,1
2023-08-19T00:00:00,1241A,121.524,29.8674,宁波市,市环境监测中心,,30,30,23,11,10,147,56,112,69,23,21,5,6,0.6,0.5
2023-08-19T00:00:00,1242A,120.634,28.0089,温州市,瓯海,,30,11,29,6,17,115,93,98,90,13,23,5,6,0.5,0.6
2023-08-19T00:00:00,1243A,120.6748,27.9939,温州市,南浦,,30,13,26,9,17,118,93,105,100,15,19,5,6,0.5,0.5
2023-08-19T00:00:00,1244A,120.76,27.9747,温州市,龙湾,,31,14,20,5,10,119,97,104,98,14,22,6,6,0.5,0.5
2023-08-19T00:00:00,1245A,120.6709,28.0167,温州市,市站,,27,7,24,5,15,100,84,88,85,14,18,4,5,0.4,0.6
2023-08-19T00:00:00,1247A,120.6053,29.9928,绍兴市,城东开发委,,20,20,20,12,11,140,44,132,75,18,14,5,5,0.4,0.5
2023-08-19T00:00:00,1250A,120.0751,30.8669,湖州市,城西水厂,,49,49,40,26,28,232,79,192,118,20,24,3,3,0.6,0.6
2023-08-19T00:00:00,1252A,120.7436,30.778,嘉兴市,清河小学,,29,16,28,9,14,173,90,141,100,7,18,5,5,0.7,0.8
2023-08-19T00:00:00,1253A,120.726,30.7478,嘉兴市,嘉兴学院,,30,22,28,12,22,195,96,153,110,14,22,4,4,0.5,0.6
2023-08-19T00:00:00,1255A,121.273,28.6459,台州市,黄岩环保大楼,,16,15,26,11,16,137,49,95,56,11,16,4,4,0.5,0.5
2023-08-19T00:00:00,1256A,121.419,28.6542,台州市,台州环保大楼,,34,34,28,20,15,128,41,97,57,19,20,5,4,0.4,0.6
2023-08-19T00:00:00,1257A,121.377,28.5773,台州市,路桥田洋王,,23,23,24,16,16,130,29,100,50,26,20,4,4,0.4,0.5
2023-08-19T00:00:00,1258A,122.122,30.0203,舟山市,定海檀枫,,30,29,29,21,20,105,36,91,70,17,15,6,6,0.5,0.5
2023-08-19T00:00:00,1259A,122.3094,29.9558,舟山市,普陀东港,,23,21,29,16,19,109,65,102,84,14,16,5,5,0.4,0.5
2023-08-19T00:00:00,1260A,122.19,29.9944,舟山市,临城新区,,28,28,30,18,16,117,35,102,74,16,15,6,6,0.5,0.5
2023-08-19T00:00:00,1262A,119.647,29.077,金华市,十五中,,26,26,31,12,15,179,54,154,97,34,17,3,3,0.5,0.5
2023-08-19T00:00:00,1263A,119.686,29.1029,金华市,监测站,,37,37,36,14,17,177,47,147,91,36,20,4,4,0.6,0.6
2023-08-19T00:00:00,1264A,118.8692,28.9398,衢州市,环保大楼,,26,19,35,11,23,154,81,132,104,16,17,4,4,0.5,0.6
2023-08-19T00:00:00,1265A,118.8709,28.9666,衢州市,实验学校,,24,21,44,12,23,146,76,132,107,23,17,4,5,0.5,0.5
2023-08-19T00:00:00,1266A,118.8621,28.9808,衢州市,衢州学院,,27,19,34,11,23,141,86,127,101,17,18,4,4,0.4,0.5
2023-08-19T00:00:00,1267A,119.914,28.4514,丽水市,监测站大楼,,23,13,24,6,11,136,72,129,99,15,12,5,5,0.6,0.5
2023-08-19T00:00:00,1268A,119.93,28.4586,丽水市,莲都小学,,24,15,28,6,12,136,75,129,101,11,10,6,5,0.5,0.5
2023-08-19T00:00:00,1269A,119.879,28.4231,丽水市,余庄前,,29,29,24,13,12,129,33,116,82,14,12,5,5,0.5,0.4
2023-08-19T00:00:00,1270A,117.1959,31.7848,合肥市,明珠广场,颗粒物(PM10),53,56,42,24,25,189,116,170,142,31,24,9,7,0.8,0.8
2023-08-19T00:00:00,1271A,117.3072,31.8764,合肥市,三里街,,42,31,36,29,26,152,113,147,142,27,19,6,6,0.5,0.5
2023-08-19T00:00:00,1272A,117.2588,31.8707,合肥市,琥珀山庄,,45,36,36,27,25,171,142,161,156,16,16,6,6,0.7,0.8
2023-08-19T00:00:00,1273A,117.1604,31.9052,合肥市,董铺水库,,46,46,36,22,21,162,129,155,136,18,17,14,8,0.5,0.6
2023-08-19T00:00:00,1274A,117.25,31.8571,合肥市,长江中路,,46,46,44,28,27,169,130,160,153,21,15,8,8,0.6,0.7
2023-08-19T00:00:00,1275A,117.266,31.9436,合肥市,庐阳区,,44,44,40,27,25,151,116,148,139,28,22,6,5,0.6,0.6
2023-08-19T00:00:00,1276A,117.336,31.8586,合肥市,瑶海区,,46,46,42,24,22,156,117,148,142,20,15,5,5,0.8,0.8
2023-08-19T00:00:00,1277A,117.3027,31.7964,合肥市,包河区,,49,44,44,34,29,168,82,150,109,58,40,8,7,0.7,0.7
2023-08-19T00:00:00,1278A,117.2776,31.7385,合肥市,滨湖新区,,40,36,38,17,22,164,126,155,143,16,15,7,6,0.9,0.8
2023-08-19T00:00:00,1279A,117.1318,31.8403,合肥市,高新区,,43,39,40,30,27,186,135,166,142,19,22,9,9,0.7,0.7
2023-08-19T00:00:00,1280A,119.3903,26.0543,福州市,鼓山,,,,,,,,,,,,,,,,
2023-08-19T00:00:00,1282A,119.2681,26.0504,福州市,师大,,30,3,28,1,11,172,93,136,107,6,12,4,4,0.3,0.3
2023-08-19T00:00:00,1283A,119.2984,26.1028,福州市,五四北路,,33,25,26,1,11,171,104,132,101,6,13,2,3,0.3,0.4
2023-08-19T00:00:00,1284A,119.2648,26.0768,福州市,杨桥西路,,31,8,30,0,11,167,97,133,102,5,12,3,3,0.2,0.2
2023-08-19T00:00:00,1285A,119.317,26.0746,福州市,紫阳,,31,3,27,0,11,167,98,131,103,4,13,3,3,0.3,0.4
2023-08-19T00:00:00,1286A,118.1608,24.8169,厦门市,溪东,,,,,,,,,,,,,,,,
2023-08-19T00:00:00,1287A,118.1514,24.4767,厦门市,洪文,,28,14,20,19,19,98,75,91,84,6,11,1,2,0.2,0.2
2023-08-19T00:00:00,1288A,118.0661,24.4444,厦门市,鼓浪屿,,19,14,20,8,13,110,59,96,80,14,14,1,2,0.4,0.4
2023-08-19T00:00:00,1290A,115.8931,28.6843,南昌市,省外办,,49,49,45,27,28,160,106,148,131,20,15,4,5,0.6,0.8
2023-08-19T00:00:00,1291A,115.8886,28.7003,南昌市,省林业公司,颗粒物(PM10),51,51,38,31,25,160,93,147,124,35,18,7,8,0.7,0.7
2023-08-19T00:00:00,1292A,115.8126,28.7442,南昌市,林科所,,41,22,28,17,20,171,129,155,128,9,10,7,6,0.5,0.7
2023-08-19T00:00:00,1294A,115.8518,28.687,南昌市,建工学校,,50,50,42,23,20,181,125,166,147,14,12,8,8,0.8,0.8
2023-08-19T00:00:00,1295A,115.8921,28.6424,南昌市,象湖,,45,29,34,31,27,177,117,163,149,24,14,7,7,0.7,0.7
2023-08-19T00:00:00,1296A,115.7423,28.7996,南昌市,武术学校,,39,15,19,27,20,153,65,128,77,8,7,6,6,0.4,0.5
2023-08-19T00:00:00,1298A,115.9314,28.6842,南昌市,省站,,49,49,43,30,26,181,122,166,148,13,10,8,7,0.8,0.7
2023-08-19T00:00:00,1299A,116.9862,36.6114,济南市,科干所,细颗粒物(PM2.5),83,95,80,61,48,179,20,156,80,33,26,7,7,0.8,0.6
2023-08-19T00:00:00,1300A,116.9376,36.665,济南市,农科所,细颗粒物(PM2.5),59,63,69,42,39,158,23,138,79,43,31,8,8,0.6,0.5
2023-08-19T00:00:00,1301A,117.1265,36.6734,济南市,开发区,颗粒物(PM10),66,81,66,42,37,192,76,167,125,46,35,5,5,0.8,0.8
2023-08-19T00:00:00,1303A,117.0624,36.6868,济南市,省种子仓库,"颗粒物(PM10),细颗粒物(PM2.5)",70,90,68,51,38,186,36,157,122,56,24,4,5,0.8,0.7
2023-08-19T00:00:00,1304A,116.9489,36.6447,济南市,机床二厂,颗粒物(PM10),75,100,77,54,39,181,11,161,83,69,33,5,7,0.9,0.8
2023-08-19T00:00:00,1305A,117.0495,36.663,济南市,市监测站,"颗粒物(PM10),细颗粒物(PM2.5)",62,73,67,44,41,185,91,163,134,32,31,2,3,0.7,0.6
2023-08-19T00:00:00,1306A,116.7675,36.5484,济南市,长清党校,颗粒物(PM10),74,98,71,51,45,173,17,138,58,54,25,6,6,0.8,0.6
2023-08-19T00:00:00,1307A,120.6659,36.2403,青岛市,仰口,,39,34,33,27,25,134,110,121,111,3,8,6,6,0.6,0.8
2023-08-19T00:00:00,1310A,120.4134,36.0658,青岛市,市南区东部子站,,34,22,23,22,18,143,106,130,111,9,13,6,7,0.6,0.7
2023-08-19T00:00:00,1311A,120.3664,36.1032,青岛市,四方区子站,,36,24,25,24,17,153,113,146,127,5,11,5,7,0.6,0.7
2023-08-19T00:00:00,1312A,120.2994,36.054,青岛市,市南区西部子站,,39,39,30,24,17,133,100,120,110,8,20,8,9,0.7,0.7
2023-08-19T00:00:00,1313A,120.4581,36.0858,青岛市,崂山区子站,,35,29,25,22,21,151,110,139,122,10,12,7,8,0.4,0.5
2023-08-19T00:00:00,1314A,120.1983,35.9608,青岛市,黄岛区子站,,34,29,23,20,20,155,108,146,126,10,14,5,6,0.7,0.7
2023-08-19T00:00:00,1315A,120.3999,36.3083,青岛市,城阳区子站,,39,39,42,22,19,193,111,170,124,14,22,5,7,0.6,0.7
2023-08-19T00:00:00,1316A,113.69031,34.76122,郑州市,烟厂,细颗粒物(PM2.5),53,43,63,37,40,220,120,182,141,20,19,1,2,0.7,0.8
2023-08-19T00:00:00,1317A,113.65724,34.77134,郑州市,郑纺机,,,44,66,,,214,133,186,144,14,19,1,2,0.9,1
2023-08-19T00:00:00,1318A,113.67526,34.80246,郑州市,银行学校,颗粒物(PM10),51,52,59,28,33,220,131,187,145,12,16,2,3,0.7,0.8
2023-08-19T00:00:00,1319A,113.56746,34.81334,郑州市,供水公司,,,,76,,37,218,119,193,145,21,22,1,1,0.7,0.8
2023-08-19T00:00:00,1320A,113.7329,34.7178,郑州市,经开区管委,颗粒物(PM10),53,56,59,32,34,190,92,165,119,16,12,3,3,0.7,0.7
2023-08-19T00:00:00,1321A,113.73961,34.77172,郑州市,四十七中,,,,,,,,,,,,,,,,
2023-08-19T00:00:00,1322A,113.60532,34.74838,郑州市,市监测站,颗粒物(PM10),53,55,75,36,39,207,126,180,135,14,20,3,3,0.6,0.8
2023-08-19T00:00:00,1323A,113.64164,34.7525,郑州市,河医大,颗粒物(PM10),52,54,68,35,36,195,112,166,128,17,17,2,3,0.8,0.8
2023-08-19T00:00:00,1324A,113.51488,34.91089,郑州市,岗李水库,,,,,,,,,,,,,,,,
2023-08-19T00:00:00,1325A,114.3677,30.5584,武汉市,东湖梨园,,45,45,41,27,27,203,87,186,135,25,21,13,10,1.8,1
2023-08-19T00:00:00,1326A,114.2529,30.558,武汉市,汉阳月湖,,37,37,40,19,22,178,95,159,127,17,23,8,9,0.6,0.8
2023-08-19T00:00:00,1327A,114.282,30.6189,武汉市,汉口花桥,,36,36,40,24,26,174,103,168,131,14,15,5,5,0.6,0.6
2023-08-19T00:00:00,1328A,114.3025,30.5332,武汉市,武昌紫阳,,,31,42,,35,193,87,182,134,27,21,12,9,1.8,1
2023-08-19T00:00:00,1329A,114.3646,30.6217,武汉市,青山钢花,,40,40,41,24,28,177,106,170,128,17,24,8,8,0.7,0.7
2023-08-19T00:00:00,1330A,114.1566,30.4825,武汉市,沌口新区,,43,31,43,30,33,222,105,198,153,16,23,6,8,0.6,0.8
2023-08-19T00:00:00,1331A,114.3014,30.5944,武汉市,汉口江滩,,40,40,39,19,25,182,104,162,113,12,20,6,6,0.6,0.6
2023-08-19T00:00:00,1333A,114.135,30.6319,武汉市,吴家山,,46,46,42,17,23,173,118,162,137,10,16,7,7,0.6,0.6
2023-08-19T00:00:00,1334A,113.8454,30.2917,武汉市,沉湖七壕,颗粒物(PM10),51,52,43,25,26,202,92,184,124,18,17,7,7,0.8,0.9
2023-08-19T00:00:00,1335A,113.0833,28.2325,长沙市,经开区环保局,,50,50,40,28,24,163,141,158,144,11,10,6,5,0.5,0.5
2023-08-19T00:00:00,1336A,112.8872,28.2189,长沙市,高开区环保局,,,67,51,45,33,186,127,178,143,,16,6,6,0.8,0.8
2023-08-19T00:00:00,1337A,113.0792,28.2053,长沙市,马坡岭,细颗粒物(PM2.5),59,58,51,42,30,173,140,168,152,9,8,6,5,0.5,0.4
2023-08-19T00:00:00,1338A,112.9394,28.19,长沙市,湖南师范大学,,50,50,46,33,35,194,110,178,139,12,14,2,2,0.6,0.6
2023-08-19T00:00:00,1339A,113.0178,28.1322,长沙市,雨花区环保局,颗粒物(PM10),51,52,47,29,27,188,138,175,150,12,21,6,6,0.6,0.5
2023-08-19T00:00:00,1340A,112.9792,28.2597,长沙市,伍家岭,颗粒物(PM10),52,53,54,21,31,192,104,181,143,25,22,3,2,0.6,0.6
2023-08-19T00:00:00,1341A,113.0014,28.1944,长沙市,火车新站,"颗粒物(PM10),细颗粒物(PM2.5)",52,53,40,36,31,182,99,166,137,19,10,5,5,0.7,0.6
2023-08-19T00:00:00,1342A,112.9844,28.1178,长沙市,天心区环保局,,,66,41,52,30,169,,163,153,19,20,5,4,0.6,0.6
2023-08-19T00:00:00,1343A,112.8908,28.1308,长沙市,湖南中医药大学,细颗粒物(PM2.5),54,56,52,38,31,205,88,192,142,20,19,2,2,1.0,0.9
2023-08-19T00:00:00,1344A,112.9581,28.3611,长沙市,沙坪,颗粒物(PM10),51,51,40,32,28,171,106,159,122,8,8,7,7,0.6,0.6
2023-08-19T00:00:00,1345A,113.2347,23.1423,广州市,广雅中学,,45,45,52,29,31,104,26,80,64,70,50,5,5,1.0,1
2023-08-19T00:00:00,1346A,113.2612,23.105,广州市,市五中,颗粒物(PM10),51,51,50,32,33,100,34,78,66,63,39,5,5,0.9,0.9
2023-08-19T00:00:00,1348A,113.3478,23.0916,广州市,广东商学院,细颗粒物(PM2.5),67,67,54,48,32,87,11,64,42,75,52,3,4,1.0,0.9
2023-08-19T00:00:00,1349A,113.4332,23.1047,广州市,市八十六中,颗粒物(PM10),65,80,62,38,35,141,11,87,58,73,52,5,6,1.0,1
2023-08-19T00:00:00,1350A,113.3505,22.9483,广州市,番禺中学,,45,45,40,29,25,127,28,106,90,46,34,5,5,0.9,0.8
2023-08-19T00:00:00,1351A,113.2146,23.3916,广州市,花都师范,,34,34,42,22,29,125,35,110,83,37,40,7,7,0.9,0.9
2023-08-19T00:00:00,1352A,113.2597,23.1331,广州市,市监测站,,40,40,46,27,30,110,54,86,76,49,48,7,8,0.8,0.9
2023-08-19T00:00:00,1353A,113.5618,23.312,广州市,九龙镇镇龙,,,40,41,27,26,151,,116,101,38,27,5,5,,0.6
2023-08-19T00:00:00,1354A,113.2765,23.1544,广州市,麓湖,,41,41,48,22,27,94,6,66,46,55,42,6,6,1.0,1
2023-08-19T00:00:00,1355A,113.443,23.3035,广州市,帽峰山森林公园,,34,34,36,17,24,154,36,109,83,22,23,6,6,0.6,0.6
2023-08-19T00:00:00,1356A,114.1063,22.5545,深圳市,通心岭子站,,,42,25,31,15,113,,67,50,,19,4,4,0.7,0.8
2023-08-19T00:00:00,1357A,114.117,22.5625,深圳市,洪湖,,45,45,33,26,19,99,14,65,48,39,25,5,5,0.9,0.9
2023-08-19T00:00:00,1358A,113.987,22.5417,深圳市,华侨城,细颗粒物(PM2.5),60,47,28,43,15,73,15,53,38,39,29,7,6,0.8,0.7
2023-08-19T00:00:00,1359A,113.9181,22.5171,深圳市,南海子站,,,39,53,23,25,53,,45,41,54,35,4,4,1.0,1
2023-08-19T00:00:00,1360A,114.2458,22.5689,深圳市,盐田,,30,24,26,14,14,108,2,71,40,59,32,4,4,0.7,0.6
2023-08-19T00:00:00,1361A,114.2283,22.7244,深圳市,龙岗,,41,41,31,24,17,179,10,136,92,63,33,7,7,1.0,0.9
2023-08-19T00:00:00,1363A,114.494,22.5422,深圳市,南澳,,31,31,20,18,8,109,18,82,56,18,21,6,6,0.8,0.8
2023-08-19T00:00:00,1364A,114.41,22.6342,深圳市,葵涌,,35,35,29,17,15,142,11,91,60,34,24,3,3,0.8,0.7
2023-08-19T00:00:00,1365A,114.297,22.5978,深圳市,梅沙,,36,36,30,19,14,100,14,68,51,20,22,5,5,0.7,0.7
2023-08-19T00:00:00,1366A,114.0678,22.738,深圳市,观澜,颗粒物(PM10),56,61,42,32,22,167,2,119,79,73,37,9,8,0.9,0.7
2023-08-19T00:00:00,1367A,113.5814,22.2618,珠海市,吉大,,34,34,30,18,20,70,20,56,40,32,18,6,5,0.8,0.6
2023-08-19T00:00:00,1368A,113.4881,22.2335,珠海市,前山,,35,35,34,14,17,73,40,60,44,20,21,9,8,0.5,0.5
2023-08-19T00:00:00,1369A,113.628,22.4251,珠海市,唐家,,28,27,29,19,18,76,21,58,46,18,12,5,5,0.5,0.4
2023-08-19T00:00:00,1370A,113.299,22.2281,珠海市,斗门,,19,19,29,6,12,72,56,63,57,6,13,6,6,0.5,0.5
2023-08-19T00:00:00,1371A,113.1294,23.0067,佛山市,湾梁,,44,44,39,25,26,86,24,64,47,55,37,8,5,0.7,0.6
2023-08-19T00:00:00,1372A,113.1083,23.0478,佛山市,华材职中,颗粒物(PM10),58,66,43,29,31,80,4,59,45,80,36,8,8,0.6,0.5
2023-08-19T00:00:00,1373A,113.144,23.0453,佛山市,南海气象局,颗粒物(PM10),54,57,48,27,30,61,15,43,35,49,31,5,5,0.8,0.7
2023-08-19T00:00:00,1374A,113.2881,22.8094,佛山市,顺德苏岗,,49,31,26,34,27,142,24,103,82,31,23,7,6,0.9,0.8
2023-08-19T00:00:00,1376A,112.8383,22.8678,佛山市,高明孔堂,,44,44,42,30,33,119,28,87,71,37,15,9,7,0.5,0.4
2023-08-19T00:00:00,1377A,112.8836,23.1588,佛山市,三水监测站,,28,27,50,19,30,92,16,79,48,38,32,4,4,0.8,0.7
2023-08-19T00:00:00,1378A,112.867,23.185,佛山市,三水云东海,,35,35,45,18,38,87,2,75,32,39,31,5,8,0.8,0.6
2023-08-19T00:00:00,1379A,113.3769,22.5211,中山市,华柏园,,43,40,37,30,22,143,19,84,74,30,18,3,4,0.8,0.6
2023-08-19T00:00:00,1380A,113.3881,22.5497,中山市,张溪,,49,35,42,34,28,183,23,106,92,36,18,3,4,0.7,0.5
2023-08-19T00:00:00,1381A,113.4075,22.5111,中山市,紫马岭,,42,36,33,29,26,123,26,80,71,20,14,4,4,0.4,0.4
2023-08-19T00:00:00,1382A,113.4411,22.4853,中山市,长江旅游区,,,,,,,,,,,,,,,,
2023-08-19T00:00:00,1383A,113.1064,22.6058,江门市,北街,,35,34,43,24,34,123,38,84,74,20,17,5,5,0.5,0.5
2023-08-19T00:00:00,1384A,113.0731,22.5835,江门市,西区,,50,50,45,27,24,117,42,94,80,31,18,6,6,0.6,0.6
2023-08-19T00:00:00,1385A,113.0219,22.5311,江门市,圭峰西,,35,35,43,22,24,117,53,87,78,13,12,3,3,0.8,0.7
2023-08-19T00:00:00,1386A,113.0828,22.5947,江门市,东湖,,38,38,45,22,25,120,49,96,83,19,13,6,7,0.6,0.6
2023-08-19T00:00:00,1389A,113.7547,23.0494,东莞市,莞城梨川,细颗粒物(PM2.5),62,56,48,44,31,188,51,147,126,38,33,8,10,0.9,0.9
2023-08-19T00:00:00,1390A,113.7944,23.0128,东莞市,东城石井,"颗粒物(PM10),细颗粒物(PM2.5)",53,56,45,37,28,160,30,114,91,28,27,6,6,0.9,0.9
2023-08-19T00:00:00,1391A,113.7383,22.9658,东莞市,南城西平,细颗粒物(PM2.5),52,52,45,36,30,178,34,120,106,36,35,6,6,0.9,0.9
2023-08-19T00:00:00,1392A,114.4183,23.0528,惠州市,河南岸金山湖子站,,29,29,31,14,15,116,67,90,84,15,20,7,4,0.5,0.5
2023-08-19T00:00:00,1393A,114.4053,23.0822,惠州市,下埔横江三路子站,,31,31,30,19,18,125,67,99,91,19,20,6,4,0.7,0.7
2023-08-19T00:00:00,1394A,114.4103,23.1142,惠州市,江北云山西路子站,,30,30,32,17,18,133,74,110,100,17,17,5,5,0.6,0.6
2023-08-19T00:00:00,1395A,114.4645,22.7833,惠州市,惠阳区承修路船湖子站,,34,34,38,18,18,121,28,98,76,30,19,5,4,0.7,0.7
2023-08-19T00:00:00,1396A,114.5317,22.7422,惠州市,大亚湾管委会子站,,41,41,36,16,19,138,31,111,76,42,32,5,4,0.7,0.8
2023-08-19T00:00:00,1397A,112.4267,23.0706,肇庆市,睦岗子站,,,36,41,24,25,91,12,63,33,36,29,9,11,,0.7
2023-08-19T00:00:00,1398A,112.4645,23.0475,肇庆市,城中子站,,33,33,39,22,25,83,9,70,35,38,24,9,11,0.7,0.7
2023-08-19T00:00:00,1399A,112.5544,23.1522,肇庆市,坑口子站,,24,24,32,16,21,79,34,67,38,11,20,4,7,0.4,0.4
2023-08-19T00:00:00,1400A,112.4753,23.1,肇庆市,七星岩子站,,,,,,,,,,,,,,,,
2023-08-19T00:00:00,1401A,108.3103,22.7881,南宁市,二十一中,颗粒物(PM10),60,70,28,37,16,80,9,70,46,52,25,4,4,1.0,0.8
2023-08-19T00:00:00,1402A,108.3141,22.8528,南宁市,北湖,颗粒物(PM10),67,83,32,33,18,89,7,79,46,34,16,6,5,0.9,0.8
2023-08-19T00:00:00,1403A,108.3206,22.8225,南宁市,市监测站,,41,41,28,24,16,85,37,71,50,47,27,6,6,0.8,0.6
2023-08-19T00:00:00,1404A,108.3829,22.8037,南宁市,大自然花园,,38,37,23,26,14,79,38,66,47,28,17,5,5,0.8,0.7
2023-08-19T00:00:00,1405A,108.4394,22.7904,南宁市,仙葫,,35,35,21,18,11,87,28,74,58,36,20,5,4,0.7,0.6
2023-08-19T00:00:00,1406A,108.2397,22.8467,南宁市,区农职院,,48,48,29,28,15,183,8,100,38,30,19,13,8,0.7,0.6
2023-08-19T00:00:00,1407A,108.3275,22.735,南宁市,英华嘉园,颗粒物(PM10),57,63,52,12,21,71,3,62,33,62,25,5,5,0.8,0.7
2023-08-19T00:00:00,1408A,108.2257,22.7757,南宁市,沙井镇街道办,颗粒物(PM10),56,62,28,33,17,71,2,61,28,34,24,21,5,0.7,0.6
2023-08-19T00:00:00,1409A,110.576,19.9507,海口市,东寨港,,,,,,,,,,,,,,,,
2023-08-19T00:00:00,1410A,110.3232,20.0574,海口市,海南大学,,28,28,26,15,14,114,51,92,58,11,12,6,6,0.4,0.4
2023-08-19T00:00:00,1411A,110.283,20.0053,海口市,秀英海南医院,,30,30,28,19,15,97,28,89,52,22,19,6,6,0.4,0.4
2023-08-19T00:00:00,1412A,110.338,19.9969,海口市,海南师范大学,,28,28,28,14,16,102,33,86,58,10,11,7,8,0.4,0.4
2023-08-19T00:00:00,1413A,110.33,20.0356,海口市,龙华路环保局宿舍,,27,27,25,15,14,99,43,87,58,10,10,7,7,0.4,0.4
2023-08-19T00:00:00,1414A,106.3787,29.8279,重庆市,缙云山,颗粒物(PM10),60,69,49,20,23,176,108,158,141,10,12,10,11,0.3,0.4
2023-08-19T00:00:00,1416A,106.4213,29.8253,重庆市,天生,,42,42,51,24,36,160,28,132,71,43,35,5,7,1.1,1
2023-08-19T00:00:00,1417A,106.6263,29.7228,重庆市,两路,,49,38,52,34,38,267,90,177,96,28,46,6,8,1.0,1.1
2023-08-19T00:00:00,1418A,106.2953,29.5983,重庆市,虎溪,,42,39,58,29,47,154,65,129,73,17,31,4,5,0.7,0.8
2023-08-19T00:00:00,1419A,106.5777,29.5102,重庆市,南坪,,46,35,56,32,39,211,77,162,75,19,23,10,8,0.7,0.8
2023-08-19T00:00:00,1420A,106.6556,29.6277,重庆市,唐家沱,,45,45,50,29,34,278,74,189,94,44,40,7,6,0.6,0.6
2023-08-19T00:00:00,1421A,106.6349,29.4906,重庆市,茶园,,38,38,56,23,32,243,77,176,93,22,29,6,5,0.7,0.8
2023-08-19T00:00:00,1422A,106.3754,29.4572,重庆市,白市驿,细颗粒物(PM2.5),53,29,54,37,35,223,91,169,107,14,17,8,9,0.8,0.9
2023-08-19T00:00:00,1425A,106.6205,29.7166,重庆市,空港,,50,50,59,27,34,254,100,178,111,26,41,8,9,0.9,1
2023-08-19T00:00:00,1426A,106.4782,29.4875,重庆市,新山村,,48,48,63,26,42,177,83,138,95,20,31,9,8,0.5,0.6
2023-08-19T00:00:00,1427A,106.5616,29.6453,重庆市,礼嘉,,48,48,60,30,32,221,45,147,86,54,47,10,9,1.0,1
2023-08-19T00:00:00,1428A,106.4522,29.7091,重庆市,蔡家,,50,50,65,29,34,190,66,143,80,28,31,7,6,0.9,0.9
2023-08-19T00:00:00,1429A,106.5093,29.3917,重庆市,鱼新街,,30,30,53,15,37,195,56,157,86,24,35,5,8,0.9,1.1
2023-08-19T00:00:00,1431A,103.9728,30.7236,成都市,金泉两河,颗粒物(PM10),56,61,48,33,23,124,24,95,64,20,19,4,5,0.5,0.5
2023-08-19T00:00:00,1432A,104.176,30.6872,成都市,十里店,颗粒物(PM10),52,54,54,23,26,118,45,101,85,29,23,4,5,0.5,0.5
2023-08-19T00:00:00,1433A,104.079,30.5706,成都市,三瓦窑,细颗粒物(PM2.5),67,74,55,48,28,122,18,105,80,36,32,2,2,0.4,0.4
2023-08-19T00:00:00,1434A,104.1114,30.63,成都市,沙河铺,颗粒物(PM10),52,53,59,24,29,118,26,102,85,36,29,3,4,0.6,0.5
2023-08-19T00:00:00,1437A,104.0786,30.6531,成都市,君平街,颗粒物(PM10),60,69,61,33,34,133,23,113,88,38,25,1,3,0.6,0.6
2023-08-19T00:00:00,1438A,103.613,31.0283,成都市,灵岩寺,,38,38,28,18,17,87,69,78,72,5,6,11,15,0.7,0.7
2023-08-19T00:00:00,1439A,106.6899,26.5998,贵阳市,马鞍山,,24,24,26,12,11,111,48,106,86,16,12,5,5,0.6,0.6
2023-08-19T00:00:00,1440A,106.6971,26.5694,贵阳市,市环保站,颗粒物(PM10),52,53,33,26,22,118,42,113,97,50,24,4,3,0.5,0.3
2023-08-19T00:00:00,1441A,106.6243,26.6266,贵阳市,鉴湖路,,41,41,27,14,12,111,52,105,96,32,15,4,4,0.6,0.5
2023-08-19T00:00:00,1442A,106.7487,26.6343,贵阳市,燕子冲,,31,31,24,19,14,112,48,104,96,33,15,5,5,0.6,0.6
2023-08-19T00:00:00,1443A,106.6555,26.4365,贵阳市,碧云窝,,44,44,37,19,18,122,32,111,75,16,14,11,6,1.0,0.5
2023-08-19T00:00:00,1444A,106.694,26.5161,贵阳市,中院村,,48,48,34,24,17,106,10,92,63,52,21,6,6,0.6,0.4
2023-08-19T00:00:00,1445A,106.7109,26.6027,贵阳市,红边门,,44,44,31,24,22,111,57,105,91,33,19,5,6,0.6,0.6
2023-08-19T00:00:00,1446A,106.7164,26.5699,贵阳市,新华路,颗粒物(PM10),56,61,33,22,19,114,40,108,90,46,16,9,6,0.4,0.4
2023-08-19T00:00:00,1447A,106.674,26.5424,贵阳市,太慈桥,,27,27,19,17,12,109,28,102,74,28,16,4,4,0.7,0.6
2023-08-19T00:00:00,1450A,102.8204,24.8886,昆明市,呈贡新区,,29,29,42,10,23,114,73,108,99,32,30,8,8,0.6,0.7
2023-08-19T00:00:00,1451A,102.6251,24.9608,昆明市,西山森林公园,,,13,20,,15,154,115,135,129,7,13,6,7,0.1,0.5
2023-08-19T00:00:00,1452A,102.7252,25.0902,昆明市,龙泉镇,,17,16,24,11,13,138,54,115,99,26,14,10,11,0.7,0.7
2023-08-19T00:00:00,1453A,102.7266,25.0375,昆明市,东风东路,,27,21,32,11,15,132,85,110,103,18,27,17,8,0.5,0.5
2023-08-19T00:00:00,1454A,102.6742,25.0669,昆明市,金鼎山,,27,10,44,9,17,134,85,109,100,13,15,5,19,0.4,0.6
2023-08-19T00:00:00,1455A,102.6644,25.0401,昆明市,碧鸡广场,,30,19,38,7,23,149,93,122,112,14,24,8,27,0.6,0.8
2023-08-19T00:00:00,1456A,91.1319,29.6514,拉萨市,八廓街,,19,5,15,8,7,111,58,106,87,22,19,7,7,0.3,0.2
2023-08-19T00:00:00,1457A,91.1221,29.6747,拉萨市,市环保局,,25,25,12,9,6,106,37,100,83,33,14,5,6,0.5,0.2
2023-08-19T00:00:00,1458A,91.0874,29.6475,拉萨市,区监测站,,19,19,10,6,6,102,58,98,82,29,14,9,8,0.3,0.2
2023-08-19T00:00:00,1459A,91.1774,29.6541,拉萨市,西藏大学,,20,19,11,7,7,111,61,102,87,24,10,7,10,0.2,0.3
2023-08-19T00:00:00,1460A,90.9798,29.6588,拉萨市,区辐射站,,22,19,11,7,6,97,69,94,83,19,10,11,10,0.1,0.1
2023-08-19T00:00:00,1461A,91.0834,29.6292,拉萨市,拉萨火车站,,23,20,15,7,6,99,72,97,89,12,9,12,11,0.3,0.2
2023-08-19T00:00:00,1462A,108.882,34.2749,西安市,高压开关厂,颗粒物(PM10),65,80,78,23,23,130,17,117,87,76,34,9,13,0.7,0.5
2023-08-19T00:00:00,1463A,108.993,34.2629,西安市,兴庆小区,,50,50,60,19,23,124,66,115,95,17,21,7,8,0.5,0.6
2023-08-19T00:00:00,1464A,109.06,34.2572,西安市,纺织城,颗粒物(PM10),62,74,77,30,26,130,26,112,72,56,37,3,4,0.5,0.5
2023-08-19T00:00:00,1465A,108.9356,34.2173,西安市,小寨,颗粒物(PM10),58,65,78,16,19,124,49,114,89,32,19,10,10,0.5,0.4
2023-08-19T00:00:00,1466A,108.954,34.2713,西安市,市人民体育场,颗粒物(PM10),54,57,68,22,26,118,61,109,94,26,23,8,8,0.9,0.5
2023-08-19T00:00:00,1467A,108.8922,34.2322,西安市,高新西区,颗粒物(PM10),58,65,61,22,25,129,38,117,95,53,22,8,10,0.6,0.5
2023-08-19T00:00:00,1468A,108.935,34.3474,西安市,经开区,颗粒物(PM10),64,78,68,22,24,128,51,112,95,28,21,5,5,0.5,0.4
2023-08-19T00:00:00,1469A,108.906,34.1546,西安市,长安区,颗粒物(PM10),61,71,75,29,28,135,41,119,86,36,20,6,7,0.6,0.4
2023-08-19T00:00:00,1471A,109.2186,34.3731,西安市,临潼区,,42,42,66,21,27,131,125,124,124,9,16,6,7,0.3,0.4
2023-08-19T00:00:00,1472A,108.869,34.378,西安市,草滩,颗粒物(PM10),71,91,68,15,12,129,14,109,75,101,54,15,20,0.6,0.4
2023-08-19T00:00:00,1473A,108.985,34.1978,西安市,曲江文化产业集团,颗粒物(PM10),52,54,67,18,20,123,52,112,84,36,28,10,7,0.5,0.4
2023-08-19T00:00:00,1474A,109.051,34.3213,西安市,广运潭,颗粒物(PM10),51,52,65,22,26,128,52,108,87,29,23,7,9,0.4,0.5
2023-08-19T00:00:00,1476A,103.631,36.1031,兰州市,兰炼宾馆,细颗粒物(PM2.5),59,61,58,42,36,172,21,162,101,88,40,4,9,0.6,0.5
2023-08-19T00:00:00,1477A,104.1373,35.9454,兰州市,榆中兰大校区,,,,,,,,,,,,,,,,
2023-08-19T00:00:00,1478A,103.8412,36.0726,兰州市,生物制品所,颗粒物(PM10),64,78,59,34,32,156,2,139,85,96,48,4,8,0.5,0.7
2023-08-19T00:00:00,1479A,103.831,36.0464,兰州市,铁路设计院,颗粒物(PM10),58,65,54,33,29,166,18,140,80,97,55,8,13,0.8,0.9
2023-08-19T00:00:00,1483A,101.524,36.6867,西宁市,第五水厂,,,,,,,,,,,,,,,,
2023-08-19T00:00:00,1484A,105.9512,38.6016,银川市,贺兰山马莲口,,49,18,20,16,11,185,156,160,154,5,8,14,11,0.2,0.1
2023-08-19T00:00:00,1488A,106.2328,38.4975,银川市,贺兰山东路,颗粒物(PM10),53,56,48,19,20,165,95,153,131,36,31,12,15,0.6,0.6
2023-08-19T00:00:00,1489A,106.1358,38.5036,银川市,学院路,颗粒物(PM10),58,65,53,24,19,176,79,157,115,29,27,12,16,0.7,0.6
2023-08-19T00:00:00,1490A,87.5801,43.8303,乌鲁木齐市,监测站,,,32,54,6,14,139,,130,130,,51,,5,,0.8
2023-08-19T00:00:00,1491A,87.6046,43.768,乌鲁木齐市,收费所,"二氧化氮,颗粒物(PM10)",53,55,45,30,17,147,4,128,90,105,43,6,6,0.9,0.4
2023-08-19T00:00:00,1492A,87.4754,43.9469,乌鲁木齐市,新疆农科院农场,,,,30,25,20,118,12,110,88,91,29,4,6,0.6,0.4
2023-08-19T00:00:00,1493A,87.5525,43.8711,乌鲁木齐市,铁路局,颗粒物(PM10),60,70,61,29,19,136,1,125,94,111,46,5,5,0.9,0.6
2023-08-19T00:00:00,1494A,87.6432,43.831,乌鲁木齐市,三十一中学,二氧化氮,56,43,47,19,14,130,2,120,88,112,39,5,5,1.2,0.6
2023-08-19T00:00:00,1496A,87.7216,44.1747,乌鲁木齐市,米东区环保局,,43,43,47,18,22,118,51,114,101,57,26,5,8,0.2,0.4
2023-08-19T00:00:00,1508A,112.9433,27.8614,湘潭市,板塘,细颗粒物(PM2.5),55,51,56,39,34,221,109,190,153,16,23,2,4,0.6,0.7
2023-08-19T00:00:00,1511A,112.9118,27.8403,湘潭市,市监测站,颗粒物(PM10),56,61,50,29,26,228,114,193,157,10,18,4,4,1.0,0.8
2023-08-19T00:00:00,1512A,112.8937,27.8728,湘潭市,江麓,颗粒物(PM10),58,66,55,32,26,213,107,192,154,14,16,5,6,0.6,0.5
2023-08-19T00:00:00,1513A,112.9227,27.8159,湘潭市,岳塘,颗粒物(PM10),57,64,58,31,30,208,111,180,150,14,20,5,5,0.5,0.5
2023-08-19T00:00:00,1514A,112.9074,27.9119,湘潭市,科大,颗粒物(PM10),66,81,63,31,28,211,98,185,139,12,17,4,5,0.5,0.6
2023-08-19T00:00:00,1515A,113.135,27.8244,株洲市,天台山庄,颗粒物(PM10),62,73,55,35,28,190,93,177,144,26,18,5,6,0.7,0.6
2023-08-19T00:00:00,1518A,113.095,27.8867,株洲市,株冶医院,颗粒物(PM10),60,69,55,34,29,188,60,163,109,34,27,4,4,0.9,0.9
2023-08-19T00:00:00,1519A,113.167,27.8667,株洲市,市四中,"颗粒物(PM10),细颗粒物(PM2.5)",67,84,60,48,34,182,72,166,124,36,20,8,7,0.7,0.5
2023-08-19T00:00:00,1520A,113.143,27.8381,株洲市,火车站,颗粒物(PM10),63,75,60,34,32,185,99,174,136,27,22,8,14,0.7,0.7
2023-08-19T00:00:00,1524A,113.13,27.8528,株洲市,市监测站,颗粒物(PM10),62,73,54,39,31,180,86,171,136,30,21,6,5,0.9,0.8
2023-08-19T00:00:00,1552A,106.805,26.3003,贵阳市,桐木岭,,,,,,,,,,,,,,,,
2023-08-19T00:00:00,1559A,113.251,27.8336,株洲市,大京风景区,颗粒物(PM10),52,53,45,33,26,156,43,138,78,6,4,8,7,0.6,0.5
2023-08-19T00:00:00,1562A,113.0048,27.9153,湘潭市,昭山,颗粒物(PM10),63,75,55,34,29,223,79,187,136,28,30,4,4,0.7,0.7
2023-08-19T00:00:00,1564A,112.4876,27.9164,湘潭市,韶山,,48,48,43,28,20,158,88,148,111,9,8,6,6,0.3,0.3
2023-08-19T00:00:00,1585A,109.8756,40.6532,包头市,市环境监测站,,29,29,57,6,21,165,89,137,109,32,33,8,13,0.5,0.7
2023-08-19T00:00:00,1587A,109.9991,40.5842,包头市,包头八中,颗粒物(PM10),55,59,72,6,26,157,98,142,94,28,33,9,17,0.5,0.7
2023-08-19T00:00:00,1588A,109.8538,40.6821,包头市,青山宾馆,,29,26,49,5,19,156,90,136,109,25,31,4,10,0.5,0.7
2023-08-19T00:00:00,1589A,109.8642,40.6288,包头市,惠龙物流,,35,33,61,16,21,157,109,140,121,19,34,8,18,0.4,0.6
2023-08-19T00:00:00,1590A,110.0377,40.5546,包头市,东河鸿龙湾,颗粒物(PM10),58,65,64,21,22,154,107,144,108,16,22,11,15,0.6,0.7
2023-08-19T00:00:00,1591A,110.0023,39.8129,鄂尔多斯市,综合楼,,39,39,49,9,13,136,87,131,111,40,28,6,14,0.5,0.5
2023-08-19T00:00:00,1592A,109.9486,39.8261,鄂尔多斯市,巴音孟克林场办事处,,44,44,43,17,14,151,78,144,94,49,36,6,9,0.6,0.6
2023-08-19T00:00:00,1593A,109.7736,39.5986,鄂尔多斯市,康泽苑,,25,22,34,8,11,134,78,130,107,18,12,7,8,0.4,0.4
2023-08-19T00:00:00,1594A,109.8119,39.5989,鄂尔多斯市,华泰汽车城,,35,34,37,14,13,132,21,125,84,70,27,5,6,0.9,0.6
2023-08-19T00:00:00,1595A,109.9734,39.7884,鄂尔多斯市,奥林花园,,34,34,50,7,15,133,71,129,89,42,38,7,7,0.6,0.6
2023-08-19T00:00:00,1597A,122.2703,40.7094,营口市,大庆路,细颗粒物(PM2.5),74,55,41,54,36,178,106,162,153,14,12,4,7,0.8,0.9
2023-08-19T00:00:00,1598A,122.2150,40.6511,营口市,镜湖西路,细颗粒物(PM2.5),59,54,45,42,32,188,138,166,162,9,10,4,5,0.8,0.8
2023-08-19T00:00:00,1599A,122.1658,40.6789,营口市,西炮台,,50,50,45,33,26,196,143,171,167,9,11,5,6,0.8,0.8
2023-08-19T00:00:00,1600A,124.3303,40.0625,丹东市,江湾东路,,28,28,26,17,17,98,16,88,42,11,10,5,5,0.9,0.8
2023-08-19T00:00:00,1601A,124.4256,40.1503,丹东市,临江后街,,26,26,25,12,12,99,22,90,50,12,8,5,5,0.7,0.7
2023-08-19T00:00:00,1602A,124.3933,40.1461,丹东市,元宝山,,30,30,24,16,14,96,19,84,45,13,9,6,7,1.2,0.9
2023-08-19T00:00:00,1603A,124.3633,40.1092,丹东市,民主桥,,25,25,25,14,14,103,17,92,45,16,12,3,4,0.8,0.8
2023-08-19T00:00:00,1604A,122.0303,41.1489,盘锦市,开发区,细颗粒物(PM2.5),53,48,40,37,27,156,51,148,108,40,12,3,3,0.9,0.9
2023-08-19T00:00:00,1605A,122.0485,41.0883,盘锦市,兴隆台,,46,39,39,32,27,158,57,148,104,54,21,4,3,0.7,0.7
2023-08-19T00:00:00,1606A,121.8297,41.1028,盘锦市,新生街道,,39,29,36,27,25,156,35,149,86,24,13,4,5,0.6,0.7
2023-08-19T00:00:00,1607A,120.9092,40.7136,葫芦岛市,龙港区,细颗粒物(PM2.5),64,53,39,46,34,159,105,142,140,7,2,5,5,0.7,0.7
2023-08-19T00:00:00,1608A,120.8392,40.7514,葫芦岛市,化工街,颗粒物(PM10),63,75,42,44,29,137,11,125,105,75,9,6,5,0.8,0.8
2023-08-19T00:00:00,1609A,120.8341,40.7073,葫芦岛市,新区,细颗粒物(PM2.5),75,61,38,55,34,135,88,124,121,17,4,4,4,0.8,0.8
2023-08-19T00:00:00,1610A,120.8695,40.7677,葫芦岛市,东城区,细颗粒物(PM2.5),68,61,40,49,28,141,7,125,102,93,16,6,6,0.8,0.7
2023-08-19T00:00:00,1611A,118.5819,24.9117,泉州市,涂山街,,24,4,30,5,12,161,74,133,96,4,12,3,4,0.7,0.9
2023-08-19T00:00:00,1612A,118.5972,24.8978,泉州市,津头埔,,21,4,29,7,17,161,65,134,95,15,17,3,4,0.6,0.7
2023-08-19T00:00:00,1613A,118.6663,24.9424,泉州市,万安,,20,6,28,4,16,154,64,138,98,18,15,2,3,0.5,0.6
2023-08-19T00:00:00,1614A,118.6117,24.9604,泉州市,清源山,,,,,,,,,,,,,,,,
2023-08-19T00:00:00,1616A,117.6795,36.229,济南市,技术学院,细颗粒物(PM2.5),52,48,63,36,37,204,86,177,119,32,26,5,9,1.0,1.1
2023-08-19T00:00:00,1618A,118.3429,35.0532,临沂市,沂河小区,,49,48,49,34,30,171,68,158,116,17,22,10,10,0.4,0.4
2023-08-19T00:00:00,1619A,118.295,35.0583,临沂市,鲁南制药厂,,36,36,45,25,25,184,82,170,131,14,15,6,9,0.3,0.4
2023-08-19T00:00:00,1620A,118.2794,34.9976,临沂市,新光毛纺厂,,48,48,43,33,27,166,62,154,111,26,22,17,10,0.5,0.6
2023-08-19T00:00:00,1621A,118.3956,35.0888,临沂市,河东保险公司,,49,46,44,34,26,156,56,146,114,30,20,4,5,0.4,0.5
2023-08-19T00:00:00,1622A,116.3032,37.4674,德州市,儿童乐园,,30,29,39,19,23,152,94,139,118,15,15,7,7,0.8,0.8
2023-08-19T00:00:00,1624A,116.2991,37.4451,德州市,监理站,,32,28,38,22,26,140,86,129,106,22,20,7,7,0.7,0.6
2023-08-19T00:00:00,1625A,115.9848,36.4372,聊城市,区政府,,39,35,48,27,32,198,75,161,102,16,18,5,4,0.5,0.6
2023-08-19T00:00:00,1628A,118.0062,37.3803,滨州市,市环保局,,38,38,62,24,41,197,82,157,123,17,13,3,11,0.5,0.7
2023-08-19T00:00:00,1629A,118.0018,37.3617,滨州市,第二水厂,,36,34,60,25,41,198,50,165,108,48,20,6,11,0.7,0.8
2023-08-19T00:00:00,1630A,117.9776,37.393,滨州市,北中新校,,42,42,69,28,43,179,66,152,116,25,15,3,8,0.5,0.7
2023-08-19T00:00:00,1631A,118.0414,36.8103,淄博市,人民公园,颗粒物(PM10),54,58,85,34,49,248,88,193,150,43,38,12,17,0.5,0.7
2023-08-19T00:00:00,1633A,117.8525,36.4847,淄博市,双山,,50,50,55,30,35,192,67,166,118,30,24,12,13,0.6,0.8
2023-08-19T00:00:00,1634A,117.9592,36.6331,淄博市,气象站,细颗粒物(PM2.5),77,85,69,56,46,207,75,188,119,36,26,15,12,0.7,0.7
2023-08-19T00:00:00,1635A,118.3092,36.8194,淄博市,莆田园,颗粒物(PM10),97,144,81,66,51,263,47,212,139,65,29,18,16,3.0,1.4
2023-08-19T00:00:00,1637A,117.558,34.8438,枣庄市,市中区政府,颗粒物(PM10),74,97,58,39,30,174,56,159,119,56,27,11,19,0.4,0.4
2023-08-19T00:00:00,1638A,117.2852,34.7837,枣庄市,薛城环保局,颗粒物(PM10),53,56,56,34,30,187,113,163,100,24,30,9,11,0.5,0.7
2023-08-19T00:00:00,1639A,117.5852,34.7745,枣庄市,峄城区政府,细颗粒物(PM2.5),79,78,52,58,26,175,89,157,127,25,19,9,11,0.7,0.6
2023-08-19T00:00:00,1640A,117.7276,34.5578,枣庄市,台儿庄区环保局,细颗粒物(PM2.5),67,66,42,48,25,163,56,143,91,34,21,8,7,0.8,0.7
2023-08-19T00:00:00,1641A,117.4518,35.0992,枣庄市,山亭区环保局,,49,46,36,34,28,188,88,161,101,14,13,7,9,0.5,0.4
2023-08-19T00:00:00,1642A,121.2514,37.5639,烟台市,开发区,,36,34,44,22,29,217,114,183,127,9,17,5,5,0.8,1
2023-08-19T00:00:00,1643A,121.3719,37.5433,烟台市,轴承厂,,35,31,40,24,29,186,111,179,135,8,9,5,5,0.4,0.5
2023-08-19T00:00:00,1644A,121.3181,37.5436,烟台市,西郊化工站,,42,29,37,29,27,183,113,175,132,9,11,5,5,0.2,0.3
2023-08-19T00:00:00,1645A,121.4478,37.4822,烟台市,莱山环保局,,32,27,32,22,23,183,99,175,127,9,9,6,6,0.6,0.7
2023-08-19T00:00:00,1646A,121.2611,37.4967,烟台市,福山环保局,,35,34,49,22,21,170,112,162,120,10,21,6,6,0.6,0.7
2023-08-19T00:00:00,1650A,119.1437,36.7023,潍坊市,环保局,颗粒物(PM10),57,63,54,38,37,216,111,205,160,19,18,8,9,0.9,0.7
2023-08-19T00:00:00,1653A,116.6251,35.4302,济宁市,火炬城,颗粒物(PM10),55,59,55,29,31,178,98,155,104,18,14,13,8,0.8,0.8
2023-08-19T00:00:00,1655A,116.5491,35.4042,济宁市,电化厂,颗粒物(PM10),57,64,54,36,31,174,55,153,92,26,13,8,8,0.8,0.8
2023-08-19T00:00:00,1656A,117.1437,36.1937,泰安市,监测站,细颗粒物(PM2.5),78,80,68,57,46,212,60,177,110,32,16,11,9,0.9,0.6
2023-08-19T00:00:00,1657A,117.0885,36.2017,泰安市,人口学校,,46,46,54,32,32,207,120,170,131,7,13,8,9,0.6,0.6
2023-08-19T00:00:00,1658A,117.1089,36.1758,泰安市,电力学校,细颗粒物(PM2.5),67,75,62,48,37,217,70,184,122,20,14,7,5,0.6,0.5
2023-08-19T00:00:00,1659A,119.471,35.4209,日照市,监测站,,34,34,38,21,22,168,104,134,98,6,30,5,6,0.7,1.2
2023-08-19T00:00:00,1660A,119.523,35.4216,日照市,市政府广场,,35,34,36,24,19,165,104,152,121,12,22,9,13,0.7,0.9
2023-08-19T00:00:00,1661A,119.5587,35.4044,日照市,港务局,颗粒物(PM10),53,56,40,29,20,162,106,142,117,13,22,7,10,0.8,0.9
2023-08-19T00:00:00,1662A,122.1214,37.4236,威海市,华夏技校,,35,22,35,20,28,182,111,162,107,6,13,4,5,0.4,0.5
2023-08-19T00:00:00,1663A,122.0508,37.5236,威海市,山大分校,,42,27,37,22,24,192,134,180,129,2,5,7,7,0.5,0.6
2023-08-19T00:00:00,1664A,122.1067,37.5072,威海市,市监测站,,43,24,39,24,32,170,136,152,114,1,13,7,7,0.6,0.7
2023-08-19T00:00:00,1666A,118.6614,37.4309,东营市,市环保局,细颗粒物(PM2.5),58,51,53,41,41,211,127,187,157,11,10,8,7,0.5,0.5
2023-08-19T00:00:00,1669A,113.5824,24.7733,韶关市,市八中,,46,46,43,12,21,123,85,113,99,14,17,10,11,0.7,0.7
2023-08-19T00:00:00,1671A,113.5917,24.7972,韶关市,园林处,,45,36,36,31,22,127,77,118,93,12,13,14,11,0.9,0.8
2023-08-19T00:00:00,1672A,113.6735,24.7791,韶关市,韶关学院,,35,35,41,22,21,120,29,108,62,10,8,7,9,0.6,0.6
2023-08-19T00:00:00,1673A,113.5971,24.6863,韶关市,曲江监测站,,43,43,43,25,25,166,67,125,84,13,12,9,9,0.7,0.7
2023-08-19T00:00:00,1674A,116.6794,23.3667,汕头市,金平子站,,38,28,27,26,17,175,90,150,125,17,15,5,8,0.8,0.9
2023-08-19T00:00:00,1675A,116.7244,23.3633,汕头市,龙湖子站,,39,19,26,16,14,189,124,170,146,10,14,4,6,0.7,0.8
2023-08-19T00:00:00,1676A,116.7258,23.2775,汕头市,濠江子站,,29,10,24,14,12,187,91,162,117,5,9,9,10,0.7,0.9
2023-08-19T00:00:00,1677A,116.7519,23.4714,汕头市,澄海子站,,39,32,24,21,14,148,124,139,137,12,13,5,7,0.9,0.8
2023-08-19T00:00:00,1678A,116.6092,23.2539,汕头市,潮阳子站,,26,26,23,11,5,164,67,134,99,17,11,9,9,0.7,0.7
2023-08-19T00:00:00,1680A,110.3539,21.2706,湛江市,湛江影剧院,,26,26,28,12,14,74,39,72,54,14,10,12,12,0.6,0.6
2023-08-19T00:00:00,1681A,110.3928,21.2228,湛江市,市环境监测站,,28,28,32,18,17,68,43,65,50,16,12,12,18,0.6,0.6
2023-08-19T00:00:00,1682A,110.4019,21.1997,湛江市,环保局宿舍,,34,34,28,19,17,73,42,70,55,22,10,5,12,0.5,0.5
2023-08-19T00:00:00,1683A,110.4111,21.2028,湛江市,霞山游泳场,,34,34,33,15,16,73,38,70,56,21,10,7,12,0.6,0.6
2023-08-19T00:00:00,1684A,110.3316,21.2679,湛江市,麻章区环保局,,37,37,35,19,17,71,30,68,50,17,12,5,9,0.7,0.7
2023-08-19T00:00:00,1685A,110.4558,21.2567,湛江市,坡头区环保局,,29,29,25,15,16,76,34,73,50,21,16,6,9,0.5,0.4
2023-08-19T00:00:00,1686A,111.0286,21.4688,茂名市,电白南海,,,27,35,19,23,117,,102,92,6,9,6,7,0.5,0.6
2023-08-19T00:00:00,1687A,110.9294,21.6533,茂名市,茂石化七小,,31,31,40,19,25,89,72,84,68,8,10,5,10,0.5,0.6
2023-08-19T00:00:00,1688A,110.9107,21.6687,茂名市,健康路,,29,29,33,12,16,91,72,86,71,6,8,2,8,0.3,0.4
2023-08-19T00:00:00,1689A,110.8592,21.6828,茂名市,高岭,细颗粒物(PM2.5),52,31,45,36,26,89,58,81,57,12,13,6,13,0.6,0.6
2023-08-19T00:00:00,1690A,116.1231,24.3284,梅州市,梅江月梅,,35,35,23,17,12,111,55,91,72,21,9,3,2,0.8,0.7
2023-08-19T00:00:00,1691A,116.0797,24.2719,梅州市,梅县新城,,46,46,29,19,15,124,26,105,65,31,15,4,4,0.8,0.8
2023-08-19T00:00:00,1692A,116.1248,24.2654,梅州市,环境监控中心,,31,31,26,19,16,125,44,101,68,32,13,7,8,0.8,0.7
2023-08-19T00:00:00,1693A,115.3653,22.775,汕尾市,市环保局,,26,12,25,10,14,108,81,98,85,12,14,2,2,0.6,0.7
2023-08-19T00:00:00,1694A,115.3706,22.7898,汕尾市,市政府,,23,14,21,12,15,112,72,104,78,12,11,5,5,0.7,0.7
2023-08-19T00:00:00,1695A,115.3622,22.7925,汕尾市,新城中学,,22,14,26,10,12,107,68,95,76,10,10,6,6,0.7,0.7
2023-08-19T00:00:00,1696A,114.6778,23.7569,河源市,源西,,48,48,45,23,24,120,55,101,76,10,13,4,4,0.8,0.8
2023-08-19T00:00:00,1697A,114.6944,23.7586,河源市,东埔,,46,46,46,27,24,110,62,90,73,11,17,5,5,0.6,0.6
2023-08-19T00:00:00,1698A,114.6892,23.7233,河源市,老城,颗粒物(PM10),53,55,48,19,18,130,57,101,86,14,12,4,4,0.8,0.7
2023-08-19T00:00:00,1699A,111.9797,21.8593,阳江市,鸳鸯湖,,40,24,34,28,19,106,91,100,98,6,10,7,7,0.7,0.8
2023-08-19T00:00:00,1701A,111.9491,21.8658,阳江市,马南垌,,31,31,35,20,21,105,90,94,93,4,10,4,8,0.4,0.6
2023-08-19T00:00:00,1702A,113.0426,23.691,清远市,环保大楼,,17,17,33,10,24,129,34,113,72,13,17,7,8,0.4,0.5
2023-08-19T00:00:00,1703A,113.0208,23.7106,清远市,凤城街办,,34,34,45,16,25,122,22,100,59,18,17,5,5,0.7,0.6
2023-08-19T00:00:00,1705A,116.6367,23.6719,潮州市,西园路,,33,31,21,23,12,133,86,115,110,14,9,6,5,0.5,0.3
2023-08-19T00:00:00,1706A,116.6447,23.6706,潮州市,档案局,,37,37,21,25,9,137,84,118,111,13,7,12,7,0.5,0.4
2023-08-19T00:00:00,1708A,116.3701,23.5345,揭阳市,新兴,,32,32,30,16,16,172,76,130,101,16,13,9,9,0.9,0.9
2023-08-19T00:00:00,1709A,116.3264,23.5443,揭阳市,西马,,38,38,32,18,16,174,75,127,107,16,11,9,7,1.1,0.9
2023-08-19T00:00:00,1710A,116.3611,23.5626,揭阳市,东兴,,48,48,33,20,14,170,62,123,106,27,16,12,5,1.0,0.9
2023-08-19T00:00:00,1711A,116.4151,23.5294,揭阳市,渔湖,颗粒物(PM10),52,54,41,18,16,176,70,129,107,19,11,5,8,0.8,0.8
2023-08-19T00:00:00,1712A,112.0392,22.9169,云浮市,新市府,,25,25,25,16,16,67,23,60,36,10,5,5,4,0.7,0.6
2023-08-19T00:00:00,1714A,112.0539,22.9539,云浮市,牧羊,,43,43,40,16,18,66,5,49,20,33,23,20,18,0.6,0.6
2023-08-19T00:00:00,1715A,102.575,24.3711,玉溪市,东风水库,,36,36,25,21,13,99,43,84,62,18,15,7,6,1.0,1.1
2023-08-19T00:00:00,1718A,115.4208,35.2464,菏泽市,气象局,,38,38,64,24,36,215,96,173,116,5,8,3,4,0.4,0.5
2023-08-19T00:00:00,1719A,115.4747,35.2375,菏泽市,市政协,,45,31,61,31,39,196,91,174,117,10,18,4,6,0.4,0.5
2023-08-19T00:00:00,1721A,113.3819,40.1097,大同市,果树场,,,,,,,,,,,,,,,,
2023-08-19T00:00:00,1723A,113.2994,40.0758,大同市,云冈宾馆,颗粒物(PM10),57,63,46,16,18,141,39,136,92,55,26,16,11,1.5,0.8
2023-08-19T00:00:00,1724A,113.3444,40.0917,大同市,大同大学,颗粒物(PM10),67,84,43,21,17,140,61,134,95,38,22,21,10,0.9,0.7
2023-08-19T00:00:00,1725A,113.2661,40.1269,大同市,安家小村,颗粒物(PM10),79,107,46,27,15,140,31,133,94,46,18,14,12,1.5,0.6
2023-08-19T00:00:00,1726A,113.2711,40.0844,大同市,教育学院,颗粒物(PM10),52,54,46,12,18,138,56,128,92,45,29,23,13,0.6,0.7
2023-08-19T00:00:00,1727A,113.1147,36.1547,长治市,清华站,颗粒物(PM10),55,60,69,36,35,184,102,160,132,14,15,9,10,1.4,1.1
2023-08-19T00:00:00,1728A,113.1031,36.1989,长治市,监测站,细颗粒物(PM2.5),52,49,64,36,36,172,86,162,139,24,20,4,5,1.7,1.2
2023-08-19T00:00:00,1730A,113.0886,36.2125,长治市,审计局,,49,46,61,34,37,161,110,150,137,6,12,6,6,1.4,1.2
2023-08-19T00:00:00,1731A,113.0844,36.1856,长治市,长治八中,颗粒物(PM10),55,59,77,32,33,167,103,156,136,16,16,9,10,1.4,1.1
2023-08-19T00:00:00,1733A,111.5531,36.0783,临汾市,临钢医院,颗粒物(PM10),122,194,220,59,61,158,54,129,110,34,18,11,12,1.3,1
2023-08-19T00:00:00,1734A,111.5028,36.0714,临汾市,技工学校,颗粒物(PM10),104,158,227,50,63,177,63,145,119,38,25,17,15,0.9,0.8
2023-08-19T00:00:00,1736A,111.5018,36.0855,临汾市,市委,颗粒物(PM10),110,169,232,57,71,156,60,129,107,34,24,16,13,0.8,0.7
2023-08-19T00:00:00,1738A,113.5758,37.8572,阳泉市,市中心,颗粒物(PM10),94,138,96,44,34,141,3,131,87,71,32,9,10,0.9,0.9
2023-08-19T00:00:00,1739A,113.4894,37.8731,阳泉市,赛鱼,颗粒物(PM10),93,136,93,44,35,127,5,121,64,57,35,7,7,0.7,0.7
2023-08-19T00:00:00,1740A,113.5819,37.8486,阳泉市,南庄,颗粒物(PM10),110,170,122,50,31,144,33,134,99,44,22,9,10,0.9,0.8
2023-08-19T00:00:00,1742A,113.5614,37.8703,阳泉市,平坦,颗粒物(PM10),107,163,107,53,36,143,6,132,87,75,38,9,9,0.7,0.7
2023-08-19T00:00:00,1743A,113.5158,37.8392,阳泉市,大阳泉,颗粒物(PM10),107,163,87,52,39,144,102,132,126,15,13,13,10,0.8,0.7
2023-08-19T00:00:00,1744A,118.9233,42.2816,赤峰市,松山一中,,37,36,29,9,9,116,116,108,89,12,19,9,12,0.2,0.2
2023-08-19T00:00:00,1745A,118.9576,42.2728,赤峰市,哈达街,,37,34,31,7,9,117,117,104,84,8,22,13,22,0.2,0.2
2023-08-19T00:00:00,1746A,118.8788,42.2554,赤峰市,天义路,,39,22,27,10,13,130,122,121,100,11,16,10,18,0.3,0.3
2023-08-19T00:00:00,1748A,123.044,41.1196,鞍山市,深沟寺,,40,40,37,25,23,164,45,150,90,9,11,2,3,0.9,1
2023-08-19T00:00:00,1749A,123.011,41.0931,鞍山市,太阳城,颗粒物(PM10),55,59,41,37,25,177,43,156,102,28,16,2,3,1.2,1.1
2023-08-19T00:00:00,1750A,123.0485,41.1442,鞍山市,太平,颗粒物(PM10),56,61,53,23,26,171,64,153,96,10,19,4,7,0.8,1.1
2023-08-19T00:00:00,1751A,122.9642,41.0971,鞍山市,铁西三道街,细颗粒物(PM2.5),62,64,52,44,30,176,97,158,118,15,19,4,6,1.0,1.1
2023-08-19T00:00:00,1752A,122.9341,41.0833,鞍山市,铁西工业园区,细颗粒物(PM2.5),64,76,52,46,31,175,49,160,89,39,22,4,5,1.0,1.1
2023-08-19T00:00:00,1753A,123.022,41.0821,鞍山市,明达新区,颗粒物(PM10),52,53,45,33,26,164,38,147,99,34,18,4,4,0.9,0.9
2023-08-19T00:00:00,1754A,123.1289,41.0228,鞍山市,千山,,,,,,,,,,,,,,,,
2023-08-19T00:00:00,1755A,123.7977,41.8491,抚顺市,望花区,颗粒物(PM10),52,54,44,29,27,164,41,142,100,26,23,3,7,0.8,0.8
2023-08-19T00:00:00,1756A,123.9161,41.8822,抚顺市,顺城区,,25,25,35,16,22,154,45,140,95,23,19,4,5,0.6,0.7
2023-08-19T00:00:00,1757A,124.0436,41.8611,抚顺市,东洲区,,21,16,29,10,16,140,66,120,96,7,8,5,5,0.5,0.6
2023-08-19T00:00:00,1758A,123.9247,41.8642,抚顺市,新抚区,,31,31,36,18,19,150,44,137,95,16,16,5,6,0.6,0.8
2023-08-19T00:00:00,1759A,124.0972,41.8961,抚顺市,大伙房水库,,17,14,24,7,14,136,52,120,100,17,7,4,5,0.5,0.5
2023-08-19T00:00:00,1760A,123.7086,41.8391,抚顺市,沈抚新城,,35,35,41,24,19,166,14,133,91,37,17,5,8,1.0,0.9
2023-08-19T00:00:00,1761A,123.8275,41.3064,本溪市,大峪,,37,37,37,12,17,98,45,91,76,12,14,4,4,0.8,0.8
2023-08-19T00:00:00,1762A,123.7567,41.3325,本溪市,溪湖,,38,38,45,23,24,87,28,83,60,19,21,6,8,2.0,1.7
2023-08-19T00:00:00,1763A,123.7169,41.3094,本溪市,彩屯,,43,43,47,28,27,101,16,73,57,31,26,6,6,1.6,2.2
2023-08-19T00:00:00,1764A,123.7669,41.2864,本溪市,东明,,32,29,38,22,24,102,37,92,78,21,18,5,5,1.1,0.9
2023-08-19T00:00:00,1765A,123.7992,41.2664,本溪市,新立屯,,32,32,28,15,18,94,32,88,52,16,18,6,7,1.1,0.9
2023-08-19T00:00:00,1766A,123.8142,41.3472,本溪市,威宁,,49,40,42,34,26,86,22,79,49,17,19,6,6,1.2,1
2023-08-19T00:00:00,1767A,121.1115,41.0879,锦州市,南山,,36,18,40,25,30,134,39,121,69,25,20,4,7,0.8,0.9
2023-08-19T00:00:00,1768A,121.0533,40.8434,锦州市,开发区,细颗粒物(PM2.5),80,85,56,59,32,140,40,122,107,70,15,10,10,1.0,0.9
2023-08-19T00:00:00,1769A,121.1836,41.1119,锦州市,百股街道,,28,27,36,19,27,127,39,120,72,17,14,9,12,0.7,0.8
2023-08-19T00:00:00,1770A,121.1178,41.1222,锦州市,天安街道,,32,23,47,22,26,138,45,122,66,25,21,5,4,0.9,1
2023-08-19T00:00:00,1771A,121.1303,41.1386,锦州市,北湖公园,,34,34,52,17,28,147,37,129,74,28,16,6,8,0.8,0.8
2023-08-19T00:00:00,1772A,126.54,43.8622,吉林市,哈达湾,,35,35,27,21,15,146,54,124,90,21,14,5,6,0.8,0.6
2023-08-19T00:00:00,1773A,126.5844,43.8358,吉林市,东局子,,27,27,25,16,13,156,82,133,88,9,13,6,6,0.8,0.7
2023-08-19T00:00:00,1774A,126.5052,43.8245,吉林市,电力学院,,34,34,32,15,17,147,56,122,78,15,16,7,7,0.8,0.7
2023-08-19T00:00:00,1775A,126.6133,43.8972,吉林市,江北,,38,38,33,22,17,144,38,124,79,11,11,8,8,0.8,0.8
2023-08-19T00:00:00,1776A,126.555,43.8306,吉林市,江南公园,,35,29,27,24,18,151,74,131,85,10,14,3,3,0.8,0.7
2023-08-19T00:00:00,1778A,126.7061,43.7133,吉林市,丰满,,,,,,,,,,,,,,,,
2023-08-19T00:00:00,1779A,123.9305,47.3636,齐齐哈尔市,安居小区,,17,17,18,8,18,95,33,81,50,5,6,4,5,0.2,0.3
2023-08-19T00:00:00,1780A,123.9488,47.3386,齐齐哈尔市,中心广场,,12,11,12,3,3,95,37,77,42,5,11,2,3,0.2,0.3
2023-08-19T00:00:00,1781A,123.9483,47.3227,齐齐哈尔市,农牧车辆厂,,19,19,25,9,5,91,40,81,48,4,8,6,7,0.2,0.3
2023-08-19T00:00:00,1783A,123.945,47.2988,齐齐哈尔市,市环境监测站,,12,11,14,7,9,91,38,74,44,5,8,6,7,0.1,0.2
2023-08-19T00:00:00,1784A,129.61,44.561,牡丹江市,环保大楼,,17,17,13,4,8,64,30,55,33,8,9,5,5,0.4,0.4
2023-08-19T00:00:00,1785A,129.6115,44.5782,牡丹江市,文化广场,,29,17,14,20,12,59,28,51,30,8,13,6,6,0.4,0.5
2023-08-19T00:00:00,1786A,129.5904,44.5963,牡丹江市,第一医院,,15,15,23,7,9,59,25,51,28,5,11,4,4,0.3,0.4
2023-08-19T00:00:00,1787A,129.6364,44.6075,牡丹江市,机车工厂,,20,20,23,5,6,61,16,52,22,14,11,2,2,0.5,0.5
2023-08-19T00:00:00,1788A,129.6386,44.5462,牡丹江市,第一中学,,18,18,24,6,6,64,27,51,24,8,10,5,5,0.3,0.3
2023-08-19T00:00:00,1789A,124.81117,46.03138,大庆市,大同区,,13,13,15,7,10,105,37,86,47,8,8,6,5,0.2,0.3
2023-08-19T00:00:00,1790A,125.129,46.533,大庆市,龙凤区,,22,15,16,15,9,99,34,91,46,18,13,6,6,0.4,0.4
2023-08-19T00:00:00,1791A,124.902,46.408,大庆市,红岗区,,14,12,10,9,11,100,42,88,53,7,9,3,3,0.2,0.4
2023-08-19T00:00:00,1792A,125.153,46.586,大庆市,萨尔图区,,24,24,22,13,8,92,36,81,42,18,16,4,4,0.4,0.3
2023-08-19T00:00:00,1793A,124.9042,46.6215,大庆市,让胡路区,,18,18,16,7,7,92,28,83,36,13,16,5,4,0.3,0.4
2023-08-19T00:00:00,1794A,118.3606,31.3519,芜湖市,监测站,,37,32,31,18,19,173,116,161,134,22,18,6,5,0.6,0.7
2023-08-19T00:00:00,1795A,118.3714,31.4134,芜湖市,科创中心,,34,33,37,20,22,174,106,158,127,20,24,7,7,0.8,0.8
2023-08-19T00:00:00,1796A,118.3673,31.3131,芜湖市,四水厂,,40,27,30,18,19,184,126,172,148,20,15,3,4,0.7,0.7
2023-08-19T00:00:00,1798A,118.5092,31.6837,马鞍山市,湖东路四小,,33,32,26,23,22,177,101,156,130,17,14,7,7,0.7,0.7
2023-08-19T00:00:00,1799A,118.5024,31.6449,马鞍山市,开发区,,40,38,38,28,19,172,69,153,113,12,12,6,5,0.7,0.9
2023-08-19T00:00:00,1800A,118.5228,31.7231,马鞍山市,慈湖,,36,36,36,25,22,184,95,163,125,20,17,14,9,0.8,0.7
2023-08-19T00:00:00,1802A,118.6245,31.7241,马鞍山市,濮塘,,32,16,21,22,21,177,72,157,116,14,9,3,3,0.9,0.8
2023-08-19T00:00:00,1803A,115.9872,29.6815,九江市,十里,,38,32,31,21,20,157,119,150,134,15,13,10,9,0.7,0.7
2023-08-19T00:00:00,1804A,115.9584,29.7046,九江市,茅山头,,46,40,29,32,22,155,125,146,129,14,16,6,9,0.9,0.9
2023-08-19T00:00:00,1805A,115.9877,29.7295,九江市,西园,,41,34,29,20,17,167,130,157,130,14,16,10,10,0.8,0.7
2023-08-19T00:00:00,1806A,116.0172,29.6547,九江市,五七二七厂,,34,32,28,20,19,151,107,138,102,10,8,11,9,0.7,0.7
2023-08-19T00:00:00,1808A,115.9114,29.6038,九江市,综合工业园,,40,32,29,20,19,166,128,153,138,16,21,12,12,0.8,0.8
2023-08-19T00:00:00,1809A,116.0721,29.7535,九江市,石化总厂,,40,40,32,24,19,159,120,146,117,16,17,11,11,0.8,0.9
2023-08-19T00:00:00,1810A,115.9773,29.5698,九江市,庐山气象台,,48,24,26,20,20,153,153,143,143,10,7,10,9,0.5,0.7
2023-08-19T00:00:00,1812A,112.3931,34.6516,洛阳市,市委党校,颗粒物(PM10),73,96,104,47,40,162,94,150,126,15,10,8,8,0.8,0.6
2023-08-19T00:00:00,1814A,112.4657,34.6871,洛阳市,豫西宾馆,颗粒物(PM10),99,148,120,45,42,180,103,163,130,14,17,4,6,0.9,0.7
2023-08-19T00:00:00,1815A,112.494,34.6886,洛阳市,河南林校,颗粒物(PM10),66,81,109,36,37,176,105,158,129,18,22,5,7,0.9,0.8
2023-08-19T00:00:00,1816A,112.3844,34.623,洛阳市,开发区管委会,颗粒物(PM10),78,106,95,34,32,169,96,153,125,17,12,8,9,0.6,0.4
2023-08-19T00:00:00,1817A,112.4267,34.6258,洛阳市,市委新办公区,颗粒物(PM10),79,107,100,41,36,170,98,156,132,19,13,7,8,0.7,0.6
2023-08-19T00:00:00,1818A,114.4839,36.0621,安阳市,棉研所,,,,,,,,,,,,,,,,
2023-08-19T00:00:00,1819A,114.3551,36.1017,安阳市,红庙街,,46,46,59,22,29,191,98,170,132,11,11,10,9,1.8,1.4
2023-08-19T00:00:00,1820A,114.361,36.0681,安阳市,银杏小区,,,36,58,,,207,100,174,135,6,8,3,4,1.2,1.3
2023-08-19T00:00:00,1824A,114.3389,34.7781,开封市,肿瘤医院,,50,33,69,35,37,182,95,164,137,15,16,4,4,0.7,0.7
2023-08-19T00:00:00,1826A,114.2885,34.7965,开封市,世纪星幼儿园,,,50,63,,,187,103,164,138,15,19,5,6,0.9,1
2023-08-19T00:00:00,1828A,113.227,35.2125,焦作市,市环保局,,39,37,78,16,41,201,124,178,152,10,19,6,9,0.7,0.8
2023-08-19T00:00:00,1830A,113.1992,35.2590,焦作市,影视城,,,,,,,,,,,,,,,,
2023-08-19T00:00:00,1832A,113.3257,33.742,平顶山市,新华旅馆,颗粒物(PM10),60,69,76,28,31,210,95,183,150,25,14,4,5,0.6,0.6
2023-08-19T00:00:00,1833A,113.2919,33.737,平顶山市,规划设计院,颗粒物(PM10),58,66,85,39,37,194,116,177,155,12,11,8,10,0.8,0.7
2023-08-19T00:00:00,1834A,113.182,33.774,平顶山市,平顶山工学院,颗粒物(PM10),58,66,97,29,35,182,110,174,146,16,14,4,6,0.6,0.7
2023-08-19T00:00:00,1835A,111.1922,34.7752,三门峡市,市政府,颗粒物(PM10),64,77,112,30,39,145,58,134,98,29,22,4,9,0.5,0.5
2023-08-19T00:00:00,1836A,111.1587,34.7942,三门峡市,开发区,颗粒物(PM10),73,96,121,37,48,143,60,132,102,35,14,18,7,0.5,0.5
2023-08-19T00:00:00,1838A,111.143,34.7955,三门峡市,风景区,,,,,,,,,,,,,,,,
2023-08-19T00:00:00,1840A,111.2992,30.6981,宜昌市,白龙岗,,46,46,48,29,27,160,90,146,116,15,23,4,4,0.6,0.6
2023-08-19T00:00:00,1841A,111.3549,30.6465,宜昌市,伍家岗,"颗粒物(PM10),细颗粒物(PM2.5)",55,60,45,39,29,164,67,148,118,23,25,3,3,0.7,0.7
2023-08-19T00:00:00,1842A,111.2628,30.6961,宜昌市,点军区,颗粒物(PM10),58,65,37,39,32,188,63,150,107,16,19,6,5,0.7,0.5
2023-08-19T00:00:00,1843A,111.3275,30.7819,宜昌市,夷陵区,,39,30,44,27,25,157,85,148,114,14,21,4,4,0.5,0.6
2023-08-19T00:00:00,1844A,112.2494,30.3197,荆州市,市图书馆,细颗粒物(PM2.5),77,68,61,56,40,184,15,162,117,92,27,9,8,0.7,0.8
2023-08-19T00:00:00,1845A,112.2008,30.3544,荆州市,市委党校,细颗粒物(PM2.5),60,59,59,43,37,182,97,164,134,21,15,10,10,0.8,0.8
2023-08-19T00:00:00,1847A,113.1094,29.3578,岳阳市,南湖风景区,,50,50,45,32,31,173,102,166,141,16,16,6,8,0.8,0.8
2023-08-19T00:00:00,1848A,113.1493,29.4251,岳阳市,城陵矶,细颗粒物(PM2.5),65,61,49,47,35,162,64,149,112,35,36,10,11,0.9,0.8
2023-08-19T00:00:00,1849A,113.1497,29.3575,岳阳市,开发区,细颗粒物(PM2.5),62,62,51,44,33,171,79,164,133,29,19,13,9,0.9,0.8
2023-08-19T00:00:00,1850A,113.2621,29.4758,岳阳市,云溪区,细颗粒物(PM2.5),65,68,47,47,36,167,46,160,114,24,13,9,10,0.8,0.7
2023-08-19T00:00:00,1851A,112.9943,29.4402,岳阳市,君山区,细颗粒物(PM2.5),80,64,49,59,40,162,94,156,125,17,21,18,11,0.8,0.8
2023-08-19T00:00:00,1852A,113.2117,29.355,岳阳市,金凤水库,,45,45,45,27,30,184,113,170,147,12,10,8,6,0.5,0.5
2023-08-19T00:00:00,1854A,111.6975,28.9703,常德市,市二中,细颗粒物(PM2.5),73,75,50,53,37,162,105,159,132,8,12,3,3,0.9,0.7
2023-08-19T00:00:00,1857A,111.7158,29.1456,常德市,白鹤山,,42,26,30,2,8,165,134,155,138,3,4,10,9,0.3,0.4
2023-08-19T00:00:00,1858A,110.5319,29.1217,张家界市,永定新区,"颗粒物(PM10),细颗粒物(PM2.5)",60,70,46,43,33,151,99,137,112,12,10,6,6,0.5,0.4
2023-08-19T00:00:00,1859A,110.4697,29.1242,张家界市,电业局,,,,,,,,,,,,,,,,
2023-08-19T00:00:00,1860A,110.5594,29.3547,张家界市,未央路,,49,41,47,34,29,142,50,140,106,12,9,4,3,0.5,0.4
2023-08-19T00:00:00,1861A,110.4417,29.315,张家界市,袁家界,细颗粒物(PM2.5),52,40,38,36,27,146,86,134,117,4,6,7,7,0.6,0.7
2023-08-19T00:00:00,1862A,110.4144,25.3167,桂林市,电子科大尧山校区,,30,30,37,16,22,100,33,90,65,6,7,6,10,0.6,0.6
2023-08-19T00:00:00,1863A,110.2819,25.2697,桂林市,监测站,,39,36,29,27,16,147,38,111,74,18,14,8,6,0.7,0.7
2023-08-19T00:00:00,1864A,110.3089,25.2708,桂林市,龙隐路小学,,31,31,26,18,14,152,40,110,74,16,12,9,10,0.6,0.6
2023-08-19T00:00:00,1865A,110.2869,25.2178,桂林市,八中,,30,30,26,20,14,127,24,101,63,22,15,8,7,0.7,0.7
2023-08-19T00:00:00,1866A,109.2262,21.588,北海市,牛尾岭水库,,15,15,18,8,9,60,22,56,39,11,8,4,3,0.4,0.4
2023-08-19T00:00:00,1867A,109.1436,21.4086,北海市,海滩公园,,34,34,34,5,6,78,59,70,62,6,5,2,3,0.5,0.6
2023-08-19T00:00:00,1868A,109.0981,21.4661,北海市,新市环保局,,18,18,19,12,8,65,57,60,60,6,4,3,3,0.5,0.5
2023-08-19T00:00:00,1869A,109.1778,21.5233,北海市,北海工业园,,21,21,28,10,12,72,41,69,55,12,9,4,4,0.5,0.5
2023-08-19T00:00:00,1870A,109.4856,24.3895,柳州市,柳东小学,,32,26,28,22,22,124,25,103,64,20,9,7,10,0.5,0.5
2023-08-19T00:00:00,1871A,109.4157,24.3277,柳州市,环保监测站,,39,39,45,21,27,140,40,114,72,21,19,4,4,0.8,0.9
2023-08-19T00:00:00,1872A,109.389,24.341,柳州市,河西水厂,,36,36,46,18,26,129,22,110,69,30,20,5,5,1.1,1.1
2023-08-19T00:00:00,1873A,109.4311,24.2921,柳州市,市四中,,32,27,47,22,28,137,60,116,84,16,20,6,6,0.8,1
2023-08-19T00:00:00,1874A,109.4006,24.3631,柳州市,市九中,,38,38,49,26,26,125,14,106,67,16,17,6,11,0.9,1.1
2023-08-19T00:00:00,1875A,109.4958,24.3134,柳州市,古亭山,,28,14,42,19,26,135,26,118,64,24,18,6,9,0.7,0.8
2023-08-19T00:00:00,1876A,109.5078,18.2489,三亚市,河东子站,,21,18,19,10,10,67,65,60,60,2,5,3,3,0.3,0.3
2023-08-19T00:00:00,1877A,109.4964,18.2681,三亚市,河西子站,,,,27,10,11,65,64,58,58,8,9,2,2,0.4,0.4
2023-08-19T00:00:00,1878A,104.7778,31.4741,绵阳市,富乐山,,26,26,60,15,28,84,34,75,63,27,10,4,4,0.7,0.6
2023-08-19T00:00:00,1879A,104.7563,31.4535,绵阳市,市人大,,29,22,61,20,26,73,26,68,58,43,20,9,9,0.5,0.4
2023-08-19T00:00:00,1880A,104.6697,31.4668,绵阳市,高新区自来水公司,颗粒物(PM10),52,53,62,19,22,83,2,69,55,53,25,8,7,0.6,0.5
2023-08-19T00:00:00,1881A,104.7287,31.5075,绵阳市,三水厂,,43,43,63,18,28,72,11,60,46,51,27,7,7,0.5,0.4
2023-08-19T00:00:00,1882A,104.563,28.793,宜宾市,石马中学,颗粒物(PM10),75,100,53,47,33,135,65,117,85,16,19,6,8,0.6,0.6
2023-08-19T00:00:00,1883A,104.6201,28.7728,宜宾市,市委,颗粒物(PM10),53,56,53,31,34,127,84,112,93,12,19,9,12,0.7,0.8
2023-08-19T00:00:00,1884A,104.6055,28.793,宜宾市,宜宾四中,颗粒物(PM10),54,57,55,32,37,133,92,118,98,11,16,8,11,0.6,0.7
2023-08-19T00:00:00,1885A,104.639,28.7562,宜宾市,市政府,颗粒物(PM10),52,54,51,31,32,130,86,113,96,15,17,8,7,0.6,0.7
2023-08-19T00:00:00,1886A,104.5742,28.7199,宜宾市,黄金嘴,颗粒物(PM10),58,65,55,35,32,128,73,119,96,15,17,7,11,0.5,0.6
2023-08-19T00:00:00,1888A,101.6891,26.571,攀枝花市,弄弄坪,,23,19,45,14,22,86,71,70,70,20,19,16,13,0.7,0.8
2023-08-19T00:00:00,1889A,101.5769,26.5928,攀枝花市,河门口,,28,28,43,14,26,169,71,109,82,24,26,32,28,1.7,1.6
2023-08-19T00:00:00,1890A,101.7169,26.585,攀枝花市,炳草岗,,35,35,49,20,25,139,87,100,72,16,31,27,33,0.8,0.9
2023-08-19T00:00:00,1891A,101.7369,26.5008,攀枝花市,仁和,,26,13,34,10,24,155,81,114,87,11,16,8,14,0.5,0.7
2023-08-19T00:00:00,1893A,105.4324,28.9634,泸州市,九狮山,,36,36,44,16,19,147,21,133,85,19,13,5,7,0.5,0.5
2023-08-19T00:00:00,1894A,105.4427,28.9063,泸州市,小市上码头,颗粒物(PM10),52,54,53,28,33,182,72,160,113,9,9,3,5,0.7,0.7
2023-08-19T00:00:00,1895A,105.4241,28.8573,泸州市,兰田宪桥,,33,33,51,18,33,198,69,168,115,8,9,4,7,0.8,0.7
2023-08-19T00:00:00,1896A,105.4379,28.8833,泸州市,市环监站,颗粒物(PM10),52,54,54,19,27,180,75,157,117,8,8,5,6,0.5,0.7
2023-08-19T00:00:00,1901A,104.4239,31.1208,德阳市,东山公园,,45,45,69,18,25,101,48,84,72,13,21,2,7,0.5,0.5
2023-08-19T00:00:00,1902A,104.3826,31.1317,德阳市,西小区,,42,42,63,19,29,94,29,80,63,32,24,3,7,0.6,0.6
2023-08-19T00:00:00,1904A,104.3553,31.1091,德阳市,耐火材料厂,颗粒物(PM10),52,53,78,21,30,97,27,80,59,28,26,2,6,0.7,0.6
2023-08-19T00:00:00,1905A,106.056,30.8064,南充市,西山风景区,,,27,80,,38,139,95,130,110,5,6,3,3,0.3,0.4
2023-08-19T00:00:00,1906A,106.0789,30.8023,南充市,南充市委,,47,47,95,22,40,141,67,130,99,19,13,9,9,0.3,0.3
2023-08-19T00:00:00,1907A,106.1031,30.8217,南充市,南充炼油厂,,46,46,101,21,35,138,80,124,101,13,11,9,8,0.3,0.3
2023-08-19T00:00:00,1908A,106.1064,30.7856,南充市,高坪区监测站,,47,47,94,16,31,136,77,125,98,13,11,8,8,0.4,0.3
2023-08-19T00:00:00,1909A,106.0642,30.7636,南充市,嘉陵区环保局,,35,35,94,19,35,152,76,130,97,18,16,8,6,0.4,0.4
2023-08-19T00:00:00,1910A,106.1087,30.8388,南充市,市环境监测站,,40,40,99,27,41,127,69,114,89,20,14,9,7,0.3,0.3
2023-08-19T00:00:00,1911A,106.9222,27.6869,遵义市,丁字口,,31,31,18,20,13,111,32,99,70,40,19,6,5,0.8,0.6
2023-08-19T00:00:00,1912A,106.9242,27.7019,遵义市,凤凰山,,30,29,27,21,21,130,44,116,102,29,12,7,8,0.7,0.6
2023-08-19T00:00:00,1913A,106.8906,27.6486,遵义市,忠庄,,46,38,26,32,16,116,45,108,94,36,15,2,2,0.7,0.6
2023-08-19T00:00:00,1914A,106.9231,27.6506,遵义市,舟水桥,,31,31,26,16,11,120,29,106,74,28,14,2,1,0.6,0.6
2023-08-19T00:00:00,1915A,106.9178,27.72,遵义市,干田坝,,30,26,24,21,14,120,36,103,73,28,16,5,5,0.6,0.5
2023-08-19T00:00:00,1916A,103.7897,25.5035,曲靖市,环境监测站,,32,32,37,14,19,121,69,103,83,16,23,7,5,1.8,0.8
2023-08-19T00:00:00,1917A,103.8,25.5364,曲靖市,烟厂办公区,,25,19,35,10,18,118,78,102,90,9,19,4,8,0.5,0.6
2023-08-19T00:00:00,1918A,108.7197,34.3956,咸阳市,气象站,,,,,,,,,,,,,,,,
2023-08-19T00:00:00,1919A,108.673,34.3155,咸阳市,实验中学,颗粒物(PM10),51,51,67,22,26,120,52,105,85,33,40,6,8,0.5,0.5
2023-08-19T00:00:00,1920A,108.7233,34.3617,咸阳市,师范学院,,48,48,65,18,21,125,83,115,104,18,22,4,4,0.5,0.4
2023-08-19T00:00:00,1922A,109.0656,35.0994,铜川市,党校,颗粒物(PM10),69,87,96,31,28,115,4,100,50,50,31,8,8,0.8,0.6
2023-08-19T00:00:00,1923A,109.0697,35.0697,铜川市,王益区政府,颗粒物(PM10),57,64,74,27,31,119,6,116,63,52,28,6,6,0.5,0.4
2023-08-19T00:00:00,1924A,108.9344,34.9058,铜川市,新区管委会,,,,84,,33,142,43,127,101,19,18,5,5,0.5,0.6
2023-08-19T00:00:00,1926A,109.4131,36.6275,延安市,枣园,,50,50,53,13,21,150,20,141,69,52,33,6,6,0.6,0.6
2023-08-19T00:00:00,1927A,109.4761,36.6028,延安市,延大医附院,颗粒物(PM10),52,54,55,13,14,167,20,142,69,54,33,4,5,0.4,0.3
2023-08-19T00:00:00,1929A,109.5056,36.6106,延安市,百米大道,颗粒物(PM10),110,170,69,13,17,163,11,136,71,70,38,4,6,0.6,0.5
2023-08-19T00:00:00,1930A,107.185,34.3063,宝鸡市,庙沟村,,32,32,34,15,18,114,42,101,76,36,16,7,7,0.3,0.3
2023-08-19T00:00:00,1931A,107.0708,34.3017,宝鸡市,竹园沟,,32,32,34,15,14,130,62,119,83,17,12,6,8,0.4,0.4
2023-08-19T00:00:00,1932A,107.1906,34.3672,宝鸡市,三陆医院,,42,42,49,13,17,135,40,119,82,27,24,12,9,0.5,0.5
2023-08-19T00:00:00,1933A,107.1431,34.3547,宝鸡市,监测站,,44,44,56,18,19,119,47,110,76,24,21,5,6,0.4,0.4
2023-08-19T00:00:00,1934A,107.1186,34.3739,宝鸡市,技工学校,,44,44,42,21,18,124,49,110,81,17,12,6,6,0.4,0.3
2023-08-19T00:00:00,1935A,107.3906,34.3528,宝鸡市,陈仓区环保局家属楼,颗粒物(PM10),51,52,50,20,19,140,27,123,75,55,23,6,7,0.5,0.5
2023-08-19T00:00:00,1936A,107.2058,34.3497,宝鸡市,文理学院,颗粒物(PM10),52,53,48,4,13,129,45,118,81,25,17,5,4,0.5,0.4
2023-08-19T00:00:00,1937A,107.2386,34.3622,宝鸡市,三迪小学,颗粒物(PM10),53,56,46,7,14,138,38,123,84,26,16,7,6,0.5,0.4
2023-08-19T00:00:00,1938A,109.5293,34.5101,渭南市,农科所,,46,46,73,19,27,118,110,111,108,10,14,5,5,0.3,0.3
2023-08-19T00:00:00,1939A,109.4974,34.4877,渭南市,日报社,,48,48,71,21,29,121,96,105,96,27,23,5,9,0.3,0.3
2023-08-19T00:00:00,1940A,109.4636,34.493,渭南市,体育馆,,39,39,68,12,20,127,99,108,100,12,16,4,4,0.3,0.3
2023-08-19T00:00:00,1941A,109.4259,34.5023,渭南市,高新一小,,50,50,74,17,21,135,102,112,108,12,18,5,6,0.3,0.4
2023-08-19T00:00:00,1943A,102.1725,38.5339,金昌市,新川苑,,31,20,34,0,4,134,99,124,107,11,14,6,8,0.5,0.6
2023-08-19T00:00:00,1944A,102.1692,38.5167,金昌市,天庆家园,,33,9,18,2,7,140,104,132,114,10,20,7,9,0.4,0.6
2023-08-19T00:00:00,1945A,98.2908,39.7711,嘉峪关市,气象局,,,34,36,12,10,132,,126,111,36,17,2,6,0.4,0.4
2023-08-19T00:00:00,1947A,106.3394,38.817,石嘴山市,沙湖旅游区,颗粒物(PM10),62,74,65,19,24,180,82,163,119,26,26,13,22,1.0,0.8
2023-08-19T00:00:00,1948A,106.3668,39.0145,石嘴山市,大武口朝阳西街,颗粒物(PM10),70,89,86,41,34,172,65,160,126,80,48,6,28,0.6,0.8
2023-08-19T00:00:00,1949A,106.7704,39.2282,石嘴山市,惠农南大街,颗粒物(PM10),56,62,70,13,21,172,6,143,76,90,44,18,14,0.3,0.6
2023-08-19T00:00:00,1950A,106.7099,39.1325,石嘴山市,红果子镇惠新街,,35,35,68,11,24,229,30,169,102,68,40,27,18,0.5,0.6
2023-08-19T00:00:00,1951A,84.895,45.6094,克拉玛依市,长征新村,,39,39,20,9,6,127,70,116,95,36,15,10,10,0.4,0.2
2023-08-19T00:00:00,1952A,84.8988,45.5893,克拉玛依市,南林小区,,48,48,25,32,12,125,56,111,77,48,24,9,9,0.5,0.3
2023-08-19T00:00:00,1954A,84.905,44.3396,克拉玛依市,独山子区,,26,22,25,13,12,161,83,145,130,23,13,8,10,0.5,0.4
2023-08-19T00:00:00,1955A,85.6979,46.098,克拉玛依市,乌尔禾区商贸楼,,32,27,17,22,8,119,81,109,104,17,6,6,6,0.6,0.4
2023-08-19T00:00:00,1956A,86.1472,41.7538,巴音郭楞州,孔雀公园,颗粒物(PM10),129,207,76,52,20,127,1,117,80,94,31,8,7,1.4,0.4
2023-08-19T00:00:00,1957A,86.1972,41.7166,巴音郭楞州,棉纺厂,颗粒物(PM10),127,204,69,82,22,131,3,124,102,,26,5,5,0.9,0.4
2023-08-19T00:00:00,1958A,86.2357,41.7173,巴音郭楞州,经济开发区,颗粒物(PM10),120,189,60,44,20,132,30,127,99,47,13,6,6,0.3,0.3
2023-08-19T00:00:00,1961A,117.532,36.6868,济南市,东山小学,颗粒物(PM10),57,63,68,32,36,193,71,165,116,38,27,4,5,0.5,0.6
2023-08-19T00:00:00,1966A,120.0405,35.8735,青岛市,黄岛区4号,,35,31,29,24,21,151,109,144,121,10,13,3,4,0.5,0.7
2023-08-19T00:00:00,1982A,122.0693,37.2174,威海市,文登开发区,,36,31,45,22,26,168,113,148,116,7,11,6,6,0.6,0.7
2023-08-19T00:00:00,2031A,113.1817,27.9958,株洲市,云田中学,颗粒物(PM10),62,73,52,34,27,185,88,170,129,24,16,6,6,0.8,0.8
2023-08-19T00:00:00,2054A,114.1099,32.1059,信阳市,平桥分局,,46,46,38,27,26,163,100,147,107,9,13,1,1,0.9,0.8
2023-08-19T00:00:00,2064A,113.9956,32.1271,信阳市,南湾水厂,,43,43,47,25,25,155,79,144,105,11,8,2,2,0.9,0.8
2023-08-19T00:00:00,2065A,114.0775,32.1195,信阳市,市酿酒公司,,,99,46,31,29,165,,149,126,14,15,3,2,0.8,0.7
2023-08-19T00:00:00,2066A,114.0609,32.1399,信阳市,审计局,,46,46,47,29,30,167,88,152,116,25,14,2,3,0.9,0.8
2023-08-19T00:00:00,2067A,114.6613,33.6128,周口市,市环境监测站,,,,62,,39,165,,150,137,,21,,6,,0.7
2023-08-19T00:00:00,2068A,114.6758,33.6347,周口市,周口师范,颗粒物(PM10),54,57,67,29,34,168,95,156,124,8,17,3,4,0.7,0.9
2023-08-19T00:00:00,2069A,114.6546,33.5979,周口市,市运管处,颗粒物(PM10),64,77,71,39,37,153,81,146,100,25,27,5,5,0.7,0.6
2023-08-19T00:00:00,2070A,114.6369,33.6406,周口市,川汇区环保局,,44,44,60,29,32,161,99,149,124,7,17,3,3,0.9,1
2023-08-19T00:00:00,2075A,117.6336,24.4674,漳州市,九湖,,,,,,,,,,,,,,,,
2023-08-19T00:00:00,2160A,112.85,35.5051,晋城市,自来水公司,颗粒物(PM10),60,70,133,41,46,173,103,155,145,20,16,7,9,1.0,1.3
2023-08-19T00:00:00,2161A,112.8318,35.4936,晋城市,白云商贸,颗粒物(PM10),88,126,128,34,32,134,111,134,124,21,18,8,9,0.9,1
2023-08-19T00:00:00,2162A,112.8508,35.4887,晋城市,市环保局,颗粒物(PM10),77,103,145,46,49,172,95,151,140,30,21,8,10,1.0,1.3
2023-08-19T00:00:00,2163A,112.8676,35.4897,晋城市,技术学院,颗粒物(PM10),77,104,124,36,45,181,79,157,143,40,20,7,10,1.1,1.3
2023-08-19T00:00:00,2165A,112.8453,35.546,晋城市,白马寺,,,,,,,,,,,,,,,,
2023-08-19T00:00:00,2166A,112.4397,39.3522,朔州市,平朔,颗粒物(PM10),84,117,95,29,32,147,40,131,88,43,25,13,9,0.5,0.5
2023-08-19T00:00:00,2167A,112.4575,39.3617,朔州市,朔唯,颗粒物(PM10),105,160,116,30,36,156,11,138,89,73,30,11,9,0.5,0.5
2023-08-19T00:00:00,2168A,112.4258,39.3197,朔州市,区政府,颗粒物(PM10),70,89,98,19,30,147,57,133,98,38,24,4,9,0.5,0.6
2023-08-19T00:00:00,2169A,112.4072,39.3278,朔州市,市环保局,颗粒物(PM10),58,65,98,15,31,158,65,143,110,38,23,4,10,0.4,0.5
2023-08-19T00:00:00,2170A,112.4272,39.3681,朔州市,市二中,颗粒物(PM10),100,149,113,32,33,154,28,136,86,61,30,14,9,0.5,0.5
2023-08-19T00:00:00,2171A,112.7532,37.6945,晋中市,锦纶小区,颗粒物(PM10),123,195,103,43,27,166,81,152,126,23,20,11,10,0.6,0.6
2023-08-19T00:00:00,2173A,112.7249,37.7067,晋中市,南都小区,颗粒物(PM10),122,193,114,63,42,161,80,150,119,25,21,9,7,0.4,0.5
2023-08-19T00:00:00,2174A,112.6991,37.6982,晋中市,榆次区政府,颗粒物(PM10),120,189,104,66,39,159,85,148,119,24,20,11,9,0.5,0.6
2023-08-19T00:00:00,2175A,110.9956,35.0147,运城市,运城中学,颗粒物(PM10),77,103,112,31,32,148,120,141,134,11,15,8,7,0.5,0.5
2023-08-19T00:00:00,2178A,110.9686,35.0303,运城市,地区技校,颗粒物(PM10),71,92,107,16,27,147,106,139,126,20,13,8,7,0.4,0.4
2023-08-19T00:00:00,2179A,111.0414,35.1147,运城市,空港新区,颗粒物(PM10),75,99,132,32,34,147,108,139,126,16,20,5,6,0.5,0.4
2023-08-19T00:00:00,2181A,112.7383,38.4519,忻州市,开发区,颗粒物(PM10),55,59,118,24,46,145,62,132,102,37,22,13,11,0.6,0.7
2023-08-19T00:00:00,2182A,112.7003,38.4928,忻州市,会展中心,颗粒物(PM10),67,83,123,39,46,136,53,122,87,37,19,9,9,0.5,0.5
2023-08-19T00:00:00,2183A,111.1406,37.5211,吕梁市,环保局,颗粒物(PM10),90,129,138,28,45,149,26,140,86,72,38,7,9,0.5,0.5
2023-08-19T00:00:00,2185A,111.1297,37.5136,吕梁市,自来水公司,颗粒物(PM10),86,122,122,28,41,144,58,137,106,32,24,9,7,0.4,0.5
2023-08-19T00:00:00,2187A,106.8174,39.6973,乌海市,市林业局,颗粒物(PM10),53,56,68,25,22,135,40,125,82,49,32,9,30,0.7,1.1
2023-08-19T00:00:00,2188A,106.7907,39.6667,乌海市,中海勃湾学校,颗粒物(PM10),62,73,61,22,20,137,5,130,83,105,36,10,30,0.4,0.8
2023-08-19T00:00:00,2191A,122.2532,43.6801,通辽市,艺术职业学校,,42,42,35,6,16,118,51,109,65,19,17,5,5,0.2,0.4
2023-08-19T00:00:00,2192A,119.7594,49.2261,呼伦贝尔市,区环保局,,33,20,21,23,24,70,57,66,57,5,8,4,4,0.2,0.3
2023-08-19T00:00:00,2195A,107.4212,40.761,巴彦淖尔市,附二中,,49,49,54,22,16,145,102,140,120,24,20,4,11,0.5,0.5
2023-08-19T00:00:00,2196A,107.37,40.7372,巴彦淖尔市,市环保大楼,,38,37,55,26,19,131,107,123,114,16,22,3,4,0.5,0.5
2023-08-19T00:00:00,2197A,113.1306,40.9923,乌兰察布市,集宁新区,,42,42,33,20,16,150,107,141,134,11,17,15,11,0.2,0.2
2023-08-19T00:00:00,2200A,122.0392,46.0656,兴安盟,胜华新制药厂,,28,28,16,13,11,120,27,93,47,14,9,2,2,0.3,0.3
2023-08-19T00:00:00,2201A,121.9504,46.0741,兴安盟,科右前旗环保局,,29,19,19,20,18,122,25,96,52,21,7,2,2,0.4,0.4
2023-08-19T00:00:00,2202A,116.1042,43.9317,锡林郭勒盟,市环保监测站,,27,23,27,4,5,116,84,111,93,4,9,9,9,0.2,0.2
2023-08-19T00:00:00,2203A,116.0781,43.9311,锡林郭勒盟,市政府,颗粒物(PM10),58,65,22,3,4,119,84,113,92,9,13,12,12,0.1,0.2
2023-08-19T00:00:00,2204A,105.6467,38.8363,阿拉善盟,西城区西花园,,45,37,25,16,10,143,143,138,130,11,9,9,6,0.5,0.4
2023-08-19T00:00:00,2205A,105.6985,38.8411,阿拉善盟,蒙二幼,,47,29,18,11,7,150,150,139,132,9,7,9,6,0.5,0.4
2023-08-19T00:00:00,2206A,105.724,38.8516,阿拉善盟,环保局新楼,,45,20,15,10,5,142,142,136,134,7,5,10,7,0.4,0.4
2023-08-19T00:00:00,2207A,121.6094,41.998,阜新市,工业园区,颗粒物(PM10),54,58,55,27,27,158,20,133,83,46,23,7,13,1.0,0.6
2023-08-19T00:00:00,2208A,121.6697,42.0279,阜新市,长青街,,50,50,52,32,35,141,35,123,74,20,15,9,13,0.8,0.8
2023-08-19T00:00:00,2209A,121.6673,42.0705,阜新市,农业园区,,42,33,46,29,37,158,65,141,92,8,11,14,11,0.9,0.8
2023-08-19T00:00:00,2210A,121.6717,42.0224,阜新市,东苑,,50,49,51,35,31,146,40,128,84,25,14,14,20,0.7,0.7
2023-08-19T00:00:00,2211A,121.6506,42.0498,阜新市,玉龙新城,,50,50,56,25,26,134,26,117,60,21,14,5,9,0.9,0.9
2023-08-19T00:00:00,2212A,123.2,41.1953,辽阳市,宏伟区,,35,35,28,16,16,136,73,116,101,5,8,5,5,0.6,0.6
2023-08-19T00:00:00,2213A,123.1683,41.2495,辽阳市,新华园,,41,41,40,23,21,144,48,124,92,16,11,7,7,0.8,0.7
2023-08-19T00:00:00,2214A,123.2354,41.2639,辽阳市,滨河路,,45,45,34,23,21,133,44,104,78,28,14,6,6,0.9,0.8
2023-08-19T00:00:00,2215A,123.149,41.2991,辽阳市,铁西工业园,颗粒物(PM10),74,97,56,38,27,196,23,166,101,46,19,9,10,1.1,1.1
2023-08-19T00:00:00,2216A,123.8139,42.3022,铁岭市,汇工街西,,30,30,42,20,27,177,4,151,73,39,20,13,13,0.6,0.9
2023-08-19T00:00:00,2217A,123.8649,42.2923,铁岭市,水上乐园,,32,32,47,17,24,163,33,145,66,27,25,2,5,0.8,1.1
2023-08-19T00:00:00,2218A,123.8486,42.2867,铁岭市,银州路东段,,45,45,53,14,18,157,7,134,64,46,28,6,8,0.6,0.8
2023-08-19T00:00:00,2219A,123.7153,42.2217,铁岭市,金沙江路北,,35,35,55,14,26,167,10,141,75,54,23,6,7,0.8,1.2
2023-08-19T00:00:00,2220A,120.4318,41.5881,朝阳市,西梁,颗粒物(PM10),60,69,63,36,28,155,74,137,109,11,9,8,8,0.9,0.9
2023-08-19T00:00:00,2221A,120.4521,41.5646,朝阳市,河畔小区,颗粒物(PM10),85,120,71,32,28,151,67,135,109,11,8,6,6,0.9,0.9
2023-08-19T00:00:00,2222A,120.4176,41.5648,朝阳市,八里堡,"颗粒物(PM10),细颗粒物(PM2.5)",62,73,58,44,32,154,73,140,106,17,12,6,8,1.0,1
2023-08-19T00:00:00,2223A,120.3806,41.5969,朝阳市,农业园区,,46,35,59,32,30,132,35,125,86,22,15,2,3,0.9,0.9
2023-08-19T00:00:00,2225A,124.4002,43.1713,四平市,一商场,,28,26,38,19,25,159,80,143,100,11,12,6,7,0.3,0.6
2023-08-19T00:00:00,2226A,124.388,43.193,四平市,境园,,30,30,36,19,24,153,87,140,104,3,11,8,8,0.2,0.4
2023-08-19T00:00:00,2227A,125.1358,42.8845,辽源市,环保局,,31,26,24,21,16,144,98,125,92,2,10,6,7,0.5,0.6
2023-08-19T00:00:00,2229A,125.9358,41.7173,通化市,光明,,26,26,25,16,13,83,15,81,50,15,14,8,13,0.3,0.5
2023-08-19T00:00:00,2230A,125.9446,41.7325,通化市,铁路,,29,25,22,20,14,82,15,78,44,18,16,6,11,0.6,0.7
2023-08-19T00:00:00,2231A,126.4219,41.9171,白山市,喜丰,,38,38,34,12,11,112,9,91,41,17,14,6,7,0.6,0.6
2023-08-19T00:00:00,2232A,126.4077,41.9419,白山市,环保局,,38,38,34,12,13,122,11,104,46,17,12,7,8,0.5,0.6
2023-08-19T00:00:00,2233A,124.8006,45.1214,松原市,江南,,32,32,30,10,15,102,30,92,58,19,12,12,8,0.5,0.4
2023-08-19T00:00:00,2234A,124.7965,45.1722,松原市,江北,,12,12,18,5,12,95,19,92,56,12,9,4,4,0.3,0.5
2023-08-19T00:00:00,2235A,122.7911,45.6077,白城市,洮北区环保局,,13,5,9,3,6,121,41,104,59,10,11,10,9,0.1,0.1
2023-08-19T00:00:00,2236A,122.8738,45.5725,白城市,市环保局,,18,18,15,6,4,120,41,102,55,18,12,8,8,0.2,0.2
2023-08-19T00:00:00,2237A,129.47,42.8883,延边朝鲜族自治州,妇幼医院,,12,12,24,3,9,80,25,52,25,8,10,7,8,0.5,0.5
2023-08-19T00:00:00,2238A,129.5055,42.9108,延边朝鲜族自治州,延边医院,,12,12,22,5,11,73,27,50,28,8,11,6,7,0.5,0.5
2023-08-19T00:00:00,2239A,129.3964,42.8881,延边朝鲜族自治州,朝阳川镇医院,,14,14,21,6,10,112,27,68,28,5,8,7,7,0.6,0.6
2023-08-19T00:00:00,2240A,130.9762,45.3001,鸡西市,环保局,,40,40,40,11,15,61,51,49,26,9,16,7,7,0.3,0.4
2023-08-19T00:00:00,2243A,130.9429,45.3039,鸡西市,第一中学,,25,25,35,6,12,88,56,67,34,10,15,8,7,0.3,0.4
2023-08-19T00:00:00,2244A,130.2537,47.3416,鹤岗市,哈啤分公司,,18,14,20,12,9,97,36,87,65,5,13,11,12,0.2,0.3
2023-08-19T00:00:00,2245A,130.2684,47.3086,鹤岗市,斯达机电,,17,17,17,5,8,92,30,82,65,14,11,7,8,0.4,0.4
2023-08-19T00:00:00,2246A,130.3114,47.3388,鹤岗市,东山纸板厂,,9,8,19,4,9,85,27,73,57,16,12,12,12,0.4,0.5
2023-08-19T00:00:00,2247A,130.1097,47.3382,鹤岗市,五号水库,,10,6,11,7,8,98,30,83,56,6,6,11,11,0.1,0.1
2023-08-19T00:00:00,2248A,131.1511,46.6937,双鸭山市,双合村,,30,30,28,5,9,78,31,70,53,14,8,8,7,1.0,0.5
2023-08-19T00:00:00,2249A,131.1652,46.6191,双鸭山市,南小市,,12,5,25,0,10,79,38,68,54,7,7,6,6,0.1,0.1
2023-08-19T00:00:00,2250A,131.1524,46.6554,双鸭山市,环保局,,17,17,15,5,6,78,38,67,50,6,8,7,7,0.2,0.3
2023-08-19T00:00:00,2251A,131.12,46.5656,双鸭山市,苗圃,,23,9,10,16,12,95,51,84,57,4,4,4,4,0.3,0.4
2023-08-19T00:00:00,2252A,128.5159,47.4311,伊春市,环保局,,17,17,15,10,8,82,32,66,43,5,9,8,7,0.2,0.4
2023-08-19T00:00:00,2253A,128.9102,47.7412,伊春市,电力嘉园,,14,13,11,7,9,89,42,77,53,4,8,6,6,0.5,0.7
2023-08-19T00:00:00,2254A,129.5029,48.471,伊春市,汤旺河国家公园,,33,33,30,10,13,69,16,58,20,1,1,14,13,1.0,1
2023-08-19T00:00:00,2255A,130.2751,46.8028,佳木斯市,佳纺,,22,22,31,7,12,84,23,81,54,19,10,4,5,0.4,0.5
2023-08-19T00:00:00,2256A,130.3995,46.8307,佳木斯市,发电厂,,20,20,23,12,12,93,40,80,62,12,8,4,5,0.5,0.5
2023-08-19T00:00:00,2257A,130.3258,46.7975,佳木斯市,环保局,,18,18,24,8,11,88,40,75,59,10,10,3,4,0.4,0.5
2023-08-19T00:00:00,2258A,130.3648,46.8032,佳木斯市,十一中,,22,22,24,14,14,85,45,68,56,15,14,6,5,0.4,0.5
2023-08-19T00:00:00,2259A,130.3794,46.7588,佳木斯市,四丰,,20,10,14,5,8,108,63,96,78,5,3,1,1,0.3,0.4
2023-08-19T00:00:00,2262A,131.0518,45.8751,七台河市,新一中,,22,18,25,11,12,114,70,92,54,7,6,8,8,0.7,0.7
2023-08-19T00:00:00,2263A,127.4833,50.2524,黑河市,交通局,,10,5,9,7,5,85,28,66,38,7,12,9,6,0.5,0.5
2023-08-19T00:00:00,2264A,127.5144,50.2341,黑河市,环保局,,18,18,16,4,5,95,35,73,50,5,7,4,3,0.3,0.4
2023-08-19T00:00:00,2265A,127.5291,50.2472,黑河市,大黑河岛,,25,22,8,17,11,112,37,91,61,2,2,1,7,0.3,0.4
2023-08-19T00:00:00,2266A,126.9785,46.6365,绥化市,人和东街,,15,15,24,4,10,111,42,97,70,6,10,3,5,0.3,0.4
2023-08-19T00:00:00,2267A,126.964,46.6528,绥化市,党政办公中心,,13,13,20,6,10,104,40,90,65,6,11,5,7,0.2,0.4
2023-08-19T00:00:00,2269A,124.1069,50.4097,大兴安岭地区,科技局,,25,11,10,17,9,92,40,69,52,3,3,4,7,0.2,0.2
2023-08-19T00:00:00,2270A,117.396,32.939,蚌埠市,工人疗养院,,46,42,42,32,22,188,52,164,111,47,19,4,5,0.6,0.5
2023-08-19T00:00:00,2271A,117.3605,32.9427,蚌埠市,百货大楼,,43,43,46,23,21,192,65,167,122,38,16,10,7,0.5,0.5
2023-08-19T00:00:00,2273A,117.4185,32.8911,蚌埠市,蚌埠学院,,39,36,41,27,28,165,94,156,117,13,15,4,6,0.6,0.6
2023-08-19T00:00:00,2274A,117.3533,32.9673,蚌埠市,淮上区政府,,48,48,45,33,28,184,76,167,119,25,18,5,7,0.6,0.6
2023-08-19T00:00:00,2275A,117.3145,32.8977,蚌埠市,高新区,,39,39,37,22,20,189,102,166,137,13,12,4,5,0.5,0.5
2023-08-19T00:00:00,2277A,116.8305,32.7727,淮南市,潘集区政府,,50,50,40,34,26,181,99,166,129,18,11,7,7,0.5,0.4
2023-08-19T00:00:00,2278A,117.0067,32.6524,淮南市,师范学院,,48,48,43,16,21,168,115,156,138,11,10,7,8,0.8,0.6
2023-08-19T00:00:00,2279A,116.8569,32.5951,淮南市,谢家集区政府,,49,49,31,23,10,164,118,154,136,19,12,27,14,0.7,0.5
2023-08-19T00:00:00,2280A,116.8281,32.633,淮南市,八公山区政府,,48,48,45,33,26,161,124,156,133,9,12,7,10,0.6,0.5
2023-08-19T00:00:00,2281A,116.6325,32.6201,淮南市,焦岗湖风景区管理处,,40,40,28,20,12,156,97,146,100,20,14,3,3,0.7,0.4
2023-08-19T00:00:00,2282A,116.8004,33.975,淮北市,监测站,颗粒物(PM10),51,51,38,28,20,167,102,151,116,15,12,4,4,0.8,0.7
2023-08-19T00:00:00,2283A,116.8091,33.9007,淮北市,烈山区政府,颗粒物(PM10),55,60,52,32,27,182,116,164,125,15,13,3,5,0.5,0.6
2023-08-19T00:00:00,2285A,117.8177,30.9412,铜陵市,市第四中学,,39,39,40,21,25,172,121,167,145,9,10,6,6,0.3,0.4
2023-08-19T00:00:00,2286A,117.8059,30.9273,铜陵市,市公路局,,45,33,37,31,26,194,135,189,163,12,13,5,5,0.4,0.5
2023-08-19T00:00:00,2287A,117.7807,30.9413,铜陵市,市新民污水厂,,45,44,49,15,20,203,144,197,171,10,16,5,6,0.4,0.5
2023-08-19T00:00:00,2288A,117.7439,30.8792,铜陵市,市第九中学,颗粒物(PM10),55,60,63,29,26,191,97,175,132,47,32,7,6,0.6,0.8
2023-08-19T00:00:00,2289A,117.846,30.9413,铜陵市,车站新区,,42,42,40,23,27,186,130,177,153,12,14,5,6,0.4,0.5
2023-08-19T00:00:00,2290A,117.8483,30.97,铜陵市,市职教基地,,38,26,39,20,19,184,121,172,146,10,12,4,5,0.6,0.7
2023-08-19T00:00:00,2291A,117.0809,30.5177,安庆市,环科院,,50,29,33,22,27,184,157,169,158,11,12,6,5,0.7,0.8
2023-08-19T00:00:00,2292A,117.0331,30.5119,安庆市,马山宾馆,臭氧1小时,59,29,32,22,25,186,167,171,166,12,12,6,4,0.7,0.9
2023-08-19T00:00:00,2294A,116.9896,30.6145,安庆市,安庆大学,,43,35,30,25,24,159,137,154,151,9,8,5,4,0.6,0.7
2023-08-19T00:00:00,2295A,118.2903,29.6963,黄山市,延安路89号,,29,24,30,1,7,133,90,123,95,5,5,7,6,0.4,0.4
2023-08-19T00:00:00,2296A,118.327,29.7178,黄山市,黄山东路89号,,31,13,19,6,7,118,99,109,95,7,6,8,7,0.5,0.5
2023-08-19T00:00:00,2297A,118.1371,30.2756,黄山市,黄山区政府5号楼,颗粒物(PM10),53,55,31,33,15,161,82,141,129,8,7,6,6,0.5,0.5
2023-08-19T00:00:00,2298A,118.3093,32.3153,滁州市,老年大学,,42,42,38,22,21,222,67,195,122,39,24,10,7,0.6,0.5
2023-08-19T00:00:00,2299A,118.3244,32.2786,滁州市,人大宾馆,,32,32,33,20,24,219,76,199,128,30,23,10,9,0.6,0.6
2023-08-19T00:00:00,2301A,115.8277,32.8929,阜阳市,市监测站,颗粒物(PM10),52,54,34,28,18,169,110,158,117,17,15,9,8,0.7,0.6
2023-08-19T00:00:00,2303A,115.8554,32.8605,阜阳市,开发区,,44,44,35,16,12,169,97,156,126,22,14,8,7,0.6,0.6
2023-08-19T00:00:00,2307A,116.5079,31.737,六安市,监测大楼,颗粒物(PM10),51,52,28,21,13,211,105,179,152,14,7,4,5,0.5,0.5
2023-08-19T00:00:00,2308A,116.4738,31.7643,六安市,皖西学院,,45,45,34,11,13,217,130,188,149,12,9,6,7,0.3,0.3
2023-08-19T00:00:00,2309A,116.4996,31.7905,六安市,朝阳厂,,40,34,22,11,16,220,127,190,149,8,9,8,9,0.6,0.6
2023-08-19T00:00:00,2310A,116.5567,31.7886,六安市,开发区,,45,45,37,23,21,210,86,178,122,14,9,6,6,0.6,0.6
2023-08-19T00:00:00,2311A,115.8072,33.8399,亳州市,污水处理厂,,46,44,47,32,27,150,85,141,116,11,9,22,14,0.7,0.7
2023-08-19T00:00:00,2312A,115.7789,33.8518,亳州市,三国揽胜宫,,42,42,50,23,29,138,108,134,123,9,11,10,12,0.8,0.8
2023-08-19T00:00:00,2314A,117.47,30.6618,池州市,池州学院,,43,21,34,30,32,208,87,194,152,26,13,10,7,0.6,0.7
2023-08-19T00:00:00,2316A,118.7581,30.9454,宣城市,鳌峰子站,,32,20,31,13,20,146,100,143,126,15,15,5,5,0.4,0.4
2023-08-19T00:00:00,2317A,118.7385,30.9743,宣城市,敬亭山子站,,25,20,32,13,21,146,77,139,110,20,18,8,8,0.5,0.5
2023-08-19T00:00:00,2318A,118.7173,30.9427,宣城市,开发区子站,,33,20,32,14,21,143,103,141,125,10,12,6,6,0.4,0.4
2023-08-19T00:00:00,2319A,119.0141,25.4325,莆田市,荔城区仓后路,,29,4,27,1,10,137,91,123,104,7,10,7,7,0.6,0.7
2023-08-19T00:00:00,2320A,119.0015,25.4553,莆田市,莆田市监测站,,30,0,27,0,7,141,96,124,110,2,6,6,6,0.4,0.6
2023-08-19T00:00:00,2321A,119.1119,25.4561,莆田市,涵江区六中,,27,5,23,1,8,131,86,122,110,10,9,7,8,0.6,0.7
2023-08-19T00:00:00,2322A,119.1013,25.3215,莆田市,秀屿区政府,,26,4,24,1,12,132,82,121,101,9,10,8,8,0.6,0.7
2023-08-19T00:00:00,2323A,118.981,25.4792,莆田市,东圳水库,,,,,,,,,,,,,,,,
2023-08-19T00:00:00,2324A,117.6211,26.2625,三明市,三钢,,32,32,38,20,24,118,53,103,73,16,14,11,9,0.4,0.7
2023-08-19T00:00:00,2325A,117.635,26.2714,三明市,三明二中,,22,22,36,15,20,123,34,106,66,20,14,4,5,1.0,0.8
2023-08-19T00:00:00,2326A,117.6028,26.2378,三明市,三元区政府,,30,30,33,11,18,119,42,105,79,22,15,17,12,0.8,1
2023-08-19T00:00:00,2327A,117.7275,26.3108,三明市,洋溪,,,,,,,,,,,,,,,,
2023-08-19T00:00:00,2331A,118.0966,26.6761,南平市,茫荡山,,,,,,,,,,,,,,,,
2023-08-19T00:00:00,2332A,118.1681,26.6369,南平市,南平市监测站,,33,16,23,4,8,103,103,96,96,4,5,5,4,0.5,0.5
2023-08-19T00:00:00,2333A,118.1825,26.6489,南平市,南平铝业有限公司,,32,17,23,7,9,107,102,97,93,6,7,4,4,0.5,0.6
2023-08-19T00:00:00,2334A,118.1756,26.6272,南平市,南平七中,,32,15,39,5,6,109,100,102,102,4,4,4,4,0.6,0.6
2023-08-19T00:00:00,2335A,117.0189,25.1181,龙岩市,龙岩师专,,,,,,,,,,,,,,,,
2023-08-19T00:00:00,2336A,117.0217,25.1033,龙岩市,龙岩市监测站,,22,15,21,12,8,116,69,108,92,14,16,2,3,0.5,0.5
2023-08-19T00:00:00,2337A,117.0258,25.0661,龙岩市,闽西职业技术学院,,30,30,26,15,9,126,31,108,80,25,16,10,5,0.5,0.5
2023-08-19T00:00:00,2338A,117.0196,25.0306,龙岩市,龙岩学院,,18,14,18,10,8,137,56,115,84,6,8,3,4,0.3,0.3
2023-08-19T00:00:00,2339A,119.5001,26.6946,宁德市,金涵水库,,,,,,,,,,,,,,,,
2023-08-19T00:00:00,2341A,119.5388,26.6612,宁德市,宁德市监测站,,22,9,26,10,10,141,69,124,98,8,9,2,3,0.6,0.7
2023-08-19T00:00:00,2342A,117.3102,29.3867,景德镇市,王港中学,,29,29,21,19,14,131,9,108,60,5,4,3,3,0.6,0.6
2023-08-19T00:00:00,2343A,117.2117,29.2933,景德镇市,老干部活动中心,颗粒物(PM10),52,53,28,26,19,118,23,107,72,35,11,8,5,0.6,0.5
2023-08-19T00:00:00,2344A,117.1894,29.2789,景德镇市,兽医站,,43,40,24,30,22,129,44,118,74,17,11,8,7,0.6,0.5
2023-08-19T00:00:00,2345A,117.1547,29.2617,景德镇市,台达陶瓷,"颗粒物(PM10),细颗粒物(PM2.5)",54,57,25,38,21,134,40,116,69,1,2,14,22,0.7,0.6
2023-08-19T00:00:00,2346A,117.2461,29.2956,景德镇市,陶研所,颗粒物(PM10),54,57,32,19,12,120,36,113,73,17,10,11,6,0.4,0.4
2023-08-19T00:00:00,2347A,114.0997,27.5002,萍乡市,武功山,,20,17,16,14,17,127,59,119,83,5,4,7,9,1.3,1.3
2023-08-19T00:00:00,2348A,113.8385,27.6434,萍乡市,中医院,,47,47,42,27,30,151,88,140,103,7,15,23,12,0.6,0.8
2023-08-19T00:00:00,2349A,113.8493,27.6253,萍乡市,市政府车库,颗粒物(PM10),55,59,47,34,29,158,79,151,108,16,15,25,16,0.7,0.6
2023-08-19T00:00:00,2350A,113.8676,27.6435,萍乡市,市环保局,,46,46,48,28,31,141,84,136,100,7,16,17,16,0.3,0.7
2023-08-19T00:00:00,2351A,113.866,27.6198,萍乡市,安源区政府,颗粒物(PM10),53,56,44,33,31,157,70,145,104,20,14,27,14,1.3,0.9
2023-08-19T00:00:00,2352A,115.0861,27.9317,新余市,北岗,细颗粒物(PM2.5),52,38,48,36,32,162,37,137,68,3,7,16,12,0.8,0.9
2023-08-19T00:00:00,2353A,114.9886,27.8431,新余市,飞宇,颗粒物(PM10),61,71,63,38,38,156,62,141,100,15,15,8,11,0.6,0.7
2023-08-19T00:00:00,2354A,114.9231,27.8246,新余市,第二水厂,颗粒物(PM10),72,94,71,34,35,174,99,162,125,16,15,8,8,0.3,0.4
2023-08-19T00:00:00,2355A,114.9308,27.8036,新余市,市气象局,颗粒物(PM10),53,55,58,33,37,155,90,144,120,11,11,8,6,0.9,1.1
2023-08-19T00:00:00,2357A,116.9822,28.1136,鹰潭市,龙虎山,细颗粒物(PM2.5),52,36,37,36,30,161,31,138,81,5,4,3,4,0.4,0.3
2023-08-19T00:00:00,2358A,117.0564,28.2642,鹰潭市,新监测站,细颗粒物(PM2.5),64,57,40,46,25,154,64,139,114,17,6,4,10,0.6,0.7
2023-08-19T00:00:00,2359A,117.0311,28.2475,鹰潭市,财苑宾馆,颗粒物(PM10),51,52,43,28,26,151,66,137,114,15,7,2,12,0.5,0.5
2023-08-19T00:00:00,2360A,117.0222,28.2264,鹰潭市,体育馆,,47,47,45,28,29,150,68,139,109,14,12,2,11,0.4,0.5
2023-08-19T00:00:00,2361A,117.0017,28.2131,鹰潭市,三川水表,颗粒物(PM10),54,58,48,36,28,151,57,140,101,3,6,1,6,0.6,0.6
2023-08-19T00:00:00,2362A,114.9017,25.9149,赣州市,通天岩,,,,,,,,,,,,,,,,
2023-08-19T00:00:00,2363A,114.9367,25.8664,赣州市,地委,,46,46,39,26,23,135,87,128,109,5,7,15,12,1.2,1.1
2023-08-19T00:00:00,2364A,114.9461,25.8481,赣州市,气象台,,48,29,31,33,20,154,108,141,122,11,12,12,8,0.7,0.7
2023-08-19T00:00:00,2365A,114.9322,25.8333,赣州市,市图书馆,,39,37,35,27,21,139,104,128,112,9,11,6,5,1.3,1.2
2023-08-19T00:00:00,2366A,114.8905,25.8471,赣州市,华坚鞋城,,48,44,41,33,26,113,66,97,73,8,9,11,14,0.6,0.8
2023-08-19T00:00:00,2367A,114.9754,27.0803,吉安市,红声器材厂,细颗粒物(PM2.5),58,63,55,41,36,175,81,154,118,13,12,18,16,0.9,0.9
2023-08-19T00:00:00,2368A,114.9658,27.0999,吉安市,市森林工业局,细颗粒物(PM2.5),57,56,52,40,37,169,80,150,119,15,9,15,10,0.6,0.6
2023-08-19T00:00:00,2369A,114.99,27.1312,吉安市,市环境监测站,,50,50,54,29,32,156,74,141,109,19,13,13,11,0.8,0.9
2023-08-19T00:00:00,2370A,115.0093,27.0968,吉安市,青原区法院,颗粒物(PM10),52,54,52,35,35,178,48,155,113,23,13,17,18,0.8,0.8
2023-08-19T00:00:00,2371A,114.3408,27.8064,宜春市,槟榔水业,细颗粒物(PM2.5),60,51,42,43,31,142,90,132,103,12,12,1,3,2.1,1
2023-08-19T00:00:00,2373A,114.3956,27.7844,宜春市,市石油公司,颗粒物(PM10),63,76,51,40,29,167,45,147,84,20,15,4,4,1.1,1
2023-08-19T00:00:00,2374A,114.3703,27.7914,宜春市,市气象局,颗粒物(PM10),55,60,48,38,30,152,55,141,99,21,16,4,6,1.1,0.9
2023-08-19T00:00:00,2375A,114.4013,27.8074,宜春市,市广电局,颗粒物(PM10),54,57,44,34,30,176,88,157,117,11,12,6,7,0.9,0.8
2023-08-19T00:00:00,2376A,116.2127,28.0814,抚州市,桐源党溪,,38,33,38,26,24,146,25,137,76,10,5,3,3,0.8,0.8
2023-08-19T00:00:00,2377A,116.3544,27.9831,抚州市,市站,,49,46,56,34,37,137,88,124,116,14,10,13,13,0.9,0.9
2023-08-19T00:00:00,2378A,116.3565,27.963,抚州市,血防站,,48,48,55,29,34,138,95,127,119,7,7,7,6,0.9,0.9
2023-08-19T00:00:00,2379A,116.3564,28.0007,抚州市,采茶剧团,细颗粒物(PM2.5),62,52,52,44,33,132,75,121,109,15,11,6,6,0.8,0.8
2023-08-19T00:00:00,2380A,116.385,27.9647,抚州市,医学分院,,44,44,57,30,34,137,108,124,114,12,12,8,5,1.0,1.3
2023-08-19T00:00:00,2381A,118.005,28.4572,上饶市,百草园,,27,27,30,14,17,117,58,104,87,17,9,17,8,0.8,0.8
2023-08-19T00:00:00,2382A,117.9756,28.4436,上饶市,市监测站,,34,34,33,16,17,139,78,128,110,16,9,16,11,0.5,0.6
2023-08-19T00:00:00,2383A,117.9519,28.4628,上饶市,凤凰光学,,36,36,35,22,17,139,81,129,111,8,9,14,12,0.7,0.8
2023-08-19T00:00:00,2385A,114.17,35.9019,鹤壁市,市监测站,,42,26,50,29,38,202,95,174,123,15,20,4,4,1.1,1.2
2023-08-19T00:00:00,2386A,114.2956,35.7511,鹤壁市,市交警支队,细颗粒物(PM2.5),52,50,58,36,34,182,63,155,106,22,19,10,14,0.8,1
2023-08-19T00:00:00,2387A,114.2878,35.7306,鹤壁市,迎宾馆,,49,49,53,33,34,188,54,161,108,39,21,12,10,1.1,1
2023-08-19T00:00:00,2389A,113.836,35.311,新乡市,环保西院,,44,44,56,23,35,180,83,163,124,13,15,5,6,0.8,0.9
2023-08-19T00:00:00,2390A,113.884,35.272,新乡市,开发区,,35,32,51,24,34,188,85,171,132,10,12,2,4,0.8,1
2023-08-19T00:00:00,2391A,113.883,35.303,新乡市,环保东院,,46,46,67,26,34,187,83,169,127,16,18,2,5,0.7,1
2023-08-19T00:00:00,2392A,115.0312,35.7636,濮阳市,环保局,,48,29,45,33,35,162,89,152,109,14,12,6,5,0.8,0.9
2023-08-19T00:00:00,2394A,115.0574,35.7609,濮阳市,油田运输公司,细颗粒物(PM2.5),52,46,54,36,36,162,66,149,108,18,13,6,6,0.8,0.9
2023-08-19T00:00:00,2395A,115.0866,35.7754,濮阳市,油田物探公司,,45,35,55,31,37,170,85,156,108,12,13,4,4,0.7,0.9
2023-08-19T00:00:00,2396A,113.8276,34.0159,许昌市,监测站,细颗粒物(PM2.5),82,79,66,60,39,171,111,158,134,22,21,3,5,0.6,0.6
2023-08-19T00:00:00,2398A,113.7906,33.9953,许昌市,开发区,细颗粒物(PM2.5),77,89,70,56,35,164,79,151,106,29,27,2,2,0.7,0.7
2023-08-19T00:00:00,2399A,114.051,33.5699,漯河市,三五一五工厂,"颗粒物(PM10),细颗粒物(PM2.5)",58,66,71,41,38,166,90,152,131,12,22,9,11,0.6,0.6
2023-08-19T00:00:00,2400A,114.0055,33.5698,漯河市,漯河大学,细颗粒物(PM2.5),74,78,65,54,41,168,95,157,138,18,18,8,10,0.6,0.6
2023-08-19T00:00:00,2401A,114.0138,33.5828,漯河市,市水利局,细颗粒物(PM2.5),64,68,64,46,37,164,101,153,134,12,17,7,9,0.8,0.9
2023-08-19T00:00:00,2402A,114.0261,33.5698,漯河市,市广电局,颗粒物(PM10),61,71,63,42,38,168,86,157,135,21,18,8,8,0.7,0.6
2023-08-19T00:00:00,2404A,112.5224,33.0122,南阳市,瓦房庄,,46,46,55,27,31,178,81,166,115,16,15,7,6,0.7,0.7
2023-08-19T00:00:00,2405A,112.5003,32.9735,南阳市,汉画馆,,39,39,53,25,31,197,89,174,111,10,14,7,8,0.6,0.7
2023-08-19T00:00:00,2406A,112.5573,33.027,南阳市,气象站,细颗粒物(PM2.5),52,39,55,36,33,172,77,161,112,12,12,8,5,0.5,0.6
2023-08-19T00:00:00,2407A,112.5481,32.9689,南阳市,理工学院,,46,46,54,21,28,174,95,164,124,13,12,8,8,0.5,0.5
2023-08-19T00:00:00,2408A,115.6702,34.4285,商丘市,环境监测站,细颗粒物(PM2.5),57,58,58,40,37,151,116,145,136,7,13,7,7,0.7,0.7
2023-08-19T00:00:00,2409A,115.6458,34.4045,商丘市,粮食局,,50,50,61,34,38,151,121,144,136,8,13,3,4,0.6,0.6
2023-08-19T00:00:00,2410A,115.6293,34.3948,商丘市,睢阳区环保局,颗粒物(PM10),57,63,72,32,36,145,105,138,126,16,22,8,7,0.5,0.6
2023-08-19T00:00:00,2420A,114.0189,32.9656,驻马店市,市一纸厂,颗粒物(PM10),55,60,49,32,27,171,82,148,127,19,21,6,7,0.4,0.5
2023-08-19T00:00:00,2421A,114.0114,33.015,驻马店市,市彩印厂,颗粒物(PM10),72,93,56,31,26,163,96,145,130,15,16,8,8,0.7,0.6
2023-08-19T00:00:00,2422A,113.9976,32.9771,驻马店市,天方二分厂,颗粒物(PM10),63,75,61,37,34,166,98,145,131,11,13,6,6,0.6,0.6
2023-08-19T00:00:00,2423A,115.0601,30.2313,黄石市,沈家营,颗粒物(PM10),60,70,55,28,23,180,109,161,113,22,22,16,10,0.6,0.6
2023-08-19T00:00:00,2424A,115.0817,30.2006,黄石市,陈家湾,,46,46,52,20,23,172,141,147,128,2,17,6,7,0.8,0.7
2023-08-19T00:00:00,2426A,114.8988,30.2019,黄石市,铁山,,38,31,42,19,23,189,121,177,143,10,12,4,5,0.8,0.8
2023-08-19T00:00:00,2427A,115.0307,30.2092,黄石市,团城山,颗粒物(PM10),51,52,48,20,19,193,142,174,138,8,15,7,7,0.5,0.6
2023-08-19T00:00:00,2428A,111.0419,32.395,十堰市,武当山,颗粒物(PM10),59,67,34,33,21,141,121,125,116,6,7,10,9,0.7,0.8
2023-08-19T00:00:00,2429A,110.78,32.6494,十堰市,滨河新村,,44,44,54,24,28,173,85,140,104,7,11,6,8,0.5,0.6
2023-08-19T00:00:00,2430A,110.7258,32.6389,十堰市,刘家沟,,,72,85,,36,150,,142,127,10,9,6,8,0.7,0.7
2023-08-19T00:00:00,2431A,110.8839,32.5714,十堰市,铁二处,,48,48,44,23,21,203,70,176,104,3,7,5,6,0.6,0.6
2023-08-19T00:00:00,2432A,112.155,32.0197,襄阳市,襄城运动路,颗粒物(PM10),76,102,66,29,33,176,111,170,143,13,14,2,2,0.9,0.9
2023-08-19T00:00:00,2433A,112.1392,32.0564,襄阳市,樊城新华路,颗粒物(PM10),79,107,64,44,34,178,111,166,139,15,13,8,7,0.7,0.7
2023-08-19T00:00:00,2434A,112.1825,32.1142,襄阳市,高新管委会,颗粒物(PM10),76,102,69,49,40,174,104,167,139,15,16,5,5,0.8,0.8
2023-08-19T00:00:00,2435A,112.2106,32.0903,襄阳市,襄州航空路,颗粒物(PM10),83,115,71,47,35,163,80,156,126,25,14,7,7,0.8,0.8
2023-08-19T00:00:00,2436A,114.8938,30.3994,鄂州市,市政府,颗粒物(PM10),55,60,43,24,21,172,95,164,129,13,14,2,3,0.7,0.6
2023-08-19T00:00:00,2437A,114.8989,30.3714,鄂州市,赵家坝,颗粒物(PM10),58,66,55,25,22,178,82,168,120,21,20,4,4,0.6,0.5
2023-08-19T00:00:00,2439A,112.2014,31.0481,荆门市,竹园小学,,,,62,,36,198,,177,154,,16,,10,,0.8
2023-08-19T00:00:00,2440A,112.1969,30.9891,荆门市,掇刀,,45,45,52,31,36,180,127,167,142,13,18,12,15,0.6,0.7
