timepoint,stationcode,longitude,latitude,area,positionname,primarypollutant,aqi,pm10,pm10_24h,pm2_5,pm2_5_24h,o3,o3_24h,o3_8h,o3_8h_24h,no2,no2_24h,so2,so2_24h,co,co_24h
2025-08-29T2200,2566A,102.1879,31.914,阿坝藏族羌族自治州,州农科所,,11,11,29,3,12,26,,58,45,6,10,3,3,0.1,0.1
2025-08-29T2200,2568A,102.2502,31.8896,阿坝藏族羌族自治州,马师校,,23,18,13,16,13,8,,51,32,9,8,8,8,0.5,0.5
2025-08-29T2200,3994A,102.2165,31.9024,阿坝藏族羌族自治州,马尔康中学西区,颗粒物(PM10),76,102,15,14,13,11,,58,41,10,6,8,9,0.6,0.6
2025-08-29T2200,2695A,80.292,41.1694,阿克苏地区,电视台,,,143,126,48,41,,,135,135,19,20,7,6,0.5,0.8
2025-08-29T2200,2696A,80.2613,41.1551,阿克苏地区,艺术中心,颗粒物(PM10),88,126,111,45,49,78,,136,132,21,22,4,4,0.4,0.6
2025-08-29T2200,2204A,105.6467,38.8363,阿拉善盟,西城区西花园,,43,26,21,17,11,135,,132,132,10,10,8,9,0.5,0.5
2025-08-29T2200,2205A,105.6985,38.8411,阿拉善盟,蒙二幼,,40,24,21,10,9,126,,126,126,6,5,10,10,0.5,0.5
2025-08-29T2200,2206A,105.724,38.8516,阿拉善盟,环保局新楼,,39,20,21,8,9,124,,128,128,6,5,10,10,0.4,0.4
2025-08-29T2200,2708A,88.1264,47.8517,阿勒泰地区,市站,,42,42,34,21,8,18,,87,78,66,22,3,3,0.5,0.3
2025-08-29T2200,2630A,80.1161,32.5,阿里地区,阿里监测站,,34,6,5,3,2,108,,123,115,6,6,6,6,0.2,0.2
2025-08-29T2200,3192A,80.0903,32.5028,阿里地区,阿里藏医院,,38,8,7,3,2,121,,133,130,1,2,6,6,0.2,0.2
2025-08-29T2200,2642A,109.0318,32.6537,安康市,香溪洞,,22,,8,3,4,69,,70,68,4,5,7,7,0.3,0.4
2025-08-29T2200,2644A,109.0072,32.6975,安康市,汉滨区检察院,,20,,10,6,6,62,,65,62,6,6,5,5,0.4,0.4
2025-08-29T2200,4054A,109.0325,32.6913,安康市,市邮政管理局,,19,6,9,3,5,59,,64,60,5,6,5,5,0.5,0.5
2025-08-29T2200,2291A,117.0809,30.5177,安庆市,环科院,细颗粒物(PM2.5),52,49,27,36,21,93,,105,99,11,22,5,9,0.8,0.7
2025-08-29T2200,2292A,117.0331,30.5119,安庆市,马山宾馆,细颗粒物(PM2.5),57,46,28,40,18,95,,99,97,12,23,6,8,0.5,0.5
2025-08-29T2200,2294A,116.9896,30.6145,安庆市,安庆大学,细颗粒物(PM2.5),54,47,29,38,19,95,,123,111,9,14,4,6,0.7,0.6
2025-08-29T2200,3173A,117.0598,30.5351,安庆市,市人大,,45,42,25,31,18,98,,100,93,12,18,5,5,0.6,0.5
2025-08-29T2200,3122A,105.9606,26.2611,安顺市,伍家关,,22,22,12,10,9,30,,85,52,11,6,6,6,0.6,0.5
2025-08-29T2200,3123A,105.9408,26.2431,安顺市,凤凰山,,22,,13,15,9,32,,79,47,10,9,7,7,0.5,0.4
2025-08-29T2200,3124A,105.9439,26.2564,安顺市,金钟山,,16,13,13,11,9,40,,85,52,6,5,6,7,0.4,0.4
2025-08-29T2200,3125A,105.8983,26.2481,安顺市,娄家坡,,18,12,11,12,10,28,,75,44,8,4,8,8,0.4,0.4
2025-08-29T2200,1818A,114.4839,36.0621,安阳市,棉研所,,,,,,,,,,,,,,,,
2025-08-29T2200,1819A,114.3551,36.1017,安阳市,红庙街,,30,30,36,10,15,63,,93,84,21,15,7,9,0.9,0.9
2025-08-29T2200,1820A,114.361,36.0681,安阳市,银杏小区,,25,25,32,12,19,68,,100,92,20,15,6,9,0.6,0.7
2025-08-29T2200,3141A,114.3922,36.0878,安阳市,信访局,,25,25,34,10,17,78,,105,97,16,13,6,9,0.9,1.1
2025-08-29T2200,3669A,114.4705,36.0637,安阳市,左辅环卫站,,26,26,29,11,20,77,,100,95,21,22,10,7,1.2,0.8
2025-08-29T2200,3703A,114.2917,36.0949,安阳市,安钢职工学校,,38,38,35,15,21,53,,91,82,19,13,5,8,0.8,1
2025-08-29T2200,1748A,123.044,41.1196,鞍山市,深沟寺,,43,43,33,30,20,44,,98,75,19,15,6,8,1.3,1.7
2025-08-29T2200,1749A,123.011,41.0931,鞍山市,太阳城,细颗粒物(PM2.5),52,46,34,36,24,38,,106,81,15,15,6,8,1.2,1.1
2025-08-29T2200,1750A,123.0485,41.1442,鞍山市,太平,细颗粒物(PM2.5),70,76,54,51,33,29,,102,75,37,24,7,11,1.8,2
2025-08-29T2200,1751A,122.9642,41.0971,鞍山市,铁西三道街,颗粒物(PM10),56,62,37,39,25,44,,102,82,37,23,9,9,1.4,1.2
2025-08-29T2200,1753A,123.022,41.0821,鞍山市,明达新区,颗粒物(PM10),51,52,34,30,20,43,,103,79,15,16,8,11,1.4,1.3
2025-08-29T2200,1754A,123.1289,41.0228,鞍山市,千山,,,,32,,13,,,52,,,5,,3,,1.0
2025-08-29T2200,4201A,122.9446,41.0826,鞍山市,兴盛南路290号,颗粒物(PM10),54,58,38,32,22,38,,104,74,32,27,8,10,2.1,1.5
2025-08-29T2200,2195A,107.4212,40.761,巴彦淖尔市,附二中,,37,37,36,20,15,106,,135,132,15,8,10,9,0.6,0.5
2025-08-29T2200,2196A,107.37,40.7372,巴彦淖尔市,市环保大楼,,41,41,40,16,14,94,,121,118,21,11,9,8,0.6,0.6
2025-08-29T2200,1956A,86.1472,41.7538,巴音郭楞蒙古自治州,孔雀公园,颗粒物(PM10),84,118,120,41,34,34,,114,102,78,33,5,6,0.9,0.5
2025-08-29T2200,1957A,86.1972,41.7166,巴音郭楞蒙古自治州,棉纺厂,颗粒物(PM10),83,115,98,44,25,46,,122,110,71,22,5,5,0.4,0.2
2025-08-29T2200,1958A,86.2357,41.7173,巴音郭楞蒙古自治州,经济开发区,颗粒物(PM10),66,82,96,22,22,71,,118,109,15,8,5,5,0.3,0.2
2025-08-29T2200,2914A,106.7677,31.8794,巴中市,苏山坪,,19,14,5,7,3,59,,74,69,6,5,5,4,0.4,0.4
2025-08-29T2200,3181A,106.7768,31.8526,巴中市,市五中,,16,15,11,6,5,51,,76,70,8,5,6,6,0.4,0.4
2025-08-29T2200,3183A,106.7418,31.8654,巴中市,圣泉水务公司,,19,8,6,3,2,60,,82,75,7,3,6,6,0.4,0.4
2025-08-29T2200,3616A,106.7616,31.8344,巴中市,市中心医院,,16,12,9,9,5,51,,77,71,13,5,7,6,0.3,0.2
2025-08-29T2200,2235A,122.7911,45.6077,白城市,洮北区环保局,,16,13,13,7,7,51,,84,69,6,6,4,4,0.3,0.3
2025-08-29T2200,2236A,122.8738,45.5725,白城市,市环保局,,18,12,10,12,7,39,,77,63,9,8,4,3,0.4,0.4
2025-08-29T2200,2231A,126.4219,41.9171,白山市,喜丰,,36,36,20,6,7,7,,68,42,20,9,3,6,0.5,0.6
2025-08-29T2200,2232A,126.4077,41.9419,白山市,环保局,,28,28,23,13,12,14,,68,47,8,11,6,6,0.5,0.7
2025-08-29T2200,2647A,104.1724,36.5446,白银市,第三小学,,48,48,20,18,14,52,,101,91,34,11,17,13,0.7,0.6
2025-08-29T2200,2648A,104.1465,36.5482,白银市,动力公司,,34,34,18,8,11,50,,106,95,34,12,10,8,0.5,0.5
2025-08-29T2200,2512A,106.6103,23.9011,百色市,市监测站,,29,29,31,15,18,22,,68,59,8,14,5,8,0.7,0.6
2025-08-29T2200,2513A,106.6538,23.8859,百色市,市中心血站,细颗粒物(PM2.5),58,,39,41,20,18,,62,55,26,23,3,7,0.8,0.7
2025-08-29T2200,3406A,106.6085,23.8798,百色市,祈福高中,颗粒物(PM10),55,59,40,25,23,3,,60,50,29,21,4,6,0.7,0.6
2025-08-29T2200,2270A,117.396,32.939,蚌埠市,工人疗养院,,28,15,30,3,13,88,,145,111,4,12,4,4,0.3,0.4
2025-08-29T2200,2271A,117.3605,32.9427,蚌埠市,百货大楼,,26,6,26,6,15,83,,156,112,6,11,6,6,0.4,0.6
2025-08-29T2200,2273A,117.4185,32.8911,蚌埠市,蚌埠学院,,27,,21,9,14,85,,134,107,2,7,5,7,0.3,0.4
2025-08-29T2200,2274A,117.3533,32.9673,蚌埠市,淮上区政府,,27,9,32,7,18,85,,169,119,8,18,5,7,0.4,0.5
2025-08-29T2200,2275A,117.3145,32.8977,蚌埠市,高新区,,24,9,25,7,16,74,,137,107,11,10,6,8,0.5,0.6
2025-08-29T2200,3715A,117.3092,32.9314,蚌埠市,蚌埠田家炳中学,,24,17,28,3,15,75,,156,113,14,12,6,7,0.3,0.4
2025-08-29T2200,1585A,109.8756,40.6532,包头市,市环境监测站,,49,49,41,23,18,44,,128,105,56,34,4,8,0.8,0.8
2025-08-29T2200,1587A,109.9991,40.5842,包头市,包头八中,,50,50,38,21,20,63,,119,110,30,24,5,8,0.7,0.7
2025-08-29T2200,1588A,109.8538,40.6821,包头市,青山宾馆,,40,36,32,19,15,17,,129,101,79,33,8,7,0.8,0.7
2025-08-29T2200,1589A,109.8642,40.6288,包头市,惠龙物流,,35,35,34,15,20,72,,125,112,30,22,4,7,0.6,0.6
2025-08-29T2200,1590A,110.0377,40.5546,包头市,东河鸿龙湾,,45,45,37,18,20,66,,130,116,22,21,5,6,0.8,0.8
2025-08-29T2200,3283A,109.9154,40.5685,包头市,滨河大厦,,30,26,33,21,20,88,,134,119,19,26,4,6,0.4,0.5
2025-08-29T2200,3419A,109.9447,40.6261,包头市,包头市委党校,,27,27,32,15,16,57,,130,117,44,27,5,10,0.6,0.7
2025-08-29T2200,3683A,109.8331,40.6576,包头市,昆区政府,,37,37,37,18,16,81,,131,122,26,24,10,9,0.8,0.7
2025-08-29T2200,1930A,107.185,34.3063,宝鸡市,庙沟村,,11,9,8,3,4,34,,115,71,20,8,4,4,0.4,0.4
2025-08-29T2200,1931A,107.0708,34.3017,宝鸡市,竹园沟,,16,16,9,3,2,36,,91,69,4,4,7,8,0.2,0.2
2025-08-29T2200,1932A,107.1906,34.3672,宝鸡市,三陆医院,,21,19,13,12,8,24,,79,61,42,22,8,8,0.6,0.4
2025-08-29T2200,1933A,107.1431,34.3547,宝鸡市,监测站,,17,17,11,8,6,34,,87,71,23,11,8,8,0.7,0.6
2025-08-29T2200,1934A,107.1186,34.3739,宝鸡市,技工学校,,19,19,14,13,7,50,,86,76,15,10,6,6,0.4,0.4
2025-08-29T2200,1936A,107.2058,34.3497,宝鸡市,文理学院,,19,16,13,13,6,57,,92,78,22,12,7,7,0.5,0.4
2025-08-29T2200,1937A,107.2386,34.3622,宝鸡市,三迪小学,,26,,12,18,8,41,,94,77,37,14,4,4,0.6,0.5
2025-08-29T2200,4308A,107.3898,34.3601,宝鸡市,陈仓区北开路21号,,13,,2,9,5,41,,81,69,25,12,5,5,0.4,0.4
2025-08-29T2200,1051A,115.493,38.8632,保定市,游泳馆,,42,42,39,26,23,26,,86,70,42,29,3,2,0.5,0.5
2025-08-29T2200,1052A,115.5213,38.8959,保定市,华电二区,,46,46,33,20,17,41,,85,74,25,22,1,2,0.7,0.7
2025-08-29T2200,1053A,115.4713,38.9108,保定市,接待中心,,45,45,40,20,20,30,,75,67,31,19,3,3,0.4,0.4
2025-08-29T2200,1054A,115.4612,38.8416,保定市,地表水厂,颗粒物(PM10),68,85,54,29,20,29,,89,73,53,33,9,5,0.7,0.7
2025-08-29T2200,3581A,115.31981,38.95208,保定市,满城区生态环境分局,,29,29,39,17,21,33,,78,68,19,22,3,3,0.3,0.4
2025-08-29T2200,3582A,115.47694,38.76408,保定市,清苑区第二中学,颗粒物(PM10),67,84,59,34,24,23,,91,71,44,28,3,3,0.6,0.5
2025-08-29T2200,3583A,115.62909,39.02311,保定市,徐水物探局,,42,42,41,9,10,16,,69,61,41,33,3,3,0.1,0.5
2025-08-29T2200,4004A,115.4202,38.8656,保定市,双鹰农机,颗粒物(PM10),63,75,44,30,24,16,,90,74,43,24,5,5,0.5,0.4
2025-08-29T2200,4034A,115.5150,38.8590,保定市,植保所站,颗粒物(PM10),51,51,44,27,21,42,,93,78,30,38,4,2,0.5,0.2
2025-08-29T2200,2594A,99.1678,25.1081,保山市,市环境监测站,,29,20,13,20,16,24,,54,45,7,7,8,8,0.5,0.4
2025-08-29T2200,2595A,99.1711,25.1328,保山市,市环保局,,20,20,13,11,9,29,,53,46,4,5,6,6,0.4,0.4
2025-08-29T2200,1866A,109.2262,21.588,北海市,牛尾岭水库,,22,20,14,15,9,17,,26,26,5,6,1,2,0.5,0.5
2025-08-29T2200,1867A,109.1436,21.4086,北海市,海滩公园,,26,26,19,3,6,46,,53,53,7,8,2,4,0.6,0.6
2025-08-29T2200,1868A,109.0981,21.4661,北海市,新市环保局,,,21,18,14,13,32,,47,47,18,11,3,5,,0.3
2025-08-29T2200,1869A,109.1778,21.5233,北海市,北海工业园,,28,28,22,12,14,27,,43,42,15,12,7,6,0.5,0.5
2025-08-29T2200,3400A,109.1911,21.4415,北海市,龙潭自来水厂,,33,,20,23,16,33,,46,46,6,8,3,3,0.4,0.5
2025-08-29T2200,1001A,116.3621,39.8784,北京市,万寿西宫,,50,50,41,35,28,61,,92,87,18,22,3,3,0.8,0.8
2025-08-29T2200,1002A,116.2202,40.2915,北京市,定陵,,32,32,29,21,25,26,,93,73,1,3,3,4,2.0,0.9
2025-08-29T2200,1003A,116.4174,39.9289,北京市,东四,,49,49,43,31,25,72,,98,94,21,29,3,3,0.8,0.7
2025-08-29T2200,1004A,116.4072,39.8863,北京市,天坛,,,,36,,25,,,31,,,14,,3,,0.7
2025-08-29T2200,1005A,116.462,39.9365,北京市,农展馆,,50,50,38,35,25,57,,90,86,22,26,3,2,0.9,0.7
2025-08-29T2200,1006A,116.3392,39.9295,北京市,官园,细颗粒物(PM2.5),52,49,39,36,25,64,,105,94,24,24,5,6,0.7,0.7
2025-08-29T2200,1007A,116.2878,39.9611,北京市,海淀万柳,颗粒物(PM10),51,52,35,29,21,39,,73,65,25,25,3,3,0.8,0.6
2025-08-29T2200,1008A,116.6636,40.135,北京市,顺义新城,,,,,,,,,,,,,,,,
2025-08-29T2200,1009A,116.6275,40.3275,北京市,怀柔镇,,49,49,33,34,21,51,,93,89,18,11,3,2,0.9,0.7
2025-08-29T2200,1010A,116.2296,40.217,北京市,昌平镇,,38,38,31,23,20,41,,89,81,9,13,4,4,0.7,0.8
2025-08-29T2200,1011A,116.3966,39.9821,北京市,奥体中心,,43,43,32,30,21,60,,92,88,20,21,4,4,0.9,0.6
2025-08-29T2200,3281A,115.9718,40.4529,北京市,延庆夏都,,41,41,30,23,19,15,,84,70,28,12,2,3,0.7,0.5
2025-08-29T2200,3418A,116.8336,40.4095,北京市,密云新城,,38,38,24,24,15,15,,76,64,7,5,2,2,0.6,0.5
2025-08-29T2200,3671A,116.088,39.9726,北京市,门头沟三家店,,31,31,30,18,19,27,,73,60,10,12,3,3,0.6,0.6
2025-08-29T2200,3672A,116.1541,39.8204,北京市,丰台云岗,,39,39,32,20,20,8,,66,53,29,17,2,4,0.6,0.6
2025-08-29T2200,3673A,116.6804,39.9081,北京市,通州东关,,42,42,46,26,30,38,,78,74,37,27,2,2,0.9,0.8
2025-08-29T2200,3674A,115.9577,39.7603,北京市,房山燕山,,18,18,25,10,17,56,,72,67,5,9,1,1,0.3,0.4
2025-08-29T2200,3675A,116.4672,39.7733,北京市,大兴旧宫,,34,34,37,19,22,23,,62,60,18,18,2,2,0.6,0.6
2025-08-29T2200,3694A,115.986,40.4563,北京市,延庆石河营,,41,41,30,24,20,6,,68,52,18,7,1,1,0.6,0.5
2025-08-29T2200,3695A,116.6151,40.3053,北京市,怀柔新城,颗粒物(PM10),53,55,34,36,22,45,,87,82,10,6,3,3,0.8,0.7
2025-08-29T2200,3696A,116.2545,39.8768,北京市,丰台小屯,,42,42,38,28,26,30,,72,61,21,17,1,1,0.9,0.8
2025-08-29T2200,3697A,116.84,40.3844,北京市,密云镇,,48,47,27,33,18,27,,78,70,27,13,4,4,0.7,0.6
2025-08-29T2200,4182A,116.1942,39.9158,北京市,八角北路9号,,42,42,37,21,21,25,,89,77,30,19,1,2,0.7,0.6
2025-08-29T2200,4194A,117.0790,40.1518,北京市,洳河巡河路,颗粒物(PM10),51,52,36,34,20,34,,85,74,8,6,3,3,0.6,0.5
2025-08-29T2200,1761A,123.8275,41.3064,本溪市,大峪,,38,38,26,11,9,8,,110,68,30,13,5,6,0.9,0.7
2025-08-29T2200,1762A,123.7567,41.3325,本溪市,溪湖,,48,48,21,33,18,23,,100,69,18,9,5,5,1.1,0.8
2025-08-29T2200,1763A,123.7169,41.3094,本溪市,彩屯,,42,42,27,28,18,19,,92,60,21,15,8,9,1.2,1
2025-08-29T2200,1764A,123.7669,41.2864,本溪市,东明,颗粒物(PM10),52,54,43,22,23,25,,103,74,34,21,5,7,1.3,1.4
2025-08-29T2200,1765A,123.7992,41.2664,本溪市,新立屯,,,,,,,,,,,,,,,,
2025-08-29T2200,1766A,123.8142,41.3472,本溪市,威宁,,49,49,23,20,13,12,,95,57,20,12,4,4,0.8,0.6
2025-08-29T2200,2587A,105.2864,27.3125,毕节市,八中,,29,22,23,20,20,46,,80,72,4,8,5,6,0.5,0.4
2025-08-29T2200,2588A,105.31,27.2944,毕节市,师专,,,,22,25,14,52,,82,74,7,9,5,7,0.5,0.4
2025-08-29T2200,4263A,105.3688,27.3598,毕节市,工业大道,,29,27,18,20,12,53,,86,77,6,9,9,7,0.7,0.6
2025-08-29T2200,1629A,118.0018,37.3617,滨州市,第二水厂,,29,24,19,14,12,91,,141,127,16,12,5,8,0.4,0.5
2025-08-29T2200,1630A,117.9776,37.393,滨州市,北中新校,,33,22,25,9,13,105,,147,137,12,12,5,3,0.2,0.6
2025-08-29T2200,3514A,117.9378,37.3956,滨州市,中海酒店,,34,24,21,17,14,107,,144,134,9,9,6,6,0.5,0.6
2025-08-29T2200,3515A,117.9378,37.3553,滨州市,开发区一中,,31,31,23,17,14,99,,155,141,16,12,5,7,0.4,0.5
2025-08-29T2200,3516A,118.0917,37.694,滨州市,金海六路,,32,22,24,14,16,100,,139,122,11,10,6,5,0.4,0.4
2025-08-29T2200,4028A,117.9956,37.3753,滨州市,滨州市西街道办事处,,28,19,16,14,12,89,,150,134,18,12,4,6,0.5,0.5
2025-08-29T2200,2311A,115.8072,33.8399,亳州市,污水处理厂,,28,,26,19,22,72,,118,94,11,12,2,6,0.6,0.7
2025-08-29T2200,2312A,115.7789,33.8518,亳州市,三国揽胜宫,,25,18,34,12,17,80,,122,102,8,9,3,4,0.7,0.7
2025-08-29T2200,3332A,115.7633,33.8034,亳州市,亳州学院,,28,13,29,7,22,89,,131,107,8,8,3,4,0.7,0.7
2025-08-29T2200,2693A,82.0485,44.8556,博尔塔拉蒙古自治州,市党校,,33,33,29,19,18,81,,98,97,16,7,5,3,0.2,0.2
2025-08-29T2200,2694A,82.0806,44.8969,博尔塔拉蒙古自治州,市环保局,颗粒物(PM10),53,55,41,20,15,31,,109,90,46,11,4,5,0.6,0.3
2025-08-29T2200,1071A,116.8842,38.2991,沧州市,沧县城建局,,36,35,27,25,11,78,,127,110,24,18,4,3,0.3,0.4
2025-08-29T2200,1072A,116.8584,38.3254,沧州市,电视转播站,颗粒物(PM10),52,54,44,19,15,79,,113,101,16,16,3,2,0.4,0.4
2025-08-29T2200,1073A,116.8709,38.3228,沧州市,市环保局,,43,43,32,29,18,76,,128,114,18,14,6,6,0.4,0.4
2025-08-29T2200,3324A,116.8136,38.3004,沧州市,河北水利电力学院,,27,17,21,16,18,86,,136,116,19,15,4,4,0.3,0.4
2025-08-29T2200,2622A,97.1806,31.1273,昌都市,昌都监测站,,,,14,6,5,83,,80,76,3,4,2,4,0.2,0.2
2025-08-29T2200,3719A,97.1714,31.1406,昌都市,昌都会议中心,,29,,6,6,5,92,,86,86,1,3,4,4,0.2,0.2
2025-08-29T2200,2690A,88.1236,43.8886,昌吉回族自治州,天山天池,,22,17,11,3,5,69,,109,100,7,7,2,2,0.6,0.6
2025-08-29T2200,2692A,87.2717,44.0297,昌吉回族自治州,新区政务中心,,,,24,,12,,,120,117,,13,,7,,0.2
2025-08-29T2200,3613A,87.3095,44.0142,昌吉回族自治州,亚心广场,,41,41,39,7,13,63,,112,103,34,18,7,9,0.5,0.4
2025-08-29T2200,1120A,125.2863,43.9027,长春市,客车厂,,33,33,18,21,11,49,,80,66,27,18,4,4,0.4,0.4
2025-08-29T2200,1121A,125.2841,43.8463,长春市,邮电学院,,33,33,19,8,8,50,,84,71,18,13,5,5,0.5,0.5
2025-08-29T2200,1122A,125.3716,43.8772,长春市,劳动公园,,38,38,22,20,11,48,,82,70,20,16,7,8,0.2,0.2
2025-08-29T2200,1123A,125.3297,43.8805,长春市,园林处,,24,24,18,10,8,55,,80,72,19,14,5,5,0.6,0.5
2025-08-29T2200,1124A,125.4605,43.79,长春市,净月潭,,,20,18,11,5,,,71,60,8,10,4,5,0.3,0.3
2025-08-29T2200,1125A,125.7194,43.515,长春市,甩湾子,,16,16,14,6,7,33,,68,56,7,7,3,3,0.4,0.4
2025-08-29T2200,1126A,125.3863,43.8447,长春市,经开区环卫处,,25,24,28,17,8,43,,78,64,22,13,4,4,0.6,0.5
2025-08-29T2200,1127A,125.245,43.7783,长春市,高新区管委会,,28,28,20,11,10,40,,82,66,15,15,3,4,0.4,0.5
2025-08-29T2200,1128A,125.1761,43.8325,长春市,岱山公园,,42,42,20,15,11,7,,78,48,58,22,3,3,0.4,0.3
2025-08-29T2200,4281A,125.3346,43.9164,长春市,北亚泰大街1068号,,38,38,22,20,10,52,,78,66,23,19,7,7,0.5,0.4
2025-08-29T2200,1335A,113.0833,28.2325,长沙市,经开区环保局,,43,43,28,23,18,69,,114,106,24,12,5,5,0.4,0.4
2025-08-29T2200,1336A,112.8872,28.2189,长沙市,高开区环保局,,26,26,27,10,14,65,,108,96,14,11,5,6,0.3,0.4
2025-08-29T2200,1337A,113.0792,28.2053,长沙市,马坡岭,,31,31,28,20,15,73,,128,116,24,12,6,6,0.5,0.5
2025-08-29T2200,1338A,112.9394,28.19,长沙市,湖南师范大学,,19,19,26,12,14,56,,108,94,26,18,4,4,0.5,0.5
2025-08-29T2200,1339A,113.0178,28.1322,长沙市,雨花区环保局,,40,40,26,16,12,51,,106,92,25,9,6,6,0.6,0.6
2025-08-29T2200,1340A,112.9792,28.2597,长沙市,伍家岭,,28,28,26,14,15,57,,104,89,28,14,5,3,0.3,0.3
2025-08-29T2200,1341A,113.0014,28.1944,长沙市,火车新站,,34,34,28,12,12,72,,99,96,16,9,7,6,0.4,0.4
2025-08-29T2200,1342A,112.9844,28.1178,长沙市,天心区环保局,,33,28,23,23,12,57,,107,92,25,15,4,4,0.3,0.3
2025-08-29T2200,1343A,112.8908,28.1308,长沙市,湖南中医药大学,,35,35,28,21,19,22,,109,81,47,16,4,5,0.6,0.6
2025-08-29T2200,1344A,112.9581,28.3611,长沙市,沙坪,,32,19,25,10,15,102,,126,106,9,12,4,3,0.3,0.4
2025-08-29T2200,1727A,113.1147,36.1547,长治市,清华站,,26,26,28,12,11,55,,86,84,22,19,8,8,0.8,0.9
2025-08-29T2200,1730A,113.0886,36.2125,长治市,审计局,,,20,23,,13,,,92,92,15,18,6,6,1.0,0.8
2025-08-29T2200,1731A,113.0844,36.1856,长治市,长治八中,,31,31,25,20,21,72,,91,90,13,16,8,8,0.9,0.8
2025-08-29T2200,2845A,113.1569,36.1911,长治市,德盛苑,,22,19,26,3,13,69,,85,83,5,13,8,8,0.9,0.8
2025-08-29T2200,3568A,113.06,36.0464,长治市,向阳小学,颗粒物(PM10),58,65,57,24,25,49,,92,86,20,19,4,4,1.0,0.9
2025-08-29T2200,3569A,112.8792,36.3144,长治市,屯留一中,,41,41,32,21,21,60,,101,93,28,20,8,9,0.7,0.5
2025-08-29T2200,4189A,113.1131,36.19948,长治市,英华南巷50号,,21,17,27,12,16,67,,85,85,14,17,7,8,1.3,0.8
2025-08-29T2200,4190A,113.2367,36.3344,长治市,学府街1号,,27,27,34,12,21,37,,89,79,27,20,1,6,0.6,0.9
2025-08-29T2200,1854A,111.6975,28.9703,常德市,市二中,细颗粒物(PM2.5),82,68,38,60,27,54,,118,95,15,13,6,10,0.8,0.6
2025-08-29T2200,1857A,111.7158,29.1456,常德市,白鹤山,,,,,,,,,,,,,,,,
2025-08-29T2200,3138A,111.7153,29.0289,常德市,武陵区永安,细颗粒物(PM2.5),87,94,39,64,26,70,,106,94,9,6,6,7,0.7,0.4
2025-08-29T2200,3139A,111.6892,28.9881,常德市,鼎城区玉霞,细颗粒物(PM2.5),90,80,39,67,27,72,,114,99,10,8,7,10,0.7,0.5
2025-08-29T2200,3140A,111.6625,29.0531,常德市,武陵区长庚,细颗粒物(PM2.5),85,82,41,63,30,62,,103,84,7,4,7,9,0.7,0.5
2025-08-29T2200,1196A,119.9633,31.762,常州市,市监测站,,34,15,26,13,15,106,,150,137,15,15,10,10,0.5,0.6
2025-08-29T2200,1200A,119.9468,31.7069,常州市,武进监测站,,26,26,24,14,11,74,,140,127,9,16,6,7,0.4,0.8
2025-08-29T2200,1201A,119.9255,31.9087,常州市,安家,,36,36,32,17,14,80,,171,138,27,23,10,11,0.7,0.8
2025-08-29T2200,3002A,119.9805,31.8174,常州市,行政中心,,37,37,33,9,15,99,,157,139,20,21,2,3,0.4,0.5
2025-08-29T2200,3003A,120.0522,31.7748,常州市,经开区,,37,37,39,12,13,100,,158,139,20,22,3,5,0.9,1.1
2025-08-29T2200,3010A,119.9025,31.7964,常州市,钟楼,,37,21,29,8,12,117,,154,142,14,14,6,7,0.5,0.5
2025-08-29T2200,3429A,119.8598,31.7066,常州市,武进经发区,,33,26,32,11,14,105,,140,124,11,12,9,10,0.4,0.5
2025-08-29T2200,3430A,119.5826,31.7245,常州市,金坛城区,,35,32,30,11,14,111,,145,128,10,13,8,9,0.4,0.4
2025-08-29T2200,2220A,120.4318,41.5881,朝阳市,西梁,,50,50,37,25,22,10,,69,53,36,21,4,9,0.9,1
2025-08-29T2200,2221A,120.4521,41.5646,朝阳市,河畔小区,,26,23,34,18,15,35,,78,68,16,12,4,6,0.7,0.7
2025-08-29T2200,2222A,120.4176,41.5648,朝阳市,八里堡,,30,29,35,21,19,23,,76,64,38,23,7,10,0.8,0.9
2025-08-29T2200,2223A,120.3806,41.5969,朝阳市,农业园区,,16,14,25,8,16,15,,73,58,31,15,4,7,0.6,0.8
2025-08-29T2200,1705A,116.6367,23.6719,潮州市,西园路,,31,31,28,13,15,44,,94,85,9,9,4,5,0.3,0.3
2025-08-29T2200,3026A,116.6183,23.6608,潮州市,市政府,,18,18,30,11,13,42,,87,79,7,8,5,7,0.4,0.4
2025-08-29T2200,4036A,116.6461,23.6761,潮州市,金山,,23,,29,16,17,43,,95,87,7,7,6,6,0.3,0.3
2025-08-29T2200,2472A,113.0073,25.9061,郴州市,马头岭,,16,16,28,7,10,32,,77,54,10,13,6,8,0.3,0.4
2025-08-29T2200,2473A,113.0116,25.8226,郴州市,市职中,,16,12,24,11,17,32,,71,49,6,12,4,6,0.3,0.4
2025-08-29T2200,2475A,113.0383,25.8071,郴州市,市审计局,,20,19,26,14,13,39,,84,56,5,11,6,8,0.3,0.4
2025-08-29T2200,2476A,113.0348,25.7759,郴州市,市环保局,,20,20,27,13,16,39,,80,56,1,7,8,6,0.2,0.2
2025-08-29T2200,4252A,113.0138,25.8011,郴州市,好美居路49号,,12,,24,8,16,36,,77,54,9,13,5,5,0.3,0.4
2025-08-29T2200,1431A,103.9728,30.7236,成都市,金泉两河,,17,17,11,3,4,41,,65,59,16,12,2,2,0.5,0.4
2025-08-29T2200,1432A,104.176,30.6872,成都市,十里店,,17,14,8,3,4,53,,74,68,24,13,2,2,0.6,0.5
2025-08-29T2200,1433A,104.079,30.5706,成都市,三瓦窑,,15,14,12,3,6,46,,83,71,30,17,2,1,0.4,0.4
2025-08-29T2200,1434A,104.1114,30.63,成都市,沙河铺,,23,23,19,3,4,30,,74,54,19,11,3,3,0.8,0.6
2025-08-29T2200,1437A,104.0786,30.6531,成都市,君平街,,18,18,17,3,6,45,,77,73,21,9,3,2,0.6,0.5
2025-08-29T2200,1438A,103.613,31.0283,成都市,灵岩寺,,,,,,,,,,,,,,,,
2025-08-29T2200,2880A,104.0239,30.65639,成都市,大石西路,,21,21,17,9,8,33,,68,59,32,16,2,2,0.6,0.4
2025-08-29T2200,3136A,104.2725,30.5589,成都市,龙泉驿区区政府,,18,9,3,3,2,55,,77,73,21,15,4,4,0.5,0.5
2025-08-29T2200,3357A,104.0106,30.6931,成都市,金博路,,19,19,7,11,5,36,,61,56,19,13,4,4,0.8,0.6
2025-08-29T2200,3359A,104.0578,30.5225,成都市,华阳,,25,,9,17,8,56,,74,68,19,15,2,1,0.6,0.5
2025-08-29T2200,3488A,104.3853,30.7453,成都市,青白江技师分院,,22,22,14,10,6,31,,79,61,28,13,3,1,0.7,0.5
2025-08-29T2200,3489A,104.0789,30.4072,成都市,科学城,,18,17,10,8,5,55,,82,76,20,12,4,4,0.5,0.4
2025-08-29T2200,4011A,103.8506,30.6947,成都市,光华大道三段,,17,17,12,7,4,42,,66,61,17,14,2,1,0.5,0.5
2025-08-29T2200,4224A,104.2433,30.5353,成都市,鲸龙路1057号,,24,24,13,13,6,50,,73,68,18,17,3,3,0.5,0.4
2025-08-29T2200,1062A,117.9531,40.9081,承德市,铁路,,49,49,37,31,16,7,,62,51,18,16,4,5,0.8,0.6
2025-08-29T2200,1063A,117.9392,40.9763,承德市,中国银行,,45,45,28,27,19,7,,66,52,16,13,3,5,1.0,0.7
2025-08-29T2200,1064A,117.9503,40.928,承德市,开发区,,44,44,38,20,16,19,,64,57,14,15,4,7,0.9,0.8
2025-08-29T2200,1066A,117.9268,41.0026,承德市,离宫,,44,44,32,19,8,7,,48,32,9,8,3,3,1.0,0.6
2025-08-29T2200,4274A,117.7994,40.9605,承德市,滨河大街98号,,36,36,29,17,12,11,,53,36,2,8,2,8,0.5,0.6
2025-08-29T2200,2314A,117.47,30.6618,池州市,池州学院,颗粒物(PM10),52,53,28,32,17,110,,134,132,25,12,8,8,0.8,0.9
2025-08-29T2200,3237A,117.4918,30.6617,池州市,展览馆,颗粒物(PM10),55,60,30,35,16,91,,129,126,23,12,6,7,0.9,0.8
2025-08-29T2200,3333A,117.5627,30.695,池州市,第八中学,细颗粒物(PM2.5),62,70,30,44,18,82,,139,130,14,10,6,6,0.9,0.7
2025-08-29T2200,3334A,117.5038,30.6243,池州市,第十二中学,细颗粒物(PM2.5),94,86,34,70,20,56,,137,120,33,18,5,6,1.0,1
2025-08-29T2200,1744A,118.9233,42.2816,赤峰市,松山一中,,50,50,25,20,13,32,,83,57,31,26,8,19,0.7,0.7
2025-08-29T2200,1745A,118.9576,42.2728,赤峰市,哈达街,,46,46,28,24,14,27,,77,57,34,26,20,33,0.6,0.6
2025-08-29T2200,1746A,118.8788,42.2554,赤峰市,天义路,,23,20,15,16,14,45,,77,58,20,19,9,11,0.3,0.5
2025-08-29T2200,3058A,119.2658,42.0353,赤峰市,银河街,,32,32,31,20,19,33,,71,59,17,11,7,14,0.4,0.5
2025-08-29T2200,3286A,118.9359,42.3147,赤峰市,桥北物流园区,,,,22,53,16,,,76,56,42,14,8,10,0.8,0.8
2025-08-29T2200,2521A,107.3476,22.4136,崇左市,市环保局江州分局,,24,24,23,10,11,31,,40,40,7,10,6,7,0.7,0.6
2025-08-29T2200,4256A,107.3750,22.3736,崇左市,石景林东路7号,,19,19,20,7,10,29,,45,44,12,14,4,5,0.5,0.5
2025-08-29T2200,2298A,118.3093,32.3153,滁州市,老年大学,,40,39,36,28,26,75,,164,121,16,19,8,10,0.3,0.3
2025-08-29T2200,2299A,118.3244,32.2786,滁州市,人大宾馆,,45,,28,31,22,90,,179,142,10,16,4,6,0.4,0.5
2025-08-29T2200,3207A,118.3118,32.3038,滁州市,市政府原办公楼,,46,37,33,32,29,84,,165,127,13,17,6,6,0.4,0.4
2025-08-29T2200,3331A,118.3267,32.2634,滁州市,图书馆,,43,35,29,30,17,95,,180,146,15,15,10,11,0.4,0.4
2025-08-29T2200,2605A,101.5482,25.0441,楚雄彝族自治州,州环境监测站,,18,,14,12,9,18,,41,37,19,13,6,6,0.5,0.5
2025-08-29T2200,2606A,101.538,25.0492,楚雄彝族自治州,市经济开发区,,19,17,17,13,9,21,,39,36,20,16,6,7,0.8,0.7
2025-08-29T2200,2548A,107.5277,31.2827,达州市,达州职业技术学院,,26,26,41,3,18,81,,109,92,5,13,6,9,0.4,0.5
2025-08-29T2200,2549A,107.5086,31.2186,达州市,市环境监测站,,25,23,40,3,17,79,,100,84,9,22,5,7,0.3,0.4
2025-08-29T2200,2550A,107.4988,31.2132,达州市,凤凰小区,,21,14,37,9,21,65,,104,84,8,19,1,4,0.3,0.4
2025-08-29T2200,2551A,107.5082,31.1986,达州市,达县机关宾馆,,25,12,41,8,20,79,,106,88,10,24,3,7,0.3,0.4
2025-08-29T2200,2552A,107.4644,31.2124,达州市,市政中心,,26,23,48,7,19,81,,103,87,7,17,2,5,0.2,0.3
2025-08-29T2200,2614A,100.1542,25.7054,大理白族自治州,大理市环境监测站,,20,,7,14,17,14,,42,37,18,8,4,4,0.6,0.5
2025-08-29T2200,2615A,100.2171,25.5811,大理白族自治州,大理古城,,,21,12,15,9,39,,51,49,10,7,5,5,,0.7
2025-08-29T2200,1109A,121.612,38.9741,大连市,甘井子,,37,25,18,18,14,118,,142,114,17,19,7,8,0.2,0.3
2025-08-29T2200,1110A,121.565,38.9511,大连市,周水子,,35,24,19,22,15,111,,110,99,10,18,7,8,0.5,0.4
2025-08-29T2200,1111A,121.5637,38.8845,大连市,星海三站,,35,23,17,22,13,111,,110,110,15,14,6,5,0.3,0.3
2025-08-29T2200,1112A,121.6302,38.9117,大连市,青泥洼桥,,34,14,22,10,12,106,,110,110,6,12,7,7,0.4,0.4
2025-08-29T2200,1113A,121.6251,38.8638,大连市,傅家庄,,38,11,13,11,12,121,,118,118,9,9,11,10,0.3,0.3
2025-08-29T2200,1114A,121.5213,38.8661,大连市,七贤岭,,32,16,14,14,11,102,,107,106,9,6,6,6,0.5,0.5
2025-08-29T2200,1115A,121.2529,38.8061,大连市,旅顺,,32,11,12,10,12,100,,107,107,6,7,7,7,0.3,0.3
2025-08-29T2200,1116A,121.7485,39.1311,大连市,金州,,31,22,18,12,12,98,,116,98,10,14,6,6,0.3,0.3
2025-08-29T2200,1117A,121.7811,39.0496,大连市,开发区,,34,15,17,11,12,106,,109,98,9,17,5,6,0.3,0.3
2025-08-29T2200,1118A,121.9762,39.0631,大连市,双D港,,27,13,11,8,8,86,,112,94,6,6,8,8,0.6,0.5
2025-08-29T2200,1789A,124.81117,46.03138,大庆市,大同区,,17,12,21,3,9,54,,84,71,7,9,8,8,0.6,0.6
2025-08-29T2200,1790A,125.129,46.533,大庆市,龙凤区,,,27,20,3,9,,,80,73,18,13,8,7,0.5,0.5
2025-08-29T2200,1791A,124.902,46.408,大庆市,红岗区,,24,24,20,11,12,53,,93,80,14,9,6,6,0.6,0.6
2025-08-29T2200,1792A,125.153,46.586,大庆市,萨尔图区,,,27,27,17,10,,,72,64,19,14,8,8,0.7,0.5
2025-08-29T2200,1793A,124.9042,46.6215,大庆市,让胡路区,,35,35,25,19,15,40,,83,73,24,9,5,5,0.3,0.3
2025-08-29T2200,3481A,125.141,46.634,大庆市,萨区政府监测点,,26,26,26,7,7,63,,94,81,13,12,8,8,0.4,0.4
2025-08-29T2200,1721A,113.3819,40.1097,大同市,果树场,颗粒物(PM10),53,56,44,35,31,30,,78,68,21,21,9,10,0.5,0.5
2025-08-29T2200,1723A,113.2994,40.0758,大同市,云冈宾馆,颗粒物(PM10),63,75,69,42,36,71,,96,95,23,24,7,9,0.7,0.7
2025-08-29T2200,1724A,113.3444,40.0917,大同市,大同大学,,48,48,42,31,28,66,,97,94,25,26,9,10,0.7,0.7
2025-08-29T2200,1725A,113.2661,40.1269,大同市,安家小村,颗粒物(PM10),61,72,50,30,28,52,,98,92,28,17,7,8,0.6,0.7
2025-08-29T2200,1726A,113.2711,40.0844,大同市,教育学院,细颗粒物(PM2.5),63,74,57,45,30,65,,99,97,28,23,7,9,0.9,0.7
2025-08-29T2200,3282A,113.3397,40.0597,大同市,大同市卫生学校,颗粒物(PM10),58,65,49,34,28,76,,93,91,16,18,10,12,0.7,0.6
2025-08-29T2200,3565A,113.1367,40.1122,大同市,云冈站,颗粒物(PM10),51,52,48,29,26,45,,87,82,11,12,3,6,0.8,0.5
2025-08-29T2200,3566A,113.1186,40.2556,大同市,图书馆,颗粒物(PM10),64,77,36,32,21,35,,87,81,11,9,4,4,0.7,0.6
2025-08-29T2200,3567A,113.5931,40.0461,大同市,区一中,颗粒物(PM10),51,51,36,29,22,30,,108,86,18,13,9,14,0.6,0.5
2025-08-29T2200,4199A,113.2798,40.0997,大同市,魏都大道141号,颗粒物(PM10),58,66,53,39,30,64,,96,94,23,20,4,6,0.8,0.7
2025-08-29T2200,2269A,124.1069,50.4097,大兴安岭地区,科技局,,35,35,28,10,8,3,,46,35,9,4,5,7,0.4,0.3
2025-08-29T2200,3663A,124.1164,50.4278,大兴安岭地区,红旗社区,,,34,12,20,6,,,57,43,8,6,5,5,0.4,0.3
2025-08-29T2200,1600A,124.3303,40.0625,丹东市,江湾东路,,23,23,13,11,8,55,,103,84,19,14,4,5,0.8,0.8
2025-08-29T2200,1601A,124.4256,40.1503,丹东市,临江后街,颗粒物(PM10),53,55,24,28,11,32,,97,78,22,12,8,7,1.4,0.9
2025-08-29T2200,1602A,124.3933,40.1461,丹东市,元宝山,,25,25,12,9,5,49,,84,72,18,11,6,5,1.0,0.8
2025-08-29T2200,1603A,124.3633,40.1092,丹东市,民主桥,,19,19,15,11,6,56,,102,86,17,12,6,6,0.6,0.5
2025-08-29T2200,3541A,109.5726,19.5167,儋州市,第一中学子站,,13,13,13,3,6,26,,22,22,1,4,5,5,0.5,0.5
2025-08-29T2200,3542A,109.5567,19.5187,儋州市,东坡学校子站,,14,14,9,3,5,28,,23,23,3,5,7,6,0.4,0.5
2025-08-29T2200,2616A,98.5842,24.428,德宏傣族景颇族自治州,德宏州监测站,,26,26,16,18,8,24,,42,40,13,12,11,22,0.9,0.7
2025-08-29T2200,3677A,98.5881,24.4368,德宏傣族景颇族自治州,芒市人民政府综合楼,,31,31,24,15,9,22,,48,43,9,10,9,17,0.6,0.5
2025-08-29T2200,1901A,104.4239,31.1208,德阳市,东山公园,,13,,7,9,6,38,,79,66,11,7,3,3,0.6,0.5
2025-08-29T2200,1902A,104.3826,31.1317,德阳市,西小区,,25,25,13,16,6,36,,84,62,33,12,3,3,0.9,0.7
2025-08-29T2200,1904A,104.3553,31.1091,德阳市,耐火材料厂,,25,25,10,13,8,29,,72,54,33,15,3,2,0.6,0.5
2025-08-29T2200,3639A,104.4019,31.1244,德阳市,市教育局,,23,23,11,15,7,30,,80,58,29,10,1,3,0.9,0.7
2025-08-29T2200,1622A,116.3032,37.4674,德州市,儿童乐园,,41,41,29,24,17,64,,130,101,18,15,8,12,0.8,0.8
2025-08-29T2200,1624A,116.2991,37.4451,德州市,监理站,,36,36,27,14,13,69,,123,102,16,15,12,14,0.7,0.8
2025-08-29T2200,3066A,116.2721,37.4379,德州市,九衢泉纯净水厂,,46,46,31,27,18,58,,108,84,20,25,7,7,0.8,0.9
2025-08-29T2200,3371A,116.3728,37.4403,德州市,开发区人民医院,,41,41,29,17,15,77,,123,105,16,17,8,13,1.2,1.2
2025-08-29T2200,3511A,116.5652,37.3319,德州市,陵城艺术中心,,48,48,28,17,9,62,,119,104,30,21,12,13,0.9,0.7
2025-08-29T2200,4292A,116.3525,37.4209,德州市,新河东路,,32,31,27,22,16,82,,115,98,20,20,7,10,1.0,1
2025-08-29T2200,2621A,99.7056,27.8317,迪庆藏族自治州,迪庆州站,,22,15,14,15,12,45,,54,49,7,6,6,6,0.5,0.5
2025-08-29T2200,3180A,99.7136,27.8094,迪庆藏族自治州,质量技术监督局,,16,15,14,11,9,45,,56,51,9,8,8,8,0.5,0.4
2025-08-29T2200,4257A,104.6092,35.5962,定西市,将台街,,43,43,19,22,14,84,,122,111,10,13,8,7,0.4,0.4
2025-08-29T2200,4309A,104.6159,35.5701,定西市,正龙路62号,,33,33,28,19,17,74,,114,103,8,8,4,4,0.2,0.2
2025-08-29T2200,1389A,113.7547,23.0494,东莞市,莞城梨川,,25,25,27,14,18,39,,101,64,15,15,5,8,0.3,0.4
2025-08-29T2200,1390A,113.7944,23.0128,东莞市,东城石井,,20,20,34,7,16,34,,96,58,18,18,4,5,0.5,0.6
2025-08-29T2200,1391A,113.7383,22.9658,东莞市,南城西平,,29,29,27,7,11,46,,101,64,15,26,7,8,0.4,0.5
2025-08-29T2200,3319A,113.7338,23.0381,东莞市,万江金泰,,27,27,29,10,14,38,,93,60,13,16,6,8,0.6,0.7
2025-08-29T2200,3626A,113.7533,23.0202,东莞市,南城元岭,,22,22,26,8,14,40,,103,66,17,18,5,6,0.3,0.3
2025-08-29T2200,3627A,113.7875,23.0457,东莞市,东城主山,,26,26,32,9,15,45,,103,65,13,18,6,8,0.4,0.5
2025-08-29T2200,1666A,118.6614,37.4309,东营市,市环保局,,39,14,11,9,3,123,,127,127,13,12,10,8,0.4,0.4
2025-08-29T2200,3036A,118.6904,37.4338,东营市,开发区管委会,,42,24,17,7,4,133,,137,136,13,11,8,8,0.5,0.5
2025-08-29T2200,3365A,118.5719,37.565,东营市,垦利区民丰路,,35,19,20,12,9,111,,121,116,18,15,10,10,0.9,1
2025-08-29T2200,3498A,118.5055,37.8612,东营市,河口城区,,37,12,14,3,3,118,,142,137,10,11,4,5,1.0,1.1
2025-08-29T2200,3646A,118.4978,37.4623,东营市,胜利站,,38,24,23,7,5,121,,134,125,20,17,5,5,0.6,0.6
2025-08-29T2200,3734A,118.35,37.26,东营市,理想之城,,33,19,14,14,8,105,,129,123,22,20,5,5,0.5,0.5
2025-08-29T2200,1591A,110.0023,39.8129,鄂尔多斯市,综合楼,颗粒物(PM10),51,51,32,24,11,98,,120,118,21,26,11,7,0.7,0.5
2025-08-29T2200,1592A,109.9486,39.8261,鄂尔多斯市,巴音孟克林场办事处,颗粒物(PM10),58,66,34,24,13,98,,125,122,23,21,10,6,0.5,0.4
2025-08-29T2200,1593A,109.7736,39.5986,鄂尔多斯市,康泽苑,,41,41,33,19,12,52,,100,88,33,14,6,7,0.5,0.4
2025-08-29T2200,1594A,109.8119,39.5989,鄂尔多斯市,华泰汽车城,,39,39,30,17,15,61,,104,93,24,17,7,8,0.6,0.5
2025-08-29T2200,1595A,109.9734,39.7884,鄂尔多斯市,奥林花园,颗粒物(PM10),52,53,40,24,18,83,,110,106,26,30,10,7,0.8,0.6
2025-08-29T2200,2436A,114.8938,30.3994,鄂州市,市政府,,40,40,38,20,16,53,,134,101,18,22,7,11,0.8,0.7
2025-08-29T2200,2437A,114.8989,30.3714,鄂州市,赵家坝,颗粒物(PM10),51,51,47,25,15,67,,138,115,8,13,9,11,0.8,0.9
2025-08-29T2200,3654A,114.8094,30.4089,鄂州市,精准医疗中心,颗粒物(PM10),52,53,37,32,20,49,,145,107,19,22,7,9,1.0,0.9
2025-08-29T2200,2454A,109.4978,30.2981,恩施土家族苗族自治州,湖北民院,,43,31,22,30,18,62,,96,78,9,8,5,5,0.4,0.3
2025-08-29T2200,2455A,109.4707,30.2798,恩施土家族苗族自治州,州电力总公司,,28,,20,19,17,60,,92,77,5,6,5,5,0.4,0.3
2025-08-29T2200,3549A,109.5061,30.3772,恩施土家族苗族自治州,龙凤新区,,38,32,18,26,12,70,,99,82,2,3,4,4,0.4,0.3
2025-08-29T2200,2499A,108.3411,21.6158,防城港市,沙万,,36,36,19,22,12,62,,58,58,13,11,3,3,0.5,0.5
2025-08-29T2200,2500A,108.3514,21.7731,防城港市,防城档案局,,40,40,37,22,14,48,,47,47,18,15,3,2,0.7,0.6
2025-08-29T2200,2501A,108.3506,21.6414,防城港市,大海花园,,34,34,17,23,15,70,,70,70,13,9,4,4,0.5,0.5
2025-08-29T2200,1371A,113.1294,23.0067,佛山市,湾梁,,20,19,29,14,33,20,,114,70,21,29,6,7,0.4,0.5
2025-08-29T2200,1372A,113.1083,23.0478,佛山市,华材职中,,19,17,28,13,15,24,,117,74,13,18,3,4,0.5,0.6
2025-08-29T2200,1373A,113.144,23.0453,佛山市,南海气象局,,24,24,30,11,17,22,,116,70,15,21,5,6,0.5,0.5
2025-08-29T2200,1374A,113.2881,22.8094,佛山市,顺德苏岗,,18,18,29,7,10,21,,99,57,17,25,6,6,0.4,0.5
2025-08-29T2200,1376A,112.8383,22.8678,佛山市,高明孔堂,,17,17,34,9,21,27,,139,91,12,14,3,3,0.7,0.8
2025-08-29T2200,1377A,112.8836,23.1588,佛山市,三水监测站,,19,19,36,8,22,11,,104,71,24,27,4,4,0.4,0.5
2025-08-29T2200,1378A,112.867,23.185,佛山市,三水云东海,,29,29,36,11,21,4,,121,80,29,21,1,2,0.5,0.7
2025-08-29T2200,3625A,113.2544,22.7642,佛山市,容桂街道办,,14,14,24,9,13,19,,106,57,20,24,6,7,0.6,0.6
2025-08-29T2200,1280A,119.3903,26.0543,福州市,鼓山,,,,9,,4,,,35,,,4,,1,,0.1
2025-08-29T2200,1282A,119.2681,26.0504,福州市,师大,,10,10,14,3,1,31,,51,43,5,5,5,5,0.2,0.2
2025-08-29T2200,1283A,119.2984,26.1028,福州市,五四北路,,17,17,16,3,3,31,,50,42,8,7,5,4,0.2,0.2
2025-08-29T2200,1284A,119.2648,26.0768,福州市,杨桥西路,,12,12,15,3,3,32,,53,44,5,6,4,4,0.2,0.2
2025-08-29T2200,1285A,119.317,26.0746,福州市,紫阳,,10,10,16,3,2,32,,47,42,3,5,5,5,0.2,0.2
2025-08-29T2200,3048A,119.5799,26.0936,福州市,九龙,,15,13,11,3,0,45,,44,43,4,4,5,4,0.2,0.2
2025-08-29T2200,3526A,119.5189,25.9664,福州市,吴航,,13,6,9,3,3,40,,42,42,4,3,4,4,0.2,0.2
2025-08-29T2200,1755A,123.7977,41.8491,抚顺市,望花区,颗粒物(PM10),64,78,28,42,17,6,,97,68,47,19,6,7,0.9,0.7
2025-08-29T2200,1756A,123.9161,41.8822,抚顺市,顺城区,颗粒物(PM10),52,54,32,27,19,8,,106,59,50,23,6,6,1.0,0.9
2025-08-29T2200,1757A,124.0436,41.8611,抚顺市,东洲区,,15,15,23,10,17,34,,104,79,10,9,4,5,0.8,0.9
2025-08-29T2200,1758A,123.9247,41.8642,抚顺市,新抚区,颗粒物(PM10),55,60,29,25,15,6,,99,50,41,18,5,6,1.0,0.8
2025-08-29T2200,1759A,124.0972,41.8961,抚顺市,大伙房水库,,,,24,29,32,34,,,,,,8,8,0.6,0.6
2025-08-29T2200,1760A,123.7086,41.8391,抚顺市,沈抚新城,颗粒物(PM10),77,104,38,26,15,12,,104,73,38,20,5,5,1.0,0.5
2025-08-29T2200,2376A,116.2127,28.0814,抚州市,桐源党溪,,34,34,27,23,12,24,,74,61,24,12,8,7,0.5,0.4
2025-08-29T2200,2377A,116.3544,27.9831,抚州市,市站,,31,31,22,13,9,44,,88,74,5,7,1,2,0.3,0.3
2025-08-29T2200,2378A,116.3565,27.963,抚州市,血防站,,38,31,22,26,12,45,,86,72,6,8,3,4,0.4,0.4
2025-08-29T2200,2379A,116.3564,28.0007,抚州市,采茶剧团,,33,33,24,16,10,37,,87,71,3,5,4,4,0.3,0.4
2025-08-29T2200,2380A,116.385,27.9647,抚州市,医学分院,,36,36,27,12,11,40,,86,70,4,10,3,5,0.6,0.6
2025-08-29T2200,2207A,121.6094,41.998,阜新市,工业园区,,34,34,30,20,15,55,,102,89,13,16,8,15,0.7,0.7
2025-08-29T2200,2208A,121.6697,42.0279,阜新市,长青街,,32,32,26,22,16,61,,99,87,14,16,13,12,0.7,0.6
2025-08-29T2200,2209A,121.6673,42.0705,阜新市,农业园区,颗粒物(PM10),54,58,33,17,13,67,,92,84,9,9,5,7,0.8,0.7
2025-08-29T2200,2210A,121.6717,42.0224,阜新市,东苑,,41,41,37,25,18,62,,98,88,18,18,11,14,0.7,0.6
2025-08-29T2200,2211A,121.6506,42.0498,阜新市,玉龙新城,,45,45,33,22,15,51,,90,78,14,17,9,12,0.8,0.7
2025-08-29T2200,2301A,115.8277,32.8929,阜阳市,市监测站,,25,,39,17,25,66,,111,72,20,23,4,5,0.3,0.4
2025-08-29T2200,2303A,115.8554,32.8605,阜阳市,开发区,,21,,39,14,19,66,,110,77,12,18,6,6,0.3,0.4
2025-08-29T2200,2875A,115.784,32.8892,阜阳市,阜阳职业技术学院,,24,6,32,6,16,76,,122,79,9,15,5,6,0.4,0.4
2025-08-29T2200,3468A,115.7901,32.8613,阜阳市,市规划展馆,,24,24,42,12,24,75,,120,75,10,18,3,3,0.4,0.5
2025-08-29T2200,3469A,115.836,32.9183,阜阳市,枣园社区,,20,19,42,12,24,64,,105,68,13,18,3,3,0.4,0.5
2025-08-29T2200,2669A,102.9099,34.9841,甘南藏族自治州,州政府,颗粒物(PM10),56,61,22,18,13,6,,82,67,41,13,4,3,0.6,0.4
2025-08-29T2200,3380A,102.8914,34.9617,甘南藏族自治州,甘肃民族师范学院,颗粒物(PM10),66,82,24,27,10,8,,94,76,41,14,4,4,0.4,0.3
2025-08-29T2200,2570A,101.9603,30.0475,甘孜藏族自治州,水桥子,,17,,7,6,5,54,,76,70,15,9,6,6,0.3,0.5
2025-08-29T2200,3065A,101.9533,29.9972,甘孜藏族自治州,州环保局,,21,6,6,3,5,65,,78,72,11,9,4,4,0.4,0.4
2025-08-29T2200,3414A,115.8347,28.932,赣江新区,桑海产业园,,38,34,27,26,16,64,,131,100,25,21,4,5,0.4,0.3
2025-08-29T2200,2362A,114.9017,25.9149,赣州市,通天岩,,19,19,23,11,10,35,,84,58,3,4,15,15,1.5,1.4
2025-08-29T2200,2363A,114.9367,25.8664,赣州市,地委,,28,28,24,14,15,29,,84,58,23,11,16,8,1.0,0.8
2025-08-29T2200,2364A,114.9461,25.8481,赣州市,气象台,,28,28,27,9,11,33,,75,55,20,13,7,8,0.5,0.5
2025-08-29T2200,2365A,114.9322,25.8333,赣州市,市图书馆,,23,19,20,16,13,42,,75,57,12,12,6,6,0.5,0.5
2025-08-29T2200,2366A,114.8905,25.8471,赣州市,华坚鞋城,,25,20,24,17,10,47,,77,55,14,13,6,7,0.5,0.5
2025-08-29T2200,3109A,115.0093,25.8613,赣州市,赣县区卫计委,,,,22,,12,,,72,54,20,11,7,6,0.4,0.5
2025-08-29T2200,2683A,106.2319,36.1417,固原市,马园,,,,,,,,,,,,,,,,
2025-08-29T2200,2684A,106.2792,36.0022,固原市,监测站,,24,23,10,7,7,74,,106,96,11,12,6,7,0.3,0.2
2025-08-29T2200,2685A,106.2375,36.0211,固原市,新区,,20,20,11,12,5,58,,96,83,10,10,7,8,0.3,0.2
2025-08-29T2200,3522A,106.2177,35.9959,固原市,原州区十五小,,30,30,11,15,7,50,,102,83,18,7,8,9,0.3,0.2
2025-08-29T2200,2543A,106.6308,30.5278,广安市,小平旧居,,,,,,,,,,,,,,,,
2025-08-29T2200,2544A,106.6303,30.4576,广安市,市委,,32,31,23,22,14,91,,128,120,10,9,8,7,0.3,0.2
2025-08-29T2200,2545A,106.6271,30.4663,广安市,友谊中学,,31,24,19,19,12,98,,132,125,11,9,9,6,0.6,0.5
2025-08-29T2200,2547A,106.6388,30.4551,广安市,广电花园,,35,35,23,18,13,86,,118,112,11,10,5,4,0.4,0.5
2025-08-29T2200,2902A,106.6351,30.4865,广安市,北辰小学,,30,30,24,19,13,90,,129,122,9,6,7,6,0.5,0.4
2025-08-29T2200,2523A,105.8945,32.4535,广元市,黑石坡,,18,8,7,3,7,57,,85,76,11,4,8,8,0.2,0.2
2025-08-29T2200,2524A,105.821,32.4444,广元市,老城,,29,10,12,6,6,91,,102,95,10,8,4,5,0.5,0.5
2025-08-29T2200,2526A,105.8628,32.4287,广元市,监测站,,24,9,12,3,6,74,,92,81,12,10,8,7,0.6,0.6
2025-08-29T2200,3617A,105.8047,32.4166,广元市,经开区,,25,6,7,3,3,80,,93,86,10,8,4,4,0.4,0.4
2025-08-29T2200,1345A,113.2347,23.1423,广州市,广雅中学,,31,31,34,15,18,8,,102,64,35,33,3,3,0.6,0.6
2025-08-29T2200,1346A,113.2612,23.105,广州市,市五中,,22,22,29,10,15,20,,111,75,22,25,5,6,0.4,0.4
2025-08-29T2200,1348A,113.3478,23.0916,广州市,广东商学院,,27,27,32,12,22,9,,112,76,34,31,4,5,0.4,0.4
2025-08-29T2200,1349A,113.4332,23.1047,广州市,市八十六中,,17,17,24,8,13,15,,100,65,34,31,4,4,0.4,0.5
2025-08-29T2200,1350A,113.3505,22.9483,广州市,番禺中学,,22,22,30,8,13,29,,116,65,11,18,6,7,0.5,0.5
2025-08-29T2200,1351A,113.2146,23.3916,广州市,花都师范,,42,42,31,15,17,16,,91,72,63,30,5,5,0.7,0.5
2025-08-29T2200,1352A,113.2597,23.1331,广州市,市监测站,,22,22,30,10,16,16,,102,65,22,30,5,6,0.3,0.5
2025-08-29T2200,1353A,113.5618,23.312,广州市,九龙镇镇龙,,21,21,21,8,11,33,,80,62,19,11,6,6,0.4,0.4
2025-08-29T2200,1354A,113.2765,23.1544,广州市,麓湖,,30,30,28,16,15,5,,96,57,45,31,2,2,0.4,0.4
2025-08-29T2200,1355A,113.443,23.3035,广州市,帽峰山森林公园,,21,21,13,7,7,36,,88,73,16,9,6,5,0.4,0.4
2025-08-29T2200,2846A,113.3221,23.1322,广州市,体育西,,29,29,31,18,17,10,,104,72,44,28,4,5,0.7,0.7
2025-08-29T2200,3298A,113.5717,23.5491,广州市,从化街口,,19,19,26,8,17,50,,80,74,13,14,7,7,0.6,0.6
2025-08-29T2200,3299A,113.3472,23.3692,广州市,白云竹料,,16,16,30,9,19,31,,81,72,31,19,4,4,0.4,0.5
2025-08-29T2200,3300A,113.2981,23.237,广州市,白云嘉禾,,32,32,30,22,16,4,,96,65,56,27,5,6,0.6,0.4
2025-08-29T2200,3301A,113.4256,23.1716,广州市,黄埔科学城,,31,31,27,15,16,1,,100,66,38,17,6,6,0.7,0.6
2025-08-29T2200,3302A,113.3942,23.0483,广州市,番禺大学城,,21,21,35,10,16,25,,113,71,18,32,8,10,0.4,0.5
2025-08-29T2200,3303A,113.4922,22.8168,广州市,南沙黄阁,,18,18,30,8,10,48,,104,64,7,16,5,5,0.2,0.3
2025-08-29T2200,3304A,113.5342,22.7896,广州市,南沙街,,27,27,29,7,9,49,,102,61,10,16,5,6,0.4,0.4
2025-08-29T2200,3443A,113.2902,23.5544,广州市,花都梯面,,22,22,25,8,15,22,,81,65,15,16,6,6,0.5,0.5
2025-08-29T2200,3445A,113.7858,23.7478,广州市,从化良口,,15,9,15,6,11,15,,68,54,29,8,4,4,0.4,0.4
2025-08-29T2200,3446A,113.8051,23.2614,广州市,增城荔城,,27,27,20,12,12,22,,73,55,14,8,8,8,0.5,0.4
2025-08-29T2200,2505A,109.568,23.1478,贵港市,德智高中,,,,,,,,,,,,,,,,
2025-08-29T2200,2506A,109.6047,23.0666,贵港市,江南子站,,44,44,34,20,20,62,,95,91,16,11,5,6,0.9,0.7
2025-08-29T2200,2508A,109.5669,23.1065,贵港市,荷城子站,,23,17,18,14,11,72,,96,93,9,9,3,4,0.5,0.5
2025-08-29T2200,3405A,109.5886,23.1172,贵港市,新世纪学校,,25,24,25,17,17,74,,106,99,11,11,1,2,0.5,0.5
2025-08-29T2200,4260A,109.5933,23.0951,贵港市,中山路155-3号,,34,34,28,20,17,78,,107,103,11,9,4,5,0.7,0.7
2025-08-29T2200,1439A,106.6899,26.5998,贵阳市,马鞍山,,22,22,16,3,2,40,,75,55,11,10,4,4,0.3,0.2
2025-08-29T2200,1441A,106.6243,26.6266,贵阳市,鉴湖路,,34,34,30,9,9,49,,78,50,18,12,4,4,0.2,0.2
2025-08-29T2200,1442A,106.7487,26.6343,贵阳市,燕子冲,,35,,16,24,17,37,,81,64,17,17,3,2,0.5,0.4
2025-08-29T2200,1443A,106.6555,26.4365,贵阳市,碧云窝,,31,31,30,12,11,13,,78,42,14,9,4,5,0.2,0.2
2025-08-29T2200,1445A,106.7109,26.6027,贵阳市,红边门,,28,27,22,19,16,52,,80,69,23,18,3,3,0.3,0.2
2025-08-29T2200,1446A,106.7164,26.5699,贵阳市,新华路,,22,22,20,9,8,51,,80,67,17,15,3,3,0.3,0.3
2025-08-29T2200,1447A,106.674,26.5424,贵阳市,太慈桥,,17,17,16,7,9,11,,82,50,17,14,3,4,0.1,0.1
2025-08-29T2200,1552A,106.805,26.3003,贵阳市,桐木岭,,31,31,28,19,16,36,,79,53,9,7,4,3,0.9,0.9
2025-08-29T2200,4230A,106.6882,26.5695,贵阳市,花果园大街66号,,26,,10,18,14,63,,77,64,13,11,4,4,0.4,0.3
2025-08-29T2200,4231A,106.6873,26.5169,贵阳市,漓江路57号,,32,31,23,22,14,24,,84,59,33,15,4,5,0.5,0.4
2025-08-29T2200,1862A,110.4144,25.3167,桂林市,电子科大尧山校区,,,,,,,,,,,,,,,,
2025-08-29T2200,1864A,110.3089,25.2708,桂林市,龙隐路小学,,24,24,25,7,17,52,,87,76,7,9,6,7,0.2,0.3
2025-08-29T2200,1865A,110.2869,25.2178,桂林市,八中,,31,31,29,12,14,55,,95,89,6,10,7,10,0.3,0.4
2025-08-29T2200,3531A,110.296,25.1253,桂林市,旅游学院,,22,22,21,7,16,46,,89,79,4,13,3,6,0.3,0.4
2025-08-29T2200,4222A,110.1835,25.2444,桂林市,环湖路276号,,29,29,33,14,21,52,,103,88,8,16,7,15,0.2,0.3
2025-08-29T2200,4301A,110.2803,25.2773,桂林市,信义路13号,,30,30,30,6,15,55,,99,92,7,11,7,9,0.5,0.5
2025-08-29T2200,2674A,100.2561,34.4714,果洛藏族自治州,玛沁县大武镇,,32,31,21,22,12,69,,113,98,4,2,15,15,0.4,0.4
2025-08-29T2200,1129A,126.5422,45.755,哈尔滨市,岭北,,,,,,,12,,12,12,14,17,14,15,0.5,0.5
2025-08-29T2200,1130A,126.561,45.8167,哈尔滨市,松北商大,,21,21,32,3,10,43,,66,60,14,20,6,6,0.5,0.3
2025-08-29T2200,1131A,126.979,45.5419,哈尔滨市,阿城会宁,,25,25,28,16,14,40,,71,63,9,17,9,10,0.5,0.5
2025-08-29T2200,1132A,126.599,45.7222,哈尔滨市,南岗学府路,,26,26,27,9,8,49,,80,74,17,11,8,7,0.6,0.6
2025-08-29T2200,1133A,126.689,45.7733,哈尔滨市,太平宏伟公园,,22,22,23,8,7,50,,77,72,18,20,8,7,0.5,0.5
2025-08-29T2200,1134A,126.635,45.7667,哈尔滨市,道外承德广场,,50,50,32,9,9,38,,67,60,24,18,7,6,0.5,0.5
2025-08-29T2200,1135A,126.685,45.7319,哈尔滨市,香坊红旗大街,,34,34,21,20,12,43,,77,68,28,22,11,11,0.5,0.5
2025-08-29T2200,1136A,126.6411,45.7258,哈尔滨市,动力和平路,,,30,27,,9,48,,79,72,19,18,6,7,0.4,0.5
2025-08-29T2200,1137A,126.593,45.7478,哈尔滨市,道里建国路,,31,31,23,12,11,44,,71,65,20,18,10,9,0.5,0.5
2025-08-29T2200,1138A,126.615,45.61,哈尔滨市,平房东轻厂,,20,20,27,9,10,44,,71,64,13,22,7,8,0.4,0.4
2025-08-29T2200,1139A,126.595,45.9855,哈尔滨市,呼兰师专,,19,16,19,3,5,58,,75,69,13,16,9,10,0.4,0.4
2025-08-29T2200,1140A,126.6206,45.6842,哈尔滨市,省农科院,,34,34,39,15,14,34,,69,58,28,23,4,6,0.5,0.5
2025-08-29T2200,2688A,93.5128,42.8172,哈密市,地区监测站,,47,47,60,3,21,73,,108,104,24,15,3,4,0.3,0.2
2025-08-29T2200,2689A,93.4961,42.8328,哈密市,哈密师范学校,,40,40,48,14,17,66,,112,106,26,25,4,5,0.3,0.3
2025-08-29T2200,2671A,100.9048,36.9639,海北藏族自治州,海晏县西海镇,,24,24,15,14,11,76,,123,112,6,4,5,6,0.4,0.4
2025-08-29T2200,3867A,102.0738,36.5056,海东市,平安区公安北苑,,36,36,26,7,13,90,,119,113,12,5,19,12,1.4,0.7
2025-08-29T2200,1409A,110.576,19.9507,海口市,东寨港,,14,14,14,6,8,35,,33,33,2,3,7,6,0.3,0.3
2025-08-29T2200,1410A,110.3232,20.0574,海口市,海南大学,,24,24,18,10,7,39,,35,35,1,3,2,2,0.3,0.4
2025-08-29T2200,1411A,110.283,20.0053,海口市,秀英海南医院,,26,26,16,8,7,36,,35,32,2,4,6,6,0.2,0.3
2025-08-29T2200,1412A,110.338,19.9969,海口市,海南师范大学,,24,24,19,8,8,37,,36,34,2,3,4,4,0.3,0.3
2025-08-29T2200,1413A,110.33,20.0356,海口市,龙华路环保局宿舍,,23,23,16,8,8,40,,37,36,2,5,5,5,0.2,0.2
2025-08-29T2200,3539A,110.5111,19.9736,海口市,桂林洋子站,,22,22,19,7,6,34,,32,32,4,4,3,3,0.2,0.2
2025-08-29T2200,2673A,100.6188,36.2866,海南藏族自治州,共和县恰卜恰镇,,35,35,28,6,7,86,,126,119,11,10,12,11,0.3,0.4
2025-08-29T2200,2676A,97.3731,37.3753,海西蒙古族藏族自治州,德令哈市,,41,24,26,16,14,131,,134,134,1,2,11,12,0.3,0.4
2025-08-29T2200,1048A,114.5302,36.6116,邯郸市,东污水处理厂,,38,38,47,23,29,60,,98,93,22,25,11,18,1.4,1.2
2025-08-29T2200,1049A,114.4918,36.5713,邯郸市,矿院,,39,,38,27,31,56,,101,95,34,28,11,13,1.4,1.2
2025-08-29T2200,1050A,114.484,36.6133,邯郸市,丛台公园,,32,30,40,22,23,60,,101,94,30,27,16,20,1.6,1.3
2025-08-29T2200,3458A,114.7895,36.5593,邯郸市,香泉濮院小区,,,28,54,9,20,,,91,86,22,21,9,7,0.5,0.8
2025-08-29T2200,3579A,114.50634,36.77178,邯郸市,永年区实验高中,,43,43,41,10,19,63,,94,88,22,21,7,6,0.6,0.4
2025-08-29T2200,3580A,114.20016,36.44293,邯郸市,峰峰矿区临水派出所,,36,36,37,19,19,86,,96,95,23,16,19,13,1.2,0.9
2025-08-29T2200,2634A,106.9893,33.1842,汉中市,汉川机床厂子校,,21,21,12,11,5,58,,78,70,10,9,4,5,0.8,0.7
2025-08-29T2200,2635A,107.0154,33.0706,汉中市,市监测站,,17,11,9,3,3,54,,67,62,7,6,6,6,0.7,0.6
2025-08-29T2200,2636A,107.0089,33.1138,汉中市,鑫源开发区,,16,16,9,3,3,39,,70,50,11,8,6,6,0.7,0.6
2025-08-29T2200,2637A,107.007,33.0323,汉中市,南郑大河坎水厂,,16,16,9,3,4,47,,71,59,9,7,3,5,0.6,0.5
2025-08-29T2200,1223A,120.2072,30.2111,杭州市,滨江,,37,37,24,14,11,49,,124,108,31,18,7,8,0.4,0.4
2025-08-29T2200,1224A,120.0633,30.2747,杭州市,西溪,,25,25,21,13,12,61,,121,110,20,17,12,12,0.5,0.4
2025-08-29T2200,1226A,120.3417,30.3150,杭州市,下沙,,,27,21,12,10,,,118,112,,21,,7,,0.2
2025-08-29T2200,1227A,120.1269,30.2456,杭州市,卧龙桥,,24,24,21,13,11,44,,120,105,21,14,8,8,0.5,0.5
2025-08-29T2200,1228A,120.1903,30.2692,杭州市,浙江农大,,46,46,28,15,12,24,,101,81,50,18,6,6,0.5,0.4
2025-08-29T2200,1230A,120.1197,30.3119,杭州市,和睦小学,,26,26,21,12,12,53,,117,107,24,13,6,6,0.5,0.4
2025-08-29T2200,1231A,120.3019,30.4183,杭州市,临平镇,,35,35,31,12,12,36,,136,106,19,16,6,6,0.4,0.4
2025-08-29T2200,1232A,120.2753,30.1839,杭州市,城厢镇,,31,31,30,16,11,38,,110,96,35,13,9,8,0.6,0.5
2025-08-29T2200,1233A,120.0883,30.1808,杭州市,云栖,,22,22,20,8,11,40,,134,112,32,22,9,10,0.7,0.6
2025-08-29T2200,3557A,119.9464,30.0494,杭州市,镇二中,颗粒物(PM10),54,58,22,36,18,60,,103,98,35,26,6,5,0.6,0.6
2025-08-29T2200,3558A,119.7183,30.2367,杭州市,市府大楼,,28,25,22,14,10,88,,115,113,14,14,8,8,0.3,0.3
2025-08-29T2200,3656A,120.1556,30.2864,杭州市,消防大队,,30,30,22,18,13,48,,116,102,25,14,6,7,0.5,0.4
2025-08-29T2200,1270A,117.1959,31.7848,合肥市,明珠广场,,20,14,32,14,16,50,,110,68,14,35,6,7,0.5,0.6
2025-08-29T2200,1271A,117.3072,31.8764,合肥市,三里街,,27,27,34,14,17,50,,110,66,12,28,5,6,0.5,0.6
2025-08-29T2200,1272A,117.2588,31.8707,合肥市,琥珀山庄,,22,22,34,15,19,59,,120,59,11,23,8,8,0.5,0.6
2025-08-29T2200,1273A,117.1604,31.9052,合肥市,董铺水库,,29,29,32,14,19,43,,87,45,7,23,5,5,0.2,0.3
2025-08-29T2200,1274A,117.25,31.8571,合肥市,长江中路,,22,22,32,8,14,50,,114,56,12,20,7,8,0.4,0.5
2025-08-29T2200,1275A,117.266,31.9436,合肥市,庐阳区,,29,29,41,19,18,50,,111,55,12,36,5,6,0.4,0.6
2025-08-29T2200,1276A,117.3453,31.8616,合肥市,瑶海区,,27,27,37,10,15,54,,121,80,18,34,7,7,0.5,0.6
2025-08-29T2200,1277A,117.3027,31.7964,合肥市,包河区,,24,24,33,12,17,47,,110,70,20,45,9,10,0.5,0.7
2025-08-29T2200,1278A,117.2776,31.7385,合肥市,滨湖新区,,34,34,32,22,23,47,,126,84,23,21,4,4,0.5,0.6
2025-08-29T2200,1279A,117.1318,31.8403,合肥市,高新区,,24,24,36,16,18,48,,101,46,14,32,5,6,0.6,0.7
2025-08-29T2200,3464A,117.3803,31.9147,合肥市,高教基地,,29,29,32,19,18,52,,104,51,6,17,5,5,0.5,0.5
2025-08-29T2200,3614A,79.924,37.0877,和田地区,地区环保局,颗粒物(PM10),92,134,150,49,63,93,,118,116,21,12,3,3,0.2,0.1
2025-08-29T2200,3615A,79.9131,37.113,和田地区,市环保局,,,176,134,,36,18,,127,112,93,27,1,2,0.9,0.3
2025-08-29T2200,2516A,108.2011,24.715,河池市,东仁乐园,,,,,,,,,,,,,,,,
2025-08-29T2200,2517A,108.0497,24.6947,河池市,市环保站,,26,26,25,17,11,22,,75,59,18,12,4,5,0.7,0.5
2025-08-29T2200,2518A,108.0983,24.6989,河池市,市疾控中心,,30,28,21,21,14,19,,78,60,27,16,6,6,0.7,0.7
2025-08-29T2200,1696A,114.6778,23.7569,河源市,源西,,14,14,20,9,10,13,,69,50,23,13,5,5,0.9,0.9
2025-08-29T2200,1697A,114.6944,23.7586,河源市,东埔,,26,26,22,11,12,21,,70,53,25,13,4,5,0.9,0.8
2025-08-29T2200,1698A,114.6892,23.7233,河源市,老城,,26,26,23,8,13,23,,76,57,18,9,4,5,0.8,0.8
2025-08-29T2200,1718A,115.4208,35.2464,菏泽市,气象局,,46,46,28,25,18,97,,131,124,12,10,10,3,0.7,0.5
2025-08-29T2200,3374A,115.5564,35.0891,菏泽市,定陶老年大学,,,41,24,24,12,,,124,124,12,11,6,6,0.9,0.6
2025-08-29T2200,4184A,115.4797,35.24401,菏泽市,永昌路1号,,42,33,28,29,21,100,,134,127,9,7,12,8,0.7,0.5
2025-08-29T2200,4193A,115.4715,35.2800,菏泽市,长城路999号,,40,40,26,25,13,92,,126,120,14,11,12,8,0.8,0.5
2025-08-29T2200,2514A,111.5264,24.4172,贺州市,环保小区,,21,21,20,14,15,40,,74,56,9,9,12,14,0.6,0.5
2025-08-29T2200,2515A,111.5608,24.4078,贺州市,政协大楼,,26,26,19,16,13,48,,71,55,7,7,4,6,0.7,0.6
2025-08-29T2200,3534A,111.4744,24.4553,贺州市,西湾,,35,,24,24,13,33,,88,66,7,11,12,12,0.5,0.5
2025-08-29T2200,2385A,114.17,35.9019,鹤壁市,市监测站,,29,27,29,20,22,76,,94,89,8,5,10,7,0.8,0.7
2025-08-29T2200,2386A,114.2956,35.7511,鹤壁市,市交警支队,,29,26,27,20,24,72,,99,91,14,11,10,10,1.0,0.9
2025-08-29T2200,2387A,114.2878,35.7306,鹤壁市,迎宾馆,,36,31,30,25,22,71,,97,88,15,10,5,6,1.0,0.9
2025-08-29T2200,3474A,114.2617,35.6822,鹤壁市,大新区,,28,28,28,3,8,72,,96,91,10,9,9,7,1.0,0.8
2025-08-29T2200,3596A,114.1572,35.9603,鹤壁市,南山宾馆,,28,28,28,18,18,84,,95,92,7,7,6,5,0.4,0.7
2025-08-29T2200,2244A,130.2537,47.3416,鹤岗市,哈啤分公司,,46,46,32,14,12,26,,59,45,13,14,12,12,0.4,0.4
2025-08-29T2200,2245A,130.2684,47.3086,鹤岗市,斯达机电,,25,25,20,10,10,34,,57,46,13,12,12,12,0.4,0.4
2025-08-29T2200,2246A,130.3114,47.3388,鹤岗市,东山纸板厂,,23,,28,16,15,18,,56,36,18,16,14,14,0.6,0.6
2025-08-29T2200,2247A,130.1097,47.3382,鹤岗市,五号水库,,19,6,10,3,5,5,,62,41,38,37,6,6,0.2,0.2
2025-08-29T2200,2263A,127.4833,50.2524,黑河市,交通局,,19,16,27,7,9,60,,57,50,14,13,6,7,0.3,0.4
2025-08-29T2200,2264A,127.5144,50.2341,黑河市,环保局,,21,21,28,7,13,67,,65,58,9,13,4,5,0,0.5
2025-08-29T2200,2265A,127.5291,50.2472,黑河市,大黑河岛,,,,,12,9,43,,48,44,2,2,23,24,0.4,0.4
2025-08-29T2200,1074A,115.6838,37.7541,衡水市,电机北厂,,40,40,42,26,18,72,,111,87,10,17,13,11,0.5,0.5
2025-08-29T2200,1075A,115.6303,37.7316,衡水市,市监测站,,41,41,41,21,16,59,,103,77,11,18,6,6,0.6,0.6
2025-08-29T2200,3188A,115.6683,37.7217,衡水市,市城管局,,35,34,39,24,21,64,,106,83,11,19,6,6,0.5,0.6
2025-08-29T2200,3459A,115.5989,37.5491,衡水市,地表水厂,,49,49,52,17,21,67,,115,91,11,27,3,3,0.3,0.4
2025-08-29T2200,2456A,112.5003,26.9167,衡阳市,原169医院,,35,34,32,24,17,49,,121,83,4,6,1,6,0.5,0.6
2025-08-29T2200,2457A,112.6194,26.9258,衡阳市,衡阳化工总厂,,25,25,30,14,17,46,,93,67,12,10,3,5,0.8,0.8
2025-08-29T2200,2458A,112.6211,26.8956,衡阳市,珠晖区环保局,,27,27,26,14,15,27,,95,64,29,14,7,10,0.8,0.8
2025-08-29T2200,2459A,112.6197,26.8733,衡阳市,市委党校,,23,23,20,15,15,46,,89,71,14,11,11,14,0.5,0.5
2025-08-29T2200,2460A,112.6006,26.8919,衡阳市,市监测站,,42,42,28,26,21,48,,112,71,12,11,3,5,0.7,0.7
2025-08-29T2200,2461A,112.5664,26.9056,衡阳市,真空机电公司,,,,26,16,19,42,,95,64,15,10,3,3,1.0,0.9
2025-08-29T2200,3399A,112.6703,26.882,衡阳市,师范学院,,26,20,28,18,14,51,,88,71,14,9,11,11,0.7,0.7
2025-08-29T2200,2608A,103.3772,23.3993,红河哈尼族彝族自治州,污水处理厂,,33,32,21,23,17,42,,61,55,9,7,9,9,0.3,0.2
2025-08-29T2200,2609A,103.3861,23.35,红河哈尼族彝族自治州,监测站,,36,36,28,22,12,42,,60,55,6,3,9,10,0.2,0.1
2025-08-29T2200,3038A,103.3758,23.368,红河哈尼族彝族自治州,州图书馆,,24,24,11,16,16,45,,60,55,6,4,2,2,0.3,0.2
2025-08-29T2200,1090A,111.6507,40.7517,呼和浩特市,呼市一监,细颗粒物(PM2.5),53,44,28,37,23,62,,112,105,18,17,3,3,0.9,0.5
2025-08-29T2200,1091A,111.6572,40.8033,呼和浩特市,小召,"颗粒物(PM10),细颗粒物(PM2.5)",54,58,35,38,26,68,,105,100,26,23,5,5,0.5,0.5
2025-08-29T2200,1094A,111.7516,40.8369,呼和浩特市,如意水处理厂,颗粒物(PM10),51,51,37,32,25,51,,124,117,48,26,7,6,0.6,0.5
2025-08-29T2200,1095A,111.7276,40.8062,呼和浩特市,二十九中,细颗粒物(PM2.5),57,59,36,40,30,79,,126,122,21,20,6,6,0.7,0.7
2025-08-29T2200,1096A,111.5512,40.7866,呼和浩特市,工大金川校区,颗粒物(PM10),70,90,44,42,23,47,,106,97,35,26,28,7,0.7,0.6
2025-08-29T2200,1097A,111.717,40.7612,呼和浩特市,化肥厂生活区,细颗粒物(PM2.5),62,62,49,44,29,66,,122,115,32,21,6,6,0.5,0.4
2025-08-29T2200,3698A,111.5968,40.8178,呼和浩特市,红旗小学,颗粒物(PM10),63,75,40,36,23,39,,115,103,53,32,6,4,0.5,0.5
2025-08-29T2200,3699A,111.6518,40.8389,呼和浩特市,海东办,颗粒物(PM10),60,70,43,36,24,76,,126,122,26,26,7,6,0.6,0.6
2025-08-29T2200,2192A,119.7594,49.2261,呼伦贝尔市,区环保局,,30,27,19,21,15,36,,80,61,19,12,5,5,0.4,0.3
2025-08-29T2200,3061A,119.7512,49.1577,呼伦贝尔市,国华电力东,,18,18,17,8,9,54,,93,78,6,3,6,6,0.2,0.2
2025-08-29T2200,1250A,120.0751,30.8669,湖州市,城西水厂,,22,22,32,9,17,61,,154,128,20,21,8,8,0.4,0.4
2025-08-29T2200,2873A,120.0830,30.8929,湖州市,仁皇山新区,,23,23,32,9,15,60,,142,120,17,20,5,5,0.3,0.4
2025-08-29T2200,2907A,120.1844,30.8596,湖州市,吴兴区站,,23,23,27,8,15,48,,134,110,16,16,8,9,0.4,0.5
2025-08-29T2200,3562A,120.4148,30.8538,湖州市,南浔区站,,20,20,27,9,14,34,,119,92,17,13,7,6,0.6,0.6
2025-08-29T2200,1607A,120.9049,40.7211,葫芦岛市,龙港区,,42,,32,29,14,123,,134,133,6,11,5,10,0.7,0.7
2025-08-29T2200,1608A,120.8392,40.7514,葫芦岛市,化工街,,37,29,27,12,14,116,,121,120,10,26,4,6,0.7,0.7
2025-08-29T2200,1609A,120.8341,40.7073,葫芦岛市,新区,,38,33,31,22,21,120,,127,126,5,17,3,4,0.8,0.9
2025-08-29T2200,1610A,120.8695,40.7677,葫芦岛市,东城区,,39,,36,27,19,106,,127,124,18,25,4,7,0.9,0.9
2025-08-29T2200,2482A,109.5981,27.5721,怀化市,林科所,,35,35,30,19,12,34,,91,66,10,10,4,4,0.9,0.6
2025-08-29T2200,2483A,109.9453,27.5444,怀化市,河西地税局,,24,24,24,16,15,13,,83,60,16,11,2,2,0.2,0.2
2025-08-29T2200,2484A,109.9781,27.5342,怀化市,市四医院,,33,33,35,15,20,36,,101,76,15,13,5,6,0.1,0.1
2025-08-29T2200,2485A,109.9972,27.5578,怀化市,监测楼,,30,30,31,16,17,32,,98,74,17,14,4,5,0.2,0.2
2025-08-29T2200,2486A,110.0394,27.583,怀化市,市委党校,,36,36,35,17,21,34,,96,69,16,17,3,4,0.3,0.3
2025-08-29T2200,1210A,119.036,33.5981,淮安市,钵池山,,31,31,32,19,23,72,,151,124,18,18,4,5,0.6,0.7
2025-08-29T2200,1211A,119.007,33.575,淮安市,北京南路,,36,36,39,20,23,96,,157,140,20,20,8,8,0.6,0.6
2025-08-29T2200,1212A,118.989,33.6067,淮安市,市监测站,,36,36,41,24,24,101,,163,145,21,24,10,11,0.5,0.6
2025-08-29T2200,1213A,119.135,33.5039,淮安市,楚州区监测站,,39,39,50,18,22,96,,143,128,15,25,7,7,0.9,0.7
2025-08-29T2200,3426A,118.8755,33.2894,淮安市,新华书店,,34,33,32,20,19,108,,156,144,20,18,7,7,1.0,0.9
2025-08-29T2200,4206A,119.0288,33.6319,淮安市,承德北路606号,,46,46,45,17,26,72,,159,126,26,24,6,7,0.5,0.5
2025-08-29T2200,2282A,116.8004,33.975,淮北市,监测站,,31,,36,19,23,98,,147,98,7,14,6,7,0.6,0.8
2025-08-29T2200,2283A,116.8091,33.9007,淮北市,烈山区政府,,33,33,48,12,15,88,,144,102,8,11,8,8,0.5,0.6
2025-08-29T2200,3330A,116.8873,33.9836,淮北市,杜集区检察院,,23,20,43,14,26,71,,136,93,6,15,8,8,0.6,0.7
2025-08-29T2200,4017A,116.7923,33.9535,淮北市,市博物馆,,30,20,40,15,22,95,,153,98,7,14,6,10,0.5,0.6
2025-08-29T2200,2277A,116.8305,32.7727,淮南市,潘集区政府,,20,12,36,8,19,63,,129,88,20,13,4,3,0.2,0.3
2025-08-29T2200,2279A,116.8569,32.5951,淮南市,谢家集区政府,,21,14,31,7,14,67,,121,84,12,10,13,8,0.3,0.3
2025-08-29T2200,2280A,116.8281,32.633,淮南市,八公山区政府,,22,15,33,9,17,69,,120,81,10,12,6,7,0.3,0.4
2025-08-29T2200,2281A,116.6325,32.6201,淮南市,焦岗湖风景区管理处,,,,,,,,,,,,,,,,
2025-08-29T2200,2894A,117.0566,32.6531,淮南市,经济技术开发区消防队,,,18,34,7,8,,,126,96,7,16,8,9,0.2,0.3
2025-08-29T2200,3329A,117.0108,32.5893,淮南市,山南新区,,28,7,19,6,10,87,,117,89,7,10,4,5,0.4,0.4
2025-08-29T2200,4209A,117.0031,32.6445,淮南市,国庆中路369号,,27,,31,14,20,85,,135,98,6,8,4,5,0.4,0.4
2025-08-29T2200,2446A,114.9028,30.4742,黄冈市,职工中心,,38,37,28,26,20,48,,156,112,14,15,10,12,0.6,0.7
2025-08-29T2200,2929A,114.8858,30.4519,黄冈市,红卫路,,45,40,33,31,22,50,,149,106,17,20,8,11,0.5,0.6
2025-08-29T2200,3398A,114.9136,30.4445,黄冈市,市林业局,,46,43,38,32,23,60,,162,122,15,17,9,11,0.4,0.5
2025-08-29T2200,2672A,102.0199,35.5102,黄南藏族自治州,同仁县隆务镇,,20,17,16,7,5,64,,99,90,5,4,9,8,0.3,0.4
2025-08-29T2200,2295A,118.2903,29.6963,黄山市,延安路89号,,48,48,25,12,10,37,,98,77,7,7,4,4,0.4,0.3
2025-08-29T2200,2297A,118.1371,30.2756,黄山市,黄山区政府5号楼,颗粒物(PM10),51,51,23,22,15,43,,95,84,9,6,5,4,0.7,0.5
2025-08-29T2200,4210A,118.3354,29.7203,黄山市,滨江东路7-2号,,35,35,22,20,10,31,,88,70,13,8,3,2,0.4,0.3
2025-08-29T2200,2423A,115.0601,30.2313,黄石市,沈家营,颗粒物(PM10),57,63,50,18,16,77,,153,128,9,16,8,10,0.5,0.5
2025-08-29T2200,2426A,114.8988,30.2019,黄石市,铁山,,40,40,37,20,14,78,,133,110,10,14,9,8,0.7,0.8
2025-08-29T2200,2427A,115.0307,30.2092,黄石市,团城山,颗粒物(PM10),53,55,39,15,11,76,,142,124,15,17,10,9,1.3,0.8
2025-08-29T2200,3149A,115.0235,30.1578,黄石市,笔架山北路,,41,41,29,12,11,86,,135,116,8,8,7,6,0.5,0.5
2025-08-29T2200,4185A,115.0780,30.21118,黄石市,磁湖东路29号,颗粒物(PM10),53,56,46,17,19,80,,142,126,15,23,10,13,0.6,0.6
2025-08-29T2200,1392A,114.4183,23.0528,惠州市,河南岸金山湖子站,,18,18,20,6,10,44,,68,53,11,11,8,8,0.5,0.5
2025-08-29T2200,1393A,114.4053,23.0822,惠州市,下埔横江三路子站,,22,22,26,10,13,50,,74,55,8,11,5,6,0.3,0.3
2025-08-29T2200,1394A,114.4103,23.1142,惠州市,江北云山西路子站,,21,21,25,7,12,51,,78,59,8,12,9,10,0.5,0.5
2025-08-29T2200,1395A,114.4645,22.7833,惠州市,惠阳区承修路船湖子站,,23,23,22,8,9,53,,65,53,9,9,8,8,0.4,0.4
2025-08-29T2200,1396A,114.5317,22.7422,惠州市,大亚湾管委会子站,,22,22,19,7,8,63,,60,54,6,10,8,8,0.3,0.3
2025-08-29T2200,3314A,114.4338,22.8134,惠州市,惠阳秋长,,19,19,19,10,9,52,,74,58,10,10,5,7,0.5,0.5
2025-08-29T2200,3452A,114.6517,22.775,惠州市,大亚湾霞涌,,20,14,16,3,8,62,,61,56,5,8,6,6,0.6,0.5
2025-08-29T2200,2240A,130.9762,45.3001,鸡西市,环保局,,36,36,9,15,4,8,,46,26,26,11,6,7,0.8,0.6
2025-08-29T2200,2243A,130.9429,45.3039,鸡西市,第一中学,,45,45,12,28,6,4,,47,24,27,12,10,9,1.0,0.7
2025-08-29T2200,3707A,131.0207,45.3073,鸡西市,欧美日汽修厂,,35,35,16,11,5,1,,49,26,22,9,8,8,0.7,0.6
2025-08-29T2200,3709A,130.9967,45.3106,鸡西市,市政设施管理处,,38,38,9,14,4,2,,48,24,25,13,7,6,0.7,0.6
2025-08-29T2200,2367A,114.9754,27.0803,吉安市,红声器材厂,,33,33,26,8,12,55,,88,71,9,8,8,9,0.8,0.8
2025-08-29T2200,2368A,114.9658,27.0999,吉安市,市森林工业局,,31,31,24,16,11,61,,89,71,6,6,8,9,0.6,0.6
2025-08-29T2200,2369A,114.99,27.1312,吉安市,市环境监测站,,24,24,21,10,12,61,,92,73,7,5,10,12,0.5,0.5
2025-08-29T2200,2370A,115.0093,27.0968,吉安市,青原区法院,,28,28,24,12,14,43,,96,65,18,13,12,9,0.6,0.6
2025-08-29T2200,1772A,126.54,43.8622,吉林市,哈达湾,,18,17,20,12,12,54,,81,72,15,12,7,8,0.4,0.4
2025-08-29T2200,1773A,126.5844,43.8358,吉林市,东局子,,22,22,20,12,16,49,,75,66,15,17,6,6,0.8,0.7
2025-08-29T2200,1774A,126.5052,43.8245,吉林市,电力学院,,34,34,19,19,13,32,,78,62,20,12,6,6,0.6,0.6
2025-08-29T2200,1775A,126.6133,43.8972,吉林市,江北,,23,23,24,10,13,39,,68,55,7,14,5,5,0.6,0.6
2025-08-29T2200,1776A,126.555,43.8306,吉林市,江南公园,,20,20,20,12,16,44,,81,71,15,12,2,2,0.4,0.4
2025-08-29T2200,1778A,126.7061,43.7133,吉林市,丰满,,18,10,10,6,5,57,,96,77,3,4,4,5,0.5,0.5
2025-08-29T2200,2868A,126.4739,43.953,吉林市,九站,,22,22,20,15,12,41,,80,61,20,15,4,6,0.5,0.4
2025-08-29T2200,1299A,116.9862,36.6114,济南市,科干所,,33,29,35,20,20,103,,136,124,17,25,8,7,0.7,0.8
2025-08-29T2200,1300A,116.9376,36.665,济南市,农科所,,42,42,37,17,18,69,,131,107,33,35,9,9,0.5,0.5
2025-08-29T2200,1301A,117.1265,36.6734,济南市,开发区,,37,37,41,24,24,103,,158,135,19,28,9,9,0.8,0.8
2025-08-29T2200,1303A,117.0624,36.6868,济南市,省种子仓库,颗粒物(PM10),51,51,52,19,20,99,,153,133,24,37,5,7,0.8,0.9
2025-08-29T2200,1304A,116.9489,36.6447,济南市,机床二厂,,44,44,43,17,17,87,,127,111,28,35,12,11,0.7,0.6
2025-08-29T2200,1305A,117.0495,36.663,济南市,市监测站,,46,46,44,22,22,87,,142,125,29,35,11,11,1.0,1
2025-08-29T2200,1306A,116.7675,36.5484,济南市,长清党校,,39,39,28,10,16,55,,116,96,28,29,7,7,0.7,0.8
2025-08-29T2200,1616A,117.6795,36.229,济南市,技术学院,,35,29,31,24,23,78,,142,124,24,17,9,11,0.9,1
2025-08-29T2200,1961A,117.532,36.6868,济南市,东山小学,颗粒物(PM10),55,59,40,20,18,90,,169,143,26,24,6,7,0.4,0.5
2025-08-29T2200,3059A,117.7161,36.2049,济南市,泰兴公司,,24,24,30,12,20,43,,134,111,42,18,10,12,0.7,0.8
2025-08-29T2200,3064A,117.6867,36.2171,济南市,莱芜战役纪念馆,,32,22,31,22,22,66,,128,109,20,18,6,8,0.8,0.8
2025-08-29T2200,3494A,117.1673,36.9782,济南市,济阳区政府,颗粒物(PM10),52,54,42,27,20,62,,130,106,39,22,7,12,0.6,0.6
2025-08-29T2200,3495A,117.1171,36.63,济南市,锦屏中学,,37,37,33,15,15,84,,155,134,19,19,10,10,0.8,0.8
2025-08-29T2200,3682A,116.9814,36.6819,济南市,济南四建,,39,39,39,20,21,91,,140,119,24,34,6,8,0.9,0.9
2025-08-29T2200,1653A,116.6251,35.4302,济宁市,火炬城,,34,34,34,17,16,98,,132,125,7,8,4,4,0.5,0.4
2025-08-29T2200,1655A,116.5491,35.4042,济宁市,电化厂,,43,43,39,17,17,100,,148,133,16,12,5,3,1.0,1
2025-08-29T2200,3500A,116.5814,35.3707,济宁市,北湖一中,,40,40,36,20,18,105,,142,129,7,7,6,7,0.6,0.6
2025-08-29T2200,3501A,116.8249,35.5593,济宁市,服务中心,,33,33,25,16,7,80,,128,112,14,13,3,3,0.4,0.3
2025-08-29T2200,3678A,116.5907,35.4054,济宁市,市第七中学,,33,33,37,17,12,100,,139,128,10,8,7,6,0.7,0.6
2025-08-29T2200,2255A,130.2751,46.8028,佳木斯市,佳纺,,28,28,21,9,8,3,,48,30,26,12,10,10,0.5,0.5
2025-08-29T2200,2256A,130.3995,46.8307,佳木斯市,发电厂,颗粒物(PM10),68,86,38,16,10,24,,41,35,16,16,7,7,0.7,0.6
2025-08-29T2200,2257A,130.3258,46.7975,佳木斯市,环保局,,20,20,15,6,6,26,,48,42,19,10,7,8,0.5,0.5
2025-08-29T2200,2258A,130.3648,46.8032,佳木斯市,十一中,,35,35,18,18,9,26,,37,33,23,17,7,7,0.7,0.6
2025-08-29T2200,2259A,130.3794,46.7588,佳木斯市,四丰,,10,,7,7,4,0,,0,0,18,12,1,63,0.4,0.4
2025-08-29T2200,1252A,120.7436,30.778,嘉兴市,清河小学,,23,23,23,6,8,29,,99,79,18,13,7,6,0.6,0.6
2025-08-29T2200,1253A,120.726,30.7478,嘉兴市,嘉兴学院,,21,21,21,9,10,26,,106,85,16,10,6,5,0.6,0.6
2025-08-29T2200,2872A,120.7846,30.7525,嘉兴市,南湖区残联,,20,20,21,11,10,32,,108,85,18,13,8,7,0.6,0.6
2025-08-29T2200,3407A,120.6916,30.7739,嘉兴市,秀洲住建,,20,20,22,8,10,33,,109,91,17,12,8,7,0.6,0.5
2025-08-29T2200,1945A,98.2908,39.7711,嘉峪关市,气象局,颗粒物(PM10),500,911,57,105,9,107,,141,134,19,6,24,6,0.7,0.5
2025-08-29T2200,2884A,98.2672,39.7978,嘉峪关市,酒钢宾馆,,,,30,,12,,,156,155,20,8,45,18,0.7,0.6
2025-08-29T2200,3248A,98.2643,39.7724,嘉峪关市,雄关区,颗粒物(PM10),389,491,42,89,14,114,,137,133,17,11,23,11,0.6,0.5
2025-08-29T2200,1383A,113.1064,22.6058,江门市,北街,,16,16,37,3,18,16,,64,37,14,25,4,4,0.4,0.6
2025-08-29T2200,1384A,113.0731,22.5835,江门市,西区,,44,44,32,3,13,27,,95,54,10,27,8,8,0.4,0.5
2025-08-29T2200,1385A,113.0219,22.5311,江门市,圭峰西,,10,7,34,3,14,30,,88,54,5,17,3,3,0.3,0.4
2025-08-29T2200,1386A,113.0828,22.5947,江门市,东湖,,14,14,29,6,23,22,,84,48,12,25,5,6,0.4,0.6
2025-08-29T2200,3311A,113.1075,22.5647,江门市,江海富民,,34,34,55,6,26,23,,95,52,15,25,4,4,0.3,0.4
2025-08-29T2200,3449A,113.05,22.4667,江门市,新会银湖,,16,16,30,7,17,21,,76,48,10,23,2,2,0.2,0.4
2025-08-29T2200,1830A,113.1992,35.2590,焦作市,影视城,,,,29,,16,,,71,,,9,,9,,0.7
2025-08-29T2200,3335A,113.3137,35.2641,焦作市,马村街道办,,31,31,37,16,21,88,,112,104,11,12,1,3,0.8,0.7
2025-08-29T2200,3336A,113.2465,35.2373,焦作市,焦作技师学院,,27,25,39,12,14,86,,107,98,12,15,7,8,0.9,0.9
2025-08-29T2200,3477A,113.1656,35.2539,焦作市,中站许衡医院,,36,34,34,25,29,92,,99,96,13,18,5,8,0.9,0.7
2025-08-29T2200,3981A,113.2449,35.1803,焦作市,原李万街道办,,38,38,33,12,14,98,,108,103,9,12,10,11,0.8,0.6
2025-08-29T2200,4264A,113.2340,35.2190,焦作市,新安路1731号,,33,33,35,17,18,97,,108,102,8,12,4,6,0.9,0.7
2025-08-29T2200,4295A,113.2722,35.2121,焦作市,人民路3066号,,29,25,41,18,22,90,,113,102,6,10,2,4,0.6,0.4
2025-08-29T2200,1708A,116.3701,23.5345,揭阳市,新兴,,20,18,31,14,15,50,,89,79,9,11,6,8,0.3,0.4
2025-08-29T2200,1709A,116.3264,23.5443,揭阳市,西马,,27,27,34,7,14,54,,92,84,7,11,4,5,0.4,0.5
2025-08-29T2200,1710A,116.3611,23.5626,揭阳市,东兴,,20,20,41,12,15,48,,90,81,9,11,7,10,0.4,0.4
2025-08-29T2200,1711A,116.4151,23.5294,揭阳市,渔湖,,20,14,30,14,14,52,,98,87,4,6,9,10,0.5,0.6
2025-08-29T2200,3320A,116.403,23.5699,揭阳市,曲溪,,34,34,33,15,17,50,,101,89,8,10,3,4,0.6,0.6
2025-08-29T2200,1944A,102.1692,38.5167,金昌市,天庆家园,颗粒物(PM10),67,83,44,18,16,51,,124,110,33,18,18,9,0.0,0.8
2025-08-29T2200,4022A,102.1647,38.5371,金昌市,金川区人防中心,,,44,38,9,10,69,,127,114,14,15,12,15,,0.6
2025-08-29T2200,4239A,102.1930,38.5319,金昌市,长春路96号,颗粒物(PM10),65,79,46,19,17,74,,134,124,35,19,10,22,0.9,0.7
2025-08-29T2200,1262A,119.647,29.077,金华市,十五中,,21,21,19,10,9,61,,75,67,15,11,4,4,0.3,0.3
2025-08-29T2200,1263A,119.686,29.1029,金华市,监测站,,25,25,18,11,8,52,,85,76,15,11,5,4,0.3,0.3
2025-08-29T2200,3659A,119.656,29.1131,金华市,气象局,,23,23,16,3,6,60,,86,79,12,8,3,2,0.3,0.3
2025-08-29T2200,1767A,121.1115,41.0879,锦州市,南山,,30,,28,21,14,50,,113,101,26,15,3,6,0.9,0.7
2025-08-29T2200,1768A,121.0604,40.8428,锦州市,开发区,,38,35,39,15,18,119,,124,122,13,29,3,14,0.9,0.9
2025-08-29T2200,1769A,121.1836,41.1119,锦州市,百股街道,,25,6,27,3,10,79,,127,116,10,14,4,12,0.7,0.8
2025-08-29T2200,1770A,121.1178,41.1222,锦州市,天安街道,细颗粒物(PM2.5),57,,33,40,18,59,,129,112,36,26,9,13,1.0,1
2025-08-29T2200,1771A,121.1303,41.1386,锦州市,北湖公园,,25,,30,17,18,55,,110,99,12,14,5,10,0.8,0.8
2025-08-29T2200,2160A,112.85,35.5051,晋城市,自来水公司,,43,43,28,17,13,59,,96,92,18,15,3,2,0.5,0.5
2025-08-29T2200,2161A,112.8318,35.4936,晋城市,白云商贸,,37,37,29,9,9,59,,88,84,19,14,3,3,0.6,0.6
2025-08-29T2200,2162A,112.8508,35.4887,晋城市,市环保局,,27,27,21,12,13,55,,83,80,16,12,2,3,0.6,0.6
2025-08-29T2200,2163A,112.8676,35.4897,晋城市,技术学院,,28,28,26,9,10,73,,81,81,15,13,5,4,0.9,0.8
2025-08-29T2200,2165A,112.8453,35.546,晋城市,白马寺,,31,18,16,15,16,98,,100,100,6,7,7,7,0.6,0.7
2025-08-29T2200,3620A,112.8271,35.4828,晋城市,泽州一中,,,23,25,7,11,,,93,93,18,13,2,3,0.8,0.7
2025-08-29T2200,2173A,112.7249,37.7067,晋中市,南都小区,,45,45,50,29,27,98,,114,114,17,30,7,13,0.8,0.8
2025-08-29T2200,2174A,112.6991,37.6982,晋中市,榆次区政府,颗粒物(PM10),51,51,54,25,26,77,,108,108,20,27,7,11,0.7,0.9
2025-08-29T2200,2865A,112.7195,37.6828,晋中市,榆次三中,颗粒物(PM10),54,58,54,17,22,94,,117,116,15,27,10,16,0.9,0.9
2025-08-29T2200,4200A,112.7478,37.6954,晋中市,迎宾街26号,,46,46,49,24,19,97,,118,117,17,30,11,14,0.7,0.8
2025-08-29T2200,2439A,112.2014,31.0481,荆门市,竹园小学,,32,32,37,20,22,68,,123,103,9,11,2,2,1.1,0.8
2025-08-29T2200,2440A,112.1969,30.9891,荆门市,掇刀,,29,29,36,19,23,89,,138,122,14,20,2,1,0.7,0.6
2025-08-29T2200,2441A,112.2213,31.0386,荆门市,石化一小,,36,36,43,16,22,73,,128,106,15,16,5,5,0.5,0.5
2025-08-29T2200,3012A,112.1849,31.0362,荆门市,西山林语,,32,32,35,16,20,90,,132,118,7,8,2,2,0.4,0.5
2025-08-29T2200,3547A,112.1632,31.0138,荆门市,龙泉中学南校,,33,27,31,12,22,103,,138,118,2,9,2,3,0.8,0.7
2025-08-29T2200,1844A,112.2494,30.3197,荆州市,市图书馆,颗粒物(PM10),51,52,33,28,22,63,,125,104,16,13,4,4,0.6,0.6
2025-08-29T2200,1845A,112.2008,30.3544,荆州市,市委党校,,36,36,31,23,23,60,,124,99,10,11,5,6,0.5,0.5
2025-08-29T2200,3194A,112.2747,30.3122,荆州市,管委会,颗粒物(PM10),59,68,32,39,21,54,,116,95,17,12,2,3,0.7,0.6
2025-08-29T2200,4268A,112.1722,30.3366,荆州市,学苑路85号,,,,33,,27,65,,131,106,,7,6,6,0.4,0.4
2025-08-29T2200,2342A,117.3102,29.3867,景德镇市,王港中学,,,,,,,,,,,,,,,,
2025-08-29T2200,2343A,117.2117,29.2933,景德镇市,老干部活动中心,,38,38,24,22,14,61,,113,83,16,14,9,9,0.7,0.6
2025-08-29T2200,2344A,117.1894,29.2789,景德镇市,兽医站,,36,34,29,25,14,50,,119,85,22,14,9,7,0.8,0.8
2025-08-29T2200,2346A,117.2461,29.2956,景德镇市,陶研所,,26,26,23,12,12,54,,111,83,6,10,6,6,0.6,0.7
2025-08-29T2200,4289A,117.1542,29.2566,景德镇市,青少年活动中心,颗粒物(PM10),70,89,34,31,19,23,,114,74,46,21,51,13,0.6,0.5
2025-08-29T2200,1803A,115.9872,29.6815,九江市,十里,细颗粒物(PM2.5),52,39,26,36,20,78,,139,108,19,20,6,6,0.7,0.5
2025-08-29T2200,1804A,115.9584,29.7046,九江市,茅山头,,42,42,27,24,19,69,,145,109,24,18,5,4,0.6,0.4
2025-08-29T2200,1805A,115.9877,29.7295,九江市,西园,,27,27,23,17,15,61,,151,108,46,35,14,9,0.7,0.6
2025-08-29T2200,1808A,115.9114,29.6038,九江市,综合工业园,颗粒物(PM10),55,59,26,33,17,48,,141,103,33,27,8,7,0.9,0.7
2025-08-29T2200,1809A,116.0721,29.7535,九江市,石化总厂,,43,40,23,30,15,45,,123,94,48,31,8,8,0.5,0.5
2025-08-29T2200,1810A,115.9773,29.5698,九江市,庐山气象台,,34,16,10,3,5,106,,112,110,7,4,6,6,1.1,0.9
2025-08-29T2200,3190A,116.0254,29.6994,九江市,外国语学校,,45,,18,31,19,65,,125,100,29,16,6,5,0.2,0.3
2025-08-29T2200,4253A,116.0102,29.6594,九江市,莲花大道8号,细颗粒物(PM2.5),57,56,18,40,15,56,,105,81,18,6,6,6,0.7,0.5
2025-08-29T2200,4240A,98.4958,39.7339,酒泉市,玉门东路5号,颗粒物(PM10),364,471,51,69,23,105,,150,143,28,11,9,10,0.4,0.3
2025-08-29T2200,4241A,98.5099,39.7506,酒泉市,北大街108号,颗粒物(PM10),388,490,46,71,16,83,,143,134,33,10,11,14,0.5,0.3
2025-08-29T2200,2698A,76.0072,39.4467,喀什地区,巡警大队,颗粒物(PM10),83,116,186,56,68,82,,125,121,42,45,4,5,0.4,0.5
2025-08-29T2200,2699A,75.9755,39.4694,喀什地区,吾办,颗粒物(PM10),85,120,187,39,65,73,,129,123,43,38,3,4,0.6,0.5
2025-08-29T2200,4027A,75.9483,39.4689,喀什地区,老干局,颗粒物(PM10),70,90,120,31,32,86,,133,128,30,26,5,5,0.5,0.4
2025-08-29T2200,1824A,114.3389,34.7781,开封市,肿瘤医院,,34,34,36,20,20,88,,132,118,14,14,5,4,1.1,0.8
2025-08-29T2200,1826A,114.2885,34.7965,开封市,世纪星幼儿园,,29,29,34,16,29,89,,133,120,10,11,5,5,1.1,0.9
2025-08-29T2200,3147A,114.3438,34.8106,开封市,龙亭公园,,29,25,32,20,26,82,,126,112,13,11,6,5,1.3,1
2025-08-29T2200,3210A,114.3644,34.7964,开封市,汴京公园,,34,34,36,14,25,86,,137,123,11,9,5,4,0.9,0.7
2025-08-29T2200,3473A,114.2485,34.8306,开封市,技师学院,,27,,33,16,26,84,,127,114,11,10,7,6,1.1,1
2025-08-29T2200,3592A,114.4644,34.7556,开封市,祥符区生态环境局,,31,31,31,15,21,84,,118,106,14,15,6,4,1.0,0.8
2025-08-29T2200,1951A,84.895,45.6094,克拉玛依市,长征新村,,48,47,25,33,10,42,,95,88,54,11,4,4,0.7,0.2
2025-08-29T2200,1952A,84.8988,45.5893,克拉玛依市,南林小区,颗粒物(PM10),90,130,37,38,7,6,,92,69,78,21,11,7,0.5,0.1
2025-08-29T2200,1954A,84.905,44.3396,克拉玛依市,独山子区,,,31,27,8,8,37,,93,85,36,14,,7,0.4,0.2
2025-08-29T2200,1955A,85.6979,46.098,克拉玛依市,乌尔禾区商贸楼,颗粒物(PM10),65,80,21,19,6,50,,91,80,30,15,3,3,0.4,0.3
2025-08-29T2200,3612A,85.1045,45.6899,克拉玛依市,白碱滩区新站,,49,49,40,22,10,58,,101,93,24,6,9,10,0.3,0.2
2025-08-29T2200,2697A,76.1454,39.7142,克孜勒苏柯尔克孜自治州,市人民政府,颗粒物(PM10),79,108,98,33,38,55,,130,119,49,15,4,6,0.5,0.1
2025-08-29T2200,3665A,76.1658,39.7157,克孜勒苏柯尔克孜自治州,克州文化中心,颗粒物(PM10),96,142,94,28,32,90,,123,118,24,13,7,9,0.3,0.2
2025-08-29T2200,1450A,102.8204,24.8886,昆明市,呈贡新区,,23,,4,13,11,73,,64,64,6,10,2,3,0.3,0.3
2025-08-29T2200,1451A,102.6251,24.9608,昆明市,西山森林公园,,,,,,,,,,,,,,,,
2025-08-29T2200,1452A,102.7252,25.0902,昆明市,龙泉镇,,29,29,16,13,7,51,,69,67,11,12,2,2,0.4,0.3
2025-08-29T2200,1453A,102.7266,25.0375,昆明市,东风东路,,29,29,21,11,10,51,,66,64,18,18,3,3,0.3,0.3
2025-08-29T2200,1454A,102.6742,25.0669,昆明市,金鼎山,,20,20,18,3,7,56,,64,62,8,11,1,2,0.3,0.3
2025-08-29T2200,1455A,102.6644,25.0401,昆明市,碧鸡广场,,37,37,20,21,8,46,,62,58,20,14,9,7,0.4,0.4
2025-08-29T2200,3179A,102.7494,25.0119,昆明市,官渡区博物馆,,27,27,15,9,8,48,,62,59,21,20,3,2,0.5,0.5
2025-08-29T2200,3375A,102.8017,24.8336,昆明市,青年创业园,,21,11,11,10,7,66,,63,62,7,5,3,2,0.3,0.3
2025-08-29T2200,3550A,102.7997,24.9786,昆明市,昆明学院,,,,13,,9,58,,64,64,12,10,,7,0.4,0.2
2025-08-29T2200,3551A,102.5967,24.6736,昆明市,晋宁区生态环境分局,,,23,14,,7,54,,68,67,11,9,2,3,0.3,0.3
2025-08-29T2200,3552A,102.6678,24.9856,昆明市,云天化总部,,25,25,14,16,9,52,,65,63,14,10,3,4,0.4,0.4
2025-08-29T2200,1456A,91.1319,29.6514,拉萨市,八廓街,,21,21,10,11,7,66,,95,90,26,15,5,5,0.4,0.3
2025-08-29T2200,1457A,91.1221,29.6747,拉萨市,市环保局,,21,12,8,11,6,65,,94,88,18,14,6,7,0.4,0.3
2025-08-29T2200,1458A,91.0874,29.6475,拉萨市,区监测站,,19,13,6,9,6,60,,91,86,35,19,3,3,0.4,0.2
2025-08-29T2200,1459A,91.1774,29.6541,拉萨市,西藏大学,,22,16,7,8,6,70,,92,89,27,17,6,6,0.4,0.4
2025-08-29T2200,1460A,90.9798,29.6588,拉萨市,区辐射站,,28,28,11,14,7,45,,82,76,47,28,6,5,0.4,0.4
2025-08-29T2200,1461A,91.0834,29.6292,拉萨市,拉萨火车站,,25,25,8,10,6,56,,92,87,38,16,5,5,0.4,0.3
2025-08-29T2200,2520A,109.2203,23.7256,来宾市,来宾技工学校,,30,30,30,16,15,49,,85,77,10,10,8,8,0.6,0.6
2025-08-29T2200,3535A,109.1781,23.7297,来宾市,兴宾区政府,,28,28,22,19,14,46,,88,75,10,8,7,7,0.5,0.6
2025-08-29T2200,4002A,109.2416,23.7461,来宾市,中南小学,,28,28,29,7,14,43,,92,83,22,14,8,9,0.5,0.5
2025-08-29T2200,1477A,104.1373,35.9454,兰州市,榆中兰大校区,,,,,,,,,,,,,,,,
2025-08-29T2200,1479A,103.831,36.0464,兰州市,铁路设计院,颗粒物(PM10),64,78,38,37,26,3,,111,83,104,39,10,10,1.3,0.8
2025-08-29T2200,3241A,103.7439,36.0842,兰州市,百合公园,,50,50,30,21,16,19,,133,113,79,24,8,5,0.4,0.6
2025-08-29T2200,3242A,103.9611,35.998,兰州市,和平,,34,34,19,14,8,49,,110,95,10,13,7,7,0.2,0.3
2025-08-29T2200,4236A,103.6293,36.0938,兰州市,庄浪东路808号,颗粒物(PM10),52,54,45,28,26,28,,189,120,87,40,11,12,0.4,0.4
2025-08-29T2200,4237A,103.7251,36.1043,兰州市,安宁西路88号,,45,44,34,31,27,72,,164,148,28,18,3,3,0.4,0.4
2025-08-29T2200,4238A,103.8470,36.0676,兰州市,北滨河东路1号,颗粒物(PM10),56,61,28,27,21,7,,131,103,89,30,8,10,0.6,0.6
2025-08-29T2200,3245A,103.6633,36.533,兰州新区,新区管委会,,,28,24,15,17,68,,116,108,19,12,10,11,,0.3
2025-08-29T2200,3246A,103.6975,36.4789,兰州新区,舟曲中学,,26,17,18,10,13,82,,121,116,25,12,8,12,0.4,0.4
2025-08-29T2200,1067A,116.6708,39.5111,廊坊市,药材公司,,41,41,38,26,22,6,,78,61,45,23,4,4,0.7,0.5
2025-08-29T2200,1068A,116.7214,39.5589,廊坊市,开发区,,46,46,41,21,19,30,,69,64,22,24,3,2,0.6,0.5
2025-08-29T2200,1070A,116.7244,39.5269,廊坊市,北华航天学院,,50,50,35,35,27,18,,85,65,35,27,3,3,0.8,0.6
2025-08-29T2200,2919A,116.7022,39.5453,廊坊市,河北工业大学,细颗粒物(PM2.5),53,,31,37,21,36,,82,77,35,25,2,2,0.8,0.5
2025-08-29T2200,2535A,103.7723,29.5462,乐山市,花湖湾,,22,15,9,13,6,69,,78,78,14,8,8,7,0.2,0.2
2025-08-29T2200,2536A,103.7627,29.5844,乐山市,牛耳桥,,17,11,9,6,5,53,,78,74,21,11,5,5,0.5,0.4
2025-08-29T2200,2537A,103.7508,29.6006,乐山市,市第三水厂,,18,11,8,3,4,56,,78,75,22,11,3,3,0.5,0.5
2025-08-29T2200,2538A,103.7571,29.5664,乐山市,市监测站,,19,10,4,10,8,60,,69,69,13,8,6,5,0.6,0.6
2025-08-29T2200,3361A,103.7311,29.5628,乐山市,理工大学,,14,,6,8,5,43,,69,65,15,8,8,7,0.6,0.7
2025-08-29T2200,2598A,100.2143,26.8576,丽江市,西南郊,,12,6,8,3,4,38,,54,47,12,8,6,6,0.8,0.5
2025-08-29T2200,2599A,100.2497,26.8802,丽江市,丽江古城,,22,22,13,7,5,26,,52,44,18,11,10,9,0.7,0.6
2025-08-29T2200,2600A,100.2203,26.8906,丽江市,市中心,,18,,6,12,7,29,,53,44,16,12,10,9,0.6,0.5
2025-08-29T2200,1267A,119.914,28.4514,丽水市,监测站大楼,,20,20,16,6,6,58,,71,71,10,8,4,4,0.4,0.4
2025-08-29T2200,1268A,119.93,28.4586,丽水市,莲都小学,,19,19,15,3,3,60,,76,76,9,8,4,4,0.3,0.3
2025-08-29T2200,1269A,119.879,28.4231,丽水市,余庄前,,19,18,11,13,6,57,,70,69,10,7,6,5,0.1,0.3
2025-08-29T2200,1173A,119.176,34.5885,连云港市,市环境监测站,,36,36,37,22,21,75,,166,131,19,14,3,3,0.5,0.4
2025-08-29T2200,3000A,119.3581,34.6972,连云港市,德源药业,,29,29,44,14,23,79,,172,117,29,29,5,6,0.7,0.6
2025-08-29T2200,3007A,119.178,34.844,连云港市,新城一中,,38,32,31,20,19,120,,173,143,17,16,4,4,1.0,1
2025-08-29T2200,3008A,119.3608,34.7519,连云港市,胡沟管理处,,39,39,28,19,16,66,,187,164,48,21,11,12,0.8,0.8
2025-08-29T2200,3009A,119.1478,34.5911,连云港市,矿山设计院,,28,27,34,19,20,84,,164,124,17,14,6,9,0.8,0.8
2025-08-29T2200,3434A,119.2413,34.6539,连云港市,工贸学校,,42,35,30,29,22,80,,155,122,16,9,7,7,1.2,0.9
2025-08-29T2200,3664A,119.4172,34.7341,连云港市,连云街道,,32,25,37,13,19,101,,188,163,11,20,6,5,0.9,0.9
2025-08-29T2200,2571A,102.3431,27.8099,凉山彝族自治州,青龙寺,细颗粒物(PM2.5),95,,15,71,26,18,,78,48,12,4,2,2,0.4,0.6
2025-08-29T2200,2572A,102.2721,27.8415,凉山彝族自治州,邛海宾馆,,15,12,12,10,9,45,,76,69,8,7,7,7,0.4,0.5
2025-08-29T2200,2573A,102.2625,27.898,凉山彝族自治州,西昌市政府,,15,12,15,7,10,46,,75,72,8,10,5,6,0.3,0.4
2025-08-29T2200,2574A,102.2685,27.8851,凉山彝族自治州,凉山州政府,颗粒物(PM10),53,56,21,29,13,55,,76,75,7,9,7,7,0.7,0.8
2025-08-29T2200,4229A,102.2342,27.8859,凉山彝族自治州,凯乐南路30号,,16,15,16,9,8,51,,73,70,10,12,8,9,0.7,0.7
2025-08-29T2200,2212A,123.2,41.1953,辽阳市,宏伟区,细颗粒物(PM2.5),68,77,38,49,18,30,,106,83,25,17,3,3,1.7,1.2
2025-08-29T2200,2213A,123.1683,41.2495,辽阳市,新华园,颗粒物(PM10),67,83,42,38,25,31,,118,89,35,21,23,10,1.2,1
2025-08-29T2200,2214A,123.2354,41.2639,辽阳市,滨河路,颗粒物(PM10),70,89,57,28,16,43,,113,78,27,19,5,9,1.5,0.9
2025-08-29T2200,2215A,123.149,41.2991,辽阳市,铁西工业园,细颗粒物(PM2.5),69,83,48,50,21,16,,98,61,31,20,3,3,1.2,1.2
2025-08-29T2200,2227A,125.1358,42.8845,辽源市,环保局,,50,50,29,25,5,13,,83,54,22,6,8,8,0.7,0.6
2025-08-29T2200,3239A,125.0764,42.9078,辽源市,银鹰制药,,25,25,11,15,7,7,,82,57,44,10,13,17,0.5,0.4
2025-08-29T2200,1625A,115.9848,36.4372,聊城市,区政府,,29,29,28,18,16,83,,109,105,19,21,9,10,0.8,0.8
2025-08-29T2200,2878A,116.0072,36.4343,聊城市,聊大东校,,40,31,29,28,19,95,,113,108,15,23,9,10,0.6,0.7
2025-08-29T2200,3200A,115.9819,36.4978,聊城市,监控中心,,42,42,35,19,15,65,,107,99,26,26,8,11,0.9,0.9
2025-08-29T2200,3513A,116.0445,36.4361,聊城市,九州社区,,33,29,33,17,16,105,,115,111,11,18,5,6,0.5,0.5
2025-08-29T2200,4018A,116.0567,36.4608,聊城市,星美广场,,,31,33,22,16,,,108,104,12,17,11,7,0.8,0.8
2025-08-29T2200,2632A,94.3681,29.6376,林芝市,林芝监测站,,13,,6,3,4,41,,44,43,2,3,6,6,0.4,0.4
2025-08-29T2200,2633A,94.3616,29.6616,林芝市,林芝人民医院,,17,17,8,7,5,30,,43,37,7,4,4,7,0.4,0.5
2025-08-29T2200,2603A,100.0781,23.8982,临沧市,市环保局,,45,,14,31,22,15,,39,32,9,8,4,6,0.3,0.3
2025-08-29T2200,2604A,100.0894,23.8822,临沧市,市气象局,,17,17,14,10,11,14,,33,27,10,6,7,7,0.5,0.5
2025-08-29T2200,1733A,111.5531,36.0783,临汾市,临钢医院,颗粒物(PM10),52,54,35,20,13,85,,116,112,17,15,11,9,1.1,1
2025-08-29T2200,1734A,111.5028,36.0714,临汾市,技工学校,,50,50,33,35,28,62,,103,98,20,11,10,7,1.0,0.9
2025-08-29T2200,1736A,111.5018,36.0855,临汾市,市委,颗粒物(PM10),61,72,44,27,17,68,,109,105,22,14,8,5,1.0,1
2025-08-29T2200,3018A,111.505,36.1014,临汾市,唐尧大酒店,颗粒物(PM10),51,52,46,27,19,68,,106,103,21,14,7,5,1.0,0.9
2025-08-29T2200,4244A,111.4879,36.0530,临汾市,启星学校,颗粒物(PM10),53,55,35,36,30,61,,106,100,25,14,5,4,0.9,0.8
2025-08-29T2200,4271A,103.2464,35.6123,临夏回族自治州,滨河东路1号,颗粒物(PM10),55,60,26,27,13,3,,72,53,44,14,6,6,0.7,0.4
2025-08-29T2200,4310A,103.2093,35.5995,临夏回族自治州,新华街21号,颗粒物(PM10),51,51,28,24,17,20,,79,68,34,11,4,5,0.7,0.4
2025-08-29T2200,1618A,118.3429,35.0532,临沂市,沂河小区,,30,24,36,21,25,76,,149,110,20,21,8,10,0.4,0.5
2025-08-29T2200,1619A,118.295,35.0583,临沂市,鲁南制药厂,,32,27,32,22,26,90,,168,119,37,23,9,10,0.5,0.4
2025-08-29T2200,1620A,118.2794,34.9976,临沂市,新光毛纺厂,,30,17,32,17,25,96,,144,106,12,18,7,8,0.5,0.6
2025-08-29T2200,1621A,118.3956,35.0888,临沂市,河东保险公司,,22,22,33,8,16,66,,155,112,18,22,5,7,0.3,0.4
2025-08-29T2200,3370A,118.3564,35.0215,临沂市,十里堡居委,,32,,29,22,26,95,,148,116,14,22,8,10,0.5,0.5
2025-08-29T2200,3496A,118.3604,35.1084,临沂市,南坊新区,,25,22,38,9,18,80,,160,111,19,23,8,9,0.5,0.6
2025-08-29T2200,3860A,118.3920,35.0300,临沂市,皇山花园小区,,,22,39,,26,88,,148,113,13,23,8,10,0.5,0.5
2025-08-29T2200,1870A,109.4856,24.3895,柳州市,柳东小学,,30,23,23,21,16,69,,81,75,11,9,8,6,0.4,0.3
2025-08-29T2200,1871A,109.4157,24.3277,柳州市,环保监测站,,40,40,35,19,20,45,,81,70,21,13,20,10,0.6,0.4
2025-08-29T2200,1872A,109.389,24.341,柳州市,河西水厂,颗粒物(PM10),56,61,52,26,27,42,,84,70,21,18,6,12,0.5,0.3
2025-08-29T2200,1873A,109.4311,24.2921,柳州市,市四中,,37,37,27,15,14,50,,83,73,19,14,12,9,0.7,0.4
2025-08-29T2200,1874A,109.4006,24.3631,柳州市,市九中,,39,39,36,17,15,42,,72,63,17,13,17,7,0.7,0.4
2025-08-29T2200,1875A,109.4958,24.3134,柳州市,古亭山,,,19,23,15,12,,,82,74,21,17,6,6,0.5,0.7
2025-08-29T2200,3402A,109.5422,24.3996,柳州市,市二中,,22,22,23,14,15,50,,75,67,11,13,9,6,0.6,0.6
2025-08-29T2200,2307A,116.5079,31.737,六安市,监测大楼,,23,,24,9,18,72,,90,60,2,9,4,4,0.4,0.4
2025-08-29T2200,2308A,116.4738,31.7643,六安市,皖西学院,,22,,28,10,16,69,,97,64,1,5,2,3,0.2,0.3
2025-08-29T2200,2309A,116.4996,31.7905,六安市,朝阳厂,,25,,22,17,16,63,,85,57,6,12,5,6,0.2,0.3
2025-08-29T2200,2310A,116.5567,31.7886,六安市,开发区,,20,17,22,3,21,64,,76,,2,12,2,3,0.2,0.5
2025-08-29T2200,2576A,104.8,26.5892,六盘水市,窑上,,12,10,20,8,4,36,,83,76,3,3,4,5,0.2,0.2
2025-08-29T2200,2577A,104.83,26.5917,六盘水市,黄土坡,,21,21,14,8,7,60,,84,80,12,7,3,4,0.3,0.2
2025-08-29T2200,2578A,104.89,26.5939,六盘水市,水钢,,30,28,25,21,17,53,,85,80,11,4,4,4,0.2,0.2
2025-08-29T2200,2579A,104.8475,26.5894,六盘水市,民中,,20,20,12,9,5,57,,86,81,11,4,2,2,0.3,0.2
2025-08-29T2200,2580A,104.9544,26.5506,六盘水市,双水,,18,9,12,3,6,55,,80,75,9,6,2,2,0.1,0.1
2025-08-29T2200,2335A,117.0189,25.1181,龙岩市,龙岩师专,,,,,,,,,,,,,,,,
2025-08-29T2200,2336A,117.0217,25.1033,龙岩市,龙岩市监测站,,14,8,19,8,11,43,,69,58,25,11,9,9,0.6,0.6
2025-08-29T2200,2337A,117.0258,25.0661,龙岩市,闽西职业技术学院,,19,19,25,11,11,39,,68,56,20,9,17,12,0.5,0.5
2025-08-29T2200,2338A,117.0196,25.0306,龙岩市,龙岩学院,,13,10,20,9,11,36,,68,57,14,10,8,8,0.5,0.5
2025-08-29T2200,2665A,105.0822,33.3261,陇南市,汉王镇固水子,,,,,,,,,,,,,,,,
2025-08-29T2200,2885A,104.9339,33.3826,陇南市,滨江中学,,21,21,18,12,12,35,,74,53,14,6,8,8,0.7,0.7
2025-08-29T2200,3247A,104.955,33.371,陇南市,市总工会,,,,23,,6,,,74,57,19,9,6,5,,0.9
2025-08-29T2200,2487A,111.9589,27.8901,娄底市,电视发射台,,23,23,31,15,17,59,,89,72,6,8,5,7,0.3,0.5
2025-08-29T2200,2488A,111.9975,27.725,娄底市,市监测站,,36,29,34,25,22,65,,92,75,27,12,16,9,0.6,0.5
2025-08-29T2200,2489A,112.0194,27.7314,娄底市,市委党校,细颗粒物(PM2.5),52,,31,36,25,64,,77,68,12,7,3,3,0.6,0.5
2025-08-29T2200,2490A,111.9561,27.7569,娄底市,涟钢,,43,38,43,30,28,60,,119,78,12,20,4,16,0.7,1.4
2025-08-29T2200,2491A,111.9892,27.7044,娄底市,市政府,,39,,27,27,25,74,,85,77,11,6,7,7,0.7,0.6
2025-08-29T2200,1893A,105.4324,28.9634,泸州市,九狮山,细颗粒物(PM2.5),52,,27,36,27,79,,95,92,4,6,6,6,0.4,0.4
2025-08-29T2200,1894A,105.4427,28.9063,泸州市,小市上码头,,,26,22,3,11,,,76,74,5,5,4,4,,0.4
2025-08-29T2200,1895A,105.4241,28.8573,泸州市,兰田宪桥,,26,23,21,15,11,81,,94,89,3,5,8,8,0.2,0.3
2025-08-29T2200,1896A,105.4379,28.8833,泸州市,市环监站,,25,23,20,17,13,75,,85,82,7,8,9,9,0.3,0.3
2025-08-29T2200,4272A,105.3689,28.7783,泸州市,纳溪中医医院,,22,19,19,13,12,70,,83,77,11,11,2,2,0.5,0.5
2025-08-29T2200,2183A,111.1406,37.5211,吕梁市,环保局,颗粒物(PM10),59,67,36,21,18,8,,69,49,43,29,2,2,0.7,0.6
2025-08-29T2200,2185A,111.1297,37.5136,吕梁市,自来水公司,颗粒物(PM10),55,59,33,24,16,21,,62,48,26,22,2,3,0.5,0.5
2025-08-29T2200,2867A,111.1283,37.51,吕梁市,马茂庄小学,颗粒物(PM10),65,80,43,20,16,10,,63,42,40,30,3,3,0.6,0.5
2025-08-29T2200,1812A,112.3931,34.6516,洛阳市,市委党校,,29,28,20,20,12,72,,84,84,10,8,7,7,0.5,0.5
2025-08-29T2200,1815A,112.494,34.6886,洛阳市,河南林校,,36,36,29,23,16,69,,85,85,20,17,8,8,0.6,0.5
2025-08-29T2200,1816A,112.3844,34.623,洛阳市,开发区管委会,,23,23,16,16,12,70,,83,83,10,6,3,4,0.5,0.5
2025-08-29T2200,1817A,112.4267,34.6258,洛阳市,市委新办公区,,30,24,17,21,14,76,,86,86,8,7,7,7,0.5,0.4
2025-08-29T2200,3340A,112.6005,34.6326,洛阳市,伊滨,,30,30,24,20,14,74,,89,89,16,13,8,9,0.6,0.5
2025-08-29T2200,3341A,112.4951,34.6332,洛阳市,中移产业园,,26,24,18,18,13,72,,84,84,14,12,6,8,0.5,0.5
2025-08-29T2200,3593A,112.5736,34.8993,洛阳市,吉利监测站,,26,26,25,15,15,64,,84,84,9,5,4,7,0.9,0.8
2025-08-29T2200,3635A,112.3677,34.662,洛阳市,河科大西苑校区,,26,26,18,16,9,74,,83,83,14,11,7,8,0.5,0.5
2025-08-29T2200,3636A,112.4388,34.6781,洛阳市,英才小学,,38,31,23,26,20,68,,82,81,17,14,8,9,0.7,0.7
2025-08-29T2200,4214A,112.4600,34.6949,洛阳市,春都路1号院,,31,31,22,13,10,62,,78,78,13,11,10,9,0.8,0.7
2025-08-29T2200,2399A,114.051,33.5699,漯河市,三五一五工厂,,36,36,30,21,19,69,,141,125,12,8,6,6,0.5,0.4
2025-08-29T2200,2400A,114.0055,33.5698,漯河市,漯河大学,,26,26,26,12,17,72,,139,121,12,9,6,5,0.7,0.6
2025-08-29T2200,2401A,114.0138,33.5828,漯河市,市水利局,,29,29,30,17,19,65,,136,118,12,8,6,5,0.6,0.6
2025-08-29T2200,2402A,114.0261,33.5698,漯河市,市广电局,,32,27,27,22,20,73,,146,129,10,7,4,3,0.7,0.7
2025-08-29T2200,3478A,113.9749,33.5664,漯河市,市图书馆,,26,26,26,16,20,65,,126,,14,8,9,5,0.6,0.5
2025-08-29T2200,4250A,114.0892,33.5882,漯河市,韶山路11号,,29,26,30,20,20,70,,148,129,12,8,4,4,0.6,0.6
2025-08-29T2200,1798A,118.5092,31.6837,马鞍山市,湖东路四小,细颗粒物(PM2.5),54,,38,38,23,121,,162,122,19,18,7,10,0.5,0.6
2025-08-29T2200,1799A,118.5024,31.6449,马鞍山市,开发区,,49,48,41,34,21,125,,148,130,20,20,11,12,0.6,0.6
2025-08-29T2200,1802A,118.6245,31.7241,马鞍山市,濮塘,,42,34,28,20,17,134,,153,150,9,11,8,9,0.7,0.7
2025-08-29T2200,3633A,118.4918,31.6809,马鞍山市,雨山,,40,40,40,26,20,108,,151,108,21,20,7,11,0.5,0.7
2025-08-29T2200,4191A,118.5274,31.72227,马鞍山市,慈湖高新区,,44,44,39,20,18,116,,144,114,26,24,6,10,0.3,0.4
2025-08-29T2200,1686A,111.0286,21.4688,茂名市,电白南海,,31,31,29,17,16,25,,69,48,5,7,4,4,0.1,0.3
2025-08-29T2200,1687A,110.9294,21.6533,茂名市,茂石化七小,,14,14,24,7,12,30,,72,57,6,10,5,8,0.4,0.6
2025-08-29T2200,1688A,110.9107,21.6687,茂名市,健康路,,10,,19,7,13,31,,74,58,5,10,8,11,0.4,0.5
2025-08-29T2200,1689A,110.8592,21.6828,茂名市,高岭,,17,17,29,3,8,30,,69,56,8,14,8,11,0.4,0.6
2025-08-29T2200,3450A,111.01,21.5165,茂名市,电白水东,,,,19,34,11,,,71,60,8,8,4,5,0.4,0.6
2025-08-29T2200,2539A,104.0308,30.0478,眉山市,黑龙滩水库,,14,,7,7,5,42,,76,67,9,4,2,2,0.5,0.4
2025-08-29T2200,2540A,103.8416,30.0874,眉山市,气象局,,21,15,18,3,2,66,,83,77,12,11,5,6,0.2,0.1
2025-08-29T2200,3137A,103.8578,30.0744,眉山市,市委党校,,17,9,6,3,0,54,,77,71,17,12,6,6,0.4,0.3
2025-08-29T2200,3148A,103.8291,30.0564,眉山市,区人社局,,19,12,17,3,0,60,,78,74,20,16,8,9,0.5,0.6
2025-08-29T2200,1690A,116.1231,24.3284,梅州市,梅江月梅,,33,33,18,17,11,94,,64,64,12,11,11,9,0.5,0.5
2025-08-29T2200,1691A,116.0797,24.2719,梅州市,梅县新城,,19,18,20,3,13,58,,69,53,10,11,7,7,0.5,0.5
2025-08-29T2200,1692A,116.1248,24.2654,梅州市,环境监控中心,,,27,23,15,17,,,60,51,15,12,5,10,0.5,0.7
2025-08-29T2200,3315A,116.1233,24.2991,梅州市,梅龙,,36,36,17,23,11,82,,59,57,12,9,9,8,0.7,0.6
2025-08-29T2200,1878A,104.7778,31.4741,绵阳市,富乐山,,13,13,9,6,4,9,,84,39,23,8,8,8,0.6,0.4
2025-08-29T2200,1880A,104.6697,31.4668,绵阳市,高新区自来水公司,,25,25,10,9,2,11,,78,44,48,18,8,7,0.6,0.4
2025-08-29T2200,1881A,104.7287,31.5075,绵阳市,三水厂,,20,20,10,10,5,21,,82,42,34,14,9,8,0.5,0.4
2025-08-29T2200,3491A,104.69,31.5322,绵阳市,西科大附属小学,,30,30,10,13,4,19,,81,45,36,17,8,8,0.8,0.6
2025-08-29T2200,3492A,104.5648,31.5343,绵阳市,安州区旅游局,,18,16,10,12,2,33,,73,54,16,10,9,8,0.3,0.3
2025-08-29T2200,4226A,104.7651,31.4531,绵阳市,绵阳市气象局,,24,24,9,14,4,20,,84,42,34,12,7,7,0.4,0.3
2025-08-29T2200,1784A,129.61,44.561,牡丹江市,环保大楼,,26,26,16,8,9,39,,43,35,15,10,2,3,0.3,0.2
2025-08-29T2200,1785A,129.6115,44.5782,牡丹江市,文化广场,,32,,14,22,15,39,,44,40,18,12,6,6,0.6,0.5
2025-08-29T2200,1786A,129.5904,44.5963,牡丹江市,第一医院,,33,33,15,18,12,36,,46,35,21,11,7,7,0.3,0.2
2025-08-29T2200,1787A,129.6364,44.6075,牡丹江市,机车工厂,,28,22,16,19,12,35,,39,29,10,10,6,6,0.5,0.4
2025-08-29T2200,1788A,129.6386,44.5462,牡丹江市,第一中学,,25,25,19,11,11,12,,45,27,16,10,6,6,0.3,0.2
2025-08-29T2200,2531A,105.0703,29.61,内江市,市监测站,,25,16,15,7,6,77,,94,91,8,7,1,3,0.7,0.6
2025-08-29T2200,2532A,105.0717,29.5947,内江市,东兴区政府,,25,25,15,6,3,75,,92,89,10,8,8,7,0.5,0.7
2025-08-29T2200,2533A,105.0653,29.5817,内江市,内江二中,,23,22,22,7,7,71,,88,85,10,9,5,2,0.5,0.5
2025-08-29T2200,2534A,105.0406,29.5822,内江市,内江日报社,,24,18,18,10,6,74,,92,90,9,9,6,4,0.3,0.3
2025-08-29T2200,2628A,92.0657,31.4846,那曲市,那曲监测站,颗粒物(PM10),51,51,25,22,11,69,,113,108,34,11,8,5,0.7,0.3
2025-08-29T2200,4243A,92.0515,31.4787,那曲市,那曲市委宣传部,,,28,20,13,9,,,128,128,18,6,6,4,0.4,0.3
2025-08-29T2200,1290A,115.8931,28.6843,南昌市,省外办,,,67,34,34,23,,,110,89,27,20,5,6,0.9,0.7
2025-08-29T2200,1291A,115.8886,28.7003,南昌市,省林业公司,颗粒物(PM10),53,56,41,24,20,20,,126,85,38,24,3,4,0.7,0.6
2025-08-29T2200,1292A,115.8126,28.7442,南昌市,林科所,,18,9,21,7,12,56,,125,99,11,11,2,4,0.5,0.5
2025-08-29T2200,1294A,115.8518,28.687,南昌市,建工学校,颗粒物(PM10),62,74,40,22,37,34,,125,85,46,32,7,8,0.8,0.7
2025-08-29T2200,1295A,115.8921,28.6424,南昌市,象湖,,20,15,26,7,13,64,,131,101,14,15,6,9,0.5,0.6
2025-08-29T2200,1296A,115.7423,28.7996,南昌市,武术学校,,13,10,15,9,12,33,,102,77,11,9,8,9,0.6,0.5
2025-08-29T2200,3046A,115.9084,28.6062,南昌市,机电学校,,37,37,34,17,16,46,,127,90,27,17,6,8,0.6,0.5
2025-08-29T2200,3690A,115.9721,28.7031,南昌市,外国语学校,,26,26,33,10,14,62,,152,93,14,14,5,8,0.4,0.5
2025-08-29T2200,4192A,115.9316,28.68677,南昌市,南京东路235号,,29,29,31,18,15,46,,134,90,23,17,8,8,0.7,0.7
2025-08-29T2200,1905A,106.056,30.8064,南充市,西山风景区,,,,,,,,,,,,,,,,
2025-08-29T2200,1906A,106.0789,30.8023,南充市,南充市委,,21,17,15,12,9,66,,92,82,11,7,4,4,0.3,0.3
2025-08-29T2200,1907A,106.1031,30.8217,南充市,南充炼油厂,,30,30,23,15,10,71,,93,87,9,5,7,5,0.2,0.2
2025-08-29T2200,4227A,106.1083,30.7884,南充市,梨树横街98号,,25,21,13,17,9,80,,109,99,11,6,5,4,0.2,0.2
2025-08-29T2200,4304A,106.1172,30.843,南充市,清泉寺北路188号,,26,26,16,18,9,72,,99,91,11,6,6,4,0.5,0.4
2025-08-29T2200,4305A,106.067,30.7616,南充市,同庆路1号,,23,14,18,12,8,73,,101,88,11,8,5,4,0.3,0.3
2025-08-29T2200,1151A,118.8086,32.1065,南京市,迈皋桥,,25,25,22,17,14,74,,126,99,22,25,3,3,0.6,0.6
2025-08-29T2200,1152A,118.7538,32.0551,南京市,草场门,,32,27,32,14,17,100,,174,140,16,16,4,4,0.6,0.6
2025-08-29T2200,1153A,118.7794,32.0745,南京市,山西路,,34,24,32,12,11,106,,180,146,13,16,4,4,0.4,0.5
2025-08-29T2200,1154A,118.7752,32.0023,南京市,中华门,,33,22,24,14,11,103,,156,134,10,11,4,4,0.6,0.7
2025-08-29T2200,1155A,118.8109,32.0309,南京市,瑞金路,,32,24,25,14,14,102,,162,135,16,16,7,6,0.7,0.7
2025-08-29T2200,1156A,118.7997,32.0754,南京市,玄武湖,,30,21,27,6,7,93,,159,131,12,10,4,4,0.4,0.4
2025-08-29T2200,1157A,118.6414,32.0931,南京市,浦口,,,35,31,16,13,,,188,166,15,16,6,7,0.4,0.4
2025-08-29T2200,1158A,118.7356,31.9996,南京市,奥体中心,,37,27,32,17,15,116,,170,145,15,17,5,6,0.3,0.4
2025-08-29T2200,1159A,118.9125,32.1028,南京市,仙林大学城,,29,27,32,12,8,90,,159,129,13,10,9,9,0.6,0.6
2025-08-29T2200,3422A,118.8436,31.9198,南京市,江宁彩虹桥,,,41,28,17,16,,,158,140,18,14,4,4,0.5,0.4
2025-08-29T2200,3427A,118.8554,32.3578,南京市,六合雄州,,45,45,40,24,18,71,,158,133,32,22,6,6,0.7,0.7
2025-08-29T2200,4249A,118.8708,31.3402,南京市,汶溪路181号,,41,27,26,26,19,130,,164,160,14,14,7,7,0.5,0.5
2025-08-29T2200,4312A,119.019,31.6512,南京市,中山西路1号,,32,24,24,20,15,100,,147,133,19,18,4,4,0.6,0.6
2025-08-29T2200,1401A,108.3103,22.7881,南宁市,二十一中,颗粒物(PM10),60,70,36,31,18,32,,82,76,35,22,11,6,0.9,0.6
2025-08-29T2200,1402A,108.3141,22.8528,南宁市,北湖,颗粒物(PM10),51,52,35,29,24,53,,95,86,22,21,3,6,0.7,0.5
2025-08-29T2200,1403A,108.3206,22.8225,南宁市,市监测站,,46,46,33,25,19,42,,82,75,27,20,3,5,0.7,0.5
2025-08-29T2200,1404A,108.3829,22.8037,南宁市,大自然花园,,46,46,29,20,17,57,,87,81,21,14,7,5,0.6,0.5
2025-08-29T2200,1405A,108.4394,22.7904,南宁市,仙葫,,30,26,26,21,16,46,,80,72,29,17,6,6,0.6,0.5
2025-08-29T2200,1406A,108.2397,22.8467,南宁市,区农职院,颗粒物(PM10),51,52,34,30,19,52,,93,86,21,15,7,6,0.5,0.4
2025-08-29T2200,1407A,108.3275,22.735,南宁市,英华嘉园,细颗粒物(PM2.5),54,54,42,38,28,34,,74,68,31,21,9,4,0.6,0.5
2025-08-29T2200,3401A,108.4834,22.7618,南宁市,红星社区,,32,32,24,19,14,53,,92,84,25,15,3,3,0.5,0.5
2025-08-29T2200,4221A,108.2177,22.7774,南宁市,乐贤路16号,,41,41,37,28,22,50,,91,86,18,17,5,4,0.6,0.5
2025-08-29T2200,2331A,118.0966,26.6761,南平市,茫荡山,,,,9,,5,,,41,,,,,1,,
2025-08-29T2200,2332A,118.1681,26.6369,南平市,南平市监测站,,13,13,14,8,7,15,,55,38,19,8,4,5,0.7,0.5
2025-08-29T2200,2333A,118.1825,26.6489,南平市,南平铝业有限公司,,19,19,15,3,8,16,,58,40,25,9,8,6,0.6,0.5
2025-08-29T2200,2334A,118.1756,26.6272,南平市,南平七中,,12,12,14,3,6,21,,56,42,12,5,3,4,0.7,0.6
2025-08-29T2200,1168A,120.9098,31.9663,南通市,狼山街道,,17,17,18,3,8,32,,144,112,23,23,4,5,0.4,0.4
2025-08-29T2200,1169A,120.86,32.0005,南通市,虹桥,,18,16,16,12,10,43,,152,122,24,24,4,5,0.7,0.6
2025-08-29T2200,1170A,120.87,32.02,南通市,城中,,18,18,23,8,6,38,,130,106,20,23,5,6,0.5,0.5
2025-08-29T2200,1171A,120.94,31.93,南通市,星湖花园,,13,13,15,7,7,35,,140,107,23,20,4,5,0.3,0.4
2025-08-29T2200,1172A,120.81,32.0417,南通市,紫琅学院,,15,10,17,3,5,45,,135,110,22,26,4,5,0.7,0.6
2025-08-29T2200,3291A,121.067,32.062,南通市,通州监测站,,,7,13,3,4,,,141,135,10,14,1,2,0.5,0.5
2025-08-29T2200,3432A,120.9348,31.9883,南通市,环境教育馆,,17,17,22,3,5,40,,153,119,16,18,4,5,0.2,0.2
2025-08-29T2200,2404A,112.5224,33.0122,南阳市,瓦房庄,,24,24,27,3,8,74,,104,89,4,5,7,7,0.5,0.5
2025-08-29T2200,2405A,112.5003,32.9735,南阳市,汉画馆,,22,21,25,8,11,70,,103,88,8,9,7,8,0.6,0.6
2025-08-29T2200,2406A,112.5573,33.027,南阳市,气象站,,24,10,16,3,9,76,,104,90,9,8,7,7,0.5,0.4
2025-08-29T2200,2407A,112.5481,32.9689,南阳市,理工学院,,24,19,25,3,5,74,,109,94,6,5,8,8,0.6,0.6
2025-08-29T2200,4008A,112.5234,32.9922,南阳市,卧龙区政府,,22,16,25,6,14,70,,104,87,9,8,6,6,0.7,0.7
2025-08-29T2200,1234A,121.8358,29.911,宁波市,区环保大楼,,13,7,10,7,5,39,,49,47,9,7,5,4,0.3,0.3
2025-08-29T2200,1235A,121.56,29.82,宁波市,万里学院,,18,18,19,6,8,38,,65,53,7,6,6,7,0.4,0.4
2025-08-29T2200,1236A,121.713,29.9572,宁波市,龙赛医院,,12,12,12,6,6,38,,57,47,7,5,4,4,0.2,0.2
2025-08-29T2200,1239A,121.633,29.7733,宁波市,钱湖水厂,,14,7,8,3,3,43,,59,53,5,6,6,6,0.4,0.4
2025-08-29T2200,1240A,121.5856,29.8635,宁波市,太古小学,,12,7,12,3,5,38,,62,50,4,4,2,2,0.4,0.4
2025-08-29T2200,1241A,121.524,29.8674,宁波市,市环境监测中心,,10,9,11,7,5,32,,57,46,8,8,8,8,0.5,0.5
2025-08-29T2200,2871A,121.6147,29.9017,宁波市,万里国际学校,,14,10,9,6,5,43,,66,56,3,3,4,4,0.4,0.4
2025-08-29T2200,3710A,121.5594,29.8975,宁波市,白沙活动中心,,13,9,10,3,3,39,,68,53,7,8,6,6,0.3,0.3
2025-08-29T2200,2339A,119.5001,26.6946,宁德市,金涵水库,,,,18,,4,,,20,,,3,,1,,0.3
2025-08-29T2200,2341A,119.5388,26.6612,宁德市,宁德市监测站,,13,6,13,3,7,39,,47,37,2,3,3,3,0.3,0.3
2025-08-29T2200,3209A,119.5231,26.6562,宁德市,宁德一中,,13,11,12,3,5,40,,49,38,4,5,4,5,0.2,0.2
2025-08-29T2200,2618A,98.8601,25.8567,怒江傈僳族自治州,州监测站,,36,28,19,25,16,26,,49,45,10,8,4,4,0.5,0.4
2025-08-29T2200,2619A,98.8546,25.8417,怒江傈僳族自治州,泸水一中,,16,16,13,9,9,12,,40,34,14,9,4,4,0.5,0.5
2025-08-29T2200,1888A,101.6891,26.571,攀枝花市,弄弄坪,,38,38,39,10,12,31,,55,45,14,19,6,9,0.7,1
2025-08-29T2200,1889A,101.5769,26.5928,攀枝花市,河门口,,50,50,30,31,15,16,,55,42,30,14,13,12,1.6,1
2025-08-29T2200,1890A,101.7169,26.585,攀枝花市,炳草岗,,41,41,39,21,19,16,,52,37,32,24,8,9,1.0,0.9
2025-08-29T2200,1891A,101.7369,26.5008,攀枝花市,仁和,,14,14,22,8,14,28,,62,45,11,11,7,9,0.6,0.6
2025-08-29T2200,2835A,101.7227,26.567,攀枝花市,四十中小,,28,28,27,19,15,17,,55,40,36,17,12,13,1.4,1.1
2025-08-29T2200,1604A,122.0303,41.1489,盘锦市,开发区,,30,22,20,21,17,83,,95,89,14,22,6,6,0.5,0.6
2025-08-29T2200,1605A,122.0485,41.0883,盘锦市,兴隆台,,25,18,21,17,11,77,,98,89,20,24,5,6,0.5,0.6
2025-08-29T2200,1606A,121.8297,41.1028,盘锦市,新生街道,,20,14,14,14,10,53,,102,89,19,19,4,4,0.6,0.6
2025-08-29T2200,1832A,113.3257,33.742,平顶山市,新华旅馆,,32,27,33,16,18,100,,106,101,7,8,6,6,0.6,0.5
2025-08-29T2200,1833A,113.2919,33.737,平顶山市,规划设计院,,30,25,25,16,15,94,,103,96,11,9,6,5,0.6,0.7
2025-08-29T2200,1834A,113.182,33.774,平顶山市,平顶山工学院,,27,22,21,12,10,84,,107,97,14,9,8,6,0.5,0.5
2025-08-29T2200,3204A,113.3025,33.73,平顶山市,规划局,,30,19,24,12,14,96,,106,99,11,9,7,5,0.5,0.5
2025-08-29T2200,3594A,112.8867,33.9116,平顶山市,石龙区,,28,19,21,13,14,87,,94,91,12,10,3,4,0.5,0.6
2025-08-29T2200,2656A,106.6692,35.5461,平凉市,聚贤嘉苑,,34,34,31,14,16,40,,88,75,30,21,6,6,0.5,0.5
2025-08-29T2200,2657A,106.7021,35.5307,平凉市,博物馆,,39,39,32,13,12,43,,81,72,28,16,9,9,0.5,0.5
2025-08-29T2200,2347A,114.0997,27.5002,萍乡市,武功山,,20,,5,14,4,23,,52,44,5,4,9,9,0.7,0.6
2025-08-29T2200,2348A,113.8385,27.6434,萍乡市,中医院,,41,41,23,23,12,17,,88,63,29,16,12,12,0.7,0.9
2025-08-29T2200,2349A,113.8493,27.6253,萍乡市,市政府车库,,49,35,22,34,15,26,,88,66,17,12,13,14,0.7,1
2025-08-29T2200,2350A,113.8676,27.6435,萍乡市,市环保局,,,,24,21,10,39,,86,69,,16,6,10,0.5,0.8
2025-08-29T2200,2351A,113.866,27.6198,萍乡市,安源区政府,,48,35,27,33,15,33,,94,68,12,10,15,17,0.6,1.1
2025-08-29T2200,2319A,119.0141,25.4325,莆田市,荔城区仓后路,,16,16,14,3,2,24,,47,40,8,5,6,6,0.5,0.5
2025-08-29T2200,2320A,119.0015,25.4553,莆田市,莆田市监测站,,10,10,12,3,2,28,,49,41,5,6,5,5,0.4,0.4
2025-08-29T2200,2321A,119.1119,25.4561,莆田市,涵江区六中,,15,15,15,3,1,31,,49,42,8,6,4,4,0.3,0.3
2025-08-29T2200,2322A,119.1013,25.3215,莆田市,秀屿区政府,,13,13,17,3,3,33,,46,40,6,6,4,5,0.3,0.3
2025-08-29T2200,2323A,118.981,25.4792,莆田市,东圳水库,,,,11,,4,,,47,,,4,,4,,0.6
2025-08-29T2200,2392A,115.0312,35.7636,濮阳市,环保局,,26,18,26,14,22,82,,112,102,10,12,3,4,0.6,0.9
2025-08-29T2200,2394A,115.0574,35.7609,濮阳市,油田运输公司,,29,22,34,11,21,90,,114,105,8,13,2,3,0.7,1
2025-08-29T2200,3021A,115,35.7668,濮阳市,濮水河管理处,,22,20,33,10,17,70,,98,92,14,12,2,2,0.3,0.5
2025-08-29T2200,4216A,115.0924,35.7686,濮阳市,任丘路479号,,32,32,43,12,22,80,,109,98,10,12,4,5,0.6,0.9
2025-08-29T2200,2601A,100.98,22.7633,普洱市,市环保局,,36,36,24,23,16,12,,47,38,9,6,6,6,0.7,0.6
2025-08-29T2200,2602A,100.9817,22.8322,普洱市,普洱第二中学,,35,26,26,24,13,16,,51,42,9,8,5,6,0.4,0.4
2025-08-29T2200,2262A,131.0518,45.8751,七台河市,新一中,,22,22,11,12,6,11,,63,44,29,13,10,10,0.8,0.7
2025-08-29T2200,3345A,131.0577,45.7879,七台河市,中波台,,10,,8,7,7,22,,40,29,19,16,7,8,0.6,0.5
2025-08-29T2200,3637A,131.0176,45.7761,七台河市,人民广场,,22,22,12,3,6,26,,50,38,13,10,11,11,0.6,0.5
2025-08-29T2200,3684A,130.8781,45.8222,七台河市,新建矿广场,,39,39,15,6,7,10,,40,25,22,15,7,9,0.4,0.4
2025-08-29T2200,1779A,123.9305,47.3636,齐齐哈尔市,安居小区,,43,43,32,11,12,33,,64,52,24,17,16,14,0.7,0.6
2025-08-29T2200,1780A,123.9488,47.3386,齐齐哈尔市,中心广场,,37,37,25,9,8,45,,76,66,21,14,7,6,0.6,0.5
2025-08-29T2200,1781A,123.9483,47.3227,齐齐哈尔市,农牧车辆厂,,17,17,27,3,7,43,,72,63,15,11,6,6,0.5,0.4
2025-08-29T2200,1783A,123.945,47.2988,齐齐哈尔市,市环境监测站,,14,14,21,7,6,43,,77,66,14,10,6,7,0.4,0.4
2025-08-29T2200,3662A,123.6333,47.2075,齐齐哈尔市,富区青少年活动中心,颗粒物(PM10),60,69,33,39,12,29,,57,42,22,14,42,10,2.0,0.9
2025-08-29T2200,2591A,107.9783,26.5747,黔东南苗族侗族自治州,市环境监测站,,,57,23,,14,15,,70,,15,13,3,3,,0.5
2025-08-29T2200,2881A,107.8908,26.5311,黔东南苗族侗族自治州,凯里学院,,17,17,15,11,11,19,,71,49,15,12,3,3,0.4,0.4
2025-08-29T2200,2593A,107.5228,26.2403,黔南布依族苗族自治州,小围寨,,14,14,13,7,8,26,,62,46,6,7,1,2,0.3,0.3
2025-08-29T2200,3538A,107.5175,26.2978,黔南布依族苗族自治州,沙坝,,14,14,20,3,5,29,,67,51,8,8,4,4,0.3,0.3
2025-08-29T2200,2589A,104.9022,25.0925,黔西南布依族苗族自治州,场坝街,,19,13,16,13,7,44,,86,68,8,8,4,7,0.3,0.3
2025-08-29T2200,2590A,104.8811,25.0992,黔西南布依族苗族自治州,坪东大道,,26,19,19,18,11,38,,85,66,9,7,3,4,0.5,0.5
2025-08-29T2200,2502A,108.6236,21.9667,钦州市,市环保站,,39,39,21,22,11,72,,64,64,11,11,2,2,0.7,0.6
2025-08-29T2200,2503A,108.6549,21.9481,钦州市,沙埠小学,,43,43,26,27,14,77,,69,69,12,11,3,3,0.6,0.5
2025-08-29T2200,2504A,108.5989,21.7431,钦州市,港区一小,颗粒物(PM10),56,62,30,25,13,55,,50,50,23,22,4,3,0.5,0.4
2025-08-29T2200,3404A,108.5959,21.9633,钦州市,北职校,,39,36,23,27,15,60,,61,61,9,8,2,2,0.7,0.5
2025-08-29T2200,1043A,119.7493,40.0116,秦皇岛市,第一关,颗粒物(PM10),54,58,41,36,18,36,,144,97,44,27,6,6,0.8,0.6
2025-08-29T2200,1044A,119.5897,39.9499,秦皇岛市,监测站,颗粒物(PM10),56,62,50,24,18,49,,146,118,42,19,7,7,0.8,0.9
2025-08-29T2200,1046A,119.5251,39.9041,秦皇岛市,建设大厦,颗粒物(PM10),51,52,48,26,15,61,,139,115,29,18,10,9,0.9,0.9
2025-08-29T2200,3132A,119.610547,39.943889,秦皇岛市,文明里,颗粒物(PM10),51,51,46,26,19,60,,136,116,28,15,9,8,0.8,0.8
2025-08-29T2200,4198A,119.5090,39.8253,秦皇岛市,北戴河轮滑馆,颗粒物(PM10),65,80,54,27,14,62,,145,119,20,10,16,5,1.2,0.8
2025-08-29T2200,1307A,120.6659,36.2403,青岛市,仰口,,30,26,29,21,20,76,,105,90,2,5,9,10,0.8,0.8
2025-08-29T2200,1310A,120.4134,36.0658,青岛市,市南区东部子站,,40,29,23,24,19,128,,129,123,2,8,5,6,0.2,0.2
2025-08-29T2200,1311A,120.3664,36.1032,青岛市,四方区子站,,44,44,28,17,18,81,,171,140,26,15,9,9,0.4,0.3
2025-08-29T2200,1312A,120.2994,36.054,青岛市,市南区西部子站,,29,22,26,20,15,58,,127,106,25,19,5,5,0.7,0.7
2025-08-29T2200,1313A,120.4581,36.0858,青岛市,崂山区子站,,39,27,28,14,14,124,,121,118,3,8,7,8,0.3,0.3
2025-08-29T2200,1315A,120.3999,36.3083,青岛市,城阳区子站,,30,22,35,12,18,95,,162,110,13,18,2,4,0.5,0.5
2025-08-29T2200,1966A,120.0405,35.8735,青岛市,黄岛区4号,颗粒物(PM10),53,56,26,24,14,55,,177,135,38,14,5,5,0.7,0.6
2025-08-29T2200,3362A,120.5014,36.4034,青岛市,即墨2号,,31,31,29,16,15,70,,141,105,20,11,3,4,0.4,0.4
2025-08-29T2200,3642A,120.3503,36.0736,青岛市,市北区南部,臭氧1小时,63,29,25,19,17,170,,167,166,7,13,7,8,0.9,0.8
2025-08-29T2200,3643A,120.3948,36.1805,青岛市,李沧区北部,,35,29,32,24,22,103,,178,138,14,21,4,6,0.5,0.6
2025-08-29T2200,4290A,120.1969,35.9546,青岛市,珠江路669号,,40,27,27,20,20,125,,171,155,6,16,5,5,0.5,0.6
2025-08-29T2200,1702A,113.0426,23.691,清远市,环保大楼,,21,19,31,10,9,66,,98,85,24,13,8,11,0.7,0.7
2025-08-29T2200,1703A,113.0208,23.7106,清远市,凤城街办,,20,20,24,7,14,57,,84,68,31,16,8,8,0.5,0.6
2025-08-29T2200,3025A,113.0477,23.6344,清远市,技师学院,,,15,30,7,16,,,85,72,19,20,9,11,0.5,0.5
2025-08-29T2200,3318A,112.9903,23.7403,清远市,清新太和,,20,20,28,9,15,58,,89,72,19,14,9,8,0.4,0.5
2025-08-29T2200,3455A,113.076,23.7198,清远市,清城东城,,,17,26,8,16,,,85,73,,11,,8,,0.6
2025-08-29T2200,2661A,107.6325,35.7357,庆阳市,庆阳五中,,25,25,17,12,6,79,,98,85,12,7,7,7,0.4,0.3
2025-08-29T2200,2662A,107.6364,35.7067,庆阳市,市环保局,,28,28,18,7,5,71,,103,90,15,5,3,3,0.5,0.6
2025-08-29T2200,1916A,103.7897,25.5035,曲靖市,环境监测站,,30,30,20,8,9,73,,78,78,7,9,4,4,0.3,0.3
2025-08-29T2200,1917A,103.8,25.5364,曲靖市,烟厂办公区,,37,37,15,17,8,58,,72,68,11,6,4,4,0.6,0.5
2025-08-29T2200,3376A,103.7947,25.462,曲靖市,南苑二区,,23,18,14,12,7,73,,81,81,9,9,4,4,0.4,0.4
2025-08-29T2200,3377A,103.7444,25.5261,曲靖市,曲靖师范学院,,25,24,22,6,9,77,,74,67,7,15,6,7,0.3,0.4
2025-08-29T2200,1264A,118.8692,28.9398,衢州市,环保大楼,,49,49,24,28,12,40,,97,76,22,13,3,4,0.4,0.3
2025-08-29T2200,1265A,118.8709,28.9666,衢州市,实验学校,,40,40,21,20,10,52,,91,77,22,11,4,4,0.4,0.4
2025-08-29T2200,1266A,118.8621,28.9808,衢州市,衢州学院,,29,29,19,17,10,54,,93,77,22,14,3,4,0.3,0.3
2025-08-29T2200,1611A,118.5819,24.9117,泉州市,涂山街,,16,16,17,6,7,23,,60,45,14,7,6,2,0.3,0.3
2025-08-29T2200,1612A,118.5972,24.8978,泉州市,津头埔,,19,19,19,8,7,21,,57,40,13,7,7,4,0.5,0.4
2025-08-29T2200,1613A,118.6663,24.9424,泉州市,万安,,20,20,19,6,6,20,,55,40,11,6,6,3,0.4,0.4
2025-08-29T2200,1614A,118.6117,24.9604,泉州市,清源山,,,,11,,6,,,41,,,4,,2,,0.4
2025-08-29T2200,3529A,118.6333,24.9264,泉州市,城华南路,,17,17,15,7,6,20,,56,39,15,8,7,3,0.3,0.3
2025-08-29T2200,2626A,88.8876,29.2718,日喀则市,日喀则监测站,,,2,2,,0,93,,96,95,4,3,8,8,0.2,0.3
2025-08-29T2200,3726A,88.8781,29.2426,日喀则市,林业技术推广中心,,28,7,4,3,1,87,,88,88,3,2,5,5,0.3,0.3
2025-08-29T2200,1659A,119.471,35.4209,日照市,监测站,,20,17,19,12,14,62,,165,121,21,16,5,5,0.5,0.6
2025-08-29T2200,1660A,119.523,35.4216,日照市,市政府广场,,27,24,19,18,11,85,,163,129,18,11,6,6,1.0,0.9
2025-08-29T2200,1661A,119.5587,35.4044,日照市,港务局,,35,31,20,24,24,96,,170,140,14,13,3,3,0.9,0.9
2025-08-29T2200,3507A,119.5328,35.4625,日照市,职业技术学院,,24,24,21,7,13,70,,169,124,13,10,5,5,0.7,0.7
2025-08-29T2200,3604A,119.3266,35.1044,日照市,岚山环保分局,臭氧1小时,69,44,46,22,17,175,,159,147,11,19,9,14,0.8,1.3
2025-08-29T2200,1835A,111.1922,34.7752,三门峡市,市政府,,24,24,20,11,11,73,,80,80,20,16,8,7,0.3,0.4
2025-08-29T2200,1836A,111.1587,34.7942,三门峡市,开发区,,23,23,21,11,11,69,,75,75,15,11,6,5,0.2,0.2
2025-08-29T2200,1838A,111.143,34.7955,三门峡市,风景区,,24,16,13,11,10,74,,81,81,14,9,4,4,0.4,0.5
2025-08-29T2200,3039A,111.1911,34.7829,三门峡市,三门峡市第一小学,,23,13,19,9,7,72,,80,80,17,13,8,5,0.4,0.4
2025-08-29T2200,3598A,111.1,34.7167,三门峡市,富达温泉假日酒店,,33,33,20,12,12,74,,82,82,14,12,5,5,0.2,0.2
2025-08-29T2200,2324A,117.6211,26.2625,三明市,三钢,,22,22,13,13,10,16,,61,45,19,9,2,3,0.4,0.5
2025-08-29T2200,2325A,117.635,26.2714,三明市,三明二中,,23,18,19,16,9,21,,57,42,14,6,2,3,0.4,0.4
2025-08-29T2200,2326A,117.6028,26.2378,三明市,三元区政府,,24,24,17,9,7,6,,59,37,31,13,1,3,0.5,0.5
2025-08-29T2200,2327A,117.7275,26.3108,三明市,洋溪,,,,14,,5,,,46,,,5,,3,,0.6
2025-08-29T2200,1876A,109.5078,18.2489,三亚市,河东子站,,10,6,16,3,8,31,,22,22,1,9,3,3,0.5,0.5
2025-08-29T2200,1877A,109.4964,18.2681,三亚市,河西子站,,12,12,18,3,2,25,,20,20,5,12,2,2,0.3,0.3
2025-08-29T2200,3540A,109.7348,18.3443,三亚市,君悦子站,,14,14,18,3,5,32,,24,24,4,8,2,2,0.4,0.4
2025-08-29T2200,2624A,91.7608,29.2313,山南市,山南监测站,,20,8,2,3,1,64,,84,81,8,3,2,2,0.3,0.3
2025-08-29T2200,2625A,91.7706,29.2436,山南市,山南人民医院,,20,11,5,7,3,63,,85,81,6,2,3,3,0.3,0.2
2025-08-29T2200,1674A,116.6794,23.3667,汕头市,金平子站,,20,,20,10,10,63,,90,86,6,8,2,3,0.5,0.5
2025-08-29T2200,1675A,116.7244,23.3633,汕头市,龙湖子站,,20,13,21,3,10,64,,85,82,5,6,6,7,0.5,0.5
2025-08-29T2200,1676A,116.7258,23.2775,汕头市,濠江子站,,24,24,27,7,9,75,,84,81,5,5,6,6,0.6,0.6
2025-08-29T2200,1677A,116.7519,23.4714,汕头市,澄海子站,,24,24,25,6,11,57,,86,83,4,7,3,4,0.5,0.5
2025-08-29T2200,1678A,116.6092,23.2539,汕头市,潮阳子站,,29,29,31,8,8,78,,81,81,2,2,5,5,0.5,0.5
2025-08-29T2200,3444A,116.454,23.2684,汕头市,潮南峡山,,25,22,20,10,9,80,,85,85,7,7,6,6,0.5,0.5
2025-08-29T2200,3624A,116.4069,23.2533,汕头市,潮南子站,,28,28,25,12,8,75,,73,73,7,6,4,4,0.5,0.5
2025-08-29T2200,1693A,115.3653,22.775,汕尾市,市环保局,,21,20,18,7,8,66,,63,63,12,7,3,3,0.5,0.4
2025-08-29T2200,1694A,115.3706,22.7898,汕尾市,市政府,,28,28,19,11,7,72,,66,66,8,8,4,4,0.3,0.3
2025-08-29T2200,1695A,115.3622,22.7925,汕尾市,新城中学,,25,25,21,7,7,69,,64,64,9,7,6,5,0.5,0.5
2025-08-29T2200,2645A,109.9154,33.8715,商洛市,监测站,,23,8,8,3,4,72,,90,83,12,7,3,4,0.6,0.5
2025-08-29T2200,3045A,109.9643,33.8471,商洛市,商州区中学,,25,,10,3,4,78,,93,85,11,11,4,4,0.4,0.4
2025-08-29T2200,2408A,115.6702,34.4285,商丘市,环境监测站,,,52,39,24,22,,,134,129,12,10,3,3,0.6,0.6
2025-08-29T2200,2409A,115.6458,34.4045,商丘市,粮食局,,41,41,37,16,12,129,,138,130,8,9,4,4,0.7,0.7
2025-08-29T2200,2410A,115.6293,34.3948,商丘市,睢阳区环保局,,41,41,39,20,18,127,,137,129,8,7,5,4,0.5,0.5
2025-08-29T2200,3171A,115.6071,34.4465,商丘市,梁园区档案局,,,44,40,23,18,,,,,17,13,3,3,0.8,0.7
2025-08-29T2200,1141A,121.4,31.238,上海市,普陀,,18,18,20,6,6,31,,101,79,20,14,5,6,0.3,0.3
2025-08-29T2200,1142A,121.478,31.2036,上海市,十五厂,,21,21,19,9,8,26,,89,71,20,12,8,8,0.6,0.6
2025-08-29T2200,1143A,121.467,31.3008,上海市,虹口,,14,14,16,7,6,33,,81,70,12,9,5,6,0.5,0.5
2025-08-29T2200,1147A,121.425,31.2261,上海市,静安监测站,,18,18,18,3,7,33,,100,85,21,12,4,4,0.6,0.5
2025-08-29T2200,1148A,121.703,31.1907,上海市,浦东川沙,,23,23,17,6,6,34,,81,65,19,12,6,7,0.6,0.6
2025-08-29T2200,1149A,121.533,31.2284,上海市,浦东新区监测站,,18,18,15,10,8,36,,88,77,11,8,4,4,0.6,0.7
2025-08-29T2200,1150A,121.577,31.2071,上海市,浦东张江,,23,23,17,3,6,44,,92,80,13,10,6,6,0.6,0.6
2025-08-29T2200,3265A,121.4316,31.3322,上海市,宝山庙行,,,,16,,6,,,79,70,,15,,7,,0.4
2025-08-29T2200,3266A,121.8791,31.4662,上海市,崇明上实东滩,,15,10,11,3,5,46,,74,64,10,11,5,5,0.4,0.4
2025-08-29T2200,3268A,121.3162,31.2838,上海市,嘉定南翔,,18,18,19,11,9,27,,99,77,23,19,4,5,0.2,0.3
2025-08-29T2200,3269A,121.3359,30.7456,上海市,金山新城,,12,12,15,8,7,36,,98,67,10,8,4,5,0.5,0.6
2025-08-29T2200,3270A,121.4996,31.0739,上海市,闵行浦江,,,14,16,8,5,38,,91,66,7,9,4,5,,1
2025-08-29T2200,3271A,121.2886,31.1663,上海市,青浦徐泾,,,17,15,3,5,,,98,90,8,9,7,7,0.6,0.6
2025-08-29T2200,3272A,121.2186,31.0378,上海市,松江图书馆,,16,16,14,8,7,41,,106,87,14,13,7,8,0.5,0.5
2025-08-29T2200,3273A,121.3902,31.2059,上海市,长宁仙霞,,20,20,19,8,7,31,,93,72,17,14,8,9,0.4,0.4
2025-08-29T2200,3274A,121.7965,31.0507,上海市,浦东惠南,,13,7,12,3,2,40,,85,62,7,10,10,10,0.5,0.5
2025-08-29T2200,3544A,121.4891,30.925,上海市,奉贤南桥新城,,15,15,16,3,8,38,,98,70,6,7,4,5,0.2,0.3
2025-08-29T2200,4183A,121.4174,31.16637,上海市,冠生园路458号,,18,18,19,6,6,36,,93,72,17,17,3,4,0.5,0.5
2025-08-29T2200,4205A,121.5419,31.2683,上海市,宁武路151号,,20,20,27,7,6,30,,75,66,19,16,3,4,0.3,0.3
