timepoint,stationcode,longitude,latitude,area,positionname,primarypollutant,aqi,pm10,pm10_24h,pm2_5,pm2_5_24h,o3,o3_24h,o3_8h,o3_8h_24h,no2,no2_24h,so2,so2_24h,co,co_24h
2023-10-18T15:00:00,1001A,116.3621,39.8784,北京市,万寿西宫,,22,9,59,3,31,108,70,64,64,9,26,3,2,0.2,0.6
2023-10-18T15:00:00,1002A,116.2202,40.2915,北京市,定陵,,17,6,35,2,21,105,53,50,48,8,12,1,2,0.2,0.4
2023-10-18T15:00:00,1003A,116.4174,39.9289,北京市,东四,,23,8,61,3,30,114,73,68,68,7,34,3,3,0.2,0.6
2023-10-18T15:00:00,1004A,116.4072,39.8863,北京市,天坛,,22,8,52,3,29,107,70,62,62,10,30,3,3,0.2,0.5
2023-10-18T15:00:00,1005A,116.462,39.9365,北京市,农展馆,,21,7,54,2,28,110,66,63,63,13,33,3,3,0.2,0.5
2023-10-18T15:00:00,1006A,116.3392,39.9295,北京市,官园,,23,6,62,2,30,118,73,65,65,8,26,1,2,0.2,0.5
2023-10-18T15:00:00,1007A,116.2878,39.9611,北京市,海淀万柳,,20,6,58,2,25,104,63,51,51,11,33,3,3,0.3,0.6
2023-10-18T15:00:00,1008A,116.6636,40.135,北京市,顺义新城,,23,8,43,3,36,115,72,64,64,15,26,3,3,0.3,0.5
2023-10-18T15:00:00,1009A,116.6275,40.3275,北京市,怀柔镇,,24,3,53,1,32,111,75,75,64,3,18,3,2,0.2,0.5
2023-10-18T15:00:00,1010A,116.2296,40.217,北京市,昌平镇,,19,8,42,3,20,110,60,55,55,3,5,2,2,0.2,0.4
2023-10-18T15:00:00,1011A,116.3966,39.9821,北京市,奥体中心,,19,8,52,3,25,105,59,59,59,10,34,1,2,0.2,0.5
2023-10-18T15:00:00,1012A,116.184,39.9136,北京市,古城,,22,10,53,2,25,118,68,66,58,7,26,1,2,0.3,0.6
2023-10-18T15:00:00,1015A,117.1444,39.1661,天津市,勤俭道,,25,5,134,2,65,168,77,81,59,10,32,6,9,0.3,0.8
2023-10-18T15:00:00,1017A,117.237,39.1082,天津市,大直沽八号路,,25,8,109,3,63,174,77,101,68,15,30,2,6,0.2,0.8
2023-10-18T15:00:00,1018A,117.202,39.0927,天津市,前进道,,26,6,93,3,57,179,81,104,66,12,31,5,8,0.2,0.8
2023-10-18T15:00:00,1019A,117.1837,39.2133,天津市,淮河道,,27,6,109,2,66,183,85,95,66,13,37,4,7,0.3,1
2023-10-18T15:00:00,1021A,117.307,39.0877,天津市,跃进路,,27,6,100,3,66,198,84,96,71,11,28,5,8,0.3,0.9
2023-10-18T15:00:00,1023A,117.707,39.0343,天津市,第四大街,,25,10,110,5,73,151,79,89,66,8,48,5,8,0.4,1
2023-10-18T15:00:00,1024A,117.457,38.8394,天津市,永明路,,24,12,105,4,73,153,75,83,77,16,33,4,7,0.2,0.8
2023-10-18T15:00:00,1026A,117.764,39.1587,天津市,汉北路,,27,9,94,4,58,163,84,69,69,9,30,7,8,0.4,0.9
2023-10-18T15:00:00,1027A,117.157,38.9194,天津市,团泊洼,,23,7,116,3,70,176,71,80,75,17,29,2,3,0.5,1
2023-10-18T15:00:00,1029A,114.4422,38.0444,石家庄市,职工医院,,29,16,85,7,60,164,92,78,68,9,25,3,5,0.3,1
2023-10-18T15:00:00,1030A,114.6063,38.0266,石家庄市,高新区,,30,22,84,15,60,174,94,82,76,7,23,2,3,0.3,1
2023-10-18T15:00:00,1031A,114.4898,38.1328,石家庄市,西北水源,,29,19,90,5,61,163,90,66,66,14,25,1,4,0.3,0.9
2023-10-18T15:00:00,1032A,114.4586,38.0058,石家庄市,西南高教,,30,21,80,7,58,168,95,92,73,6,18,2,4,0.3,0.9
2023-10-18T15:00:00,1033A,114.5331,38.0178,石家庄市,世纪公园,,28,21,81,17,55,156,88,70,70,10,18,3,4,0.3,1
2023-10-18T15:00:00,1034A,114.509,38.0457,石家庄市,人民会堂,,30,17,69,10,69,173,96,77,77,9,24,3,5,0.2,0.9
2023-10-18T15:00:00,1035A,114.3524,37.8911,石家庄市,封龙山,,33,33,69,12,39,163,83,140,82,12,21,7,8,2.0,0.8
2023-10-18T15:00:00,1037A,118.131,39.6363,唐山市,雷达站,,41,41,102,26,75,145,105,72,72,8,22,2,5,0.5,0.9
2023-10-18T15:00:00,1038A,118.1725,39.6334,唐山市,物资局,细颗粒物(PM2.5),53,53,98,37,68,140,113,93,85,15,34,4,7,0.4,0.8
2023-10-18T15:00:00,1040A,118.1705,39.6506,唐山市,十二中,,,43,96,25,63,134,110,79,76,12,32,1,4,,0.3
2023-10-18T15:00:00,1041A,118.1869,39.622,唐山市,小山,颗粒物(PM10),58,66,99,18,62,142,111,101,76,6,22,1,4,0.5,0.9
2023-10-18T15:00:00,1042A,119.5134,39.8207,秦皇岛市,北戴河环保局,,26,26,68,11,38,147,74,96,70,20,33,8,9,0,0.6
2023-10-18T15:00:00,1043A,119.7493,40.0116,秦皇岛市,第一关,,28,28,71,15,50,145,76,99,68,25,65,10,11,0.2,0.7
2023-10-18T15:00:00,1044A,119.5897,39.9499,秦皇岛市,监测站,,28,28,81,13,54,141,69,92,62,25,36,9,12,0.3,0.8
2023-10-18T15:00:00,1046A,119.5251,39.9041,秦皇岛市,建设大厦,,24,24,77,16,48,140,68,100,59,9,25,2,5,0,0.5
2023-10-18T15:00:00,1048A,114.5302,36.6116,邯郸市,东污水处理厂,,33,19,85,2,59,168,104,94,94,8,24,2,4,0.2,0.7
2023-10-18T15:00:00,1049A,114.4918,36.5713,邯郸市,矿院,,33,31,81,2,70,171,103,98,98,12,27,2,4,0.3,0.8
2023-10-18T15:00:00,1050A,114.484,36.6133,邯郸市,丛台公园,,33,20,95,11,67,172,105,97,97,14,21,3,9,0.2,0.7
2023-10-18T15:00:00,1051A,115.493,38.8632,保定市,游泳馆,,30,17,73,6,51,172,95,104,76,15,22,4,6,0.3,0.7
2023-10-18T15:00:00,1052A,115.5213,38.8959,保定市,华电二区,,29,22,59,11,43,164,92,89,76,6,16,2,7,0.1,0.5
2023-10-18T15:00:00,1053A,115.4713,38.9108,保定市,接待中心,,29,19,84,6,46,160,90,82,70,7,18,5,7,0.3,0.7
2023-10-18T15:00:00,1054A,115.4612,38.8416,保定市,地表水厂,,,,94,,47,159,85,93,51,13,29,4,6,0.4,0.8
2023-10-18T15:00:00,1056A,115.5086,38.8639,保定市,监测站,,31,14,69,7,43,173,97,104,80,16,26,4,8,0.1,0.5
2023-10-18T15:00:00,1057A,114.8883,40.8336,张家口市,人民公园,,25,19,37,2,15,96,80,90,62,5,23,3,3,0.3,0.4
2023-10-18T15:00:00,1059A,114.8687,40.8042,张家口市,五金库,,25,13,40,2,16,95,79,94,61,4,20,2,4,0.2,0.4
2023-10-18T15:00:00,1060A,114.8902,40.762,张家口市,世纪豪园,,25,7,42,2,19,93,78,93,55,6,25,3,4,0.2,0.4
2023-10-18T15:00:00,1061A,114.8916,40.8661,张家口市,北泵房,,28,16,34,2,17,114,87,87,68,6,17,6,7,0.1,0.2
2023-10-18T15:00:00,1062A,117.9531,40.9081,承德市,铁路,,,6,60,2,27,91,65,51,51,,53,6,7,0.1,0.5
2023-10-18T15:00:00,1063A,117.9392,40.9763,承德市,中国银行,,23,12,55,3,22,99,71,54,54,5,42,6,6,0.2,0.7
2023-10-18T15:00:00,1064A,117.9503,40.928,承德市,开发区,,25,12,58,6,27,104,80,60,60,6,46,5,7,0.2,0.6
2023-10-18T15:00:00,1065A,117.8051,40.9655,承德市,文化中心,,24,8,69,2,30,100,74,61,61,8,46,3,3,0.2,0.6
2023-10-18T15:00:00,1066A,117.9268,41.0026,承德市,离宫,,23,19,45,5,29,94,73,59,59,1,25,2,2,0.2,0.5
2023-10-18T15:00:00,1067A,116.6708,39.5111,廊坊市,药材公司,,26,26,74,5,37,132,77,69,58,10,34,1,3,0.3,0.6
2023-10-18T15:00:00,1068A,116.7214,39.5589,廊坊市,开发区,,24,18,76,4,43,133,75,58,58,9,32,2,1,0.1,0.5
2023-10-18T15:00:00,1070A,116.7244,39.5269,廊坊市,北华航天学院,,24,18,81,2,41,135,76,77,60,12,44,4,5,0.2,0.6
2023-10-18T15:00:00,1071A,116.8842,38.2991,沧州市,沧县城建局,,27,25,108,10,69,206,86,88,88,10,30,4,5,0.2,0.6
2023-10-18T15:00:00,1072A,116.8584,38.3254,沧州市,电视转播站,,27,27,118,5,75,207,85,83,83,10,22,3,7,0.2,0.5
2023-10-18T15:00:00,1073A,116.8709,38.3228,沧州市,市环保局,,27,26,111,17,77,190,84,82,82,8,24,3,5,0.2,0.5
2023-10-18T15:00:00,1074A,115.6838,37.7541,衡水市,电机北厂,,35,14,73,3,63,190,111,98,98,5,16,3,3,0.2,0.5
2023-10-18T15:00:00,1075A,115.6303,37.7316,衡水市,市监测站,,34,23,87,3,47,181,107,96,96,9,20,3,4,0.3,0.6
2023-10-18T15:00:00,1077A,114.4704,37.0886,邢台市,达活泉,,30,22,91,8,65,183,96,104,83,7,8,1,4,0.2,0.8
2023-10-18T15:00:00,1078A,114.5062,37.0349,邢台市,邢师高专,,35,35,82,9,63,181,95,104,86,10,17,1,6,0.0,0.7
2023-10-18T15:00:00,1079A,114.5237,37.0851,邢台市,路桥公司,,31,27,106,9,62,190,97,95,80,8,18,1,7,0.1,0.7
2023-10-18T15:00:00,1080A,114.4725,37.0719,邢台市,市环保局,,31,25,81,8,55,190,99,109,88,2,6,2,4,0.3,0.9
2023-10-18T15:00:00,1081A,112.522,37.8873,太原市,尖草坪,,28,13,78,9,55,140,88,66,66,13,34,5,6,0.4,0.8
2023-10-18T15:00:00,1083A,112.434,38.0108,太原市,上兰,,,,,,,,,,,,,,,,
2023-10-18T15:00:00,1084A,112.469,37.7124,太原市,晋源,,39,37,91,27,75,142,68,48,48,27,32,8,6,0.9,1.1
2023-10-18T15:00:00,1085A,112.5583,37.7394,太原市,小店,,22,22,94,12,60,138,64,61,61,37,38,9,7,0.9,1
2023-10-18T15:00:00,1086A,112.5369,37.8692,太原市,桃园,,28,19,73,8,45,142,87,62,62,15,39,6,7,0.4,1
2023-10-18T15:00:00,1087A,112.57,37.8195,太原市,坞城,,27,16,56,11,39,146,85,71,71,18,26,7,7,0.7,1
2023-10-18T15:00:00,1088A,112.549,37.9854,太原市,南寨,,33,33,74,8,54,103,81,59,59,15,40,5,3,0.4,1
2023-10-18T15:00:00,1090A,111.6507,40.7517,呼和浩特市,呼市一监,颗粒物(PM10),54,58,58,25,29,83,83,52,44,12,29,10,11,0.5,0.6
2023-10-18T15:00:00,1091A,111.6572,40.8033,呼和浩特市,小召,颗粒物(PM10),57,63,67,20,24,62,62,42,35,21,33,9,9,0.4,0.5
2023-10-18T15:00:00,1094A,111.7516,40.8369,呼和浩特市,如意水处理厂,,,,,,,,,,,,,,,,
2023-10-18T15:00:00,1095A,111.7276,40.8062,呼和浩特市,二十九中,,45,45,64,22,27,80,80,50,44,16,36,12,11,0.4,0.5
2023-10-18T15:00:00,1096A,111.5512,40.7866,呼和浩特市,工大金川校区,颗粒物(PM10),53,56,66,20,28,73,73,51,43,14,30,8,9,0.4,0.5
2023-10-18T15:00:00,1097A,111.717,40.7612,呼和浩特市,化肥厂生活区,颗粒物(PM10),61,71,64,27,29,86,86,45,45,14,29,10,13,0.4,0.6
2023-10-18T15:00:00,1098A,123.6836,41.9339,沈阳市,森林路,,,,,,,,,,,,,,,,
2023-10-18T15:00:00,1099A,123.505,41.7406,沈阳市,浑南东路,,40,40,55,17,26,119,40,87,39,24,29,31,16,0.5,0.8
2023-10-18T15:00:00,1100A,123.4231,41.6989,沈阳市,新秀街,,32,32,67,12,30,118,41,91,34,26,34,28,31,0.5,0.7
2023-10-18T15:00:00,1102A,123.5903,41.8411,沈阳市,东陵路,,33,33,52,13,29,129,35,72,36,29,28,10,13,0.4,0.7
2023-10-18T15:00:00,1103A,123.4264,41.8467,沈阳市,陵东街,,19,19,50,10,26,123,44,106,34,34,21,8,13,0.6,0.8
2023-10-18T15:00:00,1104A,123.4114,41.7653,沈阳市,文化路,,29,29,60,13,33,126,42,102,38,29,24,25,24,0.5,0.8
2023-10-18T15:00:00,1105A,123.4678,41.7867,沈阳市,小河沿,,30,30,56,12,28,123,35,100,34,36,28,14,13,0.5,0.7
2023-10-18T15:00:00,1106A,123.4017,41.7972,沈阳市,太原街,,40,40,52,12,28,125,38,105,28,37,32,13,14,0.4,0.6
2023-10-18T15:00:00,1108A,123.3783,41.9228,沈阳市,京沈街,,33,33,51,7,29,125,67,112,43,10,9,12,14,0.4,0.6
2023-10-18T15:00:00,1109A,121.612,38.9741,大连市,甘井子,,22,20,94,14,41,131,68,117,89,21,28,5,5,0.6,0.8
2023-10-18T15:00:00,1110A,121.565,38.9511,大连市,周水子,,28,28,75,12,37,134,55,116,87,31,26,9,9,0.8,0.9
2023-10-18T15:00:00,1111A,121.5637,38.8845,大连市,星海三站,,27,27,67,12,36,137,66,125,111,21,17,8,11,0.5,0.6
2023-10-18T15:00:00,1112A,121.6302,38.9117,大连市,青泥洼桥,,27,27,59,12,35,119,48,110,94,39,21,6,7,0.7,0.7
2023-10-18T15:00:00,1113A,121.6251,38.8638,大连市,傅家庄,,32,20,63,14,34,143,31,135,118,64,17,6,8,0.6,0.6
2023-10-18T15:00:00,1114A,121.5213,38.8661,大连市,七贤岭,,25,21,80,10,32,153,80,126,112,16,24,5,6,0.5,0.7
2023-10-18T15:00:00,1115A,121.2529,38.8061,大连市,旅顺,,25,15,64,8,27,140,77,130,115,10,17,4,7,0.6,0.7
2023-10-18T15:00:00,1116A,121.7485,39.1311,大连市,金州,,21,20,69,11,32,137,67,119,90,17,22,8,9,0.4,0.6
2023-10-18T15:00:00,1117A,121.7811,39.0496,大连市,开发区,,37,37,53,12,34,128,67,114,104,30,26,5,8,0.5,0.7
2023-10-18T15:00:00,1118A,121.9762,39.0631,大连市,双D港,,27,19,40,8,30,139,84,119,104,15,20,6,7,0.6,0.7
2023-10-18T15:00:00,1119A,125.3325,43.9166,长春市,食品厂,,,22,46,,27,77,52,72,35,17,30,7,8,0.3,0.5
2023-10-18T15:00:00,1120A,125.2863,43.9027,长春市,客车厂,,18,12,41,7,26,78,55,73,33,14,25,6,8,0.4,0.6
2023-10-18T15:00:00,1121A,125.2841,43.8463,长春市,邮电学院,,20,16,46,10,25,81,62,74,38,11,26,5,8,0.2,0.5
2023-10-18T15:00:00,1122A,125.3716,43.8772,长春市,劳动公园,,22,22,52,8,25,79,56,66,36,9,26,6,7,0.2,0.5
2023-10-18T15:00:00,1123A,125.3297,43.8805,长春市,园林处,,17,17,40,3,20,85,46,75,35,19,23,8,9,0.3,0.5
2023-10-18T15:00:00,1124A,125.4605,43.79,长春市,净月潭,,18,18,32,5,19,83,51,70,32,11,15,7,8,0.2,0.4
2023-10-18T15:00:00,1125A,125.7194,43.515,长春市,甩湾子,,,,,,,,,,,,,,,,
2023-10-18T15:00:00,1126A,125.3863,43.8447,长春市,经开区环卫处,,18,12,49,4,25,76,56,48,34,12,35,5,6,0.3,0.5
2023-10-18T15:00:00,1127A,125.245,43.7783,长春市,高新区管委会,,19,17,42,6,58,84,60,62,34,8,27,6,7,0.4,0.5
2023-10-18T15:00:00,1128A,125.1761,43.8325,长春市,岱山公园,,19,18,52,7,23,79,58,62,37,13,37,5,7,0.4,0.6
2023-10-18T15:00:00,1129A,126.5422,45.755,哈尔滨市,岭北,,22,7,48,2,25,81,70,56,48,5,15,3,5,0.0,0.3
2023-10-18T15:00:00,1130A,126.561,45.8167,哈尔滨市,松北商大,,19,19,48,7,20,72,56,51,37,16,24,7,10,0.3,0.4
2023-10-18T15:00:00,1131A,126.979,45.5419,哈尔滨市,阿城会宁,,21,21,49,4,21,78,60,68,34,9,19,5,7,0.4,0.6
2023-10-18T15:00:00,1132A,126.599,45.7222,哈尔滨市,南岗学府路,,,20,55,,23,67,61,49,38,6,24,4,7,0.3,0.5
2023-10-18T15:00:00,1133A,126.689,45.7733,哈尔滨市,太平宏伟公园,,29,29,58,7,27,72,63,53,42,5,23,3,5,0.3,0.6
2023-10-18T15:00:00,1134A,126.635,45.7667,哈尔滨市,道外承德广场,,17,7,51,7,29,70,54,54,38,19,30,3,7,0.1,0.5
2023-10-18T15:00:00,1135A,126.685,45.7319,哈尔滨市,香坊红旗大街,,23,23,58,2,29,65,65,47,41,9,37,7,10,0.4,0.5
2023-10-18T15:00:00,1136A,126.6411,45.7258,哈尔滨市,动力和平路,,18,15,53,7,23,60,57,44,36,9,32,8,14,0.3,0.5
2023-10-18T15:00:00,1137A,126.593,45.7478,哈尔滨市,道里建国路,,27,27,53,14,24,74,62,60,41,13,27,5,10,0.2,0.5
2023-10-18T15:00:00,1138A,126.615,45.61,哈尔滨市,平房东轻厂,,31,31,57,9,26,77,64,54,42,8,20,6,9,0.2,0.3
2023-10-18T15:00:00,1139A,126.595,45.9855,哈尔滨市,呼兰师专,,24,24,47,5,23,72,65,64,51,9,20,2,4,0.5,0.6
2023-10-18T15:00:00,1140A,126.6206,45.6842,哈尔滨市,省农科院,,22,14,56,4,30,70,68,48,48,8,32,4,6,0.1,0.3
2023-10-18T15:00:00,1141A,121.4,31.238,上海市,普陀,,,24,53,20,38,174,147,139,139,,32,5,7,0.6,0.7
2023-10-18T15:00:00,1142A,121.478,31.2036,上海市,十五厂,,49,26,55,11,28,171,154,135,135,19,38,6,6,0.6,0.7
2023-10-18T15:00:00,1143A,121.467,31.3008,上海市,虹口,,48,21,48,22,36,173,151,141,141,25,39,9,10,0.5,0.7
2023-10-18T15:00:00,1144A,121.412,31.1654,上海市,徐汇上师大,,50,20,54,20,45,180,158,140,140,24,39,12,11,0.5,0.7
2023-10-18T15:00:00,1145A,121.536,31.2659,上海市,杨浦四漂,,,43,60,24,33,148,147,140,140,33,68,9,10,,0.6
2023-10-18T15:00:00,1147A,121.425,31.2261,上海市,静安监测站,,50,22,50,20,40,184,160,146,146,22,34,6,6,0.6,0.7
2023-10-18T15:00:00,1148A,121.703,31.1907,上海市,浦东川沙,臭氧1小时,65,30,47,29,34,175,172,147,147,13,28,7,7,0.5,0.6
2023-10-18T15:00:00,1149A,121.533,31.2284,上海市,浦东新区监测站,,49,23,50,17,32,175,156,136,136,20,33,8,8,0.6,0.7
2023-10-18T15:00:00,1150A,121.577,31.2071,上海市,浦东张江,,44,23,50,18,33,162,139,129,129,12,32,6,6,0.9,1
2023-10-18T15:00:00,1151A,118.8086,32.1065,南京市,迈皋桥,臭氧1小时,107,56,86,24,45,214,214,200,158,9,24,8,5,0.7,0.5
2023-10-18T15:00:00,1152A,118.7538,32.0551,南京市,草场门,臭氧1小时,92,53,81,29,53,194,193,162,150,22,34,9,6,1.1,0.9
2023-10-18T15:00:00,1153A,118.7794,32.0745,南京市,山西路,臭氧1小时,105,61,85,31,55,214,209,173,167,14,18,9,8,0.8,0.6
2023-10-18T15:00:00,1154A,118.7752,32.0023,南京市,中华门,臭氧1小时,100,56,91,27,55,200,200,156,156,14,26,10,6,1.1,0.9
2023-10-18T15:00:00,1155A,118.8109,32.0309,南京市,瑞金路,臭氧1小时,84,53,93,22,49,191,187,144,144,9,29,14,12,0.5,0.5
2023-10-18T15:00:00,1156A,118.7997,32.0754,南京市,玄武湖,臭氧1小时,95,41,69,27,51,197,196,170,156,12,17,10,8,0.9,0.8
2023-10-18T15:00:00,1157A,118.6414,32.0931,南京市,浦口,臭氧1小时,84,50,89,28,53,195,187,152,149,21,33,9,8,0.9,0.9
2023-10-18T15:00:00,1158A,118.7356,31.9996,南京市,奥体中心,臭氧1小时,75,47,90,27,55,197,180,157,150,18,29,13,11,0.6,0.4
2023-10-18T15:00:00,1159A,118.9125,32.1028,南京市,仙林大学城,臭氧1小时,107,46,78,34,57,216,214,159,159,18,24,3,4,0.7,0.8
2023-10-18T15:00:00,1160A,120.561,31.2472,苏州市,上方山,臭氧1小时,82,45,72,32,41,259,185,161,161,9,21,5,10,0.5,0.8
2023-10-18T15:00:00,1162A,120.591,31.3019,苏州市,彩香,臭氧1小时,70,32,69,18,41,210,176,154,154,17,23,8,9,0.6,0.8
2023-10-18T15:00:00,1163A,120.596,31.3264,苏州市,轧钢厂,臭氧1小时,82,42,72,20,40,212,185,159,159,16,19,11,12,0.6,0.8
2023-10-18T15:00:00,1164A,120.613,31.2703,苏州市,吴中区,臭氧1小时,79,37,68,20,37,208,183,157,157,19,28,10,10,0.6,0.7
2023-10-18T15:00:00,1165A,120.543,31.2994,苏州市,苏州新区,臭氧1小时,92,37,70,21,44,204,193,162,162,20,32,8,10,0.6,0.8
2023-10-18T15:00:00,1166A,120.669,31.3097,苏州市,苏州工业园区,臭氧1小时,62,25,60,13,38,208,169,165,165,27,28,8,9,0.6,0.8
2023-10-18T15:00:00,1167A,120.641,31.3708,苏州市,相城区,臭氧1小时,52,38,60,16,38,201,161,163,163,28,39,10,11,0.5,0.8
2023-10-18T15:00:00,1168A,120.9098,31.9663,南通市,狼山街道,臭氧1小时,104,54,53,27,30,240,208,167,167,24,37,8,7,0.4,0.5
2023-10-18T15:00:00,1169A,120.86,32.0005,南通市,虹桥,臭氧1小时,110,55,66,34,40,222,220,176,176,24,50,7,13,0.6,0.7
2023-10-18T15:00:00,1170A,120.87,32.02,南通市,城中,臭氧1小时,108,50,59,28,36,232,215,166,166,26,40,8,10,0.5,0.6
2023-10-18T15:00:00,1171A,120.94,31.93,南通市,星湖花园,臭氧1小时,105,59,64,27,33,248,209,177,177,28,35,8,8,0.5,0.6
2023-10-18T15:00:00,1172A,120.81,32.0417,南通市,紫琅学院,臭氧1小时,78,59,67,28,34,193,182,145,145,41,51,8,9,0.3,0.5
2023-10-18T15:00:00,1173A,119.176,34.5885,连云港市,市环境监测站,,,,106,,75,172,172,121,121,14,21,,13,,0.8
2023-10-18T15:00:00,1177A,117.179,34.2761,徐州市,黄河新村,颗粒物(PM10),74,97,109,53,66,192,153,134,134,32,32,9,10,0.6,0.5
2023-10-18T15:00:00,1178A,117.1918,34.2384,徐州市,淮塔,臭氧1小时,70,75,113,45,66,202,176,141,141,18,32,10,12,0.7,0.7
2023-10-18T15:00:00,1180A,117.256,34.2153,徐州市,新城区,颗粒物(PM10),68,85,126,47,73,195,158,130,130,43,39,9,10,0.7,0.8
2023-10-18T15:00:00,1181A,117.244,34.2911,徐州市,桃园路,颗粒物(PM10),73,95,113,41,62,192,168,141,141,28,30,10,11,0.7,0.7
2023-10-18T15:00:00,1182A,117.2933,34.2778,徐州市,农科院,臭氧1小时,58,61,108,37,66,180,166,135,135,18,34,9,10,0.7,0.8
2023-10-18T15:00:00,1186A,119.389,32.3761,扬州市,邗江监测站,臭氧1小时,101,61,106,32,45,260,202,156,156,23,41,9,10,0.3,0.6
2023-10-18T15:00:00,1188A,120.269,31.4867,无锡市,雪浪,臭氧1小时,93,66,74,41,44,229,194,161,161,13,24,6,8,0.7,0.8
2023-10-18T15:00:00,1189A,120.275,31.6219,无锡市,黄巷,颗粒物(PM10),72,93,93,24,40,200,175,142,142,23,55,7,8,0.7,0.9
2023-10-18T15:00:00,1190A,120.294,31.56,无锡市,曹张,臭氧1小时,89,53,59,34,45,195,191,151,151,17,34,8,9,0.8,1
2023-10-18T15:00:00,1191A,120.242,31.5031,无锡市,漆塘,臭氧1小时,98,58,70,34,44,230,198,169,169,21,24,8,8,0.6,0.8
2023-10-18T15:00:00,1192A,120.3489,31.5863,无锡市,东亭,臭氧1小时,103,70,78,36,45,206,206,158,158,20,51,6,7,0.7,1.1
2023-10-18T15:00:00,1193A,120.354,31.5475,无锡市,旺庄,臭氧1小时,100,58,74,36,42,200,200,164,164,25,56,6,7,0.7,0.8
2023-10-18T15:00:00,1194A,120.245,31.5631,无锡市,荣巷,臭氧1小时,94,56,69,39,45,229,195,159,159,13,25,9,10,0.8,1
2023-10-18T15:00:00,1195A,120.299,31.6817,无锡市,堰桥,臭氧1小时,80,56,80,29,42,203,184,140,140,18,32,9,11,0.6,0.8
2023-10-18T15:00:00,1196A,119.9633,31.762,常州市,市监测站,臭氧1小时,95,61,113,45,64,224,196,160,160,23,43,8,11,0.5,0.8
2023-10-18T15:00:00,1200A,119.9468,31.7069,常州市,武进监测站,臭氧1小时,101,49,100,33,54,226,201,162,162,15,25,10,15,0.6,0.8
2023-10-18T15:00:00,1201A,119.9255,31.9087,常州市,安家,臭氧1小时,102,48,107,44,72,236,204,154,154,16,38,9,10,0.7,0.9
2023-10-18T15:00:00,1203A,119.6707,32.1875,镇江市,新区办事处,臭氧1小时,93,34,84,20,66,262,194,147,147,13,52,4,6,0.5,0.8
2023-10-18T15:00:00,1204A,119.4974,32.1968,镇江市,职教中心,臭氧1小时,110,53,78,39,83,256,219,161,161,15,30,3,8,0.5,0.7
2023-10-18T15:00:00,1205A,119.4303,32.1328,镇江市,丹徒区监测站,臭氧1小时,102,72,91,33,77,245,203,152,152,14,32,5,8,0.4,0.6
2023-10-18T15:00:00,1206A,119.905,32.4878,泰州市,公园路,臭氧1小时,116,63,99,36,67,236,231,157,157,19,28,11,12,0.6,0.8
2023-10-18T15:00:00,1207A,119.9189,32.4625,泰州市,莲花,臭氧1小时,118,68,107,34,66,247,236,156,156,19,29,8,9,0.6,0.8
2023-10-18T15:00:00,1209A,119.888,32.4639,泰州市,留学生创业园,臭氧1小时,114,47,95,26,58,244,228,169,169,18,26,9,12,0.6,0.9
2023-10-18T15:00:00,1210A,119.036,33.5981,淮安市,钵池山,臭氧1小时,74,58,95,51,90,188,179,137,137,14,27,11,12,0.7,1.1
2023-10-18T15:00:00,1211A,119.007,33.575,淮安市,北京南路,臭氧1小时,72,56,98,36,89,201,177,130,130,19,32,7,11,0.6,0.9
2023-10-18T15:00:00,1212A,118.989,33.6067,淮安市,市监测站,臭氧1小时,83,63,106,31,72,203,186,138,133,19,30,12,14,0.8,0.9
2023-10-18T15:00:00,1213A,119.135,33.5039,淮安市,楚州区监测站,臭氧1小时,87,68,115,40,96,200,189,129,129,19,42,8,11,0.8,1
2023-10-18T15:00:00,1214A,119.0186,33.6297,淮安市,淮阴区监测站,臭氧1小时,64,75,129,41,86,195,171,135,130,28,30,12,12,0.8,1
2023-10-18T15:00:00,1215A,120.118,33.4022,盐城市,盐城电厂,臭氧1小时,89,73,75,34,41,192,191,146,146,14,19,11,10,0.6,0.9
2023-10-18T15:00:00,1216A,120.156,33.3942,盐城市,市监测站,臭氧1小时,104,60,57,34,41,214,208,146,146,12,24,13,8,0.7,0.7
2023-10-18T15:00:00,1218A,120.2144,33.38,盐城市,开发区管委会,臭氧1小时,102,79,60,29,33,203,203,139,139,15,21,10,9,0.8,0.6
2023-10-18T15:00:00,1220A,118.293,33.9528,宿迁市,宿迁学院,臭氧1小时,106,54,121,27,71,212,212,173,173,22,36,10,12,0.4,0.8
2023-10-18T15:00:00,1221A,118.2442,33.9592,宿迁市,宿迁中学,臭氧1小时,88,54,108,32,76,190,190,161,158,17,25,10,10,0.5,0.7
2023-10-18T15:00:00,1223A,120.2072,30.2111,杭州市,滨江,臭氧1小时,101,48,104,29,54,214,201,134,134,21,42,6,8,0.6,0.7
2023-10-18T15:00:00,1224A,120.0633,30.2747,杭州市,西溪,臭氧1小时,72,36,65,22,57,204,177,116,116,16,33,6,6,0.5,0.7
2023-10-18T15:00:00,1226A,120.3461,30.3153,杭州市,下沙,臭氧1小时,82,44,82,24,57,229,185,126,126,22,54,8,9,0.5,0.7
2023-10-18T15:00:00,1227A,120.1269,30.2456,杭州市,卧龙桥,臭氧1小时,85,47,68,29,48,216,188,119,119,17,27,4,4,0.6,0.8
2023-10-18T15:00:00,1228A,120.1903,30.2692,杭州市,浙江农大,,50,30,73,22,54,194,157,117,117,16,32,6,8,0.6,0.8
2023-10-18T15:00:00,1230A,120.1197,30.3119,杭州市,和睦小学,臭氧1小时,79,43,72,33,55,204,183,127,127,20,39,8,9,0.4,0.8
2023-10-18T15:00:00,1231A,120.3019,30.4183,杭州市,临平镇,臭氧1小时,80,38,104,18,60,224,184,130,130,17,38,6,7,0.5,0.7
2023-10-18T15:00:00,1232A,120.2697,30.1819,杭州市,城厢镇,臭氧1小时,77,46,85,29,64,205,181,125,125,21,42,8,9,0.4,0.7
2023-10-18T15:00:00,1233A,120.0883,30.1808,杭州市,云栖,臭氧1小时,100,51,81,30,51,200,200,119,119,21,32,7,7,0.7,0.8
2023-10-18T15:00:00,1234A,121.8358,29.911,宁波市,区环保大楼,,,25,40,11,27,200,146,136,136,14,40,,6,0.5,0.7
2023-10-18T15:00:00,1235A,121.56,29.82,宁波市,万里学院,,48,41,89,13,47,256,151,134,134,6,38,9,10,0.6,0.8
2023-10-18T15:00:00,1236A,121.713,29.9572,宁波市,龙赛医院,,47,27,57,17,31,219,148,119,119,15,33,6,7,0.4,0.7
2023-10-18T15:00:00,1239A,121.633,29.7733,宁波市,钱湖水厂,,47,21,53,19,33,248,149,130,130,7,12,7,8,0.4,0.6
2023-10-18T15:00:00,1240A,121.5856,29.8635,宁波市,太古小学,,48,31,82,17,36,224,151,133,133,9,32,8,8,0.5,0.8
2023-10-18T15:00:00,1241A,121.524,29.8674,宁波市,市环境监测中心,,47,22,65,17,38,248,150,138,138,11,35,8,10,0.4,0.7
2023-10-18T15:00:00,1242A,120.634,28.0089,温州市,瓯海,,48,36,73,22,44,162,153,122,122,16,45,6,8,0.5,0.7
2023-10-18T15:00:00,1243A,120.6748,27.9939,温州市,南浦,,47,41,75,22,46,167,149,123,123,15,40,6,7,0.4,0.6
2023-10-18T15:00:00,1244A,120.76,27.9747,温州市,龙湾,,,33,65,18,36,163,149,145,145,11,35,5,6,,0.6
2023-10-18T15:00:00,1245A,120.6709,28.0167,温州市,市站,,,48,73,21,45,161,143,117,117,22,36,,7,0.4,0.6
2023-10-18T15:00:00,1247A,120.6053,29.9928,绍兴市,城东开发委,,49,34,79,21,54,209,154,130,130,13,28,8,9,0.6,0.8
2023-10-18T15:00:00,1250A,120.0751,30.8669,湖州市,城西水厂,臭氧1小时,104,54,103,27,66,215,207,142,142,28,43,4,5,0.6,0.6
2023-10-18T15:00:00,1252A,120.7436,30.778,嘉兴市,清河小学,臭氧1小时,87,43,65,22,38,226,189,165,165,14,21,6,7,0.5,0.7
2023-10-18T15:00:00,1253A,120.726,30.7478,嘉兴市,嘉兴学院,臭氧1小时,85,41,61,23,42,221,188,164,164,14,19,7,7,0.5,0.7
2023-10-18T15:00:00,1255A,121.273,28.6459,台州市,黄岩环保大楼,臭氧1小时,54,31,38,19,40,193,163,136,136,16,20,6,7,0.3,0.6
2023-10-18T15:00:00,1256A,121.419,28.6542,台州市,台州环保大楼,,46,35,73,16,43,181,146,128,128,11,25,4,5,0.4,0.6
2023-10-18T15:00:00,1257A,121.377,28.5773,台州市,路桥田洋王,,45,34,65,21,50,176,142,122,122,14,28,7,8,0.4,0.6
2023-10-18T15:00:00,1258A,122.122,30.0203,舟山市,定海檀枫,,43,29,38,8,16,190,137,116,116,11,13,7,7,0.4,0.5
2023-10-18T15:00:00,1259A,122.3094,29.9558,舟山市,普陀东港,,,,18,3,12,170,126,113,113,5,10,5,6,0.3,0.4
2023-10-18T15:00:00,1260A,122.19,29.9944,舟山市,临城新区,,44,21,30,10,17,186,138,116,116,9,15,5,5,0.4,0.5
2023-10-18T15:00:00,1262A,119.647,29.077,金华市,十五中,臭氧1小时,67,31,53,23,37,175,173,130,130,17,36,5,5,0.4,0.5
2023-10-18T15:00:00,1263A,119.686,29.1029,金华市,监测站,臭氧1小时,63,37,65,21,40,182,170,122,122,15,56,5,6,0.7,0.8
2023-10-18T15:00:00,1264A,118.8692,28.9398,衢州市,环保大楼,臭氧1小时,57,38,67,24,44,181,165,115,115,14,32,6,7,0.7,0.7
2023-10-18T15:00:00,1265A,118.8709,28.9666,衢州市,实验学校,,,37,59,26,39,176,168,132,132,14,30,,5,0.5,0.6
2023-10-18T15:00:00,1266A,118.8621,28.9808,衢州市,衢州学院,臭氧1小时,54,34,56,20,36,170,163,112,112,12,32,7,7,0.6,0.6
2023-10-18T15:00:00,1267A,119.914,28.4514,丽水市,监测站大楼,臭氧1小时,53,50,49,30,31,162,162,107,107,12,29,6,8,0.4,0.4
2023-10-18T15:00:00,1268A,119.93,28.4586,丽水市,莲都小学,,49,40,55,23,29,156,156,104,104,8,32,6,6,0.3,0.3
2023-10-18T15:00:00,1269A,119.879,28.4231,丽水市,余庄前,臭氧1小时,55,38,46,16,32,164,164,104,104,19,20,6,6,0.3,0.3
2023-10-18T15:00:00,1270A,117.1959,31.7848,合肥市,明珠广场,臭氧1小时,92,68,78,39,40,193,193,120,120,26,37,9,12,0.6,0.7
2023-10-18T15:00:00,1271A,117.3072,31.8764,合肥市,三里街,臭氧1小时,84,68,84,39,44,187,187,116,116,30,49,6,8,0.8,0.8
2023-10-18T15:00:00,1272A,117.2588,31.8707,合肥市,琥珀山庄,臭氧1小时,85,51,78,29,38,188,188,127,127,16,36,7,8,0.5,0.6
2023-10-18T15:00:00,1273A,117.1604,31.9052,合肥市,董铺水库,臭氧1小时,88,53,80,22,41,190,190,130,130,12,38,17,30,0.5,0.5
2023-10-18T15:00:00,1274A,117.25,31.8571,合肥市,长江中路,臭氧1小时,82,58,81,38,45,185,185,119,119,19,36,10,12,0.4,0.5
2023-10-18T15:00:00,1275A,117.266,31.9436,合肥市,庐阳区,臭氧1小时,93,63,80,34,43,194,194,128,128,15,47,5,7,0.4,0.6
2023-10-18T15:00:00,1276A,117.336,31.8586,合肥市,瑶海区,"颗粒物(PM10),臭氧1小时",65,80,95,40,43,172,172,125,125,21,52,6,7,0.6,0.6
2023-10-18T15:00:00,1277A,117.3027,31.7964,合肥市,包河区,臭氧1小时,75,58,79,36,43,180,180,125,125,19,61,2,5,0.7,0.8
2023-10-18T15:00:00,1278A,117.2776,31.7385,合肥市,滨湖新区,,,63,69,39,37,179,179,125,123,10,16,,10,0.2,0.3
2023-10-18T15:00:00,1279A,117.1318,31.8403,合肥市,高新区,,,61,73,24,36,176,176,127,127,16,30,,11,0.6,0.7
2023-10-18T15:00:00,1280A,119.3903,26.0543,福州市,鼓山,,,,,,,,,,,,,,,,
2023-10-18T15:00:00,1282A,119.2681,26.0504,福州市,师大,臭氧1小时,75,61,47,14,26,181,180,135,135,10,12,5,7,0.5,0.5
2023-10-18T15:00:00,1283A,119.2984,26.1028,福州市,五四北路,臭氧1小时,53,41,44,22,28,163,162,128,128,8,12,3,4,0.5,0.5
2023-10-18T15:00:00,1284A,119.2648,26.0768,福州市,杨桥西路,细颗粒物(PM2.5),84,70,50,62,29,178,178,129,129,9,13,3,4,0.5,0.5
2023-10-18T15:00:00,1285A,119.317,26.0746,福州市,紫阳,,47,44,45,16,27,159,148,124,124,5,8,4,6,0.4,0.5
2023-10-18T15:00:00,1286A,118.1608,24.8169,厦门市,溪东,,,,,,,,,,,,,,,,
2023-10-18T15:00:00,1287A,118.1514,24.4767,厦门市,洪文,颗粒物(PM10),62,74,56,40,31,159,130,107,105,16,11,3,2,0.5,0.4
2023-10-18T15:00:00,1288A,118.0661,24.4444,厦门市,鼓浪屿,颗粒物(PM10),57,63,52,37,30,147,122,105,87,11,14,3,3,0.6,0.6
2023-10-18T15:00:00,1290A,115.8931,28.6843,南昌市,省外办,颗粒物(PM10),54,57,85,29,44,164,160,103,103,9,44,6,8,0.6,0.9
2023-10-18T15:00:00,1291A,115.8886,28.7003,南昌市,省林业公司,臭氧1小时,75,53,98,31,50,180,180,76,76,18,77,8,10,0.7,0.8
2023-10-18T15:00:00,1292A,115.8126,28.7442,南昌市,林科所,,,61,58,,33,196,196,127,127,11,22,10,11,0.5,0.6
2023-10-18T15:00:00,1294A,115.8518,28.687,南昌市,建工学校,,,,,,,,,,,,,,,,
2023-10-18T15:00:00,1295A,115.8921,28.6424,南昌市,象湖,臭氧1小时,65,46,73,26,43,172,172,117,117,11,50,9,9,0.6,0.8
2023-10-18T15:00:00,1296A,115.7423,28.7996,南昌市,武术学校,臭氧1小时,65,34,23,13,15,172,172,108,108,11,9,7,4,0.4,0.4
2023-10-18T15:00:00,1298A,115.9314,28.6842,南昌市,省站,臭氧1小时,55,50,101,30,47,167,164,113,113,8,47,9,13,0.4,0.7
2023-10-18T15:00:00,1299A,116.9862,36.6114,济南市,科干所,,,,,,,,,,,,,,,,
2023-10-18T15:00:00,1300A,116.9376,36.665,济南市,农科所,细颗粒物(PM2.5),64,73,86,46,35,165,135,119,90,20,27,4,7,0.6,0.6
2023-10-18T15:00:00,1301A,117.1265,36.6734,济南市,开发区,颗粒物(PM10),78,105,74,54,33,169,124,148,101,31,29,5,9,0.8,0.7
2023-10-18T15:00:00,1303A,117.0624,36.6868,济南市,省种子仓库,颗粒物(PM10),71,92,80,48,33,176,137,150,101,19,20,4,8,0.6,0.6
2023-10-18T15:00:00,1304A,116.9489,36.6447,济南市,机床二厂,细颗粒物(PM2.5),80,90,96,59,42,174,140,136,96,16,23,3,7,0.5,0.5
2023-10-18T15:00:00,1305A,117.0495,36.663,济南市,市监测站,细颗粒物(PM2.5),83,103,82,61,36,181,134,153,103,30,29,5,9,0.7,0.6
2023-10-18T15:00:00,1306A,116.7675,36.5484,济南市,长清党校,细颗粒物(PM2.5),92,93,97,68,46,182,144,128,94,18,27,4,10,0.7,0.6
2023-10-18T15:00:00,1307A,120.6659,36.2403,青岛市,仰口,臭氧1小时,70,48,60,34,36,176,176,170,170,12,24,4,9,0.6,1
2023-10-18T15:00:00,1310A,120.4134,36.0658,青岛市,市南区东部子站,臭氧1小时,113,83,62,46,29,226,226,177,177,15,13,8,9,0.8,0.6
2023-10-18T15:00:00,1311A,120.3664,36.1032,青岛市,四方区子站,细颗粒物(PM2.5),67,80,64,48,32,167,159,146,146,22,19,5,6,0.9,0.7
2023-10-18T15:00:00,1312A,120.2994,36.054,青岛市,市南区西部子站,臭氧1小时,113,90,73,49,32,226,226,176,176,13,12,9,8,0.8,0.6
2023-10-18T15:00:00,1313A,120.4581,36.0858,青岛市,崂山区子站,臭氧1小时,113,88,67,46,34,225,225,179,179,22,17,9,9,0.8,0.7
2023-10-18T15:00:00,1314A,120.1983,35.9608,青岛市,黄岛区子站,臭氧1小时,113,88,68,56,42,225,225,174,174,26,20,9,9,0.9,0.7
2023-10-18T15:00:00,1315A,120.3999,36.3083,青岛市,城阳区子站,臭氧1小时,105,90,70,42,31,210,210,165,165,31,28,9,8,0.9,0.8
2023-10-18T15:00:00,1316A,113.69031,34.76122,郑州市,烟厂,颗粒物(PM10),61,72,95,32,47,163,145,111,89,18,31,6,7,0.8,0.8
2023-10-18T15:00:00,1317A,113.65724,34.77134,郑州市,郑纺机,颗粒物(PM10),59,68,87,29,43,160,143,101,88,18,37,7,7,1.0,1
2023-10-18T15:00:00,1318A,113.67526,34.80246,郑州市,银行学校,颗粒物(PM10),52,54,81,28,63,165,144,112,90,18,26,7,8,0.7,0.7
2023-10-18T15:00:00,1319A,113.56746,34.81334,郑州市,供水公司,颗粒物(PM10),57,63,100,30,49,159,141,106,88,24,29,8,9,1.0,1
2023-10-18T15:00:00,1320A,113.7329,34.7178,郑州市,经开区管委,颗粒物(PM10),53,55,103,30,47,166,143,103,90,16,32,7,7,0.7,0.7
2023-10-18T15:00:00,1321A,113.73961,34.77172,郑州市,四十七中,颗粒物(PM10),63,75,94,29,46,168,145,110,92,22,34,6,7,0.8,0.9
2023-10-18T15:00:00,1322A,113.60532,34.74838,郑州市,市监测站,颗粒物(PM10),67,83,94,38,52,160,148,105,85,18,40,7,6,0.8,0.7
2023-10-18T15:00:00,1323A,113.64164,34.7525,郑州市,河医大,颗粒物(PM10),69,87,94,40,49,159,134,98,82,19,26,9,9,1.0,1
2023-10-18T15:00:00,1324A,113.51488,34.91089,郑州市,岗李水库,,,,,,,,,,,,,,,,
2023-10-18T15:00:00,1325A,114.3677,30.5584,武汉市,东湖梨园,臭氧1小时,85,43,62,29,47,188,188,114,114,11,35,12,13,0.6,0.8
2023-10-18T15:00:00,1326A,114.2529,30.558,武汉市,汉阳月湖,,,43,69,29,45,164,164,100,100,18,47,9,9,,0.8
2023-10-18T15:00:00,1327A,114.282,30.6189,武汉市,汉口花桥,臭氧1小时,78,57,70,39,50,182,182,101,101,22,44,11,11,0.7,0.9
2023-10-18T15:00:00,1328A,114.3025,30.5332,武汉市,武昌紫阳,臭氧1小时,90,42,65,34,39,192,192,108,108,14,47,12,12,0.6,0.9
2023-10-18T15:00:00,1329A,114.3646,30.6217,武汉市,青山钢花,臭氧1小时,75,36,73,29,53,180,180,120,120,10,41,12,15,0.5,1
2023-10-18T15:00:00,1330A,114.1566,30.4825,武汉市,沌口新区,臭氧1小时,87,49,81,31,49,189,189,115,115,17,51,13,14,0.7,0.8
2023-10-18T15:00:00,1331A,114.3014,30.5944,武汉市,汉口江滩,,,48,68,4,38,177,176,99,99,24,38,10,11,,0.8
2023-10-18T15:00:00,1333A,114.135,30.6319,武汉市,吴家山,臭氧1小时,98,62,76,32,45,198,198,113,113,21,52,12,10,0.4,0.7
2023-10-18T15:00:00,1334A,113.8454,30.2917,武汉市,沉湖七壕,臭氧1小时,67,37,46,36,28,175,173,131,131,12,23,7,5,0.7,0.7
2023-10-18T15:00:00,1335A,113.0833,28.2325,长沙市,经开区环保局,,50,41,75,27,49,160,160,106,106,4,28,8,9,0.4,0.5
2023-10-18T15:00:00,1336A,112.8872,28.2189,长沙市,高开区环保局,臭氧1小时,72,52,65,37,37,178,177,130,130,8,21,8,9,0.6,0.7
2023-10-18T15:00:00,1337A,113.0792,28.2053,长沙市,马坡岭,臭氧1小时,70,47,84,33,50,176,176,113,113,6,32,9,10,0.4,0.5
2023-10-18T15:00:00,1338A,112.9394,28.19,长沙市,湖南师范大学,,,59,61,36,39,193,193,134,134,,19,,9,0.5,0.6
2023-10-18T15:00:00,1339A,113.0178,28.1322,长沙市,雨花区环保局,,,40,57,36,39,172,172,126,126,12,20,8,10,,0.6
2023-10-18T15:00:00,1340A,112.9792,28.2597,长沙市,伍家岭,,,59,88,31,58,182,182,84,84,16,53,,7,0.7,0.8
2023-10-18T15:00:00,1341A,113.0014,28.1944,长沙市,火车新站,臭氧1小时,70,47,69,29,40,176,176,126,126,14,34,8,9,0.6,0.7
2023-10-18T15:00:00,1342A,112.9844,28.1178,长沙市,天心区环保局,臭氧1小时,59,39,49,32,39,170,167,129,129,11,21,8,9,0.5,0.5
2023-10-18T15:00:00,1343A,112.8908,28.1308,长沙市,湖南中医药大学,臭氧1小时,52,46,72,28,45,193,161,108,108,4,44,6,6,0.6,0.7
2023-10-18T15:00:00,1344A,112.9581,28.3611,长沙市,沙坪,,45,39,50,31,38,135,135,96,96,9,15,7,7,0.3,0.4
2023-10-18T15:00:00,1345A,113.2347,23.1423,广州市,广雅中学,颗粒物(PM10),51,51,41,32,28,115,110,84,84,27,28,3,4,0.9,0.8
2023-10-18T15:00:00,1346A,113.2612,23.105,广州市,市五中,细颗粒物(PM2.5),52,50,40,36,29,137,128,98,98,25,24,6,6,0.8,0.7
2023-10-18T15:00:00,1348A,113.3478,23.0916,广州市,广东商学院,细颗粒物(PM2.5),62,65,46,44,29,125,108,84,84,33,26,4,4,0.7,0.6
2023-10-18T15:00:00,1349A,113.4332,23.1047,广州市,市八十六中,颗粒物(PM10),51,51,47,34,28,120,104,86,86,36,29,5,5,0.8,0.7
2023-10-18T15:00:00,1350A,113.3505,22.9483,广州市,番禺中学,细颗粒物(PM2.5),59,58,47,42,29,150,128,95,95,38,33,4,4,1.0,0.8
2023-10-18T15:00:00,1351A,113.2146,23.3916,广州市,花都师范,,45,45,54,28,31,120,106,87,87,20,27,4,6,0.6,0.6
2023-10-18T15:00:00,1352A,113.2597,23.1331,广州市,市监测站,颗粒物(PM10),53,55,49,30,28,124,116,88,88,28,28,3,4,0.7,0.6
2023-10-18T15:00:00,1353A,113.5618,23.312,广州市,九龙镇镇龙,,47,47,40,32,25,114,100,87,87,25,18,5,5,0.7,0.6
2023-10-18T15:00:00,1354A,113.2765,23.1544,广州市,麓湖,,45,45,36,30,25,118,113,91,91,25,27,4,6,0.6,0.5
2023-10-18T15:00:00,1355A,113.443,23.3035,广州市,帽峰山森林公园,,36,33,28,25,24,120,112,91,86,10,11,6,7,0.4,0.4
2023-10-18T15:00:00,1356A,114.1063,22.5545,深圳市,通心岭子站,,40,40,40,26,23,125,105,113,110,17,19,2,4,0.6,0.6
2023-10-18T15:00:00,1357A,114.117,22.5625,深圳市,洪湖,,,50,49,28,25,112,,91,91,17,23,6,7,,0.4
2023-10-18T15:00:00,1358A,113.987,22.5417,深圳市,华侨城,,41,41,42,26,23,123,94,97,97,16,21,8,10,0.8,0.7
2023-10-18T15:00:00,1359A,113.9181,22.5171,深圳市,南海子站,颗粒物(PM10),52,54,54,29,27,129,103,105,105,17,19,5,6,0.7,0.7
2023-10-18T15:00:00,1360A,114.2458,22.5689,深圳市,盐田,,41,41,42,28,26,121,118,114,106,11,30,5,6,0.8,0.8
2023-10-18T15:00:00,1361A,114.2283,22.7244,深圳市,龙岗,颗粒物(PM10),54,58,45,30,26,117,111,86,86,23,20,7,8,0.8,0.7
2023-10-18T15:00:00,1363A,114.494,22.5422,深圳市,南澳,,44,41,46,23,32,148,140,145,128,10,12,6,6,0.8,0.8
2023-10-18T15:00:00,1364A,114.41,22.6342,深圳市,葵涌,,39,39,49,26,23,139,105,132,110,24,17,5,6,0.6,0.6
2023-10-18T15:00:00,1365A,114.297,22.5978,深圳市,梅沙,,45,45,46,24,22,126,93,114,103,8,12,6,7,1.0,0.9
2023-10-18T15:00:00,1366A,114.0678,22.738,深圳市,观澜,细颗粒物(PM2.5),63,71,53,45,26,155,108,108,108,35,19,8,9,0.8,0.7
2023-10-18T15:00:00,1367A,113.5814,22.2618,珠海市,吉大,,42,39,39,29,24,154,118,135,122,17,15,6,6,0.6,0.5
2023-10-18T15:00:00,1368A,113.4881,22.2335,珠海市,前山,,33,33,34,14,19,143,91,121,97,31,21,6,6,0.6,0.5
2023-10-18T15:00:00,1369A,113.628,22.4251,珠海市,唐家,,43,43,42,22,24,140,111,108,108,16,19,4,4,0.6,0.5
2023-10-18T15:00:00,1370A,113.299,22.2281,珠海市,斗门,,40,38,38,28,25,167,102,116,100,22,22,7,10,0.5,0.5
2023-10-18T15:00:00,1371A,113.1294,23.0067,佛山市,湾梁,,44,44,36,27,23,149,110,91,91,27,26,7,9,0.6,0.7
2023-10-18T15:00:00,1372A,113.1083,23.0478,佛山市,华材职中,,46,41,37,32,28,145,112,89,89,28,23,5,6,0.6,0.6
2023-10-18T15:00:00,1373A,113.144,23.0453,佛山市,南海气象局,,42,40,41,29,26,124,95,72,72,26,26,6,6,0.6,0.5
2023-10-18T15:00:00,1374A,113.2881,22.8094,佛山市,顺德苏岗,细颗粒物(PM2.5),55,41,45,39,26,191,117,89,89,29,26,7,9,0.8,0.7
2023-10-18T15:00:00,1376A,112.8383,22.8678,佛山市,高明孔堂,细颗粒物(PM2.5),62,60,54,44,32,164,115,79,79,34,33,5,7,0.7,0.7
2023-10-18T15:00:00,1377A,112.8836,23.1588,佛山市,三水监测站,细颗粒物(PM2.5),54,46,46,38,38,154,98,77,77,38,31,6,6,0.7,0.7
2023-10-18T15:00:00,1378A,112.867,23.185,佛山市,三水云东海,细颗粒物(PM2.5),62,37,41,44,31,150,88,81,72,28,24,3,5,0.7,0.7
2023-10-18T15:00:00,1379A,113.3769,22.5211,中山市,华柏园,细颗粒物(PM2.5),55,36,45,39,30,183,100,91,91,33,31,3,4,0.6,0.5
2023-10-18T15:00:00,1380A,113.3881,22.5497,中山市,张溪,细颗粒物(PM2.5),59,57,62,42,31,189,105,92,92,29,30,3,4,0.6,0.5
2023-10-18T15:00:00,1381A,113.4075,22.5111,中山市,紫马岭,细颗粒物(PM2.5),55,42,48,39,28,189,95,92,92,31,28,3,4,0.5,0.5
2023-10-18T15:00:00,1382A,113.4411,22.4853,中山市,长江旅游区,,,,,,,,,,,,,,,,
2023-10-18T15:00:00,1383A,113.1064,22.6058,江门市,北街,细颗粒物(PM2.5),69,42,48,50,31,218,105,94,94,37,31,6,8,0.8,0.7
2023-10-18T15:00:00,1384A,113.0731,22.5835,江门市,西区,,,61,54,38,29,219,114,102,102,,29,,7,0.7,0.5
2023-10-18T15:00:00,1385A,113.0219,22.5311,江门市,圭峰西,细颗粒物(PM2.5),63,48,47,45,30,217,111,97,97,37,34,4,6,0.8,0.7
2023-10-18T15:00:00,1386A,113.0828,22.5947,江门市,东湖,颗粒物(PM10),67,83,54,44,29,217,107,101,101,30,27,6,7,0.7,0.6
2023-10-18T15:00:00,1389A,113.7547,23.0494,东莞市,莞城梨川,颗粒物(PM10),55,60,43,35,26,141,124,107,107,19,17,6,7,0.8,0.7
2023-10-18T15:00:00,1390A,113.7944,23.0128,东莞市,东城石井,颗粒物(PM10),61,72,50,40,28,138,117,101,101,21,17,6,6,0.7,0.7
2023-10-18T15:00:00,1391A,113.7383,22.9658,东莞市,南城西平,颗粒物(PM10),58,65,49,39,27,129,120,98,98,21,29,2,5,0.8,0.7
2023-10-18T15:00:00,1392A,114.4183,23.0528,惠州市,河南岸金山湖子站,,49,49,44,30,27,117,107,99,99,11,9,6,6,0.7,0.6
2023-10-18T15:00:00,1393A,114.4053,23.0822,惠州市,下埔横江三路子站,,50,50,43,32,28,114,109,101,101,14,12,7,8,0.7,0.6
2023-10-18T15:00:00,1394A,114.4103,23.1142,惠州市,江北云山西路子站,,50,50,40,33,26,120,114,106,106,11,9,7,7,0.6,0.6
2023-10-18T15:00:00,1395A,114.4645,22.7833,惠州市,惠阳区承修路船湖子站,,47,47,48,28,28,102,81,66,66,28,22,5,6,0.9,0.8
2023-10-18T15:00:00,1396A,114.5317,22.7422,惠州市,大亚湾管委会子站,颗粒物(PM10),61,71,64,43,31,110,98,99,84,35,36,7,9,0.8,0.8
2023-10-18T15:00:00,1397A,112.4267,23.0706,肇庆市,睦岗子站,细颗粒物(PM2.5),62,66,54,44,31,211,96,84,84,28,28,7,10,0.5,0.5
2023-10-18T15:00:00,1398A,112.4645,23.0475,肇庆市,城中子站,细颗粒物(PM2.5),70,70,50,51,31,220,94,89,89,29,23,7,10,0.7,0.6
2023-10-18T15:00:00,1399A,112.5544,23.1522,肇庆市,坑口子站,细颗粒物(PM2.5),62,63,51,44,33,199,99,83,83,29,29,6,8,0.6,0.6
2023-10-18T15:00:00,1400A,112.4753,23.1,肇庆市,七星岩子站,,,,,,,,,,,,,,,,
2023-10-18T15:00:00,1401A,108.3103,22.7881,南宁市,二十一中,臭氧1小时,53,49,54,33,34,162,162,133,133,9,16,8,9,0.9,0.8
2023-10-18T15:00:00,1402A,108.3141,22.8528,南宁市,北湖,,50,46,67,34,45,160,160,110,110,10,35,8,22,0.7,0.8
2023-10-18T15:00:00,1403A,108.3206,22.8225,南宁市,市监测站,,,,,,,,,,,,,,,,
2023-10-18T15:00:00,1404A,108.3829,22.8037,南宁市,大自然花园,细颗粒物(PM2.5),54,51,48,38,34,147,147,114,114,14,21,8,9,0.7,0.7
2023-10-18T15:00:00,1405A,108.4394,22.7904,南宁市,仙葫,颗粒物(PM10),52,53,58,31,34,158,158,113,113,11,34,7,9,0.4,0.5
2023-10-18T15:00:00,1406A,108.2397,22.8467,南宁市,区农职院,,,58,66,35,39,175,175,117,117,,36,10,22,0.7,0.7
2023-10-18T15:00:00,1407A,108.3275,22.735,南宁市,英华嘉园,颗粒物(PM10),52,54,52,35,32,148,148,120,120,14,23,8,8,0.7,0.7
2023-10-18T15:00:00,1408A,108.2257,22.7757,南宁市,沙井镇街道办,臭氧1小时,63,52,88,28,48,170,170,109,109,18,52,7,14,0.7,0.8
2023-10-18T15:00:00,1409A,110.576,19.9507,海口市,东寨港,,,,,,,,,,,,,,,,
2023-10-18T15:00:00,1410A,110.3232,20.0574,海口市,海南大学,,,8,30,2,14,148,62,148,70,5,6,,6,0.4,0.4
2023-10-18T15:00:00,1411A,110.283,20.0053,海口市,秀英海南医院,,18,4,27,2,12,152,57,146,64,9,5,7,7,0.4,0.4
2023-10-18T15:00:00,1412A,110.338,19.9969,海口市,海南师范大学,,,6,26,3,12,149,55,143,62,9,7,,5,0.4,0.4
2023-10-18T15:00:00,1413A,110.33,20.0356,海口市,龙华路环保局宿舍,,19,6,30,4,13,155,60,151,70,8,7,8,8,0.3,0.3
2023-10-18T15:00:00,1414A,106.3787,29.8279,重庆市,缙云山,颗粒物(PM10),64,77,57,43,33,167,60,102,49,17,16,8,10,0.5,0.3
2023-10-18T15:00:00,1416A,106.4213,29.8253,重庆市,天生,细颗粒物(PM2.5),98,112,79,73,61,173,51,61,43,25,34,8,10,1.2,1.2
2023-10-18T15:00:00,1417A,106.6263,29.7228,重庆市,两路,细颗粒物(PM2.5),83,77,69,61,48,183,172,82,82,13,40,7,8,0.9,1
2023-10-18T15:00:00,1418A,106.2953,29.5983,重庆市,虎溪,细颗粒物(PM2.5),80,59,73,59,61,173,98,60,60,14,34,7,8,0.6,0.7
2023-10-18T15:00:00,1419A,106.5777,29.5102,重庆市,南坪,细颗粒物(PM2.5),94,61,89,70,70,190,133,60,60,24,34,8,10,0.7,0.8
2023-10-18T15:00:00,1420A,106.6556,29.6277,重庆市,唐家沱,细颗粒物(PM2.5),79,96,80,58,46,174,165,65,65,36,59,8,8,1.0,1
2023-10-18T15:00:00,1421A,106.6349,29.4906,重庆市,茶园,细颗粒物(PM2.5),72,63,84,52,52,181,148,79,79,33,54,6,7,1.1,1
2023-10-18T15:00:00,1422A,106.3754,29.4572,重庆市,白市驿,细颗粒物(PM2.5),62,69,88,44,62,173,143,78,78,18,26,8,10,0.8,0.8
2023-10-18T15:00:00,1425A,106.6205,29.7166,重庆市,空港,"细颗粒物(PM2.5),臭氧1小时",78,82,73,57,50,183,182,104,104,21,45,6,7,0.8,0.9
2023-10-18T15:00:00,1426A,106.4782,29.4875,重庆市,新山村,细颗粒物(PM2.5),100,82,109,75,77,172,142,67,67,25,58,8,13,0.8,1.1
2023-10-18T15:00:00,1427A,106.5616,29.6453,重庆市,礼嘉,细颗粒物(PM2.5),88,80,81,65,49,180,170,81,81,17,50,9,11,0.8,1
2023-10-18T15:00:00,1428A,106.4522,29.7091,重庆市,蔡家,细颗粒物(PM2.5),75,81,81,55,48,166,115,64,64,18,38,5,7,0.6,0.7
2023-10-18T15:00:00,1429A,106.5093,29.3917,重庆市,鱼新街,颗粒物(PM10),87,124,105,48,76,177,169,79,79,30,58,8,15,1.0,1.2
2023-10-18T15:00:00,1431A,103.9728,30.7236,成都市,金泉两河,,26,26,48,6,31,83,49,40,40,8,15,2,3,0.3,0.5
2023-10-18T15:00:00,1432A,104.176,30.6872,成都市,十里店,,20,12,39,3,26,86,64,48,48,6,21,3,3,0.4,0.5
2023-10-18T15:00:00,1433A,104.079,30.5706,成都市,三瓦窑,,22,22,49,2,33,71,53,45,45,4,20,1,2,0.3,0.5
2023-10-18T15:00:00,1434A,104.1114,30.63,成都市,沙河铺,,23,23,51,2,33,65,56,42,42,6,20,1,1,0.3,0.5
2023-10-18T15:00:00,1437A,104.0786,30.6531,成都市,君平街,,17,17,47,3,33,63,54,44,44,20,33,5,6,0.4,0.6
2023-10-18T15:00:00,1438A,103.613,31.0283,成都市,灵岩寺,,22,0,14,3,13,94,69,92,56,9,11,6,7,0.7,0.8
2023-10-18T15:00:00,1439A,106.6899,26.5998,贵阳市,马鞍山,,31,31,26,17,15,102,97,97,97,7,12,4,4,0.5,0.6
2023-10-18T15:00:00,1440A,106.6971,26.5694,贵阳市,市环保站,,41,41,43,26,26,101,99,92,92,14,28,5,5,0.4,0.4
2023-10-18T15:00:00,1441A,106.6243,26.6266,贵阳市,鉴湖路,,39,39,36,19,19,96,94,92,90,5,11,4,5,0.4,0.4
2023-10-18T15:00:00,1442A,106.7487,26.6343,贵阳市,燕子冲,,35,27,28,24,19,102,94,92,92,7,15,5,5,0.5,0.5
2023-10-18T15:00:00,1443A,106.6555,26.4365,贵阳市,碧云窝,,36,36,38,17,20,100,97,95,95,6,10,5,8,0.5,0.5
2023-10-18T15:00:00,1444A,106.694,26.5161,贵阳市,中院村,,36,36,47,24,28,91,88,82,82,11,28,10,11,0.3,0.4
2023-10-18T15:00:00,1445A,106.7109,26.6027,贵阳市,红边门,,41,41,45,27,29,98,92,86,86,10,29,2,4,0.3,0.5
2023-10-18T15:00:00,1446A,106.7164,26.5699,贵阳市,新华路,,32,31,37,22,24,102,96,92,92,10,26,4,6,0.6,0.4
2023-10-18T15:00:00,1447A,106.674,26.5424,贵阳市,太慈桥,,30,29,33,17,20,98,93,89,89,9,21,4,4,0.4,0.4
2023-10-18T15:00:00,1450A,102.8204,24.8886,昆明市,呈贡新区,,26,14,19,6,12,94,81,54,54,11,21,4,7,0.6,0.7
2023-10-18T15:00:00,1451A,102.6251,24.9608,昆明市,西山森林公园,,28,13,15,4,11,122,87,64,64,4,7,4,8,0.4,0.5
2023-10-18T15:00:00,1452A,102.7252,25.0902,昆明市,龙泉镇,,26,0,35,7,15,86,82,45,45,8,27,9,9,0.5,0.7
2023-10-18T15:00:00,1453A,102.7266,25.0375,昆明市,东风东路,,26,13,25,14,16,95,82,50,50,11,24,8,9,0.4,0.6
2023-10-18T15:00:00,1454A,102.6742,25.0669,昆明市,金鼎山,,25,19,34,11,14,84,80,48,48,12,29,12,16,0.4,0.5
2023-10-18T15:00:00,1455A,102.6644,25.0401,昆明市,碧鸡广场,,,10,25,4,14,90,,44,44,6,26,7,8,0.6,0.7
2023-10-18T15:00:00,1456A,91.1319,29.6514,拉萨市,八廓街,,33,29,23,16,13,117,104,78,78,9,17,10,11,0.2,0.3
2023-10-18T15:00:00,1457A,91.1221,29.6747,拉萨市,市环保局,,34,7,22,5,11,122,108,85,73,8,17,8,8,0.5,0.6
2023-10-18T15:00:00,1458A,91.0874,29.6475,拉萨市,区监测站,,32,10,17,7,8,110,100,88,69,7,16,8,8,0.3,0.4
2023-10-18T15:00:00,1459A,91.1774,29.6541,拉萨市,西藏大学,,33,8,18,5,9,114,103,72,69,8,18,8,9,0.3,0.5
2023-10-18T15:00:00,1460A,90.9798,29.6588,拉萨市,区辐射站,,32,17,21,7,8,110,101,92,80,7,15,6,6,0.3,0.4
2023-10-18T15:00:00,1461A,91.0834,29.6292,拉萨市,拉萨火车站,,30,20,18,6,8,105,94,86,73,7,11,6,6,0.4,0.5
2023-10-18T15:00:00,1462A,108.882,34.2749,西安市,高压开关厂,,40,40,61,20,27,50,35,30,19,30,43,7,9,0.5,0.6
2023-10-18T15:00:00,1463A,108.993,34.2629,西安市,兴庆小区,,30,30,47,18,26,46,38,36,23,23,34,6,7,0.5,0.6
2023-10-18T15:00:00,1464A,109.06,34.2572,西安市,纺织城,,36,36,67,22,35,39,37,22,22,30,46,5,6,0.6,0.7
2023-10-18T15:00:00,1465A,108.9356,34.2173,西安市,小寨,,37,37,60,18,25,42,36,30,18,24,39,6,7,0.5,0.6
2023-10-18T15:00:00,1466A,108.954,34.2713,西安市,市人民体育场,,,46,54,19,28,42,,20,13,,34,,6,0.6,0.6
2023-10-18T15:00:00,1467A,108.8922,34.2322,西安市,高新西区,,33,25,52,23,31,42,36,30,20,25,43,6,7,0.5,0.6
2023-10-18T15:00:00,1468A,108.935,34.3474,西安市,经开区,,40,40,49,21,22,41,24,30,11,23,34,4,4,0.5,0.5
2023-10-18T15:00:00,1469A,108.906,34.1546,西安市,长安区,,33,33,58,13,27,63,57,33,33,15,31,6,7,0.5,0.6
2023-10-18T15:00:00,1471A,109.2186,34.3731,西安市,临潼区,,35,33,64,24,34,66,41,64,33,21,23,6,6,0.6,0.7
2023-10-18T15:00:00,1472A,108.869,34.378,西安市,草滩,,44,44,64,23,28,37,28,15,11,33,51,5,6,0.4,0.5
2023-10-18T15:00:00,1473A,108.985,34.1978,西安市,曲江文化产业集团,,47,47,57,16,34,50,38,22,22,27,40,4,6,0.3,0.4
2023-10-18T15:00:00,1474A,109.051,34.3213,西安市,广运潭,,36,36,53,20,31,43,31,19,16,27,39,7,7,0.6,0.7
2023-10-18T15:00:00,1476A,103.631,36.1031,兰州市,兰炼宾馆,细颗粒物(PM2.5),60,52,54,43,38,97,59,49,49,42,39,9,7,0.5,0.5
2023-10-18T15:00:00,1477A,104.1373,35.9454,兰州市,榆中兰大校区,,,,,,,,,,,,,,,,
2023-10-18T15:00:00,1478A,103.8412,36.0726,兰州市,生物制品所,,40,39,49,28,35,90,63,34,34,29,46,6,8,0.7,0.6
2023-10-18T15:00:00,1479A,103.831,36.0464,兰州市,铁路设计院,,49,42,51,34,35,97,65,48,30,29,49,6,9,0.5,0.6
2023-10-18T15:00:00,1483A,101.524,36.6867,西宁市,第五水厂,,,,,,,,,,,,,,,,
2023-10-18T15:00:00,1484A,105.9512,38.6016,银川市,贺兰山马莲口,,42,42,24,10,13,107,90,90,71,15,12,20,14,0.5,0.4
2023-10-18T15:00:00,1488A,106.2328,38.4975,银川市,贺兰山东路,,46,46,55,27,33,109,91,45,45,18,38,16,17,0.5,0.6
2023-10-18T15:00:00,1489A,106.1358,38.5036,银川市,学院路,,48,48,39,23,34,92,77,43,43,15,33,46,15,0.6,0.6
2023-10-18T15:00:00,1490A,87.5801,43.8303,乌鲁木齐市,监测站,,48,48,43,20,14,76,65,23,23,44,50,7,5,0.5,0.6
2023-10-18T15:00:00,1491A,87.6046,43.768,乌鲁木齐市,收费所,,,29,48,,13,85,80,70,70,21,34,3,2,0.7,0.5
2023-10-18T15:00:00,1492A,87.4754,43.9469,乌鲁木齐市,新疆农科院农场,细颗粒物(PM2.5),52,46,43,36,22,71,70,46,46,34,30,7,3,0.5,0.5
2023-10-18T15:00:00,1493A,87.5525,43.8711,乌鲁木齐市,铁路局,颗粒物(PM10),66,82,54,32,19,70,42,13,13,54,54,6,5,0.5,0.6
2023-10-18T15:00:00,1494A,87.6432,43.831,乌鲁木齐市,三十一中学,,48,48,37,17,12,79,63,42,42,39,37,9,7,0.6,0.5
2023-10-18T15:00:00,1496A,87.7216,44.1747,乌鲁木齐市,米东区环保局,颗粒物(PM10),51,51,79,18,27,83,62,17,17,11,27,5,5,0.3,0.5
2023-10-18T15:00:00,1508A,112.9433,27.8614,湘潭市,板塘,臭氧1小时,58,60,85,23,62,166,166,108,108,15,45,21,21,0.8,0.9
2023-10-18T15:00:00,1511A,112.9118,27.8403,湘潭市,市监测站,臭氧1小时,72,49,79,34,50,177,177,128,128,17,45,11,12,0.6,0.8
2023-10-18T15:00:00,1512A,112.8937,27.8728,湘潭市,江麓,臭氧1小时,78,55,87,35,56,182,182,119,119,13,50,13,13,0.7,0.8
2023-10-18T15:00:00,1513A,112.9227,27.8159,湘潭市,岳塘,臭氧1小时,65,58,88,34,52,177,172,132,132,9,33,10,14,0.7,0.6
2023-10-18T15:00:00,1514A,112.9074,27.9119,湘潭市,科大,臭氧1小时,80,60,84,38,54,184,184,121,121,10,54,14,13,0.9,1
2023-10-18T15:00:00,1515A,113.135,27.8244,株洲市,天台山庄,臭氧1小时,63,45,78,34,51,170,170,126,126,12,41,11,13,0.5,0.9
2023-10-18T15:00:00,1518A,113.095,27.8867,株洲市,株冶医院,臭氧1小时,59,46,76,38,54,170,167,118,118,13,40,11,12,0.6,0.8
2023-10-18T15:00:00,1519A,113.167,27.8667,株洲市,市四中,,50,43,88,27,53,176,159,120,120,10,41,8,8,0.4,0.8
2023-10-18T15:00:00,1520A,113.143,27.8381,株洲市,火车站,臭氧1小时,54,44,93,29,56,168,163,119,119,10,38,10,11,0.4,0.8
2023-10-18T15:00:00,1524A,113.13,27.8528,株洲市,市监测站,臭氧1小时,60,48,87,36,62,177,168,129,129,14,45,9,10,0.7,1.1
2023-10-18T15:00:00,1552A,106.805,26.3003,贵阳市,桐木岭,,,,,,,,,,,,,,,,
2023-10-18T15:00:00,1559A,113.251,27.8336,株洲市,大京风景区,,48,40,50,22,40,168,152,106,106,6,8,4,4,0.4,0.5
2023-10-18T15:00:00,1562A,113.0048,27.9153,湘潭市,昭山,臭氧1小时,68,46,73,34,45,179,174,118,118,13,56,10,11,0.6,0.7
2023-10-18T15:00:00,1564A,112.4876,27.9164,湘潭市,韶山,颗粒物(PM10),60,70,105,36,60,198,167,115,115,13,18,11,11,0.6,0.9
2023-10-18T15:00:00,1585A,109.8756,40.6532,包头市,市环境监测站,颗粒物(PM10),53,56,57,10,19,85,85,55,55,6,32,7,22,0.3,0.9
2023-10-18T15:00:00,1587A,109.9991,40.5842,包头市,包头八中,,,72,69,9,16,83,82,56,40,16,37,15,20,,1
2023-10-18T15:00:00,1588A,109.8538,40.6821,包头市,青山宾馆,,42,42,52,5,16,85,85,56,56,5,33,9,21,0.3,0.7
2023-10-18T15:00:00,1589A,109.8642,40.6288,包头市,惠龙物流,,,,51,,17,62,,55,34,,28,,15,,0.6
2023-10-18T15:00:00,1590A,110.0377,40.5546,包头市,东河鸿龙湾,,46,46,65,11,19,85,85,50,46,14,35,20,19,0.8,0.9
2023-10-18T15:00:00,1591A,110.0023,39.8129,鄂尔多斯市,综合楼,,27,27,47,2,13,78,78,48,48,11,41,3,9,0.4,0.7
2023-10-18T15:00:00,1592A,109.9486,39.8261,鄂尔多斯市,巴音孟克林场办事处,,27,27,44,7,18,78,78,50,50,10,39,7,11,0.1,0.4
2023-10-18T15:00:00,1593A,109.7736,39.5986,鄂尔多斯市,康泽苑,,27,27,33,6,14,85,85,50,50,8,22,6,5,0.3,0.4
2023-10-18T15:00:00,1594A,109.8119,39.5989,鄂尔多斯市,华泰汽车城,,,29,37,5,14,82,,34,34,,30,4,4,0.3,0.6
2023-10-18T15:00:00,1595A,109.9734,39.7884,鄂尔多斯市,奥林花园,,25,19,44,5,16,77,77,47,47,9,40,6,7,0.5,0.8
2023-10-18T15:00:00,1597A,122.2703,40.7094,营口市,大庆路,,37,37,51,14,30,130,37,107,53,28,22,13,7,1.3,0.7
2023-10-18T15:00:00,1598A,122.2150,40.6511,营口市,镜湖西路,,,32,53,10,26,123,34,116,45,,21,12,7,0.9,0.8
2023-10-18T15:00:00,1599A,122.1658,40.6789,营口市,西炮台,,25,25,53,16,29,135,45,109,56,24,21,13,7,0.8,0.7
2023-10-18T15:00:00,1600A,124.3303,40.0625,丹东市,江湾东路,,35,35,53,21,30,86,53,57,56,21,28,6,9,0.8,1.1
2023-10-18T15:00:00,1601A,124.4256,40.1503,丹东市,临江后街,,28,28,42,17,21,97,51,49,36,24,28,5,7,0.7,0.8
2023-10-18T15:00:00,1602A,124.3933,40.1461,丹东市,元宝山,,26,21,34,18,17,86,60,58,38,13,21,4,6,0.4,0.6
2023-10-18T15:00:00,1603A,124.3633,40.1092,丹东市,民主桥,,32,32,41,17,19,89,50,45,45,24,35,5,8,0.8,0.9
2023-10-18T15:00:00,1604A,122.0303,41.1489,盘锦市,开发区,,36,36,29,6,24,141,63,102,48,21,23,10,9,0.3,0.9
2023-10-18T15:00:00,1605A,122.0485,41.0883,盘锦市,兴隆台,,22,22,31,8,20,131,57,105,42,21,24,10,10,0.4,0.6
2023-10-18T15:00:00,1606A,121.8297,41.1028,盘锦市,新生街道,,30,30,31,6,20,143,64,100,41,20,19,8,7,0.4,0.6
2023-10-18T15:00:00,1607A,120.9092,40.7136,葫芦岛市,龙港区,,25,25,47,7,31,150,66,138,44,17,17,19,19,0.3,0.7
2023-10-18T15:00:00,1608A,120.8392,40.7514,葫芦岛市,化工街,,27,27,58,9,27,125,66,100,45,16,21,24,12,0.4,0.7
2023-10-18T15:00:00,1609A,120.8341,40.7073,葫芦岛市,新区,,20,20,48,10,32,139,63,117,45,18,23,13,10,0.6,1
2023-10-18T15:00:00,1610A,120.8695,40.7677,葫芦岛市,东城区,,37,37,44,12,34,137,67,108,53,17,20,69,16,0.7,0.9
2023-10-18T15:00:00,1611A,118.5819,24.9117,泉州市,涂山街,臭氧1小时,64,52,48,23,25,182,171,137,135,13,12,5,4,0.8,0.7
2023-10-18T15:00:00,1612A,118.5972,24.8978,泉州市,津头埔,臭氧1小时,60,51,46,30,28,177,168,142,133,17,18,5,3,0.8,0.7
2023-10-18T15:00:00,1613A,118.6663,24.9424,泉州市,万安,臭氧1小时,65,52,45,26,25,184,172,146,146,14,15,4,3,0.7,0.6
2023-10-18T15:00:00,1614A,118.6117,24.9604,泉州市,清源山,,,,,,,,,,,,,,,,
2023-10-18T15:00:00,1616A,117.6795,36.229,济南市,技术学院,颗粒物(PM10),97,144,96,58,43,184,131,151,150,37,31,16,18,0.7,0.7
2023-10-18T15:00:00,1618A,118.3429,35.0532,临沂市,沂河小区,臭氧1小时,104,102,128,59,76,207,207,158,158,28,33,15,18,0.5,0.7
2023-10-18T15:00:00,1619A,118.295,35.0583,临沂市,鲁南制药厂,臭氧1小时,111,100,127,37,54,222,221,173,172,23,28,11,16,0.7,0.8
2023-10-18T15:00:00,1620A,118.2794,34.9976,临沂市,新光毛纺厂,臭氧1小时,104,90,123,46,72,208,207,159,159,27,35,11,18,0.8,1
2023-10-18T15:00:00,1621A,118.3956,35.0888,临沂市,河东保险公司,,,,,,,,,,,,,,,,
2023-10-18T15:00:00,1622A,116.3032,37.4674,德州市,儿童乐园,,36,27,93,9,46,194,114,99,99,20,35,8,10,0.5,0.7
2023-10-18T15:00:00,1624A,116.2991,37.4451,德州市,监理站,,35,23,95,9,48,185,112,96,96,10,28,9,12,0.4,0.6
2023-10-18T15:00:00,1625A,115.9848,36.4372,聊城市,区政府,颗粒物(PM10),53,55,99,36,49,155,143,110,110,10,28,2,4,0.6,0.6
2023-10-18T15:00:00,1628A,118.0062,37.3803,滨州市,市环保局,,45,40,98,31,56,192,124,89,82,14,35,7,20,0.9,1.1
2023-10-18T15:00:00,1629A,118.0018,37.3617,滨州市,第二水厂,,44,44,101,24,56,201,132,89,89,11,37,5,18,0.6,0.8
2023-10-18T15:00:00,1630A,117.9776,37.393,滨州市,北中新校,颗粒物(PM10),51,51,97,23,50,206,128,86,75,16,48,5,17,0.4,0.6
2023-10-18T15:00:00,1631A,118.0414,36.8103,淄博市,人民公园,细颗粒物(PM2.5),128,153,96,97,47,166,108,150,120,29,31,,11,0.7,0.7
2023-10-18T15:00:00,1633A,117.8525,36.4847,淄博市,双山,细颗粒物(PM2.5),110,121,88,83,48,174,,153,144,,24,5,8,0.5,0.7
2023-10-18T15:00:00,1634A,117.9592,36.6331,淄博市,气象站,细颗粒物(PM2.5),107,95,74,80,41,173,122,159,137,25,17,10,10,0.5,0.5
2023-10-18T15:00:00,1635A,118.3092,36.8194,淄博市,莆田园,细颗粒物(PM2.5),98,127,116,73,48,163,124,138,134,21,39,4,12,0.6,1.3
2023-10-18T15:00:00,1637A,117.558,34.8438,枣庄市,市中区政府,臭氧1小时,92,95,129,48,75,193,193,163,159,31,41,10,14,0.6,0.7
2023-10-18T15:00:00,1638A,117.2852,34.7837,枣庄市,薛城环保局,颗粒物(PM10),89,127,123,60,70,204,186,153,153,26,37,12,10,0.8,0.8
2023-10-18T15:00:00,1639A,117.5852,34.7745,枣庄市,峄城区政府,臭氧1小时,97,90,131,36,60,197,197,161,161,26,40,10,10,0.6,0.7
2023-10-18T15:00:00,1640A,117.7276,34.5578,枣庄市,台儿庄区环保局,臭氧1小时,104,97,96,56,64,210,207,173,173,41,36,11,9,0.8,0.8
2023-10-18T15:00:00,1641A,117.4518,35.0992,枣庄市,山亭区环保局,臭氧1小时,101,112,100,51,51,201,201,186,172,28,28,11,12,0.9,0.9
2023-10-18T15:00:00,1642A,121.2514,37.5639,烟台市,开发区,臭氧1小时,89,83,60,48,30,200,191,167,167,22,16,11,8,1.0,0.8
2023-10-18T15:00:00,1643A,121.3719,37.5433,烟台市,轴承厂,臭氧1小时,82,92,60,52,35,194,185,159,159,19,14,8,6,0.6,0.4
2023-10-18T15:00:00,1644A,121.3181,37.5436,烟台市,西郊化工站,臭氧1小时,72,90,60,45,30,195,177,164,164,38,16,8,6,0.6,0.4
2023-10-18T15:00:00,1645A,121.4478,37.4822,烟台市,莱山环保局,臭氧1小时,98,73,51,41,26,198,198,156,156,16,12,9,7,0.7,0.6
2023-10-18T15:00:00,1646A,121.2611,37.4967,烟台市,福山环保局,臭氧1小时,73,92,64,39,31,188,178,152,152,26,23,12,9,0.6,0.5
2023-10-18T15:00:00,1650A,119.1437,36.7023,潍坊市,环保局,颗粒物(PM10),80,110,118,48,63,184,160,154,154,34,33,17,12,0.7,0.9
2023-10-18T15:00:00,1653A,116.6251,35.4302,济宁市,火炬城,细颗粒物(PM2.5),92,112,86,68,47,166,128,95,95,27,28,21,16,0.6,0.5
2023-10-18T15:00:00,1655A,116.5491,35.4042,济宁市,电化厂,,,,,,,,,,,,,,,,
2023-10-18T15:00:00,1656A,117.1437,36.1937,泰安市,监测站,细颗粒物(PM2.5),90,114,99,67,54,186,142,131,131,27,28,15,15,0.8,0.9
2023-10-18T15:00:00,1657A,117.0885,36.2017,泰安市,人口学校,细颗粒物(PM2.5),102,122,91,76,50,188,127,141,127,31,28,10,13,0.7,0.7
2023-10-18T15:00:00,1658A,117.1089,36.1758,泰安市,电力学校,细颗粒物(PM2.5),110,136,101,83,53,180,125,128,126,29,29,11,16,0.4,0.6
2023-10-18T15:00:00,1659A,119.471,35.4209,日照市,监测站,臭氧1小时,98,88,76,57,50,200,198,148,148,25,43,17,12,1.5,1.3
2023-10-18T15:00:00,1660A,119.523,35.4216,日照市,市政府广场,臭氧1小时,103,112,92,56,50,219,206,170,170,45,39,12,11,1.0,1.1
2023-10-18T15:00:00,1661A,119.5587,35.4044,日照市,港务局,臭氧1小时,106,100,91,57,48,216,211,169,169,28,41,11,12,1.0,1.1
2023-10-18T15:00:00,1662A,122.1214,37.4236,威海市,华夏技校,臭氧1小时,62,56,38,36,20,176,169,148,148,18,17,4,3,0.6,0.5
2023-10-18T15:00:00,1663A,122.0508,37.5236,威海市,山大分校,,,71,45,29,16,165,165,133,133,,9,,5,0.6,0.4
2023-10-18T15:00:00,1664A,122.1067,37.5072,威海市,市监测站,臭氧1小时,63,68,49,29,23,173,170,148,148,15,10,8,7,0.8,0.6
2023-10-18T15:00:00,1666A,118.6614,37.4309,东营市,市环保局,,43,31,90,17,48,200,137,116,116,12,31,5,11,0.4,0.6
2023-10-18T15:00:00,1669A,113.5824,24.7733,韶关市,市八中,细颗粒物(PM2.5),72,62,52,52,39,138,136,86,86,12,21,19,19,0.7,0.7
2023-10-18T15:00:00,1671A,113.5917,24.7972,韶关市,园林处,细颗粒物(PM2.5),57,59,60,40,44,133,128,82,82,7,19,18,22,0.7,0.7
2023-10-18T15:00:00,1672A,113.6735,24.7791,韶关市,韶关学院,细颗粒物(PM2.5),57,59,65,40,56,132,115,70,70,7,24,60,20,0.6,0.7
2023-10-18T15:00:00,1673A,113.5971,24.6863,韶关市,曲江监测站,细颗粒物(PM2.5),64,65,56,46,43,156,140,91,82,16,23,28,18,0.9,0.8
2023-10-18T15:00:00,1674A,116.6794,23.3667,汕头市,金平子站,,49,49,49,25,30,185,145,135,132,16,16,6,7,0.7,0.7
2023-10-18T15:00:00,1675A,116.7244,23.3633,汕头市,龙湖子站,,48,48,47,25,27,180,140,134,130,16,15,7,7,0.7,0.7
2023-10-18T15:00:00,1676A,116.7258,23.2775,汕头市,濠江子站,,45,43,42,26,28,187,143,145,134,10,9,8,8,0.6,0.6
2023-10-18T15:00:00,1677A,116.7519,23.4714,汕头市,澄海子站,颗粒物(PM10),55,60,52,37,34,180,145,138,129,18,16,12,12,0.6,0.6
2023-10-18T15:00:00,1678A,116.6092,23.2539,汕头市,潮阳子站,,45,45,45,25,24,184,140,148,136,10,8,8,9,0.6,0.6
2023-10-18T15:00:00,1680A,110.3539,21.2706,湛江市,湛江影剧院,,40,40,52,22,29,179,110,162,102,17,16,5,8,0.7,0.7
2023-10-18T15:00:00,1681A,110.3928,21.2228,湛江市,市环境监测站,,34,33,49,19,35,180,108,153,98,12,14,8,10,0.6,0.6
2023-10-18T15:00:00,1682A,110.4019,21.1997,湛江市,环保局宿舍,,36,27,49,15,36,186,113,149,98,13,18,4,6,0.7,0.7
2023-10-18T15:00:00,1683A,110.4111,21.2028,湛江市,霞山游泳场,,36,20,53,18,33,199,114,150,100,11,16,4,5,0.6,0.7
2023-10-18T15:00:00,1684A,110.3316,21.2679,湛江市,麻章区环保局,,46,33,53,32,33,177,110,164,102,14,17,5,8,0.5,0.7
2023-10-18T15:00:00,1685A,110.4558,21.2567,湛江市,坡头区环保局,,37,28,47,17,38,190,116,160,102,11,15,4,6,0.7,0.7
2023-10-18T15:00:00,1686A,111.0286,21.4688,茂名市,电白南海,,35,31,56,24,35,184,102,142,98,12,15,6,10,0.7,0.7
2023-10-18T15:00:00,1687A,110.9294,21.6533,茂名市,茂石化七小,,29,29,55,17,31,149,88,134,84,15,16,4,8,0.7,0.7
2023-10-18T15:00:00,1688A,110.9107,21.6687,茂名市,健康路,,30,19,48,17,29,157,95,148,94,13,15,10,13,0.7,0.7
2023-10-18T15:00:00,1689A,110.8592,21.6828,茂名市,高岭,,45,19,68,31,37,152,90,152,94,15,17,8,17,0.7,0.6
2023-10-18T15:00:00,1690A,116.1231,24.3284,梅州市,梅江月梅,颗粒物(PM10),53,56,56,30,43,156,149,129,129,12,24,8,8,0.7,0.7
2023-10-18T15:00:00,1691A,116.0797,24.2719,梅州市,梅县新城,,,,58,29,43,146,127,119,119,10,27,8,9,0.7,0.8
2023-10-18T15:00:00,1692A,116.1248,24.2654,梅州市,环境监控中心,,42,42,54,29,36,129,129,112,112,12,24,8,12,0.8,0.8
2023-10-18T15:00:00,1693A,115.3653,22.775,汕尾市,市环保局,,,47,45,22,29,140,129,126,122,9,11,,12,0.6,0.6
2023-10-18T15:00:00,1694A,115.3706,22.7898,汕尾市,市政府,,42,40,44,26,30,142,132,130,123,11,12,7,8,0.5,0.5
2023-10-18T15:00:00,1695A,115.3622,22.7925,汕尾市,新城中学,,50,50,50,28,30,136,128,122,120,8,11,9,10,0.7,0.7
2023-10-18T15:00:00,1696A,114.6778,23.7569,河源市,源西,,41,41,37,20,29,114,103,74,74,8,19,5,5,0.7,0.7
2023-10-18T15:00:00,1697A,114.6944,23.7586,河源市,东埔,,45,45,46,26,32,113,101,75,75,9,15,6,6,0.8,0.9
2023-10-18T15:00:00,1698A,114.6892,23.7233,河源市,老城,颗粒物(PM10),53,55,37,33,31,110,99,75,75,7,11,5,5,0.7,0.7
2023-10-18T15:00:00,1699A,111.9797,21.8593,阳江市,鸳鸯湖,细颗粒物(PM2.5),72,46,53,52,40,196,83,90,71,28,23,11,13,0.9,0.8
2023-10-18T15:00:00,1701A,111.9491,21.8658,阳江市,马南垌,细颗粒物(PM2.5),68,44,58,49,37,199,82,94,73,32,23,7,9,0.6,0.7
2023-10-18T15:00:00,1702A,113.0426,23.691,清远市,环保大楼,,48,31,35,33,37,145,97,88,85,6,6,9,9,0.9,0.9
2023-10-18T15:00:00,1703A,113.0208,23.7106,清远市,凤城街办,,38,38,41,22,27,151,105,95,95,12,12,10,10,0.7,0.7
2023-10-18T15:00:00,1705A,116.6367,23.6719,潮州市,西园路,,,,61,33,33,166,143,134,103,14,17,5,6,0.4,0.3
2023-10-18T15:00:00,1706A,116.6447,23.6706,潮州市,档案局,,48,44,58,31,38,175,152,140,126,14,16,7,7,0.6,0.6
2023-10-18T15:00:00,1708A,116.3701,23.5345,揭阳市,新兴,,50,46,74,35,54,155,137,128,128,16,23,11,14,0.7,0.7
2023-10-18T15:00:00,1709A,116.3264,23.5443,揭阳市,西马,颗粒物(PM10),60,69,89,29,57,156,142,118,118,12,35,9,10,0.7,0.9
2023-10-18T15:00:00,1710A,116.3611,23.5626,揭阳市,东兴,,48,48,93,26,59,153,140,130,130,10,26,8,14,0.7,0.9
2023-10-18T15:00:00,1711A,116.4151,23.5294,揭阳市,渔湖,,47,47,89,28,51,148,140,125,121,16,32,8,13,0.6,0.7
2023-10-18T15:00:00,1712A,112.0392,22.9169,云浮市,新市府,,36,27,45,25,31,182,76,63,62,17,20,6,9,0.9,0.8
2023-10-18T15:00:00,1714A,112.0539,22.9539,云浮市,牧羊,,45,35,48,31,34,173,78,65,60,19,32,5,11,0.5,0.5
2023-10-18T15:00:00,1715A,102.575,24.3711,玉溪市,东风水库,,23,19,21,4,13,74,73,43,43,8,14,6,6,0.9,0.9
2023-10-18T15:00:00,1718A,115.4208,35.2464,菏泽市,气象局,颗粒物(PM10),57,63,105,30,49,173,164,111,111,17,35,4,7,0.4,0.4
2023-10-18T15:00:00,1719A,115.4747,35.2375,菏泽市,市政协,臭氧1小时,54,56,94,33,48,173,163,111,111,16,30,4,8,0.3,0.4
2023-10-18T15:00:00,1721A,113.3819,40.1097,大同市,果树场,,,,,,,,,,,,,,,,
2023-10-18T15:00:00,1723A,113.2994,40.0758,大同市,云冈宾馆,,25,11,31,2,16,113,79,83,50,9,24,7,10,0.3,0.6
2023-10-18T15:00:00,1724A,113.3444,40.0917,大同市,大同大学,,24,15,34,6,17,93,76,76,50,8,22,6,11,0.4,0.7
2023-10-18T15:00:00,1725A,113.2661,40.1269,大同市,安家小村,,28,9,29,3,10,124,88,81,57,4,16,10,13,0.1,0.3
2023-10-18T15:00:00,1726A,113.2711,40.0844,大同市,教育学院,,30,30,40,7,16,116,77,85,53,12,26,5,9,0.2,0.5
2023-10-18T15:00:00,1727A,113.1147,36.1547,长治市,清华站,,32,25,46,12,39,139,102,100,85,14,17,13,9,0.7,0.8
2023-10-18T15:00:00,1728A,113.1031,36.1989,长治市,监测站,,32,25,46,14,42,141,100,100,82,18,21,11,9,0.8,1
2023-10-18T15:00:00,1730A,113.0886,36.2125,长治市,审计局,,30,25,26,9,13,100,95,93,93,18,16,14,14,0.5,0.6
2023-10-18T15:00:00,1731A,113.0844,36.1856,长治市,长治八中,,31,30,53,9,33,143,99,100,82,15,18,17,14,0.5,0.7
2023-10-18T15:00:00,1733A,111.5531,36.0783,临汾市,临钢医院,颗粒物(PM10),56,62,94,38,64,121,58,50,47,28,28,9,8,1.1,1.4
2023-10-18T15:00:00,1734A,111.5028,36.0714,临汾市,技工学校,细颗粒物(PM2.5),60,54,84,43,72,121,49,55,43,33,31,9,9,0.7,1
2023-10-18T15:00:00,1736A,111.5018,36.0855,临汾市,市委,细颗粒物(PM2.5),70,64,99,51,80,126,49,58,44,38,31,11,10,0.8,1.1
2023-10-18T15:00:00,1738A,113.5758,37.8572,阳泉市,市中心,,34,34,55,14,40,142,85,76,76,21,33,6,7,0.4,0.9
2023-10-18T15:00:00,1739A,113.4894,37.8731,阳泉市,赛鱼,,29,29,60,15,45,145,81,64,64,20,35,7,8,0.4,0.8
2023-10-18T15:00:00,1740A,113.5819,37.8486,阳泉市,南庄,,34,34,69,15,39,144,89,78,78,19,27,8,8,0.4,0.9
2023-10-18T15:00:00,1742A,113.5614,37.8703,阳泉市,平坦,,27,21,62,5,38,139,86,74,74,18,33,5,6,0.4,0.9
2023-10-18T15:00:00,1743A,113.5158,37.8392,阳泉市,大阳泉,,29,7,47,6,39,113,91,72,72,17,27,6,6,0.4,0.7
2023-10-18T15:00:00,1744A,118.9233,42.2816,赤峰市,松山一中,,23,17,33,2,12,133,72,63,58,16,24,9,12,0.4,0.6
2023-10-18T15:00:00,1745A,118.9576,42.2728,赤峰市,哈达街,,24,10,37,2,16,131,75,67,62,14,23,15,19,0.4,0.6
2023-10-18T15:00:00,1746A,118.8788,42.2554,赤峰市,天义路,,,,31,,14,142,78,78,63,,17,9,11,0.3,0.5
2023-10-18T15:00:00,1748A,123.044,41.1196,鞍山市,深沟寺,,27,27,55,7,37,156,47,146,46,12,17,4,6,0.5,0.7
2023-10-18T15:00:00,1749A,123.011,41.0931,鞍山市,太阳城,,18,17,63,6,33,158,56,148,40,12,21,8,10,0.5,1
2023-10-18T15:00:00,1750A,123.0485,41.1442,鞍山市,太平,,16,16,73,9,35,161,44,152,40,19,30,8,10,0.5,0.8
2023-10-18T15:00:00,1751A,122.9642,41.0971,鞍山市,铁西三道街,,21,21,81,5,39,153,43,144,35,24,30,9,8,0.6,1
2023-10-18T15:00:00,1752A,122.9341,41.0833,鞍山市,铁西工业园区,,26,26,77,8,39,133,43,120,34,19,25,7,10,0.6,1.2
2023-10-18T15:00:00,1753A,123.022,41.0821,鞍山市,明达新区,,30,30,58,11,33,152,54,144,46,11,19,7,8,0.7,1.1
2023-10-18T15:00:00,1754A,123.1289,41.0228,鞍山市,千山,,,,,,,,,,,,,,,,
2023-10-18T15:00:00,1755A,123.7977,41.8491,抚顺市,望花区,,38,38,58,12,30,107,47,87,45,16,29,11,23,0.4,0.9
2023-10-18T15:00:00,1756A,123.9161,41.8822,抚顺市,顺城区,,46,46,68,21,44,108,44,50,43,22,42,10,9,0.7,1
2023-10-18T15:00:00,1757A,124.0436,41.8611,抚顺市,东洲区,,42,42,60,14,34,112,55,99,52,14,21,9,13,0.6,0.7
2023-10-18T15:00:00,1758A,123.9247,41.8642,抚顺市,新抚区,,44,44,46,16,35,107,41,56,42,18,27,10,9,0.6,0.8
2023-10-18T15:00:00,1759A,124.0972,41.8961,抚顺市,大伙房水库,,36,36,47,14,31,120,51,107,53,11,15,9,11,0.7,0.8
2023-10-18T15:00:00,1760A,123.7086,41.8391,抚顺市,沈抚新城,,38,38,56,14,33,117,40,87,43,22,28,8,11,0.3,0.6
2023-10-18T15:00:00,1761A,123.8275,41.3064,本溪市,大峪,,19,19,46,12,24,117,39,108,44,25,23,7,8,0.5,0.7
2023-10-18T15:00:00,1762A,123.7567,41.3325,本溪市,溪湖,,30,30,63,11,31,110,52,99,48,17,26,11,14,0.5,0.9
2023-10-18T15:00:00,1763A,123.7169,41.3094,本溪市,彩屯,细颗粒物(PM2.5),68,69,90,49,53,114,16,53,42,43,49,45,36,3.5,2.8
2023-10-18T15:00:00,1764A,123.7669,41.2864,本溪市,东明,,39,39,40,16,24,113,42,110,50,29,21,9,10,0.8,0.7
2023-10-18T15:00:00,1765A,123.7992,41.2664,本溪市,新立屯,,26,13,38,18,18,99,42,98,44,23,24,10,11,0.6,0.9
2023-10-18T15:00:00,1766A,123.8142,41.3472,本溪市,威宁,,33,33,59,15,36,97,32,86,29,26,31,6,7,0.6,0.9
2023-10-18T15:00:00,1767A,121.1115,41.0879,锦州市,南山,,27,26,41,4,36,124,84,91,59,6,18,9,11,0.4,0.8
2023-10-18T15:00:00,1768A,121.0533,40.8434,锦州市,开发区,,22,20,58,12,46,143,70,124,38,8,30,15,20,0.5,0.8
2023-10-18T15:00:00,1769A,121.1836,41.1119,锦州市,百股街道,,28,21,40,7,25,130,88,109,56,7,19,11,12,0.4,0.7
2023-10-18T15:00:00,1770A,121.1178,41.1222,锦州市,天安街道,,26,12,50,7,33,121,81,88,58,10,21,11,12,0.5,0.8
2023-10-18T15:00:00,1771A,121.1303,41.1386,锦州市,北湖公园,,26,25,49,5,34,123,81,88,63,8,17,12,13,0.4,0.7
2023-10-18T15:00:00,1772A,126.54,43.8622,吉林市,哈达湾,,30,30,33,19,20,99,45,86,48,17,23,5,7,0.6,0.6
2023-10-18T15:00:00,1773A,126.5844,43.8358,吉林市,东局子,,38,38,42,22,20,92,39,78,48,23,26,5,6,0.7,0.6
2023-10-18T15:00:00,1774A,126.5052,43.8245,吉林市,电力学院,,30,30,52,12,27,91,51,78,56,12,31,9,10,0.6,0.8
2023-10-18T15:00:00,1775A,126.6133,43.8972,吉林市,江北,,43,43,62,23,29,84,41,70,45,23,30,9,9,0.8,0.9
2023-10-18T15:00:00,1776A,126.555,43.8306,吉林市,江南公园,,39,39,38,24,22,95,39,85,54,20,23,7,8,0.7,0.7
2023-10-18T15:00:00,1778A,126.7061,43.7133,吉林市,丰满,,,,,,,,,,,,,,,,
2023-10-18T15:00:00,1779A,123.9305,47.3636,齐齐哈尔市,安居小区,,19,15,41,11,16,60,60,55,55,6,16,5,6,0.2,0.3
2023-10-18T15:00:00,1780A,123.9488,47.3386,齐齐哈尔市,中心广场,,18,13,19,5,12,55,55,50,50,9,15,2,3,0.4,0.4
2023-10-18T15:00:00,1781A,123.9483,47.3227,齐齐哈尔市,农牧车辆厂,,22,22,47,3,8,57,54,50,48,12,15,6,9,0.3,0.3
2023-10-18T15:00:00,1783A,123.945,47.2988,齐齐哈尔市,市环境监测站,,29,29,40,2,15,61,57,53,50,8,12,4,5,0.2,0.3
2023-10-18T15:00:00,1784A,129.61,44.561,牡丹江市,环保大楼,,50,50,51,25,21,65,30,34,34,41,39,6,8,0.6,0.6
2023-10-18T15:00:00,1785A,129.6115,44.5782,牡丹江市,文化广场,细颗粒物(PM2.5),62,50,66,44,36,64,27,26,26,43,44,6,10,0.7,0.8
2023-10-18T15:00:00,1786A,129.5904,44.5963,牡丹江市,第一医院,,50,47,59,35,32,58,21,26,26,51,41,6,9,0.8,0.7
2023-10-18T15:00:00,1787A,129.6364,44.6075,牡丹江市,机车工厂,颗粒物(PM10),63,75,88,44,24,63,21,23,23,45,35,5,7,0.7,0.8
2023-10-18T15:00:00,1788A,129.6386,44.5462,牡丹江市,第一中学,颗粒物(PM10),51,51,45,20,18,73,19,35,35,46,33,6,7,0.5,0.4
2023-10-18T15:00:00,1789A,124.81117,46.03138,大庆市,大同区,,27,27,50,7,14,72,56,54,47,8,13,5,6,0.3,0.5
2023-10-18T15:00:00,1790A,125.129,46.533,大庆市,龙凤区,,19,10,23,5,11,62,60,50,50,9,15,5,12,0.4,0.5
2023-10-18T15:00:00,1791A,124.902,46.408,大庆市,红岗区,,21,20,34,4,10,67,65,52,52,6,13,4,5,0.2,0.3
2023-10-18T15:00:00,1792A,125.153,46.586,大庆市,萨尔图区,,,12,46,2,10,62,53,46,45,,17,4,6,,0.3
2023-10-18T15:00:00,1793A,124.9042,46.6215,大庆市,让胡路区,,19,9,39,4,9,70,60,49,49,8,15,1,3,0.3,0.4
2023-10-18T15:00:00,1794A,118.3606,31.3519,芜湖市,监测站,臭氧1小时,53,54,79,18,52,178,162,150,123,23,25,12,11,0.8,0.6
2023-10-18T15:00:00,1795A,118.3714,31.4134,芜湖市,科创中心,臭氧1小时,64,49,80,22,55,183,171,127,127,24,46,10,10,0.8,0.8
2023-10-18T15:00:00,1796A,118.3673,31.3131,芜湖市,四水厂,颗粒物(PM10),54,57,81,24,47,179,159,147,123,35,26,13,10,0.9,0.6
2023-10-18T15:00:00,1798A,118.5092,31.6837,马鞍山市,湖东路四小,臭氧1小时,67,42,65,16,54,188,173,159,146,17,25,9,12,0.6,0.7
2023-10-18T15:00:00,1799A,118.5024,31.6449,马鞍山市,开发区,臭氧1小时,58,49,84,20,63,185,166,146,145,25,34,12,13,0.6,0.8
2023-10-18T15:00:00,1800A,118.5228,31.7231,马鞍山市,慈湖,臭氧1小时,64,51,77,26,60,183,171,165,151,26,29,10,15,0.7,0.8
2023-10-18T15:00:00,1802A,118.6245,31.7241,马鞍山市,濮塘,,,,,,,,,,,,,,,,
2023-10-18T15:00:00,1803A,115.9872,29.6815,九江市,十里,臭氧1小时,69,42,60,21,39,184,175,127,127,14,42,10,8,0.6,0.8
2023-10-18T15:00:00,1804A,115.9584,29.7046,九江市,茅山头,臭氧1小时,74,48,55,35,47,188,179,130,130,20,39,12,11,0.7,0.8
2023-10-18T15:00:00,1805A,115.9877,29.7295,九江市,西园,颗粒物(PM10),53,55,68,32,42,166,161,105,105,37,54,14,11,0.6,0.8
2023-10-18T15:00:00,1806A,116.0172,29.6547,九江市,五七二七厂,,50,34,37,30,29,174,160,122,122,10,17,13,11,0.5,0.5
2023-10-18T15:00:00,1808A,115.9114,29.6038,九江市,综合工业园,臭氧1小时,53,47,63,31,43,169,162,118,118,26,38,15,14,0.8,0.8
2023-10-18T15:00:00,1809A,116.0721,29.7535,九江市,石化总厂,,50,40,74,22,48,159,158,125,125,18,28,13,13,0.6,0.7
2023-10-18T15:00:00,1810A,115.9773,29.5698,九江市,庐山气象台,,49,33,33,27,25,162,154,151,133,7,5,7,8,0.8,0.7
2023-10-18T15:00:00,1812A,112.3931,34.6516,洛阳市,市委党校,,42,35,111,29,100,142,87,70,66,14,25,5,6,0.5,0.8
2023-10-18T15:00:00,1814A,112.4657,34.6871,洛阳市,豫西宾馆,,46,39,123,32,94,147,87,65,65,19,29,2,3,0.6,0.7
2023-10-18T15:00:00,1815A,112.494,34.6886,洛阳市,河南林校,,36,31,113,25,89,139,81,61,61,19,28,3,4,0.6,0.8
2023-10-18T15:00:00,1816A,112.3844,34.623,洛阳市,开发区管委会,,43,38,111,30,89,160,81,69,69,18,24,3,3,0.6,0.8
2023-10-18T15:00:00,1817A,112.4267,34.6258,洛阳市,市委新办公区,,35,35,120,24,101,146,89,70,70,15,23,3,3,0.5,0.7
2023-10-18T15:00:00,1818A,114.4839,36.0621,安阳市,棉研所,,,,,,,,,,,,,,,,
2023-10-18T15:00:00,1819A,114.3551,36.1017,安阳市,红庙街,,38,34,94,9,59,179,121,107,107,7,32,7,10,0.6,0.9
2023-10-18T15:00:00,1820A,114.361,36.0681,安阳市,银杏小区,,37,30,89,9,46,174,117,108,108,5,30,7,9,0.5,0.9
2023-10-18T15:00:00,1824A,114.3389,34.7781,开封市,肿瘤医院,"颗粒物(PM10),细颗粒物(PM2.5)",53,55,127,37,59,161,147,98,98,6,34,9,9,0.7,0.7
2023-10-18T15:00:00,1826A,114.2885,34.7965,开封市,世纪星幼儿园,,44,44,112,28,48,159,139,91,91,16,43,6,7,0.9,0.9
2023-10-18T15:00:00,1828A,113.227,35.2125,焦作市,市环保局,细颗粒物(PM2.5),82,81,109,60,75,184,138,71,71,16,25,8,8,1.0,0.9
2023-10-18T15:00:00,1830A,113.1992,35.2590,焦作市,影视城,,,,,,,,,,,,,,,,
2023-10-18T15:00:00,1832A,113.3257,33.742,平顶山市,新华旅馆,细颗粒物(PM2.5),55,55,102,39,59,155,122,82,82,14,39,6,8,0.6,0.8
2023-10-18T15:00:00,1833A,113.2919,33.737,平顶山市,规划设计院,,42,42,106,26,76,153,118,79,79,12,37,8,10,0.5,0.8
2023-10-18T15:00:00,1834A,113.182,33.774,平顶山市,平顶山工学院,,,56,126,29,75,158,,67,67,15,30,8,15,0.7,0.9
2023-10-18T15:00:00,1835A,111.1922,34.7752,三门峡市,市政府,,43,43,73,21,42,95,41,47,47,31,31,13,9,0.6,0.9
2023-10-18T15:00:00,1836A,111.1587,34.7942,三门峡市,开发区,细颗粒物(PM2.5),65,47,108,47,78,97,39,49,49,30,24,12,8,0.6,0.7
2023-10-18T15:00:00,1838A,111.143,34.7955,三门峡市,风景区,,,,,,,,,,,,,,,,
2023-10-18T15:00:00,1840A,111.2992,30.6981,宜昌市,白龙岗,细颗粒物(PM2.5),70,70,65,51,46,166,150,96,96,30,32,12,9,0.6,0.7
2023-10-18T15:00:00,1841A,111.3549,30.6465,宜昌市,伍家岗,,,,63,,51,174,174,98,98,,41,13,7,,0.7
2023-10-18T15:00:00,1842A,111.2628,30.6961,宜昌市,点军区,细颗粒物(PM2.5),64,66,77,46,56,183,161,95,95,22,26,11,9,0.6,0.7
2023-10-18T15:00:00,1843A,111.3275,30.7819,宜昌市,夷陵区,颗粒物(PM10),64,78,74,44,48,173,170,97,97,26,29,17,8,0.6,0.6
2023-10-18T15:00:00,1844A,112.2494,30.3197,荆州市,市图书馆,臭氧1小时,102,89,102,62,70,204,204,130,130,18,41,15,12,0.7,0.8
2023-10-18T15:00:00,1845A,112.2008,30.3544,荆州市,市委党校,臭氧1小时,106,121,100,59,69,211,211,126,126,18,47,15,12,0.8,0.9
2023-10-18T15:00:00,1847A,113.1094,29.3578,岳阳市,南湖风景区,臭氧1小时,67,40,55,28,40,184,173,120,120,11,37,13,13,0.6,0.8
2023-10-18T15:00:00,1848A,113.1493,29.4251,岳阳市,城陵矶,臭氧1小时,68,43,67,32,38,183,174,110,110,12,49,12,11,0.8,0.8
2023-10-18T15:00:00,1849A,113.1497,29.3575,岳阳市,开发区,,47,41,53,27,41,158,148,113,113,26,37,12,12,0.6,0.7
2023-10-18T15:00:00,1850A,113.2621,29.4758,岳阳市,云溪区,,,36,55,30,41,189,155,115,115,14,27,,10,0.5,0.6
2023-10-18T15:00:00,1851A,112.9943,29.4402,岳阳市,君山区,臭氧1小时,55,41,71,35,51,168,164,118,118,14,41,9,9,0.5,0.7
2023-10-18T15:00:00,1852A,113.2117,29.355,岳阳市,金凤水库,臭氧1小时,59,40,47,24,31,210,167,116,116,8,18,7,6,0.5,0.6
2023-10-18T15:00:00,1854A,111.6975,28.9703,常德市,市二中,臭氧1小时,88,77,86,50,63,190,190,118,118,22,27,14,11,0.8,0.7
2023-10-18T15:00:00,1857A,111.7158,29.1456,常德市,白鹤山,臭氧1小时,101,49,50,1,4,201,201,136,136,12,11,8,8,0.6,0.5
2023-10-18T15:00:00,1858A,110.5319,29.1217,张家界市,永定新区,细颗粒物(PM2.5),52,51,57,36,38,149,149,75,75,16,24,8,7,0.6,0.6
2023-10-18T15:00:00,1859A,110.4697,29.1242,张家界市,电业局,颗粒物(PM10),59,68,57,39,38,153,153,82,82,28,26,10,8,0.6,0.6
2023-10-18T15:00:00,1860A,110.5594,29.3547,张家界市,未央路,,41,38,46,27,31,152,131,98,98,3,14,6,4,0.5,0.6
2023-10-18T15:00:00,1861A,110.4417,29.315,张家界市,袁家界,,36,31,42,25,26,140,104,117,97,7,13,9,9,0.7,0.7
2023-10-18T15:00:00,1862A,110.4144,25.3167,桂林市,电子科大尧山校区,,31,19,38,20,29,124,97,87,87,4,7,3,3,0.5,0.5
2023-10-18T15:00:00,1863A,110.2819,25.2697,桂林市,监测站,,42,34,64,29,40,142,113,97,97,7,30,5,8,0.7,0.9
2023-10-18T15:00:00,1864A,110.3089,25.2708,桂林市,龙隐路小学,,43,37,50,30,37,141,112,99,99,8,21,6,8,0.6,0.7
2023-10-18T15:00:00,1865A,110.2869,25.2178,桂林市,八中,,34,30,54,16,38,138,107,93,93,7,23,4,6,0.6,0.7
2023-10-18T15:00:00,1866A,109.2262,21.588,北海市,牛尾岭水库,,,,,,,,,,,,,,,,
2023-10-18T15:00:00,1867A,109.1436,21.4086,北海市,海滩公园,,43,43,56,15,33,178,111,110,110,10,12,7,10,0.7,0.8
2023-10-18T15:00:00,1868A,109.0981,21.4661,北海市,新市环保局,,42,42,53,22,38,164,118,114,114,10,14,8,12,0.7,0.7
2023-10-18T15:00:00,1869A,109.1778,21.5233,北海市,北海工业园,,42,40,61,29,42,148,108,102,102,10,14,10,15,0.6,0.7
2023-10-18T15:00:00,1870A,109.4856,24.3895,柳州市,柳东小学,,34,27,51,22,42,153,106,93,93,6,17,8,12,0.5,0.6
2023-10-18T15:00:00,1871A,109.4157,24.3277,柳州市,环保监测站,,48,34,75,33,49,142,104,91,91,6,32,6,10,0.6,0.9
2023-10-18T15:00:00,1872A,109.389,24.341,柳州市,河西水厂,,40,40,91,21,47,148,110,88,88,8,31,9,15,0.9,1.4
2023-10-18T15:00:00,1873A,109.4311,24.2921,柳州市,市四中,,40,40,67,18,41,160,117,97,97,9,30,5,9,0.7,1
2023-10-18T15:00:00,1874A,109.4006,24.3631,柳州市,市九中,,38,35,85,26,50,138,115,93,93,11,37,7,11,0.8,1
2023-10-18T15:00:00,1875A,109.4958,24.3134,柳州市,古亭山,,46,46,54,32,38,167,134,93,93,9,37,8,14,0.6,0.7
2023-10-18T15:00:00,1876A,109.5078,18.2489,三亚市,河东子站,,20,6,5,3,2,94,64,62,62,4,4,3,3,0.5,0.4
2023-10-18T15:00:00,1877A,109.4964,18.2681,三亚市,河西子站,,20,12,7,5,2,84,63,56,56,2,3,4,4,0.4,0.3
2023-10-18T15:00:00,1878A,104.7778,31.4741,绵阳市,富乐山,,21,8,30,2,20,106,66,54,54,8,15,3,4,0.5,0.6
2023-10-18T15:00:00,1879A,104.7563,31.4535,绵阳市,市人大,,20,11,33,11,22,80,61,44,44,10,24,7,8,0.5,0.6
2023-10-18T15:00:00,1880A,104.6697,31.4668,绵阳市,高新区自来水公司,,,4,27,3,17,72,58,46,46,,26,6,7,,0.8
2023-10-18T15:00:00,1881A,104.7287,31.5075,绵阳市,三水厂,,19,11,39,4,29,64,60,50,50,10,27,7,8,0.4,0.5
2023-10-18T15:00:00,1882A,104.563,28.793,宜宾市,石马中学,,,,,,,,,,,,,,,,
2023-10-18T15:00:00,1883A,104.6201,28.7728,宜宾市,市委,细颗粒物(PM2.5),64,58,61,46,49,113,46,80,42,28,20,8,6,0.7,0.8
2023-10-18T15:00:00,1884A,104.6055,28.793,宜宾市,宜宾四中,细颗粒物(PM2.5),72,64,66,52,52,112,30,65,33,40,23,3,4,0.7,0.7
2023-10-18T15:00:00,1885A,104.639,28.7562,宜宾市,市政府,细颗粒物(PM2.5),64,53,61,46,50,114,71,82,47,16,18,7,7,0.8,0.8
2023-10-18T15:00:00,1886A,104.5742,28.7199,宜宾市,黄金嘴,细颗粒物(PM2.5),68,56,58,49,45,111,43,66,45,20,12,9,8,0.6,0.7
2023-10-18T15:00:00,1888A,101.6891,26.571,攀枝花市,弄弄坪,,41,41,42,25,22,122,122,51,51,13,24,18,13,0.9,0.9
2023-10-18T15:00:00,1889A,101.5769,26.5928,攀枝花市,河门口,,45,35,37,19,22,142,142,67,67,23,21,42,18,1.9,1.1
2023-10-18T15:00:00,1890A,101.7169,26.585,攀枝花市,炳草岗,,43,43,44,17,26,132,132,68,68,15,34,24,19,1.0,1.2
2023-10-18T15:00:00,1891A,101.7369,26.5008,攀枝花市,仁和,,36,22,32,18,19,127,113,73,73,9,21,17,16,0.6,0.8
2023-10-18T15:00:00,1893A,105.4324,28.9634,泸州市,九狮山,,46,46,59,23,42,95,64,48,48,21,18,5,5,0.5,0.5
2023-10-18T15:00:00,1894A,105.4427,28.9063,泸州市,小市上码头,细颗粒物(PM2.5),62,55,84,44,57,124,82,65,63,12,14,5,6,0.7,0.8
2023-10-18T15:00:00,1895A,105.4241,28.8573,泸州市,兰田宪桥,细颗粒物(PM2.5),73,65,77,53,59,122,74,68,55,10,10,6,5,0.6,0.6
2023-10-18T15:00:00,1896A,105.4379,28.8833,泸州市,市环监站,"颗粒物(PM10),细颗粒物(PM2.5)",52,53,73,36,50,104,70,61,48,14,16,3,4,0.6,0.7
2023-10-18T15:00:00,1901A,104.4239,31.1208,德阳市,东山公园,,25,25,43,9,19,91,57,56,56,9,18,1,2,0.4,0.5
2023-10-18T15:00:00,1902A,104.3826,31.1317,德阳市,西小区,,25,25,43,7,22,90,55,51,51,6,16,3,3,0.4,0.5
2023-10-18T15:00:00,1904A,104.3553,31.1091,德阳市,耐火材料厂,,33,33,46,6,23,88,56,48,48,6,15,3,3,0.4,0.5
2023-10-18T15:00:00,1905A,106.056,30.8064,南充市,西山风景区,,25,20,37,17,34,129,51,52,39,5,6,3,5,0.4,0.5
2023-10-18T15:00:00,1906A,106.0789,30.8023,南充市,南充市委,,33,19,56,23,46,116,45,40,31,13,25,4,5,0.4,0.5
2023-10-18T15:00:00,1907A,106.1031,30.8217,南充市,南充炼油厂,,39,39,77,16,34,129,44,44,31,13,19,4,5,0.5,0.6
2023-10-18T15:00:00,1908A,106.1064,30.7856,南充市,高坪区监测站,,33,30,50,23,37,115,43,45,32,14,20,4,6,0.2,0.3
2023-10-18T15:00:00,1909A,106.0642,30.7636,南充市,嘉陵区环保局,,36,36,49,19,37,122,38,46,29,16,23,2,5,0.5,0.5
2023-10-18T15:00:00,1910A,106.1087,30.8388,南充市,市环境监测站,,36,36,57,20,38,121,42,45,32,16,18,4,6,0.4,0.5
2023-10-18T15:00:00,1911A,106.9222,27.6869,遵义市,丁字口,,34,33,35,18,26,121,107,91,91,17,29,7,7,0.5,0.6
2023-10-18T15:00:00,1912A,106.9242,27.7019,遵义市,凤凰山,,,29,32,25,25,133,112,103,100,7,8,7,9,,0.5
2023-10-18T15:00:00,1913A,106.8906,27.6486,遵义市,忠庄,,44,44,37,20,25,123,112,89,89,8,12,2,4,0.4,0.4
2023-10-18T15:00:00,1914A,106.9231,27.6506,遵义市,舟水桥,,36,29,36,21,23,129,114,84,84,7,19,2,3,0.5,0.5
2023-10-18T15:00:00,1915A,106.9178,27.72,遵义市,干田坝,,38,32,31,18,23,126,121,99,99,7,17,5,7,0.5,0.5
2023-10-18T15:00:00,1916A,103.7897,25.5035,曲靖市,环境监测站,,32,26,23,4,14,114,102,64,64,8,15,3,2,0.5,0.6
2023-10-18T15:00:00,1917A,103.8,25.5364,曲靖市,烟厂办公区,,31,16,26,6,12,111,98,62,62,6,15,4,5,0.5,0.7
2023-10-18T15:00:00,1918A,108.7197,34.3956,咸阳市,气象站,,,,,,,,,,,,,,,,
2023-10-18T15:00:00,1919A,108.673,34.3155,咸阳市,实验中学,,,40,58,22,25,51,21,28,8,,38,3,3,0.7,0.7
2023-10-18T15:00:00,1920A,108.7233,34.3617,咸阳市,师范学院,,40,40,56,22,23,53,34,28,21,22,31,4,4,0.5,0.5
2023-10-18T15:00:00,1922A,109.0656,35.0994,铜川市,党校,,33,33,31,15,18,68,26,17,17,32,25,8,8,0.6,0.7
2023-10-18T15:00:00,1923A,109.0697,35.0697,铜川市,王益区政府,,33,33,37,23,23,76,22,13,13,37,30,3,3,0.7,0.6
2023-10-18T15:00:00,1924A,108.9344,34.9058,铜川市,新区管委会,,38,38,41,20,28,64,43,44,32,33,24,5,5,0.6,0.6
2023-10-18T15:00:00,1926A,109.4131,36.6275,延安市,枣园,颗粒物(PM10),52,54,32,18,18,12,5,5,5,28,31,7,6,0.5,0.5
2023-10-18T15:00:00,1927A,109.4761,36.6028,延安市,延大医附院,,,52,34,20,18,18,7,7,6,28,33,6,5,,0.8
2023-10-18T15:00:00,1929A,109.5056,36.6106,延安市,百米大道,颗粒物(PM10),55,60,40,24,23,17,7,10,8,40,40,3,2,0.9,0.7
2023-10-18T15:00:00,1930A,107.185,34.3063,宝鸡市,庙沟村,,21,14,23,14,14,76,67,56,56,6,10,8,8,0.3,0.3
2023-10-18T15:00:00,1931A,107.0708,34.3017,宝鸡市,竹园沟,,24,19,17,11,11,74,74,49,49,11,13,6,6,0.4,0.4
2023-10-18T15:00:00,1932A,107.1906,34.3672,宝鸡市,三陆医院,,26,26,30,15,15,69,63,31,31,27,36,8,10,0.4,0.5
2023-10-18T15:00:00,1933A,107.1431,34.3547,宝鸡市,监测站,,23,20,22,16,14,68,62,35,35,21,23,6,6,0.5,0.4
2023-10-18T15:00:00,1934A,107.1186,34.3739,宝鸡市,技工学校,,26,26,23,18,17,72,72,39,39,20,22,7,7,0.4,0.4
2023-10-18T15:00:00,1935A,107.3906,34.3528,宝鸡市,陈仓区环保局家属楼,,30,24,36,21,19,73,66,34,34,28,38,20,11,0.5,0.6
2023-10-18T15:00:00,1936A,107.2058,34.3497,宝鸡市,文理学院,,26,26,25,16,13,70,58,30,30,31,32,5,5,0.6,0.6
2023-10-18T15:00:00,1937A,107.2386,34.3622,宝鸡市,三迪小学,,26,21,24,18,15,70,59,29,29,27,32,6,7,0.5,0.5
2023-10-18T15:00:00,1938A,109.5293,34.5101,渭南市,农科所,,44,44,69,29,49,53,48,52,23,23,33,5,5,0.7,0.9
2023-10-18T15:00:00,1939A,109.4974,34.4877,渭南市,日报社,,42,36,68,29,48,56,47,56,24,29,40,5,6,0.4,0.6
2023-10-18T15:00:00,1940A,109.4636,34.493,渭南市,体育馆,,36,36,66,24,42,57,38,57,20,32,42,3,3,0.5,0.7
2023-10-18T15:00:00,1941A,109.4259,34.5023,渭南市,高新一小,,46,46,68,31,46,58,32,49,18,30,35,3,3,0.6,0.7
2023-10-18T15:00:00,1944A,102.1692,38.5167,金昌市,天庆家园,,44,44,27,4,7,116,91,87,87,5,9,5,8,0.4,0.4
2023-10-18T15:00:00,1945A,98.2908,39.7711,嘉峪关市,气象局,,31,7,29,5,11,102,97,85,78,4,12,1,7,0,0.1
2023-10-18T15:00:00,1947A,106.3394,38.817,石嘴山市,沙湖旅游区,颗粒物(PM10),65,80,70,17,32,115,96,51,51,12,30,80,22,0.8,0.6
2023-10-18T15:00:00,1948A,106.3668,39.0145,石嘴山市,大武口朝阳西街,颗粒物(PM10),63,75,81,23,35,106,87,50,44,20,43,20,32,0.7,0.8
2023-10-18T15:00:00,1949A,106.7704,39.2282,石嘴山市,惠农南大街,颗粒物(PM10),55,59,89,28,28,101,88,64,36,21,46,18,42,0.9,1.1
2023-10-18T15:00:00,1950A,106.7099,39.1325,石嘴山市,红果子镇惠新街,颗粒物(PM10),100,149,89,53,43,108,93,53,53,54,36,135,33,2.4,0.9
2023-10-18T15:00:00,1951A,84.895,45.6094,克拉玛依市,长征新村,,22,15,22,9,7,70,70,53,53,4,13,9,9,0.2,0.3
2023-10-18T15:00:00,1952A,84.8988,45.5893,克拉玛依市,南林小区,,25,17,24,17,14,72,72,46,46,5,19,5,5,0.3,0.6
2023-10-18T15:00:00,1954A,84.905,44.3396,克拉玛依市,独山子区,,30,26,38,21,20,82,74,51,51,11,24,9,6,0.5,0.5
2023-10-18T15:00:00,1955A,85.6979,46.098,克拉玛依市,乌尔禾区商贸楼,,25,3,13,7,8,78,78,48,48,7,18,6,5,0.4,0.4
2023-10-18T15:00:00,1956A,86.1472,41.7538,巴音郭楞州,孔雀公园,颗粒物(PM10),83,116,91,27,25,96,83,56,56,6,36,1,2,0.2,0.5
2023-10-18T15:00:00,1957A,86.1972,41.7166,巴音郭楞州,棉纺厂,颗粒物(PM10),52,54,124,29,28,98,86,63,63,3,22,1,2,0.3,0.4
2023-10-18T15:00:00,1958A,86.2357,41.7173,巴音郭楞州,经济开发区,颗粒物(PM10),66,81,92,28,22,103,91,76,75,4,17,2,2,0.3,0.3
2023-10-18T15:00:00,1961A,117.532,36.6868,济南市,东山小学,细颗粒物(PM2.5),104,98,93,78,46,174,132,152,118,20,26,5,9,0.8,0.8
2023-10-18T15:00:00,1966A,120.0405,35.8735,青岛市,黄岛区4号,臭氧1小时,117,100,79,63,44,233,233,191,191,17,16,8,9,0.9,0.8
2023-10-18T15:00:00,1982A,122.0693,37.2174,威海市,文登开发区,颗粒物(PM10),67,83,49,34,17,188,166,150,150,17,12,10,8,0.8,0.5
2023-10-18T15:00:00,2031A,113.1817,27.9958,株洲市,云田中学,臭氧1小时,58,39,62,32,41,171,166,131,131,13,17,12,13,0.6,0.7
2023-10-18T15:00:00,2054A,114.1099,32.1059,信阳市,平桥分局,臭氧1小时,89,56,49,41,31,191,191,134,134,14,17,7,4,0.7,0.7
2023-10-18T15:00:00,2064A,113.9956,32.1271,信阳市,南湾水厂,臭氧1小时,88,62,46,38,30,190,190,127,127,12,11,6,4,0.8,0.7
2023-10-18T15:00:00,2065A,114.0775,32.1195,信阳市,市酿酒公司,臭氧1小时,88,54,49,47,33,190,190,132,132,13,24,6,4,0.7,0.7
2023-10-18T15:00:00,2066A,114.0609,32.1399,信阳市,审计局,臭氧1小时,90,78,53,45,32,192,192,132,132,10,25,7,5,0.6,0.7
2023-10-18T15:00:00,2067A,114.6613,33.6128,周口市,市环境监测站,细颗粒物(PM2.5),70,76,122,51,66,148,134,95,95,21,38,7,9,0.7,0.6
2023-10-18T15:00:00,2068A,114.6758,33.6347,周口市,周口师范,细颗粒物(PM2.5),70,62,122,51,69,135,135,89,89,22,36,5,8,0.8,0.7
2023-10-18T15:00:00,2069A,114.6546,33.5979,周口市,市运管处,细颗粒物(PM2.5),73,66,133,53,68,156,138,97,97,16,36,6,8,0.6,0.5
2023-10-18T15:00:00,2070A,114.6369,33.6406,周口市,川汇区环保局,细颗粒物(PM2.5),70,64,108,51,61,158,131,90,90,26,36,8,9,0.7,0.6
2023-10-18T15:00:00,2075A,117.6336,24.4674,漳州市,九湖,,,,,,,,,,,,,,,,
2023-10-18T15:00:00,2160A,112.85,35.5051,晋城市,自来水公司,,41,40,73,17,48,186,131,90,90,14,20,10,7,0.8,0.9
2023-10-18T15:00:00,2161A,112.8318,35.4936,晋城市,白云商贸,,41,40,80,19,51,182,131,89,89,16,22,9,6,0.9,0.9
2023-10-18T15:00:00,2162A,112.8508,35.4887,晋城市,市环保局,,,43,84,19,49,182,132,91,91,,28,8,7,,1
2023-10-18T15:00:00,2163A,112.8676,35.4897,晋城市,技术学院,,43,43,80,19,52,177,126,87,87,16,27,9,7,0.8,0.9
2023-10-18T15:00:00,2165A,112.8453,35.546,晋城市,白马寺,,,,,,,,,,,,,,,,
2023-10-18T15:00:00,2166A,112.4397,39.3522,朔州市,平朔,,29,27,32,8,18,91,91,76,60,6,20,6,8,0.4,0.6
2023-10-18T15:00:00,2167A,112.4575,39.3617,朔州市,朔唯,,25,25,34,2,20,81,74,74,45,11,30,8,11,0.4,0.6
2023-10-18T15:00:00,2168A,112.4258,39.3197,朔州市,区政府,,35,35,32,6,18,86,86,81,61,8,20,5,7,0.5,0.6
2023-10-18T15:00:00,2169A,112.4072,39.3278,朔州市,市环保局,,29,23,36,9,16,90,90,83,63,7,21,5,7,0.4,0.6
2023-10-18T15:00:00,2170A,112.4272,39.3681,朔州市,市二中,,30,30,36,8,19,88,88,69,58,6,21,7,11,0.4,0.5
2023-10-18T15:00:00,2171A,112.7532,37.6945,晋中市,锦纶小区,颗粒物(PM10),51,51,83,23,65,139,80,61,61,30,32,9,9,0.5,0.9
2023-10-18T15:00:00,2173A,112.7249,37.7067,晋中市,南都小区,,32,32,89,18,63,144,81,71,71,24,27,9,8,0.5,0.8
2023-10-18T15:00:00,2174A,112.6991,37.6982,晋中市,榆次区政府,,30,30,76,12,61,143,82,74,74,29,31,11,9,0.7,0.9
2023-10-18T15:00:00,2175A,110.9956,35.0147,运城市,运城中学,,49,49,93,29,54,95,48,46,46,16,17,10,7,0.7,0.9
2023-10-18T15:00:00,2178A,110.9686,35.0303,运城市,地区技校,,,,90,,52,95,,44,44,16,18,,5,,0.7
2023-10-18T15:00:00,2179A,111.0414,35.1147,运城市,空港新区,颗粒物(PM10),53,55,94,35,58,110,45,44,44,23,25,7,7,0.6,0.7
2023-10-18T15:00:00,2181A,112.7383,38.4519,忻州市,开发区,,32,32,62,18,45,100,83,66,57,12,21,9,8,0.5,0.9
2023-10-18T15:00:00,2182A,112.7003,38.4928,忻州市,会展中心,,26,26,56,16,44,94,82,61,61,13,26,9,7,0.4,0.6
2023-10-18T15:00:00,2183A,111.1406,37.5211,吕梁市,环保局,颗粒物(PM10),57,64,49,33,39,63,63,48,48,16,43,4,2,0.6,0.8
2023-10-18T15:00:00,2185A,111.1297,37.5136,吕梁市,自来水公司,颗粒物(PM10),57,63,52,38,43,68,68,49,49,17,40,4,2,0.5,0.7
2023-10-18T15:00:00,2187A,106.8174,39.6973,乌海市,市林业局,,29,26,55,5,21,95,90,64,62,5,16,8,8,0.3,0.5
2023-10-18T15:00:00,2188A,106.7907,39.6667,乌海市,中海勃湾学校,,29,29,51,6,16,99,90,62,62,8,16,10,8,0.3,0.3
2023-10-18T15:00:00,2191A,122.2532,43.6801,通辽市,艺术职业学校,,25,15,52,4,14,109,77,70,62,10,20,5,8,0.1,0.3
2023-10-18T15:00:00,2192A,119.7594,49.2261,呼伦贝尔市,区环保局,,21,21,20,12,17,67,49,53,43,14,9,3,4,0.3,0.3
2023-10-18T15:00:00,2195A,107.4212,40.761,巴彦淖尔市,附二中,颗粒物(PM10),53,55,92,10,24,91,91,55,55,5,26,4,5,0.4,0.5
2023-10-18T15:00:00,2196A,107.37,40.7372,巴彦淖尔市,市环保大楼,,44,44,79,11,25,94,94,64,57,7,22,3,3,0.4,0.4
2023-10-18T15:00:00,2197A,113.1306,40.9923,乌兰察布市,集宁新区,,28,15,28,14,16,121,88,70,70,2,12,7,6,0.3,0.4
2023-10-18T15:00:00,2200A,122.0392,46.0656,兴安盟,胜华新制药厂,,24,24,30,12,17,71,60,63,55,10,9,4,4,0.4,0.4
2023-10-18T15:00:00,2201A,121.9504,46.0741,兴安盟,科右前旗环保局,,29,29,28,5,14,68,67,63,60,6,8,4,4,0.2,0.3
2023-10-18T15:00:00,2202A,116.1042,43.9317,锡林郭勒盟,市环保监测站,,33,33,28,2,7,75,71,62,62,3,7,7,9,0.3,0.3
2023-10-18T15:00:00,2203A,116.0781,43.9311,锡林郭勒盟,市政府,,44,44,32,16,8,87,67,59,59,4,18,9,10,0.2,0.3
2023-10-18T15:00:00,2204A,105.6467,38.8363,阿拉善盟,西城区西花园,,31,24,28,14,15,106,97,87,72,8,15,7,6,0.3,0.4
2023-10-18T15:00:00,2205A,105.6985,38.8411,阿拉善盟,蒙二幼,,30,22,25,5,8,106,96,82,82,7,13,7,8,0.3,0.4
2023-10-18T15:00:00,2206A,105.724,38.8516,阿拉善盟,环保局新楼,,30,21,22,6,8,104,96,96,96,5,7,6,6,0.4,0.4
2023-10-18T15:00:00,2207A,121.6094,41.998,阜新市,工业园区,,,42,56,7,17,125,,109,56,12,20,8,13,0.5,0.8
2023-10-18T15:00:00,2208A,121.6697,42.0279,阜新市,长青街,,24,13,56,2,16,121,75,104,55,10,18,6,10,0.3,0.6
2023-10-18T15:00:00,2209A,121.6673,42.0705,阜新市,农业园区,,23,22,45,2,20,117,73,99,58,6,14,7,10,0.2,0.5
2023-10-18T15:00:00,2210A,121.6717,42.0224,阜新市,东苑,,23,20,54,1,21,114,72,105,54,11,25,8,12,0.4,0.7
2023-10-18T15:00:00,2211A,121.6506,42.0498,阜新市,玉龙新城,,26,24,53,2,17,125,82,104,60,10,20,7,10,0.4,0.7
2023-10-18T15:00:00,2212A,123.2,41.1953,辽阳市,宏伟区,,18,13,35,12,22,114,51,107,39,12,18,8,9,0.4,0.6
2023-10-18T15:00:00,2213A,123.1683,41.2495,辽阳市,新华园,,19,19,41,12,26,116,48,109,33,17,21,9,10,0.6,0.8
2023-10-18T15:00:00,2214A,123.2354,41.2639,辽阳市,滨河路,,25,25,40,15,19,113,43,98,38,11,18,8,9,0.6,0.8
2023-10-18T15:00:00,2215A,123.149,41.2991,辽阳市,铁西工业园,,23,18,52,16,27,117,45,109,35,21,21,10,10,0.5,0.9
2023-10-18T15:00:00,2216A,123.8139,42.3022,铁岭市,汇工街西,,23,20,47,3,25,112,71,94,49,7,20,10,14,0.5,0.8
2023-10-18T15:00:00,2217A,123.8649,42.2923,铁岭市,水上乐园,,21,20,52,5,27,120,67,98,48,13,23,7,11,0.4,0.8
2023-10-18T15:00:00,2218A,123.8486,42.2867,铁岭市,银州路东段,,20,17,60,9,27,114,63,102,46,16,24,4,6,0.6,0.9
2023-10-18T15:00:00,2219A,123.7153,42.2217,铁岭市,金沙江路北,,22,18,50,7,23,122,70,94,46,9,26,4,9,0.3,0.7
2023-10-18T15:00:00,2220A,120.4318,41.5881,朝阳市,西梁,,22,14,59,8,28,122,70,122,40,10,24,13,14,0.6,0.9
2023-10-18T15:00:00,2221A,120.4521,41.5646,朝阳市,河畔小区,,25,15,49,7,26,132,78,112,53,10,20,9,12,0.5,0.8
2023-10-18T15:00:00,2222A,120.4176,41.5648,朝阳市,八里堡,,23,22,55,8,26,120,73,108,45,12,30,10,15,0.5,1
2023-10-18T15:00:00,2223A,120.3806,41.5969,朝阳市,农业园区,,25,11,48,4,31,129,77,116,48,6,20,7,9,0.5,0.8
2023-10-18T15:00:00,2225A,124.4002,43.1713,四平市,一商场,,20,20,52,11,24,91,60,85,51,9,19,3,6,0.2,0.5
2023-10-18T15:00:00,2226A,124.388,43.193,四平市,境园,,20,18,44,5,27,100,64,87,52,5,13,4,8,0.4,0.7
2023-10-18T15:00:00,2227A,125.1358,42.8845,辽源市,环保局,,33,33,46,12,29,138,66,118,84,8,27,7,11,0.6,0.9
2023-10-18T15:00:00,2229A,125.9358,41.7173,通化市,光明,,21,13,37,11,19,89,67,76,72,18,43,7,10,0.4,0.7
2023-10-18T15:00:00,2230A,125.9446,41.7325,通化市,铁路,,20,12,42,6,20,95,62,63,59,20,42,5,11,0.5,0.8
2023-10-18T15:00:00,2231A,126.4219,41.9171,白山市,喜丰,颗粒物(PM10),63,75,81,43,28,79,24,9,9,46,45,11,11,1.1,0.9
2023-10-18T15:00:00,2232A,126.4077,41.9419,白山市,环保局,细颗粒物(PM2.5),59,62,69,42,29,72,4,6,5,49,43,14,11,1.7,1.2
2023-10-18T15:00:00,2233A,124.8006,45.1214,松原市,江南,,21,19,41,10,16,88,67,82,52,3,11,5,7,0.3,0.5
2023-10-18T15:00:00,2234A,124.7965,45.1722,松原市,江北,,21,7,32,3,14,90,66,83,53,5,10,2,4,0.3,0.4
2023-10-18T15:00:00,2235A,122.7911,45.6077,白城市,洮北区环保局,,24,17,37,5,11,76,76,60,60,9,13,4,5,0.4,0.5
2023-10-18T15:00:00,2236A,122.8738,45.5725,白城市,市环保局,,,23,47,2,11,88,75,67,63,5,14,,8,0.5,0.6
2023-10-18T15:00:00,2237A,129.47,42.8883,延边朝鲜族自治州,妇幼医院,细颗粒物(PM2.5),60,64,43,43,19,69,11,21,16,52,36,15,12,0.8,0.7
2023-10-18T15:00:00,2238A,129.5055,42.9108,延边朝鲜族自治州,延边医院,颗粒物(PM10),63,76,58,23,25,84,10,23,22,66,44,26,13,0.9,0.8
2023-10-18T15:00:00,2239A,129.3964,42.8881,延边朝鲜族自治州,朝阳川镇医院,,46,46,44,15,18,89,11,23,23,42,27,4,6,0.6,0.6
2023-10-18T15:00:00,2240A,130.9762,45.3001,鸡西市,环保局,颗粒物(PM10),58,65,101,21,39,56,55,40,40,17,37,5,8,0.3,0.9
2023-10-18T15:00:00,2243A,130.9429,45.3039,鸡西市,第一中学,,40,40,83,23,27,70,68,45,45,14,33,6,13,0.3,0.5
2023-10-18T15:00:00,2244A,130.2537,47.3416,鹤岗市,哈啤分公司,,35,35,49,16,20,67,63,30,28,8,34,13,15,0.2,0.3
2023-10-18T15:00:00,2245A,130.2684,47.3086,鹤岗市,斯达机电,,36,36,49,16,20,61,61,40,31,10,32,9,12,0.2,0.3
2023-10-18T15:00:00,2246A,130.3114,47.3388,鹤岗市,东山纸板厂,,29,20,94,20,32,74,61,23,23,15,40,12,14,0.4,0.9
2023-10-18T15:00:00,2247A,130.1097,47.3382,鹤岗市,五号水库,,28,21,19,19,12,70,69,37,37,5,19,11,11,0.3,0.3
2023-10-18T15:00:00,2248A,131.1511,46.6937,双鸭山市,双合村,颗粒物(PM10),65,79,47,30,12,89,67,71,71,14,16,9,11,0.5,0.5
2023-10-18T15:00:00,2249A,131.1652,46.6191,双鸭山市,南小市,细颗粒物(PM2.5),53,53,52,37,17,86,59,62,62,18,19,6,7,0.5,0.5
2023-10-18T15:00:00,2250A,131.1524,46.6554,双鸭山市,环保局,颗粒物(PM10),56,61,39,38,15,78,53,63,60,24,18,10,9,0.7,0.3
2023-10-18T15:00:00,2251A,131.12,46.5656,双鸭山市,苗圃,细颗粒物(PM2.5),53,39,16,37,12,115,89,92,92,12,9,3,3,0.5,0.3
2023-10-18T15:00:00,2252A,128.5159,47.4311,伊春市,环保局,,19,14,22,7,11,61,58,55,55,4,17,5,12,0.3,0.6
2023-10-18T15:00:00,2253A,128.9102,47.7412,伊春市,电力嘉园,,19,16,24,6,9,61,60,53,53,4,19,4,17,0.2,0.5
2023-10-18T15:00:00,2254A,129.5029,48.471,伊春市,汤旺河国家公园,,24,24,22,6,8,68,58,54,54,4,6,7,7,0.2,0.2
2023-10-18T15:00:00,2255A,130.2751,46.8028,佳木斯市,佳纺,颗粒物(PM10),55,59,37,32,13,76,49,68,66,25,16,2,2,0.6,0.5
2023-10-18T15:00:00,2256A,130.3995,46.8307,佳木斯市,发电厂,颗粒物(PM10),57,64,55,27,23,69,57,62,62,15,20,9,6,0.6,0.6
2023-10-18T15:00:00,2257A,130.3258,46.7975,佳木斯市,环保局,,50,50,31,24,12,68,52,61,61,21,18,5,5,0.6,0.4
2023-10-18T15:00:00,2258A,130.3648,46.8032,佳木斯市,十一中,颗粒物(PM10),57,63,37,28,16,68,51,58,58,25,26,2,2,0.5,0.5
2023-10-18T15:00:00,2259A,130.3794,46.7588,佳木斯市,四丰,,39,39,24,22,10,94,77,83,83,12,9,1,1,0.3,0.2
2023-10-18T15:00:00,2262A,131.0518,45.8751,七台河市,新一中,,,,,,,,,,,,,,,,
2023-10-18T15:00:00,2263A,127.4833,50.2524,黑河市,交通局,,16,16,24,8,12,53,49,44,44,10,18,4,5,0.3,0.3
2023-10-18T15:00:00,2264A,127.5144,50.2341,黑河市,环保局,,22,10,28,15,14,51,49,44,44,5,12,2,4,0.3,0.4
2023-10-18T15:00:00,2265A,127.5291,50.2472,黑河市,大黑河岛,,,22,28,7,16,,,,,2,2,2,2,,
2023-10-18T15:00:00,2266A,126.9785,46.6365,绥化市,人和东街,,19,14,54,4,19,66,60,47,45,8,21,3,12,0.4,0.6
2023-10-18T15:00:00,2267A,126.964,46.6528,绥化市,党政办公中心,,20,14,49,3,19,69,61,54,46,7,18,2,5,0.4,0.5
2023-10-18T15:00:00,2269A,124.1069,50.4097,大兴安岭地区,科技局,,18,15,24,10,14,62,55,51,51,3,13,6,7,0.1,0.2
2023-10-18T15:00:00,2270A,117.396,32.939,蚌埠市,工人疗养院,臭氧1小时,87,55,74,27,38,189,189,159,147,16,22,5,7,0.5,0.5
2023-10-18T15:00:00,2271A,117.3605,32.9427,蚌埠市,百货大楼,臭氧1小时,90,60,75,27,37,194,192,168,149,13,19,6,7,0.4,0.5
2023-10-18T15:00:00,2273A,117.4185,32.8911,蚌埠市,蚌埠学院,臭氧1小时,72,48,74,25,41,193,177,144,139,10,23,5,9,0.4,0.5
2023-10-18T15:00:00,2274A,117.3533,32.9673,蚌埠市,淮上区政府,臭氧1小时,75,53,76,32,47,186,180,164,153,10,22,7,10,0.3,0.4
2023-10-18T15:00:00,2275A,117.3145,32.8977,蚌埠市,高新区,臭氧1小时,78,46,74,31,43,187,182,157,147,14,24,6,8,0.5,0.5
2023-10-18T15:00:00,2277A,116.8305,32.7727,淮南市,潘集区政府,臭氧1小时,73,58,87,32,49,178,178,127,127,15,28,10,14,0.4,0.6
2023-10-18T15:00:00,2278A,117.0067,32.6524,淮南市,师范学院,臭氧1小时,77,50,87,17,45,197,181,142,142,12,21,9,12,0.4,0.5
2023-10-18T15:00:00,2279A,116.8569,32.5951,淮南市,谢家集区政府,臭氧1小时,69,35,70,32,41,175,175,128,128,16,35,7,11,0.3,0.4
2023-10-18T15:00:00,2280A,116.8281,32.633,淮南市,八公山区政府,臭氧1小时,65,53,74,29,42,172,172,132,128,11,24,8,13,0.3,0.5
2023-10-18T15:00:00,2281A,116.6325,32.6201,淮南市,焦岗湖风景区管理处,,49,38,50,27,30,156,156,119,119,5,16,3,2,0.2,0.3
2023-10-18T15:00:00,2282A,116.8004,33.975,淮北市,监测站,颗粒物(PM10),63,76,114,42,43,165,145,122,122,31,37,11,13,0.8,0.7
2023-10-18T15:00:00,2283A,116.8091,33.9007,淮北市,烈山区政府,臭氧1小时,74,80,94,36,48,179,179,134,134,19,39,9,11,0.5,0.5
2023-10-18T15:00:00,2285A,117.8177,30.9412,铜陵市,市第四中学,,,67,68,33,39,168,168,85,85,10,31,,13,0.7,1.1
2023-10-18T15:00:00,2286A,117.8059,30.9273,铜陵市,市公路局,臭氧1小时,62,65,62,13,25,169,169,84,84,19,33,10,10,0.7,1
2023-10-18T15:00:00,2287A,117.7807,30.9413,铜陵市,市新民污水厂,臭氧1小时,68,51,65,29,32,174,174,100,100,16,38,8,7,0.4,0.7
2023-10-18T15:00:00,2288A,117.7439,30.8792,铜陵市,市第九中学,颗粒物(PM10),55,59,97,25,38,160,160,91,91,27,53,7,6,0.6,0.7
2023-10-18T15:00:00,2289A,117.846,30.9413,铜陵市,车站新区,,48,43,50,33,34,148,147,81,81,26,40,14,6,0.6,0.4
2023-10-18T15:00:00,2290A,117.8483,30.97,铜陵市,市职教基地,,46,38,58,21,31,146,146,74,74,10,26,18,16,0.6,0.6
2023-10-18T15:00:00,2291A,117.0809,30.5177,安庆市,环科院,臭氧1小时,58,45,67,26,41,183,166,97,97,16,66,8,8,0.5,0.7
2023-10-18T15:00:00,2292A,117.0331,30.5119,安庆市,马山宾馆,,,,66,,39,179,178,106,106,13,59,6,7,0.5,0.8
2023-10-18T15:00:00,2294A,116.9896,30.6145,安庆市,安庆大学,臭氧1小时,72,49,53,30,37,177,177,107,107,16,33,10,8,0.6,0.7
2023-10-18T15:00:00,2295A,118.2903,29.6963,黄山市,延安路89号,,45,36,37,16,18,150,144,95,95,5,13,6,5,0.3,0.4
2023-10-18T15:00:00,2296A,118.327,29.7178,黄山市,黄山东路89号,,45,38,41,9,23,145,142,98,98,7,14,6,5,0.5,0.5
2023-10-18T15:00:00,2297A,118.1371,30.2756,黄山市,黄山区政府5号楼,,45,30,52,15,33,142,142,97,97,8,12,8,6,0.5,0.6
2023-10-18T15:00:00,2298A,118.3093,32.3153,滁州市,老年大学,臭氧1小时,93,56,81,33,57,197,194,154,154,17,36,8,9,0.7,0.8
2023-10-18T15:00:00,2299A,118.3244,32.2786,滁州市,人大宾馆,臭氧1小时,90,50,91,34,65,194,192,159,159,19,33,8,10,0.4,0.6
2023-10-18T15:00:00,2301A,115.8277,32.8929,阜阳市,市监测站,臭氧1小时,83,49,59,30,34,187,186,137,137,15,24,8,9,0.5,0.5
2023-10-18T15:00:00,2303A,115.8554,32.8605,阜阳市,开发区,臭氧1小时,82,59,72,32,33,185,185,130,130,14,29,10,12,0.6,0.6
2023-10-18T15:00:00,2307A,116.5079,31.737,六安市,监测大楼,臭氧1小时,60,39,47,23,26,168,168,119,119,12,19,5,5,0.3,0.4
2023-10-18T15:00:00,2308A,116.4738,31.7643,六安市,皖西学院,臭氧1小时,72,41,56,27,26,177,177,119,119,12,20,7,7,0.3,0.4
2023-10-18T15:00:00,2309A,116.4996,31.7905,六安市,朝阳厂,臭氧1小时,90,44,49,31,31,192,192,132,128,11,18,8,7,0.4,0.5
2023-10-18T15:00:00,2310A,116.5567,31.7886,六安市,开发区,臭氧1小时,53,45,80,22,37,168,162,111,111,6,26,7,13,0.4,0.5
2023-10-18T15:00:00,2311A,115.8072,33.8399,亳州市,污水处理厂,细颗粒物(PM2.5),73,91,75,53,32,160,151,127,127,19,27,9,12,0.7,0.5
2023-10-18T15:00:00,2312A,115.7789,33.8518,亳州市,三国揽胜宫,颗粒物(PM10),83,115,76,53,29,161,154,124,124,19,24,10,12,0.7,0.5
2023-10-18T15:00:00,2314A,117.47,30.6618,池州市,池州学院,,50,39,54,25,36,162,158,108,108,5,19,7,6,0.7,1
2023-10-18T15:00:00,2316A,118.7581,30.9454,宣城市,鳌峰子站,,42,32,67,20,39,132,132,110,101,16,20,4,6,0.5,0.6
2023-10-18T15:00:00,2317A,118.7385,30.9743,宣城市,敬亭山子站,,46,30,51,19,36,145,145,115,104,6,19,6,8,0.3,0.4
2023-10-18T15:00:00,2318A,118.7173,30.9427,宣城市,开发区子站,,42,32,59,19,35,137,133,104,102,7,20,7,8,0.6,0.7
2023-10-18T15:00:00,2319A,119.0141,25.4325,莆田市,荔城区仓后路,颗粒物(PM10),56,62,39,30,25,156,148,133,133,11,8,8,7,0.5,0.5
2023-10-18T15:00:00,2320A,119.0015,25.4553,莆田市,莆田市监测站,颗粒物(PM10),61,72,37,30,23,160,155,142,138,12,6,8,8,0.6,0.6
2023-10-18T15:00:00,2321A,119.1119,25.4561,莆田市,涵江区六中,,49,49,40,25,24,151,141,127,126,9,8,8,7,0.6,0.6
2023-10-18T15:00:00,2322A,119.1013,25.3215,莆田市,秀屿区政府,颗粒物(PM10),52,53,45,26,27,164,147,140,140,11,10,9,7,0.8,0.7
2023-10-18T15:00:00,2323A,118.981,25.4792,莆田市,东圳水库,,,,,,,,,,,,,,,,
2023-10-18T15:00:00,2324A,117.6211,26.2625,三明市,三钢,,47,41,46,19,38,154,149,115,115,13,26,11,10,0.4,0.5
2023-10-18T15:00:00,2325A,117.635,26.2714,三明市,三明二中,,45,40,43,23,34,150,143,110,110,13,20,8,7,0.4,0.5
2023-10-18T15:00:00,2326A,117.6028,26.2378,三明市,三元区政府,,45,37,51,22,34,154,144,113,113,13,32,12,12,0.5,0.8
2023-10-18T15:00:00,2327A,117.7275,26.3108,三明市,洋溪,,,,,,,,,,,,,,,,
2023-10-18T15:00:00,2331A,118.0966,26.6761,南平市,茫荡山,,,,,,,,,,,,,,,,
2023-10-18T15:00:00,2332A,118.1681,26.6369,南平市,南平市监测站,,41,23,44,24,33,157,130,111,111,6,17,4,5,0.4,0.7
2023-10-18T15:00:00,2333A,118.1825,26.6489,南平市,南平铝业有限公司,,41,26,46,12,32,165,130,106,106,5,20,4,9,0.5,0.7
2023-10-18T15:00:00,2334A,118.1756,26.6272,南平市,南平七中,,44,33,42,18,29,174,139,116,116,5,13,5,6,0.6,0.7
2023-10-18T15:00:00,2335A,117.0189,25.1181,龙岩市,龙岩师专,,,,,,,,,,,,,,,,
2023-10-18T15:00:00,2336A,117.0217,25.1033,龙岩市,龙岩市监测站,,50,42,47,32,33,164,157,121,121,15,23,6,10,0.7,0.6
2023-10-18T15:00:00,2337A,117.0258,25.0661,龙岩市,闽西职业技术学院,臭氧1小时,57,51,54,32,33,169,165,130,130,13,23,8,9,0.6,0.6
2023-10-18T15:00:00,2338A,117.0196,25.0306,龙岩市,龙岩学院,臭氧1小时,59,60,54,29,36,173,167,112,112,13,18,7,5,0.7,0.6
2023-10-18T15:00:00,2339A,119.5001,26.6946,宁德市,金涵水库,,,,,,,,,,,,,,,,
2023-10-18T15:00:00,2341A,119.5388,26.6612,宁德市,宁德市监测站,,44,35,35,22,28,148,139,99,99,7,15,7,6,0.5,0.6
2023-10-18T15:00:00,2342A,117.3102,29.3867,景德镇市,王港中学,,,32,40,13,21,170,170,108,108,,14,5,2,0.5,0.6
2023-10-18T15:00:00,2343A,117.2117,29.2933,景德镇市,老干部活动中心,细颗粒物(PM2.5),60,57,46,43,34,167,166,109,109,13,17,22,13,0.6,0.5
2023-10-18T15:00:00,2344A,117.1894,29.2789,景德镇市,兽医站,细颗粒物(PM2.5),103,46,52,77,46,146,144,103,103,15,16,25,19,0.7,0.6
2023-10-18T15:00:00,2345A,117.1547,29.2617,景德镇市,台达陶瓷,,,,,,,,,,,,,,,,
2023-10-18T15:00:00,2346A,117.2461,29.2956,景德镇市,陶研所,,48,42,61,24,24,152,152,94,94,4,20,11,6,0.6,0.5
2023-10-18T15:00:00,2347A,114.0997,27.5002,萍乡市,武功山,,39,27,24,19,22,130,124,89,89,6,7,8,6,0.1,0.1
2023-10-18T15:00:00,2348A,113.8385,27.6434,萍乡市,中医院,细颗粒物(PM2.5),55,51,74,39,49,159,159,102,102,12,25,24,25,0.9,1
2023-10-18T15:00:00,2349A,113.8493,27.6253,萍乡市,市政府车库,细颗粒物(PM2.5),82,70,76,60,54,153,151,108,108,11,25,23,22,0.9,1.5
2023-10-18T15:00:00,2350A,113.8676,27.6435,萍乡市,市环保局,细颗粒物(PM2.5),62,68,77,44,56,158,152,102,102,10,26,19,25,0.8,0.8
2023-10-18T15:00:00,2351A,113.866,27.6198,萍乡市,安源区政府,细颗粒物(PM2.5),64,58,77,46,58,154,151,97,97,11,27,15,18,0.6,1
2023-10-18T15:00:00,2352A,115.0861,27.9317,新余市,北岗,,,44,50,33,38,145,140,96,96,8,17,18,22,,0.3
2023-10-18T15:00:00,2353A,114.9886,27.8431,新余市,飞宇,颗粒物(PM10),61,72,76,42,42,128,125,84,84,14,41,12,21,0.5,0.6
2023-10-18T15:00:00,2354A,114.9231,27.8246,新余市,第二水厂,颗粒物(PM10),93,135,81,58,48,160,144,102,102,8,41,8,13,0.4,1.1
2023-10-18T15:00:00,2355A,114.9308,27.8036,新余市,市气象局,细颗粒物(PM2.5),58,62,79,41,50,142,136,88,88,9,36,15,17,0.8,1.2
2023-10-18T15:00:00,2357A,116.9822,28.1136,鹰潭市,龙虎山,,49,36,41,4,13,182,154,102,102,5,6,5,5,0.1,0
2023-10-18T15:00:00,2358A,117.0564,28.2642,鹰潭市,新监测站,臭氧1小时,70,44,66,34,40,176,176,120,120,7,21,11,22,0.7,0.6
2023-10-18T15:00:00,2359A,117.0311,28.2475,鹰潭市,财苑宾馆,臭氧1小时,88,52,64,30,37,190,190,129,129,8,25,14,25,0.5,0.6
2023-10-18T15:00:00,2360A,117.0222,28.2264,鹰潭市,体育馆,臭氧1小时,74,50,56,30,35,179,179,123,123,4,15,10,12,0.5,0.6
2023-10-18T15:00:00,2361A,117.0017,28.2131,鹰潭市,三川水表,臭氧1小时,68,55,59,29,35,174,174,119,119,8,18,8,6,0.5,0.5
2023-10-18T15:00:00,2362A,114.9017,25.9149,赣州市,通天岩,,,,,,,,,,,,,,,,
2023-10-18T15:00:00,2363A,114.9367,25.8664,赣州市,地委,臭氧1小时,60,51,71,38,38,172,168,113,113,13,29,6,10,0.9,0.9
2023-10-18T15:00:00,2364A,114.9461,25.8481,赣州市,气象台,臭氧1小时,68,48,66,32,37,183,174,116,116,10,41,10,11,0.7,0.9
2023-10-18T15:00:00,2365A,114.9322,25.8333,赣州市,市图书馆,颗粒物(PM10),53,55,77,33,38,174,154,87,87,16,49,8,10,0.5,0.9
2023-10-18T15:00:00,2366A,114.8905,25.8471,赣州市,华坚鞋城,臭氧1小时,67,50,82,28,48,174,173,112,112,13,50,12,30,0.7,0.9
2023-10-18T15:00:00,2367A,114.9754,27.0803,吉安市,红声器材厂,,45,42,83,31,59,136,123,96,96,8,24,14,21,0.8,0.8
2023-10-18T15:00:00,2368A,114.9658,27.0999,吉安市,市森林工业局,颗粒物(PM10),54,57,89,34,60,144,129,100,100,12,32,11,16,0.3,0.7
2023-10-18T15:00:00,2369A,114.99,27.1312,吉安市,市环境监测站,,43,34,93,30,64,151,136,101,101,9,31,8,12,0.6,0.8
2023-10-18T15:00:00,2370A,115.0093,27.0968,吉安市,青原区法院,颗粒物(PM10),55,60,81,34,57,146,130,97,97,11,30,11,14,0.6,0.8
2023-10-18T15:00:00,2371A,114.3408,27.8064,宜春市,槟榔水业,臭氧1小时,67,72,71,44,45,173,173,102,102,21,33,10,9,0.6,0.6
2023-10-18T15:00:00,2373A,114.3956,27.7844,宜春市,市石油公司,细颗粒物(PM2.5),77,100,74,56,48,164,162,100,100,16,27,15,11,0.9,0.9
2023-10-18T15:00:00,2374A,114.3703,27.7914,宜春市,市气象局,细颗粒物(PM2.5),74,95,75,54,47,163,163,101,101,16,32,14,11,1.1,1
2023-10-18T15:00:00,2375A,114.4013,27.8074,宜春市,市广电局,细颗粒物(PM2.5),78,84,82,57,60,174,174,109,109,18,33,16,15,0.9,1
2023-10-18T15:00:00,2376A,116.2127,28.0814,抚州市,桐源党溪,,45,29,53,24,35,143,143,96,96,2,17,2,2,0.7,0.7
2023-10-18T15:00:00,2377A,116.3544,27.9831,抚州市,市站,,42,42,60,23,36,165,133,129,129,12,26,4,10,0.7,1.1
2023-10-18T15:00:00,2378A,116.3565,27.963,抚州市,血防站,,42,42,54,23,30,128,126,104,104,9,24,3,5,0.7,0.8
2023-10-18T15:00:00,2379A,116.3564,28.0007,抚州市,采茶剧团,,47,47,55,25,33,142,133,112,112,5,18,5,6,0.8,0.8
2023-10-18T15:00:00,2380A,116.385,27.9647,抚州市,医学分院,,50,44,54,17,27,157,157,120,120,8,20,7,11,0.8,0.8
2023-10-18T15:00:00,2381A,118.005,28.4572,上饶市,百草园,,,44,64,15,38,159,149,104,104,5,20,6,24,,
2023-10-18T15:00:00,2382A,117.9756,28.4436,上饶市,市监测站,臭氧1小时,60,43,69,24,39,177,168,119,119,11,27,5,17,0.5,0.7
2023-10-18T15:00:00,2383A,117.9519,28.4628,上饶市,凤凰光学,臭氧1小时,55,49,66,29,39,169,164,112,112,10,34,5,10,0.5,0.6
2023-10-18T15:00:00,2385A,114.17,35.9019,鹤壁市,市监测站,,50,41,75,35,54,177,132,108,108,20,26,8,9,0.7,1
2023-10-18T15:00:00,2386A,114.2956,35.7511,鹤壁市,市交警支队,,45,45,81,27,52,164,135,115,115,21,29,6,7,0.6,0.7
2023-10-18T15:00:00,2387A,114.2878,35.7306,鹤壁市,迎宾馆,细颗粒物(PM2.5),58,41,75,41,56,172,141,121,121,22,29,8,10,0.7,0.7
2023-10-18T15:00:00,2389A,113.836,35.311,新乡市,环保西院,颗粒物(PM10),53,55,117,30,75,177,153,100,100,18,35,11,12,1.1,1.1
2023-10-18T15:00:00,2390A,113.884,35.272,新乡市,开发区,颗粒物(PM10),51,51,101,29,75,180,148,109,109,13,28,8,9,0.8,1
2023-10-18T15:00:00,2391A,113.883,35.303,新乡市,环保东院,,,,121,,82,175,,90,90,20,33,9,10,0.9,1
2023-10-18T15:00:00,2392A,115.0312,35.7636,濮阳市,环保局,,45,35,70,30,43,154,141,105,105,14,24,4,6,0.8,0.6
2023-10-18T15:00:00,2394A,115.0574,35.7609,濮阳市,油田运输公司,,46,40,71,29,43,154,146,107,107,11,24,4,5,0.8,0.7
2023-10-18T15:00:00,2395A,115.0866,35.7754,濮阳市,油田物探公司,,47,33,77,25,42,162,148,111,111,10,29,3,3,0.6,0.7
2023-10-18T15:00:00,2396A,113.8276,34.0159,许昌市,监测站,细颗粒物(PM2.5),72,55,130,52,69,162,140,82,82,18,44,6,8,0.8,0.8
2023-10-18T15:00:00,2398A,113.7906,33.9953,许昌市,开发区,细颗粒物(PM2.5),63,43,144,45,100,154,140,82,82,12,43,5,7,0.5,0.5
2023-10-18T15:00:00,2399A,114.051,33.5699,漯河市,三五一五工厂,颗粒物(PM10),56,61,167,28,79,165,138,92,92,8,15,6,8,0.5,0.6
2023-10-18T15:00:00,2400A,114.0055,33.5698,漯河市,漯河大学,"颗粒物(PM10),细颗粒物(PM2.5)",52,54,140,36,65,167,137,91,91,15,28,11,12,0.6,0.7
2023-10-18T15:00:00,2401A,114.0138,33.5828,漯河市,市水利局,颗粒物(PM10),58,66,156,32,67,167,136,91,91,11,24,9,9,0.8,0.8
2023-10-18T15:00:00,2402A,114.0261,33.5698,漯河市,市广电局,,,,,,,,,,,,,,,,
2023-10-18T15:00:00,2404A,112.5224,33.0122,南阳市,瓦房庄,颗粒物(PM10),53,56,74,34,47,143,138,104,104,15,35,7,7,0.5,0.7
2023-10-18T15:00:00,2405A,112.5003,32.9735,南阳市,汉画馆,,49,49,71,31,40,147,146,111,111,10,28,6,6,0.6,0.7
2023-10-18T15:00:00,2406A,112.5573,33.027,南阳市,气象站,,49,49,68,29,42,152,139,106,106,14,29,4,4,0.6,0.7
2023-10-18T15:00:00,2407A,112.5481,32.9689,南阳市,理工学院,颗粒物(PM10),57,63,87,38,52,155,149,111,111,7,24,5,5,0.6,0.6
2023-10-18T15:00:00,2408A,115.6702,34.4285,商丘市,环境监测站,,,132,83,,38,160,160,108,108,23,23,10,9,0.7,0.5
2023-10-18T15:00:00,2409A,115.6458,34.4045,商丘市,粮食局,细颗粒物(PM2.5),160,137,93,122,64,153,151,102,102,27,32,7,8,0.6,0.3
2023-10-18T15:00:00,2410A,115.6293,34.3948,商丘市,睢阳区环保局,细颗粒物(PM2.5),148,152,93,113,62,159,159,99,99,22,28,8,9,0.7,0.4
2023-10-18T15:00:00,2420A,114.0189,32.9656,驻马店市,市一纸厂,颗粒物(PM10),63,76,82,27,40,158,152,97,97,10,31,8,10,0.4,0.5
2023-10-18T15:00:00,2421A,114.0114,33.015,驻马店市,市彩印厂,颗粒物(PM10),74,97,92,26,41,161,147,91,91,17,52,6,7,0.5,0.5
2023-10-18T15:00:00,2422A,113.9976,32.9771,驻马店市,天方二分厂,颗粒物(PM10),66,82,77,24,40,156,146,113,94,11,24,7,8,0.4,0.6
2023-10-18T15:00:00,2423A,115.0601,30.2313,黄石市,沈家营,臭氧1小时,98,72,86,30,57,205,198,130,130,19,37,17,13,0.9,0.9
2023-10-18T15:00:00,2424A,115.0817,30.2006,黄石市,陈家湾,臭氧1小时,78,54,67,38,47,186,182,151,110,20,31,18,13,0.8,0.8
2023-10-18T15:00:00,2426A,114.8988,30.2019,黄石市,铁山,臭氧1小时,69,32,78,23,49,186,175,138,138,9,28,4,14,0.6,0.8
2023-10-18T15:00:00,2427A,115.0307,30.2092,黄石市,团城山,臭氧1小时,100,71,78,34,40,200,200,141,120,20,31,14,13,1.0,0.8
2023-10-18T15:00:00,2428A,111.0419,32.395,十堰市,武当山,,,62,55,24,32,143,143,127,115,14,10,,11,1.2,0.9
2023-10-18T15:00:00,2429A,110.78,32.6494,十堰市,滨河新村,,42,42,69,27,46,128,114,75,75,12,27,9,9,0.5,0.6
2023-10-18T15:00:00,2430A,110.7258,32.6389,十堰市,刘家沟,,45,45,73,30,44,126,116,80,80,6,12,8,8,0.7,0.8
2023-10-18T15:00:00,2431A,110.8839,32.5714,十堰市,铁二处,颗粒物(PM10),51,52,62,30,41,142,141,94,94,9,13,8,8,0.5,0.7
2023-10-18T15:00:00,2432A,112.155,32.0197,襄阳市,襄城运动路,细颗粒物(PM2.5),82,111,100,60,60,176,176,109,109,13,22,13,16,0.9,0.8
2023-10-18T15:00:00,2433A,112.1392,32.0564,襄阳市,樊城新华路,细颗粒物(PM2.5),95,115,96,71,68,180,180,114,114,20,24,14,17,0.8,0.7
2023-10-18T15:00:00,2434A,112.1825,32.1142,襄阳市,高新管委会,细颗粒物(PM2.5),112,132,99,84,79,193,193,119,111,17,28,21,22,0.9,0.9
2023-10-18T15:00:00,2435A,112.2106,32.0903,襄阳市,襄州航空路,"颗粒物(PM10),细颗粒物(PM2.5)",94,137,105,70,67,162,162,100,100,10,18,13,13,0.7,0.7
2023-10-18T15:00:00,2436A,114.8938,30.3994,鄂州市,市政府,臭氧1小时,72,42,78,25,51,180,177,130,130,12,26,10,11,0.7,0.8
2023-10-18T15:00:00,2437A,114.8989,30.3714,鄂州市,赵家坝,,,,78,,54,182,,122,122,,34,,13,,0.9
2023-10-18T15:00:00,2439A,112.2014,31.0481,荆门市,竹园小学,臭氧1小时,107,106,101,67,67,214,214,134,134,20,29,17,14,0.9,0.8
2023-10-18T15:00:00,2440A,112.1969,30.9891,荆门市,掇刀,臭氧1小时,104,91,109,69,78,208,208,129,129,15,30,,19,0.8,0.8
2023-10-18T15:00:00,2441A,112.2213,31.0386,荆门市,石化一小,臭氧1小时,108,104,111,79,73,216,216,141,141,20,42,19,18,0.7,0.8
2023-10-18T15:00:00,2443A,113.9153,30.9285,孝感市,文化路,臭氧1小时,79,45,73,35,45,183,183,120,120,26,36,11,12,0.8,1
2023-10-18T15:00:00,2444A,113.942,30.9075,孝感市,东城区,臭氧1小时,88,59,85,37,44,190,190,122,122,21,33,11,10,0.9,1
2023-10-18T15:00:00,2446A,114.9028,30.4742,黄冈市,职工中心,臭氧1小时,82,78,74,35,45,185,185,136,136,7,13,13,16,0.7,0.8
2023-10-18T15:00:00,2447A,114.3175,29.8142,咸宁市,森林公园,,49,31,38,18,21,159,155,135,135,3,4,6,6,0.6,0.6
2023-10-18T15:00:00,2448A,114.3107,29.8454,咸宁市,市发改委,,50,36,45,23,27,158,157,131,131,4,11,8,7,0.7,0.7
