timepoint,stationcode,longitude,latitude,area,positionname,primarypollutant,aqi,pm10,pm10_24h,pm2_5,pm2_5_24h,o3,o3_24h,o3_8h,o3_8h_24h,no2,no2_24h,so2,so2_24h,co,co_24h
2023-10-18T11:00:00,1001A,116.3621,39.8784,北京市,万寿西宫,,20,16,72,6,38,108,64,57,57,11,28,1,2,0.3,0.7
2023-10-18T11:00:00,1002A,116.2202,40.2915,北京市,定陵,,14,10,45,4,25,105,42,50,50,9,14,1,2,0.2,0.4
2023-10-18T11:00:00,1003A,116.4174,39.9289,北京市,东四,,22,13,74,5,36,114,69,59,59,9,38,3,3,0.2,0.6
2023-10-18T11:00:00,1004A,116.4072,39.8863,北京市,天坛,,20,13,64,5,35,107,64,53,53,12,33,3,3,0.3,0.6
2023-10-18T11:00:00,1005A,116.462,39.9365,北京市,农展馆,,21,11,68,4,34,110,65,58,58,8,37,3,3,0.2,0.6
2023-10-18T11:00:00,1006A,116.3392,39.9295,北京市,官园,,20,13,77,5,37,118,64,58,58,9,28,1,2,0.3,0.6
2023-10-18T11:00:00,1007A,116.2878,39.9611,北京市,海淀万柳,,18,10,71,4,30,104,56,38,36,11,36,3,2,0.3,0.7
2023-10-18T11:00:00,1008A,116.6636,40.135,北京市,顺义新城,,22,8,67,3,42,115,68,44,44,5,29,3,3,0.2,0.6
2023-10-18T11:00:00,1009A,116.6275,40.3275,北京市,怀柔镇,,21,10,65,6,37,118,67,75,46,11,20,3,2,0.2,0.5
2023-10-18T11:00:00,1010A,116.2296,40.217,北京市,昌平镇,,17,11,52,4,24,110,52,50,50,2,6,2,2,0.3,0.5
2023-10-18T11:00:00,1011A,116.3966,39.9821,北京市,奥体中心,,20,13,65,6,31,107,61,53,53,10,36,1,2,0.2,0.5
2023-10-18T11:00:00,1012A,116.184,39.9136,北京市,古城,,20,17,65,6,31,118,61,66,56,11,29,1,2,0.4,0.7
2023-10-18T11:00:00,1015A,117.1444,39.1661,天津市,勤俭道,,21,12,159,7,73,168,66,81,54,11,35,6,10,0.4,0.9
2023-10-18T11:00:00,1017A,117.237,39.1082,天津市,大直沽八号路,,23,17,126,11,71,174,72,101,74,17,32,3,7,0.3,0.9
2023-10-18T11:00:00,1018A,117.202,39.0927,天津市,前进道,,,15,111,10,65,179,71,104,72,,33,6,9,,0.8
2023-10-18T11:00:00,1019A,117.1837,39.2133,天津市,淮河道,,24,15,126,9,74,183,74,95,59,14,40,5,9,0.5,1
2023-10-18T11:00:00,1021A,117.307,39.0877,天津市,跃进路,,25,17,115,13,74,198,79,96,73,12,30,6,10,0.4,0.9
2023-10-18T11:00:00,1023A,117.707,39.0343,天津市,第四大街,细颗粒物(PM2.5),79,70,119,58,76,160,58,89,63,25,49,5,9,0.7,1
2023-10-18T11:00:00,1024A,117.457,38.8394,天津市,永明路,,38,33,119,26,81,169,75,83,81,20,35,4,8,0.4,0.8
2023-10-18T11:00:00,1026A,117.764,39.1587,天津市,汉北路,细颗粒物(PM2.5),60,60,105,43,62,163,66,66,61,21,36,6,10,0.7,1
2023-10-18T11:00:00,1027A,117.157,38.9194,天津市,团泊洼,臭氧1小时,70,16,133,9,80,176,176,80,80,21,33,5,5,0.6,1.1
2023-10-18T11:00:00,1029A,114.4422,38.0444,石家庄市,职工医院,,36,17,99,25,65,164,80,78,49,10,28,3,7,0.5,1.1
2023-10-18T11:00:00,1030A,114.6063,38.0266,石家庄市,高新区,,45,45,99,20,67,174,78,82,60,8,28,2,6,0.5,1.1
2023-10-18T11:00:00,1031A,114.4898,38.1328,石家庄市,西北水源,,32,32,105,14,66,163,68,50,38,13,29,2,6,0.5,1
2023-10-18T11:00:00,1032A,114.4586,38.0058,石家庄市,西南高教,,25,25,94,3,65,168,79,92,59,11,22,4,5,0.5,1
2023-10-18T11:00:00,1033A,114.5331,38.0178,石家庄市,世纪公园,,40,26,94,28,60,160,75,62,51,10,22,3,6,0.4,1.2
2023-10-18T11:00:00,1034A,114.509,38.0457,石家庄市,人民会堂,,30,30,83,12,80,173,82,69,59,12,27,4,7,0.4,1
2023-10-18T11:00:00,1035A,114.3524,37.8911,石家庄市,封龙山,,,26,77,13,40,163,,140,86,23,22,6,10,0.6,0.8
2023-10-18T11:00:00,1037A,118.131,39.6363,唐山市,雷达站,细颗粒物(PM2.5),107,106,102,80,72,145,55,69,57,20,23,2,5,0.8,0.9
2023-10-18T11:00:00,1038A,118.1725,39.6334,唐山市,物资局,,,,97,,63,140,68,93,67,,36,6,8,0.7,0.9
2023-10-18T11:00:00,1040A,118.1705,39.6506,唐山市,十二中,细颗粒物(PM2.5),94,103,96,70,60,134,59,79,62,29,34,2,5,0,0.4
2023-10-18T11:00:00,1041A,118.1869,39.622,唐山市,小山,细颗粒物(PM2.5),94,109,99,70,59,142,62,101,60,19,24,2,5,0.8,0.9
2023-10-18T11:00:00,1042A,119.5134,39.8207,秦皇岛市,北戴河环保局,"颗粒物(PM10),细颗粒物(PM2.5)",59,67,71,42,36,147,67,96,85,43,34,7,10,0.5,0.7
2023-10-18T11:00:00,1043A,119.7493,40.0116,秦皇岛市,第一关,,49,33,76,34,49,145,63,99,61,28,66,8,12,0.4,0.8
2023-10-18T11:00:00,1044A,119.5897,39.9499,秦皇岛市,监测站,,,62,80,31,54,141,,92,76,47,35,,13,0.7,0.8
2023-10-18T11:00:00,1046A,119.5251,39.9041,秦皇岛市,建设大厦,细颗粒物(PM2.5),75,70,82,55,48,140,73,100,65,26,25,2,7,0.4,0.6
2023-10-18T11:00:00,1048A,114.5302,36.6116,邯郸市,东污水处理厂,细颗粒物(PM2.5),73,64,96,53,70,168,91,86,86,21,27,4,5,0.8,0.8
2023-10-18T11:00:00,1049A,114.4918,36.5713,邯郸市,矿院,,,,96,,84,181,94,93,93,,29,4,5,,0.9
2023-10-18T11:00:00,1050A,114.484,36.6133,邯郸市,丛台公园,细颗粒物(PM2.5),80,66,110,59,80,182,93,90,90,22,23,9,10,0.8,0.8
2023-10-18T11:00:00,1051A,115.493,38.8632,保定市,游泳馆,,43,43,85,24,58,172,84,104,71,14,26,4,7,0.4,0.7
2023-10-18T11:00:00,1052A,115.5213,38.8959,保定市,华电二区,,,46,66,32,46,164,,89,66,10,18,,8,0.4,0.6
2023-10-18T11:00:00,1053A,115.4713,38.9108,保定市,接待中心,,45,44,94,31,49,160,72,82,53,10,22,5,8,0.5,0.7
2023-10-18T11:00:00,1054A,115.4612,38.8416,保定市,地表水厂,,43,43,100,30,48,159,69,93,35,17,31,4,7,0.6,0.8
2023-10-18T11:00:00,1056A,115.5086,38.8639,保定市,监测站,,40,35,78,28,46,175,85,104,73,19,28,5,8,0.4,0.6
2023-10-18T11:00:00,1057A,114.8883,40.8336,张家口市,人民公园,,20,20,48,1,18,96,60,90,48,10,27,1,3,0.3,0.5
2023-10-18T11:00:00,1059A,114.8687,40.8042,张家口市,五金库,,18,14,49,2,19,107,56,94,52,12,25,3,4,0.3,0.4
2023-10-18T11:00:00,1060A,114.8902,40.762,张家口市,世纪豪园,,34,34,52,9,23,93,47,93,47,15,29,3,4,0.3,0.4
2023-10-18T11:00:00,1061A,114.8916,40.8661,张家口市,北泵房,,23,8,43,4,20,118,71,87,44,7,20,7,8,0.1,0.3
2023-10-18T11:00:00,1062A,117.9531,40.9081,承德市,铁路,,19,18,64,2,27,95,59,41,23,16,52,6,8,0.1,0.6
2023-10-18T11:00:00,1063A,117.9392,40.9763,承德市,中国银行,,22,22,60,6,23,102,63,19,19,9,44,7,7,0.3,0.8
2023-10-18T11:00:00,1064A,117.9503,40.928,承德市,开发区,,32,32,63,16,28,108,68,23,23,13,49,5,7,0.2,0.7
2023-10-18T11:00:00,1065A,117.8051,40.9655,承德市,文化中心,,21,13,78,3,32,100,67,51,51,10,50,3,5,0.2,0.6
2023-10-18T11:00:00,1066A,117.9268,41.0026,承德市,离宫,,22,4,51,10,29,109,68,29,29,1,26,2,3,0.2,0.6
2023-10-18T11:00:00,1067A,116.6708,39.5111,廊坊市,药材公司,,32,32,84,10,42,138,66,69,35,13,37,2,4,0.3,0.6
2023-10-18T11:00:00,1068A,116.7214,39.5589,廊坊市,开发区,,26,26,88,7,49,139,66,58,31,10,35,1,1,0.2,0.5
2023-10-18T11:00:00,1070A,116.7244,39.5269,廊坊市,北华航天学院,,36,36,92,6,47,139,66,77,38,13,48,3,6,0.3,0.7
2023-10-18T11:00:00,1071A,116.8842,38.2991,沧州市,沧县城建局,,34,34,130,20,81,213,84,82,82,13,34,4,7,0.3,0.7
2023-10-18T11:00:00,1072A,116.8584,38.3254,沧州市,电视转播站,,,92,137,22,90,207,80,73,73,11,24,,10,0.3,0.6
2023-10-18T11:00:00,1073A,116.8709,38.3228,沧州市,市环保局,,41,41,130,26,88,190,78,73,73,9,27,3,6,0.3,0.6
2023-10-18T11:00:00,1074A,115.6838,37.7541,衡水市,电机北厂,,35,17,98,21,76,192,109,83,83,8,19,1,4,0.3,0.5
2023-10-18T11:00:00,1075A,115.6303,37.7316,衡水市,市监测站,,33,30,105,19,59,187,103,85,85,15,23,3,5,0.5,0.6
2023-10-18T11:00:00,1077A,114.4704,37.0886,邢台市,达活泉,细颗粒物(PM2.5),57,49,110,40,79,184,84,104,72,6,13,2,7,0.6,1
2023-10-18T11:00:00,1078A,114.5062,37.0349,邢台市,邢师高专,,,,100,,74,184,87,104,77,9,20,,8,,0.8
2023-10-18T11:00:00,1079A,114.5237,37.0851,邢台市,路桥公司,,,,122,,74,190,,95,68,16,22,9,9,0.7,0.8
2023-10-18T11:00:00,1080A,114.4725,37.0719,邢台市,市环保局,,48,46,100,33,66,190,86,109,79,3,8,4,6,0.7,1
2023-10-18T11:00:00,1081A,112.522,37.8873,太原市,尖草坪,,,,100,14,66,160,72,49,28,,40,7,9,0.5,1
2023-10-18T11:00:00,1083A,112.434,38.0108,太原市,上兰,,,,,,,,,,,,,,,,
2023-10-18T11:00:00,1084A,112.469,37.7124,太原市,晋源,颗粒物(PM10),53,56,106,30,86,176,50,48,24,24,32,5,6,0.8,1
2023-10-18T11:00:00,1085A,112.5583,37.7394,太原市,小店,,,,110,18,70,171,63,42,34,,39,,7,1.7,1
2023-10-18T11:00:00,1086A,112.5369,37.8692,太原市,桃园,,32,32,91,17,55,160,59,34,34,31,43,15,9,1.5,1
2023-10-18T11:00:00,1087A,112.57,37.8195,太原市,坞城,,25,19,74,13,50,163,78,62,62,20,29,11,7,1.0,1
2023-10-18T11:00:00,1088A,112.549,37.9854,太原市,南寨,,,42,96,15,65,124,,18,18,20,47,3,9,0.6,1.4
2023-10-18T11:00:00,1090A,111.6507,40.7517,呼和浩特市,呼市一监,颗粒物(PM10),52,53,58,28,31,85,37,52,29,23,33,13,11,0.6,0.6
2023-10-18T11:00:00,1091A,111.6572,40.8033,呼和浩特市,小召,颗粒物(PM10),59,68,66,25,26,83,29,42,30,30,37,12,9,0.4,0.6
2023-10-18T11:00:00,1094A,111.7516,40.8369,呼和浩特市,如意水处理厂,颗粒物(PM10),51,52,61,17,23,100,46,41,33,26,35,15,13,0.4,0.5
2023-10-18T11:00:00,1095A,111.7276,40.8062,呼和浩特市,二十九中,颗粒物(PM10),54,58,66,21,29,95,43,50,36,28,39,13,12,0.5,0.6
2023-10-18T11:00:00,1096A,111.5512,40.7866,呼和浩特市,工大金川校区,颗粒物(PM10),59,67,69,20,31,72,39,51,32,22,36,10,11,0.4,0.6
2023-10-18T11:00:00,1097A,111.717,40.7612,呼和浩特市,化肥厂生活区,颗粒物(PM10),54,57,68,23,31,89,38,40,30,23,31,14,14,0.5,0.6
2023-10-18T11:00:00,1098A,123.6836,41.9339,沈阳市,森林路,,,,,,,,,,,,,,,,
2023-10-18T11:00:00,1099A,123.505,41.7406,沈阳市,浑南东路,,,28,57,16,27,119,26,87,72,,28,10,16,,0.8
2023-10-18T11:00:00,1100A,123.4231,41.6989,沈阳市,新秀街,,30,30,71,9,32,118,31,91,65,30,33,10,31,0.5,0.8
2023-10-18T11:00:00,1102A,123.5903,41.8411,沈阳市,东陵路,,19,18,56,13,31,129,23,72,60,25,27,9,15,0.4,0.8
2023-10-18T11:00:00,1103A,123.4264,41.8467,沈阳市,陵东街,,14,14,56,8,28,123,29,106,66,20,20,6,14,0.5,0.8
2023-10-18T11:00:00,1104A,123.4114,41.7653,沈阳市,文化路,,19,19,66,10,35,126,33,102,68,26,23,8,25,0.5,0.9
2023-10-18T11:00:00,1105A,123.4678,41.7867,沈阳市,小河沿,,23,23,61,8,30,123,30,100,66,30,27,8,14,0.5,0.8
2023-10-18T11:00:00,1106A,123.4017,41.7972,沈阳市,太原街,,27,27,55,7,31,125,18,105,61,43,31,5,15,0.4,0.6
2023-10-18T11:00:00,1108A,123.3783,41.9228,沈阳市,京沈街,,,31,56,6,31,125,36,112,70,,8,9,14,0.4,0.7
2023-10-18T11:00:00,1109A,121.612,38.9741,大连市,甘井子,细颗粒物(PM2.5),97,123,93,72,39,131,91,117,100,47,28,5,5,0.7,0.8
2023-10-18T11:00:00,1110A,121.565,38.9511,大连市,周水子,细颗粒物(PM2.5),73,90,73,53,36,121,105,116,96,28,24,8,9,1.1,0.9
2023-10-18T11:00:00,1111A,121.5637,38.8845,大连市,星海三站,细颗粒物(PM2.5),72,80,66,52,34,137,119,124,122,21,16,10,12,0.7,0.6
2023-10-18T11:00:00,1112A,121.6302,38.9117,大连市,青泥洼桥,细颗粒物(PM2.5),68,75,55,49,32,113,110,110,104,21,18,7,8,0.8,0.7
2023-10-18T11:00:00,1113A,121.6251,38.8638,大连市,傅家庄,细颗粒物(PM2.5),67,75,60,48,30,143,132,132,132,19,14,8,8,0.7,0.6
2023-10-18T11:00:00,1114A,121.5213,38.8661,大连市,七贤岭,颗粒物(PM10),73,95,76,44,30,153,126,124,121,25,24,6,7,0.8,0.7
2023-10-18T11:00:00,1115A,121.2529,38.8061,大连市,旅顺,颗粒物(PM10),61,71,62,40,26,140,140,130,128,18,17,8,7,0.9,0.7
2023-10-18T11:00:00,1116A,121.7485,39.1311,大连市,金州,细颗粒物(PM2.5),89,122,67,66,31,137,71,119,109,61,21,10,9,1.1,0.5
2023-10-18T11:00:00,1117A,121.7811,39.0496,大连市,开发区,细颗粒物(PM2.5),79,86,50,58,31,128,110,114,113,37,24,8,8,0.9,0.6
2023-10-18T11:00:00,1118A,121.9762,39.0631,大连市,双D港,细颗粒物(PM2.5),83,65,39,61,28,139,87,119,109,24,19,6,8,0.9,0.7
2023-10-18T11:00:00,1119A,125.3325,43.9166,长春市,食品厂,,,38,48,24,24,77,,72,45,43,29,,7,0.6,0.5
2023-10-18T11:00:00,1120A,125.2863,43.9027,长春市,客车厂,,27,27,44,11,26,78,21,73,39,33,25,8,8,0.6,0.6
2023-10-18T11:00:00,1121A,125.2841,43.8463,长春市,邮电学院,,23,15,50,16,26,81,22,74,47,35,26,7,8,0.5,0.5
2023-10-18T11:00:00,1122A,125.3716,43.8772,长春市,劳动公园,,,,,,,,,,,,,,,,
2023-10-18T11:00:00,1123A,125.3297,43.8805,长春市,园林处,,26,26,42,10,21,85,20,75,46,37,24,9,9,0.5,0.5
2023-10-18T11:00:00,1124A,125.4605,43.79,长春市,净月潭,,11,11,32,7,19,83,22,70,42,13,13,7,8,0.3,0.4
2023-10-18T11:00:00,1125A,125.7194,43.515,长春市,甩湾子,,,,,,,,,,,,,,,,
2023-10-18T11:00:00,1126A,125.3863,43.8447,长春市,经开区环卫处,,19,11,51,10,25,76,18,48,38,37,34,5,6,0.5,0.5
2023-10-18T11:00:00,1127A,125.245,43.7783,长春市,高新区管委会,,20,20,42,10,61,84,17,62,46,40,26,6,7,0.5,0.5
2023-10-18T11:00:00,1128A,125.1761,43.8325,长春市,岱山公园,,20,20,54,12,24,79,20,62,44,38,37,6,7,0.5,0.6
2023-10-18T11:00:00,1129A,126.5422,45.755,哈尔滨市,岭北,,17,17,51,7,26,81,41,56,39,10,16,3,5,0.2,0.3
2023-10-18T11:00:00,1130A,126.561,45.8167,哈尔滨市,松北商大,,31,31,51,10,21,73,28,51,26,30,24,19,10,0.3,0.4
2023-10-18T11:00:00,1131A,126.979,45.5419,哈尔滨市,阿城会宁,,46,46,52,18,21,78,27,68,36,31,18,10,7,0.6,0.6
2023-10-18T11:00:00,1132A,126.599,45.7222,哈尔滨市,南岗学府路,,31,31,58,6,22,73,32,49,30,24,24,6,7,0.4,0.5
2023-10-18T11:00:00,1133A,126.689,45.7733,哈尔滨市,太平宏伟公园,,42,42,61,11,29,72,32,53,36,25,25,8,6,0.5,0.6
2023-10-18T11:00:00,1134A,126.635,45.7667,哈尔滨市,道外承德广场,,30,30,55,11,29,74,29,54,31,28,31,6,7,0.4,0.5
2023-10-18T11:00:00,1135A,126.685,45.7319,哈尔滨市,香坊红旗大街,,35,35,60,11,29,70,34,47,31,32,36,13,10,0.4,0.5
2023-10-18T11:00:00,1136A,126.6411,45.7258,哈尔滨市,动力和平路,,32,32,56,14,24,65,28,44,27,27,33,13,15,0.4,0.5
2023-10-18T11:00:00,1137A,126.593,45.7478,哈尔滨市,道里建国路,,,36,56,18,24,75,,60,31,,27,10,10,0.2,0.5
2023-10-18T11:00:00,1138A,126.615,45.61,哈尔滨市,平房东轻厂,,40,40,61,15,26,81,40,54,32,17,20,8,9,0.2,0.3
2023-10-18T11:00:00,1139A,126.595,45.9855,哈尔滨市,呼兰师专,,22,22,52,7,24,73,48,64,41,12,22,4,5,0.6,0.7
2023-10-18T11:00:00,1140A,126.6206,45.6842,哈尔滨市,省农科院,,26,26,64,10,32,78,41,47,34,20,32,6,6,0.2,0.3
2023-10-18T11:00:00,1141A,121.4,31.238,上海市,普陀,细颗粒物(PM2.5),80,70,57,59,40,169,154,100,100,29,33,12,7,0.9,0.8
2023-10-18T11:00:00,1142A,121.478,31.2036,上海市,十五厂,颗粒物(PM10),58,66,58,34,31,170,157,86,84,22,41,8,7,0.9,0.7
2023-10-18T11:00:00,1143A,121.467,31.3008,上海市,虹口,细颗粒物(PM2.5),75,59,52,55,38,155,155,103,89,28,42,11,10,0.7,0.7
2023-10-18T11:00:00,1144A,121.412,31.1654,上海市,徐汇上师大,细颗粒物(PM2.5),93,63,58,69,48,178,171,85,85,25,41,15,10,0.8,0.7
2023-10-18T11:00:00,1145A,121.536,31.2659,上海市,杨浦四漂,,,,,,,,,,,,,,,,
2023-10-18T11:00:00,1147A,121.425,31.2261,上海市,静安监测站,细颗粒物(PM2.5),78,67,53,57,43,182,166,100,99,26,36,8,6,0.8,0.7
2023-10-18T11:00:00,1148A,121.703,31.1907,上海市,浦东川沙,细颗粒物(PM2.5),62,56,48,44,34,166,166,101,101,12,30,8,7,0.6,0.6
2023-10-18T11:00:00,1149A,121.533,31.2284,上海市,浦东新区监测站,细颗粒物(PM2.5),64,58,53,46,34,164,153,90,89,21,35,9,8,0.8,0.7
2023-10-18T11:00:00,1150A,121.577,31.2071,上海市,浦东张江,细颗粒物(PM2.5),62,54,53,44,36,154,154,91,86,14,34,6,6,1.1,1
2023-10-18T11:00:00,1151A,118.8086,32.1065,南京市,迈皋桥,颗粒物(PM10),68,86,83,44,44,200,158,200,107,27,23,6,5,0.6,0.5
2023-10-18T11:00:00,1152A,118.7538,32.0551,南京市,草场门,细颗粒物(PM2.5),67,80,80,48,52,194,153,162,113,31,33,6,5,0.9,0.8
2023-10-18T11:00:00,1153A,118.7794,32.0745,南京市,山西路,颗粒物(PM10),69,88,83,48,54,214,166,173,140,24,17,8,7,0.7,0.6
2023-10-18T11:00:00,1154A,118.7752,32.0023,南京市,中华门,颗粒物(PM10),68,85,91,48,55,197,150,147,116,30,26,7,6,0.9,0.8
2023-10-18T11:00:00,1155A,118.8109,32.0309,南京市,瑞金路,颗粒物(PM10),71,92,92,51,48,186,148,143,100,26,29,13,12,0.5,0.5
2023-10-18T11:00:00,1156A,118.7997,32.0754,南京市,玄武湖,细颗粒物(PM2.5),72,77,68,52,50,197,154,170,129,22,16,8,8,0.9,0.7
2023-10-18T11:00:00,1157A,118.6414,32.0931,南京市,浦口,"颗粒物(PM10),细颗粒物(PM2.5)",68,85,88,49,52,187,147,152,116,36,32,10,7,1.2,0.8
2023-10-18T11:00:00,1158A,118.7356,31.9996,南京市,奥体中心,,,,89,,54,197,139,157,108,32,29,,10,0.5,0.4
2023-10-18T11:00:00,1159A,118.9125,32.1028,南京市,仙林大学城,"颗粒物(PM10),臭氧1小时",60,70,78,41,57,216,168,154,123,24,23,4,4,0.8,0.8
2023-10-18T11:00:00,1160A,120.561,31.2472,苏州市,上方山,颗粒物(PM10),65,80,74,40,43,205,164,91,91,15,22,5,5,0.7,0.7
2023-10-18T11:00:00,1162A,120.591,31.3019,苏州市,彩香,颗粒物(PM10),55,59,72,36,45,210,156,113,113,29,23,10,9,0.7,0.8
2023-10-18T11:00:00,1163A,120.596,31.3264,苏州市,轧钢厂,颗粒物(PM10),59,68,77,33,42,212,164,118,118,22,19,13,12,0.7,0.8
2023-10-18T11:00:00,1164A,120.613,31.2703,苏州市,吴中区,,,,71,,39,208,169,101,101,,29,11,10,0.7,0.7
2023-10-18T11:00:00,1165A,120.543,31.2994,苏州市,苏州新区,臭氧1小时,65,56,75,36,47,207,172,114,114,24,33,10,11,0.8,0.8
2023-10-18T11:00:00,1166A,120.669,31.3097,苏州市,苏州工业园区,臭氧1小时,65,60,62,46,40,208,172,121,121,33,28,10,10,0.8,0.8
2023-10-18T11:00:00,1167A,120.641,31.3708,苏州市,相城区,,,75,62,,40,202,168,104,104,,39,,11,0.9,0.9
2023-10-18T11:00:00,1168A,120.9098,31.9663,南通市,狼山街道,"颗粒物(PM10),细颗粒物(PM2.5)",63,76,54,45,32,196,156,73,73,44,37,10,8,0.6,0.5
2023-10-18T11:00:00,1169A,120.86,32.0005,南通市,虹桥,,,,67,,41,220,147,114,114,54,50,,13,0.8,0.7
2023-10-18T11:00:00,1170A,120.87,32.02,南通市,城中,细颗粒物(PM2.5),69,79,60,50,37,203,157,88,88,41,41,12,10,0.7,0.7
2023-10-18T11:00:00,1171A,120.94,31.93,南通市,星湖花园,,,92,65,49,34,207,164,86,86,,35,,8,0.7,0.6
2023-10-18T11:00:00,1172A,120.81,32.0417,南通市,紫琅学院,颗粒物(PM10),64,78,69,44,35,184,136,87,87,47,50,10,10,0.5,0.5
2023-10-18T11:00:00,1173A,119.176,34.5885,连云港市,市环境监测站,细颗粒物(PM2.5),107,100,102,80,70,168,128,116,72,16,21,10,13,0.8,0.7
2023-10-18T11:00:00,1177A,117.179,34.2761,徐州市,黄河新村,,,112,107,56,65,197,,130,113,36,31,13,10,0.5,0.5
2023-10-18T11:00:00,1178A,117.1918,34.2384,徐州市,淮塔,细颗粒物(PM2.5),85,114,116,63,67,204,137,119,116,38,32,17,11,0.8,0.7
2023-10-18T11:00:00,1180A,117.256,34.2153,徐州市,新城区,颗粒物(PM10),95,139,123,70,71,201,134,118,100,43,35,13,9,0.9,0.8
2023-10-18T11:00:00,1181A,117.244,34.2911,徐州市,桃园路,颗粒物(PM10),84,117,112,54,61,202,135,140,114,40,28,15,11,0.8,0.7
2023-10-18T11:00:00,1182A,117.2933,34.2778,徐州市,农科院,细颗粒物(PM2.5),92,105,106,68,65,194,133,109,109,38,32,13,10,0.9,0.8
2023-10-18T11:00:00,1186A,119.389,32.3761,扬州市,邗江监测站,,,102,111,,47,260,150,101,95,40,42,11,10,0.6,0.6
2023-10-18T11:00:00,1188A,120.269,31.4867,无锡市,雪浪,颗粒物(PM10),57,63,77,36,46,229,164,112,112,14,24,7,8,0.7,0.8
2023-10-18T11:00:00,1189A,120.275,31.6219,无锡市,黄巷,颗粒物(PM10),69,87,95,34,44,203,150,101,84,25,56,7,9,0.8,0.9
2023-10-18T11:00:00,1190A,120.294,31.56,无锡市,曹张,细颗粒物(PM2.5),58,56,62,41,47,208,158,104,99,18,35,8,9,0.9,1
2023-10-18T11:00:00,1191A,120.242,31.5031,无锡市,漆塘,臭氧1小时,65,58,75,41,49,239,172,128,128,19,24,8,9,0.6,0.8
2023-10-18T11:00:00,1192A,120.3489,31.5863,无锡市,东亭,,,70,80,39,48,217,154,92,84,29,52,6,7,,1.2
2023-10-18T11:00:00,1193A,120.354,31.5475,无锡市,旺庄,颗粒物(PM10),57,63,76,31,44,203,159,93,92,31,58,7,8,0.7,0.9
2023-10-18T11:00:00,1194A,120.245,31.5631,无锡市,荣巷,臭氧1小时,59,66,73,39,49,229,167,111,111,16,26,10,11,0.8,1
2023-10-18T11:00:00,1195A,120.299,31.6817,无锡市,堰桥,颗粒物(PM10),59,68,85,34,45,210,145,88,88,24,34,10,12,0.7,0.8
2023-10-18T11:00:00,1196A,119.9633,31.762,常州市,市监测站,,,,113,,66,224,160,107,107,,44,10,11,0.6,0.8
2023-10-18T11:00:00,1200A,119.9468,31.7069,常州市,武进监测站,臭氧1小时,67,69,104,46,57,226,173,118,118,13,25,15,16,0.7,0.8
2023-10-18T11:00:00,1201A,119.9255,31.9087,常州市,安家,细颗粒物(PM2.5),64,64,112,46,75,241,164,82,82,16,39,10,11,0.7,1
2023-10-18T11:00:00,1203A,119.6707,32.1875,镇江市,新区办事处,细颗粒物(PM2.5),77,57,91,56,70,262,162,70,70,25,54,5,6,0.7,0.8
2023-10-18T11:00:00,1204A,119.4974,32.1968,镇江市,职教中心,细颗粒物(PM2.5),98,62,82,73,85,256,165,100,100,21,31,7,9,0.5,0.8
2023-10-18T11:00:00,1205A,119.4303,32.1328,镇江市,丹徒区监测站,细颗粒物(PM2.5),102,76,95,76,78,245,157,94,94,19,33,6,8,0.5,0.7
2023-10-18T11:00:00,1206A,119.905,32.4878,泰州市,公园路,颗粒物(PM10),67,83,100,46,68,236,146,78,78,25,28,12,12,0.7,0.8
2023-10-18T11:00:00,1207A,119.9189,32.4625,泰州市,莲花,细颗粒物(PM2.5),73,83,110,53,68,247,145,77,77,26,29,8,9,0.7,0.9
2023-10-18T11:00:00,1209A,119.888,32.4639,泰州市,留学生创业园,,,64,101,49,60,244,150,94,94,24,26,,12,0.7,0.9
2023-10-18T11:00:00,1210A,119.036,33.5981,淮安市,钵池山,细颗粒物(PM2.5),118,,93,89,85,188,122,118,79,,27,,12,0.9,1.1
2023-10-18T11:00:00,1211A,119.007,33.575,淮安市,北京南路,细颗粒物(PM2.5),132,85,99,100,87,201,128,116,76,23,32,8,12,0.9,0.9
2023-10-18T11:00:00,1212A,118.989,33.6067,淮安市,市监测站,细颗粒物(PM2.5),85,107,108,63,72,203,127,138,84,26,30,13,15,0.9,1
2023-10-18T11:00:00,1213A,119.135,33.5039,淮安市,楚州区监测站,细颗粒物(PM2.5),117,90,115,88,96,200,124,67,52,24,43,9,11,1.0,1.1
2023-10-18T11:00:00,1214A,119.0186,33.6297,淮安市,淮阴区监测站,细颗粒物(PM2.5),120,124,130,91,85,195,128,135,88,24,30,9,12,0.9,1
2023-10-18T11:00:00,1215A,120.118,33.4022,盐城市,盐城电厂,颗粒物(PM10),68,85,74,46,41,192,141,96,82,18,18,12,10,0.8,0.8
2023-10-18T11:00:00,1216A,120.156,33.3942,盐城市,市监测站,细颗粒物(PM2.5),68,70,55,49,42,214,153,85,60,17,23,10,8,0.7,0.7
2023-10-18T11:00:00,1218A,120.2144,33.38,盐城市,开发区管委会,颗粒物(PM10),64,78,58,44,32,198,144,68,59,17,21,9,10,0.6,0.6
2023-10-18T11:00:00,1220A,118.293,33.9528,宿迁市,宿迁学院,细颗粒物(PM2.5),97,125,119,72,70,197,168,161,125,21,35,13,13,0.7,0.8
2023-10-18T11:00:00,1221A,118.2442,33.9592,宿迁市,宿迁中学,,,,111,,74,189,149,161,133,,25,,11,0.7,0.7
2023-10-18T11:00:00,1223A,120.2072,30.2111,杭州市,滨江,颗粒物(PM10),56,61,107,35,57,214,129,106,73,30,42,7,9,0.6,0.7
2023-10-18T11:00:00,1224A,120.0633,30.2747,杭州市,西溪,,45,45,69,29,62,210,128,40,40,24,33,6,6,0.6,0.7
2023-10-18T11:00:00,1226A,120.3461,30.3153,杭州市,下沙,颗粒物(PM10),52,54,92,34,65,233,133,100,52,33,56,7,10,0.6,0.8
2023-10-18T11:00:00,1227A,120.1269,30.2456,杭州市,卧龙桥,细颗粒物(PM2.5),54,55,72,38,51,218,120,46,46,29,27,3,4,0.7,0.8
2023-10-18T11:00:00,1228A,120.1903,30.2692,杭州市,浙江农大,,46,40,79,32,60,202,120,65,65,24,33,7,8,0.7,0.8
2023-10-18T11:00:00,1230A,120.1197,30.3119,杭州市,和睦小学,,,50,75,41,57,206,118,93,47,32,39,,10,0.7,0.8
2023-10-18T11:00:00,1231A,120.3019,30.4183,杭州市,临平镇,颗粒物(PM10),60,70,114,35,67,228,134,102,65,26,39,6,8,0.6,0.7
2023-10-18T11:00:00,1232A,120.2697,30.1819,杭州市,城厢镇,"颗粒物(PM10),细颗粒物(PM2.5)",52,53,90,36,68,205,128,94,66,26,43,9,9,0.5,0.7
2023-10-18T11:00:00,1233A,120.0883,30.1808,杭州市,云栖,"颗粒物(PM10),细颗粒物(PM2.5)",60,69,83,43,52,204,107,51,43,42,32,7,7,0.9,0.8
2023-10-18T11:00:00,1234A,121.8358,29.911,宁波市,区环保大楼,,49,31,45,18,31,217,154,77,77,20,46,6,8,0.6,0.7
2023-10-18T11:00:00,1235A,121.56,29.82,宁波市,万里学院,颗粒物(PM10),56,61,97,28,53,256,158,65,65,5,43,10,11,0.7,0.9
2023-10-18T11:00:00,1236A,121.713,29.9572,宁波市,龙赛医院,,,32,65,21,35,235,,107,63,11,35,7,7,0.6,0.8
2023-10-18T11:00:00,1239A,121.633,29.7733,宁波市,钱湖水厂,,47,30,62,22,39,248,150,128,98,9,14,8,8,0.5,0.6
2023-10-18T11:00:00,1240A,121.5856,29.8635,宁波市,太古小学,,49,49,90,23,40,267,152,87,87,13,35,8,9,0.7,0.8
2023-10-18T11:00:00,1241A,121.524,29.8674,宁波市,市环境监测中心,,50,46,74,24,41,289,159,85,85,10,37,9,11,0.5,0.7
2023-10-18T11:00:00,1242A,120.634,28.0089,温州市,瓯海,细颗粒物(PM2.5),57,61,72,40,44,158,149,49,49,24,46,8,8,0.7,0.7
2023-10-18T11:00:00,1243A,120.6748,27.9939,温州市,南浦,颗粒物(PM10),55,60,75,36,46,164,141,60,54,25,41,8,7,0.6,0.6
2023-10-18T11:00:00,1244A,120.76,27.9747,温州市,龙湾,,,59,65,32,36,169,124,70,62,,33,6,6,0.6,0.6
2023-10-18T11:00:00,1245A,120.6709,28.0167,温州市,市站,颗粒物(PM10),58,66,73,40,45,160,126,71,71,32,36,8,7,0.6,0.6
2023-10-18T11:00:00,1247A,120.6053,29.9928,绍兴市,城东开发委,颗粒物(PM10),53,55,84,34,57,209,131,94,94,20,29,8,10,0.7,0.8
2023-10-18T11:00:00,1250A,120.0751,30.8669,湖州市,城西水厂,细颗粒物(PM2.5),79,92,107,58,69,215,128,117,75,44,44,6,5,0.6,0.6
2023-10-18T11:00:00,1252A,120.7436,30.778,嘉兴市,清河小学,臭氧1小时,55,58,65,30,39,228,164,140,140,16,22,6,7,0.6,0.7
2023-10-18T11:00:00,1253A,120.726,30.7478,嘉兴市,嘉兴学院,臭氧1小时,53,46,62,30,44,221,162,133,133,13,19,8,8,0.6,0.7
2023-10-18T11:00:00,1255A,121.273,28.6459,台州市,黄岩环保大楼,,,27,42,32,43,200,139,100,100,22,20,,7,0.6,0.6
2023-10-18T11:00:00,1256A,121.419,28.6542,台州市,台州环保大楼,,45,45,78,30,45,189,144,76,76,15,25,6,6,0.6,0.6
2023-10-18T11:00:00,1257A,121.377,28.5773,台州市,路桥田洋王,细颗粒物(PM2.5),52,47,69,36,53,179,135,76,76,22,28,9,8,0.6,0.6
2023-10-18T11:00:00,1258A,122.122,30.0203,舟山市,定海檀枫,,42,26,45,12,21,190,133,73,73,7,13,8,7,0.4,0.5
2023-10-18T11:00:00,1259A,122.3094,29.9558,舟山市,普陀东港,,38,8,23,12,16,179,121,103,88,5,10,6,6,0.3,0.4
2023-10-18T11:00:00,1260A,122.19,29.9944,舟山市,临城新区,,42,25,34,13,20,188,134,79,74,11,16,6,5,0.4,0.5
2023-10-18T11:00:00,1262A,119.647,29.077,金华市,十五中,,42,42,54,27,37,175,134,92,88,18,37,5,5,0.4,0.5
2023-10-18T11:00:00,1263A,119.686,29.1029,金华市,监测站,,42,41,67,28,41,182,132,48,48,17,56,5,6,0.7,0.8
2023-10-18T11:00:00,1264A,118.8692,28.9398,衢州市,环保大楼,颗粒物(PM10),56,61,68,39,44,163,115,54,48,22,31,7,6,0.6,0.6
2023-10-18T11:00:00,1265A,118.8709,28.9666,衢州市,实验学校,细颗粒物(PM2.5),59,65,60,42,41,176,110,70,58,29,29,7,7,0.5,0.6
2023-10-18T11:00:00,1266A,118.8621,28.9808,衢州市,衢州学院,细颗粒物(PM2.5),68,70,58,49,37,172,92,62,56,34,32,9,7,0.6,0.6
2023-10-18T11:00:00,1267A,119.914,28.4514,丽水市,监测站大楼,细颗粒物(PM2.5),54,56,49,38,31,153,109,55,44,20,28,14,8,0.4,0.4
2023-10-18T11:00:00,1268A,119.93,28.4586,丽水市,莲都小学,颗粒物(PM10),55,59,55,36,29,153,110,50,43,16,32,7,6,0.4,0.3
2023-10-18T11:00:00,1269A,119.879,28.4231,丽水市,余庄前,颗粒物(PM10),62,73,45,32,32,151,110,33,31,33,19,8,6,0.4,0.3
2023-10-18T11:00:00,1270A,117.1959,31.7848,合肥市,明珠广场,"颗粒物(PM10),细颗粒物(PM2.5)",73,95,75,53,38,166,102,82,69,44,36,12,12,0.8,0.7
2023-10-18T11:00:00,1271A,117.3072,31.8764,合肥市,三里街,细颗粒物(PM2.5),70,88,80,51,41,142,107,84,66,38,48,6,8,0.9,0.8
2023-10-18T11:00:00,1272A,117.2588,31.8707,合肥市,琥珀山庄,颗粒物(PM10),70,90,75,46,36,159,117,116,77,35,34,7,8,0.6,0.5
2023-10-18T11:00:00,1273A,117.1604,31.9052,合肥市,董铺水库,颗粒物(PM10),73,95,87,44,39,148,129,106,70,28,36,17,34,0.6,0.5
2023-10-18T11:00:00,1274A,117.25,31.8571,合肥市,长江中路,颗粒物(PM10),70,90,78,48,42,151,106,108,74,34,34,10,11,0.6,0.5
2023-10-18T11:00:00,1275A,117.266,31.9436,合肥市,庐阳区,颗粒物(PM10),69,88,77,44,41,147,116,79,69,33,46,6,7,0.6,0.6
2023-10-18T11:00:00,1276A,117.336,31.8586,合肥市,瑶海区,,,92,90,45,39,142,117,67,67,32,50,6,7,,0.6
2023-10-18T11:00:00,1277A,117.3027,31.7964,合肥市,包河区,细颗粒物(PM2.5),62,68,76,44,40,159,126,66,49,20,59,3,5,0.8,0.7
2023-10-18T11:00:00,1278A,117.2776,31.7385,合肥市,滨湖新区,,,73,67,46,35,170,114,125,88,,14,10,10,0.5,0.3
2023-10-18T11:00:00,1279A,117.1318,31.8403,合肥市,高新区,颗粒物(PM10),73,95,69,49,34,160,121,115,91,35,28,10,11,0.8,0.7
2023-10-18T11:00:00,1280A,119.3903,26.0543,福州市,鼓山,,,,,,,,,,,,,,,,
2023-10-18T11:00:00,1282A,119.2681,26.0504,福州市,师大,,46,46,44,13,28,173,135,92,92,9,12,6,7,0.5,0.5
2023-10-18T11:00:00,1283A,119.2984,26.1028,福州市,五四北路,,48,48,42,22,28,166,132,113,99,9,12,4,4,0.5,0.5
2023-10-18T11:00:00,1284A,119.2648,26.0768,福州市,杨桥西路,,48,48,47,23,28,168,129,100,90,10,13,5,5,0.5,0.5
2023-10-18T11:00:00,1285A,119.317,26.0746,福州市,紫阳,,50,50,45,18,28,160,126,124,101,9,9,5,6,0.5,0.5
2023-10-18T11:00:00,1286A,118.1608,24.8169,厦门市,溪东,,,,,,,,,,,,,,,,
2023-10-18T11:00:00,1287A,118.1514,24.4767,厦门市,洪文,,48,48,58,28,32,163,97,107,98,14,10,1,2,0.4,0.4
2023-10-18T11:00:00,1288A,118.0661,24.4444,厦门市,鼓浪屿,,43,43,54,27,31,157,89,105,82,19,13,2,3,0.6,0.6
2023-10-18T11:00:00,1290A,115.8931,28.6843,南昌市,省外办,颗粒物(PM10),66,81,86,39,44,164,96,34,34,28,44,10,9,0.9,0.9
2023-10-18T11:00:00,1291A,115.8886,28.7003,南昌市,省林业公司,,,,,,,,,,,,,,,,
2023-10-18T11:00:00,1292A,115.8126,28.7442,南昌市,林科所,颗粒物(PM10),69,88,58,46,33,191,103,118,88,40,22,15,11,0.8,0.6
2023-10-18T11:00:00,1294A,115.8518,28.687,南昌市,建工学校,颗粒物(PM10),83,115,87,48,43,169,94,44,44,36,50,13,11,0.9,0.6
2023-10-18T11:00:00,1295A,115.8921,28.6424,南昌市,象湖,颗粒物(PM10),65,79,73,41,42,168,98,37,37,29,50,11,9,0.8,0.8
2023-10-18T11:00:00,1296A,115.7423,28.7996,南昌市,武术学校,,39,21,22,10,16,169,122,36,36,17,8,9,4,0.6,0.4
2023-10-18T11:00:00,1298A,115.9314,28.6842,南昌市,省站,颗粒物(PM10),70,90,101,47,47,163,99,40,40,26,46,20,13,1.0,0.7
2023-10-18T11:00:00,1299A,116.9862,36.6114,济南市,科干所,颗粒物(PM10),82,114,84,51,34,184,83,145,116,40,20,14,9,0.8,0.6
2023-10-18T11:00:00,1300A,116.9376,36.665,济南市,农科所,颗粒物(PM10),80,110,84,46,31,165,63,119,90,44,26,8,7,0.6,0.6
2023-10-18T11:00:00,1301A,117.1265,36.6734,济南市,开发区,颗粒物(PM10),79,107,67,44,28,172,84,148,116,41,29,14,9,0.9,0.7
2023-10-18T11:00:00,1303A,117.0624,36.6868,济南市,省种子仓库,颗粒物(PM10),86,122,75,46,27,185,77,150,116,38,19,11,8,0.7,0.6
2023-10-18T11:00:00,1304A,116.9489,36.6447,济南市,机床二厂,颗粒物(PM10),84,117,95,61,36,180,69,136,100,43,22,10,8,0.5,0.5
2023-10-18T11:00:00,1305A,117.0495,36.663,济南市,市监测站,颗粒物(PM10),81,112,75,49,31,188,82,153,119,46,28,13,9,0.7,0.5
2023-10-18T11:00:00,1306A,116.7675,36.5484,济南市,长清党校,颗粒物(PM10),86,122,95,59,41,183,75,128,92,40,26,9,11,0.6,0.6
2023-10-18T11:00:00,1307A,120.6659,36.2403,青岛市,仰口,,,73,56,36,33,165,165,165,165,19,24,,9,0.9,1
2023-10-18T11:00:00,1310A,120.4134,36.0658,青岛市,市南区东部子站,颗粒物(PM10),69,88,55,44,23,164,153,156,156,18,12,12,8,0.9,0.5
2023-10-18T11:00:00,1311A,120.3664,36.1032,青岛市,四方区子站,,,,,,,,,,,,,,,,
2023-10-18T11:00:00,1312A,120.2994,36.054,青岛市,市南区西部子站,颗粒物(PM10),74,97,65,46,26,158,150,148,148,19,12,10,8,0.7,0.5
2023-10-18T11:00:00,1313A,120.4581,36.0858,青岛市,崂山区子站,"颗粒物(PM10),细颗粒物(PM2.5)",70,90,59,51,28,166,156,156,156,24,16,12,8,0.9,0.7
2023-10-18T11:00:00,1314A,120.1983,35.9608,青岛市,黄岛区子站,细颗粒物(PM2.5),80,88,60,59,35,155,150,145,145,25,20,10,9,0.8,0.7
2023-10-18T11:00:00,1315A,120.3999,36.3083,青岛市,城阳区子站,颗粒物(PM10),76,102,64,42,28,157,157,130,130,30,27,11,8,0.9,0.7
2023-10-18T11:00:00,1316A,113.69031,34.76122,郑州市,烟厂,颗粒物(PM10),51,52,103,25,48,175,70,111,68,19,33,8,7,0.8,0.8
2023-10-18T11:00:00,1317A,113.65724,34.77134,郑州市,郑纺机,颗粒物(PM10),53,55,96,23,45,169,70,101,66,19,40,8,8,1.0,1
2023-10-18T11:00:00,1318A,113.67526,34.80246,郑州市,银行学校,颗粒物(PM10),53,56,90,27,74,173,68,112,69,18,29,8,9,0.7,0.7
2023-10-18T11:00:00,1319A,113.56746,34.81334,郑州市,供水公司,,37,37,109,25,52,168,72,106,67,20,31,8,9,0.9,0.9
2023-10-18T11:00:00,1320A,113.7329,34.7178,郑州市,经开区管委,颗粒物(PM10),52,54,113,25,47,176,72,103,68,17,33,8,8,0.7,0.7
2023-10-18T11:00:00,1321A,113.73961,34.77172,郑州市,四十七中,,35,35,102,23,47,179,71,110,71,25,36,7,7,0.8,0.8
2023-10-18T11:00:00,1322A,113.60532,34.74838,郑州市,市监测站,颗粒物(PM10),55,60,101,27,55,170,67,105,62,22,42,7,6,0.7,0.7
2023-10-18T11:00:00,1323A,113.64164,34.7525,郑州市,河医大,,49,49,105,31,50,170,67,98,64,16,26,10,9,0.9,0.9
2023-10-18T11:00:00,1324A,113.51488,34.91089,郑州市,岗李水库,,,,,,,,,,,,,,,,
2023-10-18T11:00:00,1325A,114.3677,30.5584,武汉市,东湖梨园,细颗粒物(PM2.5),64,60,60,46,46,179,98,72,44,34,33,17,13,1.2,0.8
2023-10-18T11:00:00,1326A,114.2529,30.558,武汉市,汉阳月湖,,,,67,,45,165,,58,29,56,44,,9,1.1,0.8
2023-10-18T11:00:00,1327A,114.282,30.6189,武汉市,汉口花桥,细颗粒物(PM2.5),70,88,68,51,48,170,87,76,50,49,43,16,11,1.1,0.9
2023-10-18T11:00:00,1328A,114.3025,30.5332,武汉市,武昌紫阳,"颗粒物(PM10),细颗粒物(PM2.5)",59,68,63,42,37,177,98,72,39,44,46,15,12,1.0,0.9
2023-10-18T11:00:00,1329A,114.3646,30.6217,武汉市,青山钢花,,,,72,,52,173,108,83,46,,40,,13,1.2,0.9
2023-10-18T11:00:00,1330A,114.1566,30.4825,武汉市,沌口新区,细颗粒物(PM2.5),70,86,81,51,49,178,102,75,50,43,51,15,14,1.0,0.8
2023-10-18T11:00:00,1331A,114.3014,30.5944,武汉市,汉口江滩,,,,66,,43,180,96,82,51,,36,16,10,1.1,0.7
2023-10-18T11:00:00,1333A,114.135,30.6319,武汉市,吴家山,细颗粒物(PM2.5),74,93,76,54,43,193,96,90,50,60,49,13,10,0.9,0.7
2023-10-18T11:00:00,1334A,113.8454,30.2917,武汉市,沉湖七壕,,50,50,47,25,27,175,126,76,76,16,23,6,5,0.7,0.7
2023-10-18T11:00:00,1335A,113.0833,28.2325,长沙市,经开区环保局,颗粒物(PM10),61,71,75,37,48,150,92,89,66,30,29,9,9,0.5,0.5
2023-10-18T11:00:00,1336A,112.8872,28.2189,长沙市,高开区环保局,颗粒物(PM10),55,59,65,37,36,169,124,129,101,16,20,10,9,0.7,0.7
2023-10-18T11:00:00,1337A,113.0792,28.2053,长沙市,马坡岭,颗粒物(PM10),70,90,85,44,50,164,103,93,72,24,33,9,10,0.5,0.5
2023-10-18T11:00:00,1338A,112.9394,28.19,长沙市,湖南师范大学,"颗粒物(PM10),细颗粒物(PM2.5)",57,64,60,40,37,172,123,111,91,19,18,11,9,0.6,0.6
2023-10-18T11:00:00,1339A,113.0178,28.1322,长沙市,雨花区环保局,细颗粒物(PM2.5),58,60,57,41,37,156,111,125,102,20,20,9,10,0.5,0.6
2023-10-18T11:00:00,1340A,112.9792,28.2597,长沙市,伍家岭,颗粒物(PM10),58,65,88,38,57,164,100,30,30,35,52,8,7,0.8,0.8
2023-10-18T11:00:00,1341A,113.0014,28.1944,长沙市,火车新站,,,,69,,38,157,104,116,88,31,34,,9,0.8,0.7
2023-10-18T11:00:00,1342A,112.9844,28.1178,长沙市,天心区环保局,,50,48,48,35,37,159,118,122,104,17,20,9,9,0.5,0.5
2023-10-18T11:00:00,1343A,112.8908,28.1308,长沙市,湖南中医药大学,颗粒物(PM10),59,68,72,34,44,193,109,68,33,15,44,7,6,0.7,0.8
2023-10-18T11:00:00,1344A,112.9581,28.3611,长沙市,沙坪,,43,43,49,30,37,136,84,88,75,18,14,8,7,0.4,0.3
2023-10-18T11:00:00,1345A,113.2347,23.1423,广州市,广雅中学,,45,45,41,26,28,137,85,72,58,24,27,4,4,0.8,0.8
2023-10-18T11:00:00,1346A,113.2612,23.105,广州市,市五中,,40,40,40,28,29,158,86,82,77,28,23,7,6,0.7,0.7
2023-10-18T11:00:00,1348A,113.3478,23.0916,广州市,广东商学院,,46,46,47,28,30,143,75,69,64,32,25,5,5,0.7,0.6
2023-10-18T11:00:00,1349A,113.4332,23.1047,广州市,市八十六中,,46,46,49,28,28,140,87,70,58,31,28,6,5,0.7,0.7
2023-10-18T11:00:00,1350A,113.3505,22.9483,广州市,番禺中学,颗粒物(PM10),53,55,47,34,28,170,96,56,56,29,32,4,4,0.9,0.8
2023-10-18T11:00:00,1351A,113.2146,23.3916,广州市,花都师范,,,55,55,34,31,158,71,67,67,,26,6,6,,0.6
2023-10-18T11:00:00,1352A,113.2597,23.1331,广州市,市监测站,,46,46,49,30,28,145,89,69,66,26,27,4,4,0.6,0.6
2023-10-18T11:00:00,1353A,113.5618,23.312,广州市,九龙镇镇龙,,44,44,41,29,25,123,86,81,66,18,18,6,5,0.6,0.6
2023-10-18T11:00:00,1354A,113.2765,23.1544,广州市,麓湖,,,36,36,25,24,139,87,64,54,,26,5,7,0.5,0.5
2023-10-18T11:00:00,1355A,113.443,23.3035,广州市,帽峰山森林公园,,40,31,28,28,25,131,95,91,58,9,11,7,7,0.4,0.4
2023-10-18T11:00:00,1356A,114.1063,22.5545,深圳市,通心岭子站,,43,43,39,24,21,142,114,112,112,17,18,3,4,0.6,0.6
2023-10-18T11:00:00,1357A,114.117,22.5625,深圳市,洪湖,,47,47,44,25,23,128,104,87,87,18,23,7,7,0.5,0.4
2023-10-18T11:00:00,1358A,113.987,22.5417,深圳市,华侨城,,43,43,41,25,22,129,107,89,89,17,21,9,10,0.8,0.7
2023-10-18T11:00:00,1359A,113.9181,22.5171,深圳市,南海子站,颗粒物(PM10),52,54,53,29,24,132,113,99,99,15,18,5,6,0.7,0.7
2023-10-18T11:00:00,1360A,114.2458,22.5689,深圳市,盐田,,46,46,41,29,24,144,94,114,112,35,30,5,6,0.8,0.7
2023-10-18T11:00:00,1361A,114.2283,22.7244,深圳市,龙岗,,47,47,42,30,24,131,78,74,74,28,18,8,8,0.8,0.7
2023-10-18T11:00:00,1363A,114.494,22.5422,深圳市,南澳,,40,38,45,23,33,148,126,145,129,10,13,5,6,0.8,0.8
2023-10-18T11:00:00,1364A,114.41,22.6342,深圳市,葵涌,,36,31,55,25,21,139,104,132,123,24,17,5,6,0.6,0.6
2023-10-18T11:00:00,1365A,114.297,22.5978,深圳市,梅沙,颗粒物(PM10),52,54,44,23,21,129,109,114,114,12,12,7,8,1.0,0.9
2023-10-18T11:00:00,1366A,114.0678,22.738,深圳市,观澜,颗粒物(PM10),54,58,49,29,23,164,106,104,104,24,16,9,10,0.7,0.6
2023-10-18T11:00:00,1367A,113.5814,22.2618,珠海市,吉大,,42,39,38,29,23,162,121,135,128,17,14,6,7,0.6,0.5
2023-10-18T11:00:00,1368A,113.4881,22.2335,珠海市,前山,,48,48,34,19,20,144,92,121,105,32,20,6,7,0.6,0.5
2023-10-18T11:00:00,1369A,113.628,22.4251,珠海市,唐家,,45,45,41,27,24,153,116,94,94,15,19,5,5,0.6,0.5
2023-10-18T11:00:00,1370A,113.299,22.2281,珠海市,斗门,,48,44,37,33,24,175,98,116,91,29,22,8,10,0.5,0.5
2023-10-18T11:00:00,1371A,113.1294,23.0067,佛山市,湾梁,,41,41,38,22,24,158,84,72,72,28,25,8,9,0.6,0.7
2023-10-18T11:00:00,1372A,113.1083,23.0478,佛山市,华材职中,,36,36,39,24,29,159,84,70,70,25,22,5,6,0.6,0.6
2023-10-18T11:00:00,1373A,113.144,23.0453,佛山市,南海气象局,,40,40,42,20,26,147,71,61,61,28,25,6,6,0.5,0.5
2023-10-18T11:00:00,1374A,113.2881,22.8094,佛山市,顺德苏岗,,49,49,46,27,25,209,91,60,56,26,25,10,10,0.8,0.7
2023-10-18T11:00:00,1376A,112.8383,22.8678,佛山市,高明孔堂,,,,55,,30,165,69,63,45,,32,,8,0.7,0.7
2023-10-18T11:00:00,1377A,112.8836,23.1588,佛山市,三水监测站,细颗粒物(PM2.5),54,48,47,38,37,177,69,76,59,38,29,7,6,0.7,0.7
2023-10-18T11:00:00,1378A,112.867,23.185,佛山市,三水云东海,,38,27,42,26,31,183,70,81,62,23,23,5,5,0.7,0.7
2023-10-18T11:00:00,1379A,113.3769,22.5211,中山市,华柏园,颗粒物(PM10),53,56,47,28,29,191,96,75,75,34,30,5,4,0.5,0.5
2023-10-18T11:00:00,1380A,113.3881,22.5497,中山市,张溪,颗粒物(PM10),61,71,62,36,29,204,98,75,75,31,28,4,4,0.5,0.5
2023-10-18T11:00:00,1381A,113.4075,22.5111,中山市,紫马岭,,49,49,49,30,26,203,99,74,74,31,27,5,4,0.5,0.5
2023-10-18T11:00:00,1382A,113.4411,22.4853,中山市,长江旅游区,,,,,,,,,,,,,,,,
2023-10-18T11:00:00,1383A,113.1064,22.6058,江门市,北街,颗粒物(PM10),54,58,50,35,30,227,98,67,67,30,29,8,8,0.7,0.7
2023-10-18T11:00:00,1384A,113.0731,22.5835,江门市,西区,颗粒物(PM10),53,55,56,31,30,233,97,71,71,30,28,7,7,0.5,0.5
2023-10-18T11:00:00,1385A,113.0219,22.5311,江门市,圭峰西,颗粒物(PM10),54,57,49,36,31,232,98,74,74,35,32,5,6,0.7,0.7
2023-10-18T11:00:00,1386A,113.0828,22.5947,江门市,东湖,,,,54,,28,228,96,66,66,25,25,,7,0.6,0.6
2023-10-18T11:00:00,1389A,113.7547,23.0494,东莞市,莞城梨川,颗粒物(PM10),51,51,41,30,25,156,108,82,82,20,16,9,8,0.8,0.7
2023-10-18T11:00:00,1390A,113.7944,23.0128,东莞市,东城石井,颗粒物(PM10),57,64,48,34,27,167,97,71,71,27,17,7,7,0.7,0.7
2023-10-18T11:00:00,1391A,113.7383,22.9658,东莞市,南城西平,颗粒物(PM10),56,61,46,35,25,160,106,66,66,27,28,7,6,0.7,0.7
2023-10-18T11:00:00,1392A,114.4183,23.0528,惠州市,河南岸金山湖子站,颗粒物(PM10),54,58,41,33,25,122,100,82,82,12,8,7,7,0.7,0.6
2023-10-18T11:00:00,1393A,114.4053,23.0822,惠州市,下埔横江三路子站,颗粒物(PM10),52,53,41,35,26,119,105,83,83,13,11,9,9,0.7,0.6
2023-10-18T11:00:00,1394A,114.4103,23.1142,惠州市,江北云山西路子站,,48,48,39,32,25,126,107,89,87,9,8,8,7,0.6,0.6
2023-10-18T11:00:00,1395A,114.4645,22.7833,惠州市,惠阳区承修路船湖子站,颗粒物(PM10),52,54,47,34,27,111,52,46,44,39,20,6,6,0.8,0.8
2023-10-18T11:00:00,1396A,114.5317,22.7422,惠州市,大亚湾管委会子站,颗粒物(PM10),59,68,59,30,28,117,103,99,84,39,34,9,9,0.8,0.8
2023-10-18T11:00:00,1397A,112.4267,23.0706,肇庆市,睦岗子站,,32,32,56,19,32,211,83,75,75,18,28,9,11,0.4,0.5
2023-10-18T11:00:00,1398A,112.4645,23.0475,肇庆市,城中子站,,38,38,50,24,31,220,84,84,84,21,23,9,10,0.6,0.6
2023-10-18T11:00:00,1399A,112.5544,23.1522,肇庆市,坑口子站,,34,34,53,23,34,206,80,70,70,21,29,8,9,0.5,0.6
2023-10-18T11:00:00,1400A,112.4753,23.1,肇庆市,七星岩子站,,,,,,,,,,,,,,,,
2023-10-18T11:00:00,1401A,108.3103,22.7881,南宁市,二十一中,颗粒物(PM10),54,57,54,33,33,163,134,108,101,14,16,11,10,0.8,0.8
2023-10-18T11:00:00,1402A,108.3141,22.8528,南宁市,北湖,颗粒物(PM10),56,61,66,36,44,156,119,35,35,16,37,15,22,0.7,0.8
2023-10-18T11:00:00,1403A,108.3206,22.8225,南宁市,市监测站,,,80,59,35,31,155,127,127,127,,19,17,16,1.0,0.9
2023-10-18T11:00:00,1404A,108.3829,22.8037,南宁市,大自然花园,细颗粒物(PM2.5),52,48,46,36,32,134,119,100,90,17,21,11,9,0.7,0.6
2023-10-18T11:00:00,1405A,108.4394,22.7904,南宁市,仙葫,颗粒物(PM10),53,56,60,32,32,125,125,59,59,15,36,9,9,0.4,0.6
2023-10-18T11:00:00,1406A,108.2397,22.8467,南宁市,区农职院,颗粒物(PM10),59,67,64,34,37,167,129,66,66,24,35,16,21,0.7,0.6
2023-10-18T11:00:00,1407A,108.3275,22.735,南宁市,英华嘉园,颗粒物(PM10),57,64,49,33,30,144,120,93,93,18,23,10,9,0.7,0.7
2023-10-18T11:00:00,1408A,108.2257,22.7757,南宁市,沙井镇街道办,颗粒物(PM10),66,82,89,38,48,173,114,31,31,28,52,18,15,0.8,0.8
2023-10-18T11:00:00,1409A,110.576,19.9507,海口市,东寨港,,,,,,,,,,,,,,,,
2023-10-18T11:00:00,1410A,110.3232,20.0574,海口市,海南大学,,20,16,36,4,17,148,62,148,80,8,7,6,6,0.4,0.5
2023-10-18T11:00:00,1411A,110.283,20.0053,海口市,秀英海南医院,,20,13,32,5,15,152,63,146,78,6,5,7,7,0.4,0.5
2023-10-18T11:00:00,1412A,110.338,19.9969,海口市,海南师范大学,,19,13,31,4,15,149,60,143,73,6,7,5,5,0.4,0.4
2023-10-18T11:00:00,1413A,110.33,20.0356,海口市,龙华路环保局宿舍,,21,12,36,6,16,155,65,151,79,8,7,8,8,0.2,0.4
2023-10-18T11:00:00,1414A,106.3787,29.8279,重庆市,缙云山,,,69,55,52,31,167,44,102,45,,17,,10,0.4,0.3
2023-10-18T11:00:00,1416A,106.4213,29.8253,重庆市,天生,细颗粒物(PM2.5),79,84,75,58,59,173,16,61,7,35,36,8,11,1.3,1.1
2023-10-18T11:00:00,1417A,106.6263,29.7228,重庆市,两路,细颗粒物(PM2.5),88,73,64,65,44,183,47,55,20,40,41,10,8,1.2,1
2023-10-18T11:00:00,1418A,106.2953,29.5983,重庆市,虎溪,细颗粒物(PM2.5),108,81,75,81,62,173,47,48,20,19,36,6,9,0.7,0.7
2023-10-18T11:00:00,1419A,106.5777,29.5102,重庆市,南坪,细颗粒物(PM2.5),129,103,89,98,69,190,42,55,44,33,32,12,11,0.9,0.8
2023-10-18T11:00:00,1420A,106.6556,29.6277,重庆市,唐家沱,颗粒物(PM10),71,92,80,48,44,174,26,9,9,58,60,11,8,1.2,1
2023-10-18T11:00:00,1421A,106.6349,29.4906,重庆市,茶园,细颗粒物(PM2.5),80,90,79,59,49,181,71,52,48,24,54,7,7,1.0,1
2023-10-18T11:00:00,1422A,106.3754,29.4572,重庆市,白市驿,细颗粒物(PM2.5),85,116,91,63,63,173,47,70,40,31,27,8,10,1.0,0.8
2023-10-18T11:00:00,1425A,106.6205,29.7166,重庆市,空港,,,109,69,47,46,183,,66,18,46,46,11,7,1.1,0.9
2023-10-18T11:00:00,1426A,106.4782,29.4875,重庆市,新山村,细颗粒物(PM2.5),115,106,114,87,80,172,40,21,21,38,59,11,14,1.0,1.1
2023-10-18T11:00:00,1427A,106.5616,29.6453,重庆市,礼嘉,细颗粒物(PM2.5),103,116,80,77,47,180,,58,10,56,51,12,11,1.2,1
2023-10-18T11:00:00,1428A,106.4522,29.7091,重庆市,蔡家,细颗粒物(PM2.5),85,86,80,63,49,166,57,28,20,22,40,5,8,0.7,0.7
2023-10-18T11:00:00,1429A,106.5093,29.3917,重庆市,鱼新街,细颗粒物(PM2.5),99,92,107,74,81,177,52,20,20,29,57,13,16,1.0,1.2
2023-10-18T11:00:00,1431A,103.9728,30.7236,成都市,金泉两河,,30,30,52,17,34,90,41,38,36,12,16,2,3,0.4,0.5
2023-10-18T11:00:00,1432A,104.176,30.6872,成都市,十里店,,15,11,44,10,29,92,44,36,33,16,22,3,3,0.4,0.6
2023-10-18T11:00:00,1433A,104.079,30.5706,成都市,三瓦窑,,26,18,55,18,38,71,45,38,30,13,23,1,2,0.4,0.5
2023-10-18T11:00:00,1434A,104.1114,30.63,成都市,沙河铺,,29,29,57,20,39,65,38,27,27,14,23,1,1,0.4,0.5
2023-10-18T11:00:00,1437A,104.0786,30.6531,成都市,君平街,,35,30,54,24,41,63,39,34,34,31,35,5,6,0.5,0.6
2023-10-18T11:00:00,1438A,103.613,31.0283,成都市,灵岩寺,,23,23,14,9,16,94,44,92,62,15,11,9,7,0.8,0.8
2023-10-18T11:00:00,1439A,106.6899,26.5998,贵阳市,马鞍山,,,36,25,22,14,113,,91,91,13,12,5,4,0.6,0.5
2023-10-18T11:00:00,1440A,106.6971,26.5694,贵阳市,市环保站,,48,48,42,33,25,108,99,87,87,19,31,6,5,0.4,0.3
2023-10-18T11:00:00,1441A,106.6243,26.6266,贵阳市,鉴湖路,,46,46,34,29,18,98,91,92,86,12,10,5,5,0.5,0.4
2023-10-18T11:00:00,1442A,106.7487,26.6343,贵阳市,燕子冲,,36,36,27,19,18,111,96,86,86,14,15,5,5,0.5,0.4
2023-10-18T11:00:00,1443A,106.6555,26.4365,贵阳市,碧云窝,,,41,36,22,18,105,,89,89,8,10,6,8,0.5,0.5
2023-10-18T11:00:00,1444A,106.694,26.5161,贵阳市,中院村,,46,46,46,24,26,95,88,75,75,18,28,11,11,0.4,0.4
2023-10-18T11:00:00,1445A,106.7109,26.6027,贵阳市,红边门,细颗粒物(PM2.5),55,53,43,39,26,108,88,79,79,23,29,3,4,0.5,0.5
2023-10-18T11:00:00,1446A,106.7164,26.5699,贵阳市,新华路,,49,36,36,34,22,112,98,84,84,15,26,6,6,0.5,0.4
2023-10-18T11:00:00,1447A,106.674,26.5424,贵阳市,太慈桥,,39,39,32,24,20,106,97,77,77,13,22,7,4,0.5,0.4
2023-10-18T11:00:00,1450A,102.8204,24.8886,昆明市,呈贡新区,,31,31,19,12,12,100,50,36,36,16,21,7,7,0.8,0.7
2023-10-18T11:00:00,1451A,102.6251,24.9608,昆明市,西山森林公园,,,15,16,9,11,122,,63,50,12,8,8,9,0.6,0.5
2023-10-18T11:00:00,1452A,102.7252,25.0902,昆明市,龙泉镇,,25,20,35,17,15,87,43,11,11,13,27,9,9,0.7,0.7
2023-10-18T11:00:00,1453A,102.7266,25.0375,昆明市,东风东路,,32,32,26,18,16,95,42,27,27,19,25,10,9,0.7,0.6
2023-10-18T11:00:00,1454A,102.6742,25.0669,昆明市,金鼎山,,38,38,34,13,14,90,48,14,14,14,29,12,16,0.5,0.5
2023-10-18T11:00:00,1455A,102.6644,25.0401,昆明市,碧鸡广场,,32,32,26,7,15,91,44,18,18,14,27,9,8,0.9,0.7
2023-10-18T11:00:00,1456A,91.1319,29.6514,拉萨市,八廓街,,30,30,24,20,13,117,73,78,58,21,17,12,11,0.4,0.2
2023-10-18T11:00:00,1457A,91.1221,29.6747,拉萨市,市环保局,,26,19,23,14,11,122,82,85,48,18,17,8,8,0.6,0.5
2023-10-18T11:00:00,1458A,91.0874,29.6475,拉萨市,区监测站,,,25,18,10,8,110,,88,50,17,16,,8,0.4,0.4
2023-10-18T11:00:00,1459A,91.1774,29.6541,拉萨市,西藏大学,,37,37,19,13,8,117,54,72,51,30,19,8,10,0.5,0.5
2023-10-18T11:00:00,1460A,90.9798,29.6588,拉萨市,区辐射站,,26,21,22,8,8,110,81,92,72,14,16,6,6,0.4,0.4
2023-10-18T11:00:00,1461A,91.0834,29.6292,拉萨市,拉萨火车站,,23,22,19,9,8,105,72,86,65,15,11,5,6,0.4,0.4
2023-10-18T11:00:00,1462A,108.882,34.2749,西安市,高压开关厂,颗粒物(PM10),54,58,78,24,34,50,24,30,12,37,48,9,10,0.5,0.6
2023-10-18T11:00:00,1463A,108.993,34.2629,西安市,兴庆小区,,35,35,59,18,32,46,31,36,14,28,38,7,7,0.5,0.7
2023-10-18T11:00:00,1464A,109.06,34.2572,西安市,纺织城,颗粒物(PM10),51,51,84,23,45,61,32,8,8,32,51,6,6,0.6,0.8
2023-10-18T11:00:00,1465A,108.9356,34.2173,西安市,小寨,,,,75,,32,42,20,30,7,33,45,,8,,0.7
2023-10-18T11:00:00,1466A,108.954,34.2713,西安市,市人民体育场,,49,49,68,21,35,42,19,20,12,30,37,6,6,0.5,0.7
2023-10-18T11:00:00,1467A,108.8922,34.2322,西安市,高新西区,,41,41,67,26,38,42,18,30,14,35,49,6,7,0.6,0.7
2023-10-18T11:00:00,1468A,108.935,34.3474,西安市,经开区,,49,49,60,23,30,45,10,30,8,33,37,4,4,0.5,0.6
2023-10-18T11:00:00,1469A,108.906,34.1546,西安市,长安区,,42,42,71,19,37,63,28,29,20,28,39,8,7,0.5,0.6
2023-10-18T11:00:00,1471A,109.2186,34.3731,西安市,临潼区,,,,84,,42,71,39,64,36,23,26,,7,,0.8
2023-10-18T11:00:00,1472A,108.869,34.378,西安市,草滩,颗粒物(PM10),51,52,80,23,35,52,6,15,2,47,56,6,6,0.5,0.6
2023-10-18T11:00:00,1473A,108.985,34.1978,西安市,曲江文化产业集团,颗粒物(PM10),52,53,74,24,44,50,23,19,16,35,47,6,6,0.3,0.5
2023-10-18T11:00:00,1474A,109.051,34.3213,西安市,广运潭,,39,39,66,21,38,49,21,19,5,34,42,8,8,0.6,0.8
2023-10-18T11:00:00,1476A,103.631,36.1031,兰州市,兰炼宾馆,,,63,48,49,33,97,47,33,24,47,35,,5,,0.4
2023-10-18T11:00:00,1477A,104.1373,35.9454,兰州市,榆中兰大校区,,,,,,,,,,,,,,,,
2023-10-18T11:00:00,1478A,103.8412,36.0726,兰州市,生物制品所,细颗粒物(PM2.5),54,53,46,38,34,90,28,12,12,43,43,10,7,0.7,0.6
2023-10-18T11:00:00,1479A,103.831,36.0464,兰州市,铁路设计院,颗粒物(PM10),56,61,46,39,33,100,16,48,14,56,45,9,8,0.8,0.5
2023-10-18T11:00:00,1483A,101.524,36.6867,西宁市,第五水厂,,,,,,,,,,,,,,,,
2023-10-18T11:00:00,1484A,105.9512,38.6016,银川市,贺兰山马莲口,,31,31,19,8,12,111,60,90,74,31,10,47,7,0.8,0.3
2023-10-18T11:00:00,1488A,106.2328,38.4975,银川市,贺兰山东路,颗粒物(PM10),66,81,56,42,32,109,24,31,21,52,39,14,11,0.8,0.6
2023-10-18T11:00:00,1489A,106.1358,38.5036,银川市,学院路,,,,34,,34,96,,28,20,,34,26,11,0.8,0.7
2023-10-18T11:00:00,1490A,87.5801,43.8303,乌鲁木齐市,监测站,颗粒物(PM10),54,57,38,14,12,76,5,1,1,66,46,6,5,0.9,0.5
2023-10-18T11:00:00,1491A,87.6046,43.768,乌鲁木齐市,收费所,,27,27,46,0,14,81,81,32,32,8,36,1,2,0.5,0.5
2023-10-18T11:00:00,1492A,87.4754,43.9469,乌鲁木齐市,新疆农科院农场,,,,37,,15,71,,,,,25,,2,,0.5
2023-10-18T11:00:00,1493A,87.5525,43.8711,乌鲁木齐市,铁路局,颗粒物(PM10),59,68,46,22,16,70,7,1,1,62,48,5,4,0.8,0.6
2023-10-18T11:00:00,1494A,87.6432,43.831,乌鲁木齐市,三十一中学,,32,32,37,11,11,79,26,20,20,38,35,9,7,0.7,0.5
2023-10-18T11:00:00,1496A,87.7216,44.1747,乌鲁木齐市,米东区环保局,颗粒物(PM10),87,124,65,42,21,83,5,3,3,48,21,5,4,0.7,0.4
2023-10-18T11:00:00,1508A,112.9433,27.8614,湘潭市,板塘,颗粒物(PM10),66,81,84,34,61,161,108,47,47,24,45,25,20,0.8,0.9
2023-10-18T11:00:00,1511A,112.9118,27.8403,湘潭市,市监测站,细颗粒物(PM2.5),65,71,77,47,48,176,124,82,82,24,44,16,12,0.8,0.8
2023-10-18T11:00:00,1512A,112.8937,27.8728,湘潭市,江麓,细颗粒物(PM2.5),62,71,86,44,54,177,126,46,46,21,50,17,12,0.7,0.9
2023-10-18T11:00:00,1513A,112.9227,27.8159,湘潭市,岳塘,颗粒物(PM10),63,75,86,40,50,170,129,88,88,16,33,17,13,0.5,0.6
2023-10-18T11:00:00,1514A,112.9074,27.9119,湘潭市,科大,,,74,82,50,52,181,115,27,27,23,55,,13,1.0,1
2023-10-18T11:00:00,1515A,113.135,27.8244,株洲市,天台山庄,细颗粒物(PM2.5),59,62,77,42,49,170,132,81,77,16,41,17,13,0.7,0.9
2023-10-18T11:00:00,1518A,113.095,27.8867,株洲市,株冶医院,细颗粒物(PM2.5),64,62,75,46,53,170,124,68,68,23,40,16,11,0.8,0.8
2023-10-18T11:00:00,1519A,113.167,27.8667,株洲市,市四中,颗粒物(PM10),55,60,87,38,52,176,119,62,62,17,41,11,8,0.7,0.8
2023-10-18T11:00:00,1520A,113.143,27.8381,株洲市,火车站,细颗粒物(PM2.5),69,78,91,50,54,168,120,69,62,20,39,16,11,0.7,0.8
2023-10-18T11:00:00,1524A,113.13,27.8528,株洲市,市监测站,细颗粒物(PM2.5),69,73,86,50,61,177,125,72,72,23,46,15,10,1.0,1
2023-10-18T11:00:00,1552A,106.805,26.3003,贵阳市,桐木岭,,,,,,,,,,,,,,,,
2023-10-18T11:00:00,1559A,113.251,27.8336,株洲市,大京风景区,,48,48,48,29,39,168,111,43,43,11,7,8,4,0.5,0.5
2023-10-18T11:00:00,1562A,113.0048,27.9153,湘潭市,昭山,细颗粒物(PM2.5),58,63,73,41,44,181,130,42,42,22,56,14,10,0.6,0.6
2023-10-18T11:00:00,1564A,112.4876,27.9164,湘潭市,韶山,颗粒物(PM10),69,88,106,47,59,198,132,68,55,20,18,15,11,0.8,0.9
2023-10-18T11:00:00,1585A,109.8756,40.6532,包头市,市环境监测站,颗粒物(PM10),57,64,59,18,23,63,46,52,38,45,37,47,21,2.6,0.7
2023-10-18T11:00:00,1587A,109.9991,40.5842,包头市,包头八中,,,77,73,15,20,62,,56,23,37,40,15,19,0.9,0.9
2023-10-18T11:00:00,1588A,109.8538,40.6821,包头市,青山宾馆,颗粒物(PM10),56,61,61,21,22,60,40,47,39,44,39,46,23,1.6,0.6
2023-10-18T11:00:00,1589A,109.8642,40.6288,包头市,惠龙物流,,,,,,,,,,,,,,,,
2023-10-18T11:00:00,1590A,110.0377,40.5546,包头市,东河鸿龙湾,颗粒物(PM10),65,79,70,20,20,67,35,50,19,38,37,18,17,0.8,0.8
2023-10-18T11:00:00,1591A,110.0023,39.8129,鄂尔多斯市,综合楼,颗粒物(PM10),52,53,50,7,16,70,53,27,27,26,45,8,10,0.6,0.7
2023-10-18T11:00:00,1592A,109.9486,39.8261,鄂尔多斯市,巴音孟克林场办事处,,31,31,45,14,22,72,60,27,27,16,42,11,12,0.3,0.4
2023-10-18T11:00:00,1593A,109.7736,39.5986,鄂尔多斯市,康泽苑,,46,46,34,10,16,83,42,23,21,24,25,8,6,0.6,0.5
2023-10-18T11:00:00,1594A,109.8119,39.5989,鄂尔多斯市,华泰汽车城,颗粒物(PM10),51,51,37,12,15,86,34,17,17,26,31,7,5,0.8,0.6
2023-10-18T11:00:00,1595A,109.9734,39.7884,鄂尔多斯市,奥林花园,,44,44,47,7,15,63,63,36,20,16,44,8,8,0.6,0.8
2023-10-18T11:00:00,1597A,122.2703,40.7094,营口市,大庆路,,37,37,53,13,31,130,44,107,90,19,20,4,7,0.6,0.7
2023-10-18T11:00:00,1598A,122.2150,40.6511,营口市,镜湖西路,,,21,54,6,26,123,43,116,96,16,20,5,6,,0.8
2023-10-18T11:00:00,1599A,122.1658,40.6789,营口市,西炮台,,26,26,55,15,29,135,45,109,90,18,20,5,7,0.5,0.7
2023-10-18T11:00:00,1600A,124.3303,40.0625,丹东市,江湾东路,颗粒物(PM10),53,56,50,32,28,93,46,50,50,26,26,7,9,1.0,1
2023-10-18T11:00:00,1601A,124.4256,40.1503,丹东市,临江后街,,43,43,40,23,19,98,34,49,25,38,26,6,7,0.8,0.7
2023-10-18T11:00:00,1602A,124.3933,40.1461,丹东市,元宝山,,39,39,32,23,15,86,26,58,38,38,19,4,6,0.6,0.6
2023-10-18T11:00:00,1603A,124.3633,40.1092,丹东市,民主桥,颗粒物(PM10),51,52,39,23,17,93,33,37,37,44,32,7,8,1.0,0.8
2023-10-18T11:00:00,1604A,122.0303,41.1489,盘锦市,开发区,,27,27,33,9,26,141,41,102,76,30,22,8,9,0.8,0.9
2023-10-18T11:00:00,1605A,122.0485,41.0883,盘锦市,兴隆台,,23,23,36,11,21,133,29,105,74,41,22,10,10,0.5,0.6
2023-10-18T11:00:00,1606A,121.8297,41.1028,盘锦市,新生街道,,17,17,37,8,21,143,19,100,69,30,18,6,8,0.5,0.6
2023-10-18T11:00:00,1607A,120.9092,40.7136,葫芦岛市,龙港区,,24,24,53,9,32,150,27,138,66,31,16,16,18,0.5,0.7
2023-10-18T11:00:00,1608A,120.8392,40.7514,葫芦岛市,化工街,,29,29,69,9,29,127,22,100,52,40,21,21,11,0.5,0.8
2023-10-18T11:00:00,1609A,120.8341,40.7073,葫芦岛市,新区,,29,29,56,20,34,139,30,117,62,44,22,14,10,1.1,1
2023-10-18T11:00:00,1610A,120.8695,40.7677,葫芦岛市,东城区,,17,17,52,6,37,137,33,108,60,28,22,16,14,0.6,0.9
2023-10-18T11:00:00,1611A,118.5819,24.9117,泉州市,涂山街,颗粒物(PM10),54,58,50,24,27,186,124,137,115,15,12,4,4,0.7,0.7
2023-10-18T11:00:00,1612A,118.5972,24.8978,泉州市,津头埔,颗粒物(PM10),53,55,47,25,31,186,127,142,110,19,18,3,3,0.7,0.7
2023-10-18T11:00:00,1613A,118.6663,24.9424,泉州市,万安,,48,48,48,23,28,196,146,143,122,11,15,3,3,0.6,0.6
2023-10-18T11:00:00,1614A,118.6117,24.9604,泉州市,清源山,,,,,,,,,,,,,,,,
2023-10-18T11:00:00,1616A,117.6795,36.229,济南市,技术学院,颗粒物(PM10),74,97,90,50,39,183,163,151,140,26,30,16,17,0.8,0.7
2023-10-18T11:00:00,1618A,118.3429,35.0532,临沂市,沂河小区,细颗粒物(PM2.5),119,151,123,90,71,178,151,146,117,39,31,19,19,0.7,0.6
2023-10-18T11:00:00,1619A,118.295,35.0583,临沂市,鲁南制药厂,颗粒物(PM10),101,151,122,61,52,185,165,173,129,36,28,20,17,0.9,0.8
2023-10-18T11:00:00,1620A,118.2794,34.9976,临沂市,新光毛纺厂,细颗粒物(PM2.5),103,136,119,77,69,177,162,149,117,37,34,21,18,1.0,0.9
2023-10-18T11:00:00,1621A,118.3956,35.0888,临沂市,河东保险公司,细颗粒物(PM2.5),128,149,135,97,76,190,154,130,95,30,34,14,16,1.0,0.9
2023-10-18T11:00:00,1622A,116.3032,37.4674,德州市,儿童乐园,颗粒物(PM10),63,75,113,44,55,204,110,62,49,16,36,8,11,0.8,0.8
2023-10-18T11:00:00,1624A,116.2991,37.4451,德州市,监理站,颗粒物(PM10),67,84,115,46,57,194,106,72,51,12,30,10,13,0.7,0.7
2023-10-18T11:00:00,1625A,115.9848,36.4372,聊城市,区政府,细颗粒物(PM2.5),112,118,112,84,52,161,126,81,69,16,29,3,5,0.8,0.6
2023-10-18T11:00:00,1628A,118.0062,37.3803,滨州市,市环保局,细颗粒物(PM2.5),94,107,110,70,59,200,66,89,75,34,36,14,22,1.1,1.1
2023-10-18T11:00:00,1629A,118.0018,37.3617,滨州市,第二水厂,细颗粒物(PM2.5),98,95,110,73,56,220,76,88,79,30,38,12,20,0.8,0.8
2023-10-18T11:00:00,1630A,117.9776,37.393,滨州市,北中新校,细颗粒物(PM2.5),103,127,105,77,51,223,71,86,66,37,49,10,18,0.6,0.6
2023-10-18T11:00:00,1631A,118.0414,36.8103,淄博市,人民公园,颗粒物(PM10),78,105,87,46,41,190,128,150,146,37,28,14,10,0.8,0.7
2023-10-18T11:00:00,1633A,117.8525,36.4847,淄博市,双山,细颗粒物(PM2.5),77,89,82,56,41,175,156,152,152,20,22,9,8,0.7,0.7
2023-10-18T11:00:00,1634A,117.9592,36.6331,淄博市,气象站,,,,70,,37,173,153,159,159,,14,11,9,,0.4
2023-10-18T11:00:00,1635A,118.3092,36.8194,淄博市,莆田园,颗粒物(PM10),76,102,116,41,45,203,160,138,138,25,38,14,12,0.5,1.3
2023-10-18T11:00:00,1637A,117.558,34.8438,枣庄市,市中区政府,细颗粒物(PM2.5),119,139,124,90,70,187,160,163,114,42,40,12,14,0.8,0.7
2023-10-18T11:00:00,1638A,117.2852,34.7837,枣庄市,薛城环保局,细颗粒物(PM2.5),186,181,116,140,66,204,141,134,134,36,36,,9,1.0,0.7
2023-10-18T11:00:00,1639A,117.5852,34.7745,枣庄市,峄城区政府,细颗粒物(PM2.5),100,146,128,75,56,191,155,136,136,42,39,13,10,0.8,0.7
2023-10-18T11:00:00,1640A,117.7276,34.5578,枣庄市,台儿庄区环保局,细颗粒物(PM2.5),89,112,92,66,60,192,181,166,131,33,35,13,9,0.8,0.8
2023-10-18T11:00:00,1641A,117.4518,35.0992,枣庄市,山亭区环保局,细颗粒物(PM2.5),89,112,93,66,47,194,162,186,159,33,26,15,12,1.0,0.9
2023-10-18T11:00:00,1642A,121.2514,37.5639,烟台市,开发区,臭氧1小时,82,97,54,51,25,185,185,132,132,21,14,12,8,1.0,0.8
2023-10-18T11:00:00,1643A,121.3719,37.5433,烟台市,轴承厂,细颗粒物(PM2.5),84,107,53,62,28,172,172,123,123,20,13,8,6,0.6,0.3
2023-10-18T11:00:00,1644A,121.3181,37.5436,烟台市,西郊化工站,细颗粒物(PM2.5),83,107,53,61,25,179,179,137,137,23,13,10,6,0.6,0.4
2023-10-18T11:00:00,1645A,121.4478,37.4822,烟台市,莱山环保局,细颗粒物(PM2.5),59,66,46,42,21,146,142,121,121,15,11,8,7,0.7,0.6
2023-10-18T11:00:00,1646A,121.2611,37.4967,烟台市,福山环保局,细颗粒物(PM2.5),89,110,57,66,25,176,176,114,114,22,21,13,8,0.7,0.5
2023-10-18T11:00:00,1650A,119.1437,36.7023,潍坊市,环保局,细颗粒物(PM2.5),98,127,114,73,58,186,153,142,142,35,31,12,11,0.9,0.9
2023-10-18T11:00:00,1653A,116.6251,35.4302,济宁市,火炬城,细颗粒物(PM2.5),89,91,79,66,41,166,80,78,78,35,26,19,15,0.6,0.5
2023-10-18T11:00:00,1655A,116.5491,35.4042,济宁市,电化厂,细颗粒物(PM2.5),100,142,99,75,47,171,72,96,84,45,28,15,12,0.8,0.6
2023-10-18T11:00:00,1656A,117.1437,36.1937,泰安市,监测站,细颗粒物(PM2.5),88,112,97,65,51,205,127,130,120,32,27,18,15,0.9,0.8
2023-10-18T11:00:00,1657A,117.0885,36.2017,泰安市,人口学校,细颗粒物(PM2.5),83,100,87,61,46,204,126,141,121,32,27,15,13,0.8,0.7
2023-10-18T11:00:00,1658A,117.1089,36.1758,泰安市,电力学校,,,,96,,48,204,124,128,114,,28,20,16,,0.6
2023-10-18T11:00:00,1659A,119.471,35.4209,日照市,监测站,细颗粒物(PM2.5),92,107,71,68,44,164,164,60,60,31,42,18,13,1.5,1.3
2023-10-18T11:00:00,1660A,119.523,35.4216,日照市,市政府广场,臭氧1小时,83,110,85,50,43,186,186,117,117,37,36,16,11,1.5,1
2023-10-18T11:00:00,1661A,119.5587,35.4044,日照市,港务局,臭氧1小时,83,107,82,58,43,186,186,105,105,35,40,15,12,1.3,1.1
2023-10-18T11:00:00,1662A,122.1214,37.4236,威海市,华夏技校,颗粒物(PM10),53,56,33,34,14,136,136,122,122,16,16,3,3,0.6,0.4
2023-10-18T11:00:00,1663A,122.0508,37.5236,威海市,山大分校,颗粒物(PM10),61,71,40,27,11,132,132,127,122,18,9,5,5,0.6,0.4
2023-10-18T11:00:00,1664A,122.1067,37.5072,威海市,市监测站,颗粒物(PM10),59,68,42,37,21,140,138,134,133,12,11,8,8,0.8,0.6
2023-10-18T11:00:00,1666A,118.6614,37.4309,东营市,市环保局,细颗粒物(PM2.5),79,102,98,58,50,200,120,116,113,40,33,18,12,0.8,0.6
2023-10-18T11:00:00,1669A,113.5824,24.7733,韶关市,市八中,细颗粒物(PM2.5),64,60,50,46,35,139,79,62,53,18,20,27,19,0.7,0.7
2023-10-18T11:00:00,1671A,113.5917,24.7972,韶关市,园林处,细颗粒物(PM2.5),64,68,57,46,42,134,73,51,46,14,18,28,21,0.7,0.7
2023-10-18T11:00:00,1672A,113.6735,24.7791,韶关市,韶关学院,细颗粒物(PM2.5),63,64,64,45,53,133,66,21,21,18,23,32,16,0.7,0.7
2023-10-18T11:00:00,1673A,113.5971,24.6863,韶关市,曲江监测站,细颗粒物(PM2.5),57,55,54,40,41,156,66,91,69,24,22,26,16,0.7,0.7
2023-10-18T11:00:00,1674A,116.6794,23.3667,汕头市,金平子站,,46,46,49,24,30,185,134,135,123,15,16,8,7,0.7,0.8
2023-10-18T11:00:00,1675A,116.7244,23.3633,汕头市,龙湖子站,,46,46,48,24,27,180,131,134,123,14,15,7,7,0.7,0.7
2023-10-18T11:00:00,1676A,116.7258,23.2775,汕头市,濠江子站,,50,50,43,28,27,187,132,145,127,9,9,8,8,0.6,0.6
2023-10-18T11:00:00,1677A,116.7519,23.4714,汕头市,澄海子站,,41,28,52,28,33,180,130,138,114,13,16,12,12,0.6,0.6
2023-10-18T11:00:00,1678A,116.6092,23.2539,汕头市,潮阳子站,,46,46,47,21,24,184,134,148,130,8,8,9,9,0.6,0.6
2023-10-18T11:00:00,1680A,110.3539,21.2706,湛江市,湛江影剧院,颗粒物(PM10),52,53,52,26,29,184,99,162,108,18,15,6,9,0.7,0.7
2023-10-18T11:00:00,1681A,110.3928,21.2228,湛江市,市环境监测站,颗粒物(PM10),57,63,50,33,33,180,92,153,102,17,13,11,10,0.6,0.6
2023-10-18T11:00:00,1682A,110.4019,21.1997,湛江市,环保局宿舍,颗粒物(PM10),51,52,50,34,36,186,91,149,100,20,17,5,6,0.8,0.7
2023-10-18T11:00:00,1683A,110.4111,21.2028,湛江市,霞山游泳场,颗粒物(PM10),54,57,54,34,33,199,95,150,101,18,16,5,5,0.7,0.7
2023-10-18T11:00:00,1684A,110.3316,21.2679,湛江市,麻章区环保局,,,50,56,29,32,185,95,164,108,,16,,9,,0.7
2023-10-18T11:00:00,1685A,110.4558,21.2567,湛江市,坡头区环保局,,,45,50,41,38,190,98,160,103,,15,4,6,,0.7
2023-10-18T11:00:00,1686A,111.0286,21.4688,茂名市,电白南海,细颗粒物(PM2.5),55,53,62,39,36,184,99,142,99,16,15,10,10,0.7,0.7
2023-10-18T11:00:00,1687A,110.9294,21.6533,茂名市,茂石化七小,颗粒物(PM10),57,63,57,31,32,149,80,134,90,20,15,7,8,0.7,0.7
2023-10-18T11:00:00,1688A,110.9107,21.6687,茂名市,健康路,,41,41,51,19,30,157,93,148,97,16,14,11,13,0.7,0.7
2023-10-18T11:00:00,1689A,110.8592,21.6828,茂名市,高岭,,,53,68,39,37,152,86,152,99,,17,,17,0.8,0.6
2023-10-18T11:00:00,1690A,116.1231,24.3284,梅州市,梅江月梅,细颗粒物(PM2.5),55,55,54,39,41,156,124,97,97,13,24,10,8,0.7,0.7
2023-10-18T11:00:00,1691A,116.0797,24.2719,梅州市,梅县新城,颗粒物(PM10),55,59,56,32,41,146,128,80,80,12,26,10,9,0.7,0.8
2023-10-18T11:00:00,1692A,116.1248,24.2654,梅州市,环境监控中心,颗粒物(PM10),56,62,52,39,33,133,116,81,81,15,23,10,12,0.8,0.8
2023-10-18T11:00:00,1693A,115.3653,22.775,汕尾市,市环保局,,42,42,44,27,28,127,119,126,114,12,11,11,12,0.6,0.6
2023-10-18T11:00:00,1694A,115.3706,22.7898,汕尾市,市政府,颗粒物(PM10),52,53,43,33,28,131,122,130,115,14,12,8,8,0.5,0.4
2023-10-18T11:00:00,1695A,115.3622,22.7925,汕尾市,新城中学,,49,49,49,30,28,124,120,122,112,9,10,10,10,0.7,0.7
2023-10-18T11:00:00,1696A,114.6778,23.7569,河源市,源西,,46,46,37,26,30,127,71,42,34,20,19,7,5,0.8,0.7
2023-10-18T11:00:00,1697A,114.6944,23.7586,河源市,东埔,颗粒物(PM10),54,57,46,26,32,126,77,58,38,15,15,8,6,0.8,0.9
2023-10-18T11:00:00,1698A,114.6892,23.7233,河源市,老城,,46,39,36,32,30,124,82,53,40,10,10,8,5,0.8,0.7
2023-10-18T11:00:00,1699A,111.9797,21.8593,阳江市,鸳鸯湖,细颗粒物(PM2.5),58,55,55,41,40,203,68,90,59,28,22,12,13,0.9,0.8
2023-10-18T11:00:00,1701A,111.9491,21.8658,阳江市,马南垌,,,54,63,45,37,206,72,94,61,,23,8,10,0.7,0.7
2023-10-18T11:00:00,1702A,113.0426,23.691,清远市,环保大楼,,40,27,38,28,37,148,87,88,76,3,6,8,10,0.9,0.9
2023-10-18T11:00:00,1703A,113.0208,23.7106,清远市,凤城街办,,32,25,44,13,32,151,101,84,84,9,12,8,10,0.7,0.7
2023-10-18T11:00:00,1705A,116.6367,23.6719,潮州市,西园路,,,58,60,16,33,166,106,134,73,15,17,,5,0.2,0.3
2023-10-18T11:00:00,1706A,116.6447,23.6706,潮州市,档案局,颗粒物(PM10),59,67,59,36,37,175,125,140,80,20,16,6,7,0.6,0.6
2023-10-18T11:00:00,1708A,116.3701,23.5345,揭阳市,新兴,颗粒物(PM10),57,64,75,36,55,138,138,119,107,13,24,11,14,0.6,0.8
2023-10-18T11:00:00,1709A,116.3264,23.5443,揭阳市,西马,,,72,86,36,57,134,,50,50,,37,,10,,0.9
2023-10-18T11:00:00,1710A,116.3611,23.5626,揭阳市,东兴,颗粒物(PM10),66,81,97,39,60,141,141,107,107,16,27,12,14,0.8,0.9
2023-10-18T11:00:00,1711A,116.4151,23.5294,揭阳市,渔湖,细颗粒物(PM2.5),55,58,92,39,51,145,127,125,97,21,33,9,13,0.5,0.7
2023-10-18T11:00:00,1712A,112.0392,22.9169,云浮市,新市府,,40,40,47,27,32,182,52,63,49,23,19,10,10,0.8,0.8
2023-10-18T11:00:00,1714A,112.0539,22.9539,云浮市,牧羊,,40,40,50,27,34,173,57,65,38,31,31,9,12,0.5,0.5
2023-10-18T11:00:00,1715A,102.575,24.3711,玉溪市,东风水库,,36,36,21,17,14,75,40,15,15,11,14,7,6,1.0,0.9
2023-10-18T11:00:00,1718A,115.4208,35.2464,菏泽市,气象局,颗粒物(PM10),84,118,109,51,50,174,107,88,62,29,36,9,7,0.6,0.4
2023-10-18T11:00:00,1719A,115.4747,35.2375,菏泽市,市政协,颗粒物(PM10),82,114,97,57,49,173,104,104,66,28,31,10,8,0.5,0.3
2023-10-18T11:00:00,1721A,113.3819,40.1097,大同市,果树场,,,,,,,,,,,,,,,,
2023-10-18T11:00:00,1723A,113.2994,40.0758,大同市,云冈宾馆,,26,26,48,14,22,118,54,83,42,18,29,13,12,0.6,0.7
2023-10-18T11:00:00,1724A,113.3444,40.0917,大同市,大同大学,,42,42,45,11,21,110,45,76,41,23,25,14,12,1.0,0.7
2023-10-18T11:00:00,1725A,113.2661,40.1269,大同市,安家小村,,38,38,44,14,17,124,50,81,40,20,22,19,15,0.7,0.4
2023-10-18T11:00:00,1726A,113.2711,40.0844,大同市,教育学院,,38,38,54,8,21,141,57,85,37,16,31,11,11,0.4,0.5
2023-10-18T11:00:00,1727A,113.1147,36.1547,长治市,清华站,,40,40,54,22,41,139,83,100,62,16,17,11,9,0.8,0.7
2023-10-18T11:00:00,1728A,113.1031,36.1989,长治市,监测站,,31,31,52,14,44,141,84,100,62,18,21,11,8,0.9,0.9
2023-10-18T11:00:00,1730A,113.0886,36.2125,长治市,审计局,,,26,60,,46,128,80,80,80,15,19,14,12,0.8,0.7
2023-10-18T11:00:00,1731A,113.0844,36.1856,长治市,长治八中,,38,38,60,23,36,143,81,100,62,16,18,16,14,0.7,0.7
2023-10-18T11:00:00,1733A,111.5531,36.0783,临汾市,临钢医院,颗粒物(PM10),59,67,103,30,67,150,51,50,23,19,29,11,10,1.1,1.4
2023-10-18T11:00:00,1734A,111.5028,36.0714,临汾市,技工学校,,47,47,91,31,74,158,51,55,27,21,30,9,10,0.7,1
2023-10-18T11:00:00,1736A,111.5018,36.0855,临汾市,市委,细颗粒物(PM2.5),59,66,107,42,81,157,53,58,29,22,30,11,11,0.8,1.1
2023-10-18T11:00:00,1738A,113.5758,37.8572,阳泉市,市中心,,,27,58,18,43,155,,43,41,24,35,,8,0.6,0.9
2023-10-18T11:00:00,1739A,113.4894,37.8731,阳泉市,赛鱼,,32,32,69,18,50,149,63,43,40,27,39,8,9,0.5,0.9
2023-10-18T11:00:00,1740A,113.5819,37.8486,阳泉市,南庄,,36,36,78,24,43,158,74,60,60,23,28,9,9,0.5,0.9
2023-10-18T11:00:00,1742A,113.5614,37.8703,阳泉市,平坦,,,37,69,8,45,148,,50,40,26,35,,7,0.7,1
2023-10-18T11:00:00,1743A,113.5158,37.8392,阳泉市,大阳泉,,28,11,56,19,44,159,60,69,60,29,29,7,7,0.5,0.8
2023-10-18T11:00:00,1744A,118.9233,42.2816,赤峰市,松山一中,,26,26,37,6,14,133,61,63,46,17,25,11,13,0.5,0.6
2023-10-18T11:00:00,1745A,118.9576,42.2728,赤峰市,哈达街,,,,42,,18,131,,67,46,16,26,14,19,0.5,0.6
2023-10-18T11:00:00,1746A,118.8788,42.2554,赤峰市,天义路,,25,25,33,12,15,142,67,78,52,12,17,12,12,0.4,0.5
2023-10-18T11:00:00,1748A,123.044,41.1196,鞍山市,深沟寺,,41,41,58,18,40,156,34,146,85,22,17,4,6,0.7,0.8
2023-10-18T11:00:00,1749A,123.011,41.0931,鞍山市,太阳城,,29,29,69,13,36,158,26,148,75,26,21,9,10,1.1,1
2023-10-18T11:00:00,1750A,123.0485,41.1442,鞍山市,太平,,24,24,81,12,37,161,25,152,78,38,28,11,11,0.7,0.9
2023-10-18T11:00:00,1751A,122.9642,41.0971,鞍山市,铁西三道街,,,22,89,6,42,153,22,144,75,36,27,9,8,,0.9
2023-10-18T11:00:00,1752A,122.9341,41.0833,鞍山市,铁西工业园区,,41,41,83,18,42,133,18,120,66,35,23,14,10,1.8,1.2
2023-10-18T11:00:00,1753A,123.022,41.0821,鞍山市,明达新区,,42,42,60,18,34,152,33,144,79,24,18,7,8,1.0,1.1
2023-10-18T11:00:00,1754A,123.1289,41.0228,鞍山市,千山,,,,,,,,,,,,,,,,
2023-10-18T11:00:00,1755A,123.7977,41.8491,抚顺市,望花区,颗粒物(PM10),51,51,60,12,31,107,36,87,75,14,29,10,24,0.4,1
2023-10-18T11:00:00,1756A,123.9161,41.8822,抚顺市,顺城区,,,37,66,13,45,108,,43,43,,40,6,9,0.6,1
2023-10-18T11:00:00,1757A,124.0436,41.8611,抚顺市,东洲区,,50,50,60,17,34,112,44,99,76,13,20,7,14,0.5,0.7
2023-10-18T11:00:00,1758A,123.9247,41.8642,抚顺市,新抚区,,38,38,47,13,35,107,32,56,53,19,27,7,9,0.4,0.9
2023-10-18T11:00:00,1759A,124.0972,41.8961,抚顺市,大伙房水库,,38,38,46,13,30,120,41,107,86,10,14,7,11,0.6,0.8
2023-10-18T11:00:00,1760A,123.7086,41.8391,抚顺市,沈抚新城,颗粒物(PM10),52,54,58,20,35,117,27,87,71,24,28,8,13,0.4,0.7
2023-10-18T11:00:00,1761A,123.8275,41.3064,本溪市,大峪,,46,46,46,26,23,117,39,108,76,59,22,7,9,1.3,0.7
2023-10-18T11:00:00,1762A,123.7567,41.3325,本溪市,溪湖,颗粒物(PM10),58,65,65,31,31,110,68,99,64,22,26,12,17,0.9,1.1
2023-10-18T11:00:00,1763A,123.7169,41.3094,本溪市,彩屯,"颗粒物(PM10),细颗粒物(PM2.5)",52,54,89,36,52,114,60,53,53,23,49,10,38,0.9,2.8
2023-10-18T11:00:00,1764A,123.7669,41.2864,本溪市,东明,,,26,41,27,23,113,38,110,89,48,20,12,11,,0.8
2023-10-18T11:00:00,1765A,123.7992,41.2664,本溪市,新立屯,,,23,35,17,17,99,56,98,76,,20,11,11,1.2,0.9
2023-10-18T11:00:00,1766A,123.8142,41.3472,本溪市,威宁,细颗粒物(PM2.5),68,70,65,49,37,97,41,86,52,43,31,6,7,1.6,1
2023-10-18T11:00:00,1767A,121.1115,41.0879,锦州市,南山,,19,19,49,4,40,128,49,91,57,19,21,8,12,0.5,0.8
2023-10-18T11:00:00,1768A,121.0533,40.8434,锦州市,开发区,,35,28,71,24,49,143,12,124,43,45,32,11,20,1.0,0.9
2023-10-18T11:00:00,1769A,121.1836,41.1119,锦州市,百股街道,,19,19,47,7,28,130,41,109,50,21,22,10,13,0.5,0.8
2023-10-18T11:00:00,1770A,121.1178,41.1222,锦州市,天安街道,,16,15,61,9,37,122,51,88,51,20,24,9,13,0.5,0.9
2023-10-18T11:00:00,1771A,121.1303,41.1386,锦州市,北湖公园,,,50,55,6,38,124,,88,56,13,20,9,14,0.4,0.8
2023-10-18T11:00:00,1772A,126.54,43.8622,吉林市,哈达湾,,,43,31,32,17,99,39,86,79,,21,6,7,0.7,0.6
2023-10-18T11:00:00,1773A,126.5844,43.8358,吉林市,东局子,颗粒物(PM10),57,63,38,34,17,92,42,78,76,32,23,5,6,0.8,0.5
2023-10-18T11:00:00,1774A,126.5052,43.8245,吉林市,电力学院,颗粒物(PM10),51,52,49,30,25,91,47,78,77,17,30,9,10,0.7,0.7
2023-10-18T11:00:00,1775A,126.6133,43.8972,吉林市,江北,颗粒物(PM10),79,107,54,55,24,84,28,70,68,39,27,9,9,1.3,0.8
2023-10-18T11:00:00,1776A,126.555,43.8306,吉林市,江南公园,细颗粒物(PM2.5),54,56,35,38,20,95,43,85,81,24,20,7,8,0.8,0.6
2023-10-18T11:00:00,1778A,126.7061,43.7133,吉林市,丰满,,,,,,,,,,,,,,,,
2023-10-18T11:00:00,1779A,123.9305,47.3636,齐齐哈尔市,安居小区,,23,23,49,11,17,62,57,47,47,5,18,5,6,0.2,0.4
2023-10-18T11:00:00,1780A,123.9488,47.3386,齐齐哈尔市,中心广场,,17,12,23,6,14,60,52,50,45,7,17,2,3,0.4,0.5
2023-10-18T11:00:00,1781A,123.9483,47.3227,齐齐哈尔市,农牧车辆厂,,29,29,52,2,9,65,51,50,40,12,16,7,9,0.3,0.4
2023-10-18T11:00:00,1783A,123.945,47.2988,齐齐哈尔市,市环境监测站,,,21,47,38,14,67,54,53,39,,12,,5,0.2,0.3
2023-10-18T11:00:00,1784A,129.61,44.561,牡丹江市,环保大楼,颗粒物(PM10),67,84,44,20,19,73,33,14,14,37,35,10,7,0.7,0.6
2023-10-18T11:00:00,1785A,129.6115,44.5782,牡丹江市,文化广场,颗粒物(PM10),71,92,59,46,32,69,20,8,8,47,38,17,9,0.6,0.7
2023-10-18T11:00:00,1786A,129.5904,44.5963,牡丹江市,第一医院,,49,49,54,20,29,68,35,10,10,31,36,10,9,0.5,0.7
2023-10-18T11:00:00,1787A,129.6364,44.6075,牡丹江市,机车工厂,颗粒物(PM10),120,189,84,16,20,69,31,11,11,34,30,9,7,0.7,0.7
2023-10-18T11:00:00,1788A,129.6386,44.5462,牡丹江市,第一中学,颗粒物(PM10),53,56,38,18,16,74,45,13,13,30,30,9,7,0.5,0.4
2023-10-18T11:00:00,1789A,124.81117,46.03138,大庆市,大同区,,,,62,,15,72,,54,41,,15,,6,,0.5
2023-10-18T11:00:00,1790A,125.129,46.533,大庆市,龙凤区,,16,11,25,6,12,64,50,42,39,10,16,7,12,0.4,0.6
2023-10-18T11:00:00,1791A,124.902,46.408,大庆市,红岗区,,17,17,39,6,12,67,52,51,41,7,14,4,5,0.2,0.4
2023-10-18T11:00:00,1792A,125.153,46.586,大庆市,萨尔图区,,26,26,53,3,11,66,46,46,39,12,17,4,6,0.3,0.3
2023-10-18T11:00:00,1793A,124.9042,46.6215,大庆市,让胡路区,,19,19,43,9,10,70,49,49,40,8,16,1,3,0.3,0.4
2023-10-18T11:00:00,1794A,118.3606,31.3519,芜湖市,监测站,颗粒物(PM10),59,67,78,32,53,178,115,150,102,24,24,10,11,0.6,0.6
2023-10-18T11:00:00,1795A,118.3714,31.4134,芜湖市,科创中心,颗粒物(PM10),64,77,78,37,56,183,116,119,94,38,46,8,10,0.8,0.7
2023-10-18T11:00:00,1796A,118.3673,31.3131,芜湖市,四水厂,颗粒物(PM10),61,72,82,30,48,179,120,147,100,24,24,8,10,0.6,0.6
2023-10-18T11:00:00,1798A,118.5092,31.6837,马鞍山市,湖东路四小,细颗粒物(PM2.5),57,53,64,40,53,188,152,159,133,21,22,10,11,0.7,0.7
2023-10-18T11:00:00,1799A,118.5024,31.6449,马鞍山市,开发区,细颗粒物(PM2.5),82,77,82,60,63,185,151,146,112,18,32,12,13,0.7,0.7
2023-10-18T11:00:00,1800A,118.5228,31.7231,马鞍山市,慈湖,细颗粒物(PM2.5),70,60,75,51,59,181,149,165,135,35,28,10,14,1.1,0.7
2023-10-18T11:00:00,1802A,118.6245,31.7241,马鞍山市,濮塘,,,,,,,,,,,,,,,,
2023-10-18T11:00:00,1803A,115.9872,29.6815,九江市,十里,"颗粒物(PM10),细颗粒物(PM2.5)",62,73,57,44,38,169,129,50,50,30,41,9,7,0.8,0.8
2023-10-18T11:00:00,1804A,115.9584,29.7046,九江市,茅山头,细颗粒物(PM2.5),75,62,55,55,47,161,128,56,56,24,41,16,10,0.9,0.8
2023-10-18T11:00:00,1805A,115.9877,29.7295,九江市,西园,细颗粒物(PM2.5),68,78,65,49,40,153,95,30,30,44,50,12,10,0.8,0.8
2023-10-18T11:00:00,1806A,116.0172,29.6547,九江市,五七二七厂,颗粒物(PM10),55,60,38,36,28,174,128,98,87,29,17,13,11,0.7,0.5
2023-10-18T11:00:00,1808A,115.9114,29.6038,九江市,综合工业园,细颗粒物(PM2.5),62,68,64,44,43,182,102,91,74,33,38,17,14,0.8,0.8
2023-10-18T11:00:00,1809A,116.0721,29.7535,九江市,石化总厂,细颗粒物(PM2.5),59,63,75,42,48,154,128,85,72,29,28,18,12,0.7,0.7
2023-10-18T11:00:00,1810A,115.9773,29.5698,九江市,庐山气象台,,40,25,34,18,25,162,128,151,128,4,5,7,7,0.8,0.6
2023-10-18T11:00:00,1812A,112.3931,34.6516,洛阳市,市委党校,细颗粒物(PM2.5),59,50,136,42,119,155,53,70,43,19,29,9,7,0.6,0.8
2023-10-18T11:00:00,1814A,112.4657,34.6871,洛阳市,豫西宾馆,,,,150,,103,160,53,46,35,16,30,2,5,,0.7
2023-10-18T11:00:00,1815A,112.494,34.6886,洛阳市,河南林校,,50,47,138,35,103,158,53,44,36,16,31,3,4,0.6,0.8
2023-10-18T11:00:00,1816A,112.3844,34.623,洛阳市,开发区管委会,,48,41,133,33,104,166,63,56,45,15,26,3,4,0.6,0.8
2023-10-18T11:00:00,1817A,112.4267,34.6258,洛阳市,市委新办公区,,50,49,146,35,118,150,62,54,46,16,27,8,5,0.6,0.8
2023-10-18T11:00:00,1818A,114.4839,36.0621,安阳市,棉研所,,,,,,,,,,,,,,,,
2023-10-18T11:00:00,1819A,114.3551,36.1017,安阳市,红庙街,细颗粒物(PM2.5),74,74,113,54,71,181,113,75,75,21,35,9,11,1.1,1
2023-10-18T11:00:00,1820A,114.361,36.0681,安阳市,银杏小区,细颗粒物(PM2.5),57,49,107,40,57,176,113,77,77,12,33,9,10,1.1,0.9
2023-10-18T11:00:00,1824A,114.3389,34.7781,开封市,肿瘤医院,细颗粒物(PM2.5),88,81,129,65,59,161,85,46,46,16,33,10,8,1.0,0.7
2023-10-18T11:00:00,1826A,114.2885,34.7965,开封市,世纪星幼儿园,细颗粒物(PM2.5),82,90,112,60,47,159,76,45,44,28,42,8,7,1.1,0.8
2023-10-18T11:00:00,1828A,113.227,35.2125,焦作市,市环保局,,,,121,46,81,187,,44,36,24,26,9,9,1.0,0.9
2023-10-18T11:00:00,1830A,113.1992,35.2590,焦作市,影视城,,,,,,,,,,,,,,,,
2023-10-18T11:00:00,1832A,113.3257,33.742,平顶山市,新华旅馆,颗粒物(PM10),55,59,110,33,62,160,67,67,67,17,41,7,9,0.6,0.8
2023-10-18T11:00:00,1833A,113.2919,33.737,平顶山市,规划设计院,颗粒物(PM10),53,56,116,32,80,158,64,61,61,13,41,9,11,0.5,0.8
2023-10-18T11:00:00,1834A,113.182,33.774,平顶山市,平顶山工学院,,,,134,,79,163,66,59,59,18,31,,15,,0.9
2023-10-18T11:00:00,1835A,111.1922,34.7752,三门峡市,市政府,,,,87,,48,123,,35,28,19,32,11,9,0.7,0.9
2023-10-18T11:00:00,1836A,111.1587,34.7942,三门峡市,开发区,细颗粒物(PM2.5),63,40,134,45,87,128,49,44,35,23,27,12,8,0.6,0.8
2023-10-18T11:00:00,1838A,111.143,34.7955,三门峡市,风景区,,,,,,,,,,,,,,,,
2023-10-18T11:00:00,1840A,111.2992,30.6981,宜昌市,白龙岗,细颗粒物(PM2.5),64,61,62,46,45,167,93,60,58,28,31,8,9,0.6,0.6
2023-10-18T11:00:00,1841A,111.3549,30.6465,宜昌市,伍家岗,细颗粒物(PM2.5),67,62,63,48,49,173,98,57,43,31,39,7,8,0.7,0.7
2023-10-18T11:00:00,1842A,111.2628,30.6961,宜昌市,点军区,细颗粒物(PM2.5),62,59,77,44,55,183,82,39,39,32,27,9,9,0.6,0.7
2023-10-18T11:00:00,1843A,111.3275,30.7819,宜昌市,夷陵区,细颗粒物(PM2.5),73,71,71,53,47,175,87,55,42,24,28,8,8,0.5,0.6
2023-10-18T11:00:00,1844A,112.2494,30.3197,荆州市,市图书馆,细颗粒物(PM2.5),128,133,94,97,64,184,136,94,47,33,40,14,12,1.0,0.8
2023-10-18T11:00:00,1845A,112.2008,30.3544,荆州市,市委党校,细颗粒物(PM2.5),130,144,90,99,61,186,123,96,37,56,46,14,11,1.1,0.9
2023-10-18T11:00:00,1847A,113.1094,29.3578,岳阳市,南湖风景区,,49,49,54,30,39,184,109,66,66,25,38,13,13,0.7,0.8
2023-10-18T11:00:00,1848A,113.1493,29.4251,岳阳市,城陵矶,颗粒物(PM10),57,64,71,29,38,183,112,58,58,18,51,10,11,0.8,0.8
2023-10-18T11:00:00,1849A,113.1497,29.3575,岳阳市,开发区,,50,44,53,35,40,177,111,66,66,17,35,14,11,0.6,0.7
2023-10-18T11:00:00,1850A,113.2621,29.4758,岳阳市,云溪区,,,55,56,31,41,202,,60,37,,28,,10,,0.6
2023-10-18T11:00:00,1851A,112.9943,29.4402,岳阳市,君山区,颗粒物(PM10),51,51,70,32,49,168,125,64,53,21,41,9,9,0.6,0.6
2023-10-18T11:00:00,1852A,113.2117,29.355,岳阳市,金凤水库,颗粒物(PM10),52,54,45,32,29,210,114,86,65,15,19,6,6,0.6,0.6
2023-10-18T11:00:00,1854A,111.6975,28.9703,常德市,市二中,,,,82,,58,157,116,69,31,19,26,,11,,0.7
2023-10-18T11:00:00,1857A,111.7158,29.1456,常德市,白鹤山,颗粒物(PM10),62,73,48,7,4,167,133,133,99,15,10,11,8,0.7,0.5
2023-10-18T11:00:00,1858A,110.5319,29.1217,张家界市,永定新区,细颗粒物(PM2.5),68,75,55,49,37,144,51,64,39,34,23,7,7,0.6,0.6
2023-10-18T11:00:00,1859A,110.4697,29.1242,张家界市,电业局,细颗粒物(PM2.5),58,53,54,41,37,158,69,56,38,32,25,9,9,0.6,0.6
2023-10-18T11:00:00,1860A,110.5594,29.3547,张家界市,未央路,颗粒物(PM10),53,55,46,30,31,152,110,52,52,14,14,4,4,0.6,0.6
2023-10-18T11:00:00,1861A,110.4417,29.315,张家界市,袁家界,颗粒物(PM10),58,65,42,34,27,150,117,117,101,13,13,10,9,0.7,0.7
2023-10-18T11:00:00,1862A,110.4144,25.3167,桂林市,电子科大尧山校区,,44,44,38,30,29,124,109,49,49,5,7,3,3,0.5,0.5
2023-10-18T11:00:00,1863A,110.2819,25.2697,桂林市,监测站,细颗粒物(PM2.5),68,69,65,49,39,155,114,54,54,20,30,8,8,0.9,0.9
2023-10-18T11:00:00,1864A,110.3089,25.2708,桂林市,龙隐路小学,"颗粒物(PM10),细颗粒物(PM2.5)",57,64,51,40,37,152,120,60,60,13,21,9,9,0.7,0.7
2023-10-18T11:00:00,1865A,110.2869,25.2178,桂林市,八中,颗粒物(PM10),59,67,55,36,39,147,114,42,42,17,23,7,6,0.8,0.7
2023-10-18T11:00:00,1866A,109.2262,21.588,北海市,牛尾岭水库,,,,,,,,,,,,,,,,
2023-10-18T11:00:00,1867A,109.1436,21.4086,北海市,海滩公园,,,58,56,34,34,178,109,105,103,,12,9,11,0.7,0.8
2023-10-18T11:00:00,1868A,109.0981,21.4661,北海市,新市环保局,"颗粒物(PM10),细颗粒物(PM2.5)",52,54,52,36,38,164,112,113,105,15,14,11,12,0.7,0.7
2023-10-18T11:00:00,1869A,109.1778,21.5233,北海市,北海工业园,颗粒物(PM10),58,65,61,32,42,148,101,94,90,12,14,14,15,0.6,0.7
2023-10-18T11:00:00,1870A,109.4856,24.3895,柳州市,柳东小学,细颗粒物(PM2.5),58,48,51,41,42,153,89,60,60,11,17,9,12,0.6,0.6
2023-10-18T11:00:00,1871A,109.4157,24.3277,柳州市,环保监测站,"颗粒物(PM10),细颗粒物(PM2.5)",58,66,76,41,48,142,100,46,46,14,32,14,11,0.8,0.9
2023-10-18T11:00:00,1872A,109.389,24.341,柳州市,河西水厂,颗粒物(PM10),70,89,92,46,47,148,93,57,46,20,31,19,15,1.2,1.4
2023-10-18T11:00:00,1873A,109.4311,24.2921,柳州市,市四中,颗粒物(PM10),58,65,67,40,40,160,104,48,48,20,29,13,9,0.9,1
2023-10-18T11:00:00,1874A,109.4006,24.3631,柳州市,市九中,细颗粒物(PM2.5),82,75,86,60,50,138,103,45,45,20,36,20,11,0.9,1
2023-10-18T11:00:00,1875A,109.4958,24.3134,柳州市,古亭山,细颗粒物(PM2.5),88,96,54,65,36,167,95,35,35,17,37,8,14,0.7,0.7
2023-10-18T11:00:00,1876A,109.5078,18.2489,三亚市,河东子站,,20,5,7,1,2,95,63,60,60,4,4,3,4,0.4,0.4
2023-10-18T11:00:00,1877A,109.4964,18.2681,三亚市,河西子站,,18,6,8,3,2,86,56,51,51,4,3,4,4,0.3,0.3
2023-10-18T11:00:00,1878A,104.7778,31.4741,绵阳市,富乐山,,18,17,34,12,23,106,48,49,49,10,16,4,4,0.6,0.6
2023-10-18T11:00:00,1879A,104.7563,31.4535,绵阳市,市人大,,18,18,38,10,24,80,36,42,42,20,26,8,8,0.6,0.6
2023-10-18T11:00:00,1880A,104.6697,31.4668,绵阳市,高新区自来水公司,,13,12,31,7,20,72,41,38,38,18,28,6,7,0.7,0.8
2023-10-18T11:00:00,1881A,104.7287,31.5075,绵阳市,三水厂,,25,21,45,17,34,64,46,39,39,13,32,7,8,0.4,0.6
2023-10-18T11:00:00,1882A,104.563,28.793,宜宾市,石马中学,,,,,,,,,,,,,,,,
2023-10-18T11:00:00,1883A,104.6201,28.7728,宜宾市,市委,,,,59,,47,113,,80,46,24,19,,6,0.8,0.8
2023-10-18T11:00:00,1884A,104.6055,28.793,宜宾市,宜宾四中,细颗粒物(PM2.5),73,67,63,53,49,112,22,65,44,33,20,3,4,0.8,0.7
2023-10-18T11:00:00,1885A,104.639,28.7562,宜宾市,市政府,细颗粒物(PM2.5),67,55,61,48,48,114,37,82,54,22,17,6,7,0.9,0.8
2023-10-18T11:00:00,1886A,104.5742,28.7199,宜宾市,黄金嘴,细颗粒物(PM2.5),60,50,56,43,42,111,39,66,49,14,11,8,8,0.7,0.7
2023-10-18T11:00:00,1888A,101.6891,26.571,攀枝花市,弄弄坪,,,75,42,37,22,103,10,25,10,,24,26,13,,0.9
2023-10-18T11:00:00,1889A,101.5769,26.5928,攀枝花市,河门口,,48,48,36,25,22,126,43,21,21,24,22,12,19,1.1,1.1
2023-10-18T11:00:00,1890A,101.7169,26.585,攀枝花市,炳草岗,,,,41,,26,109,,8,8,49,34,,20,2.7,1.2
2023-10-18T11:00:00,1891A,101.7369,26.5008,攀枝花市,仁和,颗粒物(PM10),54,58,29,34,18,94,59,31,24,42,21,69,15,3.7,0.7
2023-10-18T11:00:00,1893A,105.4324,28.9634,泸州市,九狮山,颗粒物(PM10),51,51,61,33,42,95,49,45,42,18,18,5,5,0.5,0.5
2023-10-18T11:00:00,1894A,105.4427,28.9063,泸州市,小市上码头,,,72,84,50,58,124,57,65,57,,14,6,6,0.8,0.8
2023-10-18T11:00:00,1895A,105.4241,28.8573,泸州市,兰田宪桥,细颗粒物(PM2.5),65,62,78,47,60,122,52,68,51,17,9,5,5,0.6,0.6
2023-10-18T11:00:00,1896A,105.4379,28.8833,泸州市,市环监站,细颗粒物(PM2.5),58,60,73,41,51,104,41,61,46,24,15,3,4,0.8,0.7
2023-10-18T11:00:00,1901A,104.4239,31.1208,德阳市,东山公园,,26,26,46,15,21,91,58,51,51,7,18,3,2,0.4,0.5
2023-10-18T11:00:00,1902A,104.3826,31.1317,德阳市,西小区,,31,31,45,13,24,90,52,47,47,10,16,1,3,0.5,0.5
2023-10-18T11:00:00,1904A,104.3553,31.1091,德阳市,耐火材料厂,,27,27,49,14,25,88,53,45,45,10,16,3,3,0.5,0.5
2023-10-18T11:00:00,1905A,106.056,30.8064,南充市,西山风景区,,33,23,41,23,38,129,37,52,40,6,7,4,6,0.4,0.6
2023-10-18T11:00:00,1906A,106.0789,30.8023,南充市,南充市委,,,66,62,22,50,118,30,40,31,,26,4,6,0.5,0.6
2023-10-18T11:00:00,1907A,106.1031,30.8217,南充市,南充炼油厂,颗粒物(PM10),51,52,82,25,38,129,28,44,32,17,20,4,6,0.5,0.6
2023-10-18T11:00:00,1908A,106.1064,30.7856,南充市,高坪区监测站,,38,38,55,24,42,115,30,45,34,19,21,5,6,0.3,0.3
2023-10-18T11:00:00,1909A,106.0642,30.7636,南充市,嘉陵区环保局,,42,34,53,29,42,122,28,46,32,18,23,3,6,0.5,0.6
2023-10-18T11:00:00,1910A,106.1087,30.8388,南充市,市环境监测站,,,39,62,25,41,121,29,45,33,20,20,5,7,,0.5
2023-10-18T11:00:00,1911A,106.9222,27.6869,遵义市,丁字口,,43,40,33,30,25,123,94,59,59,18,29,9,8,0.6,0.6
2023-10-18T11:00:00,1912A,106.9242,27.7019,遵义市,凤凰山,,,,31,,24,133,,103,95,,8,,10,0.7,0.5
2023-10-18T11:00:00,1913A,106.8906,27.6486,遵义市,忠庄,,44,44,36,26,25,123,92,83,74,17,12,5,4,0.4,0.4
2023-10-18T11:00:00,1914A,106.9231,27.6506,遵义市,舟水桥,,39,39,36,14,23,129,100,42,42,11,19,6,4,0.5,0.5
2023-10-18T11:00:00,1915A,106.9178,27.72,遵义市,干田坝,,34,30,30,23,23,128,107,82,62,12,17,10,8,0.6,0.5
2023-10-18T11:00:00,1916A,103.7897,25.5035,曲靖市,环境监测站,,26,10,23,18,14,114,55,35,29,7,15,2,2,0.5,0.6
2023-10-18T11:00:00,1917A,103.8,25.5364,曲靖市,烟厂办公区,,22,22,25,11,13,111,53,32,32,7,16,4,5,0.6,0.6
2023-10-18T11:00:00,1918A,108.7197,34.3956,咸阳市,气象站,,,,,,,,,,,,,,,,
2023-10-18T11:00:00,1919A,108.673,34.3155,咸阳市,实验中学,颗粒物(PM10),60,70,76,31,33,51,6,28,2,43,42,3,3,0.7,0.7
2023-10-18T11:00:00,1920A,108.7233,34.3617,咸阳市,师范学院,颗粒物(PM10),60,70,66,36,29,68,18,28,17,40,35,4,4,0.7,0.6
2023-10-18T11:00:00,1922A,109.0656,35.0994,铜川市,党校,,30,30,33,15,21,88,12,9,9,19,25,7,8,0.6,0.7
2023-10-18T11:00:00,1923A,109.0697,35.0697,铜川市,王益区政府,颗粒物(PM10),51,52,40,19,26,92,11,12,12,31,28,4,3,0.9,0.6
2023-10-18T11:00:00,1924A,108.9344,34.9058,铜川市,新区管委会,颗粒物(PM10),54,58,50,24,32,77,10,44,33,46,25,6,5,0.8,0.6
2023-10-18T11:00:00,1926A,109.4131,36.6275,延安市,枣园,,30,30,33,10,21,12,6,5,5,22,36,7,7,0.4,0.5
2023-10-18T11:00:00,1927A,109.4761,36.6028,延安市,延大医附院,,37,37,35,18,20,22,7,6,6,25,37,6,5,0.8,0.8
2023-10-18T11:00:00,1929A,109.5056,36.6106,延安市,百米大道,,36,36,42,24,24,17,9,10,10,30,44,2,2,0.7,0.7
2023-10-18T11:00:00,1930A,107.185,34.3063,宝鸡市,庙沟村,,29,29,34,15,19,82,60,52,46,6,13,8,9,0.3,0.4
2023-10-18T11:00:00,1931A,107.0708,34.3017,宝鸡市,竹园沟,,26,26,27,17,19,86,48,32,32,12,15,6,6,0.4,0.4
2023-10-18T11:00:00,1932A,107.1906,34.3672,宝鸡市,三陆医院,,29,29,42,19,22,69,29,14,12,33,38,8,11,0.5,0.5
2023-10-18T11:00:00,1933A,107.1431,34.3547,宝鸡市,监测站,,33,25,34,23,21,68,30,19,18,30,26,6,6,0.5,0.5
2023-10-18T11:00:00,1934A,107.1186,34.3739,宝鸡市,技工学校,,33,25,32,23,22,71,36,24,20,25,25,7,7,0.4,0.4
2023-10-18T11:00:00,1935A,107.3906,34.3528,宝鸡市,陈仓区环保局家属楼,,38,33,49,26,30,73,41,25,18,30,40,8,11,0.6,0.7
2023-10-18T11:00:00,1936A,107.2058,34.3497,宝鸡市,文理学院,,29,28,37,20,21,70,34,18,17,33,35,5,6,0.6,0.6
2023-10-18T11:00:00,1937A,107.2386,34.3622,宝鸡市,三迪小学,,33,24,35,23,24,70,29,19,12,32,35,6,8,0.5,0.5
2023-10-18T11:00:00,1938A,109.5293,34.5101,渭南市,农科所,颗粒物(PM10),58,66,82,36,58,88,8,52,16,44,35,10,5,1.0,1
2023-10-18T11:00:00,1939A,109.4974,34.4877,渭南市,日报社,颗粒物(PM10),56,61,83,38,59,87,8,56,16,54,46,8,6,0.5,0.7
2023-10-18T11:00:00,1940A,109.4636,34.493,渭南市,体育馆,颗粒物(PM10),58,66,82,32,54,87,8,57,9,49,48,4,4,0.6,0.8
2023-10-18T11:00:00,1941A,109.4259,34.5023,渭南市,高新一小,颗粒物(PM10),55,60,85,34,58,83,9,49,13,37,37,4,4,0.6,0.8
2023-10-18T11:00:00,1944A,102.1692,38.5167,金昌市,天庆家园,,26,26,26,4,7,116,83,86,86,7,9,5,9,0.5,0.3
2023-10-18T11:00:00,1945A,98.2908,39.7711,嘉峪关市,气象局,,32,29,32,22,11,104,68,85,83,18,11,3,7,0.2,0.1
2023-10-18T11:00:00,1947A,106.3394,38.817,石嘴山市,沙湖旅游区,细颗粒物(PM2.5),83,70,68,61,26,115,38,13,13,25,29,20,14,0.7,0.4
2023-10-18T11:00:00,1948A,106.3668,39.0145,石嘴山市,大武口朝阳西街,颗粒物(PM10),78,105,67,43,24,115,30,50,13,37,38,29,12,0.9,0.5
2023-10-18T11:00:00,1949A,106.7704,39.2282,石嘴山市,惠农南大街,颗粒物(PM10),112,174,80,31,27,104,17,64,14,64,41,52,25,2.3,0.9
2023-10-18T11:00:00,1950A,106.7099,39.1325,石嘴山市,红果子镇惠新街,,,67,80,28,37,110,,21,20,,31,,18,1.1,0.6
2023-10-18T11:00:00,1951A,84.895,45.6094,克拉玛依市,长征新村,,,,19,,6,69,36,51,45,22,13,10,9,0.4,0.3
2023-10-18T11:00:00,1952A,84.8988,45.5893,克拉玛依市,南林小区,,41,41,23,8,13,70,33,34,33,31,19,6,5,0.6,0.6
2023-10-18T11:00:00,1954A,84.905,44.3396,克拉玛依市,独山子区,,48,48,39,21,19,82,43,28,28,33,24,6,6,0.6,0.5
2023-10-18T11:00:00,1955A,85.6979,46.098,克拉玛依市,乌尔禾区商贸楼,,14,14,13,0,7,72,36,31,31,16,17,4,5,0.4,0.4
2023-10-18T11:00:00,1956A,86.1472,41.7538,巴音郭楞州,孔雀公园,,37,37,90,8,25,96,48,44,44,28,38,1,2,0.4,0.5
2023-10-18T11:00:00,1957A,86.1972,41.7166,巴音郭楞州,棉纺厂,颗粒物(PM10),51,52,128,8,27,98,56,58,58,20,22,5,2,0.3,0.4
2023-10-18T11:00:00,1958A,86.2357,41.7173,巴音郭楞州,经济开发区,,40,40,95,10,22,103,72,76,71,11,17,2,2,0.3,0.3
2023-10-18T11:00:00,1961A,117.532,36.6868,济南市,东山小学,颗粒物(PM10),78,105,85,54,39,179,107,152,136,38,23,10,9,0.8,0.8
2023-10-18T11:00:00,1966A,120.0405,35.8735,青岛市,黄岛区4号,,,100,72,58,37,168,168,154,154,,16,10,9,0.8,0.8
2023-10-18T11:00:00,1982A,122.0693,37.2174,威海市,文登开发区,颗粒物(PM10),60,70,39,34,12,138,138,121,121,20,12,8,8,0.7,0.5
2023-10-18T11:00:00,2031A,113.1817,27.9958,株洲市,云田中学,,48,48,61,30,40,170,130,118,96,12,17,13,13,0.7,0.7
2023-10-18T11:00:00,2054A,114.1099,32.1059,信阳市,平桥分局,细颗粒物(PM2.5),52,45,43,36,27,151,117,63,63,23,16,6,3,0.9,0.7
2023-10-18T11:00:00,2064A,113.9956,32.1271,信阳市,南湾水厂,,,50,42,32,26,163,,88,65,15,11,6,4,0.9,0.6
2023-10-18T11:00:00,2065A,114.0775,32.1195,信阳市,市酿酒公司,颗粒物(PM10),54,57,45,28,29,150,129,57,57,16,23,6,3,0.9,0.7
2023-10-18T11:00:00,2066A,114.0609,32.1399,信阳市,审计局,,44,42,49,28,29,153,139,61,61,13,25,8,5,0.9,0.6
2023-10-18T11:00:00,2067A,114.6613,33.6128,周口市,市环境监测站,细颗粒物(PM2.5),122,178,123,92,62,159,99,70,61,30,38,9,9,0.8,0.6
2023-10-18T11:00:00,2068A,114.6758,33.6347,周口市,周口师范,颗粒物(PM10),112,174,115,80,62,163,,76,56,30,35,7,7,,0.7
2023-10-18T11:00:00,2069A,114.6546,33.5979,周口市,市运管处,颗粒物(PM10),120,190,131,88,61,163,101,63,63,26,35,8,8,0.7,0.5
2023-10-18T11:00:00,2070A,114.6369,33.6406,周口市,川汇区环保局,细颗粒物(PM2.5),112,161,108,84,55,163,99,80,59,31,36,10,9,0.7,0.5
2023-10-18T11:00:00,2075A,117.6336,24.4674,漳州市,九湖,,,,,,,,,,,,,,,,
2023-10-18T11:00:00,2160A,112.85,35.5051,晋城市,自来水公司,,35,34,82,24,53,186,79,81,68,16,21,9,7,1.0,0.8
2023-10-18T11:00:00,2161A,112.8318,35.4936,晋城市,白云商贸,,44,44,90,27,58,182,77,66,65,19,23,8,6,1.2,0.9
2023-10-18T11:00:00,2162A,112.8508,35.4887,晋城市,市环保局,,35,35,95,22,55,182,79,67,67,20,28,10,8,1.1,1
2023-10-18T11:00:00,2163A,112.8676,35.4897,晋城市,技术学院,,35,23,90,24,57,177,77,66,66,18,27,8,7,0.9,0.9
2023-10-18T11:00:00,2165A,112.8453,35.546,晋城市,白马寺,,,,,,,,,,,,,,,,
2023-10-18T11:00:00,2166A,112.4397,39.3522,朔州市,平朔,,40,40,43,21,23,89,74,76,38,16,24,11,10,0.6,0.6
2023-10-18T11:00:00,2167A,112.4575,39.3617,朔州市,朔唯,,,,51,,27,102,,74,20,,34,13,12,,0.6
2023-10-18T11:00:00,2168A,112.4258,39.3197,朔州市,区政府,,35,34,46,24,26,93,66,81,39,21,26,14,10,0.6,0.6
2023-10-18T11:00:00,2169A,112.4072,39.3278,朔州市,市环保局,颗粒物(PM10),52,54,54,24,23,93,73,83,40,20,27,13,10,0.6,0.6
2023-10-18T11:00:00,2170A,112.4272,39.3681,朔州市,市二中,,35,32,49,24,26,100,73,69,37,14,26,10,12,0.5,0.5
2023-10-18T11:00:00,2171A,112.7532,37.6945,晋中市,锦纶小区,颗粒物(PM10),53,56,94,29,69,170,60,58,44,32,33,9,9,0.6,1
2023-10-18T11:00:00,2173A,112.7249,37.7067,晋中市,南都小区,,35,35,100,23,69,172,82,57,53,12,28,9,9,0.4,0.8
2023-10-18T11:00:00,2174A,112.6991,37.6982,晋中市,榆次区政府,,42,36,86,29,67,171,83,62,62,19,32,10,10,0.5,1
2023-10-18T11:00:00,2175A,110.9956,35.0147,运城市,运城中学,,46,46,104,24,59,135,46,41,33,15,17,8,7,1.0,0.9
2023-10-18T11:00:00,2178A,110.9686,35.0303,运城市,地区技校,颗粒物(PM10),53,56,98,21,55,131,48,37,30,15,18,6,5,0.9,0.7
2023-10-18T11:00:00,2179A,111.0414,35.1147,运城市,空港新区,"颗粒物(PM10),细颗粒物(PM2.5)",59,67,106,42,62,136,45,28,26,20,24,8,7,0.6,0.7
2023-10-18T11:00:00,2181A,112.7383,38.4519,忻州市,开发区,,36,30,75,25,53,136,57,66,42,16,25,8,10,0.7,1
2023-10-18T11:00:00,2182A,112.7003,38.4928,忻州市,会展中心,,,23,67,3,49,110,52,52,41,21,29,,10,,0.7
2023-10-18T11:00:00,2183A,111.1406,37.5211,吕梁市,环保局,颗粒物(PM10),56,62,58,34,43,67,51,25,25,26,49,3,3,0.7,0.8
2023-10-18T11:00:00,2185A,111.1297,37.5136,吕梁市,自来水公司,细颗粒物(PM2.5),69,58,65,50,44,78,49,25,25,26,44,3,3,0.6,0.8
2023-10-18T11:00:00,2187A,106.8174,39.6973,乌海市,市林业局,,,91,58,29,23,95,50,64,48,23,16,10,8,,0.5
2023-10-18T11:00:00,2188A,106.7907,39.6667,乌海市,中海勃湾学校,颗粒物(PM10),53,55,53,15,17,99,57,59,47,16,15,10,8,0.4,0.3
2023-10-18T11:00:00,2191A,122.2532,43.6801,通辽市,艺术职业学校,,22,22,58,6,17,109,61,70,56,12,23,5,9,0.1,0.4
2023-10-18T11:00:00,2192A,119.7594,49.2261,呼伦贝尔市,区环保局,,,,21,,17,68,45,53,44,,8,3,4,,0.3
2023-10-18T11:00:00,2195A,107.4212,40.761,巴彦淖尔市,附二中,,43,43,109,14,28,88,55,47,30,18,28,5,5,0.4,0.5
2023-10-18T11:00:00,2196A,107.37,40.7372,巴彦淖尔市,市环保大楼,颗粒物(PM10),62,73,98,15,29,89,60,64,25,20,24,4,3,0.4,0.5
2023-10-18T11:00:00,2197A,113.1306,40.9923,乌兰察布市,集宁新区,,26,23,33,15,18,127,81,67,57,3,16,4,8,0.4,0.5
2023-10-18T11:00:00,2200A,122.0392,46.0656,兴安盟,胜华新制药厂,,23,23,33,12,17,71,55,63,47,11,9,2,4,0.4,0.4
2023-10-18T11:00:00,2201A,121.9504,46.0741,兴安盟,科右前旗环保局,,20,15,31,10,14,68,61,63,52,6,9,3,4,0.2,0.3
2023-10-18T11:00:00,2202A,116.1042,43.9317,锡林郭勒盟,市环保监测站,,22,22,28,2,10,107,67,51,42,3,8,8,9,0.3,0.3
2023-10-18T11:00:00,2203A,116.0781,43.9311,锡林郭勒盟,市政府,,,26,33,,10,103,,39,39,10,19,9,10,0.4,0.3
2023-10-18T11:00:00,2204A,105.6467,38.8363,阿拉善盟,西城区西花园,,27,27,28,14,14,109,84,87,64,12,15,6,6,0.4,0.4
2023-10-18T11:00:00,2205A,105.6985,38.8411,阿拉善盟,蒙二幼,,31,31,27,8,8,109,93,82,74,10,13,7,8,0.3,0.4
2023-10-18T11:00:00,2206A,105.724,38.8516,阿拉善盟,环保局新楼,,31,18,24,8,8,109,97,90,90,7,7,6,7,0.4,0.4
2023-10-18T11:00:00,2207A,121.6094,41.998,阜新市,工业园区,,32,32,67,10,19,125,51,109,50,23,22,8,15,0.6,0.8
2023-10-18T11:00:00,2208A,121.6697,42.0279,阜新市,长青街,,27,27,67,4,16,121,45,104,47,23,21,6,11,0.4,0.6
2023-10-18T11:00:00,2209A,121.6673,42.0705,阜新市,农业园区,,18,18,53,5,25,117,50,99,51,14,16,8,11,0.3,0.5
2023-10-18T11:00:00,2210A,121.6717,42.0224,阜新市,东苑,,31,31,63,4,24,114,40,105,49,31,28,8,14,0.7,0.8
2023-10-18T11:00:00,2211A,121.6506,42.0498,阜新市,玉龙新城,,27,27,63,5,20,125,51,104,51,23,22,8,12,0.5,0.8
2023-10-18T11:00:00,2212A,123.2,41.1953,辽阳市,宏伟区,,23,6,43,16,23,119,26,107,67,20,17,7,10,0.5,0.6
2023-10-18T11:00:00,2213A,123.1683,41.2495,辽阳市,新华园,,22,12,49,15,28,116,23,109,64,25,20,8,11,0.7,0.9
2023-10-18T11:00:00,2214A,123.2354,41.2639,辽阳市,滨河路,,23,23,47,12,19,118,34,98,66,17,17,8,10,0.6,0.8
2023-10-18T11:00:00,2215A,123.149,41.2991,辽阳市,铁西工业园,,25,13,61,17,28,117,21,109,66,22,21,10,12,0.6,1
2023-10-18T11:00:00,2216A,123.8139,42.3022,铁岭市,汇工街西,,35,35,50,6,26,112,44,94,64,11,21,10,14,0.5,0.8
2023-10-18T11:00:00,2217A,123.8649,42.2923,铁岭市,水上乐园,,30,30,52,9,28,120,38,98,72,16,23,8,12,0.5,0.8
2023-10-18T11:00:00,2218A,123.8486,42.2867,铁岭市,银州路东段,,25,25,63,14,28,114,38,102,70,22,24,5,7,0.6,0.9
2023-10-18T11:00:00,2219A,123.7153,42.2217,铁岭市,金沙江路北,颗粒物(PM10),51,51,54,10,25,122,34,94,67,19,27,4,11,0.4,0.8
2023-10-18T11:00:00,2220A,120.4318,41.5881,朝阳市,西梁,,32,32,64,19,29,122,31,122,33,31,24,14,14,0.7,0.9
2023-10-18T11:00:00,2221A,120.4521,41.5646,朝阳市,河畔小区,,21,21,54,12,27,132,41,112,56,26,20,10,12,0.6,0.9
2023-10-18T11:00:00,2222A,120.4176,41.5648,朝阳市,八里堡,,26,23,61,18,27,120,35,108,43,33,30,13,15,0.7,1
2023-10-18T11:00:00,2223A,120.3806,41.5969,朝阳市,农业园区,,15,10,54,8,34,129,48,116,40,15,22,8,10,0.6,0.9
2023-10-18T11:00:00,2225A,124.4002,43.1713,四平市,一商场,,,29,54,,23,91,43,85,66,,19,,6,0.6,0.4
2023-10-18T11:00:00,2226A,124.388,43.193,四平市,境园,,29,29,46,5,29,100,48,87,62,10,14,8,8,1.8,0.7
2023-10-18T11:00:00,2227A,125.1358,42.8845,辽源市,环保局,,,41,43,24,28,138,,118,118,22,26,59,10,0.8,0.8
2023-10-18T11:00:00,2229A,125.9358,41.7173,通化市,光明,,32,32,40,12,18,89,64,74,74,42,42,7,10,0.5,0.7
2023-10-18T11:00:00,2230A,125.9446,41.7325,通化市,铁路,,23,23,43,12,20,95,65,46,46,27,41,6,12,0.5,0.8
2023-10-18T11:00:00,2231A,126.4219,41.9171,白山市,喜丰,颗粒物(PM10),86,122,73,42,23,83,7,7,7,49,40,14,11,1.2,0.8
2023-10-18T11:00:00,2232A,126.4077,41.9419,白山市,环保局,颗粒物(PM10),67,84,60,33,25,82,5,6,5,38,37,16,11,1.5,1
2023-10-18T11:00:00,2233A,124.8006,45.1214,松原市,江南,,,,47,,17,88,48,82,40,5,12,6,8,0.4,0.5
2023-10-18T11:00:00,2234A,124.7965,45.1722,松原市,江北,,17,11,41,7,16,90,52,83,45,7,11,4,4,0.3,0.4
2023-10-18T11:00:00,2235A,122.7911,45.6077,白城市,洮北区环保局,,21,20,46,4,12,69,66,48,35,9,13,5,5,0.4,0.5
2023-10-18T11:00:00,2236A,122.8738,45.5725,白城市,市环保局,,,16,54,3,13,88,64,67,49,5,15,7,8,,0.6
2023-10-18T11:00:00,2237A,129.47,42.8883,延边朝鲜族自治州,妇幼医院,,,,35,28,16,82,14,21,18,64,30,,10,0.9,0.6
2023-10-18T11:00:00,2238A,129.5055,42.9108,延边朝鲜族自治州,延边医院,颗粒物(PM10),58,65,50,29,22,95,33,23,21,48,36,11,9,0.9,0.8
2023-10-18T11:00:00,2239A,129.3964,42.8881,延边朝鲜族自治州,朝阳川镇医院,,42,42,38,17,15,92,24,18,16,31,22,12,5,0.6,0.6
2023-10-18T11:00:00,2240A,130.9762,45.3001,鸡西市,环保局,,,,82,,34,62,,4,2,,35,,8,,0.9
2023-10-18T11:00:00,2243A,130.9429,45.3039,鸡西市,第一中学,颗粒物(PM10),63,75,79,20,25,71,55,34,23,18,33,9,12,0.2,0.4
2023-10-18T11:00:00,2244A,130.2537,47.3416,鹤岗市,哈啤分公司,颗粒物(PM10),51,52,41,22,17,74,12,30,21,42,30,18,14,0.4,0.3
2023-10-18T11:00:00,2245A,130.2684,47.3086,鹤岗市,斯达机电,,,113,40,29,18,71,15,40,29,40,27,14,11,,0.3
2023-10-18T11:00:00,2246A,130.3114,47.3388,鹤岗市,东山纸板厂,颗粒物(PM10),100,149,75,31,29,81,12,21,12,49,34,18,14,0.4,0.9
2023-10-18T11:00:00,2247A,130.1097,47.3382,鹤岗市,五号水库,,37,37,15,9,11,142,24,22,19,26,18,13,11,0.4,0.3
2023-10-18T11:00:00,2248A,131.1511,46.6937,双鸭山市,双合村,颗粒物(PM10),59,68,37,14,8,87,87,63,60,8,15,11,10,0.5,0.5
2023-10-18T11:00:00,2249A,131.1652,46.6191,双鸭山市,南小市,颗粒物(PM10),62,73,42,14,12,81,81,58,43,8,17,8,7,0.4,0.5
2023-10-18T11:00:00,2250A,131.1524,46.6554,双鸭山市,环保局,颗粒物(PM10),66,82,30,27,11,70,70,63,54,19,16,15,9,0.7,0.2
2023-10-18T11:00:00,2251A,131.12,46.5656,双鸭山市,苗圃,,34,15,13,10,8,106,106,81,71,8,8,5,3,0.4,0.3
2023-10-18T11:00:00,2252A,128.5159,47.4311,伊春市,环保局,,27,27,21,18,9,61,61,43,42,6,17,3,12,0.4,0.6
2023-10-18T11:00:00,2253A,128.9102,47.7412,伊春市,电力嘉园,,21,21,24,10,9,61,61,38,34,5,19,5,17,0.2,0.5
2023-10-18T11:00:00,2254A,129.5029,48.471,伊春市,汤旺河国家公园,,38,38,21,14,8,64,60,35,35,10,6,10,7,0.2,0.2
2023-10-18T11:00:00,2255A,130.2751,46.8028,佳木斯市,佳纺,,41,41,31,16,10,74,74,58,58,14,15,3,2,0.6,0.4
2023-10-18T11:00:00,2256A,130.3995,46.8307,佳木斯市,发电厂,颗粒物(PM10),66,82,44,24,20,69,69,53,53,14,18,6,5,0.7,0.5
2023-10-18T11:00:00,2257A,130.3258,46.7975,佳木斯市,环保局,,43,43,24,20,9,69,68,60,53,17,16,5,5,0.5,0.4
2023-10-18T11:00:00,2258A,130.3648,46.8032,佳木斯市,十一中,颗粒物(PM10),52,54,29,27,12,65,65,52,52,22,24,3,2,0.5,0.4
2023-10-18T11:00:00,2259A,130.3794,46.7588,佳木斯市,四丰,,34,34,20,14,7,89,89,75,75,10,8,1,1,0.3,0.1
2023-10-18T11:00:00,2262A,131.0518,45.8751,七台河市,新一中,,,,,,,,,,,,,,,,
2023-10-18T11:00:00,2263A,127.4833,50.2524,黑河市,交通局,,25,25,25,13,13,52,49,28,25,11,18,4,5,0.3,0.3
2023-10-18T11:00:00,2264A,127.5144,50.2341,黑河市,环保局,,,8,26,11,13,55,,34,28,4,12,,5,0.3,0.4
2023-10-18T11:00:00,2265A,127.5291,50.2472,黑河市,大黑河岛,,,7,27,12,17,,,,,2,2,2,3,,
2023-10-18T11:00:00,2266A,126.9785,46.6365,绥化市,人和东街,,19,19,58,5,20,66,41,47,33,14,22,4,12,0.5,0.6
2023-10-18T11:00:00,2267A,126.964,46.6528,绥化市,党政办公中心,,21,21,51,5,20,69,41,54,34,15,20,4,5,0.4,0.5
2023-10-18T11:00:00,2269A,124.1069,50.4097,大兴安岭地区,科技局,,17,10,26,8,14,62,52,46,46,3,13,6,7,0.1,0.2
2023-10-18T11:00:00,2270A,117.396,32.939,蚌埠市,工人疗养院,颗粒物(PM10),81,112,71,49,36,177,121,159,128,40,20,8,7,0.7,0.5
2023-10-18T11:00:00,2271A,117.3605,32.9427,蚌埠市,百货大楼,颗粒物(PM10),73,96,71,46,34,175,126,168,130,35,19,5,7,0.6,0.5
2023-10-18T11:00:00,2273A,117.4185,32.8911,蚌埠市,蚌埠学院,,,90,72,46,38,170,127,144,112,25,22,11,9,,0.5
2023-10-18T11:00:00,2274A,117.3533,32.9673,蚌埠市,淮上区政府,,,97,73,57,46,169,,164,126,36,21,13,10,0.5,0.4
2023-10-18T11:00:00,2275A,117.3145,32.8977,蚌埠市,高新区,颗粒物(PM10),67,83,72,46,40,179,150,157,126,29,24,10,8,0.6,0.5
2023-10-18T11:00:00,2277A,116.8305,32.7727,淮南市,潘集区政府,细颗粒物(PM2.5),75,86,86,55,48,161,127,126,92,26,28,11,14,0.5,0.6
2023-10-18T11:00:00,2278A,117.0067,32.6524,淮南市,师范学院,,,,84,,43,170,124,142,107,29,19,,11,0.5,0.5
2023-10-18T11:00:00,2279A,116.8569,32.5951,淮南市,谢家集区政府,颗粒物(PM10),57,64,69,33,39,172,117,123,91,31,34,8,11,0.4,0.4
2023-10-18T11:00:00,2280A,116.8281,32.633,淮南市,八公山区政府,颗粒物(PM10),61,71,73,42,40,171,116,132,94,22,24,10,14,0.5,0.5
2023-10-18T11:00:00,2281A,116.6325,32.6201,淮南市,焦岗湖风景区管理处,颗粒物(PM10),58,65,49,36,30,160,113,115,85,12,16,4,3,0.3,0.3
2023-10-18T11:00:00,2282A,116.8004,33.975,淮北市,监测站,颗粒物(PM10),88,126,114,58,41,175,114,107,107,44,36,15,13,0.8,0.7
2023-10-18T11:00:00,2283A,116.8091,33.9007,淮北市,烈山区政府,,,,95,,48,192,109,99,99,,38,,11,0.7,0.5
2023-10-18T11:00:00,2285A,117.8177,30.9412,铜陵市,市第四中学,,,108,61,57,36,148,40,31,22,,28,,10,2.2,1
2023-10-18T11:00:00,2286A,117.8059,30.9273,铜陵市,市公路局,颗粒物(PM10),86,121,58,22,23,139,49,42,25,69,30,30,8,2.0,0.9
2023-10-18T11:00:00,2287A,117.7807,30.9413,铜陵市,市新民污水厂,颗粒物(PM10),60,70,65,22,30,143,77,17,17,48,36,8,7,0.7,0.7
2023-10-18T11:00:00,2288A,117.7439,30.8792,铜陵市,市第九中学,颗粒物(PM10),57,63,99,24,39,134,82,22,22,46,56,6,8,0.6,0.7
2023-10-18T11:00:00,2289A,117.846,30.9413,铜陵市,车站新区,,,72,47,49,33,143,33,44,24,82,36,22,5,,0.3
2023-10-18T11:00:00,2290A,117.8483,30.97,铜陵市,市职教基地,颗粒物(PM10),62,73,61,37,29,129,42,57,18,52,24,24,14,1.4,0.5
2023-10-18T11:00:00,2291A,117.0809,30.5177,安庆市,环科院,颗粒物(PM10),63,76,67,37,40,183,102,23,23,37,66,9,9,0.6,0.7
2023-10-18T11:00:00,2292A,117.0331,30.5119,安庆市,马山宾馆,,,63,68,,38,179,104,29,29,36,59,8,7,0.6,0.8
2023-10-18T11:00:00,2294A,116.9896,30.6145,安庆市,安庆大学,颗粒物(PM10),68,85,52,37,36,176,107,44,39,45,32,12,7,0.8,0.7
2023-10-18T11:00:00,2295A,118.2903,29.6963,黄山市,延安路89号,,50,47,36,35,17,133,85,34,34,18,13,6,5,0.4,0.3
2023-10-18T11:00:00,2296A,118.327,29.7178,黄山市,黄山东路89号,,45,45,39,28,22,131,107,44,35,12,14,6,5,0.5,0.5
2023-10-18T11:00:00,2297A,118.1371,30.2756,黄山市,黄山区政府5号楼,,50,50,51,23,33,126,105,37,37,10,12,7,6,0.5,0.5
2023-10-18T11:00:00,2298A,118.3093,32.3153,滁州市,老年大学,细颗粒物(PM2.5),85,93,80,63,55,187,170,141,98,38,36,17,9,1.2,0.8
2023-10-18T11:00:00,2299A,118.3244,32.2786,滁州市,人大宾馆,细颗粒物(PM2.5),99,109,89,74,63,191,170,132,120,38,34,18,10,1.0,0.6
2023-10-18T11:00:00,2301A,115.8277,32.8929,阜阳市,市监测站,颗粒物(PM10),54,58,57,36,32,157,138,102,85,20,24,8,9,0.5,0.5
2023-10-18T11:00:00,2303A,115.8554,32.8605,阜阳市,开发区,颗粒物(PM10),63,76,70,35,31,157,137,108,77,24,29,10,11,0.6,0.6
2023-10-18T11:00:00,2307A,116.5079,31.737,六安市,监测大楼,,40,40,48,21,26,171,108,98,79,22,19,5,6,0.3,0.4
2023-10-18T11:00:00,2308A,116.4738,31.7643,六安市,皖西学院,颗粒物(PM10),51,52,57,26,24,172,104,119,62,30,20,6,7,0.5,0.5
2023-10-18T11:00:00,2309A,116.4996,31.7905,六安市,朝阳厂,,49,48,49,34,30,170,125,132,79,20,18,6,7,0.5,0.5
2023-10-18T11:00:00,2310A,116.5567,31.7886,六安市,开发区,颗粒物(PM10),60,70,80,36,36,164,95,92,60,28,26,12,13,0.5,0.5
2023-10-18T11:00:00,2311A,115.8072,33.8399,亳州市,污水处理厂,,,,68,,27,173,116,115,87,30,26,,12,0.7,0.5
2023-10-18T11:00:00,2312A,115.7789,33.8518,亳州市,三国揽胜宫,颗粒物(PM10),67,83,68,46,25,171,134,112,93,26,24,15,12,0.6,0.4
2023-10-18T11:00:00,2314A,117.47,30.6618,池州市,池州学院,,43,43,53,29,35,167,101,48,48,14,19,10,6,1.2,1
2023-10-18T11:00:00,2316A,118.7581,30.9454,宣城市,鳌峰子站,颗粒物(PM10),63,76,64,31,39,131,95,110,75,21,19,5,6,0.6,0.6
2023-10-18T11:00:00,2317A,118.7385,30.9743,宣城市,敬亭山子站,颗粒物(PM10),53,56,50,30,36,143,90,115,82,29,20,9,8,0.5,0.4
2023-10-18T11:00:00,2318A,118.7173,30.9427,宣城市,开发区子站,颗粒物(PM10),54,58,57,28,35,137,92,104,80,23,19,7,9,0.7,0.7
2023-10-18T11:00:00,2319A,119.0141,25.4325,莆田市,荔城区仓后路,颗粒物(PM10),52,54,41,21,28,169,131,132,119,8,9,7,7,0.5,0.5
2023-10-18T11:00:00,2320A,119.0015,25.4553,莆田市,莆田市监测站,,42,41,37,18,25,180,133,142,130,5,7,7,8,0.6,0.6
2023-10-18T11:00:00,2321A,119.1119,25.4561,莆田市,涵江区六中,,45,45,42,17,26,163,128,127,112,6,8,7,7,0.6,0.6
2023-10-18T11:00:00,2322A,119.1013,25.3215,莆田市,秀屿区政府,颗粒物(PM10),56,62,48,26,30,173,145,132,124,9,11,8,8,0.7,0.7
2023-10-18T11:00:00,2323A,118.981,25.4792,莆田市,东圳水库,,,,,,,,,,,,,,,,
2023-10-18T11:00:00,2324A,117.6211,26.2625,三明市,三钢,,39,36,46,24,37,154,124,72,72,14,26,10,10,0.4,0.5
2023-10-18T11:00:00,2325A,117.635,26.2714,三明市,三明二中,,43,43,43,25,34,150,120,69,68,15,20,7,6,0.4,0.4
2023-10-18T11:00:00,2326A,117.6028,26.2378,三明市,三元区政府,,40,38,52,25,35,155,125,52,52,15,32,12,12,0.6,0.8
2023-10-18T11:00:00,2327A,117.7275,26.3108,三明市,洋溪,,,,,,,,,,,,,,,,
2023-10-18T11:00:00,2331A,118.0966,26.6761,南平市,茫荡山,,,,,,,,,,,,,,,,
2023-10-18T11:00:00,2332A,118.1681,26.6369,南平市,南平市监测站,,37,32,47,25,34,158,118,72,69,9,18,5,5,0.5,0.7
2023-10-18T11:00:00,2333A,118.1825,26.6489,南平市,南平铝业有限公司,,44,44,49,19,34,165,123,69,69,8,21,6,9,0.6,0.7
2023-10-18T11:00:00,2334A,118.1756,26.6272,南平市,南平七中,,42,36,45,21,31,175,132,83,83,7,13,5,6,0.6,0.7
2023-10-18T11:00:00,2335A,117.0189,25.1181,龙岩市,龙岩师专,,,,,,,,,,,,,,,,
2023-10-18T11:00:00,2336A,117.0217,25.1033,龙岩市,龙岩市监测站,"颗粒物(PM10),细颗粒物(PM2.5)",53,55,46,37,32,152,128,68,68,16,23,8,10,0.6,0.6
2023-10-18T11:00:00,2337A,117.0258,25.0661,龙岩市,闽西职业技术学院,"颗粒物(PM10),细颗粒物(PM2.5)",54,58,51,38,32,148,125,63,63,15,22,9,9,0.7,0.6
2023-10-18T11:00:00,2338A,117.0196,25.0306,龙岩市,龙岩学院,颗粒物(PM10),57,63,52,36,35,145,112,46,46,21,18,8,5,0.8,0.5
2023-10-18T11:00:00,2339A,119.5001,26.6946,宁德市,金涵水库,,,,,,,,,,,,,,,,
2023-10-18T11:00:00,2341A,119.5388,26.6612,宁德市,宁德市监测站,颗粒物(PM10),54,58,38,32,30,180,85,76,62,20,16,6,7,0.6,0.6
2023-10-18T11:00:00,2342A,117.3102,29.3867,景德镇市,王港中学,,43,36,42,30,22,172,114,36,36,10,15,2,2,0.6,0.6
2023-10-18T11:00:00,2343A,117.2117,29.2933,景德镇市,老干部活动中心,,41,41,45,21,34,155,106,56,56,12,16,11,12,0.4,0.5
2023-10-18T11:00:00,2344A,117.1894,29.2789,景德镇市,兽医站,细颗粒物(PM2.5),54,54,52,38,46,146,106,56,52,10,14,9,17,0.5,0.5
2023-10-18T11:00:00,2345A,117.1547,29.2617,景德镇市,台达陶瓷,,,,,,,,,,,,,,,,
2023-10-18T11:00:00,2346A,117.2461,29.2956,景德镇市,陶研所,颗粒物(PM10),53,56,62,19,25,142,102,31,31,5,20,8,5,0.5,0.5
2023-10-18T11:00:00,2347A,114.0997,27.5002,萍乡市,武功山,,30,20,24,20,23,130,93,60,56,5,7,7,6,0.1,0.1
2023-10-18T11:00:00,2348A,113.8385,27.6434,萍乡市,中医院,细颗粒物(PM2.5),64,72,71,46,46,160,92,77,39,24,24,30,23,0.9,1
2023-10-18T11:00:00,2349A,113.8493,27.6253,萍乡市,市政府车库,,,,73,,50,155,80,34,29,26,23,30,20,1.8,1.4
2023-10-18T11:00:00,2350A,113.8676,27.6435,萍乡市,市环保局,细颗粒物(PM2.5),75,83,74,55,52,160,87,46,46,24,25,21,22,0.8,0.8
2023-10-18T11:00:00,2351A,113.866,27.6198,萍乡市,安源区政府,细颗粒物(PM2.5),84,78,75,62,55,160,98,36,36,30,26,31,17,1.7,1
2023-10-18T11:00:00,2352A,115.0861,27.9317,新余市,北岗,,,79,50,54,39,148,,47,17,17,17,33,23,0.8,0.3
2023-10-18T11:00:00,2353A,114.9886,27.8431,新余市,飞宇,细颗粒物(PM2.5),83,104,74,61,41,128,83,33,29,29,41,32,21,0.7,0.6
2023-10-18T11:00:00,2354A,114.9231,27.8246,新余市,第二水厂,细颗粒物(PM2.5),87,97,73,64,43,154,60,50,34,107,40,44,13,7.0,0.9
2023-10-18T11:00:00,2355A,114.9308,27.8036,新余市,市气象局,细颗粒物(PM2.5),107,121,76,80,47,143,79,28,28,57,36,52,16,2.9,1.1
2023-10-18T11:00:00,2357A,116.9822,28.1136,鹰潭市,龙虎山,,37,37,40,10,13,182,103,52,42,4,6,5,5,0,0
2023-10-18T11:00:00,2358A,117.0564,28.2642,鹰潭市,新监测站,颗粒物(PM10),54,57,66,34,40,181,118,77,54,17,23,22,21,0.7,0.6
2023-10-18T11:00:00,2359A,117.0311,28.2475,鹰潭市,财苑宾馆,颗粒物(PM10),58,66,65,33,37,192,122,69,58,19,25,30,25,0.8,0.6
2023-10-18T11:00:00,2360A,117.0222,28.2264,鹰潭市,体育馆,颗粒物(PM10),55,60,56,36,35,187,118,73,73,14,14,12,12,0.6,0.6
2023-10-18T11:00:00,2361A,117.0017,28.2131,鹰潭市,三川水表,颗粒物(PM10),53,56,59,29,35,186,113,64,64,17,18,7,6,0.5,0.5
2023-10-18T11:00:00,2362A,114.9017,25.9149,赣州市,通天岩,,,,,,,,,,,,,,,,
2023-10-18T11:00:00,2363A,114.9367,25.8664,赣州市,地委,颗粒物(PM10),60,70,71,34,38,160,108,42,42,24,29,12,12,0.9,0.9
2023-10-18T11:00:00,2364A,114.9461,25.8481,赣州市,气象台,,,99,69,41,37,179,105,24,24,33,41,,12,0.9,0.9
2023-10-18T11:00:00,2365A,114.9322,25.8333,赣州市,市图书馆,颗粒物(PM10),67,83,77,41,39,176,84,25,25,50,48,9,10,1.0,0.9
2023-10-18T11:00:00,2366A,114.8905,25.8471,赣州市,华坚鞋城,细颗粒物(PM2.5),64,71,83,46,48,171,109,50,50,35,51,26,31,0.8,0.9
2023-10-18T11:00:00,2367A,114.9754,27.0803,吉安市,红声器材厂,细颗粒物(PM2.5),77,79,87,56,61,145,106,50,50,21,25,24,22,0.8,0.8
2023-10-18T11:00:00,2368A,114.9658,27.0999,吉安市,市森林工业局,细颗粒物(PM2.5),83,89,90,61,60,156,108,45,45,24,32,20,17,0.5,0.7
2023-10-18T11:00:00,2369A,114.99,27.1312,吉安市,市环境监测站,细颗粒物(PM2.5),102,90,95,76,64,161,112,38,38,17,31,14,13,0.7,0.8
2023-10-18T11:00:00,2370A,115.0093,27.0968,吉安市,青原区法院,细颗粒物(PM2.5),85,86,83,63,59,155,105,40,40,19,30,18,15,0.7,0.8
2023-10-18T11:00:00,2371A,114.3408,27.8064,宜春市,槟榔水业,细颗粒物(PM2.5),68,77,69,49,43,161,95,42,32,40,32,33,7,1.0,0.6
2023-10-18T11:00:00,2373A,114.3956,27.7844,宜春市,市石油公司,细颗粒物(PM2.5),65,75,71,47,44,155,75,32,30,50,26,59,9,1.6,0.8
2023-10-18T11:00:00,2374A,114.3703,27.7914,宜春市,市气象局,"颗粒物(PM10),细颗粒物(PM2.5)",63,76,74,45,43,154,75,41,41,49,30,36,9,1.6,0.9
2023-10-18T11:00:00,2375A,114.4013,27.8074,宜春市,市广电局,颗粒物(PM10),64,77,79,45,56,159,88,50,39,39,32,43,13,1.4,0.9
2023-10-18T11:00:00,2376A,116.2127,28.0814,抚州市,桐源党溪,颗粒物(PM10),51,51,55,34,36,135,106,30,30,9,18,2,2,0.7,0.7
2023-10-18T11:00:00,2377A,116.3544,27.9831,抚州市,市站,,,,59,,35,165,117,88,88,,26,9,9,0.8,1.1
2023-10-18T11:00:00,2378A,116.3565,27.963,抚州市,血防站,颗粒物(PM10),54,58,55,28,30,127,110,59,59,16,24,2,5,0.7,0.8
2023-10-18T11:00:00,2379A,116.3564,28.0007,抚州市,采茶剧团,,50,50,54,29,32,126,114,74,74,13,18,6,6,0.8,0.8
2023-10-18T11:00:00,2380A,116.385,27.9647,抚州市,医学分院,颗粒物(PM10),51,51,55,27,27,135,126,68,68,12,20,9,11,0.8,0.8
2023-10-18T11:00:00,2381A,118.005,28.4572,上饶市,百草园,,,65,64,21,38,159,102,63,53,15,20,19,24,,
2023-10-18T11:00:00,2382A,117.9756,28.4436,上饶市,市监测站,颗粒物(PM10),59,67,70,38,41,177,117,66,58,23,26,17,18,0.7,0.7
2023-10-18T11:00:00,2383A,117.9519,28.4628,上饶市,凤凰光学,颗粒物(PM10),60,69,67,36,41,169,113,67,51,23,34,8,10,0.6,0.6
2023-10-18T11:00:00,2385A,114.17,35.9019,鹤壁市,市监测站,细颗粒物(PM2.5),94,96,90,70,64,177,103,97,70,28,27,17,9,1.6,1
2023-10-18T11:00:00,2386A,114.2956,35.7511,鹤壁市,市交警支队,细颗粒物(PM2.5),85,88,99,63,65,177,113,98,80,24,32,8,8,0.9,0.7
2023-10-18T11:00:00,2387A,114.2878,35.7306,鹤壁市,迎宾馆,,,70,94,75,68,177,115,83,80,,32,8,11,1.0,0.7
2023-10-18T11:00:00,2389A,113.836,35.311,新乡市,环保西院,细颗粒物(PM2.5),93,107,128,69,80,177,100,58,58,30,38,13,13,1.4,1
2023-10-18T11:00:00,2390A,113.884,35.272,新乡市,开发区,,,76,109,66,80,180,96,68,68,,29,10,9,1.2,1
2023-10-18T11:00:00,2391A,113.883,35.303,新乡市,环保东院,细颗粒物(PM2.5),78,99,128,57,85,175,97,58,58,25,34,11,11,1.2,1
2023-10-18T11:00:00,2392A,115.0312,35.7636,濮阳市,环保局,细颗粒物(PM2.5),73,52,79,53,49,154,107,69,66,18,26,5,7,0.9,0.6
2023-10-18T11:00:00,2394A,115.0574,35.7609,濮阳市,油田运输公司,细颗粒物(PM2.5),75,73,82,55,51,157,111,72,63,15,26,5,6,1.0,0.7
2023-10-18T11:00:00,2395A,115.0866,35.7754,濮阳市,油田物探公司,颗粒物(PM10),60,69,90,42,48,167,119,68,64,13,31,2,3,0.9,0.6
2023-10-18T11:00:00,2396A,113.8276,34.0159,许昌市,监测站,细颗粒物(PM2.5),64,72,137,46,69,170,71,33,33,18,44,8,8,0.7,0.7
2023-10-18T11:00:00,2398A,113.7906,33.9953,许昌市,开发区,细颗粒物(PM2.5),65,50,149,47,99,162,74,29,29,14,44,6,7,0.4,0.5
2023-10-18T11:00:00,2399A,114.051,33.5699,漯河市,三五一五工厂,,,93,171,71,77,172,84,56,56,,15,8,8,0.6,0.6
2023-10-18T11:00:00,2400A,114.0055,33.5698,漯河市,漯河大学,细颗粒物(PM2.5),87,83,142,64,63,177,82,62,54,14,28,12,12,0.7,0.6
2023-10-18T11:00:00,2401A,114.0138,33.5828,漯河市,市水利局,细颗粒物(PM2.5),85,88,159,63,65,178,83,65,52,12,24,9,10,0.8,0.8
2023-10-18T11:00:00,2402A,114.0261,33.5698,漯河市,市广电局,,,,167,,70,172,,68,48,,26,,9,,0.7
2023-10-18T11:00:00,2404A,112.5224,33.0122,南阳市,瓦房庄,细颗粒物(PM2.5),75,74,77,55,46,142,74,78,78,33,36,7,7,0.7,0.6
2023-10-18T11:00:00,2405A,112.5003,32.9735,南阳市,汉画馆,,,73,73,53,39,149,84,73,73,22,29,,6,,0.7
2023-10-18T11:00:00,2406A,112.5573,33.027,南阳市,气象站,细颗粒物(PM2.5),73,63,71,53,41,152,84,94,75,21,30,4,4,0.8,0.7
2023-10-18T11:00:00,2407A,112.5481,32.9689,南阳市,理工学院,细颗粒物(PM2.5),83,85,90,61,51,155,90,73,73,17,26,4,5,0.7,0.6
2023-10-18T11:00:00,2408A,115.6702,34.4285,商丘市,环境监测站,,,141,70,,36,132,101,91,78,27,22,11,8,0.7,0.4
2023-10-18T11:00:00,2409A,115.6458,34.4045,商丘市,粮食局,细颗粒物(PM2.5),149,151,76,114,49,159,98,91,77,32,31,8,7,0.6,0.3
2023-10-18T11:00:00,2410A,115.6293,34.3948,商丘市,睢阳区环保局,细颗粒物(PM2.5),130,161,82,99,48,156,98,88,66,26,28,9,8,0.6,0.4
2023-10-18T11:00:00,2420A,114.0189,32.9656,驻马店市,市一纸厂,细颗粒物(PM2.5),69,49,78,50,37,165,82,61,61,11,31,9,10,0.4,0.5
2023-10-18T11:00:00,2421A,114.0114,33.015,驻马店市,市彩印厂,细颗粒物(PM2.5),70,83,86,51,39,167,74,39,39,28,64,7,7,0.6,0.5
2023-10-18T11:00:00,2422A,113.9976,32.9771,驻马店市,天方二分厂,细颗粒物(PM2.5),74,85,72,54,39,164,79,113,66,14,24,8,8,0.7,0.6
2023-10-18T11:00:00,2423A,115.0601,30.2313,黄石市,沈家营,细颗粒物(PM2.5),72,88,84,52,55,180,115,63,59,43,36,20,12,1.3,0.8
2023-10-18T11:00:00,2424A,115.0817,30.2006,黄石市,陈家湾,细颗粒物(PM2.5),78,94,65,57,45,182,90,151,54,67,32,20,12,1.4,0.7
2023-10-18T11:00:00,2426A,114.8988,30.2019,黄石市,铁山,细颗粒物(PM2.5),55,47,79,39,49,186,144,99,92,24,28,11,14,0.8,0.8
2023-10-18T11:00:00,2427A,115.0307,30.2092,黄石市,团城山,颗粒物(PM10),73,95,76,43,38,187,107,141,63,47,28,15,12,1.1,0.8
2023-10-18T11:00:00,2428A,111.0419,32.395,十堰市,武当山,,,,56,,33,132,,127,108,8,9,11,11,1.0,0.9
2023-10-18T11:00:00,2429A,110.78,32.6494,十堰市,滨河新村,颗粒物(PM10),63,76,74,44,47,128,68,47,38,27,28,8,10,0.6,0.6
2023-10-18T11:00:00,2430A,110.7258,32.6389,十堰市,刘家沟,颗粒物(PM10),64,77,77,43,46,128,85,49,44,12,13,8,9,0.8,0.9
2023-10-18T11:00:00,2431A,110.8839,32.5714,十堰市,铁二处,颗粒物(PM10),60,69,65,32,43,142,91,55,55,17,13,7,9,0.6,0.7
2023-10-18T11:00:00,2432A,112.155,32.0197,襄阳市,襄城运动路,细颗粒物(PM2.5),88,95,92,65,54,171,94,104,59,20,22,18,15,0.9,0.8
2023-10-18T11:00:00,2433A,112.1392,32.0564,襄阳市,樊城新华路,细颗粒物(PM2.5),89,108,89,66,60,175,109,97,69,20,24,15,17,0.7,0.7
2023-10-18T11:00:00,2434A,112.1825,32.1142,襄阳市,高新管委会,细颗粒物(PM2.5),134,128,85,102,66,168,96,119,60,25,27,23,21,1.0,0.9
