timepoint,stationcode,longitude,latitude,area,positionname,primarypollutant,aqi,pm10,pm10_24h,pm2_5,pm2_5_24h,o3,o3_24h,o3_8h,o3_8h_24h,no2,no2_24h,so2,so2_24h,co,co_24h
2023-10-18T09:00:00,1001A,116.3621,39.8784,北京市,万寿西宫,,19,16,76,7,40,108,58,54,54,19,29,1,2,0.3,0.7
2023-10-18T09:00:00,1002A,116.2202,40.2915,北京市,定陵,,16,11,48,5,27,105,49,47,47,9,15,1,2,0.3,0.5
2023-10-18T09:00:00,1003A,116.4174,39.9289,北京市,东四,,20,14,79,6,38,114,63,54,54,16,40,3,2,0.3,0.6
2023-10-18T09:00:00,1004A,116.4072,39.8863,北京市,天坛,,19,19,69,9,38,107,55,50,50,23,35,3,2,0.4,0.6
2023-10-18T09:00:00,1005A,116.462,39.9365,北京市,农展馆,,18,11,72,5,37,110,56,54,54,20,38,3,2,0.3,0.6
2023-10-18T09:00:00,1006A,116.3392,39.9295,北京市,官园,,18,15,81,7,39,118,56,56,56,19,30,1,2,0.4,0.6
2023-10-18T09:00:00,1007A,116.2878,39.9611,北京市,海淀万柳,,16,13,75,6,32,104,35,38,34,32,38,3,2,0.5,0.7
2023-10-18T09:00:00,1008A,116.6636,40.135,北京市,顺义新城,,28,27,80,19,45,115,44,37,37,21,30,3,3,0.5,0.6
2023-10-18T09:00:00,1009A,116.6275,40.3275,北京市,怀柔镇,,18,11,69,7,38,118,56,75,41,10,21,1,2,0.3,0.5
2023-10-18T09:00:00,1010A,116.2296,40.217,北京市,昌平镇,,17,13,56,5,26,110,54,43,43,3,6,2,2,0.3,0.5
2023-10-18T09:00:00,1011A,116.3966,39.9821,北京市,奥体中心,,18,14,69,5,33,107,57,42,42,16,37,1,2,0.3,0.6
2023-10-18T09:00:00,1012A,116.184,39.9136,北京市,古城,,18,18,69,8,32,118,44,66,58,26,31,3,2,0.5,0.7
2023-10-18T09:00:00,1015A,117.1444,39.1661,天津市,勤俭道,细颗粒物(PM2.5),64,52,169,46,77,168,40,81,60,24,37,6,11,0.6,0.9
2023-10-18T09:00:00,1017A,117.237,39.1082,天津市,大直沽八号路,,,55,132,39,73,174,54,101,84,27,34,,8,,0.9
2023-10-18T09:00:00,1018A,117.202,39.0927,天津市,前进道,细颗粒物(PM2.5),60,51,113,43,66,179,44,104,82,29,35,5,10,0.6,0.8
2023-10-18T09:00:00,1019A,117.1837,39.2133,天津市,淮河道,细颗粒物(PM2.5),60,58,132,43,76,183,41,95,65,28,43,5,9,0.7,1.1
2023-10-18T09:00:00,1021A,117.307,39.0877,天津市,跃进路,细颗粒物(PM2.5),58,46,120,41,76,198,56,96,80,25,32,6,10,0.6,1
2023-10-18T09:00:00,1023A,117.707,39.0343,天津市,第四大街,细颗粒物(PM2.5),77,65,119,56,74,160,42,89,73,40,51,4,9,1.0,1
2023-10-18T09:00:00,1024A,117.457,38.8394,天津市,永明路,细颗粒物(PM2.5),54,44,122,38,82,169,71,83,83,27,35,4,9,0.5,0.9
2023-10-18T09:00:00,1026A,117.764,39.1587,天津市,汉北路,细颗粒物(PM2.5),65,63,106,47,62,163,40,66,63,38,38,6,10,0.7,1
2023-10-18T09:00:00,1027A,117.157,38.9194,天津市,团泊洼,细颗粒物(PM2.5),74,86,139,54,83,166,53,79,71,22,35,2,5,0.8,1.1
2023-10-18T09:00:00,1029A,114.4422,38.0444,石家庄市,职工医院,细颗粒物(PM2.5),74,59,104,54,66,164,38,78,52,31,30,4,7,1.0,1.1
2023-10-18T09:00:00,1030A,114.6063,38.0266,石家庄市,高新区,细颗粒物(PM2.5),54,44,104,38,68,174,55,82,58,21,31,2,6,0.9,1.1
2023-10-18T09:00:00,1031A,114.4898,38.1328,石家庄市,西北水源,细颗粒物(PM2.5),54,43,108,38,67,163,34,50,34,20,31,3,6,0.8,1
2023-10-18T09:00:00,1032A,114.4586,38.0058,石家庄市,西南高教,细颗粒物(PM2.5),74,43,98,54,66,168,42,92,65,24,23,4,6,0.9,1.1
2023-10-18T09:00:00,1033A,114.5331,38.0178,石家庄市,世纪公园,细颗粒物(PM2.5),59,58,99,42,63,160,48,62,49,22,23,2,7,0.9,1.2
2023-10-18T09:00:00,1034A,114.509,38.0457,石家庄市,人民会堂,细颗粒物(PM2.5),77,37,89,56,84,173,54,69,58,26,29,3,8,0.7,1.1
2023-10-18T09:00:00,1035A,114.3524,37.8911,石家庄市,封龙山,,46,34,82,32,40,163,80,140,94,18,22,6,10,0.5,0.8
2023-10-18T09:00:00,1037A,118.131,39.6363,唐山市,雷达站,细颗粒物(PM2.5),122,97,99,92,66,145,32,69,60,25,24,1,6,0.9,0.9
2023-10-18T09:00:00,1038A,118.1725,39.6334,唐山市,物资局,,,,95,,61,140,,93,76,32,37,4,9,0.8,0.9
2023-10-18T09:00:00,1040A,118.1705,39.6506,唐山市,十二中,细颗粒物(PM2.5),99,105,94,74,57,134,38,79,69,30,35,3,6,0,0.5
2023-10-18T09:00:00,1041A,118.1869,39.622,唐山市,小山,细颗粒物(PM2.5),108,90,98,81,58,142,39,101,69,21,25,3,5,0.8,0.9
2023-10-18T09:00:00,1042A,119.5134,39.8207,秦皇岛市,北戴河环保局,细颗粒物(PM2.5),64,76,69,46,33,147,60,96,93,46,33,6,11,1.1,0.7
2023-10-18T09:00:00,1043A,119.7493,40.0116,秦皇岛市,第一关,细颗粒物(PM2.5),80,68,78,59,47,145,41,99,73,78,65,8,13,0.6,0.9
2023-10-18T09:00:00,1044A,119.5897,39.9499,秦皇岛市,监测站,细颗粒物(PM2.5),122,90,79,92,52,141,33,92,82,78,34,8,14,1.2,0.9
2023-10-18T09:00:00,1046A,119.5251,39.9041,秦皇岛市,建设大厦,细颗粒物(PM2.5),107,84,82,80,46,140,46,100,79,48,24,2,8,0.9,0.6
2023-10-18T09:00:00,1048A,114.5302,36.6116,邯郸市,东污水处理厂,细颗粒物(PM2.5),98,89,100,73,74,168,81,76,76,29,31,5,6,1.1,0.8
2023-10-18T09:00:00,1049A,114.4918,36.5713,邯郸市,矿院,细颗粒物(PM2.5),114,87,96,86,84,181,94,83,83,24,33,4,6,1.1,0.9
2023-10-18T09:00:00,1050A,114.484,36.6133,邯郸市,丛台公园,细颗粒物(PM2.5),115,82,112,87,80,182,87,81,81,20,26,8,10,1.0,0.8
2023-10-18T09:00:00,1051A,115.493,38.8632,保定市,游泳馆,细颗粒物(PM2.5),108,85,88,81,59,172,54,104,77,27,27,5,7,0.9,0.7
2023-10-18T09:00:00,1052A,115.5213,38.8959,保定市,华电二区,细颗粒物(PM2.5),58,48,67,41,45,164,61,89,68,15,19,4,8,0.7,0.6
2023-10-18T09:00:00,1053A,115.4713,38.9108,保定市,接待中心,颗粒物(PM10),75,100,96,39,48,160,45,82,55,19,23,6,8,0.8,0.7
2023-10-18T09:00:00,1054A,115.4612,38.8416,保定市,地表水厂,细颗粒物(PM2.5),64,55,103,46,48,159,22,93,42,30,33,4,7,0.9,0.8
2023-10-18T09:00:00,1056A,115.5086,38.8639,保定市,监测站,颗粒物(PM10),62,74,81,36,47,175,66,104,77,25,30,6,8,0.7,0.6
2023-10-18T09:00:00,1057A,114.8883,40.8336,张家口市,人民公园,,21,21,49,10,18,96,42,90,54,6,28,3,3,0.3,0.5
2023-10-18T09:00:00,1059A,114.8687,40.8042,张家口市,五金库,,21,21,51,2,20,107,41,94,61,12,26,3,4,0.4,0.4
2023-10-18T09:00:00,1060A,114.8902,40.762,张家口市,世纪豪园,,32,32,53,16,24,93,33,93,55,20,29,2,4,0.4,0.4
2023-10-18T09:00:00,1061A,114.8916,40.8661,张家口市,北泵房,,22,22,45,9,20,118,42,87,46,7,20,6,8,0.1,0.3
2023-10-18T09:00:00,1062A,117.9531,40.9081,承德市,铁路,颗粒物(PM10),62,74,65,30,28,95,26,41,11,58,54,10,8,0.6,0.6
2023-10-18T09:00:00,1063A,117.9392,40.9763,承德市,中国银行,颗粒物(PM10),74,98,60,33,23,102,27,5,5,47,45,7,7,0.9,0.8
2023-10-18T09:00:00,1064A,117.9503,40.928,承德市,开发区,颗粒物(PM10),68,86,64,44,27,108,25,13,12,57,49,8,7,0.8,0.7
2023-10-18T09:00:00,1065A,117.8051,40.9655,承德市,文化中心,,39,39,86,3,34,100,53,40,40,25,54,4,6,0.4,0.8
2023-10-18T09:00:00,1066A,117.9268,41.0026,承德市,离宫,,47,47,52,31,29,109,36,15,15,23,27,1,3,0.5,0.6
2023-10-18T09:00:00,1067A,116.6708,39.5111,廊坊市,药材公司,,45,45,87,22,44,138,31,69,36,29,38,1,4,0.5,0.7
2023-10-18T09:00:00,1068A,116.7214,39.5589,廊坊市,开发区,,43,43,94,24,52,139,32,58,25,30,38,1,2,0.3,0.6
2023-10-18T09:00:00,1070A,116.7244,39.5269,廊坊市,北华航天学院,,48,48,97,17,51,139,39,77,34,30,50,3,6,0.4,0.7
2023-10-18T09:00:00,1071A,116.8842,38.2991,沧州市,沧县城建局,"颗粒物(PM10),细颗粒物(PM2.5)",52,53,136,36,82,213,85,78,78,20,37,3,8,0.4,0.7
2023-10-18T09:00:00,1072A,116.8584,38.3254,沧州市,电视转播站,,,83,137,36,91,207,75,68,68,15,26,3,11,,0.6
2023-10-18T09:00:00,1073A,116.8709,38.3228,沧州市,市环保局,细颗粒物(PM2.5),54,43,136,38,89,190,76,70,70,15,30,3,8,0.4,0.7
2023-10-18T09:00:00,1074A,115.6838,37.7541,衡水市,电机北厂,细颗粒物(PM2.5),103,56,105,77,80,192,69,68,67,15,21,1,5,0.5,0.6
2023-10-18T09:00:00,1075A,115.6303,37.7316,衡水市,市监测站,细颗粒物(PM2.5),72,71,112,52,60,187,75,73,72,19,26,3,5,0.7,0.7
2023-10-18T09:00:00,1077A,114.4704,37.0886,邢台市,达活泉,细颗粒物(PM2.5),113,94,114,85,78,184,58,104,78,8,15,2,8,0.9,1
2023-10-18T09:00:00,1078A,114.5062,37.0349,邢台市,邢师高专,细颗粒物(PM2.5),100,78,100,75,74,184,62,104,83,17,22,5,9,0.9,0.9
2023-10-18T09:00:00,1079A,114.5237,37.0851,邢台市,路桥公司,细颗粒物(PM2.5),89,101,121,66,73,190,55,95,75,20,24,7,10,0.9,0.8
2023-10-18T09:00:00,1080A,114.4725,37.0719,邢台市,市环保局,细颗粒物(PM2.5),78,84,104,57,69,190,66,109,85,5,10,3,6,1.0,1
2023-10-18T09:00:00,1081A,112.522,37.8873,太原市,尖草坪,,,36,103,26,71,160,26,49,22,32,41,,10,0.7,1
2023-10-18T09:00:00,1083A,112.434,38.0108,太原市,上兰,,,,,,,,,,,,,,,,
2023-10-18T09:00:00,1084A,112.469,37.7124,太原市,晋源,细颗粒物(PM2.5),63,63,113,45,90,176,17,48,26,37,36,5,7,1.1,1.1
2023-10-18T09:00:00,1085A,112.5583,37.7394,太原市,小店,,49,45,118,34,75,171,39,42,32,27,43,6,9,0.8,1
2023-10-18T09:00:00,1086A,112.5369,37.8692,太原市,桃园,,39,39,99,22,60,160,38,29,26,32,46,10,10,1.0,1.1
2023-10-18T09:00:00,1087A,112.57,37.8195,太原市,坞城,,38,31,86,26,55,163,48,62,58,28,33,14,9,1.3,1.1
2023-10-18T09:00:00,1088A,112.549,37.9854,太原市,南寨,,34,34,108,20,71,124,30,12,12,31,50,2,9,0.7,1.4
2023-10-18T09:00:00,1090A,111.6507,40.7517,呼和浩特市,呼市一监,颗粒物(PM10),65,80,60,25,32,85,16,52,33,37,35,9,11,0.7,0.7
2023-10-18T09:00:00,1091A,111.6572,40.8033,呼和浩特市,小召,颗粒物(PM10),63,75,66,15,26,83,14,42,35,45,40,8,10,0.7,0.7
2023-10-18T09:00:00,1094A,111.7516,40.8369,呼和浩特市,如意水处理厂,颗粒物(PM10),53,56,67,15,25,100,19,41,33,40,38,11,13,0.6,0.5
2023-10-18T09:00:00,1095A,111.7276,40.8062,呼和浩特市,二十九中,,49,49,68,16,30,95,17,50,39,40,42,9,12,0.6,0.6
2023-10-18T09:00:00,1096A,111.5512,40.7866,呼和浩特市,工大金川校区,颗粒物(PM10),53,56,72,22,32,72,18,51,35,37,40,17,10,0.6,0.6
2023-10-18T09:00:00,1097A,111.717,40.7612,呼和浩特市,化肥厂生活区,,48,48,72,18,33,89,16,40,31,31,33,10,14,0.6,0.7
2023-10-18T09:00:00,1098A,123.6836,41.9339,沈阳市,森林路,,,,,,,,,,,,,,,,
2023-10-18T09:00:00,1099A,123.505,41.7406,沈阳市,浑南东路,颗粒物(PM10),52,53,57,29,27,119,54,87,82,33,27,8,16,0.9,0.9
2023-10-18T09:00:00,1100A,123.4231,41.6989,沈阳市,新秀街,颗粒物(PM10),52,53,71,33,32,118,31,91,81,49,33,10,32,0.8,0.9
2023-10-18T09:00:00,1102A,123.5903,41.8411,沈阳市,东陵路,细颗粒物(PM2.5),55,35,58,39,31,129,55,72,71,27,27,9,15,0.8,0.8
2023-10-18T09:00:00,1103A,123.4264,41.8467,沈阳市,陵东街,颗粒物(PM10),52,53,57,31,29,123,30,106,86,26,21,6,15,1.0,0.9
2023-10-18T09:00:00,1104A,123.4114,41.7653,沈阳市,文化路,颗粒物(PM10),56,61,68,35,36,126,35,102,85,37,24,9,26,1.0,0.9
2023-10-18T09:00:00,1105A,123.4678,41.7867,沈阳市,小河沿,颗粒物(PM10),59,67,61,39,30,123,37,100,85,38,28,7,15,0.9,0.8
2023-10-18T09:00:00,1106A,123.4017,41.7972,沈阳市,太原街,,46,46,56,31,32,125,18,105,84,50,31,6,16,0.8,0.7
2023-10-18T09:00:00,1108A,123.3783,41.9228,沈阳市,京沈街,,,,58,25,32,125,36,112,89,7,9,,15,0.7,0.7
2023-10-18T09:00:00,1109A,121.612,38.9741,大连市,甘井子,细颗粒物(PM2.5),122,191,84,92,34,131,68,117,107,70,26,5,5,1.1,0.8
2023-10-18T09:00:00,1110A,121.565,38.9511,大连市,周水子,细颗粒物(PM2.5),94,131,66,70,31,121,57,116,101,70,23,8,9,1.5,0.9
2023-10-18T09:00:00,1111A,121.5637,38.8845,大连市,星海三站,细颗粒物(PM2.5),92,115,60,68,30,137,119,124,124,28,15,10,12,0.9,0.6
2023-10-18T09:00:00,1112A,121.6302,38.9117,大连市,青泥洼桥,细颗粒物(PM2.5),79,90,50,58,28,113,104,110,105,23,17,7,8,1.1,0.6
2023-10-18T09:00:00,1113A,121.6251,38.8638,大连市,傅家庄,细颗粒物(PM2.5),85,113,55,63,26,143,129,130,130,16,14,7,8,0.9,0.5
2023-10-18T09:00:00,1114A,121.5213,38.8661,大连市,七贤岭,颗粒物(PM10),94,137,68,57,26,153,100,124,123,45,22,6,7,1.2,0.6
2023-10-18T09:00:00,1115A,121.2529,38.8061,大连市,旅顺,颗粒物(PM10),75,99,58,42,24,138,127,130,126,21,17,7,7,1.1,0.7
2023-10-18T09:00:00,1116A,121.7485,39.1311,大连市,金州,颗粒物(PM10),74,98,60,45,28,137,118,119,119,19,19,9,9,0.8,0.5
2023-10-18T09:00:00,1117A,121.7811,39.0496,大连市,开发区,细颗粒物(PM2.5),90,95,44,67,26,128,104,114,114,52,22,7,8,1.2,0.6
2023-10-18T09:00:00,1118A,121.9762,39.0631,大连市,双D港,细颗粒物(PM2.5),59,48,36,42,23,139,78,119,115,24,19,7,8,0.9,0.6
2023-10-18T09:00:00,1119A,125.3325,43.9166,长春市,食品厂,,29,28,50,20,24,77,29,72,53,28,29,6,7,0.4,0.5
2023-10-18T09:00:00,1120A,125.2863,43.9027,长春市,客车厂,,36,36,46,17,27,78,22,73,51,33,24,8,8,0.6,0.6
2023-10-18T09:00:00,1121A,125.2841,43.8463,长春市,邮电学院,,28,28,54,12,26,81,30,74,58,28,25,7,8,0.4,0.5
2023-10-18T09:00:00,1122A,125.3716,43.8772,长春市,劳动公园,,,,55,,24,79,25,66,50,28,25,5,7,0.3,0.5
2023-10-18T09:00:00,1123A,125.3297,43.8805,长春市,园林处,,24,24,45,6,21,85,31,75,58,25,23,8,9,0.4,0.5
2023-10-18T09:00:00,1124A,125.4605,43.79,长春市,净月潭,,25,25,33,13,19,83,30,70,54,19,13,7,8,0.4,0.4
2023-10-18T09:00:00,1125A,125.7194,43.515,长春市,甩湾子,,,,,,,,,,,,,,,,
2023-10-18T09:00:00,1126A,125.3863,43.8447,长春市,经开区环卫处,,18,18,54,10,26,76,26,48,43,28,34,5,7,0.4,0.5
2023-10-18T09:00:00,1127A,125.245,43.7783,长春市,高新区管委会,,38,38,44,9,63,84,26,62,53,27,24,6,7,0.4,0.5
2023-10-18T09:00:00,1128A,125.1761,43.8325,长春市,岱山公园,,30,30,57,11,24,79,28,62,54,29,35,5,7,0.5,0.6
2023-10-18T09:00:00,1129A,126.5422,45.755,哈尔滨市,岭北,,22,22,52,12,27,81,36,56,43,13,16,4,5,0.4,0.3
2023-10-18T09:00:00,1130A,126.561,45.8167,哈尔滨市,松北商大,,42,42,52,15,21,73,22,51,31,35,23,22,9,0.5,0.5
2023-10-18T09:00:00,1131A,126.979,45.5419,哈尔滨市,阿城会宁,颗粒物(PM10),57,64,52,29,21,78,14,68,46,45,17,8,7,0.8,0.6
2023-10-18T09:00:00,1132A,126.599,45.7222,哈尔滨市,南岗学府路,,34,34,59,7,23,73,27,49,35,28,24,8,7,0.5,0.5
2023-10-18T09:00:00,1133A,126.689,45.7733,哈尔滨市,太平宏伟公园,,,24,63,13,30,72,30,53,41,25,25,,6,0.6,0.6
2023-10-18T09:00:00,1134A,126.635,45.7667,哈尔滨市,道外承德广场,,34,34,55,15,28,74,26,54,37,31,30,8,7,0.6,0.5
2023-10-18T09:00:00,1135A,126.685,45.7319,哈尔滨市,香坊红旗大街,,22,22,63,11,30,70,31,47,35,32,36,14,10,0.5,0.5
2023-10-18T09:00:00,1136A,126.6411,45.7258,哈尔滨市,动力和平路,,30,30,57,18,25,65,26,44,32,29,33,12,14,0.5,0.5
2023-10-18T09:00:00,1137A,126.593,45.7478,哈尔滨市,道里建国路,,32,32,58,20,23,75,28,60,38,30,27,9,10,0.2,0.6
2023-10-18T09:00:00,1138A,126.615,45.61,哈尔滨市,平房东轻厂,,32,31,59,22,26,81,26,54,37,30,19,10,9,0.3,0.3
2023-10-18T09:00:00,1139A,126.595,45.9855,哈尔滨市,呼兰师专,,30,30,55,10,25,73,40,64,46,15,23,4,5,0.6,0.7
2023-10-18T09:00:00,1140A,126.6206,45.6842,哈尔滨市,省农科院,,36,36,65,17,32,78,34,47,37,28,33,7,6,0.3,0.3
2023-10-18T09:00:00,1141A,121.4,31.238,上海市,普陀,细颗粒物(PM2.5),75,75,55,55,40,169,97,96,86,34,33,10,6,0.9,0.8
2023-10-18T09:00:00,1142A,121.478,31.2036,上海市,十五厂,颗粒物(PM10),58,66,57,36,30,170,89,86,66,46,41,7,7,0.8,0.7
2023-10-18T09:00:00,1143A,121.467,31.3008,上海市,虹口,细颗粒物(PM2.5),69,64,51,50,37,155,113,103,77,34,44,10,10,0.8,0.7
2023-10-18T09:00:00,1144A,121.412,31.1654,上海市,徐汇上师大,细颗粒物(PM2.5),83,83,56,61,46,178,85,84,65,51,41,13,10,1.0,0.7
2023-10-18T09:00:00,1145A,121.536,31.2659,上海市,杨浦四漂,,,,,,,,,,,,,,,,
2023-10-18T09:00:00,1147A,121.425,31.2261,上海市,静安监测站,细颗粒物(PM2.5),73,70,51,53,42,182,100,100,82,41,36,7,6,0.8,0.7
2023-10-18T09:00:00,1148A,121.703,31.1907,上海市,浦东川沙,,48,44,46,33,33,164,106,87,84,20,30,7,7,0.6,0.6
2023-10-18T09:00:00,1149A,121.533,31.2284,上海市,浦东新区监测站,颗粒物(PM10),55,59,51,38,33,164,87,90,77,41,37,8,8,0.7,0.7
2023-10-18T09:00:00,1150A,121.577,31.2071,上海市,浦东张江,细颗粒物(PM2.5),59,58,52,42,36,147,90,91,73,41,37,6,6,1.1,1
2023-10-18T09:00:00,1151A,118.8086,32.1065,南京市,迈皋桥,细颗粒物(PM2.5),73,93,83,53,44,200,117,200,113,40,25,6,5,0.6,0.5
2023-10-18T09:00:00,1152A,118.7538,32.0551,南京市,草场门,细颗粒物(PM2.5),85,97,80,63,52,194,103,162,113,40,35,6,5,1.0,0.9
2023-10-18T09:00:00,1153A,118.7794,32.0745,南京市,山西路,细颗粒物(PM2.5),85,97,83,63,54,214,121,173,142,29,19,8,8,0.7,0.6
2023-10-18T09:00:00,1154A,118.7752,32.0023,南京市,中华门,细颗粒物(PM2.5),85,110,91,63,55,197,113,147,113,33,27,7,6,1.0,0.8
2023-10-18T09:00:00,1155A,118.8109,32.0309,南京市,瑞金路,颗粒物(PM10),90,129,92,51,48,186,98,143,96,44,31,12,13,0.5,0.5
2023-10-18T09:00:00,1156A,118.7997,32.0754,南京市,玄武湖,细颗粒物(PM2.5),88,72,67,65,49,197,114,170,133,24,18,8,8,0.8,0.7
2023-10-18T09:00:00,1157A,118.6414,32.0931,南京市,浦口,细颗粒物(PM2.5),95,112,89,71,51,187,96,152,118,46,34,8,7,0.9,0.8
2023-10-18T09:00:00,1158A,118.7356,31.9996,南京市,奥体中心,"颗粒物(PM10),细颗粒物(PM2.5)",83,115,88,61,53,197,113,157,111,33,30,11,10,0.5,0.4
2023-10-18T09:00:00,1159A,118.9125,32.1028,南京市,仙林大学城,细颗粒物(PM2.5),85,78,79,63,57,216,107,154,119,27,24,4,4,0.8,0.8
2023-10-18T09:00:00,1160A,120.561,31.2472,苏州市,上方山,颗粒物(PM10),71,91,75,45,43,205,115,84,73,34,22,6,5,0.8,0.7
2023-10-18T09:00:00,1162A,120.591,31.3019,苏州市,彩香,细颗粒物(PM2.5),63,70,73,45,45,210,124,105,102,34,23,10,9,0.9,0.8
2023-10-18T09:00:00,1163A,120.596,31.3264,苏州市,轧钢厂,颗粒物(PM10),59,68,80,40,44,212,134,108,106,24,19,14,12,0.8,0.8
2023-10-18T09:00:00,1164A,120.613,31.2703,苏州市,吴中区,颗粒物(PM10),59,67,73,40,40,208,120,96,92,35,29,12,10,0.8,0.7
2023-10-18T09:00:00,1165A,120.543,31.2994,苏州市,苏州新区,细颗粒物(PM2.5),64,69,78,46,49,207,130,111,100,42,34,10,11,0.9,0.8
2023-10-18T09:00:00,1166A,120.669,31.3097,苏州市,苏州工业园区,细颗粒物(PM2.5),62,62,63,44,40,208,132,106,106,31,28,10,10,0.8,0.8
2023-10-18T09:00:00,1167A,120.641,31.3708,苏州市,相城区,颗粒物(PM10),60,69,62,38,41,202,123,91,91,42,39,12,11,0.9,0.9
2023-10-18T09:00:00,1168A,120.9098,31.9663,南通市,狼山街道,颗粒物(PM10),59,68,52,33,30,196,93,44,44,45,36,9,8,0.5,0.5
2023-10-18T09:00:00,1169A,120.86,32.0005,南通市,虹桥,,,,67,,41,220,96,85,85,45,48,10,13,,0.7
2023-10-18T09:00:00,1170A,120.87,32.02,南通市,城中,细颗粒物(PM2.5),62,69,57,44,35,203,91,66,66,46,40,11,10,0.7,0.7
2023-10-18T09:00:00,1171A,120.94,31.93,南通市,星湖花园,颗粒物(PM10),65,79,62,44,32,207,89,67,67,38,34,9,8,0.7,0.6
2023-10-18T09:00:00,1172A,120.81,32.0417,南通市,紫琅学院,颗粒物(PM10),62,73,67,41,34,184,95,69,69,46,49,11,10,0.5,0.5
2023-10-18T09:00:00,1173A,119.176,34.5885,连云港市,市环境监测站,细颗粒物(PM2.5),117,110,98,88,64,168,59,116,68,24,21,13,13,0.8,0.7
2023-10-18T09:00:00,1177A,117.179,34.2761,徐州市,黄河新村,细颗粒物(PM2.5),108,122,108,81,65,197,101,130,115,44,31,14,9,0.6,0.5
2023-10-18T09:00:00,1178A,117.1918,34.2384,徐州市,淮塔,细颗粒物(PM2.5),119,139,116,90,67,204,100,119,113,45,31,14,11,0.8,0.7
2023-10-18T09:00:00,1180A,117.256,34.2153,徐州市,新城区,细颗粒物(PM2.5),119,142,122,90,70,201,106,118,94,44,35,12,9,0.9,0.8
2023-10-18T09:00:00,1181A,117.244,34.2911,徐州市,桃园路,细颗粒物(PM2.5),108,132,111,81,61,202,110,140,113,38,27,14,10,0.8,0.7
2023-10-18T09:00:00,1182A,117.2933,34.2778,徐州市,农科院,细颗粒物(PM2.5),119,129,105,90,63,194,103,109,105,43,32,12,10,0.9,0.8
2023-10-18T09:00:00,1186A,119.389,32.3761,扬州市,邗江监测站,颗粒物(PM10),79,107,112,36,48,260,95,101,88,42,44,10,10,0.7,0.7
2023-10-18T09:00:00,1188A,120.269,31.4867,无锡市,雪浪,细颗粒物(PM2.5),73,75,79,53,48,229,131,105,98,22,26,8,9,0.8,0.9
2023-10-18T09:00:00,1189A,120.275,31.6219,无锡市,黄巷,颗粒物(PM10),88,125,97,48,45,203,97,101,71,50,58,9,9,1.0,1
2023-10-18T09:00:00,1190A,120.294,31.56,无锡市,曹张,细颗粒物(PM2.5),70,64,64,51,49,208,110,104,84,36,37,9,10,1.0,1
2023-10-18T09:00:00,1191A,120.242,31.5031,无锡市,漆塘,细颗粒物(PM2.5),64,70,78,46,52,239,146,116,116,23,26,9,9,0.7,0.9
2023-10-18T09:00:00,1192A,120.3489,31.5863,无锡市,东亭,,,97,83,56,50,217,,92,67,48,53,,8,1.3,1.2
2023-10-18T09:00:00,1193A,120.354,31.5475,无锡市,旺庄,,,90,79,48,46,203,,93,80,67,61,8,8,0.9,0.9
2023-10-18T09:00:00,1194A,120.245,31.5631,无锡市,荣巷,细颗粒物(PM2.5),67,73,75,48,51,229,130,103,96,25,28,11,11,1.0,1
2023-10-18T09:00:00,1195A,120.299,31.6817,无锡市,堰桥,颗粒物(PM10),70,90,88,48,48,210,89,88,76,48,36,11,12,0.9,0.8
2023-10-18T09:00:00,1196A,119.9633,31.762,常州市,市监测站,"颗粒物(PM10),细颗粒物(PM2.5)",88,126,117,65,69,224,115,99,99,34,45,10,11,0.8,0.8
2023-10-18T09:00:00,1200A,119.9468,31.7069,常州市,武进监测站,颗粒物(PM10),87,123,111,57,60,226,119,118,106,21,28,19,16,0.8,0.8
2023-10-18T09:00:00,1201A,119.9255,31.9087,常州市,安家,细颗粒物(PM2.5),102,113,118,76,78,241,107,55,55,33,42,12,11,1.1,1
2023-10-18T09:00:00,1203A,119.6707,32.1875,镇江市,新区办事处,细颗粒物(PM2.5),99,68,93,74,72,262,86,53,48,45,55,7,6,1.0,0.7
2023-10-18T09:00:00,1204A,119.4974,32.1968,镇江市,职教中心,细颗粒物(PM2.5),128,65,84,97,86,256,96,86,84,33,33,9,9,0.8,0.8
2023-10-18T09:00:00,1205A,119.4303,32.1328,镇江市,丹徒区监测站,细颗粒物(PM2.5),129,73,98,98,79,245,79,88,83,43,36,8,8,0.7,0.7
2023-10-18T09:00:00,1206A,119.905,32.4878,泰州市,公园路,细颗粒物(PM2.5),92,90,100,68,69,236,82,61,60,31,28,12,12,0.9,0.9
2023-10-18T09:00:00,1207A,119.9189,32.4625,泰州市,莲花,细颗粒物(PM2.5),94,110,110,70,68,247,79,62,59,31,29,9,9,0.9,0.9
2023-10-18T09:00:00,1209A,119.888,32.4639,泰州市,留学生创业园,,,76,102,66,61,244,,82,80,30,26,11,12,1.0,0.9
2023-10-18T09:00:00,1210A,119.036,33.5981,淮安市,钵池山,细颗粒物(PM2.5),144,95,90,110,80,188,,118,74,33,27,11,12,1.1,1.1
2023-10-18T09:00:00,1211A,119.007,33.575,淮安市,北京南路,细颗粒物(PM2.5),153,102,97,117,81,201,71,116,70,33,32,8,12,1.0,0.9
2023-10-18T09:00:00,1212A,118.989,33.6067,淮安市,市监测站,细颗粒物(PM2.5),104,122,106,78,70,203,76,138,82,36,30,12,15,0.9,1
2023-10-18T09:00:00,1213A,119.135,33.5039,淮安市,楚州区监测站,细颗粒物(PM2.5),135,122,112,103,92,200,63,67,39,40,43,12,12,1.1,1
2023-10-18T09:00:00,1214A,119.0186,33.6297,淮安市,淮阴区监测站,细颗粒物(PM2.5),140,158,126,107,83,195,85,135,86,34,30,10,13,1.0,1
2023-10-18T09:00:00,1215A,120.118,33.4022,盐城市,盐城电厂,颗粒物(PM10),73,95,72,48,39,192,102,96,67,23,18,14,10,1.0,0.8
2023-10-18T09:00:00,1216A,120.156,33.3942,盐城市,市监测站,细颗粒物(PM2.5),75,71,53,55,40,214,69,85,40,36,23,10,8,0.9,0.7
2023-10-18T09:00:00,1218A,120.2144,33.38,盐城市,开发区管委会,细颗粒物(PM2.5),70,75,56,51,30,198,74,68,39,29,21,11,10,0.8,0.6
2023-10-18T09:00:00,1220A,118.293,33.9528,宿迁市,宿迁学院,细颗粒物(PM2.5),115,142,116,87,68,197,127,161,121,29,36,12,13,0.8,0.8
2023-10-18T09:00:00,1221A,118.2442,33.9592,宿迁市,宿迁中学,细颗粒物(PM2.5),124,109,110,94,72,189,117,161,138,28,25,10,11,0.7,0.7
2023-10-18T09:00:00,1223A,120.2072,30.2111,杭州市,滨江,颗粒物(PM10),67,84,108,46,58,214,76,106,66,45,42,8,9,0.9,0.7
2023-10-18T09:00:00,1224A,120.0633,30.2747,杭州市,西溪,细颗粒物(PM2.5),105,83,69,79,62,210,47,20,15,56,33,5,6,0.8,0.7
2023-10-18T09:00:00,1226A,120.3461,30.3153,杭州市,下沙,细颗粒物(PM2.5),69,72,94,50,66,233,56,100,38,89,56,9,10,0.8,0.8
2023-10-18T09:00:00,1227A,120.1269,30.2456,杭州市,卧龙桥,细颗粒物(PM2.5),94,79,72,70,51,218,48,33,26,46,27,5,5,0.9,0.8
2023-10-18T09:00:00,1228A,120.1903,30.2692,杭州市,浙江农大,细颗粒物(PM2.5),65,65,81,47,61,202,76,58,48,36,33,8,8,0.9,0.8
2023-10-18T09:00:00,1230A,120.1197,30.3119,杭州市,和睦小学,细颗粒物(PM2.5),84,72,75,62,57,206,65,93,40,40,39,8,10,0.9,0.8
2023-10-18T09:00:00,1231A,120.3019,30.4183,杭州市,临平镇,颗粒物(PM10),76,101,116,54,68,228,77,102,54,61,41,8,8,0.7,0.7
2023-10-18T09:00:00,1232A,120.2697,30.1819,杭州市,城厢镇,细颗粒物(PM2.5),87,79,93,64,69,205,71,94,51,48,44,9,9,0.8,0.7
2023-10-18T09:00:00,1233A,120.0883,30.1808,杭州市,云栖,细颗粒物(PM2.5),84,107,82,62,53,204,48,51,30,50,32,7,7,0.9,0.8
2023-10-18T09:00:00,1234A,121.8358,29.911,宁波市,区环保大楼,,40,36,47,23,34,217,126,74,45,33,49,6,8,0.6,0.8
2023-10-18T09:00:00,1235A,121.56,29.82,宁波市,万里学院,"颗粒物(PM10),细颗粒物(PM2.5)",69,88,98,50,54,256,96,32,32,28,46,10,11,0.9,0.9
2023-10-18T09:00:00,1236A,121.713,29.9572,宁波市,龙赛医院,颗粒物(PM10),53,56,69,31,37,235,82,107,67,45,39,7,7,0.8,0.8
2023-10-18T09:00:00,1239A,121.633,29.7733,宁波市,钱湖水厂,细颗粒物(PM2.5),59,61,67,42,41,248,102,128,88,15,16,8,8,0.7,0.7
2023-10-18T09:00:00,1240A,121.5856,29.8635,宁波市,太古小学,颗粒物(PM10),64,77,91,32,42,267,99,83,65,40,38,8,9,0.9,0.8
2023-10-18T09:00:00,1241A,121.524,29.8674,宁波市,市环境监测中心,颗粒物(PM10),55,60,76,36,42,289,127,61,61,27,40,10,11,0.7,0.7
2023-10-18T09:00:00,1242A,120.634,28.0089,温州市,瓯海,细颗粒物(PM2.5),72,81,73,52,44,158,58,24,22,47,46,9,8,0.8,0.7
2023-10-18T09:00:00,1243A,120.6748,27.9939,温州市,南浦,细颗粒物(PM2.5),64,73,76,46,46,164,66,60,33,38,41,8,7,0.6,0.6
2023-10-18T09:00:00,1244A,120.76,27.9747,温州市,龙湾,,,70,66,42,37,169,,70,44,42,33,6,6,0.7,0.6
2023-10-18T09:00:00,1245A,120.6709,28.0167,温州市,市站,细颗粒物(PM2.5),74,82,74,54,45,160,57,59,58,45,35,8,8,0.7,0.6
2023-10-18T09:00:00,1247A,120.6053,29.9928,绍兴市,城东开发委,细颗粒物(PM2.5),68,73,84,49,57,209,98,78,78,30,29,8,10,0.8,0.8
2023-10-18T09:00:00,1250A,120.0751,30.8669,湖州市,城西水厂,细颗粒物(PM2.5),112,112,108,84,69,215,,117,71,57,45,6,6,0.8,0.6
2023-10-18T09:00:00,1252A,120.7436,30.778,嘉兴市,清河小学,颗粒物(PM10),55,59,65,34,39,228,138,134,134,24,23,7,8,0.8,0.7
2023-10-18T09:00:00,1253A,120.726,30.7478,嘉兴市,嘉兴学院,颗粒物(PM10),56,62,63,37,45,221,141,124,124,21,20,8,8,0.7,0.7
2023-10-18T09:00:00,1255A,121.273,28.6459,台州市,黄岩环保大楼,细颗粒物(PM2.5),59,52,44,42,44,200,94,98,92,26,20,7,7,0.7,0.6
2023-10-18T09:00:00,1256A,121.419,28.6542,台州市,台州环保大楼,细颗粒物(PM2.5),74,80,79,54,46,189,80,59,56,40,25,7,6,0.7,0.6
2023-10-18T09:00:00,1257A,121.377,28.5773,台州市,路桥田洋王,细颗粒物(PM2.5),70,63,70,51,54,179,82,56,56,31,28,7,8,0.7,0.7
2023-10-18T09:00:00,1258A,122.122,30.0203,舟山市,定海檀枫,,30,30,46,21,22,190,78,73,57,28,14,8,7,0.6,0.6
2023-10-18T09:00:00,1259A,122.3094,29.9558,舟山市,普陀东港,,31,10,26,12,19,179,99,103,80,10,11,6,6,0.3,0.4
2023-10-18T09:00:00,1260A,122.19,29.9944,舟山市,临城新区,,32,32,36,18,21,188,83,79,58,29,17,6,5,0.5,0.5
2023-10-18T09:00:00,1262A,119.647,29.077,金华市,十五中,细颗粒物(PM2.5),63,71,56,45,39,175,88,92,81,38,39,5,5,0.5,0.5
2023-10-18T09:00:00,1263A,119.686,29.1029,金华市,监测站,细颗粒物(PM2.5),69,86,69,50,43,182,69,38,27,51,58,6,6,0.9,0.8
2023-10-18T09:00:00,1264A,118.8692,28.9398,衢州市,环保大楼,细颗粒物(PM2.5),75,83,68,55,45,163,51,54,36,44,32,11,6,0.8,0.7
2023-10-18T09:00:00,1265A,118.8709,28.9666,衢州市,实验学校,,,85,62,53,42,176,,70,52,43,28,9,7,0.7,0.6
2023-10-18T09:00:00,1266A,118.8621,28.9808,衢州市,衢州学院,细颗粒物(PM2.5),77,80,58,56,37,172,61,62,50,38,30,10,7,0.6,0.6
2023-10-18T09:00:00,1267A,119.914,28.4514,丽水市,监测站大楼,细颗粒物(PM2.5),57,52,50,40,32,153,50,55,29,27,29,10,8,0.6,0.4
2023-10-18T09:00:00,1268A,119.93,28.4586,丽水市,莲都小学,细颗粒物(PM2.5),62,65,57,44,30,153,45,50,30,31,32,6,7,0.4,0.3
2023-10-18T09:00:00,1269A,119.879,28.4231,丽水市,余庄前,细颗粒物(PM2.5),68,69,45,49,31,151,33,33,14,34,18,7,6,0.4,0.3
2023-10-18T09:00:00,1270A,117.1959,31.7848,合肥市,明珠广场,颗粒物(PM10),74,97,73,53,37,166,66,82,65,38,35,12,12,0.8,0.7
2023-10-18T09:00:00,1271A,117.3072,31.8764,合肥市,三里街,颗粒物(PM10),78,105,81,56,42,142,46,84,65,63,49,7,9,1.0,0.8
2023-10-18T09:00:00,1272A,117.2588,31.8707,合肥市,琥珀山庄,颗粒物(PM10),71,92,74,48,35,159,71,116,79,43,34,7,8,0.7,0.5
2023-10-18T09:00:00,1273A,117.1604,31.9052,合肥市,董铺水库,颗粒物(PM10),65,80,86,44,38,148,76,106,64,38,37,18,36,0.7,0.5
2023-10-18T09:00:00,1274A,117.25,31.8571,合肥市,长江中路,颗粒物(PM10),74,97,78,51,42,151,66,108,76,40,35,10,12,0.7,0.5
2023-10-18T09:00:00,1275A,117.266,31.9436,合肥市,庐阳区,颗粒物(PM10),78,105,80,56,42,147,75,79,64,38,47,6,7,0.8,0.6
2023-10-18T09:00:00,1276A,117.336,31.8586,合肥市,瑶海区,,,,93,,41,142,,64,59,,51,,7,,0.6
2023-10-18T09:00:00,1277A,117.3027,31.7964,合肥市,包河区,"颗粒物(PM10),细颗粒物(PM2.5)",77,103,77,56,40,159,89,66,29,25,60,3,5,0.8,0.7
2023-10-18T09:00:00,1278A,117.2776,31.7385,合肥市,滨湖新区,颗粒物(PM10),64,78,67,44,35,170,85,125,91,20,14,10,10,0.4,0.3
2023-10-18T09:00:00,1279A,117.1318,31.8403,合肥市,高新区,细颗粒物(PM2.5),74,85,69,54,34,160,80,115,90,39,28,11,11,0.9,0.7
2023-10-18T09:00:00,1280A,119.3903,26.0543,福州市,鼓山,,,,,,,,,,,,,,,,
2023-10-18T09:00:00,1282A,119.2681,26.0504,福州市,师大,颗粒物(PM10),52,54,45,30,29,173,86,89,83,14,12,9,7,0.6,0.5
2023-10-18T09:00:00,1283A,119.2984,26.1028,福州市,五四北路,颗粒物(PM10),57,63,42,31,30,166,90,113,92,19,12,4,4,0.6,0.5
2023-10-18T09:00:00,1284A,119.2648,26.0768,福州市,杨桥西路,颗粒物(PM10),56,61,47,35,29,168,80,100,82,19,13,6,5,0.6,0.5
2023-10-18T09:00:00,1285A,119.317,26.0746,福州市,紫阳,颗粒物(PM10),54,57,45,30,29,160,88,124,99,17,9,6,6,0.6,0.5
2023-10-18T09:00:00,1286A,118.1608,24.8169,厦门市,溪东,,,,,,,,,,,,,,,,
2023-10-18T09:00:00,1287A,118.1514,24.4767,厦门市,洪文,,46,46,59,28,32,163,89,107,101,15,9,1,2,0.4,0.4
2023-10-18T09:00:00,1288A,118.0661,24.4444,厦门市,鼓浪屿,,39,39,54,26,31,157,64,105,90,40,11,4,3,0.6,0.6
2023-10-18T09:00:00,1290A,115.8931,28.6843,南昌市,省外办,颗粒物(PM10),78,106,86,46,44,164,48,17,16,39,43,11,9,1.0,0.9
2023-10-18T09:00:00,1291A,115.8886,28.7003,南昌市,省林业公司,细颗粒物(PM2.5),89,119,92,66,47,175,31,8,8,60,66,12,11,0.9,0.8
2023-10-18T09:00:00,1292A,115.8126,28.7442,南昌市,林科所,颗粒物(PM10),76,102,57,53,32,191,73,118,94,40,20,17,11,0.7,0.6
2023-10-18T09:00:00,1294A,115.8518,28.687,南昌市,建工学校,,,115,84,43,44,169,,33,32,,49,,11,0.7,0.6
2023-10-18T09:00:00,1295A,115.8921,28.6424,南昌市,象湖,颗粒物(PM10),67,83,74,36,43,168,71,15,15,24,50,13,10,0.8,0.8
2023-10-18T09:00:00,1296A,115.7423,28.7996,南昌市,武术学校,,20,20,22,9,17,169,26,22,14,8,8,2,4,0.4,0.4
2023-10-18T09:00:00,1298A,115.9314,28.6842,南昌市,省站,颗粒物(PM10),77,104,101,53,48,163,68,18,18,29,46,25,13,1.6,0.7
2023-10-18T09:00:00,1299A,116.9862,36.6114,济南市,科干所,颗粒物(PM10),82,114,83,49,33,184,72,145,130,43,19,12,9,0.9,0.6
2023-10-18T09:00:00,1300A,116.9376,36.665,济南市,农科所,颗粒物(PM10),74,98,84,39,31,165,56,119,104,44,26,11,7,0.8,0.6
2023-10-18T09:00:00,1301A,117.1265,36.6734,济南市,开发区,颗粒物(PM10),70,90,67,37,28,172,88,148,130,43,33,11,8,0.8,0.7
2023-10-18T09:00:00,1303A,117.0624,36.6868,济南市,省种子仓库,颗粒物(PM10),76,102,78,41,28,185,71,150,132,40,24,13,8,0.9,0.6
2023-10-18T09:00:00,1304A,116.9489,36.6447,济南市,机床二厂,颗粒物(PM10),83,115,95,51,36,180,62,136,114,42,21,14,7,1.0,0.5
2023-10-18T09:00:00,1305A,117.0495,36.663,济南市,市监测站,颗粒物(PM10),77,103,76,42,32,188,75,153,135,52,32,13,9,0.8,0.6
2023-10-18T09:00:00,1306A,116.7675,36.5484,济南市,长清党校,颗粒物(PM10),81,112,93,54,40,183,60,128,103,47,25,13,11,0.9,0.6
2023-10-18T09:00:00,1307A,120.6659,36.2403,青岛市,仰口,,,88,52,48,31,165,,,,47,22,3,9,1.5,0.9
2023-10-18T09:00:00,1310A,120.4134,36.0658,青岛市,市南区东部子站,颗粒物(PM10),65,80,51,41,20,164,143,153,153,19,12,12,8,0.9,0.5
2023-10-18T09:00:00,1311A,120.3664,36.1032,青岛市,四方区子站,颗粒物(PM10),75,100,59,51,25,165,127,144,144,33,18,9,6,1.0,0.7
2023-10-18T09:00:00,1312A,120.2994,36.054,青岛市,市南区西部子站,细颗粒物(PM2.5),74,92,60,54,22,158,139,145,145,19,12,10,8,0.7,0.5
2023-10-18T09:00:00,1313A,120.4581,36.0858,青岛市,崂山区子站,颗粒物(PM10),70,90,55,48,25,166,144,153,153,24,15,11,8,0.9,0.6
2023-10-18T09:00:00,1314A,120.1983,35.9608,青岛市,黄岛区子站,细颗粒物(PM2.5),80,90,56,59,31,155,133,144,144,30,21,10,9,0.8,0.6
2023-10-18T09:00:00,1315A,120.3999,36.3083,青岛市,城阳区子站,颗粒物(PM10),76,102,60,51,26,142,122,119,119,50,27,11,8,1.0,0.7
2023-10-18T09:00:00,1316A,113.69031,34.76122,郑州市,烟厂,颗粒物(PM10),54,58,116,33,54,175,47,111,81,21,37,6,8,0.7,0.8
2023-10-18T09:00:00,1317A,113.65724,34.77134,郑州市,郑纺机,颗粒物(PM10),56,61,108,31,49,169,48,101,77,21,43,6,8,0.9,1
2023-10-18T09:00:00,1318A,113.67526,34.80246,郑州市,银行学校,细颗粒物(PM2.5),57,44,98,40,80,173,51,112,82,18,32,7,9,0.6,0.7
2023-10-18T09:00:00,1319A,113.56746,34.81334,郑州市,供水公司,颗粒物(PM10),53,55,122,36,58,168,48,106,79,22,34,8,9,0.9,1
2023-10-18T09:00:00,1320A,113.7329,34.7178,郑州市,经开区管委,颗粒物(PM10),53,55,126,33,52,176,50,103,78,19,37,6,8,0.7,0.7
2023-10-18T09:00:00,1321A,113.73961,34.77172,郑州市,四十七中,细颗粒物(PM2.5),52,50,116,36,53,179,51,110,83,22,40,6,8,0.8,0.9
2023-10-18T09:00:00,1322A,113.60532,34.74838,郑州市,市监测站,颗粒物(PM10),51,51,113,34,63,170,43,105,74,23,45,5,7,0.6,0.7
2023-10-18T09:00:00,1323A,113.64164,34.7525,郑州市,河医大,细颗粒物(PM2.5),53,42,119,37,55,170,43,98,74,18,29,8,10,0.9,0.9
2023-10-18T09:00:00,1324A,113.51488,34.91089,郑州市,岗李水库,,,,,,,,,,,,,,,,
2023-10-18T09:00:00,1325A,114.3677,30.5584,武汉市,东湖梨园,细颗粒物(PM2.5),68,77,58,49,44,179,52,72,38,46,32,21,12,1.0,0.7
2023-10-18T09:00:00,1326A,114.2529,30.558,武汉市,汉阳月湖,细颗粒物(PM2.5),85,95,65,63,43,165,35,58,36,62,43,11,9,1.0,0.8
2023-10-18T09:00:00,1327A,114.282,30.6189,武汉市,汉口花桥,细颗粒物(PM2.5),83,91,65,61,47,170,48,76,48,60,41,14,10,1.2,0.8
2023-10-18T09:00:00,1328A,114.3025,30.5332,武汉市,武昌紫阳,细颗粒物(PM2.5),70,88,61,51,36,177,40,72,38,64,44,15,12,1.3,0.9
2023-10-18T09:00:00,1329A,114.3646,30.6217,武汉市,青山钢花,细颗粒物(PM2.5),77,90,70,56,51,173,51,83,44,61,39,26,13,1.5,0.9
2023-10-18T09:00:00,1330A,114.1566,30.4825,武汉市,沌口新区,细颗粒物(PM2.5),80,101,80,59,48,178,49,75,44,67,51,17,14,1.1,0.8
2023-10-18T09:00:00,1331A,114.3014,30.5944,武汉市,汉口江滩,细颗粒物(PM2.5),72,89,65,52,42,180,58,82,48,51,35,15,10,1.1,0.7
2023-10-18T09:00:00,1333A,114.135,30.6319,武汉市,吴家山,细颗粒物(PM2.5),74,94,74,54,42,193,39,90,49,76,47,11,10,0.9,0.6
2023-10-18T09:00:00,1334A,113.8454,30.2917,武汉市,沉湖七壕,,39,34,50,27,28,175,91,75,65,23,24,5,5,0.7,0.8
2023-10-18T09:00:00,1335A,113.0833,28.2325,长沙市,经开区环保局,颗粒物(PM10),60,70,74,40,47,150,60,89,66,32,28,8,9,0.5,0.5
2023-10-18T09:00:00,1336A,112.8872,28.2189,长沙市,高开区环保局,颗粒物(PM10),59,67,65,39,36,169,80,129,104,31,20,9,9,0.8,0.7
2023-10-18T09:00:00,1337A,113.0792,28.2053,长沙市,马坡岭,颗粒物(PM10),74,98,84,51,49,164,45,93,74,44,33,8,9,0.6,0.5
2023-10-18T09:00:00,1338A,112.9394,28.19,长沙市,湖南师范大学,细颗粒物(PM2.5),62,70,60,44,36,172,82,111,89,30,18,11,9,0.7,0.6
2023-10-18T09:00:00,1339A,113.0178,28.1322,长沙市,雨花区环保局,颗粒物(PM10),63,75,57,43,37,156,72,125,107,39,20,10,10,0.6,0.6
2023-10-18T09:00:00,1340A,112.9792,28.2597,长沙市,伍家岭,细颗粒物(PM2.5),72,82,87,52,56,164,26,9,9,57,53,7,7,0.9,0.8
2023-10-18T09:00:00,1341A,113.0014,28.1944,长沙市,火车新站,颗粒物(PM10),68,86,68,44,37,157,67,116,91,42,34,9,9,0.8,0.7
2023-10-18T09:00:00,1342A,112.9844,28.1178,长沙市,天心区环保局,颗粒物(PM10),53,55,49,36,36,159,86,122,106,33,20,9,9,0.6,0.5
2023-10-18T09:00:00,1343A,112.8908,28.1308,长沙市,湖南中医药大学,颗粒物(PM10),68,85,71,42,43,193,54,68,17,44,44,9,6,0.8,0.8
2023-10-18T09:00:00,1344A,112.9581,28.3611,长沙市,沙坪,,50,50,48,32,36,136,62,88,77,15,14,7,7,0.4,0.3
2023-10-18T09:00:00,1345A,113.2347,23.1423,广州市,广雅中学,,38,38,41,24,28,137,59,72,54,31,27,4,5,0.8,0.8
2023-10-18T09:00:00,1346A,113.2612,23.105,广州市,市五中,,33,30,41,23,29,158,75,82,75,23,23,6,6,0.7,0.7
2023-10-18T09:00:00,1348A,113.3478,23.0916,广州市,广东商学院,,36,36,48,22,30,143,55,69,63,31,24,4,5,0.6,0.6
2023-10-18T09:00:00,1349A,113.4332,23.1047,广州市,市八十六中,,32,32,50,19,28,140,55,70,55,35,28,5,5,0.7,0.7
2023-10-18T09:00:00,1350A,113.3505,22.9483,广州市,番禺中学,,41,41,47,26,28,170,48,52,49,45,32,4,5,0.9,0.8
2023-10-18T09:00:00,1351A,113.2146,23.3916,广州市,花都师范,,43,43,55,27,32,158,46,67,65,38,27,6,6,0.5,0.6
2023-10-18T09:00:00,1352A,113.2597,23.1331,广州市,市监测站,颗粒物(PM10),55,59,48,31,28,145,55,69,62,36,27,4,4,0.6,0.6
2023-10-18T09:00:00,1353A,113.5618,23.312,广州市,九龙镇镇龙,,36,36,42,24,25,123,62,81,67,25,18,6,5,0.6,0.6
2023-10-18T09:00:00,1354A,113.2765,23.1544,广州市,麓湖,,29,28,37,20,24,139,61,64,50,25,26,7,7,0.5,0.5
2023-10-18T09:00:00,1355A,113.443,23.3035,广州市,帽峰山森林公园,,38,30,29,26,25,131,55,91,56,15,11,6,7,0.4,0.4
2023-10-18T09:00:00,1356A,114.1063,22.5545,深圳市,通心岭子站,,45,45,38,26,21,142,108,107,107,20,18,4,4,0.6,0.6
2023-10-18T09:00:00,1357A,114.117,22.5625,深圳市,洪湖,颗粒物(PM10),52,54,43,28,22,128,80,77,77,26,23,7,7,0.5,0.4
2023-10-18T09:00:00,1358A,113.987,22.5417,深圳市,华侨城,,49,49,40,28,22,129,85,81,81,27,21,10,10,0.8,0.7
2023-10-18T09:00:00,1359A,113.9181,22.5171,深圳市,南海子站,颗粒物(PM10),55,59,52,27,24,132,96,94,94,25,18,6,6,0.8,0.7
2023-10-18T09:00:00,1360A,114.2458,22.5689,深圳市,盐田,,46,46,40,28,24,144,108,114,114,25,30,6,6,0.8,0.7
2023-10-18T09:00:00,1361A,114.2283,22.7244,深圳市,龙岗,,39,38,42,27,24,131,74,70,70,18,17,8,8,0.8,0.7
2023-10-18T09:00:00,1363A,114.494,22.5422,深圳市,南澳,,41,41,44,24,32,148,122,145,134,11,13,5,6,0.8,0.7
2023-10-18T09:00:00,1364A,114.41,22.6342,深圳市,葵涌,,38,36,56,26,21,139,114,132,130,18,15,6,6,0.6,0.6
2023-10-18T09:00:00,1365A,114.297,22.5978,深圳市,梅沙,,48,48,43,24,21,129,99,114,114,16,12,8,8,1.0,0.9
2023-10-18T09:00:00,1366A,114.0678,22.738,深圳市,观澜,,47,47,50,23,23,164,106,97,97,14,16,10,10,0.7,0.6
2023-10-18T09:00:00,1367A,113.5814,22.2618,珠海市,吉大,,45,44,38,31,22,162,123,135,133,16,14,6,7,0.6,0.5
2023-10-18T09:00:00,1368A,113.4881,22.2335,珠海市,前山,,45,45,33,20,20,144,102,121,113,24,19,6,7,0.6,0.5
2023-10-18T09:00:00,1369A,113.628,22.4251,珠海市,唐家,,46,46,41,31,23,153,99,85,85,22,19,5,5,0.6,0.5
2023-10-18T09:00:00,1370A,113.299,22.2281,珠海市,斗门,,48,42,36,33,23,175,92,116,93,26,21,9,10,0.5,0.5
2023-10-18T09:00:00,1371A,113.1294,23.0067,佛山市,湾梁,,,29,38,18,24,158,,67,67,24,25,,9,0.7,0.7
2023-10-18T09:00:00,1372A,113.1083,23.0478,佛山市,华材职中,,29,29,40,19,29,159,62,67,67,25,21,5,6,0.5,0.6
2023-10-18T09:00:00,1373A,113.144,23.0453,佛山市,南海气象局,,26,17,43,18,27,147,51,61,59,31,25,6,6,0.5,0.5
2023-10-18T09:00:00,1374A,113.2881,22.8094,佛山市,顺德苏岗,,42,39,46,29,26,209,49,60,51,32,25,12,10,0.8,0.7
2023-10-18T09:00:00,1376A,112.8383,22.8678,佛山市,高明孔堂,颗粒物(PM10),59,68,56,33,31,165,37,63,44,42,32,12,8,0.8,0.7
2023-10-18T09:00:00,1377A,112.8836,23.1588,佛山市,三水监测站,细颗粒物(PM2.5),53,46,47,37,37,177,52,76,58,32,28,6,6,0.7,0.7
2023-10-18T09:00:00,1378A,112.867,23.185,佛山市,三水云东海,,43,42,43,30,31,183,56,81,58,24,23,5,6,0.7,0.7
2023-10-18T09:00:00,1379A,113.3769,22.5211,中山市,华柏园,,47,47,48,29,29,191,80,64,64,32,29,5,4,0.5,0.5
2023-10-18T09:00:00,1380A,113.3881,22.5497,中山市,张溪,颗粒物(PM10),53,55,63,29,28,204,77,65,65,30,28,4,4,0.5,0.5
2023-10-18T09:00:00,1381A,113.4075,22.5111,中山市,紫马岭,,45,43,49,31,26,203,81,62,62,32,26,5,4,0.5,0.5
2023-10-18T09:00:00,1382A,113.4411,22.4853,中山市,长江旅游区,,,,,,,,,,,,,,,,
2023-10-18T09:00:00,1383A,113.1064,22.6058,江门市,北街,,47,47,51,30,31,227,67,62,59,37,30,10,8,0.7,0.7
2023-10-18T09:00:00,1384A,113.0731,22.5835,江门市,西区,,47,47,56,28,30,233,65,66,63,36,28,9,7,0.6,0.5
2023-10-18T09:00:00,1385A,113.0219,22.5311,江门市,圭峰西,,44,44,50,29,31,232,73,69,69,37,32,7,6,0.7,0.7
2023-10-18T09:00:00,1386A,113.0828,22.5947,江门市,东湖,,,47,55,29,29,228,,66,62,33,26,9,7,0.7,0.6
2023-10-18T09:00:00,1389A,113.7547,23.0494,东莞市,莞城梨川,,42,42,41,26,25,156,80,82,76,20,16,8,8,0.8,0.7
2023-10-18T09:00:00,1390A,113.7944,23.0128,东莞市,东城石井,颗粒物(PM10),52,54,47,28,27,167,73,66,63,19,16,7,7,0.7,0.7
2023-10-18T09:00:00,1391A,113.7383,22.9658,东莞市,南城西平,,50,50,46,29,25,160,65,57,56,37,28,4,6,0.7,0.7
2023-10-18T09:00:00,1392A,114.4183,23.0528,惠州市,河南岸金山湖子站,颗粒物(PM10),52,53,41,34,25,122,85,82,77,12,9,8,7,0.7,0.6
2023-10-18T09:00:00,1393A,114.4053,23.0822,惠州市,下埔横江三路子站,,50,50,41,32,26,119,85,79,77,14,11,10,9,0.7,0.6
2023-10-18T09:00:00,1394A,114.4103,23.1142,惠州市,江北云山西路子站,,46,46,39,30,25,126,87,89,82,14,8,8,7,0.7,0.6
2023-10-18T09:00:00,1395A,114.4645,22.7833,惠州市,惠阳区承修路船湖子站,,48,48,48,30,27,111,32,46,43,40,19,5,6,0.9,0.8
2023-10-18T09:00:00,1396A,114.5317,22.7422,惠州市,大亚湾管委会子站,颗粒物(PM10),65,79,56,35,27,117,50,99,89,50,33,6,9,0.9,0.8
2023-10-18T09:00:00,1397A,112.4267,23.0706,肇庆市,睦岗子站,,36,36,58,22,32,211,70,73,71,22,29,10,11,0.5,0.5
2023-10-18T09:00:00,1398A,112.4645,23.0475,肇庆市,城中子站,,32,32,51,21,31,220,85,83,82,16,23,9,11,0.6,0.6
2023-10-18T09:00:00,1399A,112.5544,23.1522,肇庆市,坑口子站,,37,37,54,25,35,206,70,69,68,23,30,8,9,0.6,0.6
2023-10-18T09:00:00,1400A,112.4753,23.1,肇庆市,七星岩子站,,,,,,,,,,,,,,,,
2023-10-18T09:00:00,1401A,108.3103,22.7881,南宁市,二十一中,,49,48,56,34,34,163,102,108,96,16,18,13,10,0.8,0.8
2023-10-18T09:00:00,1402A,108.3141,22.8528,南宁市,北湖,细颗粒物(PM2.5),69,82,66,50,44,156,38,12,12,43,37,38,23,0.9,0.8
2023-10-18T09:00:00,1403A,108.3206,22.8225,南宁市,市监测站,,,,,,,,,,,,,,,,
2023-10-18T09:00:00,1404A,108.3829,22.8037,南宁市,大自然花园,细颗粒物(PM2.5),53,51,47,37,32,134,80,100,88,25,23,13,9,0.7,0.7
2023-10-18T09:00:00,1405A,108.4394,22.7904,南宁市,仙葫,颗粒物(PM10),60,69,61,36,33,89,66,42,39,34,37,14,9,0.5,0.6
2023-10-18T09:00:00,1406A,108.2397,22.8467,南宁市,区农职院,颗粒物(PM10),55,60,64,38,36,167,63,50,50,29,35,20,22,0.7,0.6
2023-10-18T09:00:00,1407A,108.3275,22.735,南宁市,英华嘉园,颗粒物(PM10),52,54,52,31,32,144,86,86,85,24,26,10,9,0.7,0.7
2023-10-18T09:00:00,1408A,108.2257,22.7757,南宁市,沙井镇街道办,细颗粒物(PM2.5),77,78,89,56,48,173,34,20,13,36,53,22,16,0.8,0.8
2023-10-18T09:00:00,1409A,110.576,19.9507,海口市,东寨港,,,,,,,,,,,,,,,,
2023-10-18T09:00:00,1410A,110.3232,20.0574,海口市,海南大学,,30,11,38,8,18,148,96,148,99,8,7,6,6,0.4,0.5
2023-10-18T09:00:00,1411A,110.283,20.0053,海口市,秀英海南医院,,27,7,35,6,16,152,84,146,96,6,5,7,7,0.4,0.5
2023-10-18T09:00:00,1412A,110.338,19.9969,海口市,海南师范大学,,26,10,34,7,16,149,82,143,90,7,7,5,5,0.5,0.4
2023-10-18T09:00:00,1413A,110.33,20.0356,海口市,龙华路环保局宿舍,,30,10,39,9,17,155,96,151,97,9,7,8,8,0.3,0.4
2023-10-18T09:00:00,1414A,106.3787,29.8279,重庆市,缙云山,细颗粒物(PM2.5),70,69,53,51,30,167,28,102,55,24,17,8,10,0.5,0.3
2023-10-18T09:00:00,1416A,106.4213,29.8253,重庆市,天生,细颗粒物(PM2.5),94,84,73,70,58,173,5,61,12,50,35,9,11,1.5,1.1
2023-10-18T09:00:00,1417A,106.6263,29.7228,重庆市,两路,细颗粒物(PM2.5),69,85,61,50,41,183,19,55,20,53,41,10,8,1.2,1
2023-10-18T09:00:00,1418A,106.2953,29.5983,重庆市,虎溪,细颗粒物(PM2.5),102,85,73,76,59,173,21,48,14,28,37,8,9,0.8,0.7
2023-10-18T09:00:00,1419A,106.5777,29.5102,重庆市,南坪,细颗粒物(PM2.5),117,84,89,88,69,190,31,55,47,23,32,15,11,0.9,0.8
2023-10-18T09:00:00,1420A,106.6556,29.6277,重庆市,唐家沱,细颗粒物(PM2.5),58,58,82,41,46,174,5,8,5,30,60,6,8,1.0,1
2023-10-18T09:00:00,1421A,106.6349,29.4906,重庆市,茶园,细颗粒物(PM2.5),78,98,78,57,49,181,31,52,46,42,57,8,7,1.1,1
2023-10-18T09:00:00,1422A,106.3754,29.4572,重庆市,白市驿,细颗粒物(PM2.5),94,112,93,70,63,173,31,70,42,20,28,12,11,1.0,0.8
2023-10-18T09:00:00,1425A,106.6205,29.7166,重庆市,空港,细颗粒物(PM2.5),69,80,67,50,45,183,26,66,26,56,46,10,7,1.0,0.9
2023-10-18T09:00:00,1426A,106.4782,29.4875,重庆市,新山村,细颗粒物(PM2.5),123,114,116,93,81,172,23,15,15,37,60,14,14,1.1,1.1
2023-10-18T09:00:00,1427A,106.5616,29.6453,重庆市,礼嘉,细颗粒物(PM2.5),89,101,79,66,46,180,14,58,11,54,51,15,11,1.2,1
2023-10-18T09:00:00,1428A,106.4522,29.7091,重庆市,蔡家,颗粒物(PM10),102,154,80,56,47,166,10,28,16,54,40,8,8,1.3,0.7
2023-10-18T09:00:00,1429A,106.5093,29.3917,重庆市,鱼新街,细颗粒物(PM2.5),108,109,109,81,83,177,13,18,14,48,57,22,17,1.3,1.2
2023-10-18T09:00:00,1431A,103.9728,30.7236,成都市,金泉两河,,43,37,54,30,35,90,28,38,32,20,16,2,3,0.6,0.5
2023-10-18T09:00:00,1432A,104.176,30.6872,成都市,十里店,,25,25,46,17,30,92,47,36,28,12,23,3,3,0.5,0.6
2023-10-18T09:00:00,1433A,104.079,30.5706,成都市,三瓦窑,细颗粒物(PM2.5),54,50,57,38,40,71,34,38,21,14,24,1,2,0.4,0.5
2023-10-18T09:00:00,1434A,104.1114,30.63,成都市,沙河铺,,43,41,60,30,41,65,32,25,20,16,24,1,1,0.5,0.6
2023-10-18T09:00:00,1437A,104.0786,30.6531,成都市,君平街,细颗粒物(PM2.5),59,35,56,42,42,66,33,30,29,30,35,5,6,0.5,0.7
2023-10-18T09:00:00,1438A,103.613,31.0283,成都市,灵岩寺,,,19,12,10,17,94,71,92,71,,11,10,7,0.7,0.8
2023-10-18T09:00:00,1439A,106.6899,26.5998,贵阳市,马鞍山,,,27,25,14,14,113,,87,87,13,13,5,4,0.6,0.6
2023-10-18T09:00:00,1440A,106.6971,26.5694,贵阳市,市环保站,,41,41,42,26,24,108,74,83,83,33,31,5,5,0.5,0.3
2023-10-18T09:00:00,1441A,106.6243,26.6266,贵阳市,鉴湖路,,39,34,33,27,18,98,80,92,87,15,11,6,6,0.5,0.4
2023-10-18T09:00:00,1442A,106.7487,26.6343,贵阳市,燕子冲,,32,29,28,22,19,111,81,79,79,22,16,5,6,0.5,0.4
2023-10-18T09:00:00,1443A,106.6555,26.4365,贵阳市,碧云窝,,39,39,35,17,18,105,92,88,88,9,10,9,8,0.5,0.5
2023-10-18T09:00:00,1444A,106.694,26.5161,贵阳市,中院村,,39,39,46,22,26,95,74,68,68,24,28,12,11,0.4,0.3
2023-10-18T09:00:00,1445A,106.7109,26.6027,贵阳市,红边门,,46,46,43,27,25,108,74,75,75,27,30,3,5,0.5,0.5
2023-10-18T09:00:00,1446A,106.7164,26.5699,贵阳市,新华路,,39,39,36,27,21,112,83,78,78,22,26,6,6,0.6,0.4
2023-10-18T09:00:00,1447A,106.674,26.5424,贵阳市,太慈桥,,39,39,31,19,19,106,73,63,63,22,22,7,4,0.5,0.4
2023-10-18T09:00:00,1450A,102.8204,24.8886,昆明市,呈贡新区,,19,19,19,11,13,100,26,33,32,25,22,8,7,0.9,0.7
2023-10-18T09:00:00,1451A,102.6251,24.9608,昆明市,西山森林公园,,15,13,16,0,12,122,47,63,51,4,7,5,9,0.5,0.5
2023-10-18T09:00:00,1452A,102.7252,25.0902,昆明市,龙泉镇,,47,47,35,25,15,87,6,4,4,30,27,10,9,1.1,0.7
2023-10-18T09:00:00,1453A,102.7266,25.0375,昆明市,东风东路,,26,26,25,16,16,95,19,21,21,28,25,9,9,0.7,0.6
2023-10-18T09:00:00,1454A,102.6742,25.0669,昆明市,金鼎山,,45,45,35,17,14,90,11,8,7,35,29,19,16,0.9,0.5
2023-10-18T09:00:00,1455A,102.6644,25.0401,昆明市,碧鸡广场,,40,40,24,15,15,91,14,13,11,30,26,10,8,1.0,0.7
2023-10-18T09:00:00,1456A,91.1319,29.6514,拉萨市,八廓街,细颗粒物(PM2.5),60,49,21,43,10,117,48,78,61,31,16,11,11,0.3,0.2
2023-10-18T09:00:00,1457A,91.1221,29.6747,拉萨市,市环保局,细颗粒物(PM2.5),60,56,23,43,10,122,26,85,51,44,17,9,8,1.1,0.6
2023-10-18T09:00:00,1458A,91.0874,29.6475,拉萨市,区监测站,,28,28,17,19,8,110,22,88,60,51,16,11,8,0.7,0.4
2023-10-18T09:00:00,1459A,91.1774,29.6541,拉萨市,西藏大学,,33,32,17,23,7,117,35,72,58,32,18,8,10,1.1,0.5
2023-10-18T09:00:00,1460A,90.9798,29.6588,拉萨市,区辐射站,,23,19,24,16,9,110,52,92,77,35,16,6,6,0.5,0.4
2023-10-18T09:00:00,1461A,91.0834,29.6292,拉萨市,拉萨火车站,,16,10,19,6,8,105,44,86,71,32,11,7,6,0.8,0.4
2023-10-18T09:00:00,1462A,108.882,34.2749,西安市,高压开关厂,颗粒物(PM10),52,53,85,20,38,55,8,30,11,45,49,11,10,0.5,0.7
2023-10-18T09:00:00,1463A,108.993,34.2629,西安市,兴庆小区,,33,33,65,18,35,46,9,36,16,40,39,7,7,0.6,0.7
2023-10-18T09:00:00,1464A,109.06,34.2572,西安市,纺织城,,40,40,91,24,49,61,8,4,4,44,53,6,6,0.7,0.9
2023-10-18T09:00:00,1465A,108.9356,34.2173,西安市,小寨,,42,42,80,16,36,42,6,30,9,43,47,8,8,0.6,0.7
2023-10-18T09:00:00,1466A,108.954,34.2713,西安市,市人民体育场,,41,41,75,19,39,55,7,20,14,40,38,6,6,0.5,0.7
2023-10-18T09:00:00,1467A,108.8922,34.2322,西安市,高新西区,,36,36,73,22,42,54,13,30,15,41,50,7,7,0.5,0.7
2023-10-18T09:00:00,1468A,108.935,34.3474,西安市,经开区,,40,40,65,20,34,70,8,30,12,36,37,4,5,0.5,0.7
2023-10-18T09:00:00,1469A,108.906,34.1546,西安市,长安区,,45,45,76,15,41,63,22,29,21,33,42,7,7,0.5,0.7
2023-10-18T09:00:00,1471A,109.2186,34.3731,西安市,临潼区,颗粒物(PM10),52,54,90,22,45,71,7,64,43,36,27,6,7,0.8,0.8
2023-10-18T09:00:00,1472A,108.869,34.378,西安市,草滩,颗粒物(PM10),52,54,86,19,37,81,1,15,0,49,55,7,7,0.5,0.6
2023-10-18T09:00:00,1473A,108.985,34.1978,西安市,曲江文化产业集团,,29,29,81,19,49,50,14,19,18,39,49,6,6,0.4,0.5
2023-10-18T09:00:00,1474A,109.051,34.3213,西安市,广运潭,,38,38,72,19,42,49,3,19,3,33,42,7,8,0.6,0.8
2023-10-18T09:00:00,1476A,103.631,36.1031,兰州市,兰炼宾馆,细颗粒物(PM2.5),64,64,46,46,32,97,10,33,24,50,34,6,5,0.8,0.4
2023-10-18T09:00:00,1477A,104.1373,35.9454,兰州市,榆中兰大校区,,,,,,,,,,,,,,,,
2023-10-18T09:00:00,1478A,103.8412,36.0726,兰州市,生物制品所,细颗粒物(PM2.5),54,55,43,38,33,90,12,8,8,51,42,9,7,0.8,0.6
2023-10-18T09:00:00,1479A,103.831,36.0464,兰州市,铁路设计院,细颗粒物(PM2.5),55,53,43,39,32,100,18,48,18,52,44,10,8,0.6,0.5
2023-10-18T09:00:00,1483A,101.524,36.6867,西宁市,第五水厂,,,,,,,,,,,,,,,,
2023-10-18T09:00:00,1484A,105.9512,38.6016,银川市,贺兰山马莲口,,23,23,20,7,13,111,66,90,81,13,8,6,4,0.4,0.3
2023-10-18T09:00:00,1488A,106.2328,38.4975,银川市,贺兰山东路,颗粒物(PM10),60,69,60,36,33,109,8,31,24,54,40,10,12,0.7,0.6
2023-10-18T09:00:00,1489A,106.1358,38.5036,银川市,学院路,细颗粒物(PM2.5),54,37,36,38,36,96,10,28,20,45,37,10,11,1.0,0.7
2023-10-18T09:00:00,1490A,87.5801,43.8303,乌鲁木齐市,监测站,颗粒物(PM10),51,52,38,23,13,76,1,0,0,54,45,5,5,1.0,0.5
2023-10-18T09:00:00,1491A,87.6046,43.768,乌鲁木齐市,收费所,,37,37,49,17,18,76,68,13,13,18,37,1,2,0.5,0.5
2023-10-18T09:00:00,1492A,87.4754,43.9469,乌鲁木齐市,新疆农科院农场,,,,,,,,,,,,,,,,
2023-10-18T09:00:00,1493A,87.5525,43.8711,乌鲁木齐市,铁路局,颗粒物(PM10),51,51,45,14,16,70,0,0,0,57,46,4,4,0.8,0.5
2023-10-18T09:00:00,1494A,87.6432,43.831,乌鲁木齐市,三十一中学,,33,33,38,10,12,79,35,12,12,24,36,8,7,0.5,0.5
2023-10-18T09:00:00,1496A,87.7216,44.1747,乌鲁木齐市,米东区环保局,颗粒物(PM10),74,98,57,34,19,83,3,3,3,29,19,5,4,0.8,0.4
2023-10-18T09:00:00,1508A,112.9433,27.8614,湘潭市,板塘,颗粒物(PM10),82,114,82,57,60,161,42,27,27,51,45,23,19,0.9,0.9
2023-10-18T09:00:00,1511A,112.9118,27.8403,湘潭市,市监测站,细颗粒物(PM2.5),72,85,78,52,48,176,72,58,58,44,45,21,11,1.1,0.8
2023-10-18T09:00:00,1512A,112.8937,27.8728,湘潭市,江麓,细颗粒物(PM2.5),92,101,86,68,54,177,40,20,20,49,51,17,11,0.9,0.9
2023-10-18T09:00:00,1513A,112.9227,27.8159,湘潭市,岳塘,细颗粒物(PM2.5),69,84,86,50,49,170,84,78,78,28,33,25,13,0.3,0.6
2023-10-18T09:00:00,1514A,112.9074,27.9119,湘潭市,科大,细颗粒物(PM2.5),83,71,80,61,50,181,49,12,12,42,55,16,12,1.1,1
2023-10-18T09:00:00,1515A,113.135,27.8244,株洲市,天台山庄,细颗粒物(PM2.5),73,83,77,53,49,170,78,81,54,29,42,20,12,0.9,0.9
2023-10-18T09:00:00,1518A,113.095,27.8867,株洲市,株冶医院,细颗粒物(PM2.5),77,88,74,56,52,170,59,62,55,45,40,15,11,0.9,0.8
2023-10-18T09:00:00,1519A,113.167,27.8667,株洲市,市四中,细颗粒物(PM2.5),72,88,87,52,52,176,71,39,39,31,42,14,8,0.9,0.8
2023-10-18T09:00:00,1520A,113.143,27.8381,株洲市,火车站,细颗粒物(PM2.5),83,93,91,61,54,168,69,69,45,31,39,18,11,0.8,0.8
2023-10-18T09:00:00,1524A,113.13,27.8528,株洲市,市监测站,细颗粒物(PM2.5),78,80,86,57,61,177,83,51,51,25,46,20,9,1.1,1
2023-10-18T09:00:00,1552A,106.805,26.3003,贵阳市,桐木岭,,,,,,,,,,,,,,,,
2023-10-18T09:00:00,1559A,113.251,27.8336,株洲市,大京风景区,细颗粒物(PM2.5),65,62,47,47,38,168,54,42,29,11,7,7,4,0.7,0.5
2023-10-18T09:00:00,1562A,113.0048,27.9153,湘潭市,昭山,细颗粒物(PM2.5),72,80,73,52,43,181,34,19,19,61,58,14,10,0.8,0.6
2023-10-18T09:00:00,1564A,112.4876,27.9164,湘潭市,韶山,细颗粒物(PM2.5),67,79,104,48,57,198,49,68,42,30,19,11,11,1.1,0.9
2023-10-18T09:00:00,1585A,109.8756,40.6532,包头市,市环境监测站,,44,44,63,17,26,63,27,52,40,36,40,10,22,0.6,0.7
2023-10-18T09:00:00,1587A,109.9991,40.5842,包头市,包头八中,颗粒物(PM10),72,93,74,22,23,62,12,56,33,58,41,20,21,1.7,0.9
2023-10-18T09:00:00,1588A,109.8538,40.6821,包头市,青山宾馆,,47,47,68,13,26,60,34,47,41,27,41,13,21,0.4,0.7
2023-10-18T09:00:00,1589A,109.8642,40.6288,包头市,惠龙物流,,,,,,,,,,,,,,,,
2023-10-18T09:00:00,1590A,110.0377,40.5546,包头市,东河鸿龙湾,颗粒物(PM10),55,59,71,17,21,67,11,50,25,49,38,18,18,1.0,0.8
2023-10-18T09:00:00,1591A,110.0023,39.8129,鄂尔多斯市,综合楼,颗粒物(PM10),74,97,53,19,19,70,16,27,23,58,46,15,11,1.2,0.7
2023-10-18T09:00:00,1592A,109.9486,39.8261,鄂尔多斯市,巴音孟克林场办事处,,,53,46,,23,72,19,23,19,46,45,16,14,0.5,0.5
2023-10-18T09:00:00,1593A,109.7736,39.5986,鄂尔多斯市,康泽苑,颗粒物(PM10),51,51,39,15,19,83,11,23,16,38,28,7,8,1.0,0.5
2023-10-18T09:00:00,1594A,109.8119,39.5989,鄂尔多斯市,华泰汽车城,颗粒物(PM10),53,56,42,9,18,86,13,11,11,30,34,5,8,1.0,0.7
2023-10-18T09:00:00,1595A,109.9734,39.7884,鄂尔多斯市,奥林花园,颗粒物(PM10),73,95,51,27,18,72,6,36,17,49,45,11,10,1.3,0.8
2023-10-18T09:00:00,1597A,122.2703,40.7094,营口市,大庆路,颗粒物(PM10),51,52,54,30,32,130,83,107,104,24,21,5,8,0.7,0.8
2023-10-18T09:00:00,1598A,122.2150,40.6511,营口市,镜湖西路,,,39,57,23,27,123,,116,109,25,21,5,7,0.8,0.8
2023-10-18T09:00:00,1599A,122.1658,40.6789,营口市,西炮台,颗粒物(PM10),54,57,57,35,29,135,79,109,106,27,21,5,7,0.7,0.7
2023-10-18T09:00:00,1600A,124.3303,40.0625,丹东市,江湾东路,,46,46,48,24,26,93,63,41,41,18,26,10,9,0.8,1
2023-10-18T09:00:00,1601A,124.4256,40.1503,丹东市,临江后街,,50,50,39,24,18,98,10,49,31,60,24,6,7,1.2,0.7
2023-10-18T09:00:00,1602A,124.3933,40.1461,丹东市,元宝山,,41,41,31,17,15,86,30,58,45,38,18,4,6,0.9,0.6
2023-10-18T09:00:00,1603A,124.3633,40.1092,丹东市,民主桥,,42,42,37,18,16,93,59,37,37,20,30,8,8,0.9,0.8
2023-10-18T09:00:00,1604A,122.0303,41.1489,盘锦市,开发区,,18,11,36,8,27,141,35,102,88,36,22,8,10,0.9,1
2023-10-18T09:00:00,1605A,122.0485,41.0883,盘锦市,兴隆台,,21,21,38,13,22,133,32,105,90,37,21,12,10,0.6,0.6
2023-10-18T09:00:00,1606A,121.8297,41.1028,盘锦市,新生街道,,23,23,40,11,22,143,31,100,82,20,17,6,8,0.5,0.7
2023-10-18T09:00:00,1607A,120.9092,40.7136,葫芦岛市,龙港区,,32,15,57,22,32,150,22,138,96,38,15,24,18,0.6,0.7
2023-10-18T09:00:00,1608A,120.8392,40.7514,葫芦岛市,化工街,,34,34,72,12,30,127,28,100,71,35,21,10,10,0.5,0.8
2023-10-18T09:00:00,1609A,120.8341,40.7073,葫芦岛市,新区,,19,17,57,8,34,139,31,117,85,37,22,10,10,0.8,1.1
2023-10-18T09:00:00,1610A,120.8695,40.7677,葫芦岛市,东城区,,20,20,57,7,38,137,38,108,77,20,23,15,14,0.6,1
2023-10-18T09:00:00,1611A,118.5819,24.9117,泉州市,涂山街,颗粒物(PM10),60,69,50,26,27,186,106,137,118,16,11,4,4,0.7,0.7
2023-10-18T09:00:00,1612A,118.5972,24.8978,泉州市,津头埔,颗粒物(PM10),53,56,47,28,31,186,97,142,114,24,18,3,3,0.8,0.7
2023-10-18T09:00:00,1613A,118.6663,24.9424,泉州市,万安,颗粒物(PM10),52,54,49,26,29,196,111,143,120,24,16,3,3,0.6,0.6
2023-10-18T09:00:00,1614A,118.6117,24.9604,泉州市,清源山,,,,,,,,,,,,,,,,
2023-10-18T09:00:00,1616A,117.6795,36.229,济南市,技术学院,颗粒物(PM10),84,117,90,46,38,183,122,151,136,54,31,13,18,0.9,0.7
2023-10-18T09:00:00,1618A,118.3429,35.0532,临沂市,沂河小区,细颗粒物(PM2.5),135,171,115,103,65,178,108,146,118,38,30,19,20,0.8,0.6
2023-10-18T09:00:00,1619A,118.295,35.0583,临沂市,鲁南制药厂,颗粒物(PM10),115,180,114,73,48,185,112,173,131,37,27,19,18,1.0,0.7
2023-10-18T09:00:00,1620A,118.2794,34.9976,临沂市,新光毛纺厂,细颗粒物(PM2.5),135,185,112,103,65,177,90,149,116,45,34,20,19,1.1,0.9
2023-10-18T09:00:00,1621A,118.3956,35.0888,临沂市,河东保险公司,细颗粒物(PM2.5),135,180,124,103,68,190,100,130,92,41,34,19,15,1.1,0.9
2023-10-18T09:00:00,1622A,116.3032,37.4674,德州市,儿童乐园,细颗粒物(PM2.5),122,144,117,92,55,204,84,62,34,22,38,8,12,1.0,0.8
2023-10-18T09:00:00,1624A,116.2991,37.4451,德州市,监理站,细颗粒物(PM2.5),140,135,118,107,56,194,77,72,38,20,31,10,14,0.8,0.7
2023-10-18T09:00:00,1625A,115.9848,36.4372,聊城市,区政府,细颗粒物(PM2.5),124,141,112,94,49,161,68,81,60,29,30,4,6,0.8,0.6
2023-10-18T09:00:00,1628A,118.0062,37.3803,滨州市,市环保局,细颗粒物(PM2.5),98,124,110,73,59,200,47,89,79,50,36,25,22,1.5,1.1
2023-10-18T09:00:00,1629A,118.0018,37.3617,滨州市,第二水厂,细颗粒物(PM2.5),98,132,112,73,54,220,55,88,82,45,40,27,19,1.2,0.8
2023-10-18T09:00:00,1630A,117.9776,37.393,滨州市,北中新校,颗粒物(PM10),78,106,106,53,50,223,45,86,68,55,50,14,19,0.8,0.7
2023-10-18T09:00:00,1631A,118.0414,36.8103,淄博市,人民公园,颗粒物(PM10),69,88,89,44,42,190,146,150,150,28,28,12,10,0.7,0.7
2023-10-18T09:00:00,1633A,117.8525,36.4847,淄博市,双山,细颗粒物(PM2.5),74,79,81,54,40,175,152,150,150,26,21,9,8,0.6,0.7
2023-10-18T09:00:00,1634A,117.9592,36.6331,淄博市,气象站,,,68,70,46,37,173,158,156,156,17,14,,9,0.4,0.4
2023-10-18T09:00:00,1635A,118.3092,36.8194,淄博市,莆田园,颗粒物(PM10),69,88,120,46,46,203,151,124,124,26,40,12,12,1.1,1.4
2023-10-18T09:00:00,1637A,117.558,34.8438,枣庄市,市中区政府,细颗粒物(PM2.5),144,175,119,110,66,187,120,163,104,55,39,13,14,0.9,0.6
2023-10-18T09:00:00,1638A,117.2852,34.7837,枣庄市,薛城环保局,细颗粒物(PM2.5),125,142,111,95,60,204,133,134,131,40,35,12,9,1.0,0.7
2023-10-18T09:00:00,1639A,117.5852,34.7745,枣庄市,峄城区政府,细颗粒物(PM2.5),107,153,122,80,53,191,133,135,134,38,37,10,10,0.8,0.7
2023-10-18T09:00:00,1640A,117.7276,34.5578,枣庄市,台儿庄区环保局,细颗粒物(PM2.5),110,114,89,83,58,192,140,166,125,37,35,10,9,0.8,0.8
2023-10-18T09:00:00,1641A,117.4518,35.0992,枣庄市,山亭区环保局,细颗粒物(PM2.5),83,112,89,61,44,194,151,186,164,32,25,13,11,1.0,0.8
2023-10-18T09:00:00,1642A,121.2514,37.5639,烟台市,开发区,"颗粒物(PM10),细颗粒物(PM2.5)",64,78,51,46,23,162,131,127,122,29,14,9,8,1.1,0.7
2023-10-18T09:00:00,1643A,121.3719,37.5433,烟台市,轴承厂,细颗粒物(PM2.5),69,85,48,50,25,154,106,122,117,32,12,7,6,0.7,0.3
2023-10-18T09:00:00,1644A,121.3181,37.5436,烟台市,西郊化工站,颗粒物(PM10),64,78,48,44,22,152,126,130,130,27,12,7,6,0.6,0.4
2023-10-18T09:00:00,1645A,121.4478,37.4822,烟台市,莱山环保局,颗粒物(PM10),62,73,45,36,18,146,104,117,116,29,11,7,7,0.8,0.6
2023-10-18T09:00:00,1646A,121.2611,37.4967,烟台市,福山环保局,颗粒物(PM10),81,112,55,53,23,149,73,112,104,66,21,10,8,0.8,0.5
2023-10-18T09:00:00,1650A,119.1437,36.7023,潍坊市,环保局,细颗粒物(PM2.5),109,141,110,82,54,186,146,133,133,38,32,12,11,0.9,0.9
2023-10-18T09:00:00,1653A,116.6251,35.4302,济宁市,火炬城,细颗粒物(PM2.5),77,92,77,56,38,166,81,78,78,34,25,20,15,0.6,0.5
2023-10-18T09:00:00,1655A,116.5491,35.4042,济宁市,电化厂,细颗粒物(PM2.5),92,123,95,68,45,171,71,96,88,40,26,19,12,0.8,0.6
2023-10-18T09:00:00,1656A,117.1437,36.1937,泰安市,监测站,细颗粒物(PM2.5),87,110,94,64,49,205,118,130,122,37,26,17,14,1.0,0.9
2023-10-18T09:00:00,1657A,117.0885,36.2017,泰安市,人口学校,细颗粒物(PM2.5),74,88,85,54,44,204,126,141,124,29,26,14,13,0.8,0.7
2023-10-18T09:00:00,1658A,117.1089,36.1758,泰安市,电力学校,细颗粒物(PM2.5),83,114,95,61,46,204,110,128,116,35,27,18,15,0.8,0.6
2023-10-18T09:00:00,1659A,119.471,35.4209,日照市,监测站,细颗粒物(PM2.5),117,124,66,88,40,151,73,28,28,67,42,14,14,1.5,1.4
2023-10-18T09:00:00,1660A,119.523,35.4216,日照市,市政府广场,细颗粒物(PM2.5),102,127,80,76,41,170,87,107,96,66,37,12,11,1.4,1
2023-10-18T09:00:00,1661A,119.5587,35.4044,日照市,港务局,细颗粒物(PM2.5),97,114,79,72,40,170,70,82,80,73,41,15,13,1.7,1.1
2023-10-18T09:00:00,1662A,122.1214,37.4236,威海市,华夏技校,,48,48,30,24,12,127,127,118,117,12,17,3,3,0.5,0.4
2023-10-18T09:00:00,1663A,122.0508,37.5236,威海市,山大分校,颗粒物(PM10),53,56,37,20,9,130,117,127,122,13,9,5,5,0.5,0.4
2023-10-18T09:00:00,1664A,122.1067,37.5072,威海市,市监测站,颗粒物(PM10),55,59,39,27,19,140,124,134,133,10,11,7,8,0.8,0.6
2023-10-18T09:00:00,1666A,118.6614,37.4309,东营市,市环保局,颗粒物(PM10),73,95,97,48,49,200,96,116,112,42,33,10,13,0.7,0.6
2023-10-18T09:00:00,1669A,113.5824,24.7733,韶关市,市八中,细颗粒物(PM2.5),55,54,49,39,34,139,46,62,52,19,21,29,19,0.7,0.7
2023-10-18T09:00:00,1671A,113.5917,24.7972,韶关市,园林处,细颗粒物(PM2.5),55,58,56,39,41,134,47,51,44,15,18,26,22,0.7,0.7
2023-10-18T09:00:00,1672A,113.6735,24.7791,韶关市,韶关学院,细颗粒物(PM2.5),58,49,65,41,52,133,21,14,12,30,23,16,17,0.6,0.7
2023-10-18T09:00:00,1673A,113.5971,24.6863,韶关市,曲江监测站,细颗粒物(PM2.5),53,45,54,37,41,156,43,91,74,27,22,25,17,0.7,0.7
2023-10-18T09:00:00,1674A,116.6794,23.3667,汕头市,金平子站,,48,48,50,32,30,185,115,135,125,20,17,8,7,0.8,0.8
2023-10-18T09:00:00,1675A,116.7244,23.3633,汕头市,龙湖子站,,37,31,48,24,27,180,118,134,125,17,16,8,8,0.8,0.7
2023-10-18T09:00:00,1676A,116.7258,23.2775,汕头市,濠江子站,,40,32,42,21,26,187,126,145,128,8,9,9,8,0.6,0.6
2023-10-18T09:00:00,1677A,116.7519,23.4714,汕头市,澄海子站,,47,47,53,32,32,180,116,138,116,17,17,12,12,0.6,0.6
2023-10-18T09:00:00,1678A,116.6092,23.2539,汕头市,潮阳子站,,42,42,49,20,24,184,128,148,131,10,8,9,9,0.6,0.6
2023-10-18T09:00:00,1680A,110.3539,21.2706,湛江市,湛江影剧院,,31,31,53,20,29,184,97,162,119,17,15,6,10,0.7,0.7
2023-10-18T09:00:00,1681A,110.3928,21.2228,湛江市,市环境监测站,,41,41,51,27,33,180,92,153,113,14,13,11,10,0.7,0.6
2023-10-18T09:00:00,1682A,110.4019,21.1997,湛江市,环保局宿舍,,44,44,52,29,36,186,89,149,112,18,17,5,6,0.7,0.7
2023-10-18T09:00:00,1683A,110.4111,21.2028,湛江市,霞山游泳场,,48,48,53,30,32,199,90,150,113,18,15,5,5,0.7,0.7
2023-10-18T09:00:00,1684A,110.3316,21.2679,湛江市,麻章区环保局,,,40,58,27,32,185,,164,122,16,16,8,9,0.7,0.7
2023-10-18T09:00:00,1685A,110.4558,21.2567,湛江市,坡头区环保局,,50,48,49,35,37,190,89,160,114,18,14,5,7,0.8,0.7
2023-10-18T09:00:00,1686A,111.0286,21.4688,茂名市,电白南海,颗粒物(PM10),54,58,64,36,36,184,91,142,104,14,15,10,10,0.7,0.7
2023-10-18T09:00:00,1687A,110.9294,21.6533,茂名市,茂石化七小,颗粒物(PM10),54,58,58,29,32,149,79,134,102,17,15,6,8,0.7,0.7
2023-10-18T09:00:00,1688A,110.9107,21.6687,茂名市,健康路,,39,39,52,27,31,157,90,148,106,15,14,10,13,0.7,0.7
2023-10-18T09:00:00,1689A,110.8592,21.6828,茂名市,高岭,,,53,69,27,37,152,,152,109,15,16,15,17,0.6,0.6
2023-10-18T09:00:00,1690A,116.1231,24.3284,梅州市,梅江月梅,颗粒物(PM10),53,55,53,35,40,156,92,76,76,18,24,14,8,0.7,0.7
2023-10-18T09:00:00,1691A,116.0797,24.2719,梅州市,梅县新城,细颗粒物(PM2.5),60,57,55,43,40,146,107,54,54,17,26,10,9,0.9,0.8
2023-10-18T09:00:00,1692A,116.1248,24.2654,梅州市,环境监控中心,细颗粒物(PM2.5),57,58,51,40,31,133,85,60,60,21,23,10,12,0.8,0.8
2023-10-18T09:00:00,1693A,115.3653,22.775,汕尾市,市环保局,,45,45,44,29,29,127,108,126,116,14,11,12,12,0.7,0.6
2023-10-18T09:00:00,1694A,115.3706,22.7898,汕尾市,市政府,细颗粒物(PM2.5),57,54,43,40,28,131,103,130,118,16,12,9,8,0.6,0.4
2023-10-18T09:00:00,1695A,115.3622,22.7925,汕尾市,新城中学,颗粒物(PM10),56,62,48,34,28,124,98,122,114,13,10,10,10,0.7,0.6
2023-10-18T09:00:00,1696A,114.6778,23.7569,河源市,源西,,49,39,37,34,29,127,28,42,26,25,19,6,5,0.8,0.7
2023-10-18T09:00:00,1697A,114.6944,23.7586,河源市,东埔,颗粒物(PM10),51,51,46,31,32,126,34,58,31,19,15,8,6,0.8,0.9
2023-10-18T09:00:00,1698A,114.6892,23.7233,河源市,老城,,48,42,37,33,30,124,33,53,36,18,10,7,5,0.8,0.7
2023-10-18T09:00:00,1699A,111.9797,21.8593,阳江市,鸳鸯湖,细颗粒物(PM2.5),59,52,58,42,41,203,55,90,61,28,22,15,14,0.9,0.8
2023-10-18T09:00:00,1701A,111.9491,21.8658,阳江市,马南垌,,49,38,66,34,38,206,57,94,64,26,24,10,10,0.7,0.7
2023-10-18T09:00:00,1702A,113.0426,23.691,清远市,环保大楼,,40,27,39,28,37,148,68,88,75,8,7,9,10,0.9,0.9
2023-10-18T09:00:00,1703A,113.0208,23.7106,清远市,凤城街办,,25,24,45,13,34,151,80,80,76,13,13,8,11,0.8,0.7
2023-10-18T09:00:00,1705A,116.6367,23.6719,潮州市,西园路,,40,30,59,28,34,166,86,134,74,14,17,4,5,0.3,0.3
2023-10-18T09:00:00,1706A,116.6447,23.6706,潮州市,档案局,细颗粒物(PM2.5),53,44,58,37,36,175,99,140,78,16,17,6,7,0.8,0.7
2023-10-18T09:00:00,1708A,116.3701,23.5345,揭阳市,新兴,颗粒物(PM10),70,89,75,49,54,132,107,119,103,22,25,20,15,0.8,0.8
2023-10-18T09:00:00,1709A,116.3264,23.5443,揭阳市,西马,,,97,87,48,58,134,86,40,40,28,36,,11,1.0,0.9
2023-10-18T09:00:00,1710A,116.3611,23.5626,揭阳市,东兴,颗粒物(PM10),67,83,96,45,59,132,104,97,97,20,28,11,15,0.9,0.9
2023-10-18T09:00:00,1711A,116.4151,23.5294,揭阳市,渔湖,颗粒物(PM10),62,74,91,40,51,145,97,125,95,28,33,22,13,0.7,0.7
2023-10-18T09:00:00,1712A,112.0392,22.9169,云浮市,新市府,,39,39,48,27,32,182,49,63,48,20,20,11,10,0.8,0.8
2023-10-18T09:00:00,1714A,112.0539,22.9539,云浮市,牧羊,细颗粒物(PM2.5),54,46,52,38,34,173,24,65,41,46,31,8,12,0.6,0.5
2023-10-18T09:00:00,1715A,102.575,24.3711,玉溪市,东风水库,,26,16,22,18,14,75,12,13,9,12,14,7,6,1.0,0.9
2023-10-18T09:00:00,1718A,115.4208,35.2464,菏泽市,气象局,细颗粒物(PM2.5),122,156,108,92,50,174,58,88,60,48,37,10,7,0.7,0.4
2023-10-18T09:00:00,1719A,115.4747,35.2375,菏泽市,市政协,细颗粒物(PM2.5),130,156,98,99,50,173,59,104,68,43,32,10,8,0.6,0.4
2023-10-18T09:00:00,1721A,113.3819,40.1097,大同市,果树场,,,,,,,,,,,,,,,,
2023-10-18T09:00:00,1723A,113.2994,40.0758,大同市,云冈宾馆,,26,26,57,17,26,118,26,83,49,31,32,11,13,0.8,0.7
2023-10-18T09:00:00,1724A,113.3444,40.0917,大同市,大同大学,,31,31,53,17,25,110,30,76,48,25,27,16,13,0.9,0.7
2023-10-18T09:00:00,1725A,113.2661,40.1269,大同市,安家小村,,37,37,54,18,20,124,26,81,49,29,24,16,17,0.6,0.6
2023-10-18T09:00:00,1726A,113.2711,40.0844,大同市,教育学院,,34,34,56,17,22,141,33,85,42,28,33,13,11,0.7,0.7
2023-10-18T09:00:00,1727A,113.1147,36.1547,长治市,清华站,,,,63,,48,139,,100,64,22,21,13,9,1.1,0.8
2023-10-18T09:00:00,1728A,113.1031,36.1989,长治市,监测站,,42,29,60,29,51,141,63,100,65,24,25,13,8,1.3,1
2023-10-18T09:00:00,1730A,113.0886,36.2125,长治市,审计局,,,,,,,,,,,,,,,,
2023-10-18T09:00:00,1731A,113.0844,36.1856,长治市,长治八中,,33,31,70,23,42,143,61,100,64,22,22,20,14,1.0,0.7
2023-10-18T09:00:00,1733A,111.5531,36.0783,临汾市,临钢医院,细颗粒物(PM2.5),67,56,108,48,69,150,17,50,21,28,31,8,11,1.3,1.4
2023-10-18T09:00:00,1734A,111.5028,36.0714,临汾市,技工学校,细颗粒物(PM2.5),82,65,96,60,76,158,32,55,23,24,32,8,10,0.9,1
2023-10-18T09:00:00,1736A,111.5018,36.0855,临汾市,市委,细颗粒物(PM2.5),78,68,111,57,82,157,27,58,27,28,31,9,12,1.0,1.1
2023-10-18T09:00:00,1738A,113.5758,37.8572,阳泉市,市中心,,37,37,64,25,46,155,61,43,42,28,38,7,8,0.7,1
2023-10-18T09:00:00,1739A,113.4894,37.8731,阳泉市,赛鱼,细颗粒物(PM2.5),52,48,76,36,52,149,45,43,35,34,42,9,9,0.6,0.9
2023-10-18T09:00:00,1740A,113.5819,37.8486,阳泉市,南庄,颗粒物(PM10),51,52,86,30,46,158,68,56,56,24,31,8,10,0.6,1
2023-10-18T09:00:00,1742A,113.5614,37.8703,阳泉市,平坦,,42,42,76,18,51,148,54,50,40,31,38,6,7,0.7,1
2023-10-18T09:00:00,1743A,113.5158,37.8392,阳泉市,大阳泉,,39,20,61,27,46,159,63,69,61,23,30,7,7,0.6,0.9
2023-10-18T09:00:00,1744A,118.9233,42.2816,赤峰市,松山一中,,30,30,40,13,16,133,41,63,47,32,26,11,13,0.6,0.6
2023-10-18T09:00:00,1745A,118.9576,42.2728,赤峰市,哈达街,,,39,45,22,19,131,45,67,50,34,28,,20,0.5,0.6
2023-10-18T09:00:00,1746A,118.8788,42.2554,赤峰市,天义路,,24,24,36,11,16,142,37,78,52,31,19,11,12,0.5,0.5
2023-10-18T09:00:00,1748A,123.044,41.1196,鞍山市,深沟寺,细颗粒物(PM2.5),58,62,58,41,40,156,72,146,113,18,16,4,6,0.8,0.8
2023-10-18T09:00:00,1749A,123.011,41.0931,鞍山市,太阳城,颗粒物(PM10),60,70,70,41,36,158,55,148,108,37,20,9,11,1.9,0.9
2023-10-18T09:00:00,1750A,123.0485,41.1442,鞍山市,太平,颗粒物(PM10),56,61,84,34,38,161,52,152,109,37,27,8,11,1.0,0.9
2023-10-18T09:00:00,1751A,122.9642,41.0971,鞍山市,铁西三道街,,,74,92,40,43,153,46,144,100,45,26,,8,1.4,0.9
2023-10-18T09:00:00,1752A,122.9341,41.0833,鞍山市,铁西工业园区,颗粒物(PM10),59,68,86,40,42,133,47,120,91,28,21,10,10,1.5,1.1
2023-10-18T09:00:00,1753A,123.022,41.0821,鞍山市,明达新区,细颗粒物(PM2.5),60,65,60,43,34,152,74,144,110,31,17,6,9,1.6,1.1
2023-10-18T09:00:00,1754A,123.1289,41.0228,鞍山市,千山,,,,,,,,,,,,,,,,
2023-10-18T09:00:00,1755A,123.7977,41.8491,抚顺市,望花区,细颗粒物(PM2.5),59,34,63,42,32,107,70,87,82,26,31,11,25,0.9,1.1
2023-10-18T09:00:00,1756A,123.9161,41.8822,抚顺市,顺城区,细颗粒物(PM2.5),60,27,66,43,45,108,66,32,32,35,40,6,9,0.9,1
2023-10-18T09:00:00,1757A,124.0436,41.8611,抚顺市,东洲区,细颗粒物(PM2.5),60,14,59,43,32,112,71,99,88,21,20,9,14,1.0,0.7
2023-10-18T09:00:00,1758A,123.9247,41.8642,抚顺市,新抚区,细颗粒物(PM2.5),57,33,50,40,35,107,67,55,55,26,26,7,9,1.4,0.9
2023-10-18T09:00:00,1759A,124.0972,41.8961,抚顺市,大伙房水库,细颗粒物(PM2.5),53,30,45,37,29,120,72,107,100,21,13,10,11,1.2,0.8
2023-10-18T09:00:00,1760A,123.7086,41.8391,抚顺市,沈抚新城,细颗粒物(PM2.5),62,33,64,44,36,117,72,87,84,27,30,10,14,0.6,0.7
2023-10-18T09:00:00,1761A,123.8275,41.3064,本溪市,大峪,颗粒物(PM10),53,55,46,27,23,117,50,108,95,43,20,8,9,1.3,0.7
2023-10-18T09:00:00,1762A,123.7567,41.3325,本溪市,溪湖,"颗粒物(PM10),细颗粒物(PM2.5)",67,83,65,48,30,110,55,99,76,33,27,12,18,1.8,1.1
2023-10-18T09:00:00,1763A,123.7169,41.3094,本溪市,彩屯,细颗粒物(PM2.5),69,83,98,50,56,114,43,50,49,49,53,11,47,1.7,3.2
2023-10-18T09:00:00,1764A,123.7669,41.2864,本溪市,东明,,33,29,47,23,24,113,92,110,100,16,20,8,11,0.8,0.8
2023-10-18T09:00:00,1765A,123.7992,41.2664,本溪市,新立屯,,26,22,39,18,17,99,52,98,84,33,21,9,11,1.0,1
2023-10-18T09:00:00,1766A,123.8142,41.3472,本溪市,威宁,细颗粒物(PM2.5),68,57,69,49,35,97,19,86,68,52,29,7,7,2.4,0.9
2023-10-18T09:00:00,1767A,121.1115,41.0879,锦州市,南山,,23,23,53,6,43,128,36,91,65,25,23,13,14,0.6,0.9
2023-10-18T09:00:00,1768A,121.0533,40.8434,锦州市,开发区,,36,25,79,25,50,143,13,124,69,52,33,11,23,0.7,0.9
2023-10-18T09:00:00,1769A,121.1836,41.1119,锦州市,百股街道,,16,16,51,9,30,130,28,109,62,30,24,11,15,0.6,0.8
2023-10-18T09:00:00,1770A,121.1178,41.1222,锦州市,天安街道,,23,23,66,9,40,122,36,88,60,25,26,13,15,0.6,1
2023-10-18T09:00:00,1771A,121.1303,41.1386,锦州市,北湖公园,,15,15,58,8,40,124,43,88,65,15,23,16,16,0.4,0.8
2023-10-18T09:00:00,1772A,126.54,43.8622,吉林市,哈达湾,,,,31,,16,99,,86,86,22,20,8,6,0.7,0.6
2023-10-18T09:00:00,1773A,126.5844,43.8358,吉林市,东局子,颗粒物(PM10),63,75,34,32,15,92,70,76,76,42,22,8,6,0.8,0.5
2023-10-18T09:00:00,1774A,126.5052,43.8245,吉林市,电力学院,颗粒物(PM10),54,58,47,28,23,91,87,74,74,23,31,11,10,0.7,0.7
2023-10-18T09:00:00,1775A,126.6133,43.8972,吉林市,江北,颗粒物(PM10),67,84,48,31,20,84,79,68,68,36,26,11,9,0.9,0.8
2023-10-18T09:00:00,1776A,126.555,43.8306,吉林市,江南公园,颗粒物(PM10),54,57,33,35,19,95,91,84,84,22,20,10,8,0.7,0.6
2023-10-18T09:00:00,1778A,126.7061,43.7133,吉林市,丰满,,,,,,,,,,,,,,,,
2023-10-18T09:00:00,1779A,123.9305,47.3636,齐齐哈尔市,安居小区,,47,47,51,10,17,62,50,44,44,6,20,5,6,0.2,0.4
2023-10-18T09:00:00,1780A,123.9488,47.3386,齐齐哈尔市,中心广场,,14,13,28,8,15,60,42,50,44,13,18,3,4,0.4,0.5
2023-10-18T09:00:00,1781A,123.9483,47.3227,齐齐哈尔市,农牧车辆厂,颗粒物(PM10),57,63,53,8,9,65,42,50,40,14,15,12,9,0.3,0.4
2023-10-18T09:00:00,1783A,123.945,47.2988,齐齐哈尔市,市环境监测站,,25,25,48,12,11,67,44,53,39,8,12,5,5,0.2,0.3
2023-10-18T09:00:00,1784A,129.61,44.561,牡丹江市,环保大楼,,43,43,41,19,18,73,14,8,8,34,33,16,7,0.7,0.5
2023-10-18T09:00:00,1785A,129.6115,44.5782,牡丹江市,文化广场,,,78,55,40,30,69,,5,5,,36,12,9,1.0,0.7
2023-10-18T09:00:00,1786A,129.5904,44.5963,牡丹江市,第一医院,颗粒物(PM10),68,86,53,29,28,68,5,7,4,49,34,14,8,1.3,0.7
2023-10-18T09:00:00,1787A,129.6364,44.6075,牡丹江市,机车工厂,颗粒物(PM10),87,124,75,25,20,69,8,7,7,40,28,9,6,1.1,0.7
2023-10-18T09:00:00,1788A,129.6386,44.5462,牡丹江市,第一中学,颗粒物(PM10),53,56,37,19,16,74,12,7,7,38,28,14,7,0.6,0.4
2023-10-18T09:00:00,1789A,124.81117,46.03138,大庆市,大同区,,21,21,61,2,15,72,39,54,44,11,14,5,7,0.5,0.5
2023-10-18T09:00:00,1790A,125.129,46.533,大庆市,龙凤区,,20,17,25,14,12,64,38,42,38,16,17,5,13,0.5,0.6
2023-10-18T09:00:00,1791A,124.902,46.408,大庆市,红岗区,,18,18,40,10,12,67,36,51,41,13,14,4,5,0.2,0.4
2023-10-18T09:00:00,1792A,125.153,46.586,大庆市,萨尔图区,,36,36,53,5,11,66,38,46,39,19,17,4,6,0.3,0.3
2023-10-18T09:00:00,1793A,124.9042,46.6215,大庆市,让胡路区,,21,21,43,14,9,70,39,49,41,13,16,2,3,0.3,0.4
2023-10-18T09:00:00,1794A,118.3606,31.3519,芜湖市,监测站,细颗粒物(PM2.5),79,86,77,58,53,178,87,150,113,36,23,13,11,0.7,0.6
2023-10-18T09:00:00,1795A,118.3714,31.4134,芜湖市,科创中心,细颗粒物(PM2.5),74,86,77,54,57,183,92,119,93,45,45,14,10,0.9,0.7
2023-10-18T09:00:00,1796A,118.3673,31.3131,芜湖市,四水厂,颗粒物(PM10),71,92,81,47,49,179,88,147,109,30,24,10,10,0.7,0.6
2023-10-18T09:00:00,1798A,118.5092,31.6837,马鞍山市,湖东路四小,细颗粒物(PM2.5),97,69,63,72,51,188,116,159,136,30,22,13,12,1.0,0.7
2023-10-18T09:00:00,1799A,118.5024,31.6449,马鞍山市,开发区,细颗粒物(PM2.5),105,102,80,79,61,185,107,146,110,37,33,12,13,0.9,0.7
2023-10-18T09:00:00,1800A,118.5228,31.7231,马鞍山市,慈湖,细颗粒物(PM2.5),88,80,74,65,58,181,123,165,139,34,28,11,14,0.9,0.7
2023-10-18T09:00:00,1802A,118.6245,31.7241,马鞍山市,濮塘,,,,,,,,,,,,,,,,
2023-10-18T09:00:00,1803A,115.9872,29.6815,九江市,十里,颗粒物(PM10),64,77,58,37,38,169,57,23,23,49,41,9,7,0.9,0.7
2023-10-18T09:00:00,1804A,115.9584,29.7046,九江市,茅山头,细颗粒物(PM2.5),74,67,54,54,46,161,69,33,33,38,43,13,10,0.9,0.8
2023-10-18T09:00:00,1805A,115.9877,29.7295,九江市,西园,细颗粒物(PM2.5),74,84,66,54,40,153,37,9,9,59,49,10,10,0.9,0.9
2023-10-18T09:00:00,1806A,116.0172,29.6547,九江市,五七二七厂,细颗粒物(PM2.5),53,47,35,37,27,174,78,98,82,31,15,11,11,0.7,0.5
2023-10-18T09:00:00,1808A,115.9114,29.6038,九江市,综合工业园,细颗粒物(PM2.5),74,77,65,54,43,182,74,91,71,35,39,16,14,0.9,0.8
2023-10-18T09:00:00,1809A,116.0721,29.7535,九江市,石化总厂,细颗粒物(PM2.5),74,76,77,54,48,154,81,85,62,40,28,16,13,0.7,0.7
2023-10-18T09:00:00,1810A,115.9773,29.5698,九江市,庐山气象台,,39,27,35,18,26,162,123,151,133,4,5,7,7,1.0,0.6
2023-10-18T09:00:00,1812A,112.3931,34.6516,洛阳市,市委党校,细颗粒物(PM2.5),63,55,146,45,125,155,37,70,50,15,31,6,8,0.6,0.9
2023-10-18T09:00:00,1814A,112.4657,34.6871,洛阳市,豫西宾馆,细颗粒物(PM2.5),64,75,160,46,106,160,25,46,38,23,32,10,6,0.7,0.8
2023-10-18T09:00:00,1815A,112.494,34.6886,洛阳市,河南林校,细颗粒物(PM2.5),62,66,149,44,109,158,25,44,37,25,33,7,4,0.8,0.8
2023-10-18T09:00:00,1816A,112.3844,34.623,洛阳市,开发区管委会,,50,47,146,35,111,166,43,56,48,14,28,3,4,0.5,0.8
2023-10-18T09:00:00,1817A,112.4267,34.6258,洛阳市,市委新办公区,细颗粒物(PM2.5),54,52,159,38,126,150,43,54,47,14,30,3,5,0.5,0.8
2023-10-18T09:00:00,1818A,114.4839,36.0621,安阳市,棉研所,,,,,,,,,,,,,,,,
2023-10-18T09:00:00,1819A,114.3551,36.1017,安阳市,红庙街,细颗粒物(PM2.5),117,97,117,88,73,181,82,59,59,27,36,10,11,1.4,1
2023-10-18T09:00:00,1820A,114.361,36.0681,安阳市,银杏小区,细颗粒物(PM2.5),87,100,113,64,61,176,79,56,56,20,34,9,11,1.4,0.9
2023-10-18T09:00:00,1824A,114.3389,34.7781,开封市,肿瘤医院,细颗粒物(PM2.5),88,110,142,65,66,161,53,43,36,18,35,8,9,0.9,0.7
2023-10-18T09:00:00,1826A,114.2885,34.7965,开封市,世纪星幼儿园,颗粒物(PM10),75,100,122,51,52,159,46,45,40,30,45,7,8,1.0,0.8
2023-10-18T09:00:00,1828A,113.227,35.2125,焦作市,市环保局,,,,123,,83,187,25,44,40,26,27,8,10,,0.9
2023-10-18T09:00:00,1830A,113.1992,35.2590,焦作市,影视城,,,,,,,,,,,,,,,,
2023-10-18T09:00:00,1832A,113.3257,33.742,平顶山市,新华旅馆,细颗粒物(PM2.5),72,73,124,52,71,160,54,57,57,18,46,6,10,0.6,0.8
2023-10-18T09:00:00,1833A,113.2919,33.737,平顶山市,规划设计院,颗粒物(PM10),63,75,132,43,90,158,53,54,54,15,45,8,12,0.5,0.8
2023-10-18T09:00:00,1834A,113.182,33.774,平顶山市,平顶山工学院,细颗粒物(PM2.5),67,73,138,48,81,163,50,55,55,19,32,12,15,0.7,0.9
2023-10-18T09:00:00,1835A,111.1922,34.7752,三门峡市,市政府,,37,37,93,16,50,123,25,35,28,31,33,12,9,0.7,0.9
2023-10-18T09:00:00,1836A,111.1587,34.7942,三门峡市,开发区,细颗粒物(PM2.5),62,35,145,44,91,128,35,44,33,16,27,8,9,0.5,0.9
2023-10-18T09:00:00,1838A,111.143,34.7955,三门峡市,风景区,,,,,,,,,,,,,,,,
2023-10-18T09:00:00,1840A,111.2992,30.6981,宜昌市,白龙岗,细颗粒物(PM2.5),64,61,63,46,45,167,54,60,56,34,31,6,9,0.6,0.6
2023-10-18T09:00:00,1841A,111.3549,30.6465,宜昌市,伍家岗,细颗粒物(PM2.5),67,66,63,48,49,173,29,57,40,51,39,6,8,0.8,0.7
2023-10-18T09:00:00,1842A,111.2628,30.6961,宜昌市,点军区,细颗粒物(PM2.5),58,63,77,41,55,183,33,36,30,26,26,8,9,0.6,0.7
2023-10-18T09:00:00,1843A,111.3275,30.7819,宜昌市,夷陵区,细颗粒物(PM2.5),85,69,71,63,46,175,49,55,34,29,29,6,8,0.6,0.6
2023-10-18T09:00:00,1844A,112.2494,30.3197,荆州市,市图书馆,细颗粒物(PM2.5),117,143,93,88,63,184,48,94,36,73,39,12,12,1.4,0.8
2023-10-18T09:00:00,1845A,112.2008,30.3544,荆州市,市委党校,细颗粒物(PM2.5),118,111,90,89,61,186,27,96,28,57,44,13,11,1.2,0.9
2023-10-18T09:00:00,1847A,113.1094,29.3578,岳阳市,南湖风景区,细颗粒物(PM2.5),52,52,54,36,39,184,67,57,52,33,38,15,12,0.8,0.8
2023-10-18T09:00:00,1848A,113.1493,29.4251,岳阳市,城陵矶,颗粒物(PM10),58,65,71,36,38,183,56,52,44,36,52,10,11,0.8,0.8
2023-10-18T09:00:00,1849A,113.1497,29.3575,岳阳市,开发区,细颗粒物(PM2.5),55,49,53,39,40,177,68,57,53,24,36,18,11,0.7,0.7
2023-10-18T09:00:00,1850A,113.2621,29.4758,岳阳市,云溪区,细颗粒物(PM2.5),65,61,55,47,41,202,78,60,27,42,30,16,10,0.9,0.6
2023-10-18T09:00:00,1851A,112.9943,29.4402,岳阳市,君山区,细颗粒物(PM2.5),90,79,68,67,48,168,59,64,42,34,41,9,8,0.6,0.6
2023-10-18T09:00:00,1852A,113.2117,29.355,岳阳市,金凤水库,颗粒物(PM10),59,67,44,33,28,210,49,86,60,27,19,4,6,0.9,0.6
2023-10-18T09:00:00,1854A,111.6975,28.9703,常德市,市二中,细颗粒物(PM2.5),68,57,85,49,62,157,19,69,24,29,26,14,11,0.7,0.7
2023-10-18T09:00:00,1857A,111.7158,29.1456,常德市,白鹤山,颗粒物(PM10),63,75,48,23,4,167,64,133,100,22,10,8,8,0.7,0.5
2023-10-18T09:00:00,1858A,110.5319,29.1217,张家界市,永定新区,细颗粒物(PM2.5),62,61,53,44,37,144,27,64,43,30,23,7,7,0.6,0.6
2023-10-18T09:00:00,1859A,110.4697,29.1242,张家界市,电业局,细颗粒物(PM2.5),59,57,52,42,36,158,18,56,36,27,24,8,9,0.6,0.6
2023-10-18T09:00:00,1860A,110.5594,29.3547,张家界市,未央路,,47,47,46,30,31,152,37,47,41,38,14,3,4,0.6,0.6
2023-10-18T09:00:00,1861A,110.4417,29.315,张家界市,袁家界,颗粒物(PM10),51,51,41,30,27,150,47,117,106,45,12,9,9,0.8,0.7
2023-10-18T09:00:00,1862A,110.4144,25.3167,桂林市,电子科大尧山校区,,45,45,38,29,29,124,52,36,33,6,7,4,4,0.5,0.5
2023-10-18T09:00:00,1863A,110.2819,25.2697,桂林市,监测站,细颗粒物(PM2.5),65,65,65,47,39,155,48,51,44,33,29,9,8,0.9,0.9
2023-10-18T09:00:00,1864A,110.3089,25.2708,桂林市,龙隐路小学,细颗粒物(PM2.5),57,56,50,40,37,152,46,60,49,27,21,9,9,0.8,0.7
2023-10-18T09:00:00,1865A,110.2869,25.2178,桂林市,八中,细颗粒物(PM2.5),68,53,54,49,39,147,38,40,29,28,22,7,6,0.8,0.7
2023-10-18T09:00:00,1866A,109.2262,21.588,北海市,牛尾岭水库,,,,,,,,,,,,,,,,
2023-10-18T09:00:00,1867A,109.1436,21.4086,北海市,海滩公园,,,54,56,34,33,178,98,105,101,14,12,14,11,,0.8
2023-10-18T09:00:00,1868A,109.0981,21.4661,北海市,新市环保局,细颗粒物(PM2.5),58,49,52,41,38,164,105,113,104,16,14,11,12,0.7,0.7
2023-10-18T09:00:00,1869A,109.1778,21.5233,北海市,北海工业园,细颗粒物(PM2.5),62,48,60,44,42,148,88,94,87,18,13,9,15,0.7,0.7
2023-10-18T09:00:00,1870A,109.4856,24.3895,柳州市,柳东小学,,48,43,51,33,42,153,64,51,51,10,17,13,12,0.5,0.6
2023-10-18T09:00:00,1871A,109.4157,24.3277,柳州市,环保监测站,细颗粒物(PM2.5),70,67,78,51,48,142,48,32,32,26,32,17,11,0.9,0.9
2023-10-18T09:00:00,1872A,109.389,24.341,柳州市,河西水厂,颗粒物(PM10),74,98,92,40,47,148,34,57,37,30,31,22,15,1.6,1.4
2023-10-18T09:00:00,1873A,109.4311,24.2921,柳州市,市四中,细颗粒物(PM2.5),59,63,67,42,39,160,57,32,31,23,29,14,10,1.0,0.9
2023-10-18T09:00:00,1874A,109.4006,24.3631,柳州市,市九中,细颗粒物(PM2.5),80,100,86,59,49,138,43,35,30,31,36,20,11,1.0,1
2023-10-18T09:00:00,1875A,109.4958,24.3134,柳州市,古亭山,细颗粒物(PM2.5),60,60,51,43,34,167,27,22,19,46,37,26,14,0.8,0.7
2023-10-18T09:00:00,1876A,109.5078,18.2489,三亚市,河东子站,,20,7,8,2,3,95,62,58,58,3,4,4,4,0.4,0.4
2023-10-18T09:00:00,1877A,109.4964,18.2681,三亚市,河西子站,,16,7,8,3,2,86,51,50,50,4,3,4,4,0.3,0.3
2023-10-18T09:00:00,1878A,104.7778,31.4741,绵阳市,富乐山,,23,23,36,14,24,106,55,43,43,8,16,4,4,0.6,0.6
2023-10-18T09:00:00,1879A,104.7563,31.4535,绵阳市,市人大,,26,24,40,18,25,80,37,39,39,24,27,7,8,0.6,0.6
2023-10-18T09:00:00,1880A,104.6697,31.4668,绵阳市,高新区自来水公司,,19,19,33,10,21,72,43,34,34,18,30,6,7,0.8,0.8
2023-10-18T09:00:00,1881A,104.7287,31.5075,绵阳市,三水厂,,35,25,47,24,36,64,46,30,30,14,35,7,8,0.5,0.7
2023-10-18T09:00:00,1882A,104.563,28.793,宜宾市,石马中学,,,,,,,,,,,,,,,,
2023-10-18T09:00:00,1883A,104.6201,28.7728,宜宾市,市委,细颗粒物(PM2.5),68,56,59,49,46,113,36,80,49,26,19,6,6,0.8,0.8
2023-10-18T09:00:00,1884A,104.6055,28.793,宜宾市,宜宾四中,细颗粒物(PM2.5),70,59,63,51,48,112,33,65,53,28,20,4,4,0.8,0.7
2023-10-18T09:00:00,1885A,104.639,28.7562,宜宾市,市政府,细颗粒物(PM2.5),70,58,62,51,48,114,48,82,61,21,17,6,7,0.9,0.9
2023-10-18T09:00:00,1886A,104.5742,28.7199,宜宾市,黄金嘴,细颗粒物(PM2.5),60,53,56,43,42,111,50,66,54,13,11,8,8,0.7,0.7
2023-10-18T09:00:00,1888A,101.6891,26.571,攀枝花市,弄弄坪,颗粒物(PM10),58,66,41,25,22,103,11,25,12,30,24,19,15,1.7,0.9
2023-10-18T09:00:00,1889A,101.5769,26.5928,攀枝花市,河门口,,40,40,36,24,22,126,14,18,16,21,21,9,20,1.0,1.1
2023-10-18T09:00:00,1890A,101.7169,26.585,攀枝花市,炳草岗,,48,43,43,33,27,109,10,7,7,31,33,12,21,1.5,1.2
2023-10-18T09:00:00,1891A,101.7369,26.5008,攀枝花市,仁和,,30,30,29,19,18,94,19,31,18,26,21,6,14,0.6,0.8
2023-10-18T09:00:00,1893A,105.4324,28.9634,泸州市,九狮山,,50,50,65,35,45,95,39,45,42,15,18,4,5,0.5,0.5
2023-10-18T09:00:00,1894A,105.4427,28.9063,泸州市,小市上码头,,,62,86,42,60,124,56,65,60,18,14,6,7,,0.8
2023-10-18T09:00:00,1895A,105.4241,28.8573,泸州市,兰田宪桥,细颗粒物(PM2.5),59,57,81,42,62,122,48,68,56,9,9,7,5,0.7,0.6
2023-10-18T09:00:00,1896A,105.4379,28.8833,泸州市,市环监站,颗粒物(PM10),51,52,76,34,54,104,38,61,52,24,15,3,4,0.8,0.7
2023-10-18T09:00:00,1901A,104.4239,31.1208,德阳市,东山公园,,32,32,47,17,22,91,62,46,46,6,18,3,1,0.4,0.5
2023-10-18T09:00:00,1902A,104.3826,31.1317,德阳市,西小区,,33,33,46,16,25,90,58,42,42,9,16,3,3,0.5,0.6
2023-10-18T09:00:00,1904A,104.3553,31.1091,德阳市,耐火材料厂,,,30,49,17,26,88,,38,38,12,17,3,3,0.4,0.6
2023-10-18T09:00:00,1905A,106.056,30.8064,南充市,西山风景区,,36,24,43,25,41,129,29,52,44,5,7,4,5,0.4,0.6
2023-10-18T09:00:00,1906A,106.0789,30.8023,南充市,南充市委,细颗粒物(PM2.5),55,48,64,39,53,118,21,40,34,22,26,4,6,0.5,0.6
2023-10-18T09:00:00,1907A,106.1031,30.8217,南充市,南充炼油厂,颗粒物(PM10),60,70,84,26,40,129,19,44,37,25,21,4,6,0.6,0.6
2023-10-18T09:00:00,1908A,106.1064,30.7856,南充市,高坪区监测站,,38,36,59,26,44,115,24,45,39,23,22,5,6,0.3,0.4
2023-10-18T09:00:00,1909A,106.0642,30.7636,南充市,嘉陵区环保局,,49,35,57,34,45,122,22,46,37,20,24,3,6,0.6,0.6
2023-10-18T09:00:00,1910A,106.1087,30.8388,南充市,市环境监测站,,,,65,,44,121,,45,39,34,20,5,7,0.4,0.5
2023-10-18T09:00:00,1911A,106.9222,27.6869,遵义市,丁字口,,,,33,,24,123,53,47,47,29,29,,8,,0.5
2023-10-18T09:00:00,1912A,106.9242,27.7019,遵义市,凤凰山,,36,32,30,25,22,133,94,103,96,11,8,12,10,0.6,0.5
2023-10-18T09:00:00,1913A,106.8906,27.6486,遵义市,忠庄,,39,35,36,27,25,123,68,83,72,15,11,4,4,0.4,0.3
2023-10-18T09:00:00,1914A,106.9231,27.6506,遵义市,舟水桥,,41,41,35,28,23,129,42,31,28,20,19,3,4,0.6,0.5
2023-10-18T09:00:00,1915A,106.9178,27.72,遵义市,干田坝,,28,26,29,19,22,128,85,82,54,14,17,10,7,0.5,0.5
2023-10-18T09:00:00,1916A,103.7897,25.5035,曲靖市,环境监测站,,30,16,23,21,13,114,35,35,22,11,14,2,2,0.5,0.5
2023-10-18T09:00:00,1917A,103.8,25.5364,曲靖市,烟厂办公区,,24,24,25,10,13,111,38,31,22,10,16,4,5,0.7,0.6
2023-10-18T09:00:00,1918A,108.7197,34.3956,咸阳市,气象站,,,,,,,,,,,,,,,,
2023-10-18T09:00:00,1919A,108.673,34.3155,咸阳市,实验中学,颗粒物(PM10),52,54,80,24,36,77,1,28,5,41,42,3,4,0.7,0.8
2023-10-18T09:00:00,1920A,108.7233,34.3617,咸阳市,师范学院,颗粒物(PM10),55,60,71,24,32,68,9,28,21,41,35,4,5,0.7,0.7
2023-10-18T09:00:00,1922A,109.0656,35.0994,铜川市,党校,,15,14,36,10,23,120,11,8,8,12,25,7,8,0.6,0.7
2023-10-18T09:00:00,1923A,109.0697,35.0697,铜川市,王益区政府,,35,35,43,13,29,93,12,10,10,24,29,8,3,0.7,0.7
2023-10-18T09:00:00,1924A,108.9344,34.9058,铜川市,新区管委会,,48,48,54,24,34,77,33,44,39,26,25,5,5,0.6,0.7
2023-10-18T09:00:00,1926A,109.4131,36.6275,延安市,枣园,,21,21,35,9,22,12,5,5,4,19,37,7,7,0.4,0.5
2023-10-18T09:00:00,1927A,109.4761,36.6028,延安市,延大医附院,,19,19,38,11,20,22,6,6,6,19,38,6,6,0.7,0.8
2023-10-18T09:00:00,1929A,109.5056,36.6106,延安市,百米大道,,28,23,47,19,24,17,9,9,9,27,47,2,3,0.7,0.8
2023-10-18T09:00:00,1930A,107.185,34.3063,宝鸡市,庙沟村,,24,24,37,16,22,82,44,52,41,11,14,8,9,0.4,0.4
2023-10-18T09:00:00,1931A,107.0708,34.3017,宝鸡市,竹园沟,,25,22,29,17,21,86,33,31,25,10,16,6,6,0.4,0.5
2023-10-18T09:00:00,1932A,107.1906,34.3672,宝鸡市,三陆医院,,31,31,49,17,27,69,7,14,8,34,40,10,11,0.6,0.6
2023-10-18T09:00:00,1933A,107.1431,34.3547,宝鸡市,监测站,,26,16,38,18,23,68,13,19,14,26,27,6,7,0.5,0.5
2023-10-18T09:00:00,1934A,107.1186,34.3739,宝鸡市,技工学校,,30,24,34,21,23,71,13,24,18,22,26,7,8,0.4,0.5
2023-10-18T09:00:00,1935A,107.3906,34.3528,宝鸡市,陈仓区环保局家属楼,,43,37,55,30,35,73,10,25,15,40,42,21,11,0.9,0.7
2023-10-18T09:00:00,1936A,107.2058,34.3497,宝鸡市,文理学院,,29,29,40,11,24,70,6,18,13,35,36,5,6,0.7,0.6
2023-10-18T09:00:00,1937A,107.2386,34.3622,宝鸡市,三迪小学,,29,29,40,14,27,70,6,19,10,31,37,7,8,0.7,0.5
2023-10-18T09:00:00,1938A,109.5293,34.5101,渭南市,农科所,颗粒物(PM10),52,53,88,29,62,88,4,52,27,39,34,5,5,0.8,1
2023-10-18T09:00:00,1939A,109.4974,34.4877,渭南市,日报社,颗粒物(PM10),51,51,90,34,63,87,9,56,26,45,44,6,7,0.6,0.7
2023-10-18T09:00:00,1940A,109.4636,34.493,渭南市,体育馆,颗粒物(PM10),53,56,89,20,58,91,4,57,20,45,46,4,4,0.6,0.8
2023-10-18T09:00:00,1941A,109.4259,34.5023,渭南市,高新一小,颗粒物(PM10),51,51,92,27,63,83,5,49,22,37,36,4,4,0.6,0.8
2023-10-18T09:00:00,1944A,102.1692,38.5167,金昌市,天庆家园,,27,23,27,6,7,116,84,86,86,7,10,5,9,0.2,0.3
2023-10-18T09:00:00,1945A,98.2908,39.7711,嘉峪关市,气象局,,24,9,32,7,10,104,74,85,83,17,10,2,7,0.0,0.1
2023-10-18T09:00:00,1947A,106.3394,38.817,石嘴山市,沙湖旅游区,颗粒物(PM10),60,70,70,41,24,115,15,12,9,38,30,15,14,0.4,0.5
2023-10-18T09:00:00,1948A,106.3668,39.0145,石嘴山市,大武口朝阳西街,颗粒物(PM10),89,128,67,54,21,115,12,50,23,45,35,13,11,1.1,0.5
2023-10-18T09:00:00,1949A,106.7704,39.2282,石嘴山市,惠农南大街,颗粒物(PM10),57,63,97,24,28,104,14,64,17,39,39,9,23,0.6,0.9
2023-10-18T09:00:00,1950A,106.7099,39.1325,石嘴山市,红果子镇惠新街,颗粒物(PM10),64,77,88,32,37,110,8,21,17,37,30,14,19,0.6,0.6
2023-10-18T09:00:00,1951A,84.895,45.6094,克拉玛依市,长征新村,,16,16,18,3,6,69,36,51,47,18,11,9,9,0.3,0.3
2023-10-18T09:00:00,1952A,84.8988,45.5893,克拉玛依市,南林小区,,22,18,21,15,12,70,27,34,34,26,16,5,5,0.7,0.5
2023-10-18T09:00:00,1954A,84.905,44.3396,克拉玛依市,独山子区,,30,30,37,18,19,82,28,27,26,28,23,4,6,0.6,0.5
2023-10-18T09:00:00,1955A,85.6979,46.098,克拉玛依市,乌尔禾区商贸楼,,11,3,14,2,7,72,33,28,28,10,19,4,5,0.4,0.4
2023-10-18T09:00:00,1956A,86.1472,41.7538,巴音郭楞州,孔雀公园,,40,40,90,19,26,96,17,37,37,54,36,2,2,0.4,0.5
2023-10-18T09:00:00,1957A,86.1972,41.7166,巴音郭楞州,棉纺厂,,38,30,128,26,28,98,42,51,51,26,21,3,2,0.4,0.3
2023-10-18T09:00:00,1958A,86.2357,41.7173,巴音郭楞州,经济开发区,,24,24,94,12,22,103,67,76,76,12,16,1,2,0.3,0.3
2023-10-18T09:00:00,1961A,117.532,36.6868,济南市,东山小学,细颗粒物(PM2.5),77,85,84,56,38,179,140,152,147,24,22,10,9,0.8,0.8
2023-10-18T09:00:00,1966A,120.0405,35.8735,青岛市,黄岛区4号,,,119,69,68,34,158,,147,147,34,19,,9,,0.8
2023-10-18T09:00:00,1982A,122.0693,37.2174,威海市,文登开发区,颗粒物(PM10),54,58,36,27,10,123,123,120,118,18,12,8,8,0.7,0.5
2023-10-18T09:00:00,2031A,113.1817,27.9958,株洲市,云田中学,颗粒物(PM10),54,58,61,36,40,170,95,118,94,15,17,14,13,0.7,0.7
2023-10-18T09:00:00,2054A,114.1099,32.1059,信阳市,平桥分局,细颗粒物(PM2.5),52,39,42,36,26,151,80,45,45,22,16,4,3,0.8,0.6
2023-10-18T09:00:00,2064A,113.9956,32.1271,信阳市,南湾水厂,,48,42,41,33,25,163,70,88,66,12,10,4,4,0.7,0.6
2023-10-18T09:00:00,2065A,114.0775,32.1195,信阳市,市酿酒公司,,50,50,44,28,28,150,81,38,38,28,23,4,3,0.9,0.7
2023-10-18T09:00:00,2066A,114.0609,32.1399,信阳市,审计局,颗粒物(PM10),60,69,48,27,28,153,70,49,43,38,25,6,5,0.9,0.6
2023-10-18T09:00:00,2067A,114.6613,33.6128,周口市,市环境监测站,细颗粒物(PM2.5),127,196,118,96,58,159,43,70,56,57,38,13,9,0.8,0.5
2023-10-18T09:00:00,2068A,114.6758,33.6347,周口市,周口师范,细颗粒物(PM2.5),134,188,107,102,57,163,44,76,58,51,35,10,7,0.9,0.6
2023-10-18T09:00:00,2069A,114.6546,33.5979,周口市,市运管处,颗粒物(PM10),143,235,124,89,57,163,43,61,56,53,35,11,8,0.7,0.4
2023-10-18T09:00:00,2070A,114.6369,33.6406,周口市,川汇区环保局,细颗粒物(PM2.5),142,205,99,108,50,163,35,80,58,62,36,13,9,0.8,0.5
2023-10-18T09:00:00,2075A,117.6336,24.4674,漳州市,九湖,,,,,,,,,,,,,,,,
2023-10-18T09:00:00,2160A,112.85,35.5051,晋城市,自来水公司,,39,28,96,27,63,186,57,81,65,19,24,5,8,0.8,1
2023-10-18T09:00:00,2161A,112.8318,35.4936,晋城市,白云商贸,,42,37,99,29,64,182,61,66,61,19,25,4,6,0.8,0.9
2023-10-18T09:00:00,2162A,112.8508,35.4887,晋城市,市环保局,,39,39,111,24,64,182,60,60,60,22,31,6,8,0.9,1.1
2023-10-18T09:00:00,2163A,112.8676,35.4897,晋城市,技术学院,,45,36,107,31,67,177,57,61,61,21,31,5,7,0.9,1
2023-10-18T09:00:00,2165A,112.8453,35.546,晋城市,白马寺,,,,,,,,,,,,,,,,
2023-10-18T09:00:00,2166A,112.4397,39.3522,朔州市,平朔,颗粒物(PM10),51,51,56,31,27,89,18,76,39,48,29,35,11,0.9,0.7
2023-10-18T09:00:00,2167A,112.4575,39.3617,朔州市,朔唯,,,54,71,29,31,102,24,74,30,51,39,,14,,0.7
2023-10-18T09:00:00,2168A,112.4258,39.3197,朔州市,区政府,,41,41,59,22,31,93,31,81,41,37,31,15,11,0.8,0.6
2023-10-18T09:00:00,2169A,112.4072,39.3278,朔州市,市环保局,,42,42,66,12,28,93,32,83,43,30,32,12,12,0.6,0.7
2023-10-18T09:00:00,2170A,112.4272,39.3681,朔州市,市二中,细颗粒物(PM2.5),55,55,61,39,30,100,16,69,36,55,29,49,13,1.0,0.6
2023-10-18T09:00:00,2171A,112.7532,37.6945,晋中市,锦纶小区,细颗粒物(PM2.5),67,66,98,48,72,170,30,58,46,32,34,8,9,0.9,1
2023-10-18T09:00:00,2173A,112.7249,37.7067,晋中市,南都小区,细颗粒物(PM2.5),58,54,107,41,72,172,44,57,52,30,31,8,9,0.8,0.9
2023-10-18T09:00:00,2174A,112.6991,37.6982,晋中市,榆次区政府,细颗粒物(PM2.5),58,45,93,41,70,171,51,61,60,32,34,10,10,0.8,1
2023-10-18T09:00:00,2175A,110.9956,35.0147,运城市,运城中学,颗粒物(PM10),55,59,110,34,63,135,28,41,34,17,16,9,7,0.8,0.9
2023-10-18T09:00:00,2178A,110.9686,35.0303,运城市,地区技校,颗粒物(PM10),53,55,104,28,58,131,26,37,29,17,18,6,5,0.5,0.7
2023-10-18T09:00:00,2179A,111.0414,35.1147,运城市,空港新区,颗粒物(PM10),62,73,116,39,67,136,25,28,23,22,24,6,7,0.6,0.7
2023-10-18T09:00:00,2181A,112.7383,38.4519,忻州市,开发区,,44,44,82,26,57,136,26,66,48,25,27,7,13,0.8,1.1
2023-10-18T09:00:00,2182A,112.7003,38.4928,忻州市,会展中心,,38,26,75,26,53,110,38,52,43,24,32,7,11,0.4,0.8
2023-10-18T09:00:00,2183A,111.1406,37.5211,吕梁市,环保局,细颗粒物(PM2.5),54,45,61,38,44,67,53,15,15,16,51,3,3,0.6,0.8
2023-10-18T09:00:00,2185A,111.1297,37.5136,吕梁市,自来水公司,细颗粒物(PM2.5),68,43,72,49,44,78,47,15,15,20,47,4,4,0.6,0.8
2023-10-18T09:00:00,2187A,106.8174,39.6973,乌海市,市林业局,颗粒物(PM10),54,57,60,29,23,95,42,64,53,20,16,9,8,0.6,0.5
2023-10-18T09:00:00,2188A,106.7907,39.6667,乌海市,中海勃湾学校,颗粒物(PM10),61,72,55,20,17,99,34,59,46,30,15,8,7,0.5,0.2
2023-10-18T09:00:00,2191A,122.2532,43.6801,通辽市,艺术职业学校,,29,29,61,6,18,109,45,70,57,22,24,5,10,0.1,0.4
2023-10-18T09:00:00,2192A,119.7594,49.2261,呼伦贝尔市,区环保局,,,22,22,14,18,68,27,53,46,25,8,,4,0.5,0.3
2023-10-18T09:00:00,2195A,107.4212,40.761,巴彦淖尔市,附二中,颗粒物(PM10),66,81,117,17,31,88,20,47,30,44,29,6,6,0.7,0.5
2023-10-18T09:00:00,2196A,107.37,40.7372,巴彦淖尔市,市环保大楼,颗粒物(PM10),54,57,104,24,32,89,18,64,29,40,25,4,3,0.5,0.5
2023-10-18T09:00:00,2197A,113.1306,40.9923,乌兰察布市,集宁新区,,30,30,36,19,20,127,32,67,54,32,19,8,9,0.6,0.5
2023-10-18T09:00:00,2200A,122.0392,46.0656,兴安盟,胜华新制药厂,,36,36,35,25,17,71,44,63,48,14,10,3,4,0.3,0.4
2023-10-18T09:00:00,2201A,121.9504,46.0741,兴安盟,科右前旗环保局,,24,24,32,9,14,68,52,63,52,8,10,4,4,0.3,0.3
2023-10-18T09:00:00,2202A,116.1042,43.9317,锡林郭勒盟,市环保监测站,,17,17,28,2,11,107,45,51,38,6,9,8,9,0.3,0.3
2023-10-18T09:00:00,2203A,116.0781,43.9311,锡林郭勒盟,市政府,,,5,34,3,11,103,,39,39,,19,,11,,0.3
2023-10-18T09:00:00,2204A,105.6467,38.8363,阿拉善盟,西城区西花园,,41,41,27,15,14,109,27,87,72,51,13,7,6,0.9,0.4
2023-10-18T09:00:00,2205A,105.6985,38.8411,阿拉善盟,蒙二幼,颗粒物(PM10),51,52,28,12,9,109,39,82,73,54,13,8,8,0.7,0.4
2023-10-18T09:00:00,2206A,105.724,38.8516,阿拉善盟,环保局新楼,,29,21,26,7,8,109,92,89,89,8,6,6,7,0.4,0.4
2023-10-18T09:00:00,2207A,121.6094,41.998,阜新市,工业园区,颗粒物(PM10),57,63,73,10,21,125,45,109,60,26,23,9,17,0.6,0.9
2023-10-18T09:00:00,2208A,121.6697,42.0279,阜新市,长青街,,31,31,73,3,16,121,41,104,59,19,22,6,14,0.4,0.7
2023-10-18T09:00:00,2209A,121.6673,42.0705,阜新市,农业园区,,15,14,57,3,28,117,48,99,60,10,18,8,13,0.3,0.6
2023-10-18T09:00:00,2210A,121.6717,42.0224,阜新市,东苑,,26,26,71,2,30,114,42,105,62,24,30,8,16,0.6,0.8
2023-10-18T09:00:00,2211A,121.6506,42.0498,阜新市,玉龙新城,,26,26,72,3,22,125,44,104,61,27,23,7,14,0.5,0.8
2023-10-18T09:00:00,2212A,123.2,41.1953,辽阳市,宏伟区,,38,35,47,26,23,119,56,107,87,27,17,8,10,0.8,0.7
2023-10-18T09:00:00,2213A,123.1683,41.2495,辽阳市,新华园,,35,35,51,21,28,116,41,109,86,24,19,8,11,0.9,0.9
2023-10-18T09:00:00,2214A,123.2354,41.2639,辽阳市,滨河路,,35,35,48,15,20,118,48,98,82,22,17,9,10,1.0,0.8
2023-10-18T09:00:00,2215A,123.149,41.2991,辽阳市,铁西工业园,,25,20,64,17,29,117,36,109,88,15,21,8,12,0.7,1
2023-10-18T09:00:00,2216A,123.8139,42.3022,铁岭市,汇工街西,,24,24,51,14,26,112,26,94,78,21,21,10,14,0.6,0.8
2023-10-18T09:00:00,2217A,123.8649,42.2923,铁岭市,水上乐园,,21,21,52,12,28,120,40,98,86,15,23,8,11,0.5,0.8
2023-10-18T09:00:00,2218A,123.8486,42.2867,铁岭市,银州路东段,,30,30,62,19,28,114,32,102,86,24,24,4,7,0.7,0.9
2023-10-18T09:00:00,2219A,123.7153,42.2217,铁岭市,金沙江路北,,,40,52,16,25,122,,94,85,21,26,3,11,0.6,0.8
2023-10-18T09:00:00,2220A,120.4318,41.5881,朝阳市,西梁,,48,48,66,17,29,122,21,122,55,33,23,12,15,0.8,1
2023-10-18T09:00:00,2221A,120.4521,41.5646,朝阳市,河畔小区,,37,37,56,8,28,132,45,112,75,19,19,10,12,0.6,0.9
2023-10-18T09:00:00,2222A,120.4176,41.5648,朝阳市,八里堡,,48,48,64,19,27,120,27,108,62,36,29,11,16,0.8,1.1
2023-10-18T09:00:00,2223A,120.3806,41.5969,朝阳市,农业园区,,22,22,59,14,36,129,17,116,59,38,22,8,11,0.6,0.9
2023-10-18T09:00:00,2225A,124.4002,43.1713,四平市,一商场,,,,54,,22,91,,85,75,,18,,6,,0.4
2023-10-18T09:00:00,2226A,124.388,43.193,四平市,境园,颗粒物(PM10),51,51,48,12,30,100,42,87,72,11,14,6,8,0.4,0.6
2023-10-18T09:00:00,2227A,125.1358,42.8845,辽源市,环保局,,48,46,43,33,27,138,108,114,114,13,26,7,8,0.9,0.8
2023-10-18T09:00:00,2229A,125.9358,41.7173,通化市,光明,,29,29,42,14,19,89,60,59,59,52,43,8,11,0.6,0.7
2023-10-18T09:00:00,2230A,125.9446,41.7325,通化市,铁路,颗粒物(PM10),53,55,45,17,21,95,20,33,33,84,42,10,12,1.1,0.8
2023-10-18T09:00:00,2231A,126.4219,41.9171,白山市,喜丰,颗粒物(PM10),68,85,69,31,21,83,10,7,7,44,38,16,11,1.1,0.7
2023-10-18T09:00:00,2232A,126.4077,41.9419,白山市,环保局,颗粒物(PM10),64,78,57,28,24,82,6,6,5,31,36,13,11,1.3,1
2023-10-18T09:00:00,2233A,124.8006,45.1214,松原市,江南,,,44,49,12,17,88,,82,48,,13,,8,,0.5
2023-10-18T09:00:00,2234A,124.7965,45.1722,松原市,江北,,16,12,43,11,17,90,42,83,48,10,12,4,4,0.3,0.4
2023-10-18T09:00:00,2235A,122.7911,45.6077,白城市,洮北区环保局,,29,29,48,7,13,69,44,48,32,15,14,5,6,0.4,0.5
2023-10-18T09:00:00,2236A,122.8738,45.5725,白城市,市环保局,,36,36,55,6,14,88,48,67,52,12,16,7,8,0.5,0.6
2023-10-18T09:00:00,2237A,129.47,42.8883,延边朝鲜族自治州,妇幼医院,,44,44,34,11,14,82,25,21,20,28,27,13,9,0.7,0.6
2023-10-18T09:00:00,2238A,129.5055,42.9108,延边朝鲜族自治州,延边医院,颗粒物(PM10),58,66,49,30,20,95,24,23,18,43,33,11,8,1.0,0.7
2023-10-18T09:00:00,2239A,129.3964,42.8881,延边朝鲜族自治州,朝阳川镇医院,,46,46,36,30,14,92,21,18,14,26,20,8,3,0.8,0.5
2023-10-18T09:00:00,2240A,130.9762,45.3001,鸡西市,环保局,,,,76,,32,62,,4,2,,31,,7,,0.8
2023-10-18T09:00:00,2243A,130.9429,45.3039,鸡西市,第一中学,颗粒物(PM10),167,284,74,56,24,71,7,34,21,49,31,21,12,0.9,0.4
2023-10-18T09:00:00,2244A,130.2537,47.3416,鹤岗市,哈啤分公司,,39,39,38,16,16,74,17,30,25,40,27,25,13,0.3,0.3
2023-10-18T09:00:00,2245A,130.2684,47.3086,鹤岗市,斯达机电,,,45,35,24,16,71,,40,36,29,25,9,10,0.3,0.3
2023-10-18T09:00:00,2246A,130.3114,47.3388,鹤岗市,东山纸板厂,颗粒物(PM10),84,118,61,32,27,81,10,21,15,48,31,19,13,0.4,0.9
2023-10-18T09:00:00,2247A,130.1097,47.3382,鹤岗市,五号水库,,24,24,13,13,11,142,20,22,18,26,16,13,11,0.3,0.3
2023-10-18T09:00:00,2248A,131.1511,46.6937,双鸭山市,双合村,颗粒物(PM10),52,54,34,9,8,71,60,63,56,18,14,12,10,0.5,0.5
2023-10-18T09:00:00,2249A,131.1652,46.6191,双鸭山市,南小市,颗粒物(PM10),67,83,38,26,11,68,34,58,40,33,16,9,7,0.5,0.5
2023-10-18T09:00:00,2250A,131.1524,46.6554,双鸭山市,环保局,,,41,24,10,10,67,53,63,55,21,15,10,8,,0.2
2023-10-18T09:00:00,2251A,131.12,46.5656,双鸭山市,苗圃,,25,10,12,6,8,101,77,81,63,10,8,4,3,0.3,0.3
2023-10-18T09:00:00,2252A,128.5159,47.4311,伊春市,环保局,,39,39,20,26,8,58,49,43,38,15,17,6,12,0.5,0.6
2023-10-18T09:00:00,2253A,128.9102,47.7412,伊春市,电力嘉园,,36,36,23,10,9,57,48,38,29,16,20,8,17,0.4,0.5
2023-10-18T09:00:00,2254A,129.5029,48.471,伊春市,汤旺河国家公园,,48,48,19,16,7,64,44,28,28,16,5,10,7,0.3,0.2
2023-10-18T09:00:00,2255A,130.2751,46.8028,佳木斯市,佳纺,,31,31,31,10,9,66,66,55,54,9,14,2,2,0.5,0.4
2023-10-18T09:00:00,2256A,130.3995,46.8307,佳木斯市,发电厂,,,40,39,17,18,68,46,47,47,,17,5,5,,0.5
2023-10-18T09:00:00,2257A,130.3258,46.7975,佳木斯市,环保局,,40,40,22,11,9,69,63,60,51,13,15,5,5,0.4,0.4
2023-10-18T09:00:00,2258A,130.3648,46.8032,佳木斯市,十一中,,34,34,27,19,10,65,52,48,48,25,23,2,2,0.5,0.4
2023-10-18T09:00:00,2259A,130.3794,46.7588,佳木斯市,四丰,,25,20,19,6,7,79,78,70,70,8,8,1,1,0.2,0.1
2023-10-18T09:00:00,2262A,131.0518,45.8751,七台河市,新一中,,,,,,,,,,,,,,,,
2023-10-18T09:00:00,2263A,127.4833,50.2524,黑河市,交通局,,22,21,25,15,13,52,37,28,20,22,19,6,5,0.4,0.3
2023-10-18T09:00:00,2264A,127.5144,50.2341,黑河市,环保局,,22,18,27,15,13,55,44,34,27,13,12,4,6,0.4,0.4
2023-10-18T09:00:00,2265A,127.5291,50.2472,黑河市,大黑河岛,,,46,27,26,17,,,,,2,2,1,3,,
2023-10-18T09:00:00,2266A,126.9785,46.6365,绥化市,人和东街,,31,31,60,11,21,66,33,47,34,18,23,4,13,0.6,0.6
2023-10-18T09:00:00,2267A,126.964,46.6528,绥化市,党政办公中心,,31,31,52,10,21,69,32,54,37,20,20,4,5,0.5,0.6
2023-10-18T09:00:00,2269A,124.1069,50.4097,大兴安岭地区,科技局,,20,16,27,14,14,62,41,41,41,8,14,6,7,0.2,0.2
2023-10-18T09:00:00,2270A,117.396,32.939,蚌埠市,工人疗养院,颗粒物(PM10),76,102,68,53,34,177,109,159,139,37,19,9,7,0.8,0.5
2023-10-18T09:00:00,2271A,117.3605,32.9427,蚌埠市,百货大楼,,,,69,,32,175,103,168,144,39,17,,8,0.7,0.5
2023-10-18T09:00:00,2273A,117.4185,32.8911,蚌埠市,蚌埠学院,细颗粒物(PM2.5),93,112,71,69,37,170,69,144,120,56,22,9,9,0.7,0.5
2023-10-18T09:00:00,2274A,117.3533,32.9673,蚌埠市,淮上区政府,细颗粒物(PM2.5),87,100,71,64,44,169,102,164,135,39,20,14,10,0.6,0.4
2023-10-18T09:00:00,2275A,117.3145,32.8977,蚌埠市,高新区,细颗粒物(PM2.5),90,122,71,67,39,179,88,157,134,54,23,10,8,0.7,0.5
2023-10-18T09:00:00,2277A,116.8305,32.7727,淮南市,潘集区政府,细颗粒物(PM2.5),113,132,85,85,47,161,69,126,94,46,27,21,14,0.8,0.6
2023-10-18T09:00:00,2278A,117.0067,32.6524,淮南市,师范学院,颗粒物(PM10),78,105,83,53,42,170,95,142,112,35,18,13,11,0.6,0.5
2023-10-18T09:00:00,2279A,116.8569,32.5951,淮南市,谢家集区政府,细颗粒物(PM2.5),75,91,69,55,39,172,84,123,90,42,34,11,11,0.5,0.4
2023-10-18T09:00:00,2280A,116.8281,32.633,淮南市,八公山区政府,细颗粒物(PM2.5),79,90,72,58,40,171,88,132,98,30,24,12,14,0.6,0.5
2023-10-18T09:00:00,2281A,116.6325,32.6201,淮南市,焦岗湖风景区管理处,颗粒物(PM10),65,80,51,42,30,160,82,115,84,20,16,3,3,0.5,0.3
2023-10-18T09:00:00,2282A,116.8004,33.975,淮北市,监测站,细颗粒物(PM2.5),93,117,112,69,40,175,102,103,103,39,35,16,13,0.9,0.7
2023-10-18T09:00:00,2283A,116.8091,33.9007,淮北市,烈山区政府,细颗粒物(PM2.5),113,116,96,85,50,192,99,98,97,44,37,14,11,0.7,0.5
2023-10-18T09:00:00,2285A,117.8177,30.9412,铜陵市,市第四中学,,,80,60,52,35,148,22,31,22,,28,24,9,1.8,0.9
2023-10-18T09:00:00,2286A,117.8059,30.9273,铜陵市,市公路局,颗粒物(PM10),76,102,56,53,23,139,17,42,25,62,28,27,6,1.9,0.8
2023-10-18T09:00:00,2287A,117.7807,30.9413,铜陵市,市新民污水厂,,,64,68,44,32,143,,4,4,50,38,13,7,1.8,0.6
2023-10-18T09:00:00,2288A,117.7439,30.8792,铜陵市,市第九中学,颗粒物(PM10),95,139,109,50,46,134,11,7,7,58,58,15,9,1.9,0.8
2023-10-18T09:00:00,2289A,117.846,30.9413,铜陵市,车站新区,,,,45,49,32,143,,44,28,60,32,9,4,0.8,0.3
2023-10-18T09:00:00,2290A,117.8483,30.97,铜陵市,市职教基地,颗粒物(PM10),55,59,62,34,29,129,15,57,18,39,22,17,14,0.8,0.5
2023-10-18T09:00:00,2291A,117.0809,30.5177,安庆市,环科院,细颗粒物(PM2.5),70,65,67,51,40,183,22,6,6,58,65,8,9,0.8,0.7
2023-10-18T09:00:00,2292A,117.0331,30.5119,安庆市,马山宾馆,,,56,68,,38,179,29,19,16,53,58,12,8,0.8,0.8
2023-10-18T09:00:00,2294A,116.9896,30.6145,安庆市,安庆大学,细颗粒物(PM2.5),72,53,50,52,36,176,26,44,28,56,30,9,7,0.9,0.7
2023-10-18T09:00:00,2295A,118.2903,29.6963,黄山市,延安路89号,,32,32,36,22,17,133,32,33,26,13,13,5,5,0.4,0.3
2023-10-18T09:00:00,2296A,118.327,29.7178,黄山市,黄山东路89号,,44,44,40,19,22,131,31,44,22,20,14,6,5,0.6,0.5
2023-10-18T09:00:00,2297A,118.1371,30.2756,黄山市,黄山区政府5号楼,颗粒物(PM10),52,53,51,34,32,126,37,24,22,11,12,7,6,0.6,0.5
2023-10-18T09:00:00,2298A,118.3093,32.3153,滁州市,老年大学,细颗粒物(PM2.5),119,115,79,90,54,187,120,141,86,44,37,15,9,1.2,0.8
2023-10-18T09:00:00,2299A,118.3244,32.2786,滁州市,人大宾馆,细颗粒物(PM2.5),113,135,86,85,62,191,126,132,110,48,35,19,10,1.0,0.6
2023-10-18T09:00:00,2301A,115.8277,32.8929,阜阳市,市监测站,"颗粒物(PM10),细颗粒物(PM2.5)",60,69,57,43,32,157,80,102,77,38,24,10,9,0.7,0.5
2023-10-18T09:00:00,2303A,115.8554,32.8605,阜阳市,开发区,颗粒物(PM10),82,113,70,46,31,157,57,108,72,56,29,12,11,0.8,0.6
2023-10-18T09:00:00,2307A,116.5079,31.737,六安市,监测大楼,,44,44,49,21,26,171,78,98,76,23,18,5,6,0.4,0.4
2023-10-18T09:00:00,2308A,116.4738,31.7643,六安市,皖西学院,颗粒物(PM10),60,70,57,20,24,172,76,119,62,28,19,7,7,0.5,0.5
2023-10-18T09:00:00,2309A,116.4996,31.7905,六安市,朝阳厂,颗粒物(PM10),51,51,50,34,30,170,78,132,80,28,18,6,7,0.5,0.5
2023-10-18T09:00:00,2310A,116.5567,31.7886,六安市,开发区,颗粒物(PM10),63,75,80,35,36,164,62,92,61,33,25,6,13,0.5,0.5
2023-10-18T09:00:00,2311A,115.8072,33.8399,亳州市,污水处理厂,,,97,69,42,27,173,,115,91,42,26,18,12,0.7,0.5
2023-10-18T09:00:00,2312A,115.7789,33.8518,亳州市,三国揽胜宫,"颗粒物(PM10),细颗粒物(PM2.5)",69,88,68,50,25,171,79,112,93,34,24,19,11,0.7,0.4
2023-10-18T09:00:00,2314A,117.47,30.6618,池州市,池州学院,,41,41,54,27,36,167,52,28,28,22,19,6,5,1.6,0.9
2023-10-18T09:00:00,2316A,118.7581,30.9454,宣城市,鳌峰子站,颗粒物(PM10),61,71,62,33,40,131,68,110,77,28,19,6,5,0.6,0.6
2023-10-18T09:00:00,2317A,118.7385,30.9743,宣城市,敬亭山子站,颗粒物(PM10),55,59,50,31,37,143,53,115,86,46,19,12,8,0.6,0.4
2023-10-18T09:00:00,2318A,118.7173,30.9427,宣城市,开发区子站,颗粒物(PM10),51,51,58,29,36,137,68,104,86,26,19,9,8,0.7,0.7
2023-10-18T09:00:00,2319A,119.0141,25.4325,莆田市,荔城区仓后路,,37,28,42,18,30,169,118,132,120,8,9,7,7,0.6,0.5
2023-10-18T09:00:00,2320A,119.0015,25.4553,莆田市,莆田市监测站,,40,34,38,18,27,180,128,142,131,4,7,8,8,0.6,0.6
2023-10-18T09:00:00,2321A,119.1119,25.4561,莆田市,涵江区六中,,36,36,44,20,28,163,109,127,110,9,9,7,7,0.7,0.6
2023-10-18T09:00:00,2322A,119.1013,25.3215,莆田市,秀屿区政府,,43,43,51,24,32,173,122,132,122,12,11,7,8,0.7,0.7
2023-10-18T09:00:00,2323A,118.981,25.4792,莆田市,东圳水库,,,,,,,,,,,,,,,,
2023-10-18T09:00:00,2324A,117.6211,26.2625,三明市,三钢,,50,39,46,35,37,154,74,59,58,24,26,14,10,0.5,0.5
2023-10-18T09:00:00,2325A,117.635,26.2714,三明市,三明二中,颗粒物(PM10),52,53,43,32,33,150,70,69,58,24,20,10,6,0.5,0.5
2023-10-18T09:00:00,2326A,117.6028,26.2378,三明市,三元区政府,,48,48,53,29,35,155,77,28,28,25,32,15,11,0.7,0.8
2023-10-18T09:00:00,2327A,117.7275,26.3108,三明市,洋溪,,,,,,,,,,,,,,,,
2023-10-18T09:00:00,2331A,118.0966,26.6761,南平市,茫荡山,,,,,,,,,,,,,,,,
2023-10-18T09:00:00,2332A,118.1681,26.6369,南平市,南平市监测站,,,,49,,35,158,,72,60,,18,5,6,0.7,0.7
2023-10-18T09:00:00,2333A,118.1825,26.6489,南平市,南平铝业有限公司,,49,49,49,28,35,165,65,56,55,15,21,6,9,0.8,0.8
2023-10-18T09:00:00,2334A,118.1756,26.6272,南平市,南平七中,,39,39,46,27,32,175,63,83,71,16,13,5,6,0.8,0.7
2023-10-18T09:00:00,2335A,117.0189,25.1181,龙岩市,龙岩师专,,,,,,,,,,,,,,,,
2023-10-18T09:00:00,2336A,117.0217,25.1033,龙岩市,龙岩市监测站,细颗粒物(PM2.5),54,49,45,38,32,152,71,62,52,24,23,11,10,0.8,0.6
2023-10-18T09:00:00,2337A,117.0258,25.0661,龙岩市,闽西职业技术学院,,,47,50,41,31,148,,43,43,22,22,,9,0.8,0.6
2023-10-18T09:00:00,2338A,117.0196,25.0306,龙岩市,龙岩学院,细颗粒物(PM2.5),54,52,51,38,34,145,46,43,32,28,17,10,5,0.7,0.5
2023-10-18T09:00:00,2339A,119.5001,26.6946,宁德市,金涵水库,,,,,,,,,,,,,,,,
2023-10-18T09:00:00,2341A,119.5388,26.6612,宁德市,宁德市监测站,,40,36,38,28,31,180,52,76,60,26,16,6,7,0.7,0.6
2023-10-18T09:00:00,2342A,117.3102,29.3867,景德镇市,王港中学,,32,30,43,22,22,172,36,16,16,8,15,2,2,0.6,0.6
2023-10-18T09:00:00,2343A,117.2117,29.2933,景德镇市,老干部活动中心,细颗粒物(PM2.5),57,42,46,40,35,155,53,50,46,15,16,19,12,0.5,0.5
2023-10-18T09:00:00,2344A,117.1894,29.2789,景德镇市,兽医站,,43,32,54,30,47,146,49,56,42,13,14,45,17,0.5,0.5
2023-10-18T09:00:00,2345A,117.1547,29.2617,景德镇市,台达陶瓷,,,,,,,,,,,,,,,,
2023-10-18T09:00:00,2346A,117.2461,29.2956,景德镇市,陶研所,颗粒物(PM10),52,54,61,27,25,142,26,16,14,26,20,4,5,0.5,0.5
2023-10-18T09:00:00,2347A,114.0997,27.5002,萍乡市,武功山,,26,24,25,18,23,130,58,60,50,7,7,5,6,0.1,0.1
2023-10-18T09:00:00,2348A,113.8385,27.6434,萍乡市,中医院,颗粒物(PM10),65,79,71,45,46,160,53,77,32,30,24,24,24,0.9,1
2023-10-18T09:00:00,2349A,113.8493,27.6253,萍乡市,市政府车库,,,94,75,59,50,155,,34,20,34,23,35,19,3.6,1.5
2023-10-18T09:00:00,2350A,113.8676,27.6435,萍乡市,市环保局,细颗粒物(PM2.5),77,72,73,56,51,160,58,44,38,28,25,23,22,0.7,0.8
2023-10-18T09:00:00,2351A,113.866,27.6198,萍乡市,安源区政府,细颗粒物(PM2.5),82,91,75,60,54,160,48,28,21,37,26,24,17,1.5,1.1
2023-10-18T09:00:00,2352A,115.0861,27.9317,新余市,北岗,细颗粒物(PM2.5),57,55,50,40,38,148,42,47,20,27,19,59,26,0.5,0.3
2023-10-18T09:00:00,2353A,114.9886,27.8431,新余市,飞宇,细颗粒物(PM2.5),69,85,73,50,40,128,42,33,15,43,42,49,21,0.8,0.6
2023-10-18T09:00:00,2354A,114.9231,27.8246,新余市,第二水厂,细颗粒物(PM2.5),69,79,72,50,42,154,49,50,20,45,37,20,14,0.8,0.6
2023-10-18T09:00:00,2355A,114.9308,27.8036,新余市,市气象局,细颗粒物(PM2.5),83,92,74,61,46,143,34,28,14,46,35,29,15,1.3,1
2023-10-18T09:00:00,2357A,116.9822,28.1136,鹰潭市,龙虎山,,32,32,40,1,13,182,54,52,32,3,6,5,5,0,0
2023-10-18T09:00:00,2358A,117.0564,28.2642,鹰潭市,新监测站,,,81,67,54,40,181,55,77,42,,23,64,20,1.3,0.6
2023-10-18T09:00:00,2359A,117.0311,28.2475,鹰潭市,财苑宾馆,颗粒物(PM10),65,80,64,46,37,192,68,69,50,34,25,50,23,1.1,0.6
2023-10-18T09:00:00,2360A,117.0222,28.2264,鹰潭市,体育馆,颗粒物(PM10),59,68,57,37,35,187,65,68,63,24,14,15,11,0.7,0.6
2023-10-18T09:00:00,2361A,117.0017,28.2131,鹰潭市,三川水表,颗粒物(PM10),56,62,59,32,36,186,70,48,48,26,18,5,6,0.5,0.5
2023-10-18T09:00:00,2362A,114.9017,25.9149,赣州市,通天岩,,,,,,,,,,,,,,,,
2023-10-18T09:00:00,2363A,114.9367,25.8664,赣州市,地委,颗粒物(PM10),57,64,72,29,39,160,40,34,27,21,29,13,13,0.8,0.9
2023-10-18T09:00:00,2364A,114.9461,25.8481,赣州市,气象台,颗粒物(PM10),60,70,67,34,37,179,23,9,9,36,41,13,12,1.0,0.9
2023-10-18T09:00:00,2365A,114.9322,25.8333,赣州市,市图书馆,颗粒物(PM10),64,78,76,32,39,176,22,16,13,37,48,11,10,0.9,0.9
2023-10-18T09:00:00,2366A,114.8905,25.8471,赣州市,华坚鞋城,细颗粒物(PM2.5),69,74,83,50,49,171,36,42,36,43,51,23,32,1.0,0.9
2023-10-18T09:00:00,2367A,114.9754,27.0803,吉安市,红声器材厂,细颗粒物(PM2.5),70,82,89,51,62,145,49,38,38,27,26,29,21,0.9,0.8
2023-10-18T09:00:00,2368A,114.9658,27.0999,吉安市,市森林工业局,细颗粒物(PM2.5),104,102,89,78,60,156,44,28,28,27,32,32,17,0.5,0.7
2023-10-18T09:00:00,2369A,114.99,27.1312,吉安市,市环境监测站,细颗粒物(PM2.5),127,117,92,96,61,161,36,20,20,31,31,16,13,1.0,0.8
2023-10-18T09:00:00,2370A,115.0093,27.0968,吉安市,青原区法院,细颗粒物(PM2.5),84,76,83,62,59,155,40,28,25,28,31,16,15,0.8,0.8
2023-10-18T09:00:00,2371A,114.3408,27.8064,宜春市,槟榔水业,细颗粒物(PM2.5),72,72,68,52,42,161,25,42,21,38,32,3,7,0.7,0.6
2023-10-18T09:00:00,2373A,114.3956,27.7844,宜春市,市石油公司,细颗粒物(PM2.5),53,53,72,37,43,155,46,32,19,24,26,6,7,0.8,0.8
2023-10-18T09:00:00,2374A,114.3703,27.7914,宜春市,市气象局,颗粒物(PM10),55,60,76,36,43,154,46,40,34,31,30,7,9,1.0,0.9
2023-10-18T09:00:00,2375A,114.4013,27.8074,宜春市,市广电局,细颗粒物(PM2.5),55,57,79,39,56,159,47,50,34,29,32,14,12,0.8,0.8
2023-10-18T09:00:00,2376A,116.2127,28.0814,抚州市,桐源党溪,"颗粒物(PM10),细颗粒物(PM2.5)",59,68,55,42,36,135,44,23,8,22,18,2,3,0.6,0.7
2023-10-18T09:00:00,2377A,116.3544,27.9831,抚州市,市站,臭氧1小时,57,56,59,38,35,165,165,76,76,22,26,14,7,1.4,1.1
2023-10-18T09:00:00,2378A,116.3565,27.963,抚州市,血防站,颗粒物(PM10),56,61,55,29,30,127,75,46,46,24,24,5,5,0.8,0.8
2023-10-18T09:00:00,2379A,116.3564,28.0007,抚州市,采茶剧团,,50,50,55,30,33,126,80,62,62,15,18,5,6,0.8,0.8
2023-10-18T09:00:00,2380A,116.385,27.9647,抚州市,医学分院,,48,48,55,25,27,135,81,62,52,16,20,6,11,0.7,0.8
2023-10-18T09:00:00,2381A,118.005,28.4572,上饶市,百草园,,,67,65,40,38,159,54,63,41,26,20,20,23,,
2023-10-18T09:00:00,2382A,117.9756,28.4436,上饶市,市监测站,颗粒物(PM10),64,77,70,44,41,177,68,66,43,31,26,18,17,0.7,0.7
2023-10-18T09:00:00,2383A,117.9519,28.4628,上饶市,凤凰光学,颗粒物(PM10),59,67,68,40,41,169,50,67,39,42,34,8,11,0.7,0.6
2023-10-18T09:00:00,2385A,114.17,35.9019,鹤壁市,市监测站,细颗粒物(PM2.5),117,129,93,88,66,177,81,97,63,27,28,10,10,1.5,0.9
2023-10-18T09:00:00,2386A,114.2956,35.7511,鹤壁市,市交警支队,细颗粒物(PM2.5),117,117,103,88,65,177,94,98,74,24,33,7,13,1.2,0.7
2023-10-18T09:00:00,2387A,114.2878,35.7306,鹤壁市,迎宾馆,细颗粒物(PM2.5),118,94,99,89,71,177,,83,71,23,34,11,12,1.2,0.7
2023-10-18T09:00:00,2389A,113.836,35.311,新乡市,环保西院,细颗粒物(PM2.5),119,117,132,90,81,177,45,47,47,27,39,10,14,1.2,1
2023-10-18T09:00:00,2390A,113.884,35.272,新乡市,开发区,细颗粒物(PM2.5),110,81,116,83,82,180,,63,61,18,30,8,10,1.1,1
2023-10-18T09:00:00,2391A,113.883,35.303,新乡市,环保东院,细颗粒物(PM2.5),156,153,132,119,87,175,41,50,50,29,38,8,12,1.2,1
2023-10-18T09:00:00,2392A,115.0312,35.7636,濮阳市,环保局,细颗粒物(PM2.5),103,96,86,77,55,154,66,69,53,29,28,5,7,0.9,0.6
2023-10-18T09:00:00,2394A,115.0574,35.7609,濮阳市,油田运输公司,细颗粒物(PM2.5),99,104,91,74,56,157,65,72,51,26,29,5,6,1.0,0.7
2023-10-18T09:00:00,2395A,115.0866,35.7754,濮阳市,油田物探公司,细颗粒物(PM2.5),95,92,98,71,54,167,72,68,49,27,34,2,3,0.9,0.6
2023-10-18T09:00:00,2396A,113.8276,34.0159,许昌市,监测站,细颗粒物(PM2.5),176,185,146,133,74,170,37,24,19,31,47,8,8,1.1,0.7
2023-10-18T09:00:00,2398A,113.7906,33.9953,许昌市,开发区,细颗粒物(PM2.5),220,193,159,170,105,162,37,15,15,25,47,7,7,0.8,0.5
2023-10-18T09:00:00,2399A,114.051,33.5699,漯河市,三五一五工厂,细颗粒物(PM2.5),180,139,171,136,74,172,58,52,49,8,18,11,8,0.9,0.6
2023-10-18T09:00:00,2400A,114.0055,33.5698,漯河市,漯河大学,细颗粒物(PM2.5),132,124,144,100,61,177,56,62,49,21,30,17,12,0.9,0.6
2023-10-18T09:00:00,2401A,114.0138,33.5828,漯河市,市水利局,细颗粒物(PM2.5),140,139,159,107,63,178,54,65,48,21,25,14,10,1.1,0.8
2023-10-18T09:00:00,2402A,114.0261,33.5698,漯河市,市广电局,细颗粒物(PM2.5),140,137,161,107,69,172,51,68,53,24,27,13,9,1.1,0.7
2023-10-18T09:00:00,2404A,112.5224,33.0122,南阳市,瓦房庄,"颗粒物(PM10),细颗粒物(PM2.5)",73,95,78,53,45,142,75,77,77,38,38,7,7,0.7,0.6
2023-10-18T09:00:00,2405A,112.5003,32.9735,南阳市,汉画馆,颗粒物(PM10),68,85,71,48,37,149,84,66,66,32,29,7,6,0.8,0.7
2023-10-18T09:00:00,2406A,112.5573,33.027,南阳市,气象站,细颗粒物(PM2.5),77,82,71,56,39,152,73,94,79,34,31,4,4,0.8,0.7
2023-10-18T09:00:00,2407A,112.5481,32.9689,南阳市,理工学院,细颗粒物(PM2.5),79,94,89,58,49,155,76,70,70,26,26,5,5,0.7,0.6
2023-10-18T09:00:00,2408A,115.6702,34.4285,商丘市,环境监测站,细颗粒物(PM2.5),94,107,68,70,37,132,62,91,77,35,23,14,9,0.6,0.4
2023-10-18T09:00:00,2409A,115.6458,34.4045,商丘市,粮食局,细颗粒物(PM2.5),137,145,74,104,45,159,54,91,78,49,32,14,8,0.5,0.2
2023-10-18T09:00:00,2410A,115.6293,34.3948,商丘市,睢阳区环保局,细颗粒物(PM2.5),143,113,79,109,46,156,43,88,66,48,28,13,9,0.6,0.3
