timepoint,stationcode,longitude,latitude,area,positionname,primarypollutant,aqi,pm10,pm10_24h,pm2_5,pm2_5_24h,o3,o3_24h,o3_8h,o3_8h_24h,no2,no2_24h,so2,so2_24h,co,co_24h
2026-04-05T0000,2568A,102.2503,31.8896,阿坝藏族羌族自治州,马师校,,27,27,24,9,9,44,44,105,77,11,6,5,5,0.3,0.2
2026-04-05T0000,3994A,102.2174,31.9016,阿坝藏族羌族自治州,马尔康中学西区,,18,18,15,7,9,52,52,99,77,7,6,3,3,0.2,0.2
2026-04-05T0000,2695A,80.2899,41.1684,阿克苏地区,电视台,颗粒物(PM10),115,159,133,54,44,78,78,120,105,25,22,4,4,0.5,0.6
2026-04-05T0000,2696A,80.2592,41.1541,阿克苏地区,艺术中心,颗粒物(PM10),117,164,149,57,51,48,48,122,96,58,39,6,5,0.6,0.7
2026-04-05T0000,2205A,105.699,38.8409,阿拉善盟,蒙二幼,颗粒物(PM10),70,78,99,24,25,90,90,105,95,8,9,8,8,0.5,0.5
2026-04-05T0000,2206A,105.7198,38.8508,阿拉善盟,环保局新楼,细颗粒物(PM2.5),108,127,100,68,27,97,97,103,96,3,4,7,8,0.4,0.4
2026-04-05T0000,2708A,88.1266,47.8515,阿勒泰地区,市站,,28,11,13,3,2,88,88,98,92,1,5,5,5,0.0,0
2026-04-05T0000,4166A,88.1198,47.7931,阿勒泰地区,阿勒泰路33号,,25,24,15,3,2,80,80,92,87,4,6,6,6,0.3,0.3
2026-04-05T0000,2630A,80.1171,32.4999,阿里地区,阿里监测站,,29,18,9,6,3,90,90,93,86,2,4,7,6,0.4,0.4
2026-04-05T0000,3192A,80.0906,32.5029,阿里地区,阿里藏医院,,35,21,9,3,3,112,112,108,105,2,4,8,9,0.3,0.4
2026-04-05T0000,2644A,109.0088,32.6974,安康市,汉滨区检察院,颗粒物(PM10),88,103,109,30,32,38,38,72,61,18,16,5,8,0.4,0.5
2026-04-05T0000,4054A,109.0324,32.6913,安康市,市邮政管理局,颗粒物(PM10),86,100,113,29,35,39,39,74,59,26,19,16,19,0.5,0.5
2026-04-05T0000,2291A,117.0806,30.5181,安庆市,环科院,颗粒物(PM10),56,58,50,21,22,58,58,96,71,27,19,6,6,0.5,0.6
2026-04-05T0000,2292A,117.0331,30.5118,安庆市,马山宾馆,颗粒物(PM10),53,54,45,20,23,56,56,94,63,22,21,4,5,0.4,0.5
2026-04-05T0000,2294A,116.9897,30.6146,安庆市,安庆大学,颗粒物(PM10),60,64,54,20,24,51,51,101,73,27,13,4,4,0.5,0.6
2026-04-05T0000,3173A,117.0598,30.5351,安庆市,市人大,颗粒物(PM10),53,54,50,18,21,78,78,100,80,12,17,8,9,0.4,0.5
2026-04-05T0000,3123A,105.9408,26.2431,安顺市,凤凰山,,29,28,25,17,19,91,91,107,99,6,8,5,5,0.5,0.5
2026-04-05T0000,3124A,105.9443,26.2567,安顺市,金钟山,,32,24,24,22,19,82,82,98,91,5,6,8,8,0.6,0.6
2026-04-05T0000,3125A,105.8983,26.248,安顺市,娄家坡,,28,22,25,19,20,85,85,100,93,4,6,23,24,0.5,0.5
2026-04-05T0000,1819A,114.3552,36.1017,安阳市,红庙街,颗粒物(PM10),88,102,73,16,16,66,66,102,87,19,13,4,3,0.2,0.2
2026-04-05T0000,1820A,114.361,36.0681,安阳市,银杏小区,颗粒物(PM10),83,95,77,27,17,69,69,104,88,16,10,5,4,0.2,0.1
2026-04-05T0000,3141A,114.3921,36.0879,安阳市,信访局,颗粒物(PM10),83,95,69,25,17,71,71,106,92,16,12,5,2,0.3,0.3
2026-04-05T0000,3669A,114.4706,36.0634,安阳市,左辅环卫站,颗粒物(PM10),92,108,81,20,17,70,70,102,86,11,8,4,4,0.4,0.4
2026-04-05T0000,4117A,114.2918,36.0769,安阳市,钢三路198号,颗粒物(PM10),85,98,65,19,14,62,62,100,83,18,13,4,5,0.4,0.4
2026-04-05T0000,1748A,123.0441,41.1201,鞍山市,深沟寺,细颗粒物(PM2.5),88,72,40,54,32,65,65,102,77,31,18,14,9,1.8,0.8
2026-04-05T0000,1749A,123.011,41.0931,鞍山市,太阳城,细颗粒物(PM2.5),100,81,43,60,36,56,56,102,72,31,17,11,8,1.8,0.8
2026-04-05T0000,1750A,123.0483,41.1445,鞍山市,太平,细颗粒物(PM2.5),92,81,53,56,37,64,64,104,79,32,19,15,9,1.6,0.8
2026-04-05T0000,1751A,122.964,41.0968,鞍山市,铁西三道街,细颗粒物(PM2.5),102,88,56,62,43,53,53,101,67,42,32,15,16,1.7,1.5
2026-04-05T0000,1753A,123.0219,41.0822,鞍山市,明达新区,细颗粒物(PM2.5),86,70,43,53,34,66,66,100,77,29,17,16,9,1.8,0.7
2026-04-05T0000,4201A,122.944647,41.082639,鞍山市,兴盛南路290号,细颗粒物(PM2.5),101,93,55,61,41,56,56,99,68,37,25,18,14,2.3,1.2
2026-04-05T0000,2195A,107.4206,40.7609,巴彦淖尔市,附二中,颗粒物(PM10),302,421,147,73,27,91,91,102,92,4,10,10,10,0.4,0.4
2026-04-05T0000,2196A,107.37,40.7372,巴彦淖尔市,市环保大楼,颗粒物(PM10),259,391,140,75,27,91,91,102,94,6,10,6,6,0.4,0.4
2026-04-05T0000,1956A,86.1476,41.7529,巴音郭楞蒙古自治州,孔雀公园,颗粒物(PM10),69,76,95,18,24,89,89,112,81,13,22,11,11,0.2,0.3
2026-04-05T0000,1957A,86.1971,41.7166,巴音郭楞蒙古自治州,棉纺厂,颗粒物(PM10),123,178,120,51,29,44,44,114,86,47,20,/,/,/,/
2026-04-05T0000,1958A,86.236,41.7172,巴音郭楞蒙古自治州,经济开发区,颗粒物(PM10),66,72,79,27,21,87,87,106,92,8,11,7,8,0.2,0.3
2026-04-05T0000,3181A,106.776805,31.852614,巴中市,市五中,颗粒物(PM10),102,123,70,44,25,22,22,106,74,34,16,8,8,0.6,0.6
2026-04-05T0000,3183A,106.7419,31.8654,巴中市,圣泉水务公司,颗粒物(PM10),85,98,71,36,29,46,46,111,74,26,22,9,9,0.6,0.6
2026-04-05T0000,3616A,106.7617,31.8343,巴中市,市中心医院,颗粒物(PM10),100,119,75,49,32,30,30,126,80,27,18,8,8,0.8,0.7
2026-04-05T0000,2235A,122.7909,45.608,白城市,洮北区环保局,,29,25,29,18,19,90,90,102,94,9,13,5,5,0.1,0.1
2026-04-05T0000,2236A,122.8741,45.5725,白城市,市环保局,,24,NA,28,15,20,74,74,89,76,8,15,4,5,0.2,0.3
2026-04-05T0000,2231A,126.4219,41.9172,白山市,喜丰,,38,38,31,23,19,49,49,79,70,14,11,7,6,1.0,1
2026-04-05T0000,2232A,126.4082,41.9416,白山市,环保局,,36,31,25,25,20,52,52,85,74,13,11,9,8,0.8,0.8
2026-04-05T0000,2647A,104.1727,36.5448,白银市,第三小学,颗粒物(PM10),128,192,151,68,44,99,99,109,107,7,17,3,15,0.3,0.5
2026-04-05T0000,2648A,104.1467,36.5482,白银市,动力公司,颗粒物(PM10),134,206,148,75,43,101,101,108,105,4,16,4,11,0.2,0.5
2026-04-05T0000,2512A,106.6102,23.901,百色市,市监测站,,35,35,26,24,16,77,77,118,107,16,11,24,13,0.8,0.6
2026-04-05T0000,2513A,106.6524,23.8842,百色市,市中心血站,,34,34,29,22,14,81,81,121,110,14,10,25,12,0.8,0.6
2026-04-05T0000,4133A,106.6273,23.8798,百色市,龙景西路,,45,40,35,31,19,69,69,130,114,21,11,28,15,0.7,0.4
2026-04-05T0000,2270A,117.396,32.9389,蚌埠市,工人疗养院,颗粒物(PM10),75,84,77,22,18,104,104,113,93,17,20,5,6,0.3,0.3
2026-04-05T0000,2271A,117.3606,32.9428,蚌埠市,百货大楼,颗粒物(PM10),63,68,65,21,17,105,105,115,91,16,19,6,7,0.4,0.4
2026-04-05T0000,2273A,117.4183,32.8909,蚌埠市,蚌埠学院,颗粒物(PM10),70,78,65,25,19,87,87,115,93,19,17,5,5,0.4,0.4
2026-04-05T0000,2274A,117.3534,32.9672,蚌埠市,淮上区政府,颗粒物(PM10),72,80,70,24,21,105,105,118,93,20,20,6,6,0.3,0.3
2026-04-05T0000,2275A,117.3143,32.8977,蚌埠市,高新区,颗粒物(PM10),67,73,67,20,21,92,92,108,88,22,24,8,9,0.4,0.5
2026-04-05T0000,3715A,117.3091,32.9314,蚌埠市,蚌埠田家炳中学,颗粒物(PM10),68,75,74,23,21,101,101,117,100,16,19,6,6,0.3,0.3
2026-04-05T0000,1585A,109.8761,40.6533,包头市,市环境监测站,颗粒物(PM10),330,444,155,29,28,105,105,111,104,7,29,5,8,0.3,0.5
2026-04-05T0000,1587A,109.9992,40.5843,包头市,包头八中,颗粒物(PM10),279,405,145,46,49,100,100,106,99,6,26,8,8,0.3,0.4
2026-04-05T0000,1589A,109.8641,40.6288,包头市,惠龙物流,颗粒物(PM10),209,356,133,29,30,102,102,105,99,4,23,4,8,0.2,0.5
2026-04-05T0000,1590A,110.0376,40.5546,包头市,东河鸿龙湾,颗粒物(PM10),209,356,126,20,26,105,105,109,101,4,27,8,9,0.3,0.4
2026-04-05T0000,3283A,109.9154,40.5684,包头市,滨河大厦,颗粒物(PM10),210,357,134,37,35,103,103,108,101,1,23,7,8,0.3,0.4
2026-04-05T0000,3419A,109.9449,40.6259,包头市,包头市委党校,颗粒物(PM10),193,336,121,34,23,101,101,107,99,4,26,5,8,0.1,0.4
2026-04-05T0000,3683A,109.8332,40.6577,包头市,昆区政府,颗粒物(PM10),258,390,137,26,32,106,106,108,103,6,34,2,7,0.4,0.6
2026-04-05T0000,1931A,107.0802,34.3129,宝鸡市,竹园沟,颗粒物(PM10),81,93,124,14,20,53,53,100,77,20,18,6,7,0.3,0.3
2026-04-05T0000,1933A,107.1429,34.3549,宝鸡市,监测站,颗粒物(PM10),86,100,132,21,23,44,44,98,73,20,16,6,7,0.4,0.4
2026-04-05T0000,1934A,107.1172,34.3759,宝鸡市,技工学校,颗粒物(PM10),96,114,135,36,35,55,55,94,76,10,11,5,6,0.5,0.4
2026-04-05T0000,1936A,107.2025,34.3518,宝鸡市,文理学院,颗粒物(PM10),102,124,129,46,34,45,45,96,70,22,16,6,6,0.4,0.3
2026-04-05T0000,1937A,107.2396,34.3626,宝鸡市,三迪小学,颗粒物(PM10),107,138,137,42,33,45,45,98,72,24,18,5,5,0.5,0.4
2026-04-05T0000,4155A,107.1721,34.3558,宝鸡市,滨河北路,颗粒物(PM10),119,167,148,49,33,44,44,94,70,18,17,7,6,0.5,0.4
2026-04-05T0000,4308A,107.3898,34.3601,宝鸡市,陈仓区北开路21号,颗粒物(PM10),107,137,149,46,35,40,40,95,71,28,23,15,38,0.6,0.5
2026-04-05T0000,1051A,115.4803,38.8568,保定市,游泳馆,颗粒物(PM10),85,98,81,43,41,69,69,118,100,33,19,7,6,0.3,0.3
2026-04-05T0000,1052A,115.509,38.8895,保定市,华电二区,颗粒物(PM10),77,87,73,41,36,38,38,121,96,47,18,3,2,0.3,0.2
2026-04-05T0000,1053A,115.4588,38.9037,保定市,接待中心,颗粒物(PM10),84,97,75,34,34,66,66,116,102,28,14,4,3,0.2,0.2
2026-04-05T0000,1054A,115.4484,38.8344,保定市,地表水厂,颗粒物(PM10),75,84,84,27,32,72,72,120,100,33,20,3,3,0.2,0.1
2026-04-05T0000,3581A,115.3136,38.9511,保定市,满城区生态环境分局,颗粒物(PM10),106,134,101,41,36,54,54,125,95,39,18,2,2,0.4,0.4
2026-04-05T0000,3582A,115.4709,38.7628,保定市,清苑区第二中学,颗粒物(PM10),105,133,102,44,42,32,32,116,85,65,25,10,8,0.4,0.4
2026-04-05T0000,3583A,115.6231,39.0223,保定市,徐水物探局,颗粒物(PM10),104,129,113,42,41,30,30,120,86,54,23,2,2,0.1,0.5
2026-04-05T0000,4004A,115.4199,38.8665,保定市,双鹰农机,颗粒物(PM10),78,88,95,25,39,87,87,118,103,20,17,3,3,0.2,0.2
2026-04-05T0000,4034A,115.515,38.8589,保定市,植保所站,颗粒物(PM10),93,110,85,37,38,52,52,121,91,45,22,5,3,0.4,0.4
2026-04-05T0000,2594A,99.1589,25.1137,保山市,市环境监测站,颗粒物(PM10),51,51,45,32,28,98,98,114,108,6,8,6,6,0.3,0.3
2026-04-05T0000,2595A,99.1616,25.1381,保山市,市环保局,细颗粒物(PM2.5),60,46,44,40,32,94,94,111,107,4,5,6,6,0.3,0.3
2026-04-05T0000,1867A,109.1435,21.4085,北海市,海滩公园,细颗粒物(PM2.5),64,46,55,42,34,98,98,113,108,7,10,8,8,0.7,0.8
2026-04-05T0000,1868A,109.0983,21.466,北海市,新市环保局,细颗粒物(PM2.5),64,46,44,42,31,100,100,110,106,8,11,10,11,0.9,0.9
2026-04-05T0000,1869A,109.1775,21.5232,北海市,北海工业园,细颗粒物(PM2.5),70,63,56,45,38,77,77,99,92,8,13,6,8,0.8,0.8
2026-04-05T0000,3400A,109.1844,21.4396,北海市,龙潭自来水厂,,50,47,45,35,37,97,97,113,107,5,9,10,9,0.8,0.7
2026-04-05T0000,1001A,116.3611,39.8786,北京市,万寿西宫,颗粒物(PM10),69,76,75,34,33,64,64,129,108,29,17,3,3,0.4,0.3
2026-04-05T0000,1003A,116.4174,39.9289,北京市,东四,颗粒物(PM10),69,76,78,39,37,62,62,135,114,32,17,7,6,0.4,0.3
2026-04-05T0000,1004A,116.4073,39.8858,北京市,天坛,颗粒物(PM10),66,72,75,31,30,54,54,117,98,35,21,4,4,0.6,0.5
2026-04-05T0000,1005A,116.4622,39.9364,北京市,农展馆,颗粒物(PM10),63,67,78,31,32,59,59,128,107,27,17,3,3,0.5,0.4
2026-04-05T0000,1006A,116.3399,39.9293,北京市,官园,颗粒物(PM10),72,80,74,36,30,60,60,115,99,33,21,3,2,0.6,0.5
2026-04-05T0000,1007A,116.2879,39.9613,北京市,海淀万柳,颗粒物(PM10),75,84,73,34,27,66,66,111,97,28,21,4,3,0.4,0.4
2026-04-05T0000,1008A,116.6635,40.1349,北京市,顺义新城,颗粒物(PM10),60,64,84,31,37,69,69,123,102,23,16,5,5,0.6,0.5
2026-04-05T0000,1009A,116.6275,40.327,北京市,怀柔镇,颗粒物(PM10),60,63,62,32,27,81,81,123,108,16,15,6,5,0.6,0.4
2026-04-05T0000,1010A,116.2295,40.217,北京市,昌平镇,颗粒物(PM10),66,72,64,32,22,75,75,124,109,21,20,4,3,0.4,0.3
2026-04-05T0000,1011A,116.3968,39.982,北京市,奥体中心,颗粒物(PM10),65,70,71,31,28,55,55,120,101,32,19,4,4,0.5,0.4
2026-04-05T0000,3418A,116.8336,40.4095,北京市,密云新城,颗粒物(PM10),66,72,69,32,30,79,79,121,108,13,9,3,3,0.6,0.5
2026-04-05T0000,3671A,116.0879,39.9725,北京市,门头沟三家店,颗粒物(PM10),85,99,83,38,28,62,62,118,98,25,26,2,2,0.4,0.4
2026-04-05T0000,3672A,116.1507,39.8246,北京市,丰台云岗,颗粒物(PM10),79,90,77,31,28,70,70,123,101,23,13,2,2,0.5,0.4
2026-04-05T0000,3674A,115.9578,39.7602,北京市,房山燕山,颗粒物(PM10),88,102,70,39,28,70,70,117,102,26,13,5,5,0.4,0.4
2026-04-05T0000,3675A,116.4669,39.7734,北京市,大兴旧宫,颗粒物(PM10),65,71,80,31,32,53,53,124,103,30,17,4,4,0.5,0.5
2026-04-05T0000,3694A,115.9859,40.4562,北京市,延庆石河营,颗粒物(PM10),72,80,53,34,21,96,96,123,117,16,21,2,1,0.4,0.4
2026-04-05T0000,3695A,116.6151,40.3052,北京市,怀柔新城,颗粒物(PM10),65,71,65,23,20,76,76,122,106,19,13,5,4,0.7,0.5
2026-04-05T0000,3696A,116.2542,39.8764,北京市,丰台小屯,颗粒物(PM10),74,83,80,34,30,66,66,110,94,27,22,3,3,0.4,0.4
2026-04-05T0000,3697A,116.8399,40.3843,北京市,密云镇,颗粒物(PM10),68,74,70,31,29,82,82,128,114,18,16,4,4,0.5,0.5
2026-04-05T0000,4057A,115.9423,40.4431,北京市,延庆百泉,颗粒物(PM10),73,81,53,32,20,90,90,116,109,16,16,1,2,0.3,0.3
2026-04-05T0000,4058A,116.6598,39.9164,北京市,通州新华,颗粒物(PM10),58,61,90,28,37,63,63,116,99,24,20,4,5,0.6,0.6
2026-04-05T0000,4182A,116.1942,39.9158,北京市,石景山八角,颗粒物(PM10),83,95,84,35,26,60,60,104,90,36,21,5,3,0.4,0.3
2026-04-05T0000,4194A,117.078628,40.151726,北京市,平谷新城,颗粒物(PM10),58,60,84,31,39,86,86,122,104,16,16,3,3,0.5,0.6
2026-04-05T0000,1761A,123.8274146,41.31234549,本溪市,大峪,,41,41,38,23,27,21,21,91,60,35,11,5,5,0.7,0.6
2026-04-05T0000,1763A,123.7169,41.3094,本溪市,彩屯,颗粒物(PM10),56,58,46,37,33,33,33,95,56,24,16,8,10,0.9,0.7
2026-04-05T0000,1764A,123.7672166,41.28649327,本溪市,东明,颗粒物(PM10),72,80,49,43,32,29,29,95,60,42,19,9,9,0.8,0.6
2026-04-05T0000,1765A,123.799345,41.266614,本溪市,新立屯,,33,33,37,18,24,38,38,89,42,34,18,7,7,0.6,0.6
2026-04-05T0000,1766A,123.829144,41.336777,本溪市,威宁,颗粒物(PM10),57,59,45,27,25,20,20,90,49,30,15,6,7,0.7,0.5
2026-04-05T0000,2587A,105.287,27.3133,毕节市,八中,"颗粒物(PM10),细颗粒物(PM2.5)",56,58,38,38,27,53,53,94,77,13,11,11,12,0.6,0.6
2026-04-05T0000,2588A,105.3079,27.2987,毕节市,师专,,49,45,41,34,25,73,73,100,87,10,13,10,11,0.5,0.5
2026-04-05T0000,4263A,105.3688,27.3598,毕节市,工业大道,颗粒物(PM10),53,54,45,32,25,67,67,110,91,13,12,12,12,/,/
2026-04-05T0000,1629A,117.9961,37.3604,滨州市,第二水厂,颗粒物(PM10),58,61,46,28,19,35,35,117,84,50,16,20,10,0.8,0.2
2026-04-05T0000,1630A,117.9789,37.3931,滨州市,北中新校,颗粒物(PM10),55,56,44,23,20,36,36,110,80,42,17,14,7,0.7,0.4
2026-04-05T0000,3514A,117.9379,37.3959,滨州市,中海酒店,,46,46,36,21,20,55,55,124,96,40,18,13,9,0.7,0.5
2026-04-05T0000,3515A,117.9381509,37.35547456,滨州市,开发区一中,颗粒物(PM10),55,56,42,21,12,42,42,116,84,43,21,12,18,0.6,0.6
2026-04-05T0000,3516A,118.0914,37.6938,滨州市,金海六路,,41,41,37,21,22,56,56,114,88,24,11,18,7,0.2,0.2
2026-04-05T0000,4028A,117.9955,37.3752,滨州市,滨州市西街道办事处,颗粒物(PM10),58,61,44,25,21,41,41,121,86,34,13,16,10,0.7,0.2
2026-04-05T0000,2311A,115.8071,33.8399,亳州市,污水处理厂,颗粒物(PM10),66,72,71,18,14,87,87,106,90,14,13,6,7,0.2,0.1
2026-04-05T0000,2312A,115.7789,33.8519,亳州市,三国揽胜宫,颗粒物(PM10),69,76,75,16,13,87,87,103,96,9,9,6,6,0.2,0.1
2026-04-05T0000,3332A,115.7631,33.803,亳州市,亳州学院,颗粒物(PM10),65,71,71,18,11,78,78,105,92,9,7,7,7,0.2,0.1
2026-04-05T0000,2693A,82.0482,44.8553,博尔塔拉蒙古自治州,市党校,颗粒物(PM10),113,153,96,22,16,83,83,128,119,9,4,4,4,0.2,0.2
2026-04-05T0000,2694A,82.0805,44.8966,博尔塔拉蒙古自治州,市环保局,颗粒物(PM10),120,171,90,59,24,42,42,118,98,55,21,2,3,0.5,0.3
2026-04-05T0000,1071A,116.8733,38.2922,沧州市,沧县城建局,颗粒物(PM10),58,60,74,35,47,64,64,110,88,28,20,9,6,0.3,0.4
2026-04-05T0000,1072A,116.8462,38.3189,沧州市,电视转播站,颗粒物(PM10),55,57,72,36,49,68,68,115,92,24,18,9,6,0.4,0.4
2026-04-05T0000,1073A,116.8588,38.3161,沧州市,市环保局,颗粒物(PM10),61,65,78,25,43,71,71,110,93,19,14,8,6,0.4,0.4
2026-04-05T0000,3324A,116.8011,38.294,沧州市,河北水利电力学院,细颗粒物(PM2.5),60,53,76,40,52,73,73,106,88,21,16,8,6,0.4,0.4
2026-04-05T0000,2622A,97.1813,31.1289,昌都市,昌都监测站,,28,NA,16,10,4,89,89,95,93,6,8,6,5,0.3,0.3
2026-04-05T0000,3719A,97.1707,31.1428,昌都市,昌都会议中心,,32,17,13,14,6,102,102,105,104,3,5,5,5,0.3,0.3
2026-04-05T0000,2692A,87.2722,44.0298,昌吉回族自治州,新区政务中心,颗粒物(PM10),69,76,36,44,18,4,4,112,81,93,29,4,5,1.0,0.5
2026-04-05T0000,3613A,87.3069,44.0093,昌吉回族自治州,亚心广场,颗粒物(PM10),102,124,49,55,16,11,11,118,86,80,27,8,8,0.8,0.3
2026-04-05T0000,4164A,87.2057,43.9289,昌吉回族自治州,财政所,,36,36,47,9,12,43,43,109,79,6,15,7,10,0.2,0.8
2026-04-05T0000,1120A,125.2874,43.9024,长春市,客车厂,,45,NA,34,31,31,73,73,91,75,17,21,7,7,0.4,0.4
2026-04-05T0000,1121A,125.2943,43.8508,长春市,邮电学院,,40,29,31,28,25,77,77,96,85,12,13,7,8,0.5,0.5
2026-04-05T0000,1122A,125.3648,43.8745,长春市,劳动公园,,49,36,35,34,30,71,71,95,80,16,16,7,8,0.5,0.5
2026-04-05T0000,1123A,125.3233,43.8781,长春市,园林处,,50,39,38,35,34,73,73,96,85,20,15,7,7,0.5,0.4
2026-04-05T0000,1124A,125.4604,43.7904,长春市,净月潭,,42,33,28,29,25,69,69,95,86,11,13,6,6,0.4,0.4
2026-04-05T0000,1126A,125.38,43.8422,长春市,经开区环卫处,,43,33,36,30,28,68,68,93,78,20,18,6,6,0.4,0.4
2026-04-05T0000,1127A,125.234,43.7761,长春市,高新区管委会,,33,27,30,23,24,67,67,90,74,10,12,6,6,0.4,0.4
2026-04-05T0000,1128A,125.1695,43.83,长春市,岱山公园,,36,29,33,25,28,70,70,95,74,19,18,4,5,0.4,0.4
2026-04-05T0000,4281A,125.334645,43.916281,长春市,北亚泰大街1068号,,45,38,40,31,34,75,75,96,77,19,22,8,8,0.4,0.4
2026-04-05T0000,1335A,113.082,28.2421,长沙市,经开区环保局,颗粒物(PM10),87,101,52,28,22,73,73,112,98,21,17,127,14,0.4,0.5
2026-04-05T0000,1336A,112.8873,28.2202,长沙市,高开区环保局,颗粒物(PM10),98,117,52,28,23,84,84,118,107,16,19,7,6,0.6,0.7
2026-04-05T0000,1337A,113.0785,28.2012,长沙市,马坡岭,颗粒物(PM10),90,105,52,29,22,67,67,116,99,28,18,6,6,0.6,0.6
2026-04-05T0000,1338A,112.9448,28.1894,长沙市,湖南师范大学,颗粒物(PM10),90,106,51,30,23,77,77,109,91,15,19,6,6,0.6,0.7
2026-04-05T0000,1339A,113.0177,28.1322,长沙市,雨花区环保局,颗粒物(PM10),98,117,55,27,21,81,81,117,105,13,19,7,5,0.8,0.8
2026-04-05T0000,1340A,112.9795,28.2593,长沙市,伍家岭,颗粒物(PM10),92,108,61,31,26,60,60,95,71,32,26,5,5,0.4,0.6
2026-04-05T0000,1341A,113.002,28.1944,长沙市,火车新站,颗粒物(PM10),91,107,57,26,26,73,73,109,87,17,30,5,4,0.8,0.6
2026-04-05T0000,1342A,112.9846,28.1177,长沙市,天心区环保局,颗粒物(PM10),92,108,57,28,25,87,87,118,105,17,29,8,7,0.7,0.7
2026-04-05T0000,1343A,112.8906,28.1307,长沙市,湖南中医药大学,颗粒物(PM10),99,118,57,29,22,44,44,113,65,49,32,7,7,0.8,0.8
2026-04-05T0000,1727A,113.1146,36.1547,长治市,清华站,颗粒物(PM10),55,57,56,14,12,97,97,106,101,8,14,11,11,0.5,0.5
2026-04-05T0000,1730A,113.0887,36.2126,长治市,审计局,颗粒物(PM10),54,55,56,22,17,93,93,106,99,12,17,12,14,0.6,0.5
2026-04-05T0000,1731A,113.0845,36.1856,长治市,长治八中,颗粒物(PM10),73,82,77,19,14,89,89,105,96,15,18,14,14,0.6,0.5
2026-04-05T0000,2845A,113.1561,36.1912,长治市,德盛苑,颗粒物(PM10),60,64,57,22,14,97,97,112,105,15,16,12,15,0.4,0.5
2026-04-05T0000,3568A,113.0603,36.0464,长治市,向阳小学,颗粒物(PM10),84,97,87,19,15,88,88,111,100,21,19,11,11,0.5,0.5
2026-04-05T0000,3569A,112.8788,36.315,长治市,屯留一中,颗粒物(PM10),66,72,68,27,15,73,73,107,89,15,19,11,10,0.4,0.3
2026-04-05T0000,4189A,113.113092,36.199482,长治市,英华南巷50号,颗粒物(PM10),64,69,74,16,17,97,97,107,102,10,15,9,10,0.4,0.4
2026-04-05T0000,4190A,113.23666,36.33435,长治市,学府街1号,颗粒物(PM10),67,73,66,21,12,94,94,103,98,7,16,4,5,0.6,0.6
2026-04-05T0000,1854A,111.696,28.9725,常德市,市二中,颗粒物(PM10),83,96,46,22,16,99,99,105,99,7,10,14,10,1.0,1.1
2026-04-05T0000,3138A,111.7152,29.0288,常德市,武陵区永安,颗粒物(PM10),83,95,50,33,22,96,96,114,106,10,14,22,11,0.7,0.8
2026-04-05T0000,3139A,111.6891,28.9881,常德市,鼎城区玉霞,颗粒物(PM10),78,88,45,36,19,54,54,97,NA,44,21,12,21,0.9,0.8
2026-04-05T0000,3140A,111.6651,29.0526,常德市,武陵区长庚,NA,NA,NA,53,29,23,78,78,110,102,24,16,13,10,0.9,1
2026-04-05T0000,1196A,119.9524,31.7586,常州市,市监测站,颗粒物(PM10),125,185,84,68,32,42,42,140,95,59,25,8,8,0.9,0.8
2026-04-05T0000,1200A,119.9351,31.703,常州市,武进监测站,颗粒物(PM10),105,132,70,58,29,58,58,141,106,48,21,11,9,0.7,0.5
2026-04-05T0000,3002A,119.9701,31.813,常州市,行政中心,"颗粒物(PM10),细颗粒物(PM2.5)",106,134,89,66,31,37,37,130,92,52,22,7,6,0.6,0.5
2026-04-05T0000,3003A,120.0434,31.7726,常州市,经开区,颗粒物(PM10),119,168,81,61,31,39,39,140,88,41,23,3,5,1.0,0.8
2026-04-05T0000,3010A,119.8919,31.7892,常州市,钟楼,颗粒物(PM10),101,122,72,51,28,52,52,138,106,67,33,8,7,0.4,0.4
2026-04-05T0000,3429A,119.8595,31.706,常州市,武进经发区,颗粒物(PM10),108,140,64,60,31,56,56,134,98,57,24,7,6,0.9,0.8
2026-04-05T0000,3430A,119.5812,31.7256,常州市,金坛城区,颗粒物(PM10),101,122,57,54,31,68,68,136,110,33,13,9,9,0.8,0.7
2026-04-05T0000,4089A,119.9551,31.863,常州市,崇义南街5-H号,细颗粒物(PM2.5),107,121,86,67,32,35,35,136,88,49,26,6,7,0.7,0.5
2026-04-05T0000,2220A,120.4318,41.588,朝阳市,西梁,,49,35,29,34,17,81,81,100,96,15,17,8,8,0.8,0.8
2026-04-05T0000,2221A,120.452,41.565,朝阳市,河畔小区,,46,35,22,32,16,90,90,105,102,14,11,8,7,0.7,0.6
2026-04-05T0000,2222A,120.4176,41.5648,朝阳市,八里堡,,38,31,28,26,19,79,79,99,92,16,18,9,8,0.6,0.6
2026-04-05T0000,3026A,116.6179,23.6608,潮州市,市政府,,25,NA,28,6,16,79,79,97,86,5,13,3,6,0.5,0.7
2026-04-05T0000,4036A,116.646,23.676,潮州市,金山,,21,7,19,6,13,67,67,87,80,7,9,2,2,0.5,0.6
2026-04-05T0000,2473A,113.0116,25.8228,郴州市,市职中,,38,38,28,20,19,8,8,86,49,8,7,7,6,0.7,0.7
2026-04-05T0000,2475A,113.0381,25.8074,郴州市,市审计局,,45,45,59,16,25,52,52,96,74,10,12,10,7,/,/
2026-04-05T0000,2476A,113.0348,25.7757,郴州市,市环保局,颗粒物(PM10),52,52,66,18,18,47,47,85,66,18,15,18,13,0.3,0.4
2026-04-05T0000,4252A,113.0138,25.8011,郴州市,好美居路49号,,46,41,33,32,23,34,34,94,63,22,16,17,6,/,/
2026-04-05T0000,1431A,103.9727,30.7242,成都市,金泉两河,颗粒物(PM10),93,110,92,50,35,80,80,149,118,27,26,5,3,0.4,0.4
2026-04-05T0000,1432A,104.1423,30.6765,成都市,十里店,细颗粒物(PM2.5),86,98,92,53,40,44,44,144,110,53,34,5,5,0.8,0.8
2026-04-05T0000,1433A,104.0594,30.5765,成都市,三瓦窑,颗粒物(PM10),73,82,95,40,37,17,17,141,96,60,29,2,4,1.0,0.7
2026-04-05T0000,1434A,104.1122,30.6306,成都市,沙河铺,细颗粒物(PM2.5),72,71,84,46,38,8,8,128,76,70,38,3,3,0.9,0.6
2026-04-05T0000,2880A,104.0219,30.6561,成都市,大石西路,细颗粒物(PM2.5),92,102,95,56,48,31,31,132,89,66,36,4,5,1.0,0.8
2026-04-05T0000,3136A,104.2724,30.559,成都市,龙泉驿区区政府,颗粒物(PM10),70,78,81,31,29,86,86,136,115,13,11,7,8,0.4,0.5
2026-04-05T0000,3357A,104.0028,30.6891,成都市,金博路,细颗粒物(PM2.5),90,104,91,55,38,54,54,150,115,56,35,6,7,0.7,0.6
2026-04-05T0000,3359A,104.056,30.5228,成都市,华阳,细颗粒物(PM2.5),96,90,91,58,39,22,22,139,96,65,33,5,5,0.9,0.5
2026-04-05T0000,3488A,104.387954,30.746684,成都市,青石路225号,颗粒物(PM10),72,80,80,32,31,40,40,137,93,52,32,5,6,0.6,0.5
2026-04-05T0000,3489A,104.0788,30.4054,成都市,科学城,颗粒物(PM10),54,55,71,23,32,51,51,138,115,31,20,7,8,0.6,0.5
2026-04-05T0000,4011A,103.8505,30.6946,成都市,光华大道三段,颗粒物(PM10),85,98,95,48,36,61,61,150,124,45,27,4,4,0.7,0.4
2026-04-05T0000,4144A,104.3257,30.6406,成都市,八角井街185号,颗粒物(PM10),68,75,86,27,29,78,78,127,106,14,16,5,5,0.4,0.4
2026-04-05T0000,4224A,104.2433276,30.53529463,成都市,鲸龙路1057号,颗粒物(PM10),91,107,91,41,29,48,48,142,110,44,20,6,7,0.7,0.5
2026-04-05T0000,1062A,117.9531,40.908,承德市,铁路,颗粒物(PM10),65,70,54,21,23,99,99,121,117,20,17,5,6,0.4,0.4
2026-04-05T0000,1063A,117.9397,40.9763,承德市,中国银行,颗粒物(PM10),65,70,49,29,22,98,98,120,116,15,12,4,3,0.4,0.4
2026-04-05T0000,4073A,117.9462,40.95,承德市,杏林街1号,颗粒物(PM10),67,73,49,33,29,106,106,128,125,14,12,3,3,0.5,0.4
2026-04-05T0000,4274A,117.7994,40.9605,承德市,滨河大街98号,细颗粒物(PM2.5),64,59,42,42,22,99,99,135,130,17,11,5,5,0.4,0.3
2026-04-05T0000,2314A,117.4698,30.6617,池州市,池州学院,颗粒物(PM10),66,72,47,26,23,45,45,112,78,32,20,6,4,1.0,0.7
2026-04-05T0000,3237A,117.4918,30.6617,池州市,展览馆,颗粒物(PM10),68,74,46,24,23,45,45,115,69,24,18,3,3,0.9,0.7
2026-04-05T0000,3333A,117.5626,30.695,池州市,第八中学,颗粒物(PM10),68,75,49,23,20,26,26,110,80,32,16,4,4,0.9,0.7
2026-04-05T0000,3334A,117.5037,30.6242,池州市,第十二中学,颗粒物(PM10),66,72,49,24,20,38,38,108,65,25,18,5,5,1.0,0.9
2026-04-05T0000,1744A,118.9229,42.2816,赤峰市,松山一中,颗粒物(PM10),126,186,50,38,24,132,132,125,125,10,15,6,7,0.5,0.5
2026-04-05T0000,1745A,118.9588,42.2733,赤峰市,哈达街,颗粒物(PM10),119,169,57,38,25,98,98,92,92,13,14,9,10,0.5,0.5
2026-04-05T0000,1746A,118.8792,42.2551,赤峰市,天义路,颗粒物(PM10),106,134,36,33,20,118,118,112,112,10,10,5,5,0.4,0.4
2026-04-05T0000,3058A,119.2656,42.0356,赤峰市,银河街,颗粒物(PM10),95,113,67,53,34,116,116,109,109,14,13,38,18,0.6,0.7
2026-04-05T0000,3286A,118.9359,42.3146,赤峰市,桥北物流园区,颗粒物(PM10),107,138,43,40,21,127,127,118,118,2,15,4,5,0.3,0.3
2026-04-05T0000,2521A,107.3473,22.4137,崇左市,市环保局江州分局,,47,47,31,27,17,47,47,113,78,18,10,5,5,0.7,0.6
2026-04-05T0000,4256A,107.375,22.3736,崇左市,石景林东路7号,,35,26,26,24,16,44,44,112,75,20,10,3,4,0.8,0.8
2026-04-05T0000,3207A,118.31131,32.3033,滁州市,市政府原办公楼,细颗粒物(PM2.5),90,89,62,55,33,78,78,119,101,25,13,7,6,0.5,0.4
2026-04-05T0000,3331A,118.3268,32.2633,滁州市,图书馆,颗粒物(PM10),88,102,65,40,24,71,71,118,100,28,13,11,10,0.5,0.4
2026-04-05T0000,4101A,118.3196,32.3335,滁州市,银山路666号,颗粒物(PM10),85,98,66,40,25,75,75,124,103,25,13,8,8,0.6,0.6
2026-04-05T0000,4102A,118.3426,32.2979,滁州市,黄山路555号,颗粒物(PM10),97,115,86,45,28,77,77,128,106,28,12,8,7,0.7,0.6
2026-04-05T0000,2606A,101.5379,25.0492,楚雄彝族自治州,市经济开发区,,50,50,39,31,26,106,106,106,106,5,13,6,6,0.5,0.5
2026-04-05T0000,4153A,101.5536,25.0343,楚雄彝族自治州,团结路562号,,40,36,35,28,24,113,113,112,112,4,10,2,3,0.3,0.3
2026-04-05T0000,2549A,107.5087,31.2186,达州市,市环境监测站,颗粒物(PM10),89,104,78,31,25,10,10,91,47,48,27,7,6,0.3,0.3
2026-04-05T0000,2550A,107.4988,31.2132,达州市,凤凰小区,颗粒物(PM10),95,112,82,36,25,12,12,88,42,48,29,6,5,0.4,0.4
2026-04-05T0000,2551A,107.5081,31.1987,达州市,达县机关宾馆,颗粒物(PM10),93,110,79,48,28,3,3,95,30,59,34,5,5,0.4,0.5
2026-04-05T0000,2552A,107.4644,31.2124,达州市,市政中心,颗粒物(PM10),92,108,80,37,23,10,10,96,42,55,33,6,5,0.5,0.5
2026-04-05T0000,2614A,100.2168,25.5818,大理白族自治州,大理市环境监测站,,50,49,33,35,22,95,95,94,94,9,10,3,3,0.4,0.3
2026-04-05T0000,2615A,100.1542,25.7055,大理白族自治州,大理古城,,33,31,29,23,20,100,100,104,103,4,7,7,8,0.6,0.6
2026-04-05T0000,1109A,121.6119,38.974,大连市,甘井子,细颗粒物(PM2.5),68,55,37,44,29,51,51,110,83,47,19,9,7,0.8,0.5
2026-04-05T0000,1110A,121.565,38.9509,大连市,周水子,,48,44,42,33,30,58,58,95,66,27,21,3,4,0.6,0.6
2026-04-05T0000,1111A,121.5637,38.8849,大连市,星海三站,,46,43,38,32,29,81,81,101,84,12,12,5,5,0.4,0.3
2026-04-05T0000,1112A,121.6301,38.9117,大连市,青泥洼桥,,39,34,35,27,26,87,87,106,86,13,15,4,4,0.4,0.5
2026-04-05T0000,1113A,121.6248,38.8643,大连市,傅家庄,,45,40,30,31,23,81,81,94,81,14,12,7,7,0.4,0.4
2026-04-05T0000,1114A,121.5117,38.8636,大连市,七贤岭,,26,22,27,16,18,82,82,103,89,9,9,6,6,0.5,0.4
2026-04-05T0000,1116A,121.7507,39.1339,大连市,金州,细颗粒物(PM2.5),66,56,38,43,31,86,86,102,95,19,14,6,8,0.5,0.4
2026-04-05T0000,1117A,121.7811,39.0495,大连市,开发区,细颗粒物(PM2.5),64,51,44,42,28,55,55,91,80,31,13,8,7,0.5,0.4
2026-04-05T0000,1118A,121.9762,39.0631,大连市,双D港,,42,42,38,25,25,52,52,116,83,30,13,5,5,0.5,0.6
2026-04-05T0000,4082A,121.2548,38.8188,大连市,旅顺,,49,36,35,34,28,64,64,103,88,25,11,3,4,0.5,0.5
2026-04-05T0000,1789A,124.8085,46.0381,大庆市,大同区,细颗粒物(PM2.5),84,72,45,52,29,91,91,95,87,24,17,6,5,0.4,0.3
2026-04-05T0000,1790A,125.1166,46.5255,大庆市,龙凤区,细颗粒物(PM2.5),68,63,48,44,26,78,78,99,84,16,20,7,5,0.3,0.2
2026-04-05T0000,1791A,124.8894,46.4007,大庆市,红岗区,细颗粒物(PM2.5),60,54,43,40,29,71,71,96,81,12,10,8,8,0.5,0.4
2026-04-05T0000,1792A,125.1391,46.578,大庆市,萨尔图区,细颗粒物(PM2.5),62,65,43,41,23,98,98,96,89,13,18,7,8,0.3,0.2
2026-04-05T0000,1793A,124.9026,46.6217,大庆市,让胡路区,细颗粒物(PM2.5),62,48,44,41,30,67,67,104,85,19,15,6,7,0.6,0.3
2026-04-05T0000,3481A,125.127,46.6277,大庆市,萨区政府监测点,,49,49,39,31,21,92,92,95,90,11,13,10,9,0.6,0.4
2026-04-05T0000,1723A,113.2926,40.0759,大同市,云冈宾馆,颗粒物(PM10),417,517,97,97,21,88,88,106,98,7,23,4,9,0.5,0.5
2026-04-05T0000,1724A,113.3437,40.0921,大同市,大同大学,颗粒物(PM10),442,542,111,77,19,91,91,108,100,8,21,2,10,0.3,0.5
2026-04-05T0000,1725A,113.2637,40.129,大同市,安家小村,颗粒物(PM10),421,521,112,90,21,91,91,100,95,4,20,4,9,0.3,0.8
2026-04-05T0000,3282A,113.3399,40.0586,大同市,大同市卫生学校,颗粒物(PM10),478,578,108,85,20,100,100,115,106,4,19,3,10,0.3,0.5
2026-04-05T0000,3565A,113.1371,40.1122,大同市,云冈站,颗粒物(PM10),388,490,95,35,17,87,87,108,96,7,18,12,13,0.3,0.3
2026-04-05T0000,3566A,113.1186,40.2556,大同市,图书馆,颗粒物(PM10),208,355,78,87,19,87,87,105,96,6,9,7,12,0.8,0.7
2026-04-05T0000,3567A,113.5931,40.0459,大同市,区一中,颗粒物(PM10),407,507,101,87,21,102,102,117,108,3,9,6,13,0.6,0.7
2026-04-05T0000,4199A,113.2798248,40.09972476,大同市,魏都大道141号,颗粒物(PM10),449,549,118,89,22,90,90,106,98,4,22,6,12,0.3,0.7
2026-04-05T0000,2269A,124.1068,50.4091,大兴安岭地区,科技局,细颗粒物(PM2.5),153,130,52,117,35,109,109,101,101,14,8,8,7,0.7,0.4
2026-04-05T0000,3663A,124.117,50.4279,大兴安岭地区,红旗社区,细颗粒物(PM2.5),142,127,48,106,36,105,105,96,95,21,14,15,11,0.5,0.3
2026-04-05T0000,1600A,124.33,40.0625,丹东市,江湾东路,,30,28,23,21,16,69,69,98,86,12,13,15,11,1.0,0.5
2026-04-05T0000,1601A,124.4242,40.1513,丹东市,临江后街,,28,24,24,19,15,64,64,87,77,9,11,4,4,0.3,0.4
2026-04-05T0000,1602A,124.3935,40.1461,丹东市,元宝山,,22,20,27,13,15,70,70,84,76,10,12,5,5,0.4,0.6
2026-04-05T0000,1603A,124.3634,40.1093,丹东市,民主桥,,29,29,27,20,16,71,71,92,82,12,15,6,5,0.4,0.5
2026-04-05T0000,3541A,109.5726195,19.51688767,儋州市,第一中学子站,,44,44,53,28,38,82,82,105,97,8,9,8,7,0.7,0.7
2026-04-05T0000,3542A,109.5567,19.5187,儋州市,东坡学校子站,,49,49,51,28,37,85,85,111,100,8,9,8,8,0.7,0.7
2026-04-05T0000,2616A,98.5611,24.4273,德宏傣族景颇族自治州,德宏州监测站,NA,NA,NA,56,NA,44,NA,NA,37,NA,NA,21,NA,5,NA,1.7
2026-04-05T0000,3677A,98.5887,24.4366,德宏傣族景颇族自治州,芒市人民政府综合楼,细颗粒物(PM2.5),100,86,87,60,52,61,61,107,87,13,15,6,7,0.9,0.7
2026-04-05T0000,1901A,104.424,31.1209,德阳市,东山公园,颗粒物(PM10),95,112,105,47,40,104,104,145,133,15,20,6,6,0.6,0.6
2026-04-05T0000,1902A,104.3827,31.1318,德阳市,西小区,颗粒物(PM10),103,127,117,60,46,70,70,149,126,33,32,5,5,0.6,0.6
2026-04-05T0000,1904A,104.3553,31.1091,德阳市,耐火材料厂,细颗粒物(PM2.5),109,136,117,69,50,82,82,162,137,21,31,5,4,0.6,0.6
2026-04-05T0000,4145A,104.4144,31.1495,德阳市,市林业局,颗粒物(PM10),86,100,94,46,39,55,55,158,129,47,30,5,5,0.6,0.6
2026-04-05T0000,1622A,116.3034,37.4675,德州市,儿童乐园,颗粒物(PM10),70,78,79,22,35,89,89,116,107,19,14,14,13,0.5,0.5
2026-04-05T0000,1624A,116.2992,37.4449,德州市,监理站,颗粒物(PM10),70,78,73,19,31,93,93,121,112,24,17,13,10,0.5,0.5
2026-04-05T0000,3066A,116.2722,37.438,德州市,九衢泉纯净水厂,颗粒物(PM10),68,75,67,19,28,89,89,113,101,16,12,6,4,0.5,0.5
2026-04-05T0000,3371A,116.3693,37.44,德州市,开发区人民医院,颗粒物(PM10),70,78,74,22,30,86,86,114,103,22,19,10,9,0.6,0.5
2026-04-05T0000,3511A,116.5687,37.3331,德州市,陵城艺术中心,颗粒物(PM10),62,66,64,20,31,79,79,105,96,17,13,7,4,0.9,0.6
2026-04-05T0000,4292A,116.352738,37.420875,德州市,新河东路,颗粒物(PM10),67,73,70,19,28,85,85,114,103,19,14,10,9,0.7,0.7
2026-04-05T0000,2621A,99.7054,27.8319,迪庆藏族自治州,迪庆州站,,24,24,20,16,11,75,75,88,86,7,7,6,5,0.5,0.5
2026-04-05T0000,3180A,99.7122,27.8129,迪庆藏族自治州,质量技术监督局,,30,18,21,9,9,93,93,98,96,5,8,6,6,0.4,0.4
2026-04-05T0000,4257A,104.6092,35.5962,定西市,将台街,颗粒物(PM10),100,120,98,34,28,46,46,130,104,41,23,11,10,0.7,0.6
2026-04-05T0000,4309A,104.6159,35.5701,定西市,正龙路62号,颗粒物(PM10),97,115,102,31,26,64,64,123,103,12,14,3,4,0.4,0.4
2026-04-05T0000,4071A,114.9883,38.5232,定州市,交通局,颗粒物(PM10),85,98,85,38,31,69,69,124,100,32,19,6,5,0.4,0.4
2026-04-05T0000,4072A,115.0045,38.5136,定州市,第五中学,颗粒物(PM10),91,107,94,27,30,66,66,124,97,31,15,4,3,0.4,0.4
2026-04-05T0000,1390A,113.7943,23.0132,东莞市,东城石井,,38,38,28,26,19,26,26,63,38,31,23,4,4,0.7,0.7
2026-04-05T0000,1391A,113.7384,22.9659,东莞市,南城西平,,40,40,30,28,21,11,11,54,34,46,28,4,4,0.9,0.7
2026-04-05T0000,3319A,113.7283,23.041,东莞市,万江金泰,,42,42,29,29,20,32,32,62,51,30,23,7,6,0.8,0.8
2026-04-05T0000,4129A,113.8666,23.1062,东莞市,裕兴路,,49,49,32,30,19,22,22,57,47,26,17,6,5,0.9,0.8
2026-04-05T0000,4130A,114.0076,22.9739,东莞市,教育路1号,,44,44,36,30,23,30,30,57,45,23,21,6,6,0.8,0.8
2026-04-05T0000,4131A,113.7981,22.8124,东莞市,长怡路1号,颗粒物(PM10),54,55,42,36,25,18,18,52,38,36,28,5,5,1.0,0.9
2026-04-05T0000,1666A,118.6612,37.4313,东营市,市环保局,,34,34,26,16,14,62,62,97,78,22,11,30,9,0.3,0.3
2026-04-05T0000,3036A,118.6903,37.4337,东营市,开发区管委会,,41,41,31,16,12,66,66,102,80,26,15,8,7,0.7,0.4
2026-04-05T0000,3365A,118.5721,37.5654,东营市,垦利区民丰路,,29,29,26,14,13,84,84,110,92,19,11,6,4,0.5,0.5
2026-04-05T0000,3498A,118.5063,37.8606,东营市,河口城区,,31,31,31,14,14,82,82,119,98,14,11,3,8,0.7,0.5
2026-04-05T0000,3646A,118.4979,37.4623,东营市,胜利站,,31,31,29,15,14,64,64,96,77,20,13,10,8,0.6,0.5
2026-04-05T0000,3734A,118.5753,37.4405,东营市,理想之城,,39,39,32,15,12,58,58,109,83,40,19,9,6,0.8,0.7
2026-04-05T0000,1591A,110.0024,39.8127,鄂尔多斯市,综合楼,颗粒物(PM10),500,735,155,75,23,92,92,109,93,9,14,6,7,0.2,0.2
2026-04-05T0000,1592A,109.9485,39.8259,鄂尔多斯市,巴音孟克林场办事处,颗粒物(PM10),500,632,132,76,21,91,91,112,95,11,9,4,5,0.4,0.3
2026-04-05T0000,1593A,109.7734,39.5987,鄂尔多斯市,康泽苑,颗粒物(PM10),405,505,123,61,21,95,95,117,101,7,9,7,6,0.4,0.3
2026-04-05T0000,1594A,109.8121,39.5987,鄂尔多斯市,华泰汽车城,颗粒物(PM10),349,459,120,53,21,85,85,106,89,7,17,7,6,0.3,0.3
2026-04-05T0000,1595A,109.9734,39.7884,鄂尔多斯市,奥林花园,颗粒物(PM10),500,647,138,61,18,96,96,110,97,12,22,3,3,0.3,0.3
2026-04-05T0000,2436A,114.894,30.3989,鄂州市,市政府,,42,42,64,11,27,75,75,115,102,14,20,10,13,0.4,0.5
2026-04-05T0000,2437A,114.8986,30.3714,鄂州市,赵家坝,颗粒物(PM10),65,71,72,15,24,70,70,116,95,9,10,10,10,0.6,0.5
2026-04-05T0000,3654A,114.8093,30.4091,鄂州市,精准医疗中心,颗粒物(PM10),66,72,65,14,27,53,53,122,94,29,15,11,8,1.8,0.8
2026-04-05T0000,2454A,109.4978,30.2979,恩施土家族苗族自治州,湖北民院,颗粒物(PM10),73,82,67,33,27,44,44,96,72,3,8,7,7,0.7,0.6
2026-04-05T0000,3549A,109.5061,30.3771,恩施土家族苗族自治州,龙凤新区,颗粒物(PM10),72,80,66,24,26,32,32,81,59,16,11,7,7,0.3,0.3
2026-04-05T0000,2499A,108.3411,21.6159,防城港市,沙万,细颗粒物(PM2.5),56,46,37,38,24,91,91,84,82,16,18,6,7,0.7,0.6
2026-04-05T0000,2500A,108.3515,21.7733,防城港市,防城档案局,细颗粒物(PM2.5),54,44,34,37,20,50,50,97,90,17,10,7,7,0.8,0.7
2026-04-05T0000,2501A,108.3506,21.6414,防城港市,大海花园,,43,NA,35,30,27,91,91,100,98,24,19,12,9,0.8,0.7
2026-04-05T0000,1371A,113.1293,23.0065,佛山市,湾梁,细颗粒物(PM2.5),54,NA,21,37,17,16,16,52,38,38,22,/,/,/,/
2026-04-05T0000,1372A,113.1082,23.0477,佛山市,华材职中,细颗粒物(PM2.5),68,NA,21,44,17,19,19,58,43,38,27,8,9,0.6,0.5
2026-04-05T0000,1373A,113.1439,23.045,佛山市,南海气象局,细颗粒物(PM2.5),54,48,29,37,17,11,11,51,34,42,24,/,/,/,/
2026-04-05T0000,1374A,113.2879,22.8094,佛山市,顺德苏岗,,48,39,28,33,20,6,6,49,29,47,24,/,/,0.9,0.8
2026-04-05T0000,1376A,112.8384,22.8678,佛山市,高明孔堂,,32,29,27,22,16,31,31,65,49,28,26,/,/,/,/
2026-04-05T0000,1377A,112.8835,23.1584,佛山市,三水监测站,,49,46,19,34,13,4,4,72,42,72,26,4,6,0.8,0.6
2026-04-05T0000,1378A,112.8668,23.185,佛山市,三水云东海,,35,35,27,20,11,23,23,70,49,29,15,/,/,/,/
2026-04-05T0000,3625A,113.2568,22.7629,佛山市,容桂街道办,细颗粒物(PM2.5),58,NA,22,39,21,20,20,57,42,42,30,/,/,/,/
2026-04-05T0000,1282A,119.2681,26.0506,福州市,师大,,25,25,24,10,6,46,46,109,86,32,18,4,4,0.5,0.4
2026-04-05T0000,1283A,119.2983,26.1028,福州市,五四北路,,22,12,14,3,5,70,70,108,86,18,21,4,4,0.4,0.5
2026-04-05T0000,1284A,119.2648,26.0769,福州市,杨桥西路,,25,25,15,3,5,50,50,112,87,24,15,4,4,/,/
2026-04-05T0000,3048A,119.5799,26.0937,福州市,九龙,,19,19,17,6,5,41,41,117,97,20,16,4,5,0.4,0.4
2026-04-05T0000,3526A,119.5188,25.9666,福州市,吴航,,15,13,11,8,7,46,46,104,79,18,18,5,5,0.6,0.6
2026-04-05T0000,4104A,119.3106,26.0648,福州市,路通桥巷6号,,32,26,13,22,10,46,46,108,82,28,14,/,/,/,/
2026-04-05T0000,1755A,123.7974,41.8494,抚顺市,望花区,颗粒物(PM10),78,89,44,43,30,39,39,100,69,32,15,11,9,0.9,0.6
2026-04-05T0000,1756A,123.9161,41.8827,抚顺市,顺城区,,34,34,35,20,25,57,57,92,61,20,18,10,9,0.6,0.6
2026-04-05T0000,1757A,124.0437,41.8615,抚顺市,东洲区,,22,22,30,13,19,67,67,91,80,8,10,9,9,0.5,0.5
2026-04-05T0000,1758A,123.9246,41.8638,抚顺市,新抚区,,36,36,36,18,23,61,61,94,60,14,16,9,10,0.5,0.6
2026-04-05T0000,1759A,124.0972,41.8961,抚顺市,大伙房水库,,26,21,27,13,17,82,82,99,92,7,12,7,7,0.3,0.4
2026-04-05T0000,1760A,123.708,41.8386,抚顺市,沈抚新城,颗粒物(PM10),70,77,44,38,29,37,37,96,65,27,17,8,8,0.8,0.6
2026-04-05T0000,2377A,116.3544,27.9833,抚州市,市站,细颗粒物(PM2.5),52,51,33,36,23,43,43,97,74,15,10,3,5,1.0,1
2026-04-05T0000,2378A,116.3562,27.9631,抚州市,血防站,,46,46,31,32,19,46,46,96,81,20,11,8,7,0.9,0.8
2026-04-05T0000,2379A,116.3561,28.0007,抚州市,采茶剧团,,46,46,35,23,22,68,68,93,82,7,7,9,6,0.7,0.8
2026-04-05T0000,2380A,116.3854,27.9648,抚州市,医学分院,,40,40,34,18,16,70,70,98,85,12,12,8,6,1.0,1.1
2026-04-05T0000,2207A,121.6095,41.9978,阜新市,工业园区,,41,41,30,20,15,97,97,101,92,13,13,12,10,0.4,0.4
2026-04-05T0000,2208A,121.6567,42.0188,阜新市,长青街,,38,38,21,18,13,99,99,106,100,17,14,13,8,0.4,0.4
2026-04-05T0000,2209A,121.6672,42.07,阜新市,农业园区,,42,42,28,15,14,99,99,100,96,13,14,7,6,0.4,0.5
2026-04-05T0000,2211A,121.6343,42.0455,阜新市,玉龙新城,,42,42,27,18,14,97,97,101,96,15,18,11,9,0.5,0.4
2026-04-05T0000,2301A,115.8276,32.8929,阜阳市,市监测站,颗粒物(PM10),72,80,75,27,23,81,81,110,93,20,17,7,6,0.3,0.3
2026-04-05T0000,2303A,115.8551,32.8606,阜阳市,开发区,颗粒物(PM10),82,94,89,20,21,106,106,109,104,15,13,5,6,0.4,0.4
2026-04-05T0000,2875A,115.783962,32.889217,阜阳市,阜阳职业技术学院,颗粒物(PM10),76,86,76,19,11,114,114,118,115,10,11,7,7,0.4,0.4
2026-04-05T0000,3468A,115.79,32.8614,阜阳市,市规划展馆,颗粒物(PM10),75,85,73,24,22,89,89,118,105,17,12,8,8,0.4,0.3
2026-04-05T0000,3469A,115.835101,32.918568,阜阳市,枣园社区,颗粒物(PM10),77,87,76,28,21,83,83,111,101,26,15,6,7,0.5,0.5
2026-04-05T0000,2669A,102.9097,34.9841,甘南藏族自治州,州政府,颗粒物(PM10),90,105,57,40,25,32,32,94,79,40,13,6,6,0.6,0.4
2026-04-05T0000,3380A,102.8915,34.9618,甘南藏族自治州,甘肃民族师范学院,颗粒物(PM10),96,114,66,37,22,25,25,107,80,52,19,1,3,0.5,0.4
2026-04-05T0000,2570A,101.96,30.048,甘孜藏族自治州,水桥子,,41,41,25,18,8,15,15,76,53,43,18,6,6,0.4,0.3
2026-04-05T0000,3065A,101.9534,29.9976,甘孜藏族自治州,州环保局,,26,26,23,12,7,44,44,82,60,28,18,5,5,0.3,0.2
2026-04-05T0000,2363A,114.9368,25.8663,赣州市,地委,颗粒物(PM10),58,60,29,23,16,4,4,94,50,34,14,1,2,0.9,0.8
2026-04-05T0000,2364A,114.946,25.8483,赣州市,气象台,颗粒物(PM10),56,58,44,28,21,16,16,97,52,48,22,5,5,0.8,0.8
2026-04-05T0000,2365A,114.932,25.8332,赣州市,市图书馆,颗粒物(PM10),55,57,30,30,18,17,17,97,59,43,17,4,4,0.9,0.8
2026-04-05T0000,2366A,114.8905,25.8472,赣州市,华坚鞋城,颗粒物(PM10),59,62,30,26,18,13,13,85,47,39,19,8,6,0.6,0.5
2026-04-05T0000,3109A,115.0094,25.8614,赣州市,赣县区卫计委,,32,32,26,20,15,5,5,89,44,33,20,1,2,0.8,0.8
2026-04-05T0000,2684A,106.2753,36.0057,固原市,监测站,颗粒物(PM10),133,204,127,75,34,49,49,113,84,32,19,8,5,0.7,0.4
2026-04-05T0000,2685A,106.2384,36.0189,固原市,新区,颗粒物(PM10),145,236,132,65,34,6,6,114,66,79,25,6,4,0.6,0.4
2026-04-05T0000,2544A,106.6307,30.4577,广安市,市委,颗粒物(PM10),98,117,87,48,35,85,85,119,100,17,18,7,7,0.7,0.7
2026-04-05T0000,2545A,106.6266,30.4662,广安市,友谊中学,颗粒物(PM10),88,103,71,36,28,90,90,114,96,9,15,8,9,0.5,0.6
2026-04-05T0000,2547A,106.6386,30.4551,广安市,广电花园,颗粒物(PM10),105,133,99,46,35,75,75,115,98,19,18,6,6,0.7,0.7
2026-04-05T0000,2902A,106.6347,30.4868,广安市,北辰小学,颗粒物(PM10),101,122,88,44,33,91,91,118,110,10,12,8,9,0.7,0.8
2026-04-05T0000,2524A,105.8211,32.4444,广元市,老城,颗粒物(PM10),78,89,96,37,40,12,12,111,66,66,38,2,7,0.6,0.6
2026-04-05T0000,2526A,105.8629,32.429,广元市,监测站,颗粒物(PM10),62,66,84,25,34,64,64,109,87,16,20,2,9,0.6,0.8
2026-04-05T0000,3617A,105.8047,32.4167,广元市,经开区,颗粒物(PM10),77,87,99,38,40,36,36,111,75,36,33,3,10,0.7,0.7
2026-04-05T0000,1345A,113.2346,23.1423,广州市,广雅中学,,45,45,29,29,17,2,2,60,29,68,31,3,3,1.0,0.6
2026-04-05T0000,1346A,113.2611,23.105,广州市,市五中,,42,40,24,29,17,6,6,71,36,62,28,5,3,/,/
2026-04-05T0000,1348A,113.3477,23.0916,广州市,广东商学院,,43,40,25,30,18,1,1,56,25,62,26,7,5,1.1,0.9
2026-04-05T0000,1349A,113.4332,23.105,广州市,市八十六中,颗粒物(PM10),73,81,29,25,15,2,2,52,20,60,33,6,6,/,/
2026-04-05T0000,1350A,113.3506,22.9488,广州市,番禺中学,,39,39,28,26,18,21,21,56,32,44,29,6,4,0.9,0.7
2026-04-05T0000,1351A,113.2147,23.3918,广州市,花都师范,,48,48,18,24,11,13,13,73,56,57,20,6,8,1.1,0.9
2026-04-05T0000,1352A,113.2599,23.1329,广州市,市监测站,,40,40,27,27,16,3,3,64,33,59,22,3,3,/,/
2026-04-05T0000,1353A,113.5618,23.3119,广州市,九龙镇镇龙,,41,41,24,24,15,18,18,63,34,26,19,5,6,0.7,0.6
2026-04-05T0000,1354A,113.2764,23.1544,广州市,麓湖,,42,42,23,29,14,1,1,63,26,56,23,4,5,1.1,0.9
2026-04-05T0000,2846A,113.3209,23.1323,广州市,体育西,,40,40,26,24,14,16,16,57,27,49,26,7,6,1.0,0.7
2026-04-05T0000,3298A,113.5718,23.5493,广州市,从化街口,,41,41,20,27,12,18,18,77,48,21,15,7,8,0.8,0.7
2026-04-05T0000,3299A,113.3463,23.369,广州市,白云竹料,,47,47,19,32,12,5,5,82,43,40,16,2,4,0.8,0.7
2026-04-05T0000,3300A,113.2981,23.2365,广州市,白云嘉禾,,50,50,24,30,13,6,6,72,32,52,25,8,9,/,/
2026-04-05T0000,3301A,113.4256,23.1716,广州市,黄埔科学城,,40,39,24,28,14,10,10,64,33,36,21,4,5,0.9,0.7
2026-04-05T0000,3302A,113.3942,23.0485,广州市,番禺大学城,颗粒物(PM10),53,53,30,33,17,3,3,58,28,64,30,5,3,1.0,0.8
2026-04-05T0000,3303A,113.4923,22.8169,广州市,南沙黄阁,,45,44,35,31,22,16,16,44,29,46,36,7,7,/,/
2026-04-05T0000,3304A,113.534,22.7893,广州市,南沙街,细颗粒物(PM2.5),56,50,33,38,24,18,18,42,30,40,30,9,9,0.8,0.7
2026-04-05T0000,3443A,113.2905,23.5541,广州市,花都梯面,,16,15,11,11,7,4,4,69,39,27,13,7,8,/,/
2026-04-05T0000,3445A,113.786,23.7479,广州市,从化良口,,14,14,11,8,7,21,21,65,43,14,9,4,4,/,/
2026-04-05T0000,3446A,113.805,23.2614,广州市,增城荔城,,40,40,22,24,15,7,7,63,38,26,15,5,5,0.7,0.6
2026-04-05T0000,2506A,109.604387,23.066791,贵港市,江南子站,,41,41,32,26,20,63,63,110,86,12,11,12,9,0.9,0.8
2026-04-05T0000,2508A,109.5669,23.1065,贵港市,荷城子站,,46,46,28,32,20,58,58,105,84,15,12,11,10,0.8,0.7
2026-04-05T0000,3405A,109.5886,23.1172,贵港市,新世纪学校,,42,39,30,29,20,56,56,109,83,20,15,/,/,0.8,0.6
2026-04-05T0000,4260A,109.5933,23.095,贵港市,中山路155-3号,,45,43,34,31,21,60,60,116,92,15,10,/,/,0.9,0.8
2026-04-05T0000,1439A,106.6863,26.6035,贵阳市,马鞍山,,39,39,25,12,16,26,26,106,75,19,10,3,4,/,/
2026-04-05T0000,1441A,106.6241,26.6266,贵阳市,鉴湖路,,34,34,35,14,13,89,89,122,104,10,12,8,8,0.1,0.3
2026-04-05T0000,1442A,106.7468,26.6344,贵阳市,燕子冲,,31,31,35,12,15,42,42,99,74,13,13,4,6,0.5,0.5
2026-04-05T0000,1443A,106.6556,26.4362,贵阳市,碧云窝,,25,24,29,15,17,80,80,106,92,7,10,11,10,/,/
2026-04-05T0000,1445A,106.6963,26.6063,贵阳市,红边门,NA,NA,36,36,NA,18,58,58,107,78,26,19,10,10,/,/
2026-04-05T0000,1446A,106.7162383,26.56964667,贵阳市,新华路,,39,39,39,21,16,57,57,109,82,25,18,4,17,0.2,0.4
2026-04-05T0000,1447A,106.6742,26.542,贵阳市,太慈桥,,27,27,29,14,16,34,34,100,77,31,14,1,4,/,/
2026-04-05T0000,4230A,106.688212,26.56952,贵阳市,花果园大街66号,,22,22,17,13,15,64,64,88,74,11,14,5,5,/,/
2026-04-05T0000,4231A,106.687268,26.516892,贵阳市,漓江路57号,,28,22,18,19,16,54,54,109,84,18,14,9,10,0.6,0.5
2026-04-05T0000,1864A,110.3091,25.2705,桂林市,龙隐路小学,细颗粒物(PM2.5),68,57,33,44,23,54,54,102,65,21,14,10,5,0.7,0.7
2026-04-05T0000,1865A,110.2849361,25.22909545,桂林市,八中,细颗粒物(PM2.5),66,53,35,43,17,23,23,88,56,24,14,5,5,1.0,0.9
2026-04-05T0000,3531A,110.296,25.1254,桂林市,旅游学院,细颗粒物(PM2.5),58,54,38,39,22,35,35,97,73,21,16,6,8,0.8,0.8
2026-04-05T0000,4222A,110.1835,25.2444,桂林市,环湖路276号,细颗粒物(PM2.5),82,80,40,51,29,18,18,101,62,42,19,53,23,0.9,0.7
2026-04-05T0000,4301A,110.2803,25.2773,桂林市,信义路13号,细颗粒物(PM2.5),82,71,35,51,18,9,9,96,54,49,18,7,6,1.2,0.9
2026-04-05T0000,2674A,100.2262,34.4854,果洛藏族自治州,玛沁县大武镇,颗粒物(PM10),55,57,43,26,17,62,62,118,96,10,4,11,9,0.6,0.4
2026-04-05T0000,1130A,126.5557,45.8109,哈尔滨市,松北商大,细颗粒物(PM2.5),84,NA,49,52,50,75,75,96,89,17,17,10,11,0.8,0.6
2026-04-05T0000,1132A,126.6162,45.719,哈尔滨市,南岗学府路,细颗粒物(PM2.5),132,106,54,95,44,30,30,101,84,64,19,2,3,1.3,0.9
2026-04-05T0000,1133A,126.6894,45.7733,哈尔滨市,太平宏伟公园,细颗粒物(PM2.5),105,NA,47,65,43,70,70,94,85,29,19,10,11,0.5,0.4
2026-04-05T0000,1134A,126.6361,45.7672,哈尔滨市,道外承德广场,细颗粒物(PM2.5),94,98,81,57,44,60,60,81,81,41,26,8,10,1.3,0.8
2026-04-05T0000,1136A,126.644,45.7261,哈尔滨市,动力和平路,细颗粒物(PM2.5),100,NA,50,60,42,55,55,97,82,48,21,3,3,0.8,0.7
2026-04-05T0000,1137A,126.5933,45.7479,哈尔滨市,道里建国路,细颗粒物(PM2.5),92,NA,48,56,43,72,72,99,91,43,24,24,16,1.3,0.4
2026-04-05T0000,1138A,126.6127,45.6119,哈尔滨市,平房东轻厂,细颗粒物(PM2.5),76,60,66,48,56,65,65,83,76,63,80,7,7,0.8,0.8
2026-04-05T0000,1139A,126.5875,45.9827,哈尔滨市,呼兰师专,细颗粒物(PM2.5),110,76,57,71,53,67,67,97,78,36,22,10,9,0.6,0.3
2026-04-05T0000,1140A,126.6299,45.6799,哈尔滨市,省农科院,细颗粒物(PM2.5),96,72,57,58,52,19,19,94,63,79,28,7,8,1.0,0.8
2026-04-05T0000,4282A,126.6769,45.7379,哈尔滨市,华山路1号,细颗粒物(PM2.5),103,70,49,63,40,78,78,97,88,29,19,7,5,0.9,0.7
2026-04-05T0000,4283A,126.9717,45.5356,哈尔滨市,解放大街52号,细颗粒物(PM2.5),76,82,65,48,36,22,22,110,85,41,17,4,5,0.8,0.9
2026-04-05T0000,2688A,93.5124,42.8176,哈密市,地区监测站,颗粒物(PM10),52,52,33,34,12,40,40,113,85,58,14,8,9,0.6,0.2
2026-04-05T0000,2689A,93.5014,42.8312,哈密市,哈密师范学校,颗粒物(PM10),72,80,36,33,11,24,24,114,81,55,11,10,8,0.3,0
2026-04-05T0000,2671A,100.9016,36.9464,海北藏族自治州,海晏县西海镇,颗粒物(PM10),53,53,35,12,15,98,98,112,106,2,2,8,7,0.4,0.3
2026-04-05T0000,3867A,102.074,36.5056,海东市,平安区公安局北苑,颗粒物(PM10),69,76,102,24,30,90,90,126,111,15,8,22,11,0.5,0.5
2026-04-05T0000,4163A,102.0984,36.5119,海东市,滨河路,颗粒物(PM10),74,83,119,28,43,48,48,104,84,46,22,24,11,0.7,0.6
2026-04-05T0000,1410A,110.3189,20.0596,海口市,海南大学,,37,37,30,24,20,42,42,105,76,12,7,5,6,0.4,0.4
2026-04-05T0000,1411A,110.2827,20.0051,海口市,秀英海南医院,,39,34,26,27,22,39,39,102,81,12,11,7,8,0.4,0.4
2026-04-05T0000,1412A,110.3391,19.9979,海口市,海南师范大学,,42,42,32,26,21,38,38,112,83,13,8,6,6,0.5,0.4
2026-04-05T0000,1413A,110.3303,20.0359,海口市,龙华路环保局宿舍,,39,37,28,27,21,36,36,108,78,18,9,/,/,0.7,0.6
2026-04-05T0000,3539A,110.5111,19.9737,海口市,桂林洋子站,,47,47,35,24,20,36,36,94,69,10,9,/,/,/,/
2026-04-05T0000,4134A,110.1952,20.0451,海口市,长滨二路9号,,26,26,25,15,18,36,36,96,61,18,10,/,/,/,/
2026-04-05T0000,2673A,100.6158,36.2985,海南藏族自治州,共和县恰卜恰镇,,40,40,46,18,18,59,59,120,97,31,10,14,12,0.3,0.3
2026-04-05T0000,2676A,97.373,37.376,海西蒙古族藏族自治州,德令哈市,颗粒物(PM10),51,51,49,14,20,140,140,144,144,2,3,14,14,0.3,0.4
2026-04-05T0000,1049A,114.492,36.5712,邯郸市,矿院,颗粒物(PM10),58,60,53,12,10,78,78,114,95,14,11,5,4,0.4,0.3
2026-04-05T0000,1050A,114.4839,36.6136,邯郸市,丛台公园,颗粒物(PM10),58,61,47,16,17,73,73,114,95,24,17,12,6,0.5,0.3
2026-04-05T0000,3458A,114.7893,36.5592,邯郸市,香泉濮院小区,颗粒物(PM10),93,110,86,26,29,80,80,115,98,14,14,1,2,0.3,0.3
2026-04-05T0000,3580A,114.1998,36.4439,邯郸市,峰峰矿区临水派出所,颗粒物(PM10),59,62,49,28,18,85,85,109,99,15,12,13,6,0.6,0.5
2026-04-05T0000,4068A,114.5209,36.7697,邯郸市,建安街268号,颗粒物(PM10),62,66,68,20,20,76,76,113,96,21,16,6,2,0.6,0.4
2026-04-05T0000,4069A,114.5488,36.6177,邯郸市,丛台东路558号,颗粒物(PM10),60,64,60,16,20,66,66,112,90,19,14,3,3,0.5,0.4
2026-04-05T0000,2635A,107.0155,33.0707,汉中市,市监测站,颗粒物(PM10),70,78,108,31,38,70,70,112,97,13,18,6,6,0.4,0.4
2026-04-05T0000,2636A,107.0083,33.114,汉中市,鑫源开发区,颗粒物(PM10),59,62,99,36,41,68,68,112,92,14,17,5,7,0.4,0.4
2026-04-05T0000,2637A,107.0072,33.0323,汉中市,南郑大河坎水厂,细颗粒物(PM2.5),100,113,108,60,39,18,18,110,74,36,17,4,5,0.6,0.4
2026-04-05T0000,1223A,120.2073,30.2111,杭州市,滨江,细颗粒物(PM2.5),88,101,31,54,17,50,50,114,88,47,22,8,7,0.9,0.7
2026-04-05T0000,1224A,120.0625,30.2737,杭州市,西溪,颗粒物(PM10),60,63,26,34,14,1,1,104,61,38,16,8,8,0.9,0.8
2026-04-05T0000,1226A,120.3417,30.315,杭州市,下沙,颗粒物(PM10),110,144,41,49,14,55,55,107,75,27,15,9,7,0.7,0.6
2026-04-05T0000,1227A,120.1252,30.2465,杭州市,卧龙桥,颗粒物(PM10),58,60,24,32,11,6,6,108,40,16,11,8,7,0.5,0.5
2026-04-05T0000,1228A,120.1902,30.2691,杭州市,浙江农大,细颗粒物(PM2.5),100,102,34,60,19,53,53,106,71,38,28,8,6,0.6,0.4
2026-04-05T0000,1230A,120.1195,30.3121,杭州市,和睦小学,颗粒物(PM10),98,117,40,55,19,57,57,112,83,33,17,7,6,0.8,0.6
2026-04-05T0000,1231A,120.3076,30.4146,杭州市,临平镇,细颗粒物(PM2.5),98,93,37,59,22,76,76,127,95,26,16,9,6,0.7,0.6
2026-04-05T0000,1232A,120.2753,30.1839,杭州市,城厢镇,细颗粒物(PM2.5),102,96,28,62,18,36,36,103,73,53,22,8,6,0.7,0.6
2026-04-05T0000,1233A,120.0883,30.1808,杭州市,云栖,颗粒物(PM10),60,64,26,36,11,13,13,100,40,27,19,6,6,0.7,0.6
2026-04-05T0000,3557A,119.9463,30.0496,杭州市,镇二中,,48,48,23,27,13,4,4,98,54,51,26,4,4,0.7,0.7
2026-04-05T0000,3558A,119.7184,30.2367,杭州市,市府大楼,颗粒物(PM10),59,62,23,35,14,34,34,99,78,21,11,6,6,0.5,0.3
2026-04-05T0000,3656A,120.1554,30.2863,杭州市,消防大队,"颗粒物(PM10),细颗粒物(PM2.5)",98,117,36,59,18,52,52,103,76,37,16,9,8,1.0,0.8
2026-04-05T0000,1270A,117.1957,31.7845,合肥市,明珠广场,颗粒物(PM10),63,68,57,26,23,79,79,141,117,14,16,4,4,0.6,0.5
2026-04-05T0000,1271A,117.307,31.8765,合肥市,三里街,颗粒物(PM10),78,88,62,26,23,65,65,119,94,38,27,6,6,0.5,0.5
2026-04-05T0000,1272A,117.2587,31.8703,合肥市,琥珀山庄,颗粒物(PM10),78,88,61,24,22,81,81,129,105,26,22,6,6,0.6,0.5
2026-04-05T0000,1275A,117.2593,31.9376,合肥市,庐阳区,颗粒物(PM10),86,100,68,26,23,79,79,124,104,31,20,6,5,0.7,0.6
2026-04-05T0000,1276A,117.345251,31.861615,合肥市,瑶海区,颗粒物(PM10),80,92,64,24,21,76,76,124,99,26,23,6,7,0.7,0.7
2026-04-05T0000,1277A,117.3033,31.7967,合肥市,包河区,颗粒物(PM10),68,75,59,19,19,84,84,128,108,10,23,9,9,0.6,0.6
2026-04-05T0000,1278A,117.278,31.7392,合肥市,滨湖新区,颗粒物(PM10),67,73,51,19,18,78,78,134,120,9,14,5,5,0.5,0.4
2026-04-05T0000,1279A,117.1324,31.8395,合肥市,高新区,颗粒物(PM10),70,78,61,22,20,86,86,130,115,11,12,5,5,0.6,0.5
2026-04-05T0000,3464A,117.3802,31.9148,合肥市,高教基地,颗粒物(PM10),83,95,62,23,19,75,75,126,93,25,19,8,9,0.5,0.4
2026-04-05T0000,4098A,117.2518,31.8404,合肥市,中国科学技术大学,颗粒物(PM10),74,83,57,20,21,89,89,138,116,14,14,6,6,0.6,0.6
2026-04-05T0000,3614A,79.9241,37.0878,和田地区,地区环保局,颗粒物(PM10),189,327,208,61,46,90,90,107,95,10,11,1,9,0.5,0.5
2026-04-05T0000,3615A,79.9132,37.1137,和田地区,市环保局,颗粒物(PM10),152,253,194,61,49,81,81,99,89,18,24,3,11,0.2,0.4
2026-04-05T0000,2517A,108.0496,24.6957,河池市,市环保站,,33,32,29,23,17,35,35,100,74,16,10,6,7,0.7,0.6
2026-04-05T0000,4302A,108.0901,24.6945,河池市,上任中路54号,,44,44,30,26,16,12,12,99,63,44,17,7,8,0.8,0.8
2026-04-05T0000,1697A,114.6962,23.7538,河源市,东埔,NA,NA,33,15,22,11,NA,NA,73,NA,27,12,6,6,0.6,0.5
2026-04-05T0000,1698A,114.6895,23.7232,河源市,老城,,43,43,18,22,12,18,18,75,49,25,12,7,6,0.6,0.6
2026-04-05T0000,3374A,115.5562,35.089,菏泽市,定陶老年大学,颗粒物(PM10),72,80,83,25,19,68,68,118,97,23,16,6,6,0.4,0.3
2026-04-05T0000,4114A,115.4239,35.2593,菏泽市,黄河路600号,颗粒物(PM10),85,99,95,18,21,69,69,110,91,22,14,3,2,0.4,0.4
2026-04-05T0000,4115A,115.5025,35.2727,菏泽市,菏泽市人社局,颗粒物(PM10),78,88,80,14,19,85,85,110,97,14,15,8,6,0.3,0.2
2026-04-05T0000,4184A,115.479691,35.244011,菏泽市,永昌路1号,颗粒物(PM10),74,83,88,16,20,84,84,122,105,18,16,4,3,0.2,0.3
2026-04-05T0000,4193A,115.471542,35.280012,菏泽市,长城路999号,颗粒物(PM10),83,95,90,12,16,88,88,122,108,25,23,1,2,0.2,0.2
2026-04-05T0000,2514A,111.5264,24.4178,贺州市,环保小区,,33,32,23,23,14,40,40,72,57,14,13,8,5,0.7,0.7
2026-04-05T0000,2515A,111.561,24.4074,贺州市,政协大楼,,33,30,27,23,16,43,43,79,65,14,14,11,8,0.7,0.7
2026-04-05T0000,3534A,111.4744,24.455,贺州市,西湾,颗粒物(PM10),58,61,43,18,14,41,41,75,60,14,13,5,3,0.7,0.7
2026-04-05T0000,2385A,114.17,35.9019,鹤壁市,市监测站,颗粒物(PM10),58,60,51,13,12,79,79,101,90,19,16,8,5,0.5,0.5
2026-04-05T0000,2386A,114.2953,35.7512,鹤壁市,市交警支队,颗粒物(PM10),88,103,69,28,14,60,60,97,78,24,16,6,6,0.6,0.4
2026-04-05T0000,2387A,114.2877,35.7302,鹤壁市,迎宾馆,颗粒物(PM10),102,123,82,23,16,57,57,98,78,22,14,8,4,0.5,0.4
2026-04-05T0000,3474A,114.2616,35.6824,鹤壁市,大新区,颗粒物(PM10),68,75,78,33,20,50,50,78,71,28,26,7,8,0.5,0.6
2026-04-05T0000,3596A,114.1573,35.9607,鹤壁市,南山宾馆,颗粒物(PM10),83,95,83,25,17,77,77,102,93,14,7,10,9,0.5,0.4
2026-04-05T0000,2244A,130.2537,47.3416,鹤岗市,哈啤分公司,,45,41,35,31,26,66,66,80,73,12,12,8,8,0.5,0.4
2026-04-05T0000,2245A,130.2683,47.3087,鹤岗市,斯达机电,颗粒物(PM10),63,68,41,33,27,66,66,85,78,19,12,12,10,0.5,0.4
2026-04-05T0000,2246A,130.3114,47.3388,鹤岗市,东山纸板厂,颗粒物(PM10),105,133,46,57,25,43,43,92,68,16,14,11,9,0.7,0.3
2026-04-05T0000,2263A,127.4832,50.2524,黑河市,交通局,颗粒物(PM10),51,51,27,26,13,37,37,83,62,17,8,6,5,0.5,0.3
2026-04-05T0000,2264A,127.5146,50.2339,黑河市,环保局,细颗粒物(PM2.5),72,66,33,46,14,26,26,81,61,34,14,9,8,0.6,0.6
2026-04-05T0000,1074A,115.6839,37.754,衡水市,电机北厂,颗粒物(PM10),77,87,80,22,33,84,84,117,106,20,17,6,4,0.2,0.3
2026-04-05T0000,1075A,115.6303,37.7318,衡水市,市监测站,颗粒物(PM10),68,75,80,22,28,83,83,115,104,17,17,6,5,0.4,0.4
2026-04-05T0000,3188A,115.6684,37.7216,衡水市,市城管局,颗粒物(PM10),77,87,81,29,33,82,82,115,105,18,15,14,11,0.4,0.4
2026-04-05T0000,3459A,115.599,37.5491,衡水市,地表水厂,颗粒物(PM10),85,98,76,26,34,81,81,115,99,15,14,6,4,0.3,0.3
2026-04-05T0000,2457A,112.6209,26.9268,衡阳市,衡阳化工总厂,颗粒物(PM10),72,80,48,44,26,41,41,100,68,18,16,8,7,0.7,0.9
2026-04-05T0000,2458A,112.621,26.8957,衡阳市,珠晖区环保局,颗粒物(PM10),75,84,45,41,25,6,6,96,50,54,20,8,9,0.9,1
2026-04-05T0000,2459A,112.628,26.8654,衡阳市,市委党校,,46,46,39,23,22,56,56,97,78,13,9,8,9,0.9,1
2026-04-05T0000,2460A,112.6007,26.8977,衡阳市,市监测站,细颗粒物(PM2.5),98,107,56,59,29,2,2,88,44,56,23,8,9,1.4,1.1
2026-04-05T0000,2461A,112.5658,26.9013,衡阳市,真空机电公司,细颗粒物(PM2.5),92,87,52,56,32,6,6,100,59,54,16,7,10,1.7,1.5
2026-04-05T0000,3399A,112.6703,26.8817,衡阳市,师范学院,,20,20,39,12,25,17,17,99,68,19,8,5,6,1.5,0.9
2026-04-05T0000,3038A,103.3757,23.3679,红河哈尼族彝族自治州,州图书馆,细颗粒物(PM2.5),103,90,65,63,47,106,106,120,114,8,9,5,6,0.6,0.5
2026-04-05T0000,4154A,103.401,23.3561,红河哈尼族彝族自治州,蒙自市朝阳路,细颗粒物(PM2.5),88,NA,45,54,44,114,114,119,119,6,9,11,11,0.5,0.4
2026-04-05T0000,1090A,111.6506,40.7517,呼和浩特市,呼市一监,颗粒物(PM10),115,158,145,33,27,106,106,108,104,2,16,7,10,0.2,0.4
2026-04-05T0000,1094A,111.7516,40.8369,呼和浩特市,如意水处理厂,颗粒物(PM10),91,107,97,22,20,109,109,108,104,2,22,5,7,0.1,0.2
2026-04-05T0000,1095A,111.727798,40.806187,呼和浩特市,二十九中,颗粒物(PM10),128,192,128,16,22,99,99,96,92,2,16,7,10,0.3,0.3
2026-04-05T0000,1097A,111.717,40.7617,呼和浩特市,化肥厂生活区,颗粒物(PM10),101,121,109,21,29,105,105,105,101,2,18,4,7,0.2,0.3
2026-04-05T0000,3699A,111.6519,40.8389,呼和浩特市,海东办,颗粒物(PM10),106,134,146,16,18,101,101,102,100,3,25,3,5,0.2,0.3
2026-04-05T0000,4275A,111.591512,40.827312,呼和浩特市,成吉思汗西街8号,颗粒物(PM10),129,193,158,18,17,99,99,102,97,4,22,4,7,0.2,0.3
2026-04-05T0000,4276A,111.6597,40.8077,呼和浩特市,公园东路75号,颗粒物(PM10),118,166,170,24,20,100,100,101,98,6,19,8,11,0.1,0.2
2026-04-05T0000,4277A,111.5427,40.7846,呼和浩特市,金海路35号,颗粒物(PM10),160,270,139,14,20,102,102,98,96,7,25,3,6,0.2,0.3
2026-04-05T0000,3061A,119.7511,49.1576,呼伦贝尔市,国华电力东,,21,18,20,9,9,66,66,99,92,10,8,5,5,0.2,0.2
2026-04-05T0000,4279A,119.7569,49.2222,呼伦贝尔市,伊敏大街东7号,,29,29,24,6,9,58,58,74,67,10,9,7,7,0.3,0.3
2026-04-05T0000,1250A,120.075,30.867,湖州市,城西水厂,细颗粒物(PM2.5),92,85,41,56,30,56,56,134,96,53,22,6,6,0.9,0.8
2026-04-05T0000,2873A,120.083,30.8929,湖州市,仁皇山新区,细颗粒物(PM2.5),88,83,42,54,31,49,49,128,98,47,20,4,5,1.0,0.8
2026-04-05T0000,2907A,120.1846,30.8592,湖州市,吴兴区站,细颗粒物(PM2.5),101,77,44,61,33,80,80,139,115,18,9,6,6,0.8,0.8
2026-04-05T0000,3562A,120.4146,30.8538,湖州市,南浔区站,细颗粒物(PM2.5),82,79,48,51,34,82,82,128,106,16,10,5,5,0.9,0.9
2026-04-05T0000,1607A,120.904878,40.721091,葫芦岛市,龙港区,,32,28,30,22,22,99,99,116,110,8,13,8,13,0.4,0.5
2026-04-05T0000,1608A,120.8382,40.7521,葫芦岛市,化工街,,39,29,32,27,25,80,80,107,97,18,16,13,16,0.5,0.4
2026-04-05T0000,1609A,120.8339,40.7078,葫芦岛市,新区,,32,29,28,22,24,93,93,112,105,11,14,8,12,0.5,0.5
2026-04-05T0000,1610A,120.8697,40.7679,葫芦岛市,东城区,,33,33,30,22,25,90,90,115,104,16,16,8,13,0.6,0.6
2026-04-05T0000,2483A,109.9297,27.5383,怀化市,河西地税局,颗粒物(PM10),60,64,43,31,22,28,28,96,59,12,11,4,5,/,/
2026-04-05T0000,2484A,109.9783,27.5342,怀化市,市四医院,颗粒物(PM10),90,106,52,54,19,17,17,109,92,48,15,7,9,0.4,0.3
2026-04-05T0000,2485A,109.9971,27.5579,怀化市,监测楼,颗粒物(PM10),75,85,50,21,21,76,76,111,99,15,12,2,3,0.3,0.3
2026-04-05T0000,1210A,119.0566,33.5991,淮安市,钵池山,颗粒物(PM10),58,61,72,34,29,48,48,117,88,40,26,7,8,0.3,0.4
2026-04-05T0000,1211A,119.0083,33.578,淮安市,北京南路,颗粒物(PM10),70,78,75,42,33,36,36,109,79,48,21,8,8,0.6,0.6
2026-04-05T0000,1212A,118.9938,33.6083,淮安市,市监测站,颗粒物(PM10),72,80,69,43,33,53,53,122,94,51,25,7,6,0.7,0.6
2026-04-05T0000,1213A,119.135,33.5038,淮安市,楚州区监测站,,49,49,81,28,34,52,52,114,74,26,20,6,6,0.4,0.5
2026-04-05T0000,3426A,118.8757,33.2897,淮安市,新华书店,颗粒物(PM10),78,88,92,38,32,65,65,119,90,40,18,7,7,0.3,0.4
2026-04-05T0000,4092A,119.119691,33.550006,淮安市,枚皋中路89号,颗粒物(PM10),62,66,69,29,30,62,62,116,83,22,18,9,10,0.5,0.6
2026-04-05T0000,4206A,119.028838,33.631911,淮安市,承德北路606号,颗粒物(PM10),70,78,80,42,30,39,39,117,82,44,21,8,8,0.3,0.3
2026-04-05T0000,2282A,116.8005,33.9749,淮北市,监测站,颗粒物(PM10),69,76,70,24,22,89,89,117,101,19,16,8,7,0.4,0.3
2026-04-05T0000,2283A,116.8094,33.9008,淮北市,烈山区政府,颗粒物(PM10),81,93,75,29,19,77,77,108,90,24,15,8,7,0.4,0.3
2026-04-05T0000,4017A,116.7926,33.9534,淮北市,市博物馆,颗粒物(PM10),73,81,70,28,21,80,80,110,92,19,14,9,5,0.5,0.5
2026-04-05T0000,4100A,116.8322,33.9884,淮北市,杜集区第一实验学校,颗粒物(PM10),73,82,82,24,20,71,71,104,85,23,15,9,8,0.5,0.3
2026-04-05T0000,2277A,116.8304,32.7726,淮南市,潘集区政府,颗粒物(PM10),83,95,65,24,20,54,54,107,78,41,22,7,7,0.3,0.3
2026-04-05T0000,2279A,116.8569,32.5949,淮南市,谢家集区政府,颗粒物(PM10),70,77,61,26,20,69,69,116,94,38,18,12,10,0.5,0.5
2026-04-05T0000,2280A,116.8279,32.6333,淮南市,八公山区政府,颗粒物(PM10),83,95,74,26,22,92,92,116,96,17,11,10,10,0.4,0.5
2026-04-05T0000,2894A,117.0561,32.6536,淮南市,经济技术开发区消防队,颗粒物(PM10),75,85,67,24,22,63,63,106,85,29,18,8,8,0.4,0.4
2026-04-05T0000,3329A,117.011,32.5891,淮南市,山南新区,颗粒物(PM10),88,103,87,26,20,85,85,118,106,18,15,8,8,0.4,0.4
2026-04-05T0000,4209A,117.003137,32.644456,淮南市,国庆中路369号,颗粒物(PM10),69,76,62,24,21,87,87,110,99,16,18,12,12,0.4,0.4
2026-04-05T0000,2446A,114.9021,30.474,黄冈市,职工中心,,46,46,61,24,36,65,65,128,101,10,13,10,10,0.6,0.6
2026-04-05T0000,2929A,114.8858,30.4519,黄冈市,红卫路,,41,41,55,17,33,77,77,132,108,11,13,6,7,0.2,0.2
2026-04-05T0000,3398A,114.9134,30.4446,黄冈市,市林业局,颗粒物(PM10),54,55,77,24,35,75,75,129,104,11,15,4,6,0.2,0.2
2026-04-05T0000,2672A,102.02,35.5101,黄南藏族自治州,同仁县隆务镇,,45,45,44,18,17,82,82,120,102,1,2,11,10,0.2,0.2
2026-04-05T0000,2295A,118.2905,29.6965,黄山市,延安路89号,颗粒物(PM10),73,82,42,29,17,33,33,89,59,13,9,5,5,0.5,0.5
2026-04-05T0000,2297A,118.1369,30.2755,黄山市,黄山区政府5号楼,颗粒物(PM10),72,80,70,35,17,18,18,90,54,9,6,3,3,0.5,0.4
2026-04-05T0000,4210A,118.335445,29.720283,黄山市,滨江东路7-2号,颗粒物(PM10),76,86,62,28,14,24,24,91,55,9,8,/,/,/,/
2026-04-05T0000,2423A,115.0547,30.2332,黄石市,沈家营,颗粒物(PM10),63,68,71,23,27,49,49,110,78,23,19,13,9,0.2,0.9
2026-04-05T0000,2426A,114.899,30.211,黄石市,铁山,,50,50,57,20,25,58,58,112,92,17,13,12,13,0.2,0.4
2026-04-05T0000,2427A,115.0259,30.2108,黄石市,团城山,颗粒物(PM10),65,71,68,18,28,38,38,105,83,26,15,5,6,1.3,0.7
2026-04-05T0000,3149A,115.0174,30.1591,黄石市,笔架山北路,颗粒物(PM10),68,74,82,22,26,63,63,120,96,12,12,13,14,0.9,0.9
2026-04-05T0000,4185A,115.078022,30.21118,黄石市,磁湖东路29号,颗粒物(PM10),54,55,71,22,29,54,54,110,82,30,23,15,7,1.6,0.9
2026-04-05T0000,1392A,114.4181,23.0528,惠州市,河南岸金山湖子站,,21,21,24,14,16,40,40,66,56,17,18,6,6,0.8,0.7
2026-04-05T0000,1393A,114.4055,23.0824,惠州市,下埔横江三路子站,,40,40,28,24,18,16,16,73,54,30,14,5,5,0.8,0.7
2026-04-05T0000,1395A,114.4645,22.7832,惠州市,惠阳区承修路船湖子站,,46,46,35,32,22,28,28,51,38,17,18,5,6,0.6,0.6
2026-04-05T0000,1396A,114.5316,22.7423,惠州市,大亚湾管委会子站,,46,44,30,32,21,9,9,42,24,28,23,3,3,0.8,0.7
2026-04-05T0000,3314A,114.4334,22.8134,惠州市,惠阳秋长,,35,NA,24,24,19,29,29,55,40,17,17,/,/,/,/
2026-04-05T0000,3452A,114.6521,22.7755,惠州市,大亚湾霞涌,,33,33,24,16,17,28,28,48,34,11,13,/,/,/,/
2026-04-05T0000,4300A,114.4089,23.1147,惠州市,文华一路1号,NA,NA,37,27,NA,16,10,10,69,47,40,18,/,/,/,/
2026-04-05T0000,2240A,130.9618,45.2926,鸡西市,环保局,细颗粒物(PM2.5),72,50,42,46,39,74,74,89,84,11,13,6,6,0.1,0.1
2026-04-05T0000,2243A,130.9294,45.2959,鸡西市,第一中学,细颗粒物(PM2.5),68,NA,40,44,39,71,71,88,84,10,10,4,4,0.2,0.2
2026-04-05T0000,3707A,131.0069,45.2988,鸡西市,欧美日汽修厂,细颗粒物(PM2.5),82,60,46,51,41,42,42,87,72,31,14,7,8,0.4,0.2
2026-04-05T0000,2367A,114.9753,27.0803,吉安市,红声器材厂,颗粒物(PM10),52,52,33,19,13,34,34,101,80,25,16,12,9,0.9,0.8
2026-04-05T0000,2369A,114.9903,27.1313,吉安市,市环境监测站,,48,48,29,17,13,53,53,98,85,19,14,14,9,/,/
2026-04-05T0000,2370A,115.009527,27.096792,吉安市,青原区法院,,45,45,31,14,14,22,22,98,64,29,20,7,8,0.8,0.8
2026-04-05T0000,1772A,126.54,43.8622,吉林市,哈达湾,,40,40,46,28,33,78,78,95,77,8,14,5,8,0.5,0.6
2026-04-05T0000,1773A,126.5843,43.8358,吉林市,东局子,,35,25,33,24,33,73,73,89,71,7,14,3,4,0.9,0.9
2026-04-05T0000,1774A,126.5051,43.8243,吉林市,电力学院,细颗粒物(PM2.5),88,71,42,54,36,33,33,102,64,30,16,6,7,1.2,0.8
2026-04-05T0000,1775A,126.6133,43.8971,吉林市,江北,细颗粒物(PM2.5),60,49,45,40,37,39,39,92,60,12,9,9,9,0.9,0.8
2026-04-05T0000,1776A,126.5549,43.8304,吉林市,江南公园,,38,34,39,26,31,71,71,84,70,9,15,6,7,0.5,0.6
2026-04-05T0000,2868A,126.4737,43.953,吉林市,九站,细颗粒物(PM2.5),68,45,41,44,37,27,27,91,64,41,18,12,8,0.8,0.6
2026-04-05T0000,1299A,116.9866,36.6118,济南市,科干所,颗粒物(PM10),67,73,51,14,17,114,114,114,113,10,11,8,6,0.5,0.5
2026-04-05T0000,1300A,116.9379,36.6652,济南市,农科所,颗粒物(PM10),83,95,61,17,23,108,108,108,108,13,14,8,6,0.4,0.4
2026-04-05T0000,1301A,117.1265,36.6736,济南市,开发区,颗粒物(PM10),69,76,52,13,18,122,122,121,121,10,14,7,5,0.5,0.6
2026-04-05T0000,1303A,117.0616,36.6865,济南市,省种子仓库,颗粒物(PM10),70,78,64,12,21,114,114,117,116,11,13,6,5,0.2,0.4
2026-04-05T0000,1304A,116.9495185,36.644937,济南市,机床二厂,颗粒物(PM10),85,98,64,16,20,115,115,120,118,12,14,7,5,0.5,0.5
2026-04-05T0000,1305A,117.0496,36.6629,济南市,市监测站,颗粒物(PM10),70,78,58,14,20,113,113,113,113,10,13,5,4,0.4,0.5
2026-04-05T0000,1306A,116.7674,36.5458,济南市,长清党校,颗粒物(PM10),67,73,62,16,18,106,106,115,112,13,12,6,4,0.5,0.5
2026-04-05T0000,1961A,117.5323,36.6865,济南市,东山小学,颗粒物(PM10),69,76,58,12,20,111,111,115,114,16,17,6,4,0.3,0.3
2026-04-05T0000,3059A,117.7181,36.205,济南市,泰兴公司,颗粒物(PM10),55,56,52,17,16,56,56,109,71,43,21,12,9,0.6,0.3
2026-04-05T0000,3064A,117.6861,36.2172,济南市,莱芜战役纪念馆,颗粒物(PM10),63,68,51,21,16,38,38,108,90,62,17,11,5,0.8,0.5
2026-04-05T0000,3494A,117.1673,36.9782,济南市,济阳区政府,颗粒物(PM10),69,76,63,14,26,85,85,101,84,23,16,9,9,0.4,0.5
2026-04-05T0000,3495A,117.1168,36.6299,济南市,锦屏中学,颗粒物(PM10),75,85,51,16,18,116,116,117,116,11,14,6,5,0.4,0.4
2026-04-05T0000,4108A,117.7107,36.2385,济南市,山财大街5号,,48,48,45,14,16,57,57,111,89,48,17,13,5,0.6,0.5
2026-04-05T0000,4109A,116.9744,36.6889,济南市,无影山路12号,颗粒物(PM10),63,68,53,14,21,104,104,107,106,9,12,6,5,0.5,0.5
2026-04-05T0000,1653A,116.6229,35.4288,济宁市,火炬城,颗粒物(PM10),55,57,49,18,16,91,91,112,102,12,12,4,4,0.6,0.5
2026-04-05T0000,3500A,116.5808,35.3703,济宁市,北湖一中,颗粒物(PM10),55,57,59,21,15,95,95,116,110,16,14,9,6,0.6,0.5
2026-04-05T0000,3501A,116.8251,35.5592,济宁市,服务中心,颗粒物(PM10),53,54,59,25,19,79,79,113,98,18,12,3,2,0.1,0.2
2026-04-05T0000,3678A,116.5907,35.4054,济宁市,市第七中学,颗粒物(PM10),58,61,65,19,16,100,100,121,114,16,15,5,2,0.6,0.5
2026-04-05T0000,4111A,116.6075,35.4566,济宁市,任和路,颗粒物(PM10),62,66,61,18,16,100,100,115,108,13,15,8,5,0.4,0.3
2026-04-05T0000,4112A,116.5648,35.3921,济宁市,文体南路1号,颗粒物(PM10),63,67,62,20,17,99,99,120,112,12,10,8,4,0.5,0.4
2026-04-05T0000,4122A,112.6071,35.1015,济源市,市委党校,颗粒物(PM10),88,102,84,35,19,34,34,99,67,37,21,9,9,0.7,0.4
2026-04-05T0000,4123A,112.596,35.0702,济源市,沁园中路1号,颗粒物(PM10),104,128,87,45,21,33,33,99,69,48,19,10,5,1.3,0.5
2026-04-05T0000,2255A,130.2749,46.8028,佳木斯市,佳纺,细颗粒物(PM2.5),56,44,34,38,35,52,52,108,75,28,13,4,5,0.3,0.3
2026-04-05T0000,2257A,130.3258,46.7975,佳木斯市,环保局,细颗粒物(PM2.5),96,66,32,58,31,28,28,107,76,55,14,5,5,0.9,0.4
2026-04-05T0000,4285A,130.363,46.806,佳木斯市,顺和街,颗粒物(PM10),51,51,31,35,32,45,45,102,78,40,15,3,3,0.4,0.4
2026-04-05T0000,4286A,130.3952,46.8268,佳木斯市,长安路196号,颗粒物(PM10),52,52,31,27,28,67,67,102,83,23,16,4,7,0.4,0.4
2026-04-05T0000,1252A,120.7439,30.778,嘉兴市,清河小学,,46,46,39,22,26,98,98,127,104,12,16,6,6,0.5,0.8
2026-04-05T0000,1253A,120.7261,30.7477,嘉兴市,嘉兴学院,颗粒物(PM10),53,53,43,30,26,100,100,130,110,20,19,6,6,0.5,0.5
2026-04-05T0000,2872A,120.7845,30.7524,嘉兴市,南湖区残联,颗粒物(PM10),52,52,39,28,28,89,89,117,98,13,10,7,4,0.6,0.6
2026-04-05T0000,3407A,120.6915,30.7741,嘉兴市,秀洲住建,颗粒物(PM10),53,54,40,30,27,101,101,131,107,15,12,6,5,0.4,0.4
2026-04-05T0000,1945A,98.291,39.7705,嘉峪关市,气象局,,36,36,45,20,15,82,82,122,109,20,18,13,24,0.4,0.6
2026-04-05T0000,2884A,98.2672,39.7978,嘉峪关市,酒钢宾馆,颗粒物(PM10),60,63,55,22,17,63,63,122,105,27,13,14,31,0.5,0.7
2026-04-05T0000,3248A,98.2644,39.7723,嘉峪关市,雄关区,,48,48,56,20,18,75,75,121,107,17,18,9,16,0.6,0.7
2026-04-05T0000,1383A,113.1063,22.6058,江门市,北街,,50,41,30,35,23,17,17,52,39,54,31,/,/,/,/
2026-04-05T0000,1384A,113.073,22.5835,江门市,西区,,46,44,31,32,23,23,23,54,41,45,29,/,/,/,/
2026-04-05T0000,1385A,113.0218,22.531,江门市,圭峰西,,39,38,30,27,22,22,22,51,39,27,23,/,/,/,/
2026-04-05T0000,1386A,113.0826,22.5947,江门市,东湖,,50,41,32,35,25,16,16,48,34,43,26,7,6,0.7,0.6
2026-04-05T0000,3311A,113.1077,22.5647,江门市,江海富民,颗粒物(PM10),63,67,35,36,23,22,22,51,42,41,28,/,/,0.7,0.6
2026-04-05T0000,3449A,113.0496,22.4669,江门市,新会银湖,细颗粒物(PM2.5),54,NA,33,37,24,4,4,43,27,38,38,8,8,0.5,0.4
2026-04-05T0000,3335A,113.3137,35.2643,焦作市,马村街道办,颗粒物(PM10),68,75,58,22,14,58,58,101,81,24,18,10,8,0.4,0.2
2026-04-05T0000,3336A,113.2464,35.2374,焦作市,焦作技师学院,颗粒物(PM10),73,82,76,34,14,49,49,102,82,31,15,9,8,0.7,0.5
2026-04-05T0000,3477A,113.1656,35.2536,焦作市,中站许衡医院,颗粒物(PM10),60,64,65,21,15,83,83,107,90,14,13,16,11,0.6,0.3
2026-04-05T0000,3981A,113.2456,35.18,焦作市,原李万街道办,颗粒物(PM10),102,124,75,51,15,40,40,102,76,36,16,26,8,1.0,0.4
2026-04-05T0000,4264A,113.234,35.219,焦作市,新安路1731号,颗粒物(PM10),70,77,65,24,17,60,60,112,91,30,17,11,9,0.8,0.6
2026-04-05T0000,4295A,113.2722,35.2121,焦作市,人民路3066号,颗粒物(PM10),76,86,62,35,14,34,34,113,80,37,12,5,6,0.7,0.5
2026-04-05T0000,1708A,116.3701,23.5345,揭阳市,新兴,,20,18,37,14,22,54,54,72,58,17,20,6,6,0.6,0.8
2026-04-05T0000,1709A,116.3261,23.5442,揭阳市,西马,,20,19,32,12,20,61,61,69,61,13,19,6,6,0.8,1
2026-04-05T0000,1710A,116.361,23.5627,揭阳市,东兴,,20,16,30,14,20,57,57,76,60,15,18,6,3,/,/
2026-04-05T0000,1711A,116.4151,23.5295,揭阳市,渔湖,,20,NA,49,14,26,55,55,91,67,19,21,4,5,/,/
2026-04-05T0000,3320A,116.4028,23.5699,揭阳市,曲溪,,23,23,31,14,21,57,57,83,62,12,18,8,7,0.6,0.8
2026-04-05T0000,1944A,102.1691,38.5166,金昌市,天庆家园,,33,12,106,11,21,103,103,120,118,4,4,6,6,0.4,0.4
2026-04-05T0000,4022A,102.1648,38.5369,金昌市,金川区人防中心,,30,24,118,11,23,94,94,116,112,4,6,2,3,0.1,0.2
2026-04-05T0000,4239A,102.193042,38.531887,金昌市,长春路96号,,34,34,101,17,27,97,97,116,114,6,3,6,6,0.5,0.4
2026-04-05T0000,1262A,119.6478,29.0773,金华市,十五中,,45,45,28,25,14,40,40,104,61,17,16,3,5,0.8,0.8
2026-04-05T0000,1263A,119.6859,29.1032,金华市,监测站,,47,47,24,21,12,38,38,105,67,19,12,4,7,0.7,0.6
2026-04-05T0000,3659A,119.656,29.1132,金华市,气象局,颗粒物(PM10),61,65,31,32,15,19,19,99,50,37,21,3,6,0.9,0.7
2026-04-05T0000,1767A,121.1114,41.0879,锦州市,南山,,40,38,29,28,19,88,88,111,100,18,15,12,9,0.6,0.4
2026-04-05T0000,1768A,121.060361,40.842794,锦州市,开发区,,50,50,40,25,23,85,85,106,94,22,16,6,7,0.4,0.4
2026-04-05T0000,1769A,121.1836,41.1118,锦州市,百股街道,,40,39,28,28,20,93,93,114,106,18,14,14,9,0.5,0.4
2026-04-05T0000,1770A,121.1176,41.1224,锦州市,天安街道,,42,39,30,29,20,89,89,107,100,15,15,8,7,0.6,0.5
2026-04-05T0000,1771A,121.1303,41.1385,锦州市,北湖公园,,40,35,28,28,21,91,91,110,103,14,11,6,6,0.5,0.4
2026-04-05T0000,2160A,112.8496,35.5051,晋城市,自来水公司,颗粒物(PM10),78,89,76,18,6,39,39,113,95,48,19,5,5,0.4,0.4
2026-04-05T0000,2162A,112.8509,35.4886,晋城市,市环保局,颗粒物(PM10),80,92,78,19,10,58,58,109,95,30,16,6,6,0.4,0.3
2026-04-05T0000,3620A,112.8258,35.4804,晋城市,泽州一中,颗粒物(PM10),66,72,69,15,8,49,49,107,95,32,15,5,5,0.4,0.2
2026-04-05T0000,4078A,112.8246,35.5152,晋城市,前书院路,颗粒物(PM10),80,92,78,24,12,27,27,100,74,57,21,7,8,0.8,0.5
2026-04-05T0000,4079A,112.8864,35.4773,晋城市,祥云街666号,颗粒物(PM10),63,68,71,16,13,92,92,103,100,13,13,10,8,0.4,0.3
2026-04-05T0000,2174A,112.6992,37.6984,晋中市,榆次区政府,颗粒物(PM10),110,146,86,30,17,69,69,115,94,22,19,32,17,0.8,0.4
2026-04-05T0000,2865A,112.7195,37.683,晋中市,榆次三中,颗粒物(PM10),112,149,90,25,17,68,68,114,95,18,17,50,16,0.8,0.4
2026-04-05T0000,4080A,112.7375,37.7215,晋中市,广安街188号,颗粒物(PM10),106,134,81,31,19,70,70,113,94,19,21,22,16,0.5,0.4
2026-04-05T0000,4200A,112.7478,37.6954,晋中市,迎宾街26号,颗粒物(PM10),114,156,96,39,18,69,69,116,97,20,17,47,16,0.8,0.4
2026-04-05T0000,2439A,112.2012,31.048,荆门市,竹园小学,颗粒物(PM10),66,72,92,21,28,77,77,108,92,12,18,4,4,0.4,0.4
2026-04-05T0000,2440A,112.1968,30.9892,荆门市,掇刀,颗粒物(PM10),63,68,85,27,32,83,83,116,97,13,15,12,10,0.7,0.6
2026-04-05T0000,3012A,112.1849,31.0361,荆门市,西山林语,颗粒物(PM10),55,56,81,30,27,51,51,113,89,12,13,6,7,0.4,0.4
2026-04-05T0000,3547A,112.1631,31.0134,荆门市,龙泉中学南校,颗粒物(PM10),68,75,90,28,26,69,69,125,102,13,15,7,6,0.5,0.6
2026-04-05T0000,4124A,112.2213,31.0654,荆门市,新台西路6号,颗粒物(PM10),53,53,87,32,32,81,81,112,95,10,14,12,8,0.5,0.5
2026-04-05T0000,1844A,112.2493,30.3198,荆州市,市图书馆,"颗粒物(PM10),细颗粒物(PM2.5)",60,63,40,40,26,26,26,103,69,53,21,8,9,0.9,0.5
2026-04-05T0000,1845A,112.2009,30.3543,荆州市,市委党校,颗粒物(PM10),60,63,43,20,24,13,13,91,58,60,32,6,9,1.1,0.8
2026-04-05T0000,3194A,112.2749,30.3124,荆州市,管委会,,50,47,35,35,24,23,23,95,60,50,17,9,9,1.0,0.6
2026-04-05T0000,4268A,112.1722,30.3366,荆州市,学苑路85号,颗粒物(PM10),53,54,34,36,25,26,26,111,72,25,12,14,16,1.1,0.3
2026-04-05T0000,2343A,117.2114,29.2931,景德镇市,老干部活动中心,细颗粒物(PM2.5),60,48,40,40,32,13,13,100,58,22,14,5,15,0.7,0.6
2026-04-05T0000,2344A,117.1893,29.2789,景德镇市,兽医站,细颗粒物(PM2.5),58,54,46,39,24,29,29,100,59,17,17,4,5,0.7,0.7
2026-04-05T0000,2346A,117.246,29.2958,景德镇市,陶研所,颗粒物(PM10),55,57,36,34,29,12,12,92,53,25,19,5,7,0.6,0.7
2026-04-05T0000,4289A,117.154766,29.256967,景德镇市,青少年活动中心,细颗粒物(PM2.5),78,72,40,49,29,13,13,92,50,33,20,16,25,/,/
2026-04-05T0000,1803A,115.9873,29.6816,九江市,十里,颗粒物(PM10),63,67,44,32,18,8,8,90,53,54,26,7,7,1.1,0.8
2026-04-05T0000,1804A,115.9583,29.7047,九江市,茅山头,颗粒物(PM10),60,63,40,26,17,68,68,103,81,22,14,4,4,0.6,0.5
2026-04-05T0000,1805A,115.9877,29.7295,九江市,西园,颗粒物(PM10),54,55,40,31,20,47,47,97,80,65,34,5,5,0.7,0.6
2026-04-05T0000,1808A,115.9112,29.6038,九江市,综合工业园,颗粒物(PM10),54,55,36,21,16,74,74,97,88,23,26,8,8,0.5,0.6
2026-04-05T0000,3190A,116.0254,29.6995,九江市,外国语学校,,47,47,28,29,19,42,42,87,79,46,18,6,6,0.8,0.7
2026-04-05T0000,4253A,116.010205,29.659402,九江市,莲花大道8号,颗粒物(PM10),53,53,34,19,15,45,45,86,64,16,18,4,5,0.6,0.6
2026-04-05T0000,4240A,98.495752,39.733935,酒泉市,玉门东路5号,,46,46,50,19,20,77,77,111,96,8,9,6,11,0.3,0.4
2026-04-05T0000,4241A,98.5099,39.7506,酒泉市,北大街108号,,44,44,50,19,18,62,62,102,86,15,10,8,12,0.3,0.3
2026-04-05T0000,2698A,76.0071,39.466,喀什地区,巡警大队,颗粒物(PM10),144,232,214,76,78,46,46,109,94,55,36,4,5,0.6,0.5
2026-04-05T0000,2699A,75.9756,39.4693,喀什地区,吾办,细颗粒物(PM2.5),180,279,227,136,76,9,9,101,80,80,37,5,3,1.2,0.7
2026-04-05T0000,4027A,75.9485,39.4688,喀什地区,老干局,颗粒物(PM10),152,254,188,105,50,3,3,108,84,96,32,5,4,1.4,0.7
2026-04-05T0000,1824A,114.3389,34.778,开封市,肿瘤医院,颗粒物(PM10),102,125,80,38,21,72,72,108,88,20,16,6,7,0.6,0.5
2026-04-05T0000,1826A,114.2884,34.7966,开封市,世纪星幼儿园,颗粒物(PM10),95,113,73,33,17,66,66,104,86,23,20,7,8,0.5,0.4
2026-04-05T0000,3147A,114.3434,34.8101,开封市,龙亭公园,颗粒物(PM10),103,126,83,28,16,75,75,109,92,21,20,10,11,0.5,0.9
2026-04-05T0000,3210A,114.3645,34.7955,开封市,汴京公园,颗粒物(PM10),93,110,76,37,20,68,68,101,82,19,18,5,5,0.6,0.4
2026-04-05T0000,3473A,114.2485,34.8306,开封市,技师学院,颗粒物(PM10),94,111,74,32,16,74,74,107,93,17,14,8,10,0.6,0.4
2026-04-05T0000,3592A,114.4518,34.7503,开封市,祥符区生态环境局,颗粒物(PM10),105,133,79,32,19,70,70,106,83,29,25,7,7,0.5,0.5
2026-04-05T0000,1951A,84.886,45.6029,克拉玛依市,长征新村,颗粒物(PM10),79,90,35,49,13,34,34,113,87,50,11,8,7,1.0,0.6
2026-04-05T0000,1952A,84.8894,45.5827,克拉玛依市,南林小区,颗粒物(PM10),72,80,35,41,8,13,13,119,79,67,12,4,4,1.1,0.3
2026-04-05T0000,1954A,84.896,44.3328,克拉玛依市,独山子区,颗粒物(PM10),59,62,61,16,15,85,85,116,104,7,13,6,7,0.5,0.6
2026-04-05T0000,1955A,85.6888,46.0909,克拉玛依市,乌尔禾区商贸楼,颗粒物(PM10),61,65,38,12,11,66,66,109,99,27,14,2,2,0.4,0.4
2026-04-05T0000,3612A,85.1045,45.6895,克拉玛依市,白碱滩区新站,,43,43,37,19,11,100,100,125,113,4,4,7,7,0.4,0.4
2026-04-05T0000,2697A,76.1457,39.7143,克孜勒苏柯尔克孜自治州,市人民政府,颗粒物(PM10),112,150,141,52,43,79,79,112,96,20,10,4,15,0.2,0.1
2026-04-05T0000,3665A,76.1654,39.7157,克孜勒苏柯尔克孜自治州,克州文化中心,颗粒物(PM10),112,151,134,51,44,75,75,109,97,21,11,8,15,0.2,0.3
2026-04-05T0000,1450A,102.8203,24.889,昆明市,呈贡新区,,43,NA,29,30,21,104,104,120,107,7,11,5,6,0.5,0.6
2026-04-05T0000,1452A,102.7253,25.0904,昆明市,龙泉镇,,46,46,26,27,18,79,79,108,90,12,10,6,5,0.6,0.6
2026-04-05T0000,1453A,102.7267,25.0378,昆明市,东风东路,,43,43,32,28,20,98,98,116,102,11,19,4,4,0.5,0.5
2026-04-05T0000,1454A,102.6744,25.0671,昆明市,金鼎山,,48,48,33,32,19,82,82,110,96,18,13,4,3,0.4,0.4
2026-04-05T0000,1455A,102.6643,25.0401,昆明市,碧鸡广场,颗粒物(PM10),53,53,34,30,21,71,71,108,90,27,17,6,5,0.5,0.5
2026-04-05T0000,3179A,102.7491,25.012,昆明市,官渡区博物馆,,41,41,36,24,21,89,89,116,100,12,24,4,4,0.4,0.5
2026-04-05T0000,3375A,102.8016,24.8336,昆明市,青年创业园,,47,47,35,27,22,100,100,114,104,6,21,6,7,0.5,0.5
2026-04-05T0000,3550A,102.8,24.9787,昆明市,昆明学院,颗粒物(PM10),51,51,45,30,20,89,89,114,96,9,21,5,5,0.6,0.6
2026-04-05T0000,3551A,102.5969,24.6738,昆明市,晋宁区生态环境分局,,48,48,36,30,26,100,100,106,104,6,13,2,3,0.4,0.5
2026-04-05T0000,3552A,102.6673,24.9861,昆明市,云天化总部,,42,42,35,26,16,102,102,117,106,7,20,5,5,0.4,0.5
2026-04-05T0000,1456A,91.132,29.6515,拉萨市,八廓街,,22,21,16,10,6,70,70,106,96,21,9,5,8,0.4,0.3
2026-04-05T0000,1457A,91.1221,29.6748,拉萨市,市环保局,,22,16,16,3,7,70,70,102,91,18,12,6,8,0.5,0.4
2026-04-05T0000,1458A,91.0874,29.6476,拉萨市,区监测站,,23,11,10,3,7,72,72,101,91,23,14,5,9,0.1,0.1
2026-04-05T0000,1459A,91.1774,29.6541,拉萨市,西藏大学,,26,15,13,7,6,82,82,101,95,11,12,5,8,0.3,0.3
2026-04-05T0000,1460A,90.9798,29.6586,拉萨市,区辐射站,,30,30,15,12,7,50,50,91,82,34,18,6,7,0.5,0.4
2026-04-05T0000,1461A,91.0831,29.6292,拉萨市,拉萨火车站,,26,10,14,6,6,82,82,100,94,10,11,4,5,0.1,0.2
2026-04-05T0000,2520A,109.2203,23.7252,来宾市,来宾技工学校,细颗粒物(PM2.5),62,59,38,41,20,84,84,128,113,9,8,8,8,0.7,0.7
2026-04-05T0000,3535A,109.1781,23.7293,来宾市,兴宾区政府,细颗粒物(PM2.5),68,70,32,44,18,101,101,137,126,11,10,24,19,0.8,0.7
2026-04-05T0000,4002A,109.2312,23.7428,来宾市,中南小学,细颗粒物(PM2.5),68,52,34,44,21,87,87,135,120,17,14,9,9,0.6,0.7
2026-04-05T0000,1479A,103.8309,36.0467,兰州市,铁路设计院,颗粒物(PM10),90,105,133,41,43,10,10,116,75,87,33,4,8,0.7,0.5
2026-04-05T0000,3241A,103.7439,36.0841,兰州市,百合公园,颗粒物(PM10),104,128,124,44,40,25,25,115,77,61,33,9,10,0.7,0.6
2026-04-05T0000,3242A,103.9613,35.9985,兰州市,和平,颗粒物(PM10),97,115,121,43,34,57,57,124,100,35,14,9,8,0.4,0.4
2026-04-05T0000,4236A,103.629272,36.093822,兰州市,庄浪东路808号,颗粒物(PM10),85,98,135,32,40,50,50,118,85,32,15,8,13,0.3,0.4
2026-04-05T0000,4237A,103.7251,36.104344,兰州市,安宁西路88号,颗粒物(PM10),140,223,160,58,42,64,64,139,96,43,27,9,13,0.4,0.3
2026-04-05T0000,4238A,103.846982,36.067567,兰州市,北滨河东路1号,颗粒物(PM10),92,108,124,33,41,2,2,118,74,91,37,8,12,0.7,0.6
2026-04-05T0000,1067A,116.6712,39.5109,廊坊市,药材公司,颗粒物(PM10),70,77,87,38,48,40,40,124,98,44,18,4,4,0.6,0.5
2026-04-05T0000,1068A,116.7215,39.5592,廊坊市,开发区,细颗粒物(PM2.5),58,51,89,39,46,35,35,128,97,40,13,2,3,0.6,0.5
2026-04-05T0000,1070A,116.7246,39.5273,廊坊市,北华航天学院,颗粒物(PM10),58,61,87,32,42,39,39,130,99,42,20,4,5,0.6,0.5
2026-04-05T0000,2919A,116.7022,39.5454,廊坊市,河北工业大学,颗粒物(PM10),63,67,88,39,46,36,36,128,98,42,18,4,5,0.7,0.5
2026-04-05T0000,2536A,103.7629,29.5844,乐山市,牛耳桥,,47,47,58,26,23,82,82,120,96,17,27,5,5,0.5,0.5
2026-04-05T0000,2537A,103.7501,29.6002,乐山市,市第三水厂,,48,48,60,27,23,81,81,123,105,20,28,4,4,0.6,0.6
2026-04-05T0000,2538A,103.7571,29.5664,乐山市,市监测站,,50,50,64,29,21,72,72,122,109,17,23,3,4,0.7,0.8
2026-04-05T0000,3361A,103.7313,29.563,乐山市,理工大学,,48,45,66,33,23,57,57,128,108,20,23,3,4,0.6,0.8
2026-04-05T0000,2599A,100.2497,26.8802,丽江市,丽江古城,,29,24,20,9,7,91,91,92,89,6,7,9,8,0.5,0.4
2026-04-05T0000,2600A,100.2203,26.8906,丽江市,市中心,,29,NA,12,11,7,91,91,96,91,7,9,6,7,0.5,0.5
2026-04-05T0000,1267A,119.9141,28.4513,丽水市,监测站大楼,,42,42,29,20,13,40,40,109,76,24,20,4,4,0.5,0.5
2026-04-05T0000,1268A,119.93,28.4589,丽水市,莲都小学,,40,40,25,15,11,48,48,104,82,18,19,/,/,/,/
2026-04-05T0000,1269A,119.8794,28.4232,丽水市,余庄前,,38,38,23,17,10,6,6,96,42,13,13,4,4,0.5,0.5
2026-04-05T0000,1173A,119.1759,34.5885,连云港市,市环境监测站,,48,48,50,27,31,67,67,109,92,26,19,7,9,0.6,0.7
2026-04-05T0000,3000A,119.3577,34.6971,连云港市,德源药业,,42,39,52,29,28,86,86,112,92,26,27,5,7,0.5,0.6
2026-04-05T0000,3007A,119.178,34.8442,连云港市,新城一中,颗粒物(PM10),51,51,57,32,27,69,69,112,91,34,20,7,8,0.5,0.6
2026-04-05T0000,3008A,119.3607,34.7519,连云港市,胡沟管理处,颗粒物(PM10),55,56,48,22,25,105,105,110,90,16,24,10,12,0.5,1
2026-04-05T0000,3009A,119.1478,34.5913,连云港市,矿山设计院,,46,46,53,24,28,69,69,112,94,26,19,8,9,0.6,0.7
2026-04-05T0000,3434A,119.2414,34.6539,连云港市,工贸学校,颗粒物(PM10),55,56,46,31,26,90,90,116,106,18,15,10,11,0.4,0.6
2026-04-05T0000,3664A,119.4171,34.734,连云港市,连云街道,颗粒物(PM10),63,67,48,35,25,101,101,110,106,18,30,9,8,0.7,0.7
2026-04-05T0000,2573A,102.2629,27.8981,凉山彝族自治州,西昌市政府,,32,25,19,19,13,100,100,114,109,6,7,13,11,0.5,0.5
2026-04-05T0000,2574A,102.2686,27.885,凉山彝族自治州,凉山州政府,,28,25,22,15,11,88,88,101,98,6,7,6,6,0.4,0.4
2026-04-05T0000,4229A,102.2342,27.8859,凉山彝族自治州,凯乐南路30号,,33,33,27,14,10,85,85,104,99,15,18,16,10,1.1,0.7
2026-04-05T0000,2212A,123.1978,41.2036,辽阳市,宏伟区,颗粒物(PM10),61,65,44,40,30,55,55,104,77,32,16,5,5,0.9,0.5
2026-04-05T0000,2213A,123.1684,41.2497,辽阳市,新华园,细颗粒物(PM2.5),84,83,46,52,34,45,45,104,72,48,19,10,9,1.0,0.6
2026-04-05T0000,2214A,123.2355,41.2663,辽阳市,滨河路,颗粒物(PM10),54,55,40,35,29,52,52,98,61,29,20,6,5,0.6,0.4
2026-04-05T0000,4083A,123.153,41.2874,辽阳市,铁西路150号,颗粒物(PM10),77,87,47,46,34,52,52,97,68,39,18,9,6,0.9,0.5
2026-04-05T0000,2227A,125.1359,42.8845,辽源市,环保局,,37,37,36,23,22,66,66,92,78,9,9,6,5,0.4,0.4
2026-04-05T0000,4085A,125.0998,42.9134,辽源市,安宁大街333号,,44,44,39,29,22,72,72,99,85,11,8,5,4,0.4,0.4
2026-04-05T0000,1625A,115.9789,36.4372,聊城市,区政府,颗粒物(PM10),64,69,73,20,21,86,86,121,106,14,12,8,6,0.6,0.6
2026-04-05T0000,3200A,115.9772,36.4986,聊城市,监控中心,颗粒物(PM10),74,83,80,20,24,90,90,120,110,16,16,9,8,0.5,0.5
2026-04-05T0000,3513A,116.0443,36.436,聊城市,九州社区,颗粒物(PM10),70,78,79,20,24,92,92,126,112,17,15,7,4,0.5,0.5
2026-04-05T0000,4018A,116.0564,36.4609,聊城市,星美广场,颗粒物(PM10),71,79,76,22,25,84,84,111,100,12,11,8,8,0.6,0.6
2026-04-05T0000,4113A,116.0091,36.4495,聊城市,利民路,颗粒物(PM10),60,64,64,19,23,84,84,118,106,19,15,8,7,0.5,0.5
2026-04-05T0000,2632A,94.3683,29.6373,林芝市,林芝监测站,,24,6,8,3,4,74,74,77,76,1,4,6,6,0.5,0.4
2026-04-05T0000,2633A,94.3616,29.6634,林芝市,林芝人民医院,,26,NA,12,10,6,81,81,85,84,2,5,5,5,0.5,0.4
2026-04-05T0000,2603A,100.0779,23.8981,临沧市,市环保局,细颗粒物(PM2.5),54,NA,44,37,34,76,76,119,106,10,8,9,11,0.6,0.5
2026-04-05T0000,2604A,100.0894,23.882,临沧市,市气象局,细颗粒物(PM2.5),60,49,42,40,36,88,88,120,111,8,9,10,8,0.5,0.3
2026-04-05T0000,1733A,111.5552,36.0791,临汾市,临钢医院,颗粒物(PM10),116,160,98,36,19,61,61,103,87,26,19,12,7,1.0,0.6
2026-04-05T0000,1734A,111.4984,36.0734,临汾市,技工学校,颗粒物(PM10),107,137,87,42,25,65,65,100,83,22,18,13,7,0.8,0.6
2026-04-05T0000,1736A,111.5017,36.0857,临汾市,市委,颗粒物(PM10),112,149,98,46,20,64,64,104,87,25,18,14,7,0.8,0.6
2026-04-05T0000,3018A,111.5048,36.1015,临汾市,唐尧大酒店,颗粒物(PM10),114,155,104,33,20,64,64,103,86,25,20,13,7,0.7,0.5
2026-04-05T0000,4244A,111.4879,36.053,临汾市,启星学校,颗粒物(PM10),109,142,107,29,18,64,64,99,82,28,25,15,8,0.7,0.5
2026-04-05T0000,4271A,103.2464,35.6123,临夏回族自治州,滨河东路1号,颗粒物(PM10),120,171,137,65,42,24,24,110,74,55,28,10,11,0.6,0.4
2026-04-05T0000,4310A,103.207136,35.599807,临夏回族自治州,新华街21号,颗粒物(PM10),105,132,124,61,48,45,45,97,76,19,14,8,9,0.5,0.5
2026-04-05T0000,1618A,118.3429,35.0532,临沂市,沂河小区,颗粒物(PM10),80,92,60,38,18,76,76,111,101,30,14,24,11,0.4,0.3
2026-04-05T0000,1619A,118.2962,35.0568,临沂市,鲁南制药厂,颗粒物(PM10),84,97,59,47,20,76,76,117,107,34,16,25,13,0.4,0.2
2026-04-05T0000,1620A,118.2793,34.9976,临沂市,新光毛纺厂,颗粒物(PM10),86,100,61,48,20,69,69,113,97,38,19,28,12,0.4,0.2
2026-04-05T0000,1621A,118.3955,35.0889,临沂市,河东保险公司,NA,NA,97,53,46,18,NA,NA,117,108,63,14,31,11,0.5,0.3
2026-04-05T0000,3370A,118.3563,35.0215,临沂市,十里堡居委,颗粒物(PM10),70,78,53,37,18,82,82,115,101,30,19,47,12,0.4,0.4
2026-04-05T0000,3496A,118.359,35.1067,临沂市,南坊新区,颗粒物(PM10),79,90,54,39,19,82,82,116,108,30,16,21,11,0.5,0.4
2026-04-05T0000,3860A,118.3915,35.0297,临沂市,皇山花园小区,颗粒物(PM10),83,95,55,46,18,108,108,117,106,70,20,30,10,0.5,0.3
2026-04-05T0000,1870A,109.4854,24.3898,柳州市,柳东小学,,45,32,23,31,14,78,78,115,102,17,10,46,11,0.8,0.7
2026-04-05T0000,1871A,109.4109,24.3304,柳州市,环保监测站,,46,33,33,32,20,54,54,104,80,31,22,6,12,1.0,0.8
2026-04-05T0000,1872A,109.3886,24.3408,柳州市,河西水厂,颗粒物(PM10),60,63,39,35,23,71,71,119,92,31,21,6,11,0.9,0.7
2026-04-05T0000,1873A,109.4263,24.2951,柳州市,市四中,细颗粒物(PM2.5),58,58,35,39,21,44,44,105,80,38,18,8,13,1.0,0.8
2026-04-05T0000,1874A,109.396,24.3658,柳州市,市九中,,44,44,37,27,24,45,45,107,76,18,18,7,15,0.8,0.8
2026-04-05T0000,1875A,109.4912,24.3164,柳州市,古亭山,,42,NA,24,29,14,42,42,108,78,31,15,5,7,0.7,0.6
2026-04-05T0000,3402A,109.5422,24.3994,柳州市,市二中,细颗粒物(PM2.5),68,57,27,44,17,34,34,99,66,32,17,7,8,0.8,0.6
2026-04-05T0000,2307A,116.5078,31.7369,六安市,监测大楼,颗粒物(PM10),58,61,47,33,23,76,76,115,99,12,12,4,4,0.5,0.4
2026-04-05T0000,2308A,116.4738,31.7642,六安市,皖西学院,颗粒物(PM10),68,74,47,30,20,85,85,120,106,10,9,6,5,0.4,0.3
2026-04-05T0000,2309A,116.4997,31.7904,六安市,朝阳厂,颗粒物(PM10),56,58,43,27,21,78,78,116,99,14,14,6,6,0.4,0.3
2026-04-05T0000,2310A,116.5566,31.7885,六安市,开发区,颗粒物(PM10),69,76,49,42,26,64,64,121,105,21,14,7,5,0.5,0.4
2026-04-05T0000,2577A,104.8293,26.592,六盘水市,黄土坡,,36,32,27,25,19,91,91,99,98,8,10,5,6,0.4,0.4
2026-04-05T0000,2579A,104.8481,26.5898,六盘水市,民中,,39,31,25,27,18,88,88,97,96,6,9,3,4,0.5,0.5
2026-04-05T0000,2580A,104.9541,26.5506,六盘水市,双水,,29,29,23,20,16,86,86,99,97,6,8,4,5,0.4,0.4
2026-04-05T0000,4151A,104.8899,26.5685,六盘水市,钟山大道中段564号,,36,35,29,25,19,87,87,97,96,5,7,2,2,0.4,0.4
2026-04-05T0000,2336A,117.022,25.1031,龙岩市,龙岩市监测站,,24,20,22,13,12,75,75,94,86,12,13,10,7,0.7,0.7
2026-04-05T0000,2337A,117.0257,25.0662,龙岩市,闽西职业技术学院,,21,18,22,13,10,67,67,93,82,11,8,8,6,0.6,0.6
2026-04-05T0000,2338A,117.0195,25.0306,龙岩市,龙岩学院,,25,22,20,17,9,62,62,97,83,9,6,3,4,/,/
2026-04-05T0000,2885A,104.9344,33.3827,陇南市,滨江中学,颗粒物(PM10),73,81,120,35,49,45,45,92,71,21,18,8,8,0.6,0.6
2026-04-05T0000,3247A,104.9551,33.3709,陇南市,市总工会,颗粒物(PM10),74,83,113,31,42,49,49,94,72,21,16,8,7,0.5,0.5
2026-04-05T0000,2488A,111.9984,27.7346,娄底市,市监测站,细颗粒物(PM2.5),92,93,57,56,28,9,9,102,71,57,24,5,7,1.3,0.9
2026-04-05T0000,2491A,111.9888,27.7035,娄底市,市政府,颗粒物(PM10),80,91,53,21,13,23,23,104,70,26,16,4,5,0.7,0.6
2026-04-05T0000,4127A,111.9812,27.7591,娄底市,涟钢职大,细颗粒物(PM2.5),98,102,56,59,25,11,11,111,82,51,22,6,11,0.7,1.2
2026-04-05T0000,4128A,112.0303,27.7457,娄底市,娄底体校,颗粒物(PM10),74,83,57,39,23,21,21,93,68,11,8,3,6,0.5,0.7
2026-04-05T0000,1894A,105.4427,28.9063,泸州市,小市上码头,,39,39,23,27,16,93,93,120,109,15,12,9,10,0.8,0.7
2026-04-05T0000,1895A,105.4241,28.8573,泸州市,兰田宪桥,,46,46,25,26,14,89,89,113,86,14,15,10,10,0.8,0.7
2026-04-05T0000,1896A,105.4378,28.8833,泸州市,市环监站,颗粒物(PM10),54,55,28,34,15,84,84,113,101,23,20,9,10,0.8,0.7
2026-04-05T0000,4272A,105.3689,28.7783,泸州市,纳溪中医医院,细颗粒物(PM2.5),108,87,39,68,29,75,75,124,97,16,14,10,8,0.8,0.7
2026-04-05T0000,2183A,111.1447,37.5212,吕梁市,环保局,颗粒物(PM10),73,81,63,25,11,24,24,110,87,56,21,7,7,0.4,0.3
2026-04-05T0000,2185A,111.1285,37.5338,吕梁市,自来水公司,颗粒物(PM10),68,74,83,27,19,51,51,111,95,38,27,7,10,0.5,0.4
2026-04-05T0000,2867A,111.1225,37.5093,吕梁市,马茂庄小学,颗粒物(PM10),79,90,74,24,12,45,45,108,87,46,24,4,5,0.1,0.2
2026-04-05T0000,1812A,112.3934,34.6517,洛阳市,市委党校,颗粒物(PM10),90,105,87,29,18,68,68,105,91,23,24,10,10,0.6,0.5
2026-04-05T0000,1815A,112.494,34.6883,洛阳市,河南林校,颗粒物(PM10),98,116,89,33,15,77,77,109,95,26,26,14,11,0.4,0.3
2026-04-05T0000,1816A,112.3843,34.623,洛阳市,开发区管委会,颗粒物(PM10),100,119,90,28,16,62,62,105,87,27,22,14,14,0.7,0.6
2026-04-05T0000,1817A,112.4263,34.6249,洛阳市,市委新办公区,颗粒物(PM10),94,111,89,30,16,71,71,110,96,24,20,10,11,0.4,0.3
2026-04-05T0000,3340A,112.6005,34.6323,洛阳市,伊滨,颗粒物(PM10),92,108,94,38,17,32,32,107,82,46,20,7,7,0.5,0.4
2026-04-05T0000,3341A,112.495,34.6338,洛阳市,中移产业园,颗粒物(PM10),103,127,96,26,15,73,73,106,93,27,22,12,10,0.3,0.2
2026-04-05T0000,3593A,112.5736,34.8993,洛阳市,吉利监测站,颗粒物(PM10),70,77,77,22,13,34,34,101,65,42,29,9,10,0.3,0.3
2026-04-05T0000,3635A,112.3678,34.6623,洛阳市,河科大西苑校区,颗粒物(PM10),96,114,96,29,18,72,72,113,98,24,23,12,12,0.5,0.5
2026-04-05T0000,3636A,112.4387,34.678,洛阳市,英才小学,颗粒物(PM10),98,117,91,28,16,76,76,107,95,23,23,15,11,0.6,0.5
2026-04-05T0000,4214A,112.460027,34.694929,洛阳市,春都路1号院,颗粒物(PM10),104,130,103,31,15,81,81,115,102,21,19,14,10,0.6,0.5
2026-04-05T0000,2399A,114.051,33.5721,漯河市,三五一五工厂,颗粒物(PM10),102,124,125,31,25,72,72,99,88,22,18,11,6,0.3,0.3
2026-04-05T0000,2400A,114.0055,33.5698,漯河市,漯河大学,颗粒物(PM10),88,102,119,41,29,69,69,104,94,22,14,9,8,0.5,0.4
2026-04-05T0000,2401A,114.0134,33.5826,漯河市,市水利局,颗粒物(PM10),86,100,123,32,25,74,74,100,92,18,15,6,5,0.5,0.4
2026-04-05T0000,2402A,114.0261,33.5697,漯河市,市广电局,颗粒物(PM10),91,107,122,36,27,87,87,102,96,15,14,10,6,0.6,0.4
2026-04-05T0000,3478A,113.9691,33.568,漯河市,市图书馆,颗粒物(PM10),100,119,131,37,27,64,64,98,84,24,18,8,7,0.6,0.4
2026-04-05T0000,4250A,114.089259,33.588274,漯河市,韶山路11号,颗粒物(PM10),95,113,118,35,25,84,84,92,85,14,18,8,6,0.5,0.4
2026-04-05T0000,1798A,118.5084,31.6838,马鞍山市,湖东路四小,颗粒物(PM10),96,114,70,39,35,24,24,121,69,58,26,8,12,0.9,0.9
2026-04-05T0000,1799A,118.5019,31.6449,马鞍山市,开发区,颗粒物(PM10),82,94,60,29,26,28,28,128,78,67,26,6,6,0.7,0.5
2026-04-05T0000,3633A,118.4914,31.681,马鞍山市,雨山,颗粒物(PM10),82,94,63,36,28,46,46,123,85,48,24,10,12,1.0,0.8
2026-04-05T0000,4191A,118.527362,31.722269,马鞍山市,慈湖高新区,颗粒物(PM10),83,95,61,27,30,80,80,123,85,24,24,9,11,0.5,0.8
2026-04-05T0000,1686A,111.0285,21.469,茂名市,电白南海,,44,44,37,29,23,61,61,110,98,17,11,6,5,0.9,0.8
2026-04-05T0000,1687A,110.9294,21.6533,茂名市,茂石化七小,,49,44,43,34,31,49,49,98,82,17,13,12,10,0.8,0.7
2026-04-05T0000,1688A,110.9108,21.6688,茂名市,健康路,,49,39,37,34,28,52,52,106,89,15,11,10,7,0.8,0.7
2026-04-05T0000,1689A,110.8592,21.6826,茂名市,高岭,颗粒物(PM10),53,53,48,33,30,54,54,110,89,18,13,10,8,/,/
2026-04-05T0000,3450A,111.0101,21.5165,茂名市,电白水东,细颗粒物(PM2.5),56,39,29,38,26,60,60,100,89,15,10,6,3,/,/
2026-04-05T0000,2540A,103.8414,30.0871,眉山市,气象局,颗粒物(PM10),73,82,80,24,22,65,65,137,106,38,29,10,9,0.7,0.7
2026-04-05T0000,3148A,103.829,30.0563,眉山市,区人社局,颗粒物(PM10),81,93,86,37,29,54,54,127,95,49,41,8,8,1.1,1.1
2026-04-05T0000,4148A,103.8836,30.0695,眉山市,眉职院,颗粒物(PM10),75,85,61,40,23,40,40,134,98,38,26,7,7,0.8,0.7
2026-04-05T0000,1690A,116.1248,24.3307,梅州市,梅江月梅,,25,24,17,17,9,43,43,82,53,15,11,/,/,/,/
2026-04-05T0000,1691A,116.0798,24.2719,梅州市,梅县新城,,26,26,19,13,9,27,27,82,38,20,15,8,8,0.6,0.6
2026-04-05T0000,3315A,116.1234,24.2994,梅州市,梅龙,,24,24,16,14,9,38,38,83,49,15,13,6,6,0.6,0.8
2026-04-05T0000,1878A,104.7775,31.4741,绵阳市,富乐山,颗粒物(PM10),73,82,82,41,36,58,58,128,104,24,22,6,7,0.7,0.7
2026-04-05T0000,1880A,104.6698,31.4668,绵阳市,高新区自来水公司,颗粒物(PM10),102,123,99,49,39,NA,NA,132,106,NA,30,6,9,0.7,0.7
2026-04-05T0000,3491A,104.6899,31.5324,绵阳市,西科大附属小学,颗粒物(PM10),101,122,98,49,42,58,58,136,95,39,29,7,7,0.5,0.5
2026-04-05T0000,3492A,104.5647,31.5343,绵阳市,安州区旅游局,颗粒物(PM10),93,110,94,49,35,76,76,140,118,22,17,4,4,0.6,0.5
2026-04-05T0000,4146A,104.7092,31.4972,绵阳市,科技城新区公安局,颗粒物(PM10),105,133,108,45,38,65,65,127,100,38,34,6,6,0.7,0.6
2026-04-05T0000,4226A,104.765114,31.453094,绵阳市,绵阳市气象局,细颗粒物(PM2.5),104,125,91,64,36,50,50,124,98,46,31,8,9,0.6,0.6
2026-04-05T0000,1784A,129.61,44.561,牡丹江市,环保大楼,细颗粒物(PM2.5),88,NA,46,54,42,34,34,84,74,31,17,2,3,0.6,0.5
2026-04-05T0000,1787A,129.6364,44.6075,牡丹江市,机车工厂,细颗粒物(PM2.5),58,46,50,39,40,35,35,85,61,20,16,8,8,0.5,0.6
2026-04-05T0000,1788A,129.6386,44.5462,牡丹江市,第一中学,,46,46,47,24,39,10,10,80,48,63,21,4,4,0.5,0.5
2026-04-05T0000,4287A,129.5992,44.5964,牡丹江市,东晓云街98号,细颗粒物(PM2.5),72,53,49,46,37,51,51,89,72,11,10,2,3,0.5,0.6
2026-04-05T0000,2531A,105.0703,29.61,内江市,市监测站,,45,45,53,21,26,126,126,134,129,10,19,9,9,0.4,0.6
2026-04-05T0000,2533A,105.0657,29.5807,内江市,内江二中,颗粒物(PM10),68,75,58,22,28,124,124,139,134,11,18,8,9,0.2,0.3
2026-04-05T0000,2534A,105.0407,29.5828,内江市,内江日报社,颗粒物(PM10),56,58,52,22,27,129,129,144,137,9,18,7,7,0.4,0.5
2026-04-05T0000,4147A,105.0433,29.6105,内江市,玉峰路西段888号,颗粒物(PM10),59,62,57,20,29,89,89,146,114,13,22,12,13,0.3,0.4
2026-04-05T0000,2628A,92.0653,31.4846,那曲市,那曲监测站,颗粒物(PM10),70,77,31,37,19,38,38,104,90,51,16,14,7,1.9,0.9
2026-04-05T0000,4243A,92.0515,31.4787,那曲市,那曲市委宣传部,,41,41,21,18,12,46,46,107,95,32,9,8,7,0.7,0.6
2026-04-05T0000,1291A,115.8887,28.7006,南昌市,省林业公司,颗粒物(PM10),75,85,35,44,22,6,6,93,67,67,24,4,5,0.9,0.5
2026-04-05T0000,1292A,115.813,28.7443,南昌市,林科所,颗粒物(PM10),62,66,23,29,14,4,4,87,57,70,30,9,8,0.6,0.5
2026-04-05T0000,1294A,115.8518,28.687,南昌市,建工学校,颗粒物(PM10),83,95,43,44,22,7,7,91,61,76,32,10,10,1.4,0.9
2026-04-05T0000,1295A,115.8926,28.6425,南昌市,象湖,颗粒物(PM10),64,69,36,37,24,1,1,90,58,62,31,8,10,1.2,1
2026-04-05T0000,3046A,115.9084,28.6062,南昌市,机电学校,,50,50,46,34,24,47,47,100,75,34,23,5,6,0.7,0.7
2026-04-05T0000,3690A,115.9718,28.7032,南昌市,外国语学校,颗粒物(PM10),53,54,40,31,26,58,58,99,87,23,24,9,11,0.7,0.8
2026-04-05T0000,4106A,115.7923,28.6873,南昌市,工业二路,颗粒物(PM10),54,55,38,25,18,15,15,83,46,51,28,5,6,0.7,0.7
2026-04-05T0000,4192A,115.931587,28.686774,南昌市,南京东路235号,细颗粒物(PM2.5),101,113,55,61,29,12,12,96,70,49,23,6,8,1.1,0.8
2026-04-05T0000,1906A,106.0791,30.8022,南充市,南充市委,颗粒物(PM10),104,130,86,41,33,50,50,111,62,32,31,7,8,0.4,0.5
2026-04-05T0000,1907A,106.1038,30.8215,南充市,南充炼油厂,颗粒物(PM10),109,142,100,44,31,64,64,102,81,21,21,5,6,0.2,0.2
2026-04-05T0000,4227A,106.108336,30.788436,南充市,梨树横街98号,颗粒物(PM10),115,158,93,52,34,55,55,116,92,36,19,7,7,0.4,0.3
2026-04-05T0000,4304A,106.1172,30.843,南充市,清泉寺北路188号,颗粒物(PM10),113,153,93,55,37,85,85,120,106,12,12,7,7,0.4,0.5
2026-04-05T0000,4305A,106.067,30.7616,南充市,同庆路1号,颗粒物(PM10),116,160,84,42,32,44,44,117,68,46,26,7,8,0.5,0.5
2026-04-05T0000,1151A,118.8033,32.1085,南京市,迈皋桥,颗粒物(PM10),81,93,62,47,25,81,81,136,103,41,24,7,7,0.8,0.8
2026-04-05T0000,1152A,118.7487,32.057,南京市,草场门,颗粒物(PM10),84,97,72,42,24,83,83,127,NA,32,23,10,10,0.4,0.3
2026-04-05T0000,1154A,118.770105,32.004342,南京市,中华门,颗粒物(PM10),90,105,70,50,23,91,91,128,107,25,20,6,5,0.5,0.4
2026-04-05T0000,1155A,118.8059,32.0329,南京市,瑞金路,细颗粒物(PM2.5),103,102,75,63,23,78,78,138,107,23,11,5,5,0.8,0.8
2026-04-05T0000,1156A,118.7946,32.0774,南京市,玄武湖,颗粒物(PM10),78,89,65,37,21,101,101,132,106,13,11,10,9,1.1,0.9
2026-04-05T0000,1157A,118.6415,32.0964,南京市,浦口,颗粒物(PM10),97,115,68,41,21,50,50,124,98,46,15,5,5,3.4,0.5
2026-04-05T0000,1158A,118.730129,32.000956,南京市,奥体中心,颗粒物(PM10),92,108,74,48,21,81,81,113,96,22,18,8,7,0.4,0.3
2026-04-05T0000,1159A,118.9072,32.1047,南京市,仙林大学城,颗粒物(PM10),96,114,75,39,23,92,92,134,110,23,20,10,10,0.6,0.6
2026-04-05T0000,3422A,118.8443,31.919,南京市,江宁彩虹桥,颗粒物(PM10),89,104,65,39,19,94,94,138,115,23,17,3,4,0.7,0.7
2026-04-05T0000,3427A,118.8497,32.3599,南京市,六合雄州,颗粒物(PM10),65,71,57,20,25,53,53,119,89,44,24,4,4,0.6,0.7
2026-04-05T0000,4086A,118.7641,32.0841,南京市,新模范马路66号,颗粒物(PM10),100,119,76,45,21,94,94,136,107,19,16,3,4,0.4,0.5
2026-04-05T0000,4249A,118.8707617,31.34017673,南京市,汶溪路181号,,49,48,47,34,22,86,86,126,102,20,17,7,6,0.3,0.3
2026-04-05T0000,4312A,119.019,31.6512,南京市,中山西路1号,颗粒物(PM10),88,102,57,33,24,81,81,125,107,28,19,4,4,0.7,0.6
2026-04-05T0000,1401A,108.3098,22.788,南宁市,二十一中,,42,NA,27,29,18,63,63,109,91,19,13,5,4,0.6,0.6
2026-04-05T0000,1402A,108.3135,22.8529,南宁市,北湖,细颗粒物(PM2.5),94,NA,31,57,23,21,21,134,102,48,15,6,6,0.8,0.6
2026-04-05T0000,1403A,108.3205,22.8222,南宁市,市监测站,,43,34,28,30,17,69,69,133,111,18,12,10,5,0.6,0.6
2026-04-05T0000,1404A,108.3828,22.8038,南宁市,大自然花园,,42,35,26,29,16,70,70,118,100,15,12,10,7,0.4,0.4
2026-04-05T0000,1406A,108.2397,22.8462,南宁市,区农职院,,40,40,30,27,17,24,24,121,85,25,10,6,7,0.4,0.4
2026-04-05T0000,1407A,108.3285,22.7356,南宁市,英华嘉园,颗粒物(PM10),53,54,34,33,17,32,32,122,89,53,17,7,5,0.7,0.5
2026-04-05T0000,3401A,108.4829,22.762,南宁市,红星社区,细颗粒物(PM2.5),74,59,28,47,18,65,65,129,106,22,12,7,7,0.6,0.5
2026-04-05T0000,4132A,108.2927,23.1477,南宁市,起凤路9号,细颗粒物(PM2.5),66,58,40,43,29,70,70,121,97,20,12,13,9,0.6,0.6
2026-04-05T0000,4221A,108.2177,22.7774,南宁市,乐贤路16号,,46,46,32,23,20,39,39,121,85,48,17,5,9,0.6,0.5
2026-04-05T0000,2332A,118.1682,26.6371,南平市,南平市监测站,,43,43,20,22,10,18,18,86,49,20,10,3,4,0.4,0.5
2026-04-05T0000,2334A,118.1757,26.6276,南平市,南平七中,,35,35,24,20,10,21,21,86,54,15,9,2,3,0.6,0.5
2026-04-05T0000,1168A,120.9056,31.9669,南通市,狼山街道,颗粒物(PM10),63,68,64,28,27,89,89,117,96,10,19,2,3,0.4,0.5
2026-04-05T0000,1170A,120.8635,32.0231,南通市,城中,颗粒物(PM10),71,79,73,33,29,84,84,113,90,9,10,4,4,0.4,0.5
2026-04-05T0000,1171A,120.9376,31.9301,南通市,星湖花园,颗粒物(PM10),63,68,69,32,35,81,81,114,89,12,33,3,4,0.5,0.7
2026-04-05T0000,1172A,120.8053,32.046,南通市,紫琅学院,颗粒物(PM10),63,67,61,30,27,87,87,124,92,14,14,4,5,0.7,0.8
2026-04-05T0000,3291A,121.0631,32.0644,南通市,通州监测站,颗粒物(PM10),58,61,57,23,26,80,80,108,93,11,7,3,3,0.5,0.6
2026-04-05T0000,3432A,120.9348,31.9874,南通市,环境教育馆,颗粒物(PM10),62,66,65,25,26,80,80,116,91,10,10,4,4,0.5,0.6
2026-04-05T0000,4091A,120.8692,31.9885,南通市,洪江路,颗粒物(PM10),63,68,65,32,33,86,86,108,90,14,20,4,4,0.7,0.9
2026-04-05T0000,2404A,112.5338,33.0086,南阳市,瓦房庄,颗粒物(PM10),100,120,103,27,16,75,75,109,95,18,15,5,5,0.6,0.5
2026-04-05T0000,2405A,112.5002,32.9734,南阳市,汉画馆,颗粒物(PM10),88,103,100,29,22,47,47,105,85,31,19,6,6,0.6,0.5
2026-04-05T0000,2406A,112.5778,33.0144,南阳市,气象站,颗粒物(PM10),108,139,126,28,20,49,49,108,90,39,20,5,6,0.5,0.4
2026-04-05T0000,2407A,112.548,32.9687,南阳市,理工学院,颗粒物(PM10),102,124,105,28,22,51,51,106,90,39,15,6,6,0.5,0.4
2026-04-05T0000,4008A,112.5233,32.9921,南阳市,卧龙区政府,颗粒物(PM10),102,124,100,24,20,57,57,106,88,31,17,7,7,0.6,0.5
2026-04-05T0000,1234A,121.8352,29.9111,宁波市,区环保大楼,细颗粒物(PM2.5),80,73,45,50,27,107,107,120,100,20,25,6,6,0.7,0.6
2026-04-05T0000,1235A,121.5595,29.8208,宁波市,万里学院,细颗粒物(PM2.5),102,66,36,62,24,108,108,134,123,13,11,6,6,0.7,0.6
2026-04-05T0000,1236A,121.713,29.9564,宁波市,龙赛医院,细颗粒物(PM2.5),78,77,44,49,25,92,92,113,94,20,19,6,6,0.5,0.5
2026-04-05T0000,1240A,121.5855,29.8635,宁波市,太古小学,细颗粒物(PM2.5),96,88,40,58,22,109,109,128,118,15,14,3,4,0.6,0.5
2026-04-05T0000,1241A,121.5239,29.8673,宁波市,市环境监测中心,细颗粒物(PM2.5),107,88,40,67,25,97,97,124,114,18,14,6,6,0.6,0.5
2026-04-05T0000,2871A,121.6156,29.9015,宁波市,万里国际学校,细颗粒物(PM2.5),88,85,36,54,23,117,117,130,119,16,18,4,5,0.6,0.5
2026-04-05T0000,3710A,121.5593,29.8976,宁波市,白沙活动中心,细颗粒物(PM2.5),90,62,30,55,23,108,108,129,120,18,15,5,5,0.5,0.4
2026-04-05T0000,4095A,121.8962,29.7529,宁波市,中科路88号,颗粒物(PM10),60,63,40,38,26,90,90,133,108,20,15,7,7,0.5,0.4
2026-04-05T0000,2341A,119.5387,26.6611,宁德市,宁德市监测站,,18,17,17,3,8,56,56,105,85,13,23,5,5,0.7,0.7
2026-04-05T0000,3209A,119.5231,26.6562,宁德市,宁德一中,,17,16,17,7,7,52,52,106,82,12,16,5,5,0.5,0.5
2026-04-05T0000,2618A,98.859,25.8541,怒江傈僳族自治州,州监测站,,35,35,32,23,21,50,50,87,69,3,4,8,8,0.2,0.3
2026-04-05T0000,2619A,98.8607,25.8168,怒江傈僳族自治州,泸水一中,,29,26,27,20,19,36,36,74,57,14,17,5,6,0.5,0.5
2026-04-05T0000,1888A,101.6891,26.571,攀枝花市,弄弄坪,,36,34,33,25,20,87,87,128,100,16,15,2,8,0.5,0.8
2026-04-05T0000,1889A,101.577,26.5914,攀枝花市,河门口,,34,34,40,21,20,94,94,119,111,7,13,7,15,0.5,0.8
2026-04-05T0000,1891A,101.7365,26.4986,攀枝花市,仁和,,43,43,35,24,24,90,90,120,99,7,12,6,10,0.5,0.6
2026-04-05T0000,2835A,101.7222,26.567,攀枝花市,四十中小,,32,32,23,20,14,92,92,123,101,11,11,5,10,0.7,0.8
2026-04-05T0000,1604A,122.0303,41.1489,盘锦市,开发区,,40,NA,29,28,22,68,68,76,68,10,8,5,5,0.2,0.2
2026-04-05T0000,1605A,122.0486,41.0883,盘锦市,兴隆台,,43,32,27,30,22,92,92,101,89,12,11,5,5,0.4,0.3
2026-04-05T0000,1606A,121.8297,41.1026,盘锦市,新生街道,,33,NA,27,23,19,83,83,106,84,22,26,4,5,0.4,0.4
2026-04-05T0000,1832A,113.3257,33.7423,平顶山市,新华旅馆,颗粒物(PM10),103,127,103,28,20,50,50,98,75,31,14,6,5,0.4,0.3
2026-04-05T0000,1833A,113.2917,33.737,平顶山市,规划设计院,颗粒物(PM10),96,114,102,31,22,49,49,94,71,28,13,7,6,0.6,0.4
2026-04-05T0000,1834A,113.182,33.7738,平顶山市,平顶山工学院,颗粒物(PM10),105,131,105,35,20,68,68,102,84,19,12,8,8,0.3,0.2
2026-04-05T0000,3594A,112.8736,33.9068,平顶山市,石龙区,细颗粒物(PM2.5),60,NA,136,40,22,57,57,100,82,47,19,9,10,0.8,0.5
2026-04-05T0000,4116A,113.284,33.7139,平顶山市,姚电大道23号,颗粒物(PM10),115,158,140,40,24,60,60,95,76,25,13,7,6,0.5,0.4
2026-04-05T0000,2656A,106.6633,35.5338,平凉市,聚贤嘉苑,颗粒物(PM10),101,122,118,43,43,48,48,112,79,30,21,6,7,0.5,0.4
2026-04-05T0000,2657A,106.7021,35.5307,平凉市,博物馆,颗粒物(PM10),98,116,125,35,41,48,48,106,71,26,21,10,10,0.4,0.4
2026-04-05T0000,2348A,113.8384,27.6436,萍乡市,中医院,颗粒物(PM10),78,89,51,18,22,77,77,111,97,15,20,6,10,0.8,1
2026-04-05T0000,2350A,113.8677,27.6438,萍乡市,市环保局,颗粒物(PM10),83,96,46,33,21,56,56,109,92,21,10,13,11,1.0,1
2026-04-05T0000,2351A,113.8663,27.6202,萍乡市,安源区政府,颗粒物(PM10),80,91,43,30,24,44,44,90,72,18,11,8,7,0.6,0.5
2026-04-05T0000,4107A,113.8686,27.6668,萍乡市,联洪村委会,颗粒物(PM10),70,78,55,22,20,66,66,101,86,6,16,4,5,0.5,0.3
2026-04-05T0000,2319A,119.0142,25.4324,莆田市,荔城区仓后路,,26,26,20,17,10,45,45,108,85,23,15,/,/,/,/
2026-04-05T0000,2320A,119.0016,25.4553,莆田市,莆田市监测站,,23,10,13,3,3,73,73,110,86,5,8,2,2,0.6,0.6
2026-04-05T0000,2321A,119.112,25.4561,莆田市,涵江区六中,,32,32,16,13,6,51,51,111,86,20,14,/,/,0.8,0.7
2026-04-05T0000,2322A,119.1014,25.3215,莆田市,秀屿区政府,,25,12,16,3,8,78,78,111,99,11,10,3,3,0.7,0.7
2026-04-05T0000,2392A,115.0312,35.7636,濮阳市,环保局,颗粒物(PM10),70,77,68,14,15,83,83,110,97,13,13,4,4,0.4,0.3
2026-04-05T0000,3021A,115,35.7667,濮阳市,濮水河管理处,颗粒物(PM10),70,77,71,25,21,77,77,120,99,21,20,2,2,0.3,0.3
2026-04-05T0000,4118A,115.0552,35.7816,濮阳市,中原东路68号,颗粒物(PM10),83,95,75,11,13,85,85,114,100,13,12,3,2,0.4,0.4
2026-04-05T0000,4216A,115.0923632,35.76857718,濮阳市,任丘路479号,颗粒物(PM10),73,82,70,18,15,76,76,110,92,8,7,4,4,0.3,0.2
2026-04-05T0000,2601A,100.9801,22.7634,普洱市,市环保局,细颗粒物(PM2.5),108,114,99,68,51,100,100,134,118,8,10,7,7,0.8,0.7
2026-04-05T0000,2602A,100.9763,22.8237,普洱市,普洱第二中学,细颗粒物(PM2.5),110,119,94,70,56,88,88,128,103,20,18,6,6,0.9,0.6
2026-04-05T0000,3345A,131.0413,45.7795,七台河市,中波台,细颗粒物(PM2.5),105,65,35,65,39,64,64,106,94,24,11,4,4,0.5,0.3
2026-04-05T0000,3637A,131.0136,45.7688,七台河市,人民广场,细颗粒物(PM2.5),84,70,45,52,34,44,44,99,81,47,17,7,8,0.7,0.6
2026-04-05T0000,3684A,130.8639,45.8144,七台河市,新建矿广场,细颗粒物(PM2.5),94,107,51,57,37,25,25,102,65,39,19,8,8,0.7,0.7
2026-04-05T0000,1779A,123.9307,47.3641,齐齐哈尔市,安居小区,,47,47,81,28,54,82,82,102,90,8,20,14,14,0.5,0.6
2026-04-05T0000,1780A,123.9497,47.3389,齐齐哈尔市,中心广场,颗粒物(PM10),52,52,99,24,59,80,80,96,86,13,26,4,6,0.5,0.7
2026-04-05T0000,1781A,123.9483,47.3229,齐齐哈尔市,农牧车辆厂,颗粒物(PM10),51,51,87,34,58,81,81,103,91,9,22,8,9,0.1,0.4
2026-04-05T0000,1783A,123.9442,47.2994,齐齐哈尔市,市环境监测站,,49,38,82,34,57,78,78,102,89,10,22,3,4,0.4,0.5
2026-04-05T0000,3662A,123.6341,47.2079,齐齐哈尔市,富区青少年活动中心,,44,44,92,27,59,64,64,95,75,8,13,4,5,0.4,0.6
2026-04-05T0000,2591A,107.9765,26.5724,黔东南苗族侗族自治州,市环境监测站,,23,22,25,16,19,66,66,99,83,12,11,2,3,0.4,0.5
2026-04-05T0000,2881A,107.8909,26.531,黔东南苗族侗族自治州,凯里学院,,24,24,28,15,20,58,58,102,87,10,8,3,4,0.4,0.4
2026-04-05T0000,2593A,107.5223,26.2371,黔南布依族苗族自治州,小围寨,,27,NA,19,16,15,84,84,102,91,6,7,11,6,0.4,0.5
2026-04-05T0000,3538A,107.5175,26.2977,黔南布依族苗族自治州,沙坝,,20,19,19,14,13,35,35,84,69,10,6,5,4,0.8,0.8
2026-04-05T0000,2589A,104.9022,25.0943,黔西南布依族苗族自治州,场坝街,,33,32,27,23,19,77,77,96,89,7,7,6,7,0.4,0.4
2026-04-05T0000,2590A,104.8812,25.0994,黔西南布依族苗族自治州,坪东大道,,39,30,25,27,21,70,70,93,86,2,2,2,2,0.3,0.3
2026-04-05T0000,2502A,108.6238,21.9667,钦州市,市环保站,细颗粒物(PM2.5),62,48,35,41,20,87,87,104,98,10,11,6,6,0.7,0.6
2026-04-05T0000,2503A,108.655,21.9481,钦州市,沙埠小学,颗粒物(PM10),57,59,39,35,24,76,76,108,102,16,11,6,6,0.7,0.7
2026-04-05T0000,2504A,108.5989,21.7435,钦州市,港区一小,细颗粒物(PM2.5),88,72,44,54,28,82,82,107,98,29,17,8,4,0.7,0.6
2026-04-05T0000,3404A,108.5959,21.9634,钦州市,北职校,细颗粒物(PM2.5),60,48,37,40,24,83,83,106,96,12,10,9,6,0.8,0.7
2026-04-05T0000,1046A,119.5247,39.9346,秦皇岛市,建设大厦,,47,47,39,28,21,70,70,97,86,20,11,5,5,0.3,0.3
2026-04-05T0000,3132A,119.5979,39.938,秦皇岛市,文明里,,42,42,40,22,21,83,83,91,85,15,16,8,8,0.3,0.3
2026-04-05T0000,4066A,119.7458,39.9952,秦皇岛市,南园路157号,,43,43,32,19,20,40,40,95,80,55,21,6,7,0.3,0.3
2026-04-05T0000,4067A,119.5131,39.8858,秦皇岛市,翠岛大街1号,,40,40,37,17,18,73,73,91,83,24,15,7,8,0.3,0.3
2026-04-05T0000,4198A,119.509013,39.825305,秦皇岛市,北戴河轮滑馆,细颗粒物(PM2.5),102,NA,40,62,21,88,88,94,90,15,15,8,8,0.3,0.3
2026-04-05T0000,1310A,120.404,36.0625,青岛市,市南区东部子站,,38,36,36,26,18,95,95,103,94,12,22,10,10,0.4,0.4
2026-04-05T0000,1311A,120.362344,36.10282,青岛市,四方区子站,,43,39,36,30,20,104,104,106,96,14,16,6,7,0.6,0.6
2026-04-05T0000,1312A,120.294373,36.054183,青岛市,市南区西部子站,,32,29,32,22,17,93,93,92,89,13,18,3,4,0.5,0.5
2026-04-05T0000,1313A,120.4581,36.0858,青岛市,崂山区子站,,35,31,33,24,17,99,99,108,96,14,17,8,8,0.4,0.5
2026-04-05T0000,1315A,120.3945,36.3083,青岛市,城阳区子站,,41,41,42,20,19,89,89,105,82,24,18,6,6,0.6,0.6
2026-04-05T0000,3642A,120.3454,36.0735,青岛市,市北区南部,,38,33,30,26,16,102,102,105,99,6,10,2,3,0.4,0.4
2026-04-05T0000,3643A,120.3897,36.18,青岛市,李沧区北部,,36,36,38,23,20,90,90,101,82,21,18,9,9,0.6,0.5
2026-04-05T0000,4110A,120.5222,36.4089,青岛市,盟旺路653号,,36,36,29,22,15,66,66,104,85,17,7,3,3,0.6,0.5
2026-04-05T0000,4290A,120.196923,35.954556,青岛市,珠江路669号,,38,36,36,26,18,99,99,105,103,15,14,4,4,0.5,0.5
2026-04-05T0000,4291A,120.0424,35.8656,青岛市,黄岛区人民政府广场,,31,27,32,17,13,99,99,104,102,15,11,8,8,0.5,0.5
2026-04-05T0000,1703A,113.0218,23.7086,清远市,凤城街办,,29,29,13,15,7,30,30,81,57,24,15,/,/,/,/
2026-04-05T0000,3025A,113.0479,23.6343,清远市,技师学院,,37,37,15,20,8,18,18,78,56,31,14,5,5,0.8,0.6
2026-04-05T0000,3318A,112.9898,23.7403,清远市,清新太和,,20,20,13,9,6,59,59,82,68,9,12,5,6,0.6,0.6
2026-04-05T0000,3455A,113.076,23.72,清远市,清城东城,,23,23,11,12,6,27,27,82,60,14,10,/,/,/,/
2026-04-05T0000,2661A,107.6325,35.7357,庆阳市,庆阳五中,颗粒物(PM10),97,115,117,42,39,81,81,107,90,19,17,5,5,0.4,0.4
2026-04-05T0000,2662A,107.6361,35.7067,庆阳市,市环保局,颗粒物(PM10),93,109,111,44,37,76,76,110,94,24,16,6,5,0.4,0.3
2026-04-05T0000,1916A,103.7897,25.5036,曲靖市,环境监测站,,39,36,33,27,20,87,87,129,111,10,12,6,6,0.5,0.5
2026-04-05T0000,1917A,103.8013,25.5357,曲靖市,烟厂办公区,,37,37,29,22,18,87,87,119,107,6,9,3,9,0.6,0.6
2026-04-05T0000,3376A,103.7926,25.4651,曲靖市,南苑二区,,36,36,27,18,19,88,88,111,102,7,11,4,4,0.6,0.6
2026-04-05T0000,3377A,103.7442,25.5259,曲靖市,曲靖师范学院,,36,36,28,21,19,95,95,130,114,6,14,2,4,0.5,0.6
2026-04-05T0000,1264A,118.8694,28.94,衢州市,环保大楼,颗粒物(PM10),63,67,29,35,18,38,38,97,69,24,13,/,/,/,/
2026-04-05T0000,1266A,118.8622,28.9809,衢州市,衢州学院,颗粒物(PM10),58,61,31,29,18,2,2,100,58,60,18,5,6,0.6,0.6
2026-04-05T0000,4097A,118.9646,28.9832,衢州市,衢州三中,颗粒物(PM10),56,58,28,27,15,33,33,98,70,26,14,8,8,0.6,0.6
2026-04-05T0000,1611A,118.5818,24.9116,泉州市,涂山街,,28,28,16,15,10,67,67,91,80,15,14,6,4,0.8,0.7
2026-04-05T0000,1612A,118.597,24.8976,泉州市,津头埔,,24,9,16,7,11,76,76,100,86,13,14,4,3,0.7,0.7
2026-04-05T0000,1613A,118.6669,24.9422,泉州市,万安,,20,19,16,11,9,64,64,93,78,17,15,5,4,0.6,0.6
2026-04-05T0000,4105A,118.6355,24.9148,泉州市,霞新路6号,,20,18,14,13,10,64,64,94,78,13,14,/,/,0.6,0.6
2026-04-05T0000,2626A,88.8873,29.2723,日喀则市,日喀则监测站,,27,15,18,7,5,86,86,100,91,3,9,8,9,0.3,0.4
2026-04-05T0000,3726A,88.8775,29.2425,日喀则市,林业技术推广中心,,29,20,18,3,4,92,92,102,98,3,7,5,5,0.3,0.3
2026-04-05T0000,1659A,119.4711,35.421,日照市,监测站,,39,39,39,19,16,96,96,101,92,28,18,9,8,0.6,0.6
2026-04-05T0000,1660A,119.523,35.4216,日照市,市政府广场,,34,34,40,18,16,102,102,103,96,27,22,8,6,0.5,0.5
2026-04-05T0000,1661A,119.5511,35.4113,日照市,港务局,颗粒物(PM10),51,51,41,19,15,110,110,106,102,23,21,5,4,0.5,0.5
2026-04-05T0000,3507A,119.5326,35.4627,日照市,职业技术学院,,41,41,36,16,15,115,115,112,110,14,15,8,7,0.6,0.6
2026-04-05T0000,3604A,119.3267,35.1043,日照市,岚山环保分局,颗粒物(PM10),58,61,55,34,21,83,83,103,99,27,24,10,14,0.9,0.8
2026-04-05T0000,1835A,111.1922,34.7752,三门峡市,市政府,颗粒物(PM10),80,92,95,30,17,12,12,90,56,58,23,12,12,0.4,0.4
2026-04-05T0000,1836A,111.1588,34.794,三门峡市,开发区,颗粒物(PM10),103,126,126,32,21,29,29,92,60,31,23,10,13,0.6,0.4
2026-04-05T0000,3039A,111.1911,34.7829,三门峡市,三门峡市第一小学,颗粒物(PM10),89,104,107,30,17,21,21,92,64,56,21,17,14,0.5,0.4
2026-04-05T0000,3598A,111.1031,34.719,三门峡市,富达温泉假日酒店,颗粒物(PM10),99,118,111,35,26,26,26,93,63,34,21,15,15,0.5,0.3
2026-04-05T0000,2324A,117.621,26.2626,三明市,三钢,,43,43,30,23,15,28,28,99,58,13,11,4,5,0.4,0.7
2026-04-05T0000,2325A,117.6352,26.2714,三明市,三明二中,,46,46,30,23,13,31,31,95,61,13,10,2,3,0.5,0.6
2026-04-05T0000,2326A,117.6028,26.2377,三明市,三元区政府,颗粒物(PM10),58,61,33,28,15,15,15,99,56,24,12,4,6,0.9,0.7
2026-04-05T0000,1877A,109.4962,18.2682,三亚市,河西子站,,48,48,37,33,23,84,84,65,65,8,9,4,4,0.6,0.5
2026-04-05T0000,3540A,109.7348,18.3443,三亚市,君悦子站,颗粒物(PM10),69,76,42,30,19,56,56,68,66,12,10,3,4,0.6,0.5
2026-04-05T0000,4135A,109.1714,18.3739,三亚市,城东小学站,颗粒物(PM10),54,55,40,36,26,79,79,80,68,7,7,/,/,/,/
2026-04-05T0000,2624A,91.7592,29.234,山南市,山南监测站,,29,16,18,8,4,90,90,101,97,1,3,8,9,0.3,0.3
2026-04-05T0000,2625A,91.7701,29.2436,山南市,山南人民医院,,29,18,22,6,5,91,91,102,97,1,5,7,9,0.3,0.2
2026-04-05T0000,1674A,116.6795,23.3666,汕头市,金平子站,,25,12,36,12,27,80,80,111,85,13,27,4,6,0.7,1
2026-04-05T0000,1675A,116.7248,23.3632,汕头市,龙湖子站,,24,13,38,12,31,74,74,106,80,11,25,5,6,/,/
2026-04-05T0000,1676A,116.7257,23.2774,汕头市,濠江子站,,22,17,33,10,25,70,70,99,76,12,25,7,8,/,/
2026-04-05T0000,1677A,116.7518,23.4712,汕头市,澄海子站,,19,17,41,10,29,60,60,100,73,14,24,6,8,0.8,1
2026-04-05T0000,1678A,116.6088,23.2539,汕头市,潮阳子站,,22,22,26,13,25,69,69,99,83,7,13,5,6,0.6,1
2026-04-05T0000,3444A,116.4539,23.2684,汕头市,潮南峡山,,23,22,33,16,26,66,66,90,77,8,15,6,6,0.7,0.9
2026-04-05T0000,3624A,116.4069,23.2533,汕头市,潮南子站,,23,22,35,16,27,55,55,79,65,10,14,5,5,/,/
2026-04-05T0000,1693A,115.3653,22.7751,汕尾市,市环保局,,42,NA,29,29,23,36,36,57,44,12,11,5,5,0.8,0.7
2026-04-05T0000,1695A,115.362,22.7926,汕尾市,新城中学,,29,NA,23,20,18,42,42,58,43,9,11,6,6,0.6,0.6
2026-04-05T0000,2645A,109.9155,33.8714,商洛市,监测站,颗粒物(PM10),89,104,177,40,47,42,42,96,85,20,16,8,9,0.4,0.4
