timepoint,stationcode,longitude,latitude,area,positionname,primarypollutant,aqi,pm10,pm10_24h,pm2_5,pm2_5_24h,o3,o3_24h,o3_8h,o3_8h_24h,no2,no2_24h,so2,so2_24h,co,co_24h
2026-04-05T1000,2568A,102.2503,31.8896,阿坝藏族羌族自治州,马师校,,27,27,24,13,9,52,52,42,42,6,7,5,5,0.3,0.2
2026-04-05T1000,3994A,102.2174,31.9016,阿坝藏族羌族自治州,马尔康中学西区,NA,NA,15,17,11,9,NA,NA,45,43,7,6,3,3,0.2,0.2
2026-04-05T1000,2695A,80.2899,41.1684,阿克苏地区,电视台,颗粒物(PM10),108,139,131,36,41,66,66,49,49,17,21,4,4,0.5,0.5
2026-04-05T1000,2696A,80.2592,41.1541,阿克苏地区,艺术中心,颗粒物(PM10),115,158,140,38,46,73,73,36,36,19,33,4,5,0.4,0.5
2026-04-05T1000,2205A,105.699,38.8409,阿拉善盟,蒙二幼,颗粒物(PM10),144,234,166,56,46,88,88,74,74,7,8,8,8,0.5,0.5
2026-04-05T1000,2206A,105.7198,38.8508,阿拉善盟,环保局新楼,颗粒物(PM10),119,167,163,58,56,83,83,84,82,4,3,7,8,0.5,0.4
2026-04-05T1000,2708A,88.1266,47.8515,阿勒泰地区,市站,,27,8,13,3,2,86,86,89,88,2,4,5,5,0.0,0
2026-04-05T1000,4166A,88.1198,47.7931,阿勒泰地区,阿勒泰路33号,,24,7,16,3,2,74,74,82,80,7,6,5,5,0.3,0.3
2026-04-05T1000,2630A,80.1171,32.4999,阿里地区,阿里监测站,,19,16,9,7,4,59,59,82,76,18,4,9,6,0.5,0.4
2026-04-05T1000,3192A,80.0906,32.5029,阿里地区,阿里藏医院,,32,6,8,3,3,101,101,101,97,1,3,9,9,0.4,0.4
2026-04-05T1000,2644A,109.0088,32.6974,安康市,汉滨区检察院,颗粒物(PM10),55,56,106,22,31,34,34,27,26,11,17,6,10,0.4,0.5
2026-04-05T1000,4054A,109.0324,32.6913,安康市,市邮政管理局,颗粒物(PM10),61,65,109,23,34,35,35,35,32,13,18,6,16,0.5,0.5
2026-04-05T1000,2291A,117.0806,30.5181,安庆市,环科院,颗粒物(PM10),58,60,56,30,21,70,70,46,46,11,22,7,6,0.5,0.5
2026-04-05T1000,2292A,117.0331,30.5118,安庆市,马山宾馆,颗粒物(PM10),53,53,51,25,22,68,68,36,36,10,26,6,5,0.5,0.5
2026-04-05T1000,2294A,116.9897,30.6146,安庆市,安庆大学,颗粒物(PM10),55,57,60,24,19,83,83,71,68,9,13,9,5,0.5,0.5
2026-04-05T1000,3173A,117.0598,30.5351,安庆市,市人大,颗粒物(PM10),58,60,57,26,19,72,72,59,59,15,17,9,10,0.5,0.5
2026-04-05T1000,3123A,105.9408,26.2431,安顺市,凤凰山,,43,43,26,25,19,80,80,79,76,6,6,10,5,0.6,0.5
2026-04-05T1000,3124A,105.9443,26.2567,安顺市,金钟山,,40,40,24,22,20,73,73,73,70,5,5,11,8,0.7,0.6
2026-04-05T1000,3125A,105.8983,26.248,安顺市,娄家坡,,36,31,23,25,21,70,70,74,70,6,4,28,24,0.6,0.5
2026-04-05T1000,1819A,114.3552,36.1017,安阳市,红庙街,颗粒物(PM10),91,107,93,32,23,88,88,54,54,18,17,4,4,0.4,0.3
2026-04-05T1000,1820A,114.361,36.0681,安阳市,银杏小区,颗粒物(PM10),92,108,100,35,23,91,91,51,51,15,15,7,5,0.2,0.2
2026-04-05T1000,3141A,114.3921,36.0879,安阳市,信访局,颗粒物(PM10),80,91,88,33,23,94,94,54,54,20,16,5,3,0.4,0.3
2026-04-05T1000,3669A,114.4706,36.0634,安阳市,左辅环卫站,颗粒物(PM10),105,131,98,36,24,82,82,46,46,14,11,7,5,0.6,0.4
2026-04-05T1000,4117A,114.2918,36.0769,安阳市,钢三路198号,颗粒物(PM10),100,120,90,30,20,81,81,54,54,20,15,4,4,0.5,0.4
2026-04-05T1000,1748A,123.0441,41.1201,鞍山市,深沟寺,,28,18,38,11,28,87,87,91,90,11,17,9,10,0.6,0.8
2026-04-05T1000,1749A,123.011,41.0931,鞍山市,太阳城,,26,23,39,18,31,83,83,91,90,12,16,7,8,0.7,0.7
2026-04-05T1000,1750A,123.0483,41.1445,鞍山市,太平,,48,48,55,24,36,74,74,89,84,24,21,14,10,1.2,0.9
2026-04-05T1000,1751A,122.964,41.0968,鞍山市,铁西三道街,,33,33,53,16,36,83,83,88,87,18,28,6,11,0.7,1
2026-04-05T1000,1753A,123.0219,41.0822,鞍山市,明达新区,,26,20,39,12,28,83,83,94,92,12,15,7,9,0.6,0.7
2026-04-05T1000,4201A,122.944647,41.082639,鞍山市,兴盛南路290号,,30,30,51,18,36,83,83,88,87,12,24,6,12,0.6,1.1
2026-04-05T1000,2195A,107.4206,40.7609,巴彦淖尔市,附二中,颗粒物(PM10),109,142,205,35,37,80,80,70,65,10,8,15,10,0.4,0.4
2026-04-05T1000,2196A,107.37,40.7372,巴彦淖尔市,市环保大楼,颗粒物(PM10),103,126,184,29,35,85,85,77,74,12,7,12,6,0.4,0.4
2026-04-05T1000,1956A,86.1476,41.7529,巴音郭楞蒙古自治州,孔雀公园,颗粒物(PM10),60,64,86,12,21,106,106,110,110,7,12,10,10,0.2,0.2
2026-04-05T1000,1957A,86.1971,41.7166,巴音郭楞蒙古自治州,棉纺厂,颗粒物(PM10),65,70,105,12,26,102,102,96,96,6,13,/,/,/,/
2026-04-05T1000,1958A,86.236,41.7172,巴音郭楞蒙古自治州,经济开发区,颗粒物(PM10),58,60,75,6,19,98,98,96,96,4,6,7,8,0.3,0.3
2026-04-05T1000,3181A,106.776805,31.852614,巴中市,市五中,颗粒物(PM10),86,100,90,35,30,22,22,25,22,22,18,8,8,0.9,0.6
2026-04-05T1000,3183A,106.7419,31.8654,巴中市,圣泉水务公司,颗粒物(PM10),73,82,85,34,31,26,26,52,47,21,16,9,9,0.7,0.5
2026-04-05T1000,3616A,106.7617,31.8343,巴中市,市中心医院,颗粒物(PM10),77,87,90,40,37,25,25,21,20,26,18,8,8,0.8,0.7
2026-04-05T1000,2235A,122.7909,45.608,白城市,洮北区环保局,细颗粒物(PM2.5),60,45,31,40,23,61,61,81,74,15,11,6,5,0.2,0.1
2026-04-05T1000,2236A,122.8741,45.5725,白城市,市环保局,细颗粒物(PM2.5),56,44,30,38,24,55,55,68,64,14,9,4,5,0.4,0.3
2026-04-05T1000,2231A,126.4219,41.9172,白山市,喜丰,颗粒物(PM10),55,56,47,18,28,64,64,27,27,17,16,8,7,1.1,1
2026-04-05T1000,2232A,126.4082,41.9416,白山市,环保局,NA,NA,53,33,24,26,NA,NA,34,33,20,13,12,8,0.9,0.8
2026-04-05T1000,2647A,104.1727,36.5448,白银市,第三小学,颗粒物(PM10),78,89,131,27,43,74,74,70,60,22,15,7,13,0.9,0.4
2026-04-05T1000,2648A,104.1467,36.5482,白银市,动力公司,颗粒物(PM10),72,80,137,25,44,83,83,59,53,15,12,7,7,0.6,0.4
2026-04-05T1000,2512A,106.6102,23.901,百色市,市监测站,颗粒物(PM10),53,54,34,36,21,77,77,45,44,15,16,23,19,0.9,0.7
2026-04-05T1000,2513A,106.6524,23.8842,百色市,市中心血站,细颗粒物(PM2.5),72,58,35,46,22,80,80,75,74,11,11,17,18,0.8,0.7
2026-04-05T1000,4133A,106.6273,23.8798,百色市,龙景西路,细颗粒物(PM2.5),70,63,38,45,28,77,77,59,59,15,16,29,23,0.8,0.6
2026-04-05T1000,2270A,117.396,32.9389,蚌埠市,工人疗养院,颗粒物(PM10),113,152,91,28,22,83,83,79,72,20,20,7,6,0.5,0.3
2026-04-05T1000,2271A,117.3606,32.9428,蚌埠市,百货大楼,颗粒物(PM10),105,132,79,26,20,90,90,82,76,14,19,8,7,0.6,0.4
2026-04-05T1000,2273A,117.4183,32.8909,蚌埠市,蚌埠学院,颗粒物(PM10),112,151,83,23,24,92,92,74,71,10,17,8,6,0.7,0.4
2026-04-05T1000,2274A,117.3534,32.9672,蚌埠市,淮上区政府,颗粒物(PM10),107,136,86,31,24,96,96,87,82,13,18,7,6,0.4,0.3
2026-04-05T1000,2275A,117.3143,32.8977,蚌埠市,高新区,颗粒物(PM10),105,132,83,34,23,77,77,67,61,17,24,9,8,0.7,0.5
2026-04-05T1000,3715A,117.3091,32.9314,蚌埠市,蚌埠田家炳中学,颗粒物(PM10),104,128,88,33,24,84,84,74,67,13,17,10,7,0.5,0.3
2026-04-05T1000,1585A,109.8761,40.6533,包头市,市环境监测站,,40,40,177,9,27,94,94,100,97,7,9,5,7,0.4,0.4
2026-04-05T1000,1587A,109.9992,40.5843,包头市,包头八中,,29,27,147,3,42,90,90,94,90,4,7,6,7,0.2,0.3
2026-04-05T1000,1589A,109.8641,40.6288,包头市,惠龙物流,,29,29,147,3,25,90,90,96,93,6,7,4,7,0.2,0.3
2026-04-05T1000,1590A,110.0376,40.5546,包头市,东河鸿龙湾,,33,33,139,7,25,91,91,92,89,6,8,8,9,0.3,0.4
2026-04-05T1000,3283A,109.9154,40.5684,包头市,滨河大厦,,29,20,145,6,28,92,92,93,90,1,4,7,8,0.3,0.3
2026-04-05T1000,3419A,109.9449,40.6259,包头市,包头市委党校,,33,33,136,10,23,90,90,93,90,4,6,5,7,0.2,0.2
2026-04-05T1000,3683A,109.8332,40.6577,包头市,昆区政府,,30,29,153,7,27,93,93,98,96,8,10,1,4,0.4,0.5
2026-04-05T1000,1931A,107.0802,34.3129,宝鸡市,竹园沟,颗粒物(PM10),75,85,113,20,18,47,47,37,37,21,20,6,7,0.3,0.3
2026-04-05T1000,1933A,107.1429,34.3549,宝鸡市,监测站,颗粒物(PM10),84,97,122,22,21,37,37,41,40,22,16,6,7,0.5,0.4
2026-04-05T1000,1934A,107.1172,34.3759,宝鸡市,技工学校,颗粒物(PM10),89,104,123,32,33,42,42,52,50,19,11,5,5,0.5,0.4
2026-04-05T1000,1936A,107.2025,34.3518,宝鸡市,文理学院,颗粒物(PM10),83,96,119,30,32,44,44,43,42,18,16,5,6,0.4,0.4
2026-04-05T1000,1937A,107.2396,34.3626,宝鸡市,三迪小学,颗粒物(PM10),86,100,128,40,33,47,47,40,39,17,19,4,5,0.4,0.4
2026-04-05T1000,4155A,107.1721,34.3558,宝鸡市,滨河北路,颗粒物(PM10),93,110,138,29,31,41,41,40,39,19,18,6,7,0.5,0.4
2026-04-05T1000,4308A,107.3898,34.3601,宝鸡市,陈仓区北开路21号,颗粒物(PM10),105,133,142,36,34,42,42,46,44,20,19,42,31,0.6,0.5
2026-04-05T1000,1051A,115.4803,38.8568,保定市,游泳馆,细颗粒物(PM2.5),98,105,92,59,49,60,60,42,42,32,25,9,8,0.4,0.3
2026-04-05T1000,1052A,115.509,38.8895,保定市,华电二区,细颗粒物(PM2.5),101,103,85,61,43,50,50,31,31,36,27,6,3,0.4,0.2
2026-04-05T1000,1053A,115.4588,38.9037,保定市,接待中心,颗粒物(PM10),91,107,90,54,44,53,53,32,32,32,24,6,4,0.4,0.3
2026-04-05T1000,1054A,115.4484,38.8344,保定市,地表水厂,颗粒物(PM10),102,123,94,NA,37,NA,NA,30,27,31,29,6,4,0.2,0.2
2026-04-05T1000,3581A,115.3136,38.9511,保定市,满城区生态环境分局,颗粒物(PM10),113,153,123,56,41,55,55,39,39,41,28,NA,2,0.5,0.4
2026-04-05T1000,3582A,115.4709,38.7628,保定市,清苑区第二中学,颗粒物(PM10),115,159,116,67,46,36,36,24,23,48,33,11,9,0.6,0.4
2026-04-05T1000,3583A,115.6231,39.0223,保定市,徐水物探局,颗粒物(PM10),93,110,127,55,52,62,62,26,26,22,31,4,2,0.5,0.5
2026-04-05T1000,4004A,115.4199,38.8665,保定市,双鹰农机,颗粒物(PM10),105,133,114,52,45,64,64,33,32,31,27,6,4,0.4,0.3
2026-04-05T1000,4034A,115.515,38.8589,保定市,植保所站,颗粒物(PM10),103,126,99,47,44,52,52,37,37,38,29,5,4,0.5,0.4
2026-04-05T1000,2594A,99.1589,25.1137,保山市,市环境监测站,细颗粒物(PM2.5),70,52,48,45,32,98,98,80,80,12,7,6,6,0.5,0.3
2026-04-05T1000,2595A,99.1616,25.1381,保山市,市环保局,细颗粒物(PM2.5),68,62,50,44,39,89,89,86,84,13,5,6,6,0.6,0.4
2026-04-05T1000,1867A,109.1435,21.4085,北海市,海滩公园,颗粒物(PM10),52,52,52,23,32,58,58,68,60,8,9,8,8,0.7,0.8
2026-04-05T1000,1868A,109.0983,21.466,北海市,新市环保局,,40,40,46,24,31,62,62,69,62,8,10,11,11,0.8,0.9
2026-04-05T1000,1869A,109.1775,21.5232,北海市,北海工业园,颗粒物(PM10),55,57,53,27,36,53,53,52,47,6,8,6,7,0.7,0.8
2026-04-05T1000,3400A,109.1844,21.4396,北海市,龙潭自来水厂,细颗粒物(PM2.5),60,58,45,40,35,55,55,64,56,6,7,11,9,0.7,0.8
2026-04-05T1000,1001A,116.3611,39.8786,北京市,万寿西宫,,32,16,72,3,34,101,101,60,60,4,19,2,3,0.2,0.3
2026-04-05T1000,1003A,116.4174,39.9289,北京市,东四,,33,21,74,19,39,104,104,65,65,3,20,5,7,0.1,0.3
2026-04-05T1000,1004A,116.4073,39.8858,北京市,天坛,,29,20,70,3,31,90,90,42,42,8,22,3,4,0.4,0.6
2026-04-05T1000,1005A,116.4622,39.9364,北京市,农展馆,,31,20,72,3,32,97,97,52,52,5,19,2,3,0.2,0.5
2026-04-05T1000,1006A,116.3399,39.9293,北京市,官园,NA,NA,NA,78,NA,35,NA,NA,115,43,NA,26,NA,3,NA,0.5
2026-04-05T1000,1007A,116.2879,39.9613,北京市,海淀万柳,,26,15,80,3,33,83,83,30,30,7,31,3,3,0.2,0.4
2026-04-05T1000,1008A,116.6635,40.1349,北京市,顺义新城,,31,15,80,3,39,97,97,53,53,4,19,3,5,0.3,0.5
2026-04-05T1000,1009A,116.6275,40.327,北京市,怀柔镇,,28,9,69,3,34,88,88,58,58,5,16,4,5,0.3,0.5
2026-04-05T1000,1010A,116.2295,40.217,北京市,昌平镇,,30,22,77,3,30,95,95,63,63,5,20,2,3,0.2,0.3
2026-04-05T1000,1011A,116.3968,39.982,北京市,奥体中心,,29,22,72,3,31,92,92,46,46,4,24,3,4,0.3,0.5
2026-04-05T1000,3418A,116.8336,40.4095,北京市,密云新城,,29,12,79,3,36,91,91,53,53,1,13,2,3,0.3,0.5
2026-04-05T1000,3671A,116.0879,39.9725,北京市,门头沟三家店,,29,18,97,3,37,92,92,46,46,2,21,2,3,0.2,0.4
2026-04-05T1000,3672A,116.1507,39.8246,北京市,丰台云岗,,31,19,88,3,34,97,97,48,48,2,19,1,2,0.3,0.5
2026-04-05T1000,3674A,115.9578,39.7602,北京市,房山燕山,,28,16,91,8,39,88,88,47,47,3,18,4,5,0.2,0.4
2026-04-05T1000,3675A,116.4669,39.7734,北京市,大兴旧宫,,31,22,71,3,31,97,97,50,50,2,19,3,4,0.3,0.5
2026-04-05T1000,3694A,115.9859,40.4562,北京市,延庆石河营,,31,24,72,3,26,98,98,93,93,4,11,1,1,0.3,0.4
2026-04-05T1000,3695A,116.6151,40.3052,北京市,怀柔新城,,30,10,73,3,23,94,94,59,59,3,15,3,5,0.3,0.6
2026-04-05T1000,3696A,116.2542,39.8764,北京市,丰台小屯,,27,19,80,3,33,86,86,47,47,7,22,2,3,0.2,0.4
2026-04-05T1000,3697A,116.8399,40.3843,北京市,密云镇,,30,21,80,7,35,96,96,54,54,5,19,3,4,0.3,0.5
2026-04-05T1000,4057A,115.9423,40.4431,北京市,延庆百泉,,28,14,72,3,25,89,89,89,89,9,14,1,1,0.2,0.3
2026-04-05T1000,4058A,116.6598,39.9164,北京市,通州新华,,29,29,77,10,37,85,85,46,46,8,23,3,5,0.4,0.5
2026-04-05T1000,4182A,116.1942,39.9158,北京市,石景山八角,,26,19,94,8,35,82,82,34,34,8,30,3,3,0.2,0.4
2026-04-05T1000,4194A,117.078628,40.151726,北京市,平谷新城,,27,27,79,11,40,84,84,64,61,11,18,1,3,0.4,0.5
2026-04-05T1000,1761A,123.8274146,41.31234549,本溪市,大峪,,29,22,34,11,22,91,91,75,75,4,13,6,6,0.5,0.6
2026-04-05T1000,1763A,123.7169,41.3094,本溪市,彩屯,,47,47,45,31,30,66,66,67,67,27,20,20,13,2.9,1.3
2026-04-05T1000,1764A,123.7672166,41.28649327,本溪市,东明,,36,36,51,16,29,84,84,90,90,14,21,6,9,0.4,0.6
2026-04-05T1000,1765A,123.799345,41.266614,本溪市,新立屯,,28,27,36,12,20,88,88,93,93,9,19,7,7,0.4,0.5
2026-04-05T1000,1766A,123.829144,41.336777,本溪市,威宁,,33,33,46,19,21,81,81,67,67,10,17,7,7,0.4,0.5
2026-04-05T1000,2587A,105.287,27.3133,毕节市,八中,,38,38,36,24,27,88,88,89,89,8,9,11,12,0.6,0.6
2026-04-05T1000,2588A,105.3079,27.2987,毕节市,师专,,36,36,36,19,23,95,95,97,97,11,9,10,10,0.5,0.4
2026-04-05T1000,4263A,105.3688,27.3598,毕节市,工业大道,,40,40,40,24,22,107,107,104,104,6,8,11,11,/,/
2026-04-05T1000,1629A,117.9961,37.3604,滨州市,第二水厂,颗粒物(PM10),90,105,52,39,20,80,80,54,54,18,25,15,13,0.4,0.3
2026-04-05T1000,1630A,117.9789,37.3931,滨州市,北中新校,颗粒物(PM10),80,92,50,35,20,68,68,39,39,18,27,12,10,0.5,0.4
2026-04-05T1000,3514A,117.9379,37.3959,滨州市,中海酒店,颗粒物(PM10),84,97,45,37,19,80,80,57,57,21,26,16,12,0.6,0.5
2026-04-05T1000,3515A,117.9381509,37.35547456,滨州市,开发区一中,颗粒物(PM10),101,122,59,34,17,76,76,59,59,20,25,17,16,0.6,0.6
2026-04-05T1000,3516A,118.0914,37.6938,滨州市,金海六路,颗粒物(PM10),97,115,48,32,25,86,86,41,41,14,21,15,11,0.3,0.3
2026-04-05T1000,4028A,117.9955,37.3752,滨州市,滨州市西街道办事处,颗粒物(PM10),95,112,56,31,21,83,83,56,56,12,19,16,12,0.4,0.3
2026-04-05T1000,2311A,115.8071,33.8399,亳州市,污水处理厂,颗粒物(PM10),88,103,76,25,19,86,86,82,81,13,14,7,7,0.2,0.2
2026-04-05T1000,2312A,115.7789,33.8519,亳州市,三国揽胜宫,颗粒物(PM10),100,119,77,32,18,80,80,80,79,8,10,8,7,0.3,0.2
2026-04-05T1000,3332A,115.7631,33.803,亳州市,亳州学院,颗粒物(PM10),78,88,69,29,18,79,79,69,69,7,8,9,8,0.4,0.2
2026-04-05T1000,2693A,82.0482,44.8553,博尔塔拉蒙古自治州,市党校,颗粒物(PM10),70,77,92,9,15,64,64,73,66,4,4,3,4,0.4,0.2
2026-04-05T1000,2694A,82.0805,44.8966,博尔塔拉蒙古自治州,市环保局,颗粒物(PM10),63,68,89,18,25,44,44,54,51,22,20,2,3,0.2,0.3
2026-04-05T1000,1071A,116.8733,38.2922,沧州市,沧县城建局,细颗粒物(PM2.5),92,102,63,56,37,55,55,30,30,40,30,7,7,0.6,0.4
2026-04-05T1000,1072A,116.8462,38.3189,沧州市,电视转播站,细颗粒物(PM2.5),98,104,62,59,39,47,47,32,30,39,26,13,8,0.5,0.4
2026-04-05T1000,1073A,116.8588,38.3161,沧州市,市环保局,NA,NA,93,68,55,34,48,48,32,29,42,25,NA,7,0.5,0.4
2026-04-05T1000,3324A,116.8011,38.294,沧州市,河北水利电力学院,颗粒物(PM10),101,122,68,57,41,54,54,46,43,36,25,9,8,0.5,0.4
2026-04-05T1000,2622A,97.1813,31.1289,昌都市,昌都监测站,,22,10,10,3,4,70,70,78,72,7,6,7,6,0.4,0.3
2026-04-05T1000,3719A,97.1707,31.1428,昌都市,昌都会议中心,NA,NA,NA,12,NA,8,NA,NA,105,NA,NA,5,NA,5,NA,0.3
2026-04-05T1000,2692A,87.2722,44.0298,昌吉回族自治州,新区政务中心,,32,32,35,3,16,50,50,57,57,26,23,6,5,1.4,0.5
2026-04-05T1000,3613A,87.3069,44.0093,昌吉回族自治州,亚心广场,,46,46,42,6,14,43,43,49,48,27,20,9,8,0.7,0.3
2026-04-05T1000,4164A,87.2057,43.9289,昌吉回族自治州,财政所,,31,31,39,3,9,41,41,43,43,16,12,10,9,1.4,0.4
2026-04-05T1000,1120A,125.2874,43.9024,长春市,客车厂,,35,32,29,24,25,76,76,73,73,10,16,7,7,0.4,0.4
2026-04-05T1000,1121A,125.2943,43.8508,长春市,邮电学院,,35,32,26,24,22,78,78,76,76,11,10,8,7,0.5,0.4
2026-04-05T1000,1122A,125.3648,43.8745,长春市,劳动公园,,30,27,31,21,26,75,75,69,69,10,13,8,8,0.5,0.5
2026-04-05T1000,1123A,125.3233,43.8781,长春市,园林处,,33,32,29,23,26,79,79,73,73,11,14,7,7,0.5,0.4
2026-04-05T1000,1124A,125.4604,43.7904,长春市,净月潭,,33,NA,24,23,22,75,75,68,68,9,10,7,6,0.4,0.4
2026-04-05T1000,1126A,125.38,43.8422,长春市,经开区环卫处,,29,29,29,20,23,75,75,67,67,10,15,6,6,0.5,0.4
2026-04-05T1000,1127A,125.234,43.7761,长春市,高新区管委会,,33,33,25,22,20,71,71,68,68,7,9,7,6,0.5,0.4
2026-04-05T1000,1128A,125.1695,43.83,长春市,岱山公园,颗粒物(PM10),51,51,30,23,23,74,74,72,72,14,17,5,5,0.4,0.4
2026-04-05T1000,4281A,125.334645,43.916281,长春市,北亚泰大街1068号,,33,33,35,21,28,76,76,72,72,15,18,8,8,0.4,0.4
2026-04-05T1000,1335A,113.082,28.2421,长沙市,经开区环保局,颗粒物(PM10),70,78,73,32,23,66,66,72,70,9,11,9,12,0.4,0.5
2026-04-05T1000,1336A,112.8873,28.2202,长沙市,高开区环保局,颗粒物(PM10),74,83,77,30,23,70,70,72,70,15,14,9,7,0.7,0.6
2026-04-05T1000,1337A,113.0785,28.2012,长沙市,马坡岭,颗粒物(PM10),68,75,73,34,23,65,65,71,67,12,15,10,7,0.8,0.7
2026-04-05T1000,1338A,112.9448,28.1894,长沙市,湖南师范大学,颗粒物(PM10),75,85,74,31,24,68,68,63,60,17,14,9,6,0.7,0.7
2026-04-05T1000,1339A,113.0177,28.1322,长沙市,雨花区环保局,颗粒物(PM10),75,85,78,27,22,72,72,NA,NA,10,11,8,6,0.8,0.8
2026-04-05T1000,1340A,112.9795,28.2593,长沙市,伍家岭,颗粒物(PM10),73,81,83,29,27,60,60,52,52,18,26,8,6,0.5,0.6
2026-04-05T1000,1341A,113.002,28.1944,长沙市,火车新站,NA,NA,83,77,29,23,66,66,71,67,12,16,8,6,NA,0.6
2026-04-05T1000,1342A,112.9846,28.1177,长沙市,天心区环保局,颗粒物(PM10),73,81,78,30,24,68,68,76,70,19,17,10,7,0.7,0.7
2026-04-05T1000,1343A,112.8906,28.1307,长沙市,湖南中医药大学,颗粒物(PM10),73,82,78,27,24,64,64,32,29,16,32,10,7,0.7,0.8
2026-04-05T1000,1727A,113.1146,36.1547,长治市,清华站,颗粒物(PM10),93,110,64,43,17,89,89,83,81,10,9,9,10,0.4,0.5
2026-04-05T1000,1730A,113.0887,36.2126,长治市,审计局,细颗粒物(PM2.5),90,98,63,55,24,88,88,83,82,14,12,11,11,0.5,0.5
2026-04-05T1000,1731A,113.0845,36.1856,长治市,长治八中,颗粒物(PM10),106,134,86,35,18,88,88,79,78,11,12,11,12,0.5,0.5
2026-04-05T1000,2845A,113.1561,36.1912,长治市,德盛苑,颗粒物(PM10),98,117,69,45,20,96,96,92,92,14,14,10,11,0.3,0.4
2026-04-05T1000,3568A,113.0603,36.0464,长治市,向阳小学,颗粒物(PM10),115,159,92,41,18,91,91,82,81,15,15,9,11,0.5,0.6
2026-04-05T1000,3569A,112.8788,36.315,长治市,屯留一中,颗粒物(PM10),107,138,79,33,20,86,86,70,70,15,13,9,10,0.2,0.3
2026-04-05T1000,4189A,113.113092,36.199482,长治市,英华南巷50号,颗粒物(PM10),102,124,78,47,19,94,94,81,81,10,10,8,8,0.3,0.4
2026-04-05T1000,4190A,113.23666,36.33435,长治市,学府街1号,颗粒物(PM10),90,106,80,28,18,85,85,82,80,17,11,5,5,0.7,0.6
2026-04-05T1000,1854A,111.696,28.9725,常德市,市二中,细颗粒物(PM2.5),68,64,69,44,28,25,25,51,39,19,12,10,11,1.2,1.1
2026-04-05T1000,3138A,111.7152,29.0288,常德市,武陵区永安,颗粒物(PM10),71,79,73,35,30,49,49,51,43,23,14,15,11,0.9,0.8
2026-04-05T1000,3139A,111.6891,28.9881,常德市,鼎城区玉霞,"颗粒物(PM10),细颗粒物(PM2.5)",68,74,68,44,30,24,24,22,20,21,28,10,10,1.2,0.8
2026-04-05T1000,3140A,111.6651,29.0526,常德市,武陵区长庚,细颗粒物(PM2.5),70,74,69,45,31,28,28,35,30,19,12,10,10,1.1,0.9
2026-04-05T1000,1196A,119.9524,31.7586,常州市,市监测站,颗粒物(PM10),98,116,117,42,43,92,92,72,72,13,26,10,8,0.7,0.8
2026-04-05T1000,1200A,119.9351,31.703,常州市,武进监测站,颗粒物(PM10),95,113,91,46,37,94,94,79,79,15,21,18,9,0.5,0.5
2026-04-05T1000,3002A,119.9701,31.813,常州市,行政中心,颗粒物(PM10),97,115,107,46,44,84,84,63,63,16,25,7,7,0.5,0.5
2026-04-05T1000,3003A,120.0434,31.7726,常州市,经开区,颗粒物(PM10),95,112,111,53,43,90,90,63,63,16,28,8,6,0.9,0.9
2026-04-05T1000,3010A,119.8919,31.7892,常州市,钟楼,颗粒物(PM10),78,89,91,37,36,90,90,81,81,34,38,11,8,0.2,0.3
2026-04-05T1000,3429A,119.8595,31.706,常州市,武进经发区,颗粒物(PM10),78,88,84,35,38,91,91,70,70,18,27,8,8,0.9,0.8
2026-04-05T1000,3430A,119.5812,31.7256,常州市,金坛城区,颗粒物(PM10),55,56,76,30,39,86,86,68,68,12,14,16,9,0.8,0.8
2026-04-05T1000,4089A,119.9551,31.863,常州市,崇义南街5-H号,颗粒物(PM10),101,121,104,33,43,92,92,54,54,13,29,7,7,0.6,0.6
2026-04-05T1000,2220A,120.4318,41.588,朝阳市,西梁,,43,43,37,3,21,96,96,80,80,8,14,6,8,0.5,0.7
2026-04-05T1000,2221A,120.452,41.565,朝阳市,河畔小区,,46,46,35,3,19,99,99,87,87,9,12,7,8,0.4,0.6
2026-04-05T1000,2222A,120.4176,41.5648,朝阳市,八里堡,,49,49,36,3,22,96,96,79,79,10,16,8,8,0.5,0.6
2026-04-05T1000,3026A,116.6179,23.6608,潮州市,市政府,,42,42,23,19,12,63,63,41,39,13,11,9,8,0.7,0.6
2026-04-05T1000,4036A,116.646,23.676,潮州市,金山,,31,31,18,15,11,57,57,27,26,12,10,6,3,0.7,0.6
2026-04-05T1000,2473A,113.0116,25.8228,郴州市,市职中,,46,46,35,21,20,43,43,8,8,6,8,11,7,0.6,0.7
2026-04-05T1000,2475A,113.0381,25.8074,郴州市,市审计局,颗粒物(PM10),62,66,43,22,20,62,62,19,19,30,18,8,7,/,/
2026-04-05T1000,2476A,113.0348,25.7757,郴州市,市环保局,颗粒物(PM10),60,64,48,20,18,70,70,46,46,11,13,14,14,0.3,0.3
2026-04-05T1000,4252A,113.0138,25.8011,郴州市,好美居路49号,,49,49,34,16,22,59,59,28,28,14,16,9,8,/,/
2026-04-05T1000,1431A,103.9727,30.7242,成都市,金泉两河,细颗粒物(PM2.5),88,100,96,54,41,40,40,46,39,31,23,15,4,0.5,0.4
2026-04-05T1000,1432A,104.1423,30.6765,成都市,十里店,颗粒物(PM10),100,120,97,57,43,27,27,53,46,43,24,9,7,0.8,0.7
2026-04-05T1000,1433A,104.0594,30.5765,成都市,三瓦窑,细颗粒物(PM2.5),100,112,88,60,41,9,9,4,4,53,36,6,4,1.0,0.8
2026-04-05T1000,1434A,104.1122,30.6306,成都市,沙河铺,颗粒物(PM10),102,123,89,61,42,3,3,18,18,60,37,3,3,0.8,0.6
2026-04-05T1000,2880A,104.0219,30.6561,成都市,大石西路,细颗粒物(PM2.5),94,110,99,57,49,37,37,44,38,38,28,7,5,0.8,0.7
2026-04-05T1000,3136A,104.2724,30.559,成都市,龙泉驿区区政府,颗粒物(PM10),88,102,84,46,34,36,36,62,53,28,12,8,8,0.6,0.5
2026-04-05T1000,3357A,104.0028,30.6891,成都市,金博路,细颗粒物(PM2.5),84,92,91,52,44,28,28,44,36,44,33,9,7,0.8,0.6
2026-04-05T1000,3359A,104.056,30.5228,成都市,华阳,细颗粒物(PM2.5),88,83,81,54,42,7,7,7,6,47,37,4,5,0.7,0.6
2026-04-05T1000,3488A,104.387954,30.746684,成都市,青石路225号,细颗粒物(PM2.5),100,105,83,60,36,14,14,21,14,49,34,8,6,0.9,0.5
2026-04-05T1000,3489A,104.0788,30.4054,成都市,科学城,颗粒物(PM10),66,72,73,40,35,24,24,34,31,27,22,8,8,0.7,0.5
2026-04-05T1000,4011A,103.8505,30.6946,成都市,光华大道三段,颗粒物(PM10),75,84,93,42,39,24,24,63,49,52,28,5,5,0.8,0.5
2026-04-05T1000,4144A,104.3257,30.6406,成都市,八角井街185号,颗粒物(PM10),109,142,86,51,31,10,10,46,32,48,18,6,5,0.8,0.5
2026-04-05T1000,4224A,104.2433276,30.53529463,成都市,鲸龙路1057号,颗粒物(PM10),101,122,92,49,33,19,19,36,32,46,25,7,6,0.8,0.5
2026-04-05T1000,1062A,117.9531,40.908,承德市,铁路,,30,21,67,3,25,93,93,88,87,7,17,4,9,0.2,0.4
2026-04-05T1000,1063A,117.9397,40.9763,承德市,中国银行,,46,46,64,3,27,89,89,73,73,5,13,2,6,0.2,0.4
2026-04-05T1000,4073A,117.9462,40.95,承德市,杏林街1号,,35,35,68,3,32,96,96,91,88,5,12,1,6,0.2,0.5
2026-04-05T1000,4274A,117.7994,40.9605,承德市,滨河大街98号,,31,26,52,3,26,97,97,84,84,5,12,5,17,0.2,0.4
2026-04-05T1000,2314A,117.4698,30.6617,池州市,池州学院,颗粒物(PM10),66,72,66,24,26,80,80,61,61,20,23,4,5,0.6,0.7
2026-04-05T1000,3237A,117.4918,30.6617,池州市,展览馆,颗粒物(PM10),69,76,64,26,25,82,82,48,48,15,19,3,3,0.6,0.7
2026-04-05T1000,3333A,117.5626,30.695,池州市,第八中学,颗粒物(PM10),75,84,69,27,22,86,86,44,44,15,20,4,5,0.6,0.7
2026-04-05T1000,3334A,117.5037,30.6242,池州市,第十二中学,颗粒物(PM10),84,97,71,31,23,70,70,37,37,18,22,5,5,0.7,1.1
2026-04-05T1000,1744A,118.9229,42.2816,赤峰市,松山一中,,32,21,66,3,16,102,102,107,101,7,9,6,6,0.4,0.4
2026-04-05T1000,1745A,118.9588,42.2733,赤峰市,哈达街,,25,25,68,3,17,77,77,81,76,9,11,8,9,0.4,0.4
2026-04-05T1000,1746A,118.8792,42.2551,赤峰市,天义路,,29,20,47,9,14,90,90,94,89,5,7,5,5,0.3,0.3
2026-04-05T1000,3058A,119.2656,42.0356,赤峰市,银河街,,34,34,78,6,25,94,94,100,95,5,9,6,18,0.4,0.6
2026-04-05T1000,3286A,118.9359,42.3146,赤峰市,桥北物流园区,,31,6,49,3,16,99,99,103,98,1,6,4,4,0.2,0.2
2026-04-05T1000,2521A,107.3473,22.4137,崇左市,市环保局江州分局,颗粒物(PM10),55,56,40,36,24,43,43,30,29,15,14,10,6,0.7,0.7
2026-04-05T1000,4256A,107.375,22.3736,崇左市,石景林东路7号,,49,38,32,34,22,63,63,32,32,12,15,3,3,0.8,0.8
2026-04-05T1000,3207A,118.31131,32.3033,滁州市,市政府原办公楼,颗粒物(PM10),75,85,85,38,44,80,80,45,45,12,23,8,6,0.5,0.5
2026-04-05T1000,3331A,118.3268,32.2633,滁州市,图书馆,颗粒物(PM10),89,104,90,24,31,83,83,51,51,11,20,13,11,0.5,0.5
2026-04-05T1000,4101A,118.3196,32.3335,滁州市,银山路666号,颗粒物(PM10),85,99,89,32,33,85,85,44,44,14,22,11,9,0.7,0.6
2026-04-05T1000,4102A,118.3426,32.2979,滁州市,黄山路555号,颗粒物(PM10),103,127,114,32,37,87,87,50,50,10,21,10,8,0.7,0.7
2026-04-05T1000,2606A,101.5379,25.0492,楚雄彝族自治州,市经济开发区,细颗粒物(PM2.5),56,49,39,38,25,80,80,83,74,15,8,6,6,0.6,0.5
2026-04-05T1000,4153A,101.5536,25.0343,楚雄彝族自治州,团结路562号,,45,40,34,31,24,89,89,101,92,11,5,2,2,0.4,0.3
2026-04-05T1000,2549A,107.5087,31.2186,达州市,市环境监测站,颗粒物(PM10),63,68,96,26,30,11,11,24,24,31,29,7,7,0.3,0.3
2026-04-05T1000,2550A,107.4988,31.2132,达州市,凤凰小区,颗粒物(PM10),67,73,100,29,30,16,16,24,24,30,31,6,7,0.4,0.4
2026-04-05T1000,2551A,107.5081,31.1987,达州市,达县机关宾馆,颗粒物(PM10),63,68,100,39,36,18,18,24,23,33,38,5,6,0.4,0.4
2026-04-05T1000,2552A,107.4644,31.2124,达州市,市政中心,颗粒物(PM10),67,73,97,26,28,13,13,19,19,37,37,5,6,0.6,0.5
2026-04-05T1000,2614A,100.2168,25.5818,大理白族自治州,大理市环境监测站,,45,43,40,31,29,75,75,86,82,19,10,3,3,0.5,0.4
2026-04-05T1000,2615A,100.1542,25.7055,大理白族自治州,大理古城,NA,NA,40,32,24,21,NA,NA,94,91,9,6,NA,8,0.7,0.6
2026-04-05T1000,1109A,121.6119,38.974,大连市,甘井子,,40,40,37,28,29,97,97,79,79,18,23,8,8,0.4,0.5
2026-04-05T1000,1110A,121.565,38.9509,大连市,周水子,,42,41,40,29,30,80,80,64,64,23,26,8,5,0.5,0.6
2026-04-05T1000,1111A,121.5637,38.8849,大连市,星海三站,,35,35,37,14,25,90,90,73,73,14,15,4,5,0.3,0.3
2026-04-05T1000,1112A,121.6301,38.9117,大连市,青泥洼桥,,42,40,34,29,26,102,102,84,84,12,17,5,4,0.4,0.4
2026-04-05T1000,1113A,121.6248,38.8643,大连市,傅家庄,,38,38,31,25,24,90,90,71,71,12,15,8,7,0.4,0.4
2026-04-05T1000,1114A,121.5117,38.8636,大连市,七贤岭,,39,37,25,27,18,93,93,70,70,18,15,6,6,0.5,0.4
2026-04-05T1000,1116A,121.7507,39.1339,大连市,金州,,36,33,35,25,29,92,92,88,88,16,15,6,6,0.4,0.4
2026-04-05T1000,1117A,121.7811,39.0495,大连市,开发区,,36,36,40,24,28,82,82,59,59,14,19,6,7,0.3,0.4
2026-04-05T1000,1118A,121.9762,39.0631,大连市,双D港,,35,35,36,21,23,72,72,62,62,23,18,6,5,0.4,0.5
2026-04-05T1000,4082A,121.2548,38.8188,大连市,旅顺,,36,36,35,25,29,82,82,64,64,17,16,6,4,0.5,0.5
2026-04-05T1000,1789A,124.8085,46.0381,大庆市,大同区,细颗粒物(PM2.5),54,42,51,37,36,61,61,78,71,20,16,5,5,0.4,0.3
2026-04-05T1000,1790A,125.1166,46.5255,大庆市,龙凤区,颗粒物(PM10),58,60,53,37,38,72,72,71,70,17,14,4,5,0.3,0.3
2026-04-05T1000,1791A,124.8894,46.4007,大庆市,红岗区,细颗粒物(PM2.5),62,60,49,41,38,65,65,69,68,11,8,9,8,0.4,0.4
2026-04-05T1000,1792A,125.1391,46.578,大庆市,萨尔图区,颗粒物(PM10),55,57,56,36,34,77,77,78,74,13,13,7,8,0.2,0.2
2026-04-05T1000,1793A,124.9026,46.6217,大庆市,让胡路区,细颗粒物(PM2.5),64,58,53,42,40,72,72,74,74,14,14,4,6,0.4,0.4
2026-04-05T1000,3481A,125.127,46.6277,大庆市,萨区政府监测点,颗粒物(PM10),56,58,47,36,30,74,74,78,72,10,8,9,9,0.4,0.4
2026-04-05T1000,1723A,113.2926,40.0759,大同市,云冈宾馆,,34,34,125,8,25,95,95,92,92,5,9,4,5,0.2,0.3
2026-04-05T1000,1724A,113.3437,40.0921,大同市,大同大学,,45,45,153,6,18,98,98,94,93,7,11,2,4,0.3,0.4
2026-04-05T1000,1725A,113.2637,40.129,大同市,安家小村,,35,35,149,3,23,88,88,94,92,4,8,3,6,0.3,0.3
2026-04-05T1000,3282A,113.3399,40.0586,大同市,大同市卫生学校,,32,32,152,3,19,102,102,99,98,5,9,3,4,0.3,0.4
2026-04-05T1000,3565A,113.1371,40.1122,大同市,云冈站,NA,NA,NA,138,NA,27,NA,NA,85,82,NA,5,NA,7,NA,0.3
2026-04-05T1000,3566A,113.1186,40.2556,大同市,图书馆,NA,NA,49,135,3,21,NA,NA,89,88,3,6,3,5,0.7,0.7
2026-04-05T1000,3567A,113.5931,40.0459,大同市,区一中,,41,41,154,6,24,102,102,92,90,4,6,12,10,0.7,0.6
2026-04-05T1000,4199A,113.2798248,40.09972476,大同市,魏都大道141号,,43,43,161,3,22,95,95,89,88,4,8,7,8,0.3,0.3
2026-04-05T1000,2269A,124.1068,50.4091,大兴安岭地区,科技局,,43,33,81,30,62,73,73,80,72,6,9,7,8,0.5,0.5
2026-04-05T1000,3663A,124.117,50.4279,大兴安岭地区,红旗社区,,36,34,65,25,56,81,81,80,74,8,13,10,12,0.3,0.3
2026-04-05T1000,1600A,124.33,40.0625,丹东市,江湾东路,NA,NA,38,28,29,21,NA,NA,69,68,12,11,13,13,0.4,0.6
2026-04-05T1000,1601A,124.4242,40.1513,丹东市,临江后街,,49,39,26,34,20,92,92,62,62,11,11,6,4,0.4,0.4
2026-04-05T1000,1602A,124.3935,40.1461,丹东市,元宝山,细颗粒物(PM2.5),58,44,25,39,19,89,89,63,63,13,12,8,6,0.7,0.6
2026-04-05T1000,1603A,124.3634,40.1093,丹东市,民主桥,,42,42,31,28,21,99,99,63,63,10,14,6,6,0.3,0.4
2026-04-05T1000,3541A,109.5726195,19.51688767,儋州市,第一中学子站,细颗粒物(PM2.5),58,58,55,39,39,73,73,62,61,13,9,7,7,0.8,0.7
2026-04-05T1000,3542A,109.5567,19.5187,儋州市,东坡学校子站,细颗粒物(PM2.5),64,59,53,42,38,78,78,64,62,14,9,6,7,0.8,0.7
2026-04-05T1000,2616A,98.5611,24.4273,德宏傣族景颇族自治州,德宏州监测站,NA,NA,NA,60,NA,20,NA,NA,37,NA,NA,12,NA,6,NA,1.7
2026-04-05T1000,3677A,98.5887,24.4366,德宏傣族景颇族自治州,芒市人民政府综合楼,细颗粒物(PM2.5),106,83,85,66,52,40,40,52,44,24,14,7,7,1.2,0.8
2026-04-05T1000,1901A,104.424,31.1209,德阳市,东山公园,颗粒物(PM10),85,98,103,42,40,74,74,79,76,15,14,5,6,0.6,0.6
2026-04-05T1000,1902A,104.3827,31.1318,德阳市,西小区,颗粒物(PM10),87,101,114,40,42,69,69,62,62,21,22,4,7,0.7,0.6
2026-04-05T1000,1904A,104.3553,31.1091,德阳市,耐火材料厂,颗粒物(PM10),85,98,117,39,48,76,76,67,67,24,21,3,10,0.6,0.6
2026-04-05T1000,4145A,104.4144,31.1495,德阳市,市林业局,颗粒物(PM10),78,89,97,42,39,71,71,59,59,15,21,4,5,0.5,0.5
2026-04-05T1000,1622A,116.3034,37.4675,德州市,儿童乐园,颗粒物(PM10),95,112,84,36,26,74,74,73,67,20,16,14,14,0.6,0.5
2026-04-05T1000,1624A,116.2992,37.4449,德州市,监理站,颗粒物(PM10),101,122,77,30,23,86,86,77,73,24,20,13,12,0.6,0.5
2026-04-05T1000,3066A,116.2722,37.438,德州市,九衢泉纯净水厂,颗粒物(PM10),96,114,69,29,22,80,80,64,59,14,17,8,6,0.5,0.5
2026-04-05T1000,3371A,116.3693,37.44,德州市,开发区人民医院,颗粒物(PM10),104,129,79,31,23,88,88,76,70,24,20,13,10,0.4,0.5
2026-04-05T1000,3511A,116.5687,37.3331,德州市,陵城艺术中心,颗粒物(PM10),104,129,66,33,23,67,67,64,60,18,15,8,6,0.6,0.7
2026-04-05T1000,4292A,116.352738,37.420875,德州市,新河东路,NA,NA,NA,71,31,22,88,88,71,67,21,16,14,10,0.7,0.7
2026-04-05T1000,2621A,99.7054,27.8319,迪庆藏族自治州,迪庆州站,,27,18,21,13,12,86,86,60,60,8,8,5,6,0.6,0.5
2026-04-05T1000,3180A,99.7122,27.8129,迪庆藏族自治州,质量技术监督局,,29,24,20,7,9,90,90,74,73,17,8,6,6,0.5,0.4
2026-04-05T1000,4257A,104.6092,35.5962,定西市,将台街,颗粒物(PM10),114,154,96,40,27,60,60,40,40,16,16,11,10,0.6,0.6
2026-04-05T1000,4309A,104.6159,35.5701,定西市,正龙路62号,颗粒物(PM10),120,172,102,55,26,64,64,42,42,16,12,4,3,0.3,0.4
2026-04-05T1000,4071A,114.9883,38.5232,定州市,交通局,颗粒物(PM10),128,192,111,12,34,87,87,51,51,13,26,6,6,0.5,0.4
2026-04-05T1000,4072A,115.0045,38.5136,定州市,第五中学,颗粒物(PM10),128,192,115,11,32,90,90,46,46,6,22,4,3,0.4,0.4
2026-04-05T1000,1390A,113.7943,23.0132,东莞市,东城石井,,44,44,32,30,22,29,29,16,16,21,23,4,4,0.8,0.7
2026-04-05T1000,1391A,113.7384,22.9659,东莞市,南城西平,,48,45,35,33,25,27,27,12,12,21,28,4,4,0.9,0.8
2026-04-05T1000,3319A,113.7283,23.041,东莞市,万江金泰,细颗粒物(PM2.5),54,45,35,37,25,31,31,24,23,20,21,7,6,0.9,0.8
2026-04-05T1000,4129A,113.8666,23.1062,东莞市,裕兴路,,49,49,35,28,21,36,36,20,20,14,19,7,6,0.9,0.9
2026-04-05T1000,4130A,114.0076,22.9739,东莞市,教育路1号,细颗粒物(PM2.5),58,52,36,39,25,28,28,18,17,14,21,7,6,0.9,0.8
2026-04-05T1000,4131A,113.7981,22.8124,东莞市,长怡路1号,,41,41,44,24,28,40,40,17,17,17,28,5,5,0.9,0.9
2026-04-05T1000,1666A,118.6612,37.4313,东营市,市环保局,颗粒物(PM10),80,92,38,28,18,82,82,53,53,20,19,16,18,0.4,0.4
2026-04-05T1000,3036A,118.6903,37.4337,东营市,开发区管委会,颗粒物(PM10),90,106,42,30,18,90,90,64,64,25,23,14,10,0.6,0.6
2026-04-05T1000,3365A,118.5721,37.5654,东营市,垦利区民丰路,颗粒物(PM10),79,90,37,26,17,91,91,56,56,16,20,8,6,0.6,0.6
2026-04-05T1000,3498A,118.5063,37.8606,东营市,河口城区,NA,NA,107,39,25,16,98,98,66,66,13,13,NA,7,0.7,0.7
2026-04-05T1000,3646A,118.4979,37.4623,东营市,胜利站,颗粒物(PM10),77,87,42,32,17,76,76,44,44,23,24,16,12,0.7,0.7
2026-04-05T1000,3734A,118.5753,37.4405,东营市,理想之城,颗粒物(PM10),86,100,41,30,15,93,93,58,58,27,29,14,9,0.9,0.8
2026-04-05T1000,1591A,110.0024,39.8127,鄂尔多斯市,综合楼,颗粒物(PM10),63,68,210,16,26,98,98,98,97,7,10,7,7,0.2,0.2
2026-04-05T1000,1592A,109.9485,39.8259,鄂尔多斯市,巴音孟克林场办事处,颗粒物(PM10),62,66,174,3,25,101,101,93,92,5,9,5,5,0.4,0.4
2026-04-05T1000,1593A,109.7734,39.5987,鄂尔多斯市,康泽苑,颗粒物(PM10),93,110,197,13,27,101,101,86,85,6,7,6,6,0.3,0.3
2026-04-05T1000,1594A,109.8121,39.5987,鄂尔多斯市,华泰汽车城,颗粒物(PM10),93,110,187,13,27,90,90,75,74,6,9,6,6,0.3,0.3
2026-04-05T1000,1595A,109.9734,39.7884,鄂尔多斯市,奥林花园,颗粒物(PM10),58,61,179,3,21,102,102,100,100,10,12,4,4,0.3,0.3
2026-04-05T1000,2436A,114.894,30.3989,鄂州市,市政府,颗粒物(PM10),58,60,65,33,24,82,82,74,74,12,16,13,12,0.4,0.4
2026-04-05T1000,2437A,114.8986,30.3714,鄂州市,赵家坝,颗粒物(PM10),58,60,73,36,23,77,77,68,68,7,8,14,12,0.7,0.6
2026-04-05T1000,3654A,114.8093,30.4091,鄂州市,精准医疗中心,细颗粒物(PM2.5),70,69,68,45,30,60,60,51,51,36,20,51,13,2.8,1.4
2026-04-05T1000,2454A,109.4978,30.2979,恩施土家族苗族自治州,湖北民院,颗粒物(PM10),63,67,69,26,29,11,11,25,22,20,7,7,7,0.8,0.7
2026-04-05T1000,3549A,109.5061,30.3771,恩施土家族苗族自治州,龙凤新区,颗粒物(PM10),53,54,68,28,26,9,9,25,22,19,13,7,7,0.4,0.3
2026-04-05T1000,2499A,108.3411,21.6159,防城港市,沙万,细颗粒物(PM2.5),54,50,42,37,29,51,51,65,57,11,21,7,9,0.6,0.7
2026-04-05T1000,2500A,108.3515,21.7733,防城港市,防城档案局,细颗粒物(PM2.5),54,45,40,37,26,46,46,37,33,8,11,8,7,0.8,0.7
2026-04-05T1000,2501A,108.3506,21.6414,防城港市,大海花园,,44,44,37,23,30,53,53,71,60,19,21,9,13,0.6,0.8
2026-04-05T1000,1371A,113.1293,23.0065,佛山市,湾梁,细颗粒物(PM2.5),64,NA,29,42,26,20,20,10,10,27,32,/,/,/,/
2026-04-05T1000,1372A,113.1082,23.0477,佛山市,华材职中,细颗粒物(PM2.5),76,NA,27,48,29,23,23,18,18,31,34,9,9,0.6,0.6
2026-04-05T1000,1373A,113.1439,23.045,佛山市,南海气象局,细颗粒物(PM2.5),80,56,33,50,27,18,18,15,15,32,33,/,/,/,/
2026-04-05T1000,1374A,113.2879,22.8094,佛山市,顺德苏岗,细颗粒物(PM2.5),58,43,31,39,26,19,19,11,11,29,30,/,/,0.9,0.9
2026-04-05T1000,1376A,112.8384,22.8678,佛山市,高明孔堂,细颗粒物(PM2.5),70,64,33,45,25,17,17,14,10,44,35,/,/,/,/
2026-04-05T1000,1377A,112.8835,23.1584,佛山市,三水监测站,细颗粒物(PM2.5),52,39,32,36,23,18,18,9,9,42,41,4,6,0.8,0.7
2026-04-05T1000,1378A,112.8668,23.185,佛山市,三水云东海,细颗粒物(PM2.5),56,45,32,38,18,23,23,10,10,27,23,/,/,/,/
2026-04-05T1000,3625A,113.2568,22.7629,佛山市,容桂街道办,细颗粒物(PM2.5),66,46,27,43,27,20,20,13,12,37,36,/,/,/,/
2026-04-05T1000,1282A,119.2681,26.0506,福州市,师大,,31,29,22,6,4,97,97,53,53,9,15,4,4,0.4,0.4
2026-04-05T1000,1283A,119.2983,26.1028,福州市,五四北路,,30,28,14,9,2,96,96,54,54,13,15,4,4,0.4,0.4
2026-04-05T1000,1284A,119.2648,26.0769,福州市,杨桥西路,,29,22,18,11,4,91,91,50,50,12,14,4,4,/,/
2026-04-05T1000,3048A,119.5799,26.0937,福州市,九龙,,37,33,17,20,5,118,118,50,50,10,13,7,5,0.4,0.4
2026-04-05T1000,3526A,119.5188,25.9666,福州市,吴航,,29,29,15,20,9,82,82,32,32,20,18,8,5,0.7,0.6
2026-04-05T1000,4104A,119.3106,26.0648,福州市,路通桥巷6号,,30,24,14,15,10,94,94,51,51,10,12,/,/,/,/
2026-04-05T1000,1755A,123.7974,41.8494,抚顺市,望花区,,39,39,42,18,26,82,82,64,64,22,19,12,11,0.8,0.7
2026-04-05T1000,1756A,123.9161,41.8827,抚顺市,顺城区,,31,31,30,14,20,90,90,55,55,14,22,9,10,0.6,0.6
2026-04-05T1000,1757A,124.0437,41.8615,抚顺市,东洲区,,40,40,24,15,14,92,92,75,75,13,10,15,10,0.6,0.5
2026-04-05T1000,1758A,123.9246,41.8638,抚顺市,新抚区,,43,43,34,17,19,92,92,57,57,13,19,10,10,0.5,0.5
2026-04-05T1000,1759A,124.0972,41.8961,抚顺市,大伙房水库,,34,29,23,16,13,106,106,86,86,8,9,8,7,0.3,0.3
2026-04-05T1000,1760A,123.708,41.8386,抚顺市,沈抚新城,,41,41,42,16,24,84,84,72,72,16,20,9,9,0.7,0.7
2026-04-05T1000,2377A,116.3544,27.9833,抚州市,市站,,37,37,40,22,27,55,55,31,31,6,11,5,6,0.8,0.9
2026-04-05T1000,2378A,116.3562,27.9631,抚州市,血防站,,35,35,41,18,23,50,50,27,27,7,11,7,8,0.8,0.8
2026-04-05T1000,2379A,116.3561,28.0007,抚州市,采茶剧团,,44,44,43,26,27,53,53,31,31,3,7,7,7,0.7,0.8
2026-04-05T1000,2380A,116.3854,27.9648,抚州市,医学分院,,30,30,40,21,19,56,56,30,30,11,11,6,6,1.0,1.1
2026-04-05T1000,2207A,121.6095,41.9978,阜新市,工业园区,,46,46,40,28,21,84,84,81,79,18,14,25,14,0.6,0.5
2026-04-05T1000,2208A,121.6567,42.0188,阜新市,长青街,,42,42,27,26,16,88,88,87,85,21,15,22,12,0.5,0.4
2026-04-05T1000,2209A,121.6672,42.07,阜新市,农业园区,颗粒物(PM10),52,52,40,24,18,87,87,86,84,20,15,17,10,0.5,0.5
2026-04-05T1000,2211A,121.6343,42.0455,阜新市,玉龙新城,,43,43,35,25,20,84,84,80,78,20,16,23,13,0.6,0.5
2026-04-05T1000,2301A,115.8276,32.8929,阜阳市,市监测站,颗粒物(PM10),82,94,93,23,25,84,84,74,73,12,17,7,7,0.4,0.3
2026-04-05T1000,2303A,115.8551,32.8606,阜阳市,开发区,颗粒物(PM10),95,112,108,30,23,75,75,74,68,14,13,7,6,0.5,0.4
2026-04-05T1000,2875A,115.783962,32.889217,阜阳市,阜阳职业技术学院,颗粒物(PM10),93,110,97,21,18,84,84,92,85,11,10,8,8,0.5,0.4
2026-04-05T1000,3468A,115.79,32.8614,阜阳市,市规划展馆,颗粒物(PM10),90,105,93,25,25,82,82,71,69,9,13,9,8,0.5,0.4
2026-04-05T1000,3469A,115.835101,32.918568,阜阳市,枣园社区,颗粒物(PM10),89,104,95,24,24,86,86,74,74,9,15,7,7,0.6,0.5
2026-04-05T1000,2669A,102.9097,34.9841,甘南藏族自治州,州政府,颗粒物(PM10),57,59,62,29,26,43,43,28,28,23,15,10,6,0.4,0.4
2026-04-05T1000,3380A,102.8915,34.9618,甘南藏族自治州,甘肃民族师范学院,颗粒物(PM10),94,111,71,38,22,52,52,30,29,30,20,12,3,0.6,0.4
2026-04-05T1000,2570A,101.96,30.048,甘孜藏族自治州,水桥子,,44,44,29,7,10,36,36,26,26,31,19,7,6,0.4,0.3
2026-04-05T1000,3065A,101.9534,29.9976,甘孜藏族自治州,州环保局,,29,29,23,3,7,63,63,44,44,20,18,6,5,0.3,0.2
2026-04-05T1000,2363A,114.9368,25.8663,赣州市,地委,,44,44,39,25,20,35,35,12,12,17,18,3,2,0.8,0.8
2026-04-05T1000,2364A,114.946,25.8483,赣州市,气象台,,45,38,44,31,23,54,54,22,22,20,27,7,5,0.8,0.8
2026-04-05T1000,2365A,114.932,25.8332,赣州市,市图书馆,细颗粒物(PM2.5),60,47,38,40,20,54,54,23,23,18,24,5,4,0.8,0.8
2026-04-05T1000,2366A,114.8905,25.8472,赣州市,华坚鞋城,颗粒物(PM10),55,57,41,35,22,47,47,18,18,15,24,10,8,0.4,0.5
2026-04-05T1000,3109A,115.0094,25.8614,赣州市,赣县区卫计委,颗粒物(PM10),61,65,35,24,16,45,45,17,17,18,21,2,2,0.8,0.8
2026-04-05T1000,2684A,106.2753,36.0057,固原市,监测站,颗粒物(PM10),53,54,139,11,40,99,99,59,59,8,20,4,5,0.3,0.4
2026-04-05T1000,2685A,106.2384,36.0189,固原市,新区,,49,49,135,8,38,101,101,88,88,8,25,4,4,0.2,0.3
2026-04-05T1000,2544A,106.6307,30.4577,广安市,市委,颗粒物(PM10),63,67,99,38,37,45,45,70,60,19,13,7,7,0.7,0.6
2026-04-05T1000,2545A,106.6266,30.4662,广安市,友谊中学,细颗粒物(PM2.5),56,57,84,38,30,42,42,68,60,16,12,8,8,0.6,0.5
2026-04-05T1000,2547A,106.6386,30.4551,广安市,广电花园,颗粒物(PM10),83,96,114,45,38,38,38,60,52,23,15,6,6,0.7,0.7
2026-04-05T1000,2902A,106.6347,30.4868,广安市,北辰小学,颗粒物(PM10),71,79,102,39,37,51,51,69,62,16,11,10,9,0.8,0.7
2026-04-05T1000,2524A,105.8211,32.4444,广元市,老城,细颗粒物(PM2.5),120,154,94,81,42,17,17,17,17,45,35,97,11,1.8,0.7
2026-04-05T1000,2526A,105.8629,32.429,广元市,监测站,颗粒物(PM10),73,81,80,42,32,18,18,44,33,38,17,5,5,1.3,0.7
2026-04-05T1000,3617A,105.8047,32.4167,广元市,经开区,细颗粒物(PM2.5),109,126,97,69,42,12,12,11,10,45,32,40,11,1.1,0.8
2026-04-05T1000,1345A,113.2346,23.1423,广州市,广雅中学,,32,32,33,22,20,34,34,24,24,24,34,2,3,0.9,0.8
2026-04-05T1000,1346A,113.2611,23.105,广州市,市五中,,39,33,29,27,22,30,30,28,28,31,34,4,3,/,/
2026-04-05T1000,1348A,113.3477,23.0916,广州市,广东商学院,,43,32,30,30,24,24,24,18,18,26,33,6,6,0.9,1
2026-04-05T1000,1349A,113.4332,23.105,广州市,市八十六中,,37,37,39,20,19,25,25,18,18,25,36,6,6,/,/
2026-04-05T1000,1350A,113.3506,22.9488,广州市,番禺中学,,45,45,34,26,22,21,21,12,12,29,35,6,5,0.9,0.8
2026-04-05T1000,1351A,113.2147,23.3918,广州市,花都师范,,34,34,30,20,18,32,32,17,17,35,33,8,7,1.0,1
2026-04-05T1000,1352A,113.2599,23.1329,广州市,市监测站,,35,34,31,24,21,32,32,23,23,20,27,2,2,/,/
2026-04-05T1000,1353A,113.5618,23.3119,广州市,九龙镇镇龙,,31,31,30,19,19,16,16,8,8,23,22,7,6,0.7,0.7
2026-04-05T1000,1354A,113.2764,23.1544,广州市,麓湖,,32,31,28,22,19,34,34,21,21,16,29,4,4,0.9,1
2026-04-05T1000,2846A,113.3209,23.1323,广州市,体育西,,32,NA,31,22,18,30,30,24,24,23,32,6,6,0.8,0.8
2026-04-05T1000,3298A,113.5718,23.5493,广州市,从化街口,,24,24,26,15,16,16,16,5,5,12,15,7,7,0.7,0.7
2026-04-05T1000,3299A,113.3463,23.369,广州市,白云竹料,,36,36,30,24,20,21,21,8,8,21,23,3,3,0.8,0.7
2026-04-05T1000,3300A,113.2981,23.2365,广州市,白云嘉禾,,38,38,30,26,18,37,37,31,31,19,29,8,9,/,/
2026-04-05T1000,3301A,113.4256,23.1716,广州市,黄埔科学城,,33,28,29,23,20,41,41,28,28,14,24,4,4,0.7,0.8
2026-04-05T1000,3302A,113.3942,23.0485,广州市,番禺大学城,,42,40,36,29,24,29,29,17,17,27,37,6,4,1.0,1
2026-04-05T1000,3303A,113.4923,22.8169,广州市,南沙黄阁,颗粒物(PM10),55,56,47,37,26,25,25,7,7,29,38,6,7,/,/
2026-04-05T1000,3304A,113.534,22.7893,广州市,南沙街,颗粒物(PM10),51,51,35,34,29,33,33,14,14,20,31,8,9,0.7,0.7
2026-04-05T1000,3443A,113.2905,23.5541,广州市,花都梯面,,36,35,15,25,11,18,18,4,4,13,17,11,8,/,/
2026-04-05T1000,3445A,113.786,23.7479,广州市,从化良口,,17,17,13,9,7,36,36,18,18,10,11,4,4,/,/
2026-04-05T1000,3446A,113.805,23.2614,广州市,增城荔城,,32,32,24,19,15,34,34,18,18,12,15,8,5,0.7,0.6
2026-04-05T1000,2506A,109.604387,23.066791,贵港市,江南子站,,46,46,38,26,24,36,36,37,34,16,14,13,11,0.9,0.9
2026-04-05T1000,2508A,109.5669,23.1065,贵港市,荷城子站,,42,36,37,29,26,36,36,39,36,20,15,14,12,0.9,0.8
2026-04-05T1000,3405A,109.5886,23.1172,贵港市,新世纪学校,,48,48,37,25,25,35,35,38,35,25,19,/,/,0.8,0.7
2026-04-05T1000,4260A,109.5933,23.095,贵港市,中山路155-3号,,49,49,42,33,28,38,38,43,39,18,12,/,/,0.9,0.9
2026-04-05T1000,1439A,106.6863,26.6035,贵阳市,马鞍山,,28,24,22,19,14,24,24,58,54,11,8,1,4,/,/
2026-04-05T1000,1441A,106.6241,26.6266,贵阳市,鉴湖路,,41,41,33,19,13,64,64,87,82,13,9,5,7,0.4,0.2
2026-04-05T1000,1442A,106.7468,26.6344,贵阳市,燕子冲,,41,41,32,20,14,57,57,53,53,14,11,5,5,0.6,0.5
2026-04-05T1000,1443A,106.6556,26.4362,贵阳市,碧云窝,,39,39,24,24,14,76,76,82,81,10,6,10,9,/,/
2026-04-05T1000,1445A,106.6963,26.6063,贵阳市,红边门,,41,41,33,20,18,63,63,70,69,18,16,7,8,/,/
2026-04-05T1000,1446A,106.7162383,26.56964667,贵阳市,新华路,,48,48,36,25,15,69,69,70,70,14,14,2,16,0.4,0.4
2026-04-05T1000,1447A,106.6742,26.542,贵阳市,太慈桥,,34,34,26,22,12,60,60,69,66,12,10,4,4,/,/
2026-04-05T1000,4230A,106.688212,26.56952,贵阳市,花果园大街66号,,29,29,14,20,13,51,51,64,60,14,10,3,4,/,/
2026-04-05T1000,4231A,106.687268,26.516892,贵阳市,漓江路57号,,34,34,16,19,15,55,55,67,65,18,11,7,8,0.7,0.5
2026-04-05T1000,1864A,110.3091,25.2705,桂林市,龙隐路小学,颗粒物(PM10),53,53,45,15,27,26,26,38,34,20,16,6,8,0.7,0.7
2026-04-05T1000,1865A,110.2849361,25.22909545,桂林市,八中,,50,50,49,19,24,19,19,18,18,30,18,8,7,1.0,0.9
2026-04-05T1000,3531A,110.296,25.1254,桂林市,旅游学院,颗粒物(PM10),52,52,45,34,29,24,24,25,25,21,14,7,9,0.7,0.7
2026-04-05T1000,4222A,110.1835,25.2444,桂林市,环湖路276号,颗粒物(PM10),55,56,55,36,36,19,19,21,21,31,24,23,22,0.9,0.8
2026-04-05T1000,4301A,110.2803,25.2773,桂林市,信义路13号,NA,NA,52,51,NA,25,9,9,20,18,33,24,9,11,1.0,0.9
2026-04-05T1000,2674A,100.2262,34.4854,果洛藏族自治州,玛沁县大武镇,,45,45,42,27,16,67,67,48,48,13,5,17,9,0.7,0.4
2026-04-05T1000,1130A,126.5557,45.8109,哈尔滨市,松北商大,,43,38,47,30,47,68,68,54,54,17,20,10,11,0.5,0.5
2026-04-05T1000,1132A,126.6162,45.719,哈尔滨市,南岗学府路,颗粒物(PM10),51,51,55,28,45,68,68,64,64,20,22,2,3,0.9,0.9
2026-04-05T1000,1133A,126.6894,45.7733,哈尔滨市,太平宏伟公园,,49,49,45,29,41,50,50,47,47,39,27,12,11,0.7,0.4
2026-04-05T1000,1134A,126.6361,45.7672,哈尔滨市,道外承德广场,颗粒物(PM10),80,92,78,25,40,55,55,50,45,33,30,9,9,1.0,0.9
2026-04-05T1000,1136A,126.644,45.7261,哈尔滨市,动力和平路,,46,46,47,20,40,55,55,59,59,27,24,5,4,0.8,0.7
2026-04-05T1000,1137A,126.5933,45.7479,哈尔滨市,道里建国路,,44,44,46,30,39,63,63,67,66,34,29,24,21,1.6,0.9
2026-04-05T1000,1138A,126.6127,45.6119,哈尔滨市,平房东轻厂,,44,44,57,29,50,55,55,48,45,66,76,10,7,0.8,0.8
2026-04-05T1000,1139A,126.5875,45.9827,哈尔滨市,呼兰师专,,43,43,53,23,48,60,60,54,54,25,27,8,9,0.3,0.4
2026-04-05T1000,1140A,126.6299,45.6799,哈尔滨市,省农科院,颗粒物(PM10),60,64,60,34,45,54,54,54,54,27,32,7,7,0.9,0.8
2026-04-05T1000,4282A,126.6769,45.7379,哈尔滨市,华山路1号,颗粒物(PM10),55,56,51,35,42,69,69,68,67,22,21,6,5,0.8,0.7
2026-04-05T1000,4283A,126.9717,45.5356,哈尔滨市,解放大街52号,,43,43,62,18,34,74,74,62,62,14,20,4,6,0.6,0.7
2026-04-05T1000,2688A,93.5124,42.8176,哈密市,地区监测站,,31,31,35,8,13,46,46,62,59,42,23,11,9,0.4,0.2
2026-04-05T1000,2689A,93.5014,42.8312,哈密市,哈密师范学校,颗粒物(PM10),54,55,40,6,14,39,39,53,53,39,21,10,8,0.2,0.2
2026-04-05T1000,2671A,100.9016,36.9464,海北藏族自治州,海晏县西海镇,颗粒物(PM10),53,53,37,18,14,73,73,70,65,7,2,11,7,0.5,0.4
2026-04-05T1000,3867A,102.074,36.5056,海东市,平安区公安局北苑,颗粒物(PM10),68,75,73,26,23,65,65,78,71,21,8,13,12,0.7,0.5
2026-04-05T1000,4163A,102.0984,36.5119,海东市,滨河路,颗粒物(PM10),78,89,80,30,35,47,47,49,42,26,20,11,12,0.8,0.6
2026-04-05T1000,1410A,110.3189,20.0596,海口市,海南大学,细颗粒物(PM2.5),54,50,35,37,25,55,55,47,47,8,7,5,5,0.6,0.5
2026-04-05T1000,1411A,110.2827,20.0051,海口市,秀英海南医院,细颗粒物(PM2.5),54,38,31,37,26,49,49,42,42,10,8,7,8,0.4,0.4
2026-04-05T1000,1412A,110.3391,19.9979,海口市,海南师范大学,细颗粒物(PM2.5),52,41,36,36,26,57,57,51,51,8,7,6,6,0.5,0.5
2026-04-05T1000,1413A,110.3303,20.0359,海口市,龙华路环保局宿舍,细颗粒物(PM2.5),56,43,32,38,26,54,54,47,47,11,9,/,/,0.7,0.6
2026-04-05T1000,3539A,110.5111,19.9737,海口市,桂林洋子站,颗粒物(PM10),53,54,43,30,24,71,71,63,63,6,7,/,/,/,/
2026-04-05T1000,4134A,110.1952,20.0451,海口市,长滨二路9号,细颗粒物(PM2.5),64,52,28,42,20,44,44,30,30,10,11,/,/,/,/
2026-04-05T1000,2673A,100.6158,36.2985,海南藏族自治州,共和县恰卜恰镇,颗粒物(PM10),62,66,46,19,16,71,71,70,68,20,10,12,13,0.4,0.3
2026-04-05T1000,2676A,97.373,37.376,海西蒙古族藏族自治州,德令哈市,,41,41,42,12,16,123,123,131,127,1,3,14,14,0.3,0.3
2026-04-05T1000,1049A,114.492,36.5712,邯郸市,矿院,颗粒物(PM10),80,92,65,15,14,105,105,70,70,9,12,4,4,0.5,0.4
2026-04-05T1000,1050A,114.4839,36.6136,邯郸市,丛台公园,颗粒物(PM10),87,101,61,24,21,106,106,75,75,14,17,7,8,0.4,0.4
2026-04-05T1000,3458A,114.7893,36.5592,邯郸市,香泉濮院小区,颗粒物(PM10),98,117,100,43,32,89,89,56,56,16,15,3,2,0.5,0.4
2026-04-05T1000,3580A,114.1998,36.4439,邯郸市,峰峰矿区临水派出所,颗粒物(PM10),112,149,74,36,28,106,106,85,85,10,13,10,10,0.6,0.6
2026-04-05T1000,4068A,114.5209,36.7697,邯郸市,建安街268号,颗粒物(PM10),107,136,82,29,25,93,93,63,63,19,17,3,4,0.5,0.6
2026-04-05T1000,4069A,114.5488,36.6177,邯郸市,丛台东路558号,颗粒物(PM10),76,86,71,29,25,94,94,54,54,11,13,5,3,0.4,0.4
2026-04-05T1000,2635A,107.0155,33.0707,汉中市,市监测站,颗粒物(PM10),71,79,94,37,37,53,53,21,20,15,16,8,5,0.6,0.4
2026-04-05T1000,2636A,107.0083,33.114,汉中市,鑫源开发区,颗粒物(PM10),82,94,91,44,41,58,58,33,31,20,16,23,7,1.1,0.5
2026-04-05T1000,2637A,107.0072,33.0323,汉中市,南郑大河坎水厂,颗粒物(PM10),71,79,96,32,38,48,48,20,20,14,17,5,4,0.5,0.4
2026-04-05T1000,1223A,120.2073,30.2111,杭州市,滨江,NA,NA,42,52,16,28,NA,NA,22,22,17,29,8,7,0.8,0.8
2026-04-05T1000,1224A,120.0625,30.2737,杭州市,西溪,,48,48,46,22,25,46,46,10,10,23,19,8,8,0.8,0.8
2026-04-05T1000,1226A,120.3417,30.315,杭州市,下沙,,40,40,80,15,28,62,62,30,30,13,25,7,7,0.6,0.6
2026-04-05T1000,1227A,120.1252,30.2465,杭州市,卧龙桥,,30,30,45,19,25,55,55,14,14,14,15,8,7,0.5,0.5
2026-04-05T1000,1228A,120.1902,30.2691,杭州市,浙江农大,,29,29,55,15,33,59,59,26,26,15,28,8,7,0.5,0.5
2026-04-05T1000,1230A,120.1195,30.3121,杭州市,和睦小学,颗粒物(PM10),52,52,80,22,37,52,52,26,26,17,22,7,6,0.7,0.7
2026-04-05T1000,1231A,120.3076,30.4146,杭州市,临平镇,,31,31,57,13,35,67,67,46,41,21,23,7,7,0.7,0.6
2026-04-05T1000,1232A,120.2753,30.1839,杭州市,城厢镇,,44,44,50,20,32,56,56,21,21,20,31,6,6,0.7,0.7
2026-04-05T1000,1233A,120.0883,30.1808,杭州市,云栖,,36,36,48,18,24,65,65,15,15,19,22,6,6,0.7,0.6
2026-04-05T1000,3557A,119.9463,30.0496,杭州市,镇二中,,48,48,37,27,21,54,54,18,18,14,27,5,4,0.8,0.7
2026-04-05T1000,3558A,119.7184,30.2367,杭州市,市府大楼,,42,42,37,23,23,56,56,26,26,12,14,6,6,0.4,0.3
2026-04-05T1000,3656A,120.1554,30.2863,杭州市,消防大队,,39,39,67,15,32,55,55,24,24,15,24,9,8,0.9,0.9
2026-04-05T1000,1270A,117.1957,31.7845,合肥市,明珠广场,颗粒物(PM10),74,83,64,21,24,79,79,66,66,13,14,5,4,0.6,0.6
2026-04-05T1000,1271A,117.307,31.8765,合肥市,三里街,颗粒物(PM10),79,90,71,19,24,62,62,56,56,26,24,6,6,0.6,0.6
2026-04-05T1000,1272A,117.2587,31.8703,合肥市,琥珀山庄,颗粒物(PM10),84,97,72,17,23,75,75,62,62,21,20,7,7,0.6,0.6
2026-04-05T1000,1275A,117.2593,31.9376,合肥市,庐阳区,颗粒物(PM10),80,92,78,17,24,73,73,64,64,20,18,6,6,0.8,0.7
2026-04-05T1000,1276A,117.345251,31.861615,合肥市,瑶海区,颗粒物(PM10),74,83,72,17,22,78,78,68,68,14,17,8,7,0.7,0.7
2026-04-05T1000,1277A,117.3033,31.7967,合肥市,包河区,颗粒物(PM10),68,75,66,15,20,80,80,62,62,8,16,10,9,0.7,0.6
2026-04-05T1000,1278A,117.278,31.7392,合肥市,滨湖新区,颗粒物(PM10),72,80,61,18,17,80,80,74,74,6,7,6,6,0.5,0.5
2026-04-05T1000,1279A,117.1324,31.8395,合肥市,高新区,颗粒物(PM10),80,92,73,16,21,82,82,73,73,9,9,5,6,0.6,0.6
2026-04-05T1000,3464A,117.3802,31.9148,合肥市,高教基地,颗粒物(PM10),75,85,70,18,20,84,84,73,73,15,16,9,9,0.6,0.5
2026-04-05T1000,4098A,117.2518,31.8404,合肥市,中国科学技术大学,颗粒物(PM10),79,90,70,18,22,69,69,63,62,20,14,7,7,0.7,0.6
2026-04-05T1000,3614A,79.9241,37.0878,和田地区,地区环保局,颗粒物(PM10),136,212,255,44,56,65,65,66,61,8,11,3,3,0.5,0.5
2026-04-05T1000,3615A,79.9132,37.1137,和田地区,市环保局,颗粒物(PM10),199,347,227,94,59,29,29,53,40,34,18,6,5,0.2,0.2
2026-04-05T1000,2517A,108.0496,24.6957,河池市,市环保站,细颗粒物(PM2.5),54,47,32,37,19,23,23,15,14,19,11,7,7,0.8,0.7
2026-04-05T1000,4302A,108.0901,24.6945,河池市,上任中路54号,颗粒物(PM10),54,55,34,27,17,36,36,14,14,26,24,10,8,1.0,0.8
2026-04-05T1000,1697A,114.6962,23.7538,河源市,东埔,,27,27,21,18,14,25,25,15,15,14,16,6,6,0.6,0.5
2026-04-05T1000,1698A,114.6895,23.7232,河源市,老城,,30,30,22,18,14,28,28,16,16,14,13,7,6,0.7,0.6
2026-04-05T1000,3374A,115.5562,35.089,菏泽市,定陶老年大学,颗粒物(PM10),106,134,83,40,24,76,76,73,71,16,15,8,6,0.6,0.4
2026-04-05T1000,4114A,115.4239,35.2593,菏泽市,黄河路600号,颗粒物(PM10),116,160,100,40,26,68,68,62,60,15,15,8,4,0.4,0.4
2026-04-05T1000,4115A,115.5025,35.2727,菏泽市,菏泽市人社局,颗粒物(PM10),105,132,87,42,24,74,74,76,73,18,14,10,8,0.4,0.3
2026-04-05T1000,4184A,115.479691,35.244011,菏泽市,永昌路1号,颗粒物(PM10),110,144,87,39,24,79,79,72,71,18,16,6,4,0.3,0.2
2026-04-05T1000,4193A,115.471542,35.280012,菏泽市,长城路999号,颗粒物(PM10),102,125,92,40,21,76,76,79,76,23,25,4,2,0.3,0.2
2026-04-05T1000,2514A,111.5264,24.4178,贺州市,环保小区,,45,45,27,30,17,36,36,30,29,12,13,10,6,0.6,0.6
2026-04-05T1000,2515A,111.561,24.4074,贺州市,政协大楼,,50,40,27,35,22,45,45,31,31,14,12,15,11,0.7,0.7
2026-04-05T1000,3534A,111.4744,24.455,贺州市,西湾,颗粒物(PM10),55,56,50,31,18,26,26,20,20,14,14,8,4,0.8,0.7
2026-04-05T1000,2385A,114.17,35.9019,鹤壁市,市监测站,颗粒物(PM10),88,103,68,37,19,78,78,57,57,27,19,18,7,1.3,0.6
2026-04-05T1000,2386A,114.2953,35.7512,鹤壁市,市交警支队,颗粒物(PM10),93,109,93,47,24,82,82,46,46,19,21,11,8,0.6,0.6
2026-04-05T1000,2387A,114.2877,35.7302,鹤壁市,迎宾馆,颗粒物(PM10),102,124,109,28,25,81,81,44,44,18,19,7,7,0.6,0.5
2026-04-05T1000,3474A,114.2616,35.6824,鹤壁市,大新区,NA,NA,NA,101,31,29,82,82,43,43,16,28,8,9,0.7,0.7
2026-04-05T1000,3596A,114.1573,35.9607,鹤壁市,南山宾馆,颗粒物(PM10),112,151,106,44,24,92,92,76,76,11,8,11,10,0.6,0.5
2026-04-05T1000,2244A,130.2537,47.3416,鹤岗市,哈啤分公司,,46,37,31,32,20,62,62,57,56,17,13,10,9,0.5,0.5
2026-04-05T1000,2245A,130.2683,47.3087,鹤岗市,斯达机电,细颗粒物(PM2.5),64,46,42,42,23,55,55,62,60,17,13,12,11,0.5,0.4
2026-04-05T1000,2246A,130.3114,47.3388,鹤岗市,东山纸板厂,细颗粒物(PM2.5),62,43,49,41,26,58,58,50,50,20,14,11,10,0.3,0.4
2026-04-05T1000,2263A,127.4832,50.2524,黑河市,交通局,,32,32,32,19,17,66,66,44,44,8,10,7,6,0.3,0.4
2026-04-05T1000,2264A,127.5146,50.2339,黑河市,环保局,,29,29,34,13,18,58,58,33,33,7,18,6,9,0.3,0.6
2026-04-05T1000,1074A,115.6839,37.754,衡水市,电机北厂,颗粒物(PM10),81,93,83,22,25,77,77,42,39,22,24,5,5,0.3,0.3
2026-04-05T1000,1075A,115.6303,37.7318,衡水市,市监测站,颗粒物(PM10),82,94,80,15,22,79,79,44,42,18,20,5,5,0.4,0.4
2026-04-05T1000,3188A,115.6684,37.7216,衡水市,市城管局,颗粒物(PM10),83,96,82,21,25,84,84,55,54,19,17,4,9,0.4,0.4
2026-04-05T1000,3459A,115.599,37.5491,衡水市,地表水厂,颗粒物(PM10),86,100,80,40,28,75,75,54,51,16,15,5,5,0.3,0.3
2026-04-05T1000,2457A,112.6209,26.9268,衡阳市,衡阳化工总厂,颗粒物(PM10),66,72,65,25,30,68,68,39,39,8,16,15,7,0.7,0.7
2026-04-05T1000,2458A,112.621,26.8957,衡阳市,珠晖区环保局,颗粒物(PM10),63,67,62,21,28,55,55,23,23,13,28,17,9,0.7,0.9
2026-04-05T1000,2459A,112.628,26.8654,衡阳市,市委党校,颗粒物(PM10),65,71,53,30,26,55,55,32,32,12,11,18,9,0.9,0.9
2026-04-05T1000,2460A,112.6007,26.8977,衡阳市,市监测站,颗粒物(PM10),65,71,75,26,35,54,54,28,28,16,27,16,9,0.7,1
2026-04-05T1000,2461A,112.5658,26.9013,衡阳市,真空机电公司,颗粒物(PM10),64,69,66,27,33,64,64,34,34,3,19,24,10,0.9,1.2
2026-04-05T1000,3399A,112.6703,26.8817,衡阳市,师范学院,颗粒物(PM10),66,72,56,25,32,73,73,28,28,3,10,16,7,0.8,0.9
2026-04-05T1000,3038A,103.3757,23.3679,红河哈尼族彝族自治州,州图书馆,细颗粒物(PM2.5),58,51,62,39,50,124,124,117,117,6,7,5,5,0.4,0.5
2026-04-05T1000,4154A,103.401,23.3561,红河哈尼族彝族自治州,蒙自市朝阳路,细颗粒物(PM2.5),64,55,46,42,45,123,123,117,117,7,7,11,11,0.5,0.5
2026-04-05T1000,1090A,111.6506,40.7517,呼和浩特市,呼市一监,,30,14,145,3,21,96,96,100,97,2,5,8,9,0.3,0.3
2026-04-05T1000,1094A,111.7516,40.8369,呼和浩特市,如意水处理厂,,29,19,105,3,20,92,92,98,94,3,6,5,6,0.2,0.2
2026-04-05T1000,1095A,111.727798,40.806187,呼和浩特市,二十九中,,26,22,136,3,22,83,83,90,86,2,4,8,9,0.3,0.3
2026-04-05T1000,1097A,111.717,40.7617,呼和浩特市,化肥厂生活区,,28,19,115,8,26,88,88,94,89,3,6,5,6,0.3,0.2
2026-04-05T1000,3699A,111.6519,40.8389,呼和浩特市,海东办,,28,14,151,3,17,87,87,92,88,3,9,4,5,0.3,0.3
2026-04-05T1000,4275A,111.591512,40.827312,呼和浩特市,成吉思汗西街8号,,27,12,164,3,16,86,86,92,87,5,8,5,6,0.2,0.2
2026-04-05T1000,4276A,111.6597,40.8077,呼和浩特市,公园东路75号,,27,17,177,3,19,85,85,92,87,6,9,8,10,0.1,0.2
2026-04-05T1000,4277A,111.5427,40.7846,呼和浩特市,金海路35号,,28,11,147,3,18,87,87,95,91,7,12,4,5,0.2,0.3
2026-04-05T1000,3061A,119.7511,49.1576,呼伦贝尔市,国华电力东,,24,17,21,15,12,74,74,75,75,10,7,5,5,0.3,0.2
2026-04-05T1000,4279A,119.7569,49.2222,呼伦贝尔市,伊敏大街东7号,,24,24,27,3,10,63,63,53,53,11,10,7,7,0.3,0.3
2026-04-05T1000,1250A,120.075,30.867,湖州市,城西水厂,细颗粒物(PM2.5),76,64,58,48,40,61,61,67,60,32,26,6,6,0.9,0.9
2026-04-05T1000,2873A,120.083,30.8929,湖州市,仁皇山新区,细颗粒物(PM2.5),90,71,58,55,42,60,60,62,56,34,22,5,5,0.9,0.8
2026-04-05T1000,2907A,120.1846,30.8592,湖州市,吴兴区站,细颗粒物(PM2.5),100,79,64,60,45,70,70,65,58,18,15,8,6,0.8,0.8
2026-04-05T1000,3562A,120.4146,30.8538,湖州市,南浔区站,细颗粒物(PM2.5),78,79,70,49,42,76,76,62,58,19,14,6,5,1.0,0.9
2026-04-05T1000,1607A,120.904878,40.721091,葫芦岛市,龙港区,,45,45,33,20,25,75,75,83,78,20,13,11,11,0.5,0.4
2026-04-05T1000,1608A,120.8382,40.7521,葫芦岛市,化工街,颗粒物(PM10),58,61,36,24,26,65,65,70,66,30,18,17,15,0.5,0.5
2026-04-05T1000,1609A,120.8339,40.7078,葫芦岛市,新区,,37,37,32,24,24,69,69,80,75,24,15,10,10,0.6,0.5
2026-04-05T1000,1610A,120.8697,40.7679,葫芦岛市,东城区,颗粒物(PM10),55,56,34,23,26,72,72,78,73,28,19,11,10,0.6,0.6
2026-04-05T1000,2483A,109.9297,27.5383,怀化市,河西地税局,颗粒物(PM10),65,71,59,31,26,55,55,18,18,9,12,8,5,/,/
2026-04-05T1000,2484A,109.9783,27.5342,怀化市,市四医院,颗粒物(PM10),87,101,74,51,28,45,45,19,19,27,19,12,8,0.4,0.3
2026-04-05T1000,2485A,109.9971,27.5579,怀化市,监测楼,颗粒物(PM10),78,89,70,44,41,42,42,18,18,24,15,5,3,0.5,0.3
2026-04-05T1000,1210A,119.0566,33.5991,淮安市,钵池山,细颗粒物(PM2.5),104,112,82,64,38,73,73,46,46,27,29,12,8,0.8,0.5
2026-04-05T1000,1211A,119.0083,33.578,淮安市,北京南路,细颗粒物(PM2.5),104,117,84,64,42,66,66,42,41,23,21,13,8,0.9,0.6
2026-04-05T1000,1212A,118.9938,33.6083,淮安市,市监测站,细颗粒物(PM2.5),106,119,81,66,44,72,72,54,53,33,25,18,7,2.4,0.8
2026-04-05T1000,1213A,119.135,33.5038,淮安市,楚州区监测站,细颗粒物(PM2.5),118,122,89,79,42,71,71,30,30,18,27,8,6,0.8,0.5
2026-04-05T1000,3426A,118.8757,33.2897,淮安市,新华书店,颗粒物(PM10),103,127,100,40,40,66,66,32,32,23,24,10,8,0.7,0.5
2026-04-05T1000,4092A,119.119691,33.550006,淮安市,枚皋中路89号,细颗粒物(PM2.5),111,124,84,72,42,68,68,44,40,25,22,16,11,1.1,0.6
2026-04-05T1000,4206A,119.028838,33.631911,淮安市,承德北路606号,颗粒物(PM10),103,127,92,56,39,72,72,52,52,23,22,15,9,0.7,0.4
2026-04-05T1000,2282A,116.8005,33.9749,淮北市,监测站,颗粒物(PM10),93,109,75,35,25,91,91,77,76,19,19,9,8,0.6,0.4
2026-04-05T1000,2283A,116.8094,33.9008,淮北市,烈山区政府,颗粒物(PM10),96,114,81,33,26,66,66,63,59,19,21,9,8,0.5,0.4
2026-04-05T1000,4017A,116.7926,33.9534,淮北市,市博物馆,颗粒物(PM10),97,115,74,40,26,81,81,70,68,20,18,8,7,0.7,0.5
2026-04-05T1000,4100A,116.8322,33.9884,淮北市,杜集区第一实验学校,颗粒物(PM10),104,129,84,34,23,77,77,64,63,17,17,9,8,0.6,0.4
2026-04-05T1000,2277A,116.8304,32.7726,淮南市,潘集区政府,颗粒物(PM10),78,88,82,20,24,77,77,55,55,15,23,9,8,0.4,0.3
2026-04-05T1000,2279A,116.8569,32.5949,淮南市,谢家集区政府,颗粒物(PM10),82,94,78,27,25,65,65,53,50,11,20,9,10,0.5,0.5
2026-04-05T1000,2280A,116.8279,32.6333,淮南市,八公山区政府,颗粒物(PM10),97,115,91,25,25,70,70,64,59,10,12,7,9,0.5,0.5
2026-04-05T1000,2894A,117.0561,32.6536,淮南市,经济技术开发区消防队,颗粒物(PM10),98,117,85,29,24,79,79,56,55,13,19,9,8,0.4,0.4
2026-04-05T1000,3329A,117.011,32.5891,淮南市,山南新区,颗粒物(PM10),115,158,111,26,25,86,86,60,59,10,16,10,8,0.4,0.4
2026-04-05T1000,4209A,117.003137,32.644456,淮南市,国庆中路369号,颗粒物(PM10),85,98,74,23,22,82,82,67,66,10,15,14,13,0.4,0.4
2026-04-05T1000,2446A,114.9021,30.474,黄冈市,职工中心,细颗粒物(PM2.5),60,57,56,40,34,69,69,58,58,21,12,21,13,0.7,0.7
2026-04-05T1000,2929A,114.8858,30.4519,黄冈市,红卫路,细颗粒物(PM2.5),64,49,52,42,33,91,91,79,79,11,11,10,7,0.2,0.2
2026-04-05T1000,3398A,114.9134,30.4446,黄冈市,市林业局,颗粒物(PM10),71,79,80,38,36,86,86,74,74,8,9,4,4,0.3,0.2
2026-04-05T1000,2672A,102.02,35.5101,黄南藏族自治州,同仁县隆务镇,颗粒物(PM10),55,57,44,12,15,86,86,83,82,3,2,10,10,0.3,0.2
2026-04-05T1000,2295A,118.2905,29.6965,黄山市,延安路89号,颗粒物(PM10),73,81,68,35,26,37,37,18,18,11,10,6,5,0.5,0.5
2026-04-05T1000,2297A,118.1369,30.2755,黄山市,黄山区政府5号楼,颗粒物(PM10),93,109,85,35,25,52,52,18,18,11,6,3,3,0.4,0.4
2026-04-05T1000,4210A,118.335445,29.720283,黄山市,滨江东路7-2号,颗粒物(PM10),93,109,78,31,22,36,36,13,13,8,7,/,/,/,/
2026-04-05T1000,2423A,115.0547,30.2332,黄石市,沈家营,颗粒物(PM10),68,75,73,31,27,52,52,43,43,25,18,13,12,0.3,0.6
2026-04-05T1000,2426A,114.899,30.211,黄石市,铁山,颗粒物(PM10),59,62,61,35,27,71,71,59,59,12,12,15,13,0.3,0.2
2026-04-05T1000,2427A,115.0259,30.2108,黄石市,团城山,颗粒物(PM10),60,64,75,39,29,47,47,38,38,28,16,10,7,1.5,1
2026-04-05T1000,3149A,115.0174,30.1591,黄石市,笔架山北路,颗粒物(PM10),75,84,85,42,26,76,76,66,66,9,10,24,14,1.0,0.9
2026-04-05T1000,4185A,115.078022,30.21118,黄石市,磁湖东路29号,细颗粒物(PM2.5),70,72,75,45,29,51,51,44,42,32,24,12,7,1.6,1.2
2026-04-05T1000,1392A,114.4181,23.0528,惠州市,河南岸金山湖子站,,32,30,23,22,16,28,28,24,23,13,16,7,7,0.7,0.7
2026-04-05T1000,1393A,114.4055,23.0824,惠州市,下埔横江三路子站,,34,34,27,21,17,28,28,26,24,12,14,6,6,0.7,0.7
2026-04-05T1000,1395A,114.4645,22.7832,惠州市,惠阳区承修路船湖子站,,24,24,32,14,21,58,58,28,28,13,17,6,6,0.5,0.6
2026-04-05T1000,1396A,114.5316,22.7423,惠州市,大亚湾管委会子站,,25,25,29,17,20,45,45,32,32,19,20,3,4,0.6,0.7
2026-04-05T1000,3314A,114.4334,22.8134,惠州市,惠阳秋长,,29,29,21,17,20,48,48,23,23,16,16,/,/,/,/
2026-04-05T1000,3452A,114.6521,22.7755,惠州市,大亚湾霞涌,,23,NA,19,10,15,71,71,55,55,8,11,/,/,/,/
2026-04-05T1000,4300A,114.4089,23.1147,惠州市,文华一路1号,,32,30,28,22,18,29,29,22,22,12,16,/,/,/,/
2026-04-05T1000,2240A,130.9618,45.2926,鸡西市,环保局,颗粒物(PM10),61,65,48,27,43,83,83,49,49,8,14,9,6,0.1,0.2
2026-04-05T1000,2243A,130.9294,45.2959,鸡西市,第一中学,,48,45,44,33,44,78,78,47,47,9,12,10,4,0.2,0.2
2026-04-05T1000,3707A,131.0069,45.2988,鸡西市,欧美日汽修厂,NA,NA,53,56,NA,47,80,80,37,37,7,19,8,8,0.2,0.3
2026-04-05T1000,2367A,114.9753,27.0803,吉安市,红声器材厂,,38,38,45,22,20,41,41,19,19,17,19,8,9,0.9,0.8
2026-04-05T1000,2369A,114.9903,27.1313,吉安市,市环境监测站,,47,47,39,23,20,55,55,22,22,13,16,9,10,/,/
2026-04-05T1000,2370A,115.009527,27.096792,吉安市,青原区法院,,48,48,42,19,18,58,58,21,21,12,20,7,8,0.8,0.8
2026-04-05T1000,1772A,126.54,43.8622,吉林市,哈达湾,,38,32,40,26,32,71,71,82,79,14,13,5,7,0.6,0.6
2026-04-05T1000,1773A,126.5843,43.8358,吉林市,东局子,,36,28,30,25,29,71,71,79,78,7,10,3,4,0.9,0.9
2026-04-05T1000,1774A,126.5051,43.8243,吉林市,电力学院,,38,32,45,26,37,73,73,81,81,16,17,5,7,0.7,0.9
2026-04-05T1000,1775A,126.6133,43.8971,吉林市,江北,,40,33,41,28,33,69,69,71,71,8,8,8,8,0.8,0.7
2026-04-05T1000,1776A,126.5549,43.8304,吉林市,江南公园,,33,27,35,23,28,66,66,76,74,13,14,6,7,0.6,0.6
2026-04-05T1000,2868A,126.4737,43.953,吉林市,九站,,38,31,37,26,32,64,64,68,68,18,18,4,8,0.6,0.6
2026-04-05T1000,1299A,116.9866,36.6118,济南市,科干所,颗粒物(PM10),83,95,57,42,14,92,92,105,101,16,10,11,7,0.6,0.5
2026-04-05T1000,1300A,116.9379,36.6652,济南市,农科所,颗粒物(PM10),90,105,62,34,17,85,85,96,91,17,14,10,7,0.5,0.4
2026-04-05T1000,1301A,117.1265,36.6736,济南市,开发区,颗粒物(PM10),83,95,59,28,12,98,98,110,106,15,11,9,6,0.7,0.5
2026-04-05T1000,1303A,117.0616,36.6865,济南市,省种子仓库,颗粒物(PM10),96,114,72,28,14,93,93,107,102,13,11,9,5,0.4,0.3
2026-04-05T1000,1304A,116.9495185,36.644937,济南市,机床二厂,颗粒物(PM10),93,110,67,30,14,90,90,101,96,17,13,10,6,0.6,0.5
2026-04-05T1000,1305A,117.0496,36.6629,济南市,市监测站,颗粒物(PM10),91,107,66,28,14,91,91,105,100,16,11,8,5,0.6,0.4
2026-04-05T1000,1306A,116.7674,36.5458,济南市,长清党校,颗粒物(PM10),93,110,63,28,15,90,90,94,91,14,12,8,6,0.6,0.5
2026-04-05T1000,1961A,117.5323,36.6865,济南市,东山小学,颗粒物(PM10),93,110,59,23,12,95,95,107,104,24,16,7,5,0.4,0.3
2026-04-05T1000,3059A,117.7181,36.205,济南市,泰兴公司,颗粒物(PM10),95,112,53,31,16,109,109,61,61,12,32,11,11,0.5,0.5
2026-04-05T1000,3064A,117.6861,36.2172,济南市,莱芜战役纪念馆,颗粒物(PM10),90,105,51,36,15,101,101,87,87,18,20,10,7,0.7,0.5
2026-04-05T1000,3494A,117.1673,36.9782,济南市,济阳区政府,颗粒物(PM10),91,107,74,33,18,75,75,89,82,16,17,14,9,0.7,0.5
2026-04-05T1000,3495A,117.1168,36.6299,济南市,锦屏中学,颗粒物(PM10),85,98,58,29,13,91,91,103,98,16,13,9,6,0.4,0.4
2026-04-05T1000,4108A,117.7107,36.2385,济南市,山财大街5号,颗粒物(PM10),93,110,48,33,14,106,106,81,81,20,24,12,8,1.1,0.6
2026-04-05T1000,4109A,116.9744,36.6889,济南市,无影山路12号,颗粒物(PM10),84,97,57,29,15,83,83,92,88,14,10,9,5,0.7,0.5
2026-04-05T1000,1653A,116.6229,35.4288,济宁市,火炬城,颗粒物(PM10),79,90,52,32,16,77,77,80,77,15,12,4,4,0.7,0.5
2026-04-05T1000,3500A,116.5808,35.3703,济宁市,北湖一中,颗粒物(PM10),75,84,54,30,18,77,77,81,76,18,14,10,7,0.6,0.5
2026-04-05T1000,3501A,116.8251,35.5592,济宁市,服务中心,颗粒物(PM10),80,92,59,30,20,82,82,75,75,16,13,4,2,0.3,0.1
2026-04-05T1000,3678A,116.5907,35.4054,济宁市,市第七中学,颗粒物(PM10),85,99,58,29,17,83,83,87,83,17,15,6,3,0.6,0.5
2026-04-05T1000,4111A,116.6075,35.4566,济宁市,任和路,颗粒物(PM10),94,111,61,34,17,78,78,86,82,16,14,8,6,0.5,0.3
2026-04-05T1000,4112A,116.5648,35.3921,济宁市,文体南路1号,颗粒物(PM10),84,97,60,23,18,75,75,82,76,15,11,8,6,0.6,0.4
2026-04-05T1000,4122A,112.6071,35.1015,济源市,市委党校,颗粒物(PM10),112,150,96,47,28,64,64,50,50,42,25,41,11,1.1,0.6
2026-04-05T1000,4123A,112.596,35.0702,济源市,沁园中路1号,颗粒物(PM10),104,128,102,44,38,74,74,39,39,33,30,29,9,2.5,0.9
2026-04-05T1000,2255A,130.2749,46.8028,佳木斯市,佳纺,细颗粒物(PM2.5),64,67,44,42,36,48,48,25,25,22,22,6,5,0.4,0.4
2026-04-05T1000,2257A,130.3258,46.7975,佳木斯市,环保局,颗粒物(PM10),61,65,48,31,34,43,43,20,20,25,26,5,5,0.5,0.4
2026-04-05T1000,4285A,130.363,46.806,佳木斯市,顺和街,细颗粒物(PM2.5),60,59,38,40,33,55,55,35,35,20,27,3,3,0.4,0.4
2026-04-05T1000,4286A,130.3952,46.8268,佳木斯市,长安路196号,,49,46,37,34,28,60,60,41,41,13,22,7,6,0.5,0.4
2026-04-05T1000,1252A,120.7439,30.778,嘉兴市,清河小学,,47,47,50,29,33,78,78,69,64,23,18,8,7,0.7,0.6
2026-04-05T1000,1253A,120.7261,30.7477,嘉兴市,嘉兴学院,颗粒物(PM10),65,71,60,35,33,79,79,70,64,30,22,8,6,0.6,0.5
2026-04-05T1000,2872A,120.7845,30.7524,嘉兴市,南湖区残联,,43,32,50,30,34,75,75,69,66,16,14,6,5,0.7,0.6
2026-04-05T1000,3407A,120.6915,30.7741,嘉兴市,秀洲住建,细颗粒物(PM2.5),66,44,49,43,34,83,83,66,62,19,16,7,6,0.5,0.5
2026-04-05T1000,1945A,98.291,39.7705,嘉峪关市,气象局,,41,41,36,8,13,78,78,75,72,22,19,22,27,0.7,0.7
2026-04-05T1000,2884A,98.2672,39.7978,嘉峪关市,酒钢宾馆,颗粒物(PM10),60,63,51,20,18,62,62,74,71,31,15,34,34,1.2,0.7
2026-04-05T1000,3248A,98.2644,39.7723,嘉峪关市,雄关区,,42,42,47,11,13,64,64,66,62,29,20,17,18,0.9,0.8
2026-04-05T1000,1383A,113.1063,22.6058,江门市,北街,细颗粒物(PM2.5),76,62,38,48,31,10,10,5,4,55,45,/,/,/,/
2026-04-05T1000,1384A,113.073,22.5835,江门市,西区,细颗粒物(PM2.5),68,71,39,44,30,12,12,7,6,50,40,/,/,/,/
2026-04-05T1000,1385A,113.0218,22.531,江门市,圭峰西,细颗粒物(PM2.5),72,75,37,46,28,12,12,11,8,46,33,/,/,/,/
2026-04-05T1000,1386A,113.0826,22.5947,江门市,东湖,细颗粒物(PM2.5),72,70,41,46,31,11,11,6,5,48,37,7,6,0.8,0.7
2026-04-05T1000,3311A,113.1077,22.5647,江门市,江海富民,细颗粒物(PM2.5),80,87,45,50,31,9,9,5,4,48,41,/,/,0.8,0.7
2026-04-05T1000,3449A,113.0496,22.4669,江门市,新会银湖,细颗粒物(PM2.5),76,59,36,48,30,10,10,3,3,48,40,8,8,0.6,0.5
2026-04-05T1000,3335A,113.3137,35.2643,焦作市,马村街道办,颗粒物(PM10),86,100,78,19,22,66,66,54,54,21,21,14,11,0.5,0.3
2026-04-05T1000,3336A,113.2464,35.2374,焦作市,焦作技师学院,颗粒物(PM10),111,148,88,22,21,65,65,57,57,19,18,15,11,0.9,0.7
2026-04-05T1000,3477A,113.1656,35.2536,焦作市,中站许衡医院,颗粒物(PM10),95,113,80,34,22,76,76,74,70,20,14,26,15,1.2,0.5
2026-04-05T1000,3981A,113.2456,35.18,焦作市,原李万街道办,颗粒物(PM10),101,121,89,18,21,56,56,41,41,17,23,15,11,0.6,0.5
2026-04-05T1000,4264A,113.234,35.219,焦作市,新安路1731号,颗粒物(PM10),100,119,87,23,23,69,69,61,61,22,21,15,13,0.9,0.7
2026-04-05T1000,4295A,113.2722,35.2121,焦作市,人民路3066号,颗粒物(PM10),93,110,82,23,24,72,72,55,55,11,17,12,8,0.8,0.6
2026-04-05T1000,1708A,116.3701,23.5345,揭阳市,新兴,,36,36,24,22,14,53,53,52,51,19,15,8,7,0.7,0.7
2026-04-05T1000,1709A,116.3261,23.5442,揭阳市,西马,,36,36,26,22,15,56,56,48,46,17,13,6,6,1.0,0.9
2026-04-05T1000,1710A,116.361,23.5627,揭阳市,东兴,,38,38,22,23,15,53,53,43,42,20,14,12,5,/,/
2026-04-05T1000,1711A,116.4151,23.5295,揭阳市,渔湖,,38,38,28,23,14,60,60,54,54,16,14,6,4,/,/
2026-04-05T1000,3320A,116.4028,23.5699,揭阳市,曲溪,,28,19,20,19,13,57,57,46,46,12,12,13,8,0.7,0.6
2026-04-05T1000,1944A,102.1691,38.5166,金昌市,天庆家园,,30,14,68,8,15,96,96,84,84,3,6,8,8,0.4,0.4
2026-04-05T1000,4022A,102.1648,38.5369,金昌市,金川区人防中心,,38,38,78,3,17,94,94,82,79,3,6,2,3,0.1,0.2
2026-04-05T1000,4239A,102.193042,38.531887,金昌市,长春路96号,,30,13,66,3,20,93,93,75,75,2,6,6,6,0.3,0.4
2026-04-05T1000,1262A,119.6478,29.0773,金华市,十五中,颗粒物(PM10),51,51,46,22,21,62,62,32,32,15,18,4,4,0.7,0.8
2026-04-05T1000,1263A,119.6859,29.1032,金华市,监测站,,50,50,38,29,19,62,62,24,24,12,16,5,4,0.6,0.6
2026-04-05T1000,3659A,119.656,29.1132,金华市,气象局,,46,46,45,22,22,63,63,23,23,14,25,4,4,0.6,0.7
2026-04-05T1000,1767A,121.1114,41.0879,锦州市,南山,细颗粒物(PM2.5),62,43,34,41,24,71,71,77,73,30,19,13,10,0.6,0.5
2026-04-05T1000,1768A,121.060361,40.842794,锦州市,开发区,颗粒物(PM10),62,66,51,38,26,70,70,73,69,24,20,8,8,0.4,0.4
2026-04-05T1000,1769A,121.1836,41.1118,锦州市,百股街道,细颗粒物(PM2.5),54,46,35,37,23,79,79,84,80,27,17,13,10,0.6,0.4
2026-04-05T1000,1770A,121.1176,41.1224,锦州市,天安街道,NA,NA,39,35,36,24,NA,NA,76,73,30,18,9,8,0.7,0.5
2026-04-05T1000,1771A,121.1303,41.1385,锦州市,北湖公园,细颗粒物(PM2.5),56,51,32,38,25,75,75,79,76,26,16,7,6,0.5,0.4
2026-04-05T1000,2160A,112.8496,35.5051,晋城市,自来水公司,颗粒物(PM10),81,93,78,3,10,66,66,46,46,24,24,8,6,0.7,0.4
2026-04-05T1000,2162A,112.8509,35.4886,晋城市,市环保局,颗粒物(PM10),78,88,80,12,14,66,66,40,40,23,22,7,7,0.7,0.4
2026-04-05T1000,3620A,112.8258,35.4804,晋城市,泽州一中,颗粒物(PM10),93,110,74,20,13,66,66,46,46,24,18,5,5,0.6,0.3
2026-04-05T1000,4078A,112.8246,35.5152,晋城市,前书院路,颗粒物(PM10),93,110,79,14,14,57,57,35,35,29,28,10,8,1.0,0.7
2026-04-05T1000,4079A,112.8864,35.4773,晋城市,祥云街666号,NA,NA,90,70,12,15,48,48,61,50,NA,14,10,9,0.7,0.4
2026-04-05T1000,2174A,112.6992,37.6984,晋中市,榆次区政府,颗粒物(PM10),173,295,146,43,29,84,84,52,52,11,19,9,22,0.3,0.6
2026-04-05T1000,2865A,112.7195,37.683,晋中市,榆次三中,颗粒物(PM10),186,322,145,30,26,82,82,50,50,10,16,10,21,0.2,0.6
2026-04-05T1000,4080A,112.7375,37.7215,晋中市,广安街188号,颗粒物(PM10),153,256,122,41,27,81,81,45,45,7,17,13,20,0.2,0.4
2026-04-05T1000,4200A,112.7478,37.6954,晋中市,迎宾街26号,颗粒物(PM10),185,320,143,42,30,78,78,49,48,12,17,10,21,0.3,0.6
2026-04-05T1000,2439A,112.2012,31.048,荆门市,竹园小学,颗粒物(PM10),111,148,104,50,33,52,52,67,62,35,17,11,5,0.7,0.4
2026-04-05T1000,2440A,112.1968,30.9892,荆门市,掇刀,颗粒物(PM10),83,95,94,42,34,61,61,52,51,25,16,11,11,0.6,0.6
2026-04-05T1000,3012A,112.1849,31.0361,荆门市,西山林语,颗粒物(PM10),82,94,90,46,31,68,68,54,54,29,11,10,7,0.6,0.4
2026-04-05T1000,3547A,112.1631,31.0134,荆门市,龙泉中学南校,颗粒物(PM10),93,110,103,39,28,51,51,68,60,30,14,10,8,0.8,0.5
2026-04-05T1000,4124A,112.2213,31.0654,荆门市,新台西路6号,细颗粒物(PM2.5),78,73,90,49,34,40,40,35,24,30,18,9,9,0.7,0.7
2026-04-05T1000,1844A,112.2493,30.3198,荆州市,市图书馆,细颗粒物(PM2.5),66,64,51,43,32,38,38,28,27,24,29,8,10,0.7,0.6
2026-04-05T1000,1845A,112.2009,30.3543,荆州市,市委党校,细颗粒物(PM2.5),72,69,58,46,32,40,40,16,16,36,41,9,10,1.0,0.9
2026-04-05T1000,3194A,112.2749,30.3124,荆州市,管委会,颗粒物(PM10),68,75,51,39,31,50,50,28,27,15,24,9,10,0.7,0.7
2026-04-05T1000,4268A,112.1722,30.3366,荆州市,学苑路85号,细颗粒物(PM2.5),88,67,49,54,34,47,47,18,18,14,17,18,18,1.2,0.7
2026-04-05T1000,2343A,117.2114,29.2931,景德镇市,老干部活动中心,颗粒物(PM10),55,56,44,36,31,35,35,22,22,10,12,4,7,0.6,0.6
2026-04-05T1000,2344A,117.1893,29.2789,景德镇市,兽医站,颗粒物(PM10),51,51,52,29,26,35,35,20,20,12,14,4,4,0.6,0.7
2026-04-05T1000,2346A,117.246,29.2958,景德镇市,陶研所,细颗粒物(PM2.5),62,47,39,41,28,40,40,14,14,23,19,4,6,0.5,0.6
2026-04-05T1000,4289A,117.154766,29.256967,景德镇市,青少年活动中心,,41,41,48,24,30,33,33,16,16,11,19,5,11,/,/
2026-04-05T1000,1803A,115.9873,29.6816,九江市,十里,颗粒物(PM10),70,78,58,29,22,50,50,24,24,35,32,9,7,0.9,0.9
2026-04-05T1000,1804A,115.9583,29.7047,九江市,茅山头,颗粒物(PM10),57,59,53,29,24,75,75,27,27,20,25,4,4,0.7,0.6
2026-04-05T1000,1805A,115.9877,29.7295,九江市,西园,,46,46,48,31,23,65,65,36,36,34,42,6,5,0.7,0.7
2026-04-05T1000,1808A,115.9112,29.6038,九江市,综合工业园,颗粒物(PM10),56,58,55,26,19,66,66,48,48,30,23,14,10,0.6,0.6
2026-04-05T1000,3190A,116.0254,29.6995,九江市,外国语学校,,49,45,40,34,23,64,64,38,38,14,21,11,7,0.9,0.8
2026-04-05T1000,4253A,116.010205,29.659402,九江市,莲花大道8号,颗粒物(PM10),65,71,47,31,19,65,65,48,48,26,15,8,5,0.7,0.6
2026-04-05T1000,4240A,98.495752,39.733935,酒泉市,玉门东路5号,,48,48,43,15,18,67,67,60,60,18,10,14,10,0.5,0.4
2026-04-05T1000,4241A,98.5099,39.7506,酒泉市,北大街108号,,44,44,41,11,17,65,65,54,54,17,13,16,12,0.5,0.3
2026-04-05T1000,2698A,76.0071,39.466,喀什地区,巡警大队,颗粒物(PM10),135,211,191,65,74,20,20,47,46,49,27,5,4,0.5,0.4
2026-04-05T1000,2699A,75.9756,39.4693,喀什地区,吾办,颗粒物(PM10),150,248,218,69,82,15,15,17,17,43,34,5,3,0.7,0.6
2026-04-05T1000,4027A,75.9485,39.4688,喀什地区,老干局,颗粒物(PM10),148,243,243,60,62,16,16,12,12,41,36,4,4,0.6,0.7
2026-04-05T1000,1824A,114.3389,34.778,开封市,肿瘤医院,颗粒物(PM10),112,150,102,36,32,83,83,48,48,21,20,12,7,0.6,0.5
2026-04-05T1000,1826A,114.2884,34.7966,开封市,世纪星幼儿园,颗粒物(PM10),109,142,96,28,30,77,77,44,44,26,24,12,8,0.6,0.5
2026-04-05T1000,3147A,114.3434,34.8101,开封市,龙亭公园,颗粒物(PM10),110,144,105,28,25,84,84,53,53,26,22,16,11,0.6,0.7
2026-04-05T1000,3210A,114.3645,34.7955,开封市,汴京公园,颗粒物(PM10),109,142,94,37,31,75,75,45,45,25,21,11,6,0.6,0.5
2026-04-05T1000,3473A,114.2485,34.8306,开封市,技师学院,颗粒物(PM10),104,129,92,36,26,80,80,52,52,21,16,14,9,0.6,0.5
2026-04-05T1000,3592A,114.4518,34.7503,开封市,祥符区生态环境局,颗粒物(PM10),93,110,105,36,30,74,74,50,49,32,30,14,8,0.7,0.5
2026-04-05T1000,1951A,84.886,45.6029,克拉玛依市,长征新村,颗粒物(PM10),52,52,40,13,18,35,35,78,72,56,14,8,7,0.7,0.6
2026-04-05T1000,1952A,84.8894,45.5827,克拉玛依市,南林小区,,45,45,40,3,9,59,59,66,66,26,18,4,3,0.5,0.4
2026-04-05T1000,1954A,84.896,44.3328,克拉玛依市,独山子区,颗粒物(PM10),59,62,57,6,14,58,58,81,74,34,12,10,7,0.9,0.6
2026-04-05T1000,1955A,85.6888,46.0909,克拉玛依市,乌尔禾区商贸楼,,28,28,37,16,11,52,52,62,57,21,13,3,2,0.5,0.4
2026-04-05T1000,3612A,85.1045,45.6895,克拉玛依市,白碱滩区新站,颗粒物(PM10),58,60,60,3,13,62,62,83,78,31,8,8,7,0.6,0.4
2026-04-05T1000,2697A,76.1457,39.7143,克孜勒苏柯尔克孜自治州,市人民政府,颗粒物(PM10),115,158,147,51,47,49,49,66,65,17,14,30,20,0.2,0.2
2026-04-05T1000,3665A,76.1654,39.7157,克孜勒苏柯尔克孜自治州,克州文化中心,颗粒物(PM10),114,156,137,50,47,42,42,64,59,31,12,15,17,0.2,0.2
2026-04-05T1000,1450A,102.8203,24.889,昆明市,呈贡新区,,44,44,32,29,24,110,110,101,101,10,7,4,5,0.4,0.5
2026-04-05T1000,1452A,102.7253,25.0904,昆明市,龙泉镇,,41,41,37,27,24,94,94,85,85,5,9,4,5,0.6,0.6
2026-04-05T1000,1453A,102.7267,25.0378,昆明市,东风东路,,43,43,38,24,25,102,102,96,96,12,12,2,4,0.5,0.5
2026-04-05T1000,1454A,102.6744,25.0671,昆明市,金鼎山,,39,36,43,27,24,96,96,96,96,13,11,1,3,0.4,0.4
2026-04-05T1000,1455A,102.6643,25.0401,昆明市,碧鸡广场,,45,44,39,31,27,100,100,86,86,8,15,3,6,0.5,0.5
2026-04-05T1000,3179A,102.7491,25.012,昆明市,官渡区博物馆,,50,50,39,28,25,100,100,89,89,10,11,5,5,0.5,0.5
2026-04-05T1000,3375A,102.8016,24.8336,昆明市,青年创业园,NA,NA,37,35,22,24,110,110,101,101,NA,6,6,6,0.4,0.5
2026-04-05T1000,3550A,102.8,24.9787,昆明市,昆明学院,,43,43,40,22,22,99,99,94,94,9,8,8,5,0.7,0.6
2026-04-05T1000,3551A,102.5969,24.6738,昆明市,晋宁区生态环境分局,,40,40,35,24,22,108,108,99,99,4,6,3,3,0.4,0.4
2026-04-05T1000,3552A,102.6673,24.9861,昆明市,云天化总部,,45,45,36,23,21,104,104,100,99,11,9,9,7,0.7,0.5
2026-04-05T1000,1456A,91.132,29.6515,拉萨市,八廓街,,27,27,17,6,7,62,62,60,54,14,11,12,6,0.4,0.3
2026-04-05T1000,1457A,91.1221,29.6748,拉萨市,市环保局,,27,27,18,13,6,60,60,48,44,17,14,10,6,0.5,0.4
2026-04-05T1000,1458A,91.0874,29.6476,拉萨市,区监测站,,20,20,12,12,7,52,52,51,43,28,20,9,6,0.2,0.1
2026-04-05T1000,1459A,91.1774,29.6541,拉萨市,西藏大学,,19,15,14,6,6,59,59,63,58,14,11,16,7,0.3,0.3
2026-04-05T1000,1460A,90.9798,29.6586,拉萨市,区辐射站,,36,36,21,12,8,32,32,39,32,41,22,7,6,0.6,0.4
2026-04-05T1000,1461A,91.0831,29.6292,拉萨市,拉萨火车站,,39,NA,14,27,8,51,51,65,62,24,11,7,5,0.3,0.2
2026-04-05T1000,2520A,109.2203,23.7252,来宾市,来宾技工学校,细颗粒物(PM2.5),76,63,47,48,31,46,46,58,52,12,8,12,9,1.0,0.8
2026-04-05T1000,3535A,109.1781,23.7293,来宾市,兴宾区政府,细颗粒物(PM2.5),78,53,44,49,31,38,38,62,51,13,10,13,21,0.9,0.8
2026-04-05T1000,4002A,109.2312,23.7428,来宾市,中南小学,细颗粒物(PM2.5),90,55,43,55,33,52,52,62,55,15,12,8,9,0.8,0.7
2026-04-05T1000,1479A,103.8309,36.0467,兰州市,铁路设计院,颗粒物(PM10),128,192,133,60,46,28,28,23,23,54,43,10,8,0.9,0.6
2026-04-05T1000,3241A,103.7439,36.0841,兰州市,百合公园,颗粒物(PM10),137,214,133,74,46,46,46,20,20,37,35,6,10,0.7,0.6
2026-04-05T1000,3242A,103.9613,35.9985,兰州市,和平,颗粒物(PM10),115,158,134,58,38,67,67,81,76,20,13,24,9,1.0,0.4
2026-04-05T1000,4236A,103.629272,36.093822,兰州市,庄浪东路808号,细颗粒物(PM2.5),106,NA,141,66,48,73,73,58,55,12,17,16,11,0.4,0.3
2026-04-05T1000,4237A,103.7251,36.104344,兰州市,安宁西路88号,颗粒物(PM10),157,264,159,81,49,74,74,48,48,32,27,12,12,0.4,0.4
2026-04-05T1000,4238A,103.846982,36.067567,兰州市,北滨河东路1号,颗粒物(PM10),127,190,131,65,45,36,36,15,15,42,43,15,13,1.1,0.7
2026-04-05T1000,1067A,116.6712,39.5109,廊坊市,药材公司,颗粒物(PM10),99,118,76,34,44,91,91,46,46,7,22,2,3,0.3,0.5
2026-04-05T1000,1068A,116.7215,39.5592,廊坊市,开发区,颗粒物(PM10),93,109,77,3,41,100,100,47,47,2,16,1,3,0.2,0.4
2026-04-05T1000,1070A,116.7246,39.5273,廊坊市,北华航天学院,颗粒物(PM10),78,88,74,8,37,99,99,46,46,3,21,4,5,0.2,0.5
2026-04-05T1000,2919A,116.7022,39.5454,廊坊市,河北工业大学,NA,NA,83,76,8,40,NA,NA,42,41,2,20,3,4,0.2,0.5
2026-04-05T1000,2536A,103.7629,29.5844,乐山市,牛耳桥,细颗粒物(PM2.5),52,50,52,36,26,14,14,34,25,29,22,6,6,0.7,0.5
2026-04-05T1000,2537A,103.7501,29.6002,乐山市,市第三水厂,细颗粒物(PM2.5),58,49,52,39,26,14,14,35,27,37,22,5,4,0.7,0.6
2026-04-05T1000,2538A,103.7571,29.5664,乐山市,市监测站,细颗粒物(PM2.5),64,54,56,42,26,6,6,38,27,30,16,3,4,0.9,0.7
2026-04-05T1000,3361A,103.7313,29.563,乐山市,理工大学,细颗粒物(PM2.5),72,55,53,46,27,9,9,32,24,32,15,5,4,0.8,0.6
2026-04-05T1000,2599A,100.2497,26.8802,丽江市,丽江古城,,34,20,21,3,7,106,106,99,99,7,7,8,8,0.5,0.5
2026-04-05T1000,2600A,100.2203,26.8906,丽江市,市中心,,34,20,13,7,8,108,108,100,100,10,8,6,6,0.5,0.5
2026-04-05T1000,1267A,119.9141,28.4513,丽水市,监测站大楼,,36,36,34,25,15,57,57,21,21,17,18,5,5,0.5,0.4
2026-04-05T1000,1268A,119.93,28.4589,丽水市,莲都小学,,45,45,33,24,13,57,57,26,26,16,16,/,/,/,/
2026-04-05T1000,1269A,119.8794,28.4232,丽水市,余庄前,,50,50,30,29,14,60,60,11,11,20,10,5,4,0.5,0.5
2026-04-05T1000,1173A,119.1759,34.5885,连云港市,市环境监测站,细颗粒物(PM2.5),112,114,48,73,29,67,67,62,61,25,21,11,9,0.8,0.6
2026-04-05T1000,3000A,119.3577,34.6971,连云港市,德源药业,细颗粒物(PM2.5),106,110,55,66,28,68,68,82,76,26,25,9,7,0.8,0.5
2026-04-05T1000,3007A,119.178,34.8442,连云港市,新城一中,细颗粒物(PM2.5),113,89,52,74,31,73,73,78,74,23,21,10,9,0.8,0.5
2026-04-05T1000,3008A,119.3607,34.7519,连云港市,胡沟管理处,颗粒物(PM10),90,105,54,41,23,91,91,102,98,14,23,13,12,0.7,0.6
2026-04-05T1000,3009A,119.1478,34.5913,连云港市,矿山设计院,颗粒物(PM10),103,127,52,56,26,75,75,64,64,20,20,10,10,0.8,0.6
2026-04-05T1000,3434A,119.2414,34.6539,连云港市,工贸学校,细颗粒物(PM2.5),115,136,65,76,30,75,75,97,90,20,15,13,12,0.8,0.5
2026-04-05T1000,3664A,119.4171,34.734,连云港市,连云街道,颗粒物(PM10),99,118,59,46,28,99,99,104,102,15,20,7,7,0.7,0.6
2026-04-05T1000,2573A,102.2629,27.8981,凉山彝族自治州,西昌市政府,,45,38,26,31,20,65,65,64,58,17,9,22,13,0.9,0.6
2026-04-05T1000,2574A,102.2686,27.885,凉山彝族自治州,凉山州政府,,40,40,27,25,14,51,51,54,46,24,10,18,7,0.9,0.4
2026-04-05T1000,4229A,102.2342,27.8859,凉山彝族自治州,凯乐南路30号,,48,48,31,22,12,46,46,53,46,30,16,27,10,1.4,0.7
2026-04-05T1000,2212A,123.1978,41.2036,辽阳市,宏伟区,,43,43,47,15,28,89,89,97,96,8,15,4,5,0.5,0.5
2026-04-05T1000,2213A,123.1684,41.2497,辽阳市,新华园,颗粒物(PM10),51,51,51,25,34,74,74,87,86,19,21,10,9,0.7,0.7
2026-04-05T1000,2214A,123.2355,41.2663,辽阳市,滨河路,,23,22,39,16,27,72,72,83,82,18,22,5,6,0.4,0.4
2026-04-05T1000,4083A,123.153,41.2874,辽阳市,铁西路150号,细颗粒物(PM2.5),92,89,52,56,35,49,49,82,79,34,21,12,7,1.2,0.6
2026-04-05T1000,2227A,125.1359,42.8845,辽源市,环保局,,36,36,34,10,19,86,86,64,64,10,10,6,6,0.4,0.4
2026-04-05T1000,4085A,125.0998,42.9134,辽源市,安宁大街333号,,41,41,36,14,20,92,92,74,74,9,9,5,5,0.4,0.4
2026-04-05T1000,1625A,115.9789,36.4372,聊城市,区政府,颗粒物(PM10),112,150,74,38,21,66,66,68,64,20,14,11,7,0.7,0.6
2026-04-05T1000,3200A,115.9772,36.4986,聊城市,监控中心,颗粒物(PM10),98,117,79,40,23,69,69,70,65,21,16,13,9,0.6,0.5
2026-04-05T1000,3513A,116.0443,36.436,聊城市,九州社区,颗粒物(PM10),101,122,76,38,22,79,79,78,74,18,16,11,7,0.5,0.5
2026-04-05T1000,4018A,116.0564,36.4609,聊城市,星美广场,颗粒物(PM10),92,108,71,37,23,74,74,71,69,14,11,11,8,0.7,0.6
2026-04-05T1000,4113A,116.0091,36.4495,聊城市,利民路,颗粒物(PM10),72,80,58,36,21,70,70,70,66,19,16,8,8,0.5,0.5
2026-04-05T1000,2632A,94.3683,29.6373,林芝市,林芝监测站,,12,7,8,3,4,36,36,55,48,7,3,6,6,0.5,0.5
2026-04-05T1000,2633A,94.3616,29.6634,林芝市,林芝人民医院,,19,19,11,3,5,40,40,61,54,12,3,6,5,0.5,0.5
2026-04-05T1000,2603A,100.0779,23.8981,临沧市,市环保局,细颗粒物(PM2.5),60,57,44,40,32,62,62,63,59,12,7,8,10,0.7,0.5
2026-04-05T1000,2604A,100.0894,23.882,临沧市,市气象局,细颗粒物(PM2.5),82,65,43,51,36,51,51,64,58,21,8,9,8,0.8,0.4
2026-04-05T1000,1733A,111.5552,36.0791,临汾市,临钢医院,颗粒物(PM10),117,162,129,63,32,70,70,33,33,26,22,20,9,1.8,0.9
2026-04-05T1000,1734A,111.4984,36.0734,临汾市,技工学校,颗粒物(PM10),97,115,108,56,37,63,63,38,35,22,20,22,10,1.5,0.8
2026-04-05T1000,1736A,111.5017,36.0857,临汾市,市委,颗粒物(PM10),116,161,128,54,34,66,66,40,36,23,20,23,11,1.6,0.8
2026-04-05T1000,3018A,111.5048,36.1015,临汾市,唐尧大酒店,颗粒物(PM10),114,156,128,50,31,67,67,38,36,23,20,23,10,1.6,0.8
2026-04-05T1000,4244A,111.4879,36.053,临汾市,启星学校,颗粒物(PM10),113,152,129,40,26,61,61,40,37,29,26,26,13,1.5,0.8
2026-04-05T1000,4271A,103.2464,35.6123,临夏回族自治州,滨河东路1号,颗粒物(PM10),110,145,128,46,38,41,41,30,30,40,26,10,11,0.7,0.4
2026-04-05T1000,4310A,103.207136,35.599807,临夏回族自治州,新华街21号,颗粒物(PM10),106,134,109,42,40,53,53,40,40,19,11,9,9,0.4,0.3
2026-04-05T1000,1618A,118.3429,35.0532,临沂市,沂河小区,颗粒物(PM10),101,122,74,51,30,76,76,65,65,27,22,20,16,0.5,0.4
2026-04-05T1000,1619A,118.2962,35.0568,临沂市,鲁南制药厂,颗粒物(PM10),96,114,73,52,31,86,86,73,73,25,22,22,18,0.5,0.3
2026-04-05T1000,1620A,118.2793,34.9976,临沂市,新光毛纺厂,颗粒物(PM10),93,110,74,51,32,81,81,62,62,26,26,18,18,0.4,0.3
2026-04-05T1000,1621A,118.3955,35.0889,临沂市,河东保险公司,细颗粒物(PM2.5),102,119,73,62,35,83,83,54,52,24,28,22,17,0.4,0.4
2026-04-05T1000,3370A,118.3563,35.0215,临沂市,十里堡居委,"颗粒物(PM10),细颗粒物(PM2.5)",96,114,68,58,31,77,77,62,61,30,26,25,20,0.6,0.4
2026-04-05T1000,3496A,118.359,35.1067,临沂市,南坊新区,颗粒物(PM10),100,119,65,52,29,81,81,71,70,30,24,20,16,0.5,0.4
2026-04-05T1000,3860A,118.3915,35.0297,临沂市,皇山花园小区,细颗粒物(PM2.5),96,112,68,58,33,79,79,60,60,34,29,21,18,0.6,0.3
2026-04-05T1000,1870A,109.4854,24.3898,柳州市,柳东小学,,40,40,32,26,23,38,38,52,45,10,10,4,10,0.8,0.8
2026-04-05T1000,1871A,109.4109,24.3304,柳州市,环保监测站,,49,35,33,34,23,33,33,35,32,19,19,6,6,0.9,0.8
2026-04-05T1000,1872A,109.3886,24.3408,柳州市,河西水厂,,48,45,42,33,27,31,31,33,22,17,19,6,7,0.9,0.8
2026-04-05T1000,1873A,109.4263,24.2951,柳州市,市四中,细颗粒物(PM2.5),54,38,41,37,27,32,32,38,34,17,18,9,8,0.9,0.8
2026-04-05T1000,1874A,109.396,24.3658,柳州市,市九中,,49,43,37,34,26,28,28,39,34,11,12,8,8,0.8,0.7
2026-04-05T1000,1875A,109.4912,24.3164,柳州市,古亭山,,50,NA,28,35,21,14,14,27,22,30,20,6,6,0.8,0.7
2026-04-05T1000,3402A,109.5422,24.3994,柳州市,市二中,,49,44,37,34,27,27,27,30,30,13,16,7,8,0.7,0.7
2026-04-05T1000,2307A,116.5078,31.7369,六安市,监测大楼,颗粒物(PM10),74,83,65,22,28,78,78,53,53,17,14,6,4,0.4,0.5
2026-04-05T1000,2308A,116.4738,31.7642,六安市,皖西学院,颗粒物(PM10),94,111,74,23,24,86,86,64,64,9,9,5,5,0.3,0.4
2026-04-05T1000,2309A,116.4997,31.7904,六安市,朝阳厂,颗粒物(PM10),70,78,63,22,25,78,78,64,64,14,13,7,6,0.3,0.3
2026-04-05T1000,2310A,116.5566,31.7885,六安市,开发区,颗粒物(PM10),87,101,68,18,27,78,78,52,52,13,13,7,6,0.4,0.4
2026-04-05T1000,2577A,104.8293,26.592,六盘水市,黄土坡,细颗粒物(PM2.5),64,48,33,42,25,64,64,48,40,17,11,8,6,0.6,0.4
2026-04-05T1000,2579A,104.8481,26.5898,六盘水市,民中,,49,40,32,34,25,71,71,65,61,10,9,5,4,0.5,0.5
2026-04-05T1000,2580A,104.9541,26.5506,六盘水市,双水,,40,39,28,28,20,74,74,73,70,8,7,4,4,0.4,0.3
2026-04-05T1000,4151A,104.8899,26.5685,六盘水市,钟山大道中段564号,颗粒物(PM10),53,53,37,36,22,70,70,65,60,9,7,3,2,0.5,0.4
2026-04-05T1000,2336A,117.022,25.1031,龙岩市,龙岩市监测站,,28,26,27,19,14,66,66,28,28,12,13,10,8,0.9,0.7
2026-04-05T1000,2337A,117.0257,25.0662,龙岩市,闽西职业技术学院,,28,28,23,16,11,57,57,34,33,11,8,8,6,0.8,0.6
2026-04-05T1000,2338A,117.0195,25.0306,龙岩市,龙岩学院,,26,26,22,16,13,47,47,32,30,14,7,4,4,/,/
2026-04-05T1000,2885A,104.9344,33.3827,陇南市,滨江中学,颗粒物(PM10),67,73,87,38,38,46,46,37,37,18,16,11,8,0.6,0.6
2026-04-05T1000,3247A,104.9551,33.3709,陇南市,市总工会,颗粒物(PM10),76,86,83,28,31,46,46,49,45,18,14,9,7,0.6,0.5
2026-04-05T1000,2488A,111.9984,27.7346,娄底市,市监测站,"颗粒物(PM10),细颗粒物(PM2.5)",72,80,76,46,35,33,33,15,15,27,24,7,6,0.8,0.8
2026-04-05T1000,2491A,111.9888,27.7035,娄底市,市政府,颗粒物(PM10),69,76,73,40,23,41,41,18,18,18,18,6,5,0.8,0.6
2026-04-05T1000,4127A,111.9812,27.7591,娄底市,涟钢职大,颗粒物(PM10),61,65,72,20,31,43,43,11,11,22,25,13,11,0.9,0.7
2026-04-05T1000,4128A,112.0303,27.7457,娄底市,娄底体校,细颗粒物(PM2.5),78,85,75,49,31,30,30,10,10,16,8,6,6,0.6,0.6
2026-04-05T1000,1894A,105.4427,28.9063,泸州市,小市上码头,,28,27,22,19,15,43,43,79,64,25,11,22,8,0.7,0.6
2026-04-05T1000,1895A,105.4241,28.8573,泸州市,兰田宪桥,,34,34,24,17,12,42,42,68,51,23,14,9,9,0.9,0.7
2026-04-05T1000,1896A,105.4378,28.8833,泸州市,市环监站,,33,33,28,17,15,56,56,80,67,24,20,8,8,0.7,0.7
2026-04-05T1000,4272A,105.3689,28.7783,泸州市,纳溪中医医院,细颗粒物(PM2.5),54,53,43,37,26,59,59,90,76,19,12,8,8,0.8,0.6
2026-04-05T1000,2183A,111.1447,37.5212,吕梁市,环保局,NA,NA,185,76,NA,18,66,66,42,42,13,20,11,9,0.3,0.3
2026-04-05T1000,2185A,111.1285,37.5338,吕梁市,自来水公司,颗粒物(PM10),127,190,89,27,23,66,66,24,24,12,24,9,10,0.4,0.4
2026-04-05T1000,2867A,111.1225,37.5093,吕梁市,马茂庄小学,颗粒物(PM10),109,143,86,20,17,47,47,25,25,21,28,16,6,0,0.1
2026-04-05T1000,1812A,112.3934,34.6517,洛阳市,市委党校,颗粒物(PM10),85,98,89,9,21,52,52,45,40,21,19,10,11,0.6,0.5
2026-04-05T1000,1815A,112.494,34.6883,洛阳市,河南林校,颗粒物(PM10),87,101,98,26,22,56,56,38,34,26,27,13,14,0.4,0.4
2026-04-05T1000,1816A,112.3843,34.623,洛阳市,开发区管委会,颗粒物(PM10),85,99,94,11,21,57,57,36,34,18,21,14,15,0.6,0.6
2026-04-05T1000,1817A,112.4263,34.6249,洛阳市,市委新办公区,颗粒物(PM10),91,107,90,18,23,62,62,42,40,18,20,11,11,0.4,0.3
2026-04-05T1000,3340A,112.6005,34.6323,洛阳市,伊滨,颗粒物(PM10),97,115,97,16,21,64,64,44,44,20,22,10,8,0.5,0.5
2026-04-05T1000,3341A,112.495,34.6338,洛阳市,中移产业园,颗粒物(PM10),98,116,102,17,21,64,64,43,43,20,22,11,11,0.3,0.3
2026-04-05T1000,3593A,112.5736,34.8993,洛阳市,吉利监测站,颗粒物(PM10),68,75,75,9,16,69,69,52,52,17,25,11,10,0.3,0.3
2026-04-05T1000,3635A,112.3678,34.6623,洛阳市,河科大西苑校区,颗粒物(PM10),101,121,97,32,22,70,70,47,46,18,19,12,12,0.5,0.5
2026-04-05T1000,3636A,112.4387,34.678,洛阳市,英才小学,颗粒物(PM10),88,102,102,13,23,48,48,34,28,25,27,12,15,0.7,0.7
2026-04-05T1000,4214A,112.460027,34.694929,洛阳市,春都路1号院,颗粒物(PM10),95,113,114,21,24,53,53,27,24,23,25,12,14,0.7,0.7
2026-04-05T1000,2399A,114.051,33.5721,漯河市,三五一五工厂,颗粒物(PM10),99,118,116,21,30,91,91,64,64,14,20,7,8,0.3,0.3
2026-04-05T1000,2400A,114.0055,33.5698,漯河市,漯河大学,颗粒物(PM10),106,135,111,29,32,NA,NA,64,64,10,15,8,8,0.5,0.5
2026-04-05T1000,2401A,114.0134,33.5826,漯河市,市水利局,颗粒物(PM10),110,146,115,32,29,89,89,74,74,10,15,6,6,0.5,0.5
2026-04-05T1000,2402A,114.0261,33.5697,漯河市,市广电局,颗粒物(PM10),110,144,114,31,32,92,92,69,69,10,15,8,7,0.5,0.5
2026-04-05T1000,3478A,113.9691,33.568,漯河市,市图书馆,颗粒物(PM10),107,136,118,32,31,80,80,71,71,13,18,7,8,0.6,0.5
2026-04-05T1000,4250A,114.089259,33.588274,漯河市,韶山路11号,颗粒物(PM10),100,120,112,22,30,88,88,57,57,12,19,8,7,0.4,0.5
2026-04-05T1000,1798A,118.5084,31.6838,马鞍山市,湖东路四小,颗粒物(PM10),102,124,91,29,39,82,82,52,52,18,29,12,12,0.8,1
2026-04-05T1000,1799A,118.5019,31.6449,马鞍山市,开发区,颗粒物(PM10),102,125,83,30,31,77,77,41,41,23,33,11,7,0.8,0.7
2026-04-05T1000,3633A,118.4914,31.681,马鞍山市,雨山,颗粒物(PM10),95,112,84,30,32,83,83,52,52,19,27,13,12,0.9,0.9
2026-04-05T1000,4191A,118.527362,31.722269,马鞍山市,慈湖高新区,颗粒物(PM10),75,85,82,27,32,82,82,57,57,19,24,13,10,0.7,0.6
2026-04-05T1000,1686A,111.0285,21.469,茂名市,电白南海,细颗粒物(PM2.5),94,90,46,57,31,37,37,48,46,18,13,10,6,1.0,0.9
2026-04-05T1000,1687A,110.9294,21.6533,茂名市,茂石化七小,细颗粒物(PM2.5),66,70,47,43,34,35,35,40,38,17,14,15,11,0.9,0.8
2026-04-05T1000,1688A,110.9108,21.6688,茂名市,健康路,颗粒物(PM10),58,61,41,36,31,41,41,46,45,15,12,16,7,1.0,0.8
2026-04-05T1000,1689A,110.8592,21.6826,茂名市,高岭,"颗粒物(PM10),细颗粒物(PM2.5)",62,66,52,41,34,43,43,51,50,18,15,19,8,/,/
2026-04-05T1000,3450A,111.0101,21.5165,茂名市,电白水东,细颗粒物(PM2.5),66,58,36,43,31,41,41,52,49,15,10,7,5,/,/
2026-04-05T1000,2540A,103.8414,30.0871,眉山市,气象局,颗粒物(PM10),74,83,78,40,21,21,21,31,24,51,30,13,10,0.8,0.7
2026-04-05T1000,3148A,103.829,30.0563,眉山市,区人社局,颗粒物(PM10),94,111,79,44,27,38,38,40,35,50,36,17,9,1.3,1
2026-04-05T1000,4148A,103.8836,30.0695,眉山市,眉职院,颗粒物(PM10),83,96,68,44,28,27,27,12,12,43,29,10,8,0.8,0.7
2026-04-05T1000,1690A,116.1248,24.3307,梅州市,梅江月梅,,19,13,17,11,10,59,59,53,53,7,9,/,/,/,/
2026-04-05T1000,1691A,116.0798,24.2719,梅州市,梅县新城,,25,25,23,9,10,64,64,42,42,8,16,8,8,0.6,0.6
2026-04-05T1000,3315A,116.1234,24.2994,梅州市,梅龙,,20,12,15,6,8,62,62,58,58,7,10,6,6,0.6,0.6
2026-04-05T1000,1878A,104.7775,31.4741,绵阳市,富乐山,颗粒物(PM10),68,74,86,28,36,84,84,58,58,14,17,6,7,0.6,0.7
2026-04-05T1000,1880A,104.6698,31.4668,绵阳市,高新区自来水公司,颗粒物(PM10),81,93,100,33,37,79,79,72,70,18,18,6,8,0.7,0.6
2026-04-05T1000,3491A,104.6899,31.5324,绵阳市,西科大附属小学,颗粒物(PM10),75,84,104,31,40,90,90,63,63,12,23,7,8,0.4,0.5
2026-04-05T1000,3492A,104.5647,31.5343,绵阳市,安州区旅游局,颗粒物(PM10),93,110,97,31,35,81,81,54,53,12,15,6,5,0.5,0.5
2026-04-05T1000,4146A,104.7092,31.4972,绵阳市,科技城新区公安局,颗粒物(PM10),86,100,114,30,36,73,73,65,64,23,22,6,6,0.6,0.6
2026-04-05T1000,4226A,104.765114,31.453094,绵阳市,绵阳市气象局,颗粒物(PM10),73,82,97,30,37,57,57,54,54,36,23,8,9,0.5,0.5
2026-04-05T1000,1784A,129.61,44.561,牡丹江市,环保大楼,,49,42,42,34,37,59,59,50,50,16,18,4,3,0.4,0.5
2026-04-05T1000,1787A,129.6364,44.6075,牡丹江市,机车工厂,细颗粒物(PM2.5),54,NA,43,37,33,49,49,40,40,17,15,7,7,0.6,0.5
2026-04-05T1000,1788A,129.6386,44.5462,牡丹江市,第一中学,,46,NA,36,32,31,53,53,45,45,15,23,4,4,0.4,0.4
2026-04-05T1000,4287A,129.5992,44.5964,牡丹江市,东晓云街98号,细颗粒物(PM2.5),54,42,47,37,36,59,59,45,45,12,12,5,4,0.5,0.5
2026-04-05T1000,2531A,105.0703,29.61,内江市,市监测站,颗粒物(PM10),63,68,55,33,22,53,53,91,78,26,13,9,9,0.7,0.5
2026-04-05T1000,2533A,105.0657,29.5807,内江市,内江二中,颗粒物(PM10),92,108,63,30,23,64,64,87,77,25,14,8,9,0.3,0.3
2026-04-05T1000,2534A,105.0407,29.5828,内江市,内江日报社,细颗粒物(PM2.5),52,50,54,36,23,58,58,88,78,20,12,8,8,0.5,0.4
2026-04-05T1000,4147A,105.0433,29.6105,内江市,玉峰路西段888号,细颗粒物(PM2.5),121,NA,57,83,28,66,66,92,86,25,15,13,13,0.4,0.3
2026-04-05T1000,2628A,92.0653,31.4846,那曲市,那曲监测站,细颗粒物(PM2.5),68,62,32,44,20,48,48,42,42,25,16,17,8,1.1,0.9
2026-04-05T1000,4243A,92.0515,31.4787,那曲市,那曲市委宣传部,细颗粒物(PM2.5),60,41,24,40,15,53,53,37,37,20,11,14,8,1.0,0.6
2026-04-05T1000,1291A,115.8887,28.7006,南昌市,省林业公司,细颗粒物(PM2.5),66,46,47,43,29,51,51,20,20,32,32,9,6,0.7,0.6
2026-04-05T1000,1292A,115.813,28.7443,南昌市,林科所,,40,39,35,28,20,73,73,28,28,12,34,14,9,0.6,0.6
2026-04-05T1000,1294A,115.8518,28.687,南昌市,建工学校,细颗粒物(PM2.5),54,50,57,37,28,61,61,24,24,28,39,14,11,0.9,0.9
2026-04-05T1000,1295A,115.8926,28.6425,南昌市,象湖,细颗粒物(PM2.5),64,65,48,42,31,54,54,11,11,25,39,18,10,1.0,1
2026-04-05T1000,3046A,115.9084,28.6062,南昌市,机电学校,细颗粒物(PM2.5),72,76,58,46,32,67,67,20,20,13,31,14,7,0.7,0.7
2026-04-05T1000,3690A,115.9718,28.7032,南昌市,外国语学校,,49,49,46,29,27,62,62,43,42,17,21,18,12,0.9,0.7
2026-04-05T1000,4106A,115.7923,28.6873,南昌市,工业二路,颗粒物(PM10),53,53,50,30,22,66,66,19,19,23,32,11,6,0.7,0.7
2026-04-05T1000,4192A,115.931587,28.686774,南昌市,南京东路235号,颗粒物(PM10),63,68,68,38,38,67,67,24,24,12,26,14,8,0.6,0.7
2026-04-05T1000,1906A,106.0791,30.8022,南充市,南充市委,颗粒物(PM10),100,120,112,46,38,24,24,42,35,30,26,9,8,0.5,0.4
2026-04-05T1000,1907A,106.1038,30.8215,南充市,南充炼油厂,NA,NA,120,126,46,38,NA,NA,48,41,31,19,7,6,0.3,0.2
2026-04-05T1000,4227A,106.108336,30.788436,南充市,梨树横街98号,颗粒物(PM10),104,128,122,52,40,34,34,52,49,20,18,8,7,0.3,0.3
2026-04-05T1000,4304A,106.1172,30.843,南充市,清泉寺北路188号,细颗粒物(PM2.5),100,108,122,60,47,32,32,62,50,18,11,8,7,0.6,0.5
2026-04-05T1000,4305A,106.067,30.7616,南充市,同庆路1号,颗粒物(PM10),98,117,116,46,38,38,38,50,50,23,24,9,8,0.5,0.4
2026-04-05T1000,1151A,118.8033,32.1085,南京市,迈皋桥,颗粒物(PM10),88,103,85,29,37,88,88,69,66,29,29,14,9,1.2,0.8
2026-04-05T1000,1152A,118.7487,32.057,南京市,草场门,颗粒物(PM10),109,141,101,24,33,83,83,66,64,27,28,21,11,1.2,0.4
2026-04-05T1000,1154A,118.770105,32.004342,南京市,中华门,颗粒物(PM10),103,127,98,18,33,86,86,55,54,19,23,8,5,0.8,0.5
2026-04-05T1000,1155A,118.8059,32.0329,南京市,瑞金路,颗粒物(PM10),103,127,104,35,39,81,81,60,58,11,14,8,6,1.1,0.9
2026-04-05T1000,1156A,118.7946,32.0774,南京市,玄武湖,颗粒物(PM10),89,104,91,22,31,85,85,71,65,16,15,15,11,1.0,1
2026-04-05T1000,1157A,118.6415,32.0964,南京市,浦口,NA,NA,104,96,17,32,79,79,53,53,19,21,8,5,NA,1.9
2026-04-05T1000,1158A,118.730129,32.000956,南京市,奥体中心,颗粒物(PM10),106,134,103,19,31,70,70,48,47,17,21,15,9,0.9,0.4
2026-04-05T1000,1159A,118.9072,32.1047,南京市,仙林大学城,颗粒物(PM10),106,134,113,23,36,88,88,63,60,18,24,12,11,0.8,0.7
2026-04-05T1000,3422A,118.8443,31.919,南京市,江宁彩虹桥,颗粒物(PM10),94,111,89,18,28,91,91,65,65,16,21,4,4,0.8,0.7
2026-04-05T1000,3427A,118.8497,32.3599,南京市,六合雄州,颗粒物(PM10),75,84,87,37,36,77,77,50,50,37,35,10,5,1.8,0.8
2026-04-05T1000,4086A,118.7641,32.0841,南京市,新模范马路66号,颗粒物(PM10),116,161,109,23,32,78,78,66,61,27,19,8,4,1.3,0.6
2026-04-05T1000,4249A,118.8707617,31.34017673,南京市,汶溪路181号,颗粒物(PM10),89,104,64,19,25,86,86,56,55,10,17,8,7,0.1,0.2
2026-04-05T1000,4312A,119.019,31.6512,南京市,中山西路1号,颗粒物(PM10),104,129,80,20,28,81,81,51,51,11,23,4,4,0.5,0.6
2026-04-05T1000,1401A,108.3098,22.788,南宁市,二十一中,细颗粒物(PM2.5),92,61,43,56,33,47,47,58,58,11,13,3,4,0.7,0.6
2026-04-05T1000,1402A,108.3135,22.8529,南宁市,北湖,细颗粒物(PM2.5),109,NA,43,69,40,42,42,63,60,18,16,3,5,0.8,0.6
2026-04-05T1000,1403A,108.3205,22.8222,南宁市,市监测站,细颗粒物(PM2.5),103,NA,40,63,32,55,55,78,72,10,10,3,5,0.7,0.7
2026-04-05T1000,1404A,108.3828,22.8038,南宁市,大自然花园,细颗粒物(PM2.5),110,NA,37,71,33,57,57,72,69,10,12,6,7,0.6,0.4
2026-04-05T1000,1406A,108.2397,22.8462,南宁市,区农职院,细颗粒物(PM2.5),86,62,44,53,32,57,57,58,58,10,13,7,8,0.5,0.4
2026-04-05T1000,1407A,108.3285,22.7356,南宁市,英华嘉园,细颗粒物(PM2.5),98,NA,49,59,33,56,56,65,63,11,18,4,5,0.8,0.6
2026-04-05T1000,3401A,108.4829,22.762,南宁市,红星社区,细颗粒物(PM2.5),100,67,43,60,37,60,60,57,57,10,15,5,6,0.7,0.6
2026-04-05T1000,4132A,108.2927,23.1477,南宁市,起凤路9号,细颗粒物(PM2.5),112,84,52,73,40,66,66,70,70,6,12,5,8,0.7,0.6
2026-04-05T1000,4221A,108.2177,22.7774,南宁市,乐贤路16号,细颗粒物(PM2.5),92,61,42,56,31,51,51,52,52,12,22,7,8,0.9,0.6
2026-04-05T1000,2332A,118.1682,26.6371,南平市,南平市监测站,,36,36,36,25,19,55,55,20,20,8,12,4,4,0.5,0.4
2026-04-05T1000,2334A,118.1757,26.6276,南平市,南平七中,颗粒物(PM10),55,56,32,31,17,46,46,16,16,10,10,2,2,0.6,0.5
2026-04-05T1000,1168A,120.9056,31.9669,南通市,狼山街道,颗粒物(PM10),69,76,83,37,34,91,91,57,57,33,23,8,4,0.6,0.5
2026-04-05T1000,1170A,120.8635,32.0231,南通市,城中,颗粒物(PM10),85,99,96,40,37,78,78,59,57,31,16,8,5,0.8,0.5
2026-04-05T1000,1171A,120.9376,31.9301,南通市,星湖花园,细颗粒物(PM2.5),90,101,87,55,42,88,88,53,53,30,21,8,5,0.7,0.7
2026-04-05T1000,1172A,120.8053,32.046,南通市,紫琅学院,颗粒物(PM10),70,77,82,42,36,66,66,55,51,45,23,9,5,1.0,0.8
2026-04-05T1000,3291A,121.0631,32.0644,南通市,通州监测站,颗粒物(PM10),74,83,77,46,33,93,93,69,68,21,10,5,4,0.7,0.6
2026-04-05T1000,3432A,120.9348,31.9874,南通市,环境教育馆,颗粒物(PM10),80,92,83,45,33,89,89,55,55,34,16,9,5,0.7,0.6
2026-04-05T1000,4091A,120.8692,31.9885,南通市,洪江路,细颗粒物(PM2.5),86,87,84,53,42,74,74,49,48,38,27,9,5,1.2,0.9
2026-04-05T1000,2404A,112.5338,33.0086,南阳市,瓦房庄,颗粒物(PM10),101,121,109,39,20,80,80,50,50,18,19,8,6,0.9,0.6
2026-04-05T1000,2405A,112.5002,32.9734,南阳市,汉画馆,颗粒物(PM10),109,141,113,49,27,64,64,38,38,22,25,11,7,1.0,0.7
2026-04-05T1000,2406A,112.5778,33.0144,南阳市,气象站,颗粒物(PM10),110,144,134,20,25,83,83,56,56,20,25,8,6,0.8,0.5
2026-04-05T1000,2407A,112.548,32.9687,南阳市,理工学院,颗粒物(PM10),105,132,113,41,26,76,76,41,41,13,24,10,7,0.8,0.6
2026-04-05T1000,4008A,112.5233,32.9921,南阳市,卧龙区政府,颗粒物(PM10),114,154,119,45,26,72,72,42,42,19,23,10,8,0.9,0.6
2026-04-05T1000,1234A,121.8352,29.9111,宁波市,区环保大楼,,37,23,58,15,37,116,116,113,111,14,24,6,6,0.6,0.7
2026-04-05T1000,1235A,121.5595,29.8208,宁波市,万里学院,,35,27,46,15,35,111,111,101,101,11,13,8,7,0.6,0.6
2026-04-05T1000,1236A,121.713,29.9564,宁波市,龙赛医院,,34,21,59,10,34,107,107,97,97,13,21,6,6,0.5,0.5
2026-04-05T1000,1240A,121.5855,29.8635,宁波市,太古小学,,35,23,56,14,32,109,109,99,98,12,15,5,4,0.5,0.5
2026-04-05T1000,1241A,121.5239,29.8673,宁波市,市环境监测中心,,33,33,53,19,37,100,100,86,86,12,16,8,7,0.5,0.5
2026-04-05T1000,2871A,121.6156,29.9015,宁波市,万里国际学校,,36,27,49,14,31,115,115,114,113,14,17,5,5,0.5,0.5
2026-04-05T1000,3710A,121.5593,29.8976,宁波市,白沙活动中心,,35,27,42,13,32,112,112,99,98,12,15,6,6,0.5,0.5
2026-04-05T1000,4095A,121.8962,29.7529,宁波市,中科路88号,,47,47,57,32,36,129,129,124,124,13,17,6,7,0.5,0.5
2026-04-05T1000,2341A,119.5387,26.6611,宁德市,宁德市监测站,,24,24,13,14,5,76,76,44,44,15,13,6,5,0.7,0.6
2026-04-05T1000,3209A,119.5231,26.6562,宁德市,宁德一中,,25,20,14,14,6,78,78,43,43,13,10,7,5,0.5,0.4
2026-04-05T1000,2618A,98.859,25.8541,怒江傈僳族自治州,州监测站,,42,42,36,24,22,26,26,36,32,11,4,8,8,0.4,0.2
2026-04-05T1000,2619A,98.8607,25.8168,怒江傈僳族自治州,泸水一中,,37,37,32,24,22,12,12,24,20,28,19,6,6,0.7,0.5
2026-04-05T1000,1888A,101.6891,26.571,攀枝花市,弄弄坪,颗粒物(PM10),52,52,41,30,24,85,85,71,67,19,17,10,8,0.7,0.9
2026-04-05T1000,1889A,101.577,26.5914,攀枝花市,河门口,颗粒物(PM10),76,86,46,36,23,52,52,54,43,33,14,40,14,1.7,0.8
2026-04-05T1000,1891A,101.7365,26.4986,攀枝花市,仁和,,48,46,39,33,26,82,82,63,60,11,10,6,10,0.6,0.6
2026-04-05T1000,2835A,101.7222,26.567,攀枝花市,四十中小,细颗粒物(PM2.5),68,44,29,44,23,86,86,70,65,26,16,64,13,1.0,0.8
2026-04-05T1000,1604A,122.0303,41.1489,盘锦市,开发区,,29,NA,31,20,23,60,60,58,55,12,10,6,5,0.2,0.2
2026-04-05T1000,1605A,122.0486,41.0883,盘锦市,兴隆台,,32,29,31,22,24,74,74,72,69,14,14,5,5,0.3,0.3
2026-04-05T1000,1606A,121.8297,41.1026,盘锦市,新生街道,,29,25,28,20,20,80,80,72,70,19,23,7,5,0.4,0.3
2026-04-05T1000,1832A,113.3257,33.7423,平顶山市,新华旅馆,颗粒物(PM10),107,138,121,22,27,87,87,48,48,17,22,6,6,0.4,0.3
2026-04-05T1000,1833A,113.2917,33.737,平顶山市,规划设计院,颗粒物(PM10),105,131,111,18,29,84,84,53,53,15,18,9,7,0.6,0.5
2026-04-05T1000,1834A,113.182,33.7738,平顶山市,平顶山工学院,颗粒物(PM10),104,128,113,26,27,82,82,63,63,16,15,9,9,0.4,0.3
2026-04-05T1000,3594A,112.8736,33.9068,平顶山市,石龙区,颗粒物(PM10),102,125,131,18,26,101,101,49,49,13,27,10,11,0.7,0.6
2026-04-05T1000,4116A,113.284,33.7139,平顶山市,姚电大道23号,颗粒物(PM10),115,159,146,25,30,83,83,57,57,16,19,9,7,0.6,0.5
2026-04-05T1000,2656A,106.6633,35.5338,平凉市,聚贤嘉苑,颗粒物(PM10),100,119,120,50,45,52,52,52,50,29,23,7,7,0.6,0.4
2026-04-05T1000,2657A,106.7021,35.5307,平凉市,博物馆,颗粒物(PM10),108,140,128,45,43,33,33,52,45,43,22,12,10,0.7,0.4
2026-04-05T1000,2348A,113.8384,27.6436,萍乡市,中医院,颗粒物(PM10),63,68,70,28,25,60,60,47,46,15,17,16,10,0.9,1
2026-04-05T1000,2350A,113.8677,27.6438,萍乡市,市环保局,颗粒物(PM10),70,78,69,28,26,56,56,45,42,10,12,18,15,1.0,1.1
2026-04-05T1000,2351A,113.8663,27.6202,萍乡市,安源区政府,NA,NA,69,63,NA,30,46,46,30,24,17,13,17,9,1.6,0.7
2026-04-05T1000,4107A,113.8686,27.6668,萍乡市,联洪村委会,颗粒物(PM10),66,72,70,29,24,49,49,44,40,14,12,8,7,0.6,0.4
2026-04-05T1000,2319A,119.0142,25.4324,莆田市,荔城区仓后路,,35,30,20,10,9,110,110,52,52,6,14,/,/,/,/
2026-04-05T1000,2320A,119.0016,25.4553,莆田市,莆田市监测站,,36,23,15,7,4,114,114,56,56,5,8,3,2,0.6,0.6
2026-04-05T1000,2321A,119.112,25.4561,莆田市,涵江区六中,,36,35,21,25,9,112,112,55,55,8,13,/,/,0.8,0.7
2026-04-05T1000,2322A,119.1014,25.3215,莆田市,秀屿区政府,,46,46,19,27,8,114,114,57,57,9,9,6,4,0.9,0.8
2026-04-05T1000,2392A,115.0312,35.7636,濮阳市,环保局,颗粒物(PM10),95,113,83,33,21,63,63,68,62,23,14,8,4,0.7,0.4
2026-04-05T1000,3021A,115,35.7667,濮阳市,濮水河管理处,颗粒物(PM10),102,124,85,33,27,71,71,59,56,20,20,7,3,0.7,0.4
2026-04-05T1000,4118A,115.0552,35.7816,濮阳市,中原东路68号,颗粒物(PM10),100,119,90,36,19,65,65,71,65,19,13,8,3,0.6,0.4
2026-04-05T1000,4216A,115.0923632,35.76857718,濮阳市,任丘路479号,颗粒物(PM10),95,112,85,32,22,64,64,64,61,14,8,9,4,0.6,0.3
2026-04-05T1000,2601A,100.9801,22.7634,普洱市,市环保局,颗粒物(PM10),91,107,103,53,54,120,120,89,89,13,9,9,8,0.8,0.7
2026-04-05T1000,2602A,100.9763,22.8237,普洱市,普洱第二中学,颗粒物(PM10),95,113,94,57,57,104,104,72,72,16,18,6,6,0.7,0.6
2026-04-05T1000,3345A,131.0413,45.7795,七台河市,中波台,,28,22,45,3,45,88,88,49,49,6,16,3,5,0.1,0.4
2026-04-05T1000,3637A,131.0136,45.7688,七台河市,人民广场,,37,37,58,9,40,84,84,55,55,10,23,9,8,0.5,0.6
2026-04-05T1000,3684A,130.8639,45.8144,七台河市,新建矿广场,,36,36,71,20,47,78,78,44,44,12,24,7,10,0.5,0.7
2026-04-05T1000,1779A,123.9307,47.3641,齐齐哈尔市,安居小区,细颗粒物(PM2.5),64,63,56,42,33,72,72,69,66,19,13,14,14,0.6,0.5
2026-04-05T1000,1780A,123.9497,47.3389,齐齐哈尔市,中心广场,颗粒物(PM10),66,72,65,37,35,68,68,67,66,26,16,8,4,0.7,0.5
2026-04-05T1000,1781A,123.9483,47.3229,齐齐哈尔市,农牧车辆厂,细颗粒物(PM2.5),66,61,57,43,35,71,71,63,63,19,12,8,8,0.2,0.2
2026-04-05T1000,1783A,123.9442,47.2994,齐齐哈尔市,市环境监测站,细颗粒物(PM2.5),86,74,55,53,36,71,71,60,NA,20,13,5,3,0.5,0.4
2026-04-05T1000,3662A,123.6341,47.2079,齐齐哈尔市,富区青少年活动中心,,50,45,59,35,36,79,79,62,62,12,9,5,4,0.4,0.4
2026-04-05T1000,2591A,107.9765,26.5724,黔东南苗族侗族自治州,市环境监测站,,42,42,22,28,16,31,31,51,44,29,11,6,3,0.7,0.4
2026-04-05T1000,2881A,107.8909,26.531,黔东南苗族侗族自治州,凯里学院,,36,36,23,25,16,36,36,69,62,23,6,4,4,0.6,0.4
2026-04-05T1000,2593A,107.5223,26.2371,黔南布依族苗族自治州,小围寨,,43,NA,14,30,11,76,76,85,80,6,4,6,7,0.5,0.4
2026-04-05T1000,3538A,107.5175,26.2977,黔南布依族苗族自治州,沙坝,,29,27,16,20,10,42,42,60,60,11,5,5,4,0.9,0.8
2026-04-05T1000,2589A,104.9022,25.0943,黔西南布依族苗族自治州,场坝街,,36,36,28,24,19,72,72,69,67,6,6,5,7,0.4,0.4
2026-04-05T1000,2590A,104.8812,25.0994,黔西南布依族苗族自治州,坪东大道,,38,NA,26,26,22,71,71,59,59,3,3,2,2,0.4,0.3
2026-04-05T1000,2502A,108.6238,21.9667,钦州市,市环保站,细颗粒物(PM2.5),62,48,46,41,32,44,44,63,54,12,12,6,7,0.7,0.7
2026-04-05T1000,2503A,108.655,21.9481,钦州市,沙埠小学,颗粒物(PM10),64,69,53,40,35,43,43,45,43,12,14,6,6,0.9,0.8
2026-04-05T1000,2504A,108.5989,21.7435,钦州市,港区一小,颗粒物(PM10),64,69,63,38,36,54,54,64,58,10,17,2,5,0.6,0.7
2026-04-05T1000,3404A,108.5959,21.9634,钦州市,北职校,颗粒物(PM10),58,60,45,34,34,43,43,56,48,12,12,7,8,0.7,0.8
2026-04-05T1000,1046A,119.5247,39.9346,秦皇岛市,建设大厦,颗粒物(PM10),53,53,41,28,22,85,85,49,49,18,19,13,6,0.7,0.4
2026-04-05T1000,3132A,119.5979,39.938,秦皇岛市,文明里,颗粒物(PM10),63,67,43,23,22,82,82,53,53,25,23,15,9,0.8,0.4
2026-04-05T1000,4066A,119.7458,39.9952,秦皇岛市,南园路157号,颗粒物(PM10),65,71,33,39,21,52,52,61,58,48,24,13,8,0.7,0.3
2026-04-05T1000,4067A,119.5131,39.8858,秦皇岛市,翠岛大街1号,颗粒物(PM10),65,70,38,34,19,70,70,60,58,28,20,17,9,0.9,0.4
2026-04-05T1000,4198A,119.509013,39.825305,秦皇岛市,北戴河轮滑馆,颗粒物(PM10),63,68,42,32,23,75,75,58,58,27,19,20,9,1.1,0.4
2026-04-05T1000,1310A,120.404,36.0625,青岛市,市南区东部子站,"颗粒物(PM10),细颗粒物(PM2.5)",58,61,33,39,17,109,109,103,103,9,19,10,10,0.5,0.4
2026-04-05T1000,1311A,120.362344,36.10282,青岛市,四方区子站,颗粒物(PM10),63,68,35,37,19,109,109,109,109,12,15,7,7,0.8,0.6
2026-04-05T1000,1312A,120.294373,36.054183,青岛市,市南区西部子站,颗粒物(PM10),60,63,28,38,16,100,100,98,98,14,17,4,4,0.7,0.4
2026-04-05T1000,1313A,120.4581,36.0858,青岛市,崂山区子站,颗粒物(PM10),56,58,32,34,16,115,115,106,106,17,16,8,8,0.6,0.4
2026-04-05T1000,1315A,120.3945,36.3083,青岛市,城阳区子站,颗粒物(PM10),72,80,41,34,18,108,108,110,110,20,19,7,6,0.7,0.6
2026-04-05T1000,3642A,120.3454,36.0735,青岛市,市北区南部,细颗粒物(PM2.5),52,41,29,36,16,113,113,112,112,4,8,3,3,0.6,0.4
2026-04-05T1000,3643A,120.3897,36.18,青岛市,李沧区北部,颗粒物(PM10),70,78,39,37,19,98,98,100,100,19,18,9,9,0.6,0.5
2026-04-05T1000,4110A,120.5222,36.4089,青岛市,盟旺路653号,颗粒物(PM10),58,61,30,28,16,123,123,111,111,7,8,4,3,0.6,0.5
2026-04-05T1000,4290A,120.196923,35.954556,青岛市,珠江路669号,颗粒物(PM10),70,78,34,41,18,96,96,106,102,19,13,6,4,0.7,0.5
2026-04-05T1000,4291A,120.0424,35.8656,青岛市,黄岛区人民政府广场,颗粒物(PM10),62,66,30,35,14,92,92,97,94,12,11,9,8,0.6,0.5
2026-04-05T1000,1703A,113.0218,23.7086,清远市,凤城街办,,33,33,22,19,11,33,33,31,30,22,18,/,/,/,/
2026-04-05T1000,3025A,113.0479,23.6343,清远市,技师学院,,41,41,28,23,14,19,19,10,10,23,22,10,6,0.9,0.7
2026-04-05T1000,3318A,112.9898,23.7403,清远市,清新太和,,40,40,18,26,9,24,24,43,36,24,11,8,6,0.9,0.6
2026-04-05T1000,3455A,113.076,23.72,清远市,清城东城,,37,37,22,19,11,26,26,26,24,25,14,/,/,/,/
2026-04-05T1000,2661A,107.6325,35.7357,庆阳市,庆阳五中,颗粒物(PM10),118,166,116,55,41,79,79,86,84,17,15,5,5,0.3,0.4
2026-04-05T1000,2662A,107.6361,35.7067,庆阳市,市环保局,颗粒物(PM10),112,150,110,52,40,78,78,92,89,18,14,4,4,0.3,0.3
2026-04-05T1000,1916A,103.7897,25.5036,曲靖市,环境监测站,,39,39,39,23,23,105,105,91,91,9,9,8,7,0.6,0.5
2026-04-05T1000,1917A,103.8013,25.5357,曲靖市,烟厂办公区,,46,46,35,26,20,95,95,82,82,7,6,5,6,0.6,0.6
2026-04-05T1000,3376A,103.7926,25.4651,曲靖市,南苑二区,,36,36,30,24,21,89,89,81,81,11,9,4,4,0.6,0.6
2026-04-05T1000,3377A,103.7442,25.5259,曲靖市,曲靖师范学院,颗粒物(PM10),54,55,37,25,25,102,102,78,78,8,10,3,4,0.6,0.6
2026-04-05T1000,1264A,118.8694,28.94,衢州市,环保大楼,颗粒物(PM10),73,81,46,42,25,39,39,18,18,38,20,/,/,/,/
2026-04-05T1000,1266A,118.8622,28.9809,衢州市,衢州学院,颗粒物(PM10),68,74,48,29,22,41,41,12,12,23,28,7,6,0.7,0.5
2026-04-05T1000,4097A,118.9646,28.9832,衢州市,衢州三中,颗粒物(PM10),70,77,45,36,20,44,44,18,18,24,20,10,7,0.7,0.6
2026-04-05T1000,1611A,118.5818,24.9116,泉州市,涂山街,NA,NA,NA,20,15,12,80,80,38,38,12,14,NA,4,NA,0.7
2026-04-05T1000,1612A,118.597,24.8976,泉州市,津头埔,,31,31,20,18,11,82,82,52,51,16,14,5,4,0.7,0.7
2026-04-05T1000,1613A,118.6669,24.9422,泉州市,万安,,27,22,20,15,11,85,85,43,43,9,15,6,4,0.6,0.6
2026-04-05T1000,4105A,118.6355,24.9148,泉州市,霞新路6号,,27,17,16,12,11,86,86,42,42,9,14,/,/,0.6,0.6
2026-04-05T1000,2626A,88.8873,29.2723,日喀则市,日喀则监测站,,21,18,13,11,4,66,66,73,69,14,6,10,9,0.4,0.3
2026-04-05T1000,3726A,88.8775,29.2425,日喀则市,林业技术推广中心,,29,29,15,15,3,68,68,80,74,12,4,4,4,0.4,0.3
2026-04-05T1000,1659A,119.4711,35.421,日照市,监测站,颗粒物(PM10),100,119,49,55,24,84,84,49,45,31,30,15,10,1.0,0.7
2026-04-05T1000,1660A,119.523,35.4216,日照市,市政府广场,细颗粒物(PM2.5),106,110,50,66,25,80,80,54,49,37,33,19,10,1.1,0.7
2026-04-05T1000,1661A,119.5511,35.4113,日照市,港务局,颗粒物(PM10),110,146,63,55,23,70,70,50,45,51,36,26,8,1.7,0.7
2026-04-05T1000,3507A,119.5326,35.4627,日照市,职业技术学院,颗粒物(PM10),95,112,47,53,22,88,88,61,56,31,24,15,9,1.0,0.7
2026-04-05T1000,3604A,119.3267,35.1043,日照市,岚山环保分局,细颗粒物(PM2.5),104,105,57,64,26,67,67,60,56,35,30,13,11,0.8,0.7
2026-04-05T1000,1835A,111.1922,34.7752,三门峡市,市政府,颗粒物(PM10),102,124,95,33,24,39,39,14,14,32,32,19,12,0.6,0.5
2026-04-05T1000,1836A,111.1588,34.794,三门峡市,开发区,颗粒物(PM10),105,131,115,44,26,43,43,25,25,23,25,17,13,0.5,0.5
2026-04-05T1000,3039A,111.1911,34.7829,三门峡市,三门峡市第一小学,颗粒物(PM10),104,130,108,38,23,44,44,19,19,31,28,21,15,0.5,0.5
2026-04-05T1000,3598A,111.1031,34.719,三门峡市,富达温泉假日酒店,颗粒物(PM10),102,125,118,46,36,40,40,20,20,29,27,32,18,0.6,0.5
2026-04-05T1000,2324A,117.621,26.2626,三明市,三钢,,49,49,39,30,21,58,58,19,19,15,12,13,5,1.2,0.6
2026-04-05T1000,2325A,117.6352,26.2714,三明市,三明二中,,41,41,40,23,19,66,66,21,21,9,10,8,3,0.7,0.6
2026-04-05T1000,2326A,117.6028,26.2377,三明市,三元区政府,细颗粒物(PM2.5),78,68,45,49,24,34,34,15,15,34,14,35,7,3.6,1
2026-04-05T1000,1877A,109.4962,18.2682,三亚市,河西子站,,42,42,46,23,30,74,74,42,37,6,10,4,4,0.5,0.6
2026-04-05T1000,3540A,109.7348,18.3443,三亚市,君悦子站,颗粒物(PM10),55,57,47,29,25,83,83,42,42,6,10,4,4,0.7,0.6
2026-04-05T1000,4135A,109.1714,18.3739,三亚市,城东小学站,,50,50,51,32,36,85,85,41,41,5,9,/,/,/,/
2026-04-05T1000,2624A,91.7592,29.234,山南市,山南监测站,,22,22,18,3,4,58,58,81,72,2,3,10,9,0.5,0.4
2026-04-05T1000,2625A,91.7701,29.2436,山南市,山南人民医院,,24,24,23,3,5,60,60,79,71,10,4,10,8,0.3,0.3
2026-04-05T1000,1674A,116.6795,23.3666,汕头市,金平子站,,27,20,19,12,13,84,84,73,73,18,15,6,5,0.8,0.8
2026-04-05T1000,1675A,116.7248,23.3632,汕头市,龙湖子站,,25,23,19,10,12,80,80,72,72,16,13,7,6,/,/
2026-04-05T1000,1676A,116.7257,23.2774,汕头市,濠江子站,,27,27,19,15,10,80,80,72,72,15,13,10,8,/,/
2026-04-05T1000,1677A,116.7518,23.4712,汕头市,澄海子站,,29,29,21,13,11,80,80,66,66,12,11,9,7,0.8,0.8
2026-04-05T1000,1678A,116.6088,23.2539,汕头市,潮阳子站,,29,29,18,19,13,86,86,71,71,9,7,8,6,0.8,0.7
2026-04-05T1000,3444A,116.4539,23.2684,汕头市,潮南峡山,,28,28,20,18,14,71,71,68,68,12,9,7,6,0.9,0.7
2026-04-05T1000,3624A,116.4069,23.2533,汕头市,潮南子站,,25,24,21,17,15,69,69,61,61,7,9,6,6,/,/
2026-04-05T1000,1693A,115.3653,22.7751,汕尾市,市环保局,,22,22,21,15,19,68,68,68,68,9,10,5,5,0.7,0.7
2026-04-05T1000,1695A,115.362,22.7926,汕尾市,新城中学,,25,18,17,17,14,63,63,62,62,10,10,7,6,0.5,0.6
2026-04-05T1000,2645A,109.9155,33.8714,商洛市,监测站,颗粒物(PM10),75,84,126,35,41,44,44,33,33,11,15,7,8,0.4,0.4
2026-04-05T1000,3045A,109.9647,33.8486,商洛市,商州区中学,颗粒物(PM10),81,93,132,36,42,50,50,27,27,13,19,9,6,0.5,0.4
2026-04-05T1000,2408A,115.6701,34.4283,商丘市,环境监测站,颗粒物(PM10),99,118,84,35,26,81,81,82,79,8,10,6,4,0.5,0.4
2026-04-05T1000,2409A,115.6458,34.4047,商丘市,粮食局,颗粒物(PM10),95,113,77,29,24,79,79,79,75,15,16,5,3,0.5,0.3
2026-04-05T1000,3171A,115.6069,34.4465,商丘市,梁园区档案局,颗粒物(PM10),95,113,76,33,22,81,81,75,73,11,13,7,5,0.4,0.3
2026-04-05T1000,4119A,115.6701,34.3767,商丘市,北海东路185号,颗粒物(PM10),92,108,79,31,24,79,79,65,65,8,14,7,5,0.4,0.3
2026-04-05T1000,4120A,115.6172,34.3704,商丘市,中山大街3号,颗粒物(PM10),100,119,85,30,26,74,74,56,56,11,17,7,5,0.4,0.3
2026-04-05T1000,1141A,121.401,31.2382,上海市,普陀,颗粒物(PM10),53,53,70,26,43,105,105,83,83,25,25,7,6,0.7,0.6
2026-04-05T1000,1142A,121.4774,31.2043,上海市,十五厂,颗粒物(PM10),61,65,62,33,37,105,105,76,76,22,24,8,6,0.6,0.6
2026-04-05T1000,1143A,121.4673,31.3011,上海市,虹口,细颗粒物(PM2.5),84,63,68,52,46,99,99,80,80,30,28,3,3,0.6,0.6
2026-04-05T1000,1147A,121.4253,31.226,上海市,静安监测站,颗粒物(PM10),55,56,62,33,37,106,106,84,84,30,27,9,8,0.8,0.7
