timepoint,stationcode,longitude,latitude,area,positionname,primarypollutant,aqi,pm10,pm10_24h,pm2_5,pm2_5_24h,o3,o3_24h,o3_8h,o3_8h_24h,no2,no2_24h,so2,so2_24h,co,co_24h
2023-08-11T20:00:00,1001A,116.3621,39.8784,北京市,万寿西宫,细颗粒物(PM2.5),123,112,65,93,42,142,48,95,78,40,25,3,2,1.0,0.8
2023-08-11T20:00:00,1002A,116.2202,40.2915,北京市,定陵,细颗粒物(PM2.5),78,46,51,57,47,126,21,101,33,12,11,3,3,0.7,0.8
2023-08-11T20:00:00,1003A,116.4174,39.9289,北京市,东四,细颗粒物(PM2.5),99,105,64,74,38,152,37,81,60,40,27,1,1,0.9,0.7
2023-08-11T20:00:00,1004A,116.4072,39.8863,北京市,天坛,细颗粒物(PM2.5),109,100,58,82,39,142,43,90,72,47,27,3,2,0.9,0.6
2023-08-11T20:00:00,1005A,116.462,39.9365,北京市,农展馆,细颗粒物(PM2.5),107,112,70,80,42,152,42,81,67,42,32,3,3,0.9,0.7
2023-08-11T20:00:00,1006A,116.3392,39.9295,北京市,官园,细颗粒物(PM2.5),88,80,63,65,42,175,35,62,36,39,28,3,2,0.9,0.7
2023-08-11T20:00:00,1007A,116.2878,39.9611,北京市,海淀万柳,颗粒物(PM10),71,91,75,51,44,122,36,66,38,42,34,3,2,0.8,0.7
2023-08-11T20:00:00,1008A,116.6636,40.135,北京市,顺义新城,细颗粒物(PM2.5),107,72,64,80,54,121,66,92,88,17,14,3,2,1.2,0.8
2023-08-11T20:00:00,1009A,116.6275,40.3275,北京市,怀柔镇,细颗粒物(PM2.5),79,82,68,58,43,119,32,56,48,15,18,3,3,0.7,0.7
2023-08-11T20:00:00,1010A,116.2296,40.217,北京市,昌平镇,细颗粒物(PM2.5),64,63,57,46,41,113,11,92,29,34,20,3,2,0.8,0.7
2023-08-11T20:00:00,1011A,116.3966,39.9821,北京市,奥体中心,细颗粒物(PM2.5),69,59,53,50,38,118,50,83,61,34,27,3,3,0.8,0.7
2023-08-11T20:00:00,1012A,116.184,39.9136,北京市,古城,细颗粒物(PM2.5),122,100,82,92,58,127,47,76,58,33,25,3,3,0.7,0.6
2023-08-11T20:00:00,1015A,117.1444,39.1661,天津市,勤俭道,臭氧1小时,69,85,55,46,27,209,175,186,182,23,19,6,8,1.0,0.7
2023-08-11T20:00:00,1017A,117.237,39.1082,天津市,大直沽八号路,细颗粒物(PM2.5),83,107,56,61,26,174,144,165,162,34,22,3,3,1.3,0.8
2023-08-11T20:00:00,1018A,117.202,39.0927,天津市,前进道,细颗粒物(PM2.5),75,90,48,55,26,179,168,171,171,25,23,8,8,1.2,0.7
2023-08-11T20:00:00,1019A,117.1837,39.2133,天津市,淮河道,细颗粒物(PM2.5),73,92,56,53,30,203,157,183,177,37,26,11,8,1.5,0.9
2023-08-11T20:00:00,1021A,117.307,39.0877,天津市,跃进路,细颗粒物(PM2.5),90,96,53,67,27,183,178,174,174,22,22,12,7,1.4,0.8
2023-08-11T20:00:00,1023A,117.707,39.0343,天津市,第四大街,,41,41,44,17,22,178,69,147,142,42,31,4,6,0.5,0.6
2023-08-11T20:00:00,1024A,117.457,38.8394,天津市,永明路,颗粒物(PM10),52,54,48,30,26,199,141,188,184,10,17,6,8,0.7,0.7
2023-08-11T20:00:00,1026A,117.764,39.1587,天津市,汉北路,,40,25,40,13,20,211,126,182,179,7,21,6,7,0.5,0.9
2023-08-11T20:00:00,1027A,117.157,38.9194,天津市,团泊洼,细颗粒物(PM2.5),73,80,43,53,25,175,160,158,158,22,24,3,3,1.2,0.7
2023-08-11T20:00:00,1029A,114.4422,38.0444,石家庄市,职工医院,细颗粒物(PM2.5),75,74,67,55,40,192,145,173,173,6,22,1,4,1.3,0.8
2023-08-11T20:00:00,1030A,114.6063,38.0266,石家庄市,高新区,细颗粒物(PM2.5),94,84,69,70,48,216,183,196,196,12,21,2,8,0.9,0.8
2023-08-11T20:00:00,1031A,114.4898,38.1328,石家庄市,西北水源,细颗粒物(PM2.5),82,89,85,60,45,210,137,185,183,9,25,3,2,0.9,0.8
2023-08-11T20:00:00,1032A,114.4586,38.0058,石家庄市,西南高教,细颗粒物(PM2.5),93,69,67,69,39,210,166,183,183,8,21,3,3,1.3,0.9
2023-08-11T20:00:00,1033A,114.5331,38.0178,石家庄市,世纪公园,,,,66,,33,187,,166,166,,25,,10,,0.7
2023-08-11T20:00:00,1034A,114.509,38.0457,石家庄市,人民会堂,细颗粒物(PM2.5),79,71,70,58,40,212,169,192,192,11,20,2,9,1.0,0.8
2023-08-11T20:00:00,1035A,114.3524,37.8911,石家庄市,封龙山,臭氧1小时,77,100,61,44,30,193,181,166,166,12,10,8,6,1.6,1
2023-08-11T20:00:00,1037A,118.131,39.6363,唐山市,雷达站,颗粒物(PM10),57,64,73,26,35,179,69,140,134,33,32,5,5,0.7,0.9
2023-08-11T20:00:00,1038A,118.1725,39.6334,唐山市,物资局,,40,40,67,20,30,161,63,116,111,27,24,6,7,0.7,1
2023-08-11T20:00:00,1040A,118.1705,39.6506,唐山市,十二中,,38,38,60,21,31,163,61,120,114,32,23,4,5,0.8,1
2023-08-11T20:00:00,1041A,118.1869,39.622,唐山市,小山,,40,40,60,11,24,169,61,119,113,24,23,2,5,0.6,0.9
2023-08-11T20:00:00,1042A,119.5134,39.8207,秦皇岛市,北戴河环保局,,34,24,20,13,7,140,107,125,125,17,24,5,5,0.4,0.3
2023-08-11T20:00:00,1043A,119.7493,40.0116,秦皇岛市,第一关,,45,45,25,18,12,135,98,116,116,18,41,3,3,0.5,0.3
2023-08-11T20:00:00,1044A,119.5897,39.9499,秦皇岛市,监测站,,40,40,31,10,11,120,86,104,104,23,24,6,7,0.6,0.4
2023-08-11T20:00:00,1046A,119.5251,39.9041,秦皇岛市,建设大厦,,41,41,39,13,12,132,92,108,108,19,24,4,4,0.7,0.4
2023-08-11T20:00:00,1048A,114.5302,36.6116,邯郸市,东污水处理厂,细颗粒物(PM2.5),79,76,51,58,39,198,156,187,186,18,22,3,6,0.8,0.7
2023-08-11T20:00:00,1049A,114.4918,36.5713,邯郸市,矿院,细颗粒物(PM2.5),89,69,56,66,38,203,160,193,192,20,24,3,4,0.9,0.8
2023-08-11T20:00:00,1050A,114.484,36.6133,邯郸市,丛台公园,颗粒物(PM10),70,90,54,45,32,202,174,190,190,9,13,4,5,0.7,0.6
2023-08-11T20:00:00,1051A,115.493,38.8632,保定市,游泳馆,,50,50,46,34,34,162,111,158,150,17,16,9,10,0.1,0.2
2023-08-11T20:00:00,1052A,115.5213,38.8959,保定市,华电二区,,48,48,54,32,25,159,106,152,142,12,11,4,5,0.8,0.8
2023-08-11T20:00:00,1053A,115.4713,38.9108,保定市,接待中心,颗粒物(PM10),65,79,55,24,24,152,106,139,132,11,9,7,7,0.7,0.8
2023-08-11T20:00:00,1054A,115.4612,38.8416,保定市,地表水厂,颗粒物(PM10),67,84,67,30,26,160,106,149,142,20,19,7,8,0.6,0.6
2023-08-11T20:00:00,1056A,115.5086,38.8639,保定市,监测站,细颗粒物(PM2.5),59,56,49,42,31,168,118,160,155,13,16,6,7,0.2,0.4
2023-08-11T20:00:00,1057A,114.8883,40.8336,张家口市,人民公园,,28,28,59,12,25,117,28,111,76,38,16,2,2,0.4,0.5
2023-08-11T20:00:00,1059A,114.8687,40.8042,张家口市,五金库,,34,34,54,14,35,113,38,105,73,29,14,2,2,0.6,0.5
2023-08-11T20:00:00,1060A,114.8902,40.762,张家口市,世纪豪园,,28,28,47,18,36,115,47,107,70,26,15,2,2,0.4,0.4
2023-08-11T20:00:00,1061A,114.8916,40.8661,张家口市,北泵房,,38,21,42,26,27,125,26,99,80,16,12,9,9,0.7,0.7
2023-08-11T20:00:00,1062A,117.9531,40.9081,承德市,铁路,,39,39,33,13,16,68,64,60,60,19,27,7,8,0.4,0.5
2023-08-11T20:00:00,1063A,117.9392,40.9763,承德市,中国银行,,45,45,33,23,15,69,69,61,61,16,20,6,7,0.4,0.4
2023-08-11T20:00:00,1064A,117.9503,40.928,承德市,开发区,,38,38,32,11,17,89,76,68,68,12,18,6,8,0.4,0.4
2023-08-11T20:00:00,1065A,117.8051,40.9655,承德市,文化中心,,42,42,43,13,20,102,21,95,37,44,25,4,4,0.4,0.5
2023-08-11T20:00:00,1066A,117.9268,41.0026,承德市,离宫,,34,34,29,14,14,69,35,47,44,12,11,7,6,0.4,0.4
2023-08-11T20:00:00,1067A,116.6708,39.5111,廊坊市,药材公司,细颗粒物(PM2.5),59,66,51,42,30,163,128,150,148,23,19,2,4,0.6,0.5
2023-08-11T20:00:00,1068A,116.7214,39.5589,廊坊市,开发区,细颗粒物(PM2.5),59,61,44,42,26,148,94,134,125,18,15,2,4,0.7,0.5
2023-08-11T20:00:00,1070A,116.7244,39.5269,廊坊市,北华航天学院,颗粒物(PM10),72,94,60,47,32,162,86,147,136,32,19,5,8,0.7,0.5
2023-08-11T20:00:00,1071A,116.8842,38.2991,沧州市,沧县城建局,颗粒物(PM10),52,53,37,24,14,172,154,164,164,19,21,4,6,0.6,0.4
2023-08-11T20:00:00,1072A,116.8584,38.3254,沧州市,电视转播站,,50,48,31,31,19,169,160,161,161,12,19,4,7,0.5,0.4
2023-08-11T20:00:00,1073A,116.8709,38.3228,沧州市,市环保局,颗粒物(PM10),51,52,37,31,19,161,151,156,156,17,24,2,4,0.3,0.2
2023-08-11T20:00:00,1074A,115.6838,37.7541,衡水市,电机北厂,颗粒物(PM10),63,75,49,44,24,184,165,176,176,10,7,1,2,0.5,0.4
2023-08-11T20:00:00,1075A,115.6303,37.7316,衡水市,市监测站,臭氧1小时,60,50,40,28,18,182,168,175,175,13,13,7,7,0.6,0.5
2023-08-11T20:00:00,1077A,114.4704,37.0886,邢台市,达活泉,"颗粒物(PM10),细颗粒物(PM2.5)",65,79,71,47,37,240,136,213,206,8,14,9,18,0.9,1.3
2023-08-11T20:00:00,1078A,114.5062,37.0349,邢台市,邢师高专,,,,104,,40,202,115,202,158,28,17,6,6,0.6,1.1
2023-08-11T20:00:00,1079A,114.5237,37.0851,邢台市,路桥公司,细颗粒物(PM2.5),65,78,65,47,38,228,128,194,188,14,20,7,10,0.7,0.9
2023-08-11T20:00:00,1080A,114.4725,37.0719,邢台市,市环保局,细颗粒物(PM2.5),72,70,76,52,41,241,140,213,206,16,13,6,14,0.8,1.1
2023-08-11T20:00:00,1081A,112.522,37.8873,太原市,尖草坪,,32,7,78,4,50,153,100,105,105,23,26,5,5,0.7,1
2023-08-11T20:00:00,1083A,112.434,38.0108,太原市,上兰,,,,,,,,,,,,,,,,
2023-08-11T20:00:00,1084A,112.469,37.7124,太原市,晋源,,33,16,81,6,56,140,105,118,118,17,23,3,5,0.6,1.1
2023-08-11T20:00:00,1085A,112.5583,37.7394,太原市,小店,,35,5,93,4,53,166,111,131,131,14,23,2,4,0.6,1
2023-08-11T20:00:00,1086A,112.5369,37.8692,太原市,桃园,,30,8,74,4,45,145,96,109,109,23,25,6,4,1.4,1.1
2023-08-11T20:00:00,1087A,112.57,37.8195,太原市,坞城,,35,5,77,2,54,154,111,129,129,11,23,3,6,0.3,0.9
2023-08-11T20:00:00,1088A,112.549,37.9854,太原市,南寨,,27,15,82,3,47,106,85,92,92,16,36,2,3,0.5,0.8
2023-08-11T20:00:00,1090A,111.6507,40.7517,呼和浩特市,呼市一监,,39,39,38,19,25,108,78,96,96,16,18,5,6,0.5,0.6
2023-08-11T20:00:00,1091A,111.6572,40.8033,呼和浩特市,小召,,48,48,42,16,23,136,84,94,94,25,26,7,7,0.7,0.7
2023-08-11T20:00:00,1094A,111.7516,40.8369,呼和浩特市,如意水处理厂,,,36,44,,25,123,100,104,104,15,22,6,7,0.6,0.6
2023-08-11T20:00:00,1095A,111.7276,40.8062,呼和浩特市,二十九中,,44,44,42,19,28,136,94,101,83,17,25,6,7,0.6,0.7
2023-08-11T20:00:00,1096A,111.5512,40.7866,呼和浩特市,工大金川校区,,50,50,46,20,24,115,77,115,96,26,24,9,7,0.6,0.6
2023-08-11T20:00:00,1097A,111.717,40.7612,呼和浩特市,化肥厂生活区,颗粒物(PM10),52,54,59,14,25,132,71,81,81,19,23,5,5,0.6,0.7
2023-08-11T20:00:00,1098A,123.6836,41.9339,沈阳市,森林路,,,,,,,,,,,,,,,,
2023-08-11T20:00:00,1099A,123.505,41.7406,沈阳市,浑南东路,,27,27,26,9,8,82,48,72,64,29,18,7,7,0.6,0.6
2023-08-11T20:00:00,1100A,123.4231,41.6989,沈阳市,新秀街,,27,27,20,9,8,80,53,70,65,21,14,6,6,0.6,0.5
2023-08-11T20:00:00,1102A,123.5903,41.8411,沈阳市,东陵路,,21,21,23,10,9,66,39,61,56,21,13,6,5,0.4,0.4
2023-08-11T20:00:00,1103A,123.4264,41.8467,沈阳市,陵东街,,17,17,15,11,8,74,52,66,62,18,14,5,4,0.5,0.5
2023-08-11T20:00:00,1104A,123.4114,41.7653,沈阳市,文化路,,28,28,23,14,12,79,57,71,65,20,15,7,6,0.5,0.5
2023-08-11T20:00:00,1105A,123.4678,41.7867,沈阳市,小河沿,,27,27,21,12,9,77,51,69,62,28,19,5,5,0.5,0.5
2023-08-11T20:00:00,1106A,123.4017,41.7972,沈阳市,太原街,,30,30,19,16,10,71,48,63,54,21,14,6,5,0.5,0.4
2023-08-11T20:00:00,1108A,123.3783,41.9228,沈阳市,京沈街,,23,22,19,16,11,81,59,73,67,15,12,8,5,0.5,0.5
2023-08-11T20:00:00,1109A,121.612,38.9741,大连市,甘井子,,34,19,23,8,8,123,107,116,116,13,9,5,4,0.5,0.4
2023-08-11T20:00:00,1110A,121.565,38.9511,大连市,周水子,,34,18,19,8,8,124,107,117,117,18,12,5,5,0.5,0.6
2023-08-11T20:00:00,1111A,121.5637,38.8845,大连市,星海三站,,34,22,23,10,9,122,108,117,117,11,8,7,7,0.4,0.4
2023-08-11T20:00:00,1112A,121.6302,38.9117,大连市,青泥洼桥,,31,25,25,12,10,118,99,111,111,22,13,5,5,0.5,0.5
2023-08-11T20:00:00,1113A,121.6251,38.8638,大连市,傅家庄,,,26,20,13,9,128,110,121,121,16,10,9,8,,0.2
2023-08-11T20:00:00,1114A,121.5213,38.8661,大连市,七贤岭,,39,22,22,10,9,140,122,134,134,11,9,6,6,0.5,0.4
2023-08-11T20:00:00,1115A,121.2529,38.8061,大连市,旅顺,,40,26,14,8,7,133,126,127,127,6,6,4,5,0.4,0.4
2023-08-11T20:00:00,1116A,121.7485,39.1311,大连市,金州,,31,31,26,12,9,115,99,109,108,15,13,6,6,0.4,0.4
2023-08-11T20:00:00,1117A,121.7811,39.0496,大连市,开发区,,30,22,20,16,9,110,96,106,106,21,16,6,5,0.6,0.6
2023-08-11T20:00:00,1118A,121.9762,39.0631,大连市,双D港,,32,22,20,14,8,115,102,110,109,13,12,6,11,0.3,0.3
2023-08-11T20:00:00,1119A,125.3325,43.9166,长春市,食品厂,,21,21,19,7,9,86,49,64,61,13,12,3,3,0.4,0.4
2023-08-11T20:00:00,1120A,125.2863,43.9027,长春市,客车厂,,16,16,18,8,8,82,48,62,58,13,12,3,3,0.4,0.4
2023-08-11T20:00:00,1121A,125.2841,43.8463,长春市,邮电学院,,15,15,20,6,7,90,46,62,58,10,10,4,5,0.3,0.3
2023-08-11T20:00:00,1122A,125.3716,43.8772,长春市,劳动公园,,21,21,25,6,8,84,39,58,55,19,17,5,6,0.5,0.5
2023-08-11T20:00:00,1123A,125.3297,43.8805,长春市,园林处,,18,18,18,4,6,90,49,63,60,14,13,4,5,0.4,0.4
2023-08-11T20:00:00,1124A,125.4605,43.79,长春市,净月潭,,13,10,12,3,5,85,41,60,56,8,8,5,5,0.3,0.3
2023-08-11T20:00:00,1125A,125.7194,43.515,长春市,甩湾子,,,,,,,,,,,,,,,,
2023-08-11T20:00:00,1126A,125.3863,43.8447,长春市,经开区环卫处,,16,16,18,3,6,81,41,59,56,16,15,4,4,0.3,0.3
2023-08-11T20:00:00,1127A,125.245,43.7783,长春市,高新区管委会,,22,22,23,6,8,90,37,58,53,24,15,3,3,0.4,0.4
2023-08-11T20:00:00,1128A,125.1761,43.8325,长春市,岱山公园,,29,29,24,7,8,71,19,54,46,43,23,2,2,0.8,0.6
2023-08-11T20:00:00,1129A,126.5422,45.755,哈尔滨市,岭北,,18,9,15,6,12,84,55,76,69,9,8,23,21,1.8,1.7
2023-08-11T20:00:00,1130A,126.561,45.8167,哈尔滨市,松北商大,,16,16,17,6,8,68,50,64,60,7,8,5,5,0.5,0.5
2023-08-11T20:00:00,1131A,126.979,45.5419,哈尔滨市,阿城会宁,,,26,20,8,7,71,39,65,55,13,8,4,3,,0.5
2023-08-11T20:00:00,1132A,126.599,45.7222,哈尔滨市,南岗学府路,,21,21,28,8,10,79,51,73,66,6,5,4,4,0.6,0.7
2023-08-11T20:00:00,1133A,126.689,45.7733,哈尔滨市,太平宏伟公园,,42,42,35,9,10,68,42,61,55,16,15,6,6,0.5,0.5
2023-08-11T20:00:00,1134A,126.635,45.7667,哈尔滨市,道外承德广场,,27,27,30,6,10,68,40,57,50,17,17,6,5,0.4,0.6
2023-08-11T20:00:00,1135A,126.685,45.7319,哈尔滨市,香坊红旗大街,,26,26,25,2,12,80,54,72,65,12,13,6,6,0.4,0.5
2023-08-11T20:00:00,1136A,126.6411,45.7258,哈尔滨市,动力和平路,,,29,23,,,79,51,73,66,13,12,6,6,0.4,0.5
2023-08-11T20:00:00,1137A,126.593,45.7478,哈尔滨市,道里建国路,,26,26,26,8,11,79,49,66,60,13,16,5,5,0.6,0.6
2023-08-11T20:00:00,1138A,126.615,45.61,哈尔滨市,平房东轻厂,,38,38,38,13,13,71,39,63,56,21,15,5,6,0.4,0.4
2023-08-11T20:00:00,1139A,126.595,45.9855,哈尔滨市,呼兰师专,,19,19,24,8,10,74,52,68,64,12,12,6,6,0.5,0.5
2023-08-11T20:00:00,1140A,126.6206,45.6842,哈尔滨市,省农科院,,28,28,33,5,8,83,56,75,69,12,12,8,8,0.4,0.4
2023-08-11T20:00:00,1141A,121.4,31.238,上海市,普陀,臭氧1小时,100,89,64,44,33,275,200,239,238,19,24,5,8,0.8,0.8
2023-08-11T20:00:00,1142A,121.478,31.2036,上海市,十五厂,臭氧1小时,72,84,60,51,32,244,177,226,223,24,24,10,10,0.6,0.5
2023-08-11T20:00:00,1143A,121.467,31.3008,上海市,虹口,臭氧1小时,89,73,58,52,34,287,191,248,245,18,21,8,9,0.7,0.7
2023-08-11T20:00:00,1144A,121.412,31.1654,上海市,徐汇上师大,,,,61,,32,258,202,230,228,,25,,5,0.7,0.8
2023-08-11T20:00:00,1145A,121.536,31.2659,上海市,杨浦四漂,颗粒物(PM10),77,104,64,36,28,280,173,245,240,30,26,6,7,0.9,0.9
2023-08-11T20:00:00,1147A,121.425,31.2261,上海市,静安监测站,细颗粒物(PM2.5),68,81,57,49,37,223,169,196,195,19,21,2,3,0.9,0.8
2023-08-11T20:00:00,1148A,121.703,31.1907,上海市,浦东川沙,臭氧1小时,122,128,74,55,35,243,243,233,233,23,26,7,6,0.9,0.7
2023-08-11T20:00:00,1149A,121.533,31.2284,上海市,浦东新区监测站,颗粒物(PM10),63,76,58,39,32,249,168,228,224,22,20,3,3,0.7,0.7
2023-08-11T20:00:00,1150A,121.577,31.2071,上海市,浦东张江,,,,56,,27,231,179,210,208,,21,,5,0.8,0.8
2023-08-11T20:00:00,1151A,118.8086,32.1065,南京市,迈皋桥,"颗粒物(PM10),细颗粒物(PM2.5)",58,65,47,41,28,281,155,252,240,36,25,6,6,1.0,0.7
2023-08-11T20:00:00,1152A,118.7538,32.0551,南京市,草场门,臭氧1小时,104,90,57,41,29,278,207,245,243,31,32,11,10,1.3,0.8
2023-08-11T20:00:00,1153A,118.7794,32.0745,南京市,山西路,臭氧1小时,121,80,58,39,26,277,242,255,255,18,19,5,4,0.9,0.6
2023-08-11T20:00:00,1154A,118.7752,32.0023,南京市,中华门,臭氧1小时,107,73,50,41,27,272,213,227,227,21,27,7,8,1.4,1
2023-08-11T20:00:00,1155A,118.8109,32.0309,南京市,瑞金路,臭氧1小时,101,80,54,53,30,278,201,232,231,31,28,4,4,1.1,0.7
2023-08-11T20:00:00,1156A,118.7997,32.0754,南京市,玄武湖,臭氧1小时,105,66,48,40,26,260,209,235,234,26,23,9,9,1.1,0.8
2023-08-11T20:00:00,1157A,118.6414,32.0931,南京市,浦口,臭氧1小时,90,47,50,41,27,284,192,238,230,9,13,5,7,0.7,0.7
2023-08-11T20:00:00,1158A,118.7356,31.9996,南京市,奥体中心,臭氧1小时,118,73,54,44,31,286,235,238,238,17,33,9,9,1.2,0.8
2023-08-11T20:00:00,1159A,118.9125,32.1028,南京市,仙林大学城,颗粒物(PM10),53,56,46,24,23,255,141,221,213,35,27,8,8,0.7,0.7
2023-08-11T20:00:00,1160A,120.561,31.2472,苏州市,上方山,臭氧1小时,85,55,62,46,39,196,188,185,185,5,16,6,7,0.6,0.7
2023-08-11T20:00:00,1162A,120.591,31.3019,苏州市,彩香,臭氧1小时,101,56,59,36,38,212,202,203,203,13,19,8,8,0.8,0.9
2023-08-11T20:00:00,1163A,120.596,31.3264,苏州市,轧钢厂,臭氧1小时,102,56,66,30,40,226,203,215,215,14,22,9,10,0.7,0.8
2023-08-11T20:00:00,1164A,120.613,31.2703,苏州市,吴中区,臭氧1小时,109,63,69,32,41,237,217,226,224,16,24,8,9,0.7,0.8
2023-08-11T20:00:00,1165A,120.543,31.2994,苏州市,苏州新区,臭氧1小时,63,51,61,29,36,217,170,205,203,22,20,8,8,0.7,0.8
2023-08-11T20:00:00,1166A,120.669,31.3097,苏州市,苏州工业园区,臭氧1小时,82,57,59,32,38,239,185,229,222,18,14,7,8,0.9,0.9
2023-08-11T20:00:00,1167A,120.641,31.3708,苏州市,相城区,颗粒物(PM10),57,64,55,33,36,238,124,221,207,54,22,6,6,0.8,0.9
2023-08-11T20:00:00,1168A,120.9098,31.9663,南通市,狼山街道,颗粒物(PM10),54,57,35,33,22,244,152,212,203,18,18,9,10,0.8,0.8
2023-08-11T20:00:00,1169A,120.86,32.0005,南通市,虹桥,颗粒物(PM10),58,65,44,39,32,274,157,248,241,22,22,7,8,1.2,1.1
2023-08-11T20:00:00,1170A,120.87,32.02,南通市,城中,细颗粒物(PM2.5),59,51,40,42,28,277,149,248,240,19,19,6,9,1.2,1.1
2023-08-11T20:00:00,1171A,120.94,31.93,南通市,星湖花园,颗粒物(PM10),54,58,40,31,23,253,146,222,213,23,21,6,8,0.7,0.7
2023-08-11T20:00:00,1172A,120.81,32.0417,南通市,紫琅学院,颗粒物(PM10),57,64,50,35,27,265,150,250,244,25,25,8,11,1.2,1.2
2023-08-11T20:00:00,1173A,119.176,34.5885,连云港市,市环境监测站,颗粒物(PM10),57,63,36,31,13,176,148,154,154,15,18,5,9,0.6,0.7
2023-08-11T20:00:00,1177A,117.179,34.2761,徐州市,黄河新村,细颗粒物(PM2.5),80,80,80,59,48,204,161,191,182,11,19,8,11,0.7,0.7
2023-08-11T20:00:00,1178A,117.1918,34.2384,徐州市,淮塔,细颗粒物(PM2.5),69,81,81,50,45,209,156,196,189,12,17,10,13,0.5,0.5
2023-08-11T20:00:00,1180A,117.256,34.2153,徐州市,新城区,细颗粒物(PM2.5),64,75,81,46,45,218,162,196,193,12,17,7,9,0.8,0.7
2023-08-11T20:00:00,1181A,117.244,34.2911,徐州市,桃园路,颗粒物(PM10),64,78,75,44,41,214,156,198,190,10,18,9,12,0.7,0.7
2023-08-11T20:00:00,1182A,117.2933,34.2778,徐州市,农科院,臭氧1小时,62,68,68,43,43,221,169,201,197,10,24,5,7,0.6,0.6
2023-08-11T20:00:00,1186A,119.389,32.3761,扬州市,邗江监测站,臭氧1小时,95,68,62,34,32,255,196,223,215,22,19,5,3,0.9,0.9
2023-08-11T20:00:00,1188A,120.269,31.4867,无锡市,雪浪,,,,55,27,32,216,162,198,194,15,15,4,5,0.8,0.9
2023-08-11T20:00:00,1189A,120.275,31.6219,无锡市,黄巷,"颗粒物(PM10),细颗粒物(PM2.5)",52,53,65,36,37,216,159,199,189,32,34,6,7,0.8,0.9
2023-08-11T20:00:00,1190A,120.294,31.56,无锡市,曹张,臭氧1小时,67,57,55,34,38,193,173,182,180,20,27,8,9,0.9,0.9
2023-08-11T20:00:00,1191A,120.242,31.5031,无锡市,漆塘,,44,44,49,27,34,210,132,186,177,13,16,5,5,1.0,1.1
2023-08-11T20:00:00,1192A,120.3489,31.5863,无锡市,东亭,,48,46,62,22,40,222,151,203,191,34,34,5,6,0.6,0.8
2023-08-11T20:00:00,1193A,120.354,31.5475,无锡市,旺庄,颗粒物(PM10),51,51,62,24,40,206,152,194,185,23,24,8,9,0.9,1
2023-08-11T20:00:00,1194A,120.245,31.5631,无锡市,荣巷,,46,44,45,31,31,199,146,182,177,8,13,8,9,0.7,0.8
2023-08-11T20:00:00,1195A,120.299,31.6817,无锡市,堰桥,,46,46,59,27,36,265,136,239,221,37,24,6,8,0.8,1
2023-08-11T20:00:00,1196A,119.9633,31.762,常州市,市监测站,臭氧1小时,94,56,55,37,33,246,195,233,227,21,16,8,8,0.7,0.7
2023-08-11T20:00:00,1200A,119.9468,31.7069,常州市,武进监测站,臭氧1小时,89,58,59,38,33,244,191,225,220,17,15,9,9,0.7,0.7
2023-08-11T20:00:00,1201A,119.9255,31.9087,常州市,安家,臭氧1小时,74,66,56,43,43,296,179,266,256,25,29,7,6,0.8,0.9
2023-08-11T20:00:00,1203A,119.6707,32.1875,镇江市,新区办事处,颗粒物(PM10),51,51,50,28,37,239,118,212,200,37,45,3,4,0.7,0.8
2023-08-11T20:00:00,1204A,119.4974,32.1968,镇江市,职教中心,,49,49,57,33,40,237,136,224,208,40,22,8,7,0.8,0.8
2023-08-11T20:00:00,1205A,119.4303,32.1328,镇江市,丹徒区监测站,臭氧1小时,80,54,55,30,37,241,184,222,215,16,16,1,2,0.8,0.9
2023-08-11T20:00:00,1206A,119.905,32.4878,泰州市,公园路,细颗粒物(PM2.5),67,58,55,48,44,261,169,241,237,15,16,3,3,1.1,1.1
2023-08-11T20:00:00,1207A,119.9189,32.4625,泰州市,莲花,臭氧1小时,65,61,60,36,40,264,172,246,241,14,16,4,4,0.9,1
2023-08-11T20:00:00,1209A,119.888,32.4639,泰州市,留学生创业园,臭氧1小时,75,64,60,34,38,258,180,242,238,14,22,6,7,0.8,0.8
2023-08-11T20:00:00,1210A,119.036,33.5981,淮安市,钵池山,,44,44,41,30,28,180,139,162,162,14,18,7,8,0.9,0.9
2023-08-11T20:00:00,1211A,119.007,33.575,淮安市,北京南路,,46,46,50,28,30,179,126,157,157,18,25,8,10,0.9,0.9
2023-08-11T20:00:00,1212A,118.989,33.6067,淮安市,市监测站,颗粒物(PM10),52,53,60,27,27,188,146,174,174,15,26,6,8,0.9,0.9
2023-08-11T20:00:00,1213A,119.135,33.5039,淮安市,楚州区监测站,颗粒物(PM10),56,61,54,31,30,169,125,151,150,23,24,7,8,1.0,0.9
2023-08-11T20:00:00,1214A,119.0186,33.6297,淮安市,淮阴区监测站,颗粒物(PM10),51,51,56,31,30,184,126,162,161,28,27,8,9,0.8,0.7
2023-08-11T20:00:00,1215A,120.118,33.4022,盐城市,盐城电厂,颗粒物(PM10),76,102,37,39,21,174,148,154,154,19,10,5,5,0.9,0.6
2023-08-11T20:00:00,1216A,120.156,33.3942,盐城市,市监测站,臭氧1小时,65,62,34,34,16,200,172,174,174,13,9,6,6,0.8,0.7
2023-08-11T20:00:00,1218A,120.2144,33.38,盐城市,开发区管委会,,46,46,29,25,20,177,117,148,148,28,12,5,4,0.5,0.5
2023-08-11T20:00:00,1220A,118.293,33.9528,宿迁市,宿迁学院,细颗粒物(PM2.5),87,74,60,64,45,192,179,185,185,14,20,8,10,0.8,0.8
2023-08-11T20:00:00,1221A,118.2442,33.9592,宿迁市,宿迁中学,臭氧1小时,90,81,62,58,37,192,192,190,190,12,18,6,8,0.7,0.6
2023-08-11T20:00:00,1223A,120.2072,30.2111,杭州市,滨江,臭氧1小时,100,102,60,58,34,210,200,195,194,30,27,8,7,0.8,0.7
2023-08-11T20:00:00,1224A,120.0633,30.2747,杭州市,西溪,颗粒物(PM10),52,54,48,33,26,204,97,189,170,16,23,4,4,0.9,0.9
2023-08-11T20:00:00,1226A,120.3461,30.3153,杭州市,下沙,臭氧1小时,120,104,69,78,47,303,240,267,267,26,28,3,3,0.9,0.9
2023-08-11T20:00:00,1227A,120.1269,30.2456,杭州市,卧龙桥,,50,48,40,35,31,232,76,208,177,26,14,4,5,0.9,0.8
2023-08-11T20:00:00,1228A,120.1903,30.2692,杭州市,浙江农大,臭氧1小时,114,93,45,73,34,231,227,189,189,25,25,10,8,0.9,0.8
2023-08-11T20:00:00,1230A,120.1197,30.3119,杭州市,和睦小学,臭氧1小时,134,93,48,60,32,268,268,225,225,27,26,10,7,1.0,0.9
2023-08-11T20:00:00,1231A,120.3019,30.4183,杭州市,临平镇,臭氧1小时,142,128,64,70,40,317,284,275,275,23,20,6,5,0.8,0.6
2023-08-11T20:00:00,1232A,120.2697,30.1819,杭州市,城厢镇,"细颗粒物(PM2.5),臭氧1小时",98,94,59,73,47,224,198,214,206,31,24,9,7,0.8,0.7
2023-08-11T20:00:00,1233A,120.0883,30.1808,杭州市,云栖,,48,48,51,31,27,221,113,206,184,16,16,6,6,0.9,0.9
2023-08-11T20:00:00,1234A,121.8358,29.911,宁波市,区环保大楼,,44,30,36,24,25,242,138,198,173,14,23,3,4,0.6,0.7
2023-08-11T20:00:00,1235A,121.56,29.82,宁波市,万里学院,,43,43,53,28,36,185,128,176,154,14,23,5,6,0.7,0.7
2023-08-11T20:00:00,1236A,121.713,29.9572,宁波市,龙赛医院,,43,38,66,20,30,291,137,224,203,12,27,8,10,0.6,0.7
2023-08-11T20:00:00,1239A,121.633,29.7733,宁波市,钱湖水厂,,41,36,47,21,29,171,131,160,150,4,8,4,4,0.8,0.8
2023-08-11T20:00:00,1240A,121.5856,29.8635,宁波市,太古小学,,45,45,44,25,26,181,111,175,158,17,17,4,4,0.9,0.9
2023-08-11T20:00:00,1241A,121.524,29.8674,宁波市,市环境监测中心,,44,44,44,28,30,250,127,207,190,16,14,5,6,0.6,0.6
2023-08-11T20:00:00,1242A,120.634,28.0089,温州市,瓯海,,29,28,37,20,25,158,86,125,116,18,24,5,5,0.6,0.6
2023-08-11T20:00:00,1243A,120.6748,27.9939,温州市,南浦,,31,27,33,19,25,167,98,130,124,15,21,6,6,0.6,0.6
2023-08-11T20:00:00,1244A,120.76,27.9747,温州市,龙湾,,29,27,36,15,20,155,91,120,115,18,26,6,6,0.6,0.6
2023-08-11T20:00:00,1245A,120.6709,28.0167,温州市,市站,,27,24,39,16,25,144,86,115,106,11,26,4,5,0.6,0.6
2023-08-11T20:00:00,1247A,120.6053,29.9928,绍兴市,城东开发委,细颗粒物(PM2.5),73,84,55,53,38,212,174,199,186,29,20,7,5,0.6,0.5
2023-08-11T20:00:00,1250A,120.0751,30.8669,湖州市,城西水厂,臭氧1小时,92,60,50,35,31,238,193,217,217,22,40,2,4,0.7,0.7
2023-08-11T20:00:00,1252A,120.7436,30.778,嘉兴市,清河小学,臭氧1小时,103,77,46,44,35,234,205,224,224,16,19,5,5,0.8,1
2023-08-11T20:00:00,1253A,120.726,30.7478,嘉兴市,嘉兴学院,臭氧1小时,90,69,58,47,40,237,192,230,228,22,27,3,4,0.8,0.8
2023-08-11T20:00:00,1255A,121.273,28.6459,台州市,黄岩环保大楼,,39,38,35,26,26,154,123,142,140,12,14,5,4,0.6,0.6
2023-08-11T20:00:00,1256A,121.419,28.6542,台州市,台州环保大楼,,48,46,40,33,27,137,126,129,126,8,8,4,4,0.6,0.7
2023-08-11T20:00:00,1257A,121.377,28.5773,台州市,路桥田洋王,,50,50,36,33,28,146,121,135,132,17,12,7,5,0.6,0.6
2023-08-11T20:00:00,1258A,122.122,30.0203,舟山市,定海檀枫,,34,30,42,18,26,211,108,177,152,18,20,6,6,0.5,0.6
2023-08-11T20:00:00,1259A,122.3094,29.9558,舟山市,普陀东港,,39,30,34,18,22,153,122,141,131,15,13,4,4,0.5,0.5
2023-08-11T20:00:00,1260A,122.19,29.9944,舟山市,临城新区,,42,27,37,18,23,181,133,162,154,11,20,6,7,0.3,0.4
2023-08-11T20:00:00,1262A,119.647,29.077,金华市,十五中,颗粒物(PM10),56,61,53,20,24,169,138,154,150,26,22,3,3,0.6,0.5
2023-08-11T20:00:00,1263A,119.686,29.1029,金华市,监测站,细颗粒物(PM2.5),80,78,49,59,32,182,114,157,150,43,26,4,4,0.7,0.6
2023-08-11T20:00:00,1264A,118.8692,28.9398,衢州市,环保大楼,细颗粒物(PM2.5),57,56,45,40,30,175,109,160,149,20,16,4,4,0.6,0.5
2023-08-11T20:00:00,1265A,118.8709,28.9666,衢州市,实验学校,颗粒物(PM10),54,57,46,33,26,168,100,157,146,27,22,8,7,0.4,0.5
2023-08-11T20:00:00,1266A,118.8621,28.9808,衢州市,衢州学院,细颗粒物(PM2.5),57,62,43,40,27,169,88,152,137,32,20,6,6,0.6,0.5
2023-08-11T20:00:00,1267A,119.914,28.4514,丽水市,监测站大楼,,,38,35,26,12,149,136,131,131,8,10,,5,0.5,0.5
2023-08-11T20:00:00,1268A,119.93,28.4586,丽水市,莲都小学,,47,47,35,30,20,147,140,134,134,8,11,5,5,0.5,0.5
2023-08-11T20:00:00,1269A,119.879,28.4231,丽水市,余庄前,,43,43,35,30,24,134,106,122,116,10,13,4,4,0.5,0.5
2023-08-11T20:00:00,1270A,117.1959,31.7848,合肥市,明珠广场,颗粒物(PM10),57,63,59,36,33,186,134,176,165,26,23,6,6,0.6,0.5
2023-08-11T20:00:00,1271A,117.3072,31.8764,合肥市,三里街,,48,48,63,24,39,189,97,169,145,35,26,5,5,0.4,0.7
2023-08-11T20:00:00,1272A,117.2588,31.8707,合肥市,琥珀山庄,,48,48,62,24,35,210,96,189,166,21,22,4,5,0.5,0.6
2023-08-11T20:00:00,1273A,117.1604,31.9052,合肥市,董铺水库,颗粒物(PM10),52,53,53,22,30,221,120,188,174,16,19,4,4,0.5,0.5
2023-08-11T20:00:00,1274A,117.25,31.8571,合肥市,长江中路,颗粒物(PM10),58,66,69,28,35,198,116,178,160,27,20,7,6,0.5,0.6
2023-08-11T20:00:00,1275A,117.266,31.9436,合肥市,庐阳区,颗粒物(PM10),57,63,65,27,40,212,97,191,173,36,21,4,4,0.5,0.6
2023-08-11T20:00:00,1276A,117.336,31.8586,合肥市,瑶海区,颗粒物(PM10),53,56,77,21,36,172,98,154,134,35,32,9,9,0.6,0.7
2023-08-11T20:00:00,1277A,117.3027,31.7964,合肥市,包河区,,46,46,64,24,36,180,122,164,149,24,39,5,5,0.5,0.6
2023-08-11T20:00:00,1278A,117.2776,31.7385,合肥市,滨湖新区,颗粒物(PM10),52,53,59,27,31,172,143,160,154,9,21,5,5,0.6,0.6
2023-08-11T20:00:00,1279A,117.1318,31.8403,合肥市,高新区,颗粒物(PM10),60,70,59,33,35,201,142,179,167,25,19,9,8,0.6,0.6
2023-08-11T20:00:00,1280A,119.3903,26.0543,福州市,鼓山,,,,,,,,,,,,,,,,
2023-08-11T20:00:00,1282A,119.2681,26.0504,福州市,师大,,21,20,27,8,11,124,65,97,91,17,16,4,4,0.5,0.5
2023-08-11T20:00:00,1283A,119.2984,26.1028,福州市,五四北路,,22,14,28,5,14,137,69,105,102,21,17,2,3,0.5,0.5
2023-08-11T20:00:00,1284A,119.2648,26.0768,福州市,杨桥西路,,20,17,29,1,12,127,62,100,94,20,16,3,3,0.5,0.6
2023-08-11T20:00:00,1285A,119.317,26.0746,福州市,紫阳,,24,12,27,3,12,125,76,97,95,14,16,3,2,0.4,0.6
2023-08-11T20:00:00,1286A,118.1608,24.8169,厦门市,溪东,,,,,,,,,,,,,,,,
2023-08-11T20:00:00,1287A,118.1514,24.4767,厦门市,洪文,,15,14,23,8,11,90,48,63,52,10,22,1,2,0.2,0.4
2023-08-11T20:00:00,1288A,118.0661,24.4444,厦门市,鼓浪屿,,16,10,24,7,15,86,51,53,50,6,25,3,2,0.3,0.5
2023-08-11T20:00:00,1290A,115.8931,28.6843,南昌市,省外办,,,41,51,27,29,146,115,139,136,,14,,10,,0.9
2023-08-11T20:00:00,1291A,115.8886,28.7003,南昌市,省林业公司,,39,39,48,24,27,139,104,134,130,15,18,6,8,0.6,0.6
2023-08-11T20:00:00,1292A,115.8126,28.7442,南昌市,林科所,,41,41,36,27,23,161,92,148,138,24,12,6,6,0.8,0.8
2023-08-11T20:00:00,1294A,115.8518,28.687,南昌市,建工学校,,46,46,45,24,19,171,124,158,152,8,8,7,7,0.5,0.7
2023-08-11T20:00:00,1295A,115.8921,28.6424,南昌市,象湖,颗粒物(PM10),51,52,39,33,31,158,134,148,147,14,12,6,7,0.7,0.7
2023-08-11T20:00:00,1296A,115.7423,28.7996,南昌市,武术学校,,32,32,21,20,20,153,76,133,122,9,7,3,4,0.5,0.5
2023-08-11T20:00:00,1298A,115.9314,28.6842,南昌市,省站,颗粒物(PM10),51,52,51,33,27,153,120,144,140,8,13,6,7,0.7,0.7
2023-08-11T20:00:00,1299A,116.9862,36.6114,济南市,科干所,臭氧1小时,93,78,58,49,31,218,194,210,208,11,21,7,9,0.5,0.5
2023-08-11T20:00:00,1300A,116.9376,36.665,济南市,农科所,臭氧1小时,92,71,66,44,28,218,193,214,212,19,35,9,10,0.5,0.4
2023-08-11T20:00:00,1301A,117.1265,36.6734,济南市,开发区,臭氧1小时,102,68,51,49,26,229,203,216,214,13,29,5,7,0.7,0.6
2023-08-11T20:00:00,1303A,117.0624,36.6868,济南市,省种子仓库,臭氧1小时,101,78,58,41,25,222,201,216,214,9,28,4,7,0.7,0.7
2023-08-11T20:00:00,1304A,116.9489,36.6447,济南市,机床二厂,臭氧1小时,94,83,65,44,27,231,195,221,218,14,27,8,10,0.7,0.7
2023-08-11T20:00:00,1305A,117.0495,36.663,济南市,市监测站,臭氧1小时,102,76,53,44,28,224,203,216,214,14,28,3,5,0.6,0.5
2023-08-11T20:00:00,1306A,116.7675,36.5484,济南市,长清党校,细颗粒物(PM2.5),68,83,62,49,35,232,163,210,203,16,23,8,9,0.7,0.7
2023-08-11T20:00:00,1307A,120.6659,36.2403,青岛市,仰口,,45,36,28,31,17,138,122,124,124,11,10,7,7,0.5,0.3
2023-08-11T20:00:00,1310A,120.4134,36.0658,青岛市,市南区东部子站,,39,19,33,14,14,182,123,153,151,27,24,7,10,0.6,0.5
2023-08-11T20:00:00,1311A,120.3664,36.1032,青岛市,四方区子站,,43,29,31,14,12,181,137,156,154,31,22,8,10,0.7,0.6
2023-08-11T20:00:00,1312A,120.2994,36.054,青岛市,市南区西部子站,,38,31,35,17,11,164,119,144,141,25,20,9,9,0.6,0.5
2023-08-11T20:00:00,1313A,120.4581,36.0858,青岛市,崂山区子站,,41,24,32,12,14,188,131,154,152,23,23,8,10,0.6,0.5
2023-08-11T20:00:00,1314A,120.1983,35.9608,青岛市,黄岛区子站,臭氧1小时,55,27,25,17,13,166,164,158,158,15,17,6,7,0.6,0.6
2023-08-11T20:00:00,1315A,120.3999,36.3083,青岛市,城阳区子站,颗粒物(PM10),52,53,41,15,14,188,119,157,153,39,24,6,8,0.7,0.5
2023-08-11T20:00:00,1316A,113.69031,34.76122,郑州市,烟厂,颗粒物(PM10),52,54,72,26,33,190,146,179,172,18,19,1,2,0.6,0.7
2023-08-11T20:00:00,1317A,113.65724,34.77134,郑州市,郑纺机,,,60,69,,,185,141,177,170,17,13,1,2,0.7,0.8
2023-08-11T20:00:00,1318A,113.67526,34.80246,郑州市,银行学校,颗粒物(PM10),56,62,61,29,35,193,150,182,174,19,18,2,2,0.7,0.8
2023-08-11T20:00:00,1319A,113.56746,34.81334,郑州市,供水公司,颗粒物(PM10),56,61,69,28,36,184,140,172,166,21,23,1,3,0.7,0.8
2023-08-11T20:00:00,1320A,113.7329,34.7178,郑州市,经开区管委,颗粒物(PM10),58,65,77,27,41,171,130,165,159,13,13,3,3,0.6,0.7
2023-08-11T20:00:00,1321A,113.73961,34.77172,郑州市,四十七中,,,,,,,,,,,,,,,,
2023-08-11T20:00:00,1322A,113.60532,34.74838,郑州市,市监测站,颗粒物(PM10),60,69,73,29,35,177,132,171,163,21,17,3,2,0.6,0.6
2023-08-11T20:00:00,1323A,113.64164,34.7525,郑州市,河医大,颗粒物(PM10),58,66,68,30,34,269,139,178,159,12,10,3,3,0.7,0.7
2023-08-11T20:00:00,1324A,113.51488,34.91089,郑州市,岗李水库,,,,,,,,,,,,,,,,
2023-08-11T20:00:00,1325A,114.3677,30.5584,武汉市,东湖梨园,,48,35,39,27,25,166,153,156,153,14,18,6,8,0.8,0.8
2023-08-11T20:00:00,1326A,114.2529,30.558,武汉市,汉阳月湖,,39,39,39,19,18,146,117,135,133,17,24,8,8,0.7,0.7
2023-08-11T20:00:00,1327A,114.282,30.6189,武汉市,汉口花桥,,43,43,44,22,24,182,133,170,164,16,17,8,9,0.6,0.6
2023-08-11T20:00:00,1328A,114.3025,30.5332,武汉市,武昌紫阳,,45,45,39,27,22,169,132,161,156,16,20,6,7,0.7,0.9
2023-08-11T20:00:00,1329A,114.3646,30.6217,武汉市,青山钢花,臭氧1小时,54,49,44,31,29,181,163,171,170,13,22,7,7,0.7,0.7
2023-08-11T20:00:00,1330A,114.1566,30.4825,武汉市,沌口新区,,48,41,42,33,31,178,114,164,159,35,35,5,6,0.6,0.7
2023-08-11T20:00:00,1331A,114.3014,30.5944,武汉市,汉口江滩,细颗粒物(PM2.5),59,43,39,42,29,200,81,183,162,71,22,6,6,0.7,0.7
2023-08-11T20:00:00,1333A,114.135,30.6319,武汉市,吴家山,颗粒物(PM10),55,59,39,32,22,184,158,173,173,21,20,7,7,0.7,0.7
2023-08-11T20:00:00,1334A,113.8454,30.2917,武汉市,沉湖七壕,,43,41,40,17,22,173,137,154,153,12,20,8,7,0.7,0.7
2023-08-11T20:00:00,1335A,113.0833,28.2325,长沙市,经开区环保局,,35,34,41,24,22,147,107,133,128,6,12,3,4,0.5,0.5
2023-08-11T20:00:00,1336A,112.8872,28.2189,长沙市,高开区环保局,颗粒物(PM10),51,52,47,30,25,196,147,174,174,8,14,4,5,0.8,0.8
2023-08-11T20:00:00,1337A,113.0792,28.2053,长沙市,马坡岭,,44,44,50,22,29,175,105,156,146,12,19,4,5,0.5,0.5
2023-08-11T20:00:00,1338A,112.9394,28.19,长沙市,湖南师范大学,细颗粒物(PM2.5),53,54,44,37,35,193,120,164,158,12,13,2,2,0.4,0.4
2023-08-11T20:00:00,1339A,113.0178,28.1322,长沙市,雨花区环保局,,42,42,48,28,25,166,113,147,144,13,21,5,5,0.5,0.5
2023-08-11T20:00:00,1340A,112.9792,28.2597,长沙市,伍家岭,,,49,48,28,25,189,126,171,164,,20,2,2,,0.6
2023-08-11T20:00:00,1341A,113.0014,28.1944,长沙市,火车新站,,39,37,42,27,30,176,103,153,146,6,13,4,5,0.6,0.6
2023-08-11T20:00:00,1342A,112.9844,28.1178,长沙市,天心区环保局,,41,41,39,27,26,172,121,150,148,18,21,2,2,0.7,0.6
2023-08-11T20:00:00,1343A,112.8908,28.1308,长沙市,湖南中医药大学,颗粒物(PM10),51,51,42,31,29,205,155,186,182,15,10,2,2,0.9,0.8
2023-08-11T20:00:00,1344A,112.9581,28.3611,长沙市,沙坪,,46,46,42,30,30,157,97,144,138,9,6,6,6,0.7,0.7
2023-08-11T20:00:00,1345A,113.2347,23.1423,广州市,广雅中学,,40,33,30,19,12,166,128,143,143,29,38,5,5,0.7,0.7
2023-08-11T20:00:00,1346A,113.2612,23.105,广州市,市五中,,48,39,24,31,15,186,153,175,175,28,27,5,5,0.9,0.8
2023-08-11T20:00:00,1348A,113.3478,23.0916,广州市,广东商学院,,50,42,27,27,13,197,160,169,169,33,31,3,4,0.7,0.6
2023-08-11T20:00:00,1349A,113.4332,23.1047,广州市,市八十六中,臭氧1小时,79,40,28,23,14,220,183,173,173,34,29,4,4,0.9,0.8
2023-08-11T20:00:00,1350A,113.3505,22.9483,广州市,番禺中学,,47,38,24,19,13,240,150,189,189,30,33,4,4,0.7,0.7
2023-08-11T20:00:00,1351A,113.2146,23.3916,广州市,花都师范,,29,29,17,18,10,153,73,125,120,23,19,5,6,0.9,0.7
2023-08-11T20:00:00,1352A,113.2597,23.1331,广州市,市监测站,,47,33,24,21,14,170,148,150,150,32,32,6,6,0.9,0.7
2023-08-11T20:00:00,1353A,113.5618,23.312,广州市,九龙镇镇龙,,31,31,16,21,9,111,57,101,90,29,16,5,5,0.7,0.5
2023-08-11T20:00:00,1354A,113.2765,23.1544,广州市,麓湖,,30,30,21,17,11,170,70,131,124,41,24,6,6,0.9,0.8
2023-08-11T20:00:00,1355A,113.443,23.3035,广州市,帽峰山森林公园,,21,21,12,12,6,134,58,108,99,13,9,7,7,0.4,0.3
2023-08-11T20:00:00,1356A,114.1063,22.5545,深圳市,通心岭子站,,16,16,25,10,13,135,26,82,78,22,26,4,4,0.9,0.9
2023-08-11T20:00:00,1357A,114.117,22.5625,深圳市,洪湖,,15,14,29,10,15,208,42,133,128,25,32,5,5,0.7,0.9
2023-08-11T20:00:00,1358A,113.987,22.5417,深圳市,华侨城,,18,18,27,0,23,190,49,109,107,11,30,6,6,0.5,0.7
2023-08-11T20:00:00,1359A,113.9181,22.5171,深圳市,南海子站,,40,40,50,16,25,191,47,117,114,16,38,4,5,0.7,0.7
2023-08-11T20:00:00,1360A,114.2458,22.5689,深圳市,盐田,,,11,24,4,18,161,54,103,103,,33,4,4,0.6,0.7
2023-08-11T20:00:00,1361A,114.2283,22.7244,深圳市,龙岗,,18,18,34,8,22,210,52,177,164,33,33,7,7,0.9,1
2023-08-11T20:00:00,1363A,114.494,22.5422,深圳市,南澳,,19,10,17,2,10,104,40,80,76,38,28,6,6,0.6,0.7
2023-08-11T20:00:00,1364A,114.41,22.6342,深圳市,葵涌,,17,12,26,5,13,133,52,107,97,18,16,3,3,0.7,0.8
2023-08-11T20:00:00,1365A,114.297,22.5978,深圳市,梅沙,,20,20,30,9,18,130,52,93,91,31,32,6,5,0.6,0.6
2023-08-11T20:00:00,1366A,114.0678,22.738,深圳市,观澜,,,,38,,23,224,67,174,163,27,30,6,6,0.5,0.7
2023-08-11T20:00:00,1367A,113.5814,22.2618,珠海市,吉大,,,18,21,9,11,122,42,70,70,15,24,,4,,0.8
2023-08-11T20:00:00,1368A,113.4881,22.2335,珠海市,前山,,15,13,19,3,14,156,45,83,83,15,21,7,7,0.5,0.6
2023-08-11T20:00:00,1369A,113.628,22.4251,珠海市,唐家,,18,18,20,3,9,195,40,116,112,16,14,8,5,0.8,0.4
2023-08-11T20:00:00,1370A,113.299,22.2281,珠海市,斗门,,14,7,14,8,10,178,44,86,84,12,13,4,5,0.6,0.6
2023-08-11T20:00:00,1371A,113.1294,23.0067,佛山市,湾梁,,29,27,21,16,14,222,90,181,179,38,29,4,5,0.5,0.5
2023-08-11T20:00:00,1372A,113.1083,23.0478,佛山市,华材职中,,29,27,26,14,16,207,92,172,172,21,33,6,8,0.6,0.6
2023-08-11T20:00:00,1373A,113.144,23.0453,佛山市,南海气象局,,38,38,27,18,15,210,118,172,172,38,31,6,6,0.7,0.6
2023-08-11T20:00:00,1374A,113.2881,22.8094,佛山市,顺德苏岗,,15,8,15,9,17,236,47,162,155,16,28,6,6,0.6,0.7
2023-08-11T20:00:00,1376A,112.8383,22.8678,佛山市,高明孔堂,,22,15,24,8,14,174,68,148,137,10,19,5,7,0.5,0.5
2023-08-11T20:00:00,1377A,112.8836,23.1588,佛山市,三水监测站,颗粒物(PM10),51,51,30,32,36,172,91,139,139,38,30,6,6,0.7,0.7
2023-08-11T20:00:00,1378A,112.867,23.185,佛山市,三水云东海,颗粒物(PM10),56,62,29,23,19,175,78,126,126,40,24,11,6,0.6,0.6
2023-08-11T20:00:00,1379A,113.3769,22.5211,中山市,华柏园,,15,12,25,8,10,212,46,140,125,16,20,3,3,0.5,0.5
2023-08-11T20:00:00,1380A,113.3881,22.5497,中山市,张溪,,18,18,26,3,9,228,51,146,131,11,18,3,4,0.5,0.5
2023-08-11T20:00:00,1381A,113.4075,22.5111,中山市,紫马岭,,17,5,21,5,12,204,53,130,121,8,13,4,4,0.3,0.3
2023-08-11T20:00:00,1382A,113.4411,22.4853,中山市,长江旅游区,,19,6,19,5,8,190,60,132,127,6,12,11,11,0.5,0.6
2023-08-11T20:00:00,1383A,113.1064,22.6058,江门市,北街,,15,8,24,9,13,218,45,158,130,10,19,5,6,0.6,0.6
2023-08-11T20:00:00,1384A,113.0731,22.5835,江门市,西区,,20,20,21,12,13,218,49,157,126,14,20,5,6,0.4,0.5
2023-08-11T20:00:00,1385A,113.0219,22.5311,江门市,圭峰西,,16,3,22,11,11,189,49,146,116,9,15,4,4,0.7,0.7
2023-08-11T20:00:00,1386A,113.0828,22.5947,江门市,东湖,,22,10,18,15,17,229,54,164,137,10,16,7,7,0.4,0.5
2023-08-11T20:00:00,1389A,113.7547,23.0494,东莞市,莞城梨川,,41,35,21,16,12,163,131,137,136,28,24,10,10,0.7,0.7
2023-08-11T20:00:00,1390A,113.7944,23.0128,东莞市,东城石井,,34,25,22,10,11,144,108,133,130,23,22,7,7,0.7,0.7
2023-08-11T20:00:00,1391A,113.7383,22.9658,东莞市,南城西平,,34,29,23,11,13,144,107,126,125,25,28,9,8,0.9,0.9
2023-08-11T20:00:00,1392A,114.4183,23.0528,惠州市,河南岸金山湖子站,,32,17,19,12,9,132,100,115,115,21,15,4,4,0.6,0.6
2023-08-11T20:00:00,1393A,114.4053,23.0822,惠州市,下埔横江三路子站,,,22,16,14,11,128,71,109,105,,9,4,4,0.6,0.6
2023-08-11T20:00:00,1394A,114.4103,23.1142,惠州市,江北云山西路子站,,37,17,15,11,8,132,116,120,120,13,8,4,4,0.7,0.7
2023-08-11T20:00:00,1395A,114.4645,22.7833,惠州市,惠阳区承修路船湖子站,,,22,29,,35,130,106,120,120,17,18,4,5,0.8,0.8
2023-08-11T20:00:00,1396A,114.5317,22.7422,惠州市,大亚湾管委会子站,,36,14,28,18,16,159,113,131,129,29,26,4,4,0.7,0.7
2023-08-11T20:00:00,1397A,112.4267,23.0706,肇庆市,睦岗子站,,39,39,23,21,11,160,85,142,138,21,19,10,10,0.5,0.5
2023-08-11T20:00:00,1398A,112.4645,23.0475,肇庆市,城中子站,,28,28,26,18,14,172,70,139,134,20,23,7,8,0.5,0.5
2023-08-11T20:00:00,1399A,112.5544,23.1522,肇庆市,坑口子站,细颗粒物(PM2.5),52,41,19,36,10,146,84,127,126,32,20,8,6,0.3,0.5
2023-08-11T20:00:00,1400A,112.4753,23.1,肇庆市,七星岩子站,,,,,,,,,,,,,,,,
2023-08-11T20:00:00,1401A,108.3103,22.7881,南宁市,二十一中,,20,2,25,7,13,123,64,100,98,15,11,4,4,0.8,0.8
2023-08-11T20:00:00,1402A,108.3141,22.8528,南宁市,北湖,,20,14,25,10,16,132,61,103,102,14,11,4,4,0.6,0.6
2023-08-11T20:00:00,1403A,108.3206,22.8225,南宁市,市监测站,,18,0,25,10,14,122,48,99,95,35,14,6,6,0.6,0.6
2023-08-11T20:00:00,1404A,108.3829,22.8037,南宁市,大自然花园,,19,11,22,8,15,95,58,84,83,17,10,5,5,0.7,0.7
2023-08-11T20:00:00,1405A,108.4394,22.7904,南宁市,仙葫,,,,24,4,13,89,64,80,80,11,11,4,4,0.5,0.5
2023-08-11T20:00:00,1406A,108.2397,22.8467,南宁市,区农职院,,17,9,29,6,13,157,52,108,108,29,18,6,7,0.5,0.5
2023-08-11T20:00:00,1407A,108.3275,22.735,南宁市,英华嘉园,,20,2,26,4,15,99,63,79,79,12,12,5,5,0.6,0.6
2023-08-11T20:00:00,1408A,108.2257,22.7757,南宁市,沙井镇街道办,,19,7,33,9,17,114,38,86,82,38,22,4,5,0.7,0.7
2023-08-11T20:00:00,1409A,110.576,19.9507,海口市,东寨港,,,,,,,,,,,,,,,,
2023-08-11T20:00:00,1410A,110.3232,20.0574,海口市,海南大学,,18,17,24,12,11,80,46,62,58,20,14,5,5,0.5,0.4
2023-08-11T20:00:00,1411A,110.283,20.0053,海口市,秀英海南医院,,15,15,27,6,13,82,46,65,53,23,25,6,6,0.4,0.5
2023-08-11T20:00:00,1412A,110.338,19.9969,海口市,海南师范大学,,19,19,23,6,12,81,49,66,60,14,13,7,7,0.4,0.4
2023-08-11T20:00:00,1413A,110.33,20.0356,海口市,龙华路环保局宿舍,,20,19,23,14,14,77,48,62,57,18,15,6,7,0.4,0.4
2023-08-11T20:00:00,1414A,106.3787,29.8279,重庆市,缙云山,,48,22,19,6,12,163,152,155,155,6,10,10,9,0.4,0.3
2023-08-11T20:00:00,1416A,106.4213,29.8253,重庆市,天生,,33,33,27,22,15,160,85,136,131,18,12,5,6,1.1,0.9
2023-08-11T20:00:00,1417A,106.6263,29.7228,重庆市,两路,,,,22,,18,168,82,139,130,30,26,,7,0.7,1
2023-08-11T20:00:00,1418A,106.2953,29.5983,重庆市,虎溪,,,,32,,21,192,85,157,151,,26,5,5,0.7,0.7
2023-08-11T20:00:00,1419A,106.5777,29.5102,重庆市,南坪,,36,34,33,24,18,145,113,136,134,9,17,6,8,0.5,0.5
2023-08-11T20:00:00,1420A,106.6556,29.6277,重庆市,唐家沱,,35,21,24,24,16,156,82,143,134,29,24,5,6,0.6,0.6
2023-08-11T20:00:00,1421A,106.6349,29.4906,重庆市,茶园,,46,46,42,16,11,137,38,124,110,73,33,4,6,0.9,0.7
2023-08-11T20:00:00,1422A,106.3754,29.4572,重庆市,白市驿,,35,23,28,23,14,190,112,163,159,15,16,5,7,0.7,0.6
2023-08-11T20:00:00,1425A,106.6205,29.7166,重庆市,空港,,34,34,27,16,13,185,106,162,157,23,17,8,9,0.9,0.9
2023-08-11T20:00:00,1426A,106.4782,29.4875,重庆市,新山村,,40,40,35,20,17,161,88,142,135,42,24,5,6,0.5,0.5
2023-08-11T20:00:00,1427A,106.5616,29.6453,重庆市,礼嘉,,38,27,36,7,13,173,119,149,147,14,27,9,9,1.0,0.9
2023-08-11T20:00:00,1428A,106.4522,29.7091,重庆市,蔡家,,43,43,36,22,18,172,101,147,144,33,20,8,7,0.9,0.7
2023-08-11T20:00:00,1429A,106.5093,29.3917,重庆市,鱼新街,,28,28,27,14,14,154,86,130,124,26,28,4,5,0.9,0.8
2023-08-11T20:00:00,1431A,103.9728,30.7236,成都市,金泉两河,,32,32,20,10,10,133,75,111,107,8,8,3,4,0.4,0.4
2023-08-11T20:00:00,1432A,104.176,30.6872,成都市,十里店,,30,21,18,8,10,132,94,114,114,5,9,3,5,0.4,0.4
2023-08-11T20:00:00,1433A,104.079,30.5706,成都市,三瓦窑,,50,50,28,35,14,149,90,128,125,16,18,1,3,0.4,0.4
2023-08-11T20:00:00,1434A,104.1114,30.63,成都市,沙河铺,,29,27,26,18,13,129,92,114,114,13,13,2,3,0.5,0.5
2023-08-11T20:00:00,1437A,104.0786,30.6531,成都市,君平街,,27,22,21,17,15,161,85,136,133,16,13,2,4,0.5,0.5
2023-08-11T20:00:00,1438A,103.613,31.0283,成都市,灵岩寺,,24,17,16,14,12,124,75,94,94,3,5,3,5,0.6,0.6
2023-08-11T20:00:00,1439A,106.6899,26.5998,贵阳市,马鞍山,,20,14,20,0,4,105,62,95,92,10,13,4,5,0.4,0.5
2023-08-11T20:00:00,1440A,106.6971,26.5694,贵阳市,市环保站,,21,14,26,5,17,112,67,101,98,23,27,4,5,0.2,0.3
2023-08-11T20:00:00,1441A,106.6243,26.6266,贵阳市,鉴湖路,,33,12,21,23,12,108,68,97,95,17,17,3,4,0.2,0.4
2023-08-11T20:00:00,1442A,106.7487,26.6343,贵阳市,燕子冲,,28,5,17,9,12,102,88,95,95,9,17,8,5,0.6,0.6
2023-08-11T20:00:00,1443A,106.6555,26.4365,贵阳市,碧云窝,,23,17,26,2,7,96,73,84,83,9,11,3,4,0.4,0.5
2023-08-11T20:00:00,1444A,106.694,26.5161,贵阳市,中院村,,,14,29,2,10,89,59,78,75,,23,4,5,0.5,0.5
2023-08-11T20:00:00,1445A,106.7109,26.6027,贵阳市,红边门,,24,24,26,12,17,101,58,91,88,30,24,6,6,0.4,0.6
2023-08-11T20:00:00,1446A,106.7164,26.5699,贵阳市,新华路,,24,9,26,7,12,109,76,101,98,12,23,3,4,0.2,0.5
2023-08-11T20:00:00,1447A,106.674,26.5424,贵阳市,太慈桥,,21,17,18,2,5,96,65,86,84,16,14,3,4,0.5,0.5
2023-08-11T20:00:00,1450A,102.8204,24.8886,昆明市,呈贡新区,,39,32,23,17,13,133,123,122,122,13,20,6,5,0.5,0.6
2023-08-11T20:00:00,1451A,102.6251,24.9608,昆明市,西山森林公园,,40,16,11,15,12,147,125,125,125,8,6,11,7,0.5,0.5
2023-08-11T20:00:00,1452A,102.7252,25.0902,昆明市,龙泉镇,,,35,17,15,11,141,84,120,120,,18,11,9,0.5,0.4
2023-08-11T20:00:00,1453A,102.7266,25.0375,昆明市,东风东路,,31,12,29,18,13,143,98,124,124,20,16,4,7,0.6,0.5
2023-08-11T20:00:00,1454A,102.6742,25.0669,昆明市,金鼎山,,40,40,23,16,11,152,87,123,123,16,13,17,9,0.5,0.5
2023-08-11T20:00:00,1455A,102.6644,25.0401,昆明市,碧鸡广场,,,17,17,13,12,144,89,117,117,15,13,,7,0.6,0.6
2023-08-11T20:00:00,1456A,91.1319,29.6514,拉萨市,八廓街,,24,17,16,7,7,99,76,88,86,13,18,8,8,0.2,0.2
2023-08-11T20:00:00,1457A,91.1221,29.6747,拉萨市,市环保局,,20,15,16,6,6,97,61,79,77,14,14,7,8,0.4,0.3
2023-08-11T20:00:00,1458A,91.0874,29.6475,拉萨市,区监测站,,20,12,13,6,7,106,63,87,85,20,17,9,10,0.3,0.2
2023-08-11T20:00:00,1459A,91.1774,29.6541,拉萨市,西藏大学,,22,7,6,5,6,83,70,80,77,5,8,11,12,0.2,0.2
2023-08-11T20:00:00,1460A,90.9798,29.6588,拉萨市,区辐射站,,25,20,18,7,7,87,78,76,76,15,14,10,12,0.2,0.2
2023-08-11T20:00:00,1461A,91.0834,29.6292,拉萨市,拉萨火车站,,24,15,17,8,7,100,76,86,86,5,10,11,12,0.2,0.3
2023-08-11T20:00:00,1462A,108.882,34.2749,西安市,高压开关厂,,25,22,67,12,40,192,80,116,104,17,31,9,9,0.5,0.7
2023-08-11T20:00:00,1463A,108.993,34.2629,西安市,兴庆小区,,36,36,69,16,32,183,73,128,104,17,29,5,6,0.6,0.9
2023-08-11T20:00:00,1464A,109.06,34.2572,西安市,纺织城,,36,36,68,12,40,195,68,135,109,21,38,2,3,0.5,0.6
2023-08-11T20:00:00,1465A,108.9356,34.2173,西安市,小寨,,34,34,57,9,26,154,66,109,93,13,21,7,7,0.4,0.6
2023-08-11T20:00:00,1466A,108.954,34.2713,西安市,市人民体育场,,37,37,72,19,39,174,74,113,98,15,31,6,6,0.4,0.6
2023-08-11T20:00:00,1467A,108.8922,34.2322,西安市,高新西区,,31,31,60,18,37,170,77,111,99,18,26,7,8,0.4,0.7
2023-08-11T20:00:00,1468A,108.935,34.3474,西安市,经开区,,38,38,69,10,38,183,74,111,101,7,22,2,2,0.4,0.6
2023-08-11T20:00:00,1469A,108.906,34.1546,西安市,长安区,,30,30,54,11,29,150,81,116,98,12,20,5,4,0.6,0.7
2023-08-11T20:00:00,1471A,109.2186,34.3731,西安市,临潼区,,23,13,74,16,37,228,68,127,117,15,25,4,4,0.4,0.6
2023-08-11T20:00:00,1472A,108.869,34.378,西安市,草滩,,39,39,69,8,22,188,81,111,101,7,28,10,11,0.3,0.6
2023-08-11T20:00:00,1473A,108.985,34.1978,西安市,曲江文化产业集团,,33,33,63,10,32,159,63,120,96,20,29,4,5,0.7,0.8
2023-08-11T20:00:00,1474A,109.051,34.3213,西安市,广运潭,,30,30,69,17,36,196,74,118,109,14,28,7,8,0.5,0.7
2023-08-11T20:00:00,1476A,103.631,36.1031,兰州市,兰炼宾馆,,35,26,37,22,21,118,110,108,108,16,15,3,3,0.3,0.3
2023-08-11T20:00:00,1477A,104.1373,35.9454,兰州市,榆中兰大校区,,,,,,,,,,,,,,,,
2023-08-11T20:00:00,1478A,103.8412,36.0726,兰州市,生物制品所,,31,23,31,21,20,104,98,97,97,19,17,3,3,0.7,0.7
2023-08-11T20:00:00,1479A,103.831,36.0464,兰州市,铁路设计院,,32,29,37,13,20,106,102,98,98,21,22,5,5,0.7,0.7
2023-08-11T20:00:00,1483A,101.524,36.6867,西宁市,第五水厂,,,,,,,,,,,,,,,,
2023-08-11T20:00:00,1484A,105.9512,38.6016,银川市,贺兰山马莲口,,29,7,24,6,12,126,92,122,118,11,11,3,3,0.5,0.7
2023-08-11T20:00:00,1488A,106.2328,38.4975,银川市,贺兰山东路,,38,24,27,14,15,134,121,126,126,16,13,6,6,0.4,0.5
2023-08-11T20:00:00,1489A,106.1358,38.5036,银川市,学院路,,36,15,27,11,14,129,113,122,122,13,14,8,8,0.4,0.5
2023-08-11T20:00:00,1490A,87.5801,43.8303,乌鲁木齐市,监测站,,,31,46,,11,167,123,147,147,26,34,4,5,0.3,0.5
2023-08-11T20:00:00,1491A,87.6046,43.768,乌鲁木齐市,收费所,,41,39,44,13,16,174,129,156,156,19,27,12,9,0.3,0.3
2023-08-11T20:00:00,1492A,87.4754,43.9469,乌鲁木齐市,新疆农科院农场,,38,30,71,7,17,131,120,123,123,9,41,2,3,0.4,0.8
2023-08-11T20:00:00,1493A,87.5525,43.8711,乌鲁木齐市,铁路局,,40,31,56,10,14,164,126,146,146,18,34,3,5,0.3,0.4
2023-08-11T20:00:00,1494A,87.6432,43.831,乌鲁木齐市,三十一中学,,,43,47,,12,155,121,142,142,12,22,5,5,0.3,0.4
2023-08-11T20:00:00,1496A,87.7216,44.1747,乌鲁木齐市,米东区环保局,,45,23,47,8,14,142,142,136,136,2,18,6,8,0.3,0.5
2023-08-11T20:00:00,1508A,112.9433,27.8614,湘潭市,板塘,,40,40,46,27,31,189,116,162,157,12,15,8,8,0.5,0.5
2023-08-11T20:00:00,1511A,112.9118,27.8403,湘潭市,市监测站,,,,41,,23,224,144,188,184,19,12,4,5,0.6,0.8
2023-08-11T20:00:00,1512A,112.8937,27.8728,湘潭市,江麓,颗粒物(PM10),52,53,48,26,24,198,121,169,164,14,13,5,7,0.3,0.4
2023-08-11T20:00:00,1513A,112.9227,27.8159,湘潭市,岳塘,颗粒物(PM10),55,59,51,30,24,202,149,175,175,19,18,4,6,0.8,0.8
2023-08-11T20:00:00,1514A,112.9074,27.9119,湘潭市,科大,,46,46,50,27,26,189,130,165,158,13,13,3,4,0.6,0.7
2023-08-11T20:00:00,1515A,113.135,27.8244,株洲市,天台山庄,,45,45,47,22,25,143,106,136,130,10,17,3,5,0.8,0.8
2023-08-11T20:00:00,1518A,113.095,27.8867,株洲市,株冶医院,颗粒物(PM10),53,56,52,36,26,155,86,139,129,19,25,4,5,0.6,0.6
2023-08-11T20:00:00,1519A,113.167,27.8667,株洲市,市四中,,46,44,46,32,26,133,102,128,122,8,13,5,5,0.6,0.7
2023-08-11T20:00:00,1520A,113.143,27.8381,株洲市,火车站,细颗粒物(PM2.5),54,49,47,38,26,138,97,127,122,10,13,6,7,0.8,0.7
2023-08-11T20:00:00,1524A,113.13,27.8528,株洲市,市监测站,细颗粒物(PM2.5),63,54,53,45,34,146,111,137,131,10,18,2,3,0.6,0.7
2023-08-11T20:00:00,1552A,106.805,26.3003,贵阳市,桐木岭,,,,,,,,,,,,,,,,
2023-08-11T20:00:00,1559A,113.251,27.8336,株洲市,大京风景区,颗粒物(PM10),54,58,40,21,19,112,53,106,96,4,3,4,4,0.5,0.5
2023-08-11T20:00:00,1562A,113.0048,27.9153,湘潭市,昭山,,46,46,45,28,22,170,70,148,137,41,25,4,4,0.6,0.7
2023-08-11T20:00:00,1564A,112.4876,27.9164,湘潭市,韶山,,39,39,43,18,22,134,81,124,116,9,8,6,6,0.3,0.3
2023-08-11T20:00:00,1585A,109.8756,40.6532,包头市,市环境监测站,,37,28,41,14,21,145,33,98,93,74,32,6,12,0.9,1
2023-08-11T20:00:00,1587A,109.9991,40.5842,包头市,包头八中,,34,34,47,12,26,120,42,86,76,60,24,8,8,0.8,0.9
2023-08-11T20:00:00,1588A,109.8538,40.6821,包头市,青山宾馆,,30,19,40,9,22,148,30,105,98,59,32,3,11,0.8,1.3
2023-08-11T20:00:00,1589A,109.8642,40.6288,包头市,惠龙物流,,32,32,44,12,20,150,68,105,105,46,29,7,16,0.6,0.8
2023-08-11T20:00:00,1590A,110.0377,40.5546,包头市,东河鸿龙湾,,38,38,32,6,16,126,59,100,96,49,18,9,10,0.9,0.8
2023-08-11T20:00:00,1591A,110.0023,39.8129,鄂尔多斯市,综合楼,,,39,26,12,12,105,103,100,98,,17,16,7,0.6,0.6
2023-08-11T20:00:00,1592A,109.9486,39.8261,鄂尔多斯市,巴音孟克林场办事处,颗粒物(PM10),51,51,28,17,14,118,113,108,108,19,14,8,7,0.6,0.6
2023-08-11T20:00:00,1593A,109.7736,39.5986,鄂尔多斯市,康泽苑,,34,34,22,5,16,111,102,96,96,16,10,8,8,0.5,0.4
2023-08-11T20:00:00,1594A,109.8119,39.5989,鄂尔多斯市,华泰汽车城,,36,36,28,22,15,100,85,86,86,25,12,7,7,0.6,0.5
2023-08-11T20:00:00,1595A,109.9734,39.7884,鄂尔多斯市,奥林花园,颗粒物(PM10),51,51,27,17,13,106,94,94,94,13,15,11,7,0.9,0.8
2023-08-11T20:00:00,1597A,122.2703,40.7094,营口市,大庆路,,35,24,15,24,7,96,62,84,77,20,9,6,5,0.6,0.5
2023-08-11T20:00:00,1598A,122.2150,40.6511,营口市,镜湖西路,,19,17,13,13,5,86,58,77,71,14,8,7,7,0.5,0.4
2023-08-11T20:00:00,1599A,122.1658,40.6789,营口市,西炮台,,18,14,15,9,6,88,56,82,75,23,14,6,6,0.5,0.5
2023-08-11T20:00:00,1600A,124.3303,40.0625,丹东市,江湾东路,,16,16,17,7,9,82,45,80,61,13,10,6,5,0.8,0.6
2023-08-11T20:00:00,1601A,124.4256,40.1503,丹东市,临江后街,,13,13,15,6,6,80,41,74,56,14,10,4,4,0.5,0.4
2023-08-11T20:00:00,1602A,124.3933,40.1461,丹东市,元宝山,,10,8,14,3,7,79,29,66,51,16,9,6,6,0.6,0.5
2023-08-11T20:00:00,1603A,124.3633,40.1092,丹东市,民主桥,,12,12,14,6,8,82,32,76,56,21,10,3,3,0.6,0.5
2023-08-11T20:00:00,1604A,122.0303,41.1489,盘锦市,开发区,,29,29,13,10,6,88,66,81,76,11,8,2,3,0.5,0.4
2023-08-11T20:00:00,1605A,122.0485,41.0883,盘锦市,兴隆台,,24,24,16,6,5,90,68,83,78,13,8,4,4,0.5,0.4
2023-08-11T20:00:00,1606A,121.8297,41.1028,盘锦市,新生街道,,18,18,13,3,4,80,52,73,67,12,16,4,4,0.4,0.4
2023-08-11T20:00:00,1607A,120.9092,40.7136,葫芦岛市,龙港区,,32,32,27,9,7,94,57,92,85,24,11,14,12,0.4,0.3
2023-08-11T20:00:00,1608A,120.8392,40.7514,葫芦岛市,化工街,,29,29,22,10,8,89,63,86,81,12,9,9,11,0.4,0.4
2023-08-11T20:00:00,1609A,120.8341,40.7073,葫芦岛市,新区,,25,24,21,9,9,92,78,90,87,10,12,7,9,0.4,0.4
2023-08-11T20:00:00,1610A,120.8695,40.7677,葫芦岛市,东城区,,27,27,21,11,6,90,63,88,82,25,15,12,13,0.5,0.4
2023-08-11T20:00:00,1611A,118.5819,24.9117,泉州市,涂山街,,30,30,25,11,12,123,24,96,74,26,12,4,4,0.8,0.8
2023-08-11T20:00:00,1612A,118.5972,24.8978,泉州市,津头埔,,20,20,23,8,13,128,39,98,75,16,16,4,4,0.7,0.8
2023-08-11T20:00:00,1613A,118.6663,24.9424,泉州市,万安,,,19,27,2,15,129,44,96,75,14,17,,3,0.6,0.7
2023-08-11T20:00:00,1614A,118.6117,24.9604,泉州市,清源山,,,,,,,,,,,,,,,,
2023-08-11T20:00:00,1616A,117.6795,36.229,济南市,技术学院,臭氧1小时,108,70,49,50,24,233,215,223,223,13,20,7,8,0.8,0.7
2023-08-11T20:00:00,1618A,118.3429,35.0532,临沂市,沂河小区,细颗粒物(PM2.5),69,78,45,50,24,199,171,184,184,12,16,5,7,0.7,0.3
2023-08-11T20:00:00,1619A,118.295,35.0583,临沂市,鲁南制药厂,臭氧1小时,92,78,40,45,16,235,193,218,218,10,13,3,6,0.5,0.3
2023-08-11T20:00:00,1620A,118.2794,34.9976,临沂市,新光毛纺厂,臭氧1小时,65,68,36,43,17,212,172,194,194,14,16,7,8,0.6,0.4
2023-08-11T20:00:00,1621A,118.3956,35.0888,临沂市,河东保险公司,臭氧1小时,87,68,36,38,13,215,189,198,198,9,16,3,6,0.7,0.6
2023-08-11T20:00:00,1622A,116.3032,37.4674,德州市,儿童乐园,臭氧1小时,111,58,48,36,22,221,221,207,207,10,14,8,11,0.8,0.7
2023-08-11T20:00:00,1624A,116.2991,37.4451,德州市,监理站,臭氧1小时,108,62,45,44,22,216,216,201,201,13,17,8,12,0.6,0.5
2023-08-11T20:00:00,1625A,115.9848,36.4372,聊城市,区政府,臭氧1小时,70,72,58,48,35,210,176,204,200,10,18,2,5,0.5,0.5
2023-08-11T20:00:00,1628A,118.0062,37.3803,滨州市,市环保局,,45,45,39,20,23,241,128,212,203,11,17,16,8,0.2,0.3
2023-08-11T20:00:00,1629A,118.0018,37.3617,滨州市,第二水厂,,44,44,38,17,18,249,128,214,206,9,21,16,10,0.5,0.6
2023-08-11T20:00:00,1630A,117.9776,37.393,滨州市,北中新校,颗粒物(PM10),51,51,41,19,19,245,133,215,207,16,17,15,7,0.4,0.4
2023-08-11T20:00:00,1631A,118.0414,36.8103,淄博市,人民公园,臭氧1小时,78,68,55,29,21,260,182,239,232,29,33,18,17,0.6,0.7
2023-08-11T20:00:00,1633A,117.8525,36.4847,淄博市,双山,臭氧1小时,98,68,47,43,22,216,198,209,209,16,18,11,13,0.6,0.6
2023-08-11T20:00:00,1634A,117.9592,36.6331,淄博市,气象站,臭氧1小时,88,73,47,46,25,216,190,199,198,17,20,8,10,0.4,0.4
2023-08-11T20:00:00,1635A,118.3092,36.8194,淄博市,莆田园,颗粒物(PM10),51,51,57,31,26,300,132,260,248,24,25,13,17,0.7,1.2
2023-08-11T20:00:00,1637A,117.558,34.8438,枣庄市,市中区政府,细颗粒物(PM2.5),70,88,72,51,31,256,168,224,220,25,27,8,14,0.5,0.5
2023-08-11T20:00:00,1638A,117.2852,34.7837,枣庄市,薛城环保局,颗粒物(PM10),66,81,82,41,38,233,156,198,192,11,34,10,14,0.6,0.6
2023-08-11T20:00:00,1639A,117.5852,34.7745,枣庄市,峄城区政府,细颗粒物(PM2.5),79,90,73,58,32,238,155,212,207,14,24,7,13,0.8,0.7
2023-08-11T20:00:00,1640A,117.7276,34.5578,枣庄市,台儿庄区环保局,颗粒物(PM10),70,90,65,48,32,198,134,188,182,23,32,10,12,0.6,0.6
2023-08-11T20:00:00,1641A,117.4518,35.0992,枣庄市,山亭区环保局,细颗粒物(PM2.5),64,73,47,46,28,218,163,201,193,13,13,6,9,0.5,0.3
2023-08-11T20:00:00,1642A,121.2514,37.5639,烟台市,开发区,,30,19,34,7,7,106,94,101,101,12,6,6,6,0.6,0.6
2023-08-11T20:00:00,1643A,121.3719,37.5433,烟台市,轴承厂,,34,22,22,14,11,110,106,105,105,11,9,5,5,0.3,0.3
2023-08-11T20:00:00,1644A,121.3181,37.5436,烟台市,西郊化工站,,30,22,20,12,9,106,95,101,101,16,10,6,6,0.5,0.4
2023-08-11T20:00:00,1645A,121.4478,37.4822,烟台市,莱山环保局,,32,12,13,2,4,120,102,104,104,6,3,4,6,0.3,0.3
2023-08-11T20:00:00,1646A,121.2611,37.4967,烟台市,福山环保局,,,,26,,2,104,90,93,93,18,14,7,7,0.4,0.4
2023-08-11T20:00:00,1650A,119.1437,36.7023,潍坊市,环保局,臭氧1小时,63,46,34,24,18,208,170,186,186,20,24,11,11,0.7,0.5
2023-08-11T20:00:00,1653A,116.6251,35.4302,济宁市,火炬城,颗粒物(PM10),62,73,68,39,37,181,135,164,152,8,18,5,9,0.7,0.7
2023-08-11T20:00:00,1655A,116.5491,35.4042,济宁市,电化厂,颗粒物(PM10),66,82,74,44,42,178,114,165,151,19,22,5,7,0.7,0.7
2023-08-11T20:00:00,1656A,117.1437,36.1937,泰安市,监测站,细颗粒物(PM2.5),69,75,60,50,34,237,174,218,211,11,10,8,10,0.5,0.5
2023-08-11T20:00:00,1657A,117.0885,36.2017,泰安市,人口学校,臭氧1小时,70,68,48,42,26,232,176,214,209,10,11,7,10,0.6,0.6
2023-08-11T20:00:00,1658A,117.1089,36.1758,泰安市,电力学校,,,,56,,28,245,,233,233,,12,,8,,0.5
2023-08-11T20:00:00,1659A,119.471,35.4209,日照市,监测站,,46,41,29,17,12,193,146,171,171,24,29,7,8,0.8,0.7
2023-08-11T20:00:00,1660A,119.523,35.4216,日照市,市政府广场,,50,44,29,23,13,204,158,174,174,23,19,12,12,0.8,0.7
2023-08-11T20:00:00,1661A,119.5587,35.4044,日照市,港务局,颗粒物(PM10),67,83,46,24,12,168,108,138,136,53,28,11,11,0.9,0.8
2023-08-11T20:00:00,1662A,122.1214,37.4236,威海市,华夏技校,,35,12,15,7,7,122,110,104,104,7,7,5,5,0.2,0.2
2023-08-11T20:00:00,1663A,122.0508,37.5236,威海市,山大分校,,36,17,23,7,6,119,113,112,112,6,7,7,8,0.3,0.3
2023-08-11T20:00:00,1664A,122.1067,37.5072,威海市,市监测站,,32,17,22,5,6,108,100,102,102,11,8,7,7,0.5,0.4
2023-08-11T20:00:00,1666A,118.6614,37.4309,东营市,市环保局,,33,22,26,12,12,194,103,163,151,7,12,25,11,0.2,0.2
2023-08-11T20:00:00,1669A,113.5824,24.7733,韶关市,市八中,,,24,20,14,7,117,79,102,102,,9,22,11,,0.6
2023-08-11T20:00:00,1671A,113.5917,24.7972,韶关市,园林处,,26,22,19,9,10,120,83,103,103,17,7,15,9,0.9,0.3
2023-08-11T20:00:00,1672A,113.6735,24.7791,韶关市,韶关学院,,32,31,18,22,11,110,74,95,95,12,10,8,9,0.8,0.5
2023-08-11T20:00:00,1673A,113.5971,24.6863,韶关市,曲江监测站,,,,29,12,11,142,86,113,113,11,12,6,14,,0.8
2023-08-11T20:00:00,1674A,116.6794,23.3667,汕头市,金平子站,,,,20,3,13,125,53,102,94,16,19,6,7,0.7,0.8
2023-08-11T20:00:00,1675A,116.7244,23.3633,汕头市,龙湖子站,,21,8,17,5,11,133,65,109,103,12,14,5,6,0.8,0.8
2023-08-11T20:00:00,1676A,116.7258,23.2775,汕头市,濠江子站,,20,17,17,5,11,118,62,103,96,9,10,8,10,0.7,0.7
2023-08-11T20:00:00,1677A,116.7519,23.4714,汕头市,澄海子站,,19,9,21,9,14,135,60,109,104,13,18,4,7,0.6,0.8
2023-08-11T20:00:00,1678A,116.6092,23.2539,汕头市,潮阳子站,,21,7,18,2,9,120,67,103,94,4,11,8,8,0.5,0.6
2023-08-11T20:00:00,1680A,110.3539,21.2706,湛江市,湛江影剧院,,22,22,23,9,15,76,27,55,54,40,17,10,12,0.8,0.7
2023-08-11T20:00:00,1681A,110.3928,21.2228,湛江市,市环境监测站,,25,23,20,15,16,66,12,50,47,50,18,9,9,0.7,0.6
2023-08-11T20:00:00,1682A,110.4019,21.1997,湛江市,环保局宿舍,,22,22,19,6,15,69,29,53,52,41,18,5,5,0.8,0.6
2023-08-11T20:00:00,1683A,110.4111,21.2028,湛江市,霞山游泳场,,26,17,30,6,14,73,20,56,51,51,18,6,7,0.5,0.5
2023-08-11T20:00:00,1684A,110.3316,21.2679,湛江市,麻章区环保局,,20,19,28,12,16,71,16,51,48,40,20,8,9,0.8,0.7
2023-08-11T20:00:00,1685A,110.4558,21.2567,湛江市,坡头区环保局,,15,7,22,10,13,75,40,53,53,24,17,6,8,0.5,0.5
2023-08-11T20:00:00,1686A,111.0286,21.4688,茂名市,电白南海,,20,12,27,14,15,74,54,60,55,11,13,10,11,0.5,0.6
2023-08-11T20:00:00,1687A,110.9294,21.6533,茂名市,茂石化七小,,29,29,25,12,15,71,54,59,52,9,11,6,9,0.5,0.6
2023-08-11T20:00:00,1688A,110.9107,21.6687,茂名市,健康路,,22,22,20,7,7,81,55,62,54,6,11,3,6,0.6,0.7
2023-08-11T20:00:00,1689A,110.8592,21.6828,茂名市,高岭,,20,12,30,14,19,88,44,59,49,12,13,5,11,0.5,0.7
2023-08-11T20:00:00,1690A,116.1231,24.3284,梅州市,梅江月梅,,31,20,15,7,6,99,99,77,77,7,9,2,2,0.6,0.6
2023-08-11T20:00:00,1691A,116.0797,24.2719,梅州市,梅县新城,,32,14,15,9,6,100,100,87,87,7,10,3,5,0.7,0.7
2023-08-11T20:00:00,1692A,116.1248,24.2654,梅州市,环境监控中心,,28,25,17,18,8,96,88,79,79,12,11,5,6,0.7,0.6
2023-08-11T20:00:00,1693A,115.3653,22.775,汕尾市,市环保局,,28,21,10,10,7,105,89,86,86,10,7,7,7,0.6,0.5
2023-08-11T20:00:00,1694A,115.3706,22.7898,汕尾市,市政府,,28,22,11,10,5,103,88,87,87,9,6,5,4,0.6,0.6
2023-08-11T20:00:00,1695A,115.3622,22.7925,汕尾市,新城中学,,,33,13,9,7,104,78,85,85,9,6,,6,0.7,0.7
2023-08-11T20:00:00,1696A,114.6778,23.7569,河源市,源西,,26,26,18,16,8,94,38,85,78,26,9,4,4,0.8,0.7
2023-08-11T20:00:00,1697A,114.6944,23.7586,河源市,东埔,,23,21,18,16,7,89,64,84,81,9,9,5,5,0.6,0.5
2023-08-11T20:00:00,1698A,114.6892,23.7233,河源市,老城,,30,30,18,11,5,98,51,88,82,16,7,4,4,0.7,0.6
2023-08-11T20:00:00,1699A,111.9797,21.8593,阳江市,鸳鸯湖,,18,8,17,2,8,65,57,58,57,6,9,7,8,0.6,0.6
2023-08-11T20:00:00,1701A,111.9491,21.8658,阳江市,马南垌,,19,15,19,4,9,63,58,55,54,6,10,5,7,0.5,0.5
2023-08-11T20:00:00,1702A,113.0426,23.691,清远市,环保大楼,细颗粒物(PM2.5),55,26,14,39,14,125,68,89,89,22,10,7,5,0.5,0.4
2023-08-11T20:00:00,1703A,113.0208,23.7106,清远市,凤城街办,,29,29,17,18,9,108,76,87,87,11,9,8,7,0.6,0.5
2023-08-11T20:00:00,1705A,116.6367,23.6719,潮州市,西园路,,23,13,17,16,17,106,71,89,89,12,9,5,5,0.3,0.3
2023-08-11T20:00:00,1706A,116.6447,23.6706,潮州市,档案局,,23,14,13,8,9,114,73,94,94,10,8,7,6,0.4,0.4
2023-08-11T20:00:00,1708A,116.3701,23.5345,揭阳市,新兴,,16,16,23,7,13,119,47,90,87,9,16,6,12,0.6,0.7
2023-08-11T20:00:00,1709A,116.3264,23.5443,揭阳市,西马,,18,15,24,10,14,128,55,98,94,6,14,5,8,0.8,1
2023-08-11T20:00:00,1710A,116.3611,23.5626,揭阳市,东兴,,17,17,21,9,12,126,53,96,93,10,19,2,6,0.8,0.8
2023-08-11T20:00:00,1711A,116.4151,23.5294,揭阳市,渔湖,,18,18,24,8,10,119,51,93,89,6,16,4,10,0.6,0.8
2023-08-11T20:00:00,1712A,112.0392,22.9169,云浮市,新市府,,16,7,19,8,8,124,51,92,90,3,7,4,8,0.6,0.6
2023-08-11T20:00:00,1714A,112.0539,22.9539,云浮市,牧羊,,21,21,27,10,19,90,56,74,74,16,18,4,12,0.5,0.5
2023-08-11T20:00:00,1715A,102.575,24.3711,玉溪市,东风水库,颗粒物(PM10),56,61,16,7,7,116,79,95,95,7,8,4,5,0.7,0.8
2023-08-11T20:00:00,1718A,115.4208,35.2464,菏泽市,气象局,颗粒物(PM10),65,80,65,42,34,189,144,174,164,6,9,5,6,0.6,0.5
2023-08-11T20:00:00,1719A,115.4747,35.2375,菏泽市,市政协,颗粒物(PM10),60,69,63,38,35,189,152,176,169,7,18,5,6,0.4,0.5
2023-08-11T20:00:00,1721A,113.3819,40.1097,大同市,果树场,,,,,,,,,,,,,,,,
2023-08-11T20:00:00,1723A,113.2994,40.0758,大同市,云冈宾馆,,38,33,48,26,24,120,60,94,86,31,22,8,8,0.8,0.8
2023-08-11T20:00:00,1724A,113.3444,40.0917,大同市,大同大学,,25,15,40,17,25,111,70,92,85,28,21,8,7,0.6,0.7
2023-08-11T20:00:00,1725A,113.2661,40.1269,大同市,安家小村,,20,20,46,10,22,123,64,96,87,17,14,14,10,0.5,0.6
2023-08-11T20:00:00,1726A,113.2711,40.0844,大同市,教育学院,,21,21,47,10,24,135,64,94,80,32,26,9,11,0.6,0.7
2023-08-11T20:00:00,1727A,113.1147,36.1547,长治市,清华站,颗粒物(PM10),53,56,59,36,41,145,119,135,133,23,11,9,9,1.1,1
2023-08-11T20:00:00,1728A,113.1031,36.1989,长治市,监测站,细颗粒物(PM2.5),58,64,59,41,41,169,143,150,150,24,18,4,5,1.0,0.9
2023-08-11T20:00:00,1730A,113.0886,36.2125,长治市,审计局,颗粒物(PM10),55,60,56,36,44,159,130,144,143,18,10,6,6,1.1,1
2023-08-11T20:00:00,1731A,113.0844,36.1856,长治市,长治八中,颗粒物(PM10),62,74,60,41,40,152,131,140,139,22,16,8,9,1.0,0.9
2023-08-11T20:00:00,1733A,111.5531,36.0783,临汾市,临钢医院,,34,34,71,8,33,188,60,166,144,13,14,6,8,0.5,1.3
2023-08-11T20:00:00,1734A,111.5028,36.0714,临汾市,技工学校,,33,33,70,22,38,193,66,167,144,18,17,6,10,0.7,1.1
2023-08-11T20:00:00,1736A,111.5018,36.0855,临汾市,市委,,45,42,86,31,49,176,65,151,133,20,22,7,9,0.6,1
2023-08-11T20:00:00,1738A,113.5758,37.8572,阳泉市,市中心,,40,27,59,28,37,162,119,138,137,15,21,8,16,1.1,1
2023-08-11T20:00:00,1739A,113.4894,37.8731,阳泉市,赛鱼,,49,41,62,34,42,159,112,130,129,20,22,9,11,1.0,1
2023-08-11T20:00:00,1740A,113.5819,37.8486,阳泉市,南庄,,41,27,77,27,38,162,130,143,142,15,23,8,15,1.1,1.1
2023-08-11T20:00:00,1742A,113.5614,37.8703,阳泉市,平坦,,40,40,75,26,48,170,119,143,140,16,21,7,10,1.0,1
2023-08-11T20:00:00,1743A,113.5158,37.8392,阳泉市,大阳泉,,38,38,71,26,38,147,105,131,128,13,12,8,9,1.0,1
2023-08-11T20:00:00,1744A,118.9233,42.2816,赤峰市,松山一中,,18,18,16,2,4,72,55,68,65,22,16,8,9,0.5,0.4
2023-08-11T20:00:00,1745A,118.9576,42.2728,赤峰市,哈达街,,24,24,14,4,7,73,52,66,61,23,16,14,15,0.3,0.2
2023-08-11T20:00:00,1746A,118.8788,42.2554,赤峰市,天义路,,17,17,11,8,7,80,54,73,67,24,15,8,11,0.2,0.3
2023-08-11T20:00:00,1748A,123.044,41.1196,鞍山市,深沟寺,,23,23,23,15,11,92,51,77,69,13,12,4,3,0.9,0.7
2023-08-11T20:00:00,1749A,123.011,41.0931,鞍山市,太阳城,,23,23,21,11,11,95,58,85,80,10,8,7,7,0.8,0.7
2023-08-11T20:00:00,1750A,123.0485,41.1442,鞍山市,太平,,35,35,30,16,14,100,57,86,79,18,14,8,5,1.2,0.8
2023-08-11T20:00:00,1751A,122.9642,41.0971,鞍山市,铁西三道街,,35,35,40,15,17,76,47,64,59,27,37,15,24,1.4,1.9
2023-08-11T20:00:00,1752A,122.9341,41.0833,鞍山市,铁西工业园区,,25,25,32,11,14,97,65,81,74,16,19,8,10,1.0,1
2023-08-11T20:00:00,1753A,123.022,41.0821,鞍山市,明达新区,,43,43,24,18,11,93,62,83,79,14,13,4,5,0.5,0.5
2023-08-11T20:00:00,1754A,123.1289,41.0228,鞍山市,千山,,,,,,,,,,,,,,,,
2023-08-11T20:00:00,1755A,123.7977,41.8491,抚顺市,望花区,,20,18,17,11,11,87,61,75,74,13,13,10,11,0.3,0.3
2023-08-11T20:00:00,1756A,123.9161,41.8822,抚顺市,顺城区,,22,22,21,13,10,81,54,67,64,15,11,5,4,0.4,0.4
2023-08-11T20:00:00,1757A,124.0436,41.8611,抚顺市,东洲区,,23,23,18,13,8,86,54,70,66,12,9,3,5,0.3,0.2
2023-08-11T20:00:00,1758A,123.9247,41.8642,抚顺市,新抚区,,21,21,18,9,7,85,55,66,63,12,10,6,5,0.5,0.5
2023-08-11T20:00:00,1759A,124.0972,41.8961,抚顺市,大伙房水库,,18,18,15,11,7,89,37,68,57,17,7,3,4,0.4,0.4
2023-08-11T20:00:00,1760A,123.7086,41.8391,抚顺市,沈抚新城,,18,17,17,12,10,74,53,65,63,5,4,5,5,0.5,0.4
2023-08-11T20:00:00,1761A,123.8275,41.3064,本溪市,大峪,,39,39,31,11,8,75,40,66,61,23,17,4,5,0.7,0.6
2023-08-11T20:00:00,1762A,123.7567,41.3325,本溪市,溪湖,,36,36,22,18,11,83,32,63,58,30,13,5,6,0.7,0.7
2023-08-11T20:00:00,1763A,123.7169,41.3094,本溪市,彩屯,颗粒物(PM10),52,53,29,28,15,70,43,61,60,21,25,6,6,0.7,0.8
2023-08-11T20:00:00,1764A,123.7669,41.2864,本溪市,东明,颗粒物(PM10),56,61,31,17,12,80,54,69,69,24,17,7,6,1.0,0.7
2023-08-11T20:00:00,1765A,123.7992,41.2664,本溪市,新立屯,,37,37,25,11,9,74,37,63,60,26,15,7,8,0.9,0.8
2023-08-11T20:00:00,1766A,123.8142,41.3472,本溪市,威宁,,35,35,28,17,13,67,14,51,41,34,18,6,6,0.6,0.6
2023-08-11T20:00:00,1767A,121.1115,41.0879,锦州市,南山,,27,17,16,12,9,88,84,86,85,7,5,3,6,0.5,0.4
2023-08-11T20:00:00,1768A,121.0533,40.8434,锦州市,开发区,,27,27,32,16,13,87,36,84,73,45,17,14,11,0.8,0.7
2023-08-11T20:00:00,1769A,121.1836,41.1119,锦州市,百股街道,,24,18,23,7,7,89,74,86,84,8,6,7,10,0.5,0.6
2023-08-11T20:00:00,1770A,121.1178,41.1222,锦州市,天安街道,,29,29,20,12,13,84,77,81,80,9,7,4,6,0.7,0.6
2023-08-11T20:00:00,1771A,121.1303,41.1386,锦州市,北湖公园,,25,11,16,7,6,90,79,86,85,14,9,6,7,0.5,0.5
2023-08-11T20:00:00,1772A,126.54,43.8622,吉林市,哈达湾,,15,11,10,5,4,70,47,62,57,11,11,5,6,0.5,0.5
2023-08-11T20:00:00,1773A,126.5844,43.8358,吉林市,东局子,,15,10,9,4,5,66,46,57,53,7,10,6,6,0.4,0.4
2023-08-11T20:00:00,1774A,126.5052,43.8245,吉林市,电力学院,,14,14,13,6,7,65,44,58,52,7,11,7,7,0.4,0.4
2023-08-11T20:00:00,1775A,126.6133,43.8972,吉林市,江北,,15,13,9,4,3,68,48,59,56,8,9,7,6,0.5,0.4
2023-08-11T20:00:00,1776A,126.555,43.8306,吉林市,江南公园,,13,11,12,8,6,64,41,54,50,13,15,3,3,0.6,0.6
2023-08-11T20:00:00,1778A,126.7061,43.7133,吉林市,丰满,,,,,,,,,,,,,,,,
2023-08-11T20:00:00,1779A,123.9305,47.3636,齐齐哈尔市,安居小区,,23,20,22,16,9,51,38,46,46,6,8,5,5,0.4,0.4
2023-08-11T20:00:00,1780A,123.9488,47.3386,齐齐哈尔市,中心广场,,20,20,20,3,3,51,36,46,46,9,11,2,3,0.3,0.3
2023-08-11T20:00:00,1781A,123.9483,47.3227,齐齐哈尔市,农牧车辆厂,,41,41,33,3,4,54,38,50,50,8,10,6,7,0.3,0.3
2023-08-11T20:00:00,1783A,123.945,47.2988,齐齐哈尔市,市环境监测站,,18,18,20,10,10,53,37,49,49,10,12,7,6,0.3,0.3
2023-08-11T20:00:00,1784A,129.61,44.561,牡丹江市,环保大楼,,25,21,10,17,6,80,29,76,50,9,6,6,5,0.4,0.3
2023-08-11T20:00:00,1785A,129.6115,44.5782,牡丹江市,文化广场,,16,15,7,11,9,70,19,65,42,14,10,5,5,0.6,0.4
2023-08-11T20:00:00,1786A,129.5904,44.5963,牡丹江市,第一医院,,19,10,12,13,10,72,23,68,42,8,7,4,4,0.4,0.3
2023-08-11T20:00:00,1787A,129.6364,44.6075,牡丹江市,机车工厂,,21,21,12,10,9,68,20,62,39,7,6,3,3,0.4,0.4
2023-08-11T20:00:00,1788A,129.6386,44.5462,牡丹江市,第一中学,,11,7,9,6,5,77,35,68,51,7,7,4,5,0.3,0.3
2023-08-11T20:00:00,1789A,124.81117,46.03138,大庆市,大同区,,16,8,14,5,10,84,50,74,72,6,8,5,5,0.3,0.3
2023-08-11T20:00:00,1790A,125.129,46.533,大庆市,龙凤区,,18,7,8,8,7,83,57,75,68,5,6,5,5,0.2,0.2
2023-08-11T20:00:00,1791A,124.902,46.408,大庆市,红岗区,,18,18,12,4,6,90,52,78,75,6,10,3,3,0.4,0.4
2023-08-11T20:00:00,1792A,125.153,46.586,大庆市,萨尔图区,,19,1,10,1,5,85,59,73,70,4,5,4,4,0.2,0.2
2023-08-11T20:00:00,1793A,124.9042,46.6215,大庆市,让胡路区,,19,8,12,9,6,90,59,78,77,6,14,4,4,0.3,0.3
2023-08-11T20:00:00,1794A,118.3606,31.3519,芜湖市,监测站,颗粒物(PM10),60,70,65,23,64,181,107,167,156,35,45,4,5,0.7,0.8
2023-08-11T20:00:00,1795A,118.3714,31.4134,芜湖市,科创中心,颗粒物(PM10),61,72,56,31,35,212,128,191,182,35,39,6,8,1.0,0.9
2023-08-11T20:00:00,1796A,118.3673,31.3131,芜湖市,四水厂,颗粒物(PM10),55,59,55,27,34,176,107,163,146,51,45,3,4,0.8,0.9
2023-08-11T20:00:00,1798A,118.5092,31.6837,马鞍山市,湖东路四小,臭氧1小时,102,72,55,56,37,271,203,244,241,22,27,10,11,1.1,1.1
2023-08-11T20:00:00,1799A,118.5024,31.6449,马鞍山市,开发区,,,,75,32,35,269,131,237,222,24,29,5,6,1.3,1.3
2023-08-11T20:00:00,1800A,118.5228,31.7231,马鞍山市,慈湖,颗粒物(PM10),71,92,70,47,37,259,164,229,222,39,35,8,9,1.2,1.1
2023-08-11T20:00:00,1802A,118.6245,31.7241,马鞍山市,濮塘,臭氧1小时,84,46,36,37,29,206,187,189,189,13,12,3,4,1.0,0.8
2023-08-11T20:00:00,1803A,115.9872,29.6815,九江市,十里,,48,48,42,28,30,209,104,155,138,17,15,11,12,0.7,0.8
2023-08-11T20:00:00,1804A,115.9584,29.7046,九江市,茅山头,细颗粒物(PM2.5),53,51,43,37,28,216,95,164,141,32,22,11,10,1.0,1
2023-08-11T20:00:00,1805A,115.9877,29.7295,九江市,西园,,38,38,39,24,22,186,61,154,132,50,21,10,11,0.6,0.7
2023-08-11T20:00:00,1806A,116.0172,29.6547,九江市,五七二七厂,,38,30,34,26,24,184,105,131,115,12,7,9,10,0.7,0.8
2023-08-11T20:00:00,1808A,115.9114,29.6038,九江市,综合工业园,颗粒物(PM10),51,51,45,30,28,191,93,170,151,27,29,12,12,0.8,0.9
2023-08-11T20:00:00,1809A,116.0721,29.7535,九江市,石化总厂,,44,44,40,26,22,152,112,142,132,16,20,10,12,0.7,0.9
2023-08-11T20:00:00,1810A,115.9773,29.5698,九江市,庐山气象台,,38,32,31,21,21,149,121,131,131,1,11,6,8,1.0,0.7
2023-08-11T20:00:00,1812A,112.3931,34.6516,洛阳市,市委党校,颗粒物(PM10),54,57,64,34,48,176,137,166,166,8,10,7,8,0.8,0.9
2023-08-11T20:00:00,1814A,112.4657,34.6871,洛阳市,豫西宾馆,颗粒物(PM10),55,60,73,27,45,192,143,171,171,9,14,2,4,0.8,1
2023-08-11T20:00:00,1815A,112.494,34.6886,洛阳市,河南林校,颗粒物(PM10),51,51,59,25,36,191,136,164,164,15,18,4,5,0.7,0.9
2023-08-11T20:00:00,1816A,112.3844,34.623,洛阳市,开发区管委会,颗粒物(PM10),53,56,62,28,36,180,137,168,168,12,8,10,9,0.6,0.7
2023-08-11T20:00:00,1817A,112.4267,34.6258,洛阳市,市委新办公区,颗粒物(PM10),52,53,67,29,48,184,137,168,167,12,11,6,8,0.7,0.8
2023-08-11T20:00:00,1818A,114.4839,36.0621,安阳市,棉研所,,,,,,,,,,,,,,,,
2023-08-11T20:00:00,1819A,114.3551,36.1017,安阳市,红庙街,臭氧1小时,73,77,68,41,34,215,178,202,201,11,13,7,14,0.8,0.6
2023-08-11T20:00:00,1820A,114.361,36.0681,安阳市,银杏小区,,,87,63,,,222,178,209,207,7,14,4,9,0.6,0.6
2023-08-11T20:00:00,1824A,114.3389,34.7781,开封市,肿瘤医院,颗粒物(PM10),55,59,73,31,40,166,116,156,149,9,16,4,4,0.7,0.8
2023-08-11T20:00:00,1826A,114.2885,34.7965,开封市,世纪星幼儿园,,,68,73,,,170,121,158,151,14,18,6,6,0.8,0.8
2023-08-11T20:00:00,1828A,113.227,35.2125,焦作市,市环保局,臭氧1小时,101,79,70,45,49,206,201,194,194,12,14,5,6,0.6,0.7
2023-08-11T20:00:00,1830A,113.1992,35.2590,焦作市,影视城,,,,,,,,,,,,,,,,
2023-08-11T20:00:00,1832A,113.3257,33.742,平顶山市,新华旅馆,颗粒物(PM10),51,52,71,25,35,163,123,152,147,11,22,2,3,0.5,0.6
2023-08-11T20:00:00,1833A,113.2919,33.737,平顶山市,规划设计院,,,46,66,27,39,165,120,152,147,11,19,7,7,,0.9
2023-08-11T20:00:00,1834A,113.182,33.774,平顶山市,平顶山工学院,,45,45,71,22,36,173,116,155,151,11,18,3,4,0.6,0.7
2023-08-11T20:00:00,1835A,111.1922,34.7752,三门峡市,市政府,,30,27,77,11,38,172,94,150,133,8,10,3,4,0.6,0.8
2023-08-11T20:00:00,1836A,111.1587,34.7942,三门峡市,开发区,,38,13,73,26,43,167,94,145,123,5,13,4,5,0.5,0.7
2023-08-11T20:00:00,1838A,111.143,34.7955,三门峡市,风景区,,,,,,,,,,,,,,,,
2023-08-11T20:00:00,1840A,111.2992,30.6981,宜昌市,白龙岗,颗粒物(PM10),54,58,43,31,24,186,148,165,165,23,20,7,7,0.6,0.5
2023-08-11T20:00:00,1841A,111.3549,30.6465,宜昌市,伍家岗,"颗粒物(PM10),细颗粒物(PM2.5)",52,54,40,36,27,175,132,152,150,20,29,4,3,0.8,0.7
2023-08-11T20:00:00,1842A,111.2628,30.6961,宜昌市,点军区,颗粒物(PM10),55,60,40,36,26,188,154,166,166,18,13,4,4,0.7,0.6
2023-08-11T20:00:00,1843A,111.3275,30.7819,宜昌市,夷陵区,臭氧1小时,54,47,45,27,23,188,163,181,181,20,19,5,4,0.6,0.6
