timepoint,stationcode,longitude,latitude,area,positionname,primarypollutant,aqi,pm10,pm10_24h,pm2_5,pm2_5_24h,o3,o3_24h,o3_8h,o3_8h_24h,no2,no2_24h,so2,so2_24h,co,co_24h
2022-11-11T20:00:00,1001A,116.3621,39.8784,北京市,万寿西宫,,32,25,145,22,116,52,0,41,0,39,44,3,3,2.0,1.7
2022-11-11T20:00:00,1002A,116.2202,40.2915,北京市,定陵(对照点),,26,18,134,18,107,58,5,58,18,18,17,3,3,1.6,1.3
2022-11-11T20:00:00,1003A,116.4174,39.9289,北京市,东四,,39,26,128,27,112,69,1,36,3,25,26,3,3,1.5,1.5
2022-11-11T20:00:00,1004A,116.4072,39.8863,北京市,天坛,,38,29,126,26,103,27,0,16,1,32,32,3,3,1.8,1.7
2022-11-11T20:00:00,1005A,116.462,39.9365,北京市,农展馆,,33,27,125,23,105,74,0,24,0,37,36,3,1,1.6,1.7
2022-11-11T20:00:00,1006A,116.3392,39.9295,北京市,官园,细颗粒物(PM2.5),132,114,168,100,146,79,0,53,3,59,46,1,1,1.7,1.5
2022-11-11T20:00:00,1007A,116.2878,39.9611,北京市,海淀万柳,细颗粒物(PM2.5),150,130,189,115,151,75,5,21,7,50,61,3,2,1.5,1.4
2022-11-11T20:00:00,1008A,116.6636,40.135,北京市,顺义新城,,42,35,127,29,100,40,3,15,5,37,34,3,3,1.6,1.6
2022-11-11T20:00:00,1009A,116.6275,40.3275,北京市,怀柔镇,,22,17,119,15,97,53,6,17,4,28,48,3,2,1.6,1.7
2022-11-11T20:00:00,1010A,116.2296,40.217,北京市,昌平镇,,23,20,139,16,109,61,3,61,11,30,34,3,3,1.7,1.5
2022-11-11T20:00:00,1011A,116.3966,39.9821,北京市,奥体中心,细颗粒物(PM2.5),72,73,163,52,120,80,0,59,0,56,45,1,1,1.8,1.7
2022-11-11T20:00:00,1012A,116.184,39.9136,北京市,古城,细颗粒物(PM2.5),179,167,203,135,154,39,10,39,4,57,72,3,3,1.6,1.5
2022-11-11T20:00:00,1015A,117.1444,39.1661,天津市,勤俭道,细颗粒物(PM2.5),119,126,184,90,126,8,3,6,3,58,45,6,7,1.2,1.5
2022-11-11T20:00:00,1017A,117.237,39.1082,天津市,大直沽八号路,细颗粒物(PM2.5),145,124,160,111,123,22,22,8,8,42,48,6,7,0.9,1.4
2022-11-11T20:00:00,1018A,117.202,39.0927,天津市,前进道,细颗粒物(PM2.5),133,124,155,101,113,11,10,6,6,58,53,7,8,0.8,1.4
2022-11-11T20:00:00,1019A,117.1837,39.2133,天津市,淮河道,细颗粒物(PM2.5),94,116,179,70,109,13,0,12,2,66,45,8,11,1.2,1.4
2022-11-11T20:00:00,1021A,117.307,39.0877,天津市,跃进路,细颗粒物(PM2.5),145,145,168,111,106,23,18,8,8,54,48,7,8,1.4,1.3
2022-11-11T20:00:00,1023A,117.707,39.0343,天津市,第四大街,细颗粒物(PM2.5),198,206,170,148,118,18,2,11,1,87,46,6,5,1.3,1.3
2022-11-11T20:00:00,1024A,117.457,38.8394,天津市,永明路,细颗粒物(PM2.5),134,140,161,102,113,29,13,8,8,47,48,5,6,1.8,1.1
2022-11-11T20:00:00,1026A,117.764,39.1587,天津市,汉北路,颗粒物(PM10),82,114,144,43,98,56,56,20,18,21,28,7,8,1.0,1.1
2022-11-11T20:00:00,1027A,117.157,38.9194,天津市,团泊洼(对照点),颗粒物(PM10),112,173,193,41,60,6,2,4,4,60,51,2,2,1.2,1.6
2022-11-11T20:00:00,1029A,114.4422,38.0444,石家庄市,职工医院,细颗粒物(PM2.5),103,113,137,77,116,80,59,70,68,18,29,3,4,0.6,0.8
2022-11-11T20:00:00,1030A,114.6063,38.0266,石家庄市,高新区,细颗粒物(PM2.5),100,94,138,75,109,86,51,75,64,22,29,1,2,0.7,0.7
2022-11-11T20:00:00,1031A,114.4898,38.1328,石家庄市,西北水源,细颗粒物(PM2.5),110,116,149,83,108,81,52,62,61,19,31,3,4,0.9,1.1
2022-11-11T20:00:00,1032A,114.4586,38.0058,石家庄市,西南高教,细颗粒物(PM2.5),110,110,134,83,114,78,49,65,63,21,24,3,4,0.8,1
2022-11-11T20:00:00,1033A,114.5331,38.0178,石家庄市,世纪公园,细颗粒物(PM2.5),94,89,122,70,99,69,51,61,60,19,20,4,5,1.1,1.2
2022-11-11T20:00:00,1034A,114.509,38.0457,石家庄市,人民会堂,细颗粒物(PM2.5),122,106,126,92,119,91,59,83,72,21,22,2,2,0.7,0.8
2022-11-11T20:00:00,1035A,114.3524,37.8911,石家庄市,封龙山(对照点),,,77,109,28,65,122,64,106,80,26,22,,,1.3,1.2
2022-11-11T20:00:00,1037A,118.131,39.6363,唐山市,雷达站,细颗粒物(PM2.5),94,94,156,70,109,19,10,8,6,46,46,1,3,0.9,1.7
2022-11-11T20:00:00,1038A,118.1725,39.6334,唐山市,物资局,细颗粒物(PM2.5),103,92,150,77,99,12,4,3,3,51,50,3,6,0.8,1.7
2022-11-11T20:00:00,1040A,118.1705,39.6506,唐山市,十二中,颗粒物(PM10),69,87,151,47,94,10,9,5,3,44,50,2,6,0.7,1.6
2022-11-11T20:00:00,1041A,118.1869,39.622,唐山市,小山,细颗粒物(PM2.5),74,94,152,54,102,9,2,3,2,49,48,4,6,0.8,1.5
2022-11-11T20:00:00,1042A,119.5134,39.8207,秦皇岛市,北戴河环保局,,23,23,91,9,64,48,26,48,22,30,36,4,5,0.1,0.3
2022-11-11T20:00:00,1043A,119.7493,40.0116,秦皇岛市,第一关,细颗粒物(PM2.5),53,53,94,37,62,47,31,29,29,38,47,4,5,0.6,0.8
2022-11-11T20:00:00,1044A,119.5897,39.9499,秦皇岛市,监测站,颗粒物(PM10),55,59,97,34,72,34,33,17,17,33,53,4,6,0.3,0.6
2022-11-11T20:00:00,1046A,119.5251,39.9041,秦皇岛市,建设大厦,,44,44,94,30,58,56,23,28,24,45,53,3,6,0.5,0.7
2022-11-11T20:00:00,1047A,114.5129,36.61763,邯郸市,环保局,,,,,,,,,,,,,,,,
2022-11-11T20:00:00,1048A,114.5302,36.6116,邯郸市,东污水处理厂,细颗粒物(PM2.5),245,224,221,195,193,61,5,61,33,64,41,3,4,1.1,1.1
2022-11-11T20:00:00,1049A,114.4918,36.5713,邯郸市,矿院,细颗粒物(PM2.5),255,233,222,205,208,72,6,66,50,72,39,4,6,1.4,1.4
2022-11-11T20:00:00,1050A,114.484,36.6133,邯郸市,丛台公园,细颗粒物(PM2.5),236,244,229,186,193,63,22,55,46,45,33,6,6,0.9,0.9
2022-11-11T20:00:00,1051A,115.493,38.8632,保定市,游泳馆,细颗粒物(PM2.5),199,161,200,149,189,56,56,46,46,29,57,6,7,0.8,0.8
2022-11-11T20:00:00,1052A,115.5213,38.8959,保定市,华电二区,细颗粒物(PM2.5),193,165,183,145,168,57,57,35,35,30,67,7,6,1.2,1.4
2022-11-11T20:00:00,1053A,115.4713,38.9108,保定市,接待中心,细颗粒物(PM2.5),165,170,209,125,161,48,48,34,34,26,54,3,4,1.3,1.2
2022-11-11T20:00:00,1054A,115.4612,38.8416,保定市,地表水厂,细颗粒物(PM2.5),156,169,198,119,124,60,48,42,42,30,57,5,6,1.3,1.3
2022-11-11T20:00:00,1055A,115.4323,38.8697,保定市,胶片厂,,,,,,,,,,,,,,,,
2022-11-11T20:00:00,1056A,115.5086,38.8639,保定市,监测站,细颗粒物(PM2.5),215,154,194,165,187,60,60,46,46,35,63,4,5,1.3,1.3
2022-11-11T20:00:00,1057A,114.8883,40.8336,张家口市,人民公园,细颗粒物(PM2.5),67,44,75,48,62,72,55,54,54,21,31,4,9,0.7,0.7
2022-11-11T20:00:00,1059A,114.8687,40.8042,张家口市,五金库,细颗粒物(PM2.5),62,34,56,44,56,86,39,86,60,31,23,9,10,0.9,0.8
2022-11-11T20:00:00,1060A,114.8902,40.762,张家口市,世纪豪园,细颗粒物(PM2.5),115,90,86,87,68,88,21,82,49,48,24,2,2,0.9,0.9
2022-11-11T20:00:00,1061A,114.8916,40.8661,张家口市,北泵房(对照点),细颗粒物(PM2.5),64,54,75,46,63,83,48,67,65,28,29,10,11,1.1,1.1
2022-11-11T20:00:00,1062A,117.9531,40.9081,承德市,铁路,细颗粒物(PM2.5),105,119,127,79,73,17,3,8,8,60,55,8,8,1.1,1.1
2022-11-11T20:00:00,1063A,117.9392,40.9763,承德市,中国银行,细颗粒物(PM2.5),95,114,107,71,74,29,9,21,21,46,43,4,4,0.9,1
2022-11-11T20:00:00,1064A,117.9503,40.928,承德市,开发区,细颗粒物(PM2.5),104,119,108,78,74,28,8,17,17,46,50,6,7,1.2,1.2
2022-11-11T20:00:00,1065A,117.8051,40.9655,承德市,文化中心,细颗粒物(PM2.5),107,132,129,80,93,32,16,24,24,40,44,3,4,1.1,1.2
2022-11-11T20:00:00,1066A,117.9268,41.0026,承德市,离宫(对照点),细颗粒物(PM2.5),98,109,98,73,75,38,2,25,25,36,35,7,8,0.8,0.8
2022-11-11T20:00:00,1067A,116.6708,39.5111,廊坊市,药材公司,颗粒物(PM10),62,73,155,42,103,45,0,24,2,52,37,6,5,1.0,1.4
2022-11-11T20:00:00,1068A,116.7214,39.5589,廊坊市,开发区,,46,40,134,32,100,34,1,19,3,58,46,8,7,1.0,1.4
2022-11-11T20:00:00,1070A,116.7244,39.5269,廊坊市,北华航天学院,颗粒物(PM10),53,56,150,34,135,42,2,30,4,50,42,4,4,1.0,1.4
2022-11-11T20:00:00,1071A,116.8842,38.2991,沧州市,沧县城建局,细颗粒物(PM2.5),251,180,168,201,145,85,21,61,59,73,40,10,9,1.5,1.3
2022-11-11T20:00:00,1072A,116.8584,38.3254,沧州市,电视转播站,细颗粒物(PM2.5),210,203,180,160,133,99,44,73,73,36,28,9,10,1.2,1.2
2022-11-11T20:00:00,1073A,116.8709,38.3228,沧州市,市环保局,细颗粒物(PM2.5),239,179,184,189,136,98,33,71,69,57,31,13,12,1.4,1.3
2022-11-11T20:00:00,1074A,115.6838,37.7541,衡水市,电机北厂,细颗粒物(PM2.5),294,,295,244,222,24,2,12,10,41,51,7,11,1.1,1.2
2022-11-11T20:00:00,1075A,115.6303,37.7316,衡水市,市监测站,颗粒物(PM10),349,459,318,263,232,23,2,13,11,38,50,2,2,1.0,1
2022-11-11T20:00:00,1077A,114.4704,37.0886,邢台市,达活泉,细颗粒物(PM2.5),219,206,208,169,183,79,42,70,63,34,34,6,6,1.1,1.1
2022-11-11T20:00:00,1078A,114.5062,37.0349,邢台市,邢师高专,细颗粒物(PM2.5),240,198,182,190,193,83,29,75,60,33,25,6,7,1.0,1.1
2022-11-11T20:00:00,1079A,114.5237,37.0851,邢台市,路桥公司,细颗粒物(PM2.5),224,243,220,174,169,82,28,73,60,29,29,4,6,0.9,1.1
2022-11-11T20:00:00,1080A,114.4725,37.0719,邢台市,市环保局,细颗粒物(PM2.5),230,225,218,180,190,76,34,68,59,36,29,4,6,0.9,1
2022-11-11T20:00:00,1081A,112.5139,37.8873,太原市,尖草坪,,,,99,,83,73,,71,42,,32,,5,,1
2022-11-11T20:00:00,1083A,112.434,38.0108,太原市,上兰(对照点),,,,,,,,,,,,,,,,
2022-11-11T20:00:00,1084A,112.469,37.7124,太原市,晋源,细颗粒物(PM2.5),58,52,93,41,72,76,4,70,36,68,37,7,8,1.3,1.2
2022-11-11T20:00:00,1085A,112.5583,37.7394,太原市,小店,细颗粒物(PM2.5),59,49,102,42,82,70,8,66,20,61,47,4,7,1.3,1.4
2022-11-11T20:00:00,1086A,112.5369,37.8692,太原市,桃园,,42,31,93,29,78,79,13,62,25,53,39,5,5,1.4,1.3
2022-11-11T20:00:00,1087A,112.57,37.8195,太原市,坞城,细颗粒物(PM2.5),52,34,87,36,77,79,12,59,31,55,35,9,7,2.0,1.2
2022-11-11T20:00:00,1088A,112.549,37.9854,太原市,南寨,,30,23,79,13,70,84,7,84,27,60,35,4,4,1.0,1
2022-11-11T20:00:00,1089A,112.4701,37.782,太原市,金胜,,,,,,,,,,,,,,,,
2022-11-11T20:00:00,1090A,111.6507,40.7517,呼和浩特市,呼市一监,,15,5,49,4,45,49,46,34,34,10,38,7,6,0.5,1
2022-11-11T20:00:00,1091A,111.6572,40.8033,呼和浩特市,小召,,16,5,48,4,46,52,49,46,46,15,38,10,11,0.3,0.8
2022-11-11T20:00:00,1094A,111.7516,40.8369,呼和浩特市,如意水处理厂,,14,5,54,3,42,37,33,29,29,27,42,3,4,0.7,1.2
2022-11-11T20:00:00,1095A,111.7276,40.8062,呼和浩特市,二十九中,,16,8,55,4,45,53,50,45,45,11,31,7,8,0.8,1.2
2022-11-11T20:00:00,1096A,111.5512,40.7866,呼和浩特市,工大金川校区,,,,,,,,,,,,,,,,
2022-11-11T20:00:00,1097A,111.717,40.7612,呼和浩特市,化肥厂生活区,,,7,55,6,49,51,40,43,43,,,9,10,0.6,1.1
2022-11-11T20:00:00,1098A,123.6836,41.9339,沈阳市,森林路(对照点),,,,,,,,,,,,,,,,
2022-11-11T20:00:00,1099A,123.505,41.7406,沈阳市,浑南东路,细颗粒物(PM2.5),54,54,71,38,41,86,12,76,55,60,50,10,16,1.1,1.2
2022-11-11T20:00:00,1100A,123.4231,41.6989,沈阳市,新秀街,细颗粒物(PM2.5),52,52,51,36,40,92,45,83,70,33,34,31,35,1.0,1.1
2022-11-11T20:00:00,1102A,123.5903,41.8411,沈阳市,东陵路,细颗粒物(PM2.5),60,46,73,43,53,87,32,73,58,37,43,8,11,1.0,1.1
2022-11-11T20:00:00,1103A,123.4264,41.8467,沈阳市,陵东街,细颗粒物(PM2.5),57,60,108,40,57,91,45,80,72,40,43,15,15,0.8,1.3
2022-11-11T20:00:00,1104A,123.4114,41.7653,沈阳市,文化路,细颗粒物(PM2.5),79,68,70,58,56,94,53,83,75,37,40,25,30,0.9,1
2022-11-11T20:00:00,1105A,123.4678,41.7867,沈阳市,小河沿,细颗粒物(PM2.5),58,56,90,41,53,87,33,78,66,44,50,13,16,0.9,1.1
2022-11-11T20:00:00,1106A,123.4017,41.7972,沈阳市,太原街,细颗粒物(PM2.5),62,63,90,44,50,86,50,76,70,39,43,21,25,0.9,1.1
2022-11-11T20:00:00,1108A,123.3783,41.9228,沈阳市,京沈街,颗粒物(PM10),57,63,105,37,75,87,52,72,66,35,43,20,26,0.7,1
2022-11-11T20:00:00,1109A,121.612,38.9741,大连市,甘井子,,,60,66,49,56,122,,115,100,,25,,5,0.6,0.6
2022-11-11T20:00:00,1110A,121.565,38.9511,大连市,周水子,颗粒物(PM10),56,61,80,31,47,100,88,96,88,30,26,4,4,0.6,0.7
2022-11-11T20:00:00,1111A,121.5637,38.8845,大连市,星海三站,,,67,76,,70,107,93,95,85,24,25,8,8,0.7,0.8
2022-11-11T20:00:00,1112A,121.6302,38.9117,大连市,青泥洼桥,,,68,86,31,46,119,98,106,100,41,36,,13,0.7,0.8
2022-11-11T20:00:00,1113A,121.6251,38.8638,大连市,傅家庄,颗粒物(PM10),60,70,69,39,45,120,108,111,107,20,20,5,6,0.7,0.7
2022-11-11T20:00:00,1114A,121.5213,38.8661,大连市,七贤岭,颗粒物(PM10),58,66,73,36,43,140,115,126,121,23,20,8,8,0.6,0.6
2022-11-11T20:00:00,1115A,121.2529,38.8061,大连市,旅顺,,38,38,48,25,29,113,88,112,104,22,19,4,3,0.4,0.5
2022-11-11T20:00:00,1116A,121.7485,39.1311,大连市,金州,细颗粒物(PM2.5),59,65,57,42,42,115,113,111,108,20,18,8,8,0.7,0.6
2022-11-11T20:00:00,1117A,121.7811,39.0496,大连市,开发区,细颗粒物(PM2.5),57,58,66,40,46,125,124,120,117,29,34,6,6,0.8,0.7
2022-11-11T20:00:00,1118A,121.9762,39.0631,大连市,双D港,细颗粒物(PM2.5),74,94,70,54,44,122,106,116,106,11,10,8,8,0.9,0.8
2022-11-11T20:00:00,1119A,125.3325,43.9166,长春市,食品厂,细颗粒物(PM2.5),64,57,93,46,79,63,42,53,51,36,49,7,11,0.7,0.8
2022-11-11T20:00:00,1120A,125.2863,43.9027,长春市,客车厂,细颗粒物(PM2.5),70,52,84,51,76,72,44,59,55,34,48,8,11,0.6,0.9
2022-11-11T20:00:00,1121A,125.2841,43.8463,长春市,邮电学院,颗粒物(PM10),56,61,95,37,66,84,54,70,66,31,47,8,10,1.0,1
2022-11-11T20:00:00,1122A,125.3716,43.8772,长春市,劳动公园,细颗粒物(PM2.5),64,59,86,46,72,82,51,69,66,33,44,18,11,0.6,0.8
2022-11-11T20:00:00,1123A,125.3297,43.8805,长春市,园林处,细颗粒物(PM2.5),59,58,83,42,72,78,47,64,60,34,42,11,10,0.8,0.9
2022-11-11T20:00:00,1124A,125.4605,43.79,长春市,净月潭,细颗粒物(PM2.5),52,45,70,36,56,79,58,70,68,19,23,6,6,0.5,0.6
2022-11-11T20:00:00,1125A,125.7194,43.515,长春市,甩湾子(对照点),,,,,,,,,,,,,,,,
2022-11-11T20:00:00,1126A,125.3863,43.8447,长春市,经开区环卫处,细颗粒物(PM2.5),64,67,104,46,74,74,45,66,62,34,44,9,9,0.7,0.8
2022-11-11T20:00:00,1127A,125.245,43.7783,长春市,高新区管委会,细颗粒物(PM2.5),57,58,83,40,72,76,48,66,60,29,35,6,6,0.6,0.7
2022-11-11T20:00:00,1128A,125.1761,43.8325,长春市,岱山公园,细颗粒物(PM2.5),68,45,83,49,76,81,53,69,65,22,42,4,8,0.7,0.7
2022-11-11T20:00:00,1129A,126.5422,45.755,哈尔滨市,岭北(对照点),细颗粒物(PM2.5),176,171,173,133,135,122,51,56,40,26,43,20,21,0.8,1.1
2022-11-11T20:00:00,1130A,126.561,45.8167,哈尔滨市,松北商大,细颗粒物(PM2.5),143,154,206,109,191,122,50,118,33,16,51,4,14,0.9,1.4
2022-11-11T20:00:00,1131A,126.979,45.5419,哈尔滨市,阿城会宁,细颗粒物(PM2.5),102,119,188,76,139,46,42,38,38,28,36,11,21,1.0,1.1
2022-11-11T20:00:00,1132A,126.599,45.7222,哈尔滨市,南岗学府路,细颗粒物(PM2.5),147,137,134,112,120,95,52,89,39,24,49,16,21,0.5,0.8
2022-11-11T20:00:00,1133A,126.689,45.7733,哈尔滨市,太平宏伟公园,细颗粒物(PM2.5),149,175,235,114,193,100,51,97,37,24,53,25,22,0.9,1.2
2022-11-11T20:00:00,1134A,126.635,45.7667,哈尔滨市,道外承德广场,细颗粒物(PM2.5),170,168,198,129,143,51,51,32,32,22,47,11,15,0.8,1.1
2022-11-11T20:00:00,1135A,126.685,45.7319,哈尔滨市,香坊红旗大街,细颗粒物(PM2.5),139,138,170,106,136,75,55,75,34,18,52,20,34,0.8,1.1
2022-11-11T20:00:00,1136A,126.6411,45.7258,哈尔滨市,动力和平路,细颗粒物(PM2.5),163,141,155,124,148,86,53,86,37,25,52,12,19,0.8,1.1
2022-11-11T20:00:00,1137A,126.593,45.7478,哈尔滨市,道里建国路,细颗粒物(PM2.5),135,154,152,103,122,60,48,53,28,26,51,17,20,0.6,1.6
2022-11-11T20:00:00,1138A,126.615,45.61,哈尔滨市,平房东轻厂,细颗粒物(PM2.5),139,138,138,106,114,48,28,38,36,44,35,12,16,0.8,0.9
2022-11-11T20:00:00,1139A,126.595,45.9855,哈尔滨市,呼兰师专,细颗粒物(PM2.5),178,155,215,134,152,100,50,90,34,18,62,12,23,0.9,2.1
2022-11-11T20:00:00,1140A,126.6206,45.6842,哈尔滨市,省农科院,细颗粒物(PM2.5),133,158,158,101,108,55,55,35,35,24,47,15,19,0.7,1
2022-11-11T20:00:00,1141A,121.4,31.238,上海市,普陀,,25,22,32,17,28,67,40,39,34,23,31,3,4,0.6,0.7
2022-11-11T20:00:00,1142A,121.478,31.2036,上海市,十五厂,,45,28,33,31,32,67,40,30,30,33,39,7,7,0.6,0.5
2022-11-11T20:00:00,1143A,121.467,31.3008,上海市,虹口,,28,22,33,19,24,57,32,30,24,35,39,4,5,0.5,0.5
2022-11-11T20:00:00,1144A,121.412,31.1654,上海市,徐汇上师大,,22,19,28,15,26,70,48,32,32,33,45,7,7,0.7,0.7
2022-11-11T20:00:00,1145A,121.536,31.2659,上海市,杨浦四漂,,29,19,30,20,29,60,33,21,21,39,46,7,7,0.7,0.7
2022-11-11T20:00:00,1146A,120.978,31.0935,上海市,青浦淀山湖(对照点),,,,,,,,,,,,,,,,
2022-11-11T20:00:00,1147A,121.425,31.2261,上海市,静安监测站,,,29,42,19,29,73,,35,35,23,31,6,5,0.5,0.6
2022-11-11T20:00:00,1148A,121.703,31.1907,上海市,浦东川沙,,22,17,25,15,24,51,46,36,36,20,30,5,6,0.5,0.5
2022-11-11T20:00:00,1149A,121.533,31.2284,上海市,浦东新区监测站,,,27,39,17,28,68,49,30,30,,26,5,5,0.6,0.6
2022-11-11T20:00:00,1150A,121.577,31.2071,上海市,浦东张江,,38,18,26,26,34,63,44,32,32,19,32,3,4,0.8,0.7
2022-11-11T20:00:00,1151A,118.8086,32.1065,南京市,迈皋桥,,34,34,78,9,48,68,32,51,51,41,43,4,4,0.4,0.6
2022-11-11T20:00:00,1152A,118.7538,32.0551,南京市,草场门,,31,31,61,19,47,71,46,57,57,30,31,3,2,0.5,0.7
2022-11-11T20:00:00,1153A,118.7794,32.0745,南京市,山西路,,28,24,67,19,45,82,60,68,68,13,26,3,3,0.2,0.4
2022-11-11T20:00:00,1154A,118.7752,32.0023,南京市,中华门,,27,27,67,14,40,76,48,60,60,27,31,4,4,0.5,0.4
2022-11-11T20:00:00,1155A,118.8109,32.0309,南京市,瑞金路,,32,32,43,14,45,76,49,61,61,21,9,5,4,0.3,0.3
2022-11-11T20:00:00,1156A,118.7997,32.0754,南京市,玄武湖,,,30,69,,65,80,59,67,67,15,26,4,4,0.3,0.5
2022-11-11T20:00:00,1157A,118.6414,32.0931,南京市,浦口,,33,33,59,17,45,61,48,51,51,31,40,3,3,0.4,0.7
2022-11-11T20:00:00,1158A,118.7356,31.9996,南京市,奥体中心,,34,34,53,22,51,71,46,58,58,30,32,3,2,0.4,0.5
2022-11-11T20:00:00,1159A,118.9125,32.1028,南京市,仙林大学城,,22,22,64,9,39,78,46,62,62,25,27,3,2,0.4,0.8
2022-11-11T20:00:00,1160A,120.561,31.2472,苏州市,上方山(对照点),,36,36,49,18,30,47,19,34,33,27,26,5,5,0.5,0.5
2022-11-11T20:00:00,1161A,120.628,31.2864,苏州市,南门,,,,,,,,,,,,,,,,
2022-11-11T20:00:00,1162A,120.591,31.3019,苏州市,彩香,,25,25,45,12,29,45,23,37,36,34,37,5,5,0.6,0.6
2022-11-11T20:00:00,1163A,120.596,31.3264,苏州市,轧钢厂,,26,26,45,12,25,50,20,43,37,32,38,5,5,0.6,0.7
2022-11-11T20:00:00,1164A,120.613,31.2703,苏州市,吴中区,,23,23,51,13,35,54,23,36,35,33,36,6,6,0.4,0.5
2022-11-11T20:00:00,1165A,120.543,31.2994,苏州市,苏州新区,,27,27,48,14,33,46,25,38,38,25,29,5,5,0.5,0.6
2022-11-11T20:00:00,1166A,120.669,31.3097,苏州市,苏州工业园区,,25,25,42,14,28,37,10,30,22,43,38,6,5,0.8,0.7
2022-11-11T20:00:00,1167A,120.641,31.3708,苏州市,相城区,,26,26,38,11,21,38,11,25,19,38,32,6,5,0.6,0.7
2022-11-11T20:00:00,1168A,120.9098,31.9663,南通市,狼山街道,,24,24,31,7,16,66,52,64,56,12,14,6,6,0.4,0.4
2022-11-11T20:00:00,1169A,120.86,32.0005,南通市,虹桥,,23,23,33,11,20,64,50,63,54,14,18,5,5,0.5,0.5
2022-11-11T20:00:00,1170A,120.87,32.02,南通市,城中,,21,21,33,9,34,70,54,67,58,11,15,4,4,0.2,0.3
2022-11-11T20:00:00,1171A,120.94,31.93,南通市,星湖花园,,22,22,29,7,18,69,45,60,49,13,14,7,6,0.4,0.4
2022-11-11T20:00:00,1172A,120.81,32.0417,南通市,紫琅学院,,25,25,37,9,21,67,52,63,56,11,18,6,6,0.4,0.4
2022-11-11T20:00:00,1173A,119.176,34.5885,连云港市,市环境监测站,,44,44,43,19,20,94,57,83,79,24,19,7,6,0.4,0.4
2022-11-11T20:00:00,1177A,117.179,34.2761,徐州市,黄河新村,细颗粒物(PM2.5),63,73,83,45,52,79,38,67,59,34,33,8,7,0.8,0.8
2022-11-11T20:00:00,1178A,117.1918,34.2384,徐州市,淮塔,"颗粒物(PM10),细颗粒物(PM2.5)",64,78,101,46,62,87,42,76,66,36,35,8,6,0.6,0.7
2022-11-11T20:00:00,1180A,117.256,34.2153,徐州市,新城区,细颗粒物(PM2.5),70,71,99,51,72,85,48,71,64,36,39,9,9,0.7,0.8
2022-11-11T20:00:00,1181A,117.244,34.2911,徐州市,桃园路,颗粒物(PM10),78,105,109,48,64,82,36,67,59,35,29,4,3,0.7,0.8
2022-11-11T20:00:00,1182A,117.2933,34.2778,徐州市,农科院,细颗粒物(PM2.5),70,85,89,51,59,74,16,59,48,52,36,6,5,0.8,0.8
2022-11-11T20:00:00,1186A,119.389,32.3761,扬州市,邗江监测站,颗粒物(PM10),51,51,63,23,34,58,8,47,32,52,29,10,7,1.3,0.9
2022-11-11T20:00:00,1188A,120.269,31.4867,无锡市,雪浪,,41,41,52,19,30,40,0,28,22,51,32,7,6,0.7,0.7
2022-11-11T20:00:00,1189A,120.275,31.6219,无锡市,黄巷,,42,42,56,17,31,41,5,39,20,50,31,8,8,0.6,0.6
2022-11-11T20:00:00,1190A,120.294,31.56,无锡市,曹张,,36,36,37,24,30,52,1,39,22,49,25,8,8,0.7,0.7
2022-11-11T20:00:00,1191A,120.242,31.5031,无锡市,漆塘,,34,34,48,17,28,54,3,39,30,50,29,9,9,0.6,0.6
2022-11-11T20:00:00,1192A,120.3489,31.5863,无锡市,东亭,,39,39,46,22,31,48,0,37,16,45,25,7,7,0.8,0.8
2022-11-11T20:00:00,1193A,120.354,31.5475,无锡市,旺庄,,,44,49,14,32,35,,33,20,57,35,8,8,,1
2022-11-11T20:00:00,1194A,120.245,31.5631,无锡市,荣巷,,31,31,46,19,33,52,5,39,25,53,39,8,7,0.7,0.7
2022-11-11T20:00:00,1195A,120.299,31.6817,无锡市,堰桥,,34,34,44,17,28,52,3,46,26,51,27,5,6,0.9,0.8
2022-11-11T20:00:00,1196A,119.9633,31.762,常州市,市监测站,,38,38,80,23,39,46,2,43,20,60,39,6,6,0.7,0.7
2022-11-11T20:00:00,1200A,119.9468,31.7069,常州市,武进监测站,,36,36,76,15,31,55,2,41,34,62,36,7,9,0.6,0.9
2022-11-11T20:00:00,1201A,119.9255,31.9087,常州市,安家,,45,45,73,28,42,58,7,45,36,56,36,4,5,0.6,0.7
2022-11-11T20:00:00,1203A,119.6707,32.1875,镇江市,新区办事处,,38,38,51,22,34,68,9,44,31,63,37,7,4,1.1,0.8
2022-11-11T20:00:00,1204A,119.4974,32.1968,镇江市,职教中心,细颗粒物(PM2.5),70,41,52,51,74,49,4,32,22,68,45,8,4,1.1,0.9
2022-11-11T20:00:00,1205A,119.4303,32.1328,镇江市,丹徒区监测站,,40,40,55,25,49,56,0,36,29,65,34,5,5,0.7,0.7
2022-11-11T20:00:00,1206A,119.905,32.4878,泰州市,公园路,,41,41,47,22,30,56,22,56,45,31,18,8,8,0.7,0.8
2022-11-11T20:00:00,1207A,119.9189,32.4625,泰州市,莲花,,39,39,45,24,34,68,28,62,53,35,23,8,8,0.6,0.5
2022-11-11T20:00:00,1209A,119.888,32.4639,泰州市,留学生创业园,,38,37,37,26,31,69,31,60,51,27,15,7,6,0.8,0.7
2022-11-11T20:00:00,1210A,119.036,33.5981,淮安市,钵池山,,41,41,48,19,25,80,39,73,64,30,21,6,6,0.7,0.7
2022-11-11T20:00:00,1211A,119.007,33.575,淮安市,北京南路,颗粒物(PM10),52,53,47,25,38,73,39,65,59,24,20,6,6,0.7,0.7
2022-11-11T20:00:00,1212A,118.989,33.6067,淮安市,市监测站,,44,44,52,10,19,80,55,72,67,22,24,4,4,0.7,0.7
2022-11-11T20:00:00,1213A,119.135,33.5039,淮安市,楚州区监测站,颗粒物(PM10),52,54,48,19,25,74,36,66,58,22,16,6,6,0.7,0.7
2022-11-11T20:00:00,1214A,119.0186,33.6297,淮安市,淮阴区监测站,,43,43,50,19,26,76,49,69,64,20,24,6,6,0.4,0.5
2022-11-11T20:00:00,1215A,120.118,33.4022,盐城市,盐城电厂,,27,27,28,18,19,96,60,87,77,13,14,6,6,0.4,0.4
2022-11-11T20:00:00,1216A,120.156,33.3942,盐城市,市监测站,,41,41,33,15,18,82,41,74,66,14,15,8,8,0.2,0.3
2022-11-11T20:00:00,1218A,120.2144,33.38,盐城市,开发区管委会,,25,25,28,15,14,92,55,83,72,16,18,8,8,0.3,0.3
2022-11-11T20:00:00,1220A,118.293,33.9528,宿迁市,宿迁学院,,49,49,43,31,26,76,36,69,56,36,27,5,5,0.6,0.6
2022-11-11T20:00:00,1221A,118.2442,33.9592,宿迁市,宿迁中学,,47,47,46,28,27,79,43,72,62,35,25,6,5,0.6,0.5
2022-11-11T20:00:00,1223A,120.2072,30.2111,杭州市,滨江,,47,47,69,22,37,52,7,38,34,59,45,5,5,0.6,0.6
2022-11-11T20:00:00,1224A,120.0633,30.2747,杭州市,西溪,,46,46,62,23,36,60,18,44,41,30,30,10,9,0.5,0.5
2022-11-11T20:00:00,1225A,119.026,29.635,杭州市,千岛湖(对照点),,,,,,,,,,,,,,,,
2022-11-11T20:00:00,1226A,120.3461,30.3153,杭州市,下沙,,32,32,48,17,28,77,14,49,44,49,36,8,8,0.5,0.5
2022-11-11T20:00:00,1227A,120.1269,30.2456,杭州市,卧龙桥,颗粒物(PM10),52,54,73,23,48,60,1,42,35,27,30,6,6,0.8,0.6
2022-11-11T20:00:00,1228A,120.1903,30.2692,杭州市,浙江农大,,31,31,48,19,32,71,20,44,42,42,35,6,6,0.5,0.5
2022-11-11T20:00:00,1229A,120.157,30.2897,杭州市,朝晖五区,,,,,,,,,,,,,,,,
2022-11-11T20:00:00,1230A,120.1197,30.3119,杭州市,和睦小学,,41,41,58,24,34,51,14,41,38,48,38,1,1,0.6,0.6
2022-11-11T20:00:00,1231A,120.3019,30.4183,杭州市,临平镇,,39,39,44,14,21,71,20,51,49,42,27,6,6,0.7,0.7
2022-11-11T20:00:00,1232A,120.2697,30.1819,杭州市,城厢镇,,47,47,59,26,40,70,7,48,39,61,44,6,7,0.7,0.7
2022-11-11T20:00:00,1233A,120.0883,30.1808,杭州市,云栖,,40,40,100,19,36,62,12,46,42,33,35,6,6,0.5,0.5
2022-11-11T20:00:00,1234A,121.8358,29.911,宁波市,区环保大楼,,23,23,25,10,13,48,33,35,29,33,39,5,6,0.4,0.4
2022-11-11T20:00:00,1235A,121.56,29.82,宁波市,万里学院,,20,20,24,11,14,78,42,68,62,23,24,6,6,0.4,0.5
2022-11-11T20:00:00,1236A,121.713,29.9572,宁波市,龙赛医院,,27,27,35,14,20,54,40,42,39,30,42,10,12,0.5,0.6
2022-11-11T20:00:00,1239A,121.633,29.7733,宁波市,钱湖水厂,,14,10,16,8,13,76,43,69,64,11,12,5,5,0.4,0.4
2022-11-11T20:00:00,1240A,121.5856,29.8635,宁波市,太古小学,,28,28,17,10,13,71,20,56,51,43,29,10,10,0.5,0.6
2022-11-11T20:00:00,1241A,121.524,29.8674,宁波市,市环境监测中心,,18,18,31,8,15,68,35,54,53,26,29,6,7,0.4,0.6
2022-11-11T20:00:00,1242A,120.634,28.0089,温州市,瓯海,,35,35,54,17,24,68,29,49,45,37,40,6,7,0.5,0.6
2022-11-11T20:00:00,1243A,120.6748,27.9939,温州市,南浦,,24,24,44,13,21,65,35,51,47,28,35,5,5,0.2,0.3
2022-11-11T20:00:00,1244A,120.76,27.9747,温州市,龙湾,,21,14,45,6,18,67,21,52,46,42,40,5,6,0.4,0.5
2022-11-11T20:00:00,1245A,120.6709,28.0167,温州市,市站,,33,33,54,13,21,64,28,53,46,35,38,5,5,0.5,0.5
2022-11-11T20:00:00,1246A,120.598,30.0911,绍兴市,袍江站,,,,,,,,,,,,,,,,
2022-11-11T20:00:00,1247A,120.6053,29.9928,绍兴市,城东开发委,颗粒物(PM10),54,58,64,34,48,59,5,39,36,55,36,11,11,0.8,0.8
2022-11-11T20:00:00,1250A,120.0751,30.8669,湖州市,城西水厂,,28,28,42,14,20,66,35,51,51,31,31,5,5,0.4,0.5
2022-11-11T20:00:00,1252A,120.7436,30.778,嘉兴市,清河小学,,22,22,34,12,21,62,39,53,51,28,21,6,7,0.4,0.4
2022-11-11T20:00:00,1253A,120.726,30.7478,嘉兴市,嘉兴学院,,23,23,37,12,24,56,47,47,47,21,24,5,6,0.3,0.4
2022-11-11T20:00:00,1255A,121.273,28.6459,台州市,黄岩环保大楼,,15,12,37,8,17,82,48,68,62,13,20,6,5,0.3,0.4
2022-11-11T20:00:00,1256A,121.419,28.6542,台州市,台州环保大楼,,30,30,33,16,18,76,45,67,56,12,14,6,6,0.4,0.4
2022-11-11T20:00:00,1257A,121.377,28.5773,台州市,路桥田洋王,,16,12,44,6,23,75,51,65,58,12,17,5,5,0.3,0.3
2022-11-11T20:00:00,1258A,122.122,30.0203,舟山市,定海檀枫,,,18,21,9,12,70,,64,63,7,13,4,4,0.2,0.2
2022-11-11T20:00:00,1259A,122.3094,29.9558,舟山市,普陀东港,,19,19,22,9,13,68,56,58,58,17,27,5,5,0.3,0.3
2022-11-11T20:00:00,1260A,122.19,29.9944,舟山市,临城新区,,19,15,19,7,10,68,60,65,64,9,14,5,5,0.2,0.2
2022-11-11T20:00:00,1261A,119.649,29.1131,金华市,四中(停运161031),,,,,,,,,,,,,,,,
2022-11-11T20:00:00,1262A,119.647,29.077,金华市,十五中,颗粒物(PM10),63,75,42,37,23,84,47,74,70,40,33,4,6,0.6,0.5
2022-11-11T20:00:00,1263A,119.686,29.1029,金华市,监测站,颗粒物(PM10),65,79,36,34,14,89,31,77,70,47,20,4,4,0.7,0.5
2022-11-11T20:00:00,1264A,118.8692,28.9398,衢州市,环保大楼,颗粒物(PM10),57,64,42,38,26,117,51,100,96,39,28,8,8,0.5,0.4
2022-11-11T20:00:00,1265A,118.8709,28.9666,衢州市,实验学校,,50,50,31,33,21,82,48,73,71,37,26,12,8,0.6,0.6
2022-11-11T20:00:00,1266A,118.8621,28.9808,衢州市,衢州学院,,45,45,38,21,19,105,72,92,91,28,25,12,8,0.5,0.4
2022-11-11T20:00:00,1267A,119.914,28.4514,丽水市,监测站大楼,,28,28,27,15,16,71,57,65,64,15,20,6,7,0.4,0.6
2022-11-11T20:00:00,1268A,119.93,28.4586,丽水市,莲都小学,,30,30,28,14,12,73,63,67,67,14,18,6,6,0.4,0.4
2022-11-11T20:00:00,1269A,119.879,28.4231,丽水市,余庄前,,23,23,18,12,10,77,25,66,58,22,16,6,6,0.3,0.4
2022-11-11T20:00:00,1270A,117.1959,31.7848,合肥市,明珠广场,颗粒物(PM10),74,97,108,51,66,93,45,63,63,62,43,11,10,0.6,0.8
2022-11-11T20:00:00,1271A,117.3072,31.8764,合肥市,三里街,颗粒物(PM10),84,117,116,51,70,95,4,54,48,88,42,7,7,1.0,1
2022-11-11T20:00:00,1272A,117.2588,31.8707,合肥市,琥珀山庄,细颗粒物(PM2.5),77,97,117,56,68,104,20,56,50,63,33,8,8,1.0,0.9
2022-11-11T20:00:00,1273A,117.1604,31.9052,合肥市,董铺水库(对照点),,,91,105,51,65,122,35,66,63,,29,5,10,0.7,1.1
2022-11-11T20:00:00,1274A,117.25,31.8571,合肥市,长江中路,细颗粒物(PM2.5),100,128,116,75,70,111,29,58,57,61,32,9,9,1.0,0.9
2022-11-11T20:00:00,1275A,117.266,31.9436,合肥市,庐阳区,细颗粒物(PM2.5),77,100,106,56,61,108,30,60,59,45,32,5,5,0.6,0.7
2022-11-11T20:00:00,1276A,117.336,31.8586,合肥市,瑶海区,细颗粒物(PM2.5),110,127,121,83,86,96,29,66,58,79,49,11,11,0.8,1
2022-11-11T20:00:00,1277A,117.3027,31.7964,合肥市,包河区,,,,116,,82,101,,64,64,100,48,13,10,,1
2022-11-11T20:00:00,1278A,117.2776,31.7385,合肥市,滨湖新区,细颗粒物(PM2.5),73,92,129,53,74,112,76,85,85,30,33,12,11,0.8,1
2022-11-11T20:00:00,1279A,117.1318,31.8403,合肥市,高新区,颗粒物(PM10),80,110,121,58,79,116,8,57,47,89,40,6,6,0.8,0.7
2022-11-11T20:00:00,1280A,119.3903,26.0543,福州市,鼓山(对照点),,,,,,,,,,,,,,,,
2022-11-11T20:00:00,1282A,119.2681,26.0504,福州市,师大,,38,38,22,16,13,64,24,62,48,31,13,4,4,0.7,0.5
2022-11-11T20:00:00,1283A,119.2984,26.1028,福州市,五四北路,,17,17,13,9,9,69,46,69,58,10,6,3,3,0.7,0.6
2022-11-11T20:00:00,1284A,119.2648,26.0768,福州市,杨桥西路,,43,43,21,11,12,67,23,66,50,32,13,3,3,0.6,0.5
2022-11-11T20:00:00,1285A,119.317,26.0746,福州市,紫阳,,37,37,18,24,7,68,18,68,46,37,10,4,4,0.5,0.4
2022-11-11T20:00:00,1286A,118.1608,24.8169,厦门市,溪东(对照点),,,,,,,,,,,,,,,,
2022-11-11T20:00:00,1287A,118.1514,24.4767,厦门市,洪文,,30,30,29,10,11,118,43,89,85,24,23,3,3,0.5,0.4
2022-11-11T20:00:00,1288A,118.0661,24.4444,厦门市,鼓浪屿,,16,11,35,6,19,66,50,60,58,16,32,4,7,0.4,0.5
2022-11-11T20:00:00,1290A,115.8931,28.6843,南昌市,省外办,颗粒物(PM10),72,93,72,43,29,133,36,113,100,60,42,8,9,0.9,0.7
2022-11-11T20:00:00,1291A,115.8886,28.7003,南昌市,省林业公司,颗粒物(PM10),64,78,71,39,31,139,51,117,112,58,54,7,10,0.9,0.7
2022-11-11T20:00:00,1292A,115.8126,28.7442,南昌市,林科所,颗粒物(PM10),52,53,49,19,24,157,75,125,121,36,34,10,12,0.6,0.7
2022-11-11T20:00:00,1294A,115.8518,28.687,南昌市,建工学校,颗粒物(PM10),64,78,66,28,29,144,40,118,110,71,37,10,11,0.9,0.6
2022-11-11T20:00:00,1295A,115.8921,28.6424,南昌市,象湖,颗粒物(PM10),65,79,60,31,33,137,31,114,98,72,41,8,9,0.8,0.6
2022-11-11T20:00:00,1296A,115.7423,28.7996,南昌市,武术学校(对照点),颗粒物(PM10),58,66,33,22,21,143,66,115,111,22,11,23,20,0.7,0.7
2022-11-11T20:00:00,1298A,115.9314,28.6842,南昌市,省站,细颗粒物(PM2.5),73,76,83,53,40,134,33,110,100,77,43,9,11,1.5,0.9
2022-11-11T20:00:00,1299A,116.9862,36.6114,济南市,科干所,细颗粒物(PM2.5),62,58,91,44,63,93,82,77,76,17,44,5,6,0.6,1.1
2022-11-11T20:00:00,1300A,116.9376,36.665,济南市,农科所,颗粒物(PM10),97,144,114,68,67,96,5,73,60,104,55,6,7,1.4,0.8
2022-11-11T20:00:00,1301A,117.1265,36.6734,济南市,开发区,细颗粒物(PM2.5),75,98,112,55,68,73,24,63,55,76,62,7,10,1.0,1.1
2022-11-11T20:00:00,1303A,117.0624,36.6868,济南市,省种子仓库,颗粒物(PM10),106,161,141,66,79,88,8,64,53,110,69,5,6,1.4,0.9
2022-11-11T20:00:00,1304A,116.9489,36.6447,济南市,机床二厂,细颗粒物(PM2.5),95,134,135,71,77,102,20,77,64,83,56,6,7,1.4,1.3
2022-11-11T20:00:00,1305A,117.0495,36.663,济南市,市监测站,颗粒物(PM10),81,112,127,51,68,91,15,68,56,91,63,6,9,1.2,1.2
2022-11-11T20:00:00,1306A,116.7675,36.5484,济南市,长清党校,细颗粒物(PM2.5),64,63,89,46,58,102,71,93,82,24,39,3,4,0.6,0.8
2022-11-11T20:00:00,1307A,120.6659,36.2403,青岛市,仰口(对照点),,43,36,30,27,21,150,136,140,140,9,10,4,5,0.5,0.4
2022-11-11T20:00:00,1308A,120.3905,36.1851,青岛市,李沧区子站,,,,,,,,,,,,,,,,
2022-11-11T20:00:00,1309A,120.3471,36.0699,青岛市,市北区子站,,,,,,,,,,,,,,,,
2022-11-11T20:00:00,1310A,120.4134,36.0658,青岛市,市南区东部子站,,48,48,30,24,16,133,117,119,119,9,11,6,7,0.6,0.6
2022-11-11T20:00:00,1311A,120.3664,36.1032,青岛市,四方区子站,颗粒物(PM10),54,58,36,27,22,116,98,105,105,18,18,5,5,0.6,0.5
2022-11-11T20:00:00,1312A,120.2994,36.054,青岛市,市南区西部子站,,46,46,30,22,13,135,113,121,121,20,18,7,7,0.7,0.7
2022-11-11T20:00:00,1313A,120.4581,36.0858,青岛市,崂山区子站,,48,48,31,24,14,142,121,129,129,22,19,5,5,0.4,0.3
2022-11-11T20:00:00,1314A,120.1983,35.9608,青岛市,黄岛区子站,,39,36,29,20,16,142,122,127,127,12,14,4,5,0.4,0.4
2022-11-11T20:00:00,1315A,120.3999,36.3083,青岛市,城阳区子站,颗粒物(PM10),54,57,45,25,21,118,107,104,104,22,41,5,5,0.5,0.6
2022-11-11T20:00:00,1316A,113.69031,34.76122,郑州市,烟厂,细颗粒物(PM2.5),176,259,211,133,152,44,6,36,17,48,34,3,4,1.5,1.4
2022-11-11T20:00:00,1317A,113.65724,34.77134,郑州市,郑纺机,颗粒物(PM10),152,254,222,,176,49,10,42,20,49,33,6,9,1.8,1.7
2022-11-11T20:00:00,1318A,113.67526,34.80246,郑州市,银行学校,细颗粒物(PM2.5),178,260,213,134,155,55,17,45,23,47,38,7,10,2.0,2
2022-11-11T20:00:00,1319A,113.56746,34.81334,郑州市,供水公司,细颗粒物(PM2.5),100,0,139,75,93,51,6,40,18,49,33,5,7,1.6,1.7
2022-11-11T20:00:00,1320A,113.7329,34.7178,郑州市,经开区管委,颗粒物(PM10),167,283,238,95,111,38,4,32,14,39,28,5,6,1.6,1.5
2022-11-11T20:00:00,1321A,113.73961,34.77172,郑州市,四十七中,颗粒物(PM10),167,284,253,86,92,44,10,38,17,47,35,8,9,1.7,1.6
2022-11-11T20:00:00,1322A,113.60532,34.74838,郑州市,市监测站,颗粒物(PM10),154,258,241,94,100,46,7,40,18,48,33,6,8,1.5,1.4
2022-11-11T20:00:00,1323A,113.64164,34.7525,郑州市,河医大,,,,,,,,,,,,,,,,
2022-11-11T20:00:00,1324A,113.51488,34.91089,郑州市,岗李水库(对照点),,,,,,,,,,,,,,,,
2022-11-11T20:00:00,1325A,114.3677,30.5584,武汉市,东湖梨园,颗粒物(PM10),64,78,73,42,44,111,72,89,89,38,42,12,12,1.0,1.1
2022-11-11T20:00:00,1326A,114.2529,30.558,武汉市,汉阳月湖,颗粒物(PM10),62,73,70,41,41,98,51,70,70,62,67,10,10,1.0,1
2022-11-11T20:00:00,1327A,114.282,30.6189,武汉市,汉口花桥,细颗粒物(PM2.5),92,106,71,68,42,88,44,70,48,62,48,8,8,1.0,0.8
2022-11-11T20:00:00,1328A,114.3025,30.5332,武汉市,武昌紫阳,细颗粒物(PM2.5),87,70,65,64,45,98,65,77,77,50,48,10,13,1.2,1.2
2022-11-11T20:00:00,1329A,114.3646,30.6217,武汉市,青山钢花,细颗粒物(PM2.5),107,118,90,80,55,105,63,85,69,53,53,21,16,2.2,1.5
2022-11-11T20:00:00,1330A,114.1566,30.4825,武汉市,沌口新区,颗粒物(PM10),76,101,74,49,44,93,41,76,71,73,51,17,15,1.4,1
2022-11-11T20:00:00,1331A,114.3014,30.5944,武汉市,汉口江滩,细颗粒物(PM2.5),74,76,65,54,46,79,60,65,65,52,54,13,11,1.1,1
2022-11-11T20:00:00,1333A,114.135,30.6319,武汉市,吴家山,细颗粒物(PM2.5),80,108,72,59,43,81,28,69,60,90,59,13,11,1.5,1.1
2022-11-11T20:00:00,1334A,113.8454,30.2917,武汉市,沉湖七壕(对照点),颗粒物(PM10),70,90,58,26,34,97,50,84,81,39,29,10,11,0.7,0.8
2022-11-11T20:00:00,1335A,113.0833,28.2325,长沙市,经开区环保局,,38,38,42,18,24,127,48,110,97,48,35,8,11,0.6,0.7
2022-11-11T20:00:00,1336A,112.8872,28.2189,长沙市,高开区环保局,,29,23,38,20,28,116,76,103,99,18,18,9,14,0.4,0.5
2022-11-11T20:00:00,1337A,113.0792,28.2053,长沙市,马坡岭,,50,50,57,24,25,126,40,110,96,39,29,9,12,0.5,0.5
2022-11-11T20:00:00,1338A,112.9394,28.19,长沙市,湖南师范大学,颗粒物(PM10),51,51,42,33,30,104,40,86,78,21,16,4,8,0.7,0.7
2022-11-11T20:00:00,1339A,113.0178,28.1322,长沙市,雨花区环保局,,32,32,38,14,22,108,60,90,86,25,20,9,12,0.5,0.4
2022-11-11T20:00:00,1340A,112.9792,28.2597,长沙市,伍家岭,颗粒物(PM10),65,79,67,36,29,135,13,110,88,76,50,7,8,1.7,0.7
2022-11-11T20:00:00,1341A,113.0014,28.1944,长沙市,火车新站,,45,45,43,31,23,114,44,94,85,42,25,8,11,0.8,0.7
2022-11-11T20:00:00,1342A,112.9844,28.1178,长沙市,天心区环保局,,36,36,41,20,23,117,53,97,89,35,23,8,12,0.5,0.5
2022-11-11T20:00:00,1343A,112.8908,28.1308,长沙市,湖南中医药大学,颗粒物(PM10),75,99,63,28,29,104,0,88,69,73,42,4,6,0.7,0.6
2022-11-11T20:00:00,1344A,112.9581,28.3611,长沙市,沙坪(对照点),,,,35,22,24,113,48,96,82,25,16,2,6,0.5,0.6
2022-11-11T20:00:00,1345A,113.2347,23.1423,广州市,广雅中学,细颗粒物(PM2.5),88,108,91,65,56,221,140,185,185,65,74,5,4,1.1,1.2
2022-11-11T20:00:00,1346A,113.2612,23.105,广州市,市五中,细颗粒物(PM2.5),104,102,81,78,63,239,155,207,207,60,60,6,6,1.2,1.3
2022-11-11T20:00:00,1348A,113.3478,23.0916,广州市,广东商学院,细颗粒物(PM2.5),84,97,77,62,49,237,153,195,195,57,67,6,6,1.0,1
2022-11-11T20:00:00,1349A,113.4332,23.1047,广州市,市八十六中,颗粒物(PM10),84,117,113,54,53,236,78,190,176,114,86,4,8,1.2,1.2
2022-11-11T20:00:00,1350A,113.3505,22.9483,广州市,番禺中学,细颗粒物(PM2.5),72,81,74,52,46,235,106,196,192,55,55,5,6,1.0,1
2022-11-11T20:00:00,1351A,113.2146,23.3916,广州市,花都师范,细颗粒物(PM2.5),85,106,91,63,57,256,183,226,226,47,56,7,7,0.9,0.9
2022-11-11T20:00:00,1352A,113.2597,23.1331,广州市,市监测站,细颗粒物(PM2.5),93,120,81,69,51,243,164,211,211,65,64,6,6,1.0,1
2022-11-11T20:00:00,1353A,113.5618,23.312,广州市,九龙镇镇龙,颗粒物(PM10),84,117,77,61,41,180,23,165,138,109,49,6,6,1.0,0.8
2022-11-11T20:00:00,1354A,113.2765,23.1544,广州市,麓湖,细颗粒物(PM2.5),68,78,72,49,46,238,67,179,173,84,54,3,4,1.0,0.9
2022-11-11T20:00:00,1355A,113.443,23.3035,广州市,帽峰山森林公园(对照点),细颗粒物(PM2.5),113,144,127,85,73,199,174,174,174,32,32,5,6,0.8,0.7
2022-11-11T20:00:00,1356A,114.1063,22.5545,深圳市,通心岭子站,,32,32,25,19,15,119,35,84,78,48,18,3,3,0.5,0.4
2022-11-11T20:00:00,1357A,114.117,22.5625,深圳市,洪湖,,41,41,33,22,18,152,41,102,95,43,22,8,6,0.7,0.6
2022-11-11T20:00:00,1358A,113.987,22.5417,深圳市,华侨城,,34,31,33,20,19,100,30,81,74,68,25,10,6,0.5,0.8
2022-11-11T20:00:00,1359A,113.9181,22.5171,深圳市,南海子站,颗粒物(PM10),55,60,43,30,23,114,18,79,72,100,41,7,4,0.7,0.5
2022-11-11T20:00:00,1360A,114.2458,22.5689,深圳市,盐田,,30,23,22,14,14,107,33,78,69,59,39,7,7,0.6,0.6
2022-11-11T20:00:00,1361A,114.2283,22.7244,深圳市,龙岗,,49,49,49,24,28,172,24,142,128,92,33,6,4,0.6,0.6
2022-11-11T20:00:00,1362A,113.8953,22.5861,深圳市,西乡,,,,,,,,,,,,,,,,
2022-11-11T20:00:00,1363A,114.494,22.5422,深圳市,南澳,,23,23,22,14,12,95,66,82,81,9,10,6,6,0.4,0.4
2022-11-11T20:00:00,1364A,114.41,22.6342,深圳市,葵涌,,27,27,23,17,15,105,49,87,84,17,11,8,8,0.5,0.5
2022-11-11T20:00:00,1365A,114.297,22.5978,深圳市,梅沙,,24,24,33,13,15,114,59,85,82,17,11,8,8,0.5,0.5
2022-11-11T20:00:00,1366A,114.0678,22.738,深圳市,观澜,"颗粒物(PM10),细颗粒物(PM2.5)",94,137,81,70,47,160,86,138,132,88,51,8,8,0.9,0.7
2022-11-11T20:00:00,1367A,113.5814,22.2618,珠海市,吉大,,16,16,25,10,25,84,45,72,70,25,18,6,6,0.4,0.4
2022-11-11T20:00:00,1368A,113.4881,22.2335,珠海市,前山,,36,26,31,25,20,99,7,75,66,72,40,6,6,0.6,0.4
2022-11-11T20:00:00,1369A,113.628,22.4251,珠海市,唐家,,33,26,29,23,17,132,54,90,89,16,22,6,7,0.3,0.2
2022-11-11T20:00:00,1370A,113.299,22.2281,珠海市,斗门,,35,31,37,16,21,120,14,92,85,69,35,8,8,0.9,0.6
2022-11-11T20:00:00,1371A,113.1294,23.0067,佛山市,湾梁,颗粒物(PM10),74,97,94,49,48,262,135,216,215,58,62,11,12,1.0,1
2022-11-11T20:00:00,1372A,113.1083,23.0478,佛山市,华材职中,细颗粒物(PM2.5),80,107,94,59,58,248,93,198,193,80,64,8,8,0.9,0.9
2022-11-11T20:00:00,1373A,113.144,23.0453,佛山市,南海气象局,细颗粒物(PM2.5),87,85,92,64,61,246,183,214,214,53,72,9,8,0.8,1
2022-11-11T20:00:00,1374A,113.2881,22.8094,佛山市,顺德苏岗,细颗粒物(PM2.5),104,107,67,78,58,224,144,181,181,57,57,6,6,1.2,1.2
2022-11-11T20:00:00,1375A,113.2544,22.7642,佛山市,容桂街道办,,,,,,,,,,,,,,,,
2022-11-11T20:00:00,1376A,112.8383,22.8678,佛山市,高明孔堂,颗粒物(PM10),54,58,56,27,32,204,83,159,157,30,23,6,7,0.7,0.7
2022-11-11T20:00:00,1377A,112.8836,23.1588,佛山市,三水监测站,颗粒物(PM10),91,132,100,59,54,200,16,162,150,179,68,6,8,1.0,0.8
2022-11-11T20:00:00,1378A,112.867,23.185,佛山市,三水云东海,颗粒物(PM10),58,66,72,37,42,236,123,175,175,31,40,5,6,0.6,0.6
2022-11-11T20:00:00,1379A,113.3769,22.5211,中山市,华柏园,颗粒物(PM10),65,79,52,32,32,168,37,120,117,76,39,7,5,2.0,0.9
2022-11-11T20:00:00,1380A,113.3881,22.5497,中山市,张溪,颗粒物(PM10),66,82,73,26,34,196,75,144,144,16,21,8,5,1.5,0.8
2022-11-11T20:00:00,1381A,113.4075,22.5111,中山市,紫马岭,颗粒物(PM10),55,60,49,26,25,154,50,127,113,40,25,6,6,0.7,0.5
2022-11-11T20:00:00,1382A,113.4411,22.4853,中山市,长江旅游区(对照点),,,,,,,,,,,,,,,,
2022-11-11T20:00:00,1383A,113.1064,22.6058,江门市,北街,颗粒物(PM10),62,73,62,34,33,201,69,165,157,57,41,6,6,2.1,1
2022-11-11T20:00:00,1384A,113.0731,22.5835,江门市,西区,颗粒物(PM10),71,91,69,38,39,198,115,160,160,52,52,7,7,1.1,1.1
2022-11-11T20:00:00,1385A,113.0219,22.5311,江门市,圭峰西,,50,48,55,27,32,182,158,162,162,24,31,6,6,0.7,0.9
2022-11-11T20:00:00,1386A,113.0828,22.5947,江门市,东湖,颗粒物(PM10),65,79,73,39,38,187,52,158,149,78,42,7,7,1.9,1.1
2022-11-11T20:00:00,1387A,113.7875,23.0457,东莞市,东城主山,,,,,,,,,,,,,,,,
2022-11-11T20:00:00,1388A,113.7533,23.0202,东莞市,南城元岭,,,,,,,,,,,,,,,,
2022-11-11T20:00:00,1389A,113.7547,23.0494,东莞市,莞城梨川,细颗粒物(PM2.5),85,92,104,63,73,212,121,188,181,76,68,10,10,1.2,1.1
2022-11-11T20:00:00,1390A,113.7944,23.0128,东莞市,东城石井,颗粒物(PM10),58,65,84,33,55,219,95,183,172,34,41,11,11,0.8,0.9
2022-11-11T20:00:00,1391A,113.7383,22.9658,东莞市,南城西平,颗粒物(PM10),75,100,97,50,45,226,153,194,194,47,50,9,9,0.9,1
2022-11-11T20:00:00,1392A,114.4183,23.0528,惠州市,河南岸金山湖子站,颗粒物(PM10),85,120,69,31,26,128,24,112,98,85,30,4,6,1.0,0.8
2022-11-11T20:00:00,1393A,114.4053,23.0822,惠州市,下埔横江三路子站,细颗粒物(PM2.5),55,58,54,39,28,157,110,133,132,32,26,6,8,0.7,0.6
2022-11-11T20:00:00,1394A,114.4103,23.1142,惠州市,江北云山西路子站,,34,32,53,23,28,164,106,148,146,39,21,4,6,0.6,0.4
2022-11-11T20:00:00,1395A,114.4645,22.7833,惠州市,惠阳区承修路船湖子站,,38,38,43,19,23,150,85,124,121,20,18,3,4,0.5,0.5
2022-11-11T20:00:00,1396A,114.5317,22.7422,惠州市,大亚湾管委会子站,,38,38,40,18,20,148,67,118,114,31,22,4,4,0.4,0.4
2022-11-11T20:00:00,1397A,112.4267,23.0706,肇庆市,睦岗子站,颗粒物(PM10),55,60,51,35,34,163,39,138,128,96,67,8,7,0.8,0.5
2022-11-11T20:00:00,1398A,112.4645,23.0475,肇庆市,城中子站,二氧化氮,59,49,53,31,35,153,8,132,120,117,45,12,15,1.0,0.9
2022-11-11T20:00:00,1399A,112.5544,23.1522,肇庆市,坑口子站,细颗粒物(PM2.5),59,61,73,42,52,191,109,156,154,20,26,9,11,0.5,0.5
2022-11-11T20:00:00,1400A,112.4753,23.1,肇庆市,七星岩子站(对照点),,42,36,42,21,27,163,132,154,154,11,21,4,5,0.6,0.7
2022-11-11T20:00:00,1401A,108.3103,22.7881,南宁市,二十一中,,48,48,37,29,21,104,86,95,94,19,13,8,7,0.7,0.7
2022-11-11T20:00:00,1402A,108.3141,22.8528,南宁市,北湖,颗粒物(PM10),52,53,39,29,22,95,84,91,90,17,13,7,7,0.6,0.6
2022-11-11T20:00:00,1403A,108.3206,22.8225,南宁市,市监测站,,50,44,40,35,24,96,78,90,89,35,21,10,11,0.7,0.7
2022-11-11T20:00:00,1404A,108.3829,22.8037,南宁市,大自然花园,,42,42,38,29,23,98,86,90,89,15,12,6,7,0.7,0.7
2022-11-11T20:00:00,1405A,108.4394,22.7904,南宁市,仙葫(对照点),颗粒物(PM10),52,53,42,19,24,96,87,87,87,11,11,7,7,0.7,0.7
2022-11-11T20:00:00,1406A,108.2397,22.8467,南宁市,区农职院,,50,50,37,26,21,99,88,95,94,28,25,7,7,0.6,0.6
2022-11-11T20:00:00,1407A,108.3275,22.735,南宁市,英华嘉园,颗粒物(PM10),51,51,43,32,24,93,68,80,79,30,23,8,8,0.8,0.7
2022-11-11T20:00:00,1408A,108.2257,22.7757,南宁市,沙井镇街道办,颗粒物(PM10),55,60,62,38,28,89,55,81,77,33,39,5,9,0.6,0.6
2022-11-11T20:00:00,1409A,110.576,19.9507,海口市,东寨港(对照点),,,12,17,9,10,74,50,63,63,,,8,8,0.2,0.3
2022-11-11T20:00:00,1410A,110.3232,20.0574,海口市,海南大学,,35,21,25,24,15,125,95,111,110,7,8,4,3,0.5,0.5
2022-11-11T20:00:00,1411A,110.283,20.0053,海口市,秀英海南医院,,28,27,30,13,11,112,88,100,100,7,9,4,4,0.5,0.5
2022-11-11T20:00:00,1412A,110.338,19.9969,海口市,海南师范大学,,36,36,33,9,11,120,89,106,106,7,9,2,2,0.5,0.4
2022-11-11T20:00:00,1413A,110.33,20.0356,海口市,龙华路环保局宿舍,,27,22,29,11,12,115,85,100,100,6,9,4,4,0.4,0.5
2022-11-11T20:00:00,1414A,106.3787,29.8279,重庆市,缙云山(对照点),颗粒物(PM10),60,70,55,41,29,111,85,98,98,16,15,5,5,0.6,0.6
2022-11-11T20:00:00,1416A,106.4213,29.8253,重庆市,天生,细颗粒物(PM2.5),108,120,94,81,63,114,58,86,86,26,25,10,16,0.9,0.9
2022-11-11T20:00:00,1417A,106.6263,29.7228,重庆市,两路,颗粒物(PM10),80,109,84,54,55,47,31,31,31,62,51,10,10,0.7,0.9
2022-11-11T20:00:00,1418A,106.2953,29.5983,重庆市,虎溪,细颗粒物(PM2.5),89,85,77,66,70,130,75,100,100,26,30,10,11,1.1,1.1
2022-11-11T20:00:00,1419A,106.5777,29.5102,重庆市,南坪,细颗粒物(PM2.5),83,83,100,61,68,130,62,107,106,51,47,8,16,0.9,1
2022-11-11T20:00:00,1420A,106.6556,29.6277,重庆市,唐家沱,细颗粒物(PM2.5),137,153,87,104,54,114,48,86,86,66,52,10,10,0.8,0.8
2022-11-11T20:00:00,1421A,106.6349,29.4906,重庆市,茶园,细颗粒物(PM2.5),105,126,107,79,70,141,69,109,107,59,50,9,11,0.6,0.6
2022-11-11T20:00:00,1422A,106.3754,29.4572,重庆市,白市驿,细颗粒物(PM2.5),103,86,86,77,59,145,72,120,120,30,27,9,10,0.8,0.8
2022-11-11T20:00:00,1425A,106.6205,29.7166,重庆市,空港,细颗粒物(PM2.5),115,109,93,87,60,113,46,82,82,46,46,10,10,1.0,0.9
2022-11-11T20:00:00,1426A,106.4782,29.4875,重庆市,新山村,细颗粒物(PM2.5),94,80,102,70,69,134,70,107,107,31,48,5,9,0.7,0.8
2022-11-11T20:00:00,1427A,106.5616,29.6453,重庆市,礼嘉,细颗粒物(PM2.5),98,87,94,73,58,134,64,95,95,40,55,14,15,0.7,0.8
2022-11-11T20:00:00,1428A,106.4522,29.7091,重庆市,蔡家,细颗粒物(PM2.5),93,78,80,69,57,125,71,94,94,30,34,9,7,0.9,0.9
2022-11-11T20:00:00,1429A,106.5093,29.3917,重庆市,鱼新街,细颗粒物(PM2.5),103,125,106,77,74,128,28,99,96,87,49,9,20,1.5,1.4
2022-11-11T20:00:00,1431A,103.9728,30.7236,成都市,金泉两河,细颗粒物(PM2.5),92,92,94,68,65,96,50,79,78,27,33,3,4,0.6,0.7
2022-11-11T20:00:00,1432A,104.1419,30.6764,成都市,十里店,细颗粒物(PM2.5),80,100,90,59,63,95,44,74,74,37,44,2,3,0.7,0.7
2022-11-11T20:00:00,1433A,104.0594,30.5767,成都市,三瓦窑,细颗粒物(PM2.5),92,93,93,68,66,98,50,76,76,39,45,2,3,0.7,0.7
2022-11-11T20:00:00,1434A,104.1122,30.6306,成都市,沙河铺,细颗粒物(PM2.5),75,90,90,55,62,98,44,75,75,41,39,1,3,0.7,0.7
2022-11-11T20:00:00,1437A,104.0431,30.6556,成都市,君平街,细颗粒物(PM2.5),89,82,89,66,70,108,52,84,84,35,41,3,4,0.6,0.7
2022-11-11T20:00:00,1438A,103.6202,31.0201,成都市,灵岩寺(对照点),,45,40,54,31,42,85,79,77,77,16,16,8,5,0.7,0.7
2022-11-11T20:00:00,1439A,106.6899,26.5998,贵阳市,马鞍山,,46,46,38,27,28,96,70,90,88,18,12,5,5,0.5,0.6
2022-11-11T20:00:00,1440A,106.6971,26.5694,贵阳市,市环保站,,44,44,46,29,28,87,59,78,76,29,22,5,5,0.5,0.4
2022-11-11T20:00:00,1441A,106.6243,26.6266,贵阳市,鉴湖路,,48,48,45,27,28,97,79,91,91,15,12,6,6,0.4,0.3
2022-11-11T20:00:00,1442A,106.7487,26.6343,贵阳市,燕子冲,细颗粒物(PM2.5),52,44,48,36,36,105,67,96,93,19,21,5,5,0.5,0.5
2022-11-11T20:00:00,1443A,106.6555,26.4365,贵阳市,碧云窝,细颗粒物(PM2.5),55,56,51,39,29,100,78,93,92,16,9,5,5,0.6,0.5
2022-11-11T20:00:00,1444A,106.694,26.5161,贵阳市,中院村,颗粒物(PM10),51,51,50,31,29,84,50,77,73,40,27,10,9,0.5,0.5
2022-11-11T20:00:00,1445A,106.7109,26.6027,贵阳市,红边门,,49,48,47,34,33,96,62,87,84,32,24,5,5,0.6,0.5
2022-11-11T20:00:00,1446A,106.7164,26.5699,贵阳市,新华路,,45,41,46,31,30,96,69,88,87,19,17,6,6,0.4,0.4
2022-11-11T20:00:00,1447A,106.674,26.5424,贵阳市,太慈桥,颗粒物(PM10),52,53,50,29,25,98,75,92,91,17,11,6,6,0.4,0.4
2022-11-11T20:00:00,1450A,102.8204,24.8886,昆明市,呈贡新区,,28,28,31,15,19,110,75,94,93,19,23,6,11,0.5,0.5
2022-11-11T20:00:00,1451A,102.6251,24.9608,昆明市,西山森林公园(对照点),,26,20,23,1,16,98,82,88,86,6,11,11,10,0.6,0.8
2022-11-11T20:00:00,1452A,102.7252,25.0902,昆明市,龙泉镇,,37,37,48,17,21,93,9,80,69,72,43,5,6,0.8,0.8
2022-11-11T20:00:00,1453A,102.7266,25.0375,昆明市,东风东路,,25,25,36,8,22,93,59,81,80,25,32,7,10,0.5,0.6
2022-11-11T20:00:00,1454A,102.6742,25.0669,昆明市,金鼎山,,29,25,52,20,28,94,49,83,80,31,33,5,9,0.5,0.7
2022-11-11T20:00:00,1455A,102.6644,25.0401,昆明市,碧鸡广场,,32,32,38,15,23,94,43,82,78,44,37,10,13,0.4,0.6
2022-11-11T20:00:00,1456A,91.1319,29.6514,拉萨市,八廓街,,,10,11,,,100,93,96,96,8,8,8,8,0,0
2022-11-11T20:00:00,1457A,91.1221,29.6747,拉萨市,市环保局,,25,13,15,7,7,97,80,96,93,13,8,2,2,0.5,0.3
2022-11-11T20:00:00,1458A,91.0874,29.6475,拉萨市,区监测站,,33,10,13,3,3,110,103,109,105,4,4,8,9,0.3,0.3
2022-11-11T20:00:00,1459A,91.1774,29.6541,拉萨市,西藏大学,,30,22,18,3,4,103,96,96,96,7,8,11,10,0.1,0.1
2022-11-11T20:00:00,1460A,90.9798,29.6588,拉萨市,区辐射站,,27,9,5,7,6,99,84,99,93,13,7,8,8,0.5,0.4
2022-11-11T20:00:00,1461A,91.0834,29.6292,拉萨市,拉萨火车站,,29,11,11,5,4,105,92,103,96,10,5,11,10,0,0
2022-11-11T20:00:00,1462A,108.882,34.2749,西安市,高压开关厂,,21,21,70,9,31,60,60,39,39,16,31,5,5,0.3,0.8
2022-11-11T20:00:00,1463A,108.993,34.2629,西安市,兴庆小区,,27,27,70,8,28,53,53,32,32,18,31,4,5,1.7,1.4
2022-11-11T20:00:00,1464A,109.06,34.2572,西安市,纺织城,,30,30,96,14,33,57,57,34,34,15,33,7,7,0.4,1
2022-11-11T20:00:00,1465A,108.9356,34.2173,西安市,小寨,,19,18,61,6,23,60,60,39,39,14,31,6,7,0.4,1
2022-11-11T20:00:00,1466A,108.954,34.2713,西安市,市人民体育场,,22,22,67,12,36,57,57,34,34,11,27,5,5,0.2,0.7
2022-11-11T20:00:00,1467A,108.8922,34.2322,西安市,高新西区,,,,,,,,,,,,,,,,
2022-11-11T20:00:00,1468A,108.935,34.3474,西安市,经开区,,24,24,54,9,27,49,49,31,31,15,31,5,5,0.5,1
2022-11-11T20:00:00,1469A,108.906,34.1546,西安市,长安区,,,,47,,25,51,,33,33,,27,,5,,1
2022-11-11T20:00:00,1470A,109.2,34.6575,西安市,阎良区,,,,,,,,,,,,,,,,
2022-11-11T20:00:00,1471A,109.2186,34.3731,西安市,临潼区,,32,32,113,16,45,55,54,36,33,15,35,4,5,0.3,0.9
2022-11-11T20:00:00,1472A,108.869,34.378,西安市,草滩(对照点),,16,14,67,11,27,48,48,30,30,17,37,6,7,0.4,1
2022-11-11T20:00:00,1473A,108.985,34.1978,西安市,曲江文化产业集团,,20,17,82,12,41,62,62,38,38,15,32,4,4,0.4,1
2022-11-11T20:00:00,1474A,109.051,34.3213,西安市,广运潭,,27,27,87,12,34,54,53,33,33,11,29,5,5,0.4,1
2022-11-11T20:00:00,1476A,103.631,36.1031,兰州市,兰炼宾馆,颗粒物(PM10),53,56,73,32,32,96,65,95,76,23,16,6,9,0.4,0.4
2022-11-11T20:00:00,1477A,104.1373,35.9454,兰州市,榆中兰大校区(对照点),,,,,,,,,,,,,,,,
2022-11-11T20:00:00,1478A,103.8412,36.0726,兰州市,生物制品所,,50,50,74,28,31,95,66,93,75,22,17,10,10,0.9,0.9
2022-11-11T20:00:00,1479A,103.831,36.0464,兰州市,铁路设计院,,40,40,69,28,30,102,72,98,78,21,18,15,12,0.6,0.6
2022-11-11T20:00:00,1480A,101.748,36.6428,西宁市,市环境监测站,,,,,,,,,,,,,,,,
2022-11-11T20:00:00,1482A,101.834,36.5819,西宁市,四陆医院,,,,,,,,,,,,,,,,
2022-11-11T20:00:00,1483A,101.524,36.6867,西宁市,第五水厂(对照点),,,,,,,,,,,,,,,,
2022-11-11T20:00:00,1484A,105.9512,38.6016,银川市,贺兰山马莲口(对照点),,24,18,62,10,47,97,75,76,67,15,26,8,11,0.4,0.8
2022-11-11T20:00:00,1488A,106.2328,38.4975,银川市,贺兰山东路,细颗粒物(PM2.5),57,26,86,40,56,57,33,50,41,36,37,6,8,0.4,0.6
2022-11-11T20:00:00,1489A,106.1358,38.5036,银川市,学院路,,40,24,96,28,49,42,33,39,38,32,37,10,10,0.6,0.8
2022-11-11T20:00:00,1490A,87.5801,43.8303,乌鲁木齐市,监测站,,30,30,16,20,11,56,34,49,46,37,35,6,6,1.2,1.1
2022-11-11T20:00:00,1491A,87.6046,43.768,乌鲁木齐市,收费所,,43,32,15,30,12,66,46,58,58,46,32,12,8,0.6,0.4
2022-11-11T20:00:00,1492A,87.4754,43.9469,乌鲁木齐市,新疆农科院农场(对照点),,20,15,11,14,19,50,33,39,38,16,34,8,8,1.0,1.1
2022-11-11T20:00:00,1493A,87.5525,43.8711,乌鲁木齐市,铁路局,,32,28,19,22,14,55,32,45,44,27,24,5,5,1.0,1.1
2022-11-11T20:00:00,1494A,87.6432,43.831,乌鲁木齐市,三十一中学,,,43,26,,,69,32,57,54,39,28,10,10,0.5,0.3
2022-11-11T20:00:00,1496A,87.7216,44.1747,乌鲁木齐市,米东区环保局,,15,12,36,9,17,58,45,50,50,15,28,8,8,0.3,0.5
2022-11-11T20:00:00,1508A,112.9433,27.8614,湘潭市,板塘,颗粒物(PM10),55,60,46,28,25,107,50,96,86,40,24,4,6,0.5,0.4
2022-11-11T20:00:00,1511A,112.9118,27.8403,湘潭市,市监测站,颗粒物(PM10),57,64,50,28,25,94,36,83,74,49,22,10,17,1.2,0.8
2022-11-11T20:00:00,1512A,112.8937,27.8728,湘潭市,江麓,,41,41,43,21,26,103,60,92,88,36,31,10,13,0.5,0.5
2022-11-11T20:00:00,1513A,112.9227,27.8159,湘潭市,岳塘,细颗粒物(PM2.5),57,61,49,40,27,111,52,100,93,41,25,13,12,1.0,0.5
2022-11-11T20:00:00,1514A,112.9074,27.9119,湘潭市,科大,,23,15,29,14,23,113,73,99,96,24,28,6,12,0.6,0.5
2022-11-11T20:00:00,1515A,113.135,27.8244,株洲市,天台山庄,,30,18,26,21,21,104,58,97,91,20,9,5,9,0.4,0.4
2022-11-11T20:00:00,1518A,113.095,27.8867,株洲市,株冶医院,,32,13,31,22,24,112,52,99,92,33,29,5,12,0.3,0.3
2022-11-11T20:00:00,1519A,113.167,27.8667,株洲市,市四中,,29,22,26,20,25,112,73,103,95,19,19,2,8,0.4,0.4
2022-11-11T20:00:00,1520A,113.143,27.8381,株洲市,火车站,细颗粒物(PM2.5),63,46,33,45,25,99,53,94,87,27,15,8,12,0.8,0.7
2022-11-11T20:00:00,1524A,113.13,27.8528,株洲市,市监测站,,27,19,33,17,26,110,84,99,96,13,17,4,10,0.4,0.5
2022-11-11T20:00:00,1552A,106.805,26.3003,贵阳市,桐木岭(对照点),,,,,,,,,,,,,,,,
2022-11-11T20:00:00,1559A,113.251,27.8336,株洲市,大京风景区(对照点),,,,31,20,19,103,42,91,75,3,4,6,8,0.6,0.5
2022-11-11T20:00:00,1562A,113.0048,27.9153,湘潭市,昭山,,39,39,50,18,26,109,53,95,89,35,36,4,8,0.3,0.4
2022-11-11T20:00:00,1564A,112.4876,27.9164,湘潭市,韶山(对照点),,36,36,41,11,23,103,38,92,80,23,20,5,8,0.6,0.7
2022-11-11T20:00:00,1585A,109.8756,40.6532,包头市,市环境监测站,,16,8,66,11,51,48,45,45,45,13,39,8,12,0.3,0.9
2022-11-11T20:00:00,1587A,109.9991,40.5842,包头市,包头八中,,15,15,81,3,60,48,45,44,44,11,29,9,15,0.4,0.8
2022-11-11T20:00:00,1588A,109.8538,40.6821,包头市,青山宾馆,,15,3,72,4,62,49,45,46,46,12,35,12,15,0.4,0.8
2022-11-11T20:00:00,1589A,109.8642,40.6288,包头市,惠龙物流,,15,10,80,7,54,49,45,45,45,14,41,8,11,0.5,1
2022-11-11T20:00:00,1590A,110.0377,40.5546,包头市,东河鸿龙湾,,13,13,69,9,49,41,41,38,38,8,24,9,11,0.4,0.9
2022-11-11T20:00:00,1591A,110.0023,39.8129,鄂尔多斯市,综合楼,,15,10,37,10,29,57,41,44,44,16,29,6,9,0.6,0.8
2022-11-11T20:00:00,1592A,109.9486,39.8261,鄂尔多斯市,巴音孟克林场办事处,,15,7,43,9,36,61,48,52,52,16,31,6,8,0.8,1.1
2022-11-11T20:00:00,1593A,109.7736,39.5986,鄂尔多斯市,康泽苑,,,,43,5,32,64,37,55,54,10,16,4,4,0.4,0.6
2022-11-11T20:00:00,1594A,109.8119,39.5989,鄂尔多斯市,华泰汽车城,,19,19,39,9,36,60,51,56,56,9,24,3,4,0.2,0.4
2022-11-11T20:00:00,1595A,109.9734,39.7884,鄂尔多斯市,奥林花园,,16,9,47,7,33,64,49,52,52,14,30,5,6,0.6,1
2022-11-11T20:00:00,1596A,122.2414,40.6592,营口市,学府南路,,,,,,,,,,,,,,,,
2022-11-11T20:00:00,1597A,122.2703,40.7094,营口市,大庆路,,,,,,,,,,,,,,,,
2022-11-11T20:00:00,1598A,122.215,40.6511,营口市,镜湖西路,细颗粒物(PM2.5),59,63,63,42,43,89,76,84,79,18,26,6,6,1.0,1
2022-11-11T20:00:00,1599A,122.167,40.6655,营口市,西炮台,细颗粒物(PM2.5),79,70,68,58,56,101,76,94,89,31,35,6,8,0.7,0.9
2022-11-11T20:00:00,1600A,124.3303,40.0625,丹东市,江湾东路,细颗粒物(PM2.5),84,80,56,62,46,86,10,74,53,66,29,16,13,1.6,1.6
2022-11-11T20:00:00,1601A,124.4256,40.1503,丹东市,临江后街,细颗粒物(PM2.5),64,71,49,46,35,85,56,78,78,30,19,12,11,1.3,1.3
2022-11-11T20:00:00,1602A,124.3933,40.1461,丹东市,元宝山,细颗粒物(PM2.5),57,53,55,40,45,88,77,80,80,18,23,12,13,0.8,1
2022-11-11T20:00:00,1603A,124.3633,40.1092,丹东市,民主桥,细颗粒物(PM2.5),64,71,52,46,35,85,33,80,74,55,26,10,12,1.4,1.3
2022-11-11T20:00:00,1604A,122.0303,41.1489,盘锦市,开发区,细颗粒物(PM2.5),90,45,66,67,84,72,55,54,53,33,44,8,11,1.0,1
2022-11-11T20:00:00,1605A,122.0485,41.0883,盘锦市,兴隆台,细颗粒物(PM2.5),97,93,99,72,89,64,46,51,48,29,42,9,15,1.1,1.1
2022-11-11T20:00:00,1606A,121.8297,41.1028,盘锦市,新生街道,细颗粒物(PM2.5),69,38,89,50,87,93,79,87,84,9,20,7,8,0.6,0.8
2022-11-11T20:00:00,1607A,120.9092,40.7136,葫芦岛市,龙港区,细颗粒物(PM2.5),67,19,75,48,85,91,75,84,81,15,27,10,12,0.5,0.8
2022-11-11T20:00:00,1608A,120.8392,40.7514,葫芦岛市,化工街,,45,31,103,31,78,89,89,79,79,8,33,5,8,0.3,0.7
2022-11-11T20:00:00,1609A,120.8341,40.7073,葫芦岛市,新区,细颗粒物(PM2.5),52,27,92,36,84,90,88,85,85,5,29,7,10,0.3,0.8
2022-11-11T20:00:00,1610A,120.8695,40.7677,葫芦岛市,东城区,,49,12,78,34,70,79,74,73,73,19,40,8,11,0.8,1.2
2022-11-11T20:00:00,1611A,118.5819,24.9117,泉州市,涂山街,,27,27,29,11,12,114,45,89,84,20,16,7,8,0.6,0.6
2022-11-11T20:00:00,1612A,118.5972,24.8978,泉州市,津头埔,,26,26,29,12,13,106,44,88,80,20,20,6,8,0.5,0.5
2022-11-11T20:00:00,1613A,118.6663,24.9424,泉州市,万安,,28,28,24,12,10,116,50,92,86,16,15,7,8,0.5,0.5
2022-11-11T20:00:00,1614A,118.6117,24.9604,泉州市,清源山(对照点),,,,,,,,,,,,,,,,
2022-11-11T20:00:00,1616A,117.6795,36.229,济南市,技术学院,颗粒物(PM10),54,58,92,23,39,107,66,94,85,30,54,5,7,0.8,1.1
2022-11-11T20:00:00,1618A,118.3429,35.0532,临沂市,沂河小区,,48,48,50,30,26,100,69,90,86,19,26,6,6,0.3,0.3
2022-11-11T20:00:00,1619A,118.295,35.0583,临沂市,鲁南制药厂,,41,41,42,18,19,101,77,90,88,20,23,6,7,0.6,0.5
2022-11-11T20:00:00,1620A,118.2794,34.9976,临沂市,新光毛纺厂,,41,41,43,18,21,98,74,90,86,23,24,2,3,0.6,0.6
2022-11-11T20:00:00,1621A,118.3956,35.0888,临沂市,河东保险公司,,41,41,50,26,25,97,76,89,87,20,25,4,5,0.3,0.4
2022-11-11T20:00:00,1622A,116.3032,37.4674,德州市,儿童乐园,细颗粒物(PM2.5),249,306,288,199,184,81,6,53,46,86,55,11,13,1.6,1.5
2022-11-11T20:00:00,1624A,116.2991,37.4451,德州市,监理站,细颗粒物(PM2.5),175,265,247,132,114,85,11,62,55,79,50,13,17,,1.4
2022-11-11T20:00:00,1625A,115.9848,36.4372,聊城市,区政府,细颗粒物(PM2.5),85,86,210,63,164,87,44,63,63,38,49,7,12,0.7,1.2
2022-11-11T20:00:00,1628A,118.0062,37.3803,滨州市,市环保局,颗粒物(PM10),64,78,119,35,80,125,43,90,88,31,32,10,17,0.8,1
2022-11-11T20:00:00,1629A,118.0018,37.3617,滨州市,第二水厂,颗粒物(PM10),56,61,89,39,67,126,41,99,95,48,41,10,17,0.7,0.9
2022-11-11T20:00:00,1630A,117.9776,37.393,滨州市,北中新校,细颗粒物(PM2.5),54,55,71,38,72,129,51,89,83,39,50,11,16,0.5,0.9
2022-11-11T20:00:00,1631A,118.0414,36.8103,淄博市,人民公园,细颗粒物(PM2.5),74,83,124,54,94,116,58,96,89,44,54,6,11,0.9,1
2022-11-11T20:00:00,1632A,118.0253,36.8406,淄博市,东风化工厂,,,,,,,,,,,,,,,,
2022-11-11T20:00:00,1633A,117.8525,36.4847,淄博市,双山,颗粒物(PM10),53,56,69,32,44,111,85,102,99,15,24,4,6,0.4,0.6
2022-11-11T20:00:00,1634A,117.9592,36.6331,淄博市,气象站,颗粒物(PM10),52,53,105,29,62,116,78,102,100,24,47,6,13,0.5,0.7
2022-11-11T20:00:00,1635A,118.3092,36.8194,淄博市,莆田园,细颗粒物(PM2.5),52,46,99,36,56,111,84,100,100,24,50,2,7,0.6,1.6
2022-11-11T20:00:00,1636A,117.8661,36.805,淄博市,三金集团,,,,,,,,,,,,,,,,
2022-11-11T20:00:00,1637A,117.558,34.8438,枣庄市,市中区政府,颗粒物(PM10),58,66,66,36,39,103,61,95,85,32,26,9,8,0.4,0.5
2022-11-11T20:00:00,1638A,117.2852,34.7837,枣庄市,薛城环保局,细颗粒物(PM2.5),70,81,66,51,44,99,67,90,86,28,24,8,7,0.7,0.7
2022-11-11T20:00:00,1639A,117.5852,34.7745,枣庄市,峄城区政府,颗粒物(PM10),60,70,57,36,38,99,67,92,87,22,17,9,10,0.3,0.3
2022-11-11T20:00:00,1640A,117.7276,34.5578,枣庄市,台儿庄区环保局,细颗粒物(PM2.5),58,53,59,41,39,92,68,79,75,21,21,10,10,0.9,0.9
2022-11-11T20:00:00,1641A,117.4518,35.0992,枣庄市,山亭区环保局,,39,39,47,22,32,115,87,108,104,33,27,9,8,0.9,0.9
2022-11-11T20:00:00,1642A,121.2514,37.5639,烟台市,开发区,细颗粒物(PM2.5),64,61,36,46,31,97,96,96,96,30,25,11,9,0.8,0.7
2022-11-11T20:00:00,1643A,121.3719,37.5433,烟台市,轴承厂,细颗粒物(PM2.5),77,48,38,56,30,137,137,122,122,11,8,8,10,0.4,0.3
2022-11-11T20:00:00,1644A,121.3181,37.5436,烟台市,西郊化工站,细颗粒物(PM2.5),67,70,43,48,28,125,125,117,117,18,11,8,9,1.0,0.8
2022-11-11T20:00:00,1645A,121.4478,37.4822,烟台市,莱山环保局,,,75,50,57,34,131,130,118,118,,11,8,12,0.8,0.6
2022-11-11T20:00:00,1646A,121.2611,37.4967,烟台市,福山环保局,,,66,47,44,27,82,,77,,23,23,6,5,0.5,0.4
2022-11-11T20:00:00,1648A,119.12,36.7019,潍坊市,仲裁委,,,,,,,,,,,,,,,,
2022-11-11T20:00:00,1650A,119.1437,36.7023,潍坊市,环保局,,36,36,62,20,37,98,75,89,88,16,27,4,4,0.4,0.5
2022-11-11T20:00:00,1652A,119.1936,36.7729,潍坊市,寒亭监测站,,,,,,,,,,,,,,,,
2022-11-11T20:00:00,1653A,116.6251,35.4302,济宁市,火炬城,,,70,56,,52,104,,91,91,16,36,8,7,,0.5
2022-11-11T20:00:00,1655A,116.5491,35.4042,济宁市,电化厂,颗粒物(PM10),52,53,68,31,50,102,72,86,86,19,28,8,9,0.5,0.7
2022-11-11T20:00:00,1656A,117.1437,36.1937,泰安市,监测站,颗粒物(PM10),68,85,85,44,43,95,55,86,79,29,19,9,9,0.5,0.6
2022-11-11T20:00:00,1657A,117.0885,36.2017,泰安市,人口学校,颗粒物(PM10),57,63,71,30,32,89,67,84,81,25,20,10,9,0.3,0.4
2022-11-11T20:00:00,1658A,117.1089,36.1758,泰安市,电力学校,颗粒物(PM10),68,85,84,47,55,102,54,90,83,38,33,5,8,0.1,0.3
2022-11-11T20:00:00,1659A,119.471,35.4209,日照市,监测站,,27,24,28,16,17,96,86,90,90,20,24,6,6,0.5,0.6
2022-11-11T20:00:00,1660A,119.523,35.4216,日照市,市政府广场,,30,27,26,12,14,105,94,100,99,7,7,4,4,0.4,0.4
2022-11-11T20:00:00,1661A,119.5587,35.4044,日照市,港务局,,33,27,25,12,13,111,103,106,106,2,3,4,4,0.5,0.5
2022-11-11T20:00:00,1662A,122.1214,37.4236,威海市,华夏技校,细颗粒物(PM2.5),74,61,44,54,34,119,109,115,110,34,25,6,5,0.4,0.4
2022-11-11T20:00:00,1663A,122.0508,37.5236,威海市,山大分校,"颗粒物(PM10),细颗粒物(PM2.5)",64,78,48,46,26,120,91,111,107,42,25,3,3,0.7,0.4
2022-11-11T20:00:00,1664A,122.1067,37.5072,威海市,市监测站,颗粒物(PM10),64,78,51,44,35,119,93,106,103,37,25,6,5,0.9,0.7
2022-11-11T20:00:00,1665A,118.5019,37.4658,东营市,西城阳光环保公司,,,,,,,,,,,,,,,,
2022-11-11T20:00:00,1666A,118.6614,37.4309,东营市,市环保局,,31,31,58,12,46,102,72,81,81,20,22,14,12,0.7,0.8
2022-11-11T20:00:00,1669A,113.5824,24.7733,韶关市,市八中,颗粒物(PM10),54,57,44,34,26,136,75,122,115,38,28,16,16,0.7,0.6
2022-11-11T20:00:00,1670A,113.5556,24.8082,韶关市,碧湖山庄,,,,,,,,,,,,,,,,
2022-11-11T20:00:00,1671A,113.5917,24.7972,韶关市,园林处,,31,31,46,13,26,140,54,124,116,51,28,10,10,1.0,1.1
2022-11-11T20:00:00,1672A,113.6735,24.7791,韶关市,韶关学院,细颗粒物(PM2.5),69,57,40,50,29,141,86,121,120,21,25,12,14,0.7,1
2022-11-11T20:00:00,1673A,113.5971,24.6863,韶关市,曲江监测站,颗粒物(PM10),51,52,44,31,21,140,81,115,114,25,24,9,10,0.7,0.7
2022-11-11T20:00:00,1674A,116.6794,23.3667,汕头市,金平子站,,21,9,29,10,16,113,67,98,94,23,20,9,13,0.5,0.5
2022-11-11T20:00:00,1675A,116.7244,23.3633,汕头市,龙湖子站,,27,27,34,8,14,108,66,101,97,21,16,9,11,0.6,0.6
2022-11-11T20:00:00,1676A,116.7258,23.2775,汕头市,濠江子站,,20,13,22,11,17,107,64,94,90,15,16,8,9,0.7,0.8
2022-11-11T20:00:00,1677A,116.7519,23.4714,汕头市,澄海子站,,,,,,,,,,,,,,,,
2022-11-11T20:00:00,1678A,116.6092,23.2539,汕头市,潮阳子站,,20,18,26,8,15,100,63,88,85,14,14,7,8,0.6,0.7
2022-11-11T20:00:00,1679A,116.4069,23.2533,汕头市,潮南子站,,,,,,,,,,,,,,,,
2022-11-11T20:00:00,1680A,110.3539,21.2706,湛江市,湛江影剧院,颗粒物(PM10),57,64,32,20,20,127,84,113,106,24,11,6,6,0.5,0.5
2022-11-11T20:00:00,1681A,110.3928,21.2228,湛江市,市环境监测站,,30,26,27,10,20,126,93,117,111,13,9,6,6,0.5,0.5
2022-11-11T20:00:00,1682A,110.4019,21.1997,湛江市,环保局宿舍,,30,24,30,19,23,137,95,122,114,12,8,6,6,0.5,0.5
2022-11-11T20:00:00,1683A,110.4111,21.2028,湛江市,霞山游泳场,,33,21,32,15,20,134,104,121,116,6,7,6,7,0.4,0.4
2022-11-11T20:00:00,1684A,110.3316,21.2679,湛江市,麻章区环保局,,32,32,33,13,21,124,93,108,102,13,11,6,6,0.6,0.6
2022-11-11T20:00:00,1685A,110.4558,21.2567,湛江市,坡头区环保局,,29,27,35,20,21,129,91,120,112,12,8,6,6,0.4,0.4
2022-11-11T20:00:00,1686A,111.0286,21.4688,茂名市,电白南海,,29,29,48,9,24,137,82,112,107,10,15,6,13,0.3,0.4
2022-11-11T20:00:00,1687A,110.9294,21.6533,茂名市,茂石化七小,,,36,40,19,29,118,66,109,101,,11,13,14,0.5,0.5
2022-11-11T20:00:00,1688A,110.9107,21.6687,茂名市,健康路,,31,31,37,13,20,121,73,112,105,12,9,11,13,0.6,0.7
2022-11-11T20:00:00,1689A,110.8592,21.6828,茂名市,高岭,细颗粒物(PM2.5),55,48,37,39,30,123,62,115,104,21,14,9,12,0.0,0.1
2022-11-11T20:00:00,1690A,116.1231,24.3284,梅州市,梅江月梅,颗粒物(PM10),51,52,43,30,26,136,65,118,114,20,26,3,4,0.5,0.5
2022-11-11T20:00:00,1691A,116.0797,24.2719,梅州市,梅县新城,细颗粒物(PM2.5),85,65,45,63,29,123,19,110,84,60,33,9,7,0.8,0.5
2022-11-11T20:00:00,1692A,116.1248,24.2654,梅州市,环境监控中心,,31,31,42,17,23,121,52,106,97,40,31,7,7,0.4,0.4
2022-11-11T20:00:00,1693A,115.3653,22.775,汕尾市,市环保局,,21,14,24,5,13,98,65,83,81,7,9,6,7,0.5,0.5
2022-11-11T20:00:00,1694A,115.3706,22.7898,汕尾市,市政府,,22,7,23,3,19,101,68,84,82,8,10,8,8,0.4,0.5
2022-11-11T20:00:00,1695A,115.3622,22.7925,汕尾市,新城中学,,21,9,30,10,17,102,66,84,82,7,8,8,8,0.5,0.6
2022-11-11T20:00:00,1696A,114.6778,23.7569,河源市,源西(对照点),颗粒物(PM10),61,71,47,37,23,100,6,81,65,66,28,4,4,0.8,0.7
2022-11-11T20:00:00,1697A,114.6944,23.7586,河源市,东埔,细颗粒物(PM2.5),64,61,53,46,26,115,18,92,80,58,28,4,4,1.5,0.9
2022-11-11T20:00:00,1698A,114.6892,23.7233,河源市,老城,颗粒物(PM10),53,55,53,19,26,107,51,87,80,15,22,3,4,0.7,0.8
2022-11-11T20:00:00,1699A,111.9797,21.8593,阳江市,鸳鸯湖(对照点),,25,21,41,16,33,105,79,102,96,11,16,7,8,0.7,0.7
2022-11-11T20:00:00,1700A,111.9508,21.8536,阳江市,南恩路,,,,,,,,,,,,,,,,
2022-11-11T20:00:00,1701A,111.9491,21.8658,阳江市,马南垌,,38,38,43,18,38,105,65,100,92,21,20,7,8,0.8,0.7
2022-11-11T20:00:00,1702A,113.0426,23.691,清远市,环保大楼(对照点),细颗粒物(PM2.5),92,74,69,68,54,275,176,230,228,25,19,5,6,0.9,0.7
2022-11-11T20:00:00,1703A,113.0208,23.7106,清远市,凤城街办,细颗粒物(PM2.5),92,82,65,68,58,161,93,146,141,27,20,10,9,1.2,0.9
2022-11-11T20:00:00,1705A,116.6367,23.6719,潮州市,西园路(对照点),颗粒物(PM10),56,61,43,26,29,129,79,114,110,23,12,14,13,0.9,0.7
2022-11-11T20:00:00,1706A,116.6447,23.6706,潮州市,档案局,颗粒物(PM10),51,52,41,34,27,126,74,113,108,28,13,18,14,0.9,0.7
2022-11-11T20:00:00,1708A,116.3701,23.5345,揭阳市,新兴,颗粒物(PM10),54,57,45,30,28,150,56,116,107,30,18,11,12,0.7,0.6
2022-11-11T20:00:00,1709A,116.3264,23.5443,揭阳市,西马,,46,46,50,22,27,148,69,122,112,15,15,9,9,0.7,0.8
2022-11-11T20:00:00,1710A,116.3611,23.5626,揭阳市,东兴,颗粒物(PM10),54,58,52,24,27,141,68,113,106,17,16,10,10,0.7,0.7
2022-11-11T20:00:00,1711A,116.4151,23.5294,揭阳市,渔湖,,46,42,40,32,23,136,63,109,103,19,15,10,10,0.6,0.7
2022-11-11T20:00:00,1712A,112.0392,22.9169,云浮市,新市府(对照点),,32,30,31,22,21,130,64,110,107,8,10,4,6,0.6,0.6
2022-11-11T20:00:00,1713A,112.0369,22.9394,云浮市,市监测站,,,,,,,,,,,,,,,,
2022-11-11T20:00:00,1714A,112.0539,22.9539,云浮市,牧羊,,33,31,56,23,24,131,66,115,111,32,23,20,18,0.5,0.7
2022-11-11T20:00:00,1715A,102.575,24.3711,玉溪市,东风水库,,45,45,26,16,17,96,62,84,83,20,15,7,5,0.5,0.7
2022-11-11T20:00:00,1718A,115.4208,35.2464,菏泽市,气象局,细颗粒物(PM2.5),78,83,192,57,150,71,62,60,60,20,35,4,4,0.4,0.9
2022-11-11T20:00:00,1719A,115.4747,35.2375,菏泽市,市政协,细颗粒物(PM2.5),77,78,172,56,138,75,62,65,65,24,37,4,5,0.3,0.7
2022-11-11T20:00:00,1720A,115.455,35.27,菏泽市,菏泽学院,,,,,,,,,,,,,,,,
2022-11-11T20:00:00,1721A,113.3819,40.1097,大同市,果树场(对照点),,,,,,,,,,,,,,,,
2022-11-11T20:00:00,1723A,113.2994,40.0758,大同市,云冈宾馆,,22,6,51,15,42,56,42,43,39,16,40,7,9,0.8,1.2
2022-11-11T20:00:00,1724A,113.3444,40.0917,大同市,大同大学,,,,,6,35,64,43,54,50,17,26,8,8,0.8,1.1
2022-11-11T20:00:00,1725A,113.2661,40.1269,大同市,安家小村,,,,,,,,,,,,,,,,
2022-11-11T20:00:00,1726A,113.2711,40.0844,大同市,教育学院,,,13,62,,,56,46,46,40,10,33,6,9,0.5,0.8
2022-11-11T20:00:00,1727A,113.1147,36.1547,长治市,清华站,细颗粒物(PM2.5),73,57,76,53,81,126,73,100,100,27,23,8,8,0.8,1.6
2022-11-11T20:00:00,1728A,113.1031,36.1989,长治市,监测站,细颗粒物(PM2.5),70,46,77,51,83,114,74,92,92,28,30,7,8,0.7,1.6
2022-11-11T20:00:00,1730A,113.0886,36.2125,长治市,审计局,细颗粒物(PM2.5),77,46,79,56,88,116,72,94,94,27,21,3,3,0.7,1.4
2022-11-11T20:00:00,1731A,113.0844,36.1856,长治市,长治八中,细颗粒物(PM2.5),62,72,95,44,72,122,79,98,98,22,22,10,10,0.9,1.8
2022-11-11T20:00:00,1733A,111.5531,36.0783,临汾市,临钢医院,,,,91,,97,73,,38,12,30,40,3,3,1.1,1.3
2022-11-11T20:00:00,1734A,111.5028,36.0714,临汾市,技工学校,,32,14,94,22,91,84,29,51,11,20,37,4,5,0.7,1
2022-11-11T20:00:00,1735A,111.5169,36.0822,临汾市,工商学校,,,,,,,,,,,,,,,,
2022-11-11T20:00:00,1736A,111.5018,36.0855,临汾市,市委,,22,12,93,15,70,88,29,62,14,20,36,4,3,0.6,0.8
2022-11-11T20:00:00,1738A,113.5758,37.8572,阳泉市,市中心,细颗粒物(PM2.5),109,95,124,82,97,93,37,90,50,39,34,10,10,1.5,1.2
2022-11-11T20:00:00,1739A,113.4894,37.8731,阳泉市,赛鱼,细颗粒物(PM2.5),99,91,129,74,92,88,42,72,49,25,30,6,7,1.5,1.3
2022-11-11T20:00:00,1740A,113.5819,37.8486,阳泉市,南庄,细颗粒物(PM2.5),114,119,143,86,95,91,40,88,51,32,31,8,9,1.5,1.4
2022-11-11T20:00:00,1741A,113.6292,37.8531,阳泉市,白羊墅,,,,,,,,,,,,,,,,
2022-11-11T20:00:00,1742A,113.5614,37.8703,阳泉市,平坦,细颗粒物(PM2.5),103,107,135,77,105,92,53,84,64,27,30,10,9,1.7,1.3
2022-11-11T20:00:00,1743A,113.5158,37.8392,阳泉市,大阳泉,,40,34,101,28,73,97,51,88,52,26,30,6,12,1.3,1.2
2022-11-11T20:00:00,1744A,118.9233,42.2816,赤峰市,松山一中,细颗粒物(PM2.5),79,84,79,58,40,98,28,89,72,58,44,12,22,1.4,1.2
2022-11-11T20:00:00,1745A,118.9576,42.2728,赤峰市,哈达街,颗粒物(PM10),58,66,82,29,37,105,56,101,88,35,37,14,41,1.2,1.1
2022-11-11T20:00:00,1746A,118.8788,42.2554,赤峰市,天义路,,50,50,70,28,34,104,24,98,80,63,40,14,32,1.3,1.1
2022-11-11T20:00:00,1748A,123.044,41.1196,鞍山市,深沟寺,细颗粒物(PM2.5),67,58,42,48,34,104,79,98,90,12,11,6,6,0.8,0.8
2022-11-11T20:00:00,1749A,123.011,41.0931,鞍山市,太阳城,,,42,40,30,30,101,,94,88,13,12,7,7,0.8,0.8
2022-11-11T20:00:00,1750A,123.0485,41.1442,鞍山市,太平,细颗粒物(PM2.5),72,68,50,52,39,94,69,88,76,23,18,9,9,0.5,0.5
2022-11-11T20:00:00,1751A,122.9642,41.0971,鞍山市,铁西三道街,"颗粒物(PM10),细颗粒物(PM2.5)",53,55,57,37,38,82,65,73,58,39,42,30,20,0.7,0.9
2022-11-11T20:00:00,1752A,122.9341,41.0833,鞍山市,铁西工业园区,,46,45,65,32,49,91,80,85,77,15,30,8,9,0.6,0.9
2022-11-11T20:00:00,1753A,123.022,41.0821,鞍山市,明达新区,,43,37,36,30,30,96,89,91,86,9,11,8,8,0.6,0.7
2022-11-11T20:00:00,1754A,123.1289,41.0228,鞍山市,千山(对照点),,,,,,,,,,,,,,,,
2022-11-11T20:00:00,1755A,123.7977,41.8491,抚顺市,望花区,细颗粒物(PM2.5),63,44,122,45,87,85,64,76,69,21,42,16,15,0.7,1.2
2022-11-11T20:00:00,1756A,123.9161,41.8822,抚顺市,顺城区,细颗粒物(PM2.5),70,52,110,51,81,86,38,74,65,50,45,8,11,0.9,1.2
2022-11-11T20:00:00,1757A,124.0436,41.8611,抚顺市,东洲区,细颗粒物(PM2.5),52,48,96,36,69,99,73,90,84,14,28,13,9,0.9,1.3
2022-11-11T20:00:00,1758A,123.9247,41.8642,抚顺市,新抚区,细颗粒物(PM2.5),55,45,128,39,82,80,18,68,58,52,41,9,10,0.8,1.2
2022-11-11T20:00:00,1759A,124.0972,41.8961,抚顺市,大伙房水库,细颗粒物(PM2.5),57,41,76,40,58,99,74,92,87,11,20,6,6,0.7,1
2022-11-11T20:00:00,1760A,123.7086,41.8391,抚顺市,沈抚新城,细颗粒物(PM2.5),74,60,112,54,76,88,43,75,62,30,38,12,13,1.1,1.5
2022-11-11T20:00:00,1761A,123.8275,41.3064,本溪市,大峪,,32,27,27,22,19,95,74,88,82,11,16,7,7,0.5,0.6
2022-11-11T20:00:00,1762A,123.7567,41.3325,本溪市,溪湖,细颗粒物(PM2.5),54,50,51,38,31,96,75,88,80,25,33,10,14,0.6,0.7
2022-11-11T20:00:00,1763A,123.7169,41.3094,本溪市,彩屯,细颗粒物(PM2.5),98,103,81,73,57,74,33,62,42,64,58,36,32,3.3,3
2022-11-11T20:00:00,1764A,123.7669,41.2864,本溪市,东明,,42,34,34,29,23,99,90,94,87,20,24,11,11,0.7,0.7
2022-11-11T20:00:00,1765A,123.7992,41.2664,本溪市,新立屯,,40,32,27,28,23,100,93,97,91,13,15,7,7,0.4,0.4
2022-11-11T20:00:00,1766A,123.8142,41.3472,本溪市,威宁,,35,35,43,24,28,92,55,82,74,26,29,5,6,0.5,0.8
2022-11-11T20:00:00,1767A,121.1115,41.0879,锦州市,南山,细颗粒物(PM2.5),68,30,62,49,91,72,68,58,57,16,32,7,8,0.8,1.2
2022-11-11T20:00:00,1768A,121.0533,40.8434,锦州市,开发区,细颗粒物(PM2.5),79,30,72,58,91,74,74,64,61,21,41,7,9,0.6,1.1
2022-11-11T20:00:00,1769A,121.1836,41.1119,锦州市,百股街道,细颗粒物(PM2.5),70,43,89,51,91,89,77,79,74,10,21,7,10,1.2,1.4
2022-11-11T20:00:00,1770A,121.1178,41.1222,锦州市,天安街道,细颗粒物(PM2.5),68,26,73,49,109,70,67,58,57,22,39,6,7,1.0,1.4
2022-11-11T20:00:00,1771A,121.1303,41.1386,锦州市,北湖公园,细颗粒物(PM2.5),63,30,68,45,92,77,71,64,63,18,31,5,6,0.8,1.1
2022-11-11T20:00:00,1772A,126.54,43.8622,吉林市,哈达湾,细颗粒物(PM2.5),54,51,96,38,65,90,86,84,84,14,36,8,12,0.7,1
2022-11-11T20:00:00,1773A,126.5844,43.8358,吉林市,东局子,细颗粒物(PM2.5),58,61,98,41,67,85,52,72,68,40,37,5,7,0.8,0.9
2022-11-11T20:00:00,1774A,126.5052,43.8245,吉林市,电力学院,细颗粒物(PM2.5),63,64,122,45,77,80,75,75,75,18,38,6,11,0.7,1.2
2022-11-11T20:00:00,1775A,126.6133,43.8972,吉林市,江北,细颗粒物(PM2.5),63,67,80,45,56,82,44,75,64,41,31,6,8,0.9,1
2022-11-11T20:00:00,1776A,126.555,43.8306,吉林市,江南公园,细颗粒物(PM2.5),59,57,100,42,69,86,70,77,77,20,37,6,9,0.8,1
2022-11-11T20:00:00,1778A,126.7061,43.7133,吉林市,丰满(对照点),,,,,,,,,,,,,,,,
2022-11-11T20:00:00,1779A,123.9305,47.3636,齐齐哈尔市,安居小区,细颗粒物(PM2.5),97,79,176,72,124,60,45,50,46,7,30,5,9,0.4,0.9
2022-11-11T20:00:00,1780A,123.9488,47.3386,齐齐哈尔市,中心广场,颗粒物(PM10),68,86,200,21,133,57,48,46,46,12,36,3,7,0.4,0.8
2022-11-11T20:00:00,1781A,123.9483,47.3227,齐齐哈尔市,农牧车辆厂,,,53,167,58,112,58,46,45,45,13,34,6,10,,0.9
2022-11-11T20:00:00,1783A,123.945,47.2988,齐齐哈尔市,市环境监测站,细颗粒物(PM2.5),99,49,171,74,137,64,51,48,48,12,34,3,7,0.2,0.6
2022-11-11T20:00:00,1784A,129.61,44.561,牡丹江市,环保大楼,细颗粒物(PM2.5),102,98,96,76,68,46,13,28,20,55,43,5,8,1.0,0.8
2022-11-11T20:00:00,1785A,129.6115,44.5782,牡丹江市,文化广场,细颗粒物(PM2.5),93,72,122,69,81,26,10,17,9,55,47,6,10,1.1,1.1
2022-11-11T20:00:00,1786A,129.5904,44.5963,牡丹江市,第一医院,细颗粒物(PM2.5),64,53,116,46,85,33,33,18,15,24,43,9,16,1.1,1.2
2022-11-11T20:00:00,1787A,129.6364,44.6075,牡丹江市,机车工厂,颗粒物(PM10),74,97,126,42,78,27,5,18,7,58,48,2,5,1.1,1
2022-11-11T20:00:00,1788A,129.6386,44.5462,牡丹江市,第一中学,细颗粒物(PM2.5),105,108,81,79,53,50,6,29,17,61,39,4,5,1.1,0.7
2022-11-11T20:00:00,1789A,124.81117,46.03138,大庆市,大同区,细颗粒物(PM2.5),155,146,258,118,215,104,50,104,52,29,49,5,12,0.7,1.1
2022-11-11T20:00:00,1790A,125.129,46.533,大庆市,龙凤区,细颗粒物(PM2.5),228,236,248,178,217,81,43,51,48,40,44,6,14,0.8,1
2022-11-11T20:00:00,1791A,124.902,46.408,大庆市,红岗区,细颗粒物(PM2.5),218,184,176,168,143,60,45,55,54,26,29,4,8,0.7,0.8
2022-11-11T20:00:00,1792A,125.153,46.586,大庆市,萨尔图区,细颗粒物(PM2.5),251,244,226,201,276,87,43,42,42,40,55,9,16,0.9,1.2
2022-11-11T20:00:00,1793A,124.9042,46.6215,大庆市,让胡路区,细颗粒物(PM2.5),209,211,174,159,138,66,48,55,53,33,38,5,10,1.1,1.2
2022-11-11T20:00:00,1794A,118.3606,31.3519,芜湖市,监测站,,39,39,51,22,41,103,29,70,68,42,34,9,8,0.8,0.8
2022-11-11T20:00:00,1795A,118.3714,31.4134,芜湖市,科创中心,,41,41,59,18,39,111,36,75,73,35,34,5,6,0.7,0.8
2022-11-11T20:00:00,1796A,118.3673,31.3131,芜湖市,四水厂,,40,40,54,18,34,115,30,75,72,38,32,7,8,0.7,0.8
2022-11-11T20:00:00,1797A,118.4022,31.3839,芜湖市,济民医院(对照点),,,,,,,,,,,,,,,,
2022-11-11T20:00:00,1798A,118.5092,31.6837,马鞍山市,湖东路四小,颗粒物(PM10),59,68,71,19,34,88,34,66,65,37,25,5,5,0.6,0.8
2022-11-11T20:00:00,1799A,118.5024,31.6449,马鞍山市,开发区,,,,65,,77,88,35,59,59,36,31,6,6,0.6,0.9
2022-11-11T20:00:00,1800A,118.5228,31.7231,马鞍山市,慈湖,颗粒物(PM10),52,54,72,22,39,85,36,65,64,42,30,41,13,0.8,0.8
2022-11-11T20:00:00,1801A,118.48,31.6928,马鞍山市,马钢动力厂,,,,,,,,,,,,,,,,
2022-11-11T20:00:00,1802A,118.6245,31.7241,马鞍山市,濮塘(对照点),,33,29,77,23,47,81,51,72,66,18,20,4,4,0.6,0.8
2022-11-11T20:00:00,1803A,115.9872,29.6815,九江市,十里,细颗粒物(PM2.5),80,96,90,59,55,159,121,137,137,22,31,20,16,0.9,1.2
2022-11-11T20:00:00,1804A,115.9584,29.7046,九江市,茅山头,细颗粒物(PM2.5),77,98,89,56,60,152,108,130,130,34,33,11,12,1.1,1.2
2022-11-11T20:00:00,1805A,115.9877,29.7295,九江市,西园,细颗粒物(PM2.5),77,98,95,56,56,142,92,121,121,39,41,14,14,1.0,0.9
2022-11-11T20:00:00,1806A,116.0172,29.6547,九江市,五七二七厂,细颗粒物(PM2.5),87,88,73,64,54,148,106,128,128,28,31,20,16,1.7,1.2
2022-11-11T20:00:00,1808A,115.9114,29.6038,九江市,综合工业园,细颗粒物(PM2.5),119,140,99,90,58,137,44,102,96,73,57,9,14,1.3,0.8
2022-11-11T20:00:00,1809A,116.0721,29.7535,九江市,石化总厂,颗粒物(PM10),75,99,93,54,51,145,107,123,123,30,41,12,13,0.9,1
2022-11-11T20:00:00,1810A,115.9773,29.5698,九江市,庐山气象台(对照点),,35,18,15,18,13,110,110,104,104,10,8,11,11,0.3,0.3
2022-11-11T20:00:00,1811A,112.3628,34.6692,洛阳市,中信二小,,,,,,,,,,,,,,,,
2022-11-11T20:00:00,1812A,112.3931,34.6516,洛阳市,市委党校,细颗粒物(PM2.5),137,138,211,104,150,54,23,53,36,34,26,4,5,1.3,1.2
2022-11-11T20:00:00,1814A,112.4657,34.6871,洛阳市,豫西宾馆,细颗粒物(PM2.5),168,174,203,127,152,48,23,40,33,30,26,3,4,1.2,1.2
2022-11-11T20:00:00,1815A,112.494,34.6886,洛阳市,河南林校,细颗粒物(PM2.5),180,177,184,136,151,46,26,40,35,29,26,,,1.1,1.1
2022-11-11T20:00:00,1816A,112.3844,34.623,洛阳市,开发区管委会,细颗粒物(PM2.5),127,121,188,96,143,43,14,36,30,33,26,3,4,1.2,1.1
2022-11-11T20:00:00,1817A,112.4267,34.6258,洛阳市,市委新办公区,细颗粒物(PM2.5),148,146,201,113,150,43,25,36,33,29,26,3,4,1.2,1.1
2022-11-11T20:00:00,1818A,114.4839,36.0621,安阳市,棉研所(对照点),,,,,,,,,,,,,,,,
2022-11-11T20:00:00,1819A,114.3551,36.1017,安阳市,红庙街,细颗粒物(PM2.5),274,291,244,224,210,61,22,49,45,54,45,9,11,1.6,1.3
2022-11-11T20:00:00,1820A,114.361,36.0681,安阳市,银杏小区,细颗粒物(PM2.5),262,295,227,212,207,67,23,55,51,55,41,8,11,1.8,1.8
2022-11-11T20:00:00,1824A,114.3389,34.7781,开封市,肿瘤医院,细颗粒物(PM2.5),267,112,210,217,218,31,4,21,17,51,44,4,4,1.4,1.3
2022-11-11T20:00:00,1826A,114.2885,34.7965,开封市,世纪星幼儿园,细颗粒物(PM2.5),226,295,259,176,199,24,2,17,12,50,42,5,6,1.5,1.4
2022-11-11T20:00:00,1828A,113.227,35.2125,焦作市,市环保局,细颗粒物(PM2.5),170,193,190,129,144,43,19,42,29,28,31,2,10,1.3,1.5
2022-11-11T20:00:00,1829A,113.2464,35.1764,焦作市,高新区政府（停运20220628）,,,,,,,,,,,,,,,,
2022-11-11T20:00:00,1830A,113.1992,35.2590,焦作市,影视城(对照点),,,,,,,,,,,,,,,,
2022-11-11T20:00:00,1832A,113.3257,33.742,平顶山市,新华旅馆,细颗粒物(PM2.5),206,111,179,156,155,40,5,20,12,38,29,4,5,1.4,0.9
2022-11-11T20:00:00,1833A,113.2919,33.737,平顶山市,规划设计院,细颗粒物(PM2.5),160,146,186,122,148,53,6,27,17,39,37,4,4,1.5,1.2
2022-11-11T20:00:00,1834A,113.182,33.774,平顶山市,平顶山工学院,细颗粒物(PM2.5),192,161,183,144,147,53,10,31,20,44,31,3,3,1.1,1
2022-11-11T20:00:00,1835A,111.1922,34.7752,三门峡市,市政府,,50,50,49,21,51,78,35,61,44,26,21,5,5,0.9,1.1
2022-11-11T20:00:00,1836A,111.1587,34.7942,三门峡市,开发区,,43,43,91,27,57,81,33,60,47,19,21,4,4,1.3,1.2
2022-11-11T20:00:00,1838A,111.143,34.7955,三门峡市,风景区(对照点),,,,,,,,,,,,,,,,
2022-11-11T20:00:00,1839A,111.3009,30.7157,宜昌市,四零三,,,,,,,,,,,,,,,,
2022-11-11T20:00:00,1840A,111.2992,30.6981,宜昌市,白龙岗,细颗粒物(PM2.5),70,78,82,51,57,129,102,103,103,36,44,5,5,0.7,0.7
2022-11-11T20:00:00,1841A,111.3549,30.6465,宜昌市,伍家岗,,,72,90,58,60,125,102,107,107,26,52,6,5,,0.9
2022-11-11T20:00:00,1842A,111.2628,30.6961,宜昌市,点军区,细颗粒物(PM2.5),79,84,97,58,72,142,109,112,112,33,31,6,5,0.7,0.8
2022-11-11T20:00:00,1843A,111.3275,30.7819,宜昌市,夷陵区,细颗粒物(PM2.5),113,91,83,85,57,136,100,115,115,39,36,17,7,0.8,0.8
2022-11-11T20:00:00,1844A,112.2494,30.3197,荆州市,市图书馆,细颗粒物(PM2.5),97,114,107,72,82,140,81,116,114,31,28,13,10,1.1,1.1
2022-11-11T20:00:00,1845A,112.2008,30.3544,荆州市,市委党校,细颗粒物(PM2.5),89,117,120,66,70,143,88,122,121,28,26,8,7,0.9,1
2022-11-11T20:00:00,1847A,113.1094,29.3578,岳阳市,南湖风景区,细颗粒物(PM2.5),65,67,63,47,43,171,100,149,144,41,43,13,20,0.7,0.8
2022-11-11T20:00:00,1848A,113.1493,29.4251,岳阳市,城陵矶,颗粒物(PM10),55,60,69,36,38,149,79,124,122,38,54,22,14,0.9,0.9
2022-11-11T20:00:00,1849A,113.1497,29.3575,岳阳市,开发区,颗粒物(PM10),55,59,65,35,35,158,91,132,130,36,42,11,12,0.7,0.7
2022-11-11T20:00:00,1850A,113.2621,29.4758,岳阳市,云溪区,"颗粒物(PM10),细颗粒物(PM2.5)",55,60,58,39,38,149,99,132,132,13,25,10,13,0.6,0.7
2022-11-11T20:00:00,1851A,112.9943,29.4402,岳阳市,君山区,细颗粒物(PM2.5),60,59,61,43,50,155,78,138,129,30,27,8,11,0.7,0.7
2022-11-11T20:00:00,1852A,113.2117,29.355,岳阳市,金凤水库(对照点),"颗粒物(PM10),细颗粒物(PM2.5)",54,57,47,38,30,160,111,143,142,15,16,7,8,0.8,0.7
2022-11-11T20:00:00,1854A,111.6975,28.9703,常德市,市二中,细颗粒物(PM2.5),117,97,107,88,84,173,123,151,151,27,31,10,10,0.8,0.8
2022-11-11T20:00:00,1857A,111.7158,29.1456,常德市,白鹤山(对照点),细颗粒物(PM2.5),84,87,75,62,53,153,139,139,139,3,5,7,7,0.7,0.6
2022-11-11T20:00:00,1858A,110.5319,29.1217,张家界市,永定新区,颗粒物(PM10),58,65,57,39,40,110,86,94,94,18,25,5,4,0.6,0.5
2022-11-11T20:00:00,1859A,110.4697,29.1242,张家界市,电业局,,47,47,55,28,37,119,87,87,87,28,36,6,5,0.5,0.5
2022-11-11T20:00:00,1860A,110.5594,29.3547,张家界市,未央路,,,62,52,38,35,135,,123,116,16,12,3,4,0.2,0.1
2022-11-11T20:00:00,1861A,110.4417,29.315,张家界市,袁家界(对照点),颗粒物(PM10),51,51,50,15,38,142,128,142,128,8,8,12,12,0.5,0.5
2022-11-11T20:00:00,1862A,110.4144,25.3167,桂林市,电子科大尧山校区(对照点),细颗粒物(PM2.5),53,38,28,37,20,104,80,97,95,7,9,8,6,0.5,0.6
2022-11-11T20:00:00,1863A,110.2819,25.2697,桂林市,监测站,,41,41,36,20,21,102,79,94,90,17,15,3,4,0.6,0.5
2022-11-11T20:00:00,1864A,110.3089,25.2708,桂林市,龙隐路小学,,37,37,32,20,21,88,66,80,76,15,15,4,6,0.6,0.6
2022-11-11T20:00:00,1865A,110.2869,25.2178,桂林市,八中,,28,28,33,17,17,86,76,79,77,9,20,3,5,0.3,0.3
2022-11-11T20:00:00,1866A,109.2262,21.588,北海市,牛尾岭水库(对照点),,49,49,35,28,27,165,75,115,112,9,8,38,22,0.7,0.7
2022-11-11T20:00:00,1867A,109.1436,21.4086,北海市,海滩公园,,35,34,33,15,17,161,110,141,140,7,6,7,8,0.7,0.6
2022-11-11T20:00:00,1868A,109.0981,21.4661,北海市,新市环保局,,35,34,30,24,22,141,101,124,123,14,10,5,6,0.5,0.5
2022-11-11T20:00:00,1869A,109.1778,21.5233,北海市,北海工业园,,37,37,44,24,24,135,92,121,118,17,14,7,9,0.4,0.4
2022-11-11T20:00:00,1870A,109.4856,24.3895,柳州市,柳东小学,,30,30,44,19,36,104,75,97,92,8,14,4,9,0.9,0.7
2022-11-11T20:00:00,1871A,109.4157,24.3277,柳州市,环保监测站,,38,38,49,16,28,98,68,90,86,15,17,3,5,0.6,0.7
2022-11-11T20:00:00,1872A,109.389,24.341,柳州市,河西水厂,,37,37,45,20,28,96,65,89,84,14,16,9,9,1.0,1.1
2022-11-11T20:00:00,1873A,109.4311,24.2921,柳州市,市四中,,36,36,56,20,25,102,61,93,86,16,16,6,8,0.7,0.8
2022-11-11T20:00:00,1874A,109.4006,24.3631,柳州市,市九中,,43,43,51,21,27,98,64,92,85,17,16,7,8,0.8,0.8
2022-11-11T20:00:00,1875A,109.4958,24.3134,柳州市,古亭山,,37,37,40,13,26,96,72,90,85,11,26,6,8,0.4,0.6
2022-11-11T20:00:00,1876A,109.5078,18.2489,三亚市,河东子站,,26,26,16,14,8,62,58,60,58,6,5,1,1,0.4,0.3
2022-11-11T20:00:00,1877A,109.4964,18.2681,三亚市,河西子站,,24,24,16,11,7,56,52,55,54,8,6,1,1,0.3,0.3
2022-11-11T20:00:00,1878A,104.7778,31.4741,绵阳市,富乐山,,45,43,48,31,36,84,41,63,63,13,23,5,4,0.4,0.4
2022-11-11T20:00:00,1879A,104.7563,31.4535,绵阳市,市人大,,,62,65,46,45,66,,46,46,25,37,8,4,0.5,0.6
2022-11-11T20:00:00,1880A,104.6697,31.4668,绵阳市,高新区自来水公司,"颗粒物(PM10),细颗粒物(PM2.5)",54,57,70,38,52,95,38,68,66,16,30,6,6,0.7,0.8
2022-11-11T20:00:00,1881A,104.7287,31.5075,绵阳市,三水厂,细颗粒物(PM2.5),64,56,72,46,56,93,43,60,60,13,31,4,5,0.6,0.7
2022-11-11T20:00:00,1882A,104.563,28.793,宜宾市,石马中学(对照点),细颗粒物(PM2.5),94,67,92,70,73,86,49,74,74,28,25,6,6,0.9,0.8
2022-11-11T20:00:00,1883A,104.6201,28.7728,宜宾市,市委,细颗粒物(PM2.5),79,70,97,58,81,97,42,79,76,34,32,7,10,1.0,1
2022-11-11T20:00:00,1884A,104.6055,28.793,宜宾市,宜宾四中,细颗粒物(PM2.5),87,84,106,64,86,89,29,76,71,53,33,5,7,1.0,1
2022-11-11T20:00:00,1885A,104.639,28.7562,宜宾市,市政府,细颗粒物(PM2.5),83,83,107,61,82,98,43,73,73,43,32,9,11,0.8,0.8
2022-11-11T20:00:00,1886A,104.5742,28.7199,宜宾市,黄金嘴,细颗粒物(PM2.5),85,81,95,63,76,100,47,77,77,41,30,8,9,0.9,0.9
2022-11-11T20:00:00,1888A,101.6891,26.571,攀枝花市,弄弄坪,,50,50,56,25,31,127,63,99,99,47,41,15,16,2.8,1.7
2022-11-11T20:00:00,1889A,101.5769,26.5928,攀枝花市,河门口,,38,38,39,22,23,126,93,106,106,24,29,16,19,1.2,1.3
2022-11-11T20:00:00,1890A,101.7169,26.585,攀枝花市,炳草岗,颗粒物(PM10),54,57,52,17,19,129,31,93,91,73,48,17,17,1.4,1.6
2022-11-11T20:00:00,1891A,101.7369,26.5008,攀枝花市,仁和,颗粒物(PM10),58,65,44,29,23,131,56,102,102,26,25,10,16,1.0,1.3
2022-11-11T20:00:00,1893A,105.4324,28.9634,泸州市,九狮山(对照点),细颗粒物(PM2.5),87,71,64,64,62,71,54,60,60,22,18,12,13,0.5,0.5
2022-11-11T20:00:00,1894A,105.4427,28.9063,泸州市,小市上码头,细颗粒物(PM2.5),108,96,109,81,97,100,65,80,80,36,26,4,12,0.8,0.8
2022-11-11T20:00:00,1895A,105.4241,28.8573,泸州市,兰田宪桥,细颗粒物(PM2.5),84,84,103,62,81,95,49,77,76,36,21,13,20,0.9,0.8
2022-11-11T20:00:00,1896A,105.4379,28.8833,泸州市,市环监站,细颗粒物(PM2.5),99,89,102,74,87,92,32,69,65,55,23,5,19,0.8,0.8
2022-11-11T20:00:00,1897A,104.7547,29.3628,自贡市,大塘山(对照点),,,,,,,,,,,,,,,,
2022-11-11T20:00:00,1900A,104.7692,29.3411,自贡市,春华路,,,,,,,,,,,,,,,,
2022-11-11T20:00:00,1901A,104.4239,31.1208,德阳市,东山公园,细颗粒物(PM2.5),58,59,69,41,42,96,49,84,82,20,27,5,6,0.8,0.8
2022-11-11T20:00:00,1902A,104.3826,31.1317,德阳市,西小区,颗粒物(PM10),55,60,72,32,39,98,43,77,76,26,34,5,6,0.7,0.7
2022-11-11T20:00:00,1903A,104.4053,31.1167,德阳市,市检察院,,,,,,,,,,,,,,,,
2022-11-11T20:00:00,1904A,104.3553,31.1091,德阳市,耐火材料厂,颗粒物(PM10),57,63,92,32,46,94,46,73,73,25,35,6,8,0.7,0.8
2022-11-11T20:00:00,1905A,106.056,30.8064,南充市,西山风景区(对照点),细颗粒物(PM2.5),77,68,60,56,50,54,42,42,42,15,15,8,10,1.0,1
2022-11-11T20:00:00,1906A,106.0789,30.8023,南充市,南充市委,颗粒物(PM10),74,98,66,53,46,52,16,33,33,41,23,15,12,1.0,0.8
2022-11-11T20:00:00,1907A,106.1031,30.8217,南充市,南充炼油厂,细颗粒物(PM2.5),74,89,70,54,45,53,36,41,41,19,23,22,14,0.9,0.8
2022-11-11T20:00:00,1908A,106.1064,30.7856,南充市,高坪区监测站,细颗粒物(PM2.5),88,84,70,65,53,46,23,34,34,25,17,10,18,0.9,0.7
2022-11-11T20:00:00,1909A,106.0642,30.7636,南充市,嘉陵区环保局,细颗粒物(PM2.5),89,92,69,66,53,59,30,39,39,32,25,16,17,0.9,0.9
2022-11-11T20:00:00,1910A,106.1087,30.8388,南充市,市环境监测站,细颗粒物(PM2.5),83,92,66,61,53,46,28,33,33,23,22,22,16,0.8,0.8
2022-11-11T20:00:00,1911A,106.9222,27.6869,遵义市,丁字口,"颗粒物(PM10),细颗粒物(PM2.5)",55,60,43,39,32,124,62,107,100,35,29,9,12,0.8,0.7
2022-11-11T20:00:00,1912A,106.9242,27.7019,遵义市,凤凰山,,45,45,39,25,22,128,92,113,112,15,12,6,8,0.5,0.5
2022-11-11T20:00:00,1913A,106.8906,27.6486,遵义市,忠庄,颗粒物(PM10),52,54,45,32,25,123,74,108,106,24,15,3,4,0.5,0.4
2022-11-11T20:00:00,1914A,106.9231,27.6506,遵义市,舟水桥,,,64,52,34,30,122,82,106,105,,26,,5,0.5,0.5
2022-11-11T20:00:00,1915A,106.9178,27.72,遵义市,干田坝,细颗粒物(PM2.5),62,49,41,44,31,122,64,104,101,30,17,8,8,0.5,0.4
2022-11-11T20:00:00,1916A,103.7897,25.5035,曲靖市,环境监测站,,37,37,31,18,20,140,94,114,114,13,14,5,5,0.4,0.5
2022-11-11T20:00:00,1917A,103.8,25.5364,曲靖市,烟厂办公区,,33,33,30,14,14,125,93,109,109,14,14,6,7,0.4,0.5
2022-11-11T20:00:00,1918A,108.7197,34.3956,咸阳市,气象站(对照点),,16,11,70,11,30,48,47,37,37,13,27,6,6,0.5,0.9
2022-11-11T20:00:00,1919A,108.673,34.3155,咸阳市,实验中学,,24,24,73,13,31,57,57,41,41,20,33,2,4,0.2,0.7
2022-11-11T20:00:00,1920A,108.7233,34.3617,咸阳市,师范学院,,46,46,72,17,33,49,49,38,38,23,30,6,6,0.3,1
2022-11-11T20:00:00,1922A,109.0656,35.0994,铜川市,党校(对照点),,19,5,71,2,47,89,59,84,40,20,23,13,14,0.5,1
2022-11-11T20:00:00,1923A,109.0697,35.0697,铜川市,王益区政府,,19,5,75,2,43,84,59,84,34,13,19,5,5,0.4,0.9
2022-11-11T20:00:00,1924A,108.9344,34.9058,铜川市,新区管委会,,18,3,95,4,44,82,56,52,43,12,25,5,7,0.4,1
2022-11-11T20:00:00,1925A,108.9589,34.8731,铜川市,新区兰芝公司,,,,,,,,,,,,,,,,
2022-11-11T20:00:00,1926A,109.4131,36.6275,延安市,枣园(对照点),,18,0,82,0,37,62,56,52,52,16,30,4,5,0.7,1.3
2022-11-11T20:00:00,1927A,109.4761,36.6028,延安市,延大医附院,,16,0,65,3,39,54,50,45,45,20,36,4,5,0.4,1.1
2022-11-11T20:00:00,1928A,109.4824,36.5767,延安市,市监测站,,,,,,,,,,,,,,,,
2022-11-11T20:00:00,1929A,109.5056,36.6106,延安市,百米大道,,17,8,66,9,43,56,52,44,44,23,43,6,7,0.4,1.1
2022-11-11T20:00:00,1930A,107.185,34.3063,宝鸡市,庙沟村(对照点),,19,18,21,6,11,71,59,65,65,13,16,5,4,0.7,1.1
2022-11-11T20:00:00,1931A,107.0708,34.3017,宝鸡市,竹园沟,,19,16,26,11,18,65,58,62,62,14,20,5,6,0.4,0.9
2022-11-11T20:00:00,1932A,107.1906,34.3672,宝鸡市,三陆医院,,19,19,33,6,17,51,27,44,42,38,29,6,7,0.6,0.9
2022-11-11T20:00:00,1933A,107.1431,34.3547,宝鸡市,监测站,,26,26,32,11,18,52,27,46,45,40,29,6,6,0.6,0.9
2022-11-11T20:00:00,1934A,107.1186,34.3739,宝鸡市,技工学校,,23,19,31,16,26,62,37,53,52,37,30,6,5,0.5,0.9
2022-11-11T20:00:00,1935A,107.3906,34.3528,宝鸡市,陈仓区环保局家属楼,,26,26,33,16,19,60,45,54,54,27,27,5,6,0.5,0.9
2022-11-11T20:00:00,1936A,107.2058,34.3497,宝鸡市,文理学院,,27,22,31,13,19,71,24,60,57,53,30,6,7,0.6,0.9
2022-11-11T20:00:00,1937A,107.2386,34.3622,宝鸡市,三迪小学,,29,29,36,14,27,54,21,48,45,53,31,7,7,0.6,0.9
2022-11-11T20:00:00,1938A,109.5293,34.5101,渭南市,农科所(对照点),,41,41,106,27,84,66,56,46,32,18,28,5,6,0.6,1.1
2022-11-11T20:00:00,1939A,109.4974,34.4877,渭南市,日报社,,39,39,106,26,81,66,54,49,30,24,33,7,8,0.4,0.9
2022-11-11T20:00:00,1940A,109.4636,34.493,渭南市,体育馆,,38,34,100,26,80,71,48,58,28,27,30,6,7,0.4,0.9
2022-11-11T20:00:00,1941A,109.4259,34.5023,渭南市,高新一小,,39,39,95,16,74,73,47,59,26,27,29,4,5,0.4,0.9
2022-11-11T20:00:00,1943A,102.1725,38.5339,金昌市,新川苑,颗粒物(PM10),51,52,34,16,9,85,67,82,75,20,12,5,5,0.9,0.7
2022-11-11T20:00:00,1944A,102.1692,38.5167,金昌市,天庆家园,,36,36,28,4,6,85,69,79,75,16,8,5,5,0.7,0.5
2022-11-11T20:00:00,1945A,98.2908,39.7711,嘉峪关市,气象局,颗粒物(PM10),56,61,78,19,22,89,62,76,72,20,18,2,17,0.3,0.5
2022-11-11T20:00:00,1947A,106.3394,38.817,石嘴山市,沙湖旅游区(对照点),,30,30,91,17,63,64,42,54,53,23,28,9,12,0.5,0.8
2022-11-11T20:00:00,1948A,106.3668,39.0145,石嘴山市,大武口朝阳西街,,32,32,44,7,29,77,64,72,68,18,11,2,3,0.4,0.5
2022-11-11T20:00:00,1949A,106.7704,39.2282,石嘴山市,惠农南大街,,44,44,80,10,33,64,54,52,18,21,65,12,11,0.4,0.8
2022-11-11T20:00:00,1950A,106.7099,39.1325,石嘴山市,红果子镇惠新街,,41,41,68,7,31,76,72,72,71,12,23,19,22,0.4,0.8
2022-11-11T20:00:00,1951A,84.895,45.6094,克拉玛依市,长征新村,,27,27,13,6,7,52,33,40,40,25,18,6,5,0.3,0.2
2022-11-11T20:00:00,1952A,84.8988,45.5893,克拉玛依市,南林小区,,21,21,14,14,11,52,30,40,40,28,21,1,2,0.5,0.4
2022-11-11T20:00:00,1953A,85.1186,45.6886,克拉玛依市,白碱滩区,,,,,,,,,,,,,,,,
2022-11-11T20:00:00,1954A,84.905,44.3396,克拉玛依市,独山子区,,26,25,27,18,17,65,52,55,55,18,17,6,6,0.4,0.5
2022-11-11T20:00:00,1955A,85.6979,46.098,克拉玛依市,乌尔禾区商贸楼,,15,8,11,9,8,54,45,50,50,6,13,2,2,0.6,0.6
2022-11-11T20:00:00,1956A,86.1472,41.7538,巴音郭楞州,孔雀公园,颗粒物(PM10),70,90,44,20,14,77,65,73,73,7,24,4,4,0.3,0.3
2022-11-11T20:00:00,1957A,86.1972,41.7166,巴音郭楞州,棉纺厂,颗粒物(PM10),77,103,61,32,19,81,65,75,75,10,23,5,5,0.3,0.3
2022-11-11T20:00:00,1958A,86.2357,41.7173,巴音郭楞州,经济开发区,颗粒物(PM10),72,94,44,18,11,80,66,75,75,12,15,7,7,0.3,0.2
2022-11-11T20:00:00,1959A,118.746,36.881,寿光市,监测站,,,,,,,,,,,,,,,,
2022-11-11T20:00:00,1960A,118.780,36.864,寿光市,世纪学校,,,,,,,,,,,,,,,,
2022-11-11T20:00:00,1961A,117.532,36.6868,济南市,东山小学,颗粒物(PM10),52,54,91,29,53,105,77,89,88,16,37,4,5,0.4,0.7
2022-11-11T20:00:00,1962A,117.541,36.710,章丘市,明水开发区,,,,,,,,,,,,,,,,
2022-11-11T20:00:00,1963A,120.610,36.440,即墨市,环保局子站,,,,,,,,,,,,,,,,
2022-11-11T20:00:00,1964A,120.470,36.390,即墨市,开发区子站,,,,,,,,,,,,,,,,
2022-11-11T20:00:00,1965A,120.005,35.878,胶南市,JN子站,,,,,,,,,,,,,,,,
2022-11-11T20:00:00,1966A,120.0405,35.8735,青岛市,黄岛区4号,,41,41,29,19,15,131,112,116,116,16,16,5,5,0.6,0.6
2022-11-11T20:00:00,1967A,120.008,36.283,胶州市,胶州环保局,,,,,,,,,,,,,,,,
2022-11-11T20:00:00,1968A,120.014,36.253,胶州市,胶州一中,,,,,,,,,,,,,,,,
2022-11-11T20:00:00,1969A,120.537,36.865,莱西市,环保局子站,,,,,,,,,,,,,,,,
2022-11-11T20:00:00,1970A,120.515,36.885,莱西市,人民广场子站,,,,,,,,,,,,,,,,
2022-11-11T20:00:00,1971A,119.952,36.792,平度市,1号,,,,,,,,,,,,,,,,
2022-11-11T20:00:00,1972A,119.976,36.799,平度市,2号,,,,,,,,,,,,,,,,
2022-11-11T20:00:00,1973A,120.747,37.825,蓬莱市,蓬莱环保局,,,,,,,,,,,,,,,,
2022-11-11T20:00:00,1974A,120.773,37.809,蓬莱市,蓬莱博物馆,,,,,,,,,,,,,,,,
2022-11-11T20:00:00,1975A,120.399,37.374,招远市,招远环保局,,,,,,,,,,,,,,,,
2022-11-11T20:00:00,1976A,120.394,37.364,招远市,招远教育局,,,,,,,,,,,,,,,,
2022-11-11T20:00:00,1977A,119.941,37.177,莱州市,莱州环保局,,,,,,,,,,,,,,,,
2022-11-11T20:00:00,1978A,119.959,37.180,莱州市,莱州外经委,,,,,,,,,,,,,,,,
2022-11-11T20:00:00,1979A,122.471,37.154,荣成市,荣成市环保局办公楼,,,,,,,,,,,,,,,,
2022-11-11T20:00:00,1980A,122.410,37.161,荣成市,山东成山轮胎公司,,,,,,,,,,,,,,,,
2022-11-11T20:00:00,1981A,122.038,37.197,文登市,文登市环保局,,,,,,,,,,,,,,,,
2022-11-11T20:00:00,1982A,122.0693,37.2174,威海市,文登开发区,细颗粒物(PM2.5),83,75,60,61,41,118,112,112,110,27,24,5,5,0.7,0.6
2022-11-11T20:00:00,1983A,121.531,36.913,乳山市,乳山市环保局,,,,,,,,,,,,,,,,
2022-11-11T20:00:00,1984A,121.544,36.907,乳山市,乳山市气象局,,,,,,,,,,,,,,,,
2022-11-11T20:00:00,1985A,120.636,31.155,吴江市,吴江市环保局,,,,,,,,,,,,,,,,
2022-11-11T20:00:00,1986A,120.635,31.170,吴江市,教师进修学校,,,,,,,,,,,,,,,,
2022-11-11T20:00:00,1987A,120.658,31.172,吴江市,吴江开发区,,,,,,,,,,,,,,,,
2022-11-11T20:00:00,1988A,120.953,31.388,昆山市,昆山实验小学,,,,,,,,,,,,,,,,
2022-11-11T20:00:00,1989A,120.999,31.381,昆山市,震川中学,,,,,,,,,,,,,,,,
2022-11-11T20:00:00,1990A,120.758,31.670,常熟市,海虞子站,,,,,,,,,,,,,,,,
2022-11-11T20:00:00,1991A,120.721,31.671,常熟市,兴福子站,,,,,,,,,,,,,,,,
2022-11-11T20:00:00,1992A,120.734,31.656,常熟市,菱塘子站,,,,,,,,,,,,,,,,
2022-11-11T20:00:00,1993A,120.526,31.874,张家港市,张家港市监测站,,,,,,,,,,,,,,,,
2022-11-11T20:00:00,1994A,120.550,31.882,张家港市,城北小学,,,,,,,,,,,,,,,,
2022-11-11T20:00:00,1995A,121.115,31.453,太仓市,太仓市监测站,,,,,,,,,,,,,,,,
2022-11-11T20:00:00,1996A,121.140,31.422,太仓市,科教新城实小,,,,,,,,,,,,,,,,
2022-11-11T20:00:00,1997A,119.146,31.955,句容市,消防指挥中心,,,,,,,,,,,,,,,,
2022-11-11T20:00:00,1998A,119.180,31.955,句容市,房家坝,,,,,,,,,,,,,,,,
2022-11-11T20:00:00,1999A,120.268,31.920,江阴市,虹桥邮政,,,,,,,,,,,,,,,,
2022-11-11T20:00:00,2000A,120.237,31.909,江阴市,五星公园,,,,,,,,,,,,,,,,
2022-11-11T20:00:00,2001A,120.302,31.920,江阴市,第二实验小学,,,,,,,,,,,,,,,,
2022-11-11T20:00:00,2002A,119.818,31.354,宜兴市,宜兴市环保局,,,,,,,,,,,,,,,,
2022-11-11T20:00:00,2003A,119.794,31.371,宜兴市,宜园,,,,,,,,,,,,,,,,
2022-11-11T20:00:00,2004A,119.579,31.751,金坛市,金坛市环境监测站,,,,,,,,,,,,,,,,
2022-11-11T20:00:00,2005A,119.579,31.737,金坛市,金坛市自来水公司,,,,,,,,,,,,,,,,
2022-11-11T20:00:00,2006A,119.460,31.400,溧阳市,溧阳市东门子站,,,,,,,,,,,,,,,,
2022-11-11T20:00:00,2007A,119.438,31.317,溧阳市,燕山子站,,,,,,,,,,,,,,,,
2022-11-11T20:00:00,2008A,121.173,31.896,海门市,海门市监测站,,,,,,,,,,,,,,,,
2022-11-11T20:00:00,2009A,121.1518,31.89708,海门市,社会福利院,,,,,,,,,,,,,,,,
2022-11-11T20:00:00,2010A,119.7183,30.2366,临安市,市政府,,,,,,,,,,,,,,,,
2022-11-11T20:00:00,2011A,119.6942,30.2311,临安市,四中,,,,,,,,,,,,,,,,
2022-11-11T20:00:00,2012A,119.954,30.054,富阳市,监测站,,,,,,,,,,,,,,,,
2022-11-11T20:00:00,2013A,119.946,30.049,富阳市,富春二小,,,,,,,,,,,,,,,,
2022-11-11T20:00:00,2014A,120.091,29.305,义乌市,江东,,,,,,,,,,,,,,,,
2022-11-11T20:00:00,2015A,120.040,29.334,义乌市,北苑,,,,,,,,,,,,,,,,
2022-11-11T20:00:00,2016A,120.251,29.719,诸暨市,图书馆,,,,,,,,,,,,,,,,
2022-11-11T20:00:00,2017A,120.209,29.732,诸暨市,富林印务,,,,,,,,,,,,,,,,
2022-11-11T20:00:00,2018A,121.989,39.625,瓦房店市,抱龙山庄,,,,,,,,,,,,,,,,
2022-11-11T20:00:00,2019A,122.011,39.617,瓦房店市,东山公园,,,,,,,,,,,,,,,,
2022-11-11T20:00:00,2031A,113.1817,27.9958,株洲市,云田中学,,30,30,35,18,20,105,73,96,90,14,13,9,13,0.5,0.5
2022-11-11T20:00:00,2054A,114.1099,32.1059,信阳市,平桥分局,细颗粒物(PM2.5),120,134,138,91,107,106,29,62,44,31,32,6,7,1.2,1
2022-11-11T20:00:00,2064A,113.9956,32.1271,信阳市,南湾水厂,颗粒物(PM10),91,131,154,53,102,124,23,68,39,26,25,7,7,1.3,1.1
2022-11-11T20:00:00,2065A,114.0775,32.1195,信阳市,市酿酒公司,颗粒物(PM10),108,165,157,78,106,65,32,64,43,24,29,6,7,1.2,1.1
2022-11-11T20:00:00,2066A,114.0609,32.1399,信阳市,审计局,细颗粒物(PM2.5),104,146,151,78,103,65,31,61,45,29,33,7,8,1.4,1.2
2022-11-11T20:00:00,2067A,114.6613,33.6128,周口市,市环境监测站,颗粒物(PM10),53,56,124,28,54,63,28,45,40,24,18,6,7,0.8,0.9
2022-11-11T20:00:00,2068A,114.6758,33.6347,周口市,周口师范,颗粒物(PM10),59,68,121,32,53,55,27,47,41,25,22,4,5,1.1,1.1
2022-11-11T20:00:00,2069A,114.6546,33.5979,周口市,市运管处,颗粒物(PM10),68,86,128,33,52,94,35,56,44,17,18,2,3,0.9,1
2022-11-11T20:00:00,2070A,114.6369,33.6406,周口市,川汇区环保局,细颗粒物(PM2.5),64,61,116,46,60,51,32,46,40,22,22,4,6,0.8,1
2022-11-11T20:00:00,2075A,117.6336,24.4674,漳州市,九湖(对照点),,,,,,,,,,,,,,,,
2022-11-11T20:00:00,2160A,112.85,35.5051,晋城市,自来水公司,细颗粒物(PM2.5),70,54,75,51,58,106,84,93,93,19,17,6,6,0.8,0.8
2022-11-11T20:00:00,2161A,112.8318,35.4936,晋城市,白云商贸,细颗粒物(PM2.5),55,58,84,39,52,106,84,94,94,16,16,3,3,1.0,1
2022-11-11T20:00:00,2162A,112.8508,35.4887,晋城市,市环保局,细颗粒物(PM2.5),70,74,80,51,63,105,84,93,92,18,18,5,5,0.9,0.9
2022-11-11T20:00:00,2163A,112.8676,35.4897,晋城市,技术学院,,,,,,,,,,,,,,,,
2022-11-11T20:00:00,2164A,112.8271,35.4828,晋城市,泽州一中,,,,,,,,,,,,,,,,
2022-11-11T20:00:00,2165A,112.8453,35.546,晋城市,白马寺 (对照点),,,,,,,,,,,,,,,,
2022-11-11T20:00:00,2166A,112.4397,39.3522,朔州市,平朔,,9,2,80,3,88,53,27,46,41,15,23,3,8,0.6,1
2022-11-11T20:00:00,2167A,112.4575,39.3617,朔州市,朔唯,,11,5,85,3,88,56,33,49,44,17,25,4,10,0.6,0.9
2022-11-11T20:00:00,2168A,112.4258,39.3197,朔州市,区政府,,16,16,110,3,85,54,28,44,36,21,28,3,8,0.8,1
2022-11-11T20:00:00,2169A,112.4072,39.3278,朔州市,市环保局,,18,15,106,12,94,54,27,40,35,20,27,5,9,0.7,1
2022-11-11T20:00:00,2170A,112.4272,39.3681,朔州市,市二中,,13,13,111,3,88,48,28,45,40,22,28,5,8,1.1,1.4
2022-11-11T20:00:00,2171A,112.7532,37.6945,晋中市,锦纶小区,细颗粒物(PM2.5),70,55,85,51,72,88,5,88,18,63,42,4,5,1.8,1.1
2022-11-11T20:00:00,2173A,112.7249,37.7067,晋中市,南都小区,细颗粒物(PM2.5),75,59,84,55,65,82,6,82,15,64,45,6,7,1.8,1.1
2022-11-11T20:00:00,2174A,112.6991,37.6982,晋中市,榆次区政府,细颗粒物(PM2.5),93,68,86,69,75,78,5,78,12,63,45,5,6,1.7,1.1
2022-11-11T20:00:00,2175A,110.9956,35.0147,运城市,运城中学,细颗粒物(PM2.5),79,49,83,58,65,96,38,80,56,16,14,5,6,0.6,0.9
2022-11-11T20:00:00,2176A,111.0233,35.0611,运城市,禹都开发区,,,,,,,,,,,,,,,,
2022-11-11T20:00:00,2178A,110.9686,35.0303,运城市,地区技校,颗粒物(PM10),60,69,86,38,62,98,37,80,53,14,13,6,6,0.6,1
2022-11-11T20:00:00,2179A,111.0414,35.1147,运城市,空港新区,细颗粒物(PM2.5),94,102,110,70,74,108,35,90,59,20,18,7,7,0.9,1
2022-11-11T20:00:00,2181A,112.7383,38.4519,忻州市,开发区,细颗粒物(PM2.5),75,58,86,55,77,99,31,98,54,33,18,5,6,0.9,0.9
2022-11-11T20:00:00,2182A,112.7003,38.4928,忻州市,会展中心,细颗粒物(PM2.5),78,60,89,57,80,86,16,86,32,41,25,5,8,0.5,0.5
2022-11-11T20:00:00,2183A,111.1406,37.5211,吕梁市,环保局,,15,0,38,6,25,49,46,38,31,19,43,4,8,0.3,0.8
2022-11-11T20:00:00,2185A,111.1297,37.5136,吕梁市,自来水公司,,15,15,39,8,26,50,42,45,33,19,36,5,6,0.4,0.9
2022-11-11T20:00:00,2186A,106.8288,39.6778,乌海市,聚英学校,,,,,,,,,,,,,,,,
2022-11-11T20:00:00,2187A,106.8174,39.6973,乌海市,市林业局,颗粒物(PM10),63,76,59,32,33,74,30,64,52,23,14,10,8,0.5,0.5
2022-11-11T20:00:00,2188A,106.7907,39.6667,乌海市,中海勃湾学校,颗粒物(PM10),60,69,59,25,35,81,61,72,65,14,13,12,10,0.4,0.4
2022-11-11T20:00:00,2191A,122.2532,43.6801,通辽市,艺术职业学校,颗粒物(PM10),61,72,125,9,78,106,48,90,84,16,27,5,9,0.5,1.1
2022-11-11T20:00:00,2192A,119.7594,49.2261,呼伦贝尔市,区环保局,,28,25,22,19,14,45,38,42,41,12,11,5,5,0.3,0.4
2022-11-11T20:00:00,2194A,107.5936,40.916,巴彦淖尔市,秋林养殖基地(对照点),,,,,,,,,,,,,,,,
2022-11-11T20:00:00,2195A,107.4212,40.761,巴彦淖尔市,附二中,,,91,89,35,44,59,,46,36,38,26,5,6,0.8,0.7
2022-11-11T20:00:00,2196A,107.37,40.7372,巴彦淖尔市,市环保大楼,颗粒物(PM10),70,90,83,39,44,69,3,51,34,46,26,4,5,1.0,0.8
2022-11-11T20:00:00,2197A,113.1306,40.9923,乌兰察布市,集宁新区,,23,13,48,16,40,50,47,36,36,9,32,5,9,0.5,0.8
2022-11-11T20:00:00,2200A,122.0392,46.0656,兴安盟,胜华新制药厂,,30,30,175,14,154,57,49,49,49,10,34,2,6,0.3,0.8
2022-11-11T20:00:00,2201A,121.9504,46.0741,兴安盟,科右前旗环保局,,33,32,172,23,150,58,52,52,52,10,35,2,6,0.1,0.7
2022-11-11T20:00:00,2202A,116.1042,43.9317,锡林郭勒盟,市环保监测站,颗粒物(PM10),58,65,51,8,16,81,45,68,42,2,9,10,9,0.2,0.4
2022-11-11T20:00:00,2203A,116.0781,43.9311,锡林郭勒盟,市政府,,22,22,25,5,17,78,43,70,38,6,13,10,10,0.3,0.4
2022-11-11T20:00:00,2204A,105.6467,38.8363,阿拉善盟,西城区西花园(对照点),,36,36,57,16,29,78,70,76,74,16,11,8,8,0.3,0.3
2022-11-11T20:00:00,2205A,105.6985,38.8411,阿拉善盟,蒙二幼,,29,28,46,20,40,82,74,78,76,12,9,8,8,0.3,0.3
2022-11-11T20:00:00,2206A,105.724,38.8516,阿拉善盟,环保局新楼,,27,24,40,13,30,88,85,82,82,6,10,7,6,0.3,0.4
2022-11-11T20:00:00,2207A,121.6094,41.998,阜新市,工业园区,颗粒物(PM10),56,62,131,31,78,75,64,70,69,23,47,10,15,1.0,1.4
2022-11-11T20:00:00,2208A,121.6697,42.0279,阜新市,长青街,细颗粒物(PM2.5),74,46,133,54,95,79,62,72,71,23,41,8,13,0.9,1.3
2022-11-11T20:00:00,2209A,121.6673,42.0705,阜新市,农业园区,,38,36,81,26,60,72,57,67,66,14,21,9,26,0.8,1
2022-11-11T20:00:00,2210A,121.6717,42.0224,阜新市,东苑,,48,35,131,33,66,79,61,71,70,24,41,9,18,0.8,1.1
2022-11-11T20:00:00,2211A,121.6506,42.0498,阜新市,玉龙新城,细颗粒物(PM2.5),75,44,103,55,85,68,57,66,64,20,40,11,13,0.8,1.2
2022-11-11T20:00:00,2212A,123.2,41.1953,辽阳市,宏伟区,,45,40,34,31,25,92,80,89,80,9,9,6,6,0.7,0.6
2022-11-11T20:00:00,2213A,123.1683,41.2495,辽阳市,新华园,,50,50,44,35,30,92,77,87,78,14,14,11,12,0.6,0.5
2022-11-11T20:00:00,2214A,123.2354,41.2639,辽阳市,滨河路,细颗粒物(PM2.5),59,35,39,42,32,95,90,89,81,11,17,4,6,0.8,0.7
2022-11-11T20:00:00,2215A,123.149,41.2991,辽阳市,铁西工业园,细颗粒物(PM2.5),70,48,56,51,52,95,82,91,81,12,16,8,9,0.8,0.8
2022-11-11T20:00:00,2216A,123.8139,42.3022,铁岭市,汇工街西,细颗粒物(PM2.5),65,51,99,47,85,90,61,81,70,28,34,10,13,0.7,0.9
2022-11-11T20:00:00,2217A,123.8649,42.2923,铁岭市,水上乐园,细颗粒物(PM2.5),70,57,149,51,120,87,51,76,71,37,36,8,9,0.8,0.9
2022-11-11T20:00:00,2218A,123.8486,42.2867,铁岭市,银州路东段,细颗粒物(PM2.5),55,51,116,39,82,88,60,81,73,29,38,6,6,1.0,1
2022-11-11T20:00:00,2219A,123.7153,42.2217,铁岭市,金沙江路北,细颗粒物(PM2.5),65,49,78,47,71,87,40,72,62,42,40,9,10,1.2,1.1
2022-11-11T20:00:00,2220A,120.4318,41.5881,朝阳市,西梁,细颗粒物(PM2.5),80,67,139,59,77,75,67,70,70,12,26,10,16,0.9,1.2
2022-11-11T20:00:00,2221A,120.4521,41.5646,朝阳市,河畔小区,细颗粒物(PM2.5),80,74,96,59,67,79,65,72,72,6,20,10,13,0.8,1.1
2022-11-11T20:00:00,2222A,120.4176,41.5648,朝阳市,八里堡,细颗粒物(PM2.5),84,68,96,62,72,68,52,63,62,20,24,10,19,0.7,0.9
2022-11-11T20:00:00,2223A,120.3806,41.5969,朝阳市,农业园区,细颗粒物(PM2.5),92,65,110,68,84,85,52,64,64,22,35,7,14,1.0,1.2
2022-11-11T20:00:00,2225A,124.4002,43.1713,四平市,一商场,细颗粒物(PM2.5),58,54,99,41,71,75,57,68,67,21,31,5,6,0.6,0.8
2022-11-11T20:00:00,2226A,124.388,43.193,四平市,境园,,46,46,100,28,71,73,63,69,68,18,36,8,10,0.6,0.8
2022-11-11T20:00:00,2227A,125.1358,42.8845,辽源市,环保局,,40,31,92,28,75,105,80,102,98,12,27,6,8,0.7,1.2
2022-11-11T20:00:00,2229A,125.9358,41.7173,通化市,光明,,43,38,72,30,43,100,86,93,93,17,36,14,28,0.8,1
2022-11-11T20:00:00,2230A,125.9446,41.7325,通化市,铁路,,43,43,66,26,43,103,73,90,90,29,38,11,25,0.8,1.2
2022-11-11T20:00:00,2231A,126.4219,41.9171,白山市,喜丰,颗粒物(PM10),56,61,83,32,35,97,82,81,81,18,32,15,14,0.7,1
2022-11-11T20:00:00,2232A,126.4077,41.9419,白山市,环保局,颗粒物(PM10),51,51,93,20,50,97,86,80,80,18,34,10,12,0.8,1.1
2022-11-11T20:00:00,2233A,124.8006,45.1214,松原市,江南,颗粒物(PM10),80,110,95,50,74,63,58,56,56,13,24,5,9,0.5,0.7
2022-11-11T20:00:00,2234A,124.7965,45.1722,松原市,江北,细颗粒物(PM2.5),69,86,83,50,60,64,55,58,58,13,21,5,6,0.6,0.7
2022-11-11T20:00:00,2235A,122.7911,45.6077,白城市,洮北区环保局,细颗粒物(PM2.5),285,286,161,235,146,81,30,72,54,63,40,11,6,1.0,0.8
2022-11-11T20:00:00,2236A,122.8738,45.5725,白城市,市环保局,颗粒物(PM10),113,175,148,56,83,85,37,71,54,54,45,11,8,0.7,0.6
2022-11-11T20:00:00,2237A,129.47,42.8883,延边朝鲜族自治州,妇幼医院,细颗粒物(PM2.5),82,100,79,60,61,53,5,35,28,53,38,16,13,1.0,0.9
2022-11-11T20:00:00,2238A,129.5055,42.9108,延边朝鲜族自治州,延边医院,细颗粒物(PM2.5),114,118,79,86,62,56,9,47,40,65,38,59,15,1.3,1
2022-11-11T20:00:00,2239A,129.3964,42.8881,延边朝鲜族自治州,朝阳川镇医院,细颗粒物(PM2.5),78,96,75,57,53,62,5,48,34,46,30,6,10,0.9,0.8
2022-11-11T20:00:00,2240A,130.9762,45.3001,鸡西市,环保局,颗粒物(PM10),93,136,135,58,76,19,3,12,8,50,40,18,18,1.3,1.2
2022-11-11T20:00:00,2243A,130.9429,45.3039,鸡西市,第一中学,颗粒物(PM10),89,128,147,52,71,31,14,29,10,46,41,11,15,0.8,1
2022-11-11T20:00:00,2244A,130.2537,47.3416,鹤岗市,哈啤分公司,,47,47,44,29,19,32,6,24,7,24,24,12,14,0.5,0.4
2022-11-11T20:00:00,2245A,130.2684,47.3086,鹤岗市,斯达机电,颗粒物(PM10),51,51,43,31,22,39,7,39,9,28,26,8,9,0.7,0.5
2022-11-11T20:00:00,2246A,130.3114,47.3388,鹤岗市,东山纸板厂,颗粒物(PM10),52,54,95,27,31,15,8,12,9,24,25,15,14,0.6,0.9
2022-11-11T20:00:00,2247A,130.1097,47.3382,鹤岗市,五号水库(对照点),颗粒物(PM10),51,51,27,31,12,32,8,32,8,30,17,9,9,0.4,0.5
2022-11-11T20:00:00,2248A,131.1511,46.6937,双鸭山市,双合村,,,,,,,,,,,,,,,,
2022-11-11T20:00:00,2249A,131.1652,46.6191,双鸭山市,南小市,细颗粒物(PM2.5),97,80,52,72,25,58,48,50,50,17,18,5,7,0.5,0.4
2022-11-11T20:00:00,2250A,131.1524,46.6554,双鸭山市,环保局,细颗粒物(PM2.5),78,82,43,57,25,61,28,56,54,32,24,6,6,0.8,0.4
2022-11-11T20:00:00,2251A,131.12,46.5656,双鸭山市,苗圃(对照点),细颗粒物(PM2.5),97,64,31,72,26,62,27,56,51,15,9,3,4,0.6,0.4
2022-11-11T20:00:00,2252A,128.5159,47.4311,伊春市,环保局,细颗粒物(PM2.5),149,129,42,114,38,41,21,33,30,32,23,5,12,1.2,1.1
2022-11-11T20:00:00,2253A,128.9102,47.7412,伊春市,电力嘉园,细颗粒物(PM2.5),135,126,46,103,31,42,28,31,29,21,21,4,10,,
2022-11-11T20:00:00,2254A,129.5029,48.471,伊春市,汤旺河国家公园(对照点),细颗粒物(PM2.5),90,83,32,67,25,41,27,36,35,12,5,7,6,0.4,0.2
2022-11-11T20:00:00,2255A,130.2751,46.8028,佳木斯市,佳纺,,48,48,93,26,36,14,5,12,6,27,25,6,5,0.6,0.7
2022-11-11T20:00:00,2256A,130.3995,46.8307,佳木斯市,发电厂,,48,36,65,33,47,16,2,11,6,24,25,3,4,0.7,0.7
2022-11-11T20:00:00,2257A,130.3258,46.7975,佳木斯市,环保局,细颗粒物(PM2.5),59,66,107,42,52,8,3,6,3,31,34,10,10,0.9,1.1
2022-11-11T20:00:00,2258A,130.3648,46.8032,佳木斯市,十一中,细颗粒物(PM2.5),57,54,75,40,48,13,6,11,6,30,35,6,8,0.8,0.9
2022-11-11T20:00:00,2259A,130.3794,46.7588,佳木斯市,四丰(对照点),细颗粒物(PM2.5),77,71,50,56,34,38,3,27,5,26,27,1,3,0.7,0.6
2022-11-11T20:00:00,2262A,131.0518,45.8751,七台河市,新一中(对照点),细颗粒物(PM2.5),74,67,51,54,28,80,72,68,68,24,17,11,11,1.0,0.7
2022-11-11T20:00:00,2263A,127.4833,50.2524,黑河市,交通局,,42,28,27,29,19,37,33,32,31,9,15,5,8,0.5,0.5
2022-11-11T20:00:00,2264A,127.5144,50.2341,黑河市,环保局,,43,34,37,30,24,40,36,36,32,10,14,5,12,0.3,0.3
2022-11-11T20:00:00,2265A,127.5291,50.2472,黑河市,大黑河岛(对照点),,45,32,26,31,23,41,30,38,27,6,6,1,3,0.3,0.3
2022-11-11T20:00:00,2266A,126.9785,46.6365,绥化市,人和东街,细颗粒物(PM2.5),344,352,141,294,116,58,57,38,36,41,23,2,4,1.9,1.3
2022-11-11T20:00:00,2267A,126.964,46.6528,绥化市,党政办公中心,细颗粒物(PM2.5),381,355,133,331,121,71,71,51,48,36,20,4,4,1.8,1.2
2022-11-11T20:00:00,2269A,124.1069,50.4097,大兴安岭地区,科技局,,40,29,35,28,29,45,28,37,36,19,17,8,8,0.4,0.4
2022-11-11T20:00:00,2270A,117.396,32.939,蚌埠市,工人疗养院,颗粒物(PM10),58,66,77,35,44,74,33,58,46,20,17,5,5,0.4,0.5
2022-11-11T20:00:00,2271A,117.3605,32.9427,蚌埠市,百货大楼,细颗粒物(PM2.5),55,52,51,39,48,70,23,53,42,24,21,8,8,0.6,0.6
2022-11-11T20:00:00,2273A,117.4185,32.8911,蚌埠市,蚌埠学院,颗粒物(PM10),60,70,70,41,47,76,6,58,42,54,23,11,7,0.6,0.5
2022-11-11T20:00:00,2274A,117.3533,32.9673,蚌埠市,淮上区政府,"颗粒物(PM10),细颗粒物(PM2.5)",62,73,78,44,52,63,26,51,44,28,21,7,8,0.4,0.5
2022-11-11T20:00:00,2275A,117.3145,32.8977,蚌埠市,高新区,颗粒物(PM10),57,63,66,36,49,73,19,67,49,49,23,18,13,0.6,0.6
2022-11-11T20:00:00,2277A,116.8305,32.7727,淮南市,潘集区政府,细颗粒物(PM2.5),72,80,83,52,62,65,20,54,47,31,20,2,3,0.4,0.4
2022-11-11T20:00:00,2278A,117.0067,32.6524,淮南市,师范学院,细颗粒物(PM2.5),94,128,92,70,73,67,16,67,37,44,27,8,6,0.8,0.8
2022-11-11T20:00:00,2279A,116.8569,32.5951,淮南市,谢家集区政府,颗粒物(PM10),72,93,83,47,51,60,10,60,42,53,28,6,10,0.6,0.5
2022-11-11T20:00:00,2280A,116.8281,32.633,淮南市,八公山区政府,颗粒物(PM10),57,64,79,34,49,59,14,59,42,38,21,8,9,0.6,0.6
2022-11-11T20:00:00,2281A,116.6325,32.6201,淮南市,焦岗湖风景区管理处(对照点),细颗粒物(PM2.5),78,72,82,57,61,57,16,48,43,10,4,11,11,0.6,0.6
2022-11-11T20:00:00,2282A,116.8004,33.975,淮北市,监测站,颗粒物(PM10),54,58,53,31,32,80,52,72,63,15,12,4,5,0.5,0.5
2022-11-11T20:00:00,2283A,116.8091,33.9007,淮北市,烈山区政府,细颗粒物(PM2.5),58,61,56,41,52,81,50,74,66,24,17,5,4,0.5,0.5
2022-11-11T20:00:00,2284A,116.7856,33.9477,淮北市,职业技术学院,,50,50,50,28,32,80,56,74,66,16,14,6,6,0.7,0.7
2022-11-11T20:00:00,2285A,117.8177,30.9412,铜陵市,市第四中学,颗粒物(PM10),61,71,80,33,52,121,63,100,98,28,27,5,5,0.2,0.3
2022-11-11T20:00:00,2286A,117.8059,30.9273,铜陵市,市公路局,,47,47,87,17,51,119,63,96,94,25,26,6,6,0.4,0.6
2022-11-11T20:00:00,2287A,117.7807,30.9413,铜陵市,市新民污水厂,颗粒物(PM10),57,63,91,36,46,126,62,102,100,25,36,7,8,0.3,0.5
2022-11-11T20:00:00,2288A,117.7439,30.8792,铜陵市,市第九中学,颗粒物(PM10),70,89,123,47,58,127,10,63,52,112,63,8,9,0.9,1.1
2022-11-11T20:00:00,2289A,117.846,30.9413,铜陵市,车站新区,细颗粒物(PM2.5),59,55,80,42,54,109,61,84,82,20,24,3,4,0.2,0.4
2022-11-11T20:00:00,2290A,117.8483,30.97,铜陵市,市职教基地,,,60,80,36,53,127,,111,111,,19,6,7,0.4,0.5
2022-11-11T20:00:00,2291A,117.0809,30.5177,安庆市,环科院,颗粒物(PM10),74,98,84,52,60,157,112,126,126,23,22,7,8,0.9,0.9
2022-11-11T20:00:00,2292A,117.0331,30.5119,安庆市,马山宾馆,颗粒物(PM10),74,97,76,42,53,155,97,129,128,39,26,7,8,1.1,1
2022-11-11T20:00:00,2294A,116.9896,30.6145,安庆市,安庆大学,细颗粒物(PM2.5),77,84,81,56,60,154,118,139,139,23,21,6,6,1.1,1.1
2022-11-11T20:00:00,2295A,118.2903,29.6963,黄山市,延安路89号,,45,36,28,31,17,105,68,94,87,14,16,6,5,0.6,0.5
2022-11-11T20:00:00,2296A,118.327,29.7178,黄山市,黄山东路89号,,33,30,28,23,14,99,37,90,80,29,21,5,5,0.3,0.3
2022-11-11T20:00:00,2297A,118.1371,30.2756,黄山市,黄山区政府5号楼,颗粒物(PM10),54,58,55,26,31,87,19,64,51,16,15,5,5,0.6,0.6
2022-11-11T20:00:00,2298A,118.3093,32.3153,滁州市,老年大学,颗粒物(PM10),61,71,77,41,58,60,6,38,29,61,36,7,8,0.6,0.6
2022-11-11T20:00:00,2299A,118.3244,32.2786,滁州市,人大宾馆,颗粒物(PM10),63,75,83,42,57,58,9,36,31,65,38,4,3,0.7,0.7
2022-11-11T20:00:00,2301A,115.8277,32.8929,阜阳市,市监测站,颗粒物(PM10),63,76,104,40,61,60,21,44,38,35,23,7,6,0.7,0.7
2022-11-11T20:00:00,2303A,115.8554,32.8605,阜阳市,开发区,细颗粒物(PM2.5),73,82,98,53,83,56,13,43,36,48,31,5,5,0.8,0.7
2022-11-11T20:00:00,2306A,116.989,33.6306,宿州市,火车站,,,,,,,,,,,,,,,,
2022-11-11T20:00:00,2307A,116.5079,31.737,六安市,监测大楼,颗粒物(PM10),73,95,101,52,63,93,17,75,70,75,35,6,6,0.8,0.7
2022-11-11T20:00:00,2308A,116.4738,31.7643,六安市,皖西学院,颗粒物(PM10),68,86,102,37,60,96,12,80,72,78,36,6,7,2.3,0.8
2022-11-11T20:00:00,2309A,116.4996,31.7905,六安市,朝阳厂,细颗粒物(PM2.5),99,128,97,74,63,90,2,71,62,86,31,4,4,1.0,0.8
2022-11-11T20:00:00,2310A,116.5567,31.7886,六安市,开发区,细颗粒物(PM2.5),89,103,106,66,59,96,4,77,70,83,32,8,7,0.7,0.7
2022-11-11T20:00:00,2311A,115.8072,33.8399,亳州市,污水处理厂,细颗粒物(PM2.5),75,72,94,55,77,66,32,60,53,16,14,4,4,0.8,0.8
2022-11-11T20:00:00,2312A,115.7789,33.8518,亳州市,三国揽胜宫,细颗粒物(PM2.5),78,57,65,57,71,66,31,60,52,22,18,3,4,0.8,0.8
2022-11-11T20:00:00,2314A,117.47,30.6618,池州市,池州学院,颗粒物(PM10),61,72,82,43,56,132,84,112,111,34,41,9,10,0.9,1
2022-11-11T20:00:00,2315A,117.4974,30.6539,池州市,平天湖(对照点),,,,,,,,,,,,,,,,
2022-11-11T20:00:00,2316A,118.7581,30.9454,宣城市,鳌峰子站,颗粒物(PM10),51,52,53,14,36,98,48,76,72,38,30,6,5,0.4,0.5
2022-11-11T20:00:00,2317A,118.7385,30.9743,宣城市,敬亭山子站,,38,38,57,15,35,76,32,60,56,30,35,8,8,0.4,0.5
2022-11-11T20:00:00,2318A,118.7173,30.9427,宣城市,开发区子站,,33,33,48,15,36,85,43,70,67,34,27,5,5,0.4,0.5
2022-11-11T20:00:00,2319A,119.0141,25.4325,莆田市,荔城区仓后路,,26,26,20,15,8,83,28,72,63,27,9,5,5,0.8,0.6
2022-11-11T20:00:00,2320A,119.0015,25.4553,莆田市,莆田市监测站,,13,13,13,7,7,77,39,72,64,12,8,5,5,0.6,0.6
2022-11-11T20:00:00,2321A,119.1119,25.4561,莆田市,涵江区六中,,23,23,15,14,10,75,36,67,60,20,7,8,7,0.7,0.6
2022-11-11T20:00:00,2322A,119.1013,25.3215,莆田市,秀屿区政府,,16,15,17,11,8,80,46,68,64,15,10,7,7,0.7,0.7
2022-11-11T20:00:00,2323A,118.981,25.4792,莆田市,东圳水库(对照点),,,,,,,,,,,,,,,,
2022-11-11T20:00:00,2324A,117.6211,26.2625,三明市,三钢,,,62,33,26,20,107,,83,80,58,32,6,10,1.0,0.7
2022-11-11T20:00:00,2325A,117.635,26.2714,三明市,三明二中,,29,12,28,20,17,105,52,88,86,30,26,8,12,0.8,0.8
2022-11-11T20:00:00,2326A,117.6028,26.2378,三明市,三元区政府,颗粒物(PM10),63,75,46,35,25,94,8,71,61,69,33,10,15,1.4,1.1
2022-11-11T20:00:00,2327A,117.7275,26.3108,三明市,洋溪(对照点),,,,,,,,,,,,,,,,
2022-11-11T20:00:00,2331A,118.0966,26.6761,南平市,茫荡山(对照点),,,,,,,,,,,,,,,,
2022-11-11T20:00:00,2332A,118.1681,26.6369,南平市,南平市监测站,,43,42,27,30,17,98,24,83,76,40,21,5,8,1.3,0.8
2022-11-11T20:00:00,2333A,118.1825,26.6489,南平市,南平铝业有限公司,细颗粒物(PM2.5),52,48,27,36,19,97,11,77,65,51,25,8,11,1.1,0.6
