timepoint,stationcode,longitude,latitude,area,positionname,primarypollutant,aqi,pm10,pm10_24h,pm2_5,pm2_5_24h,o3,o3_24h,o3_8h,o3_8h_24h,no2,no2_24h,so2,so2_24h,co,co_24h
2025-05-27T2000,2566A,102.1879,31.914,阿坝藏族羌族自治州,州农科所,,19,14,16,13,10,47,,59,57,13,7,12,11,0.8,0.8
2025-05-27T2000,2568A,102.2502,31.8896,阿坝藏族羌族自治州,马师校,,20,20,23,14,19,58,,78,77,5,8,5,5,0.6,0.6
2025-05-27T2000,3994A,102.2165,31.9024,阿坝藏族羌族自治州,马尔康中学西区,,35,,20,24,19,78,,82,82,4,5,5,5,0.4,0.5
2025-05-27T2000,2695A,80.292,41.1694,阿克苏地区,电视台,颗粒物(PM10),68,85,55,29,24,114,,109,109,11,9,1,3,0.5,0.5
2025-05-27T2000,2696A,80.2613,41.1551,阿克苏地区,艺术中心,颗粒物(PM10),78,105,53,19,18,117,,112,112,6,7,3,4,0.6,0.6
2025-05-27T2000,2204A,105.6467,38.8363,阿拉善盟,西城区西花园,臭氧1小时,59,40,30,23,22,167,,168,168,10,9,5,6,1.0,1
2025-05-27T2000,2205A,105.6985,38.8411,阿拉善盟,蒙二幼,颗粒物(PM10),85,119,49,15,15,149,,153,153,9,9,9,10,0.5,0.5
2025-05-27T2000,2206A,105.724,38.8516,阿拉善盟,环保局新楼,,50,41,28,13,14,160,,161,161,7,6,8,9,0.5,0.6
2025-05-27T2000,2708A,88.1264,47.8517,阿勒泰地区,市站,颗粒物(PM10),65,80,21,3,4,88,,82,82,2,3,1,2,0.2,0.3
2025-05-27T2000,2630A,80.1161,32.5,阿里地区,阿里监测站,,41,13,12,3,6,129,,133,133,4,8,6,6,0.3,0.3
2025-05-27T2000,3192A,80.0903,32.5028,阿里地区,阿里藏医院,,45,15,15,3,6,143,,146,146,1,4,5,6,0.3,0.3
2025-05-27T2000,2642A,109.0318,32.6537,安康市,香溪洞,颗粒物(PM10),53,56,39,36,24,130,,134,134,5,5,9,11,0.5,0.4
2025-05-27T2000,2644A,109.0072,32.6975,安康市,汉滨区检察院,颗粒物(PM10),57,63,44,23,27,131,,137,137,8,12,9,14,0.6,0.6
2025-05-27T2000,4054A,109.0325,32.6913,安康市,市邮政管理局,"颗粒物(PM10),细颗粒物(PM2.5)",57,63,47,40,29,122,,133,133,10,11,31,19,0.6,0.6
2025-05-27T2000,2291A,117.0809,30.5177,安庆市,环科院,细颗粒物(PM2.5),67,61,62,48,45,161,,167,167,17,42,4,5,1.0,1
2025-05-27T2000,2292A,117.0331,30.5119,安庆市,马山宾馆,细颗粒物(PM2.5),65,63,63,47,52,160,,167,165,21,47,6,6,0.8,0.9
2025-05-27T2000,2294A,116.9896,30.6145,安庆市,安庆大学,,,94,73,51,54,156,,187,184,14,22,4,5,,0.7
2025-05-27T2000,3173A,117.0598,30.5351,安庆市,市人大,细颗粒物(PM2.5),83,68,68,61,50,168,,188,187,24,29,10,11,0.8,0.8
2025-05-27T2000,3122A,105.9606,26.2611,安顺市,伍家关,,13,10,10,9,8,35,,58,40,5,4,1,1,0.4,0.4
2025-05-27T2000,3123A,105.9408,26.2431,安顺市,凤凰山,,20,14,10,14,6,51,,74,57,5,4,6,6,0.5,0.5
2025-05-27T2000,3124A,105.9439,26.2564,安顺市,金钟山,,43,,10,30,8,46,,67,50,4,5,4,4,0.3,0.3
2025-05-27T2000,3125A,105.8983,26.2481,安顺市,娄家坡,,18,,7,12,7,49,,69,52,2,3,7,7,0.5,0.5
2025-05-27T2000,1818A,114.4839,36.0621,安阳市,棉研所,,,,,,,,,,,,,,,,
2025-05-27T2000,1819A,114.3551,36.1017,安阳市,红庙街,臭氧1小时,67,51,56,22,33,173,,192,190,2,8,1,3,0.4,0.5
2025-05-27T2000,1820A,114.361,36.0681,安阳市,银杏小区,臭氧1小时,57,51,59,25,34,165,,191,188,15,17,1,4,0.3,0.4
2025-05-27T2000,3141A,114.3922,36.0878,安阳市,信访局,臭氧1小时,72,51,60,32,34,177,,198,195,10,12,2,4,0.5,0.6
2025-05-27T2000,3669A,114.4705,36.0637,安阳市,左辅环卫站,颗粒物(PM10),53,56,71,23,37,152,,187,182,14,20,1,2,0.6,0.7
2025-05-27T2000,3703A,114.2917,36.0949,安阳市,安钢职工学校,臭氧1小时,55,57,63,25,33,164,,187,184,6,10,2,6,0.4,0.4
2025-05-27T2000,1748A,123.044,41.1196,鞍山市,深沟寺,,43,36,31,23,18,137,,159,157,13,11,6,7,0.7,0.6
2025-05-27T2000,1749A,123.011,41.0931,鞍山市,太阳城,,42,34,27,22,17,134,,152,149,12,10,7,8,0.6,0.5
2025-05-27T2000,1750A,123.0485,41.1442,鞍山市,太平,,49,49,38,24,17,129,,152,150,18,13,8,8,0.8,0.7
2025-05-27T2000,1751A,122.9642,41.0971,鞍山市,铁西三道街,,44,42,40,21,20,138,,160,155,17,20,3,3,0.5,0.5
2025-05-27T2000,1753A,123.022,41.0821,鞍山市,明达新区,,43,34,28,23,18,137,,154,152,11,10,6,7,0.5,0.5
2025-05-27T2000,1754A,123.1289,41.0228,鞍山市,千山,,,,21,,13,,,133,,,8,,5,,0.3
2025-05-27T2000,4201A,122.9446,41.0826,鞍山市,兴盛南路290号,,42,42,42,22,20,130,,160,153,24,20,6,7,0.5,0.5
2025-05-27T2000,2195A,107.4212,40.761,巴彦淖尔市,附二中,,47,47,40,13,22,138,,146,145,10,13,5,8,0.4,0.5
2025-05-27T2000,2196A,107.37,40.7372,巴彦淖尔市,市环保大楼,,45,41,41,19,25,144,,150,148,12,17,6,6,0.2,0.3
2025-05-27T2000,1956A,86.1472,41.7538,巴音郭楞蒙古自治州,孔雀公园,颗粒物(PM10),79,107,143,25,35,82,,90,90,12,31,8,8,0.2,0.3
2025-05-27T2000,1957A,86.1972,41.7166,巴音郭楞蒙古自治州,棉纺厂,,,,162,,29,86,,88,88,,28,3,4,0.2,0.2
2025-05-27T2000,1958A,86.2357,41.7173,巴音郭楞蒙古自治州,经济开发区,颗粒物(PM10),143,235,139,16,24,89,,93,93,6,10,8,9,0.2,0.1
2025-05-27T2000,2914A,106.7677,31.8794,巴中市,苏山坪,,33,30,41,23,30,96,,99,96,6,7,4,5,0.3,0.3
2025-05-27T2000,3181A,106.7768,31.8526,巴中市,市五中,,,40,54,26,36,100,,99,99,,17,,7,0.6,0.7
2025-05-27T2000,3183A,106.7418,31.8654,巴中市,圣泉水务公司,,45,45,50,30,34,44,,88,80,22,17,4,5,0.6,0.6
2025-05-27T2000,3616A,106.7616,31.8344,巴中市,市中心医院,,33,31,51,23,35,94,,94,94,7,17,6,6,0.4,0.6
2025-05-27T2000,2235A,122.7911,45.6077,白城市,洮北区环保局,细颗粒物(PM2.5),60,51,48,43,36,141,,160,160,17,19,6,5,0.4,0.4
2025-05-27T2000,2236A,122.8738,45.5725,白城市,市环保局,颗粒物(PM10),52,53,45,34,35,91,,158,151,54,19,9,9,0.2,0.2
2025-05-27T2000,2231A,126.4219,41.9171,白山市,喜丰,,31,31,52,16,17,83,,123,113,12,22,6,10,0.5,0.6
2025-05-27T2000,2232A,126.4077,41.9419,白山市,环保局,,30,30,32,18,12,73,,120,109,11,14,12,9,0.4,0.4
2025-05-27T2000,2647A,104.1724,36.5446,白银市,第三小学,,35,35,42,12,23,99,,108,108,13,18,13,107,0.8,1.4
2025-05-27T2000,2648A,104.1465,36.5482,白银市,动力公司,,35,27,39,12,21,110,,115,115,12,19,10,34,0.3,0.6
2025-05-27T2000,2512A,106.6103,23.9011,百色市,市监测站,,46,46,38,32,21,62,,78,78,15,16,10,12,1.1,0.9
2025-05-27T2000,2513A,106.6538,23.8859,百色市,市中心血站,细颗粒物(PM2.5),53,50,43,37,29,54,,78,76,20,18,10,10,0.9,0.8
2025-05-27T2000,3406A,106.6085,23.8798,百色市,祈福高中,颗粒物(PM10),53,55,46,35,31,57,,75,75,22,16,9,10,0.8,0.6
2025-05-27T2000,2270A,117.396,32.939,蚌埠市,工人疗养院,臭氧1小时,68,80,103,37,60,174,,195,195,12,34,3,7,0.5,0.6
2025-05-27T2000,2271A,117.3605,32.9427,蚌埠市,百货大楼,臭氧1小时,68,72,99,47,62,174,,194,194,16,42,7,8,0.6,0.6
2025-05-27T2000,2273A,117.4185,32.8911,蚌埠市,蚌埠学院,颗粒物(PM10),64,78,89,45,66,165,,198,195,21,46,4,10,0.5,0.6
2025-05-27T2000,2274A,117.3533,32.9673,蚌埠市,淮上区政府,臭氧1小时,70,75,98,43,65,176,,197,197,17,52,5,7,0.5,0.6
2025-05-27T2000,2275A,117.3145,32.8977,蚌埠市,高新区,细颗粒物(PM2.5),67,80,86,48,59,155,,188,187,27,43,6,9,0.6,0.7
2025-05-27T2000,3715A,117.3092,32.9314,蚌埠市,蚌埠田家炳中学,细颗粒物(PM2.5),72,82,111,52,64,163,,188,188,15,40,6,6,0.6,0.6
2025-05-27T2000,1585A,109.8756,40.6532,包头市,市环境监测站,臭氧1小时,58,40,39,17,21,166,,175,175,22,28,10,13,0.5,0.6
2025-05-27T2000,1587A,109.9991,40.5842,包头市,包头八中,颗粒物(PM10),53,55,46,14,24,154,,174,174,30,30,18,24,0.5,0.8
2025-05-27T2000,1588A,109.8538,40.6821,包头市,青山宾馆,臭氧1小时,53,41,38,22,25,162,,174,174,25,31,10,12,0.6,0.7
2025-05-27T2000,1589A,109.8642,40.6288,包头市,惠龙物流,臭氧1小时,64,43,41,19,27,171,,182,182,20,28,9,13,0.4,0.5
2025-05-27T2000,1590A,110.0377,40.5546,包头市,东河鸿龙湾,颗粒物(PM10),53,55,45,19,18,146,,172,172,27,31,7,15,0.5,0.6
2025-05-27T2000,3283A,109.9154,40.5685,包头市,滨河大厦,臭氧1小时,52,45,37,23,18,161,,179,179,19,26,8,12,0.5,0.5
2025-05-27T2000,3419A,109.9447,40.6261,包头市,包头市委党校,臭氧1小时,55,41,38,20,20,164,,175,175,17,26,12,16,0.4,0.5
2025-05-27T2000,3683A,109.8331,40.6576,包头市,昆区政府,臭氧1小时,60,37,38,26,26,168,,177,177,25,30,9,12,0.6,0.6
2025-05-27T2000,1930A,107.185,34.3063,宝鸡市,庙沟村,,34,28,29,10,21,107,,127,127,15,13,8,8,0.6,0.7
2025-05-27T2000,1931A,107.0708,34.3017,宝鸡市,竹园沟,,26,24,29,10,20,81,,117,115,10,12,4,4,0.4,0.5
2025-05-27T2000,1932A,107.1906,34.3672,宝鸡市,三陆医院,,41,31,40,14,25,129,,131,131,16,24,8,8,0.4,0.5
2025-05-27T2000,1933A,107.1431,34.3547,宝鸡市,监测站,,36,34,39,13,26,115,,127,127,25,18,6,6,0.4,0.3
2025-05-27T2000,1934A,107.1186,34.3739,宝鸡市,技工学校,,,28,39,15,30,121,,74,,,12,6,6,,0.6
2025-05-27T2000,1935A,107.3906,34.3528,宝鸡市,陈仓区环保局家属楼,,33,31,46,12,36,105,,127,127,24,19,5,6,0.6,0.7
2025-05-27T2000,1936A,107.2058,34.3497,宝鸡市,文理学院,,42,29,39,27,24,133,,133,133,16,18,8,8,0.4,0.5
2025-05-27T2000,1937A,107.2386,34.3622,宝鸡市,三迪小学,,40,25,41,15,34,126,,135,135,17,19,8,8,0.4,0.5
2025-05-27T2000,1051A,115.493,38.8632,保定市,游泳馆,臭氧1小时,69,73,88,36,59,175,,218,214,19,27,3,7,0.3,0.5
2025-05-27T2000,1052A,115.5213,38.8959,保定市,华电二区,臭氧1小时,90,73,62,36,46,192,,227,224,7,12,3,7,0.3,0.5
2025-05-27T2000,1053A,115.4713,38.9108,保定市,接待中心,臭氧1小时,83,57,76,35,54,186,,221,218,11,17,2,5,0.5,0.6
2025-05-27T2000,1054A,115.4612,38.8416,保定市,地表水厂,颗粒物(PM10),61,71,88,35,49,159,,208,204,24,29,3,7,0.3,0.5
2025-05-27T2000,3581A,115.31981,38.95208,保定市,满城区生态环境分局,臭氧1小时,72,88,79,41,47,177,,233,229,16,18,3,4,0.2,0.2
2025-05-27T2000,3582A,115.47694,38.76408,保定市,清苑区第二中学,颗粒物(PM10),70,89,92,45,56,154,,221,214,22,19,2,5,0.4,0.5
2025-05-27T2000,3583A,115.62909,39.02311,保定市,徐水物探局,颗粒物(PM10),77,103,103,36,48,152,,214,210,24,33,1,3,0.5,0.5
2025-05-27T2000,4004A,115.4202,38.8656,保定市,双鹰农机,臭氧1小时,60,58,75,37,48,168,,219,215,16,25,4,7,0.3,0.4
2025-05-27T2000,4034A,115.5150,38.8590,保定市,植保所站,颗粒物(PM10),68,85,85,45,49,168,,213,211,12,17,5,8,0.5,0.6
2025-05-27T2000,2594A,99.1678,25.1081,保山市,市环境监测站,,39,,13,27,15,24,,46,34,21,14,6,6,0.8,0.6
2025-05-27T2000,2595A,99.1711,25.1328,保山市,市环保局,,22,20,17,15,6,35,,44,41,10,11,7,7,0.6,0.6
2025-05-27T2000,1866A,109.2262,21.588,北海市,牛尾岭水库,,34,30,33,21,25,108,,142,124,8,11,8,14,0.5,0.7
2025-05-27T2000,1867A,109.1436,21.4086,北海市,海滩公园,,35,35,50,17,28,111,,143,138,5,10,5,6,0.6,0.7
2025-05-27T2000,1868A,109.0981,21.4661,北海市,新市环保局,,38,38,44,24,31,119,,142,138,8,12,4,6,0.8,0.8
2025-05-27T2000,1869A,109.1778,21.5233,北海市,北海工业园,细颗粒物(PM2.5),55,51,52,39,34,120,,136,135,8,14,10,10,0.6,0.7
2025-05-27T2000,3400A,109.1911,21.4415,北海市,龙潭自来水厂,,,37,45,,39,122,,151,146,6,13,4,6,0.5,0.6
2025-05-27T2000,1001A,116.3621,39.8784,北京市,万寿西宫,臭氧1小时,109,86,55,46,28,217,,218,218,20,33,8,4,0.9,0.6
2025-05-27T2000,1002A,116.2202,40.2915,北京市,定陵,,,,,,,,,,,,,,,,
2025-05-27T2000,1003A,116.4174,39.9289,北京市,东四,臭氧1小时,112,77,49,37,22,224,,217,217,21,39,8,4,0.7,0.5
2025-05-27T2000,1004A,116.4072,39.8863,北京市,天坛,臭氧1小时,90,68,49,42,23,192,,208,208,13,25,5,3,0.7,0.5
2025-05-27T2000,1005A,116.462,39.9365,北京市,农展馆,臭氧1小时,72,66,47,32,22,177,,192,192,18,37,7,4,0.8,0.7
2025-05-27T2000,1006A,116.3392,39.9295,北京市,官园,臭氧1小时,104,82,52,65,27,207,,191,191,20,32,9,7,0.6,0.4
2025-05-27T2000,1007A,116.2878,39.9611,北京市,海淀万柳,臭氧1小时,100,68,41,33,16,200,,188,188,21,40,6,3,0.8,0.5
2025-05-27T2000,1008A,116.6636,40.135,北京市,顺义新城,,41,34,28,23,14,130,,180,180,13,17,5,5,0.4,0.4
2025-05-27T2000,1009A,116.6275,40.3275,北京市,怀柔镇,,37,25,23,15,12,116,,167,166,9,14,2,2,0.5,0.5
2025-05-27T2000,1010A,116.2296,40.217,北京市,昌平镇,,39,30,31,12,15,124,,168,168,12,22,4,4,0.5,0.6
2025-05-27T2000,1011A,116.3966,39.9821,北京市,奥体中心,,48,48,39,23,18,138,,170,170,22,37,3,3,0.5,0.6
2025-05-27T2000,3281A,115.9718,40.4529,北京市,延庆夏都,,34,17,26,8,14,106,,136,136,11,24,4,4,0.4,0.5
2025-05-27T2000,3418A,116.8336,40.4095,北京市,密云新城,,31,17,17,9,9,98,,148,144,11,10,3,2,0.2,0.3
2025-05-27T2000,3671A,116.088,39.9726,北京市,门头沟三家店,臭氧1小时,102,119,52,64,20,204,,200,200,17,13,5,2,0.6,0.4
2025-05-27T2000,3672A,116.1541,39.8204,北京市,丰台云岗,臭氧1小时,98,87,57,59,29,198,,202,202,21,24,7,5,0.6,0.3
2025-05-27T2000,3673A,116.6804,39.9081,北京市,通州东关,"颗粒物(PM10),细颗粒物(PM2.5)",58,65,52,41,25,162,,196,196,23,37,3,3,0.4,0.5
2025-05-27T2000,3674A,115.9577,39.7603,北京市,房山燕山,臭氧1小时,68,75,58,40,28,174,,193,191,13,14,3,3,0.7,0.6
2025-05-27T2000,3675A,116.4672,39.7733,北京市,大兴旧宫,臭氧1小时,89,68,61,35,31,191,,203,203,15,31,5,3,0.8,0.7
2025-05-27T2000,3694A,115.986,40.4563,北京市,延庆石河营,,33,17,24,8,13,103,,125,125,9,23,2,2,0.3,0.4
2025-05-27T2000,3695A,116.6151,40.3053,北京市,怀柔新城,,38,24,33,10,13,121,,171,171,12,10,1,1,0.3,0.5
2025-05-27T2000,3696A,116.2545,39.8768,北京市,丰台小屯,臭氧1小时,84,78,56,43,23,187,,186,186,27,40,5,3,0.7,0.5
2025-05-27T2000,3697A,116.84,40.3844,北京市,密云镇,,31,28,18,8,10,99,,161,157,11,17,4,5,0.2,0.3
2025-05-27T2000,4182A,116.1942,39.9158,北京市,八角北路9号,臭氧1小时,100,107,58,44,23,200,,186,186,17,22,7,3,0.5,0.2
2025-05-27T2000,4194A,117.0790,40.1518,北京市,洳河巡河路,,33,21,36,9,16,103,,184,180,4,8,2,4,0.4,0.5
2025-05-27T2000,1761A,123.8275,41.3064,本溪市,大峪,,44,44,40,20,18,132,,169,162,9,15,6,7,0.6,0.6
2025-05-27T2000,1762A,123.7567,41.3325,本溪市,溪湖,颗粒物(PM10),51,51,44,29,23,125,,158,155,17,16,10,9,1.1,1.1
2025-05-27T2000,1763A,123.7169,41.3094,本溪市,彩屯,细颗粒物(PM2.5),58,63,49,41,28,114,,152,148,27,24,16,14,1.9,1.4
2025-05-27T2000,1764A,123.7669,41.2864,本溪市,东明,,45,45,41,22,16,137,,164,161,13,19,7,7,0.8,0.8
2025-05-27T2000,1765A,123.7992,41.2664,本溪市,新立屯,,46,46,32,25,17,138,,159,157,12,10,6,5,0.7,0.6
2025-05-27T2000,1766A,123.8142,41.3472,本溪市,威宁,,50,50,51,28,24,124,,164,161,25,26,6,6,0.5,0.5
2025-05-27T2000,2587A,105.2864,27.3125,毕节市,八中,,25,9,18,8,16,78,,50,50,9,10,4,5,0.6,0.6
2025-05-27T2000,2588A,105.31,27.2944,毕节市,师专,,25,9,20,3,12,77,,50,50,13,13,3,4,0.7,0.5
2025-05-27T2000,4263A,105.3688,27.3598,毕节市,工业大道,,27,6,12,3,9,85,,53,53,10,11,6,6,0.7,0.6
2025-05-27T2000,1629A,118.0018,37.3617,滨州市,第二水厂,臭氧1小时,105,51,59,24,33,209,,218,218,14,21,9,13,0.2,0.4
2025-05-27T2000,1630A,117.9776,37.393,滨州市,北中新校,颗粒物(PM10),53,56,49,36,31,157,,201,198,38,17,6,8,0.9,0.7
2025-05-27T2000,3514A,117.9378,37.3956,滨州市,中海酒店,臭氧1小时,103,44,54,19,36,205,,225,225,10,15,8,19,0.7,0.8
2025-05-27T2000,3515A,117.9378,37.3553,滨州市,开发区一中,臭氧1小时,78,48,57,29,35,182,,198,198,22,28,5,8,0.6,0.6
2025-05-27T2000,3516A,118.0917,37.694,滨州市,金海六路,臭氧1小时,67,58,59,24,30,173,,219,216,38,33,8,9,0.3,0.3
2025-05-27T2000,4028A,117.9956,37.3753,滨州市,滨州市西街道办事处,臭氧1小时,95,56,50,41,33,196,,228,227,21,17,7,9,0.6,0.6
2025-05-27T2000,2311A,115.8072,33.8399,亳州市,污水处理厂,颗粒物(PM10),88,126,68,30,40,154,,197,192,28,10,5,6,0.4,0.5
2025-05-27T2000,2312A,115.7789,33.8518,亳州市,三国揽胜宫,臭氧1小时,75,55,61,31,43,180,,191,191,15,12,7,8,0.6,0.6
2025-05-27T2000,3332A,115.7633,33.8034,亳州市,亳州学院,臭氧1小时,75,60,64,31,41,180,,197,197,16,12,5,6,0.5,0.5
2025-05-27T2000,2693A,82.0485,44.8556,博尔塔拉蒙古自治州,市党校,颗粒物(PM10),57,63,65,25,14,92,,92,92,6,8,2,3,0.2,0.3
2025-05-27T2000,2694A,82.0806,44.8969,博尔塔拉蒙古自治州,市环保局,颗粒物(PM10),61,71,66,18,15,89,,90,90,8,10,3,2,0.3,0.4
2025-05-27T2000,1071A,116.8842,38.2991,沧州市,沧县城建局,颗粒物(PM10),53,56,57,28,32,155,,178,176,22,26,2,3,0.4,0.3
2025-05-27T2000,1072A,116.8584,38.3254,沧州市,电视转播站,臭氧1小时,64,52,54,34,34,171,,181,181,16,19,3,3,0.3,0.4
2025-05-27T2000,1073A,116.8709,38.3228,沧州市,市环保局,颗粒物(PM10),57,63,64,37,37,159,,179,178,15,18,1,2,0.4,0.4
2025-05-27T2000,3324A,116.8136,38.3004,沧州市,河北水利电力学院,臭氧1小时,63,53,60,41,34,170,,195,192,25,30,4,6,0.3,0.3
2025-05-27T2000,2622A,97.1806,31.1273,昌都市,昌都监测站,,28,,6,9,8,88,,91,90,7,4,5,4,0.2,0.2
2025-05-27T2000,3719A,97.1714,31.1406,昌都市,昌都会议中心,,26,15,11,11,7,83,,89,88,8,5,3,3,0.2,0.2
2025-05-27T2000,2690A,88.1236,43.8886,昌吉回族自治州,天山天池,,22,6,58,3,10,69,,78,77,5,5,6,7,0.5,0.5
2025-05-27T2000,2692A,87.2717,44.0297,昌吉回族自治州,新区政务中心,颗粒物(PM10),85,120,47,25,12,88,,88,88,3,2,6,7,0.4,0.4
2025-05-27T2000,3613A,87.3095,44.0142,昌吉回族自治州,亚心广场,颗粒物(PM10),111,171,48,29,8,81,,87,85,15,7,7,8,0.3,0.2
2025-05-27T2000,1119A,125.3325,43.9166,长春市,食品厂,颗粒物(PM10),53,55,52,33,28,116,,160,155,39,30,5,7,0.6,0.5
2025-05-27T2000,1120A,125.2863,43.9027,长春市,客车厂,细颗粒物(PM2.5),67,60,48,48,30,41,,165,150,111,30,5,7,0.7,0.5
2025-05-27T2000,1121A,125.2841,43.8463,长春市,邮电学院,颗粒物(PM10),57,64,50,38,27,99,,166,157,43,22,6,8,0.5,0.4
2025-05-27T2000,1122A,125.3716,43.8772,长春市,劳动公园,细颗粒物(PM2.5),75,88,56,55,28,87,,158,149,34,21,7,8,0.9,0.6
2025-05-27T2000,1123A,125.3297,43.8805,长春市,园林处,,46,46,45,30,30,120,,166,160,27,21,6,8,0.5,0.5
2025-05-27T2000,1124A,125.4605,43.79,长春市,净月潭,,40,27,37,18,21,127,,159,154,4,11,6,7,0.4,0.4
2025-05-27T2000,1125A,125.7194,43.515,长春市,甩湾子,,36,29,28,23,20,114,,,,29,11,3,3,0.6,0.5
2025-05-27T2000,1126A,125.3863,43.8447,长春市,经开区环卫处,颗粒物(PM10),57,63,62,22,23,69,,157,146,71,27,6,7,0.5,0.4
2025-05-27T2000,1127A,125.245,43.7783,长春市,高新区管委会,颗粒物(PM10),53,55,47,34,32,86,,162,149,44,27,6,8,0.5,0.4
2025-05-27T2000,1128A,125.1761,43.8325,长春市,岱山公园,颗粒物(PM10),67,84,53,37,38,74,,160,148,83,37,4,7,0.5,0.5
2025-05-27T2000,1335A,113.0833,28.2325,长沙市,经开区环保局,细颗粒物(PM2.5),88,68,64,65,44,109,,131,128,20,28,6,6,1.0,1
2025-05-27T2000,1336A,112.8872,28.2189,长沙市,高开区环保局,细颗粒物(PM2.5),79,77,62,58,46,110,,130,126,18,21,7,7,0.8,0.7
2025-05-27T2000,1337A,113.0792,28.2053,长沙市,马坡岭,细颗粒物(PM2.5),90,67,67,67,49,97,,127,122,22,31,6,6,0.7,0.6
2025-05-27T2000,1338A,112.9394,28.19,长沙市,湖南师范大学,细颗粒物(PM2.5),78,78,60,57,40,90,,133,123,23,19,7,8,0.7,0.5
2025-05-27T2000,1339A,113.0178,28.1322,长沙市,雨花区环保局,细颗粒物(PM2.5),75,57,59,55,43,95,,128,120,17,18,6,7,0.7,1.3
2025-05-27T2000,1340A,112.9792,28.2597,长沙市,伍家岭,细颗粒物(PM2.5),93,82,73,69,47,97,,127,123,23,30,5,4,1.0,0.8
2025-05-27T2000,1341A,113.0014,28.1944,长沙市,火车新站,细颗粒物(PM2.5),67,80,65,48,41,98,,122,117,25,24,9,8,0.8,0.7
2025-05-27T2000,1342A,112.9844,28.1178,长沙市,天心区环保局,细颗粒物(PM2.5),67,57,60,48,42,100,,134,125,15,22,4,5,1.0,1
2025-05-27T2000,1343A,112.8908,28.1308,长沙市,湖南中医药大学,,,62,67,47,46,84,,125,114,,39,3,4,0.8,0.8
2025-05-27T2000,1344A,112.9581,28.3611,长沙市,沙坪,颗粒物(PM10),79,107,56,12,38,72,,114,107,19,15,3,4,1.1,0.8
2025-05-27T2000,1727A,113.1147,36.1547,长治市,清华站,臭氧1小时,70,44,55,27,36,176,,200,198,16,24,8,9,0.8,0.8
2025-05-27T2000,1730A,113.0886,36.2125,长治市,审计局,臭氧1小时,85,43,49,29,40,188,,198,198,15,29,9,10,0.6,0.6
2025-05-27T2000,1731A,113.0844,36.1856,长治市,长治八中,臭氧1小时,62,48,62,35,43,169,,186,186,17,26,10,12,0.3,0.4
2025-05-27T2000,2845A,113.1569,36.1911,长治市,德盛苑,臭氧1小时,68,43,47,27,32,174,,185,184,10,13,7,9,0.8,1
2025-05-27T2000,3568A,113.06,36.0464,长治市,向阳小学,细颗粒物(PM2.5),62,63,99,44,43,168,,194,191,21,20,4,5,0.6,0.7
2025-05-27T2000,3569A,112.8792,36.3144,长治市,屯留一中,臭氧1小时,60,43,34,40,30,168,,192,190,18,23,9,9,0.2,0.3
2025-05-27T2000,4189A,113.1131,36.19948,长治市,英华南巷50号,臭氧1小时,72,47,55,31,40,177,,192,191,13,21,8,10,0.8,0.9
2025-05-27T2000,4190A,113.2367,36.3344,长治市,学府街1号,臭氧1小时,73,59,64,31,45,178,,206,202,14,42,2,6,0.6,0.9
2025-05-27T2000,1854A,111.6975,28.9703,常德市,市二中,细颗粒物(PM2.5),64,46,54,46,52,90,,97,94,11,19,5,9,0.7,1
2025-05-27T2000,1857A,111.7158,29.1456,常德市,白鹤山,,,,,,,,,,,,,,,,
2025-05-27T2000,3138A,111.7153,29.0289,常德市,武陵区永安,,,,59,,49,97,,113,108,10,12,7,10,0.7,0.8
2025-05-27T2000,3139A,111.6892,28.9881,常德市,鼎城区玉霞,,45,45,58,31,40,106,,113,109,8,15,3,7,0.7,0.8
2025-05-27T2000,3140A,111.6625,29.0531,常德市,武陵区长庚,,41,41,55,28,41,113,,120,113,6,11,4,8,0.8,0.8
2025-05-27T2000,1196A,119.9633,31.762,常州市,市监测站,,43,43,37,22,21,128,,155,154,27,22,8,7,0.4,0.4
2025-05-27T2000,1200A,119.9468,31.7069,常州市,武进监测站,,42,36,36,19,17,134,,152,152,27,22,6,8,0.7,0.7
2025-05-27T2000,1201A,119.9255,31.9087,常州市,安家,,41,41,47,22,22,130,,154,154,21,25,11,11,0.1,0.2
2025-05-27T2000,3002A,119.9805,31.8174,常州市,行政中心,,40,26,32,16,22,128,,152,152,22,25,6,7,0.4,0.6
2025-05-27T2000,3003A,120.0522,31.7748,常州市,经开区,颗粒物(PM10),68,85,50,21,19,136,,167,166,30,34,4,5,0.5,0.5
2025-05-27T2000,3010A,119.9025,31.7964,常州市,钟楼,,43,39,37,15,17,135,,156,156,20,17,8,8,0.6,0.6
2025-05-27T2000,3429A,119.8598,31.7066,常州市,武进经发区,,44,41,37,22,23,138,,153,153,19,17,8,8,0.8,0.8
2025-05-27T2000,3430A,119.5826,31.7245,常州市,金坛城区,,,,36,,19,141,,154,154,,16,,9,0.4,0.4
2025-05-27T2000,2220A,120.4318,41.5881,朝阳市,西梁,细颗粒物(PM2.5),62,65,55,44,40,157,,146,146,25,29,16,17,0.7,0.7
2025-05-27T2000,2221A,120.4521,41.5646,朝阳市,河畔小区,细颗粒物(PM2.5),57,52,54,40,40,164,,152,152,17,20,14,15,0.7,0.7
2025-05-27T2000,2222A,120.4176,41.5648,朝阳市,八里堡,臭氧1小时,67,68,65,41,41,173,,162,162,19,23,14,16,0.6,0.7
2025-05-27T2000,2223A,120.3806,41.5969,朝阳市,农业园区,细颗粒物(PM2.5),79,62,93,58,53,160,,153,153,22,21,14,17,0.7,0.8
2025-05-27T2000,1705A,116.6367,23.6719,潮州市,西园路,,44,44,37,28,28,110,,131,130,15,12,4,5,0.6,0.6
2025-05-27T2000,3026A,116.6183,23.6608,潮州市,市政府,,49,49,43,26,28,112,,127,126,12,10,3,5,0.8,0.8
2025-05-27T2000,4036A,116.6461,23.6761,潮州市,金山,,44,44,38,26,27,108,,131,130,14,10,8,7,0.7,0.7
2025-05-27T2000,2472A,113.0073,25.9061,郴州市,马头岭,,27,27,38,11,17,49,,57,57,5,12,7,8,0.3,0.4
2025-05-27T2000,2473A,113.0116,25.8226,郴州市,市职中,,35,30,41,24,31,49,,69,65,11,14,1,3,0.7,0.7
2025-05-27T2000,2475A,113.0383,25.8071,郴州市,市审计局,细颗粒物(PM2.5),80,67,39,59,31,66,,73,70,14,12,7,10,0.8,0.8
2025-05-27T2000,2476A,113.0348,25.7759,郴州市,市环保局,细颗粒物(PM2.5),79,,46,58,33,65,,69,68,11,13,2,8,0.1,0.6
2025-05-27T2000,4252A,113.0138,25.8011,郴州市,好美居路49号,,38,27,39,26,29,66,,69,69,11,14,7,10,0.7,0.7
2025-05-27T2000,1431A,103.9728,30.7236,成都市,金泉两河,,25,22,35,17,19,63,,85,70,14,12,2,3,0.4,0.4
2025-05-27T2000,1432A,104.176,30.6872,成都市,十里店,,27,27,43,16,27,70,,81,69,17,18,4,4,0.5,0.5
2025-05-27T2000,1433A,104.079,30.5706,成都市,三瓦窑,,45,37,39,31,27,67,,84,69,15,14,4,5,0.8,0.9
2025-05-27T2000,1434A,104.1114,30.63,成都市,沙河铺,,34,34,44,18,25,48,,68,54,15,16,8,8,0.3,0.3
2025-05-27T2000,1437A,104.0786,30.6531,成都市,君平街,,,41,40,24,25,61,,84,64,20,19,8,8,,0.6
2025-05-27T2000,1438A,103.613,31.0283,成都市,灵岩寺,,,,,,,,,,,,,,,,
2025-05-27T2000,2880A,104.0239,30.65639,成都市,大石西路,,,,40,,27,63,,83,65,,15,,3,0.6,0.6
2025-05-27T2000,3136A,104.2725,30.5589,成都市,龙泉驿区区政府,,25,22,37,17,29,62,,79,64,12,15,4,5,0.6,0.6
2025-05-27T2000,3357A,104.0106,30.6931,成都市,金博路,,43,35,31,30,19,48,,76,61,22,15,8,8,0.6,0.5
2025-05-27T2000,3359A,104.0578,30.5225,成都市,华阳,,,24,32,,31,45,,64,48,21,20,7,7,0.6,0.7
2025-05-27T2000,3488A,104.3853,30.7453,成都市,青白江技师分院,,38,38,58,20,43,68,,83,68,16,16,3,4,0.5,0.6
2025-05-27T2000,3489A,104.0789,30.4072,成都市,科学城,,35,29,45,24,31,72,,84,72,11,14,4,5,0.6,0.6
2025-05-27T2000,4011A,103.8506,30.6947,成都市,光华大道三段,,32,32,37,21,27,56,,90,76,16,11,4,5,0.7,0.7
2025-05-27T2000,4224A,104.2433,30.5353,成都市,鲸龙路1057号,,38,31,54,26,38,55,,76,58,19,18,6,8,0.7,0.7
2025-05-27T2000,1062A,117.9531,40.9081,承德市,铁路,,33,33,29,3,14,86,,125,116,22,19,5,6,0.3,0.5
2025-05-27T2000,1063A,117.9392,40.9763,承德市,中国银行,,28,24,32,11,11,89,,118,117,12,13,3,8,0.3,0.4
2025-05-27T2000,1064A,117.9503,40.928,承德市,开发区,,41,41,40,20,20,90,,119,119,15,16,4,9,0.4,0.5
2025-05-27T2000,1065A,117.8051,40.9655,承德市,文化中心,,40,40,37,22,12,44,,112,103,30,22,3,20,0.3,0.5
2025-05-27T2000,1066A,117.9268,41.0026,承德市,离宫,,30,30,33,17,26,58,,116,110,9,10,2,6,0.4,0.3
2025-05-27T2000,2314A,117.47,30.6618,池州市,池州学院,细颗粒物(PM2.5),58,57,62,41,47,155,,173,173,14,15,6,6,0.7,0.9
2025-05-27T2000,3237A,117.4918,30.6617,池州市,展览馆,颗粒物(PM10),56,61,58,39,41,151,,169,169,11,13,5,5,0.7,0.9
2025-05-27T2000,3333A,117.5627,30.695,池州市,第八中学,细颗粒物(PM2.5),60,67,62,43,44,149,,173,170,13,14,5,6,0.6,0.6
2025-05-27T2000,3334A,117.5038,30.6243,池州市,第十二中学,细颗粒物(PM2.5),62,64,59,44,42,143,,173,172,20,20,4,3,0.7,0.9
2025-05-27T2000,1744A,118.9233,42.2816,赤峰市,松山一中,,37,37,26,12,10,97,,134,131,16,18,4,11,0.4,0.5
2025-05-27T2000,1745A,118.9576,42.2728,赤峰市,哈达街,,34,34,25,16,12,88,,117,116,20,21,10,12,0.4,0.5
2025-05-27T2000,1746A,118.8788,42.2554,赤峰市,天义路,,28,28,20,18,16,87,,132,128,21,13,11,11,0.5,0.5
2025-05-27T2000,3058A,119.2658,42.0353,赤峰市,银河街,颗粒物(PM10),51,52,36,24,19,101,,122,121,13,13,17,31,0.9,0.9
2025-05-27T2000,3286A,118.9359,42.3147,赤峰市,桥北物流园区,,46,37,27,32,19,78,,123,119,24,19,9,13,0.4,0.5
2025-05-27T2000,2521A,107.3476,22.4136,崇左市,市环保局江州分局,颗粒物(PM10),54,57,49,34,31,111,,122,122,9,10,7,8,0.6,0.5
2025-05-27T2000,4256A,107.3750,22.3736,崇左市,石景林东路7号,,45,45,45,31,31,122,,128,128,8,10,4,4,0.8,0.7
2025-05-27T2000,2298A,118.3093,32.3153,滁州市,老年大学,,,62,60,28,45,158,,193,193,,27,1,2,,0.5
2025-05-27T2000,2299A,118.3244,32.2786,滁州市,人大宾馆,颗粒物(PM10),53,55,66,22,44,151,,183,183,21,26,4,5,0.3,0.5
2025-05-27T2000,3207A,118.3118,32.3038,滁州市,市政府原办公楼,臭氧1小时,55,51,59,32,43,164,,197,197,13,18,20,6,0.3,0.4
2025-05-27T2000,3331A,118.3267,32.2634,滁州市,图书馆,,47,47,59,29,46,150,,182,182,16,21,8,9,0.4,0.5
2025-05-27T2000,2605A,101.5482,25.0441,楚雄彝族自治州,州环境监测站,,15,,5,10,4,48,,58,52,5,5,6,6,0.6,0.6
2025-05-27T2000,2606A,101.538,25.0492,楚雄彝族自治州,市经济开发区,,19,19,7,13,5,39,,54,45,10,7,6,6,0.5,0.6
2025-05-27T2000,2548A,107.5277,31.2827,达州市,达州职业技术学院,,39,39,49,12,21,20,,51,44,42,33,5,5,0.3,0.3
2025-05-27T2000,2549A,107.5086,31.2186,达州市,市环境监测站,,31,31,42,14,18,63,,70,68,21,32,5,5,0.3,0.4
2025-05-27T2000,2550A,107.4988,31.2132,达州市,凤凰小区,,31,31,39,19,21,74,,77,75,14,28,6,6,0.4,0.4
2025-05-27T2000,2551A,107.5082,31.1986,达州市,达县机关宾馆,,36,36,44,3,17,58,,68,65,20,39,4,5,0.5,0.5
2025-05-27T2000,2552A,107.4644,31.2124,达州市,市政中心,,46,46,45,12,18,66,,68,65,16,32,2,2,0.4,0.5
2025-05-27T2000,2614A,100.1542,25.7054,大理白族自治州,大理市环境监测站,,14,,4,8,15,42,,54,42,5,10,6,6,0.3,0.4
2025-05-27T2000,2615A,100.2171,25.5811,大理白族自治州,大理古城,,15,,7,9,5,45,,58,57,8,8,7,8,0.4,0.4
2025-05-27T2000,1109A,121.612,38.9741,大连市,甘井子,,43,43,39,29,23,102,,130,114,13,17,6,6,0.4,0.3
2025-05-27T2000,1110A,121.565,38.9511,大连市,周水子,颗粒物(PM10),52,54,53,26,29,93,,131,114,15,16,6,7,0.5,0.4
2025-05-27T2000,1111A,121.5637,38.8845,大连市,星海三站,颗粒物(PM10),52,53,46,35,27,108,,123,117,10,9,3,3,0.5,0.5
2025-05-27T2000,1112A,121.6302,38.9117,大连市,青泥洼桥,颗粒物(PM10),54,58,52,27,27,110,,142,132,8,11,6,7,0.5,0.5
2025-05-27T2000,1113A,121.6251,38.8638,大连市,傅家庄,颗粒物(PM10),53,56,36,32,23,132,,136,124,8,10,5,5,0.3,0.2
2025-05-27T2000,1114A,121.5213,38.8661,大连市,七贤岭,颗粒物(PM10),54,58,47,29,24,120,,136,126,7,9,5,5,0.9,0.8
2025-05-27T2000,1115A,121.2529,38.8061,大连市,旅顺,,42,41,31,29,21,112,,116,111,8,11,2,2,0.4,0.3
2025-05-27T2000,1116A,121.7485,39.1311,大连市,金州,颗粒物(PM10),58,65,50,38,32,120,,154,144,18,23,9,9,0.5,0.4
2025-05-27T2000,1117A,121.7811,39.0496,大连市,开发区,,47,47,46,28,25,103,,128,115,13,18,4,5,0.6,0.5
2025-05-27T2000,1118A,121.9762,39.0631,大连市,双D港,,35,,23,24,19,85,,136,110,6,6,6,6,0.5,0.4
2025-05-27T2000,1789A,124.81117,46.03138,大庆市,大同区,"颗粒物(PM10),细颗粒物(PM2.5)",68,86,60,49,33,125,,145,144,30,21,9,6,0.6,0.6
2025-05-27T2000,1790A,125.129,46.533,大庆市,龙凤区,颗粒物(PM10),55,60,51,30,31,121,,150,148,21,21,7,9,0.5,0.5
2025-05-27T2000,1791A,124.902,46.408,大庆市,红岗区,颗粒物(PM10),51,51,46,23,28,130,,162,160,18,14,9,8,0.5,0.4
2025-05-27T2000,1792A,125.153,46.586,大庆市,萨尔图区,颗粒物(PM10),64,77,62,32,31,112,,136,134,26,23,7,8,0.7,0.6
2025-05-27T2000,1793A,124.9042,46.6215,大庆市,让胡路区,,49,49,43,34,35,130,,152,151,17,17,8,8,0.2,0.2
2025-05-27T2000,3481A,125.141,46.634,大庆市,萨区政府监测点,颗粒物(PM10),54,57,52,24,24,144,,157,157,14,16,7,8,0.5,0.5
2025-05-27T2000,1721A,113.3819,40.1097,大同市,果树场,,,,,,,,,,,,,,,,
2025-05-27T2000,1723A,113.2994,40.0758,大同市,云冈宾馆,,47,29,38,14,18,150,,157,157,17,18,6,7,0.4,0.7
2025-05-27T2000,1724A,113.3444,40.0917,大同市,大同大学,,,,36,,19,153,,161,161,,24,6,16,,0.5
2025-05-27T2000,1725A,113.2661,40.1269,大同市,安家小村,,41,41,35,14,15,123,,152,152,19,14,8,10,0.3,0.8
2025-05-27T2000,1726A,113.2711,40.0844,大同市,教育学院,,47,35,41,26,24,148,,155,155,19,21,7,9,0.2,0.4
2025-05-27T2000,3282A,113.3397,40.0597,大同市,大同市卫生学校,,45,45,34,12,19,134,,147,147,19,20,8,10,0.4,0.6
2025-05-27T2000,3565A,113.1367,40.1122,大同市,云冈站,,38,26,42,11,24,119,,145,143,13,18,7,9,0.3,0.5
2025-05-27T2000,3566A,113.1186,40.2556,大同市,图书馆,,39,26,30,16,20,124,,154,152,23,10,8,8,0.6,0.6
2025-05-27T2000,3567A,113.5931,40.0461,大同市,区一中,,43,15,28,14,15,135,,154,153,25,12,12,12,0.4,0.3
2025-05-27T2000,4199A,113.2798,40.0997,大同市,魏都大道141号,,,,42,,20,148,,150,150,14,19,7,8,0.4,1
2025-05-27T2000,2269A,124.1069,50.4097,大兴安岭地区,科技局,,48,48,37,21,20,91,,105,103,3,5,8,8,0.2,0.2
2025-05-27T2000,3663A,124.1164,50.4278,大兴安岭地区,红旗社区,,29,29,27,13,20,90,,113,109,7,11,5,5,0.3,0.4
2025-05-27T2000,1600A,124.3303,40.0625,丹东市,江湾东路,,45,44,56,31,31,107,,139,137,19,17,16,11,0.7,0.7
2025-05-27T2000,1601A,124.4256,40.1503,丹东市,临江后街,细颗粒物(PM2.5),84,91,47,62,46,94,,131,129,31,23,9,8,0.8,0.6
2025-05-27T2000,1602A,124.3933,40.1461,丹东市,元宝山,,43,43,60,21,26,113,,131,130,17,17,9,9,0.7,0.6
2025-05-27T2000,1603A,124.3633,40.1092,丹东市,民主桥,颗粒物(PM10),51,51,58,21,26,116,,140,137,12,24,8,10,0.6,0.7
2025-05-27T2000,3541A,109.5726,19.5167,儋州市,第一中学子站,,25,25,28,10,14,53,,83,61,3,3,5,4,0.7,0.8
2025-05-27T2000,3542A,109.5567,19.5187,儋州市,东坡学校子站,,19,19,29,12,14,53,,88,62,4,4,5,5,0.5,0.5
2025-05-27T2000,2616A,98.5842,24.428,德宏傣族景颇族自治州,德宏州监测站,,45,45,33,30,25,48,,55,55,26,20,10,9,1.0,0.9
2025-05-27T2000,3677A,98.5881,24.4368,德宏傣族景颇族自治州,芒市人民政府综合楼,颗粒物(PM10),52,54,38,31,22,46,,59,59,20,17,8,8,0.8,0.7
2025-05-27T2000,1901A,104.4239,31.1208,德阳市,东山公园,,21,11,38,11,30,65,,76,67,6,10,3,5,0.8,0.9
2025-05-27T2000,1902A,104.3826,31.1317,德阳市,西小区,,22,17,35,15,28,70,,81,72,12,14,3,5,0.7,0.8
2025-05-27T2000,1904A,104.3553,31.1091,德阳市,耐火材料厂,,23,23,38,16,26,64,,80,70,21,13,5,7,0.5,0.5
2025-05-27T2000,3639A,104.4019,31.1244,德阳市,市教育局,,22,15,40,15,27,66,,85,70,8,9,5,7,0.7,0.8
2025-05-27T2000,1622A,116.3032,37.4674,德州市,儿童乐园,臭氧1小时,112,61,56,31,33,223,,211,211,14,14,8,7,0.6,0.5
2025-05-27T2000,1624A,116.2991,37.4451,德州市,监理站,臭氧1小时,106,56,52,34,34,211,,209,209,13,14,8,6,0.5,0.4
2025-05-27T2000,3066A,116.2721,37.4379,德州市,九衢泉纯净水厂,臭氧1小时,72,58,59,29,33,177,,189,189,25,31,7,6,0.6,0.5
2025-05-27T2000,3371A,116.3728,37.4403,德州市,开发区人民医院,臭氧1小时,106,63,62,31,32,212,,213,213,14,22,8,8,0.6,0.6
2025-05-27T2000,3372A,116.3572,37.4094,德州市,太阳城中学,臭氧1小时,102,66,65,36,36,203,,217,217,21,20,4,5,0.5,0.5
2025-05-27T2000,3511A,116.5652,37.3319,德州市,陵城艺术中心,臭氧1小时,85,70,64,29,34,188,,213,211,29,18,8,11,0.4,0.5
2025-05-27T2000,2621A,99.7056,27.8317,迪庆藏族自治州,迪庆州站,,16,13,16,6,9,51,,59,58,6,7,6,6,0.6,0.6
2025-05-27T2000,3180A,99.7136,27.8094,迪庆藏族自治州,质量技术监督局,,16,15,13,7,6,49,,57,56,9,9,6,5,0.4,0.5
2025-05-27T2000,4257A,104.6092,35.5962,定西市,将台街,,37,31,38,25,21,116,,118,118,6,6,4,4,0.4,0.4
2025-05-27T2000,4309A,104.6159,35.5701,定西市,正龙路62号,,36,28,30,10,22,115,,116,116,7,7,7,6,0.2,0.2
2025-05-27T2000,1389A,113.7547,23.0494,东莞市,莞城梨川,颗粒物(PM10),51,52,51,29,36,115,,181,176,20,16,11,9,0.5,0.5
2025-05-27T2000,1390A,113.7944,23.0128,东莞市,东城石井,,49,49,49,28,34,104,,166,160,23,23,6,5,0.7,0.7
2025-05-27T2000,1391A,113.7383,22.9658,东莞市,南城西平,颗粒物(PM10),53,56,50,36,36,157,,184,183,38,34,4,4,0.7,0.7
2025-05-27T2000,3319A,113.7338,23.0381,东莞市,万江金泰,,43,43,45,26,32,105,,165,160,19,15,4,3,0.6,0.5
2025-05-27T2000,3626A,113.7533,23.0202,东莞市,南城元岭,,46,46,49,26,34,111,,188,181,24,21,8,6,0.8,0.7
2025-05-27T2000,3627A,113.7875,23.0457,东莞市,东城主山,,49,49,52,28,34,109,,172,166,16,15,8,7,0.8,0.8
2025-05-27T2000,1666A,118.6614,37.4309,东营市,市环保局,臭氧1小时,85,53,84,27,37,188,,206,205,20,28,6,10,0.5,0.6
2025-05-27T2000,3036A,118.6904,37.4338,东营市,开发区管委会,臭氧1小时,105,57,66,34,38,210,,234,232,,37,,9,0.5,0.7
2025-05-27T2000,3365A,118.5719,37.565,东营市,垦利区民丰路,臭氧1小时,105,58,57,29,30,210,,226,224,24,28,15,10,0.8,0.9
2025-05-27T2000,3498A,118.5055,37.8612,东营市,河口城区,臭氧1小时,106,63,64,32,30,212,,223,223,21,24,9,10,0.8,0.8
2025-05-27T2000,3646A,118.4978,37.4623,东营市,胜利站,臭氧1小时,100,74,60,31,34,200,,208,208,25,35,10,17,0.7,0.8
2025-05-27T2000,3734A,118.35,37.26,东营市,理想之城,臭氧1小时,102,48,63,31,34,203,,218,217,26,37,5,7,0.6,0.7
2025-05-27T2000,1591A,110.0023,39.8129,鄂尔多斯市,综合楼,臭氧1小时,52,44,54,17,19,161,,172,172,17,20,8,11,0.5,0.6
2025-05-27T2000,1592A,109.9486,39.8261,鄂尔多斯市,巴音孟克林场办事处,臭氧1小时,63,53,54,19,23,170,,184,184,19,21,8,11,0.4,0.5
2025-05-27T2000,1593A,109.7736,39.5986,鄂尔多斯市,康泽苑,,,,62,,26,,,131,,,27,,11,,0.4
2025-05-27T2000,1594A,109.8119,39.5989,鄂尔多斯市,华泰汽车城,臭氧1小时,54,39,52,19,23,163,,170,170,14,26,6,7,0.4,0.4
2025-05-27T2000,1595A,109.9734,39.7884,鄂尔多斯市,奥林花园,,50,46,51,19,23,157,,179,178,20,24,7,8,0.4,0.5
2025-05-27T2000,2436A,114.8938,30.3994,鄂州市,市政府,细颗粒物(PM2.5),69,58,72,50,50,128,,156,151,20,25,7,8,0.5,0.5
2025-05-27T2000,2437A,114.8989,30.3714,鄂州市,赵家坝,细颗粒物(PM2.5),65,65,64,47,42,143,,186,178,23,26,7,8,0.7,0.7
2025-05-27T2000,3654A,114.8094,30.4089,鄂州市,精准医疗中心,细颗粒物(PM2.5),63,62,70,45,47,132,,174,166,13,22,5,6,1.0,1
2025-05-27T2000,2454A,109.4978,30.2981,恩施土家族苗族自治州,湖北民院,,42,42,40,17,25,82,,62,62,4,14,5,6,0.3,0.3
2025-05-27T2000,2455A,109.4707,30.2798,恩施土家族苗族自治州,州电力总公司,,36,36,36,22,25,86,,58,58,5,18,6,6,0.4,0.3
2025-05-27T2000,3549A,109.5061,30.3772,恩施土家族苗族自治州,龙凤新区,,30,28,35,21,25,75,,60,60,4,10,6,6,0.3,0.3
2025-05-27T2000,2499A,108.3411,21.6158,防城港市,沙万,颗粒物(PM10),64,78,53,27,32,92,,128,122,31,14,2,3,0.6,0.5
2025-05-27T2000,2500A,108.3514,21.7731,防城港市,防城档案局,颗粒物(PM10),53,55,67,36,37,112,,130,129,20,19,2,2,0.6,0.6
2025-05-27T2000,2501A,108.3506,21.6414,防城港市,大海花园,,42,42,50,17,25,123,,149,146,17,13,2,4,0.7,0.8
2025-05-27T2000,1371A,113.1294,23.0067,佛山市,湾梁,颗粒物(PM10),54,58,54,26,32,107,,168,168,37,34,8,9,0.8,0.8
2025-05-27T2000,1372A,113.1083,23.0478,佛山市,华材职中,,,53,50,25,33,110,,161,159,,34,5,6,0.6,0.6
2025-05-27T2000,1373A,113.144,23.0453,佛山市,南海气象局,颗粒物(PM10),53,56,51,30,32,100,,148,147,33,29,2,3,0.7,0.7
2025-05-27T2000,1374A,113.2881,22.8094,佛山市,顺德苏岗,臭氧1小时,80,69,58,29,37,184,,208,208,28,36,8,8,0.6,0.7
2025-05-27T2000,1376A,112.8383,22.8678,佛山市,高明孔堂,颗粒物(PM10),68,86,74,42,50,162,,217,217,33,36,6,8,0.8,0.8
2025-05-27T2000,1377A,112.8836,23.1588,佛山市,三水监测站,颗粒物(PM10),54,58,64,37,44,105,,148,145,34,33,4,5,0.7,0.7
2025-05-27T2000,1378A,112.867,23.185,佛山市,三水云东海,颗粒物(PM10),57,64,65,32,46,92,,151,144,30,30,1,2,0.9,1
2025-05-27T2000,3625A,113.2544,22.7642,佛山市,容桂街道办,臭氧1小时,78,61,56,39,37,182,,204,204,28,35,6,7,0.8,0.8
2025-05-27T2000,1280A,119.3903,26.0543,福州市,鼓山,,,,25,,19,,,119,,,8,,2,,0.4
2025-05-27T2000,1282A,119.2681,26.0504,福州市,师大,,36,36,42,13,27,97,,138,128,15,15,6,5,0.3,0.5
2025-05-27T2000,1283A,119.2984,26.1028,福州市,五四北路,,35,24,39,24,28,101,,123,116,9,16,7,5,0.4,0.6
2025-05-27T2000,1284A,119.2648,26.0768,福州市,杨桥西路,,32,28,47,8,29,101,,136,128,9,15,6,4,0.3,0.5
2025-05-27T2000,1285A,119.317,26.0746,福州市,紫阳,,31,28,43,7,29,99,,120,114,12,23,7,6,0.3,0.5
2025-05-27T2000,3048A,119.5799,26.0936,福州市,九龙,,29,20,35,3,27,90,,116,110,5,10,4,6,0.2,0.4
2025-05-27T2000,3526A,119.5189,25.9664,福州市,吴航,,35,13,39,6,27,112,,121,118,8,21,4,5,0.1,0.3
2025-05-27T2000,1755A,123.7977,41.8491,抚顺市,望花区,臭氧1小时,64,60,62,42,33,171,,192,192,28,28,9,10,0.8,0.7
2025-05-27T2000,1756A,123.9161,41.8822,抚顺市,顺城区,颗粒物(PM10),59,67,53,36,29,152,,174,174,29,34,14,11,0.9,0.7
2025-05-27T2000,1757A,124.0436,41.8611,抚顺市,东洲区,颗粒物(PM10),52,54,41,34,21,151,,166,166,24,17,8,9,0.7,0.5
2025-05-27T2000,1758A,123.9247,41.8642,抚顺市,新抚区,颗粒物(PM10),55,59,56,31,23,153,,171,171,22,28,18,9,0.8,0.7
2025-05-27T2000,1759A,124.0972,41.8961,抚顺市,大伙房水库,细颗粒物(PM2.5),52,,33,36,24,131,,152,152,12,17,8,8,0.6,0.5
2025-05-27T2000,1760A,123.7086,41.8391,抚顺市,沈抚新城,臭氧1小时,52,43,49,32,26,161,,194,193,32,28,10,10,0.8,0.8
2025-05-27T2000,2376A,116.2127,28.0814,抚州市,桐源党溪,细颗粒物(PM2.5),57,60,56,40,37,43,,104,90,3,3,4,5,1.0,0.9
2025-05-27T2000,2377A,116.3544,27.9831,抚州市,市站,,48,46,49,33,34,76,,92,90,9,12,17,3,0.7,0.6
2025-05-27T2000,2378A,116.3565,27.963,抚州市,血防站,颗粒物(PM10),53,56,55,35,34,78,,94,93,8,14,5,4,0.3,0.3
2025-05-27T2000,2379A,116.3564,28.0007,抚州市,采茶剧团,,49,49,52,33,34,70,,90,87,12,12,10,4,0.1,0.1
2025-05-27T2000,2380A,116.385,27.9647,抚州市,医学分院,颗粒物(PM10),51,52,53,28,30,80,,94,94,3,14,5,6,0.7,0.8
2025-05-27T2000,2207A,121.6094,41.998,阜新市,工业园区,臭氧1小时,79,69,65,35,41,183,,194,194,19,18,16,18,0.8,0.6
2025-05-27T2000,2208A,121.6697,42.0279,阜新市,长青街,颗粒物(PM10),57,64,65,34,41,157,,176,175,19,18,13,17,0.6,0.6
2025-05-27T2000,2209A,121.6673,42.0705,阜新市,农业园区,,,,55,48,48,172,,,,20,16,13,13,0.8,0.5
2025-05-27T2000,2210A,121.6717,42.0224,阜新市,东苑,臭氧1小时,68,67,64,38,42,174,,187,186,18,18,13,20,0.7,0.7
2025-05-27T2000,2211A,121.6506,42.0498,阜新市,玉龙新城,颗粒物(PM10),105,159,67,41,44,166,,179,178,20,18,13,14,0.9,0.7
2025-05-27T2000,2301A,115.8277,32.8929,阜阳市,市监测站,,,,99,,63,171,,196,194,18,25,8,10,,0.6
2025-05-27T2000,2303A,115.8554,32.8605,阜阳市,开发区,颗粒物(PM10),91,131,120,36,58,186,,200,200,26,28,6,7,0.3,0.4
2025-05-27T2000,2875A,115.784,32.8892,阜阳市,阜阳职业技术学院,臭氧1小时,82,78,88,35,48,185,,209,207,18,20,4,6,0.5,0.6
2025-05-27T2000,3468A,115.7901,32.8613,阜阳市,市规划展馆,臭氧1小时,69,61,95,35,57,175,,207,204,23,18,6,8,0.6,0.7
2025-05-27T2000,3469A,115.836,32.9183,阜阳市,枣园社区,颗粒物(PM10),57,64,101,37,59,154,,195,188,28,22,4,6,0.5,0.5
2025-05-27T2000,2669A,102.9099,34.9841,甘南藏族自治州,州政府,,32,26,30,22,19,96,,103,102,2,8,3,2,0.3,0.3
2025-05-27T2000,3380A,102.8914,34.9617,甘南藏族自治州,甘肃民族师范学院,,34,30,33,12,16,107,,113,113,1,10,8,8,0.3,0.4
2025-05-27T2000,2570A,101.9603,30.0475,甘孜藏族自治州,水桥子,,18,6,7,3,6,49,,86,79,36,18,5,5,0.7,0.6
2025-05-27T2000,3065A,101.9533,29.9972,甘孜藏族自治州,州环保局,,23,12,12,3,5,71,,93,89,28,16,2,2,0.6,0.5
2025-05-27T2000,3414A,115.8347,28.932,赣江新区,桑海产业园,颗粒物(PM10),56,61,65,38,42,117,,165,156,23,32,6,6,0.6,0.7
2025-05-27T2000,2362A,114.9017,25.9149,赣州市,通天岩,,42,42,41,6,8,36,,113,96,6,6,3,4,0.7,0.8
2025-05-27T2000,2363A,114.9367,25.8664,赣州市,地委,,49,49,45,30,27,54,,105,94,16,20,9,4,0.7,0.6
2025-05-27T2000,2364A,114.9461,25.8481,赣州市,气象台,,,,45,,22,53,,108,96,,27,24,9,0.4,0.4
2025-05-27T2000,2365A,114.9322,25.8333,赣州市,市图书馆,细颗粒物(PM2.5),52,38,42,36,29,63,,113,104,13,19,15,6,0.6,0.6
2025-05-27T2000,2366A,114.8905,25.8471,赣州市,华坚鞋城,,47,47,49,32,29,65,,107,100,20,24,4,7,0.4,0.3
2025-05-27T2000,3109A,115.0093,25.8613,赣州市,赣县区卫计委,,50,50,41,30,26,24,,108,90,34,21,2,3,0.5,0.4
2025-05-27T2000,2683A,106.2319,36.1417,固原市,马园,,28,26,38,6,16,88,,127,120,39,28,6,6,0.3,0.4
2025-05-27T2000,2684A,106.2792,36.0022,固原市,监测站,,36,31,26,6,15,114,,126,124,9,12,6,6,0.2,0.3
2025-05-27T2000,2685A,106.2375,36.0211,固原市,新区,,35,20,28,9,17,109,,119,118,13,13,5,5,0.3,0.4
2025-05-27T2000,3522A,106.2177,35.9959,固原市,原州区十五小,,35,13,24,8,14,111,,120,119,11,12,11,11,0.2,0.2
2025-05-27T2000,2543A,106.6308,30.5278,广安市,小平旧居,,,,,,,,,,,,,,,,
2025-05-27T2000,2544A,106.6303,30.4576,广安市,市委,,,,27,22,23,85,,89,89,3,10,,2,0.3,0.4
2025-05-27T2000,2545A,106.6271,30.4663,广安市,友谊中学,,30,,26,13,17,93,,94,94,7,15,4,4,0.8,0.8
2025-05-27T2000,2547A,106.6388,30.4551,广安市,广电花园,,26,,28,12,17,83,,91,91,7,15,5,6,0.4,0.5
2025-05-27T2000,2902A,106.6351,30.4865,广安市,北辰小学,,28,16,28,6,17,88,,89,89,6,13,10,11,0.5,0.6
2025-05-27T2000,2523A,105.8945,32.4535,广元市,黑石坡,,32,32,46,10,20,43,,65,63,4,14,4,6,0.3,0.4
2025-05-27T2000,2524A,105.821,32.4444,广元市,老城,,26,26,33,3,18,70,,87,86,16,12,3,2,0.7,0.7
2025-05-27T2000,2526A,105.8628,32.4287,广元市,监测站,,25,22,24,17,20,76,,84,84,9,11,3,4,0.5,0.5
2025-05-27T2000,3617A,105.8047,32.4166,广元市,经开区,,30,28,36,21,26,63,,86,83,16,19,3,4,0.4,0.4
2025-05-27T2000,1345A,113.2347,23.1423,广州市,广雅中学,,38,38,47,23,32,98,,140,138,24,30,2,3,0.7,0.7
2025-05-27T2000,1346A,113.2612,23.105,广州市,市五中,,41,41,47,25,32,107,,156,155,20,22,3,4,0.7,0.7
2025-05-27T2000,1348A,113.3478,23.0916,广州市,广东商学院,,41,41,49,28,35,89,,158,154,28,33,4,5,0.7,0.8
2025-05-27T2000,1349A,113.4332,23.1047,广州市,市八十六中,,45,45,48,26,30,86,,144,142,31,40,2,4,0,0.5
2025-05-27T2000,1350A,113.3505,22.9483,广州市,番禺中学,,50,50,57,30,37,130,,206,203,41,35,7,8,0.5,0.4
2025-05-27T2000,1351A,113.2146,23.3916,广州市,花都师范,,43,40,48,30,34,98,,124,123,18,21,4,4,0.6,0.6
2025-05-27T2000,1352A,113.2597,23.1331,广州市,市监测站,,38,38,47,19,29,95,,132,131,23,32,5,5,0.6,0.6
2025-05-27T2000,1353A,113.5618,23.312,广州市,九龙镇镇龙,,45,45,39,31,29,82,,109,106,11,10,6,6,0.6,0.5
2025-05-27T2000,1354A,113.2765,23.1544,广州市,麓湖,,,,41,,31,74,,122,119,,35,4,4,0.4,0.6
2025-05-27T2000,1355A,113.443,23.3035,广州市,帽峰山森林公园,,26,23,27,18,26,65,,108,102,16,13,5,5,0.6,0.6
2025-05-27T2000,2846A,113.3221,23.1322,广州市,体育西,,41,41,50,24,35,93,,146,144,20,27,3,4,0.4,0.4
2025-05-27T2000,3298A,113.5717,23.5491,广州市,从化街口,,40,38,43,28,33,60,,105,96,14,18,6,7,0.7,0.7
2025-05-27T2000,3299A,113.3472,23.3692,广州市,白云竹料,细颗粒物(PM2.5),55,53,54,39,39,97,,137,136,19,20,3,3,0.7,0.7
2025-05-27T2000,3300A,113.2981,23.237,广州市,白云嘉禾,,36,36,46,25,34,64,,124,120,42,30,6,7,0.8,0.7
2025-05-27T2000,3301A,113.4256,23.1716,广州市,黄埔科学城,,40,40,44,22,30,68,,125,121,22,19,4,4,0.5,0.5
2025-05-27T2000,3302A,113.3942,23.0483,广州市,番禺大学城,颗粒物(PM10),51,51,55,23,34,105,,191,187,36,41,7,8,0.7,0.8
2025-05-27T2000,3303A,113.4922,22.8168,广州市,南沙黄阁,颗粒物(PM10),54,58,61,19,39,131,,211,208,30,32,7,8,0.8,0.9
2025-05-27T2000,3304A,113.5342,22.7896,广州市,南沙街,颗粒物(PM10),51,51,56,19,38,133,,226,219,26,22,3,4,0.2,0.5
2025-05-27T2000,3443A,113.2902,23.5544,广州市,花都梯面,,43,40,42,30,32,74,,97,96,20,20,6,8,0.6,0.6
2025-05-27T2000,3445A,113.7858,23.7478,广州市,从化良口,,32,26,30,22,26,25,,74,62,12,8,6,6,0.5,0.4
2025-05-27T2000,3446A,113.8051,23.2614,广州市,增城荔城,,36,36,40,25,30,75,,111,104,13,10,8,9,0.5,0.6
2025-05-27T2000,2505A,109.568,23.1478,贵港市,德智高中,,,,,,,,,,,,,,,,
2025-05-27T2000,2506A,109.6047,23.0666,贵港市,江南子站,,,,56,,37,,,75,,,28,,5,,0.8
2025-05-27T2000,2508A,109.5669,23.1065,贵港市,荷城子站,,50,50,48,29,27,97,,110,110,19,18,8,7,0.6,0.5
2025-05-27T2000,3405A,109.5886,23.1172,贵港市,新世纪学校,颗粒物(PM10),51,51,48,35,32,98,,114,113,16,13,6,4,0.6,1
2025-05-27T2000,4260A,109.5933,23.0951,贵港市,中山路155-3号,颗粒物(PM10),53,56,53,33,36,116,,133,133,16,17,5,7,0.5,0.5
2025-05-27T2000,1439A,106.6899,26.5998,贵阳市,马鞍山,,10,7,8,3,1,32,,58,41,14,8,3,3,0.3,0.2
2025-05-27T2000,1441A,106.6243,26.6266,贵阳市,鉴湖路,,17,17,15,3,5,38,,58,45,14,14,7,7,0.3,0.3
2025-05-27T2000,1442A,106.7487,26.6343,贵阳市,燕子冲,,20,14,12,14,11,38,,63,51,15,12,3,3,0.5,0.3
2025-05-27T2000,1443A,106.6555,26.4365,贵阳市,碧云窝,,19,19,14,7,3,44,,68,52,11,11,3,4,0.3,0.3
2025-05-27T2000,1445A,106.7109,26.6027,贵阳市,红边门,,25,,11,17,10,24,,63,42,18,7,8,8,0.5,0.3
2025-05-27T2000,1446A,106.7164,26.5699,贵阳市,新华路,,12,,9,7,3,38,,62,48,13,10,6,7,0.5,0.4
2025-05-27T2000,1447A,106.674,26.5424,贵阳市,太慈桥,,17,17,10,9,4,33,,60,45,16,10,3,3,0.2,0.2
2025-05-27T2000,1552A,106.805,26.3003,贵阳市,桐木岭,,19,14,18,9,8,59,,81,61,1,1,1,1,0.3,0.3
2025-05-27T2000,4230A,106.6882,26.5695,贵阳市,花果园大街66号,,19,14,7,13,10,30,,64,42,16,9,3,3,0.3,0.2
2025-05-27T2000,4231A,106.6873,26.5169,贵阳市,漓江路57号,,14,14,10,3,5,31,,58,44,12,8,2,2,0.3,0.2
2025-05-27T2000,1862A,110.4144,25.3167,桂林市,电子科大尧山校区,,,,,,,,,,,,,,,,
2025-05-27T2000,1864A,110.3089,25.2708,桂林市,龙隐路小学,,20,19,27,13,21,64,,96,92,16,13,9,9,0.6,0.6
2025-05-27T2000,1865A,110.2869,25.2178,桂林市,八中,,33,31,30,23,24,61,,90,84,20,18,10,7,0.7,0.7
2025-05-27T2000,3531A,110.296,25.1253,桂林市,旅游学院,,20,,22,14,19,61,,80,78,14,13,1,3,0.3,0.4
2025-05-27T2000,4222A,110.1835,25.2444,桂林市,环湖路276号,,25,,31,17,26,59,,74,71,8,14,2,12,0.4,0.5
2025-05-27T2000,4301A,110.2803,25.2773,桂林市,信义路13号,,40,28,35,28,30,62,,88,81,17,20,10,8,0.5,0.5
2025-05-27T2000,2674A,100.2561,34.4714,果洛藏族自治州,玛沁县大武镇,,39,24,26,21,17,122,,128,124,2,1,4,15,0.4,0.4
2025-05-27T2000,1129A,126.5422,45.755,哈尔滨市,岭北,臭氧1小时,58,39,30,21,19,166,,163,163,17,16,12,14,0.6,0.6
2025-05-27T2000,1130A,126.561,45.8167,哈尔滨市,松北商大,,49,41,35,23,22,154,,151,151,18,15,8,8,0.6,0.5
2025-05-27T2000,1131A,126.979,45.5419,哈尔滨市,阿城会宁,,36,29,36,18,19,113,,140,135,16,15,6,7,0.4,0.4
2025-05-27T2000,1132A,126.599,45.7222,哈尔滨市,南岗学府路,颗粒物(PM10),61,72,45,38,21,129,,152,152,33,21,8,7,0.7,0.5
2025-05-27T2000,1133A,126.689,45.7733,哈尔滨市,太平宏伟公园,,46,46,45,32,26,147,,156,156,23,18,6,6,0.5,0.4
2025-05-27T2000,1134A,126.635,45.7667,哈尔滨市,道外承德广场,,,50,49,,21,147,,150,150,25,24,8,7,0.7,0.4
2025-05-27T2000,1135A,126.685,45.7319,哈尔滨市,香坊红旗大街,颗粒物(PM10),59,68,44,40,23,137,,149,149,34,25,8,7,0.8,0.7
2025-05-27T2000,1136A,126.6411,45.7258,哈尔滨市,动力和平路,细颗粒物(PM2.5),72,63,44,52,30,134,,141,141,27,24,12,9,0.5,0.6
2025-05-27T2000,1137A,126.593,45.7478,哈尔滨市,道里建国路,,42,34,43,28,24,134,,150,150,37,22,11,11,1.5,1.1
2025-05-27T2000,1138A,126.615,45.61,哈尔滨市,平房东轻厂,,49,35,38,22,22,154,,165,165,15,14,10,11,0.5,0.5
2025-05-27T2000,1139A,126.595,45.9855,哈尔滨市,呼兰师专,颗粒物(PM10),52,54,35,30,24,130,,146,144,32,22,8,7,0.6,0.6
2025-05-27T2000,1140A,126.6206,45.6842,哈尔滨市,省农科院,颗粒物(PM10),58,65,56,31,28,101,,146,142,63,35,7,8,0.7,0.7
2025-05-27T2000,2688A,93.5128,42.8172,哈密市,地区监测站,颗粒物(PM10),72,93,98,6,30,96,,108,107,11,14,3,4,0.1,0
2025-05-27T2000,2689A,93.4961,42.8328,哈密市,哈密师范学校,颗粒物(PM10),58,65,68,20,21,100,,111,110,10,18,4,4,0.3,0.4
2025-05-27T2000,2671A,100.9048,36.9639,海北藏族自治州,海晏县西海镇,,42,22,24,14,15,132,,134,134,3,7,10,7,0.4,0.4
2025-05-27T2000,3867A,102.0738,36.5056,海东市,平安区公安北苑,,44,44,41,21,21,122,,136,135,9,10,16,10,0.5,0.7
2025-05-27T2000,1409A,110.576,19.9507,海口市,东寨港,,26,20,28,13,15,83,,95,83,2,3,4,7,0.5,0.5
2025-05-27T2000,1410A,110.3232,20.0574,海口市,海南大学,,37,37,34,15,19,96,,122,99,3,4,3,3,0.5,0.5
2025-05-27T2000,1411A,110.283,20.0053,海口市,秀英海南医院,,30,30,33,12,15,91,,113,92,4,4,5,4,0.4,0.4
2025-05-27T2000,1412A,110.338,19.9969,海口市,海南师范大学,,32,32,32,13,17,96,,120,97,4,4,4,4,0.4,0.4
2025-05-27T2000,1413A,110.33,20.0356,海口市,龙华路环保局宿舍,,32,32,35,14,18,97,,122,100,4,5,4,4,0.4,0.3
2025-05-27T2000,3539A,110.5111,19.9736,海口市,桂林洋子站,,47,47,34,25,19,90,,110,91,9,7,5,4,0.6,0.4
2025-05-27T2000,2673A,100.6188,36.2866,海南藏族自治州,共和县恰卜恰镇,,42,34,36,11,17,132,,139,139,6,9,10,14,0.5,0.4
2025-05-27T2000,2676A,97.3731,37.3753,海西蒙古族藏族自治州,德令哈市,颗粒物(PM10),56,61,60,14,20,123,,122,122,4,6,9,12,0.6,0.7
2025-05-27T2000,1048A,114.5302,36.6116,邯郸市,东污水处理厂,臭氧1小时,59,48,56,14,20,167,,184,184,17,23,7,6,0.5,0.4
2025-05-27T2000,1049A,114.4918,36.5713,邯郸市,矿院,颗粒物(PM10),51,52,46,22,22,160,,171,171,8,18,6,6,0.4,0.4
2025-05-27T2000,1050A,114.484,36.6133,邯郸市,丛台公园,臭氧1小时,55,47,46,28,26,164,,170,170,12,17,5,5,0.4,0.4
2025-05-27T2000,3458A,114.7895,36.5593,邯郸市,香泉濮院小区,臭氧1小时,69,61,70,28,25,175,,180,180,17,16,4,4,0.4,0.4
2025-05-27T2000,3579A,114.50634,36.77178,邯郸市,永年区实验高中,臭氧1小时,72,61,64,34,39,177,,175,175,15,19,3,5,0.3,0.5
2025-05-27T2000,3580A,114.20016,36.44293,邯郸市,峰峰矿区临水派出所,臭氧1小时,53,39,41,17,18,162,,174,172,9,11,4,9,0.3,0.6
2025-05-27T2000,2634A,106.9893,33.1842,汉中市,汉川机床厂子校,,32,20,27,18,19,102,,110,110,13,8,3,6,0.4,0.5
2025-05-27T2000,2635A,107.0154,33.0706,汉中市,市监测站,,36,,25,25,18,110,,107,107,6,6,5,5,0.7,0.6
2025-05-27T2000,2636A,107.0089,33.1138,汉中市,鑫源开发区,,33,16,23,15,18,105,,101,101,8,9,5,5,0.5,0.5
2025-05-27T2000,2637A,107.007,33.0323,汉中市,南郑大河坎水厂,,32,27,26,19,16,101,,107,107,12,8,5,5,0.6,0.5
2025-05-27T2000,1223A,120.2072,30.2111,杭州市,滨江,,42,42,62,20,31,126,,199,196,32,42,7,9,0.2,0.3
2025-05-27T2000,1224A,120.0633,30.2747,杭州市,西溪,,48,35,54,26,37,151,,201,199,16,23,5,5,0.4,0.4
2025-05-27T2000,1226A,120.3417,30.3150,杭州市,下沙,,37,30,44,16,26,117,,176,171,29,30,7,8,0.3,0.4
2025-05-27T2000,1227A,120.1269,30.2456,杭州市,卧龙桥,,47,45,59,25,36,148,,212,210,15,20,8,9,0.3,0.5
2025-05-27T2000,1228A,120.1903,30.2692,杭州市,浙江农大,,44,44,61,21,32,100,,150,144,35,44,9,11,0.5,0.5
2025-05-27T2000,1230A,120.1197,30.3119,杭州市,和睦小学,,42,34,47,25,32,132,,203,197,20,28,8,9,0.4,0.4
2025-05-27T2000,1231A,120.3019,30.4183,杭州市,临平镇,,42,39,44,23,28,133,,174,172,14,21,6,6,0.5,0.5
2025-05-27T2000,1232A,120.2753,30.1839,杭州市,城厢镇,,40,40,57,27,36,116,,192,184,35,46,9,9,0.5,0.5
2025-05-27T2000,1233A,120.0883,30.1808,杭州市,云栖,,46,43,50,24,30,145,,209,206,25,30,7,7,0.3,0.4
2025-05-27T2000,3557A,119.9464,30.0494,杭州市,镇二中,臭氧1小时,58,54,51,35,41,166,,200,198,26,30,4,4,0.6,0.6
2025-05-27T2000,3558A,119.7183,30.2367,杭州市,市府大楼,臭氧1小时,84,69,63,40,39,187,,220,220,30,27,9,8,0.6,0.7
2025-05-27T2000,3656A,120.1556,30.2864,杭州市,消防大队,,45,45,57,22,33,129,,195,191,28,36,5,6,0.6,0.6
2025-05-27T2000,1270A,117.1959,31.7848,合肥市,明珠广场,臭氧1小时,79,66,71,41,50,183,,185,185,22,23,5,6,0.5,0.6
2025-05-27T2000,1271A,117.3072,31.8764,合肥市,三里街,臭氧1小时,62,70,71,41,45,169,,174,173,24,28,5,6,0.7,0.7
2025-05-27T2000,1272A,117.2588,31.8707,合肥市,琥珀山庄,臭氧1小时,87,68,63,40,47,189,,187,187,19,22,6,5,0.7,0.7
2025-05-27T2000,1273A,117.1604,31.9052,合肥市,董铺水库,臭氧1小时,69,56,72,34,43,175,,173,173,16,24,2,2,0.5,0.6
2025-05-27T2000,1274A,117.25,31.8571,合肥市,长江中路,臭氧1小时,84,75,71,48,48,187,,184,184,20,19,6,6,0.7,0.7
2025-05-27T2000,1275A,117.266,31.9436,合肥市,庐阳区,臭氧1小时,82,66,76,36,49,185,,186,186,15,30,7,7,0.7,0.8
2025-05-27T2000,1276A,117.3453,31.8616,合肥市,瑶海区,颗粒物(PM10),67,83,75,44,50,158,,175,172,33,31,6,7,0.6,0.7
2025-05-27T2000,1277A,117.3027,31.7964,合肥市,包河区,臭氧1小时,84,63,66,44,47,187,,183,183,17,36,4,5,0.6,0.7
2025-05-27T2000,1278A,117.2776,31.7385,合肥市,滨湖新区,臭氧1小时,85,70,67,46,53,188,,184,184,15,16,6,6,0.7,0.7
2025-05-27T2000,1279A,117.1318,31.8403,合肥市,高新区,臭氧1小时,68,58,70,38,51,174,,181,180,18,23,6,6,0.6,0.7
2025-05-27T2000,3464A,117.3803,31.9147,合肥市,高教基地,臭氧1小时,73,70,70,32,42,178,,183,182,18,22,7,6,0.6,0.6
2025-05-27T2000,3614A,79.924,37.0877,和田地区,地区环保局,颗粒物(PM10),135,219,369,53,89,72,,82,82,14,12,1,2,0.6,0.6
2025-05-27T2000,3615A,79.9131,37.113,和田地区,市环保局,细颗粒物(PM2.5),114,171,313,86,94,59,,74,74,10,9,3,2,0.4,0.3
2025-05-27T2000,2516A,108.2011,24.715,河池市,东仁乐园,,,,,,,,,,,,,,,,
2025-05-27T2000,2517A,108.0497,24.6947,河池市,市环保站,,47,47,33,28,21,42,,69,63,13,11,6,8,0.7,0.5
2025-05-27T2000,2518A,108.0983,24.6989,河池市,市疾控中心,,45,35,34,31,23,45,,71,67,17,14,6,7,0.7,0.6
2025-05-27T2000,1696A,114.6778,23.7569,河源市,源西,颗粒物(PM10),58,66,40,27,36,24,,85,78,49,24,5,4,0.7,0.6
2025-05-27T2000,1697A,114.6944,23.7586,河源市,东埔,,30,24,37,21,31,72,,93,92,22,23,4,5,0.6,0.7
2025-05-27T2000,1698A,114.6892,23.7233,河源市,老城,,39,39,37,23,29,47,,88,83,19,18,4,6,0.5,0.5
2025-05-27T2000,1718A,115.4208,35.2464,菏泽市,气象局,臭氧1小时,95,56,66,31,43,196,,215,214,12,16,3,4,0.5,0.5
2025-05-27T2000,3374A,115.5564,35.0891,菏泽市,定陶老年大学,臭氧1小时,65,56,58,27,41,172,,189,187,12,16,5,5,0.2,0.4
2025-05-27T2000,4184A,115.4797,35.24401,菏泽市,永昌路1号,臭氧1小时,79,48,67,34,44,183,,204,202,19,22,5,7,0.3,0.4
2025-05-27T2000,4193A,115.4715,35.2800,菏泽市,长城路999号,臭氧1小时,98,64,62,24,38,198,,208,208,17,19,8,10,0.4,0.4
2025-05-27T2000,2514A,111.5264,24.4172,贺州市,环保小区,细颗粒物(PM2.5),52,40,38,36,29,62,,87,87,14,15,8,9,0.6,0.6
2025-05-27T2000,2515A,111.5608,24.4078,贺州市,政协大楼,,42,38,36,29,25,57,,89,88,16,15,10,13,0.7,0.7
2025-05-27T2000,3534A,111.4744,24.4553,贺州市,西湾,,42,42,43,24,29,56,,82,80,13,16,7,7,0.6,0.7
2025-05-27T2000,2385A,114.17,35.9019,鹤壁市,市监测站,臭氧1小时,72,74,61,40,37,177,,197,194,20,19,3,3,0.6,0.5
2025-05-27T2000,2386A,114.2956,35.7511,鹤壁市,市交警支队,臭氧1小时,69,64,60,49,33,175,,177,176,14,23,6,6,0.5,0.6
2025-05-27T2000,2387A,114.2878,35.7306,鹤壁市,迎宾馆,臭氧1小时,78,61,66,53,41,182,,188,187,18,22,1,4,0.5,0.6
2025-05-27T2000,3474A,114.2617,35.6822,鹤壁市,大新区,细颗粒物(PM2.5),55,52,62,39,39,152,,181,177,19,26,4,6,0.6,0.5
2025-05-27T2000,3596A,114.1572,35.9603,鹤壁市,南山宾馆,细颗粒物(PM2.5),65,74,66,47,43,162,,200,194,26,15,5,6,0.8,0.7
2025-05-27T2000,2244A,130.2537,47.3416,鹤岗市,哈啤分公司,,45,,22,31,25,70,,98,94,20,13,13,13,0.5,0.4
2025-05-27T2000,2245A,130.2684,47.3086,鹤岗市,斯达机电,,49,47,31,34,22,83,,98,97,13,11,13,13,0.5,0.4
2025-05-27T2000,2246A,130.3114,47.3388,鹤岗市,东山纸板厂,颗粒物(PM10),67,84,34,30,19,43,,97,90,36,20,14,14,0.7,0.8
2025-05-27T2000,2247A,130.1097,47.3382,鹤岗市,五号水库,,,,,,,,,,,,,,,,
2025-05-27T2000,2263A,127.4833,50.2524,黑河市,交通局,,35,35,26,17,13,66,,73,72,9,8,5,6,0.3,0.2
2025-05-27T2000,2264A,127.5144,50.2341,黑河市,环保局,颗粒物(PM10),58,66,35,26,16,84,,102,99,18,20,54,11,0.6,0.3
2025-05-27T2000,2265A,127.5291,50.2472,黑河市,大黑河岛,,,38,24,,,100,,106,105,13,6,55,6,0.3,0.2
2025-05-27T2000,1074A,115.6838,37.7541,衡水市,电机北厂,臭氧1小时,70,67,62,39,36,176,,204,203,16,13,5,8,0.4,0.4
2025-05-27T2000,1075A,115.6303,37.7316,衡水市,市监测站,臭氧1小时,77,63,63,38,33,181,,205,203,11,14,8,9,0.4,0.4
2025-05-27T2000,3188A,115.6683,37.7217,衡水市,市城管局,臭氧1小时,69,64,61,36,34,175,,207,204,17,14,1,6,0.4,0.4
2025-05-27T2000,3459A,115.5989,37.5491,衡水市,地表水厂,颗粒物(PM10),60,69,73,26,36,150,,197,192,28,32,8,9,0.4,0.4
2025-05-27T2000,2456A,112.5003,26.9167,衡阳市,原169医院,,46,38,51,32,34,81,,80,80,13,21,3,6,0.8,0.7
2025-05-27T2000,2457A,112.6194,26.9258,衡阳市,衡阳化工总厂,细颗粒物(PM2.5),57,44,58,40,45,74,,74,74,7,19,6,8,0.6,0.6
2025-05-27T2000,2458A,112.6211,26.8956,衡阳市,珠晖区环保局,,48,45,55,33,36,82,,76,76,9,22,7,9,0.8,0.8
2025-05-27T2000,2459A,112.6197,26.8733,衡阳市,市委党校,,43,43,54,29,35,78,,70,70,11,17,4,7,0.6,0.6
2025-05-27T2000,2460A,112.6006,26.8919,衡阳市,市监测站,细颗粒物(PM2.5),57,,52,40,40,75,,72,72,13,21,8,10,0.6,0.6
2025-05-27T2000,2461A,112.5664,26.9056,衡阳市,真空机电公司,,49,34,55,34,38,80,,74,74,11,19,5,6,0.7,0.7
2025-05-27T2000,3399A,112.6703,26.882,衡阳市,师范学院,,49,41,66,34,43,79,,74,74,11,16,8,9,0.8,0.8
2025-05-27T2000,2608A,103.3772,23.3993,红河哈尼族彝族自治州,污水处理厂,,23,23,18,7,10,51,,62,61,9,7,5,5,0.4,0.3
2025-05-27T2000,2609A,103.3861,23.35,红河哈尼族彝族自治州,监测站,,28,28,20,14,13,43,,58,56,10,6,9,9,0.4,0.3
2025-05-27T2000,3038A,103.3758,23.368,红河哈尼族彝族自治州,州图书馆,,17,12,9,10,9,54,,62,62,8,7,3,3,0.3,0.3
2025-05-27T2000,1090A,111.6507,40.7517,呼和浩特市,呼市一监,臭氧1小时,69,34,33,10,13,175,,179,179,6,11,10,10,0.2,0.3
2025-05-27T2000,1091A,111.6572,40.8033,呼和浩特市,小召,臭氧1小时,72,34,30,18,15,177,,180,180,17,22,10,8,1.7,0.8
2025-05-27T2000,1094A,111.7516,40.8369,呼和浩特市,如意水处理厂,臭氧1小时,65,34,31,18,17,172,,178,178,13,24,7,7,0.3,0.3
2025-05-27T2000,1095A,111.7276,40.8062,呼和浩特市,二十九中,,,,,,,,,,,,,,,,
2025-05-27T2000,1096A,111.5512,40.7866,呼和浩特市,工大金川校区,,50,40,35,18,19,158,,181,181,29,31,8,7,0.6,0.6
2025-05-27T2000,1097A,111.717,40.7612,呼和浩特市,化肥厂生活区,臭氧1小时,58,35,32,17,16,166,,185,185,28,21,8,7,0.5,0.6
2025-05-27T2000,3698A,111.5968,40.8178,呼和浩特市,红旗小学,,47,46,35,18,19,149,,184,184,40,30,5,4,0.4,0.5
2025-05-27T2000,3699A,111.6518,40.8389,呼和浩特市,海东办,臭氧1小时,52,34,33,20,23,161,,171,171,21,26,10,9,0.5,0.4
2025-05-27T2000,2192A,119.7594,49.2261,呼伦贝尔市,区环保局,细颗粒物(PM2.5),52,,51,36,37,103,,127,123,20,22,3,4,0.3,0.4
2025-05-27T2000,3061A,119.7512,49.1577,呼伦贝尔市,国华电力东,,45,45,48,27,28,106,,134,130,10,12,2,3,0.2,0.3
2025-05-27T2000,1250A,120.0751,30.8669,湖州市,城西水厂,,46,46,45,24,27,140,,185,183,28,23,7,7,0.4,0.4
2025-05-27T2000,2873A,120.0830,30.8929,湖州市,仁皇山新区,,45,44,41,23,25,141,,180,179,26,21,6,6,0.6,0.6
2025-05-27T2000,2907A,120.1844,30.8596,湖州市,吴兴区站,,40,39,39,21,24,128,,169,166,28,24,8,8,0.3,0.3
2025-05-27T2000,3562A,120.4148,30.8538,湖州市,南浔区站,,42,38,37,19,22,132,,169,166,23,24,5,6,0.4,0.5
2025-05-27T2000,1607A,120.9049,40.7211,葫芦岛市,龙港区,臭氧1小时,102,,58,60,57,203,,179,179,12,14,10,10,0.7,0.6
2025-05-27T2000,1608A,120.8392,40.7514,葫芦岛市,化工街,"细颗粒物(PM2.5),臭氧1小时",73,66,68,53,51,178,,168,168,17,19,9,10,0.8,0.7
2025-05-27T2000,1609A,120.8341,40.7073,葫芦岛市,新区,臭氧1小时,93,,54,64,62,194,,173,173,14,15,8,10,0.8,0.7
2025-05-27T2000,1610A,120.8695,40.7677,葫芦岛市,东城区,细颗粒物(PM2.5),97,,51,72,79,188,,177,177,20,23,7,8,0.8,0.8
2025-05-27T2000,2482A,109.5981,27.5721,怀化市,林科所,,17,7,27,3,15,54,,59,59,6,11,4,5,0.5,0.6
2025-05-27T2000,2483A,109.9453,27.5444,怀化市,河西地税局,,17,6,29,3,18,52,,61,61,10,17,1,2,0.5,0.4
2025-05-27T2000,2484A,109.9781,27.5342,怀化市,市四医院,,18,15,46,12,24,54,,61,61,8,21,3,3,0.8,0.8
2025-05-27T2000,2485A,109.9972,27.5578,怀化市,监测楼,,18,15,32,11,20,55,,64,63,5,14,2,3,0.2,0.2
2025-05-27T2000,2486A,110.0394,27.583,怀化市,市委党校,,,16,27,15,21,52,,60,60,6,14,2,4,,0.5
2025-05-27T2000,1210A,119.036,33.5981,淮安市,钵池山,臭氧1小时,69,53,48,25,32,175,,177,177,18,25,8,8,0.7,0.8
2025-05-27T2000,1211A,119.007,33.575,淮安市,北京南路,臭氧1小时,59,56,51,26,31,167,,175,175,23,22,8,9,0.6,0.7
2025-05-27T2000,1212A,118.989,33.6067,淮安市,市监测站,颗粒物(PM10),52,53,47,27,33,159,,158,158,20,22,11,12,0.9,0.8
2025-05-27T2000,1213A,119.135,33.5039,淮安市,楚州区监测站,细颗粒物(PM2.5),65,61,63,47,47,142,,160,160,21,26,9,10,0.5,0.9
2025-05-27T2000,3426A,118.8755,33.2894,淮安市,新华书店,颗粒物(PM10),55,59,51,31,35,144,,162,162,38,25,10,10,1.0,1.1
2025-05-27T2000,4206A,119.0288,33.6319,淮安市,承德北路606号,臭氧1小时,60,58,71,28,35,168,,170,170,18,27,8,8,0.5,0.6
2025-05-27T2000,2282A,116.8004,33.975,淮北市,监测站,臭氧1小时,88,69,67,33,36,190,,200,198,11,12,6,7,0.7,0.8
2025-05-27T2000,2283A,116.8091,33.9007,淮北市,烈山区政府,臭氧1小时,90,60,51,33,37,192,,205,203,16,15,5,5,0.8,0.8
2025-05-27T2000,3330A,116.8873,33.9836,淮北市,杜集区检察院,臭氧1小时,95,77,68,32,44,196,,199,198,14,17,10,9,0.7,0.8
2025-05-27T2000,4017A,116.7923,33.9535,淮北市,市博物馆,臭氧1小时,103,50,51,33,41,205,,210,210,15,16,6,7,0.6,0.7
2025-05-27T2000,2277A,116.8305,32.7727,淮南市,潘集区政府,颗粒物(PM10),70,89,112,48,69,162,,193,190,21,30,5,7,0.8,0.7
2025-05-27T2000,2279A,116.8569,32.5951,淮南市,谢家集区政府,颗粒物(PM10),75,99,90,45,56,157,,186,183,22,24,6,8,0.4,0.5
2025-05-27T2000,2280A,116.8281,32.633,淮南市,八公山区政府,颗粒物(PM10),70,90,100,44,62,153,,186,182,12,16,5,7,0.4,0.5
2025-05-27T2000,2281A,116.6325,32.6201,淮南市,焦岗湖风景区管理处,,,,,,,,,,,,,,,,
2025-05-27T2000,2894A,117.0566,32.6531,淮南市,经济技术开发区消防队,细颗粒物(PM2.5),87,91,101,64,76,145,,176,173,26,28,7,7,0.6,0.6
2025-05-27T2000,3329A,117.0108,32.5893,淮南市,山南新区,,,108,105,61,70,179,,197,195,,17,8,9,0.5,0.6
2025-05-27T2000,4209A,117.0031,32.6445,淮南市,国庆中路369号,细颗粒物(PM2.5),84,103,98,62,70,162,,184,182,17,17,5,5,0.8,0.8
2025-05-27T2000,2446A,114.9028,30.4742,黄冈市,职工中心,细颗粒物(PM2.5),57,52,57,40,46,152,,183,176,10,9,8,8,0.7,0.8
2025-05-27T2000,2929A,114.8858,30.4519,黄冈市,红卫路,细颗粒物(PM2.5),67,56,60,48,52,134,,184,174,17,11,2,3,0.7,0.7
2025-05-27T2000,3398A,114.9136,30.4445,黄冈市,市林业局,颗粒物(PM10),59,67,66,32,49,135,,180,170,21,15,7,9,0.8,1
2025-05-27T2000,2672A,102.0199,35.5102,黄南藏族自治州,同仁县隆务镇,颗粒物(PM10),52,54,34,11,14,121,,123,123,6,4,4,4,0.2,0.1
2025-05-27T2000,2295A,118.2903,29.6963,黄山市,延安路89号,细颗粒物(PM2.5),59,57,44,42,32,92,,139,127,14,10,6,5,0.4,0.4
2025-05-27T2000,2297A,118.1371,30.2756,黄山市,黄山区政府5号楼,细颗粒物(PM2.5),73,84,43,53,32,81,,130,124,10,6,4,3,0.6,0.3
2025-05-27T2000,4210A,118.3354,29.7203,黄山市,滨江东路7-2号,,49,45,51,34,32,90,,143,134,17,9,5,5,0.4,0.3
2025-05-27T2000,2423A,115.0601,30.2313,黄石市,沈家营,细颗粒物(PM2.5),65,63,52,47,45,155,,182,179,12,24,7,8,0.9,0.9
2025-05-27T2000,2426A,114.8988,30.2019,黄石市,铁山,,,,59,,41,,,147,,,11,,5,,0.5
2025-05-27T2000,2427A,115.0307,30.2092,黄石市,团城山,臭氧1小时,75,66,63,43,40,180,,194,193,4,15,10,10,0.6,0.7
2025-05-27T2000,3149A,115.0235,30.1578,黄石市,笔架山北路,细颗粒物(PM2.5),60,58,54,43,37,157,,184,181,10,12,8,11,0.7,0.8
2025-05-27T2000,4185A,115.0780,30.21118,黄石市,磁湖东路29号,细颗粒物(PM2.5),75,67,72,55,50,166,,181,179,4,27,6,9,0.3,0.5
2025-05-27T2000,1392A,114.4183,23.0528,惠州市,河南岸金山湖子站,,35,35,40,22,29,112,,123,123,17,14,8,9,0.6,0.7
2025-05-27T2000,1393A,114.4053,23.0822,惠州市,下埔横江三路子站,,41,41,44,24,31,131,,129,129,14,13,6,7,0.5,0.5
2025-05-27T2000,1394A,114.4103,23.1142,惠州市,江北云山西路子站,,43,43,43,23,29,122,,128,127,15,12,9,8,0.0,0.4
2025-05-27T2000,1395A,114.4645,22.7833,惠州市,惠阳区承修路船湖子站,,37,36,46,20,28,117,,147,144,20,16,9,12,0.6,0.6
2025-05-27T2000,1396A,114.5317,22.7422,惠州市,大亚湾管委会子站,,40,33,43,16,28,126,,141,141,9,5,8,9,0.5,0.6
2025-05-27T2000,3314A,114.4338,22.8134,惠州市,惠阳秋长,,44,44,45,19,29,140,,179,176,21,16,23,14,0.5,0.6
2025-05-27T2000,3452A,114.6517,22.775,惠州市,大亚湾霞涌,,41,24,42,15,26,130,,140,140,9,13,7,8,0.6,0.6
2025-05-27T2000,2240A,130.9762,45.3001,鸡西市,环保局,,40,40,26,22,15,61,,132,120,46,14,5,6,0.7,0.4
2025-05-27T2000,2243A,130.9429,45.3039,鸡西市,第一中学,,34,25,20,18,12,108,,124,122,10,7,7,6,0.4,0.6
2025-05-27T2000,3707A,131.0207,45.3073,鸡西市,欧美日汽修厂,颗粒物(PM10),60,69,31,38,17,48,,122,112,42,15,8,6,0.5,0.4
2025-05-27T2000,3709A,130.9967,45.3106,鸡西市,市政设施管理处,,40,40,29,26,16,59,,120,111,34,17,6,5,0.5,0.4
2025-05-27T2000,2367A,114.9754,27.0803,吉安市,红声器材厂,颗粒物(PM10),51,51,55,31,35,82,,123,118,20,16,11,15,0.6,0.6
2025-05-27T2000,2368A,114.9658,27.0999,吉安市,市森林工业局,颗粒物(PM10),55,60,57,37,40,85,,122,112,16,14,6,11,0.5,0.5
2025-05-27T2000,2369A,114.99,27.1312,吉安市,市环境监测站,,39,38,44,27,33,101,,125,120,6,10,13,17,0.6,0.7
2025-05-27T2000,2370A,115.0093,27.0968,吉安市,青原区法院,细颗粒物(PM2.5),64,68,54,46,37,44,,134,116,45,16,5,8,0.5,0.4
2025-05-27T2000,1772A,126.54,43.8622,吉林市,哈达湾,颗粒物(PM10),61,72,42,34,22,133,,167,163,30,16,8,7,0.5,0.4
2025-05-27T2000,1773A,126.5844,43.8358,吉林市,东局子,,,,33,,23,119,,162,154,34,17,6,6,,0.8
2025-05-27T2000,1774A,126.5052,43.8245,吉林市,电力学院,细颗粒物(PM2.5),72,68,48,52,32,81,,164,154,36,24,7,5,0.7,0.6
2025-05-27T2000,1775A,126.6133,43.8972,吉林市,江北,颗粒物(PM10),54,57,43,28,22,114,,166,158,24,16,9,8,0.7,0.6
2025-05-27T2000,1776A,126.555,43.8306,吉林市,江南公园,颗粒物(PM10),57,64,36,39,26,107,,155,148,39,14,6,6,0.7,0.5
2025-05-27T2000,1778A,126.7061,43.7133,吉林市,丰满,,,,,,,,,,,,,,,,
2025-05-27T2000,2868A,126.4739,43.953,吉林市,九站,颗粒物(PM10),60,70,49,38,28,69,,174,162,88,32,6,9,0.5,0.4
2025-05-27T2000,1299A,116.9862,36.6114,济南市,科干所,臭氧1小时,102,51,45,27,28,203,,224,224,15,14,4,5,0.2,0.2
2025-05-27T2000,1300A,116.9376,36.665,济南市,农科所,臭氧1小时,70,51,52,24,27,176,,218,215,19,18,7,7,0.3,0.3
2025-05-27T2000,1301A,117.1265,36.6734,济南市,开发区,臭氧1小时,87,68,49,37,29,189,,202,202,24,12,8,7,0.8,0.7
2025-05-27T2000,1303A,117.0624,36.6868,济南市,省种子仓库,臭氧1小时,108,75,58,31,29,215,,228,228,29,19,4,5,0.5,0.5
2025-05-27T2000,1304A,116.9489,36.6447,济南市,机床二厂,臭氧1小时,65,56,62,27,30,172,,208,206,28,24,4,5,0.6,0.6
2025-05-27T2000,1305A,117.0495,36.663,济南市,市监测站,臭氧1小时,100,68,48,29,28,200,,211,211,31,14,8,8,0.7,0.6
2025-05-27T2000,1306A,116.7675,36.5484,济南市,长清党校,臭氧1小时,73,56,46,37,31,178,,203,201,22,15,5,6,0.6,0.6
2025-05-27T2000,1616A,117.6795,36.229,济南市,技术学院,臭氧1小时,99,51,45,41,33,199,,196,196,24,31,10,11,0.6,0.7
2025-05-27T2000,1961A,117.532,36.6868,济南市,东山小学,臭氧1小时,88,68,47,32,28,190,,207,207,22,12,6,5,0.9,0.8
2025-05-27T2000,3059A,117.7161,36.2049,济南市,泰兴公司,臭氧1小时,83,56,47,51,31,186,,196,196,28,35,5,6,0.5,0.6
2025-05-27T2000,3064A,117.6867,36.2171,济南市,莱芜战役纪念馆,臭氧1小时,104,66,52,42,36,207,,206,206,19,28,7,7,1.0,1.2
2025-05-27T2000,3494A,117.1673,36.9782,济南市,济阳区政府,臭氧1小时,85,68,81,29,32,188,,218,215,21,37,7,9,0.6,0.5
2025-05-27T2000,3495A,117.1171,36.63,济南市,锦屏中学,臭氧1小时,78,42,39,24,25,182,,191,191,14,11,9,9,0.7,0.6
2025-05-27T2000,3682A,116.9814,36.6819,济南市,济南四建,臭氧1小时,105,58,52,29,32,209,,236,236,25,17,4,5,0.9,0.9
2025-05-27T2000,1653A,116.6251,35.4302,济宁市,火炬城,臭氧1小时,98,60,67,34,43,198,,212,211,10,14,5,7,0.4,0.6
2025-05-27T2000,1655A,116.5491,35.4042,济宁市,电化厂,臭氧1小时,78,60,61,31,34,182,,197,196,12,10,1,3,0.6,0.6
2025-05-27T2000,3500A,116.5814,35.3707,济宁市,北湖一中,臭氧1小时,98,60,60,43,43,198,,209,208,7,12,4,5,0.6,0.5
2025-05-27T2000,3501A,116.8249,35.5593,济宁市,服务中心,臭氧1小时,89,61,63,31,33,191,,206,205,18,27,2,2,0.3,0.4
2025-05-27T2000,3678A,116.5907,35.4054,济宁市,市第七中学,臭氧1小时,83,56,56,34,40,186,,201,200,10,11,7,8,0.5,0.5
2025-05-27T2000,2255A,130.2751,46.8028,佳木斯市,佳纺,,38,38,22,14,10,86,,110,104,16,8,4,4,0.3,0.3
2025-05-27T2000,2256A,130.3995,46.8307,佳木斯市,发电厂,,32,32,18,17,12,95,,116,110,16,14,4,4,0.5,0.4
2025-05-27T2000,2257A,130.3258,46.7975,佳木斯市,环保局,,31,31,21,10,13,81,,109,102,20,8,3,3,0.3,0.2
2025-05-27T2000,2258A,130.3648,46.8032,佳木斯市,十一中,,36,36,21,17,13,90,,109,103,21,14,3,3,0.5,0.4
2025-05-27T2000,2259A,130.3794,46.7588,佳木斯市,四丰,,,25,13,9,8,,,,,11,6,1,1,0.5,0.4
2025-05-27T2000,1252A,120.7436,30.778,嘉兴市,清河小学,,37,37,30,19,15,118,,145,144,16,19,6,7,0.6,0.6
2025-05-27T2000,1253A,120.726,30.7478,嘉兴市,嘉兴学院,,40,32,32,20,17,126,,157,154,20,19,6,6,0.6,0.6
2025-05-27T2000,2872A,120.7846,30.7525,嘉兴市,南湖区残联,,40,38,28,22,16,125,,157,154,17,15,8,7,0.4,0.4
2025-05-27T2000,3407A,120.6916,30.7739,嘉兴市,秀洲住建,,39,35,28,20,13,124,,161,158,18,16,8,7,0.4,0.4
2025-05-27T2000,1945A,98.2908,39.7711,嘉峪关市,气象局,,45,34,34,14,11,144,,152,152,8,17,7,5,0.1,0.2
2025-05-27T2000,2884A,98.2672,39.7978,嘉峪关市,酒钢宾馆,,43,31,40,12,12,135,,144,144,12,13,15,13,0.7,0.6
2025-05-27T2000,3248A,98.2643,39.7724,嘉峪关市,雄关区,,44,39,34,9,12,138,,148,148,10,20,11,10,0.3,0.2
2025-05-27T2000,1383A,113.1064,22.6058,江门市,北街,臭氧1小时,53,45,61,25,39,162,,200,199,21,36,4,4,0.6,0.6
2025-05-27T2000,1384A,113.0731,22.5835,江门市,西区,臭氧1小时,54,55,59,29,34,163,,197,197,23,34,8,8,0.5,0.6
2025-05-27T2000,1385A,113.0219,22.5311,江门市,圭峰西,,49,45,58,27,41,155,,164,164,18,25,5,5,0.6,0.6
2025-05-27T2000,1386A,113.0828,22.5947,江门市,东湖,臭氧1小时,53,49,61,32,40,162,,189,189,14,17,9,9,0.6,0.6
2025-05-27T2000,3311A,113.1075,22.5647,江门市,江海富民,臭氧1小时,57,53,67,25,34,165,,186,186,19,33,9,10,0.6,0.7
2025-05-27T2000,3449A,113.05,22.4667,江门市,新会银湖,,48,48,67,24,38,146,,156,156,17,30,3,3,0.5,0.6
2025-05-27T2000,1830A,113.1992,35.2590,焦作市,影视城,,,,35,,22,,,,,,10,,10,,0.5
2025-05-27T2000,3169A,113.2725,35.2067,焦作市,太极体育中心,臭氧1小时,78,87,78,39,38,182,,198,198,15,18,4,10,0.3,0.3
2025-05-27T2000,3335A,113.3137,35.2641,焦作市,马村街道办,臭氧1小时,83,89,76,46,46,186,,214,213,25,20,20,12,0.6,0.7
2025-05-27T2000,3336A,113.2465,35.2373,焦作市,焦作技师学院,,,99,60,36,33,179,,200,200,13,13,8,7,,0.4
2025-05-27T2000,3477A,113.1656,35.2539,焦作市,中站许衡医院,颗粒物(PM10),86,122,67,44,34,172,,198,197,27,19,7,7,0.6,0.5
2025-05-27T2000,3981A,113.2449,35.1803,焦作市,原李万街道办,,,84,69,39,32,181,,203,203,22,19,,17,0.6,0.6
2025-05-27T2000,4264A,113.2340,35.2190,焦作市,新安路1731号,臭氧1小时,70,75,71,39,36,176,,189,189,13,13,6,8,0.5,0.5
2025-05-27T2000,1708A,116.3701,23.5345,揭阳市,新兴,,40,39,45,28,34,116,,133,130,12,18,5,9,0.6,0.6
2025-05-27T2000,1709A,116.3264,23.5443,揭阳市,西马,,49,49,48,26,35,109,,138,134,17,18,7,8,0.7,0.8
2025-05-27T2000,1710A,116.3611,23.5626,揭阳市,东兴,,37,37,50,25,33,116,,138,135,14,18,5,7,0.7,0.8
2025-05-27T2000,1711A,116.4151,23.5294,揭阳市,渔湖,,38,38,47,16,26,112,,140,137,19,20,2,6,0.7,0.7
2025-05-27T2000,3320A,116.403,23.5699,揭阳市,曲溪,,,,48,,33,122,,144,142,13,20,6,11,0.4,0.5
2025-05-27T2000,1944A,102.1692,38.5167,金昌市,天庆家园,,47,34,56,10,20,148,,153,153,9,16,3,21,0.7,0.8
2025-05-27T2000,4022A,102.1647,38.5371,金昌市,金川区人防中心,,48,43,64,13,23,152,,166,165,14,15,29,23,0.6,0.7
2025-05-27T2000,4239A,102.1930,38.5319,金昌市,长春路96号,,50,34,62,10,23,159,,158,158,5,12,33,19,0.4,0.6
2025-05-27T2000,1262A,119.647,29.077,金华市,十五中,颗粒物(PM10),54,57,64,34,44,154,,195,192,33,29,6,3,0.7,0.7
2025-05-27T2000,1263A,119.686,29.1029,金华市,监测站,"颗粒物(PM10),细颗粒物(PM2.5)",58,65,66,41,44,140,,200,194,40,34,4,3,0.6,0.6
2025-05-27T2000,3659A,119.656,29.1131,金华市,气象局,颗粒物(PM10),59,67,64,36,39,122,,172,167,40,34,3,3,0.6,0.6
2025-05-27T2000,1767A,121.1115,41.0879,锦州市,南山,细颗粒物(PM2.5),113,,57,85,70,189,,181,181,24,18,9,14,0.9,0.9
2025-05-27T2000,1768A,121.0604,40.8428,锦州市,开发区,臭氧1小时,93,69,62,66,63,194,,184,184,26,22,8,9,0.9,0.8
2025-05-27T2000,1769A,121.1836,41.1119,锦州市,百股街道,臭氧1小时,93,,55,63,52,194,,189,189,19,16,11,11,0.8,0.7
2025-05-27T2000,1770A,121.1178,41.1222,锦州市,天安街道,细颗粒物(PM2.5),115,,61,87,73,194,,186,186,26,19,9,14,0.9,0.9
2025-05-27T2000,1771A,121.1303,41.1386,锦州市,北湖公园,细颗粒物(PM2.5),113,,68,85,68,194,,184,184,22,17,10,16,0.9,0.9
2025-05-27T2000,2160A,112.85,35.5051,晋城市,自来水公司,臭氧1小时,106,60,71,36,34,211,,206,206,15,23,1,2,0.3,0.4
2025-05-27T2000,2161A,112.8318,35.4936,晋城市,白云商贸,臭氧1小时,90,74,79,27,28,192,,194,194,20,23,8,8,0.5,0.7
2025-05-27T2000,2162A,112.8508,35.4887,晋城市,市环保局,臭氧1小时,74,91,80,36,33,179,,179,179,16,23,6,6,0.4,0.5
2025-05-27T2000,2163A,112.8676,35.4897,晋城市,技术学院,臭氧1小时,106,97,73,27,29,211,,207,207,19,25,9,9,0.5,0.6
2025-05-27T2000,2165A,112.8453,35.546,晋城市,白马寺,臭氧1小时,106,50,49,31,33,212,,202,202,10,9,6,6,0.5,0.5
2025-05-27T2000,3620A,112.8271,35.4828,晋城市,泽州一中,臭氧1小时,100,59,62,31,35,200,,202,202,21,26,11,11,0.5,0.6
2025-05-27T2000,2173A,112.7249,37.7067,晋中市,南都小区,臭氧1小时,68,46,51,22,27,174,,197,196,9,20,6,7,0.3,0.3
2025-05-27T2000,2174A,112.6991,37.6982,晋中市,榆次区政府,,50,36,46,22,20,158,,189,187,14,23,9,8,0.6,0.2
2025-05-27T2000,2865A,112.7195,37.6828,晋中市,榆次三中,,49,48,47,17,23,155,,186,183,16,22,5,6,0.3,0.4
2025-05-27T2000,4200A,112.7478,37.6954,晋中市,迎宾街26号,,50,44,45,19,25,157,,180,179,12,20,5,6,0.7,0.6
2025-05-27T2000,2439A,112.2014,31.0481,荆门市,竹园小学,细颗粒物(PM2.5),69,76,75,50,55,160,,176,174,13,16,6,8,0.7,0.6
2025-05-27T2000,2440A,112.1969,30.9891,荆门市,掇刀,细颗粒物(PM2.5),73,81,75,53,59,154,,170,169,9,12,7,10,0.7,0.7
2025-05-27T2000,2441A,112.2213,31.0386,荆门市,石化一小,细颗粒物(PM2.5),68,75,77,49,54,145,,169,166,12,18,11,11,0,0.1
2025-05-27T2000,3012A,112.1849,31.0362,荆门市,西山林语,细颗粒物(PM2.5),63,55,58,45,50,107,,156,147,13,10,9,10,0.4,0.4
2025-05-27T2000,3547A,112.1632,31.0138,荆门市,龙泉中学南校,细颗粒物(PM2.5),58,48,55,41,42,106,,150,135,8,10,5,5,0.9,0.9
2025-05-27T2000,1844A,112.2494,30.3197,荆州市,市图书馆,细颗粒物(PM2.5),53,50,46,37,38,118,,157,147,21,21,4,6,1.0,0.8
2025-05-27T2000,1845A,112.2008,30.3544,荆州市,市委党校,细颗粒物(PM2.5),64,61,52,46,39,104,,143,132,10,16,8,9,1.0,0.9
2025-05-27T2000,3194A,112.2747,30.3122,荆州市,管委会,,,,47,,39,110,,149,141,18,20,8,11,0.9,0.8
2025-05-27T2000,4268A,112.1722,30.3366,荆州市,学苑路85号,细颗粒物(PM2.5),74,62,42,54,42,114,,158,145,19,25,4,6,0.7,0.5
2025-05-27T2000,2342A,117.3102,29.3867,景德镇市,王港中学,,,,,,,,,,,,,,,,
2025-05-27T2000,2343A,117.2117,29.2933,景德镇市,老干部活动中心,颗粒物(PM10),52,53,45,33,34,101,,165,157,14,14,10,8,0.4,0.6
2025-05-27T2000,2344A,117.1894,29.2789,景德镇市,兽医站,颗粒物(PM10),55,60,60,37,37,91,,163,154,26,14,6,5,0.7,0.7
2025-05-27T2000,2345A,117.1547,29.2617,景德镇市,台达陶瓷,细颗粒物(PM2.5),59,63,67,42,43,88,,159,149,35,28,55,30,0.9,1
2025-05-27T2000,2346A,117.2461,29.2956,景德镇市,陶研所,细颗粒物(PM2.5),59,57,44,42,37,98,,155,143,12,10,2,2,0.5,0.6
2025-05-27T2000,1803A,115.9872,29.6815,九江市,十里,,46,42,53,32,47,123,,154,144,9,19,3,5,0.7,0.7
2025-05-27T2000,1804A,115.9584,29.7046,九江市,茅山头,颗粒物(PM10),51,51,61,30,48,127,,174,167,15,21,4,6,0.6,0.6
2025-05-27T2000,1805A,115.9877,29.7295,九江市,西园,,46,44,58,32,44,137,,160,155,19,33,5,7,0.6,0.7
2025-05-27T2000,1808A,115.9114,29.6038,九江市,综合工业园,,,52,57,43,42,100,,170,157,36,29,,18,0.7,0.7
2025-05-27T2000,1809A,116.0721,29.7535,九江市,石化总厂,细颗粒物(PM2.5),69,66,61,50,55,125,,152,150,21,17,4,4,0.8,0.8
2025-05-27T2000,1810A,115.9773,29.5698,九江市,庐山气象台,,42,39,45,29,35,122,,136,130,5,6,7,6,0.8,0.7
2025-05-27T2000,3190A,116.0254,29.6994,九江市,外国语学校,,50,40,53,35,45,135,,142,142,9,21,10,12,0.9,0.9
2025-05-27T2000,4253A,116.0102,29.6594,九江市,莲花大道8号,,49,41,51,34,39,121,,145,141,4,8,5,6,0.6,0.7
2025-05-27T2000,4240A,98.4958,39.7339,酒泉市,玉门东路5号,,43,41,53,30,24,132,,142,142,6,15,40,19,0.5,0.4
2025-05-27T2000,4241A,98.5099,39.7506,酒泉市,北大街108号,,44,29,37,16,18,140,,155,155,11,14,11,20,0.3,0.3
2025-05-27T2000,2698A,76.0072,39.4467,喀什地区,巡警大队,颗粒物(PM10),85,119,83,3,17,104,,116,116,14,21,5,6,0.2,0.3
2025-05-27T2000,2699A,75.9755,39.4694,喀什地区,吾办,颗粒物(PM10),88,125,87,47,31,98,,106,106,9,16,8,10,0.1,0.1
2025-05-27T2000,4027A,75.9483,39.4689,喀什地区,老干局,颗粒物(PM10),127,204,75,30,18,96,,99,99,,12,8,7,0.6,0.3
2025-05-27T2000,1824A,114.3389,34.7781,开封市,肿瘤医院,颗粒物(PM10),59,68,81,36,45,154,,200,196,25,19,8,8,0.7,0.6
2025-05-27T2000,1826A,114.2885,34.7965,开封市,世纪星幼儿园,颗粒物(PM10),60,69,81,22,56,166,,221,217,37,23,9,9,0.8,0.8
2025-05-27T2000,3147A,114.3438,34.8106,开封市,龙亭公园,,50,50,83,21,49,151,,100,,35,27,7,6,0.8,0.9
2025-05-27T2000,3210A,114.3644,34.7964,开封市,汴京公园,颗粒物(PM10),64,78,92,36,56,163,,201,198,25,22,12,8,0.9,1
2025-05-27T2000,3473A,114.2485,34.8306,开封市,技师学院,,,51,70,43,50,164,,206,203,22,14,7,8,,1
2025-05-27T2000,3592A,114.4644,34.7556,开封市,祥符区生态环境局,颗粒物(PM10),56,62,66,24,42,137,,192,184,43,30,7,8,0.5,0.6
2025-05-27T2000,1951A,84.895,45.6094,克拉玛依市,长征新村,,26,,8,9,6,81,,102,88,3,4,5,6,0.2,0.1
2025-05-27T2000,1952A,84.8988,45.5893,克拉玛依市,南林小区,,25,13,17,12,8,78,,87,84,1,2,11,11,0.3,0.2
2025-05-27T2000,1954A,84.905,44.3396,克拉玛依市,独山子区,,28,18,22,14,11,87,,89,89,6,5,6,6,0.3,0.3
2025-05-27T2000,1955A,85.6979,46.098,克拉玛依市,乌尔禾区商贸楼,,26,21,26,6,6,83,,89,88,1,1,2,2,0.2,0.2
2025-05-27T2000,3612A,85.1045,45.6899,克拉玛依市,白碱滩区新站,,30,30,39,16,19,88,,116,95,1,3,12,12,0,0
2025-05-27T2000,2697A,76.1454,39.7142,克孜勒苏柯尔克孜自治州,市人民政府,颗粒物(PM10),81,112,60,20,22,107,,115,115,8,8,8,12,0.5,0.4
2025-05-27T2000,3665A,76.1658,39.7157,克孜勒苏柯尔克孜自治州,克州文化中心,颗粒物(PM10),55,59,67,22,22,116,,119,119,2,6,8,12,0.3,0.3
2025-05-27T2000,1450A,102.8204,24.8886,昆明市,呈贡新区,,26,26,20,10,8,47,,59,58,11,16,5,5,0.5,0.5
2025-05-27T2000,1451A,102.6251,24.9608,昆明市,西山森林公园,,,,,,,,,,,,,,,,
2025-05-27T2000,1452A,102.7252,25.0902,昆明市,龙泉镇,,20,20,12,6,10,35,,43,41,13,15,1,2,0.4,0.4
2025-05-27T2000,1453A,102.7266,25.0375,昆明市,东风东路,,22,18,15,15,11,32,,49,46,28,19,7,6,0.5,0.5
2025-05-27T2000,1454A,102.6742,25.0669,昆明市,金鼎山,,12,12,16,3,5,36,,44,44,18,18,2,1,0.4,0.4
2025-05-27T2000,1455A,102.6644,25.0401,昆明市,碧鸡广场,,18,12,12,12,5,39,,47,47,17,18,6,6,0.5,0.5
2025-05-27T2000,3179A,102.7494,25.0119,昆明市,官渡区博物馆,,15,10,13,3,5,45,,54,53,13,13,6,6,0.3,0.5
2025-05-27T2000,3375A,102.8017,24.8336,昆明市,青年创业园,,14,7,8,6,7,43,,60,58,14,14,10,8,0.3,0.5
2025-05-27T2000,3550A,102.7997,24.9786,昆明市,昆明学院,,16,8,10,3,7,50,,55,55,10,14,4,5,0.2,0.2
2025-05-27T2000,3551A,102.5967,24.6736,昆明市,晋宁区生态环境分局,,15,15,15,3,7,47,,55,54,7,8,4,4,0.5,0.6
2025-05-27T2000,3552A,102.6678,24.9856,昆明市,云天化总部,,14,6,8,3,6,42,,46,46,8,10,4,3,0.3,0.3
2025-05-27T2000,1456A,91.1319,29.6514,拉萨市,八廓街,,34,12,13,12,9,106,,115,115,19,11,7,6,0.3,0.3
2025-05-27T2000,1457A,91.1221,29.6747,拉萨市,市环保局,,,11,15,8,8,98,,104,104,19,14,,4,0.3,0.2
2025-05-27T2000,1458A,91.0874,29.6475,拉萨市,区监测站,,34,16,12,3,7,106,,112,111,20,16,6,6,0.2,0.3
2025-05-27T2000,1459A,91.1774,29.6541,拉萨市,西藏大学,,32,25,10,9,6,102,,113,112,22,10,9,8,0.4,0.3
2025-05-27T2000,1460A,90.9798,29.6588,拉萨市,区辐射站,,33,16,16,9,10,103,,104,104,16,17,5,5,0.3,0.3
2025-05-27T2000,1461A,91.0834,29.6292,拉萨市,拉萨火车站,,36,10,9,6,6,113,,115,115,14,9,4,3,0.2,0.2
2025-05-27T2000,2520A,109.2203,23.7256,来宾市,来宾技工学校,,46,42,48,32,30,101,,105,105,10,21,5,7,0.9,0.9
2025-05-27T2000,3535A,109.1781,23.7297,来宾市,兴宾区政府,,46,42,39,32,27,87,,98,98,13,12,4,5,0.7,0.7
2025-05-27T2000,4002A,109.2416,23.7461,来宾市,中南小学,,50,50,48,25,29,83,,100,100,18,16,2,3,0.7,0.6
2025-05-27T2000,1477A,104.1373,35.9454,兰州市,榆中兰大校区,,,,,,,,,,,,,,,,
2025-05-27T2000,1479A,103.831,36.0464,兰州市,铁路设计院,,47,47,55,32,31,102,,120,120,20,53,8,10,0.5,0.7
2025-05-27T2000,3241A,103.7439,36.0842,兰州市,百合公园,,32,32,46,17,20,100,,120,120,12,41,1,4,0.2,0.4
2025-05-27T2000,3242A,103.9611,35.998,兰州市,和平,,47,47,43,26,21,100,,118,118,13,19,6,7,0.4,0.3
2025-05-27T2000,4236A,103.6293,36.0938,兰州市,庄浪东路808号,颗粒物(PM10),51,51,55,25,26,98,,127,127,25,44,9,11,0.3,0.4
2025-05-27T2000,4237A,103.7251,36.1043,兰州市,安宁西路88号,颗粒物(PM10),52,53,60,28,33,113,,132,132,4,35,4,8,0.3,0.4
2025-05-27T2000,4238A,103.8470,36.0676,兰州市,北滨河东路1号,颗粒物(PM10),53,56,53,24,26,107,,127,127,18,46,8,9,0.6,0.7
2025-05-27T2000,3245A,103.6633,36.533,兰州新区,新区管委会,,,,48,31,30,138,,151,151,8,16,,13,,0.5
2025-05-27T2000,3246A,103.6975,36.4789,兰州新区,舟曲中学,,43,30,49,12,24,135,,150,150,12,25,6,21,0.3,0.4
2025-05-27T2000,1067A,116.6708,39.5111,廊坊市,药材公司,臭氧1小时,67,82,77,37,47,173,,201,201,16,29,4,4,0.5,0.5
2025-05-27T2000,1068A,116.7214,39.5589,廊坊市,开发区,臭氧1小时,87,63,75,37,39,189,,208,208,16,25,4,4,0.5,0.5
2025-05-27T2000,1070A,116.7244,39.5269,廊坊市,北华航天学院,臭氧1小时,78,91,92,34,49,182,,199,199,14,24,5,5,0.5,0.5
2025-05-27T2000,2919A,116.7022,39.5453,廊坊市,河北工业大学,臭氧1小时,93,79,92,40,46,194,,210,210,15,25,6,5,0.5,0.5
2025-05-27T2000,2535A,103.7723,29.5462,乐山市,花湖湾,,20,12,36,8,25,62,,108,67,12,14,2,3,0.4,0.5
2025-05-27T2000,2536A,103.7627,29.5844,乐山市,牛耳桥,,17,12,43,11,31,52,,101,62,19,17,6,7,0.7,0.8
2025-05-27T2000,2537A,103.7508,29.6006,乐山市,市第三水厂,,23,,34,16,26,53,,101,61,24,21,4,5,0.8,1
2025-05-27T2000,2538A,103.7571,29.5664,乐山市,市监测站,,,12,36,9,24,54,,95,62,,14,6,7,1.1,1.1
2025-05-27T2000,3361A,103.7311,29.5628,乐山市,理工大学,,18,9,30,8,24,55,,97,65,23,19,4,5,0.7,0.7
2025-05-27T2000,2598A,100.2143,26.8576,丽江市,西南郊,,15,13,9,3,8,47,,65,53,11,9,5,14,1.2,1.3
2025-05-27T2000,2599A,100.2497,26.8802,丽江市,丽江古城,,16,14,14,11,14,51,,67,56,12,12,8,8,0.5,0.5
2025-05-27T2000,2600A,100.2203,26.8906,丽江市,市中心,,19,,10,13,12,25,,54,43,33,17,10,10,0.7,0.6
2025-05-27T2000,1267A,119.914,28.4514,丽水市,监测站大楼,,45,43,49,19,29,144,,147,147,12,18,3,3,0.3,0.4
2025-05-27T2000,1268A,119.93,28.4586,丽水市,莲都小学,,48,34,50,18,29,153,,155,155,13,19,4,3,0.4,0.5
2025-05-27T2000,1269A,119.879,28.4231,丽水市,余庄前,,40,27,43,19,33,127,,149,145,12,13,4,3,0.4,0.4
2025-05-27T2000,1173A,119.176,34.5885,连云港市,市环境监测站,,46,46,57,24,38,131,,169,166,16,17,6,9,0.3,0.5
2025-05-27T2000,3000A,119.3581,34.6972,连云港市,德源药业,,34,34,59,17,35,108,,156,148,19,27,9,12,0.8,1
2025-05-27T2000,3007A,119.178,34.844,连云港市,新城一中,,42,42,70,13,38,108,,156,150,29,50,9,9,0.6,0.8
2025-05-27T2000,3008A,119.3608,34.7519,连云港市,胡沟管理处,,38,34,41,17,26,120,,137,133,18,24,13,12,0.7,0.7
2025-05-27T2000,3009A,119.1478,34.5911,连云港市,矿山设计院,,44,44,56,22,32,129,,166,164,17,17,5,7,0.5,0.6
2025-05-27T2000,3434A,119.2413,34.6539,连云港市,工贸学校,,43,28,43,22,35,135,,167,165,12,13,9,12,0.6,0.7
2025-05-27T2000,3664A,119.4172,34.7341,连云港市,连云街道,,44,44,54,22,32,134,,162,161,17,19,12,10,0.6,0.6
2025-05-27T2000,2571A,102.3431,27.8099,凉山彝族自治州,青龙寺,,11,9,17,6,8,35,,64,49,6,6,5,5,0.8,0.7
2025-05-27T2000,2572A,102.2721,27.8415,凉山彝族自治州,邛海宾馆,,19,14,20,10,13,58,,60,53,9,10,6,7,0.8,0.8
2025-05-27T2000,2573A,102.2625,27.898,凉山彝族自治州,西昌市政府,,21,17,20,7,14,67,,62,,12,13,10,13,1.0,1
2025-05-27T2000,2574A,102.2685,27.8851,凉山彝族自治州,凉山州政府,,19,12,18,8,13,60,,64,55,13,11,6,9,1.0,1
2025-05-27T2000,4229A,102.2342,27.8859,凉山彝族自治州,凯乐南路30号,,25,12,19,3,10,78,,64,56,10,13,10,16,0.8,1.1
2025-05-27T2000,2212A,123.2,41.1953,辽阳市,宏伟区,,50,24,28,20,17,158,,174,172,9,8,7,7,0.6,0.5
2025-05-27T2000,2213A,123.1683,41.2495,辽阳市,新华园,颗粒物(PM10),56,62,34,33,25,150,,170,168,10,8,6,7,0.6,0.5
2025-05-27T2000,2214A,123.2354,41.2639,辽阳市,滨河路,,42,26,29,20,23,132,,158,152,15,12,8,9,0.5,0.4
2025-05-27T2000,2215A,123.149,41.2991,辽阳市,铁西工业园,,42,39,40,19,21,134,,162,156,10,11,6,7,0.5,0.5
2025-05-27T2000,2227A,125.1358,42.8845,辽源市,环保局,颗粒物(PM10),58,65,52,35,23,73,,154,136,40,38,3,3,0.6,0.6
2025-05-27T2000,3239A,125.0764,42.9078,辽源市,银鹰制药,颗粒物(PM10),81,111,52,26,26,39,,169,143,86,43,8,17,0.6,0.6
2025-05-27T2000,1625A,115.9848,36.4372,聊城市,区政府,臭氧1小时,100,47,53,28,31,200,,212,212,11,12,6,7,0.8,0.8
2025-05-27T2000,2878A,116.0072,36.4343,聊城市,聊大东校,臭氧1小时,102,56,56,31,40,203,,213,213,12,12,7,8,0.5,0.5
2025-05-27T2000,3200A,115.9819,36.4978,聊城市,监控中心,臭氧1小时,92,45,50,27,31,193,,213,212,21,12,8,8,0.7,0.7
2025-05-27T2000,3513A,116.0445,36.4361,聊城市,九州社区,臭氧1小时,89,46,57,28,32,191,,206,206,9,10,4,6,0.5,0.5
2025-05-27T2000,4018A,116.0567,36.4608,聊城市,星美广场,臭氧1小时,103,51,60,22,28,205,,219,219,11,11,9,9,0.7,0.8
2025-05-27T2000,2632A,94.3681,29.6376,林芝市,林芝监测站,,25,,7,8,5,79,,86,86,11,5,4,4,0.7,0.6
2025-05-27T2000,2633A,94.3616,29.6616,林芝市,林芝人民医院,,27,13,9,8,5,84,,86,86,6,3,6,6,0.4,0.3
2025-05-27T2000,2603A,100.0781,23.8982,临沧市,市环保局,,45,,17,31,17,16,,31,30,10,8,4,4,0.7,0.6
2025-05-27T2000,2604A,100.0894,23.8822,临沧市,市气象局,,39,39,17,15,9,24,,39,38,14,10,2,6,0.6,0.5
2025-05-27T2000,1733A,111.5531,36.0783,临汾市,临钢医院,臭氧1小时,59,59,51,20,24,167,,193,193,21,22,5,6,0.7,0.8
2025-05-27T2000,1734A,111.5028,36.0714,临汾市,技工学校,臭氧1小时,72,59,48,37,31,177,,203,202,18,17,6,6,0.7,0.7
2025-05-27T2000,1736A,111.5018,36.0855,临汾市,市委,臭氧1小时,60,58,56,20,21,168,,190,189,20,19,6,7,0.7,0.7
2025-05-27T2000,3018A,111.505,36.1014,临汾市,唐尧大酒店,臭氧1小时,60,57,56,17,22,168,,187,187,14,17,6,7,0.7,0.7
2025-05-27T2000,4244A,111.4879,36.0530,临汾市,启星学校,臭氧1小时,52,42,41,31,30,161,,196,193,24,17,4,4,0.5,0.7
2025-05-27T2000,4271A,103.2464,35.6123,临夏回族自治州,滨河东路1号,,36,36,44,16,21,100,,107,107,12,14,8,6,0.3,0.3
2025-05-27T2000,4310A,103.2093,35.5995,临夏回族自治州,新华街21号,,42,42,46,20,24,107,,113,113,11,17,6,6,0.3,0.4
2025-05-27T2000,1618A,118.3429,35.0532,临沂市,沂河小区,颗粒物(PM10),62,73,78,24,53,143,,171,165,20,35,5,10,0.3,0.5
2025-05-27T2000,1619A,118.295,35.0583,临沂市,鲁南制药厂,颗粒物(PM10),58,66,74,26,55,155,,183,177,26,39,7,11,0.4,0.5
2025-05-27T2000,1620A,118.2794,34.9976,临沂市,新光毛纺厂,细颗粒物(PM2.5),62,68,79,44,63,153,,182,176,19,44,27,12,0.3,0.5
2025-05-27T2000,1621A,118.3956,35.0888,临沂市,河东保险公司,颗粒物(PM10),56,61,78,24,48,144,,179,171,20,44,6,10,0.3,0.5
2025-05-27T2000,3370A,118.3564,35.0215,临沂市,十里堡居委,颗粒物(PM10),56,61,73,24,50,148,,172,166,28,42,8,14,0.4,0.6
2025-05-27T2000,3496A,118.3604,35.1084,临沂市,南坊新区,颗粒物(PM10),52,53,72,24,45,135,,171,164,21,40,8,11,0.4,0.6
2025-05-27T2000,3860A,118.3920,35.0300,临沂市,皇山花园小区,颗粒物(PM10),60,70,82,25,49,145,,179,172,30,52,8,14,0.5,0.7
2025-05-27T2000,1870A,109.4856,24.3895,柳州市,柳东小学,颗粒物(PM10),58,66,48,39,33,60,,101,98,7,13,9,11,0.5,0.6
2025-05-27T2000,1871A,109.4157,24.3277,柳州市,环保监测站,细颗粒物(PM2.5),65,51,52,47,38,68,,115,112,14,17,1,4,0.7,0.7
2025-05-27T2000,1872A,109.389,24.341,柳州市,河西水厂,颗粒物(PM10),61,72,58,36,35,65,,116,113,21,24,5,8,0.8,0.9
2025-05-27T2000,1873A,109.4311,24.2921,柳州市,市四中,颗粒物(PM10),59,67,53,35,32,68,,114,110,26,23,8,9,0.9,0.7
2025-05-27T2000,1874A,109.4006,24.3631,柳州市,市九中,颗粒物(PM10),52,54,58,33,37,64,,110,107,11,19,9,16,0.6,0.8
2025-05-27T2000,1875A,109.4958,24.3134,柳州市,古亭山,,43,43,53,29,29,58,,103,99,8,20,5,7,0.5,0.5
2025-05-27T2000,3402A,109.5422,24.3996,柳州市,市二中,,,32,45,29,32,56,,99,95,16,19,10,12,,0.7
2025-05-27T2000,2307A,116.5079,31.737,六安市,监测大楼,细颗粒物(PM2.5),65,77,62,47,43,147,,170,167,12,14,7,7,0.6,0.5
2025-05-27T2000,2308A,116.4738,31.7643,六安市,皖西学院,颗粒物(PM10),55,60,62,34,42,153,,183,179,10,9,5,5,0.5,0.5
2025-05-27T2000,2309A,116.4996,31.7905,六安市,朝阳厂,细颗粒物(PM2.5),65,70,65,47,43,128,,155,152,26,25,5,5,0.4,0.4
2025-05-27T2000,2310A,116.5567,31.7886,六安市,开发区,颗粒物(PM10),66,82,74,41,46,153,,186,182,17,14,8,5,0.6,0.6
2025-05-27T2000,2576A,104.8,26.5892,六盘水市,窑上,,26,26,23,16,12,18,,36,28,16,9,2,2,0.6,0.5
2025-05-27T2000,2577A,104.83,26.5917,六盘水市,黄土坡,,23,,11,16,9,23,,47,29,25,15,10,9,0.5,0.4
2025-05-27T2000,2578A,104.89,26.5939,六盘水市,水钢,,13,13,11,6,6,39,,51,39,9,7,8,8,0.3,0.2
2025-05-27T2000,2579A,104.8475,26.5894,六盘水市,民中,,16,16,10,7,4,28,,46,34,17,10,8,8,0.5,0.4
2025-05-27T2000,2580A,104.9544,26.5506,六盘水市,双水,,13,,1,7,4,41,,55,41,13,9,9,8,0.2,0.2
2025-05-27T2000,2335A,117.0189,25.1181,龙岩市,龙岩师专,,,,,,,,,,,,,,,,
2025-05-27T2000,2336A,117.0217,25.1033,龙岩市,龙岩市监测站,,36,36,39,19,27,75,,105,102,18,15,9,8,0.6,0.6
2025-05-27T2000,2337A,117.0258,25.0661,龙岩市,闽西职业技术学院,,37,37,37,14,24,55,,103,99,20,15,10,17,0.6,0.6
2025-05-27T2000,2338A,117.0196,25.0306,龙岩市,龙岩学院,,22,22,32,15,22,58,,104,99,9,9,7,8,0.5,0.6
2025-05-27T2000,2665A,105.0822,33.3261,陇南市,汉王镇固水子,,,,,,,,,,,,,,,,
2025-05-27T2000,2885A,104.9339,33.3826,陇南市,滨江中学,,33,24,38,12,23,104,,98,98,6,9,8,8,0.6,0.6
2025-05-27T2000,3247A,104.955,33.371,陇南市,市总工会,,33,30,38,8,15,103,,96,96,6,9,8,8,0.6,0.6
2025-05-27T2000,2487A,111.9589,27.8901,娄底市,电视发射台,颗粒物(PM10),58,66,62,31,34,56,,69,69,2,5,6,10,0.4,0.7
2025-05-27T2000,2488A,111.9975,27.725,娄底市,市监测站,,,50,62,47,46,69,,75,75,,30,4,13,0.5,0.9
2025-05-27T2000,2489A,112.0194,27.7314,娄底市,市委党校,细颗粒物(PM2.5),52,46,59,36,44,71,,77,77,3,11,3,5,0.7,0.7
2025-05-27T2000,2490A,111.9561,27.7569,娄底市,涟钢,细颗粒物(PM2.5),62,51,64,44,42,74,,72,72,13,19,6,11,1.2,1
2025-05-27T2000,2491A,111.9892,27.7044,娄底市,市政府,细颗粒物(PM2.5),57,43,56,40,43,80,,76,76,6,15,3,4,0.5,0.5
2025-05-27T2000,1893A,105.4324,28.9634,泸州市,九狮山,,29,,50,20,41,54,,51,50,18,25,3,5,0.8,0.8
2025-05-27T2000,1894A,105.4427,28.9063,泸州市,小市上码头,,14,8,49,3,32,42,,57,44,17,18,8,11,0.4,0.5
2025-05-27T2000,1895A,105.4241,28.8573,泸州市,兰田宪桥,,16,7,63,3,40,51,,74,54,14,19,8,9,0.4,0.5
2025-05-27T2000,1896A,105.4379,28.8833,泸州市,市环监站,,14,8,58,3,37,42,,68,44,15,16,6,8,0.4,0.6
2025-05-27T2000,4272A,105.3689,28.7783,泸州市,纳溪中医医院,,16,11,62,3,44,50,,74,56,15,29,5,7,0.7,0.8
2025-05-27T2000,2183A,111.1406,37.5211,吕梁市,环保局,臭氧1小时,73,58,42,27,24,178,,194,193,21,23,6,5,0.5,0.4
2025-05-27T2000,2185A,111.1297,37.5136,吕梁市,自来水公司,臭氧1小时,77,42,40,28,24,181,,186,186,16,23,4,6,0.4,0.5
2025-05-27T2000,2867A,111.1283,37.51,吕梁市,马茂庄小学,,50,41,50,29,23,160,,194,191,37,24,3,4,0.5,0.5
2025-05-27T2000,1812A,112.3931,34.6516,洛阳市,市委党校,臭氧1小时,74,85,74,44,39,179,,201,201,12,29,6,9,0.6,0.6
2025-05-27T2000,1815A,112.494,34.6886,洛阳市,河南林校,臭氧1小时,97,73,77,44,44,197,,219,219,20,28,8,11,0.8,0.8
2025-05-27T2000,1816A,112.3844,34.623,洛阳市,开发区管委会,臭氧1小时,84,85,72,52,43,187,,216,216,12,21,8,10,0.5,0.5
2025-05-27T2000,1817A,112.4267,34.6258,洛阳市,市委新办公区,臭氧1小时,85,88,74,43,38,188,,211,211,13,22,6,10,0.6,0.7
2025-05-27T2000,3340A,112.6005,34.6326,洛阳市,伊滨,颗粒物(PM10),81,112,88,45,45,178,,222,222,21,28,6,7,0.5,0.5
2025-05-27T2000,3341A,112.4951,34.6332,洛阳市,中移产业园,臭氧1小时,92,86,79,37,41,193,,216,216,11,25,5,9,0.4,0.4
2025-05-27T2000,3593A,112.5736,34.8993,洛阳市,吉利监测站,臭氧1小时,101,82,77,42,37,201,,207,207,14,22,13,12,0.6,0.6
2025-05-27T2000,3635A,112.3677,34.662,洛阳市,河科大西苑校区,臭氧1小时,88,84,75,40,38,190,,218,218,13,22,8,12,0.6,0.6
2025-05-27T2000,3636A,112.4388,34.6781,洛阳市,英才小学,臭氧1小时,95,86,87,41,36,196,,219,219,18,25,8,11,0.5,0.6
2025-05-27T2000,4214A,112.4600,34.6949,洛阳市,春都路1号院,臭氧1小时,107,85,84,38,38,214,,243,243,21,25,7,11,0.5,0.5
2025-05-27T2000,2399A,114.051,33.5699,漯河市,三五一五工厂,细颗粒物(PM2.5),60,67,90,43,52,166,,192,188,22,19,6,6,0.6,0.7
2025-05-27T2000,2400A,114.0055,33.5698,漯河市,漯河大学,臭氧1小时,72,89,104,12,55,177,,192,190,20,19,4,4,0.4,0.6
2025-05-27T2000,2401A,114.0138,33.5828,漯河市,市水利局,颗粒物(PM10),78,105,113,39,53,180,,192,190,19,18,5,5,0.7,0.8
2025-05-27T2000,2402A,114.0261,33.5698,漯河市,市广电局,颗粒物(PM10),75,100,106,27,58,176,,195,192,20,20,4,4,0.6,0.7
2025-05-27T2000,3478A,113.9749,33.5664,漯河市,市图书馆,臭氧1小时,72,60,103,25,56,177,,193,191,19,21,4,4,0.7,0.7
2025-05-27T2000,4250A,114.0892,33.5882,漯河市,韶山路11号,颗粒物(PM10),64,78,110,31,55,157,,186,181,26,22,10,7,0.5,0.6
2025-05-27T2000,1798A,118.5092,31.6837,马鞍山市,湖东路四小,臭氧1小时,58,55,58,30,33,166,,193,192,20,19,6,9,0.5,0.6
2025-05-27T2000,1799A,118.5024,31.6449,马鞍山市,开发区,颗粒物(PM10),59,68,67,36,39,163,,197,196,23,25,6,10,0.6,0.8
2025-05-27T2000,1802A,118.6245,31.7241,马鞍山市,濮塘,臭氧1小时,58,53,44,35,34,166,,182,182,10,8,9,9,0.7,0.7
2025-05-27T2000,3633A,118.4918,31.6809,马鞍山市,雨山,臭氧1小时,58,63,60,29,35,166,,191,190,21,20,6,11,0.6,0.6
2025-05-27T2000,4191A,118.5274,31.72227,马鞍山市,慈湖高新区,细颗粒物(PM2.5),57,48,55,40,39,162,,180,179,20,26,9,13,0.6,0.7
2025-05-27T2000,1686A,111.0286,21.4688,茂名市,电白南海,,43,34,56,22,40,136,,147,146,13,14,2,5,0.8,0.9
2025-05-27T2000,1687A,110.9294,21.6533,茂名市,茂石化七小,,39,39,53,17,32,115,,120,120,10,11,3,4,0.4,0.5
2025-05-27T2000,1688A,110.9107,21.6687,茂名市,健康路,,,,49,,36,128,,138,137,13,15,4,12,0.5,0.6
2025-05-27T2000,1689A,110.8592,21.6828,茂名市,高岭,,46,46,59,17,31,127,,131,131,11,17,4,10,0.3,0.4
2025-05-27T2000,3450A,111.01,21.5165,茂名市,电白水东,,41,29,52,14,30,130,,130,130,12,16,2,5,0.3,0.4
2025-05-27T2000,2539A,104.0308,30.0478,眉山市,黑龙滩水库,,26,,35,18,24,37,,81,,12,9,3,3,0.4,0.4
2025-05-27T2000,2540A,103.8416,30.0874,眉山市,气象局,,31,31,45,17,26,58,,98,66,20,17,3,3,0.4,0.4
2025-05-27T2000,3137A,103.8578,30.0744,眉山市,市委党校,,20,19,33,14,21,47,,89,59,24,16,9,9,0.5,0.5
2025-05-27T2000,3148A,103.8291,30.0564,眉山市,区人社局,,23,23,44,12,19,54,,94,60,26,19,12,14,0.4,0.5
2025-05-27T2000,1690A,116.1231,24.3284,梅州市,梅江月梅,,33,,30,23,22,84,,89,88,11,12,9,5,0.8,0.7
2025-05-27T2000,1691A,116.0797,24.2719,梅州市,梅县新城,,38,33,34,26,22,82,,100,98,11,18,7,6,0.7,0.7
2025-05-27T2000,1692A,116.1248,24.2654,梅州市,环境监控中心,,,30,29,18,20,64,,89,86,16,16,,9,0.8,0.8
2025-05-27T2000,3315A,116.1233,24.2991,梅州市,梅龙,,41,41,29,27,21,103,,94,94,10,12,8,7,0.8,0.7
2025-05-27T2000,1878A,104.7778,31.4741,绵阳市,富乐山,,20,20,54,13,41,64,,73,67,6,13,7,8,0.4,0.6
2025-05-27T2000,1880A,104.6697,31.4668,绵阳市,高新区自来水公司,,19,11,35,3,20,60,,67,66,9,15,3,3,0.4,0.5
2025-05-27T2000,1881A,104.7287,31.5075,绵阳市,三水厂,,,14,43,13,31,66,,71,69,6,16,8,8,,0.6
2025-05-27T2000,3491A,104.69,31.5322,绵阳市,西科大附属小学,,19,11,38,7,23,60,,69,67,10,17,7,7,0.5,0.6
2025-05-27T2000,3492A,104.5648,31.5343,绵阳市,安州区旅游局,,20,15,28,3,17,64,,76,68,10,11,3,3,0.6,0.6
2025-05-27T2000,4226A,104.7651,31.4531,绵阳市,绵阳市气象局,,21,11,51,10,37,65,,70,67,5,13,3,5,0.4,0.5
2025-05-27T2000,1784A,129.61,44.561,牡丹江市,环保大楼,,42,42,31,27,16,73,,119,114,25,12,6,6,0.3,0.2
2025-05-27T2000,1785A,129.6115,44.5782,牡丹江市,文化广场,颗粒物(PM10),61,71,27,23,19,72,,118,113,37,18,8,8,0.6,0.4
2025-05-27T2000,1786A,129.5904,44.5963,牡丹江市,第一医院,细颗粒物(PM2.5),57,49,22,40,15,73,,121,116,27,17,4,4,0.6,0.5
2025-05-27T2000,1787A,129.6364,44.6075,牡丹江市,机车工厂,颗粒物(PM10),53,56,29,25,12,80,,114,110,17,18,5,5,0.7,0.4
2025-05-27T2000,1788A,129.6386,44.5462,牡丹江市,第一中学,,50,43,23,35,15,79,,120,111,13,12,5,5,0.5,0.4
2025-05-27T2000,2531A,105.0703,29.61,内江市,市监测站,,,16,27,3,24,78,,83,68,6,12,,6,1.0,1
2025-05-27T2000,2532A,105.0717,29.5947,内江市,东兴区政府,,24,16,24,3,17,75,,85,66,7,13,7,8,0.4,0.5
2025-05-27T2000,2533A,105.0653,29.5817,内江市,内江二中,,,14,34,9,25,75,,87,65,10,15,5,6,,0.5
2025-05-27T2000,2534A,105.0406,29.5822,内江市,内江日报社,,24,15,36,7,22,75,,85,65,3,11,5,9,0.5,0.6
2025-05-27T2000,2628A,92.0657,31.4846,那曲市,那曲监测站,,36,19,23,11,12,114,,116,116,10,12,7,7,0.5,0.6
2025-05-27T2000,4243A,92.0515,31.4787,那曲市,那曲市委宣传部,,38,14,16,8,9,121,,119,119,4,7,6,6,0.1,0.2
2025-05-27T2000,1290A,115.8931,28.6843,南昌市,省外办,细颗粒物(PM2.5),64,58,68,46,54,121,,156,148,16,34,10,11,1.0,0.9
2025-05-27T2000,1291A,115.8886,28.7003,南昌市,省林业公司,颗粒物(PM10),57,63,72,36,44,120,,152,146,14,33,10,11,0.8,0.7
2025-05-27T2000,1292A,115.8126,28.7442,南昌市,林科所,细颗粒物(PM2.5),62,58,59,44,44,82,,172,156,38,24,7,6,0.7,0.6
2025-05-27T2000,1294A,115.8518,28.687,南昌市,建工学校,颗粒物(PM10),54,58,77,36,58,121,,159,150,18,31,8,8,0.6,0.8
2025-05-27T2000,1295A,115.8921,28.6424,南昌市,象湖,"颗粒物(PM10),细颗粒物(PM2.5)",55,60,70,39,45,118,,163,155,20,31,9,8,0.8,0.9
2025-05-27T2000,1296A,115.7423,28.7996,南昌市,武术学校,细颗粒物(PM2.5),54,,21,38,32,79,,162,140,9,7,8,8,0.8,0.8
2025-05-27T2000,3046A,115.9084,28.6062,南昌市,机电学校,颗粒物(PM10),59,68,76,39,49,109,,157,150,20,42,4,5,0.5,0.6
2025-05-27T2000,3690A,115.9721,28.7031,南昌市,外国语学校,细颗粒物(PM2.5),55,51,59,39,43,118,,151,144,15,20,8,8,0.4,0.4
2025-05-27T2000,4192A,115.9316,28.68677,南昌市,南京东路235号,颗粒物(PM10),53,55,78,36,49,113,,145,138,16,23,9,9,0.9,0.9
2025-05-27T2000,1905A,106.056,30.8064,南充市,西山风景区,,,,,,,,,,,,,,,,
2025-05-27T2000,1906A,106.0789,30.8023,南充市,南充市委,,35,34,38,24,26,71,,76,75,13,15,4,6,0.4,0.4
2025-05-27T2000,1907A,106.1031,30.8217,南充市,南充炼油厂,,43,,42,30,32,75,,76,76,15,15,4,7,0.4,0.5
2025-05-27T2000,4227A,106.1083,30.7884,南充市,梨树横街98号,,36,36,42,15,27,73,,69,69,8,11,3,4,0.3,0.3
2025-05-27T2000,4304A,106.1172,30.843,南充市,清泉寺北路188号,,32,31,42,22,26,66,,76,68,8,10,4,6,0.3,0.4
2025-05-27T2000,4305A,106.067,30.7616,南充市,同庆路1号,,32,30,36,22,26,75,,73,73,10,17,3,3,0.3,0.3
2025-05-27T2000,1151A,118.8086,32.1065,南京市,迈皋桥,,46,25,41,14,27,146,,171,170,12,14,4,4,0.4,0.5
2025-05-27T2000,1152A,118.7538,32.0551,南京市,草场门,,45,36,49,19,29,142,,173,171,19,22,2,2,0.2,0.3
2025-05-27T2000,1153A,118.7794,32.0745,南京市,山西路,,48,41,50,17,24,153,,183,182,11,10,4,5,0.2,0.2
2025-05-27T2000,1154A,118.7752,32.0023,南京市,中华门,,43,36,44,14,27,137,,166,164,13,14,4,4,0.4,0.4
2025-05-27T2000,1155A,118.8109,32.0309,南京市,瑞金路,,44,44,48,24,28,133,,165,163,14,11,6,6,0.4,0.4
2025-05-27T2000,1156A,118.7997,32.0754,南京市,玄武湖,,43,32,46,15,21,136,,161,161,11,10,4,4,0.4,0.4
2025-05-27T2000,1157A,118.6414,32.0931,南京市,浦口,,40,40,49,23,27,125,,160,158,25,23,4,4,0.4,0.4
2025-05-27T2000,1158A,118.7356,31.9996,南京市,奥体中心,,48,44,50,19,28,152,,185,183,20,21,6,6,0.3,0.3
2025-05-27T2000,1159A,118.9125,32.1028,南京市,仙林大学城,,43,36,49,17,24,135,,161,160,14,13,7,8,0.4,0.5
2025-05-27T2000,3422A,118.8436,31.9198,南京市,江宁彩虹桥,,44,36,49,24,28,139,,173,171,18,19,3,4,0.3,0.4
2025-05-27T2000,3427A,118.8554,32.3578,南京市,六合雄州,,45,31,46,17,25,142,,182,180,29,31,5,8,0.4,0.4
2025-05-27T2000,4249A,118.8708,31.3402,南京市,汶溪路181号,"细颗粒物(PM2.5),臭氧1小时",53,,43,37,33,162,,178,178,18,21,4,4,0.2,0.2
2025-05-27T2000,4312A,119.019,31.6512,南京市,中山西路1号,,49,44,42,27,28,154,,187,186,22,21,7,7,0.4,0.4
2025-05-27T2000,1401A,108.3103,22.7881,南宁市,二十一中,细颗粒物(PM2.5),58,62,44,41,33,109,,124,124,25,22,1,2,0.8,0.7
2025-05-27T2000,1402A,108.3141,22.8528,南宁市,北湖,颗粒物(PM10),62,73,47,43,33,113,,128,128,20,22,5,8,0.8,0.7
2025-05-27T2000,1403A,108.3206,22.8225,南宁市,市监测站,颗粒物(PM10),53,55,45,36,32,94,,113,113,22,13,5,6,0.7,0.6
2025-05-27T2000,1404A,108.3829,22.8037,南宁市,大自然花园,"颗粒物(PM10),细颗粒物(PM2.5)",53,56,45,37,30,118,,131,131,16,13,5,6,0.7,0.6
2025-05-27T2000,1405A,108.4394,22.7904,南宁市,仙葫,细颗粒物(PM2.5),57,61,45,40,36,99,,123,121,15,13,9,10,0.8,0.8
2025-05-27T2000,1406A,108.2397,22.8467,南宁市,区农职院,颗粒物(PM10),54,57,48,37,29,83,,104,103,23,18,4,7,1.2,1.1
2025-05-27T2000,1407A,108.3275,22.735,南宁市,英华嘉园,颗粒物(PM10),58,66,45,34,33,122,,134,134,17,14,7,8,0.6,0.5
2025-05-27T2000,3401A,108.4834,22.7618,南宁市,红星社区,细颗粒物(PM2.5),60,62,49,43,34,125,,144,143,15,11,9,10,0.5,0.4
2025-05-27T2000,4221A,108.2177,22.7774,南宁市,乐贤路16号,颗粒物(PM10),56,62,52,36,32,80,,115,113,42,25,5,8,0.7,0.6
2025-05-27T2000,2331A,118.0966,26.6761,南平市,茫荡山,,,,,,,,,,,,,,,,
2025-05-27T2000,2332A,118.1681,26.6369,南平市,南平市监测站,,35,30,34,24,27,51,,118,100,25,11,5,5,1.0,0.8
2025-05-27T2000,2333A,118.1825,26.6489,南平市,南平铝业有限公司,,37,37,36,25,27,51,,117,99,27,15,5,4,0.7,0.6
2025-05-27T2000,2334A,118.1756,26.6272,南平市,南平七中,,33,30,35,23,24,48,,119,101,22,9,4,4,0.8,0.6
2025-05-27T2000,1168A,120.9098,31.9663,南通市,狼山街道,,40,37,30,20,15,126,,151,151,14,18,4,5,0.5,0.5
2025-05-27T2000,1169A,120.86,32.0005,南通市,虹桥,,41,41,33,25,21,126,,158,157,21,26,3,4,0.1,0.2
2025-05-27T2000,1170A,120.87,32.02,南通市,城中,,39,39,37,21,18,124,,155,153,16,21,4,5,0.5,0.5
2025-05-27T2000,1171A,120.94,31.93,南通市,星湖花园,,37,23,28,20,18,116,,143,143,22,23,4,5,0.4,0.3
2025-05-27T2000,1172A,120.81,32.0417,南通市,紫琅学院,,38,31,34,15,15,119,,143,143,16,24,5,7,0.4,0.5
2025-05-27T2000,3291A,121.067,32.062,南通市,通州监测站,细颗粒物(PM2.5),67,61,41,48,23,127,,156,153,11,13,6,6,0.3,0.2
2025-05-27T2000,3432A,120.9348,31.9883,南通市,环境教育馆,,39,36,36,19,17,124,,156,154,17,21,3,4,0.2,0.3
2025-05-27T2000,2404A,112.5224,33.0122,南阳市,瓦房庄,颗粒物(PM10),62,73,73,32,36,138,,173,172,13,12,6,7,0.6,0.5
2025-05-27T2000,2405A,112.5003,32.9735,南阳市,汉画馆,颗粒物(PM10),56,62,65,28,33,142,,174,173,23,22,5,6,0.5,0.5
2025-05-27T2000,2406A,112.5573,33.027,南阳市,气象站,颗粒物(PM10),67,83,84,36,39,140,,171,170,18,20,5,6,0.5,0.4
2025-05-27T2000,2407A,112.5481,32.9689,南阳市,理工学院,颗粒物(PM10),64,77,71,27,34,130,,171,169,33,20,6,5,0.6,0.6
2025-05-27T2000,4008A,112.5234,32.9922,南阳市,卧龙区政府,颗粒物(PM10),56,61,63,35,36,135,,170,168,23,22,4,5,0.6,0.5
2025-05-27T2000,1234A,121.8358,29.911,宁波市,区环保大楼,,47,47,29,19,13,81,,122,116,46,25,10,9,0.4,0.4
2025-05-27T2000,1235A,121.56,29.82,宁波市,万里学院,,40,28,23,18,14,127,,127,127,12,12,3,4,0.4,0.4
2025-05-27T2000,1236A,121.713,29.9572,宁波市,龙赛医院,,36,33,23,14,13,115,,122,122,7,6,7,7,0.3,0.3
2025-05-27T2000,1239A,121.633,29.7733,宁波市,钱湖水厂,,42,28,21,16,13,132,,125,125,6,8,9,9,0.4,0.5
2025-05-27T2000,1240A,121.5856,29.8635,宁波市,太古小学,,42,32,23,20,14,132,,132,132,11,11,6,6,0.3,0.3
2025-05-27T2000,1241A,121.524,29.8674,宁波市,市环境监测中心,,36,32,22,20,11,114,,119,119,18,15,10,9,0.5,0.5
2025-05-27T2000,2871A,121.6147,29.9017,宁波市,万里国际学校,,39,23,19,10,10,122,,124,124,14,15,6,6,0.3,0.2
2025-05-27T2000,3710A,121.5594,29.8975,宁波市,白沙活动中心,,39,24,18,16,10,123,,126,126,7,7,8,8,0.4,0.3
2025-05-27T2000,2339A,119.5001,26.6946,宁德市,金涵水库,,,,,,,,,,,,,,,,
2025-05-27T2000,2341A,119.5388,26.6612,宁德市,宁德市监测站,,32,20,37,12,31,102,,131,120,6,6,4,5,0.3,0.5
2025-05-27T2000,3209A,119.5231,26.6562,宁德市,宁德一中,,33,19,38,14,30,105,,128,118,2,6,4,5,0.3,0.6
2025-05-27T2000,2618A,98.8601,25.8567,怒江傈僳族自治州,州监测站,,17,13,12,7,8,54,,68,60,6,4,8,8,0.4,0.3
2025-05-27T2000,2619A,98.8546,25.8417,怒江傈僳族自治州,泸水一中,,12,8,6,3,5,38,,52,45,11,8,6,6,0.4,0.3
2025-05-27T2000,1888A,101.6891,26.571,攀枝花市,弄弄坪,,37,37,30,9,18,26,,52,34,29,22,10,11,0.8,0.8
2025-05-27T2000,1889A,101.5769,26.5928,攀枝花市,河门口,,31,31,24,18,16,23,,50,43,41,19,26,12,2.4,1
2025-05-27T2000,1890A,101.7169,26.585,攀枝花市,炳草岗,,43,43,30,9,15,13,,50,31,43,26,10,13,1.0,0.8
2025-05-27T2000,1891A,101.7369,26.5008,攀枝花市,仁和,,30,27,29,21,24,40,,55,54,26,17,11,15,0.9,0.8
2025-05-27T2000,2835A,101.7227,26.567,攀枝花市,四十中小,,23,20,24,16,18,39,,61,57,24,14,10,18,0.8,1
2025-05-27T2000,1604A,122.0303,41.1489,盘锦市,开发区,臭氧1小时,82,50,40,40,35,185,,199,196,23,18,12,14,0.9,0.9
2025-05-27T2000,1605A,122.0485,41.0883,盘锦市,兴隆台,细颗粒物(PM2.5),69,56,46,50,37,165,,183,180,23,20,8,12,0.6,0.6
2025-05-27T2000,1606A,121.8297,41.1028,盘锦市,新生街道,臭氧1小时,73,,36,48,37,178,,187,186,39,25,10,10,0.5,0.5
2025-05-27T2000,1832A,113.3257,33.742,平顶山市,新华旅馆,颗粒物(PM10),81,111,136,38,42,162,,202,199,20,29,5,8,0.5,0.6
2025-05-27T2000,1833A,113.2919,33.737,平顶山市,规划设计院,颗粒物(PM10),70,89,122,35,56,160,,196,194,21,27,5,7,0.8,0.9
2025-05-27T2000,1834A,113.182,33.774,平顶山市,平顶山工学院,臭氧1小时,75,89,104,29,43,180,,205,205,16,26,5,6,0.5,0.5
2025-05-27T2000,3204A,113.3025,33.73,平顶山市,规划局,颗粒物(PM10),81,112,136,31,47,175,,199,198,12,24,5,8,0.5,0.6
2025-05-27T2000,3594A,112.8867,33.9116,平顶山市,石龙区,颗粒物(PM10),107,164,142,42,44,186,,207,207,26,49,8,13,0.6,0.8
2025-05-27T2000,2656A,106.6692,35.5461,平凉市,聚贤嘉苑,,,,54,,33,,,94,,,31,,11,,0.8
2025-05-27T2000,2657A,106.7021,35.5307,平凉市,博物馆,,35,32,50,17,25,110,,123,122,11,21,12,12,0.5,0.6
2025-05-27T2000,2347A,114.0997,27.5002,萍乡市,武功山,,22,22,25,10,23,39,,82,70,5,6,6,7,0.3,0.8
2025-05-27T2000,2348A,113.8385,27.6434,萍乡市,中医院,,50,,59,35,40,90,,129,119,8,13,12,21,0.8,0.9
2025-05-27T2000,2349A,113.8493,27.6253,萍乡市,市政府车库,细颗粒物(PM2.5),57,,51,40,46,74,,114,105,12,17,7,11,0.5,1.4
2025-05-27T2000,2350A,113.8676,27.6435,萍乡市,市环保局,细颗粒物(PM2.5),132,,60,100,51,84,,124,114,7,16,5,12,0.8,1
2025-05-27T2000,2351A,113.866,27.6198,萍乡市,安源区政府,,50,50,62,30,38,74,,106,100,6,15,3,6,0.6,1.1
2025-05-27T2000,2319A,119.0141,25.4325,莆田市,荔城区仓后路,,31,26,31,8,18,98,,121,117,11,11,4,4,0.6,0.7
2025-05-27T2000,2320A,119.0015,25.4553,莆田市,莆田市监测站,,31,23,26,12,15,97,,124,120,12,9,4,3,0.4,0.4
2025-05-27T2000,2321A,119.1119,25.4561,莆田市,涵江区六中,,33,23,31,6,18,105,,126,122,10,13,2,3,0.5,0.6
2025-05-27T2000,2322A,119.1013,25.3215,莆田市,秀屿区政府,,31,24,34,9,22,98,,129,121,14,15,4,6,0.5,0.6
2025-05-27T2000,2323A,118.981,25.4792,莆田市,东圳水库,,,,,,,,,,,,,,,,
2025-05-27T2000,2392A,115.0312,35.7636,濮阳市,环保局,臭氧1小时,92,55,51,29,36,193,,202,202,21,17,5,6,0.7,0.7
2025-05-27T2000,2394A,115.0574,35.7609,濮阳市,油田运输公司,臭氧1小时,78,61,61,26,36,182,,196,196,18,15,6,6,0.7,0.7
2025-05-27T2000,3021A,115,35.7668,濮阳市,濮水河管理处,,,42,53,27,35,167,,190,188,,17,,6,0.7,0.7
2025-05-27T2000,4216A,115.0924,35.7686,濮阳市,任丘路479号,臭氧1小时,68,63,65,34,38,174,,196,195,19,14,7,7,0.7,0.8
2025-05-27T2000,2601A,100.98,22.7633,普洱市,市环保局,,24,24,23,14,7,39,,52,50,3,2,3,3,0.7,0.7
2025-05-27T2000,2602A,100.9817,22.8322,普洱市,普洱第二中学,,20,19,18,14,10,36,,51,49,8,11,5,5,0.6,0.6
2025-05-27T2000,2262A,131.0518,45.8751,七台河市,新一中,,45,45,17,14,11,76,,129,119,15,10,11,9,0.7,0.7
2025-05-27T2000,3345A,131.0577,45.7879,七台河市,中波台,,32,32,17,7,6,50,,104,95,39,15,4,6,0.6,0.3
2025-05-27T2000,3637A,131.0176,45.7761,七台河市,人民广场,,,65,33,36,22,50,,107,95,30,15,,12,0.6,0.5
2025-05-27T2000,3684A,130.8781,45.8222,七台河市,新建矿广场,颗粒物(PM10),113,175,63,31,13,57,,109,98,30,17,11,11,0.4,0.4
2025-05-27T2000,1779A,123.9305,47.3636,齐齐哈尔市,安居小区,细颗粒物(PM2.5),53,46,42,37,21,130,,135,135,28,21,4,5,0.6,0.5
2025-05-27T2000,1780A,123.9488,47.3386,齐齐哈尔市,中心广场,颗粒物(PM10),54,58,48,27,21,140,,141,141,25,19,7,7,0.5,0.4
2025-05-27T2000,1781A,123.9483,47.3227,齐齐哈尔市,农牧车辆厂,颗粒物(PM10),52,53,49,28,23,142,,139,139,13,15,6,7,0.2,0.3
2025-05-27T2000,1783A,123.945,47.2988,齐齐哈尔市,市环境监测站,,46,41,40,25,23,147,,142,142,11,14,4,4,0.3,0.2
2025-05-27T2000,3662A,123.6333,47.2075,齐齐哈尔市,富区青少年活动中心,颗粒物(PM10),53,56,69,29,48,123,,125,125,9,16,3,11,0.4,0.7
2025-05-27T2000,2591A,107.9783,26.5747,黔东南苗族侗族自治州,市环境监测站,,18,14,11,12,10,46,,78,61,11,7,1,3,0.5,0.4
2025-05-27T2000,2881A,107.8908,26.5311,黔东南苗族侗族自治州,凯里学院,,14,,4,7,8,44,,80,62,10,6,2,2,0.6,0.5
2025-05-27T2000,2593A,107.5228,26.2403,黔南布依族苗族自治州,小围寨,,13,7,3,3,1,41,,69,52,3,3,10,4,0.3,0.3
2025-05-27T2000,3538A,107.5175,26.2978,黔南布依族苗族自治州,沙坝,,12,7,8,3,2,38,,69,51,4,4,3,3,0.4,0.3
2025-05-27T2000,2589A,104.9022,25.0925,黔西南布依族苗族自治州,场坝街,,25,25,13,6,6,38,,53,48,9,9,2,2,0.4,0.3
2025-05-27T2000,2590A,104.8811,25.0992,黔西南布依族苗族自治州,坪东大道,,23,23,14,10,6,31,,46,40,9,6,2,1,0.0,0.1
2025-05-27T2000,2502A,108.6236,21.9667,钦州市,市环保站,颗粒物(PM10),59,68,58,36,32,128,,138,138,18,15,6,7,0.7,0.7
2025-05-27T2000,2503A,108.6549,21.9481,钦州市,沙埠小学,颗粒物(PM10),67,84,59,42,37,144,,143,143,24,16,8,8,0.6,0.5
2025-05-27T2000,2504A,108.5989,21.7431,钦州市,港区一小,颗粒物(PM10),61,72,70,26,37,107,,140,136,21,21,9,11,0.6,0.6
2025-05-27T2000,3404A,108.5959,21.9633,钦州市,北职校,颗粒物(PM10),55,60,57,38,35,126,,140,140,14,14,8,8,0.7,0.7
2025-05-27T2000,1043A,119.7493,40.0116,秦皇岛市,第一关,臭氧1小时,101,104,108,63,77,201,,201,201,23,41,6,7,0.5,0.6
2025-05-27T2000,1044A,119.5897,39.9499,秦皇岛市,监测站,臭氧1小时,103,,112,67,81,206,,210,210,31,38,5,8,,0.7
2025-05-27T2000,1046A,119.5251,39.9041,秦皇岛市,建设大厦,臭氧1小时,98,100,101,49,63,198,,206,206,27,39,5,9,0.6,0.7
2025-05-27T2000,3132A,119.610547,39.943889,秦皇岛市,文明里,臭氧1小时,102,101,127,52,66,204,,205,205,25,33,5,8,0.4,0.6
2025-05-27T2000,4198A,119.5090,39.8253,秦皇岛市,北戴河轮滑馆,细颗粒物(PM2.5),108,85,104,81,75,214,,218,218,22,26,4,8,0.6,0.7
2025-05-27T2000,1307A,120.6659,36.2403,青岛市,仰口,,50,25,44,24,33,158,,184,178,6,9,8,10,0.4,0.5
2025-05-27T2000,1310A,120.4134,36.0658,青岛市,市南区东部子站,,45,39,60,24,38,141,,173,173,21,16,8,10,0.4,0.5
2025-05-27T2000,1311A,120.3664,36.1032,青岛市,四方区子站,,50,34,48,29,36,160,,186,185,24,19,5,6,0.7,0.7
2025-05-27T2000,1312A,120.2994,36.054,青岛市,市南区西部子站,颗粒物(PM10),104,158,63,3,37,140,,161,161,24,28,8,9,0.8,0.9
2025-05-27T2000,1313A,120.4581,36.0858,青岛市,崂山区子站,细颗粒物(PM2.5),55,51,57,39,39,157,,176,176,13,16,8,8,0.4,0.5
2025-05-27T2000,1315A,120.3999,36.3083,青岛市,城阳区子站,,46,29,54,20,28,147,,184,176,25,22,5,7,0.5,0.6
2025-05-27T2000,1966A,120.0405,35.8735,青岛市,黄岛区4号,,49,27,59,17,40,154,,179,179,13,26,9,10,0.6,0.8
2025-05-27T2000,3362A,120.5014,36.4034,青岛市,即墨2号,,49,49,63,21,37,155,,190,181,14,16,8,9,0.6,0.8
2025-05-27T2000,3642A,120.3503,36.0736,青岛市,市北区南部,,45,45,53,24,38,135,,158,158,15,15,7,9,0.5,0.6
2025-05-27T2000,3643A,120.3948,36.1805,青岛市,李沧区北部,细颗粒物(PM2.5),52,46,61,36,38,143,,176,172,32,27,8,9,0.7,0.7
2025-05-27T2000,4290A,120.1969,35.9546,青岛市,珠江路669号,,48,29,50,27,39,153,,191,189,14,12,8,9,0.6,0.7
2025-05-27T2000,1702A,113.0426,23.691,清远市,环保大楼,,38,37,46,26,41,101,,116,116,16,15,13,10,0.8,0.8
2025-05-27T2000,1703A,113.0208,23.7106,清远市,凤城街办,,45,42,40,31,31,87,,110,109,20,18,11,8,0.7,0.6
2025-05-27T2000,3025A,113.0477,23.6344,清远市,技师学院,,39,39,47,26,33,84,,100,99,13,21,10,10,1.0,0.9
2025-05-27T2000,3318A,112.9903,23.7403,清远市,清新太和,,31,31,41,20,28,88,,101,101,8,14,10,9,0.6,0.6
2025-05-27T2000,3455A,113.076,23.7198,清远市,清城东城,,39,36,43,27,31,92,,108,108,12,14,12,8,0.5,0.5
2025-05-27T2000,2661A,107.6325,35.7357,庆阳市,庆阳五中,,41,36,39,12,23,130,,141,140,13,13,4,7,0.4,0.5
2025-05-27T2000,2662A,107.6364,35.7067,庆阳市,市环保局,,42,34,42,11,21,133,,144,144,8,10,9,15,0.5,0.5
2025-05-27T2000,1916A,103.7897,25.5035,曲靖市,环境监测站,,24,24,12,6,8,44,,53,52,9,10,5,4,0.4,0.4
2025-05-27T2000,1917A,103.8,25.5364,曲靖市,烟厂办公区,,17,14,12,6,7,52,,60,60,6,8,4,4,0.6,0.6
2025-05-27T2000,3376A,103.7947,25.462,曲靖市,南苑二区,,16,11,10,3,5,50,,57,56,6,8,4,4,0.4,0.4
2025-05-27T2000,3377A,103.7444,25.5261,曲靖市,曲靖师范学院,,,,7,,6,53,,58,58,,6,,5,0.4,0.4
2025-05-27T2000,1264A,118.8692,28.9398,衢州市,环保大楼,细颗粒物(PM2.5),78,87,76,57,53,151,,178,175,30,23,6,5,0.7,0.6
2025-05-27T2000,1265A,118.8709,28.9666,衢州市,实验学校,细颗粒物(PM2.5),69,72,73,50,54,134,,172,167,32,24,5,3,0.5,0.5
2025-05-27T2000,1266A,118.8621,28.9808,衢州市,衢州学院,细颗粒物(PM2.5),72,73,71,52,57,118,,159,154,33,26,8,7,0.6,0.6
2025-05-27T2000,1611A,118.5819,24.9117,泉州市,涂山街,,34,34,34,17,20,103,,137,132,16,16,6,4,0.7,0.6
2025-05-27T2000,1612A,118.5972,24.8978,泉州市,津头埔,,34,34,34,14,19,103,,140,133,17,14,4,3,0.6,0.6
2025-05-27T2000,1613A,118.6663,24.9424,泉州市,万安,,,,32,,19,105,,141,134,,12,6,4,,0.7
2025-05-27T2000,1614A,118.6117,24.9604,泉州市,清源山,,,,,,,,,,,,,,,,
2025-05-27T2000,3529A,118.6333,24.9264,泉州市,城华南路,,31,31,29,17,18,83,,115,109,19,20,5,4,0.6,0.5
2025-05-27T2000,2626A,88.8876,29.2718,日喀则市,日喀则监测站,,40,12,16,6,6,126,,130,130,4,4,13,11,0.1,0.2
2025-05-27T2000,3726A,88.8781,29.2426,日喀则市,林业技术推广中心,,41,18,19,3,4,130,,131,131,3,3,7,7,0.5,0.5
2025-05-27T2000,1659A,119.471,35.4209,日照市,监测站,,39,27,69,18,43,122,,174,165,30,53,7,11,0.6,1
2025-05-27T2000,1660A,119.523,35.4216,日照市,市政府广场,,,,69,,34,,,171,,,36,,8,,0.8
2025-05-27T2000,1661A,119.5587,35.4044,日照市,港务局,,,,68,33,52,136,,180,178,,29,8,9,0.5,0.7
2025-05-27T2000,3507A,119.5328,35.4625,日照市,职业技术学院,,45,22,63,7,34,141,,185,182,12,27,4,8,0.5,0.8
