timepoint,stationcode,longitude,latitude,area,positionname,primarypollutant,aqi,pm10,pm10_24h,pm2_5,pm2_5_24h,o3,o3_24h,o3_8h,o3_8h_24h,no2,no2_24h,so2,so2_24h,co,co_24h
2022-05-25T07:00:00,1001A,116.3621,39.8784,北京市,万寿西宫,,29,10,40,3,18,208,90,93,93,7,12,3,3,0.3,0.4
2022-05-25T07:00:00,1002A,116.2202,40.2915,北京市,定陵(对照点),,27,7,41,2,17,224,86,97,94,7,13,1,2,0.2,0.3
2022-05-25T07:00:00,1003A,116.4174,39.9289,北京市,东四,,28,12,45,2,18,211,89,97,93,6,13,3,3,0.2,0.5
2022-05-25T07:00:00,1004A,116.4072,39.8863,北京市,天坛,,27,14,44,4,20,201,85,92,88,9,13,3,3,0.2,0.5
2022-05-25T07:00:00,1005A,116.462,39.9365,北京市,农展馆,,28,9,45,2,20,222,87,89,87,4,14,3,3,0.1,0.6
2022-05-25T07:00:00,1006A,116.3392,39.9295,北京市,官园,,28,10,37,3,17,221,87,90,89,3,8,2,4,0.2,0.4
2022-05-25T07:00:00,1007A,116.2878,39.9611,北京市,海淀万柳,,27,13,41,2,15,213,85,88,88,7,16,3,2,0.2,0.3
2022-05-25T07:00:00,1008A,116.6636,40.135,北京市,顺义新城,,24,12,51,3,21,171,76,80,80,4,10,3,3,0.2,0.4
2022-05-25T07:00:00,1009A,116.6275,40.3275,北京市,怀柔镇,,28,6,43,3,21,227,89,101,98,3,10,1,2,0.1,0.4
2022-05-25T07:00:00,1010A,116.2296,40.217,北京市,昌平镇,,25,11,42,3,18,203,77,88,84,6,12,1,2,0.2,0.4
2022-05-25T07:00:00,1011A,116.3966,39.9821,北京市,奥体中心,,29,13,41,2,16,219,92,97,96,9,16,3,3,0.2,0.4
2022-05-25T07:00:00,1012A,116.184,39.9136,北京市,古城,,31,16,44,3,15,234,98,96,96,8,14,3,3,0.0,0.3
2022-05-25T07:00:00,1015A,117.1444,39.1661,天津市,勤俭道,,38,38,68,3,28,223,84,90,89,9,19,5,11,0.3,0.8
2022-05-25T07:00:00,1017A,117.237,39.1082,天津市,大直沽八号路,,36,36,69,5,29,208,79,107,92,10,16,7,10,0.3,0.5
2022-05-25T07:00:00,1018A,117.202,39.0927,天津市,前进道,,32,32,63,5,29,206,82,95,92,9,18,6,10,0.4,0.7
2022-05-25T07:00:00,1019A,117.1837,39.2133,天津市,淮河道,,32,32,95,4,31,222,82,95,89,10,22,6,11,0.4,0.6
2022-05-25T07:00:00,1021A,117.307,39.0877,天津市,跃进路,颗粒物(PM10),52,54,64,14,27,218,66,97,88,15,17,8,9,0.6,0.6
2022-05-25T07:00:00,1023A,117.707,39.0343,天津市,第四大街,,37,37,68,8,28,194,56,99,76,18,20,5,7,0.4,0.6
2022-05-25T07:00:00,1024A,117.457,38.8394,天津市,永明路,,41,41,56,12,27,203,64,100,81,10,14,12,11,0.3,0.4
2022-05-25T07:00:00,1026A,117.764,39.1587,天津市,汉北路,,28,28,61,7,25,219,69,91,80,7,15,9,11,1.1,1.1
2022-05-25T07:00:00,1027A,117.157,38.9194,天津市,团泊洼(对照点),,31,31,63,20,27,222,85,94,91,13,18,5,9,0.7,1
2022-05-25T07:00:00,1029A,114.4422,38.0444,石家庄市,职工医院,颗粒物(PM10),73,95,66,18,26,237,75,122,95,22,29,8,14,0.5,0.8
2022-05-25T07:00:00,1030A,114.6063,38.0266,石家庄市,高新区,"颗粒物(PM10),细颗粒物(PM2.5)",59,68,68,42,33,226,60,110,86,18,25,8,14,0.3,0.6
2022-05-25T07:00:00,1031A,114.4898,38.1328,石家庄市,西北水源,颗粒物(PM10),69,88,71,30,36,231,69,104,83,12,20,6,13,0.4,0.8
2022-05-25T07:00:00,1032A,114.4586,38.0058,石家庄市,西南高教,颗粒物(PM10),58,66,55,27,29,199,79,140,103,11,18,4,8,0.5,0.9
2022-05-25T07:00:00,1033A,114.5331,38.0178,石家庄市,世纪公园,颗粒物(PM10),61,72,71,27,31,238,70,134,101,17,23,3,6,0.5,0.9
2022-05-25T07:00:00,1034A,114.509,38.0457,石家庄市,人民会堂,颗粒物(PM10),68,86,67,22,31,235,74,129,99,16,23,8,15,0.4,0.7
2022-05-25T07:00:00,1035A,114.3524,37.8911,石家庄市,封龙山(对照点),细颗粒物(PM2.5),59,65,59,42,31,244,76,181,116,10,10,8,15,0.6,0.9
2022-05-25T07:00:00,1037A,118.131,39.6363,唐山市,雷达站,,47,47,78,9,27,245,67,122,81,4,12,7,5,0.6,0.7
2022-05-25T07:00:00,1038A,118.1725,39.6334,唐山市,物资局,,39,39,77,16,30,253,67,126,83,11,21,8,8,0.5,0.6
2022-05-25T07:00:00,1040A,118.1705,39.6506,唐山市,十二中,,40,26,57,28,32,237,62,118,76,15,18,8,7,0.7,0.6
2022-05-25T07:00:00,1041A,118.1869,39.622,唐山市,小山,,38,38,79,12,24,260,56,123,78,15,20,9,8,0.5,0.5
2022-05-25T07:00:00,1042A,119.5134,39.8207,秦皇岛市,北戴河环保局,,26,14,75,18,28,291,80,83,72,10,16,6,10,0.7,1
2022-05-25T07:00:00,1043A,119.7493,40.0116,秦皇岛市,第一关,,35,35,66,5,32,281,77,70,67,16,19,10,18,0.3,0.7
2022-05-25T07:00:00,1044A,119.5897,39.9499,秦皇岛市,监测站,,29,29,64,5,29,277,78,75,69,11,22,6,10,0.2,0.4
2022-05-25T07:00:00,1046A,119.5251,39.9041,秦皇岛市,建设大厦,,28,28,62,15,28,255,84,91,75,5,15,3,11,0.4,0.9
2022-05-25T07:00:00,1048A,114.5302,36.6116,邯郸市,东污水处理厂,颗粒物(PM10),74,98,60,42,38,211,84,88,73,15,17,7,10,0.5,0.7
2022-05-25T07:00:00,1049A,114.4918,36.5713,邯郸市,矿院,颗粒物(PM10),78,105,67,34,37,209,89,82,71,7,14,8,12,0.6,0.6
2022-05-25T07:00:00,1050A,114.484,36.6133,邯郸市,丛台公园,颗粒物(PM10),68,86,53,35,36,217,86,78,69,17,20,7,12,0.7,0.9
2022-05-25T07:00:00,1051A,115.493,38.8632,保定市,游泳馆,颗粒物(PM10),64,77,57,12,22,223,86,77,77,10,21,12,16,0.2,0.4
2022-05-25T07:00:00,1053A,115.4713,38.9108,保定市,接待中心,颗粒物(PM10),60,70,59,19,26,237,82,81,70,13,25,6,9,0.6,0.8
2022-05-25T07:00:00,1054A,115.4612,38.8416,保定市,地表水厂,颗粒物(PM10),91,131,84,18,26,221,85,75,75,8,23,9,12,0.3,0.6
2022-05-25T07:00:00,1055A,115.4323,38.8697,保定市,胶片厂,颗粒物(PM10),77,104,63,20,23,231,87,90,78,10,21,10,14,0.4,0.7
2022-05-25T07:00:00,1056A,115.5086,38.8639,保定市,监测站,颗粒物(PM10),105,159,82,25,31,227,87,67,67,8,25,6,10,0.2,0.6
2022-05-25T07:00:00,1057A,114.8883,40.8336,张家口市,人民公园,,27,9,50,2,10,192,85,98,93,5,8,1,5,0.3,0.4
2022-05-25T07:00:00,1059A,114.8687,40.8042,张家口市,五金库,,27,12,53,5,13,192,84,102,95,5,7,4,5,0.2,0.3
2022-05-25T07:00:00,1060A,114.8902,40.762,张家口市,世纪豪园,,28,9,49,1,16,198,87,100,93,8,12,3,5,0.2,0.3
2022-05-25T07:00:00,1061A,114.8916,40.8661,张家口市,北泵房(对照点),,28,12,37,11,15,173,87,98,94,2,5,8,10,0.4,0.5
2022-05-25T07:00:00,1062A,117.9531,40.9081,承德市,铁路,,22,12,48,15,26,178,68,71,62,7,23,6,8,0.2,0.4
2022-05-25T07:00:00,1063A,117.9392,40.9763,承德市,中国银行,,24,24,42,7,20,174,50,48,46,16,15,2,4,0.1,0.3
2022-05-25T07:00:00,1064A,117.9503,40.928,承德市,开发区,,26,22,47,11,21,192,82,76,72,5,15,6,9,0.3,0.5
2022-05-25T07:00:00,1065A,117.8051,40.9655,承德市,文化中心,,24,12,46,7,24,194,75,77,73,6,10,3,7,0.2,0.4
2022-05-25T07:00:00,1066A,117.9268,41.0026,承德市,离宫(对照点),,32,9,36,22,26,187,35,31,31,6,10,4,6,0.2,0.3
2022-05-25T07:00:00,1067A,116.6708,39.5111,廊坊市,药材公司,颗粒物(PM10),52,54,76,21,31,228,95,99,97,11,23,5,8,0.2,0.5
2022-05-25T07:00:00,1068A,116.7214,39.5589,廊坊市,开发区,颗粒物(PM10),53,56,73,13,32,224,91,97,95,11,22,6,9,0.2,0.5
2022-05-25T07:00:00,1070A,116.7244,39.5269,廊坊市,北华航天学院,颗粒物(PM10),52,54,86,13,35,214,91,96,93,12,21,7,9,0.2,0.5
2022-05-25T07:00:00,1071A,116.8842,38.2991,沧州市,沧县城建局,颗粒物(PM10),52,54,69,27,31,197,87,98,87,13,24,8,12,0.1,0.5
2022-05-25T07:00:00,1072A,116.8584,38.3254,沧州市,电视转播站,颗粒物(PM10),53,55,71,11,31,187,73,107,79,14,20,9,12,0.3,0.5
2022-05-25T07:00:00,1073A,116.8709,38.3228,沧州市,市环保局,颗粒物(PM10),51,52,74,22,29,209,88,116,91,15,25,8,11,0.5,0.7
2022-05-25T07:00:00,1074A,115.6838,37.7541,衡水市,电机北厂,颗粒物(PM10),120,190,89,10,32,231,82,124,89,9,14,7,12,0.2,0.5
2022-05-25T07:00:00,1075A,115.6303,37.7316,衡水市,市监测站,颗粒物(PM10),156,262,99,16,35,225,80,94,83,8,17,14,17,0.4,0.5
2022-05-25T07:00:00,1077A,114.4704,37.0886,邢台市,达活泉,颗粒物(PM10),70,90,81,21,29,252,75,75,74,15,22,5,15,0.6,1.2
2022-05-25T07:00:00,1078A,114.5062,37.0349,邢台市,邢师高专,颗粒物(PM10),76,101,67,24,37,258,83,78,78,13,22,4,12,0.6,1
2022-05-25T07:00:00,1079A,114.5237,37.0851,邢台市,路桥公司,颗粒物(PM10),68,85,77,9,31,248,75,92,75,17,25,7,15,0.8,1.1
2022-05-25T07:00:00,1081A,112.5139,37.8873,太原市,尖草坪,,44,44,69,12,34,247,73,108,81,23,31,12,15,0.8,0.8
2022-05-25T07:00:00,1083A,112.434,38.0108,太原市,上兰(对照点),,38,38,36,18,16,199,71,151,99,11,12,5,6,0.5,0.6
2022-05-25T07:00:00,1084A,112.469,37.7124,太原市,晋源,颗粒物(PM10),55,60,68,21,39,228,71,99,82,21,35,8,7,0.5,0.6
2022-05-25T07:00:00,1085A,112.5583,37.7394,太原市,小店,颗粒物(PM10),58,65,68,13,31,229,75,126,87,20,34,7,10,0.5,0.8
2022-05-25T07:00:00,1086A,112.5369,37.8692,太原市,桃园,,40,40,64,6,30,247,77,92,82,16,31,6,13,0.3,0.8
2022-05-25T07:00:00,1087A,112.57,37.8195,太原市,坞城,颗粒物(PM10),57,64,66,11,32,238,73,111,86,19,30,8,12,0.2,0.6
2022-05-25T07:00:00,1088A,112.549,37.9854,太原市,南寨,,40,40,55,21,26,219,78,78,77,13,31,9,10,0.4,0.7
2022-05-25T07:00:00,1090A,111.6507,40.7517,呼和浩特市,呼市一监,,25,9,55,4,18,150,78,87,85,10,11,6,7,0.3,0.3
2022-05-25T07:00:00,1091A,111.6572,40.8033,呼和浩特市,小召,,23,14,53,3,17,154,72,91,77,9,17,5,7,0.3,0.4
2022-05-25T07:00:00,1094A,111.7516,40.8369,呼和浩特市,如意水处理厂,,25,15,40,2,14,169,79,94,89,15,16,8,9,0.3,0.4
2022-05-25T07:00:00,1095A,111.7276,40.8062,呼和浩特市,二十九中,,25,7,48,0,10,164,78,90,86,12,16,7,8,0.4,0.3
2022-05-25T07:00:00,1096A,111.5512,40.7866,呼和浩特市,工大金川校区,,25,11,41,2,14,170,80,98,92,15,16,5,7,0.3,0.4
2022-05-25T07:00:00,1097A,111.717,40.7612,呼和浩特市,化肥厂生活区,,27,12,46,0,16,157,84,91,89,8,12,8,10,0.5,0.4
2022-05-25T07:00:00,1098A,123.6836,41.9339,沈阳市,森林路(对照点),,22,22,53,12,22,203,59,58,54,10,13,6,11,0.5,0.8
2022-05-25T07:00:00,1099A,123.505,41.7406,沈阳市,浑南东路,,19,16,52,4,16,209,59,58,55,10,13,9,16,0.4,0.6
2022-05-25T07:00:00,1100A,123.4231,41.6989,沈阳市,新秀街,,20,15,59,6,17,194,62,56,56,12,18,5,12,0.6,0.8
2022-05-25T07:00:00,1102A,123.5903,41.8411,沈阳市,东陵路,,18,7,58,12,24,203,45,43,43,15,15,7,13,0.4,0.6
2022-05-25T07:00:00,1103A,123.4264,41.8467,沈阳市,陵东街,,18,11,49,5,18,199,57,50,50,13,17,5,10,0.3,0.5
2022-05-25T07:00:00,1104A,123.4114,41.7653,沈阳市,文化路,颗粒物(PM10),59,67,66,6,18,206,62,58,57,7,11,5,10,0.5,0.7
2022-05-25T07:00:00,1105A,123.4678,41.7867,沈阳市,小河沿,,18,10,54,4,18,195,57,53,53,11,19,4,11,0.3,0.6
2022-05-25T07:00:00,1106A,123.4017,41.7972,沈阳市,太原街,颗粒物(PM10),61,71,74,14,25,215,57,60,57,18,18,5,10,0.5,0.7
2022-05-25T07:00:00,1108A,123.3783,41.9228,沈阳市,京沈街,,20,6,83,3,19,202,64,57,57,8,13,8,12,0.4,0.6
2022-05-25T07:00:00,1109A,121.612,38.9741,大连市,甘井子,,30,30,56,19,32,205,65,99,94,15,23,7,10,0.5,0.6
2022-05-25T07:00:00,1110A,121.565,38.9511,大连市,周水子,,38,38,53,16,31,205,54,96,89,14,17,5,7,0.7,0.8
2022-05-25T07:00:00,1111A,121.5637,38.8845,大连市,星海三站,,33,33,47,15,30,215,79,118,112,20,24,4,8,0.4,0.5
2022-05-25T07:00:00,1112A,121.6302,38.9117,大连市,青泥洼桥,,31,31,43,10,21,222,80,105,101,18,16,6,8,0.4,0.5
2022-05-25T07:00:00,1113A,121.6251,38.8638,大连市,傅家庄,,33,33,40,14,21,216,81,96,93,14,15,4,4,0.8,0.8
2022-05-25T07:00:00,1114A,121.5213,38.8661,大连市,七贤岭,,,19,49,,,26,12,13,13,12,12,14,15,0.4,0.6
2022-05-25T07:00:00,1115A,121.2529,38.8061,大连市,旅顺,,29,29,35,8,18,204,59,103,92,10,18,5,7,0.6,0.7
2022-05-25T07:00:00,1116A,121.7485,39.1311,大连市,金州,,41,41,50,11,24,165,46,75,70,15,21,4,9,0.5,0.6
2022-05-25T07:00:00,1117A,121.7811,39.0496,大连市,开发区,,34,34,45,14,22,215,73,103,99,15,23,5,7,0.8,0.8
2022-05-25T07:00:00,1118A,121.9762,39.0631,大连市,双D港,,28,22,30,19,21,247,89,109,102,15,25,8,10,0.9,0.8
2022-05-25T07:00:00,1119A,125.3325,43.9166,长春市,食品厂,,14,10,72,9,22,200,42,60,51,27,23,5,7,0.5,0.6
2022-05-25T07:00:00,1120A,125.2863,43.9027,长春市,客车厂,,17,17,73,10,22,197,41,61,55,27,18,5,7,0.7,0.8
2022-05-25T07:00:00,1121A,125.2841,43.8463,长春市,邮电学院,,17,6,75,10,20,197,53,62,58,15,16,2,4,0.5,0.6
2022-05-25T07:00:00,1122A,125.3716,43.8772,长春市,劳动公园,,16,14,59,9,19,209,49,57,54,18,15,3,4,0.6,0.7
2022-05-25T07:00:00,1123A,125.3297,43.8805,长春市,园林处,,16,9,39,8,19,199,50,59,57,13,15,4,6,0.3,0.5
2022-05-25T07:00:00,1124A,125.4605,43.79,长春市,净月潭,,18,7,41,7,18,199,55,65,56,8,7,6,8,0.3,0.5
2022-05-25T07:00:00,1125A,125.7194,43.515,长春市,甩湾子(对照点),,19,7,38,3,18,192,58,50,50,5,10,7,10,0.5,0.6
2022-05-25T07:00:00,1126A,125.3863,43.8447,长春市,经开区环卫处,,,19,55,22,21,209,52,64,58,,11,6,9,0.6,0.8
2022-05-25T07:00:00,1127A,125.245,43.7783,长春市,高新区管委会,,18,9,54,12,23,206,57,71,62,15,14,5,7,0.4,0.5
2022-05-25T07:00:00,1128A,125.1761,43.8325,长春市,岱山公园,,16,7,63,10,19,187,49,54,53,13,17,5,7,0.3,0.5
2022-05-25T07:00:00,1129A,126.5422,45.755,哈尔滨市,岭北(对照点),,21,21,20,7,10,88,30,37,26,16,13,13,13,0.2,0.2
2022-05-25T07:00:00,1130A,126.561,45.8167,哈尔滨市,松北商大,,9,8,13,3,8,94,27,24,19,10,10,4,4,0.7,0.5
2022-05-25T07:00:00,1131A,126.979,45.5419,哈尔滨市,阿城会宁,,23,15,32,16,15,97,33,59,43,20,12,7,8,0.8,0.6
2022-05-25T07:00:00,1132A,126.599,45.7222,哈尔滨市,南岗学府路,,,13,14,10,6,97,18,34,27,21,13,,12,0.7,0.8
2022-05-25T07:00:00,1133A,126.689,45.7733,哈尔滨市,太平宏伟公园,,17,17,47,9,13,91,28,50,41,24,17,10,11,0.5,0.5
2022-05-25T07:00:00,1134A,126.635,45.7667,哈尔滨市,道外承德广场,,26,26,34,8,9,93,35,54,44,17,18,8,8,0.5,0.4
2022-05-25T07:00:00,1135A,126.685,45.7319,哈尔滨市,香坊红旗大街,,16,16,43,9,13,89,21,52,43,23,15,8,9,0.6,0.6
2022-05-25T07:00:00,1136A,126.6411,45.7258,哈尔滨市,动力和平路,,28,28,26,5,5,93,26,55,44,17,9,9,10,0.5,0.4
2022-05-25T07:00:00,1137A,126.593,45.7478,哈尔滨市,道里建国路,,13,13,22,8,9,85,32,47,36,16,13,17,17,0.2,0.3
2022-05-25T07:00:00,1138A,126.615,45.61,哈尔滨市,平房东轻厂,,18,17,35,12,11,83,10,35,15,27,25,6,5,0.8,0.8
2022-05-25T07:00:00,1139A,126.595,45.9855,哈尔滨市,呼兰师专,,15,15,22,10,15,91,46,35,35,14,13,9,8,0.4,0.4
2022-05-25T07:00:00,1140A,126.6206,45.6842,哈尔滨市,省农科院,,25,7,33,17,12,96,25,54,40,18,13,8,8,0.5,0.6
2022-05-25T07:00:00,1141A,121.4,31.238,上海市,普陀,,30,27,14,21,8,124,88,99,92,12,12,10,3,1.0,1
2022-05-25T07:00:00,1142A,121.478,31.2036,上海市,十五厂,,25,22,10,16,10,117,78,93,83,12,11,5,5,1.1,1.1
2022-05-25T07:00:00,1143A,121.467,31.3008,上海市,虹口,,24,17,10,13,9,106,74,89,81,11,9,6,5,1.2,1.2
2022-05-25T07:00:00,1144A,121.412,31.1654,上海市,徐汇上师大,,28,28,15,18,12,114,70,86,75,8,7,6,6,1.2,1.2
2022-05-25T07:00:00,1145A,121.536,31.2659,上海市,杨浦四漂,,24,24,7,15,7,117,76,91,82,10,8,6,6,0.2,0.2
2022-05-25T07:00:00,1147A,121.425,31.2261,上海市,静安监测站,,30,29,14,21,10,117,80,93,84,13,13,8,5,0.4,0.3
2022-05-25T07:00:00,1148A,121.703,31.1907,上海市,浦东川沙,,26,26,20,17,10,129,71,100,72,21,16,4,4,1.1,1.1
2022-05-25T07:00:00,1149A,121.533,31.2284,上海市,浦东新区监测站,,25,25,14,17,10,119,69,98,86,14,10,6,5,0.7,0.7
2022-05-25T07:00:00,1150A,121.577,31.2071,上海市,浦东张江,,26,20,8,18,13,108,66,82,69,12,12,3,3,0.7,0.7
2022-05-25T07:00:00,1151A,118.8086,32.1065,南京市,迈皋桥,,36,36,31,14,15,129,59,68,62,27,30,4,4,0.6,0.6
2022-05-25T07:00:00,1152A,118.7538,32.0551,南京市,草场门,,36,36,29,22,16,149,71,85,74,20,19,3,3,0.6,0.6
2022-05-25T07:00:00,1153A,118.7794,32.0745,南京市,山西路,,36,36,33,17,16,156,76,92,83,13,12,3,4,0.1,0.1
2022-05-25T07:00:00,1154A,118.7752,32.0023,南京市,中华门,,34,34,35,17,14,153,68,86,68,12,10,3,4,0.4,0.4
2022-05-25T07:00:00,1155A,118.8109,32.0309,南京市,瑞金路,颗粒物(PM10),51,51,45,24,19,150,66,84,71,16,13,4,4,0.3,0.3
2022-05-25T07:00:00,1156A,118.7997,32.0754,南京市,玄武湖,,26,26,29,17,17,142,78,81,73,9,14,4,4,0.2,0.2
2022-05-25T07:00:00,1157A,118.6414,32.0931,南京市,浦口,,31,31,32,21,16,152,58,109,71,22,21,4,4,0.2,0.2
2022-05-25T07:00:00,1158A,118.7356,31.9996,南京市,奥体中心,,34,34,30,19,16,144,65,93,72,17,15,1,1,0.7,0.7
2022-05-25T07:00:00,1159A,118.9125,32.1028,南京市,仙林大学城,,27,27,31,17,19,154,65,76,74,11,9,5,5,0.7,0.7
2022-05-25T07:00:00,1160A,120.561,31.2472,苏州市,上方山(对照点),,20,19,13,14,14,114,47,83,66,29,16,5,5,0.3,0.4
2022-05-25T07:00:00,1162A,120.591,31.3019,苏州市,彩香,,48,27,16,33,19,123,69,88,78,13,7,5,5,0.4,0.4
2022-05-25T07:00:00,1163A,120.596,31.3264,苏州市,轧钢厂,,28,28,23,15,14,136,69,93,79,17,11,6,5,0.4,0.4
2022-05-25T07:00:00,1164A,120.613,31.2703,苏州市,吴中区,,38,29,21,26,19,127,70,90,76,15,9,5,5,0.4,0.4
2022-05-25T07:00:00,1165A,120.543,31.2994,苏州市,苏州新区,,45,22,18,31,22,129,64,94,79,20,9,5,5,0.5,0.5
2022-05-25T07:00:00,1166A,120.669,31.3097,苏州市,苏州工业园区,,23,15,18,16,12,117,58,80,70,14,11,6,6,0.5,0.5
2022-05-25T07:00:00,1167A,120.641,31.3708,苏州市,相城区,,29,29,25,19,22,89,46,71,57,24,19,12,6,0.4,0.5
2022-05-25T07:00:00,1168A,120.9098,31.9663,南通市,狼山街道,,29,29,16,12,6,121,70,89,70,20,10,10,9,0.4,0.4
2022-05-25T07:00:00,1169A,120.86,32.0005,南通市,虹桥,,40,23,15,28,15,118,62,77,70,22,12,6,5,0.5,0.5
2022-05-25T07:00:00,1170A,120.87,32.02,南通市,城中,细颗粒物(PM2.5),53,23,16,37,15,110,59,78,68,31,14,8,8,0.4,0.4
2022-05-25T07:00:00,1171A,120.94,31.93,南通市,星湖花园,,23,23,16,12,6,107,52,80,62,32,13,10,8,0.7,0.6
2022-05-25T07:00:00,1172A,120.81,32.0417,南通市,紫琅学院,,32,26,17,22,6,111,54,70,65,28,15,7,6,0.4,0.4
2022-05-25T07:00:00,1173A,119.176,34.5885,连云港市,市环境监测站,,44,44,37,29,19,127,58,63,61,13,11,8,11,0.4,0.2
2022-05-25T07:00:00,1177A,117.179,34.2761,徐州市,黄河新村,颗粒物(PM10),58,66,55,34,24,189,87,120,106,22,14,6,5,0.6,0.5
2022-05-25T07:00:00,1178A,117.1918,34.2384,徐州市,淮塔,颗粒物(PM10),55,59,51,34,28,189,84,116,100,24,13,10,9,0.7,0.6
2022-05-25T07:00:00,1180A,117.256,34.2153,徐州市,新城区,细颗粒物(PM2.5),60,61,54,43,26,185,82,106,96,23,14,8,7,0.7,0.6
2022-05-25T07:00:00,1181A,117.244,34.2911,徐州市,桃园路,细颗粒物(PM2.5),67,63,56,48,26,202,94,122,106,21,14,12,11,0.9,0.7
2022-05-25T07:00:00,1182A,117.2933,34.2778,徐州市,农科院,颗粒物(PM10),58,66,49,31,17,193,65,110,92,38,18,6,6,0.7,0.5
2022-05-25T07:00:00,1186A,119.389,32.3761,扬州市,邗江监测站,颗粒物(PM10),52,53,45,25,23,148,52,40,38,22,19,8,8,0.9,0.9
2022-05-25T07:00:00,1188A,120.269,31.4867,无锡市,雪浪,,39,39,26,22,11,110,47,72,60,18,15,8,8,0.6,0.6
2022-05-25T07:00:00,1189A,120.275,31.6219,无锡市,黄巷,,32,32,25,19,14,131,46,76,64,36,22,7,6,0.4,0.3
2022-05-25T07:00:00,1190A,120.294,31.56,无锡市,曹张,,29,29,21,19,12,120,62,73,65,16,16,5,4,0.6,0.6
2022-05-25T07:00:00,1191A,120.242,31.5031,无锡市,漆塘,,28,27,21,19,14,123,57,82,70,27,22,5,5,0.4,0.4
2022-05-25T07:00:00,1192A,120.3489,31.5863,无锡市,东亭,,39,31,24,27,15,123,57,76,66,14,12,7,7,0.6,0.6
2022-05-25T07:00:00,1193A,120.354,31.5475,无锡市,旺庄,,25,22,22,17,14,124,48,70,60,26,19,5,4,0.7,0.7
2022-05-25T07:00:00,1194A,120.245,31.5631,无锡市,荣巷,,32,31,23,22,16,125,60,77,69,28,22,9,8,0.3,0.3
2022-05-25T07:00:00,1195A,120.299,31.6817,无锡市,堰桥,,32,31,26,22,16,135,66,83,74,15,14,6,5,0.6,0.6
2022-05-25T07:00:00,1196A,119.9633,31.762,常州市,市监测站,颗粒物(PM10),54,58,47,27,15,119,75,75,70,22,28,5,6,0.7,0.7
2022-05-25T07:00:00,1200A,119.9468,31.7069,常州市,武进监测站,,50,50,40,8,14,160,98,81,81,5,14,5,5,0.6,0.6
2022-05-25T07:00:00,1201A,119.9255,31.9087,常州市,安家,细颗粒物(PM2.5),59,45,41,42,34,144,51,63,53,16,14,4,4,0.7,0.6
2022-05-25T07:00:00,1203A,119.6707,32.1875,镇江市,新区办事处,细颗粒物(PM2.5),85,62,42,63,27,149,37,74,43,39,31,7,6,0.7,0.6
2022-05-25T07:00:00,1204A,119.4974,32.1968,镇江市,职教中心,细颗粒物(PM2.5),54,45,41,38,35,142,54,59,47,20,23,9,7,0.7,0.7
2022-05-25T07:00:00,1205A,119.4303,32.1328,镇江市,丹徒区监测站,细颗粒物(PM2.5),98,52,44,73,49,166,63,54,54,22,21,5,6,0.6,0.7
2022-05-25T07:00:00,1206A,119.905,32.4878,泰州市,公园路,细颗粒物(PM2.5),52,41,29,36,21,128,51,63,56,18,16,7,6,0.9,0.8
2022-05-25T07:00:00,1207A,119.9189,32.4625,泰州市,莲花,细颗粒物(PM2.5),73,46,29,53,30,127,47,64,54,16,12,5,5,0.9,0.8
2022-05-25T07:00:00,1209A,119.888,32.4639,泰州市,留学生创业园,细颗粒物(PM2.5),53,43,37,37,29,132,52,68,61,13,12,7,6,0.7,0.7
2022-05-25T07:00:00,1210A,119.036,33.5981,淮安市,钵池山,细颗粒物(PM2.5),54,49,33,38,26,138,63,82,70,17,13,6,7,0.9,0.7
2022-05-25T07:00:00,1211A,119.007,33.575,淮安市,北京南路,细颗粒物(PM2.5),77,53,40,56,31,138,57,78,67,18,14,8,10,0.9,0.6
2022-05-25T07:00:00,1213A,119.135,33.5039,淮安市,楚州区监测站,细颗粒物(PM2.5),135,54,36,103,46,125,36,59,46,28,17,12,10,0.8,0.6
2022-05-25T07:00:00,1214A,119.0186,33.6297,淮安市,淮阴区监测站,细颗粒物(PM2.5),59,38,34,42,30,124,55,76,67,20,12,8,8,0.8,0.6
2022-05-25T07:00:00,1215A,120.118,33.4022,盐城市,盐城电厂,,44,44,23,25,16,128,87,105,96,12,10,10,9,0.7,0.5
2022-05-25T07:00:00,1216A,120.156,33.3942,盐城市,市监测站,,25,23,18,16,6,115,78,96,88,10,9,9,8,0.4,0.3
2022-05-25T07:00:00,1218A,120.2144,33.38,盐城市,开发区管委会,,45,31,18,31,15,113,68,88,78,12,11,6,7,0.4,0.3
2022-05-25T07:00:00,1220A,118.293,33.9528,宿迁市,宿迁学院,颗粒物(PM10),58,66,49,26,26,168,55,93,71,23,22,9,7,1.0,0.8
2022-05-25T07:00:00,1221A,118.2442,33.9592,宿迁市,宿迁中学,颗粒物(PM10),56,62,47,23,22,175,58,122,89,16,10,10,8,0.8,0.5
2022-05-25T07:00:00,1223A,120.2072,30.2111,杭州市,滨江,,50,50,56,28,29,162,31,48,36,28,28,3,4,0.6,0.6
2022-05-25T07:00:00,1224A,120.0633,30.2747,杭州市,西溪,,46,46,44,29,26,157,31,59,45,20,18,10,10,0.6,0.6
2022-05-25T07:00:00,1226A,120.3461,30.3153,杭州市,下沙,,42,42,38,24,22,175,23,62,47,45,21,7,7,0.5,0.4
2022-05-25T07:00:00,1227A,120.1269,30.2456,杭州市,卧龙桥,细颗粒物(PM2.5),55,45,45,39,30,168,19,61,37,22,20,5,5,0.7,0.6
2022-05-25T07:00:00,1228A,120.1903,30.2692,杭州市,浙江农大,细颗粒物(PM2.5),65,40,41,47,39,174,35,63,47,24,21,4,5,0.5,0.5
2022-05-25T07:00:00,1230A,120.1197,30.3119,杭州市,和睦小学,颗粒物(PM10),51,52,47,31,26,157,39,62,50,27,28,3,4,0.7,0.7
2022-05-25T07:00:00,1231A,120.3019,30.4183,杭州市,临平镇,颗粒物(PM10),55,60,44,32,22,159,61,65,63,13,16,3,3,0.6,0.6
2022-05-25T07:00:00,1232A,120.2697,30.1819,杭州市,城厢镇,细颗粒物(PM2.5),54,50,47,38,35,160,28,44,37,36,28,8,7,0.6,0.6
2022-05-25T07:00:00,1233A,120.0883,30.1808,杭州市,云栖,颗粒物(PM10),53,55,50,31,23,171,16,57,26,27,28,7,8,0.3,0.3
2022-05-25T07:00:00,1234A,121.8358,29.911,宁波市,区环保大楼,,28,28,18,19,12,72,42,45,34,35,49,6,6,0.6,0.5
2022-05-25T07:00:00,1235A,121.56,29.82,宁波市,万里学院,,32,19,12,22,8,116,33,91,70,38,17,21,8,0.5,0.4
2022-05-25T07:00:00,1236A,121.713,29.9572,宁波市,龙赛医院,,25,19,16,16,10,82,23,72,45,50,41,6,8,0.5,0.5
2022-05-25T07:00:00,1239A,121.633,29.7733,宁波市,钱湖水厂,,20,13,7,10,5,108,64,94,82,5,7,5,6,0.6,0.5
2022-05-25T07:00:00,1240A,121.5856,29.8635,宁波市,太古小学,,36,36,9,20,9,92,45,77,62,28,26,19,7,0.4,0.4
2022-05-25T07:00:00,1241A,121.524,29.8674,宁波市,市环境监测中心,,19,19,14,9,6,88,50,82,68,22,26,10,7,0.5,0.5
2022-05-25T07:00:00,1242A,120.634,28.0089,温州市,瓯海,,49,49,32,34,19,81,27,47,21,36,37,5,5,0.5,0.5
2022-05-25T07:00:00,1243A,120.6748,27.9939,温州市,南浦,,49,49,36,28,20,82,34,62,43,29,34,5,5,0.6,0.6
2022-05-25T07:00:00,1244A,120.76,27.9747,温州市,龙湾,,,60,46,26,19,78,9,18,12,,49,4,4,0.6,0.6
2022-05-25T07:00:00,1245A,120.6709,28.0167,温州市,市站,,42,42,40,22,22,72,46,62,47,22,35,4,4,0.5,0.6
2022-05-25T07:00:00,1247A,120.6053,29.9928,绍兴市,城东开发委,细颗粒物(PM2.5),52,41,38,36,28,145,8,14,8,31,25,6,8,0.7,0.6
2022-05-25T07:00:00,1250A,120.0751,30.8669,湖州市,城西水厂,,25,21,25,17,16,144,59,85,78,16,12,5,4,0.4,0.4
2022-05-25T07:00:00,1252A,120.7436,30.778,嘉兴市,清河小学,,34,34,21,16,12,128,56,88,77,19,10,6,6,0.6,0.6
2022-05-25T07:00:00,1253A,120.726,30.7478,嘉兴市,嘉兴学院,,28,28,26,15,17,121,75,90,78,14,16,4,4,0.3,0.3
2022-05-25T07:00:00,1255A,121.273,28.6459,台州市,黄岩环保大楼,,30,30,24,12,10,94,28,31,26,25,17,7,5,0.6,0.5
2022-05-25T07:00:00,1256A,121.419,28.6542,台州市,台州环保大楼,,24,15,17,7,8,107,76,97,87,14,11,4,4,0.4,0.3
2022-05-25T07:00:00,1257A,121.377,28.5773,台州市,路桥田洋王,,19,11,18,12,17,98,60,71,69,19,14,6,5,0.2,0.2
2022-05-25T07:00:00,1258A,122.122,30.0203,舟山市,定海檀枫,,21,9,8,6,6,98,65,82,72,2,4,1,2,0.2,0.2
2022-05-25T07:00:00,1259A,122.3094,29.9558,舟山市,普陀东港,,27,16,15,12,8,114,85,94,88,6,4,3,3,0.3,0.3
2022-05-25T07:00:00,1260A,122.19,29.9944,舟山市,临城新区,,16,16,14,11,8,92,39,78,61,10,7,3,2,0.4,0.3
2022-05-25T07:00:00,1262A,119.647,29.077,金华市,十五中,,21,21,36,10,28,102,17,24,18,14,21,12,6,0.6,0.5
2022-05-25T07:00:00,1263A,119.686,29.1029,金华市,监测站,,38,20,34,26,18,106,13,17,8,18,26,5,5,0.7,0.6
2022-05-25T07:00:00,1264A,118.8692,28.9398,衢州市,环保大楼,,35,35,51,22,26,111,14,3,3,18,25,33,15,0.7,0.7
2022-05-25T07:00:00,1265A,118.8709,28.9666,衢州市,实验学校,,34,34,36,16,22,115,5,1,1,11,16,4,5,0.7,0.6
2022-05-25T07:00:00,1266A,118.8621,28.9808,衢州市,衢州学院,,43,43,38,17,17,121,4,3,3,25,28,6,8,0.7,0.6
2022-05-25T07:00:00,1267A,119.914,28.4514,丽水市,监测站大楼,,17,17,21,8,11,70,14,8,8,11,17,4,4,0.4,0.4
2022-05-25T07:00:00,1268A,119.93,28.4586,丽水市,莲都小学,,17,17,29,6,9,82,19,10,10,8,15,5,5,0.3,0.4
2022-05-25T07:00:00,1269A,119.879,28.4231,丽水市,余庄前,,37,37,26,14,9,84,5,3,3,14,14,5,5,0.5,0.4
2022-05-25T07:00:00,1270A,117.1959,31.7848,合肥市,明珠广场,颗粒物(PM10),52,53,46,29,21,177,71,94,80,34,25,8,7,0.7,0.6
2022-05-25T07:00:00,1271A,117.3072,31.8764,合肥市,三里街,颗粒物(PM10),62,73,52,41,20,141,51,76,65,42,26,10,10,0.6,0.5
2022-05-25T07:00:00,1272A,117.2588,31.8707,合肥市,琥珀山庄,,46,46,44,29,17,163,75,100,89,26,17,9,10,0.8,0.6
2022-05-25T07:00:00,1273A,117.1604,31.9052,合肥市,董铺水库(对照点),颗粒物(PM10),53,56,49,19,16,164,88,102,93,19,17,9,9,0.7,0.4
2022-05-25T07:00:00,1274A,117.25,31.8571,合肥市,长江中路,颗粒物(PM10),51,51,47,31,26,170,87,106,96,27,23,9,9,0.8,0.5
2022-05-25T07:00:00,1275A,117.266,31.9436,合肥市,庐阳区,细颗粒物(PM2.5),58,58,46,41,24,158,79,98,87,26,22,12,11,0.9,0.6
2022-05-25T07:00:00,1276A,117.336,31.8586,合肥市,瑶海区,细颗粒物(PM2.5),80,102,55,59,26,155,54,67,58,39,26,8,8,0.7,0.6
2022-05-25T07:00:00,1277A,117.3027,31.7964,合肥市,包河区,细颗粒物(PM2.5),58,53,47,41,23,174,70,106,85,33,23,9,10,0.7,0.5
2022-05-25T07:00:00,1278A,117.2776,31.7385,合肥市,滨湖新区,颗粒物(PM10),51,51,44,34,23,172,97,118,105,16,12,10,9,0.8,0.4
2022-05-25T07:00:00,1279A,117.1318,31.8403,合肥市,高新区,颗粒物(PM10),53,56,46,34,23,189,94,101,98,20,20,11,10,0.7,0.6
2022-05-25T07:00:00,1280A,119.3903,26.0543,福州市,鼓山(对照点),,,11,10,3,10,50,18,29,20,18,26,,2,0.3,0.3
2022-05-25T07:00:00,1282A,119.2681,26.0504,福州市,师大,,32,29,23,22,20,38,17,28,24,23,37,2,2,0.4,0.4
2022-05-25T07:00:00,1283A,119.2984,26.1028,福州市,五四北路,,43,43,27,29,28,38,18,14,14,23,42,2,2,0.6,0.7
2022-05-25T07:00:00,1284A,119.2648,26.0768,福州市,杨桥西路,,40,21,22,28,24,38,19,24,23,24,37,3,3,0.4,0.5
2022-05-25T07:00:00,1285A,119.317,26.0746,福州市,紫阳,,33,32,27,23,24,29,20,21,20,25,44,5,4,0.6,0.7
2022-05-25T07:00:00,1286A,118.1608,24.8169,厦门市,溪东(对照点),,15,14,34,10,25,69,10,12,11,13,16,2,3,0.6,0.6
2022-05-25T07:00:00,1287A,118.1514,24.4767,厦门市,洪文,,16,16,26,10,15,86,29,53,38,29,30,6,3,0.6,0.7
2022-05-25T07:00:00,1288A,118.0661,24.4444,厦门市,鼓浪屿,,19,8,15,13,17,80,27,32,31,16,17,4,2,0.6,0.7
2022-05-25T07:00:00,1290A,115.8931,28.6843,南昌市,省外办,颗粒物(PM10),52,54,35,29,22,116,8,53,25,29,14,7,6,1.2,0.9
2022-05-25T07:00:00,1291A,115.8886,28.7003,南昌市,省林业公司,颗粒物(PM10),65,80,44,24,13,114,4,52,23,55,28,12,14,1.1,0.9
2022-05-25T07:00:00,1292A,115.8126,28.7442,南昌市,林科所,,28,27,34,19,22,127,49,37,37,12,26,4,6,0.7,0.7
2022-05-25T07:00:00,1294A,115.8518,28.687,南昌市,建工学校,细颗粒物(PM2.5),55,56,40,39,28,125,8,23,15,41,26,12,11,0.8,0.7
2022-05-25T07:00:00,1295A,115.8921,28.6424,南昌市,象湖,,50,50,33,31,18,113,7,40,17,37,22,6,5,1.0,0.8
2022-05-25T07:00:00,1296A,115.7423,28.7996,南昌市,武术学校(对照点),,21,21,36,14,16,127,3,4,3,4,7,13,14,0.5,0.5
2022-05-25T07:00:00,1298A,115.9314,28.6842,南昌市,省站,颗粒物(PM10),51,52,43,31,20,112,17,42,27,43,21,12,9,0.7,0.5
2022-05-25T07:00:00,1299A,116.9862,36.6114,济南市,科干所,颗粒物(PM10),51,51,58,24,29,212,128,180,151,11,7,13,13,0.5,0.5
2022-05-25T07:00:00,1301A,117.1265,36.6734,济南市,开发区,颗粒物(PM10),74,98,55,33,28,212,110,187,156,27,13,12,12,0.4,0.4
2022-05-25T07:00:00,1303A,117.0624,36.6868,济南市,省种子仓库,颗粒物(PM10),79,107,63,37,33,198,97,172,145,23,7,12,11,0.6,0.5
2022-05-25T07:00:00,1304A,116.9489,36.6447,济南市,机床二厂,颗粒物(PM10),68,85,79,27,29,191,101,158,126,20,14,8,8,0.4,0.4
2022-05-25T07:00:00,1305A,117.0495,36.663,济南市,市监测站,颗粒物(PM10),64,78,60,29,28,205,116,184,154,20,13,10,9,0.6,0.6
2022-05-25T07:00:00,1306A,116.7675,36.5484,济南市,长清党校,颗粒物(PM10),55,59,61,24,32,198,116,165,131,15,13,14,18,0.7,0.7
2022-05-25T07:00:00,1307A,120.6659,36.2403,青岛市,仰口(对照点),,,5,7,14,10,113,,97,83,21,17,1,4,0.8,0.7
2022-05-25T07:00:00,1310A,120.4134,36.0658,青岛市,市南区东部子站,,36,36,24,9,10,118,67,104,94,17,10,5,5,0.2,0.2
2022-05-25T07:00:00,1311A,120.3664,36.1032,青岛市,四方区子站,,29,29,23,19,14,126,61,105,92,18,11,5,6,0.7,0.6
2022-05-25T07:00:00,1312A,120.2994,36.054,青岛市,市南区西部子站,,24,24,22,15,7,133,66,115,101,22,14,5,6,0.5,0.4
2022-05-25T07:00:00,1313A,120.4581,36.0858,青岛市,崂山区子站,,27,27,17,12,7,134,84,110,103,14,14,7,8,0.3,0.3
2022-05-25T07:00:00,1314A,120.1983,35.9608,青岛市,黄岛区子站,,29,12,16,20,13,145,76,122,103,19,15,4,5,0.3,0.3
2022-05-25T07:00:00,1315A,120.3999,36.3083,青岛市,城阳区子站,,43,43,34,22,12,127,65,101,88,18,13,5,5,0.7,0.5
2022-05-25T07:00:00,1316A,113.69031,34.76122,郑州市,烟厂,颗粒物(PM10),60,69,56,34,30,189,84,116,97,34,19,14,9,0.7,0.6
2022-05-25T07:00:00,1317A,113.65724,34.77134,郑州市,郑纺机,,,73,58,,25,176,77,108,94,33,18,13,10,0.9,0.7
2022-05-25T07:00:00,1318A,113.67526,34.80246,郑州市,银行学校,颗粒物(PM10),58,65,51,32,28,198,87,129,107,33,20,13,9,0.7,0.5
2022-05-25T07:00:00,1319A,113.56746,34.81334,郑州市,供水公司,,,91,61,,23,182,46,113,85,60,24,10,8,0.7,0.5
2022-05-25T07:00:00,1320A,113.7329,34.7178,郑州市,经开区管委,"颗粒物(PM10),细颗粒物(PM2.5)",57,64,60,40,33,184,65,99,79,39,25,12,8,0.7,0.6
2022-05-25T07:00:00,1321A,113.73961,34.77172,郑州市,四十七中,颗粒物(PM10),56,62,61,29,28,185,82,113,98,35,22,14,9,0.6,0.6
2022-05-25T07:00:00,1322A,113.60532,34.74838,郑州市,市监测站,,,76,61,,24,170,46,104,84,56,21,13,11,0.8,0.6
2022-05-25T07:00:00,1323A,113.64164,34.7525,郑州市,河医大,颗粒物(PM10),63,76,57,33,27,183,74,115,97,31,15,10,8,0.7,0.6
2022-05-25T07:00:00,1324A,113.51488,34.91089,郑州市,岗李水库(对照点),颗粒物(PM10),67,83,58,37,29,193,28,71,38,46,20,6,8,0.8,0.5
2022-05-25T07:00:00,1325A,114.3677,30.5584,武汉市,东湖梨园,颗粒物(PM10),60,69,45,37,23,160,30,46,29,43,29,26,13,1.5,1
2022-05-25T07:00:00,1326A,114.2529,30.558,武汉市,汉阳月湖,颗粒物(PM10),53,55,41,24,21,193,36,28,23,57,50,11,10,1.2,1
2022-05-25T07:00:00,1327A,114.282,30.6189,武汉市,汉口花桥,,49,49,39,34,26,168,31,52,37,64,43,16,12,1.3,1
2022-05-25T07:00:00,1328A,114.3025,30.5332,武汉市,武昌紫阳,颗粒物(PM10),57,63,41,24,20,163,50,43,38,41,43,13,12,1.5,1.2
2022-05-25T07:00:00,1329A,114.3646,30.6217,武汉市,青山钢花,细颗粒物(PM2.5),67,82,52,48,28,165,27,56,37,57,36,22,12,1.5,1
2022-05-25T07:00:00,1330A,114.1566,30.4825,武汉市,沌口新区,颗粒物(PM10),54,58,45,33,27,182,37,50,39,49,42,12,13,1.1,1
2022-05-25T07:00:00,1331A,114.3014,30.5944,武汉市,汉口江滩,,,69,47,34,23,186,10,14,11,88,61,12,10,1.4,1
2022-05-25T07:00:00,1333A,114.135,30.6319,武汉市,吴家山,颗粒物(PM10),60,69,54,34,25,202,32,18,13,60,47,15,10,1.1,0.9
2022-05-25T07:00:00,1334A,113.8454,30.2917,武汉市,沉湖七壕(对照点),,50,50,34,20,20,176,58,37,21,8,28,5,6,0.9,0.9
2022-05-25T07:00:00,1335A,113.0833,28.2325,长沙市,经开区环保局,,29,13,21,20,23,92,28,42,32,16,18,3,2,0.7,0.8
2022-05-25T07:00:00,1336A,112.8872,28.2189,长沙市,高开区环保局,,32,7,13,22,25,103,33,48,38,16,15,8,7,0.6,0.6
2022-05-25T07:00:00,1337A,113.0792,28.2053,长沙市,马坡岭,,18,17,22,12,17,101,26,40,24,17,17,5,4,0.7,0.6
2022-05-25T07:00:00,1338A,112.9394,28.19,长沙市,湖南师范大学,,39,13,18,27,35,106,24,44,30,18,17,2,2,1.0,0.9
2022-05-25T07:00:00,1339A,113.0178,28.1322,长沙市,雨花区环保局,,25,6,17,17,22,96,26,48,37,21,15,6,5,0.6,0.6
2022-05-25T07:00:00,1340A,112.9792,28.2597,长沙市,伍家岭,,29,24,28,20,22,102,8,33,21,37,24,7,7,0.8,0.7
2022-05-25T07:00:00,1341A,113.0014,28.1944,长沙市,火车新站,,30,14,25,21,16,91,21,35,27,30,21,8,6,0.6,0.6
2022-05-25T07:00:00,1342A,112.9844,28.1178,长沙市,天心区环保局,,23,12,18,16,17,87,11,37,22,17,9,5,4,0.8,0.6
2022-05-25T07:00:00,1343A,112.8908,28.1308,长沙市,湖南中医药大学,,35,22,26,24,30,82,19,24,20,23,23,4,4,1.2,0.9
2022-05-25T07:00:00,1344A,112.9581,28.3611,长沙市,沙坪(对照点),,27,27,42,15,24,105,14,7,7,16,22,5,4,0.9,0.8
2022-05-25T07:00:00,1345A,113.2347,23.1423,广州市,广雅中学,,28,28,43,13,23,98,6,8,5,45,47,7,7,0.9,1
2022-05-25T07:00:00,1346A,113.2612,23.105,广州市,市五中,,26,26,39,14,25,154,5,5,3,42,43,5,6,0.7,0.8
2022-05-25T07:00:00,1348A,113.3478,23.0916,广州市,广东商学院,,25,24,40,11,22,164,5,4,4,50,49,5,5,0.8,0.8
2022-05-25T07:00:00,1349A,113.4332,23.1047,广州市,市八十六中,,35,35,51,11,23,155,0,0,0,53,53,9,9,0.5,0.7
2022-05-25T07:00:00,1350A,113.3505,22.9483,广州市,番禺中学,,27,27,33,11,16,174,10,11,6,37,40,9,10,0.6,0.6
2022-05-25T07:00:00,1351A,113.2146,23.3916,广州市,花都师范,,30,30,32,13,18,106,6,25,12,38,29,4,4,0.7,0.7
2022-05-25T07:00:00,1352A,113.2597,23.1331,广州市,市监测站,,28,28,43,13,21,114,5,4,4,46,45,6,6,0.7,0.8
2022-05-25T07:00:00,1353A,113.5618,23.312,广州市,九龙镇镇龙,,26,26,28,11,14,92,5,21,12,26,23,5,5,0.6,0.6
2022-05-25T07:00:00,1354A,113.2765,23.1544,广州市,麓湖,,31,31,41,13,21,109,4,5,4,45,44,4,4,0.9,1
2022-05-25T07:00:00,1355A,113.443,23.3035,广州市,帽峰山森林公园(对照点),,16,16,22,10,14,92,13,34,20,14,13,4,4,0.7,0.7
2022-05-25T07:00:00,1356A,114.1063,22.5545,深圳市,通心岭子站,,16,3,9,0,4,73,50,54,52,5,10,3,3,0.4,0.3
2022-05-25T07:00:00,1357A,114.117,22.5625,深圳市,洪湖,,17,3,13,0,6,82,52,58,55,10,16,6,6,0.4,0.4
2022-05-25T07:00:00,1358A,113.987,22.5417,深圳市,华侨城,,15,4,10,0,3,74,48,56,54,8,13,4,4,0.7,0.7
2022-05-25T07:00:00,1359A,113.9181,22.5171,深圳市,南海子站,,16,4,9,0,3,76,50,52,52,11,9,2,3,0.6,0.5
2022-05-25T07:00:00,1360A,114.2458,22.5689,深圳市,盐田,,17,4,10,0,5,70,52,48,47,9,35,2,4,0.7,0.7
2022-05-25T07:00:00,1361A,114.2283,22.7244,深圳市,龙岗,,14,10,17,3,9,77,36,52,44,27,28,4,4,0.7,0.6
2022-05-25T07:00:00,1363A,114.494,22.5422,深圳市,南澳,,17,4,8,0,2,86,52,56,55,6,8,6,6,0.8,0.7
2022-05-25T07:00:00,1364A,114.41,22.6342,深圳市,葵涌,,15,6,8,3,4,69,46,59,53,7,7,5,5,0.5,0.5
2022-05-25T07:00:00,1365A,114.297,22.5978,深圳市,梅沙,,18,2,8,0,3,82,55,64,62,5,8,5,5,0.4,0.4
2022-05-25T07:00:00,1366A,114.0678,22.738,深圳市,观澜,,13,13,23,4,12,61,20,24,22,26,22,5,5,0.7,0.6
2022-05-25T07:00:00,1367A,113.5814,22.2618,珠海市,吉大,,13,9,12,4,7,65,26,51,42,26,20,6,6,0.6,0.6
2022-05-25T07:00:00,1368A,113.4881,22.2335,珠海市,前山,,15,7,11,7,6,64,35,51,48,29,29,8,8,0.4,0.4
2022-05-25T07:00:00,1369A,113.628,22.4251,珠海市,唐家,,13,10,12,4,10,65,40,54,50,22,24,8,8,0.4,0.4
2022-05-25T07:00:00,1370A,113.299,22.2281,珠海市,斗门,,13,7,13,7,8,58,40,41,41,15,24,8,8,0.5,0.5
2022-05-25T07:00:00,1371A,113.1294,23.0067,佛山市,湾梁,,19,19,48,12,21,148,1,2,1,37,41,5,5,0.6,0.7
2022-05-25T07:00:00,1372A,113.1083,23.0478,佛山市,华材职中,,22,22,46,14,24,151,13,15,14,36,41,6,6,0.7,0.7
2022-05-25T07:00:00,1373A,113.144,23.0453,佛山市,南海气象局,,25,18,41,17,26,135,6,8,7,47,47,5,5,0.6,0.6
2022-05-25T07:00:00,1374A,113.2881,22.8094,佛山市,顺德苏岗,,21,11,19,12,16,159,4,10,8,41,37,5,5,0.8,0.8
2022-05-25T07:00:00,1376A,112.8383,22.8678,佛山市,高明孔堂,,29,25,39,20,20,183,21,33,27,16,25,5,6,0.5,0.6
2022-05-25T07:00:00,1377A,112.8836,23.1588,佛山市,三水监测站,,41,41,57,21,34,143,3,2,2,53,60,7,5,0.8,0.9
2022-05-25T07:00:00,1378A,112.867,23.185,佛山市,三水云东海,,38,38,42,12,22,155,4,3,3,39,29,5,5,0.7,0.7
2022-05-25T07:00:00,1379A,113.3769,22.5211,中山市,华柏园,,15,15,16,6,10,97,43,38,38,13,19,2,3,0.5,0.5
2022-05-25T07:00:00,1380A,113.3881,22.5497,中山市,张溪,,16,16,27,6,8,92,37,38,37,15,21,1,1,0.6,0.6
2022-05-25T07:00:00,1381A,113.4075,22.5111,中山市,紫马岭,,14,8,14,6,8,95,44,38,38,13,20,4,4,0.6,0.6
2022-05-25T07:00:00,1382A,113.4411,22.4853,中山市,长江旅游区(对照点),,13,1,10,4,8,95,41,39,39,12,17,3,3,0.5,0.5
2022-05-25T07:00:00,1383A,113.1064,22.6058,江门市,北街,,18,16,27,12,13,157,15,22,15,27,30,5,5,0.6,0.6
2022-05-25T07:00:00,1384A,113.0731,22.5835,江门市,西区,,15,12,25,10,16,163,27,24,20,20,28,4,4,0.6,0.6
2022-05-25T07:00:00,1385A,113.0219,22.5311,江门市,圭峰西,,15,13,25,10,15,148,23,27,26,18,24,4,4,0.4,0.5
2022-05-25T07:00:00,1386A,113.0828,22.5947,江门市,东湖,,23,23,36,8,15,160,30,25,22,16,24,5,6,0.5,0.5
2022-05-25T07:00:00,1389A,113.7547,23.0494,东莞市,莞城梨川,,11,11,26,5,15,140,34,30,30,14,23,7,8,0.8,0.8
2022-05-25T07:00:00,1390A,113.7944,23.0128,东莞市,东城石井,,16,16,27,7,15,139,23,23,23,18,25,6,7,0.5,0.6
2022-05-25T07:00:00,1391A,113.7383,22.9658,东莞市,南城西平,,21,21,29,13,18,138,24,31,22,24,27,3,3,0.5,0.6
2022-05-25T07:00:00,1392A,114.4183,23.0528,惠州市,河南岸金山湖子站,,13,9,20,8,11,72,39,38,38,12,10,3,3,0.6,0.6
2022-05-25T07:00:00,1393A,114.4053,23.0822,惠州市,下埔横江三路子站,,14,14,23,7,12,79,43,44,44,14,14,3,3,0.5,0.5
2022-05-25T07:00:00,1394A,114.4103,23.1142,惠州市,江北云山西路子站,,14,14,22,8,13,81,39,40,39,9,12,6,6,0.5,0.5
2022-05-25T07:00:00,1395A,114.4645,22.7833,惠州市,惠阳区承修路船湖子站,,12,10,11,8,10,64,31,41,38,14,11,3,2,0.7,0.6
2022-05-25T07:00:00,1396A,114.5317,22.7422,惠州市,大亚湾管委会子站,,14,11,16,8,9,69,44,42,42,14,20,4,4,0.5,0.4
2022-05-25T07:00:00,1397A,112.4267,23.0706,肇庆市,睦岗子站,,50,39,47,35,43,173,15,22,14,37,45,11,8,0.9,1
2022-05-25T07:00:00,1398A,112.4645,23.0475,肇庆市,城中子站,,35,35,52,23,36,146,21,52,31,25,38,13,9,0.7,0.8
2022-05-25T07:00:00,1399A,112.5544,23.1522,肇庆市,坑口子站,,48,40,47,33,41,192,11,31,18,17,21,3,4,0.7,0.8
2022-05-25T07:00:00,1400A,112.4753,23.1,肇庆市,七星岩子站(对照点),细颗粒物(PM2.5),53,46,42,37,34,170,27,70,43,22,22,15,9,0.5,0.5
2022-05-25T07:00:00,1401A,108.3103,22.7881,南宁市,二十一中,,23,23,19,15,14,32,5,8,7,25,25,5,5,1.0,0.9
2022-05-25T07:00:00,1402A,108.3141,22.8528,南宁市,北湖,,27,27,25,16,16,42,5,7,7,23,22,8,9,1.1,0.9
2022-05-25T07:00:00,1403A,108.3206,22.8225,南宁市,市监测站,,32,32,19,13,12,31,6,8,7,26,31,9,8,1.0,1
2022-05-25T07:00:00,1404A,108.3829,22.8037,南宁市,大自然花园,,16,15,14,11,11,51,11,22,13,23,23,7,7,0.9,0.9
2022-05-25T07:00:00,1405A,108.4394,22.7904,南宁市,仙葫(对照点),,23,23,14,8,7,49,13,27,14,15,19,4,5,0.8,0.8
2022-05-25T07:00:00,1406A,108.2397,22.8467,南宁市,区农职院,,18,12,15,12,10,44,3,6,4,29,20,7,8,0.8,0.7
2022-05-25T07:00:00,1407A,108.3275,22.735,南宁市,英华嘉园,,26,26,19,13,12,45,8,22,14,24,24,5,5,0.8,0.8
2022-05-25T07:00:00,1408A,108.2257,22.7757,南宁市,沙井镇街道办,,,18,20,18,13,37,,1,1,28,28,5,6,1.0,0.8
2022-05-25T07:00:00,1409A,110.576,19.9507,海口市,东寨港(对照点),,4,3,10,2,3,30,10,8,8,4,2,6,9,0.2,0.2
2022-05-25T07:00:00,1410A,110.3232,20.0574,海口市,海南大学,,12,6,12,3,8,56,38,41,36,2,2,4,4,0.4,0.4
2022-05-25T07:00:00,1411A,110.283,20.0053,海口市,秀英海南医院,,12,10,12,6,6,48,37,35,34,1,5,3,3,0.4,0.4
2022-05-25T07:00:00,1412A,110.338,19.9969,海口市,海南师范大学,,8,2,12,4,5,43,25,24,24,1,3,1,1,0.3,0.3
2022-05-25T07:00:00,1413A,110.33,20.0356,海口市,龙华路环保局宿舍,,49,49,18,1,6,51,34,30,30,6,6,5,4,0.1,0.3
2022-05-25T07:00:00,1414A,106.3787,29.8279,重庆市,缙云山(对照点),,40,39,27,28,18,132,40,105,74,14,12,9,9,0.6,0.5
2022-05-25T07:00:00,1416A,106.4213,29.8253,重庆市,天生,颗粒物(PM10),61,71,61,40,30,130,24,50,35,19,26,15,10,1.0,1
2022-05-25T07:00:00,1417A,106.6263,29.7228,重庆市,两路,,40,34,34,28,16,154,27,72,50,52,44,9,7,0.7,0.7
2022-05-25T07:00:00,1418A,106.2953,29.5983,重庆市,虎溪,颗粒物(PM10),52,54,50,28,24,143,25,35,29,15,26,17,8,0.9,0.9
2022-05-25T07:00:00,1419A,106.5777,29.5102,重庆市,南坪,"颗粒物(PM10),细颗粒物(PM2.5)",63,75,52,45,25,146,32,63,47,34,48,19,7,0.7,0.7
2022-05-25T07:00:00,1420A,106.6556,29.6277,重庆市,唐家沱,颗粒物(PM10),60,69,42,23,20,170,6,55,32,45,41,5,6,0.7,0.7
2022-05-25T07:00:00,1421A,106.6349,29.4906,重庆市,茶园,颗粒物(PM10),66,81,53,34,24,166,7,28,20,56,54,8,11,0.8,0.8
2022-05-25T07:00:00,1422A,106.3754,29.4572,重庆市,白市驿,颗粒物(PM10),63,75,60,44,28,131,11,28,21,31,39,9,8,1.0,0.9
2022-05-25T07:00:00,1425A,106.6205,29.7166,重庆市,空港,,48,48,40,29,20,132,28,71,51,36,33,8,6,1.0,1
2022-05-25T07:00:00,1426A,106.4782,29.4875,重庆市,新山村,颗粒物(PM10),63,75,54,36,25,121,6,8,6,60,69,17,15,1.3,1.3
2022-05-25T07:00:00,1427A,106.5616,29.6453,重庆市,礼嘉,,43,43,44,21,20,138,17,57,30,60,61,6,7,0.8,0.6
2022-05-25T07:00:00,1428A,106.4522,29.7091,重庆市,蔡家,,45,43,36,31,19,134,12,29,23,34,37,7,6,0.8,0.7
2022-05-25T07:00:00,1429A,106.5093,29.3917,重庆市,鱼新街,细颗粒物(PM2.5),77,84,57,56,30,148,11,8,8,47,70,15,14,1.2,1.1
2022-05-25T07:00:00,1431A,103.9728,30.7236,成都市,金泉两河,细颗粒物(PM2.5),55,50,60,39,44,108,1,22,16,36,34,2,4,0.7,0.7
2022-05-25T07:00:00,1432A,104.1419,30.6764,成都市,十里店,细颗粒物(PM2.5),69,82,65,50,49,84,0,5,4,65,50,4,5,0.9,0.7
2022-05-25T07:00:00,1433A,104.0594,30.5767,成都市,三瓦窑,细颗粒物(PM2.5),54,51,73,38,52,83,0,6,1,36,61,2,4,0.6,0.8
2022-05-25T07:00:00,1434A,104.1122,30.6306,成都市,沙河铺,细颗粒物(PM2.5),108,66,93,81,78,82,2,16,6,45,45,1,2,0.8,0.7
2022-05-25T07:00:00,1437A,104.0431,30.6556,成都市,君平街,细颗粒物(PM2.5),95,79,96,71,75,99,10,42,36,50,47,1,5,0.7,0.8
2022-05-25T07:00:00,1438A,103.6202,31.0201,成都市,灵岩寺(对照点),细颗粒物(PM2.5),60,37,31,43,36,122,47,117,76,15,8,18,9,0.7,0.6
2022-05-25T07:00:00,1439A,106.6899,26.5998,贵阳市,马鞍山,,9,9,11,5,3,76,14,34,22,6,13,4,4,0.3,0.4
2022-05-25T07:00:00,1440A,106.6971,26.5694,贵阳市,市环保站,,13,8,14,7,9,79,7,16,10,26,27,4,11,0.5,0.5
2022-05-25T07:00:00,1441A,106.6243,26.6266,贵阳市,鉴湖路,,11,7,20,0,7,74,33,33,33,4,13,3,2,0.4,0.4
2022-05-25T07:00:00,1442A,106.7487,26.6343,贵阳市,燕子冲,,14,14,17,9,14,80,6,14,9,9,9,6,6,0.6,0.6
2022-05-25T07:00:00,1443A,106.6555,26.4365,贵阳市,碧云窝,,14,14,23,5,10,72,23,27,24,7,10,5,5,0.6,0.7
2022-05-25T07:00:00,1444A,106.694,26.5161,贵阳市,中院村,,17,17,20,5,5,76,15,26,20,17,17,4,4,0.5,0.6
2022-05-25T07:00:00,1445A,106.7109,26.6027,贵阳市,红边门,,14,14,16,5,11,74,16,17,17,16,20,5,4,0.5,0.5
2022-05-25T07:00:00,1446A,106.7164,26.5699,贵阳市,新华路,,13,12,9,9,9,74,16,16,16,16,17,4,8,0.4,0.5
2022-05-25T07:00:00,1447A,106.674,26.5424,贵阳市,太慈桥,,9,9,17,0,4,80,22,30,26,8,14,4,3,0.5,0.6
2022-05-25T07:00:00,1450A,102.8204,24.8886,昆明市,呈贡新区,,33,33,17,9,5,77,10,18,17,28,18,9,9,0.8,0.6
2022-05-25T07:00:00,1451A,102.6251,24.9608,昆明市,西山森林公园(对照点),,25,15,7,17,8,117,38,63,41,9,5,10,8,0.7,0.6
2022-05-25T07:00:00,1452A,102.7252,25.0902,昆明市,龙泉镇,,25,20,23,17,12,99,24,14,14,22,22,8,9,0.7,0.7
2022-05-25T07:00:00,1453A,102.7266,25.0375,昆明市,东风东路,,24,24,17,12,11,74,36,34,34,16,23,7,7,0.6,0.6
2022-05-25T07:00:00,1454A,102.6742,25.0669,昆明市,金鼎山,,29,28,21,20,13,90,27,39,35,16,17,14,16,0.6,0.5
2022-05-25T07:00:00,1455A,102.6644,25.0401,昆明市,碧鸡广场,,26,26,11,13,10,103,25,39,33,20,21,8,9,0.8,0.7
2022-05-25T07:00:00,1456A,91.1319,29.6514,拉萨市,八廓街,,36,17,14,8,7,160,113,110,110,11,15,5,6,0.1,0.2
2022-05-25T07:00:00,1457A,91.1221,29.6747,拉萨市,市环保局,,35,13,17,9,11,164,110,121,118,10,13,4,5,0.2,0.2
2022-05-25T07:00:00,1458A,91.0874,29.6475,拉萨市,区监测站,,36,14,15,3,4,152,114,128,126,8,12,7,7,0.3,0.2
2022-05-25T07:00:00,1459A,91.1774,29.6541,拉萨市,西藏大学,,,,,9,7,159,117,121,120,8,10,8,8,0.2,0.2
2022-05-25T07:00:00,1460A,90.9798,29.6588,拉萨市,区辐射站,,38,13,13,10,7,145,121,130,128,4,11,8,8,0.2,0.3
2022-05-25T07:00:00,1461A,91.0834,29.6292,拉萨市,拉萨火车站,,36,16,19,4,6,153,115,126,124,5,6,7,8,0.2,0.2
2022-05-25T07:00:00,1462A,108.882,34.2749,西安市,高压开关厂,颗粒物(PM10),76,102,78,41,35,231,6,38,30,77,46,7,8,0.4,0.4
2022-05-25T07:00:00,1463A,108.993,34.2629,西安市,兴庆小区,颗粒物(PM10),56,62,66,31,35,193,43,67,63,42,32,11,8,0.7,0.7
2022-05-25T07:00:00,1464A,109.06,34.2572,西安市,纺织城,颗粒物(PM10),54,57,69,28,30,196,26,66,58,55,38,7,9,0.5,0.5
2022-05-25T07:00:00,1465A,108.9356,34.2173,西安市,小寨,颗粒物(PM10),51,51,65,22,29,222,47,57,55,31,46,2,4,0.5,0.6
2022-05-25T07:00:00,1466A,108.954,34.2713,西安市,市人民体育场,颗粒物(PM10),62,73,70,38,32,194,25,62,55,57,30,11,7,0.5,0.4
2022-05-25T07:00:00,1467A,108.8922,34.2322,西安市,高新西区,颗粒物(PM10),58,66,72,34,35,229,49,70,63,33,36,7,10,0.4,0.6
2022-05-25T07:00:00,1468A,108.935,34.3474,西安市,经开区,颗粒物(PM10),64,77,66,40,34,190,39,52,46,42,34,10,7,0.5,0.4
2022-05-25T07:00:00,1469A,108.906,34.1546,西安市,长安区,,37,37,70,24,32,270,28,45,30,42,37,7,8,0.6,0.6
2022-05-25T07:00:00,1471A,109.2186,34.3731,西安市,临潼区,颗粒物(PM10),87,124,76,51,34,191,6,88,38,70,28,8,9,0.7,0.6
2022-05-25T07:00:00,1472A,108.869,34.378,西安市,草滩(对照点),颗粒物(PM10),57,63,63,32,33,192,25,10,10,56,37,11,15,0.9,0.7
2022-05-25T07:00:00,1473A,108.985,34.1978,西安市,曲江文化产业集团,,46,46,71,22,30,211,51,40,40,30,48,4,5,0.7,0.9
2022-05-25T07:00:00,1474A,109.051,34.3213,西安市,广运潭,颗粒物(PM10),73,95,68,40,32,174,8,74,54,63,28,16,12,0.7,0.5
2022-05-25T07:00:00,1476A,103.631,36.1031,兰州市,兰炼宾馆,,40,40,46,24,19,136,36,71,55,35,19,4,4,0.4,0.3
2022-05-25T07:00:00,1478A,103.8412,36.0726,兰州市,生物制品所,,36,36,41,25,18,125,63,76,72,17,17,6,6,0.5,0.3
2022-05-25T07:00:00,1479A,103.831,36.0464,兰州市,铁路设计院,,34,34,35,12,16,118,52,74,68,28,21,6,5,0.5,0.5
2022-05-25T07:00:00,1483A,101.524,36.6867,西宁市,第五水厂(对照点),,28,28,33,9,12,161,73,105,89,16,14,16,13,0.9,0.6
2022-05-25T07:00:00,1484A,105.9512,38.6016,银川市,贺兰山马莲口(对照点),颗粒物(PM10),68,86,86,22,28,212,76,87,82,9,12,13,19,0.4,0.6
2022-05-25T07:00:00,1488A,106.2328,38.4975,银川市,贺兰山东路,颗粒物(PM10),78,106,106,25,27,184,63,77,69,16,19,13,12,0.7,0.5
2022-05-25T07:00:00,1489A,106.1358,38.5036,银川市,学院路,颗粒物(PM10),84,118,102,24,20,193,68,77,73,11,15,14,12,0.2,0.2
2022-05-25T07:00:00,1490A,87.5801,43.8303,乌鲁木齐市,监测站,颗粒物(PM10),67,84,62,24,25,131,24,21,21,48,38,7,10,0.6,0.7
2022-05-25T07:00:00,1491A,87.6046,43.768,乌鲁木齐市,收费所,颗粒物(PM10),59,68,75,21,21,129,17,4,4,39,38,6,7,0.2,0.4
2022-05-25T07:00:00,1492A,87.4754,43.9469,乌鲁木齐市,新疆农科院农场(对照点),颗粒物(PM10),107,163,73,32,27,119,3,2,1,61,31,8,9,0.2,0.2
2022-05-25T07:00:00,1493A,87.5525,43.8711,乌鲁木齐市,铁路局,颗粒物(PM10),58,65,59,19,24,128,52,25,25,25,36,11,11,0.6,0.7
2022-05-25T07:00:00,1494A,87.6432,43.831,乌鲁木齐市,三十一中学,颗粒物(PM10),59,67,65,19,14,131,52,55,28,20,28,10,14,0.3,0.4
2022-05-25T07:00:00,1496A,87.7216,44.1747,乌鲁木齐市,米东区环保局,颗粒物(PM10),70,89,55,23,17,111,38,45,29,28,19,11,10,0.4,0.3
2022-05-25T07:00:00,1508A,112.9433,27.8614,湘潭市,板塘,,30,30,28,19,16,77,13,15,14,25,21,12,8,1.4,1
2022-05-25T07:00:00,1511A,112.9118,27.8403,湘潭市,市监测站,细颗粒物(PM2.5),54,24,17,38,20,70,13,16,14,26,23,12,10,2.0,1.1
2022-05-25T07:00:00,1512A,112.8937,27.8728,湘潭市,江麓,细颗粒物(PM2.5),58,48,30,41,25,74,14,18,13,24,21,9,5,2.1,1.4
2022-05-25T07:00:00,1513A,112.9227,27.8159,湘潭市,岳塘,,34,34,26,18,16,78,16,19,14,20,20,10,11,1.5,1
2022-05-25T07:00:00,1514A,112.9074,27.9119,湘潭市,科大,,45,20,16,31,22,79,15,18,12,25,26,7,6,1.3,1
2022-05-25T07:00:00,1515A,113.135,27.8244,株洲市,天台山庄,,28,14,10,19,16,69,21,22,20,20,23,9,5,1.2,1
2022-05-25T07:00:00,1518A,113.095,27.8867,株洲市,株冶医院,,26,14,13,18,16,81,15,16,12,24,25,10,7,1.3,1
2022-05-25T07:00:00,1519A,113.167,27.8667,株洲市,市四中,,29,0,12,20,18,76,5,5,5,14,13,10,4,1.2,0.8
2022-05-25T07:00:00,1520A,113.143,27.8381,株洲市,火车站,,,19,17,54,21,76,15,14,14,,21,,5,1.4,0.9
2022-05-25T07:00:00,1524A,113.13,27.8528,株洲市,市监测站,,,,17,27,15,73,7,7,7,13,18,6,4,1.1,0.8
2022-05-25T07:00:00,1552A,106.805,26.3003,贵阳市,桐木岭(对照点),,18,9,18,12,10,54,46,51,49,2,3,6,7,0.4,0.4
2022-05-25T07:00:00,1559A,113.251,27.8336,株洲市,大京风景区(对照点),,20,17,15,14,11,58,19,27,18,8,6,5,5,0.8,0.8
2022-05-25T07:00:00,1562A,113.0048,27.9153,湘潭市,昭山,,35,19,16,24,15,73,9,4,4,23,23,13,8,1.5,1.1
2022-05-25T07:00:00,1564A,112.4876,27.9164,湘潭市,韶山(对照点),,23,23,21,4,10,75,20,10,10,5,7,2,3,0.8,0.9
2022-05-25T07:00:00,1585A,109.8756,40.6532,包头市,市环境监测站,,50,50,66,11,23,179,64,93,87,21,19,25,14,0.7,0.8
2022-05-25T07:00:00,1587A,109.9991,40.5842,包头市,包头八中,颗粒物(PM10),57,63,83,10,17,211,65,95,82,21,15,44,15,0.8,0.6
2022-05-25T07:00:00,1588A,109.8538,40.6821,包头市,青山宾馆,,48,48,80,18,24,168,73,79,78,23,22,9,16,0.3,0.6
2022-05-25T07:00:00,1589A,109.8642,40.6288,包头市,惠龙物流,,45,45,63,8,20,197,61,98,89,20,19,22,15,0.7,0.9
2022-05-25T07:00:00,1590A,110.0377,40.5546,包头市,东河鸿龙湾,颗粒物(PM10),58,65,66,13,22,215,69,96,84,10,9,12,15,0.3,0.5
2022-05-25T07:00:00,1591A,110.0023,39.8129,鄂尔多斯市,综合楼,颗粒物(PM10),98,146,96,12,15,172,79,85,81,15,17,6,8,0.5,0.5
2022-05-25T07:00:00,1592A,109.9486,39.8261,鄂尔多斯市,巴音孟克林场办事处,颗粒物(PM10),81,112,83,22,21,178,84,92,88,10,12,6,8,0.4,0.5
2022-05-25T07:00:00,1593A,109.7736,39.5986,鄂尔多斯市,康泽苑,颗粒物(PM10),63,75,67,7,14,184,85,94,91,7,10,5,5,0.4,0.5
2022-05-25T07:00:00,1594A,109.8119,39.5989,鄂尔多斯市,华泰汽车城,颗粒物(PM10),58,66,64,14,17,183,86,96,92,6,10,6,6,0.3,0.4
2022-05-25T07:00:00,1595A,109.9734,39.7884,鄂尔多斯市,奥林花园,颗粒物(PM10),85,119,90,12,16,174,80,86,82,10,13,6,7,0.6,0.7
2022-05-25T07:00:00,1597A,122.2703,40.7094,营口市,大庆路,,31,31,48,19,29,238,76,82,76,4,7,4,7,0.9,0.8
2022-05-25T07:00:00,1598A,122.215,40.6511,营口市,镜湖西路,,27,27,45,4,19,252,74,83,76,7,10,13,7,0.3,0.6
2022-05-25T07:00:00,1600A,124.3303,40.0625,丹东市,江湾东路,,28,20,18,11,9,127,89,117,101,9,8,7,9,0.4,0.4
2022-05-25T07:00:00,1601A,124.4256,40.1503,丹东市,临江后街,,,,,15,7,127,79,101,93,6,5,11,12,1.6,1.2
2022-05-25T07:00:00,1602A,124.3933,40.1461,丹东市,元宝山,,24,20,19,11,9,126,75,89,82,8,6,10,10,0.9,0.7
2022-05-25T07:00:00,1603A,124.3633,40.1092,丹东市,民主桥,,26,22,16,11,9,119,82,105,95,5,2,9,10,0.9,0.8
2022-05-25T07:00:00,1604A,122.0303,41.1489,盘锦市,开发区,,,,63,,19,233,76,66,66,10,15,3,6,0.4,0.6
2022-05-25T07:00:00,1607A,120.9092,40.7136,葫芦岛市,龙港区,,23,5,43,6,29,264,73,64,64,14,16,8,13,0.4,0.5
2022-05-25T07:00:00,1608A,120.8392,40.7514,葫芦岛市,化工街,,29,29,63,6,30,236,75,68,68,13,14,6,8,0.2,0.4
2022-05-25T07:00:00,1609A,120.8341,40.7073,葫芦岛市,新区,,25,7,54,2,25,257,80,71,71,17,16,9,11,0.4,0.6
2022-05-25T07:00:00,1610A,120.8695,40.7677,葫芦岛市,东城区,,24,15,48,3,25,237,76,69,69,9,12,12,10,0.2,0.4
2022-05-25T07:00:00,1611A,118.5819,24.9117,泉州市,涂山街,,15,13,19,10,15,84,26,47,39,21,27,7,7,0.6,0.7
2022-05-25T07:00:00,1612A,118.5972,24.8978,泉州市,津头埔,,15,11,29,10,18,73,22,28,24,21,33,3,4,0.7,0.7
2022-05-25T07:00:00,1613A,118.6663,24.9424,泉州市,万安,,20,17,23,14,18,73,8,21,13,31,29,6,7,0.7,0.7
2022-05-25T07:00:00,1614A,118.6117,24.9604,泉州市,清源山(对照点),,15,7,12,4,10,69,45,61,51,13,15,8,7,0.5,0.6
2022-05-25T07:00:00,1616A,117.6795,36.229,济南市,技术学院,颗粒物(PM10),63,75,64,32,30,225,72,106,98,36,16,18,16,1.0,0.7
2022-05-25T07:00:00,1618A,118.3429,35.0532,临沂市,沂河小区,细颗粒物(PM2.5),83,73,48,61,26,182,53,84,68,24,13,17,12,0.6,0.4
2022-05-25T07:00:00,1619A,118.295,35.0583,临沂市,鲁南制药厂,颗粒物(PM10),58,66,48,35,22,196,81,94,82,29,20,18,10,0.7,0.5
2022-05-25T07:00:00,1620A,118.2794,34.9976,临沂市,新光毛纺厂,细颗粒物(PM2.5),60,63,55,43,28,185,65,85,75,23,11,20,10,0.8,0.5
2022-05-25T07:00:00,1621A,118.3956,35.0888,临沂市,河东保险公司,细颗粒物(PM2.5),57,58,40,40,24,181,70,90,83,23,14,12,9,0.3,0.1
2022-05-25T07:00:00,1622A,116.3032,37.4674,德州市,儿童乐园,颗粒物(PM10),122,193,95,17,36,200,86,109,96,8,14,6,10,0.5,0.6
2022-05-25T07:00:00,1624A,116.2991,37.4451,德州市,监理站,颗粒物(PM10),157,263,113,25,36,191,83,105,94,8,14,16,18,0.4,0.4
2022-05-25T07:00:00,1625A,115.9848,36.4372,聊城市,区政府,颗粒物(PM10),55,59,77,24,32,175,84,104,98,16,15,23,13,0.8,0.7
2022-05-25T07:00:00,1628A,118.0062,37.3803,滨州市,市环保局,,42,42,88,25,47,266,107,84,84,8,25,11,15,0.2,0.5
2022-05-25T07:00:00,1629A,118.0018,37.3617,滨州市,第二水厂,颗粒物(PM10),81,112,99,25,41,218,92,63,63,11,33,11,14,0.5,0.7
2022-05-25T07:00:00,1630A,117.9776,37.393,滨州市,北中新校,颗粒物(PM10),57,64,73,27,41,241,98,81,81,11,28,13,15,0.5,0.8
2022-05-25T07:00:00,1631A,118.0414,36.8103,淄博市,人民公园,颗粒物(PM10),62,73,61,32,26,220,94,131,114,27,17,18,11,0.5,0.4
2022-05-25T07:00:00,1633A,117.8525,36.4847,淄博市,双山,,45,45,57,29,38,216,109,121,110,17,15,17,15,0.6,0.5
2022-05-25T07:00:00,1634A,117.9592,36.6331,淄博市,气象站,颗粒物(PM10),59,67,67,22,34,209,111,116,114,17,16,18,15,0.4,0.3
2022-05-25T07:00:00,1635A,118.3092,36.8194,淄博市,莆田园,颗粒物(PM10),79,107,72,34,32,227,96,136,117,29,20,19,13,0.4,0.4
2022-05-25T07:00:00,1637A,117.558,34.8438,枣庄市,市中区政府,颗粒物(PM10),64,78,54,36,21,209,90,120,105,33,21,20,12,0.5,0.3
2022-05-25T07:00:00,1638A,117.2852,34.7837,枣庄市,薛城环保局,颗粒物(PM10),63,76,65,39,27,213,89,104,99,32,22,13,12,0.7,0.6
2022-05-25T07:00:00,1639A,117.5852,34.7745,枣庄市,峄城区政府,颗粒物(PM10),53,56,54,31,18,197,94,105,99,24,19,9,8,0.6,0.5
2022-05-25T07:00:00,1640A,117.7276,34.5578,枣庄市,台儿庄区环保局,,48,48,37,31,16,192,84,112,94,22,16,10,9,0.9,0.8
2022-05-25T07:00:00,1641A,117.4518,35.0992,枣庄市,山亭区环保局,,49,41,50,34,28,203,106,118,112,20,16,24,17,0.6,0.6
2022-05-25T07:00:00,1642A,121.2514,37.5639,烟台市,开发区,,,,51,9,13,195,87,107,98,8,8,6,6,0.4,0.4
2022-05-25T07:00:00,1643A,121.3719,37.5433,烟台市,轴承厂,,31,31,36,20,16,184,82,112,98,23,8,5,5,0.5,0.5
2022-05-25T07:00:00,1644A,121.3181,37.5436,烟台市,西郊化工站,,27,27,35,7,12,175,83,104,94,20,11,7,7,0.4,0.5
2022-05-25T07:00:00,1645A,121.4478,37.4822,烟台市,莱山环保局,,26,19,35,9,12,182,82,102,97,17,8,6,6,0.3,0.3
2022-05-25T07:00:00,1646A,121.2611,37.4967,烟台市,福山环保局,,34,34,36,14,13,184,88,106,98,8,3,9,9,0.7,0.6
2022-05-25T07:00:00,1650A,119.1437,36.7023,潍坊市,环保局,颗粒物(PM10),57,63,63,27,29,215,64,88,70,25,16,10,8,0.7,0.7
2022-05-25T07:00:00,1653A,116.6251,35.4302,济宁市,火炬城,,41,41,58,22,28,204,106,120,105,9,10,13,12,0.8,0.8
2022-05-25T07:00:00,1655A,116.5491,35.4042,济宁市,电化厂,,47,47,58,24,27,210,110,124,118,7,5,7,6,0.8,0.8
2022-05-25T07:00:00,1656A,117.1437,36.1937,泰安市,监测站,颗粒物(PM10),51,51,69,32,40,212,120,132,120,10,14,14,13,0.4,0.4
2022-05-25T07:00:00,1657A,117.0885,36.2017,泰安市,人口学校,颗粒物(PM10),51,51,68,29,30,207,121,132,121,16,18,13,12,0.3,0.3
2022-05-25T07:00:00,1658A,117.1089,36.1758,泰安市,电力学校,颗粒物(PM10),51,51,69,29,32,198,114,117,109,10,14,14,12,0.9,0.9
2022-05-25T07:00:00,1659A,119.471,35.4209,日照市,监测站,细颗粒物(PM2.5),57,48,39,40,20,129,53,76,45,23,23,13,13,0.4,0.5
2022-05-25T07:00:00,1660A,119.523,35.4216,日照市,市政府广场,,48,48,39,31,18,142,47,62,40,29,24,9,9,0.7,0.6
2022-05-25T07:00:00,1661A,119.5587,35.4044,日照市,港务局,颗粒物(PM10),60,70,38,33,15,141,33,79,38,46,20,7,6,0.9,0.6
2022-05-25T07:00:00,1662A,122.1214,37.4236,威海市,华夏技校,,30,14,27,14,12,137,93,101,100,8,7,3,4,0.3,0.3
2022-05-25T07:00:00,1663A,122.0508,37.5236,威海市,山大分校,,31,29,45,5,7,163,97,109,105,7,8,5,5,0.2,0.2
2022-05-25T07:00:00,1664A,122.1067,37.5072,威海市,市监测站,,28,22,26,11,12,155,88,117,109,16,7,6,7,0.3,0.2
2022-05-25T07:00:00,1666A,118.6614,37.4309,东营市,市环保局,,35,34,64,24,29,261,104,78,78,5,16,7,13,0.5,0.6
2022-05-25T07:00:00,1669A,113.5824,24.7733,韶关市,市八中,颗粒物(PM10),55,59,31,26,20,88,10,30,22,15,12,14,12,0.7,0.7
2022-05-25T07:00:00,1671A,113.5917,24.7972,韶关市,园林处,,35,35,24,24,15,96,10,23,19,12,10,12,10,0.6,0.5
2022-05-25T07:00:00,1672A,113.6735,24.7791,韶关市,韶关学院,,30,27,21,21,20,70,6,6,5,16,14,9,8,0.5,0.5
2022-05-25T07:00:00,1673A,113.5971,24.6863,韶关市,曲江监测站,,39,36,34,27,28,72,9,17,13,19,18,9,10,0.7,0.8
2022-05-25T07:00:00,1674A,116.6794,23.3667,汕头市,金平子站,,16,13,14,11,8,82,37,49,45,12,12,8,8,0.7,0.6
2022-05-25T07:00:00,1675A,116.7244,23.3633,汕头市,龙湖子站,,16,7,11,5,7,81,50,50,50,9,12,6,6,0.5,0.6
2022-05-25T07:00:00,1676A,116.7258,23.2775,汕头市,濠江子站,,17,6,9,5,8,75,52,50,47,8,10,8,8,0.5,0.6
2022-05-25T07:00:00,1677A,116.7519,23.4714,汕头市,澄海子站,,14,14,15,9,10,79,39,47,43,12,17,5,5,0.7,0.7
2022-05-25T07:00:00,1678A,116.6092,23.2539,汕头市,潮阳子站,,15,8,13,8,10,77,47,41,38,11,15,7,7,0.5,0.5
2022-05-25T07:00:00,1680A,110.3539,21.2706,湛江市,湛江影剧院,,17,5,12,4,4,76,52,70,63,5,4,4,4,0.4,0.4
2022-05-25T07:00:00,1681A,110.3928,21.2228,湛江市,市环境监测站,,19,8,13,5,6,84,60,78,72,4,4,4,4,0.4,0.4
2022-05-25T07:00:00,1682A,110.4019,21.1997,湛江市,环保局宿舍,,19,8,13,5,8,81,58,77,70,4,3,4,3,0.4,0.4
2022-05-25T07:00:00,1683A,110.4111,21.2028,湛江市,霞山游泳场,,18,5,12,6,7,80,57,72,66,3,5,5,5,0.4,0.4
2022-05-25T07:00:00,1684A,110.3316,21.2679,湛江市,麻章区环保局,,17,14,13,8,7,68,54,66,61,5,5,4,4,0.4,0.4
2022-05-25T07:00:00,1685A,110.4558,21.2567,湛江市,坡头区环保局,,19,11,13,6,7,88,60,78,71,4,4,5,5,0.6,0.6
2022-05-25T07:00:00,1686A,111.0286,21.4688,茂名市,电白南海,,19,19,18,5,7,67,56,62,60,10,11,4,4,0.5,0.5
2022-05-25T07:00:00,1687A,110.9294,21.6533,茂名市,茂石化七小,,25,14,18,17,12,58,51,39,39,7,9,6,7,0.5,0.5
2022-05-25T07:00:00,1688A,110.9107,21.6687,茂名市,健康路,,15,9,10,3,4,56,45,40,38,6,7,6,7,0.5,0.6
2022-05-25T07:00:00,1689A,110.8592,21.6828,茂名市,高岭,,10,0,4,0,3,58,32,34,32,19,12,6,7,0.6,0.6
2022-05-25T07:00:00,1690A,116.1231,24.3284,梅州市,梅江月梅,,19,19,17,4,10,58,19,28,25,14,10,2,2,0.5,0.5
2022-05-25T07:00:00,1691A,116.0797,24.2719,梅州市,梅县新城,,25,17,20,17,18,79,10,21,16,22,20,6,5,0.7,0.7
2022-05-25T07:00:00,1692A,116.1248,24.2654,梅州市,环境监控中心,,26,26,22,10,13,63,11,14,14,16,17,7,7,0.6,0.6
2022-05-25T07:00:00,1693A,115.3653,22.775,汕尾市,市环保局,,14,14,10,6,6,75,39,54,45,9,10,4,5,0.6,0.6
2022-05-25T07:00:00,1694A,115.3706,22.7898,汕尾市,市政府,,16,16,14,6,7,68,36,56,45,10,12,6,5,0.6,0.6
2022-05-25T07:00:00,1695A,115.3622,22.7925,汕尾市,新城中学,,17,17,11,9,7,74,36,60,48,7,6,6,6,0.6,0.6
2022-05-25T07:00:00,1696A,114.6778,23.7569,河源市,源西(对照点),,10,10,19,5,8,82,27,10,10,3,9,5,4,0.6,0.6
2022-05-25T07:00:00,1697A,114.6944,23.7586,河源市,东埔,,12,12,17,4,9,82,27,25,22,12,15,4,3,0.7,0.7
2022-05-25T07:00:00,1698A,114.6892,23.7233,河源市,老城,,15,15,18,9,11,84,25,26,24,14,16,4,2,0.7,0.7
2022-05-25T07:00:00,1699A,111.9797,21.8593,阳江市,鸳鸯湖(对照点),,17,8,14,5,9,76,52,44,44,4,6,7,7,0.5,0.6
2022-05-25T07:00:00,1701A,111.9491,21.8658,阳江市,马南垌,,16,2,16,7,12,76,49,42,42,4,8,6,6,0.4,0.5
2022-05-25T07:00:00,1702A,113.0426,23.691,清远市,环保大楼(对照点),,33,33,18,19,12,113,11,20,17,19,11,4,3,0.6,0.6
2022-05-25T07:00:00,1703A,113.0208,23.7106,清远市,凤城街办,,40,40,25,20,13,101,16,19,19,14,14,5,4,1.0,0.9
2022-05-25T07:00:00,1705A,116.6367,23.6719,潮州市,西园路(对照点),,25,15,21,17,16,62,16,27,19,15,19,4,4,0.8,0.9
2022-05-25T07:00:00,1706A,116.6447,23.6706,潮州市,档案局,,22,15,24,15,18,68,15,27,19,19,20,9,10,0.8,0.8
2022-05-25T07:00:00,1708A,116.3701,23.5345,揭阳市,新兴,,18,14,32,12,17,98,33,32,31,10,17,7,7,0.7,0.8
2022-05-25T07:00:00,1709A,116.3264,23.5443,揭阳市,西马,,20,13,25,14,16,100,30,32,29,8,16,6,6,0.7,0.8
2022-05-25T07:00:00,1710A,116.3611,23.5626,揭阳市,东兴,,19,17,26,13,15,88,25,32,29,11,14,6,5,0.6,0.7
2022-05-25T07:00:00,1711A,116.4151,23.5294,揭阳市,渔湖,,15,15,20,9,13,87,26,30,29,14,16,7,6,0.5,0.6
2022-05-25T07:00:00,1714A,112.0539,22.9539,云浮市,牧羊,,42,42,37,24,21,114,6,46,18,28,22,8,10,0.6,0.5
2022-05-25T07:00:00,1715A,102.575,24.3711,玉溪市,东风水库,,18,18,11,10,5,74,15,36,28,15,9,7,8,0.7,0.6
2022-05-25T07:00:00,1718A,115.4208,35.2464,菏泽市,气象局,颗粒物(PM10),66,82,76,46,39,180,101,112,103,18,16,17,13,0.6,0.5
2022-05-25T07:00:00,1719A,115.4747,35.2375,菏泽市,市政协,颗粒物(PM10),64,78,79,39,33,175,105,125,114,16,13,15,11,0.4,0.3
2022-05-25T07:00:00,1721A,113.3819,40.1097,大同市,果树场(对照点),,25,21,66,10,26,176,78,91,85,7,13,20,16,0.5,0.5
2022-05-25T07:00:00,1723A,113.2994,40.0758,大同市,云冈宾馆,,34,34,73,5,27,169,74,86,82,12,19,7,10,0.5,0.6
2022-05-25T07:00:00,1724A,113.3444,40.0917,大同市,大同大学,,26,26,74,4,18,178,72,82,78,12,20,32,16,0.3,0.4
2022-05-25T07:00:00,1725A,113.2661,40.1269,大同市,安家小村,,28,10,88,7,28,175,88,89,88,7,16,11,17,0.4,0.7
2022-05-25T07:00:00,1726A,113.2711,40.0844,大同市,教育学院,,25,14,71,10,21,169,79,88,85,10,17,7,12,0.3,0.5
2022-05-25T07:00:00,1727A,113.1147,36.1547,长治市,清华站,颗粒物(PM10),69,87,50,36,29,200,52,141,89,40,22,11,12,0.6,0.4
2022-05-25T07:00:00,1728A,113.1031,36.1989,长治市,监测站,颗粒物(PM10),75,100,58,46,31,201,41,161,104,70,19,9,12,0.8,0.7
2022-05-25T07:00:00,1730A,113.0886,36.2125,长治市,审计局,颗粒物(PM10),67,83,53,41,33,204,46,139,94,66,29,9,18,1.3,1.1
2022-05-25T07:00:00,1731A,113.0844,36.1856,长治市,长治八中,颗粒物(PM10),82,114,58,43,26,198,43,150,96,71,26,10,12,0.8,0.7
2022-05-25T07:00:00,1733A,111.5531,36.0783,临汾市,临钢医院,颗粒物(PM10),63,75,58,36,26,201,46,30,30,48,43,11,7,0.8,0.8
2022-05-25T07:00:00,1734A,111.5028,36.0714,临汾市,技工学校,颗粒物(PM10),59,67,47,35,30,200,40,41,41,52,34,16,10,1.0,0.8
2022-05-25T07:00:00,1736A,111.5018,36.0855,临汾市,市委,颗粒物(PM10),51,52,49,35,29,220,44,45,45,59,43,23,17,0.8,0.7
2022-05-25T07:00:00,1738A,113.5758,37.8572,阳泉市,市中心,颗粒物(PM10),79,107,72,32,27,208,46,64,35,55,46,11,15,0.9,0.9
2022-05-25T07:00:00,1739A,113.4894,37.8731,阳泉市,赛鱼,颗粒物(PM10),57,63,43,29,23,210,10,38,15,73,63,12,12,1.1,0.8
2022-05-25T07:00:00,1740A,113.5819,37.8486,阳泉市,南庄,颗粒物(PM10),71,92,77,37,32,208,41,67,54,47,38,9,14,0.9,0.8
2022-05-25T07:00:00,1742A,113.5614,37.8703,阳泉市,平坦,颗粒物(PM10),84,117,74,26,28,199,49,66,30,43,47,21,14,0.9,1
2022-05-25T07:00:00,1743A,113.5158,37.8392,阳泉市,大阳泉,,48,48,32,33,33,203,74,162,125,31,23,13,13,0.6,0.7
2022-05-25T07:00:00,1744A,118.9233,42.2816,赤峰市,松山一中,,22,8,44,11,15,163,70,73,72,17,17,8,9,0.7,0.7
2022-05-25T07:00:00,1745A,118.9576,42.2728,赤峰市,哈达街,,22,20,41,2,11,152,70,72,71,15,18,10,11,0.6,0.6
2022-05-25T07:00:00,1746A,118.8788,42.2554,赤峰市,天义路,,22,14,42,7,13,165,68,74,70,16,14,8,9,0.5,0.5
2022-05-25T07:00:00,1748A,123.044,41.1196,鞍山市,深沟寺,,25,25,55,12,20,175,63,61,59,9,10,8,9,0.5,0.7
2022-05-25T07:00:00,1749A,123.011,41.0931,鞍山市,太阳城,,23,23,48,13,21,174,56,60,49,15,16,6,8,0.8,0.9
2022-05-25T07:00:00,1750A,123.0485,41.1442,鞍山市,太平,,28,24,48,19,23,170,61,62,58,11,10,13,11,0.7,0.7
2022-05-25T07:00:00,1751A,122.9642,41.0971,鞍山市,铁西三道街,,23,23,62,11,25,176,59,54,54,18,19,12,9,0.9,1.3
2022-05-25T07:00:00,1752A,122.9341,41.0833,鞍山市,铁西工业园区,,24,24,58,7,23,184,68,53,53,6,12,7,11,0.3,0.8
2022-05-25T07:00:00,1753A,123.022,41.0821,鞍山市,明达新区,,20,20,44,12,24,177,60,72,58,12,13,4,6,0.5,0.7
2022-05-25T07:00:00,1754A,123.1289,41.0228,鞍山市,千山(对照点),细颗粒物(PM2.5),83,34,36,61,36,157,52,55,50,10,9,1,8,0.1,0.4
2022-05-25T07:00:00,1755A,123.7977,41.8491,抚顺市,望花区,,17,8,80,7,25,183,53,52,50,8,13,2,7,0.4,0.6
2022-05-25T07:00:00,1756A,123.9161,41.8822,抚顺市,顺城区,,15,14,69,6,24,176,45,47,45,12,16,6,10,0.3,0.5
2022-05-25T07:00:00,1757A,124.0436,41.8611,抚顺市,东洲区,,16,10,57,9,28,204,49,56,50,10,11,3,7,0.5,0.7
2022-05-25T07:00:00,1758A,123.9247,41.8642,抚顺市,新抚区,,15,10,66,7,24,185,48,51,48,10,13,2,6,0.2,0.3
2022-05-25T07:00:00,1759A,124.0972,41.8961,抚顺市,大伙房水库,,22,22,66,6,25,223,51,59,52,6,8,5,8,0.4,0.6
2022-05-25T07:00:00,1761A,123.8275,41.3064,本溪市,大峪,,14,14,42,8,17,180,39,84,71,19,12,5,7,0.6,0.6
2022-05-25T07:00:00,1762A,123.7567,41.3325,本溪市,溪湖,,37,37,53,18,22,158,28,70,53,29,18,6,9,0.6,0.8
2022-05-25T07:00:00,1763A,123.7169,41.3094,本溪市,彩屯,,27,27,63,5,30,138,50,77,67,10,28,11,25,0.5,1.8
2022-05-25T07:00:00,1764A,123.7669,41.2864,本溪市,东明,,17,17,56,10,21,159,42,75,63,14,13,10,10,0.5,0.6
2022-05-25T07:00:00,1765A,123.7992,41.2664,本溪市,新立屯,,15,14,54,10,22,167,45,86,70,10,6,6,6,0.9,0.8
2022-05-25T07:00:00,1766A,123.8142,41.3472,本溪市,威宁,,12,9,52,7,22,143,36,55,49,11,10,10,11,0.4,0.6
2022-05-25T07:00:00,1767A,121.1115,41.0879,锦州市,南山,,22,7,58,1,27,194,69,65,65,7,11,7,13,0.6,0.8
2022-05-25T07:00:00,1768A,121.0533,40.8434,锦州市,开发区,,22,10,108,15,44,233,65,60,60,13,17,14,10,0.8,0.9
2022-05-25T07:00:00,1769A,121.1836,41.1119,锦州市,百股街道,,24,8,40,3,27,202,76,68,68,7,16,6,8,0.4,0.6
2022-05-25T07:00:00,1770A,121.1178,41.1222,锦州市,天安街道,,24,9,77,4,25,202,74,70,70,12,17,5,12,0.4,0.8
2022-05-25T07:00:00,1771A,121.1303,41.1386,锦州市,北湖公园,,23,9,56,6,25,208,72,67,67,6,14,8,13,0.5,0.8
2022-05-25T07:00:00,1772A,126.54,43.8622,吉林市,哈达湾,,23,23,39,13,22,195,62,63,61,10,12,11,8,0.6,0.7
2022-05-25T07:00:00,1773A,126.5844,43.8358,吉林市,东局子,,20,20,41,8,19,188,54,59,56,16,16,7,8,0.6,0.7
2022-05-25T07:00:00,1774A,126.5052,43.8245,吉林市,电力学院,,30,30,44,14,21,207,62,60,57,12,15,14,15,0.5,0.7
2022-05-25T07:00:00,1775A,126.6133,43.8972,吉林市,江北,,19,18,36,7,17,181,60,57,56,8,13,7,10,0.5,0.7
2022-05-25T07:00:00,1776A,126.555,43.8306,吉林市,江南公园,,19,19,40,12,22,191,57,59,57,12,14,8,8,0.6,0.7
2022-05-25T07:00:00,1778A,126.7061,43.7133,吉林市,丰满(对照点),,17,17,45,9,25,189,45,46,45,11,9,4,5,0.7,0.9
2022-05-25T07:00:00,1779A,123.9305,47.3636,齐齐哈尔市,安居小区,,16,16,21,10,10,51,38,37,37,16,16,3,3,0.6,0.6
2022-05-25T07:00:00,1780A,123.9488,47.3386,齐齐哈尔市,中心广场,,16,14,16,9,5,50,50,47,47,10,16,3,4,0.3,0.4
2022-05-25T07:00:00,1781A,123.9483,47.3227,齐齐哈尔市,农牧车辆厂,,17,17,19,3,7,55,54,48,48,9,14,2,3,0.2,0.2
2022-05-25T07:00:00,1783A,123.945,47.2988,齐齐哈尔市,市环境监测站,,29,22,18,20,22,58,56,49,49,10,16,4,4,0.5,0.6
2022-05-25T07:00:00,1784A,129.61,44.561,牡丹江市,环保大楼,,26,26,40,9,16,160,47,70,60,8,11,3,4,0.4,0.5
2022-05-25T07:00:00,1785A,129.6115,44.5782,牡丹江市,文化广场,,22,21,26,15,19,150,42,67,56,10,14,6,6,0.3,0.4
2022-05-25T07:00:00,1786A,129.5904,44.5963,牡丹江市,第一医院,,16,10,20,11,15,137,37,63,52,11,12,4,5,0.6,0.7
2022-05-25T07:00:00,1787A,129.6364,44.6075,牡丹江市,机车工厂,,13,13,26,8,14,146,41,62,52,8,12,8,10,0.2,0.3
2022-05-25T07:00:00,1788A,129.6386,44.5462,牡丹江市,第一中学,,16,7,27,11,13,141,43,64,55,9,10,3,5,0.4,0.5
2022-05-25T07:00:00,1789A,124.81117,46.03138,大庆市,大同区,,22,20,19,15,7,81,32,49,34,14,8,4,4,0.4,0.4
2022-05-25T07:00:00,1790A,125.129,46.533,大庆市,龙凤区,,15,9,16,9,10,66,48,47,47,11,16,5,4,0.1,0.2
2022-05-25T07:00:00,1791A,124.902,46.408,大庆市,红岗区,,28,28,18,13,13,67,34,39,28,20,13,5,6,0.3,0.3
2022-05-25T07:00:00,1792A,125.153,46.586,大庆市,萨尔图区,,18,18,14,4,8,67,44,49,48,10,15,4,4,0.0,0.3
2022-05-25T07:00:00,1793A,124.9042,46.6215,大庆市,让胡路区,,21,21,19,9,16,63,33,31,30,14,16,13,14,0.3,0.3
2022-05-25T07:00:00,1794A,118.3606,31.3519,芜湖市,监测站,,50,40,31,35,22,140,69,95,82,22,20,9,8,0.6,0.5
2022-05-25T07:00:00,1795A,118.3714,31.4134,芜湖市,科创中心,,49,40,30,34,21,142,68,93,76,20,18,7,6,0.7,0.6
2022-05-25T07:00:00,1796A,118.3673,31.3131,芜湖市,四水厂,,,,34,,20,145,,92,85,,20,,7,,0.6
2022-05-25T07:00:00,1798A,118.5092,31.6837,马鞍山市,湖东路四小,细颗粒物(PM2.5),53,34,28,37,22,148,63,104,78,18,14,4,3,0.6,0.4
2022-05-25T07:00:00,1799A,118.5024,31.6449,马鞍山市,开发区,,46,46,42,24,20,143,36,58,45,35,27,10,9,0.9,0.8
2022-05-25T07:00:00,1800A,118.5228,31.7231,马鞍山市,慈湖,颗粒物(PM10),57,63,40,39,23,131,53,92,67,26,17,12,13,0.7,0.5
2022-05-25T07:00:00,1802A,118.6245,31.7241,马鞍山市,濮塘(对照点),,35,35,28,14,14,124,33,74,39,7,7,7,7,0.6,0.5
2022-05-25T07:00:00,1803A,115.9872,29.6815,九江市,十里,,33,33,28,19,16,108,26,27,25,33,29,6,5,0.7,0.6
2022-05-25T07:00:00,1804A,115.9584,29.7046,九江市,茅山头,,30,30,22,21,16,113,26,45,39,31,21,4,4,0.6,0.5
2022-05-25T07:00:00,1805A,115.9877,29.7295,九江市,西园,,43,43,31,27,16,107,10,35,29,48,32,8,7,1.0,0.6
2022-05-25T07:00:00,1806A,116.0172,29.6547,九江市,五七二七厂,,23,23,18,13,6,108,25,49,36,10,5,6,5,0.5,0.5
2022-05-25T07:00:00,1808A,115.9114,29.6038,九江市,综合工业园,,25,25,28,12,14,131,37,50,40,20,17,7,6,0.9,0.7
2022-05-25T07:00:00,1809A,116.0721,29.7535,九江市,石化总厂,,39,39,29,21,16,117,28,49,41,22,17,11,12,0.6,0.6
2022-05-25T07:00:00,1810A,115.9773,29.5698,九江市,庐山气象台(对照点),,28,14,12,12,11,111,87,101,99,4,4,10,8,0.3,0.4
2022-05-25T07:00:00,1812A,112.3931,34.6516,洛阳市,市委党校,颗粒物(PM10),51,51,51,28,25,188,69,99,77,15,10,3,3,0.6,0.6
2022-05-25T07:00:00,1814A,112.4657,34.6871,洛阳市,豫西宾馆,颗粒物(PM10),68,86,60,43,29,212,25,66,53,52,21,12,6,0.9,0.6
2022-05-25T07:00:00,1815A,112.494,34.6886,洛阳市,河南林校,,48,48,55,28,26,218,77,62,62,18,21,9,9,0.3,0.3
2022-05-25T07:00:00,1816A,112.3844,34.623,洛阳市,开发区管委会,颗粒物(PM10),55,60,53,33,30,217,48,101,67,28,15,8,9,0.4,0.3
2022-05-25T07:00:00,1817A,112.4267,34.6258,洛阳市,市委新办公区,颗粒物(PM10),53,56,52,31,28,209,58,104,75,20,14,9,10,0.4,0.4
2022-05-25T07:00:00,1818A,114.4839,36.0621,安阳市,棉研所(对照点),颗粒物(PM10),98,145,84,37,34,163,54,84,65,37,21,14,10,1.4,0.9
2022-05-25T07:00:00,1819A,114.3551,36.1017,安阳市,红庙街,颗粒物(PM10),79,108,79,38,32,180,84,81,66,25,24,14,12,1.1,0.8
2022-05-25T07:00:00,1820A,114.361,36.0681,安阳市,银杏小区,,,124,79,,,189,91,56,56,27,30,14,10,1.3,0.9
2022-05-25T07:00:00,1824A,114.3389,34.7781,开封市,肿瘤医院,颗粒物(PM10),61,71,69,36,32,176,56,110,77,21,13,9,10,0.7,0.6
2022-05-25T07:00:00,1826A,114.2885,34.7965,开封市,世纪星幼儿园,颗粒物(PM10),58,65,67,30,28,180,62,122,85,24,14,12,11,0.7,0.7
2022-05-25T07:00:00,1828A,113.2269,35.2127,焦作市,市环保局,颗粒物(PM10),70,89,58,48,31,205,33,144,83,61,25,11,8,0.6,0.5
2022-05-25T07:00:00,1829A,113.2467,35.176,焦作市,高新区政府,颗粒物(PM10),75,99,83,39,33,176,46,107,33,66,61,14,14,0.4,0.4
2022-05-25T07:00:00,1830A,113.1987,35.2703,焦作市,影视城(对照点),,43,42,40,30,24,191,121,164,147,11,10,13,10,0.9,0.5
2022-05-25T07:00:00,1832A,113.3257,33.742,平顶山市,新华旅馆,颗粒物(PM10),70,90,55,42,27,160,95,117,111,18,10,1,2,0.4,0.2
2022-05-25T07:00:00,1833A,113.2919,33.737,平顶山市,规划设计院,颗粒物(PM10),56,61,44,24,19,159,96,111,104,23,15,6,5,0.5,0.4
2022-05-25T07:00:00,1834A,113.182,33.774,平顶山市,平顶山工学院,颗粒物(PM10),56,61,46,33,28,155,109,116,108,12,10,4,3,0.6,0.4
2022-05-25T07:00:00,1835A,111.1922,34.7752,三门峡市,市政府,颗粒物(PM10),55,60,53,37,29,202,76,84,78,28,25,14,10,0.6,0.5
2022-05-25T07:00:00,1836A,111.1587,34.7942,三门峡市,开发区,颗粒物(PM10),54,57,63,32,29,188,66,70,66,22,16,12,7,0.7,0.7
2022-05-25T07:00:00,1838A,111.143,34.7955,三门峡市,风景区(对照点),,48,47,62,33,27,192,68,92,79,17,12,8,6,0.7,0.7
2022-05-25T07:00:00,1840A,111.2992,30.6981,宜昌市,白龙岗,"颗粒物(PM10),细颗粒物(PM2.5)",52,53,54,36,33,201,40,79,70,30,29,7,8,0.7,0.5
2022-05-25T07:00:00,1841A,111.3549,30.6465,宜昌市,伍家岗,细颗粒物(PM2.5),58,62,55,41,36,192,8,52,43,61,36,6,7,0.5,0.5
2022-05-25T07:00:00,1842A,111.2628,30.6961,宜昌市,点军区,细颗粒物(PM2.5),58,53,57,41,39,191,41,66,54,19,24,5,6,0.4,0.4
2022-05-25T07:00:00,1843A,111.3275,30.7819,宜昌市,夷陵区,细颗粒物(PM2.5),52,46,51,36,32,178,39,66,59,26,20,6,7,0.5,0.4
2022-05-25T07:00:00,1844A,112.2494,30.3197,荆州市,市图书馆,细颗粒物(PM2.5),63,59,53,45,37,185,64,77,68,15,21,11,8,0.8,0.6
2022-05-25T07:00:00,1845A,112.2008,30.3544,荆州市,市委党校,细颗粒物(PM2.5),70,71,56,51,33,191,52,70,62,25,23,14,12,0.8,0.7
2022-05-25T07:00:00,1847A,113.1094,29.3578,岳阳市,南湖风景区,,35,35,45,20,31,166,32,77,47,22,14,15,10,0.8,0.8
2022-05-25T07:00:00,1848A,113.1493,29.4251,岳阳市,城陵矶,,41,41,46,25,30,146,14,90,46,40,25,22,13,0.7,0.7
2022-05-25T07:00:00,1849A,113.1497,29.3575,岳阳市,开发区,,31,31,46,18,30,166,19,65,31,24,14,13,10,0.8,0.8
2022-05-25T07:00:00,1850A,113.2621,29.4758,岳阳市,云溪区,,30,30,40,18,30,161,33,78,45,32,23,17,13,1.0,0.9
2022-05-25T07:00:00,1851A,112.9943,29.4402,岳阳市,君山区,,35,28,39,24,32,151,24,84,45,17,10,6,6,1.0,0.9
2022-05-25T07:00:00,1852A,113.2117,29.355,岳阳市,金凤水库(对照点),,29,25,45,20,32,155,18,42,22,14,13,13,11,1.0,1
2022-05-25T07:00:00,1854A,111.6975,28.9703,常德市,市二中,,45,37,42,31,30,130,9,56,33,23,13,9,11,0.9,0.8
2022-05-25T07:00:00,1858A,110.5319,29.1217,张家界市,永定新区,,46,34,35,32,31,118,22,62,43,22,14,2,2,0.9,0.6
2022-05-25T07:00:00,1859A,110.4697,29.1242,张家界市,电业局,,42,33,28,29,24,115,27,55,40,13,10,1,2,0.3,0.2
2022-05-25T07:00:00,1860A,110.5594,29.3547,张家界市,未央路,,40,32,33,28,20,110,20,26,24,6,6,2,3,0.5,0.4
2022-05-25T07:00:00,1861A,110.4417,29.315,张家界市,袁家界(对照点),,28,28,32,11,14,140,79,103,95,5,6,8,8,0.3,0.2
2022-05-25T07:00:00,1862A,110.4144,25.3167,桂林市,电子科大尧山校区(对照点),,18,18,14,10,9,65,14,26,18,4,4,5,7,0.7,0.8
2022-05-25T07:00:00,1863A,110.2819,25.2697,桂林市,监测站,,33,33,19,23,8,62,11,14,12,20,16,6,5,1.0,0.9
2022-05-25T07:00:00,1864A,110.3089,25.2708,桂林市,龙隐路小学,,26,26,15,14,9,69,9,16,12,18,14,8,11,0.9,0.8
2022-05-25T07:00:00,1865A,110.2869,25.2178,桂林市,八中,,42,42,18,19,10,70,8,17,12,23,18,9,9,1.0,0.8
2022-05-25T07:00:00,1866A,109.2262,21.588,北海市,牛尾岭水库(对照点),,13,13,18,9,9,62,32,43,37,9,7,5,6,0.3,0.3
2022-05-25T07:00:00,1867A,109.1436,21.4086,北海市,海滩公园,,18,15,15,10,5,72,56,56,56,4,3,5,4,0.6,0.5
2022-05-25T07:00:00,1868A,109.0981,21.4661,北海市,新市环保局,,16,16,14,7,8,63,48,51,50,5,3,4,3,0.6,0.5
2022-05-25T07:00:00,1869A,109.1778,21.5233,北海市,北海工业园,,29,18,29,20,14,62,38,45,39,7,5,5,5,0.5,0.4
2022-05-25T07:00:00,1870A,109.4856,24.3895,柳州市,柳东小学,,33,32,23,23,22,114,21,28,24,6,6,12,17,0.8,0.9
2022-05-25T07:00:00,1871A,109.4157,24.3277,柳州市,环保监测站,,23,19,19,16,17,36,9,8,8,15,20,5,8,1.0,1
2022-05-25T07:00:00,1872A,109.389,24.341,柳州市,河西水厂,,18,18,26,8,8,38,6,12,10,20,16,6,6,1.3,1.2
2022-05-25T07:00:00,1873A,109.4311,24.2921,柳州市,市四中,,27,27,29,14,14,43,10,14,12,15,18,11,10,1.0,1
2022-05-25T07:00:00,1874A,109.4006,24.3631,柳州市,市九中,,39,23,24,27,33,37,8,10,8,16,20,7,12,1.2,1.3
2022-05-25T07:00:00,1875A,109.4958,24.3134,柳州市,古亭山,,29,20,23,20,14,41,9,13,13,14,12,5,5,0.7,0.7
2022-05-25T07:00:00,1876A,109.5078,18.2489,三亚市,河东子站,,26,26,18,10,9,66,17,38,28,10,5,4,2,0.5,0.4
2022-05-25T07:00:00,1877A,109.4964,18.2681,三亚市,河西子站,,26,26,21,10,10,62,7,27,20,12,7,2,2,0.4,0.3
2022-05-25T07:00:00,1878A,104.7778,31.4741,绵阳市,富乐山,,30,26,37,21,27,117,23,31,21,13,16,5,4,0.7,0.6
2022-05-25T07:00:00,1879A,104.7563,31.4535,绵阳市,市人大,,46,46,51,26,30,115,24,55,39,18,22,7,8,0.5,0.6
2022-05-25T07:00:00,1880A,104.6697,31.4668,绵阳市,高新区自来水公司,,42,37,47,29,35,119,23,65,44,29,24,5,5,0.8,0.7
2022-05-25T07:00:00,1881A,104.7287,31.5075,绵阳市,三水厂,,50,50,61,0,30,117,18,62,37,23,24,8,8,0.5,0.5
2022-05-25T07:00:00,1882A,104.563,28.793,宜宾市,石马中学(对照点),,36,36,77,24,56,93,74,87,82,5,9,6,8,0.6,0.6
2022-05-25T07:00:00,1883A,104.6201,28.7728,宜宾市,市委,,42,35,66,29,50,91,76,83,82,13,20,5,6,0.7,0.7
2022-05-25T07:00:00,1884A,104.6055,28.793,宜宾市,宜宾四中,,49,40,72,34,54,86,75,83,80,13,21,5,7,0.5,0.6
2022-05-25T07:00:00,1885A,104.639,28.7562,宜宾市,市政府,,40,32,70,28,49,105,86,93,91,12,18,5,6,0.7,0.7
2022-05-25T07:00:00,1886A,104.5742,28.7199,宜宾市,黄金嘴,,35,27,58,24,44,93,77,90,86,7,16,6,7,0.6,0.7
2022-05-25T07:00:00,1888A,101.6891,26.571,攀枝花市,弄弄坪,,26,25,34,18,20,123,30,40,33,16,18,6,10,0.9,1.2
2022-05-25T07:00:00,1889A,101.5769,26.5928,攀枝花市,河门口,,36,36,33,16,19,146,19,30,28,26,24,6,14,0.9,1.5
2022-05-25T07:00:00,1890A,101.7169,26.585,攀枝花市,炳草岗,,38,38,37,19,21,130,11,24,22,38,26,24,25,0.7,0.9
2022-05-25T07:00:00,1891A,101.7369,26.5008,攀枝花市,仁和,,30,30,30,20,19,114,24,46,40,19,18,5,7,0.7,0.7
2022-05-25T07:00:00,1893A,105.4324,28.9634,泸州市,九狮山(对照点),,31,31,78,14,40,147,60,47,47,9,18,5,21,0.4,0.5
2022-05-25T07:00:00,1894A,105.4427,28.9063,泸州市,小市上码头,,36,36,82,25,37,151,58,47,46,11,20,5,17,0.6,0.7
2022-05-25T07:00:00,1895A,105.4241,28.8573,泸州市,兰田宪桥,,30,30,69,17,31,136,60,46,46,7,18,5,17,0.5,0.7
2022-05-25T07:00:00,1896A,105.4379,28.8833,泸州市,市环监站,,30,30,73,10,32,145,68,54,54,10,22,3,15,0.4,0.6
2022-05-25T07:00:00,1901A,104.4239,31.1208,德阳市,东山公园,,41,41,48,25,30,106,15,56,35,18,23,6,6,0.6,0.6
2022-05-25T07:00:00,1902A,104.3826,31.1317,德阳市,西小区,,45,45,59,22,30,111,40,53,51,19,23,7,8,0.7,0.6
2022-05-25T07:00:00,1904A,104.3553,31.1091,德阳市,耐火材料厂,颗粒物(PM10),51,51,53,23,29,112,13,48,37,34,29,7,8,0.6,0.6
2022-05-25T07:00:00,1905A,106.056,30.8064,南充市,西山风景区(对照点),,49,33,40,34,35,92,70,58,58,19,13,2,3,0.6,0.6
2022-05-25T07:00:00,1906A,106.0789,30.8023,南充市,南充市委,,48,41,52,33,34,95,62,66,64,6,12,3,3,0.6,0.6
2022-05-25T07:00:00,1907A,106.1031,30.8217,南充市,南充炼油厂,,48,40,52,33,35,90,47,42,41,7,8,2,2,0.5,0.5
2022-05-25T07:00:00,1908A,106.1064,30.7856,南充市,高坪区监测站,,42,37,46,29,33,87,58,46,46,6,10,8,3,0.5,0.5
2022-05-25T07:00:00,1909A,106.0642,30.7636,南充市,嘉陵区环保局,,35,29,39,24,36,110,62,52,52,5,14,4,4,0.5,0.5
2022-05-25T07:00:00,1910A,106.1087,30.8388,南充市,市环境监测站,细颗粒物(PM2.5),59,46,56,42,38,87,44,40,39,9,12,16,10,0.4,0.4
2022-05-25T07:00:00,1911A,106.9222,27.6869,遵义市,丁字口,,19,14,22,13,16,59,10,8,8,13,15,6,7,0.8,0.8
2022-05-25T07:00:00,1912A,106.9242,27.7019,遵义市,凤凰山,,13,5,11,9,10,59,26,33,27,6,8,6,6,0.6,0.6
2022-05-25T07:00:00,1913A,106.8906,27.6486,遵义市,忠庄,,13,9,20,9,14,56,10,16,13,11,12,3,2,0.4,0.4
2022-05-25T07:00:00,1914A,106.9231,27.6506,遵义市,舟水桥,,11,11,19,5,11,56,8,15,6,12,11,2,2,0.3,0.4
2022-05-25T07:00:00,1915A,106.9178,27.72,遵义市,干田坝,,18,5,13,12,9,59,10,8,8,12,13,5,5,0.7,0.7
2022-05-25T07:00:00,1916A,103.7897,25.5035,曲靖市,环境监测站,,19,19,15,6,10,77,24,41,33,15,17,10,7,1.0,0.8
2022-05-25T07:00:00,1917A,103.8,25.5364,曲靖市,烟厂办公区,,20,20,12,4,8,97,28,48,41,14,11,8,5,1.1,0.8
2022-05-25T07:00:00,1918A,108.7197,34.3956,咸阳市,气象站(对照点),颗粒物(PM10),62,73,92,32,34,211,24,8,8,61,54,8,10,0.9,0.9
2022-05-25T07:00:00,1919A,108.673,34.3155,咸阳市,实验中学,颗粒物(PM10),85,120,84,35,32,244,6,4,3,76,45,3,6,0.8,0.7
2022-05-25T07:00:00,1920A,108.7233,34.3617,咸阳市,师范学院,颗粒物(PM10),71,91,86,34,38,213,12,13,7,73,45,8,14,0.8,0.6
2022-05-25T07:00:00,1922A,109.0656,35.0994,铜川市,党校(对照点),,40,40,44,23,21,190,44,66,57,30,32,7,8,0.6,0.5
2022-05-25T07:00:00,1923A,109.0697,35.0697,铜川市,王益区政府,,42,42,51,29,25,201,40,37,36,28,27,6,7,0.6,0.5
2022-05-25T07:00:00,1924A,108.9344,34.9058,铜川市,新区管委会,,37,37,49,23,24,194,81,90,86,17,20,6,12,0.5,0.5
2022-05-25T07:00:00,1926A,109.4131,36.6275,延安市,枣园(对照点),,32,32,32,19,14,182,12,31,20,19,22,4,4,0.6,0.5
2022-05-25T07:00:00,1927A,109.4761,36.6028,延安市,延大医附院,,32,32,36,17,16,187,14,25,21,20,28,4,4,0.5,0.5
2022-05-25T07:00:00,1929A,109.5056,36.6106,延安市,百米大道,,49,49,50,22,18,172,14,16,15,30,34,2,2,0.7,0.7
2022-05-25T07:00:00,1930A,107.185,34.3063,宝鸡市,庙沟村(对照点),,22,17,30,15,17,166,40,65,55,27,14,5,5,0.4,0.4
2022-05-25T07:00:00,1931A,107.0708,34.3017,宝鸡市,竹园沟,,26,24,28,18,18,180,36,58,47,14,14,4,4,0.4,0.5
2022-05-25T07:00:00,1932A,107.1906,34.3672,宝鸡市,三陆医院,颗粒物(PM10),56,61,50,34,23,187,15,65,44,48,27,18,10,0.6,0.6
2022-05-25T07:00:00,1933A,107.1431,34.3547,宝鸡市,监测站,,22,22,40,14,22,190,22,48,39,27,22,4,5,0.6,0.5
2022-05-25T07:00:00,1934A,107.1186,34.3739,宝鸡市,技工学校,,34,34,48,18,24,191,40,74,52,16,19,10,6,0.4,0.4
2022-05-25T07:00:00,1935A,107.3906,34.3528,宝鸡市,陈仓区环保局家属楼,细颗粒物(PM2.5),60,58,59,43,27,180,48,82,47,35,29,161,18,0.9,0.5
2022-05-25T07:00:00,1936A,107.2058,34.3497,宝鸡市,文理学院,,49,49,46,33,25,189,22,58,42,39,27,11,9,0.3,0.3
2022-05-25T07:00:00,1937A,107.2386,34.3622,宝鸡市,三迪小学,颗粒物(PM10),51,52,54,32,27,184,22,56,43,40,31,11,10,0.5,0.4
2022-05-25T07:00:00,1938A,109.5293,34.5101,渭南市,农科所(对照点),细颗粒物(PM2.5),62,70,61,44,35,179,11,81,25,6,11,11,13,0.5,0.4
2022-05-25T07:00:00,1939A,109.4974,34.4877,渭南市,日报社,颗粒物(PM10),58,66,59,31,29,155,28,42,28,31,28,7,8,0.5,0.5
2022-05-25T07:00:00,1940A,109.4636,34.493,渭南市,体育馆,颗粒物(PM10),58,66,55,29,24,203,16,74,45,56,28,13,9,0.7,0.6
2022-05-25T07:00:00,1941A,109.4259,34.5023,渭南市,高新一小,颗粒物(PM10),71,92,74,41,30,191,19,77,45,41,23,8,10,0.7,0.6
2022-05-25T07:00:00,1943A,102.1725,38.5339,金昌市,新川苑,"颗粒物(PM10),细颗粒物(PM2.5)",500,2490,782,553,171,150,79,147,101,10,14,4,14,0.5,0.5
2022-05-25T07:00:00,1944A,102.1692,38.5167,金昌市,天庆家园,"颗粒物(PM10),细颗粒物(PM2.5)",500,2345,778,523,184,159,84,155,106,4,12,5,29,0.7,0.7
2022-05-25T07:00:00,1945A,98.2908,39.7711,嘉峪关市,气象局,"颗粒物(PM10),细颗粒物(PM2.5)",500,1541,598,593,361,162,92,105,101,4,5,3,3,0.5,0.5
2022-05-25T07:00:00,1947A,106.3394,38.817,石嘴山市,沙湖旅游区(对照点),颗粒物(PM10),78,106,178,43,33,190,62,80,69,18,20,48,49,0.8,1
2022-05-25T07:00:00,1948A,106.3668,39.0145,石嘴山市,大武口朝阳西街,颗粒物(PM10),75,99,152,33,32,175,76,83,75,13,18,20,20,0.4,0.5
2022-05-25T07:00:00,1949A,106.7704,39.2282,石嘴山市,惠农南大街,颗粒物(PM10),104,157,196,44,44,168,68,75,71,20,16,18,14,0.5,0.6
2022-05-25T07:00:00,1950A,106.7099,39.1325,石嘴山市,红果子镇惠新街,颗粒物(PM10),78,105,190,24,41,150,64,70,68,13,14,7,9,0.3,0.3
2022-05-25T07:00:00,1951A,84.895,45.6094,克拉玛依市,长征新村,,24,24,38,3,6,122,59,94,84,10,14,5,6,0.2,0.2
2022-05-25T07:00:00,1952A,84.8988,45.5893,克拉玛依市,南林小区,,29,29,43,13,15,119,44,80,72,13,23,8,9,0.4,0.4
2022-05-25T07:00:00,1954A,84.905,44.3396,克拉玛依市,独山子区,,30,30,39,16,16,140,86,69,69,6,16,7,10,0.5,0.6
2022-05-25T07:00:00,1955A,85.6979,46.098,克拉玛依市,乌尔禾区商贸楼,,42,42,37,9,6,111,26,52,31,24,14,11,10,0.4,0.4
2022-05-25T07:00:00,1956A,86.1472,41.7538,巴音郭楞州,孔雀公园,,43,43,58,20,14,131,113,120,112,4,10,4,2,0.3,0.3
2022-05-25T07:00:00,1957A,86.1972,41.7166,巴音郭楞州,棉纺厂,,30,29,39,10,18,118,94,96,93,16,15,3,3,0.3,0.2
2022-05-25T07:00:00,1958A,86.2357,41.7173,巴音郭楞州,经济开发区,颗粒物(PM10),52,53,53,23,16,122,103,106,104,7,9,3,1,0.2,0.2
2022-05-25T07:00:00,1961A,117.532,36.6868,济南市,东山小学,颗粒物(PM10),56,61,72,24,30,217,120,145,129,19,20,14,12,0.4,0.4
2022-05-25T07:00:00,1966A,120.0405,35.8735,青岛市,黄岛区4号,,28,27,28,19,11,138,62,111,90,24,15,6,7,0.5,0.4
2022-05-25T07:00:00,1982A,122.0693,37.2174,威海市,文登开发区,,31,17,28,14,11,133,98,110,108,17,13,4,4,0.2,0.2
2022-05-25T07:00:00,2031A,113.1817,27.9958,株洲市,云田中学,,23,22,18,16,19,92,18,51,30,15,12,5,6,0.9,0.8
2022-05-25T07:00:00,2054A,114.1099,32.1059,信阳市,平桥分局,,40,40,39,27,30,174,73,84,72,10,7,8,8,0.7,0.7
2022-05-25T07:00:00,2064A,113.9956,32.1271,信阳市,南湾水厂,,37,37,41,22,29,173,81,109,90,10,9,9,9,0.5,0.6
2022-05-25T07:00:00,2065A,114.0775,32.1195,信阳市,市酿酒公司,,38,38,34,26,28,171,72,100,73,22,16,7,7,0.7,0.7
2022-05-25T07:00:00,2066A,114.0609,32.1399,信阳市,审计局,颗粒物(PM10),51,51,46,31,31,172,78,108,93,26,14,7,7,0.4,0.4
2022-05-25T07:00:00,2067A,114.6613,33.6128,周口市,市环境监测站,颗粒物(PM10),59,67,64,39,33,171,86,128,108,33,18,9,6,0.7,0.6
2022-05-25T07:00:00,2068A,114.6758,33.6347,周口市,周口师范,颗粒物(PM10),56,62,61,36,30,167,86,127,108,23,14,10,8,0.8,0.7
2022-05-25T07:00:00,2069A,114.6546,33.5979,周口市,市运管处,细颗粒物(PM2.5),59,61,63,42,32,168,85,122,107,23,15,6,6,0.6,0.5
2022-05-25T07:00:00,2070A,114.6369,33.6406,周口市,川汇区环保局,颗粒物(PM10),55,60,57,35,30,170,90,135,109,21,15,6,4,0.6,0.5
2022-05-25T07:00:00,2075A,117.6336,24.4674,漳州市,九湖(对照点),,15,15,30,8,20,74,27,28,28,13,32,4,4,0.5,0.6
2022-05-25T07:00:00,2160A,112.85,35.5051,晋城市,自来水公司,颗粒物(PM10),73,95,57,39,27,205,62,81,78,52,30,16,12,2.3,0.9
2022-05-25T07:00:00,2161A,112.8318,35.4936,晋城市,白云商贸,颗粒物(PM10),69,88,68,39,27,210,68,75,74,43,25,22,9,3.2,0.8
2022-05-25T07:00:00,2162A,112.8508,35.4887,晋城市,市环保局,颗粒物(PM10),76,102,86,39,31,201,25,69,33,74,42,11,11,1.2,0.8
2022-05-25T07:00:00,2163A,112.8676,35.4897,晋城市,技术学院,颗粒物(PM10),65,79,71,34,30,206,50,29,28,59,48,9,10,0.8,0.8
2022-05-25T07:00:00,2165A,112.8453,35.546,晋城市,白马寺 (对照点),颗粒物(PM10),63,76,59,27,27,241,153,214,186,19,15,10,9,1.0,0.8
2022-05-25T07:00:00,2166A,112.4397,39.3522,朔州市,平朔,颗粒物(PM10),80,110,86,11,22,182,58,86,77,38,23,8,7,0.4,0.4
2022-05-25T07:00:00,2167A,112.4575,39.3617,朔州市,朔唯,颗粒物(PM10),76,102,83,12,25,184,60,79,75,35,24,7,7,0.7,0.6
2022-05-25T07:00:00,2168A,112.4258,39.3197,朔州市,区政府,颗粒物(PM10),77,103,77,24,15,178,72,93,85,33,19,9,8,0.4,0.4
2022-05-25T07:00:00,2169A,112.4072,39.3278,朔州市,市环保局,颗粒物(PM10),70,90,83,9,19,179,77,95,82,22,19,11,11,0.6,0.6
2022-05-25T07:00:00,2170A,112.4272,39.3681,朔州市,市二中,颗粒物(PM10),72,94,83,11,21,174,53,89,73,39,23,8,11,0.8,0.5
2022-05-25T07:00:00,2171A,112.7532,37.6945,晋中市,锦纶小区,颗粒物(PM10),52,54,62,15,31,221,66,129,73,27,33,9,11,0.2,0.6
2022-05-25T07:00:00,2173A,112.7249,37.7067,晋中市,南都小区,颗粒物(PM10),60,69,62,15,29,220,65,123,82,31,30,8,7,0.2,0.6
2022-05-25T07:00:00,2174A,112.6991,37.6982,晋中市,榆次区政府,,35,35,51,16,32,211,70,130,85,19,22,6,7,0.3,0.7
2022-05-25T07:00:00,2175A,110.9956,35.0147,运城市,运城中学,"颗粒物(PM10),细颗粒物(PM2.5)",52,53,47,36,27,159,62,132,90,22,11,8,7,0.7,0.6
2022-05-25T07:00:00,2178A,110.9686,35.0303,运城市,地区技校,颗粒物(PM10),59,68,52,26,25,162,72,128,85,28,14,7,6,0.7,0.6
2022-05-25T07:00:00,2179A,111.0414,35.1147,运城市,空港新区,颗粒物(PM10),65,79,66,41,32,176,77,98,88,39,17,30,13,1.7,0.7
2022-05-25T07:00:00,2181A,112.7383,38.4519,忻州市,开发区,颗粒物(PM10),76,101,64,22,29,208,81,82,82,10,18,10,13,0.4,0.4
2022-05-25T07:00:00,2182A,112.7003,38.4928,忻州市,会展中心,颗粒物(PM10),59,68,60,7,19,207,72,75,74,11,19,7,11,0.2,0.3
2022-05-25T07:00:00,2183A,111.1406,37.5211,吕梁市,环保局,颗粒物(PM10),68,85,69,33,28,204,23,86,57,60,41,4,7,0.7,0.7
2022-05-25T07:00:00,2185A,111.1297,37.5136,吕梁市,自来水公司,颗粒物(PM10),90,130,79,41,27,205,22,75,45,51,36,9,9,0.6,0.5
2022-05-25T07:00:00,2187A,106.8174,39.6973,乌海市,市林业局,颗粒物(PM10),90,129,142,27,33,172,78,97,89,12,13,5,12,0.6,0.7
2022-05-25T07:00:00,2188A,106.7907,39.6667,乌海市,中海勃湾学校,颗粒物(PM10),99,148,112,32,32,172,74,98,89,19,18,10,15,0.3,0.6
2022-05-25T07:00:00,2191A,122.2532,43.6801,通辽市,艺术职业学校,细颗粒物(PM2.5),54,25,118,38,31,148,66,74,67,11,13,5,6,0.0,0.1
2022-05-25T07:00:00,2192A,119.7594,49.2261,呼伦贝尔市,区环保局,,38,38,36,18,19,94,35,55,38,31,17,5,5,0.5,0.4
2022-05-25T07:00:00,2195A,107.4212,40.761,巴彦淖尔市,附二中,颗粒物(PM10),99,147,107,24,23,169,71,84,76,7,8,19,12,0.4,0.3
2022-05-25T07:00:00,2196A,107.37,40.7372,巴彦淖尔市,市环保大楼,颗粒物(PM10),94,137,82,26,25,153,72,86,78,6,7,14,8,0.4,0.4
2022-05-25T07:00:00,2197A,113.1306,40.9923,乌兰察布市,集宁新区,,26,25,50,15,18,164,83,94,90,9,11,16,11,0.3,0.3
2022-05-25T07:00:00,2200A,122.0392,46.0656,兴安盟,胜华新制药厂,,26,26,26,18,15,73,43,43,42,16,16,4,3,0.2,0.2
2022-05-25T07:00:00,2201A,121.9504,46.0741,兴安盟,科右前旗环保局,,28,16,16,19,18,72,54,46,46,11,11,3,3,0.1,0.2
2022-05-25T07:00:00,2202A,116.1042,43.9317,锡林郭勒盟,市环保监测站,,13,13,30,2,5,101,34,82,48,24,7,9,11,0.3,0.4
2022-05-25T07:00:00,2203A,116.0781,43.9311,锡林郭勒盟,市政府,,15,5,27,7,5,105,45,64,49,12,9,6,7,0.5,0.4
2022-05-25T07:00:00,2204A,105.6467,38.8363,阿拉善盟,西城区西花园(对照点),颗粒物(PM10),86,122,68,36,27,189,77,159,116,12,7,18,17,0.2,0.2
2022-05-25T07:00:00,2205A,105.6985,38.8411,阿拉善盟,蒙二幼,颗粒物(PM10),80,110,72,39,24,186,96,162,130,14,7,9,9,0.3,0.3
2022-05-25T07:00:00,2206A,105.724,38.8516,阿拉善盟,环保局新楼,,49,40,50,34,23,188,96,161,134,14,8,8,8,0.4,0.4
2022-05-25T07:00:00,2207A,121.6094,41.998,阜新市,工业园区,,25,2,75,1,16,215,80,76,76,6,12,5,12,0.4,0.6
2022-05-25T07:00:00,2208A,121.6697,42.0279,阜新市,长青街,,23,15,50,0,11,194,73,69,69,5,10,9,14,0.6,0.8
2022-05-25T07:00:00,2209A,121.6673,42.0705,阜新市,农业园区,,24,11,87,4,19,204,76,73,73,9,13,8,12,0.2,0.4
2022-05-25T07:00:00,2210A,121.6717,42.0224,阜新市,东苑,,24,3,70,2,15,175,76,71,71,8,14,8,13,0.3,0.5
2022-05-25T07:00:00,2211A,121.6506,42.0498,阜新市,玉龙新城,,23,14,79,12,15,192,71,69,69,18,13,8,14,0.5,0.6
2022-05-25T07:00:00,2212A,123.2,41.1953,辽阳市,宏伟区,,19,8,47,6,17,154,60,56,56,6,7,7,9,0.4,0.5
2022-05-25T07:00:00,2213A,123.1683,41.2495,辽阳市,新华园,,20,5,55,4,14,162,62,60,59,10,12,5,8,0.1,0.2
2022-05-25T07:00:00,2214A,123.2354,41.2639,辽阳市,滨河路,,20,14,50,11,21,156,62,57,57,6,10,6,11,0.4,0.6
2022-05-25T07:00:00,2215A,123.149,41.2991,辽阳市,铁西工业园,,19,7,60,12,28,173,58,55,55,12,16,5,9,0.3,0.4
2022-05-25T07:00:00,2216A,123.8139,42.3022,铁岭市,汇工街西,,21,13,78,6,30,214,67,58,58,13,18,8,13,0.3,0.5
2022-05-25T07:00:00,2217A,123.8649,42.2923,铁岭市,水上乐园,,21,7,65,10,25,226,67,58,58,10,17,5,9,0.1,0.3
2022-05-25T07:00:00,2218A,123.8486,42.2867,铁岭市,银州路东段,,21,14,84,7,31,211,65,58,58,14,19,5,9,0.3,0.5
2022-05-25T07:00:00,2219A,123.7153,42.2217,铁岭市,金沙江路北,,20,9,71,6,19,210,64,57,57,14,20,6,8,0.5,0.7
2022-05-25T07:00:00,2220A,120.4318,41.5881,朝阳市,西梁,,24,13,72,6,19,184,76,71,71,10,11,10,11,0.5,0.8
2022-05-25T07:00:00,2221A,120.4521,41.5646,朝阳市,河畔小区,,25,16,68,4,18,185,80,75,75,7,10,8,10,0.5,0.7
2022-05-25T07:00:00,2222A,120.4176,41.5648,朝阳市,八里堡,,26,8,68,4,17,189,83,76,76,7,11,9,12,0.6,0.8
2022-05-25T07:00:00,2223A,120.3806,41.5969,朝阳市,农业园区,,24,16,59,2,16,189,76,70,70,7,8,7,9,0.5,0.7
2022-05-25T07:00:00,2225A,124.4002,43.1713,四平市,一商场,,20,12,75,6,28,212,61,61,61,12,14,7,10,0.3,0.4
2022-05-25T07:00:00,2226A,124.388,43.193,四平市,境园,,19,14,64,0,16,212,59,56,56,7,9,2,4,0.1,0.3
2022-05-25T07:00:00,2227A,125.1358,42.8845,辽源市,环保局,,18,16,46,12,27,217,52,59,55,10,8,6,7,0.5,0.6
2022-05-25T07:00:00,2229A,125.9358,41.7173,通化市,光明,,42,9,34,7,18,194,133,181,160,6,6,8,8,0.6,0.6
2022-05-25T07:00:00,2230A,125.9446,41.7325,通化市,铁路,,39,9,31,2,18,181,124,174,152,9,7,6,7,0.6,0.7
2022-05-25T07:00:00,2231A,126.4219,41.9171,白山市,喜丰,,39,31,68,13,21,189,123,118,106,9,15,10,12,0.9,0.8
2022-05-25T07:00:00,2232A,126.4077,41.9419,白山市,环保局,,39,32,52,18,23,195,124,97,97,16,18,8,10,1.1,0.9
2022-05-25T07:00:00,2233A,124.8006,45.1214,松原市,江南,,15,10,22,10,10,99,42,59,54,13,10,2,2,0.5,0.3
2022-05-25T07:00:00,2234A,124.7965,45.1722,松原市,江北,,24,24,57,2,14,99,41,57,52,12,11,2,2,0.3,0.3
2022-05-25T07:00:00,2235A,122.7911,45.6077,白城市,洮北区环保局,,24,24,26,2,6,83,44,52,43,13,13,9,8,0.2,0.2
2022-05-25T07:00:00,2236A,122.8738,45.5725,白城市,市环保局,,33,22,29,23,17,68,29,40,32,23,25,5,5,0.3,0.3
2022-05-25T07:00:00,2237A,129.47,42.8883,延边朝鲜族自治州,妇幼医院,,33,24,39,23,24,162,53,68,54,22,15,6,6,0.6,0.6
2022-05-25T07:00:00,2238A,129.5055,42.9108,延边朝鲜族自治州,延边医院,,40,36,39,28,25,166,59,72,66,16,12,8,7,0.8,0.7
2022-05-25T07:00:00,2239A,129.3964,42.8881,延边朝鲜族自治州,朝阳川镇医院,,30,30,44,17,22,169,65,58,53,13,17,10,10,0.4,0.5
2022-05-25T07:00:00,2240A,130.9762,45.3001,鸡西市,环保局,,13,7,29,4,13,140,40,39,39,16,20,2,3,0.1,0.2
2022-05-25T07:00:00,2243A,130.9429,45.3039,鸡西市,第一中学,,11,10,31,5,10,152,34,41,39,21,17,6,8,0.3,0.3
2022-05-25T07:00:00,2244A,130.2537,47.3416,鹤岗市,哈啤分公司,,18,18,25,10,10,59,36,42,40,4,9,6,7,0.4,0.4
2022-05-25T07:00:00,2245A,130.2684,47.3086,鹤岗市,斯达机电,,14,14,20,6,10,64,38,48,46,6,10,6,6,0.3,0.3
2022-05-25T07:00:00,2246A,130.3114,47.3388,鹤岗市,东山纸板厂,,12,12,35,7,12,60,37,48,43,4,9,7,8,0.1,0.2
2022-05-25T07:00:00,2247A,130.1097,47.3382,鹤岗市,五号水库(对照点),,16,5,11,11,7,61,38,34,32,5,6,6,6,0.1,0.2
2022-05-25T07:00:00,2248A,131.1511,46.6937,双鸭山市,双合村,,11,5,23,6,11,92,33,27,27,10,11,5,7,0.2,0.2
2022-05-25T07:00:00,2249A,131.1652,46.6191,双鸭山市,南小市,,14,9,25,3,10,96,42,29,29,4,7,4,5,0.2,0.3
2022-05-25T07:00:00,2250A,131.1524,46.6554,双鸭山市,环保局,,13,12,19,7,12,98,39,34,34,7,8,4,5,0.2,0.2
2022-05-25T07:00:00,2251A,131.12,46.5656,双鸭山市,苗圃(对照点),,22,15,17,15,15,106,42,26,26,8,6,2,2,0.3,0.3
2022-05-25T07:00:00,2252A,128.5159,47.4311,伊春市,环保局,,11,7,10,6,5,66,33,31,30,6,9,5,5,0.2,0.2
2022-05-25T07:00:00,2253A,128.9102,47.7412,伊春市,电力嘉园,,15,15,20,8,13,76,32,39,34,5,5,4,5,0.4,0.4
2022-05-25T07:00:00,2254A,129.5029,48.471,伊春市,汤旺河国家公园(对照点),,14,4,3,6,1,70,44,43,26,1,1,2,7,0.2,0.2
2022-05-25T07:00:00,2255A,130.2751,46.8028,佳木斯市,佳纺,,12,9,19,5,10,79,36,34,34,12,13,4,4,0.4,0.4
2022-05-25T07:00:00,2256A,130.3995,46.8307,佳木斯市,发电厂,,15,9,23,6,9,91,48,44,44,3,8,5,7,0.4,0.5
2022-05-25T07:00:00,2257A,130.3258,46.7975,佳木斯市,环保局,,12,7,22,4,9,91,36,39,39,10,13,5,6,0.5,0.4
2022-05-25T07:00:00,2258A,130.3648,46.8032,佳木斯市,十一中,,14,7,21,5,10,92,43,41,41,8,12,4,5,0.2,0.3
2022-05-25T07:00:00,2259A,130.3794,46.7588,佳木斯市,四丰(对照点),,12,7,18,6,10,87,37,26,26,10,14,4,4,0.5,0.5
2022-05-25T07:00:00,2262A,131.0518,45.8751,七台河市,新一中(对照点),,14,4,17,1,9,126,42,43,43,9,10,6,8,0.8,0.8
2022-05-25T07:00:00,2263A,127.4833,50.2524,黑河市,交通局,,15,7,13,7,8,72,48,42,42,5,7,4,4,0.3,0.3
2022-05-25T07:00:00,2264A,127.5144,50.2341,黑河市,环保局,,16,10,20,8,10,70,49,54,50,7,10,5,9,0.3,0.4
2022-05-25T07:00:00,2265A,127.5291,50.2472,黑河市,大黑河岛(对照点),,16,5,13,2,6,76,49,45,45,3,4,6,6,0.3,0.3
2022-05-25T07:00:00,2266A,126.9785,46.6365,绥化市,人和东街,,12,7,19,3,8,68,37,37,37,8,13,9,8,0.3,0.3
2022-05-25T07:00:00,2267A,126.964,46.6528,绥化市,党政办公中心,,13,6,14,4,9,74,40,44,43,8,12,6,5,0.2,0.3
2022-05-25T07:00:00,2269A,124.1069,50.4097,大兴安岭地区,科技局,,17,11,11,7,9,92,53,52,52,5,6,4,4,0.3,0.3
2022-05-25T07:00:00,2270A,117.396,32.939,蚌埠市,工人疗养院,,43,43,35,27,20,174,95,121,107,13,12,9,6,0.4,0.2
2022-05-25T07:00:00,2271A,117.3605,32.9427,蚌埠市,百货大楼,颗粒物(PM10),54,58,47,13,12,179,101,125,112,15,14,12,7,0.5,0.4
2022-05-25T07:00:00,2273A,117.4185,32.8911,蚌埠市,蚌埠学院,,48,48,38,27,16,176,72,115,93,23,14,10,9,0.5,0.3
2022-05-25T07:00:00,2274A,117.3533,32.9673,蚌埠市,淮上区政府,,39,39,41,22,15,175,85,123,102,19,11,18,10,0.6,0.4
2022-05-25T07:00:00,2275A,117.3145,32.8977,蚌埠市,高新区,细颗粒物(PM2.5),55,51,46,39,21,193,93,121,106,21,15,11,8,0.6,0.5
2022-05-25T07:00:00,2277A,116.8305,32.7727,淮南市,潘集区政府,细颗粒物(PM2.5),69,77,45,50,26,189,63,107,79,29,16,13,9,0.4,0.2
2022-05-25T07:00:00,2278A,117.0067,32.6524,淮南市,师范学院,细颗粒物(PM2.5),72,74,45,52,22,183,67,109,86,22,13,12,10,0.5,0.4
2022-05-25T07:00:00,2279A,116.8569,32.5951,淮南市,谢家集区政府,细颗粒物(PM2.5),67,82,47,48,22,180,32,93,64,60,21,24,10,0.4,0.3
2022-05-25T07:00:00,2280A,116.8281,32.633,淮南市,八公山区政府,细颗粒物(PM2.5),67,74,46,48,23,182,42,105,69,44,15,13,7,0.5,0.3
2022-05-25T07:00:00,2281A,116.6325,32.6201,淮南市,焦岗湖风景区管理处(对照点),颗粒物(PM10),55,59,40,33,19,190,62,90,72,37,20,9,10,0.4,0.2
2022-05-25T07:00:00,2282A,116.8004,33.975,淮北市,监测站,"颗粒物(PM10),细颗粒物(PM2.5)",52,53,53,36,27,190,91,117,99,13,7,5,5,0.5,0.4
2022-05-25T07:00:00,2283A,116.8091,33.9007,淮北市,烈山区政府,颗粒物(PM10),56,62,53,36,35,196,81,106,90,28,18,10,9,0.6,0.5
2022-05-25T07:00:00,2284A,116.7856,33.9477,淮北市,职业技术学院,颗粒物(PM10),57,63,55,35,30,194,84,114,95,23,14,8,8,0.6,0.5
2022-05-25T07:00:00,2285A,117.8177,30.9412,铜陵市,市第四中学,,35,21,21,24,21,202,34,109,75,48,16,9,9,0.5,0.3
2022-05-25T07:00:00,2286A,117.8059,30.9273,铜陵市,市公路局,颗粒物(PM10),67,83,48,26,22,172,31,99,70,39,14,6,6,1.0,0.5
2022-05-25T07:00:00,2287A,117.7807,30.9413,铜陵市,市新民污水厂,,,86,54,36,30,181,5,94,33,69,32,6,8,1.1,0.5
2022-05-25T07:00:00,2288A,117.7439,30.8792,铜陵市,市第九中学,颗粒物(PM10),81,111,60,32,26,140,14,16,16,41,54,6,8,1.1,0.6
2022-05-25T07:00:00,2289A,117.846,30.9413,铜陵市,车站新区,,35,35,37,8,24,189,46,74,63,23,18,4,5,0.3,0.3
2022-05-25T07:00:00,2290A,117.8483,30.97,铜陵市,市职教基地,,43,42,43,30,24,179,46,53,41,19,15,10,7,0.6,0.5
2022-05-25T07:00:00,2291A,117.0809,30.5177,安庆市,环科院,颗粒物(PM10),57,63,41,38,27,170,18,92,56,70,23,9,8,0.7,0.5
2022-05-25T07:00:00,2292A,117.0331,30.5119,安庆市,马山宾馆,,50,50,38,33,27,165,41,95,43,30,23,9,8,0.7,0.6
2022-05-25T07:00:00,2294A,116.9896,30.6145,安庆市,安庆大学,细颗粒物(PM2.5),52,39,32,36,21,143,38,96,68,34,17,7,6,0.6,0.5
2022-05-25T07:00:00,2295A,118.2903,29.6963,黄山市,延安路89号,,19,19,24,1,9,121,13,22,14,5,4,5,5,0.3,0.3
2022-05-25T07:00:00,2296A,118.327,29.7178,黄山市,黄山东路89号,,15,14,16,10,10,123,23,29,18,5,5,5,5,0.5,0.5
2022-05-25T07:00:00,2297A,118.1371,30.2756,黄山市,黄山区政府5号楼,,39,39,33,13,14,155,17,41,24,5,6,5,6,0.4,0.4
2022-05-25T07:00:00,2298A,118.3093,32.3153,滁州市,老年大学,,42,41,41,29,19,169,60,103,83,31,27,8,7,0.4,0.4
2022-05-25T07:00:00,2299A,118.3244,32.2786,滁州市,人大宾馆,,44,44,33,22,19,165,57,102,81,24,19,6,6,0.4,0.4
2022-05-25T07:00:00,2301A,115.8277,32.8929,阜阳市,市监测站,,38,38,44,17,23,192,101,146,121,17,12,12,9,0.7,0.6
2022-05-25T07:00:00,2303A,115.8554,32.8605,阜阳市,开发区,颗粒物(PM10),56,62,54,33,24,183,99,137,120,19,14,9,7,0.6,0.5
2022-05-25T07:00:00,2307A,116.5079,31.737,六安市,监测大楼,颗粒物(PM10),52,53,38,24,15,181,69,137,106,19,10,6,7,0.4,0.3
2022-05-25T07:00:00,2308A,116.4738,31.7643,六安市,皖西学院,,47,47,44,24,22,186,87,138,114,22,12,10,9,0.5,0.4
2022-05-25T07:00:00,2309A,116.4996,31.7905,六安市,朝阳厂,细颗粒物(PM2.5),57,50,43,40,22,177,71,126,104,19,9,8,8,0.6,0.4
2022-05-25T07:00:00,2310A,116.5567,31.7886,六安市,开发区,颗粒物(PM10),56,62,60,25,23,205,74,130,100,16,14,7,9,0.4,0.4
2022-05-25T07:00:00,2311A,115.8072,33.8399,亳州市,污水处理厂,,50,50,42,32,26,191,114,140,121,8,6,10,7,0.7,0.6
2022-05-25T07:00:00,2312A,115.7789,33.8518,亳州市,三国揽胜宫,,46,46,49,31,27,178,109,139,121,10,8,7,6,0.4,0.4
2022-05-25T07:00:00,2314A,117.47,30.6618,池州市,池州学院,,48,45,44,33,25,168,55,67,55,16,14,7,9,1.0,0.6
2022-05-25T07:00:00,2316A,118.7581,30.9454,宣城市,鳌峰子站,,45,41,32,31,21,112,23,80,55,33,17,8,5,0.6,0.4
2022-05-25T07:00:00,2317A,118.7385,30.9743,宣城市,敬亭山子站,,43,36,29,30,18,111,34,55,35,23,18,8,5,0.5,0.4
2022-05-25T07:00:00,2318A,118.7173,30.9427,宣城市,开发区子站,,41,41,30,28,19,112,21,78,54,36,16,7,5,0.5,0.4
2022-05-25T07:00:00,2319A,119.0141,25.4325,莆田市,荔城区仓后路,,25,24,26,17,14,62,10,31,17,25,25,5,4,1.2,0.8
2022-05-25T07:00:00,2320A,119.0015,25.4553,莆田市,莆田市监测站,,31,31,28,15,22,60,17,30,19,10,21,4,4,0.9,0.9
2022-05-25T07:00:00,2321A,119.1119,25.4561,莆田市,涵江区六中,细颗粒物(PM2.5),65,54,26,47,29,68,6,12,10,26,23,6,5,1.0,0.8
2022-05-25T07:00:00,2322A,119.1013,25.3215,莆田市,秀屿区政府,,48,35,24,33,21,63,14,49,35,23,16,6,6,0.9,0.9
2022-05-25T07:00:00,2323A,118.981,25.4792,莆田市,东圳水库(对照点),,,26,38,14,23,46,26,30,25,,9,4,4,1.0,1
2022-05-25T07:00:00,2324A,117.6211,26.2625,三明市,三钢,,26,26,20,18,16,20,5,2,2,21,27,5,4,0.8,0.9
2022-05-25T07:00:00,2325A,117.635,26.2714,三明市,三明二中,,28,23,20,19,16,20,6,3,3,18,24,4,3,0.7,0.7
2022-05-25T07:00:00,2326A,117.6028,26.2378,三明市,三元区政府,颗粒物(PM10),54,58,25,33,17,14,3,3,2,18,27,4,3,1.2,1.2
2022-05-25T07:00:00,2327A,117.7275,26.3108,三明市,洋溪(对照点),,33,33,17,14,12,30,6,4,4,19,19,8,5,0.9,0.8
2022-05-25T07:00:00,2331A,118.0966,26.6761,南平市,茫荡山(对照点),,11,0,3,2,2,55,34,36,34,2,2,4,4,0.7,0.7
2022-05-25T07:00:00,2332A,118.1681,26.6369,南平市,南平市监测站,,28,28,21,15,17,30,6,4,4,12,17,7,6,0.8,0.9
2022-05-25T07:00:00,2333A,118.1825,26.6489,南平市,南平铝业有限公司,,18,18,22,11,14,31,4,5,5,15,15,8,6,0.9,0.9
2022-05-25T07:00:00,2334A,118.1756,26.6272,南平市,南平七中,,12,11,19,8,15,28,6,7,5,9,14,2,3,0.6,0.7
2022-05-25T07:00:00,2335A,117.0189,25.1181,龙岩市,龙岩师专(对照点),,34,34,20,16,10,69,7,6,5,22,14,5,6,0.9,0.7
2022-05-25T07:00:00,2336A,117.0217,25.1033,龙岩市,龙岩市监测站,,35,35,20,18,12,74,6,6,5,31,22,5,6,0.9,0.6
2022-05-25T07:00:00,2337A,117.0258,25.0661,龙岩市,闽西职业技术学院,,24,24,21,8,10,75,6,6,6,26,20,12,7,0.8,0.7
2022-05-25T07:00:00,2338A,117.0196,25.0306,龙岩市,龙岩学院,,16,16,22,7,11,82,9,7,7,10,17,5,3,0.6,0.6
2022-05-25T07:00:00,2339A,119.5001,26.6946,宁德市,金涵水库(对照点),,17,17,22,10,18,59,34,49,46,8,24,7,7,0.7,0.9
2022-05-25T07:00:00,2341A,119.5388,26.6612,宁德市,宁德市监测站,,,36,28,,18,56,40,48,46,12,24,6,7,0.8,1
2022-05-25T07:00:00,2343A,117.2117,29.2933,景德镇市,老干部活动中心,颗粒物(PM10),60,69,44,32,24,128,18,29,17,21,17,8,9,0.9,0.5
2022-05-25T07:00:00,2344A,117.1894,29.2789,景德镇市,兽医站,颗粒物(PM10),52,54,43,35,28,124,20,26,13,22,23,4,7,0.9,0.9
2022-05-25T07:00:00,2345A,117.1547,29.2617,景德镇市,台达陶瓷,颗粒物(PM10),53,56,47,34,27,130,21,28,15,31,25,24,26,0.9,0.8
2022-05-25T07:00:00,2346A,117.2461,29.2956,景德镇市,陶研所,,50,50,34,26,16,99,9,27,13,16,10,5,5,0.6,0.4
2022-05-25T07:00:00,2347A,114.0997,27.5002,萍乡市,武功山(对照点),,8,5,3,5,3,45,14,14,12,6,7,17,15,0.6,0.5
2022-05-25T07:00:00,2348A,113.8385,27.6434,萍乡市,中医院,,48,33,18,33,20,58,14,37,28,17,16,10,9,1.0,1.1
2022-05-25T07:00:00,2349A,113.8493,27.6253,萍乡市,市政府车库,,30,30,20,19,10,65,12,33,25,22,21,12,10,1.1,1.2
2022-05-25T07:00:00,2350A,113.8676,27.6435,萍乡市,市环保局,,33,24,19,23,19,70,22,42,32,18,18,16,12,0.8,0.8
2022-05-25T07:00:00,2351A,113.866,27.6198,萍乡市,安源区政府,,46,46,23,23,10,69,8,27,20,32,26,14,10,1.2,1.2
2022-05-25T07:00:00,2352A,115.0861,27.9317,新余市,北岗(对照点),,22,22,25,12,18,84,14,14,12,2,4,4,4,0.8,0.6
2022-05-25T07:00:00,2353A,114.9886,27.8431,新余市,飞宇,,45,45,47,30,26,90,15,17,16,25,22,23,11,0.7,0.6
2022-05-25T07:00:00,2354A,114.9231,27.8246,新余市,第二水厂,,35,32,32,24,21,83,20,31,20,24,24,20,6,0.7,0.6
2022-05-25T07:00:00,2355A,114.9308,27.8036,新余市,市气象局,,38,31,29,26,22,79,19,33,24,22,18,13,6,0.8,0.7
2022-05-25T07:00:00,2357A,116.9822,28.1136,鹰潭市,龙虎山(对照点),,18,18,19,6,11,76,10,7,7,4,2,2,4,0.5,0.5
2022-05-25T07:00:00,2358A,117.0564,28.2642,鹰潭市,新监测站,,46,46,36,24,20,140,0,0,0,20,18,48,16,0.7,0.7
2022-05-25T07:00:00,2359A,117.0311,28.2475,鹰潭市,财苑宾馆,颗粒物(PM10),58,65,33,22,15,156,0,3,0,22,16,76,11,0.9,0.7
2022-05-25T07:00:00,2361A,117.0017,28.2131,鹰潭市,三川水表,颗粒物(PM10),70,89,34,29,16,100,6,13,12,25,12,102,13,1.6,1
2022-05-25T07:00:00,2363A,114.9367,25.8664,赣州市,地委,,9,6,9,6,6,49,14,24,18,10,12,5,5,0.7,0.7
2022-05-25T07:00:00,2364A,114.9461,25.8481,赣州市,气象台,,13,13,13,7,8,52,25,26,26,7,7,4,4,0.9,0.9
2022-05-25T07:00:00,2365A,114.9322,25.8333,赣州市,市图书馆,,12,12,10,8,7,43,22,24,22,10,17,12,9,1.0,1
2022-05-25T07:00:00,2366A,114.8905,25.8471,赣州市,华坚鞋城,,11,0,11,3,7,43,27,31,31,9,17,2,3,1.1,1.1
2022-05-25T07:00:00,2367A,114.9754,27.0803,吉安市,红声器材厂,,36,36,27,18,12,47,27,17,17,11,18,8,7,0.6,0.6
2022-05-25T07:00:00,2368A,114.9658,27.0999,吉安市,市森林工业局,,32,32,20,18,10,51,31,18,18,9,15,5,4,0.6,0.5
2022-05-25T07:00:00,2369A,114.99,27.1312,吉安市,市环境监测站,,34,34,21,16,13,46,22,12,12,13,17,8,6,0.6,0.7
2022-05-25T07:00:00,2370A,115.0093,27.0968,吉安市,青原区法院,,41,41,24,23,14,59,18,20,19,16,18,12,15,0.5,0.6
2022-05-25T07:00:00,2371A,114.3408,27.8064,宜春市,槟榔水业(对照点),,,33,28,,26,75,19,36,29,16,17,4,5,0.8,0.9
2022-05-25T07:00:00,2373A,114.3956,27.7844,宜春市,市石油公司,,32,32,29,20,19,76,15,20,15,3,10,5,6,1.1,1
2022-05-25T07:00:00,2374A,114.3703,27.7914,宜春市,市气象局,,45,35,30,31,22,80,41,36,34,19,20,6,6,1.2,1
2022-05-25T07:00:00,2375A,114.4013,27.8074,宜春市,市广电局,,36,32,28,25,21,76,17,29,25,17,19,5,5,1.2,1
2022-05-25T07:00:00,2376A,116.2127,28.0814,抚州市,桐源党溪(对照点),,18,17,27,12,17,91,19,12,12,10,12,1,12,0.7,0.6
2022-05-25T07:00:00,2377A,116.3544,27.9831,抚州市,市站,,36,36,28,21,16,70,33,27,17,13,18,6,6,0.9,0.9
2022-05-25T07:00:00,2378A,116.3565,27.963,抚州市,血防站,,29,29,25,15,12,65,30,31,17,11,16,10,6,0.7,0.8
2022-05-25T07:00:00,2379A,116.3564,28.0007,抚州市,采茶剧团,,28,28,25,15,13,68,24,12,12,13,16,4,4,0.9,1
2022-05-25T07:00:00,2380A,116.385,27.9647,抚州市,医学分院,,23,23,22,10,11,69,29,20,16,13,16,4,4,0.8,0.8
2022-05-25T07:00:00,2381A,118.005,28.4572,上饶市,百草园(对照点),,27,27,24,12,10,86,14,11,11,17,7,9,6,0.3,0.4
2022-05-25T07:00:00,2382A,117.9756,28.4436,上饶市,市监测站,,33,33,28,10,18,151,27,25,20,18,9,16,7,0.5,0.4
2022-05-25T07:00:00,2383A,117.9519,28.4628,上饶市,凤凰光学,,35,35,33,21,19,89,22,8,8,15,12,29,11,0.8,0.7
2022-05-25T07:00:00,2385A,114.17,35.9019,鹤壁市,市监测站,颗粒物(PM10),76,101,75,39,31,201,97,64,54,29,23,15,10,1.3,1.1
2022-05-25T07:00:00,2386A,114.2956,35.7511,鹤壁市,市交警支队,颗粒物(PM10),86,122,72,58,37,181,61,120,84,40,23,22,11,1.5,0.8
2022-05-25T07:00:00,2387A,114.2878,35.7306,鹤壁市,迎宾馆,颗粒物(PM10),89,128,72,58,36,184,64,118,79,44,27,20,10,1.2,0.6
2022-05-25T07:00:00,2389A,113.836,35.311,新乡市,环保西院,颗粒物(PM10),87,124,73,51,33,210,37,95,65,48,21,13,10,0.8,0.6
2022-05-25T07:00:00,2390A,113.884,35.272,新乡市,开发区,颗粒物(PM10),75,100,67,46,31,204,46,101,74,55,26,9,7,0.8,0.6
2022-05-25T07:00:00,2391A,113.883,35.303,新乡市,环保东院,颗粒物(PM10),73,95,67,41,29,213,50,119,77,56,28,9,8,0.5,0.3
2022-05-25T07:00:00,2392A,115.0312,35.7636,濮阳市,环保局,细颗粒物(PM2.5),80,75,66,59,41,163,76,85,83,24,20,11,10,0.6,0.6
2022-05-25T07:00:00,2394A,115.0574,35.7609,濮阳市,油田运输公司,细颗粒物(PM2.5),79,74,81,58,40,182,78,104,92,30,24,13,12,0.6,0.4
2022-05-25T07:00:00,2395A,115.0866,35.7754,濮阳市,油田物探公司,"颗粒物(PM10),细颗粒物(PM2.5)",64,78,74,46,35,184,71,101,86,30,23,16,15,0.5,0.4
2022-05-25T07:00:00,2396A,113.8276,34.0159,许昌市,监测站,细颗粒物(PM2.5),57,53,49,40,32,162,64,90,77,21,12,14,11,0.5,0.4
2022-05-25T07:00:00,2398A,113.7906,33.9953,许昌市,开发区,颗粒物(PM10),51,52,57,34,29,175,66,93,71,21,17,12,11,0.7,0.6
2022-05-25T07:00:00,2399A,114.051,33.5699,漯河市,三五一五工厂,细颗粒物(PM2.5),67,76,61,48,36,204,60,98,74,41,16,9,8,0.8,0.6
2022-05-25T07:00:00,2400A,114.0055,33.5698,漯河市,漯河大学,颗粒物(PM10),57,63,52,36,29,189,77,92,85,28,16,11,9,0.8,0.8
2022-05-25T07:00:00,2401A,114.0138,33.5828,漯河市,市水利局,颗粒物(PM10),54,58,53,28,34,191,86,96,89,19,10,8,7,0.7,0.6
2022-05-25T07:00:00,2402A,114.0261,33.5698,漯河市,市广电局,颗粒物(PM10),59,68,53,33,31,195,73,101,85,32,14,10,9,0.7,0.6
2022-05-25T07:00:00,2403A,112.5192,32.9917,南阳市,环保局,细颗粒物(PM2.5),58,56,58,41,35,166,94,105,95,31,15,10,6,0.6,0.5
2022-05-25T07:00:00,2404A,112.5339,33.0086,南阳市,瓦房庄,颗粒物(PM10),51,52,53,35,29,171,100,108,94,18,14,8,7,0.7,0.6
2022-05-25T07:00:00,2405A,112.5003,32.9735,南阳市,汉画馆,颗粒物(PM10),52,54,44,33,31,172,58,91,77,50,20,11,9,0.7,0.5
2022-05-25T07:00:00,2406A,112.5779,33.0144,南阳市,气象站,颗粒物(PM10),56,62,53,34,30,168,61,117,95,36,21,8,9,0.6,0.5
2022-05-25T07:00:00,2407A,112.548,32.9692,南阳市,理工学院,颗粒物(PM10),53,55,53,33,30,164,72,82,70,22,15,6,7,0.8,0.7
2022-05-25T07:00:00,2408A,115.6702,34.4285,商丘市,环境监测站,颗粒物(PM10),56,61,58,38,29,173,98,129,107,18,14,12,10,0.6,0.5
2022-05-25T07:00:00,2409A,115.6458,34.4045,商丘市,粮食局,"颗粒物(PM10),细颗粒物(PM2.5)",58,66,55,41,30,175,101,132,108,24,17,19,10,0.7,0.6
2022-05-25T07:00:00,2410A,115.6293,34.3948,商丘市,睢阳区环保局,细颗粒物(PM2.5),62,60,55,44,31,169,96,130,107,22,15,15,11,0.6,0.5
2022-05-25T07:00:00,2420A,114.0189,32.9656,驻马店市,市一纸厂,颗粒物(PM10),51,52,50,33,29,178,52,103,79,47,20,3,16,0.6,0.5
2022-05-25T07:00:00,2421A,114.0114,33.015,驻马店市,市彩印厂,,50,50,51,29,26,184,64,118,99,32,13,5,5,0.5,0.4
2022-05-25T07:00:00,2422A,113.9976,32.9771,驻马店市,天方二分厂,,47,47,49,27,23,180,66,118,108,29,12,3,3,0.6,0.6
2022-05-25T07:00:00,2423A,115.0601,30.2313,黄石市,沈家营,颗粒物(PM10),67,84,48,46,24,156,23,22,21,31,30,13,14,1.2,0.9
2022-05-25T07:00:00,2424A,115.0817,30.2006,黄石市,陈家湾,,49,49,57,31,25,164,32,73,41,39,24,8,7,0.9,0.7
2022-05-25T07:00:00,2426A,114.8988,30.2019,黄石市,铁山,颗粒物(PM10),66,81,51,41,26,159,29,69,46,38,19,15,12,1.1,0.6
2022-05-25T07:00:00,2427A,115.0307,30.2092,黄石市,团城山,颗粒物(PM10),60,69,43,27,18,164,27,82,47,43,23,12,12,1.0,0.8
2022-05-25T07:00:00,2428A,111.0419,32.395,十堰市,武当山(对照点),,35,32,30,24,23,138,86,114,106,7,7,8,8,0.5,0.5
2022-05-25T07:00:00,2429A,110.78,32.6494,十堰市,滨河新村,颗粒物(PM10),65,80,70,40,35,154,38,48,45,24,27,17,11,1.1,0.6
2022-05-25T07:00:00,2430A,110.7258,32.6389,十堰市,刘家沟,"颗粒物(PM10),细颗粒物(PM2.5)",64,78,64,46,35,168,30,80,52,22,15,15,12,1.8,1
2022-05-25T07:00:00,2431A,110.8839,32.5714,十堰市,铁二处,,40,31,38,28,25,154,47,69,63,20,11,8,8,0.5,0.3
2022-05-25T07:00:00,2432A,112.155,32.0197,襄阳市,襄城运动路,细颗粒物(PM2.5),73,74,68,53,43,188,53,98,83,31,16,12,16,1.0,0.8
2022-05-25T07:00:00,2433A,112.1392,32.0564,襄阳市,樊城新华路,细颗粒物(PM2.5),104,116,80,78,57,186,54,102,83,23,15,12,13,1.3,1
2022-05-25T07:00:00,2434A,112.1825,32.1142,襄阳市,高新管委会,细颗粒物(PM2.5),107,116,72,80,49,168,44,107,74,33,18,8,8,0.9,0.8
2022-05-25T07:00:00,2435A,112.2106,32.0903,襄阳市,襄州航空路,细颗粒物(PM2.5),94,79,62,70,37,161,49,96,75,46,16,4,7,1.1,0.7
2022-05-25T07:00:00,2436A,114.8938,30.3994,鄂州市,市政府,,49,49,46,30,20,147,51,91,68,25,20,15,11,0.8,0.6
2022-05-25T07:00:00,2437A,114.8989,30.3714,鄂州市,赵家坝,颗粒物(PM10),59,68,45,30,20,144,34,66,47,26,19,11,8,0.9,0.7
2022-05-25T07:00:00,2439A,112.2014,31.0481,荆门市,竹园小学,细颗粒物(PM2.5),73,90,73,53,35,171,28,98,76,48,21,14,11,1.1,0.5
2022-05-25T07:00:00,2440A,112.1969,30.9891,荆门市,掇刀,细颗粒物(PM2.5),80,65,64,59,41,157,22,67,54,59,27,6,10,1.2,0.7
2022-05-25T07:00:00,2441A,112.2213,31.0386,荆门市,石化一小,细颗粒物(PM2.5),78,94,61,57,35,158,12,82,59,57,23,19,14,1.1,0.6
2022-05-25T07:00:00,2443A,113.9153,30.9285,孝感市,文化路,颗粒物(PM10),61,72,56,42,31,144,21,98,47,48,24,9,6,1.0,0.8
2022-05-25T07:00:00,2444A,113.942,30.9075,孝感市,东城区,颗粒物(PM10),69,87,65,33,26,141,30,111,64,51,22,8,6,0.9,0.8
2022-05-25T07:00:00,2446A,114.9028,30.4742,黄冈市,职工中心,,45,45,51,17,20,158,41,75,66,47,26,22,16,1.1,0.7
2022-05-25T07:00:00,2447A,114.3175,29.8142,咸宁市,森林公园(对照点),,42,42,27,19,13,119,70,99,83,2,2,5,5,0.5,0.5
2022-05-25T07:00:00,2448A,114.3107,29.8454,咸宁市,市发改委,颗粒物(PM10),52,53,38,25,19,137,39,37,36,16,12,6,6,0.5,0.5
2022-05-25T07:00:00,2449A,114.2936,29.8566,咸宁市,咸安区政府,,45,45,38,19,13,135,43,60,45,14,12,5,5,0.6,0.5
2022-05-25T07:00:00,2451A,113.3583,31.7275,随州市,市委党校,细颗粒物(PM2.5),64,61,50,46,31,161,26,85,45,33,15,9,9,1.0,0.7
2022-05-25T07:00:00,2452A,113.3833,31.6908,随州市,市林业局,细颗粒物(PM2.5),69,65,48,50,33,177,32,118,55,24,14,7,7,0.8,0.7
2022-05-25T07:00:00,2453A,113.3983,31.7308,随州市,市立交桥水厂,颗粒物(PM10),57,64,54,35,33,158,26,29,28,19,24,2,7,0.8,0.8
2022-05-25T07:00:00,2454A,109.4978,30.2981,恩施土家族苗族自治州,湖北民院,颗粒物(PM10),51,51,45,34,31,110,3,27,13,12,11,8,9,0.5,0.6
