timepoint,stationcode,longitude,latitude,area,positionname,primarypollutant,aqi,pm10,pm10_24h,pm2_5,pm2_5_24h,o3,o3_24h,o3_8h,o3_8h_24h,no2,no2_24h,so2,so2_24h,co,co_24h
2023-10-04T15:00:00,1001A,116.3621,39.8784,北京市,万寿西宫,,21,10,26,4,15,161,66,50,50,8,20,3,3,0.2,0.4
2023-10-04T15:00:00,1002A,116.2202,40.2915,北京市,定陵,,20,10,20,4,11,148,61,51,48,2,4,3,2,0.2,0.3
2023-10-04T15:00:00,1003A,116.4174,39.9289,北京市,东四,,24,11,27,4,13,165,74,61,61,5,18,3,3,0.1,0.4
2023-10-04T15:00:00,1004A,116.4072,39.8863,北京市,天坛,,22,11,24,5,13,159,70,54,54,9,16,1,3,0.2,0.4
2023-10-04T15:00:00,1005A,116.462,39.9365,北京市,农展馆,,21,10,27,4,13,161,67,53,53,16,26,2,3,0.1,0.4
2023-10-04T15:00:00,1006A,116.3392,39.9295,北京市,官园,,24,10,26,4,15,174,76,54,54,9,21,3,3,0.0,0.3
2023-10-04T15:00:00,1007A,116.2878,39.9611,北京市,海淀万柳,,21,9,27,3,11,155,67,43,43,8,22,3,3,0.3,0.5
2023-10-04T15:00:00,1008A,116.6636,40.135,北京市,顺义新城,,22,8,51,3,26,164,69,57,57,14,27,3,3,0.2,0.5
2023-10-04T15:00:00,1009A,116.6275,40.3275,北京市,怀柔镇,,23,7,39,3,21,157,73,83,58,7,16,3,3,0.2,0.4
2023-10-04T15:00:00,1010A,116.2296,40.217,北京市,昌平镇,,21,15,27,5,12,155,67,68,45,2,6,3,2,0.2,0.4
2023-10-04T15:00:00,1011A,116.3966,39.9821,北京市,奥体中心,,18,11,23,4,11,145,56,47,47,6,24,3,3,0.2,0.4
2023-10-04T15:00:00,1012A,116.184,39.9136,北京市,古城,,22,12,25,4,12,152,68,46,46,7,25,3,3,0.4,0.6
2023-10-04T15:00:00,1015A,117.1444,39.1661,天津市,勤俭道,,27,20,64,8,31,152,86,71,71,8,27,7,8,0.2,0.5
2023-10-04T15:00:00,1017A,117.237,39.1082,天津市,大直沽八号路,,27,25,62,12,31,142,84,83,72,12,24,3,5,0.2,0.5
2023-10-04T15:00:00,1018A,117.202,39.0927,天津市,前进道,,29,29,54,15,27,142,87,74,73,13,28,5,7,0.3,0.6
2023-10-04T15:00:00,1019A,117.1837,39.2133,天津市,淮河道,,34,34,67,18,33,164,96,76,76,13,30,4,6,0.3,0.6
2023-10-04T15:00:00,1021A,117.307,39.0877,天津市,跃进路,,27,13,55,4,27,162,86,80,76,9,26,5,7,0.3,0.6
2023-10-04T15:00:00,1023A,117.707,39.0343,天津市,第四大街,,24,11,59,4,27,141,76,70,66,10,32,4,6,0.2,0.6
2023-10-04T15:00:00,1024A,117.457,38.8394,天津市,永明路,,27,13,56,4,31,151,84,70,70,11,30,4,6,0.3,0.5
2023-10-04T15:00:00,1026A,117.764,39.1587,天津市,汉北路,,25,14,58,4,28,142,80,66,66,8,38,6,8,0.3,0.6
2023-10-04T15:00:00,1027A,117.157,38.9194,天津市,团泊洼,,26,12,62,6,37,139,83,64,64,12,28,3,5,0.5,0.7
2023-10-04T15:00:00,1029A,114.4422,38.0444,石家庄市,职工医院,,39,39,82,20,37,183,119,64,64,12,38,3,9,0.4,0.9
2023-10-04T15:00:00,1030A,114.6063,38.0266,石家庄市,高新区,,50,50,89,29,43,187,142,87,87,11,30,3,4,0.5,0.9
2023-10-04T15:00:00,1031A,114.4898,38.1328,石家庄市,西北水源,颗粒物(PM10),56,61,87,23,51,180,127,66,66,16,35,3,5,0.5,0.8
2023-10-04T15:00:00,1032A,114.4586,38.0058,石家庄市,西南高教,颗粒物(PM10),51,52,83,17,39,179,129,74,74,9,32,3,7,0.4,0.9
2023-10-04T15:00:00,1033A,114.5331,38.0178,石家庄市,世纪公园,颗粒物(PM10),54,58,88,26,45,183,133,78,78,13,31,4,6,0.6,1
2023-10-04T15:00:00,1034A,114.509,38.0457,石家庄市,人民会堂,,47,47,86,29,52,182,137,77,77,12,30,4,8,0.4,0.8
2023-10-04T15:00:00,1035A,114.3524,37.8911,石家庄市,封龙山,颗粒物(PM10),68,85,72,28,34,175,124,137,114,18,18,2,7,0.9,1.1
2023-10-04T15:00:00,1037A,118.131,39.6363,唐山市,雷达站,,26,18,65,3,33,155,83,74,74,1,26,1,2,0.4,0.6
2023-10-04T15:00:00,1038A,118.1725,39.6334,唐山市,物资局,,28,9,67,7,33,159,89,72,72,4,36,3,5,0.3,0.5
2023-10-04T15:00:00,1040A,118.1705,39.6506,唐山市,十二中,,26,12,59,10,30,150,82,76,67,3,36,3,2,0.2,0.5
2023-10-04T15:00:00,1041A,118.1869,39.622,唐山市,小山,,,,,,,,,,,,,,,,
2023-10-04T15:00:00,1042A,119.5134,39.8207,秦皇岛市,北戴河环保局,,31,20,57,5,19,157,98,93,75,14,28,9,11,0.0,0.4
2023-10-04T15:00:00,1043A,119.7493,40.0116,秦皇岛市,第一关,,32,25,53,17,27,153,102,72,72,18,62,10,11,0.2,0.5
2023-10-04T15:00:00,1044A,119.5897,39.9499,秦皇岛市,监测站,,30,27,58,17,34,154,94,100,72,11,28,10,13,0.3,0.6
2023-10-04T15:00:00,1046A,119.5251,39.9041,秦皇岛市,建设大厦,,33,33,59,11,29,150,91,90,70,3,18,4,8,0,0.4
2023-10-04T15:00:00,1048A,114.5302,36.6116,邯郸市,东污水处理厂,细颗粒物(PM2.5),89,77,71,66,54,160,151,81,81,16,35,11,8,1.0,0.9
2023-10-04T15:00:00,1049A,114.4918,36.5713,邯郸市,矿院,细颗粒物(PM2.5),89,78,72,66,48,159,150,89,89,25,49,10,10,0.8,0.5
2023-10-04T15:00:00,1050A,114.484,36.6133,邯郸市,丛台公园,细颗粒物(PM2.5),85,80,72,63,47,158,153,85,85,14,33,12,11,0.8,0.8
2023-10-04T15:00:00,1051A,115.493,38.8632,保定市,游泳馆,,31,12,101,0,64,187,97,69,69,11,45,2,7,0.5,0.7
2023-10-04T15:00:00,1052A,115.5213,38.8959,保定市,华电二区,,,,,,,,,,,,,,,,
2023-10-04T15:00:00,1053A,115.4713,38.9108,保定市,接待中心,,27,20,101,6,53,175,86,59,59,6,36,4,7,0,0.5
2023-10-04T15:00:00,1054A,115.4612,38.8416,保定市,地表水厂,,29,29,122,7,54,169,88,57,57,12,58,4,7,0.3,0.5
2023-10-04T15:00:00,1056A,115.5086,38.8639,保定市,监测站,,,17,99,6,56,191,94,66,66,,61,4,8,0.2,0.8
2023-10-04T15:00:00,1057A,114.8883,40.8336,张家口市,人民公园,,28,24,23,3,5,87,87,67,67,4,14,3,2,0.3,0.3
2023-10-04T15:00:00,1059A,114.8687,40.8042,张家口市,五金库,,28,28,27,5,9,93,85,67,67,3,17,1,2,0.1,0.2
2023-10-04T15:00:00,1060A,114.8902,40.762,张家口市,世纪豪园,,26,6,26,2,13,94,82,65,65,5,18,3,2,0.1,0.2
2023-10-04T15:00:00,1061A,114.8916,40.8661,张家口市,北泵房,,29,10,19,2,12,98,92,72,72,2,12,6,6,0.1,0.2
2023-10-04T15:00:00,1062A,117.9531,40.9081,承德市,铁路,,31,31,39,2,15,122,78,64,64,4,29,6,9,0.1,0.4
2023-10-04T15:00:00,1063A,117.9392,40.9763,承德市,中国银行,,24,23,38,3,14,126,76,58,58,3,25,6,8,0.2,0.5
2023-10-04T15:00:00,1064A,117.9503,40.928,承德市,开发区,,26,24,41,5,21,134,82,62,62,3,27,4,7,0.2,0.4
2023-10-04T15:00:00,1065A,117.8051,40.9655,承德市,文化中心,,25,10,42,3,16,124,79,61,61,7,28,1,7,0.2,0.4
2023-10-04T15:00:00,1066A,117.9268,41.0026,承德市,离宫,,25,18,28,4,19,126,79,74,65,1,10,2,4,0.2,0.3
2023-10-04T15:00:00,1067A,116.6708,39.5111,廊坊市,药材公司,,22,17,49,3,21,154,70,55,55,14,24,1,2,0.2,0.4
2023-10-04T15:00:00,1068A,116.7214,39.5589,廊坊市,开发区,,25,14,51,5,30,160,77,59,59,11,26,1,2,0.2,0.4
2023-10-04T15:00:00,1070A,116.7244,39.5269,廊坊市,北华航天学院,,25,17,51,2,21,157,77,71,60,13,26,5,6,0.2,0.4
2023-10-04T15:00:00,1071A,116.8842,38.2991,沧州市,沧县城建局,,39,39,66,8,34,141,94,77,77,10,30,4,7,0.3,0.5
2023-10-04T15:00:00,1072A,116.8584,38.3254,沧州市,电视转播站,,32,32,57,5,30,140,94,73,73,11,25,12,9,0.4,0.5
2023-10-04T15:00:00,1073A,116.8709,38.3228,沧州市,市环保局,,34,34,66,9,37,135,92,72,72,8,25,6,8,0.1,0.3
2023-10-04T15:00:00,1074A,115.6838,37.7541,衡水市,电机北厂,颗粒物(PM10),51,51,73,8,31,155,108,65,58,8,32,2,5,0.6,0.5
2023-10-04T15:00:00,1075A,115.6303,37.7316,衡水市,市监测站,,48,48,73,4,28,144,102,58,58,13,37,6,9,0.1,0.4
2023-10-04T15:00:00,1077A,114.4704,37.0886,邢台市,达活泉,颗粒物(PM10),65,79,92,37,42,168,128,90,90,8,25,13,18,0.7,1.2
2023-10-04T15:00:00,1078A,114.5062,37.0349,邢台市,邢师高专,颗粒物(PM10),58,65,99,26,37,167,126,83,83,14,45,9,12,0.5,1.1
2023-10-04T15:00:00,1079A,114.5237,37.0851,邢台市,路桥公司,颗粒物(PM10),60,69,87,35,45,179,127,89,89,18,37,9,11,0.5,1.1
2023-10-04T15:00:00,1080A,114.4725,37.0719,邢台市,市环保局,颗粒物(PM10),65,79,92,40,41,168,131,92,92,11,31,11,14,0.7,1.2
2023-10-04T15:00:00,1081A,112.522,37.8873,太原市,尖草坪,,,20,74,5,38,144,84,59,59,13,54,,8,0.4,0.9
2023-10-04T15:00:00,1083A,112.434,38.0108,太原市,上兰,,,,,,,,,,,,,,,,
2023-10-04T15:00:00,1084A,112.469,37.7124,太原市,晋源,,41,41,98,6,49,162,79,61,61,19,52,8,8,0.8,1.1
2023-10-04T15:00:00,1085A,112.5583,37.7394,太原市,小店,,27,26,97,6,46,144,86,58,58,16,60,8,12,0.5,1.1
2023-10-04T15:00:00,1086A,112.5369,37.8692,太原市,桃园,,27,20,70,6,34,143,85,53,53,14,56,8,9,0.4,1
2023-10-04T15:00:00,1087A,112.57,37.8195,太原市,坞城,,28,21,70,7,39,143,87,58,58,16,63,18,16,0.4,1
2023-10-04T15:00:00,1088A,112.549,37.9854,太原市,南寨,,29,28,83,5,36,102,90,51,51,9,43,8,10,0.3,1.2
2023-10-04T15:00:00,1090A,111.6507,40.7517,呼和浩特市,呼市一监,,24,12,23,7,8,93,76,63,63,6,19,5,6,0.4,0.5
2023-10-04T15:00:00,1091A,111.6572,40.8033,呼和浩特市,小召,,25,24,22,8,9,87,77,60,60,13,25,5,6,0.4,0.5
2023-10-04T15:00:00,1094A,111.7516,40.8369,呼和浩特市,如意水处理厂,,28,15,18,5,7,101,87,72,71,9,20,8,9,0.2,0.3
2023-10-04T15:00:00,1095A,111.7276,40.8062,呼和浩特市,二十九中,,28,17,22,8,8,100,87,73,73,5,12,6,6,0.4,0.5
2023-10-04T15:00:00,1096A,111.5512,40.7866,呼和浩特市,工大金川校区,,27,12,22,8,8,103,86,68,68,6,13,5,5,0.3,0.3
2023-10-04T15:00:00,1097A,111.717,40.7612,呼和浩特市,化肥厂生活区,,28,19,17,7,7,106,87,71,71,9,14,6,7,0.3,0.4
2023-10-04T15:00:00,1098A,123.6836,41.9339,沈阳市,森林路,,,,,,,,,,,,,,,,
2023-10-04T15:00:00,1099A,123.505,41.7406,沈阳市,浑南东路,,24,21,36,7,14,141,74,85,67,8,14,6,10,0.4,0.5
2023-10-04T15:00:00,1100A,123.4231,41.6989,沈阳市,新秀街,,24,19,35,7,12,135,75,77,68,9,17,7,13,0.4,0.6
2023-10-04T15:00:00,1102A,123.5903,41.8411,沈阳市,东陵路,,35,35,30,6,14,145,76,77,66,7,14,6,8,0.3,0.4
2023-10-04T15:00:00,1103A,123.4264,41.8467,沈阳市,陵东街,,24,20,44,6,11,140,76,78,70,7,11,6,7,0.3,0.5
2023-10-04T15:00:00,1104A,123.4114,41.7653,沈阳市,文化路,,24,18,32,5,15,144,75,74,68,7,12,7,11,0.4,0.6
2023-10-04T15:00:00,1105A,123.4678,41.7867,沈阳市,小河沿,,24,12,30,3,12,144,75,81,68,12,16,6,9,0.4,0.5
2023-10-04T15:00:00,1106A,123.4017,41.7972,沈阳市,太原街,,22,22,32,6,13,143,66,74,63,18,20,4,7,0.3,0.5
2023-10-04T15:00:00,1108A,123.3783,41.9228,沈阳市,京沈街,,30,30,28,6,14,142,73,95,69,4,6,5,7,0.3,0.4
2023-10-04T15:00:00,1109A,121.612,38.9741,大连市,甘井子,,28,12,65,4,32,152,87,138,78,10,17,5,7,0.3,0.7
2023-10-04T15:00:00,1110A,121.565,38.9511,大连市,周水子,,28,15,54,4,28,153,88,139,76,12,18,8,10,0.4,0.7
2023-10-04T15:00:00,1111A,121.5637,38.8845,大连市,星海三站,,28,20,62,3,31,156,88,137,78,8,17,9,9,0.4,0.6
2023-10-04T15:00:00,1112A,121.6302,38.9117,大连市,青泥洼桥,,25,13,57,4,28,146,79,133,70,16,20,6,9,0.3,0.8
2023-10-04T15:00:00,1113A,121.6251,38.8638,大连市,傅家庄,,29,12,50,3,32,155,91,147,82,7,17,5,8,0.3,0.6
2023-10-04T15:00:00,1114A,121.5213,38.8661,大连市,七贤岭,,36,36,54,3,29,174,101,143,89,10,17,6,6,0.5,0.7
2023-10-04T15:00:00,1115A,121.2529,38.8061,大连市,旅顺,,30,7,48,5,25,165,93,154,82,4,15,6,8,0.3,0.7
2023-10-04T15:00:00,1116A,121.7485,39.1311,大连市,金州,,29,8,60,4,26,151,90,118,78,10,20,8,11,0.4,0.7
2023-10-04T15:00:00,1117A,121.7811,39.0496,大连市,开发区,,28,23,45,4,27,149,87,122,80,9,19,4,6,0.3,0.6
2023-10-04T15:00:00,1118A,121.9762,39.0631,大连市,双D港,,30,22,34,5,24,151,96,133,89,11,15,6,8,0.3,0.6
2023-10-04T15:00:00,1119A,125.3325,43.9166,长春市,食品厂,,24,24,33,8,14,124,64,58,58,13,22,4,6,0.2,0.3
2023-10-04T15:00:00,1120A,125.2863,43.9027,长春市,客车厂,,21,21,31,10,13,131,66,59,59,10,16,6,6,0.3,0.4
2023-10-04T15:00:00,1121A,125.2841,43.8463,长春市,邮电学院,,30,30,31,7,12,133,70,63,63,5,14,5,5,0.2,0.3
2023-10-04T15:00:00,1122A,125.3716,43.8772,长春市,劳动公园,,26,26,28,3,9,133,70,65,65,6,13,4,5,0.2,0.4
2023-10-04T15:00:00,1123A,125.3297,43.8805,长春市,园林处,,24,24,29,3,8,137,66,60,58,11,14,7,7,0.2,0.3
2023-10-04T15:00:00,1124A,125.4605,43.79,长春市,净月潭,,23,21,21,3,8,137,71,64,64,5,9,6,6,0.1,0.2
2023-10-04T15:00:00,1125A,125.7194,43.515,长春市,甩湾子,,,,,,,,,,,,,,,,
2023-10-04T15:00:00,1126A,125.3863,43.8447,长春市,经开区环卫处,,24,24,27,4,8,126,68,60,60,5,14,5,5,0.3,0.4
2023-10-04T15:00:00,1127A,125.245,43.7783,长春市,高新区管委会,,33,33,29,6,11,139,73,65,65,5,15,6,6,0.3,0.3
2023-10-04T15:00:00,1128A,125.1761,43.8325,长春市,岱山公园,,32,32,32,5,11,133,69,63,63,6,16,4,5,0.4,0.5
2023-10-04T15:00:00,1129A,126.5422,45.755,哈尔滨市,岭北,,20,10,19,4,12,82,64,69,60,5,8,5,6,0.2,0.5
2023-10-04T15:00:00,1130A,126.561,45.8167,哈尔滨市,松北商大,,16,15,18,5,12,63,50,60,49,12,10,6,6,0.3,0.4
2023-10-04T15:00:00,1131A,126.979,45.5419,哈尔滨市,阿城会宁,,28,28,21,6,12,75,58,58,55,10,11,6,6,0.4,0.5
2023-10-04T15:00:00,1132A,126.599,45.7222,哈尔滨市,南岗学府路,,18,18,29,4,10,69,54,62,50,7,10,5,5,0.4,0.5
2023-10-04T15:00:00,1133A,126.689,45.7733,哈尔滨市,太平宏伟公园,,19,19,21,8,13,73,58,66,56,5,11,3,3,0.4,0.6
2023-10-04T15:00:00,1134A,126.635,45.7667,哈尔滨市,道外承德广场,,19,19,21,10,14,67,58,64,55,12,16,4,5,0.4,0.7
2023-10-04T15:00:00,1135A,126.685,45.7319,哈尔滨市,香坊红旗大街,,21,21,22,5,13,76,60,68,56,9,15,2,4,0.5,0.7
2023-10-04T15:00:00,1136A,126.6411,45.7258,哈尔滨市,动力和平路,,17,15,23,3,12,70,54,62,51,11,16,6,7,0.3,0.5
2023-10-04T15:00:00,1137A,126.593,45.7478,哈尔滨市,道里建国路,,18,5,23,6,16,73,56,65,55,12,14,6,8,0.2,0.6
2023-10-04T15:00:00,1138A,126.615,45.61,哈尔滨市,平房东轻厂,,30,30,23,6,12,77,59,59,58,8,8,7,7,0.4,0.4
2023-10-04T15:00:00,1139A,126.595,45.9855,哈尔滨市,呼兰师专,,16,14,17,10,12,60,49,59,51,10,12,6,6,0.5,0.7
2023-10-04T15:00:00,1140A,126.6206,45.6842,哈尔滨市,省农科院,,20,10,28,7,12,72,64,65,58,6,14,7,8,0.3,0.5
2023-10-04T15:00:00,1141A,121.4,31.238,上海市,普陀,,33,23,22,9,8,105,105,93,93,11,14,4,4,0.5,0.5
2023-10-04T15:00:00,1142A,121.478,31.2036,上海市,十五厂,,34,21,23,8,11,107,107,93,93,14,21,8,9,0.5,0.6
2023-10-04T15:00:00,1143A,121.467,31.3008,上海市,虹口,,33,19,20,9,8,105,105,92,92,15,22,7,7,0.4,0.4
2023-10-04T15:00:00,1144A,121.412,31.1654,上海市,徐汇上师大,,33,24,21,15,11,105,105,97,93,12,16,7,8,0.6,0.7
2023-10-04T15:00:00,1145A,121.536,31.2659,上海市,杨浦四漂,,35,20,21,6,7,111,111,99,99,9,15,7,8,0.5,0.5
2023-10-04T15:00:00,1147A,121.425,31.2261,上海市,静安监测站,,35,20,21,17,9,110,110,97,97,15,20,4,4,0.4,0.4
2023-10-04T15:00:00,1148A,121.703,31.1907,上海市,浦东川沙,,35,21,23,7,9,114,111,101,101,9,14,6,6,0.5,0.5
2023-10-04T15:00:00,1149A,121.533,31.2284,上海市,浦东新区监测站,,36,36,23,6,7,95,92,86,86,18,18,8,7,0.5,0.4
2023-10-04T15:00:00,1150A,121.577,31.2071,上海市,浦东张江,,31,21,21,8,9,100,97,90,90,13,16,5,5,0.6,0.6
2023-10-04T15:00:00,1151A,118.8086,32.1065,南京市,迈皋桥,,39,10,24,2,10,124,124,87,87,4,20,4,5,0.3,0.4
2023-10-04T15:00:00,1152A,118.7538,32.0551,南京市,草场门,,38,19,26,7,14,120,120,85,85,9,24,3,3,0.6,0.8
2023-10-04T15:00:00,1153A,118.7794,32.0745,南京市,山西路,,42,19,29,7,14,132,132,92,92,7,18,4,5,0.1,0.2
2023-10-04T15:00:00,1154A,118.7752,32.0023,南京市,中华门,,42,27,24,9,11,134,134,84,84,8,22,3,4,0.5,0.7
2023-10-04T15:00:00,1155A,118.8109,32.0309,南京市,瑞金路,,39,19,26,7,11,123,123,82,82,10,20,7,8,0.3,0.4
2023-10-04T15:00:00,1156A,118.7997,32.0754,南京市,玄武湖,,38,21,30,7,12,121,121,81,81,7,20,5,5,0.3,0.4
2023-10-04T15:00:00,1157A,118.6414,32.0931,南京市,浦口,,43,23,24,11,13,137,137,98,98,13,18,9,5,0.7,0.5
2023-10-04T15:00:00,1158A,118.7356,31.9996,南京市,奥体中心,,42,25,26,9,16,132,132,93,93,11,22,7,7,0.3,0.4
2023-10-04T15:00:00,1159A,118.9125,32.1028,南京市,仙林大学城,,41,17,23,7,12,130,130,88,88,7,18,2,3,0.5,0.6
2023-10-04T15:00:00,1160A,120.561,31.2472,苏州市,上方山,,38,17,21,16,12,266,121,105,105,5,15,4,11,0.8,0.5
2023-10-04T15:00:00,1162A,120.591,31.3019,苏州市,彩香,,42,24,26,12,11,134,134,95,95,9,18,8,8,0.7,0.6
2023-10-04T15:00:00,1163A,120.596,31.3264,苏州市,轧钢厂,,43,27,27,10,12,136,136,100,100,7,14,9,10,0.8,0.6
2023-10-04T15:00:00,1164A,120.613,31.2703,苏州市,吴中区,,42,23,24,10,10,133,133,97,97,8,19,8,9,0.6,0.6
2023-10-04T15:00:00,1165A,120.543,31.2994,苏州市,苏州新区,,45,20,25,8,12,143,143,99,99,10,25,8,8,0.7,0.6
2023-10-04T15:00:00,1166A,120.669,31.3097,苏州市,苏州工业园区,,41,21,22,11,12,129,129,97,97,8,14,7,8,0.7,0.6
2023-10-04T15:00:00,1167A,120.641,31.3708,苏州市,相城区,,43,24,25,10,12,136,136,102,102,9,20,10,10,0.8,0.7
2023-10-04T15:00:00,1168A,120.9098,31.9663,南通市,狼山街道,,35,16,15,0,4,122,112,105,105,9,16,6,6,0.2,0.2
2023-10-04T15:00:00,1169A,120.86,32.0005,南通市,虹桥,,35,14,17,6,9,112,111,100,100,10,17,6,6,0.5,0.6
2023-10-04T15:00:00,1170A,120.87,32.02,南通市,城中,,33,11,15,4,6,104,103,92,92,11,17,6,7,0.5,0.5
2023-10-04T15:00:00,1171A,120.94,31.93,南通市,星湖花园,,35,15,17,9,7,118,109,102,102,7,16,6,6,0.4,0.5
2023-10-04T15:00:00,1172A,120.81,32.0417,南通市,紫琅学院,,35,6,13,0,5,112,111,95,95,10,16,6,7,0.5,0.7
2023-10-04T15:00:00,1173A,119.176,34.5885,连云港市,市环境监测站,颗粒物(PM10),60,70,54,41,30,153,153,105,105,17,31,10,9,0.8,0.6
2023-10-04T15:00:00,1177A,117.179,34.2761,徐州市,黄河新村,细颗粒物(PM2.5),72,92,48,52,30,115,113,76,76,26,29,10,6,0.6,0.5
2023-10-04T15:00:00,1178A,117.1918,34.2384,徐州市,淮塔,细颗粒物(PM2.5),69,85,45,50,26,128,127,86,86,19,24,12,7,0.7,0.5
2023-10-04T15:00:00,1180A,117.256,34.2153,徐州市,新城区,颗粒物(PM10),69,88,51,37,27,130,129,89,89,27,35,10,6,0.4,0.5
2023-10-04T15:00:00,1181A,117.244,34.2911,徐州市,桃园路,"颗粒物(PM10),细颗粒物(PM2.5)",74,97,49,54,30,128,118,85,85,22,26,10,7,0.6,0.5
2023-10-04T15:00:00,1182A,117.2933,34.2778,徐州市,农科院,颗粒物(PM10),65,80,41,43,27,128,119,87,87,21,28,10,7,0.6,0.4
2023-10-04T15:00:00,1186A,119.389,32.3761,扬州市,邗江监测站,,43,34,30,14,18,137,137,98,98,11,18,9,10,0.3,0.4
2023-10-04T15:00:00,1188A,120.269,31.4867,无锡市,雪浪,,41,27,24,14,9,131,131,91,91,10,23,6,7,0.9,1.1
2023-10-04T15:00:00,1189A,120.275,31.6219,无锡市,黄巷,,40,38,33,14,11,128,128,87,87,14,26,8,9,0.7,0.8
2023-10-04T15:00:00,1190A,120.294,31.56,无锡市,曹张,,40,34,28,14,13,125,125,99,99,13,26,9,10,0.9,1
2023-10-04T15:00:00,1191A,120.242,31.5031,无锡市,漆塘,,41,29,24,17,11,133,130,92,92,16,28,8,9,1.0,1
2023-10-04T15:00:00,1192A,120.3489,31.5863,无锡市,东亭,,40,31,26,14,13,128,128,94,94,14,32,6,6,0.7,1
2023-10-04T15:00:00,1193A,120.354,31.5475,无锡市,旺庄,,40,29,25,12,13,126,126,90,90,12,26,7,8,0.9,1
2023-10-04T15:00:00,1194A,120.245,31.5631,无锡市,荣巷,,42,27,21,12,12,133,133,88,88,11,18,11,11,1.1,1
2023-10-04T15:00:00,1195A,120.299,31.6817,无锡市,堰桥,,40,24,26,9,11,129,126,91,91,9,23,8,9,0.6,0.9
2023-10-04T15:00:00,1196A,119.9633,31.762,常州市,市监测站,,37,19,30,13,18,126,118,91,91,10,25,9,9,0.3,0.5
2023-10-04T15:00:00,1200A,119.9468,31.7069,常州市,武进监测站,,41,24,31,8,13,138,130,93,93,2,17,11,12,0.5,0.7
2023-10-04T15:00:00,1201A,119.9255,31.9087,常州市,安家,,40,14,27,19,17,128,128,100,100,7,17,8,10,0.5,0.6
2023-10-04T15:00:00,1203A,119.6707,32.1875,镇江市,新区办事处,,43,22,28,11,17,137,135,99,99,16,20,4,5,0.4,0.6
2023-10-04T15:00:00,1204A,119.4974,32.1968,镇江市,职教中心,,42,15,28,11,21,134,134,97,97,6,17,2,4,0.3,0.4
2023-10-04T15:00:00,1205A,119.4303,32.1328,镇江市,丹徒区监测站,,44,23,26,8,19,139,139,102,102,7,15,2,4,0.3,0.4
2023-10-04T15:00:00,1206A,119.905,32.4878,泰州市,公园路,,41,29,26,19,19,131,131,104,104,9,16,6,8,0.5,0.5
2023-10-04T15:00:00,1207A,119.9189,32.4625,泰州市,莲花,,42,24,26,17,17,134,134,106,106,9,15,5,8,0.4,0.4
2023-10-04T15:00:00,1209A,119.888,32.4639,泰州市,留学生创业园,,42,24,30,11,17,134,134,106,106,23,23,8,9,0.2,0.3
2023-10-04T15:00:00,1210A,119.036,33.5981,淮安市,钵池山,,,39,32,19,24,130,130,107,107,,30,8,7,0.7,0.7
2023-10-04T15:00:00,1211A,119.007,33.575,淮安市,北京南路,,44,39,40,20,23,140,138,107,107,12,30,7,8,0.6,0.6
2023-10-04T15:00:00,1212A,118.989,33.6067,淮安市,市监测站,,45,39,42,19,21,144,144,104,104,11,30,9,10,0.7,0.7
2023-10-04T15:00:00,1213A,119.135,33.5039,淮安市,楚州区监测站,,42,42,41,19,25,134,133,102,102,11,34,9,6,0.7,0.7
2023-10-04T15:00:00,1214A,119.0186,33.6297,淮安市,淮阴区监测站,,44,39,45,23,24,139,139,102,102,13,34,8,8,0.7,0.6
2023-10-04T15:00:00,1215A,120.118,33.4022,盐城市,盐城电厂,,43,31,36,12,18,135,135,114,114,5,13,8,7,0.4,0.4
2023-10-04T15:00:00,1216A,120.156,33.3942,盐城市,市监测站,,45,26,29,14,22,144,144,120,120,7,18,7,6,0.5,0.5
2023-10-04T15:00:00,1218A,120.2144,33.38,盐城市,开发区管委会,,44,28,27,9,18,139,139,115,115,10,14,8,10,0.4,0.4
2023-10-04T15:00:00,1220A,118.293,33.9528,宿迁市,宿迁学院,颗粒物(PM10),51,52,37,28,22,153,153,104,104,12,26,11,9,0.6,0.6
2023-10-04T15:00:00,1221A,118.2442,33.9592,宿迁市,宿迁中学,,50,50,40,28,23,138,138,109,109,9,20,10,8,0.7,0.5
2023-10-04T15:00:00,1223A,120.2072,30.2111,杭州市,滨江,,33,28,35,11,15,118,103,77,77,19,25,9,8,0.4,0.5
2023-10-04T15:00:00,1224A,120.0633,30.2747,杭州市,西溪,,30,23,28,12,16,96,96,66,66,16,21,5,5,0.5,0.5
2023-10-04T15:00:00,1226A,120.3461,30.3153,杭州市,下沙,,30,30,35,17,18,120,96,75,75,17,24,7,7,0.4,0.4
2023-10-04T15:00:00,1227A,120.1269,30.2456,杭州市,卧龙桥,,31,25,29,13,19,97,97,74,74,18,22,9,8,0.5,0.5
2023-10-04T15:00:00,1228A,120.1903,30.2692,杭州市,浙江农大,,28,21,26,13,18,88,88,65,65,13,20,8,8,0.4,0.5
2023-10-04T15:00:00,1230A,120.1197,30.3119,杭州市,和睦小学,,29,29,29,18,18,91,91,69,69,22,27,9,9,0.5,0.7
2023-10-04T15:00:00,1231A,120.3019,30.4183,杭州市,临平镇,,31,29,29,14,15,100,98,76,76,16,20,6,6,0.5,0.5
2023-10-04T15:00:00,1232A,120.2697,30.1819,杭州市,城厢镇,,32,29,32,15,19,128,100,74,74,14,18,8,9,0.6,0.6
2023-10-04T15:00:00,1233A,120.0883,30.1808,杭州市,云栖,,30,30,38,12,16,94,94,64,64,15,19,7,7,0.6,0.5
2023-10-04T15:00:00,1234A,121.8358,29.911,宁波市,区环保大楼,,30,21,18,10,9,127,96,89,89,14,16,6,6,0.5,0.5
2023-10-04T15:00:00,1235A,121.56,29.82,宁波市,万里学院,,,25,26,,15,165,98,91,90,15,15,8,8,0.5,0.5
2023-10-04T15:00:00,1236A,121.713,29.9572,宁波市,龙赛医院,,41,41,31,8,7,130,97,91,91,12,11,5,5,0.5,0.5
2023-10-04T15:00:00,1239A,121.633,29.7733,宁波市,钱湖水厂,,35,35,28,13,10,133,93,85,85,11,13,6,7,0.5,0.5
2023-10-04T15:00:00,1240A,121.5856,29.8635,宁波市,太古小学,,31,21,21,10,8,134,97,86,86,11,12,7,8,0.6,0.6
2023-10-04T15:00:00,1241A,121.524,29.8674,宁波市,市环境监测中心,,32,21,20,9,8,146,101,96,94,10,10,6,7,0.5,0.5
2023-10-04T15:00:00,1242A,120.634,28.0089,温州市,瓯海,,30,22,34,14,18,136,94,94,91,6,15,5,6,0.5,0.5
2023-10-04T15:00:00,1243A,120.6748,27.9939,温州市,南浦,,30,19,34,11,17,132,93,101,97,5,8,4,5,0.4,0.4
2023-10-04T15:00:00,1244A,120.76,27.9747,温州市,龙湾,,30,21,36,9,17,136,96,103,103,5,16,4,4,0.4,0.5
2023-10-04T15:00:00,1245A,120.6709,28.0167,温州市,市站,,29,29,38,9,18,123,85,88,88,13,18,6,6,0.4,0.5
2023-10-04T15:00:00,1247A,120.6053,29.9928,绍兴市,城东开发委,,30,29,37,12,17,115,95,83,72,16,19,8,8,0.5,0.5
2023-10-04T15:00:00,1250A,120.0751,30.8669,湖州市,城西水厂,,45,23,27,12,15,143,143,95,95,16,24,4,3,0.6,0.5
2023-10-04T15:00:00,1252A,120.7436,30.778,嘉兴市,清河小学,,40,24,28,6,9,127,127,88,88,7,18,5,5,0.5,0.7
2023-10-04T15:00:00,1253A,120.726,30.7478,嘉兴市,嘉兴学院,,40,26,27,10,12,126,126,84,84,6,15,5,5,0.5,0.5
2023-10-04T15:00:00,1255A,121.273,28.6459,台州市,黄岩环保大楼,,43,43,31,19,13,125,101,94,94,14,10,5,6,0.4,0.5
2023-10-04T15:00:00,1256A,121.419,28.6542,台州市,台州环保大楼,,33,21,24,22,12,124,105,97,97,7,7,4,4,0.5,0.5
2023-10-04T15:00:00,1257A,121.377,28.5773,台州市,路桥田洋王,,40,40,29,18,15,121,102,93,92,10,9,6,6,0.6,0.5
2023-10-04T15:00:00,1258A,122.122,30.0203,舟山市,定海檀枫,,34,24,18,13,7,116,106,95,95,7,8,6,6,0.9,0.4
2023-10-04T15:00:00,1259A,122.3094,29.9558,舟山市,普陀东港,,38,24,22,5,7,127,119,104,104,6,7,5,5,0.4,0.4
2023-10-04T15:00:00,1260A,122.19,29.9944,舟山市,临城新区,,36,20,20,6,8,121,113,98,98,5,6,5,5,0.3,0.3
2023-10-04T15:00:00,1262A,119.647,29.077,金华市,十五中,,35,32,50,18,26,166,111,86,78,15,21,4,4,0.5,0.6
2023-10-04T15:00:00,1263A,119.686,29.1029,金华市,监测站,,,28,41,,24,172,112,86,82,14,19,5,4,0.5,0.5
2023-10-04T15:00:00,1264A,118.8692,28.9398,衢州市,环保大楼,,30,29,43,18,25,147,94,82,74,8,13,3,3,0.4,0.5
2023-10-04T15:00:00,1265A,118.8709,28.9666,衢州市,实验学校,,30,23,40,20,21,150,93,88,78,8,15,3,4,0.5,0.5
2023-10-04T15:00:00,1266A,118.8621,28.9808,衢州市,衢州学院,,28,26,39,17,24,146,89,75,75,12,18,2,2,0.6,0.6
2023-10-04T15:00:00,1267A,119.914,28.4514,丽水市,监测站大楼,,32,31,33,21,21,100,100,89,89,11,14,5,6,0.4,0.5
2023-10-04T15:00:00,1268A,119.93,28.4586,丽水市,莲都小学,,50,50,37,22,18,108,104,92,92,13,14,5,6,0.4,0.5
2023-10-04T15:00:00,1269A,119.879,28.4231,丽水市,余庄前,,33,33,33,16,16,100,99,78,78,12,14,5,6,0.4,0.5
2023-10-04T15:00:00,1270A,117.1959,31.7848,合肥市,明珠广场,,29,24,37,7,20,92,92,73,73,14,22,6,6,0.6,0.7
2023-10-04T15:00:00,1271A,117.3072,31.8764,合肥市,三里街,,26,19,30,9,18,83,83,63,63,13,19,6,6,0.4,0.5
2023-10-04T15:00:00,1272A,117.2588,31.8707,合肥市,琥珀山庄,,30,22,30,9,17,93,93,75,75,9,15,5,5,0.5,0.6
2023-10-04T15:00:00,1273A,117.1604,31.9052,合肥市,董铺水库,,30,17,28,2,11,94,94,77,77,6,12,5,5,0.3,0.3
2023-10-04T15:00:00,1274A,117.25,31.8571,合肥市,长江中路,,29,22,40,17,24,92,92,76,76,8,15,7,7,0.6,0.7
2023-10-04T15:00:00,1275A,117.266,31.9436,合肥市,庐阳区,,30,12,29,7,19,94,94,77,77,4,10,4,4,0.3,0.5
2023-10-04T15:00:00,1276A,117.336,31.8586,合肥市,瑶海区,,28,24,35,9,17,87,87,67,67,8,14,5,5,0.6,0.7
2023-10-04T15:00:00,1277A,117.3027,31.7964,合肥市,包河区,,29,29,35,12,23,80,80,59,59,18,28,5,5,0.6,0.7
2023-10-04T15:00:00,1278A,117.2776,31.7385,合肥市,滨湖新区,,34,34,35,12,20,85,85,68,68,15,17,6,6,0.5,0.5
2023-10-04T15:00:00,1279A,117.1318,31.8403,合肥市,高新区,,28,24,35,19,24,95,88,72,72,17,20,7,6,0.6,0.6
2023-10-04T15:00:00,1280A,119.3903,26.0543,福州市,鼓山,,,,,,,,,,,,,,,,
2023-10-04T15:00:00,1282A,119.2681,26.0504,福州市,师大,,43,43,40,18,17,137,134,109,109,6,7,5,5,0.4,0.3
2023-10-04T15:00:00,1283A,119.2984,26.1028,福州市,五四北路,,40,34,35,18,16,137,127,103,102,7,8,4,3,0.4,0.4
2023-10-04T15:00:00,1284A,119.2648,26.0768,福州市,杨桥西路,,40,34,40,22,18,134,127,103,103,5,9,3,3,0.5,0.4
2023-10-04T15:00:00,1285A,119.317,26.0746,福州市,紫阳,,39,34,40,15,15,125,122,107,104,5,7,4,4,0.5,0.4
2023-10-04T15:00:00,1286A,118.1608,24.8169,厦门市,溪东,,,,,,,,,,,,,,,,
2023-10-04T15:00:00,1287A,118.1514,24.4767,厦门市,洪文,臭氧1小时,55,57,51,32,25,164,164,118,118,4,13,3,4,0.4,0.4
2023-10-04T15:00:00,1288A,118.0661,24.4444,厦门市,鼓浪屿,颗粒物(PM10),52,53,54,30,25,166,155,116,116,14,18,5,4,0.5,0.4
2023-10-04T15:00:00,1290A,115.8931,28.6843,南昌市,省外办,,32,32,36,14,19,92,66,52,51,14,13,4,4,0.7,0.7
2023-10-04T15:00:00,1291A,115.8886,28.7003,南昌市,省林业公司,,31,31,30,17,19,98,73,60,60,12,9,5,6,0.7,0.8
2023-10-04T15:00:00,1292A,115.8126,28.7442,南昌市,林科所,,25,24,23,9,12,103,78,65,63,9,10,7,7,0.6,0.5
2023-10-04T15:00:00,1294A,115.8518,28.687,南昌市,建工学校,,32,22,30,22,24,93,70,56,56,20,13,4,7,0.6,0.7
2023-10-04T15:00:00,1295A,115.8921,28.6424,南昌市,象湖,,24,24,32,15,17,104,73,60,56,11,9,6,6,0.6,0.6
2023-10-04T15:00:00,1296A,115.7423,28.7996,南昌市,武术学校,,25,18,18,8,13,107,77,68,68,10,10,7,8,0.5,0.4
2023-10-04T15:00:00,1298A,115.9314,28.6842,南昌市,省站,,27,27,31,13,17,100,74,59,56,11,10,7,7,0.7,0.7
2023-10-04T15:00:00,1299A,116.9862,36.6114,济南市,科干所,颗粒物(PM10),58,66,52,27,26,141,130,135,107,23,20,8,7,0.5,0.5
2023-10-04T15:00:00,1300A,116.9376,36.665,济南市,农科所,颗粒物(PM10),56,61,49,22,23,136,125,106,106,20,26,7,5,0.5,0.5
2023-10-04T15:00:00,1301A,117.1265,36.6734,济南市,开发区,颗粒物(PM10),58,66,55,27,23,129,115,103,103,30,33,8,6,0.6,0.6
2023-10-04T15:00:00,1303A,117.0624,36.6868,济南市,省种子仓库,,,66,54,24,24,142,131,109,109,,31,7,5,0.4,0.5
2023-10-04T15:00:00,1304A,116.9489,36.6447,济南市,机床二厂,颗粒物(PM10),56,61,65,22,25,140,132,109,109,17,29,7,5,0.5,0.5
2023-10-04T15:00:00,1305A,117.0495,36.663,济南市,市监测站,颗粒物(PM10),53,56,53,22,24,144,134,116,116,28,36,6,5,0.4,0.5
2023-10-04T15:00:00,1306A,116.7675,36.5484,济南市,长清党校,颗粒物(PM10),63,76,58,29,30,143,139,121,121,20,26,9,8,0.5,0.4
2023-10-04T15:00:00,1307A,120.6659,36.2403,青岛市,仰口,颗粒物(PM10),70,90,40,36,23,141,141,110,110,18,10,9,6,0.6,0.4
2023-10-04T15:00:00,1310A,120.4134,36.0658,青岛市,市南区东部子站,颗粒物(PM10),69,88,45,36,19,166,166,126,126,30,22,17,10,0.8,0.6
2023-10-04T15:00:00,1311A,120.3664,36.1032,青岛市,四方区子站,臭氧1小时,65,66,45,34,20,172,172,123,123,25,30,12,9,0.8,0.7
2023-10-04T15:00:00,1312A,120.2994,36.054,青岛市,市南区西部子站,颗粒物(PM10),69,88,45,32,18,167,167,115,115,21,22,10,9,1.2,1
2023-10-04T15:00:00,1313A,120.4581,36.0858,青岛市,崂山区子站,颗粒物(PM10),69,88,43,34,21,173,173,125,125,23,24,14,9,0.6,0.5
2023-10-04T15:00:00,1314A,120.1983,35.9608,青岛市,黄岛区子站,颗粒物(PM10),62,73,43,34,20,170,151,127,127,30,31,10,9,0.6,0.5
2023-10-04T15:00:00,1315A,120.3999,36.3083,青岛市,城阳区子站,臭氧1小时,68,73,46,32,19,174,174,122,122,22,30,11,8,0.8,0.7
2023-10-04T15:00:00,1316A,113.69031,34.76122,郑州市,烟厂,细颗粒物(PM2.5),60,65,57,43,29,136,38,77,26,33,27,7,5,1.1,0.8
2023-10-04T15:00:00,1317A,113.65724,34.77134,郑州市,郑纺机,颗粒物(PM10),60,70,54,40,27,138,34,76,28,38,28,5,5,1.1,0.9
2023-10-04T15:00:00,1318A,113.67526,34.80246,郑州市,银行学校,颗粒物(PM10),56,61,50,39,21,144,40,86,27,28,23,8,6,0.4,0.2
2023-10-04T15:00:00,1319A,113.56746,34.81334,郑州市,供水公司,细颗粒物(PM2.5),62,64,55,44,29,134,34,79,27,35,32,6,7,0.9,0.7
2023-10-04T15:00:00,1320A,113.7329,34.7178,郑州市,经开区管委,细颗粒物(PM2.5),72,66,59,52,33,134,45,75,25,33,27,8,6,0.9,0.6
2023-10-04T15:00:00,1321A,113.73961,34.77172,郑州市,四十七中,颗粒物(PM10),66,81,57,42,29,144,42,79,26,37,27,10,7,1.1,0.7
2023-10-04T15:00:00,1322A,113.60532,34.74838,郑州市,市监测站,颗粒物(PM10),63,75,56,38,27,132,33,80,26,34,31,7,7,0.9,0.7
2023-10-04T15:00:00,1323A,113.64164,34.7525,郑州市,河医大,颗粒物(PM10),64,77,55,38,26,129,33,82,18,31,29,9,8,1.0,0.8
2023-10-04T15:00:00,1324A,113.51488,34.91089,郑州市,岗李水库,,,,,,,,,,,,,,,,
2023-10-04T15:00:00,1325A,114.3677,30.5584,武汉市,东湖梨园,,25,17,21,17,12,60,52,58,38,16,19,8,8,0.6,0.7
2023-10-04T15:00:00,1326A,114.2529,30.558,武汉市,汉阳月湖,,22,22,22,12,13,54,49,51,37,20,20,6,6,0.6,0.6
2023-10-04T15:00:00,1327A,114.282,30.6189,武汉市,汉口花桥,,25,23,20,17,16,60,46,58,40,19,17,6,6,0.5,0.5
2023-10-04T15:00:00,1328A,114.3025,30.5332,武汉市,武昌紫阳,,18,18,23,12,11,62,49,57,35,20,21,7,8,0.6,0.7
2023-10-04T15:00:00,1329A,114.3646,30.6217,武汉市,青山钢花,,28,26,21,19,18,63,42,63,34,19,17,7,7,0.5,0.5
2023-10-04T15:00:00,1330A,114.1566,30.4825,武汉市,沌口新区,,18,16,22,12,16,57,54,50,41,20,23,7,7,0.5,0.5
2023-10-04T15:00:00,1331A,114.3014,30.5944,武汉市,汉口江滩,,22,19,19,15,13,65,43,60,38,17,16,6,6,0.5,0.5
2023-10-04T15:00:00,1333A,114.135,30.6319,武汉市,吴家山,,22,18,19,15,14,70,59,68,50,16,15,7,7,0.5,0.5
2023-10-04T15:00:00,1334A,113.8454,30.2917,武汉市,沉湖七壕,,22,22,21,11,11,71,52,58,44,17,15,4,5,0.7,0.7
2023-10-04T15:00:00,1335A,113.0833,28.2325,长沙市,经开区环保局,,33,33,20,21,12,36,29,32,27,19,16,4,4,0.5,0.4
2023-10-04T15:00:00,1336A,112.8872,28.2189,长沙市,高开区环保局,,38,32,25,26,16,48,45,42,37,8,8,6,6,0.6,0.6
2023-10-04T15:00:00,1337A,113.0792,28.2053,长沙市,马坡岭,,38,38,20,25,15,47,40,42,36,9,7,5,5,0.7,0.5
2023-10-04T15:00:00,1338A,112.9394,28.19,长沙市,湖南师范大学,,36,30,23,25,17,48,44,40,40,7,7,4,4,0.6,0.6
2023-10-04T15:00:00,1339A,113.0178,28.1322,长沙市,雨花区环保局,,30,28,16,21,12,45,44,37,37,12,9,4,4,1.2,0.7
2023-10-04T15:00:00,1340A,112.9792,28.2597,长沙市,伍家岭,,38,34,20,26,16,45,37,41,36,14,10,4,4,0.6,0.5
2023-10-04T15:00:00,1341A,113.0014,28.1944,长沙市,火车新站,,35,33,22,24,15,44,42,41,40,13,10,4,3,0.7,0.6
2023-10-04T15:00:00,1342A,112.9844,28.1178,长沙市,天心区环保局,,32,29,24,22,12,50,50,37,37,13,11,3,3,0.5,0.5
2023-10-04T15:00:00,1343A,112.8908,28.1308,长沙市,湖南中医药大学,,,,33,,22,45,40,41,38,,6,2,2,0.8,0.7
2023-10-04T15:00:00,1344A,112.9581,28.3611,长沙市,沙坪,,42,42,26,21,11,31,29,28,23,8,5,6,6,0.4,0.3
2023-10-04T15:00:00,1345A,113.2347,23.1423,广州市,广雅中学,颗粒物(PM10),53,56,53,33,34,175,153,81,81,26,35,4,4,0.9,0.9
2023-10-04T15:00:00,1346A,113.2612,23.105,广州市,市五中,臭氧1小时,55,47,54,33,37,200,164,84,84,11,25,7,7,0.8,0.9
2023-10-04T15:00:00,1348A,113.3478,23.0916,广州市,广东商学院,,50,43,52,35,38,198,129,84,84,8,33,3,3,0.6,0.8
2023-10-04T15:00:00,1349A,113.4332,23.1047,广州市,市八十六中,,44,44,74,27,42,205,128,90,90,7,43,5,5,0.6,0.8
2023-10-04T15:00:00,1350A,113.3505,22.9483,广州市,番禺中学,,50,46,50,30,41,224,157,107,107,12,24,9,9,0.8,0.9
2023-10-04T15:00:00,1351A,113.2146,23.3916,广州市,花都师范,,48,42,43,33,27,160,121,89,89,9,23,5,4,0.8,0.9
2023-10-04T15:00:00,1352A,113.2597,23.1331,广州市,市监测站,颗粒物(PM10),58,65,54,37,34,183,156,84,84,14,31,3,4,0.7,0.8
2023-10-04T15:00:00,1353A,113.5618,23.312,广州市,九龙镇镇龙,,45,45,43,27,27,138,102,62,62,5,19,5,5,0.7,0.7
2023-10-04T15:00:00,1354A,113.2765,23.1544,广州市,麓湖,,46,44,47,32,32,151,142,85,85,10,33,6,6,0.7,0.8
2023-10-04T15:00:00,1355A,113.443,23.3035,广州市,帽峰山森林公园,,45,33,36,31,29,149,111,107,84,8,11,6,6,0.6,0.6
2023-10-04T15:00:00,1356A,114.1063,22.5545,深圳市,通心岭子站,,46,46,43,30,25,186,135,99,99,14,19,3,3,0.9,0.9
2023-10-04T15:00:00,1357A,114.117,22.5625,深圳市,洪湖,,46,46,47,29,25,180,125,87,87,15,20,7,6,0.5,0.5
2023-10-04T15:00:00,1358A,113.987,22.5417,深圳市,华侨城,细颗粒物(PM2.5),62,52,44,44,25,163,151,96,96,14,21,8,9,1.0,1
2023-10-04T15:00:00,1359A,113.9181,22.5171,深圳市,南海子站,颗粒物(PM10),58,66,55,34,26,183,162,98,98,11,20,5,6,0.7,0.7
2023-10-04T15:00:00,1360A,114.2458,22.5689,深圳市,盐田,,40,40,39,28,25,116,116,87,87,7,17,5,5,0.9,0.8
2023-10-04T15:00:00,1361A,114.2283,22.7244,深圳市,龙岗,,36,36,50,24,27,136,99,81,81,7,21,7,7,0.5,0.6
2023-10-04T15:00:00,1363A,114.494,22.5422,深圳市,南澳,细颗粒物(PM2.5),64,57,43,46,30,151,151,99,99,15,14,4,3,0.6,0.6
2023-10-04T15:00:00,1364A,114.41,22.6342,深圳市,葵涌,,48,48,43,26,21,127,119,86,86,10,16,6,6,0.8,0.7
2023-10-04T15:00:00,1365A,114.297,22.5978,深圳市,梅沙,,38,37,41,26,23,115,108,88,88,6,12,6,6,0.9,0.9
2023-10-04T15:00:00,1366A,114.0678,22.738,深圳市,观澜,颗粒物(PM10),56,62,60,34,26,206,122,105,105,21,27,9,8,0.9,1
2023-10-04T15:00:00,1367A,113.5814,22.2618,珠海市,吉大,臭氧1小时,119,53,37,46,26,237,237,152,152,12,10,6,6,0.8,0.8
2023-10-04T15:00:00,1368A,113.4881,22.2335,珠海市,前山,,50,49,37,30,17,158,157,110,110,9,10,6,6,0.6,0.6
2023-10-04T15:00:00,1369A,113.628,22.4251,珠海市,唐家,臭氧1小时,111,51,37,43,28,241,222,138,138,15,12,7,6,0.6,0.6
2023-10-04T15:00:00,1370A,113.299,22.2281,珠海市,斗门,臭氧1小时,82,54,38,44,21,207,185,124,124,12,10,7,8,0.8,0.8
2023-10-04T15:00:00,1371A,113.1294,23.0067,佛山市,湾梁,臭氧1小时,69,34,47,32,30,214,175,105,105,9,21,7,10,0.7,0.7
2023-10-04T15:00:00,1372A,113.1083,23.0478,佛山市,华材职中,臭氧1小时,67,39,49,33,34,188,173,91,91,13,26,6,7,0.5,0.6
2023-10-04T15:00:00,1373A,113.144,23.0453,佛山市,南海气象局,臭氧1小时,63,53,52,32,33,170,170,86,86,15,25,6,6,0.6,0.6
2023-10-04T15:00:00,1374A,113.2881,22.8094,佛山市,顺德苏岗,臭氧1小时,75,42,47,27,28,195,180,103,103,9,18,8,9,0.9,0.8
2023-10-04T15:00:00,1376A,112.8383,22.8678,佛山市,高明孔堂,臭氧1小时,92,61,40,43,26,193,193,115,115,15,14,6,8,0.7,0.8
2023-10-04T15:00:00,1377A,112.8836,23.1588,佛山市,三水监测站,细颗粒物(PM2.5),52,31,48,36,28,194,141,89,89,9,32,2,4,0.7,0.8
2023-10-04T15:00:00,1378A,112.867,23.185,佛山市,三水云东海,,39,24,46,24,30,169,124,83,83,6,23,5,6,0.6,0.6
2023-10-04T15:00:00,1379A,113.3769,22.5211,中山市,华柏园,臭氧1小时,101,66,46,36,29,202,201,136,136,14,16,8,8,0.5,0.5
2023-10-04T15:00:00,1380A,113.3881,22.5497,中山市,张溪,臭氧1小时,89,54,50,37,35,209,191,151,151,12,13,4,6,0.7,0.7
2023-10-04T15:00:00,1381A,113.4075,22.5111,中山市,紫马岭,臭氧1小时,93,58,43,38,28,197,194,127,127,10,12,4,4,0.5,0.5
2023-10-04T15:00:00,1382A,113.4411,22.4853,中山市,长江旅游区,,,,,,,,,,,,,,,,
2023-10-04T15:00:00,1383A,113.1064,22.6058,江门市,北街,臭氧1小时,98,61,42,39,30,198,198,103,103,12,14,7,7,0.6,0.6
2023-10-04T15:00:00,1384A,113.0731,22.5835,江门市,西区,臭氧1小时,78,36,41,32,24,182,182,105,105,10,16,6,7,0.6,0.6
2023-10-04T15:00:00,1385A,113.0219,22.5311,江门市,圭峰西,,,61,37,,20,138,135,99,99,10,12,4,5,0.7,0.6
2023-10-04T15:00:00,1386A,113.0828,22.5947,江门市,东湖,臭氧1小时,80,50,45,32,23,184,184,108,108,9,13,6,7,0.7,0.6
2023-10-04T15:00:00,1389A,113.7547,23.0494,东莞市,莞城梨川,,40,30,51,22,29,188,128,92,92,10,21,5,6,0.9,0.9
2023-10-04T15:00:00,1390A,113.7944,23.0128,东莞市,东城石井,,40,33,45,24,25,201,127,95,95,8,13,4,3,0.8,0.9
2023-10-04T15:00:00,1391A,113.7383,22.9658,东莞市,南城西平,细颗粒物(PM2.5),54,48,46,38,28,188,162,93,93,17,21,12,12,1.0,0.9
2023-10-04T15:00:00,1392A,114.4183,23.0528,惠州市,河南岸金山湖子站,,44,44,48,27,29,124,119,85,85,10,24,5,5,0.7,0.7
2023-10-04T15:00:00,1393A,114.4053,23.0822,惠州市,下埔横江三路子站,,44,44,44,25,29,130,127,91,91,6,16,6,7,0.8,0.8
2023-10-04T15:00:00,1394A,114.4103,23.1142,惠州市,江北云山西路子站,,43,40,43,30,28,144,127,94,94,1,14,6,8,0.9,0.9
2023-10-04T15:00:00,1395A,114.4645,22.7833,惠州市,惠阳区承修路船湖子站,颗粒物(PM10),52,54,57,28,30,125,112,88,88,10,14,4,4,0.8,0.8
2023-10-04T15:00:00,1396A,114.5317,22.7422,惠州市,大亚湾管委会子站,,33,29,68,20,25,133,104,80,80,8,25,6,6,0.7,0.8
2023-10-04T15:00:00,1397A,112.4267,23.0706,肇庆市,睦岗子站,,49,38,44,34,28,154,137,81,81,9,24,6,5,0.6,0.6
2023-10-04T15:00:00,1398A,112.4645,23.0475,肇庆市,城中子站,,42,35,43,29,28,163,133,75,75,11,36,7,9,0.7,0.7
2023-10-04T15:00:00,1399A,112.5544,23.1522,肇庆市,坑口子站,"颗粒物(PM10),细颗粒物(PM2.5)",53,56,37,37,26,158,158,90,90,13,17,8,5,0.6,0.5
2023-10-04T15:00:00,1400A,112.4753,23.1,肇庆市,七星岩子站,,,,,,,,,,,,,,,,
2023-10-04T15:00:00,1401A,108.3103,22.7881,南宁市,二十一中,,46,46,30,19,17,125,117,85,85,6,10,5,7,0.5,0.7
2023-10-04T15:00:00,1402A,108.3141,22.8528,南宁市,北湖,,41,29,32,26,19,129,129,85,85,6,11,9,7,0.5,0.7
2023-10-04T15:00:00,1403A,108.3206,22.8225,南宁市,市监测站,,38,27,33,24,21,133,120,91,91,16,16,10,11,0.6,0.8
2023-10-04T15:00:00,1404A,108.3829,22.8037,南宁市,大自然花园,,42,42,30,28,19,133,133,83,83,9,13,9,7,0.7,0.8
2023-10-04T15:00:00,1405A,108.4394,22.7904,南宁市,仙葫,,46,46,32,27,19,140,140,79,79,13,16,8,8,0.4,0.5
2023-10-04T15:00:00,1406A,108.2397,22.8467,南宁市,区农职院,,,36,38,13,20,123,121,80,80,8,18,10,12,,0.8
2023-10-04T15:00:00,1407A,108.3275,22.735,南宁市,英华嘉园,,35,31,35,22,20,111,111,74,74,8,19,7,8,0.5,0.7
2023-10-04T15:00:00,1408A,108.2257,22.7757,南宁市,沙井镇街道办,,34,29,63,21,22,108,106,75,75,6,26,5,8,0.6,0.7
2023-10-04T15:00:00,1409A,110.576,19.9507,海口市,东寨港,,,,,,,,,,,,,,,,
2023-10-04T15:00:00,1410A,110.3232,20.0574,海口市,海南大学,,,,24,15,11,75,72,62,62,6,9,7,6,2.2,0.5
2023-10-04T15:00:00,1411A,110.283,20.0053,海口市,秀英海南医院,,28,28,26,10,11,79,69,59,59,12,19,7,7,0.4,0.4
2023-10-04T15:00:00,1412A,110.338,19.9969,海口市,海南师范大学,,30,30,23,11,12,98,93,76,76,5,9,5,5,0.3,0.4
2023-10-04T15:00:00,1413A,110.33,20.0356,海口市,龙华路环保局宿舍,,24,21,24,10,12,78,74,64,64,5,10,8,8,0.2,0.3
2023-10-04T15:00:00,1414A,106.3787,29.8279,重庆市,缙云山,,11,6,12,4,5,42,33,33,18,6,8,6,6,0.3,0.3
2023-10-04T15:00:00,1416A,106.4213,29.8253,重庆市,天生,,25,25,24,15,16,36,22,11,11,12,20,6,5,0.7,0.8
2023-10-04T15:00:00,1417A,106.6263,29.7228,重庆市,两路,,10,8,12,7,10,22,19,10,10,9,15,9,8,1.0,1
2023-10-04T15:00:00,1418A,106.2953,29.5983,重庆市,虎溪,,10,10,19,5,13,54,19,17,17,13,17,5,5,0.8,0.6
2023-10-04T15:00:00,1419A,106.5777,29.5102,重庆市,南坪,,16,15,28,11,14,31,14,8,8,27,25,6,6,0.7,0.6
2023-10-04T15:00:00,1420A,106.6556,29.6277,重庆市,唐家沱,,12,7,15,8,10,35,20,9,8,18,15,5,5,0.8,0.9
2023-10-04T15:00:00,1421A,106.6349,29.4906,重庆市,茶园,,14,5,13,6,9,56,28,26,25,27,23,5,5,0.9,0.8
2023-10-04T15:00:00,1422A,106.3754,29.4572,重庆市,白市驿,,9,4,19,5,14,39,23,18,18,18,21,6,6,0.8,0.8
2023-10-04T15:00:00,1425A,106.6205,29.7166,重庆市,空港,,9,8,17,5,11,27,23,16,16,16,19,8,7,0.9,0.9
2023-10-04T15:00:00,1426A,106.4782,29.4875,重庆市,新山村,,17,13,26,7,15,45,11,15,12,34,30,6,6,1.0,0.9
2023-10-04T15:00:00,1427A,106.5616,29.6453,重庆市,礼嘉,,15,15,17,10,11,39,20,17,9,15,18,7,7,0.8,0.9
2023-10-04T15:00:00,1428A,106.4522,29.7091,重庆市,蔡家,,19,19,26,12,14,34,26,16,16,16,21,6,6,0.9,1
2023-10-04T15:00:00,1429A,106.5093,29.3917,重庆市,鱼新街,,14,6,20,6,15,88,24,13,13,27,25,5,5,0.9,1.2
2023-10-04T15:00:00,1431A,103.9728,30.7236,成都市,金泉两河,,24,24,36,10,23,84,53,51,30,10,16,3,3,0.5,0.6
2023-10-04T15:00:00,1432A,104.176,30.6872,成都市,十里店,,26,26,32,4,19,89,56,42,31,15,15,2,2,0.6,0.6
2023-10-04T15:00:00,1433A,104.079,30.5706,成都市,三瓦窑,,15,15,34,3,19,86,48,40,32,13,16,3,2,0.5,0.5
2023-10-04T15:00:00,1434A,104.1114,30.63,成都市,沙河铺,,39,39,38,20,24,73,49,36,30,17,17,2,2,0.6,0.6
2023-10-04T15:00:00,1437A,104.0786,30.6531,成都市,君平街,,26,26,36,10,23,89,55,46,37,18,18,4,3,0.6,0.6
2023-10-04T15:00:00,1438A,103.613,31.0283,成都市,灵岩寺,颗粒物(PM10),69,87,29,4,13,110,50,75,51,3,8,6,7,0.8,0.8
2023-10-04T15:00:00,1439A,106.6899,26.5998,贵阳市,马鞍山,,29,27,25,14,13,93,91,82,82,5,7,4,5,0.4,0.4
2023-10-04T15:00:00,1440A,106.6971,26.5694,贵阳市,市环保站,,32,29,26,22,21,92,86,82,81,12,14,3,3,0.2,0.2
2023-10-04T15:00:00,1441A,106.6243,26.6266,贵阳市,鉴湖路,,27,27,27,9,17,81,75,74,72,3,5,3,3,0.5,0.4
2023-10-04T15:00:00,1442A,106.7487,26.6343,贵阳市,燕子冲,,35,22,25,24,19,85,85,76,76,5,7,5,6,0.4,0.5
2023-10-04T15:00:00,1443A,106.6555,26.4365,贵阳市,碧云窝,,24,24,30,14,14,82,76,76,76,4,5,5,5,0.5,0.4
2023-10-04T15:00:00,1444A,106.694,26.5161,贵阳市,中院村,,29,29,29,19,17,75,73,70,69,9,11,8,8,0.2,0.2
2023-10-04T15:00:00,1445A,106.7109,26.6027,贵阳市,红边门,,45,34,30,31,25,82,81,73,72,8,10,3,4,0.3,0.3
2023-10-04T15:00:00,1446A,106.7164,26.5699,贵阳市,新华路,,29,24,25,19,18,93,90,88,86,7,9,7,7,0.4,0.3
2023-10-04T15:00:00,1447A,106.674,26.5424,贵阳市,太慈桥,,26,12,19,17,14,85,81,78,78,7,7,4,5,0.3,0.3
2023-10-04T15:00:00,1450A,102.8204,24.8886,昆明市,呈贡新区,,20,6,17,6,7,68,62,42,42,10,17,6,8,0.5,0.6
2023-10-04T15:00:00,1451A,102.6251,24.9608,昆明市,西山森林公园,,19,10,11,2,9,66,58,41,38,8,9,8,7,0.5,0.5
2023-10-04T15:00:00,1452A,102.7252,25.0902,昆明市,龙泉镇,,15,5,17,7,8,70,47,35,35,10,12,9,9,0.6,0.6
2023-10-04T15:00:00,1453A,102.7266,25.0375,昆明市,东风东路,,15,9,18,8,9,72,48,32,32,9,13,6,7,0.7,0.7
2023-10-04T15:00:00,1454A,102.6742,25.0669,昆明市,金鼎山,,17,17,21,7,7,73,52,36,36,11,16,16,17,0.5,0.5
2023-10-04T15:00:00,1455A,102.6644,25.0401,昆明市,碧鸡广场,,15,10,17,7,8,70,48,35,35,8,16,7,8,0.6,0.6
2023-10-04T15:00:00,1456A,91.1319,29.6514,拉萨市,八廓街,,22,13,14,10,11,74,69,52,49,8,16,7,7,0.3,0.4
2023-10-04T15:00:00,1457A,91.1221,29.6747,拉萨市,市环保局,,23,9,13,5,7,75,71,55,48,6,15,4,7,0.1,0.3
2023-10-04T15:00:00,1458A,91.0874,29.6475,拉萨市,区监测站,,20,7,9,5,7,69,63,57,43,6,12,9,9,0.2,0.3
2023-10-04T15:00:00,1459A,91.1774,29.6541,拉萨市,西藏大学,,22,10,11,6,7,75,68,50,50,6,9,9,8,0.2,0.3
2023-10-04T15:00:00,1460A,90.9798,29.6588,拉萨市,区辐射站,,20,12,16,5,8,71,61,58,41,8,14,6,7,0.2,0.3
2023-10-04T15:00:00,1461A,91.0834,29.6292,拉萨市,拉萨火车站,,17,7,9,5,6,71,54,54,40,6,7,6,6,0.2,0.2
2023-10-04T15:00:00,1462A,108.882,34.2749,西安市,高压开关厂,,15,14,22,10,9,92,47,40,40,26,26,6,7,0.7,0.7
2023-10-04T15:00:00,1463A,108.993,34.2629,西安市,兴庆小区,,16,14,21,11,12,88,44,36,36,23,22,5,6,0.7,0.8
2023-10-04T15:00:00,1464A,109.06,34.2572,西安市,纺织城,,20,17,24,14,13,102,39,32,32,34,30,5,5,0.9,0.9
2023-10-04T15:00:00,1465A,108.9356,34.2173,西安市,小寨,,18,18,20,11,11,82,41,39,39,29,23,6,6,0.8,0.7
2023-10-04T15:00:00,1466A,108.954,34.2713,西安市,市人民体育场,,22,16,21,15,12,82,44,31,31,26,25,5,7,0.7,0.7
2023-10-04T15:00:00,1467A,108.8922,34.2322,西安市,高新西区,,20,16,17,14,12,83,49,43,43,21,18,6,5,0.7,0.7
2023-10-04T15:00:00,1468A,108.935,34.3474,西安市,经开区,,18,16,24,12,13,91,35,29,29,23,23,3,3,0.6,0.6
2023-10-04T15:00:00,1469A,108.906,34.1546,西安市,长安区,,17,6,14,5,9,89,52,53,53,18,14,5,5,0.7,0.7
2023-10-04T15:00:00,1471A,109.2186,34.3731,西安市,临潼区,,21,21,29,13,16,105,39,44,32,21,18,5,5,0.7,0.9
2023-10-04T15:00:00,1472A,108.869,34.378,西安市,草滩,,16,10,23,11,11,100,51,35,35,14,24,1,2,0.2,0.2
2023-10-04T15:00:00,1473A,108.985,34.1978,西安市,曲江文化产业集团,,27,27,21,10,10,83,46,38,38,25,24,4,5,0.8,0.7
2023-10-04T15:00:00,1474A,109.051,34.3213,西安市,广运潭,,16,16,23,10,13,92,29,26,26,29,27,6,7,0.7,0.7
2023-10-04T15:00:00,1476A,103.631,36.1031,兰州市,兰炼宾馆,,,36,42,21,31,86,86,78,78,12,36,,4,0.3,0.6
2023-10-04T15:00:00,1477A,104.1373,35.9454,兰州市,榆中兰大校区,,,,,,,,,,,,,,,,
2023-10-04T15:00:00,1478A,103.8412,36.0726,兰州市,生物制品所,,38,26,39,26,36,74,69,68,68,22,32,8,8,0.6,0.6
2023-10-04T15:00:00,1479A,103.831,36.0464,兰州市,铁路设计院,,33,30,39,23,33,75,72,62,62,29,41,6,10,0.6,0.7
2023-10-04T15:00:00,1483A,101.524,36.6867,西宁市,第五水厂,,,,,,,,,,,,,,,,
2023-10-04T15:00:00,1484A,105.9512,38.6016,银川市,贺兰山马莲口,,31,19,42,8,23,148,97,87,83,11,17,8,20,0.3,0.6
2023-10-04T15:00:00,1488A,106.2328,38.4975,银川市,贺兰山东路,,29,25,63,13,36,162,92,72,72,11,35,7,12,0.4,0.7
2023-10-04T15:00:00,1489A,106.1358,38.5036,银川市,学院路,,29,29,74,14,36,151,85,66,66,9,27,8,18,0.3,0.6
2023-10-04T15:00:00,1490A,87.5801,43.8303,乌鲁木齐市,监测站,,,53,62,26,26,119,,82,20,28,55,15,7,0.5,0.7
2023-10-04T15:00:00,1491A,87.6046,43.768,乌鲁木齐市,收费所,颗粒物(PM10),52,53,67,24,32,99,66,34,34,32,52,4,4,0.4,0.7
2023-10-04T15:00:00,1492A,87.4754,43.9469,乌鲁木齐市,新疆农科院农场,,37,37,70,17,27,131,80,73,34,14,35,4,4,1.0,0.9
2023-10-04T15:00:00,1493A,87.5525,43.8711,乌鲁木齐市,铁路局,,48,48,58,18,24,132,72,81,31,23,48,7,6,0.5,0.6
2023-10-04T15:00:00,1494A,87.6432,43.831,乌鲁木齐市,三十一中学,颗粒物(PM10),60,70,61,22,26,110,68,82,39,24,37,6,8,0.4,0.7
2023-10-04T15:00:00,1496A,87.7216,44.1747,乌鲁木齐市,米东区环保局,,29,29,42,7,17,99,82,62,48,6,15,10,11,0.4,0.4
2023-10-04T15:00:00,1508A,112.9433,27.8614,湘潭市,板塘,,41,41,26,25,17,39,39,31,31,14,14,8,7,0.6,0.5
2023-10-04T15:00:00,1511A,112.9118,27.8403,湘潭市,市监测站,,38,37,26,26,16,47,46,40,39,13,10,4,4,0.7,0.7
2023-10-04T15:00:00,1512A,112.8937,27.8728,湘潭市,江麓,,49,49,25,28,15,53,48,45,45,16,12,7,7,0.7,0.6
2023-10-04T15:00:00,1513A,112.9227,27.8159,湘潭市,岳塘,,49,49,29,25,14,55,52,42,42,12,10,10,10,0.5,0.4
2023-10-04T15:00:00,1514A,112.9074,27.9119,湘潭市,科大,细颗粒物(PM2.5),57,49,27,40,23,44,40,36,36,13,11,6,6,0.8,0.8
2023-10-04T15:00:00,1515A,113.135,27.8244,株洲市,天台山庄,,42,42,33,29,17,46,44,36,34,16,14,5,5,0.7,0.7
2023-10-04T15:00:00,1518A,113.095,27.8867,株洲市,株冶医院,颗粒物(PM10),51,52,33,31,21,39,38,31,31,21,17,5,5,0.8,0.7
2023-10-04T15:00:00,1519A,113.167,27.8667,株洲市,市四中,,41,41,30,24,16,42,34,32,32,17,13,4,4,0.7,0.7
2023-10-04T15:00:00,1520A,113.143,27.8381,株洲市,火车站,,40,40,31,25,15,44,43,34,34,17,16,4,5,0.6,0.6
2023-10-04T15:00:00,1524A,113.13,27.8528,株洲市,市监测站,,41,41,34,25,18,45,45,35,35,15,14,3,5,0.7,0.7
2023-10-04T15:00:00,1552A,106.805,26.3003,贵阳市,桐木岭,,,,,,,,,,,,,,,,
2023-10-04T15:00:00,1559A,113.251,27.8336,株洲市,大京风景区,,30,27,24,21,18,42,40,31,31,6,8,4,4,0.5,0.4
2023-10-04T15:00:00,1562A,113.0048,27.9153,湘潭市,昭山,,46,46,33,23,14,50,50,40,40,13,12,4,4,0.9,0.8
2023-10-04T15:00:00,1564A,112.4876,27.9164,湘潭市,韶山,,43,43,28,18,12,53,46,41,41,13,10,5,5,0.5,0.5
2023-10-04T15:00:00,1585A,109.8756,40.6532,包头市,市环境监测站,,26,18,24,8,10,117,83,72,72,13,17,11,11,0.5,0.5
2023-10-04T15:00:00,1587A,109.9991,40.5842,包头市,包头八中,,28,19,26,6,5,133,89,77,77,12,17,15,19,0.5,0.6
2023-10-04T15:00:00,1588A,109.8538,40.6821,包头市,青山宾馆,,26,13,21,7,6,117,81,71,71,14,13,12,11,0.7,0.5
2023-10-04T15:00:00,1589A,109.8642,40.6288,包头市,惠龙物流,,27,13,23,5,9,132,86,74,74,13,16,11,10,0.6,0.6
2023-10-04T15:00:00,1590A,110.0377,40.5546,包头市,东河鸿龙湾,,29,10,21,2,9,135,90,76,76,8,15,13,16,0.4,0.6
2023-10-04T15:00:00,1591A,110.0023,39.8129,鄂尔多斯市,综合楼,,29,29,41,0,13,115,83,61,61,13,39,6,32,0.5,0.6
2023-10-04T15:00:00,1592A,109.9486,39.8261,鄂尔多斯市,巴音孟克林场办事处,,27,27,33,9,15,116,83,67,67,9,21,20,31,0.3,0.4
2023-10-04T15:00:00,1593A,109.7736,39.5986,鄂尔多斯市,康泽苑,,29,29,28,8,11,127,79,56,56,12,20,5,7,0.5,0.6
2023-10-04T15:00:00,1594A,109.8119,39.5989,鄂尔多斯市,华泰汽车城,,,29,31,14,16,122,81,57,57,10,25,,6,0.5,0.7
2023-10-04T15:00:00,1595A,109.9734,39.7884,鄂尔多斯市,奥林花园,,34,34,35,9,13,119,79,62,62,12,34,5,15,0.4,0.6
2023-10-04T15:00:00,1597A,122.2703,40.7094,营口市,大庆路,,30,30,40,8,20,156,84,135,71,8,12,4,6,0.4,0.6
2023-10-04T15:00:00,1598A,122.2150,40.6511,营口市,镜湖西路,,26,18,34,4,15,165,81,148,68,14,14,7,8,0.6,0.7
2023-10-04T15:00:00,1599A,122.1658,40.6789,营口市,西炮台,,27,23,48,5,10,163,85,137,72,13,14,4,6,0.3,0.5
2023-10-04T15:00:00,1600A,124.3303,40.0625,丹东市,江湾东路,,30,15,23,8,12,114,93,86,86,7,14,12,10,0.5,0.7
2023-10-04T15:00:00,1601A,124.4256,40.1503,丹东市,临江后街,,28,21,27,10,12,112,87,80,80,12,13,9,8,0.6,0.7
2023-10-04T15:00:00,1602A,124.3933,40.1461,丹东市,元宝山,,27,18,24,10,12,108,84,75,75,9,13,11,10,0.5,0.6
2023-10-04T15:00:00,1603A,124.3633,40.1092,丹东市,民主桥,,26,20,25,10,12,107,81,78,76,15,18,8,6,0.5,0.6
2023-10-04T15:00:00,1604A,122.0303,41.1489,盘锦市,开发区,,,26,24,5,12,172,85,99,80,,17,8,10,0.2,0.4
2023-10-04T15:00:00,1605A,122.0485,41.0883,盘锦市,兴隆台,,27,21,23,5,11,170,85,113,75,19,19,8,10,0.2,0.4
2023-10-04T15:00:00,1606A,121.8297,41.1028,盘锦市,新生街道,,26,14,23,7,12,178,81,84,71,12,16,5,6,0.2,0.4
2023-10-04T15:00:00,1607A,120.9092,40.7136,葫芦岛市,龙港区,,27,24,33,0,12,170,86,76,76,14,17,9,18,0.1,0.4
2023-10-04T15:00:00,1608A,120.8392,40.7514,葫芦岛市,化工街,,27,24,42,7,16,154,86,77,76,6,15,6,10,0.3,0.5
2023-10-04T15:00:00,1609A,120.8341,40.7073,葫芦岛市,新区,,28,21,33,4,13,181,88,86,80,6,14,7,10,0.1,0.6
2023-10-04T15:00:00,1610A,120.8695,40.7677,葫芦岛市,东城区,,30,30,34,6,12,169,89,85,79,10,20,8,13,0.5,0.7
2023-10-04T15:00:00,1611A,118.5819,24.9117,泉州市,涂山街,,48,48,45,26,19,169,150,116,116,9,12,7,7,0.8,0.7
2023-10-04T15:00:00,1612A,118.5972,24.8978,泉州市,津头埔,,47,47,41,26,20,167,148,116,116,14,15,6,7,0.7,0.7
2023-10-04T15:00:00,1613A,118.6663,24.9424,泉州市,万安,颗粒物(PM10),52,53,46,26,21,165,157,125,125,9,11,4,4,0.6,0.6
2023-10-04T15:00:00,1614A,118.6117,24.9604,泉州市,清源山,,,,,,,,,,,,,,,,
2023-10-04T15:00:00,1616A,117.6795,36.229,济南市,技术学院,颗粒物(PM10),57,63,73,27,35,144,135,103,103,22,39,10,10,0.6,0.9
2023-10-04T15:00:00,1618A,118.3429,35.0532,临沂市,沂河小区,颗粒物(PM10),60,70,69,38,34,125,121,97,97,20,32,9,11,0.4,0.4
2023-10-04T15:00:00,1619A,118.295,35.0583,临沂市,鲁南制药厂,颗粒物(PM10),62,73,78,31,31,135,126,98,98,23,38,9,11,0.5,0.5
2023-10-04T15:00:00,1620A,118.2794,34.9976,临沂市,新光毛纺厂,,46,46,70,30,37,127,117,93,93,20,36,8,14,0.7,0.8
2023-10-04T15:00:00,1621A,118.3956,35.0888,临沂市,河东保险公司,细颗粒物(PM2.5),59,63,58,42,32,127,113,91,91,21,28,6,7,0.7,0.6
2023-10-04T15:00:00,1622A,116.3032,37.4674,德州市,儿童乐园,颗粒物(PM10),51,51,83,7,36,152,107,86,78,7,22,8,11,0.3,0.6
2023-10-04T15:00:00,1624A,116.2991,37.4451,德州市,监理站,,50,50,76,0,33,147,104,76,74,9,28,9,13,0.3,0.5
2023-10-04T15:00:00,1625A,115.9848,36.4372,聊城市,区政府,颗粒物(PM10),60,69,75,29,42,148,140,98,98,11,25,5,7,0.7,0.6
2023-10-04T15:00:00,1628A,118.0062,37.3803,滨州市,市环保局,,48,48,77,14,41,154,121,98,98,15,36,10,11,0.6,0.7
2023-10-04T15:00:00,1629A,118.0018,37.3617,滨州市,第二水厂,,48,48,82,20,45,165,128,108,108,15,44,11,14,0.8,0.9
2023-10-04T15:00:00,1630A,117.9776,37.393,滨州市,北中新校,,48,48,73,13,36,155,120,95,95,10,39,9,9,0.8,0.9
2023-10-04T15:00:00,1631A,118.0414,36.8103,淄博市,人民公园,颗粒物(PM10),58,66,82,34,48,147,132,101,101,20,48,8,12,0.5,0.7
2023-10-04T15:00:00,1633A,117.8525,36.4847,淄博市,双山,颗粒物(PM10),67,83,59,35,33,141,122,110,110,24,25,11,8,0.4,0.4
2023-10-04T15:00:00,1634A,117.9592,36.6331,淄博市,气象站,颗粒物(PM10),54,58,63,36,36,134,129,100,100,17,30,13,9,0.4,0.6
2023-10-04T15:00:00,1635A,118.3092,36.8194,淄博市,莆田园,颗粒物(PM10),58,66,83,31,41,154,147,113,113,19,28,9,18,0.5,1.3
2023-10-04T15:00:00,1637A,117.558,34.8438,枣庄市,市中区政府,"颗粒物(PM10),细颗粒物(PM2.5)",52,53,75,36,43,133,124,101,101,17,40,6,7,0.3,0.4
2023-10-04T15:00:00,1638A,117.2852,34.7837,枣庄市,薛城环保局,颗粒物(PM10),64,78,70,33,38,139,99,97,97,29,37,6,6,0.5,0.6
2023-10-04T15:00:00,1639A,117.5852,34.7745,枣庄市,峄城区政府,颗粒物(PM10),54,58,69,24,31,138,120,97,97,18,31,7,7,0.5,0.5
2023-10-04T15:00:00,1640A,117.7276,34.5578,枣庄市,台儿庄区环保局,,46,46,62,27,37,144,125,98,98,19,46,8,8,0.5,0.6
2023-10-04T15:00:00,1641A,117.4518,35.0992,枣庄市,山亭区环保局,颗粒物(PM10),52,53,58,32,37,138,112,100,100,19,24,6,7,0.7,0.7
2023-10-04T15:00:00,1642A,121.2514,37.5639,烟台市,开发区,颗粒物(PM10),54,58,44,5,17,144,91,108,108,8,17,8,11,0.5,0.7
2023-10-04T15:00:00,1643A,121.3719,37.5433,烟台市,轴承厂,,36,36,41,7,20,150,100,111,111,10,16,5,6,0.2,0.4
2023-10-04T15:00:00,1644A,121.3181,37.5436,烟台市,西郊化工站,,32,31,39,6,18,151,100,116,109,9,14,5,5,0.5,0.7
2023-10-04T15:00:00,1645A,121.4478,37.4822,烟台市,莱山环保局,,34,29,30,8,15,151,108,115,115,5,8,7,7,0.4,0.5
2023-10-04T15:00:00,1646A,121.2611,37.4967,烟台市,福山环保局,,41,41,48,7,19,139,95,98,98,11,26,2,3,0.2,0.3
2023-10-04T15:00:00,1650A,119.1437,36.7023,潍坊市,环保局,,,,,,,,,,,,,,,,
2023-10-04T15:00:00,1653A,116.6251,35.4302,济宁市,火炬城,颗粒物(PM10),69,88,65,39,31,143,60,73,49,39,27,16,12,0.5,0.4
2023-10-04T15:00:00,1655A,116.5491,35.4042,济宁市,电化厂,颗粒物(PM10),73,96,83,44,43,145,59,50,50,36,30,8,7,0.6,0.6
2023-10-04T15:00:00,1656A,117.1437,36.1937,泰安市,监测站,颗粒物(PM10),58,66,65,33,36,147,147,96,96,10,23,10,9,0.4,0.3
2023-10-04T15:00:00,1657A,117.0885,36.2017,泰安市,人口学校,颗粒物(PM10),53,56,52,27,25,142,142,99,99,14,22,8,8,0.6,0.5
2023-10-04T15:00:00,1658A,117.1089,36.1758,泰安市,电力学校,,,63,71,30,33,141,141,94,94,,35,10,9,0.5,0.4
2023-10-04T15:00:00,1659A,119.471,35.4209,日照市,监测站,颗粒物(PM10),51,51,44,28,22,138,133,99,99,16,36,9,8,0.7,0.8
2023-10-04T15:00:00,1660A,119.523,35.4216,日照市,市政府广场,颗粒物(PM10),52,53,41,22,19,147,147,108,108,15,27,8,6,0.5,0.5
2023-10-04T15:00:00,1661A,119.5587,35.4044,日照市,港务局,颗粒物(PM10),53,56,47,27,23,152,152,106,106,16,38,11,10,0.6,0.6
2023-10-04T15:00:00,1662A,122.1214,37.4236,威海市,华夏技校,,29,27,25,7,15,158,92,131,125,10,11,2,4,0.4,0.3
2023-10-04T15:00:00,1663A,122.0508,37.5236,威海市,山大分校,,30,20,30,2,11,147,96,121,118,4,8,5,6,0.3,0.3
2023-10-04T15:00:00,1664A,122.1067,37.5072,威海市,市监测站,,30,27,34,12,16,146,95,116,113,7,13,7,8,0.4,0.5
2023-10-04T15:00:00,1666A,118.6614,37.4309,东营市,市环保局,,34,27,72,9,39,188,106,124,122,4,31,6,21,0.2,0.6
2023-10-04T15:00:00,1669A,113.5824,24.7733,韶关市,市八中,,39,32,36,27,24,111,85,71,71,3,6,12,13,0.6,0.7
2023-10-04T15:00:00,1671A,113.5917,24.7972,韶关市,园林处,,35,29,34,24,27,114,90,73,72,1,3,14,10,0.7,0.8
2023-10-04T15:00:00,1672A,113.6735,24.7791,韶关市,韶关学院,,36,36,31,21,23,100,86,67,67,2,6,7,8,0.7,0.8
2023-10-04T15:00:00,1673A,113.5971,24.6863,韶关市,曲江监测站,,35,31,38,24,25,127,89,76,76,2,8,7,12,0.5,0.6
2023-10-04T15:00:00,1674A,116.6794,23.3667,汕头市,金平子站,臭氧1小时,82,42,45,24,25,188,185,126,118,18,14,7,8,0.9,0.7
2023-10-04T15:00:00,1675A,116.7244,23.3633,汕头市,龙湖子站,臭氧1小时,109,70,45,38,27,218,218,138,138,18,15,9,9,1.1,0.9
2023-10-04T15:00:00,1676A,116.7258,23.2775,汕头市,濠江子站,臭氧1小时,98,90,51,40,27,208,198,137,137,14,13,11,10,0.7,0.6
2023-10-04T15:00:00,1677A,116.7519,23.4714,汕头市,澄海子站,臭氧1小时,92,78,47,31,28,193,193,130,110,17,13,11,11,0.6,0.5
2023-10-04T15:00:00,1678A,116.6092,23.2539,汕头市,潮阳子站,臭氧1小时,90,73,53,30,27,192,192,124,119,9,10,10,9,0.9,0.8
2023-10-04T15:00:00,1680A,110.3539,21.2706,湛江市,湛江影剧院,,42,42,36,26,15,134,134,84,84,6,14,10,9,0.7,0.7
2023-10-04T15:00:00,1681A,110.3928,21.2228,湛江市,市环境监测站,,43,42,46,22,24,136,136,92,92,8,12,9,8,0.7,0.8
2023-10-04T15:00:00,1682A,110.4019,21.1997,湛江市,环保局宿舍,颗粒物(PM10),54,57,32,26,17,156,156,96,96,15,12,6,9,0.8,0.7
2023-10-04T15:00:00,1683A,110.4111,21.2028,湛江市,霞山游泳场,,48,39,33,26,16,157,152,92,92,9,10,7,9,0.7,0.7
2023-10-04T15:00:00,1684A,110.3316,21.2679,湛江市,麻章区环保局,,45,34,40,13,18,141,141,86,86,6,16,7,8,0.7,0.7
2023-10-04T15:00:00,1685A,110.4558,21.2567,湛江市,坡头区环保局,,42,35,29,23,16,132,132,85,85,8,8,8,6,0.6,0.6
2023-10-04T15:00:00,1686A,111.0286,21.4688,茂名市,电白南海,,46,46,39,31,22,104,104,76,76,7,11,10,11,0.6,0.5
2023-10-04T15:00:00,1687A,110.9294,21.6533,茂名市,茂石化七小,,36,36,36,19,18,107,107,81,81,10,11,8,11,0.8,0.8
2023-10-04T15:00:00,1688A,110.9107,21.6687,茂名市,健康路,,33,27,31,12,13,106,105,78,78,8,11,7,14,0.6,0.7
2023-10-04T15:00:00,1689A,110.8592,21.6828,茂名市,高岭,,39,29,37,27,26,94,92,65,65,9,15,8,13,0.6,0.7
2023-10-04T15:00:00,1690A,116.1231,24.3284,梅州市,梅江月梅,,26,20,32,14,22,103,83,73,73,6,17,4,3,0.6,0.7
2023-10-04T15:00:00,1691A,116.0797,24.2719,梅州市,梅县新城,,24,22,34,15,21,87,75,64,64,4,14,6,6,0.7,0.8
2023-10-04T15:00:00,1692A,116.1248,24.2654,梅州市,环境监控中心,,29,29,39,14,23,110,77,70,70,4,16,7,8,0.6,0.7
2023-10-04T15:00:00,1693A,115.3653,22.775,汕尾市,市环保局,颗粒物(PM10),54,57,39,27,23,130,130,106,85,8,6,8,7,1.1,0.8
2023-10-04T15:00:00,1694A,115.3706,22.7898,汕尾市,市政府,颗粒物(PM10),64,77,50,25,23,134,134,107,84,5,5,6,6,0.9,0.7
2023-10-04T15:00:00,1695A,115.3622,22.7925,汕尾市,新城中学,颗粒物(PM10),55,59,44,24,19,119,119,98,75,5,4,7,7,0.8,0.7
2023-10-04T15:00:00,1696A,114.6778,23.7569,河源市,源西,,40,36,39,28,33,91,90,73,73,5,15,5,5,0.7,0.8
2023-10-04T15:00:00,1697A,114.6944,23.7586,河源市,东埔,,40,36,45,28,36,89,89,72,72,5,11,5,6,0.7,0.8
2023-10-04T15:00:00,1698A,114.6892,23.7233,河源市,老城,,39,39,39,27,26,93,92,75,75,5,12,4,5,0.8,0.9
2023-10-04T15:00:00,1699A,111.9797,21.8593,阳江市,鸳鸯湖,,45,45,29,23,16,127,117,86,86,8,8,9,10,0.9,0.8
2023-10-04T15:00:00,1701A,111.9491,21.8658,阳江市,马南垌,,43,37,33,30,19,120,107,84,84,8,8,6,8,0.7,0.6
2023-10-04T15:00:00,1702A,113.0426,23.691,清远市,环保大楼,,39,34,32,27,21,168,97,82,82,2,10,6,8,0.7,0.7
2023-10-04T15:00:00,1703A,113.0208,23.7106,清远市,凤城街办,,42,36,38,29,25,155,92,79,79,8,12,7,7,0.8,0.7
2023-10-04T15:00:00,1705A,116.6367,23.6719,潮州市,西园路,,28,28,40,13,25,159,67,116,59,6,9,4,5,0.2,0.5
2023-10-04T15:00:00,1706A,116.6447,23.6706,潮州市,档案局,,25,25,39,17,27,169,80,123,74,2,8,6,8,0.6,0.6
2023-10-04T15:00:00,1708A,116.3701,23.5345,揭阳市,新兴,,50,50,56,24,27,129,107,110,89,2,9,7,9,0.6,0.9
2023-10-04T15:00:00,1709A,116.3264,23.5443,揭阳市,西马,,31,26,51,21,28,126,99,120,81,4,10,6,8,0.6,0.9
2023-10-04T15:00:00,1710A,116.3611,23.5626,揭阳市,东兴,,39,39,63,20,27,128,105,113,86,8,15,4,6,0.8,1.1
2023-10-04T15:00:00,1711A,116.4151,23.5294,揭阳市,渔湖,,44,44,58,11,25,133,109,103,99,6,14,4,6,0.6,0.9
2023-10-04T15:00:00,1712A,112.0392,22.9169,云浮市,新市府,,42,42,29,28,21,116,114,80,80,5,5,7,6,0.9,0.9
2023-10-04T15:00:00,1714A,112.0539,22.9539,云浮市,牧羊,,37,30,40,23,22,121,118,76,76,6,22,8,11,0.6,0.7
2023-10-04T15:00:00,1715A,102.575,24.3711,玉溪市,东风水库,,19,9,13,4,8,60,59,36,36,6,10,5,6,0.8,0.7
2023-10-04T15:00:00,1718A,115.4208,35.2464,菏泽市,气象局,颗粒物(PM10),66,82,90,46,46,147,71,58,58,32,32,27,13,0.5,0.5
2023-10-04T15:00:00,1719A,115.4747,35.2375,菏泽市,市政协,颗粒物(PM10),59,67,79,40,43,144,70,69,60,35,27,6,11,0.4,0.3
2023-10-04T15:00:00,1721A,113.3819,40.1097,大同市,果树场,,,,,,,,,,,,,,,,
2023-10-04T15:00:00,1723A,113.2994,40.0758,大同市,云冈宾馆,,27,22,31,3,10,114,86,66,66,7,20,8,11,0.3,0.6
2023-10-04T15:00:00,1724A,113.3444,40.0917,大同市,大同大学,,25,25,34,4,13,114,80,60,60,6,17,5,11,0.2,0.5
2023-10-04T15:00:00,1725A,113.2661,40.1269,大同市,安家小村,,29,11,28,2,10,120,92,73,72,4,11,11,13,0.3,0.5
2023-10-04T15:00:00,1726A,113.2711,40.0844,大同市,教育学院,,27,16,36,8,11,103,85,66,66,9,18,6,9,0.3,0.5
2023-10-04T15:00:00,1727A,113.1147,36.1547,长治市,清华站,颗粒物(PM10),71,91,57,46,42,182,115,75,47,29,30,20,11,1.6,1.3
2023-10-04T15:00:00,1728A,113.1031,36.1989,长治市,监测站,,46,46,59,22,45,178,140,60,50,13,34,14,13,1.1,1.7
2023-10-04T15:00:00,1730A,113.0886,36.2125,长治市,审计局,,48,48,55,19,38,171,135,70,51,9,30,16,17,0.7,1.3
2023-10-04T15:00:00,1731A,113.0844,36.1856,长治市,长治八中,颗粒物(PM10),65,80,69,2,29,195,135,70,51,14,30,20,19,0.9,1.2
2023-10-04T15:00:00,1733A,111.5531,36.0783,临汾市,临钢医院,细颗粒物(PM2.5),98,134,102,73,57,140,38,42,18,35,31,16,15,1.4,1.4
2023-10-04T15:00:00,1734A,111.5028,36.0714,临汾市,技工学校,细颗粒物(PM2.5),103,118,95,77,62,146,48,35,28,35,35,16,16,1.4,1.3
2023-10-04T15:00:00,1736A,111.5018,36.0855,临汾市,市委,细颗粒物(PM2.5),112,129,105,84,68,157,59,46,38,34,33,17,17,1.5,1.5
2023-10-04T15:00:00,1738A,113.5758,37.8572,阳泉市,市中心,,33,32,82,22,38,149,104,62,62,13,64,9,19,0.4,1
2023-10-04T15:00:00,1739A,113.4894,37.8731,阳泉市,赛鱼,,38,38,79,21,34,147,101,53,53,16,64,12,11,0.5,0.7
2023-10-04T15:00:00,1740A,113.5819,37.8486,阳泉市,南庄,,36,36,98,23,41,150,107,52,52,15,49,10,17,0.5,0.9
2023-10-04T15:00:00,1742A,113.5614,37.8703,阳泉市,平坦,,33,29,78,9,37,150,104,54,54,16,64,8,12,0.6,0.9
2023-10-04T15:00:00,1743A,113.5158,37.8392,阳泉市,大阳泉,,35,18,49,21,38,149,110,128,101,14,22,11,11,0.5,0.6
2023-10-04T15:00:00,1744A,118.9233,42.2816,赤峰市,松山一中,,46,46,20,8,4,91,80,69,68,8,16,8,10,0.2,0.2
2023-10-04T15:00:00,1745A,118.9576,42.2728,赤峰市,哈达街,,38,38,21,5,7,83,77,65,64,10,19,13,14,0.3,0.3
2023-10-04T15:00:00,1746A,118.8788,42.2554,赤峰市,天义路,,41,41,19,12,9,89,82,72,72,9,18,8,9,0.3,0.3
2023-10-04T15:00:00,1748A,123.044,41.1196,鞍山市,深沟寺,,25,18,33,5,16,146,78,125,67,7,12,4,6,0.4,0.7
2023-10-04T15:00:00,1749A,123.011,41.0931,鞍山市,太阳城,,24,17,37,7,15,142,76,118,68,14,16,10,11,0.6,0.8
2023-10-04T15:00:00,1750A,123.0485,41.1442,鞍山市,太平,,24,20,38,6,18,136,75,130,66,8,16,8,11,0.4,0.7
2023-10-04T15:00:00,1751A,122.9642,41.0971,鞍山市,铁西三道街,,28,28,48,7,18,138,72,116,64,13,22,9,13,0.8,1.2
2023-10-04T15:00:00,1752A,122.9341,41.0833,鞍山市,铁西工业园区,,25,22,38,7,18,140,78,111,67,9,15,8,13,0.4,0.8
2023-10-04T15:00:00,1753A,123.022,41.0821,鞍山市,明达新区,,24,22,51,8,15,139,74,124,64,11,15,6,7,0.5,0.7
2023-10-04T15:00:00,1754A,123.1289,41.0228,鞍山市,千山,,,,,,,,,,,,,,,,
2023-10-04T15:00:00,1755A,123.7977,41.8491,抚顺市,望花区,,28,28,37,5,11,139,78,93,69,5,15,5,12,0.3,0.4
2023-10-04T15:00:00,1756A,123.9161,41.8822,抚顺市,顺城区,,23,22,32,6,14,140,73,96,65,8,17,5,8,0.5,0.6
2023-10-04T15:00:00,1757A,124.0436,41.8611,抚顺市,东洲区,,25,21,30,7,15,144,79,96,70,6,12,8,10,0.3,0.6
2023-10-04T15:00:00,1758A,123.9247,41.8642,抚顺市,新抚区,,24,22,31,6,11,144,75,90,66,4,8,6,9,0.3,0.6
2023-10-04T15:00:00,1759A,124.0972,41.8961,抚顺市,大伙房水库,,25,22,28,7,16,140,77,96,65,3,10,7,8,0.3,0.5
2023-10-04T15:00:00,1760A,123.7086,41.8391,抚顺市,沈抚新城,,25,25,35,7,14,140,76,79,65,5,11,7,10,0.1,0.4
2023-10-04T15:00:00,1761A,123.8275,41.3064,本溪市,大峪,,24,14,27,7,13,124,76,122,64,10,12,6,7,0.5,0.6
2023-10-04T15:00:00,1762A,123.7567,41.3325,本溪市,溪湖,,24,15,32,5,16,118,74,70,64,17,22,12,16,0.4,0.9
2023-10-04T15:00:00,1763A,123.7169,41.3094,本溪市,彩屯,,24,16,47,5,22,113,75,85,61,11,32,8,21,0.7,1.5
2023-10-04T15:00:00,1764A,123.7669,41.2864,本溪市,东明,,25,18,27,10,14,127,79,123,66,10,14,8,8,0.5,0.6
2023-10-04T15:00:00,1765A,123.7992,41.2664,本溪市,新立屯,,23,16,25,11,12,115,72,104,61,13,14,9,14,0.4,0.5
2023-10-04T15:00:00,1766A,123.8142,41.3472,本溪市,威宁,,24,20,29,6,13,111,75,96,62,9,15,6,6,0.5,0.7
2023-10-04T15:00:00,1767A,121.1115,41.0879,锦州市,南山,,26,26,30,7,16,155,82,75,75,12,16,7,10,0.4,0.5
2023-10-04T15:00:00,1768A,121.0533,40.8434,锦州市,开发区,,26,25,46,7,19,166,82,75,75,9,21,8,16,0.4,0.6
2023-10-04T15:00:00,1769A,121.1836,41.1119,锦州市,百股街道,,35,35,28,5,13,164,87,77,77,7,14,8,13,0.5,0.6
2023-10-04T15:00:00,1770A,121.1178,41.1222,锦州市,天安街道,,31,31,37,7,18,150,82,75,75,8,14,6,10,0.6,0.8
2023-10-04T15:00:00,1771A,121.1303,41.1386,锦州市,北湖公园,,26,17,31,3,13,158,83,75,75,6,11,9,12,0.4,0.5
2023-10-04T15:00:00,1772A,126.54,43.8622,吉林市,哈达湾,,24,17,23,5,10,134,74,76,67,8,11,7,7,0.4,0.5
2023-10-04T15:00:00,1773A,126.5844,43.8358,吉林市,东局子,,23,14,24,8,13,133,73,76,64,10,16,7,7,0.4,0.5
2023-10-04T15:00:00,1774A,126.5052,43.8245,吉林市,电力学院,,25,14,26,8,14,130,77,75,67,4,13,7,8,0.4,0.5
2023-10-04T15:00:00,1775A,126.6133,43.8972,吉林市,江北,,26,26,31,6,13,129,69,67,67,13,15,9,10,0.4,0.6
2023-10-04T15:00:00,1776A,126.555,43.8306,吉林市,江南公园,,23,14,25,9,13,136,72,75,64,8,11,6,7,0.4,0.5
2023-10-04T15:00:00,1778A,126.7061,43.7133,吉林市,丰满,,,,,,,,,,,,,,,,
2023-10-04T15:00:00,1779A,123.9305,47.3636,齐齐哈尔市,安居小区,,18,9,14,12,12,63,45,49,46,4,5,5,5,0.2,0.3
2023-10-04T15:00:00,1780A,123.9488,47.3386,齐齐哈尔市,中心广场,,14,8,14,7,9,63,42,54,45,5,6,2,2,0.1,0.3
2023-10-04T15:00:00,1781A,123.9483,47.3227,齐齐哈尔市,农牧车辆厂,,15,12,16,8,5,63,46,53,46,4,6,5,5,0.3,0.3
2023-10-04T15:00:00,1783A,123.945,47.2988,齐齐哈尔市,市环境监测站,,,,10,,8,63,44,53,45,,6,4,4,,0.2
2023-10-04T15:00:00,1784A,129.61,44.561,牡丹江市,环保大楼,,24,19,33,10,17,75,75,74,68,7,19,5,5,0.3,0.5
2023-10-04T15:00:00,1785A,129.6115,44.5782,牡丹江市,文化广场,,23,16,29,8,19,73,72,71,65,6,24,4,6,0.2,0.4
2023-10-04T15:00:00,1786A,129.5904,44.5963,牡丹江市,第一医院,,24,21,31,8,24,75,74,69,67,4,18,5,6,0.2,0.4
2023-10-04T15:00:00,1787A,129.6364,44.6075,牡丹江市,机车工厂,,24,15,31,4,15,74,74,71,66,2,15,5,6,0.4,0.5
2023-10-04T15:00:00,1788A,129.6386,44.5462,牡丹江市,第一中学,,25,11,32,8,18,77,77,69,69,5,20,5,5,0.3,0.5
2023-10-04T15:00:00,1789A,124.81117,46.03138,大庆市,大同区,,18,10,19,3,15,68,55,52,52,4,8,5,6,0.3,0.4
2023-10-04T15:00:00,1790A,125.129,46.533,大庆市,龙凤区,,18,18,20,7,10,68,47,54,41,8,11,4,4,0.3,0.4
2023-10-04T15:00:00,1791A,124.902,46.408,大庆市,红岗区,,18,18,14,9,12,73,54,52,49,5,7,4,4,0.3,0.3
2023-10-04T15:00:00,1792A,125.153,46.586,大庆市,萨尔图区,,14,13,20,2,10,78,42,59,40,13,12,3,8,0.2,0.2
2023-10-04T15:00:00,1793A,124.9042,46.6215,大庆市,让胡路区,,29,6,17,20,17,81,51,58,47,4,8,4,5,0.3,0.3
2023-10-04T15:00:00,1794A,118.3606,31.3519,芜湖市,监测站,,34,23,24,8,15,106,106,65,65,12,22,8,7,0.5,0.6
2023-10-04T15:00:00,1795A,118.3714,31.4134,芜湖市,科创中心,,33,21,27,9,16,105,105,62,62,17,27,8,6,0.7,0.7
2023-10-04T15:00:00,1796A,118.3673,31.3131,芜湖市,四水厂,,33,16,26,10,15,104,104,67,67,5,12,5,5,0.6,0.7
2023-10-04T15:00:00,1798A,118.5092,31.6837,马鞍山市,湖东路四小,,36,19,21,6,16,115,115,66,66,18,21,8,7,0.4,0.5
2023-10-04T15:00:00,1799A,118.5024,31.6449,马鞍山市,开发区,,37,21,24,8,14,118,118,74,74,10,11,8,8,0.7,0.8
2023-10-04T15:00:00,1800A,118.5228,31.7231,马鞍山市,慈湖,,38,27,24,13,14,119,119,72,72,17,22,7,6,0.7,0.7
2023-10-04T15:00:00,1802A,118.6245,31.7241,马鞍山市,濮塘,,37,17,17,9,15,116,116,70,70,5,8,6,5,0.6,0.7
2023-10-04T15:00:00,1803A,115.9872,29.6815,九江市,十里,,42,32,22,29,14,80,69,80,60,15,13,9,7,0.8,0.7
2023-10-04T15:00:00,1804A,115.9584,29.7046,九江市,茅山头,,36,36,21,22,14,71,62,68,56,17,15,8,9,0.9,0.7
2023-10-04T15:00:00,1805A,115.9877,29.7295,九江市,西园,,40,40,25,23,14,76,68,74,65,25,18,7,7,0.9,0.8
2023-10-04T15:00:00,1806A,116.0172,29.6547,九江市,五七二七厂,,45,24,20,31,19,74,57,72,54,12,11,9,10,0.7,0.7
2023-10-04T15:00:00,1808A,115.9114,29.6038,九江市,综合工业园,,33,24,22,23,14,87,75,86,59,17,19,10,11,0.6,0.6
2023-10-04T15:00:00,1809A,116.0721,29.7535,九江市,石化总厂,,38,38,25,22,17,77,63,77,60,24,17,8,8,1.0,0.9
2023-10-04T15:00:00,1810A,115.9773,29.5698,九江市,庐山气象台,,18,10,12,9,8,98,56,94,61,8,5,9,11,0.7,0.9
2023-10-04T15:00:00,1812A,112.3931,34.6516,洛阳市,市委党校,细颗粒物(PM2.5),72,51,53,52,43,122,42,54,27,20,31,4,5,1.0,0.9
2023-10-04T15:00:00,1814A,112.4657,34.6871,洛阳市,豫西宾馆,细颗粒物(PM2.5),63,41,58,45,42,124,41,20,20,14,35,1,4,0.9,1.1
2023-10-04T15:00:00,1815A,112.494,34.6886,洛阳市,河南林校,细颗粒物(PM2.5),58,50,50,41,35,118,25,20,18,24,32,3,3,1.0,0.8
2023-10-04T15:00:00,1816A,112.3844,34.623,洛阳市,开发区管委会,细颗粒物(PM2.5),57,51,45,40,33,121,40,45,26,16,19,4,3,1.0,0.7
2023-10-04T15:00:00,1817A,112.4267,34.6258,洛阳市,市委新办公区,细颗粒物(PM2.5),74,55,49,54,41,123,40,40,28,20,22,2,2,1.1,0.9
2023-10-04T15:00:00,1818A,114.4839,36.0621,安阳市,棉研所,,,,,,,,,,,,,,,,
2023-10-04T15:00:00,1819A,114.3551,36.1017,安阳市,红庙街,细颗粒物(PM2.5),84,99,78,62,42,175,131,56,54,34,33,15,10,1.2,1.1
2023-10-04T15:00:00,1820A,114.361,36.0681,安阳市,银杏小区,颗粒物(PM10),76,101,73,46,27,169,122,52,52,30,28,15,9,1.1,0.9
2023-10-04T15:00:00,1824A,114.3389,34.7781,开封市,肿瘤医院,颗粒物(PM10),67,84,78,44,41,131,43,59,27,28,24,6,5,0.9,0.7
2023-10-04T15:00:00,1826A,114.2885,34.7965,开封市,世纪星幼儿园,颗粒物(PM10),60,70,70,39,30,137,40,58,26,35,31,8,5,0.8,0.6
2023-10-04T15:00:00,1828A,113.227,35.2125,焦作市,市环保局,细颗粒物(PM2.5),74,81,69,54,40,135,46,28,22,33,31,12,8,1.1,0.9
2023-10-04T15:00:00,1830A,113.1992,35.2590,焦作市,影视城,,,,,,,,,,,,,,,,
2023-10-04T15:00:00,1832A,113.3257,33.742,平顶山市,新华旅馆,细颗粒物(PM2.5),77,90,77,56,41,145,81,62,39,19,34,11,8,0.7,0.6
2023-10-04T15:00:00,1833A,113.2919,33.737,平顶山市,规划设计院,细颗粒物(PM2.5),69,59,51,50,36,142,81,61,34,15,25,9,8,0.8,0.7
2023-10-04T15:00:00,1834A,113.182,33.774,平顶山市,平顶山工学院,细颗粒物(PM2.5),70,84,60,51,33,133,83,64,53,16,21,12,7,0.6,0.5
2023-10-04T15:00:00,1835A,111.1922,34.7752,三门峡市,市政府,,36,31,43,25,24,92,33,22,22,32,32,6,7,0.9,0.8
2023-10-04T15:00:00,1836A,111.1587,34.7942,三门峡市,开发区,颗粒物(PM10),56,62,50,30,27,93,42,26,26,19,19,6,7,0.7,0.6
2023-10-04T15:00:00,1838A,111.143,34.7955,三门峡市,风景区,,,,,,,,,,,,,,,,
2023-10-04T15:00:00,1840A,111.2992,30.6981,宜昌市,白龙岗,,19,19,15,12,6,47,25,16,16,36,27,6,6,0.8,0.8
2023-10-04T15:00:00,1841A,111.3549,30.6465,宜昌市,伍家岗,,28,19,14,19,9,51,47,25,25,17,23,5,4,0.7,0.7
2023-10-04T15:00:00,1842A,111.2628,30.6961,宜昌市,点军区,,25,25,20,17,5,57,52,29,29,15,13,8,8,0.7,0.7
2023-10-04T15:00:00,1843A,111.3275,30.7819,宜昌市,夷陵区,,24,24,16,14,7,48,38,18,18,20,20,6,6,0.5,0.6
2023-10-04T15:00:00,1844A,112.2494,30.3197,荆州市,市图书馆,,39,39,40,21,23,71,68,52,52,8,18,5,6,0.8,0.9
2023-10-04T15:00:00,1845A,112.2008,30.3544,荆州市,市委党校,,42,42,41,25,22,70,70,53,53,8,16,5,6,0.7,0.7
2023-10-04T15:00:00,1847A,113.1094,29.3578,岳阳市,南湖风景区,,34,34,25,18,18,55,48,53,37,9,11,7,7,0.8,0.7
2023-10-04T15:00:00,1848A,113.1493,29.4251,岳阳市,城陵矶,,35,34,25,24,15,48,38,42,34,21,17,6,6,0.7,0.6
2023-10-04T15:00:00,1849A,113.1497,29.3575,岳阳市,开发区,,43,36,30,30,28,49,41,45,36,20,14,8,7,0.8,0.7
2023-10-04T15:00:00,1850A,113.2621,29.4758,岳阳市,云溪区,,38,38,23,16,14,48,45,40,37,15,14,7,6,0.7,0.6
2023-10-04T15:00:00,1851A,112.9943,29.4402,岳阳市,君山区,,39,34,26,27,24,57,57,49,49,10,13,4,4,0.5,0.5
2023-10-04T15:00:00,1852A,113.2117,29.355,岳阳市,金凤水库,,34,34,24,22,16,68,63,56,56,7,6,3,3,0.7,0.7
2023-10-04T15:00:00,1854A,111.6975,28.9703,常德市,市二中,,36,28,25,25,18,79,79,58,58,7,12,6,8,0.6,0.6
2023-10-04T15:00:00,1857A,111.7158,29.1456,常德市,白鹤山,,31,31,22,3,5,76,75,61,61,1,3,4,4,0.5,0.4
2023-10-04T15:00:00,1858A,110.5319,29.1217,张家界市,永定新区,,26,26,21,17,12,78,78,55,55,7,10,6,7,0.5,0.6
2023-10-04T15:00:00,1859A,110.4697,29.1242,张家界市,电业局,,,,,,,,,,,,,,,,
2023-10-04T15:00:00,1860A,110.5594,29.3547,张家界市,未央路,,19,19,17,9,8,65,58,43,43,5,6,3,3,0.6,0.6
2023-10-04T15:00:00,1861A,110.4417,29.315,张家界市,袁家界,,23,17,8,7,6,78,73,76,69,6,4,8,9,0.7,0.7
2023-10-04T15:00:00,1862A,110.4144,25.3167,桂林市,电子科大尧山校区,,33,33,41,23,29,83,79,68,67,4,5,4,4,0.8,0.8
2023-10-04T15:00:00,1863A,110.2819,25.2697,桂林市,监测站,,43,37,45,30,28,105,105,78,78,8,11,8,10,0.7,0.7
2023-10-04T15:00:00,1864A,110.3089,25.2708,桂林市,龙隐路小学,,38,36,41,26,30,112,101,77,77,5,8,8,8,0.9,0.8
2023-10-04T15:00:00,1865A,110.2869,25.2178,桂林市,八中,,39,39,46,22,30,115,115,85,85,9,12,6,7,0.6,0.6
2023-10-04T15:00:00,1866A,109.2262,21.588,北海市,牛尾岭水库,,23,21,20,13,11,78,72,56,56,6,8,7,6,0.5,0.5
2023-10-04T15:00:00,1867A,109.1436,21.4086,北海市,海滩公园,,26,23,26,7,7,83,83,66,66,3,5,4,4,0.6,0.6
2023-10-04T15:00:00,1868A,109.0981,21.4661,北海市,新市环保局,,29,26,23,7,12,90,90,82,82,4,6,4,4,0.5,0.6
2023-10-04T15:00:00,1869A,109.1778,21.5233,北海市,北海工业园,,36,36,30,15,16,95,95,66,66,5,9,6,5,0.6,0.6
2023-10-04T15:00:00,1870A,109.4856,24.3895,柳州市,柳东小学,,42,36,38,24,26,133,132,95,95,6,12,8,12,0.5,0.5
2023-10-04T15:00:00,1871A,109.4157,24.3277,柳州市,环保监测站,,39,39,41,25,33,122,121,88,88,6,18,5,7,0.6,0.7
2023-10-04T15:00:00,1872A,109.389,24.341,柳州市,河西水厂,,40,32,48,25,28,128,125,88,88,8,20,7,9,0.4,0.8
2023-10-04T15:00:00,1873A,109.4311,24.2921,柳州市,市四中,,39,36,37,14,22,123,122,86,86,8,17,8,10,0.8,0.8
2023-10-04T15:00:00,1874A,109.4006,24.3631,柳州市,市九中,,40,36,47,22,28,128,128,89,89,8,20,6,8,0.6,0.7
2023-10-04T15:00:00,1875A,109.4958,24.3134,柳州市,古亭山,,41,41,34,21,20,111,107,82,82,6,20,6,8,0.4,0.5
2023-10-04T15:00:00,1876A,109.5078,18.2489,三亚市,河东子站,,21,19,22,10,11,76,66,65,65,5,5,4,3,0.3,0.3
2023-10-04T15:00:00,1877A,109.4964,18.2681,三亚市,河西子站,,21,20,21,11,10,83,66,64,64,2,4,3,3,0.4,0.4
2023-10-04T15:00:00,1878A,104.7778,31.4741,绵阳市,富乐山,,20,14,21,11,14,85,64,53,53,7,9,4,4,0.7,0.7
2023-10-04T15:00:00,1879A,104.7563,31.4535,绵阳市,市人大,,17,15,22,2,14,79,53,44,42,15,16,5,5,0.7,0.7
2023-10-04T15:00:00,1880A,104.6697,31.4668,绵阳市,高新区自来水公司,,19,16,18,10,15,89,58,48,45,10,13,7,7,0.7,0.7
2023-10-04T15:00:00,1881A,104.7287,31.5075,绵阳市,三水厂,,19,13,26,10,19,81,58,43,43,13,15,7,7,0.7,0.7
2023-10-04T15:00:00,1882A,104.563,28.793,宜宾市,石马中学,,,,,,,,,,,,,,,,
2023-10-04T15:00:00,1883A,104.6201,28.7728,宜宾市,市委,细颗粒物(PM2.5),54,48,43,38,30,64,58,54,28,14,22,7,7,0.7,0.8
2023-10-04T15:00:00,1884A,104.6055,28.793,宜宾市,宜宾四中,细颗粒物(PM2.5),58,51,50,41,33,65,59,58,31,11,24,6,5,0.8,0.8
2023-10-04T15:00:00,1885A,104.639,28.7562,宜宾市,市政府,细颗粒物(PM2.5),60,55,46,43,33,62,52,58,34,19,24,7,8,0.8,0.8
2023-10-04T15:00:00,1886A,104.5742,28.7199,宜宾市,黄金嘴,,46,44,42,32,27,60,60,52,31,13,22,8,9,0.6,0.6
2023-10-04T15:00:00,1888A,101.6891,26.571,攀枝花市,弄弄坪,,20,11,21,12,7,66,62,48,48,5,9,8,8,0.5,0.6
2023-10-04T15:00:00,1889A,101.5769,26.5928,攀枝花市,河门口,,23,14,29,7,11,82,72,49,49,7,16,8,13,0.7,1
2023-10-04T15:00:00,1890A,101.7169,26.585,攀枝花市,炳草岗,,25,7,21,7,8,78,78,53,53,6,15,3,7,0.5,0.6
2023-10-04T15:00:00,1891A,101.7369,26.5008,攀枝花市,仁和,,20,8,16,6,10,63,62,42,42,5,8,5,5,0.5,0.6
2023-10-04T15:00:00,1893A,105.4324,28.9634,泸州市,九狮山,,16,16,30,9,16,64,22,28,28,14,16,5,5,0.4,0.5
2023-10-04T15:00:00,1894A,105.4427,28.9063,泸州市,小市上码头,,30,22,35,21,22,84,41,31,31,12,15,5,5,0.5,0.6
2023-10-04T15:00:00,1895A,105.4241,28.8573,泸州市,兰田宪桥,,28,28,43,17,26,74,28,28,21,18,13,4,6,0.6,0.6
2023-10-04T15:00:00,1896A,105.4379,28.8833,泸州市,市环监站,,22,22,34,12,15,66,25,21,20,18,16,3,4,0.6,0.6
2023-10-04T15:00:00,1901A,104.4239,31.1208,德阳市,东山公园,,27,27,53,7,24,86,59,44,44,13,15,1,4,0.5,0.6
2023-10-04T15:00:00,1902A,104.3826,31.1317,德阳市,西小区,,30,30,42,9,23,84,62,47,47,7,12,3,6,0.6,0.7
2023-10-04T15:00:00,1904A,104.3553,31.1091,德阳市,耐火材料厂,,22,22,40,8,19,84,58,45,45,9,11,3,5,0.5,0.6
2023-10-04T15:00:00,1905A,106.056,30.8064,南充市,西山风景区,,10,5,10,3,7,59,30,33,24,4,5,2,6,0.5,0.5
2023-10-04T15:00:00,1906A,106.0789,30.8023,南充市,南充市委,,27,27,22,16,18,62,34,26,21,12,14,2,2,0.5,0.5
2023-10-04T15:00:00,1907A,106.1031,30.8217,南充市,南充炼油厂,,14,14,23,7,7,59,36,32,26,8,9,2,3,0.4,0.4
2023-10-04T15:00:00,1908A,106.1064,30.7856,南充市,高坪区监测站,,12,6,18,5,10,61,36,30,26,9,12,2,2,0.3,0.3
2023-10-04T15:00:00,1909A,106.0642,30.7636,南充市,嘉陵区环保局,,14,14,20,7,8,61,24,29,21,16,12,3,3,0.4,0.3
2023-10-04T15:00:00,1910A,106.1087,30.8388,南充市,市环境监测站,,20,5,18,14,15,58,38,30,27,9,10,3,3,0.4,0.4
2023-10-04T15:00:00,1911A,106.9222,27.6869,遵义市,丁字口,,28,21,22,19,15,86,79,52,52,14,12,5,4,0.7,0.7
2023-10-04T15:00:00,1912A,106.9242,27.7019,遵义市,凤凰山,,40,22,23,28,21,91,76,48,48,9,7,7,7,0.7,0.7
2023-10-04T15:00:00,1913A,106.8906,27.6486,遵义市,忠庄,,28,26,24,19,16,96,81,46,46,9,6,2,2,0.5,0.5
2023-10-04T15:00:00,1914A,106.9231,27.6506,遵义市,舟水桥,,27,27,21,6,15,96,81,51,51,6,5,2,1,0.5,0.5
2023-10-04T15:00:00,1915A,106.9178,27.72,遵义市,干田坝,,26,24,23,12,13,84,81,53,53,10,8,7,6,0.8,0.8
2023-10-04T15:00:00,1916A,103.7897,25.5035,曲靖市,环境监测站,,19,11,20,2,8,81,60,39,36,5,10,2,4,0.7,0.9
2023-10-04T15:00:00,1917A,103.8,25.5364,曲靖市,烟厂办公区,,20,11,17,4,8,84,63,44,38,5,9,4,5,0.5,0.5
2023-10-04T15:00:00,1918A,108.7197,34.3956,咸阳市,气象站,,,,,,,,,,,,,,,,
2023-10-04T15:00:00,1919A,108.673,34.3155,咸阳市,实验中学,,15,15,23,9,10,78,48,34,34,16,17,1,2,0.8,0.7
2023-10-04T15:00:00,1920A,108.7233,34.3617,咸阳市,师范学院,,19,16,22,13,11,86,50,39,39,14,18,3,3,0.4,0.5
2023-10-04T15:00:00,1922A,109.0656,35.0994,铜川市,党校,,26,14,34,7,21,83,83,38,38,12,24,7,7,0.5,0.8
2023-10-04T15:00:00,1923A,109.0697,35.0697,铜川市,王益区政府,,,,38,,27,76,,21,21,,31,,2,,0.6
2023-10-04T15:00:00,1924A,108.9344,34.9058,铜川市,新区管委会,,22,13,42,15,22,85,61,28,25,21,30,4,6,0.5,0.8
2023-10-04T15:00:00,1926A,109.4131,36.6275,延安市,枣园,,22,19,30,8,14,88,68,28,28,12,27,7,7,0.4,0.5
2023-10-04T15:00:00,1927A,109.4761,36.6028,延安市,延大医附院,,28,28,40,11,16,94,52,23,23,21,32,5,5,0.5,0.6
2023-10-04T15:00:00,1929A,109.5056,36.6106,延安市,百米大道,,26,26,46,10,20,89,60,20,20,22,37,2,5,0.5,0.7
2023-10-04T15:00:00,1930A,107.185,34.3063,宝鸡市,庙沟村,,19,16,15,10,10,68,60,40,40,14,14,8,8,0.4,0.5
2023-10-04T15:00:00,1931A,107.0708,34.3017,宝鸡市,竹园沟,,28,14,15,9,11,91,87,60,60,13,13,4,5,0.6,0.7
2023-10-04T15:00:00,1932A,107.1906,34.3672,宝鸡市,三陆医院,,25,10,24,8,17,82,77,49,49,18,28,7,7,0.5,0.8
2023-10-04T15:00:00,1933A,107.1431,34.3547,宝鸡市,监测站,,24,13,20,12,14,81,76,48,48,16,20,6,6,0.5,0.6
2023-10-04T15:00:00,1934A,107.1186,34.3739,宝鸡市,技工学校,,25,4,24,8,15,86,79,52,52,19,25,6,7,0.5,0.7
2023-10-04T15:00:00,1935A,107.3906,34.3528,宝鸡市,陈仓区环保局家属楼,,24,12,29,10,18,79,74,46,46,19,33,7,8,0.5,0.8
2023-10-04T15:00:00,1936A,107.2058,34.3497,宝鸡市,文理学院,,26,11,23,16,12,81,81,50,50,17,25,9,10,0.5,0.7
2023-10-04T15:00:00,1937A,107.2386,34.3622,宝鸡市,三迪小学,,27,9,25,10,17,84,84,53,53,12,28,5,6,0.4,0.7
2023-10-04T15:00:00,1938A,109.5293,34.5101,渭南市,农科所,,32,22,33,22,25,116,39,36,29,20,25,4,4,0.8,0.8
2023-10-04T15:00:00,1939A,109.4974,34.4877,渭南市,日报社,,32,19,33,22,27,112,45,35,29,25,34,4,5,0.7,0.7
2023-10-04T15:00:00,1940A,109.4636,34.493,渭南市,体育馆,,25,19,29,17,21,112,38,40,27,28,30,2,3,0.8,0.7
2023-10-04T15:00:00,1941A,109.4259,34.5023,渭南市,高新一小,,39,35,35,27,23,106,45,36,32,22,27,6,6,0.7,0.7
2023-10-04T15:00:00,1944A,102.1692,38.5167,金昌市,天庆家园,颗粒物(PM10),67,83,31,16,8,126,79,103,68,11,13,8,12,0.6,0.7
2023-10-04T15:00:00,1945A,98.2908,39.7711,嘉峪关市,气象局,,34,31,34,9,12,119,107,98,96,6,7,4,4,0.2,0.2
2023-10-04T15:00:00,1947A,106.3394,38.817,石嘴山市,沙湖旅游区,,34,29,71,0,18,164,106,80,80,5,26,10,31,0.5,1.1
2023-10-04T15:00:00,1948A,106.3668,39.0145,石嘴山市,大武口朝阳西街,,33,25,56,6,16,148,103,75,75,6,21,12,30,0.2,0.5
2023-10-04T15:00:00,1949A,106.7704,39.2282,石嘴山市,惠农南大街,,30,17,74,10,16,153,94,66,64,9,38,5,30,0.3,1
2023-10-04T15:00:00,1950A,106.7099,39.1325,石嘴山市,红果子镇惠新街,,31,20,63,4,12,161,98,75,75,9,27,4,6,0.2,0.6
2023-10-04T15:00:00,1951A,84.895,45.6094,克拉玛依市,长征新村,,35,35,17,7,5,92,92,86,54,6,12,9,9,0.2,0.2
2023-10-04T15:00:00,1952A,84.8988,45.5893,克拉玛依市,南林小区,,30,27,24,14,13,96,96,93,46,8,16,6,6,0.2,0.3
2023-10-04T15:00:00,1954A,84.905,44.3396,克拉玛依市,独山子区,,33,23,27,18,17,123,103,76,64,17,13,11,9,0.4,0.4
2023-10-04T15:00:00,1955A,85.6979,46.098,克拉玛依市,乌尔禾区商贸楼,,28,11,19,7,7,88,88,75,50,4,9,7,7,0.2,0.2
2023-10-04T15:00:00,1956A,86.1472,41.7538,巴音郭楞州,孔雀公园,颗粒物(PM10),59,67,86,22,26,107,100,57,57,7,43,9,12,0.4,0.6
2023-10-04T15:00:00,1957A,86.1972,41.7166,巴音郭楞州,棉纺厂,颗粒物(PM10),59,67,88,17,24,106,97,54,54,7,33,7,7,0.3,0.3
2023-10-04T15:00:00,1958A,86.2357,41.7173,巴音郭楞州,经济开发区,颗粒物(PM10),57,63,97,26,29,111,99,81,81,8,17,9,8,0.3,0.3
2023-10-04T15:00:00,1961A,117.532,36.6868,济南市,东山小学,颗粒物(PM10),62,73,54,32,26,138,138,111,111,20,28,8,6,0.6,0.6
2023-10-04T15:00:00,1966A,120.0405,35.8735,青岛市,黄岛区4号,颗粒物(PM10),59,68,45,34,22,170,166,137,137,23,22,10,9,0.7,0.6
2023-10-04T15:00:00,1982A,122.0693,37.2174,威海市,文登开发区,,46,46,39,12,15,161,108,115,115,8,16,8,9,0.6,0.7
2023-10-04T15:00:00,2031A,113.1817,27.9958,株洲市,云田中学,,41,41,26,25,15,44,35,32,32,16,15,6,6,0.9,0.8
2023-10-04T15:00:00,2054A,114.1099,32.1059,信阳市,平桥分局,,43,36,43,30,30,83,83,65,65,11,19,10,3,0.7,0.8
2023-10-04T15:00:00,2064A,113.9956,32.1271,信阳市,南湾水厂,,,,43,,27,76,69,52,46,10,11,4,3,,0.7
2023-10-04T15:00:00,2065A,114.0775,32.1195,信阳市,市酿酒公司,,40,40,44,21,24,78,77,58,58,14,20,9,3,0.8,0.9
2023-10-04T15:00:00,2066A,114.0609,32.1399,信阳市,审计局,,50,50,48,27,23,84,84,63,63,10,24,12,4,0.9,0.9
2023-10-04T15:00:00,2067A,114.6613,33.6128,周口市,市环境监测站,,33,33,54,22,27,117,95,64,64,13,27,7,9,0.4,0.4
2023-10-04T15:00:00,2068A,114.6758,33.6347,周口市,周口师范,,38,38,43,19,29,118,96,67,60,10,21,5,6,0.4,0.5
2023-10-04T15:00:00,2069A,114.6546,33.5979,周口市,市运管处,,47,47,55,21,26,118,94,65,65,12,21,6,8,0.4,0.4
2023-10-04T15:00:00,2070A,114.6369,33.6406,周口市,川汇区环保局,,38,38,47,25,28,118,92,60,60,18,29,10,11,0.3,0.4
2023-10-04T15:00:00,2075A,117.6336,24.4674,漳州市,九湖,,,,,,,,,,,,,,,,
2023-10-04T15:00:00,2160A,112.85,35.5051,晋城市,自来水公司,颗粒物(PM10),54,57,68,22,31,133,67,54,41,26,26,7,8,1.3,1.4
2023-10-04T15:00:00,2161A,112.8318,35.4936,晋城市,白云商贸,颗粒物(PM10),53,55,73,19,28,136,72,43,43,24,28,6,7,1.0,1.1
2023-10-04T15:00:00,2162A,112.8508,35.4887,晋城市,市环保局,颗粒物(PM10),59,68,66,27,32,135,59,46,43,31,29,8,8,1.2,1.2
2023-10-04T15:00:00,2163A,112.8676,35.4897,晋城市,技术学院,,48,48,59,22,28,134,60,46,40,31,36,6,6,1.0,1
2023-10-04T15:00:00,2165A,112.8453,35.546,晋城市,白马寺,,,,,,,,,,,,,,,,
2023-10-04T15:00:00,2166A,112.4397,39.3522,朔州市,平朔,,37,37,55,12,21,124,69,36,35,10,28,6,16,0.4,0.6
2023-10-04T15:00:00,2167A,112.4575,39.3617,朔州市,朔唯,,41,41,71,7,23,119,70,45,45,13,34,8,20,0.5,0.6
2023-10-04T15:00:00,2168A,112.4258,39.3197,朔州市,区政府,,34,34,56,9,25,125,78,64,64,9,29,8,16,0.5,0.6
2023-10-04T15:00:00,2169A,112.4072,39.3278,朔州市,市环保局,,35,35,63,2,23,123,80,54,54,9,29,10,18,0.4,0.6
2023-10-04T15:00:00,2170A,112.4272,39.3681,朔州市,市二中,,37,37,66,3,24,123,76,48,48,11,33,8,19,0.5,0.6
2023-10-04T15:00:00,2171A,112.7532,37.6945,晋中市,锦纶小区,颗粒物(PM10),52,53,90,26,43,165,94,58,58,23,42,11,10,0.4,0.7
2023-10-04T15:00:00,2173A,112.7249,37.7067,晋中市,南都小区,,46,46,100,31,49,168,92,60,60,20,51,15,11,0.4,0.8
2023-10-04T15:00:00,2174A,112.6991,37.6982,晋中市,榆次区政府,,34,34,83,16,48,165,85,56,56,23,45,17,11,0.5,0.8
2023-10-04T15:00:00,2175A,110.9956,35.0147,运城市,运城中学,颗粒物(PM10),56,61,52,35,33,105,47,50,47,15,17,5,7,1.1,0.9
2023-10-04T15:00:00,2178A,110.9686,35.0303,运城市,地区技校,细颗粒物(PM2.5),59,53,58,42,35,102,46,50,39,10,17,4,6,1.1,0.9
2023-10-04T15:00:00,2179A,111.0414,35.1147,运城市,空港新区,细颗粒物(PM2.5),77,71,72,56,49,122,61,36,36,14,22,5,7,0.8,0.8
2023-10-04T15:00:00,2181A,112.7383,38.4519,忻州市,开发区,,31,10,56,10,31,147,98,59,59,9,41,7,13,0.3,0.7
2023-10-04T15:00:00,2182A,112.7003,38.4928,忻州市,会展中心,,29,15,61,7,35,140,90,59,59,7,40,7,10,0.3,0.8
2023-10-04T15:00:00,2183A,111.1406,37.5211,吕梁市,环保局,颗粒物(PM10),56,62,60,28,19,93,54,29,29,41,40,8,4,1.0,0.6
2023-10-04T15:00:00,2185A,111.1297,37.5136,吕梁市,自来水公司,颗粒物(PM10),58,65,79,38,24,94,44,26,26,44,34,9,8,0.9,0.7
2023-10-04T15:00:00,2187A,106.8174,39.6973,乌海市,市林业局,,25,18,49,7,17,140,79,87,67,13,16,8,9,0.3,0.5
2023-10-04T15:00:00,2188A,106.7907,39.6667,乌海市,中海勃湾学校,,28,10,33,6,14,146,89,90,72,9,14,19,9,0.2,0.3
2023-10-04T15:00:00,2191A,122.2532,43.6801,通辽市,艺术职业学校,颗粒物(PM10),76,102,42,9,5,94,79,72,72,7,9,4,5,0.4,0.4
2023-10-04T15:00:00,2192A,119.7594,49.2261,呼伦贝尔市,区环保局,,21,20,23,12,21,68,67,62,62,7,7,5,5,0.2,0.3
2023-10-04T15:00:00,2195A,107.4212,40.761,巴彦淖尔市,附二中,,46,46,47,7,17,134,95,79,79,5,8,4,6,0.4,0.3
2023-10-04T15:00:00,2196A,107.37,40.7372,巴彦淖尔市,市环保大楼,颗粒物(PM10),55,59,47,10,16,131,98,78,78,5,10,5,5,0.4,0.4
2023-10-04T15:00:00,2197A,113.1306,40.9923,乌兰察布市,集宁新区,,25,22,23,6,13,117,80,73,73,2,9,6,6,0.2,0.4
2023-10-04T15:00:00,2200A,122.0392,46.0656,兴安盟,胜华新制药厂,,19,19,23,5,17,81,58,65,62,5,6,1,2,0.2,0.3
2023-10-04T15:00:00,2201A,121.9504,46.0741,兴安盟,科右前旗环保局,,19,18,24,10,20,84,59,68,64,4,5,3,3,0.3,0.3
2023-10-04T15:00:00,2202A,116.1042,43.9317,锡林郭勒盟,市环保监测站,,32,32,21,10,5,80,75,71,71,3,9,9,10,0.2,0.2
2023-10-04T15:00:00,2203A,116.0781,43.9311,锡林郭勒盟,市政府,,,19,21,4,3,84,79,77,77,,12,12,12,0.2,0.2
2023-10-04T15:00:00,2204A,105.6467,38.8363,阿拉善盟,西城区西花园,,40,40,36,12,16,129,117,102,102,12,12,16,11,0.8,0.6
2023-10-04T15:00:00,2205A,105.6985,38.8411,阿拉善盟,蒙二幼,,34,29,36,15,12,126,107,97,97,9,10,15,11,0.5,0.5
2023-10-04T15:00:00,2206A,105.724,38.8516,阿拉善盟,环保局新楼,,33,26,35,11,13,121,104,100,100,9,7,12,9,0.5,0.5
2023-10-04T15:00:00,2207A,121.6094,41.998,阜新市,工业园区,,42,42,35,4,9,139,81,73,73,9,13,2,4,0.4,0.4
2023-10-04T15:00:00,2208A,121.6697,42.0279,阜新市,长青街,,35,35,29,2,7,130,76,69,69,8,13,1,7,0.2,0.4
2023-10-04T15:00:00,2209A,121.6673,42.0705,阜新市,农业园区,,32,32,26,2,8,133,77,70,70,7,10,8,10,0.3,0.4
2023-10-04T15:00:00,2210A,121.6717,42.0224,阜新市,东苑,,37,37,32,3,8,126,77,70,70,6,8,5,8,0.4,0.7
2023-10-04T15:00:00,2211A,121.6506,42.0498,阜新市,玉龙新城,,36,36,34,9,6,136,82,74,74,8,15,6,7,0.3,0.5
2023-10-04T15:00:00,2212A,123.2,41.1953,辽阳市,宏伟区,,26,13,28,5,15,148,81,111,71,10,16,8,10,0.4,0.5
2023-10-04T15:00:00,2213A,123.1683,41.2495,辽阳市,新华园,,22,18,30,4,16,127,70,92,60,6,16,7,10,0.3,0.6
2023-10-04T15:00:00,2214A,123.2354,41.2639,辽阳市,滨河路,,24,18,29,11,17,137,75,106,65,3,11,7,10,0.5,0.7
2023-10-04T15:00:00,2215A,123.149,41.2991,辽阳市,铁西工业园,,24,24,36,13,20,145,76,94,66,6,15,7,13,0.4,0.9
2023-10-04T15:00:00,2216A,123.8139,42.3022,铁岭市,汇工街西,,37,37,28,5,10,132,74,70,66,4,10,5,8,0.3,0.4
2023-10-04T15:00:00,2217A,123.8649,42.2923,铁岭市,水上乐园,,37,37,28,2,8,145,75,72,70,6,10,9,8,0.2,0.3
2023-10-04T15:00:00,2218A,123.8486,42.2867,铁岭市,银州路东段,颗粒物(PM10),56,62,40,7,11,128,62,67,59,15,15,4,5,0.3,0.4
2023-10-04T15:00:00,2219A,123.7153,42.2217,铁岭市,金沙江路北,,,27,27,5,11,141,74,68,68,,10,,10,0.4,0.4
2023-10-04T15:00:00,2220A,120.4318,41.5881,朝阳市,西梁,,44,44,25,5,8,136,81,74,74,5,12,6,9,0.3,0.4
2023-10-04T15:00:00,2221A,120.4521,41.5646,朝阳市,河畔小区,颗粒物(PM10),58,66,27,6,10,139,81,77,77,7,13,7,13,0.3,0.4
2023-10-04T15:00:00,2222A,120.4176,41.5648,朝阳市,八里堡,颗粒物(PM10),59,67,42,9,11,126,78,71,71,5,14,7,10,0.5,0.6
2023-10-04T15:00:00,2223A,120.3806,41.5969,朝阳市,农业园区,,44,44,22,6,8,130,78,69,69,3,16,4,5,0.4,0.5
2023-10-04T15:00:00,2225A,124.4002,43.1713,四平市,一商场,,35,35,38,12,10,134,63,55,55,8,10,2,4,0.3,0.2
2023-10-04T15:00:00,2226A,124.388,43.193,四平市,境园,,49,49,37,10,14,129,64,60,60,9,10,7,6,1.6,1.4
2023-10-04T15:00:00,2227A,125.1358,42.8845,辽源市,环保局,,25,22,23,5,11,155,77,78,71,4,5,5,8,0.4,0.5
2023-10-04T15:00:00,2229A,125.9358,41.7173,通化市,光明,,24,12,14,11,5,98,75,97,70,5,7,7,8,0.3,0.2
2023-10-04T15:00:00,2230A,125.9446,41.7325,通化市,铁路,,25,11,13,10,8,102,79,102,70,2,7,5,6,0.3,0.3
2023-10-04T15:00:00,2231A,126.4219,41.9171,白山市,喜丰,,24,22,24,6,8,104,74,82,63,9,10,8,9,0.5,0.6
2023-10-04T15:00:00,2232A,126.4077,41.9419,白山市,环保局,,25,12,26,4,10,98,78,94,61,5,14,8,10,0.5,0.6
2023-10-04T15:00:00,2233A,124.8006,45.1214,松原市,江南,,31,31,30,6,11,138,68,65,65,4,9,6,7,0.3,0.4
2023-10-04T15:00:00,2234A,124.7965,45.1722,松原市,江北,,29,29,25,7,10,131,58,61,61,4,6,3,3,0.4,0.4
2023-10-04T15:00:00,2235A,122.7911,45.6077,白城市,洮北区环保局,,21,21,18,5,10,109,62,70,70,12,12,5,6,0.3,0.4
2023-10-04T15:00:00,2236A,122.8738,45.5725,白城市,市环保局,,31,31,29,3,8,110,66,72,72,3,6,6,7,0.3,0.4
2023-10-04T15:00:00,2237A,129.47,42.8883,延边朝鲜族自治州,妇幼医院,,25,10,23,4,12,93,79,54,54,8,16,6,6,0.4,0.5
2023-10-04T15:00:00,2238A,129.5055,42.9108,延边朝鲜族自治州,延边医院,颗粒物(PM10),56,61,32,6,15,92,83,59,50,8,20,7,7,0.4,0.6
2023-10-04T15:00:00,2239A,129.3964,42.8881,延边朝鲜族自治州,朝阳川镇医院,,28,14,27,2,13,101,87,57,57,4,13,7,7,0.4,0.5
2023-10-04T15:00:00,2240A,130.9762,45.3001,鸡西市,环保局,,17,17,24,4,9,75,50,72,52,7,14,4,5,0.1,0.4
2023-10-04T15:00:00,2243A,130.9429,45.3039,鸡西市,第一中学,,21,10,28,4,10,80,66,78,69,6,13,5,7,0.1,0.2
2023-10-04T15:00:00,2244A,130.2537,47.3416,鹤岗市,哈啤分公司,,19,15,22,12,14,73,58,59,59,5,12,14,11,0.2,0.2
2023-10-04T15:00:00,2245A,130.2684,47.3086,鹤岗市,斯达机电,,25,21,24,17,16,73,59,55,55,5,10,10,8,0.3,0.3
2023-10-04T15:00:00,2246A,130.3114,47.3388,鹤岗市,东山纸板厂,,23,23,47,11,14,73,59,56,56,5,17,13,11,0.3,0.3
2023-10-04T15:00:00,2247A,130.1097,47.3382,鹤岗市,五号水库,,20,9,14,10,14,79,62,66,66,5,9,14,11,0.2,0.2
2023-10-04T15:00:00,2248A,131.1511,46.6937,双鸭山市,双合村,,23,15,22,5,8,73,71,68,68,2,9,8,9,0.1,0.2
2023-10-04T15:00:00,2249A,131.1652,46.6191,双鸭山市,南小市,,22,19,26,7,11,80,68,80,66,4,9,6,6,0.2,0.2
2023-10-04T15:00:00,2250A,131.1524,46.6554,双鸭山市,环保局,,22,14,27,15,12,68,55,60,51,11,16,6,7,0.1,0.3
2023-10-04T15:00:00,2251A,131.12,46.5656,双鸭山市,苗圃,,30,10,13,14,13,101,95,101,94,3,4,3,3,0.1,0.2
2023-10-04T15:00:00,2252A,128.5159,47.4311,伊春市,环保局,,18,15,13,1,6,74,55,62,60,8,6,6,6,0.3,0.3
2023-10-04T15:00:00,2253A,128.9102,47.7412,伊春市,电力嘉园,,22,11,15,15,11,69,65,65,65,3,10,6,9,0.3,0.4
2023-10-04T15:00:00,2254A,129.5029,48.471,伊春市,汤旺河国家公园,,18,16,19,9,11,68,56,59,50,3,6,7,7,0.2,0.2
2023-10-04T15:00:00,2255A,130.2751,46.8028,佳木斯市,佳纺,,18,11,27,6,12,69,57,65,59,10,18,2,2,0.4,0.6
2023-10-04T15:00:00,2256A,130.3995,46.8307,佳木斯市,发电厂,,20,6,20,5,10,61,61,58,57,5,14,3,4,0.5,0.6
2023-10-04T15:00:00,2257A,130.3258,46.7975,佳木斯市,环保局,,20,8,20,4,8,76,62,69,58,4,15,4,4,0.2,0.4
2023-10-04T15:00:00,2258A,130.3648,46.8032,佳木斯市,十一中,,19,14,19,6,11,68,59,62,56,9,18,3,3,0.4,0.5
2023-10-04T15:00:00,2259A,130.3794,46.7588,佳木斯市,四丰,,24,7,12,3,6,83,75,73,70,2,4,1,1,0.1,0.2
2023-10-04T15:00:00,2262A,131.0518,45.8751,七台河市,新一中,,27,8,12,4,8,92,86,87,87,3,7,7,8,0.6,0.7
2023-10-04T15:00:00,2263A,127.4833,50.2524,黑河市,交通局,,13,5,23,7,11,75,41,74,45,9,16,4,7,0.2,0.3
2023-10-04T15:00:00,2264A,127.5144,50.2341,黑河市,环保局,,15,15,24,6,10,73,37,68,34,4,10,3,5,0.3,0.3
2023-10-04T15:00:00,2265A,127.5291,50.2472,黑河市,大黑河岛,,,33,29,19,17,,,,,1,2,13,2,,
2023-10-04T15:00:00,2266A,126.9785,46.6365,绥化市,人和东街,,12,10,12,8,8,84,36,62,45,10,9,2,2,0.3,0.4
2023-10-04T15:00:00,2267A,126.964,46.6528,绥化市,党政办公中心,,13,13,14,6,8,86,37,62,45,7,7,6,6,0.4,0.5
2023-10-04T15:00:00,2269A,124.1069,50.4097,大兴安岭地区,科技局,,23,18,14,16,15,77,60,60,54,3,3,5,5,0.1,0.1
2023-10-04T15:00:00,2270A,117.396,32.939,蚌埠市,工人疗养院,,40,30,31,16,11,125,125,96,96,4,12,3,3,0.3,0.4
2023-10-04T15:00:00,2271A,117.3605,32.9427,蚌埠市,百货大楼,,39,37,31,11,10,124,124,98,98,8,13,4,4,0.3,0.4
2023-10-04T15:00:00,2273A,117.4185,32.8911,蚌埠市,蚌埠学院,,40,29,23,16,13,127,127,88,88,7,18,4,5,0.3,0.3
2023-10-04T15:00:00,2274A,117.3533,32.9673,蚌埠市,淮上区政府,,39,34,26,18,18,122,122,96,96,6,18,5,5,0.3,0.3
2023-10-04T15:00:00,2275A,117.3145,32.8977,蚌埠市,高新区,,40,24,20,14,13,127,127,102,102,9,16,4,4,0.4,0.5
2023-10-04T15:00:00,2277A,116.8305,32.7727,淮南市,潘集区政府,,34,29,29,17,18,114,107,82,82,10,17,5,7,0.2,0.3
2023-10-04T15:00:00,2278A,117.0067,32.6524,淮南市,师范学院,,37,36,29,21,18,116,116,82,82,9,16,6,10,0.2,0.3
2023-10-04T15:00:00,2279A,116.8569,32.5951,淮南市,谢家集区政府,,40,20,20,6,8,125,125,88,88,11,21,5,8,0.2,0.3
2023-10-04T15:00:00,2280A,116.8281,32.633,淮南市,八公山区政府,,37,27,32,14,17,118,117,83,83,8,14,8,9,0.1,0.3
2023-10-04T15:00:00,2281A,116.6325,32.6201,淮南市,焦岗湖风景区管理处,,35,15,26,13,16,259,110,114,114,4,14,2,1,0.2,0.3
2023-10-04T15:00:00,2282A,116.8004,33.975,淮北市,监测站,,50,46,36,35,22,113,113,79,79,20,22,9,7,0.6,0.5
2023-10-04T15:00:00,2283A,116.8091,33.9007,淮北市,烈山区政府,颗粒物(PM10),59,67,53,33,26,127,127,96,96,11,27,7,7,0.5,0.4
2023-10-04T15:00:00,2285A,117.8177,30.9412,铜陵市,市第四中学,,27,25,34,14,19,86,86,54,54,6,13,6,6,0.6,0.6
2023-10-04T15:00:00,2286A,117.8059,30.9273,铜陵市,市公路局,,30,23,35,21,21,94,94,58,58,10,16,6,6,0.6,0.7
2023-10-04T15:00:00,2287A,117.7807,30.9413,铜陵市,市新民污水厂,,31,29,41,8,15,97,97,54,54,9,23,9,7,0.5,0.5
2023-10-04T15:00:00,2288A,117.7439,30.8792,铜陵市,市第九中学,,36,36,46,13,20,89,89,59,59,12,18,6,4,1.1,0.8
2023-10-04T15:00:00,2289A,117.846,30.9413,铜陵市,车站新区,,,23,34,11,24,92,92,59,59,10,14,5,3,,0.5
2023-10-04T15:00:00,2290A,117.8483,30.97,铜陵市,市职教基地,,29,16,29,6,12,92,92,56,56,7,12,6,6,0.6,0.7
2023-10-04T15:00:00,2291A,117.0809,30.5177,安庆市,环科院,,32,32,30,14,24,91,91,60,60,16,14,8,6,0.8,0.8
2023-10-04T15:00:00,2292A,117.0331,30.5119,安庆市,马山宾馆,,38,38,30,15,23,91,91,65,65,17,16,6,5,0.8,0.8
2023-10-04T15:00:00,2294A,116.9896,30.6145,安庆市,安庆大学,,30,30,30,15,28,85,78,63,63,19,14,7,5,0.7,0.6
2023-10-04T15:00:00,2295A,118.2903,29.6963,黄山市,延安路89号,,22,19,33,8,8,95,70,55,55,5,6,4,4,0.4,0.4
2023-10-04T15:00:00,2296A,118.327,29.7178,黄山市,黄山东路89号,,22,16,28,6,8,89,68,52,52,6,7,4,5,0.5,0.5
2023-10-04T15:00:00,2297A,118.1371,30.2756,黄山市,黄山区政府5号楼,,29,29,23,15,11,52,51,33,33,12,9,6,6,0.6,0.6
2023-10-04T15:00:00,2298A,118.3093,32.3153,滁州市,老年大学,,41,22,20,6,10,129,129,94,94,10,15,8,8,0.2,0.3
2023-10-04T15:00:00,2299A,118.3244,32.2786,滁州市,人大宾馆,,41,16,23,10,14,129,129,98,98,5,12,6,7,0.2,0.3
2023-10-04T15:00:00,2301A,115.8277,32.8929,阜阳市,市监测站,,31,17,35,15,22,99,98,83,83,12,23,7,7,0.4,0.5
2023-10-04T15:00:00,2303A,115.8554,32.8605,阜阳市,开发区,,30,16,44,15,35,97,96,78,78,16,32,7,8,0.4,0.7
2023-10-04T15:00:00,2307A,116.5079,31.737,六安市,监测大楼,,26,26,23,9,11,87,80,57,57,15,17,6,5,0.7,0.7
2023-10-04T15:00:00,2308A,116.4738,31.7643,六安市,皖西学院,,37,37,29,7,10,90,88,60,60,11,13,11,10,0.5,0.5
2023-10-04T15:00:00,2309A,116.4996,31.7905,六安市,朝阳厂,,27,19,20,15,13,91,86,59,59,10,13,7,7,0.5,0.5
2023-10-04T15:00:00,2310A,116.5567,31.7886,六安市,开发区,,38,38,33,11,15,81,76,53,53,8,11,6,5,0.5,0.5
2023-10-04T15:00:00,2311A,115.8072,33.8399,亳州市,污水处理厂,,44,44,48,26,32,112,98,74,74,10,21,9,13,0.6,0.6
2023-10-04T15:00:00,2312A,115.7789,33.8518,亳州市,三国揽胜宫,,44,44,42,24,26,111,105,75,75,7,19,8,8,0.3,0.3
2023-10-04T15:00:00,2314A,117.47,30.6618,池州市,池州学院,,26,21,31,10,21,82,82,51,51,16,15,7,5,0.6,0.7
2023-10-04T15:00:00,2316A,118.7581,30.9454,宣城市,鳌峰子站,,26,19,27,13,18,83,83,52,50,14,17,5,4,0.7,0.8
2023-10-04T15:00:00,2317A,118.7385,30.9743,宣城市,敬亭山子站,,27,22,24,12,19,85,85,51,51,20,28,7,6,0.5,0.6
2023-10-04T15:00:00,2318A,118.7173,30.9427,宣城市,开发区子站,,26,20,26,10,18,81,81,47,43,19,23,6,5,0.7,0.7
2023-10-04T15:00:00,2319A,119.0141,25.4325,莆田市,荔城区仓后路,,40,36,35,23,16,132,125,106,106,8,8,7,7,0.7,0.6
2023-10-04T15:00:00,2320A,119.0015,25.4553,莆田市,莆田市监测站,,38,38,33,17,15,129,116,104,104,3,5,7,7,0.6,0.6
2023-10-04T15:00:00,2321A,119.1119,25.4561,莆田市,涵江区六中,,43,34,37,19,17,137,135,116,116,6,7,8,7,0.7,0.7
2023-10-04T15:00:00,2322A,119.1013,25.3215,莆田市,秀屿区政府,颗粒物(PM10),71,92,57,26,20,132,128,116,116,8,8,7,7,0.7,0.7
2023-10-04T15:00:00,2323A,118.981,25.4792,莆田市,东圳水库,,,,,,,,,,,,,,,,
2023-10-04T15:00:00,2324A,117.6211,26.2625,三明市,三钢,细颗粒物(PM2.5),57,25,38,40,25,91,84,64,64,4,14,7,10,0.4,0.5
2023-10-04T15:00:00,2325A,117.635,26.2714,三明市,三明二中,,28,28,30,16,22,91,85,66,66,8,17,4,4,0.6,0.7
2023-10-04T15:00:00,2326A,117.6028,26.2378,三明市,三元区政府,,27,25,43,12,24,93,85,64,64,7,16,8,14,0.5,0.8
2023-10-04T15:00:00,2327A,117.7275,26.3108,三明市,洋溪,,,,,,,,,,,,,,,,
2023-10-04T15:00:00,2331A,118.0966,26.6761,南平市,茫荡山,,,,,,,,,,,,,,,,
2023-10-04T15:00:00,2332A,118.1681,26.6369,南平市,南平市监测站,,28,18,28,19,20,95,83,74,74,3,10,4,4,0.6,0.7
2023-10-04T15:00:00,2333A,118.1825,26.6489,南平市,南平铝业有限公司,,26,23,30,15,22,96,83,73,73,5,12,4,5,0.7,0.8
2023-10-04T15:00:00,2334A,118.1756,26.6272,南平市,南平七中,,28,10,30,15,22,101,88,70,70,3,11,5,4,0.6,0.7
2023-10-04T15:00:00,2335A,117.0189,25.1181,龙岩市,龙岩师专,,,,,,,,,,,,,,,,
2023-10-04T15:00:00,2336A,117.0217,25.1033,龙岩市,龙岩市监测站,,28,24,31,16,21,96,89,68,68,7,13,3,5,0.5,0.6
2023-10-04T15:00:00,2337A,117.0258,25.0661,龙岩市,闽西职业技术学院,,27,25,36,16,19,92,84,69,69,5,16,4,10,0.5,0.6
2023-10-04T15:00:00,2338A,117.0196,25.0306,龙岩市,龙岩学院,,29,29,29,16,19,92,87,64,64,4,11,2,5,0.6,0.7
2023-10-04T15:00:00,2339A,119.5001,26.6946,宁德市,金涵水库,,,,,,,,,,,,,,,,
2023-10-04T15:00:00,2341A,119.5388,26.6612,宁德市,宁德市监测站,,44,37,32,19,16,140,140,105,105,9,11,5,5,0.5,0.5
2023-10-04T15:00:00,2342A,117.3102,29.3867,景德镇市,王港中学,,15,9,22,8,12,70,47,38,38,3,4,4,4,0.2,0.3
2023-10-04T15:00:00,2343A,117.2117,29.2933,景德镇市,老干部活动中心,,19,19,23,5,14,60,47,40,40,6,8,5,6,0.5,0.5
2023-10-04T15:00:00,2344A,117.1894,29.2789,景德镇市,兽医站,,23,10,23,16,20,60,46,39,39,4,7,8,7,0.4,0.3
2023-10-04T15:00:00,2345A,117.1547,29.2617,景德镇市,台达陶瓷,,15,10,24,9,15,52,46,39,39,11,9,8,7,0.4,0.4
2023-10-04T15:00:00,2346A,117.2461,29.2956,景德镇市,陶研所,,24,24,36,2,9,57,43,36,36,5,5,5,10,0.4,0.4
2023-10-04T15:00:00,2347A,114.0997,27.5002,萍乡市,武功山,,14,9,20,6,13,58,43,30,30,8,8,12,11,0.7,0.8
2023-10-04T15:00:00,2348A,113.8385,27.6434,萍乡市,中医院,颗粒物(PM10),54,58,48,35,34,40,19,15,15,25,24,26,30,1.2,1.3
2023-10-04T15:00:00,2349A,113.8493,27.6253,萍乡市,市政府车库,,45,45,37,22,24,42,25,20,20,23,19,22,23,1.2,0.7
2023-10-04T15:00:00,2350A,113.8676,27.6435,萍乡市,市环保局,,47,47,39,28,26,47,24,18,18,24,23,18,23,1.2,1
2023-10-04T15:00:00,2351A,113.866,27.6198,萍乡市,安源区政府,,40,40,33,21,21,44,35,24,24,20,18,20,22,1.1,0.6
2023-10-04T15:00:00,2352A,115.0861,27.9317,新余市,北岗,,22,21,32,14,24,104,70,59,49,8,12,22,22,0.6,0.7
2023-10-04T15:00:00,2353A,114.9886,27.8431,新余市,飞宇,,46,46,54,22,30,106,74,55,50,11,16,11,15,0.5,0.6
2023-10-04T15:00:00,2354A,114.9231,27.8246,新余市,第二水厂,颗粒物(PM10),51,51,56,28,28,120,66,66,52,16,16,12,11,0.7,0.7
2023-10-04T15:00:00,2355A,114.9308,27.8036,新余市,市气象局,颗粒物(PM10),51,52,49,28,33,106,62,59,50,17,16,18,16,0.8,0.9
2023-10-04T15:00:00,2357A,116.9822,28.1136,鹰潭市,龙虎山,,38,38,42,2,11,114,43,39,32,8,7,8,8,0.0,0.1
2023-10-04T15:00:00,2358A,117.0564,28.2642,鹰潭市,新监测站,颗粒物(PM10),52,54,42,35,26,116,51,37,32,19,6,7,5,0.6,0.5
2023-10-04T15:00:00,2359A,117.0311,28.2475,鹰潭市,财苑宾馆,颗粒物(PM10),58,65,49,34,28,117,39,34,29,16,9,9,23,0.5,0.4
2023-10-04T15:00:00,2360A,117.0222,28.2264,鹰潭市,体育馆,,46,46,45,28,28,115,42,35,29,12,8,16,20,0.6,0.6
2023-10-04T15:00:00,2361A,117.0017,28.2131,鹰潭市,三川水表,颗粒物(PM10),51,51,46,34,29,113,38,34,26,14,10,18,12,0.7,0.7
2023-10-04T15:00:00,2362A,114.9017,25.9149,赣州市,通天岩,,,,,,,,,,,,,,,,
2023-10-04T15:00:00,2363A,114.9367,25.8664,赣州市,地委,,41,41,55,24,37,80,75,75,75,5,6,14,16,1.3,1.3
2023-10-04T15:00:00,2364A,114.9461,25.8481,赣州市,气象台,,42,42,50,29,37,84,82,78,78,9,12,5,10,0.8,0.9
2023-10-04T15:00:00,2365A,114.9322,25.8333,赣州市,市图书馆,细颗粒物(PM2.5),57,51,68,40,38,80,80,77,77,7,10,12,14,1.7,1.4
2023-10-04T15:00:00,2366A,114.8905,25.8471,赣州市,华坚鞋城,颗粒物(PM10),51,51,50,33,37,85,77,78,78,10,9,6,6,1.1,1.1
2023-10-04T15:00:00,2367A,114.9754,27.0803,吉安市,红声器材厂,,44,44,53,27,36,106,93,83,70,9,12,23,9,0.9,1
2023-10-04T15:00:00,2368A,114.9658,27.0999,吉安市,市森林工业局,,43,43,56,24,34,111,95,85,69,4,11,12,13,0.9,0.5
2023-10-04T15:00:00,2369A,114.99,27.1312,吉安市,市环境监测站,,36,36,52,22,32,103,86,80,67,10,13,8,9,0.8,0.8
2023-10-04T15:00:00,2370A,115.0093,27.0968,吉安市,青原区法院,,45,45,52,28,36,109,93,82,69,12,15,11,12,0.9,0.9
2023-10-04T15:00:00,2371A,114.3408,27.8064,宜春市,槟榔水业,,39,39,56,21,34,77,28,14,14,18,31,18,15,0.6,0.8
2023-10-04T15:00:00,2373A,114.3956,27.7844,宜春市,市石油公司,,49,49,66,31,41,69,23,18,18,22,29,8,16,1.1,1.5
2023-10-04T15:00:00,2374A,114.3703,27.7914,宜春市,市气象局,细颗粒物(PM2.5),52,49,64,36,42,77,27,19,19,17,26,11,14,1.3,1.8
2023-10-04T15:00:00,2375A,114.4013,27.8074,宜春市,市广电局,,46,46,59,24,41,83,29,20,19,22,16,19,22,0.8,1.1
2023-10-04T15:00:00,2376A,116.2127,28.0814,抚州市,桐源党溪,,30,30,37,18,24,97,47,47,47,2,2,2,2,0.9,0.8
2023-10-04T15:00:00,2377A,116.3544,27.9831,抚州市,市站,颗粒物(PM10),52,54,48,33,30,110,51,53,49,12,10,5,5,0.9,0.8
2023-10-04T15:00:00,2378A,116.3565,27.963,抚州市,血防站,颗粒物(PM10),52,53,49,30,29,105,48,50,46,8,8,2,2,0.9,0.8
2023-10-04T15:00:00,2379A,116.3564,28.0007,抚州市,采茶剧团,,43,42,43,30,29,107,44,46,44,8,6,4,4,1.1,1
2023-10-04T15:00:00,2380A,116.385,27.9647,抚州市,医学分院,,41,41,42,23,26,114,48,50,47,9,8,5,5,0.9,0.9
2023-10-04T15:00:00,2381A,118.005,28.4572,上饶市,百草园,,,35,43,26,23,114,88,64,64,10,14,,,,
2023-10-04T15:00:00,2382A,117.9756,28.4436,上饶市,市监测站,,35,35,54,21,30,137,108,82,82,9,16,10,11,0.3,0.4
2023-10-04T15:00:00,2383A,117.9519,28.4628,上饶市,凤凰光学,,38,38,50,16,25,130,104,80,80,7,14,3,4,0.5,0.6
2023-10-04T15:00:00,2385A,114.17,35.9019,鹤壁市,市监测站,颗粒物(PM10),84,118,78,61,51,160,77,58,53,45,34,13,12,1.6,1.1
2023-10-04T15:00:00,2386A,114.2956,35.7511,鹤壁市,市交警支队,细颗粒物(PM2.5),89,110,76,66,42,150,93,71,53,37,31,19,10,1.5,0.9
2023-10-04T15:00:00,2387A,114.2878,35.7306,鹤壁市,迎宾馆,细颗粒物(PM2.5),100,104,70,75,48,153,94,73,59,40,33,19,12,1.6,0.9
2023-10-04T15:00:00,2389A,113.836,35.311,新乡市,环保西院,细颗粒物(PM2.5),79,59,71,58,41,144,38,46,31,52,39,17,8,1.5,0.8
2023-10-04T15:00:00,2390A,113.884,35.272,新乡市,开发区,细颗粒物(PM2.5),79,88,56,58,37,138,65,60,38,42,31,12,6,1.9,1.1
2023-10-04T15:00:00,2391A,113.883,35.303,新乡市,环保东院,细颗粒物(PM2.5),80,106,77,59,40,136,56,55,33,48,38,13,8,1.5,0.8
2023-10-04T15:00:00,2392A,115.0312,35.7636,濮阳市,环保局,细颗粒物(PM2.5),75,74,51,55,39,127,56,84,64,31,21,7,5,0.6,0.5
2023-10-04T15:00:00,2394A,115.0574,35.7609,濮阳市,油田运输公司,颗粒物(PM10),78,106,78,55,42,141,71,74,62,27,19,7,4,0.6,0.5
2023-10-04T15:00:00,2395A,115.0866,35.7754,濮阳市,油田物探公司,细颗粒物(PM2.5),95,103,83,71,44,146,70,71,52,31,26,8,5,0.5,0.5
2023-10-04T15:00:00,2396A,113.8276,34.0159,许昌市,监测站,颗粒物(PM10),51,52,57,34,37,131,86,65,49,20,30,4,6,0.7,0.7
2023-10-04T15:00:00,2398A,113.7906,33.9953,许昌市,开发区,细颗粒物(PM2.5),65,45,56,47,47,129,90,56,45,13,27,5,5,0.5,0.6
2023-10-04T15:00:00,2399A,114.051,33.5699,漯河市,三五一五工厂,,42,42,55,21,29,147,90,62,62,8,24,8,8,0.5,0.6
2023-10-04T15:00:00,2400A,114.0055,33.5698,漯河市,漯河大学,,40,40,49,25,29,148,91,67,67,17,27,5,4,0.4,0.5
2023-10-04T15:00:00,2401A,114.0138,33.5828,漯河市,市水利局,,44,44,56,27,35,143,92,64,64,10,20,8,8,0.4,0.5
2023-10-04T15:00:00,2402A,114.0261,33.5698,漯河市,市广电局,,44,44,56,28,34,143,88,68,68,13,23,4,3,0.6,0.7
2023-10-04T15:00:00,2404A,112.5224,33.0122,南阳市,瓦房庄,颗粒物(PM10),51,52,41,33,28,124,49,69,43,27,25,5,5,0.7,0.6
2023-10-04T15:00:00,2405A,112.5003,32.9735,南阳市,汉画馆,,42,42,36,28,25,149,55,70,40,23,20,5,4,0.8,0.7
2023-10-04T15:00:00,2406A,112.5573,33.027,南阳市,气象站,,,35,27,,10,122,48,63,38,23,19,8,8,0.7,0.6
2023-10-04T15:00:00,2407A,112.5481,32.9689,南阳市,理工学院,,48,39,36,33,28,134,64,62,41,14,19,7,7,0.7,0.6
2023-10-04T15:00:00,2408A,115.6702,34.4285,商丘市,环境监测站,颗粒物(PM10),54,57,48,29,27,112,79,62,47,14,18,7,6,0.4,0.5
2023-10-04T15:00:00,2409A,115.6458,34.4045,商丘市,粮食局,,48,48,39,30,27,114,78,61,59,18,16,9,7,0.6,0.6
2023-10-04T15:00:00,2410A,115.6293,34.3948,商丘市,睢阳区环保局,颗粒物(PM10),55,59,57,28,29,116,86,65,65,14,26,9,8,0.4,0.4
2023-10-04T15:00:00,2420A,114.0189,32.9656,驻马店市,市一纸厂,,36,32,51,25,34,114,81,66,66,11,20,8,6,0.4,0.5
2023-10-04T15:00:00,2421A,114.0114,33.015,驻马店市,市彩印厂,,40,39,47,28,32,115,78,60,60,11,15,7,6,0.3,0.4
2023-10-04T15:00:00,2422A,113.9976,32.9771,驻马店市,天方二分厂,,34,34,45,22,38,111,78,65,65,11,16,7,6,0.3,0.4
2023-10-04T15:00:00,2423A,115.0601,30.2313,黄石市,沈家营,,38,38,44,9,16,49,45,35,35,12,14,4,5,0.4,0.6
2023-10-04T15:00:00,2424A,115.0817,30.2006,黄石市,陈家湾,,22,22,45,9,21,39,35,31,31,21,11,5,6,0.4,0.7
2023-10-04T15:00:00,2426A,114.8988,30.2019,黄石市,铁山,,20,20,37,5,22,50,49,29,29,10,20,9,10,0.6,1.1
2023-10-04T15:00:00,2427A,115.0307,30.2092,黄石市,团城山,,43,43,44,7,15,50,47,35,35,11,14,7,6,0.5,0.9
2023-10-04T15:00:00,2428A,111.0419,32.395,十堰市,武当山,,30,5,7,2,4,96,96,76,76,5,6,9,9,0.7,0.7
2023-10-04T15:00:00,2429A,110.78,32.6494,十堰市,滨河新村,,25,14,32,11,16,90,78,42,42,12,23,7,7,0.6,0.9
2023-10-04T15:00:00,2430A,110.7258,32.6389,十堰市,刘家沟,,24,7,17,9,6,87,74,42,42,5,6,6,6,0.8,0.9
2023-10-04T15:00:00,2431A,110.8839,32.5714,十堰市,铁二处,,29,9,14,8,8,100,90,48,48,6,5,6,6,0.6,0.6
2023-10-04T15:00:00,2432A,112.155,32.0197,襄阳市,襄城运动路,,32,30,37,22,21,87,79,62,62,17,25,8,8,0.6,0.7
2023-10-04T15:00:00,2433A,112.1392,32.0564,襄阳市,樊城新华路,,32,32,40,21,26,90,79,62,62,17,30,8,9,0.5,0.6
2023-10-04T15:00:00,2434A,112.1825,32.1142,襄阳市,高新管委会,,43,22,38,30,42,95,78,64,64,17,28,6,7,0.8,0.9
2023-10-04T15:00:00,2435A,112.2106,32.0903,襄阳市,襄州航空路,,26,26,38,17,29,86,79,70,70,15,26,8,8,0.6,0.7
2023-10-04T15:00:00,2436A,114.8938,30.3994,鄂州市,市政府,,24,24,30,9,10,47,47,36,36,10,17,3,4,0.5,0.5
2023-10-04T15:00:00,2437A,114.8989,30.3714,鄂州市,赵家坝,,26,26,26,7,12,48,48,34,34,14,20,4,4,0.6,0.7
2023-10-04T15:00:00,2439A,112.2014,31.0481,荆门市,竹园小学,细颗粒物(PM2.5),60,43,48,43,33,98,70,54,41,13,15,7,9,0.6,0.6
2023-10-04T15:00:00,2440A,112.1969,30.9891,荆门市,掇刀,细颗粒物(PM2.5),57,54,46,40,30,93,72,66,51,12,14,5,7,0.5,0.6
2023-10-04T15:00:00,2441A,112.2213,31.0386,荆门市,石化一小,细颗粒物(PM2.5),57,52,49,40,31,96,71,60,41,14,14,4,5,0.4,0.5
2023-10-04T15:00:00,2443A,113.9153,30.9285,孝感市,文化路,,26,20,29,18,20,78,58,52,44,10,11,7,8,0.7,0.7
2023-10-04T15:00:00,2444A,113.942,30.9075,孝感市,东城区,,19,15,30,12,17,79,60,51,46,10,9,12,7,0.7,0.7
2023-10-04T15:00:00,2446A,114.9028,30.4742,黄冈市,职工中心,,31,31,32,15,17,64,64,49,49,2,6,10,8,0.8,0.8
2023-10-04T15:00:00,2447A,114.3175,29.8142,咸宁市,森林公园,,18,16,18,12,10,42,38,35,30,3,5,7,7,0.7,0.9
2023-10-04T15:00:00,2448A,114.3107,29.8454,咸宁市,市发改委,,,,35,,23,54,48,40,35,10,10,,7,0.8,1
2023-10-04T15:00:00,2449A,114.2936,29.8566,咸宁市,咸安区政府,,29,26,38,20,26,54,44,45,35,15,14,7,6,0.7,0.8
2023-10-04T15:00:00,2451A,113.3583,31.7275,随州市,市委党校,,45,42,45,31,33,90,70,53,53,6,9,7,6,0.5,0.6
2023-10-04T15:00:00,2452A,113.3833,31.6908,随州市,市林业局,,43,36,37,30,27,85,66,47,47,12,14,6,6,0.6,0.6
2023-10-04T15:00:00,2453A,113.3983,31.7308,随州市,市立交桥水厂,,42,31,34,29,30,81,62,46,46,8,14,6,6,0.5,0.6
2023-10-04T15:00:00,2454A,109.4978,30.2981,恩施土家族苗族自治州,湖北民院,,16,16,26,11,10,43,38,34,31,10,10,9,10,0.9,1
2023-10-04T15:00:00,2455A,109.4707,30.2798,恩施土家族苗族自治州,州电力总公司,,13,13,17,3,7,39,37,36,32,16,15,8,8,1.0,1.1
2023-10-04T15:00:00,2456A,112.5003,26.9167,衡阳市,原169医院,,,23,26,,24,52,51,38,38,14,15,13,14,0.6,0.7
2023-10-04T15:00:00,2457A,112.6194,26.9258,衡阳市,衡阳化工总厂,细颗粒物(PM2.5),55,55,44,39,22,63,51,36,36,13,10,11,17,0.7,0.8
2023-10-04T15:00:00,2458A,112.6211,26.8956,衡阳市,珠晖区环保局,,,61,37,,,59,57,38,38,10,10,11,6,0.8,0.8
2023-10-04T15:00:00,2459A,112.6197,26.8733,衡阳市,市委党校,细颗粒物(PM2.5),58,59,34,41,21,65,64,44,44,10,9,12,9,0.8,0.8
2023-10-04T15:00:00,2460A,112.6006,26.8919,衡阳市,市监测站,细颗粒物(PM2.5),74,70,48,54,32,65,57,39,39,15,12,12,13,0.9,0.9
2023-10-04T15:00:00,2461A,112.5664,26.9056,衡阳市,真空机电公司,,50,50,41,26,23,60,58,35,35,9,12,6,8,0.7,0.8
2023-10-04T15:00:00,2462A,111.5239,27.3033,邵阳市,市水土所,细颗粒物(PM2.5),64,49,43,46,35,61,61,44,40,5,8,8,9,1.0,0.9
2023-10-04T15:00:00,2463A,111.4733,27.2317,邵阳市,市一中,细颗粒物(PM2.5),62,67,49,44,29,59,54,58,46,12,10,7,9,0.7,0.7
2023-10-04T15:00:00,2464A,111.5283,27.2442,邵阳市,市化工厂,细颗粒物(PM2.5),67,64,42,48,28,62,58,55,46,13,11,6,8,1.0,0.8
2023-10-04T15:00:00,2465A,111.4503,27.2537,邵阳市,市罐头厂,颗粒物(PM10),67,84,44,40,31,66,66,53,49,8,12,7,7,0.7,0.7
2023-10-04T15:00:00,2466A,111.4328,27.2272,邵阳市,市环保局,颗粒物(PM10),52,53,43,33,31,66,59,52,45,10,11,9,10,0.7,0.7
2023-10-04T15:00:00,2467A,112.4067,28.6428,益阳市,甘溪港,,39,39,31,7,6,55,55,38,38,8,6,7,4,0.6,0.5
2023-10-04T15:00:00,2468A,112.3458,28.5808,益阳市,市环保局,,48,35,29,33,28,67,67,47,44,11,12,2,3,0.6,0.6
2023-10-04T15:00:00,2469A,112.3437,28.5531,益阳市,市特殊教育学校,细颗粒物(PM2.5),53,43,47,37,32,62,62,46,45,12,9,4,4,0.6,0.7
2023-10-04T15:00:00,2470A,112.3347,28.6047,益阳市,资阳区政务中心,,45,45,36,31,29,65,65,44,44,10,9,4,4,0.7,0.8
2023-10-04T15:00:00,2471A,112.3744,28.5819,益阳市,赫山环保分局,,48,48,42,31,25,61,61,46,43,10,10,2,2,0.6,0.6
2023-10-04T15:00:00,2472A,113.0073,25.9061,郴州市,马头岭,,46,46,49,21,25,93,50,40,30,12,11,3,4,0.9,0.8
2023-10-04T15:00:00,2473A,113.0116,25.8226,郴州市,市职中,,49,29,44,34,37,98,61,39,33,12,13,5,5,0.9,1
2023-10-04T15:00:00,2474A,113.0161,25.8001,郴州市,兴隆步行街,,48,45,49,33,36,97,63,42,34,10,11,4,4,0.9,0.9
2023-10-04T15:00:00,2475A,113.0383,25.8071,郴州市,市审计局,细颗粒物(PM2.5),55,41,47,39,40,96,58,39,32,9,10,5,5,0.7,0.8
2023-10-04T15:00:00,2476A,113.0348,25.7759,郴州市,市环保局,细颗粒物(PM2.5),57,46,54,40,44,90,50,37,32,14,13,3,4,0.8,0.9
2023-10-04T15:00:00,2477A,111.6217,26.2081,永州市,零陵南津渡,,28,22,46,16,31,108,87,59,59,7,8,8,8,0.6,0.7
