timepoint,stationcode,longitude,latitude,area,positionname,primarypollutant,aqi,pm10,pm10_24h,pm2_5,pm2_5_24h,o3,o3_24h,o3_8h,o3_8h_24h,no2,no2_24h,so2,so2_24h,co,co_24h
2024-01-09T1900,2566A,102.1879,31.914,阿坝藏族羌族自治州,州农科所,,26,18,13,18,13,18,,23,23,40,23,10,8,1.0,0.8
2024-01-09T1900,2568A,102.2502,31.8896,阿坝藏族羌族自治州,马师校,颗粒物(PM10),52,54,17,22,10,25,,54,52,39,21,4,3,0.8,0.5
2024-01-09T1900,3994A,102.2165,31.9024,阿坝藏族羌族自治州,马尔康中学西区,,28,24,14,19,10,38,,63,62,32,15,5,4,0.7,0.5
2024-01-09T1900,2695A,80.292,41.1694,阿克苏地区,电视台,细颗粒物(PM2.5),119,165,202,90,97,87,,64,64,32,52,10,10,1.0,2.3
2024-01-09T1900,2696A,80.2613,41.1551,阿克苏地区,艺术中心,颗粒物(PM10),106,162,178,68,81,93,,61,61,17,32,8,9,1.0,1.5
2024-01-09T1900,2204A,105.6467,38.8363,阿拉善盟,西城区西花园,,30,30,50,18,18,56,,85,82,36,23,8,8,0.5,0.6
2024-01-09T1900,2205A,105.6985,38.8411,阿拉善盟,蒙二幼,,23,23,45,10,15,59,,83,80,31,20,7,7,0.6,0.6
2024-01-09T1900,2206A,105.724,38.8516,阿拉善盟,环保局新楼,,21,21,35,8,13,67,,87,81,21,8,4,5,0.7,0.6
2024-01-09T1900,2708A,88.1264,47.8517,阿勒泰地区,市站,,18,8,8,4,5,57,,54,54,18,28,4,4,0.3,0.3
2024-01-09T1900,2630A,80.1161,32.5,阿里地区,阿里监测站,,27,13,11,2,4,84,,76,76,2,16,5,7,0.5,0.5
2024-01-09T1900,3192A,80.0903,32.5028,阿里地区,阿里藏医院,,28,16,16,2,8,88,,80,80,2,15,4,8,0.4,0.6
2024-01-09T1900,2642A,109.0318,32.6537,安康市,香溪洞,细颗粒物(PM2.5),55,58,69,39,61,81,,58,58,12,14,7,12,0.6,0.8
2024-01-09T1900,2643A,109.0281,32.6939,安康市,安康市监测站,细颗粒物(PM2.5),94,99,96,70,73,9,,48,47,76,33,11,12,2.3,1.1
2024-01-09T1900,2644A,109.0072,32.6975,安康市,汉滨区检察院,细颗粒物(PM2.5),102,103,91,76,70,11,,53,52,77,30,10,10,1.4,0.9
2024-01-09T1900,2291A,117.0809,30.5177,安庆市,环科院,细颗粒物(PM2.5),128,134,125,97,97,29,,62,62,77,52,9,10,1.3,1.1
2024-01-09T1900,2292A,117.0331,30.5119,安庆市,马山宾馆,细颗粒物(PM2.5),124,135,124,94,85,50,,72,72,66,53,8,8,1.4,1.1
2024-01-09T1900,2294A,116.9896,30.6145,安庆市,安庆大学,细颗粒物(PM2.5),137,135,122,104,96,47,,78,74,53,52,9,9,1.0,1.2
2024-01-09T1900,3173A,117.0598,30.5351,安庆市,市人大,细颗粒物(PM2.5),134,126,126,102,97,20,,67,66,92,54,5,7,1.5,1.2
2024-01-09T1900,3122A,105.9606,26.2611,安顺市,伍家关,,,,,,,,,,,,,,,,
2024-01-09T1900,3123A,105.9408,26.2431,安顺市,凤凰山,,,47,47,42,41,58,,53,53,17,18,26,22,,0.8
2024-01-09T1900,3124A,105.9439,26.2564,安顺市,金钟山,细颗粒物(PM2.5),53,47,49,37,40,68,,56,56,14,15,19,22,0.7,0.8
2024-01-09T1900,3125A,105.8983,26.2481,安顺市,娄家坡,细颗粒物(PM2.5),57,46,52,40,41,65,,53,53,16,16,22,21,0.8,0.9
2024-01-09T1900,1818A,114.4839,36.0621,安阳市,棉研所,,,,,,,,,,,,,,,,
2024-01-09T1900,1819A,114.3551,36.1017,安阳市,红庙街,细颗粒物(PM2.5),103,117,138,77,98,,,43,43,69,62,12,14,0.8,1.5
2024-01-09T1900,1820A,114.361,36.0681,安阳市,银杏小区,细颗粒物(PM2.5),107,101,125,80,103,15,,39,36,69,62,8,9,1.0,1.3
2024-01-09T1900,3141A,114.3922,36.0878,安阳市,信访局,细颗粒物(PM2.5),113,105,139,85,105,12,,39,35,73,62,7,8,0.9,1.1
2024-01-09T1900,3669A,114.4705,36.0637,安阳市,左辅环卫站,细颗粒物(PM2.5),119,130,143,90,104,16,,40,38,70,60,8,9,0.8,0.9
2024-01-09T1900,3703A,114.2917,36.0949,安阳市,安钢职工学校,细颗粒物(PM2.5),109,140,155,82,109,13,,41,38,77,64,11,17,1.0,1.9
2024-01-09T1900,1748A,123.044,41.1196,鞍山市,深沟寺,颗粒物(PM10),58,65,71,39,42,36,,50,49,32,33,6,8,0.6,0.9
2024-01-09T1900,1749A,123.011,41.0931,鞍山市,太阳城,,46,46,56,24,32,47,,53,53,24,29,10,13,0.6,0.9
2024-01-09T1900,1750A,123.0485,41.1442,鞍山市,太平,细颗粒物(PM2.5),64,73,76,46,41,31,,50,48,41,37,11,12,0.6,0.8
2024-01-09T1900,1751A,122.9642,41.0971,鞍山市,铁西三道街,颗粒物(PM10),57,63,76,33,44,26,,40,40,46,42,35,23,3.4,2.2
2024-01-09T1900,1752A,122.9341,41.0833,鞍山市,铁西工业园区,颗粒物(PM10),57,64,65,38,40,28,,38,36,46,43,25,20,1.2,1.5
2024-01-09T1900,1753A,123.022,41.0821,鞍山市,明达新区,,45,45,53,28,33,41,,48,48,28,32,9,12,0.7,0.9
2024-01-09T1900,1754A,123.1289,41.0228,鞍山市,千山,,,,,,,,,,,,,,,,
2024-01-09T1900,2195A,107.4212,40.761,巴彦淖尔市,附二中,颗粒物(PM10),55,60,90,30,48,32,,51,51,51,41,10,22,0.9,1.2
2024-01-09T1900,2196A,107.37,40.7372,巴彦淖尔市,市环保大楼,颗粒物(PM10),52,54,88,27,48,39,,54,54,36,35,8,9,0.6,1.1
2024-01-09T1900,1956A,86.1472,41.7538,巴音郭楞蒙古自治州,孔雀公园,颗粒物(PM10),100,150,204,56,76,80,,69,69,23,46,6,8,0.6,0.9
2024-01-09T1900,1957A,86.1972,41.7166,巴音郭楞蒙古自治州,棉纺厂,颗粒物(PM10),114,178,209,51,80,70,,66,66,39,61,5,6,0.8,1.1
2024-01-09T1900,1958A,86.2357,41.7173,巴音郭楞蒙古自治州,经济开发区,颗粒物(PM10),113,175,169,61,73,64,,68,60,45,44,6,5,0.8,0.9
2024-01-09T1900,2914A,106.7677,31.8794,巴中市,苏山坪,,50,44,67,35,57,80,,60,60,15,16,4,3,0.5,0.7
2024-01-09T1900,3182A,106.7656,31.8545,巴中市,丽阳花园,细颗粒物(PM2.5),78,79,85,57,69,13,,42,42,80,30,5,4,1.3,0.9
2024-01-09T1900,3183A,106.7418,31.8654,巴中市,圣泉水务公司,细颗粒物(PM2.5),84,84,80,62,66,6,,43,43,76,35,4,4,1.0,0.9
2024-01-09T1900,3616A,106.7616,31.8344,巴中市,市中心医院,细颗粒物(PM2.5),64,66,72,46,59,17,,52,52,55,24,3,3,0.9,0.7
2024-01-09T1900,2235A,122.7911,45.6077,白城市,洮北区环保局,,,40,54,27,43,54,,60,60,13,24,,9,0.7,0.9
2024-01-09T1900,2236A,122.8738,45.5725,白城市,市环保局,颗粒物(PM10),56,61,54,29,36,44,,60,59,29,31,11,9,0.8,0.8
2024-01-09T1900,2231A,126.4219,41.9171,白山市,喜丰,,43,43,44,18,23,53,,60,60,25,22,13,21,0.8,0.9
2024-01-09T1900,2232A,126.4077,41.9419,白山市,环保局,颗粒物(PM10),60,70,60,32,24,35,,62,61,45,30,13,16,1.3,1
2024-01-09T1900,2647A,104.1724,36.5446,白银市,第三小学,颗粒物(PM10),92,134,167,56,34,26,,54,53,75,36,82,21,1.4,1
2024-01-09T1900,2648A,104.1465,36.5482,白银市,动力公司,细颗粒物(PM2.5),79,99,153,58,40,64,,67,67,58,29,66,17,1.5,1.1
2024-01-09T1900,2512A,106.6103,23.9011,百色市,市监测站,,36,36,60,20,33,28,,52,33,18,23,7,14,0.9,0.9
2024-01-09T1900,2513A,106.6538,23.8859,百色市,市中心血站,,41,41,48,20,35,24,,55,34,21,19,8,14,0.9,0.8
2024-01-09T1900,3406A,106.6085,23.8798,百色市,祈福高中,颗粒物(PM10),53,56,55,23,44,18,,36,30,25,24,9,16,0.9,1
2024-01-09T1900,2270A,117.396,32.939,蚌埠市,工人疗养院,细颗粒物(PM2.5),201,191,120,151,86,42,,68,68,37,42,6,8,0.9,0.9
2024-01-09T1900,2271A,117.3605,32.9427,蚌埠市,百货大楼,细颗粒物(PM2.5),204,196,123,154,92,37,,68,68,44,46,5,5,0.8,0.8
2024-01-09T1900,2273A,117.4185,32.8911,蚌埠市,蚌埠学院,细颗粒物(PM2.5),193,183,114,145,87,49,,72,72,36,40,5,6,0.9,0.8
2024-01-09T1900,2274A,117.3533,32.9673,蚌埠市,淮上区政府,细颗粒物(PM2.5),203,197,121,153,92,39,,71,71,34,39,5,7,0.8,0.8
2024-01-09T1900,2275A,117.3145,32.8977,蚌埠市,高新区,细颗粒物(PM2.5),200,190,108,150,85,41,,70,70,58,52,4,5,1.0,0.8
2024-01-09T1900,3715A,117.3092,32.9314,蚌埠市,蚌埠田家炳中学,细颗粒物(PM2.5),218,218,125,168,95,28,,63,63,54,46,5,13,0.9,0.9
2024-01-09T1900,1585A,109.8756,40.6532,包头市,市环境监测站,颗粒物(PM10),55,60,77,18,37,12,,60,53,72,30,16,14,1.2,1
2024-01-09T1900,1587A,109.9991,40.5842,包头市,包头八中,颗粒物(PM10),52,53,84,29,37,24,,54,52,50,36,10,15,0.8,1.1
2024-01-09T1900,1588A,109.8538,40.6821,包头市,青山宾馆,细颗粒物(PM2.5),127,,90,96,50,8,,58,50,90,34,22,17,1.6,1
2024-01-09T1900,1589A,109.8642,40.6288,包头市,惠龙物流,,49,49,79,31,37,12,,61,55,67,22,16,16,1.2,1
2024-01-09T1900,1590A,110.0377,40.5546,包头市,东河鸿龙湾,,35,35,80,11,43,40,,62,62,44,43,14,19,0.7,1.3
2024-01-09T1900,3283A,109.9154,40.5685,包头市,滨河大厦,,34,34,72,11,45,20,,58,52,50,36,11,19,0.6,1.1
2024-01-09T1900,3419A,109.9447,40.6261,包头市,包头市委党校,,48,48,69,23,33,20,,60,56,59,33,12,16,0.9,1
2024-01-09T1900,3683A,109.8331,40.6576,包头市,昆区政府,,,40,84,39,42,,,62,62,74,35,18,15,1.3,1.3
2024-01-09T1900,1930A,107.185,34.3063,宝鸡市,庙沟村,颗粒物(PM10),63,75,77,30,43,51,,60,60,13,17,7,8,0.5,0.6
2024-01-09T1900,1931A,107.0708,34.3017,宝鸡市,竹园沟,细颗粒物(PM2.5),127,108,88,96,56,29,,65,63,54,37,4,4,0.8,0.8
2024-01-09T1900,1932A,107.1906,34.3672,宝鸡市,三陆医院,细颗粒物(PM2.5),65,74,117,47,74,23,,60,55,78,51,8,17,0.8,0.9
2024-01-09T1900,1933A,107.1431,34.3547,宝鸡市,监测站,颗粒物(PM10),80,110,118,55,74,27,,52,52,53,53,4,5,0.7,0.9
2024-01-09T1900,1934A,107.1186,34.3739,宝鸡市,技工学校,颗粒物(PM10),63,75,105,29,70,33,,59,59,63,47,8,10,0.7,0.9
2024-01-09T1900,1935A,107.3906,34.3528,宝鸡市,陈仓区环保局家属楼,细颗粒物(PM2.5),83,104,136,61,92,21,,60,59,89,58,9,25,1.1,1.4
2024-01-09T1900,1936A,107.2058,34.3497,宝鸡市,文理学院,颗粒物(PM10),77,104,115,42,72,6,,64,62,92,57,8,12,1.3,1.1
2024-01-09T1900,1937A,107.2386,34.3622,宝鸡市,三迪小学,颗粒物(PM10),80,110,121,52,79,11,,53,47,96,57,8,13,1.1,1.1
2024-01-09T1900,1051A,115.493,38.8632,保定市,游泳馆,细颗粒物(PM2.5),60,56,79,43,52,12,,37,36,58,51,3,5,0.8,0.8
2024-01-09T1900,1052A,115.5213,38.8959,保定市,华电二区,细颗粒物(PM2.5),65,56,74,47,56,35,,44,43,46,48,7,5,0.7,0.7
2024-01-09T1900,1053A,115.4713,38.9108,保定市,接待中心,颗粒物(PM10),70,89,83,41,78,15,,30,30,52,57,7,7,0.8,0.8
2024-01-09T1900,1054A,115.4612,38.8416,保定市,地表水厂,,,,82,,50,,,34,34,76,64,4,5,,0.8
2024-01-09T1900,1056A,115.5086,38.8639,保定市,监测站,细颗粒物(PM2.5),73,86,77,53,55,12,,32,32,62,58,6,7,0.4,0.5
2024-01-09T1900,3581A,115.31981,38.95208,保定市,满城区生态环境分局,颗粒物(PM10),83,115,91,53,49,5,,32,29,66,60,6,5,0.8,0.8
2024-01-09T1900,3582A,115.47694,38.76408,保定市,清苑区第二中学,细颗粒物(PM2.5),63,73,88,45,54,8,,37,35,69,60,6,8,0.8,0.8
2024-01-09T1900,3583A,115.62909,39.02311,保定市,徐水物探局,颗粒物(PM10),76,102,105,41,58,1,,19,18,67,54,6,6,0.8,0.9
2024-01-09T1900,4004A,115.4202,38.8656,保定市,双鹰农机,颗粒物(PM10),78,106,80,42,51,13,,40,38,68,59,6,6,0.8,0.8
2024-01-09T1900,2594A,99.1678,25.1081,保山市,市环境监测站,,30,30,18,5,13,78,,92,92,8,11,5,6,0.4,0.5
2024-01-09T1900,2595A,99.1711,25.1328,保山市,市环保局,,27,27,24,18,18,84,,91,91,3,8,4,5,0.3,0.4
2024-01-09T1900,1866A,109.2262,21.588,北海市,牛尾岭水库,,,,,,,,,,,,,,,,
2024-01-09T1900,1867A,109.1436,21.4086,北海市,海滩公园,颗粒物(PM10),59,68,60,34,32,114,,109,109,11,10,7,7,0.8,0.7
2024-01-09T1900,1868A,109.0981,21.4661,北海市,新市环保局,,49,46,54,34,31,81,,99,94,28,13,7,6,0.8,0.7
2024-01-09T1900,1869A,109.1778,21.5233,北海市,北海工业园,细颗粒物(PM2.5),59,50,67,42,41,67,,86,83,28,13,8,7,0.8,0.6
2024-01-09T1900,3400A,109.1911,21.4415,北海市,龙潭自来水厂,"颗粒物(PM10),细颗粒物(PM2.5)",54,57,57,38,33,104,,102,102,13,9,10,8,0.5,0.6
2024-01-09T1900,1001A,116.3621,39.8784,北京市,万寿西宫,颗粒物(PM10),52,53,63,30,38,22,,49,48,58,53,2,2,0.5,0.5
2024-01-09T1900,1002A,116.2202,40.2915,北京市,定陵,,21,9,40,5,27,66,,58,58,4,26,1,3,0.2,0.4
2024-01-09T1900,1003A,116.4174,39.9289,北京市,东四,颗粒物(PM10),51,51,65,25,39,28,,46,46,37,45,4,4,0.5,0.6
2024-01-09T1900,1004A,116.4072,39.8863,北京市,天坛,,43,43,59,23,37,30,,53,53,36,46,1,2,0.4,0.5
2024-01-09T1900,1005A,116.462,39.9365,北京市,农展馆,,44,44,60,22,36,27,,45,43,41,46,2,3,0.4,0.5
2024-01-09T1900,1006A,116.3392,39.9295,北京市,官园,,50,50,66,26,40,32,,53,53,42,47,1,2,0.5,0.6
2024-01-09T1900,1007A,116.2878,39.9611,北京市,海淀万柳,,29,29,70,12,38,40,,53,53,33,52,3,5,0.3,0.7
2024-01-09T1900,1008A,116.6636,40.135,北京市,顺义新城,,27,27,53,14,34,51,,61,61,21,34,5,3,0.3,0.4
2024-01-09T1900,1009A,116.6275,40.3275,北京市,怀柔镇,,42,42,46,22,31,28,,55,54,39,32,6,4,0.5,0.5
2024-01-09T1900,1010A,116.2296,40.217,北京市,昌平镇,,25,25,54,13,28,49,,54,54,16,34,3,3,0.2,0.5
2024-01-09T1900,1011A,116.3966,39.9821,北京市,奥体中心,,22,22,59,11,37,47,,53,53,26,49,2,3,0.4,0.7
2024-01-09T1900,1012A,116.184,39.9136,北京市,古城,颗粒物(PM10),58,65,70,32,38,8,,50,48,61,45,2,3,0.7,0.8
2024-01-09T1900,3281A,115.9718,40.4529,北京市,延庆夏都,,27,27,69,13,45,48,,48,48,18,36,1,4,0.3,0.9
2024-01-09T1900,3417A,117.0709,40.1465,北京市,平谷新城,,27,27,64,16,45,57,,56,56,19,36,5,3,0.3,0.7
2024-01-09T1900,3418A,116.8336,40.4095,北京市,密云新城,,22,11,45,7,28,69,,68,68,3,19,3,4,0.2,0.4
2024-01-09T1900,3671A,116.088,39.9726,北京市,门头沟三家店,,,,,,,,,,,,,,,,
2024-01-09T1900,3672A,116.1541,39.8204,北京市,丰台云岗,颗粒物(PM10),62,74,72,40,41,3,,45,43,68,53,3,3,0.5,0.5
2024-01-09T1900,3673A,116.6804,39.9081,北京市,通州东关,颗粒物(PM10),53,55,61,30,37,23,,53,50,50,50,6,5,0.5,0.5
2024-01-09T1900,3674A,115.9577,39.7603,北京市,房山燕山,颗粒物(PM10),52,54,58,33,40,11,,49,42,54,43,2,2,0.5,0.5
2024-01-09T1900,3675A,116.4672,39.7733,北京市,大兴旧宫,颗粒物(PM10),55,60,62,31,37,14,,48,45,56,49,1,2,0.5,0.6
2024-01-09T1900,3694A,115.986,40.4563,北京市,延庆石河营,,32,32,66,16,44,32,,47,47,29,36,1,3,0.4,1
2024-01-09T1900,3695A,116.6151,40.3053,北京市,怀柔新城,,26,26,48,16,34,43,,56,56,21,27,4,2,0.3,0.4
2024-01-09T1900,3696A,116.2545,39.8768,北京市,丰台小屯,颗粒物(PM10),60,69,77,35,41,8,,47,45,65,54,1,2,0.5,0.7
2024-01-09T1900,3697A,116.84,40.3844,北京市,密云镇,,19,13,48,7,32,60,,62,62,9,27,3,4,0,0.3
2024-01-09T1900,1761A,123.8275,41.3064,本溪市,大峪,细颗粒物(PM2.5),75,79,60,55,34,33,,47,46,46,39,10,11,0.8,1.9
2024-01-09T1900,1762A,123.7567,41.3325,本溪市,溪湖,细颗粒物(PM2.5),78,83,76,57,46,39,,51,50,36,40,18,18,0.7,1.7
2024-01-09T1900,1763A,123.7169,41.3094,本溪市,彩屯,细颗粒物(PM2.5),82,90,64,60,42,42,,50,47,44,43,9,11,0.7,1.2
2024-01-09T1900,1764A,123.7669,41.2864,本溪市,东明,细颗粒物(PM2.5),85,66,52,63,44,37,,48,48,41,39,15,15,1.2,1
2024-01-09T1900,1765A,123.7992,41.2664,本溪市,新立屯,颗粒物(PM10),61,72,47,38,27,26,,44,42,50,38,9,11,1.0,1.1
2024-01-09T1900,1766A,123.8142,41.3472,本溪市,威宁,细颗粒物(PM2.5),108,98,59,81,40,7,,46,40,76,39,6,7,0.8,1.1
2024-01-09T1900,2587A,105.2864,27.3125,毕节市,八中,细颗粒物(PM2.5),59,49,42,42,36,45,,60,59,29,15,12,7,1.2,0.9
2024-01-09T1900,2588A,105.31,27.2944,毕节市,师专,细颗粒物(PM2.5),54,43,41,38,35,53,,59,58,20,17,8,9,0.8,0.8
2024-01-09T1900,3537A,105.3631,27.3533,毕节市,长征村,,45,34,43,31,38,59,,60,60,10,13,7,8,0.9,0.9
2024-01-09T1900,1629A,118.0018,37.3617,滨州市,第二水厂,,36,36,110,12,56,44,,44,44,25,57,10,23,0.5,1.1
2024-01-09T1900,1630A,117.9776,37.393,滨州市,北中新校,,34,34,105,14,54,39,,42,42,27,55,8,19,0.4,0.9
2024-01-09T1900,3514A,117.9378,37.3956,滨州市,中海酒店,,29,29,95,13,58,41,,43,43,18,58,12,24,0.6,1
2024-01-09T1900,3515A,117.9378,37.3553,滨州市,开发区一中,,28,28,96,6,53,47,,46,46,27,58,12,25,0.5,0.9
2024-01-09T1900,3516A,118.0917,37.694,滨州市,金海六路,,32,32,104,9,62,31,,47,47,35,57,8,14,0.5,1
2024-01-09T1900,4028A,117.9956,37.3753,滨州市,滨州市西街道办事处,,34,34,101,17,58,43,,43,43,24,54,11,24,0.7,1.1
2024-01-09T1900,2311A,115.8072,33.8399,亳州市,污水处理厂,细颗粒物(PM2.5),169,180,131,128,96,36,,41,41,37,31,6,7,1.1,1
2024-01-09T1900,2312A,115.7789,33.8518,亳州市,三国揽胜宫,细颗粒物(PM2.5),155,209,153,118,83,42,,37,37,40,34,6,7,0.9,0.9
2024-01-09T1900,3332A,115.7633,33.8034,亳州市,亳州学院,细颗粒物(PM2.5),179,188,141,135,105,42,,41,41,38,31,4,5,1.4,1.3
2024-01-09T1900,2693A,82.0485,44.8556,博尔塔拉蒙古自治州,市党校,细颗粒物(PM2.5),79,88,65,58,42,24,,27,27,20,20,7,6,0.7,0.7
2024-01-09T1900,2694A,82.0806,44.8969,博尔塔拉蒙古自治州,市环保局,颗粒物(PM10),67,83,70,46,40,24,,24,24,27,32,10,10,0.9,1.3
2024-01-09T1900,1071A,116.8842,38.2991,沧州市,沧县城建局,颗粒物(PM10),53,55,116,28,81,21,,46,46,58,64,6,9,0.8,1.2
2024-01-09T1900,1072A,116.8584,38.3254,沧州市,电视转播站,,44,44,114,12,79,29,,50,50,45,57,12,11,0.8,1.3
2024-01-09T1900,1073A,116.8709,38.3228,沧州市,市环保局,,50,50,113,25,83,11,,44,44,55,58,6,9,0.6,1.1
2024-01-09T1900,3324A,116.8136,38.3004,沧州市,河北水利电力学院,,39,39,113,15,79,27,,44,44,38,55,9,13,0.4,0.9
2024-01-09T1900,2622A,97.1806,31.1273,昌都市,昌都监测站,细颗粒物(PM2.5),57,54,35,40,15,23,,51,50,62,27,8,7,1.6,1.1
2024-01-09T1900,3719A,97.1714,31.1406,昌都市,昌都会议中心,,18,14,11,9,10,56,,64,64,14,11,4,4,0.5,0.5
2024-01-09T1900,2690A,88.1236,43.8886,昌吉回族自治州,天山天池,,23,5,5,0,4,72,,86,80,5,4,6,6,0.4,0.4
2024-01-09T1900,2692A,87.2717,44.0297,昌吉回族自治州,新区政务中心,细颗粒物(PM2.5),189,176,160,142,113,40,,31,31,57,61,4,4,1.5,1.6
2024-01-09T1900,3613A,87.3095,44.0142,昌吉回族自治州,亚心广场,细颗粒物(PM2.5),195,175,159,146,131,40,,31,31,54,56,3,5,1.8,1.7
2024-01-09T1900,1119A,125.3325,43.9166,长春市,食品厂,细颗粒物(PM2.5),88,85,75,65,60,21,,40,37,56,45,9,12,0.8,0.9
2024-01-09T1900,1120A,125.2863,43.9027,长春市,客车厂,细颗粒物(PM2.5),62,59,59,44,53,35,,44,44,44,44,9,12,0.7,0.9
2024-01-09T1900,1121A,125.2841,43.8463,长春市,邮电学院,细颗粒物(PM2.5),67,56,62,48,51,33,,51,50,39,35,29,16,0.7,0.8
2024-01-09T1900,1122A,125.3716,43.8772,长春市,劳动公园,细颗粒物(PM2.5),53,43,59,37,43,40,,52,52,36,34,12,11,0.4,0.6
2024-01-09T1900,1123A,125.3297,43.8805,长春市,园林处,细颗粒物(PM2.5),62,46,54,44,45,36,,49,49,38,37,11,12,0.6,0.8
2024-01-09T1900,1124A,125.4605,43.79,长春市,净月潭,,35,35,55,22,39,28,,50,47,30,26,7,9,0.5,0.8
2024-01-09T1900,1125A,125.7194,43.515,长春市,甩湾子,,,,,,,,,,,,,,,,
2024-01-09T1900,1126A,125.3863,43.8447,长春市,经开区环卫处,细颗粒物(PM2.5),60,,64,43,46,28,,46,46,42,40,30,16,0.7,0.8
2024-01-09T1900,1127A,125.245,43.7783,长春市,高新区管委会,细颗粒物(PM2.5),74,62,75,54,57,22,,43,42,52,43,8,13,0.7,1
2024-01-09T1900,1128A,125.1761,43.8325,长春市,岱山公园,细颗粒物(PM2.5),99,78,83,74,64,18,,44,44,58,44,8,10,0.8,1.1
2024-01-09T1900,1335A,113.0833,28.2325,长沙市,经开区环保局,细颗粒物(PM2.5),122,114,130,92,105,62,,60,60,49,42,6,5,1.1,1
2024-01-09T1900,1336A,112.8872,28.2189,长沙市,高开区环保局,细颗粒物(PM2.5),124,115,129,94,101,78,,63,63,35,41,6,6,1.1,1.1
2024-01-09T1900,1337A,113.0792,28.2053,长沙市,马坡岭,细颗粒物(PM2.5),122,113,126,92,104,40,,48,48,64,47,,7,1.2,1
2024-01-09T1900,1338A,112.9394,28.19,长沙市,湖南师范大学,细颗粒物(PM2.5),127,112,139,96,113,74,,54,54,26,38,5,5,1.3,1.3
2024-01-09T1900,1339A,113.0178,28.1322,长沙市,雨花区环保局,细颗粒物(PM2.5),127,113,122,96,108,34,,50,50,59,44,4,5,1.5,1.2
2024-01-09T1900,1340A,112.9792,28.2597,长沙市,伍家岭,细颗粒物(PM2.5),119,115,147,90,110,64,,50,50,42,38,6,6,1.5,1.5
2024-01-09T1900,1341A,113.0014,28.1944,长沙市,火车新站,细颗粒物(PM2.5),128,106,125,97,105,60,,52,52,43,43,4,4,1.4,1.4
2024-01-09T1900,1342A,112.9844,28.1178,长沙市,天心区环保局,细颗粒物(PM2.5),105,99,129,79,104,33,,48,48,67,46,5,6,0.8,0.8
2024-01-09T1900,1343A,112.8908,28.1308,长沙市,湖南中医药大学,细颗粒物(PM2.5),117,100,128,88,101,31,,50,50,60,35,3,4,1.2,1.6
2024-01-09T1900,1344A,112.9581,28.3611,长沙市,沙坪,细颗粒物(PM2.5),94,86,107,70,80,81,,72,72,22,31,5,4,1.1,1
2024-01-09T1900,1727A,113.1147,36.1547,长治市,清华站,颗粒物(PM10),51,52,83,34,49,51,,72,71,32,44,19,17,0.9,1
2024-01-09T1900,1728A,113.1031,36.1989,长治市,监测站,颗粒物(PM10),51,52,84,34,59,51,,72,71,34,52,16,20,0.7,1
2024-01-09T1900,1730A,113.0886,36.2125,长治市,审计局,颗粒物(PM10),54,58,81,29,59,54,,72,72,28,49,15,24,0.6,1
2024-01-09T1900,1731A,113.0844,36.1856,长治市,长治八中,颗粒物(PM10),59,68,121,29,56,55,,72,72,26,44,17,28,0.5,1
2024-01-09T1900,2845A,113.1569,36.1911,长治市,德盛苑,,48,48,63,19,43,61,,74,73,20,31,14,18,0.7,0.9
2024-01-09T1900,3568A,113.06,36.0464,长治市,向阳小学,颗粒物(PM10),72,93,95,41,53,62,,85,84,30,34,13,17,0.7,1.1
2024-01-09T1900,3569A,112.8792,36.3144,长治市,屯留一中,细颗粒物(PM2.5),70,79,81,51,53,48,,76,73,44,52,19,20,0.6,0.9
2024-01-09T1900,3570A,113.235,36.3489,长治市,潞城四中,细颗粒物(PM2.5),87,73,120,64,76,32,,78,75,39,42,10,26,1.1,1.3
2024-01-09T1900,1854A,111.6975,28.9703,常德市,市二中,细颗粒物(PM2.5),159,167,138,121,112,84,,85,85,30,39,7,8,1.1,1.1
2024-01-09T1900,1857A,111.7158,29.1456,常德市,白鹤山,细颗粒物(PM2.5),165,170,201,125,141,44,,42,42,21,20,3,4,0.9,1.2
2024-01-09T1900,3138A,111.7153,29.0289,常德市,武陵区永安,细颗粒物(PM2.5),173,161,151,131,120,80,,83,83,36,39,8,8,1.1,1.1
2024-01-09T1900,3139A,111.6892,28.9881,常德市,鼎城区玉霞,细颗粒物(PM2.5),189,160,146,142,122,80,,83,83,34,37,10,10,1.2,1.2
2024-01-09T1900,3140A,111.6625,29.0531,常德市,武陵区长庚,细颗粒物(PM2.5),148,162,156,113,113,77,,86,86,43,40,6,7,1.2,1.1
2024-01-09T1900,1196A,119.9633,31.762,常州市,市监测站,细颗粒物(PM2.5),144,154,128,110,80,28,,45,45,84,59,10,11,1.2,1
2024-01-09T1900,1200A,119.9468,31.7069,常州市,武进监测站,细颗粒物(PM2.5),148,159,125,113,77,7,,41,38,87,53,1,5,1.5,1
2024-01-09T1900,1201A,119.9255,31.9087,常州市,安家,细颗粒物(PM2.5),147,164,109,112,72,59,,55,55,48,49,11,11,1.0,0.9
2024-01-09T1900,3002A,119.9805,31.8174,常州市,行政中心,细颗粒物(PM2.5),137,137,102,104,71,36,,51,51,62,44,15,15,1.2,1
2024-01-09T1900,3003A,120.0522,31.7748,常州市,经开区,细颗粒物(PM2.5),132,136,104,100,71,38,,52,52,72,59,9,10,1.2,1
2024-01-09T1900,3010A,119.9025,31.7964,常州市,钟楼,细颗粒物(PM2.5),152,147,108,116,78,19,,46,44,90,56,10,10,1.2,1
2024-01-09T1900,3429A,119.8598,31.7066,常州市,武进经发区,,,,102,,76,20,,49,48,,60,,11,1.5,1.1
2024-01-09T1900,3430A,119.5826,31.7245,常州市,金坛城区,细颗粒物(PM2.5),159,141,104,121,78,46,,54,54,52,45,10,9,1.4,1.1
2024-01-09T1900,2220A,120.4318,41.5881,朝阳市,西梁,细颗粒物(PM2.5),53,45,116,37,71,18,,54,52,47,34,16,16,1.0,1.8
2024-01-09T1900,2221A,120.4521,41.5646,朝阳市,河畔小区,,24,24,87,16,62,36,,54,54,26,34,6,9,0.8,1.7
2024-01-09T1900,2222A,120.4176,41.5648,朝阳市,八里堡,颗粒物(PM10),60,69,92,38,61,17,,49,49,49,34,16,12,1.2,1.8
2024-01-09T1900,2223A,120.3806,41.5969,朝阳市,农业园区,颗粒物(PM10),72,93,92,42,62,19,,51,50,39,38,11,12,0.8,1.3
2024-01-09T1900,1705A,116.6367,23.6719,潮州市,西园路,,36,36,78,18,51,78,,131,130,13,23,3,7,0.6,0.6
2024-01-09T1900,1706A,116.6447,23.6706,潮州市,档案局,,48,,72,33,56,81,,126,125,16,26,5,9,0.8,0.8
2024-01-09T1900,3026A,116.6183,23.6608,潮州市,市政府,,28,26,68,19,45,76,,138,129,16,21,5,10,0.9,0.9
2024-01-09T1900,2472A,113.0073,25.9061,郴州市,马头岭,颗粒物(PM10),55,59,47,23,23,28,,37,36,26,23,11,8,1.4,1.3
2024-01-09T1900,2473A,113.0116,25.8226,郴州市,市职中,细颗粒物(PM2.5),63,52,39,45,33,26,,30,30,23,20,9,8,1.1,1.1
2024-01-09T1900,2474A,113.0161,25.8001,郴州市,兴隆步行街,细颗粒物(PM2.5),72,74,51,52,41,25,,29,29,22,18,7,7,1.3,1.3
2024-01-09T1900,2475A,113.0383,25.8071,郴州市,市审计局,细颗粒物(PM2.5),84,,40,62,35,17,,25,24,28,24,15,13,1.2,1.1
2024-01-09T1900,2476A,113.0348,25.7759,郴州市,市环保局,细颗粒物(PM2.5),92,68,44,68,36,14,,22,22,33,25,21,13,1.3,1.3
2024-01-09T1900,1431A,103.9728,30.7236,成都市,金泉两河,细颗粒物(PM2.5),97,107,126,72,86,30,,83,83,53,24,1,2,0.7,0.7
2024-01-09T1900,1432A,104.176,30.6872,成都市,十里店,细颗粒物(PM2.5),82,80,109,60,97,84,,89,89,28,33,1,2,0.7,0.9
2024-01-09T1900,1433A,104.079,30.5706,成都市,三瓦窑,细颗粒物(PM2.5),82,99,131,60,107,80,,84,84,17,21,3,2,0.6,0.8
2024-01-09T1900,1434A,104.1114,30.63,成都市,沙河铺,细颗粒物(PM2.5),94,88,119,70,98,71,,82,82,30,31,4,4,0.7,0.8
2024-01-09T1900,1437A,104.0786,30.6531,成都市,君平街,细颗粒物(PM2.5),109,124,124,82,103,72,,93,93,46,33,4,4,0.7,0.8
2024-01-09T1900,1438A,103.613,31.0283,成都市,灵岩寺,细颗粒物(PM2.5),89,90,46,66,67,110,,94,94,18,22,2,9,1.1,1.3
2024-01-09T1900,2880A,104.0239,30.65639,成都市,大石西路,细颗粒物(PM2.5),113,100,115,85,95,66,,87,87,37,34,5,5,0.8,0.9
2024-01-09T1900,3136A,104.2725,30.5589,成都市,龙泉驿区区政府,细颗粒物(PM2.5),79,88,113,58,88,94,,98,98,18,21,1,2,0.7,0.8
2024-01-09T1900,3357A,104.0106,30.6931,成都市,金博路,细颗粒物(PM2.5),122,135,115,92,86,28,,70,70,68,35,3,3,0.9,0.8
2024-01-09T1900,3359A,104.0578,30.5225,成都市,华阳,细颗粒物(PM2.5),70,68,118,51,94,70,,88,88,32,29,1,1,0.9,1
2024-01-09T1900,3487A,104.2394,30.5319,成都市,车城东七路,细颗粒物(PM2.5),67,61,115,48,101,101,,101,101,16,25,1,2,0.8,1
2024-01-09T1900,3488A,104.3853,30.7453,成都市,青白江技师分院,细颗粒物(PM2.5),94,86,134,70,105,78,,93,93,37,39,2,3,0.6,0.9
2024-01-09T1900,3489A,104.0789,30.4072,成都市,科学城,细颗粒物(PM2.5),64,53,120,46,105,93,,93,93,21,29,3,3,0.6,0.9
2024-01-09T1900,4011A,103.8506,30.6947,成都市,光华大道三段,细颗粒物(PM2.5),104,109,105,78,86,32,,85,85,55,29,3,2,1.2,0.9
2024-01-09T1900,1062A,117.9531,40.9081,承德市,铁路,,33,33,99,9,61,64,,44,44,12,45,13,13,0.3,1.2
2024-01-09T1900,1063A,117.9392,40.9763,承德市,中国银行,,42,42,92,14,55,62,,52,52,14,38,6,7,0.5,1.1
2024-01-09T1900,1064A,117.9503,40.928,承德市,开发区,,38,38,89,22,56,65,,50,50,14,43,10,12,0.3,1.1
2024-01-09T1900,1065A,117.8051,40.9655,承德市,文化中心,颗粒物(PM10),52,53,119,26,62,34,,52,52,38,42,9,17,0.5,1.4
2024-01-09T1900,1066A,117.9268,41.0026,承德市,离宫,,33,33,84,22,59,64,,46,46,7,32,4,4,0.2,0.8
2024-01-09T1900,2314A,117.47,30.6618,池州市,池州学院,细颗粒物(PM2.5),124,128,135,94,101,65,,71,71,32,35,6,8,0.9,0.9
2024-01-09T1900,3237A,117.4918,30.6617,池州市,展览馆,细颗粒物(PM2.5),112,108,138,84,101,28,,70,69,64,40,5,7,1.2,1.1
2024-01-09T1900,3333A,117.5627,30.695,池州市,第八中学,细颗粒物(PM2.5),90,87,107,67,82,68,,74,74,34,35,23,6,0.8,1.1
2024-01-09T1900,3334A,117.5038,30.6243,池州市,第十二中学,细颗粒物(PM2.5),133,119,116,101,96,34,,74,72,66,36,4,5,1.2,1.1
2024-01-09T1900,1744A,118.9233,42.2816,赤峰市,松山一中,,23,23,69,9,38,33,,56,53,37,38,4,12,0.7,1.5
2024-01-09T1900,1745A,118.9576,42.2728,赤峰市,哈达街,,18,18,58,8,46,33,,48,47,35,38,13,22,0.6,1.2
2024-01-09T1900,1746A,118.8788,42.2554,赤峰市,天义路,,28,28,44,8,27,28,,54,50,42,35,10,11,0.5,1
2024-01-09T1900,3058A,119.2658,42.0353,赤峰市,银河街,,44,44,62,17,39,28,,53,50,39,32,21,31,0.8,1.3
2024-01-09T1900,3286A,118.9359,42.3147,赤峰市,桥北物流园区,,23,23,41,14,26,34,,60,58,46,38,9,12,0.7,0.9
2024-01-09T1900,2521A,107.3476,22.4136,崇左市,市环保局江州分局,,40,40,50,20,32,44,,58,58,13,11,6,6,0.8,0.7
2024-01-09T1900,2522A,107.3702,22.3707,崇左市,城南新区,,49,49,56,26,43,38,,56,56,21,20,7,7,0.8,0.7
2024-01-09T1900,2298A,118.3093,32.3153,滁州市,老年大学,细颗粒物(PM2.5),189,150,86,142,69,74,,78,78,33,42,7,7,1.1,1.1
2024-01-09T1900,2299A,118.3244,32.2786,滁州市,人大宾馆,细颗粒物(PM2.5),189,172,96,142,75,70,,77,76,50,55,6,7,0.9,1
2024-01-09T1900,3207A,118.3118,32.3038,滁州市,市政府原办公楼,细颗粒物(PM2.5),166,149,83,126,63,68,,76,76,41,48,5,6,0.9,0.9
2024-01-09T1900,3331A,118.3267,32.2634,滁州市,图书馆,细颗粒物(PM2.5),185,155,94,139,72,70,,80,80,34,47,7,8,1.3,1.2
2024-01-09T1900,2605A,101.5482,25.0441,楚雄彝族自治州,州环境监测站,,25,24,26,17,20,80,,88,88,11,27,5,7,0.5,0.7
2024-01-09T1900,2606A,101.538,25.0492,楚雄彝族自治州,市经济开发区,,38,29,27,26,20,75,,89,89,17,27,6,7,0.6,0.6
2024-01-09T1900,2548A,107.5277,31.2827,达州市,达州职业技术学院,颗粒物(PM10),68,86,89,42,58,8,,37,37,68,26,10,9,1.3,0.9
2024-01-09T1900,2549A,107.5086,31.2186,达州市,市环境监测站,细颗粒物(PM2.5),117,134,89,88,65,6,,36,36,92,37,10,8,2.1,1
2024-01-09T1900,2550A,107.4988,31.2132,达州市,凤凰小区,细颗粒物(PM2.5),138,163,90,105,67,9,,39,39,94,38,11,8,2.6,1.1
2024-01-09T1900,2551A,107.5082,31.1986,达州市,达县机关宾馆,细颗粒物(PM2.5),123,175,99,93,67,4,,33,32,87,40,11,7,1.7,0.8
2024-01-09T1900,2552A,107.4644,31.2124,达州市,市政中心,细颗粒物(PM2.5),140,171,109,107,75,5,,26,26,101,43,14,12,2.7,1.2
2024-01-09T1900,2614A,100.1542,25.7054,大理白族自治州,大理市环境监测站,,27,22,20,12,15,85,,87,87,11,8,6,6,0.5,0.5
2024-01-09T1900,2615A,100.2171,25.5811,大理白族自治州,大理古城,,43,43,19,20,13,64,,86,86,25,16,6,6,0.9,0.8
2024-01-09T1900,1109A,121.612,38.9741,大连市,甘井子,,36,36,62,20,43,57,,55,55,20,40,7,12,0.5,0.7
2024-01-09T1900,1110A,121.565,38.9511,大连市,周水子,,36,36,61,19,43,41,,44,44,24,44,7,14,0.5,1
2024-01-09T1900,1111A,121.5637,38.8845,大连市,星海三站,,44,44,56,21,41,48,,49,49,24,32,18,10,0.6,1.1
2024-01-09T1900,1112A,121.6302,38.9117,大连市,青泥洼桥,,34,34,50,19,40,52,,45,45,21,41,11,15,0.5,1
2024-01-09T1900,1113A,121.6251,38.8638,大连市,傅家庄,,26,25,64,18,39,51,,46,46,19,32,14,22,0.9,1.3
2024-01-09T1900,1114A,121.5213,38.8661,大连市,七贤岭,,32,32,56,18,37,59,,58,58,16,31,12,13,0.8,1.2
2024-01-09T1900,1115A,121.2529,38.8061,大连市,旅顺,,24,24,49,16,35,64,,62,62,12,23,8,12,1.1,1.4
2024-01-09T1900,1116A,121.7485,39.1311,大连市,金州,,33,32,60,23,46,52,,53,53,18,30,11,10,0.7,1
2024-01-09T1900,1117A,121.7811,39.0496,大连市,开发区,,44,44,68,23,45,48,,44,44,23,41,12,14,0.6,1.1
2024-01-09T1900,1118A,121.9762,39.0631,大连市,双D港,,43,43,63,21,42,51,,50,50,17,22,11,10,0.8,1.2
2024-01-09T1900,1789A,124.81117,46.03138,大庆市,大同区,颗粒物(PM10),72,93,67,37,61,31,,40,40,30,25,15,10,0.9,0.8
2024-01-09T1900,1790A,125.129,46.533,大庆市,龙凤区,颗粒物(PM10),55,59,68,35,50,12,,33,32,57,41,7,9,0.4,0.7
2024-01-09T1900,1791A,124.902,46.408,大庆市,红岗区,,37,37,50,20,40,43,,50,50,24,24,8,7,0.7,0.7
2024-01-09T1900,1792A,125.153,46.586,大庆市,萨尔图区,细颗粒物(PM2.5),79,69,52,58,48,21,,42,41,60,40,10,10,0.6,0.5
2024-01-09T1900,1793A,124.9042,46.6215,大庆市,让胡路区,颗粒物(PM10),52,54,53,26,30,17,,46,42,54,24,7,8,0.7,0.5
2024-01-09T1900,3481A,125.141,46.634,大庆市,萨区政府监测点,细颗粒物(PM2.5),55,47,55,39,51,24,,38,38,45,40,13,10,0.6,0.7
2024-01-09T1900,1721A,113.3819,40.1097,大同市,果树场,,,,,,,,,,,,,,,,
2024-01-09T1900,1723A,113.2994,40.0758,大同市,云冈宾馆,,27,27,50,10,24,51,,74,71,31,34,10,15,0.9,0.9
2024-01-09T1900,1724A,113.3444,40.0917,大同市,大同大学,,26,24,51,18,27,37,,64,61,46,39,8,13,0.8,1
2024-01-09T1900,1725A,113.2661,40.1269,大同市,安家小村,,22,22,50,14,25,49,,70,67,26,31,11,17,0.7,0.8
2024-01-09T1900,1726A,113.2711,40.0844,大同市,教育学院,,30,30,55,18,24,52,,68,65,32,38,8,14,0.9,0.8
2024-01-09T1900,3282A,113.3397,40.0597,大同市,大同市卫生学校,,17,15,40,11,25,54,,66,65,29,37,6,13,0.6,0.9
2024-01-09T1900,3565A,113.1367,40.1122,大同市,云冈站,,14,12,52,4,30,39,,72,70,27,30,11,20,0.5,0.7
2024-01-09T1900,3566A,113.1186,40.2556,大同市,图书馆,,45,35,52,31,38,47,,68,65,16,31,11,15,1.0,1
2024-01-09T1900,3567A,113.5931,40.0461,大同市,区一中,,40,40,52,16,27,45,,65,65,30,34,14,21,0.7,0.8
2024-01-09T1900,3676A,113.2802,40.0995,大同市,第二人民医院,,36,25,56,25,26,55,,73,71,29,32,9,12,0.9,0.9
2024-01-09T1900,2269A,124.1069,50.4097,大兴安岭地区,科技局,,30,30,15,21,16,42,,61,59,23,5,7,6,0.6,0.4
2024-01-09T1900,3663A,124.1164,50.4278,大兴安岭地区,红旗社区,细颗粒物(PM2.5),97,90,20,72,14,22,,64,60,46,17,21,7,0.9,0.4
2024-01-09T1900,1600A,124.3303,40.0625,丹东市,江湾东路,,43,43,50,29,38,44,,53,53,26,20,21,16,0.9,0.8
2024-01-09T1900,1601A,124.4256,40.1503,丹东市,临江后街,,46,46,54,26,35,40,,55,55,36,27,15,16,1.2,1
2024-01-09T1900,1602A,124.3933,40.1461,丹东市,元宝山,,42,42,47,26,34,40,,51,50,26,20,12,15,1.1,1
2024-01-09T1900,1603A,124.3633,40.1092,丹东市,民主桥,颗粒物(PM10),51,52,52,24,30,35,,47,45,37,26,14,14,0.9,0.7
2024-01-09T1900,3541A,109.5726,19.5167,儋州市,第一中学子站,,31,31,27,16,16,74,,75,75,5,5,4,5,0.6,0.6
2024-01-09T1900,3542A,109.5567,19.5187,儋州市,东坡学校子站,,32,32,29,15,13,75,,75,75,4,5,6,5,0.6,0.6
2024-01-09T1900,2616A,98.5842,24.428,德宏傣族景颇族自治州,德宏州监测站,,45,40,53,31,40,79,,79,79,28,29,19,20,0.5,0.5
2024-01-09T1900,3677A,98.5881,24.4368,德宏傣族景颇族自治州,芒市人民政府综合楼,,36,36,47,17,31,79,,83,83,22,21,17,13,0.5,0.6
2024-01-09T1900,1901A,104.4239,31.1208,德阳市,东山公园,细颗粒物(PM2.5),92,81,112,68,96,82,,91,91,46,44,3,2,0.7,0.8
2024-01-09T1900,1902A,104.3826,31.1317,德阳市,西小区,细颗粒物(PM2.5),119,97,118,90,108,50,,77,77,61,36,1,3,1.1,0.9
2024-01-09T1900,1904A,104.3553,31.1091,德阳市,耐火材料厂,细颗粒物(PM2.5),129,141,122,98,107,57,,72,72,54,35,2,3,0.7,0.8
2024-01-09T1900,3639A,104.4019,31.1244,德阳市,市教育局,细颗粒物(PM2.5),103,89,110,77,97,34,,79,79,86,39,2,2,1.4,0.9
2024-01-09T1900,1622A,116.3032,37.4674,德州市,儿童乐园,颗粒物(PM10),68,85,144,36,88,20,,26,26,48,60,12,15,0.9,1.3
2024-01-09T1900,1624A,116.2991,37.4451,德州市,监理站,颗粒物(PM10),56,61,135,31,84,41,,34,34,38,67,10,17,0.6,1.2
2024-01-09T1900,3066A,116.2721,37.4379,德州市,九衢泉纯净水厂,颗粒物(PM10),69,88,142,39,82,29,,29,29,43,64,11,14,0.7,1.3
2024-01-09T1900,3371A,116.3728,37.4403,德州市,开发区人民医院,颗粒物(PM10),67,83,143,31,83,17,,27,27,54,65,7,12,0.6,1.2
2024-01-09T1900,3372A,116.3572,37.4094,德州市,太阳城中学,颗粒物(PM10),58,66,130,36,85,29,,28,28,37,62,8,14,0.8,1.3
2024-01-09T1900,3511A,116.5652,37.3319,德州市,陵城艺术中心,细颗粒物(PM2.5),70,88,133,51,87,26,,26,26,49,62,10,16,1.3,1.5
2024-01-09T1900,2621A,99.7056,27.8317,迪庆藏族自治州,迪庆州站,,23,20,26,13,16,72,,79,79,14,15,7,8,0.5,0.6
2024-01-09T1900,3180A,99.7136,27.8094,迪庆藏族自治州,质量技术监督局,,36,,24,25,15,73,,82,82,9,12,7,7,0.4,0.7
2024-01-09T1900,2663A,104.6241,35.5734,定西市,东关小学,颗粒物(PM10),64,78,103,34,39,63,,64,64,14,21,15,20,0.4,0.9
2024-01-09T1900,2664A,104.6194,35.5934,定西市,供电公司,颗粒物(PM10),68,86,90,24,43,57,,71,71,25,29,7,16,0.4,1
2024-01-09T1900,1389A,113.7547,23.0494,东莞市,莞城梨川,颗粒物(PM10),59,67,75,38,39,72,,115,115,53,46,7,8,1.0,0.9
2024-01-09T1900,1390A,113.7944,23.0128,东莞市,东城石井,细颗粒物(PM2.5),57,61,61,40,37,75,,109,109,36,40,10,10,0.9,0.8
2024-01-09T1900,1391A,113.7383,22.9658,东莞市,南城西平,颗粒物(PM10),60,69,75,39,40,58,,99,99,62,64,11,8,1.0,1
2024-01-09T1900,3319A,113.7338,23.0381,东莞市,万江金泰,"颗粒物(PM10),细颗粒物(PM2.5)",55,60,75,39,43,73,,103,103,43,45,7,7,1.2,1.2
2024-01-09T1900,3626A,113.7533,23.0202,东莞市,南城元岭,颗粒物(PM10),56,62,70,35,37,79,,97,97,38,48,7,9,0.9,1
2024-01-09T1900,3627A,113.7875,23.0457,东莞市,东城主山,颗粒物(PM10),56,61,67,35,37,68,,111,111,50,47,8,9,0.8,0.8
2024-01-09T1900,1666A,118.6614,37.4309,东营市,市环保局,,22,22,80,9,49,57,,54,54,19,46,8,16,0.3,0.8
2024-01-09T1900,3036A,118.6904,37.4338,东营市,开发区管委会,,22,22,81,12,53,59,,55,55,18,49,4,11,0.2,0.6
2024-01-09T1900,3365A,118.5719,37.565,东营市,垦利区民丰路,,29,29,84,7,46,48,,52,52,26,50,8,12,0.4,1
2024-01-09T1900,3498A,118.5055,37.8612,东营市,河口城区,,29,29,82,7,45,56,,60,60,18,41,3,6,0.4,0.9
2024-01-09T1900,3646A,118.4978,37.4623,东营市,胜利站,,41,41,95,9,53,50,,52,52,28,56,8,21,0.3,0.8
2024-01-09T1900,3734A,118.35,37.26,东营市,理想之城,,22,22,83,7,46,53,,51,51,21,55,5,13,0.4,0.9
2024-01-09T1900,1591A,110.0023,39.8129,鄂尔多斯市,综合楼,颗粒物(PM10),60,70,69,14,21,28,,53,52,63,30,11,11,0.7,0.6
2024-01-09T1900,1592A,109.9486,39.8261,鄂尔多斯市,巴音孟克林场办事处,,28,27,54,19,21,41,,56,56,40,25,9,10,0.7,0.7
2024-01-09T1900,1593A,109.7736,39.5986,鄂尔多斯市,康泽苑,,21,,44,12,21,66,,76,76,21,17,7,8,0.5,0.6
2024-01-09T1900,1594A,109.8119,39.5989,鄂尔多斯市,华泰汽车城,,28,24,48,14,19,32,,76,72,56,23,8,8,0.7,0.5
2024-01-09T1900,1595A,109.9734,39.7884,鄂尔多斯市,奥林花园,,48,48,66,17,23,41,,56,56,50,25,6,7,0.8,0.7
2024-01-09T1900,2436A,114.8938,30.3994,鄂州市,市政府,细颗粒物(PM2.5),210,160,135,160,124,53,,62,62,49,42,8,11,1.5,1.5
2024-01-09T1900,2437A,114.8989,30.3714,鄂州市,赵家坝,细颗粒物(PM2.5),196,,118,147,120,73,,72,72,47,51,8,14,1.3,1.4
2024-01-09T1900,3654A,114.8094,30.4089,鄂州市,精准医疗中心,细颗粒物(PM2.5),200,192,187,150,126,78,,77,77,42,46,12,15,0.9,1.2
2024-01-09T1900,2454A,109.4978,30.2981,恩施土家族苗族自治州,湖北民院,细颗粒物(PM2.5),72,66,72,52,61,48,,73,73,24,12,10,10,1.5,1.4
2024-01-09T1900,2455A,109.4707,30.2798,恩施土家族苗族自治州,州电力总公司,颗粒物(PM10),56,62,84,36,48,52,,58,58,21,23,5,6,1.0,1.2
2024-01-09T1900,3549A,109.5061,30.3772,恩施土家族苗族自治州,龙凤新区,细颗粒物(PM2.5),60,62,68,43,60,42,,70,70,32,25,7,7,1.0,0.9
2024-01-09T1900,2499A,108.3411,21.6158,防城港市,沙万,颗粒物(PM10),59,68,72,30,36,63,,87,77,31,27,8,7,0.7,0.7
2024-01-09T1900,2500A,108.3514,21.7731,防城港市,防城档案局,,,73,65,32,33,,,69,69,29,24,5,5,,1.1
2024-01-09T1900,2501A,108.3506,21.6414,防城港市,大海花园,颗粒物(PM10),51,52,62,26,28,77,,91,90,24,20,8,4,0.6,0.7
2024-01-09T1900,1371A,113.1294,23.0067,佛山市,湾梁,颗粒物(PM10),64,78,78,34,30,26,,75,68,58,34,10,7,0.8,0.6
2024-01-09T1900,1372A,113.1083,23.0478,佛山市,华材职中,"颗粒物(PM10),细颗粒物(PM2.5)",57,63,68,40,41,18,,69,60,86,45,8,8,0.7,0.7
2024-01-09T1900,1373A,113.144,23.0453,佛山市,南海气象局,细颗粒物(PM2.5),57,49,66,40,39,34,,75,69,56,42,6,6,0.8,0.7
2024-01-09T1900,1374A,113.2881,22.8094,佛山市,顺德苏岗,细颗粒物(PM2.5),107,94,62,80,41,31,,74,70,78,42,8,8,1.0,0.8
2024-01-09T1900,1376A,112.8383,22.8678,佛山市,高明孔堂,,50,50,51,26,32,73,,87,86,20,20,7,7,0.7,0.7
2024-01-09T1900,1377A,112.8836,23.1588,佛山市,三水监测站,颗粒物(PM10),59,68,96,36,55,25,,66,63,53,63,5,7,1.1,1
2024-01-09T1900,1378A,112.867,23.185,佛山市,三水云东海,细颗粒物(PM2.5),55,55,82,39,60,9,,57,53,49,52,4,5,0.8,0.8
2024-01-09T1900,3625A,113.2544,22.7642,佛山市,容桂街道办,细颗粒物(PM2.5),94,107,68,70,38,35,,77,73,78,39,6,6,0.9,0.9
2024-01-09T1900,1280A,119.3903,26.0543,福州市,鼓山,,,,,,,,,,,,,,,,
2024-01-09T1900,1282A,119.2681,26.0504,福州市,师大,颗粒物(PM10),53,56,37,28,35,10,,36,30,54,28,5,6,0.9,0.8
2024-01-09T1900,1283A,119.2984,26.1028,福州市,五四北路,颗粒物(PM10),56,61,31,32,33,3,,24,18,59,38,3,3,1.1,0.9
2024-01-09T1900,1284A,119.2648,26.0768,福州市,杨桥西路,,33,33,31,17,30,30,,47,47,33,26,3,3,0.7,0.7
2024-01-09T1900,1285A,119.317,26.0746,福州市,紫阳,颗粒物(PM10),51,52,33,27,32,3,,29,23,57,31,5,5,1.1,0.8
2024-01-09T1900,3048A,119.5799,26.0936,福州市,九龙,,40,33,24,28,26,17,,37,32,35,25,3,3,0.7,0.6
2024-01-09T1900,3526A,119.5189,25.9664,福州市,吴航,,50,43,46,35,35,0,,25,21,50,38,6,4,1.0,0.9
2024-01-09T1900,1755A,123.7977,41.8491,抚顺市,望花区,细颗粒物(PM2.5),94,92,62,70,47,43,,49,49,37,39,8,11,0.9,1.2
2024-01-09T1900,1756A,123.9161,41.8822,抚顺市,顺城区,细颗粒物(PM2.5),104,91,87,78,63,52,,56,56,30,38,7,8,0.7,1.3
2024-01-09T1900,1757A,124.0436,41.8611,抚顺市,东洲区,细颗粒物(PM2.5),94,86,67,70,44,48,,50,50,32,34,8,9,0.7,0.8
2024-01-09T1900,1758A,123.9247,41.8642,抚顺市,新抚区,细颗粒物(PM2.5),110,92,80,83,63,45,,52,52,35,36,6,7,0.9,1.1
2024-01-09T1900,1759A,124.0972,41.8961,抚顺市,大伙房水库,细颗粒物(PM2.5),104,93,64,78,48,48,,50,50,31,31,9,13,0.8,0.7
2024-01-09T1900,1760A,123.7086,41.8391,抚顺市,沈抚新城,颗粒物(PM10),70,89,65,50,40,46,,58,57,34,38,6,8,0.8,1.1
2024-01-09T1900,2376A,116.2127,28.0814,抚州市,桐源党溪,细颗粒物(PM2.5),67,51,58,48,49,22,,48,48,25,15,3,5,1.1,1.1
2024-01-09T1900,2377A,116.3544,27.9831,抚州市,市站,细颗粒物(PM2.5),64,63,70,46,52,57,,52,52,24,26,6,6,0.8,0.9
2024-01-09T1900,2378A,116.3565,27.963,抚州市,血防站,颗粒物(PM10),66,82,72,30,53,56,,46,46,18,25,8,9,1.2,1
2024-01-09T1900,2379A,116.3564,28.0007,抚州市,采茶剧团,,,55,63,52,56,44,,44,44,20,20,,6,1.2,1.3
2024-01-09T1900,2380A,116.385,27.9647,抚州市,医学分院,细颗粒物(PM2.5),60,55,64,43,47,45,,41,41,16,17,14,10,1.2,1.2
2024-01-09T1900,2207A,121.6094,41.998,阜新市,工业园区,颗粒物(PM10),51,52,85,31,36,30,,57,52,41,36,22,10,0.9,1
2024-01-09T1900,2208A,121.6697,42.0279,阜新市,长青街,,22,22,54,10,36,46,,59,58,14,31,3,6,0.4,0.8
2024-01-09T1900,2209A,121.6673,42.0705,阜新市,农业园区,,20,14,21,14,15,53,,61,59,11,11,7,8,0.4,0.5
2024-01-09T1900,2210A,121.6717,42.0224,阜新市,东苑,,,,,,,,,,,,,,,,
2024-01-09T1900,2211A,121.6506,42.0498,阜新市,玉龙新城,,,68,41,,27,20,,61,52,56,36,9,6,1.4,1
2024-01-09T1900,2301A,115.8277,32.8929,阜阳市,市监测站,细颗粒物(PM2.5),228,189,145,178,120,30,,69,62,46,38,6,8,0.9,0.8
2024-01-09T1900,2303A,115.8554,32.8605,阜阳市,开发区,细颗粒物(PM2.5),185,216,156,139,98,40,,72,70,42,41,9,10,0.7,0.6
2024-01-09T1900,2875A,115.784,32.8892,阜阳市,阜阳职业技术学院,细颗粒物(PM2.5),203,198,143,153,109,36,,72,69,39,31,4,7,1.0,0.9
2024-01-09T1900,3468A,115.7901,32.8613,阜阳市,市规划展馆,细颗粒物(PM2.5),200,188,150,150,111,39,,72,70,46,39,6,8,1.0,0.9
2024-01-09T1900,3469A,115.836,32.9183,阜阳市,枣园社区,细颗粒物(PM2.5),217,205,150,167,118,36,,71,68,41,37,6,8,1.1,1.1
2024-01-09T1900,2669A,102.9099,34.9841,甘南藏族自治州,州政府,,26,26,43,13,22,62,,79,79,22,22,15,11,0.6,0.7
2024-01-09T1900,3380A,102.8914,34.9617,甘南藏族自治州,甘肃民族师范学院,,23,21,41,9,15,72,,79,78,10,19,9,9,0.5,0.8
2024-01-09T1900,2570A,101.9603,30.0475,甘孜藏族自治州,水桥子,,29,24,28,20,12,88,,75,75,6,26,9,10,0.5,0.4
2024-01-09T1900,3065A,101.9533,29.9972,甘孜藏族自治州,州环保局,,,29,20,14,7,,,73,73,20,12,8,8,0.5,0.3
2024-01-09T1900,3414A,115.8347,28.932,赣江新区,桑海产业园,细颗粒物(PM2.5),69,80,140,50,91,12,,47,47,63,46,5,6,0.6,0.7
2024-01-09T1900,2362A,114.9017,25.9149,赣州市,通天岩,,,,,,,,,,,,,,,,
2024-01-09T1900,2363A,114.9367,25.8664,赣州市,地委,,47,47,31,26,24,20,,37,36,39,18,16,14,1.4,1.4
2024-01-09T1900,2364A,114.9461,25.8481,赣州市,气象台,颗粒物(PM10),53,55,30,30,24,19,,38,36,53,20,8,7,1.6,1.3
2024-01-09T1900,2365A,114.9322,25.8333,赣州市,市图书馆,颗粒物(PM10),51,51,32,25,22,17,,40,36,50,22,6,5,1.4,1.3
2024-01-09T1900,2366A,114.8905,25.8471,赣州市,华坚鞋城,颗粒物(PM10),52,54,34,24,22,23,,40,35,39,20,2,2,1.6,1.5
2024-01-09T1900,3109A,115.0093,25.8613,赣州市,赣县区卫计委,颗粒物(PM10),53,55,24,30,21,21,,32,32,31,19,6,6,1.6,1.4
2024-01-09T1900,2683A,106.2319,36.1417,固原市,马园,颗粒物(PM10),129,207,162,68,35,44,,71,71,38,22,7,5,0.5,0.4
2024-01-09T1900,2684A,106.2792,36.0022,固原市,监测站,颗粒物(PM10),120,190,143,54,22,48,,84,78,25,20,7,6,0.6,0.4
2024-01-09T1900,2685A,106.2375,36.0211,固原市,新区,颗粒物(PM10),121,192,139,53,26,26,,78,69,42,12,8,6,0.6,0.2
2024-01-09T1900,3522A,106.2177,35.9959,固原市,原州区十五小,颗粒物(PM10),129,208,133,60,30,29,,80,72,55,12,15,7,0.8,0.4
2024-01-09T1900,2543A,106.6308,30.5278,广安市,小平旧居,,,,,,,,,,,,,,,,
2024-01-09T1900,2544A,106.6303,30.4576,广安市,市委,细颗粒物(PM2.5),105,103,79,79,67,16,,40,40,51,24,5,5,1.3,1
2024-01-09T1900,2545A,106.6271,30.4663,广安市,友谊中学,细颗粒物(PM2.5),112,111,76,84,62,23,,38,38,48,27,4,4,1.2,1
2024-01-09T1900,2547A,106.6388,30.4551,广安市,广电花园,细颗粒物(PM2.5),109,104,72,82,63,5,,34,33,60,28,3,3,1.4,1
2024-01-09T1900,2902A,106.6351,30.4865,广安市,北辰小学,细颗粒物(PM2.5),118,104,72,89,64,14,,35,35,54,25,5,5,1.3,1
2024-01-09T1900,2523A,105.8945,32.4535,广元市,黑石坡,,49,38,71,34,40,86,,70,70,22,39,12,11,0.5,0.9
2024-01-09T1900,2524A,105.821,32.4444,广元市,老城,细颗粒物(PM2.5),65,73,95,47,58,5,,44,44,92,48,4,12,1.3,1.2
2024-01-09T1900,2526A,105.8628,32.4287,广元市,监测站,细颗粒物(PM2.5),74,55,74,54,55,49,,51,51,44,40,7,7,0.6,0.9
2024-01-09T1900,3617A,105.8047,32.4166,广元市,经开区,"颗粒物(PM10),细颗粒物(PM2.5)",58,65,98,41,62,16,,50,50,74,46,8,11,1.1,1.2
2024-01-09T1900,1345A,113.2347,23.1423,广州市,广雅中学,,50,50,66,32,37,15,,61,56,82,58,6,5,1.1,0.9
2024-01-09T1900,1346A,113.2612,23.105,广州市,市五中,颗粒物(PM10),56,61,70,38,43,26,,70,67,72,49,8,8,1.0,0.9
2024-01-09T1900,1348A,113.3478,23.0916,广州市,广东商学院,颗粒物(PM10),61,72,70,35,39,32,,54,54,68,67,5,5,0.9,0.8
2024-01-09T1900,1349A,113.4332,23.1047,广州市,市八十六中,颗粒物(PM10),60,69,70,39,38,44,,69,66,65,76,5,6,0.9,0.9
2024-01-09T1900,1350A,113.3505,22.9483,广州市,番禺中学,细颗粒物(PM2.5),78,66,58,57,37,33,,78,73,91,52,5,5,1.0,0.7
2024-01-09T1900,1351A,113.2146,23.3916,广州市,花都师范,,23,23,82,14,44,60,,79,79,34,60,6,6,0.7,0.7
2024-01-09T1900,1352A,113.2597,23.1331,广州市,市监测站,颗粒物(PM10),56,61,70,38,40,15,,62,57,89,57,5,4,1.0,0.9
2024-01-09T1900,1353A,113.5618,23.312,广州市,九龙镇镇龙,,36,36,83,24,46,76,,92,92,24,53,6,6,0.8,0.8
2024-01-09T1900,1354A,113.2765,23.1544,广州市,麓湖,,48,48,60,32,38,18,,68,64,59,54,4,5,1.0,0.8
2024-01-09T1900,1355A,113.443,23.3035,广州市,帽峰山森林公园,,25,25,54,17,30,57,,86,86,16,39,7,9,0.6,0.6
2024-01-09T1900,2846A,113.3221,23.1322,广州市,体育西,颗粒物(PM10),56,61,67,37,38,46,,68,68,42,41,9,7,1.0,0.9
2024-01-09T1900,3298A,113.5717,23.5491,广州市,从化街口,,26,24,72,18,52,51,,94,94,30,42,13,7,1.0,1
2024-01-09T1900,3299A,113.3472,23.3692,广州市,白云竹料,,26,26,86,17,53,48,,87,87,32,46,6,6,1.2,1.1
2024-01-09T1900,3300A,113.2981,23.237,广州市,白云嘉禾,颗粒物(PM10),62,73,90,43,48,15,,75,72,93,74,8,8,1.3,1
2024-01-09T1900,3301A,113.4256,23.1716,广州市,黄埔科学城,细颗粒物(PM2.5),72,78,77,52,48,32,,71,70,62,60,5,5,1.0,0.9
2024-01-09T1900,3302A,113.3942,23.0483,广州市,番禺大学城,颗粒物(PM10),75,100,93,41,34,49,,70,70,64,52,10,10,1.1,0.9
2024-01-09T1900,3303A,113.4922,22.8168,广州市,南沙黄阁,细颗粒物(PM2.5),73,88,63,53,38,37,,88,84,88,55,4,5,1.0,0.8
2024-01-09T1900,3304A,113.5342,22.7896,广州市,南沙街,细颗粒物(PM2.5),72,86,60,52,34,53,,90,89,72,52,5,6,0.9,0.8
2024-01-09T1900,3443A,113.2902,23.5544,广州市,花都梯面,,19,14,51,11,35,60,,85,85,21,40,4,5,0.8,0.9
2024-01-09T1900,3445A,113.7858,23.7478,广州市,从化良口,,26,20,34,18,27,59,,96,96,19,20,7,6,0.9,0.9
2024-01-09T1900,3446A,113.8051,23.2614,广州市,增城荔城,细颗粒物(PM2.5),55,52,80,39,53,90,,112,108,25,37,5,6,0.8,0.8
2024-01-09T1900,2505A,109.568,23.1478,贵港市,德智高中,,35,29,24,24,16,8,,16,14,31,24,5,5,1.2,1.1
2024-01-09T1900,2506A,109.6047,23.0666,贵港市,江南子站,,36,34,43,25,30,6,,9,9,34,28,6,7,1.2,1.2
2024-01-09T1900,2507A,109.6014,23.0948,贵港市,贵城子站,,48,39,35,33,26,3,,10,9,34,27,7,7,1.2,1
2024-01-09T1900,2508A,109.5669,23.1065,贵港市,荷城子站,,36,36,34,22,18,4,,10,9,25,20,8,8,1.4,1.2
2024-01-09T1900,3405A,109.5886,23.1172,贵港市,新世纪学校,,41,41,28,28,21,6,,12,11,29,24,6,4,1.2,1.2
2024-01-09T1900,1439A,106.6899,26.5998,贵阳市,马鞍山,细颗粒物(PM2.5),64,48,46,46,36,30,,34,34,27,20,9,8,0.8,0.8
2024-01-09T1900,1440A,106.6971,26.5694,贵阳市,市环保站,细颗粒物(PM2.5),69,61,46,50,44,31,,33,33,45,25,9,10,0.7,0.6
2024-01-09T1900,1441A,106.6243,26.6266,贵阳市,鉴湖路,颗粒物(PM10),53,56,49,36,27,49,,46,46,24,23,4,5,0.7,0.7
2024-01-09T1900,1442A,106.7487,26.6343,贵阳市,燕子冲,细颗粒物(PM2.5),52,41,45,36,38,49,,40,40,17,14,12,10,0.8,0.8
2024-01-09T1900,1443A,106.6555,26.4365,贵阳市,碧云窝,细颗粒物(PM2.5),70,78,59,51,32,33,,30,30,39,27,36,17,0.9,0.8
2024-01-09T1900,1444A,106.694,26.5161,贵阳市,中院村,细颗粒物(PM2.5),62,66,59,44,38,31,,31,31,40,28,14,12,0.8,0.8
2024-01-09T1900,1445A,106.7109,26.6027,贵阳市,红边门,细颗粒物(PM2.5),73,73,52,53,40,22,,30,30,38,20,30,13,1.1,0.8
2024-01-09T1900,1446A,106.7164,26.5699,贵阳市,新华路,细颗粒物(PM2.5),64,70,51,46,39,28,,33,33,42,21,9,8,0.8,0.7
2024-01-09T1900,1447A,106.674,26.5424,贵阳市,太慈桥,,,,52,,35,23,,30,30,51,28,,8,0.9,0.8
2024-01-09T1900,1552A,106.805,26.3003,贵阳市,桐木岭,,,,,,,,,,,,,,,,
2024-01-09T1900,1862A,110.4144,25.3167,桂林市,电子科大尧山校区,,,37,21,18,15,28,,48,,,8,6,7,1.3,1.1
2024-01-09T1900,1863A,110.2819,25.2697,桂林市,监测站,,45,44,33,31,25,20,,41,39,44,22,13,13,1.6,1.4
2024-01-09T1900,1864A,110.3089,25.2708,桂林市,龙隐路小学,,43,37,29,30,24,33,,46,45,30,22,8,12,1.3,1.2
2024-01-09T1900,1865A,110.2869,25.2178,桂林市,八中,,,50,31,43,28,20,,38,37,,27,7,10,1.3,1.1
2024-01-09T1900,3403A,110.1764,25.2381,桂林市,创业大厦,细颗粒物(PM2.5),55,53,31,39,26,26,,41,40,31,18,24,10,0.8,0.7
2024-01-09T1900,3531A,110.296,25.1253,桂林市,旅游学院,,,,18,,19,33,,40,40,,17,7,8,0.9,0.8
2024-01-09T1900,2674A,100.2561,34.4714,果洛藏族自治州,玛沁县大武镇,,,32,33,,16,81,,80,80,8,16,9,12,0.4,0.6
2024-01-09T1900,1129A,126.5422,45.755,哈尔滨市,岭北,细颗粒物(PM2.5),132,115,77,100,65,39,,63,61,54,37,22,21,0.7,0.5
2024-01-09T1900,1130A,126.561,45.8167,哈尔滨市,松北商大,细颗粒物(PM2.5),108,96,73,81,52,29,,48,48,58,41,6,8,0.8,0.9
2024-01-09T1900,1131A,126.979,45.5419,哈尔滨市,阿城会宁,细颗粒物(PM2.5),165,,99,125,89,44,,48,48,39,41,22,21,1.1,1.2
2024-01-09T1900,1132A,126.599,45.7222,哈尔滨市,南岗学府路,细颗粒物(PM2.5),142,130,87,108,57,25,,38,37,60,41,24,20,1.2,0.9
2024-01-09T1900,1133A,126.689,45.7733,哈尔滨市,太平宏伟公园,细颗粒物(PM2.5),90,,69,67,49,38,,47,47,42,36,10,21,0.8,0.7
2024-01-09T1900,1134A,126.635,45.7667,哈尔滨市,道外承德广场,细颗粒物(PM2.5),119,90,72,90,51,20,,42,40,63,34,7,9,1.4,1.1
2024-01-09T1900,1135A,126.685,45.7319,哈尔滨市,香坊红旗大街,细颗粒物(PM2.5),137,107,75,104,66,18,,44,43,80,41,21,20,1.3,1.1
2024-01-09T1900,1136A,126.6411,45.7258,哈尔滨市,动力和平路,细颗粒物(PM2.5),134,103,69,102,54,16,,37,35,69,42,22,30,1.0,1
2024-01-09T1900,1137A,126.593,45.7478,哈尔滨市,道里建国路,细颗粒物(PM2.5),104,95,69,78,54,26,,44,42,52,33,13,14,0.7,0.6
2024-01-09T1900,1138A,126.615,45.61,哈尔滨市,平房东轻厂,细颗粒物(PM2.5),117,99,87,88,68,16,,40,37,78,52,13,12,1.2,1.2
2024-01-09T1900,1139A,126.595,45.9855,哈尔滨市,呼兰师专,细颗粒物(PM2.5),112,90,90,84,83,44,,54,54,40,34,12,9,0.9,1.1
2024-01-09T1900,1140A,126.6206,45.6842,哈尔滨市,省农科院,细颗粒物(PM2.5),158,144,107,120,81,26,,50,44,70,51,21,27,1.2,1.2
2024-01-09T1900,2688A,93.5128,42.8172,哈密市,地区监测站,颗粒物(PM10),88,126,109,53,52,47,,49,49,46,53,9,7,1.0,1
2024-01-09T1900,2689A,93.4961,42.8328,哈密市,哈密师范学校,颗粒物(PM10),90,130,115,58,54,52,,54,54,43,58,14,9,1.3,1.2
2024-01-09T1900,2671A,100.9048,36.9639,海北藏族自治州,海晏县西海镇,,30,30,26,12,11,82,,87,87,3,5,13,13,0.3,0.3
2024-01-09T1900,3867A,102.0738,36.5056,海东市,平安区公安北苑,,38,38,80,24,29,50,,64,64,27,22,15,21,0.8,0.9
2024-01-09T1900,1409A,110.576,19.9507,海口市,东寨港,,,,,,,,,,,,,,,,
2024-01-09T1900,1410A,110.3232,20.0574,海口市,海南大学,,50,50,46,21,20,102,,85,,8,14,8,8,0.4,0.4
2024-01-09T1900,1411A,110.283,20.0053,海口市,秀英海南医院,,50,50,48,21,20,95,,94,94,8,7,8,8,0.5,0.5
2024-01-09T1900,1412A,110.338,19.9969,海口市,海南师范大学,,46,46,46,20,20,95,,96,96,7,6,6,7,0.5,0.5
2024-01-09T1900,1413A,110.33,20.0356,海口市,龙华路环保局宿舍,颗粒物(PM10),51,51,48,22,19,100,,97,97,7,8,7,7,0.5,0.5
2024-01-09T1900,3539A,110.5111,19.9736,海口市,桂林洋子站,,41,41,37,18,17,88,,87,87,4,5,5,6,0.4,0.4
2024-01-09T1900,2673A,100.6188,36.2866,海南藏族自治州,共和县恰卜恰镇,,30,30,28,8,12,51,,81,80,39,23,7,10,1.0,0.6
2024-01-09T1900,2676A,97.3731,37.3753,海西蒙古族藏族自治州,德令哈市,,50,50,29,15,13,50,,85,81,46,12,17,14,0.9,0.5
2024-01-09T1900,1048A,114.5302,36.6116,邯郸市,东污水处理厂,细颗粒物(PM2.5),110,113,124,83,94,1,,26,21,76,61,3,4,1.0,1.1
2024-01-09T1900,1049A,114.4918,36.5713,邯郸市,矿院,细颗粒物(PM2.5),104,115,124,78,90,4,,25,22,71,59,3,3,1.2,1.3
2024-01-09T1900,1050A,114.484,36.6133,邯郸市,丛台公园,细颗粒物(PM2.5),100,114,126,75,90,8,,32,29,75,64,4,4,0.8,0.9
2024-01-09T1900,3458A,114.7895,36.5593,邯郸市,香泉濮院小区,细颗粒物(PM2.5),129,153,144,98,99,14,,38,35,76,58,7,7,1.0,0.9
2024-01-09T1900,3579A,114.50634,36.77178,邯郸市,永年区实验高中,颗粒物(PM10),134,218,145,92,97,4,,30,24,83,70,9,10,1.0,1.1
2024-01-09T1900,3580A,114.20016,36.44293,邯郸市,峰峰矿区临水派出所,细颗粒物(PM2.5),92,119,127,68,93,10,,40,38,61,52,9,14,1.1,1.5
2024-01-09T1900,2634A,106.9893,33.1842,汉中市,汉川机床厂子校,"颗粒物(PM10),细颗粒物(PM2.5)",64,78,79,46,68,68,,81,81,11,14,4,5,0.6,0.9
2024-01-09T1900,2635A,107.0154,33.0706,汉中市,市监测站,细颗粒物(PM2.5),85,90,127,63,108,29,,61,61,76,47,14,21,2.5,1.8
2024-01-09T1900,2636A,107.0089,33.1138,汉中市,鑫源开发区,细颗粒物(PM2.5),69,71,115,50,103,56,,70,70,34,28,8,14,0.6,1.2
2024-01-09T1900,2637A,107.007,33.0323,汉中市,南郑大河坎水厂,细颗粒物(PM2.5),110,115,148,83,135,29,,67,67,69,39,14,14,1.8,1.7
2024-01-09T1900,1223A,120.2072,30.2111,杭州市,滨江,细颗粒物(PM2.5),87,89,114,64,88,25,,37,37,66,54,10,10,1.0,1
2024-01-09T1900,1224A,120.0633,30.2747,杭州市,西溪,颗粒物(PM10),65,79,113,36,76,26,,53,50,35,52,7,7,0.9,1
2024-01-09T1900,1226A,120.3461,30.3153,杭州市,下沙,细颗粒物(PM2.5),153,157,143,117,108,3,,40,36,130,75,8,7,1.2,1
2024-01-09T1900,1227A,120.1269,30.2456,杭州市,卧龙桥,细颗粒物(PM2.5),78,77,107,57,82,12,,44,42,45,41,5,6,1.2,1
2024-01-09T1900,1228A,120.1903,30.2692,杭州市,浙江农大,细颗粒物(PM2.5),107,120,126,80,91,5,,43,40,90,58,8,9,1.1,1.1
2024-01-09T1900,1230A,120.1197,30.3119,杭州市,和睦小学,细颗粒物(PM2.5),102,128,124,76,88,6,,38,37,91,59,6,6,1.0,0.9
2024-01-09T1900,1231A,120.3019,30.4183,杭州市,临平镇,细颗粒物(PM2.5),128,124,136,97,105,38,,51,51,63,60,6,7,1.2,1.1
2024-01-09T1900,1232A,120.2697,30.1819,杭州市,城厢镇,细颗粒物(PM2.5),84,90,110,62,86,17,,42,42,87,57,7,7,1.3,1
2024-01-09T1900,1233A,120.0883,30.1808,杭州市,云栖,细颗粒物(PM2.5),88,90,114,65,81,16,,31,31,50,53,7,7,1.1,1
2024-01-09T1900,3557A,119.9464,30.0494,杭州市,镇二中,细颗粒物(PM2.5),100,97,87,75,78,4,,35,34,93,59,6,6,1.4,1.1
2024-01-09T1900,3558A,119.7183,30.2367,杭州市,市府大楼,细颗粒物(PM2.5),107,110,125,80,92,43,,63,63,50,42,6,6,1.1,1
2024-01-09T1900,3656A,120.1556,30.2864,杭州市,消防大队,细颗粒物(PM2.5),124,129,115,94,87,5,,44,42,104,63,10,9,1.4,1
2024-01-09T1900,1270A,117.1959,31.7848,合肥市,明珠广场,细颗粒物(PM2.5),134,149,113,102,71,64,,65,65,38,47,7,6,1.1,1.1
2024-01-09T1900,1271A,117.3072,31.8764,合肥市,三里街,细颗粒物(PM2.5),160,166,116,122,80,68,,64,64,38,50,6,6,0.8,0.9
2024-01-09T1900,1272A,117.2588,31.8707,合肥市,琥珀山庄,细颗粒物(PM2.5),138,158,105,105,67,70,,76,76,46,53,7,6,0.9,0.9
2024-01-09T1900,1273A,117.1604,31.9052,合肥市,董铺水库,细颗粒物(PM2.5),134,156,106,102,64,60,,78,78,34,36,4,4,0.8,0.8
2024-01-09T1900,1274A,117.25,31.8571,合肥市,长江中路,细颗粒物(PM2.5),155,161,107,118,80,63,,13,,39,50,8,7,1.0,1
2024-01-09T1900,1275A,117.266,31.9436,合肥市,庐阳区,细颗粒物(PM2.5),149,163,117,114,73,65,,72,72,37,45,7,7,0.7,0.9
2024-01-09T1900,1276A,117.336,31.8586,合肥市,瑶海区,细颗粒物(PM2.5),168,166,113,127,77,59,,60,60,51,54,3,3,1.0,1
2024-01-09T1900,1277A,117.3027,31.7964,合肥市,包河区,细颗粒物(PM2.5),160,153,110,122,81,53,,60,60,54,50,5,6,0.9,0.9
2024-01-09T1900,1278A,117.2776,31.7385,合肥市,滨湖新区,细颗粒物(PM2.5),144,163,114,110,73,60,,64,64,43,44,7,7,1.0,0.9
2024-01-09T1900,1279A,117.1318,31.8403,合肥市,高新区,细颗粒物(PM2.5),137,144,105,104,77,63,,73,73,40,50,12,12,1.1,1.1
2024-01-09T1900,3464A,117.3803,31.9147,合肥市,高教基地,细颗粒物(PM2.5),160,173,104,122,69,64,,70,70,53,56,6,5,0.9,0.8
2024-01-09T1900,3614A,79.924,37.0877,和田地区,地区环保局,颗粒物(PM10),103,155,147,48,51,110,,96,96,19,36,8,20,1.0,1.4
2024-01-09T1900,3615A,79.9131,37.113,和田地区,市环保局,颗粒物(PM10),92,133,147,52,62,112,,81,81,14,56,11,27,0.8,3
2024-01-09T1900,2516A,108.2011,24.715,河池市,东仁乐园,,30,30,18,18,12,5,,16,16,12,11,4,5,1.0,1
2024-01-09T1900,2517A,108.0497,24.6947,河池市,市环保站,,37,37,22,20,15,7,,24,20,24,16,5,6,1.1,0.9
2024-01-09T1900,2518A,108.0983,24.6989,河池市,市疾控中心,颗粒物(PM10),51,51,22,26,14,6,,23,15,31,20,6,7,1.1,1
2024-01-09T1900,1696A,114.6778,23.7569,河源市,源西,,26,26,68,17,40,66,,70,70,16,39,4,4,0.9,0.9
2024-01-09T1900,1697A,114.6944,23.7586,河源市,东埔,,29,26,74,20,50,71,,75,75,14,25,7,8,0.9,0.9
2024-01-09T1900,1698A,114.6892,23.7233,河源市,老城,,25,24,65,17,48,68,,75,75,13,22,5,7,0.9,0.8
2024-01-09T1900,1718A,115.4208,35.2464,菏泽市,气象局,细颗粒物(PM2.5),160,172,134,122,100,37,,41,41,60,49,3,2,0.9,0.7
2024-01-09T1900,1719A,115.4747,35.2375,菏泽市,市政协,细颗粒物(PM2.5),152,188,148,116,100,31,,38,38,55,46,5,5,0.8,0.7
2024-01-09T1900,3374A,115.5564,35.0891,菏泽市,定陶老年大学,细颗粒物(PM2.5),163,171,129,124,97,26,,37,37,55,41,5,3,0.8,0.6
2024-01-09T1900,3647A,115.4702,35.2706,菏泽市,菏泽医专,细颗粒物(PM2.5),153,166,130,117,90,32,,36,36,73,60,8,6,1.0,0.9
2024-01-09T1900,2514A,111.5264,24.4172,贺州市,环保小区,细颗粒物(PM2.5),53,51,22,37,15,28,,32,32,23,18,6,6,1.3,1.1
2024-01-09T1900,2515A,111.5608,24.4078,贺州市,政协大楼,,47,47,27,30,15,27,,32,32,23,17,8,6,1.3,1.1
2024-01-09T1900,3534A,111.4744,24.4553,贺州市,西湾,,50,44,22,35,17,25,,31,30,18,14,4,7,1.2,1.1
2024-01-09T1900,2385A,114.17,35.9019,鹤壁市,市监测站,细颗粒物(PM2.5),150,140,150,115,106,6,,37,35,79,62,7,12,1.1,1.4
2024-01-09T1900,2386A,114.2956,35.7511,鹤壁市,市交警支队,细颗粒物(PM2.5),137,157,147,104,97,7,,42,36,81,67,8,11,0.9,1.2
2024-01-09T1900,2387A,114.2878,35.7306,鹤壁市,迎宾馆,细颗粒物(PM2.5),134,129,130,102,98,9,,40,37,80,66,12,15,1.0,1.3
2024-01-09T1900,3474A,114.2617,35.6822,鹤壁市,大新区,,,,138,,98,,,22,,,67,,15,,1.4
2024-01-09T1900,3596A,114.1572,35.9603,鹤壁市,南山宾馆,细颗粒物(PM2.5),143,156,148,109,100,6,,42,39,75,57,12,19,1.3,1.7
2024-01-09T1900,2244A,130.2537,47.3416,鹤岗市,哈啤分公司,,50,45,30,35,25,43,,55,54,19,11,24,15,0.9,0.6
2024-01-09T1900,2245A,130.2684,47.3086,鹤岗市,斯达机电,,48,48,38,27,26,35,,55,52,35,17,23,13,0.7,0.4
2024-01-09T1900,2246A,130.3114,47.3388,鹤岗市,东山纸板厂,,39,39,35,20,33,40,,51,50,23,21,21,15,0.9,0.7
2024-01-09T1900,2247A,130.1097,47.3382,鹤岗市,五号水库,,31,31,25,18,20,39,,60,50,15,13,15,13,0.7,0.6
2024-01-09T1900,2263A,127.4833,50.2524,黑河市,交通局,,29,25,21,20,16,49,,59,58,14,10,5,4,0.6,0.5
2024-01-09T1900,2264A,127.5144,50.2341,黑河市,环保局,,30,25,18,21,17,45,,61,59,22,10,8,5,0.5,0.3
2024-01-09T1900,2265A,127.5291,50.2472,黑河市,大黑河岛,,30,,17,21,14,24,,22,21,46,11,6,3,0.8,0.6
2024-01-09T1900,1074A,115.6838,37.7541,衡水市,电机北厂,细颗粒物(PM2.5),107,103,108,80,87,0,,17,15,69,64,7,7,1.1,1.1
2024-01-09T1900,1075A,115.6303,37.7316,衡水市,市监测站,细颗粒物(PM2.5),103,111,113,77,87,0,,16,15,78,70,9,10,1.4,1.2
2024-01-09T1900,3188A,115.6683,37.7217,衡水市,市城管局,细颗粒物(PM2.5),103,116,116,77,88,0,,16,14,77,68,9,10,1.3,1.1
2024-01-09T1900,3459A,115.5989,37.5491,衡水市,地表水厂,细颗粒物(PM2.5),127,134,112,96,90,2,,22,20,83,67,10,7,1.4,1.1
2024-01-09T1900,2456A,112.5003,26.9167,衡阳市,原169医院,,50,49,58,35,39,63,,64,64,16,26,4,5,1.1,1.1
2024-01-09T1900,2457A,112.6194,26.9258,衡阳市,衡阳化工总厂,细颗粒物(PM2.5),155,139,99,118,105,5,,41,40,74,31,8,6,2.2,1.2
2024-01-09T1900,2458A,112.6211,26.8956,衡阳市,珠晖区环保局,细颗粒物(PM2.5),155,129,90,118,106,10,,37,37,68,34,10,8,2.2,1.3
2024-01-09T1900,2459A,112.6197,26.8733,衡阳市,市委党校,细颗粒物(PM2.5),119,119,102,90,94,20,,41,41,48,30,12,9,1.7,1.2
2024-01-09T1900,2460A,112.6006,26.8919,衡阳市,市监测站,细颗粒物(PM2.5),123,136,123,93,97,14,,42,42,62,33,8,7,2.1,1.4
2024-01-09T1900,2461A,112.5664,26.9056,衡阳市,真空机电公司,细颗粒物(PM2.5),120,117,81,91,96,14,,45,45,70,32,9,7,1.8,1.3
2024-01-09T1900,3399A,112.6703,26.882,衡阳市,师范学院,细颗粒物(PM2.5),107,110,110,80,105,24,,45,45,41,27,8,8,1.7,1.2
2024-01-09T1900,2608A,103.3772,23.3993,红河哈尼族彝族自治州,污水处理厂,,45,38,37,31,30,79,,98,98,9,10,6,12,0.4,0.5
2024-01-09T1900,2609A,103.3861,23.35,红河哈尼族彝族自治州,监测站,,50,36,34,35,28,70,,98,97,20,12,12,10,0.4,0.5
2024-01-09T1900,3038A,103.3758,23.368,红河哈尼族彝族自治州,州图书馆,,,,31,,29,81,,99,99,9,9,8,11,,0.5
2024-01-09T1900,1090A,111.6507,40.7517,呼和浩特市,呼市一监,细颗粒物(PM2.5),117,110,113,88,79,10,,50,46,71,53,11,15,0.9,1.1
2024-01-09T1900,1091A,111.6572,40.8033,呼和浩特市,小召,细颗粒物(PM2.5),90,97,108,67,67,10,,53,40,74,52,7,12,1.0,1.1
2024-01-09T1900,1094A,111.7516,40.8369,呼和浩特市,如意水处理厂,,26,16,81,7,47,25,,62,58,52,51,9,12,0.4,0.9
2024-01-09T1900,1095A,111.7276,40.8062,呼和浩特市,二十九中,细颗粒物(PM2.5),97,105,95,72,60,7,,49,43,75,54,14,15,0.9,1
2024-01-09T1900,1096A,111.5512,40.7866,呼和浩特市,工大金川校区,细颗粒物(PM2.5),92,106,144,68,98,10,,41,39,70,58,8,9,0.9,1.3
2024-01-09T1900,1097A,111.717,40.7612,呼和浩特市,化肥厂生活区,细颗粒物(PM2.5),104,104,120,78,71,10,,42,41,82,61,10,14,0.9,1.3
2024-01-09T1900,3698A,111.5968,40.8178,呼和浩特市,红旗小学,,46,41,105,32,63,16,,68,51,70,52,10,16,0.7,1.1
2024-01-09T1900,3699A,111.6518,40.8389,呼和浩特市,海东办,颗粒物(PM10),52,53,101,29,57,23,,61,50,57,54,8,14,0.5,0.8
2024-01-09T1900,2192A,119.7594,49.2261,呼伦贝尔市,区环保局,,25,24,44,17,39,54,,47,47,13,44,7,7,0.5,0.8
2024-01-09T1900,3061A,119.7512,49.1577,呼伦贝尔市,国华电力东,,20,17,25,14,20,57,,56,56,7,10,5,5,0.2,0.2
2024-01-09T1900,1250A,120.0751,30.8669,湖州市,城西水厂,细颗粒物(PM2.5),123,118,126,93,87,61,,69,69,51,67,5,6,0.9,0.7
2024-01-09T1900,2873A,120.0875,30.8955,湖州市,仁皇山新区,细颗粒物(PM2.5),123,120,125,93,91,67,,68,68,44,70,8,8,1.0,1
2024-01-09T1900,2907A,120.1844,30.8596,湖州市,吴兴区站,细颗粒物(PM2.5),129,140,134,98,92,56,,73,73,51,59,7,7,0.8,0.7
2024-01-09T1900,3562A,120.4148,30.8538,湖州市,南浔区站,细颗粒物(PM2.5),122,127,131,92,90,55,,69,69,52,59,8,8,1.0,0.9
2024-01-09T1900,1607A,120.9092,40.7136,葫芦岛市,龙港区,细颗粒物(PM2.5),69,63,63,50,40,14,,56,49,50,34,22,22,0.6,0.9
2024-01-09T1900,1608A,120.8392,40.7514,葫芦岛市,化工街,,34,34,60,14,29,44,,55,53,14,20,10,14,0.4,0.6
2024-01-09T1900,1609A,120.8341,40.7073,葫芦岛市,新区,,38,38,50,19,31,44,,58,55,23,30,12,14,0.5,0.7
2024-01-09T1900,1610A,120.8695,40.7677,葫芦岛市,东城区,,40,35,53,28,38,37,,58,54,27,25,13,15,0.7,1
2024-01-09T1900,2482A,109.5981,27.5721,怀化市,林科所,细颗粒物(PM2.5),88,70,74,65,71,32,,36,36,4,4,11,3,0.9,0.7
2024-01-09T1900,2483A,109.9453,27.5444,怀化市,河西地税局,细颗粒物(PM2.5),145,126,114,111,105,9,,30,27,53,26,1,4,1.7,1.3
2024-01-09T1900,2484A,109.9781,27.5342,怀化市,市四医院,细颗粒物(PM2.5),107,117,97,80,67,12,,33,33,46,25,4,4,1.6,1.2
2024-01-09T1900,2485A,109.9972,27.5578,怀化市,监测楼,细颗粒物(PM2.5),105,135,125,79,83,16,,30,28,50,33,6,5,1.6,1.2
2024-01-09T1900,2486A,110.0394,27.583,怀化市,市委党校,细颗粒物(PM2.5),133,154,129,101,101,7,,32,30,65,38,15,11,1.5,1.3
2024-01-09T1900,1210A,119.036,33.5981,淮安市,钵池山,细颗粒物(PM2.5),147,136,99,112,79,9,,29,28,60,53,7,9,1.1,1
2024-01-09T1900,1211A,119.007,33.575,淮安市,北京南路,细颗粒物(PM2.5),139,134,98,106,72,8,,30,28,58,52,8,9,0.9,0.9
2024-01-09T1900,1212A,118.989,33.6067,淮安市,市监测站,细颗粒物(PM2.5),149,136,99,114,78,11,,28,28,59,53,10,9,1.1,1.1
2024-01-09T1900,1213A,119.135,33.5039,淮安市,楚州区监测站,细颗粒物(PM2.5),134,142,104,102,69,8,,31,31,64,59,8,9,1.1,0.9
2024-01-09T1900,1214A,119.0186,33.6297,淮安市,淮阴区监测站,细颗粒物(PM2.5),119,158,115,90,62,3,,23,22,63,56,6,8,1.0,1
2024-01-09T1900,3426A,118.8755,33.2894,淮安市,新华书店,细颗粒物(PM2.5),162,168,102,123,78,19,,34,34,59,55,7,7,1.1,1
2024-01-09T1900,2282A,116.8004,33.975,淮北市,监测站,细颗粒物(PM2.5),195,187,132,146,96,38,,48,48,38,43,4,6,1.1,0.9
2024-01-09T1900,2283A,116.8091,33.9007,淮北市,烈山区政府,细颗粒物(PM2.5),192,175,125,144,94,38,,52,52,38,45,4,6,0.8,0.7
2024-01-09T1900,3330A,116.8873,33.9836,淮北市,杜集区检察院,细颗粒物(PM2.5),195,192,131,146,96,33,,47,46,43,45,6,9,1.0,0.9
2024-01-09T1900,4017A,116.7923,33.9535,淮北市,市博物馆,细颗粒物(PM2.5),207,199,130,157,100,35,,47,47,42,47,5,7,1.0,1
2024-01-09T1900,2277A,116.8305,32.7727,淮南市,潘集区政府,细颗粒物(PM2.5),207,203,141,157,104,39,,65,65,37,45,7,7,0.9,0.9
2024-01-09T1900,2278A,117.0067,32.6524,淮南市,师范学院,细颗粒物(PM2.5),199,217,141,149,95,37,,61,61,44,50,9,11,0.9,0.9
2024-01-09T1900,2279A,116.8569,32.5951,淮南市,谢家集区政府,细颗粒物(PM2.5),193,201,122,145,88,51,,69,69,54,56,6,10,0.9,0.7
2024-01-09T1900,2280A,116.8281,32.633,淮南市,八公山区政府,细颗粒物(PM2.5),202,202,126,152,90,44,,72,70,37,39,8,8,0.8,0.7
2024-01-09T1900,2281A,116.6325,32.6201,淮南市,焦岗湖风景区管理处,细颗粒物(PM2.5),147,158,98,112,69,38,,61,61,38,41,2,2,0.6,0.6
2024-01-09T1900,2894A,117.0566,32.6531,淮南市,经济技术开发区消防队,细颗粒物(PM2.5),200,194,124,150,87,40,,66,66,39,43,4,6,0.8,0.8
2024-01-09T1900,3329A,117.0108,32.5893,淮南市,山南新区,细颗粒物(PM2.5),217,202,120,167,87,52,,68,68,40,44,5,6,1.0,0.9
2024-01-09T1900,2446A,114.9028,30.4742,黄冈市,职工中心,细颗粒物(PM2.5),186,179,146,140,112,,,66,,32,29,13,12,1.1,1.1
2024-01-09T1900,2929A,114.8858,30.4519,黄冈市,红卫路,细颗粒物(PM2.5),183,166,144,138,115,71,,71,71,33,37,8,10,1.2,1.3
2024-01-09T1900,3398A,114.9136,30.4445,黄冈市,市林业局,细颗粒物(PM2.5),183,163,135,138,114,73,,78,78,38,43,7,8,1.1,1.1
2024-01-09T1900,2672A,102.0199,35.5102,黄南藏族自治州,同仁县隆务镇,颗粒物(PM10),51,52,37,22,21,68,,78,78,14,13,24,25,0.8,0.7
2024-01-09T1900,2295A,118.2903,29.6963,黄山市,延安路89号,细颗粒物(PM2.5),58,61,125,41,83,40,,60,58,22,19,6,6,0,0.7
2024-01-09T1900,2296A,118.327,29.7178,黄山市,黄山东路89号,细颗粒物(PM2.5),79,95,117,58,88,13,,55,51,45,26,6,5,1.0,0.7
2024-01-09T1900,2297A,118.1371,30.2756,黄山市,黄山区政府5号楼,细颗粒物(PM2.5),69,76,115,50,83,84,,86,86,23,21,6,4,0.7,0.9
2024-01-09T1900,2423A,115.0601,30.2313,黄石市,沈家营,细颗粒物(PM2.5),160,165,137,122,94,80,,79,79,41,47,8,8,0.8,1
2024-01-09T1900,2424A,115.0817,30.2006,黄石市,陈家湾,细颗粒物(PM2.5),204,169,140,154,116,61,,71,71,48,50,10,11,1.5,1.4
2024-01-09T1900,2426A,114.8988,30.2019,黄石市,铁山,细颗粒物(PM2.5),217,,122,167,131,50,,87,87,67,41,13,15,1.5,1.2
2024-01-09T1900,2427A,115.0307,30.2092,黄石市,团城山,细颗粒物(PM2.5),190,151,131,143,107,68,,83,83,60,56,7,9,1.1,1
2024-01-09T1900,3149A,115.0235,30.1578,黄石市,笔架山北路,细颗粒物(PM2.5),212,,136,162,113,60,,85,85,51,39,11,7,1.3,1.2
2024-01-09T1900,1392A,114.4183,23.0528,惠州市,河南岸金山湖子站,,,43,67,26,41,108,,125,125,,27,,8,1.0,0.9
2024-01-09T1900,1393A,114.4053,23.0822,惠州市,下埔横江三路子站,,40,40,66,23,39,111,,128,128,23,25,11,12,0.9,0.8
2024-01-09T1900,1394A,114.4103,23.1142,惠州市,江北云山西路子站,,41,41,67,27,35,115,,127,127,22,29,9,10,0.8,0.8
2024-01-09T1900,1395A,114.4645,22.7833,惠州市,惠阳区承修路船湖子站,颗粒物(PM10),64,77,73,37,38,100,,128,128,50,33,8,8,1.0,0.8
2024-01-09T1900,1396A,114.5317,22.7422,惠州市,大亚湾管委会子站,颗粒物(PM10),58,66,73,28,33,123,,134,134,36,45,6,7,0.9,0.9
2024-01-09T1900,3314A,114.4338,22.8134,惠州市,惠阳秋长,颗粒物(PM10),69,88,78,39,34,107,,137,137,33,27,7,8,1.0,0.9
2024-01-09T1900,3452A,114.6517,22.775,惠州市,大亚湾霞涌,颗粒物(PM10),52,53,58,24,29,118,,125,125,22,28,12,9,0.6,0.7
2024-01-09T1900,2240A,130.9762,45.3001,鸡西市,环保局,,38,30,70,26,52,48,,52,52,18,31,7,10,1.2,1.5
2024-01-09T1900,2243A,130.9429,45.3039,鸡西市,第一中学,,38,35,55,26,39,54,,61,60,17,30,10,13,0.4,0.5
2024-01-09T1900,3707A,131.0207,45.3073,鸡西市,欧美日汽修厂,细颗粒物(PM2.5),110,99,101,83,71,22,,48,42,46,42,23,34,1.1,1.6
2024-01-09T1900,3709A,130.9967,45.3106,鸡西市,市政设施管理处,,48,,73,33,54,33,,57,55,34,36,4,6,0.6,0.8
2024-01-09T1900,2367A,114.9754,27.0803,吉安市,红声器材厂,颗粒物(PM10),54,57,76,37,51,50,,54,54,28,31,9,12,1.3,1.3
2024-01-09T1900,2368A,114.9658,27.0999,吉安市,市森林工业局,,48,48,67,12,54,47,,50,50,26,31,7,12,1.6,0.3
2024-01-09T1900,2369A,114.99,27.1312,吉安市,市环境监测站,细颗粒物(PM2.5),52,49,68,36,49,38,,46,46,26,30,7,9,1.2,1.3
2024-01-09T1900,2370A,115.0093,27.0968,吉安市,青原区法院,细颗粒物(PM2.5),58,54,64,41,52,46,,53,53,31,29,10,15,0.8,0.8
2024-01-09T1900,1772A,126.54,43.8622,吉林市,哈达湾,细颗粒物(PM2.5),52,51,83,36,63,47,,49,49,32,37,8,14,0.8,1.2
2024-01-09T1900,1773A,126.5844,43.8358,吉林市,东局子,,50,47,80,35,55,47,,47,47,30,41,7,12,0.7,1.2
2024-01-09T1900,1774A,126.5052,43.8245,吉林市,电力学院,,,251,101,,74,15,,47,43,67,37,27,17,2.6,1.4
2024-01-09T1900,1775A,126.6133,43.8972,吉林市,江北,细颗粒物(PM2.5),178,163,110,134,85,24,,48,44,76,48,17,16,1.9,1.5
2024-01-09T1900,1776A,126.555,43.8306,吉林市,江南公园,,45,36,70,31,58,49,,47,47,25,36,9,12,0.7,1.2
2024-01-09T1900,1778A,126.7061,43.7133,吉林市,丰满,,,,,,,,,,,,,,,,
2024-01-09T1900,2868A,126.4739,43.953,吉林市,九站,细颗粒物(PM2.5),87,78,95,64,78,29,,41,41,53,47,10,11,1.0,1.2
2024-01-09T1900,1299A,116.9862,36.6114,济南市,科干所,"颗粒物(PM10),细颗粒物(PM2.5)",70,90,115,51,69,39,,30,23,33,49,9,14,0.9,1
2024-01-09T1900,1300A,116.9376,36.665,济南市,农科所,颗粒物(PM10),73,95,123,51,68,27,,18,18,36,57,8,16,0.8,1
2024-01-09T1900,1301A,117.1265,36.6734,济南市,开发区,颗粒物(PM10),63,76,126,42,71,33,,19,19,37,71,8,16,0.8,1
2024-01-09T1900,1303A,117.0624,36.6868,济南市,省种子仓库,"颗粒物(PM10),细颗粒物(PM2.5)",70,90,131,51,72,38,,24,24,24,52,7,15,0.8,1.1
2024-01-09T1900,1304A,116.9489,36.6447,济南市,机床二厂,细颗粒物(PM2.5),74,93,117,54,73,35,,20,20,45,59,8,17,0.9,1
2024-01-09T1900,1305A,117.0495,36.663,济南市,市监测站,细颗粒物(PM2.5),70,78,117,51,70,40,,26,26,34,56,13,21,0.7,0.8
2024-01-09T1900,1306A,116.7675,36.5484,济南市,长清党校,细颗粒物(PM2.5),92,115,125,68,77,22,,25,22,60,58,12,14,0.9,0.8
2024-01-09T1900,1616A,117.6795,36.229,济南市,技术学院,细颗粒物(PM2.5),185,185,117,139,82,15,,29,28,78,61,7,19,1.3,1
2024-01-09T1900,1961A,117.532,36.6868,济南市,东山小学,细颗粒物(PM2.5),77,95,115,56,65,38,,29,29,36,60,7,15,0.5,0.7
2024-01-09T1900,3059A,117.7161,36.2049,济南市,泰兴公司,细颗粒物(PM2.5),156,166,130,119,86,18,,24,24,63,70,6,17,1.3,1.2
2024-01-09T1900,3064A,117.6867,36.2171,济南市,莱芜战役纪念馆,细颗粒物(PM2.5),195,190,125,146,82,12,,25,25,70,56,9,19,1.3,1
2024-01-09T1900,3494A,117.1673,36.9782,济南市,济阳区政府,颗粒物(PM10),63,76,119,34,70,25,,27,27,51,68,12,18,0.6,1
2024-01-09T1900,3495A,117.1171,36.63,济南市,锦屏中学,颗粒物(PM10),63,76,102,42,70,41,,35,25,28,43,8,12,0.7,0.8
2024-01-09T1900,3682A,116.9814,36.6819,济南市,济南四建,细颗粒物(PM2.5),77,78,107,56,71,30,,18,18,29,53,9,17,0.8,1
2024-01-09T1900,1653A,116.6251,35.4302,济宁市,火炬城,细颗粒物(PM2.5),128,127,100,97,80,16,,22,22,60,42,7,6,1.3,1
2024-01-09T1900,1655A,116.5491,35.4042,济宁市,电化厂,细颗粒物(PM2.5),140,168,132,107,83,15,,24,24,61,40,14,8,1.2,1
2024-01-09T1900,3500A,116.5814,35.3707,济宁市,北湖一中,细颗粒物(PM2.5),138,139,109,105,87,17,,23,23,56,38,8,6,1.5,1.2
2024-01-09T1900,3501A,116.8249,35.5593,济宁市,服务中心,细颗粒物(PM2.5),138,179,135,105,78,16,,21,20,54,40,6,6,1.0,1
2024-01-09T1900,3678A,116.5907,35.4054,济宁市,市第七中学,细颗粒物(PM2.5),134,139,107,102,83,14,,22,22,62,44,9,5,1.3,1
2024-01-09T1900,2255A,130.2751,46.8028,佳木斯市,佳纺,细颗粒物(PM2.5),70,59,52,51,41,44,,53,52,29,34,11,10,0.9,0.9
2024-01-09T1900,2256A,130.3995,46.8307,佳木斯市,发电厂,细颗粒物(PM2.5),58,43,36,41,34,46,,55,54,29,23,12,13,0.7,0.7
2024-01-09T1900,2257A,130.3258,46.7975,佳木斯市,环保局,细颗粒物(PM2.5),63,50,45,45,39,34,,51,48,35,32,8,9,0.7,0.8
2024-01-09T1900,2258A,130.3648,46.8032,佳木斯市,十一中,细颗粒物(PM2.5),67,50,41,48,37,42,,51,50,28,29,5,9,0.7,0.7
2024-01-09T1900,2259A,130.3794,46.7588,佳木斯市,四丰,,50,50,39,25,23,50,,53,53,13,18,1,1,1.0,0.9
2024-01-09T1900,1252A,120.7436,30.778,嘉兴市,清河小学,细颗粒物(PM2.5),135,137,106,103,71,41,,64,64,65,50,7,7,1.0,1.2
2024-01-09T1900,1253A,120.726,30.7478,嘉兴市,嘉兴学院,细颗粒物(PM2.5),135,144,115,103,70,49,,66,66,51,52,9,9,1.0,0.9
2024-01-09T1900,2872A,120.7846,30.7525,嘉兴市,南湖区残联,细颗粒物(PM2.5),117,149,115,88,68,57,,75,75,59,54,8,7,1.2,0.9
2024-01-09T1900,3407A,120.6916,30.7739,嘉兴市,秀洲住建,细颗粒物(PM2.5),122,106,88,92,68,39,,63,63,68,61,12,10,1.0,0.9
2024-01-09T1900,1945A,98.2908,39.7711,嘉峪关市,气象局,颗粒物(PM10),68,85,63,34,23,24,,70,63,63,37,7,18,0.5,0.5
2024-01-09T1900,2884A,98.2672,39.7978,嘉峪关市,酒钢宾馆,颗粒物(PM10),69,88,62,31,20,34,,73,72,62,31,7,27,0.7,0.5
2024-01-09T1900,3248A,98.2643,39.7724,嘉峪关市,雄关区,颗粒物(PM10),64,77,46,35,21,30,,59,59,55,36,8,14,0.5,0.5
2024-01-09T1900,1383A,113.1064,22.6058,江门市,北街,细颗粒物(PM2.5),87,75,51,64,36,33,,108,99,102,37,7,7,0.7,0.6
2024-01-09T1900,1384A,113.0731,22.5835,江门市,西区,颗粒物(PM10),71,91,60,48,34,42,,110,104,87,38,6,6,1.0,0.7
2024-01-09T1900,1385A,113.0219,22.5311,江门市,圭峰西,细颗粒物(PM2.5),68,59,55,49,35,54,,114,105,55,26,7,7,0.8,0.8
2024-01-09T1900,1386A,113.0828,22.5947,江门市,东湖,"颗粒物(PM10),细颗粒物(PM2.5)",79,108,63,58,35,34,,105,98,82,25,6,6,0.8,0.7
2024-01-09T1900,3311A,113.1075,22.5647,江门市,江海富民,,,98,86,65,44,38,,104,100,90,43,,8,0.8,0.6
2024-01-09T1900,3449A,113.05,22.4667,江门市,新会银湖,细颗粒物(PM2.5),62,56,66,44,54,31,,117,111,69,32,7,8,0.9,0.9
2024-01-09T1900,1828A,113.227,35.2125,焦作市,市环保局,细颗粒物(PM2.5),105,145,172,79,108,28,,30,30,52,65,16,20,1.0,1.4
2024-01-09T1900,1830A,113.1992,35.2590,焦作市,影视城,,,,,,,,,,,,,,,,
2024-01-09T1900,3169A,113.2725,35.2067,焦作市,太极体育中心,细颗粒物(PM2.5),118,115,162,89,116,26,,34,34,58,68,15,22,1.0,1.4
2024-01-09T1900,3335A,113.3137,35.2641,焦作市,马村街道办,细颗粒物(PM2.5),128,148,175,97,115,30,,34,34,57,68,14,28,0.9,1.4
2024-01-09T1900,3336A,113.2465,35.2373,焦作市,焦作技师学院,细颗粒物(PM2.5),117,146,171,88,116,32,,33,33,54,68,23,21,1.4,1.8
2024-01-09T1900,3477A,113.1656,35.2539,焦作市,中站许衡医院,细颗粒物(PM2.5),115,133,146,87,99,21,,32,32,66,67,17,23,1.1,1.4
2024-01-09T1900,3981A,113.2449,35.1803,焦作市,原李万街道办,细颗粒物(PM2.5),122,169,164,92,115,32,,36,36,43,54,13,22,1.0,1.3
2024-01-09T1900,1708A,116.3701,23.5345,揭阳市,新兴,细颗粒物(PM2.5),104,116,89,78,60,129,,125,125,39,33,15,16,1.1,0.8
2024-01-09T1900,1709A,116.3264,23.5443,揭阳市,西马,细颗粒物(PM2.5),77,80,83,56,51,113,,122,121,28,27,10,13,0.9,0.8
2024-01-09T1900,1710A,116.3611,23.5626,揭阳市,东兴,细颗粒物(PM2.5),87,100,96,64,54,95,,120,119,40,34,16,16,1.7,0.9
2024-01-09T1900,1711A,116.4151,23.5294,揭阳市,渔湖,颗粒物(PM10),89,128,90,55,44,114,,137,137,32,24,19,13,1.8,0.8
2024-01-09T1900,3320A,116.403,23.5699,揭阳市,曲溪,细颗粒物(PM2.5),82,81,76,60,40,87,,125,120,33,31,5,7,1.2,0.7
2024-01-09T1900,1944A,102.1692,38.5167,金昌市,天庆家园,颗粒物(PM10),85,119,92,40,23,40,,66,66,48,30,25,69,1.3,0.7
2024-01-09T1900,3170A,102.1864,38.5253,金昌市,市委党校,颗粒物(PM10),106,161,107,63,31,45,,71,71,40,26,7,44,0.8,0.8
2024-01-09T1900,4022A,102.1647,38.5371,金昌市,金川区人防中心,颗粒物(PM10),90,130,93,34,25,43,,70,69,47,22,11,28,1.1,0.9
2024-01-09T1900,1262A,119.647,29.077,金华市,十五中,细颗粒物(PM2.5),68,76,164,49,121,42,,55,55,49,66,4,4,1.2,1.3
2024-01-09T1900,1263A,119.686,29.1029,金华市,监测站,,,68,168,38,118,36,,63,63,,62,4,5,1.0,1.2
2024-01-09T1900,3659A,119.656,29.1131,金华市,气象局,颗粒物(PM10),58,66,167,38,122,23,,61,61,55,61,5,6,1.1,1.3
2024-01-09T1900,1767A,121.1115,41.0879,锦州市,南山,,33,25,56,23,48,44,,62,60,25,33,10,17,0.8,1.2
2024-01-09T1900,1768A,121.0533,40.8434,锦州市,开发区,,33,33,69,18,42,49,,55,55,17,35,16,28,0.6,0.9
2024-01-09T1900,1769A,121.1836,41.1119,锦州市,百股街道,,49,39,53,34,42,41,,58,56,22,33,15,21,0.7,1
2024-01-09T1900,1770A,121.1178,41.1222,锦州市,天安街道,,30,30,54,21,38,46,,59,57,22,30,9,16,0.6,1.1
2024-01-09T1900,1771A,121.1303,41.1386,锦州市,北湖公园,细颗粒物(PM2.5),55,,40,39,35,42,,60,58,25,26,13,18,0.7,0.9
2024-01-09T1900,2160A,112.85,35.5051,晋城市,自来水公司,颗粒物(PM10),58,65,91,19,48,73,,84,84,27,46,4,10,0.6,1.2
2024-01-09T1900,2161A,112.8318,35.4936,晋城市,白云商贸,颗粒物(PM10),53,56,101,24,48,74,,83,83,23,37,4,8,0.5,1
2024-01-09T1900,2162A,112.8508,35.4887,晋城市,市环保局,颗粒物(PM10),55,60,97,19,49,73,,83,83,24,45,4,10,0.6,1.3
2024-01-09T1900,2163A,112.8676,35.4897,晋城市,技术学院,颗粒物(PM10),52,53,93,19,48,73,,83,83,27,50,4,10,0.4,1.1
2024-01-09T1900,2165A,112.8453,35.546,晋城市,白马寺,,,,,,,,,,,,,,,,
2024-01-09T1900,3620A,112.8271,35.4828,晋城市,泽州一中,颗粒物(PM10),56,62,88,14,40,77,,84,84,19,35,4,9,0.5,1
2024-01-09T1900,2171A,112.7532,37.6945,晋中市,锦纶小区,颗粒物(PM10),71,92,130,34,74,37,,56,55,42,58,17,20,0.6,1.2
2024-01-09T1900,2173A,112.7249,37.7067,晋中市,南都小区,颗粒物(PM10),70,89,136,45,76,33,,56,54,42,58,18,18,0.7,1.3
2024-01-09T1900,2174A,112.6991,37.6982,晋中市,榆次区政府,颗粒物(PM10),70,90,145,46,83,27,,56,52,47,61,19,19,0.6,1.3
2024-01-09T1900,2865A,112.7195,37.6828,晋中市,榆次三中,颗粒物(PM10),70,90,134,44,74,32,,57,55,48,60,19,19,0.6,1.3
2024-01-09T1900,2439A,112.2014,31.0481,荆门市,竹园小学,细颗粒物(PM2.5),148,153,161,113,132,28,,45,45,73,52,10,11,1.3,1.1
2024-01-09T1900,2440A,112.1969,30.9891,荆门市,掇刀,细颗粒物(PM2.5),170,172,152,129,117,37,,57,57,65,43,7,8,1.0,1
2024-01-09T1900,2441A,112.2213,31.0386,荆门市,石化一小,细颗粒物(PM2.5),183,181,175,138,120,33,,41,41,66,53,14,17,1.1,1
2024-01-09T1900,3012A,112.1849,31.0362,荆门市,西山林语,细颗粒物(PM2.5),125,143,146,95,118,70,,50,50,31,41,11,10,0.6,0.7
2024-01-09T1900,3547A,112.1632,31.0138,荆门市,龙泉中学南校,细颗粒物(PM2.5),160,160,148,122,117,72,,55,55,31,36,11,10,0.8,1
2024-01-09T1900,1844A,112.2494,30.3197,荆州市,市图书馆,细颗粒物(PM2.5),213,,131,163,144,58,,70,70,47,32,7,8,1.5,1.2
2024-01-09T1900,1845A,112.2008,30.3544,荆州市,市委党校,细颗粒物(PM2.5),213,,142,163,139,70,,73,73,50,43,8,9,1.3,1.2
2024-01-09T1900,3194A,112.2747,30.3122,荆州市,管委会,细颗粒物(PM2.5),220,,140,170,147,62,,72,72,51,48,7,10,1.2,1.2
2024-01-09T1900,3548A,112.1655,30.3364,荆州市,学苑路,细颗粒物(PM2.5),206,,123,156,124,81,,71,71,30,33,7,7,1.1,1
2024-01-09T1900,2342A,117.3102,29.3867,景德镇市,王港中学,,,,,,,,,,,,,,,,
2024-01-09T1900,2343A,117.2117,29.2933,景德镇市,老干部活动中心,细颗粒物(PM2.5),84,82,87,62,87,23,,31,31,39,28,9,8,0.9,0.9
2024-01-09T1900,2344A,117.1894,29.2789,景德镇市,兽医站,颗粒物(PM10),61,71,97,41,64,37,,35,35,35,30,8,9,0.9,0.9
2024-01-09T1900,2345A,117.1547,29.2617,景德镇市,台达陶瓷,细颗粒物(PM2.5),69,66,90,50,64,44,,42,42,35,33,7,14,1.0,1
2024-01-09T1900,2346A,117.2461,29.2956,景德镇市,陶研所,细颗粒物(PM2.5),63,71,93,45,62,16,,31,30,42,38,5,7,1.0,1
2024-01-09T1900,1803A,115.9872,29.6815,九江市,十里,细颗粒物(PM2.5),132,161,111,100,77,46,,76,76,77,47,11,10,1.6,1.2
2024-01-09T1900,1804A,115.9584,29.7046,九江市,茅山头,细颗粒物(PM2.5),147,154,112,112,84,12,,62,56,104,59,14,12,1.7,1.2
2024-01-09T1900,1805A,115.9877,29.7295,九江市,西园,细颗粒物(PM2.5),140,130,107,107,90,25,,59,59,95,54,13,10,1.6,1.3
2024-01-09T1900,1806A,116.0172,29.6547,九江市,五七二七厂,细颗粒物(PM2.5),128,145,111,97,82,67,,72,72,42,36,11,9,1.2,1.1
2024-01-09T1900,1808A,115.9114,29.6038,九江市,综合工业园,细颗粒物(PM2.5),163,139,100,124,100,24,,63,63,82,51,13,11,1.3,1.1
2024-01-09T1900,1809A,116.0721,29.7535,九江市,石化总厂,细颗粒物(PM2.5),139,153,119,106,79,49,,69,69,77,42,15,13,1.5,1.1
2024-01-09T1900,1810A,115.9773,29.5698,九江市,庐山气象台,细颗粒物(PM2.5),83,,13,61,18,92,,91,91,16,6,7,6,1.3,0.8
2024-01-09T1900,3190A,116.0254,29.6994,九江市,外国语学校,细颗粒物(PM2.5),140,133,101,107,81,30,,60,60,95,53,11,11,1.6,1.1
2024-01-09T1900,2658A,98.5061,39.7443,酒泉市,仓门街子站,颗粒物(PM10),67,83,86,33,35,43,,60,60,29,29,6,9,0.7,0.7
2024-01-09T1900,2659A,98.4989,39.7256,酒泉市,油田生活基地,颗粒物(PM10),71,92,96,34,33,35,,48,48,32,32,6,8,0.6,0.6
2024-01-09T1900,2698A,76.0072,39.4467,喀什地区,巡警大队,颗粒物(PM10),109,168,245,67,102,95,,60,60,34,68,12,9,0.9,2.8
2024-01-09T1900,2699A,75.9755,39.4694,喀什地区,吾办,颗粒物(PM10),114,177,243,82,135,86,,55,55,43,84,7,6,1.2,2.9
2024-01-09T1900,4027A,75.9483,39.4689,喀什地区,老干局,颗粒物(PM10),110,169,268,59,122,99,,57,57,25,66,9,8,1.0,4
2024-01-09T1900,1824A,114.3389,34.7781,开封市,肿瘤医院,细颗粒物(PM2.5),159,162,139,121,114,28,,39,39,44,44,5,5,1.1,1.1
2024-01-09T1900,1826A,114.2885,34.7965,开封市,世纪星幼儿园,细颗粒物(PM2.5),168,150,128,127,114,30,,41,41,49,47,6,6,1.0,1
2024-01-09T1900,3147A,114.3438,34.8106,开封市,龙亭公园,细颗粒物(PM2.5),172,143,134,130,122,31,,42,42,51,49,4,5,1.6,1.5
2024-01-09T1900,3210A,114.3644,34.7964,开封市,汴京公园,细颗粒物(PM2.5),175,153,129,132,118,27,,38,38,47,47,2,4,0.9,1
2024-01-09T1900,3473A,114.2485,34.8306,开封市,技师学院,细颗粒物(PM2.5),169,,124,128,116,31,,42,42,50,46,3,3,1.2,1.2
2024-01-09T1900,3592A,114.4644,34.7556,开封市,祥符区生态环境局,细颗粒物(PM2.5),196,200,160,147,112,32,,46,46,46,49,5,5,0.9,0.8
2024-01-09T1900,1951A,84.895,45.6094,克拉玛依市,长征新村,细颗粒物(PM2.5),64,63,73,46,60,49,,50,47,27,30,9,9,0.7,0.7
2024-01-09T1900,1952A,84.8988,45.5893,克拉玛依市,南林小区,细颗粒物(PM2.5),99,84,86,74,63,49,,54,49,22,22,3,3,0.7,0.6
2024-01-09T1900,1954A,84.905,44.3396,克拉玛依市,独山子区,细颗粒物(PM2.5),214,194,104,164,83,13,,39,31,83,50,5,5,1.3,1
2024-01-09T1900,1955A,85.6979,46.098,克拉玛依市,乌尔禾区商贸楼,,38,,69,26,62,70,,68,68,17,20,5,5,0.6,0.7
2024-01-09T1900,3612A,85.1045,45.6899,克拉玛依市,白碱滩区新站,细颗粒物(PM2.5),75,67,95,55,61,60,,52,52,23,25,9,9,0.6,0.6
2024-01-09T1900,2697A,76.1454,39.7142,克孜勒苏柯尔克孜自治州,市人民政府,细颗粒物(PM2.5),102,135,147,76,77,115,,90,90,23,26,8,6,1.4,1.4
2024-01-09T1900,3665A,76.1658,39.7157,克孜勒苏柯尔克孜自治州,克州文化中心,,,146,162,,65,103,,84,84,21,30,10,10,1.3,1.3
2024-01-09T1900,1450A,102.8204,24.8886,昆明市,呈贡新区,,30,29,27,21,22,94,,98,98,17,26,5,7,0.3,0.3
2024-01-09T1900,1451A,102.6251,24.9608,昆明市,西山森林公园,,33,21,19,14,15,105,,109,109,10,10,8,11,0.8,1
2024-01-09T1900,1452A,102.7252,25.0902,昆明市,龙泉镇,,44,44,42,23,23,60,,96,96,53,43,10,9,0.8,0.8
2024-01-09T1900,1453A,102.7266,25.0375,昆明市,东风东路,,,,41,,24,75,,93,93,32,37,,10,,0.7
2024-01-09T1900,1454A,102.6742,25.0669,昆明市,金鼎山,,35,35,40,17,23,73,,99,99,46,40,18,28,0.7,0.8
2024-01-09T1900,1455A,102.6644,25.0401,昆明市,碧鸡广场,细颗粒物(PM2.5),53,51,39,37,42,59,,91,91,53,37,11,12,0.8,0.8
2024-01-09T1900,3179A,102.7494,25.0119,昆明市,官渡区博物馆,,34,34,44,20,29,78,,98,98,25,37,9,9,0.5,0.8
2024-01-09T1900,3375A,102.8017,24.8336,昆明市,青年创业园,,,21,28,19,16,99,,106,106,18,36,9,12,,0.4
2024-01-09T1900,3550A,102.7997,24.9786,昆明市,昆明学院,,34,34,45,17,23,83,,99,97,22,30,11,12,0.6,0.7
2024-01-09T1900,3551A,102.5967,24.6736,昆明市,晋宁区生态环境分局,,40,40,43,14,26,96,,102,102,14,25,3,2,0.7,0.5
2024-01-09T1900,3552A,102.6678,24.9856,昆明市,云天化总部,,,27,34,15,19,,,103,103,28,38,11,12,0.5,0.6
2024-01-09T1900,1456A,91.1319,29.6514,拉萨市,八廓街,,22,20,23,8,14,70,,75,75,33,33,7,7,0.4,0.5
2024-01-09T1900,1457A,91.1221,29.6747,拉萨市,市环保局,,,19,37,10,24,66,,75,75,28,33,,7,,1.2
2024-01-09T1900,1458A,91.0874,29.6475,拉萨市,区监测站,,23,9,18,5,12,73,,77,77,19,33,4,4,0.5,0.6
2024-01-09T1900,1459A,91.1774,29.6541,拉萨市,西藏大学,,33,33,17,8,10,76,,78,78,21,14,6,5,0.8,0.8
2024-01-09T1900,1460A,90.9798,29.6588,拉萨市,区辐射站,,27,27,25,12,17,55,,64,64,38,28,7,6,0.6,0.6
2024-01-09T1900,1461A,91.0834,29.6292,拉萨市,拉萨火车站,,20,15,23,8,14,62,,67,67,26,33,4,5,0.5,0.9
2024-01-09T1900,2520A,109.2203,23.7256,来宾市,来宾技工学校,颗粒物(PM10),54,57,30,30,17,12,,24,22,35,23,8,7,1.6,1.5
2024-01-09T1900,3535A,109.1781,23.7297,来宾市,兴宾区政府,细颗粒物(PM2.5),60,66,30,43,16,19,,29,27,32,21,9,8,1.6,1.4
2024-01-09T1900,4002A,109.2416,23.7461,来宾市,中南小学,颗粒物(PM10),56,61,30,39,17,13,,25,24,33,21,11,10,1.5,1.5
2024-01-09T1900,1476A,103.631,36.1031,兰州市,兰炼宾馆,细颗粒物(PM2.5),114,143,117,86,56,10,,51,50,112,72,25,35,1.8,1.5
2024-01-09T1900,1477A,104.1373,35.9454,兰州市,榆中兰大校区,,,,,,,,,,,,,,,,
2024-01-09T1900,1478A,103.8412,36.0726,兰州市,生物制品所,细颗粒物(PM2.5),112,163,128,84,55,9,,28,27,110,78,27,20,2.2,1.5
2024-01-09T1900,1479A,103.831,36.0464,兰州市,铁路设计院,细颗粒物(PM2.5),78,101,125,57,60,7,,25,24,117,85,26,31,1.8,2.1
2024-01-09T1900,3186A,103.7158,36.1058,兰州市,教育港,细颗粒物(PM2.5),114,174,117,86,52,5,,40,39,126,72,37,29,2.7,1.4
2024-01-09T1900,3241A,103.7439,36.0842,兰州市,百合公园,颗粒物(PM10),95,140,121,70,49,7,,36,34,120,72,32,29,2.4,1.6
2024-01-09T1900,3242A,103.9611,35.998,兰州市,和平,颗粒物(PM10),97,143,103,66,42,18,,46,45,83,56,21,23,1.6,1.5
2024-01-09T1900,3245A,103.6633,36.533,兰州新区,新区管委会,颗粒物(PM10),93,136,97,48,39,8,,51,48,72,32,19,18,1.3,0.8
2024-01-09T1900,3246A,103.6975,36.4789,兰州新区,舟曲中学,颗粒物(PM10),100,150,130,47,41,11,,48,48,74,40,23,17,0.9,0.8
2024-01-09T1900,1067A,116.6708,39.5111,廊坊市,药材公司,颗粒物(PM10),77,104,84,51,43,17,,36,35,60,63,10,6,1.4,1
2024-01-09T1900,1068A,116.7214,39.5589,廊坊市,开发区,颗粒物(PM10),69,88,76,33,41,12,,27,27,65,65,12,7,1.2,0.8
2024-01-09T1900,1070A,116.7244,39.5269,廊坊市,北华航天学院,,,,87,,46,20,,35,35,,65,14,9,1.2,0.8
2024-01-09T1900,2919A,116.7022,39.5453,廊坊市,河北工业大学,细颗粒物(PM2.5),78,88,83,57,46,20,,32,32,55,59,10,7,1.2,0.8
2024-01-09T1900,2535A,103.7723,29.5462,乐山市,花湖湾,细颗粒物(PM2.5),72,,126,52,90,106,,72,72,13,18,3,3,0.7,0.9
2024-01-09T1900,2536A,103.7627,29.5844,乐山市,牛耳桥,细颗粒物(PM2.5),77,72,106,56,89,60,,74,74,52,27,4,3,1.0,1
2024-01-09T1900,2537A,103.7508,29.6006,乐山市,市第三水厂,细颗粒物(PM2.5),80,80,105,59,85,56,,76,76,58,27,4,3,0.9,0.9
2024-01-09T1900,2538A,103.7571,29.5664,乐山市,市监测站,细颗粒物(PM2.5),72,62,94,52,76,83,,74,74,31,22,5,6,1.0,1
2024-01-09T1900,3361A,103.7311,29.5628,乐山市,理工大学,细颗粒物(PM2.5),95,81,106,71,88,88,,77,77,24,24,7,7,1.1,1.2
2024-01-09T1900,2598A,100.2143,26.8576,丽江市,西南郊,,,,,,,,,,,,,,,,
2024-01-09T1900,2599A,100.2497,26.8802,丽江市,丽江古城,,46,46,34,23,16,96,,89,89,16,14,10,8,0.6,0.6
2024-01-09T1900,2600A,100.2203,26.8906,丽江市,市中心,,43,43,22,12,10,85,,81,81,19,15,12,7,0.8,0.6
2024-01-09T1900,1267A,119.914,28.4514,丽水市,监测站大楼,细颗粒物(PM2.5),77,82,61,56,51,63,,66,66,38,36,5,5,1.1,0.8
2024-01-09T1900,1268A,119.93,28.4586,丽水市,莲都小学,细颗粒物(PM2.5),88,88,76,65,51,81,,67,67,29,43,4,4,0.8,0.7
2024-01-09T1900,1269A,119.879,28.4231,丽水市,余庄前,,34,34,66,16,40,25,,59,59,26,28,5,5,0.7,0.8
2024-01-09T1900,1173A,119.176,34.5885,连云港市,市环境监测站,细颗粒物(PM2.5),149,166,102,114,75,32,,18,18,43,44,11,8,1.0,1
2024-01-09T1900,3000A,119.3581,34.6972,连云港市,德源药业,细颗粒物(PM2.5),132,149,99,100,65,34,,27,27,38,38,14,9,1.2,0.9
2024-01-09T1900,3007A,119.178,34.844,连云港市,新城一中,细颗粒物(PM2.5),158,139,88,120,74,27,,23,23,57,49,12,12,1.2,1.1
2024-01-09T1900,3008A,119.3608,34.7519,连云港市,胡沟管理处,细颗粒物(PM2.5),122,139,86,92,61,42,,28,28,35,44,14,11,1.6,1.1
2024-01-09T1900,3009A,119.1478,34.5911,连云港市,矿山设计院,细颗粒物(PM2.5),138,161,105,105,69,41,,18,18,34,50,10,9,1.1,1.1
2024-01-09T1900,3434A,119.2413,34.6539,连云港市,工贸学校,细颗粒物(PM2.5),132,151,110,100,72,44,,28,28,36,40,16,13,1.1,1
2024-01-09T1900,3664A,119.4172,34.7341,连云港市,连云街道,细颗粒物(PM2.5),122,138,103,92,72,20,,18,18,62,48,9,10,1.2,1
2024-01-09T1900,2571A,102.3431,27.8099,凉山彝族自治州,青龙寺,,36,36,32,7,8,87,,104,104,11,10,8,7,0.8,0.7
2024-01-09T1900,2572A,102.2721,27.8415,凉山彝族自治州,邛海宾馆,,42,42,37,22,26,73,,87,87,24,24,10,15,0.6,0.8
2024-01-09T1900,2573A,102.2625,27.898,凉山彝族自治州,西昌市政府,颗粒物(PM10),52,53,39,34,28,88,,83,83,26,22,13,13,0.9,0.8
2024-01-09T1900,2574A,102.2685,27.8851,凉山彝族自治州,凉山州政府,,43,42,45,30,30,88,,85,85,21,26,11,13,0.7,0.8
2024-01-09T1900,2575A,102.237,27.8914,凉山彝族自治州,长安,,48,48,59,32,34,80,,81,81,38,38,14,17,0.8,0.7
2024-01-09T1900,2212A,123.2,41.1953,辽阳市,宏伟区,颗粒物(PM10),51,51,48,30,33,33,,46,46,34,29,18,13,0.9,0.9
2024-01-09T1900,2213A,123.1683,41.2495,辽阳市,新华园,,42,40,46,29,36,34,,49,48,37,33,7,8,0.6,0.8
2024-01-09T1900,2214A,123.2354,41.2639,辽阳市,滨河路,细颗粒物(PM2.5),67,51,45,48,42,15,,45,42,53,28,10,18,0.8,0.9
2024-01-09T1900,2215A,123.149,41.2991,辽阳市,铁西工业园,细颗粒物(PM2.5),77,,49,56,58,8,,51,46,56,33,10,11,0.7,1
2024-01-09T1900,2227A,125.1358,42.8845,辽源市,环保局,细颗粒物(PM2.5),59,55,48,42,38,51,,60,60,26,25,13,14,0.9,1.2
2024-01-09T1900,3239A,125.0764,42.9078,辽源市,银鹰制药,细颗粒物(PM2.5),89,74,61,66,49,41,,56,56,34,23,8,9,1.0,0.9
2024-01-09T1900,1625A,115.9848,36.4372,聊城市,区政府,细颗粒物(PM2.5),165,199,141,125,89,6,,24,23,90,50,7,6,1.4,1
2024-01-09T1900,2878A,116.0072,36.4343,聊城市,聊大东校,细颗粒物(PM2.5),178,184,134,134,98,7,,27,24,86,47,6,7,1.5,1
2024-01-09T1900,3200A,115.9819,36.4978,聊城市,监控中心,细颗粒物(PM2.5),188,201,134,141,96,7,,23,22,88,47,10,10,1.6,1.1
2024-01-09T1900,3513A,116.0445,36.4361,聊城市,九州社区,细颗粒物(PM2.5),156,169,126,119,84,8,,26,25,88,45,8,7,1.0,0.7
2024-01-09T1900,4018A,116.0567,36.4608,聊城市,星美广场,细颗粒物(PM2.5),172,189,125,130,84,10,,25,24,83,44,8,8,1.3,0.9
2024-01-09T1900,2632A,94.3681,29.6376,林芝市,林芝监测站,,18,11,9,0,7,57,,72,72,24,12,7,7,0.6,0.5
2024-01-09T1900,2633A,94.3616,29.6616,林芝市,林芝人民医院,,24,24,12,16,8,58,,70,70,25,11,10,9,0.8,0.5
2024-01-09T1900,2603A,100.0781,23.8982,临沧市,市环保局,,38,38,34,25,27,73,,89,87,16,16,18,6,0.5,0.5
2024-01-09T1900,2604A,100.0894,23.8822,临沧市,市气象局,,,35,38,30,31,,,92,92,,16,9,6,0.4,0.3
2024-01-09T1900,1733A,111.5531,36.0783,临汾市,临钢医院,颗粒物(PM10),67,83,167,18,91,59,,63,63,18,43,4,8,0.4,1.4
2024-01-09T1900,1734A,111.5028,36.0714,临汾市,技工学校,颗粒物(PM10),60,69,163,28,103,69,,63,63,16,49,7,14,0.4,1.5
2024-01-09T1900,1736A,111.5018,36.0855,临汾市,市委,颗粒物(PM10),59,68,176,19,101,76,,67,67,17,53,5,11,0.5,1.6
2024-01-09T1900,3018A,111.505,36.1014,临汾市,唐尧大酒店,颗粒物(PM10),62,74,160,9,95,66,,59,59,20,51,5,10,0.4,1.5
2024-01-09T1900,3668A,111.5036,36.0414,临汾市,城南,,,,171,,109,69,,58,58,11,51,4,12,0.4,1.6
2024-01-09T1900,2667A,103.2069,35.5993,临夏回族自治州,环保局,,43,43,62,27,23,49,,66,66,45,39,17,22,1.1,1.8
2024-01-09T1900,2668A,103.2417,35.6057,临夏回族自治州,建设大厦,,46,44,62,32,27,76,,79,79,26,23,14,16,0.8,1.2
2024-01-09T1900,1618A,118.3429,35.0532,临沂市,沂河小区,细颗粒物(PM2.5),168,149,118,127,90,38,,38,38,48,51,9,11,0.9,0.8
2024-01-09T1900,1619A,118.295,35.0583,临沂市,鲁南制药厂,细颗粒物(PM2.5),156,156,121,119,88,30,,32,32,44,50,10,14,1.0,1.1
2024-01-09T1900,1620A,118.2794,34.9976,临沂市,新光毛纺厂,细颗粒物(PM2.5),143,141,122,109,83,26,,26,26,48,56,10,16,0.9,1
2024-01-09T1900,1621A,118.3956,35.0888,临沂市,河东保险公司,细颗粒物(PM2.5),147,151,120,112,83,15,,25,25,56,52,9,10,1.0,1
2024-01-09T1900,3370A,118.3564,35.0215,临沂市,十里堡居委,细颗粒物(PM2.5),138,151,117,105,80,22,,30,30,52,52,4,9,1.0,1
2024-01-09T1900,3496A,118.3604,35.1084,临沂市,南坊新区,细颗粒物(PM2.5),144,141,111,110,78,21,,28,28,54,52,12,13,1.0,1
2024-01-09T1900,3860A,118.3920,35.0300,临沂市,皇山花园小区,细颗粒物(PM2.5),132,151,116,100,74,19,,29,29,59,59,10,12,1.1,1
2024-01-09T1900,1870A,109.4856,24.3895,柳州市,柳东小学,,,30,21,22,18,25,,30,30,,13,12,12,1.2,1.2
2024-01-09T1900,1871A,109.4157,24.3277,柳州市,环保监测站,,50,50,27,34,17,10,,20,20,38,28,11,10,1.5,1.2
2024-01-09T1900,1872A,109.389,24.341,柳州市,河西水厂,,47,47,27,25,16,17,,22,22,18,14,16,12,1.3,1.3
2024-01-09T1900,1873A,109.4311,24.2921,柳州市,市四中,,39,39,24,25,13,15,,21,21,33,25,10,8,1.4,1.3
2024-01-09T1900,1874A,109.4006,24.3631,柳州市,市九中,,,,28,25,19,12,,22,22,30,22,,9,2.1,1.5
2024-01-09T1900,1875A,109.4958,24.3134,柳州市,古亭山,,42,42,20,24,13,20,,24,24,18,15,9,9,1.2,1.2
2024-01-09T1900,3402A,109.5422,24.3996,柳州市,市二中,,40,40,26,25,18,20,,27,27,18,13,9,8,1.0,1
2024-01-09T1900,2307A,116.5079,31.737,六安市,监测大楼,细颗粒物(PM2.5),138,120,88,105,72,76,,84,84,36,41,8,5,0.9,0.9
2024-01-09T1900,2308A,116.4738,31.7643,六安市,皖西学院,细颗粒物(PM2.5),115,126,103,87,66,76,,87,87,31,38,7,5,0.9,0.9
2024-01-09T1900,2309A,116.4996,31.7905,六安市,朝阳厂,细颗粒物(PM2.5),130,121,94,99,74,70,,84,84,29,33,7,6,1.1,1.1
2024-01-09T1900,2310A,116.5567,31.7886,六安市,开发区,细颗粒物(PM2.5),130,146,120,99,75,64,,81,81,40,46,8,10,0.8,0.8
2024-01-09T1900,2576A,104.8,26.5892,六盘水市,窑上,,,,,,,,,,,,,,,,
2024-01-09T1900,2577A,104.83,26.5917,六盘水市,黄土坡,细颗粒物(PM2.5),72,66,55,52,37,43,,60,60,26,21,16,14,1.3,1.1
2024-01-09T1900,2578A,104.89,26.5939,六盘水市,水钢,细颗粒物(PM2.5),80,59,55,59,44,49,,64,64,21,19,6,7,0.9,0.8
2024-01-09T1900,2579A,104.8475,26.5894,六盘水市,民中,细颗粒物(PM2.5),67,60,50,48,40,41,,56,56,22,22,11,12,1.2,1
2024-01-09T1900,2580A,104.9544,26.5506,六盘水市,双水,细颗粒物(PM2.5),72,78,53,52,38,47,,66,64,26,14,13,8,0.9,0.6
2024-01-09T1900,2335A,117.0189,25.1181,龙岩市,龙岩师专,,,,,,,,,,,,,,,,
2024-01-09T1900,2336A,117.0217,25.1033,龙岩市,龙岩市监测站,细颗粒物(PM2.5),59,,49,42,42,42,,58,57,24,20,12,14,0.8,0.7
2024-01-09T1900,2337A,117.0258,25.0661,龙岩市,闽西职业技术学院,细颗粒物(PM2.5),64,52,53,46,47,40,,53,53,22,21,13,14,0.9,0.8
2024-01-09T1900,2338A,117.0196,25.0306,龙岩市,龙岩学院,细颗粒物(PM2.5),69,55,56,50,46,32,,50,50,23,22,9,8,0.7,0.7
2024-01-09T1900,2665A,105.0822,33.3261,陇南市,汉王镇固水子,,,,,,,,,,,,,,,,
2024-01-09T1900,2885A,104.9339,33.3826,陇南市,滨江中学,细颗粒物(PM2.5),236,311,109,186,65,8,,49,48,105,51,78,45,7.1,2.4
2024-01-09T1900,3247A,104.955,33.371,陇南市,市总工会,颗粒物(PM10),101,152,83,61,47,12,,55,54,77,41,7,13,1.5,0.9
2024-01-09T1900,2487A,111.9589,27.8901,娄底市,电视发射台,细颗粒物(PM2.5),64,66,109,46,87,42,,61,61,20,25,5,7,1.3,1.6
2024-01-09T1900,2488A,111.9975,27.725,娄底市,市监测站,,,,134,,105,44,,67,67,41,27,8,12,,1.4
2024-01-09T1900,2489A,112.0194,27.7314,娄底市,市委党校,细颗粒物(PM2.5),112,127,128,84,106,44,,61,61,50,42,9,9,1.2,1.2
2024-01-09T1900,2490A,111.9561,27.7569,娄底市,涟钢,细颗粒物(PM2.5),78,86,138,57,108,49,,49,49,31,40,9,9,1.5,1.6
2024-01-09T1900,2491A,111.9892,27.7044,娄底市,市政府,细颗粒物(PM2.5),108,108,129,81,98,59,,65,65,41,34,13,11,1.3,1.3
2024-01-09T1900,1893A,105.4324,28.9634,泸州市,九狮山,颗粒物(PM10),70,90,97,19,78,45,,64,64,30,27,5,6,0.6,0.6
2024-01-09T1900,1894A,105.4427,28.9063,泸州市,小市上码头,细颗粒物(PM2.5),119,100,106,90,92,44,,51,51,25,27,3,4,0.9,0.9
2024-01-09T1900,1895A,105.4241,28.8573,泸州市,兰田宪桥,细颗粒物(PM2.5),119,110,109,90,90,30,,49,49,30,28,4,6,1.0,1
2024-01-09T1900,1896A,105.4379,28.8833,泸州市,市环监站,细颗粒物(PM2.5),109,95,98,82,85,40,,49,49,26,26,7,8,0.8,0.8
2024-01-09T1900,3490A,105.3617,28.7703,泸州市,纳溪区环保局,细颗粒物(PM2.5),132,114,98,100,87,22,,47,45,41,32,4,6,1.1,0.9
2024-01-09T1900,2183A,111.1406,37.5211,吕梁市,环保局,颗粒物(PM10),63,75,115,35,50,45,,57,57,30,54,6,7,0.7,0.9
2024-01-09T1900,2185A,111.1297,37.5136,吕梁市,自来水公司,颗粒物(PM10),65,79,103,34,50,45,,65,65,31,50,4,8,0.6,0.8
2024-01-09T1900,2867A,111.1283,37.51,吕梁市,马茂庄小学,颗粒物(PM10),62,73,134,32,56,50,,59,59,26,55,2,6,0.7,1
2024-01-09T1900,1812A,112.3931,34.6516,洛阳市,市委党校,细颗粒物(PM2.5),162,177,127,123,83,31,,66,65,62,43,14,11,1.4,1
2024-01-09T1900,1814A,112.4657,34.6871,洛阳市,豫西宾馆,细颗粒物(PM2.5),140,205,165,107,92,30,,69,69,66,55,10,11,1.4,1.2
2024-01-09T1900,1815A,112.494,34.6886,洛阳市,河南林校,细颗粒物(PM2.5),140,175,164,107,93,21,,68,68,70,53,11,10,1.5,1.1
2024-01-09T1900,1816A,112.3844,34.623,洛阳市,开发区管委会,细颗粒物(PM2.5),133,193,113,101,78,35,,76,74,54,38,7,5,1.2,0.8
2024-01-09T1900,1817A,112.4267,34.6258,洛阳市,市委新办公区,细颗粒物(PM2.5),166,189,116,126,95,26,,74,73,74,44,8,8,1.5,1
2024-01-09T1900,3340A,112.6005,34.6326,洛阳市,伊滨,细颗粒物(PM2.5),140,185,172,107,103,23,,63,62,67,50,9,6,1.4,1
2024-01-09T1900,3341A,112.4951,34.6332,洛阳市,中移产业园,细颗粒物(PM2.5),173,177,126,131,88,25,,71,71,75,48,11,10,1.6,1.1
2024-01-09T1900,3593A,112.5736,34.8993,洛阳市,吉利监测站,细颗粒物(PM2.5),118,162,115,89,82,33,,62,62,57,47,12,6,1.3,0.8
2024-01-09T1900,3635A,112.3677,34.662,洛阳市,河科大西苑校区,细颗粒物(PM2.5),140,187,132,107,88,34,,72,67,54,38,8,8,1.2,0.8
2024-01-09T1900,3636A,112.4388,34.6781,洛阳市,英才小学,细颗粒物(PM2.5),152,202,153,116,98,24,,72,70,70,49,8,12,1.5,1.2
2024-01-09T1900,2399A,114.051,33.5699,漯河市,三五一五工厂,细颗粒物(PM2.5),209,193,141,159,121,52,,57,57,44,41,8,6,0.9,0.9
2024-01-09T1900,2400A,114.0055,33.5698,漯河市,漯河大学,细颗粒物(PM2.5),183,181,133,138,108,56,,62,62,41,42,9,8,0.9,0.7
2024-01-09T1900,2401A,114.0138,33.5828,漯河市,市水利局,细颗粒物(PM2.5),195,205,143,146,112,50,,59,59,42,35,10,10,1.0,0.7
2024-01-09T1900,2402A,114.0261,33.5698,漯河市,市广电局,细颗粒物(PM2.5),200,193,142,150,114,52,,58,58,48,43,6,5,1.0,0.7
2024-01-09T1900,3478A,113.9749,33.5664,漯河市,市图书馆,细颗粒物(PM2.5),172,192,142,130,110,52,,54,54,44,38,10,8,1.0,0.7
2024-01-09T1900,3479A,114.0967,33.5906,漯河市,召陵区卫健委,细颗粒物(PM2.5),198,172,136,148,108,38,,55,55,49,38,8,7,1.0,0.9
2024-01-09T1900,1798A,118.5092,31.6837,马鞍山市,湖东路四小,细颗粒物(PM2.5),134,128,86,102,63,76,,67,67,41,47,20,10,1.8,1.1
2024-01-09T1900,1799A,118.5024,31.6449,马鞍山市,开发区,细颗粒物(PM2.5),153,130,87,117,74,66,,63,63,48,46,11,10,1.3,1.1
2024-01-09T1900,1800A,118.5228,31.7231,马鞍山市,慈湖,细颗粒物(PM2.5),170,,91,129,81,70,,59,59,44,49,17,9,1.5,1.2
2024-01-09T1900,1802A,118.6245,31.7241,马鞍山市,濮塘,细颗粒物(PM2.5),113,133,92,85,57,74,,65,65,30,38,9,8,0.8,0.8
2024-01-09T1900,3633A,118.4918,31.6809,马鞍山市,雨山,细颗粒物(PM2.5),148,122,87,113,70,74,,70,70,43,43,19,9,1.1,0.9
2024-01-09T1900,1686A,111.0286,21.4688,茂名市,电白南海,颗粒物(PM10),53,56,57,27,29,90,,105,105,31,18,8,9,0.6,0.6
2024-01-09T1900,1687A,110.9294,21.6533,茂名市,茂石化七小,颗粒物(PM10),52,53,56,29,34,74,,95,95,18,13,8,11,0.9,0.8
2024-01-09T1900,1688A,110.9107,21.6687,茂名市,健康路,颗粒物(PM10),53,56,51,29,28,78,,95,95,19,12,7,10,0.7,0.7
2024-01-09T1900,1689A,110.8592,21.6828,茂名市,高岭,颗粒物(PM10),69,88,60,39,33,67,,91,91,28,19,11,16,0.8,0.8
2024-01-09T1900,3450A,111.01,21.5165,茂名市,电白水东,,36,36,49,19,26,85,,95,95,21,15,4,6,0.7,0.7
2024-01-09T1900,2539A,104.0308,30.0478,眉山市,黑龙滩水库,细颗粒物(PM2.5),68,78,109,49,73,100,,98,98,12,15,6,5,0.6,0.7
2024-01-09T1900,2540A,103.8416,30.0874,眉山市,气象局,细颗粒物(PM2.5),100,81,106,75,95,82,,97,97,35,31,6,6,1.0,0.9
2024-01-09T1900,3137A,103.8578,30.0744,眉山市,市委党校,细颗粒物(PM2.5),104,95,108,78,95,73,,90,90,45,35,8,7,0.8,0.8
2024-01-09T1900,3148A,103.8291,30.0564,眉山市,区人社局,细颗粒物(PM2.5),98,101,101,73,94,86,,94,94,36,34,9,8,0.9,0.8
2024-01-09T1900,1690A,116.1231,24.3284,梅州市,梅江月梅,细颗粒物(PM2.5),57,,68,40,44,32,,41,41,26,45,4,7,0.7,0.7
2024-01-09T1900,1691A,116.0797,24.2719,梅州市,梅县新城,细颗粒物(PM2.5),59,46,70,42,53,25,,46,45,49,49,4,6,1.1,1
2024-01-09T1900,1692A,116.1248,24.2654,梅州市,环境监控中心,细颗粒物(PM2.5),75,,64,55,53,12,,50,44,61,50,5,13,1.0,0.7
2024-01-09T1900,3315A,116.1233,24.2991,梅州市,梅龙,细颗粒物(PM2.5),53,48,66,37,45,31,,46,44,35,36,5,8,1.1,0.9
2024-01-09T1900,1878A,104.7778,31.4741,绵阳市,富乐山,细颗粒物(PM2.5),85,77,112,63,87,90,,82,82,28,41,8,8,0.8,1.1
2024-01-09T1900,1879A,104.7563,31.4535,绵阳市,市人大,细颗粒物(PM2.5),105,105,137,79,100,52,,68,68,76,53,3,4,0.9,1
2024-01-09T1900,1880A,104.6697,31.4668,绵阳市,高新区自来水公司,细颗粒物(PM2.5),94,106,146,70,94,52,,72,72,65,45,8,9,0.9,0.9
2024-01-09T1900,1881A,104.7287,31.5075,绵阳市,三水厂,细颗粒物(PM2.5),95,100,153,71,107,37,,58,58,78,47,8,7,1.0,1.3
2024-01-09T1900,3491A,104.69,31.5322,绵阳市,西科大附属小学,细颗粒物(PM2.5),84,92,127,62,92,51,,68,68,70,47,10,8,0.9,1.1
2024-01-09T1900,3492A,104.5648,31.5343,绵阳市,安州区旅游局,细颗粒物(PM2.5),94,109,127,70,95,35,,79,79,82,39,5,8,1.1,1
2024-01-09T1900,1784A,129.61,44.561,牡丹江市,环保大楼,,46,46,57,21,39,53,,62,62,21,33,10,11,0.4,0.7
2024-01-09T1900,1785A,129.6115,44.5782,牡丹江市,文化广场,,44,44,65,28,50,49,,54,54,22,36,11,14,0.6,1
2024-01-09T1900,1786A,129.5904,44.5963,牡丹江市,第一医院,细颗粒物(PM2.5),58,,63,41,54,52,,62,62,18,35,9,13,0.6,1
2024-01-09T1900,1787A,129.6364,44.6075,牡丹江市,机车工厂,细颗粒物(PM2.5),63,,72,45,50,52,,60,60,17,34,10,13,0.9,0.9
2024-01-09T1900,1788A,129.6386,44.5462,牡丹江市,第一中学,,43,43,65,28,48,14,,58,54,58,34,10,11,0.7,0.9
2024-01-09T1900,2531A,105.0703,29.61,内江市,市监测站,细颗粒物(PM2.5),123,93,85,93,90,54,,77,77,57,25,9,8,1.0,0.7
2024-01-09T1900,2532A,105.0717,29.5947,内江市,东兴区政府,细颗粒物(PM2.5),109,103,88,82,79,61,,76,76,41,19,8,8,0.9,0.7
2024-01-09T1900,2533A,105.0653,29.5817,内江市,内江二中,细颗粒物(PM2.5),103,86,85,77,87,62,,89,85,48,24,6,6,1.0,0.9
2024-01-09T1900,2534A,105.0406,29.5822,内江市,内江日报社,细颗粒物(PM2.5),87,90,90,64,79,77,,81,81,40,28,6,28,0.9,0.8
2024-01-09T1900,2628A,92.0657,31.4846,那曲市,那曲监测站,,24,24,55,9,34,66,,67,67,7,13,5,8,1.0,1.6
2024-01-09T1900,3128A,92.0506,31.4797,那曲市,那曲会议中心,,,11,38,1,18,,,71,71,8,21,5,9,0.3,1.1
2024-01-09T1900,1290A,115.8931,28.6843,南昌市,省外办,细颗粒物(PM2.5),138,159,160,105,113,9,,22,22,68,60,4,6,1.3,1.3
2024-01-09T1900,1291A,115.8886,28.7003,南昌市,省林业公司,细颗粒物(PM2.5),110,114,139,83,101,6,,21,21,80,61,5,7,1.2,1.2
2024-01-09T1900,1292A,115.8126,28.7442,南昌市,林科所,细颗粒物(PM2.5),98,110,137,73,99,6,,22,20,62,50,6,5,1.0,1.1
2024-01-09T1900,1294A,115.8518,28.687,南昌市,建工学校,细颗粒物(PM2.5),98,135,146,73,92,3,,23,23,78,55,11,12,1.4,1.3
2024-01-09T1900,1295A,115.8921,28.6424,南昌市,象湖,细颗粒物(PM2.5),144,147,131,110,115,1,,18,16,76,61,8,8,1.6,1.5
2024-01-09T1900,1296A,115.7423,28.7996,南昌市,武术学校,细颗粒物(PM2.5),57,,72,40,61,16,,34,32,19,22,11,9,0.8,0.9
2024-01-09T1900,1298A,115.9314,28.6842,南昌市,省站,细颗粒物(PM2.5),117,116,152,88,107,22,,26,26,42,46,7,8,1.3,1.1
2024-01-09T1900,3046A,115.9084,28.6062,南昌市,机电学校,细颗粒物(PM2.5),153,183,163,117,111,8,,24,23,66,55,8,8,1.2,1
2024-01-09T1900,3690A,115.9721,28.7031,南昌市,外国语学校,细颗粒物(PM2.5),79,103,144,58,95,24,,29,28,40,46,6,7,0.8,0.9
2024-01-09T1900,1905A,106.056,30.8064,南充市,西山风景区,细颗粒物(PM2.5),100,89,67,75,67,53,,36,36,24,21,3,4,1.0,0.9
2024-01-09T1900,1906A,106.0789,30.8023,南充市,南充市委,细颗粒物(PM2.5),92,92,74,68,59,22,,33,33,60,34,5,5,1.0,0.8
2024-01-09T1900,1907A,106.1031,30.8217,南充市,南充炼油厂,细颗粒物(PM2.5),113,101,91,85,71,36,,41,41,43,32,5,5,0.8,0.7
2024-01-09T1900,1908A,106.1064,30.7856,南充市,高坪区监测站,细颗粒物(PM2.5),118,98,93,89,72,26,,33,33,49,33,6,6,0.7,0.7
2024-01-09T1900,1909A,106.0642,30.7636,南充市,嘉陵区环保局,细颗粒物(PM2.5),98,99,95,73,64,22,,32,32,51,34,3,3,1.0,0.7
2024-01-09T1900,1910A,106.1087,30.8388,南充市,市环境监测站,细颗粒物(PM2.5),100,120,94,75,66,16,,34,34,62,29,6,6,1.1,0.9
2024-01-09T1900,1151A,118.8086,32.1065,南京市,迈皋桥,细颗粒物(PM2.5),147,148,86,112,56,75,,65,65,20,34,6,4,0.8,0.6
2024-01-09T1900,1152A,118.7538,32.0551,南京市,草场门,细颗粒物(PM2.5),134,129,78,102,54,69,,63,63,43,56,4,6,0.9,0.7
2024-01-09T1900,1153A,118.7794,32.0745,南京市,山西路,细颗粒物(PM2.5),168,167,102,127,70,71,,68,68,39,49,8,9,0.8,0.6
2024-01-09T1900,1154A,118.7752,32.0023,南京市,中华门,细颗粒物(PM2.5),138,139,83,105,56,71,,64,64,40,56,10,11,0.9,1
2024-01-09T1900,1155A,118.8109,32.0309,南京市,瑞金路,细颗粒物(PM2.5),144,163,91,110,55,70,,64,64,39,52,17,16,1.2,1.1
2024-01-09T1900,1156A,118.7997,32.0754,南京市,玄武湖,细颗粒物(PM2.5),155,,82,118,58,,,60,60,,49,,8,,0.8
2024-01-09T1900,1157A,118.6414,32.0931,南京市,浦口,细颗粒物(PM2.5),160,154,102,122,68,83,,85,85,38,49,5,6,0.9,0.7
2024-01-09T1900,1158A,118.7356,31.9996,南京市,奥体中心,细颗粒物(PM2.5),128,142,88,97,56,73,,70,70,51,59,6,7,1.1,0.9
2024-01-09T1900,1159A,118.9125,32.1028,南京市,仙林大学城,细颗粒物(PM2.5),156,139,80,119,57,65,,65,65,39,47,6,6,1.0,0.8
2024-01-09T1900,3422A,118.8436,31.9198,南京市,江宁彩虹桥,细颗粒物(PM2.5),125,140,93,95,55,80,,66,66,36,54,7,9,0.7,0.6
2024-01-09T1900,3423A,119.0138,31.6494,南京市,溧水永阳,细颗粒物(PM2.5),133,,73,101,67,58,,56,56,43,47,4,4,0.8,0.8
2024-01-09T1900,3424A,118.879,31.3302,南京市,高淳老职中,细颗粒物(PM2.5),147,138,98,112,79,39,,56,56,53,39,6,5,1.1,0.5
2024-01-09T1900,3427A,118.8554,32.3578,南京市,六合雄州,细颗粒物(PM2.5),138,150,85,105,52,39,,61,61,58,48,6,8,1.2,1
2024-01-09T1900,1401A,108.3103,22.7881,南宁市,二十一中,,31,31,57,20,41,7,,26,23,32,25,6,6,1.4,1.2
2024-01-09T1900,1402A,108.3141,22.8528,南宁市,北湖,,22,22,54,13,34,17,,25,22,20,18,5,5,1.2,1
2024-01-09T1900,1403A,108.3206,22.8225,南宁市,市监测站,,22,15,55,15,37,10,,24,17,32,32,6,6,1.3,1.1
2024-01-09T1900,1404A,108.3829,22.8037,南宁市,大自然花园,,28,28,53,17,35,10,,21,20,25,25,6,6,1.3,1.1
2024-01-09T1900,1405A,108.4394,22.7904,南宁市,仙葫,,28,24,47,19,30,7,,22,20,28,21,5,5,1.3,1.1
2024-01-09T1900,1406A,108.2397,22.8467,南宁市,区农职院,,29,29,61,13,36,14,,21,18,32,33,7,7,1.1,0.9
2024-01-09T1900,1407A,108.3275,22.735,南宁市,英华嘉园,,35,33,61,24,38,15,,19,16,35,28,5,5,1.3,1.1
2024-01-09T1900,1408A,108.2257,22.7757,南宁市,沙井镇街道办,,43,43,68,24,43,4,,17,16,47,41,7,7,1.5,1.2
2024-01-09T1900,3401A,108.4834,22.7618,南宁市,红星社区,,25,25,50,16,34,17,,22,22,20,22,8,7,1.4,1.2
2024-01-09T1900,2331A,118.0966,26.6761,南平市,茫荡山,,,,,,,,,,,,,,,,
2024-01-09T1900,2332A,118.1681,26.6369,南平市,南平市监测站,,39,28,44,27,40,46,,46,46,18,22,4,5,1.0,0.9
2024-01-09T1900,2333A,118.1825,26.6489,南平市,南平铝业有限公司,,30,22,37,21,38,49,,47,47,17,23,5,6,0.9,1
2024-01-09T1900,2334A,118.1756,26.6272,南平市,南平七中,,40,30,35,28,35,40,,40,40,19,20,7,6,0.8,0.8
2024-01-09T1900,1168A,120.9098,31.9663,南通市,狼山街道,细颗粒物(PM2.5),153,130,73,117,59,61,,50,50,50,61,11,15,1.1,1
2024-01-09T1900,1169A,120.86,32.0005,南通市,虹桥,细颗粒物(PM2.5),150,143,85,115,60,53,,59,59,61,70,8,11,1.2,1
2024-01-09T1900,1170A,120.87,32.02,南通市,城中,细颗粒物(PM2.5),147,154,91,112,56,53,,60,60,61,68,11,14,1.1,1
2024-01-09T1900,1171A,120.94,31.93,南通市,星湖花园,细颗粒物(PM2.5),138,135,75,105,53,58,,43,42,62,67,10,12,1.1,0.8
2024-01-09T1900,1172A,120.81,32.0417,南通市,紫琅学院,细颗粒物(PM2.5),149,148,80,114,50,53,,64,64,63,69,10,10,0.9,0.6
2024-01-09T1900,3291A,121.067,32.062,南通市,通州监测站,细颗粒物(PM2.5),160,161,78,122,53,60,,61,61,52,43,8,9,1.3,0.9
2024-01-09T1900,3432A,120.9348,31.9883,南通市,环境教育馆,细颗粒物(PM2.5),155,144,78,118,57,48,,49,49,68,56,11,16,1.2,1.1
2024-01-09T1900,2404A,112.5224,33.0122,南阳市,瓦房庄,细颗粒物(PM2.5),124,159,109,94,97,9,,46,46,90,45,8,7,1.6,1.1
2024-01-09T1900,2405A,112.5003,32.9735,南阳市,汉画馆,细颗粒物(PM2.5),130,135,124,99,102,26,,50,50,56,47,5,6,1.3,1.2
2024-01-09T1900,2406A,112.5573,33.027,南阳市,气象站,细颗粒物(PM2.5),132,133,111,100,97,27,,58,58,67,33,6,6,0.9,0.8
2024-01-09T1900,2407A,112.5481,32.9689,南阳市,理工学院,细颗粒物(PM2.5),110,114,111,83,87,55,,64,64,46,40,7,7,0.6,0.7
2024-01-09T1900,4008A,112.5234,32.9922,南阳市,卧龙区政府,细颗粒物(PM2.5),123,150,114,93,95,6,,48,47,107,53,8,7,1.4,0.9
2024-01-09T1900,1234A,121.8358,29.911,宁波市,区环保大楼,细颗粒物(PM2.5),150,145,90,115,59,25,,63,63,99,61,10,9,1.2,0.9
2024-01-09T1900,1235A,121.56,29.82,宁波市,万里学院,细颗粒物(PM2.5),122,172,77,92,49,37,,70,66,85,51,8,6,1.0,0.8
2024-01-09T1900,1236A,121.713,29.9572,宁波市,龙赛医院,颗粒物(PM10),105,160,100,73,43,24,,64,64,121,68,7,6,1.2,0.9
2024-01-09T1900,1239A,121.633,29.7733,宁波市,钱湖水厂,细颗粒物(PM2.5),173,147,56,131,46,33,,60,60,80,38,9,8,1.1,0.6
2024-01-09T1900,1240A,121.5856,29.8635,宁波市,太古小学,细颗粒物(PM2.5),153,150,63,117,49,45,,66,66,86,58,10,8,1.1,1
2024-01-09T1900,1241A,121.524,29.8674,宁波市,市环境监测中心,细颗粒物(PM2.5),130,167,74,99,42,36,,68,68,96,57,9,8,1.3,0.9
2024-01-09T1900,2871A,121.6147,29.9017,宁波市,万里国际学校,细颗粒物(PM2.5),182,155,66,137,53,37,,68,64,94,57,10,8,1.0,0.7
2024-01-09T1900,3710A,121.5594,29.8975,宁波市,白沙活动中心,细颗粒物(PM2.5),118,117,57,89,43,21,,61,60,100,54,7,7,1.1,0.7
2024-01-09T1900,2339A,119.5001,26.6946,宁德市,金涵水库,,,,,,,,,,,,,,,,
2024-01-09T1900,2341A,119.5388,26.6612,宁德市,宁德市监测站,细颗粒物(PM2.5),74,63,40,54,51,4,,33,29,61,38,6,5,1.4,0.8
2024-01-09T1900,3209A,119.5231,26.6562,宁德市,宁德一中,细颗粒物(PM2.5),58,52,44,41,56,6,,36,31,34,32,3,3,0.8,0.7
2024-01-09T1900,2618A,98.8601,25.8567,怒江傈僳族自治州,州监测站,,31,31,30,20,18,68,,73,73,14,14,8,8,0.4,0.4
2024-01-09T1900,2619A,98.8546,25.8417,怒江傈僳族自治州,泸水一中,,40,40,39,14,23,38,,62,62,39,24,8,8,0.7,0.5
2024-01-09T1900,1888A,101.6891,26.571,攀枝花市,弄弄坪,细颗粒物(PM2.5),70,80,75,51,49,97,,84,84,46,49,25,29,1.2,2.1
2024-01-09T1900,1889A,101.5769,26.5928,攀枝花市,河门口,颗粒物(PM10),57,64,57,36,33,100,,93,93,39,31,44,20,1.9,1.5
2024-01-09T1900,1890A,101.7169,26.585,攀枝花市,炳草岗,颗粒物(PM10),63,76,76,33,42,73,,80,80,64,63,25,27,1.6,1.8
2024-01-09T1900,1891A,101.7369,26.5008,攀枝花市,仁和,颗粒物(PM10),65,79,54,43,37,51,,97,97,63,32,16,17,1.2,1
2024-01-09T1900,2835A,101.7227,26.567,攀枝花市,四十中小,细颗粒物(PM2.5),73,94,73,53,45,52,,86,86,85,57,21,24,2.1,2
2024-01-09T1900,1604A,122.0303,41.1489,盘锦市,开发区,,40,36,39,28,29,52,,62,60,24,32,6,12,0.8,0.9
2024-01-09T1900,1605A,122.0485,41.0883,盘锦市,兴隆台,细颗粒物(PM2.5),52,,33,36,24,52,,60,57,26,31,8,9,0.4,0.7
2024-01-09T1900,1606A,121.8297,41.1028,盘锦市,新生街道,,36,,37,25,27,25,,57,48,41,34,8,9,0.6,0.8
2024-01-09T1900,1832A,113.3257,33.742,平顶山市,新华旅馆,细颗粒物(PM2.5),158,208,130,120,79,38,,78,75,52,32,10,9,1.0,0.7
2024-01-09T1900,1833A,113.2919,33.737,平顶山市,规划设计院,细颗粒物(PM2.5),169,175,124,128,85,40,,78,77,60,41,11,10,0.8,0.6
2024-01-09T1900,1834A,113.182,33.774,平顶山市,平顶山工学院,细颗粒物(PM2.5),156,182,121,119,76,48,,85,83,50,31,8,8,1.0,0.8
2024-01-09T1900,3204A,113.3025,33.73,平顶山市,规划局,细颗粒物(PM2.5),165,215,129,125,86,34,,76,73,54,34,12,11,1.1,0.7
2024-01-09T1900,3594A,112.8867,33.9116,平顶山市,石龙区,颗粒物(PM10),69,88,141,41,67,71,,89,89,37,54,8,9,0.5,0.6
2024-01-09T1900,2656A,106.6692,35.5461,平凉市,聚贤嘉苑,颗粒物(PM10),84,118,84,39,26,52,,79,78,41,29,10,9,0.8,0.5
2024-01-09T1900,2657A,106.7021,35.5307,平凉市,博物馆,颗粒物(PM10),93,135,101,63,34,41,,77,75,52,34,45,24,1.4,0.9
2024-01-09T1900,2347A,114.0997,27.5002,萍乡市,武功山,细颗粒物(PM2.5),84,78,47,62,40,39,,61,61,22,14,8,7,1.7,1
2024-01-09T1900,2348A,113.8385,27.6434,萍乡市,中医院,细颗粒物(PM2.5),79,105,116,58,92,37,,50,50,38,37,13,25,1.4,1.6
2024-01-09T1900,2349A,113.8493,27.6253,萍乡市,市政府车库,,,,108,,81,,,56,56,39,27,12,19,1.3,1.5
2024-01-09T1900,2350A,113.8676,27.6435,萍乡市,市环保局,细颗粒物(PM2.5),89,94,105,66,78,36,,53,53,48,33,13,19,1.4,1.5
2024-01-09T1900,2351A,113.866,27.6198,萍乡市,安源区政府,细颗粒物(PM2.5),95,100,111,71,92,45,,54,54,42,36,22,25,1.3,1.4
2024-01-09T1900,2319A,119.0141,25.4325,莆田市,荔城区仓后路,颗粒物(PM10),64,78,67,44,46,21,,60,57,50,41,7,7,1.1,0.9
2024-01-09T1900,2320A,119.0015,25.4553,莆田市,莆田市监测站,颗粒物(PM10),69,87,53,32,39,36,,60,58,25,27,7,7,0.9,0.8
2024-01-09T1900,2321A,119.1119,25.4561,莆田市,涵江区六中,颗粒物(PM10),56,62,61,35,39,26,,53,51,48,50,8,8,1.1,0.8
2024-01-09T1900,2322A,119.1013,25.3215,莆田市,秀屿区政府,细颗粒物(PM2.5),88,81,46,65,38,38,,64,61,40,30,20,12,1.2,0.8
2024-01-09T1900,2323A,118.981,25.4792,莆田市,东圳水库,,,,,,,,,,,,,,,,
2024-01-09T1900,2392A,115.0312,35.7636,濮阳市,环保局,细颗粒物(PM2.5),137,115,107,104,96,21,,37,37,61,42,9,5,0.9,0.7
2024-01-09T1900,2394A,115.0574,35.7609,濮阳市,油田运输公司,细颗粒物(PM2.5),139,136,128,106,95,23,,40,39,63,44,9,7,1.1,0.9
2024-01-09T1900,2395A,115.0866,35.7754,濮阳市,油田物探公司,细颗粒物(PM2.5),144,141,128,110,98,18,,38,38,67,45,7,5,1.1,0.9
2024-01-09T1900,3021A,115,35.7668,濮阳市,濮水河管理处,细颗粒物(PM2.5),137,120,115,104,97,20,,39,38,67,43,8,6,1.2,1
2024-01-09T1900,2601A,100.98,22.7633,普洱市,市环保局,,46,46,36,30,27,65,,88,88,24,14,3,3,0.6,0.4
2024-01-09T1900,2602A,100.9817,22.8322,普洱市,普洱第二中学,,34,34,31,21,19,79,,95,95,13,25,6,8,0.5,0.5
2024-01-09T1900,2262A,131.0518,45.8751,七台河市,新一中,,48,38,49,33,41,67,,72,72,14,19,11,13,0.6,0.7
2024-01-09T1900,3345A,131.0577,45.7879,七台河市,中波台,细颗粒物(PM2.5),77,64,58,56,48,42,,57,54,43,34,10,12,1.1,1.1
2024-01-09T1900,3637A,131.0176,45.7761,七台河市,人民广场,细颗粒物(PM2.5),62,65,79,44,61,45,,52,51,41,39,12,14,0.7,0.9
2024-01-09T1900,3684A,130.8781,45.8222,七台河市,新建矿广场,细颗粒物(PM2.5),72,58,56,52,51,45,,55,52,37,36,10,9,0.9,0.7
2024-01-09T1900,1779A,123.9305,47.3636,齐齐哈尔市,安居小区,细颗粒物(PM2.5),59,50,53,42,41,37,,51,50,26,23,12,8,0.5,0.6
2024-01-09T1900,1780A,123.9488,47.3386,齐齐哈尔市,中心广场,,35,,46,24,35,22,,44,40,40,28,6,4,0.9,0.9
2024-01-09T1900,1781A,123.9483,47.3227,齐齐哈尔市,农牧车辆厂,,46,46,47,17,35,35,,47,45,25,24,12,10,0.5,0.6
2024-01-09T1900,1783A,123.945,47.2988,齐齐哈尔市,市环境监测站,,45,45,67,31,52,28,,48,45,34,32,9,5,0.7,0.8
2024-01-09T1900,3662A,123.6333,47.2075,齐齐哈尔市,富区青少年活动中心,颗粒物(PM10),57,64,66,21,46,31,,49,48,32,27,51,18,0.9,0.9
2024-01-09T1900,2591A,107.9783,26.5747,黔东南苗族侗族自治州,市环境监测站,,50,43,43,35,38,22,,28,28,38,21,11,7,1.1,1.1
2024-01-09T1900,2881A,107.8908,26.5311,黔东南苗族侗族自治州,凯里学院,,38,33,33,26,27,41,,37,37,22,16,5,6,0.8,0.9
2024-01-09T1900,2593A,107.5228,26.2403,黔南布依族苗族自治州,小围寨,细颗粒物(PM2.5),62,,20,44,18,35,,39,39,13,9,5,5,0.6,0.7
2024-01-09T1900,3538A,107.5175,26.2978,黔南布依族苗族自治州,沙坝,细颗粒物(PM2.5),77,61,31,56,27,34,,38,38,11,10,5,5,0.7,0.7
2024-01-09T1900,2589A,104.9022,25.0925,黔西南布依族苗族自治州,场坝街,,49,48,40,34,29,68,,79,79,19,11,2,2,0.4,0.4
2024-01-09T1900,2590A,104.8811,25.0992,黔西南布依族苗族自治州,坪东大道,,42,42,43,29,31,72,,82,82,12,9,3,3,0.3,0.3
2024-01-09T1900,2502A,108.6236,21.9667,钦州市,市环保站,颗粒物(PM10),51,51,64,29,34,11,,64,39,37,29,4,5,1.2,0.9
2024-01-09T1900,2503A,108.6549,21.9481,钦州市,沙埠小学,颗粒物(PM10),52,53,70,32,41,9,,58,43,34,34,9,9,1.1,0.9
2024-01-09T1900,2504A,108.5989,21.7431,钦州市,港区一小,颗粒物(PM10),66,81,79,30,34,45,,82,73,39,22,7,9,0.9,0.8
2024-01-09T1900,3404A,108.5959,21.9633,钦州市,北职校,颗粒物(PM10),55,59,65,35,44,17,,68,43,29,26,9,8,1.2,1
2024-01-09T1900,1042A,119.5134,39.8207,秦皇岛市,北戴河环保局,,32,24,58,22,38,52,,54,54,19,42,7,13,0.5,1
2024-01-09T1900,1043A,119.7493,40.0116,秦皇岛市,第一关,颗粒物(PM10),59,68,65,35,41,16,,50,45,57,47,11,14,0.7,0.9
2024-01-09T1900,1044A,119.5897,39.9499,秦皇岛市,监测站,颗粒物(PM10),54,58,68,28,38,16,,47,44,51,49,9,16,0.6,0.9
2024-01-09T1900,1046A,119.5251,39.9041,秦皇岛市,建设大厦,"颗粒物(PM10),细颗粒物(PM2.5)",54,57,75,38,44,32,,56,53,38,44,4,11,0.5,1
2024-01-09T1900,3132A,119.610547,39.943889,秦皇岛市,文明里,颗粒物(PM10),58,65,74,28,37,22,,49,46,52,53,8,14,0.4,0.8
