timepoint,stationcode,longitude,latitude,area,positionname,primarypollutant,aqi,pm10,pm10_24h,pm2_5,pm2_5_24h,o3,o3_24h,o3_8h,o3_8h_24h,no2,no2_24h,so2,so2_24h,co,co_24h
2024-12-11T2100,2566A,102.1879,31.914,阿坝藏族羌族自治州,州农科所,,33,33,32,8,10,60,,82,79,21,13,8,9,0.6,0.5
2024-12-11T2100,2568A,102.2502,31.8896,阿坝藏族羌族自治州,马师校,,45,40,20,31,15,17,,53,41,47,22,4,4,0.6,0.5
2024-12-11T2100,3994A,102.2165,31.9024,阿坝藏族羌族自治州,马尔康中学西区,,44,44,26,27,15,23,,61,52,43,17,6,6,0.7,0.5
2024-12-11T2100,2695A,80.292,41.1694,阿克苏地区,电视台,细颗粒物(PM2.5),95,78,45,71,38,10,,63,52,76,29,2,3,1.6,0.9
2024-12-11T2100,2696A,80.2613,41.1551,阿克苏地区,艺术中心,细颗粒物(PM2.5),62,57,40,44,30,45,,70,64,33,19,4,4,0.8,0.7
2024-12-11T2100,2204A,105.6467,38.8363,阿拉善盟,西城区西花园,,39,29,33,27,28,72,,83,77,17,15,7,10,0.7,0.6
2024-12-11T2100,2205A,105.6985,38.8411,阿拉善盟,蒙二幼,,38,,30,26,23,50,,81,72,31,18,8,9,0.8,0.8
2024-12-11T2100,2206A,105.724,38.8516,阿拉善盟,环保局新楼,,,,26,,19,,,85,,,12,,10,,0.6
2024-12-11T2100,2708A,88.1264,47.8517,阿勒泰地区,市站,,32,29,31,22,24,7,,26,22,43,36,8,8,0.5,0.6
2024-12-11T2100,2630A,80.1161,32.5,阿里地区,阿里监测站,,30,11,10,8,4,96,,95,95,2,3,6,7,0.4,0.4
2024-12-11T2100,3192A,80.0903,32.5028,阿里地区,阿里藏医院,,29,14,12,3,2,92,,91,91,1,1,5,5,0.4,0.4
2024-12-11T2100,2642A,109.0318,32.6537,安康市,香溪洞,细颗粒物(PM2.5),58,43,38,41,33,76,,80,80,11,10,9,10,0.4,0.4
2024-12-11T2100,2644A,109.0072,32.6975,安康市,汉滨区检察院,细颗粒物(PM2.5),68,64,48,49,38,77,,84,84,17,16,20,10,0.6,0.5
2024-12-11T2100,4054A,109.0325,32.6913,安康市,市邮政管理局,细颗粒物(PM2.5),89,71,50,66,44,61,,72,71,25,22,7,8,0.7,0.6
2024-12-11T2100,2291A,117.0809,30.5177,安庆市,环科院,细颗粒物(PM2.5),107,98,70,80,62,35,,47,46,28,23,6,5,0.8,0.7
2024-12-11T2100,2292A,117.0331,30.5119,安庆市,马山宾馆,细颗粒物(PM2.5),95,99,61,71,56,21,,39,37,51,27,8,6,0.5,0.7
2024-12-11T2100,2294A,116.9896,30.6145,安庆市,安庆大学,细颗粒物(PM2.5),100,97,69,75,61,55,,60,60,26,22,11,10,1.0,0.9
2024-12-11T2100,3173A,117.0598,30.5351,安庆市,市人大,细颗粒物(PM2.5),107,97,71,80,63,22,,42,39,45,28,5,5,0.7,0.7
2024-12-11T2100,3122A,105.9606,26.2611,安顺市,伍家关,,,,6,,3,,,38,,,9,,8,,0.5
2024-12-11T2100,3123A,105.9408,26.2431,安顺市,凤凰山,细颗粒物(PM2.5),93,,11,69,17,37,,46,44,22,14,26,12,0.7,0.7
2024-12-11T2100,3124A,105.9439,26.2564,安顺市,金钟山,细颗粒物(PM2.5),55,47,19,39,17,39,,49,47,15,10,26,14,0.7,0.6
2024-12-11T2100,3125A,105.8983,26.2481,安顺市,娄家坡,细颗粒物(PM2.5),54,51,22,38,16,38,,45,43,18,13,20,14,0.7,0.6
2024-12-11T2100,1818A,114.4839,36.0621,安阳市,棉研所,细颗粒物(PM2.5),100,77,127,75,100,12,,56,46,68,56,8,12,0.6,1
2024-12-11T2100,1819A,114.3551,36.1017,安阳市,红庙街,细颗粒物(PM2.5),70,59,104,51,85,39,,53,53,30,50,4,9,0.6,1
2024-12-11T2100,1820A,114.361,36.0681,安阳市,银杏小区,细颗粒物(PM2.5),74,73,102,54,88,28,,51,49,43,50,2,7,0.5,1.6
2024-12-11T2100,3141A,114.3922,36.0878,安阳市,信访局,细颗粒物(PM2.5),72,75,116,52,60,20,,45,42,55,55,5,9,0.6,0.9
2024-12-11T2100,3669A,114.4705,36.0637,安阳市,左辅环卫站,细颗粒物(PM2.5),85,91,127,63,93,19,,58,53,56,54,4,9,0.7,1
2024-12-11T2100,3703A,114.2917,36.0949,安阳市,安钢职工学校,细颗粒物(PM2.5),74,76,117,54,92,28,,55,52,47,57,2,9,0.6,1.2
2024-12-11T2100,1748A,123.044,41.1196,鞍山市,深沟寺,,46,46,45,18,26,29,,44,37,29,26,11,14,0.7,0.6
2024-12-11T2100,1749A,123.011,41.0931,鞍山市,太阳城,,32,32,35,18,21,42,,48,44,17,23,5,9,0.5,0.6
2024-12-11T2100,1750A,123.0485,41.1442,鞍山市,太平,颗粒物(PM10),70,89,60,50,32,9,,43,30,52,33,9,12,1.3,0.8
2024-12-11T2100,1751A,122.9642,41.0971,鞍山市,铁西三道街,颗粒物(PM10),56,61,57,28,29,9,,40,28,49,36,12,28,0.7,1.8
2024-12-11T2100,1752A,122.9341,41.0833,鞍山市,铁西工业园区,,,151,60,,29,15,,42,34,61,43,18,25,2.1,1.4
2024-12-11T2100,1753A,123.022,41.0821,鞍山市,明达新区,,40,40,37,23,24,33,,46,40,20,21,8,11,0.4,0.5
2024-12-11T2100,1754A,123.1289,41.0228,鞍山市,千山,,,,70,,28,,,21,,,25,,6,,0.4
2024-12-11T2100,2195A,107.4212,40.761,巴彦淖尔市,附二中,颗粒物(PM10),53,55,49,27,26,49,,60,60,27,24,5,8,0.4,0.4
2024-12-11T2100,2196A,107.37,40.7372,巴彦淖尔市,市环保大楼,颗粒物(PM10),55,60,46,29,20,48,,60,59,21,20,3,4,0.2,0.2
2024-12-11T2100,1956A,86.1472,41.7538,巴音郭楞蒙古自治州,孔雀公园,,34,34,31,22,23,46,,72,70,37,23,2,3,0.6,0.5
2024-12-11T2100,1957A,86.1972,41.7166,巴音郭楞蒙古自治州,棉纺厂,,49,49,39,26,20,37,,66,64,47,25,2,2,0.5,0.5
2024-12-11T2100,1958A,86.2357,41.7173,巴音郭楞蒙古自治州,经济开发区,,41,41,33,22,22,60,,70,70,32,24,3,4,0.5,0.5
2024-12-11T2100,2914A,106.7677,31.8794,巴中市,苏山坪,,43,39,32,30,27,55,,68,68,12,14,5,4,0.4,0.5
2024-12-11T2100,3182A,106.7656,31.8545,巴中市,丽阳花园,细颗粒物(PM2.5),54,50,41,38,30,7,,59,55,50,25,3,3,0.7,0.6
2024-12-11T2100,3183A,106.7418,31.8654,巴中市,圣泉水务公司,细颗粒物(PM2.5),70,68,38,51,29,4,,62,54,52,27,3,3,0.7,0.4
2024-12-11T2100,3616A,106.7616,31.8344,巴中市,市中心医院,细颗粒物(PM2.5),53,49,40,37,35,6,,66,58,47,23,3,3,0.6,0.5
2024-12-11T2100,2235A,122.7911,45.6077,白城市,洮北区环保局,,50,40,26,35,19,53,,61,57,16,16,7,5,0.7,0.6
2024-12-11T2100,2236A,122.8738,45.5725,白城市,市环保局,细颗粒物(PM2.5),53,51,30,37,19,31,,56,35,34,23,5,4,0.8,0.6
2024-12-11T2100,2231A,126.4219,41.9171,白山市,喜丰,颗粒物(PM10),53,55,61,28,33,19,,55,45,44,36,28,21,0.8,0.8
2024-12-11T2100,2232A,126.4077,41.9419,白山市,环保局,颗粒物(PM10),59,68,72,30,37,37,,53,50,16,21,8,17,0.6,0.7
2024-12-11T2100,2647A,104.1724,36.5446,白银市,第三小学,,,,41,,47,,,56,50,,22,,24,1.1,1
2024-12-11T2100,2648A,104.1465,36.5482,白银市,动力公司,细颗粒物(PM2.5),89,,40,66,46,40,,61,55,37,21,7,10,1.1,0.9
2024-12-11T2100,2512A,106.6103,23.9011,百色市,市监测站,,20,20,23,10,15,17,,31,28,18,17,7,10,0.8,0.9
2024-12-11T2100,2513A,106.6538,23.8859,百色市,市中心血站,,25,25,30,9,21,14,,33,30,26,19,11,10,0.7,0.8
2024-12-11T2100,3406A,106.6085,23.8798,百色市,祈福高中,颗粒物(PM10),52,53,26,11,18,5,,32,27,33,18,5,7,0.8,0.8
2024-12-11T2100,2270A,117.396,32.939,蚌埠市,工人疗养院,细颗粒物(PM2.5),77,86,107,56,80,64,,72,72,25,35,6,8,0.6,0.8
2024-12-11T2100,2271A,117.3605,32.9427,蚌埠市,百货大楼,细颗粒物(PM2.5),72,76,107,52,79,64,,68,68,24,35,6,8,0.4,0.8
2024-12-11T2100,2273A,117.4185,32.8911,蚌埠市,蚌埠学院,细颗粒物(PM2.5),73,73,96,53,76,63,,73,73,32,36,7,9,0.5,0.8
2024-12-11T2100,2274A,117.3533,32.9673,蚌埠市,淮上区政府,细颗粒物(PM2.5),82,88,110,60,83,57,,66,66,29,36,6,7,0.4,0.7
2024-12-11T2100,2275A,117.3145,32.8977,蚌埠市,高新区,细颗粒物(PM2.5),94,90,103,70,81,45,,63,62,50,46,8,10,0.6,0.8
2024-12-11T2100,3715A,117.3092,32.9314,蚌埠市,蚌埠田家炳中学,细颗粒物(PM2.5),84,88,115,62,82,48,,59,59,35,41,7,9,0.6,0.8
2024-12-11T2100,1585A,109.8756,40.6532,包头市,市环境监测站,"颗粒物(PM10),细颗粒物(PM2.5)",87,124,49,64,26,7,,32,25,68,40,18,18,2.1,1.1
2024-12-11T2100,1587A,109.9991,40.5842,包头市,包头八中,颗粒物(PM10),78,105,72,43,37,8,,36,30,57,42,10,11,1.3,1
2024-12-11T2100,1588A,109.8538,40.6821,包头市,青山宾馆,细颗粒物(PM2.5),117,141,52,88,39,6,,28,19,66,39,16,17,2.6,1.2
2024-12-11T2100,1589A,109.8642,40.6288,包头市,惠龙物流,细颗粒物(PM2.5),87,110,52,64,29,4,,35,26,69,38,17,16,2.0,1.3
2024-12-11T2100,1590A,110.0377,40.5546,包头市,东河鸿龙湾,颗粒物(PM10),60,69,67,38,37,7,,40,34,58,34,12,16,1.1,0.9
2024-12-11T2100,3283A,109.9154,40.5685,包头市,滨河大厦,颗粒物(PM10),71,91,45,42,24,6,,34,30,75,36,15,13,1.4,0.8
2024-12-11T2100,3419A,109.9447,40.6261,包头市,包头市委党校,细颗粒物(PM2.5),99,126,64,74,30,8,,38,30,63,47,13,13,1.7,1.1
2024-12-11T2100,3683A,109.8331,40.6576,包头市,昆区政府,细颗粒物(PM2.5),93,120,50,69,38,14,,29,23,65,38,16,18,1.7,1.1
2024-12-11T2100,1930A,107.185,34.3063,宝鸡市,庙沟村,细颗粒物(PM2.5),123,,70,93,73,24,,61,54,52,26,7,7,0.8,0.7
2024-12-11T2100,1931A,107.0708,34.3017,宝鸡市,竹园沟,细颗粒物(PM2.5),120,,68,91,69,46,,69,66,25,21,6,7,0.9,0.8
2024-12-11T2100,1932A,107.1906,34.3672,宝鸡市,三陆医院,细颗粒物(PM2.5),153,,84,117,85,42,,59,57,40,35,5,6,0.8,0.8
2024-12-11T2100,1933A,107.1431,34.3547,宝鸡市,监测站,细颗粒物(PM2.5),143,,77,109,75,31,,64,60,51,29,9,7,0.9,0.8
2024-12-11T2100,1934A,107.1186,34.3739,宝鸡市,技工学校,细颗粒物(PM2.5),129,,79,98,70,36,,60,58,50,26,5,6,0.9,0.8
2024-12-11T2100,1935A,107.3906,34.3528,宝鸡市,陈仓区环保局家属楼,细颗粒物(PM2.5),172,144,98,130,85,33,,60,52,50,36,8,7,1.2,1
2024-12-11T2100,1936A,107.2058,34.3497,宝鸡市,文理学院,细颗粒物(PM2.5),138,,75,105,70,31,,63,60,49,27,6,6,1.0,0.8
2024-12-11T2100,1937A,107.2386,34.3622,宝鸡市,三迪小学,细颗粒物(PM2.5),158,,77,120,83,38,,56,55,45,34,7,7,1.0,0.9
2024-12-11T2100,1051A,115.493,38.8632,保定市,游泳馆,细颗粒物(PM2.5),93,127,75,69,47,5,,36,29,69,50,2,3,1.2,0.9
2024-12-11T2100,1052A,115.5213,38.8959,保定市,华电二区,细颗粒物(PM2.5),84,97,76,62,53,2,,29,24,74,56,6,6,1.1,0.7
2024-12-11T2100,1053A,115.4713,38.9108,保定市,接待中心,细颗粒物(PM2.5),94,108,78,70,51,4,,28,23,69,53,6,5,1.2,0.5
2024-12-11T2100,1054A,115.4612,38.8416,保定市,地表水厂,细颗粒物(PM2.5),107,143,82,80,48,8,,35,28,83,60,7,6,1.3,0.7
2024-12-11T2100,3581A,115.31981,38.95208,保定市,满城区生态环境分局,细颗粒物(PM2.5),98,119,79,73,44,5,,31,20,94,65,5,4,1.5,1
2024-12-11T2100,3582A,115.47694,38.76408,保定市,清苑区第二中学,细颗粒物(PM2.5),72,86,73,52,39,9,,34,27,70,52,11,6,1.2,0.8
2024-12-11T2100,3583A,115.62909,39.02311,保定市,徐水物探局,颗粒物(PM10),72,94,76,34,32,2,,25,20,68,48,8,9,1.1,0.7
2024-12-11T2100,4004A,115.4202,38.8656,保定市,双鹰农机,细颗粒物(PM2.5),102,118,74,76,46,9,,36,30,77,53,11,8,1.4,0.8
2024-12-11T2100,4034A,115.5150,38.8590,保定市,植保所站,细颗粒物(PM2.5),109,130,77,82,49,4,,32,24,77,57,8,7,1.0,0.7
2024-12-11T2100,2594A,99.1678,25.1081,保山市,市环境监测站,,45,45,44,30,24,69,,96,90,8,9,6,5,0.4,0.4
2024-12-11T2100,2595A,99.1711,25.1328,保山市,市环保局,颗粒物(PM10),51,51,44,23,25,76,,98,95,4,6,7,7,0.2,0.3
2024-12-11T2100,1866A,109.2262,21.588,北海市,牛尾岭水库,,,20,35,18,25,21,,71,26,,11,5,10,0.9,0.8
2024-12-11T2100,1867A,109.1436,21.4086,北海市,海滩公园,,35,35,51,20,25,31,,94,,17,14,9,10,0.7,0.7
2024-12-11T2100,1868A,109.0981,21.4661,北海市,新市环保局,,45,31,42,31,28,29,,85,36,19,17,8,8,0.7,0.6
2024-12-11T2100,1869A,109.1778,21.5233,北海市,北海工业园,,39,34,49,27,31,27,,78,33,22,18,14,11,0.8,0.7
2024-12-11T2100,3400A,109.1911,21.4415,北海市,龙潭自来水厂,,42,34,43,29,30,29,,82,35,18,13,8,6,0.9,0.7
2024-12-11T2100,1001A,116.3621,39.8784,北京市,万寿西宫,颗粒物(PM10),59,67,38,39,24,4,,49,32,72,38,7,5,0.7,0.4
2024-12-11T2100,1002A,116.2202,40.2915,北京市,定陵,,36,35,29,25,21,11,,31,23,24,18,6,6,0.6,0.4
2024-12-11T2100,1003A,116.4174,39.9289,北京市,东四,颗粒物(PM10),58,66,37,37,20,11,,44,34,50,30,6,4,0.8,0.5
2024-12-11T2100,1004A,116.4072,39.8863,北京市,天坛,细颗粒物(PM2.5),58,57,34,41,22,15,,54,42,49,27,1,3,0.7,0.4
2024-12-11T2100,1005A,116.462,39.9365,北京市,农展馆,颗粒物(PM10),53,55,37,33,20,23,,50,42,48,39,3,3,0.9,0.6
2024-12-11T2100,1006A,116.3392,39.9295,北京市,官园,细颗粒物(PM2.5),62,72,36,44,22,6,,49,36,65,34,7,5,0.8,0.4
2024-12-11T2100,1007A,116.2878,39.9611,北京市,海淀万柳,细颗粒物(PM2.5),67,82,46,48,24,12,,53,38,75,47,6,5,0.9,0.6
2024-12-11T2100,1008A,116.6636,40.135,北京市,顺义新城,颗粒物(PM10),59,67,33,39,20,4,,52,29,66,31,2,3,0.9,0.4
2024-12-11T2100,1009A,116.6275,40.3275,北京市,怀柔镇,,38,38,23,24,13,33,,56,43,25,25,1,2,0.6,0.5
2024-12-11T2100,1010A,116.2296,40.217,北京市,昌平镇,颗粒物(PM10),51,52,38,24,21,24,,44,32,27,20,7,8,0.5,0.4
2024-12-11T2100,1011A,116.3966,39.9821,北京市,奥体中心,颗粒物(PM10),62,73,39,41,20,12,,48,39,61,39,7,6,0.9,0.5
2024-12-11T2100,1012A,116.184,39.9136,北京市,古城,细颗粒物(PM2.5),78,95,56,57,30,3,,40,26,58,40,8,7,1.1,0.7
2024-12-11T2100,3281A,115.9718,40.4529,北京市,延庆夏都,,38,38,47,20,30,4,,37,28,47,31,5,5,0.6,0.6
2024-12-11T2100,3417A,117.0709,40.1465,北京市,平谷新城,颗粒物(PM10),70,89,52,42,25,3,,43,31,48,29,3,3,0.9,0.6
2024-12-11T2100,3418A,116.8336,40.4095,北京市,密云新城,,45,45,22,23,12,19,,62,48,31,10,1,2,0.3,0.2
2024-12-11T2100,3671A,116.088,39.9726,北京市,门头沟三家店,"颗粒物(PM10),细颗粒物(PM2.5)",73,95,59,53,27,3,,36,25,64,43,4,5,0.9,0.5
2024-12-11T2100,3672A,116.1541,39.8204,北京市,丰台云岗,"颗粒物(PM10),细颗粒物(PM2.5)",75,99,51,55,29,1,,39,25,77,48,6,5,1.0,0.5
2024-12-11T2100,3673A,116.6804,39.9081,北京市,通州东关,颗粒物(PM10),67,83,49,43,23,1,,43,28,67,45,5,4,0.9,0.5
2024-12-11T2100,3674A,115.9577,39.7603,北京市,房山燕山,细颗粒物(PM2.5),64,72,46,46,25,25,,44,35,34,27,3,3,0.7,0.5
2024-12-11T2100,3675A,116.4672,39.7733,北京市,大兴旧宫,颗粒物(PM10),55,60,41,30,18,8,,44,32,53,40,2,3,0.6,0.5
2024-12-11T2100,3694A,115.986,40.4563,北京市,延庆石河营,,39,39,45,24,30,1,,38,28,51,31,1,1,0.6,0.6
2024-12-11T2100,3695A,116.6151,40.3053,北京市,怀柔新城,,33,32,22,23,14,35,,53,46,17,14,1,2,0.3,0.2
2024-12-11T2100,3696A,116.2545,39.8768,北京市,丰台小屯,颗粒物(PM10),69,88,46,49,23,2,,42,25,78,39,6,5,1.0,0.6
2024-12-11T2100,3697A,116.84,40.3844,北京市,密云镇,颗粒物(PM10),54,57,28,26,13,2,,63,39,59,21,3,3,0.5,0.3
2024-12-11T2100,1761A,123.8275,41.3064,本溪市,大峪,,49,49,39,26,28,8,,38,24,50,34,12,12,1.4,1.2
2024-12-11T2100,1762A,123.7567,41.3325,本溪市,溪湖,颗粒物(PM10),82,113,56,50,28,8,,42,22,50,32,11,10,1.3,0.8
2024-12-11T2100,1763A,123.7169,41.3094,本溪市,彩屯,细颗粒物(PM2.5),52,52,46,36,35,8,,40,21,47,39,8,10,0.8,0.9
2024-12-11T2100,1764A,123.7669,41.2864,本溪市,东明,细颗粒物(PM2.5),58,64,47,41,28,8,,40,22,52,38,8,10,0.9,0.9
2024-12-11T2100,1765A,123.7992,41.2664,本溪市,新立屯,颗粒物(PM10),52,53,38,26,29,6,,42,22,52,39,6,7,0.6,0.7
2024-12-11T2100,1766A,123.8142,41.3472,本溪市,威宁,颗粒物(PM10),73,96,82,44,43,8,,33,22,48,40,10,10,0.8,0.8
2024-12-11T2100,2587A,105.2864,27.3125,毕节市,八中,细颗粒物(PM2.5),52,45,18,36,15,32,,54,42,21,13,7,7,0.6,0.5
2024-12-11T2100,2588A,105.31,27.2944,毕节市,师专,细颗粒物(PM2.5),53,48,20,37,15,33,,50,40,19,14,7,6,0.5,0.6
2024-12-11T2100,3537A,105.3631,27.3533,毕节市,长征村,,42,33,10,29,9,39,,59,53,14,7,11,7,0.6,0.5
2024-12-11T2100,1629A,118.0018,37.3617,滨州市,第二水厂,,36,36,42,17,22,9,,54,41,52,34,7,17,0.4,0.5
2024-12-11T2100,1630A,117.9776,37.393,滨州市,北中新校,,39,39,49,14,24,17,,56,43,43,33,5,15,0.1,0.2
2024-12-11T2100,3514A,117.9378,37.3956,滨州市,中海酒店,,25,24,44,17,30,33,,60,52,25,31,3,14,0.3,0.4
2024-12-11T2100,3515A,117.9378,37.3553,滨州市,开发区一中,,39,39,42,14,18,35,,61,53,31,31,93,18,0.3,0.3
2024-12-11T2100,3516A,118.0917,37.694,滨州市,金海六路,,34,34,30,17,14,27,,63,53,31,21,7,9,0.5,0.5
2024-12-11T2100,4028A,117.9956,37.3753,滨州市,滨州市西街道办事处,,28,22,40,19,26,27,,59,48,33,27,6,15,0.5,0.6
2024-12-11T2100,2311A,115.8072,33.8399,亳州市,污水处理厂,细颗粒物(PM2.5),110,123,121,83,74,33,,56,53,42,39,7,9,0.7,0.8
2024-12-11T2100,2312A,115.7789,33.8518,亳州市,三国揽胜宫,,,,136,,83,,,29,,,45,,10,,0.8
2024-12-11T2100,3332A,115.7633,33.8034,亳州市,亳州学院,细颗粒物(PM2.5),82,98,120,60,76,55,,60,60,28,42,5,8,0.6,0.7
2024-12-11T2100,2693A,82.0485,44.8556,博尔塔拉蒙古自治州,市党校,细颗粒物(PM2.5),64,,31,46,27,31,,67,49,24,15,6,7,0.7,0.3
2024-12-11T2100,2694A,82.0806,44.8969,博尔塔拉蒙古自治州,市环保局,颗粒物(PM10),59,67,47,26,17,36,,72,62,31,16,8,8,0.2,0.2
2024-12-11T2100,1071A,116.8842,38.2991,沧州市,沧县城建局,,41,41,60,25,37,20,,44,36,40,47,5,8,0.5,0.9
2024-12-11T2100,1072A,116.8584,38.3254,沧州市,电视转播站,,47,47,72,17,39,29,,50,39,34,48,13,14,0.3,0.8
2024-12-11T2100,1073A,116.8709,38.3228,沧州市,市环保局,,45,45,66,30,43,18,,41,32,41,48,2,7,0.5,0.9
2024-12-11T2100,3324A,116.8136,38.3004,沧州市,河北水利电力学院,,40,31,60,28,36,33,,53,47,26,35,5,10,0.3,0.7
2024-12-11T2100,2622A,97.1806,31.1273,昌都市,昌都监测站,细颗粒物(PM2.5),127,113,25,96,16,9,,70,54,96,23,11,7,3.2,0.8
2024-12-11T2100,3719A,97.1714,31.1406,昌都市,昌都会议中心,,42,38,15,29,9,46,,76,71,30,8,6,5,1.0,0.6
2024-12-11T2100,2690A,88.1236,43.8886,昌吉回族自治州,天山天池,,42,,22,29,25,75,,64,64,5,12,6,3,0.4,0.8
2024-12-11T2100,2692A,87.2717,44.0297,昌吉回族自治州,新区政务中心,"颗粒物(PM10),细颗粒物(PM2.5)",63,76,50,45,32,18,,41,37,54,36,8,8,0.9,1
2024-12-11T2100,3613A,87.3095,44.0142,昌吉回族自治州,亚心广场,细颗粒物(PM2.5),73,61,46,53,34,24,,47,44,48,32,6,7,0.8,0.6
2024-12-11T2100,1119A,125.3325,43.9166,长春市,食品厂,,41,41,43,27,25,13,,40,30,44,32,10,9,0.7,0.5
2024-12-11T2100,1120A,125.2863,43.9027,长春市,客车厂,,,,36,,27,,,30,,,28,,10,,0.4
2024-12-11T2100,1121A,125.2841,43.8463,长春市,邮电学院,细颗粒物(PM2.5),54,52,36,38,25,7,,47,33,64,34,36,17,0.6,0.4
2024-12-11T2100,1122A,125.3716,43.8772,长春市,劳动公园,,42,42,30,25,18,11,,51,40,61,30,25,13,0.7,0.5
2024-12-11T2100,1123A,125.3297,43.8805,长春市,园林处,,44,44,33,24,22,12,,43,32,51,28,12,14,0.6,0.4
2024-12-11T2100,1124A,125.4605,43.79,长春市,净月潭,细颗粒物(PM2.5),58,49,38,41,26,20,,46,40,32,31,7,8,0.5,0.5
2024-12-11T2100,1125A,125.7194,43.515,长春市,甩湾子,,,,44,,44,,,22,,,23,,6,,0.9
2024-12-11T2100,1126A,125.3863,43.8447,长春市,经开区环卫处,颗粒物(PM10),51,51,39,30,20,7,,43,30,55,34,17,18,1.0,0.8
2024-12-11T2100,1127A,125.245,43.7783,长春市,高新区管委会,,,99,51,,29,16,,44,30,56,37,8,8,1.2,0.6
2024-12-11T2100,1128A,125.1761,43.8325,长春市,岱山公园,细颗粒物(PM2.5),74,56,37,54,30,8,,43,29,54,27,10,8,0.6,0.5
2024-12-11T2100,1335A,113.0833,28.2325,长沙市,经开区环保局,细颗粒物(PM2.5),92,88,63,68,48,30,,65,59,26,26,2,3,0.7,0.5
2024-12-11T2100,1336A,112.8872,28.2189,长沙市,高开区环保局,细颗粒物(PM2.5),69,67,63,50,48,74,,76,76,19,16,5,5,0.7,0.7
2024-12-11T2100,1337A,113.0792,28.2053,长沙市,马坡岭,细颗粒物(PM2.5),85,85,61,63,48,34,,66,61,25,21,2,3,0.8,0.7
2024-12-11T2100,1338A,112.9394,28.19,长沙市,湖南师范大学,细颗粒物(PM2.5),67,68,64,48,48,63,,73,73,28,21,5,4,0.5,0.5
2024-12-11T2100,1339A,113.0178,28.1322,长沙市,雨花区环保局,,,89,60,,52,19,,67,61,,26,5,5,0.6,0.5
2024-12-11T2100,1340A,112.9792,28.2597,长沙市,伍家岭,细颗粒物(PM2.5),68,79,67,49,45,38,,69,67,33,23,3,3,0.9,0.8
2024-12-11T2100,1341A,113.0014,28.1944,长沙市,火车新站,细颗粒物(PM2.5),98,79,64,73,52,37,,69,66,39,26,4,2,0.7,0.5
2024-12-11T2100,1342A,112.9844,28.1178,长沙市,天心区环保局,细颗粒物(PM2.5),93,104,70,69,48,22,,64,60,48,27,4,4,0.7,0.5
2024-12-11T2100,1343A,112.8908,28.1308,长沙市,湖南中医药大学,细颗粒物(PM2.5),82,68,69,60,53,68,,76,76,30,24,7,6,0.5,0.5
2024-12-11T2100,1344A,112.9581,28.3611,长沙市,沙坪,细颗粒物(PM2.5),65,52,48,47,49,64,,74,74,14,12,8,7,0.6,0.6
2024-12-11T2100,1727A,113.1147,36.1547,长治市,清华站,细颗粒物(PM2.5),149,,87,114,85,28,,28,28,27,33,10,9,1.8,1.3
2024-12-11T2100,1728A,113.1031,36.1989,长治市,监测站,细颗粒物(PM2.5),147,115,81,112,85,23,,24,24,28,30,12,11,1.7,1.3
2024-12-11T2100,1730A,113.0886,36.2125,长治市,审计局,细颗粒物(PM2.5),153,155,86,117,83,18,,22,17,43,45,8,7,1.3,1.1
2024-12-11T2100,1731A,113.0844,36.1856,长治市,长治八中,细颗粒物(PM2.5),166,150,101,126,93,19,,22,19,24,25,9,8,1.8,1.4
2024-12-11T2100,2845A,113.1569,36.1911,长治市,德盛苑,细颗粒物(PM2.5),144,122,95,110,86,27,,28,27,25,28,5,4,1.2,1.1
2024-12-11T2100,3568A,113.06,36.0464,长治市,向阳小学,细颗粒物(PM2.5),153,126,110,117,98,16,,28,26,45,32,8,7,1.5,1.2
2024-12-11T2100,3569A,112.8792,36.3144,长治市,屯留一中,细颗粒物(PM2.5),169,,89,128,98,12,,27,24,41,34,10,7,1.9,1.4
2024-12-11T2100,3570A,113.235,36.3489,长治市,潞城四中,细颗粒物(PM2.5),77,72,78,56,75,11,,33,27,48,35,16,12,1.3,1.6
2024-12-11T2100,1854A,111.6975,28.9703,常德市,市二中,细颗粒物(PM2.5),69,60,60,50,50,74,,88,86,20,17,6,5,0.4,0.4
2024-12-11T2100,1857A,111.7158,29.1456,常德市,白鹤山,,,,,,,,,,,,,,,,
2024-12-11T2100,3138A,111.7153,29.0289,常德市,武陵区永安,细颗粒物(PM2.5),69,65,62,50,48,74,,85,84,18,16,4,3,0.4,0.5
2024-12-11T2100,3139A,111.6892,28.9881,常德市,鼎城区玉霞,细颗粒物(PM2.5),65,68,64,47,49,83,,90,90,15,18,5,4,0.5,0.6
2024-12-11T2100,3140A,111.6625,29.0531,常德市,武陵区长庚,细颗粒物(PM2.5),65,71,65,47,50,77,,84,83,14,16,4,3,0.4,0.4
2024-12-11T2100,1196A,119.9633,31.762,常州市,市监测站,,,82,64,68,48,,,73,38,68,24,8,8,0.9,0.6
2024-12-11T2100,1200A,119.9468,31.7069,常州市,武进监测站,细颗粒物(PM2.5),72,72,51,52,40,13,,70,26,57,34,15,11,0.8,0.6
2024-12-11T2100,1201A,119.9255,31.9087,常州市,安家,细颗粒物(PM2.5),84,81,58,62,46,4,,69,25,71,38,10,9,0.9,0.7
2024-12-11T2100,3002A,119.9805,31.8174,常州市,行政中心,细颗粒物(PM2.5),95,86,53,71,45,6,,69,26,70,34,9,8,0.8,0.5
2024-12-11T2100,3003A,120.0522,31.7748,常州市,经开区,细颗粒物(PM2.5),83,77,57,61,41,9,,70,36,78,38,10,9,0.9,0.5
2024-12-11T2100,3010A,119.9025,31.7964,常州市,钟楼,细颗粒物(PM2.5),94,89,58,70,43,5,,69,28,71,33,9,8,1.2,0.8
2024-12-11T2100,3429A,119.8598,31.7066,常州市,武进经发区,细颗粒物(PM2.5),74,69,57,54,46,30,,60,36,44,35,8,8,0.7,0.6
2024-12-11T2100,3430A,119.5826,31.7245,常州市,金坛城区,细颗粒物(PM2.5),78,64,52,57,45,30,,69,40,39,24,9,7,0.7,0.6
2024-12-11T2100,2220A,120.4318,41.5881,朝阳市,西梁,细颗粒物(PM2.5),142,161,58,108,32,11,,52,38,51,27,16,11,2.5,1.2
2024-12-11T2100,2221A,120.4521,41.5646,朝阳市,河畔小区,,,,35,,22,8,,46,38,48,20,10,8,,0.9
2024-12-11T2100,2222A,120.4176,41.5648,朝阳市,八里堡,细颗粒物(PM2.5),69,80,50,50,27,6,,44,30,52,30,14,12,1.5,1.1
2024-12-11T2100,2223A,120.3806,41.5969,朝阳市,农业园区,细颗粒物(PM2.5),59,,31,42,23,13,,53,37,46,22,8,7,0.9,0.6
2024-12-11T2100,1705A,116.6367,23.6719,潮州市,西园路,细颗粒物(PM2.5),64,,53,46,34,42,,131,114,13,19,5,7,0.5,0.5
2024-12-11T2100,3026A,116.6183,23.6608,潮州市,市政府,细颗粒物(PM2.5),52,46,60,36,31,42,,132,111,13,20,4,7,0.6,0.6
2024-12-11T2100,4036A,116.6461,23.6761,潮州市,金山,细颗粒物(PM2.5),62,,48,44,33,40,,132,115,13,18,6,8,0.7,0.7
2024-12-11T2100,2472A,113.0073,25.9061,郴州市,马头岭,细颗粒物(PM2.5),58,61,37,41,27,37,,40,40,20,22,7,7,0.5,0.6
2024-12-11T2100,2473A,113.0116,25.8226,郴州市,市职中,细颗粒物(PM2.5),59,44,29,42,26,30,,32,32,16,25,4,4,0.7,0.7
2024-12-11T2100,2474A,113.0161,25.8001,郴州市,兴隆步行街,细颗粒物(PM2.5),69,56,38,50,35,27,,30,30,19,21,4,5,0.7,0.8
2024-12-11T2100,2475A,113.0383,25.8071,郴州市,市审计局,细颗粒物(PM2.5),68,53,36,49,29,32,,35,35,14,19,4,4,0.7,0.8
2024-12-11T2100,2476A,113.0348,25.7759,郴州市,市环保局,细颗粒物(PM2.5),79,,37,58,33,34,,37,37,15,18,4,4,0.7,0.7
2024-12-11T2100,1431A,103.9728,30.7236,成都市,金泉两河,细颗粒物(PM2.5),65,60,58,47,36,22,,48,42,54,38,2,1,0.6,0.7
2024-12-11T2100,1432A,104.176,30.6872,成都市,十里店,细颗粒物(PM2.5),69,68,57,50,39,26,,53,49,56,52,2,2,0.6,0.7
2024-12-11T2100,1433A,104.079,30.5706,成都市,三瓦窑,细颗粒物(PM2.5),64,56,60,46,38,37,,46,38,43,45,2,2,0.6,0.7
2024-12-11T2100,1434A,104.1114,30.63,成都市,沙河铺,细颗粒物(PM2.5),63,62,55,45,39,27,,48,45,46,34,4,4,0.6,0.6
2024-12-11T2100,1437A,104.0786,30.6531,成都市,君平街,,,69,58,53,45,34,,44,42,,52,,5,0.5,1
2024-12-11T2100,1438A,103.613,31.0283,成都市,灵岩寺,,,,,,,,,,,,,,,,
2024-12-11T2100,2880A,104.0239,30.65639,成都市,大石西路,细颗粒物(PM2.5),62,67,64,44,42,34,,42,41,41,42,3,3,0.4,0.6
2024-12-11T2100,3136A,104.2725,30.5589,成都市,龙泉驿区区政府,细颗粒物(PM2.5),58,61,47,41,35,30,,68,55,42,27,4,4,0.6,0.5
2024-12-11T2100,3357A,104.0106,30.6931,成都市,金博路,细颗粒物(PM2.5),64,72,58,46,40,24,,42,39,50,41,2,2,0.6,0.7
2024-12-11T2100,3359A,104.0578,30.5225,成都市,华阳,细颗粒物(PM2.5),62,66,63,44,44,26,,47,38,53,44,1,1,0.6,0.6
2024-12-11T2100,3487A,104.2394,30.5319,成都市,车城东七路,细颗粒物(PM2.5),58,57,55,41,39,29,,65,55,45,34,3,3,0.6,0.5
2024-12-11T2100,3488A,104.3853,30.7453,成都市,青白江技师分院,细颗粒物(PM2.5),70,67,48,51,37,14,,70,57,52,30,6,5,0.4,0.4
2024-12-11T2100,3489A,104.0789,30.4072,成都市,科学城,细颗粒物(PM2.5),72,60,53,52,43,8,,67,49,72,33,4,4,0.6,0.6
2024-12-11T2100,4011A,103.8506,30.6947,成都市,光华大道三段,细颗粒物(PM2.5),62,59,55,44,38,20,,46,43,47,36,1,2,0.5,0.6
2024-12-11T2100,1062A,117.9531,40.9081,承德市,铁路,颗粒物(PM10),55,60,59,30,33,11,,40,33,41,36,8,7,0.7,0.8
2024-12-11T2100,1063A,117.9392,40.9763,承德市,中国银行,颗粒物(PM10),62,74,57,35,29,6,,40,32,35,24,2,2,0.7,0.7
2024-12-11T2100,1064A,117.9503,40.928,承德市,开发区,,48,48,58,21,30,12,,46,40,38,31,4,4,0.6,0.7
2024-12-11T2100,1065A,117.8051,40.9655,承德市,文化中心,颗粒物(PM10),74,98,64,47,28,4,,58,38,53,33,5,4,0.6,0.6
2024-12-11T2100,1066A,117.9268,41.0026,承德市,离宫,细颗粒物(PM2.5),59,,51,42,37,20,,42,38,30,31,2,2,0.4,0.5
2024-12-11T2100,2314A,117.47,30.6618,池州市,池州学院,细颗粒物(PM2.5),114,88,52,86,54,26,,44,32,35,23,4,4,0.7,0.6
2024-12-11T2100,3237A,117.4918,30.6617,池州市,展览馆,细颗粒物(PM2.5),109,104,74,82,61,17,,43,31,34,24,5,5,0.7,0.6
2024-12-11T2100,3333A,117.5627,30.695,池州市,第八中学,细颗粒物(PM2.5),104,90,63,78,56,24,,47,31,35,27,5,5,0.7,0.6
2024-12-11T2100,3334A,117.5038,30.6243,池州市,第十二中学,细颗粒物(PM2.5),103,85,58,77,54,19,,48,29,38,25,3,3,0.7,0.5
2024-12-11T2100,1744A,118.9233,42.2816,赤峰市,松山一中,颗粒物(PM10),68,85,37,33,16,8,,43,34,60,29,21,15,1.5,0.9
2024-12-11T2100,1745A,118.9576,42.2728,赤峰市,哈达街,颗粒物(PM10),57,63,24,38,14,11,,50,40,63,25,23,12,1.3,0.7
2024-12-11T2100,1746A,118.8788,42.2554,赤峰市,天义路,颗粒物(PM10),58,65,24,23,15,5,,45,34,58,28,12,12,1.3,0.7
2024-12-11T2100,3058A,119.2658,42.0353,赤峰市,银河街,细颗粒物(PM2.5),97,135,45,72,30,10,,42,33,54,30,22,25,1.9,0.9
2024-12-11T2100,3286A,118.9359,42.3147,赤峰市,桥北物流园区,细颗粒物(PM2.5),75,82,23,55,18,8,,48,34,35,22,26,15,1.6,0.8
2024-12-11T2100,2521A,107.3476,22.4136,崇左市,市环保局江州分局,,24,24,63,10,37,33,,39,39,10,14,6,5,0.9,1
2024-12-11T2100,2522A,107.3702,22.3707,崇左市,城南新区,,28,28,60,7,45,27,,35,35,17,23,7,8,1.2,1.3
2024-12-11T2100,2298A,118.3093,32.3153,滁州市,老年大学,细颗粒物(PM2.5),83,81,54,61,42,32,,69,62,54,27,4,3,0.8,0.6
2024-12-11T2100,2299A,118.3244,32.2786,滁州市,人大宾馆,细颗粒物(PM2.5),90,79,54,67,47,37,,68,62,42,25,7,8,0.6,0.4
2024-12-11T2100,3207A,118.3118,32.3038,滁州市,市政府原办公楼,细颗粒物(PM2.5),85,82,51,63,44,39,,67,61,49,26,6,6,0.8,0.7
2024-12-11T2100,3331A,118.3267,32.2634,滁州市,图书馆,细颗粒物(PM2.5),85,90,58,63,44,30,,67,59,50,22,5,6,0.8,0.4
2024-12-11T2100,2605A,101.5482,25.0441,楚雄彝族自治州,州环境监测站,,38,,28,26,24,76,,89,85,6,20,5,6,0.4,0.4
2024-12-11T2100,2606A,101.538,25.0492,楚雄彝族自治州,市经济开发区,,35,28,32,24,24,69,,86,81,13,22,6,6,0.6,0.5
2024-12-11T2100,2548A,107.5277,31.2827,达州市,达州职业技术学院,细颗粒物(PM2.5),88,79,61,65,46,5,,24,19,43,35,9,8,1.1,0.9
2024-12-11T2100,2549A,107.5086,31.2186,达州市,市环境监测站,细颗粒物(PM2.5),67,72,56,48,33,12,,27,24,41,38,6,7,0.8,0.7
2024-12-11T2100,2550A,107.4988,31.2132,达州市,凤凰小区,细颗粒物(PM2.5),67,58,49,48,37,16,,32,30,38,35,7,8,0.7,0.6
2024-12-11T2100,2551A,107.5082,31.1986,达州市,达县机关宾馆,细颗粒物(PM2.5),67,58,49,48,36,8,,31,29,45,40,5,7,0.8,0.7
2024-12-11T2100,2552A,107.4644,31.2124,达州市,市政中心,颗粒物(PM10),57,64,52,39,32,11,,30,30,45,34,7,8,0.7,0.6
2024-12-11T2100,2614A,100.1542,25.7054,大理白族自治州,大理市环境监测站,,43,37,26,30,23,94,,95,95,12,7,8,7,0.6,0.5
2024-12-11T2100,2615A,100.2171,25.5811,大理白族自治州,大理古城,,45,36,30,31,22,66,,94,87,26,12,6,5,0.8,0.7
2024-12-11T2100,1109A,121.612,38.9741,大连市,甘井子,,39,39,36,18,18,35,,52,48,35,25,10,11,0.7,0.8
2024-12-11T2100,1110A,121.565,38.9511,大连市,周水子,,30,30,36,20,20,35,,48,46,26,22,11,13,0.5,0.6
2024-12-11T2100,1111A,121.5637,38.8845,大连市,星海三站,,30,30,32,18,18,44,,53,52,19,20,11,12,0.6,0.5
2024-12-11T2100,1112A,121.6302,38.9117,大连市,青泥洼桥,,38,38,33,18,18,34,,44,42,24,17,12,13,0.3,0.5
2024-12-11T2100,1113A,121.6251,38.8638,大连市,傅家庄,,31,31,30,16,16,44,,50,49,18,18,11,13,0.4,0.7
2024-12-11T2100,1114A,121.5213,38.8661,大连市,七贤岭,,38,38,31,20,16,54,,58,57,14,16,8,10,0.7,0.8
2024-12-11T2100,1115A,121.2529,38.8061,大连市,旅顺,,25,19,18,17,13,53,,59,58,9,6,10,11,0.7,0.7
2024-12-11T2100,1116A,121.7485,39.1311,大连市,金州,,38,33,33,26,23,46,,56,53,15,18,8,13,0.6,0.9
2024-12-11T2100,1117A,121.7811,39.0496,大连市,开发区,,32,29,29,22,16,48,,54,52,14,15,18,18,0.6,0.6
2024-12-11T2100,1118A,121.9762,39.0631,大连市,双D港,,34,34,30,21,19,54,,62,60,11,12,10,12,0.7,0.8
2024-12-11T2100,1789A,124.81117,46.03138,大庆市,大同区,细颗粒物(PM2.5),88,79,34,65,26,27,,48,39,38,14,13,4,0.8,0.5
2024-12-11T2100,1790A,125.129,46.533,大庆市,龙凤区,颗粒物(PM10),59,67,34,39,20,7,,42,29,64,23,14,11,1.0,0.5
2024-12-11T2100,1791A,124.902,46.408,大庆市,红岗区,,48,39,23,33,16,27,,48,40,34,15,5,5,0.4,0.4
2024-12-11T2100,1792A,125.153,46.586,大庆市,萨尔图区,颗粒物(PM10),52,53,25,24,13,16,,53,36,62,23,6,6,1.0,0.7
2024-12-11T2100,1793A,124.9042,46.6215,大庆市,让胡路区,,38,37,27,26,24,40,,46,41,26,16,6,7,0.6,0.5
2024-12-11T2100,3481A,125.141,46.634,大庆市,萨区政府监测点,,45,37,17,31,9,5,,48,25,61,22,5,6,1.1,0.6
2024-12-11T2100,1721A,113.3819,40.1097,大同市,果树场,,,,60,123,37,6,,39,20,54,31,8,10,1.7,0.8
2024-12-11T2100,1723A,113.2994,40.0758,大同市,云冈宾馆,颗粒物(PM10),72,94,55,44,26,16,,42,22,55,30,23,14,1.0,0.8
2024-12-11T2100,1724A,113.3444,40.0917,大同市,大同大学,颗粒物(PM10),93,136,49,60,25,6,,37,21,59,30,11,12,1.0,0.6
2024-12-11T2100,1725A,113.2661,40.1269,大同市,安家小村,细颗粒物(PM2.5),84,112,56,62,26,12,,40,19,53,27,27,19,1.1,0.7
2024-12-11T2100,1726A,113.2711,40.0844,大同市,教育学院,颗粒物(PM10),107,164,64,33,28,6,,37,17,66,36,20,14,0.9,0.8
2024-12-11T2100,3282A,113.3397,40.0597,大同市,大同市卫生学校,颗粒物(PM10),93,135,54,60,24,4,,41,21,66,31,15,13,1.0,0.9
2024-12-11T2100,3565A,113.1367,40.1122,大同市,云冈站,颗粒物(PM10),69,88,48,36,23,7,,43,33,56,28,24,22,0.6,0.7
2024-12-11T2100,3566A,113.1186,40.2556,大同市,图书馆,颗粒物(PM10),63,76,46,39,27,22,,40,28,24,23,10,20,0.6,1
2024-12-11T2100,3567A,113.5931,40.0461,大同市,区一中,颗粒物(PM10),92,133,76,64,28,7,,37,23,51,37,40,31,2.0,1
2024-12-11T2100,3676A,113.2802,40.0995,大同市,第二人民医院,颗粒物(PM10),87,123,60,41,25,13,,41,21,62,35,23,17,0.8,0.8
2024-12-11T2100,2269A,124.1069,50.4097,大兴安岭地区,科技局,,35,,18,24,18,48,,56,49,13,8,9,6,0.7,0.6
2024-12-11T2100,3663A,124.1164,50.4278,大兴安岭地区,红旗社区,,42,39,18,29,12,11,,55,32,44,13,14,6,0.7,0.4
2024-12-11T2100,1600A,124.3303,40.0625,丹东市,江湾东路,,37,37,48,23,27,34,,47,41,20,19,13,14,0.7,0.8
2024-12-11T2100,1601A,124.4256,40.1503,丹东市,临江后街,,30,26,37,21,32,51,,58,57,12,16,5,7,0.6,0.6
2024-12-11T2100,1602A,124.3933,40.1461,丹东市,元宝山,,30,30,40,18,25,39,,47,42,18,18,7,8,0.6,0.7
2024-12-11T2100,1603A,124.3633,40.1092,丹东市,民主桥,,37,37,50,16,23,40,,46,41,18,23,7,9,0.5,0.6
2024-12-11T2100,3541A,109.5726,19.5167,儋州市,第一中学子站,颗粒物(PM10),56,61,28,26,13,91,,81,81,11,5,5,5,0.5,0.5
2024-12-11T2100,3542A,109.5567,19.5187,儋州市,东坡学校子站,,49,49,26,30,12,105,,92,92,12,6,5,5,0.6,0.5
2024-12-11T2100,2616A,98.5842,24.428,德宏傣族景颇族自治州,德宏州监测站,细颗粒物(PM2.5),80,88,55,59,40,53,,90,84,28,23,9,13,0.9,0.6
2024-12-11T2100,3677A,98.5881,24.4368,德宏傣族景颇族自治州,芒市人民政府综合楼,颗粒物(PM10),70,89,63,46,38,58,,87,84,19,15,8,10,0.8,0.6
2024-12-11T2100,1901A,104.4239,31.1208,德阳市,东山公园,细颗粒物(PM2.5),69,86,57,50,33,33,,70,56,31,26,2,1,0.7,0.6
2024-12-11T2100,1902A,104.3826,31.1317,德阳市,西小区,细颗粒物(PM2.5),75,66,50,55,41,20,,57,44,43,36,3,3,0.7,0.8
2024-12-11T2100,1904A,104.3553,31.1091,德阳市,耐火材料厂,细颗粒物(PM2.5),83,70,55,61,46,15,,55,44,41,34,5,4,0.7,0.7
2024-12-11T2100,3639A,104.4019,31.1244,德阳市,市教育局,细颗粒物(PM2.5),78,67,46,57,36,15,,60,46,52,37,4,3,0.6,0.7
2024-12-11T2100,1622A,116.3032,37.4674,德州市,儿童乐园,颗粒物(PM10),58,66,78,36,40,16,,53,42,53,57,4,10,0.7,1
2024-12-11T2100,1624A,116.2991,37.4451,德州市,监理站,颗粒物(PM10),52,53,66,27,36,35,,60,53,38,54,10,14,0.7,0.9
2024-12-11T2100,3066A,116.2721,37.4379,德州市,九衢泉纯净水厂,颗粒物(PM10),52,53,73,24,37,37,,57,52,32,50,11,15,0.7,1
2024-12-11T2100,3371A,116.3728,37.4403,德州市,开发区人民医院,颗粒物(PM10),58,66,77,34,42,15,,56,41,54,56,10,14,0.6,0.9
2024-12-11T2100,3372A,116.3572,37.4094,德州市,太阳城中学,颗粒物(PM10),60,70,69,41,42,13,,64,43,54,62,8,12,0.2,0.8
2024-12-11T2100,3511A,116.5652,37.3319,德州市,陵城艺术中心,细颗粒物(PM2.5),94,102,85,70,52,29,,62,53,39,45,24,13,1.1,1.1
2024-12-11T2100,2621A,99.7056,27.8317,迪庆藏族自治州,迪庆州站,,35,33,35,24,24,72,,91,87,20,13,10,9,1.0,0.6
2024-12-11T2100,3180A,99.7136,27.8094,迪庆藏族自治州,质量技术监督局,,28,25,32,19,22,71,,82,80,14,15,8,8,0.5,0.5
2024-12-11T2100,2663A,104.6241,35.5734,定西市,东关小学,细颗粒物(PM2.5),83,,56,61,46,51,,59,52,23,15,8,7,1.6,0.7
2024-12-11T2100,2664A,104.6194,35.5934,定西市,供电公司,细颗粒物(PM2.5),75,75,57,55,43,69,,68,61,14,15,4,7,0.5,0.5
2024-12-11T2100,1389A,113.7547,23.0494,东莞市,莞城梨川,细颗粒物(PM2.5),67,81,75,48,44,15,,79,67,35,49,10,9,1.1,0.9
2024-12-11T2100,1390A,113.7944,23.0128,东莞市,东城石井,颗粒物(PM10),60,70,68,42,42,22,,83,68,30,42,7,8,1.2,1
2024-12-11T2100,1391A,113.7383,22.9658,东莞市,南城西平,颗粒物(PM10),62,73,79,36,43,21,,80,65,34,65,7,6,0.8,0.8
2024-12-11T2100,3319A,113.7338,23.0381,东莞市,万江金泰,颗粒物(PM10),61,71,74,39,44,18,,72,63,26,45,4,5,0.9,0.9
2024-12-11T2100,3626A,113.7533,23.0202,东莞市,南城元岭,颗粒物(PM10),63,75,76,37,41,21,,84,72,28,47,10,10,1.0,1
2024-12-11T2100,3627A,113.7875,23.0457,东莞市,东城主山,细颗粒物(PM2.5),59,63,67,42,42,20,,71,59,32,51,9,9,1.0,0.9
2024-12-11T2100,1666A,118.6614,37.4309,东营市,市环保局,,17,17,27,3,14,42,,61,52,22,21,3,4,0.6,0.6
2024-12-11T2100,3036A,118.6904,37.4338,东营市,开发区管委会,,19,19,30,7,14,55,,65,60,19,20,2,3,0.6,0.7
2024-12-11T2100,3365A,118.5719,37.565,东营市,垦利区民丰路,,27,27,30,9,13,10,,57,40,50,26,7,7,0.3,0.2
2024-12-11T2100,3498A,118.5055,37.8612,东营市,河口城区,,,34,29,,11,32,,64,48,28,12,2,3,0.7,0.5
2024-12-11T2100,3646A,118.4978,37.4623,东营市,胜利站,,29,29,44,12,18,45,,59,53,22,23,4,6,0.4,0.5
2024-12-11T2100,3734A,118.35,37.26,东营市,理想之城,,,,,,,30,,58,44,40,31,2,4,0.4,0.4
2024-12-11T2100,1591A,110.0023,39.8129,鄂尔多斯市,综合楼,,44,44,55,22,23,44,,54,51,34,43,22,24,0.6,0.8
2024-12-11T2100,1592A,109.9486,39.8261,鄂尔多斯市,巴音孟克林场办事处,,44,44,50,22,23,22,,60,54,48,42,12,18,0.5,0.7
2024-12-11T2100,1593A,109.7736,39.5986,鄂尔多斯市,康泽苑,,34,34,38,19,19,42,,61,61,26,29,8,11,0.4,0.6
2024-12-11T2100,1594A,109.8119,39.5989,鄂尔多斯市,华泰汽车城,颗粒物(PM10),52,53,48,22,25,27,,56,54,41,38,15,11,0.4,0.7
2024-12-11T2100,1595A,109.9734,39.7884,鄂尔多斯市,奥林花园,,48,48,53,19,24,32,,56,52,42,38,8,14,0.6,0.8
2024-12-11T2100,2436A,114.8938,30.3994,鄂州市,市政府,细颗粒物(PM2.5),99,86,65,74,64,18,,34,30,42,33,8,6,1.5,1.4
2024-12-11T2100,2437A,114.8989,30.3714,鄂州市,赵家坝,细颗粒物(PM2.5),99,84,61,74,62,21,,38,34,39,31,6,5,0.7,0.6
2024-12-11T2100,3654A,114.8094,30.4089,鄂州市,精准医疗中心,细颗粒物(PM2.5),97,83,67,72,65,26,,44,36,34,26,8,7,1.1,1
2024-12-11T2100,2454A,109.4978,30.2981,恩施土家族苗族自治州,湖北民院,,,32,33,23,35,,,40,30,6,15,8,7,0.6,0.5
2024-12-11T2100,2455A,109.4707,30.2798,恩施土家族苗族自治州,州电力总公司,,26,21,38,18,34,17,,42,32,27,20,9,7,0.8,0.7
2024-12-11T2100,3549A,109.5061,30.3772,恩施土家族苗族自治州,龙凤新区,,29,27,40,20,31,22,,43,33,19,15,6,6,0.7,0.6
2024-12-11T2100,2499A,108.3411,21.6158,防城港市,沙万,,12,12,39,3,23,34,,61,31,14,19,6,6,0.8,0.9
2024-12-11T2100,2500A,108.3514,21.7731,防城港市,防城档案局,,42,42,52,3,30,29,,25,25,19,30,6,6,0.7,0.8
2024-12-11T2100,2501A,108.3506,21.6414,防城港市,大海花园,,23,23,48,9,29,31,,64,29,20,28,4,4,0.6,0.7
2024-12-11T2100,1371A,113.1294,23.0067,佛山市,湾梁,,44,44,73,19,33,16,,76,56,37,58,8,9,0.9,1
2024-12-11T2100,1372A,113.1083,23.0478,佛山市,华材职中,颗粒物(PM10),51,51,78,26,43,14,,66,49,42,60,8,11,0.7,0.8
2024-12-11T2100,1373A,113.144,23.0453,佛山市,南海气象局,,42,39,64,29,38,12,,67,51,36,55,9,10,0.7,0.8
2024-12-11T2100,1374A,113.2881,22.8094,佛山市,顺德苏岗,,48,48,75,24,40,12,,73,66,35,62,9,9,0.7,0.9
2024-12-11T2100,1376A,112.8383,22.8678,佛山市,高明孔堂,,49,49,68,22,42,19,,83,68,35,43,10,12,0.9,1
2024-12-11T2100,1377A,112.8836,23.1588,佛山市,三水监测站,,30,24,69,21,45,24,,65,47,24,41,7,14,0.8,0.9
2024-12-11T2100,1378A,112.867,23.185,佛山市,三水云东海,,28,28,51,14,36,22,,66,47,27,41,9,12,0.9,1
2024-12-11T2100,3625A,113.2544,22.7642,佛山市,容桂街道办,颗粒物(PM10),54,58,81,34,43,12,,76,69,38,69,8,9,0.8,0.9
2024-12-11T2100,1280A,119.3903,26.0543,福州市,鼓山,,,,19,,13,,,60,,,16,,2,,0.5
2024-12-11T2100,1282A,119.2681,26.0504,福州市,师大,,27,27,38,7,20,42,,80,71,19,26,2,3,0.4,0.5
2024-12-11T2100,1283A,119.2984,26.1028,福州市,五四北路,,12,7,33,3,17,38,,78,72,20,24,3,2,0.4,0.5
2024-12-11T2100,1284A,119.2648,26.0768,福州市,杨桥西路,,29,29,37,9,19,47,,81,71,17,23,3,2,0.3,0.3
2024-12-11T2100,1285A,119.317,26.0746,福州市,紫阳,,14,11,39,3,22,31,,66,60,28,27,2,3,0.4,0.6
2024-12-11T2100,3048A,119.5799,26.0936,福州市,九龙,,10,7,23,3,14,30,,74,66,18,21,3,3,0.4,0.7
2024-12-11T2100,3526A,119.5189,25.9664,福州市,吴航,,12,6,28,3,17,36,,75,71,16,22,2,4,0.4,0.6
2024-12-11T2100,1755A,123.7977,41.8491,抚顺市,望花区,细颗粒物(PM2.5),83,94,41,61,27,7,,46,29,48,25,6,6,1.1,0.6
2024-12-11T2100,1756A,123.9161,41.8822,抚顺市,顺城区,细颗粒物(PM2.5),100,111,47,75,30,17,,53,38,48,33,8,7,1.3,0.6
2024-12-11T2100,1757A,124.0436,41.8611,抚顺市,东洲区,"颗粒物(PM10),细颗粒物(PM2.5)",60,69,64,43,44,16,,41,33,41,31,5,6,0.7,0.6
2024-12-11T2100,1758A,123.9247,41.8642,抚顺市,新抚区,细颗粒物(PM2.5),73,94,72,53,35,6,,43,29,44,28,6,6,1.1,0.7
2024-12-11T2100,1759A,124.0972,41.8961,抚顺市,大伙房水库,,42,42,40,25,30,24,,42,35,32,30,7,8,0.4,0.5
2024-12-11T2100,1760A,123.7086,41.8391,抚顺市,沈抚新城,细颗粒物(PM2.5),115,96,42,87,33,13,,44,32,46,28,8,8,1.7,0.7
2024-12-11T2100,2376A,116.2127,28.0814,抚州市,桐源党溪,,46,46,38,32,22,40,,41,41,6,17,5,5,0.8,0.8
2024-12-11T2100,2377A,116.3544,27.9831,抚州市,市站,细颗粒物(PM2.5),63,53,31,45,22,39,,44,44,19,26,1,2,1.3,1.4
2024-12-11T2100,2378A,116.3565,27.963,抚州市,血防站,细颗粒物(PM2.5),65,65,34,47,21,39,,40,40,15,28,12,3,0.9,0.7
2024-12-11T2100,2379A,116.3564,28.0007,抚州市,采茶剧团,细颗粒物(PM2.5),63,53,29,45,23,34,,40,39,17,24,2,2,1.1,1.2
2024-12-11T2100,2380A,116.385,27.9647,抚州市,医学分院,细颗粒物(PM2.5),59,61,32,42,19,35,,40,39,12,20,9,5,0.8,0.9
2024-12-11T2100,2207A,121.6094,41.998,阜新市,工业园区,细颗粒物(PM2.5),178,229,66,134,29,9,,53,32,45,22,32,14,1.9,0.6
2024-12-11T2100,2208A,121.6697,42.0279,阜新市,长青街,细颗粒物(PM2.5),104,131,29,78,15,6,,57,36,38,14,15,7,1.4,0.5
2024-12-11T2100,2209A,121.6673,42.0705,阜新市,农业园区,,17,12,17,7,7,52,,56,53,11,11,9,9,0.7,0.7
2024-12-11T2100,2210A,121.6717,42.0224,阜新市,东苑,细颗粒物(PM2.5),139,139,30,106,18,10,,63,41,44,15,26,5,1.7,0.5
2024-12-11T2100,2211A,121.6506,42.0498,阜新市,玉龙新城,,,150,46,67,22,,,58,44,42,19,10,7,1.6,0.7
2024-12-11T2100,2301A,115.8277,32.8929,阜阳市,市监测站,细颗粒物(PM2.5),125,112,91,95,79,13,,50,44,73,37,8,9,0.7,0.7
2024-12-11T2100,2303A,115.8554,32.8605,阜阳市,开发区,细颗粒物(PM2.5),123,146,111,93,74,16,,53,46,57,32,9,10,0.9,0.7
2024-12-11T2100,2875A,115.784,32.8892,阜阳市,阜阳职业技术学院,细颗粒物(PM2.5),94,86,89,70,68,38,,57,54,40,31,10,10,0.8,0.7
2024-12-11T2100,3468A,115.7901,32.8613,阜阳市,市规划展馆,细颗粒物(PM2.5),97,103,97,72,71,39,,60,57,47,30,10,9,0.6,0.6
2024-12-11T2100,3469A,115.836,32.9183,阜阳市,枣园社区,细颗粒物(PM2.5),120,114,97,91,77,23,,56,49,63,36,12,11,0.6,0.6
2024-12-11T2100,2669A,102.9099,34.9841,甘南藏族自治州,州政府,,43,43,43,24,17,83,,78,78,11,18,6,8,0.3,0.6
2024-12-11T2100,3380A,102.8914,34.9617,甘南藏族自治州,甘肃民族师范学院,,28,21,30,3,24,88,,87,87,15,24,4,6,0.5,0.8
2024-12-11T2100,2570A,101.9603,30.0475,甘孜藏族自治州,水桥子,,23,23,16,10,7,35,,56,54,30,19,7,8,0.9,0.7
2024-12-11T2100,3065A,101.9533,29.9972,甘孜藏族自治州,州环保局,,31,31,14,12,5,34,,59,57,29,13,4,4,0.6,0.6
2024-12-11T2100,3414A,115.8347,28.932,赣江新区,桑海产业园,细颗粒物(PM2.5),68,58,31,49,25,20,,39,20,27,27,9,8,0.7,0.7
2024-12-11T2100,2362A,114.9017,25.9149,赣州市,通天岩,,26,19,51,18,43,16,,34,19,23,20,4,5,0.5,0.5
2024-12-11T2100,2363A,114.9367,25.8664,赣州市,地委,,26,26,57,10,33,15,,35,18,24,24,16,15,0.8,0.9
2024-12-11T2100,2364A,114.9461,25.8481,赣州市,气象台,,25,25,58,7,29,12,,44,,28,31,8,17,0.8,1
2024-12-11T2100,2365A,114.9322,25.8333,赣州市,市图书馆,,,20,46,11,31,11,,31,13,26,27,,6,0.8,0.9
2024-12-11T2100,2366A,114.8905,25.8471,赣州市,华坚鞋城,,19,19,46,8,28,14,,32,16,18,19,5,7,0.7,0.8
2024-12-11T2100,3109A,115.0093,25.8613,赣州市,赣县区卫计委,,19,13,49,13,34,14,,30,18,24,24,6,5,0.6,0.6
2024-12-11T2100,2683A,106.2319,36.1417,固原市,马园,细颗粒物(PM2.5),118,,61,89,59,78,,75,75,20,19,7,7,0.9,0.8
2024-12-11T2100,2684A,106.2792,36.0022,固原市,监测站,,,,42,61,48,75,,76,76,25,20,,6,0.8,0.7
2024-12-11T2100,2685A,106.2375,36.0211,固原市,新区,细颗粒物(PM2.5),78,,45,57,47,81,,76,76,23,20,5,4,0.6,0.6
2024-12-11T2100,3522A,106.2177,35.9959,固原市,原州区十五小,细颗粒物(PM2.5),83,70,55,61,49,82,,79,79,25,19,5,5,0.9,0.8
2024-12-11T2100,2543A,106.6308,30.5278,广安市,小平旧居,,,,,,,,,,,,,,,,
2024-12-11T2100,2544A,106.6303,30.4576,广安市,市委,细颗粒物(PM2.5),84,64,52,62,43,52,,68,67,20,18,3,3,0.6,0.6
2024-12-11T2100,2545A,106.6271,30.4663,广安市,友谊中学,细颗粒物(PM2.5),82,73,54,60,44,51,,64,63,24,21,2,2,0.8,0.7
2024-12-11T2100,2547A,106.6388,30.4551,广安市,广电花园,细颗粒物(PM2.5),79,71,50,58,42,48,,66,64,24,20,3,3,0.8,0.7
2024-12-11T2100,2902A,106.6351,30.4865,广安市,北辰小学,细颗粒物(PM2.5),79,68,50,58,42,54,,69,68,20,17,4,4,0.8,0.8
2024-12-11T2100,2523A,105.8945,32.4535,广元市,黑石坡,细颗粒物(PM2.5),65,60,44,47,42,36,,47,33,14,20,5,4,0.5,0.7
2024-12-11T2100,2524A,105.821,32.4444,广元市,老城,颗粒物(PM10),66,81,72,42,46,3,,24,22,58,49,6,9,0.9,0.9
2024-12-11T2100,2526A,105.8628,32.4287,广元市,监测站,细颗粒物(PM2.5),93,,60,69,48,11,,28,26,50,43,7,6,1.2,1.1
2024-12-11T2100,3617A,105.8047,32.4166,广元市,经开区,细颗粒物(PM2.5),94,86,67,70,51,5,,25,22,52,43,10,8,1.1,0.8
2024-12-11T2100,1345A,113.2347,23.1423,广州市,广雅中学,,44,44,61,22,35,13,,60,49,39,58,9,11,0.8,0.9
2024-12-11T2100,1346A,113.2612,23.105,广州市,市五中,,41,41,64,22,42,14,,71,53,28,42,5,7,0.8,1
2024-12-11T2100,1348A,113.3478,23.0916,广州市,广东商学院,颗粒物(PM10),54,58,63,27,38,11,,67,50,35,48,5,6,0.8,0.8
2024-12-11T2100,1349A,113.4332,23.1047,广州市,市八十六中,细颗粒物(PM2.5),64,76,76,46,39,24,,72,61,22,51,7,7,1.0,0.9
2024-12-11T2100,1350A,113.3505,22.9483,广州市,番禺中学,颗粒物(PM10),59,68,79,25,44,15,,77,64,38,67,7,8,0.9,0.9
2024-12-11T2100,1351A,113.2146,23.3916,广州市,花都师范,,32,32,56,16,37,20,,59,42,28,34,8,11,0.8,0.8
2024-12-11T2100,1352A,113.2597,23.1331,广州市,市监测站,,47,47,65,20,35,13,,60,48,26,42,7,9,0.7,0.7
2024-12-11T2100,1353A,113.5618,23.312,广州市,九龙镇镇龙,颗粒物(PM10),53,55,69,32,43,22,,60,47,25,36,6,10,0.9,1
2024-12-11T2100,1354A,113.2765,23.1544,广州市,麓湖,,50,50,62,26,38,12,,66,52,32,46,6,8,0.8,0.8
2024-12-11T2100,1355A,113.443,23.3035,广州市,帽峰山森林公园,,37,37,40,19,27,29,,74,59,23,23,6,10,0.8,0.8
2024-12-11T2100,2846A,113.3221,23.1322,广州市,体育西,颗粒物(PM10),53,55,65,23,37,11,,57,43,24,34,5,6,0.9,0.9
2024-12-11T2100,3298A,113.5717,23.5491,广州市,从化街口,,43,43,67,29,45,31,,56,46,17,37,4,12,0.8,1
2024-12-11T2100,3299A,113.3472,23.3692,广州市,白云竹料,,38,38,65,24,41,28,,66,49,23,35,7,12,0.9,1
2024-12-11T2100,3300A,113.2981,23.237,广州市,白云嘉禾,,44,44,75,18,36,14,,53,38,37,49,8,11,1.0,1.1
2024-12-11T2100,3301A,113.4256,23.1716,广州市,黄埔科学城,细颗粒物(PM2.5),57,55,55,40,36,26,,81,63,22,31,8,9,0.9,0.9
2024-12-11T2100,3302A,113.3942,23.0483,广州市,番禺大学城,颗粒物(PM10),58,65,75,33,36,17,,73,61,36,58,9,10,0.9,0.8
2024-12-11T2100,3303A,113.4922,22.8168,广州市,南沙黄阁,颗粒物(PM10),56,62,82,38,44,22,,74,66,37,71,7,10,1.0,1
2024-12-11T2100,3304A,113.5342,22.7896,广州市,南沙街,颗粒物(PM10),61,72,78,43,42,19,,84,72,35,62,4,7,0.9,0.9
2024-12-11T2100,3443A,113.2902,23.5544,广州市,花都梯面,,19,19,49,13,34,19,,45,28,24,31,7,13,0.6,0.7
2024-12-11T2100,3445A,113.7858,23.7478,广州市,从化良口,,43,41,44,30,34,28,,49,40,17,20,7,8,0.9,0.8
2024-12-11T2100,3446A,113.8051,23.2614,广州市,增城荔城,细颗粒物(PM2.5),59,60,50,42,36,35,,85,75,17,21,4,5,0.7,0.7
2024-12-11T2100,2505A,109.568,23.1478,贵港市,德智高中,,,,,,,,,,,,,,,,
2024-12-11T2100,2506A,109.6047,23.0666,贵港市,江南子站,,20,19,54,14,34,26,,26,26,18,23,7,9,0.8,0.9
2024-12-11T2100,2507A,109.6014,23.0948,贵港市,贵城子站,,23,23,49,16,33,22,,22,22,22,23,7,8,0.9,1
2024-12-11T2100,2508A,109.5669,23.1065,贵港市,荷城子站,,24,24,46,14,27,26,,26,26,18,22,11,12,0.8,0.9
2024-12-11T2100,3405A,109.5886,23.1172,贵港市,新世纪学校,,24,24,48,15,31,21,,22,22,19,22,11,12,0.8,0.9
2024-12-11T2100,1439A,106.6899,26.5998,贵阳市,马鞍山,,17,17,16,3,8,44,,35,35,14,15,8,5,0.4,0.4
2024-12-11T2100,1440A,106.6971,26.5694,贵阳市,市环保站,,25,,20,17,21,47,,37,37,17,19,6,6,0.5,0.5
2024-12-11T2100,1441A,106.6243,26.6266,贵阳市,鉴湖路,,25,19,17,17,12,38,,35,34,10,11,5,5,0.6,0.5
2024-12-11T2100,1442A,106.7487,26.6343,贵阳市,燕子冲,,32,,10,22,16,43,,36,36,10,13,8,7,0.6,0.6
2024-12-11T2100,1443A,106.6555,26.4365,贵阳市,碧云窝,,29,29,24,12,13,51,,35,35,16,19,18,11,0.6,0.6
2024-12-11T2100,1444A,106.694,26.5161,贵阳市,中院村,,24,24,20,9,14,42,,36,36,19,17,10,11,0.6,0.7
2024-12-11T2100,1445A,106.7109,26.6027,贵阳市,红边门,,22,22,22,14,21,46,,34,34,16,20,15,13,0.8,0.8
2024-12-11T2100,1446A,106.7164,26.5699,贵阳市,新华路,,22,22,21,12,14,47,,36,36,15,16,3,4,0.6,0.6
2024-12-11T2100,1447A,106.674,26.5424,贵阳市,太慈桥,,18,17,17,12,12,43,,35,35,18,17,6,6,0.5,0.5
2024-12-11T2100,1552A,106.805,26.3003,贵阳市,桐木岭,,,,18,,10,,,32,,,5,,5,,0.6
2024-12-11T2100,1862A,110.4144,25.3167,桂林市,电子科大尧山校区,,25,25,12,8,10,58,,54,54,10,10,5,4,0.6,0.7
2024-12-11T2100,1863A,110.2819,25.2697,桂林市,监测站,,43,35,17,30,10,44,,41,41,17,17,10,9,0.9,1
2024-12-11T2100,1864A,110.3089,25.2708,桂林市,龙隐路小学,,,35,13,23,16,52,,48,48,13,15,,8,0.9,1
2024-12-11T2100,1865A,110.2869,25.2178,桂林市,八中,,43,41,15,30,15,45,,42,42,15,15,8,8,0.6,0.8
2024-12-11T2100,3403A,110.1764,25.2381,桂林市,创业大厦,细颗粒物(PM2.5),55,,16,39,15,42,,42,42,14,14,10,7,1.0,1.1
2024-12-11T2100,3531A,110.296,25.1253,桂林市,旅游学院,,45,,11,31,12,49,,49,49,15,15,8,7,0.7,0.7
2024-12-11T2100,2674A,100.2561,34.4714,果洛藏族自治州,玛沁县大武镇,颗粒物(PM10),58,65,62,27,15,66,,103,98,15,5,9,9,0.7,0.5
2024-12-11T2100,1129A,126.5422,45.755,哈尔滨市,岭北,细颗粒物(PM2.5),65,51,22,47,19,36,,60,54,39,19,16,13,0,0
2024-12-11T2100,1130A,126.561,45.8167,哈尔滨市,松北商大,颗粒物(PM10),51,51,35,30,23,23,,40,31,44,28,10,13,0.6,0.6
2024-12-11T2100,1131A,126.979,45.5419,哈尔滨市,阿城会宁,细颗粒物(PM2.5),118,136,92,89,58,9,,50,34,52,33,14,12,1.2,1
2024-12-11T2100,1132A,126.599,45.7222,哈尔滨市,南岗学府路,颗粒物(PM10),59,67,39,36,18,18,,47,36,46,27,10,15,0.7,0.4
2024-12-11T2100,1133A,126.689,45.7733,哈尔滨市,太平宏伟公园,,35,31,29,24,22,42,,45,44,20,20,6,14,0.8,0.6
2024-12-11T2100,1134A,126.635,45.7667,哈尔滨市,道外承德广场,,38,33,29,26,16,44,,50,47,24,23,9,12,0.7,0.6
2024-12-11T2100,1135A,126.685,45.7319,哈尔滨市,香坊红旗大街,细颗粒物(PM2.5),59,51,31,42,16,25,,42,37,40,23,14,10,0.6,0.4
2024-12-11T2100,1136A,126.6411,45.7258,哈尔滨市,动力和平路,细颗粒物(PM2.5),59,59,32,42,20,13,,43,31,49,25,18,10,0.6,0.4
2024-12-11T2100,1137A,126.593,45.7478,哈尔滨市,道里建国路,细颗粒物(PM2.5),52,42,28,36,19,34,,50,41,31,22,8,12,0.6,0.6
2024-12-11T2100,1138A,126.615,45.61,哈尔滨市,平房东轻厂,细颗粒物(PM2.5),57,53,38,40,29,10,,44,24,55,37,16,24,0.7,0.5
2024-12-11T2100,1139A,126.595,45.9855,哈尔滨市,呼兰师专,细颗粒物(PM2.5),85,,37,63,31,20,,45,33,49,26,14,9,0.9,0.6
2024-12-11T2100,1140A,126.6206,45.6842,哈尔滨市,省农科院,细颗粒物(PM2.5),87,98,57,64,42,7,,43,27,63,37,11,10,1.1,0.7
2024-12-11T2100,2688A,93.5128,42.8172,哈密市,地区监测站,细颗粒物(PM2.5),55,,59,39,42,53,,48,48,18,28,5,5,0.4,0.7
2024-12-11T2100,2689A,93.4961,42.8328,哈密市,哈密师范学校,细颗粒物(PM2.5),60,,58,43,45,48,,44,44,17,27,4,5,0.5,0.8
2024-12-11T2100,2671A,100.9048,36.9639,海北藏族自治州,海晏县西海镇,,22,22,29,10,20,67,,84,80,16,12,9,12,0.5,0.5
2024-12-11T2100,3867A,102.0738,36.5056,海东市,平安区公安北苑,细颗粒物(PM2.5),105,127,78,79,65,,,64,64,34,27,36,20,1.5,1.1
2024-12-11T2100,1409A,110.576,19.9507,海口市,东寨港,,28,24,28,12,14,87,,96,96,3,4,11,11,0.6,0.6
2024-12-11T2100,1410A,110.3232,20.0574,海口市,海南大学,,,31,42,15,18,108,,124,124,,11,5,5,0.7,0.5
2024-12-11T2100,1411A,110.283,20.0053,海口市,秀英海南医院,,44,44,37,15,17,108,,126,126,13,11,4,4,0.3,0.3
2024-12-11T2100,1412A,110.338,19.9969,海口市,海南师范大学,,40,40,34,13,16,107,,128,128,9,10,5,4,0.4,0.4
2024-12-11T2100,1413A,110.33,20.0356,海口市,龙华路环保局宿舍,,41,41,37,14,16,106,,130,130,8,8,5,5,0.4,0.4
2024-12-11T2100,3539A,110.5111,19.9736,海口市,桂林洋子站,,34,34,37,15,14,96,,112,112,6,6,5,5,0.3,0.3
2024-12-11T2100,2673A,100.6188,36.2866,海南藏族自治州,共和县恰卜恰镇,,35,35,35,7,11,51,,76,72,24,14,9,9,0.5,0.5
2024-12-11T2100,2676A,97.3731,37.3753,海西蒙古族藏族自治州,德令哈市,,46,46,37,20,12,85,,89,89,9,6,18,17,0.5,0.4
2024-12-11T2100,1048A,114.5302,36.6116,邯郸市,东污水处理厂,细颗粒物(PM2.5),73,78,96,53,68,8,,48,41,68,54,3,7,0.8,1
2024-12-11T2100,1049A,114.4918,36.5713,邯郸市,矿院,细颗粒物(PM2.5),70,88,95,51,59,3,,45,38,73,55,2,5,0.6,0.8
2024-12-11T2100,1050A,114.484,36.6133,邯郸市,丛台公园,细颗粒物(PM2.5),65,63,98,47,72,29,,51,49,45,52,4,7,0.7,0.9
2024-12-11T2100,3458A,114.7895,36.5593,邯郸市,香泉濮院小区,细颗粒物(PM2.5),65,76,118,47,77,14,,50,42,58,53,7,11,0.7,1
2024-12-11T2100,3579A,114.50634,36.77178,邯郸市,永年区实验高中,细颗粒物(PM2.5),105,123,122,79,75,8,,54,48,77,59,11,11,0.8,0.8
2024-12-11T2100,3580A,114.20016,36.44293,邯郸市,峰峰矿区临水派出所,细颗粒物(PM2.5),68,73,118,49,61,48,,48,48,41,53,8,13,0.5,1.1
2024-12-11T2100,2634A,106.9893,33.1842,汉中市,汉川机床厂子校,细颗粒物(PM2.5),53,46,47,37,40,88,,88,88,10,10,6,6,0.5,0.5
2024-12-11T2100,2635A,107.0154,33.0706,汉中市,市监测站,细颗粒物(PM2.5),82,88,55,60,46,63,,79,75,31,22,8,6,1.2,0.8
2024-12-11T2100,2636A,107.0089,33.1138,汉中市,鑫源开发区,细颗粒物(PM2.5),79,73,56,58,50,70,,82,76,23,21,6,5,0.7,0.6
2024-12-11T2100,2637A,107.007,33.0323,汉中市,南郑大河坎水厂,细颗粒物(PM2.5),99,108,64,74,50,41,,80,67,28,22,7,6,1.2,0.8
2024-12-11T2100,1223A,120.2072,30.2111,杭州市,滨江,细颗粒物(PM2.5),69,,18,50,21,52,,50,46,22,33,8,7,0.6,0.6
2024-12-11T2100,1224A,120.0633,30.2747,杭州市,西溪,颗粒物(PM10),52,54,19,31,12,43,,53,48,26,31,6,7,0.6,0.6
2024-12-11T2100,1226A,120.3461,30.3153,杭州市,下沙,细颗粒物(PM2.5),55,53,23,39,18,32,,57,42,39,33,7,5,0.8,0.7
2024-12-11T2100,1227A,120.1269,30.2456,杭州市,卧龙桥,,48,46,17,33,13,46,,58,50,24,29,7,7,0.6,0.6
2024-12-11T2100,1228A,120.1903,30.2692,杭州市,浙江农大,细颗粒物(PM2.5),64,,17,46,18,30,,47,36,44,37,4,4,0.6,0.6
2024-12-11T2100,1230A,120.1197,30.3119,杭州市,和睦小学,,45,43,19,31,14,38,,60,44,34,31,5,5,0.6,0.6
2024-12-11T2100,1231A,120.3019,30.4183,杭州市,临平镇,细颗粒物(PM2.5),65,59,28,47,28,37,,66,45,31,23,6,5,1.1,0.9
2024-12-11T2100,1232A,120.2697,30.1819,杭州市,城厢镇,颗粒物(PM10),54,58,25,36,15,41,,54,45,37,34,6,5,0.5,0.5
2024-12-11T2100,1233A,120.0883,30.1808,杭州市,云栖,,49,49,16,32,11,35,,60,45,28,29,6,6,0.6,0.6
2024-12-11T2100,3557A,119.9464,30.0494,杭州市,镇二中,细颗粒物(PM2.5),57,,11,40,10,51,,57,49,18,24,6,6,0.7,0.7
2024-12-11T2100,3558A,119.7183,30.2367,杭州市,市府大楼,颗粒物(PM10),52,54,13,29,8,62,,58,56,23,33,6,6,0.6,0.6
2024-12-11T2100,3656A,120.1556,30.2864,杭州市,消防大队,细颗粒物(PM2.5),58,48,24,41,21,50,,53,49,26,31,8,7,0.5,0.5
2024-12-11T2100,1270A,117.1959,31.7848,合肥市,明珠广场,细颗粒物(PM2.5),117,119,89,88,71,6,,34,14,54,35,8,8,0.9,0.9
2024-12-11T2100,1271A,117.3072,31.8764,合肥市,三里街,细颗粒物(PM2.5),125,127,91,95,71,4,,34,20,68,37,8,7,0.7,0.4
2024-12-11T2100,1272A,117.2588,31.8707,合肥市,琥珀山庄,细颗粒物(PM2.5),117,124,88,88,71,6,,41,25,75,39,5,5,1.0,0.8
2024-12-11T2100,1273A,117.1604,31.9052,合肥市,董铺水库,细颗粒物(PM2.5),92,112,86,68,54,4,,41,33,58,27,5,4,0.6,0.6
2024-12-11T2100,1274A,117.25,31.8571,合肥市,长江中路,细颗粒物(PM2.5),130,134,88,99,75,2,,36,23,79,38,8,7,1.2,0.9
2024-12-11T2100,1275A,117.266,31.9436,合肥市,庐阳区,细颗粒物(PM2.5),100,119,86,75,58,7,,44,39,72,36,4,4,1.0,0.9
2024-12-11T2100,1276A,117.336,31.8586,合肥市,瑶海区,细颗粒物(PM2.5),132,168,95,100,69,6,,35,24,75,44,8,6,1.3,0.7
2024-12-11T2100,1277A,117.3027,31.7964,合肥市,包河区,细颗粒物(PM2.5),117,136,91,88,69,3,,32,20,69,43,5,3,0.9,0.7
2024-12-11T2100,1278A,117.2776,31.7385,合肥市,滨湖新区,细颗粒物(PM2.5),107,139,92,80,61,0,,30,16,61,38,8,6,0.7,0.5
2024-12-11T2100,1279A,117.1318,31.8403,合肥市,高新区,细颗粒物(PM2.5),109,112,86,82,69,9,,39,32,66,36,2,3,0.8,0.8
2024-12-11T2100,3464A,117.3803,31.9147,合肥市,高教基地,细颗粒物(PM2.5),122,129,86,92,70,3,,40,30,71,40,7,7,0.9,0.7
2024-12-11T2100,3614A,79.924,37.0877,和田地区,地区环保局,颗粒物(PM10),81,112,139,36,44,42,,56,52,22,20,10,11,0.8,0.8
2024-12-11T2100,3615A,79.9131,37.113,和田地区,市环保局,,,9,96,,41,,,57,57,,25,,9,,1.4
2024-12-11T2100,2516A,108.2011,24.715,河池市,东仁乐园,,40,,11,28,62,55,,56,56,7,7,8,8,0.8,0.8
2024-12-11T2100,2517A,108.0497,24.6947,河池市,市环保站,,19,,8,6,3,58,,59,59,10,11,7,7,0.6,0.6
2024-12-11T2100,2518A,108.0983,24.6989,河池市,市疾控中心,,20,6,6,6,5,61,,60,60,8,11,7,9,0.6,0.6
2024-12-11T2100,1696A,114.6778,23.7569,河源市,源西,,30,,38,21,30,36,,62,54,16,20,5,6,0.8,0.6
2024-12-11T2100,1697A,114.6944,23.7586,河源市,东埔,,40,,38,28,34,36,,64,59,17,21,4,5,0.9,0.7
2024-12-11T2100,1698A,114.6892,23.7233,河源市,老城,,26,26,43,14,36,36,,63,59,18,25,4,5,0.8,0.8
2024-12-11T2100,1718A,115.4208,35.2464,菏泽市,气象局,细颗粒物(PM2.5),97,110,148,72,102,35,,59,57,41,53,6,9,0.7,0.9
2024-12-11T2100,1719A,115.4747,35.2375,菏泽市,市政协,细颗粒物(PM2.5),94,94,144,70,101,36,,61,58,44,54,8,12,0.7,0.9
2024-12-11T2100,3374A,115.5564,35.0891,菏泽市,定陶老年大学,细颗粒物(PM2.5),83,90,128,61,91,30,,60,56,50,57,9,13,0.5,0.7
2024-12-11T2100,3647A,115.4702,35.2706,菏泽市,菏泽医专,细颗粒物(PM2.5),90,101,141,67,94,38,,62,59,43,57,14,16,0.8,1
2024-12-11T2100,2514A,111.5264,24.4172,贺州市,环保小区,,34,34,34,22,27,32,,30,30,21,22,4,4,0.7,0.8
2024-12-11T2100,2515A,111.5608,24.4078,贺州市,政协大楼,,37,37,44,15,26,32,,29,29,17,18,5,6,0.7,0.8
2024-12-11T2100,3534A,111.4744,24.4553,贺州市,西湾,,39,39,45,25,32,35,,34,34,17,18,5,5,0.7,0.8
2024-12-11T2100,2385A,114.17,35.9019,鹤壁市,市监测站,细颗粒物(PM2.5),80,97,129,59,92,12,,46,40,56,56,6,9,0.8,1.6
2024-12-11T2100,2386A,114.2956,35.7511,鹤壁市,市交警支队,细颗粒物(PM2.5),77,86,126,56,85,28,,48,44,42,49,4,4,0.6,1
2024-12-11T2100,2387A,114.2878,35.7306,鹤壁市,迎宾馆,细颗粒物(PM2.5),72,80,127,52,81,36,,49,46,38,49,8,10,0.3,0.8
2024-12-11T2100,3474A,114.2617,35.6822,鹤壁市,大新区,细颗粒物(PM2.5),74,54,113,54,91,27,,47,45,49,60,6,11,0.4,0.9
2024-12-11T2100,3596A,114.1572,35.9603,鹤壁市,南山宾馆,细颗粒物(PM2.5),84,70,126,62,94,37,,52,45,24,45,1,7,0.2,1.2
2024-12-11T2100,2244A,130.2537,47.3416,鹤岗市,哈啤分公司,,33,28,22,23,19,47,,51,50,4,5,14,14,0.6,0.5
2024-12-11T2100,2245A,130.2684,47.3086,鹤岗市,斯达机电,,,27,24,18,19,,,54,51,14,11,,14,0.3,0.3
2024-12-11T2100,2246A,130.3114,47.3388,鹤岗市,东山纸板厂,,26,26,12,17,19,53,,55,53,6,8,12,12,0.3,0.5
2024-12-11T2100,2247A,130.1097,47.3382,鹤岗市,五号水库,,23,20,21,16,13,66,,68,67,4,4,9,8,0.4,0.4
2024-12-11T2100,2263A,127.4833,50.2524,黑河市,交通局,,41,41,22,27,16,27,,54,33,31,15,7,6,0.7,0.5
2024-12-11T2100,2264A,127.5144,50.2341,黑河市,环保局,,40,,22,28,21,37,,54,29,21,17,7,6,0.4,0.3
2024-12-11T2100,2265A,127.5291,50.2472,黑河市,大黑河岛,,,28,12,,,30,,8,8,10,9,1,2,0.8,0.7
2024-12-11T2100,1074A,115.6838,37.7541,衡水市,电机北厂,细颗粒物(PM2.5),52,44,92,36,53,10,,45,37,58,52,12,17,0.6,0.8
2024-12-11T2100,1075A,115.6303,37.7316,衡水市,市监测站,细颗粒物(PM2.5),55,51,80,39,49,21,,49,42,58,57,6,9,0.7,0.8
2024-12-11T2100,3188A,115.6683,37.7217,衡水市,市城管局,颗粒物(PM10),57,63,76,38,45,11,,52,42,66,58,6,11,0.6,0.9
2024-12-11T2100,3459A,115.5989,37.5491,衡水市,地表水厂,细颗粒物(PM2.5),60,65,75,43,51,7,,50,38,77,50,19,10,0.8,0.8
2024-12-11T2100,2456A,112.5003,26.9167,衡阳市,原169医院,,,67,36,40,28,,,45,45,32,16,6,3,0.8,0.8
2024-12-11T2100,2457A,112.6194,26.9258,衡阳市,衡阳化工总厂,细颗粒物(PM2.5),85,69,42,63,39,22,,42,39,30,22,6,8,0.7,0.7
2024-12-11T2100,2458A,112.6211,26.8956,衡阳市,珠晖区环保局,细颗粒物(PM2.5),82,64,37,60,39,23,,46,43,41,22,10,7,0.9,0.8
2024-12-11T2100,2459A,112.6197,26.8733,衡阳市,市委党校,细颗粒物(PM2.5),88,67,35,65,40,22,,43,40,38,25,10,8,0.8,0.8
2024-12-11T2100,2460A,112.6006,26.8919,衡阳市,市监测站,细颗粒物(PM2.5),88,75,47,65,43,51,,48,48,21,19,10,6,0.8,0.8
2024-12-11T2100,2461A,112.5664,26.9056,衡阳市,真空机电公司,细颗粒物(PM2.5),73,,32,53,39,36,,48,47,34,22,5,4,0.7,0.6
2024-12-11T2100,3399A,112.6703,26.882,衡阳市,师范学院,细颗粒物(PM2.5),74,74,42,54,33,18,,40,32,35,25,9,9,0.6,0.8
2024-12-11T2100,2608A,103.3772,23.3993,红河哈尼族彝族自治州,污水处理厂,,36,36,32,25,26,66,,71,67,4,10,6,13,0.5,0.6
2024-12-11T2100,2609A,103.3861,23.35,红河哈尼族彝族自治州,监测站,,45,38,36,31,32,62,,71,66,6,12,5,16,0.7,0.7
2024-12-11T2100,3038A,103.3758,23.368,红河哈尼族彝族自治州,州图书馆,,29,28,31,20,22,59,,65,62,6,10,6,15,0.5,0.6
2024-12-11T2100,1090A,111.6507,40.7517,呼和浩特市,呼市一监,颗粒物(PM10),76,102,46,53,25,3,,44,33,58,28,10,11,0.9,0.6
2024-12-11T2100,1091A,111.6572,40.8033,呼和浩特市,小召,细颗粒物(PM2.5),74,92,30,54,20,11,,52,39,63,30,14,13,0.7,0.5
2024-12-11T2100,1094A,111.7516,40.8369,呼和浩特市,如意水处理厂,颗粒物(PM10),57,64,36,31,18,2,,46,37,61,26,11,11,0.7,0.5
2024-12-11T2100,1095A,111.7276,40.8062,呼和浩特市,二十九中,颗粒物(PM10),55,60,33,36,19,25,,49,43,46,27,11,10,0.8,0.6
2024-12-11T2100,1096A,111.5512,40.7866,呼和浩特市,工大金川校区,颗粒物(PM10),67,83,43,33,21,4,,46,33,61,34,8,10,0.9,0.7
2024-12-11T2100,1097A,111.717,40.7612,呼和浩特市,化肥厂生活区,颗粒物(PM10),60,70,55,36,26,7,,48,37,53,26,9,9,0.7,0.6
2024-12-11T2100,3698A,111.5968,40.8178,呼和浩特市,红旗小学,,48,48,33,27,20,14,,51,30,51,29,7,9,0.5,0.4
2024-12-11T2100,3699A,111.6518,40.8389,呼和浩特市,海东办,颗粒物(PM10),58,66,29,30,18,4,,45,36,64,33,10,11,0.7,0.5
2024-12-11T2100,2192A,119.7594,49.2261,呼伦贝尔市,区环保局,,33,29,24,23,19,44,,60,49,18,12,5,5,0.4,0.3
2024-12-11T2100,3061A,119.7512,49.1577,呼伦贝尔市,国华电力东,,32,25,22,22,16,57,,64,58,5,5,3,4,0.3,0.2
2024-12-11T2100,1250A,120.0751,30.8669,湖州市,城西水厂,细颗粒物(PM2.5),60,61,34,43,24,23,,68,32,45,31,8,7,0.7,0.6
2024-12-11T2100,2873A,120.0875,30.8955,湖州市,仁皇山新区,细颗粒物(PM2.5),74,61,34,54,29,14,,72,31,56,26,6,6,0.7,0.7
2024-12-11T2100,2907A,120.1844,30.8596,湖州市,吴兴区站,细颗粒物(PM2.5),69,70,43,50,29,21,,66,45,48,27,7,6,0.8,0.6
2024-12-11T2100,3562A,120.4148,30.8538,湖州市,南浔区站,细颗粒物(PM2.5),85,80,46,63,34,27,,59,38,42,27,8,6,0.8,0.6
2024-12-11T2100,1607A,120.9092,40.7136,葫芦岛市,龙港区,,35,35,41,20,22,37,,57,45,22,25,23,27,0.4,0.4
2024-12-11T2100,1608A,120.8392,40.7514,葫芦岛市,化工街,,,,37,105,18,15,,54,35,94,36,33,23,2.0,0.6
2024-12-11T2100,1609A,120.8341,40.7073,葫芦岛市,新区,细颗粒物(PM2.5),74,73,29,54,16,8,,54,34,62,20,24,16,1.1,0.5
2024-12-11T2100,1610A,120.8695,40.7677,葫芦岛市,东城区,细颗粒物(PM2.5),60,44,26,43,18,11,,51,33,56,18,18,12,1.0,0.6
2024-12-11T2100,2482A,109.5981,27.5721,怀化市,林科所,,29,26,17,20,15,46,,62,60,14,12,4,8,0.5,0.5
2024-12-11T2100,2483A,109.9453,27.5444,怀化市,河西地税局,颗粒物(PM10),61,72,34,42,23,27,,57,,26,11,6,6,0.6,0.5
2024-12-11T2100,2484A,109.9781,27.5342,怀化市,市四医院,,,,28,,22,,,60,,,12,,9,,0.6
2024-12-11T2100,2485A,109.9972,27.5578,怀化市,监测楼,颗粒物(PM10),54,58,29,36,21,35,,66,60,25,14,2,2,0.6,0.5
2024-12-11T2100,2486A,110.0394,27.583,怀化市,市委党校,颗粒物(PM10),60,70,34,42,23,20,,65,56,34,13,5,4,0.4,0.4
2024-12-11T2100,1210A,119.036,33.5981,淮安市,钵池山,细颗粒物(PM2.5),68,66,61,49,51,35,,65,57,40,26,5,7,0.7,0.7
2024-12-11T2100,1211A,119.007,33.575,淮安市,北京南路,细颗粒物(PM2.5),60,63,60,43,46,41,,63,58,32,25,7,9,0.6,0.9
2024-12-11T2100,1212A,118.989,33.6067,淮安市,市监测站,细颗粒物(PM2.5),73,68,64,53,53,35,,63,55,41,29,5,7,0.5,0.5
2024-12-11T2100,1213A,119.135,33.5039,淮安市,楚州区监测站,颗粒物(PM10),61,71,64,40,47,32,,60,54,43,30,6,8,0.7,0.7
2024-12-11T2100,1214A,119.0186,33.6297,淮安市,淮阴区监测站,细颗粒物(PM2.5),68,75,73,49,51,27,,63,53,52,32,6,8,0.7,0.7
2024-12-11T2100,3426A,118.8755,33.2894,淮安市,新华书店,颗粒物(PM10),71,91,79,48,58,28,,63,57,55,36,7,9,0.7,0.8
2024-12-11T2100,2282A,116.8004,33.975,淮北市,监测站,细颗粒物(PM2.5),97,127,146,72,100,43,,52,50,37,50,7,11,0.8,1
2024-12-11T2100,2283A,116.8091,33.9007,淮北市,烈山区政府,细颗粒物(PM2.5),123,130,139,93,99,33,,57,51,54,56,7,10,0.8,0.9
2024-12-11T2100,3330A,116.8873,33.9836,淮北市,杜集区检察院,细颗粒物(PM2.5),149,170,154,114,110,8,,53,46,68,50,6,8,0.9,0.9
2024-12-11T2100,4017A,116.7923,33.9535,淮北市,市博物馆,细颗粒物(PM2.5),94,121,139,70,97,44,,54,52,44,54,8,12,1.0,1.1
2024-12-11T2100,2277A,116.8305,32.7727,淮南市,潘集区政府,细颗粒物(PM2.5),143,150,120,109,93,20,,53,49,62,41,10,12,0.8,0.8
2024-12-11T2100,2278A,117.0067,32.6524,淮南市,师范学院,细颗粒物(PM2.5),143,139,116,109,90,31,,51,50,43,37,6,7,0.9,0.9
2024-12-11T2100,2279A,116.8569,32.5951,淮南市,谢家集区政府,细颗粒物(PM2.5),120,118,101,91,75,41,,58,57,41,37,17,15,0.8,0.8
2024-12-11T2100,2280A,116.8281,32.633,淮南市,八公山区政府,细颗粒物(PM2.5),113,122,103,85,78,31,,59,57,51,32,10,11,0.8,0.8
2024-12-11T2100,2281A,116.6325,32.6201,淮南市,焦岗湖风景区管理处,细颗粒物(PM2.5),117,120,78,88,64,7,,39,35,77,40,6,8,0.6,0.5
2024-12-11T2100,2894A,117.0566,32.6531,淮南市,经济技术开发区消防队,细颗粒物(PM2.5),103,124,115,77,82,31,,58,56,55,34,11,9,0.7,0.7
2024-12-11T2100,3329A,117.0108,32.5893,淮南市,山南新区,细颗粒物(PM2.5),97,108,108,72,86,53,,62,62,25,30,7,8,0.6,0.8
2024-12-11T2100,2446A,114.9028,30.4742,黄冈市,职工中心,细颗粒物(PM2.5),108,105,76,81,67,17,,40,34,50,26,10,9,0.8,0.9
2024-12-11T2100,2929A,114.8858,30.4519,黄冈市,红卫路,细颗粒物(PM2.5),99,91,69,74,60,23,,40,35,38,28,6,6,0.9,0.8
2024-12-11T2100,3398A,114.9136,30.4445,黄冈市,市林业局,细颗粒物(PM2.5),99,92,70,74,60,21,,45,39,39,19,9,8,0.8,0.7
2024-12-11T2100,2672A,102.0199,35.5102,黄南藏族自治州,同仁县隆务镇,颗粒物(PM10),54,57,62,37,50,81,,82,82,7,13,8,8,0.6,0.8
2024-12-11T2100,2295A,118.2903,29.6963,黄山市,延安路89号,,19,19,11,3,8,39,,54,49,16,19,7,7,0.3,0.4
2024-12-11T2100,2296A,118.327,29.7178,黄山市,黄山东路89号,,22,22,20,13,10,34,,53,46,14,17,5,5,0.4,0.4
2024-12-11T2100,2297A,118.1371,30.2756,黄山市,黄山区政府5号楼,,49,,16,34,14,41,,54,42,19,22,7,7,0.6,0.6
2024-12-11T2100,2423A,115.0601,30.2313,黄石市,沈家营,细颗粒物(PM2.5),83,83,66,61,50,16,,28,26,28,28,8,8,0.8,0.7
2024-12-11T2100,2424A,115.0817,30.2006,黄石市,陈家湾,细颗粒物(PM2.5),103,79,67,77,62,24,,30,28,22,25,7,7,0.7,0.6
2024-12-11T2100,2426A,114.8988,30.2019,黄石市,铁山,细颗粒物(PM2.5),112,,64,84,68,8,,32,28,45,30,13,8,1.5,1.1
2024-12-11T2100,2427A,115.0307,30.2092,黄石市,团城山,细颗粒物(PM2.5),102,83,65,76,60,12,,29,27,36,28,7,7,0.8,0.8
2024-12-11T2100,3149A,115.0235,30.1578,黄石市,笔架山北路,细颗粒物(PM2.5),94,70,57,70,56,11,,34,30,37,31,5,7,1.0,1
2024-12-11T2100,1392A,114.4183,23.0528,惠州市,河南岸金山湖子站,颗粒物(PM10),56,61,56,38,34,39,,80,73,16,22,8,8,0.7,0.5
2024-12-11T2100,1393A,114.4053,23.0822,惠州市,下埔横江三路子站,细颗粒物(PM2.5),58,61,57,41,34,39,,86,81,19,25,7,9,0.7,0.5
2024-12-11T2100,1394A,114.4103,23.1142,惠州市,江北云山西路子站,颗粒物(PM10),56,62,56,39,32,37,,86,78,22,25,9,10,0.9,0.7
2024-12-11T2100,1395A,114.4645,22.7833,惠州市,惠阳区承修路船湖子站,颗粒物(PM10),66,82,56,42,26,45,,87,80,13,21,9,9,0.7,0.5
2024-12-11T2100,1396A,114.5317,22.7422,惠州市,大亚湾管委会子站,颗粒物(PM10),61,72,50,41,26,60,,96,92,15,28,8,8,0.8,0.7
2024-12-11T2100,3314A,114.4338,22.8134,惠州市,惠阳秋长,颗粒物(PM10),58,66,44,39,26,39,,86,78,24,27,10,10,0.6,0.5
2024-12-11T2100,3452A,114.6517,22.775,惠州市,大亚湾霞涌,细颗粒物(PM2.5),73,58,40,53,27,56,,95,92,12,17,7,7,0.7,0.5
2024-12-11T2100,2240A,130.9762,45.3001,鸡西市,环保局,,20,20,22,14,17,50,,50,45,4,5,6,7,0.5,0.5
2024-12-11T2100,2243A,130.9429,45.3039,鸡西市,第一中学,,21,21,21,12,14,55,,55,48,5,7,6,6,0.4,0.4
2024-12-11T2100,3707A,131.0207,45.3073,鸡西市,欧美日汽修厂,,20,17,24,14,20,46,,55,48,21,15,13,14,0.3,0.4
2024-12-11T2100,3709A,130.9967,45.3106,鸡西市,市政设施管理处,,25,25,26,15,15,41,,51,39,21,15,2,4,0.6,0.6
2024-12-11T2100,2367A,114.9754,27.0803,吉安市,红声器材厂,,27,27,44,16,27,21,,16,16,33,40,14,14,0.7,0.8
2024-12-11T2100,2368A,114.9658,27.0999,吉安市,市森林工业局,,25,25,40,15,27,22,,21,21,33,40,15,15,0.8,0.6
2024-12-11T2100,2369A,114.99,27.1312,吉安市,市环境监测站,,26,,40,18,30,33,,22,22,24,37,23,18,0.8,0.9
2024-12-11T2100,2370A,115.0093,27.0968,吉安市,青原区法院,,23,23,40,16,27,20,,17,17,36,43,15,12,0.7,0.8
2024-12-11T2100,1772A,126.54,43.8622,吉林市,哈达湾,细颗粒物(PM2.5),65,48,35,47,24,43,,46,43,25,24,9,9,0.7,0.6
2024-12-11T2100,1773A,126.5844,43.8358,吉林市,东局子,,47,47,38,28,27,36,,51,48,30,25,6,7,0.7,0.7
2024-12-11T2100,1774A,126.5052,43.8245,吉林市,电力学院,细颗粒物(PM2.5),132,127,51,100,43,12,,45,31,50,29,12,11,2.0,1
2024-12-11T2100,1775A,126.6133,43.8972,吉林市,江北,细颗粒物(PM2.5),69,85,54,50,35,22,,45,37,42,33,10,12,1.2,0.8
2024-12-11T2100,1776A,126.555,43.8306,吉林市,江南公园,,45,41,38,31,29,39,,49,46,25,26,10,10,0.7,0.6
2024-12-11T2100,1778A,126.7061,43.7133,吉林市,丰满,,28,23,22,19,20,48,,54,53,10,11,10,10,0.3,0.3
2024-12-11T2100,2868A,126.4739,43.953,吉林市,九站,细颗粒物(PM2.5),52,44,41,36,32,25,,44,31,36,29,6,6,0.7,0.7
2024-12-11T2100,1299A,116.9862,36.6114,济南市,科干所,颗粒物(PM10),56,61,99,29,64,28,,52,47,46,60,11,10,0.6,0.8
2024-12-11T2100,1300A,116.9376,36.665,济南市,农科所,颗粒物(PM10),64,78,110,29,56,14,,55,46,61,58,11,14,0.9,1.1
2024-12-11T2100,1301A,117.1265,36.6734,济南市,开发区,颗粒物(PM10),55,59,105,22,70,20,,49,41,58,60,8,12,0.6,0.9
2024-12-11T2100,1303A,117.0624,36.6868,济南市,省种子仓库,颗粒物(PM10),59,68,112,29,66,23,,54,46,50,53,8,12,0.5,0.9
2024-12-11T2100,1304A,116.9489,36.6447,济南市,机床二厂,颗粒物(PM10),59,68,104,27,61,21,,57,48,54,56,10,14,0.8,1
2024-12-11T2100,1305A,117.0495,36.663,济南市,市监测站,颗粒物(PM10),57,63,104,29,63,25,,54,47,53,57,8,12,0.6,0.8
2024-12-11T2100,1306A,116.7675,36.5484,济南市,长清党校,颗粒物(PM10),61,71,120,42,78,10,,55,42,72,64,15,16,0.7,0.9
2024-12-11T2100,1616A,117.6795,36.229,济南市,技术学院,,36,36,86,22,61,35,,54,48,34,55,9,15,0.7,0.9
2024-12-11T2100,1961A,117.532,36.6868,济南市,东山小学,颗粒物(PM10),62,73,123,22,74,11,,62,41,60,49,8,10,0.5,0.8
2024-12-11T2100,3059A,117.7161,36.2049,济南市,泰兴公司,,41,41,96,17,61,35,,55,49,35,53,9,15,0.5,0.8
2024-12-11T2100,3064A,117.6867,36.2171,济南市,莱芜战役纪念馆,,39,39,93,14,58,44,,57,53,25,51,8,14,0.5,0.8
2024-12-11T2100,3494A,117.1673,36.9782,济南市,济阳区政府,,46,46,85,24,51,36,,54,47,28,49,13,13,0.4,0.8
2024-12-11T2100,3495A,117.1171,36.63,济南市,锦屏中学,颗粒物(PM10),52,54,89,27,63,26,,57,51,47,50,6,9,0.5,0.7
2024-12-11T2100,3682A,116.9814,36.6819,济南市,济南四建,颗粒物(PM10),57,63,100,37,62,13,,48,40,57,59,9,11,0.6,0.9
2024-12-11T2100,1653A,116.6251,35.4302,济宁市,火炬城,细颗粒物(PM2.5),67,75,90,48,65,24,,62,54,49,50,7,10,0.7,0.8
2024-12-11T2100,1655A,116.5491,35.4042,济宁市,电化厂,细颗粒物(PM2.5),92,114,116,68,75,8,,53,41,73,57,16,15,0.8,1
2024-12-11T2100,3500A,116.5814,35.3707,济宁市,北湖一中,细颗粒物(PM2.5),73,78,92,53,64,31,,64,56,44,54,5,9,0.7,0.8
2024-12-11T2100,3501A,116.8249,35.5593,济宁市,服务中心,细颗粒物(PM2.5),78,96,114,57,66,14,,64,49,56,49,13,14,0.6,0.7
2024-12-11T2100,3678A,116.5907,35.4054,济宁市,市第七中学,细颗粒物(PM2.5),73,77,91,53,66,28,,65,57,49,50,6,9,0.8,1
2024-12-11T2100,2255A,130.2751,46.8028,佳木斯市,佳纺,,33,29,38,23,33,47,,53,45,16,15,17,12,0.7,0.6
2024-12-11T2100,2256A,130.3995,46.8307,佳木斯市,发电厂,,25,20,26,17,29,49,,50,45,7,15,5,7,0.4,0.5
2024-12-11T2100,2257A,130.3258,46.7975,佳木斯市,环保局,,42,37,33,29,29,32,,47,35,27,20,14,11,0.5,0.5
2024-12-11T2100,2258A,130.3648,46.8032,佳木斯市,十一中,,28,24,29,19,27,37,,51,41,28,23,17,10,0.5,0.5
2024-12-11T2100,2259A,130.3794,46.7588,佳木斯市,四丰,,23,23,27,11,19,52,,58,53,5,6,1,1,0.3,0.4
2024-12-11T2100,1252A,120.7436,30.778,嘉兴市,清河小学,细颗粒物(PM2.5),78,79,34,57,24,15,,62,22,48,32,6,5,0.9,0.6
2024-12-11T2100,1253A,120.726,30.7478,嘉兴市,嘉兴学院,细颗粒物(PM2.5),84,82,40,62,30,24,,57,27,44,33,7,5,0.8,0.6
2024-12-11T2100,2872A,120.7846,30.7525,嘉兴市,南湖区残联,细颗粒物(PM2.5),97,,33,72,30,22,,71,33,45,26,8,6,0.9,0.6
2024-12-11T2100,3407A,120.6916,30.7739,嘉兴市,秀洲住建,细颗粒物(PM2.5),90,76,33,67,32,26,,63,32,39,29,10,9,0.7,0.5
2024-12-11T2100,1945A,98.2908,39.7711,嘉峪关市,气象局,,44,44,48,19,29,71,,72,68,15,21,11,14,0.7,0.9
2024-12-11T2100,2884A,98.2672,39.7978,嘉峪关市,酒钢宾馆,颗粒物(PM10),56,61,53,27,29,56,,75,75,34,21,51,30,0.8,0.7
2024-12-11T2100,3248A,98.2643,39.7724,嘉峪关市,雄关区,细颗粒物(PM2.5),54,54,43,38,28,41,,71,67,47,30,19,15,0.6,0.5
2024-12-11T2100,1383A,113.1064,22.6058,江门市,北街,颗粒物(PM10),51,51,79,20,45,10,,93,82,44,73,8,10,0.7,0.9
2024-12-11T2100,1384A,113.0731,22.5835,江门市,西区,颗粒物(PM10),54,58,86,23,43,10,,92,82,43,77,9,11,0.8,0.9
2024-12-11T2100,1385A,113.0219,22.5311,江门市,圭峰西,,43,43,66,25,42,29,,107,97,29,50,6,7,0.6,0.7
2024-12-11T2100,1386A,113.0828,22.5947,江门市,东湖,,49,49,76,22,39,11,,94,84,38,62,8,9,0.7,0.9
2024-12-11T2100,3311A,113.1075,22.5647,江门市,江海富民,颗粒物(PM10),60,69,94,22,45,12,,92,80,50,77,8,11,0.8,0.9
2024-12-11T2100,3449A,113.05,22.4667,江门市,新会银湖,颗粒物(PM10),51,52,75,27,48,20,,98,90,35,62,7,8,0.7,0.8
2024-12-11T2100,1828A,113.227,35.2125,焦作市,市环保局,细颗粒物(PM2.5),123,132,149,93,112,19,,35,33,54,55,11,13,1.3,1.1
2024-12-11T2100,1830A,113.1992,35.2590,焦作市,影视城,细颗粒物(PM2.5),90,101,119,67,86,44,,28,,35,44,12,14,1.3,1.4
2024-12-11T2100,3169A,113.2725,35.2067,焦作市,太极体育中心,细颗粒物(PM2.5),129,153,148,98,103,10,,32,30,70,60,14,14,1.3,1.3
2024-12-11T2100,3335A,113.3137,35.2641,焦作市,马村街道办,细颗粒物(PM2.5),119,122,148,90,113,14,,36,32,55,50,11,14,1.7,1.4
2024-12-11T2100,3336A,113.2465,35.2373,焦作市,焦作技师学院,细颗粒物(PM2.5),122,131,161,92,111,16,,31,29,59,45,12,19,1.5,1.6
2024-12-11T2100,3477A,113.1656,35.2539,焦作市,中站许衡医院,细颗粒物(PM2.5),105,108,129,79,90,18,,34,32,58,53,5,9,1.1,1.2
2024-12-11T2100,3981A,113.2449,35.1803,焦作市,原李万街道办,细颗粒物(PM2.5),122,124,157,92,110,12,,34,32,65,56,10,9,1.4,1.2
2024-12-11T2100,1708A,116.3701,23.5345,揭阳市,新兴,细颗粒物(PM2.5),69,,56,50,38,42,,127,98,18,22,6,10,0.6,0.6
2024-12-11T2100,1709A,116.3264,23.5443,揭阳市,西马,颗粒物(PM10),54,57,63,30,38,45,,113,97,14,23,7,10,0.7,0.7
2024-12-11T2100,1710A,116.3611,23.5626,揭阳市,东兴,细颗粒物(PM2.5),58,55,65,41,37,39,,111,91,21,23,7,12,0.9,0.8
2024-12-11T2100,1711A,116.4151,23.5294,揭阳市,渔湖,细颗粒物(PM2.5),62,55,56,44,26,41,,135,103,22,23,9,13,0.7,0.6
2024-12-11T2100,3320A,116.403,23.5699,揭阳市,曲溪,细颗粒物(PM2.5),59,57,53,42,30,42,,128,114,26,30,9,9,0.7,0.7
2024-12-11T2100,1944A,102.1692,38.5167,金昌市,天庆家园,颗粒物(PM10),52,53,54,22,58,87,,60,58,8,20,9,15,0.8,0.9
2024-12-11T2100,3170A,102.1864,38.5253,金昌市,市委党校,,33,33,64,20,47,87,,60,60,8,18,9,12,0.6,0.8
2024-12-11T2100,4022A,102.1647,38.5371,金昌市,金川区人防中心,,43,43,65,23,51,88,,63,63,5,15,10,15,0.6,0.8
2024-12-11T2100,1262A,119.647,29.077,金华市,十五中,,30,29,25,21,18,30,,39,38,38,44,4,4,0.8,0.6
2024-12-11T2100,1263A,119.686,29.1029,金华市,监测站,,30,26,22,21,17,23,,34,32,43,46,3,3,1.0,0.9
2024-12-11T2100,3659A,119.656,29.1131,金华市,气象局,,29,25,24,20,19,27,,31,31,40,47,3,3,0.9,1
2024-12-11T2100,1767A,121.1115,41.0879,锦州市,南山,细颗粒物(PM2.5),84,,20,62,14,30,,60,49,38,14,13,14,1.2,0.6
2024-12-11T2100,1768A,121.0533,40.8434,锦州市,开发区,颗粒物(PM10),88,126,47,50,22,7,,52,36,72,32,16,17,1.2,0.8
2024-12-11T2100,1769A,121.1836,41.1119,锦州市,百股街道,细颗粒物(PM2.5),113,110,34,85,23,11,,58,38,52,21,16,15,1.8,0.7
2024-12-11T2100,1770A,121.1178,41.1222,锦州市,天安街道,细颗粒物(PM2.5),119,90,31,90,25,13,,58,41,58,19,18,13,1.2,0.6
2024-12-11T2100,1771A,121.1303,41.1386,锦州市,北湖公园,细颗粒物(PM2.5),77,88,28,56,24,16,,54,38,45,15,20,14,1.1,0.5
2024-12-11T2100,2160A,112.85,35.5051,晋城市,自来水公司,细颗粒物(PM2.5),107,108,96,80,76,49,,49,49,41,37,14,8,1.4,1.2
2024-12-11T2100,2161A,112.8318,35.4936,晋城市,白云商贸,细颗粒物(PM2.5),125,114,95,95,73,40,,47,47,51,41,13,7,1.4,1.1
2024-12-11T2100,2162A,112.8508,35.4887,晋城市,市环保局,细颗粒物(PM2.5),117,152,101,88,77,45,,46,46,44,37,11,7,1.3,1.2
2024-12-11T2100,2163A,112.8676,35.4897,晋城市,技术学院,细颗粒物(PM2.5),113,134,99,85,75,44,,46,46,46,40,13,8,1.4,1.1
2024-12-11T2100,2165A,112.8453,35.546,晋城市,白马寺,细颗粒物(PM2.5),129,129,95,98,70,25,,43,42,47,32,14,11,1.5,1.2
2024-12-11T2100,3620A,112.8271,35.4828,晋城市,泽州一中,细颗粒物(PM2.5),132,116,87,100,79,37,,45,45,51,36,17,8,1.4,1.2
2024-12-11T2100,2171A,112.7532,37.6945,晋中市,锦纶小区,细颗粒物(PM2.5),138,153,118,105,66,4,,35,26,58,49,9,12,1.2,0.9
2024-12-11T2100,2173A,112.7249,37.7067,晋中市,南都小区,细颗粒物(PM2.5),150,177,117,115,75,4,,37,30,66,50,11,15,1.6,1.2
2024-12-11T2100,2174A,112.6991,37.6982,晋中市,榆次区政府,细颗粒物(PM2.5),138,185,114,105,67,4,,32,25,65,51,12,12,1.6,1.1
2024-12-11T2100,2865A,112.7195,37.6828,晋中市,榆次三中,细颗粒物(PM2.5),140,166,121,107,76,3,,34,27,57,47,14,14,1.4,1.1
2024-12-11T2100,2439A,112.2014,31.0481,荆门市,竹园小学,细颗粒物(PM2.5),75,68,78,55,55,66,,86,84,33,26,13,14,0.4,0.4
2024-12-11T2100,2440A,112.1969,30.9891,荆门市,掇刀,细颗粒物(PM2.5),78,71,72,57,53,85,,95,95,27,25,13,10,0.6,0.6
2024-12-11T2100,2441A,112.2213,31.0386,荆门市,石化一小,细颗粒物(PM2.5),78,91,81,57,54,64,,90,88,35,25,13,10,0.5,0.5
2024-12-11T2100,3012A,112.1849,31.0362,荆门市,西山林语,细颗粒物(PM2.5),70,59,69,51,50,87,,92,92,19,21,10,9,0.6,0.5
2024-12-11T2100,3547A,112.1632,31.0138,荆门市,龙泉中学南校,细颗粒物(PM2.5),64,69,77,46,58,86,,94,94,21,25,14,12,0.5,0.6
2024-12-11T2100,1844A,112.2494,30.3197,荆州市,市图书馆,细颗粒物(PM2.5),75,70,59,55,59,31,,86,75,73,33,5,6,0.8,0.7
2024-12-11T2100,1845A,112.2008,30.3544,荆州市,市委党校,细颗粒物(PM2.5),69,78,63,50,58,17,,89,79,83,33,4,5,0.8,0.6
2024-12-11T2100,3194A,112.2747,30.3122,荆州市,管委会,细颗粒物(PM2.5),72,76,64,52,57,9,,84,66,88,28,5,5,0.8,0.6
2024-12-11T2100,3548A,112.1655,30.3364,荆州市,学苑路,细颗粒物(PM2.5),69,64,74,50,51,60,,93,89,51,29,10,10,0.9,0.8
2024-12-11T2100,2342A,117.3102,29.3867,景德镇市,王港中学,,,,,,,,,,,,,,,,
2024-12-11T2100,2343A,117.2117,29.2933,景德镇市,老干部活动中心,,13,9,11,9,11,39,,43,43,11,19,7,7,0.6,0.6
2024-12-11T2100,2344A,117.1894,29.2789,景德镇市,兽医站,,24,24,23,10,8,41,,43,43,6,19,7,7,0.5,0.5
2024-12-11T2100,2345A,117.1547,29.2617,景德镇市,台达陶瓷,,13,9,13,6,12,40,,40,40,4,19,3,5,0.6,0.7
2024-12-11T2100,2346A,117.2461,29.2956,景德镇市,陶研所,,12,11,10,8,6,37,,38,38,10,18,12,6,0.7,0.8
2024-12-11T2100,1803A,115.9872,29.6815,九江市,十里,细颗粒物(PM2.5),68,54,32,49,28,22,,47,24,26,28,11,6,0.8,0.8
2024-12-11T2100,1804A,115.9584,29.7046,九江市,茅山头,颗粒物(PM10),56,62,32,39,26,20,,44,23,33,27,9,10,0.9,0.8
2024-12-11T2100,1805A,115.9877,29.7295,九江市,西园,细颗粒物(PM2.5),58,48,31,41,26,26,,47,27,26,25,6,6,0.6,0.6
2024-12-11T2100,1806A,116.0172,29.6547,九江市,五七二七厂,细颗粒物(PM2.5),87,73,38,64,37,22,,47,29,30,26,4,4,0.8,0.8
2024-12-11T2100,1808A,115.9114,29.6038,九江市,综合工业园,细颗粒物(PM2.5),75,,35,55,40,14,,49,16,42,35,1,2,1.0,0.8
2024-12-11T2100,1809A,116.0721,29.7535,九江市,石化总厂,细颗粒物(PM2.5),65,50,33,47,34,12,,30,16,34,27,9,9,0.8,0.7
2024-12-11T2100,1810A,115.9773,29.5698,九江市,庐山气象台,细颗粒物(PM2.5),64,,11,46,13,78,,63,63,9,15,18,13,1.0,1
2024-12-11T2100,3190A,116.0254,29.6994,九江市,外国语学校,细颗粒物(PM2.5),69,60,31,50,30,15,,42,19,36,27,4,5,0.7,0.6
2024-12-11T2100,2658A,98.5061,39.7443,酒泉市,仓门街子站,,45,,57,31,45,80,,89,89,6,20,5,12,0.3,0.7
2024-12-11T2100,2659A,98.4989,39.7256,酒泉市,油田生活基地,细颗粒物(PM2.5),52,,55,36,40,83,,87,87,10,22,4,8,0.5,0.8
2024-12-11T2100,2698A,76.0072,39.4467,喀什地区,巡警大队,颗粒物(PM10),63,75,72,21,27,51,,60,52,26,22,3,2,0.5,0.4
2024-12-11T2100,2699A,75.9755,39.4694,喀什地区,吾办,颗粒物(PM10),67,84,76,34,35,54,,65,53,30,25,3,3,0.6,0.6
2024-12-11T2100,4027A,75.9483,39.4689,喀什地区,老干局,颗粒物(PM10),66,81,79,21,28,56,,57,54,26,24,2,2,0.6,0.6
2024-12-11T2100,1824A,114.3389,34.7781,开封市,肿瘤医院,细颗粒物(PM2.5),98,90,123,73,98,24,,53,48,54,43,4,7,0.8,0.8
2024-12-11T2100,1826A,114.2885,34.7965,开封市,世纪星幼儿园,细颗粒物(PM2.5),89,76,110,66,99,27,,50,47,55,49,5,6,0.7,0.7
2024-12-11T2100,3147A,114.3438,34.8106,开封市,龙亭公园,细颗粒物(PM2.5),103,126,119,77,105,12,,54,45,80,53,5,5,0.8,0.8
2024-12-11T2100,3210A,114.3644,34.7964,开封市,汴京公园,细颗粒物(PM2.5),104,112,134,78,103,10,,54,45,73,50,5,5,0.9,0.9
2024-12-11T2100,3473A,114.2485,34.8306,开封市,技师学院,细颗粒物(PM2.5),92,,112,68,99,24,,48,43,59,52,6,6,0.9,1
2024-12-11T2100,3592A,114.4644,34.7556,开封市,祥符区生态环境局,细颗粒物(PM2.5),118,,78,89,110,16,,52,40,66,47,4,5,0.7,0.8
2024-12-11T2100,1951A,84.895,45.6094,克拉玛依市,长征新村,,32,26,20,22,15,13,,27,25,30,21,4,5,0.3,0.3
2024-12-11T2100,1952A,84.8988,45.5893,克拉玛依市,南林小区,,20,14,17,14,17,17,,34,31,30,20,6,5,0.4,0.3
2024-12-11T2100,1954A,84.905,44.3396,克拉玛依市,独山子区,,29,,10,12,9,25,,62,56,58,18,5,4,0.5,0.3
2024-12-11T2100,1955A,85.6979,46.098,克拉玛依市,乌尔禾区商贸楼,,16,16,12,8,11,33,,48,47,27,24,3,3,0.5,0.5
2024-12-11T2100,3612A,85.1045,45.6899,克拉玛依市,白碱滩区新站,,25,25,24,13,13,25,,38,36,32,22,8,8,0.7,0.7
2024-12-11T2100,2697A,76.1454,39.7142,克孜勒苏柯尔克孜自治州,市人民政府,颗粒物(PM10),52,54,58,31,28,69,,82,69,14,9,4,3,0.6,0.5
2024-12-11T2100,3665A,76.1658,39.7157,克孜勒苏柯尔克孜自治州,克州文化中心,颗粒物(PM10),52,53,51,30,28,62,,78,65,22,13,6,6,0.6,0.5
2024-12-11T2100,1450A,102.8204,24.8886,昆明市,呈贡新区,,33,27,26,23,20,72,,94,90,14,17,10,7,0.5,0.7
2024-12-11T2100,1451A,102.6251,24.9608,昆明市,西山森林公园,,,,,,,,,,,,,,,,
2024-12-11T2100,1452A,102.7252,25.0902,昆明市,龙泉镇,,37,37,32,23,18,60,,90,86,25,27,8,7,0.9,0.7
2024-12-11T2100,1453A,102.7266,25.0375,昆明市,东风东路,,34,34,29,19,20,72,,88,87,12,14,5,6,0.5,0.5
2024-12-11T2100,1454A,102.6742,25.0669,昆明市,金鼎山,,,,33,,20,61,,94,89,,21,7,17,0.5,0.5
2024-12-11T2100,1455A,102.6644,25.0401,昆明市,碧鸡广场,,36,36,33,22,20,58,,89,84,31,21,8,8,0.6,0.5
2024-12-11T2100,3179A,102.7494,25.0119,昆明市,官渡区博物馆,,32,30,29,22,20,81,,100,95,10,13,7,8,0.5,0.5
2024-12-11T2100,3375A,102.8017,24.8336,昆明市,青年创业园,,33,33,31,20,20,61,,88,84,20,18,11,7,0.6,0.6
2024-12-11T2100,3550A,102.7997,24.9786,昆明市,昆明学院,,33,33,29,22,20,72,,95,93,17,14,8,9,0.4,0.4
2024-12-11T2100,3551A,102.5967,24.6736,昆明市,晋宁区生态环境分局,,30,30,29,19,19,84,,101,100,9,13,3,3,0.5,0.6
2024-12-11T2100,3552A,102.6678,24.9856,昆明市,云天化总部,,28,25,25,18,17,88,,101,99,7,11,7,7,0.4,0.4
2024-12-11T2100,1456A,91.1319,29.6514,拉萨市,八廓街,细颗粒物(PM2.5),67,70,34,48,17,24,,90,84,82,23,13,11,1.4,0.5
2024-12-11T2100,1457A,91.1221,29.6747,拉萨市,市环保局,细颗粒物(PM2.5),60,62,42,43,25,44,,106,100,47,26,12,10,1.4,0.8
2024-12-11T2100,1458A,91.0874,29.6475,拉萨市,区监测站,,29,22,29,13,18,51,,92,87,58,33,6,9,0.4,0.4
2024-12-11T2100,1459A,91.1774,29.6541,拉萨市,西藏大学,,29,29,35,17,12,63,,98,95,41,18,5,8,1.0,0.7
2024-12-11T2100,1460A,90.9798,29.6588,拉萨市,区辐射站,细颗粒物(PM2.5),77,88,39,56,21,37,,82,78,83,33,20,11,1.8,0.7
2024-12-11T2100,1461A,91.0834,29.6292,拉萨市,拉萨火车站,,33,17,26,6,13,104,,101,101,9,36,4,7,0.5,0.9
2024-12-11T2100,2520A,109.2203,23.7256,来宾市,来宾技工学校,,35,35,21,8,10,43,,40,40,16,16,8,5,1.1,1
2024-12-11T2100,3535A,109.1781,23.7297,来宾市,兴宾区政府,,22,16,23,15,16,45,,42,42,17,15,6,5,1.1,1.1
2024-12-11T2100,4002A,109.2416,23.7461,来宾市,中南小学,,26,26,21,8,13,42,,39,39,14,14,6,5,1.0,0.9
2024-12-11T2100,1476A,103.631,36.1031,兰州市,兰炼宾馆,细颗粒物(PM2.5),109,84,65,82,56,44,,60,59,54,31,13,13,0.9,0.6
2024-12-11T2100,1477A,104.1373,35.9454,兰州市,榆中兰大校区,,,,,,,,,,,,,,,,
2024-12-11T2100,1478A,103.8412,36.0726,兰州市,生物制品所,细颗粒物(PM2.5),88,69,53,65,49,45,,63,63,46,29,10,10,0.7,0.6
2024-12-11T2100,1479A,103.831,36.0464,兰州市,铁路设计院,细颗粒物(PM2.5),108,,67,81,54,36,,50,50,61,41,8,8,0.9,0.7
2024-12-11T2100,3186A,103.7158,36.1058,兰州市,教育港,,,,62,,49,57,,61,61,40,30,,13,0.7,0.6
2024-12-11T2100,3241A,103.7439,36.0842,兰州市,百合公园,细颗粒物(PM2.5),82,74,55,60,45,48,,51,51,43,32,10,10,0.8,0.7
2024-12-11T2100,3242A,103.9611,35.998,兰州市,和平,细颗粒物(PM2.5),89,85,66,66,56,48,,71,68,43,29,12,12,1.1,0.8
2024-12-11T2100,3245A,103.6633,36.533,兰州新区,新区管委会,细颗粒物(PM2.5),89,84,62,66,52,36,,84,73,56,23,9,15,0.8,0.6
2024-12-11T2100,3246A,103.6975,36.4789,兰州新区,舟曲中学,细颗粒物(PM2.5),90,80,59,67,49,56,,74,70,41,23,12,11,0.4,0.5
2024-12-11T2100,1067A,116.6708,39.5111,廊坊市,药材公司,,37,37,57,21,35,20,,43,34,47,52,4,8,0.6,1
2024-12-11T2100,1068A,116.7214,39.5589,廊坊市,开发区,,36,36,56,14,34,28,,40,33,39,53,4,7,0.4,0.8
2024-12-11T2100,1070A,116.7244,39.5269,廊坊市,北华航天学院,,36,36,58,18,32,23,,39,33,41,52,6,10,0.5,0.9
2024-12-11T2100,2919A,116.7022,39.5453,廊坊市,河北工业大学,,47,47,55,17,30,32,,42,38,32,49,6,9,0.5,0.7
2024-12-11T2100,2535A,103.7723,29.5462,乐山市,花湖湾,细颗粒物(PM2.5),77,66,61,56,49,41,,56,56,24,23,2,2,0.6,0.7
2024-12-11T2100,2536A,103.7627,29.5844,乐山市,牛耳桥,细颗粒物(PM2.5),77,65,58,56,48,27,,47,44,40,33,5,5,0.6,0.6
2024-12-11T2100,2537A,103.7508,29.6006,乐山市,市第三水厂,细颗粒物(PM2.5),72,67,60,52,49,45,,60,58,30,33,4,4,0.4,0.5
2024-12-11T2100,2538A,103.7571,29.5664,乐山市,市监测站,细颗粒物(PM2.5),69,64,56,50,43,39,,51,50,29,29,4,5,0.5,0.5
2024-12-11T2100,3361A,103.7311,29.5628,乐山市,理工大学,细颗粒物(PM2.5),65,55,51,47,44,37,,54,53,30,28,5,6,0.6,0.6
2024-12-11T2100,2598A,100.2143,26.8576,丽江市,西南郊,,,,,,,,,,,,,,,,
2024-12-11T2100,2599A,100.2497,26.8802,丽江市,丽江古城,,49,48,29,34,18,59,,88,81,24,11,10,9,0.8,0.6
2024-12-11T2100,2600A,100.2203,26.8906,丽江市,市中心,,25,13,16,10,12,78,,86,83,12,12,7,6,0.6,0.5
2024-12-11T2100,1267A,119.914,28.4514,丽水市,监测站大楼,,13,6,13,3,13,40,,40,40,24,31,3,3,0.7,0.6
2024-12-11T2100,1268A,119.93,28.4586,丽水市,莲都小学,,14,10,22,3,10,43,,43,43,21,36,5,5,0.6,0.7
2024-12-11T2100,1269A,119.879,28.4231,丽水市,余庄前,,15,12,12,7,6,33,,31,31,29,27,5,5,0.5,0.5
2024-12-11T2100,1173A,119.176,34.5885,连云港市,市环境监测站,颗粒物(PM10),53,56,71,31,47,32,,59,50,48,42,11,12,0.8,0.8
2024-12-11T2100,3000A,119.3581,34.6972,连云港市,德源药业,,34,34,64,22,41,63,,61,48,18,37,6,9,0.4,0.8
2024-12-11T2100,3007A,119.178,34.844,连云港市,新城一中,颗粒物(PM10),53,56,79,32,56,4,,55,38,70,48,9,15,0.6,0.9
2024-12-11T2100,3008A,119.3608,34.7519,连云港市,胡沟管理处,,39,39,56,14,34,62,,66,66,13,19,4,6,0.3,0.6
2024-12-11T2100,3009A,119.1478,34.5911,连云港市,矿山设计院,颗粒物(PM10),63,75,76,41,49,35,,62,53,34,32,10,11,0.9,0.9
2024-12-11T2100,3434A,119.2413,34.6539,连云港市,工贸学校,,39,39,71,24,50,52,,67,64,25,36,8,14,0.6,1
2024-12-11T2100,3664A,119.4172,34.7341,连云港市,连云街道,,37,37,63,22,41,43,,50,47,41,44,7,9,0.6,0.8
2024-12-11T2100,2571A,102.3431,27.8099,凉山彝族自治州,青龙寺,,,36,29,19,10,,,72,72,7,11,5,5,0.8,0.6
2024-12-11T2100,2572A,102.2721,27.8415,凉山彝族自治州,邛海宾馆,,,,25,,13,,,57,,,10,,12,,0.8
2024-12-11T2100,2573A,102.2625,27.898,凉山彝族自治州,西昌市政府,细颗粒物(PM2.5),54,44,27,38,17,51,,65,64,19,12,5,5,0.9,0.7
2024-12-11T2100,2574A,102.2685,27.8851,凉山彝族自治州,凉山州政府,细颗粒物(PM2.5),65,53,25,47,20,39,,64,61,30,12,10,9,0.8,0.7
2024-12-11T2100,2575A,102.237,27.8914,凉山彝族自治州,长安,颗粒物(PM10),59,68,37,36,17,27,,63,58,46,18,9,10,0.8,0.5
2024-12-11T2100,2212A,123.2,41.1953,辽阳市,宏伟区,颗粒物(PM10),53,56,43,34,34,8,,37,31,41,27,10,13,0.8,0.4
2024-12-11T2100,2213A,123.1683,41.2495,辽阳市,新华园,细颗粒物(PM2.5),119,115,43,90,34,9,,39,34,58,31,16,15,1.9,0.8
2024-12-11T2100,2214A,123.2354,41.2639,辽阳市,滨河路,颗粒物(PM10),57,64,59,35,48,12,,38,,49,38,11,12,0.6,1
2024-12-11T2100,2215A,123.149,41.2991,辽阳市,铁西工业园,细颗粒物(PM2.5),92,84,55,68,43,3,,39,26,52,31,5,8,1.2,0.9
2024-12-11T2100,2227A,125.1358,42.8845,辽源市,环保局,颗粒物(PM10),51,52,40,31,26,12,,53,45,48,26,10,10,1.2,1.1
2024-12-11T2100,3239A,125.0764,42.9078,辽源市,银鹰制药,细颗粒物(PM2.5),72,62,60,52,52,19,,53,39,37,30,9,16,0.6,0.8
2024-12-11T2100,1625A,115.9848,36.4372,聊城市,区政府,颗粒物(PM10),51,52,90,25,59,33,,60,54,44,54,7,11,0.6,0.9
2024-12-11T2100,2878A,116.0072,36.4343,聊城市,聊大东校,颗粒物(PM10),54,58,99,30,63,39,,58,54,37,53,5,10,0.7,1
2024-12-11T2100,3200A,115.9819,36.4978,聊城市,监控中心,,,,143,,101,,,52,,,59,,13,,1
2024-12-11T2100,3513A,116.0445,36.4361,聊城市,九州社区,细颗粒物(PM2.5),52,51,87,36,60,23,,55,47,42,45,14,16,0.6,0.9
2024-12-11T2100,4018A,116.0567,36.4608,聊城市,星美广场,颗粒物(PM10),54,57,105,31,67,27,,52,44,40,41,8,13,0.6,0.9
2024-12-11T2100,2632A,94.3681,29.6376,林芝市,林芝监测站,,31,28,13,12,7,99,,98,98,2,5,6,6,0.5,0.5
2024-12-11T2100,2633A,94.3616,29.6616,林芝市,林芝人民医院,,30,18,12,12,8,95,,92,92,1,6,5,6,0.6,0.7
2024-12-11T2100,2603A,100.0781,23.8982,临沧市,市环保局,细颗粒物(PM2.5),84,68,41,62,32,50,,90,85,20,15,10,8,0.7,0.5
2024-12-11T2100,2604A,100.0894,23.8822,临沧市,市气象局,细颗粒物(PM2.5),60,50,39,43,29,48,,87,82,18,15,8,7,0.8,0.5
2024-12-11T2100,1733A,111.5531,36.0783,临汾市,临钢医院,细颗粒物(PM2.5),112,140,112,84,82,2,,43,36,57,37,6,8,1.3,1.3
2024-12-11T2100,1734A,111.5028,36.0714,临汾市,技工学校,细颗粒物(PM2.5),123,149,108,93,87,4,,45,38,79,47,7,9,1.6,1.4
2024-12-11T2100,1736A,111.5018,36.0855,临汾市,市委,细颗粒物(PM2.5),113,137,118,85,84,8,,47,41,67,41,8,11,1.2,1.2
2024-12-11T2100,3018A,111.505,36.1014,临汾市,唐尧大酒店,细颗粒物(PM2.5),119,131,111,90,89,7,,44,35,63,40,11,11,1.3,1.4
2024-12-11T2100,3668A,111.5036,36.0414,临汾市,城南,细颗粒物(PM2.5),117,135,111,88,84,1,,43,32,63,44,7,7,1.4,1.4
2024-12-11T2100,2667A,103.2069,35.5993,临夏回族自治州,环保局,颗粒物(PM10),64,77,62,18,14,47,,60,58,34,21,8,8,1.1,0.9
2024-12-11T2100,2668A,103.2417,35.6057,临夏回族自治州,建设大厦,颗粒物(PM10),58,65,51,19,17,42,,68,64,33,15,10,11,1.2,0.9
2024-12-11T2100,1618A,118.3429,35.0532,临沂市,沂河小区,颗粒物(PM10),54,58,68,36,48,43,,65,60,35,34,9,11,0.4,0.5
2024-12-11T2100,1619A,118.295,35.0583,临沂市,鲁南制药厂,颗粒物(PM10),52,53,61,30,41,34,,55,48,43,33,8,9,0.4,0.5
2024-12-11T2100,1620A,118.2794,34.9976,临沂市,新光毛纺厂,,43,41,56,30,40,49,,63,60,30,34,8,9,0.7,0.7
2024-12-11T2100,1621A,118.3956,35.0888,临沂市,河东保险公司,颗粒物(PM10),56,61,68,38,45,26,,65,53,44,33,5,8,0.4,0.4
2024-12-11T2100,3370A,118.3564,35.0215,临沂市,十里堡居委,颗粒物(PM10),53,56,59,31,39,42,,67,61,34,30,6,10,0.6,0.7
2024-12-11T2100,3496A,118.3604,35.1084,临沂市,南坊新区,颗粒物(PM10),53,56,66,34,43,40,,66,58,40,40,6,8,0.7,0.7
2024-12-11T2100,3860A,118.3920,35.0300,临沂市,皇山花园小区,颗粒物(PM10),60,70,75,31,43,20,,60,48,62,46,5,7,0.6,0.7
2024-12-11T2100,1870A,109.4856,24.3895,柳州市,柳东小学,,,,10,,6,,,26,,,10,,8,,0.6
2024-12-11T2100,1871A,109.4157,24.3277,柳州市,环保监测站,,20,20,13,13,8,40,,42,42,12,14,9,9,0.7,0.9
2024-12-11T2100,1872A,109.389,24.341,柳州市,河西水厂,,23,18,21,16,15,34,,37,37,15,18,9,13,1.2,1.7
2024-12-11T2100,1873A,109.4311,24.2921,柳州市,市四中,,14,11,9,7,11,42,,42,42,12,13,8,8,0.7,0.8
2024-12-11T2100,1874A,109.4006,24.3631,柳州市,市九中,,23,23,12,12,5,38,,40,40,12,14,5,6,0.9,1
2024-12-11T2100,1875A,109.4958,24.3134,柳州市,古亭山,,14,14,8,7,5,35,,37,37,13,13,10,9,0.9,0.9
2024-12-11T2100,3402A,109.5422,24.3996,柳州市,市二中,,32,24,10,22,6,23,,36,36,18,16,8,8,0.8,0.9
2024-12-11T2100,2307A,116.5079,31.737,六安市,监测大楼,细颗粒物(PM2.5),123,115,81,93,69,10,,41,31,59,29,6,5,1.0,0.7
2024-12-11T2100,2308A,116.4738,31.7643,六安市,皖西学院,细颗粒物(PM2.5),114,113,90,86,65,26,,36,33,39,28,5,4,1.0,0.8
2024-12-11T2100,2309A,116.4996,31.7905,六安市,朝阳厂,细颗粒物(PM2.5),115,113,78,87,64,31,,40,36,38,26,3,2,1.0,0.8
2024-12-11T2100,2310A,116.5567,31.7886,六安市,开发区,细颗粒物(PM2.5),123,142,93,93,68,8,,42,30,64,35,5,4,1.0,0.7
2024-12-11T2100,2576A,104.8,26.5892,六盘水市,窑上,,,,16,,10,,,34,,,7,,6,,0.5
2024-12-11T2100,2577A,104.83,26.5917,六盘水市,黄土坡,,,29,19,20,11,40,,57,45,15,14,8,10,,0.6
2024-12-11T2100,2578A,104.89,26.5939,六盘水市,水钢,,46,38,28,32,17,41,,55,48,12,19,6,9,0.6,0.7
2024-12-11T2100,2579A,104.8475,26.5894,六盘水市,民中,,30,30,16,19,9,44,,55,49,13,14,8,9,0.7,0.5
2024-12-11T2100,2580A,104.9544,26.5506,六盘水市,双水,,36,27,22,25,12,41,,57,51,12,12,8,9,0.5,0.5
2024-12-11T2100,2335A,117.0189,25.1181,龙岩市,龙岩师专,,,,,,,,,,,,,,,,
2024-12-11T2100,2336A,117.0217,25.1033,龙岩市,龙岩市监测站,,22,15,36,15,27,20,,64,47,22,28,3,6,0.7,0.7
2024-12-11T2100,2337A,117.0258,25.0661,龙岩市,闽西职业技术学院,,25,,41,17,23,24,,67,51,17,26,3,7,0.6,0.4
2024-12-11T2100,2338A,117.0196,25.0306,龙岩市,龙岩学院,,23,17,34,16,23,24,,69,53,17,21,3,8,0.6,0.6
2024-12-11T2100,2665A,105.0822,33.3261,陇南市,汉王镇固水子,,,,,,,,,,,,,,,,
2024-12-11T2100,2885A,104.9339,33.3826,陇南市,滨江中学,"颗粒物(PM10),细颗粒物(PM2.5)",60,69,59,43,36,59,,62,60,12,14,3,6,0.7,0.8
2024-12-11T2100,3247A,104.955,33.371,陇南市,市总工会,颗粒物(PM10),54,57,61,31,36,64,,66,64,12,13,3,3,0.6,0.7
2024-12-11T2100,2487A,111.9589,27.8901,娄底市,电视发射台,,38,31,24,26,25,41,,69,61,14,17,5,5,0.4,0.5
2024-12-11T2100,2488A,111.9975,27.725,娄底市,市监测站,细颗粒物(PM2.5),94,93,39,70,35,35,,66,59,42,21,7,6,0.7,0.5
2024-12-11T2100,2489A,112.0194,27.7314,娄底市,市委党校,细颗粒物(PM2.5),84,104,43,62,36,20,,61,49,47,25,10,6,0.8,0.7
2024-12-11T2100,2490A,111.9561,27.7569,娄底市,涟钢,细颗粒物(PM2.5),77,100,43,56,33,21,,63,50,45,22,3,4,0.9,0.6
2024-12-11T2100,2491A,111.9892,27.7044,娄底市,市政府,细颗粒物(PM2.5),68,71,39,49,34,16,,59,51,42,25,4,5,0.9,0.8
2024-12-11T2100,1893A,105.4324,28.9634,泸州市,九狮山,,,,,,,,,,,,,,,,
2024-12-11T2100,1894A,105.4427,28.9063,泸州市,小市上码头,细颗粒物(PM2.5),78,76,66,57,49,36,,40,40,26,25,2,2,0.6,0.6
2024-12-11T2100,1895A,105.4241,28.8573,泸州市,兰田宪桥,细颗粒物(PM2.5),79,76,67,58,53,22,,38,37,35,22,3,3,0.6,0.6
2024-12-11T2100,1896A,105.4379,28.8833,泸州市,市环监站,细颗粒物(PM2.5),82,74,66,60,50,24,,31,31,29,25,4,4,0.5,0.5
2024-12-11T2100,3490A,105.3617,28.7703,泸州市,纳溪区环保局,细颗粒物(PM2.5),77,78,67,56,49,9,,26,23,45,29,5,5,0.6,0.6
2024-12-11T2100,2183A,111.1406,37.5211,吕梁市,环保局,颗粒物(PM10),68,86,69,37,42,2,,26,18,66,46,3,5,0.7,0.8
2024-12-11T2100,2185A,111.1297,37.5136,吕梁市,自来水公司,细颗粒物(PM2.5),73,76,70,53,41,6,,27,20,56,47,4,4,0.9,0.9
2024-12-11T2100,2867A,111.1283,37.51,吕梁市,马茂庄小学,颗粒物(PM10),86,121,76,41,39,2,,31,22,64,48,8,7,0.8,0.8
2024-12-11T2100,1812A,112.3931,34.6516,洛阳市,市委党校,细颗粒物(PM2.5),95,102,121,71,93,15,,38,32,61,45,7,7,0.9,0.8
2024-12-11T2100,1814A,112.4657,34.6871,洛阳市,豫西宾馆,细颗粒物(PM2.5),95,111,136,71,91,19,,44,39,59,48,9,9,0.6,0.8
2024-12-11T2100,1815A,112.494,34.6886,洛阳市,河南林校,细颗粒物(PM2.5),113,102,121,85,110,10,,31,27,63,50,6,6,0.8,0.8
2024-12-11T2100,1816A,112.3844,34.623,洛阳市,开发区管委会,细颗粒物(PM2.5),110,107,128,83,101,14,,41,36,58,42,7,8,0.9,0.8
2024-12-11T2100,1817A,112.4267,34.6258,洛阳市,市委新办公区,细颗粒物(PM2.5),122,122,136,92,102,12,,39,32,62,43,6,6,0.8,0.8
2024-12-11T2100,3340A,112.6005,34.6326,洛阳市,伊滨,细颗粒物(PM2.5),103,127,129,77,79,4,,40,31,53,35,6,8,1.0,0.9
2024-12-11T2100,3341A,112.4951,34.6332,洛阳市,中移产业园,细颗粒物(PM2.5),105,105,108,79,94,7,,44,36,68,46,8,9,1.0,0.8
2024-12-11T2100,3593A,112.5736,34.8993,洛阳市,吉利监测站,细颗粒物(PM2.5),137,126,110,104,98,9,,36,30,66,45,6,6,1.1,0.7
2024-12-11T2100,3635A,112.3677,34.662,洛阳市,河科大西苑校区,细颗粒物(PM2.5),94,110,128,70,96,17,,37,33,59,46,9,8,0.8,0.8
2024-12-11T2100,3636A,112.4388,34.6781,洛阳市,英才小学,细颗粒物(PM2.5),98,110,129,73,91,1,,31,26,80,52,7,8,0.7,0.8
2024-12-11T2100,2399A,114.051,33.5699,漯河市,三五一五工厂,细颗粒物(PM2.5),123,103,133,93,109,38,,59,53,33,35,8,10,0.5,0.6
2024-12-11T2100,2400A,114.0055,33.5698,漯河市,漯河大学,细颗粒物(PM2.5),117,113,125,88,98,27,,62,54,54,43,7,8,0.6,0.6
2024-12-11T2100,2401A,114.0138,33.5828,漯河市,市水利局,细颗粒物(PM2.5),117,124,133,88,98,23,,57,48,47,37,8,10,0.7,0.6
2024-12-11T2100,2402A,114.0261,33.5698,漯河市,市广电局,细颗粒物(PM2.5),108,105,129,81,102,36,,58,52,38,38,8,9,0.6,0.6
2024-12-11T2100,3478A,113.9749,33.5664,漯河市,市图书馆,,,,144,,103,,,30,,,46,,8,,0.6
2024-12-11T2100,3479A,114.0967,33.5906,漯河市,召陵区卫健委,细颗粒物(PM2.5),142,153,145,108,106,7,,58,40,58,50,10,12,0.7,0.7
2024-12-11T2100,1798A,118.5092,31.6837,马鞍山市,湖东路四小,细颗粒物(PM2.5),79,93,56,58,41,5,,61,33,63,33,4,4,1.6,0.9
2024-12-11T2100,1799A,118.5024,31.6449,马鞍山市,开发区,细颗粒物(PM2.5),90,89,56,67,53,5,,63,35,64,34,7,7,1.2,1.1
2024-12-11T2100,1800A,118.5228,31.7231,马鞍山市,慈湖,细颗粒物(PM2.5),85,81,61,63,51,4,,54,31,55,35,6,7,1.0,0.8
2024-12-11T2100,1802A,118.6245,31.7241,马鞍山市,濮塘,细颗粒物(PM2.5),73,66,47,53,46,31,,64,45,24,20,8,9,0.8,0.6
2024-12-11T2100,3633A,118.4918,31.6809,马鞍山市,雨山,细颗粒物(PM2.5),75,80,57,55,44,21,,54,36,45,31,8,10,1.0,1
2024-12-11T2100,1686A,111.0286,21.4688,茂名市,电白南海,细颗粒物(PM2.5),89,97,52,66,28,49,,153,143,27,20,13,8,1.1,0.7
2024-12-11T2100,1687A,110.9294,21.6533,茂名市,茂石化七小,细颗粒物(PM2.5),73,85,62,53,38,36,,122,101,19,16,10,11,1.1,0.8
2024-12-11T2100,1688A,110.9107,21.6687,茂名市,健康路,,,83,60,53,36,38,,126,103,20,17,,23,1.0,0.8
2024-12-11T2100,1689A,110.8592,21.6828,茂名市,高岭,细颗粒物(PM2.5),73,83,73,53,42,38,,114,89,18,21,9,20,0.8,0.9
2024-12-11T2100,3450A,111.01,21.5165,茂名市,电白水东,,,105,47,58,30,40,,134,123,,14,,11,1.4,1
2024-12-11T2100,2539A,104.0308,30.0478,眉山市,黑龙滩水库,颗粒物(PM10),67,84,66,30,34,40,,105,103,26,24,3,1,0.7,0.6
2024-12-11T2100,2540A,103.8416,30.0874,眉山市,气象局,细颗粒物(PM2.5),79,75,64,58,53,13,,49,46,60,36,4,5,0.6,0.6
2024-12-11T2100,3137A,103.8578,30.0744,眉山市,市委党校,细颗粒物(PM2.5),67,63,59,48,45,21,,53,49,57,41,5,5,0.5,0.7
2024-12-11T2100,3148A,103.8291,30.0564,眉山市,区人社局,细颗粒物(PM2.5),67,67,52,48,47,26,,50,46,55,42,5,5,0.6,0.6
2024-12-11T2100,1690A,116.1231,24.3284,梅州市,梅江月梅,,24,24,42,12,27,25,,61,47,21,28,8,10,0.7,0.6
2024-12-11T2100,1691A,116.0797,24.2719,梅州市,梅县新城,,24,24,41,15,27,34,,71,56,15,26,5,6,0.8,0.6
2024-12-11T2100,1692A,116.1248,24.2654,梅州市,环境监控中心,,25,,47,17,27,29,,68,52,18,30,6,7,0.9,0.7
2024-12-11T2100,3315A,116.1233,24.2991,梅州市,梅龙,,22,17,40,15,26,27,,62,47,18,25,6,7,0.9,0.8
2024-12-11T2100,1878A,104.7778,31.4741,绵阳市,富乐山,细颗粒物(PM2.5),52,46,41,36,32,40,,59,56,27,28,2,2,0.5,0.6
2024-12-11T2100,1879A,104.7563,31.4535,绵阳市,市人大,细颗粒物(PM2.5),59,61,53,42,37,22,,54,48,46,36,2,3,0.6,0.7
2024-12-11T2100,1880A,104.6697,31.4668,绵阳市,高新区自来水公司,细颗粒物(PM2.5),64,68,59,46,36,9,,46,43,50,33,3,4,0.6,0.6
2024-12-11T2100,1881A,104.7287,31.5075,绵阳市,三水厂,细颗粒物(PM2.5),65,61,55,47,39,10,,44,40,57,35,6,6,0.7,0.8
2024-12-11T2100,3491A,104.69,31.5322,绵阳市,西科大附属小学,细颗粒物(PM2.5),75,77,58,55,38,13,,46,42,46,26,5,5,0.6,0.6
2024-12-11T2100,3492A,104.5648,31.5343,绵阳市,安州区旅游局,细颗粒物(PM2.5),77,,53,56,45,40,,54,53,23,26,8,8,0.7,0.7
2024-12-11T2100,1784A,129.61,44.561,牡丹江市,环保大楼,,40,40,35,21,22,40,,49,45,22,18,6,8,0.5,0.5
2024-12-11T2100,1785A,129.6115,44.5782,牡丹江市,文化广场,,36,,32,25,27,56,,51,51,14,21,7,9,0.5,0.6
2024-12-11T2100,1786A,129.5904,44.5963,牡丹江市,第一医院,,38,,34,26,32,56,,54,54,8,17,6,7,0.4,0.6
2024-12-11T2100,1787A,129.6364,44.6075,牡丹江市,机车工厂,,30,30,44,18,29,52,,55,54,13,18,9,12,0.4,0.5
2024-12-11T2100,1788A,129.6386,44.5462,牡丹江市,第一中学,细颗粒物(PM2.5),55,47,38,39,26,29,,52,41,24,20,6,6,0.6,0.5
2024-12-11T2100,2531A,105.0703,29.61,内江市,市监测站,细颗粒物(PM2.5),85,,54,63,53,8,,42,36,47,24,5,6,1.0,0.7
2024-12-11T2100,2532A,105.0717,29.5947,内江市,东兴区政府,细颗粒物(PM2.5),69,58,51,50,44,34,,46,42,30,27,5,5,0.7,0.7
2024-12-11T2100,2533A,105.0653,29.5817,内江市,内江二中,细颗粒物(PM2.5),84,91,58,62,50,26,,46,41,35,29,7,7,0.7,0.6
2024-12-11T2100,2534A,105.0406,29.5822,内江市,内江日报社,细颗粒物(PM2.5),73,63,57,53,46,17,,46,39,47,29,9,9,0.7,0.6
2024-12-11T2100,2628A,92.0657,31.4846,那曲市,那曲监测站,颗粒物(PM10),58,66,94,36,44,50,,87,84,36,24,1,10,1.4,1.3
2024-12-11T2100,3128A,92.0506,31.4797,那曲市,那曲会议中心,颗粒物(PM10),55,60,107,15,31,78,,91,91,6,13,2,6,0.5,0.9
2024-12-11T2100,1290A,115.8931,28.6843,南昌市,省外办,细颗粒物(PM2.5),77,58,35,56,34,16,,35,21,36,30,5,5,0.7,0.7
2024-12-11T2100,1291A,115.8886,28.7003,南昌市,省林业公司,细颗粒物(PM2.5),73,58,31,53,29,16,,41,23,33,27,7,7,0.6,0.6
2024-12-11T2100,1292A,115.8126,28.7442,南昌市,林科所,细颗粒物(PM2.5),67,56,24,48,23,35,,41,33,26,26,6,6,0.6,0.6
2024-12-11T2100,1294A,115.8518,28.687,南昌市,建工学校,细颗粒物(PM2.5),58,56,34,41,25,23,,39,27,28,25,7,7,0.6,0.7
2024-12-11T2100,1295A,115.8921,28.6424,南昌市,象湖,细颗粒物(PM2.5),78,,24,57,31,23,,44,28,36,32,6,6,0.8,0.7
2024-12-11T2100,1296A,115.7423,28.7996,南昌市,武术学校,细颗粒物(PM2.5),57,51,28,40,26,24,,34,24,18,20,2,2,0.7,0.7
2024-12-11T2100,1298A,115.9314,28.6842,南昌市,省站,细颗粒物(PM2.5),73,63,50,53,30,25,,44,30,33,28,8,8,0.7,0.7
2024-12-11T2100,3046A,115.9084,28.6062,南昌市,机电学校,细颗粒物(PM2.5),77,68,36,56,31,25,,40,28,28,26,6,7,0.8,0.8
2024-12-11T2100,3690A,115.9721,28.7031,南昌市,外国语学校,细颗粒物(PM2.5),59,66,35,42,28,23,,39,28,29,28,5,5,0.6,0.6
2024-12-11T2100,1905A,106.056,30.8064,南充市,西山风景区,细颗粒物(PM2.5),53,51,38,37,33,32,,69,67,27,11,3,3,0.5,0.4
2024-12-11T2100,1906A,106.0789,30.8023,南充市,南充市委,细颗粒物(PM2.5),68,70,55,49,43,4,,54,47,66,27,4,4,0.8,0.5
2024-12-11T2100,1907A,106.1031,30.8217,南充市,南充炼油厂,细颗粒物(PM2.5),65,49,54,47,45,41,,54,54,30,26,4,4,0.5,0.5
2024-12-11T2100,1908A,106.1064,30.7856,南充市,高坪区监测站,细颗粒物(PM2.5),67,64,55,48,44,37,,60,60,32,25,3,4,0.5,0.5
2024-12-11T2100,1909A,106.0642,30.7636,南充市,嘉陵区环保局,细颗粒物(PM2.5),67,79,61,48,41,6,,56,49,74,35,4,5,0.9,0.7
2024-12-11T2100,1910A,106.1087,30.8388,南充市,市环境监测站,细颗粒物(PM2.5),68,69,57,49,43,33,,65,63,36,18,5,5,0.4,0.4
2024-12-11T2100,1151A,118.8086,32.1065,南京市,迈皋桥,细颗粒物(PM2.5),64,67,45,46,33,43,,60,59,31,18,4,4,0.6,0.6
2024-12-11T2100,1152A,118.7538,32.0551,南京市,草场门,细颗粒物(PM2.5),55,56,38,39,28,52,,58,53,43,31,7,5,0.8,0.7
2024-12-11T2100,1153A,118.7794,32.0745,南京市,山西路,细颗粒物(PM2.5),58,63,47,41,35,78,,80,80,32,31,4,4,0.6,0.5
2024-12-11T2100,1154A,118.7752,32.0023,南京市,中华门,细颗粒物(PM2.5),64,68,41,46,30,27,,56,45,57,32,5,4,1.3,0.7
2024-12-11T2100,1155A,118.8109,32.0309,南京市,瑞金路,细颗粒物(PM2.5),70,80,50,51,34,22,,60,42,56,19,5,5,1.0,0.8
2024-12-11T2100,1156A,118.7997,32.0754,南京市,玄武湖,细颗粒物(PM2.5),67,72,48,48,33,41,,53,53,25,12,8,7,0.5,0.5
2024-12-11T2100,1157A,118.6414,32.0931,南京市,浦口,细颗粒物(PM2.5),64,66,51,46,37,68,,66,66,21,17,8,6,0.5,0.4
2024-12-11T2100,1158A,118.7356,31.9996,南京市,奥体中心,颗粒物(PM10),58,66,45,39,31,52,,64,55,52,35,10,8,0.7,0.5
2024-12-11T2100,1159A,118.9125,32.1028,南京市,仙林大学城,细颗粒物(PM2.5),62,61,45,44,34,38,,57,51,48,28,7,7,0.6,0.6
2024-12-11T2100,3422A,118.8436,31.9198,南京市,江宁彩虹桥,颗粒物(PM10),69,87,52,48,31,8,,65,31,61,26,7,6,0.9,0.6
2024-12-11T2100,3423A,119.0138,31.6494,南京市,溧水永阳,细颗粒物(PM2.5),83,66,41,61,40,6,,63,28,53,28,4,4,0.9,0.5
2024-12-11T2100,3424A,118.879,31.3302,南京市,高淳老职中,细颗粒物(PM2.5),97,85,44,72,42,22,,65,42,44,24,4,3,0.7,0.4
2024-12-11T2100,3427A,118.8554,32.3578,南京市,六合雄州,细颗粒物(PM2.5),60,67,46,43,29,22,,59,52,45,15,6,6,0.4,0.3
2024-12-11T2100,1401A,108.3103,22.7881,南宁市,二十一中,,19,19,86,3,47,34,,30,30,21,31,7,10,1.0,1.2
2024-12-11T2100,1402A,108.3141,22.8528,南宁市,北湖,,33,33,62,13,45,23,,29,29,31,28,20,11,0.8,0.9
2024-12-11T2100,1403A,108.3206,22.8225,南宁市,市监测站,,23,23,67,14,49,30,,26,26,22,30,11,11,0.8,1.1
2024-12-11T2100,1404A,108.3829,22.8037,南宁市,大自然花园,,26,26,58,9,46,34,,30,30,21,24,6,7,0.6,0.8
2024-12-11T2100,1405A,108.4394,22.7904,南宁市,仙葫,,12,9,55,8,48,36,,33,33,14,21,5,5,0.8,1
2024-12-11T2100,1406A,108.2397,22.8467,南宁市,区农职院,,22,22,57,10,34,24,,30,30,21,23,8,7,0.9,1
2024-12-11T2100,1407A,108.3275,22.735,南宁市,英华嘉园,,22,22,70,8,46,28,,24,24,23,32,7,8,0.8,1
2024-12-11T2100,1408A,108.2257,22.7757,南宁市,沙井镇街道办,,36,36,61,17,42,28,,28,28,27,30,8,8,0.8,0.9
2024-12-11T2100,3401A,108.4834,22.7618,南宁市,红星社区,,14,12,57,3,44,42,,41,41,10,18,9,10,0.9,1.1
2024-12-11T2100,2331A,118.0966,26.6761,南平市,茫荡山,,,,,,,,,,,,,,,,
2024-12-11T2100,2332A,118.1681,26.6369,南平市,南平市监测站,,19,,31,13,30,22,,28,25,21,24,3,4,0.5,0.6
2024-12-11T2100,2333A,118.1825,26.6489,南平市,南平铝业有限公司,,14,14,34,9,29,20,,26,22,21,24,3,5,0.7,0.6
2024-12-11T2100,2334A,118.1756,26.6272,南平市,南平七中,,11,10,33,3,24,19,,25,22,21,21,4,4,0.7,0.7
2024-12-11T2100,1168A,120.9098,31.9663,南通市,狼山街道,细颗粒物(PM2.5),99,89,57,74,48,45,,76,47,30,21,9,7,0.8,0.6
2024-12-11T2100,1169A,120.86,32.0005,南通市,虹桥,细颗粒物(PM2.5),103,87,57,77,50,38,,73,41,36,25,7,6,0.9,0.7
2024-12-11T2100,1170A,120.87,32.02,南通市,城中,细颗粒物(PM2.5),109,107,65,82,49,39,,75,46,37,25,8,7,1.1,0.9
2024-12-11T2100,1171A,120.94,31.93,南通市,星湖花园,细颗粒物(PM2.5),90,89,56,67,42,46,,71,42,33,27,8,6,0.7,0.5
2024-12-11T2100,1172A,120.81,32.0417,南通市,紫琅学院,细颗粒物(PM2.5),99,94,58,74,46,37,,67,41,39,28,6,4,0.9,0.7
2024-12-11T2100,3291A,121.067,32.062,南通市,通州监测站,细颗粒物(PM2.5),125,117,65,95,52,36,,81,41,38,21,4,3,0.9,0.6
2024-12-11T2100,3432A,120.9348,31.9883,南通市,环境教育馆,细颗粒物(PM2.5),92,85,53,68,45,48,,77,49,29,26,6,5,0.8,0.7
2024-12-11T2100,2404A,112.5224,33.0122,南阳市,瓦房庄,细颗粒物(PM2.5),129,108,108,98,92,40,,42,42,43,40,10,10,1.0,1
2024-12-11T2100,2405A,112.5003,32.9735,南阳市,汉画馆,细颗粒物(PM2.5),132,119,111,100,80,29,,35,35,45,40,7,8,0.9,0.8
2024-12-11T2100,2406A,112.5573,33.027,南阳市,气象站,细颗粒物(PM2.5),113,102,106,85,85,45,,48,48,42,38,8,8,0.8,0.7
2024-12-11T2100,2407A,112.5481,32.9689,南阳市,理工学院,细颗粒物(PM2.5),134,114,104,102,88,27,,36,36,56,44,9,8,0.7,0.6
2024-12-11T2100,4008A,112.5234,32.9922,南阳市,卧龙区政府,细颗粒物(PM2.5),128,115,114,97,88,40,,40,40,44,42,8,8,0.8,0.7
2024-12-11T2100,1234A,121.8358,29.911,宁波市,区环保大楼,细颗粒物(PM2.5),117,,34,88,28,16,,61,45,55,46,10,9,0.9,0.8
2024-12-11T2100,1235A,121.56,29.82,宁波市,万里学院,细颗粒物(PM2.5),68,66,27,49,19,32,,55,45,36,38,5,5,0.8,0.7
2024-12-11T2100,1236A,121.713,29.9572,宁波市,龙赛医院,,,,23,,25,11,,63,33,62,47,13,9,0.9,0.7
2024-12-11T2100,1239A,121.633,29.7733,宁波市,钱湖水厂,细颗粒物(PM2.5),53,52,33,37,22,33,,56,47,34,37,5,5,0.8,0.8
2024-12-11T2100,1240A,121.5856,29.8635,宁波市,太古小学,颗粒物(PM10),56,62,27,30,17,30,,56,47,42,39,8,7,0.8,0.8
2024-12-11T2100,1241A,121.524,29.8674,宁波市,市环境监测中心,细颗粒物(PM2.5),57,51,25,40,15,28,,54,41,39,39,7,7,0.9,0.8
2024-12-11T2100,2871A,121.6147,29.9017,宁波市,万里国际学校,,43,43,35,27,14,25,,52,41,47,45,7,6,0.8,0.6
2024-12-11T2100,3710A,121.5594,29.8975,宁波市,白沙活动中心,细颗粒物(PM2.5),52,41,26,36,15,30,,59,49,38,33,8,8,0.7,0.5
2024-12-11T2100,2339A,119.5001,26.6946,宁德市,金涵水库,,,,,,,,,,,,,,,,
2024-12-11T2100,2341A,119.5388,26.6612,宁德市,宁德市监测站,,14,,27,8,22,16,,43,38,27,26,2,2,0.4,0.4
2024-12-11T2100,3209A,119.5231,26.6562,宁德市,宁德一中,,16,,27,11,22,21,,48,41,20,19,2,2,0.3,0.6
2024-12-11T2100,2618A,98.8601,25.8567,怒江傈僳族自治州,州监测站,颗粒物(PM10),57,63,44,37,27,52,,81,79,24,16,5,6,0.6,0.5
2024-12-11T2100,2619A,98.8546,25.8417,怒江傈僳族自治州,泸水一中,细颗粒物(PM2.5),59,62,38,42,28,30,,66,60,32,21,7,7,0.8,0.6
2024-12-11T2100,1888A,101.6891,26.571,攀枝花市,弄弄坪,颗粒物(PM10),54,57,65,33,38,54,,83,80,32,41,16,28,0.6,1.8
2024-12-11T2100,1889A,101.5769,26.5928,攀枝花市,河门口,颗粒物(PM10),58,66,58,40,33,58,,85,84,28,37,14,22,1.2,1.6
2024-12-11T2100,1890A,101.7169,26.585,攀枝花市,炳草岗,颗粒物(PM10),59,68,58,33,31,17,,85,78,73,44,16,19,1.0,0.8
2024-12-11T2100,1891A,101.7369,26.5008,攀枝花市,仁和,颗粒物(PM10),54,58,41,35,27,46,,95,89,25,21,8,9,0.5,0.4
2024-12-11T2100,2835A,101.7227,26.567,攀枝花市,四十中小,,42,42,44,24,24,79,,94,92,24,27,13,12,0.7,0.8
2024-12-11T2100,1604A,122.0303,41.1489,盘锦市,开发区,细颗粒物(PM2.5),120,,29,91,30,15,,57,36,52,18,17,8,1.3,0.7
2024-12-11T2100,1605A,122.0485,41.0883,盘锦市,兴隆台,细颗粒物(PM2.5),95,84,29,71,17,9,,55,35,65,19,14,10,1.4,0.6
2024-12-11T2100,1606A,121.8297,41.1028,盘锦市,新生街道,,38,38,22,14,14,7,,57,38,55,23,10,9,0.6,0.5
2024-12-11T2100,1832A,113.3257,33.742,平顶山市,新华旅馆,细颗粒物(PM2.5),115,123,133,87,84,18,,47,37,57,42,9,11,0.7,0.9
2024-12-11T2100,1833A,113.2919,33.737,平顶山市,规划设计院,细颗粒物(PM2.5),112,122,130,84,88,26,,57,50,42,37,8,9,0.8,0.8
2024-12-11T2100,1834A,113.182,33.774,平顶山市,平顶山工学院,细颗粒物(PM2.5),94,126,159,70,91,32,,43,43,33,40,9,11,0.9,1
2024-12-11T2100,3204A,113.3025,33.73,平顶山市,规划局,细颗粒物(PM2.5),119,,124,90,91,23,,56,49,46,35,8,11,0.8,1
2024-12-11T2100,3594A,112.8867,33.9116,平顶山市,石龙区,细颗粒物(PM2.5),129,165,150,98,105,5,,44,38,61,43,12,15,0.8,0.9
2024-12-11T2100,2656A,106.6692,35.5461,平凉市,聚贤嘉苑,细颗粒物(PM2.5),89,94,58,66,42,24,,67,58,64,26,12,11,0.7,0.6
2024-12-11T2100,2657A,106.7021,35.5307,平凉市,博物馆,细颗粒物(PM2.5),77,74,63,56,48,79,,80,80,23,25,10,12,0.6,0.7
2024-12-11T2100,2347A,114.0997,27.5002,萍乡市,武功山,细颗粒物(PM2.5),65,,34,47,26,28,,32,32,18,26,11,9,0.3,0.4
2024-12-11T2100,2348A,113.8385,27.6434,萍乡市,中医院,细颗粒物(PM2.5),99,104,61,74,47,20,,24,24,27,30,6,9,0.8,1
2024-12-11T2100,2349A,113.8493,27.6253,萍乡市,市政府车库,细颗粒物(PM2.5),109,95,55,82,52,25,,28,28,22,29,9,10,0.9,0.9
2024-12-11T2100,2350A,113.8676,27.6435,萍乡市,市环保局,细颗粒物(PM2.5),104,104,56,78,44,22,,24,24,24,27,8,9,0.9,1
2024-12-11T2100,2351A,113.866,27.6198,萍乡市,安源区政府,细颗粒物(PM2.5),107,98,53,80,46,22,,27,27,22,26,11,9,0.9,0.8
2024-12-11T2100,2319A,119.0141,25.4325,莆田市,荔城区仓后路,,23,20,28,10,14,73,,92,89,11,15,1,1,0.5,0.6
2024-12-11T2100,2320A,119.0015,25.4553,莆田市,莆田市监测站,,23,15,23,10,13,73,,94,91,14,12,3,3,0.4,0.5
2024-12-11T2100,2321A,119.1119,25.4561,莆田市,涵江区六中,,28,28,29,9,16,69,,90,86,10,18,1,2,0.3,0.5
2024-12-11T2100,2322A,119.1013,25.3215,莆田市,秀屿区政府,,24,24,28,16,19,67,,96,91,11,16,2,2,0.7,0.5
2024-12-11T2100,2323A,118.981,25.4792,莆田市,东圳水库,,,,,,,,,,,,,,,,
2024-12-11T2100,2392A,115.0312,35.7636,濮阳市,环保局,细颗粒物(PM2.5),82,62,102,60,85,37,,52,51,38,56,6,5,0.8,1
2024-12-11T2100,2394A,115.0574,35.7609,濮阳市,油田运输公司,细颗粒物(PM2.5),72,70,113,52,86,34,,54,52,42,57,4,6,0.6,0.8
2024-12-11T2100,2395A,115.0866,35.7754,濮阳市,油田物探公司,细颗粒物(PM2.5),85,84,128,63,97,37,,51,50,31,52,6,6,0.5,0.9
2024-12-11T2100,3021A,115,35.7668,濮阳市,濮水河管理处,细颗粒物(PM2.5),69,75,139,50,93,24,,46,43,40,53,3,6,0.4,0.8
2024-12-11T2100,2601A,100.98,22.7633,普洱市,市环保局,,,,41,,23,,,85,80,14,11,5,5,0.5,0.4
2024-12-11T2100,2602A,100.9817,22.8322,普洱市,普洱第二中学,,49,49,40,28,23,52,,85,76,14,18,7,7,0.6,0.6
2024-12-11T2100,2262A,131.0518,45.8751,七台河市,新一中,,22,22,29,13,22,62,,66,65,12,14,13,12,1.5,1.4
2024-12-11T2100,3345A,131.0577,45.7879,七台河市,中波台,,32,32,36,20,27,42,,47,45,24,22,11,13,0.7,0.7
2024-12-11T2100,3637A,131.0176,45.7761,七台河市,人民广场,,45,,43,31,34,40,,49,45,30,27,9,9,0.7,0.6
2024-12-11T2100,3684A,130.8781,45.8222,七台河市,新建矿广场,,40,,28,28,33,47,,48,46,20,22,10,10,0.5,0.5
2024-12-11T2100,1779A,123.9305,47.3636,齐齐哈尔市,安居小区,细颗粒物(PM2.5),65,61,23,47,12,46,,61,54,25,12,9,5,0.7,0.4
2024-12-11T2100,1780A,123.9488,47.3386,齐齐哈尔市,中心广场,,48,48,16,26,10,44,,51,46,24,12,8,4,1.1,0.8
2024-12-11T2100,1781A,123.9483,47.3227,齐齐哈尔市,农牧车辆厂,,48,48,19,28,8,39,,57,46,29,14,10,6,0.7,0.4
2024-12-11T2100,1783A,123.945,47.2988,齐齐哈尔市,市环境监测站,颗粒物(PM10),54,58,20,19,11,29,,58,47,43,16,5,4,0.6,0.3
2024-12-11T2100,3662A,123.6333,47.2075,齐齐哈尔市,富区青少年活动中心,,49,43,23,34,11,42,,54,48,21,15,12,12,0.8,0.6
2024-12-11T2100,2591A,107.9783,26.5747,黔东南苗族侗族自治州,市环境监测站,,33,29,15,23,12,44,,45,45,19,14,4,2,0.6,0.8
2024-12-11T2100,2881A,107.8908,26.5311,黔东南苗族侗族自治州,凯里学院,,19,19,6,10,7,47,,44,44,10,9,3,3,0.7,0.7
2024-12-11T2100,2593A,107.5228,26.2403,黔南布依族苗族自治州,小围寨,,16,12,4,9,4,51,,41,41,5,6,4,4,0.6,0.6
2024-12-11T2100,3538A,107.5175,26.2978,黔南布依族苗族自治州,沙坝,,17,14,7,7,5,52,,40,40,6,6,5,4,0.5,0.5
2024-12-11T2100,2589A,104.9022,25.0925,黔西南布依族苗族自治州,场坝街,,42,32,22,29,15,51,,44,44,9,12,3,4,0.4,0.4
2024-12-11T2100,2590A,104.8811,25.0992,黔西南布依族苗族自治州,坪东大道,,42,,19,29,13,50,,43,43,8,12,4,4,0.5,0.5
2024-12-11T2100,2502A,108.6236,21.9667,钦州市,市环保站,,27,27,70,7,38,32,,36,35,22,30,9,7,1.4,1.2
2024-12-11T2100,2503A,108.6549,21.9481,钦州市,沙埠小学,,33,33,68,3,35,36,,38,38,23,32,5,8,0.7,0.9
2024-12-11T2100,2504A,108.5989,21.7431,钦州市,港区一小,,49,49,62,11,26,29,,53,33,27,24,7,8,0.9,0.9
2024-12-11T2100,3404A,108.5959,21.9633,钦州市,北职校,,12,10,61,7,43,38,,38,38,13,26,8,10,0.9,1
2024-12-11T2100,1042A,119.5134,39.8207,秦皇岛市,北戴河环保局,,38,35,24,26,13,11,,57,48,58,17,4,3,1.0,0.4
2024-12-11T2100,1043A,119.7493,40.0116,秦皇岛市,第一关,,40,36,34,28,26,7,,48,37,61,36,8,7,0.4,0.4
2024-12-11T2100,1044A,119.5897,39.9499,秦皇岛市,监测站,颗粒物(PM10),72,93,40,39,24,3,,41,34,69,32,9,7,1.0,0.4
2024-12-11T2100,1046A,119.5251,39.9041,秦皇岛市,建设大厦,颗粒物(PM10),53,55,38,36,24,6,,42,34,56,28,4,4,0.6,0.5
2024-12-11T2100,3132A,119.610547,39.943889,秦皇岛市,文明里,,50,50,41,28,25,30,,44,42,32,30,6,8,0.4,0.3
2024-12-11T2100,1307A,120.6659,36.2403,青岛市,仰口,,32,25,37,22,30,51,,69,64,5,8,8,8,0.6,0.6
2024-12-11T2100,1310A,120.4134,36.0658,青岛市,市南区东部子站,,36,36,67,19,36,45,,61,56,28,41,10,11,0.6,0.7
2024-12-11T2100,1311A,120.3664,36.1032,青岛市,四方区子站,,32,29,68,22,47,43,,58,52,31,49,12,14,0.6,0.9
2024-12-11T2100,1312A,120.2994,36.054,青岛市,市南区西部子站,,41,41,52,20,29,26,,60,54,44,34,17,13,0.8,0.8
2024-12-11T2100,1313A,120.4581,36.0858,青岛市,崂山区子站,,36,36,53,14,35,38,,66,60,31,35,10,12,0.6,0.7
2024-12-11T2100,1314A,120.1983,35.9608,青岛市,黄岛区子站,,48,48,64,24,41,13,,50,37,60,54,12,11,0.7,0.7
2024-12-11T2100,1315A,120.3999,36.3083,青岛市,城阳区子站,颗粒物(PM10),51,51,63,24,34,31,,64,54,31,28,11,12,1.0,0.9
2024-12-11T2100,1966A,120.0405,35.8735,青岛市,黄岛区4号,,46,46,69,22,39,24,,60,48,54,45,8,10,0.7,0.8
2024-12-11T2100,3362A,120.5014,36.4034,青岛市,即墨2号,,46,46,57,27,37,34,,60,50,27,35,10,11,0.8,0.8
2024-12-11T2100,3642A,120.3503,36.0736,青岛市,市北区南部,,46,46,78,12,37,39,,50,46,32,48,8,10,0.6,0.8
2024-12-11T2100,3643A,120.3948,36.1805,青岛市,李沧区北部,,34,34,75,19,51,49,,61,56,21,47,11,14,0.7,0.9
2024-12-11T2100,1702A,113.0426,23.691,清远市,环保大楼,,16,16,52,11,35,26,,44,31,15,20,4,7,1.0,1.1
2024-12-11T2100,1703A,113.0208,23.7106,清远市,凤城街办,,16,16,46,10,32,29,,41,31,16,28,4,10,0.9,1.1
2024-12-11T2100,3025A,113.0477,23.6344,清远市,技师学院,,20,16,57,14,25,26,,48,34,17,33,6,11,0.9,1
2024-12-11T2100,3318A,112.9903,23.7403,清远市,清新太和,,,13,42,8,26,,,42,36,13,24,6,5,0.9,1
2024-12-11T2100,3455A,113.076,23.7198,清远市,清城东城,,12,11,39,8,30,29,,47,35,12,16,5,7,1.1,1.1
2024-12-11T2100,2661A,107.6325,35.7357,庆阳市,庆阳五中,细颗粒物(PM2.5),87,69,70,64,67,65,,65,65,23,24,6,7,0.8,0.8
2024-12-11T2100,2662A,107.6364,35.7067,庆阳市,市环保局,细颗粒物(PM2.5),73,72,75,53,59,59,,64,64,30,27,6,7,1.0,1
2024-12-11T2100,1916A,103.7897,25.5035,曲靖市,环境监测站,颗粒物(PM10),51,51,39,28,20,17,,22,20,22,18,10,8,0.7,0.8
