timepoint,stationcode,longitude,latitude,area,positionname,primarypollutant,aqi,pm10,pm10_24h,pm2_5,pm2_5_24h,o3,o3_24h,o3_8h,o3_8h_24h,no2,no2_24h,so2,so2_24h,co,co_24h
2024-12-11T0200,2566A,102.1879,31.914,阿坝藏族羌族自治州,州农科所,,22,22,34,7,11,63,,,,4,13,8,9,0.4,0.5
2024-12-11T0200,2568A,102.2502,31.8896,阿坝藏族羌族自治州,马师校,,25,,18,17,16,35,,,,11,21,3,4,0.4,0.5
2024-12-11T0200,3994A,102.2165,31.9024,阿坝藏族羌族自治州,马尔康中学西区,,30,30,26,16,15,37,,,,11,13,6,5,0.4,0.5
2024-12-11T0200,2695A,80.292,41.1694,阿克苏地区,电视台,细颗粒物(PM2.5),54,41,40,38,32,66,,,,23,20,7,3,0.9,0.6
2024-12-11T0200,2696A,80.2613,41.1551,阿克苏地区,艺术中心,,38,35,44,26,24,78,,,,10,13,3,3,0.6,0.5
2024-12-11T0200,2204A,105.6467,38.8363,阿拉善盟,西城区西花园,,50,,42,35,33,54,,,,16,20,11,11,0.7,0.7
2024-12-11T0200,2205A,105.6985,38.8411,阿拉善盟,蒙二幼,,26,26,40,17,24,46,,,,21,21,7,8,0.7,0.8
2024-12-11T0200,2206A,105.724,38.8516,阿拉善盟,环保局新楼,,24,24,34,16,21,58,,,,12,17,9,9,0.6,0.7
2024-12-11T0200,2708A,88.1264,47.8517,阿勒泰地区,市站,,36,36,29,25,19,10,,,,36,32,7,8,0.7,0.5
2024-12-11T0200,2630A,80.1161,32.5,阿里地区,阿里监测站,,27,6,11,3,6,85,,,,6,6,9,9,0.5,0.4
2024-12-11T0200,3192A,80.0903,32.5028,阿里地区,阿里藏医院,,29,6,11,3,5,90,,,,1,4,5,6,0.4,0.5
2024-12-11T0200,2642A,109.0318,32.6537,安康市,香溪洞,,40,33,41,28,39,67,,,,8,11,9,10,0.3,0.4
2024-12-11T0200,2644A,109.0072,32.6975,安康市,汉滨区检察院,细颗粒物(PM2.5),52,43,55,36,44,62,,,,13,16,6,8,0.4,0.4
2024-12-11T0200,4054A,109.0325,32.6913,安康市,市邮政管理局,,48,41,56,33,42,58,,,,16,19,6,7,0.5,0.6
2024-12-11T0200,2291A,117.0809,30.5177,安庆市,环科院,细颗粒物(PM2.5),67,,71,48,55,46,,,,19,41,5,7,0.6,0.9
2024-12-11T0200,2292A,117.0331,30.5119,安庆市,马山宾馆,细颗粒物(PM2.5),54,,64,38,54,42,,,,15,41,6,8,0.7,0.9
2024-12-11T0200,2294A,116.9896,30.6145,安庆市,安庆大学,细颗粒物(PM2.5),57,46,69,40,53,48,,,,19,45,10,10,0.8,1.1
2024-12-11T0200,3173A,117.0598,30.5351,安庆市,市人大,细颗粒物(PM2.5),60,48,68,43,53,45,,,,19,44,5,6,0.5,0.8
2024-12-11T0200,3122A,105.9606,26.2611,安顺市,伍家关,,10,8,4,3,2,32,,,,9,10,8,7,0.5,0.6
2024-12-11T0200,3123A,105.9408,26.2431,安顺市,凤凰山,,9,6,7,3,4,28,,,,10,12,8,10,0.6,0.6
2024-12-11T0200,3124A,105.9439,26.2564,安顺市,金钟山,,15,,2,10,7,28,,,,9,9,11,11,0.6,0.6
2024-12-11T0200,3125A,105.8983,26.2481,安顺市,娄家坡,,13,13,11,6,6,25,,,,10,13,12,13,0.6,0.6
2024-12-11T0200,1818A,114.4839,36.0621,安阳市,棉研所,细颗粒物(PM2.5),206,181,168,156,134,4,,,,68,57,12,12,1.2,1.2
2024-12-11T0200,1819A,114.3551,36.1017,安阳市,红庙街,细颗粒物(PM2.5),173,148,151,131,113,4,,,,73,60,9,12,1.0,1.4
2024-12-11T0200,1820A,114.361,36.0681,安阳市,银杏小区,细颗粒物(PM2.5),192,,139,144,117,4,,,,66,56,6,8,1.5,1.7
2024-12-11T0200,3141A,114.3922,36.0878,安阳市,信访局,颗粒物(PM10),109,167,156,,112,5,,,,70,60,8,10,1.0,1.1
2024-12-11T0200,3669A,114.4705,36.0637,安阳市,左辅环卫站,细颗粒物(PM2.5),193,179,168,145,127,9,,,,70,58,8,9,1.1,1.1
2024-12-11T0200,3703A,114.2917,36.0949,安阳市,安钢职工学校,细颗粒物(PM2.5),192,169,171,144,126,5,,,,72,66,6,14,1.1,1.5
2024-12-11T0200,1748A,123.044,41.1196,鞍山市,深沟寺,"颗粒物(PM10),细颗粒物(PM2.5)",70,90,61,51,38,10,,,,54,39,16,19,1.1,1
2024-12-11T0200,1749A,123.011,41.0931,鞍山市,太阳城,细颗粒物(PM2.5),72,74,52,52,35,8,,,,54,37,12,13,1.1,1
2024-12-11T0200,1750A,123.0485,41.1442,鞍山市,太平,细颗粒物(PM2.5),85,109,72,63,43,7,,,,56,42,16,14,1.2,1.1
2024-12-11T0200,1751A,122.9642,41.0971,鞍山市,铁西三道街,细颗粒物(PM2.5),112,114,68,84,39,6,,,,55,42,44,27,3.3,1.7
2024-12-11T0200,1752A,122.9341,41.0833,鞍山市,铁西工业园区,细颗粒物(PM2.5),88,98,83,65,46,11,,,,61,51,38,23,2.3,1.6
2024-12-11T0200,1753A,123.022,41.0821,鞍山市,明达新区,细颗粒物(PM2.5),80,82,52,59,36,12,,,,44,29,14,16,0.8,0.8
2024-12-11T0200,1754A,123.1289,41.0228,鞍山市,千山,,,,52,,32,,,20,,,27,,6,,0.8
2024-12-11T0200,2195A,107.4212,40.761,巴彦淖尔市,附二中,,39,39,78,19,38,40,,,,18,42,19,14,0.4,0.7
2024-12-11T0200,2196A,107.37,40.7372,巴彦淖尔市,市环保大楼,,31,31,61,16,32,36,,,,22,34,7,8,0.2,0.4
2024-12-11T0200,1956A,86.1472,41.7538,巴音郭楞蒙古自治州,孔雀公园,,39,29,26,27,21,61,,,,16,24,4,3,0.5,0.4
2024-12-11T0200,1957A,86.1972,41.7166,巴音郭楞蒙古自治州,棉纺厂,,40,40,31,22,12,46,,,,26,12,2,2,0.5,0.4
2024-12-11T0200,1958A,86.2357,41.7173,巴音郭楞蒙古自治州,经济开发区,,35,27,21,24,15,43,,,,30,16,4,3,0.5,0.3
2024-12-11T0200,2914A,106.7677,31.8794,巴中市,苏山坪,,29,23,41,20,33,55,,,,10,17,4,4,0.4,0.5
2024-12-11T0200,3182A,106.7656,31.8545,巴中市,丽阳花园,,45,41,51,31,36,7,,,,21,28,3,3,0.7,0.6
2024-12-11T0200,3183A,106.7418,31.8654,巴中市,圣泉水务公司,,38,32,40,26,32,4,,,,28,27,3,3,0.4,0.4
2024-12-11T0200,3616A,106.7616,31.8344,巴中市,市中心医院,细颗粒物(PM2.5),69,54,49,50,40,2,,,,24,25,3,3,0.5,0.4
2024-12-11T0200,2235A,122.7911,45.6077,白城市,洮北区环保局,,21,21,25,14,20,49,,,,8,15,4,6,0.5,0.6
2024-12-11T0200,2236A,122.8738,45.5725,白城市,市环保局,,16,9,21,9,14,50,,,,7,13,4,5,0.5,0.5
2024-12-11T0200,2231A,126.4219,41.9171,白山市,喜丰,颗粒物(PM10),53,56,80,34,38,25,,,,34,46,11,32,0.8,1
2024-12-11T0200,2232A,126.4077,41.9419,白山市,环保局,颗粒物(PM10),65,80,78,34,43,20,,,,24,33,10,22,0.7,0.9
2024-12-11T0200,2647A,104.1724,36.5446,白银市,第三小学,,50,,42,35,36,65,,,,12,14,10,10,0.6,0.6
2024-12-11T0200,2648A,104.1465,36.5482,白银市,动力公司,,49,,31,34,37,67,,,,11,12,5,6,0.7,0.7
2024-12-11T0200,2512A,106.6103,23.9011,百色市,市监测站,细颗粒物(PM2.5),74,64,74,54,56,10,,,,41,30,29,20,1.3,1.2
2024-12-11T0200,2513A,106.6538,23.8859,百色市,市中心血站,细颗粒物(PM2.5),79,69,79,58,61,16,,,,37,30,22,19,1.2,1.1
2024-12-11T0200,3406A,106.6085,23.8798,百色市,祈福高中,细颗粒物(PM2.5),59,58,86,42,52,9,,,,39,35,14,16,1.2,1
2024-12-11T0200,2270A,117.396,32.939,蚌埠市,工人疗养院,细颗粒物(PM2.5),119,113,89,90,65,30,,,,44,39,8,6,1.0,0.6
2024-12-11T0200,2271A,117.3605,32.9427,蚌埠市,百货大楼,细颗粒物(PM2.5),119,113,91,90,66,29,,,,41,38,7,6,1.0,0.7
2024-12-11T0200,2273A,117.4185,32.8911,蚌埠市,蚌埠学院,细颗粒物(PM2.5),120,117,85,91,64,31,,,,44,48,8,11,0.9,0.6
2024-12-11T0200,2274A,117.3533,32.9673,蚌埠市,淮上区政府,细颗粒物(PM2.5),124,112,95,94,70,30,,,,40,39,6,6,0.8,0.6
2024-12-11T0200,2275A,117.3145,32.8977,蚌埠市,高新区,细颗粒物(PM2.5),114,100,83,86,63,22,,,,52,43,8,9,0.9,0.6
2024-12-11T0200,3715A,117.3092,32.9314,蚌埠市,蚌埠田家炳中学,细颗粒物(PM2.5),110,111,92,83,66,24,,,,43,37,8,8,0.9,0.6
2024-12-11T0200,1585A,109.8756,40.6532,包头市,市环境监测站,,15,7,47,6,23,45,,,,20,34,9,15,0.6,0.9
2024-12-11T0200,1587A,109.9991,40.5842,包头市,包头八中,细颗粒物(PM2.5),87,118,99,64,53,10,,,,51,51,13,18,1.6,1.4
2024-12-11T0200,1588A,109.8538,40.6821,包头市,青山宾馆,,18,14,38,12,23,46,,,,14,26,8,13,0.5,0.8
2024-12-11T0200,1589A,109.8642,40.6288,包头市,惠龙物流,,15,12,53,6,25,45,,,,20,35,7,13,0.5,1
2024-12-11T0200,1590A,110.0377,40.5546,包头市,东河鸿龙湾,颗粒物(PM10),97,143,100,71,55,9,,,,31,41,20,21,2.0,1.5
2024-12-11T0200,3283A,109.9154,40.5685,包头市,滨河大厦,,35,32,72,24,42,10,,,,47,47,17,20,0.9,1.3
2024-12-11T0200,3419A,109.9447,40.6261,包头市,包头市委党校,,25,22,88,17,39,28,,,,35,55,6,21,0.4,1.1
2024-12-11T0200,3683A,109.8331,40.6576,包头市,昆区政府,,18,14,42,12,26,46,,,,16,26,9,12,0.6,0.9
2024-12-11T0200,1930A,107.185,34.3063,宝鸡市,庙沟村,细颗粒物(PM2.5),89,,56,66,62,33,,,,25,23,6,6,0.6,0.6
2024-12-11T0200,1931A,107.0708,34.3017,宝鸡市,竹园沟,细颗粒物(PM2.5),84,,61,62,61,26,,,,24,20,6,7,0.7,0.7
2024-12-11T0200,1932A,107.1906,34.3672,宝鸡市,三陆医院,细颗粒物(PM2.5),112,86,74,84,71,3,,,,37,35,6,6,0.8,0.8
2024-12-11T0200,1933A,107.1431,34.3547,宝鸡市,监测站,细颗粒物(PM2.5),95,74,71,71,66,18,,,,27,26,6,8,0.7,0.7
2024-12-11T0200,1934A,107.1186,34.3739,宝鸡市,技工学校,细颗粒物(PM2.5),100,,63,75,61,18,,,,20,21,4,5,0.8,0.7
2024-12-11T0200,1935A,107.3906,34.3528,宝鸡市,陈仓区环保局家属楼,细颗粒物(PM2.5),102,83,83,76,75,19,,,,32,34,6,8,0.9,0.9
2024-12-11T0200,1936A,107.2058,34.3497,宝鸡市,文理学院,细颗粒物(PM2.5),92,74,69,68,61,13,,,,25,26,5,7,0.7,0.7
2024-12-11T0200,1937A,107.2386,34.3622,宝鸡市,三迪小学,细颗粒物(PM2.5),107,,66,80,73,6,,,,36,32,6,6,0.8,0.8
2024-12-11T0200,1051A,115.493,38.8632,保定市,游泳馆,细颗粒物(PM2.5),73,81,82,53,51,5,,,,57,49,3,3,0.8,0.8
2024-12-11T0200,1052A,115.5213,38.8959,保定市,华电二区,细颗粒物(PM2.5),88,102,79,65,56,2,,,,61,58,6,4,0.6,0.6
2024-12-11T0200,1053A,115.4713,38.9108,保定市,接待中心,细颗粒物(PM2.5),93,108,86,69,55,4,,,,63,51,4,3,0.4,0.4
2024-12-11T0200,1054A,115.4612,38.8416,保定市,地表水厂,细颗粒物(PM2.5),77,92,100,56,57,8,,,,70,58,4,3,0.5,0.6
2024-12-11T0200,3581A,115.31981,38.95208,保定市,满城区生态环境分局,颗粒物(PM10),54,58,82,31,44,2,,,,65,60,3,3,0.9,0.9
2024-12-11T0200,3582A,115.47694,38.76408,保定市,清苑区第二中学,颗粒物(PM10),69,87,95,43,50,6,,,,49,52,3,4,0.7,0.7
2024-12-11T0200,3583A,115.62909,39.02311,保定市,徐水物探局,颗粒物(PM10),59,68,92,29,42,1,,,,47,42,11,8,0.6,0.8
2024-12-11T0200,4004A,115.4202,38.8656,保定市,双鹰农机,细颗粒物(PM2.5),72,67,84,52,51,8,,,,57,49,6,6,0.6,0.7
2024-12-11T0200,4034A,115.5150,38.8590,保定市,植保所站,细颗粒物(PM2.5),79,77,78,58,50,3,,,,59,56,5,5,0.7,0.7
2024-12-11T0200,2594A,99.1678,25.1081,保山市,市环境监测站,,32,31,33,22,14,61,,,,6,7,5,4,0.3,0.3
2024-12-11T0200,2595A,99.1711,25.1328,保山市,市环保局,,39,39,32,20,19,67,,,,4,4,7,7,0.2,0.2
2024-12-11T0200,1866A,109.2262,21.588,北海市,牛尾岭水库,,,41,38,36,34,83,,,,,15,6,7,0.5,0.7
2024-12-11T0200,1867A,109.1436,21.4086,北海市,海滩公园,,46,46,46,17,27,113,,,,11,13,10,10,0.6,0.7
2024-12-11T0200,1868A,109.0981,21.4661,北海市,新市环保局,,49,49,46,24,29,104,,,,14,17,8,8,0.4,0.6
2024-12-11T0200,1869A,109.1778,21.5233,北海市,北海工业园,颗粒物(PM10),57,64,55,32,33,83,,,,24,20,17,9,0.7,0.8
2024-12-11T0200,3400A,109.1911,21.4415,北海市,龙潭自来水厂,,47,47,44,25,33,103,,,,10,12,7,8,0.6,0.7
2024-12-11T0200,1001A,116.3621,39.8784,北京市,万寿西宫,,28,28,33,15,18,31,,,,31,39,3,3,0.3,0.4
2024-12-11T0200,1002A,116.2202,40.2915,北京市,定陵,,39,33,30,27,22,22,,,,19,17,7,6,0.4,0.4
2024-12-11T0200,1003A,116.4174,39.9289,北京市,东四,,27,27,32,14,16,29,,,,27,38,1,2,0.4,0.5
2024-12-11T0200,1004A,116.4072,39.8863,北京市,天坛,,25,25,27,16,16,38,,,,24,32,3,2,0.2,0.3
2024-12-11T0200,1005A,116.462,39.9365,北京市,农展馆,,31,31,29,16,14,19,,,,43,38,3,3,0.4,0.5
2024-12-11T0200,1006A,116.3392,39.9295,北京市,官园,,24,24,31,13,18,30,,,,27,37,2,3,0.2,0.3
2024-12-11T0200,1007A,116.2878,39.9611,北京市,海淀万柳,,43,43,48,21,24,13,,,,57,52,4,4,0.5,0.6
2024-12-11T0200,1008A,116.6636,40.135,北京市,顺义新城,,25,25,27,15,16,25,,,,32,27,3,3,0.3,0.3
2024-12-11T0200,1009A,116.6275,40.3275,北京市,怀柔镇,,18,16,25,9,15,55,,,,11,23,3,3,0.4,0.5
2024-12-11T0200,1010A,116.2296,40.217,北京市,昌平镇,,39,39,36,24,22,43,,,,14,16,7,8,0.3,0.3
2024-12-11T0200,1011A,116.3966,39.9821,北京市,奥体中心,,30,30,31,15,16,15,,,,45,39,3,4,0.3,0.3
2024-12-11T0200,1012A,116.184,39.9136,北京市,古城,颗粒物(PM10),53,55,50,30,24,2,,,,47,39,6,6,0.5,0.5
2024-12-11T0200,3281A,115.9718,40.4529,北京市,延庆夏都,"颗粒物(PM10),细颗粒物(PM2.5)",59,67,58,42,37,1,,,,36,33,5,3,0.8,0.7
2024-12-11T0200,3417A,117.0709,40.1465,北京市,平谷新城,颗粒物(PM10),53,56,59,29,25,6,,,,28,29,3,3,0.6,0.5
2024-12-11T0200,3418A,116.8336,40.4095,北京市,密云新城,,18,17,21,9,11,55,,,,6,11,1,2,0.1,0.2
2024-12-11T0200,3671A,116.088,39.9726,北京市,门头沟三家店,颗粒物(PM10),51,52,47,25,22,1,,,,46,42,4,4,0.4,0.4
2024-12-11T0200,3672A,116.1541,39.8204,北京市,丰台云岗,颗粒物(PM10),55,59,44,32,21,0,,,,63,48,4,3,0.5,0.4
2024-12-11T0200,3673A,116.6804,39.9081,北京市,通州东关,颗粒物(PM10),55,59,40,27,16,0,,,,60,40,3,2,0.5,0.4
2024-12-11T0200,3674A,115.9577,39.7603,北京市,房山燕山,,34,34,36,21,20,22,,,,22,30,2,2,0.5,0.4
2024-12-11T0200,3675A,116.4672,39.7733,北京市,大兴旧宫,,37,37,32,15,13,7,,,,51,41,1,2,0.3,0.4
2024-12-11T0200,3694A,115.986,40.4563,北京市,延庆石河营,细颗粒物(PM2.5),60,63,58,43,38,2,,,,33,31,1,2,0.9,0.7
2024-12-11T0200,3695A,116.6151,40.3053,北京市,怀柔新城,,19,18,21,13,13,44,,,,12,14,1,2,0.2,0.2
2024-12-11T0200,3696A,116.2545,39.8768,北京市,丰台小屯,,40,40,43,20,21,15,,,,44,46,4,4,0.5,0.5
2024-12-11T0200,3697A,116.84,40.3844,北京市,密云镇,,20,20,31,11,14,49,,,,10,23,3,3,0.1,0.3
2024-12-11T0200,1761A,123.8275,41.3064,本溪市,大峪,细颗粒物(PM2.5),58,57,113,41,76,7,,,,44,51,10,13,2.7,2.4
2024-12-11T0200,1762A,123.7567,41.3325,本溪市,溪湖,细颗粒物(PM2.5),77,94,122,56,70,6,,,,45,46,9,10,1.2,1.8
2024-12-11T0200,1763A,123.7169,41.3094,本溪市,彩屯,细颗粒物(PM2.5),67,59,126,48,95,8,,,,47,58,8,11,1.0,2.3
2024-12-11T0200,1764A,123.7669,41.2864,本溪市,东明,细颗粒物(PM2.5),63,60,112,45,81,6,,,,46,54,8,13,1.2,2.1
2024-12-11T0200,1765A,123.7992,41.2664,本溪市,新立屯,,48,,112,33,61,5,,,,45,58,5,9,0.6,2
2024-12-11T0200,1766A,123.8142,41.3472,本溪市,威宁,细颗粒物(PM2.5),74,90,149,54,83,7,,,,41,53,10,11,1.1,1.7
2024-12-11T0200,2587A,105.2864,27.3125,毕节市,八中,,17,,6,6,5,54,,,,7,10,6,6,0.4,0.5
2024-12-11T0200,2588A,105.31,27.2944,毕节市,师专,,17,6,8,3,6,52,,,,9,12,5,5,0.6,0.6
2024-12-11T0200,3537A,105.3631,27.3533,毕节市,长征村,,17,6,4,3,4,52,,,,5,8,6,7,0.5,0.5
2024-12-11T0200,1629A,118.0018,37.3617,滨州市,第二水厂,颗粒物(PM10),57,63,134,39,90,1,,,,69,70,18,16,0.7,0.8
2024-12-11T0200,1630A,117.9776,37.393,滨州市,北中新校,,44,44,142,27,96,22,,,,49,70,22,15,0.2,0.8
2024-12-11T0200,3514A,117.9378,37.3956,滨州市,中海酒店,细颗粒物(PM2.5),55,58,142,39,104,8,,,,62,61,36,18,0.5,0.9
2024-12-11T0200,3515A,117.9378,37.3553,滨州市,开发区一中,,34,34,126,19,87,35,,,,44,71,19,18,0.4,0.8
2024-12-11T0200,3516A,118.0917,37.694,滨州市,金海六路,,17,17,136,9,96,44,,,,20,61,10,15,0.4,1.2
2024-12-11T0200,4028A,117.9956,37.3753,滨州市,滨州市西街道办事处,细颗粒物(PM2.5),52,48,133,36,100,11,,,,53,60,16,14,0.7,1.2
2024-12-11T0200,2311A,115.8072,33.8399,亳州市,污水处理厂,细颗粒物(PM2.5),108,140,105,81,61,5,,,,48,39,13,10,1.0,0.8
2024-12-11T0200,2312A,115.7789,33.8518,亳州市,三国揽胜宫,细颗粒物(PM2.5),133,155,113,101,71,6,,,,56,45,11,10,0.9,0.7
2024-12-11T0200,3332A,115.7633,33.8034,亳州市,亳州学院,细颗粒物(PM2.5),123,141,101,93,62,6,,,,56,39,9,7,0.9,0.7
2024-12-11T0200,2693A,82.0485,44.8556,博尔塔拉蒙古自治州,市党校,,43,,29,30,25,59,,,,11,15,6,6,0.1,0.4
2024-12-11T0200,2694A,82.0806,44.8969,博尔塔拉蒙古自治州,市环保局,,,,42,,18,52,,,,14,17,8,7,0.3,0.2
2024-12-11T0200,1071A,116.8842,38.2991,沧州市,沧县城建局,细颗粒物(PM2.5),88,87,103,65,73,2,,,,73,73,12,13,1.5,1.1
2024-12-11T0200,1072A,116.8584,38.3254,沧州市,电视转播站,细颗粒物(PM2.5),94,121,114,70,79,2,,,,76,69,19,18,1.6,1.2
2024-12-11T0200,1073A,116.8709,38.3228,沧州市,市环保局,细颗粒物(PM2.5),93,112,104,69,79,0,,,,72,68,14,12,1.6,1.3
2024-12-11T0200,3324A,116.8136,38.3004,沧州市,河北水利电力学院,细颗粒物(PM2.5),88,105,113,65,72,3,,,,59,56,17,15,1.4,1.2
2024-12-11T0200,2622A,97.1806,31.1273,昌都市,昌都监测站,,20,11,19,3,10,61,,,,8,18,6,6,0.5,0.6
2024-12-11T0200,3719A,97.1714,31.1406,昌都市,昌都会议中心,,21,11,16,6,10,67,,,,2,8,5,5,0.5,0.6
2024-12-11T0200,2690A,88.1236,43.8886,昌吉回族自治州,天山天池,细颗粒物(PM2.5),52,,15,36,13,32,,,,24,7,3,1,1.1,0.7
2024-12-11T0200,2692A,87.2717,44.0297,昌吉回族自治州,新区政务中心,,44,44,47,23,29,37,,,,21,35,8,8,0.9,0.9
2024-12-11T0200,3613A,87.3095,44.0142,昌吉回族自治州,亚心广场,,45,41,49,31,37,34,,,,26,34,7,7,0.8,0.6
2024-12-11T0200,1119A,125.3325,43.9166,长春市,食品厂,,39,39,67,24,47,16,,,,32,40,8,12,0.5,0.8
2024-12-11T0200,1120A,125.2863,43.9027,长春市,客车厂,,37,37,59,25,50,26,,,,24,37,8,14,0.2,0.6
2024-12-11T0200,1121A,125.2841,43.8463,长春市,邮电学院,,32,32,68,22,52,35,,,,20,42,12,18,0.4,0.6
2024-12-11T0200,1122A,125.3716,43.8772,长春市,劳动公园,,29,29,55,18,40,32,,,,26,42,11,17,0.5,0.7
2024-12-11T0200,1123A,125.3297,43.8805,长春市,园林处,,33,31,54,23,41,25,,,,24,40,10,15,0.3,0.7
2024-12-11T0200,1124A,125.4605,43.79,长春市,净月潭,细颗粒物(PM2.5),57,53,61,40,44,10,,,,42,43,7,9,0.6,0.7
2024-12-11T0200,1125A,125.7194,43.515,长春市,甩湾子,细颗粒物(PM2.5),55,42,60,39,56,18,,,,25,27,6,7,0.9,1
2024-12-11T0200,1126A,125.3863,43.8447,长春市,经开区环卫处,,38,38,63,19,43,31,,,,21,45,14,19,0.7,1
2024-12-11T0200,1127A,125.245,43.7783,长春市,高新区管委会,,,34,66,21,52,21,,,,,44,8,9,0.6,0.9
2024-12-11T0200,1128A,125.1761,43.8325,长春市,岱山公园,,35,35,69,21,57,18,,,,29,41,7,9,0.5,0.8
2024-12-11T0200,1335A,113.0833,28.2325,长沙市,经开区环保局,细颗粒物(PM2.5),77,60,57,56,42,18,,,,29,31,3,3,0.5,0.6
2024-12-11T0200,1336A,112.8872,28.2189,长沙市,高开区环保局,细颗粒物(PM2.5),98,74,54,73,46,18,,,,21,22,4,4,0.7,0.8
2024-12-11T0200,1337A,113.0792,28.2053,长沙市,马坡岭,细颗粒物(PM2.5),77,,55,56,43,22,,,,21,25,2,2,0.7,0.7
2024-12-11T0200,1338A,112.9394,28.19,长沙市,湖南师范大学,细颗粒物(PM2.5),97,72,55,72,41,17,,,,26,24,3,2,0.6,0.6
2024-12-11T0200,1339A,113.0178,28.1322,长沙市,雨花区环保局,细颗粒物(PM2.5),95,,52,71,42,19,,,,31,30,4,4,0.5,0.6
2024-12-11T0200,1340A,112.9792,28.2597,长沙市,伍家岭,细颗粒物(PM2.5),85,72,58,63,42,14,,,,25,28,2,2,0.8,0.9
2024-12-11T0200,1341A,113.0014,28.1944,长沙市,火车新站,细颗粒物(PM2.5),85,65,55,63,44,18,,,,30,28,1,1,0.6,0.7
2024-12-11T0200,1342A,112.9844,28.1178,长沙市,天心区环保局,细颗粒物(PM2.5),75,70,58,55,43,16,,,,30,29,3,3,0.5,0.6
2024-12-11T0200,1343A,112.8908,28.1308,长沙市,湖南中医药大学,,,,66,,52,,,17,,,32,,5,,0.8
2024-12-11T0200,1344A,112.9581,28.3611,长沙市,沙坪,细颗粒物(PM2.5),99,,54,74,48,13,,,,17,15,5,5,0.7,0.7
2024-12-11T0200,1727A,113.1147,36.1547,长治市,清华站,细颗粒物(PM2.5),100,79,89,75,60,24,,,,31,46,9,21,1.0,1.4
2024-12-11T0200,1728A,113.1031,36.1989,长治市,监测站,细颗粒物(PM2.5),100,78,72,75,57,8,,,,35,40,12,21,1.3,1.2
2024-12-11T0200,1730A,113.0886,36.2125,长治市,审计局,细颗粒物(PM2.5),89,97,79,66,57,7,,,,49,49,7,16,0.9,1.1
2024-12-11T0200,1731A,113.0844,36.1856,长治市,长治八中,细颗粒物(PM2.5),109,83,118,82,70,12,,,,25,35,7,19,1.2,1.1
2024-12-11T0200,2845A,113.1569,36.1911,长治市,德盛苑,细颗粒物(PM2.5),113,89,84,85,59,16,,,,32,40,5,13,1.1,1.2
2024-12-11T0200,3568A,113.06,36.0464,长治市,向阳小学,细颗粒物(PM2.5),120,104,104,91,75,18,,,,31,39,8,17,1.0,1.3
2024-12-11T0200,3569A,112.8792,36.3144,长治市,屯留一中,细颗粒物(PM2.5),113,85,60,85,53,19,,,,38,42,5,17,1.1,1.3
2024-12-11T0200,3570A,113.235,36.3489,长治市,潞城四中,细颗粒物(PM2.5),78,62,66,57,50,9,,,,40,36,9,17,1.3,1.4
2024-12-11T0200,1854A,111.6975,28.9703,常德市,市二中,细颗粒物(PM2.5),85,80,75,63,67,26,,,,20,17,4,4,0.6,0.5
2024-12-11T0200,1857A,111.7158,29.1456,常德市,白鹤山,,,,,,,,,,,,,,,,
2024-12-11T0200,3138A,111.7153,29.0289,常德市,武陵区永安,细颗粒物(PM2.5),79,82,78,58,65,29,,,,21,17,2,2,0.6,0.6
2024-12-11T0200,3139A,111.6892,28.9881,常德市,鼎城区玉霞,细颗粒物(PM2.5),83,88,79,61,64,25,,,,24,19,3,3,0.6,0.6
2024-12-11T0200,3140A,111.6625,29.0531,常德市,武陵区长庚,细颗粒物(PM2.5),82,82,76,60,63,21,,,,20,15,2,2,0.6,0.5
2024-12-11T0200,1196A,119.9633,31.762,常州市,市监测站,,46,46,65,31,40,79,,,,5,38,6,9,0.5,0.8
2024-12-11T0200,1200A,119.9468,31.7069,常州市,武进监测站,,39,39,54,20,31,76,,,,12,45,7,13,0.5,1
2024-12-11T0200,1201A,119.9255,31.9087,常州市,安家,,36,36,50,24,33,74,,,,16,35,7,8,0.5,0.5
2024-12-11T0200,3002A,119.9805,31.8174,常州市,行政中心,,38,35,50,26,36,75,,,,13,42,7,10,0.3,0.6
2024-12-11T0200,3003A,120.0522,31.7748,常州市,经开区,,45,45,61,22,33,74,,,,20,49,8,11,0.4,0.7
2024-12-11T0200,3010A,119.9025,31.7964,常州市,钟楼,,38,38,54,24,33,76,,,,12,41,7,9,0.6,0.9
2024-12-11T0200,3429A,119.8598,31.7066,常州市,武进经发区,,43,43,58,30,37,70,,,,20,46,7,10,0.4,1
2024-12-11T0200,3430A,119.5826,31.7245,常州市,金坛城区,细颗粒物(PM2.5),53,41,58,37,41,74,,,,11,40,6,9,0.4,0.7
2024-12-11T0200,2220A,120.4318,41.5881,朝阳市,西梁,,19,19,65,3,35,54,,,,4,29,5,10,0.5,1.4
2024-12-11T0200,2221A,120.4521,41.5646,朝阳市,河畔小区,,17,17,49,3,27,49,,,,6,24,8,10,0.6,1.1
2024-12-11T0200,2222A,120.4176,41.5648,朝阳市,八里堡,,23,20,56,16,36,53,,,,6,30,9,13,0.6,1.2
2024-12-11T0200,2223A,120.3806,41.5969,朝阳市,农业园区,,21,21,58,9,40,46,,,,11,33,5,10,0.4,1
2024-12-11T0200,1705A,116.6367,23.6719,潮州市,西园路,,38,29,39,26,29,48,,,,14,16,4,6,0.3,0.4
2024-12-11T0200,3026A,116.6183,23.6608,潮州市,市政府,,31,31,39,18,18,60,,,,13,16,4,5,0.4,0.6
2024-12-11T0200,4036A,116.6461,23.6761,潮州市,金山,,36,33,36,25,23,52,,,,13,14,6,8,0.6,0.6
2024-12-11T0200,2472A,113.0073,25.9061,郴州市,马头岭,,28,23,86,19,60,24,,,,28,33,7,10,0.7,0.7
2024-12-11T0200,2473A,113.0116,25.8226,郴州市,市职中,,25,20,76,17,63,11,,,,30,32,4,9,0.8,0.8
2024-12-11T0200,2474A,113.0161,25.8001,郴州市,兴隆步行街,,48,42,88,33,77,8,,,,25,28,5,10,0.8,0.9
2024-12-11T0200,2475A,113.0383,25.8071,郴州市,市审计局,,35,35,83,24,67,11,,,,24,27,4,9,0.9,0.9
2024-12-11T0200,2476A,113.0348,25.7759,郴州市,市环保局,,43,43,86,23,74,13,,,,24,25,4,9,0.8,0.9
2024-12-11T0200,1431A,103.9728,30.7236,成都市,金泉两河,细颗粒物(PM2.5),69,57,53,50,30,1,,,,39,32,1,1,1.1,0.6
2024-12-11T0200,1432A,104.176,30.6872,成都市,十里店,细颗粒物(PM2.5),63,60,52,45,40,4,,,,63,42,2,2,0.8,0.6
2024-12-11T0200,1433A,104.079,30.5706,成都市,三瓦窑,颗粒物(PM10),64,77,56,39,36,0,,,,42,38,2,2,0.7,0.6
2024-12-11T0200,1434A,104.1114,30.63,成都市,沙河铺,细颗粒物(PM2.5),72,68,55,52,38,4,,,,36,28,4,3,0.7,0.5
2024-12-11T0200,1437A,104.0786,30.6531,成都市,君平街,细颗粒物(PM2.5),72,58,52,52,39,1,,,,61,37,5,4,1.1,0.8
2024-12-11T0200,1438A,103.613,31.0283,成都市,灵岩寺,,,,,,,,,,,,,,,,
2024-12-11T0200,2880A,104.0239,30.65639,成都市,大石西路,"颗粒物(PM10),细颗粒物(PM2.5)",57,64,57,40,36,0,,,,45,31,3,3,0.8,0.4
2024-12-11T0200,3136A,104.2725,30.5589,成都市,龙泉驿区区政府,颗粒物(PM10),53,56,50,36,37,7,,,,34,25,3,4,0.5,0.5
2024-12-11T0200,3357A,104.0106,30.6931,成都市,金博路,"颗粒物(PM10),细颗粒物(PM2.5)",59,68,49,42,32,1,,,,42,34,1,3,0.9,0.6
2024-12-11T0200,3359A,104.0578,30.5225,成都市,华阳,细颗粒物(PM2.5),70,75,56,51,36,4,,,,53,33,2,2,1.0,0.5
2024-12-11T0200,3487A,104.2394,30.5319,成都市,车城东七路,细颗粒物(PM2.5),65,67,50,47,38,10,,,,41,31,3,3,0.5,0.4
2024-12-11T0200,3488A,104.3853,30.7453,成都市,青白江技师分院,,49,42,48,34,37,4,,,,28,25,5,6,0.3,0.3
2024-12-11T0200,3489A,104.0789,30.4072,成都市,科学城,细颗粒物(PM2.5),74,67,48,54,39,2,,,,34,29,4,4,0.7,0.5
2024-12-11T0200,4011A,103.8506,30.6947,成都市,光华大道三段,细颗粒物(PM2.5),104,,47,78,32,0,,,,36,32,3,2,0.7,0.5
2024-12-11T0200,1062A,117.9531,40.9081,承德市,铁路,"颗粒物(PM10),细颗粒物(PM2.5)",60,69,65,43,36,5,,,,43,42,5,7,1.1,0.9
2024-12-11T0200,1063A,117.9392,40.9763,承德市,中国银行,细颗粒物(PM2.5),67,68,58,48,33,2,,,,30,28,2,2,0.9,0.7
2024-12-11T0200,1064A,117.9503,40.928,承德市,开发区,颗粒物(PM10),57,63,67,39,34,5,,,,37,39,4,5,0.9,0.8
2024-12-11T0200,1065A,117.8051,40.9655,承德市,文化中心,颗粒物(PM10),60,70,83,27,36,3,,,,42,42,3,12,0.6,0.9
2024-12-11T0200,1066A,117.9268,41.0026,承德市,离宫,细颗粒物(PM2.5),67,75,50,48,37,2,,,,43,32,3,3,0.6,0.5
2024-12-11T0200,2314A,117.47,30.6618,池州市,池州学院,细颗粒物(PM2.5),60,46,63,43,53,40,,,,17,48,4,6,0.6,0.9
2024-12-11T0200,3237A,117.4918,30.6617,池州市,展览馆,细颗粒物(PM2.5),75,62,82,55,54,38,,,,18,46,4,7,0.6,0.9
2024-12-11T0200,3333A,117.5627,30.695,池州市,第八中学,细颗粒物(PM2.5),63,48,72,45,56,43,,,,20,45,6,6,0.5,0.8
2024-12-11T0200,3334A,117.5038,30.6243,池州市,第十二中学,细颗粒物(PM2.5),57,45,71,40,56,44,,,,19,41,3,4,0.4,0.6
2024-12-11T0200,1744A,118.9233,42.2816,赤峰市,松山一中,,18,14,38,6,16,55,,,,8,25,10,16,0.5,0.8
2024-12-11T0200,1745A,118.9576,42.2728,赤峰市,哈达街,,20,,25,7,12,62,,,,5,21,9,11,0.5,0.7
2024-12-11T0200,1746A,118.8788,42.2554,赤峰市,天义路,,16,8,22,6,12,50,,,,12,23,11,13,0.5,0.6
2024-12-11T0200,3058A,119.2658,42.0353,赤峰市,银河街,,30,,88,21,57,38,,,,17,32,17,23,0.5,1.4
2024-12-11T0200,3286A,118.9359,42.3147,赤峰市,桥北物流园区,,25,,22,17,15,49,,,,17,21,9,12,0.6,0.8
2024-12-11T0200,2521A,107.3476,22.4136,崇左市,市环保局江州分局,细颗粒物(PM2.5),95,114,107,71,68,28,,,,18,23,5,10,1.1,1.1
2024-12-11T0200,2522A,107.3702,22.3707,崇左市,城南新区,细颗粒物(PM2.5),117,124,102,88,82,13,,,,43,32,8,14,1.5,1.4
2024-12-11T0200,2298A,118.3093,32.3153,滁州市,老年大学,,48,37,46,33,30,60,,,,19,29,2,5,0.5,0.6
2024-12-11T0200,2299A,118.3244,32.2786,滁州市,人大宾馆,细颗粒物(PM2.5),55,40,47,39,36,62,,,,17,34,7,8,0.3,0.4
2024-12-11T0200,3207A,118.3118,32.3038,滁州市,市政府原办公楼,,50,39,43,35,33,62,,,,16,31,4,6,0.6,0.6
2024-12-11T0200,3331A,118.3267,32.2634,滁州市,图书馆,细颗粒物(PM2.5),57,43,50,40,32,60,,,,13,26,6,7,0.3,0.3
2024-12-11T0200,2605A,101.5482,25.0441,楚雄彝族自治州,州环境监测站,,40,40,30,27,22,10,,,,49,22,7,8,0.5,0.4
2024-12-11T0200,2606A,101.538,25.0492,楚雄彝族自治州,市经济开发区,,46,46,29,29,20,24,,,,35,19,7,6,0.6,0.6
2024-12-11T0200,2548A,107.5277,31.2827,达州市,达州职业技术学院,细颗粒物(PM2.5),60,46,60,43,50,5,,,,37,32,8,10,0.9,0.9
2024-12-11T0200,2549A,107.5086,31.2186,达州市,市环境监测站,颗粒物(PM10),54,58,59,34,37,15,,,,35,34,6,9,0.6,0.7
2024-12-11T0200,2550A,107.4988,31.2132,达州市,凤凰小区,细颗粒物(PM2.5),55,48,51,39,40,19,,,,33,32,8,12,0.5,0.6
2024-12-11T0200,2551A,107.5082,31.1986,达州市,达县机关宾馆,细颗粒物(PM2.5),62,46,58,44,42,10,,,,41,40,6,10,0.7,0.7
2024-12-11T0200,2552A,107.4644,31.2124,达州市,市政中心,颗粒物(PM10),52,54,56,34,35,24,,,,35,34,9,10,0.5,0.6
2024-12-11T0200,2614A,100.1542,25.7054,大理白族自治州,大理市环境监测站,,42,,22,29,21,77,,,,8,6,7,7,0.5,0.5
2024-12-11T0200,2615A,100.2171,25.5811,大理白族自治州,大理古城,,33,24,26,23,16,77,,,,6,6,5,5,0.6,0.6
2024-12-11T0200,1109A,121.612,38.9741,大连市,甘井子,,32,32,43,16,26,50,,,,21,37,12,13,0.8,0.9
2024-12-11T0200,1110A,121.565,38.9511,大连市,周水子,,33,33,46,19,32,41,,,,20,34,12,12,0.5,0.8
2024-12-11T0200,1111A,121.5637,38.8845,大连市,星海三站,,32,32,42,16,28,46,,,,18,31,10,14,0.5,0.7
2024-12-11T0200,1112A,121.6302,38.9117,大连市,青泥洼桥,,25,25,44,14,26,50,,,,10,29,15,13,0.4,0.6
2024-12-11T0200,1113A,121.6251,38.8638,大连市,傅家庄,,26,26,35,12,21,50,,,,14,26,14,13,0.7,0.8
2024-12-11T0200,1114A,121.5213,38.8661,大连市,七贤岭,,24,24,35,14,23,54,,,,15,24,10,10,0.7,0.8
2024-12-11T0200,1115A,121.2529,38.8061,大连市,旅顺,,18,16,30,12,24,54,,,,6,11,10,11,0.6,0.8
2024-12-11T0200,1116A,121.7485,39.1311,大连市,金州,,25,25,41,15,29,53,,,,12,22,14,13,0.8,0.9
2024-12-11T0200,1117A,121.7811,39.0496,大连市,开发区,,27,27,46,11,27,59,,,,8,29,18,18,0.5,0.8
2024-12-11T0200,1118A,121.9762,39.0631,大连市,双D港,,25,25,37,14,25,62,,,,10,15,10,12,0.7,0.9
2024-12-11T0200,1789A,124.81117,46.03138,大庆市,大同区,,20,20,48,14,42,49,,,,4,18,3,4,0.4,0.6
2024-12-11T0200,1790A,125.129,46.533,大庆市,龙凤区,,21,21,55,10,42,46,,,,6,29,9,17,0.4,0.6
2024-12-11T0200,1791A,124.902,46.408,大庆市,红岗区,,16,16,43,11,30,48,,,,5,21,5,6,0.3,0.4
2024-12-11T0200,1792A,125.153,46.586,大庆市,萨尔图区,,19,,49,13,39,51,,,,11,32,6,6,0.6,0.8
2024-12-11T0200,1793A,124.9042,46.6215,大庆市,让胡路区,,28,22,52,19,43,47,,,,4,20,7,7,0.3,0.5
2024-12-11T0200,3481A,125.141,46.634,大庆市,萨区政府监测点,,19,19,47,9,35,41,,,,11,26,6,6,0.6,0.8
2024-12-11T0200,1721A,113.3819,40.1097,大同市,果树场,,25,25,62,3,40,42,,,,15,37,8,12,0.5,1.2
2024-12-11T0200,1723A,113.2994,40.0758,大同市,云冈宾馆,,24,24,53,9,24,54,,,,9,32,12,23,0.4,1.3
2024-12-11T0200,1724A,113.3444,40.0917,大同市,大同大学,,24,24,50,12,25,44,,,,13,34,9,23,0.3,1.1
2024-12-11T0200,1725A,113.2661,40.1269,大同市,安家小村,,21,21,61,8,24,54,,,,7,24,16,26,0.4,1.6
2024-12-11T0200,1726A,113.2711,40.0844,大同市,教育学院,,36,36,62,11,27,48,,,,13,37,11,21,0.4,1.5
2024-12-11T0200,3282A,113.3397,40.0597,大同市,大同市卫生学校,,24,24,56,8,26,46,,,,14,41,11,25,0.7,1.2
2024-12-11T0200,3565A,113.1367,40.1122,大同市,云冈站,,21,21,53,10,22,51,,,,13,31,12,24,0.5,0.8
2024-12-11T0200,3566A,113.1186,40.2556,大同市,图书馆,,30,30,50,17,32,47,,,,17,23,15,18,0.9,1.1
2024-12-11T0200,3567A,113.5931,40.0461,大同市,区一中,,50,50,120,27,46,38,,,,17,58,23,44,0.6,1.5
2024-12-11T0200,3676A,113.2802,40.0995,大同市,第二人民医院,,30,30,64,11,27,53,,,,10,34,15,25,0.3,1.4
2024-12-11T0200,2269A,124.1069,50.4097,大兴安岭地区,科技局,,25,,15,17,18,56,,,,3,7,5,6,0.5,0.5
2024-12-11T0200,3663A,124.1164,50.4278,大兴安岭地区,红旗社区,,17,6,9,3,6,54,,,,3,8,5,6,0.3,0.3
2024-12-11T0200,1600A,124.3303,40.0625,丹东市,江湾东路,颗粒物(PM10),56,62,102,34,63,35,,,,22,38,12,24,0.8,1.7
2024-12-11T0200,1601A,124.4256,40.1503,丹东市,临江后街,细颗粒物(PM2.5),63,53,81,45,59,46,,,,20,33,7,16,0.7,1.1
2024-12-11T0200,1602A,124.3933,40.1461,丹东市,元宝山,颗粒物(PM10),54,57,79,36,49,34,,,,26,33,8,11,0.7,1.2
2024-12-11T0200,1603A,124.3633,40.1092,丹东市,民主桥,颗粒物(PM10),58,65,85,30,45,44,,,,20,39,6,13,0.6,1
2024-12-11T0200,3541A,109.5726,19.5167,儋州市,第一中学子站,,29,29,24,11,11,60,,,,4,3,7,6,0.5,0.5
2024-12-11T0200,3542A,109.5567,19.5187,儋州市,东坡学校子站,,29,29,26,9,10,66,,,,4,4,6,5,0.5,0.5
2024-12-11T0200,2616A,98.5842,24.428,德宏傣族景颇族自治州,德宏州监测站,细颗粒物(PM2.5),59,62,42,42,29,25,,,,35,21,18,11,0.6,0.6
2024-12-11T0200,3677A,98.5881,24.4368,德宏傣族景颇族自治州,芒市人民政府综合楼,颗粒物(PM10),51,51,47,33,27,48,,,,10,17,6,8,0.5,0.6
2024-12-11T0200,1901A,104.4239,31.1208,德阳市,东山公园,颗粒物(PM10),51,52,50,35,30,23,,,,29,21,1,1,0.6,0.6
2024-12-11T0200,1902A,104.3826,31.1317,德阳市,西小区,细颗粒物(PM2.5),73,59,42,53,31,2,,,,53,28,3,2,0.9,0.6
2024-12-11T0200,1904A,104.3553,31.1091,德阳市,耐火材料厂,细颗粒物(PM2.5),78,74,42,57,35,3,,,,43,26,4,3,0.7,0.5
2024-12-11T0200,3639A,104.4019,31.1244,德阳市,市教育局,,50,45,42,35,31,2,,,,41,32,2,3,0.8,0.8
2024-12-11T0200,1622A,116.3032,37.4674,德州市,儿童乐园,细颗粒物(PM2.5),83,107,121,61,72,7,,,,85,67,25,9,1.6,1.1
2024-12-11T0200,1624A,116.2991,37.4451,德州市,监理站,细颗粒物(PM2.5),83,92,111,61,71,6,,,,84,64,22,14,1.4,1.1
2024-12-11T0200,3066A,116.2721,37.4379,德州市,九衢泉纯净水厂,细颗粒物(PM2.5),79,95,115,58,70,5,,,,80,61,23,13,1.5,1
2024-12-11T0200,3371A,116.3728,37.4403,德州市,开发区人民医院,细颗粒物(PM2.5),85,100,118,63,74,10,,,,80,67,22,14,1.3,0.9
2024-12-11T0200,3372A,116.3572,37.4094,德州市,太阳城中学,细颗粒物(PM2.5),77,88,112,56,74,8,,,,91,75,20,13,1.3,0.9
2024-12-11T0200,3511A,116.5652,37.3319,德州市,陵城艺术中心,细颗粒物(PM2.5),100,119,131,75,88,10,,,,73,54,16,13,1.4,1.2
2024-12-11T0200,2621A,99.7056,27.8317,迪庆藏族自治州,迪庆州站,,28,26,26,19,18,65,,,,9,11,8,8,0.5,0.6
2024-12-11T0200,3180A,99.7136,27.8094,迪庆藏族自治州,质量技术监督局,,32,23,29,22,15,63,,,,11,9,7,7,0.5,0.5
2024-12-11T0200,2663A,104.6241,35.5734,定西市,东关小学,细颗粒物(PM2.5),52,41,66,36,50,64,,,,10,18,5,9,0.5,0.7
2024-12-11T0200,2664A,104.6194,35.5934,定西市,供电公司,,46,46,65,31,50,76,,,,6,15,6,7,0.3,0.6
2024-12-11T0200,1389A,113.7547,23.0494,东莞市,莞城梨川,颗粒物(PM10),65,79,68,42,39,9,,,,69,45,8,8,0.9,0.9
2024-12-11T0200,1390A,113.7944,23.0128,东莞市,东城石井,,,77,61,3,34,9,,,,58,38,,7,1.0,0.9
2024-12-11T0200,1391A,113.7383,22.9658,东莞市,南城西平,颗粒物(PM10),58,65,71,36,40,7,,,,102,62,2,5,0.7,0.7
2024-12-11T0200,3319A,113.7338,23.0381,东莞市,万江金泰,颗粒物(PM10),65,79,66,44,36,10,,,,63,45,5,6,0.8,0.8
2024-12-11T0200,3626A,113.7533,23.0202,东莞市,南城元岭,颗粒物(PM10),67,83,71,44,40,16,,,,60,48,9,9,0.9,0.9
2024-12-11T0200,3627A,113.7875,23.0457,东莞市,东城主山,细颗粒物(PM2.5),60,68,68,43,39,3,,,,75,49,9,10,0.9,0.8
2024-12-11T0200,1666A,118.6614,37.4309,东营市,市环保局,,19,19,100,9,71,56,,,,10,63,5,12,0.6,1.1
2024-12-11T0200,3036A,118.6904,37.4338,东营市,开发区管委会,,29,29,107,12,75,60,,,,11,70,4,11,0.6,1.2
2024-12-11T0200,3365A,118.5719,37.565,东营市,垦利区民丰路,,22,22,105,12,72,43,,,,20,62,7,12,0.2,0.8
2024-12-11T0200,3498A,118.5055,37.8612,东营市,河口城区,,27,27,120,17,45,60,,,,8,46,4,7,0.5,1.2
2024-12-11T0200,3646A,118.4978,37.4623,东营市,胜利站,,28,28,125,9,83,48,,,,19,63,6,13,0.4,0.9
2024-12-11T0200,3734A,118.35,37.26,东营市,理想之城,,,,135,,88,38,,,,29,67,5,10,0.5,1
2024-12-11T0200,1591A,110.0023,39.8129,鄂尔多斯市,综合楼,颗粒物(PM10),54,58,75,29,35,24,,,,45,53,19,31,0.9,1.1
2024-12-11T0200,1592A,109.9486,39.8261,鄂尔多斯市,巴音孟克林场办事处,颗粒物(PM10),64,78,72,31,33,6,,,,57,55,15,32,0.7,1
2024-12-11T0200,1593A,109.7736,39.5986,鄂尔多斯市,康泽苑,颗粒物(PM10),52,53,41,29,24,25,,,,34,38,11,17,0.9,0.9
2024-12-11T0200,1594A,109.8119,39.5989,鄂尔多斯市,华泰汽车城,颗粒物(PM10),53,56,50,34,26,22,,,,41,43,12,15,0.9,0.9
2024-12-11T0200,1595A,109.9734,39.7884,鄂尔多斯市,奥林花园,,46,46,68,27,34,27,,,,37,50,11,23,0.9,1.1
2024-12-11T0200,2436A,114.8938,30.3994,鄂州市,市政府,细颗粒物(PM2.5),77,,68,56,57,19,,,,34,40,6,8,1.4,1.3
2024-12-11T0200,2437A,114.8989,30.3714,鄂州市,赵家坝,细颗粒物(PM2.5),67,,68,48,55,22,,,,32,36,5,7,0.6,0.6
2024-12-11T0200,3654A,114.8094,30.4089,鄂州市,精准医疗中心,细颗粒物(PM2.5),89,,74,66,61,21,,,,25,35,9,8,1.1,0.9
2024-12-11T0200,2454A,109.4978,30.2981,恩施土家族苗族自治州,湖北民院,细颗粒物(PM2.5),55,,48,39,52,24,,,,16,15,8,7,0.5,0.6
2024-12-11T0200,2455A,109.4707,30.2798,恩施土家族苗族自治州,州电力总公司,细颗粒物(PM2.5),60,,59,43,51,36,,,,19,25,7,7,0.7,0.8
2024-12-11T0200,3549A,109.5061,30.3772,恩施土家族苗族自治州,龙凤新区,,49,42,56,34,42,31,,,,15,15,6,6,0.6,0.5
2024-12-11T0200,2499A,108.3411,21.6158,防城港市,沙万,颗粒物(PM10),51,51,75,26,55,93,,,,15,37,6,8,0.8,1
2024-12-11T0200,2500A,108.3514,21.7731,防城港市,防城档案局,细颗粒物(PM2.5),59,66,113,42,74,9,,,,60,42,6,8,0.9,1
2024-12-11T0200,2501A,108.3506,21.6414,防城港市,大海花园,颗粒物(PM10),58,65,86,40,57,90,,,,31,39,4,8,0.7,1
2024-12-11T0200,1371A,113.1294,23.0067,佛山市,湾梁,颗粒物(PM10),62,73,82,34,37,5,,,,83,68,9,9,1.0,1
2024-12-11T0200,1372A,113.1083,23.0478,佛山市,华材职中,颗粒物(PM10),67,83,93,47,54,6,,,,81,73,10,10,0.8,0.9
2024-12-11T0200,1373A,113.144,23.0453,佛山市,南海气象局,颗粒物(PM10),59,68,72,40,44,1,,,,80,65,10,10,0.8,0.8
2024-12-11T0200,1374A,113.2881,22.8094,佛山市,顺德苏岗,颗粒物(PM10),63,75,74,44,45,1,,,,83,63,9,10,0.9,0.9
2024-12-11T0200,1376A,112.8383,22.8678,佛山市,高明孔堂,"颗粒物(PM10),细颗粒物(PM2.5)",53,56,76,37,51,28,,,,40,51,10,11,1.0,1
2024-12-11T0200,1377A,112.8836,23.1588,佛山市,三水监测站,细颗粒物(PM2.5),70,83,88,51,61,9,,,,68,57,21,16,1.0,1
2024-12-11T0200,1378A,112.867,23.185,佛山市,三水云东海,细颗粒物(PM2.5),57,57,68,40,49,4,,,,59,54,12,12,1.0,0.9
2024-12-11T0200,3625A,113.2544,22.7642,佛山市,容桂街道办,颗粒物(PM10),70,90,87,46,49,1,,,,87,70,9,10,0.9,0.9
2024-12-11T0200,1280A,119.3903,26.0543,福州市,鼓山,,,,31,,13,,,44,,,23,,1,,0.4
2024-12-11T0200,1282A,119.2681,26.0504,福州市,师大,,46,46,48,24,19,17,,,,34,29,3,3,0.5,0.5
2024-12-11T0200,1283A,119.2984,26.1028,福州市,五四北路,,36,36,37,19,15,30,,,,20,23,1,2,0.6,0.5
2024-12-11T0200,1284A,119.2648,26.0768,福州市,杨桥西路,,36,36,43,19,17,22,,,,30,26,1,2,0.4,0.5
2024-12-11T0200,1285A,119.317,26.0746,福州市,紫阳,,40,40,45,22,20,34,,,,19,30,3,3,0.7,0.5
2024-12-11T0200,3048A,119.5799,26.0936,福州市,九龙,,33,31,27,23,10,47,,,,8,13,4,4,1.1,0.5
2024-12-11T0200,3526A,119.5189,25.9664,福州市,吴航,,31,31,30,18,15,47,,,,16,23,4,4,0.7,0.5
2024-12-11T0200,1755A,123.7977,41.8491,抚顺市,望花区,细颗粒物(PM2.5),55,58,85,39,54,5,,,,38,38,5,8,0.7,1
2024-12-11T0200,1756A,123.9161,41.8822,抚顺市,顺城区,颗粒物(PM10),54,58,93,35,59,12,,,,46,46,6,8,0.8,1.2
2024-12-11T0200,1757A,124.0436,41.8611,抚顺市,东洲区,细颗粒物(PM2.5),108,,88,81,60,13,,,,46,37,4,7,0.7,1
2024-12-11T0200,1758A,123.9247,41.8642,抚顺市,新抚区,细颗粒物(PM2.5),82,112,99,60,64,5,,,,36,40,5,8,0.9,1.3
2024-12-11T0200,1759A,124.0972,41.8961,抚顺市,大伙房水库,细颗粒物(PM2.5),60,46,77,43,58,9,,,,39,41,8,9,0.6,0.9
2024-12-11T0200,1760A,123.7086,41.8391,抚顺市,沈抚新城,,46,,77,32,60,7,,,,41,39,6,9,0.6,1.1
2024-12-11T0200,2376A,116.2127,28.0814,抚州市,桐源党溪,,32,30,56,22,37,6,,,,29,16,4,8,0.8,0.7
2024-12-11T0200,2377A,116.3544,27.9831,抚州市,市站,,25,23,52,16,35,8,,,,49,26,3,4,1.4,1
2024-12-11T0200,2378A,116.3565,27.963,抚州市,血防站,,30,30,56,20,35,4,,,,55,25,2,7,0.8,0.7
2024-12-11T0200,2379A,116.3564,28.0007,抚州市,采茶剧团,,28,23,51,19,36,4,,,,45,22,2,5,1.4,1.1
2024-12-11T0200,2380A,116.385,27.9647,抚州市,医学分院,,27,27,57,13,33,5,,,,44,20,5,8,1.1,0.9
2024-12-11T0200,2207A,121.6094,41.998,阜新市,工业园区,,33,33,51,8,20,47,,,,9,23,9,11,0.3,0.4
2024-12-11T0200,2208A,121.6697,42.0279,阜新市,长青街,,16,16,38,10,21,45,,,,10,18,7,7,0.5,0.6
2024-12-11T0200,2209A,121.6673,42.0705,阜新市,农业园区,,17,17,22,3,9,46,,,,9,12,8,9,0.8,0.7
2024-12-11T0200,2210A,121.6717,42.0224,阜新市,东苑,,19,19,40,6,13,53,,,,8,20,4,7,0.5,0.6
2024-12-11T0200,2211A,121.6506,42.0498,阜新市,玉龙新城,,22,22,54,11,28,42,,,,13,25,6,8,0.4,0.7
2024-12-11T0200,2301A,115.8277,32.8929,阜阳市,市监测站,,50,40,79,35,64,50,,,,19,32,6,8,0.5,0.6
2024-12-11T0200,2303A,115.8554,32.8605,阜阳市,开发区,,46,41,96,32,62,55,,,,14,30,8,9,0.5,0.6
2024-12-11T0200,2875A,115.784,32.8892,阜阳市,阜阳职业技术学院,,40,40,78,22,58,57,,,,14,31,8,9,0.5,0.6
2024-12-11T0200,3468A,115.7901,32.8613,阜阳市,市规划展馆,细颗粒物(PM2.5),57,43,80,40,61,60,,,,14,30,8,9,0.5,0.5
2024-12-11T0200,3469A,115.836,32.9183,阜阳市,枣园社区,细颗粒物(PM2.5),59,,84,42,65,54,,,,19,35,6,8,0.6,0.6
2024-12-11T0200,2669A,102.9099,34.9841,甘南藏族自治州,州政府,颗粒物(PM10),51,52,38,18,17,44,,,,20,17,6,7,0.7,0.7
2024-12-11T0200,3380A,102.8914,34.9617,甘南藏族自治州,甘肃民族师范学院,,50,45,20,35,22,32,,,,30,20,4,6,1.1,0.6
2024-12-11T0200,2570A,101.9603,30.0475,甘孜藏族自治州,水桥子,,15,8,10,3,5,46,,,,16,14,7,8,0.7,0.7
2024-12-11T0200,3065A,101.9533,29.9972,甘孜藏族自治州,州环保局,,,,11,,6,,,50,,,11,,4,,0.6
2024-12-11T0200,3414A,115.8347,28.932,赣江新区,桑海产业园,,23,,66,16,51,14,,,,31,44,7,11,0.8,0.8
2024-12-11T0200,2362A,114.9017,25.9149,赣州市,通天岩,细颗粒物(PM2.5),63,72,62,45,50,42,,,,14,16,5,4,0.5,0.5
2024-12-11T0200,2363A,114.9367,25.8664,赣州市,地委,细颗粒物(PM2.5),60,65,71,43,43,38,,,,19,30,17,9,0.9,1
2024-12-11T0200,2364A,114.9461,25.8481,赣州市,气象台,颗粒物(PM10),65,80,79,41,40,36,,,,28,40,15,14,0.9,1
2024-12-11T0200,2365A,114.9322,25.8333,赣州市,市图书馆,细颗粒物(PM2.5),68,70,72,49,44,36,,,,19,32,6,6,0.8,0.9
2024-12-11T0200,2366A,114.8905,25.8471,赣州市,华坚鞋城,"颗粒物(PM10),细颗粒物(PM2.5)",59,67,70,42,42,35,,,,13,25,7,7,0.8,0.8
2024-12-11T0200,3109A,115.0093,25.8613,赣州市,赣县区卫计委,细颗粒物(PM2.5),69,68,75,50,51,33,,,,19,31,5,6,0.5,0.6
2024-12-11T0200,2683A,106.2319,36.1417,固原市,马园,细颗粒物(PM2.5),73,55,119,53,54,50,,,,14,23,6,9,0.8,1.1
2024-12-11T0200,2684A,106.2792,36.0022,固原市,监测站,细颗粒物(PM2.5),54,40,55,38,56,56,,,,16,26,5,6,0.5,0.8
2024-12-11T0200,2685A,106.2375,36.0211,固原市,新区,细颗粒物(PM2.5),59,48,56,42,52,54,,,,16,26,3,5,0.4,0.7
2024-12-11T0200,3522A,106.2177,35.9959,固原市,原州区十五小,细颗粒物(PM2.5),69,53,70,50,59,55,,,,17,27,4,5,0.7,1
2024-12-11T0200,2543A,106.6308,30.5278,广安市,小平旧居,,,,,,,,,,,,,,,,
2024-12-11T0200,2544A,106.6303,30.4576,广安市,市委,细颗粒物(PM2.5),64,53,59,46,44,34,,,,14,21,3,4,0.6,0.6
2024-12-11T0200,2545A,106.6271,30.4663,广安市,友谊中学,细颗粒物(PM2.5),67,55,57,48,44,28,,,,17,22,2,3,0.6,0.7
2024-12-11T0200,2547A,106.6388,30.4551,广安市,广电花园,细颗粒物(PM2.5),65,52,58,47,44,29,,,,16,23,3,3,0.7,0.7
2024-12-11T0200,2902A,106.6351,30.4865,广安市,北辰小学,细颗粒物(PM2.5),65,48,55,47,42,24,,,,13,18,4,5,0.8,0.8
2024-12-11T0200,2523A,105.8945,32.4535,广元市,黑石坡,细颗粒物(PM2.5),65,,32,47,37,54,,,,13,13,4,5,0.5,0.4
2024-12-11T0200,2524A,105.821,32.4444,广元市,老城,颗粒物(PM10),55,60,55,35,36,38,,,,29,28,1,2,0.6,0.6
2024-12-11T0200,2526A,105.8628,32.4287,广元市,监测站,细颗粒物(PM2.5),53,50,52,37,41,13,,,,50,28,4,4,0.9,0.9
2024-12-11T0200,3617A,105.8047,32.4166,广元市,经开区,细颗粒物(PM2.5),60,53,48,43,40,35,,,,36,28,4,4,0.6,0.5
2024-12-11T0200,1345A,113.2347,23.1423,广州市,广雅中学,颗粒物(PM10),55,60,70,36,40,4,,,,80,73,9,9,0.9,0.8
2024-12-11T0200,1346A,113.2612,23.105,广州市,市五中,颗粒物(PM10),56,61,64,37,42,8,,,,59,52,7,6,1.0,1
2024-12-11T0200,1348A,113.3478,23.0916,广州市,广东商学院,颗粒物(PM10),54,58,61,36,37,16,,,,65,61,5,6,0.8,0.8
2024-12-11T0200,1349A,113.4332,23.1047,广州市,市八十六中,颗粒物(PM10),59,68,80,31,39,12,,,,62,75,6,7,0.8,0.9
2024-12-11T0200,1350A,113.3505,22.9483,广州市,番禺中学,"颗粒物(PM10),细颗粒物(PM2.5)",77,104,75,56,47,6,,,,97,68,8,8,1.2,0.9
2024-12-11T0200,1351A,113.2146,23.3916,广州市,花都师范,"颗粒物(PM10),细颗粒物(PM2.5)",54,57,63,38,38,44,,,,30,52,8,8,0.7,0.7
2024-12-11T0200,1352A,113.2597,23.1331,广州市,市监测站,颗粒物(PM10),55,59,60,34,31,7,,,,65,59,8,7,0.6,0.7
2024-12-11T0200,1353A,113.5618,23.312,广州市,九龙镇镇龙,细颗粒物(PM2.5),59,66,59,42,37,13,,,,50,39,9,7,0.9,0.8
2024-12-11T0200,1354A,113.2765,23.1544,广州市,麓湖,颗粒物(PM10),52,54,49,35,32,4,,,,64,51,6,6,0.7,0.8
2024-12-11T0200,1355A,113.443,23.3035,广州市,帽峰山森林公园,,38,30,34,26,21,39,,,,22,25,8,6,0.7,0.6
2024-12-11T0200,2846A,113.3221,23.1322,广州市,体育西,颗粒物(PM10),54,58,58,34,36,25,,,,35,41,4,5,0.8,0.8
2024-12-11T0200,3298A,113.5717,23.5491,广州市,从化街口,细颗粒物(PM2.5),64,70,66,46,42,2,,,,62,44,13,8,0.9,0.8
2024-12-11T0200,3299A,113.3472,23.3692,广州市,白云竹料,"颗粒物(PM10),细颗粒物(PM2.5)",53,55,62,37,40,23,,,,37,41,9,8,0.9,0.9
2024-12-11T0200,3300A,113.2981,23.237,广州市,白云嘉禾,颗粒物(PM10),64,77,73,36,35,23,,,,47,59,10,8,1.0,1
2024-12-11T0200,3301A,113.4256,23.1716,广州市,黄埔科学城,颗粒物(PM10),52,54,46,35,28,22,,,,43,36,7,7,0.9,0.9
2024-12-11T0200,3302A,113.3942,23.0483,广州市,番禺大学城,颗粒物(PM10),67,83,75,39,35,2,,,,87,62,9,11,0.8,0.7
2024-12-11T0200,3303A,113.4922,22.8168,广州市,南沙黄阁,颗粒物(PM10),70,90,81,45,44,3,,,,113,71,7,7,1.1,1
2024-12-11T0200,3304A,113.5342,22.7896,广州市,南沙街,颗粒物(PM10),62,73,68,40,38,4,,,,104,66,4,5,1.0,0.9
2024-12-11T0200,3443A,113.2902,23.5544,广州市,花都梯面,细颗粒物(PM2.5),55,56,44,39,33,22,,,,41,30,12,11,0.7,0.7
2024-12-11T0200,3445A,113.7858,23.7478,广州市,从化良口,,33,31,23,23,18,8,,,,34,17,6,6,0.7,0.7
2024-12-11T0200,3446A,113.8051,23.2614,广州市,增城荔城,细颗粒物(PM2.5),54,49,41,38,30,46,,,,23,23,5,5,0.6,0.6
2024-12-11T0200,2505A,109.568,23.1478,贵港市,德智高中,,,,,,,,,,,,,,,,
2024-12-11T0200,2506A,109.6047,23.0666,贵港市,江南子站,细颗粒物(PM2.5),149,156,99,114,61,7,,,,44,31,11,14,1.2,1
2024-12-11T0200,2507A,109.6014,23.0948,贵港市,贵城子站,细颗粒物(PM2.5),120,108,83,91,59,22,,,,39,28,9,13,1.1,1
2024-12-11T0200,2508A,109.5669,23.1065,贵港市,荷城子站,细颗粒物(PM2.5),122,119,88,92,57,15,,,,44,30,14,18,1.1,0.9
2024-12-11T0200,3405A,109.5886,23.1172,贵港市,新世纪学校,细颗粒物(PM2.5),123,129,94,93,60,15,,,,41,29,14,17,1.1,0.9
2024-12-11T0200,1439A,106.6899,26.5998,贵阳市,马鞍山,,12,12,6,3,2,21,,,,13,16,5,5,0.4,0.4
2024-12-11T0200,1440A,106.6971,26.5694,贵阳市,市环保站,,15,,5,10,8,22,,,,14,20,5,5,0.5,0.6
2024-12-11T0200,1441A,106.6243,26.6266,贵阳市,鉴湖路,,8,,11,3,7,20,,,,10,14,6,5,0.5,0.6
2024-12-11T0200,1442A,106.7487,26.6343,贵阳市,燕子冲,,10,,1,7,8,26,,,,9,15,7,6,0.5,0.6
2024-12-11T0200,1443A,106.6555,26.4365,贵阳市,碧云窝,,17,17,13,3,5,20,,,,14,22,7,7,0.6,0.6
2024-12-11T0200,1444A,106.694,26.5161,贵阳市,中院村,,12,12,8,3,5,23,,,,12,18,9,10,0.6,0.7
2024-12-11T0200,1445A,106.7109,26.6027,贵阳市,红边门,,,7,9,,8,20,,,,15,22,11,12,0.7,0.9
2024-12-11T0200,1446A,106.7164,26.5699,贵阳市,新华路,,9,7,7,3,3,27,,,,10,16,3,6,0.5,0.6
2024-12-11T0200,1447A,106.674,26.5424,贵阳市,太慈桥,,12,12,7,3,5,17,,,,15,19,6,6,0.5,0.7
2024-12-11T0200,1552A,106.805,26.3003,贵阳市,桐木岭,,18,14,17,12,9,30,,,,4,7,5,6,0.6,0.7
2024-12-11T0200,1862A,110.4144,25.3167,桂林市,电子科大尧山校区,,18,18,12,3,14,35,,,,12,11,4,5,0.7,0.9
2024-12-11T0200,1863A,110.2819,25.2697,桂林市,监测站,,18,14,17,12,13,28,,,,16,23,9,9,1.1,1.1
2024-12-11T0200,1864A,110.3089,25.2708,桂林市,龙隐路小学,,23,,15,16,29,33,,,,15,19,9,9,1.0,1.1
2024-12-11T0200,1865A,110.2869,25.2178,桂林市,八中,,22,15,18,15,20,28,,,,13,19,8,7,0.8,0.9
2024-12-11T0200,3403A,110.1764,25.2381,桂林市,创业大厦,,25,,15,17,15,27,,,,14,18,7,6,1.1,1.1
2024-12-11T0200,3531A,110.296,25.1253,桂林市,旅游学院,,,12,17,12,18,,,,,15,19,7,6,,1
2024-12-11T0200,2674A,100.2561,34.4714,果洛藏族自治州,玛沁县大武镇,颗粒物(PM10),54,58,54,24,18,81,,,,4,4,10,12,0.5,0.5
2024-12-11T0200,1129A,126.5422,45.755,哈尔滨市,岭北,,28,,70,19,65,46,,,,20,31,16,18,0,0.2
2024-12-11T0200,1130A,126.561,45.8167,哈尔滨市,松北商大,,38,,72,26,66,34,,,,19,37,16,11,0.6,0.9
2024-12-11T0200,1131A,126.979,45.5419,哈尔滨市,阿城会宁,,,,111,,100,,,27,,,42,,15,,1.1
2024-12-11T0200,1132A,126.599,45.7222,哈尔滨市,南岗学府路,,36,36,82,19,63,27,,,,25,38,20,13,0.3,0.6
2024-12-11T0200,1133A,126.689,45.7733,哈尔滨市,太平宏伟公园,,32,,69,22,60,32,,,,18,31,18,14,0.4,0.7
2024-12-11T0200,1134A,126.635,45.7667,哈尔滨市,道外承德广场,,28,28,81,16,57,35,,,,23,35,17,12,0.5,0.8
2024-12-11T0200,1135A,126.685,45.7319,哈尔滨市,香坊红旗大街,,27,27,62,10,37,38,,,,19,32,9,6,0.4,0.7
2024-12-11T0200,1136A,126.6411,45.7258,哈尔滨市,动力和平路,,27,27,78,17,63,33,,,,17,36,10,16,0.3,0.6
2024-12-11T0200,1137A,126.593,45.7478,哈尔滨市,道里建国路,,28,26,71,19,63,32,,,,23,35,16,18,0.7,1
2024-12-11T0200,1138A,126.615,45.61,哈尔滨市,平房东轻厂,,42,39,74,29,64,18,,,,35,44,8,14,0.5,0.7
2024-12-11T0200,1139A,126.595,45.9855,哈尔滨市,呼兰师专,,21,21,84,14,33,36,,,,19,33,7,10,0.5,0.8
2024-12-11T0200,1140A,126.6206,45.6842,哈尔滨市,省农科院,,40,30,102,28,87,11,,,,47,46,8,12,0.7,1
2024-12-11T0200,2688A,93.5128,42.8172,哈密市,地区监测站,颗粒物(PM10),68,85,68,48,40,9,,,,48,32,5,5,1.1,0.6
2024-12-11T0200,2689A,93.4961,42.8328,哈密市,哈密师范学校,细颗粒物(PM2.5),68,53,67,49,48,16,,,,41,35,6,7,0.9,0.7
2024-12-11T0200,2671A,100.9048,36.9639,海北藏族自治州,海晏县西海镇,细颗粒物(PM2.5),52,,48,36,38,64,,,,15,18,14,22,0.7,0.9
2024-12-11T0200,3867A,102.0738,36.5056,海东市,平安区公安北苑,细颗粒物(PM2.5),87,81,64,64,55,57,,,,24,23,18,18,0.8,0.7
2024-12-11T0200,1409A,110.576,19.9507,海口市,东寨港,,27,27,25,16,15,70,,,,3,3,13,12,0.6,0.6
2024-12-11T0200,1410A,110.3232,20.0574,海口市,海南大学,,42,42,38,15,15,87,,,,6,9,5,5,0.4,0.4
2024-12-11T0200,1411A,110.283,20.0053,海口市,秀英海南医院,,39,39,35,14,12,88,,,,6,9,4,4,0.3,0.3
2024-12-11T0200,1412A,110.338,19.9969,海口市,海南师范大学,,35,35,34,13,12,86,,,,5,11,4,4,0.4,0.4
2024-12-11T0200,1413A,110.33,20.0356,海口市,龙华路环保局宿舍,,37,37,33,13,12,88,,,,4,6,5,5,0.4,0.5
2024-12-11T0200,3539A,110.5111,19.9736,海口市,桂林洋子站,,38,38,30,12,12,82,,,,4,5,4,5,0.3,0.3
2024-12-11T0200,2673A,100.6188,36.2866,海南藏族自治州,共和县恰卜恰镇,,36,36,40,3,26,44,,,,15,10,7,11,0.5,0.6
2024-12-11T0200,2676A,97.3731,37.3753,海西蒙古族藏族自治州,德令哈市,,36,36,40,9,15,83,,,,3,12,14,17,0.4,0.5
2024-12-11T0200,1048A,114.5302,36.6116,邯郸市,东污水处理厂,细颗粒物(PM2.5),132,140,150,100,116,3,,,,76,63,12,9,1.3,1.4
2024-12-11T0200,1049A,114.4918,36.5713,邯郸市,矿院,细颗粒物(PM2.5),125,128,148,95,99,1,,,,74,60,8,6,1.1,1.1
2024-12-11T0200,1050A,114.484,36.6133,邯郸市,丛台公园,细颗粒物(PM2.5),149,154,152,114,115,3,,,,78,62,12,9,1.2,1.2
2024-12-11T0200,3458A,114.7895,36.5593,邯郸市,香泉濮院小区,细颗粒物(PM2.5),165,177,179,125,130,2,,,,74,62,13,12,1.3,1.2
2024-12-11T0200,3579A,114.50634,36.77178,邯郸市,永年区实验高中,细颗粒物(PM2.5),129,158,176,98,118,4,,,,75,64,12,12,1.1,1.5
2024-12-11T0200,3580A,114.20016,36.44293,邯郸市,峰峰矿区临水派出所,颗粒物(PM10),118,186,149,,101,2,,,,72,64,20,21,1.6,1.8
2024-12-11T0200,2634A,106.9893,33.1842,汉中市,汉川机床厂子校,细颗粒物(PM2.5),54,44,57,38,48,50,,,,9,13,6,6,0.5,0.5
2024-12-11T0200,2635A,107.0154,33.0706,汉中市,市监测站,细颗粒物(PM2.5),60,51,57,43,50,65,,,,15,22,6,6,0.7,0.8
2024-12-11T0200,2636A,107.0089,33.1138,汉中市,鑫源开发区,细颗粒物(PM2.5),67,,61,48,62,64,,,,15,27,5,6,0.5,0.7
2024-12-11T0200,2637A,107.007,33.0323,汉中市,南郑大河坎水厂,细颗粒物(PM2.5),63,56,65,45,53,62,,,,13,21,6,4,0.7,0.8
2024-12-11T0200,1223A,120.2072,30.2111,杭州市,滨江,,15,9,32,9,24,29,,,,30,52,7,7,0.6,0.6
2024-12-11T0200,1224A,120.0633,30.2747,杭州市,西溪,,17,9,40,7,24,26,,,,34,51,7,7,0.5,0.7
2024-12-11T0200,1226A,120.3461,30.3153,杭州市,下沙,,16,11,29,11,26,34,,,,30,57,5,5,0.6,0.6
2024-12-11T0200,1227A,120.1269,30.2456,杭州市,卧龙桥,,16,8,38,6,23,31,,,,32,50,6,7,0.6,0.6
2024-12-11T0200,1228A,120.1903,30.2692,杭州市,浙江农大,,16,9,30,8,20,27,,,,31,52,3,4,0.6,0.6
2024-12-11T0200,1230A,120.1197,30.3119,杭州市,和睦小学,,17,12,37,9,22,36,,,,34,56,4,5,0.6,0.6
2024-12-11T0200,1231A,120.3019,30.4183,杭州市,临平镇,,25,,39,17,35,44,,,,19,45,5,5,0.8,0.8
2024-12-11T0200,1232A,120.2697,30.1819,杭州市,城厢镇,,16,14,51,6,26,33,,,,31,57,5,6,0.4,0.5
2024-12-11T0200,1233A,120.0883,30.1808,杭州市,云栖,,17,6,37,3,25,31,,,,33,51,6,6,0.6,0.6
2024-12-11T0200,3557A,119.9464,30.0494,杭州市,镇二中,,13,6,37,3,35,24,,,,26,41,5,6,0.7,0.7
2024-12-11T0200,3558A,119.7183,30.2367,杭州市,市府大楼,,17,6,42,3,27,28,,,,34,49,6,6,0.6,0.6
2024-12-11T0200,3656A,120.1556,30.2864,杭州市,消防大队,,20,17,45,14,32,31,,,,30,53,7,7,0.5,0.5
2024-12-11T0200,1270A,117.1959,31.7848,合肥市,明珠广场,细颗粒物(PM2.5),70,58,62,51,46,46,,,,19,38,7,9,0.8,0.9
2024-12-11T0200,1271A,117.3072,31.8764,合肥市,三里街,细颗粒物(PM2.5),64,51,55,46,42,48,,,,18,36,6,8,0.2,0.2
2024-12-11T0200,1272A,117.2588,31.8707,合肥市,琥珀山庄,细颗粒物(PM2.5),72,53,55,52,46,55,,,,22,38,4,6,0.5,0.6
2024-12-11T0200,1273A,117.1604,31.9052,合肥市,董铺水库,,49,48,59,34,33,48,,,,16,29,4,5,0.5,0.5
2024-12-11T0200,1274A,117.25,31.8571,合肥市,长江中路,细颗粒物(PM2.5),73,,57,53,46,49,,,,21,36,6,8,0.7,0.8
2024-12-11T0200,1275A,117.266,31.9436,合肥市,庐阳区,细颗粒物(PM2.5),55,56,61,39,37,54,,,,21,36,3,5,0.7,0.7
2024-12-11T0200,1276A,117.336,31.8586,合肥市,瑶海区,细颗粒物(PM2.5),60,51,55,43,41,49,,,,27,39,4,9,0.4,0.8
2024-12-11T0200,1277A,117.3027,31.7964,合肥市,包河区,细颗粒物(PM2.5),64,53,62,46,42,47,,,,25,51,2,4,0.5,0.6
2024-12-11T0200,1278A,117.2776,31.7385,合肥市,滨湖新区,,49,44,62,34,38,41,,,,25,39,5,7,0.3,0.5
2024-12-11T0200,1279A,117.1318,31.8403,合肥市,高新区,细颗粒物(PM2.5),69,56,60,50,43,39,,,,26,40,3,3,0.6,0.7
2024-12-11T0200,3464A,117.3803,31.9147,合肥市,高教基地,细颗粒物(PM2.5),62,45,50,44,38,54,,,,24,36,6,8,0.5,0.5
2024-12-11T0200,3614A,79.924,37.0877,和田地区,地区环保局,颗粒物(PM10),103,155,128,44,44,44,,,,25,30,14,15,1.0,1.1
2024-12-11T0200,3615A,79.9131,37.113,和田地区,市环保局,颗粒物(PM10),78,106,101,37,43,44,,,,28,44,12,13,0.9,2.1
2024-12-11T0200,2516A,108.2011,24.715,河池市,东仁乐园,细颗粒物(PM2.5),102,,33,76,37,27,,,,4,16,8,8,0.8,0.9
2024-12-11T0200,2517A,108.0497,24.6947,河池市,市环保站,,9,8,32,3,18,26,,,,9,20,7,8,0.6,0.9
2024-12-11T0200,2518A,108.0983,24.6989,河池市,市疾控中心,,10,7,31,3,27,30,,,,10,24,10,9,0.6,0.8
2024-12-11T0200,1696A,114.6778,23.7569,河源市,源西,,32,,34,22,28,38,,,,16,24,5,5,0.5,0.5
2024-12-11T0200,1697A,114.6944,23.7586,河源市,东埔,,38,38,41,25,29,40,,,,19,22,4,4,0.6,0.7
2024-12-11T0200,1698A,114.6892,23.7233,河源市,老城,,38,34,38,26,29,13,,,,39,22,4,5,0.7,0.7
2024-12-11T0200,1718A,115.4208,35.2464,菏泽市,气象局,细颗粒物(PM2.5),186,189,143,140,97,7,,,,67,54,11,10,1.0,0.8
2024-12-11T0200,1719A,115.4747,35.2375,菏泽市,市政协,细颗粒物(PM2.5),188,195,138,141,95,12,,,,64,53,12,12,1.0,0.9
2024-12-11T0200,3374A,115.5564,35.0891,菏泽市,定陶老年大学,细颗粒物(PM2.5),170,175,130,129,92,10,,,,68,60,12,14,0.9,0.7
2024-12-11T0200,3647A,115.4702,35.2706,菏泽市,菏泽医专,细颗粒物(PM2.5),175,188,141,132,91,8,,,,70,58,16,16,1.1,1
2024-12-11T0200,2514A,111.5264,24.4172,贺州市,环保小区,细颗粒物(PM2.5),73,57,97,53,80,21,,,,19,26,5,6,0.9,0.9
2024-12-11T0200,2515A,111.5608,24.4078,贺州市,政协大楼,细颗粒物(PM2.5),68,74,104,49,72,21,,,,16,27,6,8,0.9,1
2024-12-11T0200,3534A,111.4744,24.4553,贺州市,西湾,细颗粒物(PM2.5),82,73,108,60,86,21,,,,18,21,5,6,0.9,1
2024-12-11T0200,2385A,114.17,35.9019,鹤壁市,市监测站,细颗粒物(PM2.5),192,211,167,144,116,0,,,,64,63,6,13,2.1,1.9
2024-12-11T0200,2386A,114.2956,35.7511,鹤壁市,市交警支队,细颗粒物(PM2.5),169,184,154,128,106,0,,,,59,52,3,5,1.3,1.2
2024-12-11T0200,2387A,114.2878,35.7306,鹤壁市,迎宾馆,细颗粒物(PM2.5),150,173,156,115,98,0,,,,62,50,6,9,0.9,0.9
2024-12-11T0200,3474A,114.2617,35.6822,鹤壁市,大新区,细颗粒物(PM2.5),188,150,140,141,114,2,,,,74,61,9,9,1.0,1
2024-12-11T0200,3596A,114.1572,35.9603,鹤壁市,南山宾馆,细颗粒物(PM2.5),190,198,166,143,123,4,,,,61,51,8,11,1.6,1.8
2024-12-11T0200,2244A,130.2537,47.3416,鹤岗市,哈啤分公司,,33,,28,23,24,46,,,,3,9,14,15,0.5,0.6
2024-12-11T0200,2245A,130.2684,47.3086,鹤岗市,斯达机电,,29,26,34,20,23,52,,,,7,16,13,15,0.3,0.5
2024-12-11T0200,2246A,130.3114,47.3388,鹤岗市,东山纸板厂,,39,,14,27,28,50,,,,8,21,12,13,0.5,0.6
2024-12-11T0200,2247A,130.1097,47.3382,鹤岗市,五号水库,,22,21,23,15,15,64,,,,5,6,8,8,0.4,0.4
2024-12-11T0200,2263A,127.4833,50.2524,黑河市,交通局,,20,15,26,14,21,54,,,,5,22,6,7,0.4,0.5
2024-12-11T0200,2264A,127.5144,50.2341,黑河市,环保局,,25,,24,17,24,54,,,,3,21,5,5,0.1,0.3
2024-12-11T0200,2265A,127.5291,50.2472,黑河市,大黑河岛,,,5,22,,,5,,,,8,9,2,2,0.7,0.8
2024-12-11T0200,1074A,115.6838,37.7541,衡水市,电机北厂,细颗粒物(PM2.5),94,115,141,70,93,2,,,,65,69,18,10,0.8,1
2024-12-11T0200,1075A,115.6303,37.7316,衡水市,市监测站,细颗粒物(PM2.5),88,99,126,65,86,2,,,,72,70,9,7,0.8,1
2024-12-11T0200,3188A,115.6683,37.7217,衡水市,市城管局,细颗粒物(PM2.5),82,100,114,60,74,4,,,,74,66,11,8,0.9,1
2024-12-11T0200,3459A,115.5989,37.5491,衡水市,地表水厂,细颗粒物(PM2.5),77,79,116,56,92,5,,,,66,68,10,12,0.9,1
2024-12-11T0200,2456A,112.5003,26.9167,衡阳市,原169医院,,28,,44,19,39,17,,,,14,21,2,2,0.7,0.8
2024-12-11T0200,2457A,112.6194,26.9258,衡阳市,衡阳化工总厂,,16,11,60,11,52,32,,,,16,22,9,15,0.7,0.9
2024-12-11T0200,2458A,112.6211,26.8956,衡阳市,珠晖区环保局,,28,,50,19,53,35,,,,15,23,6,9,0.8,0.9
2024-12-11T0200,2459A,112.6197,26.8733,衡阳市,市委党校,,20,16,50,14,47,33,,,,21,30,7,10,0.8,0.9
2024-12-11T0200,2460A,112.6006,26.8919,衡阳市,市监测站,,21,21,76,12,60,33,,,,15,23,5,9,0.7,0.9
2024-12-11T0200,2461A,112.5664,26.9056,衡阳市,真空机电公司,,35,,45,24,54,33,,,,18,27,3,5,0.5,0.7
2024-12-11T0200,3399A,112.6703,26.882,衡阳市,师范学院,,20,18,60,14,43,34,,,,20,26,8,10,0.7,0.9
2024-12-11T0200,2608A,103.3772,23.3993,红河哈尼族彝族自治州,污水处理厂,,33,,25,23,21,54,,,,6,8,7,7,0.5,0.5
2024-12-11T0200,2609A,103.3861,23.35,红河哈尼族彝族自治州,监测站,,43,,34,30,26,52,,,,8,8,10,12,0.7,0.6
2024-12-11T0200,3038A,103.3758,23.368,红河哈尼族彝族自治州,州图书馆,,30,,21,21,17,51,,,,6,9,6,6,0.5,0.5
2024-12-11T0200,1090A,111.6507,40.7517,呼和浩特市,呼市一监,,39,39,78,21,37,22,,,,36,42,10,12,0.6,0.9
2024-12-11T0200,1091A,111.6572,40.8033,呼和浩特市,小召,,19,17,51,13,25,51,,,,25,46,13,13,0.3,0.8
2024-12-11T0200,1094A,111.7516,40.8369,呼和浩特市,如意水处理厂,,20,20,39,10,19,53,,,,11,37,12,10,0.3,0.7
2024-12-11T0200,1095A,111.7276,40.8062,呼和浩特市,二十九中,,40,40,49,15,21,38,,,,31,47,10,10,0.5,0.8
2024-12-11T0200,1096A,111.5512,40.7866,呼和浩特市,工大金川校区,,22,22,71,10,39,54,,,,16,49,7,18,0.5,1
2024-12-11T0200,1097A,111.717,40.7612,呼和浩特市,化肥厂生活区,,40,40,83,18,36,21,,,,36,43,10,10,0.6,0.9
2024-12-11T0200,3698A,111.5968,40.8178,呼和浩特市,红旗小学,,22,,52,15,26,57,,,,12,42,7,16,0.2,0.7
2024-12-11T0200,3699A,111.6518,40.8389,呼和浩特市,海东办,,20,,40,14,20,51,,,,19,44,9,9,0.4,0.7
2024-12-11T0200,2192A,119.7594,49.2261,呼伦贝尔市,区环保局,,28,25,24,19,20,61,,,,6,9,5,8,0.3,0.4
2024-12-11T0200,3061A,119.7512,49.1577,呼伦贝尔市,国华电力东,,26,24,25,18,18,62,,,,4,7,3,5,0.2,0.3
2024-12-11T0200,1250A,120.0751,30.8669,湖州市,城西水厂,,27,27,34,18,21,55,,,,23,37,6,6,0.8,0.6
2024-12-11T0200,2873A,120.0875,30.8955,湖州市,仁皇山新区,,32,26,38,22,27,57,,,,21,43,6,7,0.9,0.7
2024-12-11T0200,2907A,120.1844,30.8596,湖州市,吴兴区站,,40,40,48,23,28,50,,,,26,46,6,6,0.7,0.5
2024-12-11T0200,3562A,120.4148,30.8538,湖州市,南浔区站,,32,32,40,21,26,43,,,,24,43,4,5,0.4,0.4
2024-12-11T0200,1607A,120.9092,40.7136,葫芦岛市,龙港区,,44,44,61,16,27,44,,,,16,40,18,36,0.3,0.8
2024-12-11T0200,1608A,120.8392,40.7514,葫芦岛市,化工街,颗粒物(PM10),53,56,58,9,24,48,,,,15,48,23,29,0.5,0.8
2024-12-11T0200,1609A,120.8341,40.7073,葫芦岛市,新区,,22,22,42,9,20,49,,,,6,29,16,18,0.4,0.7
2024-12-11T0200,1610A,120.8695,40.7677,葫芦岛市,东城区,,19,19,43,11,25,46,,,,6,26,10,17,0.5,0.8
2024-12-11T0200,2482A,109.5981,27.5721,怀化市,林科所,,16,,9,8,10,49,,,,12,14,12,5,0.5,0.6
2024-12-11T0200,2483A,109.9453,27.5444,怀化市,河西地税局,,15,13,15,9,11,48,,,,7,12,5,5,0.5,0.6
2024-12-11T0200,2484A,109.9781,27.5342,怀化市,市四医院,,16,,14,11,12,44,,,,10,14,8,9,0.6,0.7
2024-12-11T0200,2485A,109.9972,27.5578,怀化市,监测楼,,18,14,13,12,11,40,,,,12,15,3,2,0.5,0.6
2024-12-11T0200,2486A,110.0394,27.583,怀化市,市委党校,,19,,15,13,12,42,,,,10,13,4,4,0.4,0.4
2024-12-11T0200,1210A,119.036,33.5981,淮安市,钵池山,细颗粒物(PM2.5),68,,75,49,61,62,,,,16,42,5,7,0.5,0.7
2024-12-11T0200,1211A,119.007,33.575,淮安市,北京南路,细颗粒物(PM2.5),58,41,68,41,52,64,,,,14,35,10,10,0.9,1
2024-12-11T0200,1212A,118.989,33.6067,淮安市,市监测站,细颗粒物(PM2.5),55,,78,39,63,67,,,,14,38,6,8,0.4,0.7
2024-12-11T0200,1213A,119.135,33.5039,淮安市,楚州区监测站,细颗粒物(PM2.5),57,49,76,40,55,62,,,,17,37,6,8,0.5,0.6
2024-12-11T0200,1214A,119.0186,33.6297,淮安市,淮阴区监测站,细颗粒物(PM2.5),64,46,89,46,61,68,,,,16,44,6,8,0.5,0.7
2024-12-11T0200,3426A,118.8755,33.2894,淮安市,新华书店,细颗粒物(PM2.5),73,54,80,53,59,55,,,,32,48,8,10,0.7,0.7
2024-12-11T0200,2282A,116.8004,33.975,淮北市,监测站,细颗粒物(PM2.5),125,144,122,95,83,13,,,,58,55,14,11,0.9,0.9
2024-12-11T0200,2283A,116.8091,33.9007,淮北市,烈山区政府,细颗粒物(PM2.5),120,128,112,91,76,15,,,,65,55,14,10,0.9,0.7
2024-12-11T0200,3330A,116.8873,33.9836,淮北市,杜集区检察院,细颗粒物(PM2.5),144,154,127,110,85,1,,,,62,53,7,8,0.9,0.7
2024-12-11T0200,4017A,116.7923,33.9535,淮北市,市博物馆,细颗粒物(PM2.5),115,134,116,87,78,18,,,,58,60,15,11,1.0,1
2024-12-11T0200,2277A,116.8305,32.7727,淮南市,潘集区政府,细颗粒物(PM2.5),108,97,101,81,76,28,,,,38,41,8,9,0.7,0.6
2024-12-11T0200,2278A,117.0067,32.6524,淮南市,师范学院,细颗粒物(PM2.5),104,89,96,78,66,33,,,,29,38,4,6,0.7,0.7
2024-12-11T0200,2279A,116.8569,32.5951,淮南市,谢家集区政府,细颗粒物(PM2.5),88,77,87,65,55,36,,,,28,36,11,12,0.7,0.6
2024-12-11T0200,2280A,116.8281,32.633,淮南市,八公山区政府,,,,81,,57,,,31,,,36,,10,,0.6
2024-12-11T0200,2281A,116.6325,32.6201,淮南市,焦岗湖风景区管理处,细颗粒物(PM2.5),57,54,69,40,53,17,,,,28,43,7,8,0.4,0.3
2024-12-11T0200,2894A,117.0566,32.6531,淮南市,经济技术开发区消防队,细颗粒物(PM2.5),89,66,87,66,57,40,,,,26,33,6,7,0.7,0.5
2024-12-11T0200,3329A,117.0108,32.5893,淮南市,山南新区,细颗粒物(PM2.5),87,74,83,64,58,40,,,,17,28,4,3,0.7,0.4
2024-12-11T0200,2446A,114.9028,30.4742,黄冈市,职工中心,细颗粒物(PM2.5),74,60,78,54,61,18,,,,25,31,9,11,0.9,0.8
2024-12-11T0200,2929A,114.8858,30.4519,黄冈市,红卫路,细颗粒物(PM2.5),68,57,70,49,55,19,,,,30,36,5,7,0.8,0.8
2024-12-11T0200,3398A,114.9136,30.4445,黄冈市,市林业局,细颗粒物(PM2.5),60,49,68,43,55,25,,,,16,27,7,9,0.7,0.7
2024-12-11T0200,2672A,102.0199,35.5102,黄南藏族自治州,同仁县隆务镇,细颗粒物(PM2.5),107,,62,80,58,47,,,,12,17,7,9,0.9,0.9
2024-12-11T0200,2295A,118.2903,29.6963,黄山市,延安路89号,,15,9,33,3,26,8,,,,29,19,7,8,0.4,0.4
2024-12-11T0200,2296A,118.327,29.7178,黄山市,黄山东路89号,,20,20,48,3,31,7,,,,26,18,5,6,0.4,0.4
2024-12-11T0200,2297A,118.1371,30.2756,黄山市,黄山区政府5号楼,,20,,39,14,29,28,,,,27,30,8,8,0.7,0.5
2024-12-11T0200,2423A,115.0601,30.2313,黄石市,沈家营,颗粒物(PM10),53,55,71,36,48,24,,,,26,33,7,10,0.7,0.8
2024-12-11T0200,2424A,115.0817,30.2006,黄石市,陈家湾,细颗粒物(PM2.5),60,,68,43,57,27,,,,21,31,6,10,0.6,0.6
2024-12-11T0200,2426A,114.8988,30.2019,黄石市,铁山,细颗粒物(PM2.5),77,,57,56,53,21,,,,25,30,8,11,1.0,0.5
2024-12-11T0200,2427A,115.0307,30.2092,黄石市,团城山,细颗粒物(PM2.5),68,56,67,49,51,19,,,,26,31,6,9,0.7,0.7
2024-12-11T0200,3149A,115.0235,30.1578,黄石市,笔架山北路,细颗粒物(PM2.5),60,48,56,43,46,20,,,,31,34,4,8,1.0,0.9
2024-12-11T0200,1392A,114.4183,23.0528,惠州市,河南岸金山湖子站,颗粒物(PM10),54,58,46,30,28,51,,,,22,20,7,8,0.5,0.5
2024-12-11T0200,1393A,114.4053,23.0822,惠州市,下埔横江三路子站,颗粒物(PM10),51,52,47,27,27,69,,,,20,22,8,8,0.5,0.5
2024-12-11T0200,1394A,114.4103,23.1142,惠州市,江北云山西路子站,颗粒物(PM10),57,64,43,33,25,65,,,,24,20,10,9,0.7,0.7
2024-12-11T0200,1395A,114.4645,22.7833,惠州市,惠阳区承修路船湖子站,颗粒物(PM10),53,56,51,23,23,41,,,,31,23,8,10,0.5,0.5
2024-12-11T0200,1396A,114.5317,22.7422,惠州市,大亚湾管委会子站,,39,39,44,17,22,67,,,,24,27,8,9,0.6,0.7
2024-12-11T0200,3314A,114.4338,22.8134,惠州市,惠阳秋长,,46,46,43,22,23,44,,,,32,27,8,8,0.5,0.6
2024-12-11T0200,3452A,114.6517,22.775,惠州市,大亚湾霞涌,,30,30,39,20,25,38,,,,22,20,7,8,0.4,0.5
2024-12-11T0200,2240A,130.9762,45.3001,鸡西市,环保局,,27,27,37,12,28,44,,,,7,7,5,7,0.5,0.6
2024-12-11T0200,2243A,130.9429,45.3039,鸡西市,第一中学,,32,24,36,22,26,57,,,,4,10,5,6,0.4,0.5
2024-12-11T0200,3707A,131.0207,45.3073,鸡西市,欧美日汽修厂,,32,32,51,22,46,53,,,,11,24,16,24,0.3,1.1
2024-12-11T0200,3709A,130.9967,45.3106,鸡西市,市政设施管理处,,34,34,45,20,31,49,,,,11,22,7,5,0.6,0.7
2024-12-11T0200,2367A,114.9754,27.0803,吉安市,红声器材厂,细颗粒物(PM2.5),72,74,76,52,46,11,,,,50,40,14,18,0.8,0.7
2024-12-11T0200,2368A,114.9658,27.0999,吉安市,市森林工业局,细颗粒物(PM2.5),73,73,72,53,47,16,,,,52,42,18,19,0.4,0.4
2024-12-11T0200,2369A,114.99,27.1312,吉安市,市环境监测站,细颗粒物(PM2.5),75,74,70,55,48,14,,,,48,38,18,22,0.9,0.7
2024-12-11T0200,2370A,115.0093,27.0968,吉安市,青原区法院,细颗粒物(PM2.5),74,78,71,54,45,9,,,,52,39,12,18,0.9,0.7
2024-12-11T0200,1772A,126.54,43.8622,吉林市,哈达湾,,42,40,45,29,31,38,,,,24,27,8,9,0.6,0.7
2024-12-11T0200,1773A,126.5844,43.8358,吉林市,东局子,,40,40,49,28,33,38,,,,21,27,7,8,0.6,0.8
2024-12-11T0200,1774A,126.5052,43.8245,吉林市,电力学院,,43,,66,30,55,38,,,,18,33,9,11,0.7,1.1
2024-12-11T0200,1775A,126.6133,43.8972,吉林市,江北,细颗粒物(PM2.5),63,68,53,45,35,24,,,,40,31,11,12,0.7,0.8
2024-12-11T0200,1776A,126.555,43.8306,吉林市,江南公园,,40,38,49,28,35,36,,,,24,29,10,11,0.6,0.8
2024-12-11T0200,1778A,126.7061,43.7133,吉林市,丰满,,36,28,33,25,29,41,,,,16,15,10,11,0.4,0.5
2024-12-11T0200,2868A,126.4739,43.953,吉林市,九站,细颗粒物(PM2.5),58,46,54,41,40,24,,,,33,32,6,9,0.7,0.8
2024-12-11T0200,1299A,116.9862,36.6114,济南市,科干所,细颗粒物(PM2.5),132,132,120,100,78,8,,,,77,66,11,12,0.9,0.8
2024-12-11T0200,1300A,116.9376,36.665,济南市,农科所,细颗粒物(PM2.5),119,166,143,90,76,8,,,,79,68,14,14,1.2,1.2
2024-12-11T0200,1301A,117.1265,36.6734,济南市,开发区,细颗粒物(PM2.5),147,156,128,112,87,8,,,,74,67,10,11,1.0,0.9
2024-12-11T0200,1303A,117.0624,36.6868,济南市,省种子仓库,细颗粒物(PM2.5),134,149,139,102,82,7,,,,78,62,13,10,1.0,0.9
2024-12-11T0200,1304A,116.9489,36.6447,济南市,机床二厂,细颗粒物(PM2.5),123,142,139,93,82,10,,,,78,63,16,20,1.2,1.3
2024-12-11T0200,1305A,117.0495,36.663,济南市,市监测站,细颗粒物(PM2.5),125,139,128,95,78,9,,,,81,65,12,11,0.9,0.9
2024-12-11T0200,1306A,116.7675,36.5484,济南市,长清党校,细颗粒物(PM2.5),140,164,126,107,87,8,,,,83,67,21,15,1.0,0.9
2024-12-11T0200,1616A,117.6795,36.229,济南市,技术学院,细颗粒物(PM2.5),160,161,111,122,81,5,,,,93,59,24,15,1.4,1.1
2024-12-11T0200,1961A,117.532,36.6868,济南市,东山小学,细颗粒物(PM2.5),158,186,145,120,92,10,,,,67,59,12,14,1.2,1
2024-12-11T0200,3059A,117.7161,36.2049,济南市,泰兴公司,细颗粒物(PM2.5),156,163,122,119,82,8,,,,86,57,22,16,1.2,0.9
2024-12-11T0200,3064A,117.6867,36.2171,济南市,莱芜战役纪念馆,细颗粒物(PM2.5),153,168,124,117,83,10,,,,90,57,21,14,1.3,1
2024-12-11T0200,3494A,117.1673,36.9782,济南市,济阳区政府,细颗粒物(PM2.5),138,142,136,105,91,7,,,,84,71,15,15,1.3,0.9
2024-12-11T0200,3495A,117.1171,36.63,济南市,锦屏中学,细颗粒物(PM2.5),129,127,106,98,76,12,,,,59,52,6,9,0.8,0.7
2024-12-11T0200,3682A,116.9814,36.6819,济南市,济南四建,细颗粒物(PM2.5),129,151,131,98,82,4,,,,85,71,14,13,1.0,1.1
2024-12-11T0200,1653A,116.6251,35.4302,济宁市,火炬城,细颗粒物(PM2.5),113,121,105,85,79,8,,,,66,64,11,13,1.0,1
2024-12-11T0200,1655A,116.5491,35.4042,济宁市,电化厂,细颗粒物(PM2.5),119,127,133,90,86,4,,,,69,69,16,16,1.1,1.1
2024-12-11T0200,3500A,116.5814,35.3707,济宁市,北湖一中,细颗粒物(PM2.5),100,124,99,75,68,6,,,,71,67,12,11,0.9,0.8
2024-12-11T0200,3501A,116.8249,35.5593,济宁市,服务中心,细颗粒物(PM2.5),107,144,142,80,84,6,,,,65,63,14,16,0.7,1
2024-12-11T0200,3678A,116.5907,35.4054,济宁市,市第七中学,细颗粒物(PM2.5),110,126,100,83,74,9,,,,66,62,10,10,1.1,1.1
2024-12-11T0200,2255A,130.2751,46.8028,佳木斯市,佳纺,,50,44,51,35,45,53,,,,11,20,17,13,0.6,0.7
2024-12-11T0200,2256A,130.3995,46.8307,佳木斯市,发电厂,,46,37,40,32,42,52,,,,9,19,6,7,0.5,0.6
2024-12-11T0200,2257A,130.3258,46.7975,佳木斯市,环保局,,46,38,47,32,43,51,,,,11,25,9,12,0.6,0.6
2024-12-11T0200,2258A,130.3648,46.8032,佳木斯市,十一中,细颗粒物(PM2.5),53,,42,37,40,55,,,,12,26,7,10,0.4,0.5
2024-12-11T0200,2259A,130.3794,46.7588,佳木斯市,四丰,,35,25,48,24,34,57,,,,5,11,1,1,0.3,0.5
2024-12-11T0200,1252A,120.7436,30.778,嘉兴市,清河小学,,17,17,33,10,17,51,,,,20,47,5,5,0.5,0.5
2024-12-11T0200,1253A,120.726,30.7478,嘉兴市,嘉兴学院,,22,21,41,15,26,46,,,,22,48,5,5,0.5,0.5
2024-12-11T0200,2872A,120.7846,30.7525,嘉兴市,南湖区残联,,26,26,36,18,25,48,,,,20,44,6,7,0.5,0.5
2024-12-11T0200,3407A,120.6916,30.7739,嘉兴市,秀洲住建,,32,22,32,22,26,47,,,,23,46,9,9,0.5,0.4
2024-12-11T0200,1945A,98.2908,39.7711,嘉峪关市,气象局,,36,36,46,22,31,60,,,,16,20,3,6,0.5,0.5
2024-12-11T0200,2884A,98.2672,39.7978,嘉峪关市,酒钢宾馆,,46,46,53,27,33,56,,,,17,25,15,18,0.6,0.7
2024-12-11T0200,3248A,98.2643,39.7724,嘉峪关市,雄关区,,36,35,45,25,29,60,,,,21,29,5,8,0.3,0.5
2024-12-11T0200,1383A,113.1064,22.6058,江门市,北街,颗粒物(PM10),68,86,90,45,57,5,,,,92,78,11,11,0.8,0.9
2024-12-11T0200,1384A,113.0731,22.5835,江门市,西区,颗粒物(PM10),72,93,109,43,57,10,,,,84,95,12,13,0.8,1
2024-12-11T0200,1385A,113.0219,22.5311,江门市,圭峰西,颗粒物(PM10),65,79,78,43,54,28,,,,54,51,6,6,0.7,0.8
2024-12-11T0200,1386A,113.0828,22.5947,江门市,东湖,颗粒物(PM10),64,78,91,35,47,9,,,,69,70,10,10,0.8,1
2024-12-11T0200,3311A,113.1075,22.5647,江门市,江海富民,细颗粒物(PM2.5),90,108,107,67,61,9,,,,94,79,12,12,0.8,0.9
2024-12-11T0200,3449A,113.05,22.4667,江门市,新会银湖,细颗粒物(PM2.5),79,99,79,58,61,5,,,,84,63,8,8,0.9,0.9
2024-12-11T0200,1828A,113.227,35.2125,焦作市,市环保局,细颗粒物(PM2.5),163,168,131,124,93,4,,,,66,46,8,12,1.2,0.8
2024-12-11T0200,1830A,113.1992,35.2590,焦作市,影视城,细颗粒物(PM2.5),102,81,95,76,69,33,,,,28,29,9,12,1.0,0.9
2024-12-11T0200,3169A,113.2725,35.2067,焦作市,太极体育中心,细颗粒物(PM2.5),156,168,138,119,89,2,,,,68,55,11,19,1.3,1.1
2024-12-11T0200,3335A,113.3137,35.2641,焦作市,马村街道办,细颗粒物(PM2.5),160,165,129,122,96,3,,,,54,42,13,16,1.7,1
2024-12-11T0200,3336A,113.2465,35.2373,焦作市,焦作技师学院,细颗粒物(PM2.5),163,189,134,124,91,2,,,,48,34,18,18,1.7,1.1
2024-12-11T0200,3477A,113.1656,35.2539,焦作市,中站许衡医院,细颗粒物(PM2.5),129,132,109,98,80,6,,,,62,41,7,10,1.1,0.7
2024-12-11T0200,3981A,113.2449,35.1803,焦作市,原李万街道办,细颗粒物(PM2.5),180,200,144,136,95,6,,,,66,51,14,15,1.1,1
2024-12-11T0200,1708A,116.3701,23.5345,揭阳市,新兴,,36,35,47,25,30,77,,,,14,23,9,11,0.4,0.5
2024-12-11T0200,1709A,116.3264,23.5443,揭阳市,西马,,36,36,54,23,31,76,,,,13,19,11,11,0.5,0.6
2024-12-11T0200,1710A,116.3611,23.5626,揭阳市,东兴,,40,40,54,24,29,77,,,,14,21,10,12,0.7,0.8
2024-12-11T0200,1711A,116.4151,23.5294,揭阳市,渔湖,,31,31,46,15,23,80,,,,14,23,11,13,0.5,0.6
2024-12-11T0200,3320A,116.403,23.5699,揭阳市,曲溪,,37,37,47,15,29,61,,,,29,25,7,9,0.6,0.7
2024-12-11T0200,1944A,102.1692,38.5167,金昌市,天庆家园,细颗粒物(PM2.5),54,,26,38,30,53,,,,14,9,8,12,1.1,0.8
2024-12-11T0200,3170A,102.1864,38.5253,金昌市,市委党校,细颗粒物(PM2.5),54,51,43,38,26,60,,,,13,10,8,10,0.8,0.6
2024-12-11T0200,4022A,102.1647,38.5371,金昌市,金川区人防中心,细颗粒物(PM2.5),65,49,35,47,26,45,,,,16,8,10,10,1.2,0.7
2024-12-11T0200,1262A,119.647,29.077,金华市,十五中,,36,36,73,25,51,2,,,,56,57,4,4,0.7,0.8
2024-12-11T0200,1263A,119.686,29.1029,金华市,监测站,,35,33,78,24,50,0,,,,56,56,4,5,0.8,0.8
2024-12-11T0200,3659A,119.656,29.1131,金华市,气象局,,40,38,74,28,52,0,,,,55,58,4,5,0.9,0.9
2024-12-11T0200,1767A,121.1115,41.0879,锦州市,南山,,17,12,31,9,21,52,,,,4,20,14,14,0.5,0.7
2024-12-11T0200,1768A,121.0533,40.8434,锦州市,开发区,颗粒物(PM10),51,51,55,21,33,27,,,,23,35,20,24,1.2,0.9
2024-12-11T0200,1769A,121.1836,41.1119,锦州市,百股街道,,20,20,51,7,35,43,,,,9,29,14,25,0.5,0.9
2024-12-11T0200,1770A,121.1178,41.1222,锦州市,天安街道,,18,17,38,12,23,45,,,,10,25,12,18,0.5,0.8
2024-12-11T0200,1771A,121.1303,41.1386,锦州市,北湖公园,,16,16,36,11,22,45,,,,6,19,12,18,0.4,0.6
2024-12-11T0200,2160A,112.85,35.5051,晋城市,自来水公司,细颗粒物(PM2.5),85,73,81,63,66,26,,,,41,39,5,12,0.9,1.1
2024-12-11T0200,2161A,112.8318,35.4936,晋城市,白云商贸,细颗粒物(PM2.5),83,,89,61,58,31,,,,40,40,4,8,1.2,1.1
2024-12-11T0200,2162A,112.8508,35.4887,晋城市,市环保局,细颗粒物(PM2.5),85,77,100,63,65,32,,,,38,39,4,9,1.4,1.2
2024-12-11T0200,2163A,112.8676,35.4897,晋城市,技术学院,细颗粒物(PM2.5),85,72,97,63,69,31,,,,41,42,4,12,1.0,1.1
2024-12-11T0200,2165A,112.8453,35.546,晋城市,白马寺,"颗粒物(PM10),细颗粒物(PM2.5)",69,88,84,50,61,24,,,,34,34,9,15,0.9,1.2
2024-12-11T0200,3620A,112.8271,35.4828,晋城市,泽州一中,细颗粒物(PM2.5),94,,82,70,62,33,,,,34,37,4,10,1.5,1
2024-12-11T0200,2171A,112.7532,37.6945,晋中市,锦纶小区,颗粒物(PM10),76,102,95,51,44,4,,,,66,56,14,12,0.8,0.7
2024-12-11T0200,2173A,112.7249,37.7067,晋中市,南都小区,细颗粒物(PM2.5),105,116,92,79,50,8,,,,56,57,22,15,1.4,0.9
2024-12-11T0200,2174A,112.6991,37.6982,晋中市,榆次区政府,细颗粒物(PM2.5),74,92,93,54,43,8,,,,53,55,13,13,1.1,0.8
2024-12-11T0200,2865A,112.7195,37.6828,晋中市,榆次三中,细颗粒物(PM2.5),77,97,96,56,44,3,,,,63,52,17,15,1.1,0.9
2024-12-11T0200,2439A,112.2014,31.0481,荆门市,竹园小学,细颗粒物(PM2.5),75,78,91,55,59,37,,,,29,31,14,13,0.4,0.6
2024-12-11T0200,2440A,112.1969,30.9891,荆门市,掇刀,,,,84,,59,,,35,,,32,,9,,0.6
2024-12-11T0200,2441A,112.2213,31.0386,荆门市,石化一小,细颗粒物(PM2.5),83,83,94,61,59,37,,,,27,31,9,9,0.5,0.6
2024-12-11T0200,3012A,112.1849,31.0362,荆门市,西山林语,细颗粒物(PM2.5),69,78,83,50,56,42,,,,26,25,9,8,0.4,0.5
2024-12-11T0200,3547A,112.1632,31.0138,荆门市,龙泉中学南校,细颗粒物(PM2.5),82,81,78,60,59,45,,,,28,30,12,12,0.6,0.7
2024-12-11T0200,1844A,112.2494,30.3197,荆州市,市图书馆,细颗粒物(PM2.5),87,67,63,64,62,40,,,,28,34,6,6,0.6,0.7
2024-12-11T0200,1845A,112.2008,30.3544,荆州市,市委党校,细颗粒物(PM2.5),85,,67,63,61,38,,,,28,34,4,5,0.6,0.6
2024-12-11T0200,3194A,112.2747,30.3122,荆州市,管委会,细颗粒物(PM2.5),83,,62,61,60,41,,,,22,25,4,4,0.6,0.6
2024-12-11T0200,3548A,112.1655,30.3364,荆州市,学苑路,颗粒物(PM10),67,84,81,47,56,45,,,,26,33,8,9,0.7,0.8
2024-12-11T0200,2342A,117.3102,29.3867,景德镇市,王港中学,,,,,,,,,,,,,,,,
2024-12-11T0200,2343A,117.2117,29.2933,景德镇市,老干部活动中心,,18,,27,12,27,3,,,,27,15,7,7,0.7,0.5
2024-12-11T0200,2344A,117.1894,29.2789,景德镇市,兽医站,,19,19,37,11,20,5,,,,34,13,6,7,0.6,0.3
2024-12-11T0200,2345A,117.1547,29.2617,景德镇市,台达陶瓷,,23,,31,16,23,2,,,,34,14,6,4,0.8,0.5
2024-12-11T0200,2346A,117.2461,29.2956,景德镇市,陶研所,,13,9,28,9,17,10,,,,20,14,4,5,0.8,0.6
2024-12-11T0200,1803A,115.9872,29.6815,九江市,十里,,16,12,55,11,42,33,,,,31,47,5,7,0.8,0.9
2024-12-11T0200,1804A,115.9584,29.7046,九江市,茅山头,,15,,60,10,40,33,,,,27,42,11,12,0.9,0.9
2024-12-11T0200,1805A,115.9877,29.7295,九江市,西园,,13,10,56,9,45,38,,,,25,39,5,7,0.7,0.8
2024-12-11T0200,1806A,116.0172,29.6547,九江市,五七二七厂,,33,,68,23,57,32,,,,28,43,5,6,1.0,1.1
2024-12-11T0200,1808A,115.9114,29.6038,九江市,综合工业园,,22,,55,15,57,31,,,,31,50,1,4,0.9,0.9
2024-12-11T0200,1809A,116.0721,29.7535,九江市,石化总厂,,22,,60,15,46,26,,,,29,44,10,11,0.8,0.9
2024-12-11T0200,1810A,115.9773,29.5698,九江市,庐山气象台,,13,6,18,3,18,20,,,,25,13,7,13,1.3,0.9
2024-12-11T0200,3190A,116.0254,29.6994,九江市,外国语学校,,20,16,60,14,47,30,,,,27,42,4,6,0.7,0.7
2024-12-11T0200,2658A,98.5061,39.7443,酒泉市,仓门街子站,细颗粒物(PM2.5),117,117,52,88,38,14,,,,40,17,5,10,1.3,0.6
2024-12-11T0200,2659A,98.4989,39.7256,酒泉市,油田生活基地,细颗粒物(PM2.5),60,,50,43,37,44,,,,18,20,4,7,0.7,0.6
2024-12-11T0200,2698A,76.0072,39.4467,喀什地区,巡警大队,颗粒物(PM10),60,69,65,29,24,47,,,,30,19,1,2,0.6,0.3
2024-12-11T0200,2699A,75.9755,39.4694,喀什地区,吾办,颗粒物(PM10),59,67,68,29,32,59,,,,25,24,3,3,0.6,0.5
2024-12-11T0200,4027A,75.9483,39.4689,喀什地区,老干局,颗粒物(PM10),58,65,72,27,25,61,,,,20,20,2,1,0.5,0.5
2024-12-11T0200,1824A,114.3389,34.7781,开封市,肿瘤医院,细颗粒物(PM2.5),162,148,107,123,83,9,,,,52,46,7,8,0.8,0.6
2024-12-11T0200,1826A,114.2885,34.7965,开封市,世纪星幼儿园,细颗粒物(PM2.5),183,154,95,138,82,7,,,,58,50,4,5,0.8,0.5
2024-12-11T0200,3147A,114.3438,34.8106,开封市,龙亭公园,细颗粒物(PM2.5),188,144,102,141,90,8,,,,60,54,3,5,0.9,0.6
2024-12-11T0200,3210A,114.3644,34.7964,开封市,汴京公园,细颗粒物(PM2.5),178,153,119,134,91,6,,,,57,56,4,6,0.9,0.7
2024-12-11T0200,3473A,114.2485,34.8306,开封市,技师学院,细颗粒物(PM2.5),179,148,102,135,85,3,,,,60,54,5,6,1.1,0.8
2024-12-11T0200,3592A,114.4644,34.7556,开封市,祥符区生态环境局,细颗粒物(PM2.5),188,,66,141,96,12,,,,49,49,4,5,0.8,0.6
2024-12-11T0200,1951A,84.895,45.6094,克拉玛依市,长征新村,,38,,15,26,13,21,,,,25,16,5,5,0.3,0.3
2024-12-11T0200,1952A,84.8988,45.5893,克拉玛依市,南林小区,,19,,15,13,15,23,,,,24,15,5,5,0.3,0.3
2024-12-11T0200,1954A,84.905,44.3396,克拉玛依市,独山子区,,19,,14,8,11,58,,,,7,16,4,4,0.2,0.4
2024-12-11T0200,1955A,85.6979,46.098,克拉玛依市,乌尔禾区商贸楼,,19,17,9,12,11,13,,,,38,22,3,3,0.7,0.5
2024-12-11T0200,3612A,85.1045,45.6899,克拉玛依市,白碱滩区新站,,23,23,20,13,12,39,,,,16,17,8,8,0.6,0.6
2024-12-11T0200,2697A,76.1454,39.7142,克孜勒苏柯尔克孜自治州,市人民政府,,50,50,59,26,28,89,,,,4,11,3,4,0.4,0.5
2024-12-11T0200,3665A,76.1658,39.7157,克孜勒苏柯尔克孜自治州,克州文化中心,,40,40,52,22,28,84,,,,6,16,6,7,0.4,0.5
2024-12-11T0200,1450A,102.8204,24.8886,昆明市,呈贡新区,,30,27,23,21,16,61,,,,11,13,7,7,0.7,0.6
2024-12-11T0200,1451A,102.6251,24.9608,昆明市,西山森林公园,,,,,,,,,,,,,,,,
2024-12-11T0200,1452A,102.7252,25.0902,昆明市,龙泉镇,颗粒物(PM10),54,57,30,24,13,0,,,,51,25,8,8,0.8,0.7
2024-12-11T0200,1453A,102.7266,25.0375,昆明市,东风东路,,32,30,26,22,17,51,,,,12,14,7,8,0.4,0.4
2024-12-11T0200,1454A,102.6742,25.0669,昆明市,金鼎山,,32,27,28,22,16,59,,,,15,22,18,18,0.5,0.6
2024-12-11T0200,1455A,102.6644,25.0401,昆明市,碧鸡广场,,36,36,30,22,17,52,,,,17,21,7,8,0.4,0.5
2024-12-11T0200,3179A,102.7494,25.0119,昆明市,官渡区博物馆,,29,23,27,20,16,55,,,,11,12,7,9,0.6,0.5
2024-12-11T0200,3375A,102.8017,24.8336,昆明市,青年创业园,,40,40,22,22,15,45,,,,21,12,5,6,0.6,0.6
2024-12-11T0200,3550A,102.7997,24.9786,昆明市,昆明学院,,35,35,22,24,12,58,,,,14,10,9,9,0.6,0.3
2024-12-11T0200,3551A,102.5967,24.6736,昆明市,晋宁区生态环境分局,,28,28,25,19,14,55,,,,19,9,4,3,0.8,0.5
2024-12-11T0200,3552A,102.6678,24.9856,昆明市,云天化总部,,23,22,19,13,12,71,,,,6,7,7,10,0.4,0.4
2024-12-11T0200,1456A,91.1319,29.6514,拉萨市,八廓街,,22,18,42,12,16,70,,,,20,19,8,7,0.4,0.3
2024-12-11T0200,1457A,91.1221,29.6747,拉萨市,市环保局,,37,37,50,20,22,66,,,,26,20,8,7,0.9,0.7
2024-12-11T0200,1458A,91.0874,29.6475,拉萨市,区监测站,,36,36,38,21,15,51,,,,45,25,6,5,0.5,0.5
2024-12-11T0200,1459A,91.1774,29.6541,拉萨市,西藏大学,,34,34,51,11,16,78,,,,12,18,5,4,0.6,0.7
2024-12-11T0200,1460A,90.9798,29.6588,拉萨市,区辐射站,,23,23,52,10,22,68,,,,22,24,8,8,0.5,0.6
2024-12-11T0200,1461A,91.0834,29.6292,拉萨市,拉萨火车站,,24,24,34,16,12,44,,,,47,15,5,5,1.1,0.6
2024-12-11T0200,2520A,109.2203,23.7256,来宾市,来宾技工学校,,23,23,107,14,97,16,,,,19,33,5,10,1.0,1.3
2024-12-11T0200,3535A,109.1781,23.7297,来宾市,兴宾区政府,,43,39,128,30,94,22,,,,16,30,5,10,1.1,1.3
2024-12-11T0200,4002A,109.2416,23.7461,来宾市,中南小学,,26,23,109,18,85,16,,,,18,31,5,10,0.9,1.2
2024-12-11T0200,1476A,103.631,36.1031,兰州市,兰炼宾馆,细颗粒物(PM2.5),62,48,57,44,48,63,,,,18,25,10,12,0.4,0.6
2024-12-11T0200,1477A,104.1373,35.9454,兰州市,榆中兰大校区,,,,,,,,,,,,,,,,
2024-12-11T0200,1478A,103.8412,36.0726,兰州市,生物制品所,细颗粒物(PM2.5),58,,51,41,47,62,,,,16,20,10,11,0.4,0.6
2024-12-11T0200,1479A,103.831,36.0464,兰州市,铁路设计院,细颗粒物(PM2.5),58,58,62,41,49,55,,,,24,29,7,8,0.5,0.6
2024-12-11T0200,3186A,103.7158,36.1058,兰州市,教育港,细颗粒物(PM2.5),62,47,61,44,48,64,,,,16,28,12,14,0.4,0.5
2024-12-11T0200,3241A,103.7439,36.0842,兰州市,百合公园,,49,36,50,34,42,60,,,,14,19,13,10,0.5,0.6
2024-12-11T0200,3242A,103.9611,35.998,兰州市,和平,细颗粒物(PM2.5),57,49,58,40,50,63,,,,17,24,11,14,0.6,0.8
2024-12-11T0200,3245A,103.6633,36.533,兰州新区,新区管委会,细颗粒物(PM2.5),53,46,56,37,48,61,,,,14,17,12,12,0.4,0.4
2024-12-11T0200,3246A,103.6975,36.4789,兰州新区,舟曲中学,细颗粒物(PM2.5),53,48,69,37,42,52,,,,24,18,7,9,0.4,0.5
2024-12-11T0200,1067A,116.6708,39.5111,廊坊市,药材公司,,40,40,49,26,28,6,,,,65,52,4,4,0.7,0.8
2024-12-11T0200,1068A,116.7214,39.5589,廊坊市,开发区,,48,48,46,26,25,1,,,,67,52,5,4,0.6,0.6
2024-12-11T0200,1070A,116.7244,39.5269,廊坊市,北华航天学院,,41,41,49,22,24,3,,,,65,53,7,6,0.6,0.7
2024-12-11T0200,2919A,116.7022,39.5453,廊坊市,河北工业大学,,38,38,42,22,21,2,,,,68,49,8,6,0.5,0.5
2024-12-11T0200,2535A,103.7723,29.5462,乐山市,花湖湾,细颗粒物(PM2.5),77,71,46,56,39,7,,,,30,19,2,2,0.7,0.6
2024-12-11T0200,2536A,103.7627,29.5844,乐山市,牛耳桥,细颗粒物(PM2.5),75,70,49,55,40,3,,,,40,35,5,5,0.6,0.5
2024-12-11T0200,2537A,103.7508,29.6006,乐山市,市第三水厂,细颗粒物(PM2.5),75,64,49,55,35,5,,,,45,32,4,3,0.5,0.4
2024-12-11T0200,2538A,103.7571,29.5664,乐山市,市监测站,细颗粒物(PM2.5),57,55,46,40,32,3,,,,37,27,5,5,0.6,0.4
2024-12-11T0200,3361A,103.7311,29.5628,乐山市,理工大学,细颗粒物(PM2.5),58,50,42,41,36,4,,,,28,27,6,6,0.6,0.5
2024-12-11T0200,2598A,100.2143,26.8576,丽江市,西南郊,,,,,,,,,,,,,,,,
2024-12-11T0200,2599A,100.2497,26.8802,丽江市,丽江古城,,25,22,26,14,15,79,,,,6,11,8,9,0.5,0.5
2024-12-11T0200,2600A,100.2203,26.8906,丽江市,市中心,,29,12,16,10,10,90,,,,5,9,6,7,0.4,0.5
2024-12-11T0200,1267A,119.914,28.4514,丽水市,监测站大楼,,33,,33,23,19,10,,,,43,30,3,4,0.6,0.6
2024-12-11T0200,1268A,119.93,28.4586,丽水市,莲都小学,,28,28,46,10,19,3,,,,47,36,5,6,0.6,0.7
2024-12-11T0200,1269A,119.879,28.4231,丽水市,余庄前,,12,12,28,6,15,20,,,,21,25,5,6,0.4,0.4
2024-12-11T0200,1173A,119.176,34.5885,连云港市,市环境监测站,细颗粒物(PM2.5),89,97,93,66,64,20,,,,57,52,13,15,1.0,0.9
2024-12-11T0200,3000A,119.3581,34.6972,连云港市,德源药业,细颗粒物(PM2.5),79,78,92,58,61,36,,,,42,46,11,11,0.8,0.7
2024-12-11T0200,3007A,119.178,34.844,连云港市,新城一中,细颗粒物(PM2.5),118,105,96,89,73,13,,,,60,59,18,21,1.2,1.1
2024-12-11T0200,3008A,119.3608,34.7519,连云港市,胡沟管理处,细颗粒物(PM2.5),83,88,77,61,54,32,,,,28,24,10,8,0.9,0.5
2024-12-11T0200,3009A,119.1478,34.5911,连云港市,矿山设计院,细颗粒物(PM2.5),94,105,102,70,67,22,,,,43,45,12,14,1.1,1
2024-12-11T0200,3434A,119.2413,34.6539,连云港市,工贸学校,细颗粒物(PM2.5),87,88,99,64,70,19,,,,57,44,19,16,1.4,1
2024-12-11T0200,3664A,119.4172,34.7341,连云港市,连云街道,细颗粒物(PM2.5),74,82,81,54,58,29,,,,53,45,10,12,0.8,0.8
2024-12-11T0200,2571A,102.3431,27.8099,凉山彝族自治州,青龙寺,,27,27,27,8,7,40,,,,12,8,5,5,0.6,0.5
2024-12-11T0200,2572A,102.2721,27.8415,凉山彝族自治州,邛海宾馆,,25,25,30,15,16,48,,,,9,9,13,12,0.8,0.6
2024-12-11T0200,2573A,102.2625,27.898,凉山彝族自治州,西昌市政府,,24,24,25,8,16,48,,,,7,9,3,9,0.6,0.7
2024-12-11T0200,2574A,102.2685,27.8851,凉山彝族自治州,凉山州政府,,18,15,27,12,13,48,,,,6,8,10,13,0.7,0.6
2024-12-11T0200,2575A,102.237,27.8914,凉山彝族自治州,长安,,32,32,37,14,14,44,,,,14,13,10,14,0.5,0.9
2024-12-11T0200,2212A,123.2,41.1953,辽阳市,宏伟区,细颗粒物(PM2.5),87,82,75,64,60,7,,,,48,37,16,14,1.0,0.8
2024-12-11T0200,2213A,123.1683,41.2495,辽阳市,新华园,细颗粒物(PM2.5),74,81,67,54,56,6,,,,56,44,20,19,1.0,1.3
2024-12-11T0200,2214A,123.2354,41.2639,辽阳市,滨河路,细颗粒物(PM2.5),163,,72,124,63,10,,,,55,43,13,14,1.7,1.3
2024-12-11T0200,2215A,123.149,41.2991,辽阳市,铁西工业园,细颗粒物(PM2.5),98,109,91,73,72,2,,,,48,41,10,13,1.5,1.5
2024-12-11T0200,2227A,125.1358,42.8845,辽源市,环保局,,50,50,54,34,37,12,,,,30,30,6,11,1.8,1.3
2024-12-11T0200,3239A,125.0764,42.9078,辽源市,银鹰制药,细颗粒物(PM2.5),64,51,62,46,51,6,,,,39,36,14,15,1.0,1.2
2024-12-11T0200,1625A,115.9848,36.4372,聊城市,区政府,细颗粒物(PM2.5),112,113,134,84,91,8,,,,76,69,13,13,1.0,1.1
2024-12-11T0200,2878A,116.0072,36.4343,聊城市,聊大东校,细颗粒物(PM2.5),118,139,142,89,97,8,,,,77,66,11,12,1.2,1
2024-12-11T0200,3200A,115.9819,36.4978,聊城市,监控中心,细颗粒物(PM2.5),149,163,171,114,120,9,,,,76,73,16,15,1.1,1.1
2024-12-11T0200,3513A,116.0445,36.4361,聊城市,九州社区,细颗粒物(PM2.5),118,114,122,89,94,6,,,,62,54,17,19,1.1,1
2024-12-11T0200,4018A,116.0567,36.4608,聊城市,星美广场,细颗粒物(PM2.5),132,146,153,100,104,10,,,,53,54,16,16,1.2,1.1
2024-12-11T0200,2632A,94.3681,29.6376,林芝市,林芝监测站,,25,6,13,3,6,79,,,,2,5,6,6,0.5,0.5
2024-12-11T0200,2633A,94.3616,29.6616,林芝市,林芝人民医院,,23,,12,3,7,73,,,,2,5,6,6,0.7,0.7
2024-12-11T0200,2603A,100.0781,23.8982,临沧市,市环保局,,45,35,32,31,25,43,,,,14,15,7,9,0.5,0.5
2024-12-11T0200,2604A,100.0894,23.8822,临沧市,市气象局,,45,31,32,31,25,44,,,,8,13,6,8,0.4,0.5
2024-12-11T0200,1733A,111.5531,36.0783,临汾市,临钢医院,细颗粒物(PM2.5),114,112,111,86,70,20,,,,34,42,6,16,1.2,1.5
2024-12-11T0200,1734A,111.5028,36.0714,临汾市,技工学校,细颗粒物(PM2.5),124,99,109,94,80,26,,,,40,54,8,16,1.3,1.5
2024-12-11T0200,1736A,111.5018,36.0855,临汾市,市委,细颗粒物(PM2.5),123,125,130,93,75,27,,,,35,45,9,17,1.1,1.4
2024-12-11T0200,3018A,111.505,36.1014,临汾市,唐尧大酒店,细颗粒物(PM2.5),128,119,110,97,78,26,,,,32,44,11,19,1.5,1.7
2024-12-11T0200,3668A,111.5036,36.0414,临汾市,城南,细颗粒物(PM2.5),123,108,112,93,76,11,,,,43,44,4,14,1.2,1.4
2024-12-11T0200,2667A,103.2069,35.5993,临夏回族自治州,环保局,,41,41,52,11,14,56,,,,18,22,10,10,0.7,0.8
2024-12-11T0200,2668A,103.2417,35.6057,临夏回族自治州,建设大厦,颗粒物(PM10),51,51,46,19,22,59,,,,13,16,12,12,1.1,0.8
2024-12-11T0200,1618A,118.3429,35.0532,临沂市,沂河小区,细颗粒物(PM2.5),104,110,113,78,81,20,,,,64,56,16,19,0.8,0.8
2024-12-11T0200,1619A,118.295,35.0583,临沂市,鲁南制药厂,细颗粒物(PM2.5),92,97,106,68,75,20,,,,47,49,14,18,0.7,0.8
2024-12-11T0200,1620A,118.2794,34.9976,临沂市,新光毛纺厂,细颗粒物(PM2.5),74,75,100,54,72,30,,,,49,54,13,18,0.9,1.1
2024-12-11T0200,1621A,118.3956,35.0888,临沂市,河东保险公司,细颗粒物(PM2.5),98,102,115,73,81,7,,,,68,52,12,12,0.8,0.8
2024-12-11T0200,3370A,118.3564,35.0215,临沂市,十里堡居委,细颗粒物(PM2.5),89,88,107,66,74,23,,,,50,48,15,18,0.9,1.1
2024-12-11T0200,3496A,118.3604,35.1084,临沂市,南坊新区,细颗粒物(PM2.5),98,105,113,73,79,14,,,,67,57,13,15,1.1,1
2024-12-11T0200,3860A,118.3920,35.0300,临沂市,皇山花园小区,细颗粒物(PM2.5),93,105,129,69,75,9,,,,80,66,12,14,0.9,1.1
2024-12-11T0200,1870A,109.4856,24.3895,柳州市,柳东小学,,9,,38,3,36,26,,,,9,14,8,9,0.6,0.7
2024-12-11T0200,1871A,109.4157,24.3277,柳州市,环保监测站,,18,18,54,11,49,22,,,,17,21,10,10,1.1,0.9
2024-12-11T0200,1872A,109.389,24.341,柳州市,河西水厂,,26,23,55,18,40,19,,,,16,22,14,16,1.7,1.3
2024-12-11T0200,1873A,109.4311,24.2921,柳州市,市四中,,26,,46,18,44,27,,,,13,20,7,8,0.9,0.9
2024-12-11T0200,1874A,109.4006,24.3631,柳州市,市九中,,12,12,40,3,37,27,,,,12,19,6,7,1.2,1
2024-12-11T0200,1875A,109.4958,24.3134,柳州市,古亭山,,10,,43,7,36,28,,,,13,22,9,10,0.9,0.9
2024-12-11T0200,3402A,109.5422,24.3996,柳州市,市二中,,9,6,44,3,39,21,,,,12,23,8,9,0.9,1
2024-12-11T0200,2307A,116.5079,31.737,六安市,监测大楼,细颗粒物(PM2.5),100,86,66,75,53,34,,,,25,42,4,5,0.6,0.7
2024-12-11T0200,2308A,116.4738,31.7643,六安市,皖西学院,细颗粒物(PM2.5),95,92,75,71,50,27,,,,26,43,3,4,0.7,0.8
2024-12-11T0200,2309A,116.4996,31.7905,六安市,朝阳厂,细颗粒物(PM2.5),95,80,64,71,49,28,,,,24,38,1,3,0.8,0.8
2024-12-11T0200,2310A,116.5567,31.7886,六安市,开发区,细颗粒物(PM2.5),89,84,75,66,53,34,,,,30,43,3,5,0.6,0.7
2024-12-11T0200,2576A,104.8,26.5892,六盘水市,窑上,,20,15,22,14,14,36,,,,8,10,7,6,0.6,0.7
2024-12-11T0200,2577A,104.83,26.5917,六盘水市,黄土坡,,12,7,15,3,10,38,,,,8,13,7,10,0.4,0.6
2024-12-11T0200,2578A,104.89,26.5939,六盘水市,水钢,,11,6,16,3,12,28,,,,21,15,8,7,0.7,0.8
2024-12-11T0200,2579A,104.8475,26.5894,六盘水市,民中,,11,7,12,3,6,35,,,,10,16,8,9,0.5,0.6
2024-12-11T0200,2580A,104.9544,26.5506,六盘水市,双水,,13,12,13,8,7,41,,,,7,12,8,8,0.5,0.6
2024-12-11T0200,2335A,117.0189,25.1181,龙岩市,龙岩师专,,,,,,,,,,,,,,,,
2024-12-11T0200,2336A,117.0217,25.1033,龙岩市,龙岩市监测站,,37,37,35,22,23,5,,,,48,33,6,9,0.5,0.8
2024-12-11T0200,2337A,117.0258,25.0661,龙岩市,闽西职业技术学院,,39,39,41,20,22,6,,,,43,32,8,9,0.2,0.4
2024-12-11T0200,2338A,117.0196,25.0306,龙岩市,龙岩学院,,35,35,34,19,20,12,,,,27,23,9,8,0.5,0.6
2024-12-11T0200,2665A,105.0822,33.3261,陇南市,汉王镇固水子,,,,,,,,,,,,,,,,
2024-12-11T0200,2885A,104.9339,33.3826,陇南市,滨江中学,颗粒物(PM10),52,54,49,35,31,61,,,,14,11,12,6,0.8,0.7
2024-12-11T0200,3247A,104.955,33.371,陇南市,市总工会,颗粒物(PM10),55,59,51,36,24,57,,,,15,12,5,3,0.7,0.6
2024-12-11T0200,2487A,111.9589,27.8901,娄底市,电视发射台,,25,,18,17,18,35,,,,20,19,6,5,0.6,0.6
2024-12-11T0200,2488A,111.9975,27.725,娄底市,市监测站,,22,,34,15,29,39,,,,14,20,4,6,0.4,0.7
2024-12-11T0200,2489A,112.0194,27.7314,娄底市,市委党校,,36,25,37,25,31,35,,,,19,30,5,5,0.7,0.8
2024-12-11T0200,2490A,111.9561,27.7569,娄底市,涟钢,,20,20,38,12,30,36,,,,17,28,5,4,0.5,1.2
2024-12-11T0200,2491A,111.9892,27.7044,娄底市,市政府,,29,,36,20,33,39,,,,19,29,4,5,0.8,0.9
2024-12-11T0200,1893A,105.4324,28.9634,泸州市,九狮山,,,,,,,,,,,,,,,,
2024-12-11T0200,1894A,105.4427,28.9063,泸州市,小市上码头,细颗粒物(PM2.5),65,73,69,47,48,22,,,,22,28,2,3,0.5,0.5
2024-12-11T0200,1895A,105.4241,28.8573,泸州市,兰田宪桥,细颗粒物(PM2.5),73,70,69,53,51,25,,,,19,27,2,3,0.5,0.6
2024-12-11T0200,1896A,105.4379,28.8833,泸州市,市环监站,细颗粒物(PM2.5),72,69,67,52,47,27,,,,16,30,4,4,0.4,0.5
2024-12-11T0200,3490A,105.3617,28.7703,泸州市,纳溪区环保局,细颗粒物(PM2.5),67,63,69,48,51,24,,,,21,29,4,4,0.5,0.5
2024-12-11T0200,2183A,111.1406,37.5211,吕梁市,环保局,细颗粒物(PM2.5),65,73,75,47,39,1,,,,46,44,5,9,0.6,0.6
2024-12-11T0200,2185A,111.1297,37.5136,吕梁市,自来水公司,颗粒物(PM10),61,71,83,34,37,3,,,,47,46,2,8,0.8,0.7
2024-12-11T0200,2867A,111.1283,37.51,吕梁市,马茂庄小学,颗粒物(PM10),62,73,86,38,36,5,,,,47,49,8,11,0.7,0.6
2024-12-11T0200,1812A,112.3931,34.6516,洛阳市,市委党校,细颗粒物(PM2.5),153,150,125,117,88,4,,,,53,53,6,8,0.9,0.9
2024-12-11T0200,1814A,112.4657,34.6871,洛阳市,豫西宾馆,细颗粒物(PM2.5),144,163,134,110,85,6,,,,55,52,7,10,0.9,0.7
2024-12-11T0200,1815A,112.494,34.6886,洛阳市,河南林校,细颗粒物(PM2.5),144,125,121,110,107,2,,,,56,55,4,8,0.8,0.7
2024-12-11T0200,1816A,112.3844,34.623,洛阳市,开发区管委会,细颗粒物(PM2.5),145,149,140,111,107,4,,,,53,51,8,9,0.8,0.8
2024-12-11T0200,1817A,112.4267,34.6258,洛阳市,市委新办公区,细颗粒物(PM2.5),163,161,149,124,106,6,,,,52,51,5,7,0.8,0.8
2024-12-11T0200,3340A,112.6005,34.6326,洛阳市,伊滨,细颗粒物(PM2.5),125,149,164,95,96,1,,,,44,42,8,9,0.9,0.9
2024-12-11T0200,3341A,112.4951,34.6332,洛阳市,中移产业园,细颗粒物(PM2.5),143,132,123,109,99,5,,,,62,58,10,11,0.8,0.7
2024-12-11T0200,3593A,112.5736,34.8993,洛阳市,吉利监测站,细颗粒物(PM2.5),123,,111,93,94,4,,,,47,49,4,6,0.5,0.7
2024-12-11T0200,3635A,112.3677,34.662,洛阳市,河科大西苑校区,细颗粒物(PM2.5),153,156,136,117,93,5,,,,48,50,7,9,0.9,0.8
2024-12-11T0200,3636A,112.4388,34.6781,洛阳市,英才小学,细颗粒物(PM2.5),138,158,125,105,86,0,,,,59,53,7,9,0.8,0.6
2024-12-11T0200,2399A,114.051,33.5699,漯河市,三五一五工厂,细颗粒物(PM2.5),138,139,107,105,85,14,,,,41,31,11,9,0.6,0.5
2024-12-11T0200,2400A,114.0055,33.5698,漯河市,漯河大学,细颗粒物(PM2.5),138,127,104,105,79,22,,,,44,37,9,8,0.5,0.5
2024-12-11T0200,2401A,114.0138,33.5828,漯河市,市水利局,细颗粒物(PM2.5),134,139,114,102,81,20,,,,38,34,11,9,0.6,0.7
2024-12-11T0200,2402A,114.0261,33.5698,漯河市,市广电局,细颗粒物(PM2.5),142,132,103,108,82,15,,,,43,33,10,8,0.6,0.5
2024-12-11T0200,3478A,113.9749,33.5664,漯河市,市图书馆,细颗粒物(PM2.5),133,142,108,101,76,10,,,,55,39,9,7,0.5,0.5
2024-12-11T0200,3479A,114.0967,33.5906,漯河市,召陵区卫健委,细颗粒物(PM2.5),139,141,119,106,87,5,,,,58,45,11,11,0.6,0.6
2024-12-11T0200,1798A,118.5092,31.6837,马鞍山市,湖东路四小,,38,38,57,25,36,71,,,,17,40,2,4,0.6,0.8
2024-12-11T0200,1799A,118.5024,31.6449,马鞍山市,开发区,细颗粒物(PM2.5),52,,58,36,51,70,,,,19,42,5,7,0.8,1
2024-12-11T0200,1800A,118.5228,31.7231,马鞍山市,慈湖,,49,40,56,34,46,67,,,,18,41,5,7,0.6,0.8
2024-12-11T0200,1802A,118.6245,31.7241,马鞍山市,濮塘,,50,,53,35,46,69,,,,12,34,8,10,0.5,0.8
2024-12-11T0200,3633A,118.4918,31.6809,马鞍山市,雨山,,40,40,58,27,39,65,,,,15,38,7,9,0.6,0.8
2024-12-11T0200,1686A,111.0286,21.4688,茂名市,电白南海,,34,34,52,17,29,88,,,,19,20,13,8,0.6,0.7
2024-12-11T0200,1687A,110.9294,21.6533,茂名市,茂石化七小,,41,41,51,24,31,85,,,,13,15,13,10,0.8,0.8
2024-12-11T0200,1688A,110.9107,21.6687,茂名市,健康路,,42,39,48,29,30,95,,,,14,17,14,16,0.7,0.7
2024-12-11T0200,1689A,110.8592,21.6828,茂名市,高岭,颗粒物(PM10),52,53,57,19,30,81,,,,22,21,19,20,0.8,0.8
2024-12-11T0200,3450A,111.01,21.5165,茂名市,电白水东,,36,36,49,24,30,85,,,,13,15,13,11,0.9,1
2024-12-11T0200,2539A,104.0308,30.0478,眉山市,黑龙滩水库,颗粒物(PM10),62,74,60,41,34,2,,,,42,21,1,1,0.8,0.6
2024-12-11T0200,2540A,103.8416,30.0874,眉山市,气象局,细颗粒物(PM2.5),77,77,62,56,47,6,,,,40,36,4,4,0.7,0.5
2024-12-11T0200,3137A,103.8578,30.0744,眉山市,市委党校,细颗粒物(PM2.5),67,61,53,48,40,2,,,,47,42,4,5,1.2,0.6
2024-12-11T0200,3148A,103.8291,30.0564,眉山市,区人社局,细颗粒物(PM2.5),64,56,49,46,40,19,,,,35,42,2,4,0.6,0.5
2024-12-11T0200,1690A,116.1231,24.3284,梅州市,梅江月梅,,44,44,32,20,19,4,,,,42,21,9,9,0.5,0.6
2024-12-11T0200,1691A,116.0797,24.2719,梅州市,梅县新城,,32,30,40,22,24,10,,,,39,28,6,7,0.6,0.7
2024-12-11T0200,1692A,116.1248,24.2654,梅州市,环境监控中心,颗粒物(PM10),61,71,40,25,22,4,,,,46,28,6,7,0.7,0.7
2024-12-11T0200,3315A,116.1233,24.2991,梅州市,梅龙,,46,46,34,26,20,10,,,,42,22,6,8,0.7,0.7
2024-12-11T0200,1878A,104.7778,31.4741,绵阳市,富乐山,,50,49,37,35,29,0,,,,38,21,2,2,0.6,0.5
2024-12-11T0200,1879A,104.7563,31.4535,绵阳市,市人大,颗粒物(PM10),58,65,45,38,32,2,,,,38,30,4,2,0.7,0.6
2024-12-11T0200,1880A,104.6697,31.4668,绵阳市,高新区自来水公司,颗粒物(PM10),54,58,45,36,29,2,,,,36,29,4,3,0.6,0.5
2024-12-11T0200,1881A,104.7287,31.5075,绵阳市,三水厂,颗粒物(PM10),57,63,43,37,34,2,,,,35,28,6,6,0.7,0.6
2024-12-11T0200,3491A,104.69,31.5322,绵阳市,西科大附属小学,细颗粒物(PM2.5),53,54,43,37,28,7,,,,29,24,4,4,0.7,0.6
2024-12-11T0200,3492A,104.5648,31.5343,绵阳市,安州区旅游局,颗粒物(PM10),54,57,38,36,36,6,,,,23,23,8,6,0.7,0.6
2024-12-11T0200,1784A,129.61,44.561,牡丹江市,环保大楼,,38,30,51,26,38,49,,,,12,28,10,9,0.5,0.6
2024-12-11T0200,1785A,129.6115,44.5782,牡丹江市,文化广场,,32,25,55,22,44,51,,,,15,34,8,10,0.5,0.8
2024-12-11T0200,1786A,129.5904,44.5963,牡丹江市,第一医院,,45,32,57,31,51,53,,,,8,31,6,8,0.5,0.8
2024-12-11T0200,1787A,129.6364,44.6075,牡丹江市,机车工厂,,33,33,66,19,42,45,,,,12,34,8,11,0.4,0.8
2024-12-11T0200,1788A,129.6386,44.5462,牡丹江市,第一中学,,33,32,45,23,34,48,,,,14,24,7,7,0.4,0.5
2024-12-11T0200,2531A,105.0703,29.61,内江市,市监测站,细颗粒物(PM2.5),70,56,42,51,44,21,,,,23,17,8,6,0.6,0.6
2024-12-11T0200,2532A,105.0717,29.5947,内江市,东兴区政府,细颗粒物(PM2.5),63,54,45,45,36,25,,,,28,23,6,5,0.7,0.7
2024-12-11T0200,2533A,105.0653,29.5817,内江市,内江二中,细颗粒物(PM2.5),68,,56,49,40,23,,,,28,28,6,7,0.6,0.6
2024-12-11T0200,2534A,105.0406,29.5822,内江市,内江日报社,细颗粒物(PM2.5),62,64,52,44,36,30,,,,23,22,8,9,0.6,0.6
2024-12-11T0200,2628A,92.0657,31.4846,那曲市,那曲监测站,颗粒物(PM10),60,70,105,28,46,49,,,,16,26,8,12,1.0,1.4
2024-12-11T0200,3128A,92.0506,31.4797,那曲市,那曲会议中心,颗粒物(PM10),65,80,118,33,29,34,,,,22,15,5,6,1.5,1.2
2024-12-11T0200,1290A,115.8931,28.6843,南昌市,省外办,,32,23,64,22,55,12,,,,34,43,4,6,0.8,0.8
2024-12-11T0200,1291A,115.8886,28.7003,南昌市,省林业公司,,28,,58,19,48,15,,,,31,41,7,8,0.7,0.7
2024-12-11T0200,1292A,115.8126,28.7442,南昌市,林科所,,20,,50,14,43,23,,,,29,39,5,6,0.6,0.7
2024-12-11T0200,1294A,115.8518,28.687,南昌市,建工学校,,16,16,58,3,39,20,,,,27,42,6,8,0.8,0.9
2024-12-11T0200,1295A,115.8921,28.6424,南昌市,象湖,,29,,49,20,50,18,,,,34,43,6,7,0.7,0.8
2024-12-11T0200,1296A,115.7423,28.7996,南昌市,武术学校,,25,25,50,11,42,16,,,,24,34,2,3,0.8,0.8
2024-12-11T0200,1298A,115.9314,28.6842,南昌市,省站,,35,35,76,16,51,18,,,,32,42,8,9,0.8,0.7
2024-12-11T0200,3046A,115.9084,28.6062,南昌市,机电学校,,25,,67,17,49,17,,,,29,36,7,8,0.8,0.9
2024-12-11T0200,3690A,115.9721,28.7031,南昌市,外国语学校,,29,,63,20,43,16,,,,34,38,5,5,0.9,0.9
2024-12-11T0200,1905A,106.056,30.8064,南充市,西山风景区,,49,45,41,34,35,44,,,,5,11,1,2,0.4,0.7
2024-12-11T0200,1906A,106.0789,30.8023,南充市,南充市委,细颗粒物(PM2.5),67,62,56,48,43,13,,,,24,22,4,4,0.4,0.4
2024-12-11T0200,1907A,106.1031,30.8217,南充市,南充炼油厂,细颗粒物(PM2.5),70,61,56,51,45,8,,,,28,22,3,4,0.5,0.5
2024-12-11T0200,1908A,106.1064,30.7856,南充市,高坪区监测站,细颗粒物(PM2.5),70,55,58,51,45,20,,,,23,22,2,3,0.4,0.5
2024-12-11T0200,1909A,106.0642,30.7636,南充市,嘉陵区环保局,颗粒物(PM10),54,58,58,36,40,5,,,,36,26,4,4,0.6,0.6
2024-12-11T0200,1910A,106.1087,30.8388,南充市,市环境监测站,细颗粒物(PM2.5),82,72,63,60,45,11,,,,24,16,4,5,0.5,0.4
2024-12-11T0200,1151A,118.8086,32.1065,南京市,迈皋桥,,23,16,46,14,28,72,,,,12,35,3,4,0.3,0.4
2024-12-11T0200,1152A,118.7538,32.0551,南京市,草场门,,25,,43,14,29,77,,,,14,44,3,6,0.5,0.6
2024-12-11T0200,1153A,118.7794,32.0745,南京市,山西路,,30,,48,19,29,95,,,,20,51,3,4,0.3,0.4
2024-12-11T0200,1154A,118.7752,32.0023,南京市,中华门,,22,14,44,14,28,68,,,,18,45,4,4,0.4,0.7
2024-12-11T0200,1155A,118.8109,32.0309,南京市,瑞金路,,23,14,49,14,30,72,,,,1,35,5,6,0.6,0.8
2024-12-11T0200,1156A,118.7997,32.0754,南京市,玄武湖,,28,27,56,19,28,66,,,,3,24,6,8,0.3,0.5
2024-12-11T0200,1157A,118.6414,32.0931,南京市,浦口,,39,36,54,27,30,63,,,,15,33,5,8,0.3,0.5
2024-12-11T0200,1158A,118.7356,31.9996,南京市,奥体中心,,25,24,49,14,30,79,,,,20,51,7,9,0.4,0.6
2024-12-11T0200,1159A,118.9125,32.1028,南京市,仙林大学城,,35,,47,24,30,66,,,,16,41,5,8,0.4,0.6
2024-12-11T0200,3422A,118.8436,31.9198,南京市,江宁彩虹桥,,35,35,56,22,30,67,,,,9,41,5,7,0.4,0.5
2024-12-11T0200,3423A,119.0138,31.6494,南京市,溧水永阳,,42,,50,29,43,69,,,,15,38,4,4,0.3,0.6
2024-12-11T0200,3424A,118.879,31.3302,南京市,高淳老职中,细颗粒物(PM2.5),53,40,60,37,51,72,,,,16,46,3,6,0.2,0.7
2024-12-11T0200,3427A,118.8554,32.3578,南京市,六合雄州,,28,28,42,10,25,53,,,,5,14,5,8,0.2,0.3
2024-12-11T0200,1401A,108.3103,22.7881,南宁市,二十一中,细颗粒物(PM2.5),128,128,107,97,84,42,,,,29,46,7,7,1.3,1.2
2024-12-11T0200,1402A,108.3141,22.8528,南宁市,北湖,细颗粒物(PM2.5),130,112,105,99,79,39,,,,28,44,12,10,1.1,1.1
2024-12-11T0200,1403A,108.3206,22.8225,南宁市,市监测站,细颗粒物(PM2.5),122,127,106,92,74,34,,,,34,51,13,11,1.3,1.2
2024-12-11T0200,1404A,108.3829,22.8037,南宁市,大自然花园,细颗粒物(PM2.5),134,123,101,102,77,40,,,,29,41,9,9,1.0,0.9
2024-12-11T0200,1405A,108.4394,22.7904,南宁市,仙葫,细颗粒物(PM2.5),193,,95,145,87,24,,,,35,38,6,7,1.3,1.1
2024-12-11T0200,1406A,108.2397,22.8467,南宁市,区农职院,细颗粒物(PM2.5),108,137,104,81,68,1,,,,47,45,10,8,1.4,1.1
2024-12-11T0200,1407A,108.3275,22.735,南宁市,英华嘉园,细颗粒物(PM2.5),125,125,114,95,86,23,,,,38,45,9,10,1.2,1.1
2024-12-11T0200,1408A,108.2257,22.7757,南宁市,沙井镇街道办,细颗粒物(PM2.5),118,142,117,89,80,4,,,,48,59,9,8,1.1,1
2024-12-11T0200,3401A,108.4834,22.7618,南宁市,红星社区,细颗粒物(PM2.5),162,152,101,123,76,32,,,,32,29,12,12,1.5,1.2
2024-12-11T0200,2331A,118.0966,26.6761,南平市,茫荡山,,,,,,,,,,,,,,,,
2024-12-11T0200,2332A,118.1681,26.6369,南平市,南平市监测站,,50,36,43,35,38,13,,,,25,26,3,6,0.6,0.6
2024-12-11T0200,2333A,118.1825,26.6489,南平市,南平铝业有限公司,,49,36,42,34,35,2,,,,32,26,7,6,0.5,0.6
2024-12-11T0200,2334A,118.1756,26.6272,南平市,南平七中,,46,37,42,32,33,8,,,,28,23,4,6,0.7,0.7
2024-12-11T0200,1168A,120.9098,31.9663,南通市,狼山街道,,38,,38,26,26,72,,,,10,23,6,7,0.4,0.6
2024-12-11T0200,1169A,120.86,32.0005,南通市,虹桥,,35,31,37,24,27,71,,,,12,27,5,6,0.5,0.5
2024-12-11T0200,1170A,120.87,32.02,南通市,城中,,30,29,41,21,26,73,,,,14,29,6,7,0.7,0.7
2024-12-11T0200,1171A,120.94,31.93,南通市,星湖花园,,30,27,32,21,20,63,,,,18,28,4,5,0.4,0.4
2024-12-11T0200,1172A,120.81,32.0417,南通市,紫琅学院,,32,25,34,22,25,65,,,,16,33,4,4,0.5,0.6
2024-12-11T0200,3291A,121.067,32.062,南通市,通州监测站,,35,29,36,24,25,82,,,,8,18,2,2,0.4,0.5
2024-12-11T0200,3432A,120.9348,31.9883,南通市,环境教育馆,,32,27,38,22,27,72,,,,17,34,4,4,0.6,0.6
2024-12-11T0200,2404A,112.5224,33.0122,南阳市,瓦房庄,细颗粒物(PM2.5),109,93,79,82,66,29,,,,33,30,9,9,0.8,0.8
2024-12-11T0200,2405A,112.5003,32.9735,南阳市,汉画馆,细颗粒物(PM2.5),95,95,82,71,56,27,,,,30,28,7,7,0.6,0.7
2024-12-11T0200,2406A,112.5573,33.027,南阳市,气象站,细颗粒物(PM2.5),94,93,80,70,61,34,,,,30,30,6,6,0.5,0.6
2024-12-11T0200,2407A,112.5481,32.9689,南阳市,理工学院,细颗粒物(PM2.5),93,79,75,69,62,32,,,,31,32,6,6,0.4,0.4
2024-12-11T0200,4008A,112.5234,32.9922,南阳市,卧龙区政府,细颗粒物(PM2.5),100,98,82,75,62,29,,,,33,32,6,6,0.5,0.6
2024-12-11T0200,1234A,121.8358,29.911,宁波市,区环保大楼,细颗粒物(PM2.5),72,70,71,52,44,2,,,,62,66,8,10,1.0,0.9
2024-12-11T0200,1235A,121.56,29.82,宁波市,万里学院,细颗粒物(PM2.5),54,53,67,38,41,0,,,,63,62,5,7,0.8,0.7
2024-12-11T0200,1236A,121.713,29.9572,宁波市,龙赛医院,细颗粒物(PM2.5),59,43,86,42,48,1,,,,73,70,9,10,0.8,0.9
2024-12-11T0200,1239A,121.633,29.7733,宁波市,钱湖水厂,细颗粒物(PM2.5),75,83,75,55,45,0,,,,57,58,6,6,0.9,0.8
2024-12-11T0200,1240A,121.5856,29.8635,宁波市,太古小学,,41,41,66,26,34,1,,,,62,66,7,8,0.8,0.8
2024-12-11T0200,1241A,121.524,29.8674,宁波市,市环境监测中心,,33,33,53,22,36,0,,,,63,64,7,8,0.9,0.9
2024-12-11T0200,2871A,121.6147,29.9017,宁波市,万里国际学校,颗粒物(PM10),55,60,62,28,32,0,,,,64,65,6,7,0.6,0.7
2024-12-11T0200,3710A,121.5594,29.8975,宁波市,白沙活动中心,,38,38,56,21,28,2,,,,58,57,8,9,0.6,0.6
2024-12-11T0200,2339A,119.5001,26.6946,宁德市,金涵水库,,,,,,,,,,,,,,,,
2024-12-11T0200,2341A,119.5388,26.6612,宁德市,宁德市监测站,,49,44,36,34,30,0,,,,43,7,2,2,0.5,0.6
2024-12-11T0200,3209A,119.5231,26.6562,宁德市,宁德一中,,40,40,36,26,31,3,,,,24,24,2,2,0.7,0.6
2024-12-11T0200,2618A,98.8601,25.8567,怒江傈僳族自治州,州监测站,,41,41,37,27,20,36,,,,17,17,6,5,0.5,0.5
2024-12-11T0200,2619A,98.8546,25.8417,怒江傈僳族自治州,泸水一中,,43,,34,30,22,28,,,,17,23,7,6,0.5,0.5
2024-12-11T0200,1888A,101.6891,26.571,攀枝花市,弄弄坪,颗粒物(PM10),64,78,98,32,52,22,,,,50,46,22,73,1.5,3.4
2024-12-11T0200,1889A,101.5769,26.5928,攀枝花市,河门口,颗粒物(PM10),53,55,49,28,18,13,,,,44,33,30,14,1.0,1.2
2024-12-11T0200,1890A,101.7169,26.585,攀枝花市,炳草岗,颗粒物(PM10),55,60,64,32,32,5,,,,64,46,16,29,1.2,2.2
2024-12-11T0200,1891A,101.7369,26.5008,攀枝花市,仁和,,34,34,41,23,25,45,,,,16,28,6,15,0.3,1.4
2024-12-11T0200,2835A,101.7227,26.567,攀枝花市,四十中小,,47,47,60,23,27,43,,,,33,33,9,27,0.9,2.5
2024-12-11T0200,1604A,122.0303,41.1489,盘锦市,开发区,,39,28,31,27,23,42,,,,9,17,8,9,0.9,1
2024-12-11T0200,1605A,122.0485,41.0883,盘锦市,兴隆台,,30,30,31,10,15,44,,,,10,19,10,11,0.5,0.6
2024-12-11T0200,1606A,121.8297,41.1028,盘锦市,新生街道,,19,18,36,13,27,41,,,,14,33,8,11,0.4,0.7
2024-12-11T0200,1832A,113.3257,33.742,平顶山市,新华旅馆,细颗粒物(PM2.5),104,127,120,78,69,26,,,,39,41,9,9,0.7,0.7
2024-12-11T0200,1833A,113.2919,33.737,平顶山市,规划设计院,细颗粒物(PM2.5),114,118,111,86,74,40,,,,29,33,8,7,0.7,0.7
2024-12-11T0200,1834A,113.182,33.774,平顶山市,平顶山工学院,细颗粒物(PM2.5),113,160,140,85,78,7,,,,50,39,8,8,0.9,0.9
2024-12-11T0200,3204A,113.3025,33.73,平顶山市,规划局,细颗粒物(PM2.5),112,107,104,84,75,40,,,,26,32,9,9,0.8,0.9
2024-12-11T0200,3594A,112.8867,33.9116,平顶山市,石龙区,细颗粒物(PM2.5),149,164,149,114,100,2,,,,57,41,12,13,0.8,0.8
2024-12-11T0200,2656A,106.6692,35.5461,平凉市,聚贤嘉苑,,,49,74,47,59,61,,,,17,28,,12,0.5,0.6
2024-12-11T0200,2657A,106.7021,35.5307,平凉市,博物馆,细颗粒物(PM2.5),74,61,71,54,57,64,,,,23,29,12,11,0.6,0.7
2024-12-11T0200,2347A,114.0997,27.5002,萍乡市,武功山,,25,25,76,11,52,9,,,,34,31,8,12,0.5,0.5
2024-12-11T0200,2348A,113.8385,27.6434,萍乡市,中医院,,23,23,76,16,49,4,,,,37,32,9,13,1.2,0.9
2024-12-11T0200,2349A,113.8493,27.6253,萍乡市,市政府车库,,29,20,70,20,58,7,,,,34,31,11,16,0.8,0.9
2024-12-11T0200,2350A,113.8676,27.6435,萍乡市,市环保局,,30,22,76,21,54,6,,,,32,26,10,13,1.0,0.9
2024-12-11T0200,2351A,113.866,27.6198,萍乡市,安源区政府,,20,20,75,11,53,6,,,,30,32,8,14,0.8,1
2024-12-11T0200,2319A,119.0141,25.4325,莆田市,荔城区仓后路,,22,22,27,7,9,56,,,,10,12,1,1,0.5,0.5
2024-12-11T0200,2320A,119.0015,25.4553,莆田市,莆田市监测站,,20,19,25,10,8,62,,,,7,10,3,3,0.4,0.4
2024-12-11T0200,2321A,119.1119,25.4561,莆田市,涵江区六中,,27,27,31,11,11,44,,,,17,14,4,2,0.4,0.4
2024-12-11T0200,2322A,119.1013,25.3215,莆田市,秀屿区政府,,28,26,31,19,13,34,,,,24,18,1,2,0.4,0.5
2024-12-11T0200,2323A,118.981,25.4792,莆田市,东圳水库,,,,,,,,,,,,,,,,
2024-12-11T0200,2392A,115.0312,35.7636,濮阳市,环保局,细颗粒物(PM2.5),163,145,100,124,88,8,,,,76,60,6,10,1.1,0.8
2024-12-11T0200,2394A,115.0574,35.7609,濮阳市,油田运输公司,细颗粒物(PM2.5),172,165,123,130,91,1,,,,80,62,6,12,1.1,0.8
2024-12-11T0200,2395A,115.0866,35.7754,濮阳市,油田物探公司,细颗粒物(PM2.5),192,184,132,144,99,1,,,,69,59,5,9,1.1,0.8
2024-12-11T0200,3021A,115,35.7668,濮阳市,濮水河管理处,细颗粒物(PM2.5),183,205,138,138,92,2,,,,67,56,5,7,1.0,0.7
2024-12-11T0200,2601A,100.98,22.7633,普洱市,市环保局,,32,32,36,17,21,31,,,,7,10,5,5,0.4,0.5
2024-12-11T0200,2602A,100.9817,22.8322,普洱市,普洱第二中学,,38,38,38,20,20,7,,,,30,16,7,7,0.6,0.6
2024-12-11T0200,2262A,131.0518,45.8751,七台河市,新一中,,31,31,45,20,35,67,,,,15,20,11,12,1.4,1.5
2024-12-11T0200,3345A,131.0577,45.7879,七台河市,中波台,,39,39,48,27,36,46,,,,21,29,13,13,0.7,0.7
2024-12-11T0200,3637A,131.0176,45.7761,七台河市,人民广场,细颗粒物(PM2.5),55,44,50,39,37,50,,,,22,28,7,8,0.6,0.7
2024-12-11T0200,3684A,130.8781,45.8222,七台河市,新建矿广场,,50,,38,35,36,52,,,,16,26,8,10,0.5,0.5
2024-12-11T0200,1779A,123.9305,47.3636,齐齐哈尔市,安居小区,,17,15,29,6,22,52,,,,9,14,2,4,0.3,0.4
2024-12-11T0200,1780A,123.9488,47.3386,齐齐哈尔市,中心广场,,17,9,24,6,16,53,,,,4,11,3,4,0.6,0.6
2024-12-11T0200,1781A,123.9483,47.3227,齐齐哈尔市,农牧车辆厂,,17,9,23,3,16,53,,,,5,13,5,6,0.4,0.4
2024-12-11T0200,1783A,123.945,47.2988,齐齐哈尔市,市环境监测站,,20,20,26,6,22,52,,,,8,16,3,4,0.3,0.3
2024-12-11T0200,3662A,123.6333,47.2075,齐齐哈尔市,富区青少年活动中心,,21,21,26,3,16,43,,,,12,16,13,12,0.6,0.5
2024-12-11T0200,2591A,107.9783,26.5747,黔东南苗族侗族自治州,市环境监测站,,13,9,12,9,9,38,,,,9,15,2,2,0.8,0.9
2024-12-11T0200,2881A,107.8908,26.5311,黔东南苗族侗族自治州,凯里学院,,10,,2,6,6,30,,,,9,12,3,3,0.8,0.7
2024-12-11T0200,2593A,107.5228,26.2403,黔南布依族苗族自治州,小围寨,,11,6,2,3,1,33,,,,5,8,5,5,0.6,0.6
2024-12-11T0200,3538A,107.5175,26.2978,黔南布依族苗族自治州,沙坝,,11,,4,3,2,34,,,,6,8,4,4,0.5,0.5
2024-12-11T0200,2589A,104.9022,25.0925,黔西南布依族苗族自治州,场坝街,,18,18,22,10,13,21,,,,13,10,4,2,0.4,0.5
2024-12-11T0200,2590A,104.8811,25.0992,黔西南布依族苗族自治州,坪东大道,,18,18,20,11,13,18,,,,11,9,3,3,0.5,0.4
2024-12-11T0200,2502A,108.6236,21.9667,钦州市,市环保站,细颗粒物(PM2.5),77,88,132,56,69,12,,,,63,48,7,10,1.1,1.2
2024-12-11T0200,2503A,108.6549,21.9481,钦州市,沙埠小学,颗粒物(PM10),62,73,111,42,76,32,,,,45,46,15,16,0.8,1
2024-12-11T0200,2504A,108.5989,21.7431,钦州市,港区一小,颗粒物(PM10),59,68,89,31,44,73,,,,24,32,8,10,0.9,0.9
2024-12-11T0200,3404A,108.5959,21.9633,钦州市,北职校,细颗粒物(PM2.5),87,100,109,64,82,17,,,,48,40,15,19,1.0,1.1
2024-12-11T0200,1042A,119.5134,39.8207,秦皇岛市,北戴河环保局,,24,24,34,9,19,50,,,,13,30,3,4,0.3,0.5
2024-12-11T0200,1043A,119.7493,40.0116,秦皇岛市,第一关,,18,12,48,12,33,32,,,,29,54,4,9,0.3,0.5
2024-12-11T0200,1044A,119.5897,39.9499,秦皇岛市,监测站,,29,29,46,20,28,47,,,,13,43,4,8,0.3,0.6
2024-12-11T0200,1046A,119.5251,39.9041,秦皇岛市,建设大厦,,28,27,58,19,31,40,,,,20,44,4,6,0.4,0.7
2024-12-11T0200,3132A,119.610547,39.943889,秦皇岛市,文明里,,37,37,58,23,30,40,,,,21,44,4,9,0.3,0.4
2024-12-11T0200,1307A,120.6659,36.2403,青岛市,仰口,,48,33,78,33,65,58,,,,11,20,10,13,0.7,0.7
2024-12-11T0200,1310A,120.4134,36.0658,青岛市,市南区东部子站,细颗粒物(PM2.5),83,95,125,61,74,22,,,,59,62,14,17,1.0,1
2024-12-11T0200,1311A,120.3664,36.1032,青岛市,四方区子站,细颗粒物(PM2.5),122,124,123,92,89,7,,,,75,71,18,19,1.4,1.1
2024-12-11T0200,1312A,120.2994,36.054,青岛市,市南区西部子站,细颗粒物(PM2.5),74,78,111,54,75,23,,,,55,57,14,16,1.1,1.1
2024-12-11T0200,1313A,120.4581,36.0858,青岛市,崂山区子站,细颗粒物(PM2.5),77,85,109,56,72,29,,,,53,56,14,16,1.0,1
2024-12-11T0200,1314A,120.1983,35.9608,青岛市,黄岛区子站,细颗粒物(PM2.5),104,117,124,78,82,4,,,,75,73,15,17,1.0,1
2024-12-11T0200,1315A,120.3999,36.3083,青岛市,城阳区子站,细颗粒物(PM2.5),85,102,149,63,85,10,,,,54,58,15,20,1.2,1.6
2024-12-11T0200,1966A,120.0405,35.8735,青岛市,黄岛区4号,细颗粒物(PM2.5),117,127,112,88,74,12,,,,71,59,17,15,1.1,1
2024-12-11T0200,3362A,120.5014,36.4034,青岛市,即墨2号,细颗粒物(PM2.5),93,91,134,69,97,21,,,,53,66,12,18,1.1,1.3
2024-12-11T0200,3642A,120.3503,36.0736,青岛市,市北区南部,细颗粒物(PM2.5),98,137,123,73,78,10,,,,68,70,13,18,1.2,1.1
2024-12-11T0200,3643A,120.3948,36.1805,青岛市,李沧区北部,细颗粒物(PM2.5),138,146,135,105,94,6,,,,77,67,20,20,1.4,1.2
2024-12-11T0200,1702A,113.0426,23.691,清远市,环保大楼,细颗粒物(PM2.5),65,64,63,47,45,37,,,,23,26,9,8,1.1,1
2024-12-11T0200,1703A,113.0208,23.7106,清远市,凤城街办,细颗粒物(PM2.5),59,56,54,42,41,29,,,,33,31,9,11,1.1,1.1
2024-12-11T0200,3025A,113.0477,23.6344,清远市,技师学院,颗粒物(PM10),65,80,62,44,36,4,,,,58,41,17,13,1.0,0.9
2024-12-11T0200,3318A,112.9903,23.7403,清远市,清新太和,颗粒物(PM10),51,52,56,30,35,18,,,,35,33,4,8,1.0,1
2024-12-11T0200,3455A,113.076,23.7198,清远市,清城东城,细颗粒物(PM2.5),57,51,47,40,34,34,,,,19,20,10,9,1.2,1.1
2024-12-11T0200,2661A,107.6325,35.7357,庆阳市,庆阳五中,细颗粒物(PM2.5),87,67,52,64,40,28,,,,26,18,4,6,0.8,0.7
2024-12-11T0200,2662A,107.6364,35.7067,庆阳市,市环保局,细颗粒物(PM2.5),77,71,53,56,32,30,,,,27,22,3,10,1.0,0.8
2024-12-11T0200,1916A,103.7897,25.5035,曲靖市,环境监测站,,32,32,25,21,10,51,,,,13,11,6,6,0.5,0.4
2024-12-11T0200,1917A,103.8,25.5364,曲靖市,烟厂办公区,,27,27,24,14,13,53,,,,11,9,4,4,0.3,0.3
2024-12-11T0200,3376A,103.7947,25.462,曲靖市,南苑二区,,30,30,21,11,9,56,,,,7,5,4,4,0.5,0.5
2024-12-11T0200,3377A,103.7444,25.5261,曲靖市,曲靖师范学院,,28,27,27,19,17,60,,,,17,13,7,10,0.5,0.5
2024-12-11T0200,1264A,118.8692,28.9398,衢州市,环保大楼,细颗粒物(PM2.5),70,61,68,51,52,2,,,,45,38,4,5,0.7,0.7
2024-12-11T0200,1265A,118.8709,28.9666,衢州市,实验学校,细颗粒物(PM2.5),58,50,64,41,49,9,,,,40,35,9,9,0.5,0.5
2024-12-11T0200,1266A,118.8621,28.9808,衢州市,衢州学院,细颗粒物(PM2.5),59,59,70,42,51,10,,,,47,37,4,4,0.5,0.5
2024-12-11T0200,1611A,118.5819,24.9117,泉州市,涂山街,,40,40,32,27,16,30,,,,29,16,1,2,0.7,0.5
2024-12-11T0200,1612A,118.5972,24.8978,泉州市,津头埔,,40,40,32,24,15,25,,,,34,21,2,3,0.7,0.5
2024-12-11T0200,1613A,118.6663,24.9424,泉州市,万安,,27,27,33,13,14,22,,,,40,20,1,2,0.5,0.5
2024-12-11T0200,1614A,118.6117,24.9604,泉州市,清源山,,,,,,,,,,,,,,,,
2024-12-11T0200,3529A,118.6333,24.9264,泉州市,城华南路,,28,24,29,19,17,38,,,,26,27,2,2,0.4,0.4
2024-12-11T0200,2626A,88.8876,29.2718,日喀则市,日喀则监测站,细颗粒物(PM2.5),63,71,44,45,20,12,,,,64,24,5,6,2.2,0.7
2024-12-11T0200,3726A,88.8781,29.2426,日喀则市,林业技术推广中心,细颗粒物(PM2.5),70,78,37,51,13,9,,,,59,10,12,7,1.6,0.6
2024-12-11T0200,1659A,119.471,35.4209,日照市,监测站,细颗粒物(PM2.5),105,107,89,79,63,14,,,,64,52,14,12,1.0,0.9
2024-12-11T0200,1660A,119.523,35.4216,日照市,市政府广场,细颗粒物(PM2.5),109,114,85,82,60,10,,,,72,42,14,11,1.2,0.9
2024-12-11T0200,1661A,119.5587,35.4044,日照市,港务局,细颗粒物(PM2.5),112,114,87,84,63,14,,,,65,42,18,12,1.0,0.8
2024-12-11T0200,3507A,119.5328,35.4625,日照市,职业技术学院,细颗粒物(PM2.5),107,114,84,80,58,8,,,,75,44,11,11,1.0,0.7
2024-12-11T0200,3604A,119.3266,35.1044,日照市,岚山环保分局,细颗粒物(PM2.5),92,105,103,68,59,20,,,,56,52,40,36,1.0,2.4
2024-12-11T0200,1835A,111.1922,34.7752,三门峡市,市政府,细颗粒物(PM2.5),99,74,78,74,78,1,,,,51,39,4,9,0.9,0.9
2024-12-11T0200,1836A,111.1587,34.7942,三门峡市,开发区,细颗粒物(PM2.5),119,107,111,90,84,3,,,,47,29,3,8,0.8,0.7
2024-12-11T0200,1838A,111.143,34.7955,三门峡市,风景区,细颗粒物(PM2.5),100,85,93,75,76,8,,,,45,33,10,15,0.7,0.7
2024-12-11T0200,3039A,111.1911,34.7829,三门峡市,三门峡市第一小学,细颗粒物(PM2.5),112,,83,84,80,1,,,,53,35,6,12,0.8,0.7
2024-12-11T0200,3598A,111.1,34.7167,三门峡市,富达温泉假日酒店,细颗粒物(PM2.5),124,119,106,94,82,1,,,,56,41,6,9,1.1,0.8
2024-12-11T0200,2324A,117.6211,26.2625,三明市,三钢,,46,,38,32,34,13,,,,29,21,7,10,0.5,0.7
2024-12-11T0200,2325A,117.635,26.2714,三明市,三明二中,,33,31,34,23,28,16,,,,26,23,7,9,0.5,0.7
2024-12-11T0200,2326A,117.6028,26.2378,三明市,三元区政府,,33,33,36,23,26,18,,,,16,22,2,10,0.7,1
2024-12-11T0200,2327A,117.7275,26.3108,三明市,洋溪,,,,,,,,,,,,,,,,
2024-12-11T0200,1876A,109.5078,18.2489,三亚市,河东子站,,24,23,28,9,10,74,,,,2,3,2,3,0.2,0.3
2024-12-11T0200,1877A,109.4964,18.2681,三亚市,河西子站,,22,20,24,8,11,70,,,,3,6,3,3,0.4,0.4
2024-12-11T0200,3540A,109.7348,18.3443,三亚市,君悦子站,,23,23,32,10,11,44,,,,12,9,2,2,0.5,0.5
2024-12-11T0200,2624A,91.7608,29.2313,山南市,山南监测站,,48,48,119,19,34,62,,,,11,11,3,4,0.4,0.4
2024-12-11T0200,2625A,91.7706,29.2436,山南市,山南人民医院,,45,45,178,13,37,68,,,,13,13,2,3,0.5,0.5
2024-12-11T0200,1674A,116.6794,23.3667,汕头市,金平子站,,25,22,31,12,17,77,,,,12,17,6,9,0.6,0.7
2024-12-11T0200,1675A,116.7244,23.3633,汕头市,龙湖子站,,25,24,29,14,16,79,,,,7,14,8,10,0.5,0.6
2024-12-11T0200,1676A,116.7258,23.2775,汕头市,濠江子站,,24,15,26,14,20,75,,,,8,12,3,4,0.5,0.6
2024-12-11T0200,1677A,116.7519,23.4714,汕头市,澄海子站,,29,,29,20,19,72,,,,13,16,8,12,0.7,0.7
2024-12-11T0200,1678A,116.6092,23.2539,汕头市,潮阳子站,,22,21,29,3,9,68,,,,8,14,6,7,0.5,0.6
2024-12-11T0200,3444A,116.454,23.2684,汕头市,潮南峡山,,25,24,35,10,18,78,,,,12,15,8,9,0.4,0.6
2024-12-11T0200,3624A,116.4069,23.2533,汕头市,潮南子站,,29,29,38,16,21,73,,,,12,17,7,10,0.6,0.7
2024-12-11T0200,1693A,115.3653,22.775,汕尾市,市环保局,,42,34,33,29,20,80,,,,12,16,7,8,0.7,0.7
2024-12-11T0200,1694A,115.3706,22.7898,汕尾市,市政府,,26,23,34,18,24,79,,,,11,16,8,10,0.6,0.6
2024-12-11T0200,1695A,115.3622,22.7925,汕尾市,新城中学,,44,44,41,24,26,76,,,,13,16,8,9,0.5,0.6
2024-12-11T0200,2645A,109.9154,33.8715,商洛市,监测站,颗粒物(PM10),121,191,152,76,62,31,,,,31,23,6,5,0.7,0.5
2024-12-11T0200,3045A,109.9643,33.8471,商洛市,商州区中学,细颗粒物(PM2.5),98,80,65,73,61,22,,,,46,36,3,5,0.7,0.7
2024-12-11T0200,2408A,115.6702,34.4285,商丘市,环境监测站,细颗粒物(PM2.5),159,142,109,121,92,5,,,,66,53,10,15,1.1,1
2024-12-11T0200,2409A,115.6458,34.4045,商丘市,粮食局,细颗粒物(PM2.5),152,145,99,116,82,13,,,,61,51,8,13,0.8,0.7
2024-12-11T0200,2410A,115.6293,34.3948,商丘市,睢阳区环保局,细颗粒物(PM2.5),162,143,95,123,88,13,,,,58,44,14,18,0.8,0.8
2024-12-11T0200,3171A,115.6071,34.4465,商丘市,梁园区档案局,细颗粒物(PM2.5),169,142,107,128,94,14,,,,60,57,9,11,1.1,1
2024-12-11T0200,1141A,121.4,31.238,上海市,普陀,细颗粒物(PM2.5),63,,38,45,35,70,,,,20,37,5,5,0.7,0.6
2024-12-11T0200,1142A,121.478,31.2036,上海市,十五厂,,48,34,37,33,24,66,,,,25,41,9,9,0.6,0.5
2024-12-11T0200,1143A,121.467,31.3008,上海市,虹口,,49,,34,34,25,61,,,,27,42,7,11,0.7,0.6
2024-12-11T0200,1144A,121.412,31.1654,上海市,徐汇上师大,,45,,33,31,25,68,,,,23,40,7,8,0.8,0.7
2024-12-11T0200,1145A,121.536,31.2659,上海市,杨浦四漂,颗粒物(PM10),54,58,44,29,17,64,,,,27,40,7,7,0.9,0.9
2024-12-11T0200,1147A,121.425,31.2261,上海市,静安监测站,,49,,37,34,28,73,,,,24,46,8,8,0.8,0.8
2024-12-11T0200,1148A,121.703,31.1907,上海市,浦东川沙,,38,33,32,26,18,74,,,,19,27,6,6,0.8,0.7
