timepoint,stationcode,longitude,latitude,area,positionname,primarypollutant,aqi,pm10,pm10_24h,pm2_5,pm2_5_24h,o3,o3_24h,o3_8h,o3_8h_24h,no2,no2_24h,so2,so2_24h,co,co_24h
2024-12-11T1200,2566A,102.1879,31.914,阿坝藏族羌族自治州,州农科所,,23,16,37,8,12,73,,56,50,3,13,8,10,0.4,0.5
2024-12-11T1200,2568A,102.2502,31.8896,阿坝藏族羌族自治州,马师校,,16,,17,10,14,50,,30,27,11,20,4,4,0.4,0.5
2024-12-11T1200,3994A,102.2165,31.9024,阿坝藏族羌族自治州,马尔康中学西区,,17,13,26,7,15,53,,36,35,7,11,5,6,0.4,0.5
2024-12-11T1200,2695A,80.292,41.1694,阿克苏地区,电视台,细颗粒物(PM2.5),54,49,39,38,32,50,,63,52,25,23,3,3,0.8,0.8
2024-12-11T1200,2696A,80.2613,41.1551,阿克苏地区,艺术中心,,48,42,39,33,26,39,,70,53,37,16,4,4,0.9,0.6
2024-12-11T1200,2204A,105.6467,38.8363,阿拉善盟,西城区西花园,,32,32,36,22,29,86,,71,71,13,17,11,11,0.7,0.7
2024-12-11T1200,2205A,105.6985,38.8411,阿拉善盟,蒙二幼,,,,35,16,23,82,,57,57,11,19,,9,0.6,0.8
2024-12-11T1200,2206A,105.724,38.8516,阿拉善盟,环保局新楼,,27,17,28,13,19,85,,71,71,10,14,11,10,0.6,0.7
2024-12-11T1200,2708A,88.1264,47.8517,阿勒泰地区,市站,,39,,32,27,25,17,,11,11,37,35,9,8,0.5,0.6
2024-12-11T1200,2630A,80.1161,32.5,阿里地区,阿里监测站,,29,11,10,3,5,90,,86,86,1,3,5,7,0.4,0.4
2024-12-11T1200,3192A,80.0903,32.5028,阿里地区,阿里藏医院,,28,16,10,3,3,88,,89,88,1,1,4,5,0.4,0.4
2024-12-11T1200,2642A,109.0318,32.6537,安康市,香溪洞,细颗粒物(PM2.5),55,56,36,39,31,44,,60,48,18,10,11,9,0.4,0.3
2024-12-11T1200,2644A,109.0072,32.6975,安康市,汉滨区检察院,细颗粒物(PM2.5),62,56,46,44,36,50,,49,36,18,16,8,7,0.5,0.4
2024-12-11T1200,4054A,109.0325,32.6913,安康市,市邮政管理局,,,,47,56,37,46,,38,29,,19,18,7,0.6,0.6
2024-12-11T1200,2291A,117.0809,30.5177,安庆市,环科院,细颗粒物(PM2.5),110,96,61,83,53,34,,41,34,24,34,5,5,0.7,0.8
2024-12-11T1200,2292A,117.0331,30.5119,安庆市,马山宾馆,细颗粒物(PM2.5),102,95,47,76,48,30,,38,31,27,33,6,6,0.6,0.9
2024-12-11T1200,2294A,116.9896,30.6145,安庆市,安庆大学,细颗粒物(PM2.5),102,97,62,76,54,45,,43,39,19,34,9,10,0.9,1
2024-12-11T1200,3173A,117.0598,30.5351,安庆市,市人大,细颗粒物(PM2.5),122,106,60,92,53,32,,40,32,,37,4,5,1.0,0.7
2024-12-11T1200,3122A,105.9606,26.2611,安顺市,伍家关,,,,5,,2,,,33,,,10,,8,,0.5
2024-12-11T1200,3123A,105.9408,26.2431,安顺市,凤凰山,,,,7,10,5,42,,42,42,,12,12,10,0.8,0.6
2024-12-11T1200,3124A,105.9439,26.2564,安顺市,金钟山,,15,14,4,10,8,45,,43,43,9,10,15,12,0.6,0.6
2024-12-11T1200,3125A,105.8983,26.2481,安顺市,娄家坡,,17,17,12,11,8,41,,43,43,14,13,14,14,0.6,0.6
2024-12-11T1200,1818A,114.4839,36.0621,安阳市,棉研所,细颗粒物(PM2.5),107,,167,80,128,34,,11,11,52,62,16,13,1.1,1.2
2024-12-11T1200,1819A,114.3551,36.1017,安阳市,红庙街,细颗粒物(PM2.5),85,96,136,63,108,33,,14,14,46,62,13,11,1.0,1.1
2024-12-11T1200,1820A,114.361,36.0681,安阳市,银杏小区,细颗粒物(PM2.5),90,97,130,67,112,34,,15,15,46,61,11,9,1.6,1.7
2024-12-11T1200,3141A,114.3922,36.0878,安阳市,信访局,细颗粒物(PM2.5),78,87,150,57,104,27,,13,13,52,64,12,11,1.0,1.1
2024-12-11T1200,3669A,114.4705,36.0637,安阳市,左辅环卫站,细颗粒物(PM2.5),107,121,161,80,119,,,14,14,52,63,,10,1.1,1.1
2024-12-11T1200,3703A,114.2917,36.0949,安阳市,安钢职工学校,细颗粒物(PM2.5),89,96,155,66,119,37,,15,15,48,71,13,12,1.0,1.4
2024-12-11T1200,1748A,123.044,41.1196,鞍山市,深沟寺,,28,28,50,19,30,45,,34,34,12,29,16,14,0.5,0.7
2024-12-11T1200,1749A,123.011,41.0931,鞍山市,太阳城,,25,25,40,15,24,48,,44,44,15,26,11,10,0.6,0.7
2024-12-11T1200,1750A,123.0485,41.1442,鞍山市,太平,,29,29,62,12,33,45,,33,33,15,36,13,13,0.6,0.8
2024-12-11T1200,1751A,122.9642,41.0971,鞍山市,铁西三道街,,44,44,57,20,30,40,,22,22,20,39,21,32,1.2,2.1
2024-12-11T1200,1752A,122.9341,41.0833,鞍山市,铁西工业园区,,37,37,58,18,32,40,,28,28,26,47,22,28,0.8,1.5
2024-12-11T1200,1753A,123.022,41.0821,鞍山市,明达新区,,22,22,41,14,27,48,,40,40,11,23,12,13,0.4,0.5
2024-12-11T1200,1754A,123.1289,41.0228,鞍山市,千山,,,,50,,26,,,23,,,30,,6,,0.4
2024-12-11T1200,2195A,107.4212,40.761,巴彦淖尔市,附二中,,35,35,64,22,32,42,,31,31,16,35,6,11,0.4,0.6
2024-12-11T1200,2196A,107.37,40.7372,巴彦淖尔市,市环保大楼,,48,48,52,12,26,49,,30,30,12,29,5,6,0.2,0.4
2024-12-11T1200,1956A,86.1472,41.7538,巴音郭楞蒙古自治州,孔雀公园,,40,40,29,26,23,36,,60,49,45,26,4,3,0.8,0.5
2024-12-11T1200,1957A,86.1972,41.7166,巴音郭楞蒙古自治州,棉纺厂,颗粒物(PM10),57,63,37,35,17,26,,49,40,51,21,3,2,0.8,0.4
2024-12-11T1200,1958A,86.2357,41.7173,巴音郭楞蒙古自治州,经济开发区,,38,38,27,20,18,39,,60,57,40,20,3,4,0.7,0.5
2024-12-11T1200,2914A,106.7677,31.8794,巴中市,苏山坪,,46,40,38,32,32,27,,52,39,28,18,4,4,0.7,0.5
2024-12-11T1200,3182A,106.7656,31.8545,巴中市,丽阳花园,,49,44,48,34,35,24,,8,8,31,27,4,3,0.7,0.6
2024-12-11T1200,3183A,106.7418,31.8654,巴中市,圣泉水务公司,,40,40,39,28,31,32,,13,13,23,28,3,3,0.6,0.4
2024-12-11T1200,3616A,106.7616,31.8344,巴中市,市中心医院,细颗粒物(PM2.5),57,,46,40,40,28,,8,8,22,24,3,3,0.5,0.5
2024-12-11T1200,2235A,122.7911,45.6077,白城市,洮北区环保局,,,,24,,18,66,,44,44,10,14,,6,0.5,0.6
2024-12-11T1200,2236A,122.8738,45.5725,白城市,市环保局,,20,19,26,14,16,63,,34,34,8,16,3,5,0.5,0.6
2024-12-11T1200,2231A,126.4219,41.9171,白山市,喜丰,,,66,69,40,38,,,17,17,28,44,28,27,0.8,0.9
2024-12-11T1200,2232A,126.4077,41.9419,白山市,环保局,细颗粒物(PM2.5),67,80,76,48,42,40,,21,21,28,29,28,20,0.8,0.8
2024-12-11T1200,2647A,104.1724,36.5446,白银市,第三小学,细颗粒物(PM2.5),75,,34,55,38,39,,56,45,28,16,22,14,1.1,0.8
2024-12-11T1200,2648A,104.1465,36.5482,白银市,动力公司,细颗粒物(PM2.5),68,,30,49,37,52,,52,39,21,14,18,7,1.1,0.8
2024-12-11T1200,2512A,106.6103,23.9011,百色市,市监测站,,9,9,41,6,30,25,,20,20,11,21,7,14,0.8,1.1
2024-12-11T1200,2513A,106.6538,23.8859,百色市,市中心血站,,14,14,50,9,37,26,,24,24,12,22,6,14,0.7,1
2024-12-11T1200,3406A,106.6085,23.8798,百色市,祈福高中,,15,15,48,10,33,28,,21,21,9,24,5,11,0.7,0.9
2024-12-11T1200,2270A,117.396,32.939,蚌埠市,工人疗养院,细颗粒物(PM2.5),144,142,108,110,81,35,,28,20,46,38,12,8,1.0,0.8
2024-12-11T1200,2271A,117.3605,32.9427,蚌埠市,百货大楼,细颗粒物(PM2.5),133,141,108,101,81,36,,23,16,41,37,12,7,0.8,0.8
2024-12-11T1200,2273A,117.4185,32.8911,蚌埠市,蚌埠学院,细颗粒物(PM2.5),142,134,95,108,75,40,,34,30,44,39,14,9,0.9,0.7
2024-12-11T1200,2274A,117.3533,32.9673,蚌埠市,淮上区政府,细颗粒物(PM2.5),139,144,114,106,86,41,,23,16,40,39,10,7,0.9,0.7
2024-12-11T1200,2275A,117.3145,32.8977,蚌埠市,高新区,细颗粒物(PM2.5),132,134,101,100,80,38,,22,17,49,46,14,9,0.9,0.8
2024-12-11T1200,3715A,117.3092,32.9314,蚌埠市,蚌埠田家炳中学,细颗粒物(PM2.5),132,146,114,100,82,38,,16,14,41,41,13,9,0.9,0.8
2024-12-11T1200,1585A,109.8756,40.6532,包头市,市环境监测站,颗粒物(PM10),66,82,48,45,23,24,,22,11,43,38,29,19,1.0,1
2024-12-11T1200,1587A,109.9991,40.5842,包头市,包头八中,颗粒物(PM10),59,68,87,40,43,26,,14,14,32,47,12,15,0.8,1.1
2024-12-11T1200,1588A,109.8538,40.6821,包头市,青山宾馆,颗粒物(PM10),65,80,37,46,25,25,,28,13,41,29,28,14,0.9,0.8
2024-12-11T1200,1589A,109.8642,40.6288,包头市,惠龙物流,细颗粒物(PM2.5),62,72,58,44,31,27,,22,10,36,38,20,16,1.4,1.4
2024-12-11T1200,1590A,110.0377,40.5546,包头市,东河鸿龙湾,,43,32,88,30,49,25,,14,14,26,43,19,21,0.6,1.2
2024-12-11T1200,3283A,109.9154,40.5685,包头市,滨河大厦,,,60,55,35,32,,,16,16,30,41,18,19,0.8,0.9
2024-12-11T1200,3419A,109.9447,40.6261,包头市,包头市委党校,,,105,78,35,35,22,,13,10,,54,,22,1.0,1.2
2024-12-11T1200,3683A,109.8331,40.6576,包头市,昆区政府,细颗粒物(PM2.5),70,83,38,51,28,28,,29,15,37,30,24,15,1.2,0.9
2024-12-11T1200,1930A,107.185,34.3063,宝鸡市,庙沟村,细颗粒物(PM2.5),89,,66,66,69,49,,38,38,17,26,8,7,0.7,0.7
2024-12-11T1200,1931A,107.0708,34.3017,宝鸡市,竹园沟,细颗粒物(PM2.5),87,70,66,64,67,54,,33,33,19,21,8,7,0.8,0.8
2024-12-11T1200,1932A,107.1906,34.3672,宝鸡市,三陆医院,细颗粒物(PM2.5),90,,82,67,81,43,,14,14,22,35,6,5,0.7,0.8
2024-12-11T1200,1933A,107.1431,34.3547,宝鸡市,监测站,细颗粒物(PM2.5),92,,75,68,72,45,,20,20,21,28,8,7,0.8,0.8
2024-12-11T1200,1934A,107.1186,34.3739,宝鸡市,技工学校,细颗粒物(PM2.5),82,96,74,60,69,38,,19,19,23,22,7,6,0.8,0.8
2024-12-11T1200,1935A,107.3906,34.3528,宝鸡市,陈仓区环保局家属楼,细颗粒物(PM2.5),88,68,89,65,83,51,,24,24,19,35,10,7,0.9,1
2024-12-11T1200,1936A,107.2058,34.3497,宝鸡市,文理学院,细颗粒物(PM2.5),82,,74,60,67,44,,18,18,18,29,7,6,0.8,0.8
2024-12-11T1200,1937A,107.2386,34.3622,宝鸡市,三迪小学,细颗粒物(PM2.5),94,,74,70,82,39,,13,13,23,33,7,6,0.9,0.9
2024-12-11T1200,1051A,115.493,38.8632,保定市,游泳馆,细颗粒物(PM2.5),63,59,67,45,40,22,,11,11,42,48,4,3,1.0,0.7
2024-12-11T1200,1052A,115.5213,38.8959,保定市,华电二区,颗粒物(PM10),53,56,65,36,45,16,,7,7,54,57,6,4,0.7,0.5
2024-12-11T1200,1053A,115.4713,38.9108,保定市,接待中心,细颗粒物(PM2.5),72,76,72,52,44,18,,8,8,47,53,7,3,0.4,0.3
2024-12-11T1200,1054A,115.4612,38.8416,保定市,地表水厂,颗粒物(PM10),69,87,75,43,41,28,,16,16,49,58,9,3,0.7,0.5
2024-12-11T1200,3581A,115.31981,38.95208,保定市,满城区生态环境分局,颗粒物(PM10),59,68,71,39,37,30,,14,14,46,61,6,3,0.8,0.8
2024-12-11T1200,3582A,115.47694,38.76408,保定市,清苑区第二中学,颗粒物(PM10),56,62,71,30,36,22,,12,12,48,51,8,3,0.8,0.6
2024-12-11T1200,3583A,115.62909,39.02311,保定市,徐水物探局,,,61,76,36,35,,,,,38,44,10,8,0.6,0.6
2024-12-11T1200,4004A,115.4202,38.8656,保定市,双鹰农机,颗粒物(PM10),52,53,71,33,42,30,,16,16,44,51,10,6,0.8,0.6
2024-12-11T1200,4034A,115.5150,38.8590,保定市,植保所站,,,68,62,36,42,,,8,8,51,54,11,5,,0.7
2024-12-11T1200,2594A,99.1678,25.1081,保山市,市环境监测站,颗粒物(PM10),56,61,42,15,20,84,,57,51,12,8,6,4,0.4,0.4
2024-12-11T1200,2595A,99.1711,25.1328,保山市,市环保局,颗粒物(PM10),56,62,40,20,24,80,,64,58,16,6,8,7,0.4,0.3
2024-12-11T1200,1866A,109.2262,21.588,北海市,牛尾岭水库,细颗粒物(PM2.5),60,49,37,43,27,25,,71,49,11,11,5,11,0.8,0.7
2024-12-11T1200,1867A,109.1436,21.4086,北海市,海滩公园,颗粒物(PM10),64,78,49,29,27,35,,94,64,14,13,9,10,0.8,0.7
2024-12-11T1200,1868A,109.0981,21.4661,北海市,新市环保局,,46,46,48,31,30,33,,85,55,14,17,7,8,0.6,0.5
2024-12-11T1200,1869A,109.1778,21.5233,北海市,北海工业园,,,66,53,32,32,33,,78,56,14,18,7,10,,0.7
2024-12-11T1200,3400A,109.1911,21.4415,北海市,龙潭自来水厂,颗粒物(PM10),56,61,47,39,33,35,,82,55,12,13,4,7,0.9,0.7
2024-12-11T1200,1001A,116.3621,39.8784,北京市,万寿西宫,,25,25,30,15,17,52,,42,42,22,34,6,3,0.3,0.3
2024-12-11T1200,1002A,116.2202,40.2915,北京市,定陵,,28,26,29,19,22,29,,28,28,16,16,7,6,0.3,0.4
2024-12-11T1200,1003A,116.4174,39.9289,北京市,东四,,29,29,30,15,15,44,,38,38,21,29,4,2,0.4,0.5
2024-12-11T1200,1004A,116.4072,39.8863,北京市,天坛,,29,29,25,16,15,53,,46,46,18,24,3,2,0.3,0.2
2024-12-11T1200,1005A,116.462,39.9365,北京市,农展馆,,29,29,28,15,14,47,,31,31,24,37,2,3,0.5,0.5
2024-12-11T1200,1006A,116.3392,39.9295,北京市,官园,,21,21,28,13,16,52,,37,37,16,30,5,3,0.3,0.3
2024-12-11T1200,1007A,116.2878,39.9611,北京市,海淀万柳,,20,20,41,10,20,58,,29,29,18,47,5,4,0.3,0.5
2024-12-11T1200,1008A,116.6636,40.135,北京市,顺义新城,,20,17,28,9,16,63,,44,44,3,28,3,3,0.3,0.3
2024-12-11T1200,1009A,116.6275,40.3275,北京市,怀柔镇,,19,16,24,9,14,60,,40,36,8,24,2,2,0.4,0.5
2024-12-11T1200,1010A,116.2296,40.217,北京市,昌平镇,,31,31,35,19,22,43,,43,42,18,16,7,7,0.3,0.3
2024-12-11T1200,1011A,116.3966,39.9821,北京市,奥体中心,,26,26,29,12,15,48,,36,36,23,36,6,4,0.3,0.3
2024-12-11T1200,1012A,116.184,39.9136,北京市,古城,,35,35,49,17,25,39,,14,14,22,39,7,6,0.5,0.5
2024-12-11T1200,3281A,115.9718,40.4529,北京市,延庆夏都,,41,41,55,25,34,34,,10,10,16,31,5,5,0.4,0.6
2024-12-11T1200,3417A,117.0709,40.1465,北京市,平谷新城,,30,30,59,13,27,45,,12,12,15,32,4,3,0.4,0.6
2024-12-11T1200,3418A,116.8336,40.4095,北京市,密云新城,,20,12,21,6,11,62,,55,55,3,10,2,2,0.1,0.2
2024-12-11T1200,3671A,116.088,39.9726,北京市,门头沟三家店,,32,32,51,14,23,40,,10,10,22,41,5,4,0.3,0.4
2024-12-11T1200,3672A,116.1541,39.8204,北京市,丰台云岗,,31,31,41,17,22,42,,14,14,23,45,7,3,0.5,0.4
2024-12-11T1200,3673A,116.6804,39.9081,北京市,通州东关,,31,31,43,16,18,47,,15,15,11,47,3,2,0.4,0.4
2024-12-11T1200,3674A,115.9577,39.7603,北京市,房山燕山,,38,38,37,17,20,45,,28,28,23,27,6,2,0.6,0.4
2024-12-11T1200,3675A,116.4672,39.7733,北京市,大兴旧宫,,33,33,31,12,13,49,,19,19,13,38,6,2,0.6,0.3
2024-12-11T1200,3694A,115.986,40.4563,北京市,延庆石河营,,37,37,54,25,36,35,,10,10,19,32,3,2,0.3,0.7
2024-12-11T1200,3695A,116.6151,40.3053,北京市,怀柔新城,,18,18,22,8,14,55,,43,43,6,14,3,1,0.1,0.2
2024-12-11T1200,3696A,116.2545,39.8768,北京市,丰台小屯,,28,28,38,14,18,45,,32,32,20,37,6,4,0.4,0.5
2024-12-11T1200,3697A,116.84,40.3844,北京市,密云镇,,21,14,31,7,14,65,,49,49,3,23,3,3,0.1,0.3
2024-12-11T1200,1761A,123.8275,41.3064,本溪市,大峪,,29,28,75,20,55,38,,26,26,21,45,15,13,0.6,1.6
2024-12-11T1200,1762A,123.7567,41.3325,本溪市,溪湖,,28,28,81,11,46,44,,34,34,15,40,10,11,0.7,1
2024-12-11T1200,1763A,123.7169,41.3094,本溪市,彩屯,,22,19,74,15,58,42,,33,33,21,49,11,11,0.6,1.2
2024-12-11T1200,1764A,123.7669,41.2864,本溪市,东明,,,26,74,9,52,43,,26,26,,48,13,12,0.6,1.3
2024-12-11T1200,1765A,123.7992,41.2664,本溪市,新立屯,,,21,77,17,51,46,,27,27,19,52,9,9,,1.2
2024-12-11T1200,1766A,123.8142,41.3472,本溪市,威宁,颗粒物(PM10),53,56,124,3,70,38,,16,16,24,52,10,11,0.5,1.2
2024-12-11T1200,2587A,105.2864,27.3125,毕节市,八中,,,21,7,21,7,,,53,53,15,10,7,6,0.5,0.5
2024-12-11T1200,2588A,105.31,27.2944,毕节市,师专,,20,19,10,14,7,53,,49,49,12,12,6,6,0.6,0.7
2024-12-11T1200,3537A,105.3631,27.3533,毕节市,长征村,,19,11,4,9,4,58,,56,56,8,7,8,7,0.5,0.5
2024-12-11T1200,1629A,118.0018,37.3617,滨州市,第二水厂,,31,31,81,7,50,55,,44,44,11,52,11,20,0.3,0.6
2024-12-11T1200,1630A,117.9776,37.393,滨州市,北中新校,,39,39,90,7,56,57,,41,41,9,54,6,19,0,0.5
2024-12-11T1200,3514A,117.9378,37.3956,滨州市,中海酒店,,28,22,88,19,62,59,,35,35,8,50,6,18,0.3,0.7
2024-12-11T1200,3515A,117.9378,37.3553,滨州市,开发区一中,,31,31,76,12,46,61,,52,52,13,51,7,16,0.2,0.6
2024-12-11T1200,3516A,118.0917,37.694,滨州市,金海六路,,24,24,75,3,48,62,,44,44,4,43,8,12,0.3,0.7
2024-12-11T1200,4028A,117.9956,37.3753,滨州市,滨州市西街道办事处,,31,31,82,14,60,60,,48,48,8,46,9,18,0.4,0.8
2024-12-11T1200,2311A,115.8072,33.8399,亳州市,污水处理厂,,,119,124,62,74,44,,16,16,33,40,12,10,,0.9
2024-12-11T1200,2312A,115.7789,33.8518,亳州市,三国揽胜宫,细颗粒物(PM2.5),102,144,137,76,87,44,,16,16,39,47,12,11,0.9,0.8
2024-12-11T1200,3332A,115.7633,33.8034,亳州市,亳州学院,细颗粒物(PM2.5),109,126,124,82,78,44,,18,18,37,44,10,9,0.8,0.8
2024-12-11T1200,2693A,82.0485,44.8556,博尔塔拉蒙古自治州,市党校,,33,32,31,23,27,66,,64,64,12,15,6,6,0.0,0.3
2024-12-11T1200,2694A,82.0806,44.8969,博尔塔拉蒙古自治州,市环保局,,42,42,49,14,17,69,,72,72,17,16,9,7,0.1,0.2
2024-12-11T1200,1071A,116.8842,38.2991,沧州市,沧县城建局,,39,39,72,10,46,46,,14,14,14,63,5,10,0.5,1.1
2024-12-11T1200,1072A,116.8584,38.3254,沧州市,电视转播站,,32,32,90,7,54,54,,15,15,10,65,9,15,0.2,1.1
2024-12-11T1200,1073A,116.8709,38.3228,沧州市,市环保局,,40,40,80,15,56,50,,14,14,11,62,4,10,0.4,1.1
2024-12-11T1200,3324A,116.8136,38.3004,沧州市,河北水利电力学院,,24,24,76,3,46,53,,21,21,9,48,6,13,0.2,0.9
2024-12-11T1200,2622A,97.1806,31.1273,昌都市,昌都监测站,,25,25,17,10,9,58,,57,51,15,13,6,6,0.7,0.6
2024-12-11T1200,3719A,97.1714,31.1406,昌都市,昌都会议中心,,21,13,12,10,7,65,,64,59,6,3,5,5,0.6,0.5
2024-12-11T1200,2690A,88.1236,43.8886,昌吉回族自治州,天山天池,,18,14,25,12,21,53,,46,46,6,12,2,2,0.7,0.8
2024-12-11T1200,2692A,87.2717,44.0297,昌吉回族自治州,新区政务中心,,44,44,54,26,35,14,,24,10,48,34,8,8,1.7,1
2024-12-11T1200,3613A,87.3095,44.0142,昌吉回族自治州,亚心广场,,35,31,53,24,41,43,,29,23,22,33,7,7,0.6,0.6
2024-12-11T1200,1119A,125.3325,43.9166,长春市,食品厂,,44,44,54,23,33,42,,19,19,21,37,9,10,0.5,0.6
2024-12-11T1200,1120A,125.2863,43.9027,长春市,客车厂,,39,39,45,25,34,46,,26,26,15,32,8,9,0.3,0.4
2024-12-11T1200,1121A,125.2841,43.8463,长春市,邮电学院,,,33,45,23,32,46,,24,24,,35,18,17,,0.5
2024-12-11T1200,1122A,125.3716,43.8772,长春市,劳动公园,,40,40,34,23,23,51,,30,30,18,33,11,13,0.5,0.6
2024-12-11T1200,1123A,125.3297,43.8805,长春市,园林处,,40,40,40,26,28,46,,26,26,16,31,9,12,0.4,0.5
2024-12-11T1200,1124A,125.4605,43.79,长春市,净月潭,颗粒物(PM10),51,51,46,17,31,35,,18,18,28,38,16,9,0.4,0.5
2024-12-11T1200,1125A,125.7194,43.515,长春市,甩湾子,,,,50,,48,,,28,,,25,,7,,0.9
2024-12-11T1200,1126A,125.3863,43.8447,长春市,经开区环卫处,,35,35,46,17,25,46,,21,21,18,38,15,19,0.7,0.8
2024-12-11T1200,1127A,125.245,43.7783,长春市,高新区管委会,,45,45,57,22,37,49,,22,22,14,40,8,8,0.3,0.7
2024-12-11T1200,1128A,125.1761,43.8325,长春市,岱山公园,,46,46,50,30,37,46,,27,27,10,35,9,8,0.4,0.6
2024-12-11T1200,1335A,113.0833,28.2325,长沙市,经开区环保局,细颗粒物(PM2.5),57,55,54,40,40,49,,30,30,21,31,1,3,0.4,0.6
2024-12-11T1200,1336A,112.8872,28.2189,长沙市,高开区环保局,细颗粒物(PM2.5),54,55,56,38,44,54,,37,37,12,19,6,4,0.6,0.7
2024-12-11T1200,1337A,113.0792,28.2053,长沙市,马坡岭,,,56,54,,41,47,,32,32,17,24,4,2,0.6,0.7
2024-12-11T1200,1338A,112.9394,28.19,长沙市,湖南师范大学,细颗粒物(PM2.5),62,65,57,44,42,53,,37,37,16,22,4,3,0.4,0.6
2024-12-11T1200,1339A,113.0178,28.1322,长沙市,雨花区环保局,细颗粒物(PM2.5),64,60,50,46,43,48,,34,34,22,30,6,4,0.4,0.6
2024-12-11T1200,1340A,112.9792,28.2597,长沙市,伍家岭,"颗粒物(PM10),细颗粒物(PM2.5)",57,64,59,40,39,48,,31,31,19,26,4,2,0.8,0.9
2024-12-11T1200,1341A,113.0014,28.1944,长沙市,火车新站,细颗粒物(PM2.5),62,63,54,44,45,47,,34,34,23,28,3,1,0.5,0.7
2024-12-11T1200,1342A,112.9844,28.1178,长沙市,天心区环保局,细颗粒物(PM2.5),64,65,58,46,39,49,,33,33,21,29,5,3,0.4,0.6
2024-12-11T1200,1343A,112.8908,28.1308,长沙市,湖南中医药大学,,,59,68,45,53,,,34,34,,28,,6,0.4,0.6
2024-12-11T1200,1344A,112.9581,28.3611,长沙市,沙坪,,,46,46,45,47,,,29,29,8,14,15,6,0.5,0.7
2024-12-11T1200,1727A,113.1147,36.1547,长治市,清华站,细颗粒物(PM2.5),128,,77,97,65,23,,13,12,,38,8,12,1.4,1.2
2024-12-11T1200,1728A,113.1031,36.1989,长治市,监测站,细颗粒物(PM2.5),113,85,69,85,66,26,,11,11,20,33,11,13,1.4,1.2
2024-12-11T1200,1730A,113.0886,36.2125,长治市,审计局,细颗粒物(PM2.5),92,70,72,68,64,30,,10,10,29,46,8,9,1.2,1
2024-12-11T1200,1731A,113.0844,36.1856,长治市,长治八中,细颗粒物(PM2.5),132,121,101,100,76,,,6,5,14,28,7,11,1.4,1.1
2024-12-11T1200,2845A,113.1569,36.1911,长治市,德盛苑,细颗粒物(PM2.5),119,100,82,90,68,29,,15,15,21,31,4,6,1.2,1
2024-12-11T1200,3568A,113.06,36.0464,长治市,向阳小学,细颗粒物(PM2.5),132,111,94,100,80,28,,20,20,22,32,7,10,1.3,1.1
2024-12-11T1200,3569A,112.8792,36.3144,长治市,屯留一中,细颗粒物(PM2.5),134,,68,102,71,24,,17,17,32,35,8,10,1.4,1.3
2024-12-11T1200,3570A,113.235,36.3489,长治市,潞城四中,细颗粒物(PM2.5),98,96,65,73,64,33,,14,14,30,31,18,11,1.9,1.4
2024-12-11T1200,1854A,111.6975,28.9703,常德市,市二中,细颗粒物(PM2.5),74,66,64,54,56,72,,43,43,12,17,6,4,0.4,0.5
2024-12-11T1200,1857A,111.7158,29.1456,常德市,白鹤山,,,,,,,,,,,,,,,,
2024-12-11T1200,3138A,111.7153,29.0289,常德市,武陵区永安,细颗粒物(PM2.5),67,71,66,48,54,71,,47,47,11,17,4,2,0.4,0.5
2024-12-11T1200,3139A,111.6892,28.9881,常德市,鼎城区玉霞,细颗粒物(PM2.5),70,68,68,51,54,74,,41,41,14,19,5,3,0.5,0.6
2024-12-11T1200,3140A,111.6625,29.0531,常德市,武陵区长庚,,,,68,,54,70,,35,35,8,16,4,3,0.4,0.5
2024-12-11T1200,1196A,119.9633,31.762,常州市,市监测站,细颗粒物(PM2.5),94,88,65,70,41,36,,73,56,36,24,9,7,0.7,0.6
2024-12-11T1200,1200A,119.9468,31.7069,常州市,武进监测站,细颗粒物(PM2.5),78,59,48,57,31,30,,70,52,46,31,14,10,0.6,0.7
2024-12-11T1200,1201A,119.9255,31.9087,常州市,安家,细颗粒物(PM2.5),94,78,52,70,37,36,,69,49,42,33,11,8,0.7,0.6
2024-12-11T1200,3002A,119.9805,31.8174,常州市,行政中心,细颗粒物(PM2.5),84,72,48,62,38,32,,69,48,41,32,9,8,0.5,0.5
2024-12-11T1200,3003A,120.0522,31.7748,常州市,经开区,细颗粒物(PM2.5),78,64,56,57,35,36,,70,54,48,38,11,9,0.6,0.5
2024-12-11T1200,3010A,119.9025,31.7964,常州市,钟楼,细颗粒物(PM2.5),79,71,52,58,35,34,,69,50,39,30,9,8,0.8,0.7
2024-12-11T1200,3429A,119.8598,31.7066,常州市,武进经发区,细颗粒物(PM2.5),77,60,55,56,40,46,,60,52,34,37,8,7,0.6,0.7
2024-12-11T1200,3430A,119.5826,31.7245,常州市,金坛城区,,,50,52,47,40,,,69,59,20,28,,7,0.6,0.7
2024-12-11T1200,2220A,120.4318,41.5881,朝阳市,西梁,,22,22,47,6,24,55,,32,24,5,25,7,9,0.5,1
2024-12-11T1200,2221A,120.4521,41.5646,朝阳市,河畔小区,颗粒物(PM10),56,61,34,24,21,34,,36,22,24,20,9,8,0.9,0.9
2024-12-11T1200,2222A,120.4176,41.5648,朝阳市,八里堡,,46,46,43,22,26,52,,32,20,7,27,10,12,0.6,1
2024-12-11T1200,2223A,120.3806,41.5969,朝阳市,农业园区,,24,24,27,8,18,58,,38,35,4,22,6,7,0.4,0.5
2024-12-11T1200,1705A,116.6367,23.6719,潮州市,西园路,颗粒物(PM10),70,89,44,34,29,97,,48,48,24,18,9,6,0.7,0.4
2024-12-11T1200,3026A,116.6183,23.6608,潮州市,市政府,颗粒物(PM10),90,130,47,48,22,108,,55,55,35,19,12,6,1.0,0.5
2024-12-11T1200,4036A,116.6461,23.6761,潮州市,金山,颗粒物(PM10),70,90,42,36,27,107,,48,48,20,18,10,8,0.9,0.7
2024-12-11T1200,2472A,113.0073,25.9061,郴州市,马头岭,,49,49,57,27,39,32,,28,28,13,28,9,9,0.5,0.7
2024-12-11T1200,2473A,113.0116,25.8226,郴州市,市职中,,32,,49,22,41,22,,18,18,24,29,4,7,0.7,0.8
2024-12-11T1200,2474A,113.0161,25.8001,郴州市,兴隆步行街,,,,59,23,51,,,16,16,22,25,5,8,0.8,0.8
2024-12-11T1200,2475A,113.0383,25.8071,郴州市,市审计局,,32,23,57,22,44,22,,20,20,19,23,4,7,0.9,0.9
2024-12-11T1200,2476A,113.0348,25.7759,郴州市,市环保局,,38,,61,26,49,25,,22,22,19,23,4,7,0.8,0.8
2024-12-11T1200,1431A,103.9728,30.7236,成都市,金泉两河,,47,47,60,25,38,47,,12,12,27,36,2,1,0.5,0.7
2024-12-11T1200,1432A,104.176,30.6872,成都市,十里店,,49,49,59,34,41,36,,11,11,46,51,3,2,0.6,0.7
2024-12-11T1200,1433A,104.079,30.5706,成都市,三瓦窑,,38,38,63,26,39,50,,13,13,27,43,2,2,0.5,0.7
2024-12-11T1200,1434A,104.1114,30.63,成都市,沙河铺,细颗粒物(PM2.5),52,49,59,36,41,35,,12,12,36,33,4,3,0.5,0.6
2024-12-11T1200,1437A,104.0786,30.6531,成都市,君平街,,43,43,58,29,44,47,,12,12,34,48,5,5,0.8,0.9
2024-12-11T1200,1438A,103.613,31.0283,成都市,灵岩寺,,,,,,,,,,,,,,,,
2024-12-11T1200,2880A,104.0239,30.65639,成都市,大石西路,,46,39,62,32,41,47,,11,11,26,39,3,3,0.4,0.6
2024-12-11T1200,3136A,104.2725,30.5589,成都市,龙泉驿区区政府,,49,48,51,34,38,56,,36,36,26,26,4,3,0.5,0.5
2024-12-11T1200,3357A,104.0106,30.6931,成都市,金博路,,37,37,59,18,40,42,,10,10,33,39,2,3,0.5,0.7
2024-12-11T1200,3359A,104.0578,30.5225,成都市,华阳,细颗粒物(PM2.5),52,46,66,36,45,41,,13,13,32,42,1,1,0.4,0.6
2024-12-11T1200,3487A,104.2394,30.5319,成都市,车城东七路,,46,42,58,32,41,63,,21,21,19,35,3,3,0.4,0.5
2024-12-11T1200,3488A,104.3853,30.7453,成都市,青白江技师分院,,32,30,49,22,38,61,,14,14,17,29,4,5,0.3,0.4
2024-12-11T1200,3489A,104.0789,30.4072,成都市,科学城,,,38,55,31,44,59,,11,11,,32,4,4,0.4,0.6
2024-12-11T1200,4011A,103.8506,30.6947,成都市,光华大道三段,,43,43,54,15,36,29,,5,5,35,36,1,2,0.5,0.6
2024-12-11T1200,1062A,117.9531,40.9081,承德市,铁路,,43,43,69,18,37,27,,11,11,32,43,6,7,0.6,0.9
2024-12-11T1200,1063A,117.9392,40.9763,承德市,中国银行,,40,40,63,3,34,32,,8,8,17,28,3,2,0.5,0.7
2024-12-11T1200,1064A,117.9503,40.928,承德市,开发区,,,,70,,35,32,,11,11,27,37,,5,0.5,0.8
2024-12-11T1200,1065A,117.8051,40.9655,承德市,文化中心,,19,6,77,3,34,59,,17,17,6,38,3,10,0.2,0.7
2024-12-11T1200,1066A,117.9268,41.0026,承德市,离宫,,33,33,55,23,37,32,,10,10,23,36,3,2,0.4,0.5
2024-12-11T1200,2314A,117.47,30.6618,池州市,池州学院,细颗粒物(PM2.5),98,,47,73,44,25,,44,34,23,33,3,4,0.7,0.7
2024-12-11T1200,3237A,117.4918,30.6617,池州市,展览馆,细颗粒物(PM2.5),112,108,67,84,53,23,,43,33,26,34,5,6,,0.8
2024-12-11T1200,3333A,117.5627,30.695,池州市,第八中学,细颗粒物(PM2.5),107,91,59,80,49,28,,47,34,25,34,4,5,0.6,0.7
2024-12-11T1200,3334A,117.5038,30.6243,池州市,第十二中学,,,79,52,75,45,22,,48,39,,34,2,3,,0.6
2024-12-11T1200,1744A,118.9233,42.2816,赤峰市,松山一中,颗粒物(PM10),58,65,32,20,13,37,,34,19,30,23,14,13,0.9,0.8
2024-12-11T1200,1745A,118.9576,42.2728,赤峰市,哈达街,,43,38,22,30,11,41,,43,29,28,19,12,11,0.6,0.7
2024-12-11T1200,1746A,118.8788,42.2554,赤峰市,天义路,颗粒物(PM10),54,57,19,30,12,41,,30,21,23,22,13,11,0.8,0.6
2024-12-11T1200,3058A,119.2658,42.0353,赤峰市,银河街,细颗粒物(PM2.5),75,87,40,55,26,38,,37,32,30,24,33,23,1.0,0.7
2024-12-11T1200,3286A,118.9359,42.3147,赤峰市,桥北物流园区,,35,34,19,24,14,50,,32,23,18,18,12,13,0.7,0.7
2024-12-11T1200,2521A,107.3476,22.4136,崇左市,市环保局江州分局,,8,,106,3,62,25,,24,23,5,20,4,7,0.8,1.1
2024-12-11T1200,2522A,107.3702,22.3707,崇左市,城南新区,,11,,98,3,77,23,,19,19,8,32,5,12,1.1,1.4
2024-12-11T1200,2298A,118.3093,32.3153,滁州市,老年大学,细颗粒物(PM2.5),58,48,48,41,35,57,,51,51,24,26,4,4,0.6,0.6
2024-12-11T1200,2299A,118.3244,32.2786,滁州市,人大宾馆,细颗粒物(PM2.5),64,48,48,46,42,58,,51,51,20,25,7,7,0.4,0.4
2024-12-11T1200,3207A,118.3118,32.3038,滁州市,市政府原办公楼,细颗粒物(PM2.5),57,46,45,40,39,58,,51,50,20,27,6,6,0.7,0.6
2024-12-11T1200,3331A,118.3267,32.2634,滁州市,图书馆,细颗粒物(PM2.5),59,53,53,42,39,55,,51,50,17,22,6,6,0.4,0.3
2024-12-11T1200,2605A,101.5482,25.0441,楚雄彝族自治州,州环境监测站,,29,28,26,20,22,90,,27,27,6,20,6,6,0.3,0.4
2024-12-11T1200,2606A,101.538,25.0492,楚雄彝族自治州,市经济开发区,,33,,32,23,24,89,,26,26,7,21,6,6,0.4,0.5
2024-12-11T1200,2548A,107.5277,31.2827,达州市,达州职业技术学院,,,53,56,47,48,6,,5,5,26,34,13,10,,0.9
2024-12-11T1200,2549A,107.5086,31.2186,达州市,市环境监测站,颗粒物(PM10),56,61,56,29,35,20,,14,14,44,35,12,9,0.7,0.6
2024-12-11T1200,2550A,107.4988,31.2132,达州市,凤凰小区,细颗粒物(PM2.5),52,51,48,36,38,21,,18,17,41,34,13,11,0.6,0.6
2024-12-11T1200,2551A,107.5082,31.1986,达州市,达县机关宾馆,,48,48,53,28,40,16,,15,15,50,42,12,9,0.7,0.7
2024-12-11T1200,2552A,107.4644,31.2124,达州市,市政中心,,,65,53,34,34,9,,25,17,,34,,10,,0.6
2024-12-11T1200,2614A,100.1542,25.7054,大理白族自治州,大理市环境监测站,,35,29,27,24,23,83,,80,79,8,6,7,7,0.6,0.5
2024-12-11T1200,2615A,100.2171,25.5811,大理白族自治州,大理古城,,36,36,29,20,21,89,,76,74,7,8,5,5,0.6,0.6
2024-12-11T1200,1109A,121.612,38.9741,大连市,甘井子,,34,34,40,13,21,55,,40,37,17,30,10,12,0.7,0.9
2024-12-11T1200,1110A,121.565,38.9511,大连市,周水子,,39,39,42,16,24,47,,31,26,13,26,11,14,0.5,0.6
2024-12-11T1200,1111A,121.5637,38.8845,大连市,星海三站,,34,34,38,14,23,48,,36,30,16,25,10,13,0.4,0.6
2024-12-11T1200,1112A,121.6302,38.9117,大连市,青泥洼桥,,28,28,38,15,22,46,,38,31,12,21,12,14,0.3,0.5
2024-12-11T1200,1113A,121.6251,38.8638,大连市,傅家庄,,,29,33,14,19,50,,42,37,,22,12,14,0.5,0.8
2024-12-11T1200,1114A,121.5213,38.8661,大连市,七贤岭,,24,24,31,12,19,57,,46,41,10,19,9,11,0.8,0.8
2024-12-11T1200,1115A,121.2529,38.8061,大连市,旅顺,,19,16,22,10,16,59,,50,50,3,8,10,11,0.5,0.7
2024-12-11T1200,1116A,121.7485,39.1311,大连市,金州,,28,28,36,18,25,55,,37,32,10,21,8,14,0.7,0.9
2024-12-11T1200,1117A,121.7811,39.0496,大连市,开发区,,29,29,34,16,19,52,,50,40,12,19,21,19,0.6,0.7
2024-12-11T1200,1118A,121.9762,39.0631,大连市,双D港,,23,22,36,16,24,63,,52,47,10,15,12,13,0.7,0.9
2024-12-11T1200,1789A,124.81117,46.03138,大庆市,大同区,,26,23,25,18,21,51,,42,40,6,10,3,4,0.4,0.4
2024-12-11T1200,1790A,125.129,46.533,大庆市,龙凤区,,33,32,31,23,19,47,,41,38,12,20,11,15,0.5,0.5
2024-12-11T1200,1791A,124.902,46.408,大庆市,红岗区,,16,15,22,7,15,50,,42,39,7,12,6,6,0.3,0.3
2024-12-11T1200,1792A,125.153,46.586,大庆市,萨尔图区,,,32,23,12,14,53,,47,44,14,19,,6,0.6,0.6
2024-12-11T1200,1793A,124.9042,46.6215,大庆市,让胡路区,,32,,27,22,25,47,,42,39,12,13,8,8,0.5,0.4
2024-12-11T1200,3481A,125.141,46.634,大庆市,萨区政府监测点,,18,14,16,12,9,53,,37,36,6,16,7,6,0.5,0.6
2024-12-11T1200,1721A,113.3819,40.1097,大同市,果树场,,46,46,50,3,28,45,,39,30,20,29,10,10,0.6,0.9
2024-12-11T1200,1723A,113.2994,40.0758,大同市,云冈宾馆,,45,45,33,22,13,41,,42,33,24,22,13,12,1.1,0.8
2024-12-11T1200,1724A,113.3444,40.0917,大同市,大同大学,,36,36,36,17,17,44,,33,29,19,26,13,12,0.7,0.7
2024-12-11T1200,1725A,113.2661,40.1269,大同市,安家小村,,45,45,31,23,12,43,,40,27,18,17,17,16,0.6,0.6
2024-12-11T1200,1726A,113.2711,40.0844,大同市,教育学院,,48,48,39,22,16,38,,37,26,28,27,13,12,1.0,0.8
2024-12-11T1200,3282A,113.3397,40.0597,大同市,大同市卫生学校,,37,37,42,18,18,44,,41,33,20,30,11,13,0.7,1
2024-12-11T1200,3565A,113.1367,40.1122,大同市,云冈站,,,44,34,21,15,43,,37,28,,24,,21,0.7,0.6
2024-12-11T1200,3566A,113.1186,40.2556,大同市,图书馆,细颗粒物(PM2.5),52,51,36,36,21,46,,37,32,19,19,31,18,1.2,1
2024-12-11T1200,3567A,113.5931,40.0461,大同市,区一中,,50,50,86,18,33,35,,37,33,32,44,26,36,0.7,1.1
2024-12-11T1200,3676A,113.2802,40.0995,大同市,第二人民医院,颗粒物(PM10),54,57,39,22,15,40,,41,29,27,25,16,15,0.8,0.7
2024-12-11T1200,2269A,124.1069,50.4097,大兴安岭地区,科技局,,19,15,17,13,18,58,,55,54,5,6,5,6,0.5,0.5
2024-12-11T1200,3663A,124.1164,50.4278,大兴安岭地区,红旗社区,,,,9,,6,56,,53,51,4,6,4,5,0.3,0.3
2024-12-11T1200,1600A,124.3303,40.0625,丹东市,江湾东路,,35,35,74,20,43,45,,42,42,12,27,14,18,0.7,1.1
2024-12-11T1200,1601A,124.4256,40.1503,丹东市,临江后街,,38,28,57,26,44,52,,53,52,14,23,9,9,0.7,0.8
2024-12-11T1200,1602A,124.3933,40.1461,丹东市,元宝山,,31,31,57,20,35,47,,45,45,12,23,8,10,0.7,0.7
2024-12-11T1200,1603A,124.3633,40.1092,丹东市,民主桥,,41,41,71,20,35,43,,43,41,20,31,9,10,0.7,0.8
2024-12-11T1200,3541A,109.5726,19.5167,儋州市,第一中学子站,,24,24,21,14,9,65,,60,60,3,3,6,5,0.4,0.5
2024-12-11T1200,3542A,109.5567,19.5187,儋州市,东坡学校子站,,23,19,22,12,8,71,,66,66,5,4,5,5,0.5,0.5
2024-12-11T1200,2616A,98.5842,24.428,德宏傣族景颇族自治州,德宏州监测站,细颗粒物(PM2.5),63,61,46,45,35,63,,33,33,17,20,17,10,0.6,0.6
2024-12-11T1200,3677A,98.5881,24.4368,德宏傣族景颇族自治州,芒市人民政府综合楼,细颗粒物(PM2.5),68,81,55,49,32,58,,37,32,18,14,9,8,0.6,0.5
2024-12-11T1200,1901A,104.4239,31.1208,德阳市,东山公园,颗粒物(PM10),52,54,52,22,30,57,,38,38,12,21,2,1,0.6,0.6
2024-12-11T1200,1902A,104.3826,31.1317,德阳市,西小区,颗粒物(PM10),53,55,47,28,36,55,,12,12,16,33,2,2,0.6,0.7
2024-12-11T1200,1904A,104.3553,31.1091,德阳市,耐火材料厂,,50,50,51,26,42,56,,11,11,16,30,3,4,0.5,0.6
2024-12-11T1200,3639A,104.4019,31.1244,德阳市,市教育局,颗粒物(PM10),51,52,43,25,31,57,,13,13,13,34,2,2,0.4,0.8
2024-12-11T1200,1622A,116.3032,37.4674,德州市,儿童乐园,,48,48,95,19,52,49,,16,16,24,68,7,11,0.7,1.1
2024-12-11T1200,1624A,116.2991,37.4451,德州市,监理站,,29,29,81,9,48,55,,19,19,22,65,12,15,0.6,1
2024-12-11T1200,3066A,116.2721,37.4379,德州市,九衢泉纯净水厂,颗粒物(PM10),51,51,87,22,46,50,,16,16,20,63,12,15,0.6,1
2024-12-11T1200,3371A,116.3728,37.4403,德州市,开发区人民医院,,31,31,89,14,51,56,,20,20,16,63,11,14,0.4,1
2024-12-11T1200,3372A,116.3572,37.4094,德州市,太阳城中学,,,41,82,17,51,55,,17,17,21,72,,13,,1
2024-12-11T1200,3511A,116.5652,37.3319,德州市,陵城艺术中心,,36,36,97,9,60,58,,22,22,13,56,10,13,0.5,1.1
2024-12-11T1200,2621A,99.7056,27.8317,迪庆藏族自治州,迪庆州站,细颗粒物(PM2.5),63,46,34,45,23,89,,59,55,17,13,9,8,0.7,0.6
2024-12-11T1200,3180A,99.7136,27.8094,迪庆藏族自治州,质量技术监督局,细颗粒物(PM2.5),68,63,31,49,22,73,,56,46,23,14,9,7,0.7,0.5
2024-12-11T1200,2663A,104.6241,35.5734,定西市,东关小学,细颗粒物(PM2.5),69,71,56,50,45,52,,59,53,13,13,9,7,0.7,0.6
2024-12-11T1200,2664A,104.6194,35.5934,定西市,供电公司,细颗粒物(PM2.5),72,68,54,52,42,62,,68,59,11,12,8,8,0.6,0.5
2024-12-11T1200,1389A,113.7547,23.0494,东莞市,莞城梨川,颗粒物(PM10),60,69,75,41,43,56,,20,20,43,52,9,8,0.8,0.9
2024-12-11T1200,1390A,113.7944,23.0128,东莞市,东城石井,细颗粒物(PM2.5),73,68,68,53,41,75,,24,24,45,43,10,7,0.9,0.9
2024-12-11T1200,1391A,113.7383,22.9658,东莞市,南城西平,细颗粒物(PM2.5),72,80,77,52,45,65,,20,20,53,67,5,5,0.7,0.7
2024-12-11T1200,3319A,113.7338,23.0381,东莞市,万江金泰,细颗粒物(PM2.5),64,76,75,46,45,54,,18,18,42,51,8,6,1.0,0.9
2024-12-11T1200,3626A,113.7533,23.0202,东莞市,南城元岭,颗粒物(PM10),59,68,78,39,43,71,,25,25,34,55,11,9,0.8,0.9
2024-12-11T1200,3627A,113.7875,23.0457,东莞市,东城主山,颗粒物(PM10),56,62,72,39,42,60,,17,17,39,57,10,9,0.8,0.8
2024-12-11T1200,1666A,118.6614,37.4309,东营市,市环保局,,29,29,58,12,37,64,,51,51,8,39,4,7,0.6,0.8
2024-12-11T1200,3036A,118.6904,37.4338,东营市,开发区管委会,,32,32,64,7,40,67,,55,55,9,42,3,6,0.6,0.9
2024-12-11T1200,3365A,118.5719,37.565,东营市,垦利区民丰路,,29,29,61,9,39,58,,45,45,10,41,6,9,0.2,0.5
2024-12-11T1200,3498A,118.5055,37.8612,东营市,河口城区,,,31,70,,23,63,,60,58,5,29,2,5,0.5,0.8
2024-12-11T1200,3646A,118.4978,37.4623,东营市,胜利站,,44,44,83,12,48,58,,47,47,11,43,4,9,0.3,0.7
2024-12-11T1200,3734A,118.35,37.26,东营市,理想之城,,,,100,,68,60,,44,44,15,47,4,7,0.3,0.5
2024-12-11T1200,1591A,110.0023,39.8129,鄂尔多斯市,综合楼,颗粒物(PM10),52,53,67,27,32,42,,21,21,35,51,41,26,0.8,1
2024-12-11T1200,1592A,109.9486,39.8261,鄂尔多斯市,巴音孟克林场办事处,颗粒物(PM10),52,53,64,27,30,47,,19,19,25,51,22,28,0.8,0.9
2024-12-11T1200,1593A,109.7736,39.5986,鄂尔多斯市,康泽苑,颗粒物(PM10),52,53,38,29,21,37,,30,30,29,31,17,14,0.8,0.8
2024-12-11T1200,1594A,109.8119,39.5989,鄂尔多斯市,华泰汽车城,"颗粒物(PM10),细颗粒物(PM2.5)",52,53,49,36,26,40,,19,19,28,40,15,14,0.8,0.8
2024-12-11T1200,1595A,109.9734,39.7884,鄂尔多斯市,奥林花园,颗粒物(PM10),51,51,61,31,30,46,,19,19,23,46,15,16,0.7,1
2024-12-11T1200,2436A,114.8938,30.3994,鄂州市,市政府,细颗粒物(PM2.5),90,67,59,67,57,28,,23,23,30,33,7,6,1.4,1.4
2024-12-11T1200,2437A,114.8989,30.3714,鄂州市,赵家坝,细颗粒物(PM2.5),88,,58,65,56,31,,25,25,28,31,5,4,0.6,0.6
2024-12-11T1200,3654A,114.8094,30.4089,鄂州市,精准医疗中心,细颗粒物(PM2.5),82,63,63,60,61,42,,32,32,21,27,10,8,1.1,1
2024-12-11T1200,2454A,109.4978,30.2981,恩施土家族苗族自治州,湖北民院,,45,35,40,31,45,48,,28,28,10,16,7,7,0.5,0.6
2024-12-11T1200,2455A,109.4707,30.2798,恩施土家族苗族自治州,州电力总公司,,49,43,52,34,45,48,,34,34,17,25,7,7,0.7,0.8
2024-12-11T1200,3549A,109.5061,30.3772,恩施土家族苗族自治州,龙凤新区,,49,39,48,34,38,47,,34,34,13,14,5,6,0.5,0.6
2024-12-11T1200,2499A,108.3411,21.6158,防城港市,沙万,,,,63,4,41,35,,61,35,10,30,6,7,0.8,0.9
2024-12-11T1200,2500A,108.3514,21.7731,防城港市,防城档案局,,20,20,83,8,61,30,,20,20,12,38,5,6,0.6,0.9
2024-12-11T1200,2501A,108.3506,21.6414,防城港市,大海花园,,13,,63,9,41,32,,64,35,19,35,4,5,0.7,0.8
2024-12-11T1200,1371A,113.1294,23.0067,佛山市,湾梁,,,85,72,41,33,51,,14,14,50,66,13,9,,0.9
2024-12-11T1200,1372A,113.1083,23.0478,佛山市,华材职中,细颗粒物(PM2.5),70,80,79,51,46,60,,15,15,49,71,16,11,0.9,0.8
2024-12-11T1200,1373A,113.144,23.0453,佛山市,南海气象局,颗粒物(PM10),63,75,64,41,39,54,,13,13,42,62,14,10,0.9,0.8
2024-12-11T1200,1374A,113.2881,22.8094,佛山市,顺德苏岗,颗粒物(PM10),65,80,73,46,41,25,,6,6,65,66,10,9,0.9,0.9
2024-12-11T1200,1376A,112.8383,22.8678,佛山市,高明孔堂,细颗粒物(PM2.5),75,78,70,55,47,67,,21,21,38,53,15,12,1.1,1
2024-12-11T1200,1377A,112.8836,23.1588,佛山市,三水监测站,细颗粒物(PM2.5),84,90,77,62,51,74,,27,27,30,51,13,15,0.9,1
2024-12-11T1200,1378A,112.867,23.185,佛山市,三水云东海,细颗粒物(PM2.5),75,73,55,55,41,75,,25,25,30,50,16,13,1.0,0.9
2024-12-11T1200,3625A,113.2544,22.7642,佛山市,容桂街道办,颗粒物(PM10),63,75,80,44,43,26,,8,8,72,71,10,9,0.8,0.9
2024-12-11T1200,1280A,119.3903,26.0543,福州市,鼓山,,,,24,,12,,,40,,,19,,2,,0.5
2024-12-11T1200,1282A,119.2681,26.0504,福州市,师大,,26,26,46,17,19,80,,28,28,12,30,3,3,0.4,0.5
2024-12-11T1200,1283A,119.2984,26.1028,福州市,五四北路,,35,35,39,22,18,63,,24,24,18,26,1,2,0.5,0.5
2024-12-11T1200,1284A,119.2648,26.0768,福州市,杨桥西路,,38,38,44,19,18,75,,26,26,14,29,4,2,0.3,0.4
2024-12-11T1200,1285A,119.317,26.0746,福州市,紫阳,,43,43,49,27,23,57,,19,19,23,33,4,3,0.5,0.6
2024-12-11T1200,3048A,119.5799,26.0936,福州市,九龙,,22,22,29,12,15,58,,30,30,26,21,3,4,0.6,0.8
2024-12-11T1200,3526A,119.5189,25.9664,福州市,吴航,,46,46,31,30,17,44,,19,13,31,25,5,4,0.5,0.6
2024-12-11T1200,1755A,123.7977,41.8491,抚顺市,望花区,,25,25,46,12,29,46,,41,41,10,25,4,7,0.4,0.5
2024-12-11T1200,1756A,123.9161,41.8822,抚顺市,顺城区,,27,27,56,13,34,52,,43,43,18,36,6,7,0.3,0.6
2024-12-11T1200,1757A,124.0436,41.8611,抚顺市,东洲区,,33,33,80,20,54,37,,19,19,25,36,7,7,0.4,0.7
2024-12-11T1200,1758A,123.9247,41.8642,抚顺市,新抚区,,42,42,90,20,46,41,,26,26,17,33,7,7,0.6,0.9
2024-12-11T1200,1759A,124.0972,41.8961,抚顺市,大伙房水库,,25,25,59,17,44,44,,24,24,14,36,10,8,0.4,0.6
2024-12-11T1200,1760A,123.7086,41.8391,抚顺市,沈抚新城,,49,49,47,14,34,42,,35,35,16,30,10,9,0.4,0.6
2024-12-11T1200,2376A,116.2127,28.0814,抚州市,桐源党溪,,33,33,45,19,29,38,,27,27,10,20,5,5,0.8,0.8
2024-12-11T1200,2377A,116.3544,27.9831,抚州市,市站,,23,23,39,14,26,39,,27,27,17,29,2,3,1.3,1.2
2024-12-11T1200,2378A,116.3565,27.963,抚州市,血防站,,30,30,43,14,26,39,,25,25,16,30,3,4,0.6,0.7
2024-12-11T1200,2379A,116.3564,28.0007,抚州市,采茶剧团,,25,24,37,17,26,37,,24,24,15,26,2,4,1.0,1.2
2024-12-11T1200,2380A,116.385,27.9647,抚州市,医学分院,,23,23,43,11,23,37,,23,23,10,23,4,6,0.7,0.9
2024-12-11T1200,2207A,121.6094,41.998,阜新市,工业园区,,,26,38,7,13,,,40,35,10,17,8,10,0.3,0.3
2024-12-11T1200,2208A,121.6697,42.0279,阜新市,长青街,,19,11,18,6,11,58,,46,46,9,12,6,7,0.4,0.5
2024-12-11T1200,2209A,121.6673,42.0705,阜新市,农业园区,,18,17,19,3,8,57,,48,48,7,10,9,9,0.7,0.8
2024-12-11T1200,2210A,121.6717,42.0224,阜新市,东苑,,20,18,21,3,8,64,,53,53,8,11,2,4,0.3,0.5
2024-12-11T1200,2211A,121.6506,42.0498,阜新市,玉龙新城,,20,13,32,8,19,63,,40,40,4,19,5,7,0.4,0.6
2024-12-11T1200,2301A,115.8277,32.8929,阜阳市,市监测站,细颗粒物(PM2.5),158,136,89,120,75,34,,39,26,40,35,12,9,0.9,0.7
2024-12-11T1200,2303A,115.8554,32.8605,阜阳市,开发区,细颗粒物(PM2.5),145,158,106,111,69,36,,43,27,38,30,13,10,0.9,0.7
2024-12-11T1200,2875A,115.784,32.8892,阜阳市,阜阳职业技术学院,细颗粒物(PM2.5),133,130,85,101,64,42,,42,31,34,31,12,10,0.9,0.7
2024-12-11T1200,3468A,115.7901,32.8613,阜阳市,市规划展馆,细颗粒物(PM2.5),143,171,93,109,68,45,,48,33,33,30,11,10,0.8,0.6
2024-12-11T1200,3469A,115.836,32.9183,阜阳市,枣园社区,细颗粒物(PM2.5),153,160,90,117,73,40,,42,30,38,34,16,11,0.7,0.7
2024-12-11T1200,2669A,102.9099,34.9841,甘南藏族自治州,州政府,,27,27,43,7,17,62,,38,38,16,19,14,7,0.5,0.7
2024-12-11T1200,3380A,102.8914,34.9617,甘南藏族自治州,甘肃民族师范学院,,,,28,,28,63,,30,30,15,25,7,6,,0.8
2024-12-11T1200,2570A,101.9603,30.0475,甘孜藏族自治州,水桥子,,23,23,13,3,6,35,,39,29,23,18,8,7,0.8,0.7
2024-12-11T1200,3065A,101.9533,29.9972,甘孜藏族自治州,州环保局,,16,13,11,3,6,50,,48,48,12,11,4,4,0.6,0.6
2024-12-11T1200,3414A,115.8347,28.932,赣江新区,桑海产业园,,48,39,39,33,32,40,,38,38,23,34,6,8,0.6,0.8
2024-12-11T1200,2362A,114.9017,25.9149,赣州市,通天岩,细颗粒物(PM2.5),64,47,71,46,58,29,,34,28,21,20,3,6,0.5,0.6
2024-12-11T1200,2363A,114.9367,25.8664,赣州市,地委,颗粒物(PM10),51,52,74,35,45,24,,35,30,26,30,11,16,0.9,0.9
2024-12-11T1200,2364A,114.9461,25.8481,赣州市,气象台,,,45,82,29,42,22,,31,25,,43,,15,1.2,1
2024-12-11T1200,2365A,114.9322,25.8333,赣州市,市图书馆,,29,27,70,20,44,19,,31,25,30,34,4,6,0.9,0.9
2024-12-11T1200,2366A,114.8905,25.8471,赣州市,华坚鞋城,,31,31,69,14,41,20,,32,27,21,26,5,8,0.8,0.8
2024-12-11T1200,3109A,115.0093,25.8613,赣州市,赣县区卫计委,,30,24,76,21,51,25,,30,26,23,29,4,6,0.6,0.6
2024-12-11T1200,2683A,106.2319,36.1417,固原市,马园,细颗粒物(PM2.5),64,52,79,46,48,61,,48,42,18,18,10,7,0.9,0.9
2024-12-11T1200,2684A,106.2792,36.0022,固原市,监测站,,,,44,44,48,,,48,42,18,22,8,6,0.6,0.7
2024-12-11T1200,2685A,106.2375,36.0211,固原市,新区,细颗粒物(PM2.5),62,,46,44,46,63,,44,42,17,21,5,5,0.6,0.6
2024-12-11T1200,3522A,106.2177,35.9959,固原市,原州区十五小,细颗粒物(PM2.5),68,57,58,49,51,68,,54,54,18,20,6,5,0.9,0.8
2024-12-11T1200,2543A,106.6308,30.5278,广安市,小平旧居,,,,,,,,,,,,,,,,
2024-12-11T1200,2544A,106.6303,30.4576,广安市,市委,颗粒物(PM10),52,53,57,35,44,34,,23,16,13,20,3,4,0.6,0.6
2024-12-11T1200,2545A,106.6271,30.4663,广安市,友谊中学,细颗粒物(PM2.5),57,59,58,40,45,29,,18,13,14,20,2,2,0.7,0.7
2024-12-11T1200,2547A,106.6388,30.4551,广安市,广电花园,细颗粒物(PM2.5),69,52,55,50,44,26,,21,14,20,22,3,3,0.8,0.7
2024-12-11T1200,2902A,106.6351,30.4865,广安市,北辰小学,细颗粒物(PM2.5),52,49,54,36,42,31,,16,14,13,17,4,5,0.9,0.8
2024-12-11T1200,2523A,105.8945,32.4535,广元市,黑石坡,,,,35,48,37,,,47,30,39,15,2,4,0.8,0.6
2024-12-11T1200,2524A,105.821,32.4444,广元市,老城,细颗粒物(PM2.5),98,111,57,73,39,9,,11,6,43,42,51,5,1.6,0.7
2024-12-11T1200,2526A,105.8628,32.4287,广元市,监测站,细颗粒物(PM2.5),89,77,53,66,41,12,,24,21,47,34,12,4,1.6,1.1
2024-12-11T1200,3617A,105.8047,32.4166,广元市,经开区,细颗粒物(PM2.5),75,75,53,55,41,16,,18,8,33,35,11,4,0.9,0.6
2024-12-11T1200,1345A,113.2347,23.1423,广州市,广雅中学,颗粒物(PM10),65,80,63,44,36,41,,14,14,54,70,15,10,1.2,0.9
2024-12-11T1200,1346A,113.2612,23.105,广州市,市五中,细颗粒物(PM2.5),93,89,65,69,42,44,,24,24,43,48,12,7,1.1,1
2024-12-11T1200,1348A,113.3478,23.0916,广州市,广东商学院,细颗粒物(PM2.5),64,67,65,46,40,51,,23,23,37,60,10,6,0.9,0.8
2024-12-11T1200,1349A,113.4332,23.1047,广州市,市八十六中,颗粒物(PM10),59,67,83,34,40,53,,16,16,26,76,9,7,0.9,0.9
2024-12-11T1200,1350A,113.3505,22.9483,广州市,番禺中学,"颗粒物(PM10),细颗粒物(PM2.5)",62,74,79,44,48,48,,16,16,51,72,9,7,0.9,0.9
2024-12-11T1200,1351A,113.2146,23.3916,广州市,花都师范,细颗粒物(PM2.5),65,63,60,47,38,71,,33,33,24,43,12,10,0.7,0.7
2024-12-11T1200,1352A,113.2597,23.1331,广州市,市监测站,颗粒物(PM10),66,82,63,47,33,41,,18,18,46,54,14,8,1.0,0.7
2024-12-11T1200,1353A,113.5618,23.312,广州市,九龙镇镇龙,细颗粒物(PM2.5),80,93,63,59,40,49,,19,19,29,39,18,9,1.2,0.9
2024-12-11T1200,1354A,113.2765,23.1544,广州市,麓湖,细颗粒物(PM2.5),74,80,55,54,35,49,,19,19,46,50,14,8,1.0,0.8
2024-12-11T1200,1355A,113.443,23.3035,广州市,帽峰山森林公园,细颗粒物(PM2.5),55,55,35,39,25,71,,39,39,23,24,20,9,1.0,0.7
2024-12-11T1200,2846A,113.3221,23.1322,广州市,体育西,细颗粒物(PM2.5),74,88,64,54,39,36,,26,26,39,39,13,6,1.1,0.8
2024-12-11T1200,3298A,113.5717,23.5491,广州市,从化街口,细颗粒物(PM2.5),63,66,68,45,45,63,,16,16,20,44,18,12,1.1,0.9
2024-12-11T1200,3299A,113.3472,23.3692,广州市,白云竹料,颗粒物(PM10),54,57,63,35,41,83,,26,26,19,40,15,11,1.0,0.9
2024-12-11T1200,3300A,113.2981,23.237,广州市,白云嘉禾,"颗粒物(PM10),细颗粒物(PM2.5)",69,88,78,50,38,56,,21,21,41,57,17,10,1.4,1.1
2024-12-11T1200,3301A,113.4256,23.1716,广州市,黄埔科学城,细颗粒物(PM2.5),60,62,51,43,32,58,,36,36,23,38,15,8,1.0,0.9
2024-12-11T1200,3302A,113.3942,23.0483,广州市,番禺大学城,颗粒物(PM10),60,69,78,34,37,55,,14,14,31,65,13,11,0.8,0.8
2024-12-11T1200,3303A,113.4922,22.8168,广州市,南沙黄阁,细颗粒物(PM2.5),68,78,82,49,44,47,,16,16,67,75,13,9,1.0,1
2024-12-11T1200,3304A,113.5342,22.7896,广州市,南沙街,,,83,74,55,41,52,,16,16,62,72,11,6,,0.9
2024-12-11T1200,3443A,113.2902,23.5544,广州市,花都梯面,细颗粒物(PM2.5),63,67,52,45,37,59,,27,27,17,32,12,14,0.6,0.7
2024-12-11T1200,3445A,113.7858,23.7478,广州市,从化良口,,,52,31,41,24,60,,30,30,,19,14,7,0.9,0.7
2024-12-11T1200,3446A,113.8051,23.2614,广州市,增城荔城,,35,34,46,24,33,65,,40,40,15,25,5,5,0.5,0.6
2024-12-11T1200,2505A,109.568,23.1478,贵港市,德智高中,,,,,,,,,,,,,,,,
2024-12-11T1200,2506A,109.6047,23.0666,贵港市,江南子站,,12,9,86,8,53,22,,22,22,14,29,7,12,0.8,1
2024-12-11T1200,2507A,109.6014,23.0948,贵港市,贵城子站,,17,17,74,7,52,20,,22,19,16,26,7,11,0.9,1
2024-12-11T1200,2508A,109.5669,23.1065,贵港市,荷城子站,,17,17,73,7,47,22,,22,22,14,27,10,15,0.9,0.9
2024-12-11T1200,3405A,109.5886,23.1172,贵港市,新世纪学校,,9,9,76,3,50,20,,19,19,14,26,11,15,0.8,1
2024-12-11T1200,1439A,106.6899,26.5998,贵阳市,马鞍山,,24,24,11,12,4,29,,30,30,15,15,5,5,0.4,0.4
2024-12-11T1200,1440A,106.6971,26.5694,贵阳市,市环保站,,45,,11,31,15,28,,30,30,25,20,7,5,0.5,0.5
2024-12-11T1200,1441A,106.6243,26.6266,贵阳市,鉴湖路,,35,27,11,24,8,36,,35,35,13,11,5,5,0.6,0.6
2024-12-11T1200,1442A,106.7487,26.6343,贵阳市,燕子冲,,42,,4,29,11,31,,26,26,15,14,7,6,0.6,0.6
2024-12-11T1200,1443A,106.6555,26.4365,贵阳市,碧云窝,,46,46,17,27,8,21,,25,25,27,21,12,7,0.7,0.6
2024-12-11T1200,1444A,106.694,26.5161,贵阳市,中院村,,32,31,14,22,10,28,,29,29,21,17,13,11,0.8,0.7
2024-12-11T1200,1445A,106.7109,26.6027,贵阳市,红边门,,39,31,16,27,16,26,,28,28,25,22,14,13,0.8,0.8
2024-12-11T1200,1446A,106.7164,26.5699,贵阳市,新华路,,36,36,15,19,8,28,,28,28,19,16,4,5,0.6,0.6
2024-12-11T1200,1447A,106.674,26.5424,贵阳市,太慈桥,,28,24,10,19,8,31,,30,30,17,18,6,6,0.6,0.6
2024-12-11T1200,1552A,106.805,26.3003,贵阳市,桐木岭,,,,18,,10,,,23,,,6,,5,,0.6
2024-12-11T1200,1862A,110.4144,25.3167,桂林市,电子科大尧山校区,,19,,10,13,10,44,,39,39,7,11,4,5,0.7,0.8
2024-12-11T1200,1863A,110.2819,25.2697,桂林市,监测站,,14,14,13,3,8,34,,30,30,14,20,9,9,1.0,1.1
2024-12-11T1200,1864A,110.3089,25.2708,桂林市,龙隐路小学,,19,,11,13,18,40,,34,34,13,18,8,9,1.0,1.1
2024-12-11T1200,1865A,110.2869,25.2178,桂林市,八中,,19,,13,13,14,35,,30,29,13,18,8,8,0.8,0.9
2024-12-11T1200,3403A,110.1764,25.2381,桂林市,创业大厦,,20,,12,14,12,32,,29,29,12,16,8,6,1.1,1.1
2024-12-11T1200,3531A,110.296,25.1253,桂林市,旅游学院,,11,7,9,3,10,35,,31,30,14,18,7,7,0.8,0.9
2024-12-11T1200,2674A,100.2561,34.4714,果洛藏族自治州,玛沁县大武镇,颗粒物(PM10),56,62,63,11,16,94,,78,75,15,5,21,11,0.7,0.5
2024-12-11T1200,1129A,126.5422,45.755,哈尔滨市,岭北,,29,21,31,20,30,62,,53,53,11,21,12,15,0.1,0.1
2024-12-11T1200,1130A,126.561,45.8167,哈尔滨市,松北商大,,,66,41,20,35,46,,28,26,25,31,32,13,,0.7
2024-12-11T1200,1131A,126.979,45.5419,哈尔滨市,阿城会宁,,,,102,24,89,47,,,,15,41,7,13,0.9,1.1
2024-12-11T1200,1132A,126.599,45.7222,哈尔滨市,南岗学府路,,37,37,47,13,25,49,,34,34,13,29,11,15,0.3,0.4
2024-12-11T1200,1133A,126.689,45.7733,哈尔滨市,太平宏伟公园,,46,46,36,21,30,45,,35,35,18,23,14,16,0.8,0.6
2024-12-11T1200,1134A,126.635,45.7667,哈尔滨市,道外承德广场,,40,40,35,15,22,51,,39,39,19,25,11,13,0.8,0.6
2024-12-11T1200,1135A,126.685,45.7319,哈尔滨市,香坊红旗大街,,,,39,,25,37,,37,37,,25,10,8,0.4,0.5
2024-12-11T1200,1136A,126.6411,45.7258,哈尔滨市,动力和平路,,36,36,39,18,27,50,,30,30,11,26,6,13,0.4,0.4
2024-12-11T1200,1137A,126.593,45.7478,哈尔滨市,道里建国路,,,,37,,27,51,,38,38,16,25,11,16,0.5,0.8
2024-12-11T1200,1138A,126.615,45.61,哈尔滨市,平房东轻厂,,36,36,43,22,37,50,,28,28,12,39,10,19,0.4,0.5
2024-12-11T1200,1139A,126.595,45.9855,哈尔滨市,呼兰师专,,49,49,59,30,31,51,,34,34,17,29,9,10,0.6,0.7
2024-12-11T1200,1140A,126.6206,45.6842,哈尔滨市,省农科院,颗粒物(PM10),54,58,64,28,50,49,,24,24,15,40,8,11,0.6,0.8
2024-12-11T1200,2688A,93.5128,42.8172,哈密市,地区监测站,,45,42,70,31,42,42,,34,34,17,30,6,6,0.4,0.7
2024-12-11T1200,2689A,93.4961,42.8328,哈密市,哈密师范学校,细颗粒物(PM2.5),53,51,63,37,47,38,,33,33,20,30,7,7,0.5,0.8
2024-12-11T1200,2671A,100.9048,36.9639,海北藏族自治州,海晏县西海镇,,25,20,36,16,29,77,,70,70,10,14,13,15,0.5,0.7
2024-12-11T1200,3867A,102.0738,36.5056,海东市,平安区公安北苑,细颗粒物(PM2.5),108,119,65,81,60,51,,53,47,33,22,29,16,1.6,0.8
2024-12-11T1200,1409A,110.576,19.9507,海口市,东寨港,,31,31,26,13,15,82,,70,70,4,3,10,11,0.7,0.6
2024-12-11T1200,1410A,110.3232,20.0574,海口市,海南大学,,41,41,40,20,15,89,,83,79,12,9,5,5,0.5,0.4
2024-12-11T1200,1411A,110.283,20.0053,海口市,秀英海南医院,,34,34,34,18,13,89,,84,81,12,9,4,4,0.4,0.3
2024-12-11T1200,1412A,110.338,19.9969,海口市,海南师范大学,,34,34,32,18,12,87,,83,80,13,9,5,4,0.4,0.4
2024-12-11T1200,1413A,110.33,20.0356,海口市,龙华路环保局宿舍,,34,34,33,18,12,92,,85,82,8,6,5,5,0.4,0.4
2024-12-11T1200,3539A,110.5111,19.9736,海口市,桂林洋子站,,36,36,33,17,12,92,,80,79,6,5,5,5,0.3,0.3
2024-12-11T1200,2673A,100.6188,36.2866,海南藏族自治州,共和县恰卜恰镇,,40,37,38,28,18,72,,50,50,9,15,13,10,0.5,0.6
2024-12-11T1200,2676A,97.3731,37.3753,海西蒙古族藏族自治州,德令哈市,,27,10,40,6,13,85,,87,86,2,6,16,16,0.5,0.5
2024-12-11T1200,1048A,114.5302,36.6116,邯郸市,东污水处理厂,细颗粒物(PM2.5),83,84,131,61,99,29,,11,11,43,61,8,8,1.1,1.1
2024-12-11T1200,1049A,114.4918,36.5713,邯郸市,矿院,颗粒物(PM10),66,81,130,44,87,29,,10,10,40,60,6,6,0.9,1
2024-12-11T1200,1050A,114.484,36.6133,邯郸市,丛台公园,细颗粒物(PM2.5),84,86,135,62,104,29,,11,11,42,62,8,8,1.0,1
2024-12-11T1200,3458A,114.7895,36.5593,邯郸市,香泉濮院小区,细颗粒物(PM2.5),102,114,164,76,112,32,,10,10,46,61,12,11,1.1,1.2
2024-12-11T1200,3579A,114.50634,36.77178,邯郸市,永年区实验高中,细颗粒物(PM2.5),79,102,161,58,104,27,,9,9,44,66,11,11,0.9,1
2024-12-11T1200,3580A,114.20016,36.44293,邯郸市,峰峰矿区临水派出所,,,,136,,112,17,,15,15,,60,10,16,1.2,1.4
2024-12-11T1200,2634A,106.9893,33.1842,汉中市,汉川机床厂子校,细颗粒物(PM2.5),59,44,47,42,42,71,,50,50,9,10,6,6,0.5,0.4
2024-12-11T1200,2635A,107.0154,33.0706,汉中市,市监测站,细颗粒物(PM2.5),62,47,50,44,44,70,,55,53,14,20,6,6,0.6,0.7
2024-12-11T1200,2636A,107.0089,33.1138,汉中市,鑫源开发区,细颗粒物(PM2.5),62,44,54,44,51,74,,54,51,14,20,5,6,0.5,0.6
2024-12-11T1200,2637A,107.007,33.0323,汉中市,南郑大河坎水厂,细颗粒物(PM2.5),62,62,60,44,48,67,,46,38,12,20,5,5,0.7,0.7
2024-12-11T1200,1223A,120.2072,30.2111,杭州市,滨江,,25,,17,17,15,45,,46,46,35,44,7,7,0.6,0.6
2024-12-11T1200,1224A,120.0633,30.2747,杭州市,西溪,,18,12,19,8,12,56,,51,51,26,42,7,7,0.6,0.6
2024-12-11T1200,1226A,120.3461,30.3153,杭州市,下沙,,20,13,18,11,16,62,,56,56,25,44,5,5,0.8,0.7
2024-12-11T1200,1227A,120.1269,30.2456,杭州市,卧龙桥,,19,12,18,10,13,60,,54,54,24,41,7,7,0.6,0.6
2024-12-11T1200,1228A,120.1903,30.2692,杭州市,浙江农大,,18,12,15,12,12,46,,43,43,34,44,3,4,0.6,0.6
2024-12-11T1200,1230A,120.1197,30.3119,杭州市,和睦小学,,,14,20,10,14,,,60,60,25,44,,5,0.7,0.6
2024-12-11T1200,1231A,120.3019,30.4183,杭州市,临平镇,,28,,25,19,26,74,,65,65,14,32,5,5,1.0,0.9
2024-12-11T1200,1232A,120.2697,30.1819,杭州市,城厢镇,,20,20,29,12,15,51,,51,51,33,46,5,6,0.5,0.5
2024-12-11T1200,1233A,120.0883,30.1808,杭州市,云栖,,20,11,15,8,11,61,,57,57,23,41,6,6,0.6,0.6
2024-12-11T1200,3557A,119.9464,30.0494,杭州市,镇二中,,18,10,16,9,16,57,,53,53,20,34,6,6,0.8,0.8
2024-12-11T1200,3558A,119.7183,30.2367,杭州市,市府大楼,,20,7,13,3,8,64,,48,48,25,46,6,6,0.6,0.6
2024-12-11T1200,3656A,120.1556,30.2864,杭州市,消防大队,,23,19,26,16,21,57,,49,49,27,43,7,7,0.5,0.5
2024-12-11T1200,1270A,117.1959,31.7848,合肥市,明珠广场,细颗粒物(PM2.5),117,112,68,88,57,16,,34,19,36,32,9,8,1.0,0.9
2024-12-11T1200,1271A,117.3072,31.8764,合肥市,三里街,细颗粒物(PM2.5),117,117,66,88,54,21,,34,22,36,31,9,7,0.6,0.3
2024-12-11T1200,1272A,117.2588,31.8707,合肥市,琥珀山庄,细颗粒物(PM2.5),109,110,65,82,58,21,,41,24,38,34,5,4,0.9,0.7
2024-12-11T1200,1273A,117.1604,31.9052,合肥市,董铺水库,,,107,65,66,41,26,,37,26,,24,,4,0.7,0.6
2024-12-11T1200,1274A,117.25,31.8571,合肥市,长江中路,细颗粒物(PM2.5),118,110,66,89,58,20,,36,21,36,31,8,7,1.0,0.8
2024-12-11T1200,1275A,117.266,31.9436,合肥市,庐阳区,细颗粒物(PM2.5),107,122,69,80,47,22,,40,24,39,32,5,4,1.0,0.8
2024-12-11T1200,1276A,117.336,31.8586,合肥市,瑶海区,细颗粒物(PM2.5),112,105,66,84,53,25,,35,24,43,37,6,6,0.8,0.7
2024-12-11T1200,1277A,117.3027,31.7964,合肥市,包河区,细颗粒物(PM2.5),110,114,68,83,54,16,,32,18,41,44,3,2,0.8,0.6
2024-12-11T1200,1278A,117.2776,31.7385,合肥市,滨湖新区,细颗粒物(PM2.5),100,110,69,75,48,14,,30,16,41,34,7,6,0.6,0.5
2024-12-11T1200,1279A,117.1318,31.8403,合肥市,高新区,,,,65,,54,,,32,20,37,34,4,2,0.8,0.7
2024-12-11T1200,3464A,117.3803,31.9147,合肥市,高教基地,细颗粒物(PM2.5),117,116,62,88,55,22,,39,29,51,34,8,7,0.8,0.6
2024-12-11T1200,3614A,79.924,37.0877,和田地区,地区环保局,颗粒物(PM10),95,140,136,46,41,45,,56,54,20,25,9,12,0.9,0.9
2024-12-11T1200,3615A,79.9131,37.113,和田地区,市环保局,"颗粒物(PM10),细颗粒物(PM2.5)",54,57,104,38,42,35,,57,52,29,29,9,11,2.4,1.7
2024-12-11T1200,2516A,108.2011,24.715,河池市,东仁乐园,细颗粒物(PM2.5),102,,19,76,54,48,,39,39,6,13,9,8,0.8,0.9
2024-12-11T1200,2517A,108.0497,24.6947,河池市,市环保站,,15,12,16,3,6,47,,37,37,10,16,8,7,0.6,0.8
2024-12-11T1200,2518A,108.0983,24.6989,河池市,市疾控中心,,17,15,15,3,12,52,,44,44,11,18,10,10,0.6,0.7
2024-12-11T1200,1696A,114.6778,23.7569,河源市,源西,,50,50,35,34,27,58,,31,31,13,24,8,6,0.6,0.6
2024-12-11T1200,1697A,114.6944,23.7586,河源市,东埔,细颗粒物(PM2.5),54,55,39,38,28,43,,29,29,26,22,7,5,0.8,0.7
2024-12-11T1200,1698A,114.6892,23.7233,河源市,老城,细颗粒物(PM2.5),63,59,38,45,30,42,,25,25,22,25,8,5,0.8,0.7
2024-12-11T1200,1718A,115.4208,35.2464,菏泽市,气象局,细颗粒物(PM2.5),142,153,168,108,117,34,,14,14,55,58,14,12,1.1,1
2024-12-11T1200,1719A,115.4747,35.2375,菏泽市,市政协,细颗粒物(PM2.5),130,141,163,99,112,40,,20,20,56,57,17,14,1.1,1
2024-12-11T1200,3374A,115.5564,35.0891,菏泽市,定陶老年大学,细颗粒物(PM2.5),117,129,146,88,104,40,,16,16,52,64,16,15,0.9,0.8
2024-12-11T1200,3647A,115.4702,35.2706,菏泽市,菏泽医专,细颗粒物(PM2.5),117,136,157,88,105,40,,16,16,60,61,22,18,1.2,1.1
2024-12-11T1200,2514A,111.5264,24.4172,贺州市,环保小区,,16,16,69,6,55,23,,18,18,22,25,5,5,0.8,0.9
2024-12-11T1200,2515A,111.5608,24.4078,贺州市,政协大楼,,31,31,79,13,52,22,,18,18,18,24,6,7,0.8,0.9
2024-12-11T1200,3534A,111.4744,24.4553,贺州市,西湾,,24,24,80,7,62,27,,21,21,17,21,5,5,0.8,1
2024-12-11T1200,2385A,114.17,35.9019,鹤壁市,市监测站,细颗粒物(PM2.5),72,92,167,52,119,38,,13,13,45,68,11,13,1.6,2
2024-12-11T1200,2386A,114.2956,35.7511,鹤壁市,市交警支队,颗粒物(PM10),68,85,155,43,107,37,,11,11,39,55,12,5,0.8,1.1
2024-12-11T1200,2387A,114.2878,35.7306,鹤壁市,迎宾馆,"颗粒物(PM10),细颗粒物(PM2.5)",74,98,157,54,101,37,,12,12,39,56,15,9,0.9,0.9
2024-12-11T1200,3474A,114.2617,35.6822,鹤壁市,大新区,细颗粒物(PM2.5),70,75,146,51,117,38,,12,12,48,68,15,11,1.0,1
2024-12-11T1200,3596A,114.1572,35.9603,鹤壁市,南山宾馆,,,65,170,38,126,42,,12,12,24,54,7,11,,1.7
2024-12-11T1200,2244A,130.2537,47.3416,鹤岗市,哈啤分公司,,18,12,25,12,22,52,,45,45,3,6,14,15,0.5,0.5
2024-12-11T1200,2245A,130.2684,47.3086,鹤岗市,斯达机电,,18,14,28,10,22,56,,50,50,8,11,14,14,0.3,0.4
2024-12-11T1200,2246A,130.3114,47.3388,鹤岗市,东山纸板厂,,18,,12,8,24,57,,48,48,4,10,12,12,0.4,0.5
2024-12-11T1200,2247A,130.1097,47.3382,鹤岗市,五号水库,,,14,24,12,16,70,,64,64,,5,7,8,0.5,0.4
2024-12-11T1200,2263A,127.4833,50.2524,黑河市,交通局,,22,22,21,9,18,56,,54,52,7,14,7,6,0.4,0.4
2024-12-11T1200,2264A,127.5144,50.2341,黑河市,环保局,,,10,19,8,20,45,,54,49,6,16,5,5,,0.3
2024-12-11T1200,2265A,127.5291,50.2472,黑河市,大黑河岛,,,2,13,,,5,,5,5,8,9,2,2,0.6,0.7
2024-12-11T1200,1074A,115.6838,37.7541,衡水市,电机北厂,颗粒物(PM10),62,74,114,34,69,31,,7,7,36,62,21,15,0.7,0.9
2024-12-11T1200,1075A,115.6303,37.7316,衡水市,市监测站,,,49,103,26,66,,,5,5,35,70,8,8,0.5,0.9
2024-12-11T1200,3188A,115.6683,37.7217,衡水市,市城管局,颗粒物(PM10),52,53,89,20,56,38,,11,11,32,65,8,10,0.6,0.9
2024-12-11T1200,3459A,115.5989,37.5491,衡水市,地表水厂,细颗粒物(PM2.5),57,42,97,40,73,39,,14,14,29,60,14,10,0.7,0.9
2024-12-11T1200,2456A,112.5003,26.9167,衡阳市,原169医院,,,73,30,32,27,22,,17,17,14,18,,3,0.7,0.8
2024-12-11T1200,2457A,112.6194,26.9258,衡阳市,衡阳化工总厂,,,,35,46,33,32,,26,23,,23,,9,0.8,0.8
2024-12-11T1200,2458A,112.6211,26.8956,衡阳市,珠晖区环保局,细颗粒物(PM2.5),59,,33,42,36,33,,29,26,22,22,7,7,0.8,0.9
2024-12-11T1200,2459A,112.6197,26.8733,衡阳市,市委党校,,,,31,41,33,30,,27,25,19,27,8,8,,0.9
2024-12-11T1200,2460A,112.6006,26.8919,衡阳市,市监测站,细颗粒物(PM2.5),62,50,49,44,42,36,,28,27,19,21,6,6,0.8,0.8
2024-12-11T1200,2461A,112.5664,26.9056,衡阳市,真空机电公司,细颗粒物(PM2.5),67,,28,48,38,39,,28,28,19,22,4,4,0.6,0.6
2024-12-11T1200,3399A,112.6703,26.882,衡阳市,师范学院,,,,36,,29,,,26,21,,24,,8,,0.9
2024-12-11T1200,2608A,103.3772,23.3993,红河哈尼族彝族自治州,污水处理厂,,34,34,31,21,24,75,,39,35,10,10,11,13,0.5,0.6
2024-12-11T1200,2609A,103.3861,23.35,红河哈尼族彝族自治州,监测站,,,,40,43,31,72,,45,42,9,12,6,20,,0.7
2024-12-11T1200,3038A,103.3758,23.368,红河哈尼族彝族自治州,州图书馆,,38,38,29,21,22,65,,41,34,9,11,11,15,0.5,0.5
2024-12-11T1200,1090A,111.6507,40.7517,呼和浩特市,呼市一监,,29,29,59,18,29,43,,40,39,18,32,10,11,0.5,0.6
2024-12-11T1200,1091A,111.6572,40.8033,呼和浩特市,小召,,26,24,34,18,20,54,,46,42,21,32,10,13,0.5,0.5
2024-12-11T1200,1094A,111.7516,40.8369,呼和浩特市,如意水处理厂,,30,30,33,16,16,47,,41,35,16,25,10,11,0.6,0.5
2024-12-11T1200,1095A,111.7276,40.8062,呼和浩特市,二十九中,,34,34,42,16,19,53,,45,42,15,31,8,10,0.5,0.7
2024-12-11T1200,1096A,111.5512,40.7866,呼和浩特市,工大金川校区,,38,38,54,21,30,40,,37,25,32,39,11,14,1.0,0.8
2024-12-11T1200,1097A,111.717,40.7612,呼和浩特市,化肥厂生活区,,43,43,77,21,34,46,,40,40,13,34,9,10,0.4,0.7
2024-12-11T1200,3698A,111.5968,40.8178,呼和浩特市,红旗小学,,,34,35,16,21,40,,51,37,,27,8,10,,0.4
2024-12-11T1200,3699A,111.6518,40.8389,呼和浩特市,海东办,,23,22,27,16,16,45,,38,33,30,32,9,10,0.5,0.5
2024-12-11T1200,2192A,119.7594,49.2261,呼伦贝尔市,区环保局,,37,37,23,19,19,62,,60,58,9,9,6,6,0.3,0.3
2024-12-11T1200,3061A,119.7512,49.1577,呼伦贝尔市,国华电力东,,21,12,23,9,15,65,,62,62,3,5,4,4,0.2,0.2
2024-12-11T1200,1250A,120.0751,30.8669,湖州市,城西水厂,,38,34,27,26,18,59,,68,68,24,28,6,6,0.6,0.6
2024-12-11T1200,2873A,120.0875,30.8955,湖州市,仁皇山新区,,43,33,26,30,21,64,,72,72,19,26,6,6,0.8,0.7
2024-12-11T1200,2907A,120.1844,30.8596,湖州市,吴兴区站,,44,44,38,29,23,51,,66,65,32,31,6,6,0.6,0.6
2024-12-11T1200,3562A,120.4148,30.8538,湖州市,南浔区站,,30,28,34,21,23,53,,59,59,23,29,4,5,0.6,0.5
2024-12-11T1200,1607A,120.9092,40.7136,葫芦岛市,龙港区,,33,33,44,13,18,58,,48,48,9,28,17,27,0.3,0.6
2024-12-11T1200,1608A,120.8392,40.7514,葫芦岛市,化工街,,19,17,35,12,12,59,,48,48,13,28,20,24,0.5,0.6
2024-12-11T1200,1609A,120.8341,40.7073,葫芦岛市,新区,,25,25,28,9,12,60,,48,48,5,15,13,16,0.4,0.5
2024-12-11T1200,1610A,120.8695,40.7677,葫芦岛市,东城区,,42,42,24,9,14,54,,46,44,7,14,8,12,0.4,0.5
2024-12-11T1200,2482A,109.5981,27.5721,怀化市,林科所,,25,25,13,12,11,51,,45,43,9,13,12,6,0.5,0.6
2024-12-11T1200,2483A,109.9453,27.5444,怀化市,河西地税局,,42,42,25,29,18,49,,44,41,9,11,9,5,0.5,0.6
2024-12-11T1200,2484A,109.9781,27.5342,怀化市,市四医院,,34,34,22,22,17,59,,42,42,11,14,9,9,0.5,0.6
2024-12-11T1200,2485A,109.9972,27.5578,怀化市,监测楼,,35,33,20,24,16,57,,42,42,13,15,3,2,0.4,0.6
2024-12-11T1200,2486A,110.0394,27.583,怀化市,市委党校,,,36,22,26,16,,,40,37,10,13,6,4,0.3,0.4
2024-12-11T1200,1210A,119.036,33.5981,淮安市,钵池山,细颗粒物(PM2.5),72,58,67,52,57,62,,45,37,19,30,8,7,0.7,0.7
2024-12-11T1200,1211A,119.007,33.575,淮安市,北京南路,,,,63,,50,58,,42,31,20,28,,10,,1
2024-12-11T1200,1212A,118.989,33.6067,淮安市,市监测站,细颗粒物(PM2.5),70,63,71,51,59,60,,41,31,21,32,8,8,0.4,0.6
2024-12-11T1200,1213A,119.135,33.5039,淮安市,楚州区监测站,细颗粒物(PM2.5),78,76,69,57,53,54,,44,31,28,32,11,9,0.8,0.7
2024-12-11T1200,1214A,119.0186,33.6297,淮安市,淮阴区监测站,细颗粒物(PM2.5),69,70,81,50,57,61,,41,31,23,35,9,8,0.6,0.7
2024-12-11T1200,3426A,118.8755,33.2894,淮安市,新华书店,细颗粒物(PM2.5),112,112,77,84,58,52,,53,44,38,39,13,10,1.1,0.8
2024-12-11T1200,2282A,116.8004,33.975,淮北市,监测站,细颗粒物(PM2.5),122,170,150,92,103,44,,12,12,36,57,12,13,1.0,1
2024-12-11T1200,2283A,116.8091,33.9007,淮北市,烈山区政府,细颗粒物(PM2.5),127,131,141,96,97,,,10,10,,62,13,12,0.9,0.9
2024-12-11T1200,3330A,116.8873,33.9836,淮北市,杜集区检察院,细颗粒物(PM2.5),143,141,152,109,109,36,,10,10,43,55,11,9,1.1,0.9
2024-12-11T1200,4017A,116.7923,33.9535,淮北市,市博物馆,细颗粒物(PM2.5),114,134,147,86,101,47,,14,14,39,63,13,13,1.0,1.2
2024-12-11T1200,2277A,116.8305,32.7727,淮南市,潘集区政府,细颗粒物(PM2.5),162,168,115,123,88,33,,24,19,45,39,20,10,1.0,0.7
2024-12-11T1200,2278A,117.0067,32.6524,淮南市,师范学院,细颗粒物(PM2.5),150,157,114,115,86,26,,23,14,41,38,11,6,1.1,0.8
2024-12-11T1200,2279A,116.8569,32.5951,淮南市,谢家集区政府,细颗粒物(PM2.5),134,137,100,102,72,30,,25,16,42,37,20,14,1.0,0.8
2024-12-11T1200,2280A,116.8281,32.633,淮南市,八公山区政府,细颗粒物(PM2.5),139,148,99,106,73,30,,28,21,39,31,12,10,1.0,0.8
2024-12-11T1200,2281A,116.6325,32.6201,淮南市,焦岗湖风景区管理处,细颗粒物(PM2.5),117,109,74,88,60,19,,16,14,52,38,10,9,0.7,0.4
2024-12-11T1200,2894A,117.0566,32.6531,淮南市,经济技术开发区消防队,细颗粒物(PM2.5),149,156,106,114,74,32,,26,20,39,37,12,8,0.9,0.7
2024-12-11T1200,3329A,117.0108,32.5893,淮南市,山南新区,细颗粒物(PM2.5),155,156,105,118,81,30,,28,18,37,31,11,6,1.0,0.7
2024-12-11T1200,2446A,114.9028,30.4742,黄冈市,职工中心,细颗粒物(PM2.5),94,82,70,70,61,30,,26,26,21,24,10,9,0.9,0.9
2024-12-11T1200,2929A,114.8858,30.4519,黄冈市,红卫路,细颗粒物(PM2.5),88,74,63,65,54,32,,27,27,27,30,6,5,0.8,0.8
2024-12-11T1200,3398A,114.9136,30.4445,黄冈市,市林业局,细颗粒物(PM2.5),89,74,63,66,55,37,,31,31,15,20,9,8,0.7,0.7
2024-12-11T1200,2672A,102.0199,35.5102,黄南藏族自治州,同仁县隆务镇,细颗粒物(PM2.5),69,74,66,50,55,68,,54,54,16,15,13,8,1.0,0.8
2024-12-11T1200,2295A,118.2903,29.6963,黄山市,延安路89号,,,11,21,9,17,56,,33,33,12,22,7,7,,0.4
2024-12-11T1200,2296A,118.327,29.7178,黄山市,黄山东路89号,,20,20,33,10,18,56,,35,35,10,20,5,6,0.3,0.4
2024-12-11T1200,2297A,118.1371,30.2756,黄山市,黄山区政府5号楼,,19,13,24,7,20,58,,50,50,14,30,7,8,0.5,0.6
2024-12-11T1200,2423A,115.0601,30.2313,黄石市,沈家营,细颗粒物(PM2.5),70,65,62,51,45,25,,19,18,29,28,7,7,0.7,0.7
2024-12-11T1200,2424A,115.0817,30.2006,黄石市,陈家湾,细颗粒物(PM2.5),85,63,60,63,54,29,,23,21,24,27,8,7,0.6,0.6
2024-12-11T1200,2426A,114.8988,30.2019,黄石市,铁山,,,,57,73,60,24,,19,19,24,28,3,9,1.2,0.7
2024-12-11T1200,2427A,115.0307,30.2092,黄石市,团城山,细颗粒物(PM2.5),92,68,61,68,52,23,,16,16,27,27,6,7,0.8,0.7
2024-12-11T1200,3149A,115.0235,30.1578,黄石市,笔架山北路,细颗粒物(PM2.5),82,,52,60,48,29,,17,17,26,30,7,7,0.9,0.9
2024-12-11T1200,1392A,114.4183,23.0528,惠州市,河南岸金山湖子站,,46,46,51,30,30,68,,36,36,19,24,11,8,0.5,0.5
2024-12-11T1200,1393A,114.4053,23.0822,惠州市,下埔横江三路子站,,46,46,52,27,30,67,,44,44,18,27,12,8,0.5,0.5
2024-12-11T1200,1394A,114.4103,23.1142,惠州市,江北云山西路子站,,45,45,50,27,28,66,,44,40,21,26,13,9,0.7,0.7
2024-12-11T1200,1395A,114.4645,22.7833,惠州市,惠阳区承修路船湖子站,,,51,50,26,22,,,41,41,22,22,10,9,0.5,0.5
2024-12-11T1200,1396A,114.5317,22.7422,惠州市,大亚湾管委会子站,颗粒物(PM10),56,61,46,32,22,63,,55,48,41,27,8,8,0.8,0.7
2024-12-11T1200,3314A,114.4338,22.8134,惠州市,惠阳秋长,,46,46,42,28,22,71,,49,49,33,26,8,9,0.5,0.5
2024-12-11T1200,3452A,114.6517,22.775,惠州市,大亚湾霞涌,颗粒物(PM10),52,53,39,25,23,65,,55,55,19,20,8,7,0.5,0.5
2024-12-11T1200,2240A,130.9762,45.3001,鸡西市,环保局,,,,28,35,23,50,,49,48,,5,6,6,0.5,0.5
2024-12-11T1200,2243A,130.9429,45.3039,鸡西市,第一中学,,24,24,26,12,18,58,,55,54,3,5,6,6,0.4,0.4
2024-12-11T1200,3707A,131.0207,45.3073,鸡西市,欧美日汽修厂,,29,28,31,20,28,54,,50,50,11,14,14,15,0.5,0.6
2024-12-11T1200,3709A,130.9967,45.3106,鸡西市,市政设施管理处,,26,26,32,15,22,56,,50,50,7,12,2,3,0.6,0.6
2024-12-11T1200,2367A,114.9754,27.0803,吉安市,红声器材厂,,25,25,66,3,41,12,,10,10,31,41,11,16,0.8,0.8
2024-12-11T1200,2368A,114.9658,27.0999,吉安市,市森林工业局,,15,13,61,7,42,19,,16,16,30,43,10,17,0.6,0.5
2024-12-11T1200,2369A,114.99,27.1312,吉安市,市环境监测站,,18,15,65,12,46,16,,14,14,30,39,15,20,1.0,0.8
2024-12-11T1200,2370A,115.0093,27.0968,吉安市,青原区法院,,19,18,61,8,41,13,,10,10,37,44,8,14,0.8,0.8
2024-12-11T1200,1772A,126.54,43.8622,吉林市,哈达湾,,,26,38,11,24,54,,36,36,,24,,9,0.4,0.6
2024-12-11T1200,1773A,126.5844,43.8358,吉林市,东局子,,29,25,43,20,30,53,,27,25,14,26,8,7,0.6,0.7
2024-12-11T1200,1774A,126.5052,43.8245,吉林市,电力学院,,28,,52,19,45,54,,25,24,8,29,9,10,0.5,0.9
2024-12-11T1200,1775A,126.6133,43.8972,吉林市,江北,,19,19,55,12,37,55,,27,27,17,31,14,12,0.4,0.7
2024-12-11T1200,1776A,126.555,43.8306,吉林市,江南公园,,23,20,42,16,32,51,,26,25,13,27,11,10,0.5,0.8
2024-12-11T1200,1778A,126.7061,43.7133,吉林市,丰满,,23,18,29,16,25,54,,41,41,7,14,10,10,0.2,0.4
2024-12-11T1200,2868A,126.4739,43.953,吉林市,九站,,34,34,44,20,34,51,,33,33,12,29,6,8,0.6,0.7
2024-12-11T1200,1299A,116.9862,36.6114,济南市,科干所,颗粒物(PM10),56,61,130,29,86,48,,18,18,37,73,12,12,0.6,0.9
2024-12-11T1200,1300A,116.9376,36.665,济南市,农科所,颗粒物(PM10),53,56,144,15,80,52,,18,18,27,74,14,16,0.7,1.2
2024-12-11T1200,1301A,117.1265,36.6734,济南市,开发区,颗粒物(PM10),58,66,138,34,96,45,,17,17,36,73,16,13,0.6,1
2024-12-11T1200,1303A,117.0624,36.6868,济南市,省种子仓库,颗粒物(PM10),54,58,147,14,91,53,,18,18,20,67,10,14,0.5,1
2024-12-11T1200,1304A,116.9489,36.6447,济南市,机床二厂,,49,49,135,22,85,56,,22,22,22,68,13,17,0.7,1.2
2024-12-11T1200,1305A,117.0495,36.663,济南市,市监测站,颗粒物(PM10),56,61,136,24,86,52,,20,20,29,70,12,14,0.5,0.9
2024-12-11T1200,1306A,116.7675,36.5484,济南市,长清党校,,,,150,,100,56,,18,18,,76,,19,,1
2024-12-11T1200,1616A,117.6795,36.229,济南市,技术学院,,39,34,100,27,73,55,,27,27,26,62,9,18,0.6,1
2024-12-11T1200,1961A,117.532,36.6868,济南市,东山小学,,39,39,167,10,109,63,,25,25,12,61,8,15,0.4,1.1
2024-12-11T1200,3059A,117.7161,36.2049,济南市,泰兴公司,,44,44,113,19,76,56,,25,25,21,61,10,18,0.5,0.9
2024-12-11T1200,3064A,117.6867,36.2171,济南市,莱芜战役纪念馆,颗粒物(PM10),51,51,109,24,72,58,,29,29,21,59,10,17,0.5,0.9
2024-12-11T1200,3494A,117.1673,36.9782,济南市,济阳区政府,,34,34,117,12,79,58,,23,23,13,64,9,14,0.3,1
2024-12-11T1200,3495A,117.1171,36.63,济南市,锦屏中学,颗粒物(PM10),53,56,115,34,84,50,,22,22,38,61,14,10,0.6,0.8
2024-12-11T1200,3682A,116.9814,36.6819,济南市,济南四建,颗粒物(PM10),52,53,130,22,85,46,,14,14,26,74,9,14,0.5,1
2024-12-11T1200,1653A,116.6251,35.4302,济宁市,火炬城,颗粒物(PM10),60,70,106,41,80,56,,21,21,31,61,10,13,0.8,1
2024-12-11T1200,1655A,116.5491,35.4042,济宁市,电化厂,,,,137,,88,,,11,11,31,66,13,17,0.8,1.1
2024-12-11T1200,3500A,116.5814,35.3707,济宁市,北湖一中,细颗粒物(PM2.5),55,58,106,39,75,55,,21,21,36,64,9,12,0.6,0.9
2024-12-11T1200,3501A,116.8249,35.5593,济宁市,服务中心,颗粒物(PM10),69,88,141,30,84,63,,22,22,20,61,12,17,0.5,0.9
2024-12-11T1200,3678A,116.5907,35.4054,济宁市,市第七中学,细颗粒物(PM2.5),73,68,106,53,79,55,,22,22,34,59,11,12,0.9,1.1
2024-12-11T1200,2255A,130.2751,46.8028,佳木斯市,佳纺,细颗粒物(PM2.5),52,39,44,36,39,61,,49,48,6,14,9,12,0.5,0.6
2024-12-11T1200,2256A,130.3995,46.8307,佳木斯市,发电厂,,46,,33,32,38,56,,49,46,7,15,7,7,0.5,0.6
2024-12-11T1200,2257A,130.3258,46.7975,佳木斯市,环保局,,46,,39,32,36,53,,46,44,12,19,10,11,0.4,0.6
2024-12-11T1200,2258A,130.3648,46.8032,佳木斯市,十一中,,33,24,36,23,36,58,,42,41,11,23,7,10,0.4,0.5
2024-12-11T1200,2259A,130.3794,46.7588,佳木斯市,四丰,,30,24,39,21,27,60,,54,53,4,8,1,1,0.3,0.4
2024-12-11T1200,1252A,120.7436,30.778,嘉兴市,清河小学,,21,21,23,13,14,50,,62,61,28,34,5,5,0.6,0.5
2024-12-11T1200,1253A,120.726,30.7478,嘉兴市,嘉兴学院,,28,28,31,19,22,51,,57,57,29,36,5,5,0.5,0.5
2024-12-11T1200,2872A,120.7846,30.7525,嘉兴市,南湖区残联,,26,21,29,18,20,66,,71,71,18,28,6,6,0.5,0.5
2024-12-11T1200,3407A,120.6916,30.7739,嘉兴市,秀洲住建,,29,,23,20,22,53,,63,62,28,33,9,9,0.5,0.4
2024-12-11T1200,1945A,98.2908,39.7711,嘉峪关市,气象局,细颗粒物(PM2.5),79,97,45,58,30,55,,71,69,28,19,12,7,1.1,0.6
2024-12-11T1200,2884A,98.2672,39.7978,嘉峪关市,酒钢宾馆,细颗粒物(PM2.5),110,161,49,83,31,42,,69,65,47,20,104,21,3.2,0.7
2024-12-11T1200,3248A,98.2643,39.7724,嘉峪关市,雄关区,,,,39,,25,52,,67,64,44,28,20,8,1.5,0.5
2024-12-11T1200,1383A,113.1064,22.6058,江门市,北街,细颗粒物(PM2.5),79,96,82,58,49,41,,13,13,81,78,11,10,0.8,0.9
2024-12-11T1200,1384A,113.0731,22.5835,江门市,西区,颗粒物(PM10),78,105,93,54,49,32,,11,11,91,95,12,11,1.0,1
2024-12-11T1200,1385A,113.0219,22.5311,江门市,圭峰西,细颗粒物(PM2.5),82,93,71,60,47,57,,25,25,71,55,10,6,0.8,0.7
2024-12-11T1200,1386A,113.0828,22.5947,江门市,东湖,颗粒物(PM10),76,101,80,50,40,41,,13,13,69,69,11,9,0.8,1
2024-12-11T1200,3311A,113.1075,22.5647,江门市,江海富民,颗粒物(PM10),76,102,99,48,51,43,,14,14,90,80,12,10,0.9,0.9
2024-12-11T1200,3449A,113.05,22.4667,江门市,新会银湖,,,,79,69,54,44,,14,14,88,68,8,8,1.0,0.8
2024-12-11T1200,1828A,113.227,35.2125,焦作市,市环保局,细颗粒物(PM2.5),133,129,148,101,110,25,,9,9,50,53,13,13,1.1,1
2024-12-11T1200,1830A,113.1992,35.2590,焦作市,影视城,细颗粒物(PM2.5),135,119,114,103,84,30,,16,16,50,42,20,13,1.7,1.2
2024-12-11T1200,3169A,113.2725,35.2067,焦作市,太极体育中心,细颗粒物(PM2.5),139,160,151,106,104,21,,6,6,,57,15,15,1.3,1.2
2024-12-11T1200,3335A,113.3137,35.2641,焦作市,马村街道办,,,,148,,113,21,,9,9,52,47,,17,,1.1
2024-12-11T1200,3336A,113.2465,35.2373,焦作市,焦作技师学院,细颗粒物(PM2.5),147,165,157,112,108,23,,8,8,41,39,22,20,1.7,1.3
2024-12-11T1200,3477A,113.1656,35.2539,焦作市,中站许衡医院,细颗粒物(PM2.5),128,138,130,97,93,27,,10,10,50,49,15,9,1.4,1
2024-12-11T1200,3981A,113.2449,35.1803,焦作市,原李万街道办,细颗粒物(PM2.5),140,155,162,107,112,21,,8,8,57,56,8,10,1.4,1.1
2024-12-11T1200,1708A,116.3701,23.5345,揭阳市,新兴,,,,49,,31,,,60,,33,23,,10,0.6,0.5
2024-12-11T1200,1709A,116.3264,23.5443,揭阳市,西马,细颗粒物(PM2.5),82,81,60,60,36,95,,56,50,34,22,14,10,1.0,0.7
2024-12-11T1200,1710A,116.3611,23.5626,揭阳市,东兴,颗粒物(PM10),83,116,61,52,32,98,,57,51,31,22,23,13,1.0,0.8
2024-12-11T1200,1711A,116.4151,23.5294,揭阳市,渔湖,,,,47,,20,100,,53,46,18,23,,13,0.6,0.6
2024-12-11T1200,3320A,116.403,23.5699,揭阳市,曲溪,颗粒物(PM10),60,69,49,35,27,98,,44,42,36,29,14,11,0.8,0.7
2024-12-11T1200,1944A,102.1692,38.5167,金昌市,天庆家园,细颗粒物(PM2.5),87,74,40,64,47,59,,44,40,14,16,33,14,0.6,0.9
2024-12-11T1200,3170A,102.1864,38.5253,金昌市,市委党校,细颗粒物(PM2.5),78,72,57,57,38,58,,51,49,12,14,23,12,0.7,0.7
2024-12-11T1200,4022A,102.1647,38.5371,金昌市,金川区人防中心,,,100,52,61,42,,,50,48,12,12,26,14,0.5,0.8
2024-12-11T1200,1262A,119.647,29.077,金华市,十五中,,18,11,48,7,35,32,,14,14,36,53,4,4,0.8,0.6
2024-12-11T1200,1263A,119.686,29.1029,金华市,监测站,,20,11,46,9,31,24,,10,10,40,53,3,4,1.2,0.9
2024-12-11T1200,3659A,119.656,29.1131,金华市,气象局,,20,10,48,9,35,23,,8,8,40,53,3,4,1.1,1
2024-12-11T1200,1767A,121.1115,41.0879,锦州市,南山,,20,13,18,3,11,62,,51,51,4,13,10,14,0.5,0.5
2024-12-11T1200,1768A,121.0533,40.8434,锦州市,开发区,颗粒物(PM10),63,75,46,16,22,55,,33,33,10,33,10,17,0.5,0.7
2024-12-11T1200,1769A,121.1836,41.1119,锦州市,百股街道,,22,22,34,7,22,60,,44,44,3,21,13,16,0.4,0.6
2024-12-11T1200,1770A,121.1178,41.1222,锦州市,天安街道,,23,21,25,16,15,59,,52,52,9,15,11,14,0.5,0.6
2024-12-11T1200,1771A,121.1303,41.1386,锦州市,北湖公园,,,25,22,10,15,,,48,47,4,12,,14,0.4,0.5
2024-12-11T1200,2160A,112.85,35.5051,晋城市,自来水公司,细颗粒物(PM2.5),119,120,77,90,59,35,,21,21,27,33,6,7,1.4,1
2024-12-11T1200,2161A,112.8318,35.4936,晋城市,白云商贸,细颗粒物(PM2.5),117,97,77,88,55,34,,21,19,32,36,5,6,1.3,1
2024-12-11T1200,2162A,112.8508,35.4887,晋城市,市环保局,细颗粒物(PM2.5),122,131,85,92,58,34,,24,20,29,32,6,6,1.4,1
2024-12-11T1200,2163A,112.8676,35.4897,晋城市,技术学院,细颗粒物(PM2.5),125,108,81,95,60,34,,26,20,33,35,9,7,1.3,0.9
2024-12-11T1200,2165A,112.8453,35.546,晋城市,白马寺,细颗粒物(PM2.5),118,116,76,89,56,29,,22,21,27,28,9,11,1.6,1
2024-12-11T1200,3620A,112.8271,35.4828,晋城市,泽州一中,细颗粒物(PM2.5),125,101,70,95,58,34,,27,22,28,31,5,7,1.2,1
2024-12-11T1200,2171A,112.7532,37.6945,晋中市,锦纶小区,颗粒物(PM10),60,70,107,34,50,31,,11,11,32,55,11,13,0.8,0.8
2024-12-11T1200,2173A,112.7249,37.7067,晋中市,南都小区,颗粒物(PM10),69,87,103,40,61,31,,11,11,34,56,12,16,1.0,1
2024-12-11T1200,2174A,112.6991,37.6982,晋中市,榆次区政府,颗粒物(PM10),64,78,102,42,50,22,,9,9,39,54,12,12,1.0,1
2024-12-11T1200,2865A,112.7195,37.6828,晋中市,榆次三中,颗粒物(PM10),64,78,109,36,56,24,,10,10,34,53,12,15,1.0,1
2024-12-11T1200,2439A,112.2014,31.0481,荆门市,竹园小学,细颗粒物(PM2.5),99,118,93,74,63,62,,39,39,22,31,18,13,0.5,0.5
2024-12-11T1200,2440A,112.1969,30.9891,荆门市,掇刀,细颗粒物(PM2.5),92,109,87,68,63,64,,45,45,26,32,13,9,0.6,0.6
2024-12-11T1200,2441A,112.2213,31.0386,荆门市,石化一小,细颗粒物(PM2.5),98,121,94,73,63,66,,41,41,25,29,12,9,0.5,0.6
2024-12-11T1200,3012A,112.1849,31.0362,荆门市,西山林语,细颗粒物(PM2.5),98,103,84,73,60,62,,47,47,23,26,12,8,0.6,0.5
2024-12-11T1200,3547A,112.1632,31.0138,荆门市,龙泉中学南校,细颗粒物(PM2.5),105,105,84,79,64,64,,47,47,25,29,16,12,0.7,0.7
2024-12-11T1200,1844A,112.2494,30.3197,荆州市,市图书馆,细颗粒物(PM2.5),89,,67,66,66,76,,43,43,22,35,7,6,0.6,0.7
2024-12-11T1200,1845A,112.2008,30.3544,荆州市,市委党校,细颗粒物(PM2.5),89,66,71,66,64,77,,43,43,20,34,6,5,0.5,0.6
2024-12-11T1200,3194A,112.2747,30.3122,荆州市,管委会,细颗粒物(PM2.5),80,62,67,59,63,79,,46,46,15,26,5,5,0.6,0.7
2024-12-11T1200,3548A,112.1655,30.3364,荆州市,学苑路,细颗粒物(PM2.5),84,90,82,62,58,79,,46,46,20,32,10,10,0.7,0.8
2024-12-11T1200,2342A,117.3102,29.3867,景德镇市,王港中学,,,,,,,,,,,,,,,,
2024-12-11T1200,2343A,117.2117,29.2933,景德镇市,老干部活动中心,,13,,19,9,18,30,,15,15,15,19,7,7,0.6,0.6
2024-12-11T1200,2344A,117.1894,29.2789,景德镇市,兽医站,,10,10,28,3,14,29,,15,15,10,20,16,7,0.6,0.5
2024-12-11T1200,2345A,117.1547,29.2617,景德镇市,台达陶瓷,,16,12,23,11,18,24,,10,10,17,21,5,5,0.7,0.6
2024-12-11T1200,2346A,117.2461,29.2956,景德镇市,陶研所,,10,10,18,3,11,28,,15,15,15,18,5,6,0.8,0.8
2024-12-11T1200,1803A,115.9872,29.6815,九江市,十里,,,,34,31,28,,,47,47,,37,,5,,0.8
2024-12-11T1200,1804A,115.9584,29.7046,九江市,茅山头,,32,26,34,22,25,36,,44,43,22,30,6,9,0.7,0.8
2024-12-11T1200,1805A,115.9877,29.7295,九江市,西园,,40,32,34,28,30,44,,47,47,18,30,6,6,0.5,0.6
2024-12-11T1200,1806A,116.0172,29.6547,九江市,五七二七厂,细颗粒物(PM2.5),58,49,44,41,42,45,,47,47,19,32,4,4,0.7,1
2024-12-11T1200,1808A,115.9114,29.6038,九江市,综合工业园,细颗粒物(PM2.5),54,,36,38,39,47,,49,49,26,40,1,2,0.8,0.8
2024-12-11T1200,1809A,116.0721,29.7535,九江市,石化总厂,细颗粒物(PM2.5),57,,40,40,36,23,,30,29,20,34,9,10,0.7,0.8
2024-12-11T1200,1810A,115.9773,29.5698,九江市,庐山气象台,,18,,11,12,9,55,,49,49,9,15,18,15,1.0,1
2024-12-11T1200,3190A,116.0254,29.6994,九江市,外国语学校,,42,29,35,29,31,38,,42,42,21,32,5,5,0.6,0.7
2024-12-11T1200,2658A,98.5061,39.7443,酒泉市,仓门街子站,细颗粒物(PM2.5),89,88,64,66,45,62,,51,51,18,23,47,14,0.8,0.8
2024-12-11T1200,2659A,98.4989,39.7256,酒泉市,油田生活基地,颗粒物(PM10),71,92,61,48,40,61,,53,50,22,26,24,8,0.9,0.8
2024-12-11T1200,2698A,76.0072,39.4467,喀什地区,巡警大队,颗粒物(PM10),71,91,63,27,24,29,,60,49,27,20,3,2,0.5,0.4
2024-12-11T1200,2699A,75.9755,39.4694,喀什地区,吾办,颗粒物(PM10),68,85,66,42,31,40,,65,54,24,23,3,3,0.7,0.5
2024-12-11T1200,4027A,75.9483,39.4689,喀什地区,老干局,颗粒物(PM10),73,95,70,34,28,39,,57,48,22,22,2,2,0.6,0.6
2024-12-11T1200,1824A,114.3389,34.7781,开封市,肿瘤医院,细颗粒物(PM2.5),87,99,128,64,104,47,,22,22,35,44,8,9,0.7,0.7
2024-12-11T1200,1826A,114.2885,34.7965,开封市,世纪星幼儿园,细颗粒物(PM2.5),98,101,117,73,108,40,,21,21,48,49,7,6,0.7,0.7
2024-12-11T1200,3147A,114.3438,34.8106,开封市,龙亭公园,细颗粒物(PM2.5),85,98,126,63,116,48,,22,22,43,52,6,5,0.7,0.8
2024-12-11T1200,3210A,114.3644,34.7964,开封市,汴京公园,细颗粒物(PM2.5),97,116,143,72,115,48,,22,22,41,51,6,6,0.8,0.9
2024-12-11T1200,3473A,114.2485,34.8306,开封市,技师学院,细颗粒物(PM2.5),103,117,123,77,108,39,,18,18,46,52,8,7,1.0,1
2024-12-11T1200,3592A,114.4644,34.7556,开封市,祥符区生态环境局,,,,80,74,118,49,,23,23,35,46,4,6,0.7,0.7
2024-12-11T1200,1951A,84.895,45.6094,克拉玛依市,长征新村,,,15,18,12,13,,,25,22,,19,4,5,0.2,0.3
2024-12-11T1200,1952A,84.8988,45.5893,克拉玛依市,南林小区,,26,,16,18,17,27,,30,25,19,18,6,5,0.3,0.3
2024-12-11T1200,1954A,84.905,44.3396,克拉玛依市,独山子区,,18,18,13,10,11,57,,53,39,14,15,5,4,0.3,0.3
2024-12-11T1200,1955A,85.6979,46.098,克拉玛依市,乌尔禾区商贸楼,,36,,11,25,10,33,,21,21,20,24,3,3,0.5,0.5
2024-12-11T1200,3612A,85.1045,45.6899,克拉玛依市,白碱滩区新站,,32,32,22,15,13,35,,33,29,21,20,8,8,0.6,0.7
2024-12-11T1200,2697A,76.1454,39.7142,克孜勒苏柯尔克孜自治州,市人民政府,颗粒物(PM10),59,67,54,27,27,70,,82,70,8,8,3,3,0.5,0.5
2024-12-11T1200,3665A,76.1658,39.7157,克孜勒苏柯尔克孜自治州,克州文化中心,颗粒物(PM10),57,63,49,30,26,65,,78,65,14,13,6,7,0.6,0.5
2024-12-11T1200,1450A,102.8204,24.8886,昆明市,呈贡新区,,,,27,,20,80,,51,51,,16,4,7,,0.7
2024-12-11T1200,1451A,102.6251,24.9608,昆明市,西山森林公园,,,,,,,,,,,,,,,,
2024-12-11T1200,1452A,102.7252,25.0902,昆明市,龙泉镇,,28,20,33,19,17,78,,20,20,12,26,10,7,0.7,0.7
2024-12-11T1200,1453A,102.7266,25.0375,昆明市,东风东路,,33,31,29,23,20,75,,49,46,12,14,6,6,0.4,0.5
2024-12-11T1200,1454A,102.6742,25.0669,昆明市,金鼎山,,35,33,31,24,20,82,,52,50,18,20,18,18,0.6,0.5
2024-12-11T1200,1455A,102.6644,25.0401,昆明市,碧鸡广场,,36,36,34,22,21,77,,45,44,17,21,7,7,0.5,0.5
2024-12-11T1200,3179A,102.7494,25.0119,昆明市,官渡区博物馆,,,38,30,18,19,,,50,41,9,13,9,8,0.4,0.5
2024-12-11T1200,3375A,102.8017,24.8336,昆明市,青年创业园,,28,28,30,19,21,77,,39,39,6,19,6,7,0.6,0.6
2024-12-11T1200,3550A,102.7997,24.9786,昆明市,昆明学院,,30,29,29,21,19,83,,59,59,9,13,10,9,0.3,0.4
2024-12-11T1200,3551A,102.5967,24.6736,昆明市,晋宁区生态环境分局,,28,,30,14,18,87,,54,54,8,12,2,3,0.4,0.5
2024-12-11T1200,3552A,102.6678,24.9856,昆明市,云天化总部,,32,28,23,22,16,90,,60,57,8,11,7,7,0.4,0.4
2024-12-11T1200,1456A,91.1319,29.6514,拉萨市,八廓街,,41,41,34,14,15,70,,70,66,16,20,18,9,0.4,0.4
2024-12-11T1200,1457A,91.1221,29.6747,拉萨市,市环保局,,39,39,42,25,22,83,,72,71,20,24,13,9,0.6,0.7
2024-12-11T1200,1458A,91.0874,29.6475,拉萨市,区监测站,,24,23,27,12,13,74,,63,63,18,31,18,8,0.3,0.4
2024-12-11T1200,1459A,91.1774,29.6541,拉萨市,西藏大学,,40,40,35,11,12,76,,77,70,9,17,15,6,0.6,0.7
2024-12-11T1200,1460A,90.9798,29.6588,拉萨市,区辐射站,颗粒物(PM10),55,59,41,37,21,62,,61,46,40,31,14,9,0.8,0.7
2024-12-11T1200,1461A,91.0834,29.6292,拉萨市,拉萨火车站,,39,39,26,23,13,69,,37,37,28,34,14,6,0.8,0.8
2024-12-11T1200,2520A,109.2203,23.7256,来宾市,来宾技工学校,,10,10,63,3,53,26,,30,29,15,23,4,6,0.9,1.1
2024-12-11T1200,3535A,109.1781,23.7297,来宾市,兴宾区政府,,10,7,73,3,53,29,,32,32,14,21,4,6,1.0,1.2
2024-12-11T1200,4002A,109.2416,23.7461,来宾市,中南小学,,15,15,64,6,50,25,,28,27,14,22,6,7,0.8,1
2024-12-11T1200,1476A,103.631,36.1031,兰州市,兰炼宾馆,细颗粒物(PM2.5),90,67,56,67,48,49,,58,46,35,23,13,12,0.8,0.5
2024-12-11T1200,1477A,104.1373,35.9454,兰州市,榆中兰大校区,,,,,,,,,,,,,,,,
2024-12-11T1200,1478A,103.8412,36.0726,兰州市,生物制品所,细颗粒物(PM2.5),65,54,46,47,44,31,,54,38,47,23,11,11,0.8,0.5
2024-12-11T1200,1479A,103.831,36.0464,兰州市,铁路设计院,细颗粒物(PM2.5),73,76,59,53,46,25,,49,31,59,34,8,8,1.1,0.6
2024-12-11T1200,3186A,103.7158,36.1058,兰州市,教育港,细颗粒物(PM2.5),72,71,57,52,46,34,,56,43,46,25,14,13,0.9,0.5
2024-12-11T1200,3241A,103.7439,36.0842,兰州市,百合公园,细颗粒物(PM2.5),64,67,47,46,40,38,,49,32,39,24,11,11,0.9,0.7
2024-12-11T1200,3242A,103.9611,35.998,兰州市,和平,细颗粒物(PM2.5),97,81,54,72,49,40,,56,43,48,26,15,14,1.1,0.8
2024-12-11T1200,3245A,103.6633,36.533,兰州新区,新区管委会,细颗粒物(PM2.5),77,,54,56,47,72,,54,53,21,17,22,14,0.7,0.5
2024-12-11T1200,3246A,103.6975,36.4789,兰州新区,舟曲中学,细颗粒物(PM2.5),72,61,58,52,43,68,,54,54,16,19,16,10,0.6,0.5
2024-12-11T1200,1067A,116.6708,39.5111,廊坊市,药材公司,,29,26,56,20,33,49,,18,18,22,54,11,7,0.8,0.9
2024-12-11T1200,1068A,116.7214,39.5589,廊坊市,开发区,,,36,52,20,30,44,,9,9,,54,10,6,0.7,0.8
2024-12-11T1200,1070A,116.7244,39.5269,廊坊市,北华航天学院,,36,36,58,20,31,44,,14,14,23,53,12,9,0.8,0.9
2024-12-11T1200,2919A,116.7022,39.5453,廊坊市,河北工业大学,,32,30,50,22,27,48,,16,16,22,50,12,8,0.7,0.7
2024-12-11T1200,2535A,103.7723,29.5462,乐山市,花湖湾,细颗粒物(PM2.5),63,55,54,45,43,20,,5,5,26,24,3,2,0.7,0.7
2024-12-11T1200,2536A,103.7627,29.5844,乐山市,牛耳桥,细颗粒物(PM2.5),67,57,54,48,44,32,,6,6,26,36,7,5,0.5,0.6
2024-12-11T1200,2537A,103.7508,29.6006,乐山市,市第三水厂,细颗粒物(PM2.5),68,60,55,49,44,35,,10,10,25,37,6,4,0.4,0.5
2024-12-11T1200,2538A,103.7571,29.5664,乐山市,市监测站,"颗粒物(PM10),细颗粒物(PM2.5)",58,66,49,41,36,33,,9,9,21,31,7,5,0.6,0.5
2024-12-11T1200,3361A,103.7311,29.5628,乐山市,理工大学,细颗粒物(PM2.5),63,53,46,45,38,38,,10,10,25,29,8,6,0.6,0.6
2024-12-11T1200,2598A,100.2143,26.8576,丽江市,西南郊,,,,,,,,,,,,,,,,
2024-12-11T1200,2599A,100.2497,26.8802,丽江市,丽江古城,,44,44,27,29,16,84,,78,73,16,10,9,9,0.7,0.6
2024-12-11T1200,2600A,100.2203,26.8906,丽江市,市中心,,27,25,17,10,10,84,,80,70,13,11,6,6,0.6,0.5
2024-12-11T1200,1267A,119.914,28.4514,丽水市,监测站大楼,,20,16,24,6,17,9,,10,7,40,30,3,3,0.7,0.6
2024-12-11T1200,1268A,119.93,28.4586,丽水市,莲都小学,,20,9,31,3,14,9,,7,7,39,35,5,5,0.7,0.6
2024-12-11T1200,1269A,119.879,28.4231,丽水市,余庄前,,17,6,19,3,9,10,,11,6,33,25,5,5,0.5,0.4
2024-12-11T1200,1173A,119.176,34.5885,连云港市,市环境监测站,颗粒物(PM10),53,56,85,29,59,55,,30,30,23,44,10,13,0.7,0.8
2024-12-11T1200,3000A,119.3581,34.6972,连云港市,德源药业,,,,77,,53,54,,34,34,,39,6,11,0.4,0.8
2024-12-11T1200,3007A,119.178,34.844,连云港市,新城一中,颗粒物(PM10),56,62,90,32,68,52,,29,29,26,51,12,16,0.8,0.9
2024-12-11T1200,3008A,119.3608,34.7519,连云港市,胡沟管理处,,44,44,68,22,46,54,,42,42,13,21,4,7,0.3,0.6
2024-12-11T1200,3009A,119.1478,34.5911,连云港市,矿山设计院,颗粒物(PM10),52,53,91,31,62,60,,29,29,15,35,9,13,0.8,0.9
2024-12-11T1200,3434A,119.2413,34.6539,连云港市,工贸学校,颗粒物(PM10),51,52,93,34,67,57,,32,32,19,43,10,16,0.8,1.1
2024-12-11T1200,3664A,119.4172,34.7341,连云港市,连云街道,,47,47,77,29,53,44,,34,34,32,46,6,10,0.6,0.8
2024-12-11T1200,2571A,102.3431,27.8099,凉山彝族自治州,青龙寺,,19,19,26,6,7,54,,41,41,6,7,5,5,0.6,0.6
2024-12-11T1200,2572A,102.2721,27.8415,凉山彝族自治州,邛海宾馆,,20,20,28,10,15,49,,47,46,11,9,12,13,0.8,0.7
2024-12-11T1200,2573A,102.2625,27.898,凉山彝族自治州,西昌市政府,,29,27,25,20,14,44,,45,40,18,11,8,7,0.8,0.7
2024-12-11T1200,2574A,102.2685,27.8851,凉山彝族自治州,凉山州政府,,30,27,26,21,14,43,,45,41,16,10,11,11,0.7,0.7
2024-12-11T1200,2575A,102.237,27.8914,凉山彝族自治州,长安,,38,38,38,16,15,47,,45,42,16,15,8,12,0.6,0.6
2024-12-11T1200,2212A,123.2,41.1953,辽阳市,宏伟区,,40,40,49,24,41,34,,26,26,16,30,15,13,0.3,0.4
2024-12-11T1200,2213A,123.1683,41.2495,辽阳市,新华园,,48,48,43,19,35,38,,30,30,17,33,18,16,0.6,0.8
2024-12-11T1200,2214A,123.2354,41.2639,辽阳市,滨河路,,,29,66,17,59,,,14,14,18,41,14,13,0.8,1.1
2024-12-11T1200,2215A,123.149,41.2991,辽阳市,铁西工业园,,43,43,57,19,43,39,,25,25,15,33,8,12,0.6,0.9
2024-12-11T1200,2227A,125.1358,42.8845,辽源市,环保局,,27,27,42,16,29,50,,23,23,15,28,11,11,0.5,1.1
2024-12-11T1200,3239A,125.0764,42.9078,辽源市,银鹰制药,细颗粒物(PM2.5),55,49,66,39,57,50,,20,20,17,34,13,17,0.5,0.9
2024-12-11T1200,1625A,115.9848,36.4372,聊城市,区政府,颗粒物(PM10),51,51,131,22,89,55,,19,19,27,67,12,14,0.7,1.1
2024-12-11T1200,2878A,116.0072,36.4343,聊城市,聊大东校,,46,46,139,25,92,56,,18,18,22,66,12,12,0.7,1.2
2024-12-11T1200,3200A,115.9819,36.4978,聊城市,监控中心,,,56,162,29,117,,,14,14,,66,,15,,1.1
2024-12-11T1200,3513A,116.0445,36.4361,聊城市,九州社区,,42,42,118,18,89,59,,17,17,13,53,12,17,0.6,1.1
2024-12-11T1200,4018A,116.0567,36.4608,聊城市,星美广场,,42,42,144,20,97,58,,19,19,16,49,12,15,0.6,1.1
2024-12-11T1200,2632A,94.3681,29.6376,林芝市,林芝监测站,,26,26,13,8,7,65,,76,64,15,6,7,6,0.6,0.5
2024-12-11T1200,2633A,94.3616,29.6616,林芝市,林芝人民医院,,24,24,13,8,8,61,,70,60,14,7,6,6,0.9,0.7
2024-12-11T1200,2603A,100.0781,23.8982,临沧市,市环保局,,40,40,37,15,28,62,,40,38,19,14,9,8,0.5,0.5
2024-12-11T1200,2604A,100.0894,23.8822,临沧市,市气象局,,46,46,34,27,28,51,,39,34,31,14,8,7,0.5,0.5
2024-12-11T1200,1733A,111.5531,36.0783,临汾市,临钢医院,细颗粒物(PM2.5),127,115,116,96,82,31,,12,11,32,40,9,13,1.5,1.6
2024-12-11T1200,1734A,111.5028,36.0714,临汾市,技工学校,细颗粒物(PM2.5),127,124,114,96,88,31,,13,11,39,51,10,15,1.6,1.5
2024-12-11T1200,1736A,111.5018,36.0855,临汾市,市委,细颗粒物(PM2.5),125,146,122,95,84,34,,16,13,33,44,10,16,1.3,1.3
2024-12-11T1200,3018A,111.505,36.1014,临汾市,唐尧大酒店,,,,113,,87,,,14,7,,44,11,17,,1.7
2024-12-11T1200,3668A,111.5036,36.0414,临汾市,城南,细颗粒物(PM2.5),129,117,116,98,87,35,,10,10,32,46,10,13,1.8,1.5
2024-12-11T1200,2667A,103.2069,35.5993,临夏回族自治州,环保局,颗粒物(PM10),60,69,58,11,14,52,,53,52,22,20,8,10,0.9,0.8
2024-12-11T1200,2668A,103.2417,35.6057,临夏回族自治州,建设大厦,颗粒物(PM10),52,53,48,13,18,64,,63,63,12,14,12,12,0.9,0.9
2024-12-11T1200,1618A,118.3429,35.0532,临沂市,沂河小区,颗粒物(PM10),52,53,89,30,63,62,,47,47,15,42,8,14,0.2,0.6
2024-12-11T1200,1619A,118.295,35.0583,临沂市,鲁南制药厂,,48,48,82,24,58,55,,40,40,19,35,5,11,0.3,0.6
2024-12-11T1200,1620A,118.2794,34.9976,临沂市,新光毛纺厂,,39,39,76,26,55,62,,42,42,18,41,6,12,0.5,0.8
2024-12-11T1200,1621A,118.3956,35.0888,临沂市,河东保险公司,,46,46,88,20,62,62,,43,43,9,40,5,10,0.2,0.5
2024-12-11T1200,3370A,118.3564,35.0215,临沂市,十里堡居委,,41,41,81,19,55,65,,47,47,14,37,7,12,0.4,0.8
2024-12-11T1200,3496A,118.3604,35.1084,临沂市,南坊新区,,48,48,88,19,60,64,,44,44,19,46,4,10,0.5,0.8
2024-12-11T1200,3860A,118.3920,35.0300,临沂市,皇山花园小区,颗粒物(PM10),51,51,96,28,57,57,,40,40,21,54,4,10,0.4,0.7
2024-12-11T1200,1870A,109.4856,24.3895,柳州市,柳东小学,,15,,15,10,14,25,,26,25,10,11,8,8,0.6,0.6
2024-12-11T1200,1871A,109.4157,24.3277,柳州市,环保监测站,,11,11,23,3,22,26,,25,25,11,17,9,9,0.8,0.9
2024-12-11T1200,1872A,109.389,24.341,柳州市,河西水厂,,19,14,29,9,21,18,,17,14,20,21,15,12,1.9,1.6
2024-12-11T1200,1873A,109.4311,24.2921,柳州市,市四中,,11,11,22,7,25,29,,29,29,11,17,8,7,0.7,0.9
2024-12-11T1200,1874A,109.4006,24.3631,柳州市,市九中,,11,11,16,3,15,24,,23,22,14,16,6,6,1.0,1.1
2024-12-11T1200,1875A,109.4958,24.3134,柳州市,古亭山,,13,13,16,3,14,25,,29,27,14,17,10,9,0.9,0.9
2024-12-11T1200,3402A,109.5422,24.3996,柳州市,市二中,,11,11,18,3,12,17,,21,18,16,18,8,8,0.9,1
2024-12-11T1200,2307A,116.5079,31.737,六安市,监测大楼,细颗粒物(PM2.5),83,79,66,61,58,33,,38,35,27,29,5,4,0.7,0.6
2024-12-11T1200,2308A,116.4738,31.7643,六安市,皖西学院,细颗粒物(PM2.5),77,87,74,56,54,30,,31,30,26,29,4,4,0.8,0.7
2024-12-11T1200,2309A,116.4996,31.7905,六安市,朝阳厂,细颗粒物(PM2.5),77,77,64,56,52,37,,34,32,20,26,2,2,0.8,0.8
2024-12-11T1200,2310A,116.5567,31.7886,六安市,开发区,细颗粒物(PM2.5),84,87,76,62,57,35,,37,32,29,33,5,4,0.7,0.6
2024-12-11T1200,2576A,104.8,26.5892,六盘水市,窑上,,,,20,,13,,,22,,,9,,7,,0.6
2024-12-11T1200,2577A,104.83,26.5917,六盘水市,黄土坡,,18,18,11,10,7,56,,57,57,15,11,16,10,0.5,0.5
2024-12-11T1200,2578A,104.89,26.5939,六盘水市,水钢,,,,15,,8,51,,47,47,22,19,13,9,,0.8
2024-12-11T1200,2579A,104.8475,26.5894,六盘水市,民中,,17,17,10,3,4,52,,55,55,16,14,10,9,0.5,0.5
2024-12-11T1200,2580A,104.9544,26.5506,六盘水市,双水,,20,17,14,3,6,62,,47,47,12,13,9,8,0.5,0.5
2024-12-11T1200,2335A,117.0189,25.1181,龙岩市,龙岩师专,,,,,,,,,,,,,,,,
2024-12-11T1200,2336A,117.0217,25.1033,龙岩市,龙岩市监测站,,47,47,35,28,22,74,,23,23,19,34,8,7,0.7,0.7
2024-12-11T1200,2337A,117.0258,25.0661,龙岩市,闽西职业技术学院,,48,48,43,27,21,71,,24,24,17,33,8,7,0.7,0.3
2024-12-11T1200,2338A,117.0196,25.0306,龙岩市,龙岩学院,,40,40,33,24,20,69,,26,26,21,22,8,8,0.7,0.5
2024-12-11T1200,2665A,105.0822,33.3261,陇南市,汉王镇固水子,,,,,,,,,,,,,,,,
2024-12-11T1200,2885A,104.9339,33.3826,陇南市,滨江中学,,49,49,57,32,37,65,,55,49,13,14,4,7,0.8,0.8
2024-12-11T1200,3247A,104.955,33.371,陇南市,市总工会,"颗粒物(PM10),细颗粒物(PM2.5)",53,56,60,37,33,68,,58,52,12,14,3,3,0.7,0.7
2024-12-11T1200,2487A,111.9589,27.8901,娄底市,电视发射台,,33,,15,23,18,66,,47,47,14,19,5,5,0.4,0.6
2024-12-11T1200,2488A,111.9975,27.725,娄底市,市监测站,细颗粒物(PM2.5),53,40,27,37,25,52,,36,36,12,21,6,6,0.7,0.6
2024-12-11T1200,2489A,112.0194,27.7314,娄底市,市委党校,,,48,31,40,26,42,,31,31,,27,4,6,0.7,0.8
2024-12-11T1200,2490A,111.9561,27.7569,娄底市,涟钢,,45,40,31,31,27,54,,33,33,14,23,5,4,0.5,0.7
2024-12-11T1200,2491A,111.9892,27.7044,娄底市,市政府,细颗粒物(PM2.5),60,52,29,43,29,40,,33,33,26,26,6,4,0.9,0.9
2024-12-11T1200,1893A,105.4324,28.9634,泸州市,九狮山,,,,,,,,,,,,,,,,
2024-12-11T1200,1894A,105.4427,28.9063,泸州市,小市上码头,,,,67,,48,20,,23,18,,26,3,2,0.8,0.5
2024-12-11T1200,1895A,105.4241,28.8573,泸州市,兰田宪桥,细颗粒物(PM2.5),78,68,68,57,53,20,,23,16,24,24,4,3,0.6,0.6
2024-12-11T1200,1896A,105.4379,28.8833,泸州市,市环监站,细颗粒物(PM2.5),74,68,65,54,48,14,,25,17,29,26,6,4,0.6,0.5
2024-12-11T1200,3490A,105.3617,28.7703,泸州市,纳溪区环保局,细颗粒物(PM2.5),72,63,67,52,50,13,,16,8,29,28,6,4,0.6,0.6
2024-12-11T1200,2183A,111.1406,37.5211,吕梁市,环保局,颗粒物(PM10),56,61,73,36,42,22,,8,8,32,46,6,5,1.5,0.7
2024-12-11T1200,2185A,111.1297,37.5136,吕梁市,自来水公司,细颗粒物(PM2.5),65,67,76,47,41,26,,11,11,33,47,5,5,1.9,0.8
2024-12-11T1200,2867A,111.1283,37.51,吕梁市,马茂庄小学,,,79,81,45,39,22,,9,9,37,51,,7,,0.7
2024-12-11T1200,1812A,112.3931,34.6516,洛阳市,市委党校,细颗粒物(PM2.5),118,112,114,89,84,37,,19,19,34,43,11,7,0.9,0.7
2024-12-11T1200,1814A,112.4657,34.6871,洛阳市,豫西宾馆,细颗粒物(PM2.5),132,148,130,100,84,35,,14,14,46,47,10,9,0.8,0.7
2024-12-11T1200,1815A,112.494,34.6886,洛阳市,河南林校,细颗粒物(PM2.5),179,143,119,135,106,16,,7,7,54,49,8,6,1.0,0.7
2024-12-11T1200,1816A,112.3844,34.623,洛阳市,开发区管委会,细颗粒物(PM2.5),123,116,123,93,97,39,,18,18,27,41,8,8,0.7,0.7
2024-12-11T1200,1817A,112.4267,34.6258,洛阳市,市委新办公区,细颗粒物(PM2.5),122,116,132,92,96,32,,19,19,,42,8,7,0.8,0.7
2024-12-11T1200,3340A,112.6005,34.6326,洛阳市,伊滨,细颗粒物(PM2.5),98,132,138,73,80,34,,21,21,25,34,6,8,0.9,0.8
2024-12-11T1200,3341A,112.4951,34.6332,洛阳市,中移产业园,细颗粒物(PM2.5),137,133,108,104,89,28,,21,21,,48,6,9,,0.6
2024-12-11T1200,3593A,112.5736,34.8993,洛阳市,吉利监测站,细颗粒物(PM2.5),152,125,104,116,92,27,,16,16,41,41,7,6,0.7,0.6
2024-12-11T1200,3635A,112.3677,34.662,洛阳市,河科大西苑校区,细颗粒物(PM2.5),124,123,124,94,90,29,,16,16,41,44,12,8,0.9,0.7
2024-12-11T1200,3636A,112.4388,34.6781,洛阳市,英才小学,细颗粒物(PM2.5),109,122,122,82,85,24,,7,7,,49,8,8,0.8,0.6
2024-12-11T1200,2399A,114.051,33.5699,漯河市,三五一五工厂,细颗粒物(PM2.5),149,125,130,114,106,56,,20,20,24,35,11,10,0.6,0.6
2024-12-11T1200,2400A,114.0055,33.5698,漯河市,漯河大学,细颗粒物(PM2.5),125,119,125,95,97,58,,21,21,30,41,10,8,0.6,0.6
2024-12-11T1200,2401A,114.0138,33.5828,漯河市,市水利局,细颗粒物(PM2.5),125,122,135,95,98,54,,19,19,24,36,11,10,0.7,0.6
2024-12-11T1200,2402A,114.0261,33.5698,漯河市,市广电局,细颗粒物(PM2.5),147,127,127,112,101,52,,20,20,27,37,11,9,0.7,0.6
2024-12-11T1200,3478A,113.9749,33.5664,漯河市,市图书馆,细颗粒物(PM2.5),147,157,134,112,95,52,,17,17,31,44,9,8,0.6,0.5
2024-12-11T1200,3479A,114.0967,33.5906,漯河市,召陵区卫健委,细颗粒物(PM2.5),160,,136,122,102,53,,13,13,34,48,,11,,0.7
2024-12-11T1200,1798A,118.5092,31.6837,马鞍山市,湖东路四小,细颗粒物(PM2.5),64,61,48,46,37,40,,61,47,36,32,5,3,1.4,0.8
2024-12-11T1200,1799A,118.5024,31.6449,马鞍山市,开发区,细颗粒物(PM2.5),82,,49,60,49,35,,63,50,42,33,8,6,1.2,1
2024-12-11T1200,1800A,118.5228,31.7231,马鞍山市,慈湖,细颗粒物(PM2.5),75,66,54,55,48,41,,54,37,34,35,7,6,0.8,0.8
2024-12-11T1200,1802A,118.6245,31.7241,马鞍山市,濮塘,细颗粒物(PM2.5),80,,43,59,44,38,,64,52,28,23,8,9,0.7,0.6
2024-12-11T1200,3633A,118.4918,31.6809,马鞍山市,雨山,细颗粒物(PM2.5),68,57,50,49,40,35,,54,40,37,32,16,8,1.9,0.8
2024-12-11T1200,1686A,111.0286,21.4688,茂名市,电白南海,颗粒物(PM10),52,53,45,22,22,116,,78,78,16,18,9,7,0.7,0.7
2024-12-11T1200,1687A,110.9294,21.6533,茂名市,茂石化七小,颗粒物(PM10),51,51,52,24,30,105,,93,93,10,14,7,10,0.7,0.8
2024-12-11T1200,1688A,110.9107,21.6687,茂名市,健康路,,37,36,50,24,29,117,,84,84,10,16,14,20,0.6,0.7
2024-12-11T1200,1689A,110.8592,21.6828,茂名市,高岭,,,66,64,31,32,109,,53,46,16,20,,19,0.9,0.8
2024-12-11T1200,3450A,111.01,21.5165,茂名市,电白水东,,39,39,39,19,23,101,,75,74,10,12,9,11,0.9,0.9
2024-12-11T1200,2539A,104.0308,30.0478,眉山市,黑龙滩水库,颗粒物(PM10),65,80,67,39,35,37,,19,19,25,26,1,1,0.7,0.6
2024-12-11T1200,2540A,103.8416,30.0874,眉山市,气象局,细颗粒物(PM2.5),73,69,66,53,53,26,,8,8,36,38,11,5,0.6,0.6
2024-12-11T1200,3137A,103.8578,30.0744,眉山市,市委党校,,,,62,,46,26,,6,6,,47,,5,0.6,0.7
2024-12-11T1200,3148A,103.8291,30.0564,眉山市,区人社局,细颗粒物(PM2.5),58,,53,41,47,31,,10,10,40,44,12,5,0.7,0.6
2024-12-11T1200,1690A,116.1231,24.3284,梅州市,梅江月梅,,37,37,39,19,21,58,,24,24,21,28,11,10,0.5,0.5
2024-12-11T1200,1691A,116.0797,24.2719,梅州市,梅县新城,,49,49,44,27,25,65,,25,25,24,33,7,7,0.6,0.7
2024-12-11T1200,1692A,116.1248,24.2654,梅州市,环境监控中心,,45,45,46,27,23,73,,31,31,21,34,8,7,0.7,0.7
2024-12-11T1200,3315A,116.1233,24.2991,梅州市,梅龙,,41,41,38,24,21,66,,34,34,23,27,9,8,0.7,0.8
2024-12-11T1200,1878A,104.7778,31.4741,绵阳市,富乐山,细颗粒物(PM2.5),52,42,39,36,30,31,,15,15,25,24,4,2,0.6,0.5
2024-12-11T1200,1879A,104.7563,31.4535,绵阳市,市人大,颗粒物(PM10),52,54,50,31,35,28,,7,7,32,34,3,3,0.6,0.7
2024-12-11T1200,1880A,104.6697,31.4668,绵阳市,高新区自来水公司,颗粒物(PM10),51,51,54,34,33,25,,5,5,33,31,4,4,0.6,0.6
2024-12-11T1200,1881A,104.7287,31.5075,绵阳市,三水厂,颗粒物(PM10),59,68,51,41,37,16,,4,4,36,31,6,6,0.7,0.8
2024-12-11T1200,3491A,104.69,31.5322,绵阳市,西科大附属小学,颗粒物(PM10),56,62,50,38,34,18,,9,9,34,23,6,5,0.7,0.7
2024-12-11T1200,3492A,104.5648,31.5343,绵阳市,安州区旅游局,细颗粒物(PM2.5),67,64,50,48,42,31,,9,9,30,28,11,7,0.7,0.7
2024-12-11T1200,1784A,129.61,44.561,牡丹江市,环保大楼,,39,39,39,16,28,50,,40,35,13,21,9,9,0.4,0.5
2024-12-11T1200,1785A,129.6115,44.5782,牡丹江市,文化广场,,,37,41,29,33,50,,42,35,,28,11,10,0.6,0.7
2024-12-11T1200,1786A,129.5904,44.5963,牡丹江市,第一医院,,34,34,43,18,40,52,,35,27,8,25,7,8,0.5,0.7
2024-12-11T1200,1787A,129.6364,44.6075,牡丹江市,机车工厂,,26,24,54,18,35,54,,30,27,7,26,8,11,0.4,0.6
2024-12-11T1200,1788A,129.6386,44.5462,牡丹江市,第一中学,,34,34,40,21,27,52,,36,31,12,21,8,7,0.4,0.5
2024-12-11T1200,2531A,105.0703,29.61,内江市,市监测站,细颗粒物(PM2.5),70,59,49,51,51,35,,19,17,23,20,5,6,0.7,0.7
2024-12-11T1200,2532A,105.0717,29.5947,内江市,东兴区政府,细颗粒物(PM2.5),67,58,52,48,42,40,,23,21,21,26,5,5,0.7,0.7
2024-12-11T1200,2533A,105.0653,29.5817,内江市,内江二中,细颗粒物(PM2.5),68,,57,49,47,39,,20,19,20,31,7,7,0.6,0.6
2024-12-11T1200,2534A,105.0406,29.5822,内江市,内江日报社,细颗粒物(PM2.5),60,56,56,43,43,44,,20,20,22,27,9,8,0.6,0.6
2024-12-11T1200,2628A,92.0657,31.4846,那曲市,那曲监测站,颗粒物(PM10),63,76,102,44,41,61,,42,35,11,22,9,11,0.7,1.2
2024-12-11T1200,3128A,92.0506,31.4797,那曲市,那曲会议中心,颗粒物(PM10),65,79,126,23,32,53,,37,32,8,14,4,6,0.6,1
2024-12-11T1200,1290A,115.8931,28.6843,南昌市,省外办,细颗粒物(PM2.5),62,44,44,44,40,41,,31,31,22,37,5,5,0.6,0.8
2024-12-11T1200,1291A,115.8886,28.7003,南昌市,省林业公司,,,,34,39,34,47,,37,37,19,32,,7,0.5,0.7
2024-12-11T1200,1292A,115.8126,28.7442,南昌市,林科所,,42,31,30,29,28,47,,39,39,23,34,6,6,0.5,0.7
2024-12-11T1200,1294A,115.8518,28.687,南昌市,建工学校,,48,,45,33,32,42,,36,36,20,35,7,7,0.5,0.8
2024-12-11T1200,1295A,115.8921,28.6424,南昌市,象湖,细颗粒物(PM2.5),58,,32,41,36,50,,41,41,24,37,6,6,0.6,0.8
2024-12-11T1200,1296A,115.7423,28.7996,南昌市,武术学校,细颗粒物(PM2.5),63,,34,45,34,41,,32,32,17,27,2,2,0.6,0.8
2024-12-11T1200,1298A,115.9314,28.6842,南昌市,省站,细颗粒物(PM2.5),57,57,59,40,36,47,,40,40,23,35,8,8,0.6,0.7
2024-12-11T1200,3046A,115.9084,28.6062,南昌市,机电学校,细颗粒物(PM2.5),55,42,44,39,36,45,,36,36,20,32,7,8,0.7,0.9
2024-12-11T1200,3690A,115.9721,28.7031,南昌市,外国语学校,,46,44,42,32,33,42,,36,36,22,32,5,5,0.5,0.8
2024-12-11T1200,1905A,106.056,30.8064,南充市,西山风景区,细颗粒物(PM2.5),54,,42,38,35,20,,34,19,15,10,1,2,0.4,0.4
2024-12-11T1200,1906A,106.0789,30.8023,南充市,南充市委,细颗粒物(PM2.5),73,64,58,53,44,16,,7,5,26,22,7,4,0.6,0.5
2024-12-11T1200,1907A,106.1031,30.8217,南充市,南充炼油厂,细颗粒物(PM2.5),65,64,59,47,46,13,,9,5,22,23,5,3,0.6,0.5
2024-12-11T1200,1908A,106.1064,30.7856,南充市,高坪区监测站,细颗粒物(PM2.5),65,64,61,47,47,24,,8,6,19,23,15,3,0.5,0.5
2024-12-11T1200,1909A,106.0642,30.7636,南充市,嘉陵区环保局,细颗粒物(PM2.5),73,82,63,53,42,23,,7,7,29,30,22,5,0.8,0.7
2024-12-11T1200,1910A,106.1087,30.8388,南充市,市环境监测站,细颗粒物(PM2.5),69,57,62,50,46,19,,12,9,18,16,7,4,0.5,0.4
2024-12-11T1200,1151A,118.8086,32.1065,南京市,迈皋桥,细颗粒物(PM2.5),64,66,42,46,29,46,,59,48,23,24,5,4,0.7,0.5
2024-12-11T1200,1152A,118.7538,32.0551,南京市,草场门,,49,46,35,34,26,42,,58,44,34,34,6,4,0.7,0.7
2024-12-11T1200,1153A,118.7794,32.0745,南京市,山西路,细颗粒物(PM2.5),64,66,44,46,32,61,,80,67,46,39,4,4,0.8,0.5
2024-12-11T1200,1154A,118.7752,32.0023,南京市,中华门,细颗粒物(PM2.5),55,56,35,39,26,34,,56,45,38,36,4,4,0.9,0.6
2024-12-11T1200,1155A,118.8109,32.0309,南京市,瑞金路,细颗粒物(PM2.5),67,68,44,48,28,39,,60,48,27,22,7,5,1.0,0.7
2024-12-11T1200,1156A,118.7997,32.0754,南京市,玄武湖,细颗粒物(PM2.5),63,66,47,45,29,31,,52,40,18,18,9,7,0.8,0.5
2024-12-11T1200,1157A,118.6414,32.0931,南京市,浦口,细颗粒物(PM2.5),58,53,52,41,34,49,,56,46,18,23,7,6,0.4,0.5
2024-12-11T1200,1158A,118.7356,31.9996,南京市,奥体中心,细颗粒物(PM2.5),55,58,41,39,29,37,,64,47,38,40,8,8,0.6,0.5
2024-12-11T1200,1159A,118.9125,32.1028,南京市,仙林大学城,细颗粒物(PM2.5),70,63,41,51,30,43,,57,48,32,31,9,6,0.7,0.6
2024-12-11T1200,3422A,118.8436,31.9198,南京市,江宁彩虹桥,细颗粒物(PM2.5),58,52,45,41,28,58,,65,58,22,26,7,5,0.6,0.5
2024-12-11T1200,3423A,119.0138,31.6494,南京市,溧水永阳,细颗粒物(PM2.5),52,,36,36,35,55,,63,55,24,27,4,4,0.4,0.5
2024-12-11T1200,3424A,118.879,31.3302,南京市,高淳老职中,细颗粒物(PM2.5),53,,42,37,39,58,,65,59,19,28,2,4,0.2,0.4
2024-12-11T1200,3427A,118.8554,32.3578,南京市,六合雄州,,49,48,41,34,25,42,,47,39,17,14,8,7,0.5,0.3
2024-12-11T1200,1401A,108.3103,22.7881,南宁市,二十一中,,,,114,,79,,,28,18,,44,102,10,0.9,1.3
2024-12-11T1200,1402A,108.3141,22.8528,南宁市,北湖,,18,18,96,10,71,19,,25,16,19,39,7,10,0.8,1.1
2024-12-11T1200,1403A,108.3206,22.8225,南宁市,市监测站,,,25,100,17,71,,,22,13,21,44,10,11,1.0,1.3
2024-12-11T1200,1404A,108.3829,22.8037,南宁市,大自然花园,,22,,91,15,71,18,,28,18,15,34,6,7,0.6,0.9
2024-12-11T1200,1405A,108.4394,22.7904,南宁市,仙葫,,8,7,93,3,79,13,,21,16,16,32,4,5,0.8,1.1
2024-12-11T1200,1406A,108.2397,22.8467,南宁市,区农职院,,8,8,91,3,59,21,,13,13,8,38,5,7,0.8,1.2
2024-12-11T1200,1407A,108.3275,22.735,南宁市,英华嘉园,,15,15,108,6,78,13,,20,15,19,41,6,9,0.8,1.1
2024-12-11T1200,1408A,108.2257,22.7757,南宁市,沙井镇街道办,,15,12,97,10,69,20,,16,16,19,47,6,7,0.7,1
2024-12-11T1200,3401A,108.4834,22.7618,南宁市,红星社区,,11,,90,7,67,35,,25,24,8,24,7,10,0.9,1.2
2024-12-11T1200,2331A,118.0966,26.6761,南平市,茫荡山,,,,,,,,,,,,,,,,
2024-12-11T1200,2332A,118.1681,26.6369,南平市,南平市监测站,,49,38,38,34,34,32,,14,14,17,24,4,5,0.6,0.6
2024-12-11T1200,2333A,118.1825,26.6489,南平市,南平铝业有限公司,,43,38,38,30,32,30,,11,11,16,24,4,5,0.5,0.5
2024-12-11T1200,2334A,118.1756,26.6272,南平市,南平七中,,42,36,37,29,28,30,,9,9,15,22,8,5,0.7,0.7
2024-12-11T1200,1168A,120.9098,31.9663,南通市,狼山街道,细颗粒物(PM2.5),83,77,35,61,29,46,,76,65,25,19,9,7,0.6,0.5
2024-12-11T1200,1169A,120.86,32.0005,南通市,虹桥,细颗粒物(PM2.5),88,77,37,65,32,42,,73,60,29,23,7,5,0.7,0.6
2024-12-11T1200,1170A,120.87,32.02,南通市,城中,细颗粒物(PM2.5),89,87,42,66,31,46,,75,64,28,25,8,6,1.0,0.8
2024-12-11T1200,1171A,120.94,31.93,南通市,星湖花园,,,,33,,22,45,,71,64,29,24,8,5,0.6,0.5
2024-12-11T1200,1172A,120.81,32.0417,南通市,紫琅学院,细颗粒物(PM2.5),80,75,35,59,28,42,,67,57,30,29,5,3,0.8,0.6
2024-12-11T1200,3291A,121.067,32.062,南通市,通州监测站,细颗粒物(PM2.5),85,80,38,63,30,48,,81,66,22,17,4,2,0.7,0.5
2024-12-11T1200,3432A,120.9348,31.9883,南通市,环境教育馆,细颗粒物(PM2.5),82,73,37,60,30,44,,77,66,33,29,6,4,0.8,0.6
2024-12-11T1200,2404A,112.5224,33.0122,南阳市,瓦房庄,细颗粒物(PM2.5),130,120,90,99,75,25,,22,15,47,35,12,9,1.1,0.8
2024-12-11T1200,2405A,112.5003,32.9735,南阳市,汉画馆,细颗粒物(PM2.5),115,130,92,87,64,26,,16,11,47,33,10,7,0.9,0.7
2024-12-11T1200,2406A,112.5573,33.027,南阳市,气象站,细颗粒物(PM2.5),119,119,91,90,70,36,,24,20,40,33,10,7,0.8,0.6
2024-12-11T1200,2407A,112.5481,32.9689,南阳市,理工学院,细颗粒物(PM2.5),129,120,87,98,71,18,,21,11,57,36,10,7,0.7,0.5
2024-12-11T1200,4008A,112.5234,32.9922,南阳市,卧龙区政府,细颗粒物(PM2.5),130,129,94,99,72,24,,20,14,48,37,9,6,0.8,0.6
2024-12-11T1200,1234A,121.8358,29.911,宁波市,区环保大楼,,20,6,51,3,33,62,,43,43,27,60,8,10,0.6,0.9
2024-12-11T1200,1235A,121.56,29.82,宁波市,万里学院,,16,8,45,3,29,51,,55,55,28,51,4,5,0.6,0.7
2024-12-11T1200,1236A,121.713,29.9572,宁波市,龙赛医院,,,,49,9,36,,,63,63,31,58,8,9,0.6,0.8
2024-12-11T1200,1239A,121.633,29.7733,宁波市,钱湖水厂,,17,6,52,3,32,52,,55,55,28,48,5,6,0.7,0.8
2024-12-11T1200,1240A,121.5856,29.8635,宁波市,太古小学,,17,,45,8,25,49,,56,56,33,53,7,8,0.7,0.8
2024-12-11T1200,1241A,121.524,29.8674,宁波市,市环境监测中心,,16,12,38,3,24,51,,54,54,28,53,6,7,0.8,0.9
2024-12-11T1200,2871A,121.6147,29.9017,宁波市,万里国际学校,,20,16,51,3,23,47,,52,52,39,55,6,7,0.5,0.6
2024-12-11T1200,3710A,121.5594,29.8975,宁波市,白沙活动中心,,16,14,42,3,20,51,,59,59,27,46,7,8,0.5,0.6
2024-12-11T1200,2339A,119.5001,26.6946,宁德市,金涵水库,,,,,,,,,,,,,,,,
2024-12-11T1200,2341A,119.5388,26.6612,宁德市,宁德市监测站,,33,32,38,23,28,38,,14,14,22,16,2,2,0.4,0.5
2024-12-11T1200,3209A,119.5231,26.6562,宁德市,宁德一中,,38,35,33,26,26,41,,22,22,22,21,3,2,0.6,0.7
2024-12-11T1200,2618A,98.8601,25.8567,怒江傈僳族自治州,州监测站,,44,44,40,25,24,48,,35,35,20,17,5,6,0.6,0.5
2024-12-11T1200,2619A,98.8546,25.8417,怒江傈僳族自治州,泸水一中,,40,32,36,28,24,41,,25,23,15,22,6,7,0.5,0.5
2024-12-11T1200,1888A,101.6891,26.571,攀枝花市,弄弄坪,,,,64,,36,38,,17,16,,42,27,28,1.1,2
2024-12-11T1200,1889A,101.5769,26.5928,攀枝花市,河门口,细颗粒物(PM2.5),68,77,52,49,27,48,,25,25,44,35,39,17,3.1,1.2
2024-12-11T1200,1890A,101.7169,26.585,攀枝花市,炳草岗,颗粒物(PM10),56,62,55,25,29,38,,13,13,38,44,22,18,0.9,0.9
2024-12-11T1200,1891A,101.7369,26.5008,攀枝花市,仁和,,42,42,37,28,23,69,,42,42,24,20,10,7,0.6,0.4
2024-12-11T1200,2835A,101.7227,26.567,攀枝花市,四十中小,,41,41,53,24,26,60,,36,32,21,27,13,9,0.6,0.9
2024-12-11T1200,1604A,122.0303,41.1489,盘锦市,开发区,,,24,25,13,22,58,,49,49,,12,,7,0.1,0.9
2024-12-11T1200,1605A,122.0485,41.0883,盘锦市,兴隆台,,19,10,23,8,10,58,,49,49,8,13,9,9,0.4,0.5
2024-12-11T1200,1606A,121.8297,41.1028,盘锦市,新生街道,,22,22,21,12,15,62,,46,46,10,22,8,9,0.5,0.5
2024-12-11T1200,1832A,113.3257,33.742,平顶山市,新华旅馆,细颗粒物(PM2.5),110,152,132,83,80,44,,19,19,36,41,16,11,1.2,0.9
2024-12-11T1200,1833A,113.2919,33.737,平顶山市,规划设计院,细颗粒物(PM2.5),139,145,128,106,86,48,,20,19,33,37,14,8,1.1,0.8
2024-12-11T1200,1834A,113.182,33.774,平顶山市,平顶山工学院,细颗粒物(PM2.5),170,205,154,129,88,22,,8,8,43,40,14,10,1.2,0.9
2024-12-11T1200,3204A,113.3025,33.73,平顶山市,规划局,细颗粒物(PM2.5),143,146,120,109,87,40,,24,17,36,34,18,10,1.5,1
2024-12-11T1200,3594A,112.8867,33.9116,平顶山市,石龙区,细颗粒物(PM2.5),145,157,153,111,107,36,,14,14,32,42,20,15,0.9,0.8
2024-12-11T1200,2656A,106.6692,35.5461,平凉市,聚贤嘉苑,,38,38,66,15,54,58,,60,51,24,21,13,13,0.8,0.6
2024-12-11T1200,2657A,106.7021,35.5307,平凉市,博物馆,细颗粒物(PM2.5),55,54,66,39,53,73,,67,60,23,27,14,12,0.6,0.7
2024-12-11T1200,2347A,114.0997,27.5002,萍乡市,武功山,,22,22,54,14,35,21,,16,16,22,31,8,10,0.4,0.5
2024-12-11T1200,2348A,113.8385,27.6434,萍乡市,中医院,细颗粒物(PM2.5),79,80,60,58,41,15,,11,11,31,34,10,9,1.1,1.1
2024-12-11T1200,2349A,113.8493,27.6253,萍乡市,市政府车库,细颗粒物(PM2.5),90,76,55,67,50,19,,11,11,25,33,9,13,0.9,1
2024-12-11T1200,2350A,113.8676,27.6435,萍乡市,市环保局,细颗粒物(PM2.5),78,71,55,57,41,17,,11,11,25,29,11,10,1.0,1
2024-12-11T1200,2351A,113.866,27.6198,萍乡市,安源区政府,细颗粒物(PM2.5),78,68,52,57,42,19,,11,11,21,32,8,11,0.7,0.9
2024-12-11T1200,2319A,119.0141,25.4325,莆田市,荔城区仓后路,,37,37,28,17,11,77,,39,39,15,15,1,1,0.6,0.6
2024-12-11T1200,2320A,119.0015,25.4553,莆田市,莆田市监测站,,31,31,24,12,10,86,,50,50,11,11,3,3,0.5,0.4
2024-12-11T1200,2321A,119.1119,25.4561,莆田市,涵江区六中,,41,41,32,28,14,74,,35,35,18,18,3,2,0.6,0.5
2024-12-11T1200,2322A,119.1013,25.3215,莆田市,秀屿区政府,,40,40,32,24,17,80,,41,41,14,19,3,2,0.6,0.5
2024-12-11T1200,2323A,118.981,25.4792,莆田市,东圳水库,,,,,,,,,,,,,,,,
2024-12-11T1200,2392A,115.0312,35.7636,濮阳市,环保局,细颗粒物(PM2.5),103,94,119,77,101,35,,16,16,56,64,10,7,1.2,0.9
2024-12-11T1200,2394A,115.0574,35.7609,濮阳市,油田运输公司,细颗粒物(PM2.5),112,110,134,84,101,30,,11,11,59,67,11,7,1.1,0.9
2024-12-11T1200,2395A,115.0866,35.7754,濮阳市,油田物探公司,细颗粒物(PM2.5),103,112,148,77,112,31,,9,9,54,62,12,7,1.0,0.9
2024-12-11T1200,3021A,115,35.7668,濮阳市,濮水河管理处,细颗粒物(PM2.5),102,,166,76,109,29,,9,9,,62,12,7,1.0,0.9
2024-12-11T1200,2601A,100.98,22.7633,普洱市,市环保局,颗粒物(PM10),51,51,41,27,24,79,,33,33,11,11,5,5,0.4,0.4
2024-12-11T1200,2602A,100.9817,22.8322,普洱市,普洱第二中学,,46,46,39,17,20,74,,22,22,13,18,8,7,0.5,0.6
2024-12-11T1200,2262A,131.0518,45.8751,七台河市,新一中,细颗粒物(PM2.5),67,,36,48,30,66,,63,62,13,15,13,12,1.3,1.4
2024-12-11T1200,3345A,131.0577,45.7879,七台河市,中波台,,44,44,41,29,31,50,,44,42,16,22,15,12,0.7,0.7
2024-12-11T1200,3637A,131.0176,45.7761,七台河市,人民广场,,,,45,38,39,49,,42,36,29,27,12,9,0.6,0.6
2024-12-11T1200,3684A,130.8781,45.8222,七台河市,新建矿广场,,29,,33,20,35,52,,44,40,15,20,12,9,0.5,0.5
2024-12-11T1200,1779A,123.9305,47.3636,齐齐哈尔市,安居小区,,,12,18,7,10,63,,53,53,7,10,,3,0.3,0.3
2024-12-11T1200,1780A,123.9488,47.3386,齐齐哈尔市,中心广场,,,12,15,8,9,,,51,49,8,9,4,4,0.8,0.6
2024-12-11T1200,1781A,123.9483,47.3227,齐齐哈尔市,农牧车辆厂,,19,17,16,3,6,59,,50,50,8,10,5,6,0.4,0.4
2024-12-11T1200,1783A,123.945,47.2988,齐齐哈尔市,市环境监测站,,20,15,18,10,11,61,,50,50,7,11,4,4,0.3,0.3
2024-12-11T1200,3662A,123.6333,47.2075,齐齐哈尔市,富区青少年活动中心,,18,14,20,7,9,55,,45,45,10,15,8,11,0.5,0.5
2024-12-11T1200,2591A,107.9783,26.5747,黔东南苗族侗族自治州,市环境监测站,,,12,10,11,9,,,36,33,15,14,,2,0.9,0.9
2024-12-11T1200,2881A,107.8908,26.5311,黔东南苗族侗族自治州,凯里学院,,,5,3,,6,39,,30,30,8,11,3,3,0.7,0.8
2024-12-11T1200,2593A,107.5228,26.2403,黔南布依族苗族自治州,小围寨,,10,9,2,7,1,30,,36,34,6,6,5,4,0.6,0.6
2024-12-11T1200,3538A,107.5175,26.2978,黔南布依族苗族自治州,沙坝,,14,14,5,3,3,29,,39,37,6,7,4,4,0.6,0.5
2024-12-11T1200,2589A,104.9022,25.0925,黔西南布依族苗族自治州,场坝街,,17,17,22,3,14,30,,28,28,12,11,5,3,0.4,0.4
2024-12-11T1200,2590A,104.8811,25.0992,黔西南布依族苗族自治州,坪东大道,,14,14,20,3,12,30,,26,26,11,10,5,4,0.5,0.5
2024-12-11T1200,2502A,108.6236,21.9667,钦州市,市环保站,,24,24,111,7,62,31,,25,25,14,40,6,8,1.2,1.1
2024-12-11T1200,2503A,108.6549,21.9481,钦州市,沙埠小学,,31,31,94,8,61,33,,30,27,17,39,5,11,0.7,0.9
2024-12-11T1200,2504A,108.5989,21.7431,钦州市,港区一小,,,,72,14,34,24,,53,26,,25,8,8,,0.9
2024-12-11T1200,3404A,108.5959,21.9633,钦州市,北职校,,15,15,92,6,72,32,,26,26,13,35,7,12,0.9,1.1
2024-12-11T1200,1042A,119.5134,39.8207,秦皇岛市,北戴河环保局,,19,15,27,8,14,58,,51,51,6,17,3,3,0.4,0.3
2024-12-11T1200,1043A,119.7493,40.0116,秦皇岛市,第一关,,38,36,42,26,28,44,,19,17,21,42,6,8,0.3,0.4
2024-12-11T1200,1044A,119.5897,39.9499,秦皇岛市,监测站,,27,27,45,18,28,37,,34,25,26,35,7,8,0.4,0.5
2024-12-11T1200,1046A,119.5251,39.9041,秦皇岛市,建设大厦,,26,26,48,11,28,36,,38,34,23,34,4,6,0.3,0.5
2024-12-11T1200,3132A,119.610547,39.943889,秦皇岛市,文明里,颗粒物(PM10),51,51,52,18,28,40,,33,30,26,36,7,9,0.3,0.3
2024-12-11T1200,1307A,120.6659,36.2403,青岛市,仰口,,38,38,61,23,50,67,,57,57,3,17,7,10,0.4,0.7
2024-12-11T1200,1310A,120.4134,36.0658,青岛市,市南区东部子站,,44,44,100,22,57,61,,39,39,19,55,10,14,0.6,0.9
2024-12-11T1200,1311A,120.3664,36.1032,青岛市,四方区子站,,41,41,100,24,71,58,,28,28,23,61,12,17,0.7,1
2024-12-11T1200,1312A,120.2994,36.054,青岛市,市南区西部子站,,48,48,82,22,52,47,,44,44,31,43,15,14,0.8,1
2024-12-11T1200,1313A,120.4581,36.0858,青岛市,崂山区子站,,31,31,83,12,54,65,,46,46,13,50,12,14,0.5,0.9
2024-12-11T1200,1314A,120.1983,35.9608,青岛市,黄岛区子站,,44,44,94,24,63,47,,20,20,30,66,11,14,0.6,0.9
2024-12-11T1200,1315A,120.3999,36.3083,青岛市,城阳区子站,,34,34,99,20,56,66,,42,42,6,41,8,16,0.6,1
2024-12-11T1200,1966A,120.0405,35.8735,青岛市,黄岛区4号,,44,44,90,17,59,60,,35,35,20,54,10,13,0.6,0.9
2024-12-11T1200,3362A,120.5014,36.4034,青岛市,即墨2号,,36,36,91,18,64,61,,40,40,17,50,9,13,0.6,1
2024-12-11T1200,3642A,120.3503,36.0736,青岛市,市北区南部,,,57,111,24,59,50,,27,27,21,57,,13,,1
2024-12-11T1200,3643A,120.3948,36.1805,青岛市,李沧区北部,,44,44,113,27,77,61,,30,30,22,63,12,17,0.7,1.1
2024-12-11T1200,1702A,113.0426,23.691,清远市,环保大楼,颗粒物(PM10),59,68,59,41,41,54,,35,35,9,25,4,8,1.0,1.1
2024-12-11T1200,1703A,113.0208,23.7106,清远市,凤城街办,细颗粒物(PM2.5),58,55,54,41,39,47,,27,27,12,33,8,11,1.0,1.1
2024-12-11T1200,3025A,113.0477,23.6344,清远市,技师学院,细颗粒物(PM2.5),64,60,63,46,25,61,,27,27,12,38,8,13,0.9,1
2024-12-11T1200,3318A,112.9903,23.7403,清远市,清新太和,,50,50,55,35,34,45,,29,29,10,30,3,6,0.9,1
2024-12-11T1200,3455A,113.076,23.7198,清远市,清城东城,细颗粒物(PM2.5),54,49,44,38,33,58,,36,36,7,19,6,8,1.1,1.1
2024-12-11T1200,2661A,107.6325,35.7357,庆阳市,庆阳五中,细颗粒物(PM2.5),97,84,61,72,55,34,,27,27,30,22,23,7,0.9,0.8
2024-12-11T1200,2662A,107.6364,35.7067,庆阳市,市环保局,细颗粒物(PM2.5),93,91,66,69,49,32,,27,24,35,24,26,6,1.1,0.9
2024-12-11T1200,1916A,103.7897,25.5035,曲靖市,环境监测站,,41,41,35,21,15,15,,22,12,18,14,8,7,0.9,0.6
2024-12-11T1200,1917A,103.8,25.5364,曲靖市,烟厂办公区,,43,43,30,26,16,21,,25,17,17,12,3,4,0.7,0.5
2024-12-11T1200,3376A,103.7947,25.462,曲靖市,南苑二区,,50,50,30,19,14,21,,31,18,14,9,6,5,0.9,0.7
2024-12-11T1200,3377A,103.7444,25.5261,曲靖市,曲靖师范学院,细颗粒物(PM2.5),52,46,29,36,19,21,,29,20,16,12,6,7,1.3,0.7
2024-12-11T1200,1264A,118.8692,28.9398,衢州市,环保大楼,,,12,49,3,38,,,1,1,28,41,,4,0.8,0.7
2024-12-11T1200,1265A,118.8709,28.9666,衢州市,实验学校,,12,6,44,3,34,27,,10,10,23,35,10,10,0.5,0.5
2024-12-11T1200,1266A,118.8621,28.9808,衢州市,衢州学院,,12,6,48,3,35,30,,12,12,24,38,4,4,0.5,0.5
2024-12-11T1200,1611A,118.5819,24.9117,泉州市,涂山街,,37,37,37,19,20,90,,36,36,15,21,1,2,0.5,0.6
2024-12-11T1200,1612A,118.5972,24.8978,泉州市,津头埔,,38,38,37,20,18,83,,36,36,18,25,3,3,0.5,0.6
2024-12-11T1200,1613A,118.6663,24.9424,泉州市,万安,,39,39,35,16,16,86,,40,40,16,25,2,2,0.5,0.5
2024-12-11T1200,1614A,118.6117,24.9604,泉州市,清源山,,,,,,,,,,,,,,,,
2024-12-11T1200,3529A,118.6333,24.9264,泉州市,城华南路,,30,30,30,11,17,84,,44,44,18,23,2,2,0.4,0.4
2024-12-11T1200,2626A,88.8876,29.2718,日喀则市,日喀则监测站,,46,46,45,22,26,55,,26,26,18,34,4,6,0.6,0.9
2024-12-11T1200,3726A,88.8781,29.2426,日喀则市,林业技术推广中心,,46,46,36,22,17,51,,36,36,14,16,7,8,0.6,0.7
2024-12-11T1200,1659A,119.471,35.4209,日照市,监测站,,,36,82,21,57,,,28,28,18,48,8,11,0.5,0.7
2024-12-11T1200,1660A,119.523,35.4216,日照市,市政府广场,,36,36,82,21,57,61,,34,34,12,43,6,10,0.6,0.9
2024-12-11T1200,1661A,119.5587,35.4044,日照市,港务局,,39,39,78,21,57,63,,42,42,15,38,10,14,0.4,0.7
2024-12-11T1200,3507A,119.5328,35.4625,日照市,职业技术学院,,39,39,78,14,53,60,,38,38,17,44,7,10,0.5,0.7
2024-12-11T1200,3604A,119.3266,35.1044,日照市,岚山环保分局,颗粒物(PM10),56,61,90,30,54,54,,32,32,20,47,17,22,1.9,1.2
2024-12-11T1200,1835A,111.1922,34.7752,三门峡市,市政府,细颗粒物(PM2.5),137,,72,104,76,30,,8,8,40,42,,6,,0.9
2024-12-11T1200,1836A,111.1587,34.7942,三门峡市,开发区,细颗粒物(PM2.5),173,165,102,131,80,28,,7,7,34,34,30,6,1.2,0.7
2024-12-11T1200,1838A,111.143,34.7955,三门峡市,风景区,细颗粒物(PM2.5),145,137,74,111,66,31,,6,6,35,38,31,13,1.2,0.7
2024-12-11T1200,3039A,111.1911,34.7829,三门峡市,三门峡市第一小学,细颗粒物(PM2.5),133,118,76,101,77,33,,10,10,37,41,20,8,1.0,0.8
2024-12-11T1200,3598A,111.1,34.7167,三门峡市,富达温泉假日酒店,细颗粒物(PM2.5),149,140,108,114,86,28,,8,8,47,46,21,9,1.1,0.9
2024-12-11T1200,2324A,117.6211,26.2625,三明市,三钢,,49,45,34,34,29,21,,10,10,24,22,10,8,1.7,0.9
2024-12-11T1200,2325A,117.635,26.2714,三明市,三明二中,,45,45,32,27,24,20,,11,10,26,23,6,7,0.9,0.8
2024-12-11T1200,2326A,117.6028,26.2378,三明市,三元区政府,,45,45,35,30,22,26,,11,10,20,20,5,6,0.8,1
