timepoint,stationcode,longitude,latitude,area,positionname,primarypollutant,aqi,pm10,pm10_24h,pm2_5,pm2_5_24h,o3,o3_24h,o3_8h,o3_8h_24h,no2,no2_24h,so2,so2_24h,co,co_24h
2025-03-25T0900,2566A,102.1879,31.914,阿坝藏族羌族自治州,州农科所,,34,34,26,16,9,39,,47,45,20,13,9,9,0.5,0.2
2025-03-25T0900,2568A,102.2502,31.8896,阿坝藏族羌族自治州,马师校,,19,18,21,13,12,43,,38,38,19,18,4,4,0.5,0.4
2025-03-25T0900,3994A,102.2165,31.9024,阿坝藏族羌族自治州,马尔康中学西区,,20,18,16,14,11,47,,51,50,18,10,6,5,0.4,0.3
2025-03-25T0900,2695A,80.292,41.1694,阿克苏地区,电视台,颗粒物(PM10),90,130,173,53,64,51,,51,51,41,40,4,6,0.9,0.8
2025-03-25T0900,2696A,80.2613,41.1551,阿克苏地区,艺术中心,颗粒物(PM10),100,149,184,53,66,25,,48,48,45,41,4,4,1.2,1.1
2025-03-25T0900,2204A,105.6467,38.8363,阿拉善盟,西城区西花园,颗粒物(PM10),115,179,574,51,143,92,,104,102,12,7,10,11,0.8,0.8
2025-03-25T0900,2205A,105.6985,38.8411,阿拉善盟,蒙二幼,颗粒物(PM10),132,213,632,62,157,87,,93,91,10,7,7,6,0.7,0.5
2025-03-25T0900,2206A,105.724,38.8516,阿拉善盟,环保局新楼,颗粒物(PM10),137,224,589,60,156,99,,105,104,9,4,10,9,0.4,0.6
2025-03-25T0900,2708A,88.1264,47.8517,阿勒泰地区,市站,,30,30,12,3,7,69,,79,78,2,6,2,3,0.5,0.5
2025-03-25T0900,2630A,80.1161,32.5,阿里地区,阿里监测站,,18,7,10,3,7,57,,59,56,10,9,8,8,0.5,0.5
2025-03-25T0900,3192A,80.0903,32.5028,阿里地区,阿里藏医院,,18,16,11,8,6,57,,68,64,17,5,8,8,0.6,0.5
2025-03-25T0900,2642A,109.0318,32.6537,安康市,香溪洞,,31,31,45,19,24,73,,97,91,8,9,8,9,0.5,0.6
2025-03-25T0900,2644A,109.0072,32.6975,安康市,汉滨区检察院,,50,50,57,23,27,45,,43,42,20,21,29,14,0.5,0.4
2025-03-25T0900,4054A,109.0325,32.6913,安康市,市邮政管理局,颗粒物(PM10),53,56,58,33,29,38,,46,44,21,19,34,18,0.3,0.1
2025-03-25T0900,2291A,117.0809,30.5177,安庆市,环科院,颗粒物(PM10),60,70,67,41,38,80,,94,94,46,31,11,11,0.5,0.6
2025-03-25T0900,2292A,117.0331,30.5119,安庆市,马山宾馆,颗粒物(PM10),62,73,66,41,39,71,,75,73,46,35,7,7,0.4,0.7
2025-03-25T0900,2294A,116.9896,30.6145,安庆市,安庆大学,颗粒物(PM10),64,77,70,38,36,106,,108,105,34,23,10,8,0.4,0.4
2025-03-25T0900,3173A,117.0598,30.5351,安庆市,市人大,颗粒物(PM10),62,74,67,37,35,85,,96,94,38,21,15,12,0.6,0.7
2025-03-25T0900,3122A,105.9606,26.2611,安顺市,伍家关,细颗粒物(PM2.5),74,76,63,54,47,34,,60,54,43,20,39,24,1.4,0.7
2025-03-25T0900,3123A,105.9408,26.2431,安顺市,凤凰山,细颗粒物(PM2.5),112,98,75,84,56,33,,42,36,59,32,50,28,1.4,0.8
2025-03-25T0900,3124A,105.9439,26.2564,安顺市,金钟山,细颗粒物(PM2.5),102,80,59,76,52,54,,79,72,42,17,47,25,1.3,0.7
2025-03-25T0900,3125A,105.8983,26.2481,安顺市,娄家坡,细颗粒物(PM2.5),85,78,66,63,50,68,,84,79,40,18,22,17,1.1,0.7
2025-03-25T0900,1818A,114.4839,36.0621,安阳市,棉研所,,,,,,,,,,,,,,,,
2025-03-25T0900,1819A,114.3551,36.1017,安阳市,红庙街,颗粒物(PM10),240,378,475,84,117,36,,51,50,25,13,,4,0.3,0.3
2025-03-25T0900,1820A,114.361,36.0681,安阳市,银杏小区,颗粒物(PM10),202,351,439,111,128,,,55,55,28,20,5,4,0.7,0.4
2025-03-25T0900,3141A,114.3922,36.0878,安阳市,信访局,颗粒物(PM10),190,329,450,93,125,45,,70,67,27,17,7,6,0.6,0.4
2025-03-25T0900,3669A,114.4705,36.0637,安阳市,左辅环卫站,颗粒物(PM10),198,345,440,94,124,56,,64,62,23,15,8,7,0.5,0.4
2025-03-25T0900,3703A,114.2917,36.0949,安阳市,安钢职工学校,颗粒物(PM10),182,314,464,81,125,36,,54,52,35,21,13,5,1.0,0.5
2025-03-25T0900,1748A,123.044,41.1196,鞍山市,深沟寺,颗粒物(PM10),80,110,71,45,25,61,,60,60,32,24,17,12,1.1,0.6
2025-03-25T0900,1749A,123.011,41.0931,鞍山市,太阳城,颗粒物(PM10),75,100,66,48,27,72,,64,62,28,20,11,9,1.0,0.8
2025-03-25T0900,1750A,123.0485,41.1442,鞍山市,太平,颗粒物(PM10),90,129,95,42,28,59,,49,49,35,30,16,16,1.2,1
2025-03-25T0900,1751A,122.9642,41.0971,鞍山市,铁西三道街,颗粒物(PM10),76,102,81,41,27,53,,50,48,47,33,12,14,1.2,1.1
2025-03-25T0900,1753A,123.022,41.0821,鞍山市,明达新区,颗粒物(PM10),71,91,66,43,30,71,,64,63,25,19,12,9,0.8,0.5
2025-03-25T0900,1754A,123.1289,41.0228,鞍山市,千山,,,,91,,14,,,73,,,13,,4,,0.6
2025-03-25T0900,4201A,122.9446,41.0826,鞍山市,兴盛南路290号,颗粒物(PM10),87,124,85,52,29,46,,44,44,61,39,17,15,1.1,0.7
2025-03-25T0900,2195A,107.4212,40.761,巴彦淖尔市,附二中,颗粒物(PM10),75,99,649,15,105,70,,79,77,8,6,9,7,0.5,0.5
2025-03-25T0900,2196A,107.37,40.7372,巴彦淖尔市,市环保大楼,颗粒物(PM10),73,96,562,26,109,71,,84,81,13,6,5,5,0.3,0.2
2025-03-25T0900,1956A,86.1472,41.7538,巴音郭楞蒙古自治州,孔雀公园,,,,278,,65,,,31,,,33,,9,,0.5
2025-03-25T0900,1957A,86.1972,41.7166,巴音郭楞蒙古自治州,棉纺厂,颗粒物(PM10),120,190,288,26,46,56,,81,81,40,27,4,5,0.4,0.4
2025-03-25T0900,1958A,86.2357,41.7173,巴音郭楞蒙古自治州,经济开发区,颗粒物(PM10),122,194,246,14,39,95,,96,96,4,17,6,7,0.2,0.3
2025-03-25T0900,2914A,106.7677,31.8794,巴中市,苏山坪,颗粒物(PM10),51,52,45,29,25,94,,121,117,10,10,6,5,0.3,0.3
2025-03-25T0900,3181A,106.7768,31.8526,巴中市,市五中,颗粒物(PM10),56,62,53,35,29,17,,31,29,43,27,6,5,0.9,0.5
2025-03-25T0900,3183A,106.7418,31.8654,巴中市,圣泉水务公司,,38,38,46,20,26,54,,50,50,21,29,7,8,0.4,0.4
2025-03-25T0900,3616A,106.7616,31.8344,巴中市,市中心医院,细颗粒物(PM2.5),54,47,49,38,39,19,,9,9,31,37,8,8,0.8,0.6
2025-03-25T0900,2235A,122.7911,45.6077,白城市,洮北区环保局,细颗粒物(PM2.5),175,191,62,132,45,56,,68,68,32,17,7,5,1.0,0.6
2025-03-25T0900,2236A,122.8738,45.5725,白城市,市环保局,细颗粒物(PM2.5),102,112,58,76,39,70,,70,70,19,17,5,3,0.8,0.6
2025-03-25T0900,2231A,126.4219,41.9171,白山市,喜丰,,,139,114,68,56,,,76,75,44,27,16,12,1.4,1.3
2025-03-25T0900,2232A,126.4077,41.9419,白山市,环保局,颗粒物(PM10),81,111,93,55,53,48,,60,57,51,28,14,11,1.5,1.3
2025-03-25T0900,2647A,104.1724,36.5446,白银市,第三小学,细颗粒物(PM2.5),283,,395,233,103,14,,64,56,61,22,10,26,0.9,0.2
2025-03-25T0900,2648A,104.1465,36.5482,白银市,动力公司,颗粒物(PM10),500,876,414,248,114,21,,64,55,45,22,6,11,1.2,0.4
2025-03-25T0900,2512A,106.6103,23.9011,百色市,市监测站,细颗粒物(PM2.5),95,94,103,71,66,49,,53,53,26,29,10,17,1.2,1.1
2025-03-25T0900,2513A,106.6538,23.8859,百色市,市中心血站,细颗粒物(PM2.5),125,130,119,95,82,22,,25,24,50,36,10,19,1.2,1.1
2025-03-25T0900,3406A,106.6085,23.8798,百色市,祈福高中,细颗粒物(PM2.5),98,102,124,73,69,24,,33,33,38,40,6,14,1.2,1.1
2025-03-25T0900,2270A,117.396,32.939,蚌埠市,工人疗养院,颗粒物(PM10),74,98,213,35,58,121,,106,106,24,26,7,6,0.7,0.7
2025-03-25T0900,2271A,117.3605,32.9427,蚌埠市,百货大楼,颗粒物(PM10),73,96,221,33,60,112,,98,98,28,26,7,7,0.4,0.4
2025-03-25T0900,2273A,117.4185,32.8911,蚌埠市,蚌埠学院,颗粒物(PM10),82,114,234,33,60,121,,82,82,21,22,9,6,0.6,0.6
2025-03-25T0900,2274A,117.3533,32.9673,蚌埠市,淮上区政府,颗粒物(PM10),76,102,223,41,63,119,,102,102,20,24,7,7,0.4,0.5
2025-03-25T0900,2275A,117.3145,32.8977,蚌埠市,高新区,颗粒物(PM10),79,107,230,41,67,105,,79,79,21,25,7,7,0.6,0.5
2025-03-25T0900,3715A,117.3092,32.9314,蚌埠市,蚌埠田家炳中学,,,,238,,69,,,72,72,30,31,,12,0.5,0.4
2025-03-25T0900,1585A,109.8756,40.6532,包头市,市环境监测站,颗粒物(PM10),66,81,391,22,73,69,,82,78,16,14,10,14,0.5,0.5
2025-03-25T0900,1587A,109.9991,40.5842,包头市,包头八中,颗粒物(PM10),71,91,379,26,85,66,,82,77,16,15,12,11,0.5,0.4
2025-03-25T0900,1588A,109.8538,40.6821,包头市,青山宾馆,颗粒物(PM10),64,78,382,23,87,66,,76,72,15,13,10,12,0.5,0.5
2025-03-25T0900,1589A,109.8642,40.6288,包头市,惠龙物流,,,88,381,47,85,,,86,84,,15,7,12,0.5,0.6
2025-03-25T0900,1590A,110.0377,40.5546,包头市,东河鸿龙湾,颗粒物(PM10),63,76,255,14,61,66,,80,76,16,14,11,11,0.6,0.6
2025-03-25T0900,3283A,109.9154,40.5685,包头市,滨河大厦,,,,371,,77,66,,82,77,,16,10,11,1.2,1
2025-03-25T0900,3419A,109.9447,40.6261,包头市,包头市委党校,颗粒物(PM10),63,76,389,12,71,61,,77,73,18,14,7,9,0.7,0.7
2025-03-25T0900,3683A,109.8331,40.6576,包头市,昆区政府,颗粒物(PM10),65,80,362,16,78,64,,80,76,19,17,9,14,0.5,0.7
2025-03-25T0900,1930A,107.185,34.3063,宝鸡市,庙沟村,,35,30,35,19,18,110,,103,103,8,9,6,6,0.3,0.2
2025-03-25T0900,1931A,107.0708,34.3017,宝鸡市,竹园沟,,33,33,38,20,20,75,,73,72,18,12,6,6,0.4,0.3
2025-03-25T0900,1932A,107.1906,34.3672,宝鸡市,三陆医院,颗粒物(PM10),62,74,64,24,31,67,,17,17,39,43,6,6,0.5,0.5
2025-03-25T0900,1933A,107.1431,34.3547,宝鸡市,监测站,,43,43,60,21,25,87,,51,51,18,31,7,7,0.6,0.6
2025-03-25T0900,1934A,107.1186,34.3739,宝鸡市,技工学校,,42,42,51,24,22,98,,47,47,12,26,9,5,0.5,0.5
2025-03-25T0900,1935A,107.3906,34.3528,宝鸡市,陈仓区环保局家属楼,颗粒物(PM10),57,64,62,24,28,70,,37,37,21,25,7,14,0.7,0.6
2025-03-25T0900,1936A,107.2058,34.3497,宝鸡市,文理学院,,,,57,21,24,67,,36,36,32,30,6,6,0.6,0.5
2025-03-25T0900,1937A,107.2386,34.3622,宝鸡市,三迪小学,颗粒物(PM10),58,65,64,33,33,47,,14,14,49,40,10,7,0.8,0.5
2025-03-25T0900,1051A,115.493,38.8632,保定市,游泳馆,细颗粒物(PM2.5),94,76,104,70,20,94,,60,60,8,19,4,7,0.1,0
2025-03-25T0900,1052A,115.5213,38.8959,保定市,华电二区,颗粒物(PM10),62,73,78,19,20,84,,60,60,14,13,3,3,0.2,0.3
2025-03-25T0900,1053A,115.4713,38.9108,保定市,接待中心,颗粒物(PM10),56,62,87,18,24,96,,64,64,8,16,2,3,0.2,0.3
2025-03-25T0900,1054A,115.4612,38.8416,保定市,地表水厂,颗粒物(PM10),72,93,108,13,18,97,,58,58,10,21,4,5,0.2,0.3
2025-03-25T0900,3581A,115.31981,38.95208,保定市,满城区生态环境分局,,44,44,91,12,18,102,,63,63,1,15,3,4,0.2,0.2
2025-03-25T0900,3582A,115.47694,38.76408,保定市,清苑区第二中学,颗粒物(PM10),111,172,118,22,21,82,,44,44,18,21,11,11,0.3,0.3
2025-03-25T0900,3583A,115.62909,39.02311,保定市,徐水物探局,颗粒物(PM10),72,93,103,27,26,99,,59,59,5,17,13,14,0.1,0.1
2025-03-25T0900,4004A,115.4202,38.8656,保定市,双鹰农机,颗粒物(PM10),66,81,92,18,21,98,,55,55,5,15,2,4,0.2,0.2
2025-03-25T0900,4034A,115.5150,38.8590,保定市,植保所站,颗粒物(PM10),68,86,95,22,29,81,,53,53,8,15,2,4,0.3,0.4
2025-03-25T0900,2594A,99.1678,25.1081,保山市,市环境监测站,细颗粒物(PM2.5),52,38,37,36,29,28,,55,50,27,12,5,5,0.8,0.5
2025-03-25T0900,2595A,99.1711,25.1328,保山市,市环保局,,42,35,39,29,29,43,,71,66,16,8,4,4,0.6,0.5
2025-03-25T0900,1866A,109.2262,21.588,北海市,牛尾岭水库,,,,29,25,24,46,,44,42,,,5,9,0.6,0.6
2025-03-25T0900,1867A,109.1436,21.4086,北海市,海滩公园,,30,30,33,20,18,85,,82,81,10,13,6,6,0.5,0.5
2025-03-25T0900,1868A,109.0981,21.4661,北海市,新市环保局,,28,28,35,19,24,78,,82,81,15,15,3,6,0.5,0.5
2025-03-25T0900,1869A,109.1778,21.5233,北海市,北海工业园,,42,42,43,27,28,58,,77,74,24,16,7,14,0.3,0.3
2025-03-25T0900,3400A,109.1911,21.4415,北海市,龙潭自来水厂,,34,34,34,19,20,80,,70,69,9,13,6,7,0.5,0.4
2025-03-25T0900,1001A,116.3621,39.8784,北京市,万寿西宫,颗粒物(PM10),63,76,67,9,11,87,,68,68,5,14,2,3,0.2,0.2
2025-03-25T0900,1002A,116.2202,40.2915,北京市,定陵,,,,,,,,,,,,,,,,
2025-03-25T0900,1003A,116.4174,39.9289,北京市,东四,颗粒物(PM10),84,117,71,9,13,81,,60,60,5,15,5,6,0.2,0.3
2025-03-25T0900,1004A,116.4072,39.8863,北京市,天坛,颗粒物(PM10),75,99,67,10,13,83,,62,62,5,15,3,2,0.4,0.5
2025-03-25T0900,1005A,116.462,39.9365,北京市,农展馆,颗粒物(PM10),90,129,71,11,15,75,,59,59,2,11,5,7,0.3,0.4
2025-03-25T0900,1006A,116.3392,39.9295,北京市,官园,颗粒物(PM10),88,125,72,8,12,77,,62,62,4,12,6,7,0.4,0.4
2025-03-25T0900,1007A,116.2878,39.9611,北京市,海淀万柳,颗粒物(PM10),63,76,67,7,12,64,,55,55,8,14,3,4,0.5,0.5
2025-03-25T0900,1008A,116.6636,40.135,北京市,顺义新城,颗粒物(PM10),92,134,67,9,9,78,,69,69,2,11,4,6,0.2,0.2
2025-03-25T0900,1009A,116.6275,40.3275,北京市,怀柔镇,颗粒物(PM10),57,63,56,3,9,73,,67,67,2,9,2,3,0.4,0.5
2025-03-25T0900,1010A,116.2296,40.217,北京市,昌平镇,颗粒物(PM10),86,122,79,17,12,79,,67,67,3,12,1,2,0.4,0.5
2025-03-25T0900,1011A,116.3966,39.9821,北京市,奥体中心,颗粒物(PM10),96,141,73,12,12,73,,57,57,6,16,3,4,0.4,0.4
2025-03-25T0900,3281A,115.9718,40.4529,北京市,延庆夏都,,41,41,67,13,15,76,,72,72,3,8,5,5,0.4,0.4
2025-03-25T0900,3418A,116.8336,40.4095,北京市,密云新城,颗粒物(PM10),58,66,53,3,9,75,,64,64,1,9,3,4,0.3,0.3
2025-03-25T0900,3671A,116.088,39.9726,北京市,门头沟三家店,颗粒物(PM10),151,251,190,52,25,68,,56,56,11,20,3,4,0.2,0.3
2025-03-25T0900,3672A,116.1541,39.8204,北京市,丰台云岗,颗粒物(PM10),53,56,70,3,12,95,,73,73,1,11,5,5,0.4,0.5
2025-03-25T0900,3673A,116.6804,39.9081,北京市,通州东关,颗粒物(PM10),134,218,86,14,12,75,,67,67,8,15,3,5,0.3,0.3
2025-03-25T0900,3674A,115.9577,39.7603,北京市,房山燕山,,41,41,72,3,17,85,,60,60,1,14,4,4,0.2,0.3
2025-03-25T0900,3675A,116.4672,39.7733,北京市,大兴旧宫,颗粒物(PM10),69,88,70,7,14,77,,51,51,3,14,1,2,0.2,0.2
2025-03-25T0900,3694A,115.986,40.4563,北京市,延庆石河营,,36,36,61,3,12,76,,70,70,3,9,4,4,0.3,0.3
2025-03-25T0900,3695A,116.6151,40.3053,北京市,怀柔新城,颗粒物(PM10),53,56,56,3,10,76,,69,69,2,6,4,5,0.4,0.4
2025-03-25T0900,3696A,116.2545,39.8768,北京市,丰台小屯,颗粒物(PM10),61,71,72,11,16,76,,57,57,2,14,1,2,0.2,0.2
2025-03-25T0900,3697A,116.84,40.3844,北京市,密云镇,,45,45,51,3,8,77,,65,65,2,6,4,5,0.2,0.3
2025-03-25T0900,4182A,116.1942,39.9158,北京市,八角北路9号,颗粒物(PM10),61,71,77,10,13,86,,63,63,1,15,3,2,0.2,0.3
2025-03-25T0900,4194A,117.0790,40.1518,北京市,洳河巡河路,颗粒物(PM10),53,56,45,6,9,77,,72,72,4,10,1,3,0.4,0.4
2025-03-25T0900,1761A,123.8275,41.3064,本溪市,大峪,颗粒物(PM10),59,68,84,29,41,102,,61,61,6,23,9,10,0.5,0.7
2025-03-25T0900,1762A,123.7567,41.3325,本溪市,溪湖,颗粒物(PM10),69,88,93,27,35,98,,64,64,21,33,10,10,0.9,1.1
2025-03-25T0900,1763A,123.7169,41.3094,本溪市,彩屯,颗粒物(PM10),75,100,92,36,37,84,,75,75,36,27,21,11,2.2,1
2025-03-25T0900,1764A,123.7669,41.2864,本溪市,东明,颗粒物(PM10),96,141,103,32,37,99,,64,64,17,31,10,11,0.8,0.9
2025-03-25T0900,1765A,123.7992,41.2664,本溪市,新立屯,颗粒物(PM10),76,102,80,32,32,103,,92,92,18,26,8,7,0.7,0.7
2025-03-25T0900,1766A,123.8142,41.3472,本溪市,威宁,颗粒物(PM10),76,101,112,29,42,101,,54,54,9,26,7,7,0.6,0.8
2025-03-25T0900,2587A,105.2864,27.3125,毕节市,八中,细颗粒物(PM2.5),68,78,58,49,39,42,,39,38,17,16,12,11,0.8,0.7
2025-03-25T0900,2588A,105.31,27.2944,毕节市,师专,细颗粒物(PM2.5),78,81,66,57,47,20,,23,23,35,28,11,8,1.0,0.8
2025-03-25T0900,4263A,105.3688,27.3598,毕节市,工业大道,细颗粒物(PM2.5),78,91,70,57,43,25,,26,25,36,25,11,11,1.0,0.8
2025-03-25T0900,1629A,118.0018,37.3617,滨州市,第二水厂,颗粒物(PM10),98,146,154,29,22,51,,49,48,25,20,14,27,1.7,1.5
2025-03-25T0900,1630A,117.9776,37.393,滨州市,北中新校,颗粒物(PM10),89,127,136,34,23,53,,56,53,24,18,17,29,0.5,0.3
2025-03-25T0900,3514A,117.9378,37.3956,滨州市,中海酒店,颗粒物(PM10),82,114,122,41,26,55,,59,57,25,16,16,26,0.5,0.4
2025-03-25T0900,3515A,117.9378,37.3553,滨州市,开发区一中,颗粒物(PM10),104,158,175,51,34,49,,52,50,34,22,45,19,0.7,0.3
2025-03-25T0900,3516A,118.0917,37.694,滨州市,金海六路,颗粒物(PM10),75,100,122,19,13,57,,54,52,24,16,11,9,0.7,0.6
2025-03-25T0900,4028A,117.9956,37.3753,滨州市,滨州市西街道办事处,颗粒物(PM10),95,139,145,34,27,56,,56,54,23,17,13,27,0.3,0.2
2025-03-25T0900,2311A,115.8072,33.8399,亳州市,污水处理厂,颗粒物(PM10),86,122,263,31,64,109,,107,107,15,14,4,7,0.3,0.4
2025-03-25T0900,2312A,115.7789,33.8518,亳州市,三国揽胜宫,颗粒物(PM10),61,72,261,31,69,104,,101,101,8,9,6,8,0.3,0.3
2025-03-25T0900,3332A,115.7633,33.8034,亳州市,亳州学院,颗粒物(PM10),60,70,241,26,64,102,,96,96,10,11,6,10,0.4,0.4
2025-03-25T0900,2693A,82.0485,44.8556,博尔塔拉蒙古自治州,市党校,颗粒物(PM10),127,204,44,23,10,66,,93,90,86,14,4,4,0.0,0.1
2025-03-25T0900,2694A,82.0806,44.8969,博尔塔拉蒙古自治州,市环保局,颗粒物(PM10),157,264,58,17,11,85,,96,95,8,12,3,3,0.3,0.4
2025-03-25T0900,1071A,116.8842,38.2991,沧州市,沧县城建局,颗粒物(PM10),69,87,94,20,23,60,,54,53,26,16,6,6,0.5,0.4
2025-03-25T0900,1072A,116.8584,38.3254,沧州市,电视转播站,颗粒物(PM10),76,102,85,29,17,54,,52,50,31,18,9,8,0.5,0.4
2025-03-25T0900,1073A,116.8709,38.3228,沧州市,市环保局,颗粒物(PM10),71,91,77,29,23,57,,51,50,26,17,10,10,0.4,0.3
2025-03-25T0900,3324A,116.8136,38.3004,沧州市,河北水利电力学院,颗粒物(PM10),84,117,118,36,22,41,,50,47,39,19,10,9,0.4,0.2
2025-03-25T0900,2622A,97.1806,31.1273,昌都市,昌都监测站,,23,20,16,16,10,48,,63,60,17,8,6,6,1.0,0.9
2025-03-25T0900,3719A,97.1714,31.1406,昌都市,昌都会议中心,,20,19,15,10,8,63,,79,76,12,4,2,2,0.4,0.2
2025-03-25T0900,2690A,88.1236,43.8886,昌吉回族自治州,天山天池,,30,,5,3,4,93,,86,86,4,5,6,7,0.5,0.6
2025-03-25T0900,2692A,87.2717,44.0297,昌吉回族自治州,新区政务中心,,28,7,12,3,6,89,,92,92,2,6,7,9,0.5,0.5
2025-03-25T0900,3613A,87.3095,44.0142,昌吉回族自治州,亚心广场,,28,6,15,3,7,88,,93,93,4,6,6,7,0.3,0.4
2025-03-25T0900,1119A,125.3325,43.9166,长春市,食品厂,细颗粒物(PM2.5),149,173,106,114,76,84,,70,70,30,34,12,11,0.7,0.6
2025-03-25T0900,1120A,125.2863,43.9027,长春市,客车厂,细颗粒物(PM2.5),130,133,88,99,70,78,,69,69,36,40,10,8,0.8,0.6
2025-03-25T0900,1121A,125.2841,43.8463,长春市,邮电学院,细颗粒物(PM2.5),156,158,91,119,59,86,,77,77,29,21,11,10,,0.5
2025-03-25T0900,1122A,125.3716,43.8772,长春市,劳动公园,细颗粒物(PM2.5),130,120,93,99,62,82,,68,68,29,23,11,10,0.7,0.5
2025-03-25T0900,1123A,125.3297,43.8805,长春市,园林处,细颗粒物(PM2.5),118,128,86,89,59,86,,74,74,30,24,10,10,0.6,0.5
2025-03-25T0900,1124A,125.4605,43.79,长春市,净月潭,细颗粒物(PM2.5),153,165,107,117,62,87,,72,72,28,18,13,9,0.8,0.5
2025-03-25T0900,1125A,125.7194,43.515,长春市,甩湾子,,,,,,,,,,,,,,,,
2025-03-25T0900,1126A,125.3863,43.8447,长春市,经开区环卫处,细颗粒物(PM2.5),148,134,95,113,62,75,,58,58,34,34,11,8,0.8,0.6
2025-03-25T0900,1127A,125.245,43.7783,长春市,高新区管委会,细颗粒物(PM2.5),159,,91,121,62,80,,59,59,37,36,12,9,0.7,0.5
2025-03-25T0900,1128A,125.1761,43.8325,长春市,岱山公园,细颗粒物(PM2.5),129,131,91,98,60,70,,69,69,48,42,9,7,0.9,0.7
2025-03-25T0900,1335A,113.0833,28.2325,长沙市,经开区环保局,颗粒物(PM10),60,69,71,42,38,58,,61,60,37,35,6,7,0.7,0.6
2025-03-25T0900,1336A,112.8872,28.2189,长沙市,高开区环保局,颗粒物(PM10),66,81,72,46,37,50,,24,24,42,35,10,8,0.7,0.6
2025-03-25T0900,1337A,113.0792,28.2053,长沙市,马坡岭,"颗粒物(PM10),细颗粒物(PM2.5)",60,69,77,43,43,64,,45,45,20,34,6,8,0.5,0.5
2025-03-25T0900,1338A,112.9394,28.19,长沙市,湖南师范大学,细颗粒物(PM2.5),78,88,67,57,37,19,,37,31,61,22,8,8,1.0,0.8
2025-03-25T0900,1339A,113.0178,28.1322,长沙市,雨花区环保局,颗粒物(PM10),64,77,77,44,39,18,,6,6,59,52,14,10,0.8,0.7
2025-03-25T0900,1340A,112.9792,28.2597,长沙市,伍家岭,颗粒物(PM10),70,89,94,47,43,9,,2,2,44,50,4,5,0.7,0.8
2025-03-25T0900,1341A,113.0014,28.1944,长沙市,火车新站,颗粒物(PM10),67,84,91,46,53,32,,8,8,54,57,11,9,0.8,0.9
2025-03-25T0900,1342A,112.9844,28.1178,长沙市,天心区环保局,细颗粒物(PM2.5),70,85,71,51,44,34,,32,29,65,44,12,7,1.2,1
2025-03-25T0900,1343A,112.8908,28.1308,长沙市,湖南中医药大学,颗粒物(PM10),76,102,90,29,44,19,,4,4,54,47,7,5,1.1,0.8
2025-03-25T0900,1344A,112.9581,28.3611,长沙市,沙坪,细颗粒物(PM2.5),57,54,51,40,41,68,,60,60,17,19,10,8,0.9,0.8
2025-03-25T0900,1727A,113.1147,36.1547,长治市,清华站,颗粒物(PM10),155,259,295,92,89,69,,70,69,24,15,13,7,0.4,0.4
2025-03-25T0900,1730A,113.0886,36.2125,长治市,审计局,颗粒物(PM10),180,310,298,100,96,74,,77,77,28,19,15,9,0.3,0.3
2025-03-25T0900,1731A,113.0844,36.1856,长治市,长治八中,颗粒物(PM10),223,366,342,110,118,64,,78,76,32,17,16,10,0.6,0.6
2025-03-25T0900,2845A,113.1569,36.1911,长治市,德盛苑,颗粒物(PM10),229,370,306,92,96,92,,94,94,16,12,9,8,0.4,0.4
2025-03-25T0900,3568A,113.06,36.0464,长治市,向阳小学,颗粒物(PM10),133,216,289,72,98,45,,70,68,37,21,18,15,0.7,0.6
2025-03-25T0900,3569A,112.8792,36.3144,长治市,屯留一中,颗粒物(PM10),170,289,226,89,81,52,,30,28,44,29,10,15,0.7,0.6
2025-03-25T0900,4189A,113.1131,36.19948,长治市,英华南巷50号,颗粒物(PM10),239,377,322,102,99,79,,73,73,22,20,16,12,0.7,0.6
2025-03-25T0900,4190A,113.2367,36.3344,长治市,学府街1号,颗粒物(PM10),198,345,377,125,114,71,,65,64,26,14,27,11,1.2,0.8
2025-03-25T0900,1854A,111.6975,28.9703,常德市,市二中,细颗粒物(PM2.5),62,67,56,44,38,68,,73,70,14,14,7,7,0.5,0.5
2025-03-25T0900,1857A,111.7158,29.1456,常德市,白鹤山,,,,,,,,,,,,,,,,
2025-03-25T0900,3138A,111.7153,29.0289,常德市,武陵区永安,,,66,61,40,34,59,,62,60,24,16,7,5,,0.5
2025-03-25T0900,3139A,111.6892,28.9881,常德市,鼎城区玉霞,"颗粒物(PM10),细颗粒物(PM2.5)",54,58,59,38,33,66,,52,52,15,15,7,5,0.5,0.5
2025-03-25T0900,3140A,111.6625,29.0531,常德市,武陵区长庚,颗粒物(PM10),55,59,60,33,33,78,,62,62,14,12,6,5,0.5,0.5
2025-03-25T0900,1196A,119.9633,31.762,常州市,市监测站,颗粒物(PM10),64,78,100,34,44,90,,18,18,36,54,2,4,0.7,0.8
2025-03-25T0900,1200A,119.9468,31.7069,常州市,武进监测站,颗粒物(PM10),78,105,86,41,40,67,,34,34,60,53,17,18,0.9,0.7
2025-03-25T0900,1201A,119.9255,31.9087,常州市,安家,颗粒物(PM10),76,101,106,39,48,66,,14,14,66,69,35,17,0.9,0.7
2025-03-25T0900,3002A,119.9805,31.8174,常州市,行政中心,颗粒物(PM10),58,66,70,29,35,100,,62,62,32,29,18,19,0.5,0.5
2025-03-25T0900,3003A,120.0522,31.7748,常州市,经开区,颗粒物(PM10),89,127,95,49,38,61,,36,36,69,44,18,15,0.8,0.6
2025-03-25T0900,3010A,119.9025,31.7964,常州市,钟楼,颗粒物(PM10),69,87,95,38,41,87,,54,54,44,37,13,13,1.1,0.9
2025-03-25T0900,3429A,119.8598,31.7066,常州市,武进经发区,颗粒物(PM10),86,121,109,50,41,75,,55,55,56,43,14,14,0.9,0.9
2025-03-25T0900,3430A,119.5826,31.7245,常州市,金坛城区,颗粒物(PM10),88,126,102,54,42,66,,45,45,37,31,13,11,1.0,0.7
2025-03-25T0900,2220A,120.4318,41.5881,朝阳市,西梁,颗粒物(PM10),70,89,45,38,21,86,,85,85,11,10,11,13,0.6,0.5
2025-03-25T0900,2221A,120.4521,41.5646,朝阳市,河畔小区,颗粒物(PM10),74,97,40,13,9,89,,91,91,14,7,10,11,0.8,0.5
2025-03-25T0900,2222A,120.4176,41.5648,朝阳市,八里堡,颗粒物(PM10),75,99,52,14,12,81,,80,80,13,8,11,11,0.7,0.5
2025-03-25T0900,2223A,120.3806,41.5969,朝阳市,农业园区,颗粒物(PM10),67,84,51,18,14,89,,90,90,11,9,10,11,0.7,0.5
2025-03-25T0900,1705A,116.6367,23.6719,潮州市,西园路,细颗粒物(PM2.5),82,83,90,60,68,76,,63,63,29,30,6,7,0.8,0.6
2025-03-25T0900,3026A,116.6183,23.6608,潮州市,市政府,细颗粒物(PM2.5),112,119,93,84,67,52,,50,49,53,37,20,14,1.2,0.9
2025-03-25T0900,4036A,116.6461,23.6761,潮州市,金山,细颗粒物(PM2.5),70,58,77,51,61,70,,60,59,23,27,8,10,0.7,0.7
2025-03-25T0900,2472A,113.0073,25.9061,郴州市,马头岭,颗粒物(PM10),63,76,71,33,40,58,,55,55,34,20,15,14,0.8,0.7
2025-03-25T0900,2473A,113.0116,25.8226,郴州市,市职中,细颗粒物(PM2.5),93,92,80,69,56,20,,16,16,49,32,19,10,1.0,0.7
2025-03-25T0900,2475A,113.0383,25.8071,郴州市,市审计局,细颗粒物(PM2.5),84,82,71,62,56,47,,22,22,37,33,10,8,1.0,0.7
2025-03-25T0900,2476A,113.0348,25.7759,郴州市,市环保局,细颗粒物(PM2.5),92,86,83,68,56,39,,37,37,43,32,11,11,0.9,0.7
2025-03-25T0900,4252A,113.0138,25.8011,郴州市,好美居路49号,细颗粒物(PM2.5),92,89,85,68,57,36,,14,14,46,39,11,11,1.1,0.8
2025-03-25T0900,1431A,103.9728,30.7236,成都市,金泉两河,颗粒物(PM10),72,94,67,21,34,7,,2,2,57,48,4,3,1.4,1
2025-03-25T0900,1432A,104.176,30.6872,成都市,十里店,颗粒物(PM10),71,92,62,48,30,11,,9,7,77,61,6,4,1.1,0.6
2025-03-25T0900,1433A,104.079,30.5706,成都市,三瓦窑,颗粒物(PM10),76,102,65,52,34,10,,5,5,77,65,7,5,1.3,1
2025-03-25T0900,1434A,104.1114,30.63,成都市,沙河铺,颗粒物(PM10),54,57,56,29,32,8,,4,4,64,43,5,5,1.1,0.8
2025-03-25T0900,1437A,104.0786,30.6531,成都市,君平街,细颗粒物(PM2.5),58,64,61,41,35,14,,9,9,77,57,8,7,1.5,1
2025-03-25T0900,1438A,103.613,31.0283,成都市,灵岩寺,,,,,,,,,,,,,,,,
2025-03-25T0900,2880A,104.0239,30.65639,成都市,大石西路,颗粒物(PM10),60,70,71,39,38,7,,3,3,71,55,6,5,1.6,1.2
2025-03-25T0900,3136A,104.2725,30.5589,成都市,龙泉驿区区政府,颗粒物(PM10),63,75,39,34,20,59,,91,87,36,18,5,5,1.0,0.6
2025-03-25T0900,3357A,104.0106,30.6931,成都市,金博路,颗粒物(PM10),67,83,68,38,33,10,,3,3,64,57,8,7,1.1,0.9
2025-03-25T0900,3359A,104.0578,30.5225,成都市,华阳,细颗粒物(PM2.5),92,117,67,68,43,11,,5,5,72,53,6,6,1.2,1
2025-03-25T0900,3488A,104.3853,30.7453,成都市,青白江技师分院,颗粒物(PM10),55,59,46,25,22,24,,31,31,61,41,9,6,0.9,0.5
2025-03-25T0900,3489A,104.0789,30.4072,成都市,科学城,细颗粒物(PM2.5),69,80,48,50,29,28,,15,15,40,34,5,5,1.0,0.6
2025-03-25T0900,4011A,103.8506,30.6947,成都市,光华大道三段,颗粒物(PM10),54,58,68,13,33,23,,23,23,59,51,6,5,1.1,0.9
2025-03-25T0900,4224A,104.2433,30.5353,成都市,鲸龙路1057号,颗粒物(PM10),64,77,49,43,27,38,,33,33,56,38,5,4,1.0,0.7
2025-03-25T0900,1062A,117.9531,40.9081,承德市,铁路,,46,46,55,3,8,80,,80,78,4,11,6,8,0.2,0.3
2025-03-25T0900,1063A,117.9392,40.9763,承德市,中国银行,,,49,56,7,8,,,82,80,2,6,3,5,0.2,0.3
2025-03-25T0900,1064A,117.9503,40.928,承德市,开发区,颗粒物(PM10),52,54,57,18,16,74,,85,82,15,10,8,9,0.2,0.3
2025-03-25T0900,1065A,117.8051,40.9655,承德市,文化中心,,28,28,59,7,10,80,,80,78,5,9,3,6,0.2,0.3
2025-03-25T0900,1066A,117.9268,41.0026,承德市,离宫,,50,50,48,16,15,66,,53,51,4,7,22,20,0.2,0.3
2025-03-25T0900,2314A,117.47,30.6618,池州市,池州学院,颗粒物(PM10),61,72,63,37,37,100,,91,91,20,17,12,15,0.6,0.7
2025-03-25T0900,3237A,117.4918,30.6617,池州市,展览馆,颗粒物(PM10),59,68,60,36,34,100,,81,81,18,15,7,7,0.6,0.6
2025-03-25T0900,3333A,117.5627,30.695,池州市,第八中学,颗粒物(PM10),58,66,61,33,31,102,,92,91,14,11,6,7,0.5,0.4
2025-03-25T0900,3334A,117.5038,30.6243,池州市,第十二中学,颗粒物(PM10),61,72,60,33,30,90,,91,89,25,15,8,7,1.0,0.7
2025-03-25T0900,1744A,118.9233,42.2816,赤峰市,松山一中,,39,39,42,11,10,78,,79,79,15,17,8,11,0.5,0.5
2025-03-25T0900,1745A,118.9576,42.2728,赤峰市,哈达街,颗粒物(PM10),54,57,48,8,12,60,,69,68,14,14,11,14,0.7,0.7
2025-03-25T0900,1746A,118.8788,42.2554,赤峰市,天义路,,50,50,42,15,14,71,,71,71,12,14,6,10,0.3,0.4
2025-03-25T0900,3058A,119.2658,42.0353,赤峰市,银河街,颗粒物(PM10),93,136,71,17,22,73,,70,70,12,17,12,16,0.5,0.6
2025-03-25T0900,3286A,118.9359,42.3147,赤峰市,桥北物流园区,颗粒物(PM10),63,76,32,17,16,76,,77,77,7,16,6,12,0.6,0.7
2025-03-25T0900,2521A,107.3476,22.4136,崇左市,市环保局江州分局,细颗粒物(PM2.5),112,92,108,84,70,48,,83,75,22,18,18,14,0.9,0.8
2025-03-25T0900,4256A,107.3750,22.3736,崇左市,石景林东路7号,细颗粒物(PM2.5),84,73,87,62,71,53,,84,78,23,21,18,13,0.7,0.7
2025-03-25T0900,2298A,118.3093,32.3153,滁州市,老年大学,颗粒物(PM10),63,75,141,37,48,142,,127,127,18,18,9,7,0.6,0.6
2025-03-25T0900,2299A,118.3244,32.2786,滁州市,人大宾馆,颗粒物(PM10),66,82,156,39,54,122,,115,115,26,24,13,10,0.6,0.5
2025-03-25T0900,3207A,118.3118,32.3038,滁州市,市政府原办公楼,颗粒物(PM10),60,70,141,37,50,138,,125,125,12,14,10,6,0.4,0.4
2025-03-25T0900,3331A,118.3267,32.2634,滁州市,图书馆,颗粒物(PM10),62,73,141,36,52,124,,114,114,18,19,12,9,0.5,0.5
2025-03-25T0900,2605A,101.5482,25.0441,楚雄彝族自治州,州环境监测站,,42,34,32,29,25,31,,44,44,32,23,10,10,0.7,0.5
2025-03-25T0900,2606A,101.538,25.0492,楚雄彝族自治州,市经济开发区,,43,36,33,30,25,29,,45,43,33,23,9,9,0.8,0.6
2025-03-25T0900,2548A,107.5277,31.2827,达州市,达州职业技术学院,颗粒物(PM10),66,81,79,38,39,35,,16,16,26,38,13,8,0.4,0.4
2025-03-25T0900,2549A,107.5086,31.2186,达州市,市环境监测站,颗粒物(PM10),69,88,79,39,37,23,,32,31,53,47,13,8,0.8,0.8
2025-03-25T0900,2550A,107.4988,31.2132,达州市,凤凰小区,颗粒物(PM10),65,80,80,39,42,36,,41,41,44,46,16,11,0.7,0.8
2025-03-25T0900,2551A,107.5082,31.1986,达州市,达县机关宾馆,颗粒物(PM10),64,78,86,28,39,43,,25,25,39,54,12,7,0.8,0.9
2025-03-25T0900,2552A,107.4644,31.2124,达州市,市政中心,颗粒物(PM10),66,82,87,39,40,24,,22,22,49,57,7,11,0.8,1
2025-03-25T0900,2614A,100.1542,25.7054,大理白族自治州,大理市环境监测站,,28,28,27,19,24,68,,81,78,15,13,8,7,0.6,0.6
2025-03-25T0900,2615A,100.2171,25.5811,大理白族自治州,大理古城,,,23,30,16,25,71,,75,74,,12,7,7,0.6,0.5
2025-03-25T0900,1109A,121.612,38.9741,大连市,甘井子,颗粒物(PM10),103,155,130,64,19,82,,81,81,29,23,8,6,0.9,0.7
2025-03-25T0900,1110A,121.565,38.9511,大连市,周水子,颗粒物(PM10),94,138,108,44,18,79,,74,74,26,27,12,8,0.5,0.4
2025-03-25T0900,1111A,121.5637,38.8845,大连市,星海三站,,,124,99,39,17,,,74,74,14,12,10,8,0.8,0.7
2025-03-25T0900,1112A,121.6302,38.9117,大连市,青泥洼桥,颗粒物(PM10),101,152,113,37,17,86,,86,86,15,13,12,10,0.6,0.4
2025-03-25T0900,1113A,121.6251,38.8638,大连市,傅家庄,细颗粒物(PM2.5),113,125,98,85,16,86,,73,73,20,21,10,9,0.6,0.4
2025-03-25T0900,1114A,121.5213,38.8661,大连市,七贤岭,颗粒物(PM10),110,170,82,37,15,78,,73,73,16,13,9,7,0.5,0.5
2025-03-25T0900,1115A,121.2529,38.8061,大连市,旅顺,颗粒物(PM10),93,135,84,42,14,69,,72,69,23,17,9,7,0.6,0.4
2025-03-25T0900,1116A,121.7485,39.1311,大连市,金州,颗粒物(PM10),108,166,105,32,18,78,,85,85,28,18,9,9,1.0,0.9
2025-03-25T0900,1117A,121.7811,39.0496,大连市,开发区,颗粒物(PM10),81,112,86,34,13,72,,68,68,29,20,8,7,0.7,0.5
2025-03-25T0900,1118A,121.9762,39.0631,大连市,双D港,颗粒物(PM10),98,145,116,39,16,97,,75,75,24,22,8,6,0.8,0.7
2025-03-25T0900,1789A,124.81117,46.03138,大庆市,大同区,细颗粒物(PM2.5),217,211,93,167,67,27,,40,38,50,22,12,7,1.2,0.7
2025-03-25T0900,1790A,125.129,46.533,大庆市,龙凤区,细颗粒物(PM2.5),60,53,62,43,33,47,,50,49,18,24,7,7,0.5,0.5
2025-03-25T0900,1791A,124.902,46.408,大庆市,红岗区,细颗粒物(PM2.5),122,108,60,92,45,36,,48,45,32,20,12,10,0.7,0.5
2025-03-25T0900,1792A,125.153,46.586,大庆市,萨尔图区,细颗粒物(PM2.5),63,,47,45,29,52,,56,54,15,17,8,8,0.4,0.4
2025-03-25T0900,1793A,124.9042,46.6215,大庆市,让胡路区,细颗粒物(PM2.5),60,65,41,43,31,32,,44,42,32,24,10,8,0.4,0.4
2025-03-25T0900,3481A,125.141,46.634,大庆市,萨区政府监测点,颗粒物(PM10),58,66,39,27,18,52,,53,51,16,13,6,6,0.4,0.3
2025-03-25T0900,1721A,113.3819,40.1097,大同市,果树场,细颗粒物(PM2.5),57,,225,40,53,72,,79,77,9,12,9,10,0.7,0.6
2025-03-25T0900,1723A,113.2994,40.0758,大同市,云冈宾馆,,47,47,250,9,43,86,,95,93,7,11,8,10,0.4,0.4
2025-03-25T0900,1724A,113.3444,40.0917,大同市,大同大学,颗粒物(PM10),51,51,246,9,54,65,,91,86,14,7,18,16,0.7,0.4
2025-03-25T0900,1725A,113.2661,40.1269,大同市,安家小村,颗粒物(PM10),51,51,389,13,61,83,,85,85,2,8,8,11,0.2,0.3
2025-03-25T0900,1726A,113.2711,40.0844,大同市,教育学院,,,51,272,24,54,,,93,92,9,13,7,9,0.4,0.5
2025-03-25T0900,3282A,113.3397,40.0597,大同市,大同市卫生学校,,32,32,245,11,64,80,,90,87,8,13,6,9,0.3,0.4
2025-03-25T0900,3565A,113.1367,40.1122,大同市,云冈站,,34,34,271,3,60,82,,88,86,6,10,10,12,0.3,0.3
2025-03-25T0900,3566A,113.1186,40.2556,大同市,图书馆,颗粒物(PM10),56,62,248,25,54,76,,80,78,3,7,8,10,0.6,0.6
2025-03-25T0900,3567A,113.5931,40.0461,大同市,区一中,颗粒物(PM10),55,60,310,12,27,82,,88,85,6,11,16,16,0.4,0.4
2025-03-25T0900,4199A,113.2798,40.0997,大同市,魏都大道141号,,,58,263,12,55,78,,94,91,7,11,,14,0.4,0.5
2025-03-25T0900,2269A,124.1069,50.4097,大兴安岭地区,科技局,,19,11,19,7,14,58,,59,59,11,3,7,6,0.3,0.3
2025-03-25T0900,3663A,124.1164,50.4278,大兴安岭地区,红旗社区,,19,14,10,3,7,58,,39,39,10,8,6,5,0.5,0.4
2025-03-25T0900,1600A,124.3303,40.0625,丹东市,江湾东路,颗粒物(PM10),83,115,94,52,38,85,,80,80,17,20,9,10,0.8,0.7
2025-03-25T0900,1601A,124.4256,40.1503,丹东市,临江后街,颗粒物(PM10),84,117,79,41,35,82,,73,72,19,20,11,14,0.8,0.8
2025-03-25T0900,1602A,124.3933,40.1461,丹东市,元宝山,颗粒物(PM10),80,110,76,40,35,80,,79,77,24,19,12,10,0.9,0.7
2025-03-25T0900,1603A,124.3633,40.1092,丹东市,民主桥,颗粒物(PM10),82,114,92,48,33,75,,78,74,20,20,11,10,1.0,0.7
2025-03-25T0900,3541A,109.5726,19.5167,儋州市,第一中学子站,,45,45,40,26,22,48,,54,52,9,9,14,6,0.7,0.6
2025-03-25T0900,3542A,109.5567,19.5187,儋州市,东坡学校子站,,38,38,39,26,23,47,,54,52,8,8,6,6,0.7,0.7
2025-03-25T0900,2616A,98.5842,24.428,德宏傣族景颇族自治州,德宏州监测站,细颗粒物(PM2.5),55,52,56,39,40,10,,28,24,26,21,7,7,0.8,0.7
2025-03-25T0900,3677A,98.5881,24.4368,德宏傣族景颇族自治州,芒市人民政府综合楼,细颗粒物(PM2.5),57,49,62,40,41,13,,33,29,24,15,8,8,0.7,0.6
2025-03-25T0900,1901A,104.4239,31.1208,德阳市,东山公园,细颗粒物(PM2.5),69,76,60,50,37,60,,79,79,30,26,7,7,0.7,0.5
2025-03-25T0900,1902A,104.3826,31.1317,德阳市,西小区,,,96,80,52,48,,,7,7,64,59,6,6,,0.9
2025-03-25T0900,1904A,104.3553,31.1091,德阳市,耐火材料厂,颗粒物(PM10),85,120,83,55,52,32,,43,43,72,52,10,10,0.9,0.6
2025-03-25T0900,3639A,104.4019,31.1244,德阳市,市教育局,颗粒物(PM10),64,77,57,42,36,17,,7,7,74,57,7,6,1.1,0.7
2025-03-25T0900,1622A,116.3032,37.4674,德州市,儿童乐园,颗粒物(PM10),93,136,194,31,28,59,,53,53,36,20,16,11,0.8,0.6
2025-03-25T0900,1624A,116.2991,37.4451,德州市,监理站,,,112,191,24,28,66,,58,58,,16,30,25,0.7,0.6
2025-03-25T0900,3066A,116.2721,37.4379,德州市,九衢泉纯净水厂,颗粒物(PM10),85,119,175,24,27,61,,55,55,34,24,19,12,0.7,0.6
2025-03-25T0900,3371A,116.3728,37.4403,德州市,开发区人民医院,颗粒物(PM10),80,110,180,44,31,61,,55,55,33,22,11,9,0.5,0.4
2025-03-25T0900,3372A,116.3572,37.4094,德州市,太阳城中学,颗粒物(PM10),92,134,183,22,27,68,,58,58,32,22,12,10,0.6,0.4
2025-03-25T0900,3511A,116.5652,37.3319,德州市,陵城艺术中心,颗粒物(PM10),91,132,205,24,28,56,,58,58,27,23,11,12,0.6,0.5
2025-03-25T0900,2621A,99.7056,27.8317,迪庆藏族自治州,迪庆州站,,36,36,23,24,12,56,,60,58,15,11,8,8,0.5,0.4
2025-03-25T0900,3180A,99.7136,27.8094,迪庆藏族自治州,质量技术监督局,,45,40,19,31,12,39,,58,55,30,12,9,8,1.0,0.6
2025-03-25T0900,4257A,104.6092,35.5962,定西市,将台街,颗粒物(PM10),75,100,58,37,25,19,,13,13,35,32,18,12,0.8,0.7
2025-03-25T0900,4309A,104.6159,35.5701,定西市,正龙路62号,细颗粒物(PM2.5),70,74,66,51,30,39,,28,28,13,18,11,12,0.3,0.5
2025-03-25T0900,1389A,113.7547,23.0494,东莞市,莞城梨川,颗粒物(PM10),55,59,64,31,37,86,,70,68,25,37,8,8,0.5,0.6
2025-03-25T0900,1390A,113.7944,23.0128,东莞市,东城石井,颗粒物(PM10),56,62,60,36,30,62,,52,48,38,35,7,8,0.7,0.7
2025-03-25T0900,1391A,113.7383,22.9658,东莞市,南城西平,颗粒物(PM10),58,66,58,33,28,48,,48,41,59,44,8,9,0.8,0.8
2025-03-25T0900,3319A,113.7338,23.0381,东莞市,万江金泰,颗粒物(PM10),55,60,57,28,28,70,,74,70,38,35,8,8,0.8,0.7
2025-03-25T0900,3626A,113.7533,23.0202,东莞市,南城元岭,颗粒物(PM10),62,73,62,36,30,45,,46,43,52,42,7,8,0.7,0.7
2025-03-25T0900,3627A,113.7875,23.0457,东莞市,东城主山,颗粒物(PM10),58,65,71,32,31,79,,60,58,32,39,9,10,0.7,0.7
2025-03-25T0900,1666A,118.6614,37.4309,东营市,市环保局,颗粒物(PM10),90,129,137,19,12,59,,65,63,33,20,22,9,0.7,0.5
2025-03-25T0900,3036A,118.6904,37.4338,东营市,开发区管委会,颗粒物(PM10),101,151,157,29,20,54,,63,60,36,28,19,9,0.8,0.6
2025-03-25T0900,3365A,118.5719,37.565,东营市,垦利区民丰路,颗粒物(PM10),86,122,121,27,16,54,,64,61,27,14,18,9,0.8,0.6
2025-03-25T0900,3498A,118.5055,37.8612,东营市,河口城区,颗粒物(PM10),74,97,134,20,15,76,,74,73,25,15,9,7,0.7,0.7
2025-03-25T0900,3646A,118.4978,37.4623,东营市,胜利站,颗粒物(PM10),89,127,152,24,17,58,,63,61,32,23,16,11,0.9,0.7
2025-03-25T0900,3734A,118.35,37.26,东营市,理想之城,颗粒物(PM10),93,136,133,24,22,54,,54,54,31,23,17,9,0.6,0.4
2025-03-25T0900,1591A,110.0023,39.8129,鄂尔多斯市,综合楼,颗粒物(PM10),78,105,519,14,81,54,,85,80,36,14,11,9,0.6,0.4
2025-03-25T0900,1592A,109.9486,39.8261,鄂尔多斯市,巴音孟克林场办事处,颗粒物(PM10),63,75,477,19,87,58,,85,80,35,11,14,8,0.6,0.4
2025-03-25T0900,1593A,109.7736,39.5986,鄂尔多斯市,康泽苑,颗粒物(PM10),62,73,490,9,86,74,,88,85,15,8,5,4,0.3,0.3
2025-03-25T0900,1594A,109.8119,39.5989,鄂尔多斯市,华泰汽车城,颗粒物(PM10),60,70,481,14,91,78,,82,81,13,10,5,4,0.4,0.4
2025-03-25T0900,1595A,109.9734,39.7884,鄂尔多斯市,奥林花园,颗粒物(PM10),60,70,525,12,86,67,,85,81,24,12,6,7,0.4,0.3
2025-03-25T0900,2436A,114.8938,30.3994,鄂州市,市政府,细颗粒物(PM2.5),83,110,76,61,48,61,,25,25,36,38,20,12,1.3,1.2
2025-03-25T0900,2437A,114.8989,30.3714,鄂州市,赵家坝,细颗粒物(PM2.5),87,101,74,64,40,56,,73,68,44,19,17,9,1.6,1.1
2025-03-25T0900,3654A,114.8094,30.4089,鄂州市,精准医疗中心,细颗粒物(PM2.5),105,126,79,79,43,55,,45,42,80,37,20,7,2.0,0.9
2025-03-25T0900,2454A,109.4978,30.2981,恩施土家族苗族自治州,湖北民院,细颗粒物(PM2.5),52,46,55,36,37,27,,25,25,22,25,2,2,0.1,0.2
2025-03-25T0900,2455A,109.4707,30.2798,恩施土家族苗族自治州,州电力总公司,细颗粒物(PM2.5),52,41,58,36,35,22,,12,12,27,33,5,6,0.3,0.3
2025-03-25T0900,3549A,109.5061,30.3772,恩施土家族苗族自治州,龙凤新区,,32,32,50,20,30,42,,34,34,15,16,7,6,0.4,0.4
2025-03-25T0900,2499A,108.3411,21.6158,防城港市,沙万,颗粒物(PM10),54,58,55,21,33,56,,64,62,13,17,8,12,0.3,0.4
2025-03-25T0900,2500A,108.3514,21.7731,防城港市,防城档案局,颗粒物(PM10),53,56,64,31,42,42,,55,52,17,20,5,8,0.4,0.8
2025-03-25T0900,2501A,108.3506,21.6414,防城港市,大海花园,,29,28,53,20,34,60,,70,68,7,12,6,10,0.6,0.8
2025-03-25T0900,1371A,113.1294,23.0067,佛山市,湾梁,颗粒物(PM10),53,56,84,28,37,83,,64,63,28,42,9,10,0.8,0.9
2025-03-25T0900,1372A,113.1083,23.0478,佛山市,华材职中,颗粒物(PM10),52,53,80,30,43,87,,84,82,30,40,7,9,0.5,0.6
2025-03-25T0900,1373A,113.144,23.0453,佛山市,南海气象局,颗粒物(PM10),60,70,81,35,43,56,,52,48,45,44,8,9,0.7,0.7
2025-03-25T0900,1374A,113.2881,22.8094,佛山市,顺德苏岗,颗粒物(PM10),68,85,81,36,38,36,,25,24,46,38,9,10,0.9,0.8
2025-03-25T0900,1376A,112.8383,22.8678,佛山市,高明孔堂,颗粒物(PM10),54,58,66,35,39,92,,102,98,12,17,10,9,0.4,0.5
2025-03-25T0900,1377A,112.8836,23.1588,佛山市,三水监测站,颗粒物(PM10),81,112,106,58,61,38,,32,32,63,65,10,9,0.7,0.7
2025-03-25T0900,1378A,112.867,23.185,佛山市,三水云东海,细颗粒物(PM2.5),88,90,86,65,53,54,,58,58,60,55,19,10,0.6,0.6
2025-03-25T0900,3625A,113.2544,22.7642,佛山市,容桂街道办,颗粒物(PM10),57,63,68,34,38,52,,48,47,47,39,11,11,0.8,0.8
2025-03-25T0900,1280A,119.3903,26.0543,福州市,鼓山,,,,63,,31,,,159,,,11,,4,,0.5
2025-03-25T0900,1282A,119.2681,26.0504,福州市,师大,细颗粒物(PM2.5),94,93,81,70,54,88,,77,77,33,26,13,7,0.5,0.4
2025-03-25T0900,1283A,119.2984,26.1028,福州市,五四北路,细颗粒物(PM2.5),94,94,76,70,53,80,,64,64,41,37,7,6,0.7,0.6
2025-03-25T0900,1284A,119.2648,26.0768,福州市,杨桥西路,细颗粒物(PM2.5),95,91,84,71,54,80,,72,72,41,30,11,7,0.7,0.5
2025-03-25T0900,1285A,119.317,26.0746,福州市,紫阳,细颗粒物(PM2.5),97,109,89,72,56,59,,54,54,59,42,8,6,0.7,0.6
2025-03-25T0900,3048A,119.5799,26.0936,福州市,九龙,细颗粒物(PM2.5),107,113,80,80,53,63,,51,48,55,33,8,8,0.5,0.5
2025-03-25T0900,3526A,119.5189,25.9664,福州市,吴航,细颗粒物(PM2.5),78,86,68,57,41,107,,71,70,31,28,7,7,0.6,0.5
2025-03-25T0900,1755A,123.7977,41.8491,抚顺市,望花区,细颗粒物(PM2.5),135,150,134,103,66,52,,54,54,53,33,58,13,1.4,0.8
2025-03-25T0900,1756A,123.9161,41.8822,抚顺市,顺城区,细颗粒物(PM2.5),119,142,121,90,55,44,,55,55,66,43,32,12,1.8,0.7
2025-03-25T0900,1757A,124.0436,41.8611,抚顺市,东洲区,细颗粒物(PM2.5),149,184,111,114,57,44,,71,68,68,30,25,10,1.8,0.7
2025-03-25T0900,1758A,123.9247,41.8642,抚顺市,新抚区,细颗粒物(PM2.5),163,163,113,124,65,30,,52,51,81,37,22,8,1.4,0.7
2025-03-25T0900,1759A,124.0972,41.8961,抚顺市,大伙房水库,细颗粒物(PM2.5),110,116,106,83,59,83,,78,78,21,26,9,10,0.8,0.7
2025-03-25T0900,1760A,123.7086,41.8391,抚顺市,沈抚新城,细颗粒物(PM2.5),125,154,123,95,58,60,,41,41,47,38,24,15,1.4,1.2
2025-03-25T0900,2376A,116.2127,28.0814,抚州市,桐源党溪,细颗粒物(PM2.5),72,81,68,52,37,36,,26,26,24,13,8,12,0.5,0.4
2025-03-25T0900,2377A,116.3544,27.9831,抚州市,市站,颗粒物(PM10),58,66,74,24,35,73,,59,59,22,27,13,15,1.0,0.9
2025-03-25T0900,2378A,116.3565,27.963,抚州市,血防站,颗粒物(PM10),60,70,71,35,37,65,,53,53,23,23,19,18,1.1,0.9
2025-03-25T0900,2379A,116.3564,28.0007,抚州市,采茶剧团,颗粒物(PM10),59,67,69,38,40,56,,36,36,17,18,6,9,0,0.1
2025-03-25T0900,2380A,116.385,27.9647,抚州市,医学分院,颗粒物(PM10),59,67,75,34,34,51,,44,44,25,26,8,12,1.1,1.1
2025-03-25T0900,2207A,121.6094,41.998,阜新市,工业园区,,,109,57,19,13,,,64,64,19,17,13,14,0.4,0.4
2025-03-25T0900,2208A,121.6697,42.0279,阜新市,长青街,颗粒物(PM10),67,83,44,14,11,84,,77,77,19,13,15,10,0.5,0.4
2025-03-25T0900,2209A,121.6673,42.0705,阜新市,农业园区,颗粒物(PM10),75,100,55,12,12,88,,77,77,13,12,15,16,0.5,0.5
2025-03-25T0900,2210A,121.6717,42.0224,阜新市,东苑,颗粒物(PM10),89,128,52,16,11,82,,78,78,21,13,17,12,0.4,0.4
2025-03-25T0900,2211A,121.6506,42.0498,阜新市,玉龙新城,颗粒物(PM10),68,85,62,14,15,82,,64,64,19,25,15,13,0.4,0.4
2025-03-25T0900,2301A,115.8277,32.8929,阜阳市,市监测站,,,70,120,32,48,117,,116,115,,14,13,8,0.6,0.5
2025-03-25T0900,2303A,115.8554,32.8605,阜阳市,开发区,颗粒物(PM10),72,93,152,35,48,99,,103,102,22,14,9,6,0.5,0.4
2025-03-25T0900,2875A,115.784,32.8892,阜阳市,阜阳职业技术学院,颗粒物(PM10),63,76,125,33,46,106,,104,104,14,15,9,8,0.6,0.5
2025-03-25T0900,3468A,115.7901,32.8613,阜阳市,市规划展馆,颗粒物(PM10),57,64,127,38,46,120,,114,114,14,13,10,7,0.5,0.4
2025-03-25T0900,3469A,115.836,32.9183,阜阳市,枣园社区,颗粒物(PM10),55,59,137,38,47,126,,124,123,12,14,11,8,0.6,0.4
2025-03-25T0900,2669A,102.9099,34.9841,甘南藏族自治州,州政府,颗粒物(PM10),76,102,54,34,26,15,,6,6,42,30,14,10,1.5,0.7
2025-03-25T0900,3380A,102.8914,34.9617,甘南藏族自治州,甘肃民族师范学院,颗粒物(PM10),75,99,53,46,20,13,,5,4,41,31,13,11,1.6,0.6
2025-03-25T0900,2570A,101.9603,30.0475,甘孜藏族自治州,水桥子,颗粒物(PM10),73,96,52,19,13,16,,34,32,57,39,4,3,0.8,0.7
2025-03-25T0900,3065A,101.9533,29.9972,甘孜藏族自治州,州环保局,颗粒物(PM10),73,95,33,12,8,52,,73,69,35,13,5,4,0.5,0.3
2025-03-25T0900,3414A,115.8347,28.932,赣江新区,桑海产业园,颗粒物(PM10),62,73,82,30,33,46,,29,26,37,44,20,16,0.9,0.5
2025-03-25T0900,2362A,114.9017,25.9149,赣州市,通天岩,臭氧1小时,74,73,70,16,16,179,,138,138,6,8,28,20,1.1,1
2025-03-25T0900,2363A,114.9367,25.8664,赣州市,地委,细颗粒物(PM2.5),67,68,69,48,44,57,,37,36,24,27,12,4,1.2,1.2
2025-03-25T0900,2364A,114.9461,25.8481,赣州市,气象台,细颗粒物(PM2.5),67,77,76,48,40,58,,41,40,41,40,23,13,1.0,0.9
2025-03-25T0900,2365A,114.9322,25.8333,赣州市,市图书馆,细颗粒物(PM2.5),73,87,81,53,54,38,,35,35,42,51,13,9,1.1,1.2
2025-03-25T0900,2366A,114.8905,25.8471,赣州市,华坚鞋城,细颗粒物(PM2.5),75,89,84,55,50,50,,38,37,49,47,15,17,1.1,1
2025-03-25T0900,3109A,115.0093,25.8613,赣州市,赣县区卫计委,细颗粒物(PM2.5),60,66,64,43,46,48,,40,40,29,24,13,9,0.7,0.6
2025-03-25T0900,2683A,106.2319,36.1417,固原市,马园,颗粒物(PM10),92,133,77,41,24,22,,24,24,53,34,8,6,1.0,0.6
2025-03-25T0900,2684A,106.2792,36.0022,固原市,监测站,颗粒物(PM10),121,192,71,51,26,44,,74,71,42,21,10,8,0.8,0.5
2025-03-25T0900,2685A,106.2375,36.0211,固原市,新区,颗粒物(PM10),138,226,79,47,29,28,,56,49,58,26,8,7,0.8,0.5
2025-03-25T0900,3522A,106.2177,35.9959,固原市,原州区十五小,颗粒物(PM10),130,209,66,59,25,74,,82,80,25,14,7,6,0.5,0.3
2025-03-25T0900,2543A,106.6308,30.5278,广安市,小平旧居,,,,,,,,,,,,,,,,
2025-03-25T0900,2544A,106.6303,30.4576,广安市,市委,颗粒物(PM10),65,79,75,39,47,56,,32,32,24,34,6,6,0.6,0.6
2025-03-25T0900,2545A,106.6271,30.4663,广安市,友谊中学,颗粒物(PM10),59,67,71,34,40,49,,41,41,28,29,3,3,0.7,0.6
2025-03-25T0900,2547A,106.6388,30.4551,广安市,广电花园,颗粒物(PM10),71,92,76,40,49,15,,23,23,46,38,4,4,0.8,0.7
2025-03-25T0900,2902A,106.6351,30.4865,广安市,北辰小学,颗粒物(PM10),66,81,69,35,42,28,,48,44,32,22,8,8,0.9,0.6
2025-03-25T0900,2523A,105.8945,32.4535,广元市,黑石坡,颗粒物(PM10),53,55,60,24,20,50,,84,78,24,12,7,3,0.6,0.4
2025-03-25T0900,2524A,105.821,32.4444,广元市,老城,颗粒物(PM10),54,58,52,32,27,29,,15,15,46,43,1,3,1.1,0.7
2025-03-25T0900,2526A,105.8628,32.4287,广元市,监测站,颗粒物(PM10),51,52,40,21,23,35,,66,62,37,18,8,7,0.8,0.5
2025-03-25T0900,3617A,105.8047,32.4166,广元市,经开区,细颗粒物(PM2.5),110,130,75,83,47,15,,10,9,51,40,38,12,1.0,0.8
2025-03-25T0900,1345A,113.2347,23.1423,广州市,广雅中学,颗粒物(PM10),56,61,89,34,47,54,,34,31,46,52,6,8,0.6,0.7
2025-03-25T0900,1346A,113.2612,23.105,广州市,市五中,颗粒物(PM10),55,60,87,34,48,55,,26,24,41,52,4,6,0.7,0.7
2025-03-25T0900,1348A,113.3478,23.0916,广州市,广东商学院,颗粒物(PM10),56,62,83,38,45,39,,9,9,48,64,6,7,0.8,0.8
2025-03-25T0900,1349A,113.4332,23.1047,广州市,市八十六中,颗粒物(PM10),63,75,76,28,32,41,,13,13,59,73,8,7,0.7,0.6
2025-03-25T0900,1350A,113.3505,22.9483,广州市,番禺中学,"颗粒物(PM10),细颗粒物(PM2.5)",58,65,75,41,40,58,,34,34,46,53,8,7,0.6,0.6
2025-03-25T0900,1351A,113.2146,23.3916,广州市,花都师范,颗粒物(PM10),73,96,116,45,57,24,,15,12,72,63,8,9,0.7,0.7
2025-03-25T0900,1352A,113.2597,23.1331,广州市,市监测站,颗粒物(PM10),52,54,78,31,42,53,,28,25,44,56,8,9,0.7,0.7
2025-03-25T0900,1353A,113.5618,23.312,广州市,九龙镇镇龙,"颗粒物(PM10),细颗粒物(PM2.5)",68,86,97,49,51,41,,18,16,51,58,6,8,0.7,0.7
2025-03-25T0900,1354A,113.2765,23.1544,广州市,麓湖,,,61,81,35,43,53,,15,15,44,64,6,8,,0.5
2025-03-25T0900,1355A,113.443,23.3035,广州市,帽峰山森林公园,颗粒物(PM10),54,58,73,32,28,66,,45,43,34,37,12,10,0.7,0.7
2025-03-25T0900,2846A,113.3221,23.1322,广州市,体育西,颗粒物(PM10),59,68,92,40,48,51,,26,26,30,45,7,7,0.6,0.7
2025-03-25T0900,3298A,113.5717,23.5491,广州市,从化街口,细颗粒物(PM2.5),78,86,105,57,62,55,,35,33,50,50,10,10,1.1,0.9
2025-03-25T0900,3299A,113.3472,23.3692,广州市,白云竹料,"颗粒物(PM10),细颗粒物(PM2.5)",80,109,113,59,55,28,,30,24,72,62,10,10,0.8,0.7
2025-03-25T0900,3300A,113.2981,23.237,广州市,白云嘉禾,颗粒物(PM10),69,87,95,46,48,24,,7,7,71,71,8,8,0.4,0.5
2025-03-25T0900,3301A,113.4256,23.1716,广州市,黄埔科学城,颗粒物(PM10),74,98,85,53,41,20,,7,6,71,62,10,9,0.7,0.6
2025-03-25T0900,3302A,113.3942,23.0483,广州市,番禺大学城,颗粒物(PM10),69,87,105,30,37,43,,18,18,52,56,14,13,0.5,0.5
2025-03-25T0900,3303A,113.4922,22.8168,广州市,南沙黄阁,,50,50,71,29,36,65,,42,42,34,39,7,8,0.8,0.7
2025-03-25T0900,3304A,113.5342,22.7896,广州市,南沙街,,46,46,62,28,29,71,,61,60,30,30,6,6,0.7,0.6
2025-03-25T0900,3443A,113.2902,23.5544,广州市,花都梯面,颗粒物(PM10),68,86,94,47,50,32,,14,14,42,56,9,8,0.8,0.8
2025-03-25T0900,3445A,113.7858,23.7478,广州市,从化良口,细颗粒物(PM2.5),75,66,70,55,51,59,,84,79,21,18,7,8,0.7,0.6
2025-03-25T0900,3446A,113.8051,23.2614,广州市,增城荔城,细颗粒物(PM2.5),79,86,90,58,52,45,,34,34,42,38,8,9,0.8,0.8
2025-03-25T0900,2505A,109.568,23.1478,贵港市,德智高中,,,,,,,,,,,,,,,,
2025-03-25T0900,2506A,109.6047,23.0666,贵港市,江南子站,,48,48,77,30,45,75,,82,78,14,19,8,8,0.7,0.9
2025-03-25T0900,2507A,109.6014,23.0948,贵港市,贵城子站,,48,46,70,33,44,65,,82,78,25,18,9,10,0.8,0.7
2025-03-25T0900,2508A,109.5669,23.1065,贵港市,荷城子站,,36,36,67,24,38,68,,72,70,14,20,12,13,0.5,0.6
2025-03-25T0900,3405A,109.5886,23.1172,贵港市,新世纪学校,颗粒物(PM10),52,53,70,34,43,72,,82,80,19,20,5,9,0.7,0.7
2025-03-25T0900,1439A,106.6899,26.5998,贵阳市,马鞍山,,45,41,49,31,32,12,,18,15,15,18,3,8,0.6,0.5
2025-03-25T0900,1441A,106.6243,26.6266,贵阳市,鉴湖路,细颗粒物(PM2.5),70,80,69,51,38,40,,28,24,38,27,12,10,0.8,0.6
2025-03-25T0900,1442A,106.7487,26.6343,贵阳市,燕子冲,细颗粒物(PM2.5),79,102,60,58,44,13,,32,26,39,26,7,11,0.9,0.6
2025-03-25T0900,1443A,106.6555,26.4365,贵阳市,碧云窝,细颗粒物(PM2.5),73,92,70,53,39,16,,10,9,19,23,13,11,0.7,0.6
2025-03-25T0900,1445A,106.7109,26.6027,贵阳市,红边门,细颗粒物(PM2.5),83,85,70,61,49,10,,24,21,44,33,15,13,1.3,0.7
2025-03-25T0900,1446A,106.7164,26.5699,贵阳市,新华路,细颗粒物(PM2.5),77,80,67,56,44,11,,11,10,33,31,16,23,1.2,0.7
2025-03-25T0900,1447A,106.674,26.5424,贵阳市,太慈桥,细颗粒物(PM2.5),52,44,56,36,36,21,,21,19,23,28,6,11,0.7,0.6
2025-03-25T0900,1552A,106.805,26.3003,贵阳市,桐木岭,细颗粒物(PM2.5),69,79,68,50,43,126,,111,111,5,8,19,27,0.8,0.6
2025-03-25T0900,4230A,106.6882,26.5695,贵阳市,花果园大街66号,细颗粒物(PM2.5),85,117,67,63,52,6,,10,8,44,42,12,10,1.1,0.6
2025-03-25T0900,4231A,106.6873,26.5169,贵阳市,漓江路57号,细颗粒物(PM2.5),85,110,66,63,42,12,,12,11,42,33,17,14,1.0,0.6
2025-03-25T0900,1862A,110.4144,25.3167,桂林市,电子科大尧山校区,,,,,,,,,,,,,,,,
2025-03-25T0900,1864A,110.3089,25.2708,桂林市,龙隐路小学,细颗粒物(PM2.5),134,117,92,102,78,44,,44,41,38,30,35,21,0.8,0.7
2025-03-25T0900,1865A,110.2869,25.2178,桂林市,八中,细颗粒物(PM2.5),107,100,107,80,81,43,,28,26,40,40,29,16,0.9,0.9
2025-03-25T0900,3531A,110.296,25.1253,桂林市,旅游学院,细颗粒物(PM2.5),110,122,89,83,65,14,,21,19,54,31,12,11,0.8,0.6
2025-03-25T0900,4222A,110.1835,25.2444,桂林市,环湖路276号,细颗粒物(PM2.5),98,112,98,73,67,16,,18,18,66,48,8,12,0.7,0.6
2025-03-25T0900,4301A,110.2803,25.2773,桂林市,信义路13号,细颗粒物(PM2.5),127,110,99,96,79,35,,42,42,40,38,31,21,1.0,0.9
2025-03-25T0900,2674A,100.2561,34.4714,果洛藏族自治州,玛沁县大武镇,,35,35,34,11,15,35,,40,39,13,6,18,14,0.8,0.4
2025-03-25T0900,1129A,126.5422,45.755,哈尔滨市,岭北,细颗粒物(PM2.5),68,59,79,49,70,75,,49,49,30,42,24,18,1.0,0.9
2025-03-25T0900,1130A,126.561,45.8167,哈尔滨市,松北商大,颗粒物(PM10),63,75,92,38,63,52,,23,23,21,38,7,8,0.7,0.8
2025-03-25T0900,1131A,126.979,45.5419,哈尔滨市,阿城会宁,细颗粒物(PM2.5),105,124,78,79,44,28,,31,31,44,28,6,9,1.0,0.8
2025-03-25T0900,1132A,126.599,45.7222,哈尔滨市,南岗学府路,颗粒物(PM10),64,78,155,36,113,36,,30,30,46,56,11,19,0.7,1
2025-03-25T0900,1133A,126.689,45.7733,哈尔滨市,太平宏伟公园,颗粒物(PM10),73,96,103,49,67,36,,35,33,39,42,10,12,1.1,1.1
2025-03-25T0900,1134A,126.635,45.7667,哈尔滨市,道外承德广场,细颗粒物(PM2.5),83,84,136,61,84,30,,28,28,50,47,9,12,1.2,1
2025-03-25T0900,1135A,126.685,45.7319,哈尔滨市,香坊红旗大街,颗粒物(PM10),69,88,128,38,70,37,,32,28,39,45,17,19,0.8,1
2025-03-25T0900,1136A,126.6411,45.7258,哈尔滨市,动力和平路,颗粒物(PM10),62,73,106,42,87,38,,37,37,44,42,17,16,0.8,0.9
2025-03-25T0900,1137A,126.593,45.7478,哈尔滨市,道里建国路,,,73,124,40,104,80,,70,70,2,41,,21,,1.1
2025-03-25T0900,1138A,126.615,45.61,哈尔滨市,平房东轻厂,细颗粒物(PM2.5),133,143,172,101,129,23,,16,16,51,61,17,19,0.9,1.2
2025-03-25T0900,1139A,126.595,45.9855,哈尔滨市,呼兰师专,颗粒物(PM10),54,57,66,24,37,48,,45,45,28,30,8,9,0.5,0.5
2025-03-25T0900,1140A,126.6206,45.6842,哈尔滨市,省农科院,细颗粒物(PM2.5),88,85,178,65,135,30,,23,23,52,60,20,20,0.9,1.2
2025-03-25T0900,2688A,93.5128,42.8172,哈密市,地区监测站,颗粒物(PM10),106,161,359,35,72,34,,28,27,42,36,3,4,0.5,0.4
2025-03-25T0900,2689A,93.4961,42.8328,哈密市,哈密师范学校,颗粒物(PM10),82,114,271,36,86,34,,15,14,49,45,8,6,0.7,0.5
2025-03-25T0900,2671A,100.9048,36.9639,海北藏族自治州,海晏县西海镇,,19,19,26,13,12,48,,60,58,11,2,8,9,0.6,0.5
2025-03-25T0900,3867A,102.0738,36.5056,海东市,平安区公安北苑,,41,41,49,24,18,28,,31,31,33,19,22,13,1.1,0.8
2025-03-25T0900,1409A,110.576,19.9507,海口市,东寨港,,,32,35,,20,44,,39,38,16,9,2,3,0.3,0.3
2025-03-25T0900,1410A,110.3232,20.0574,海口市,海南大学,,46,46,36,28,18,68,,68,64,26,18,4,4,0.4,0.4
2025-03-25T0900,1411A,110.283,20.0053,海口市,秀英海南医院,,43,43,42,26,22,68,,63,62,34,21,5,5,0.4,0.4
2025-03-25T0900,1412A,110.338,19.9969,海口市,海南师范大学,,42,42,44,27,22,78,,74,72,17,13,4,4,0.4,0.4
2025-03-25T0900,1413A,110.33,20.0356,海口市,龙华路环保局宿舍,,45,37,38,31,20,61,,70,66,28,15,6,5,0.4,0.3
2025-03-25T0900,3539A,110.5111,19.9736,海口市,桂林洋子站,颗粒物(PM10),54,58,43,32,22,62,,58,58,26,16,4,4,0.3,0.3
2025-03-25T0900,2673A,100.6188,36.2866,海南藏族自治州,共和县恰卜恰镇,,34,34,39,12,12,43,,49,49,34,14,13,11,0.6,0.4
2025-03-25T0900,2676A,97.3731,37.3753,海西蒙古族藏族自治州,德令哈市,,25,25,35,10,13,77,,80,80,2,3,12,13,0.4,0.4
2025-03-25T0900,1048A,114.5302,36.6116,邯郸市,东污水处理厂,细颗粒物(PM2.5),119,160,241,90,81,42,,34,34,38,29,4,4,0.4,0.4
2025-03-25T0900,1049A,114.4918,36.5713,邯郸市,矿院,颗粒物(PM10),115,180,276,31,69,54,,35,35,22,21,4,5,0.5,0.4
2025-03-25T0900,1050A,114.484,36.6133,邯郸市,丛台公园,颗粒物(PM10),89,127,246,47,71,50,,42,42,27,21,7,7,0.5,0.4
2025-03-25T0900,3458A,114.7895,36.5593,邯郸市,香泉濮院小区,颗粒物(PM10),150,250,271,36,56,52,,48,47,19,11,6,5,0.4,0.4
2025-03-25T0900,3579A,114.50634,36.77178,邯郸市,永年区实验高中,颗粒物(PM10),107,163,244,40,63,59,,37,37,25,27,11,10,0.8,0.8
2025-03-25T0900,3580A,114.20016,36.44293,邯郸市,峰峰矿区临水派出所,颗粒物(PM10),140,230,337,44,104,73,,66,65,13,9,18,16,1.2,0.8
2025-03-25T0900,2634A,106.9893,33.1842,汉中市,汉川机床厂子校,,42,42,48,29,30,58,,60,60,12,8,11,10,0.6,0.5
2025-03-25T0900,2635A,107.0154,33.0706,汉中市,市监测站,,46,38,50,32,35,54,,53,53,24,20,7,7,0.8,0.7
2025-03-25T0900,2636A,107.0089,33.1138,汉中市,鑫源开发区,颗粒物(PM10),61,72,58,39,36,46,,53,45,37,25,15,8,1.1,0.7
2025-03-25T0900,2637A,107.007,33.0323,汉中市,南郑大河坎水厂,颗粒物(PM10),54,58,57,31,32,32,,47,46,36,22,5,6,0.7,0.6
2025-03-25T0900,1223A,120.2072,30.2111,杭州市,滨江,颗粒物(PM10),62,74,72,33,35,78,,65,65,36,31,8,7,0.5,0.5
2025-03-25T0900,1224A,120.0633,30.2747,杭州市,西溪,颗粒物(PM10),57,64,62,32,33,54,,12,12,31,22,7,6,0.3,0.2
2025-03-25T0900,1226A,120.3417,30.3150,杭州市,下沙,颗粒物(PM10),66,81,79,31,30,79,,68,68,39,45,7,7,0.4,0.4
2025-03-25T0900,1227A,120.1269,30.2456,杭州市,卧龙桥,颗粒物(PM10),56,62,54,30,27,62,,33,33,39,25,7,6,0.3,0.2
2025-03-25T0900,1228A,120.1903,30.2692,杭州市,浙江农大,颗粒物(PM10),62,73,72,36,35,69,,46,46,37,40,4,3,0.5,0.5
2025-03-25T0900,1230A,120.1197,30.3119,杭州市,和睦小学,,,,86,34,35,50,,16,16,49,46,8,8,0.6,0.7
2025-03-25T0900,1231A,120.3019,30.4183,杭州市,临平镇,颗粒物(PM10),75,99,97,35,33,56,,30,30,58,60,7,6,0.5,0.5
2025-03-25T0900,1232A,120.2753,30.1839,杭州市,城厢镇,颗粒物(PM10),63,76,74,38,33,71,,61,61,44,40,8,8,0.5,0.4
2025-03-25T0900,1233A,120.0883,30.1808,杭州市,云栖,颗粒物(PM10),55,60,55,24,23,61,,25,25,41,34,9,8,0.5,0.4
2025-03-25T0900,3557A,119.9464,30.0494,杭州市,镇二中,"颗粒物(PM10),细颗粒物(PM2.5)",57,63,62,40,33,51,,21,21,45,39,10,7,0.7,0.5
2025-03-25T0900,3558A,119.7183,30.2367,杭州市,市府大楼,颗粒物(PM10),60,70,76,38,34,69,,53,53,33,26,9,9,0.7,0.6
2025-03-25T0900,3656A,120.1556,30.2864,杭州市,消防大队,颗粒物(PM10),61,71,71,35,32,67,,42,42,43,34,8,7,0.6,0.4
2025-03-25T0900,1270A,117.1959,31.7848,合肥市,明珠广场,颗粒物(PM10),71,92,123,36,46,90,,65,65,42,34,6,5,0.5,0.4
2025-03-25T0900,1271A,117.3072,31.8764,合肥市,三里街,颗粒物(PM10),79,107,146,44,49,58,,21,21,62,61,7,6,0.7,0.7
2025-03-25T0900,1272A,117.2588,31.8707,合肥市,琥珀山庄,颗粒物(PM10),73,95,135,46,53,93,,56,56,38,35,3,2,0.5,0.6
2025-03-25T0900,1273A,117.1604,31.9052,合肥市,董铺水库,颗粒物(PM10),71,92,170,34,48,111,,73,73,27,29,3,2,0.4,0.3
2025-03-25T0900,1274A,117.25,31.8571,合肥市,长江中路,颗粒物(PM10),69,88,145,40,54,106,,81,81,31,30,8,8,0.5,0.5
2025-03-25T0900,1275A,117.266,31.9436,合肥市,庐阳区,颗粒物(PM10),70,90,155,39,52,98,,71,71,37,39,8,7,0.6,0.5
2025-03-25T0900,1276A,117.3453,31.8616,合肥市,瑶海区,颗粒物(PM10),74,97,130,39,44,85,,56,56,44,38,10,8,0.7,0.6
2025-03-25T0900,1277A,117.3027,31.7964,合肥市,包河区,颗粒物(PM10),65,80,119,39,45,103,,51,51,26,33,6,5,0.7,0.6
2025-03-25T0900,1278A,117.2776,31.7385,合肥市,滨湖新区,颗粒物(PM10),64,78,116,39,45,115,,67,67,17,32,12,11,0.5,0.5
2025-03-25T0900,1279A,117.1318,31.8403,合肥市,高新区,颗粒物(PM10),74,97,137,40,41,87,,80,80,42,27,4,3,0.7,0.6
2025-03-25T0900,3464A,117.3803,31.9147,合肥市,高教基地,颗粒物(PM10),71,91,149,31,47,110,,69,69,26,32,11,8,0.5,0.4
2025-03-25T0900,3614A,79.924,37.0877,和田地区,地区环保局,颗粒物(PM10),69,88,118,11,21,55,,54,54,10,21,2,2,0.9,0.8
2025-03-25T0900,3615A,79.9131,37.113,和田地区,市环保局,颗粒物(PM10),73,95,103,14,19,44,,44,44,19,23,2,2,0.6,0.8
2025-03-25T0900,2516A,108.2011,24.715,河池市,东仁乐园,细颗粒物(PM2.5),95,110,94,71,60,25,,15,15,44,39,9,11,1.0,0.8
2025-03-25T0900,2517A,108.0497,24.6947,河池市,市环保站,细颗粒物(PM2.5),87,84,77,64,56,35,,31,31,32,25,6,10,0.9,0.8
2025-03-25T0900,2518A,108.0983,24.6989,河池市,市疾控中心,细颗粒物(PM2.5),100,77,61,75,57,22,,25,22,43,33,9,11,0.9,0.8
2025-03-25T0900,1696A,114.6778,23.7569,河源市,源西,细颗粒物(PM2.5),67,64,71,48,45,70,,32,32,32,35,9,7,0.9,0.9
2025-03-25T0900,1697A,114.6944,23.7586,河源市,东埔,,,,72,,42,67,,99,91,,26,,8,0.9,0.8
2025-03-25T0900,1698A,114.6892,23.7233,河源市,老城,细颗粒物(PM2.5),75,71,75,55,46,77,,80,74,34,26,11,8,0.8,0.7
2025-03-25T0900,1718A,115.4208,35.2464,菏泽市,气象局,细颗粒物(PM2.5),78,95,370,57,90,69,,72,72,27,19,6,6,0.4,0.3
2025-03-25T0900,3374A,115.5564,35.0891,菏泽市,定陶老年大学,颗粒物(PM10),69,88,338,31,78,77,,73,73,18,21,7,7,0.5,0.5
2025-03-25T0900,4184A,115.4797,35.24401,菏泽市,永昌路1号,颗粒物(PM10),87,123,403,44,91,68,,77,76,26,15,6,6,0.3,0.2
2025-03-25T0900,4193A,115.4715,35.2800,菏泽市,长城路999号,颗粒物(PM10),73,95,397,36,83,77,,79,78,26,22,15,10,0.6,0.5
2025-03-25T0900,2514A,111.5264,24.4172,贺州市,环保小区,细颗粒物(PM2.5),97,94,93,72,66,99,,82,82,25,28,29,19,1.0,0.9
2025-03-25T0900,2515A,111.5608,24.4078,贺州市,政协大楼,细颗粒物(PM2.5),88,77,80,65,64,91,,91,91,23,25,45,28,0.9,0.9
2025-03-25T0900,3534A,111.4744,24.4553,贺州市,西湾,细颗粒物(PM2.5),97,80,90,72,68,60,,57,51,46,35,20,11,0.9,0.9
2025-03-25T0900,2385A,114.17,35.9019,鹤壁市,市监测站,颗粒物(PM10),176,301,373,91,103,38,,58,52,39,22,16,6,1.2,0.5
2025-03-25T0900,2386A,114.2956,35.7511,鹤壁市,市交警支队,颗粒物(PM10),167,284,384,81,88,44,,62,61,25,20,10,9,0.6,0.4
2025-03-25T0900,2387A,114.2878,35.7306,鹤壁市,迎宾馆,颗粒物(PM10),202,351,418,66,70,43,,61,61,31,21,9,6,0.6,0.4
2025-03-25T0900,3474A,114.2617,35.6822,鹤壁市,大新区,,,,403,,106,42,,48,48,34,27,12,7,0.8,0.5
2025-03-25T0900,3596A,114.1572,35.9603,鹤壁市,南山宾馆,颗粒物(PM10),176,301,439,78,99,44,,59,56,34,17,12,6,0.9,0.5
2025-03-25T0900,2244A,130.2537,47.3416,鹤岗市,哈啤分公司,,25,24,21,15,15,78,,64,64,2,3,14,15,0.3,0.4
2025-03-25T0900,2245A,130.2684,47.3086,鹤岗市,斯达机电,,29,29,25,18,15,63,,68,65,12,4,14,14,0.4,0.3
2025-03-25T0900,2246A,130.3114,47.3388,鹤岗市,东山纸板厂,,42,42,69,29,22,74,,50,50,7,11,17,15,0.2,0.8
2025-03-25T0900,2247A,130.1097,47.3382,鹤岗市,五号水库,,,,,,,,,,,,,,,,
2025-03-25T0900,2263A,127.4833,50.2524,黑河市,交通局,,24,20,16,8,11,76,,75,75,7,5,6,6,0.3,0.3
2025-03-25T0900,2264A,127.5144,50.2341,黑河市,环保局,,25,17,17,10,12,78,,80,79,6,5,4,3,0.3,0.3
2025-03-25T0900,2265A,127.5291,50.2472,黑河市,大黑河岛,,,7,10,3,4,5,,5,5,12,14,3,2,,
2025-03-25T0900,1074A,115.6838,37.7541,衡水市,电机北厂,颗粒物(PM10),77,103,127,26,31,54,,42,42,29,21,11,10,0.4,0.3
2025-03-25T0900,1075A,115.6303,37.7316,衡水市,市监测站,颗粒物(PM10),81,111,114,9,22,57,,48,48,28,18,11,14,0.3,0.3
2025-03-25T0900,3188A,115.6683,37.7217,衡水市,市城管局,颗粒物(PM10),76,102,121,15,30,54,,49,49,28,19,10,9,0.4,0.3
2025-03-25T0900,3459A,115.5989,37.5491,衡水市,地表水厂,颗粒物(PM10),72,94,130,25,32,51,,45,45,34,22,14,12,0.3,0.3
2025-03-25T0900,2456A,112.5003,26.9167,衡阳市,原169医院,细颗粒物(PM2.5),57,59,65,40,43,17,,25,23,53,29,11,13,0.6,0.5
2025-03-25T0900,2457A,112.6194,26.9258,衡阳市,衡阳化工总厂,细颗粒物(PM2.5),94,78,83,70,61,32,,15,15,28,26,15,9,0.8,0.8
2025-03-25T0900,2458A,112.6211,26.8956,衡阳市,珠晖区环保局,细颗粒物(PM2.5),82,84,79,60,55,24,,10,10,39,35,13,10,1.1,1
2025-03-25T0900,2459A,112.6197,26.8733,衡阳市,市委党校,细颗粒物(PM2.5),73,86,79,53,49,37,,26,26,30,25,14,10,1.0,1
2025-03-25T0900,2460A,112.6006,26.8919,衡阳市,市监测站,细颗粒物(PM2.5),80,92,84,59,60,27,,7,7,42,38,15,11,1.1,1
2025-03-25T0900,2461A,112.5664,26.9056,衡阳市,真空机电公司,细颗粒物(PM2.5),80,92,79,59,52,16,,7,7,57,42,12,7,1.3,0.9
2025-03-25T0900,3399A,112.6703,26.882,衡阳市,师范学院,细颗粒物(PM2.5),79,93,81,58,56,58,,34,34,20,23,19,12,0.8,0.8
2025-03-25T0900,2608A,103.3772,23.3993,红河哈尼族彝族自治州,污水处理厂,细颗粒物(PM2.5),69,54,51,50,42,37,,48,45,19,15,11,13,0.5,0.5
2025-03-25T0900,2609A,103.3861,23.35,红河哈尼族彝族自治州,监测站,颗粒物(PM10),58,66,51,34,31,68,,63,61,21,11,10,10,0.5,0.3
2025-03-25T0900,3038A,103.3758,23.368,红河哈尼族彝族自治州,州图书馆,细颗粒物(PM2.5),60,50,42,43,35,46,,50,48,31,13,6,8,0.5,0.4
2025-03-25T0900,1090A,111.6507,40.7517,呼和浩特市,呼市一监,,24,24,343,13,62,73,,81,78,5,4,8,8,0.3,0.5
2025-03-25T0900,1091A,111.6572,40.8033,呼和浩特市,小召,,28,24,312,19,70,75,,80,78,13,14,2,4,0.3,0.4
2025-03-25T0900,1094A,111.7516,40.8369,呼和浩特市,如意水处理厂,,46,46,247,30,63,66,,75,72,12,9,6,7,0.3,0.3
2025-03-25T0900,1095A,111.7276,40.8062,呼和浩特市,二十九中,,32,32,289,8,62,76,,80,78,5,7,3,5,0.5,0.5
2025-03-25T0900,1096A,111.5512,40.7866,呼和浩特市,工大金川校区,,42,42,262,13,58,61,,87,82,19,11,6,7,0.5,0.5
2025-03-25T0900,1097A,111.717,40.7612,呼和浩特市,化肥厂生活区,,31,31,280,8,56,77,,82,79,10,11,7,8,0.4,0.4
2025-03-25T0900,3698A,111.5968,40.8178,呼和浩特市,红旗小学,,23,22,321,10,56,71,,81,78,12,11,4,5,0.4,0.4
2025-03-25T0900,3699A,111.6518,40.8389,呼和浩特市,海东办,,23,19,331,8,79,72,,76,74,5,6,6,6,0.5,0.4
2025-03-25T0900,2192A,119.7594,49.2261,呼伦贝尔市,区环保局,,37,37,33,16,19,73,,60,60,8,14,6,7,0.3,0.4
2025-03-25T0900,3061A,119.7512,49.1577,呼伦贝尔市,国华电力东,,25,15,23,9,11,78,,64,64,4,6,5,5,0.2,0.2
2025-03-25T0900,1250A,120.0751,30.8669,湖州市,城西水厂,,,134,103,48,35,,,6,6,82,75,9,8,0.5,0.3
2025-03-25T0900,2873A,120.0830,30.8929,湖州市,仁皇山新区,颗粒物(PM10),107,164,104,63,38,19,,7,7,88,56,11,7,0.8,0.6
2025-03-25T0900,2907A,120.1844,30.8596,湖州市,吴兴区站,颗粒物(PM10),86,121,91,52,37,44,,16,16,63,47,13,8,0.5,0.3
2025-03-25T0900,3562A,120.4148,30.8538,湖州市,南浔区站,颗粒物(PM10),72,93,94,42,38,68,,26,26,49,47,5,5,0.5,0.4
2025-03-25T0900,1607A,120.9049,40.7211,葫芦岛市,龙港区,颗粒物(PM10),52,53,46,7,7,82,,75,74,15,14,8,29,0.5,0.5
2025-03-25T0900,1608A,120.8392,40.7514,葫芦岛市,化工街,颗粒物(PM10),51,51,57,9,11,76,,63,63,21,21,15,15,0.5,0.5
2025-03-25T0900,1609A,120.8341,40.7073,葫芦岛市,新区,,37,37,40,10,7,85,,73,73,19,17,9,20,0.6,0.5
2025-03-25T0900,1610A,120.8695,40.7677,葫芦岛市,东城区,颗粒物(PM10),57,64,48,9,9,73,,66,65,24,21,6,14,0.5,0.5
2025-03-25T0900,2482A,109.5981,27.5721,怀化市,林科所,颗粒物(PM10),80,110,63,47,46,34,,51,47,30,20,22,10,0.3,0.2
2025-03-25T0900,2483A,109.9453,27.5444,怀化市,河西地税局,"颗粒物(PM10),细颗粒物(PM2.5)",58,65,65,41,44,25,,22,20,16,20,12,10,0.5,0.5
2025-03-25T0900,2484A,109.9781,27.5342,怀化市,市四医院,细颗粒物(PM2.5),102,111,86,76,50,29,,14,14,32,37,24,9,0.6,0.6
2025-03-25T0900,2485A,109.9972,27.5578,怀化市,监测楼,细颗粒物(PM2.5),80,82,72,59,42,30,,13,13,30,29,19,10,0.6,0.5
2025-03-25T0900,2486A,110.0394,27.583,怀化市,市委党校,细颗粒物(PM2.5),88,94,73,65,48,26,,6,6,27,28,18,7,0.6,0.5
2025-03-25T0900,1210A,119.036,33.5981,淮安市,钵池山,颗粒物(PM10),81,112,212,51,59,106,,83,83,16,22,11,13,0.8,1
2025-03-25T0900,1211A,119.007,33.575,淮安市,北京南路,,,,217,,59,,,59,59,27,36,13,13,,1.1
2025-03-25T0900,1212A,118.989,33.6067,淮安市,市监测站,颗粒物(PM10),78,105,213,44,64,104,,80,80,21,27,11,12,0.6,1
2025-03-25T0900,1213A,119.135,33.5039,淮安市,楚州区监测站,"颗粒物(PM10),细颗粒物(PM2.5)",77,103,231,56,55,88,,55,55,16,25,9,9,0.5,0.5
2025-03-25T0900,3426A,118.8755,33.2894,淮安市,新华书店,颗粒物(PM10),77,103,208,55,59,92,,58,58,19,26,12,10,0.9,0.9
2025-03-25T0900,4206A,119.0288,33.6319,淮安市,承德北路606号,颗粒物(PM10),82,114,220,52,59,103,,84,84,23,29,13,12,1.1,0.9
2025-03-25T0900,2282A,116.8004,33.975,淮北市,监测站,颗粒物(PM10),65,79,265,43,72,102,,91,91,17,21,6,8,0.5,0.5
2025-03-25T0900,2283A,116.8091,33.9007,淮北市,烈山区政府,颗粒物(PM10),81,111,264,35,73,93,,79,79,22,24,8,9,0.7,0.7
2025-03-25T0900,3330A,116.8873,33.9836,淮北市,杜集区检察院,颗粒物(PM10),68,85,269,42,74,99,,92,92,19,21,9,9,0.8,0.8
2025-03-25T0900,4017A,116.7923,33.9535,淮北市,市博物馆,细颗粒物(PM2.5),72,90,276,52,81,109,,90,90,17,18,10,10,1.0,0.9
2025-03-25T0900,2277A,116.8305,32.7727,淮南市,潘集区政府,颗粒物(PM10),71,92,197,38,64,120,,111,111,19,20,7,7,0.5,0.5
2025-03-25T0900,2279A,116.8569,32.5951,淮南市,谢家集区政府,颗粒物(PM10),61,72,170,35,52,97,,96,96,17,17,8,7,0.5,0.5
2025-03-25T0900,2280A,116.8281,32.633,淮南市,八公山区政府,颗粒物(PM10),61,72,158,34,49,121,,122,122,10,10,7,7,0.4,0.4
2025-03-25T0900,2281A,116.6325,32.6201,淮南市,焦岗湖风景区管理处,颗粒物(PM10),59,67,122,29,41,73,,74,74,10,10,7,9,0.6,0.6
2025-03-25T0900,2894A,117.0566,32.6531,淮南市,经济技术开发区消防队,颗粒物(PM10),73,96,197,15,55,140,,136,136,9,15,7,7,0.4,0.4
2025-03-25T0900,3329A,117.0108,32.5893,淮南市,山南新区,颗粒物(PM10),73,96,223,40,69,116,,112,112,8,11,8,8,0.7,0.6
2025-03-25T0900,4209A,117.0031,32.6445,淮南市,国庆中路369号,颗粒物(PM10),69,87,187,34,54,130,,117,117,14,19,12,11,0.5,0.6
2025-03-25T0900,2446A,114.9028,30.4742,黄冈市,职工中心,细颗粒物(PM2.5),103,97,66,77,48,72,,47,47,36,35,20,12,0.7,0.7
2025-03-25T0900,2929A,114.8858,30.4519,黄冈市,红卫路,细颗粒物(PM2.5),87,108,71,64,44,79,,39,39,37,33,20,11,0.9,0.8
2025-03-25T0900,3398A,114.9136,30.4445,黄冈市,市林业局,颗粒物(PM10),107,164,79,57,47,62,,36,36,47,40,19,14,0.8,0.7
2025-03-25T0900,2672A,102.0199,35.5102,黄南藏族自治州,同仁县隆务镇,,35,35,33,3,11,48,,67,64,15,5,20,14,0.4,0.3
2025-03-25T0900,2295A,118.2903,29.6963,黄山市,延安路89号,颗粒物(PM10),56,61,53,36,33,41,,43,42,17,11,6,6,0.4,0.3
2025-03-25T0900,2297A,118.1371,30.2756,黄山市,黄山区政府5号楼,颗粒物(PM10),51,52,71,34,30,51,,34,34,6,6,8,9,0.6,0.6
2025-03-25T0900,4210A,118.3354,29.7203,黄山市,滨江东路7-2号,颗粒物(PM10),65,79,63,30,28,28,,35,33,17,9,5,5,0.5,0.4
2025-03-25T0900,2423A,115.0601,30.2313,黄石市,沈家营,细颗粒物(PM2.5),79,103,83,58,46,36,,9,9,52,43,15,9,1.1,0.8
2025-03-25T0900,2426A,114.8988,30.2019,黄石市,铁山,颗粒物(PM10),70,89,71,46,38,93,,64,64,40,20,30,20,1.6,1
2025-03-25T0900,2427A,115.0307,30.2092,黄石市,团城山,细颗粒物(PM2.5),92,101,73,68,41,26,,19,16,80,48,24,13,1.1,0.8
2025-03-25T0900,3149A,115.0235,30.1578,黄石市,笔架山北路,细颗粒物(PM2.5),102,109,65,76,41,45,,48,48,55,24,22,13,1.7,0.9
2025-03-25T0900,4185A,115.0780,30.21118,黄石市,磁湖东路29号,细颗粒物(PM2.5),100,135,95,75,53,30,,10,10,74,47,23,11,1.4,1.2
2025-03-25T0900,1392A,114.4183,23.0528,惠州市,河南岸金山湖子站,细颗粒物(PM2.5),64,73,68,46,37,64,,53,51,34,33,14,11,0.6,0.6
2025-03-25T0900,1393A,114.4053,23.0822,惠州市,下埔横江三路子站,细颗粒物(PM2.5),73,86,72,53,39,64,,72,68,39,32,16,12,0.6,0.6
2025-03-25T0900,1394A,114.4103,23.1142,惠州市,江北云山西路子站,颗粒物(PM10),63,76,69,43,33,78,,88,85,36,30,18,14,0.6,0.6
2025-03-25T0900,1395A,114.4645,22.7833,惠州市,惠阳区承修路船湖子站,颗粒物(PM10),66,82,61,43,29,26,,53,48,69,42,12,11,1.2,0.7
2025-03-25T0900,1396A,114.5317,22.7422,惠州市,大亚湾管委会子站,颗粒物(PM10),57,64,49,30,24,29,,40,33,61,44,8,9,0.7,0.6
2025-03-25T0900,3314A,114.4338,22.8134,惠州市,惠阳秋长,颗粒物(PM10),70,90,76,42,33,31,,24,22,52,42,18,17,0.9,0.7
2025-03-25T0900,3452A,114.6517,22.775,惠州市,大亚湾霞涌,颗粒物(PM10),52,53,41,27,20,67,,64,63,32,23,6,5,0.6,0.4
2025-03-25T0900,2240A,130.9762,45.3001,鸡西市,环保局,颗粒物(PM10),61,71,56,39,29,23,,24,24,48,21,10,8,0.9,0.5
2025-03-25T0900,2243A,130.9429,45.3039,鸡西市,第一中学,,46,46,42,29,22,43,,56,54,25,12,8,7,0.5,0.3
2025-03-25T0900,3707A,131.0207,45.3073,鸡西市,欧美日汽修厂,细颗粒物(PM2.5),115,135,66,87,35,17,,24,20,58,18,20,11,1.2,0.6
2025-03-25T0900,3709A,130.9967,45.3106,鸡西市,市政设施管理处,颗粒物(PM10),63,75,64,33,26,10,,18,16,52,23,9,6,0.7,0.4
2025-03-25T0900,2367A,114.9754,27.0803,吉安市,红声器材厂,"颗粒物(PM10),细颗粒物(PM2.5)",58,66,67,41,40,64,,59,59,25,25,20,16,0.6,0.6
2025-03-25T0900,2368A,114.9658,27.0999,吉安市,市森林工业局,细颗粒物(PM2.5),65,63,66,47,41,71,,47,47,31,33,24,14,0.7,0.6
2025-03-25T0900,2369A,114.99,27.1312,吉安市,市环境监测站,细颗粒物(PM2.5),64,67,64,46,43,59,,45,45,24,27,24,21,0.4,0.4
2025-03-25T0900,2370A,115.0093,27.0968,吉安市,青原区法院,细颗粒物(PM2.5),72,75,60,52,42,54,,33,33,38,32,18,14,0.5,0.5
2025-03-25T0900,1772A,126.54,43.8622,吉林市,哈达湾,细颗粒物(PM2.5),152,182,137,116,74,85,,69,69,31,27,16,13,0.9,0.8
2025-03-25T0900,1773A,126.5844,43.8358,吉林市,东局子,细颗粒物(PM2.5),133,142,106,101,70,100,,73,73,22,25,9,10,0.7,0.7
2025-03-25T0900,1774A,126.5052,43.8245,吉林市,电力学院,细颗粒物(PM2.5),120,124,122,91,89,69,,47,47,46,31,9,10,0.6,0.6
2025-03-25T0900,1775A,126.6133,43.8972,吉林市,江北,细颗粒物(PM2.5),134,161,127,102,78,93,,60,60,25,50,7,7,0.8,0.7
2025-03-25T0900,1776A,126.555,43.8306,吉林市,江南公园,细颗粒物(PM2.5),149,156,109,114,72,78,,72,72,36,24,10,10,0.6,0.5
2025-03-25T0900,1778A,126.7061,43.7133,吉林市,丰满,细颗粒物(PM2.5),110,109,84,83,60,118,,97,97,13,14,8,8,0.8,0.7
2025-03-25T0900,2868A,126.4739,43.953,吉林市,九站,,,,147,,105,,,88,,,46,,22,,0.8
2025-03-25T0900,1299A,116.9862,36.6114,济南市,科干所,颗粒物(PM10),150,249,249,71,51,,,,,23,17,10,9,0.5,0.4
2025-03-25T0900,1300A,116.9376,36.665,济南市,农科所,颗粒物(PM10),193,335,276,88,48,44,,84,76,38,29,11,9,0.5,0.4
2025-03-25T0900,1301A,117.1265,36.6734,济南市,开发区,颗粒物(PM10),161,271,255,83,55,46,,100,91,41,24,10,9,0.7,0.5
2025-03-25T0900,1303A,117.0624,36.6868,济南市,省种子仓库,颗粒物(PM10),226,368,293,88,50,48,,94,86,28,21,7,7,0.8,0.7
2025-03-25T0900,1304A,116.9489,36.6447,济南市,机床二厂,颗粒物(PM10),167,283,305,90,64,40,,83,75,40,27,14,11,0.8,0.7
2025-03-25T0900,1305A,117.0495,36.663,济南市,市监测站,颗粒物(PM10),184,317,273,76,47,41,,92,83,41,25,12,10,0.6,0.5
2025-03-25T0900,1306A,116.7675,36.5484,济南市,长清党校,颗粒物(PM10),146,242,248,76,51,61,,86,81,36,31,7,7,0.7,0.7
2025-03-25T0900,1616A,117.6795,36.229,济南市,技术学院,颗粒物(PM10),117,183,218,58,49,80,,78,78,28,28,16,15,0.8,0.6
2025-03-25T0900,1961A,117.532,36.6868,济南市,东山小学,颗粒物(PM10),210,357,252,85,51,52,,84,80,,21,10,12,0.6,0.7
2025-03-25T0900,3059A,117.7161,36.2049,济南市,泰兴公司,颗粒物(PM10),120,190,194,61,45,71,,69,69,32,30,18,13,1.1,0.6
2025-03-25T0900,3064A,117.6867,36.2171,济南市,莱芜战役纪念馆,颗粒物(PM10),111,171,192,56,40,70,,76,76,34,28,15,10,1.1,0.6
2025-03-25T0900,3494A,117.1673,36.9782,济南市,济阳区政府,颗粒物(PM10),125,200,250,44,39,51,,70,70,26,16,14,14,0.4,0.4
2025-03-25T0900,3495A,117.1171,36.63,济南市,锦屏中学,颗粒物(PM10),150,249,252,66,57,63,,97,91,25,19,12,10,0.4,0.3
2025-03-25T0900,3682A,116.9814,36.6819,济南市,济南四建,颗粒物(PM10),195,339,293,100,60,44,,84,76,34,27,10,8,0.4,0.3
2025-03-25T0900,1653A,116.6251,35.4302,济宁市,火炬城,颗粒物(PM10),72,93,195,36,54,81,,85,85,20,16,12,12,0.3,0.3
2025-03-25T0900,1655A,116.5491,35.4042,济宁市,电化厂,颗粒物(PM10),86,121,253,44,58,77,,75,75,22,17,11,12,0.6,0.5
2025-03-25T0900,3500A,116.5814,35.3707,济宁市,北湖一中,颗粒物(PM10),67,84,185,22,46,68,,76,75,29,19,15,16,0.4,0.4
2025-03-25T0900,3501A,116.8249,35.5593,济宁市,服务中心,颗粒物(PM10),92,133,213,35,44,59,,74,71,38,26,7,8,0.8,0.7
2025-03-25T0900,3678A,116.5907,35.4054,济宁市,市第七中学,颗粒物(PM10),75,100,214,31,48,77,,80,80,20,16,7,6,0.4,0.3
2025-03-25T0900,2255A,130.2751,46.8028,佳木斯市,佳纺,,,76,46,24,13,24,,39,34,32,16,,6,0.5,0.6
2025-03-25T0900,2256A,130.3995,46.8307,佳木斯市,发电厂,,22,22,22,15,11,47,,47,46,19,13,5,3,0.5,0.5
2025-03-25T0900,2257A,130.3258,46.7975,佳木斯市,环保局,,45,45,29,14,12,24,,49,44,43,18,4,5,0.5,0.3
2025-03-25T0900,2258A,130.3648,46.8032,佳木斯市,十一中,,45,45,38,19,14,44,,41,40,29,20,5,6,0.5,0.4
2025-03-25T0900,2259A,130.3794,46.7588,佳木斯市,四丰,,25,18,21,17,8,22,,60,54,41,7,1,1,0.9,0.7
2025-03-25T0900,1252A,120.7436,30.778,嘉兴市,清河小学,颗粒物(PM10),75,100,90,47,36,64,,29,29,63,51,8,6,0.9,0.5
2025-03-25T0900,1253A,120.726,30.7478,嘉兴市,嘉兴学院,细颗粒物(PM2.5),85,111,98,63,42,59,,17,17,68,59,11,9,0.7,0.5
2025-03-25T0900,2872A,120.7846,30.7525,嘉兴市,南湖区残联,颗粒物(PM10),94,137,98,59,38,75,,57,57,52,32,12,10,0.6,0.3
2025-03-25T0900,3407A,120.6916,30.7739,嘉兴市,秀洲住建,颗粒物(PM10),79,108,92,51,42,68,,28,28,54,55,9,7,0.5,0.4
2025-03-25T0900,1945A,98.2908,39.7711,嘉峪关市,气象局,颗粒物(PM10),100,149,262,53,56,44,,51,48,39,15,6,4,0.5,0.3
2025-03-25T0900,2884A,98.2672,39.7978,嘉峪关市,酒钢宾馆,颗粒物(PM10),122,193,355,58,53,36,,60,58,33,13,14,10,0.4,0.3
2025-03-25T0900,3248A,98.2643,39.7724,嘉峪关市,雄关区,颗粒物(PM10),90,130,187,36,39,36,,40,39,43,20,6,4,0.6,0.5
2025-03-25T0900,1383A,113.1064,22.6058,江门市,北街,,49,49,56,26,34,71,,59,59,24,22,3,5,0.8,0.7
2025-03-25T0900,1384A,113.0731,22.5835,江门市,西区,,,,71,39,40,83,,82,81,31,31,7,9,0.6,0.6
2025-03-25T0900,1385A,113.0219,22.5311,江门市,圭峰西,,,36,58,18,34,,,52,52,14,19,6,7,0.5,0.5
2025-03-25T0900,1386A,113.0828,22.5947,江门市,东湖,,46,46,60,28,38,91,,80,80,26,24,10,10,0.6,0.5
2025-03-25T0900,3311A,113.1075,22.5647,江门市,江海富民,颗粒物(PM10),68,85,77,39,32,68,,61,60,27,25,8,9,0.7,0.6
2025-03-25T0900,3449A,113.05,22.4667,江门市,新会银湖,细颗粒物(PM2.5),69,69,63,50,40,42,,13,13,47,35,10,6,0.6,0.5
2025-03-25T0900,1830A,113.1992,35.2590,焦作市,影视城,,,,165,,53,,,,,,23,,17,,0.6
2025-03-25T0900,3169A,113.2725,35.2067,焦作市,太极体育中心,颗粒物(PM10),148,245,450,76,120,43,,54,54,41,32,14,14,0.6,0.5
2025-03-25T0900,3335A,113.3137,35.2641,焦作市,马村街道办,颗粒物(PM10),183,315,420,107,124,34,,58,56,47,28,18,14,0.8,0.6
2025-03-25T0900,3336A,113.2465,35.2373,焦作市,焦作技师学院,颗粒物(PM10),161,272,471,63,104,47,,64,60,34,27,14,10,0.8,0.6
2025-03-25T0900,3477A,113.1656,35.2539,焦作市,中站许衡医院,颗粒物(PM10),139,227,381,76,96,55,,75,68,40,22,22,12,1.4,0.7
2025-03-25T0900,3981A,113.2449,35.1803,焦作市,原李万街道办,颗粒物(PM10),138,226,444,68,117,37,,46,46,42,35,20,19,0.6,0.5
2025-03-25T0900,4264A,113.2340,35.2190,焦作市,新安路1731号,颗粒物(PM10),151,251,458,76,130,51,,55,55,30,28,12,12,0.8,0.7
2025-03-25T0900,1708A,116.3701,23.5345,揭阳市,新兴,颗粒物(PM10),62,73,79,42,53,90,,73,73,23,28,7,9,0.6,0.7
2025-03-25T0900,1709A,116.3264,23.5443,揭阳市,西马,细颗粒物(PM2.5),75,76,74,55,52,65,,66,62,34,23,10,9,0.7,0.7
2025-03-25T0900,1710A,116.3611,23.5626,揭阳市,东兴,颗粒物(PM10),77,104,88,52,52,70,,66,64,26,21,8,7,0.9,0.9
2025-03-25T0900,1711A,116.4151,23.5294,揭阳市,渔湖,细颗粒物(PM2.5),52,,72,36,44,93,,71,71,20,24,8,10,0.6,0.8
2025-03-25T0900,3320A,116.403,23.5699,揭阳市,曲溪,颗粒物(PM10),65,79,84,40,48,66,,76,73,46,35,11,9,0.8,0.8
2025-03-25T0900,1944A,102.1692,38.5167,金昌市,天庆家园,颗粒物(PM10),305,424,449,128,131,49,,70,65,34,12,52,33,0.9,0.8
2025-03-25T0900,4022A,102.1647,38.5371,金昌市,金川区人防中心,颗粒物(PM10),496,596,586,130,124,24,,71,62,85,20,50,30,0.8,0.6
2025-03-25T0900,4239A,102.1930,38.5319,金昌市,长春路96号,颗粒物(PM10),500,660,616,139,138,55,,72,68,43,13,108,50,2.3,0.8
2025-03-25T0900,1262A,119.647,29.077,金华市,十五中,颗粒物(PM10),76,101,70,52,30,55,,73,67,54,29,9,8,0.6,0.4
2025-03-25T0900,1263A,119.686,29.1029,金华市,监测站,颗粒物(PM10),67,83,74,41,32,58,,71,69,45,26,7,7,0.4,0.3
2025-03-25T0900,3659A,119.656,29.1131,金华市,气象局,颗粒物(PM10),63,75,53,43,33,45,,41,36,58,35,9,8,0.6,0.4
2025-03-25T0900,1767A,121.1115,41.0879,锦州市,南山,颗粒物(PM10),55,60,50,16,11,79,,67,67,23,19,22,16,0.7,0.6
2025-03-25T0900,1768A,121.0604,40.8428,锦州市,开发区,颗粒物(PM10),58,65,60,12,11,81,,64,64,23,21,9,14,0.6,0.6
2025-03-25T0900,1769A,121.1836,41.1119,锦州市,百股街道,颗粒物(PM10),53,56,65,12,13,80,,71,71,21,22,8,32,0.5,0.5
2025-03-25T0900,1770A,121.1178,41.1222,锦州市,天安街道,颗粒物(PM10),53,55,52,14,13,79,,69,69,23,20,19,21,0.5,0.5
2025-03-25T0900,1771A,121.1303,41.1386,锦州市,北湖公园,,,75,48,13,13,76,,69,69,27,21,,19,0.6,0.6
2025-03-25T0900,2160A,112.85,35.5051,晋城市,自来水公司,颗粒物(PM10),191,331,442,102,114,20,,29,28,58,30,16,10,2.5,0.8
2025-03-25T0900,2161A,112.8318,35.4936,晋城市,白云商贸,颗粒物(PM10),181,311,433,88,121,17,,27,26,58,32,11,8,2.1,0.7
2025-03-25T0900,2162A,112.8508,35.4887,晋城市,市环保局,颗粒物(PM10),279,405,441,110,115,21,,25,24,55,32,14,7,2.3,0.6
2025-03-25T0900,2163A,112.8676,35.4897,晋城市,技术学院,颗粒物(PM10),194,338,443,110,118,19,,20,20,51,27,17,9,2.5,1
2025-03-25T0900,2165A,112.8453,35.546,晋城市,白马寺,,,,,,,,,,,,,,,,
2025-03-25T0900,3620A,112.8271,35.4828,晋城市,泽州一中,颗粒物(PM10),184,317,485,97,149,34,,43,41,45,23,15,11,1.8,0.7
2025-03-25T0900,2173A,112.7249,37.7067,晋中市,南都小区,颗粒物(PM10),500,631,560,82,111,98,,97,97,9,12,4,8,0.4,0.4
2025-03-25T0900,2174A,112.6991,37.6982,晋中市,榆次区政府,颗粒物(PM10),500,657,576,63,102,95,,96,96,11,13,4,10,0.4,0.4
2025-03-25T0900,2865A,112.7195,37.6828,晋中市,榆次三中,颗粒物(PM10),500,703,620,97,126,99,,99,99,7,12,2,8,0.2,0.4
2025-03-25T0900,4200A,112.7478,37.6954,晋中市,迎宾街26号,颗粒物(PM10),500,630,584,105,133,102,,101,101,8,12,4,8,0.3,0.4
2025-03-25T0900,2439A,112.2014,31.0481,荆门市,竹园小学,颗粒物(PM10),68,86,76,42,38,87,,106,101,20,13,7,6,0.6,0.4
2025-03-25T0900,2440A,112.1969,30.9891,荆门市,掇刀,,,,77,,36,,,112,,,14,,7,,0.4
2025-03-25T0900,2441A,112.2213,31.0386,荆门市,石化一小,颗粒物(PM10),68,85,79,36,37,85,,78,76,17,18,13,10,0.4,0.3
2025-03-25T0900,3012A,112.1849,31.0362,荆门市,西山林语,细颗粒物(PM2.5),62,71,66,44,36,76,,96,91,22,13,7,5,0.1,0.2
2025-03-25T0900,3547A,112.1632,31.0138,荆门市,龙泉中学南校,颗粒物(PM10),67,84,76,45,38,75,,84,81,18,10,9,8,0.5,0.5
2025-03-25T0900,1844A,112.2494,30.3197,荆州市,市图书馆,细颗粒物(PM2.5),64,58,56,46,41,60,,82,77,28,20,10,9,0.6,0.5
2025-03-25T0900,1845A,112.2008,30.3544,荆州市,市委党校,细颗粒物(PM2.5),67,66,60,48,40,62,,81,76,24,18,11,9,0.5,0.4
2025-03-25T0900,3194A,112.2747,30.3122,荆州市,管委会,细颗粒物(PM2.5),69,76,63,50,42,65,,87,81,23,15,11,11,0.4,0.4
2025-03-25T0900,4268A,112.1722,30.3366,荆州市,学苑路85号,细颗粒物(PM2.5),70,64,48,51,42,51,,70,65,30,17,14,9,0.6,0.5
2025-03-25T0900,2342A,117.3102,29.3867,景德镇市,王港中学,,,,,,,,,,,,,,,,
2025-03-25T0900,2343A,117.2117,29.2933,景德镇市,老干部活动中心,颗粒物(PM10),57,64,70,33,37,46,,30,30,27,31,8,10,0.4,0.4
2025-03-25T0900,2344A,117.1894,29.2789,景德镇市,兽医站,颗粒物(PM10),62,74,75,27,32,48,,36,36,24,21,4,8,0.6,0.5
2025-03-25T0900,2345A,117.1547,29.2617,景德镇市,台达陶瓷,颗粒物(PM10),56,61,95,28,37,56,,40,40,22,36,6,20,0.6,0.6
2025-03-25T0900,2346A,117.2461,29.2956,景德镇市,陶研所,颗粒物(PM10),57,64,62,37,39,52,,33,33,29,26,4,4,0.8,0.9
2025-03-25T0900,1803A,115.9872,29.6815,九江市,十里,颗粒物(PM10),57,64,66,38,44,70,,48,48,37,32,7,4,0.6,0.6
2025-03-25T0900,1804A,115.9584,29.7046,九江市,茅山头,颗粒物(PM10),72,93,83,35,35,68,,46,46,40,46,8,6,0.6,0.5
2025-03-25T0900,1805A,115.9877,29.7295,九江市,西园,颗粒物(PM10),63,76,78,43,42,42,,27,27,86,65,12,9,0.9,0.8
2025-03-25T0900,1808A,115.9114,29.6038,九江市,综合工业园,颗粒物(PM10),68,85,72,39,39,94,,76,76,30,45,12,9,0.7,0.7
2025-03-25T0900,1809A,116.0721,29.7535,九江市,石化总厂,细颗粒物(PM2.5),59,62,59,42,44,77,,74,74,30,25,18,16,0.7,0.6
2025-03-25T0900,1810A,115.9773,29.5698,九江市,庐山气象台,,41,41,48,22,26,122,,129,128,2,4,6,7,0.8,0.8
2025-03-25T0900,3190A,116.0254,29.6994,九江市,外国语学校,颗粒物(PM10),64,78,65,41,35,48,,57,57,59,37,5,4,0.9,0.6
2025-03-25T0900,4253A,116.0102,29.6594,九江市,莲花大道8号,颗粒物(PM10),52,54,60,32,36,60,,83,78,40,12,8,8,0.6,0.5
2025-03-25T0900,4240A,98.4958,39.7339,酒泉市,玉门东路5号,颗粒物(PM10),104,158,447,39,65,51,,54,51,14,7,9,9,0.3,0.3
2025-03-25T0900,4241A,98.5099,39.7506,酒泉市,北大街108号,颗粒物(PM10),111,171,330,37,65,38,,49,44,31,12,11,11,0.5,0.4
2025-03-25T0900,2698A,76.0072,39.4467,喀什地区,巡警大队,颗粒物(PM10),86,121,116,29,32,49,,17,17,34,52,6,8,0.7,1
2025-03-25T0900,2699A,75.9755,39.4694,喀什地区,吾办,颗粒物(PM10),78,106,112,27,37,62,,25,25,22,46,4,5,0.6,1
2025-03-25T0900,4027A,75.9483,39.4689,喀什地区,老干局,颗粒物(PM10),91,131,138,30,42,66,,26,26,18,49,6,6,0.5,0.9
2025-03-25T0900,1824A,114.3389,34.7781,开封市,肿瘤医院,颗粒物(PM10),84,117,370,42,91,59,,70,68,34,21,9,8,0.7,0.6
2025-03-25T0900,1826A,114.2885,34.7965,开封市,世纪星幼儿园,颗粒物(PM10),500,690,412,45,118,66,,69,69,35,28,7,5,0.7,0.6
2025-03-25T0900,3147A,114.3438,34.8106,开封市,龙亭公园,颗粒物(PM10),84,118,214,30,37,67,,71,71,36,31,7,5,1.1,1
2025-03-25T0900,3210A,114.3644,34.7964,开封市,汴京公园,"颗粒物(PM10),细颗粒物(PM2.5)",77,104,392,56,102,66,,74,74,38,28,9,6,0.8,0.6
2025-03-25T0900,3473A,114.2485,34.8306,开封市,技师学院,颗粒物(PM10),77,103,371,55,99,63,,80,79,36,23,14,11,1.0,0.8
2025-03-25T0900,3592A,114.4644,34.7556,开封市,祥符区生态环境局,颗粒物(PM10),90,129,405,53,104,67,,72,72,29,25,8,6,1.0,0.8
2025-03-25T0900,1951A,84.895,45.6094,克拉玛依市,长征新村,,35,26,11,8,7,111,,98,98,18,12,8,8,0.2,0.2
2025-03-25T0900,1952A,84.8988,45.5893,克拉玛依市,南林小区,,28,19,11,8,7,89,,94,93,2,5,3,2,0.2,0.2
2025-03-25T0900,1954A,84.905,44.3396,克拉玛依市,独山子区,颗粒物(PM10),91,132,28,6,13,81,,78,78,2,6,5,7,0.3,0.4
2025-03-25T0900,1955A,85.6979,46.098,克拉玛依市,乌尔禾区商贸楼,,49,49,19,3,7,84,,82,80,3,5,4,5,0.2,0.3
2025-03-25T0900,3612A,85.1045,45.6899,克拉玛依市,白碱滩区新站,,28,,9,6,6,89,,88,87,2,7,8,9,0.6,0.5
2025-03-25T0900,2697A,76.1454,39.7142,克孜勒苏柯尔克孜自治州,市人民政府,颗粒物(PM10),58,66,48,11,15,88,,,,3,6,5,7,0.4,0.4
2025-03-25T0900,3665A,76.1658,39.7157,克孜勒苏柯尔克孜自治州,克州文化中心,颗粒物(PM10),139,228,77,3,16,94,,88,88,2,8,8,8,0.4,0.4
2025-03-25T0900,1450A,102.8204,24.8886,昆明市,呈贡新区,细颗粒物(PM2.5),62,70,41,44,29,36,,78,71,61,23,9,7,0.8,0.4
2025-03-25T0900,1451A,102.6251,24.9608,昆明市,西山森林公园,,,,,,,,,,,,,,,,
2025-03-25T0900,1452A,102.7252,25.0902,昆明市,龙泉镇,,46,46,37,24,21,44,,21,21,53,45,8,8,0.7,0.6
2025-03-25T0900,1453A,102.7266,25.0375,昆明市,东风东路,细颗粒物(PM2.5),54,48,34,38,24,23,,74,65,79,26,10,10,0.9,0.5
2025-03-25T0900,1454A,102.6742,25.0669,昆明市,金鼎山,,35,28,37,24,20,99,,80,80,23,25,8,9,0.5,0.5
2025-03-25T0900,1455A,102.6644,25.0401,昆明市,碧鸡广场,,39,39,36,23,24,76,,75,75,41,27,8,9,0.7,0.4
2025-03-25T0900,3179A,102.7494,25.0119,昆明市,官渡区博物馆,细颗粒物(PM2.5),62,60,42,44,24,14,,55,44,81,30,10,8,1.1,0.5
2025-03-25T0900,3375A,102.8017,24.8336,昆明市,青年创业园,,50,50,39,33,26,50,,37,35,36,27,9,8,0.6,0.5
2025-03-25T0900,3550A,102.7997,24.9786,昆明市,昆明学院,颗粒物(PM10),71,91,55,47,30,24,,27,18,69,33,8,7,0.9,0.4
2025-03-25T0900,3551A,102.5967,24.6736,昆明市,晋宁区生态环境分局,,40,22,25,14,23,128,,114,114,6,6,5,6,0.3,0.3
2025-03-25T0900,3552A,102.6678,24.9856,昆明市,云天化总部,,37,37,31,23,19,85,,66,64,37,25,19,10,0.7,0.3
2025-03-25T0900,1456A,91.1319,29.6514,拉萨市,八廓街,,20,12,13,8,8,62,,64,64,18,16,14,8,0.5,0.4
2025-03-25T0900,1457A,91.1221,29.6747,拉萨市,市环保局,,17,17,16,8,9,49,,55,55,24,18,14,8,0.6,0.6
2025-03-25T0900,1458A,91.0874,29.6475,拉萨市,区监测站,,18,11,11,7,7,46,,57,56,36,21,14,7,0.5,0.4
2025-03-25T0900,1459A,91.1774,29.6541,拉萨市,西藏大学,,18,7,11,6,7,56,,63,62,17,15,11,8,0.6,0.6
2025-03-25T0900,1460A,90.9798,29.6588,拉萨市,区辐射站,,15,13,12,9,7,48,,73,68,29,14,8,8,0.5,0.5
2025-03-25T0900,1461A,91.0834,29.6292,拉萨市,拉萨火车站,,23,17,10,7,7,22,,64,58,46,13,4,4,0.6,0.3
2025-03-25T0900,2520A,109.2203,23.7256,来宾市,来宾技工学校,细颗粒物(PM2.5),62,65,81,44,52,56,,87,79,27,20,8,12,0.8,0.8
2025-03-25T0900,3535A,109.1781,23.7297,来宾市,兴宾区政府,细颗粒物(PM2.5),59,58,82,42,52,73,,97,90,14,18,9,10,0.8,0.9
2025-03-25T0900,4002A,109.2416,23.7461,来宾市,中南小学,细颗粒物(PM2.5),67,67,88,48,58,55,,75,68,22,22,9,9,0.8,0.8
2025-03-25T0900,1477A,104.1373,35.9454,兰州市,榆中兰大校区,,,,,,,,,,,,,,,,
2025-03-25T0900,1479A,103.831,36.0464,兰州市,铁路设计院,颗粒物(PM10),135,219,96,45,30,11,,9,9,76,74,21,17,2.0,1.5
2025-03-25T0900,3241A,103.7439,36.0842,兰州市,百合公园,颗粒物(PM10),170,290,122,69,34,8,,7,7,58,50,10,14,1.2,0.7
2025-03-25T0900,3242A,103.9611,35.998,兰州市,和平,颗粒物(PM10),157,264,122,74,39,26,,62,60,62,24,22,15,1.2,0.7
2025-03-25T0900,4236A,103.6293,36.0938,兰州市,庄浪东路808号,颗粒物(PM10),146,242,143,80,53,26,,36,36,44,47,105,24,1.2,0.5
2025-03-25T0900,4237A,103.7251,36.1043,兰州市,安宁西路88号,颗粒物(PM10),216,361,152,73,51,,,5,5,53,49,23,16,0.7,0.5
2025-03-25T0900,4238A,103.8470,36.0676,兰州市,北滨河东路1号,颗粒物(PM10),157,264,121,61,39,11,,6,6,60,63,23,16,2.0,1.2
2025-03-25T0900,3245A,103.6633,36.533,兰州新区,新区管委会,颗粒物(PM10),195,339,274,118,81,34,,56,53,36,16,25,15,0.7,0.5
2025-03-25T0900,3246A,103.6975,36.4789,兰州新区,舟曲中学,颗粒物(PM10),500,664,368,165,88,26,,56,49,44,15,26,11,0.8,0.4
2025-03-25T0900,1067A,116.6708,39.5111,廊坊市,药材公司,颗粒物(PM10),94,138,71,35,19,81,,52,52,6,17,2,4,0.3,0.3
2025-03-25T0900,1068A,116.7214,39.5589,廊坊市,开发区,颗粒物(PM10),95,139,88,26,16,83,,52,52,8,21,2,3,0.2,0.3
2025-03-25T0900,1070A,116.7244,39.5269,廊坊市,北华航天学院,颗粒物(PM10),101,151,70,20,15,79,,51,51,4,18,,5,,0.3
2025-03-25T0900,2919A,116.7022,39.5453,廊坊市,河北工业大学,颗粒物(PM10),91,132,68,13,13,83,,53,53,3,14,6,6,0.2,0.3
2025-03-25T0900,2535A,103.7723,29.5462,乐山市,花湖湾,细颗粒物(PM2.5),67,71,64,48,45,19,,27,25,34,32,10,11,0.9,0.8
2025-03-25T0900,2536A,103.7627,29.5844,乐山市,牛耳桥,细颗粒物(PM2.5),58,59,54,41,37,7,,3,3,30,35,6,7,0.9,0.7
2025-03-25T0900,2537A,103.7508,29.6006,乐山市,市第三水厂,细颗粒物(PM2.5),57,61,54,40,36,9,,7,7,27,32,4,4,0.9,0.6
2025-03-25T0900,2538A,103.7571,29.5664,乐山市,市监测站,颗粒物(PM10),59,68,57,41,42,14,,15,14,33,29,10,8,1.5,0.8
2025-03-25T0900,3361A,103.7311,29.5628,乐山市,理工大学,细颗粒物(PM2.5),60,64,59,43,40,14,,12,12,38,33,8,7,1.3,0.7
2025-03-25T0900,2598A,100.2143,26.8576,丽江市,西南郊,,,,,,,,,,,,,,,,
2025-03-25T0900,2599A,100.2497,26.8802,丽江市,丽江古城,,24,23,23,15,14,76,,92,89,11,11,8,8,0.5,0.5
2025-03-25T0900,2600A,100.2203,26.8906,丽江市,市中心,,42,42,20,29,17,47,,75,68,37,18,14,10,0.8,0.6
2025-03-25T0900,1267A,119.914,28.4514,丽水市,监测站大楼,颗粒物(PM10),53,55,58,31,33,49,,30,30,36,32,4,5,0.6,0.6
2025-03-25T0900,1268A,119.93,28.4586,丽水市,莲都小学,颗粒物(PM10),57,63,66,30,27,51,,30,28,39,35,4,5,0.5,0.4
2025-03-25T0900,1269A,119.879,28.4231,丽水市,余庄前,颗粒物(PM10),59,67,55,40,31,43,,21,21,36,21,7,6,0.5,0.4
2025-03-25T0900,1173A,119.176,34.5885,连云港市,市环境监测站,颗粒物(PM10),84,117,184,46,45,105,,82,82,19,20,11,14,0.5,0.5
2025-03-25T0900,3000A,119.3581,34.6972,连云港市,德源药业,颗粒物(PM10),89,127,198,34,41,128,,95,95,9,22,11,12,0.4,0.5
2025-03-25T0900,3007A,119.178,34.844,连云港市,新城一中,颗粒物(PM10),109,168,142,63,50,81,,65,65,28,31,10,11,0.9,0.9
2025-03-25T0900,3008A,119.3608,34.7519,连云港市,胡沟管理处,颗粒物(PM10),70,90,138,36,40,107,,106,106,24,32,12,14,0.7,0.6
2025-03-25T0900,3009A,119.1478,34.5911,连云港市,矿山设计院,颗粒物(PM10),90,129,192,41,42,92,,84,84,32,27,20,13,0.6,0.6
2025-03-25T0900,3434A,119.2413,34.6539,连云港市,工贸学校,颗粒物(PM10),111,172,184,53,50,105,,94,94,22,20,11,12,0.7,0.7
2025-03-25T0900,3664A,119.4172,34.7341,连云港市,连云街道,颗粒物(PM10),102,153,205,41,52,128,,110,110,15,19,7,9,0.8,0.8
2025-03-25T0900,2571A,102.3431,27.8099,凉山彝族自治州,青龙寺,,24,24,22,6,8,48,,56,54,11,10,6,8,0.8,0.8
2025-03-25T0900,2572A,102.2721,27.8415,凉山彝族自治州,邛海宾馆,,,20,26,20,15,,,56,53,17,15,4,7,0.6,0.7
2025-03-25T0900,2573A,102.2625,27.898,凉山彝族自治州,西昌市政府,,19,19,26,12,19,49,,66,63,16,13,7,10,0.8,0.8
2025-03-25T0900,2574A,102.2685,27.8851,凉山彝族自治州,凉山州政府,,27,27,31,16,19,40,,64,59,30,18,6,8,0.7,0.6
2025-03-25T0900,4229A,102.2342,27.8859,凉山彝族自治州,凯乐南路30号,,30,30,31,16,16,30,,36,30,39,29,8,10,0.8,0.8
2025-03-25T0900,2212A,123.2,41.1953,辽阳市,宏伟区,颗粒物(PM10),88,126,81,37,25,78,,79,78,30,19,19,16,1.1,0.8
2025-03-25T0900,2213A,123.1683,41.2495,辽阳市,新华园,颗粒物(PM10),83,116,95,53,74,68,,55,55,38,30,20,21,1.4,1.1
2025-03-25T0900,2214A,123.2354,41.2639,辽阳市,滨河路,颗粒物(PM10),78,106,86,43,33,67,,66,66,41,30,22,14,1.3,0.8
2025-03-25T0900,2215A,123.149,41.2991,辽阳市,铁西工业园,颗粒物(PM10),82,114,96,40,36,65,,52,52,44,36,23,17,1.5,0.9
2025-03-25T0900,2227A,125.1358,42.8845,辽源市,环保局,细颗粒物(PM2.5),149,146,112,114,71,,,63,63,58,32,14,12,1.0,0.7
2025-03-25T0900,3239A,125.0764,42.9078,辽源市,银鹰制药,细颗粒物(PM2.5),110,110,96,83,70,54,,64,64,51,34,44,13,1.1,0.9
2025-03-25T0900,1625A,115.9848,36.4372,聊城市,区政府,颗粒物(PM10),159,268,221,72,52,51,,65,62,38,25,12,11,0.7,0.5
2025-03-25T0900,2878A,116.0072,36.4343,聊城市,聊大东校,颗粒物(PM10),223,366,282,81,62,51,,66,63,34,23,11,10,0.8,0.7
2025-03-25T0900,3200A,115.9819,36.4978,聊城市,监控中心,颗粒物(PM10),195,339,302,70,54,42,,66,60,34,20,15,14,0.7,0.6
2025-03-25T0900,3513A,116.0445,36.4361,聊城市,九州社区,颗粒物(PM10),200,350,263,79,50,37,,69,63,42,23,14,12,0.7,0.6
2025-03-25T0900,4018A,116.0567,36.4608,聊城市,星美广场,颗粒物(PM10),197,344,257,78,50,36,,66,60,42,29,15,12,0.7,0.5
2025-03-25T0900,2632A,94.3681,29.6376,林芝市,林芝监测站,,18,12,9,8,6,56,,74,71,19,8,4,4,0.2,0.1
2025-03-25T0900,2633A,94.3616,29.6616,林芝市,林芝人民医院,,33,33,13,18,5,53,,72,69,21,5,7,7,0.4,0.1
2025-03-25T0900,2603A,100.0781,23.8982,临沧市,市环保局,,36,36,41,25,34,37,,50,47,19,13,8,8,0.6,0.5
2025-03-25T0900,2604A,100.0894,23.8822,临沧市,市气象局,细颗粒物(PM2.5),60,,39,43,32,39,,53,49,20,16,8,8,0.5,0.4
2025-03-25T0900,1733A,111.5531,36.0783,临汾市,临钢医院,颗粒物(PM10),314,431,468,94,99,27,,31,28,40,23,8,10,0.8,0.7
2025-03-25T0900,1734A,111.5028,36.0714,临汾市,技工学校,颗粒物(PM10),480,580,419,114,100,72,,38,38,19,26,7,13,0.5,0.6
2025-03-25T0900,1736A,111.5018,36.0855,临汾市,市委,颗粒物(PM10),500,717,475,184,116,85,,39,39,14,26,3,10,0.3,0.5
2025-03-25T0900,3018A,111.505,36.1014,临汾市,唐尧大酒店,颗粒物(PM10),500,607,432,125,100,74,,28,28,16,26,6,12,0.4,0.6
2025-03-25T0900,4244A,111.4879,36.0530,临汾市,启星学校,颗粒物(PM10),500,658,494,124,117,58,,32,32,25,24,4,10,0.4,0.6
2025-03-25T0900,4271A,103.2464,35.6123,临夏回族自治州,滨河东路1号,颗粒物(PM10),81,111,98,49,35,17,,11,11,28,27,8,7,0.8,0.6
2025-03-25T0900,4310A,103.2093,35.5995,临夏回族自治州,新华街21号,颗粒物(PM10),84,118,82,48,38,15,,6,6,33,30,15,12,1.4,0.8
2025-03-25T0900,1618A,118.3429,35.0532,临沂市,沂河小区,颗粒物(PM10),102,153,202,61,47,73,,60,60,22,21,14,16,0.7,0.6
2025-03-25T0900,1619A,118.295,35.0583,临沂市,鲁南制药厂,颗粒物(PM10),112,173,208,56,43,79,,63,63,32,32,16,20,0.5,0.4
2025-03-25T0900,1620A,118.2794,34.9976,临沂市,新光毛纺厂,颗粒物(PM10),108,166,188,56,41,71,,56,56,40,33,14,17,0.8,0.7
2025-03-25T0900,1621A,118.3956,35.0888,临沂市,河东保险公司,颗粒物(PM10),97,144,176,52,44,87,,66,66,30,34,10,11,0.5,0.4
2025-03-25T0900,3370A,118.3564,35.0215,临沂市,十里堡居委,颗粒物(PM10),109,168,195,48,42,73,,59,59,30,27,20,18,0.8,0.7
2025-03-25T0900,3496A,118.3604,35.1084,临沂市,南坊新区,颗粒物(PM10),113,175,202,51,43,75,,66,66,30,26,12,13,0.8,0.7
2025-03-25T0900,3860A,118.3920,35.0300,临沂市,皇山花园小区,颗粒物(PM10),107,163,199,51,44,75,,62,62,27,24,15,16,0.6,0.5
2025-03-25T0900,1870A,109.4856,24.3895,柳州市,柳东小学,细颗粒物(PM2.5),104,90,95,78,74,52,,56,51,43,37,24,22,0.8,0.7
2025-03-25T0900,1871A,109.4157,24.3277,柳州市,环保监测站,细颗粒物(PM2.5),85,69,102,63,68,82,,61,61,16,29,12,15,0.8,1
2025-03-25T0900,1872A,109.389,24.341,柳州市,河西水厂,颗粒物(PM10),75,100,130,46,69,84,,56,56,18,48,12,15,0.8,1.1
2025-03-25T0900,1873A,109.4311,24.2921,柳州市,市四中,细颗粒物(PM2.5),74,75,108,54,65,78,,55,55,25,45,13,16,0.7,1.1
2025-03-25T0900,1874A,109.4006,24.3631,柳州市,市九中,细颗粒物(PM2.5),87,76,109,64,69,87,,52,52,19,29,14,15,0.9,1.1
2025-03-25T0900,1875A,109.4958,24.3134,柳州市,古亭山,细颗粒物(PM2.5),95,99,88,71,47,55,,22,22,47,47,12,16,0.9,0.8
2025-03-25T0900,3402A,109.5422,24.3996,柳州市,市二中,细颗粒物(PM2.5),118,120,105,89,73,42,,30,30,54,51,27,26,0.6,0.5
2025-03-25T0900,2307A,116.5079,31.737,六安市,监测大楼,颗粒物(PM10),59,68,73,29,35,113,,130,127,34,25,10,7,0.8,0.7
2025-03-25T0900,2308A,116.4738,31.7643,六安市,皖西学院,颗粒物(PM10),62,74,86,27,33,120,,132,129,21,15,7,5,0.6,0.5
2025-03-25T0900,2309A,116.4996,31.7905,六安市,朝阳厂,颗粒物(PM10),55,60,76,28,32,115,,128,126,22,19,6,5,0.7,0.6
2025-03-25T0900,2310A,116.5567,31.7886,六安市,开发区,颗粒物(PM10),68,85,107,38,38,122,,102,100,32,30,9,6,0.7,0.6
2025-03-25T0900,2576A,104.8,26.5892,六盘水市,窑上,,48,43,51,33,39,43,,51,49,15,11,5,6,0.7,0.6
2025-03-25T0900,2577A,104.83,26.5917,六盘水市,黄土坡,颗粒物(PM10),76,102,73,50,42,30,,44,41,44,31,23,13,1.3,0.8
2025-03-25T0900,2578A,104.89,26.5939,六盘水市,水钢,细颗粒物(PM2.5),84,110,106,62,59,47,,27,27,38,34,39,21,1.9,1.3
2025-03-25T0900,2579A,104.8475,26.5894,六盘水市,民中,颗粒物(PM10),85,119,77,51,47,18,,29,28,53,39,22,17,1.4,1
2025-03-25T0900,2580A,104.9544,26.5506,六盘水市,双水,颗粒物(PM10),102,153,104,70,55,27,,32,28,33,32,14,14,1.2,0.8
2025-03-25T0900,2335A,117.0189,25.1181,龙岩市,龙岩师专,,,,,,,,,,,,,,,,
2025-03-25T0900,2336A,117.0217,25.1033,龙岩市,龙岩市监测站,,,,,,,,,,,,,,,,
2025-03-25T0900,2337A,117.0258,25.0661,龙岩市,闽西职业技术学院,细颗粒物(PM2.5),79,97,79,58,49,89,,76,76,36,28,45,34,0.5,0.5
2025-03-25T0900,2338A,117.0196,25.0306,龙岩市,龙岩学院,细颗粒物(PM2.5),89,73,60,66,47,101,,109,107,19,14,5,3,0.7,0.7
2025-03-25T0900,2665A,105.0822,33.3261,陇南市,汉王镇固水子,,,,,,,,,,,,,,,,
2025-03-25T0900,2885A,104.9339,33.3826,陇南市,滨江中学,颗粒物(PM10),62,73,53,20,19,34,,46,43,28,13,12,8,0.8,0.5
2025-03-25T0900,3247A,104.955,33.371,陇南市,市总工会,颗粒物(PM10),57,63,44,30,18,37,,63,57,28,7,11,8,0.7,0.3
2025-03-25T0900,2487A,111.9589,27.8901,娄底市,电视发射台,,43,43,48,23,29,75,,68,68,5,6,9,8,0.9,1
2025-03-25T0900,2488A,111.9975,27.725,娄底市,市监测站,细颗粒物(PM2.5),79,95,78,58,47,16,,12,12,51,31,34,16,1.6,0.8
2025-03-25T0900,2489A,112.0194,27.7314,娄底市,市委党校,细颗粒物(PM2.5),83,100,76,61,48,20,,23,22,49,32,8,4,1.3,0.6
2025-03-25T0900,2490A,111.9561,27.7569,娄底市,涟钢,细颗粒物(PM2.5),72,71,87,52,52,41,,34,34,20,27,8,14,0.7,1.2
2025-03-25T0900,2491A,111.9892,27.7044,娄底市,市政府,细颗粒物(PM2.5),68,72,72,49,44,33,,26,26,17,22,9,8,0.4,0.4
2025-03-25T0900,1893A,105.4324,28.9634,泸州市,九狮山,,,,,,,,,,,,,,,,
2025-03-25T0900,1894A,105.4427,28.9063,泸州市,小市上码头,,,,63,,34,,,99,,,38,,7,,0.4
2025-03-25T0900,1895A,105.4241,28.8573,泸州市,兰田宪桥,细颗粒物(PM2.5),75,75,62,55,41,14,,10,10,32,40,7,7,0.7,0.6
2025-03-25T0900,1896A,105.4379,28.8833,泸州市,市环监站,,,,,,,,,,,,,,,,
2025-03-25T0900,4272A,105.3689,28.7783,泸州市,纳溪中医医院,细颗粒物(PM2.5),64,69,71,46,33,15,,22,21,39,32,6,6,0.7,0.5
2025-03-25T0900,2183A,111.1406,37.5211,吕梁市,环保局,颗粒物(PM10),500,980,662,121,150,83,,84,84,6,29,2,3,0.2,0.3
2025-03-25T0900,2185A,111.1297,37.5136,吕梁市,自来水公司,颗粒物(PM10),500,942,638,115,145,78,,83,83,9,25,3,2,0.4,0.5
2025-03-25T0900,2867A,111.1283,37.51,吕梁市,马茂庄小学,颗粒物(PM10),500,1054,701,123,148,84,,84,84,9,33,1,3,0.2,0.3
2025-03-25T0900,1812A,112.3931,34.6516,洛阳市,市委党校,颗粒物(PM10),108,165,342,70,95,24,,26,22,56,27,,6,0.9,0.5
2025-03-25T0900,1815A,112.494,34.6886,洛阳市,河南林校,颗粒物(PM10),129,207,404,81,111,30,,19,15,47,30,,9,1.0,0.7
2025-03-25T0900,1816A,112.3844,34.623,洛阳市,开发区管委会,颗粒物(PM10),106,162,346,65,115,36,,30,30,39,28,7,8,0.5,0.4
2025-03-25T0900,1817A,112.4267,34.6258,洛阳市,市委新办公区,颗粒物(PM10),97,143,332,61,107,50,,35,35,30,23,7,6,0.9,0.8
2025-03-25T0900,3340A,112.6005,34.6326,洛阳市,伊滨,颗粒物(PM10),76,101,294,54,83,49,,61,57,40,21,14,7,0.8,0.6
2025-03-25T0900,3341A,112.4951,34.6332,洛阳市,中移产业园,颗粒物(PM10),103,155,399,57,103,50,,37,35,32,23,10,8,0.8,0.6
2025-03-25T0900,3593A,112.5736,34.8993,洛阳市,吉利监测站,颗粒物(PM10),146,242,457,78,140,58,,54,54,20,27,8,8,0.5,0.5
2025-03-25T0900,3635A,112.3677,34.662,洛阳市,河科大西苑校区,颗粒物(PM10),118,186,380,66,86,28,,14,13,51,30,25,12,1.1,0.7
2025-03-25T0900,3636A,112.4388,34.6781,洛阳市,英才小学,颗粒物(PM10),116,182,366,80,116,33,,14,12,52,35,22,16,0.9,0.6
2025-03-25T0900,4214A,112.4600,34.6949,洛阳市,春都路1号院,颗粒物(PM10),126,201,416,69,100,39,,15,14,52,37,21,13,1.0,0.7
2025-03-25T0900,2399A,114.051,33.5699,漯河市,三五一五工厂,颗粒物(PM10),63,76,240,37,66,98,,100,99,18,13,7,6,0.7,0.6
2025-03-25T0900,2400A,114.0055,33.5698,漯河市,漯河大学,颗粒物(PM10),64,78,217,36,55,91,,96,96,25,17,8,7,0.5,0.4
2025-03-25T0900,2401A,114.0138,33.5828,漯河市,市水利局,颗粒物(PM10),62,73,231,34,64,103,,106,106,14,12,6,5,0.3,0.3
2025-03-25T0900,2402A,114.0261,33.5698,漯河市,市广电局,颗粒物(PM10),63,76,222,39,55,99,,102,102,17,11,7,6,0.5,0.4
2025-03-25T0900,3478A,113.9749,33.5664,漯河市,市图书馆,颗粒物(PM10),66,81,211,46,67,91,,104,103,15,13,5,5,0.5,0.5
2025-03-25T0900,4250A,114.0892,33.5882,漯河市,韶山路11号,颗粒物(PM10),62,73,232,34,65,106,,106,105,18,13,6,6,0.5,0.4
2025-03-25T0900,1798A,118.5092,31.6837,马鞍山市,湖东路四小,颗粒物(PM10),75,99,79,41,38,73,,56,56,54,34,15,12,1.4,0.9
2025-03-25T0900,1799A,118.5024,31.6449,马鞍山市,开发区,颗粒物(PM10),83,116,92,42,42,55,,36,36,69,51,12,8,2.6,1.1
2025-03-25T0900,1802A,118.6245,31.7241,马鞍山市,濮塘,颗粒物(PM10),73,95,87,29,41,115,,80,80,24,23,11,12,1.1,1
2025-03-25T0900,3633A,118.4918,31.6809,马鞍山市,雨山,颗粒物(PM10),81,112,84,46,37,66,,37,36,60,46,20,13,1.7,1
2025-03-25T0900,4191A,118.5274,31.72227,马鞍山市,慈湖高新区,颗粒物(PM10),75,100,77,49,42,56,,61,56,74,38,16,10,1.6,0.9
2025-03-25T0900,1686A,111.0286,21.4688,茂名市,电白南海,"颗粒物(PM10),细颗粒物(PM2.5)",64,78,56,46,37,48,,58,56,16,11,18,5,0.8,0.7
2025-03-25T0900,1687A,110.9294,21.6533,茂名市,茂石化七小,细颗粒物(PM2.5),58,63,67,41,36,52,,55,54,16,16,4,7,0.7,0.6
2025-03-25T0900,1688A,110.9107,21.6687,茂名市,健康路,细颗粒物(PM2.5),62,63,64,44,36,66,,71,70,19,16,17,14,0.7,0.7
2025-03-25T0900,1689A,110.8592,21.6828,茂名市,高岭,颗粒物(PM10),58,66,73,39,36,56,,46,45,16,20,15,16,0.6,0.6
2025-03-25T0900,3450A,111.01,21.5165,茂名市,电白水东,颗粒物(PM10),64,78,51,36,27,46,,67,64,18,6,18,11,0.7,0.5
2025-03-25T0900,2539A,104.0308,30.0478,眉山市,黑龙滩水库,,28,28,29,9,15,41,,42,40,4,5,2,2,0.6,0.6
2025-03-25T0900,2540A,103.8416,30.0874,眉山市,气象局,,,73,70,44,37,10,,8,8,35,39,,8,0.8,0.6
2025-03-25T0900,3137A,103.8578,30.0744,眉山市,市委党校,颗粒物(PM10),67,83,56,39,33,8,,3,3,43,45,12,11,0.7,0.6
2025-03-25T0900,3148A,103.8291,30.0564,眉山市,区人社局,,49,44,48,34,31,8,,8,8,57,50,14,12,1.0,0.7
2025-03-25T0900,1690A,116.1231,24.3284,梅州市,梅江月梅,细颗粒物(PM2.5),89,82,72,66,54,53,,43,42,44,32,6,6,0.7,0.6
2025-03-25T0900,1691A,116.0797,24.2719,梅州市,梅县新城,细颗粒物(PM2.5),79,69,74,58,52,45,,38,37,43,36,7,8,0.9,0.7
2025-03-25T0900,1692A,116.1248,24.2654,梅州市,环境监控中心,细颗粒物(PM2.5),83,71,72,61,48,54,,41,40,51,44,13,9,0.9,0.7
2025-03-25T0900,3315A,116.1233,24.2991,梅州市,梅龙,细颗粒物(PM2.5),79,80,70,58,51,53,,54,52,35,28,9,10,0.9,0.8
2025-03-25T0900,1878A,104.7778,31.4741,绵阳市,富乐山,颗粒物(PM10),54,58,54,35,31,30,,19,19,36,30,3,4,0.7,0.6
2025-03-25T0900,1880A,104.6697,31.4668,绵阳市,高新区自来水公司,颗粒物(PM10),78,105,90,44,39,9,,4,4,60,53,5,5,1.0,0.6
2025-03-25T0900,1881A,104.7287,31.5075,绵阳市,三水厂,颗粒物(PM10),73,96,78,46,41,15,,4,4,50,45,8,7,0.9,0.7
2025-03-25T0900,3491A,104.69,31.5322,绵阳市,西科大附属小学,颗粒物(PM10),67,84,75,38,36,21,,32,31,61,51,8,8,0.9,0.7
2025-03-25T0900,3492A,104.5648,31.5343,绵阳市,安州区旅游局,颗粒物(PM10),67,84,72,36,36,14,,21,20,42,35,6,7,0.8,0.6
2025-03-25T0900,4226A,104.7651,31.4531,绵阳市,绵阳市气象局,细颗粒物(PM2.5),59,62,64,42,32,8,,4,4,56,50,1,4,0.9,0.6
2025-03-25T0900,1784A,129.61,44.561,牡丹江市,环保大楼,细颗粒物(PM2.5),59,66,56,42,39,47,,42,41,27,21,13,7,0.4,0.4
2025-03-25T0900,1785A,129.6115,44.5782,牡丹江市,文化广场,细颗粒物(PM2.5),65,54,65,47,50,39,,40,40,31,22,17,13,0.5,0.4
2025-03-25T0900,1786A,129.5904,44.5963,牡丹江市,第一医院,细颗粒物(PM2.5),60,51,57,43,46,46,,51,48,30,16,19,11,0.2,0.1
2025-03-25T0900,1787A,129.6364,44.6075,牡丹江市,机车工厂,颗粒物(PM10),71,92,63,40,38,47,,38,37,23,15,16,15,0.5,0.5
2025-03-25T0900,1788A,129.6386,44.5462,牡丹江市,第一中学,,,,55,,44,56,,44,43,18,16,14,9,,0.5
2025-03-25T0900,2531A,105.0703,29.61,内江市,市监测站,细颗粒物(PM2.5),85,83,59,63,47,15,,22,20,39,41,11,7,0.6,0.3
2025-03-25T0900,2532A,105.0717,29.5947,内江市,东兴区政府,细颗粒物(PM2.5),74,76,65,54,40,10,,9,9,50,48,9,7,0.9,0.8
2025-03-25T0900,2533A,105.0653,29.5817,内江市,内江二中,细颗粒物(PM2.5),75,69,61,55,44,10,,6,6,42,50,11,9,0.9,0.7
2025-03-25T0900,2534A,105.0406,29.5822,内江市,内江日报社,细颗粒物(PM2.5),75,83,70,55,45,12,,15,15,40,52,15,13,0.8,0.7
2025-03-25T0900,2628A,92.0657,31.4846,那曲市,那曲监测站,颗粒物(PM10),82,114,39,48,25,28,,31,31,25,23,6,6,1.1,1
2025-03-25T0900,3128A,92.0506,31.4797,那曲市,那曲会议中心,,,,,,,,,,,,,,,,
2025-03-25T0900,1290A,115.8931,28.6843,南昌市,省外办,二氧化氮,92,100,95,56,58,19,,6,6,183,93,22,10,0.9,1
2025-03-25T0900,1291A,115.8886,28.7003,南昌市,省林业公司,颗粒物(PM10),78,105,98,48,49,22,,14,14,71,56,19,12,0.2,0.2
2025-03-25T0900,1292A,115.8126,28.7442,南昌市,林科所,,,,73,,37,,,93,,,68,,7,,0.4
2025-03-25T0900,1294A,115.8518,28.687,南昌市,建工学校,细颗粒物(PM2.5),88,116,102,65,57,32,,14,14,76,71,14,8,0.7,0.7
2025-03-25T0900,1295A,115.8921,28.6424,南昌市,象湖,颗粒物(PM10),83,115,95,48,42,14,,4,4,73,59,13,10,0.8,0.9
2025-03-25T0900,1296A,115.7423,28.7996,南昌市,武术学校,,29,,40,20,24,34,,32,30,7,9,6,8,0.6,0.5
2025-03-25T0900,3046A,115.9084,28.6062,南昌市,机电学校,颗粒物(PM10),85,120,105,58,47,31,,12,12,66,60,21,11,0.7,0.7
2025-03-25T0900,3690A,115.9721,28.7031,南昌市,外国语学校,颗粒物(PM10),104,157,110,60,49,14,,4,4,91,53,11,9,0.6,0.3
2025-03-25T0900,4192A,115.9316,28.68677,南昌市,南京东路235号,颗粒物(PM10),102,154,130,57,58,16,,10,10,94,67,17,9,1.0,0.9
2025-03-25T0900,1905A,106.056,30.8064,南充市,西山风景区,颗粒物(PM10),55,60,49,33,32,94,,108,108,15,12,11,6,0.8,0.7
2025-03-25T0900,1906A,106.0789,30.8023,南充市,南充市委,颗粒物(PM10),63,75,70,36,38,42,,33,33,36,42,9,5,0.8,0.8
2025-03-25T0900,1907A,106.1031,30.8217,南充市,南充炼油厂,颗粒物(PM10),71,91,77,50,44,33,,16,16,34,40,5,5,0.6,0.5
2025-03-25T0900,1909A,106.0642,30.7636,南充市,嘉陵区环保局,颗粒物(PM10),67,83,77,44,39,45,,13,13,40,50,8,5,0.5,0.6
2025-03-25T0900,4227A,106.1083,30.7884,南充市,梨树横街98号,颗粒物(PM10),68,85,75,29,29,32,,16,16,40,41,6,7,0.7,0.5
2025-03-25T0900,4304A,106.1172,30.843,南充市,清泉寺北路188号,颗粒物(PM10),65,79,77,29,40,54,,47,47,24,27,8,9,0.4,0.3
2025-03-25T0900,1151A,118.8086,32.1065,南京市,迈皋桥,颗粒物(PM10),64,78,78,39,38,77,,77,77,65,39,43,10,2.3,0.6
2025-03-25T0900,1152A,118.7538,32.0551,南京市,草场门,颗粒物(PM10),73,95,91,41,35,60,,77,72,73,35,28,13,2.3,0.9
2025-03-25T0900,1153A,118.7794,32.0745,南京市,山西路,颗粒物(PM10),84,117,102,34,33,64,,79,76,58,30,22,9,2.5,1
2025-03-25T0900,1154A,118.7752,32.0023,南京市,中华门,颗粒物(PM10),69,88,83,34,34,74,,72,71,63,24,32,18,1.2,0.9
2025-03-25T0900,1155A,118.8109,32.0309,南京市,瑞金路,颗粒物(PM10),76,102,92,39,35,62,,62,60,75,31,6,6,1.4,1
2025-03-25T0900,1156A,118.7997,32.0754,南京市,玄武湖,颗粒物(PM10),68,85,96,32,34,72,,72,72,41,25,18,10,1.3,0.7
2025-03-25T0900,1157A,118.6414,32.0931,南京市,浦口,颗粒物(PM10),71,92,126,29,34,82,,84,84,35,19,11,8,0.6,0.5
2025-03-25T0900,1158A,118.7356,31.9996,南京市,奥体中心,颗粒物(PM10),79,108,93,39,36,80,,82,81,55,35,26,16,1.6,1.1
2025-03-25T0900,1159A,118.9125,32.1028,南京市,仙林大学城,颗粒物(PM10),73,95,101,34,37,63,,67,66,51,33,19,17,1.5,1.2
2025-03-25T0900,3422A,118.8436,31.9198,南京市,江宁彩虹桥,颗粒物(PM10),68,86,92,31,34,67,,61,58,42,26,4,5,0.7,0.7
2025-03-25T0900,3423A,119.0138,31.6494,南京市,溧水永阳,颗粒物(PM10),52,53,63,33,36,105,,92,92,18,19,5,7,0.4,0.6
2025-03-25T0900,3427A,118.8554,32.3578,南京市,六合雄州,颗粒物(PM10),67,84,140,39,41,92,,58,58,48,31,19,8,1.0,0.6
2025-03-25T0900,4249A,118.8708,31.3402,南京市,汶溪路181号,颗粒物(PM10),57,64,78,37,36,111,,98,98,18,18,13,7,0.6,0.6
2025-03-25T0900,1401A,108.3103,22.7881,南宁市,二十一中,细颗粒物(PM2.5),78,71,73,57,49,53,,69,66,23,25,13,11,0.9,0.9
2025-03-25T0900,1402A,108.3141,22.8528,南宁市,北湖,细颗粒物(PM2.5),74,70,76,54,52,41,,68,63,30,25,12,13,0.7,0.7
2025-03-25T0900,1403A,108.3206,22.8225,南宁市,市监测站,细颗粒物(PM2.5),80,,73,59,51,52,,75,71,21,23,16,13,1.0,1
2025-03-25T0900,1404A,108.3829,22.8037,南宁市,大自然花园,细颗粒物(PM2.5),75,66,73,55,48,52,,72,68,22,21,12,10,0.8,0.8
2025-03-25T0900,1405A,108.4394,22.7904,南宁市,仙葫,细颗粒物(PM2.5),69,64,66,50,56,45,,60,56,18,20,6,7,0.7,0.7
2025-03-25T0900,1406A,108.2397,22.8467,南宁市,区农职院,,,,80,53,50,35,,59,53,31,26,12,13,1.0,0.9
2025-03-25T0900,1407A,108.3275,22.735,南宁市,英华嘉园,细颗粒物(PM2.5),84,72,74,62,50,44,,73,67,23,21,13,13,0.7,0.7
2025-03-25T0900,3401A,108.4834,22.7618,南宁市,红星社区,细颗粒物(PM2.5),69,,62,50,46,43,,52,48,14,19,13,14,0.9,0.9
2025-03-25T0900,4221A,108.2177,22.7774,南宁市,乐贤路16号,细颗粒物(PM2.5),88,84,79,65,52,24,,44,39,44,28,13,14,0.9,0.9
2025-03-25T0900,2331A,118.0966,26.6761,南平市,茫荡山,,,,,,,,,,,,,,,,
2025-03-25T0900,2332A,118.1681,26.6369,南平市,南平市监测站,细颗粒物(PM2.5),68,67,64,49,47,55,,37,37,20,25,3,3,0.9,0.9
2025-03-25T0900,2333A,118.1825,26.6489,南平市,南平铝业有限公司,细颗粒物(PM2.5),72,57,62,52,47,48,,37,37,19,23,14,8,0.9,0.8
2025-03-25T0900,2334A,118.1756,26.6272,南平市,南平七中,细颗粒物(PM2.5),72,64,58,52,44,38,,25,25,26,25,7,6,0.9,0.7
2025-03-25T0900,1168A,120.9098,31.9663,南通市,狼山街道,颗粒物(PM10),101,151,98,71,43,35,,10,10,101,69,16,9,1.0,0.7
2025-03-25T0900,1169A,120.86,32.0005,南通市,虹桥,细颗粒物(PM2.5),94,134,103,70,47,34,,13,13,102,97,15,11,1.0,0.8
2025-03-25T0900,1170A,120.87,32.02,南通市,城中,颗粒物(PM10),105,159,127,60,43,50,,22,22,86,93,15,11,1.0,0.9
2025-03-25T0900,1171A,120.94,31.93,南通市,星湖花园,颗粒物(PM10),100,149,113,59,44,39,,12,12,93,73,16,11,0.8,0.7
2025-03-25T0900,1172A,120.81,32.0417,南通市,紫琅学院,颗粒物(PM10),105,159,123,55,42,25,,6,6,95,82,9,9,1.0,0.9
2025-03-25T0900,3291A,121.067,32.062,南通市,通州监测站,颗粒物(PM10),109,168,119,68,45,48,,24,24,87,66,15,8,1.0,0.9
2025-03-25T0900,3432A,120.9348,31.9883,南通市,环境教育馆,颗粒物(PM10),104,158,109,67,42,42,,10,10,94,67,18,11,1.0,0.6
2025-03-25T0900,2404A,112.5224,33.0122,南阳市,瓦房庄,颗粒物(PM10),72,94,85,40,34,54,,78,73,32,15,13,4,0.5,0.5
2025-03-25T0900,2405A,112.5003,32.9735,南阳市,汉画馆,颗粒物(PM10),71,92,80,43,34,53,,73,70,33,22,13,6,0.5,0.4
2025-03-25T0900,2406A,112.5573,33.027,南阳市,气象站,颗粒物(PM10),70,89,88,36,32,79,,83,82,19,17,11,7,0.6,0.5
2025-03-25T0900,2407A,112.5481,32.9689,南阳市,理工学院,颗粒物(PM10),62,74,79,39,32,72,,77,75,15,16,6,5,0.5,0.4
2025-03-25T0900,4008A,112.5234,32.9922,南阳市,卧龙区政府,颗粒物(PM10),75,100,89,51,36,57,,72,69,26,16,14,6,0.5,0.5
2025-03-25T0900,1234A,121.8358,29.911,宁波市,区环保大楼,颗粒物(PM10),94,138,92,56,43,28,,38,22,123,75,24,12,0.9,0.7
2025-03-25T0900,1235A,121.56,29.82,宁波市,万里学院,颗粒物(PM10),63,75,70,42,38,89,,77,73,56,34,14,12,0.7,0.5
2025-03-25T0900,1236A,121.713,29.9572,宁波市,龙赛医院,颗粒物(PM10),73,96,84,41,38,95,,89,86,55,38,11,10,0.7,0.6
2025-03-25T0900,1239A,121.633,29.7733,宁波市,钱湖水厂,颗粒物(PM10),54,57,58,37,33,118,,130,127,20,17,10,9,0.8,0.7
2025-03-25T0900,1240A,121.5856,29.8635,宁波市,太古小学,颗粒物(PM10),65,79,71,42,35,111,,102,101,41,26,12,10,0.7,0.6
2025-03-25T0900,1241A,121.524,29.8674,宁波市,市环境监测中心,颗粒物(PM10),69,88,74,46,39,88,,94,92,75,47,15,10,1.3,0.9
2025-03-25T0900,2871A,121.6147,29.9017,宁波市,万里国际学校,颗粒物(PM10),59,67,63,41,35,120,,124,122,37,23,11,10,0.6,0.5
2025-03-25T0900,3710A,121.5594,29.8975,宁波市,白沙活动中心,颗粒物(PM10),62,73,65,39,36,103,,82,82,50,34,10,9,0.7,0.6
2025-03-25T0900,2339A,119.5001,26.6946,宁德市,金涵水库,,,,,,,,,,,,,,,,
2025-03-25T0900,2341A,119.5388,26.6612,宁德市,宁德市监测站,细颗粒物(PM2.5),75,61,72,55,51,80,,41,41,28,38,10,7,0.8,1.1
2025-03-25T0900,3209A,119.5231,26.6562,宁德市,宁德一中,细颗粒物(PM2.5),78,65,61,57,46,65,,93,87,37,16,6,7,0.8,0.8
2025-03-25T0900,2618A,98.8601,25.8567,怒江傈僳族自治州,州监测站,,30,30,33,20,21,62,,62,62,7,7,4,4,0.3,0.3
2025-03-25T0900,2619A,98.8546,25.8417,怒江傈僳族自治州,泸水一中,,41,41,36,24,24,16,,35,33,24,18,6,6,0.5,0.4
2025-03-25T0900,1888A,101.6891,26.571,攀枝花市,弄弄坪,,45,45,40,19,21,41,,70,63,29,21,12,17,0.6,0.7
2025-03-25T0900,1889A,101.5769,26.5928,攀枝花市,河门口,颗粒物(PM10),54,58,38,27,22,24,,58,50,38,23,18,21,1.1,1
2025-03-25T0900,1890A,101.7169,26.585,攀枝花市,炳草岗,,48,48,38,20,18,24,,57,46,50,31,24,23,0.6,0.6
2025-03-25T0900,1891A,101.7369,26.5008,攀枝花市,仁和,,41,41,31,23,24,38,,44,43,26,21,8,11,0.6,0.6
2025-03-25T0900,2835A,101.7227,26.567,攀枝花市,四十中小,,32,32,39,13,21,42,,90,81,42,25,20,24,0.8,0.8
2025-03-25T0900,1604A,122.0303,41.1489,盘锦市,开发区,,45,45,61,16,16,86,,56,56,20,18,12,14,0.6,0.6
2025-03-25T0900,1605A,122.0485,41.0883,盘锦市,兴隆台,颗粒物(PM10),53,56,63,18,23,79,,46,46,26,25,8,9,0.6,0.7
2025-03-25T0900,1606A,121.8297,41.1028,盘锦市,新生街道,颗粒物(PM10),53,55,51,12,15,87,,47,47,17,27,9,10,0.5,0.5
2025-03-25T0900,1832A,113.3257,33.742,平顶山市,新华旅馆,颗粒物(PM10),79,108,127,37,40,82,,99,94,29,28,8,6,0.3,0.3
2025-03-25T0900,1833A,113.2919,33.737,平顶山市,规划设计院,颗粒物(PM10),69,87,125,38,42,81,,96,92,23,20,10,7,0.4,0.4
2025-03-25T0900,1834A,113.182,33.774,平顶山市,平顶山工学院,颗粒物(PM10),60,69,115,34,40,92,,103,99,10,8,10,8,0.5,0.5
2025-03-25T0900,3204A,113.3025,33.73,平顶山市,规划局,颗粒物(PM10),71,92,133,42,49,78,,100,95,22,18,8,6,0.5,0.5
2025-03-25T0900,3594A,112.8867,33.9116,平顶山市,石龙区,颗粒物(PM10),80,110,191,36,53,68,,75,68,42,28,11,8,0.3,0.3
2025-03-25T0900,2656A,106.6692,35.5461,平凉市,聚贤嘉苑,颗粒物(PM10),60,69,47,24,17,44,,64,62,47,28,11,9,0.7,0.5
2025-03-25T0900,2657A,106.7021,35.5307,平凉市,博物馆,颗粒物(PM10),62,74,56,24,21,48,,55,55,42,25,22,19,0.8,0.6
2025-03-25T0900,2347A,114.0997,27.5002,萍乡市,武功山,细颗粒物(PM2.5),52,41,34,36,27,43,,54,52,11,9,12,11,0.5,0.7
2025-03-25T0900,2348A,113.8385,27.6434,萍乡市,中医院,颗粒物(PM10),72,93,69,33,36,22,,16,16,36,31,18,15,1.7,1.1
2025-03-25T0900,2349A,113.8493,27.6253,萍乡市,市政府车库,细颗粒物(PM2.5),68,84,53,49,42,33,,29,28,42,24,12,8,2.9,0.7
2025-03-25T0900,2350A,113.8676,27.6435,萍乡市,市环保局,细颗粒物(PM2.5),79,89,72,58,47,21,,23,21,55,31,23,10,1.4,0.9
2025-03-25T0900,2351A,113.866,27.6198,萍乡市,安源区政府,细颗粒物(PM2.5),62,61,59,44,33,28,,27,26,42,21,21,13,4.8,1.3
2025-03-25T0900,2319A,119.0141,25.4325,莆田市,荔城区仓后路,细颗粒物(PM2.5),123,117,105,93,70,53,,46,45,45,35,6,6,1.2,1
2025-03-25T0900,2320A,119.0015,25.4553,莆田市,莆田市监测站,细颗粒物(PM2.5),89,,84,66,59,68,,68,64,27,25,5,7,0.8,0.6
2025-03-25T0900,2321A,119.1119,25.4561,莆田市,涵江区六中,细颗粒物(PM2.5),99,86,90,74,66,65,,55,54,36,39,6,6,0.8,0.6
2025-03-25T0900,2322A,119.1013,25.3215,莆田市,秀屿区政府,细颗粒物(PM2.5),100,82,65,75,56,38,,49,46,30,25,6,8,0.6,0.6
2025-03-25T0900,2323A,118.981,25.4792,莆田市,东圳水库,,,,,,,,,,,,,,,,
2025-03-25T0900,2392A,115.0312,35.7636,濮阳市,环保局,颗粒物(PM10),76,102,348,50,83,66,,77,76,30,21,7,6,0.7,0.6
2025-03-25T0900,2394A,115.0574,35.7609,濮阳市,油田运输公司,颗粒物(PM10),105,159,346,42,78,68,,79,78,25,19,8,6,1.0,0.9
2025-03-25T0900,3021A,115,35.7668,濮阳市,濮水河管理处,颗粒物(PM10),115,180,407,46,80,64,,62,61,35,26,8,7,0.7,0.7
2025-03-25T0900,4216A,115.0924,35.7686,濮阳市,任丘路479号,颗粒物(PM10),115,180,362,48,79,72,,85,85,24,19,9,8,0.9,0.7
2025-03-25T0900,2601A,100.98,22.7633,普洱市,市环保局,颗粒物(PM10),52,54,64,22,28,41,,47,46,19,14,4,4,0.7,0.7
2025-03-25T0900,2602A,100.9817,22.8322,普洱市,普洱第二中学,,,,50,25,28,19,,26,26,37,18,6,6,0.6,0.4
2025-03-25T0900,2262A,131.0518,45.8751,七台河市,新一中,,28,28,37,19,21,45,,53,50,19,11,12,11,0.5,0.6
2025-03-25T0900,3345A,131.0577,45.7879,七台河市,中波台,颗粒物(PM10),74,98,52,23,23,45,,48,46,22,18,8,7,0.6,0.6
2025-03-25T0900,3637A,131.0176,45.7761,七台河市,人民广场,颗粒物(PM10),132,213,80,85,37,17,,38,34,52,23,15,9,1.6,0.7
2025-03-25T0900,3684A,130.8781,45.8222,七台河市,新建矿广场,颗粒物(PM10),163,276,67,47,27,8,,32,29,64,21,20,10,1.0,0.5
2025-03-25T0900,1779A,123.9305,47.3636,齐齐哈尔市,安居小区,,42,42,23,11,4,46,,62,59,22,13,10,8,0.4,0.3
2025-03-25T0900,1780A,123.9488,47.3386,齐齐哈尔市,中心广场,颗粒物(PM10),58,65,24,14,7,38,,62,57,29,12,7,6,0.5,0.3
2025-03-25T0900,1781A,123.9483,47.3227,齐齐哈尔市,农牧车辆厂,颗粒物(PM10),62,73,30,9,6,46,,66,63,32,12,15,7,0.3,0.3
2025-03-25T0900,1783A,123.945,47.2988,齐齐哈尔市,市环境监测站,,43,43,25,14,7,50,,63,61,23,13,3,3,0.4,0.3
2025-03-25T0900,3662A,123.6333,47.2075,齐齐哈尔市,富区青少年活动中心,,,,35,,15,,,77,,,11,,7,,0.3
2025-03-25T0900,2591A,107.9783,26.5747,黔东南苗族侗族自治州,市环境监测站,细颗粒物(PM2.5),73,73,63,53,45,14,,29,26,36,30,4,5,0.9,0.5
2025-03-25T0900,2881A,107.8908,26.5311,黔东南苗族侗族自治州,凯里学院,细颗粒物(PM2.5),64,66,59,46,42,21,,32,28,14,15,3,5,0.7,0.7
2025-03-25T0900,2593A,107.5228,26.2403,黔南布依族苗族自治州,小围寨,细颗粒物(PM2.5),58,44,47,41,35,36,,43,39,21,15,17,9,0.8,0.8
2025-03-25T0900,3538A,107.5175,26.2978,黔南布依族苗族自治州,沙坝,细颗粒物(PM2.5),62,61,54,44,36,22,,42,37,23,16,5,6,0.7,0.6
2025-03-25T0900,2589A,104.9022,25.0925,黔西南布依族苗族自治州,场坝街,细颗粒物(PM2.5),70,61,47,51,43,28,,61,54,46,17,169,22,0.9,0.4
2025-03-25T0900,2590A,104.8811,25.0992,黔西南布依族苗族自治州,坪东大道,,49,49,44,32,30,55,,49,46,39,25,4,10,0.7,0.3
2025-03-25T0900,2502A,108.6236,21.9667,钦州市,市环保站,颗粒物(PM10),53,56,67,24,39,37,,46,43,35,32,14,14,0.9,0.9
2025-03-25T0900,2503A,108.6549,21.9481,钦州市,沙埠小学,,48,48,74,28,39,37,,34,32,29,31,9,13,0.7,0.9
2025-03-25T0900,2504A,108.5989,21.7431,钦州市,港区一小,,43,43,73,27,32,59,,54,54,29,28,11,14,1.0,1
2025-03-25T0900,3404A,108.5959,21.9633,钦州市,北职校,颗粒物(PM10),53,56,69,24,40,51,,46,45,26,27,18,15,0.9,0.9
2025-03-25T0900,1043A,119.7493,40.0116,秦皇岛市,第一关,颗粒物(PM10),137,224,57,14,17,78,,60,60,21,34,11,5,0.8,0.3
2025-03-25T0900,1044A,119.5897,39.9499,秦皇岛市,监测站,颗粒物(PM10),62,73,50,12,11,79,,66,66,16,16,11,5,0.8,0.3
