timepoint,stationcode,longitude,latitude,area,positionname,primarypollutant,aqi,pm10,pm10_24h,pm2_5,pm2_5_24h,o3,o3_24h,o3_8h,o3_8h_24h,no2,no2_24h,so2,so2_24h,co,co_24h
2023-07-20T00:00:00,1001A,116.3621,39.8784,北京市,万寿西宫,细颗粒物(PM2.5),58,64,61,41,37,232,120,217,172,25,22,2,2,0.6,0.6
2023-07-20T00:00:00,1002A,116.2202,40.2915,北京市,定陵,颗粒物(PM10),56,61,50,37,29,299,131,245,180,10,10,3,3,0.6,0.5
2023-07-20T00:00:00,1003A,116.4174,39.9289,北京市,东四,颗粒物(PM10),57,64,60,38,34,236,154,224,186,18,20,4,4,0.5,0.5
2023-07-20T00:00:00,1004A,116.4072,39.8863,北京市,天坛,颗粒物(PM10),54,57,61,35,38,228,108,212,165,22,24,2,3,0.4,0.4
2023-07-20T00:00:00,1005A,116.462,39.9365,北京市,农展馆,颗粒物(PM10),57,63,63,31,31,232,159,216,181,19,26,3,3,0.5,0.5
2023-07-20T00:00:00,1006A,116.3392,39.9295,北京市,官园,颗粒物(PM10),56,61,55,38,29,244,141,230,183,13,20,3,2,0.6,0.5
2023-07-20T00:00:00,1007A,116.2878,39.9611,北京市,海淀万柳,颗粒物(PM10),62,73,57,36,30,238,123,224,174,34,30,2,2,0.6,0.5
2023-07-20T00:00:00,1008A,116.6636,40.135,北京市,顺义新城,颗粒物(PM10),71,91,57,49,32,256,65,228,154,43,23,3,2,0.6,0.5
2023-07-20T00:00:00,1009A,116.6275,40.3275,北京市,怀柔镇,颗粒物(PM10),61,71,54,41,30,321,145,262,193,13,18,2,3,0.7,0.6
2023-07-20T00:00:00,1010A,116.2296,40.217,北京市,昌平镇,颗粒物(PM10),59,68,53,39,30,278,137,239,187,15,23,3,3,0.5,0.5
2023-07-20T00:00:00,1011A,116.3966,39.9821,北京市,奥体中心,颗粒物(PM10),57,64,57,36,30,213,139,196,165,19,30,1,3,0.5,0.4
2023-07-20T00:00:00,1012A,116.184,39.9136,北京市,古城,颗粒物(PM10),66,82,59,47,34,224,111,214,172,33,23,3,3,0.6,0.5
2023-07-20T00:00:00,1015A,117.1444,39.1661,天津市,勤俭道,"颗粒物(PM10),细颗粒物(PM2.5)",63,76,66,45,41,238,124,230,188,38,21,10,9,0.7,0.7
2023-07-20T00:00:00,1017A,117.237,39.1082,天津市,大直沽八号路,细颗粒物(PM2.5),93,113,70,69,46,230,111,206,175,34,17,2,3,0.9,0.6
2023-07-20T00:00:00,1018A,117.202,39.0927,天津市,前进道,细颗粒物(PM2.5),82,95,66,60,44,226,110,204,166,38,25,5,6,0.8,0.7
2023-07-20T00:00:00,1019A,117.1837,39.2133,天津市,淮河道,细颗粒物(PM2.5),64,74,65,46,42,230,116,226,183,45,23,7,8,0.7,0.7
2023-07-20T00:00:00,1021A,117.307,39.0877,天津市,跃进路,细颗粒物(PM2.5),103,136,73,77,45,235,111,218,186,42,22,7,7,0.9,0.7
2023-07-20T00:00:00,1023A,117.707,39.0343,天津市,第四大街,细颗粒物(PM2.5),83,99,73,61,46,240,131,226,199,47,27,6,12,1.0,0.9
2023-07-20T00:00:00,1024A,117.457,38.8394,天津市,永明路,细颗粒物(PM2.5),79,86,66,58,43,270,116,239,209,32,27,11,8,0.7,0.6
2023-07-20T00:00:00,1026A,117.764,39.1587,天津市,汉北路,细颗粒物(PM2.5),80,98,77,59,49,274,136,247,204,36,24,7,7,0.9,1
2023-07-20T00:00:00,1027A,117.157,38.9194,天津市,团泊洼,细颗粒物(PM2.5),73,84,62,53,42,218,61,199,148,62,23,2,3,0.6,0.6
2023-07-20T00:00:00,1029A,114.4422,38.0444,石家庄市,职工医院,,,,59,,34,236,,214,212,,14,,8,,0.6
2023-07-20T00:00:00,1030A,114.6063,38.0266,石家庄市,高新区,颗粒物(PM10),51,52,67,28,39,234,105,220,177,28,20,2,4,0.4,0.5
2023-07-20T00:00:00,1031A,114.4898,38.1328,石家庄市,西北水源,,40,31,67,28,32,232,122,218,184,20,25,3,5,0.4,0.5
2023-07-20T00:00:00,1032A,114.4586,38.0058,石家庄市,西南高教,颗粒物(PM10),55,60,60,18,36,226,90,207,168,25,18,2,5,0.5,0.6
2023-07-20T00:00:00,1033A,114.5331,38.0178,石家庄市,世纪公园,,47,47,59,29,35,223,108,204,173,22,18,5,7,0.4,0.6
2023-07-20T00:00:00,1034A,114.509,38.0457,石家庄市,人民会堂,颗粒物(PM10),52,53,65,24,38,242,121,220,191,17,15,4,7,0.4,0.5
2023-07-20T00:00:00,1035A,114.3524,37.8911,石家庄市,封龙山,颗粒物(PM10),51,51,58,17,35,217,141,198,179,10,9,6,5,0.7,0.8
2023-07-20T00:00:00,1037A,118.131,39.6363,唐山市,雷达站,臭氧1小时,90,88,76,51,41,304,192,247,211,14,25,3,4,0.7,0.6
2023-07-20T00:00:00,1038A,118.1725,39.6334,唐山市,物资局,细颗粒物(PM2.5),73,87,65,53,37,293,173,235,200,14,19,3,4,0.7,0.7
2023-07-20T00:00:00,1040A,118.1705,39.6506,唐山市,十二中,细颗粒物(PM2.5),94,96,69,70,47,278,177,233,193,10,17,5,4,0.9,0.8
2023-07-20T00:00:00,1041A,118.1869,39.622,唐山市,小山,细颗粒物(PM2.5),74,84,69,54,40,306,165,232,198,11,18,5,5,0.8,0.8
2023-07-20T00:00:00,1042A,119.5134,39.8207,秦皇岛市,北戴河环保局,颗粒物(PM10),64,77,57,38,26,254,118,233,172,28,15,2,3,1.0,1.1
2023-07-20T00:00:00,1043A,119.7493,40.0116,秦皇岛市,第一关,颗粒物(PM10),77,104,74,48,33,243,80,225,163,45,35,3,4,0.9,1
2023-07-20T00:00:00,1044A,119.5897,39.9499,秦皇岛市,监测站,细颗粒物(PM2.5),64,68,65,46,33,250,110,230,175,31,24,10,7,1.2,0.9
2023-07-20T00:00:00,1046A,119.5251,39.9041,秦皇岛市,建设大厦,颗粒物(PM10),72,94,79,41,29,269,112,250,185,36,23,11,12,0.9,1
2023-07-20T00:00:00,1048A,114.5302,36.6116,邯郸市,东污水处理厂,,33,33,46,22,31,186,74,172,110,16,16,3,5,0.4,0.5
2023-07-20T00:00:00,1049A,114.4918,36.5713,邯郸市,矿院,,44,44,47,27,35,176,70,167,109,12,14,12,15,0.5,0.6
2023-07-20T00:00:00,1050A,114.484,36.6133,邯郸市,丛台公园,,32,32,44,18,28,186,81,175,116,7,11,8,6,0.4,0.6
2023-07-20T00:00:00,1051A,115.493,38.8632,保定市,游泳馆,细颗粒物(PM2.5),52,50,54,36,41,216,140,201,175,17,13,6,7,0.3,0.4
2023-07-20T00:00:00,1052A,115.5213,38.8959,保定市,华电二区,颗粒物(PM10),51,52,50,26,31,213,132,196,169,11,9,6,6,0.2,0.3
2023-07-20T00:00:00,1053A,115.4713,38.9108,保定市,接待中心,,48,48,64,25,35,197,144,187,174,9,11,3,3,0.4,0.5
2023-07-20T00:00:00,1054A,115.4612,38.8416,保定市,地表水厂,颗粒物(PM10),58,65,69,33,38,196,127,186,155,25,23,8,9,0.4,0.5
2023-07-20T00:00:00,1056A,115.5086,38.8639,保定市,监测站,细颗粒物(PM2.5),74,58,72,54,48,214,138,191,173,23,21,7,8,0.4,0.5
2023-07-20T00:00:00,1057A,114.8883,40.8336,张家口市,人民公园,,45,42,38,19,17,220,141,210,193,13,10,1,3,0.4,0.3
2023-07-20T00:00:00,1059A,114.8687,40.8042,张家口市,五金库,臭氧1小时,95,62,47,31,29,214,196,203,200,14,13,6,5,0.6,0.5
2023-07-20T00:00:00,1060A,114.8902,40.762,张家口市,世纪豪园,,,64,48,38,28,221,187,206,195,,11,6,7,0.4,0.3
2023-07-20T00:00:00,1061A,114.8916,40.8661,张家口市,北泵房,颗粒物(PM10),51,52,43,26,19,238,132,223,180,13,9,7,8,0.7,0.7
2023-07-20T00:00:00,1062A,117.9531,40.9081,承德市,铁路,细颗粒物(PM2.5),68,68,58,49,37,213,111,206,174,22,26,6,8,0.7,0.6
2023-07-20T00:00:00,1063A,117.9392,40.9763,承德市,中国银行,"颗粒物(PM10),细颗粒物(PM2.5)",62,74,62,44,36,239,104,229,188,31,20,7,9,0.8,0.6
2023-07-20T00:00:00,1064A,117.9503,40.928,承德市,开发区,颗粒物(PM10),55,60,55,38,30,221,133,212,177,18,23,5,7,0.6,0.6
2023-07-20T00:00:00,1065A,117.8051,40.9655,承德市,文化中心,细颗粒物(PM2.5),67,67,64,48,36,252,128,235,199,34,26,11,29,0.6,0.8
2023-07-20T00:00:00,1066A,117.9268,41.0026,承德市,离宫,颗粒物(PM10),59,68,54,40,34,221,124,205,149,15,14,5,7,0.5,0.6
2023-07-20T00:00:00,1067A,116.6708,39.5111,廊坊市,药材公司,颗粒物(PM10),69,87,78,44,41,223,112,209,154,28,18,6,3,0.5,0.5
2023-07-20T00:00:00,1068A,116.7214,39.5589,廊坊市,开发区,细颗粒物(PM2.5),60,68,64,43,44,216,77,209,153,28,14,3,3,0.5,0.5
2023-07-20T00:00:00,1070A,116.7244,39.5269,廊坊市,北华航天学院,细颗粒物(PM2.5),67,71,69,48,45,223,120,215,174,29,12,7,6,0.5,0.5
2023-07-20T00:00:00,1071A,116.8842,38.2991,沧州市,沧县城建局,颗粒物(PM10),56,61,59,34,36,230,142,208,172,36,20,5,7,0.4,0.4
2023-07-20T00:00:00,1072A,116.8584,38.3254,沧州市,电视转播站,颗粒物(PM10),61,71,56,36,37,228,137,216,177,30,16,2,6,0.5,0.5
2023-07-20T00:00:00,1073A,116.8709,38.3228,沧州市,市环保局,颗粒物(PM10),55,59,55,35,38,221,142,206,172,30,23,6,9,0.4,0.3
2023-07-20T00:00:00,1074A,115.6838,37.7541,衡水市,电机北厂,,48,48,55,14,33,217,120,214,184,14,10,4,6,0.3,0.4
2023-07-20T00:00:00,1075A,115.6303,37.7316,衡水市,市监测站,颗粒物(PM10),56,61,55,22,31,206,92,202,168,32,17,5,9,0.5,0.6
2023-07-20T00:00:00,1077A,114.4704,37.0886,邢台市,达活泉,,43,43,76,13,29,223,86,198,133,6,14,12,16,0.6,0.9
2023-07-20T00:00:00,1078A,114.5062,37.0349,邢台市,邢师高专,颗粒物(PM10),51,52,62,23,34,225,53,202,123,46,32,5,8,0.2,0.6
2023-07-20T00:00:00,1079A,114.5237,37.0851,邢台市,路桥公司,颗粒物(PM10),51,51,62,20,35,232,61,215,133,27,19,6,9,0.4,0.7
2023-07-20T00:00:00,1080A,114.4725,37.0719,邢台市,市环保局,颗粒物(PM10),51,52,73,16,34,243,88,215,142,18,21,4,8,0.4,0.7
2023-07-20T00:00:00,1081A,112.522,37.8873,太原市,尖草坪,臭氧1小时,60,63,60,36,30,249,168,222,190,23,23,10,12,0.7,0.7
2023-07-20T00:00:00,1083A,112.434,38.0108,太原市,上兰,臭氧1小时,60,68,49,40,29,263,168,218,172,10,10,8,9,0.6,0.6
2023-07-20T00:00:00,1084A,112.469,37.7124,太原市,晋源,细颗粒物(PM2.5),62,62,63,44,40,219,164,204,182,26,24,10,8,0.8,0.8
2023-07-20T00:00:00,1085A,112.5583,37.7394,太原市,小店,颗粒物(PM10),64,78,69,39,37,233,165,211,188,27,28,10,8,0.8,0.6
2023-07-20T00:00:00,1086A,112.5369,37.8692,太原市,桃园,臭氧1小时,78,59,55,34,32,246,182,218,192,22,26,9,10,0.8,0.7
2023-07-20T00:00:00,1087A,112.57,37.8195,太原市,坞城,臭氧1小时,103,60,59,35,33,232,206,214,199,14,28,8,10,0.8,0.8
2023-07-20T00:00:00,1088A,112.549,37.9854,太原市,南寨,,,,67,,30,268,,235,194,,33,,9,,0.7
2023-07-20T00:00:00,1090A,111.6507,40.7517,呼和浩特市,呼市一监,颗粒物(PM10),68,85,65,42,31,238,123,222,174,28,22,7,8,0.6,0.6
2023-07-20T00:00:00,1091A,111.6572,40.8033,呼和浩特市,小召,颗粒物(PM10),57,63,59,31,29,231,136,216,186,32,27,10,11,0.5,0.6
2023-07-20T00:00:00,1094A,111.7516,40.8369,呼和浩特市,如意水处理厂,颗粒物(PM10),56,61,61,30,29,245,109,229,187,45,24,9,11,0.6,0.6
2023-07-20T00:00:00,1095A,111.7276,40.8062,呼和浩特市,二十九中,颗粒物(PM10),62,74,60,34,30,241,109,224,183,42,28,8,9,0.7,0.6
2023-07-20T00:00:00,1096A,111.5512,40.7866,呼和浩特市,工大金川校区,颗粒物(PM10),59,68,67,28,30,228,75,207,161,67,33,8,10,0.7,0.7
2023-07-20T00:00:00,1097A,111.717,40.7612,呼和浩特市,化肥厂生活区,颗粒物(PM10),63,76,74,32,31,213,113,198,162,22,25,7,8,0.7,0.7
2023-07-20T00:00:00,1098A,123.6836,41.9339,沈阳市,森林路,,,,70,,40,226,,196,169,,17,,9,,1.4
2023-07-20T00:00:00,1099A,123.505,41.7406,沈阳市,浑南东路,细颗粒物(PM2.5),72,85,76,52,41,261,145,238,206,30,35,12,15,1.8,1.6
2023-07-20T00:00:00,1100A,123.4231,41.6989,沈阳市,新秀街,颗粒物(PM10),66,82,62,42,30,242,142,219,191,26,31,13,19,1.7,1.4
2023-07-20T00:00:00,1102A,123.5903,41.8411,沈阳市,东陵路,细颗粒物(PM2.5),63,58,63,45,36,264,166,240,214,15,19,13,16,1.5,1.3
2023-07-20T00:00:00,1103A,123.4264,41.8467,沈阳市,陵东街,臭氧1小时,62,58,52,42,34,225,169,211,198,12,21,7,12,1.2,1.4
2023-07-20T00:00:00,1104A,123.4114,41.7653,沈阳市,文化路,臭氧1小时,69,73,67,45,36,248,175,225,204,16,26,8,17,1.8,1.4
2023-07-20T00:00:00,1105A,123.4678,41.7867,沈阳市,小河沿,臭氧1小时,60,62,62,40,37,246,168,224,204,18,29,9,13,1.4,1.5
2023-07-20T00:00:00,1106A,123.4017,41.7972,沈阳市,太原街,细颗粒物(PM2.5),77,71,60,56,41,253,169,231,208,15,26,6,14,1.4,1.3
2023-07-20T00:00:00,1108A,123.3783,41.9228,沈阳市,京沈街,臭氧1小时,85,57,73,54,50,227,188,215,204,11,15,8,10,0.9,1
2023-07-20T00:00:00,1109A,121.612,38.9741,大连市,甘井子,细颗粒物(PM2.5),117,115,51,88,34,187,129,176,147,22,24,5,5,0.7,0.6
2023-07-20T00:00:00,1110A,121.565,38.9511,大连市,周水子,细颗粒物(PM2.5),93,61,38,69,33,187,117,175,145,24,23,5,5,0.9,0.7
2023-07-20T00:00:00,1111A,121.5637,38.8845,大连市,星海三站,细颗粒物(PM2.5),88,78,60,65,39,168,131,150,129,13,22,4,4,0.6,0.6
2023-07-20T00:00:00,1112A,121.6302,38.9117,大连市,青泥洼桥,细颗粒物(PM2.5),108,84,46,81,32,180,130,171,138,14,19,5,5,0.9,0.7
2023-07-20T00:00:00,1113A,121.6251,38.8638,大连市,傅家庄,细颗粒物(PM2.5),82,51,42,60,37,180,130,168,152,12,15,8,9,0.8,0.6
2023-07-20T00:00:00,1114A,121.5213,38.8661,大连市,七贤岭,,,,42,,33,195,,187,147,,13,5,6,0.6,0.4
2023-07-20T00:00:00,1115A,121.2529,38.8061,大连市,旅顺,臭氧1小时,54,49,38,24,28,181,163,163,152,18,33,4,5,0.4,0.4
2023-07-20T00:00:00,1116A,121.7485,39.1311,大连市,金州,细颗粒物(PM2.5),60,53,43,43,31,178,98,172,143,19,16,8,9,0.8,0.8
2023-07-20T00:00:00,1117A,121.7811,39.0496,大连市,开发区,细颗粒物(PM2.5),92,65,49,68,37,204,132,177,138,26,42,7,9,0.7,0.7
2023-07-20T00:00:00,1118A,121.9762,39.0631,大连市,双D港,细颗粒物(PM2.5),62,46,46,44,32,188,92,165,128,27,25,8,8,1.0,0.6
2023-07-20T00:00:00,1119A,125.3325,43.9166,长春市,食品厂,,39,39,44,20,20,132,53,115,87,32,35,4,5,0.7,0.7
2023-07-20T00:00:00,1120A,125.2863,43.9027,长春市,客车厂,,45,45,45,24,23,134,56,116,85,27,30,4,4,0.7,0.7
2023-07-20T00:00:00,1121A,125.2841,43.8463,长春市,邮电学院,,44,44,38,20,19,134,24,113,66,18,18,4,4,0.6,0.6
2023-07-20T00:00:00,1122A,125.3716,43.8772,长春市,劳动公园,,47,47,40,19,19,123,55,109,86,22,27,5,5,0.6,0.7
2023-07-20T00:00:00,1123A,125.3297,43.8805,长春市,园林处,,42,42,44,16,16,134,55,118,90,29,31,3,4,0.6,0.7
2023-07-20T00:00:00,1124A,125.4605,43.79,长春市,净月潭,,20,18,22,8,11,112,63,102,84,8,7,3,3,0.4,0.4
2023-07-20T00:00:00,1125A,125.7194,43.515,长春市,甩湾子,,26,24,30,10,14,185,82,137,106,14,11,5,5,0.8,0.8
2023-07-20T00:00:00,1126A,125.3863,43.8447,长春市,经开区环卫处,,39,39,41,14,16,126,52,116,93,28,25,5,5,0.5,0.5
2023-07-20T00:00:00,1127A,125.245,43.7783,长春市,高新区管委会,,36,36,38,21,19,120,47,109,80,20,19,4,4,0.5,0.4
2023-07-20T00:00:00,1128A,125.1761,43.8325,长春市,岱山公园,,42,42,47,26,27,134,51,115,75,30,32,3,3,0.6,0.6
2023-07-20T00:00:00,1129A,126.5422,45.755,哈尔滨市,岭北,,42,41,35,29,21,142,127,131,131,16,19,10,13,0.9,0.7
2023-07-20T00:00:00,1130A,126.561,45.8167,哈尔滨市,松北商大,颗粒物(PM10),56,62,39,28,16,115,57,104,82,36,24,5,5,0.8,0.6
2023-07-20T00:00:00,1131A,126.979,45.5419,哈尔滨市,阿城会宁,,44,44,29,24,12,99,42,87,61,20,14,8,9,0.7,0.6
2023-07-20T00:00:00,1132A,126.599,45.7222,哈尔滨市,南岗学府路,颗粒物(PM10),55,60,52,32,24,121,78,109,99,22,23,7,7,1.0,1
2023-07-20T00:00:00,1133A,126.689,45.7733,哈尔滨市,太平宏伟公园,颗粒物(PM10),57,63,57,28,17,114,87,102,93,29,23,7,6,0.7,0.6
2023-07-20T00:00:00,1134A,126.635,45.7667,哈尔滨市,道外承德广场,颗粒物(PM10),55,59,50,19,8,124,92,111,99,32,33,6,5,0.6,0.7
2023-07-20T00:00:00,1135A,126.685,45.7319,哈尔滨市,香坊红旗大街,细颗粒物(PM2.5),60,67,50,43,26,112,64,102,83,57,36,12,13,0.7,0.7
2023-07-20T00:00:00,1136A,126.6411,45.7258,哈尔滨市,动力和平路,,,64,45,,,123,82,110,98,39,32,11,10,0.7,0.7
2023-07-20T00:00:00,1137A,126.593,45.7478,哈尔滨市,道里建国路,颗粒物(PM10),55,59,44,28,18,126,95,108,105,36,40,7,9,1.2,1.5
2023-07-20T00:00:00,1138A,126.615,45.61,哈尔滨市,平房东轻厂,颗粒物(PM10),56,62,33,24,14,119,82,102,95,12,16,8,8,0.9,0.8
2023-07-20T00:00:00,1139A,126.595,45.9855,哈尔滨市,呼兰师专,细颗粒物(PM2.5),84,86,38,62,17,127,95,114,101,21,22,8,8,0.8,0.6
2023-07-20T00:00:00,1140A,126.6206,45.6842,哈尔滨市,省农科院,颗粒物(PM10),61,71,50,26,18,129,60,115,90,62,39,15,14,0.7,0.6
2023-07-20T00:00:00,1141A,121.4,31.238,上海市,普陀,,20,20,22,8,8,98,43,67,40,22,27,4,6,0.4,0.5
2023-07-20T00:00:00,1142A,121.478,31.2036,上海市,十五厂,,25,25,18,9,10,95,49,64,40,11,14,8,8,0.3,0.4
2023-07-20T00:00:00,1143A,121.467,31.3008,上海市,虹口,,18,18,17,11,8,73,30,53,39,23,20,7,8,0.5,0.5
2023-07-20T00:00:00,1144A,121.412,31.1654,上海市,徐汇上师大,,48,48,21,8,6,103,46,73,42,19,20,4,4,0.7,0.7
2023-07-20T00:00:00,1145A,121.536,31.2659,上海市,杨浦四漂,,26,26,19,7,6,71,28,50,33,28,20,6,6,0.3,0.3
2023-07-20T00:00:00,1147A,121.425,31.2261,上海市,静安监测站,,19,19,21,6,9,83,38,57,34,20,26,3,3,0.3,0.3
2023-07-20T00:00:00,1148A,121.703,31.1907,上海市,浦东川沙,,30,30,10,8,6,76,55,64,52,24,16,6,6,0.4,0.3
2023-07-20T00:00:00,1149A,121.533,31.2284,上海市,浦东新区监测站,,19,19,14,5,7,98,50,70,49,19,17,8,7,0.3,0.3
2023-07-20T00:00:00,1150A,121.577,31.2071,上海市,浦东张江,,28,28,15,7,5,90,49,58,43,19,20,5,5,0.5,0.5
2023-07-20T00:00:00,1151A,118.8086,32.1065,南京市,迈皋桥,,20,10,20,14,10,144,60,92,49,12,21,5,4,0.7,0.6
2023-07-20T00:00:00,1152A,118.7538,32.0551,南京市,草场门,,17,12,17,9,8,138,52,92,56,17,22,3,4,0.9,0.7
2023-07-20T00:00:00,1153A,118.7794,32.0745,南京市,山西路,,19,19,22,12,9,146,58,100,59,14,17,4,4,0.5,0.3
2023-07-20T00:00:00,1154A,118.7752,32.0023,南京市,中华门,,18,5,18,7,9,127,55,112,48,5,15,4,6,0.9,0.9
2023-07-20T00:00:00,1155A,118.8109,32.0309,南京市,瑞金路,,20,14,19,14,11,126,51,91,54,7,13,3,4,0.6,0.4
2023-07-20T00:00:00,1156A,118.7997,32.0754,南京市,玄武湖,,18,14,18,6,9,126,56,84,46,11,20,5,6,0.8,0.6
2023-07-20T00:00:00,1157A,118.6414,32.0931,南京市,浦口,,25,15,20,17,12,168,54,106,58,19,22,3,4,1.0,0.8
2023-07-20T00:00:00,1158A,118.7356,31.9996,南京市,奥体中心,,17,1,20,5,13,134,54,96,60,10,18,6,6,0.5,0.5
2023-07-20T00:00:00,1159A,118.9125,32.1028,南京市,仙林大学城,,28,19,19,19,13,131,54,92,53,16,15,7,8,0.8,0.5
2023-07-20T00:00:00,1160A,120.561,31.2472,苏州市,上方山,,25,18,33,17,15,113,8,79,35,24,22,5,17,0.4,0.5
2023-07-20T00:00:00,1162A,120.591,31.3019,苏州市,彩香,,18,18,28,8,15,135,7,86,34,23,21,6,7,0.5,0.6
2023-07-20T00:00:00,1163A,120.596,31.3264,苏州市,轧钢厂,,15,15,29,7,15,97,7,76,29,27,25,8,9,0.5,0.7
2023-07-20T00:00:00,1164A,120.613,31.2703,苏州市,吴中区,,21,16,30,6,15,152,2,95,32,41,32,8,8,0.5,0.6
2023-07-20T00:00:00,1165A,120.543,31.2994,苏州市,苏州新区,,19,16,28,13,18,129,7,84,34,31,25,7,8,0.6,0.7
2023-07-20T00:00:00,1166A,120.669,31.3097,苏州市,苏州工业园区,,16,16,28,7,15,112,6,79,30,27,24,11,10,0.5,0.7
2023-07-20T00:00:00,1167A,120.641,31.3708,苏州市,相城区,,17,16,21,8,13,119,1,78,21,34,26,5,8,0.6,0.8
2023-07-20T00:00:00,1168A,120.9098,31.9663,南通市,狼山街道,,12,6,7,1,1,83,37,68,38,14,13,6,6,0.3,0.4
2023-07-20T00:00:00,1169A,120.86,32.0005,南通市,虹桥,,11,1,7,6,5,98,33,74,37,9,6,7,8,0.6,0.7
2023-07-20T00:00:00,1170A,120.87,32.02,南通市,城中,,13,13,10,9,4,98,32,75,38,6,4,8,9,0.3,0.4
2023-07-20T00:00:00,1171A,120.94,31.93,南通市,星湖花园,,13,0,7,2,1,76,41,61,38,11,10,5,4,0.4,0.4
2023-07-20T00:00:00,1172A,120.81,32.0417,南通市,紫琅学院,,10,9,15,0,2,89,31,65,34,14,15,4,5,0.4,0.6
2023-07-20T00:00:00,1173A,119.176,34.5885,连云港市,市环境监测站,,27,27,25,9,9,135,61,114,80,16,15,6,5,0.3,0.1
2023-07-20T00:00:00,1177A,117.179,34.2761,徐州市,黄河新村,,14,14,22,9,15,71,29,54,35,8,9,6,6,0.4,0.2
2023-07-20T00:00:00,1178A,117.1918,34.2384,徐州市,淮塔,,23,11,25,16,16,73,29,54,33,10,13,8,8,0.8,0.4
2023-07-20T00:00:00,1180A,117.256,34.2153,徐州市,新城区,,,20,32,7,15,78,,59,39,10,9,6,6,0.3,0.2
2023-07-20T00:00:00,1181A,117.244,34.2911,徐州市,桃园路,,10,9,29,3,11,76,31,62,42,8,10,8,8,0.3,0.3
2023-07-20T00:00:00,1182A,117.2933,34.2778,徐州市,农科院,,12,7,20,8,14,69,22,59,35,18,16,5,5,0.2,0.3
2023-07-20T00:00:00,1186A,119.389,32.3761,扬州市,邗江监测站,,29,29,22,14,11,103,10,68,30,32,19,3,5,0.7,0.7
2023-07-20T00:00:00,1188A,120.269,31.4867,无锡市,雪浪,,15,12,25,0,13,151,27,96,40,29,28,2,4,0.6,0.7
2023-07-20T00:00:00,1189A,120.275,31.6219,无锡市,黄巷,,27,22,30,12,14,109,11,79,21,53,37,6,6,0.9,0.8
2023-07-20T00:00:00,1190A,120.294,31.56,无锡市,曹张,,22,22,23,12,14,92,11,73,31,36,20,3,4,0.7,0.7
2023-07-20T00:00:00,1191A,120.242,31.5031,无锡市,漆塘,,20,12,22,14,13,150,22,101,47,28,23,5,6,0.6,0.7
2023-07-20T00:00:00,1192A,120.3489,31.5863,无锡市,东亭,,,,26,,15,124,,84,34,51,30,11,10,0.6,0.6
2023-07-20T00:00:00,1193A,120.354,31.5475,无锡市,旺庄,,19,12,21,7,11,130,15,88,31,38,25,6,7,0.5,0.5
2023-07-20T00:00:00,1194A,120.245,31.5631,无锡市,荣巷,,28,19,24,19,14,102,10,79,35,44,24,8,8,0.5,0.5
2023-07-20T00:00:00,1195A,120.299,31.6817,无锡市,堰桥,,21,19,19,9,11,89,7,75,31,42,21,7,7,0.8,0.7
2023-07-20T00:00:00,1196A,119.9633,31.762,常州市,市监测站,,28,28,35,18,20,91,9,74,33,44,31,6,7,0.9,0.9
2023-07-20T00:00:00,1200A,119.9468,31.7069,常州市,武进监测站,,28,28,32,16,18,119,15,94,41,38,25,13,11,0.8,0.9
2023-07-20T00:00:00,1201A,119.9255,31.9087,常州市,安家,,23,17,31,16,20,107,15,73,22,27,32,4,4,0.6,0.9
2023-07-20T00:00:00,1203A,119.6707,32.1875,镇江市,新区办事处,,35,28,26,24,20,90,5,70,33,46,27,2,3,0.7,0.7
2023-07-20T00:00:00,1204A,119.4974,32.1968,镇江市,职教中心,,25,25,25,15,13,99,16,72,26,34,29,2,3,0.6,0.7
2023-07-20T00:00:00,1205A,119.4303,32.1328,镇江市,丹徒区监测站,,33,33,36,22,24,120,8,91,42,41,24,5,7,0.9,0.8
2023-07-20T00:00:00,1206A,119.905,32.4878,泰州市,公园路,,20,9,9,14,8,93,21,69,30,14,10,8,8,0.6,0.5
2023-07-20T00:00:00,1207A,119.9189,32.4625,泰州市,莲花,,20,20,12,9,10,86,17,65,30,13,9,6,7,0.4,0.3
2023-07-20T00:00:00,1209A,119.888,32.4639,泰州市,留学生创业园,,25,25,19,17,12,88,18,66,33,11,7,7,8,0.7,0.7
2023-07-20T00:00:00,1210A,119.036,33.5981,淮安市,钵池山,,29,29,20,20,14,63,33,57,49,24,16,5,6,0.6,0.5
2023-07-20T00:00:00,1211A,119.007,33.575,淮安市,北京南路,,28,22,21,19,13,62,36,53,44,25,19,7,7,0.7,0.7
2023-07-20T00:00:00,1212A,118.989,33.6067,淮安市,市监测站,,25,24,25,17,8,65,47,47,40,16,17,7,7,0.6,0.6
2023-07-20T00:00:00,1213A,119.135,33.5039,淮安市,楚州区监测站,,24,24,17,16,8,64,29,56,37,20,13,6,6,0.7,0.6
2023-07-20T00:00:00,1214A,119.0186,33.6297,淮安市,淮阴区监测站,,34,34,26,17,10,70,27,60,51,33,16,7,8,0.4,0.3
2023-07-20T00:00:00,1215A,120.118,33.4022,盐城市,盐城电厂,,16,14,18,11,9,92,41,75,54,6,7,4,4,0.4,0.4
2023-07-20T00:00:00,1216A,120.156,33.3942,盐城市,市监测站,,15,13,12,10,8,86,42,75,54,6,6,3,3,0.3,0.2
2023-07-20T00:00:00,1218A,120.2144,33.38,盐城市,开发区管委会,,16,14,14,11,9,79,41,65,52,12,7,4,4,0.3,0.2
2023-07-20T00:00:00,1220A,118.293,33.9528,宿迁市,宿迁学院,,35,26,23,24,21,65,24,54,31,26,14,6,6,0.4,0.4
2023-07-20T00:00:00,1221A,118.2442,33.9592,宿迁市,宿迁中学,,26,23,22,18,18,62,36,53,34,13,14,5,6,0.4,0.4
2023-07-20T00:00:00,1223A,120.2072,30.2111,杭州市,滨江,,20,7,35,7,21,210,64,156,105,10,17,5,6,0.7,0.8
2023-07-20T00:00:00,1224A,120.0633,30.2747,杭州市,西溪,,17,17,28,9,16,147,40,132,81,22,15,4,5,0.6,0.7
2023-07-20T00:00:00,1226A,120.3461,30.3153,杭州市,下沙,,31,31,42,19,25,234,40,170,85,40,23,4,4,0.5,0.4
2023-07-20T00:00:00,1227A,120.1269,30.2456,杭州市,卧龙桥,,16,15,26,4,18,157,49,139,89,9,10,2,4,0.5,0.6
2023-07-20T00:00:00,1228A,120.1903,30.2692,杭州市,浙江农大,,19,17,29,13,24,210,60,160,100,17,17,6,6,0.5,0.4
2023-07-20T00:00:00,1230A,120.1197,30.3119,杭州市,和睦小学,,22,21,34,15,22,203,54,156,95,13,12,6,6,0.6,0.6
2023-07-20T00:00:00,1231A,120.3019,30.4183,杭州市,临平镇,,20,20,45,6,22,212,29,164,81,38,16,4,4,0.5,0.5
2023-07-20T00:00:00,1232A,120.2697,30.1819,杭州市,城厢镇,,19,10,36,11,36,195,60,150,95,15,16,5,6,0.6,0.6
2023-07-20T00:00:00,1233A,120.0883,30.1808,杭州市,云栖,,16,15,30,5,14,175,50,137,84,7,12,4,4,0.7,0.8
2023-07-20T00:00:00,1234A,121.8358,29.911,宁波市,区环保大楼,,22,20,26,15,18,154,47,128,76,14,30,2,2,0.4,0.5
2023-07-20T00:00:00,1235A,121.56,29.82,宁波市,万里学院,,44,44,41,28,25,205,16,137,65,63,31,4,4,0.7,0.6
2023-07-20T00:00:00,1236A,121.713,29.9572,宁波市,龙赛医院,,22,18,34,15,17,191,52,146,96,13,23,6,7,0.4,0.5
2023-07-20T00:00:00,1239A,121.633,29.7733,宁波市,钱湖水厂,,24,24,32,14,15,147,32,126,86,10,11,3,2,0.4,0.5
2023-07-20T00:00:00,1240A,121.5856,29.8635,宁波市,太古小学,,,,34,,17,233,,138,,,20,,7,,0.7
2023-07-20T00:00:00,1241A,121.524,29.8674,宁波市,市环境监测中心,,40,40,35,16,13,234,8,146,45,56,25,4,3,0.9,0.7
2023-07-20T00:00:00,1242A,120.634,28.0089,温州市,瓯海,,25,25,36,14,20,159,74,117,80,12,20,6,7,0.5,0.6
2023-07-20T00:00:00,1243A,120.6748,27.9939,温州市,南浦,,25,25,34,15,18,164,77,120,86,10,14,6,6,0.5,0.5
2023-07-20T00:00:00,1244A,120.76,27.9747,温州市,龙湾,,22,22,31,12,16,124,70,101,82,19,17,6,6,0.5,0.5
2023-07-20T00:00:00,1245A,120.6709,28.0167,温州市,市站,,27,27,37,13,19,118,50,86,61,18,21,5,5,0.5,0.6
2023-07-20T00:00:00,1247A,120.6053,29.9928,绍兴市,城东开发委,,23,23,31,14,21,170,34,131,65,24,15,5,5,0.7,0.7
2023-07-20T00:00:00,1250A,120.0751,30.8669,湖州市,城西水厂,,30,10,32,21,25,181,58,136,70,34,24,1,2,0.5,0.6
2023-07-20T00:00:00,1252A,120.7436,30.778,嘉兴市,清河小学,,28,28,23,17,10,134,54,106,67,12,18,6,6,0.5,0.6
2023-07-20T00:00:00,1253A,120.726,30.7478,嘉兴市,嘉兴学院,,32,27,24,22,16,134,46,107,64,13,18,3,2,0.4,0.4
2023-07-20T00:00:00,1255A,121.273,28.6459,台州市,黄岩环保大楼,,22,13,24,15,16,138,43,97,49,15,15,2,3,0.5,0.5
2023-07-20T00:00:00,1256A,121.419,28.6542,台州市,台州环保大楼,,31,31,33,14,19,146,40,100,50,12,16,2,2,0.5,0.5
2023-07-20T00:00:00,1257A,121.377,28.5773,台州市,路桥田洋王,,39,39,41,19,21,110,45,79,40,13,21,2,2,0.7,0.6
2023-07-20T00:00:00,1258A,122.122,30.0203,舟山市,定海檀枫,,16,16,21,7,13,100,40,79,64,14,8,6,6,0.5,0.5
2023-07-20T00:00:00,1259A,122.3094,29.9558,舟山市,普陀东港,,17,17,19,7,10,80,40,71,63,13,10,4,4,0.3,0.3
2023-07-20T00:00:00,1260A,122.19,29.9944,舟山市,临城新区,,18,18,23,9,11,94,44,87,73,10,7,3,3,0.3,0.3
2023-07-20T00:00:00,1262A,119.647,29.077,金华市,十五中,,18,16,23,7,9,134,56,99,62,7,13,2,2,0.4,0.4
2023-07-20T00:00:00,1263A,119.686,29.1029,金华市,监测站,,20,14,21,7,11,124,62,100,64,6,13,3,3,0.4,0.4
2023-07-20T00:00:00,1264A,118.8692,28.9398,衢州市,环保大楼,,20,20,25,10,15,111,30,86,44,21,18,4,4,0.3,0.4
2023-07-20T00:00:00,1265A,118.8709,28.9666,衢州市,实验学校,,31,31,36,12,14,92,28,76,41,20,16,2,3,0.4,0.4
2023-07-20T00:00:00,1266A,118.8621,28.9808,衢州市,衢州学院,,19,19,25,8,13,130,29,98,43,23,17,6,4,0.5,0.5
2023-07-20T00:00:00,1267A,119.914,28.4514,丽水市,监测站大楼,,23,23,22,6,6,129,41,95,48,17,16,6,6,0.5,0.6
2023-07-20T00:00:00,1268A,119.93,28.4586,丽水市,莲都小学,,18,18,24,9,11,141,45,102,52,13,15,5,5,0.4,0.5
2023-07-20T00:00:00,1269A,119.879,28.4231,丽水市,余庄前,,22,22,22,12,10,147,7,113,41,21,18,5,5,0.5,0.5
2023-07-20T00:00:00,1270A,117.1959,31.7848,合肥市,明珠广场,,19,9,19,2,13,124,59,99,68,10,20,5,5,0.6,0.7
2023-07-20T00:00:00,1271A,117.3072,31.8764,合肥市,三里街,,18,5,21,5,14,126,56,105,68,15,20,4,4,0.5,0.5
2023-07-20T00:00:00,1272A,117.2588,31.8707,合肥市,琥珀山庄,,21,7,23,7,17,130,67,115,77,7,13,4,4,0.6,0.6
2023-07-20T00:00:00,1273A,117.1604,31.9052,合肥市,董铺水库,,21,0,18,2,13,139,66,115,79,11,12,3,3,0.4,0.4
2023-07-20T00:00:00,1274A,117.25,31.8571,合肥市,长江中路,,20,9,27,7,17,134,61,119,75,7,12,5,7,0.5,0.5
2023-07-20T00:00:00,1275A,117.266,31.9436,合肥市,庐阳区,,20,12,31,9,20,132,62,114,73,14,21,3,4,0.7,0.7
2023-07-20T00:00:00,1276A,117.336,31.8586,合肥市,瑶海区,,18,12,27,1,13,117,57,104,67,10,14,8,8,0.6,0.6
2023-07-20T00:00:00,1277A,117.3027,31.7964,合肥市,包河区,,18,2,23,9,16,119,57,106,67,14,30,5,6,0.5,0.5
2023-07-20T00:00:00,1278A,117.2776,31.7385,合肥市,滨湖新区,,17,8,21,2,14,115,54,109,77,11,13,4,5,0.5,0.5
2023-07-20T00:00:00,1279A,117.1318,31.8403,合肥市,高新区,,20,7,24,5,18,131,64,112,68,10,18,7,7,0.4,0.5
2023-07-20T00:00:00,1280A,119.3903,26.0543,福州市,鼓山,,,,14,,8,,,,,,5,,2,,
2023-07-20T00:00:00,1282A,119.2681,26.0504,福州市,师大,,11,11,24,0,8,97,30,86,52,10,11,4,5,0.3,0.3
2023-07-20T00:00:00,1283A,119.2984,26.1028,福州市,五四北路,,17,17,24,3,8,95,15,86,45,21,11,2,3,0.4,0.3
2023-07-20T00:00:00,1284A,119.2648,26.0768,福州市,杨桥西路,,16,16,24,3,7,85,19,80,44,16,11,3,3,0.2,0.2
2023-07-20T00:00:00,1285A,119.317,26.0746,福州市,紫阳,,,12,24,6,8,106,24,88,49,,12,3,2,0.3,0.4
2023-07-20T00:00:00,1286A,118.1608,24.8169,厦门市,溪东,,,,13,,10,,,,,,8,,2,,
2023-07-20T00:00:00,1287A,118.1514,24.4767,厦门市,洪文,,12,12,14,5,5,54,31,46,30,3,9,1,2,0.3,0.4
2023-07-20T00:00:00,1288A,118.0661,24.4444,厦门市,鼓浪屿,,23,23,13,10,6,43,14,35,26,22,10,1,3,0.4,0.4
2023-07-20T00:00:00,1290A,115.8931,28.6843,南昌市,省外办,,21,21,21,9,11,107,26,85,53,17,13,11,8,0.5,0.6
2023-07-20T00:00:00,1291A,115.8886,28.7003,南昌市,省林业公司,,12,12,14,7,9,105,25,88,53,24,15,10,7,0.4,0.5
2023-07-20T00:00:00,1292A,115.8126,28.7442,南昌市,林科所,,11,5,11,2,5,110,33,88,54,17,16,7,7,0.6,0.6
2023-07-20T00:00:00,1294A,115.8518,28.687,南昌市,建工学校,,20,15,24,14,13,105,24,87,50,16,10,4,4,0.5,0.6
2023-07-20T00:00:00,1295A,115.8921,28.6424,南昌市,象湖,,16,9,11,11,11,112,21,90,49,19,12,4,4,0.5,0.6
2023-07-20T00:00:00,1296A,115.7423,28.7996,南昌市,武术学校,,16,16,19,9,11,88,32,68,44,2,2,2,2,0.3,0.4
2023-07-20T00:00:00,1298A,115.9314,28.6842,南昌市,省站,,21,21,20,10,11,107,23,91,54,17,9,12,9,0.4,0.5
2023-07-20T00:00:00,1299A,116.9862,36.6114,济南市,科干所,,44,44,37,24,22,172,114,162,114,13,15,5,6,0.4,0.5
2023-07-20T00:00:00,1300A,116.9376,36.665,济南市,农科所,,42,42,40,17,15,215,91,191,102,21,20,6,7,0.2,0.3
2023-07-20T00:00:00,1301A,117.1265,36.6734,济南市,开发区,,42,42,42,20,19,223,129,179,125,12,18,4,5,0.5,0.6
2023-07-20T00:00:00,1303A,117.0624,36.6868,济南市,省种子仓库,,41,41,42,19,20,249,123,220,141,8,13,4,6,0.5,0.5
2023-07-20T00:00:00,1304A,116.9489,36.6447,济南市,机床二厂,,37,37,44,15,19,226,109,197,120,15,18,7,9,0.5,0.6
2023-07-20T00:00:00,1305A,117.0495,36.663,济南市,市监测站,,39,37,38,20,22,243,124,197,119,14,17,5,6,0.4,0.5
2023-07-20T00:00:00,1306A,116.7675,36.5484,济南市,长清党校,,42,42,41,15,22,172,81,159,109,21,18,7,7,0.5,0.5
2023-07-20T00:00:00,1307A,120.6659,36.2403,青岛市,仰口,,35,22,26,24,24,108,90,103,94,6,9,5,5,0.3,0.3
2023-07-20T00:00:00,1310A,120.4134,36.0658,青岛市,市南区东部子站,,23,17,21,14,11,101,72,92,81,16,16,6,5,0.3,0.3
2023-07-20T00:00:00,1311A,120.3664,36.1032,青岛市,四方区子站,,31,19,24,17,11,122,97,117,103,7,25,3,4,0.5,0.6
2023-07-20T00:00:00,1312A,120.2994,36.054,青岛市,市南区西部子站,,24,14,29,7,11,83,74,67,60,19,34,7,8,0.5,0.5
2023-07-20T00:00:00,1313A,120.4581,36.0858,青岛市,崂山区子站,,41,41,24,12,11,105,64,99,85,19,19,6,6,0.4,0.3
2023-07-20T00:00:00,1314A,120.1983,35.9608,青岛市,黄岛区子站,,26,9,30,10,17,128,83,117,95,11,28,6,7,0.6,0.7
2023-07-20T00:00:00,1315A,120.3999,36.3083,青岛市,城阳区子站,颗粒物(PM10),52,53,46,24,16,171,65,146,96,34,28,5,5,0.6,0.5
2023-07-20T00:00:00,1316A,113.69031,34.76122,郑州市,烟厂,,50,50,45,28,22,176,86,144,102,12,21,1,2,0.4,0.5
2023-07-20T00:00:00,1317A,113.65724,34.77134,郑州市,郑纺机,,,47,44,,22,172,80,142,98,7,17,1,2,0.5,0.5
2023-07-20T00:00:00,1318A,113.67526,34.80246,郑州市,银行学校,,39,39,38,25,20,175,90,148,103,7,16,1,2,0.5,0.6
2023-07-20T00:00:00,1319A,113.56746,34.81334,郑州市,供水公司,,35,30,49,24,22,204,87,162,99,13,24,6,6,0.5,0.6
2023-07-20T00:00:00,1320A,113.7329,34.7178,郑州市,经开区管委,颗粒物(PM10),62,73,47,41,24,144,73,129,93,11,19,2,2,0.5,0.6
2023-07-20T00:00:00,1321A,113.73961,34.77172,郑州市,四十七中,细颗粒物(PM2.5),65,49,44,47,25,165,78,140,100,13,16,2,2,0.5,0.5
2023-07-20T00:00:00,1322A,113.60532,34.74838,郑州市,市监测站,,40,40,57,28,23,184,88,146,101,9,25,1,2,0.4,0.5
2023-07-20T00:00:00,1323A,113.64164,34.7525,郑州市,河医大,,44,44,47,24,20,160,80,137,96,6,15,3,5,0.4,0.5
2023-07-20T00:00:00,1324A,113.51488,34.91089,郑州市,岗李水库,,36,33,46,25,24,213,85,175,100,20,19,4,4,0.6,0.6
2023-07-20T00:00:00,1325A,114.3677,30.5584,武汉市,东湖梨园,,15,15,29,2,14,123,44,93,60,15,16,6,6,0.4,0.5
2023-07-20T00:00:00,1326A,114.2529,30.558,武汉市,汉阳月湖,,,14,30,5,12,129,,109,81,24,26,6,6,0.5,0.7
2023-07-20T00:00:00,1327A,114.282,30.6189,武汉市,汉口花桥,,17,17,33,10,16,132,41,95,49,21,24,7,12,0.6,0.7
2023-07-20T00:00:00,1328A,114.3025,30.5332,武汉市,武昌紫阳,,16,16,29,9,13,138,34,99,50,25,23,5,5,0.8,0.9
2023-07-20T00:00:00,1329A,114.3646,30.6217,武汉市,青山钢花,,17,17,37,9,20,158,44,108,52,16,23,8,8,0.7,0.9
2023-07-20T00:00:00,1330A,114.1566,30.4825,武汉市,沌口新区,,21,21,33,12,19,139,44,94,68,14,24,8,8,0.6,0.7
2023-07-20T00:00:00,1331A,114.3014,30.5944,武汉市,汉口江滩,,17,6,24,5,12,133,52,95,53,11,21,4,4,0.6,0.7
2023-07-20T00:00:00,1333A,114.135,30.6319,武汉市,吴家山,,16,16,31,7,14,113,35,86,44,20,20,6,6,0.7,0.7
2023-07-20T00:00:00,1334A,113.8454,30.2917,武汉市,沉湖七壕,,14,8,24,5,9,97,42,87,65,21,22,5,5,0.6,0.7
2023-07-20T00:00:00,1335A,113.0833,28.2325,长沙市,经开区环保局,,12,6,12,3,8,142,36,114,68,11,12,6,4,0.3,0.3
2023-07-20T00:00:00,1336A,112.8872,28.2189,长沙市,高开区环保局,,13,7,10,9,11,121,33,102,63,22,11,4,4,0.5,0.5
2023-07-20T00:00:00,1337A,113.0792,28.2053,长沙市,马坡岭,,11,4,9,7,8,134,34,98,68,20,15,4,4,0.3,0.3
2023-07-20T00:00:00,1338A,112.9394,28.19,长沙市,湖南师范大学,,15,9,13,10,6,124,20,104,58,17,8,2,2,0.7,0.6
2023-07-20T00:00:00,1339A,113.0178,28.1322,长沙市,雨花区环保局,,28,28,14,5,8,108,26,86,56,22,12,4,4,0.2,0.6
2023-07-20T00:00:00,1340A,112.9792,28.2597,长沙市,伍家岭,,13,10,12,4,11,143,25,114,65,25,15,2,2,0.4,0.4
2023-07-20T00:00:00,1341A,113.0014,28.1944,长沙市,火车新站,,11,6,8,0,3,116,34,97,63,14,10,4,4,0.6,0.6
2023-07-20T00:00:00,1342A,112.9844,28.1178,长沙市,天心区环保局,,11,7,6,6,7,120,28,92,60,22,13,1,1,0.6,0.6
2023-07-20T00:00:00,1343A,112.8908,28.1308,长沙市,湖南中医药大学,,13,10,12,0,4,136,19,111,64,26,7,3,3,0.6,0.6
2023-07-20T00:00:00,1344A,112.9581,28.3611,长沙市,沙坪,,41,41,25,5,6,113,34,91,58,5,4,4,4,0.4,0.4
2023-07-20T00:00:00,1345A,113.2347,23.1423,广州市,广雅中学,,24,24,21,13,12,134,5,94,33,38,22,3,4,0.9,0.9
2023-07-20T00:00:00,1346A,113.2612,23.105,广州市,市五中,,26,26,24,14,14,142,4,94,30,32,21,8,8,0.5,0.5
2023-07-20T00:00:00,1348A,113.3478,23.0916,广州市,广东商学院,,41,41,22,26,12,142,4,88,26,36,25,4,5,0.7,0.6
2023-07-20T00:00:00,1349A,113.4332,23.1047,广州市,市八十六中,,,40,24,19,14,142,,89,17,36,29,6,4,0.6,0.6
2023-07-20T00:00:00,1350A,113.3505,22.9483,广州市,番禺中学,,18,15,19,7,10,98,11,73,30,35,27,7,8,0.6,0.6
2023-07-20T00:00:00,1351A,113.2146,23.3916,广州市,花都师范,,24,24,22,14,14,188,15,120,46,34,28,6,6,0.6,0.6
2023-07-20T00:00:00,1352A,113.2597,23.1331,广州市,市监测站,,24,18,21,9,11,143,4,99,34,47,30,6,6,0.8,0.7
2023-07-20T00:00:00,1353A,113.5618,23.312,广州市,九龙镇镇龙,,20,20,21,10,10,111,6,80,30,26,18,5,5,0.8,0.8
2023-07-20T00:00:00,1354A,113.2765,23.1544,广州市,麓湖,,25,25,19,13,11,150,2,110,32,43,25,7,6,0.8,0.8
2023-07-20T00:00:00,1355A,113.443,23.3035,广州市,帽峰山森林公园,,17,17,15,9,9,136,19,100,45,22,12,6,6,0.3,0.3
2023-07-20T00:00:00,1356A,114.1063,22.5545,深圳市,通心岭子站,,14,14,14,5,6,43,27,41,32,5,5,4,4,0.4,0.5
2023-07-20T00:00:00,1357A,114.117,22.5625,深圳市,洪湖,,13,13,16,2,5,48,30,45,35,8,9,5,5,0.6,0.6
2023-07-20T00:00:00,1358A,113.987,22.5417,深圳市,华侨城,,14,14,17,2,6,38,20,34,26,9,9,7,7,0.6,0.6
2023-07-20T00:00:00,1359A,113.9181,22.5171,深圳市,南海子站,,19,19,26,6,9,45,24,36,28,15,18,4,4,0.6,0.6
2023-07-20T00:00:00,1360A,114.2458,22.5689,深圳市,盐田,,16,16,17,3,6,41,12,35,17,25,19,4,4,0.5,0.5
2023-07-20T00:00:00,1361A,114.2283,22.7244,深圳市,龙岗,,13,13,13,2,4,52,18,47,33,14,10,6,6,0.8,0.8
2023-07-20T00:00:00,1363A,114.494,22.5422,深圳市,南澳,,15,15,13,3,3,46,26,41,32,5,5,4,5,0.6,0.6
2023-07-20T00:00:00,1364A,114.41,22.6342,深圳市,葵涌,,8,8,15,4,6,51,18,37,22,7,10,5,5,0.5,0.5
2023-07-20T00:00:00,1365A,114.297,22.5978,深圳市,梅沙,,21,21,22,4,6,46,20,42,29,9,9,5,5,0.6,0.7
2023-07-20T00:00:00,1366A,114.0678,22.738,深圳市,观澜,,19,19,18,8,9,57,13,45,26,17,13,6,6,0.6,0.6
2023-07-20T00:00:00,1367A,113.5814,22.2618,珠海市,吉大,,14,14,20,3,8,60,25,54,39,18,12,4,4,0.3,0.5
2023-07-20T00:00:00,1368A,113.4881,22.2335,珠海市,前山,,14,14,15,3,8,56,24,52,38,15,9,6,6,0.3,0.3
2023-07-20T00:00:00,1369A,113.628,22.4251,珠海市,唐家,,19,19,20,7,7,60,9,55,35,30,10,4,4,0.2,0.2
2023-07-20T00:00:00,1370A,113.299,22.2281,珠海市,斗门,,13,13,13,5,6,63,35,55,38,6,4,4,4,0.5,0.5
2023-07-20T00:00:00,1371A,113.1294,23.0067,佛山市,湾梁,,12,12,23,7,12,103,22,83,39,16,21,7,8,0.4,0.4
2023-07-20T00:00:00,1372A,113.1083,23.0478,佛山市,华材职中,,13,12,17,9,12,112,25,89,46,20,23,7,7,0.5,0.5
2023-07-20T00:00:00,1373A,113.144,23.0453,佛山市,南海气象局,,17,17,24,11,12,76,14,60,28,19,20,7,7,0.4,0.5
2023-07-20T00:00:00,1374A,113.2881,22.8094,佛山市,顺德苏岗,,10,8,9,7,9,77,14,63,37,19,17,6,6,0.6,0.7
2023-07-20T00:00:00,1376A,112.8383,22.8678,佛山市,高明孔堂,,22,22,26,9,10,125,35,99,59,11,20,5,4,0.5,0.6
2023-07-20T00:00:00,1377A,112.8836,23.1588,佛山市,三水监测站,,18,14,24,12,17,134,18,105,47,28,29,7,8,0.7,0.7
2023-07-20T00:00:00,1378A,112.867,23.185,佛山市,三水云东海,,19,19,28,8,14,137,21,109,51,28,23,4,4,0.4,0.5
2023-07-20T00:00:00,1379A,113.3769,22.5211,中山市,华柏园,,9,5,15,4,6,61,28,56,40,11,8,5,4,0.4,0.4
2023-07-20T00:00:00,1380A,113.3881,22.5497,中山市,张溪,,12,12,20,5,10,64,30,60,42,9,7,6,5,0.3,0.4
2023-07-20T00:00:00,1381A,113.4075,22.5111,中山市,紫马岭,,16,16,18,6,8,63,27,58,41,9,4,6,6,0.2,0.2
2023-07-20T00:00:00,1382A,113.4411,22.4853,中山市,长江旅游区,,18,18,15,6,6,66,42,62,44,9,4,10,9,0.3,0.3
2023-07-20T00:00:00,1383A,113.1064,22.6058,江门市,北街,,12,12,21,4,10,100,31,79,45,10,13,5,5,0.4,0.5
2023-07-20T00:00:00,1384A,113.0731,22.5835,江门市,西区,,20,20,19,9,13,98,31,80,46,11,14,6,5,0.5,0.5
2023-07-20T00:00:00,1385A,113.0219,22.5311,江门市,圭峰西,,12,12,16,6,9,96,31,77,48,11,10,3,3,0.6,0.6
2023-07-20T00:00:00,1386A,113.0828,22.5947,江门市,东湖,,12,12,21,4,13,104,31,87,49,10,11,7,6,0.4,0.5
2023-07-20T00:00:00,1389A,113.7547,23.0494,东莞市,莞城梨川,,26,26,16,10,7,117,18,97,49,23,13,10,9,0.7,0.7
2023-07-20T00:00:00,1390A,113.7944,23.0128,东莞市,东城石井,,21,21,17,8,8,110,20,90,46,19,14,6,8,0.5,0.5
2023-07-20T00:00:00,1391A,113.7383,22.9658,东莞市,南城西平,,22,22,16,8,8,99,22,70,35,19,18,6,7,0.7,0.7
2023-07-20T00:00:00,1392A,114.4183,23.0528,惠州市,河南岸金山湖子站,,24,24,16,6,5,53,23,47,30,10,8,3,4,0.6,0.6
2023-07-20T00:00:00,1393A,114.4053,23.0822,惠州市,下埔横江三路子站,,13,13,11,6,5,54,26,47,31,7,7,5,4,0.7,0.7
2023-07-20T00:00:00,1394A,114.4103,23.1142,惠州市,江北云山西路子站,,15,15,16,7,7,55,21,49,32,8,4,4,4,0.5,0.5
2023-07-20T00:00:00,1395A,114.4645,22.7833,惠州市,惠阳区承修路船湖子站,,12,10,15,8,9,51,28,41,30,8,10,5,5,0.5,0.5
2023-07-20T00:00:00,1396A,114.5317,22.7422,惠州市,大亚湾管委会子站,,22,22,18,7,8,52,29,44,34,16,15,2,3,0.5,0.5
2023-07-20T00:00:00,1397A,112.4267,23.0706,肇庆市,睦岗子站,,25,25,26,11,16,122,4,93,38,44,26,7,7,0.7,0.6
2023-07-20T00:00:00,1398A,112.4645,23.0475,肇庆市,城中子站,,23,23,24,12,15,120,13,92,40,40,30,10,10,0.5,0.6
2023-07-20T00:00:00,1399A,112.5544,23.1522,肇庆市,坑口子站,,18,18,23,10,15,168,24,110,53,19,25,4,6,0.4,0.4
2023-07-20T00:00:00,1400A,112.4753,23.1,肇庆市,七星岩子站,,15,15,25,8,14,144,41,104,69,16,19,9,9,0.4,0.5
2023-07-20T00:00:00,1401A,108.3103,22.7881,南宁市,二十一中,,15,0,17,10,9,88,42,81,63,18,8,4,4,0.7,0.7
2023-07-20T00:00:00,1402A,108.3141,22.8528,南宁市,北湖,,25,25,19,16,12,86,30,76,54,21,9,7,6,0.9,0.8
2023-07-20T00:00:00,1403A,108.3206,22.8225,南宁市,市监测站,,25,14,17,17,12,81,31,74,51,30,15,5,5,0.7,0.6
2023-07-20T00:00:00,1404A,108.3829,22.8037,南宁市,大自然花园,,14,14,15,9,11,74,32,70,50,16,9,5,5,0.8,0.7
2023-07-20T00:00:00,1405A,108.4394,22.7904,南宁市,仙葫,,12,9,14,8,9,73,35,69,45,20,12,4,5,0.7,0.7
2023-07-20T00:00:00,1406A,108.2397,22.8467,南宁市,区农职院,,25,25,20,10,10,107,19,87,64,33,15,6,6,0.6,0.6
2023-07-20T00:00:00,1407A,108.3275,22.735,南宁市,英华嘉园,,17,17,16,10,9,76,26,70,56,23,10,5,5,0.7,0.6
2023-07-20T00:00:00,1408A,108.2257,22.7757,南宁市,沙井镇街道办,,33,33,19,16,12,88,2,76,46,49,22,4,4,1.0,0.7
2023-07-20T00:00:00,1409A,110.576,19.9507,海口市,东寨港,,,,,,,,,,,,,,,,
2023-07-20T00:00:00,1410A,110.3232,20.0574,海口市,海南大学,,18,18,20,9,8,40,22,34,28,6,7,6,5,0.4,0.4
2023-07-20T00:00:00,1411A,110.283,20.0053,海口市,秀英海南医院,,,25,19,8,8,64,,54,36,8,11,4,5,0.3,0.3
2023-07-20T00:00:00,1412A,110.338,19.9969,海口市,海南师范大学,,21,21,19,10,9,60,32,52,37,6,6,7,6,0.5,0.4
2023-07-20T00:00:00,1413A,110.33,20.0356,海口市,龙华路环保局宿舍,,20,20,19,9,9,63,34,55,38,5,8,6,6,0.3,0.4
2023-07-20T00:00:00,1414A,106.3787,29.8279,重庆市,缙云山,,18,12,19,10,11,88,56,81,66,11,14,7,9,0.3,0.4
2023-07-20T00:00:00,1416A,106.4213,29.8253,重庆市,天生,,22,17,32,15,21,59,36,49,42,11,25,5,6,0.8,0.9
2023-07-20T00:00:00,1417A,106.6263,29.7228,重庆市,两路,,22,18,24,15,19,69,20,49,31,29,40,6,8,0.9,1
2023-07-20T00:00:00,1418A,106.2953,29.5983,重庆市,虎溪,,32,31,32,22,24,74,32,62,54,24,29,5,6,0.7,0.6
2023-07-20T00:00:00,1419A,106.5777,29.5102,重庆市,南坪,,29,29,34,16,20,64,37,52,45,20,32,10,7,0.7,0.6
2023-07-20T00:00:00,1420A,106.6556,29.6277,重庆市,唐家沱,,33,16,28,23,22,80,16,70,49,34,35,8,7,0.8,0.7
2023-07-20T00:00:00,1421A,106.6349,29.4906,重庆市,茶园,,24,19,31,7,11,97,23,76,48,47,39,9,5,1.0,0.8
2023-07-20T00:00:00,1422A,106.3754,29.4572,重庆市,白市驿,,23,12,18,16,14,79,42,68,49,21,21,6,6,0.8,0.8
2023-07-20T00:00:00,1425A,106.6205,29.7166,重庆市,空港,,23,23,30,13,18,79,28,68,48,36,31,7,8,0.7,0.8
2023-07-20T00:00:00,1426A,106.4782,29.4875,重庆市,新山村,,30,23,27,21,19,72,29,54,41,30,29,6,6,0.5,0.5
2023-07-20T00:00:00,1427A,106.5616,29.6453,重庆市,礼嘉,,30,30,34,11,19,80,8,62,40,50,40,8,7,1.1,0.9
2023-07-20T00:00:00,1428A,106.4522,29.7091,重庆市,蔡家,,37,37,40,20,19,84,29,73,55,23,30,4,4,0.9,0.8
2023-07-20T00:00:00,1429A,106.5093,29.3917,重庆市,鱼新街,,17,17,24,9,16,70,23,53,44,33,28,5,5,1.0,1
2023-07-20T00:00:00,1431A,103.9728,30.7236,成都市,金泉两河,,,16,40,2,27,229,,187,164,11,15,3,3,0.3,0.5
2023-07-20T00:00:00,1432A,104.176,30.6872,成都市,十里店,,32,31,34,22,20,184,64,169,121,12,13,4,4,0.5,0.6
2023-07-20T00:00:00,1433A,104.079,30.5706,成都市,三瓦窑,,20,6,42,3,23,187,63,166,105,14,31,1,2,0.3,0.4
2023-07-20T00:00:00,1434A,104.1114,30.63,成都市,沙河铺,,29,29,36,5,21,191,65,166,117,11,13,2,2,0.5,0.6
2023-07-20T00:00:00,1437A,104.0786,30.6531,成都市,君平街,,22,10,38,8,29,224,68,191,128,10,19,1,2,0.4,0.6
2023-07-20T00:00:00,1438A,103.613,31.0283,成都市,灵岩寺,,41,39,34,28,24,194,131,180,170,8,6,1,10,0.5,0.5
2023-07-20T00:00:00,1439A,106.6899,26.5998,贵阳市,马鞍山,,12,12,6,7,1,74,29,64,42,6,9,4,4,0.6,0.6
2023-07-20T00:00:00,1440A,106.6971,26.5694,贵阳市,市环保站,,20,12,5,14,7,79,46,65,42,20,19,3,3,0.3,0.3
2023-07-20T00:00:00,1441A,106.6243,26.6266,贵阳市,鉴湖路,,16,14,9,9,7,87,49,72,55,15,12,4,3,0.7,0.6
2023-07-20T00:00:00,1442A,106.7487,26.6343,贵阳市,燕子冲,,19,9,4,9,8,78,58,70,54,4,8,5,5,0.6,0.6
2023-07-20T00:00:00,1443A,106.6555,26.4365,贵阳市,碧云窝,,22,22,12,7,2,82,14,71,45,13,8,5,5,0.6,0.6
2023-07-20T00:00:00,1444A,106.694,26.5161,贵阳市,中院村,,22,22,16,7,4,69,31,58,38,22,14,4,4,0.4,0.5
2023-07-20T00:00:00,1445A,106.7109,26.6027,贵阳市,红边门,,18,14,14,12,9,71,56,60,43,9,16,4,4,0.6,0.6
2023-07-20T00:00:00,1446A,106.7164,26.5699,贵阳市,新华路,,15,14,7,7,6,82,47,67,47,15,13,3,3,0.6,0.7
2023-07-20T00:00:00,1447A,106.674,26.5424,贵阳市,太慈桥,,14,14,13,2,0,60,18,49,29,23,12,3,4,0.5,0.4
2023-07-20T00:00:00,1450A,102.8204,24.8886,昆明市,呈贡新区,,22,22,20,8,14,108,55,101,60,11,16,5,6,0.8,0.7
2023-07-20T00:00:00,1451A,102.6251,24.9608,昆明市,西山森林公园,,23,7,14,1,6,135,71,132,85,12,8,6,7,0.6,0.5
2023-07-20T00:00:00,1452A,102.7252,25.0902,昆明市,龙泉镇,,19,14,15,8,12,110,60,106,64,12,11,7,8,0.5,0.5
2023-07-20T00:00:00,1453A,102.7266,25.0375,昆明市,东风东路,,21,5,14,4,8,112,67,107,71,14,13,3,4,0.4,0.4
2023-07-20T00:00:00,1454A,102.6742,25.0669,昆明市,金鼎山,,20,8,19,6,11,126,64,114,70,11,10,1,13,0.5,0.5
2023-07-20T00:00:00,1455A,102.6644,25.0401,昆明市,碧鸡广场,,23,7,19,7,8,125,71,116,74,11,11,6,9,0.4,0.4
2023-07-20T00:00:00,1456A,91.1319,29.6514,拉萨市,八廓街,,23,9,15,8,9,118,72,111,94,8,7,9,6,0.2,0.2
2023-07-20T00:00:00,1457A,91.1221,29.6747,拉萨市,市环保局,,15,10,10,9,7,110,45,101,76,26,14,3,5,0.4,0.2
2023-07-20T00:00:00,1458A,91.0874,29.6475,拉萨市,区监测站,,17,7,7,7,5,110,53,103,86,18,12,9,7,0.3,0.3
2023-07-20T00:00:00,1459A,91.1774,29.6541,拉萨市,西藏大学,,22,4,8,6,7,114,70,106,90,9,9,14,9,0.1,0.1
2023-07-20T00:00:00,1460A,90.9798,29.6588,拉萨市,区辐射站,,32,32,11,12,6,114,43,103,72,40,16,14,11,0.3,0.2
2023-07-20T00:00:00,1461A,91.0834,29.6292,拉萨市,拉萨火车站,,22,10,11,5,6,105,70,98,89,12,12,11,10,0.4,0.4
2023-07-20T00:00:00,1462A,108.882,34.2749,西安市,高压开关厂,,37,37,46,23,24,193,70,184,136,30,25,8,8,0.5,0.5
2023-07-20T00:00:00,1463A,108.993,34.2629,西安市,兴庆小区,,31,31,40,19,20,188,81,181,129,13,12,6,7,0.6,0.7
2023-07-20T00:00:00,1464A,109.06,34.2572,西安市,纺织城,,29,28,41,20,22,192,72,182,117,28,18,4,5,0.4,0.5
2023-07-20T00:00:00,1465A,108.9356,34.2173,西安市,小寨,,40,40,42,16,20,192,65,185,118,22,13,6,7,0.5,0.5
2023-07-20T00:00:00,1466A,108.954,34.2713,西安市,市人民体育场,,30,27,45,21,24,194,76,184,133,18,19,8,8,0.5,0.5
2023-07-20T00:00:00,1467A,108.8922,34.2322,西安市,高新西区,,32,32,38,22,23,211,80,201,143,21,16,6,7,0.5,0.6
2023-07-20T00:00:00,1468A,108.935,34.3474,西安市,经开区,颗粒物(PM10),52,54,49,32,27,183,102,178,150,21,17,4,4,0.4,0.4
2023-07-20T00:00:00,1469A,108.906,34.1546,西安市,长安区,,48,48,55,23,25,214,34,203,130,47,28,4,4,0.4,0.4
2023-07-20T00:00:00,1471A,109.2186,34.3731,西安市,临潼区,颗粒物(PM10),63,76,54,35,27,180,62,173,135,50,22,7,8,0.6,0.6
2023-07-20T00:00:00,1472A,108.869,34.378,西安市,草滩,,50,50,46,17,18,191,95,182,152,35,24,8,10,0.6,0.5
2023-07-20T00:00:00,1473A,108.985,34.1978,西安市,曲江文化产业集团,,44,44,43,18,20,200,57,190,118,33,16,5,5,0.4,0.4
2023-07-20T00:00:00,1474A,109.051,34.3213,西安市,广运潭,颗粒物(PM10),56,62,50,33,26,180,88,174,136,31,25,11,9,0.6,0.5
2023-07-20T00:00:00,1476A,103.631,36.1031,兰州市,兰炼宾馆,,37,37,42,17,22,215,89,174,128,37,26,6,6,0.5,0.4
2023-07-20T00:00:00,1477A,104.1373,35.9454,兰州市,榆中兰大校区,,,,,,,,,,,,,,,,
2023-07-20T00:00:00,1478A,103.8412,36.0726,兰州市,生物制品所,,49,49,43,29,22,195,86,169,132,41,24,2,7,0.7,0.6
2023-07-20T00:00:00,1479A,103.831,36.0464,兰州市,铁路设计院,,37,37,35,20,16,185,95,156,122,40,31,6,7,0.4,0.3
2023-07-20T00:00:00,1483A,101.524,36.6867,西宁市,第五水厂,,,,,,,,,,,,,,,,
2023-07-20T00:00:00,1484A,105.9512,38.6016,银川市,贺兰山马莲口,,33,31,20,20,14,194,103,188,168,15,10,6,6,0.6,0.6
2023-07-20T00:00:00,1488A,106.2328,38.4975,银川市,贺兰山东路,颗粒物(PM10),52,53,44,29,26,207,84,192,152,28,15,26,12,0.7,0.5
2023-07-20T00:00:00,1489A,106.1358,38.5036,银川市,学院路,颗粒物(PM10),52,53,43,24,17,191,76,181,146,30,17,18,12,0.7,0.5
2023-07-20T00:00:00,1490A,87.5801,43.8303,乌鲁木齐市,监测站,二氧化氮,52,43,42,12,14,146,3,134,106,104,25,5,4,1.0,0.5
2023-07-20T00:00:00,1491A,87.6046,43.768,乌鲁木齐市,收费所,颗粒物(PM10),72,93,37,32,14,150,5,136,97,95,29,8,9,0.9,0.3
2023-07-20T00:00:00,1492A,87.4754,43.9469,乌鲁木齐市,新疆农科院农场,,,,81,55,46,132,15,127,99,86,47,15,15,0.4,0.3
2023-07-20T00:00:00,1493A,87.5525,43.8711,乌鲁木齐市,铁路局,颗粒物(PM10),54,57,40,14,13,148,9,135,106,102,30,2,3,0.8,0.4
2023-07-20T00:00:00,1494A,87.6432,43.831,乌鲁木齐市,三十一中学,,40,7,28,24,13,140,55,128,111,79,31,3,3,0.7,0.4
2023-07-20T00:00:00,1496A,87.7216,44.1747,乌鲁木齐市,米东区环保局,颗粒物(PM10),56,61,55,14,19,133,64,126,112,40,24,5,6,0.4,0.4
2023-07-20T00:00:00,1508A,112.9433,27.8614,湘潭市,板塘,,17,17,20,9,10,130,10,85,29,31,18,8,8,0.7,0.7
2023-07-20T00:00:00,1511A,112.9118,27.8403,湘潭市,市监测站,,,15,16,18,12,130,,86,48,,14,3,3,0.5,0.6
2023-07-20T00:00:00,1512A,112.8937,27.8728,湘潭市,江麓,,18,18,22,5,9,144,19,92,40,25,18,5,8,0.1,0.2
2023-07-20T00:00:00,1513A,112.9227,27.8159,湘潭市,岳塘,,25,25,24,14,10,109,0,81,27,35,17,9,3,0.4,0.6
2023-07-20T00:00:00,1514A,112.9074,27.9119,湘潭市,科大,,26,26,23,14,11,153,6,105,41,31,15,7,8,0.2,0.6
2023-07-20T00:00:00,1515A,113.135,27.8244,株洲市,天台山庄,,15,15,15,6,10,91,27,76,45,13,8,10,6,0.6,0.5
2023-07-20T00:00:00,1518A,113.095,27.8867,株洲市,株冶医院,,22,22,17,10,10,109,7,83,39,32,17,5,4,0.4,0.4
2023-07-20T00:00:00,1519A,113.167,27.8667,株洲市,市四中,,19,19,17,11,8,82,21,68,38,14,10,4,4,0.5,0.5
2023-07-20T00:00:00,1520A,113.143,27.8381,株洲市,火车站,,15,15,16,7,8,88,23,76,44,14,8,8,5,0.6,0.5
2023-07-20T00:00:00,1524A,113.13,27.8528,株洲市,市监测站,,13,13,17,2,5,95,31,82,49,16,12,7,5,0.6,0.5
2023-07-20T00:00:00,1552A,106.805,26.3003,贵阳市,桐木岭,,24,24,18,13,9,84,61,73,64,1,2,2,2,0.4,0.4
2023-07-20T00:00:00,1559A,113.251,27.8336,株洲市,大京风景区,,12,5,10,8,7,67,2,55,21,12,5,4,4,0.3,0.4
2023-07-20T00:00:00,1562A,113.0048,27.9153,湘潭市,昭山,,14,14,15,9,8,136,6,93,25,27,19,2,3,0.5,0.5
2023-07-20T00:00:00,1564A,112.4876,27.9164,湘潭市,韶山,,20,20,18,9,8,101,3,86,50,12,7,5,6,0.5,0.4
2023-07-20T00:00:00,1585A,109.8756,40.6532,包头市,市环境监测站,颗粒物(PM10),52,54,42,31,22,239,134,218,184,31,25,10,11,0.6,0.5
2023-07-20T00:00:00,1587A,109.9991,40.5842,包头市,包头八中,颗粒物(PM10),57,64,52,37,25,261,158,242,206,26,24,14,14,0.7,0.7
2023-07-20T00:00:00,1588A,109.8538,40.6821,包头市,青山宾馆,,49,44,38,34,24,235,149,213,190,23,24,6,10,0.6,0.7
2023-07-20T00:00:00,1589A,109.8642,40.6288,包头市,惠龙物流,颗粒物(PM10),55,59,43,32,25,247,138,223,194,27,20,8,11,0.5,0.4
2023-07-20T00:00:00,1590A,110.0377,40.5546,包头市,东河鸿龙湾,"颗粒物(PM10),细颗粒物(PM2.5)",52,54,49,36,21,241,118,222,173,30,20,12,13,0.5,0.5
2023-07-20T00:00:00,1591A,110.0023,39.8129,鄂尔多斯市,综合楼,颗粒物(PM10),53,56,61,22,23,198,127,182,151,25,22,10,8,0.6,0.7
2023-07-20T00:00:00,1592A,109.9486,39.8261,鄂尔多斯市,巴音孟克林场办事处,,48,48,49,22,24,204,143,196,167,20,16,12,10,0.6,0.5
2023-07-20T00:00:00,1593A,109.7736,39.5986,鄂尔多斯市,康泽苑,,46,46,42,22,16,185,106,180,150,28,16,9,10,0.7,0.6
2023-07-20T00:00:00,1594A,109.8119,39.5989,鄂尔多斯市,华泰汽车城,,41,41,43,24,22,179,63,173,134,58,20,7,8,0.6,0.6
2023-07-20T00:00:00,1595A,109.9734,39.7884,鄂尔多斯市,奥林花园,颗粒物(PM10),73,95,65,31,26,192,78,181,138,47,26,9,8,0.8,0.8
2023-07-20T00:00:00,1597A,122.2703,40.7094,营口市,大庆路,颗粒物(PM10),56,61,46,39,36,229,134,208,191,17,16,6,7,0.8,0.8
2023-07-20T00:00:00,1598A,122.2150,40.6511,营口市,镜湖西路,细颗粒物(PM2.5),77,82,47,56,36,229,137,208,192,12,12,6,6,0.6,0.6
2023-07-20T00:00:00,1599A,122.1658,40.6789,营口市,西炮台,细颗粒物(PM2.5),62,56,37,44,24,223,140,204,192,16,13,9,8,0.6,0.7
2023-07-20T00:00:00,1600A,124.3303,40.0625,丹东市,江湾东路,,42,42,37,26,26,167,80,147,109,9,14,3,6,0.8,0.8
2023-07-20T00:00:00,1601A,124.4256,40.1503,丹东市,临江后街,,40,40,35,24,23,170,80,145,111,8,8,5,5,0.7,0.8
2023-07-20T00:00:00,1602A,124.3933,40.1461,丹东市,元宝山,,32,32,41,22,24,157,95,138,107,7,16,7,7,0.7,0.8
2023-07-20T00:00:00,1603A,124.3633,40.1092,丹东市,民主桥,,37,37,34,22,21,161,77,140,107,18,13,7,5,1.0,0.8
2023-07-20T00:00:00,1604A,122.0303,41.1489,盘锦市,开发区,臭氧1小时,55,33,44,36,27,229,164,205,202,16,18,4,4,0.7,0.9
2023-07-20T00:00:00,1605A,122.0485,41.0883,盘锦市,兴隆台,细颗粒物(PM2.5),59,35,42,42,29,222,158,202,196,16,18,4,4,0.7,0.8
2023-07-20T00:00:00,1606A,121.8297,41.1028,盘锦市,新生街道,臭氧1小时,69,46,42,36,25,262,175,235,224,14,13,6,6,0.6,0.8
2023-07-20T00:00:00,1607A,120.9092,40.7136,葫芦岛市,龙港区,"颗粒物(PM10),细颗粒物(PM2.5)",59,67,59,42,38,260,132,240,208,28,19,4,4,0.6,0.7
2023-07-20T00:00:00,1608A,120.8392,40.7514,葫芦岛市,化工街,细颗粒物(PM2.5),70,75,74,51,38,248,98,237,177,46,28,7,8,0.8,0.7
2023-07-20T00:00:00,1609A,120.8341,40.7073,葫芦岛市,新区,细颗粒物(PM2.5),68,71,63,49,42,226,96,213,177,47,29,6,6,0.9,0.9
2023-07-20T00:00:00,1610A,120.8695,40.7677,葫芦岛市,东城区,"颗粒物(PM10),细颗粒物(PM2.5)",63,75,69,45,39,264,108,248,187,53,41,9,7,0.8,0.8
2023-07-20T00:00:00,1611A,118.5819,24.9117,泉州市,涂山街,,34,34,27,12,9,76,8,63,37,33,15,11,9,0.7,0.7
2023-07-20T00:00:00,1612A,118.5972,24.8978,泉州市,津头埔,,30,30,25,13,14,81,6,70,36,35,19,11,9,0.5,0.5
2023-07-20T00:00:00,1613A,118.6663,24.9424,泉州市,万安,,30,30,27,12,14,114,5,76,41,34,19,8,8,0.5,0.6
2023-07-20T00:00:00,1614A,118.6117,24.9604,泉州市,清源山,,,,17,,8,,,,,,9,,3,,
2023-07-20T00:00:00,1616A,117.6795,36.229,济南市,技术学院,,48,48,50,31,26,190,109,169,143,27,23,8,9,1.0,1.1
2023-07-20T00:00:00,1618A,118.3429,35.0532,临沂市,沂河小区,,44,44,40,26,23,169,67,151,93,24,16,7,5,0.3,0.3
2023-07-20T00:00:00,1619A,118.295,35.0583,临沂市,鲁南制药厂,,46,46,34,21,19,192,69,168,114,17,12,8,4,1.0,0.9
2023-07-20T00:00:00,1620A,118.2794,34.9976,临沂市,新光毛纺厂,,41,41,33,20,17,169,52,146,94,34,15,13,7,0.4,0.3
2023-07-20T00:00:00,1621A,118.3956,35.0888,临沂市,河东保险公司,,31,31,31,17,18,163,61,136,88,19,14,3,3,0.4,0.4
2023-07-20T00:00:00,1622A,116.3032,37.4674,德州市,儿童乐园,,,39,58,17,35,224,102,221,176,17,16,8,10,,0.5
2023-07-20T00:00:00,1624A,116.2991,37.4451,德州市,监理站,,40,40,59,19,36,215,89,210,162,25,22,9,10,0.4,0.5
2023-07-20T00:00:00,1625A,115.9848,36.4372,聊城市,区政府,,39,39,39,22,24,162,72,155,121,16,19,8,10,0.6,0.7
2023-07-20T00:00:00,1628A,118.0062,37.3803,滨州市,市环保局,颗粒物(PM10),68,85,62,47,38,218,98,212,178,37,24,9,9,0.7,0.6
2023-07-20T00:00:00,1629A,118.0018,37.3617,滨州市,第二水厂,颗粒物(PM10),65,80,64,38,35,220,80,212,156,44,28,4,6,0.7,0.7
2023-07-20T00:00:00,1630A,117.9776,37.393,滨州市,北中新校,细颗粒物(PM2.5),67,80,63,48,34,213,89,208,156,38,20,7,8,0.7,0.6
2023-07-20T00:00:00,1631A,118.0414,36.8103,淄博市,人民公园,臭氧1小时,53,39,49,22,25,268,162,239,184,16,23,10,13,0.7,0.6
2023-07-20T00:00:00,1633A,117.8525,36.4847,淄博市,双山,,49,48,36,32,21,179,154,160,154,12,14,7,7,0.8,0.6
2023-07-20T00:00:00,1634A,117.9592,36.6331,淄博市,气象站,,49,46,38,34,22,183,150,171,144,12,12,8,7,0.4,0.3
2023-07-20T00:00:00,1635A,118.3092,36.8194,淄博市,莆田园,颗粒物(PM10),58,66,52,36,28,236,118,222,164,22,16,20,12,1.4,0.6
2023-07-20T00:00:00,1637A,117.558,34.8438,枣庄市,市中区政府,,29,29,43,14,20,155,52,140,93,20,23,8,15,0.3,0.4
2023-07-20T00:00:00,1638A,117.2852,34.7837,枣庄市,薛城环保局,,32,32,43,9,12,143,43,110,63,19,21,8,10,0.6,0.5
2023-07-20T00:00:00,1639A,117.5852,34.7745,枣庄市,峄城区政府,,34,34,36,9,13,147,34,130,79,21,16,7,10,0.4,0.5
2023-07-20T00:00:00,1640A,117.7276,34.5578,枣庄市,台儿庄区环保局,,17,17,26,9,14,141,34,113,62,18,22,7,9,0.3,0.5
2023-07-20T00:00:00,1641A,117.4518,35.0992,枣庄市,山亭区环保局,颗粒物(PM10),53,56,36,34,22,180,59,148,121,19,13,8,7,0.2,0.3
2023-07-20T00:00:00,1642A,121.2514,37.5639,烟台市,开发区,,39,39,44,22,23,217,108,203,157,16,22,6,8,0.7,0.8
2023-07-20T00:00:00,1643A,121.3719,37.5433,烟台市,轴承厂,颗粒物(PM10),53,56,43,26,23,203,90,198,151,20,14,3,4,0.4,0.4
2023-07-20T00:00:00,1644A,121.3181,37.5436,烟台市,西郊化工站,,45,39,48,31,24,217,118,201,160,11,17,4,5,0.3,0.4
2023-07-20T00:00:00,1645A,121.4478,37.4822,烟台市,莱山环保局,,39,39,34,18,20,211,89,195,141,14,13,4,5,0.4,0.5
2023-07-20T00:00:00,1646A,121.2611,37.4967,烟台市,福山环保局,颗粒物(PM10),75,100,57,24,18,201,68,182,141,37,28,7,8,0.7,0.7
2023-07-20T00:00:00,1650A,119.1437,36.7023,潍坊市,环保局,,46,46,42,25,27,206,96,197,152,18,14,8,8,0.6,0.6
2023-07-20T00:00:00,1653A,116.6251,35.4302,济宁市,火炬城,,,17,32,7,16,122,,113,97,6,8,8,6,0.4,0.5
2023-07-20T00:00:00,1655A,116.5491,35.4042,济宁市,电化厂,,18,18,31,9,18,120,25,113,81,11,8,2,5,0.5,0.5
2023-07-20T00:00:00,1656A,117.1437,36.1937,泰安市,监测站,颗粒物(PM10),53,56,45,29,19,154,123,148,144,15,12,9,8,0.4,0.2
2023-07-20T00:00:00,1657A,117.0885,36.2017,泰安市,人口学校,,39,39,37,17,17,155,92,145,133,18,14,12,9,0.4,0.4
2023-07-20T00:00:00,1658A,117.1089,36.1758,泰安市,电力学校,,46,46,45,24,23,156,92,149,137,15,12,9,9,0.5,0.4
2023-07-20T00:00:00,1659A,119.471,35.4209,日照市,监测站,,27,17,31,10,17,129,44,109,55,54,48,11,11,0.9,0.8
2023-07-20T00:00:00,1660A,119.523,35.4216,日照市,市政府广场,,25,17,25,5,14,109,77,101,81,16,20,7,8,0.3,0.4
2023-07-20T00:00:00,1661A,119.5587,35.4044,日照市,港务局,,30,9,25,5,11,120,93,104,88,7,18,8,8,0.5,0.5
2023-07-20T00:00:00,1662A,122.1214,37.4236,威海市,华夏技校,,40,29,30,24,23,168,126,158,132,7,14,5,7,0.4,0.4
2023-07-20T00:00:00,1663A,122.0508,37.5236,威海市,山大分校,,43,32,33,15,18,195,135,177,149,2,9,5,6,0.4,0.4
2023-07-20T00:00:00,1664A,122.1067,37.5072,威海市,市监测站,,47,32,36,27,28,178,149,155,139,2,19,8,8,0.6,0.6
2023-07-20T00:00:00,1666A,118.6614,37.4309,东营市,市环保局,,46,46,53,29,33,238,124,228,179,14,15,8,13,0.5,0.4
2023-07-20T00:00:00,1669A,113.5824,24.7733,韶关市,市八中,,24,24,15,2,2,76,16,59,32,16,7,13,11,0.5,0.5
2023-07-20T00:00:00,1671A,113.5917,24.7972,韶关市,园林处,,17,17,14,6,9,72,11,58,33,10,5,28,15,0.6,0.5
2023-07-20T00:00:00,1672A,113.6735,24.7791,韶关市,韶关学院,,11,11,16,7,7,49,3,41,19,14,7,7,10,0.5,0.4
2023-07-20T00:00:00,1673A,113.5971,24.6863,韶关市,曲江监测站,,22,22,22,7,8,76,6,50,24,21,11,7,14,0.5,0.7
2023-07-20T00:00:00,1674A,116.6794,23.3667,汕头市,金平子站,,14,14,16,8,14,59,41,53,46,7,7,3,4,0.6,0.7
2023-07-20T00:00:00,1675A,116.7244,23.3633,汕头市,龙湖子站,,14,13,16,7,6,70,44,61,53,10,8,4,4,0.4,0.6
2023-07-20T00:00:00,1676A,116.7258,23.2775,汕头市,濠江子站,,11,11,16,5,6,60,32,54,44,10,8,8,8,0.5,0.5
2023-07-20T00:00:00,1677A,116.7519,23.4714,汕头市,澄海子站,,22,22,17,11,12,62,37,56,48,13,9,3,3,0.7,0.6
2023-07-20T00:00:00,1678A,116.6092,23.2539,汕头市,潮阳子站,,17,17,18,4,6,68,40,58,48,7,6,9,9,0.5,0.5
2023-07-20T00:00:00,1680A,110.3539,21.2706,湛江市,湛江影剧院,,22,22,23,13,16,64,48,58,52,3,4,5,5,0.5,0.6
2023-07-20T00:00:00,1681A,110.3928,21.2228,湛江市,市环境监测站,,16,14,19,8,9,64,49,59,52,4,4,6,6,0.5,0.5
2023-07-20T00:00:00,1682A,110.4019,21.1997,湛江市,环保局宿舍,,20,20,21,8,9,62,48,58,52,2,4,1,2,0.5,0.5
2023-07-20T00:00:00,1683A,110.4111,21.2028,湛江市,霞山游泳场,,17,17,21,6,8,63,47,58,51,6,5,5,5,0.2,0.4
2023-07-20T00:00:00,1684A,110.3316,21.2679,湛江市,麻章区环保局,,15,15,20,8,15,61,45,57,49,4,5,4,4,0.5,0.5
2023-07-20T00:00:00,1685A,110.4558,21.2567,湛江市,坡头区环保局,,15,10,17,8,9,63,48,60,53,4,4,4,5,0.4,0.4
2023-07-20T00:00:00,1686A,111.0286,21.4688,茂名市,电白南海,,,24,24,9,10,76,,68,60,4,5,4,3,0.6,0.6
2023-07-20T00:00:00,1687A,110.9294,21.6533,茂名市,茂石化七小,,19,19,20,12,10,60,32,55,47,7,5,5,4,0.5,0.6
2023-07-20T00:00:00,1688A,110.9107,21.6687,茂名市,健康路,,14,14,13,5,5,58,30,55,46,8,5,5,4,0.5,0.5
2023-07-20T00:00:00,1689A,110.8592,21.6828,茂名市,高岭,,20,19,20,14,14,62,35,58,48,8,7,8,8,0.7,0.7
2023-07-20T00:00:00,1690A,116.1231,24.3284,梅州市,梅江月梅,,13,13,10,5,7,48,29,43,36,7,8,1,2,0.4,0.4
2023-07-20T00:00:00,1691A,116.0797,24.2719,梅州市,梅县新城,,18,18,10,5,4,62,6,49,27,19,10,4,4,0.6,0.6
2023-07-20T00:00:00,1692A,116.1248,24.2654,梅州市,环境监控中心,,17,17,13,6,5,50,9,45,27,17,9,3,2,0.5,0.5
2023-07-20T00:00:00,1693A,115.3653,22.775,汕尾市,市环保局,,16,16,19,4,6,46,23,40,33,5,4,7,7,0.5,0.5
2023-07-20T00:00:00,1694A,115.3706,22.7898,汕尾市,市政府,,11,11,13,6,6,49,25,44,35,6,5,4,4,0.6,0.6
2023-07-20T00:00:00,1695A,115.3622,22.7925,汕尾市,新城中学,,14,14,15,9,7,44,21,39,30,4,3,6,6,0.5,0.5
2023-07-20T00:00:00,1696A,114.6778,23.7569,河源市,源西,,22,19,12,15,7,47,2,42,25,20,10,4,4,0.7,0.6
2023-07-20T00:00:00,1697A,114.6944,23.7586,河源市,东埔,,26,26,22,5,5,44,15,39,26,13,8,5,5,0.7,0.7
2023-07-20T00:00:00,1698A,114.6892,23.7233,河源市,老城,,32,32,19,8,4,46,10,40,25,8,6,4,4,0.6,0.6
2023-07-20T00:00:00,1699A,111.9797,21.8593,阳江市,鸳鸯湖,,17,17,19,8,8,57,35,53,44,5,4,4,4,0.6,0.6
2023-07-20T00:00:00,1701A,111.9491,21.8658,阳江市,马南垌,,15,14,19,10,10,51,36,50,42,4,4,5,4,0.4,0.3
2023-07-20T00:00:00,1702A,113.0426,23.691,清远市,环保大楼,,11,11,12,6,9,83,35,76,58,7,6,6,6,0.3,0.3
2023-07-20T00:00:00,1703A,113.0208,23.7106,清远市,凤城街办,,13,12,15,7,9,91,40,78,63,4,6,4,4,0.5,0.6
2023-07-20T00:00:00,1705A,116.6367,23.6719,潮州市,西园路,,21,21,19,7,9,61,21,44,33,9,8,4,4,0.5,0.3
2023-07-20T00:00:00,1706A,116.6447,23.6706,潮州市,档案局,,22,18,15,15,6,57,18,53,40,12,8,4,5,0.5,0.4
2023-07-20T00:00:00,1708A,116.3701,23.5345,揭阳市,新兴,,,,20,,10,50,,42,28,31,13,16,9,0.8,0.7
2023-07-20T00:00:00,1709A,116.3264,23.5443,揭阳市,西马,,32,32,17,16,11,38,12,33,20,19,12,6,6,1.1,0.8
2023-07-20T00:00:00,1710A,116.3611,23.5626,揭阳市,东兴,,44,44,21,11,7,46,11,40,27,30,15,18,6,1.0,0.8
2023-07-20T00:00:00,1711A,116.4151,23.5294,揭阳市,渔湖,,39,39,20,12,8,41,3,35,18,40,12,3,2,0.9,0.6
2023-07-20T00:00:00,1712A,112.0392,22.9169,云浮市,新市府,,35,35,27,11,15,69,10,60,29,13,9,4,4,0.9,0.8
2023-07-20T00:00:00,1714A,112.0539,22.9539,云浮市,牧羊,,28,28,29,8,14,87,22,68,42,13,15,9,9,0.5,0.4
2023-07-20T00:00:00,1715A,102.575,24.3711,玉溪市,东风水库,,22,11,13,10,8,105,68,97,69,7,10,4,4,0.7,0.7
2023-07-20T00:00:00,1718A,115.4208,35.2464,菏泽市,气象局,,19,19,39,11,19,123,31,114,70,14,11,2,5,0.3,0.3
2023-07-20T00:00:00,1719A,115.4747,35.2375,菏泽市,市政协,,16,14,33,11,20,120,35,114,73,14,10,4,5,0.2,0.2
2023-07-20T00:00:00,1721A,113.3819,40.1097,大同市,果树场,颗粒物(PM10),58,66,56,38,31,216,71,202,134,58,28,6,5,0.5,0.6
2023-07-20T00:00:00,1723A,113.2994,40.0758,大同市,云冈宾馆,颗粒物(PM10),61,71,64,27,30,239,101,226,170,40,28,10,10,0.7,0.7
2023-07-20T00:00:00,1724A,113.3444,40.0917,大同市,大同大学,颗粒物(PM10),54,58,58,28,30,225,126,210,166,29,23,10,13,0.6,0.8
2023-07-20T00:00:00,1725A,113.2661,40.1269,大同市,安家小村,颗粒物(PM10),58,66,63,25,25,230,115,215,170,20,18,10,12,0.5,0.7
2023-07-20T00:00:00,1726A,113.2711,40.0844,大同市,教育学院,颗粒物(PM10),53,55,65,27,30,224,104,212,168,38,31,10,12,0.6,0.7
2023-07-20T00:00:00,1727A,113.1147,36.1547,长治市,清华站,颗粒物(PM10),54,58,61,34,39,236,146,222,183,12,13,11,9,0.9,0.9
2023-07-20T00:00:00,1728A,113.1031,36.1989,长治市,监测站,颗粒物(PM10),52,53,58,34,37,240,159,222,191,15,19,11,12,0.9,1.1
2023-07-20T00:00:00,1730A,113.0886,36.2125,长治市,审计局,,47,46,51,31,41,224,150,208,175,13,14,12,14,0.9,1.1
2023-07-20T00:00:00,1731A,113.0844,36.1856,长治市,长治八中,颗粒物(PM10),54,58,58,37,36,229,152,215,184,10,11,8,11,0.6,0.8
2023-07-20T00:00:00,1733A,111.5531,36.0783,临汾市,临钢医院,细颗粒物(PM2.5),55,53,53,39,41,210,139,199,162,22,19,8,7,1.1,1.1
2023-07-20T00:00:00,1734A,111.5028,36.0714,临汾市,技工学校,颗粒物(PM10),61,71,61,36,30,222,138,212,164,28,20,7,4,0.9,1
2023-07-20T00:00:00,1736A,111.5018,36.0855,临汾市,市委,细颗粒物(PM2.5),73,80,66,53,41,198,135,191,148,23,21,8,6,0.8,0.9
2023-07-20T00:00:00,1738A,113.5758,37.8572,阳泉市,市中心,臭氧1小时,58,61,54,33,30,216,166,210,202,19,34,13,14,1.0,0.9
2023-07-20T00:00:00,1739A,113.4894,37.8731,阳泉市,赛鱼,颗粒物(PM10),59,67,60,29,26,212,121,204,165,40,44,10,12,1.0,0.9
2023-07-20T00:00:00,1740A,113.5819,37.8486,阳泉市,南庄,颗粒物(PM10),63,76,71,25,29,224,149,213,201,18,29,11,15,1.0,0.8
2023-07-20T00:00:00,1742A,113.5614,37.8703,阳泉市,平坦,臭氧1小时,75,85,63,42,35,220,180,206,203,20,40,14,13,0.9,0.8
2023-07-20T00:00:00,1743A,113.5158,37.8392,阳泉市,大阳泉,臭氧1小时,100,60,51,42,37,225,200,215,214,15,14,15,14,0.9,0.7
2023-07-20T00:00:00,1744A,118.9233,42.2816,赤峰市,松山一中,,32,25,34,7,14,200,100,176,134,35,32,11,13,0.4,0.5
2023-07-20T00:00:00,1745A,118.9576,42.2728,赤峰市,哈达街,,36,25,32,17,13,207,114,193,146,23,21,13,16,0.4,0.4
2023-07-20T00:00:00,1746A,118.8788,42.2554,赤峰市,天义路,,42,14,23,8,10,206,132,192,148,13,17,14,15,0.4,0.3
2023-07-20T00:00:00,1748A,123.044,41.1196,鞍山市,深沟寺,臭氧1小时,63,66,54,43,35,245,170,229,199,11,14,10,11,0.9,1
2023-07-20T00:00:00,1749A,123.011,41.0931,鞍山市,太阳城,"颗粒物(PM10),细颗粒物(PM2.5),臭氧1小时",57,64,54,40,32,243,165,225,192,10,14,9,10,1.0,1.2
2023-07-20T00:00:00,1750A,123.0485,41.1442,鞍山市,太平,"细颗粒物(PM2.5),臭氧1小时",62,72,64,44,36,242,169,225,196,12,16,9,10,1.1,1.1
2023-07-20T00:00:00,1751A,122.9642,41.0971,鞍山市,铁西三道街,颗粒物(PM10),69,88,74,49,41,249,147,232,194,30,21,14,11,2.0,1.5
2023-07-20T00:00:00,1752A,122.9341,41.0833,鞍山市,铁西工业园区,颗粒物(PM10),67,84,67,47,36,242,159,223,188,20,20,10,10,1.5,1.4
2023-07-20T00:00:00,1753A,123.022,41.0821,鞍山市,明达新区,臭氧1小时,72,66,51,42,33,246,177,226,197,11,15,7,7,0.8,0.9
2023-07-20T00:00:00,1754A,123.1289,41.0228,鞍山市,千山,,,,44,,29,235,,215,172,,8,,5,,1.2
2023-07-20T00:00:00,1755A,123.7977,41.8491,抚顺市,望花区,细颗粒物(PM2.5),79,86,75,58,44,266,146,231,199,29,27,20,10,0.9,1.1
2023-07-20T00:00:00,1756A,123.9161,41.8822,抚顺市,顺城区,颗粒物(PM10),93,135,67,61,40,267,136,236,202,24,22,12,6,1.4,1.2
2023-07-20T00:00:00,1757A,124.0436,41.8611,抚顺市,东洲区,"颗粒物(PM10),细颗粒物(PM2.5)",68,85,58,49,37,246,94,224,174,28,16,8,10,0.9,0.9
2023-07-20T00:00:00,1758A,123.9247,41.8642,抚顺市,新抚区,细颗粒物(PM2.5),84,80,69,62,47,260,101,231,184,23,22,8,8,1.2,1.1
2023-07-20T00:00:00,1759A,124.0972,41.8961,抚顺市,大伙房水库,颗粒物(PM10),57,63,53,39,34,240,88,217,166,14,11,4,6,0.8,0.9
2023-07-20T00:00:00,1760A,123.7086,41.8391,抚顺市,沈抚新城,细颗粒物(PM2.5),85,81,75,63,47,251,112,202,183,33,28,17,14,1.4,1.4
2023-07-20T00:00:00,1761A,123.8275,41.3064,本溪市,大峪,颗粒物(PM10),70,90,78,29,32,208,107,185,151,21,24,5,8,0.8,1.3
2023-07-20T00:00:00,1762A,123.7567,41.3325,本溪市,溪湖,细颗粒物(PM2.5),114,129,67,86,39,198,90,186,154,29,22,4,8,1.3,1.4
2023-07-20T00:00:00,1763A,123.7169,41.3094,本溪市,彩屯,细颗粒物(PM2.5),64,66,63,46,40,186,90,175,125,22,28,6,7,1.0,1.6
2023-07-20T00:00:00,1764A,123.7669,41.2864,本溪市,东明,细颗粒物(PM2.5),68,79,64,49,37,188,86,176,157,43,31,9,10,1.2,1.4
2023-07-20T00:00:00,1765A,123.7992,41.2664,本溪市,新立屯,,49,49,46,32,29,159,106,151,105,40,31,7,7,1.0,1
2023-07-20T00:00:00,1766A,123.8142,41.3472,本溪市,威宁,细颗粒物(PM2.5),59,64,65,42,40,191,33,172,107,27,21,5,8,0.8,1
2023-07-20T00:00:00,1767A,121.1115,41.0879,锦州市,南山,细颗粒物(PM2.5),85,88,66,63,47,278,115,254,182,35,27,7,7,1.0,0.9
2023-07-20T00:00:00,1768A,121.0533,40.8434,锦州市,开发区,颗粒物(PM10),72,94,92,49,43,266,122,243,200,42,27,8,18,1.0,1.2
2023-07-20T00:00:00,1769A,121.1836,41.1119,锦州市,百股街道,细颗粒物(PM2.5),85,90,64,63,43,283,112,258,183,34,28,6,8,0.9,0.9
2023-07-20T00:00:00,1770A,121.1178,41.1222,锦州市,天安街道,细颗粒物(PM2.5),84,95,76,62,41,280,117,247,177,32,32,6,8,1.1,1.1
2023-07-20T00:00:00,1771A,121.1303,41.1386,锦州市,北湖公园,细颗粒物(PM2.5),100,121,80,75,42,285,102,254,184,33,26,5,7,1.5,1.1
2023-07-20T00:00:00,1772A,126.54,43.8622,吉林市,哈达湾,,27,25,30,12,19,138,84,119,106,13,13,5,5,0.7,0.6
2023-07-20T00:00:00,1773A,126.5844,43.8358,吉林市,东局子,,32,32,30,16,17,133,61,118,85,25,19,5,5,0.7,0.8
2023-07-20T00:00:00,1774A,126.5052,43.8245,吉林市,电力学院,,22,20,28,13,15,128,69,111,97,14,18,6,6,0.6,0.6
2023-07-20T00:00:00,1775A,126.6133,43.8972,吉林市,江北,,32,32,36,15,17,139,65,121,88,15,13,6,6,0.7,0.8
2023-07-20T00:00:00,1776A,126.555,43.8306,吉林市,江南公园,,29,22,28,20,20,132,70,117,101,16,15,4,5,0.7,0.7
2023-07-20T00:00:00,1778A,126.7061,43.7133,吉林市,丰满,,,,,,,,,,,,,,,,
2023-07-20T00:00:00,1779A,123.9305,47.3636,齐齐哈尔市,安居小区,,32,22,35,22,12,120,82,112,96,13,15,5,5,0.5,0.5
2023-07-20T00:00:00,1780A,123.9488,47.3386,齐齐哈尔市,中心广场,,26,26,23,7,6,125,82,113,99,17,14,5,4,0.3,0.3
2023-07-20T00:00:00,1781A,123.9483,47.3227,齐齐哈尔市,农牧车辆厂,,36,36,37,10,7,128,85,119,106,13,9,8,6,0.4,0.3
2023-07-20T00:00:00,1783A,123.945,47.2988,齐齐哈尔市,市环境监测站,,28,16,19,18,12,132,87,122,108,11,8,8,7,0.3,0.3
2023-07-20T00:00:00,1784A,129.61,44.561,牡丹江市,环保大楼,,19,18,14,13,9,104,22,94,73,26,11,5,5,0.6,0.4
2023-07-20T00:00:00,1785A,129.6115,44.5782,牡丹江市,文化广场,,38,14,14,26,15,90,11,86,59,30,17,5,5,0.7,0.5
2023-07-20T00:00:00,1786A,129.5904,44.5963,牡丹江市,第一医院,,18,13,17,12,12,87,30,80,56,9,11,4,4,0.4,0.4
2023-07-20T00:00:00,1787A,129.6364,44.6075,牡丹江市,机车工厂,,18,18,26,11,11,110,24,88,52,7,10,3,3,0.5,0.5
2023-07-20T00:00:00,1788A,129.6386,44.5462,牡丹江市,第一中学,,11,11,15,7,6,96,18,91,51,16,11,4,4,0.3,0.3
2023-07-20T00:00:00,1789A,124.81117,46.03138,大庆市,大同区,颗粒物(PM10),52,53,23,30,12,144,92,132,106,10,12,4,4,0.5,0.3
2023-07-20T00:00:00,1790A,125.129,46.533,大庆市,龙凤区,,27,17,19,12,8,134,84,114,107,9,11,5,5,0.3,0.3
2023-07-20T00:00:00,1791A,124.902,46.408,大庆市,红岗区,,28,16,17,18,12,153,88,136,118,11,10,3,2,0.4,0.4
2023-07-20T00:00:00,1792A,125.153,46.586,大庆市,萨尔图区,,27,25,18,14,11,128,84,112,108,12,10,3,4,0.6,0.3
2023-07-20T00:00:00,1793A,124.9042,46.6215,大庆市,让胡路区,,27,14,15,6,7,151,86,129,121,15,10,2,3,0.4,0.3
2023-07-20T00:00:00,1794A,118.3606,31.3519,芜湖市,监测站,,20,4,25,2,16,166,61,126,83,7,17,3,3,0.4,0.6
2023-07-20T00:00:00,1795A,118.3714,31.4134,芜湖市,科创中心,,18,6,27,3,16,145,55,122,73,12,20,4,5,0.3,0.4
2023-07-20T00:00:00,1796A,118.3673,31.3131,芜湖市,四水厂,,20,9,23,2,15,175,62,130,88,6,14,2,3,0.5,0.7
2023-07-20T00:00:00,1798A,118.5092,31.6837,马鞍山市,湖东路四小,,21,0,26,4,18,130,65,95,70,7,16,5,7,0.7,0.9
2023-07-20T00:00:00,1799A,118.5024,31.6449,马鞍山市,开发区,,20,5,31,2,15,124,62,93,67,6,19,8,8,0.6,0.8
2023-07-20T00:00:00,1800A,118.5228,31.7231,马鞍山市,慈湖,,23,0,39,7,23,128,71,94,72,7,20,10,11,0.9,1
2023-07-20T00:00:00,1802A,118.6245,31.7241,马鞍山市,濮塘,,24,4,13,6,15,137,76,106,79,2,13,4,4,0.5,0.7
2023-07-20T00:00:00,1803A,115.9872,29.6815,九江市,十里,,15,2,15,2,11,139,47,95,63,9,14,10,10,0.5,0.6
2023-07-20T00:00:00,1804A,115.9584,29.7046,九江市,茅山头,,16,2,14,2,8,116,50,93,66,10,18,9,9,0.8,0.8
2023-07-20T00:00:00,1805A,115.9877,29.7295,九江市,西园,,15,8,17,4,8,144,48,96,62,14,26,8,10,0.3,0.4
2023-07-20T00:00:00,1806A,116.0172,29.6547,九江市,五七二七厂,,13,8,16,3,6,85,41,63,49,3,5,8,8,0.4,0.4
2023-07-20T00:00:00,1808A,115.9114,29.6038,九江市,综合工业园,,16,7,17,0,7,85,27,78,56,32,18,9,10,0.5,0.6
2023-07-20T00:00:00,1809A,116.0721,29.7535,九江市,石化总厂,,16,6,19,11,9,91,40,77,61,12,12,9,10,0.5,0.5
2023-07-20T00:00:00,1810A,115.9773,29.5698,九江市,庐山气象台,,20,6,7,3,6,76,64,69,63,1,2,8,7,0.7,0.8
2023-07-20T00:00:00,1812A,112.3931,34.6516,洛阳市,市委党校,,49,39,57,34,39,212,100,173,128,5,22,4,7,0.8,0.8
2023-07-20T00:00:00,1814A,112.4657,34.6871,洛阳市,豫西宾馆,,46,31,63,32,36,209,104,184,134,4,15,1,4,0.6,0.7
2023-07-20T00:00:00,1815A,112.494,34.6886,洛阳市,河南林校,,37,37,56,25,33,204,105,184,134,8,19,4,6,0.5,0.7
2023-07-20T00:00:00,1816A,112.3844,34.623,洛阳市,开发区管委会,,45,45,56,25,31,213,103,182,135,12,17,7,10,1.0,1
2023-07-20T00:00:00,1817A,112.4267,34.6258,洛阳市,市委新办公区,,42,41,56,29,37,209,104,177,132,5,11,3,3,0.4,0.4
2023-07-20T00:00:00,1818A,114.4839,36.0621,安阳市,棉研所,,50,50,53,21,28,174,62,160,98,18,21,6,7,0.5,0.6
2023-07-20T00:00:00,1819A,114.3551,36.1017,安阳市,红庙街,,45,45,51,16,26,190,79,168,115,8,8,4,6,0.4,0.4
2023-07-20T00:00:00,1820A,114.361,36.0681,安阳市,银杏小区,,42,42,50,25,43,183,76,164,114,11,11,4,5,0.4,0.4
2023-07-20T00:00:00,1824A,114.3389,34.7781,开封市,肿瘤医院,,,6,46,9,25,100,,95,73,,10,,7,,0.5
2023-07-20T00:00:00,1826A,114.2885,34.7965,开封市,世纪星幼儿园,,,20,42,,,117,56,107,76,12,12,4,4,0.5,0.6
2023-07-20T00:00:00,1828A,113.227,35.2125,焦作市,市环保局,,49,37,46,34,30,196,86,190,128,10,11,3,2,0.6,0.6
2023-07-20T00:00:00,1830A,113.1992,35.2590,焦作市,影视城,,24,24,34,15,22,198,75,190,136,10,6,3,4,0.6,0.7
2023-07-20T00:00:00,1832A,113.3257,33.742,平顶山市,新华旅馆,,25,25,47,8,29,110,54,102,85,17,21,5,6,0.4,0.6
2023-07-20T00:00:00,1833A,113.2919,33.737,平顶山市,规划设计院,,17,14,53,11,25,107,54,102,86,16,24,5,7,0.6,0.7
2023-07-20T00:00:00,1834A,113.182,33.774,平顶山市,平顶山工学院,,33,33,53,14,22,121,49,112,91,19,18,4,7,0.5,0.5
2023-07-20T00:00:00,1835A,111.1922,34.7752,三门峡市,市政府,,47,47,49,28,26,169,109,151,132,11,19,3,4,0.6,0.6
2023-07-20T00:00:00,1836A,111.1587,34.7942,三门峡市,开发区,颗粒物(PM10),60,69,62,30,29,187,113,159,133,16,16,4,7,0.4,0.4
2023-07-20T00:00:00,1838A,111.143,34.7955,三门峡市,风景区,,47,47,53,29,34,187,112,162,135,16,15,7,7,0.3,0.4
2023-07-20T00:00:00,1840A,111.2992,30.6981,宜昌市,白龙岗,,25,22,22,17,16,116,40,95,64,14,15,5,5,0.4,0.4
2023-07-20T00:00:00,1841A,111.3549,30.6465,宜昌市,伍家岗,,24,24,24,12,18,132,36,111,76,19,20,3,3,0.6,0.6
2023-07-20T00:00:00,1842A,111.2628,30.6961,宜昌市,点军区,,24,24,23,7,12,116,65,103,72,8,9,4,5,0.4,0.5
2023-07-20T00:00:00,1843A,111.3275,30.7819,宜昌市,夷陵区,,16,16,25,9,14,122,43,102,74,8,12,2,2,0.5,0.6
2023-07-20T00:00:00,1844A,112.2494,30.3197,荆州市,市图书馆,,35,25,41,24,26,137,66,123,102,18,13,7,7,0.7,0.7
2023-07-20T00:00:00,1845A,112.2008,30.3544,荆州市,市委党校,,37,37,45,22,28,124,61,116,97,25,13,6,7,0.8,0.8
2023-07-20T00:00:00,1847A,113.1094,29.3578,岳阳市,南湖风景区,,15,12,23,10,15,105,31,79,50,11,10,8,8,0.8,0.9
2023-07-20T00:00:00,1848A,113.1493,29.4251,岳阳市,城陵矶,,16,16,19,10,15,96,10,69,38,31,19,6,5,0.6,0.7
2023-07-20T00:00:00,1849A,113.1497,29.3575,岳阳市,开发区,,18,18,30,7,14,100,8,72,38,24,12,8,8,0.6,0.7
2023-07-20T00:00:00,1850A,113.2621,29.4758,岳阳市,云溪区,,13,13,22,9,14,97,26,76,42,6,11,7,9,0.6,0.7
2023-07-20T00:00:00,1851A,112.9943,29.4402,岳阳市,君山区,,13,12,21,9,17,102,27,86,53,13,13,6,6,0.6,0.7
2023-07-20T00:00:00,1852A,113.2117,29.355,岳阳市,金凤水库,,18,17,20,12,15,104,18,80,42,14,7,3,3,0.3,0.5
2023-07-20T00:00:00,1854A,111.6975,28.9703,常德市,市二中,,25,23,18,17,14,126,53,112,92,13,6,3,4,0.4,0.4
2023-07-20T00:00:00,1857A,111.7158,29.1456,常德市,白鹤山,,18,18,13,11,8,110,44,93,59,12,8,4,5,0.4,0.4
2023-07-20T00:00:00,1858A,110.5319,29.1217,张家界市,永定新区,,30,26,34,21,25,78,9,70,43,12,12,4,4,0.3,0.3
2023-07-20T00:00:00,1859A,110.4697,29.1242,张家界市,电业局,,23,19,29,16,22,108,25,79,46,12,16,5,5,0.4,0.4
2023-07-20T00:00:00,1860A,110.5594,29.3547,张家界市,未央路,,36,36,30,14,20,82,4,79,30,10,8,3,3,0.3,0.3
2023-07-20T00:00:00,1861A,110.4417,29.315,张家界市,袁家界,,13,11,17,9,14,107,7,88,26,3,4,4,5,0.6,0.6
2023-07-20T00:00:00,1862A,110.4144,25.3167,桂林市,电子科大尧山校区,,15,15,24,8,13,97,41,81,67,6,6,4,5,0.6,0.7
2023-07-20T00:00:00,1863A,110.2819,25.2697,桂林市,监测站,,23,15,24,16,13,85,44,80,60,10,9,5,5,0.7,0.7
2023-07-20T00:00:00,1864A,110.3089,25.2708,桂林市,龙隐路小学,,15,10,20,10,12,85,39,76,59,9,8,6,7,0.4,0.6
2023-07-20T00:00:00,1865A,110.2869,25.2178,桂林市,八中,,16,16,20,9,13,86,41,76,56,13,12,3,4,0.5,0.5
2023-07-20T00:00:00,1866A,109.2262,21.588,北海市,牛尾岭水库,,15,15,20,5,9,82,26,72,48,9,6,5,5,0.5,0.5
2023-07-20T00:00:00,1867A,109.1436,21.4086,北海市,海滩公园,,50,50,25,2,6,88,46,79,58,4,4,4,4,0.6,0.6
2023-07-20T00:00:00,1868A,109.0981,21.4661,北海市,新市环保局,,16,16,22,9,9,85,45,79,60,4,4,2,2,0.5,0.5
2023-07-20T00:00:00,1869A,109.1778,21.5233,北海市,北海工业园,,,,31,12,12,82,35,78,56,6,4,4,4,0.5,0.5
2023-07-20T00:00:00,1870A,109.4856,24.3895,柳州市,柳东小学,,16,16,18,9,11,86,35,78,64,10,6,13,8,0.3,0.3
2023-07-20T00:00:00,1871A,109.4157,24.3277,柳州市,环保监测站,,20,20,16,8,11,78,43,73,58,14,9,6,4,0.6,0.5
2023-07-20T00:00:00,1872A,109.389,24.341,柳州市,河西水厂,,19,19,19,9,12,82,37,75,59,14,10,7,8,0.6,0.6
2023-07-20T00:00:00,1873A,109.4311,24.2921,柳州市,市四中,,,18,22,15,11,83,,75,64,17,9,11,7,0.8,0.7
2023-07-20T00:00:00,1874A,109.4006,24.3631,柳州市,市九中,,34,34,22,12,14,83,38,76,60,16,9,10,6,0.7,0.6
2023-07-20T00:00:00,1875A,109.4958,24.3134,柳州市,古亭山,,12,1,19,8,12,93,35,76,62,16,10,6,5,0.7,0.6
2023-07-20T00:00:00,1876A,109.5078,18.2489,三亚市,河东子站,,19,19,18,10,9,63,48,60,51,1,2,2,2,0.5,0.5
2023-07-20T00:00:00,1877A,109.4964,18.2681,三亚市,河西子站,,15,15,18,9,10,65,48,62,53,6,6,1,1,0.2,0.3
2023-07-20T00:00:00,1878A,104.7778,31.4741,绵阳市,富乐山,,30,30,35,19,23,188,77,164,115,7,10,3,3,0.5,0.6
2023-07-20T00:00:00,1879A,104.7563,31.4535,绵阳市,市人大,,23,16,33,5,21,172,72,155,111,6,15,5,10,0.4,0.6
2023-07-20T00:00:00,1880A,104.6697,31.4668,绵阳市,高新区自来水公司,,36,27,46,25,27,185,70,165,120,11,23,6,6,0.5,0.6
2023-07-20T00:00:00,1881A,104.7287,31.5075,绵阳市,三水厂,,33,33,43,20,27,183,75,158,111,6,23,5,6,0.5,0.5
2023-07-20T00:00:00,1882A,104.563,28.793,宜宾市,石马中学,,20,19,28,11,16,126,63,95,76,9,16,7,6,0.4,0.5
2023-07-20T00:00:00,1883A,104.6201,28.7728,宜宾市,市委,,25,25,30,16,20,108,56,84,66,18,22,8,10,0.5,0.5
2023-07-20T00:00:00,1884A,104.6055,28.793,宜宾市,宜宾四中,,29,29,37,19,23,108,44,86,63,22,26,8,9,0.6,0.6
2023-07-20T00:00:00,1885A,104.639,28.7562,宜宾市,市政府,,29,29,34,18,19,106,39,83,56,23,24,7,9,0.7,0.7
2023-07-20T00:00:00,1886A,104.5742,28.7199,宜宾市,黄金嘴,,23,21,32,16,20,105,61,90,74,13,19,11,7,0.6,0.7
2023-07-20T00:00:00,1888A,101.6891,26.571,攀枝花市,弄弄坪,颗粒物(PM10),61,71,58,35,26,166,62,143,84,28,27,22,18,1.2,1.1
2023-07-20T00:00:00,1889A,101.5769,26.5928,攀枝花市,河门口,颗粒物(PM10),58,65,52,37,28,177,40,152,97,50,25,47,29,2.8,1.3
2023-07-20T00:00:00,1890A,101.7169,26.585,攀枝花市,炳草岗,颗粒物(PM10),54,57,54,32,27,163,66,163,80,31,28,29,26,1.0,0.9
2023-07-20T00:00:00,1891A,101.7369,26.5008,攀枝花市,仁和,,30,30,36,21,24,169,50,147,86,13,15,8,14,0.7,0.7
2023-07-20T00:00:00,1893A,105.4324,28.9634,泸州市,九狮山,,24,24,23,6,9,59,13,52,38,20,19,6,6,0.5,0.5
2023-07-20T00:00:00,1894A,105.4427,28.9063,泸州市,小市上码头,,30,30,51,11,16,74,46,62,52,14,16,7,11,0.7,0.7
2023-07-20T00:00:00,1895A,105.4241,28.8573,泸州市,兰田宪桥,,15,12,31,4,16,75,46,66,53,6,11,7,7,0.6,0.7
2023-07-20T00:00:00,1896A,105.4379,28.8833,泸州市,市环监站,,15,11,25,5,11,75,48,61,52,8,11,4,7,0.4,0.6
2023-07-20T00:00:00,1901A,104.4239,31.1208,德阳市,东山公园,,40,35,46,28,28,194,96,171,142,8,17,2,3,0.5,0.6
2023-07-20T00:00:00,1902A,104.3826,31.1317,德阳市,西小区,,45,45,58,27,32,200,84,179,149,10,24,1,4,0.4,0.6
2023-07-20T00:00:00,1904A,104.3553,31.1091,德阳市,耐火材料厂,,38,34,52,26,34,204,83,185,151,8,23,1,3,0.5,0.7
2023-07-20T00:00:00,1905A,106.056,30.8064,南充市,西山风景区,,31,31,36,12,24,165,60,134,69,5,7,3,7,0.4,0.5
2023-07-20T00:00:00,1906A,106.0789,30.8023,南充市,南充市委,,35,35,46,14,23,166,68,140,75,12,16,11,13,0.4,0.5
2023-07-20T00:00:00,1907A,106.1031,30.8217,南充市,南充炼油厂,,30,30,52,14,25,169,67,144,76,13,16,9,13,0.3,0.4
2023-07-20T00:00:00,1908A,106.1064,30.7856,南充市,高坪区监测站,,25,25,51,6,26,158,59,135,73,20,22,10,20,0.4,0.5
2023-07-20T00:00:00,1909A,106.0642,30.7636,南充市,嘉陵区环保局,,27,27,45,17,28,163,63,134,67,13,19,8,16,0.4,0.5
2023-07-20T00:00:00,1910A,106.1087,30.8388,南充市,市环境监测站,,42,42,45,21,29,169,60,154,73,20,19,7,11,0.4,0.4
2023-07-20T00:00:00,1911A,106.9222,27.6869,遵义市,丁字口,,15,9,16,10,8,67,17,61,41,24,16,4,4,0.6,0.5
2023-07-20T00:00:00,1912A,106.9242,27.7019,遵义市,凤凰山,,32,24,19,22,18,65,40,60,44,9,10,6,6,0.3,0.4
2023-07-20T00:00:00,1913A,106.8906,27.6486,遵义市,忠庄,,19,19,16,8,8,68,29,59,43,9,9,2,2,0.5,0.5
2023-07-20T00:00:00,1914A,106.9231,27.6506,遵义市,舟水桥,,10,10,9,5,11,73,5,64,36,15,8,1,1,0.6,0.6
2023-07-20T00:00:00,1915A,106.9178,27.72,遵义市,干田坝,,26,26,12,6,9,69,6,64,33,23,12,5,5,0.6,0.5
2023-07-20T00:00:00,1916A,103.7897,25.5035,曲靖市,环境监测站,,15,15,12,8,7,102,32,96,48,26,14,2,2,1.1,0.7
2023-07-20T00:00:00,1917A,103.8,25.5364,曲靖市,烟厂办公区,,12,9,13,2,9,98,36,91,46,16,8,3,3,0.5,0.5
2023-07-20T00:00:00,1918A,108.7197,34.3956,咸阳市,气象站,,,,,,,,,,,,,,,,
2023-07-20T00:00:00,1919A,108.673,34.3155,咸阳市,实验中学,颗粒物(PM10),51,52,46,26,24,204,108,187,164,21,17,6,6,0.6,0.6
2023-07-20T00:00:00,1920A,108.7233,34.3617,咸阳市,师范学院,颗粒物(PM10),51,52,47,30,26,196,107,186,159,27,20,6,6,0.6,0.7
2023-07-20T00:00:00,1922A,109.0656,35.0994,铜川市,党校,颗粒物(PM10),56,62,44,24,21,170,73,156,122,32,18,7,7,0.9,0.9
2023-07-20T00:00:00,1923A,109.0697,35.0697,铜川市,王益区政府,,47,47,36,23,22,173,60,162,126,27,17,3,4,0.6,0.6
2023-07-20T00:00:00,1924A,108.9344,34.9058,铜川市,新区管委会,,48,48,42,24,23,170,94,163,142,25,16,8,8,0.6,0.5
2023-07-20T00:00:00,1926A,109.4131,36.6275,延安市,枣园,,48,48,39,27,22,173,18,143,85,60,28,6,6,0.7,0.6
2023-07-20T00:00:00,1927A,109.4761,36.6028,延安市,延大医附院,,50,50,39,21,20,175,55,157,123,60,27,5,5,0.5,0.3
2023-07-20T00:00:00,1929A,109.5056,36.6106,延安市,百米大道,颗粒物(PM10),53,55,48,24,26,172,66,151,128,54,30,13,9,0.8,0.7
2023-07-20T00:00:00,1930A,107.185,34.3063,宝鸡市,庙沟村,,28,25,35,19,21,184,89,163,113,4,7,8,9,0.4,0.4
2023-07-20T00:00:00,1931A,107.0708,34.3017,宝鸡市,竹园沟,,33,18,32,23,23,210,65,187,127,22,14,5,6,0.4,0.5
2023-07-20T00:00:00,1932A,107.1906,34.3672,宝鸡市,三陆医院,,39,39,49,22,28,206,89,194,151,24,21,6,9,0.5,0.5
2023-07-20T00:00:00,1933A,107.1431,34.3547,宝鸡市,监测站,,35,35,44,23,25,207,67,192,135,24,17,9,9,0.5,0.5
2023-07-20T00:00:00,1934A,107.1186,34.3739,宝鸡市,技工学校,,49,45,46,34,28,206,84,190,149,20,17,5,6,0.5,0.5
2023-07-20T00:00:00,1935A,107.3906,34.3528,宝鸡市,陈仓区环保局家属楼,,44,44,50,27,30,208,78,200,146,45,32,6,7,0.5,0.5
2023-07-20T00:00:00,1936A,107.2058,34.3497,宝鸡市,文理学院,细颗粒物(PM2.5),79,66,52,58,36,204,69,195,140,26,16,9,10,0.5,0.5
2023-07-20T00:00:00,1937A,107.2386,34.3622,宝鸡市,三迪小学,颗粒物(PM10),57,63,66,39,38,202,62,197,131,35,22,5,5,0.5,0.6
2023-07-20T00:00:00,1938A,109.5293,34.5101,渭南市,农科所,颗粒物(PM10),52,53,48,29,29,172,39,156,115,48,23,5,5,0.8,0.8
2023-07-20T00:00:00,1939A,109.4974,34.4877,渭南市,日报社,细颗粒物(PM2.5),55,58,54,39,31,191,46,176,129,36,27,6,7,0.5,0.5
2023-07-20T00:00:00,1940A,109.4636,34.493,渭南市,体育馆,颗粒物(PM10),51,51,49,22,25,194,25,179,134,73,31,5,6,0.6,0.5
2023-07-20T00:00:00,1941A,109.4259,34.5023,渭南市,高新一小,颗粒物(PM10),53,56,55,24,25,189,76,179,146,21,14,5,6,0.5,0.5
2023-07-20T00:00:00,1943A,102.1725,38.5339,金昌市,新川苑,颗粒物(PM10),120,190,207,36,38,132,131,126,123,5,13,8,11,0.4,0.6
2023-07-20T00:00:00,1944A,102.1692,38.5167,金昌市,天庆家园,颗粒物(PM10),94,137,157,25,38,132,132,129,128,6,17,4,11,0.5,0.6
2023-07-20T00:00:00,1945A,98.2908,39.7711,嘉峪关市,气象局,颗粒物(PM10),87,124,116,22,22,130,106,124,116,14,11,3,6,0.2,0.3
2023-07-20T00:00:00,1947A,106.3394,38.817,石嘴山市,沙湖旅游区,颗粒物(PM10),78,106,49,18,16,201,111,193,152,7,11,14,17,0.5,0.6
2023-07-20T00:00:00,1948A,106.3668,39.0145,石嘴山市,大武口朝阳西街,颗粒物(PM10),102,153,68,33,25,196,87,187,160,16,17,37,24,0.9,0.6
2023-07-20T00:00:00,1949A,106.7704,39.2282,石嘴山市,惠农南大街,,42,42,46,16,17,198,101,185,142,14,16,5,5,0.4,0.4
2023-07-20T00:00:00,1950A,106.7099,39.1325,石嘴山市,红果子镇惠新街,颗粒物(PM10),55,60,51,17,20,200,106,192,146,10,15,10,8,0.3,0.4
2023-07-20T00:00:00,1951A,84.895,45.6094,克拉玛依市,长征新村,,31,30,29,4,6,135,99,127,110,15,14,9,9,0.2,0.2
2023-07-20T00:00:00,1952A,84.8988,45.5893,克拉玛依市,南林小区,,49,18,36,34,10,125,81,119,89,29,28,4,4,0.1,0.2
2023-07-20T00:00:00,1954A,84.905,44.3396,克拉玛依市,独山子区,,48,48,41,22,15,181,91,159,124,7,12,6,12,0.3,0.4
2023-07-20T00:00:00,1955A,85.6979,46.098,克拉玛依市,乌尔禾区商贸楼,,34,14,15,10,7,114,106,109,107,1,7,7,7,0.2,0.3
2023-07-20T00:00:00,1956A,86.1472,41.7538,巴音郭楞州,孔雀公园,颗粒物(PM10),114,178,75,54,19,153,1,138,99,104,17,7,6,1.8,0.4
2023-07-20T00:00:00,1957A,86.1972,41.7166,巴音郭楞州,棉纺厂,颗粒物(PM10),105,159,82,70,27,155,1,142,103,99,15,5,5,0.9,0.3
2023-07-20T00:00:00,1958A,86.2357,41.7173,巴音郭楞州,经济开发区,颗粒物(PM10),190,330,75,92,22,157,11,142,103,70,9,4,4,0.3,0.2
2023-07-20T00:00:00,1961A,117.532,36.6868,济南市,东山小学,颗粒物(PM10),53,56,43,22,20,212,141,195,142,16,15,8,6,0.7,0.5
2023-07-20T00:00:00,1966A,120.0405,35.8735,青岛市,黄岛区4号,,,24,29,9,16,113,82,113,88,3,7,,7,0.4,0.7
2023-07-20T00:00:00,1982A,122.0693,37.2174,威海市,文登开发区,,35,27,37,17,19,164,110,159,133,8,18,5,6,0.5,0.5
2023-07-20T00:00:00,2031A,113.1817,27.9958,株洲市,云田中学,,19,19,13,6,9,120,20,86,47,11,10,6,6,0.5,0.5
2023-07-20T00:00:00,2054A,114.1099,32.1059,信阳市,平桥分局,,22,22,24,0,11,101,40,85,53,5,8,6,6,0.3,0.4
2023-07-20T00:00:00,2064A,113.9956,32.1271,信阳市,南湾水厂,,13,9,26,2,11,88,40,73,44,6,8,2,4,0.4,0.5
2023-07-20T00:00:00,2065A,114.0775,32.1195,信阳市,市酿酒公司,,14,11,25,5,16,97,44,80,52,6,11,7,7,0.6,0.6
2023-07-20T00:00:00,2066A,114.0609,32.1399,信阳市,审计局,,15,14,27,10,19,107,48,88,57,5,9,1,1,0.5,0.5
2023-07-20T00:00:00,2067A,114.6613,33.6128,周口市,市环境监测站,,,,46,9,17,112,61,89,71,8,9,3,4,0.3,0.4
2023-07-20T00:00:00,2068A,114.6758,33.6347,周口市,周口师范,,20,8,26,0,10,106,61,87,72,6,7,4,6,0.3,0.3
2023-07-20T00:00:00,2069A,114.6546,33.5979,周口市,市运管处,,19,12,27,7,13,111,59,88,72,2,3,6,6,0.4,0.5
2023-07-20T00:00:00,2070A,114.6369,33.6406,周口市,川汇区环保局,,20,5,21,0,10,99,62,82,71,6,8,1,2,0.4,0.5
2023-07-20T00:00:00,2075A,117.6336,24.4674,漳州市,九湖,,,,20,,9,,,,,,9,,2,,
2023-07-20T00:00:00,2160A,112.85,35.5051,晋城市,自来水公司,颗粒物(PM10),61,71,62,22,31,221,136,208,181,12,17,6,8,0.8,1
2023-07-20T00:00:00,2161A,112.8318,35.4936,晋城市,白云商贸,,38,36,49,24,29,214,120,200,170,14,18,9,10,0.7,0.9
2023-07-20T00:00:00,2162A,112.8508,35.4887,晋城市,市环保局,,46,46,56,22,34,200,111,188,157,14,20,9,9,0.7,0.9
2023-07-20T00:00:00,2163A,112.8676,35.4897,晋城市,技术学院,,41,41,59,22,30,215,121,197,167,11,18,8,9,0.8,0.9
2023-07-20T00:00:00,2165A,112.8453,35.546,晋城市,白马寺,,48,44,43,33,39,207,131,192,167,11,12,6,7,0.6,0.8
2023-07-20T00:00:00,2166A,112.4397,39.3522,朔州市,平朔,颗粒物(PM10),51,52,58,20,27,201,113,193,154,20,25,5,10,0.6,0.7
2023-07-20T00:00:00,2167A,112.4575,39.3617,朔州市,朔唯,颗粒物(PM10),56,61,70,15,28,211,127,206,165,19,25,6,11,0.5,0.6
2023-07-20T00:00:00,2168A,112.4258,39.3197,朔州市,区政府,,,43,53,13,21,195,132,188,153,,25,4,7,0.5,0.5
2023-07-20T00:00:00,2169A,112.4072,39.3278,朔州市,市环保局,,48,48,56,16,26,208,140,200,166,12,16,5,11,0.5,0.5
2023-07-20T00:00:00,2170A,112.4272,39.3681,朔州市,市二中,,47,47,73,27,26,200,105,195,152,21,24,8,11,0.7,0.6
2023-07-20T00:00:00,2171A,112.7532,37.6945,晋中市,锦纶小区,臭氧1小时,101,63,56,34,22,229,201,216,205,17,18,16,13,0.8,0.6
2023-07-20T00:00:00,2173A,112.7249,37.7067,晋中市,南都小区,臭氧1小时,97,63,62,32,28,234,197,218,200,16,21,14,13,0.7,0.6
2023-07-20T00:00:00,2174A,112.6991,37.6982,晋中市,榆次区政府,臭氧1小时,98,69,58,31,26,223,198,210,196,15,18,13,11,0.7,0.6
2023-07-20T00:00:00,2175A,110.9956,35.0147,运城市,运城中学,,50,50,46,26,24,153,120,145,136,5,6,5,5,0.7,0.8
2023-07-20T00:00:00,2178A,110.9686,35.0303,运城市,地区技校,,48,48,39,30,23,180,142,164,155,5,5,4,4,0.7,0.9
2023-07-20T00:00:00,2179A,111.0414,35.1147,运城市,空港新区,颗粒物(PM10),56,62,53,29,30,167,123,156,146,11,9,4,4,0.7,0.7
2023-07-20T00:00:00,2181A,112.7383,38.4519,忻州市,开发区,颗粒物(PM10),64,78,49,31,26,187,98,178,155,58,25,10,12,0.7,0.6
2023-07-20T00:00:00,2182A,112.7003,38.4928,忻州市,会展中心,颗粒物(PM10),58,66,52,32,31,194,152,178,148,22,26,10,8,0.7,0.5
2023-07-20T00:00:00,2183A,111.1406,37.5211,吕梁市,环保局,颗粒物(PM10),70,90,72,41,38,209,73,195,150,73,36,5,6,0.7,0.6
2023-07-20T00:00:00,2185A,111.1297,37.5136,吕梁市,自来水公司,颗粒物(PM10),71,92,81,42,39,208,84,195,162,55,32,6,8,0.7,0.6
2023-07-20T00:00:00,2187A,106.8174,39.6973,乌海市,市林业局,颗粒物(PM10),51,51,57,18,19,194,129,184,155,8,13,14,17,0.6,0.7
2023-07-20T00:00:00,2188A,106.7907,39.6667,乌海市,中海勃湾学校,,47,47,49,20,21,187,122,181,148,12,14,17,18,0.4,0.5
2023-07-20T00:00:00,2191A,122.2532,43.6801,通辽市,艺术职业学校,颗粒物(PM10),62,74,55,34,29,163,66,155,114,28,18,5,5,0.7,0.7
2023-07-20T00:00:00,2192A,119.7594,49.2261,呼伦贝尔市,区环保局,,28,28,28,14,18,92,44,88,65,14,9,5,5,0.4,0.4
2023-07-20T00:00:00,2195A,107.4212,40.761,巴彦淖尔市,附二中,颗粒物(PM10),62,74,41,22,18,174,150,166,154,8,8,3,3,0.5,0.5
2023-07-20T00:00:00,2196A,107.37,40.7372,巴彦淖尔市,市环保大楼,颗粒物(PM10),61,71,43,37,22,177,156,167,157,6,7,2,2,0.5,0.5
2023-07-20T00:00:00,2197A,113.1306,40.9923,乌兰察布市,集宁新区,颗粒物(PM10),51,51,46,23,26,226,130,208,185,24,18,18,16,0.8,0.8
2023-07-20T00:00:00,2200A,122.0392,46.0656,兴安盟,胜华新制药厂,,20,20,21,13,12,113,55,107,65,6,8,3,3,0.2,0.5
2023-07-20T00:00:00,2201A,121.9504,46.0741,兴安盟,科右前旗环保局,,22,22,23,7,15,128,56,113,78,8,5,3,3,0.2,0.3
2023-07-20T00:00:00,2202A,116.1042,43.9317,锡林郭勒盟,市环保监测站,,23,16,27,4,10,170,72,156,104,5,9,11,11,0.2,0.3
2023-07-20T00:00:00,2203A,116.0781,43.9311,锡林郭勒盟,市政府,,25,7,25,3,11,184,77,171,115,10,13,10,9,0.2,0.3
2023-07-20T00:00:00,2204A,105.6467,38.8363,阿拉善盟,西城区西花园,臭氧1小时,59,57,33,34,19,174,167,160,160,12,10,11,9,0.6,0.5
2023-07-20T00:00:00,2205A,105.6985,38.8411,阿拉善盟,蒙二幼,臭氧1小时,58,41,29,26,15,169,166,164,164,7,7,9,8,0.7,0.5
2023-07-20T00:00:00,2206A,105.724,38.8516,阿拉善盟,环保局新楼,臭氧1小时,59,30,21,23,18,180,167,168,168,7,6,11,10,0.4,0.4
2023-07-20T00:00:00,2207A,121.6094,41.998,阜新市,工业园区,细颗粒物(PM2.5),67,80,70,48,34,211,80,200,154,47,26,4,8,1.0,1.1
2023-07-20T00:00:00,2208A,121.6697,42.0279,阜新市,长青街,颗粒物(PM10),67,84,75,41,36,204,81,200,161,26,20,5,11,1.0,1
2023-07-20T00:00:00,2209A,121.6673,42.0705,阜新市,农业园区,颗粒物(PM10),64,78,55,38,41,208,120,199,171,13,11,6,8,0.9,1
2023-07-20T00:00:00,2210A,121.6717,42.0224,阜新市,东苑,细颗粒物(PM2.5),77,93,78,56,42,200,86,194,154,29,18,6,14,0.9,0.9
2023-07-20T00:00:00,2211A,121.6506,42.0498,阜新市,玉龙新城,颗粒物(PM10),75,99,63,45,29,280,42,206,158,38,17,1,4,1.0,1
2023-07-20T00:00:00,2212A,123.2,41.1953,辽阳市,宏伟区,颗粒物(PM10),56,61,58,36,27,230,142,215,180,13,15,6,8,0.8,0.9
2023-07-20T00:00:00,2213A,123.1683,41.2495,辽阳市,新华园,颗粒物(PM10),65,79,71,44,35,223,121,209,172,28,19,7,8,1.0,1
2023-07-20T00:00:00,2214A,123.2354,41.2639,辽阳市,滨河路,"颗粒物(PM10),细颗粒物(PM2.5)",64,77,64,46,36,240,136,222,176,20,20,14,11,1.0,1
2023-07-20T00:00:00,2215A,123.149,41.2991,辽阳市,铁西工业园,颗粒物(PM10),75,100,75,49,36,240,130,225,178,30,29,13,16,1.4,1.4
2023-07-20T00:00:00,2216A,123.8139,42.3022,铁岭市,汇工街西,细颗粒物(PM2.5),83,93,70,61,38,228,145,202,157,28,22,8,10,1.2,1.1
2023-07-20T00:00:00,2217A,123.8649,42.2923,铁岭市,水上乐园,细颗粒物(PM2.5),73,74,61,53,37,255,166,222,169,27,23,3,6,1.2,1.1
2023-07-20T00:00:00,2218A,123.8486,42.2867,铁岭市,银州路东段,颗粒物(PM10),81,111,75,56,38,240,177,212,164,21,25,6,7,1.2,1.1
2023-07-20T00:00:00,2219A,123.7153,42.2217,铁岭市,金沙江路北,细颗粒物(PM2.5),85,86,60,63,37,229,117,197,132,39,26,9,11,1.3,1.2
2023-07-20T00:00:00,2220A,120.4318,41.5881,朝阳市,西梁,颗粒物(PM10),92,133,66,20,26,238,86,201,185,40,17,10,11,1.2,1.1
2023-07-20T00:00:00,2221A,120.4521,41.5646,朝阳市,河畔小区,颗粒物(PM10),86,122,73,39,29,253,173,220,218,16,14,7,8,1.1,0.8
2023-07-20T00:00:00,2222A,120.4176,41.5648,朝阳市,八里堡,颗粒物(PM10),78,106,72,50,46,250,135,214,201,31,26,5,7,1.2,1.1
2023-07-20T00:00:00,2223A,120.3806,41.5969,朝阳市,农业园区,细颗粒物(PM2.5),59,64,62,42,29,198,68,190,141,29,17,3,6,1.0,1
2023-07-20T00:00:00,2225A,124.4002,43.1713,四平市,一商场,细颗粒物(PM2.5),68,74,61,49,38,224,130,200,161,20,16,8,9,0.7,0.8
2023-07-20T00:00:00,2226A,124.388,43.193,四平市,境园,细颗粒物(PM2.5),74,62,54,54,33,217,113,203,162,26,17,5,6,0.5,0.6
2023-07-20T00:00:00,2227A,125.1358,42.8845,辽源市,环保局,,30,30,40,19,29,182,76,170,118,13,14,8,16,0.7,0.9
2023-07-20T00:00:00,2229A,125.9358,41.7173,通化市,光明,,45,45,58,21,38,137,21,119,61,13,21,8,30,0.2,1
2023-07-20T00:00:00,2230A,125.9446,41.7325,通化市,铁路,,29,23,50,20,37,140,22,116,83,10,16,8,18,0.5,0.9
2023-07-20T00:00:00,2231A,126.4219,41.9171,白山市,喜丰,,39,39,66,14,28,123,41,107,63,18,19,8,11,0.6,0.6
2023-07-20T00:00:00,2232A,126.4077,41.9419,白山市,环保局,,49,49,55,19,28,135,33,108,60,17,18,6,7,0.4,0.5
2023-07-20T00:00:00,2233A,124.8006,45.1214,松原市,江南,,30,17,27,19,18,153,95,144,127,16,16,7,6,0.5,0.5
2023-07-20T00:00:00,2234A,124.7965,45.1722,松原市,江北,,32,20,22,22,18,145,96,134,116,12,10,4,4,0.5,0.5
2023-07-20T00:00:00,2235A,122.7911,45.6077,白城市,洮北区环保局,颗粒物(PM10),67,83,25,25,13,154,61,135,98,15,12,7,6,0.4,0.2
2023-07-20T00:00:00,2236A,122.8738,45.5725,白城市,市环保局,,45,37,22,31,14,157,71,137,87,16,10,8,6,0.5,0.3
2023-07-20T00:00:00,2237A,129.47,42.8883,延边朝鲜族自治州,妇幼医院,,35,35,23,20,15,93,14,86,48,20,12,8,8,0.6,0.5
2023-07-20T00:00:00,2238A,129.5055,42.9108,延边朝鲜族自治州,延边医院,,25,25,26,17,11,92,23,88,49,20,13,6,6,0.7,0.6
2023-07-20T00:00:00,2239A,129.3964,42.8881,延边朝鲜族自治州,朝阳川镇医院,,27,27,21,16,10,97,14,90,49,16,10,6,6,0.6,0.5
2023-07-20T00:00:00,2240A,130.9762,45.3001,鸡西市,环保局,,49,49,27,20,12,80,0,64,36,40,23,4,5,0.6,0.4
2023-07-20T00:00:00,2243A,130.9429,45.3039,鸡西市,第一中学,,39,39,21,16,9,90,10,74,44,27,15,5,5,0.3,0.2
2023-07-20T00:00:00,2244A,130.2537,47.3416,鹤岗市,哈啤分公司,,18,18,13,6,7,103,8,89,40,14,13,11,11,0.5,0.4
2023-07-20T00:00:00,2245A,130.2684,47.3086,鹤岗市,斯达机电,,22,22,15,5,7,92,7,82,44,22,13,11,10,0.4,0.4
2023-07-20T00:00:00,2246A,130.3114,47.3388,鹤岗市,东山纸板厂,颗粒物(PM10),67,84,25,17,12,106,2,91,35,22,16,8,9,0.6,0.4
2023-07-20T00:00:00,2247A,130.1097,47.3382,鹤岗市,五号水库,,11,11,7,5,7,93,10,87,28,8,7,8,8,0.2,0.2
2023-07-20T00:00:00,2248A,131.1511,46.6937,双鸭山市,双合村,颗粒物(PM10),61,72,42,37,15,93,10,88,23,22,19,20,14,1.3,0.9
2023-07-20T00:00:00,2249A,131.1652,46.6191,双鸭山市,南小市,,14,14,28,6,13,99,8,86,25,6,11,5,7,0.3,0.4
2023-07-20T00:00:00,2250A,131.1524,46.6554,双鸭山市,环保局,,20,20,20,11,12,101,24,83,23,10,19,10,11,0.4,0.8
2023-07-20T00:00:00,2251A,131.12,46.5656,双鸭山市,苗圃,,21,21,26,8,8,113,22,90,40,4,7,3,4,0.5,0.6
2023-07-20T00:00:00,2252A,128.5159,47.4311,伊春市,环保局,,23,23,18,2,2,87,11,76,30,6,9,4,6,0.3,0.4
2023-07-20T00:00:00,2253A,128.9102,47.7412,伊春市,电力嘉园,,14,14,9,7,9,100,19,88,44,7,6,9,7,0.6,0.6
2023-07-20T00:00:00,2254A,129.5029,48.471,伊春市,汤旺河国家公园,,25,25,28,13,13,74,11,56,17,1,1,15,14,0.5,0.5
2023-07-20T00:00:00,2255A,130.2751,46.8028,佳木斯市,佳纺,,32,32,23,11,10,96,8,85,40,40,20,3,3,0.4,0.4
2023-07-20T00:00:00,2256A,130.3995,46.8307,佳木斯市,发电厂,,37,37,21,17,11,109,13,95,45,33,21,4,3,0.7,0.6
2023-07-20T00:00:00,2257A,130.3258,46.7975,佳木斯市,环保局,,21,21,22,9,11,93,38,86,54,20,19,2,3,0.5,0.5
2023-07-20T00:00:00,2258A,130.3648,46.8032,佳木斯市,十一中,,41,41,26,23,16,97,12,84,38,42,27,4,4,0.7,0.6
2023-07-20T00:00:00,2259A,130.3794,46.7588,佳木斯市,四丰,,18,13,14,6,9,159,55,141,91,12,10,1,1,0.4,0.4
2023-07-20T00:00:00,2262A,131.0518,45.8751,七台河市,新一中,,16,16,16,3,7,101,19,97,45,12,10,8,7,1.0,0.9
2023-07-20T00:00:00,2263A,127.4833,50.2524,黑河市,交通局,,43,43,32,14,20,90,20,85,63,23,16,5,5,0.8,0.7
2023-07-20T00:00:00,2264A,127.5144,50.2341,黑河市,环保局,,36,36,45,20,22,97,48,87,75,15,13,3,4,0.6,0.6
2023-07-20T00:00:00,2265A,127.5291,50.2472,黑河市,大黑河岛,,22,15,24,15,30,117,29,104,82,1,1,3,4,0.4,0.5
2023-07-20T00:00:00,2266A,126.9785,46.6365,绥化市,人和东街,,30,30,19,11,9,120,66,112,91,21,16,6,8,0.4,0.3
2023-07-20T00:00:00,2267A,126.964,46.6528,绥化市,党政办公中心,,35,26,18,24,12,112,68,106,93,18,13,4,6,0.5,0.4
2023-07-20T00:00:00,2269A,124.1069,50.4097,大兴安岭地区,科技局,,19,16,20,13,12,104,60,98,90,8,8,5,5,0.3,0.3
2023-07-20T00:00:00,2270A,117.396,32.939,蚌埠市,工人疗养院,,19,19,19,9,8,70,39,31,26,15,12,9,8,0.1,0.1
2023-07-20T00:00:00,2271A,117.3605,32.9427,蚌埠市,百货大楼,,15,15,18,8,6,68,32,31,19,14,14,4,4,0.3,0.3
2023-07-20T00:00:00,2273A,117.4185,32.8911,蚌埠市,蚌埠学院,,17,12,15,9,11,70,52,29,22,3,14,8,8,0.4,0.3
2023-07-20T00:00:00,2274A,117.3533,32.9673,蚌埠市,淮上区政府,,20,12,15,14,10,61,27,34,19,25,15,5,4,0.2,0.2
2023-07-20T00:00:00,2275A,117.3145,32.8977,蚌埠市,高新区,,16,14,17,8,7,73,50,38,25,5,14,6,6,0.2,0.2
2023-07-20T00:00:00,2277A,116.8305,32.7727,淮南市,潘集区政府,,16,11,18,11,14,68,24,51,28,10,14,4,5,0.3,0.3
2023-07-20T00:00:00,2278A,117.0067,32.6524,淮南市,师范学院,,18,12,21,12,17,81,29,61,26,7,9,9,9,0.2,0.2
2023-07-20T00:00:00,2279A,116.8569,32.5951,淮南市,谢家集区政府,,13,13,16,7,7,135,33,87,37,17,15,10,8,0.3,0.3
2023-07-20T00:00:00,2280A,116.8281,32.633,淮南市,八公山区政府,,20,20,25,12,15,130,18,79,29,13,15,7,7,0.4,0.4
2023-07-20T00:00:00,2281A,116.6325,32.6201,淮南市,焦岗湖风景区管理处,,17,17,24,5,7,68,0,43,12,19,19,5,5,0.3,0.3
2023-07-20T00:00:00,2282A,116.8004,33.975,淮北市,监测站,,11,5,17,3,4,60,34,44,32,7,11,3,3,0.2,0.3
2023-07-20T00:00:00,2283A,116.8091,33.9007,淮北市,烈山区政府,,20,8,9,14,12,64,30,51,35,11,11,4,4,0.2,0.3
2023-07-20T00:00:00,2285A,117.8177,30.9412,铜陵市,市第四中学,,17,6,33,9,17,112,53,83,58,5,14,8,14,0.2,0.5
2023-07-20T00:00:00,2286A,117.8059,30.9273,铜陵市,市公路局,,20,1,33,7,18,132,61,95,65,7,17,2,5,0.5,0.9
2023-07-20T00:00:00,2287A,117.7807,30.9413,铜陵市,市新民污水厂,,16,11,28,6,11,135,50,97,61,9,19,6,6,0.4,0.7
2023-07-20T00:00:00,2288A,117.7439,30.8792,铜陵市,市第九中学,,18,18,36,5,12,114,49,85,51,9,24,5,5,0.7,0.8
2023-07-20T00:00:00,2289A,117.846,30.9413,铜陵市,车站新区,,22,12,34,12,18,130,69,92,68,5,20,1,4,0.3,0.6
2023-07-20T00:00:00,2290A,117.8483,30.97,铜陵市,市职教基地,,17,7,27,8,14,104,53,80,63,7,13,3,5,0.5,0.8
2023-07-20T00:00:00,2291A,117.0809,30.5177,安庆市,环科院,,17,13,19,3,10,92,53,80,59,11,14,12,7,0.5,0.7
2023-07-20T00:00:00,2292A,117.0331,30.5119,安庆市,马山宾馆,,16,9,16,4,10,108,51,88,66,15,14,9,8,0.8,0.8
2023-07-20T00:00:00,2294A,116.9896,30.6145,安庆市,安庆大学,,18,6,16,2,7,94,55,86,66,12,14,4,5,0.4,0.5
2023-07-20T00:00:00,2295A,118.2903,29.6963,黄山市,延安路89号,,26,26,26,8,5,88,7,61,25,4,7,5,5,0.3,0.3
2023-07-20T00:00:00,2296A,118.327,29.7178,黄山市,黄山东路89号,,8,1,20,5,5,82,11,56,26,5,7,6,6,0.3,0.2
2023-07-20T00:00:00,2297A,118.1371,30.2756,黄山市,黄山区政府5号楼,,13,12,18,8,6,59,41,46,30,3,5,7,7,0.1,0.1
2023-07-20T00:00:00,2298A,118.3093,32.3153,滁州市,老年大学,,18,18,25,12,12,172,47,113,72,22,19,9,10,0.7,0.4
2023-07-20T00:00:00,2299A,118.3244,32.2786,滁州市,人大宾馆,,25,14,20,17,15,187,58,121,76,17,27,6,7,0.7,0.5
2023-07-20T00:00:00,2301A,115.8277,32.8929,阜阳市,市监测站,,10,8,12,4,7,96,31,64,45,16,18,7,5,0.6,0.5
2023-07-20T00:00:00,2303A,115.8554,32.8605,阜阳市,开发区,,14,14,11,9,11,97,27,64,41,21,21,7,6,0.5,0.5
2023-07-20T00:00:00,2307A,116.5079,31.737,六安市,监测大楼,,15,7,14,1,6,99,48,80,50,5,3,1,1,0.3,0.3
2023-07-20T00:00:00,2308A,116.4738,31.7643,六安市,皖西学院,,13,11,17,3,7,110,40,81,50,11,8,5,5,0.2,0.2
2023-07-20T00:00:00,2309A,116.4996,31.7905,六安市,朝阳厂,,12,1,12,8,11,113,36,81,46,8,8,6,6,0.3,0.4
2023-07-20T00:00:00,2310A,116.5567,31.7886,六安市,开发区,,13,9,18,6,15,92,40,74,46,7,8,6,7,0.3,0.4
2023-07-20T00:00:00,2311A,115.8072,33.8399,亳州市,污水处理厂,,12,9,18,8,14,71,34,60,50,6,11,3,4,0.6,0.6
2023-07-20T00:00:00,2312A,115.7789,33.8518,亳州市,三国揽胜宫,,11,6,18,5,10,70,35,58,49,3,7,3,4,0.5,0.6
2023-07-20T00:00:00,2314A,117.47,30.6618,池州市,池州学院,,17,7,14,2,7,120,52,84,54,2,4,4,7,0.5,0.8
2023-07-20T00:00:00,2316A,118.7581,30.9454,宣城市,鳌峰子站,,20,2,25,3,13,94,62,83,68,14,15,7,6,0.4,0.5
2023-07-20T00:00:00,2317A,118.7385,30.9743,宣城市,敬亭山子站,,18,1,23,2,11,95,56,83,62,15,16,6,6,0.3,0.4
2023-07-20T00:00:00,2318A,118.7173,30.9427,宣城市,开发区子站,,14,5,21,2,7,98,43,90,66,10,14,6,5,0.3,0.3
2023-07-20T00:00:00,2319A,119.0141,25.4325,莆田市,荔城区仓后路,,33,33,29,15,12,101,37,78,52,16,11,6,6,0.5,0.5
2023-07-20T00:00:00,2320A,119.0015,25.4553,莆田市,莆田市监测站,,19,18,26,13,10,100,37,74,53,8,5,7,7,0.5,0.6
2023-07-20T00:00:00,2321A,119.1119,25.4561,莆田市,涵江区六中,,42,42,30,11,9,123,20,84,46,24,12,7,7,0.8,0.8
2023-07-20T00:00:00,2322A,119.1013,25.3215,莆田市,秀屿区政府,,32,32,25,16,12,132,24,95,54,17,7,10,8,0.6,0.6
2023-07-20T00:00:00,2323A,118.981,25.4792,莆田市,东圳水库,,,,16,,8,,,,,,4,,1,,
2023-07-20T00:00:00,2324A,117.6211,26.2625,三明市,三钢,,18,17,26,12,14,100,26,72,36,11,14,6,11,0.3,0.6
2023-07-20T00:00:00,2325A,117.635,26.2714,三明市,三明二中,,13,11,21,9,12,110,28,79,34,12,16,3,7,0.5,0.7
2023-07-20T00:00:00,2326A,117.6028,26.2378,三明市,三元区政府,,16,16,20,6,12,91,19,65,32,14,15,6,9,0.9,1
2023-07-20T00:00:00,2327A,117.7275,26.3108,三明市,洋溪,,,,24,,20,,,,,,10,,11,,
2023-07-20T00:00:00,2331A,118.0966,26.6761,南平市,茫荡山,,,,,,6,,,,,,,,5,,
2023-07-20T00:00:00,2332A,118.1681,26.6369,南平市,南平市监测站,,8,6,14,2,5,68,12,58,28,15,7,4,4,0.5,0.5
2023-07-20T00:00:00,2333A,118.1825,26.6489,南平市,南平铝业有限公司,,16,16,16,2,5,64,20,58,34,8,8,6,7,0.5,0.5
2023-07-20T00:00:00,2334A,118.1756,26.6272,南平市,南平七中,,11,11,14,3,4,68,11,58,27,11,6,4,4,0.5,0.5
2023-07-20T00:00:00,2335A,117.0189,25.1181,龙岩市,龙岩师专,,,,20,,11,,,,,,10,,2,,
2023-07-20T00:00:00,2336A,117.0217,25.1033,龙岩市,龙岩市监测站,,14,14,18,8,8,60,2,49,24,19,14,4,4,0.6,0.5
2023-07-20T00:00:00,2337A,117.0258,25.0661,龙岩市,闽西职业技术学院,,29,29,22,11,6,64,2,47,21,25,14,9,5,0.4,0.4
2023-07-20T00:00:00,2338A,117.0196,25.0306,龙岩市,龙岩学院,,16,16,16,8,5,51,10,42,21,11,9,2,3,0.2,0.3
2023-07-20T00:00:00,2339A,119.5001,26.6946,宁德市,金涵水库,,,,30,,7,,,,,,8,,2,,
2023-07-20T00:00:00,2341A,119.5388,26.6612,宁德市,宁德市监测站,,12,5,22,4,11,129,36,93,48,3,7,7,7,0.4,0.6
2023-07-20T00:00:00,2342A,117.3102,29.3867,景德镇市,王港中学,,26,17,14,18,12,93,22,81,50,4,5,2,4,0.7,0.4
2023-07-20T00:00:00,2343A,117.2117,29.2933,景德镇市,老干部活动中心,,26,19,20,18,14,87,32,73,50,8,10,5,7,0.2,0.2
2023-07-20T00:00:00,2344A,117.1894,29.2789,景德镇市,兽医站,,48,22,18,33,16,96,31,75,50,15,14,6,7,0.4,0.3
2023-07-20T00:00:00,2345A,117.1547,29.2617,景德镇市,台达陶瓷,,33,32,18,23,12,88,43,68,51,5,11,11,12,0.4,0.4
2023-07-20T00:00:00,2346A,117.2461,29.2956,景德镇市,陶研所,,37,37,30,12,7,86,30,70,50,2,4,15,7,0.3,0.2
2023-07-20T00:00:00,2347A,114.0997,27.5002,萍乡市,武功山,,8,1,4,5,3,45,12,39,19,5,4,19,18,0.4,0.4
2023-07-20T00:00:00,2348A,113.8385,27.6434,萍乡市,中医院,,15,8,12,10,9,69,2,52,23,22,9,10,10,0.6,0.4
2023-07-20T00:00:00,2349A,113.8493,27.6253,萍乡市,市政府车库,,15,15,17,10,12,67,13,50,28,14,14,8,18,0.2,0.7
2023-07-20T00:00:00,2350A,113.8676,27.6435,萍乡市,市环保局,,14,14,19,9,12,61,2,46,20,23,12,13,14,0.9,0.5
2023-07-20T00:00:00,2351A,113.866,27.6198,萍乡市,安源区政府,,13,12,20,9,11,62,9,49,25,12,14,5,16,0.4,0.8
2023-07-20T00:00:00,2352A,115.0861,27.9317,新余市,北岗,,13,12,14,9,9,71,9,57,31,15,11,6,9,0.6,0.6
2023-07-20T00:00:00,2353A,114.9886,27.8431,新余市,飞宇,,19,19,25,9,10,71,20,55,33,10,10,5,5,0.9,0.7
2023-07-20T00:00:00,2354A,114.9231,27.8246,新余市,第二水厂,,18,18,25,6,7,75,26,58,36,6,9,6,6,0.6,0.4
2023-07-20T00:00:00,2355A,114.9308,27.8036,新余市,市气象局,,22,22,24,12,11,77,21,62,32,8,8,5,7,0.8,0.8
2023-07-20T00:00:00,2357A,116.9822,28.1136,鹰潭市,龙虎山,,11,11,13,1,7,64,16,42,25,2,2,2,3,0.6,0.9
2023-07-20T00:00:00,2358A,117.0564,28.2642,鹰潭市,新监测站,,28,28,30,3,14,104,22,75,37,11,9,3,10,0.3,0.4
2023-07-20T00:00:00,2359A,117.0311,28.2475,鹰潭市,财苑宾馆,,,,31,8,14,105,24,72,36,6,8,5,11,0.4,0.4
2023-07-20T00:00:00,2360A,117.0222,28.2264,鹰潭市,体育馆,,13,13,34,5,12,108,19,72,33,12,8,5,2,0.1,0.3
2023-07-20T00:00:00,2361A,117.0017,28.2131,鹰潭市,三川水表,,13,13,25,4,11,109,27,78,39,3,5,1,5,0.5,0.5
2023-07-20T00:00:00,2362A,114.9017,25.9149,赣州市,通天岩,,,,,,,,,,,,,,,,
2023-07-20T00:00:00,2363A,114.9367,25.8664,赣州市,地委,,24,24,23,4,10,25,2,23,9,8,8,1,2,1.0,1
2023-07-20T00:00:00,2364A,114.9461,25.8481,赣州市,气象台,,20,20,17,6,11,55,11,45,20,21,11,5,5,0.8,0.6
2023-07-20T00:00:00,2365A,114.9322,25.8333,赣州市,市图书馆,,19,19,24,7,9,49,4,40,16,18,12,5,20,0.9,0.8
2023-07-20T00:00:00,2366A,114.8905,25.8471,赣州市,华坚鞋城,,26,26,23,10,11,50,0,46,19,30,14,5,5,0.8,0.5
2023-07-20T00:00:00,2367A,114.9754,27.0803,吉安市,红声器材厂,,34,34,23,4,10,70,26,58,40,15,7,12,9,0.7,0.7
2023-07-20T00:00:00,2368A,114.9658,27.0999,吉安市,市森林工业局,,20,20,18,9,11,64,30,54,40,13,9,9,5,0.8,0.7
2023-07-20T00:00:00,2369A,114.99,27.1312,吉安市,市环境监测站,,16,16,17,5,8,66,30,54,38,12,8,9,8,0.7,0.7
2023-07-20T00:00:00,2370A,115.0093,27.0968,吉安市,青原区法院,,12,12,18,8,12,64,26,54,38,14,11,19,13,0.8,0.7
2023-07-20T00:00:00,2371A,114.3408,27.8064,宜春市,槟榔水业,,31,31,19,4,6,48,19,36,22,3,5,2,2,0.1,0.1
2023-07-20T00:00:00,2373A,114.3956,27.7844,宜春市,市石油公司,,12,12,18,5,8,56,16,47,29,12,8,2,2,0.5,0.5
2023-07-20T00:00:00,2374A,114.3703,27.7914,宜春市,市气象局,,14,14,21,8,9,58,18,44,28,17,13,1,2,0.6,0.6
2023-07-20T00:00:00,2375A,114.4013,27.8074,宜春市,市广电局,,13,13,19,7,10,58,24,52,34,13,8,5,6,0.5,0.5
2023-07-20T00:00:00,2376A,116.2127,28.0814,抚州市,桐源党溪,,13,10,22,9,12,116,26,76,34,3,3,3,4,0.7,0.8
2023-07-20T00:00:00,2377A,116.3544,27.9831,抚州市,市站,,23,23,24,14,13,87,26,67,39,9,7,6,8,0.6,0.9
2023-07-20T00:00:00,2378A,116.3565,27.963,抚州市,血防站,,24,24,27,9,11,77,19,58,33,9,9,5,7,0.8,0.8
2023-07-20T00:00:00,2379A,116.3564,28.0007,抚州市,采茶剧团,,17,17,23,10,13,84,20,61,36,11,9,4,4,0.7,0.7
2023-07-20T00:00:00,2380A,116.385,27.9647,抚州市,医学分院,,21,21,22,9,11,86,26,61,38,9,9,4,14,0.9,0.9
2023-07-20T00:00:00,2381A,118.005,28.4572,上饶市,百草园,,29,29,23,6,10,93,14,71,25,10,8,1,7,0.6,0.7
2023-07-20T00:00:00,2382A,117.9756,28.4436,上饶市,市监测站,,36,36,24,15,10,115,18,90,37,24,14,4,16,0.5,0.4
2023-07-20T00:00:00,2383A,117.9519,28.4628,上饶市,凤凰光学,,36,36,25,17,10,108,3,73,26,36,19,8,19,0.8,0.8
2023-07-20T00:00:00,2385A,114.17,35.9019,鹤壁市,市监测站,,46,30,41,32,30,186,96,172,122,11,13,3,4,0.7,0.7
2023-07-20T00:00:00,2386A,114.2956,35.7511,鹤壁市,市交警支队,,37,37,49,14,25,147,62,139,97,20,21,3,13,0.5,0.6
2023-07-20T00:00:00,2387A,114.2878,35.7306,鹤壁市,迎宾馆,,42,31,41,29,29,146,60,137,96,19,17,11,9,0.6,0.6
2023-07-20T00:00:00,2389A,113.836,35.311,新乡市,环保西院,,44,44,54,22,32,171,63,158,90,17,21,4,6,0.9,1.1
2023-07-20T00:00:00,2390A,113.884,35.272,新乡市,开发区,,39,39,37,17,20,161,70,151,96,6,15,2,2,0.4,0.7
2023-07-20T00:00:00,2391A,113.883,35.303,新乡市,环保东院,细颗粒物(PM2.5),55,49,46,39,20,170,70,153,96,10,14,5,6,0.5,0.6
2023-07-20T00:00:00,2392A,115.0312,35.7636,濮阳市,环保局,,41,41,38,26,26,160,62,136,99,10,12,2,3,0.4,0.5
2023-07-20T00:00:00,2394A,115.0574,35.7609,濮阳市,油田运输公司,,40,39,46,28,29,154,57,131,97,11,15,4,5,0.5,0.6
2023-07-20T00:00:00,2395A,115.0866,35.7754,濮阳市,油田物探公司,,37,37,49,24,28,152,54,126,92,10,13,6,5,0.4,0.5
2023-07-20T00:00:00,2396A,113.8276,34.0159,许昌市,监测站,,17,4,34,4,21,104,52,90,76,12,16,3,3,0.2,0.3
2023-07-20T00:00:00,2398A,113.7906,33.9953,许昌市,开发区,,15,1,36,6,26,96,48,85,70,12,18,1,2,0.5,0.6
2023-07-20T00:00:00,2399A,114.051,33.5699,漯河市,三五一五工厂,,15,2,26,2,17,103,48,87,73,7,15,10,9,0.4,0.4
2023-07-20T00:00:00,2400A,114.0055,33.5698,漯河市,漯河大学,,15,5,28,5,25,104,47,90,77,11,12,12,13,0.3,0.3
2023-07-20T00:00:00,2401A,114.0138,33.5828,漯河市,市水利局,,15,7,28,0,16,104,47,88,75,9,12,7,8,0.3,0.5
2023-07-20T00:00:00,2402A,114.0261,33.5698,漯河市,市广电局,,17,2,24,5,20,106,52,90,77,5,11,10,10,0.4,0.4
2023-07-20T00:00:00,2404A,112.5224,33.0122,南阳市,瓦房庄,,39,39,42,16,18,120,92,106,97,17,17,5,5,0.5,0.5
2023-07-20T00:00:00,2405A,112.5003,32.9735,南阳市,汉画馆,,38,37,33,26,24,122,78,111,95,24,13,11,10,0.4,0.4
2023-07-20T00:00:00,2406A,112.5573,33.027,南阳市,气象站,,33,33,40,22,26,122,79,114,99,19,18,4,4,0.4,0.5
2023-07-20T00:00:00,2407A,112.5481,32.9689,南阳市,理工学院,,36,36,34,23,24,116,69,104,86,28,16,5,5,0.4,0.4
2023-07-20T00:00:00,2408A,115.6702,34.4285,商丘市,环境监测站,,18,3,29,5,16,93,56,82,59,6,14,8,9,0.5,0.5
2023-07-20T00:00:00,2409A,115.6458,34.4045,商丘市,粮食局,,18,3,25,4,14,93,55,82,58,7,11,2,4,0.3,0.4
2023-07-20T00:00:00,2410A,115.6293,34.3948,商丘市,睢阳区环保局,,18,3,33,2,17,101,56,88,62,8,12,2,5,0.5,0.6
2023-07-20T00:00:00,2420A,114.0189,32.9656,驻马店市,市一纸厂,,,,32,,17,108,,80,,,7,,4,,0.7
2023-07-20T00:00:00,2421A,114.0114,33.015,驻马店市,市彩印厂,,18,5,23,8,16,111,57,95,74,3,5,6,6,0.2,0.3
2023-07-20T00:00:00,2422A,113.9976,32.9771,驻马店市,天方二分厂,,17,5,24,7,21,112,54,95,71,5,7,4,4,0.1,0.3
2023-07-20T00:00:00,2423A,115.0601,30.2313,黄石市,沈家营,,26,26,51,6,14,101,21,85,45,15,13,6,8,0.1,0.5
2023-07-20T00:00:00,2424A,115.0817,30.2006,黄石市,陈家湾,,31,31,54,11,19,120,40,97,55,5,6,6,7,0.6,0.5
2023-07-20T00:00:00,2426A,114.8988,30.2019,黄石市,铁山,,14,14,27,4,14,122,30,96,43,22,15,12,11,0.6,0.7
2023-07-20T00:00:00,2427A,115.0307,30.2092,黄石市,团城山,,21,21,44,2,11,110,42,90,53,4,5,7,8,0.4,0.5
2023-07-20T00:00:00,2428A,111.0419,32.395,十堰市,武当山,,14,4,22,8,13,148,42,108,48,5,5,7,7,0.7,0.8
2023-07-20T00:00:00,2429A,110.78,32.6494,十堰市,滨河新村,,30,30,47,17,28,135,53,106,76,10,14,5,6,0.7,0.8
2023-07-20T00:00:00,2430A,110.7258,32.6389,十堰市,刘家沟,,31,31,47,20,30,151,45,118,87,8,12,5,6,0.5,0.5
2023-07-20T00:00:00,2431A,110.8839,32.5714,十堰市,铁二处,,25,25,35,14,19,131,30,118,70,2,6,5,4,0.5,0.5
2023-07-20T00:00:00,2432A,112.155,32.0197,襄阳市,襄城运动路,,28,18,46,19,33,146,56,116,75,13,18,6,9,0.6,0.7
2023-07-20T00:00:00,2433A,112.1392,32.0564,襄阳市,樊城新华路,,32,24,56,22,34,134,62,109,82,12,16,7,9,0.6,0.7
2023-07-20T00:00:00,2434A,112.1825,32.1142,襄阳市,高新管委会,,33,15,49,23,43,127,59,105,77,14,25,6,11,0.6,0.6
2023-07-20T00:00:00,2435A,112.2106,32.0903,襄阳市,襄州航空路,,18,18,52,8,31,109,43,93,68,14,19,6,8,0.6,0.8
2023-07-20T00:00:00,2436A,114.8938,30.3994,鄂州市,市政府,,21,21,39,0,12,140,37,97,51,13,15,5,7,0.3,0.4
2023-07-20T00:00:00,2437A,114.8989,30.3714,鄂州市,赵家坝,,20,20,30,1,10,126,29,90,45,7,11,4,4,0.4,0.6
2023-07-20T00:00:00,2439A,112.2014,31.0481,荆门市,竹园小学,,31,31,56,18,34,145,58,119,83,16,16,11,9,0.7,0.9
2023-07-20T00:00:00,2440A,112.1969,30.9891,荆门市,掇刀,,33,22,45,23,32,159,76,132,86,12,20,9,12,0.5,0.7
2023-07-20T00:00:00,2441A,112.2213,31.0386,荆门市,石化一小,,36,32,57,25,38,150,66,121,80,16,21,2,7,0.4,0.5
2023-07-20T00:00:00,2443A,113.9153,30.9285,孝感市,文化路,,11,6,18,7,13,96,34,78,57,16,13,6,6,0.7,0.7
2023-07-20T00:00:00,2444A,113.942,30.9075,孝感市,东城区,,12,9,18,4,13,86,36,77,61,16,14,6,7,0.7,0.7
2023-07-20T00:00:00,2446A,114.9028,30.4742,黄冈市,职工中心,,12,9,24,8,13,126,22,87,47,5,5,5,6,0.5,0.5
2023-07-20T00:00:00,2447A,114.3175,29.8142,咸宁市,森林公园,,12,8,15,5,10,69,37,57,44,4,4,5,5,0.4,0.6
2023-07-20T00:00:00,2448A,114.3107,29.8454,咸宁市,市发改委,,15,3,14,3,11,91,46,74,60,4,4,4,4,0.5,0.5
2023-07-20T00:00:00,2449A,114.2936,29.8566,咸宁市,咸安区政府,,14,7,18,7,12,85,42,73,58,4,7,1,2,0.5,0.5
2023-07-20T00:00:00,2451A,113.3583,31.7275,随州市,市委党校,,18,14,28,12,20,122,55,96,60,2,6,5,6,0.6,0.5
2023-07-20T00:00:00,2452A,113.3833,31.6908,随州市,市林业局,,17,17,27,11,18,130,46,95,56,7,11,2,3,0.6,0.6
2023-07-20T00:00:00,2453A,113.3983,31.7308,随州市,市立交桥水厂,,20,20,25,10,18,111,38,89,63,6,9,6,6,0.6,0.6
2023-07-20T00:00:00,2454A,109.4978,30.2981,恩施土家族苗族自治州,湖北民院,,22,18,28,15,17,90,38,81,49,11,10,9,9,0.6,0.6
2023-07-20T00:00:00,2455A,109.4707,30.2798,恩施土家族苗族自治州,州电力总公司,,18,16,21,12,19,90,32,73,44,18,16,9,9,0.6,0.6
2023-07-20T00:00:00,2456A,112.5003,26.9167,衡阳市,原169医院,,22,22,20,10,11,90,23,83,51,13,8,16,10,0.5,0.4
2023-07-20T00:00:00,2457A,112.6194,26.9258,衡阳市,衡阳化工总厂,,18,14,21,12,8,100,34,91,58,8,7,5,9,0.4,0.5
2023-07-20T00:00:00,2458A,112.6211,26.8956,衡阳市,珠晖区环保局,,,12,18,,,92,21,87,51,17,11,5,6,0.5,0.5
2023-07-20T00:00:00,2459A,112.6197,26.8733,衡阳市,市委党校,,20,20,17,9,8,93,30,86,56,13,9,7,8,0.5,0.6
2023-07-20T00:00:00,2460A,112.6006,26.8919,衡阳市,市监测站,,18,17,15,12,9,93,31,87,56,12,9,6,7,0.5,0.5
