timepoint,stationcode,longitude,latitude,area,positionname,primarypollutant,aqi,pm10,pm10_24h,pm2_5,pm2_5_24h,o3,o3_24h,o3_8h,o3_8h_24h,no2,no2_24h,so2,so2_24h,co,co_24h
2024-12-17T2300,2566A,102.1879,31.914,阿坝藏族羌族自治州,州农科所,,41,41,29,21,10,40,,71,57,24,18,8,10,0.8,0.7
2024-12-17T2300,2568A,102.2502,31.8896,阿坝藏族羌族自治州,马师校,,39,32,21,27,15,12,,45,21,37,24,3,3,0.5,0.4
2024-12-17T2300,3994A,102.2165,31.9024,阿坝藏族羌族自治州,马尔康中学西区,颗粒物(PM10),52,54,31,28,16,16,,51,30,38,22,6,6,0.7,0.6
2024-12-17T2300,2695A,80.292,41.1694,阿克苏地区,电视台,细颗粒物(PM2.5),97,88,81,72,60,17,,58,51,68,30,4,4,1.4,0.9
2024-12-17T2300,2696A,80.2613,41.1551,阿克苏地区,艺术中心,细颗粒物(PM2.5),77,79,77,56,56,25,,61,52,48,26,4,4,1.1,0.9
2024-12-17T2300,2204A,105.6467,38.8363,阿拉善盟,西城区西花园,细颗粒物(PM2.5),52,51,37,36,29,34,,85,56,52,22,10,10,1.2,0.8
2024-12-17T2300,2205A,105.6985,38.8411,阿拉善盟,蒙二幼,,21,18,23,7,14,67,,80,54,19,28,5,6,0.5,0.6
2024-12-17T2300,2206A,105.724,38.8516,阿拉善盟,环保局新楼,,27,9,12,6,7,84,,94,76,7,12,8,8,0.4,0.5
2024-12-17T2300,2708A,88.1264,47.8517,阿勒泰地区,市站,,33,33,26,22,15,13,,32,17,38,35,8,8,0.7,0.5
2024-12-17T2300,2630A,80.1161,32.5,阿里地区,阿里监测站,,29,14,20,11,7,91,,107,104,7,8,6,6,0.6,0.5
2024-12-17T2300,3192A,80.0903,32.5028,阿里地区,阿里藏医院,,28,18,24,3,6,89,,98,95,1,2,4,4,0.4,0.5
2024-12-17T2300,2642A,109.0318,32.6537,安康市,香溪洞,细颗粒物(PM2.5),70,60,57,51,47,75,,81,81,16,20,10,12,0.6,0.6
2024-12-17T2300,2644A,109.0072,32.6975,安康市,汉滨区检察院,细颗粒物(PM2.5),77,75,65,56,50,32,,64,44,32,32,5,6,0.9,0.8
2024-12-17T2300,4054A,109.0325,32.6913,安康市,市邮政管理局,细颗粒物(PM2.5),87,93,79,64,58,18,,75,35,45,40,8,9,0.8,1
2024-12-17T2300,2291A,117.0809,30.5177,安庆市,环科院,细颗粒物(PM2.5),100,99,87,75,61,62,,76,56,37,56,7,8,0.7,0.8
2024-12-17T2300,2292A,117.0331,30.5119,安庆市,马山宾馆,细颗粒物(PM2.5),89,88,81,66,56,63,,69,49,44,64,8,9,0.4,0.5
2024-12-17T2300,2294A,116.9896,30.6145,安庆市,安庆大学,细颗粒物(PM2.5),109,87,87,82,66,87,,89,84,24,51,12,12,0.4,1.3
2024-12-17T2300,3173A,117.0598,30.5351,安庆市,市人大,细颗粒物(PM2.5),94,105,88,70,63,54,,68,36,53,72,8,8,0.5,0.6
2024-12-17T2300,3122A,105.9606,26.2611,安顺市,伍家关,,29,26,40,20,29,49,,66,46,18,18,11,9,0.9,0.9
2024-12-17T2300,3123A,105.9408,26.2431,安顺市,凤凰山,,32,24,40,22,37,48,,65,42,16,18,12,16,0.5,0.7
2024-12-17T2300,3124A,105.9439,26.2564,安顺市,金钟山,,,25,43,21,35,,,66,46,13,13,15,17,0.6,0.6
2024-12-17T2300,3125A,105.8983,26.2481,安顺市,娄家坡,,32,26,41,22,35,48,,61,39,15,18,12,16,0.6,0.6
2024-12-17T2300,1818A,114.4839,36.0621,安阳市,棉研所,细颗粒物(PM2.5),73,62,114,53,75,16,,37,25,47,54,10,15,0.7,1.1
2024-12-17T2300,1819A,114.3551,36.1017,安阳市,红庙街,细颗粒物(PM2.5),83,67,100,61,67,13,,42,24,47,48,6,11,0.7,1.3
2024-12-17T2300,1820A,114.361,36.0681,安阳市,银杏小区,细颗粒物(PM2.5),74,70,96,54,64,11,,40,25,54,49,3,7,0.7,1.4
2024-12-17T2300,3141A,114.3922,36.0878,安阳市,信访局,细颗粒物(PM2.5),65,76,101,47,61,10,,39,25,60,54,6,12,0.4,1
2024-12-17T2300,3669A,114.4705,36.0637,安阳市,左辅环卫站,细颗粒物(PM2.5),69,83,117,50,73,25,,42,32,40,52,5,12,0.7,1.2
2024-12-17T2300,3703A,114.2917,36.0949,安阳市,安钢职工学校,细颗粒物(PM2.5),67,55,114,48,77,25,,42,28,42,48,6,10,0.8,1.2
2024-12-17T2300,1748A,123.044,41.1196,鞍山市,深沟寺,,46,46,31,22,16,25,,53,38,32,15,7,10,0.9,0.7
2024-12-17T2300,1749A,123.011,41.0931,鞍山市,太阳城,,43,43,28,23,14,32,,57,45,29,20,8,12,0.5,0.7
2024-12-17T2300,1750A,123.0485,41.1442,鞍山市,太平,颗粒物(PM10),65,80,41,44,19,16,,52,32,45,23,13,13,0.9,0.7
2024-12-17T2300,1751A,122.9642,41.0971,鞍山市,铁西三道街,,47,47,38,25,18,29,,50,36,30,22,16,14,0.6,0.9
2024-12-17T2300,1752A,122.9341,41.0833,鞍山市,铁西工业园区,,39,39,48,23,27,33,,53,39,36,33,12,13,0.7,1
2024-12-17T2300,1753A,123.022,41.0821,鞍山市,明达新区,,38,38,26,20,14,28,,54,43,26,15,12,13,0.5,0.7
2024-12-17T2300,2195A,107.4212,40.761,巴彦淖尔市,附二中,,49,49,79,26,41,41,,55,43,25,43,8,10,0.4,0.7
2024-12-17T2300,2196A,107.37,40.7372,巴彦淖尔市,市环保大楼,,45,43,79,31,40,48,,53,40,21,38,6,6,0.3,0.5
2024-12-17T2300,1956A,86.1472,41.7538,巴音郭楞蒙古自治州,孔雀公园,细颗粒物(PM2.5),94,83,60,70,46,2,,58,41,91,49,4,3,1.4,0.7
2024-12-17T2300,1957A,86.1972,41.7166,巴音郭楞蒙古自治州,棉纺厂,细颗粒物(PM2.5),85,102,77,63,45,1,,48,30,79,64,3,3,1.1,0.8
2024-12-17T2300,1958A,86.2357,41.7173,巴音郭楞蒙古自治州,经济开发区,颗粒物(PM10),57,64,50,38,32,17,,60,42,54,38,2,4,0.6,0.6
2024-12-17T2300,2914A,106.7677,31.8794,巴中市,苏山坪,细颗粒物(PM2.5),99,92,79,74,64,81,,83,82,23,25,9,6,0.5,0.5
2024-12-17T2300,3182A,106.7656,31.8545,巴中市,丽阳花园,细颗粒物(PM2.5),138,132,99,105,79,4,,48,26,49,46,4,3,0.9,0.9
2024-12-17T2300,3183A,106.7418,31.8654,巴中市,圣泉水务公司,细颗粒物(PM2.5),132,130,87,100,71,4,,60,30,59,44,3,3,0.8,0.7
2024-12-17T2300,3616A,106.7616,31.8344,巴中市,市中心医院,细颗粒物(PM2.5),155,165,105,118,84,4,,55,28,54,43,3,3,1.2,0.7
2024-12-17T2300,2235A,122.7911,45.6077,白城市,洮北区环保局,细颗粒物(PM2.5),117,,44,88,32,20,,61,30,56,27,5,4,1.4,0.9
2024-12-17T2300,2236A,122.8738,45.5725,白城市,市环保局,颗粒物(PM10),59,68,23,36,15,10,,63,22,111,39,7,6,0.9,0.6
2024-12-17T2300,2231A,126.4219,41.9171,白山市,喜丰,细颗粒物(PM2.5),57,58,67,40,30,14,,44,33,42,28,9,29,0.9,0.9
2024-12-17T2300,2232A,126.4077,41.9419,白山市,环保局,"颗粒物(PM10),细颗粒物(PM2.5)",65,79,88,47,31,21,,44,37,28,21,9,18,0.8,0.7
2024-12-17T2300,2647A,104.1724,36.5446,白银市,第三小学,细颗粒物(PM2.5),97,134,61,72,50,4,,68,37,88,41,50,36,1.6,1.3
2024-12-17T2300,2648A,104.1465,36.5482,白银市,动力公司,细颗粒物(PM2.5),85,76,53,63,51,15,,76,46,52,34,13,16,2.2,1.3
2024-12-17T2300,2512A,106.6103,23.9011,百色市,市监测站,细颗粒物(PM2.5),100,100,84,75,58,7,,39,30,51,40,13,19,1.4,1.1
2024-12-17T2300,2513A,106.6538,23.8859,百色市,市中心血站,细颗粒物(PM2.5),110,132,121,83,76,9,,40,30,57,43,12,28,1.1,1.1
2024-12-17T2300,3406A,106.6085,23.8798,百色市,祈福高中,颗粒物(PM10),84,117,103,59,53,5,,38,22,57,43,8,16,1.0,1
2024-12-17T2300,2270A,117.396,32.939,蚌埠市,工人疗养院,细颗粒物(PM2.5),159,159,120,121,91,52,,79,70,51,48,14,10,1.0,0.9
2024-12-17T2300,2271A,117.3605,32.9427,蚌埠市,百货大楼,颗粒物(PM10),110,169,126,,94,46,,70,56,47,56,14,11,0.8,0.7
2024-12-17T2300,2273A,117.4185,32.8911,蚌埠市,蚌埠学院,细颗粒物(PM2.5),156,158,119,119,87,58,,81,72,45,53,15,12,0.9,0.7
2024-12-17T2300,2274A,117.3533,32.9673,蚌埠市,淮上区政府,细颗粒物(PM2.5),175,175,135,132,103,34,,72,50,54,53,13,14,0.8,0.7
2024-12-17T2300,2275A,117.3145,32.8977,蚌埠市,高新区,细颗粒物(PM2.5),172,185,132,130,97,9,,66,33,93,68,15,16,0.9,0.8
2024-12-17T2300,3715A,117.3092,32.9314,蚌埠市,蚌埠田家炳中学,细颗粒物(PM2.5),186,197,142,140,100,7,,63,31,84,67,13,14,1.0,0.8
2024-12-17T2300,1585A,109.8756,40.6532,包头市,市环境监测站,,22,22,30,6,9,60,,70,60,18,21,14,10,0.4,0.4
2024-12-17T2300,1587A,109.9991,40.5842,包头市,包头八中,,23,23,44,7,11,60,,77,64,17,25,6,8,0.5,0.6
2024-12-17T2300,1588A,109.8538,40.6821,包头市,青山宾馆,,20,15,24,3,11,61,,70,59,17,21,12,10,0.5,0.5
2024-12-17T2300,1589A,109.8642,40.6288,包头市,惠龙物流,,18,14,27,7,9,57,,71,62,20,18,12,8,0.5,0.4
2024-12-17T2300,1590A,110.0377,40.5546,包头市,东河鸿龙湾,,18,17,49,3,19,55,,66,51,19,34,10,13,0.4,0.8
2024-12-17T2300,3283A,109.9154,40.5685,包头市,滨河大厦,,21,6,41,3,21,65,,70,63,14,29,9,14,0.3,0.6
2024-12-17T2300,3419A,109.9447,40.6261,包头市,包头市委党校,,33,33,44,3,12,68,,74,64,11,23,5,6,0.6,0.7
2024-12-17T2300,3683A,109.8331,40.6576,包头市,昆区政府,,19,19,29,6,11,58,,69,58,19,19,11,11,0.5,0.7
2024-12-17T2300,1930A,107.185,34.3063,宝鸡市,庙沟村,,33,,46,23,42,59,,92,80,30,24,7,8,0.4,0.5
2024-12-17T2300,1931A,107.0708,34.3017,宝鸡市,竹园沟,,24,24,47,15,38,45,,86,68,24,24,6,7,0.5,0.6
2024-12-17T2300,1932A,107.1906,34.3672,宝鸡市,三陆医院,细颗粒物(PM2.5),80,61,77,59,56,29,,75,40,39,40,5,6,0.7,0.7
2024-12-17T2300,1933A,107.1431,34.3547,宝鸡市,监测站,细颗粒物(PM2.5),57,44,68,40,51,16,,72,46,47,38,8,8,0.6,0.6
2024-12-17T2300,1934A,107.1186,34.3739,宝鸡市,技工学校,细颗粒物(PM2.5),72,62,72,52,53,26,,73,51,38,30,4,5,0.8,0.8
2024-12-17T2300,1935A,107.3906,34.3528,宝鸡市,陈仓区环保局家属楼,细颗粒物(PM2.5),118,113,95,89,75,13,,71,40,64,48,10,22,1.2,1.2
2024-12-17T2300,1936A,107.2058,34.3497,宝鸡市,文理学院,细颗粒物(PM2.5),72,66,65,52,48,28,,68,41,37,35,6,6,0.8,0.8
2024-12-17T2300,1937A,107.2386,34.3622,宝鸡市,三迪小学,细颗粒物(PM2.5),89,,69,66,58,12,,75,39,59,44,6,11,0.7,0.8
2024-12-17T2300,1051A,115.493,38.8632,保定市,游泳馆,颗粒物(PM10),57,64,60,32,31,8,,59,29,62,42,2,4,0.5,0.4
2024-12-17T2300,1052A,115.5213,38.8959,保定市,华电二区,细颗粒物(PM2.5),59,62,50,42,35,2,,56,23,62,39,3,3,0.2,0.3
2024-12-17T2300,1053A,115.4713,38.9108,保定市,接待中心,颗粒物(PM10),60,69,59,35,30,2,,51,21,65,39,4,3,0.4,0.3
2024-12-17T2300,1054A,115.4612,38.8416,保定市,地表水厂,细颗粒物(PM2.5),65,78,61,47,32,8,,62,27,65,43,2,3,0.3,0.2
2024-12-17T2300,3581A,115.31981,38.95208,保定市,满城区生态环境分局,颗粒物(PM10),71,92,57,51,27,5,,58,21,74,45,3,3,0.9,0.3
2024-12-17T2300,3582A,115.47694,38.76408,保定市,清苑区第二中学,,48,48,52,31,25,13,,59,32,52,38,1,4,0.4,0.4
2024-12-17T2300,3583A,115.62909,39.02311,保定市,徐水物探局,,49,43,45,34,23,11,,57,22,44,39,3,4,0.4,0.4
2024-12-17T2300,4004A,115.4202,38.8656,保定市,双鹰农机,颗粒物(PM10),57,63,61,33,35,11,,64,30,58,38,6,4,0.4,0.3
2024-12-17T2300,4034A,115.5150,38.8590,保定市,植保所站,颗粒物(PM10),58,66,59,37,37,7,,58,30,63,40,7,5,0.5,0.3
2024-12-17T2300,2594A,99.1678,25.1081,保山市,市环境监测站,,30,30,40,15,10,56,,83,70,9,10,4,5,0.4,0.3
2024-12-17T2300,2595A,99.1711,25.1328,保山市,市环保局,,33,27,27,23,16,73,,85,81,4,6,8,7,0.3,0.3
2024-12-17T2300,1866A,109.2262,21.588,北海市,牛尾岭水库,,,80,57,66,45,70,,102,91,,12,9,12,0.9,0.8
2024-12-17T2300,1867A,109.1436,21.4086,北海市,海滩公园,细颗粒物(PM2.5),89,95,71,66,48,84,,108,102,21,25,16,19,1.0,0.8
2024-12-17T2300,1868A,109.0981,21.4661,北海市,新市环保局,细颗粒物(PM2.5),98,96,68,73,48,94,,118,112,23,29,13,16,0.6,0.6
2024-12-17T2300,1869A,109.1778,21.5233,北海市,北海工业园,细颗粒物(PM2.5),108,105,81,81,58,89,,114,108,26,28,16,22,0.8,0.7
2024-12-17T2300,3400A,109.1911,21.4415,北海市,龙潭自来水厂,细颗粒物(PM2.5),109,104,78,82,66,86,,115,104,22,26,14,18,0.8,0.8
2024-12-17T2300,1001A,116.3621,39.8784,北京市,万寿西宫,,20,10,19,3,8,63,,65,62,5,14,2,2,0.2,0.2
2024-12-17T2300,1002A,116.2202,40.2915,北京市,定陵,,17,6,9,3,6,53,,55,54,2,4,3,4,0.1,0.1
2024-12-17T2300,1003A,116.4174,39.9289,北京市,东四,,21,9,18,3,8,65,,64,64,2,10,3,2,0.5,0.5
2024-12-17T2300,1004A,116.4072,39.8863,北京市,天坛,,23,9,17,3,7,71,,70,69,2,12,3,3,0.0,0.1
2024-12-17T2300,1005A,116.462,39.9365,北京市,农展馆,,22,9,16,3,6,68,,67,67,7,14,3,3,0.1,0.3
2024-12-17T2300,1006A,116.3392,39.9295,北京市,官园,,20,10,17,3,8,62,,65,62,8,13,2,3,0.4,0.4
2024-12-17T2300,1007A,116.2878,39.9611,北京市,海淀万柳,,19,9,21,3,8,59,,65,61,15,28,2,3,0.3,0.4
2024-12-17T2300,1008A,116.6636,40.135,北京市,顺义新城,,20,7,15,3,5,61,,66,61,6,6,3,3,0.2,0.2
2024-12-17T2300,1009A,116.6275,40.3275,北京市,怀柔镇,,20,7,12,3,6,63,,68,64,6,9,1,2,0.5,0.4
2024-12-17T2300,1010A,116.2296,40.217,北京市,昌平镇,,23,6,14,3,7,72,,70,70,2,8,5,6,0.2,0.2
2024-12-17T2300,1011A,116.3966,39.9821,北京市,奥体中心,,20,8,17,3,7,64,,65,64,5,15,3,3,0.2,0.2
2024-12-17T2300,1012A,116.184,39.9136,北京市,古城,,20,11,24,3,10,62,,65,63,9,26,4,5,0.3,0.4
2024-12-17T2300,3281A,115.9718,40.4529,北京市,延庆夏都,,19,10,19,3,8,60,,68,68,4,11,3,2,0.2,0.2
2024-12-17T2300,3417A,117.0709,40.1465,北京市,平谷新城,,22,8,12,3,5,69,,67,63,2,5,3,1,0.2,0.3
2024-12-17T2300,3418A,116.8336,40.4095,北京市,密云新城,,21,6,8,3,4,66,,69,68,1,2,3,3,0.1,0.1
2024-12-17T2300,3671A,116.088,39.9726,北京市,门头沟三家店,,21,10,29,3,9,66,,64,64,3,24,3,4,0.1,0.3
2024-12-17T2300,3672A,116.1541,39.8204,北京市,丰台云岗,,17,17,22,3,9,54,,62,61,10,18,1,1,0.1,0.2
2024-12-17T2300,3673A,116.6804,39.9081,北京市,通州东关,,16,16,17,3,7,43,,63,43,14,12,3,2,0.2,0.1
2024-12-17T2300,3674A,115.9577,39.7603,北京市,房山燕山,,23,14,25,6,12,71,,66,66,2,18,1,2,0.2,0.3
2024-12-17T2300,3675A,116.4672,39.7733,北京市,大兴旧宫,,20,7,16,3,7,61,,59,58,4,15,3,1,0.1,0.2
2024-12-17T2300,3694A,115.986,40.4563,北京市,延庆石河营,,19,8,16,3,9,59,,66,65,4,15,3,2,0.2,0.2
2024-12-17T2300,3695A,116.6151,40.3053,北京市,怀柔新城,,20,6,10,3,6,62,,65,64,3,6,3,2,0.1,0.1
2024-12-17T2300,3696A,116.2545,39.8768,北京市,丰台小屯,,17,9,19,3,8,54,,61,58,8,15,2,3,0.4,0.4
2024-12-17T2300,3697A,116.84,40.3844,北京市,密云镇,,21,6,10,3,4,67,,68,68,1,4,3,2,0.1,0.1
2024-12-17T2300,1761A,123.8275,41.3064,本溪市,大峪,,36,36,36,18,21,39,,53,50,20,25,10,11,1.5,1.4
2024-12-17T2300,1762A,123.7567,41.3325,本溪市,溪湖,,40,40,46,22,16,34,,54,51,24,22,9,9,0.8,0.8
2024-12-17T2300,1763A,123.7169,41.3094,本溪市,彩屯,颗粒物(PM10),53,56,34,34,23,24,,49,37,38,28,10,9,1.5,0.8
2024-12-17T2300,1764A,123.7669,41.2864,本溪市,东明,,38,35,41,26,20,40,,50,48,22,26,10,13,0.7,0.8
2024-12-17T2300,1765A,123.7992,41.2664,本溪市,新立屯,细颗粒物(PM2.5),53,,35,37,19,37,,55,49,20,30,4,8,0.6,1.1
2024-12-17T2300,1766A,123.8142,41.3472,本溪市,威宁,细颗粒物(PM2.5),58,44,66,41,24,16,,56,37,45,32,2,7,0.7,0.8
2024-12-17T2300,2587A,105.2864,27.3125,毕节市,八中,,48,44,34,33,25,46,,53,52,12,14,6,6,0.7,0.7
2024-12-17T2300,2588A,105.31,27.2944,毕节市,师专,,50,42,32,35,26,50,,53,52,11,14,6,6,0.7,0.8
2024-12-17T2300,3537A,105.3631,27.3533,毕节市,长征村,细颗粒物(PM2.5),67,53,29,48,26,63,,67,65,11,11,8,7,0.5,0.6
2024-12-17T2300,1629A,118.0018,37.3617,滨州市,第二水厂,,24,24,67,7,40,26,,49,44,35,48,19,14,0.5,0.9
2024-12-17T2300,1630A,117.9776,37.393,滨州市,北中新校,,27,27,69,12,39,30,,50,45,33,46,11,14,0.3,0.7
2024-12-17T2300,3514A,117.9378,37.3956,滨州市,中海酒店,,19,19,65,12,46,28,,51,47,35,43,7,11,0.3,0.6
2024-12-17T2300,3515A,117.9378,37.3553,滨州市,开发区一中,,24,24,71,7,41,42,,52,51,26,50,11,15,0.3,0.6
2024-12-17T2300,3516A,118.0917,37.694,滨州市,金海六路,,27,27,52,12,31,27,,55,45,31,38,5,10,0.5,0.8
2024-12-17T2300,4028A,117.9956,37.3753,滨州市,滨州市西街道办事处,,20,19,61,14,43,27,,53,47,37,42,12,11,0.1,0.6
2024-12-17T2300,2311A,115.8072,33.8399,亳州市,污水处理厂,细颗粒物(PM2.5),79,104,101,58,60,26,,62,49,42,35,8,9,0.6,0.6
2024-12-17T2300,2312A,115.7789,33.8518,亳州市,三国揽胜宫,颗粒物(PM10),82,114,118,57,59,29,,59,47,44,44,7,8,0.7,0.8
2024-12-17T2300,3332A,115.7633,33.8034,亳州市,亳州学院,细颗粒物(PM2.5),77,95,97,56,62,37,,63,53,38,39,5,10,0.6,0.7
2024-12-17T2300,2693A,82.0485,44.8556,博尔塔拉蒙古自治州,市党校,,,34,28,,29,45,,41,33,12,22,3,5,0.5,0.5
2024-12-17T2300,2694A,82.0806,44.8969,博尔塔拉蒙古自治州,市环保局,颗粒物(PM10),53,56,39,23,18,37,,50,43,23,19,7,7,0.9,0.6
2024-12-17T2300,1071A,116.8842,38.2991,沧州市,沧县城建局,颗粒物(PM10),54,57,63,35,41,9,,52,26,62,52,7,7,1.0,0.9
2024-12-17T2300,1072A,116.8584,38.3254,沧州市,电视转播站,颗粒物(PM10),53,55,62,27,31,12,,60,38,59,48,13,13,0.6,0.7
2024-12-17T2300,1073A,116.8709,38.3228,沧州市,市环保局,细颗粒物(PM2.5),52,52,58,36,40,12,,57,34,54,45,8,6,0.8,0.8
2024-12-17T2300,3324A,116.8136,38.3004,沧州市,河北水利电力学院,"颗粒物(PM10),细颗粒物(PM2.5)",52,53,54,36,36,7,,66,37,64,45,8,10,0.7,0.6
2024-12-17T2300,2622A,97.1806,31.1273,昌都市,昌都监测站,细颗粒物(PM2.5),117,163,64,88,27,2,,64,40,82,48,10,7,2.6,1.4
2024-12-17T2300,3719A,97.1714,31.1406,昌都市,昌都会议中心,,20,18,19,14,14,46,,72,65,17,19,4,4,1.0,0.9
2024-12-17T2300,2690A,88.1236,43.8886,昌吉回族自治州,天山天池,,25,,13,13,7,77,,69,69,2,4,8,10,0.4,0.4
2024-12-17T2300,2692A,87.2717,44.0297,昌吉回族自治州,新区政务中心,细颗粒物(PM2.5),65,67,57,47,36,7,,37,31,64,50,6,8,0.8,0.9
2024-12-17T2300,3613A,87.3095,44.0142,昌吉回族自治州,亚心广场,细颗粒物(PM2.5),67,66,57,48,44,7,,38,27,66,46,6,7,0.8,0.8
2024-12-17T2300,1119A,125.3325,43.9166,长春市,食品厂,颗粒物(PM10),60,69,50,37,38,12,,50,26,49,37,9,12,0.6,0.6
2024-12-17T2300,1120A,125.2863,43.9027,长春市,客车厂,,50,42,42,35,36,26,,44,27,37,39,9,13,0.3,0.4
2024-12-17T2300,1121A,125.2841,43.8463,长春市,邮电学院,,38,38,40,22,29,20,,53,41,48,34,11,14,0.6,0.6
2024-12-17T2300,1122A,125.3716,43.8772,长春市,劳动公园,,26,26,46,18,30,32,,56,43,38,36,11,14,0.6,0.8
2024-12-17T2300,1123A,125.3297,43.8805,长春市,园林处,,29,29,44,20,31,27,,53,36,34,35,11,13,0.5,0.6
2024-12-17T2300,1124A,125.4605,43.79,长春市,净月潭,,25,24,32,17,21,32,,57,45,23,19,7,8,0.4,0.4
2024-12-17T2300,1126A,125.3863,43.8447,长春市,经开区环卫处,,37,37,46,23,27,9,,51,36,58,36,15,13,0.7,0.7
2024-12-17T2300,1127A,125.245,43.7783,长春市,高新区管委会,细颗粒物(PM2.5),65,59,45,47,31,9,,52,28,60,34,8,8,0.8,0.7
2024-12-17T2300,1128A,125.1761,43.8325,长春市,岱山公园,细颗粒物(PM2.5),77,58,51,56,37,16,,50,31,40,36,10,11,0.8,0.7
2024-12-17T2300,1335A,113.0833,28.2325,长沙市,经开区环保局,细颗粒物(PM2.5),78,88,77,57,43,30,,83,67,55,41,4,4,0.6,0.6
2024-12-17T2300,1336A,112.8872,28.2189,长沙市,高开区环保局,细颗粒物(PM2.5),79,95,94,58,54,39,,83,72,41,53,6,7,0.8,1.1
2024-12-17T2300,1337A,113.0792,28.2053,长沙市,马坡岭,细颗粒物(PM2.5),75,91,92,55,52,38,,87,68,44,42,6,6,0.4,0.5
2024-12-17T2300,1338A,112.9394,28.19,长沙市,湖南师范大学,细颗粒物(PM2.5),77,83,74,56,46,46,,81,73,40,48,5,5,0.6,0.6
2024-12-17T2300,1339A,113.0178,28.1322,长沙市,雨花区环保局,细颗粒物(PM2.5),77,74,69,56,42,41,,74,66,51,45,8,8,0.6,0.6
2024-12-17T2300,1340A,112.9792,28.2597,长沙市,伍家岭,细颗粒物(PM2.5),78,97,101,57,58,27,,55,,52,42,5,4,0.8,1
2024-12-17T2300,1341A,113.0014,28.1944,长沙市,火车新站,细颗粒物(PM2.5),77,72,99,56,58,42,,71,64,46,58,6,5,0.6,1
2024-12-17T2300,1342A,112.9844,28.1178,长沙市,天心区环保局,颗粒物(PM10),72,94,75,47,33,49,,76,70,47,44,4,6,0.5,0.6
2024-12-17T2300,1343A,112.8908,28.1308,长沙市,湖南中医药大学,细颗粒物(PM2.5),105,102,101,79,54,43,,56,,42,47,10,8,0.6,0.8
2024-12-17T2300,1344A,112.9581,28.3611,长沙市,沙坪,细颗粒物(PM2.5),74,,47,54,43,40,,81,72,27,17,9,8,0.7,0.6
2024-12-17T2300,1727A,113.1147,36.1547,长治市,清华站,"颗粒物(PM10),细颗粒物(PM2.5)",58,66,69,41,34,22,,48,37,52,47,16,24,1.2,1.3
2024-12-17T2300,1728A,113.1031,36.1989,长治市,监测站,细颗粒物(PM2.5),67,78,70,48,40,25,,53,37,44,45,12,23,1.3,1.4
2024-12-17T2300,1730A,113.0886,36.2125,长治市,审计局,细颗粒物(PM2.5),67,68,70,48,42,27,,54,44,50,51,13,25,1.0,1
2024-12-17T2300,1731A,113.0844,36.1856,长治市,长治八中,颗粒物(PM10),78,106,96,54,46,27,,47,32,40,47,13,25,1.1,1.4
2024-12-17T2300,2845A,113.1569,36.1911,长治市,德盛苑,细颗粒物(PM2.5),62,68,53,44,32,21,,61,48,43,33,7,14,1.0,1.2
2024-12-17T2300,3568A,113.06,36.0464,长治市,向阳小学,细颗粒物(PM2.5),75,87,80,55,44,19,,54,41,47,34,18,20,1.4,1.1
2024-12-17T2300,3569A,112.8792,36.3144,长治市,屯留一中,颗粒物(PM10),65,79,43,43,28,24,,61,40,55,46,27,18,1.4,0.8
2024-12-17T2300,3570A,113.235,36.3489,长治市,潞城四中,细颗粒物(PM2.5),69,75,82,50,46,14,,61,38,55,38,23,44,1.4,1.5
2024-12-17T2300,1854A,111.6975,28.9703,常德市,市二中,细颗粒物(PM2.5),107,89,85,80,72,69,,84,81,25,31,9,10,0.7,0.7
2024-12-17T2300,3138A,111.7153,29.0289,常德市,武陵区永安,细颗粒物(PM2.5),97,93,90,72,69,75,,88,86,21,29,8,7,0.6,0.7
2024-12-17T2300,3139A,111.6892,28.9881,常德市,鼎城区玉霞,细颗粒物(PM2.5),105,113,88,79,66,62,,88,84,31,31,9,8,0.8,0.7
2024-12-17T2300,3140A,111.6625,29.0531,常德市,武陵区长庚,细颗粒物(PM2.5),137,132,97,104,71,54,,84,80,27,27,9,7,0.6,0.6
2024-12-17T2300,1196A,119.9633,31.762,常州市,市监测站,细颗粒物(PM2.5),102,105,96,76,64,22,,78,58,88,69,13,13,0.9,0.9
2024-12-17T2300,1200A,119.9468,31.7069,常州市,武进监测站,细颗粒物(PM2.5),90,83,79,67,56,32,,77,61,76,59,7,13,0.7,0.8
2024-12-17T2300,1201A,119.9255,31.9087,常州市,安家,细颗粒物(PM2.5),115,114,108,87,71,13,,72,43,95,78,15,15,0.9,0.9
2024-12-17T2300,3002A,119.9805,31.8174,常州市,行政中心,细颗粒物(PM2.5),104,92,74,78,58,15,,72,44,89,67,14,13,0.7,0.7
2024-12-17T2300,3003A,120.0522,31.7748,常州市,经开区,细颗粒物(PM2.5),105,116,97,79,62,5,,75,43,99,70,16,19,0.9,0.9
2024-12-17T2300,3010A,119.9025,31.7964,常州市,钟楼,细颗粒物(PM2.5),104,103,84,78,57,15,,76,48,89,66,15,13,1.6,1
2024-12-17T2300,3429A,119.8598,31.7066,常州市,武进经发区,细颗粒物(PM2.5),110,115,98,83,67,8,,79,42,103,71,15,13,0.9,0.8
2024-12-17T2300,3430A,119.5826,31.7245,常州市,金坛城区,细颗粒物(PM2.5),120,124,87,91,62,28,,89,66,71,45,14,15,1.0,0.8
2024-12-17T2300,2220A,120.4318,41.5881,朝阳市,西梁,,32,32,33,15,13,38,,63,41,25,18,7,7,0.8,0.7
2024-12-17T2300,2221A,120.4521,41.5646,朝阳市,河畔小区,,24,24,30,11,10,49,,63,51,18,15,6,6,0.7,0.7
2024-12-17T2300,2222A,120.4176,41.5648,朝阳市,八里堡,,21,21,33,12,14,54,,61,45,10,14,9,10,0.5,0.5
2024-12-17T2300,2223A,120.3806,41.5969,朝阳市,农业园区,,19,17,20,8,11,60,,73,58,11,10,8,7,0.4,0.5
2024-12-17T2300,1705A,116.6367,23.6719,潮州市,西园路,细颗粒物(PM2.5),68,54,54,49,38,72,,104,94,26,19,5,6,0.3,0.4
2024-12-17T2300,3026A,116.6183,23.6608,潮州市,市政府,细颗粒物(PM2.5),68,82,57,49,34,71,,106,96,30,22,13,7,0.7,0.5
2024-12-17T2300,4036A,116.6461,23.6761,潮州市,金山,细颗粒物(PM2.5),57,51,47,40,34,47,,99,85,31,17,5,7,0.6,0.5
2024-12-17T2300,2472A,113.0073,25.9061,郴州市,马头岭,细颗粒物(PM2.5),99,84,72,74,34,52,,74,67,32,26,14,12,0.8,0.6
2024-12-17T2300,2473A,113.0116,25.8226,郴州市,市职中,细颗粒物(PM2.5),84,90,63,62,41,4,,74,41,59,35,7,6,1.0,0.8
2024-12-17T2300,2474A,113.0161,25.8001,郴州市,兴隆步行街,细颗粒物(PM2.5),78,91,69,57,42,8,,76,54,59,35,7,8,1.0,0.7
2024-12-17T2300,2475A,113.0383,25.8071,郴州市,市审计局,细颗粒物(PM2.5),67,62,58,48,41,15,,77,57,51,35,9,8,2.0,0.8
2024-12-17T2300,2476A,113.0348,25.7759,郴州市,市环保局,细颗粒物(PM2.5),70,74,64,51,41,18,,74,51,50,36,6,6,1.0,0.8
2024-12-17T2300,1431A,103.9728,30.7236,成都市,金泉两河,细颗粒物(PM2.5),113,109,112,85,89,1,,68,35,89,65,3,3,2.0,1.1
2024-12-17T2300,1432A,104.176,30.6872,成都市,十里店,细颗粒物(PM2.5),145,135,112,111,83,11,,66,44,104,72,2,2,1.1,1
2024-12-17T2300,1433A,104.079,30.5706,成都市,三瓦窑,细颗粒物(PM2.5),133,137,95,101,71,1,,75,49,120,72,3,2,1.1,0.8
2024-12-17T2300,1434A,104.1114,30.63,成都市,沙河铺,细颗粒物(PM2.5),113,112,96,85,77,4,,68,35,64,52,2,3,1.7,0.9
2024-12-17T2300,1437A,104.0786,30.6531,成都市,君平街,细颗粒物(PM2.5),147,148,108,112,85,3,,73,43,112,66,6,5,1.7,1
2024-12-17T2300,2880A,104.0239,30.65639,成都市,大石西路,细颗粒物(PM2.5),139,143,104,106,76,0,,72,38,99,66,4,4,1.8,0.9
2024-12-17T2300,3136A,104.2725,30.5589,成都市,龙泉驿区区政府,细颗粒物(PM2.5),98,88,85,73,66,56,,78,69,26,35,3,3,0.7,0.7
2024-12-17T2300,3357A,104.0106,30.6931,成都市,金博路,细颗粒物(PM2.5),127,149,125,96,90,2,,57,33,89,67,1,2,1.6,1.1
2024-12-17T2300,3359A,104.0578,30.5225,成都市,华阳,细颗粒物(PM2.5),122,134,88,92,65,6,,86,50,96,54,1,1,1.7,0.7
2024-12-17T2300,3487A,104.2394,30.5319,成都市,车城东七路,细颗粒物(PM2.5),105,110,89,79,67,3,,97,50,78,54,3,3,1.0,0.8
2024-12-17T2300,3488A,104.3853,30.7453,成都市,青白江技师分院,细颗粒物(PM2.5),97,96,79,72,69,10,,94,56,68,50,3,3,0.5,0.5
2024-12-17T2300,3489A,104.0789,30.4072,成都市,科学城,细颗粒物(PM2.5),89,86,79,66,64,6,,105,71,64,41,4,4,0.7,0.5
2024-12-17T2300,4011A,103.8506,30.6947,成都市,光华大道三段,细颗粒物(PM2.5),132,137,113,100,89,6,,90,54,84,57,2,2,1.8,0.9
2024-12-17T2300,1062A,117.9531,40.9081,承德市,铁路,,23,23,27,3,11,69,,71,69,5,11,4,4,0.2,0.3
2024-12-17T2300,1063A,117.9392,40.9763,承德市,中国银行,,21,17,28,3,12,66,,65,63,2,10,2,2,0.2,0.3
2024-12-17T2300,1064A,117.9503,40.928,承德市,开发区,,28,28,35,12,18,70,,75,74,4,12,3,4,0.3,0.4
2024-12-17T2300,1065A,117.8051,40.9655,承德市,文化中心,,28,28,34,3,11,66,,73,70,9,14,3,3,0.2,0.3
2024-12-17T2300,1066A,117.9268,41.0026,承德市,离宫,,48,,22,33,24,66,,68,64,3,5,2,2,0.2,0.2
2024-12-17T2300,2314A,117.47,30.6618,池州市,池州学院,细颗粒物(PM2.5),122,108,83,92,58,4,,75,42,79,43,6,7,1.1,1.2
2024-12-17T2300,3237A,117.4918,30.6617,池州市,展览馆,细颗粒物(PM2.5),92,101,74,68,49,2,,68,26,55,44,5,6,0.7,1.1
2024-12-17T2300,3333A,117.5627,30.695,池州市,第八中学,细颗粒物(PM2.5),109,112,87,82,58,46,,75,57,52,44,6,8,0.6,0.7
2024-12-17T2300,3334A,117.5038,30.6243,池州市,第十二中学,细颗粒物(PM2.5),104,102,77,78,54,3,,78,35,66,48,4,5,0.8,1.3
2024-12-17T2300,1744A,118.9233,42.2816,赤峰市,松山一中,,19,6,20,3,6,58,,66,60,17,18,8,9,0.6,0.6
2024-12-17T2300,1745A,118.9576,42.2728,赤峰市,哈达街,,21,16,14,3,7,66,,59,59,14,22,5,7,0.5,0.5
2024-12-17T2300,1746A,118.8788,42.2554,赤峰市,天义路,,19,6,19,3,7,58,,60,56,14,16,9,8,0.5,0.5
2024-12-17T2300,3058A,119.2658,42.0353,赤峰市,银河街,,24,24,34,14,16,54,,62,58,16,18,15,18,0.5,0.6
2024-12-17T2300,3286A,118.9359,42.3147,赤峰市,桥北物流园区,,22,10,11,8,9,69,,71,63,13,19,7,8,0.5,0.6
2024-12-17T2300,2521A,107.3476,22.4136,崇左市,市环保局江州分局,细颗粒物(PM2.5),77,97,78,56,44,73,,99,91,20,20,13,10,0.8,0.7
2024-12-17T2300,2522A,107.3702,22.3707,崇左市,城南新区,细颗粒物(PM2.5),83,86,69,61,58,74,,105,93,27,29,12,11,0.7,0.7
2024-12-17T2300,2298A,118.3093,32.3153,滁州市,老年大学,细颗粒物(PM2.5),109,111,70,82,50,31,,78,51,60,48,4,3,0.6,0.4
2024-12-17T2300,2299A,118.3244,32.2786,滁州市,人大宾馆,细颗粒物(PM2.5),118,110,75,89,57,44,,84,51,46,47,9,9,0.6,0.6
2024-12-17T2300,3207A,118.3118,32.3038,滁州市,市政府原办公楼,细颗粒物(PM2.5),110,100,66,83,52,46,,80,57,50,47,9,7,1.0,0.9
2024-12-17T2300,3331A,118.3267,32.2634,滁州市,图书馆,细颗粒物(PM2.5),98,103,75,73,47,47,,86,57,41,43,8,7,0.6,0.5
2024-12-17T2300,2605A,101.5482,25.0441,楚雄彝族自治州,州环境监测站,,39,39,20,27,16,4,,64,50,49,15,9,6,0.6,0.5
2024-12-17T2300,2606A,101.538,25.0492,楚雄彝族自治州,市经济开发区,,50,50,22,25,15,7,,63,52,47,15,11,6,0.7,0.6
2024-12-17T2300,2548A,107.5277,31.2827,达州市,达州职业技术学院,细颗粒物(PM2.5),212,196,125,162,104,9,,34,16,52,47,11,14,2.3,1.4
2024-12-17T2300,2549A,107.5086,31.2186,达州市,市环境监测站,细颗粒物(PM2.5),156,163,125,119,90,6,,30,15,62,54,8,10,2.0,1.5
2024-12-17T2300,2550A,107.4988,31.2132,达州市,凤凰小区,细颗粒物(PM2.5),160,156,125,122,96,5,,28,12,59,54,9,12,1.9,1.4
2024-12-17T2300,2551A,107.5082,31.1986,达州市,达县机关宾馆,细颗粒物(PM2.5),140,151,121,107,89,4,,26,10,59,55,9,10,1.6,1.4
2024-12-17T2300,2552A,107.4644,31.2124,达州市,市政中心,细颗粒物(PM2.5),156,168,143,119,102,5,,21,9,74,66,9,15,2.3,1.9
2024-12-17T2300,2614A,100.1542,25.7054,大理白族自治州,大理市环境监测站,,29,,20,20,37,80,,84,84,8,8,7,7,0.4,0.4
2024-12-17T2300,2615A,100.2171,25.5811,大理白族自治州,大理古城,,22,22,27,13,14,70,,85,70,12,16,6,6,0.4,0.5
2024-12-17T2300,1109A,121.612,38.9741,大连市,甘井子,,32,32,31,16,15,47,,62,55,20,20,7,8,0.3,0.3
2024-12-17T2300,1110A,121.565,38.9511,大连市,周水子,,33,33,35,18,18,34,,56,46,26,22,11,13,0.5,0.6
2024-12-17T2300,1111A,121.5637,38.8845,大连市,星海三站,,38,38,38,14,15,45,,62,54,15,18,10,11,0.5,0.5
2024-12-17T2300,1112A,121.6302,38.9117,大连市,青泥洼桥,,33,33,28,14,14,45,,54,49,10,13,12,12,0.3,0.3
2024-12-17T2300,1113A,121.6251,38.8638,大连市,傅家庄,,28,28,26,13,14,49,,60,55,12,12,11,11,0.5,0.6
2024-12-17T2300,1114A,121.5213,38.8661,大连市,七贤岭,,32,32,26,14,14,51,,67,61,14,15,12,12,0.7,0.7
2024-12-17T2300,1115A,121.2529,38.8061,大连市,旅顺,,20,14,17,8,12,63,,63,63,8,13,10,11,0.5,0.6
2024-12-17T2300,1116A,121.7485,39.1311,大连市,金州,,30,30,30,16,18,43,,65,51,17,14,11,10,0.7,0.7
2024-12-17T2300,1117A,121.7811,39.0496,大连市,开发区,,25,25,26,10,13,56,,60,54,9,12,10,11,0.4,0.4
2024-12-17T2300,1118A,121.9762,39.0631,大连市,双D港,,33,33,31,14,17,58,,72,62,11,13,9,11,0.7,0.8
2024-12-17T2300,1789A,124.81117,46.03138,大庆市,大同区,,46,35,45,32,37,46,,52,42,17,20,3,4,0.5,0.7
2024-12-17T2300,1790A,125.129,46.533,大庆市,龙凤区,颗粒物(PM10),53,56,52,36,30,44,,46,32,27,39,19,14,0.6,0.7
2024-12-17T2300,1791A,124.902,46.408,大庆市,红岗区,,38,36,34,26,22,48,,45,41,12,25,5,6,0.4,0.4
2024-12-17T2300,1792A,125.153,46.586,大庆市,萨尔图区,,43,43,36,20,24,36,,42,35,34,38,4,5,0.4,0.4
2024-12-17T2300,1793A,124.9042,46.6215,大庆市,让胡路区,细颗粒物(PM2.5),58,46,43,41,36,44,,48,41,23,24,6,7,0.5,0.5
2024-12-17T2300,3481A,125.141,46.634,大庆市,萨区政府监测点,细颗粒物(PM2.5),55,,29,39,18,15,,43,24,47,36,4,5,1.1,0.8
2024-12-17T2300,1721A,113.3819,40.1097,大同市,果树场,,25,25,25,14,13,63,,73,60,10,16,6,8,0.1,0.4
2024-12-17T2300,1723A,113.2994,40.0758,大同市,云冈宾馆,,21,21,37,9,16,60,,77,64,10,26,8,14,0.7,0.9
2024-12-17T2300,1724A,113.3444,40.0917,大同市,大同大学,,18,16,30,12,14,47,,69,54,16,22,9,15,0.3,0.8
2024-12-17T2300,1725A,113.2661,40.1269,大同市,安家小村,,23,23,46,3,18,56,,73,61,6,22,13,18,0.5,1
2024-12-17T2300,1726A,113.2711,40.0844,大同市,教育学院,,26,26,50,7,19,53,,70,58,14,36,6,16,0.4,0.9
2024-12-17T2300,3282A,113.3397,40.0597,大同市,大同市卫生学校,,21,21,30,7,12,54,,71,60,9,18,6,12,0.6,1
2024-12-17T2300,3565A,113.1367,40.1122,大同市,云冈站,,27,27,53,12,22,46,,73,55,19,32,11,22,0.7,0.8
2024-12-17T2300,3566A,113.1186,40.2556,大同市,图书馆,,27,27,42,11,23,50,,67,54,14,17,16,12,1.0,1
2024-12-17T2300,3567A,113.5931,40.0461,大同市,区一中,,20,20,41,9,17,57,,76,70,8,20,18,20,0.5,0.8
2024-12-17T2300,3676A,113.2802,40.0995,大同市,第二人民医院,,25,25,49,12,20,53,,71,56,12,30,11,17,0.3,1
2024-12-17T2300,2269A,124.1069,50.4097,大兴安岭地区,科技局,,23,17,16,16,16,58,,66,58,5,5,6,6,0.6,0.5
2024-12-17T2300,3663A,124.1164,50.4278,大兴安岭地区,红旗社区,,19,19,24,13,16,46,,60,45,13,17,5,6,0.5,0.5
2024-12-17T2300,1600A,124.3303,40.0625,丹东市,江湾东路,,32,32,30,14,13,45,,48,45,10,11,12,13,0.5,0.6
2024-12-17T2300,1601A,124.4256,40.1503,丹东市,临江后街,,27,27,25,15,20,56,,57,56,7,16,4,10,0.4,0.5
2024-12-17T2300,1602A,124.3933,40.1461,丹东市,元宝山,,28,28,24,13,12,48,,50,47,9,13,5,7,0.5,0.6
2024-12-17T2300,1603A,124.3633,40.1092,丹东市,民主桥,,30,30,34,11,13,53,,50,48,7,15,7,10,0.4,0.5
2024-12-17T2300,3541A,109.5726,19.5167,儋州市,第一中学子站,颗粒物(PM10),53,56,36,34,21,147,,119,119,12,11,6,6,0.5,0.4
2024-12-17T2300,3542A,109.5567,19.5187,儋州市,东坡学校子站,臭氧1小时,54,43,34,36,23,163,,132,132,14,10,5,6,0.7,0.6
2024-12-17T2300,2616A,98.5842,24.428,德宏傣族景颇族自治州,德宏州监测站,颗粒物(PM10),53,55,44,30,24,38,,80,65,25,25,6,9,0.8,0.7
2024-12-17T2300,3677A,98.5881,24.4368,德宏傣族景颇族自治州,芒市人民政府综合楼,颗粒物(PM10),56,61,42,24,21,44,,77,67,14,16,7,8,0.6,0.6
2024-12-17T2300,1901A,104.4239,31.1208,德阳市,东山公园,细颗粒物(PM2.5),135,156,129,103,86,61,,91,86,46,38,2,3,0.8,0.8
2024-12-17T2300,1902A,104.3826,31.1317,德阳市,西小区,细颗粒物(PM2.5),170,166,123,129,112,4,,66,42,98,66,6,3,1.9,1.1
2024-12-17T2300,1904A,104.3553,31.1091,德阳市,耐火材料厂,细颗粒物(PM2.5),226,186,134,176,126,6,,71,47,78,59,5,5,1.3,1.2
2024-12-17T2300,3639A,104.4019,31.1244,德阳市,市教育局,细颗粒物(PM2.5),147,116,113,112,96,3,,80,46,81,62,3,4,1.0,0.9
2024-12-17T2300,1622A,116.3032,37.4674,德州市,儿童乐园,,46,46,81,31,48,29,,56,43,42,55,10,12,0.9,0.9
2024-12-17T2300,1624A,116.2991,37.4451,德州市,监理站,,36,36,70,19,42,34,,67,52,43,52,12,14,0.9,0.9
2024-12-17T2300,3066A,116.2721,37.4379,德州市,九衢泉纯净水厂,,48,48,83,29,48,28,,64,51,48,52,15,15,0.6,0.6
2024-12-17T2300,3371A,116.3728,37.4403,德州市,开发区人民医院,颗粒物(PM10),51,51,79,22,47,11,,59,36,66,54,13,14,0.7,0.7
2024-12-17T2300,3372A,116.3572,37.4094,德州市,太阳城中学,,46,46,77,29,50,17,,65,44,58,54,13,13,1.0,0.8
2024-12-17T2300,3511A,116.5652,37.3319,德州市,陵城艺术中心,颗粒物(PM10),57,63,93,36,63,19,,62,45,47,44,19,16,1.0,1.1
2024-12-17T2300,2621A,99.7056,27.8317,迪庆藏族自治州,迪庆州站,,50,43,30,35,20,58,,91,76,22,15,7,7,0.9,0.7
2024-12-17T2300,3180A,99.7136,27.8094,迪庆藏族自治州,质量技术监督局,,33,31,27,23,20,43,,88,77,35,16,7,7,1.1,0.6
2024-12-17T2300,2663A,104.6241,35.5734,定西市,东关小学,细颗粒物(PM2.5),62,68,80,44,57,21,,68,45,39,33,18,18,0.8,1.2
2024-12-17T2300,2664A,104.6194,35.5934,定西市,供电公司,,,81,81,68,58,,,73,62,66,43,19,19,1.5,1.7
2024-12-17T2300,1389A,113.7547,23.0494,东莞市,莞城梨川,颗粒物(PM10),82,114,63,56,32,5,,91,51,100,58,9,8,1.1,0.8
2024-12-17T2300,1390A,113.7944,23.0128,东莞市,东城石井,颗粒物(PM10),56,61,55,34,31,13,,90,61,69,50,6,8,0.7,0.6
2024-12-17T2300,1391A,113.7383,22.9658,东莞市,南城西平,颗粒物(PM10),60,70,66,34,35,26,,92,62,78,65,8,9,0.6,0.6
2024-12-17T2300,3319A,113.7338,23.0381,东莞市,万江金泰,颗粒物(PM10),74,97,62,50,32,6,,88,53,92,53,11,9,0.7,0.6
2024-12-17T2300,3626A,113.7533,23.0202,东莞市,南城元岭,颗粒物(PM10),73,96,69,45,33,7,,104,49,95,58,10,10,0.9,0.7
2024-12-17T2300,3627A,113.7875,23.0457,东莞市,东城主山,"颗粒物(PM10),细颗粒物(PM2.5)",75,99,62,55,33,2,,87,49,97,58,11,12,1.0,0.8
2024-12-17T2300,1666A,118.6614,37.4309,东营市,市环保局,,14,14,34,9,20,43,,60,55,21,36,4,11,0.5,0.8
2024-12-17T2300,3036A,118.6904,37.4338,东营市,开发区管委会,,18,17,40,9,23,55,,68,64,20,40,3,8,0.6,0.8
2024-12-17T2300,3365A,118.5719,37.565,东营市,垦利区民丰路,,18,17,43,12,24,42,,56,47,23,37,8,10,0.5,0.7
2024-12-17T2300,3498A,118.5055,37.8612,东营市,河口城区,,14,14,44,3,23,42,,66,59,19,33,2,5,0.4,0.7
2024-12-17T2300,3646A,118.4978,37.4623,东营市,胜利站,,25,,51,17,30,33,,57,50,34,47,7,13,0.6,0.8
2024-12-17T2300,3734A,118.35,37.26,东营市,理想之城,,31,31,49,14,28,19,,58,45,47,46,3,10,0.1,0.4
2024-12-17T2300,1591A,110.0023,39.8129,鄂尔多斯市,综合楼,颗粒物(PM10),52,53,50,9,14,40,,76,60,39,37,13,17,0.5,0.7
2024-12-17T2300,1592A,109.9486,39.8261,鄂尔多斯市,巴音孟克林场办事处,颗粒物(PM10),56,61,51,14,18,30,,71,53,43,37,13,12,0.4,0.7
2024-12-17T2300,1593A,109.7736,39.5986,鄂尔多斯市,康泽苑,,31,31,27,9,13,53,,80,68,19,16,7,7,0.4,0.5
2024-12-17T2300,1594A,109.8119,39.5989,鄂尔多斯市,华泰汽车城,,39,39,36,9,16,49,,80,67,22,23,6,6,0.4,0.6
2024-12-17T2300,1595A,109.9734,39.7884,鄂尔多斯市,奥林花园,,46,46,48,9,15,40,,74,60,36,35,9,13,0.3,0.6
2024-12-17T2300,2436A,114.8938,30.3994,鄂州市,市政府,细颗粒物(PM2.5),99,108,96,74,64,3,,54,29,99,69,10,15,1.1,0.7
2024-12-17T2300,2437A,114.8989,30.3714,鄂州市,赵家坝,细颗粒物(PM2.5),132,123,81,100,59,9,,60,38,88,57,14,13,1.4,0.5
2024-12-17T2300,3654A,114.8094,30.4089,鄂州市,精准医疗中心,细颗粒物(PM2.5),108,112,105,81,72,30,,67,51,65,58,19,17,0.8,0.8
2024-12-17T2300,2454A,109.4978,30.2981,恩施土家族苗族自治州,湖北民院,细颗粒物(PM2.5),150,122,78,115,82,6,,42,33,37,26,7,7,1.2,0.9
2024-12-17T2300,2455A,109.4707,30.2798,恩施土家族苗族自治州,州电力总公司,细颗粒物(PM2.5),139,137,92,106,75,9,,49,35,33,28,8,8,1.6,1.1
2024-12-17T2300,3549A,109.5061,30.3772,恩施土家族苗族自治州,龙凤新区,细颗粒物(PM2.5),128,119,84,97,68,5,,33,22,23,20,6,6,1.2,0.9
2024-12-17T2300,2499A,108.3411,21.6158,防城港市,沙万,细颗粒物(PM2.5),102,78,61,76,47,91,,121,112,27,25,12,13,0.8,0.7
2024-12-17T2300,2500A,108.3514,21.7731,防城港市,防城档案局,细颗粒物(PM2.5),120,109,100,91,53,84,,122,107,36,37,12,10,0.7,0.8
2024-12-17T2300,2501A,108.3506,21.6414,防城港市,大海花园,细颗粒物(PM2.5),95,86,65,71,39,95,,129,119,27,30,11,14,0.8,0.7
2024-12-17T2300,1371A,113.1294,23.0067,佛山市,湾梁,颗粒物(PM10),65,80,80,26,38,8,,90,68,106,76,11,10,1.0,1
2024-12-17T2300,1372A,113.1083,23.0478,佛山市,华材职中,颗粒物(PM10),78,105,98,48,51,1,,89,54,116,84,12,11,0.9,0.8
2024-12-17T2300,1373A,113.144,23.0453,佛山市,南海气象局,颗粒物(PM10),57,64,73,34,44,6,,88,66,98,72,11,11,0.8,0.7
2024-12-17T2300,1374A,113.2881,22.8094,佛山市,顺德苏岗,颗粒物(PM10),58,66,63,36,33,4,,74,47,96,69,9,10,0.8,0.7
2024-12-17T2300,1376A,112.8383,22.8678,佛山市,高明孔堂,颗粒物(PM10),52,53,58,32,34,37,,92,69,37,38,9,13,0.8,0.8
2024-12-17T2300,1377A,112.8836,23.1588,佛山市,三水监测站,颗粒物(PM10),76,102,79,46,45,3,,87,52,111,67,15,16,0.8,0.7
2024-12-17T2300,1378A,112.867,23.185,佛山市,三水云东海,颗粒物(PM10),65,79,65,33,41,1,,90,66,95,55,12,15,0.7,0.7
2024-12-17T2300,3625A,113.2544,22.7642,佛山市,容桂街道办,颗粒物(PM10),73,95,92,39,44,2,,75,44,113,82,10,10,0.9,0.9
2024-12-17T2300,1282A,119.2681,26.0504,福州市,师大,,43,43,45,24,31,64,,89,78,34,27,4,5,0.5,0.6
2024-12-17T2300,1283A,119.2984,26.1028,福州市,五四北路,,31,31,40,19,28,84,,86,81,25,29,1,2,0.4,0.6
2024-12-17T2300,1284A,119.2648,26.0768,福州市,杨桥西路,,45,45,45,19,30,68,,87,82,29,25,2,2,0.3,0.4
2024-12-17T2300,1285A,119.317,26.0746,福州市,紫阳,,29,24,45,17,30,91,,76,76,18,32,3,4,0.3,0.5
2024-12-17T2300,3048A,119.5799,26.0936,福州市,九龙,,28,27,32,17,22,89,,105,102,21,14,4,3,0.4,0.5
2024-12-17T2300,3526A,119.5189,25.9664,福州市,吴航,,36,33,41,19,26,114,,115,115,15,26,5,5,0.4,0.5
2024-12-17T2300,1755A,123.7977,41.8491,抚顺市,望花区,,46,46,46,24,23,36,,57,49,22,22,3,4,0.5,0.6
2024-12-17T2300,1758A,123.9247,41.8642,抚顺市,新抚区,细颗粒物(PM2.5),65,77,65,47,34,7,,50,37,44,23,5,6,0.7,0.6
2024-12-17T2300,1760A,123.7086,41.8391,抚顺市,沈抚新城,,,,28,33,24,20,,60,36,31,21,5,5,0.6,0.6
2024-12-17T2300,2376A,116.2127,28.0814,抚州市,桐源党溪,颗粒物(PM10),66,81,67,42,36,24,,68,52,4,11,5,10,0.7,0.7
2024-12-17T2300,2377A,116.3544,27.9831,抚州市,市站,颗粒物(PM10),60,69,72,42,40,57,,76,71,25,34,6,11,1.0,1.1
2024-12-17T2300,2378A,116.3565,27.963,抚州市,血防站,细颗粒物(PM2.5),65,69,68,47,37,61,,73,69,17,34,8,13,1.0,1.1
2024-12-17T2300,2379A,116.3564,28.0007,抚州市,采茶剧团,颗粒物(PM10),59,67,71,41,41,47,,63,59,21,36,4,8,0.9,0.9
2024-12-17T2300,2380A,116.385,27.9647,抚州市,医学分院,颗粒物(PM10),59,68,71,40,35,51,,64,60,20,27,6,13,0.8,1
2024-12-17T2300,2207A,121.6094,41.998,阜新市,工业园区,颗粒物(PM10),59,67,35,32,17,8,,63,34,44,19,10,9,0.7,0.7
2024-12-17T2300,2208A,121.6697,42.0279,阜新市,长青街,细颗粒物(PM2.5),63,67,26,45,15,6,,56,30,36,16,12,8,2.6,0.6
2024-12-17T2300,2209A,121.6673,42.0705,阜新市,农业园区,,16,10,17,3,6,50,,54,47,11,12,8,8,0.6,0.7
2024-12-17T2300,2210A,121.6717,42.0224,阜新市,东苑,颗粒物(PM10),64,77,33,39,17,8,,60,29,38,15,12,5,2.8,0.7
2024-12-17T2300,2211A,121.6506,42.0498,阜新市,玉龙新城,颗粒物(PM10),58,65,46,28,23,12,,59,25,44,24,6,5,1.5,1.2
2024-12-17T2300,2301A,115.8277,32.8929,阜阳市,市监测站,细颗粒物(PM2.5),112,103,84,84,68,40,,66,48,38,45,10,9,0.7,0.7
2024-12-17T2300,2303A,115.8554,32.8605,阜阳市,开发区,细颗粒物(PM2.5),94,123,110,70,66,30,,72,47,44,42,10,11,0.8,0.8
2024-12-17T2300,2875A,115.784,32.8892,阜阳市,阜阳职业技术学院,细颗粒物(PM2.5),83,96,82,61,61,43,,70,50,36,43,11,11,0.7,0.8
2024-12-17T2300,3468A,115.7901,32.8613,阜阳市,市规划展馆,细颗粒物(PM2.5),87,92,84,64,59,52,,74,58,30,35,10,10,0.8,0.8
2024-12-17T2300,3469A,115.836,32.9183,阜阳市,枣园社区,细颗粒物(PM2.5),103,102,98,77,71,47,,74,56,35,47,9,9,0.5,0.6
2024-12-17T2300,2669A,102.9099,34.9841,甘南藏族自治州,州政府,颗粒物(PM10),56,61,30,17,17,1,,71,53,66,32,12,11,1.1,1
2024-12-17T2300,3380A,102.8914,34.9617,甘南藏族自治州,甘肃民族师范学院,,34,19,17,15,9,2,,70,46,67,38,7,11,0.7,0.6
2024-12-17T2300,2570A,101.9603,30.0475,甘孜藏族自治州,水桥子,,20,20,24,13,12,58,,77,75,18,26,8,8,0.4,0.4
2024-12-17T2300,3065A,101.9533,29.9972,甘孜藏族自治州,州环保局,,24,24,27,9,6,55,,74,65,19,23,4,4,0.4,0.4
2024-12-17T2300,3414A,115.8347,28.932,赣江新区,桑海产业园,细颗粒物(PM2.5),80,100,90,59,51,0,,48,28,72,54,14,13,0.7,0.7
2024-12-17T2300,2362A,114.9017,25.9149,赣州市,通天岩,,35,35,38,23,29,52,,95,70,9,12,10,9,0.3,0.5
2024-12-17T2300,2363A,114.9367,25.8664,赣州市,地委,颗粒物(PM10),52,54,54,23,26,65,,84,79,19,22,18,20,0.7,0.7
2024-12-17T2300,2364A,114.9461,25.8481,赣州市,气象台,颗粒物(PM10),56,61,58,26,21,83,,100,96,28,36,18,13,0.5,0.6
2024-12-17T2300,2365A,114.9322,25.8333,赣州市,市图书馆,颗粒物(PM10),53,56,50,29,24,85,,101,95,22,38,11,7,0.6,0.7
2024-12-17T2300,2366A,114.8905,25.8471,赣州市,华坚鞋城,颗粒物(PM10),52,53,55,27,28,86,,96,91,14,26,10,10,0.5,0.5
2024-12-17T2300,3109A,115.0093,25.8613,赣州市,赣县区卫计委,细颗粒物(PM2.5),55,56,50,39,31,76,,86,83,15,24,7,7,0.3,0.3
2024-12-17T2300,2683A,106.2319,36.1417,固原市,马园,细颗粒物(PM2.5),67,76,80,48,57,8,,71,43,68,45,10,10,0.9,0.7
2024-12-17T2300,2684A,106.2792,36.0022,固原市,监测站,细颗粒物(PM2.5),75,60,63,55,48,15,,83,49,73,43,18,11,1.8,1.4
2024-12-17T2300,2685A,106.2375,36.0211,固原市,新区,颗粒物(PM10),87,124,69,54,43,10,,77,37,73,49,9,8,1.8,1
2024-12-17T2300,3522A,106.2177,35.9959,固原市,原州区十五小,,23,22,54,16,38,63,,83,63,23,27,5,8,0.5,0.8
2024-12-17T2300,2544A,106.6303,30.4576,广安市,市委,细颗粒物(PM2.5),200,160,102,150,88,13,,63,50,56,36,4,3,1.0,0.8
2024-12-17T2300,2545A,106.6271,30.4663,广安市,友谊中学,细颗粒物(PM2.5),182,164,98,137,82,4,,61,47,64,38,4,3,1.4,0.9
2024-12-17T2300,2547A,106.6388,30.4551,广安市,广电花园,细颗粒物(PM2.5),178,145,96,134,83,6,,56,44,57,34,3,2,1.0,0.7
2024-12-17T2300,2902A,106.6351,30.4865,广安市,北辰小学,细颗粒物(PM2.5),162,138,96,123,80,12,,65,52,46,30,6,6,1.0,1
2024-12-17T2300,2523A,105.8945,32.4535,广元市,黑石坡,细颗粒物(PM2.5),69,57,69,50,61,36,,56,53,11,15,3,4,0.5,0.7
2024-12-17T2300,2524A,105.821,32.4444,广元市,老城,颗粒物(PM10),70,90,92,44,59,3,,47,27,74,58,5,6,1.0,1.1
2024-12-17T2300,2526A,105.8628,32.4287,广元市,监测站,细颗粒物(PM2.5),62,61,76,44,61,9,,50,37,60,48,4,4,0.9,0.9
2024-12-17T2300,3617A,105.8047,32.4166,广元市,经开区,细颗粒物(PM2.5),79,81,93,58,70,5,,42,24,68,56,6,8,1.1,1
2024-12-17T2300,1345A,113.2347,23.1423,广州市,广雅中学,颗粒物(PM10),72,93,92,45,40,4,,81,43,110,74,11,10,0.9,0.9
2024-12-17T2300,1346A,113.2612,23.105,广州市,市五中,颗粒物(PM10),72,93,68,47,37,4,,85,50,93,57,7,6,1.1,0.8
2024-12-17T2300,1348A,113.3478,23.0916,广州市,广东商学院,颗粒物(PM10),72,94,64,41,32,4,,89,52,98,62,8,6,0.8,0.6
2024-12-17T2300,1349A,113.4332,23.1047,广州市,市八十六中,颗粒物(PM10),69,87,66,39,29,10,,89,56,93,63,8,7,0.7,0.7
2024-12-17T2300,1350A,113.3505,22.9483,广州市,番禺中学,颗粒物(PM10),82,113,80,55,40,7,,84,48,103,70,6,7,1.1,0.8
2024-12-17T2300,1351A,113.2146,23.3916,广州市,花都师范,颗粒物(PM10),59,68,56,35,28,39,,99,72,66,54,16,10,0.7,0.6
2024-12-17T2300,1352A,113.2597,23.1331,广州市,市监测站,颗粒物(PM10),78,105,69,47,32,4,,89,46,101,66,8,8,0.9,0.6
2024-12-17T2300,1353A,113.5618,23.312,广州市,九龙镇镇龙,颗粒物(PM10),67,84,57,39,28,27,,89,59,58,44,7,7,0.7,0.6
2024-12-17T2300,1354A,113.2765,23.1544,广州市,麓湖,颗粒物(PM10),58,66,55,37,30,12,,85,51,74,59,8,9,0.7,0.7
2024-12-17T2300,1355A,113.443,23.3035,广州市,帽峰山森林公园,,33,26,25,23,18,87,,110,102,14,15,10,8,0.6,0.6
2024-12-17T2300,2846A,113.3221,23.1322,广州市,体育西,颗粒物(PM10),68,85,65,41,32,6,,79,47,89,56,8,7,0.8,0.7
2024-12-17T2300,3298A,113.5717,23.5491,广州市,从化街口,颗粒物(PM10),65,79,51,43,28,4,,94,62,42,37,6,5,1.0,0.7
2024-12-17T2300,3299A,113.3472,23.3692,广州市,白云竹料,细颗粒物(PM2.5),97,134,66,72,33,7,,105,,81,47,10,10,0.9,0.6
2024-12-17T2300,3300A,113.2981,23.237,广州市,白云嘉禾,颗粒物(PM10),79,107,76,43,30,5,,80,39,101,66,10,9,0.9,0.6
2024-12-17T2300,3301A,113.4256,23.1716,广州市,黄埔科学城,颗粒物(PM10),52,53,39,27,20,11,,101,64,75,40,8,8,0.9,0.7
2024-12-17T2300,3302A,113.3942,23.0483,广州市,番禺大学城,颗粒物(PM10),57,63,63,35,30,11,,96,71,96,61,13,10,0.6,0.5
2024-12-17T2300,3303A,113.4922,22.8168,广州市,南沙黄阁,颗粒物(PM10),67,84,83,32,39,4,,77,34,108,82,6,9,1.0,0.8
2024-12-17T2300,3304A,113.5342,22.7896,广州市,南沙街,颗粒物(PM10),64,78,71,32,36,6,,87,51,100,67,5,6,0.9,0.8
2024-12-17T2300,3443A,113.2902,23.5544,广州市,花都梯面,,33,33,34,21,19,9,,98,54,57,38,10,11,0.6,0.5
2024-12-17T2300,3445A,113.7858,23.7478,广州市,从化良口,,20,20,22,12,14,57,,96,81,23,20,6,6,0.5,0.5
2024-12-17T2300,3446A,113.8051,23.2614,广州市,增城荔城,,48,48,38,33,23,42,,100,60,35,26,5,7,0.6,0.6
2024-12-17T2300,2506A,109.6047,23.0666,贵港市,江南子站,细颗粒物(PM2.5),82,97,118,60,63,52,,89,68,39,51,12,13,1.2,1.4
2024-12-17T2300,2507A,109.6014,23.0948,贵港市,贵城子站,细颗粒物(PM2.5),92,90,87,68,58,43,,79,60,39,45,12,13,0.8,0.8
2024-12-17T2300,2508A,109.5669,23.1065,贵港市,荷城子站,颗粒物(PM10),75,100,87,51,45,51,,76,57,38,45,17,16,0.7,0.7
2024-12-17T2300,3405A,109.5886,23.1172,贵港市,新世纪学校,"颗粒物(PM10),细颗粒物(PM2.5)",79,107,82,58,44,45,,77,56,36,40,16,14,0.8,0.7
2024-12-17T2300,1439A,106.6899,26.5998,贵阳市,马鞍山,细颗粒物(PM2.5),77,66,56,56,42,26,,42,29,24,30,7,8,0.3,0.6
2024-12-17T2300,1440A,106.6971,26.5694,贵阳市,市环保站,细颗粒物(PM2.5),94,70,59,70,51,28,,60,31,22,30,9,11,0.7,0.6
2024-12-17T2300,1441A,106.6243,26.6266,贵阳市,鉴湖路,细颗粒物(PM2.5),55,48,51,39,37,27,,58,26,19,23,6,6,0.7,0.6
2024-12-17T2300,1442A,106.7487,26.6343,贵阳市,燕子冲,细颗粒物(PM2.5),79,66,57,58,55,25,,40,35,23,29,13,13,0.7,0.8
2024-12-17T2300,1443A,106.6555,26.4365,贵阳市,碧云窝,细颗粒物(PM2.5),92,78,61,68,41,24,,67,30,25,25,11,14,0.7,0.6
2024-12-17T2300,1444A,106.694,26.5161,贵阳市,中院村,细颗粒物(PM2.5),85,70,57,63,44,27,,56,30,22,26,14,16,0.9,0.8
2024-12-17T2300,1445A,106.7109,26.6027,贵阳市,红边门,细颗粒物(PM2.5),94,,63,70,55,25,,58,30,27,33,13,19,1.1,1.1
2024-12-17T2300,1446A,106.7164,26.5699,贵阳市,新华路,细颗粒物(PM2.5),85,66,58,63,45,24,,55,32,24,28,8,9,0.8,0.7
2024-12-17T2300,1447A,106.674,26.5424,贵阳市,太慈桥,细颗粒物(PM2.5),79,66,52,58,40,30,,59,33,21,27,7,9,0.6,0.5
2024-12-17T2300,1552A,106.805,26.3003,贵阳市,桐木岭,,45,41,59,31,40,37,,60,42,10,8,8,9,0.8,0.8
2024-12-17T2300,1863A,110.2819,25.2697,桂林市,监测站,细颗粒物(PM2.5),57,53,65,40,48,81,,68,66,23,36,12,19,0.6,0.8
2024-12-17T2300,1864A,110.3089,25.2708,桂林市,龙隐路小学,细颗粒物(PM2.5),64,54,61,46,45,83,,72,72,22,33,15,27,0.5,0.6
2024-12-17T2300,1865A,110.2869,25.2178,桂林市,八中,细颗粒物(PM2.5),63,49,69,45,48,72,,59,59,25,40,12,18,0.6,0.6
2024-12-17T2300,3403A,110.1764,25.2381,桂林市,创业大厦,细颗粒物(PM2.5),55,53,75,39,54,79,,44,40,24,48,22,49,0.7,0.8
2024-12-17T2300,3531A,110.296,25.1253,桂林市,旅游学院,,,56,76,48,54,,,59,41,36,45,17,14,0.6,0.7
2024-12-17T2300,2674A,100.2561,34.4714,果洛藏族自治州,玛沁县大武镇,,36,36,37,17,19,43,,70,60,10,11,12,11,0.4,0.6
2024-12-17T2300,1129A,126.5422,45.755,哈尔滨市,岭北,细颗粒物(PM2.5),69,,59,50,50,25,,54,38,42,36,24,28,0.7,0.9
2024-12-17T2300,1130A,126.561,45.8167,哈尔滨市,松北商大,,49,42,55,34,39,26,,49,30,38,36,8,10,0.6,0.7
2024-12-17T2300,1131A,126.979,45.5419,哈尔滨市,阿城会宁,细颗粒物(PM2.5),149,146,113,114,92,9,,21,15,58,45,17,17,1.7,1.3
2024-12-17T2300,1132A,126.599,45.7222,哈尔滨市,南岗学府路,,47,47,57,24,32,35,,45,34,32,34,25,17,0.4,0.5
2024-12-17T2300,1133A,126.689,45.7733,哈尔滨市,太平宏伟公园,颗粒物(PM10),65,79,47,38,31,25,,44,32,35,31,10,15,0.6,0.6
2024-12-17T2300,1134A,126.635,45.7667,哈尔滨市,道外承德广场,,49,49,43,33,28,33,,49,35,36,34,11,14,0.7,0.6
2024-12-17T2300,1135A,126.685,45.7319,哈尔滨市,香坊红旗大街,,43,,30,30,28,36,,52,40,30,29,20,13,0.6,0.6
2024-12-17T2300,1136A,126.6411,45.7258,哈尔滨市,动力和平路,,50,46,43,35,34,31,,48,35,30,28,14,14,0.5,0.6
2024-12-17T2300,1137A,126.593,45.7478,哈尔滨市,道里建国路,细颗粒物(PM2.5),60,54,48,43,38,21,,44,32,39,33,7,9,0.5,0.5
2024-12-17T2300,1138A,126.615,45.61,哈尔滨市,平房东轻厂,细颗粒物(PM2.5),78,65,75,57,60,7,,36,12,56,49,12,14,0.8,0.8
2024-12-17T2300,1139A,126.595,45.9855,哈尔滨市,呼兰师专,细颗粒物(PM2.5),89,70,64,66,57,12,,50,25,50,38,6,7,1.2,1
2024-12-17T2300,1140A,126.6206,45.6842,哈尔滨市,省农科院,细颗粒物(PM2.5),77,81,82,56,61,11,,51,24,56,44,11,13,0.9,1.1
2024-12-17T2300,2688A,93.5128,42.8172,哈密市,地区监测站,颗粒物(PM10),91,131,112,57,45,10,,50,44,71,34,3,3,0.9,0.4
2024-12-17T2300,2689A,93.4961,42.8328,哈密市,哈密师范学校,颗粒物(PM10),73,95,92,52,44,5,,46,34,72,42,13,8,0.9,0.7
2024-12-17T2300,2671A,100.9048,36.9639,海北藏族自治州,海晏县西海镇,,38,30,20,26,11,58,,81,75,24,10,19,14,0.5,0.2
2024-12-17T2300,3867A,102.0738,36.5056,海东市,平安区公安北苑,细颗粒物(PM2.5),72,75,62,52,39,41,,67,58,22,31,15,15,0.9,0.9
2024-12-17T2300,1409A,110.576,19.9507,海口市,东寨港,,45,33,34,31,29,124,,145,144,5,6,10,10,0.8,0.9
2024-12-17T2300,1410A,110.3232,20.0574,海口市,海南大学,颗粒物(PM10),56,61,49,33,25,154,,167,167,20,16,6,6,0.5,0.5
2024-12-17T2300,1411A,110.283,20.0053,海口市,秀英海南医院,臭氧1小时,52,45,41,29,23,161,,171,171,16,18,4,5,0.4,0.3
2024-12-17T2300,1412A,110.338,19.9969,海口市,海南师范大学,臭氧1小时,53,46,40,28,22,162,,171,171,14,18,5,6,0.4,0.4
2024-12-17T2300,1413A,110.33,20.0356,海口市,龙华路环保局宿舍,臭氧1小时,52,45,39,29,22,161,,170,170,13,14,6,6,0.5,0.5
2024-12-17T2300,3539A,110.5111,19.9736,海口市,桂林洋子站,颗粒物(PM10),53,55,42,30,24,143,,166,165,15,12,6,6,0.5,0.4
2024-12-17T2300,2673A,100.6188,36.2866,海南藏族自治州,共和县恰卜恰镇,颗粒物(PM10),52,54,39,22,20,62,,59,57,24,25,36,12,1.0,0.7
2024-12-17T2300,2676A,97.3731,37.3753,海西蒙古族藏族自治州,德令哈市,,41,41,45,19,10,76,,78,70,8,4,16,16,0.5,0.4
2024-12-17T2300,1048A,114.5302,36.6116,邯郸市,东污水处理厂,颗粒物(PM10),69,87,79,36,48,17,,36,26,54,56,5,8,0.7,0.9
2024-12-17T2300,1049A,114.4918,36.5713,邯郸市,矿院,,45,45,84,27,44,32,,37,34,28,49,3,5,0.7,0.9
2024-12-17T2300,1050A,114.484,36.6133,邯郸市,丛台公园,,,73,89,43,50,5,,37,,,52,3,9,0.6,0.9
2024-12-17T2300,3458A,114.7895,36.5593,邯郸市,香泉濮院小区,颗粒物(PM10),63,76,104,39,59,11,,46,33,50,51,3,8,0.6,0.8
2024-12-17T2300,3579A,114.50634,36.77178,邯郸市,永年区实验高中,颗粒物(PM10),73,95,115,41,56,5,,33,12,70,55,8,14,0.6,1
2024-12-17T2300,3580A,114.20016,36.44293,邯郸市,峰峰矿区临水派出所,颗粒物(PM10),53,56,77,25,40,35,,52,33,26,40,11,18,0.8,1.1
2024-12-17T2300,2634A,106.9893,33.1842,汉中市,汉川机床厂子校,细颗粒物(PM2.5),58,,55,41,49,57,,83,73,10,14,6,7,0.4,0.9
2024-12-17T2300,2635A,107.0154,33.0706,汉中市,市监测站,细颗粒物(PM2.5),165,,110,125,93,22,,59,42,65,52,8,9,2.3,1.9
2024-12-17T2300,2636A,107.0089,33.1138,汉中市,鑫源开发区,细颗粒物(PM2.5),189,148,109,142,101,25,,62,46,51,46,8,9,1.9,1.6
2024-12-17T2300,2637A,107.007,33.0323,汉中市,南郑大河坎水厂,细颗粒物(PM2.5),179,,117,135,91,17,,59,32,51,39,4,6,1.7,1.7
2024-12-17T2300,1223A,120.2072,30.2111,杭州市,滨江,细颗粒物(PM2.5),87,104,66,64,40,24,,47,26,82,64,8,8,0.6,0.5
2024-12-17T2300,1224A,120.0633,30.2747,杭州市,西溪,细颗粒物(PM2.5),57,60,45,40,30,3,,62,30,56,41,7,8,0.8,0.8
2024-12-17T2300,1226A,120.3461,30.3153,杭州市,下沙,颗粒物(PM10),85,119,83,62,46,4,,56,18,125,81,8,7,0.7,0.6
2024-12-17T2300,1227A,120.1269,30.2456,杭州市,卧龙桥,颗粒物(PM10),53,55,43,34,29,11,,53,29,48,38,7,7,0.3,0.3
2024-12-17T2300,1228A,120.1903,30.2692,杭州市,浙江农大,细颗粒物(PM2.5),97,100,73,72,48,22,,55,30,84,65,7,6,0.7,0.8
2024-12-17T2300,1230A,120.1197,30.3119,杭州市,和睦小学,细颗粒物(PM2.5),72,82,59,52,39,19,,56,29,87,61,7,7,0.9,0.8
2024-12-17T2300,1231A,120.3019,30.4183,杭州市,临平镇,颗粒物(PM10),74,98,83,53,43,33,,63,45,72,65,8,7,0.7,0.7
2024-12-17T2300,1232A,120.2697,30.1819,杭州市,城厢镇,颗粒物(PM10),71,92,78,50,44,12,,47,19,91,66,7,6,0.9,0.7
2024-12-17T2300,1233A,120.0883,30.1808,杭州市,云栖,颗粒物(PM10),63,75,55,42,28,62,,50,41,28,43,6,5,0.6,0.5
2024-12-17T2300,3557A,119.9464,30.0494,杭州市,镇二中,细颗粒物(PM2.5),74,77,55,54,42,4,,43,21,63,46,6,7,0.9,0.9
2024-12-17T2300,3558A,119.7183,30.2367,杭州市,市府大楼,细颗粒物(PM2.5),80,88,53,59,37,6,,72,32,61,46,6,7,1.0,0.7
2024-12-17T2300,3656A,120.1556,30.2864,杭州市,消防大队,细颗粒物(PM2.5),74,88,64,54,39,48,,58,33,60,60,10,8,0.5,0.6
2024-12-17T2300,1270A,117.1959,31.7848,合肥市,明珠广场,细颗粒物(PM2.5),107,110,99,80,65,24,,64,45,61,65,14,12,0.8,0.9
2024-12-17T2300,1271A,117.3072,31.8764,合肥市,三里街,细颗粒物(PM2.5),113,119,99,85,63,27,,63,47,66,69,13,11,0.6,0.9
2024-12-17T2300,1272A,117.2588,31.8707,合肥市,琥珀山庄,,,,85,70,53,6,,70,37,96,65,7,7,1.1,0.9
2024-12-17T2300,1273A,117.1604,31.9052,合肥市,董铺水库,细颗粒物(PM2.5),92,117,83,68,45,13,,68,46,70,56,7,6,0.6,0.5
2024-12-17T2300,1274A,117.25,31.8571,合肥市,长江中路,细颗粒物(PM2.5),114,124,99,86,64,5,,63,38,89,65,10,9,1.0,1
2024-12-17T2300,1275A,117.266,31.9436,合肥市,庐阳区,细颗粒物(PM2.5),110,132,104,83,58,61,,71,58,39,64,11,8,0.6,0.5
2024-12-17T2300,1276A,117.336,31.8586,合肥市,瑶海区,细颗粒物(PM2.5),117,127,96,88,56,18,,56,36,92,80,8,9,0.6,0.6
2024-12-17T2300,1277A,117.3027,31.7964,合肥市,包河区,细颗粒物(PM2.5),113,119,91,85,58,9,,54,24,88,84,8,8,0.8,0.8
2024-12-17T2300,1278A,117.2776,31.7385,合肥市,滨湖新区,细颗粒物(PM2.5),100,114,93,75,50,22,,53,30,67,65,10,9,0.6,0.5
2024-12-17T2300,1279A,117.1318,31.8403,合肥市,高新区,细颗粒物(PM2.5),115,124,95,87,60,25,,74,51,65,73,7,6,0.8,0.8
2024-12-17T2300,3464A,117.3803,31.9147,合肥市,高教基地,细颗粒物(PM2.5),113,122,80,85,52,49,,76,57,43,50,12,9,0.7,0.6
2024-12-17T2300,3614A,79.924,37.0877,和田地区,地区环保局,颗粒物(PM10),87,123,98,51,40,32,,61,53,36,22,14,10,1.2,0.9
2024-12-17T2300,3615A,79.9131,37.113,和田地区,市环保局,颗粒物(PM10),62,74,67,41,37,30,,62,54,53,34,11,9,0.3,0.7
2024-12-17T2300,2516A,108.2011,24.715,河池市,东仁乐园,细颗粒物(PM2.5),113,122,92,85,60,6,,48,33,48,39,6,6,1.1,0.9
2024-12-17T2300,2517A,108.0497,24.6947,河池市,市环保站,细颗粒物(PM2.5),112,105,73,84,54,8,,51,40,51,42,9,10,1.0,0.8
2024-12-17T2300,2518A,108.0983,24.6989,河池市,市疾控中心,细颗粒物(PM2.5),108,91,80,81,57,8,,52,39,53,44,12,14,1.0,0.8
2024-12-17T2300,1696A,114.6778,23.7569,河源市,源西,,47,47,42,22,22,31,,90,46,58,42,6,8,0.6,0.6
2024-12-17T2300,1697A,114.6944,23.7586,河源市,东埔,颗粒物(PM10),55,59,45,32,29,25,,89,53,66,37,5,7,0.7,0.7
2024-12-17T2300,1698A,114.6892,23.7233,河源市,老城,颗粒物(PM10),56,62,42,29,25,11,,87,52,65,33,4,6,0.8,0.6
2024-12-17T2300,1718A,115.4208,35.2464,菏泽市,气象局,细颗粒物(PM2.5),67,68,126,48,81,44,,61,42,24,54,7,11,0.6,0.8
2024-12-17T2300,1719A,115.4747,35.2375,菏泽市,市政协,细颗粒物(PM2.5),62,63,126,44,78,49,,58,45,27,56,8,14,0.7,1.1
2024-12-17T2300,3374A,115.5564,35.0891,菏泽市,定陶老年大学,细颗粒物(PM2.5),70,68,109,51,73,35,,56,38,32,52,9,14,0.7,0.8
2024-12-17T2300,3647A,115.4702,35.2706,菏泽市,菏泽医专,颗粒物(PM10),60,70,118,39,73,44,,58,41,28,56,12,17,1.1,1.3
2024-12-17T2300,2514A,111.5264,24.4172,贺州市,环保小区,细颗粒物(PM2.5),98,74,68,73,49,49,,70,62,38,32,6,6,0.7,0.7
2024-12-17T2300,2515A,111.5608,24.4078,贺州市,政协大楼,细颗粒物(PM2.5),75,94,77,55,40,63,,70,56,32,43,8,7,0.7,0.7
2024-12-17T2300,3534A,111.4744,24.4553,贺州市,西湾,细颗粒物(PM2.5),67,81,73,48,43,76,,77,72,18,32,8,8,0.6,0.7
2024-12-17T2300,2385A,114.17,35.9019,鹤壁市,市监测站,细颗粒物(PM2.5),82,101,100,60,57,13,,44,21,53,40,5,8,1.1,0.8
2024-12-17T2300,2386A,114.2956,35.7511,鹤壁市,市交警支队,细颗粒物(PM2.5),88,108,95,65,54,7,,43,20,54,44,4,6,0.6,0.7
2024-12-17T2300,2387A,114.2878,35.7306,鹤壁市,迎宾馆,细颗粒物(PM2.5),77,94,94,56,47,10,,43,22,52,38,8,9,0.5,0.6
2024-12-17T2300,3474A,114.2617,35.6822,鹤壁市,大新区,细颗粒物(PM2.5),94,91,81,70,56,12,,44,25,66,48,8,9,0.7,0.5
2024-12-17T2300,3596A,114.1572,35.9603,鹤壁市,南山宾馆,细颗粒物(PM2.5),97,111,91,72,53,10,,48,22,53,34,5,10,1.2,0.9
2024-12-17T2300,2244A,130.2537,47.3416,鹤岗市,哈啤分公司,,33,24,20,23,20,57,,54,54,3,6,11,7,0.4,0.7
2024-12-17T2300,2245A,130.2684,47.3086,鹤岗市,斯达机电,,20,20,20,10,17,58,,55,53,6,10,14,14,0.4,0.4
2024-12-17T2300,2246A,130.3114,47.3388,鹤岗市,东山纸板厂,,26,,31,18,25,55,,50,44,7,14,12,13,0.9,0.3
2024-12-17T2300,2247A,130.1097,47.3382,鹤岗市,五号水库,,25,22,21,17,13,69,,80,69,6,5,6,11,0.1,0.4
2024-12-17T2300,2263A,127.4833,50.2524,黑河市,交通局,,20,17,20,11,16,64,,59,55,7,12,8,7,0.3,0.5
2024-12-17T2300,2264A,127.5144,50.2341,黑河市,环保局,,23,23,15,15,15,64,,60,56,5,7,3,4,0.2,0.3
2024-12-17T2300,2265A,127.5291,50.2472,黑河市,大黑河岛,,,13,12,,,57,,53,53,5,9,1,2,0.6,0.6
2024-12-17T2300,1074A,115.6838,37.7541,衡水市,电机北厂,颗粒物(PM10),61,71,77,36,45,2,,60,38,63,46,4,7,0.5,0.6
2024-12-17T2300,1075A,115.6303,37.7316,衡水市,市监测站,颗粒物(PM10),56,61,66,27,39,4,,53,31,62,52,3,8,0.5,0.6
2024-12-17T2300,3188A,115.6683,37.7217,衡水市,市城管局,细颗粒物(PM2.5),78,79,69,57,43,3,,54,40,62,45,6,8,0.6,0.7
2024-12-17T2300,3459A,115.5989,37.5491,衡水市,地表水厂,,42,42,60,23,42,5,,57,37,68,43,4,9,0.4,0.7
2024-12-17T2300,2456A,112.5003,26.9167,衡阳市,原169医院,细颗粒物(PM2.5),69,58,71,50,52,42,,98,66,41,32,9,22,1.1,1.1
2024-12-17T2300,2457A,112.6194,26.9258,衡阳市,衡阳化工总厂,细颗粒物(PM2.5),93,85,80,69,60,27,,86,74,43,32,13,14,1.2,0.9
2024-12-17T2300,2458A,112.6211,26.8956,衡阳市,珠晖区环保局,细颗粒物(PM2.5),78,65,78,57,59,35,,85,69,58,41,17,12,1.0,0.9
2024-12-17T2300,2459A,112.6197,26.8733,衡阳市,市委党校,细颗粒物(PM2.5),69,65,88,50,63,58,,92,86,36,37,21,17,1.1,1.3
2024-12-17T2300,2460A,112.6006,26.8919,衡阳市,市监测站,细颗粒物(PM2.5),103,91,95,77,75,38,,84,74,38,36,12,11,1.1,1.1
2024-12-17T2300,2461A,112.5664,26.9056,衡阳市,真空机电公司,细颗粒物(PM2.5),75,87,83,55,57,36,,84,71,50,38,8,9,0.9,0.8
2024-12-17T2300,3399A,112.6703,26.882,衡阳市,师范学院,细颗粒物(PM2.5),84,77,82,62,64,58,,92,84,26,27,19,13,1.1,1
2024-12-17T2300,2608A,103.3772,23.3993,红河哈尼族彝族自治州,污水处理厂,细颗粒物(PM2.5),58,,30,41,28,47,,56,51,5,7,8,9,0.6,0.6
2024-12-17T2300,2609A,103.3861,23.35,红河哈尼族彝族自治州,监测站,细颗粒物(PM2.5),54,38,33,38,28,48,,58,54,4,7,4,4,0.4,0.6
2024-12-17T2300,3038A,103.3758,23.368,红河哈尼族彝族自治州,州图书馆,,33,30,25,23,19,42,,52,49,6,7,6,6,0.5,0.5
2024-12-17T2300,1090A,111.6507,40.7517,呼和浩特市,呼市一监,,20,9,34,6,15,64,,71,67,11,19,9,8,0.2,0.4
2024-12-17T2300,1091A,111.6572,40.8033,呼和浩特市,小召,,21,12,28,6,11,65,,77,69,19,29,11,10,0.3,0.4
2024-12-17T2300,1094A,111.7516,40.8369,呼和浩特市,如意水处理厂,,20,12,22,3,10,62,,68,62,6,18,9,8,0.2,0.4
2024-12-17T2300,1095A,111.7276,40.8062,呼和浩特市,二十九中,,21,15,30,7,12,67,,72,68,5,22,8,8,0.2,0.5
2024-12-17T2300,1096A,111.5512,40.7866,呼和浩特市,工大金川校区,,21,21,47,3,17,65,,70,66,8,30,6,9,0.3,0.5
2024-12-17T2300,1097A,111.717,40.7612,呼和浩特市,化肥厂生活区,,21,11,42,3,17,67,,67,66,3,27,8,8,0.2,0.6
2024-12-17T2300,3698A,111.5968,40.8178,呼和浩特市,红旗小学,,20,9,16,6,6,61,,76,67,13,11,5,4,0.3,0.3
2024-12-17T2300,3699A,111.6518,40.8389,呼和浩特市,海东办,,19,12,21,7,9,60,,71,63,16,26,9,8,0.4,0.5
2024-12-17T2300,2192A,119.7594,49.2261,呼伦贝尔市,区环保局,,28,27,22,19,17,50,,59,55,20,14,6,6,0.4,0.3
2024-12-17T2300,3061A,119.7512,49.1577,呼伦贝尔市,国华电力东,,38,38,32,25,24,51,,59,42,10,12,4,4,0.3,0.4
2024-12-17T2300,1250A,120.0751,30.8669,湖州市,城西水厂,细颗粒物(PM2.5),104,133,76,78,48,9,,66,32,103,73,10,9,1.0,0.7
2024-12-17T2300,2873A,120.0875,30.8955,湖州市,仁皇山新区,细颗粒物(PM2.5),98,99,76,73,49,28,,52,35,78,70,9,9,0.8,0.7
2024-12-17T2300,2907A,120.1844,30.8596,湖州市,吴兴区站,细颗粒物(PM2.5),93,117,74,69,43,14,,54,32,94,71,10,9,0.9,0.7
2024-12-17T2300,3562A,120.4148,30.8538,湖州市,南浔区站,颗粒物(PM10),70,90,78,49,39,28,,69,48,73,72,9,9,0.6,0.6
2024-12-17T2300,1607A,120.9092,40.7136,葫芦岛市,龙港区,细颗粒物(PM2.5),67,73,52,48,23,21,,67,43,56,29,25,25,1.1,0.6
2024-12-17T2300,1608A,120.8392,40.7514,葫芦岛市,化工街,颗粒物(PM10),58,66,38,27,11,8,,62,43,67,25,24,23,1.0,0.6
2024-12-17T2300,1609A,120.8341,40.7073,葫芦岛市,新区,,46,46,29,24,14,5,,61,38,60,24,21,17,0.9,0.7
2024-12-17T2300,1610A,120.8695,40.7677,葫芦岛市,东城区,,26,18,28,12,13,16,,59,38,51,23,3,7,0.7,0.6
2024-12-17T2300,2482A,109.5981,27.5721,怀化市,林科所,,46,44,68,32,47,30,,37,37,26,39,11,7,0.6,1
2024-12-17T2300,2483A,109.9453,27.5444,怀化市,河西地税局,细颗粒物(PM2.5),87,107,79,64,47,10,,25,18,32,30,11,8,0.7,0.6
2024-12-17T2300,2484A,109.9781,27.5342,怀化市,市四医院,颗粒物(PM10),113,176,108,81,50,2,,22,10,50,48,9,9,1.9,1
2024-12-17T2300,2485A,109.9972,27.5578,怀化市,监测楼,细颗粒物(PM2.5),123,164,102,93,56,4,,28,13,41,39,11,8,1.5,1
2024-12-17T2300,2486A,110.0394,27.583,怀化市,市委党校,颗粒物(PM10),106,162,101,73,48,2,,32,13,46,39,7,11,1.7,1.1
2024-12-17T2300,1210A,119.036,33.5981,淮安市,钵池山,细颗粒物(PM2.5),115,100,125,87,99,14,,76,49,72,63,8,8,1.1,1.3
2024-12-17T2300,1211A,119.007,33.575,淮安市,北京南路,细颗粒物(PM2.5),94,80,127,70,93,36,,79,56,47,60,10,11,1.0,1.2
2024-12-17T2300,1212A,118.989,33.6067,淮安市,市监测站,细颗粒物(PM2.5),92,85,131,68,104,35,,83,65,50,59,8,9,0.9,1.1
2024-12-17T2300,1213A,119.135,33.5039,淮安市,楚州区监测站,细颗粒物(PM2.5),87,88,131,64,94,31,,73,53,52,65,9,9,0.9,1
2024-12-17T2300,1214A,119.0186,33.6297,淮安市,淮阴区监测站,细颗粒物(PM2.5),102,97,146,76,101,30,,73,54,58,68,10,11,0.9,1.1
2024-12-17T2300,3426A,118.8755,33.2894,淮安市,新华书店,细颗粒物(PM2.5),160,165,144,122,107,6,,79,52,92,65,15,13,1.3,1
2024-12-17T2300,2282A,116.8004,33.975,淮北市,监测站,细颗粒物(PM2.5),99,140,134,74,86,19,,55,39,60,49,12,11,0.9,0.9
2024-12-17T2300,2283A,116.8091,33.9007,淮北市,烈山区政府,细颗粒物(PM2.5),135,146,130,103,86,15,,62,44,66,53,8,11,1.0,1
2024-12-17T2300,3330A,116.8873,33.9836,淮北市,杜集区检察院,细颗粒物(PM2.5),153,163,142,117,100,13,,59,39,61,51,8,9,0.9,0.8
2024-12-17T2300,4017A,116.7923,33.9535,淮北市,市博物馆,细颗粒物(PM2.5),105,139,135,79,90,21,,57,42,62,57,10,10,0.7,1.2
2024-12-17T2300,2277A,116.8305,32.7727,淮南市,潘集区政府,颗粒物(PM10),166,281,149,114,99,8,,65,34,73,50,36,17,0.7,0.7
2024-12-17T2300,2278A,117.0067,32.6524,淮南市,师范学院,细颗粒物(PM2.5),138,142,139,105,101,24,,70,44,43,51,8,9,0.8,0.8
2024-12-17T2300,2279A,116.8569,32.5951,淮南市,谢家集区政府,细颗粒物(PM2.5),117,131,122,88,82,25,,71,48,52,42,16,15,0.9,0.8
2024-12-17T2300,2280A,116.8281,32.633,淮南市,八公山区政府,细颗粒物(PM2.5),109,132,114,82,77,25,,73,50,49,38,10,11,0.8,0.8
2024-12-17T2300,2281A,116.6325,32.6201,淮南市,焦岗湖风景区管理处,细颗粒物(PM2.5),100,110,102,75,74,21,,46,27,46,58,5,8,0.6,0.5
2024-12-17T2300,2894A,117.0566,32.6531,淮南市,经济技术开发区消防队,细颗粒物(PM2.5),176,182,148,133,106,25,,74,47,46,51,10,11,0.8,0.8
2024-12-17T2300,3329A,117.0108,32.5893,淮南市,山南新区,细颗粒物(PM2.5),178,173,115,134,88,35,,80,59,40,29,13,16,0.8,0.6
2024-12-17T2300,2446A,114.9028,30.4742,黄冈市,职工中心,细颗粒物(PM2.5),99,101,87,74,61,13,,71,46,97,52,9,10,0.6,0.5
2024-12-17T2300,2929A,114.8858,30.4519,黄冈市,红卫路,细颗粒物(PM2.5),92,95,86,68,62,9,,67,44,86,45,8,9,0.8,0.6
2024-12-17T2300,3398A,114.9136,30.4445,黄冈市,市林业局,细颗粒物(PM2.5),92,93,79,68,58,13,,73,52,99,45,13,13,0.9,0.8
2024-12-17T2300,2672A,102.0199,35.5102,黄南藏族自治州,同仁县隆务镇,细颗粒物(PM2.5),62,54,32,44,19,60,,84,78,11,6,9,7,0.8,0.4
2024-12-17T2300,2295A,118.2903,29.6963,黄山市,延安路89号,,48,48,49,25,33,16,,69,39,27,23,7,8,0.2,0.2
2024-12-17T2300,2296A,118.327,29.7178,黄山市,黄山东路89号,颗粒物(PM10),66,81,68,45,42,7,,54,19,34,30,5,6,0.5,0.4
2024-12-17T2300,2297A,118.1371,30.2756,黄山市,黄山区政府5号楼,细颗粒物(PM2.5),52,44,43,36,27,27,,84,53,17,15,7,7,0.5,0.4
2024-12-17T2300,2423A,115.0601,30.2313,黄石市,沈家营,细颗粒物(PM2.5),98,118,98,73,61,7,,37,14,78,63,12,16,1.1,0.9
2024-12-17T2300,2424A,115.0817,30.2006,黄石市,陈家湾,细颗粒物(PM2.5),57,50,80,40,61,47,,33,33,22,55,9,12,0.8,1.1
2024-12-17T2300,2426A,114.8988,30.2019,黄石市,铁山,细颗粒物(PM2.5),74,93,95,54,66,14,,32,16,51,56,4,13,0.9,0.9
2024-12-17T2300,2427A,115.0307,30.2092,黄石市,团城山,细颗粒物(PM2.5),104,118,95,78,64,9,,30,13,76,62,9,10,1.1,1
2024-12-17T2300,3149A,115.0235,30.1578,黄石市,笔架山北路,细颗粒物(PM2.5),80,75,82,59,63,30,,41,41,43,52,11,11,1.0,1
2024-12-17T2300,1392A,114.4183,23.0528,惠州市,河南岸金山湖子站,颗粒物(PM10),64,78,61,41,33,4,,90,51,70,38,8,9,0.8,0.6
2024-12-17T2300,1393A,114.4053,23.0822,惠州市,下埔横江三路子站,颗粒物(PM10),73,96,61,50,33,13,,92,54,80,42,8,9,0.8,0.6
2024-12-17T2300,1394A,114.4103,23.1142,惠州市,江北云山西路子站,颗粒物(PM10),71,92,57,46,29,24,,100,67,75,42,10,11,0.7,0.5
2024-12-17T2300,1395A,114.4645,22.7833,惠州市,惠阳区承修路船湖子站,颗粒物(PM10),80,109,72,42,30,6,,88,49,75,37,10,11,0.9,0.6
2024-12-17T2300,1396A,114.5317,22.7422,惠州市,大亚湾管委会子站,颗粒物(PM10),60,69,53,30,25,31,,90,49,78,50,8,9,0.7,0.6
2024-12-17T2300,3314A,114.4338,22.8134,惠州市,惠阳秋长,"颗粒物(PM10),细颗粒物(PM2.5)",63,75,50,45,32,6,,102,55,78,39,13,14,0.8,0.6
2024-12-17T2300,3452A,114.6517,22.775,惠州市,大亚湾霞涌,,48,48,44,28,26,58,,97,80,31,19,7,9,0.3,0.4
2024-12-17T2300,2240A,130.9762,45.3001,鸡西市,环保局,,23,21,22,16,16,53,,54,47,3,6,5,6,0.6,0.6
2024-12-17T2300,2243A,130.9429,45.3039,鸡西市,第一中学,,28,20,26,19,17,56,,58,50,5,10,5,6,0.5,0.5
2024-12-17T2300,3707A,131.0207,45.3073,鸡西市,欧美日汽修厂,,43,31,28,30,22,53,,59,48,17,24,44,17,0.7,0.5
2024-12-17T2300,2367A,114.9754,27.0803,吉安市,红声器材厂,细颗粒物(PM2.5),64,69,68,46,40,53,,81,68,42,42,21,14,0.6,0.6
2024-12-17T2300,2368A,114.9658,27.0999,吉安市,市森林工业局,细颗粒物(PM2.5),59,65,63,42,38,53,,82,72,42,38,18,16,0.5,0.5
2024-12-17T2300,2369A,114.99,27.1312,吉安市,市环境监测站,细颗粒物(PM2.5),62,64,56,44,38,55,,86,72,41,41,20,17,0.8,0.7
2024-12-17T2300,2370A,115.0093,27.0968,吉安市,青原区法院,颗粒物(PM10),61,72,65,42,36,53,,86,73,48,42,16,14,0.7,0.6
2024-12-17T2300,1772A,126.54,43.8622,吉林市,哈达湾,,39,36,40,27,29,47,,58,52,21,25,9,12,0.6,0.7
2024-12-17T2300,1773A,126.5844,43.8358,吉林市,东局子,,38,37,37,26,25,42,,56,47,25,26,7,14,0.6,0.7
2024-12-17T2300,1774A,126.5052,43.8245,吉林市,电力学院,细颗粒物(PM2.5),64,65,44,46,37,24,,56,46,33,26,9,10,1.2,0.9
2024-12-17T2300,1775A,126.6133,43.8972,吉林市,江北,细颗粒物(PM2.5),57,61,54,40,35,33,,55,45,27,31,9,12,0.9,0.8
2024-12-17T2300,1776A,126.555,43.8306,吉林市,江南公园,,35,33,38,24,28,43,,53,48,23,30,11,12,0.6,0.9
2024-12-17T2300,1778A,126.7061,43.7133,吉林市,丰满,,38,36,27,26,21,48,,57,52,12,10,10,11,0.4,0.4
2024-12-17T2300,2868A,126.4739,43.953,吉林市,九站,细颗粒物(PM2.5),54,38,55,38,46,38,,61,44,28,34,7,18,0.6,0.8
2024-12-17T2300,1299A,116.9862,36.6114,济南市,科干所,,29,29,76,20,42,38,,47,45,34,53,6,10,0.5,0.8
2024-12-17T2300,1300A,116.9376,36.665,济南市,农科所,,39,39,106,17,45,28,,42,37,40,56,9,15,0.8,1.2
2024-12-17T2300,1301A,117.1265,36.6734,济南市,开发区,,39,39,83,24,48,38,,44,39,31,53,7,9,0.5,0.8
2024-12-17T2300,1303A,117.0624,36.6868,济南市,省种子仓库,颗粒物(PM10),51,51,124,24,54,30,,44,39,32,55,6,11,0.5,1
2024-12-17T2300,1304A,116.9489,36.6447,济南市,机床二厂,,34,34,103,17,50,38,,48,44,30,52,8,22,0.7,1.2
2024-12-17T2300,1305A,117.0495,36.663,济南市,市监测站,,39,39,84,17,44,33,,48,43,35,48,7,9,0.5,0.8
2024-12-17T2300,1306A,116.7675,36.5484,济南市,长清党校,,35,34,83,24,51,36,,51,43,37,54,8,11,0.6,0.9
2024-12-17T2300,1616A,117.6795,36.229,济南市,技术学院,,42,34,99,29,66,40,,50,36,25,49,7,15,0.7,1.2
2024-12-17T2300,1961A,117.532,36.6868,济南市,东山小学,颗粒物(PM10),59,68,85,34,48,15,,46,33,47,47,8,9,0.7,0.8
2024-12-17T2300,3059A,117.7161,36.2049,济南市,泰兴公司,,39,39,112,27,69,46,,51,40,21,49,8,15,0.4,1
2024-12-17T2300,3064A,117.6867,36.2171,济南市,莱芜战役纪念馆,颗粒物(PM10),52,53,115,27,68,39,,50,38,26,46,6,13,0.4,1.1
2024-12-17T2300,3494A,117.1673,36.9782,济南市,济阳区政府,,39,39,98,24,61,14,,44,31,51,56,24,15,0.4,0.6
2024-12-17T2300,3495A,117.1171,36.63,济南市,锦屏中学,,34,34,65,17,40,36,,52,46,36,41,7,8,0.4,0.6
2024-12-17T2300,3682A,116.9814,36.6819,济南市,济南四建,,39,39,115,20,63,21,,35,32,39,67,7,18,0.5,1.1
2024-12-17T2300,1653A,116.6251,35.4302,济宁市,火炬城,细颗粒物(PM2.5),67,74,90,48,57,23,,59,46,42,55,5,13,0.7,0.9
2024-12-17T2300,1655A,116.5491,35.4042,济宁市,电化厂,细颗粒物(PM2.5),67,78,107,48,62,23,,51,37,38,62,8,17,0.7,0.9
2024-12-17T2300,3500A,116.5814,35.3707,济宁市,北湖一中,颗粒物(PM10),57,64,86,34,55,32,,62,49,34,56,6,13,0.6,0.8
2024-12-17T2300,3501A,116.8249,35.5593,济宁市,服务中心,颗粒物(PM10),72,94,147,43,80,28,,56,29,39,65,11,19,0.8,1.2
2024-12-17T2300,3678A,116.5907,35.4054,济宁市,市第七中学,细颗粒物(PM2.5),62,61,88,44,57,31,,60,46,34,53,3,9,0.8,1.1
2024-12-17T2300,2255A,130.2751,46.8028,佳木斯市,佳纺,,46,36,31,32,26,42,,52,33,20,22,17,13,0.6,0.7
2024-12-17T2300,2256A,130.3995,46.8307,佳木斯市,发电厂,,39,,17,27,15,43,,56,41,14,13,6,6,0.6,0.6
2024-12-17T2300,2257A,130.3258,46.7975,佳木斯市,环保局,,50,40,31,35,27,36,,47,20,26,31,19,15,0.5,0.6
2024-12-17T2300,2258A,130.3648,46.8032,佳木斯市,十一中,,32,24,21,22,18,43,,46,32,22,28,9,12,0.5,0.5
2024-12-17T2300,2259A,130.3794,46.7588,佳木斯市,四丰,,28,26,23,19,15,52,,58,42,6,9,1,1,0.3,0.3
2024-12-17T2300,1252A,120.7436,30.778,嘉兴市,清河小学,细颗粒物(PM2.5),94,99,84,70,55,22,,42,30,79,75,8,8,0.5,0.7
2024-12-17T2300,1253A,120.726,30.7478,嘉兴市,嘉兴学院,细颗粒物(PM2.5),92,98,87,68,56,15,,29,22,64,68,9,8,1.1,1.1
2024-12-17T2300,2872A,120.7846,30.7525,嘉兴市,南湖区残联,细颗粒物(PM2.5),92,100,87,68,55,36,,55,43,66,69,10,9,1.0,1
2024-12-17T2300,3407A,120.6916,30.7739,嘉兴市,秀洲住建,细颗粒物(PM2.5),94,109,81,70,54,29,,53,38,70,72,13,13,0.6,0.7
2024-12-17T2300,1945A,98.2908,39.7711,嘉峪关市,气象局,,48,48,46,27,23,44,,65,53,28,21,12,26,0.5,0.8
2024-12-17T2300,2884A,98.2672,39.7978,嘉峪关市,酒钢宾馆,颗粒物(PM10),59,68,63,24,25,32,,68,48,43,29,5,32,0.6,0.9
2024-12-17T2300,3248A,98.2643,39.7724,嘉峪关市,雄关区,,50,50,42,26,22,38,,68,49,43,28,10,20,0.1,0.7
2024-12-17T2300,1383A,113.1064,22.6058,江门市,北街,颗粒物(PM10),59,68,81,33,48,32,,80,62,72,77,8,8,0.9,0.9
2024-12-17T2300,1384A,113.0731,22.5835,江门市,西区,颗粒物(PM10),70,89,100,41,48,16,,84,54,92,73,12,12,0.7,0.8
2024-12-17T2300,1385A,113.0219,22.5311,江门市,圭峰西,,46,46,68,30,44,59,,92,82,43,56,7,6,0.6,0.7
2024-12-17T2300,1386A,113.0828,22.5947,江门市,东湖,细颗粒物(PM2.5),69,81,84,50,59,5,,81,55,100,71,9,10,0.9,0.7
2024-12-17T2300,3311A,113.1075,22.5647,江门市,江海富民,颗粒物(PM10),69,87,94,39,41,18,,85,55,100,88,12,12,1.1,1.1
2024-12-17T2300,3449A,113.05,22.4667,江门市,新会银湖,细颗粒物(PM2.5),72,77,75,52,52,8,,82,46,71,62,7,8,0.8,0.8
2024-12-17T2300,1828A,113.227,35.2125,焦作市,市环保局,细颗粒物(PM2.5),97,124,90,72,56,18,,58,38,53,37,21,11,1.1,0.9
2024-12-17T2300,3169A,113.2725,35.2067,焦作市,太极体育中心,细颗粒物(PM2.5),92,108,97,68,43,18,,58,35,59,43,17,15,0.9,1
2024-12-17T2300,3335A,113.3137,35.2641,焦作市,马村街道办,细颗粒物(PM2.5),95,121,89,71,57,8,,51,26,61,39,15,14,1.0,1
2024-12-17T2300,3336A,113.2465,35.2373,焦作市,焦作技师学院,颗粒物(PM10),87,124,85,63,48,13,,54,31,65,41,14,10,1.3,1
2024-12-17T2300,3477A,113.1656,35.2539,焦作市,中站许衡医院,细颗粒物(PM2.5),87,107,79,64,49,11,,55,40,64,42,13,14,0.9,0.8
2024-12-17T2300,3981A,113.2449,35.1803,焦作市,原李万街道办,颗粒物(PM10),87,124,92,63,56,20,,53,31,48,44,10,17,0.9,1
2024-12-17T2300,1708A,116.3701,23.5345,揭阳市,新兴,细颗粒物(PM2.5),62,65,77,44,51,96,,126,107,28,40,8,12,0.6,0.8
2024-12-17T2300,1709A,116.3264,23.5443,揭阳市,西马,"颗粒物(PM10),细颗粒物(PM2.5)",58,66,77,41,45,103,,139,118,24,36,10,13,0.7,0.8
2024-12-17T2300,1710A,116.3611,23.5626,揭阳市,东兴,细颗粒物(PM2.5),65,77,85,47,48,84,,129,112,35,39,10,14,0.7,0.7
2024-12-17T2300,1711A,116.4151,23.5294,揭阳市,渔湖,细颗粒物(PM2.5),63,60,80,45,49,94,,126,114,30,44,10,17,0.6,0.7
2024-12-17T2300,3320A,116.403,23.5699,揭阳市,曲溪,颗粒物(PM10),68,85,81,44,49,54,,127,112,61,41,4,11,0.9,0.8
2024-12-17T2300,1944A,102.1692,38.5167,金昌市,天庆家园,,42,42,50,21,30,62,,69,66,10,21,14,33,0.7,0.9
2024-12-17T2300,3170A,102.1864,38.5253,金昌市,市委党校,颗粒物(PM10),51,51,62,23,33,76,,74,74,8,21,10,35,0.5,0.8
2024-12-17T2300,4022A,102.1647,38.5371,金昌市,金川区人防中心,,47,47,59,24,29,65,,74,70,10,18,10,23,0.6,0.8
2024-12-17T2300,1262A,119.647,29.077,金华市,十五中,"颗粒物(PM10),细颗粒物(PM2.5)",73,96,85,53,53,5,,62,17,69,64,4,15,0.7,0.7
2024-12-17T2300,1263A,119.686,29.1029,金华市,监测站,细颗粒物(PM2.5),84,101,84,62,51,2,,57,14,78,66,4,6,0.8,0.7
2024-12-17T2300,3659A,119.656,29.1131,金华市,气象局,细颗粒物(PM2.5),108,142,95,81,54,2,,47,10,82,71,6,6,1.3,1
2024-12-17T2300,1767A,121.1115,41.0879,锦州市,南山,细颗粒物(PM2.5),75,,23,55,13,19,,64,46,45,14,10,10,1.1,0.4
2024-12-17T2300,1768A,121.0533,40.8434,锦州市,开发区,颗粒物(PM10),52,53,45,33,19,7,,61,42,60,26,16,26,1.0,0.8
2024-12-17T2300,1769A,121.1836,41.1119,锦州市,百股街道,,39,34,33,27,16,24,,64,42,35,19,12,10,0.9,0.6
2024-12-17T2300,1770A,121.1178,41.1222,锦州市,天安街道,,32,32,30,16,13,50,,64,50,20,13,12,11,0.6,0.5
2024-12-17T2300,1771A,121.1303,41.1386,锦州市,北湖公园,,,24,23,15,12,42,,61,42,,10,13,12,0.8,0.6
2024-12-17T2300,2160A,112.85,35.5051,晋城市,自来水公司,细颗粒物(PM2.5),89,119,79,66,52,17,,58,45,65,49,15,21,1.4,1.8
2024-12-17T2300,2161A,112.8318,35.4936,晋城市,白云商贸,"颗粒物(PM10),细颗粒物(PM2.5)",67,84,82,48,42,14,,61,43,65,50,10,13,1.2,1.6
2024-12-17T2300,2162A,112.8508,35.4887,晋城市,市环保局,细颗粒物(PM2.5),85,118,96,63,52,26,,59,48,63,50,13,19,1.2,1.8
2024-12-17T2300,2163A,112.8676,35.4897,晋城市,技术学院,细颗粒物(PM2.5),79,95,74,58,49,44,,59,52,45,50,15,19,0.9,1.5
2024-12-17T2300,2165A,112.8453,35.546,晋城市,白马寺,细颗粒物(PM2.5),97,86,79,72,52,41,,56,50,37,37,21,28,1.2,1.9
2024-12-17T2300,3620A,112.8271,35.4828,晋城市,泽州一中,细颗粒物(PM2.5),83,82,84,61,49,22,,60,46,68,60,15,14,1.2,1.3
2024-12-17T2300,2171A,112.7532,37.6945,晋中市,锦纶小区,颗粒物(PM10),51,51,52,17,21,32,,65,57,50,35,7,6,0.4,0.5
2024-12-17T2300,2173A,112.7249,37.7067,晋中市,南都小区,颗粒物(PM10),55,60,59,33,31,36,,64,54,40,38,10,10,0.5,0.6
2024-12-17T2300,2174A,112.6991,37.6982,晋中市,榆次区政府,颗粒物(PM10),58,66,59,27,28,44,,62,52,30,37,7,8,0.5,0.7
2024-12-17T2300,2865A,112.7195,37.6828,晋中市,榆次三中,颗粒物(PM10),52,53,58,17,20,44,,64,56,31,34,11,11,0.5,0.7
2024-12-17T2300,2439A,112.2014,31.0481,荆门市,竹园小学,细颗粒物(PM2.5),112,113,107,84,79,73,,83,81,30,37,13,14,0.6,0.6
2024-12-17T2300,2440A,112.1969,30.9891,荆门市,掇刀,细颗粒物(PM2.5),105,106,101,79,75,86,,92,91,27,43,10,12,0.6,0.7
2024-12-17T2300,2441A,112.2213,31.0386,荆门市,石化一小,细颗粒物(PM2.5),107,118,122,80,83,77,,86,84,24,42,10,10,0.6,0.8
2024-12-17T2300,3012A,112.1849,31.0362,荆门市,西山林语,细颗粒物(PM2.5),104,103,87,78,66,93,,93,93,20,24,8,9,0.6,0.5
2024-12-17T2300,3547A,112.1632,31.0138,荆门市,龙泉中学南校,细颗粒物(PM2.5),109,106,93,82,75,91,,98,98,25,30,13,13,0.6,0.6
2024-12-17T2300,1844A,112.2494,30.3197,荆州市,市图书馆,,,100,82,,80,69,,70,62,37,57,6,8,0.8,0.9
2024-12-17T2300,1845A,112.2008,30.3544,荆州市,市委党校,细颗粒物(PM2.5),150,122,94,115,79,53,,64,53,48,60,5,6,0.5,0.6
2024-12-17T2300,3194A,112.2747,30.3122,荆州市,管委会,细颗粒物(PM2.5),137,,91,104,88,62,,72,65,40,48,6,7,0.8,0.9
2024-12-17T2300,3548A,112.1655,30.3364,荆州市,学苑路,细颗粒物(PM2.5),149,151,101,114,78,59,,78,67,38,43,10,13,0.9,0.9
2024-12-17T2300,2343A,117.2117,29.2933,景德镇市,老干部活动中心,颗粒物(PM10),64,77,64,42,42,3,,45,19,42,35,9,9,0.8,0.7
2024-12-17T2300,2344A,117.1894,29.2789,景德镇市,兽医站,颗粒物(PM10),70,90,70,38,35,7,,57,31,49,31,9,9,0.8,0.5
2024-12-17T2300,2345A,117.1547,29.2617,景德镇市,台达陶瓷,颗粒物(PM10),67,84,67,46,35,5,,52,16,42,33,2,4,0.9,0.8
2024-12-17T2300,2346A,117.2461,29.2956,景德镇市,陶研所,颗粒物(PM10),57,64,56,38,31,2,,44,17,37,32,8,8,0.3,0.6
2024-12-17T2300,1803A,115.9872,29.6815,九江市,十里,细颗粒物(PM2.5),97,119,69,72,44,10,,39,14,59,51,10,8,1.4,0.8
2024-12-17T2300,1804A,115.9584,29.7046,九江市,茅山头,细颗粒物(PM2.5),92,121,74,68,41,10,,47,19,71,59,8,14,1.0,1
2024-12-17T2300,1805A,115.9877,29.7295,九江市,西园,细颗粒物(PM2.5),110,116,75,83,54,8,,30,12,85,70,12,10,1.0,0.7
2024-12-17T2300,1806A,116.0172,29.6547,九江市,五七二七厂,细颗粒物(PM2.5),68,69,57,49,32,63,,68,54,19,30,7,8,0.7,0.5
2024-12-17T2300,1808A,115.9114,29.6038,九江市,综合工业园,细颗粒物(PM2.5),78,76,70,57,55,9,,46,16,76,70,8,9,0.6,0.7
2024-12-17T2300,1809A,116.0721,29.7535,九江市,石化总厂,细颗粒物(PM2.5),112,119,86,84,55,4,,18,12,82,54,13,11,1.0,0.8
2024-12-17T2300,1810A,115.9773,29.5698,九江市,庐山气象台,细颗粒物(PM2.5),57,,9,40,6,109,,100,100,9,3,6,7,2.0,1.5
2024-12-17T2300,3190A,116.0254,29.6994,九江市,外国语学校,细颗粒物(PM2.5),114,130,80,86,51,9,,30,13,48,52,9,10,1.1,0.6
2024-12-17T2300,2658A,98.5061,39.7443,酒泉市,仓门街子站,,41,41,40,24,20,62,,81,72,17,15,7,9,0.4,0.5
2024-12-17T2300,2659A,98.4989,39.7256,酒泉市,油田生活基地,,46,46,56,20,28,59,,75,66,18,21,6,6,0.4,0.5
2024-12-17T2300,2698A,76.0072,39.4467,喀什地区,巡警大队,细颗粒物(PM2.5),78,101,88,57,47,20,,47,40,64,46,1,1,1.0,1.1
2024-12-17T2300,2699A,75.9755,39.4694,喀什地区,吾办,细颗粒物(PM2.5),90,97,87,67,59,31,,52,49,55,41,3,3,1.3,1.1
2024-12-17T2300,4027A,75.9483,39.4689,喀什地区,老干局,颗粒物(PM10),72,94,94,51,45,32,,53,46,49,40,2,2,1.1,1.2
2024-12-17T2300,1824A,114.3389,34.7781,开封市,肿瘤医院,细颗粒物(PM2.5),138,138,103,105,74,17,,61,40,63,53,6,6,0.9,0.8
2024-12-17T2300,1826A,114.2885,34.7965,开封市,世纪星幼儿园,细颗粒物(PM2.5),156,137,97,119,75,16,,61,40,60,50,7,7,0.8,0.8
2024-12-17T2300,3147A,114.3438,34.8106,开封市,龙亭公园,细颗粒物(PM2.5),163,132,100,124,76,10,,60,36,81,63,5,6,1.0,0.8
2024-12-17T2300,3210A,114.3644,34.7964,开封市,汴京公园,细颗粒物(PM2.5),153,150,114,117,81,18,,66,40,66,59,7,7,0.9,0.9
2024-12-17T2300,3473A,114.2485,34.8306,开封市,技师学院,细颗粒物(PM2.5),144,134,96,110,71,12,,57,34,73,68,6,8,1.0,0.9
2024-12-17T2300,3592A,114.4644,34.7556,开封市,祥符区生态环境局,细颗粒物(PM2.5),144,164,124,110,83,22,,66,35,52,54,6,8,0.8,0.7
2024-12-17T2300,1951A,84.895,45.6094,克拉玛依市,长征新村,细颗粒物(PM2.5),65,53,70,47,52,23,,53,47,39,24,5,5,0.6,0.7
2024-12-17T2300,1952A,84.8988,45.5893,克拉玛依市,南林小区,细颗粒物(PM2.5),59,46,68,42,54,21,,55,49,37,22,4,4,0.9,0.9
2024-12-17T2300,1954A,84.905,44.3396,克拉玛依市,独山子区,,38,26,19,26,15,59,,46,46,15,26,5,5,0.3,0.4
2024-12-17T2300,1955A,85.6979,46.098,克拉玛依市,乌尔禾区商贸楼,,40,,46,28,40,56,,60,54,20,26,3,4,0.6,0.8
2024-12-17T2300,3612A,85.1045,45.6899,克拉玛依市,白碱滩区新站,细颗粒物(PM2.5),55,53,65,39,45,11,,64,52,54,20,8,8,1.2,0.8
2024-12-17T2300,2697A,76.1454,39.7142,克孜勒苏柯尔克孜自治州,市人民政府,细颗粒物(PM2.5),65,67,70,47,47,65,,73,72,18,14,3,4,0.9,0.8
2024-12-17T2300,3665A,76.1658,39.7157,克孜勒苏柯尔克孜自治州,克州文化中心,细颗粒物(PM2.5),67,64,57,48,43,68,,66,66,12,18,6,7,0.8,0.8
2024-12-17T2300,1450A,102.8204,24.8886,昆明市,呈贡新区,细颗粒物(PM2.5),132,,20,100,17,33,,75,57,21,17,9,8,1.1,0.6
2024-12-17T2300,1452A,102.7252,25.0902,昆明市,龙泉镇,细颗粒物(PM2.5),83,61,38,61,22,26,,68,40,21,30,6,7,0.7,0.6
2024-12-17T2300,1453A,102.7266,25.0375,昆明市,东风东路,颗粒物(PM10),63,76,31,41,20,23,,66,50,26,24,6,7,0.9,0.7
2024-12-17T2300,1454A,102.6742,25.0669,昆明市,金鼎山,细颗粒物(PM2.5),87,,40,64,23,31,,71,52,24,30,6,7,0.8,0.7
2024-12-17T2300,1455A,102.6644,25.0401,昆明市,碧鸡广场,颗粒物(PM10),69,87,36,48,23,26,,68,46,32,31,8,10,0.8,0.8
2024-12-17T2300,3179A,102.7494,25.0119,昆明市,官渡区博物馆,细颗粒物(PM2.5),79,67,36,58,21,21,,74,53,37,25,8,8,0.9,0.8
2024-12-17T2300,3375A,102.8017,24.8336,昆明市,青年创业园,颗粒物(PM10),64,77,24,41,13,22,,70,57,26,20,5,6,0.8,0.7
2024-12-17T2300,3550A,102.7997,24.9786,昆明市,昆明学院,细颗粒物(PM2.5),78,96,27,57,16,13,,75,54,41,21,10,9,0.8,0.5
2024-12-17T2300,3551A,102.5967,24.6736,昆明市,晋宁区生态环境分局,,32,29,25,22,13,38,,79,65,23,11,2,2,0.7,0.6
2024-12-17T2300,3552A,102.6678,24.9856,昆明市,云天化总部,细颗粒物(PM2.5),63,64,22,45,16,29,,80,67,34,18,7,6,0.7,0.5
2024-12-17T2300,1456A,91.1319,29.6514,拉萨市,八廓街,细颗粒物(PM2.5),82,98,37,60,21,16,,80,52,80,37,12,12,2.5,1
2024-12-17T2300,1457A,91.1221,29.6747,拉萨市,市环保局,,,233,76,,34,29,,96,66,62,39,24,13,5.6,2
2024-12-17T2300,1458A,91.0874,29.6475,拉萨市,区监测站,颗粒物(PM10),54,58,33,33,18,9,,80,50,99,49,12,12,1.7,0.9
2024-12-17T2300,1459A,91.1774,29.6541,拉萨市,西藏大学,颗粒物(PM10),69,88,34,49,15,13,,84,60,95,30,7,8,2.0,0.7
2024-12-17T2300,1460A,90.9798,29.6588,拉萨市,区辐射站,细颗粒物(PM2.5),138,150,65,105,36,21,,68,48,90,56,19,13,2.9,1.3
2024-12-17T2300,1461A,91.0834,29.6292,拉萨市,拉萨火车站,,39,36,32,27,20,25,,83,73,69,47,7,9,1.2,1.1
2024-12-17T2300,2520A,109.2203,23.7256,来宾市,来宾技工学校,细颗粒物(PM2.5),210,184,136,160,111,31,,75,56,55,50,27,20,1.6,1.1
2024-12-17T2300,3535A,109.1781,23.7297,来宾市,兴宾区政府,细颗粒物(PM2.5),137,151,123,104,88,33,,80,61,41,36,16,16,1.3,1
2024-12-17T2300,4002A,109.2416,23.7461,来宾市,中南小学,细颗粒物(PM2.5),210,220,144,160,110,14,,74,46,66,47,21,16,1.7,1.3
2024-12-17T2300,1476A,103.631,36.1031,兰州市,兰炼宾馆,细颗粒物(PM2.5),89,96,109,66,74,10,,54,29,98,84,22,22,1.4,1.7
2024-12-17T2300,1478A,103.8412,36.0726,兰州市,生物制品所,细颗粒物(PM2.5),69,69,101,50,73,3,,40,19,80,72,13,15,0.9,1.6
2024-12-17T2300,1479A,103.831,36.0464,兰州市,铁路设计院,细颗粒物(PM2.5),87,108,122,64,82,4,,26,13,92,84,29,20,2.1,2.3
2024-12-17T2300,3186A,103.7158,36.1058,兰州市,教育港,细颗粒物(PM2.5),85,86,122,63,84,2,,45,17,80,90,16,17,1.2,1.9
2024-12-17T2300,3241A,103.7439,36.0842,兰州市,百合公园,细颗粒物(PM2.5),77,66,108,56,78,6,,32,18,78,86,22,17,1.7,2.2
2024-12-17T2300,3242A,103.9611,35.998,兰州市,和平,细颗粒物(PM2.5),88,84,102,65,74,20,,52,33,73,70,16,26,1.2,2.1
2024-12-17T2300,3245A,103.6633,36.533,兰州新区,新区管委会,细颗粒物(PM2.5),80,101,71,59,50,9,,77,38,65,39,18,20,1.0,0.8
2024-12-17T2300,3246A,103.6975,36.4789,兰州新区,舟曲中学,细颗粒物(PM2.5),72,81,66,52,46,6,,69,43,84,51,16,24,1.1,0.8
2024-12-17T2300,1067A,116.6708,39.5111,廊坊市,药材公司,,19,19,23,3,9,58,,69,50,16,25,1,2,0.4,0.4
2024-12-17T2300,1068A,116.7214,39.5589,廊坊市,开发区,,17,17,22,6,8,42,,68,46,26,24,1,3,0.2,0.3
2024-12-17T2300,1070A,116.7244,39.5269,廊坊市,北华航天学院,,15,13,25,3,8,47,,65,48,25,26,3,4,0.3,0.4
2024-12-17T2300,2919A,116.7022,39.5453,廊坊市,河北工业大学,,25,25,26,6,10,48,,67,49,20,22,3,4,0.3,0.3
2024-12-17T2300,2535A,103.7723,29.5462,乐山市,花湖湾,细颗粒物(PM2.5),182,168,103,137,91,30,,70,58,27,26,4,4,1.0,0.8
2024-12-17T2300,2536A,103.7627,29.5844,乐山市,牛耳桥,细颗粒物(PM2.5),150,144,100,115,87,2,,56,32,53,40,5,5,0.9,0.8
2024-12-17T2300,2537A,103.7508,29.6006,乐山市,市第三水厂,细颗粒物(PM2.5),170,158,107,129,86,5,,72,39,57,45,4,4,1.1,0.8
2024-12-17T2300,2538A,103.7571,29.5664,乐山市,市监测站,细颗粒物(PM2.5),124,123,98,94,81,3,,60,42,51,37,3,5,1.0,0.7
2024-12-17T2300,3361A,103.7311,29.5628,乐山市,理工大学,细颗粒物(PM2.5),140,130,100,107,87,7,,46,32,52,41,6,6,1.0,0.8
2024-12-17T2300,2598A,100.2143,26.8576,丽江市,西南郊,颗粒物(PM10),51,51,24,25,10,57,,104,90,19,7,4,7,1.1,0.8
2024-12-17T2300,2599A,100.2497,26.8802,丽江市,丽江古城,,26,26,24,18,11,68,,88,79,11,10,9,9,0.5,0.5
2024-12-17T2300,2600A,100.2203,26.8906,丽江市,市中心,,24,14,15,9,7,74,,87,78,9,11,4,4,0.5,0.4
2024-12-17T2300,1267A,119.914,28.4514,丽水市,监测站大楼,颗粒物(PM10),57,64,50,37,34,3,,42,16,63,49,4,5,0.7,0.8
2024-12-17T2300,1268A,119.93,28.4586,丽水市,莲都小学,颗粒物(PM10),62,73,55,34,30,4,,54,,58,43,6,6,1.0,0.9
2024-12-17T2300,1269A,119.879,28.4231,丽水市,余庄前,,46,46,45,29,31,5,,52,24,36,30,4,5,0.5,0.5
2024-12-17T2300,1173A,119.176,34.5885,连云港市,市环境监测站,颗粒物(PM10),62,73,93,41,59,48,,58,52,30,57,9,15,0.6,1
2024-12-17T2300,3000A,119.3581,34.6972,连云港市,德源药业,颗粒物(PM10),53,56,98,36,57,52,,55,52,20,64,7,11,0.5,0.7
2024-12-17T2300,3007A,119.178,34.844,连云港市,新城一中,细颗粒物(PM2.5),67,77,104,48,73,14,,44,25,66,76,13,22,0.7,1.3
2024-12-17T2300,3008A,119.3608,34.7519,连云港市,胡沟管理处,,49,48,71,34,48,62,,80,78,16,29,7,8,0.5,0.6
2024-12-17T2300,3009A,119.1478,34.5911,连云港市,矿山设计院,颗粒物(PM10),65,80,100,41,64,30,,57,44,42,54,9,15,0.9,1.1
2024-12-17T2300,3434A,119.2413,34.6539,连云港市,工贸学校,细颗粒物(PM2.5),60,64,85,43,60,56,,65,61,21,34,9,13,0.7,0.9
2024-12-17T2300,3664A,119.4172,34.7341,连云港市,连云街道,"颗粒物(PM10),细颗粒物(PM2.5)",58,66,76,41,50,40,,61,52,33,35,7,13,0.5,0.6
2024-12-17T2300,2571A,102.3431,27.8099,凉山彝族自治州,青龙寺,,41,41,48,14,19,44,,77,66,17,18,5,7,0.7,1
2024-12-17T2300,2572A,102.2721,27.8415,凉山彝族自治州,邛海宾馆,,43,43,53,27,37,58,,59,59,14,25,8,12,0.8,1
2024-12-17T2300,2573A,102.2625,27.898,凉山彝族自治州,西昌市政府,,36,36,57,24,45,73,,66,66,6,25,9,13,0.7,1
2024-12-17T2300,2574A,102.2685,27.8851,凉山彝族自治州,凉山州政府,,50,49,65,35,45,45,,62,56,21,30,8,12,1.0,1
2024-12-17T2300,2575A,102.237,27.8914,凉山彝族自治州,长安,,36,36,77,24,49,74,,62,62,8,34,8,10,0.7,1.1
2024-12-17T2300,2212A,123.2,41.1953,辽阳市,宏伟区,,45,45,27,20,14,27,,49,38,23,13,11,9,0.3,0.3
2024-12-17T2300,2213A,123.1683,41.2495,辽阳市,新华园,,36,36,36,21,21,30,,49,37,28,21,11,12,0.6,0.6
2024-12-17T2300,2214A,123.2354,41.2639,辽阳市,滨河路,"颗粒物(PM10),细颗粒物(PM2.5)",53,56,26,37,17,20,,54,34,37,16,12,10,0.8,0.5
2024-12-17T2300,2215A,123.149,41.2991,辽阳市,铁西工业园,细颗粒物(PM2.5),67,59,39,48,24,2,,48,21,47,28,5,2,1.3,0.8
2024-12-17T2300,2227A,125.1358,42.8845,辽源市,环保局,,42,42,45,25,26,18,,48,42,33,26,6,9,1.5,1
2024-12-17T2300,3239A,125.0764,42.9078,辽源市,银鹰制药,细颗粒物(PM2.5),85,70,48,63,38,18,,48,37,36,29,7,9,0.8,0.9
2024-12-17T2300,1625A,115.9848,36.4372,聊城市,区政府,,42,42,86,23,53,35,,58,50,36,49,13,13,0.7,1
2024-12-17T2300,2878A,116.0072,36.4343,聊城市,聊大东校,颗粒物(PM10),51,51,94,27,58,30,,59,52,40,49,10,13,0.8,1
2024-12-17T2300,3200A,115.9819,36.4978,聊城市,监控中心,,45,45,116,31,79,30,,54,41,43,60,12,16,0.7,1.1
2024-12-17T2300,3513A,116.0445,36.4361,聊城市,九州社区,,49,49,93,28,66,28,,56,47,33,42,16,22,0.6,0.9
2024-12-17T2300,4018A,116.0567,36.4608,聊城市,星美广场,颗粒物(PM10),53,55,115,23,68,19,,51,39,43,48,11,15,0.7,1
2024-12-17T2300,2632A,94.3681,29.6376,林芝市,林芝监测站,,25,10,21,3,7,80,,76,74,2,11,6,6,0.1,0.2
2024-12-17T2300,2633A,94.3616,29.6616,林芝市,林芝人民医院,,22,22,16,10,8,62,,70,64,7,9,6,6,0.4,0.2
2024-12-17T2300,2603A,100.0781,23.8982,临沧市,市环保局,,36,36,24,25,15,34,,74,59,17,14,8,9,0.6,0.5
2024-12-17T2300,2604A,100.0894,23.8822,临沧市,市气象局,,46,40,31,32,22,29,,69,55,22,16,7,7,0.7,0.5
2024-12-17T2300,1733A,111.5531,36.0783,临汾市,临钢医院,颗粒物(PM10),74,98,88,52,50,16,,38,30,55,47,16,13,1.0,1.3
2024-12-17T2300,1734A,111.5028,36.0714,临汾市,技工学校,颗粒物(PM10),60,69,89,40,54,28,,44,39,40,44,11,13,1.1,1.3
2024-12-17T2300,1736A,111.5018,36.0855,临汾市,市委,颗粒物(PM10),62,74,98,31,48,32,,44,38,42,46,10,14,0.8,1
2024-12-17T2300,3018A,111.505,36.1014,临汾市,唐尧大酒店,细颗粒物(PM2.5),67,76,87,48,53,26,,41,36,43,44,14,16,0.8,1
2024-12-17T2300,3668A,111.5036,36.0414,临汾市,城南,颗粒物(PM10),78,106,102,44,55,8,,40,32,59,47,9,12,1.0,1.1
2024-12-17T2300,2667A,103.2069,35.5993,临夏回族自治州,环保局,颗粒物(PM10),101,152,99,26,17,5,,68,44,76,50,16,15,3.6,2.4
2024-12-17T2300,2668A,103.2417,35.6057,临夏回族自治州,建设大厦,颗粒物(PM10),68,86,55,30,18,20,,84,56,63,38,12,13,2.3,1.5
2024-12-17T2300,1618A,118.3429,35.0532,临沂市,沂河小区,细颗粒物(PM2.5),63,,103,45,74,44,,57,43,22,57,8,17,0.4,0.8
2024-12-17T2300,1619A,118.295,35.0583,临沂市,鲁南制药厂,细颗粒物(PM2.5),53,46,102,37,65,48,,54,46,18,60,6,17,0.4,0.8
2024-12-17T2300,1620A,118.2794,34.9976,临沂市,新光毛纺厂,,50,36,99,35,68,44,,60,43,22,59,8,16,0.7,1.2
2024-12-17T2300,1621A,118.3956,35.0888,临沂市,河东保险公司,,40,39,104,28,72,37,,54,35,21,55,5,14,0.4,0.9
2024-12-17T2300,3370A,118.3564,35.0215,临沂市,十里堡居委,,41,41,99,24,63,43,,58,41,22,52,7,16,0.6,0.9
2024-12-17T2300,3496A,118.3604,35.1084,临沂市,南坊新区,,42,36,101,29,66,45,,58,45,24,59,5,12,0.7,1
2024-12-17T2300,3860A,118.3920,35.0300,临沂市,皇山花园小区,,44,44,115,28,65,31,,53,30,37,69,5,13,0.7,1
2024-12-17T2300,1870A,109.4856,24.3895,柳州市,柳东小学,细颗粒物(PM2.5),147,115,88,112,67,46,,72,64,30,28,16,14,0.7,0.7
2024-12-17T2300,1871A,109.4157,24.3277,柳州市,环保监测站,细颗粒物(PM2.5),137,122,117,104,73,41,,64,55,35,46,19,18,0.8,0.9
2024-12-17T2300,1872A,109.389,24.341,柳州市,河西水厂,细颗粒物(PM2.5),109,137,150,82,86,33,,55,51,40,48,45,45,1.2,0.9
2024-12-17T2300,1873A,109.4311,24.2921,柳州市,市四中,细颗粒物(PM2.5),105,102,86,79,62,43,,73,61,37,42,17,14,0.7,0.7
2024-12-17T2300,1874A,109.4006,24.3631,柳州市,市九中,细颗粒物(PM2.5),135,112,116,103,79,29,,63,54,43,44,17,16,0.9,0.9
2024-12-17T2300,1875A,109.4958,24.3134,柳州市,古亭山,细颗粒物(PM2.5),134,134,66,102,48,50,,74,58,33,45,19,16,1.1,0.8
2024-12-17T2300,3402A,109.5422,24.3996,柳州市,市二中,细颗粒物(PM2.5),204,177,91,154,71,23,,60,48,51,44,15,12,1.3,0.9
2024-12-17T2300,2307A,116.5079,31.737,六安市,监测大楼,细颗粒物(PM2.5),129,112,74,98,56,48,,78,59,32,43,,6,0.8,0.7
2024-12-17T2300,2308A,116.4738,31.7643,六安市,皖西学院,细颗粒物(PM2.5),125,120,78,95,54,38,,72,61,43,40,8,5,0.9,0.7
2024-12-17T2300,2309A,116.4996,31.7905,六安市,朝阳厂,细颗粒物(PM2.5),124,114,70,94,57,31,,70,54,47,42,6,3,1.0,0.8
2024-12-17T2300,2310A,116.5567,31.7886,六安市,开发区,细颗粒物(PM2.5),129,145,102,98,63,37,,72,42,45,56,7,6,0.8,0.7
2024-12-17T2300,2576A,104.8,26.5892,六盘水市,窑上,,35,29,55,24,44,52,,37,37,10,23,11,12,0.7,0.9
2024-12-17T2300,2577A,104.83,26.5917,六盘水市,黄土坡,,26,19,43,18,34,60,,47,39,9,24,10,13,0.7,0.9
2024-12-17T2300,2578A,104.89,26.5939,六盘水市,水钢,,24,24,51,13,44,57,,52,38,22,20,10,8,0.8,0.9
2024-12-17T2300,2579A,104.8475,26.5894,六盘水市,民中,,23,23,40,14,32,59,,49,36,10,24,8,10,0.6,0.8
2024-12-17T2300,2580A,104.9544,26.5506,六盘水市,双水,,24,24,38,10,29,51,,56,45,9,16,7,9,0.6,0.6
2024-12-17T2300,2336A,117.0217,25.1033,龙岩市,龙岩市监测站,,42,34,46,29,28,19,,87,44,50,35,4,11,0.6,0.7
2024-12-17T2300,2337A,117.0258,25.0661,龙岩市,闽西职业技术学院,颗粒物(PM10),64,77,66,34,27,3,,83,34,69,44,51,23,0.8,0.8
2024-12-17T2300,2338A,117.0196,25.0306,龙岩市,龙岩学院,,42,40,40,29,24,21,,82,57,42,30,16,11,0.5,0.5
2024-12-17T2300,3247A,104.955,33.371,陇南市,市总工会,颗粒物(PM10),74,97,88,51,47,15,,48,36,62,45,24,29,1.8,1.1
2024-12-17T2300,2487A,111.9589,27.8901,娄底市,电视发射台,,49,45,34,34,25,92,,104,100,16,12,9,9,0.7,0.8
2024-12-17T2300,2488A,111.9975,27.725,娄底市,市监测站,细颗粒物(PM2.5),74,71,94,54,65,72,,80,75,34,44,18,18,0.4,1.3
2024-12-17T2300,2489A,112.0194,27.7314,娄底市,市委党校,细颗粒物(PM2.5),72,73,84,52,55,75,,70,67,23,39,8,11,0.8,1.2
2024-12-17T2300,2490A,111.9561,27.7569,娄底市,涟钢,细颗粒物(PM2.5),77,77,82,56,54,73,,77,72,28,30,8,11,1.1,1.4
2024-12-17T2300,2491A,111.9892,27.7044,娄底市,市政府,细颗粒物(PM2.5),73,73,81,53,60,78,,78,68,18,25,10,10,0.6,1
2024-12-17T2300,1894A,105.4427,28.9063,泸州市,小市上码头,细颗粒物(PM2.5),120,116,114,91,92,20,,19,16,46,54,3,2,1.0,1.1
2024-12-17T2300,1895A,105.4241,28.8573,泸州市,兰田宪桥,细颗粒物(PM2.5),143,140,109,109,87,8,,24,13,45,42,3,2,1.1,1
2024-12-17T2300,1896A,105.4379,28.8833,泸州市,市环监站,细颗粒物(PM2.5),118,108,101,89,85,15,,21,11,48,50,4,4,0.9,0.9
2024-12-17T2300,3490A,105.3617,28.7703,泸州市,纳溪区环保局,细颗粒物(PM2.5),112,107,107,84,84,2,,25,12,34,41,5,5,0.9,0.9
2024-12-17T2300,2183A,111.1406,37.5211,吕梁市,环保局,颗粒物(PM10),80,110,98,36,35,2,,21,10,59,51,4,6,0.6,0.7
2024-12-17T2300,2185A,111.1297,37.5136,吕梁市,自来水公司,颗粒物(PM10),97,144,144,38,44,4,,24,13,55,50,9,8,0.6,0.7
2024-12-17T2300,2867A,111.1283,37.51,吕梁市,马茂庄小学,颗粒物(PM10),80,110,107,46,38,2,,22,10,62,54,2,7,0.9,1
2024-12-17T2300,1812A,112.3931,34.6516,洛阳市,市委党校,细颗粒物(PM2.5),104,145,110,78,67,3,,50,29,85,57,12,11,1.3,1.1
2024-12-17T2300,1814A,112.4657,34.6871,洛阳市,豫西宾馆,细颗粒物(PM2.5),103,128,118,77,71,25,,64,45,64,54,12,13,0.8,0.9
2024-12-17T2300,1815A,112.494,34.6886,洛阳市,河南林校,细颗粒物(PM2.5),130,122,101,99,85,12,,48,29,64,53,9,8,0.9,1
2024-12-17T2300,1816A,112.3844,34.623,洛阳市,开发区管委会,细颗粒物(PM2.5),144,152,111,110,81,6,,55,38,80,48,12,10,1.1,0.9
2024-12-17T2300,1817A,112.4267,34.6258,洛阳市,市委新办公区,细颗粒物(PM2.5),124,144,126,94,89,21,,57,33,66,52,9,8,0.9,0.9
2024-12-17T2300,3340A,112.6005,34.6326,洛阳市,伊滨,细颗粒物(PM2.5),113,165,127,85,65,7,,59,33,66,49,7,8,1.3,0.9
2024-12-17T2300,3341A,112.4951,34.6332,洛阳市,中移产业园,细颗粒物(PM2.5),110,120,94,83,59,10,,61,33,77,56,12,10,1.2,0.9
2024-12-17T2300,3593A,112.5736,34.8993,洛阳市,吉利监测站,细颗粒物(PM2.5),95,96,96,71,69,18,,48,26,58,54,13,10,0.9,0.9
2024-12-17T2300,3635A,112.3677,34.662,洛阳市,河科大西苑校区,细颗粒物(PM2.5),134,144,122,102,81,8,,55,33,74,55,14,18,1.2,1
2024-12-17T2300,3636A,112.4388,34.6781,洛阳市,英才小学,细颗粒物(PM2.5),107,124,114,80,72,13,,48,33,70,60,11,13,0.8,1
2024-12-17T2300,2399A,114.051,33.5699,漯河市,三五一五工厂,细颗粒物(PM2.5),142,134,110,108,88,40,,65,52,39,42,13,12,,0.9
2024-12-17T2300,2400A,114.0055,33.5698,漯河市,漯河大学,细颗粒物(PM2.5),134,131,110,102,79,45,,70,58,42,46,12,11,0.7,0.8
2024-12-17T2300,2401A,114.0138,33.5828,漯河市,市水利局,细颗粒物(PM2.5),144,153,116,110,81,38,,66,48,46,48,14,12,0.8,0.9
2024-12-17T2300,2402A,114.0261,33.5698,漯河市,市广电局,细颗粒物(PM2.5),138,129,109,105,84,43,,67,54,39,43,13,12,0.6,0.7
2024-12-17T2300,3478A,113.9749,33.5664,漯河市,市图书馆,细颗粒物(PM2.5),110,118,113,83,79,45,,68,58,46,50,11,10,0.7,0.7
2024-12-17T2300,3479A,114.0967,33.5906,漯河市,召陵区卫健委,细颗粒物(PM2.5),175,180,126,132,90,8,,60,31,73,52,16,15,0.9,0.9
2024-12-17T2300,1798A,118.5092,31.6837,马鞍山市,湖东路四小,细颗粒物(PM2.5),77,91,88,56,49,32,,82,57,67,59,8,7,1.0,1.1
2024-12-17T2300,1799A,118.5024,31.6449,马鞍山市,开发区,细颗粒物(PM2.5),104,98,96,78,72,23,,74,51,81,73,11,10,1.0,1.2
2024-12-17T2300,1800A,118.5228,31.7231,马鞍山市,慈湖,细颗粒物(PM2.5),102,95,98,76,70,9,,72,32,89,66,9,11,1.1,1.2
2024-12-17T2300,1802A,118.6245,31.7241,马鞍山市,濮塘,细颗粒物(PM2.5),100,91,75,75,58,42,,97,69,35,40,8,10,0.8,0.9
2024-12-17T2300,3633A,118.4918,31.6809,马鞍山市,雨山,细颗粒物(PM2.5),90,93,88,67,54,38,,78,52,58,63,12,12,0.9,1.2
2024-12-17T2300,1686A,111.0286,21.4688,茂名市,电白南海,颗粒物(PM10),62,73,67,39,32,110,,138,129,28,27,13,12,0.6,0.9
2024-12-17T2300,1687A,110.9294,21.6533,茂名市,茂石化七小,颗粒物(PM10),60,70,63,41,36,120,,135,133,20,20,14,15,0.6,0.6
2024-12-17T2300,1688A,110.9107,21.6687,茂名市,健康路,"颗粒物(PM10),细颗粒物(PM2.5)",58,66,58,41,36,130,,144,141,20,20,26,23,0.8,0.8
2024-12-17T2300,1689A,110.8592,21.6828,茂名市,高岭,颗粒物(PM10),71,92,74,51,41,67,,127,105,48,29,17,27,0.7,0.7
2024-12-17T2300,3450A,111.01,21.5165,茂名市,电白水东,,,66,57,36,33,,,138,135,13,20,11,15,0.5,0.5
2024-12-17T2300,2539A,104.0308,30.0478,眉山市,黑龙滩水库,细颗粒物(PM2.5),78,97,88,57,46,40,,110,85,15,15,3,2,0.8,0.7
2024-12-17T2300,2540A,103.8416,30.0874,眉山市,气象局,细颗粒物(PM2.5),153,128,93,117,83,5,,87,56,74,48,5,5,1.4,0.9
2024-12-17T2300,3137A,103.8578,30.0744,眉山市,市委党校,细颗粒物(PM2.5),134,124,91,102,73,4,,84,48,82,56,5,5,1.4,0.8
2024-12-17T2300,3148A,103.8291,30.0564,眉山市,区人社局,细颗粒物(PM2.5),156,,82,119,78,6,,89,56,89,54,5,6,1.2,0.9
2024-12-17T2300,1690A,116.1231,24.3284,梅州市,梅江月梅,,48,45,45,33,27,31,,90,58,32,30,8,10,0.5,0.5
2024-12-17T2300,1691A,116.0797,24.2719,梅州市,梅县新城,颗粒物(PM10),56,61,53,36,32,4,,74,35,60,40,5,6,0.8,0.8
2024-12-17T2300,1692A,116.1248,24.2654,梅州市,环境监控中心,颗粒物(PM10),55,60,50,36,29,5,,79,37,64,39,8,8,0.6,0.5
2024-12-17T2300,3315A,116.1233,24.2991,梅州市,梅龙,颗粒物(PM10),56,61,44,30,25,24,,74,44,44,30,23,9,0.7,0.6
2024-12-17T2300,1878A,104.7778,31.4741,绵阳市,富乐山,细颗粒物(PM2.5),103,94,96,77,76,42,,73,63,47,40,2,2,0.8,0.8
2024-12-17T2300,1879A,104.7563,31.4535,绵阳市,市人大,细颗粒物(PM2.5),125,137,125,95,86,3,,60,36,80,56,5,5,1.6,1
2024-12-17T2300,1880A,104.6697,31.4668,绵阳市,高新区自来水公司,细颗粒物(PM2.5),122,134,120,92,87,2,,67,37,68,47,7,5,1.2,1
2024-12-17T2300,1881A,104.7287,31.5075,绵阳市,三水厂,细颗粒物(PM2.5),125,133,126,95,96,3,,57,35,69,49,7,7,1.3,1
2024-12-17T2300,3491A,104.69,31.5322,绵阳市,西科大附属小学,细颗粒物(PM2.5),138,135,116,105,88,9,,67,41,74,48,6,6,0.9,0.8
2024-12-17T2300,3492A,104.5648,31.5343,绵阳市,安州区旅游局,细颗粒物(PM2.5),147,140,117,112,98,4,,69,36,50,38,6,6,1.4,1
2024-12-17T2300,1784A,129.61,44.561,牡丹江市,环保大楼,,38,38,35,24,25,37,,57,43,27,21,7,7,0.5,0.5
2024-12-17T2300,1785A,129.6115,44.5782,牡丹江市,文化广场,,44,44,39,30,29,49,,58,49,20,23,8,9,0.6,0.6
2024-12-17T2300,1786A,129.5904,44.5963,牡丹江市,第一医院,细颗粒物(PM2.5),68,62,40,49,38,32,,60,38,27,19,6,7,0.8,0.6
2024-12-17T2300,1787A,129.6364,44.6075,牡丹江市,机车工厂,颗粒物(PM10),57,63,50,34,29,22,,62,40,32,22,18,22,0.7,0.6
2024-12-17T2300,1788A,129.6386,44.5462,牡丹江市,第一中学,细颗粒物(PM2.5),54,40,35,38,28,28,,61,32,25,22,5,6,0.5,0.5
2024-12-17T2300,2531A,105.0703,29.61,内江市,市监测站,细颗粒物(PM2.5),129,,78,98,79,8,,39,22,51,42,9,7,1.8,1.1
2024-12-17T2300,2532A,105.0717,29.5947,内江市,东兴区政府,细颗粒物(PM2.5),108,91,74,81,68,8,,44,28,54,39,6,5,1.2,0.9
2024-12-17T2300,2533A,105.0653,29.5817,内江市,内江二中,细颗粒物(PM2.5),127,,79,96,74,8,,43,28,59,42,9,8,1.0,0.8
2024-12-17T2300,2534A,105.0406,29.5822,内江市,内江日报社,细颗粒物(PM2.5),125,,81,95,75,10,,37,22,56,51,10,8,0.9,0.8
2024-12-17T2300,2628A,92.0657,31.4846,那曲市,那曲监测站,细颗粒物(PM2.5),214,230,79,164,50,6,,85,58,64,29,30,15,4.5,1.8
2024-12-17T2300,3128A,92.0506,31.4797,那曲市,那曲会议中心,细颗粒物(PM2.5),89,90,50,66,34,25,,87,62,34,20,12,8,1.9,1
2024-12-17T2300,1290A,115.8931,28.6843,南昌市,省外办,细颗粒物(PM2.5),77,79,97,56,70,44,,52,49,46,60,9,10,0.7,0.8
2024-12-17T2300,1291A,115.8886,28.7003,南昌市,省林业公司,细颗粒物(PM2.5),79,88,97,58,59,30,,51,44,59,57,12,13,0.6,0.6
2024-12-17T2300,1292A,115.8126,28.7442,南昌市,林科所,细颗粒物(PM2.5),58,51,72,41,47,63,,62,62,34,47,10,12,0.3,0.4
2024-12-17T2300,1294A,115.8518,28.687,南昌市,建工学校,颗粒物(PM10),59,68,89,40,51,56,,60,60,40,59,11,11,0.6,0.7
2024-12-17T2300,1295A,115.8921,28.6424,南昌市,象湖,细颗粒物(PM2.5),75,72,105,55,68,52,,61,53,41,60,10,10,0.8,1.2
2024-12-17T2300,1296A,115.7423,28.7996,南昌市,武术学校,细颗粒物(PM2.5),55,,33,39,29,20,,44,32,13,18,1,2,0.5,0.6
2024-12-17T2300,1298A,115.9314,28.6842,南昌市,省站,细颗粒物(PM2.5),75,91,110,55,64,36,,51,46,50,57,12,12,0.6,0.8
2024-12-17T2300,3046A,115.9084,28.6062,南昌市,机电学校,细颗粒物(PM2.5),79,98,127,58,66,21,,52,34,71,66,10,12,0.5,0.5
2024-12-17T2300,3690A,115.9721,28.7031,南昌市,外国语学校,细颗粒物(PM2.5),72,89,97,52,56,28,,47,42,61,50,10,9,0.6,0.7
2024-12-17T2300,1905A,106.056,30.8064,南充市,西山风景区,细颗粒物(PM2.5),117,93,70,88,65,44,,79,70,32,18,1,2,0.9,0.7
2024-12-17T2300,1906A,106.0789,30.8023,南充市,南充市委,细颗粒物(PM2.5),134,129,87,102,71,16,,65,37,61,40,4,4,0.7,0.6
2024-12-17T2300,1907A,106.1031,30.8217,南充市,南充炼油厂,细颗粒物(PM2.5),148,122,93,113,74,29,,67,48,48,46,4,5,0.9,0.8
2024-12-17T2300,1908A,106.1064,30.7856,南充市,高坪区监测站,细颗粒物(PM2.5),117,139,99,88,74,35,,63,46,37,45,4,3,0.6,0.6
2024-12-17T2300,1909A,106.0642,30.7636,南充市,嘉陵区环保局,细颗粒物(PM2.5),134,131,94,102,72,19,,67,34,51,50,5,5,0.8,0.8
2024-12-17T2300,1910A,106.1087,30.8388,南充市,市环境监测站,细颗粒物(PM2.5),127,119,95,96,69,24,,72,50,55,35,6,7,0.7,0.6
2024-12-17T2300,1151A,118.8086,32.1065,南京市,迈皋桥,细颗粒物(PM2.5),110,104,74,83,50,14,,72,47,86,65,5,6,0.9,0.9
2024-12-17T2300,1152A,118.7538,32.0551,南京市,草场门,细颗粒物(PM2.5),117,119,82,88,52,7,,80,53,109,76,12,9,1.1,1.1
2024-12-17T2300,1153A,118.7794,32.0745,南京市,山西路,细颗粒物(PM2.5),128,127,87,97,54,41,,86,67,83,64,7,5,0.8,0.9
2024-12-17T2300,1154A,118.7752,32.0023,南京市,中华门,细颗粒物(PM2.5),119,112,76,90,50,24,,68,47,46,60,9,6,1.1,1
2024-12-17T2300,1155A,118.8109,32.0309,南京市,瑞金路,细颗粒物(PM2.5),110,117,83,83,53,25,,72,54,45,112,8,8,1.1,1.2
2024-12-17T2300,1156A,118.7997,32.0754,南京市,玄武湖,细颗粒物(PM2.5),118,121,82,89,51,14,,75,51,55,40,11,10,0.6,0.6
2024-12-17T2300,1157A,118.6414,32.0931,南京市,浦口,细颗粒物(PM2.5),109,123,76,82,47,59,,80,64,38,34,14,10,1.0,0.7
2024-12-17T2300,1158A,118.7356,31.9996,南京市,奥体中心,细颗粒物(PM2.5),110,115,80,83,49,27,,85,65,88,69,15,11,1.0,0.9
2024-12-17T2300,1159A,118.9125,32.1028,南京市,仙林大学城,细颗粒物(PM2.5),113,117,82,85,53,30,,77,51,73,59,10,10,0.9,0.9
2024-12-17T2300,3422A,118.8436,31.9198,南京市,江宁彩虹桥,细颗粒物(PM2.5),107,111,80,80,48,35,,73,52,71,62,12,10,0.9,0.8
2024-12-17T2300,3423A,119.0138,31.6494,南京市,溧水永阳,细颗粒物(PM2.5),93,92,63,69,48,18,,74,46,61,43,4,5,0.7,0.7
2024-12-17T2300,3424A,118.879,31.3302,南京市,高淳老职中,细颗粒物(PM2.5),84,66,66,62,55,22,,71,47,70,44,5,8,0.5,0.6
2024-12-17T2300,3427A,118.8554,32.3578,南京市,六合雄州,细颗粒物(PM2.5),108,120,91,81,58,30,,75,60,39,28,11,10,0.6,0.5
2024-12-17T2300,1401A,108.3103,22.7881,南宁市,二十一中,细颗粒物(PM2.5),89,72,73,66,53,83,,108,102,31,45,15,11,0.8,0.8
2024-12-17T2300,1402A,108.3141,22.8528,南宁市,北湖,细颗粒物(PM2.5),87,88,80,64,54,58,,99,84,48,48,18,15,1.0,0.9
2024-12-17T2300,1403A,108.3206,22.8225,南宁市,市监测站,细颗粒物(PM2.5),84,86,80,62,50,62,,94,80,46,52,21,18,1.0,0.9
2024-12-17T2300,1404A,108.3829,22.8037,南宁市,大自然花园,细颗粒物(PM2.5),84,78,69,62,49,75,,102,94,34,38,19,13,0.6,0.6
2024-12-17T2300,1405A,108.4394,22.7904,南宁市,仙葫,细颗粒物(PM2.5),93,71,73,69,60,73,,98,90,24,35,16,13,0.9,0.9
2024-12-17T2300,1406A,108.2397,22.8467,南宁市,区农职院,细颗粒物(PM2.5),79,105,75,58,45,22,,97,64,52,40,10,16,0.7,0.7
2024-12-17T2300,1407A,108.3275,22.735,南宁市,英华嘉园,细颗粒物(PM2.5),80,69,79,59,60,75,,99,88,29,43,17,13,0.8,0.8
2024-12-17T2300,1408A,108.2257,22.7757,南宁市,沙井镇街道办,细颗粒物(PM2.5),82,104,108,60,56,61,,86,72,46,56,11,15,0.7,0.7
2024-12-17T2300,3401A,108.4834,22.7618,南宁市,红星社区,细颗粒物(PM2.5),78,84,70,57,52,60,,105,87,38,39,16,17,1.0,0.9
2024-12-17T2300,2332A,118.1681,26.6369,南平市,南平市监测站,细颗粒物(PM2.5),52,48,43,36,34,14,,77,46,41,27,4,6,0.6,0.5
2024-12-17T2300,2333A,118.1825,26.6489,南平市,南平铝业有限公司,颗粒物(PM10),51,52,41,28,26,7,,75,40,49,31,6,6,0.5,0.5
2024-12-17T2300,2334A,118.1756,26.6272,南平市,南平七中,,42,36,41,29,30,33,,78,56,24,21,4,6,0.2,0.3
2024-12-17T2300,1168A,120.9098,31.9663,南通市,狼山街道,细颗粒物(PM2.5),118,107,84,89,66,41,,74,66,46,54,6,10,0.8,1.2
2024-12-17T2300,1169A,120.86,32.0005,南通市,虹桥,细颗粒物(PM2.5),104,88,88,78,70,68,,71,68,40,72,10,14,0.8,1.3
2024-12-17T2300,1170A,120.87,32.02,南通市,城中,细颗粒物(PM2.5),112,112,105,84,68,62,,74,71,51,75,13,14,0.7,1.2
2024-12-17T2300,1171A,120.94,31.93,南通市,星湖花园,细颗粒物(PM2.5),110,104,90,83,65,54,,69,65,47,63,5,9,0.7,1
2024-12-17T2300,1172A,120.81,32.0417,南通市,紫琅学院,细颗粒物(PM2.5),142,133,98,108,69,19,,69,52,81,74,5,9,1.0,1.2
2024-12-17T2300,3291A,121.067,32.062,南通市,通州监测站,细颗粒物(PM2.5),113,107,101,85,73,63,,86,83,40,64,3,7,0.8,1.2
2024-12-17T2300,3432A,120.9348,31.9883,南通市,环境教育馆,细颗粒物(PM2.5),114,110,103,86,72,42,,84,,55,79,4,10,0.9,1.4
2024-12-17T2300,2404A,112.5224,33.0122,南阳市,瓦房庄,细颗粒物(PM2.5),120,100,96,91,77,46,,80,68,41,37,10,8,1.0,0.8
2024-12-17T2300,2405A,112.5003,32.9735,南阳市,汉画馆,细颗粒物(PM2.5),107,102,101,80,70,48,,74,62,32,39,9,8,0.9,0.9
2024-12-17T2300,2406A,112.5573,33.027,南阳市,气象站,细颗粒物(PM2.5),117,108,97,88,70,45,,84,70,46,35,10,8,0.8,0.7
2024-12-17T2300,2407A,112.5481,32.9689,南阳市,理工学院,细颗粒物(PM2.5),119,99,91,90,76,45,,79,65,43,40,9,8,0.7,0.7
2024-12-17T2300,4008A,112.5234,32.9922,南阳市,卧龙区政府,细颗粒物(PM2.5),113,111,96,85,73,40,,89,62,50,45,9,7,0.8,0.8
2024-12-17T2300,1234A,121.8358,29.911,宁波市,区环保大楼,细颗粒物(PM2.5),90,98,75,67,46,5,,78,36,103,69,10,12,1.0,0.9
2024-12-17T2300,1235A,121.56,29.82,宁波市,万里学院,细颗粒物(PM2.5),102,136,76,76,48,3,,82,47,95,61,6,7,0.8,0.7
2024-12-17T2300,1236A,121.713,29.9572,宁波市,龙赛医院,颗粒物(PM10),105,159,95,72,48,2,,95,48,108,65,11,10,1.2,0.8
2024-12-17T2300,1239A,121.633,29.7733,宁波市,钱湖水厂,细颗粒物(PM2.5),78,85,66,57,46,12,,84,66,77,36,5,5,0.8,0.8
2024-12-17T2300,1240A,121.5856,29.8635,宁波市,太古小学,细颗粒物(PM2.5),94,110,83,70,51,3,,85,47,108,68,9,9,1.3,0.8
2024-12-17T2300,1241A,121.524,29.8674,宁波市,市环境监测中心,细颗粒物(PM2.5),113,120,77,85,44,3,,88,52,96,57,9,10,1.3,1
2024-12-17T2300,2871A,121.6147,29.9017,宁波市,万里国际学校,细颗粒物(PM2.5),98,112,75,73,48,2,,79,41,100,70,8,9,0.9,0.6
2024-12-17T2300,3710A,121.5594,29.8975,宁波市,白沙活动中心,细颗粒物(PM2.5),87,96,67,64,43,6,,86,46,98,60,10,10,0.8,0.7
2024-12-17T2300,2341A,119.5388,26.6612,宁德市,宁德市监测站,,,,37,,32,68,,86,70,,23,4,4,0.4,0.6
2024-12-17T2300,3209A,119.5231,26.6562,宁德市,宁德一中,,33,29,36,23,30,63,,92,76,11,13,2,3,0.7,0.7
2024-12-17T2300,2618A,98.8601,25.8567,怒江傈僳族自治州,州监测站,,50,50,33,27,17,33,,74,62,26,12,4,4,0.4,0.3
2024-12-17T2300,2619A,98.8546,25.8417,怒江傈僳族自治州,泸水一中,,36,32,27,25,18,22,,57,40,25,18,7,7,0.6,0.5
2024-12-17T2300,1888A,101.6891,26.571,攀枝花市,弄弄坪,细颗粒物(PM2.5),57,61,58,40,39,43,,76,68,31,33,16,20,0.8,1.4
2024-12-17T2300,1889A,101.5769,26.5928,攀枝花市,河门口,颗粒物(PM10),57,63,55,35,36,24,,81,66,42,31,14,16,1.1,1.3
2024-12-17T2300,1890A,101.7169,26.585,攀枝花市,炳草岗,颗粒物(PM10),61,71,66,43,40,6,,70,48,74,45,18,23,1.3,1.2
2024-12-17T2300,1891A,101.7369,26.5008,攀枝花市,仁和,细颗粒物(PM2.5),63,67,50,45,34,33,,85,60,31,29,9,13,0.8,1
2024-12-17T2300,2835A,101.7227,26.567,攀枝花市,四十中小,细颗粒物(PM2.5),62,70,64,44,40,12,,79,53,80,46,15,17,1.5,1.5
2024-12-17T2300,1604A,122.0303,41.1489,盘锦市,开发区,,49,,27,34,20,34,,59,45,24,16,7,7,0.4,0.7
2024-12-17T2300,1605A,122.0485,41.0883,盘锦市,兴隆台,,24,24,24,14,11,48,,58,50,16,19,11,10,0.4,0.5
2024-12-17T2300,1606A,121.8297,41.1028,盘锦市,新生街道,,36,26,28,25,15,10,,58,31,52,32,11,10,0.6,0.5
2024-12-17T2300,1832A,113.3257,33.742,平顶山市,新华旅馆,细颗粒物(PM2.5),110,140,135,83,77,28,,60,32,49,57,13,12,0.7,0.8
2024-12-17T2300,1833A,113.2919,33.737,平顶山市,规划设计院,细颗粒物(PM2.5),90,111,125,67,75,40,,74,51,45,47,11,11,0.8,0.8
2024-12-17T2300,1834A,113.182,33.774,平顶山市,平顶山工学院,细颗粒物(PM2.5),119,158,134,90,71,31,,72,59,50,43,13,13,0.9,0.9
2024-12-17T2300,3204A,113.3025,33.73,平顶山市,规划局,细颗粒物(PM2.5),109,112,117,82,79,29,,71,50,55,46,12,12,0.9,0.9
2024-12-17T2300,3594A,112.8867,33.9116,平顶山市,石龙区,细颗粒物(PM2.5),119,164,171,90,77,2,,73,40,93,60,13,14,0.9,0.8
2024-12-17T2300,2656A,106.6692,35.5461,平凉市,聚贤嘉苑,细颗粒物(PM2.5),64,58,49,46,34,20,,98,61,70,42,14,14,0.8,0.6
2024-12-17T2300,2347A,114.0997,27.5002,萍乡市,武功山,,50,46,34,35,22,40,,84,64,15,12,7,12,0.3,0.2
2024-12-17T2300,2348A,113.8385,27.6434,萍乡市,中医院,细颗粒物(PM2.5),74,90,92,54,54,60,,71,61,24,36,18,23,0.7,1.2
2024-12-17T2300,2349A,113.8493,27.6253,萍乡市,市政府车库,细颗粒物(PM2.5),79,80,77,58,60,54,,71,64,30,35,33,24,0.7,1.5
2024-12-17T2300,2350A,113.8676,27.6435,萍乡市,市环保局,细颗粒物(PM2.5),85,87,91,63,61,61,,72,66,24,39,34,28,0.7,1.1
2024-12-17T2300,2351A,113.866,27.6198,萍乡市,安源区政府,细颗粒物(PM2.5),75,73,86,55,55,57,,71,66,27,36,29,22,0.9,1.6
2024-12-17T2300,2319A,119.0141,25.4325,莆田市,荔城区仓后路,,29,26,42,12,25,91,,97,85,14,20,1,2,0.6,0.6
2024-12-17T2300,2320A,119.0015,25.4553,莆田市,莆田市监测站,,29,18,36,10,20,90,,103,89,9,14,3,3,0.4,0.5
2024-12-17T2300,2321A,119.1119,25.4561,莆田市,涵江区六中,,32,32,38,19,21,93,,100,97,14,16,1,2,0.3,0.4
2024-12-17T2300,2322A,119.1013,25.3215,莆田市,秀屿区政府,,38,33,38,26,27,106,,102,100,9,18,1,3,0.4,0.5
2024-12-17T2300,2392A,115.0312,35.7636,濮阳市,环保局,,35,35,84,24,59,51,,51,50,20,51,4,10,0.5,1
2024-12-17T2300,2394A,115.0574,35.7609,濮阳市,油田运输公司,,47,47,100,31,55,44,,51,46,23,52,4,9,0.5,0.9
2024-12-17T2300,2395A,115.0866,35.7754,濮阳市,油田物探公司,颗粒物(PM10),52,54,115,31,62,40,,44,39,22,55,5,9,0.5,0.9
2024-12-17T2300,3021A,115,35.7668,濮阳市,濮水河管理处,,44,44,114,14,61,47,,47,46,19,52,6,9,0.3,0.7
2024-12-17T2300,2601A,100.98,22.7633,普洱市,市环保局,,33,33,28,11,16,26,,60,44,15,9,5,5,0.5,0.4
2024-12-17T2300,2602A,100.9817,22.8322,普洱市,普洱第二中学,,30,30,23,17,14,28,,62,48,12,12,8,8,0.6,0.6
2024-12-17T2300,2262A,131.0518,45.8751,七台河市,新一中,,33,28,26,23,20,63,,70,66,10,9,11,11,1.4,1.4
2024-12-17T2300,3345A,131.0577,45.7879,七台河市,中波台,,45,42,33,31,24,47,,57,46,22,22,12,10,0.9,0.8
2024-12-17T2300,3637A,131.0176,45.7761,七台河市,人民广场,细颗粒物(PM2.5),82,80,47,60,38,25,,55,32,51,32,8,8,0.9,0.7
2024-12-17T2300,3684A,130.8781,45.8222,七台河市,新建矿广场,细颗粒物(PM2.5),62,,35,44,41,45,,48,40,21,25,9,11,0.5,0.6
2024-12-17T2300,1779A,123.9305,47.3636,齐齐哈尔市,安居小区,细颗粒物(PM2.5),67,61,32,48,20,35,,56,44,28,18,8,4,0.8,0.5
2024-12-17T2300,1780A,123.9488,47.3386,齐齐哈尔市,中心广场,,50,47,23,35,14,44,,54,45,20,16,7,3,0.6,0.4
2024-12-17T2300,1781A,123.9483,47.3227,齐齐哈尔市,农牧车辆厂,,41,41,21,26,12,46,,56,46,16,16,9,5,0.6,0.4
2024-12-17T2300,1783A,123.945,47.2988,齐齐哈尔市,市环境监测站,细颗粒物(PM2.5),63,69,34,45,21,36,,57,34,28,23,6,4,0.7,0.5
2024-12-17T2300,3662A,123.6333,47.2075,齐齐哈尔市,富区青少年活动中心,,41,41,28,25,13,42,,49,42,17,16,13,9,0.6,0.5
2024-12-17T2300,2591A,107.9783,26.5747,黔东南苗族侗族自治州,市环境监测站,细颗粒物(PM2.5),79,70,56,58,46,48,,40,40,16,31,4,6,0.8,0.9
2024-12-17T2300,2881A,107.8908,26.5311,黔东南苗族侗族自治州,凯里学院,细颗粒物(PM2.5),62,63,44,44,34,55,,51,51,10,19,4,5,0.5,0.6
2024-12-17T2300,2593A,107.5228,26.2403,黔南布依族苗族自治州,小围寨,细颗粒物(PM2.5),67,58,45,48,37,45,,54,54,12,18,5,7,0.7,0.7
2024-12-17T2300,3538A,107.5175,26.2978,黔南布依族苗族自治州,沙坝,细颗粒物(PM2.5),62,56,56,44,43,59,,55,55,12,22,6,8,0.5,0.7
2024-12-17T2300,2589A,104.9022,25.0925,黔西南布依族苗族自治州,场坝街,,49,43,50,34,39,37,,63,33,14,15,4,4,0.5,0.5
2024-12-17T2300,2590A,104.8811,25.0992,黔西南布依族苗族自治州,坪东大道,细颗粒物(PM2.5),57,40,45,40,42,36,,58,34,13,13,4,4,0.5,0.5
2024-12-17T2300,2502A,108.6236,21.9667,钦州市,市环保站,细颗粒物(PM2.5),94,127,110,70,48,80,,107,100,31,36,14,15,0.8,0.8
2024-12-17T2300,2503A,108.6549,21.9481,钦州市,沙埠小学,细颗粒物(PM2.5),98,105,99,73,52,83,,120,108,35,44,12,14,0.9,1
2024-12-17T2300,2504A,108.5989,21.7431,钦州市,港区一小,细颗粒物(PM2.5),88,109,89,65,50,72,,108,96,39,40,16,14,1.0,0.9
2024-12-17T2300,3404A,108.5959,21.9633,钦州市,北职校,细颗粒物(PM2.5),120,119,91,91,57,80,,113,104,26,34,16,20,0.9,0.8
2024-12-17T2300,1042A,119.5134,39.8207,秦皇岛市,北戴河环保局,,24,24,18,6,12,63,,68,65,9,11,2,3,0.4,0.4
2024-12-17T2300,1043A,119.7493,40.0116,秦皇岛市,第一关,,44,44,30,20,25,3,,62,22,70,36,6,5,0.4,0.4
2024-12-17T2300,1044A,119.5897,39.9499,秦皇岛市,监测站,,40,40,32,20,17,51,,67,51,16,18,6,5,0.4,0.3
2024-12-17T2300,1046A,119.5251,39.9041,秦皇岛市,建设大厦,,35,35,27,20,18,28,,62,46,43,19,4,3,0.5,0.3
2024-12-17T2300,3132A,119.610547,39.943889,秦皇岛市,文明里,,40,40,30,21,21,54,,68,56,19,19,7,6,0.3,0.3
2024-12-17T2300,1307A,120.6659,36.2403,青岛市,仰口,,20,14,54,12,40,64,,68,54,5,19,7,11,0.5,0.7
2024-12-17T2300,1310A,120.4134,36.0658,青岛市,市南区东部子站,,22,22,93,12,49,59,,48,46,12,56,9,16,0.5,0.9
2024-12-17T2300,1311A,120.3664,36.1032,青岛市,四方区子站,,25,22,96,17,61,55,,48,45,16,60,11,19,0.6,1.2
2024-12-17T2300,1312A,120.2994,36.054,青岛市,市南区西部子站,,24,24,100,3,60,50,,52,40,19,63,12,16,0.6,1.2
2024-12-17T2300,1313A,120.4581,36.0858,青岛市,崂山区子站,,21,17,73,3,42,65,,52,49,11,46,10,15,0.5,0.9
2024-12-17T2300,1314A,120.1983,35.9608,青岛市,黄岛区子站,,22,22,92,12,56,38,,42,27,34,69,9,17,0.5,0.9
2024-12-17T2300,1315A,120.3999,36.3083,青岛市,城阳区子站,,25,22,111,17,62,52,,48,45,21,56,8,16,0.7,1.7
2024-12-17T2300,1966A,120.0405,35.8735,青岛市,黄岛区4号,,19,14,88,7,51,60,,62,48,13,50,7,16,0.4,0.9
2024-12-17T2300,3362A,120.5014,36.4034,青岛市,即墨2号,,34,34,93,21,66,37,,46,38,24,48,7,14,0.5,1
2024-12-17T2300,3642A,120.3503,36.0736,青岛市,市北区南部,,46,46,119,9,60,52,,51,43,20,64,7,17,0.5,1.1
2024-12-17T2300,3643A,120.3948,36.1805,青岛市,李沧区北部,,28,19,100,19,65,54,,50,47,16,56,11,17,0.6,1.3
2024-12-17T2300,1702A,113.0426,23.691,清远市,环保大楼,细颗粒物(PM2.5),58,43,25,41,35,29,,94,69,50,23,12,10,0.7,0.7
2024-12-17T2300,1703A,113.0208,23.7106,清远市,凤城街办,颗粒物(PM10),56,61,42,33,23,13,,93,68,70,32,12,13,1.2,0.8
2024-12-17T2300,3025A,113.0477,23.6344,清远市,技师学院,颗粒物(PM10),65,80,48,45,24,8,,98,66,78,42,10,13,1.0,0.8
2024-12-17T2300,3318A,112.9903,23.7403,清远市,清新太和,,28,28,40,14,21,64,,81,76,23,26,8,10,0.6,0.6
2024-12-17T2300,3455A,113.076,23.7198,清远市,清城东城,,39,39,38,21,22,54,,95,78,16,18,10,11,0.6,0.6
2024-12-17T2300,2661A,107.6325,35.7357,庆阳市,庆阳五中,,45,45,57,30,38,71,,75,68,17,20,12,12,0.6,0.6
2024-12-17T2300,2662A,107.6364,35.7067,庆阳市,市环保局,,44,44,56,24,31,71,,77,63,19,22,7,10,0.6,0.6
2024-12-17T2300,1916A,103.7897,25.5035,曲靖市,环境监测站,,40,40,39,20,23,28,,55,37,15,20,6,7,0.8,0.8
2024-12-17T2300,1917A,103.8,25.5364,曲靖市,烟厂办公区,,34,34,38,22,24,26,,51,37,20,18,3,5,0.6,0.6
2024-12-17T2300,3376A,103.7947,25.462,曲靖市,南苑二区,,25,21,30,17,21,35,,60,,11,11,7,5,0.7,0.8
2024-12-17T2300,3377A,103.7444,25.5261,曲靖市,曲靖师范学院,细颗粒物(PM2.5),57,48,38,40,29,19,,61,38,27,21,18,15,1.4,1.1
2024-12-17T2300,1264A,118.8692,28.9398,衢州市,环保大楼,细颗粒物(PM2.5),112,132,84,84,53,19,,46,26,68,63,7,6,1.4,0.7
