timepoint,stationcode,longitude,latitude,area,positionname,primarypollutant,aqi,pm10,pm10_24h,pm2_5,pm2_5_24h,o3,o3_24h,o3_8h,o3_8h_24h,no2,no2_24h,so2,so2_24h,co,co_24h
2024-10-03T1700,2566A,102.1879,31.914,阿坝藏族羌族自治州,州农科所,,18,18,27,6,9,43,,45,45,30,15,12,9,0,0
2024-10-03T1700,2568A,102.2502,31.8896,阿坝藏族羌族自治州,马师校,,17,,14,11,15,52,,41,41,6,6,4,4,0.3,0.3
2024-10-03T1700,3994A,102.2165,31.9024,阿坝藏族羌族自治州,马尔康中学西区,,18,14,17,12,14,45,,36,36,9,9,7,7,0.5,0.5
2024-10-03T1700,2695A,80.292,41.1694,阿克苏地区,电视台,颗粒物(PM10),102,154,140,37,39,109,,78,78,13,31,6,3,0.5,0.6
2024-10-03T1700,2696A,80.2613,41.1551,阿克苏地区,艺术中心,颗粒物(PM10),89,128,140,29,23,107,,76,76,15,38,4,7,0.4,0.7
2024-10-03T1700,2204A,105.6467,38.8363,阿拉善盟,西城区西花园,,50,50,24,18,17,138,,119,119,8,10,9,9,0.6,0.6
2024-10-03T1700,2205A,105.6985,38.8411,阿拉善盟,蒙二幼,颗粒物(PM10),54,58,25,18,10,122,,110,110,11,10,6,7,0.6,0.6
2024-10-03T1700,2206A,105.724,38.8516,阿拉善盟,环保局新楼,颗粒物(PM10),51,51,21,21,8,123,,117,110,11,8,8,9,0.4,0.5
2024-10-03T1700,2708A,88.1264,47.8517,阿勒泰地区,市站,,47,47,38,3,9,86,,70,70,20,21,8,8,0.5,0.5
2024-10-03T1700,2630A,80.1161,32.5,阿里地区,阿里监测站,,37,9,12,8,5,118,,102,102,10,19,5,9,0.3,0.4
2024-10-03T1700,3192A,80.0903,32.5028,阿里地区,阿里藏医院,,40,6,13,3,3,127,,104,104,3,9,5,6,0.2,0.3
2024-10-03T1700,2642A,109.0318,32.6537,安康市,香溪洞,,40,31,31,11,12,128,,101,101,5,7,10,9,0.3,0.3
2024-10-03T1700,2643A,109.0281,32.6939,安康市,安康市监测站,,40,32,38,16,22,127,,98,98,9,14,9,12,0.4,0.5
2024-10-03T1700,2644A,109.0072,32.6975,安康市,汉滨区检察院,,40,29,34,16,16,127,,98,98,8,14,10,9,0.3,0.4
2024-10-03T1700,2291A,117.0809,30.5177,安庆市,环科院,,40,22,30,14,14,126,,109,109,15,15,9,10,0.3,0.5
2024-10-03T1700,2292A,117.0331,30.5119,安庆市,马山宾馆,,41,30,31,14,14,130,,114,114,18,19,10,12,0.4,0.3
2024-10-03T1700,2294A,116.9896,30.6145,安庆市,安庆大学,,40,20,27,10,10,127,,117,117,9,12,10,10,0.6,0.4
2024-10-03T1700,3173A,117.0598,30.5351,安庆市,市人大,,40,34,34,13,15,126,,111,111,14,16,9,11,0.6,0.7
2024-10-03T1700,3123A,105.9408,26.2431,安顺市,凤凰山,,40,31,20,19,14,128,,101,101,6,8,10,9,0.3,0.4
2024-10-03T1700,3124A,105.9439,26.2564,安顺市,金钟山,,41,29,19,22,15,130,,102,102,9,7,12,11,0.7,0.7
2024-10-03T1700,3125A,105.8983,26.2481,安顺市,娄家坡,,40,34,23,19,13,126,,103,103,8,8,10,11,0.5,0.5
2024-10-03T1700,1819A,114.3551,36.1017,安阳市,红庙街,,42,31,46,13,23,132,,115,115,4,20,2,3,0.4,0.6
2024-10-03T1700,1820A,114.361,36.0681,安阳市,银杏小区,,41,27,47,6,6,130,,119,119,6,24,2,4,0.1,0.5
2024-10-03T1700,3141A,114.3922,36.0878,安阳市,信访局,,40,35,51,16,25,128,,112,112,8,29,5,6,0.3,0.5
2024-10-03T1700,3669A,114.4705,36.0637,安阳市,左辅环卫站,,44,44,58,14,29,132,,116,116,10,40,5,5,0.5,0.5
2024-10-03T1700,3703A,114.2917,36.0949,安阳市,安钢职工学校,,40,27,51,13,27,125,,109,109,6,22,8,11,0.2,0.4
2024-10-03T1700,1748A,123.044,41.1196,鞍山市,深沟寺,,27,23,21,12,9,86,,88,88,13,11,8,6,0.5,0.5
2024-10-03T1700,1749A,123.011,41.0931,鞍山市,太阳城,,33,20,16,10,9,103,,94,94,16,13,12,9,0.5,0.4
2024-10-03T1700,1750A,123.0485,41.1442,鞍山市,太平,,31,31,25,15,11,85,,87,87,28,23,16,12,1.0,0.8
2024-10-03T1700,1751A,122.9642,41.0971,鞍山市,铁西三道街,,31,31,43,16,16,98,,90,90,19,29,8,8,0.6,0.7
2024-10-03T1700,1752A,122.9341,41.0833,鞍山市,铁西工业园区,,34,30,35,15,16,106,,96,96,14,28,11,10,0.4,0.5
2024-10-03T1700,1753A,123.022,41.0821,鞍山市,明达新区,,29,22,18,13,11,90,,86,86,17,14,10,8,0.6,0.9
2024-10-03T1700,2195A,107.4212,40.761,巴彦淖尔市,附二中,,45,41,42,18,20,142,,117,117,15,23,7,7,0.4,0.4
2024-10-03T1700,2196A,107.37,40.7372,巴彦淖尔市,市环保大楼,,44,43,35,14,15,140,,118,118,11,13,4,3,0.5,0.5
2024-10-03T1700,1956A,86.1472,41.7538,巴音郭楞蒙古自治州,孔雀公园,颗粒物(PM10),93,136,140,31,27,94,,65,65,4,27,6,7,0.2,0.4
2024-10-03T1700,1957A,86.1972,41.7166,巴音郭楞蒙古自治州,棉纺厂,颗粒物(PM10),104,157,180,37,32,97,,76,76,5,20,5,6,0.2,0.3
2024-10-03T1700,1958A,86.2357,41.7173,巴音郭楞蒙古自治州,经济开发区,颗粒物(PM10),94,137,148,32,34,94,,75,75,3,14,7,8,0.3,0.3
2024-10-03T1700,2914A,106.7677,31.8794,巴中市,苏山坪,,48,45,33,33,23,63,,64,57,11,13,5,4,0.3,0.3
2024-10-03T1700,3182A,106.7656,31.8545,巴中市,丽阳花园,,43,42,36,30,24,62,,47,47,15,22,5,5,0.5,0.5
2024-10-03T1700,3183A,106.7418,31.8654,巴中市,圣泉水务公司,,45,44,31,31,20,62,,46,46,14,19,4,4,0.4,0.4
2024-10-03T1700,3616A,106.7616,31.8344,巴中市,市中心医院,,46,45,43,32,27,60,,46,46,16,23,5,5,0.5,0.5
2024-10-03T1700,2235A,122.7911,45.6077,白城市,洮北区环保局,,30,23,23,9,7,93,,84,84,6,8,2,2,0.4,0.4
2024-10-03T1700,2236A,122.8738,45.5725,白城市,市环保局,,27,19,18,3,6,85,,82,82,10,12,4,9,0.3,0.3
2024-10-03T1700,2231A,126.4219,41.9171,白山市,喜丰,,28,12,46,3,15,89,,77,77,9,19,6,8,0.5,0.5
2024-10-03T1700,2232A,126.4077,41.9419,白山市,环保局,,21,19,38,13,15,66,,70,70,23,17,9,9,0.7,0.7
2024-10-03T1700,2647A,104.1724,36.5446,白银市,第三小学,,24,24,54,13,24,70,,76,73,9,34,18,111,0.3,0.7
2024-10-03T1700,2648A,104.1465,36.5482,白银市,动力公司,,32,32,37,13,20,71,,73,73,8,23,37,61,0.3,0.8
2024-10-03T1700,2512A,106.6103,23.9011,百色市,市监测站,,36,30,20,15,8,115,,93,93,9,13,7,6,0.5,0.6
2024-10-03T1700,2513A,106.6538,23.8859,百色市,市中心血站,,38,38,29,10,10,117,,88,88,10,19,12,5,0.5,0.5
2024-10-03T1700,3406A,106.6085,23.8798,百色市,祈福高中,,35,33,34,12,9,110,,82,82,11,18,4,4,0.4,0.4
2024-10-03T1700,2270A,117.396,32.939,蚌埠市,工人疗养院,,43,35,46,14,21,136,,119,119,10,16,6,7,0.4,0.3
2024-10-03T1700,2271A,117.3605,32.9427,蚌埠市,百货大楼,,40,34,43,12,19,128,,116,116,21,21,6,6,0.4,0.4
2024-10-03T1700,2273A,117.4185,32.8911,蚌埠市,蚌埠学院,,43,29,38,16,21,136,,117,117,11,26,7,11,0.3,0.3
2024-10-03T1700,2274A,117.3533,32.9673,蚌埠市,淮上区政府,,42,31,45,17,23,134,,98,98,9,21,5,6,0.3,0.2
2024-10-03T1700,2275A,117.3145,32.8977,蚌埠市,高新区,,44,34,42,15,21,138,,121,121,14,28,7,9,0.3,0.3
2024-10-03T1700,3715A,117.3092,32.9314,蚌埠市,蚌埠田家炳中学,,43,34,54,17,25,135,,117,117,14,29,6,7,0.3,0.3
2024-10-03T1700,1585A,109.8756,40.6532,包头市,市环境监测站,,39,34,43,13,14,124,,93,93,16,51,6,12,0.4,0.8
2024-10-03T1700,1587A,109.9991,40.5842,包头市,包头八中,,39,39,56,8,20,122,,90,90,18,50,3,11,0.5,0.9
2024-10-03T1700,1588A,109.8538,40.6821,包头市,青山宾馆,,40,34,37,8,17,128,,94,94,10,48,6,12,0.4,0.8
2024-10-03T1700,1589A,109.8642,40.6288,包头市,惠龙物流,,40,35,45,9,17,128,,94,94,12,49,7,15,0.3,0.7
2024-10-03T1700,1590A,110.0377,40.5546,包头市,东河鸿龙湾,,41,24,45,3,14,129,,97,97,11,46,6,19,0.4,0.8
2024-10-03T1700,3283A,109.9154,40.5685,包头市,滨河大厦,,40,23,36,12,13,127,,95,95,12,49,8,15,0.4,0.6
2024-10-03T1700,3419A,109.9447,40.6261,包头市,包头市委党校,,40,36,47,3,16,127,,95,95,14,50,6,14,0.3,0.7
2024-10-03T1700,3683A,109.8331,40.6576,包头市,昆区政府,,39,35,43,9,19,123,,92,92,16,49,5,13,0.3,0.7
2024-10-03T1700,1930A,107.185,34.3063,宝鸡市,庙沟村,颗粒物(PM10),57,63,40,33,23,133,,104,104,18,15,9,7,0.7,0.5
2024-10-03T1700,1931A,107.0708,34.3017,宝鸡市,竹园沟,颗粒物(PM10),60,70,36,41,26,146,,114,114,20,15,10,8,0.5,0.4
2024-10-03T1700,1932A,107.1906,34.3672,宝鸡市,三陆医院,细颗粒物(PM2.5),65,70,64,47,37,142,,102,102,30,37,10,10,0.4,0.4
2024-10-03T1700,1933A,107.1431,34.3547,宝鸡市,监测站,颗粒物(PM10),65,80,50,44,30,148,,107,107,22,20,10,7,0.7,0.6
2024-10-03T1700,1934A,107.1186,34.3739,宝鸡市,技工学校,细颗粒物(PM2.5),63,65,49,45,30,143,,107,107,28,22,10,7,0.6,0.5
2024-10-03T1700,1935A,107.3906,34.3528,宝鸡市,陈仓区环保局家属楼,颗粒物(PM10),60,70,54,39,30,155,,112,112,22,37,12,12,0.6,0.6
2024-10-03T1700,1936A,107.2058,34.3497,宝鸡市,文理学院,颗粒物(PM10),59,67,52,40,26,152,,110,110,20,23,12,10,0.6,0.5
2024-10-03T1700,1937A,107.2386,34.3622,宝鸡市,三迪小学,细颗粒物(PM2.5),62,66,56,44,33,147,,108,108,30,35,12,10,0.7,0.6
2024-10-03T1700,1051A,115.493,38.8632,保定市,游泳馆,,43,39,54,12,27,136,,94,94,1,31,5,3,0.5,0.4
2024-10-03T1700,1052A,115.5213,38.8959,保定市,华电二区,,42,29,46,18,28,133,,84,84,11,30,5,3,0.1,0.1
2024-10-03T1700,1053A,115.4713,38.9108,保定市,接待中心,,42,34,48,9,23,134,,86,86,10,29,6,4,0.3,0.3
2024-10-03T1700,1054A,115.4612,38.8416,保定市,地表水厂,,42,32,58,17,34,133,,88,88,10,36,5,3,0.0,0.1
2024-10-03T1700,3581A,115.31981,38.95208,保定市,满城区生态环境分局,,44,41,43,17,15,138,,92,92,15,28,7,4,0.4,0.4
2024-10-03T1700,3582A,115.47694,38.76408,保定市,清苑区第二中学,,43,40,56,14,30,136,,90,90,5,32,5,2,0.6,0.5
2024-10-03T1700,3583A,115.62909,39.02311,保定市,徐水物探局,,40,29,41,9,18,127,,84,84,13,36,6,4,0.4,0.4
2024-10-03T1700,4004A,115.4202,38.8656,保定市,双鹰农机,,45,44,61,16,31,142,,101,101,14,37,5,3,0.4,0.4
2024-10-03T1700,4034A,115.5150,38.8590,保定市,植保所站,,45,32,53,22,30,141,,90,90,7,33,4,4,0.4,0.5
2024-10-03T1700,2594A,99.1678,25.1081,保山市,市环境监测站,,20,20,23,14,13,56,,42,42,7,10,5,6,0.4,0.5
2024-10-03T1700,2595A,99.1711,25.1328,保山市,市环保局,,21,21,24,7,7,59,,46,46,6,7,7,7,0.5,0.6
2024-10-03T1700,1867A,109.1436,21.4086,北海市,海滩公园,颗粒物(PM10),54,57,46,22,18,149,,128,128,8,8,8,8,0.6,0.4
2024-10-03T1700,1868A,109.0981,21.4661,北海市,新市环保局,,50,50,43,24,20,156,,132,132,9,8,8,8,0.6,0.6
2024-10-03T1700,1869A,109.1778,21.5233,北海市,北海工业园,颗粒物(PM10),51,51,45,24,21,154,,133,133,9,9,8,8,0.7,0.6
2024-10-03T1700,3400A,109.1911,21.4415,北海市,龙潭自来水厂,,46,45,40,21,20,147,,129,129,8,8,9,8,0.5,0.5
2024-10-03T1700,1001A,116.3621,39.8784,北京市,万寿西宫,,43,43,28,20,13,101,,72,72,12,23,3,1,0.4,0.4
2024-10-03T1700,1002A,116.2202,40.2915,北京市,定陵,,29,29,15,13,6,90,,58,58,13,10,2,2,0.3,0.2
2024-10-03T1700,1003A,116.4174,39.9289,北京市,东四,,38,38,27,16,12,102,,77,77,15,24,3,2,0.4,0.4
2024-10-03T1700,1004A,116.4072,39.8863,北京市,天坛,,32,32,22,16,14,98,,74,74,15,22,1,2,0.4,0.3
2024-10-03T1700,1005A,116.462,39.9365,北京市,农展馆,,34,34,26,16,11,95,,72,72,18,26,3,2,0.3,0.4
2024-10-03T1700,1006A,116.3392,39.9295,北京市,官园,,45,45,29,22,13,95,,73,73,11,25,2,3,0.4,0.5
2024-10-03T1700,1007A,116.2878,39.9611,北京市,海淀万柳,,36,36,27,16,11,94,,69,69,18,32,4,3,0.3,0.3
2024-10-03T1700,1008A,116.6636,40.135,北京市,顺义新城,,34,34,22,13,8,88,,67,67,19,23,1,3,0.3,0.2
2024-10-03T1700,1009A,116.6275,40.3275,北京市,怀柔镇,,32,26,15,14,9,102,,76,76,11,9,1,3,0.3,0.3
2024-10-03T1700,1010A,116.2296,40.217,北京市,昌平镇,,35,35,20,13,8,86,,56,56,17,17,4,4,0.3,0.3
2024-10-03T1700,1011A,116.3966,39.9821,北京市,奥体中心,,36,36,27,19,13,85,,62,62,22,37,4,2,0.4,0.4
2024-10-03T1700,1012A,116.184,39.9136,北京市,古城,颗粒物(PM10),51,52,35,23,14,93,,66,66,19,34,5,3,0.5,0.4
2024-10-03T1700,3281A,115.9718,40.4529,北京市,延庆夏都,,30,30,34,14,11,89,,62,62,15,17,3,3,0.3,0.3
2024-10-03T1700,3417A,117.0709,40.1465,北京市,平谷新城,,28,23,21,12,12,89,,72,72,15,12,1,3,0.3,0.2
2024-10-03T1700,3418A,116.8336,40.4095,北京市,密云新城,,29,29,19,13,7,91,,76,76,18,9,1,3,0.3,0.2
2024-10-03T1700,3671A,116.088,39.9726,北京市,门头沟三家店,,49,49,24,20,8,103,,77,77,8,11,4,2,0.3,0.1
2024-10-03T1700,3672A,116.1541,39.8204,北京市,丰台云岗,,49,49,31,20,11,92,,66,66,15,21,4,3,0.3,0.2
2024-10-03T1700,3673A,116.6804,39.9081,北京市,通州东关,,31,30,37,13,14,98,,63,63,17,28,2,2,0.3,0.3
2024-10-03T1700,3674A,115.9577,39.7603,北京市,房山燕山,,50,50,21,21,10,91,,82,82,14,10,2,1,0.3,0.3
2024-10-03T1700,3675A,116.4672,39.7733,北京市,大兴旧宫,,35,34,28,18,14,110,,73,73,11,25,1,2,0.3,0.3
2024-10-03T1700,3694A,115.986,40.4563,北京市,延庆石河营,,27,26,22,12,11,84,,62,62,16,17,3,3,0.3,0.2
2024-10-03T1700,3695A,116.6151,40.3053,北京市,怀柔新城,,33,33,16,20,12,98,,72,72,13,9,3,3,0.2,0.2
2024-10-03T1700,3696A,116.2545,39.8768,北京市,丰台小屯,,39,39,36,19,14,86,,64,64,18,37,2,1,0.4,0.4
2024-10-03T1700,3697A,116.84,40.3844,北京市,密云镇,,29,24,20,15,10,91,,72,72,15,23,3,3,0.2,0.3
2024-10-03T1700,1761A,123.8275,41.3064,本溪市,大峪,,27,20,31,13,17,85,,76,76,21,23,14,11,1.2,1.1
2024-10-03T1700,1762A,123.7567,41.3325,本溪市,溪湖,,29,26,49,8,20,91,,72,72,13,27,11,12,0.4,1.2
2024-10-03T1700,1763A,123.7169,41.3094,本溪市,彩屯,,25,16,45,10,28,80,,72,72,20,33,11,16,0.5,1.7
2024-10-03T1700,1764A,123.7669,41.2864,本溪市,东明,,30,30,43,6,16,92,,80,80,18,33,9,7,0.9,1.1
2024-10-03T1700,1765A,123.7992,41.2664,本溪市,新立屯,,39,39,20,7,9,44,,73,73,43,27,6,6,0.7,0.6
2024-10-03T1700,1766A,123.8142,41.3472,本溪市,威宁,,46,46,50,10,18,73,,73,73,34,26,13,10,1.0,0.8
2024-10-03T1700,2587A,105.2864,27.3125,毕节市,八中,,29,25,20,18,15,91,,81,81,12,10,10,9,0.3,0.3
2024-10-03T1700,2588A,105.31,27.2944,毕节市,师专,,30,30,22,15,13,94,,82,82,11,8,14,11,0.3,0.4
2024-10-03T1700,3537A,105.3631,27.3533,毕节市,长征村,,32,23,21,16,15,100,,91,91,6,6,8,7,0.3,0.4
2024-10-03T1700,1629A,118.0018,37.3617,滨州市,第二水厂,,44,36,40,27,20,140,,105,105,12,37,6,6,0.0,0.2
2024-10-03T1700,1630A,117.9776,37.393,滨州市,北中新校,,44,36,43,17,22,140,,106,106,15,27,9,19,0.5,0.7
2024-10-03T1700,3514A,117.9378,37.3956,滨州市,中海酒店,,45,34,50,22,30,143,,111,111,11,39,12,16,0.4,0.7
2024-10-03T1700,3515A,117.9378,37.3553,滨州市,开发区一中,,47,46,42,31,22,149,,109,109,14,45,8,9,0.8,0.7
2024-10-03T1700,3516A,118.0917,37.694,滨州市,金海六路,,37,19,33,7,15,117,,102,102,10,36,3,5,0.2,0.3
2024-10-03T1700,4028A,117.9956,37.3753,滨州市,滨州市西街道办事处,,,,37,,26,147,,109,109,,35,8,9,,0.5
2024-10-03T1700,2311A,115.8072,33.8399,亳州市,污水处理厂,,41,29,54,10,29,130,,110,110,11,22,6,11,0.2,0.3
2024-10-03T1700,2312A,115.7789,33.8518,亳州市,三国揽胜宫,,39,28,46,19,33,122,,104,104,9,16,5,10,0.4,0.4
2024-10-03T1700,3332A,115.7633,33.8034,亳州市,亳州学院,,40,34,48,13,19,127,,113,113,10,15,4,7,0.3,0.3
2024-10-03T1700,2693A,82.0485,44.8556,博尔塔拉蒙古自治州,市党校,颗粒物(PM10),51,51,44,20,16,104,,68,68,9,10,6,9,0.4,0.3
2024-10-03T1700,2694A,82.0806,44.8969,博尔塔拉蒙古自治州,市环保局,,40,40,64,21,22,106,,74,74,11,21,9,7,0.4,0.6
2024-10-03T1700,1071A,116.8842,38.2991,沧州市,沧县城建局,,37,25,36,13,17,118,,102,102,15,35,1,3,0.3,0.3
2024-10-03T1700,1072A,116.8584,38.3254,沧州市,电视转播站,,41,23,29,12,14,130,,113,113,12,31,10,8,0.4,0.4
2024-10-03T1700,1073A,116.8709,38.3228,沧州市,市环保局,,40,31,39,21,23,125,,109,109,15,34,2,3,0.3,0.3
2024-10-03T1700,3324A,116.8136,38.3004,沧州市,河北水利电力学院,,40,,35,24,22,128,,110,110,14,43,4,4,0.3,0.4
2024-10-03T1700,2622A,97.1806,31.1273,昌都市,昌都监测站,,24,19,9,3,5,76,,79,79,3,8,7,8,0.5,0.5
2024-10-03T1700,3719A,97.1714,31.1406,昌都市,昌都会议中心,,25,18,9,6,5,80,,86,86,5,5,8,8,0.4,0.4
2024-10-03T1700,2690A,88.1236,43.8886,昌吉回族自治州,天山天池,,38,37,14,17,6,120,,99,99,8,3,12,9,0.6,0.4
2024-10-03T1700,2692A,87.2717,44.0297,昌吉回族自治州,新区政务中心,颗粒物(PM10),55,59,75,20,33,130,,84,84,13,41,7,7,0.6,0.9
2024-10-03T1700,3613A,87.3095,44.0142,昌吉回族自治州,亚心广场,颗粒物(PM10),64,78,101,19,31,129,,84,84,17,53,6,7,0.6,0.9
2024-10-03T1700,1119A,125.3325,43.9166,长春市,食品厂,,27,27,33,10,13,83,,80,80,19,24,6,6,0.2,0.2
2024-10-03T1700,1120A,125.2863,43.9027,长春市,客车厂,,28,23,27,19,12,85,,78,78,14,21,7,8,0.3,0.3
2024-10-03T1700,1121A,125.2841,43.8463,长春市,邮电学院,,32,,26,22,10,89,,84,84,13,20,7,8,0.3,0.3
2024-10-03T1700,1122A,125.3716,43.8772,长春市,劳动公园,,30,20,31,6,11,96,,89,89,12,21,7,7,0.2,0.2
2024-10-03T1700,1123A,125.3297,43.8805,长春市,园林处,,29,23,26,9,10,90,,84,84,14,16,6,7,0.3,0.2
2024-10-03T1700,1124A,125.4605,43.79,长春市,净月潭,,28,15,20,6,9,87,,87,87,10,10,6,7,0.2,0.3
2024-10-03T1700,1126A,125.3863,43.8447,长春市,经开区环卫处,,26,16,30,6,12,82,,80,80,16,26,9,9,0.4,0.4
2024-10-03T1700,1127A,125.245,43.7783,长春市,高新区管委会,,28,17,29,3,12,88,,86,86,11,22,7,7,0.3,0.4
2024-10-03T1700,1128A,125.1761,43.8325,长春市,岱山公园,,28,18,31,7,13,88,,82,82,8,28,5,6,0.3,0.4
2024-10-03T1700,1335A,113.0833,28.2325,长沙市,经开区环保局,颗粒物(PM10),62,73,68,29,21,138,,133,133,20,16,7,6,0.4,0.3
2024-10-03T1700,1336A,112.8872,28.2189,长沙市,高开区环保局,颗粒物(PM10),59,68,74,26,26,140,,136,136,7,10,6,7,0.3,0.3
2024-10-03T1700,1337A,113.0792,28.2053,长沙市,马坡岭,颗粒物(PM10),63,75,70,30,23,142,,136,136,12,10,7,7,0.6,0.5
2024-10-03T1700,1338A,112.9394,28.19,长沙市,湖南师范大学,颗粒物(PM10),61,72,80,28,24,145,,141,141,10,14,8,8,0.5,0.3
2024-10-03T1700,1339A,113.0178,28.1322,长沙市,雨花区环保局,颗粒物(PM10),60,70,67,25,22,135,,133,133,16,11,8,8,0.5,0.4
2024-10-03T1700,1340A,112.9792,28.2597,长沙市,伍家岭,颗粒物(PM10),60,70,71,27,22,136,,130,130,12,15,5,6,0.6,0.6
2024-10-03T1700,1341A,113.0014,28.1944,长沙市,火车新站,颗粒物(PM10),63,75,70,27,24,134,,128,128,15,15,6,7,0.4,0.3
2024-10-03T1700,1342A,112.9844,28.1178,长沙市,天心区环保局,颗粒物(PM10),61,71,70,29,25,131,,129,129,19,16,7,6,0.4,0.4
2024-10-03T1700,1343A,112.8908,28.1308,长沙市,湖南中医药大学,颗粒物(PM10),61,72,78,28,27,145,,143,143,6,7,8,8,0.8,0.7
2024-10-03T1700,1344A,112.9581,28.3611,长沙市,沙坪,颗粒物(PM10),53,55,54,29,28,141,,134,134,7,6,8,9,0.5,0.5
2024-10-03T1700,1727A,113.1147,36.1547,长治市,清华站,,42,25,43,17,16,133,,102,102,10,28,9,9,0.6,0.7
2024-10-03T1700,1728A,113.1031,36.1989,长治市,监测站,,41,24,40,14,18,130,,100,100,12,27,10,12,0.5,0.7
2024-10-03T1700,1730A,113.0886,36.2125,长治市,审计局,,40,29,38,9,14,128,,100,100,9,17,7,9,0.2,0.4
2024-10-03T1700,1731A,113.0844,36.1856,长治市,长治八中,,42,32,47,6,15,132,,102,102,11,25,8,9,0.6,0.7
2024-10-03T1700,2845A,113.1569,36.1911,长治市,德盛苑,,44,22,35,14,16,138,,113,113,10,17,5,7,0.6,1.3
2024-10-03T1700,3568A,113.06,36.0464,长治市,向阳小学,,47,47,53,20,23,134,,110,110,14,20,7,6,0.4,0.4
2024-10-03T1700,3569A,112.8792,36.3144,长治市,屯留一中,,44,44,42,18,19,140,,118,118,9,24,10,12,1.0,1
2024-10-03T1700,3570A,113.235,36.3489,长治市,潞城四中,,45,32,58,20,30,142,,118,118,8,29,6,10,0.2,0.9
2024-10-03T1700,1854A,111.6975,28.9703,常德市,市二中,,50,50,80,34,41,131,,120,120,14,14,10,12,0.5,0.6
2024-10-03T1700,3138A,111.7153,29.0289,常德市,武陵区永安,颗粒物(PM10),55,60,82,33,39,128,,117,117,16,15,12,13,0.7,0.7
2024-10-03T1700,3139A,111.6892,28.9881,常德市,鼎城区玉霞,颗粒物(PM10),52,53,85,29,38,135,,127,127,13,14,12,14,0.5,0.6
2024-10-03T1700,3140A,111.6625,29.0531,常德市,武陵区长庚,颗粒物(PM10),57,64,86,35,41,132,,121,121,15,17,10,13,0.4,0.5
2024-10-03T1700,1196A,119.9633,31.762,常州市,市监测站,,37,32,21,13,11,117,,112,112,6,9,8,9,0.3,0.3
2024-10-03T1700,1200A,119.9468,31.7069,常州市,武进监测站,,38,20,22,8,10,119,,112,112,3,8,7,9,0.6,0.5
2024-10-03T1700,1201A,119.9255,31.9087,常州市,安家,,37,22,22,11,11,118,,114,114,14,22,8,9,0.3,0.2
2024-10-03T1700,3002A,119.9805,31.8174,常州市,行政中心,,35,25,22,13,10,111,,108,108,7,13,4,5,0.1,0.3
2024-10-03T1700,3003A,120.0522,31.7748,常州市,经开区,,37,21,20,10,10,117,,115,115,12,16,7,7,0.1,0.1
2024-10-03T1700,3010A,119.9025,31.7964,常州市,钟楼,,36,31,22,13,13,115,,108,108,12,17,9,10,0.3,0.3
2024-10-03T1700,3429A,119.8598,31.7066,常州市,武进经发区,,36,24,28,11,13,115,,109,109,12,18,6,8,0.3,0.2
2024-10-03T1700,3430A,119.5826,31.7245,常州市,金坛城区,,42,27,25,14,12,132,,119,119,7,12,8,9,0.5,0.5
2024-10-03T1700,2220A,120.4318,41.5881,朝阳市,西梁,,,,59,5,23,92,,73,73,8,23,5,7,0.5,0.9
2024-10-03T1700,2221A,120.4521,41.5646,朝阳市,河畔小区,,29,20,32,11,16,92,,73,73,11,17,7,8,0.3,0.7
2024-10-03T1700,2222A,120.4176,41.5648,朝阳市,八里堡,,30,21,44,12,22,93,,76,76,13,30,8,10,0.5,0.8
2024-10-03T1700,2223A,120.3806,41.5969,朝阳市,农业园区,,31,13,27,7,14,97,,83,83,5,22,7,8,0.4,0.6
2024-10-03T1700,1705A,116.6367,23.6719,潮州市,西园路,,27,27,22,17,12,71,,74,70,13,9,2,3,0.4,0.4
2024-10-03T1700,3026A,116.6183,23.6608,潮州市,市政府,,29,29,21,12,9,86,,83,83,8,7,5,5,0.3,0.3
2024-10-03T1700,4036A,116.6461,23.6761,潮州市,金山,,33,,23,23,9,81,,78,78,9,7,7,7,0.6,0.5
2024-10-03T1700,2472A,113.0073,25.9061,郴州市,马头岭,颗粒物(PM10),51,52,62,8,19,134,,123,123,7,14,9,11,0.7,0.8
2024-10-03T1700,2473A,113.0116,25.8226,郴州市,市职中,,44,38,45,19,23,138,,125,125,11,16,5,7,0.4,0.4
2024-10-03T1700,2474A,113.0161,25.8001,郴州市,兴隆步行街,,45,40,51,20,23,144,,131,131,11,15,6,8,0.2,0.2
2024-10-03T1700,2475A,113.0383,25.8071,郴州市,市审计局,,44,38,48,14,23,140,,128,128,9,14,5,10,0.3,0.4
2024-10-03T1700,2476A,113.0348,25.7759,郴州市,市环保局,,42,38,54,17,23,132,,120,120,6,11,7,9,0.3,0.4
2024-10-03T1700,1431A,103.9728,30.7236,成都市,金泉两河,,22,14,25,3,11,70,,73,73,6,11,3,3,0.2,0.3
2024-10-03T1700,1432A,104.176,30.6872,成都市,十里店,,22,16,21,3,16,69,,73,73,7,12,1,2,0.5,0.5
2024-10-03T1700,1433A,104.079,30.5706,成都市,三瓦窑,,23,17,29,14,15,71,,75,75,11,18,2,3,0.4,0.5
2024-10-03T1700,1434A,104.1114,30.63,成都市,沙河铺,,22,18,31,12,16,70,,77,77,14,16,1,2,0.4,0.5
2024-10-03T1700,1437A,104.0786,30.6531,成都市,君平街,,21,17,22,7,13,67,,76,76,17,15,3,3,0.4,0.4
2024-10-03T1700,2880A,104.0239,30.65639,成都市,大石西路,,22,20,27,6,12,69,,75,75,9,10,3,3,0.2,0.3
2024-10-03T1700,3136A,104.2725,30.5589,成都市,龙泉驿区区政府,,23,6,19,3,12,71,,73,73,11,16,1,2,0.3,0.4
2024-10-03T1700,3357A,104.0106,30.6931,成都市,金博路,,20,10,21,3,8,64,,71,71,10,12,1,2,0.4,0.4
2024-10-03T1700,3359A,104.0578,30.5225,成都市,华阳,,21,17,26,14,18,65,,67,67,12,13,2,3,0.4,0.5
2024-10-03T1700,3487A,104.2394,30.5319,成都市,车城东七路,,24,7,28,3,17,75,,76,76,9,13,1,2,0.4,0.4
2024-10-03T1700,3488A,104.3853,30.7453,成都市,青白江技师分院,,26,8,20,3,10,83,,84,84,4,12,1,2,0.5,0.6
2024-10-03T1700,3489A,104.0789,30.4072,成都市,科学城,,28,15,28,9,21,87,,80,80,10,10,3,4,0.4,0.4
2024-10-03T1700,4011A,103.8506,30.6947,成都市,光华大道三段,,25,13,28,9,16,77,,78,78,6,9,3,3,0.4,0.5
2024-10-03T1700,1062A,117.9531,40.9081,承德市,铁路,,23,14,18,9,7,71,,61,61,33,23,10,10,0.3,0.4
2024-10-03T1700,1063A,117.9392,40.9763,承德市,中国银行,,31,20,23,9,8,99,,70,70,15,21,21,8,0.5,0.5
2024-10-03T1700,1064A,117.9503,40.928,承德市,开发区,,28,21,30,8,13,88,,64,64,14,21,11,8,0.3,0.4
2024-10-03T1700,1065A,117.8051,40.9655,承德市,文化中心,,32,23,33,6,7,101,,67,67,14,26,68,14,0.3,0.5
2024-10-03T1700,1066A,117.9268,41.0026,承德市,离宫,,28,,2,12,20,88,,59,59,2,13,11,7,0.4,0.5
2024-10-03T1700,2314A,117.47,30.6618,池州市,池州学院,,36,23,33,11,15,114,,100,100,11,20,7,11,0.2,0.3
2024-10-03T1700,3237A,117.4918,30.6617,池州市,展览馆,,36,21,32,9,14,113,,101,101,7,17,6,9,0.2,0.4
2024-10-03T1700,3333A,117.5627,30.695,池州市,第八中学,,35,21,36,11,16,111,,98,98,9,16,4,6,0.2,0.5
2024-10-03T1700,3334A,117.5038,30.6243,池州市,第十二中学,,36,24,34,10,13,114,,105,105,11,17,6,7,0.2,0.4
2024-10-03T1700,1744A,118.9233,42.2816,赤峰市,松山一中,,31,10,25,3,7,98,,84,84,15,28,9,9,0.3,0.4
2024-10-03T1700,1745A,118.9576,42.2728,赤峰市,哈达街,,30,17,22,3,10,96,,85,85,13,17,7,6,0.3,0.4
2024-10-03T1700,1746A,118.8788,42.2554,赤峰市,天义路,,30,8,15,6,11,96,,84,84,13,20,7,7,0.2,0.3
2024-10-03T1700,3058A,119.2658,42.0353,赤峰市,银河街,,31,12,50,6,24,97,,81,81,12,25,12,17,0.2,0.5
2024-10-03T1700,3286A,118.9359,42.3147,赤峰市,桥北物流园区,,35,,20,24,12,90,,78,78,22,28,6,9,0.4,0.5
2024-10-03T1700,2521A,107.3476,22.4136,崇左市,市环保局江州分局,,38,34,31,12,12,120,,102,102,5,7,5,4,0.5,0.6
2024-10-03T1700,2522A,107.3702,22.3707,崇左市,城南新区,,39,26,26,3,8,122,,104,104,6,11,6,4,0.7,0.6
2024-10-03T1700,2298A,118.3093,32.3153,滁州市,老年大学,,43,25,24,13,13,136,,125,125,11,13,3,2,0.3,0.3
2024-10-03T1700,2299A,118.3244,32.2786,滁州市,人大宾馆,,41,32,27,12,13,130,,121,121,14,16,6,7,0.3,0.3
2024-10-03T1700,3207A,118.3118,32.3038,滁州市,市政府原办公楼,,41,22,23,13,15,131,,121,121,11,14,6,6,0.3,0.3
2024-10-03T1700,3331A,118.3267,32.2634,滁州市,图书馆,,42,24,27,8,11,132,,123,123,9,13,4,5,0.3,0.3
2024-10-03T1700,2605A,101.5482,25.0441,楚雄彝族自治州,州环境监测站,,17,11,21,8,19,54,,52,52,4,9,6,9,0.6,0.7
2024-10-03T1700,2606A,101.538,25.0492,楚雄彝族自治州,市经济开发区,,16,12,23,8,19,51,,50,50,6,11,5,7,0.7,0.8
2024-10-03T1700,2548A,107.5277,31.2827,达州市,达州职业技术学院,,31,31,38,14,18,75,,53,53,14,29,5,7,0.6,0.6
2024-10-03T1700,2549A,107.5086,31.2186,达州市,市环境监测站,,38,38,49,14,15,76,,54,54,23,28,6,6,0.5,0.4
2024-10-03T1700,2550A,107.4988,31.2132,达州市,凤凰小区,,41,41,37,14,16,81,,62,62,23,26,11,8,0.7,0.4
2024-10-03T1700,2551A,107.5082,31.1986,达州市,达县机关宾馆,,41,41,41,25,18,77,,58,58,25,36,6,6,0.5,0.4
2024-10-03T1700,2552A,107.4644,31.2124,达州市,市政中心,,47,47,43,19,18,73,,58,58,29,30,10,6,0.8,0.6
2024-10-03T1700,2614A,100.1542,25.7054,大理白族自治州,大理市环境监测站,,18,18,17,8,10,36,,43,43,15,14,7,7,0.7,0.8
2024-10-03T1700,2615A,100.2171,25.5811,大理白族自治州,大理古城,,25,25,18,15,12,58,,48,48,9,10,7,7,0.5,0.6
2024-10-03T1700,1109A,121.612,38.9741,大连市,甘井子,,38,17,17,7,12,120,,108,108,12,26,10,9,0.9,0.9
2024-10-03T1700,1110A,121.565,38.9511,大连市,周水子,,34,18,20,7,11,106,,93,93,16,36,10,9,0.6,0.7
2024-10-03T1700,1111A,121.5637,38.8845,大连市,星海三站,,37,14,15,6,11,116,,101,101,8,20,8,7,0.4,0.4
2024-10-03T1700,1112A,121.6302,38.9117,大连市,青泥洼桥,,35,11,17,7,10,110,,101,101,9,24,9,7,0.4,0.4
2024-10-03T1700,1113A,121.6251,38.8638,大连市,傅家庄,,35,16,16,8,9,110,,98,98,8,11,9,8,0.5,0.4
2024-10-03T1700,1114A,121.5213,38.8661,大连市,七贤岭,,38,13,13,6,8,120,,108,108,11,12,8,7,0.7,0.6
2024-10-03T1700,1115A,121.2529,38.8061,大连市,旅顺,颗粒物(PM10),68,85,21,21,9,132,,108,108,20,14,11,7,0.8,0.5
2024-10-03T1700,1116A,121.7485,39.1311,大连市,金州,,35,16,13,7,8,112,,96,96,12,14,6,6,0.5,0.5
2024-10-03T1700,1117A,121.7811,39.0496,大连市,开发区,,35,16,16,7,11,109,,95,95,11,20,10,9,0.4,0.4
2024-10-03T1700,1118A,121.9762,39.0631,大连市,双D港,,35,13,12,7,7,111,,101,101,15,12,8,7,0.6,0.6
2024-10-03T1700,1789A,124.81117,46.03138,大庆市,大同区,,39,39,28,11,14,76,,68,68,6,7,3,3,0.2,0.3
2024-10-03T1700,1790A,125.129,46.533,大庆市,龙凤区,,48,48,35,14,15,53,,57,57,42,18,3,3,0.4,0.4
2024-10-03T1700,1791A,124.902,46.408,大庆市,红岗区,,31,31,27,7,14,81,,70,70,8,10,5,6,0.2,0.3
2024-10-03T1700,1792A,125.153,46.586,大庆市,萨尔图区,,26,26,28,6,9,73,,64,64,11,13,5,6,0.2,0.2
2024-10-03T1700,1793A,124.9042,46.6215,大庆市,让胡路区,,39,39,27,18,19,77,,68,68,8,10,4,4,0.3,0.3
2024-10-03T1700,3481A,125.141,46.634,大庆市,萨区政府监测点,,33,33,21,12,8,72,,69,69,15,11,8,7,0.2,0.2
2024-10-03T1700,1721A,113.3819,40.1097,大同市,果树场,颗粒物(PM10),53,55,46,7,17,120,,87,87,12,25,10,9,0.5,1
2024-10-03T1700,1723A,113.2994,40.0758,大同市,云冈宾馆,,39,32,47,11,16,124,,95,95,16,36,10,11,0.6,1
2024-10-03T1700,1724A,113.3444,40.0917,大同市,大同大学,,39,31,37,11,14,124,,96,96,12,28,13,16,0.6,0.7
2024-10-03T1700,1725A,113.2661,40.1269,大同市,安家小村,,37,33,44,9,15,118,,100,100,15,33,14,14,0.4,1
2024-10-03T1700,1726A,113.2711,40.0844,大同市,教育学院,,49,49,59,16,19,112,,89,89,21,42,10,13,0.4,1.1
2024-10-03T1700,3282A,113.3397,40.0597,大同市,大同市卫生学校,,39,32,45,10,20,124,,94,94,11,33,10,10,0.1,0.5
2024-10-03T1700,3565A,113.1367,40.1122,大同市,云冈站,颗粒物(PM10),51,52,52,10,19,116,,87,87,21,26,13,13,0.4,0.4
2024-10-03T1700,3566A,113.1186,40.2556,大同市,图书馆,颗粒物(PM10),54,57,54,17,15,109,,87,87,23,19,14,11,0.5,0.5
2024-10-03T1700,3567A,113.5931,40.0461,大同市,区一中,,40,28,39,12,15,125,,103,103,11,21,12,15,0.4,0.7
2024-10-03T1700,3676A,113.2802,40.0995,大同市,第二人民医院,,39,36,55,15,20,123,,96,96,14,33,14,16,0.4,1.3
2024-10-03T1700,2269A,124.1069,50.4097,大兴安岭地区,科技局,,26,,14,13,15,83,,82,82,4,6,6,7,0.3,0.3
2024-10-03T1700,3663A,124.1164,50.4278,大兴安岭地区,红旗社区,,25,7,12,3,5,77,,75,75,6,8,2,3,0.2,0.3
2024-10-03T1700,1600A,124.3303,40.0625,丹东市,江湾东路,,26,26,33,15,19,80,,68,68,15,20,11,10,0.4,0.6
2024-10-03T1700,1601A,124.4256,40.1503,丹东市,临江后街,,28,18,28,8,16,87,,79,79,8,18,6,6,0.6,0.7
2024-10-03T1700,1602A,124.3933,40.1461,丹东市,元宝山,,27,14,20,9,12,84,,67,67,4,12,4,4,0.6,0.7
2024-10-03T1700,1603A,124.3633,40.1092,丹东市,民主桥,,25,22,28,12,13,79,,69,69,18,22,6,6,0.4,0.5
2024-10-03T1700,3541A,109.5726,19.5167,儋州市,第一中学子站,,45,40,38,23,20,142,,122,122,7,5,6,6,0.6,0.6
2024-10-03T1700,3542A,109.5567,19.5187,儋州市,东坡学校子站,,47,43,37,20,19,150,,128,128,5,7,6,6,0.6,0.6
2024-10-03T1700,2616A,98.5842,24.428,德宏傣族景颇族自治州,德宏州监测站,,19,19,29,8,12,47,,33,33,21,17,42,18,0.4,0.7
2024-10-03T1700,3677A,98.5881,24.4368,德宏傣族景颇族自治州,芒市人民政府综合楼,,27,27,23,12,13,61,,40,40,13,13,16,12,0.6,0.7
2024-10-03T1700,1901A,104.4239,31.1208,德阳市,东山公园,,25,11,32,3,18,80,,78,78,7,14,2,3,0.3,0.4
2024-10-03T1700,1902A,104.3826,31.1317,德阳市,西小区,,25,17,46,6,27,78,,75,75,6,21,1,3,0.4,0.5
2024-10-03T1700,1904A,104.3553,31.1091,德阳市,耐火材料厂,,23,9,45,3,23,73,,76,76,6,18,3,4,0.2,0.3
2024-10-03T1700,3639A,104.4019,31.1244,德阳市,市教育局,,24,15,40,6,21,76,,74,74,7,20,1,2,0.2,0.4
2024-10-03T1700,1622A,116.3032,37.4674,德州市,儿童乐园,,39,39,40,17,17,123,,104,104,18,30,9,10,0.4,0.4
2024-10-03T1700,1624A,116.2991,37.4451,德州市,监理站,,40,31,36,14,17,126,,105,105,16,38,6,7,0.3,0.4
2024-10-03T1700,3066A,116.2721,37.4379,德州市,九衢泉纯净水厂,,37,34,43,17,21,117,,97,97,18,43,9,9,0.3,0.4
2024-10-03T1700,3371A,116.3728,37.4403,德州市,开发区人民医院,,41,31,35,9,17,129,,106,106,10,36,9,12,0.4,0.5
2024-10-03T1700,3372A,116.3572,37.4094,德州市,太阳城中学,,39,36,40,12,18,124,,100,100,15,39,8,9,0.3,0.4
2024-10-03T1700,3511A,116.5652,37.3319,德州市,陵城艺术中心,,40,31,39,17,15,126,,103,103,22,37,12,13,0.6,0.6
2024-10-03T1700,2621A,99.7056,27.8317,迪庆藏族自治州,迪庆州站,,15,11,13,9,8,47,,53,51,8,9,8,8,0.4,0.4
2024-10-03T1700,3180A,99.7136,27.8094,迪庆藏族自治州,质量技术监督局,,16,16,13,7,7,46,,56,52,9,8,6,6,0.5,0.4
2024-10-03T1700,2663A,104.6241,35.5734,定西市,东关小学,,36,36,36,25,23,72,,69,69,6,12,6,6,0.3,0.3
2024-10-03T1700,2664A,104.6194,35.5934,定西市,供电公司,,34,34,37,14,20,73,,71,71,5,16,6,7,0.4,0.4
2024-10-03T1700,1389A,113.7547,23.0494,东莞市,莞城梨川,,37,31,35,16,14,118,,112,112,10,10,7,7,0.5,0.5
2024-10-03T1700,1390A,113.7944,23.0128,东莞市,东城石井,,36,30,31,13,11,114,,112,112,9,11,6,7,0.7,0.7
2024-10-03T1700,1391A,113.7383,22.9658,东莞市,南城西平,,36,35,30,17,10,114,,114,114,10,12,4,3,0.7,0.7
2024-10-03T1700,3319A,113.7338,23.0381,东莞市,万江金泰,,37,35,32,18,12,116,,111,111,10,12,7,6,0.5,0.4
2024-10-03T1700,3626A,113.7533,23.0202,东莞市,南城元岭,,37,36,33,14,11,117,,113,113,7,8,8,8,0.5,0.5
2024-10-03T1700,3627A,113.7875,23.0457,东莞市,东城主山,,37,32,29,17,13,117,,119,118,14,12,8,8,0.5,0.5
2024-10-03T1700,1666A,118.6614,37.4309,东营市,市环保局,,50,27,29,3,14,157,,135,135,16,36,6,19,0.4,0.5
2024-10-03T1700,3036A,118.6904,37.4338,东营市,开发区管委会,臭氧1小时,52,35,38,12,16,161,,133,133,14,31,5,14,0.1,0.3
2024-10-03T1700,3365A,118.5719,37.565,东营市,垦利区民丰路,,44,24,34,17,16,139,,120,120,16,41,12,12,0.0,0.1
2024-10-03T1700,3498A,118.5055,37.8612,东营市,河口城区,,38,29,32,17,14,120,,99,99,17,35,8,8,0.2,0.2
2024-10-03T1700,3646A,118.4978,37.4623,东营市,胜利站,,38,34,46,12,21,119,,114,114,29,40,17,18,0.1,0.3
2024-10-03T1700,3734A,118.35,37.26,东营市,理想之城,,41,19,33,12,19,130,,119,119,16,42,13,13,0.1,0.3
2024-10-03T1700,1591A,110.0023,39.8129,鄂尔多斯市,综合楼,颗粒物(PM10),54,58,52,9,10,143,,119,119,13,29,10,14,0.5,0.6
2024-10-03T1700,1592A,109.9486,39.8261,鄂尔多斯市,巴音孟克林场办事处,颗粒物(PM10),51,51,53,12,15,132,,109,109,12,31,9,11,0.4,0.5
2024-10-03T1700,1593A,109.7736,39.5986,鄂尔多斯市,康泽苑,,44,44,35,12,12,137,,119,119,11,25,9,8,0.5,0.5
2024-10-03T1700,1594A,109.8119,39.5989,鄂尔多斯市,华泰汽车城,,41,39,39,12,15,130,,111,111,9,33,10,9,0.4,0.5
2024-10-03T1700,1595A,109.9734,39.7884,鄂尔多斯市,奥林花园,,46,46,53,17,16,126,,104,104,13,34,7,8,0.5,0.6
2024-10-03T1700,2436A,114.8938,30.3994,鄂州市,市政府,,41,11,37,9,11,131,,124,124,14,16,9,10,0.5,0.5
2024-10-03T1700,2437A,114.8989,30.3714,鄂州市,赵家坝,,44,29,45,9,12,139,,126,126,13,16,11,12,0.4,0.4
2024-10-03T1700,3654A,114.8094,30.4089,鄂州市,精准医疗中心,,46,24,43,6,13,145,,131,131,4,12,6,7,0.6,0.6
2024-10-03T1700,2454A,109.4978,30.2981,恩施土家族苗族自治州,湖北民院,,48,48,35,11,16,107,,92,92,11,12,10,9,0.5,0.5
2024-10-03T1700,2455A,109.4707,30.2798,恩施土家族苗族自治州,州电力总公司,,42,42,32,19,15,100,,93,93,16,16,7,8,0.5,0.6
2024-10-03T1700,3549A,109.5061,30.3772,恩施土家族苗族自治州,龙凤新区,,41,41,30,13,13,106,,97,97,14,14,6,6,0.6,0.6
2024-10-03T1700,2499A,108.3411,21.6158,防城港市,沙万,,45,45,33,19,11,133,,117,117,9,10,9,9,0.5,0.5
2024-10-03T1700,2500A,108.3514,21.7731,防城港市,防城档案局,,46,46,52,20,14,122,,106,106,14,15,9,9,0.5,0.4
2024-10-03T1700,2501A,108.3506,21.6414,防城港市,大海花园,,49,49,35,17,11,127,,109,109,9,9,8,7,0.7,0.6
2024-10-03T1700,1371A,113.1294,23.0067,佛山市,湾梁,,47,41,39,15,11,149,,140,140,18,19,8,9,0.5,0.5
2024-10-03T1700,1372A,113.1083,23.0478,佛山市,华材职中,,46,46,44,22,16,137,,132,132,24,24,10,10,0.5,0.5
2024-10-03T1700,1373A,113.144,23.0453,佛山市,南海气象局,,49,49,36,17,12,148,,139,139,15,16,8,9,0.5,0.5
2024-10-03T1700,1374A,113.2881,22.8094,佛山市,顺德苏岗,,42,28,31,14,12,134,,131,131,14,13,8,9,0.6,0.6
2024-10-03T1700,1376A,112.8383,22.8678,佛山市,高明孔堂,,48,48,41,15,13,137,,133,133,12,14,9,10,0.5,0.5
2024-10-03T1700,1377A,112.8836,23.1588,佛山市,三水监测站,,40,34,38,18,14,128,,124,124,15,16,7,8,0.3,0.4
2024-10-03T1700,1378A,112.867,23.185,佛山市,三水云东海,,38,34,31,14,17,120,,120,120,20,20,9,10,0.5,0.5
2024-10-03T1700,3625A,113.2544,22.7642,佛山市,容桂街道办,,45,34,33,14,15,142,,135,135,14,17,8,8,0.6,0.6
2024-10-03T1700,1282A,119.2681,26.0504,福州市,师大,,27,11,16,3,4,85,,89,78,5,5,2,2,0.3,0.3
2024-10-03T1700,1283A,119.2984,26.1028,福州市,五四北路,,27,16,15,3,4,86,,97,87,10,13,3,3,0.3,0.3
2024-10-03T1700,1284A,119.2648,26.0768,福州市,杨桥西路,,28,10,16,3,6,88,,89,78,5,5,3,3,0.4,0.4
2024-10-03T1700,1285A,119.317,26.0746,福州市,紫阳,,21,21,21,3,5,57,,91,64,38,19,6,6,0.4,0.4
2024-10-03T1700,3048A,119.5799,26.0936,福州市,九龙,,27,12,17,3,5,84,,92,84,4,4,6,7,0.5,0.5
2024-10-03T1700,3526A,119.5189,25.9664,福州市,吴航,,26,6,12,3,6,82,,90,86,8,9,7,7,0.4,0.5
2024-10-03T1700,1755A,123.7977,41.8491,抚顺市,望花区,,30,18,54,10,24,94,,82,82,15,26,15,11,0.6,0.8
2024-10-03T1700,1756A,123.9161,41.8822,抚顺市,顺城区,,30,30,39,10,21,96,,84,84,18,23,8,6,0.5,0.5
2024-10-03T1700,1757A,124.0436,41.8611,抚顺市,东洲区,,30,30,22,11,15,89,,77,77,13,11,8,7,0.5,0.4
2024-10-03T1700,1758A,123.9247,41.8642,抚顺市,新抚区,,30,24,45,12,18,94,,86,86,19,26,6,5,0.4,0.6
2024-10-03T1700,1759A,124.0972,41.8961,抚顺市,大伙房水库,,31,22,22,13,13,98,,86,86,10,10,11,7,0.5,0.4
2024-10-03T1700,1760A,123.7086,41.8391,抚顺市,沈抚新城,,31,22,53,6,23,97,,87,87,19,31,13,14,0.2,0.8
2024-10-03T1700,2376A,116.2127,28.0814,抚州市,桐源党溪,,41,36,47,16,13,130,,123,123,3,3,5,6,0.6,0.6
2024-10-03T1700,2377A,116.3544,27.9831,抚州市,市站,,,,38,,13,109,,106,106,,10,,4,0.5,0.8
2024-10-03T1700,2378A,116.3565,27.963,抚州市,血防站,,40,33,37,10,11,125,,118,118,10,10,1,5,0.5,0.5
2024-10-03T1700,2379A,116.3564,28.0007,抚州市,采茶剧团,,38,34,37,10,13,120,,114,114,4,4,4,5,0.5,0.5
2024-10-03T1700,2380A,116.385,27.9647,抚州市,医学分院,颗粒物(PM10),64,78,52,11,11,136,,133,133,5,6,3,5,0.6,0.5
2024-10-03T1700,2207A,121.6094,41.998,阜新市,工业园区,,38,38,42,9,20,104,,100,100,14,27,10,16,0.5,0.7
2024-10-03T1700,2208A,121.6697,42.0279,阜新市,长青街,,31,17,35,13,20,97,,90,90,16,20,11,17,0.4,0.6
2024-10-03T1700,2209A,121.6673,42.0705,阜新市,农业园区,,31,24,29,9,19,98,,92,92,14,20,9,19,0.4,0.7
2024-10-03T1700,2210A,121.6717,42.0224,阜新市,东苑,,31,27,42,7,22,97,,88,88,16,33,12,27,0.5,0.7
2024-10-03T1700,2211A,121.6506,42.0498,阜新市,玉龙新城,,35,28,46,20,24,110,,102,102,11,24,11,13,0.4,0.7
2024-10-03T1700,2301A,115.8277,32.8929,阜阳市,市监测站,,44,30,44,17,23,138,,115,115,9,22,8,8,0.2,0.3
2024-10-03T1700,2303A,115.8554,32.8605,阜阳市,开发区,,43,41,63,14,19,136,,116,116,16,24,8,8,0.4,0.6
2024-10-03T1700,2875A,115.784,32.8892,阜阳市,阜阳职业技术学院,,43,38,45,18,21,135,,114,114,16,22,7,8,0.3,0.3
2024-10-03T1700,3468A,115.7901,32.8613,阜阳市,市规划展馆,,44,26,38,16,19,140,,120,120,13,18,7,8,0.3,0.2
2024-10-03T1700,3469A,115.836,32.9183,阜阳市,枣园社区,,43,29,52,16,23,136,,116,116,14,28,8,10,0.3,0.3
2024-10-03T1700,2669A,102.9099,34.9841,甘南藏族自治州,州政府,,25,,26,13,15,80,,71,71,2,19,13,12,0.3,0.5
2024-10-03T1700,3380A,102.8914,34.9617,甘南藏族自治州,甘肃民族师范学院,,35,,24,24,23,78,,69,69,3,21,4,6,0.4,0.5
2024-10-03T1700,2570A,101.9603,30.0475,甘孜藏族自治州,水桥子,,15,,6,9,4,46,,43,43,3,14,6,6,0.3,0.3
2024-10-03T1700,3065A,101.9533,29.9972,甘孜藏族自治州,州环保局,,16,8,8,7,5,49,,48,48,6,16,3,3,0.3,0.3
2024-10-03T1700,3414A,115.8347,28.932,赣江新区,桑海产业园,,44,44,55,11,13,132,,116,116,9,10,11,12,0.4,0.3
2024-10-03T1700,2362A,114.9017,25.9149,赣州市,通天岩,,47,37,41,20,20,148,,134,134,6,7,14,11,0.3,0.3
2024-10-03T1700,2363A,114.9367,25.8664,赣州市,地委,,41,41,44,17,19,130,,118,118,11,9,2,4,1.0,0.9
2024-10-03T1700,2364A,114.9461,25.8481,赣州市,气象台,,44,37,39,18,20,139,,123,123,11,7,3,4,0.6,0.6
2024-10-03T1700,2365A,114.9322,25.8333,赣州市,市图书馆,,45,34,45,9,17,143,,129,129,7,7,4,7,0.5,0.5
2024-10-03T1700,2366A,114.8905,25.8471,赣州市,华坚鞋城,,43,36,42,10,15,136,,120,120,8,7,5,5,0.4,0.4
2024-10-03T1700,3109A,115.0093,25.8613,赣州市,赣县区卫计委,,41,33,39,10,18,129,,115,115,9,10,6,6,0.5,0.5
2024-10-03T1700,2683A,106.2319,36.1417,固原市,马园,,41,41,39,6,15,98,,101,101,19,23,6,6,0.6,0.5
2024-10-03T1700,2684A,106.2792,36.0022,固原市,监测站,,37,37,31,11,18,103,,104,104,10,15,9,8,0.4,0.4
2024-10-03T1700,2685A,106.2375,36.0211,固原市,新区,,31,24,30,6,14,98,,105,105,7,12,5,6,0.3,0.3
2024-10-03T1700,3522A,106.2177,35.9959,固原市,原州区十五小,,30,20,30,9,14,94,,100,100,8,12,4,4,0.5,0.5
2024-10-03T1700,2544A,106.6303,30.4576,广安市,市委,,37,29,39,12,26,116,,86,86,10,22,1,7,0.3,0.4
2024-10-03T1700,2545A,106.6271,30.4663,广安市,友谊中学,,35,20,37,12,24,111,,74,74,13,24,3,10,0.5,0.4
2024-10-03T1700,2547A,106.6388,30.4551,广安市,广电花园,,36,22,37,16,25,114,,91,91,11,21,2,7,0.4,0.4
2024-10-03T1700,2902A,106.6351,30.4865,广安市,北辰小学,,36,30,36,13,21,113,,84,84,10,19,4,10,0.3,0.4
2024-10-03T1700,2523A,105.8945,32.4535,广元市,黑石坡,,20,14,21,14,14,60,,43,43,6,8,13,14,0.3,0.4
2024-10-03T1700,2524A,105.821,32.4444,广元市,老城,,23,23,27,6,10,69,,43,43,11,30,3,2,0.4,0.5
2024-10-03T1700,2526A,105.8628,32.4287,广元市,监测站,,,,28,23,20,68,,50,50,,19,5,2,0.5,0.5
2024-10-03T1700,3617A,105.8047,32.4166,广元市,经开区,,34,34,36,21,24,60,,36,36,22,29,5,4,0.5,0.5
2024-10-03T1700,1345A,113.2347,23.1423,广州市,广雅中学,,46,46,43,17,20,136,,127,127,18,19,8,8,0.7,0.7
2024-10-03T1700,1346A,113.2612,23.105,广州市,市五中,,45,44,42,19,16,143,,133,133,12,11,5,5,0.6,0.5
2024-10-03T1700,1348A,113.3478,23.0916,广州市,广东商学院,,38,36,37,11,10,120,,122,122,17,13,6,6,0.5,0.6
2024-10-03T1700,1349A,113.4332,23.1047,广州市,市八十六中,,40,32,37,14,13,126,,127,127,10,11,4,5,0.5,0.5
2024-10-03T1700,1350A,113.3505,22.9483,广州市,番禺中学,,34,34,39,10,7,106,,105,105,12,13,7,7,0.5,0.5
2024-10-03T1700,1351A,113.2146,23.3916,广州市,花都师范,,44,34,33,12,10,140,,134,134,8,10,6,7,0.4,0.4
2024-10-03T1700,1352A,113.2597,23.1331,广州市,市监测站,,43,40,41,15,15,137,,127,127,6,7,6,6,0.2,0.3
2024-10-03T1700,1353A,113.5618,23.312,广州市,九龙镇镇龙,,35,32,32,15,12,110,,114,108,10,11,8,8,0.6,0.7
2024-10-03T1700,1354A,113.2765,23.1544,广州市,麓湖,,45,45,41,17,17,133,,128,128,17,16,7,8,0.5,0.4
2024-10-03T1700,1355A,113.443,23.3035,广州市,帽峰山森林公园,,41,18,29,10,10,130,,127,127,5,7,8,8,0.7,0.7
2024-10-03T1700,2846A,113.3221,23.1322,广州市,体育西,,38,31,34,13,13,119,,117,117,13,15,4,5,0.5,0.5
2024-10-03T1700,3298A,113.5717,23.5491,广州市,从化街口,,38,34,35,17,14,120,,116,116,7,8,10,10,0.4,0.5
2024-10-03T1700,3299A,113.3472,23.3692,广州市,白云竹料,,46,46,42,18,15,135,,124,124,12,10,7,7,0.5,0.2
2024-10-03T1700,3300A,113.2981,23.237,广州市,白云嘉禾,颗粒物(PM10),53,56,43,18,16,131,,123,123,24,22,9,9,0.6,0.6
2024-10-03T1700,3301A,113.4256,23.1716,广州市,黄埔科学城,,39,29,36,11,12,123,,122,122,12,13,4,3,0.6,0.6
2024-10-03T1700,3302A,113.3942,23.0483,广州市,番禺大学城,,40,39,30,12,12,125,,125,125,14,15,11,11,0,0.2
2024-10-03T1700,3303A,113.4922,22.8168,广州市,南沙黄阁,,46,42,36,18,15,146,,143,143,19,20,7,8,0.6,0.5
2024-10-03T1700,3304A,113.5342,22.7896,广州市,南沙街,,45,43,38,17,16,144,,140,140,17,17,8,8,0.6,0.6
2024-10-03T1700,3443A,113.2902,23.5544,广州市,花都梯面,,41,33,32,14,15,130,,126,126,6,8,7,9,0.5,0.5
2024-10-03T1700,3445A,113.7858,23.7478,广州市,从化良口,,37,25,29,10,10,118,,116,111,7,7,8,9,0.4,0.5
2024-10-03T1700,3446A,113.8051,23.2614,广州市,增城荔城,,42,42,28,24,13,121,,118,118,11,15,7,7,0.6,0.5
2024-10-03T1700,2506A,109.6047,23.0666,贵港市,江南子站,颗粒物(PM10),52,53,48,21,17,160,,136,136,8,9,9,9,0.6,0.6
2024-10-03T1700,2507A,109.6014,23.0948,贵港市,贵城子站,颗粒物(PM10),54,58,44,23,18,159,,134,134,9,10,9,9,0.7,0.7
2024-10-03T1700,2508A,109.5669,23.1065,贵港市,荷城子站,颗粒物(PM10),53,56,49,14,14,158,,134,134,10,7,13,13,0.6,0.6
2024-10-03T1700,3405A,109.5886,23.1172,贵港市,新世纪学校,颗粒物(PM10),56,61,52,24,18,159,,132,132,10,10,10,10,0.5,0.5
2024-10-03T1700,1439A,106.6899,26.5998,贵阳市,马鞍山,,39,39,24,17,6,118,,110,110,8,8,5,4,0.4,0.4
2024-10-03T1700,1440A,106.6971,26.5694,贵阳市,市环保站,,46,46,28,18,14,130,,123,123,7,6,5,5,0.2,0.2
2024-10-03T1700,1441A,106.6243,26.6266,贵阳市,鉴湖路,,44,44,29,17,8,114,,108,108,4,5,4,4,0.4,0.3
2024-10-03T1700,1442A,106.7487,26.6343,贵阳市,燕子冲,,38,36,20,22,15,121,,116,116,5,5,7,6,0.2,0.2
2024-10-03T1700,1443A,106.6555,26.4365,贵阳市,碧云窝,,46,46,35,12,10,123,,113,113,6,7,6,5,0.3,0.3
2024-10-03T1700,1444A,106.694,26.5161,贵阳市,中院村,,39,36,29,12,11,123,,113,113,13,8,8,7,0.5,0.5
2024-10-03T1700,1445A,106.7109,26.6027,贵阳市,红边门,,44,44,30,17,14,121,,113,113,11,11,4,5,0.2,0.3
2024-10-03T1700,1446A,106.7164,26.5699,贵阳市,新华路,,41,41,26,14,12,121,,112,112,5,6,6,5,0.3,0.3
2024-10-03T1700,1447A,106.674,26.5424,贵阳市,太慈桥,,39,39,28,9,10,123,,113,113,7,6,6,6,0.3,0.2
2024-10-03T1700,1862A,110.4144,25.3167,桂林市,电子科大尧山校区,,,,50,,24,,,134,,,6,,7,,0.5
2024-10-03T1700,1863A,110.2819,25.2697,桂林市,监测站,颗粒物(PM10),57,63,62,32,21,137,,134,134,13,11,10,11,0.6,0.6
2024-10-03T1700,1864A,110.3089,25.2708,桂林市,龙隐路小学,,49,48,53,28,21,154,,150,150,5,7,10,11,0.5,0.5
2024-10-03T1700,1865A,110.2869,25.2178,桂林市,八中,颗粒物(PM10),57,63,55,25,24,143,,139,139,10,10,11,10,0.5,0.5
2024-10-03T1700,3403A,110.1764,25.2381,桂林市,创业大厦,颗粒物(PM10),53,56,65,29,30,122,,120,120,7,8,8,10,0.3,0.3
2024-10-03T1700,3531A,110.296,25.1253,桂林市,旅游学院,,46,46,55,24,23,145,,142,142,6,7,8,10,0.4,0.4
2024-10-03T1700,2674A,100.2561,34.4714,果洛藏族自治州,玛沁县大武镇,颗粒物(PM10),52,53,28,27,17,118,,97,97,1,5,8,10,0.4,0.4
2024-10-03T1700,1129A,126.5422,45.755,哈尔滨市,岭北,,32,21,24,6,13,102,,98,98,8,13,10,14,0.1,0.2
2024-10-03T1700,1130A,126.561,45.8167,哈尔滨市,松北商大,,31,31,34,14,11,76,,76,76,12,24,8,8,0.3,0.4
2024-10-03T1700,1131A,126.979,45.5419,哈尔滨市,阿城会宁,,29,23,27,10,14,90,,84,84,12,13,12,11,0.4,0.4
2024-10-03T1700,1132A,126.599,45.7222,哈尔滨市,南岗学府路,,37,37,33,3,9,87,,81,81,11,16,7,6,0.3,0.4
2024-10-03T1700,1133A,126.689,45.7733,哈尔滨市,太平宏伟公园,,28,28,37,13,13,81,,75,75,15,18,8,8,0.6,0.5
2024-10-03T1700,1134A,126.635,45.7667,哈尔滨市,道外承德广场,,32,32,32,8,11,78,,72,72,20,24,5,5,0.7,0.4
2024-10-03T1700,1135A,126.685,45.7319,哈尔滨市,香坊红旗大街,,34,34,40,10,13,80,,75,75,17,22,8,7,0.5,0.4
2024-10-03T1700,1136A,126.6411,45.7258,哈尔滨市,动力和平路,,32,32,35,13,13,83,,77,77,13,17,9,7,0.4,0.4
2024-10-03T1700,1137A,126.593,45.7478,哈尔滨市,道里建国路,,36,36,32,13,15,80,,76,76,14,19,12,11,0.3,0.4
2024-10-03T1700,1138A,126.615,45.61,哈尔滨市,平房东轻厂,,44,44,29,14,11,87,,80,80,13,18,6,6,0.7,0.5
2024-10-03T1700,1139A,126.595,45.9855,哈尔滨市,呼兰师专,,34,34,28,12,12,73,,70,70,17,21,4,4,0.3,0.3
2024-10-03T1700,1140A,126.6206,45.6842,哈尔滨市,省农科院,颗粒物(PM10),55,60,61,15,17,76,,71,71,16,26,4,6,0.3,0.5
2024-10-03T1700,2688A,93.5128,42.8172,哈密市,地区监测站,颗粒物(PM10),55,60,90,17,29,111,,86,86,4,46,5,5,0.2,0.3
2024-10-03T1700,2689A,93.4961,42.8328,哈密市,哈密师范学校,,49,49,88,15,32,110,,84,84,5,42,4,5,0.2,0.6
2024-10-03T1700,2671A,100.9048,36.9639,海北藏族自治州,海晏县西海镇,,30,16,28,15,23,96,,94,94,6,10,9,13,0.4,0.6
2024-10-03T1700,3867A,102.0738,36.5056,海东市,平安区公安北苑,,43,43,46,15,25,107,,97,97,18,19,21,14,0.5,0.6
2024-10-03T1700,1410A,110.3232,20.0574,海口市,海南大学,,47,38,39,18,19,149,,135,135,6,9,5,6,0.4,0.4
2024-10-03T1700,1411A,110.283,20.0053,海口市,秀英海南医院,,47,36,41,16,19,149,,134,134,10,14,7,8,0.3,0.4
2024-10-03T1700,1412A,110.338,19.9969,海口市,海南师范大学,,48,41,42,16,19,153,,137,137,9,10,8,9,0.4,0.5
2024-10-03T1700,1413A,110.33,20.0356,海口市,龙华路环保局宿舍,,46,37,41,17,20,147,,133,133,7,10,6,7,0.4,0.4
2024-10-03T1700,3539A,110.5111,19.9736,海口市,桂林洋子站,,49,40,38,18,18,155,,141,141,7,8,8,9,0.3,0.3
2024-10-03T1700,2673A,100.6188,36.2866,海南藏族自治州,共和县恰卜恰镇,,30,17,30,13,18,96,,92,92,6,16,6,9,0.4,0.5
2024-10-03T1700,2676A,97.3731,37.3753,海西蒙古族藏族自治州,德令哈市,,36,17,24,11,12,114,,103,103,6,13,8,10,0.4,0.4
2024-10-03T1700,1048A,114.5302,36.6116,邯郸市,东污水处理厂,,35,14,44,12,21,110,,95,95,8,30,6,3,0.4,0.6
2024-10-03T1700,1049A,114.4918,36.5713,邯郸市,矿院,,36,30,45,3,18,113,,91,91,6,28,6,5,0.2,0.4
2024-10-03T1700,1050A,114.484,36.6133,邯郸市,丛台公园,,34,31,43,9,21,106,,90,90,10,36,3,3,0.3,0.6
2024-10-03T1700,3458A,114.7895,36.5593,邯郸市,香泉濮院小区,,41,31,54,11,26,130,,106,106,9,24,4,6,0.3,0.6
2024-10-03T1700,3579A,114.50634,36.77178,邯郸市,永年区实验高中,,40,28,65,13,30,126,,106,106,6,27,6,8,0.2,1
2024-10-03T1700,3580A,114.20016,36.44293,邯郸市,峰峰矿区临水派出所,,40,8,38,6,11,126,,120,120,5,11,5,8,0.3,0.8
2024-10-03T1700,2634A,106.9893,33.1842,汉中市,汉川机床厂子校,,39,39,23,6,10,85,,84,84,14,8,11,6,0.6,0.5
2024-10-03T1700,2635A,107.0154,33.0706,汉中市,市监测站,,33,33,35,14,18,84,,80,80,13,15,9,11,0.4,0.5
2024-10-03T1700,2637A,107.007,33.0323,汉中市,南郑大河坎水厂,,34,34,30,15,16,78,,76,76,21,13,10,8,0.4,0.4
2024-10-03T1700,1223A,120.2072,30.2111,杭州市,滨江,,36,29,32,15,13,114,,96,96,16,21,5,6,0.4,0.5
2024-10-03T1700,1224A,120.0633,30.2747,杭州市,西溪,,40,29,29,14,10,127,,102,102,12,18,6,7,0.6,0.6
2024-10-03T1700,1226A,120.3461,30.3153,杭州市,下沙,,38,27,32,10,10,119,,101,101,22,29,7,7,0.5,0.6
2024-10-03T1700,1227A,120.1269,30.2456,杭州市,卧龙桥,,40,24,26,10,13,128,,103,103,11,16,6,7,0.4,0.4
2024-10-03T1700,1228A,120.1903,30.2692,杭州市,浙江农大,,38,26,31,14,10,119,,94,94,14,20,9,10,0.4,0.5
2024-10-03T1700,1230A,120.1197,30.3119,杭州市,和睦小学,,39,22,23,14,10,123,,103,103,16,21,8,8,0.5,0.5
2024-10-03T1700,1231A,120.3019,30.4183,杭州市,临平镇,,40,24,31,10,10,126,,108,108,12,16,5,6,0.4,0.5
2024-10-03T1700,1232A,120.2697,30.1819,杭州市,城厢镇,,38,28,27,13,15,121,,103,103,13,17,7,7,0.4,0.5
2024-10-03T1700,1233A,120.0883,30.1808,杭州市,云栖,,35,22,25,11,9,112,,90,90,12,14,6,7,0.5,0.5
2024-10-03T1700,3557A,119.9464,30.0494,杭州市,镇二中,,40,23,22,12,8,127,,99,99,15,18,8,9,0.6,0.5
2024-10-03T1700,3558A,119.7183,30.2367,杭州市,市府大楼,,42,25,28,13,14,133,,108,108,8,15,7,7,0.6,0.5
2024-10-03T1700,3656A,120.1556,30.2864,杭州市,消防大队,,,29,27,12,10,127,,103,103,10,16,,10,0.3,0.4
2024-10-03T1700,1270A,117.1959,31.7848,合肥市,明珠广场,,38,14,28,9,10,120,,116,116,13,23,10,9,0.3,0.3
2024-10-03T1700,1271A,117.3072,31.8764,合肥市,三里街,,35,14,22,7,9,109,,103,103,9,19,9,9,0.4,0.4
2024-10-03T1700,1272A,117.2588,31.8707,合肥市,琥珀山庄,,37,12,24,8,11,116,,111,111,11,19,7,9,0.4,0.4
2024-10-03T1700,1273A,117.1604,31.9052,合肥市,董铺水库,,34,19,31,7,9,107,,100,100,6,17,4,4,0.4,0.4
2024-10-03T1700,1274A,117.25,31.8571,合肥市,长江中路,,35,22,28,10,15,112,,108,108,11,17,9,10,0.6,0.6
2024-10-03T1700,1275A,117.266,31.9436,合肥市,庐阳区,,38,22,31,3,11,120,,114,114,8,18,3,3,0.4,0.4
2024-10-03T1700,1276A,117.336,31.8586,合肥市,瑶海区,,35,19,28,3,10,109,,102,102,11,19,5,6,0.2,0.2
2024-10-03T1700,1277A,117.3027,31.7964,合肥市,包河区,,35,14,26,3,9,110,,107,107,10,34,4,3,0.5,0.5
2024-10-03T1700,1278A,117.2776,31.7385,合肥市,滨湖新区,,35,17,22,3,9,111,,105,105,10,17,4,4,0.2,0.3
2024-10-03T1700,1279A,117.1318,31.8403,合肥市,高新区,,35,19,28,8,12,111,,104,104,12,23,7,7,0.6,0.6
2024-10-03T1700,3464A,117.3803,31.9147,合肥市,高教基地,,35,13,22,6,11,112,,108,108,4,8,4,4,0.4,0.4
2024-10-03T1700,3614A,79.924,37.0877,和田地区,地区环保局,颗粒物(PM10),94,137,203,39,63,98,,76,76,5,17,7,8,0.4,0.5
2024-10-03T1700,3615A,79.9131,37.113,和田地区,市环保局,颗粒物(PM10),91,132,181,36,57,102,,74,74,6,27,5,7,0.2,0.5
2024-10-03T1700,2516A,108.2011,24.715,河池市,东仁乐园,颗粒物(PM10),57,63,41,22,11,128,,119,119,7,7,5,4,0.5,0.5
2024-10-03T1700,2517A,108.0497,24.6947,河池市,市环保站,,49,49,34,20,13,129,,117,117,8,10,11,10,0.5,0.4
2024-10-03T1700,2518A,108.0983,24.6989,河池市,市疾控中心,,43,43,36,19,16,136,,123,123,10,11,11,10,0.4,0.4
2024-10-03T1700,1696A,114.6778,23.7569,河源市,源西,,39,37,34,14,15,123,,116,116,8,9,6,6,0.4,0.4
2024-10-03T1700,1697A,114.6944,23.7586,河源市,东埔,,38,33,33,11,15,121,,115,115,11,14,4,5,0.7,0.7
2024-10-03T1700,1698A,114.6892,23.7233,河源市,老城,,39,30,37,12,12,122,,116,116,11,12,4,4,0.5,0.5
2024-10-03T1700,1718A,115.4208,35.2464,菏泽市,气象局,,48,34,56,14,24,151,,125,125,12,42,3,5,0.2,0.3
2024-10-03T1700,1719A,115.4747,35.2375,菏泽市,市政协,,48,40,52,19,26,151,,121,121,11,26,5,9,0.3,0.4
2024-10-03T1700,3374A,115.5564,35.0891,菏泽市,定陶老年大学,,44,27,45,9,23,140,,118,118,9,19,8,9,0.1,0.2
2024-10-03T1700,3647A,115.4702,35.2706,菏泽市,菏泽医专,,48,39,50,20,21,151,,128,128,15,35,3,11,0.5,0.6
2024-10-03T1700,2514A,111.5264,24.4172,贺州市,环保小区,,,,58,,25,139,,135,135,14,14,8,8,0.5,0.5
2024-10-03T1700,2515A,111.5608,24.4078,贺州市,政协大楼,颗粒物(PM10),54,58,57,21,23,142,,140,140,15,14,5,5,0.5,0.5
2024-10-03T1700,3534A,111.4744,24.4553,贺州市,西湾,颗粒物(PM10),52,53,52,21,26,137,,128,128,11,11,9,8,0.5,0.5
2024-10-03T1700,2385A,114.17,35.9019,鹤壁市,市监测站,,43,26,44,16,21,136,,116,116,16,26,7,6,0.5,0.7
2024-10-03T1700,2386A,114.2956,35.7511,鹤壁市,市交警支队,,42,32,44,8,14,134,,116,116,13,35,3,3,0.1,0.3
2024-10-03T1700,2387A,114.2878,35.7306,鹤壁市,迎宾馆,,44,28,40,15,18,138,,119,119,18,29,4,6,0.4,0.5
2024-10-03T1700,3474A,114.2617,35.6822,鹤壁市,大新区,,42,34,41,19,21,132,,116,116,9,19,1,3,0.1,0.2
2024-10-03T1700,3596A,114.1572,35.9603,鹤壁市,南山宾馆,,41,15,38,13,24,130,,115,115,9,12,3,7,0.1,0.4
2024-10-03T1700,2244A,130.2537,47.3416,鹤岗市,哈啤分公司,,40,40,29,26,17,67,,66,66,19,12,15,15,0.4,0.4
2024-10-03T1700,2245A,130.2684,47.3086,鹤岗市,斯达机电,,45,45,34,24,20,71,,71,71,18,14,19,14,0.3,0.3
2024-10-03T1700,2246A,130.3114,47.3388,鹤岗市,东山纸板厂,颗粒物(PM10),72,94,40,21,20,72,,68,68,14,14,16,17,0.2,0.2
2024-10-03T1700,2247A,130.1097,47.3382,鹤岗市,五号水库,,27,18,17,9,10,86,,82,82,3,6,8,8,0.1,0.2
2024-10-03T1700,2263A,127.4833,50.2524,黑河市,交通局,,26,20,27,18,20,72,,73,73,10,9,6,12,0.3,0.3
2024-10-03T1700,2264A,127.5144,50.2341,黑河市,环保局,,,,25,14,14,82,,80,80,,6,6,8,0.3,0.3
2024-10-03T1700,2265A,127.5291,50.2472,黑河市,大黑河岛,,,,,10,15,76,,72,72,10,9,5,3,0.1,0.1
2024-10-03T1700,1074A,115.6838,37.7541,衡水市,电机北厂,,40,21,35,11,16,125,,106,106,7,16,7,9,0.4,0.4
2024-10-03T1700,1075A,115.6303,37.7316,衡水市,市监测站,,40,26,36,25,14,127,,114,114,14,31,7,9,0.3,0.3
2024-10-03T1700,3188A,115.6683,37.7217,衡水市,市城管局,,40,,31,17,18,128,,109,109,8,24,7,9,0.3,0.4
2024-10-03T1700,3459A,115.5989,37.5491,衡水市,地表水厂,,40,24,37,9,18,126,,106,106,12,40,8,8,0.3,0.4
2024-10-03T1700,2456A,112.5003,26.9167,衡阳市,原169医院,颗粒物(PM10),51,52,55,24,22,147,,138,138,17,18,15,14,0.5,0.5
2024-10-03T1700,2457A,112.6194,26.9258,衡阳市,衡阳化工总厂,颗粒物(PM10),58,65,62,27,24,150,,138,138,11,11,8,9,0.5,0.5
2024-10-03T1700,2458A,112.6211,26.8956,衡阳市,珠晖区环保局,颗粒物(PM10),51,52,65,26,23,151,,139,139,16,15,10,11,0.5,0.5
2024-10-03T1700,2459A,112.6197,26.8733,衡阳市,市委党校,颗粒物(PM10),60,69,58,21,20,161,,143,143,11,13,12,12,0.5,0.5
2024-10-03T1700,2460A,112.6006,26.8919,衡阳市,市监测站,颗粒物(PM10),52,54,64,30,29,157,,144,144,12,12,10,10,0.6,0.6
2024-10-03T1700,2461A,112.5664,26.9056,衡阳市,真空机电公司,颗粒物(PM10),59,68,62,26,22,155,,146,146,11,11,8,8,0.5,0.6
2024-10-03T1700,3399A,112.6703,26.882,衡阳市,师范学院,臭氧1小时,58,56,63,25,25,166,,144,144,13,15,10,11,0.6,0.6
2024-10-03T1700,2608A,103.3772,23.3993,红河哈尼族彝族自治州,污水处理厂,,24,12,18,7,19,74,,80,80,5,7,5,7,0.4,0.4
2024-10-03T1700,2609A,103.3861,23.35,红河哈尼族彝族自治州,监测站,,23,19,32,9,22,73,,78,78,4,7,8,9,0.5,0.5
2024-10-03T1700,3038A,103.3758,23.368,红河哈尼族彝族自治州,州图书馆,,22,12,25,9,17,69,,72,72,4,6,6,9,0.4,0.4
2024-10-03T1700,1090A,111.6507,40.7517,呼和浩特市,呼市一监,,38,29,37,9,13,121,,95,95,8,29,8,7,0.4,0.5
2024-10-03T1700,1091A,111.6572,40.8033,呼和浩特市,小召,,33,24,37,8,16,103,,85,85,25,39,9,8,0.4,0.5
2024-10-03T1700,1094A,111.7516,40.8369,呼和浩特市,如意水处理厂,,,27,35,8,12,104,,85,85,14,37,,8,,0.4
2024-10-03T1700,1095A,111.7276,40.8062,呼和浩特市,二十九中,,35,22,34,8,16,112,,90,90,18,39,8,7,0.4,0.5
2024-10-03T1700,1096A,111.5512,40.7866,呼和浩特市,工大金川校区,,38,27,45,8,15,121,,90,90,11,42,5,5,0.4,0.5
2024-10-03T1700,1097A,111.717,40.7612,呼和浩特市,化肥厂生活区,,34,34,44,7,15,107,,88,88,17,34,10,9,0.3,0.6
2024-10-03T1700,3698A,111.5968,40.8178,呼和浩特市,红旗小学,,38,27,49,8,17,120,,89,89,16,46,6,6,0.3,0.4
2024-10-03T1700,3699A,111.6518,40.8389,呼和浩特市,海东办,,39,29,39,8,16,122,,91,91,13,42,6,5,0.4,0.5
2024-10-03T1700,2192A,119.7594,49.2261,呼伦贝尔市,区环保局,,23,21,19,16,14,71,,63,63,10,7,5,5,0.2,0.2
2024-10-03T1700,3061A,119.7512,49.1577,呼伦贝尔市,国华电力东,,23,21,18,12,12,73,,66,66,8,4,4,4,0.3,0.3
2024-10-03T1700,1250A,120.0751,30.8669,湖州市,城西水厂,,40,24,29,12,13,125,,116,116,25,26,6,6,0.5,0.6
2024-10-03T1700,2873A,120.0875,30.8955,湖州市,仁皇山新区,,43,25,26,13,12,136,,119,119,12,15,7,8,0.4,0.4
2024-10-03T1700,2907A,120.1844,30.8596,湖州市,吴兴区站,,40,20,21,11,9,128,,112,112,10,10,7,7,0.5,0.4
2024-10-03T1700,3562A,120.4148,30.8538,湖州市,南浔区站,,36,26,23,12,11,115,,104,104,13,14,3,9,0.3,0.4
2024-10-03T1700,1607A,120.9092,40.7136,葫芦岛市,龙港区,,32,16,29,7,15,102,,80,80,8,24,15,21,0.8,0.5
2024-10-03T1700,1608A,120.8392,40.7514,葫芦岛市,化工街,,32,7,46,3,19,102,,87,87,11,30,17,46,0.6,0.6
2024-10-03T1700,1609A,120.8341,40.7073,葫芦岛市,新区,,34,24,34,6,23,107,,84,84,11,33,12,28,0.6,0.6
2024-10-03T1700,1610A,120.8695,40.7677,葫芦岛市,东城区,,30,14,51,9,21,96,,76,76,12,26,13,46,0.5,0.5
2024-10-03T1700,2482A,109.5981,27.5721,怀化市,林科所,,45,45,45,12,15,118,,107,107,11,13,8,10,0.7,0.7
2024-10-03T1700,2483A,109.9453,27.5444,怀化市,河西地税局,颗粒物(PM10),55,59,69,27,26,118,,109,109,10,12,10,18,0.7,0.7
2024-10-03T1700,2484A,109.9781,27.5342,怀化市,市四医院,颗粒物(PM10),53,55,76,20,30,112,,100,100,5,8,7,37,0.5,0.6
2024-10-03T1700,2485A,109.9972,27.5578,怀化市,监测楼,,48,48,76,19,30,116,,107,107,9,13,4,35,0.4,0.4
2024-10-03T1700,2486A,110.0394,27.583,怀化市,市委党校,颗粒物(PM10),56,61,82,20,34,111,,102,102,11,15,9,66,0.3,0.4
2024-10-03T1700,1210A,119.036,33.5981,淮安市,钵池山,,36,24,33,13,17,115,,104,104,7,19,6,5,0.5,0.6
2024-10-03T1700,1211A,119.007,33.575,淮安市,北京南路,,38,31,47,15,16,120,,107,107,15,29,7,7,0.4,0.5
2024-10-03T1700,1212A,118.989,33.6067,淮安市,市监测站,,41,24,31,17,20,131,,115,115,14,28,8,8,0.4,0.5
2024-10-03T1700,1213A,119.135,33.5039,淮安市,楚州区监测站,,37,24,32,11,15,118,,111,111,15,24,7,7,0.6,0.6
2024-10-03T1700,1214A,119.0186,33.6297,淮安市,淮阴区监测站,,39,27,38,15,16,122,,111,111,23,37,4,4,0.5,0.6
2024-10-03T1700,3426A,118.8755,33.2894,淮安市,新华书店,,44,39,40,14,19,138,,122,122,14,27,9,11,0.6,0.7
2024-10-03T1700,2282A,116.8004,33.975,淮北市,监测站,,44,26,37,19,18,139,,113,113,11,17,10,9,0.5,0.5
2024-10-03T1700,2283A,116.8091,33.9007,淮北市,烈山区政府,,45,22,39,20,20,144,,120,120,9,18,8,7,0.3,0.3
2024-10-03T1700,3330A,116.8873,33.9836,淮北市,杜集区检察院,,46,45,56,23,24,147,,121,121,8,16,12,10,0.6,0.6
2024-10-03T1700,4017A,116.7923,33.9535,淮北市,市博物馆,,45,38,38,22,19,143,,118,118,15,20,11,11,0.5,0.5
2024-10-03T1700,2277A,116.8305,32.7727,淮南市,潘集区政府,,43,30,61,23,32,136,,117,117,19,30,7,11,0.4,0.4
2024-10-03T1700,2278A,117.0067,32.6524,淮南市,师范学院,,42,36,60,12,27,134,,116,116,12,24,6,8,0.4,0.3
2024-10-03T1700,2279A,116.8569,32.5951,淮南市,谢家集区政府,,40,39,56,21,26,128,,105,105,13,22,7,11,0.3,0.4
2024-10-03T1700,2280A,116.8281,32.633,淮南市,八公山区政府,,44,38,56,16,23,138,,118,118,14,21,10,10,0.2,0.3
2024-10-03T1700,2281A,116.6325,32.6201,淮南市,焦岗湖风景区管理处,,38,27,45,10,16,121,,100,100,10,18,8,7,0.0,0
2024-10-03T1700,2894A,117.0566,32.6531,淮南市,经济技术开发区消防队,,41,35,63,22,27,130,,117,117,8,22,5,7,0.3,0.3
2024-10-03T1700,3329A,117.0108,32.5893,淮南市,山南新区,,43,32,53,7,18,136,,123,123,16,23,3,5,0.3,0.3
2024-10-03T1700,2446A,114.9028,30.4742,黄冈市,职工中心,,43,43,44,14,17,136,,127,127,13,11,8,8,0.4,0.4
2024-10-03T1700,2929A,114.8858,30.4519,黄冈市,红卫路,,44,25,39,10,17,138,,128,128,10,11,7,7,0.4,0.4
2024-10-03T1700,3398A,114.9136,30.4445,黄冈市,市林业局,,45,27,52,10,15,142,,131,131,5,6,8,9,0.5,0.5
2024-10-03T1700,2672A,102.0199,35.5102,黄南藏族自治州,同仁县隆务镇,,41,41,32,20,14,91,,85,85,14,4,9,9,0.6,0.5
2024-10-03T1700,2295A,118.2903,29.6963,黄山市,延安路89号,,31,14,25,3,11,99,,101,101,4,7,6,7,0.2,0.2
2024-10-03T1700,2296A,118.327,29.7178,黄山市,黄山东路89号,,30,27,30,9,13,96,,98,98,4,7,5,6,0.2,0.3
2024-10-03T1700,2297A,118.1371,30.2756,黄山市,黄山区政府5号楼,,35,29,27,15,12,109,,99,99,7,8,7,7,0.3,0.4
2024-10-03T1700,2423A,115.0601,30.2313,黄石市,沈家营,,44,25,39,6,10,140,,133,133,8,14,10,10,0.4,0.5
2024-10-03T1700,2424A,115.0817,30.2006,黄石市,陈家湾,,45,18,36,10,14,142,,129,129,10,12,9,10,0.3,0.4
2024-10-03T1700,2426A,114.8988,30.2019,黄石市,铁山,,48,20,37,11,12,152,,136,136,9,9,7,8,0.6,0.5
2024-10-03T1700,2427A,115.0307,30.2092,黄石市,团城山,,44,23,41,8,9,140,,126,126,8,12,5,7,0.5,0.5
2024-10-03T1700,3149A,115.0235,30.1578,黄石市,笔架山北路,,45,17,33,3,8,141,,133,133,7,10,8,10,0.4,0.5
2024-10-03T1700,1392A,114.4183,23.0528,惠州市,河南岸金山湖子站,,38,34,37,16,15,119,,119,119,10,9,8,8,0.5,0.5
2024-10-03T1700,1393A,114.4053,23.0822,惠州市,下埔横江三路子站,,40,33,36,14,15,126,,124,124,9,12,8,6,0.6,0.6
2024-10-03T1700,1394A,114.4103,23.1142,惠州市,江北云山西路子站,,,31,35,17,15,121,,122,122,6,8,,7,0.6,0.6
2024-10-03T1700,1395A,114.4645,22.7833,惠州市,惠阳区承修路船湖子站,,37,36,42,15,15,116,,112,112,13,13,8,8,0.5,0.5
2024-10-03T1700,1396A,114.5317,22.7422,惠州市,大亚湾管委会子站,,36,35,33,15,14,114,,114,114,17,12,8,9,0.5,0.5
2024-10-03T1700,3314A,114.4338,22.8134,惠州市,惠阳秋长,,37,34,34,18,14,116,,116,116,9,8,7,7,0.6,0.7
2024-10-03T1700,3452A,114.6517,22.775,惠州市,大亚湾霞涌,,37,37,36,16,13,110,,108,108,7,6,6,6,0.9,0.8
2024-10-03T1700,2240A,130.9762,45.3001,鸡西市,环保局,,18,18,43,6,18,52,,63,63,16,22,7,6,0.2,0.4
2024-10-03T1700,2243A,130.9429,45.3039,鸡西市,第一中学,,24,,24,8,11,75,,74,74,6,7,5,5,0.0,0.1
2024-10-03T1700,3707A,131.0207,45.3073,鸡西市,欧美日汽修厂,,22,22,52,10,24,63,,70,70,19,20,4,7,0.1,0.3
2024-10-03T1700,3709A,130.9967,45.3106,鸡西市,市政设施管理处,,28,28,48,3,19,56,,71,69,26,22,5,6,0.2,0.2
2024-10-03T1700,2367A,114.9754,27.0803,吉安市,红声器材厂,,46,37,54,6,14,145,,130,130,14,17,11,13,0.4,0.5
2024-10-03T1700,2368A,114.9658,27.0999,吉安市,市森林工业局,,45,28,48,12,16,141,,127,127,15,13,9,12,0.6,0.6
2024-10-03T1700,2369A,114.99,27.1312,吉安市,市环境监测站,,45,31,47,9,15,144,,129,129,11,12,14,17,0.4,0.4
2024-10-03T1700,2370A,115.0093,27.0968,吉安市,青原区法院,,,30,48,12,16,150,,135,135,,17,,15,,0.6
2024-10-03T1700,1772A,126.54,43.8622,吉林市,哈达湾,,30,14,19,7,10,93,,90,90,10,15,6,7,0.4,0.5
2024-10-03T1700,1773A,126.5844,43.8358,吉林市,东局子,,28,13,16,9,8,87,,89,89,17,13,5,5,0.4,0.4
2024-10-03T1700,1774A,126.5052,43.8245,吉林市,电力学院,,29,14,28,12,16,91,,90,90,9,18,5,6,0.5,0.6
2024-10-03T1700,1775A,126.6133,43.8972,吉林市,江北,,26,14,26,12,11,83,,86,86,13,16,8,8,0.6,0.5
2024-10-03T1700,1776A,126.555,43.8306,吉林市,江南公园,,30,16,21,12,12,95,,91,91,8,16,6,6,0.4,0.5
2024-10-03T1700,1778A,126.7061,43.7133,吉林市,丰满,,23,11,10,9,8,72,,78,77,13,5,6,6,0.2,0.2
2024-10-03T1700,2868A,126.4739,43.953,吉林市,九站,,26,26,23,9,10,80,,87,87,20,16,6,8,0.5,0.5
2024-10-03T1700,1299A,116.9862,36.6114,济南市,科干所,,35,27,25,7,8,110,,97,97,22,31,7,6,0.5,0.5
2024-10-03T1700,1300A,116.9376,36.665,济南市,农科所,,32,22,32,7,9,101,,90,90,20,38,5,4,0.5,0.6
2024-10-03T1700,1301A,117.1265,36.6734,济南市,开发区,,34,34,25,15,13,99,,96,96,25,26,6,4,0.3,0.4
2024-10-03T1700,1303A,117.0624,36.6868,济南市,省种子仓库,,34,22,33,3,9,107,,93,93,14,32,3,5,0.2,0.2
2024-10-03T1700,1304A,116.9489,36.6447,济南市,机床二厂,,36,24,34,7,10,115,,98,98,21,37,5,4,0.6,0.6
2024-10-03T1700,1305A,117.0495,36.663,济南市,市监测站,,35,20,24,7,9,110,,99,99,19,34,4,4,0.4,0.5
2024-10-03T1700,1306A,116.7675,36.5484,济南市,长清党校,,40,32,18,15,8,128,,106,106,15,22,6,5,0.5,0.4
2024-10-03T1700,1616A,117.6795,36.229,济南市,技术学院,,38,24,26,19,16,119,,93,93,10,27,12,9,1.0,0.6
2024-10-03T1700,1961A,117.532,36.6868,济南市,东山小学,,44,27,19,3,5,139,,104,104,17,31,4,3,0.4,0.3
2024-10-03T1700,3059A,117.7161,36.2049,济南市,泰兴公司,,37,29,30,17,16,118,,93,93,15,31,14,9,1.0,0.4
2024-10-03T1700,3064A,117.6867,36.2171,济南市,莱芜战役纪念馆,,37,36,39,17,16,117,,93,93,14,31,12,8,1.2,0.7
2024-10-03T1700,3494A,117.1673,36.9782,济南市,济阳区政府,,34,32,42,10,10,107,,94,94,19,39,2,5,0.2,0.3
2024-10-03T1700,3495A,117.1171,36.63,济南市,锦屏中学,,35,17,11,3,5,111,,101,101,18,18,4,4,0.2,0.2
2024-10-03T1700,3682A,116.9814,36.6819,济南市,济南四建,,34,22,30,3,13,107,,90,90,15,42,3,3,0.2,0.4
2024-10-03T1700,1653A,116.6251,35.4302,济宁市,火炬城,,39,24,35,12,17,123,,102,102,14,29,10,9,0.4,0.5
2024-10-03T1700,1655A,116.5491,35.4042,济宁市,电化厂,,38,32,47,12,17,120,,93,93,13,28,8,8,0.4,0.5
2024-10-03T1700,3500A,116.5814,35.3707,济宁市,北湖一中,,40,24,28,14,17,126,,104,104,15,25,7,5,0.3,0.3
2024-10-03T1700,3501A,116.8249,35.5593,济宁市,服务中心,,34,33,45,14,20,106,,88,88,23,38,9,9,0.4,0.5
2024-10-03T1700,3678A,116.5907,35.4054,济宁市,市第七中学,,41,24,33,14,18,129,,106,106,11,24,8,9,0.4,0.5
2024-10-03T1700,2255A,130.2751,46.8028,佳木斯市,佳纺,,28,23,19,6,9,88,,84,84,5,5,2,3,0.3,0.3
2024-10-03T1700,2256A,130.3995,46.8307,佳木斯市,发电厂,,25,9,23,3,9,80,,56,,8,8,3,6,0.3,0.3
2024-10-03T1700,2257A,130.3258,46.7975,佳木斯市,环保局,,26,21,24,10,9,81,,79,79,8,6,8,8,0.3,0.2
2024-10-03T1700,2258A,130.3648,46.8032,佳木斯市,十一中,,28,28,23,8,10,75,,78,78,17,11,7,6,0.4,0.3
2024-10-03T1700,2259A,130.3794,46.7588,佳木斯市,四丰,,27,13,10,3,8,86,,80,80,6,6,1,1,0.1,0.1
2024-10-03T1700,1252A,120.7436,30.778,嘉兴市,清河小学,,33,21,23,3,7,104,,101,101,16,18,4,5,0.6,0.7
2024-10-03T1700,1253A,120.726,30.7478,嘉兴市,嘉兴学院,,35,23,21,10,10,112,,106,106,9,13,3,4,0.3,0.4
2024-10-03T1700,2872A,120.7846,30.7525,嘉兴市,南湖区残联,,36,24,23,9,9,113,,109,109,9,10,5,6,0.3,0.4
2024-10-03T1700,3407A,120.6916,30.7739,嘉兴市,秀洲住建,,34,19,26,10,13,107,,103,103,10,13,6,7,0.3,0.3
2024-10-03T1700,1945A,98.2908,39.7711,嘉峪关市,气象局,,38,31,47,9,14,121,,111,111,7,18,18,11,0.4,0.4
2024-10-03T1700,2884A,98.2672,39.7978,嘉峪关市,酒钢宾馆,,39,36,41,12,13,122,,112,112,9,16,45,19,0.6,0.6
2024-10-03T1700,3248A,98.2643,39.7724,嘉峪关市,雄关区,,37,33,43,10,16,116,,108,108,9,19,16,12,0.4,0.4
2024-10-03T1700,1383A,113.1064,22.6058,江门市,北街,臭氧1小时,67,77,40,19,14,173,,154,154,15,16,7,7,0.7,0.7
2024-10-03T1700,1384A,113.0731,22.5835,江门市,西区,臭氧1小时,64,62,44,12,6,171,,155,155,13,12,8,8,0.3,0.4
2024-10-03T1700,1385A,113.0219,22.5311,江门市,圭峰西,,50,44,36,19,16,160,,146,146,12,12,6,6,0.7,0.7
2024-10-03T1700,1386A,113.0828,22.5947,江门市,东湖,臭氧1小时,57,53,37,26,16,165,,152,152,14,13,7,7,0.4,0.4
2024-10-03T1700,3311A,113.1075,22.5647,江门市,江海富民,臭氧1小时,73,50,42,19,17,178,,155,155,14,13,8,9,0.4,0.6
2024-10-03T1700,3449A,113.05,22.4667,江门市,新会银湖,臭氧1小时,73,58,37,22,17,178,,159,159,12,12,9,8,0.6,0.5
2024-10-03T1700,1828A,113.227,35.2125,焦作市,市环保局,,45,45,61,24,33,144,,119,119,13,22,6,8,0.1,0.2
2024-10-03T1700,1830A,113.1992,35.2590,焦作市,影视城,,48,42,46,25,28,153,,129,129,9,9,7,7,0.4,0.5
2024-10-03T1700,3169A,113.2725,35.2067,焦作市,太极体育中心,,49,49,69,15,28,139,,116,116,14,26,7,8,0.1,0.3
2024-10-03T1700,3335A,113.3137,35.2641,焦作市,马村街道办,颗粒物(PM10),51,52,55,32,27,150,,125,125,10,18,5,6,0.1,0.3
2024-10-03T1700,3336A,113.2465,35.2373,焦作市,焦作技师学院,,45,44,48,22,25,142,,126,126,11,18,4,5,0.3,0.4
2024-10-03T1700,3477A,113.1656,35.2539,焦作市,中站许衡医院,,46,39,46,26,26,147,,123,123,12,24,2,2,0.4,0.4
2024-10-03T1700,3981A,113.2449,35.1803,焦作市,原李万街道办,颗粒物(PM10),51,51,62,24,32,145,,122,122,8,20,5,7,0.2,0.3
2024-10-03T1700,1708A,116.3701,23.5345,揭阳市,新兴,,35,35,26,22,14,95,,93,93,14,12,5,5,0.5,0.6
2024-10-03T1700,1709A,116.3264,23.5443,揭阳市,西马,,42,42,29,26,16,96,,97,97,12,6,6,6,0.6,0.5
2024-10-03T1700,1710A,116.3611,23.5626,揭阳市,东兴,,45,45,29,24,12,92,,93,93,17,12,6,5,0.7,0.6
2024-10-03T1700,1711A,116.4151,23.5294,揭阳市,渔湖,,37,37,23,18,12,92,,94,94,19,10,6,5,0.5,0.5
2024-10-03T1700,3320A,116.403,23.5699,揭阳市,曲溪,,33,33,22,16,13,94,,93,93,18,12,2,2,0.5,0.4
2024-10-03T1700,1944A,102.1692,38.5167,金昌市,天庆家园,,34,33,38,8,16,106,,93,93,18,21,10,22,0.5,0.5
2024-10-03T1700,3170A,102.1864,38.5253,金昌市,市委党校,,39,30,43,8,16,123,,109,109,8,16,7,36,0.5,0.6
2024-10-03T1700,4022A,102.1647,38.5371,金昌市,金川区人防中心,,39,39,39,10,19,113,,103,103,5,15,7,18,0.5,0.6
2024-10-03T1700,1262A,119.647,29.077,金华市,十五中,,36,34,34,15,12,113,,105,105,16,18,2,2,0.4,0.4
2024-10-03T1700,1263A,119.686,29.1029,金华市,监测站,,35,32,34,14,17,112,,102,102,11,16,3,3,0.5,0.5
2024-10-03T1700,3659A,119.656,29.1131,金华市,气象局,,34,32,32,19,13,108,,102,102,22,27,4,5,0.3,0.3
2024-10-03T1700,1767A,121.1115,41.0879,锦州市,南山,,32,32,36,14,24,84,,73,73,16,30,9,13,0.6,0.9
2024-10-03T1700,1768A,121.0533,40.8434,锦州市,开发区,颗粒物(PM10),56,61,78,10,30,76,,65,65,32,44,10,24,1.1,1.3
2024-10-03T1700,1769A,121.1836,41.1119,锦州市,百股街道,,29,10,30,3,16,92,,77,77,10,24,10,12,0.7,0.8
2024-10-03T1700,1770A,121.1178,41.1222,锦州市,天安街道,,28,28,45,8,24,86,,75,75,18,33,9,13,0.6,0.8
2024-10-03T1700,1771A,121.1303,41.1386,锦州市,北湖公园,,36,36,36,7,24,92,,80,80,17,28,9,12,0.6,0.7
2024-10-03T1700,2160A,112.85,35.5051,晋城市,自来水公司,,45,39,56,17,24,143,,120,120,18,31,12,11,0.5,0.9
2024-10-03T1700,2161A,112.8318,35.4936,晋城市,白云商贸,,45,44,66,14,22,141,,118,118,22,32,8,7,0.5,1
2024-10-03T1700,2162A,112.8508,35.4887,晋城市,市环保局,,45,36,59,17,22,142,,119,119,19,36,8,7,0.5,0.8
2024-10-03T1700,2163A,112.8676,35.4897,晋城市,技术学院,,45,34,55,12,20,142,,118,118,21,35,7,7,0.6,0.8
2024-10-03T1700,2165A,112.8453,35.546,晋城市,白马寺,,43,34,46,18,23,135,,118,118,14,17,11,11,0.6,0.8
2024-10-03T1700,3620A,112.8271,35.4828,晋城市,泽州一中,,49,49,56,19,21,138,,109,109,17,32,12,10,0.8,1
2024-10-03T1700,2171A,112.7532,37.6945,晋中市,锦纶小区,,44,41,37,24,14,138,,108,108,15,24,10,7,0.5,0.4
2024-10-03T1700,2173A,112.7249,37.7067,晋中市,南都小区,,44,41,44,22,20,138,,107,107,14,35,9,6,0.4,0.4
2024-10-03T1700,2174A,112.6991,37.6982,晋中市,榆次区政府,,44,39,37,12,18,140,,108,108,18,30,10,6,0.4,0.4
2024-10-03T1700,2865A,112.7195,37.6828,晋中市,榆次三中,,46,46,39,19,12,138,,106,106,15,23,13,9,0.5,0.4
2024-10-03T1700,2439A,112.2014,31.0481,荆门市,竹园小学,,44,25,69,13,23,139,,128,128,13,22,11,12,0.3,0.5
2024-10-03T1700,2440A,112.1969,30.9891,荆门市,掇刀,,44,24,66,15,24,140,,130,130,17,19,8,9,0.4,0.5
2024-10-03T1700,2441A,112.2213,31.0386,荆门市,石化一小,,44,32,69,18,23,139,,128,128,11,20,11,17,0.3,0.4
2024-10-03T1700,3012A,112.1849,31.0362,荆门市,西山林语,,45,28,63,12,23,142,,130,130,10,16,8,10,0.5,0.5
2024-10-03T1700,3547A,112.1632,31.0138,荆门市,龙泉中学南校,,44,23,68,10,24,140,,131,131,17,20,9,9,0.3,0.5
2024-10-03T1700,1844A,112.2494,30.3197,荆州市,市图书馆,,45,39,61,16,33,143,,129,129,16,21,9,11,0.4,0.5
2024-10-03T1700,1845A,112.2008,30.3544,荆州市,市委党校,,44,26,58,16,34,139,,130,130,15,20,8,9,0.3,0.4
2024-10-03T1700,3194A,112.2747,30.3122,荆州市,管委会,,45,24,54,16,32,143,,133,133,17,18,9,10,0.5,0.5
2024-10-03T1700,3548A,112.1655,30.3364,荆州市,学苑路,,48,40,77,15,32,151,,137,137,13,19,7,9,0.5,0.6
2024-10-03T1700,2343A,117.2117,29.2933,景德镇市,老干部活动中心,,28,,27,12,13,89,,86,86,5,7,7,10,0.3,0.5
2024-10-03T1700,2344A,117.1894,29.2789,景德镇市,兽医站,,31,17,30,9,11,99,,99,99,2,4,6,9,0.3,0.3
2024-10-03T1700,2345A,117.1547,29.2617,景德镇市,台达陶瓷,,32,20,26,15,12,102,,101,101,6,7,6,7,0.4,0.5
2024-10-03T1700,2346A,117.2461,29.2956,景德镇市,陶研所,,31,20,27,10,8,99,,103,103,10,10,6,6,0.3,0.4
2024-10-03T1700,1803A,115.9872,29.6815,九江市,十里,,45,30,38,12,12,141,,126,126,12,13,10,10,0.4,0.4
2024-10-03T1700,1804A,115.9584,29.7046,九江市,茅山头,,41,23,31,14,12,130,,116,116,13,13,9,10,0.6,0.5
2024-10-03T1700,1805A,115.9877,29.7295,九江市,西园,,44,28,33,14,12,140,,127,127,13,13,10,10,0.4,0.4
2024-10-03T1700,1806A,116.0172,29.6547,九江市,五七二七厂,,40,19,36,16,13,128,,118,118,10,11,10,11,0.5,0.4
2024-10-03T1700,1808A,115.9114,29.6038,九江市,综合工业园,,44,,33,14,14,139,,127,127,17,16,10,11,0.4,0.3
2024-10-03T1700,1809A,116.0721,29.7535,九江市,石化总厂,,38,25,42,20,19,121,,116,116,13,15,10,9,0.5,0.5
2024-10-03T1700,1810A,115.9773,29.5698,九江市,庐山气象台,,41,28,41,20,17,131,,125,125,6,5,7,8,0.5,0.6
2024-10-03T1700,3190A,116.0254,29.6994,九江市,外国语学校,,38,27,40,8,9,121,,112,112,13,15,8,10,0.5,0.6
2024-10-03T1700,2658A,98.5061,39.7443,酒泉市,仓门街子站,,39,34,45,14,20,122,,106,106,4,19,10,10,0.5,0.5
2024-10-03T1700,2659A,98.4989,39.7256,酒泉市,油田生活基地,,41,41,48,17,20,128,,114,114,6,17,10,11,0.4,0.4
2024-10-03T1700,2698A,76.0072,39.4467,喀什地区,巡警大队,颗粒物(PM10),79,108,200,13,39,102,,51,51,9,46,5,6,0.4,0.9
2024-10-03T1700,2699A,75.9755,39.4694,喀什地区,吾办,颗粒物(PM10),81,111,167,30,51,104,,56,56,12,43,4,4,0.5,0.9
2024-10-03T1700,4027A,75.9483,39.4689,喀什地区,老干局,颗粒物(PM10),78,105,200,16,36,101,,61,61,8,33,5,5,0.4,0.8
2024-10-03T1700,1824A,114.3389,34.7781,开封市,肿瘤医院,,47,42,72,23,42,148,,129,129,7,33,4,3,0.3,0.4
2024-10-03T1700,1826A,114.2885,34.7965,开封市,世纪星幼儿园,,48,43,61,26,34,153,,136,136,13,35,9,8,0.5,0.7
2024-10-03T1700,3147A,114.3438,34.8106,开封市,龙亭公园,颗粒物(PM10),53,56,74,36,48,144,,130,130,17,36,9,8,0.4,0.5
2024-10-03T1700,3210A,114.3644,34.7964,开封市,汴京公园,,49,49,82,29,48,135,,120,120,14,31,5,4,0.2,0.4
2024-10-03T1700,3473A,114.2485,34.8306,开封市,技师学院,,47,35,58,20,32,149,,131,131,10,32,5,9,0.2,0.4
2024-10-03T1700,3592A,114.4644,34.7556,开封市,祥符区生态环境局,,43,40,78,22,39,136,,122,122,17,49,8,9,0.3,0.5
2024-10-03T1700,1951A,84.895,45.6094,克拉玛依市,长征新村,,27,25,35,7,8,84,,88,88,5,11,6,7,0.2,0.3
2024-10-03T1700,1952A,84.8988,45.5893,克拉玛依市,南林小区,,27,23,33,10,14,86,,86,86,10,20,1,2,0.2,0.1
2024-10-03T1700,1954A,84.905,44.3396,克拉玛依市,独山子区,,35,31,39,15,18,109,,96,96,10,19,8,9,0.3,0.4
2024-10-03T1700,1955A,85.6979,46.098,克拉玛依市,乌尔禾区商贸楼,,38,38,48,6,13,90,,55,55,13,26,2,13,0.2,0.6
2024-10-03T1700,3612A,85.1045,45.6899,克拉玛依市,白碱滩区新站,,47,47,44,20,13,94,,78,78,8,17,8,8,0.2,0.4
2024-10-03T1700,2697A,76.1454,39.7142,克孜勒苏柯尔克孜自治州,市人民政府,颗粒物(PM10),74,98,126,36,34,122,,90,90,1,19,3,12,0.8,0.8
2024-10-03T1700,3665A,76.1658,39.7157,克孜勒苏柯尔克孜自治州,克州文化中心,颗粒物(PM10),75,100,117,32,38,118,,89,89,5,22,6,19,0.7,0.7
2024-10-03T1700,1450A,102.8204,24.8886,昆明市,呈贡新区,,27,19,28,16,22,85,,59,59,9,10,6,5,0.5,0.5
2024-10-03T1700,1452A,102.7252,25.0902,昆明市,龙泉镇,,23,21,27,13,14,71,,58,58,10,15,6,7,0.7,0.7
2024-10-03T1700,1453A,102.7266,25.0375,昆明市,东风东路,,22,19,35,15,19,70,,58,58,10,18,5,6,0.4,0.5
2024-10-03T1700,1454A,102.6742,25.0669,昆明市,金鼎山,,22,22,34,12,16,67,,58,58,14,12,2,2,0.5,0.5
2024-10-03T1700,1455A,102.6644,25.0401,昆明市,碧鸡广场,,21,19,35,3,15,67,,55,55,11,18,6,7,0.6,0.8
2024-10-03T1700,3179A,102.7494,25.0119,昆明市,官渡区博物馆,,26,23,31,13,20,82,,65,65,6,19,6,7,0.5,0.6
2024-10-03T1700,3375A,102.8017,24.8336,昆明市,青年创业园,,29,17,27,14,24,90,,64,64,6,11,4,4,0.5,0.6
2024-10-03T1700,3550A,102.7997,24.9786,昆明市,昆明学院,,28,16,36,9,23,89,,65,65,7,13,5,7,0.4,0.5
2024-10-03T1700,3551A,102.5967,24.6736,昆明市,晋宁区生态环境分局,,28,16,29,9,18,88,,68,68,5,12,1,2,0.6,0.7
2024-10-03T1700,3552A,102.6678,24.9856,昆明市,云天化总部,,26,9,30,3,20,82,,63,63,5,12,4,6,0.2,0.4
2024-10-03T1700,1456A,91.1319,29.6514,拉萨市,八廓街,,29,8,14,6,9,90,,76,76,7,17,8,8,0.0,0.1
2024-10-03T1700,1457A,91.1221,29.6747,拉萨市,市环保局,,29,7,15,3,7,92,,76,76,8,13,6,6,0.2,0.3
2024-10-03T1700,1458A,91.0874,29.6475,拉萨市,区监测站,,27,6,10,3,6,86,,72,72,6,14,6,6,0.3,0.4
2024-10-03T1700,1459A,91.1774,29.6541,拉萨市,西藏大学,,28,6,10,3,6,89,,76,76,2,11,8,9,0.4,0.4
2024-10-03T1700,1460A,90.9798,29.6588,拉萨市,区辐射站,,26,10,14,8,7,83,,70,70,9,15,8,8,0.2,0.2
2024-10-03T1700,1461A,91.0834,29.6292,拉萨市,拉萨火车站,,26,7,9,3,5,83,,72,72,6,11,6,5,0.2,0.3
2024-10-03T1700,2520A,109.2203,23.7256,来宾市,来宾技工学校,颗粒物(PM10),54,57,46,28,17,147,,128,128,11,10,13,12,0.6,0.5
2024-10-03T1700,3535A,109.1781,23.7297,来宾市,兴宾区政府,,47,,35,29,21,150,,134,134,10,8,10,9,0.8,0.7
2024-10-03T1700,4002A,109.2416,23.7461,来宾市,中南小学,颗粒物(PM10),61,72,51,28,17,154,,137,137,6,6,12,12,0.7,0.6
2024-10-03T1700,1476A,103.631,36.1031,兰州市,兰炼宾馆,,40,35,51,28,30,91,,82,82,8,41,8,12,0.3,0.6
2024-10-03T1700,1478A,103.8412,36.0726,兰州市,生物制品所,,29,26,47,20,24,68,,70,70,14,38,8,10,0.3,0.5
2024-10-03T1700,1479A,103.831,36.0464,兰州市,铁路设计院,,25,25,51,16,31,66,,66,66,15,56,5,8,0.4,0.8
2024-10-03T1700,3186A,103.7158,36.1058,兰州市,教育港,,39,39,49,26,30,77,,76,76,13,39,7,9,0.4,0.6
2024-10-03T1700,3241A,103.7439,36.0842,兰州市,百合公园,,29,29,42,16,22,76,,78,78,11,38,7,9,0.4,0.6
2024-10-03T1700,3242A,103.9611,35.998,兰州市,和平,,33,33,33,16,14,76,,78,78,6,14,8,9,0.3,0.3
2024-10-03T1700,3245A,103.6633,36.533,兰州新区,新区管委会,,36,36,49,18,27,112,,94,94,8,26,22,13,0.6,0.6
2024-10-03T1700,3246A,103.6975,36.4789,兰州新区,舟曲中学,,34,23,48,12,24,107,,95,95,8,31,17,19,0.3,0.5
2024-10-03T1700,1067A,116.6708,39.5111,廊坊市,药材公司,,37,28,44,15,24,116,,78,78,12,32,3,3,0.4,0.4
2024-10-03T1700,1068A,116.7214,39.5589,廊坊市,开发区,,40,29,34,16,17,125,,81,81,11,29,4,2,0.4,0.4
2024-10-03T1700,1070A,116.7244,39.5269,廊坊市,北华航天学院,,39,35,42,20,16,124,,82,82,10,31,4,3,0.4,0.4
2024-10-03T1700,2919A,116.7022,39.5453,廊坊市,河北工业大学,,38,26,41,16,23,119,,84,84,10,31,5,3,0.4,0.4
2024-10-03T1700,2535A,103.7723,29.5462,乐山市,花湖湾,,20,19,21,11,13,63,,57,57,10,11,2,2,0.5,0.6
2024-10-03T1700,2536A,103.7627,29.5844,乐山市,牛耳桥,,22,22,24,15,17,64,,62,62,20,16,4,5,0.3,0.4
2024-10-03T1700,2537A,103.7508,29.6006,乐山市,市第三水厂,,24,21,24,16,18,76,,67,67,10,11,4,4,0.5,0.5
2024-10-03T1700,2538A,103.7571,29.5664,乐山市,市监测站,,20,20,24,12,15,64,,65,65,13,11,3,4,0.4,0.4
2024-10-03T1700,3361A,103.7311,29.5628,乐山市,理工大学,,23,23,22,16,16,73,,69,69,12,11,4,4,0.4,0.5
2024-10-03T1700,2599A,100.2497,26.8802,丽江市,丽江古城,,25,18,14,17,12,54,,47,47,10,8,9,9,0.8,0.7
2024-10-03T1700,2600A,100.2203,26.8906,丽江市,市中心,,24,24,11,10,8,48,,42,42,9,9,7,7,0.8,0.8
2024-10-03T1700,1267A,119.914,28.4514,丽水市,监测站大楼,,,20,28,17,12,113,,106,106,12,13,4,4,,0.1
2024-10-03T1700,1268A,119.93,28.4586,丽水市,莲都小学,,36,32,30,17,15,115,,106,106,11,13,4,4,0.3,0.3
2024-10-03T1700,1269A,119.879,28.4231,丽水市,余庄前,,35,24,27,14,14,110,,104,104,9,9,4,4,0.3,0.2
2024-10-03T1700,1173A,119.176,34.5885,连云港市,市环境监测站,,40,29,36,3,17,128,,112,112,11,21,10,10,0.6,0.7
2024-10-03T1700,3000A,119.3581,34.6972,连云港市,德源药业,,39,22,27,9,12,124,,111,111,17,27,9,7,0.4,0.4
2024-10-03T1700,3007A,119.178,34.844,连云港市,新城一中,,42,38,38,13,23,132,,116,116,18,27,8,12,0.6,0.8
2024-10-03T1700,3008A,119.3608,34.7519,连云港市,胡沟管理处,,38,27,21,3,8,119,,105,105,16,14,5,3,0.5,0.4
2024-10-03T1700,3009A,119.1478,34.5911,连云港市,矿山设计院,,42,27,39,12,19,132,,114,114,12,25,8,10,0.7,0.8
2024-10-03T1700,3434A,119.2413,34.6539,连云港市,工贸学校,,40,19,29,13,18,126,,115,115,14,17,10,9,0.9,1
2024-10-03T1700,3664A,119.4172,34.7341,连云港市,连云街道,,38,27,25,14,10,121,,108,108,18,17,7,7,0.3,0.3
2024-10-03T1700,2571A,102.3431,27.8099,凉山彝族自治州,青龙寺,,15,6,10,3,5,46,,41,39,7,6,5,5,0.6,0.7
2024-10-03T1700,2572A,102.2721,27.8415,凉山彝族自治州,邛海宾馆,,14,14,15,9,10,42,,44,41,13,12,7,9,0.6,0.6
2024-10-03T1700,2573A,102.2625,27.898,凉山彝族自治州,西昌市政府,,20,17,19,14,17,38,,39,39,17,13,8,10,0.6,0.6
2024-10-03T1700,2574A,102.2685,27.8851,凉山彝族自治州,凉山州政府,,24,24,21,13,12,37,,40,40,19,13,6,9,0.7,0.8
2024-10-03T1700,2575A,102.237,27.8914,凉山彝族自治州,长安,,29,29,19,13,10,25,,39,36,28,14,10,12,0.7,0.8
2024-10-03T1700,2212A,123.2,41.1953,辽阳市,宏伟区,,32,32,23,10,11,80,,86,86,22,17,7,6,0.4,0.4
2024-10-03T1700,2213A,123.1683,41.2495,辽阳市,新华园,,28,28,35,18,20,77,,77,77,22,28,16,14,1.0,0.9
2024-10-03T1700,2214A,123.2354,41.2639,辽阳市,滨河路,,30,30,29,8,17,77,,76,76,18,22,15,12,0.9,0.8
2024-10-03T1700,2215A,123.149,41.2991,辽阳市,铁西工业园,,46,46,35,13,19,76,,72,72,17,22,17,14,0.7,0.9
2024-10-03T1700,2227A,125.1358,42.8845,辽源市,环保局,,30,11,29,6,12,93,,92,92,3,18,8,8,0.5,0.6
2024-10-03T1700,3239A,125.0764,42.9078,辽源市,银鹰制药,,26,8,26,7,14,81,,85,85,16,27,5,6,0.5,0.6
2024-10-03T1700,1625A,115.9848,36.4372,聊城市,区政府,,44,41,37,19,16,139,,106,106,16,34,9,9,0.4,0.4
2024-10-03T1700,2878A,116.0072,36.4343,聊城市,聊大东校,,44,39,38,18,22,139,,110,110,19,34,8,9,0.6,0.5
2024-10-03T1700,3200A,115.9819,36.4978,聊城市,监控中心,,43,42,41,22,20,136,,107,107,15,40,8,9,0.4,0.6
2024-10-03T1700,3513A,116.0445,36.4361,聊城市,九州社区,,44,44,44,9,17,130,,103,103,12,37,5,6,0.4,0.4
2024-10-03T1700,4018A,116.0567,36.4608,聊城市,星美广场,,42,33,53,17,17,132,,107,107,9,29,8,8,0.3,0.3
2024-10-03T1700,2632A,94.3681,29.6376,林芝市,林芝监测站,,15,6,3,3,4,46,,37,36,3,4,9,10,0.2,0.2
2024-10-03T1700,2633A,94.3616,29.6616,林芝市,林芝人民医院,,15,6,5,3,3,48,,38,38,6,7,5,5,0,0
2024-10-03T1700,2603A,100.0781,23.8982,临沧市,市环保局,,16,12,12,3,10,49,,44,44,6,7,4,4,0.4,0.5
2024-10-03T1700,2604A,100.0894,23.8822,临沧市,市气象局,,16,11,12,10,7,49,,44,44,6,6,4,3,0.5,0.5
2024-10-03T1700,1733A,111.5531,36.0783,临汾市,临钢医院,颗粒物(PM10),56,62,60,12,18,137,,111,111,21,34,6,6,0.6,0.7
2024-10-03T1700,1734A,111.5028,36.0714,临汾市,技工学校,,44,44,67,11,26,140,,115,115,13,36,6,8,0.5,0.8
2024-10-03T1700,1736A,111.5018,36.0855,临汾市,市委,,47,40,63,8,18,149,,123,123,10,27,7,9,0.6,0.7
2024-10-03T1700,3018A,111.505,36.1014,临汾市,唐尧大酒店,,45,25,67,16,22,142,,123,123,12,31,7,7,0.6,0.7
2024-10-03T1700,3668A,111.5036,36.0414,临汾市,城南,,44,39,69,7,29,138,,119,119,13,31,6,7,0.4,0.7
2024-10-03T1700,2667A,103.2069,35.5993,临夏回族自治州,环保局,,37,37,48,13,23,92,,84,84,8,24,13,11,0.3,0.6
2024-10-03T1700,2668A,103.2417,35.6057,临夏回族自治州,建设大厦,,31,26,38,18,20,99,,82,82,7,18,3,2,0.3,0.5
2024-10-03T1700,1618A,118.3429,35.0532,临沂市,沂河小区,,40,24,38,15,24,126,,106,106,8,18,6,9,0.3,0.4
2024-10-03T1700,1619A,118.295,35.0583,临沂市,鲁南制药厂,,41,22,37,16,18,129,,109,109,9,22,5,8,0.2,0.3
2024-10-03T1700,1620A,118.2794,34.9976,临沂市,新光毛纺厂,,40,,37,18,21,125,,107,107,14,28,5,7,0.4,0.6
2024-10-03T1700,1621A,118.3956,35.0888,临沂市,河东保险公司,,42,24,38,12,22,133,,118,118,19,33,6,10,0.6,0.7
2024-10-03T1700,3370A,118.3564,35.0215,临沂市,十里堡居委,,40,17,29,14,18,126,,107,107,12,22,4,7,0.4,0.5
2024-10-03T1700,3496A,118.3604,35.1084,临沂市,南坊新区,,41,24,40,9,21,130,,108,108,11,26,7,10,0.3,0.5
2024-10-03T1700,3860A,118.3920,35.0300,临沂市,皇山花园小区,,39,,44,16,23,124,,109,109,12,32,7,9,0.3,0.3
2024-10-03T1700,1870A,109.4856,24.3895,柳州市,柳东小学,颗粒物(PM10),55,60,49,27,20,136,,127,127,6,6,11,10,0.5,0.5
2024-10-03T1700,1871A,109.4157,24.3277,柳州市,环保监测站,,42,33,55,28,22,133,,125,125,10,11,14,13,0.7,0.7
2024-10-03T1700,1872A,109.389,24.341,柳州市,河西水厂,颗粒物(PM10),71,91,69,23,24,132,,120,120,8,24,11,30,0.8,2
2024-10-03T1700,1874A,109.4006,24.3631,柳州市,市九中,颗粒物(PM10),59,68,62,30,23,129,,123,123,12,11,14,12,1.1,1.1
2024-10-03T1700,1875A,109.4958,24.3134,柳州市,古亭山,颗粒物(PM10),56,62,45,22,15,152,,135,135,12,10,12,10,0.6,0.6
2024-10-03T1700,3402A,109.5422,24.3996,柳州市,市二中,颗粒物(PM10),55,60,47,23,18,155,,136,136,9,9,12,10,0.5,0.5
2024-10-03T1700,2307A,116.5079,31.737,六安市,监测大楼,,42,29,38,15,16,132,,120,120,7,16,5,6,0.3,0.3
2024-10-03T1700,2308A,116.4738,31.7643,六安市,皖西学院,,42,34,52,17,18,134,,123,123,12,21,5,6,0.4,0.3
2024-10-03T1700,2309A,116.4996,31.7905,六安市,朝阳厂,,41,18,38,9,17,130,,117,117,10,19,1,2,0.3,0.3
2024-10-03T1700,2310A,116.5567,31.7886,六安市,开发区,,42,22,54,15,22,133,,121,121,9,23,1,2,0.3,0.4
2024-10-03T1700,2577A,104.83,26.5917,六盘水市,黄土坡,,29,25,25,16,18,92,,80,80,9,9,8,6,0.2,0.3
2024-10-03T1700,2578A,104.89,26.5939,六盘水市,水钢,,31,24,26,9,15,98,,86,86,6,8,7,7,0.1,0.2
2024-10-03T1700,2579A,104.8475,26.5894,六盘水市,民中,,29,19,23,12,12,90,,80,80,11,11,8,8,0.3,0.4
2024-10-03T1700,2580A,104.9544,26.5506,六盘水市,双水,,30,19,24,11,15,93,,85,85,6,6,8,8,0.4,0.4
2024-10-03T1700,2336A,117.0217,25.1033,龙岩市,龙岩市监测站,,27,19,16,15,8,86,,91,91,10,8,6,7,0.3,0.3
2024-10-03T1700,2337A,117.0258,25.0661,龙岩市,闽西职业技术学院,,28,18,16,11,8,87,,93,93,6,3,4,4,0.4,0.4
2024-10-03T1700,2338A,117.0196,25.0306,龙岩市,龙岩学院,,28,17,17,11,7,89,,93,92,6,5,3,3,0.4,0.3
2024-10-03T1700,2885A,104.9339,33.3826,陇南市,滨江中学,,43,43,43,13,17,78,,83,83,8,9,7,9,0.7,0.7
2024-10-03T1700,3247A,104.955,33.371,陇南市,市总工会,,28,28,30,3,5,82,,88,88,7,6,2,3,0.4,0.4
2024-10-03T1700,2487A,111.9589,27.8901,娄底市,电视发射台,颗粒物(PM10),54,58,80,26,28,123,,119,119,7,7,8,8,0.8,0.7
2024-10-03T1700,2488A,111.9975,27.725,娄底市,市监测站,颗粒物(PM10),53,55,72,26,35,128,,127,127,9,11,7,10,0.4,0.4
2024-10-03T1700,2489A,112.0194,27.7314,娄底市,市委党校,颗粒物(PM10),54,57,78,26,35,119,,115,115,9,9,5,6,0.4,0.4
2024-10-03T1700,2490A,111.9561,27.7569,娄底市,涟钢,颗粒物(PM10),63,76,76,29,35,98,,100,100,28,13,9,7,0.8,0.7
2024-10-03T1700,2491A,111.9892,27.7044,娄底市,市政府,颗粒物(PM10),51,51,71,25,33,124,,121,121,10,9,6,7,0.6,0.5
2024-10-03T1700,1893A,105.4324,28.9634,泸州市,九狮山,,22,13,23,13,14,69,,54,54,16,18,5,5,0.7,0.8
2024-10-03T1700,1894A,105.4427,28.9063,泸州市,小市上码头,,24,23,26,10,11,76,,66,66,14,13,4,4,0.4,0.4
2024-10-03T1700,1895A,105.4241,28.8573,泸州市,兰田宪桥,,26,26,33,13,15,77,,65,65,10,12,3,3,0.4,0.5
2024-10-03T1700,1896A,105.4379,28.8833,泸州市,市环监站,,22,22,24,13,19,62,,57,57,18,14,3,3,0.5,0.5
2024-10-03T1700,3490A,105.3617,28.7703,泸州市,纳溪区环保局,,26,26,26,13,20,71,,65,65,8,12,5,5,0.3,0.4
2024-10-03T1700,2183A,111.1406,37.5211,吕梁市,环保局,,41,36,44,19,14,129,,106,106,10,26,6,5,0.4,0.4
2024-10-03T1700,2185A,111.1297,37.5136,吕梁市,自来水公司,,43,37,48,18,12,136,,108,108,7,24,3,5,0.4,0.4
2024-10-03T1700,2867A,111.1283,37.51,吕梁市,马茂庄小学,,47,47,47,22,12,137,,111,111,9,31,4,5,0.3,0.3
2024-10-03T1700,1812A,112.3931,34.6516,洛阳市,市委党校,颗粒物(PM10),53,55,76,32,45,153,,119,119,12,34,9,10,0.4,0.6
2024-10-03T1700,1814A,112.4657,34.6871,洛阳市,豫西宾馆,颗粒物(PM10),59,67,76,28,35,142,,98,98,10,34,10,13,0.5,0.6
2024-10-03T1700,1816A,112.3844,34.623,洛阳市,开发区管委会,,47,47,74,29,46,150,,123,123,11,24,4,4,0.2,0.4
2024-10-03T1700,1817A,112.4267,34.6258,洛阳市,市委新办公区,,45,45,71,31,42,144,,114,114,10,24,4,4,0.2,0.3
2024-10-03T1700,3340A,112.6005,34.6326,洛阳市,伊滨,颗粒物(PM10),53,55,66,32,39,152,,117,117,14,29,11,9,0.2,0.4
2024-10-03T1700,3341A,112.4951,34.6332,洛阳市,中移产业园,,49,44,63,24,39,156,,124,124,11,30,3,4,0.3,0.4
2024-10-03T1700,3593A,112.5736,34.8993,洛阳市,吉利监测站,颗粒物(PM10),53,55,59,30,30,142,,124,124,12,38,9,7,0.2,0.4
2024-10-03T1700,3635A,112.3677,34.662,洛阳市,河科大西苑校区,颗粒物(PM10),53,56,79,33,46,158,,120,120,14,39,6,9,0.4,0.6
2024-10-03T1700,3636A,112.4388,34.6781,洛阳市,英才小学,颗粒物(PM10),61,71,77,24,33,154,,116,116,15,41,5,7,0.3,0.5
2024-10-03T1700,2399A,114.051,33.5699,漯河市,三五一五工厂,,49,49,94,21,50,144,,124,124,8,29,8,10,0.3,0.4
2024-10-03T1700,2400A,114.0055,33.5698,漯河市,漯河大学,颗粒物(PM10),52,53,84,19,53,146,,134,134,14,31,6,8,0.4,0.6
2024-10-03T1700,2401A,114.0138,33.5828,漯河市,市水利局,颗粒物(PM10),51,51,86,17,46,146,,126,126,7,26,7,10,0.5,0.7
2024-10-03T1700,2402A,114.0261,33.5698,漯河市,市广电局,,47,39,87,23,52,148,,129,129,10,25,12,14,0.5,0.6
2024-10-03T1700,3478A,113.9749,33.5664,漯河市,市图书馆,,48,38,88,11,45,153,,133,133,8,28,4,7,0.3,0.4
2024-10-03T1700,3479A,114.0967,33.5906,漯河市,召陵区卫健委,颗粒物(PM10),84,117,108,12,54,146,,128,128,6,32,10,16,0.4,0.5
2024-10-03T1700,1798A,118.5092,31.6837,马鞍山市,湖东路四小,,44,26,27,8,12,140,,119,119,12,19,6,7,0.5,0.5
2024-10-03T1700,1799A,118.5024,31.6449,马鞍山市,开发区,,44,14,23,10,10,138,,114,114,20,24,7,7,0.7,0.8
2024-10-03T1700,1800A,118.5228,31.7231,马鞍山市,慈湖,,41,20,30,15,21,131,,118,118,19,30,8,8,1.0,1
2024-10-03T1700,1802A,118.6245,31.7241,马鞍山市,濮塘,,43,25,21,9,11,136,,117,117,2,2,9,9,0.8,0.9
2024-10-03T1700,3633A,118.4918,31.6809,马鞍山市,雨山,,44,24,29,10,14,138,,116,116,14,23,7,8,0.6,0.6
2024-10-03T1700,1686A,111.0286,21.4688,茂名市,电白南海,臭氧1小时,54,53,54,14,17,163,,144,144,15,11,12,15,0.6,0.6
2024-10-03T1700,1687A,110.9294,21.6533,茂名市,茂石化七小,,46,46,43,19,21,146,,135,135,9,11,10,13,0.6,0.6
2024-10-03T1700,1688A,110.9107,21.6687,茂名市,健康路,,48,39,40,27,20,151,,144,144,6,8,11,19,0.6,0.8
2024-10-03T1700,1689A,110.8592,21.6828,茂名市,高岭,,45,44,47,24,23,144,,140,140,9,12,11,18,0.6,0.7
2024-10-03T1700,3450A,111.01,21.5165,茂名市,电白水东,,49,44,48,24,25,156,,136,136,8,11,8,24,0.6,0.7
2024-10-03T1700,2539A,104.0308,30.0478,眉山市,黑龙滩水库,,26,16,29,7,21,82,,86,86,1,4,3,4,0.4,0.5
2024-10-03T1700,2540A,103.8416,30.0874,眉山市,气象局,,26,15,28,7,17,81,,72,72,12,18,5,6,0.3,0.4
2024-10-03T1700,3137A,103.8578,30.0744,眉山市,市委党校,,25,17,24,7,13,79,,75,75,11,15,8,8,0.3,0.3
2024-10-03T1700,3148A,103.8291,30.0564,眉山市,区人社局,,25,11,33,3,13,78,,73,73,19,19,6,7,0.4,0.5
2024-10-03T1700,1690A,116.1231,24.3284,梅州市,梅江月梅,,30,22,26,20,13,94,,103,103,8,9,8,8,0.5,0.5
2024-10-03T1700,1691A,116.0797,24.2719,梅州市,梅县新城,,30,22,28,17,8,94,,99,99,10,11,4,5,0.5,0.6
2024-10-03T1700,1692A,116.1248,24.2654,梅州市,环境监控中心,,,30,26,15,9,90,,102,102,14,13,,5,0.5,0.5
2024-10-03T1700,3315A,116.1233,24.2991,梅州市,梅龙,,29,24,28,16,14,91,,101,101,10,10,10,10,0.5,0.5
2024-10-03T1700,1878A,104.7778,31.4741,绵阳市,富乐山,,28,12,32,9,23,88,,75,75,10,15,2,2,0.3,0.4
2024-10-03T1700,1879A,104.7563,31.4535,绵阳市,市人大,,27,13,42,10,23,86,,78,78,14,14,4,9,0.4,0.5
2024-10-03T1700,1880A,104.6697,31.4668,绵阳市,高新区自来水公司,,29,11,48,7,22,92,,77,77,8,19,4,6,0.3,0.4
2024-10-03T1700,1881A,104.7287,31.5075,绵阳市,三水厂,,27,19,48,3,25,86,,72,72,9,25,5,6,0.2,0.7
2024-10-03T1700,3491A,104.69,31.5322,绵阳市,西科大附属小学,,29,7,36,6,20,91,,85,85,4,21,3,4,0.3,0.5
2024-10-03T1700,3492A,104.5648,31.5343,绵阳市,安州区旅游局,,30,,33,9,24,93,,72,72,9,18,7,8,0.3,0.5
2024-10-03T1700,1784A,129.61,44.561,牡丹江市,环保大楼,,26,26,29,16,21,65,,75,75,24,17,8,7,0.4,0.4
2024-10-03T1700,1785A,129.6115,44.5782,牡丹江市,文化广场,,34,34,46,19,23,70,,71,71,20,22,8,8,0.4,0.5
2024-10-03T1700,1786A,129.5904,44.5963,牡丹江市,第一医院,,38,33,36,26,26,58,,70,70,31,19,7,7,0.3,0.4
2024-10-03T1700,1787A,129.6364,44.6075,牡丹江市,机车工厂,,38,38,36,23,23,50,,73,70,36,17,7,39,0.3,0.4
2024-10-03T1700,1788A,129.6386,44.5462,牡丹江市,第一中学,,25,19,29,12,20,78,,81,81,15,13,6,6,0.2,0.2
2024-10-03T1700,2531A,105.0703,29.61,内江市,市监测站,,24,18,20,12,10,75,,68,68,13,14,6,6,0.3,0.3
2024-10-03T1700,2532A,105.0717,29.5947,内江市,东兴区政府,,25,22,14,9,8,79,,81,81,20,15,2,2,0.4,0.4
2024-10-03T1700,2533A,105.0653,29.5817,内江市,内江二中,,25,18,17,13,11,78,,76,76,16,15,4,4,0.4,0.4
2024-10-03T1700,2534A,105.0406,29.5822,内江市,内江日报社,,34,34,19,14,9,81,,73,73,22,23,6,5,0.3,0.3
2024-10-03T1700,2628A,92.0657,31.4846,那曲市,那曲监测站,,32,19,34,3,13,102,,76,76,4,7,6,7,0.1,0.4
2024-10-03T1700,3128A,92.0506,31.4797,那曲市,那曲会议中心,,37,37,52,7,17,109,,83,83,2,14,3,3,0.3,0.5
2024-10-03T1700,1290A,115.8931,28.6843,南昌市,省外办,,43,43,41,19,20,126,,117,117,19,17,9,10,0.5,0.5
2024-10-03T1700,1291A,115.8886,28.7003,南昌市,省林业公司,颗粒物(PM10),52,53,46,17,15,135,,124,124,12,13,7,8,0.6,0.5
2024-10-03T1700,1292A,115.8126,28.7442,南昌市,林科所,,46,41,43,12,11,146,,128,128,12,13,9,9,0.5,0.5
2024-10-03T1700,1294A,115.8518,28.687,南昌市,建工学校,,44,44,48,12,17,133,,122,122,8,11,9,9,0.4,0.4
2024-10-03T1700,1295A,115.8921,28.6424,南昌市,象湖,,45,41,40,15,14,144,,132,132,15,17,9,9,0.3,0.3
2024-10-03T1700,1296A,115.7423,28.7996,南昌市,武术学校,,46,,28,32,21,135,,121,121,7,7,1,2,0.4,0.4
2024-10-03T1700,1298A,115.9314,28.6842,南昌市,省站,颗粒物(PM10),58,65,51,14,15,127,,115,115,17,18,10,11,0.5,0.5
2024-10-03T1700,3046A,115.9084,28.6062,南昌市,机电学校,,48,48,48,19,14,132,,122,122,16,19,11,12,0.6,0.6
2024-10-03T1700,3690A,115.9721,28.7031,南昌市,外国语学校,,48,48,42,10,16,129,,116,116,11,12,7,7,0.4,0.4
2024-10-03T1700,1905A,106.056,30.8064,南充市,西山风景区,,31,,21,20,19,97,,70,70,9,10,2,3,0.7,0.7
2024-10-03T1700,1906A,106.0789,30.8023,南充市,南充市委,,32,30,32,19,20,102,,75,75,14,17,4,4,0.3,0.4
2024-10-03T1700,1907A,106.1031,30.8217,南充市,南充炼油厂,,43,43,37,23,24,98,,75,75,12,16,4,5,0.3,0.3
2024-10-03T1700,1908A,106.1064,30.7856,南充市,高坪区监测站,,31,26,39,21,24,99,,71,71,19,20,7,7,0.4,0.4
2024-10-03T1700,1909A,106.0642,30.7636,南充市,嘉陵区环保局,,33,26,35,19,19,103,,72,72,13,16,4,5,0.3,0.4
2024-10-03T1700,1910A,106.1087,30.8388,南充市,市环境监测站,,45,36,37,31,25,96,,70,70,14,22,4,5,0.2,0.2
2024-10-03T1700,1151A,118.8086,32.1065,南京市,迈皋桥,,38,17,18,3,9,121,,120,120,9,18,3,4,0.3,0.3
2024-10-03T1700,1152A,118.7538,32.0551,南京市,草场门,,37,17,20,12,10,117,,112,112,15,22,5,7,0.1,0.2
2024-10-03T1700,1153A,118.7794,32.0745,南京市,山西路,,42,22,26,9,11,132,,127,127,5,9,4,4,0.4,0.4
2024-10-03T1700,1154A,118.7752,32.0023,南京市,中华门,,36,22,22,12,9,115,,112,112,9,15,5,6,0.4,0.4
2024-10-03T1700,1155A,118.8109,32.0309,南京市,瑞金路,,37,17,20,14,9,116,,113,113,5,13,5,4,0.5,0.5
2024-10-03T1700,1156A,118.7997,32.0754,南京市,玄武湖,,35,24,24,6,9,112,,107,107,12,28,6,6,0.3,0.4
2024-10-03T1700,1157A,118.6414,32.0931,南京市,浦口,,34,19,24,11,14,107,,105,105,11,11,7,7,0.6,0.5
2024-10-03T1700,1158A,118.7356,31.9996,南京市,奥体中心,,40,19,24,14,14,127,,120,120,14,17,6,7,0.3,0.3
2024-10-03T1700,1159A,118.9125,32.1028,南京市,仙林大学城,,39,24,23,3,9,123,,118,118,9,22,5,6,0.3,0.4
2024-10-03T1700,3422A,118.8436,31.9198,南京市,江宁彩虹桥,,39,24,26,7,8,122,,119,119,3,15,5,4,0.3,0.6
2024-10-03T1700,3423A,119.0138,31.6494,南京市,溧水永阳,,40,17,20,14,11,126,,112,112,7,12,4,4,0.5,0.5
2024-10-03T1700,3424A,118.879,31.3302,南京市,高淳老职中,,40,18,22,11,13,128,,113,113,8,13,4,4,0.4,0.5
2024-10-03T1700,3427A,118.8554,32.3578,南京市,六合雄州,,34,12,25,7,11,107,,107,107,12,17,6,8,0.2,0.3
2024-10-03T1700,1401A,108.3103,22.7881,南宁市,二十一中,,49,49,38,7,14,152,,130,130,14,19,8,10,0.7,0.6
2024-10-03T1700,1402A,108.3141,22.8528,南宁市,北湖,,46,43,38,19,17,146,,127,127,9,19,7,13,0.7,0.7
2024-10-03T1700,1403A,108.3206,22.8225,南宁市,市监测站,颗粒物(PM10),58,65,42,17,16,142,,132,132,14,19,8,12,0.6,0.6
2024-10-03T1700,1404A,108.3829,22.8037,南宁市,大自然花园,,43,39,36,13,12,136,,126,126,8,14,7,10,0.6,0.5
2024-10-03T1700,1405A,108.4394,22.7904,南宁市,仙葫,,48,48,37,22,15,130,,118,118,10,15,9,10,0.6,0.6
2024-10-03T1700,1406A,108.2397,22.8467,南宁市,区农职院,颗粒物(PM10),51,52,42,21,16,151,,128,128,7,11,10,8,0.5,0.7
2024-10-03T1700,1407A,108.3275,22.735,南宁市,英华嘉园,,45,35,41,8,16,142,,128,128,11,19,6,9,0.6,0.6
2024-10-03T1700,1408A,108.2257,22.7757,南宁市,沙井镇街道办,颗粒物(PM10),52,53,47,23,18,154,,129,129,13,18,7,9,0.5,0.6
2024-10-03T1700,3401A,108.4834,22.7618,南宁市,红星社区,,46,40,35,22,19,146,,129,129,8,10,4,3,0.5,0.5
2024-10-03T1700,2332A,118.1681,26.6369,南平市,南平市监测站,,33,31,21,20,8,103,,103,103,9,8,6,5,0.4,0.4
2024-10-03T1700,2333A,118.1825,26.6489,南平市,南平铝业有限公司,,30,20,22,11,7,94,,97,97,11,9,7,4,0.4,0.3
2024-10-03T1700,2334A,118.1756,26.6272,南平市,南平七中,,31,31,25,17,12,96,,103,103,14,11,4,4,0.6,0.6
2024-10-03T1700,1168A,120.9098,31.9663,南通市,狼山街道,,33,13,16,6,8,104,,101,101,5,7,6,7,0.2,0.2
2024-10-03T1700,1169A,120.86,32.0005,南通市,虹桥,,32,18,19,7,8,100,,98,98,6,7,6,7,0.4,0.4
2024-10-03T1700,1170A,120.87,32.02,南通市,城中,,32,16,18,6,7,102,,100,100,5,5,6,6,0.4,0.4
2024-10-03T1700,1171A,120.94,31.93,南通市,星湖花园,,32,14,14,8,6,102,,99,99,11,12,6,6,0.3,0.4
2024-10-03T1700,1172A,120.81,32.0417,南通市,紫琅学院,,31,12,13,7,7,98,,96,96,5,8,6,8,0.3,0.3
2024-10-03T1700,3291A,121.067,32.062,南通市,通州监测站,,33,17,18,3,7,103,,101,101,10,10,1,2,0.4,0.4
2024-10-03T1700,3432A,120.9348,31.9883,南通市,环境教育馆,,34,9,15,3,5,108,,104,104,4,7,3,3,0.4,0.4
2024-10-03T1700,2404A,112.5224,33.0122,南阳市,瓦房庄,,47,35,51,17,25,150,,133,133,13,21,5,5,0.4,0.5
2024-10-03T1700,2405A,112.5003,32.9735,南阳市,汉画馆,,45,38,49,20,27,142,,123,123,14,20,6,7,0.3,0.4
2024-10-03T1700,2406A,112.5573,33.027,南阳市,气象站,,48,40,55,9,20,152,,134,134,13,20,8,13,0.4,0.4
2024-10-03T1700,2407A,112.5481,32.9689,南阳市,理工学院,,47,39,53,20,25,148,,124,124,13,20,7,9,0.3,0.4
2024-10-03T1700,4008A,112.5234,32.9922,南阳市,卧龙区政府,,47,44,55,21,23,150,,127,127,13,20,5,5,0.4,0.4
2024-10-03T1700,1234A,121.8358,29.911,宁波市,区环保大楼,,31,28,24,7,7,99,,96,96,12,10,6,6,0.5,0.5
2024-10-03T1700,1235A,121.56,29.82,宁波市,万里学院,,34,21,23,6,9,106,,90,90,9,12,6,6,0.3,0.5
2024-10-03T1700,1236A,121.713,29.9572,宁波市,龙赛医院,,32,21,21,6,6,102,,96,96,10,11,8,8,0.5,0.5
2024-10-03T1700,1239A,121.633,29.7733,宁波市,钱湖水厂,,33,16,21,6,7,104,,93,93,8,10,8,9,0.3,0.5
2024-10-03T1700,1240A,121.5856,29.8635,宁波市,太古小学,,,19,23,12,6,103,,94,94,14,15,,8,0.5,0.6
2024-10-03T1700,1241A,121.524,29.8674,宁波市,市环境监测中心,,33,22,21,7,7,104,,96,96,10,13,4,5,0.4,0.5
2024-10-03T1700,2871A,121.6147,29.9017,宁波市,万里国际学校,,34,14,21,10,7,108,,101,101,14,14,7,8,0.5,0.6
2024-10-03T1700,3710A,121.5594,29.8975,宁波市,白沙活动中心,,33,,17,8,5,105,,95,95,12,13,8,9,0.2,0.3
2024-10-03T1700,2341A,119.5388,26.6612,宁德市,宁德市监测站,,23,20,18,14,12,71,,74,73,12,10,6,6,0.5,0.5
2024-10-03T1700,3209A,119.5231,26.6562,宁德市,宁德一中,,23,20,19,13,10,73,,78,77,7,5,6,6,0.3,0.4
2024-10-03T1700,2618A,98.8601,25.8567,怒江傈僳族自治州,州监测站,,18,18,18,9,16,45,,39,39,6,9,5,5,0.4,0.4
2024-10-03T1700,2619A,98.8546,25.8417,怒江傈僳族自治州,泸水一中,,15,12,14,6,10,46,,38,38,10,12,6,6,0.4,0.4
2024-10-03T1700,1888A,101.6891,26.571,攀枝花市,弄弄坪,,48,48,40,29,24,52,,48,48,23,20,16,16,0.5,0.6
2024-10-03T1700,1889A,101.5769,26.5928,攀枝花市,河门口,细颗粒物(PM2.5),58,58,36,41,23,65,,54,54,24,19,18,15,1.5,1
2024-10-03T1700,1890A,101.7169,26.585,攀枝花市,炳草岗,,45,45,38,26,24,47,,51,51,29,21,14,16,0.6,0.6
2024-10-03T1700,1891A,101.7369,26.5008,攀枝花市,仁和,,45,45,36,29,23,75,,68,68,17,16,12,11,0.6,0.5
2024-10-03T1700,2835A,101.7227,26.567,攀枝花市,四十中小,,40,40,34,24,18,58,,58,58,17,15,9,10,0.8,0.8
2024-10-03T1700,1604A,122.0303,41.1489,盘锦市,开发区,,36,36,23,11,11,107,,98,98,14,20,3,14,0.3,0.5
2024-10-03T1700,1605A,122.0485,41.0883,盘锦市,兴隆台,,33,15,25,9,13,104,,98,98,20,31,7,11,0.4,0.6
2024-10-03T1700,1606A,121.8297,41.1028,盘锦市,新生街道,,35,26,19,7,12,109,,104,104,12,22,8,10,0.4,0.5
2024-10-03T1700,1832A,113.3257,33.742,平顶山市,新华旅馆,颗粒物(PM10),64,77,92,31,38,144,,125,125,12,44,7,8,0.2,0.3
2024-10-03T1700,1833A,113.2919,33.737,平顶山市,规划设计院,,46,46,80,26,36,147,,136,136,11,43,8,8,0.3,0.6
2024-10-03T1700,1834A,113.182,33.774,平顶山市,平顶山工学院,,47,47,84,14,41,148,,120,120,10,35,8,8,0.3,0.5
2024-10-03T1700,3204A,113.3025,33.73,平顶山市,规划局,颗粒物(PM10),58,66,91,26,44,146,,122,122,8,43,6,7,0.2,0.4
2024-10-03T1700,3594A,112.8867,33.9116,平顶山市,石龙区,颗粒物(PM10),56,61,103,18,30,141,,124,124,13,51,10,17,0.5,0.6
2024-10-03T1700,2656A,106.6692,35.5461,平凉市,聚贤嘉苑,,39,39,49,17,25,117,,110,110,15,31,8,9,0.3,0.4
2024-10-03T1700,2657A,106.7021,35.5307,平凉市,博物馆,,50,50,61,17,26,126,,119,119,19,44,12,14,0.2,0.6
2024-10-03T1700,2347A,114.0997,27.5002,萍乡市,武功山,,35,14,18,3,6,111,,106,106,4,6,5,6,0.2,0.3
2024-10-03T1700,2348A,113.8385,27.6434,萍乡市,中医院,,37,26,45,10,16,117,,113,113,6,8,6,12,0.4,0.5
2024-10-03T1700,2349A,113.8493,27.6253,萍乡市,市政府车库,,38,38,27,16,18,120,,116,116,9,9,12,12,0.5,0.7
2024-10-03T1700,2350A,113.8676,27.6435,萍乡市,市环保局,,35,20,43,16,16,110,,108,108,4,4,7,8,0.5,0.5
2024-10-03T1700,2351A,113.866,27.6198,萍乡市,安源区政府,,39,34,45,7,12,123,,120,120,9,16,10,8,0.2,0.8
2024-10-03T1700,2319A,119.0141,25.4325,莆田市,荔城区仓后路,,27,10,12,3,2,84,,95,88,10,9,7,7,0.9,0.8
2024-10-03T1700,2320A,119.0015,25.4553,莆田市,莆田市监测站,,29,10,12,3,2,92,,101,94,7,7,7,7,0.4,0.4
2024-10-03T1700,2321A,119.1119,25.4561,莆田市,涵江区六中,,30,6,11,3,2,95,,98,96,7,8,8,8,0.5,0.5
2024-10-03T1700,2322A,119.1013,25.3215,莆田市,秀屿区政府,,29,11,21,3,4,92,,98,94,6,6,6,7,0.5,0.5
2024-10-03T1700,2392A,115.0312,35.7636,濮阳市,环保局,,44,40,45,22,25,139,,117,117,13,28,4,7,0.2,0.3
2024-10-03T1700,2394A,115.0574,35.7609,濮阳市,油田运输公司,,44,36,47,22,34,138,,123,123,11,34,4,9,0.3,0.4
2024-10-03T1700,2395A,115.0866,35.7754,濮阳市,油田物探公司,,,43,52,16,29,143,,124,124,16,35,,9,0.1,0.3
2024-10-03T1700,3021A,115,35.7668,濮阳市,濮水河管理处,,41,35,37,15,23,131,,112,112,9,19,4,3,0.2,0.3
2024-10-03T1700,2601A,100.98,22.7633,普洱市,市环保局,,22,18,21,15,14,51,,48,48,4,7,4,4,0.4,0.4
2024-10-03T1700,2602A,100.9817,22.8322,普洱市,普洱第二中学,,19,18,22,13,12,51,,47,47,5,9,4,10,0.5,0.6
2024-10-03T1700,2262A,131.0518,45.8751,七台河市,新一中,,25,17,19,9,10,78,,88,88,19,11,9,10,1.1,1.1
2024-10-03T1700,3345A,131.0577,45.7879,七台河市,中波台,,26,26,19,3,7,48,,62,62,36,19,5,5,0.4,0.5
2024-10-03T1700,3637A,131.0176,45.7761,七台河市,人民广场,,20,12,19,12,12,61,,67,67,16,14,8,8,0.3,0.3
2024-10-03T1700,3684A,130.8781,45.8222,七台河市,新建矿广场,颗粒物(PM10),58,66,40,22,18,53,,66,66,29,21,7,7,0.4,0.4
2024-10-03T1700,1779A,123.9305,47.3636,齐齐哈尔市,安居小区,,43,43,28,8,9,76,,67,67,14,13,10,12,0.4,0.4
2024-10-03T1700,1780A,123.9488,47.3386,齐齐哈尔市,中心广场,颗粒物(PM10),62,73,33,3,6,71,,65,65,13,12,3,4,0.2,0.3
2024-10-03T1700,1781A,123.9483,47.3227,齐齐哈尔市,农牧车辆厂,颗粒物(PM10),81,112,40,7,7,74,,68,68,12,9,9,9,0.4,0.4
2024-10-03T1700,1783A,123.945,47.2988,齐齐哈尔市,市环境监测站,,41,41,27,10,8,81,,73,73,7,9,9,8,0.2,0.2
2024-10-03T1700,3662A,123.6333,47.2075,齐齐哈尔市,富区青少年活动中心,,43,43,66,20,21,80,,66,66,6,18,5,25,0.3,1.5
2024-10-03T1700,2591A,107.9783,26.5747,黔东南苗族侗族自治州,市环境监测站,,45,45,33,18,13,119,,110,110,13,9,7,6,0.4,0.3
2024-10-03T1700,2881A,107.8908,26.5311,黔东南苗族侗族自治州,凯里学院,,46,46,36,17,11,131,,122,122,9,9,5,4,0.4,0.6
2024-10-03T1700,2593A,107.5228,26.2403,黔南布依族苗族自治州,小围寨,,37,34,26,17,10,116,,112,112,5,4,5,5,0.6,0.6
2024-10-03T1700,3538A,107.5175,26.2978,黔南布依族苗族自治州,沙坝,,45,45,32,14,10,125,,119,119,5,5,4,4,0.3,0.4
2024-10-03T1700,2589A,104.9022,25.0925,黔西南布依族苗族自治州,场坝街,,31,26,25,8,15,98,,90,90,5,9,2,3,0.2,0.2
2024-10-03T1700,2590A,104.8811,25.0992,黔西南布依族苗族自治州,坪东大道,,31,12,21,12,15,97,,90,90,6,8,9,10,0.4,0.4
2024-10-03T1700,2502A,108.6236,21.9667,钦州市,市环保站,颗粒物(PM10),53,56,49,22,16,136,,118,118,9,11,10,10,0.6,0.7
2024-10-03T1700,2503A,108.6549,21.9481,钦州市,沙埠小学,颗粒物(PM10),60,69,51,15,9,142,,121,121,12,15,8,9,0.6,0.8
2024-10-03T1700,2504A,108.5989,21.7431,钦州市,港区一小,颗粒物(PM10),57,63,56,24,18,140,,122,122,18,19,8,9,0.5,0.5
2024-10-03T1700,3404A,108.5959,21.9633,钦州市,北职校,,49,49,50,22,19,145,,126,126,10,11,9,8,0.7,0.6
2024-10-03T1700,1042A,119.5134,39.8207,秦皇岛市,北戴河环保局,,36,36,23,11,11,98,,80,80,18,23,3,3,0.8,0.8
2024-10-03T1700,1043A,119.7493,40.0116,秦皇岛市,第一关,,38,38,28,24,21,100,,78,78,13,38,7,3,0.7,0.5
2024-10-03T1700,1044A,119.5897,39.9499,秦皇岛市,监测站,,30,26,31,14,19,96,,76,76,15,30,8,7,0.7,0.5
2024-10-03T1700,1046A,119.5251,39.9041,秦皇岛市,建设大厦,,31,31,32,15,13,97,,79,79,13,29,3,6,0.5,0.4
2024-10-03T1700,3132A,119.610547,39.943889,秦皇岛市,文明里,,31,29,35,12,11,97,,76,76,16,31,5,5,0.7,0.6
2024-10-03T1700,1307A,120.6659,36.2403,青岛市,仰口,,37,17,20,14,14,116,,105,105,7,7,7,8,0.8,0.8
2024-10-03T1700,1310A,120.4134,36.0658,青岛市,市南区东部子站,,46,46,30,17,12,141,,110,110,31,26,10,9,0.6,0.6
2024-10-03T1700,1311A,120.3664,36.1032,青岛市,四方区子站,,48,39,28,14,16,153,,122,122,20,22,13,11,0.4,0.4
2024-10-03T1700,1312A,120.2994,36.054,青岛市,市南区西部子站,,45,34,28,7,7,141,,111,111,19,19,11,11,0.5,0.5
2024-10-03T1700,1313A,120.4581,36.0858,青岛市,崂山区子站,,45,27,18,9,7,143,,114,114,16,17,10,10,0.6,0.6
2024-10-03T1700,1314A,120.1983,35.9608,青岛市,黄岛区子站,,44,34,26,15,14,138,,116,116,15,21,11,12,0.4,0.5
2024-10-03T1700,1315A,120.3999,36.3083,青岛市,城阳区子站,,46,27,34,15,17,145,,122,122,15,30,9,10,0.5,0.6
2024-10-03T1700,1966A,120.0405,35.8735,青岛市,黄岛区4号,,49,27,26,9,11,155,,123,123,16,18,8,8,0.4,0.4
2024-10-03T1700,3362A,120.5014,36.4034,青岛市,即墨2号,,41,29,30,12,18,130,,108,108,10,18,7,8,0.4,0.5
2024-10-03T1700,3642A,120.3503,36.0736,青岛市,市北区南部,,47,31,30,14,12,149,,116,116,21,24,10,9,0.6,0.6
2024-10-03T1700,3643A,120.3948,36.1805,青岛市,李沧区北部,,48,39,32,29,18,153,,119,119,22,25,12,11,0.7,0.7
2024-10-03T1700,1702A,113.0426,23.691,清远市,环保大楼,,41,26,33,12,10,131,,123,123,14,16,8,9,0.6,0.6
2024-10-03T1700,1703A,113.0208,23.7106,清远市,凤城街办,,40,26,33,14,13,126,,123,123,6,6,8,10,0.6,0.6
2024-10-03T1700,3025A,113.0477,23.6344,清远市,技师学院,,41,38,34,13,13,130,,124,124,9,8,7,8,0.6,0.4
2024-10-03T1700,3318A,112.9903,23.7403,清远市,清新太和,,41,25,33,9,13,131,,128,128,4,6,5,7,0.6,0.7
2024-10-03T1700,3455A,113.076,23.7198,清远市,清城东城,,48,48,38,16,14,135,,128,128,4,3,5,6,0.4,0.5
2024-10-03T1700,2661A,107.6325,35.7357,庆阳市,庆阳五中,,,42,50,,18,134,,115,114,11,13,7,9,0.4,0.4
2024-10-03T1700,2662A,107.6364,35.7067,庆阳市,市环保局,,42,40,48,12,17,134,,116,116,11,11,6,7,0.4,0.4
2024-10-03T1700,1916A,103.7897,25.5035,曲靖市,环境监测站,,30,16,28,7,17,94,,75,75,8,14,1,4,0.4,0.6
2024-10-03T1700,1917A,103.8,25.5364,曲靖市,烟厂办公区,,,6,30,3,16,90,,71,71,6,12,,4,0.4,0.5
2024-10-03T1700,3376A,103.7947,25.462,曲靖市,南苑二区,,30,11,33,11,19,93,,74,74,6,11,8,14,0.5,0.7
2024-10-03T1700,3377A,103.7444,25.5261,曲靖市,曲靖师范学院,,25,16,26,9,20,80,,72,72,12,12,23,10,0.4,0.6
2024-10-03T1700,1264A,118.8692,28.9398,衢州市,环保大楼,,31,27,32,13,16,98,,98,98,11,15,6,7,0.4,0.5
2024-10-03T1700,1265A,118.8709,28.9666,衢州市,实验学校,,35,24,32,13,18,109,,109,109,8,13,7,6,0.3,0.6
2024-10-03T1700,1266A,118.8621,28.9808,衢州市,衢州学院,,34,25,30,12,15,106,,107,107,11,17,7,8,0.6,0.6
2024-10-03T1700,1611A,118.5819,24.9117,泉州市,涂山街,,26,20,11,8,5,82,,91,89,10,8,2,2,0.6,0.6
2024-10-03T1700,1612A,118.5972,24.8978,泉州市,津头埔,,25,16,12,10,7,80,,87,84,11,9,4,4,0.3,0.6
2024-10-03T1700,1613A,118.6663,24.9424,泉州市,万安,,27,16,14,7,6,85,,93,91,9,7,2,2,0.3,0.3
2024-10-03T1700,3529A,118.6333,24.9264,泉州市,城华南路,,26,18,12,12,6,81,,90,86,8,5,3,3,0.3,0.3
2024-10-03T1700,2626A,88.8876,29.2718,日喀则市,日喀则监测站,,20,20,13,8,8,58,,69,69,4,10,4,5,0.4,0.4
2024-10-03T1700,3726A,88.8781,29.2426,日喀则市,林业技术推广中心,,29,14,10,3,2,91,,78,78,6,7,6,6,0.4,0.4
2024-10-03T1700,1659A,119.471,35.4209,日照市,监测站,,40,29,27,12,14,127,,109,109,16,25,13,12,0.5,0.6
2024-10-03T1700,1660A,119.523,35.4216,日照市,市政府广场,,45,27,22,10,11,141,,119,119,12,15,7,7,0.4,0.4
2024-10-03T1700,1661A,119.5587,35.4044,日照市,港务局,,44,34,25,15,15,139,,120,120,18,22,10,9,0.6,0.5
2024-10-03T1700,3507A,119.5328,35.4625,日照市,职业技术学院,,43,24,22,9,10,135,,117,117,12,17,10,10,0.5,0.5
2024-10-03T1700,3604A,119.3266,35.1044,日照市,岚山环保分局,,40,29,38,14,17,128,,108,108,20,28,12,34,0.6,2.6
2024-10-03T1700,1835A,111.1922,34.7752,三门峡市,市政府,,42,35,44,17,17,134,,112,112,14,34,10,11,0.4,0.4
2024-10-03T1700,1836A,111.1587,34.7942,三门峡市,开发区,,41,41,57,14,37,131,,112,112,16,22,11,14,0.3,0.3
2024-10-03T1700,1838A,111.143,34.7955,三门峡市,风景区,,46,46,51,8,20,137,,120,120,14,16,11,14,0.6,0.6
2024-10-03T1700,3039A,111.1911,34.7829,三门峡市,三门峡市第一小学,,41,39,48,17,16,129,,113,113,14,22,11,13,0.4,0.4
2024-10-03T1700,3598A,111.1,34.7167,三门峡市,富达温泉假日酒店,颗粒物(PM10),51,51,50,16,18,135,,111,111,13,21,11,11,0.6,0.6
2024-10-03T1700,2324A,117.6211,26.2625,三明市,三钢,,35,22,22,20,17,112,,108,108,11,11,6,7,0.5,0.5
2024-10-03T1700,2325A,117.635,26.2714,三明市,三明二中,,35,21,21,16,9,112,,108,108,11,11,4,4,0.4,0.4
2024-10-03T1700,2326A,117.6028,26.2378,三明市,三元区政府,,35,31,25,17,10,112,,106,106,16,15,2,7,0.4,0.7
2024-10-03T1700,1876A,109.5078,18.2489,三亚市,河东子站,,37,29,31,14,14,118,,109,109,5,7,5,4,0.3,0.4
2024-10-03T1700,1877A,109.4964,18.2681,三亚市,河西子站,,34,28,28,16,15,108,,98,98,3,7,4,4,0.5,0.5
2024-10-03T1700,3540A,109.7348,18.3443,三亚市,君悦子站,,,47,32,18,15,132,,113,113,,9,3,3,0.5,0.5
2024-10-03T1700,2624A,91.7608,29.2313,山南市,山南监测站,,38,30,17,26,6,79,,68,68,4,6,8,9,0.3,0.3
2024-10-03T1700,2625A,91.7706,29.2436,山南市,山南人民医院,,25,24,17,12,9,78,,73,73,9,9,8,8,0.4,0.2
2024-10-03T1700,1674A,116.6794,23.3667,汕头市,金平子站,,33,33,28,21,11,82,,98,98,19,10,8,7,0.9,0.8
2024-10-03T1700,1675A,116.7244,23.3633,汕头市,龙湖子站,,33,33,24,19,8,81,,93,93,10,5,12,8,0.8,0.7
2024-10-03T1700,1676A,116.7258,23.2775,汕头市,濠江子站,细颗粒物(PM2.5),54,,26,38,14,84,,94,94,15,10,8,8,0.9,0.8
2024-10-03T1700,1677A,116.7519,23.4714,汕头市,澄海子站,细颗粒物(PM2.5),54,,22,38,9,77,,88,88,19,9,7,6,0.8,0.7
2024-10-03T1700,1678A,116.6092,23.2539,汕头市,潮阳子站,颗粒物(PM10),54,58,27,33,7,96,,100,100,18,6,7,6,0.8,0.5
2024-10-03T1700,3444A,116.454,23.2684,汕头市,潮南峡山,,41,41,28,25,11,98,,102,102,8,5,7,6,0.6,0.6
2024-10-03T1700,3624A,116.4069,23.2533,汕头市,潮南子站,颗粒物(PM10),56,62,31,28,16,91,,98,98,21,13,6,6,0.7,0.6
2024-10-03T1700,1693A,115.3653,22.775,汕尾市,市环保局,,29,24,24,18,16,91,,96,96,8,7,9,9,0.7,0.7
2024-10-03T1700,1694A,115.3706,22.7898,汕尾市,市政府,,26,21,24,18,10,83,,89,89,10,9,9,8,0.5,0.5
2024-10-03T1700,1695A,115.3622,22.7925,汕尾市,新城中学,,32,26,25,22,12,81,,86,85,6,5,7,7,0.6,0.6
2024-10-03T1700,2645A,109.9154,33.8715,商洛市,监测站,,42,42,39,13,16,118,,105,105,11,19,5,5,0.3,0.4
2024-10-03T1700,3045A,109.9643,33.8471,商洛市,商州区中学,,48,48,46,16,16,116,,103,103,14,24,5,5,0.3,0.5
2024-10-03T1700,2408A,115.6702,34.4285,商丘市,环境监测站,,40,25,45,10,30,125,,107,107,12,25,4,9,0.3,0.4
2024-10-03T1700,2409A,115.6458,34.4045,商丘市,粮食局,,41,30,41,18,31,131,,113,113,9,19,4,5,0.5,0.6
2024-10-03T1700,2410A,115.6293,34.3948,商丘市,睢阳区环保局,,40,31,41,11,22,127,,110,110,12,19,6,8,0.2,0.3
2024-10-03T1700,3171A,115.6071,34.4465,商丘市,梁园区档案局,,37,21,43,14,27,117,,103,103,8,26,6,8,0.5,0.5
2024-10-03T1700,1141A,121.4,31.238,上海市,普陀,,32,16,22,3,8,100,,95,95,7,13,4,5,0.6,0.6
2024-10-03T1700,1142A,121.478,31.2036,上海市,十五厂,,33,17,21,7,8,104,,100,100,13,18,8,9,0.3,0.4
2024-10-03T1700,1143A,121.467,31.3008,上海市,虹口,,32,17,21,7,9,100,,95,95,8,14,9,9,0.3,0.4
2024-10-03T1700,1144A,121.412,31.1654,上海市,徐汇上师大,,33,17,21,8,8,104,,98,98,14,19,6,6,0.4,0.5
2024-10-03T1700,1145A,121.536,31.2659,上海市,杨浦四漂,,33,19,20,3,7,105,,100,100,8,11,8,8,0.4,0.4
2024-10-03T1700,1147A,121.425,31.2261,上海市,静安监测站,,,18,22,3,8,100,,96,96,,19,6,6,,0.4
2024-10-03T1700,1148A,121.703,31.1907,上海市,浦东川沙,,33,22,22,3,7,104,,99,99,10,14,6,6,0.5,0.5
2024-10-03T1700,1149A,121.533,31.2284,上海市,浦东新区监测站,,32,16,20,11,8,100,,94,94,10,15,7,7,0.5,0.6
2024-10-03T1700,1150A,121.577,31.2071,上海市,浦东张江,,29,15,18,9,9,92,,86,86,15,23,5,5,0.4,0.4
2024-10-03T1700,3265A,121.4316,31.3322,上海市,宝山庙行,,32,19,24,8,8,101,,95,95,8,16,8,8,0.5,0.5
2024-10-03T1700,3266A,121.8791,31.4662,上海市,崇明上实东滩,,33,10,16,3,8,105,,98,98,4,5,12,12,0.6,0.6
2024-10-03T1700,3268A,121.3162,31.2838,上海市,嘉定南翔,,32,14,20,8,8,101,,97,97,10,13,8,8,0.4,0.4
2024-10-03T1700,3269A,121.3359,30.7456,上海市,金山新城,,32,16,21,7,9,101,,100,100,10,13,5,6,0.2,0.3
2024-10-03T1700,3270A,121.4996,31.0739,上海市,闵行浦江,,32,19,22,7,8,101,,97,97,10,14,6,6,0.4,0.5
2024-10-03T1700,3271A,121.2886,31.1663,上海市,青浦徐泾,,33,18,21,7,10,105,,102,102,14,18,8,7,0.5,0.4
2024-10-03T1700,3272A,121.2186,31.0378,上海市,松江图书馆,,34,22,24,8,8,107,,103,103,14,18,5,5,0.4,0.5
2024-10-03T1700,3273A,121.3902,31.2059,上海市,长宁仙霞,,33,19,15,7,8,105,,101,101,9,14,6,6,0.6,0.6
2024-10-03T1700,3274A,121.7965,31.0507,上海市,浦东惠南,,32,16,19,6,7,102,,97,97,11,15,9,9,0.6,0.6
2024-10-03T1700,3544A,121.4891,30.925,上海市,奉贤南桥新城,,31,31,26,8,8,99,,98,98,15,18,8,9,0.4,0.4
2024-10-03T1700,2381A,118.005,28.4572,上饶市,百草园,,36,26,31,12,13,115,,109,109,5,7,5,6,0.3,0.4
2024-10-03T1700,2382A,117.9756,28.4436,上饶市,市监测站,,40,28,32,10,14,125,,120,120,5,7,3,6,0.5,0.6
2024-10-03T1700,2383A,117.9519,28.4628,上饶市,凤凰光学,,39,30,32,7,11,122,,119,119,5,6,4,7,0.7,0.7
2024-10-03T1700,3413A,118.1953,28.4401,上饶市,广丰区教体局,,39,32,31,15,16,124,,118,118,7,8,2,3,0.5,0.4
