timepoint,stationcode,longitude,latitude,area,positionname,primarypollutant,aqi,pm10,pm10_24h,pm2_5,pm2_5_24h,o3,o3_24h,o3_8h,o3_8h_24h,no2,no2_24h,so2,so2_24h,co,co_24h
2025-04-07T1700,2566A,102.1879,31.914,阿坝藏族羌族自治州,州农科所,,33,16,21,3,11,103,,86,86,3,8,12,12,0.3,0.4
2025-04-07T1700,2568A,102.2502,31.8896,阿坝藏族羌族自治州,马师校,,,13,23,,15,111,,104,104,,12,,5,0.3,0.4
2025-04-07T1700,3994A,102.2165,31.9024,阿坝藏族羌族自治州,马尔康中学西区,,36,9,23,3,12,114,,99,99,5,13,3,3,0.8,0.6
2025-04-07T1700,2695A,80.292,41.1694,阿克苏地区,电视台,颗粒物(PM10),181,312,350,72,73,119,,93,93,3,17,5,6,0.5,0.4
2025-04-07T1700,2696A,80.2613,41.1551,阿克苏地区,艺术中心,颗粒物(PM10),175,300,310,73,73,120,,92,92,2,20,3,3,0.2,0.4
2025-04-07T1700,2204A,105.6467,38.8363,阿拉善盟,西城区西花园,,,81,90,18,27,123,,116,116,7,7,,11,0.6,0.7
2025-04-07T1700,2205A,105.6985,38.8411,阿拉善盟,蒙二幼,颗粒物(PM10),68,86,98,28,33,108,,102,102,7,8,6,6,0.4,0.4
2025-04-07T1700,2206A,105.724,38.8516,阿拉善盟,环保局新楼,颗粒物(PM10),65,80,98,29,35,109,,104,104,4,4,8,8,0.6,0.6
2025-04-07T1700,2708A,88.1264,47.8517,阿勒泰地区,市站,,30,22,21,3,6,93,,94,82,5,7,2,3,0.5,0.5
2025-04-07T1700,2630A,80.1161,32.5,阿里地区,阿里监测站,,30,6,8,3,4,95,,83,83,3,8,6,8,0.4,0.4
2025-04-07T1700,3192A,80.0903,32.5028,阿里地区,阿里藏医院,,31,9,12,3,4,98,,94,91,1,6,6,8,0.4,0.4
2025-04-07T1700,2642A,109.0318,32.6537,安康市,香溪洞,颗粒物(PM10),82,113,58,33,29,123,,107,107,7,6,6,7,0.4,0.6
2025-04-07T1700,2644A,109.0072,32.6975,安康市,汉滨区检察院,颗粒物(PM10),55,60,77,28,32,141,,110,110,7,18,8,12,0.4,0.4
2025-04-07T1700,4054A,109.0325,32.6913,安康市,市邮政管理局,颗粒物(PM10),53,56,75,30,33,139,,110,110,6,18,6,11,0.5,0.6
2025-04-07T1700,2291A,117.0809,30.5177,安庆市,环科院,颗粒物(PM10),61,71,72,32,30,121,,110,110,23,66,13,10,0.6,0.5
2025-04-07T1700,2292A,117.0331,30.5119,安庆市,马山宾馆,颗粒物(PM10),58,66,67,30,30,140,,108,108,13,58,11,6,0.4,0.3
2025-04-07T1700,2294A,116.9896,30.6145,安庆市,安庆大学,颗粒物(PM10),60,70,75,30,29,149,,146,146,15,34,10,6,0.4,0.6
2025-04-07T1700,3173A,117.0598,30.5351,安庆市,市人大,颗粒物(PM10),59,68,74,16,36,128,,120,120,21,51,25,9,0.6,0.5
2025-04-07T1700,3122A,105.9606,26.2611,安顺市,伍家关,,48,47,53,33,38,90,,67,67,9,13,5,7,0.9,0.9
2025-04-07T1700,3123A,105.9408,26.2431,安顺市,凤凰山,细颗粒物(PM2.5),58,52,62,41,47,96,,76,76,11,16,7,11,0.6,0.6
2025-04-07T1700,3124A,105.9439,26.2564,安顺市,金钟山,细颗粒物(PM2.5),59,46,58,42,46,103,,75,75,11,15,6,8,0.8,0.8
2025-04-07T1700,3125A,105.8983,26.2481,安顺市,娄家坡,细颗粒物(PM2.5),64,47,57,46,48,102,,74,74,9,13,4,7,0.9,0.9
2025-04-07T1700,1818A,114.4839,36.0621,安阳市,棉研所,,,,,,,,,,,,,,,,
2025-04-07T1700,1819A,114.3551,36.1017,安阳市,红庙街,颗粒物(PM10),101,151,148,61,52,162,,115,115,3,24,11,11,0.7,0.7
2025-04-07T1700,1820A,114.361,36.0681,安阳市,银杏小区,细颗粒物(PM2.5),114,131,147,86,69,171,,120,120,5,30,11,11,0.4,0.4
2025-04-07T1700,3141A,114.3922,36.0878,安阳市,信访局,细颗粒物(PM2.5),104,154,151,78,64,174,,121,121,11,31,8,7,0.6,0.7
2025-04-07T1700,3669A,114.4705,36.0637,安阳市,左辅环卫站,颗粒物(PM10),107,163,144,57,54,164,,120,120,13,12,10,7,0.5,0.4
2025-04-07T1700,3703A,114.2917,36.0949,安阳市,安钢职工学校,颗粒物(PM10),115,180,155,83,68,162,,118,118,16,28,10,10,0.6,0.8
2025-04-07T1700,1748A,123.044,41.1196,鞍山市,深沟寺,颗粒物(PM10),64,77,55,34,34,128,,135,135,19,16,16,11,0.8,0.6
2025-04-07T1700,1749A,123.011,41.0931,鞍山市,太阳城,颗粒物(PM10),63,76,55,35,34,132,,136,136,14,13,10,5,0.8,0.6
2025-04-07T1700,1750A,123.0485,41.1442,鞍山市,太平,颗粒物(PM10),75,100,74,36,36,123,,128,128,14,19,13,10,0.7,0.7
2025-04-07T1700,1751A,122.9642,41.0971,鞍山市,铁西三道街,颗粒物(PM10),68,86,64,37,37,129,,134,134,23,25,7,5,0.6,0.7
2025-04-07T1700,1753A,123.022,41.0821,鞍山市,明达新区,颗粒物(PM10),63,75,51,36,33,129,,138,138,16,11,12,7,0.6,0.5
2025-04-07T1700,1754A,123.1289,41.0228,鞍山市,千山,,,,31,,16,,,96,,,10,,4,,0.8
2025-04-07T1700,4201A,122.9446,41.0826,鞍山市,兴盛南路290号,颗粒物(PM10),82,113,75,38,37,130,,136,136,23,27,12,10,0.5,0.7
2025-04-07T1700,2195A,107.4212,40.761,巴彦淖尔市,附二中,颗粒物(PM10),70,90,93,13,27,108,,101,101,5,9,11,10,0.3,0.3
2025-04-07T1700,2196A,107.37,40.7372,巴彦淖尔市,市环保大楼,颗粒物(PM10),72,93,95,32,35,105,,98,98,5,9,6,7,0.2,0.2
2025-04-07T1700,1956A,86.1472,41.7538,巴音郭楞蒙古自治州,孔雀公园,颗粒物(PM10),144,237,194,39,47,107,,85,85,5,18,5,6,0.2,0.3
2025-04-07T1700,1957A,86.1972,41.7166,巴音郭楞蒙古自治州,棉纺厂,颗粒物(PM10),161,272,245,56,47,102,,79,79,6,23,2,5,0.2,0.3
2025-04-07T1700,1958A,86.2357,41.7173,巴音郭楞蒙古自治州,经济开发区,颗粒物(PM10),139,228,200,43,37,105,,91,91,8,9,5,5,0.2,0.2
2025-04-07T1700,2914A,106.7677,31.8794,巴中市,苏山坪,颗粒物(PM10),51,52,58,22,26,124,,110,110,8,13,4,4,0.3,0.4
2025-04-07T1700,3181A,106.7768,31.8526,巴中市,市五中,,50,50,61,21,29,122,,101,101,8,21,5,6,0.4,0.5
2025-04-07T1700,3183A,106.7418,31.8654,巴中市,圣泉水务公司,颗粒物(PM10),52,53,55,24,26,129,,111,111,2,21,3,3,0.3,0.4
2025-04-07T1700,3616A,106.7616,31.8344,巴中市,市中心医院,,50,50,58,26,34,124,,104,104,5,20,6,6,0.4,0.6
2025-04-07T1700,2235A,122.7911,45.6077,白城市,洮北区环保局,细颗粒物(PM2.5),88,76,49,65,37,66,,78,78,23,13,3,2,0.9,0.7
2025-04-07T1700,2236A,122.8738,45.5725,白城市,市环保局,细颗粒物(PM2.5),69,61,46,50,40,92,,86,86,17,15,6,4,0.6,0.5
2025-04-07T1700,2231A,126.4219,41.9171,白山市,喜丰,颗粒物(PM10),58,66,34,20,17,130,,102,102,11,17,9,6,1.1,1.2
2025-04-07T1700,2232A,126.4077,41.9419,白山市,环保局,颗粒物(PM10),52,54,38,23,22,130,,100,100,13,17,6,6,1.0,1
2025-04-07T1700,2647A,104.1724,36.5446,白银市,第三小学,颗粒物(PM10),55,60,84,28,32,131,,116,116,7,18,10,23,0.5,0.8
2025-04-07T1700,2648A,104.1465,36.5482,白银市,动力公司,颗粒物(PM10),54,57,79,25,33,135,,120,120,8,18,6,17,0.3,0.6
2025-04-07T1700,2512A,106.6103,23.9011,百色市,市监测站,细颗粒物(PM2.5),107,113,98,80,75,74,,74,70,25,17,11,11,1.2,1.1
2025-04-07T1700,2513A,106.6538,23.8859,百色市,市中心血站,细颗粒物(PM2.5),118,100,101,89,88,77,,76,73,22,16,13,13,1.1,1
2025-04-07T1700,3406A,106.6085,23.8798,百色市,祈福高中,细颗粒物(PM2.5),114,116,106,86,83,77,,73,68,,16,8,8,1.2,1.1
2025-04-07T1700,2270A,117.396,32.939,蚌埠市,工人疗养院,颗粒物(PM10),59,68,83,22,24,155,,144,144,10,15,5,7,0.5,0.6
2025-04-07T1700,2271A,117.3605,32.9427,蚌埠市,百货大楼,细颗粒物(PM2.5),64,65,81,46,27,144,,134,134,15,24,6,8,0.4,0.5
2025-04-07T1700,2273A,117.4185,32.8911,蚌埠市,蚌埠学院,颗粒物(PM10),64,78,82,34,29,157,,146,146,11,15,5,6,0.5,0.5
2025-04-07T1700,2274A,117.3533,32.9673,蚌埠市,淮上区政府,颗粒物(PM10),60,70,77,28,30,155,,143,143,12,19,5,8,0.3,0.4
2025-04-07T1700,2275A,117.3145,32.8977,蚌埠市,高新区,颗粒物(PM10),57,63,81,27,28,151,,139,139,7,17,5,9,0.4,0.5
2025-04-07T1700,3715A,117.3092,32.9314,蚌埠市,蚌埠田家炳中学,颗粒物(PM10),63,76,90,39,34,152,,143,143,16,24,6,16,0.3,0.4
2025-04-07T1700,1585A,109.8756,40.6532,包头市,市环境监测站,,44,44,89,12,22,108,,103,103,8,21,10,11,0.5,0.6
2025-04-07T1700,1587A,109.9991,40.5842,包头市,包头八中,,48,48,107,18,34,130,,114,114,12,34,10,11,0.4,0.5
2025-04-07T1700,1588A,109.8538,40.6821,包头市,青山宾馆,,42,42,80,10,25,107,,99,99,4,22,8,10,0.3,0.5
2025-04-07T1700,1589A,109.8642,40.6288,包头市,惠龙物流,,41,41,81,16,21,125,,108,108,10,19,9,10,0.4,0.6
2025-04-07T1700,1590A,110.0377,40.5546,包头市,东河鸿龙湾,,50,50,111,3,31,133,,120,120,10,25,12,12,0.4,0.5
2025-04-07T1700,3283A,109.9154,40.5685,包头市,滨河大厦,,41,40,99,12,31,130,,115,115,9,25,10,17,0.5,0.7
2025-04-07T1700,3419A,109.9447,40.6261,包头市,包头市委党校,,41,37,82,18,22,131,,116,116,8,22,8,7,0.4,0.4
2025-04-07T1700,3683A,109.8331,40.6576,包头市,昆区政府,,40,40,78,11,24,108,,101,101,8,20,6,9,0.4,0.5
2025-04-07T1700,1930A,107.185,34.3063,宝鸡市,庙沟村,颗粒物(PM10),65,80,64,27,26,139,,124,124,8,10,7,7,0.4,0.4
2025-04-07T1700,1931A,107.0708,34.3017,宝鸡市,竹园沟,细颗粒物(PM2.5),102,,66,76,32,144,,126,126,10,12,7,6,0.4,0.4
2025-04-07T1700,1932A,107.1906,34.3672,宝鸡市,三陆医院,颗粒物(PM10),61,72,86,25,36,134,,122,122,8,34,4,8,0.5,0.6
2025-04-07T1700,1933A,107.1431,34.3547,宝鸡市,监测站,颗粒物(PM10),68,86,91,30,35,128,,119,119,12,26,8,8,0.3,0.5
2025-04-07T1700,1934A,107.1186,34.3739,宝鸡市,技工学校,颗粒物(PM10),66,82,81,31,34,128,,120,120,12,16,5,7,0.3,0.4
2025-04-07T1700,1935A,107.3906,34.3528,宝鸡市,陈仓区环保局家属楼,颗粒物(PM10),55,60,93,20,34,138,,119,119,15,34,6,22,0.5,0.7
2025-04-07T1700,1936A,107.2058,34.3497,宝鸡市,文理学院,颗粒物(PM10),56,62,80,32,40,137,,123,123,10,26,5,6,0.4,0.5
2025-04-07T1700,1937A,107.2386,34.3622,宝鸡市,三迪小学,颗粒物(PM10),61,71,92,29,45,128,,115,115,18,41,6,9,0.4,0.6
2025-04-07T1700,1051A,115.493,38.8632,保定市,游泳馆,细颗粒物(PM2.5),87,114,125,64,78,173,,139,139,22,40,8,15,0.6,0.7
2025-04-07T1700,1052A,115.5213,38.8959,保定市,华电二区,颗粒物(PM10),80,109,112,53,75,169,,137,137,23,40,6,4,1.3,1
2025-04-07T1700,1053A,115.4713,38.9108,保定市,接待中心,细颗粒物(PM2.5),128,118,119,97,104,164,,134,134,21,35,6,8,0.7,0.7
2025-04-07T1700,1054A,115.4612,38.8416,保定市,地表水厂,颗粒物(PM10),86,122,126,55,66,177,,145,145,23,35,8,9,0.7,0.7
2025-04-07T1700,3581A,115.31981,38.95208,保定市,满城区生态环境分局,细颗粒物(PM2.5),83,107,125,61,84,161,,135,135,26,43,4,5,0.6,0.7
2025-04-07T1700,3582A,115.47694,38.76408,保定市,清苑区第二中学,颗粒物(PM10),79,108,141,48,70,166,,138,138,21,40,7,10,0.6,0.7
2025-04-07T1700,3583A,115.62909,39.02311,保定市,徐水物探局,颗粒物(PM10),69,88,119,19,62,130,,130,130,17,40,9,12,0.5,0.7
2025-04-07T1700,4004A,115.4202,38.8656,保定市,双鹰农机,"颗粒物(PM10),细颗粒物(PM2.5)",82,113,123,60,67,167,,141,141,32,44,8,10,0.6,0.5
2025-04-07T1700,4034A,115.5150,38.8590,保定市,植保所站,颗粒物(PM10),79,107,126,49,84,167,,132,132,25,39,8,6,0.7,0.6
2025-04-07T1700,2594A,99.1678,25.1081,保山市,市环境监测站,细颗粒物(PM2.5),67,63,59,48,42,149,,127,127,8,12,5,6,0.5,0.5
2025-04-07T1700,2595A,99.1711,25.1328,保山市,市环保局,颗粒物(PM10),59,67,63,36,39,156,,140,140,6,10,6,5,0.5,0.6
2025-04-07T1700,1866A,109.2262,21.588,北海市,牛尾岭水库,,,53,50,51,42,88,,67,67,,12,8,7,0.9,0.8
2025-04-07T1700,1867A,109.1436,21.4086,北海市,海滩公园,颗粒物(PM10),63,75,62,42,34,119,,90,90,17,19,10,9,0.8,0.8
2025-04-07T1700,1868A,109.0981,21.4661,北海市,新市环保局,颗粒物(PM10),56,61,66,39,45,112,,88,85,19,22,8,8,0.6,0.6
2025-04-07T1700,1869A,109.1778,21.5233,北海市,北海工业园,颗粒物(PM10),70,89,79,49,52,102,,74,72,23,22,15,13,0.5,0.5
2025-04-07T1700,3400A,109.1911,21.4415,北海市,龙潭自来水厂,细颗粒物(PM2.5),64,61,61,46,43,118,,87,87,15,17,11,10,0.5,0.7
2025-04-07T1700,1001A,116.3621,39.8784,北京市,万寿西宫,,35,17,94,3,48,110,,101,101,8,37,5,13,0.3,0.9
2025-04-07T1700,1002A,116.2202,40.2915,北京市,定陵,,,,,,,,,,,,,,,,
2025-04-07T1700,1003A,116.4174,39.9289,北京市,东四,,34,30,102,6,57,106,,98,98,3,32,5,14,0.3,0.9
2025-04-07T1700,1004A,116.4072,39.8863,北京市,天坛,,43,,89,30,50,100,,93,93,8,33,1,6,0.5,1.1
2025-04-07T1700,1005A,116.462,39.9365,北京市,农展馆,,32,,89,17,46,102,,95,95,9,36,6,13,0.3,1
2025-04-07T1700,1006A,116.3392,39.9295,北京市,官园,,29,19,99,3,56,91,,82,82,4,32,5,13,0.3,0.8
2025-04-07T1700,1007A,116.2878,39.9611,北京市,海淀万柳,,28,16,91,3,44,89,,82,82,10,38,3,9,0.5,1
2025-04-07T1700,1008A,116.6636,40.135,北京市,顺义新城,,35,14,97,3,46,111,,117,117,7,26,5,13,0.3,0.7
2025-04-07T1700,1009A,116.6275,40.3275,北京市,怀柔镇,,30,10,91,3,48,94,,108,108,6,20,2,9,0.2,0.6
2025-04-07T1700,1010A,116.2296,40.217,北京市,昌平镇,,,7,96,3,41,98,,93,93,5,26,,7,0.2,0.6
2025-04-07T1700,1011A,116.3966,39.9821,北京市,奥体中心,,32,12,90,3,44,102,,92,92,9,45,2,10,0.4,1
2025-04-07T1700,3281A,115.9718,40.4529,北京市,延庆夏都,,49,,92,34,59,101,,98,98,7,25,5,10,0.3,0.6
2025-04-07T1700,3418A,116.8336,40.4095,北京市,密云新城,,30,13,86,3,41,93,,103,102,2,19,3,10,0.2,0.6
2025-04-07T1700,3671A,116.088,39.9726,北京市,门头沟三家店,颗粒物(PM10),54,58,150,6,55,84,,77,77,18,50,5,7,0.3,0.6
2025-04-07T1700,3672A,116.1541,39.8204,北京市,丰台云岗,,50,,100,35,54,101,,98,98,15,42,6,12,0.3,0.7
2025-04-07T1700,3673A,116.6804,39.9081,北京市,通州东关,,32,31,114,8,54,100,,94,94,10,47,4,12,0.2,0.8
2025-04-07T1700,3674A,115.9577,39.7603,北京市,房山燕山,,30,12,99,8,57,95,,98,98,8,36,3,8,0.2,0.6
2025-04-07T1700,3675A,116.4672,39.7733,北京市,大兴旧宫,,30,20,93,7,46,93,,89,89,6,35,3,5,0.1,0.7
2025-04-07T1700,3694A,115.986,40.4563,北京市,延庆石河营,,32,9,88,3,46,101,,97,97,6,24,4,8,0.3,0.7
2025-04-07T1700,3695A,116.6151,40.3053,北京市,怀柔新城,,30,7,85,3,46,96,,108,108,7,23,5,11,0.4,0.9
2025-04-07T1700,3696A,116.2545,39.8768,北京市,丰台小屯,,30,21,90,12,49,93,,90,90,10,33,2,8,0.1,0.7
2025-04-07T1700,3697A,116.84,40.3844,北京市,密云镇,,32,13,90,3,42,102,,110,110,6,25,5,11,0.3,0.7
2025-04-07T1700,4182A,116.1942,39.9158,北京市,八角北路9号,,35,20,100,7,45,109,,100,100,12,46,2,8,0,0.5
2025-04-07T1700,4194A,117.0790,40.1518,北京市,洳河巡河路,,33,,80,22,43,105,,103,103,5,19,2,8,0.3,0.7
2025-04-07T1700,1761A,123.8275,41.3064,本溪市,大峪,颗粒物(PM10),61,71,62,35,41,138,,125,125,22,25,10,8,0.6,0.6
2025-04-07T1700,1762A,123.7567,41.3325,本溪市,溪湖,颗粒物(PM10),56,62,66,29,42,138,,128,128,14,31,11,11,0.6,0.9
2025-04-07T1700,1763A,123.7169,41.3094,本溪市,彩屯,颗粒物(PM10),56,61,76,31,49,136,,123,123,16,36,12,14,0.6,1.7
2025-04-07T1700,1764A,123.7669,41.2864,本溪市,东明,颗粒物(PM10),76,101,69,25,33,133,,123,123,18,30,20,13,0.8,0.9
2025-04-07T1700,1765A,123.7992,41.2664,本溪市,新立屯,颗粒物(PM10),64,77,48,35,36,143,,125,125,18,28,15,8,1.0,0.8
2025-04-07T1700,1766A,123.8142,41.3472,本溪市,威宁,颗粒物(PM10),77,104,91,29,51,134,,123,123,10,22,8,5,0.6,0.9
2025-04-07T1700,2587A,105.2864,27.3125,毕节市,八中,,35,29,19,23,17,111,,82,82,9,9,15,15,0.7,0.7
2025-04-07T1700,2588A,105.31,27.2944,毕节市,师专,,37,27,19,24,17,117,,88,88,10,12,8,7,0.6,0.7
2025-04-07T1700,4263A,105.3688,27.3598,毕节市,工业大道,,36,29,21,23,18,114,,84,84,12,13,9,8,0.7,0.7
2025-04-07T1700,1629A,118.0018,37.3617,滨州市,第二水厂,颗粒物(PM10),126,202,146,44,45,167,,141,141,16,35,11,13,0.8,0.8
2025-04-07T1700,1630A,117.9776,37.393,滨州市,北中新校,颗粒物(PM10),89,127,126,61,54,172,,150,150,22,47,17,15,0.6,0.7
2025-04-07T1700,3514A,117.9378,37.3956,滨州市,中海酒店,颗粒物(PM10),82,114,113,51,56,166,,144,144,18,29,13,12,0.4,0.7
2025-04-07T1700,3515A,117.9378,37.3553,滨州市,开发区一中,颗粒物(PM10),95,139,148,44,47,166,,145,145,24,47,15,16,0.3,0.5
2025-04-07T1700,3516A,118.0917,37.694,滨州市,金海六路,颗粒物(PM10),91,132,134,51,49,175,,146,146,26,38,21,13,1.0,0.7
2025-04-07T1700,4028A,117.9956,37.3753,滨州市,滨州市西街道办事处,颗粒物(PM10),98,146,142,58,59,180,,154,154,21,43,11,12,0.5,0.7
2025-04-07T1700,2311A,115.8072,33.8399,亳州市,污水处理厂,颗粒物(PM10),63,76,108,24,34,151,,150,150,10,12,4,5,0.4,0.4
2025-04-07T1700,2312A,115.7789,33.8518,亳州市,三国揽胜宫,颗粒物(PM10),62,73,102,23,35,152,,150,150,3,7,4,6,0.4,0.5
2025-04-07T1700,3332A,115.7633,33.8034,亳州市,亳州学院,颗粒物(PM10),58,66,101,21,30,148,,147,147,8,11,6,8,0.3,0.4
2025-04-07T1700,2693A,82.0485,44.8556,博尔塔拉蒙古自治州,市党校,,37,37,29,14,13,104,,68,68,20,30,2,2,0.3,0.2
2025-04-07T1700,2694A,82.0806,44.8969,博尔塔拉蒙古自治州,市环保局,,40,34,42,14,14,128,,86,86,14,17,3,3,0.3,0.4
2025-04-07T1700,1071A,116.8842,38.2991,沧州市,沧县城建局,颗粒物(PM10),69,88,128,32,60,137,,118,118,17,44,6,9,0.5,0.7
2025-04-07T1700,1072A,116.8584,38.3254,沧州市,电视转播站,颗粒物(PM10),62,73,121,41,71,152,,128,128,19,42,8,10,0.3,0.5
2025-04-07T1700,1073A,116.8709,38.3228,沧州市,市环保局,细颗粒物(PM2.5),74,88,120,54,62,142,,135,135,16,38,6,11,0.4,0.6
2025-04-07T1700,3324A,116.8136,38.3004,沧州市,河北水利电力学院,颗粒物(PM10),73,95,141,36,61,142,,124,124,18,39,6,12,0.3,0.6
2025-04-07T1700,2622A,97.1806,31.1273,昌都市,昌都监测站,,43,24,22,9,12,135,,109,109,3,7,2,2,0.3,0.3
2025-04-07T1700,3719A,97.1714,31.1406,昌都市,昌都会议中心,,42,36,24,14,15,134,,113,113,4,6,3,3,0.3,0.3
2025-04-07T1700,2690A,88.1236,43.8886,昌吉回族自治州,天山天池,,34,6,12,3,7,108,,102,102,6,6,4,4,0.5,0.5
2025-04-07T1700,2692A,87.2717,44.0297,昌吉回族自治州,新区政务中心,,39,18,22,6,10,124,,96,96,7,24,10,5,0.3,0.5
2025-04-07T1700,3613A,87.3095,44.0142,昌吉回族自治州,亚心广场,,38,24,31,7,7,120,,93,93,12,33,10,7,0.6,0.6
2025-04-07T1700,1119A,125.3325,43.9166,长春市,食品厂,颗粒物(PM10),51,51,52,34,39,68,,93,93,51,25,8,8,0.7,0.6
2025-04-07T1700,1120A,125.2863,43.9027,长春市,客车厂,细颗粒物(PM2.5),55,52,43,39,42,104,,94,94,30,23,8,6,0.7,0.6
2025-04-07T1700,1121A,125.2841,43.8463,长春市,邮电学院,细颗粒物(PM2.5),58,63,46,41,43,115,,98,98,22,22,8,6,0.6,0.5
2025-04-07T1700,1122A,125.3716,43.8772,长春市,劳动公园,,48,38,43,33,37,98,,95,95,27,20,9,7,0.6,0.5
2025-04-07T1700,1123A,125.3297,43.8805,长春市,园林处,颗粒物(PM10),52,53,44,35,37,110,,97,97,20,20,9,7,0.6,0.6
2025-04-07T1700,1124A,125.4605,43.79,长春市,净月潭,,43,33,42,30,34,103,,96,96,13,11,8,6,0.5,0.5
2025-04-07T1700,1125A,125.7194,43.515,长春市,甩湾子,,,,,,,,,,,,,,,,
2025-04-07T1700,1126A,125.3863,43.8447,长春市,经开区环卫处,颗粒物(PM10),51,51,46,29,37,88,,90,90,27,20,7,6,0.6,0.6
2025-04-07T1700,1127A,125.245,43.7783,长春市,高新区管委会,"颗粒物(PM10),细颗粒物(PM2.5)",57,63,39,40,36,123,,94,94,18,22,11,8,0.6,0.6
2025-04-07T1700,1128A,125.1761,43.8325,长春市,岱山公园,颗粒物(PM10),57,63,45,39,40,129,,100,100,18,27,7,5,0.5,0.5
2025-04-07T1700,1335A,113.0833,28.2325,长沙市,经开区环保局,颗粒物(PM10),71,92,91,41,43,158,,,,10,11,11,12,0.5,0.6
2025-04-07T1700,1336A,112.8872,28.2189,长沙市,高开区环保局,颗粒物(PM10),71,92,114,38,55,134,,103,103,8,52,10,10,0.6,1.1
2025-04-07T1700,1337A,113.0792,28.2053,长沙市,马坡岭,颗粒物(PM10),71,91,110,44,54,136,,104,104,13,48,9,9,0.6,0.7
2025-04-07T1700,1338A,112.9394,28.19,长沙市,湖南师范大学,颗粒物(PM10),71,91,93,41,46,132,,101,101,8,28,9,9,0.7,0.9
2025-04-07T1700,1339A,113.0178,28.1322,长沙市,雨花区环保局,颗粒物(PM10),68,85,105,40,48,136,,105,105,12,50,9,10,0.6,0.8
2025-04-07T1700,1340A,112.9792,28.2597,长沙市,伍家岭,颗粒物(PM10),74,97,125,42,56,133,,91,91,13,53,7,6,0.7,1
2025-04-07T1700,1341A,113.0014,28.1944,长沙市,火车新站,颗粒物(PM10),76,102,130,48,64,131,,96,96,10,62,10,10,0.7,1.2
2025-04-07T1700,1342A,112.9844,28.1178,长沙市,天心区环保局,颗粒物(PM10),66,81,106,44,57,137,,110,110,14,49,7,8,0.6,0.9
2025-04-07T1700,1343A,112.8908,28.1308,长沙市,湖南中医药大学,颗粒物(PM10),70,90,113,40,57,127,,92,92,10,54,7,6,0.7,1.1
2025-04-07T1700,1344A,112.9581,28.3611,长沙市,沙坪,细颗粒物(PM2.5),74,83,74,54,45,117,,93,93,17,22,10,9,0.9,1
2025-04-07T1700,1727A,113.1147,36.1547,长治市,清华站,细颗粒物(PM2.5),89,91,102,66,36,146,,122,122,8,30,5,9,0.5,0.7
2025-04-07T1700,1730A,113.0886,36.2125,长治市,审计局,颗粒物(PM10),68,85,95,29,35,147,,120,120,10,30,9,10,0.2,0.4
2025-04-07T1700,1731A,113.0844,36.1856,长治市,长治八中,,,103,121,40,45,149,,122,122,10,29,,11,0.3,0.5
2025-04-07T1700,2845A,113.1569,36.1911,长治市,德盛苑,颗粒物(PM10),74,97,96,31,33,144,,122,122,7,13,5,7,0.5,0.7
2025-04-07T1700,3568A,113.06,36.0464,长治市,向阳小学,颗粒物(PM10),79,107,104,36,38,154,,138,138,12,17,10,13,0.3,0.5
2025-04-07T1700,3569A,112.8792,36.3144,长治市,屯留一中,颗粒物(PM10),69,87,102,28,38,150,,123,123,12,40,11,11,0.5,0.7
2025-04-07T1700,4189A,113.1131,36.19948,长治市,英华南巷50号,颗粒物(PM10),74,97,103,31,37,150,,122,122,9,25,6,8,0.2,0.5
2025-04-07T1700,4190A,113.2367,36.3344,长治市,学府街1号,细颗粒物(PM2.5),102,112,128,76,60,160,,133,133,5,42,14,12,0.4,0.8
2025-04-07T1700,1854A,111.6975,28.9703,常德市,市二中,,,75,90,56,42,109,,85,85,,20,,7,0.7,0.6
2025-04-07T1700,1857A,111.7158,29.1456,常德市,白鹤山,,,,,,,,,,,,,,,,
2025-04-07T1700,3138A,111.7153,29.0289,常德市,武陵区永安,颗粒物(PM10),64,78,104,40,42,125,,99,99,8,20,4,6,0.7,0.6
2025-04-07T1700,3139A,111.6892,28.9881,常德市,鼎城区玉霞,颗粒物(PM10),62,74,96,41,41,120,,93,93,9,23,6,6,0.7,0.6
2025-04-07T1700,3140A,111.6625,29.0531,常德市,武陵区长庚,颗粒物(PM10),65,79,100,43,42,130,,104,104,6,19,6,7,0.7,0.6
2025-04-07T1700,1196A,119.9633,31.762,常州市,市监测站,臭氧1小时,92,62,118,35,60,193,,188,188,36,43,8,9,0.7,0.8
2025-04-07T1700,1200A,119.9468,31.7069,常州市,武进监测站,臭氧1小时,95,61,103,33,47,196,,186,186,26,29,11,10,0.5,0.6
2025-04-07T1700,1201A,119.9255,31.9087,常州市,安家,臭氧1小时,73,59,101,33,55,178,,174,174,29,30,9,10,0.2,0.3
2025-04-07T1700,3002A,119.9805,31.8174,常州市,行政中心,臭氧1小时,90,46,92,32,52,192,,184,184,25,29,16,15,0.6,0.6
2025-04-07T1700,3003A,120.0522,31.7748,常州市,经开区,臭氧1小时,97,72,107,28,53,197,,188,188,29,38,13,15,0.8,1.1
2025-04-07T1700,3010A,119.9025,31.7964,常州市,钟楼,臭氧1小时,99,64,105,35,55,199,,188,188,23,26,7,10,0.7,0.9
2025-04-07T1700,3429A,119.8598,31.7066,常州市,武进经发区,,,,113,,58,,,141,,,35,,12,,1.0
2025-04-07T1700,3430A,119.5826,31.7245,常州市,金坛城区,臭氧1小时,99,,104,65,51,199,,203,203,22,26,11,12,0.6,0.9
2025-04-07T1700,2220A,120.4318,41.5881,朝阳市,西梁,颗粒物(PM10),97,143,68,20,25,97,,106,106,10,14,9,12,0.6,0.8
2025-04-07T1700,2221A,120.4521,41.5646,朝阳市,河畔小区,颗粒物(PM10),97,144,65,22,26,99,,108,107,9,12,6,11,0.4,0.5
2025-04-07T1700,2222A,120.4176,41.5648,朝阳市,八里堡,颗粒物(PM10),94,138,71,17,23,96,,104,104,7,15,7,11,0.4,0.6
2025-04-07T1700,2223A,120.3806,41.5969,朝阳市,农业园区,颗粒物(PM10),97,143,82,19,32,98,,109,109,10,21,8,12,0.5,0.7
2025-04-07T1700,1705A,116.6367,23.6719,潮州市,西园路,,,,,,,,,,,,,,,,
2025-04-07T1700,3026A,116.6183,23.6608,潮州市,市政府,颗粒物(PM10),59,67,69,32,49,159,,134,134,22,27,5,9,0.6,0.9
2025-04-07T1700,4036A,116.6461,23.6761,潮州市,金山,臭氧1小时,65,71,62,33,49,172,,140,140,17,19,9,8,0.5,0.7
2025-04-07T1700,2472A,113.0073,25.9061,郴州市,马头岭,颗粒物(PM10),66,81,73,26,30,69,,77,77,41,26,8,7,1.0,0.9
2025-04-07T1700,2473A,113.0116,25.8226,郴州市,市职中,颗粒物(PM10),60,69,75,37,45,72,,76,76,36,29,14,9,0.6,0.7
2025-04-07T1700,2475A,113.0383,25.8071,郴州市,市审计局,颗粒物(PM10),57,63,74,37,46,85,,79,79,21,28,14,8,0.6,0.8
2025-04-07T1700,2476A,113.0348,25.7759,郴州市,市环保局,颗粒物(PM10),58,66,80,35,42,73,,74,74,25,26,8,8,0.6,0.6
2025-04-07T1700,4252A,113.0138,25.8011,郴州市,好美居路49号,细颗粒物(PM2.5),59,63,80,42,48,80,,74,74,31,36,9,7,0.8,0.8
2025-04-07T1700,1431A,103.9728,30.7236,成都市,金泉两河,,,70,69,22,28,168,,127,127,,26,2,2,0.8,0.9
2025-04-07T1700,1432A,104.176,30.6872,成都市,十里店,颗粒物(PM10),58,66,65,25,29,148,,114,114,18,31,3,3,0.6,0.7
2025-04-07T1700,1433A,104.079,30.5706,成都市,三瓦窑,,,,68,,28,146,,118,118,16,40,4,4,,0.6
2025-04-07T1700,1434A,104.1114,30.63,成都市,沙河铺,颗粒物(PM10),55,60,62,35,36,136,,109,109,14,21,5,5,0.7,0.8
2025-04-07T1700,1437A,104.0786,30.6531,成都市,君平街,颗粒物(PM10),58,66,69,37,38,154,,124,124,15,28,6,6,0.7,0.8
2025-04-07T1700,1438A,103.613,31.0283,成都市,灵岩寺,,,,,,,,,,,,,,,,
2025-04-07T1700,2880A,104.0239,30.65639,成都市,大石西路,颗粒物(PM10),59,67,71,41,39,151,,116,116,15,33,5,5,0.5,0.8
2025-04-07T1700,3136A,104.2725,30.5589,成都市,龙泉驿区区政府,颗粒物(PM10),56,61,52,24,24,131,,109,109,11,14,4,4,0.8,0.8
2025-04-07T1700,3357A,104.0106,30.6931,成都市,金博路,,,49,60,22,27,149,,114,114,12,26,7,7,,0.6
2025-04-07T1700,3359A,104.0578,30.5225,成都市,华阳,颗粒物(PM10),51,51,56,34,38,128,,111,111,12,27,6,6,0.6,0.8
2025-04-07T1700,3488A,104.3853,30.7453,成都市,青白江技师分院,颗粒物(PM10),54,58,60,31,30,136,,122,122,13,29,7,7,0.5,0.6
2025-04-07T1700,3489A,104.0789,30.4072,成都市,科学城,颗粒物(PM10),51,51,52,30,30,130,,109,109,9,18,4,4,0.6,0.6
2025-04-07T1700,4011A,103.8506,30.6947,成都市,光华大道三段,细颗粒物(PM2.5),69,68,70,50,40,171,,126,126,14,23,1,2,0.6,0.8
2025-04-07T1700,4224A,104.2433,30.5353,成都市,鲸龙路1057号,颗粒物(PM10),53,56,64,27,31,138,,116,116,13,32,4,4,0.8,0.9
2025-04-07T1700,1062A,117.9531,40.9081,承德市,铁路,颗粒物(PM10),52,54,86,10,33,102,,98,98,7,27,6,13,0.2,0.9
2025-04-07T1700,1063A,117.9392,40.9763,承德市,中国银行,,49,49,83,3,33,103,,101,101,4,18,3,7,0.2,0.8
2025-04-07T1700,1064A,117.9503,40.928,承德市,开发区,,45,45,86,10,34,103,,103,103,6,23,5,12,0.2,0.9
2025-04-07T1700,1065A,117.8051,40.9655,承德市,文化中心,,,,98,,40,102,,99,99,,31,3,9,0.2,0.7
2025-04-07T1700,1066A,117.9268,41.0026,承德市,离宫,,,37,76,24,41,54,,55,55,,15,22,27,0.2,0.8
2025-04-07T1700,2314A,117.47,30.6618,池州市,池州学院,颗粒物(PM10),63,76,66,33,28,133,,123,123,14,21,10,10,0.5,0.7
2025-04-07T1700,3237A,117.4918,30.6617,池州市,展览馆,颗粒物(PM10),62,74,61,31,25,138,,126,126,13,20,10,8,0.7,0.8
2025-04-07T1700,3333A,117.5627,30.695,池州市,第八中学,颗粒物(PM10),68,85,62,32,24,132,,128,128,24,16,19,9,0.4,0.5
2025-04-07T1700,3334A,117.5038,30.6243,池州市,第十二中学,颗粒物(PM10),64,77,66,35,27,137,,123,123,14,25,11,9,0.6,0.7
2025-04-07T1700,1744A,118.9233,42.2816,赤峰市,松山一中,,45,45,64,14,23,91,,87,87,9,27,7,12,0.4,0.7
2025-04-07T1700,1745A,118.9576,42.2728,赤峰市,哈达街,,41,41,60,17,26,101,,95,95,8,23,7,10,0.4,0.6
2025-04-07T1700,1746A,118.8788,42.2554,赤峰市,天义路,,31,25,57,10,27,97,,98,94,10,22,6,10,0.4,0.5
2025-04-07T1700,3058A,119.2658,42.0353,赤峰市,银河街,颗粒物(PM10),54,58,84,3,30,93,,88,88,7,21,11,28,0.2,0.6
2025-04-07T1700,3286A,118.9359,42.3147,赤峰市,桥北物流园区,,39,33,60,27,44,88,,86,86,16,28,6,23,0.4,0.8
2025-04-07T1700,2521A,107.3476,22.4136,崇左市,市环保局江州分局,颗粒物(PM10),56,61,98,28,63,107,,107,107,10,15,5,7,0.8,1
2025-04-07T1700,4256A,107.3750,22.3736,崇左市,石景林东路7号,颗粒物(PM10),60,70,93,28,65,111,,106,106,8,15,5,6,0.8,1
2025-04-07T1700,2298A,118.3093,32.3153,滁州市,老年大学,臭氧1小时,65,77,81,32,33,172,,161,161,16,23,6,6,0.6,0.8
2025-04-07T1700,2299A,118.3244,32.2786,滁州市,人大宾馆,臭氧1小时,67,82,77,30,33,173,,164,164,20,29,12,13,0.5,0.7
2025-04-07T1700,3207A,118.3118,32.3038,滁州市,市政府原办公楼,"颗粒物(PM10),臭氧1小时",63,76,72,34,34,170,,160,160,7,18,8,9,0.5,0.6
2025-04-07T1700,3331A,118.3267,32.2634,滁州市,图书馆,颗粒物(PM10),63,75,76,37,37,163,,154,154,12,21,11,12,0.4,0.6
2025-04-07T1700,2605A,101.5482,25.0441,楚雄彝族自治州,州环境监测站,,49,49,59,29,50,150,,132,132,8,14,7,8,0.4,0.6
2025-04-07T1700,2606A,101.538,25.0492,楚雄彝族自治州,市经济开发区,,48,46,62,28,51,151,,134,134,7,13,6,7,0.6,0.8
2025-04-07T1700,2548A,107.5277,31.2827,达州市,达州职业技术学院,颗粒物(PM10),63,76,66,26,28,139,,104,104,9,25,5,6,0.3,0.2
2025-04-07T1700,2549A,107.5086,31.2186,达州市,市环境监测站,颗粒物(PM10),61,72,68,22,28,155,,112,112,15,38,5,5,0.5,0.7
2025-04-07T1700,2550A,107.4988,31.2132,达州市,凤凰小区,颗粒物(PM10),62,73,71,27,31,152,,112,112,15,39,8,7,0.5,0.6
2025-04-07T1700,2551A,107.5082,31.1986,达州市,达县机关宾馆,颗粒物(PM10),60,70,74,22,31,145,,106,106,16,39,5,5,0.3,0.5
2025-04-07T1700,2552A,107.4644,31.2124,达州市,市政中心,颗粒物(PM10),61,72,78,27,30,140,,107,107,13,41,3,3,0.4,0.7
2025-04-07T1700,2614A,100.1542,25.7054,大理白族自治州,大理市环境监测站,,,,42,,32,139,,128,128,,10,,7,0.8,0.9
2025-04-07T1700,2615A,100.2171,25.5811,大理白族自治州,大理古城,,46,45,40,32,35,139,,132,132,7,10,8,8,0.5,0.6
2025-04-07T1700,1109A,121.612,38.9741,大连市,甘井子,颗粒物(PM10),53,55,49,30,34,104,,108,108,31,33,7,7,0.7,0.9
2025-04-07T1700,1110A,121.565,38.9511,大连市,周水子,细颗粒物(PM2.5),58,64,58,41,42,98,,105,105,29,28,8,8,0.6,0.4
2025-04-07T1700,1111A,121.5637,38.8845,大连市,星海三站,颗粒物(PM10),54,58,50,35,34,97,,108,108,18,19,5,6,0.7,0.7
2025-04-07T1700,1112A,121.6302,38.9117,大连市,青泥洼桥,颗粒物(PM10),58,65,56,35,33,107,,117,117,25,23,10,9,0.7,0.6
2025-04-07T1700,1113A,121.6251,38.8638,大连市,傅家庄,,44,44,39,26,27,97,,100,100,16,20,6,6,0.3,0.3
2025-04-07T1700,1114A,121.5213,38.8661,大连市,七贤岭,颗粒物(PM10),54,58,53,32,33,81,,107,106,31,23,6,6,0.5,0.5
2025-04-07T1700,1115A,121.2529,38.8061,大连市,旅顺,细颗粒物(PM2.5),55,53,46,39,35,104,,100,100,21,27,8,7,0.6,0.5
2025-04-07T1700,1116A,121.7485,39.1311,大连市,金州,颗粒物(PM10),58,65,84,38,42,111,,106,106,20,28,8,8,1.0,1
2025-04-07T1700,1117A,121.7811,39.0496,大连市,开发区,颗粒物(PM10),56,62,60,31,39,93,,84,84,31,39,11,9,1.0,0.7
2025-04-07T1700,1118A,121.9762,39.0631,大连市,双D港,颗粒物(PM10),59,68,39,25,24,94,,100,98,35,20,14,8,0.5,0.5
2025-04-07T1700,1789A,124.81117,46.03138,大庆市,大同区,细颗粒物(PM2.5),53,51,65,37,46,100,,86,86,22,21,5,5,0.7,0.7
2025-04-07T1700,1790A,125.129,46.533,大庆市,龙凤区,颗粒物(PM10),65,80,74,41,45,93,,88,88,21,22,8,10,0.8,0.7
2025-04-07T1700,1791A,124.902,46.408,大庆市,红岗区,,,44,47,37,37,,,89,,9,15,7,6,0.5,0.5
2025-04-07T1700,1792A,125.153,46.586,大庆市,萨尔图区,颗粒物(PM10),58,66,68,38,45,95,,88,88,21,25,10,8,0.5,0.7
2025-04-07T1700,1793A,124.9042,46.6215,大庆市,让胡路区,细颗粒物(PM2.5),63,55,51,45,42,88,,88,88,28,19,7,6,0.4,0.4
2025-04-07T1700,3481A,125.141,46.634,大庆市,萨区政府监测点,,,62,64,27,33,107,,104,104,,20,6,6,0.5,0.6
2025-04-07T1700,1721A,113.3819,40.1097,大同市,果树场,,34,20,90,15,26,108,,99,99,4,27,6,12,0.3,0.5
2025-04-07T1700,1723A,113.2994,40.0758,大同市,云冈宾馆,,,,93,,24,,,90,,,25,,11,,0.7
2025-04-07T1700,1724A,113.3444,40.0917,大同市,大同大学,,35,20,79,10,28,111,,104,104,2,23,5,17,0.3,0.5
2025-04-07T1700,1725A,113.2661,40.1269,大同市,安家小村,,35,32,81,3,22,110,,104,104,3,14,9,13,0.4,1.2
2025-04-07T1700,1726A,113.2711,40.0844,大同市,教育学院,,35,26,82,7,29,112,,105,105,7,18,8,10,0.5,0.8
2025-04-07T1700,3282A,113.3397,40.0597,大同市,大同市卫生学校,,35,16,78,10,27,112,,102,102,6,26,6,10,0.3,0.6
2025-04-07T1700,3565A,113.1367,40.1122,大同市,云冈站,,46,,77,32,30,107,,103,103,6,14,10,16,0.3,0.4
2025-04-07T1700,3566A,113.1186,40.2556,大同市,图书馆,,31,25,75,8,25,99,,94,94,5,11,10,11,0.4,0.6
2025-04-07T1700,3567A,113.5931,40.0461,大同市,区一中,,36,26,95,6,31,115,,105,105,6,24,9,19,0.3,0.6
2025-04-07T1700,4199A,113.2798,40.0997,大同市,魏都大道141号,,37,32,96,20,34,116,,110,110,7,22,12,15,0.4,0.8
2025-04-07T1700,2269A,124.1069,50.4097,大兴安岭地区,科技局,颗粒物(PM10),54,58,56,36,36,91,,86,86,11,9,8,8,0.6,0.5
2025-04-07T1700,3663A,124.1164,50.4278,大兴安岭地区,红旗社区,,41,41,40,27,30,92,,88,88,12,15,4,6,0.6,0.6
2025-04-07T1700,1600A,124.3303,40.0625,丹东市,江湾东路,颗粒物(PM10),55,59,48,36,37,134,,126,126,12,21,12,10,0.5,0.8
2025-04-07T1700,1601A,124.4256,40.1503,丹东市,临江后街,颗粒物(PM10),60,69,53,38,36,126,,115,115,11,19,6,9,0.6,0.9
2025-04-07T1700,1602A,124.3933,40.1461,丹东市,元宝山,颗粒物(PM10),51,52,47,26,32,127,,115,115,13,23,7,7,0.4,0.7
2025-04-07T1700,1603A,124.3633,40.1092,丹东市,民主桥,颗粒物(PM10),56,61,51,31,35,131,,121,121,10,23,8,10,0.6,0.9
2025-04-07T1700,3541A,109.5726,19.5167,儋州市,第一中学子站,,,21,14,15,10,75,,75,75,5,6,,4,0.6,0.6
2025-04-07T1700,3542A,109.5567,19.5187,儋州市,东坡学校子站,,28,,15,13,8,88,,83,83,5,5,6,5,0.5,0.5
2025-04-07T1700,2616A,98.5842,24.428,德宏傣族景颇族自治州,德宏州监测站,细颗粒物(PM2.5),80,82,91,59,69,170,,114,114,16,32,14,12,0.8,0.9
2025-04-07T1700,3677A,98.5881,24.4368,德宏傣族景颇族自治州,芒市人民政府综合楼,细颗粒物(PM2.5),82,108,108,60,63,176,,122,122,16,19,13,10,0.6,0.8
2025-04-07T1700,1901A,104.4239,31.1208,德阳市,东山公园,颗粒物(PM10),55,59,66,28,36,130,,113,113,9,15,3,4,0.7,0.7
2025-04-07T1700,1902A,104.3826,31.1317,德阳市,西小区,颗粒物(PM10),64,78,84,37,40,139,,116,116,16,29,4,5,0.6,0.7
2025-04-07T1700,1904A,104.3553,31.1091,德阳市,耐火材料厂,颗粒物(PM10),57,63,80,37,39,146,,118,118,10,30,5,6,0.4,0.5
2025-04-07T1700,3639A,104.4019,31.1244,德阳市,市教育局,颗粒物(PM10),57,64,67,38,38,143,,120,120,12,26,4,5,0.6,0.7
2025-04-07T1700,1622A,116.3032,37.4674,德州市,儿童乐园,颗粒物(PM10),109,168,153,61,52,186,,150,150,15,19,9,13,0.6,0.6
2025-04-07T1700,1624A,116.2991,37.4451,德州市,监理站,颗粒物(PM10),97,144,144,70,56,190,,150,150,14,20,18,20,0.5,0.5
2025-04-07T1700,3066A,116.2721,37.4379,德州市,九衢泉纯净水厂,颗粒物(PM10),93,136,138,46,48,190,,150,150,21,29,13,14,0.7,0.7
2025-04-07T1700,3371A,116.3728,37.4403,德州市,开发区人民医院,颗粒物(PM10),93,136,148,48,46,182,,150,150,13,18,12,11,0.7,0.7
2025-04-07T1700,3372A,116.3572,37.4094,德州市,太阳城中学,颗粒物(PM10),90,129,138,58,51,186,,150,150,13,20,9,10,0.6,0.5
2025-04-07T1700,3511A,116.5652,37.3319,德州市,陵城艺术中心,颗粒物(PM10),95,139,136,51,45,175,,140,140,18,23,4,7,0.6,0.7
2025-04-07T1700,2621A,99.7056,27.8317,迪庆藏族自治州,迪庆州站,,45,45,51,23,29,130,,127,127,8,11,8,11,0.4,0.5
2025-04-07T1700,3180A,99.7136,27.8094,迪庆藏族自治州,质量技术监督局,,47,47,42,18,25,134,,128,128,7,13,10,11,0.6,0.7
2025-04-07T1700,4257A,104.6092,35.5962,定西市,将台街,,42,42,61,11,25,131,,118,118,6,14,6,6,0.3,0.3
2025-04-07T1700,4309A,104.6159,35.5701,定西市,正龙路62号,,45,45,60,14,27,132,,123,123,5,8,9,9,0.2,0.2
2025-04-07T1700,1389A,113.7547,23.0494,东莞市,莞城梨川,臭氧1小时,127,70,104,40,59,254,,185,185,23,54,5,6,0.6,0.8
2025-04-07T1700,1390A,113.7944,23.0128,东莞市,东城石井,臭氧1小时,115,49,72,26,45,230,,187,187,19,32,6,7,0.6,0.8
2025-04-07T1700,1391A,113.7383,22.9658,东莞市,南城西平,臭氧1小时,147,68,82,50,49,293,,187,187,31,52,8,8,0.7,0.8
2025-04-07T1700,3319A,113.7338,23.0381,东莞市,万江金泰,臭氧1小时,141,60,93,36,53,282,,201,201,18,54,8,8,0.7,1
2025-04-07T1700,3626A,113.7533,23.0202,东莞市,南城元岭,臭氧1小时,129,68,98,33,52,258,,184,184,22,53,6,7,0.7,1
2025-04-07T1700,3627A,113.7875,23.0457,东莞市,东城主山,臭氧1小时,118,73,101,33,54,236,,182,182,31,59,4,5,0.7,1
2025-04-07T1700,1666A,118.6614,37.4309,东营市,市环保局,颗粒物(PM10),97,144,122,48,42,191,,154,154,19,37,12,14,0.7,0.7
2025-04-07T1700,3036A,118.6904,37.4338,东营市,开发区管委会,"颗粒物(PM10),臭氧1小时",100,150,130,58,46,200,,158,158,24,39,12,13,0.8,0.9
2025-04-07T1700,3365A,118.5719,37.565,东营市,垦利区民丰路,臭氧1小时,103,146,125,75,46,205,,160,160,24,37,11,9,1.2,0.9
2025-04-07T1700,3498A,118.5055,37.8612,东营市,河口城区,颗粒物(PM10),114,178,136,63,47,193,,166,166,38,34,25,12,1.4,1.1
2025-04-07T1700,3646A,118.4978,37.4623,东营市,胜利站,颗粒物(PM10),106,161,130,53,46,199,,155,155,20,41,18,15,1.0,1
2025-04-07T1700,3734A,118.35,37.26,东营市,理想之城,,,,127,,43,199,,159,159,,46,15,19,0.7,0.8
2025-04-07T1700,1591A,110.0023,39.8129,鄂尔多斯市,综合楼,颗粒物(PM10),56,61,121,12,43,114,,98,98,10,18,4,6,0.2,0.3
2025-04-07T1700,1592A,109.9486,39.8261,鄂尔多斯市,巴音孟克林场办事处,颗粒物(PM10),51,51,111,9,28,116,,100,100,7,14,6,7,0.3,0.3
2025-04-07T1700,1593A,109.7736,39.5986,鄂尔多斯市,康泽苑,颗粒物(PM10),54,58,105,12,27,108,,92,92,8,10,4,5,0.2,0.2
2025-04-07T1700,1594A,109.8119,39.5989,鄂尔多斯市,华泰汽车城,颗粒物(PM10),54,58,106,17,28,104,,91,91,8,16,4,5,0.4,0.4
2025-04-07T1700,1595A,109.9734,39.7884,鄂尔多斯市,奥林花园,颗粒物(PM10),53,56,117,17,30,113,,100,100,10,20,6,9,0.3,0.3
2025-04-07T1700,2436A,114.8938,30.3994,鄂州市,市政府,颗粒物(PM10),62,74,87,36,40,147,,112,112,18,31,14,13,0.9,0.9
2025-04-07T1700,2437A,114.8989,30.3714,鄂州市,赵家坝,颗粒物(PM10),65,79,89,31,36,106,,96,96,20,29,10,9,0.9,0.9
2025-04-07T1700,3654A,114.8094,30.4089,鄂州市,精准医疗中心,颗粒物(PM10),64,77,101,36,45,149,,131,131,30,41,11,12,0.8,0.8
2025-04-07T1700,2454A,109.4978,30.2981,恩施土家族苗族自治州,湖北民院,颗粒物(PM10),53,55,63,27,33,135,,103,103,5,15,1,1,0.2,0.3
2025-04-07T1700,2455A,109.4707,30.2798,恩施土家族苗族自治州,州电力总公司,颗粒物(PM10),53,55,66,27,35,121,,89,89,6,17,6,5,0.1,0.2
2025-04-07T1700,3549A,109.5061,30.3772,恩施土家族苗族自治州,龙凤新区,颗粒物(PM10),57,63,65,32,32,136,,102,102,9,14,7,6,0.4,0.4
2025-04-07T1700,2499A,108.3411,21.6158,防城港市,沙万,颗粒物(PM10),59,67,85,31,56,80,,78,78,41,26,10,4,0.7,0.7
2025-04-07T1700,2500A,108.3514,21.7731,防城港市,防城档案局,颗粒物(PM10),70,90,102,31,63,106,,83,83,20,27,6,2,0.9,0.9
2025-04-07T1700,2501A,108.3506,21.6414,防城港市,大海花园,颗粒物(PM10),54,58,85,24,58,103,,87,87,23,18,8,6,0.9,1.2
2025-04-07T1700,1371A,113.1294,23.0067,佛山市,湾梁,臭氧1小时,117,83,121,34,55,233,,152,152,31,74,8,9,0.7,1.1
2025-04-07T1700,1372A,113.1083,23.0478,佛山市,华材职中,臭氧1小时,132,85,112,43,60,263,,160,160,36,81,8,8,0.6,1.1
2025-04-07T1700,1373A,113.144,23.0453,佛山市,南海气象局,臭氧1小时,111,91,110,40,59,221,,144,144,23,58,7,7,0.6,1.1
2025-04-07T1700,1374A,113.2881,22.8094,佛山市,顺德苏岗,颗粒物(PM10),52,53,86,27,50,156,,122,122,24,59,6,7,0.5,1
2025-04-07T1700,1376A,112.8383,22.8678,佛山市,高明孔堂,臭氧1小时,153,95,86,47,53,306,,183,183,33,35,8,9,0.8,0.8
2025-04-07T1700,1377A,112.8836,23.1588,佛山市,三水监测站,臭氧1小时,121,95,127,44,71,241,,148,148,44,73,2,6,0.7,1
2025-04-07T1700,1378A,112.867,23.185,佛山市,三水云东海,臭氧1小时,119,83,106,38,78,238,,155,155,45,64,2,4,0.7,0.9
2025-04-07T1700,3625A,113.2544,22.7642,佛山市,容桂街道办,臭氧1小时,63,53,100,29,57,170,,134,134,25,71,6,8,0.6,1.1
2025-04-07T1700,1280A,119.3903,26.0543,福州市,鼓山,,,,59,,21,,,140,,,4,,1,,0.5
2025-04-07T1700,1282A,119.2681,26.0504,福州市,师大,颗粒物(PM10),59,68,60,23,27,162,,159,159,7,14,4,5,0.3,0.4
2025-04-07T1700,1283A,119.2984,26.1028,福州市,五四北路,颗粒物(PM10),56,61,60,25,29,154,,154,154,12,21,4,4,0.5,0.5
2025-04-07T1700,1284A,119.2648,26.0768,福州市,杨桥西路,颗粒物(PM10),63,76,66,24,27,158,,157,157,11,20,4,5,0.4,0.5
2025-04-07T1700,1285A,119.317,26.0746,福州市,紫阳,颗粒物(PM10),68,86,69,18,29,108,,125,125,52,34,5,6,0.4,0.4
2025-04-07T1700,3048A,119.5799,26.0936,福州市,九龙,颗粒物(PM10),63,76,48,35,24,163,,154,154,11,14,4,4,0.4,0.4
2025-04-07T1700,3526A,119.5189,25.9664,福州市,吴航,臭氧1小时,74,66,52,28,26,179,,160,160,6,19,4,4,0.4,0.4
2025-04-07T1700,1755A,123.7977,41.8491,抚顺市,望花区,颗粒物(PM10),86,121,77,28,50,127,,140,140,19,27,10,12,0.5,0.8
2025-04-07T1700,1756A,123.9161,41.8822,抚顺市,顺城区,颗粒物(PM10),82,113,68,19,41,119,,135,135,19,26,8,9,0.5,0.7
2025-04-07T1700,1757A,124.0436,41.8611,抚顺市,东洲区,颗粒物(PM10),92,134,60,22,38,119,,133,133,20,18,6,7,0.6,0.8
2025-04-07T1700,1758A,123.9247,41.8642,抚顺市,新抚区,颗粒物(PM10),83,116,67,24,37,114,,126,126,19,24,6,7,0.5,0.7
2025-04-07T1700,1759A,124.0972,41.8961,抚顺市,大伙房水库,颗粒物(PM10),88,125,52,26,38,116,,121,121,11,13,8,8,0.4,0.6
2025-04-07T1700,1760A,123.7086,41.8391,抚顺市,沈抚新城,颗粒物(PM10),85,119,97,30,50,129,,140,140,17,36,9,17,0.6,1.6
2025-04-07T1700,2376A,116.2127,28.0814,抚州市,桐源党溪,颗粒物(PM10),55,60,63,23,30,102,,105,105,3,4,8,7,0.5,0.5
2025-04-07T1700,2377A,116.3544,27.9831,抚州市,市站,颗粒物(PM10),52,54,67,24,28,97,,90,90,4,16,6,11,0.8,0.9
2025-04-07T1700,2378A,116.3565,27.963,抚州市,血防站,颗粒物(PM10),55,60,65,22,29,84,,76,76,7,16,6,6,1.5,1.2
2025-04-07T1700,2379A,116.3564,28.0007,抚州市,采茶剧团,,50,50,64,23,30,87,,81,81,3,12,2,5,1.2,1.1
2025-04-07T1700,2380A,116.385,27.9647,抚州市,医学分院,颗粒物(PM10),53,55,64,12,26,88,,82,82,4,14,3,8,1.1,1.1
2025-04-07T1700,2207A,121.6094,41.998,阜新市,工业园区,颗粒物(PM10),139,227,108,24,51,105,,105,105,8,24,6,16,0.3,0.6
2025-04-07T1700,2208A,121.6697,42.0279,阜新市,长青街,颗粒物(PM10),84,117,78,18,53,108,,108,108,8,17,4,12,0.4,0.7
2025-04-07T1700,2209A,121.6673,42.0705,阜新市,农业园区,颗粒物(PM10),104,158,94,24,45,101,,103,103,6,14,6,12,0.4,0.7
2025-04-07T1700,2210A,121.6717,42.0224,阜新市,东苑,颗粒物(PM10),124,197,102,21,53,101,,102,102,8,18,2,15,0.4,0.7
2025-04-07T1700,2211A,121.6506,42.0498,阜新市,玉龙新城,颗粒物(PM10),113,175,97,19,51,103,,104,104,5,23,6,11,0.4,0.7
2025-04-07T1700,2301A,115.8277,32.8929,阜阳市,市监测站,颗粒物(PM10),59,67,83,27,36,146,,137,137,12,18,8,9,0.6,0.6
2025-04-07T1700,2303A,115.8554,32.8605,阜阳市,开发区,颗粒物(PM10),68,85,106,29,32,153,,139,139,10,18,9,9,0.6,0.5
2025-04-07T1700,2875A,115.784,32.8892,阜阳市,阜阳职业技术学院,颗粒物(PM10),64,77,91,23,33,137,,128,128,12,16,8,8,0.3,0.3
2025-04-07T1700,3468A,115.7901,32.8613,阜阳市,市规划展馆,颗粒物(PM10),66,81,97,35,36,156,,145,145,8,11,8,8,0.3,0.4
2025-04-07T1700,3469A,115.836,32.9183,阜阳市,枣园社区,颗粒物(PM10),63,76,99,36,40,154,,147,147,12,24,7,8,0.4,0.5
2025-04-07T1700,2669A,102.9099,34.9841,甘南藏族自治州,州政府,,36,36,53,21,29,109,,88,88,2,24,8,7,0.2,0.4
2025-04-07T1700,3380A,102.8914,34.9617,甘南藏族自治州,甘肃民族师范学院,,35,31,32,19,24,109,,83,83,2,32,7,8,0.4,0.5
2025-04-07T1700,2570A,101.9603,30.0475,甘孜藏族自治州,水桥子,,30,22,21,8,8,96,,76,76,7,23,3,3,0.2,0.3
2025-04-07T1700,3065A,101.9533,29.9972,甘孜藏族自治州,州环保局,,32,29,26,6,6,101,,94,94,7,13,4,4,0.2,0.2
2025-04-07T1700,3414A,115.8347,28.932,赣江新区,桑海产业园,颗粒物(PM10),80,110,91,33,30,125,,116,116,30,45,14,10,0.5,0.5
2025-04-07T1700,2362A,114.9017,25.9149,赣州市,通天岩,,43,43,52,9,11,124,,123,123,3,4,21,18,0.8,0.8
2025-04-07T1700,2363A,114.9367,25.8664,赣州市,地委,颗粒物(PM10),54,57,68,32,37,88,,78,78,9,34,2,5,1.1,1.1
2025-04-07T1700,2364A,114.9461,25.8481,赣州市,气象台,,44,44,72,25,35,106,,89,89,11,42,9,10,0.5,0.6
2025-04-07T1700,2365A,114.9322,25.8333,赣州市,市图书馆,,49,49,73,26,37,104,,88,88,12,36,4,6,0.6,0.7
2025-04-07T1700,2366A,114.8905,25.8471,赣州市,华坚鞋城,,,48,78,25,39,96,,98,98,17,38,9,15,,0.6
2025-04-07T1700,3109A,115.0093,25.8613,赣州市,赣县区卫计委,,50,50,62,25,36,98,,87,87,5,27,5,7,0.4,0.4
2025-04-07T1700,2683A,106.2319,36.1417,固原市,马园,,,92,101,22,42,104,,107,107,,39,5,6,0.5,0.6
2025-04-07T1700,2684A,106.2792,36.0022,固原市,监测站,颗粒物(PM10),55,59,90,19,34,127,,116,116,6,23,6,7,0.2,0.4
2025-04-07T1700,2685A,106.2375,36.0211,固原市,新区,颗粒物(PM10),54,57,87,19,30,124,,116,116,9,31,6,6,0.3,0.5
2025-04-07T1700,3522A,106.2177,35.9959,固原市,原州区十五小,颗粒物(PM10),55,60,83,20,31,125,,114,114,6,13,8,8,0.3,0.3
2025-04-07T1700,2543A,106.6308,30.5278,广安市,小平旧居,,,,,,,,,,,,,,,,
2025-04-07T1700,2544A,106.6303,30.4576,广安市,市委,颗粒物(PM10),67,83,86,47,51,146,,114,114,10,27,6,5,0.4,0.6
2025-04-07T1700,2545A,106.6271,30.4663,广安市,友谊中学,颗粒物(PM10),63,75,76,42,42,150,,114,114,14,26,2,2,0.6,0.7
2025-04-07T1700,2547A,106.6388,30.4551,广安市,广电花园,颗粒物(PM10),67,83,81,43,46,146,,106,106,13,28,9,8,0.5,0.6
2025-04-07T1700,2902A,106.6351,30.4865,广安市,北辰小学,颗粒物(PM10),64,77,69,40,38,152,,112,112,11,20,8,7,0.7,0.8
2025-04-07T1700,2523A,105.8945,32.4535,广元市,黑石坡,颗粒物(PM10),62,74,66,16,23,114,,99,99,5,10,2,5,0.3,0.4
2025-04-07T1700,2524A,105.821,32.4444,广元市,老城,,50,50,65,14,25,118,,102,102,4,36,1,2,0.7,0.7
2025-04-07T1700,2526A,105.8628,32.4287,广元市,监测站,,39,31,49,24,26,123,,102,102,6,16,5,8,0.4,0.5
2025-04-07T1700,3617A,105.8047,32.4166,广元市,经开区,颗粒物(PM10),56,62,78,31,40,111,,94,94,8,39,8,12,0.7,0.8
2025-04-07T1700,1345A,113.2347,23.1423,广州市,广雅中学,臭氧1小时,110,76,120,34,61,219,,148,148,30,78,6,6,0.6,1
2025-04-07T1700,1346A,113.2612,23.105,广州市,市五中,臭氧1小时,105,64,118,27,56,209,,152,152,21,74,3,4,0.5,1
2025-04-07T1700,1348A,113.3478,23.0916,广州市,广东商学院,,,,103,32,60,179,,137,137,,73,5,6,,1
2025-04-07T1700,1349A,113.4332,23.1047,广州市,市八十六中,臭氧1小时,98,73,112,38,51,198,,134,134,38,74,5,6,0.7,1.2
2025-04-07T1700,1350A,113.3505,22.9483,广州市,番禺中学,臭氧1小时,101,59,99,21,54,202,,158,158,24,66,5,5,0.5,0.9
2025-04-07T1700,1351A,113.2146,23.3916,广州市,花都师范,臭氧1小时,107,74,118,42,64,213,,158,158,44,78,6,7,0.7,1
2025-04-07T1700,1352A,113.2597,23.1331,广州市,市监测站,臭氧1小时,108,66,107,25,55,216,,153,153,26,77,6,7,0.4,0.8
2025-04-07T1700,1353A,113.5618,23.312,广州市,九龙镇镇龙,臭氧1小时,125,87,82,46,43,250,,156,156,32,36,8,5,0.7,0.7
2025-04-07T1700,1354A,113.2765,23.1544,广州市,麓湖,臭氧1小时,116,62,87,29,49,232,,167,167,21,59,5,5,0.5,0.9
2025-04-07T1700,1355A,113.443,23.3035,广州市,帽峰山森林公园,臭氧1小时,126,73,60,23,25,251,,166,166,23,34,6,4,0.6,0.6
2025-04-07T1700,2846A,113.3221,23.1322,广州市,体育西,臭氧1小时,107,59,110,25,57,213,,158,158,19,57,5,6,0.5,1
2025-04-07T1700,3298A,113.5717,23.5491,广州市,从化街口,臭氧1小时,108,61,70,35,45,216,,149,149,18,27,9,8,0.7,0.8
2025-04-07T1700,3299A,113.3472,23.3692,广州市,白云竹料,臭氧1小时,125,75,112,36,58,249,,168,168,32,48,9,8,0.6,0.9
2025-04-07T1700,3300A,113.2981,23.237,广州市,白云嘉禾,臭氧1小时,126,74,114,36,61,252,,151,151,36,74,6,6,0.5,0.9
2025-04-07T1700,3301A,113.4256,23.1716,广州市,黄埔科学城,臭氧1小时,132,68,82,38,47,264,,186,186,25,48,6,6,0.4,0.7
2025-04-07T1700,3302A,113.3942,23.0483,广州市,番禺大学城,臭氧1小时,111,61,107,21,52,221,,172,172,22,70,9,11,0.4,0.8
2025-04-07T1700,3303A,113.4922,22.8168,广州市,南沙黄阁,臭氧1小时,117,87,91,31,50,233,,160,160,30,61,7,8,0.7,1
2025-04-07T1700,3304A,113.5342,22.7896,广州市,南沙街,臭氧1小时,108,89,80,29,46,216,,169,169,29,52,5,6,0.6,0.8
2025-04-07T1700,3443A,113.2902,23.5544,广州市,花都梯面,臭氧1小时,119,84,80,46,51,237,,164,164,33,42,7,6,0.8,0.8
2025-04-07T1700,3445A,113.7858,23.7478,广州市,从化良口,细颗粒物(PM2.5),57,58,44,40,31,164,,123,123,9,11,7,6,0.6,0.6
2025-04-07T1700,3446A,113.8051,23.2614,广州市,增城荔城,臭氧1小时,129,82,71,47,47,257,,176,176,19,22,8,8,0.5,0.5
2025-04-07T1700,2505A,109.568,23.1478,贵港市,德智高中,,,,,,,,,,,,,,,,
2025-04-07T1700,2506A,109.6047,23.0666,贵港市,江南子站,细颗粒物(PM2.5),68,80,102,49,58,125,,94,94,13,29,5,10,0.6,0.9
2025-04-07T1700,2508A,109.5669,23.1065,贵港市,荷城子站,颗粒物(PM10),66,82,96,46,53,110,,88,88,16,29,7,9,0.4,0.5
2025-04-07T1700,3405A,109.5886,23.1172,贵港市,新世纪学校,细颗粒物(PM2.5),73,85,97,53,60,125,,96,96,16,26,7,10,1.0,1.1
2025-04-07T1700,4260A,109.5933,23.0951,贵港市,中山路155-3号,细颗粒物(PM2.5),74,92,96,54,55,120,,97,97,14,28,9,12,0.8,0.9
2025-04-07T1700,1439A,106.6899,26.5998,贵阳市,马鞍山,,46,46,59,31,41,89,,59,59,15,14,6,5,0.8,0.7
2025-04-07T1700,1441A,106.6243,26.6266,贵阳市,鉴湖路,,,66,70,41,41,97,,75,75,,16,11,11,0.7,0.5
2025-04-07T1700,1442A,106.7487,26.6343,贵阳市,燕子冲,,,51,68,44,54,95,,66,66,19,20,,4,0.6,0.6
2025-04-07T1700,1443A,106.6555,26.4365,贵阳市,碧云窝,颗粒物(PM10),53,56,74,34,43,107,,79,79,12,19,4,6,0.6,0.6
2025-04-07T1700,1445A,106.7109,26.6027,贵阳市,红边门,细颗粒物(PM2.5),58,56,73,41,52,82,,58,58,24,19,6,6,0.9,0.7
2025-04-07T1700,1446A,106.7164,26.5699,贵阳市,新华路,细颗粒物(PM2.5),55,58,74,39,50,85,,59,59,20,19,14,9,0.7,0.6
2025-04-07T1700,1447A,106.674,26.5424,贵阳市,太慈桥,颗粒物(PM10),59,68,66,39,44,79,,60,60,28,22,8,6,0.6,0.6
2025-04-07T1700,1552A,106.805,26.3003,贵阳市,桐木岭,细颗粒物(PM2.5),55,56,83,39,55,110,,96,96,6,8,3,2,0.8,0.7
2025-04-07T1700,4230A,106.6882,26.5695,贵阳市,花果园大街66号,细颗粒物(PM2.5),52,41,65,36,56,79,,54,54,20,22,7,6,0.7,0.7
2025-04-07T1700,4231A,106.6873,26.5169,贵阳市,漓江路57号,细颗粒物(PM2.5),58,56,73,41,50,93,,69,69,17,20,11,11,0.5,0.5
2025-04-07T1700,1862A,110.4144,25.3167,桂林市,电子科大尧山校区,,,,,,,,,,,,,,,,
2025-04-07T1700,1864A,110.3089,25.2708,桂林市,龙隐路小学,细颗粒物(PM2.5),107,123,103,80,76,108,,72,72,23,33,18,19,0.7,1.1
2025-04-07T1700,1865A,110.2869,25.2178,桂林市,八中,细颗粒物(PM2.5),107,119,112,80,74,107,,67,67,30,34,16,13,0.8,0.8
2025-04-07T1700,3531A,110.296,25.1253,桂林市,旅游学院,细颗粒物(PM2.5),94,102,99,70,70,111,,72,72,18,30,14,12,0.7,0.7
2025-04-07T1700,4222A,110.1835,25.2444,桂林市,环湖路276号,细颗粒物(PM2.5),104,119,113,78,71,94,,47,47,28,40,24,20,0.6,0.6
2025-04-07T1700,4301A,110.2803,25.2773,桂林市,信义路13号,细颗粒物(PM2.5),89,125,107,66,84,105,,63,63,30,39,19,25,1.1,1.2
2025-04-07T1700,2674A,100.2561,34.4714,果洛藏族自治州,玛沁县大武镇,,48,48,55,12,22,134,,112,112,2,4,12,14,0.4,0.4
2025-04-07T1700,1129A,126.5422,45.755,哈尔滨市,岭北,,36,13,54,9,49,115,,107,107,15,24,17,21,0.8,1.1
2025-04-07T1700,1130A,126.561,45.8167,哈尔滨市,松北商大,,35,26,54,16,44,111,,102,102,11,22,8,9,0.5,0.8
2025-04-07T1700,1131A,126.979,45.5419,哈尔滨市,阿城会宁,,,,44,5,31,105,,96,96,10,13,13,10,0.5,0.6
2025-04-07T1700,1132A,126.599,45.7222,哈尔滨市,南岗学府路,,34,27,72,9,43,108,,106,106,11,28,7,8,0.5,0.8
2025-04-07T1700,1133A,126.689,45.7733,哈尔滨市,太平宏伟公园,颗粒物(PM10),63,75,62,25,52,112,,106,106,12,25,5,5,0.7,0.9
2025-04-07T1700,1134A,126.635,45.7667,哈尔滨市,道外承德广场,,,,63,17,53,,,87,87,,36,,8,,0.5
2025-04-07T1700,1135A,126.685,45.7319,哈尔滨市,香坊红旗大街,,32,31,64,3,49,102,,100,100,18,32,7,8,0.6,0.7
2025-04-07T1700,1136A,126.6411,45.7258,哈尔滨市,动力和平路,颗粒物(PM10),77,103,78,13,52,97,,91,91,19,26,6,8,0.4,0.6
2025-04-07T1700,1137A,126.593,45.7478,哈尔滨市,道里建国路,,32,20,59,12,52,100,,96,96,19,29,10,14,0.9,0.9
2025-04-07T1700,1138A,126.615,45.61,哈尔滨市,平房东轻厂,,35,32,55,22,39,109,,104,104,11,12,8,8,0.5,0.7
2025-04-07T1700,1139A,126.595,45.9855,哈尔滨市,呼兰师专,,45,45,59,25,53,99,,94,94,25,34,6,7,0.5,0.7
2025-04-07T1700,1140A,126.6206,45.6842,哈尔滨市,省农科院,,36,36,70,19,52,98,,95,95,20,33,8,10,0.6,0.8
2025-04-07T1700,2688A,93.5128,42.8172,哈密市,地区监测站,颗粒物(PM10),60,69,122,21,36,99,,90,90,7,9,7,6,0.2,0.3
2025-04-07T1700,2689A,93.4961,42.8328,哈密市,哈密师范学校,,,41,96,19,35,105,,97,97,9,10,,5,0,0
2025-04-07T1700,2671A,100.9048,36.9639,海北藏族自治州,海晏县西海镇,颗粒物(PM10),76,101,64,24,24,115,,102,102,1,5,9,10,0.1,0.4
2025-04-07T1700,3867A,102.0738,36.5056,海东市,平安区公安北苑,颗粒物(PM10),58,66,83,27,38,113,,87,87,4,11,9,19,0.5,0.6
2025-04-07T1700,1409A,110.576,19.9507,海口市,东寨港,,41,41,38,24,19,50,,39,39,5,7,5,7,0.6,0.6
2025-04-07T1700,1410A,110.3232,20.0574,海口市,海南大学,颗粒物(PM10),51,52,46,29,29,136,,118,118,9,13,2,2,0.5,0.5
2025-04-07T1700,1411A,110.283,20.0053,海口市,秀英海南医院,,46,46,45,29,26,128,,114,114,12,12,4,4,0.4,0.4
2025-04-07T1700,1412A,110.338,19.9969,海口市,海南师范大学,,47,47,47,27,25,134,,117,117,7,8,3,4,0.5,0.5
2025-04-07T1700,1413A,110.33,20.0356,海口市,龙华路环保局宿舍,,49,49,45,29,27,137,,119,119,6,9,4,4,0.5,0.5
2025-04-07T1700,3539A,110.5111,19.9736,海口市,桂林洋子站,,40,38,38,22,23,127,,115,115,7,8,3,4,0.4,0.4
2025-04-07T1700,2673A,100.6188,36.2866,海南藏族自治州,共和县恰卜恰镇,颗粒物(PM10),54,58,68,23,32,120,,110,110,7,14,13,12,0.3,0.4
2025-04-07T1700,2676A,97.3731,37.3753,海西蒙古族藏族自治州,德令哈市,颗粒物(PM10),177,304,90,34,22,131,,110,110,2,4,7,9,0.4,0.4
2025-04-07T1700,1048A,114.5302,36.6116,邯郸市,东污水处理厂,颗粒物(PM10),102,153,145,58,50,191,,156,156,21,38,7,6,0.6,0.7
2025-04-07T1700,1049A,114.4918,36.5713,邯郸市,矿院,细颗粒物(PM2.5),94,128,117,70,58,160,,122,122,10,31,7,6,0.5,0.6
2025-04-07T1700,1050A,114.484,36.6133,邯郸市,丛台公园,细颗粒物(PM2.5),104,153,139,78,60,198,,154,154,16,31,10,10,0.5,0.7
2025-04-07T1700,3458A,114.7895,36.5593,邯郸市,香泉濮院小区,颗粒物(PM10),115,179,152,52,48,182,,142,142,11,25,9,7,1.2,0.7
2025-04-07T1700,3579A,114.50634,36.77178,邯郸市,永年区实验高中,颗粒物(PM10),104,157,151,72,65,181,,134,134,13,36,8,9,1.0,1.3
2025-04-07T1700,3580A,114.20016,36.44293,邯郸市,峰峰矿区临水派出所,细颗粒物(PM2.5),119,162,129,90,62,226,,170,170,16,20,17,19,0.9,1.1
2025-04-07T1700,2634A,106.9893,33.1842,汉中市,汉川机床厂子校,颗粒物(PM10),52,54,53,24,26,138,,126,126,1,5,7,8,0.4,0.5
2025-04-07T1700,2635A,107.0154,33.0706,汉中市,市监测站,颗粒物(PM10),53,55,60,24,27,136,,122,122,9,12,5,6,0.4,0.6
2025-04-07T1700,2636A,107.0089,33.1138,汉中市,鑫源开发区,,50,50,64,26,31,137,,121,121,6,15,4,13,0.3,0.6
2025-04-07T1700,2637A,107.007,33.0323,汉中市,南郑大河坎水厂,颗粒物(PM10),52,53,56,35,29,136,,118,118,6,12,5,4,0.5,0.5
2025-04-07T1700,1223A,120.2072,30.2111,杭州市,滨江,臭氧1小时,88,52,88,23,45,190,,172,172,20,42,8,9,0.2,0.3
2025-04-07T1700,1224A,120.0633,30.2747,杭州市,西溪,,,43,83,22,42,177,,159,159,11,34,6,7,,0.4
2025-04-07T1700,1226A,120.3417,30.3150,杭州市,下沙,臭氧1小时,54,48,108,17,56,163,,160,160,17,66,7,9,0.3,0.6
2025-04-07T1700,1227A,120.1269,30.2456,杭州市,卧龙桥,臭氧1小时,74,48,67,28,36,179,,167,167,18,26,6,6,0.3,0.4
2025-04-07T1700,1228A,120.1903,30.2692,杭州市,浙江农大,,,42,105,19,53,181,,174,174,21,44,4,6,,0.5
2025-04-07T1700,1230A,120.1197,30.3119,杭州市,和睦小学,臭氧1小时,79,45,97,25,48,183,,168,168,17,36,7,8,0.6,0.7
2025-04-07T1700,1231A,120.3019,30.4183,杭州市,临平镇,臭氧1小时,77,58,108,18,54,181,,171,171,21,43,6,7,0.4,0.6
2025-04-07T1700,1232A,120.2753,30.1839,杭州市,城厢镇,臭氧1小时,68,51,109,23,49,174,,173,173,22,40,8,10,0.4,0.6
2025-04-07T1700,1233A,120.0883,30.1808,杭州市,云栖,臭氧1小时,60,52,83,23,37,168,,162,162,36,46,10,9,0.6,0.7
2025-04-07T1700,3557A,119.9464,30.0494,杭州市,镇二中,颗粒物(PM10),54,57,66,30,36,144,,142,142,25,38,7,7,0.6,0.7
2025-04-07T1700,3558A,119.7183,30.2367,杭州市,市府大楼,颗粒物(PM10),53,55,71,24,35,146,,149,149,18,25,9,9,0.4,0.5
2025-04-07T1700,3656A,120.1556,30.2864,杭州市,消防大队,臭氧1小时,88,51,103,23,56,190,,176,176,19,37,4,5,0.5,0.6
2025-04-07T1700,1270A,117.1959,31.7848,合肥市,明珠广场,颗粒物(PM10),65,80,65,31,26,146,,143,143,18,23,7,6,0.5,0.4
2025-04-07T1700,1271A,117.3072,31.8764,合肥市,三里街,颗粒物(PM10),68,85,73,27,24,141,,134,134,25,40,9,9,0.7,0.7
2025-04-07T1700,1272A,117.2588,31.8707,合肥市,琥珀山庄,,,,71,,26,,,112,,,24,,4,,0.7
2025-04-07T1700,1273A,117.1604,31.9052,合肥市,董铺水库,颗粒物(PM10),69,88,73,34,24,158,,152,152,15,11,4,3,0.4,0.4
2025-04-07T1700,1274A,117.25,31.8571,合肥市,长江中路,颗粒物(PM10),67,83,70,37,29,149,,143,143,18,22,10,10,0.7,0.6
2025-04-07T1700,1275A,117.266,31.9436,合肥市,庐阳区,,,83,70,29,27,149,,148,148,,25,8,7,0.4,0.4
2025-04-07T1700,1276A,117.3453,31.8616,合肥市,瑶海区,颗粒物(PM10),75,100,81,37,32,140,,140,140,23,29,9,8,0.7,0.6
2025-04-07T1700,1277A,117.3027,31.7964,合肥市,包河区,颗粒物(PM10),64,78,67,34,24,156,,150,150,13,19,8,8,0.5,0.4
2025-04-07T1700,1278A,117.2776,31.7385,合肥市,滨湖新区,颗粒物(PM10),69,88,69,39,36,148,,140,140,15,16,9,7,0.6,0.5
2025-04-07T1700,1279A,117.1318,31.8403,合肥市,高新区,颗粒物(PM10),65,80,75,31,23,146,,139,139,14,18,5,4,0.4,0.4
2025-04-07T1700,3464A,117.3803,31.9147,合肥市,高教基地,颗粒物(PM10),72,94,70,48,33,158,,159,159,13,19,8,7,0.5,0.4
2025-04-07T1700,3614A,79.924,37.0877,和田地区,地区环保局,颗粒物(PM10),405,505,425,92,84,83,,64,56,12,16,1,2,0.4,0.4
2025-04-07T1700,3615A,79.9131,37.113,和田地区,市环保局,颗粒物(PM10),433,533,384,77,61,86,,75,60,8,12,3,2,0.0,0.1
2025-04-07T1700,2516A,108.2011,24.715,河池市,东仁乐园,细颗粒物(PM2.5),102,96,104,76,74,88,,65,65,17,26,19,15,1.2,1.2
2025-04-07T1700,2517A,108.0497,24.6947,河池市,市环保站,细颗粒物(PM2.5),87,87,91,64,70,87,,70,70,14,20,13,12,0.7,0.8
2025-04-07T1700,2518A,108.0983,24.6989,河池市,市疾控中心,细颗粒物(PM2.5),88,78,90,65,73,93,,78,78,18,31,19,13,0.9,0.9
2025-04-07T1700,1696A,114.6778,23.7569,河源市,源西,颗粒物(PM10),51,52,54,26,30,136,,107,107,12,28,5,4,0.6,0.8
2025-04-07T1700,1697A,114.6944,23.7586,河源市,东埔,,48,30,54,25,32,153,,116,116,12,28,4,4,0.7,0.7
2025-04-07T1700,1698A,114.6892,23.7233,河源市,老城,颗粒物(PM10),54,58,51,28,31,153,,119,119,10,21,4,4,0.4,0.6
2025-04-07T1700,1718A,115.4208,35.2464,菏泽市,气象局,颗粒物(PM10),97,144,144,56,52,141,,127,127,8,15,4,7,0.3,0.4
2025-04-07T1700,3374A,115.5564,35.0891,菏泽市,定陶老年大学,细颗粒物(PM2.5),117,102,123,88,40,134,,119,119,13,17,5,6,0.3,0.4
2025-04-07T1700,4184A,115.4797,35.24401,菏泽市,永昌路1号,颗粒物(PM10),95,139,136,46,50,128,,116,116,10,14,6,7,0.2,0.3
2025-04-07T1700,4193A,115.4715,35.2800,菏泽市,长城路999号,颗粒物(PM10),90,129,141,33,40,139,,126,126,12,17,8,11,0.3,0.4
2025-04-07T1700,2514A,111.5264,24.4172,贺州市,环保小区,颗粒物(PM10),54,58,94,36,65,135,,102,102,12,27,7,8,0.7,0.8
2025-04-07T1700,2515A,111.5608,24.4078,贺州市,政协大楼,细颗粒物(PM2.5),52,47,85,36,62,125,,97,97,13,25,10,10,0.7,0.8
2025-04-07T1700,3534A,111.4744,24.4553,贺州市,西湾,,,74,93,40,63,131,,99,99,,29,9,8,0.7,0.8
2025-04-07T1700,2385A,114.17,35.9019,鹤壁市,市监测站,颗粒物(PM10),86,122,132,55,54,162,,131,131,13,22,12,10,0.7,0.7
2025-04-07T1700,2386A,114.2956,35.7511,鹤壁市,市交警支队,颗粒物(PM10),97,143,144,51,49,155,,129,129,18,35,9,16,0.7,1
2025-04-07T1700,2387A,114.2878,35.7306,鹤壁市,迎宾馆,颗粒物(PM10),95,139,152,43,44,160,,129,129,12,30,6,9,0.6,0.7
2025-04-07T1700,3474A,114.2617,35.6822,鹤壁市,大新区,颗粒物(PM10),90,129,140,61,75,152,,120,120,14,38,9,12,0.7,0.7
2025-04-07T1700,3596A,114.1572,35.9603,鹤壁市,南山宾馆,颗粒物(PM10),103,155,143,56,53,168,,127,127,17,23,10,9,0.6,0.6
2025-04-07T1700,2244A,130.2537,47.3416,鹤岗市,哈啤分公司,,33,30,36,17,25,105,,95,95,7,13,13,15,0.3,0.4
2025-04-07T1700,2245A,130.2684,47.3086,鹤岗市,斯达机电,,35,24,49,12,27,112,,102,102,4,14,14,15,0.3,0.5
2025-04-07T1700,2246A,130.3114,47.3388,鹤岗市,东山纸板厂,,49,49,88,24,43,94,,88,88,9,22,11,15,0.2,1.4
2025-04-07T1700,2247A,130.1097,47.3382,鹤岗市,五号水库,,,,,,,,,,,,,,,,
2025-04-07T1700,2263A,127.4833,50.2524,黑河市,交通局,颗粒物(PM10),54,57,41,31,23,92,,90,90,13,12,6,7,0.6,0.5
2025-04-07T1700,2264A,127.5144,50.2341,黑河市,环保局,颗粒物(PM10),53,55,36,27,24,108,,105,105,12,9,4,4,0.5,0.5
2025-04-07T1700,2265A,127.5291,50.2472,黑河市,大黑河岛,,50,50,32,24,21,83,,80,80,14,9,1,1,0.4,0.3
2025-04-07T1700,1074A,115.6838,37.7541,衡水市,电机北厂,颗粒物(PM10),89,128,145,60,62,181,,146,146,13,24,9,9,0.4,0.5
2025-04-07T1700,1075A,115.6303,37.7316,衡水市,市监测站,颗粒物(PM10),75,100,127,47,56,176,,145,145,14,25,8,12,0.4,0.5
2025-04-07T1700,3188A,115.6683,37.7217,衡水市,市城管局,颗粒物(PM10),80,110,130,43,57,177,,143,143,16,28,12,13,0.4,0.5
2025-04-07T1700,3459A,115.5989,37.5491,衡水市,地表水厂,臭氧1小时,87,116,142,43,59,189,,155,155,15,32,12,14,0.4,0.5
2025-04-07T1700,2456A,112.5003,26.9167,衡阳市,原169医院,细颗粒物(PM2.5),67,76,88,48,51,97,,82,82,8,20,11,14,0.6,0.7
2025-04-07T1700,2457A,112.6194,26.9258,衡阳市,衡阳化工总厂,细颗粒物(PM2.5),67,77,110,48,61,114,,97,97,10,25,9,15,0.8,1
2025-04-07T1700,2458A,112.6211,26.8956,衡阳市,珠晖区环保局,细颗粒物(PM2.5),67,76,99,48,57,119,,96,96,8,22,9,16,1.0,1.1
2025-04-07T1700,2459A,112.6197,26.8733,衡阳市,市委党校,,,84,99,38,50,117,,97,97,10,23,6,11,,0.7
2025-04-07T1700,2460A,112.6006,26.8919,衡阳市,市监测站,细颗粒物(PM2.5),68,76,106,49,63,114,,91,91,12,29,10,19,0.8,1
2025-04-07T1700,2461A,112.5664,26.9056,衡阳市,真空机电公司,颗粒物(PM10),77,103,110,49,55,115,,92,92,7,30,8,17,0.7,1
2025-04-07T1700,3399A,112.6703,26.882,衡阳市,师范学院,细颗粒物(PM2.5),82,104,106,60,62,124,,100,100,13,20,12,15,0.7,0.8
2025-04-07T1700,2608A,103.3772,23.3993,红河哈尼族彝族自治州,污水处理厂,细颗粒物(PM2.5),68,,39,49,38,90,,84,84,11,10,7,8,0.6,0.5
2025-04-07T1700,2609A,103.3861,23.35,红河哈尼族彝族自治州,监测站,,50,50,51,35,30,96,,92,88,7,8,10,11,0.4,0.3
2025-04-07T1700,3038A,103.3758,23.368,红河哈尼族彝族自治州,州图书馆,,50,50,36,33,31,94,,88,84,10,10,5,6,0.5,0.5
2025-04-07T1700,1090A,111.6507,40.7517,呼和浩特市,呼市一监,,33,19,114,3,41,105,,98,98,2,22,9,12,0.3,0.7
2025-04-07T1700,1091A,111.6572,40.8033,呼和浩特市,小召,,34,19,102,6,37,107,,100,100,9,31,4,8,0.4,0.7
2025-04-07T1700,1094A,111.7516,40.8369,呼和浩特市,如意水处理厂,,34,16,83,3,31,108,,102,102,4,31,5,9,0.3,0.5
2025-04-07T1700,1095A,111.7276,40.8062,呼和浩特市,二十九中,,35,,97,15,36,110,,103,103,2,23,3,6,0.6,0.7
2025-04-07T1700,1096A,111.5512,40.7866,呼和浩特市,工大金川校区,,37,25,93,10,31,116,,104,104,7,23,5,8,0.4,0.5
2025-04-07T1700,1097A,111.717,40.7612,呼和浩特市,化肥厂生活区,,35,19,110,13,43,110,,104,104,8,27,6,10,0.3,0.5
2025-04-07T1700,3698A,111.5968,40.8178,呼和浩特市,红旗小学,,37,12,89,8,29,118,,107,107,6,29,3,6,0.4,0.6
2025-04-07T1700,3699A,111.6518,40.8389,呼和浩特市,海东办,,34,17,86,8,30,108,,100,100,1,22,5,8,0.5,0.7
2025-04-07T1700,2192A,119.7594,49.2261,呼伦贝尔市,区环保局,,33,30,37,23,26,94,,85,85,10,12,5,5,0.2,0.3
2025-04-07T1700,3061A,119.7512,49.1577,呼伦贝尔市,国华电力东,,32,30,30,11,14,100,,90,90,5,6,4,4,0.4,0.4
2025-04-07T1700,1250A,120.0751,30.8669,湖州市,城西水厂,臭氧1小时,62,44,105,18,50,169,,167,167,35,37,7,8,0.4,0.5
2025-04-07T1700,2873A,120.0830,30.8929,湖州市,仁皇山新区,臭氧1小时,72,48,95,21,50,177,,166,166,22,31,5,6,0.5,0.7
2025-04-07T1700,2907A,120.1844,30.8596,湖州市,吴兴区站,臭氧1小时,69,44,109,17,49,175,,168,168,17,29,6,8,0.4,0.6
2025-04-07T1700,3562A,120.4148,30.8538,湖州市,南浔区站,臭氧1小时,80,46,95,21,48,184,,177,177,20,31,4,6,0.3,0.5
2025-04-07T1700,1607A,120.9049,40.7211,葫芦岛市,龙港区,细颗粒物(PM2.5),72,86,59,52,41,137,,118,118,18,31,12,11,0.6,0.6
2025-04-07T1700,1608A,120.8392,40.7514,葫芦岛市,化工街,"颗粒物(PM10),细颗粒物(PM2.5)",70,90,89,51,53,123,,107,107,25,51,18,27,0.7,0.8
2025-04-07T1700,1609A,120.8341,40.7073,葫芦岛市,新区,细颗粒物(PM2.5),67,71,70,48,60,124,,114,114,19,46,9,10,0.7,0.9
2025-04-07T1700,1610A,120.8695,40.7677,葫芦岛市,东城区,细颗粒物(PM2.5),89,80,79,66,62,136,,121,121,29,50,18,36,0.7,0.9
2025-04-07T1700,2482A,109.5981,27.5721,怀化市,林科所,细颗粒物(PM2.5),68,82,84,49,45,88,,60,60,10,32,20,7,0.6,0.5
2025-04-07T1700,2483A,109.9453,27.5444,怀化市,河西地税局,细颗粒物(PM2.5),78,71,81,57,52,90,,58,58,8,13,11,11,0.4,0.4
2025-04-07T1700,2484A,109.9781,27.5342,怀化市,市四医院,细颗粒物(PM2.5),79,98,90,58,51,87,,68,68,14,17,10,9,0.7,0.5
2025-04-07T1700,2485A,109.9972,27.5578,怀化市,监测楼,细颗粒物(PM2.5),80,69,80,59,48,90,,38,,10,14,7,8,0.6,0.6
2025-04-07T1700,2486A,110.0394,27.583,怀化市,市委党校,细颗粒物(PM2.5),64,68,84,46,50,93,,70,70,9,21,6,8,0.6,0.6
2025-04-07T1700,1210A,119.036,33.5981,淮安市,钵池山,颗粒物(PM10),54,58,82,27,37,162,,153,153,9,19,12,13,0.6,0.7
2025-04-07T1700,1211A,119.007,33.575,淮安市,北京南路,颗粒物(PM10),59,68,79,25,37,160,,151,151,14,22,13,13,0.8,0.7
2025-04-07T1700,1212A,118.989,33.6067,淮安市,市监测站,颗粒物(PM10),59,68,76,24,38,160,,146,146,17,23,11,15,0.5,0.6
2025-04-07T1700,1213A,119.135,33.5039,淮安市,楚州区监测站,颗粒物(PM10),72,93,97,38,44,158,,149,149,10,30,10,11,0.6,0.7
2025-04-07T1700,3426A,118.8755,33.2894,淮安市,新华书店,颗粒物(PM10),63,76,83,23,39,152,,148,148,16,23,11,12,0.6,0.6
2025-04-07T1700,4206A,119.0288,33.6319,淮安市,承德北路606号,颗粒物(PM10),64,78,91,30,35,155,,150,150,11,22,10,12,0.5,0.6
2025-04-07T1700,2282A,116.8004,33.975,淮北市,监测站,颗粒物(PM10),65,80,102,38,39,169,,157,157,12,22,7,9,0.6,0.6
2025-04-07T1700,2283A,116.8091,33.9007,淮北市,烈山区政府,颗粒物(PM10),63,76,97,38,34,167,,150,150,12,24,6,8,0.7,0.7
2025-04-07T1700,3330A,116.8873,33.9836,淮北市,杜集区检察院,细颗粒物(PM2.5),72,67,96,52,36,170,,156,156,14,23,7,8,0.6,0.6
2025-04-07T1700,4017A,116.7923,33.9535,淮北市,市博物馆,颗粒物(PM10),61,72,96,35,41,166,,150,150,14,20,8,9,0.8,0.8
2025-04-07T1700,2277A,116.8305,32.7727,淮南市,潘集区政府,颗粒物(PM10),72,93,94,33,40,143,,126,126,20,25,8,7,0.4,0.4
2025-04-07T1700,2279A,116.8569,32.5951,淮南市,谢家集区政府,颗粒物(PM10),57,64,85,30,30,147,,129,129,14,21,8,8,0.3,0.4
2025-04-07T1700,2280A,116.8281,32.633,淮南市,八公山区政府,细颗粒物(PM2.5),79,83,89,58,32,144,,128,128,10,13,4,4,0.3,0.3
2025-04-07T1700,2281A,116.6325,32.6201,淮南市,焦岗湖风景区管理处,,47,47,61,23,29,77,,67,67,12,17,9,9,0.3,0.4
2025-04-07T1700,2894A,117.0566,32.6531,淮南市,经济技术开发区消防队,颗粒物(PM10),60,69,78,26,29,155,,138,138,6,17,7,8,0.3,0.4
2025-04-07T1700,3329A,117.0108,32.5893,淮南市,山南新区,颗粒物(PM10),62,74,92,21,27,148,,134,134,7,16,7,9,0.3,0.3
2025-04-07T1700,4209A,117.0031,32.6445,淮南市,国庆中路369号,颗粒物(PM10),57,64,71,24,31,150,,136,136,12,17,10,10,0.3,0.4
2025-04-07T1700,2446A,114.9028,30.4742,黄冈市,职工中心,颗粒物(PM10),59,68,77,38,42,152,,126,126,25,31,18,16,0.8,0.8
2025-04-07T1700,2929A,114.8858,30.4519,黄冈市,红卫路,颗粒物(PM10),59,68,79,31,37,151,,124,124,21,27,14,14,1.1,0.9
2025-04-07T1700,3398A,114.9136,30.4445,黄冈市,市林业局,颗粒物(PM10),65,80,84,38,40,156,,129,129,26,36,18,17,1.0,1
2025-04-07T1700,2672A,102.0199,35.5102,黄南藏族自治州,同仁县隆务镇,,41,41,59,18,25,112,,95,95,2,3,14,19,0.1,0.2
2025-04-07T1700,2295A,118.2903,29.6963,黄山市,延安路89号,,45,45,45,24,28,130,,115,115,2,14,5,6,0.2,0.2
2025-04-07T1700,2297A,118.1371,30.2756,黄山市,黄山区政府5号楼,颗粒物(PM10),56,61,55,23,30,118,,119,119,9,6,9,8,0.5,0.5
2025-04-07T1700,4210A,118.3354,29.7203,黄山市,滨江东路7-2号,颗粒物(PM10),54,58,54,26,21,128,,122,122,2,9,5,5,0.4,0.4
2025-04-07T1700,2423A,115.0601,30.2313,黄石市,沈家营,颗粒物(PM10),57,64,78,28,35,137,,123,123,34,45,10,10,0.6,0.7
2025-04-07T1700,2426A,114.8988,30.2019,黄石市,铁山,颗粒物(PM10),54,58,71,27,34,158,,146,146,7,21,12,16,0.5,0.8
2025-04-07T1700,2427A,115.0307,30.2092,黄石市,团城山,,49,49,76,20,32,150,,120,120,9,38,11,13,0.5,0.7
2025-04-07T1700,3149A,115.0235,30.1578,黄石市,笔架山北路,,49,39,72,17,34,156,,134,134,5,28,8,20,0.6,0.9
2025-04-07T1700,4185A,115.0780,30.21118,黄石市,磁湖东路29号,颗粒物(PM10),54,58,98,29,42,149,,130,130,22,48,9,13,0.7,0.9
2025-04-07T1700,1392A,114.4183,23.0528,惠州市,河南岸金山湖子站,臭氧1小时,55,39,60,22,35,164,,121,121,15,31,9,9,0.5,0.7
2025-04-07T1700,1393A,114.4053,23.0822,惠州市,下埔横江三路子站,,,39,66,18,38,164,,136,136,15,34,,10,,0.7
2025-04-07T1700,1394A,114.4103,23.1142,惠州市,江北云山西路子站,臭氧1小时,78,40,70,16,38,182,,146,146,12,34,10,12,0.4,0.6
2025-04-07T1700,1395A,114.4645,22.7833,惠州市,惠阳区承修路船湖子站,颗粒物(PM10),51,52,59,23,30,160,,129,129,15,29,10,9,0.5,0.6
2025-04-07T1700,1396A,114.5317,22.7422,惠州市,大亚湾管委会子站,臭氧1小时,68,56,52,29,26,174,,148,148,15,33,9,7,0.5,0.6
2025-04-07T1700,3314A,114.4338,22.8134,惠州市,惠阳秋长,臭氧1小时,59,63,62,26,31,167,,145,145,8,21,6,7,0.7,0.8
2025-04-07T1700,3452A,114.6517,22.775,惠州市,大亚湾霞涌,臭氧1小时,73,65,48,26,27,178,,155,155,18,18,9,8,0.6,0.5
2025-04-07T1700,2240A,130.9762,45.3001,鸡西市,环保局,,,,27,,18,,,79,,,17,,6,,0.6
2025-04-07T1700,2243A,130.9429,45.3039,鸡西市,第一中学,,35,15,20,8,14,110,,110,110,8,13,6,6,0.4,0.5
2025-04-07T1700,3707A,131.0207,45.3073,鸡西市,欧美日汽修厂,,39,,35,14,22,122,,120,120,6,23,4,8,0.5,0.7
2025-04-07T1700,3709A,130.9967,45.3106,鸡西市,市政设施管理处,,32,16,33,3,17,102,,104,104,10,27,5,6,0.6,0.7
2025-04-07T1700,2367A,114.9754,27.0803,吉安市,红声器材厂,颗粒物(PM10),54,58,70,25,35,106,,108,108,21,23,12,15,0.4,0.5
2025-04-07T1700,2368A,114.9658,27.0999,吉安市,市森林工业局,颗粒物(PM10),54,57,66,26,37,116,,109,109,10,28,10,13,0.4,0.6
2025-04-07T1700,2369A,114.99,27.1312,吉安市,市环境监测站,颗粒物(PM10),55,60,62,28,36,127,,119,119,11,26,16,19,0.4,0.5
2025-04-07T1700,2370A,115.0093,27.0968,吉安市,青原区法院,颗粒物(PM10),55,60,67,32,35,138,,126,126,14,27,13,13,0.4,0.5
2025-04-07T1700,1772A,126.54,43.8622,吉林市,哈达湾,,36,36,53,23,36,113,,89,89,16,16,7,6,0.7,0.8
2025-04-07T1700,1773A,126.5844,43.8358,吉林市,东局子,,,,53,25,39,60,,85,85,18,17,6,6,0.7,0.7
2025-04-07T1700,1774A,126.5052,43.8245,吉林市,电力学院,,38,33,51,25,39,120,,88,88,15,18,5,4,0.7,0.8
2025-04-07T1700,1775A,126.6133,43.8972,吉林市,江北,,37,37,62,19,41,104,,92,92,16,19,5,4,0.6,0.7
2025-04-07T1700,1776A,126.555,43.8306,吉林市,江南公园,,38,34,49,26,39,113,,90,90,15,15,6,6,0.4,0.5
2025-04-07T1700,1778A,126.7061,43.7133,吉林市,丰满,,43,23,41,21,37,135,,111,111,9,11,6,6,1.0,1
2025-04-07T1700,2868A,126.4739,43.953,吉林市,九站,,39,39,56,23,43,122,,90,90,13,21,13,14,0.7,0.7
2025-04-07T1700,1299A,116.9862,36.6114,济南市,科干所,颗粒物(PM10),98,146,118,66,40,188,,156,156,20,12,13,10,0.8,0.6
2025-04-07T1700,1300A,116.9376,36.665,济南市,农科所,颗粒物(PM10),107,164,131,49,33,185,,153,153,19,18,14,10,0.5,0.4
2025-04-07T1700,1301A,117.1265,36.6734,济南市,开发区,,,137,116,56,41,180,,150,150,,15,,10,0.8,0.6
2025-04-07T1700,1303A,117.0624,36.6868,济南市,省种子仓库,颗粒物(PM10),112,173,129,51,36,184,,153,153,19,13,12,8,0.9,0.7
2025-04-07T1700,1304A,116.9489,36.6447,济南市,机床二厂,颗粒物(PM10),105,159,135,66,44,186,,152,152,21,18,15,12,0.6,0.5
2025-04-07T1700,1305A,117.0495,36.663,济南市,市监测站,颗粒物(PM10),106,161,124,71,38,175,,145,145,26,15,15,11,0.6,0.5
2025-04-07T1700,1306A,116.7675,36.5484,济南市,长清党校,颗粒物(PM10),103,156,137,51,46,189,,157,157,27,24,10,9,1.0,0.8
2025-04-07T1700,1616A,117.6795,36.229,济南市,技术学院,颗粒物(PM10),95,139,128,46,44,170,,153,153,17,37,14,14,0.9,0.8
2025-04-07T1700,1961A,117.532,36.6868,济南市,东山小学,颗粒物(PM10),103,156,133,49,35,196,,158,158,15,14,13,11,0.4,0.3
2025-04-07T1700,3059A,117.7161,36.2049,济南市,泰兴公司,颗粒物(PM10),87,124,123,39,45,167,,151,151,17,49,11,12,0.7,0.8
2025-04-07T1700,3064A,117.6867,36.2171,济南市,莱芜战役纪念馆,颗粒物(PM10),84,117,127,34,38,169,,152,152,21,43,8,9,0.6,0.8
2025-04-07T1700,3494A,117.1673,36.9782,济南市,济阳区政府,颗粒物(PM10),90,129,140,39,46,178,,153,153,15,29,12,13,0.5,0.6
2025-04-07T1700,3495A,117.1171,36.63,济南市,锦屏中学,颗粒物(PM10),101,151,116,46,34,177,,149,149,23,14,16,11,0.6,0.4
2025-04-07T1700,3682A,116.9814,36.6819,济南市,济南四建,颗粒物(PM10),97,144,132,56,45,185,,150,150,28,18,12,8,0.6,0.5
2025-04-07T1700,1653A,116.6251,35.4302,济宁市,火炬城,颗粒物(PM10),70,89,104,36,41,144,,131,131,5,10,5,6,0.3,0.4
2025-04-07T1700,1655A,116.5491,35.4042,济宁市,电化厂,颗粒物(PM10),80,109,133,29,39,137,,123,123,10,16,6,6,0.3,0.3
2025-04-07T1700,3500A,116.5814,35.3707,济宁市,北湖一中,颗粒物(PM10),70,90,102,31,24,139,,125,125,12,16,10,12,0.3,0.4
2025-04-07T1700,3501A,116.8249,35.5593,济宁市,服务中心,颗粒物(PM10),89,128,127,19,36,148,,135,135,11,20,5,8,0.7,0.8
2025-04-07T1700,3678A,116.5907,35.4054,济宁市,市第七中学,颗粒物(PM10),76,102,111,24,31,145,,130,130,8,14,5,6,0.3,0.4
2025-04-07T1700,2255A,130.2751,46.8028,佳木斯市,佳纺,,37,37,54,20,30,106,,106,106,17,26,7,7,0.5,0.7
2025-04-07T1700,2256A,130.3995,46.8307,佳木斯市,发电厂,,38,38,48,22,32,120,,104,104,11,33,3,4,0.5,0.7
2025-04-07T1700,2257A,130.3258,46.7975,佳木斯市,环保局,,34,27,42,18,27,108,,105,105,17,33,2,3,0.5,0.6
2025-04-07T1700,2258A,130.3648,46.8032,佳木斯市,十一中,,34,31,46,21,31,108,,100,100,12,35,6,7,0.5,0.7
2025-04-07T1700,2259A,130.3794,46.7588,佳木斯市,四丰,,32,21,22,9,13,101,,99,99,5,5,1,1,0.9,0.9
2025-04-07T1700,1252A,120.7436,30.778,嘉兴市,清河小学,颗粒物(PM10),56,62,89,18,41,163,,162,162,31,34,8,8,0.7,0.9
2025-04-07T1700,1253A,120.726,30.7478,嘉兴市,嘉兴学院,臭氧1小时,68,56,81,20,39,174,,172,172,24,29,10,10,0.7,0.8
2025-04-07T1700,2872A,120.7846,30.7525,嘉兴市,南湖区残联,臭氧1小时,79,71,85,23,39,183,,182,182,32,30,14,12,0.6,0.7
2025-04-07T1700,3407A,120.6916,30.7739,嘉兴市,秀洲住建,臭氧1小时,88,49,88,22,36,190,,183,183,14,32,8,9,0.6,0.7
2025-04-07T1700,1945A,98.2908,39.7711,嘉峪关市,气象局,颗粒物(PM10),265,395,163,46,40,112,,100,100,3,15,3,11,0.4,0.5
2025-04-07T1700,2884A,98.2672,39.7978,嘉峪关市,酒钢宾馆,颗粒物(PM10),296,417,180,41,43,107,,91,91,3,11,2,19,0.2,0.2
2025-04-07T1700,3248A,98.2643,39.7724,嘉峪关市,雄关区,颗粒物(PM10),153,256,133,35,34,108,,97,97,10,18,5,8,0.4,0.4
2025-04-07T1700,1383A,113.1064,22.6058,江门市,北街,臭氧1小时,90,65,98,22,58,192,,170,170,17,57,4,4,0.5,1.1
2025-04-07T1700,1384A,113.0731,22.5835,江门市,西区,臭氧1小时,97,62,97,26,50,197,,178,178,22,58,8,9,0.5,1.1
2025-04-07T1700,1385A,113.0219,22.5311,江门市,圭峰西,颗粒物(PM10),63,75,79,20,47,155,,164,164,22,37,5,6,0.3,0.7
2025-04-07T1700,1386A,113.0828,22.5947,江门市,东湖,臭氧1小时,100,50,109,33,54,200,,179,179,16,51,6,9,0.4,0.9
2025-04-07T1700,3311A,113.1075,22.5647,江门市,江海富民,臭氧1小时,74,76,110,43,61,179,,173,173,19,59,7,9,0.5,1
2025-04-07T1700,3449A,113.05,22.4667,江门市,新会银湖,颗粒物(PM10),52,54,88,16,69,157,,155,155,15,38,1,2,0.2,0.6
2025-04-07T1700,1830A,113.1992,35.2590,焦作市,影视城,,,,69,,25,,,,,,5,,7,,0.8
2025-04-07T1700,3169A,113.2725,35.2067,焦作市,太极体育中心,颗粒物(PM10),82,114,132,37,50,170,,131,131,10,30,8,13,0.2,0.4
2025-04-07T1700,3335A,113.3137,35.2641,焦作市,马村街道办,细颗粒物(PM2.5),100,109,122,75,58,156,,121,121,16,28,10,13,0.6,0.8
2025-04-07T1700,3336A,113.2465,35.2373,焦作市,焦作技师学院,颗粒物(PM10),96,141,134,31,37,168,,129,129,11,28,9,12,0.5,0.8
2025-04-07T1700,3477A,113.1656,35.2539,焦作市,中站许衡医院,颗粒物(PM10),78,105,101,43,36,171,,127,127,11,24,12,12,0.6,0.7
2025-04-07T1700,3981A,113.2449,35.1803,焦作市,原李万街道办,颗粒物(PM10),78,106,136,34,52,169,,130,130,13,32,12,18,0.4,0.6
2025-04-07T1700,4264A,113.2340,35.2190,焦作市,新安路1731号,,,110,139,39,49,165,,124,124,7,29,,13,0.3,0.6
2025-04-07T1700,1708A,116.3701,23.5345,揭阳市,新兴,颗粒物(PM10),54,57,74,31,49,162,,143,143,19,27,9,8,0.7,0.9
2025-04-07T1700,1709A,116.3264,23.5443,揭阳市,西马,臭氧1小时,63,67,74,16,47,170,,150,150,11,22,9,9,0.6,0.8
2025-04-07T1700,1710A,116.3611,23.5626,揭阳市,东兴,臭氧1小时,57,58,85,21,48,165,,146,146,14,29,10,10,0.7,1
2025-04-07T1700,1711A,116.4151,23.5294,揭阳市,渔湖,臭氧1小时,62,65,72,27,36,169,,148,148,21,26,7,7,0.7,1
2025-04-07T1700,3320A,116.403,23.5699,揭阳市,曲溪,臭氧1小时,80,76,79,29,42,184,,159,159,18,32,2,2,0.6,0.8
2025-04-07T1700,1944A,102.1692,38.5167,金昌市,天庆家园,颗粒物(PM10),82,113,86,38,42,115,,105,105,4,20,9,28,0.5,0.9
2025-04-07T1700,4022A,102.1647,38.5371,金昌市,金川区人防中心,颗粒物(PM10),95,140,114,36,50,112,,94,94,4,15,16,21,0.5,0.6
2025-04-07T1700,4239A,102.1930,38.5319,金昌市,长春路96号,颗粒物(PM10),100,149,166,35,39,110,,97,97,4,15,22,29,0.6,0.7
2025-04-07T1700,1262A,119.647,29.077,金华市,十五中,臭氧1小时,69,65,81,24,36,175,,166,166,21,37,7,7,0.5,0.5
2025-04-07T1700,1263A,119.686,29.1029,金华市,监测站,臭氧1小时,63,60,82,28,38,170,,166,166,12,37,6,6,0.3,0.4
2025-04-07T1700,3659A,119.656,29.1131,金华市,气象局,臭氧1小时,69,70,82,26,35,175,,167,167,14,34,6,7,0.4,0.5
2025-04-07T1700,1767A,121.1115,41.0879,锦州市,南山,颗粒物(PM10),76,101,61,24,50,104,,98,98,12,30,10,19,0.5,0.8
2025-04-07T1700,1768A,121.0604,40.8428,锦州市,开发区,细颗粒物(PM2.5),83,71,83,61,54,119,,101,101,40,56,14,28,0.8,0.9
2025-04-07T1700,1769A,121.1836,41.1119,锦州市,百股街道,颗粒物(PM10),92,134,73,24,43,105,,101,101,14,42,6,11,0.3,0.7
2025-04-07T1700,1770A,121.1178,41.1222,锦州市,天安街道,颗粒物(PM10),76,102,72,3,49,107,,99,99,11,41,9,19,0.4,0.8
2025-04-07T1700,1771A,121.1303,41.1386,锦州市,北湖公园,颗粒物(PM10),71,91,73,19,49,103,,97,97,10,36,8,18,0.5,0.8
2025-04-07T1700,2160A,112.85,35.5051,晋城市,自来水公司,颗粒物(PM10),97,144,110,36,38,146,,121,121,12,38,8,10,0.4,0.8
2025-04-07T1700,2161A,112.8318,35.4936,晋城市,白云商贸,颗粒物(PM10),94,138,120,27,27,148,,124,124,15,36,6,8,0.5,0.9
2025-04-07T1700,2162A,112.8508,35.4887,晋城市,市环保局,颗粒物(PM10),108,165,123,41,38,141,,119,119,13,44,5,6,0.3,0.7
2025-04-07T1700,2163A,112.8676,35.4897,晋城市,技术学院,颗粒物(PM10),110,169,118,36,35,138,,115,115,14,44,7,8,0.6,0.9
2025-04-07T1700,2165A,112.8453,35.546,晋城市,白马寺,颗粒物(PM10),73,96,88,30,34,143,,125,125,9,12,5,7,0.4,0.6
2025-04-07T1700,3620A,112.8271,35.4828,晋城市,泽州一中,颗粒物(PM10),92,133,118,48,42,150,,124,124,11,29,4,5,0.5,0.9
2025-04-07T1700,2173A,112.7249,37.7067,晋中市,南都小区,颗粒物(PM10),65,80,133,24,37,145,,125,125,9,31,7,20,0.3,0.6
2025-04-07T1700,2174A,112.6991,37.6982,晋中市,榆次区政府,颗粒物(PM10),64,78,138,23,35,145,,125,125,9,33,7,20,0.2,0.6
2025-04-07T1700,2865A,112.7195,37.6828,晋中市,榆次三中,颗粒物(PM10),67,83,148,27,43,147,,127,127,7,37,6,18,0.2,0.6
2025-04-07T1700,4200A,112.7478,37.6954,晋中市,迎宾街26号,颗粒物(PM10),68,85,145,22,48,146,,129,129,7,29,6,19,0.4,0.6
2025-04-07T1700,2439A,112.2014,31.0481,荆门市,竹园小学,颗粒物(PM10),67,83,111,34,40,150,,132,132,10,16,4,8,0.3,0.4
2025-04-07T1700,2440A,112.1969,30.9891,荆门市,掇刀,颗粒物(PM10),60,69,106,33,42,151,,131,131,8,14,8,11,0.3,0.4
2025-04-07T1700,2441A,112.2213,31.0386,荆门市,石化一小,颗粒物(PM10),71,91,109,35,38,149,,129,129,11,19,7,12,0.0,0.3
2025-04-07T1700,3012A,112.1849,31.0362,荆门市,西山林语,颗粒物(PM10),67,84,93,33,36,149,,132,132,7,12,5,8,0.1,0.3
2025-04-07T1700,3547A,112.1632,31.0138,荆门市,龙泉中学南校,颗粒物(PM10),71,91,107,26,42,136,,119,119,11,16,8,9,0.4,0.4
2025-04-07T1700,1844A,112.2494,30.3197,荆州市,市图书馆,颗粒物(PM10),63,76,86,33,42,139,,114,114,14,19,6,8,0.4,0.5
2025-04-07T1700,1845A,112.2008,30.3544,荆州市,市委党校,颗粒物(PM10),67,84,87,33,42,135,,105,105,15,22,6,9,0.6,0.6
2025-04-07T1700,3194A,112.2747,30.3122,荆州市,管委会,颗粒物(PM10),72,93,93,37,43,139,,115,115,12,16,9,11,0.5,0.6
2025-04-07T1700,4268A,112.1722,30.3366,荆州市,学苑路85号,,50,35,71,35,40,142,,112,112,7,22,8,11,0.5,0.5
2025-04-07T1700,2342A,117.3102,29.3867,景德镇市,王港中学,,,,,,,,,,,,,,,,
2025-04-07T1700,2343A,117.2117,29.2933,景德镇市,老干部活动中心,颗粒物(PM10),52,54,74,27,32,127,,112,112,12,30,11,11,0.5,0.5
2025-04-07T1700,2344A,117.1894,29.2789,景德镇市,兽医站,颗粒物(PM10),58,65,81,24,34,121,,102,102,12,36,9,13,0.6,0.7
2025-04-07T1700,2345A,117.1547,29.2617,景德镇市,台达陶瓷,颗粒物(PM10),61,71,76,31,32,125,,107,107,14,28,8,17,0.6,0.6
2025-04-07T1700,2346A,117.2461,29.2956,景德镇市,陶研所,颗粒物(PM10),51,51,60,34,39,124,,113,113,8,25,9,7,0.7,0.6
2025-04-07T1700,1803A,115.9872,29.6815,九江市,十里,颗粒物(PM10),61,72,72,29,32,154,,123,123,12,34,7,4,0.5,0.6
2025-04-07T1700,1804A,115.9584,29.7046,九江市,茅山头,颗粒物(PM10),65,79,75,34,31,137,,115,115,27,45,8,6,0.5,0.5
2025-04-07T1700,1805A,115.9877,29.7295,九江市,西园,颗粒物(PM10),58,65,64,31,30,149,,106,106,22,56,11,11,0.8,0.9
2025-04-07T1700,1808A,115.9114,29.6038,九江市,综合工业园,颗粒物(PM10),65,80,65,39,27,126,,127,127,47,36,13,10,0.9,0.6
2025-04-07T1700,1809A,116.0721,29.7535,九江市,石化总厂,细颗粒物(PM2.5),62,56,52,44,36,147,,131,131,22,23,16,13,0.7,0.6
2025-04-07T1700,1810A,115.9773,29.5698,九江市,庐山气象台,,49,49,41,30,21,139,,140,138,12,8,6,8,0.7,0.7
2025-04-07T1700,3190A,116.0254,29.6994,九江市,外国语学校,颗粒物(PM10),60,69,59,28,29,147,,112,112,15,37,16,15,0.9,0.9
2025-04-07T1700,4253A,116.0102,29.6594,九江市,莲花大道8号,颗粒物(PM10),62,73,65,37,30,151,,112,112,2,14,10,6,0.6,0.5
2025-04-07T1700,4240A,98.4958,39.7339,酒泉市,玉门东路5号,颗粒物(PM10),500,969,216,66,45,103,,85,85,3,14,7,16,0.2,0.4
2025-04-07T1700,4241A,98.5099,39.7506,酒泉市,北大街108号,颗粒物(PM10),500,627,211,48,41,91,,75,75,7,18,11,22,0.6,0.5
2025-04-07T1700,2698A,76.0072,39.4467,喀什地区,巡警大队,,46,46,100,10,19,113,,90,90,9,25,3,4,0.4,0.6
2025-04-07T1700,2699A,75.9755,39.4694,喀什地区,吾办,颗粒物(PM10),64,77,92,11,28,113,,92,92,6,24,7,6,0.3,0.5
2025-04-07T1700,4027A,75.9483,39.4689,喀什地区,老干局,颗粒物(PM10),91,131,87,10,16,116,,95,95,7,19,1,3,0.6,0.4
2025-04-07T1700,1824A,114.3389,34.7781,开封市,肿瘤医院,颗粒物(PM10),79,107,127,32,41,154,,134,134,6,20,9,10,0.6,0.6
2025-04-07T1700,1826A,114.2885,34.7965,开封市,世纪星幼儿园,颗粒物(PM10),85,120,132,40,44,151,,134,134,16,26,7,10,0.5,0.6
2025-04-07T1700,3147A,114.3438,34.8106,开封市,龙亭公园,"颗粒物(PM10),细颗粒物(PM2.5)",88,126,130,65,71,154,,137,137,8,20,4,6,0.4,0.5
2025-04-07T1700,3210A,114.3644,34.7964,开封市,汴京公园,颗粒物(PM10),97,143,142,36,48,159,,142,142,10,22,4,6,0.3,0.3
2025-04-07T1700,3473A,114.2485,34.8306,开封市,技师学院,细颗粒物(PM2.5),87,118,130,64,67,149,,130,130,12,22,5,7,0.8,0.9
2025-04-07T1700,3592A,114.4644,34.7556,开封市,祥符区生态环境局,颗粒物(PM10),91,132,136,34,43,140,,133,133,14,26,7,8,0.5,0.6
2025-04-07T1700,1951A,84.895,45.6094,克拉玛依市,长征新村,,36,17,21,6,9,113,,89,89,8,14,8,8,0.2,0.2
2025-04-07T1700,1952A,84.8988,45.5893,克拉玛依市,南林小区,,36,16,22,7,12,113,,91,91,2,7,4,3,0.1,0.2
2025-04-07T1700,1954A,84.905,44.3396,克拉玛依市,独山子区,颗粒物(PM10),56,62,20,13,8,139,,103,103,9,11,10,7,0.3,0.2
2025-04-07T1700,1955A,85.6979,46.098,克拉玛依市,乌尔禾区商贸楼,,35,15,17,9,8,111,,91,91,2,8,6,6,0.2,0.2
2025-04-07T1700,3612A,85.1045,45.6899,克拉玛依市,白碱滩区新站,,35,20,31,7,8,111,,86,86,5,9,10,10,0.4,0.4
2025-04-07T1700,2697A,76.1454,39.7142,克孜勒苏柯尔克孜自治州,市人民政府,,36,24,65,3,20,113,,103,103,2,10,5,6,0.3,0.3
2025-04-07T1700,3665A,76.1658,39.7157,克孜勒苏柯尔克孜自治州,克州文化中心,,36,29,63,12,15,114,,104,104,2,12,5,7,0.3,0.3
2025-04-07T1700,1450A,102.8204,24.8886,昆明市,呈贡新区,颗粒物(PM10),57,63,68,39,55,146,,143,143,11,13,5,6,0.6,0.7
2025-04-07T1700,1451A,102.6251,24.9608,昆明市,西山森林公园,,,,,,,,,,,,,,,,
2025-04-07T1700,1452A,102.7252,25.0902,昆明市,龙泉镇,,48,37,66,33,51,137,,131,131,10,23,7,9,0.6,0.8
2025-04-07T1700,1453A,102.7266,25.0375,昆明市,东风东路,,,55,71,38,56,137,,128,128,15,18,8,9,,0.7
2025-04-07T1700,1454A,102.6742,25.0669,昆明市,金鼎山,颗粒物(PM10),56,62,70,26,50,136,,128,128,16,21,2,5,0.6,0.8
2025-04-07T1700,1455A,102.6644,25.0401,昆明市,碧鸡广场,,44,44,73,30,56,137,,129,129,14,25,7,8,0.6,0.8
2025-04-07T1700,3179A,102.7494,25.0119,昆明市,官渡区博物馆,颗粒物(PM10),55,59,70,32,48,139,,135,135,15,16,7,8,0.4,0.6
2025-04-07T1700,3375A,102.8017,24.8336,昆明市,青年创业园,细颗粒物(PM2.5),52,48,71,36,54,134,,130,130,9,12,9,11,1.2,1
2025-04-07T1700,3550A,102.7997,24.9786,昆明市,昆明学院,颗粒物(PM10),51,51,76,35,56,128,,130,130,19,15,4,6,0.5,0.6
2025-04-07T1700,3551A,102.5967,24.6736,昆明市,晋宁区生态环境分局,细颗粒物(PM2.5),55,51,55,39,50,137,,130,130,7,9,6,7,0.8,0.9
2025-04-07T1700,3552A,102.6678,24.9856,昆明市,云天化总部,,44,37,68,27,53,140,,138,138,11,12,9,8,0.5,0.7
2025-04-07T1700,1456A,91.1319,29.6514,拉萨市,八廓街,,42,23,27,10,12,134,,112,112,8,14,5,7,0.4,0.4
2025-04-07T1700,1457A,91.1221,29.6747,拉萨市,市环保局,,41,25,32,9,14,130,,104,104,10,18,3,5,0.2,0.3
2025-04-07T1700,1458A,91.0874,29.6475,拉萨市,区监测站,,40,19,25,7,12,126,,104,104,12,25,5,7,0.5,0.5
2025-04-07T1700,1459A,91.1774,29.6541,拉萨市,西藏大学,,40,25,24,9,10,128,,106,106,10,12,5,7,0.4,0.3
2025-04-07T1700,1460A,90.9798,29.6588,拉萨市,区辐射站,,38,23,29,7,14,121,,100,100,17,22,7,9,0.4,0.4
2025-04-07T1700,1461A,91.0834,29.6292,拉萨市,拉萨火车站,,,26,24,8,11,127,,99,99,6,19,3,4,,0.7
2025-04-07T1700,2520A,109.2203,23.7256,来宾市,来宾技工学校,细颗粒物(PM2.5),64,76,108,46,68,120,,103,103,10,27,8,15,0.9,1
2025-04-07T1700,3535A,109.1781,23.7297,来宾市,兴宾区政府,细颗粒物(PM2.5),72,73,97,52,67,116,,98,98,6,19,8,12,1.0,1
2025-04-07T1700,4002A,109.2416,23.7461,来宾市,中南小学,细颗粒物(PM2.5),70,77,108,51,67,118,,100,100,10,28,9,12,1.0,1.1
2025-04-07T1700,1477A,104.1373,35.9454,兰州市,榆中兰大校区,,,,,,,,,,,,,,,,
2025-04-07T1700,1479A,103.831,36.0464,兰州市,铁路设计院,颗粒物(PM10),61,71,90,24,30,131,,104,104,32,34,8,13,0.6,0.9
2025-04-07T1700,3241A,103.7439,36.0842,兰州市,百合公园,臭氧1小时,52,43,75,22,28,161,,120,120,9,25,7,8,0.5,0.4
2025-04-07T1700,3242A,103.9611,35.998,兰州市,和平,颗粒物(PM10),54,58,90,26,38,139,,114,114,12,19,10,12,0.8,0.9
2025-04-07T1700,4236A,103.6293,36.0938,兰州市,庄浪东路808号,臭氧1小时,88,65,88,38,40,190,,147,147,21,30,13,13,0.3,0.4
2025-04-07T1700,4237A,103.7251,36.1043,兰州市,安宁西路88号,臭氧1小时,65,69,98,36,42,172,,135,135,13,25,7,8,0.3,0.4
2025-04-07T1700,4238A,103.8470,36.0676,兰州市,北滨河东路1号,,48,48,81,24,36,150,,115,115,17,34,10,12,0.5,0.8
2025-04-07T1700,3245A,103.6633,36.533,兰州新区,新区管委会,,48,48,80,24,31,137,,119,119,7,18,9,13,0.1,0.3
2025-04-07T1700,3246A,103.6975,36.4789,兰州新区,舟曲中学,颗粒物(PM10),52,54,101,26,40,138,,118,118,9,17,5,8,0.4,0.5
2025-04-07T1700,1067A,116.6708,39.5111,廊坊市,药材公司,颗粒物(PM10),54,58,97,12,46,99,,105,104,10,30,2,9,0.3,0.7
2025-04-07T1700,1068A,116.7214,39.5589,廊坊市,开发区,细颗粒物(PM2.5),120,,106,91,58,107,,106,106,10,30,2,8,0.2,0.7
2025-04-07T1700,1070A,116.7244,39.5269,廊坊市,北华航天学院,颗粒物(PM10),53,56,105,12,48,100,,99,99,8,29,4,11,0.2,0.7
2025-04-07T1700,2919A,116.7022,39.5453,廊坊市,河北工业大学,,47,47,90,20,51,105,,106,106,10,32,4,11,0.2,0.7
2025-04-07T1700,2535A,103.7723,29.5462,乐山市,花湖湾,,40,25,42,17,30,128,,96,96,5,12,5,7,0.4,0.5
2025-04-07T1700,2536A,103.7627,29.5844,乐山市,牛耳桥,,41,27,44,19,29,131,,94,94,10,22,6,7,0.4,0.5
2025-04-07T1700,2537A,103.7508,29.6006,乐山市,市第三水厂,,42,30,45,16,36,132,,105,105,5,17,4,4,0.5,0.6
2025-04-07T1700,2538A,103.7571,29.5664,乐山市,市监测站,,40,32,46,28,30,126,,93,93,7,16,5,5,0.4,0.6
2025-04-07T1700,3361A,103.7311,29.5628,乐山市,理工大学,,43,33,48,20,31,137,,106,106,6,17,4,5,0.5,0.7
2025-04-07T1700,2598A,100.2143,26.8576,丽江市,西南郊,,46,46,47,23,30,142,,152,152,4,5,5,15,0.6,0.8
2025-04-07T1700,2599A,100.2497,26.8802,丽江市,丽江古城,,42,38,43,25,29,133,,129,129,10,11,7,8,0.6,0.6
2025-04-07T1700,2600A,100.2203,26.8906,丽江市,市中心,,42,37,36,28,27,134,,130,130,14,15,8,8,0.5,0.6
2025-04-07T1700,1267A,119.914,28.4514,丽水市,监测站大楼,颗粒物(PM10),51,51,57,25,29,150,,147,147,10,22,4,6,0.3,0.5
2025-04-07T1700,1268A,119.93,28.4586,丽水市,莲都小学,颗粒物(PM10),55,60,61,20,26,153,,148,148,10,23,4,4,0.3,0.3
2025-04-07T1700,1269A,119.879,28.4231,丽水市,余庄前,,50,44,55,21,28,160,,157,157,7,18,4,3,0.4,0.4
2025-04-07T1700,1173A,119.176,34.5885,连云港市,市环境监测站,颗粒物(PM10),64,78,88,27,39,161,,154,154,12,21,11,13,0.5,0.6
2025-04-07T1700,3000A,119.3581,34.6972,连云港市,德源药业,颗粒物(PM10),65,80,87,27,35,169,,151,151,13,18,10,11,0.4,0.5
2025-04-07T1700,3007A,119.178,34.844,连云港市,新城一中,颗粒物(PM10),63,75,76,22,41,152,,142,142,14,24,9,11,0.6,0.7
2025-04-07T1700,3008A,119.3608,34.7519,连云港市,胡沟管理处,,,58,59,19,24,149,,149,149,,19,,11,0.3,0.4
2025-04-07T1700,3009A,119.1478,34.5911,连云港市,矿山设计院,颗粒物(PM10),63,75,89,19,34,146,,148,148,19,23,12,12,0.5,0.6
2025-04-07T1700,3434A,119.2413,34.6539,连云港市,工贸学校,颗粒物(PM10),55,60,79,25,40,162,,154,154,17,22,10,12,0.6,0.7
2025-04-07T1700,3664A,119.4172,34.7341,连云港市,连云街道,,,75,82,28,31,171,,156,156,,19,8,9,0.6,0.5
2025-04-07T1700,2571A,102.3431,27.8099,凉山彝族自治州,青龙寺,臭氧1小时,54,26,19,11,6,163,,116,116,4,6,12,8,0.9,0.8
2025-04-07T1700,2572A,102.2721,27.8415,凉山彝族自治州,邛海宾馆,颗粒物(PM10),55,60,31,20,13,159,,110,110,12,12,14,10,0.6,0.4
2025-04-07T1700,2573A,102.2625,27.898,凉山彝族自治州,西昌市政府,臭氧1小时,54,41,22,32,16,163,,115,115,10,10,15,9,1.1,0.6
2025-04-07T1700,2574A,102.2685,27.8851,凉山彝族自治州,凉山州政府,颗粒物(PM10),72,94,29,24,15,165,,117,117,14,14,13,7,0.7,0.7
2025-04-07T1700,4229A,102.2342,27.8859,凉山彝族自治州,凯乐南路30号,,47,37,28,23,15,149,,105,105,12,14,14,9,1.1,0.7
2025-04-07T1700,2212A,123.2,41.1953,辽阳市,宏伟区,颗粒物(PM10),67,83,48,26,31,140,,142,142,8,10,14,14,0.9,1
2025-04-07T1700,2213A,123.1683,41.2495,辽阳市,新华园,颗粒物(PM10),76,102,63,28,41,148,,152,152,12,23,10,15,0.4,0.6
2025-04-07T1700,2214A,123.2354,41.2639,辽阳市,滨河路,颗粒物(PM10),65,80,50,25,36,131,,130,130,12,20,9,9,0.6,0.7
2025-04-07T1700,2215A,123.149,41.2991,辽阳市,铁西工业园,颗粒物(PM10),74,97,75,32,43,149,,150,150,14,23,13,12,0.5,0.7
2025-04-07T1700,2227A,125.1358,42.8845,辽源市,环保局,颗粒物(PM10),57,63,42,30,20,138,,111,111,19,25,9,6,0.6,0.7
2025-04-07T1700,3239A,125.0764,42.9078,辽源市,银鹰制药,颗粒物(PM10),55,59,33,35,23,146,,120,120,16,22,10,8,0.7,0.8
2025-04-07T1700,1625A,115.9848,36.4372,聊城市,区政府,颗粒物(PM10),98,146,136,48,46,176,,116,116,22,27,16,13,0.5,0.4
2025-04-07T1700,2878A,116.0072,36.4343,聊城市,聊大东校,颗粒物(PM10),104,158,143,72,60,180,,131,131,19,22,17,12,0.8,0.6
2025-04-07T1700,3200A,115.9819,36.4978,聊城市,监控中心,细颗粒物(PM2.5),117,171,140,88,53,181,,135,135,22,20,32,17,1.0,0.8
2025-04-07T1700,3513A,116.0445,36.4361,聊城市,九州社区,颗粒物(PM10),95,140,129,45,43,193,,140,140,10,16,11,9,0.7,0.5
2025-04-07T1700,4018A,116.0567,36.4608,聊城市,星美广场,颗粒物(PM10),103,155,134,45,39,194,,142,142,16,16,18,12,0.9,0.6
2025-04-07T1700,2632A,94.3681,29.6376,林芝市,林芝监测站,,35,21,26,14,13,110,,97,97,7,9,5,5,0.2,0.3
2025-04-07T1700,2633A,94.3616,29.6616,林芝市,林芝人民医院,,32,28,30,11,12,102,,93,93,4,4,8,8,0.3,0.4
2025-04-07T1700,2603A,100.0781,23.8982,临沧市,市环保局,细颗粒物(PM2.5),145,126,129,111,86,140,,132,132,17,19,9,10,0.9,1
2025-04-07T1700,2604A,100.0894,23.8822,临沧市,市气象局,细颗粒物(PM2.5),108,112,111,81,91,145,,128,128,16,24,7,8,0.9,0.9
2025-04-07T1700,1733A,111.5531,36.0783,临汾市,临钢医院,颗粒物(PM10),115,180,145,42,38,156,,121,121,12,32,13,9,0.6,0.7
2025-04-07T1700,1734A,111.5028,36.0714,临汾市,技工学校,颗粒物(PM10),95,140,131,45,46,162,,124,124,9,30,15,12,0.7,0.8
2025-04-07T1700,1736A,111.5018,36.0855,临汾市,市委,颗粒物(PM10),104,158,143,41,47,165,,127,127,14,33,13,11,0.6,0.8
2025-04-07T1700,3018A,111.505,36.1014,临汾市,唐尧大酒店,颗粒物(PM10),110,169,144,34,42,155,,124,124,8,29,14,13,0.6,0.8
2025-04-07T1700,4244A,111.4879,36.0530,临汾市,启星学校,颗粒物(PM10),114,177,155,41,48,160,,121,121,11,33,12,9,0.7,0.9
2025-04-07T1700,4271A,103.2464,35.6123,临夏回族自治州,滨河东路1号,颗粒物(PM10),61,71,102,22,42,116,,94,94,1,19,6,5,0.2,0.5
2025-04-07T1700,4310A,103.2093,35.5995,临夏回族自治州,新华街21号,颗粒物(PM10),56,62,93,27,42,106,,91,91,3,22,10,10,0.2,0.5
2025-04-07T1700,1618A,118.3429,35.0532,临沂市,沂河小区,颗粒物(PM10),75,100,111,28,47,160,,136,136,11,23,10,19,0.6,0.6
2025-04-07T1700,1619A,118.295,35.0583,临沂市,鲁南制药厂,颗粒物(PM10),73,95,104,36,43,171,,146,146,15,32,11,20,0.7,0.7
2025-04-07T1700,1620A,118.2794,34.9976,临沂市,新光毛纺厂,颗粒物(PM10),71,92,106,29,41,167,,145,145,23,41,9,21,0.7,0.8
2025-04-07T1700,1621A,118.3956,35.0888,临沂市,河东保险公司,臭氧1小时,74,90,92,26,35,179,,153,153,19,31,7,14,0.4,0.4
2025-04-07T1700,3370A,118.3564,35.0215,临沂市,十里堡居委,颗粒物(PM10),68,85,99,27,36,168,,146,146,17,28,7,13,0.7,0.7
2025-04-07T1700,3496A,118.3604,35.1084,临沂市,南坊新区,颗粒物(PM10),74,97,102,27,35,154,,136,136,12,24,8,15,0.5,0.6
2025-04-07T1700,3860A,118.3920,35.0300,临沂市,皇山花园小区,颗粒物(PM10),70,90,97,30,35,172,,148,148,12,22,9,18,0.5,0.5
2025-04-07T1700,1870A,109.4856,24.3895,柳州市,柳东小学,细颗粒物(PM2.5),88,66,100,65,79,126,,90,90,18,24,13,18,0.9,0.9
2025-04-07T1700,1871A,109.4157,24.3277,柳州市,环保监测站,细颗粒物(PM2.5),85,76,122,63,94,122,,88,88,14,26,13,25,0.9,1.2
2025-04-07T1700,1872A,109.389,24.341,柳州市,河西水厂,颗粒物(PM10),80,110,145,49,80,124,,87,87,13,33,8,26,0.9,1.1
2025-04-07T1700,1873A,109.4311,24.2921,柳州市,市四中,细颗粒物(PM2.5),77,89,121,56,87,118,,89,89,15,32,11,14,1.0,1.2
2025-04-07T1700,1874A,109.4006,24.3631,柳州市,市九中,细颗粒物(PM2.5),75,80,120,55,79,124,,91,91,13,23,9,21,0.8,1
2025-04-07T1700,1875A,109.4958,24.3134,柳州市,古亭山,细颗粒物(PM2.5),75,94,118,55,79,132,,93,93,13,38,10,21,0.9,1.2
2025-04-07T1700,3402A,109.5422,24.3996,柳州市,市二中,细颗粒物(PM2.5),74,81,106,54,79,132,,101,101,12,27,15,25,0.7,0.9
2025-04-07T1700,2307A,116.5079,31.737,六安市,监测大楼,颗粒物(PM10),54,57,59,28,27,136,,130,130,11,16,6,6,0.6,0.6
2025-04-07T1700,2308A,116.4738,31.7643,六安市,皖西学院,颗粒物(PM10),59,68,68,27,26,139,,130,130,12,16,5,6,0.4,0.5
2025-04-07T1700,2309A,116.4996,31.7905,六安市,朝阳厂,颗粒物(PM10),51,52,60,22,25,127,,120,120,18,23,5,5,0.6,0.6
2025-04-07T1700,2310A,116.5567,31.7886,六安市,开发区,颗粒物(PM10),63,75,92,22,34,136,,131,131,28,44,6,6,0.5,0.6
2025-04-07T1700,2576A,104.8,26.5892,六盘水市,窑上,颗粒物(PM10),54,57,33,34,18,103,,76,76,10,13,6,5,0.8,0.8
2025-04-07T1700,2577A,104.83,26.5917,六盘水市,黄土坡,细颗粒物(PM2.5),62,55,30,44,27,91,,66,66,19,22,14,12,1.0,0.9
2025-04-07T1700,2578A,104.89,26.5939,六盘水市,水钢,颗粒物(PM10),58,66,34,34,19,96,,74,74,12,14,9,10,0.5,0.5
2025-04-07T1700,2579A,104.8475,26.5894,六盘水市,民中,,,,28,,19,97,,78,78,10,19,9,10,,0.6
2025-04-07T1700,2580A,104.9544,26.5506,六盘水市,双水,颗粒物(PM10),52,53,30,29,19,94,,64,64,12,17,10,9,0.6,0.6
2025-04-07T1700,2335A,117.0189,25.1181,龙岩市,龙岩师专,,,,,,,,,,,,,,,,
2025-04-07T1700,2336A,117.0217,25.1033,龙岩市,龙岩市监测站,,47,47,54,21,28,149,,136,136,13,25,5,8,0.4,0.6
2025-04-07T1700,2337A,117.0258,25.0661,龙岩市,闽西职业技术学院,,44,44,61,22,31,139,,128,128,12,24,5,19,0.4,0.5
2025-04-07T1700,2338A,117.0196,25.0306,龙岩市,龙岩学院,,48,48,47,20,26,151,,136,136,8,14,2,3,0.4,0.5
2025-04-07T1700,2665A,105.0822,33.3261,陇南市,汉王镇固水子,,,,,,,,,,,,,,,,
2025-04-07T1700,2885A,104.9339,33.3826,陇南市,滨江中学,颗粒物(PM10),53,56,48,19,19,96,,78,78,3,7,7,7,0.4,0.4
2025-04-07T1700,3247A,104.955,33.371,陇南市,市总工会,,44,44,42,20,17,104,,84,84,3,5,8,8,0.5,0.5
2025-04-07T1700,2487A,111.9589,27.8901,娄底市,电视发射台,颗粒物(PM10),77,104,80,45,36,124,,102,102,8,7,12,11,0.8,0.7
2025-04-07T1700,2488A,111.9975,27.725,娄底市,市监测站,细颗粒物(PM2.5),77,98,103,56,56,124,,85,85,11,38,15,19,0.3,0.7
2025-04-07T1700,2489A,112.0194,27.7314,娄底市,市委党校,细颗粒物(PM2.5),65,75,103,47,56,117,,84,84,8,26,3,6,0.3,0.6
2025-04-07T1700,2490A,111.9561,27.7569,娄底市,涟钢,颗粒物(PM10),61,72,104,22,55,118,,86,86,13,24,14,9,0.7,0.7
2025-04-07T1700,2491A,111.9892,27.7044,娄底市,市政府,颗粒物(PM10),63,76,93,35,52,122,,94,94,6,24,5,6,0.3,0.5
2025-04-07T1700,1893A,105.4324,28.9634,泸州市,九狮山,,,,,,,,,,,,,,,,
2025-04-07T1700,1894A,105.4427,28.9063,泸州市,小市上码头,,43,18,42,8,25,135,,102,102,10,22,7,6,0.5,0.7
2025-04-07T1700,1895A,105.4241,28.8573,泸州市,兰田宪桥,,42,,47,29,30,132,,96,96,6,14,5,5,0.5,0.6
2025-04-07T1700,1896A,105.4379,28.8833,泸州市,市环监站,,,,,,,,,,,,,,,,
2025-04-07T1700,4272A,105.3689,28.7783,泸州市,纳溪中医医院,,45,35,41,15,26,144,,94,94,8,17,5,6,0.6,0.7
2025-04-07T1700,2183A,111.1406,37.5211,吕梁市,环保局,颗粒物(PM10),72,93,155,32,50,122,,111,111,2,41,3,5,0.2,0.4
2025-04-07T1700,2185A,111.1297,37.5136,吕梁市,自来水公司,颗粒物(PM10),61,72,198,34,56,119,,101,101,6,43,3,7,0.3,0.6
2025-04-07T1700,2867A,111.1283,37.51,吕梁市,马茂庄小学,颗粒物(PM10),69,88,181,28,44,126,,101,101,4,45,1,5,0.3,0.5
2025-04-07T1700,1812A,112.3931,34.6516,洛阳市,市委党校,颗粒物(PM10),83,116,110,37,46,119,,104,104,10,27,2,7,0.5,0.7
2025-04-07T1700,1815A,112.494,34.6886,洛阳市,河南林校,颗粒物(PM10),131,212,137,32,46,126,,114,114,8,31,3,10,0.5,0.8
2025-04-07T1700,1816A,112.3844,34.623,洛阳市,开发区管委会,颗粒物(PM10),75,99,115,29,44,118,,108,108,10,23,7,9,0.2,0.3
2025-04-07T1700,1817A,112.4267,34.6258,洛阳市,市委新办公区,颗粒物(PM10),80,109,111,31,38,128,,119,119,12,21,3,7,0.1,0.2
2025-04-07T1700,3340A,112.6005,34.6326,洛阳市,伊滨,细颗粒物(PM2.5),115,129,103,87,48,125,,120,120,12,29,10,8,0.2,0.5
2025-04-07T1700,3341A,112.4951,34.6332,洛阳市,中移产业园,颗粒物(PM10),92,133,135,41,41,116,,113,113,10,20,5,8,0.5,0.6
2025-04-07T1700,3593A,112.5736,34.8993,洛阳市,吉利监测站,颗粒物(PM10),91,131,108,56,42,147,,131,131,10,21,7,10,0.4,0.5
2025-04-07T1700,3635A,112.3677,34.662,洛阳市,河科大西苑校区,颗粒物(PM10),89,127,118,27,36,122,,106,106,13,33,5,11,0.4,0.6
2025-04-07T1700,3636A,112.4388,34.6781,洛阳市,英才小学,颗粒物(PM10),86,122,118,34,47,121,,105,105,9,37,5,14,0.4,0.7
2025-04-07T1700,4214A,112.4600,34.6949,洛阳市,春都路1号院,颗粒物(PM10),120,190,137,29,40,130,,115,115,9,33,4,14,0.5,0.8
2025-04-07T1700,2399A,114.051,33.5699,漯河市,三五一五工厂,颗粒物(PM10),74,98,116,34,42,142,,124,124,6,18,4,6,0.4,0.4
2025-04-07T1700,2400A,114.0055,33.5698,漯河市,漯河大学,颗粒物(PM10),71,91,110,31,39,144,,130,130,5,21,6,7,0.3,0.4
2025-04-07T1700,2401A,114.0138,33.5828,漯河市,市水利局,颗粒物(PM10),70,90,113,46,46,145,,132,132,7,18,4,5,0.2,0.3
2025-04-07T1700,2402A,114.0261,33.5698,漯河市,市广电局,颗粒物(PM10),74,98,114,36,41,141,,125,125,7,16,5,6,0.5,0.5
2025-04-07T1700,3478A,113.9749,33.5664,漯河市,市图书馆,颗粒物(PM10),77,103,113,41,43,144,,132,132,10,17,4,7,0.5,0.5
2025-04-07T1700,4250A,114.0892,33.5882,漯河市,韶山路11号,颗粒物(PM10),81,112,118,33,40,154,,133,133,7,22,6,7,0.4,0.5
2025-04-07T1700,1798A,118.5092,31.6837,马鞍山市,湖东路四小,颗粒物(PM10),64,77,75,21,31,151,,150,150,17,20,9,8,0.6,0.7
2025-04-07T1700,1799A,118.5024,31.6449,马鞍山市,开发区,,,83,99,27,37,134,,142,142,,31,8,6,0.6,0.8
2025-04-07T1700,1802A,118.6245,31.7241,马鞍山市,濮塘,颗粒物(PM10),63,76,77,36,36,165,,160,160,11,12,11,11,0.5,0.5
2025-04-07T1700,3633A,118.4918,31.6809,马鞍山市,雨山,颗粒物(PM10),64,77,78,26,35,146,,150,150,16,20,9,9,0.6,0.7
2025-04-07T1700,4191A,118.5274,31.72227,马鞍山市,慈湖高新区,颗粒物(PM10),57,64,84,30,38,147,,142,142,23,30,8,7,0.5,0.6
2025-04-07T1700,1686A,111.0286,21.4688,茂名市,电白南海,颗粒物(PM10),56,61,88,31,53,110,,96,96,14,23,2,6,1.1,1.2
2025-04-07T1700,1687A,110.9294,21.6533,茂名市,茂石化七小,,,70,83,34,43,,,86,86,,20,5,7,0.9,1
2025-04-07T1700,1688A,110.9107,21.6687,茂名市,健康路,颗粒物(PM10),58,66,80,36,46,129,,106,106,19,20,6,10,0.9,0.9
2025-04-07T1700,1689A,110.8592,21.6828,茂名市,高岭,颗粒物(PM10),62,73,91,34,43,123,,97,97,24,21,6,14,0.7,0.8
2025-04-07T1700,3450A,111.01,21.5165,茂名市,电白水东,,48,48,79,24,39,102,,92,92,14,23,2,7,0.7,0.8
2025-04-07T1700,2539A,104.0308,30.0478,眉山市,黑龙滩水库,,45,30,33,12,16,144,,117,117,2,2,2,2,0.3,0.3
2025-04-07T1700,2540A,103.8416,30.0874,眉山市,气象局,,49,49,74,27,38,146,,117,117,10,24,2,2,0.6,0.7
2025-04-07T1700,3137A,103.8578,30.0744,眉山市,市委党校,颗粒物(PM10),54,58,60,22,32,139,,107,107,10,24,6,5,0.7,0.7
2025-04-07T1700,3148A,103.8291,30.0564,眉山市,区人社局,,46,41,58,24,34,146,,116,116,12,25,5,5,0.7,0.8
2025-04-07T1700,1690A,116.1231,24.3284,梅州市,梅江月梅,颗粒物(PM10),53,55,60,28,34,144,,130,130,13,19,5,5,0.5,0.6
2025-04-07T1700,1691A,116.0797,24.2719,梅州市,梅县新城,颗粒物(PM10),53,56,58,30,32,143,,129,129,13,28,6,6,0.6,0.6
2025-04-07T1700,1692A,116.1248,24.2654,梅州市,环境监控中心,,48,48,50,27,30,140,,125,125,16,26,7,9,0.7,0.7
2025-04-07T1700,3315A,116.1233,24.2991,梅州市,梅龙,,48,48,52,30,33,141,,121,121,10,22,7,9,0.5,0.7
2025-04-07T1700,1878A,104.7778,31.4741,绵阳市,富乐山,颗粒物(PM10),56,62,67,29,31,136,,120,120,12,18,3,3,0.4,0.6
2025-04-07T1700,1880A,104.6697,31.4668,绵阳市,高新区自来水公司,,48,48,90,29,36,130,,107,107,8,36,3,4,0.5,0.6
2025-04-07T1700,1881A,104.7287,31.5075,绵阳市,三水厂,颗粒物(PM10),66,82,85,34,37,137,,110,110,10,34,6,6,0.5,0.7
2025-04-07T1700,3491A,104.69,31.5322,绵阳市,西科大附属小学,颗粒物(PM10),55,60,89,27,39,139,,112,112,13,37,7,7,0.5,0.6
2025-04-07T1700,3492A,104.5648,31.5343,绵阳市,安州区旅游局,颗粒物(PM10),58,66,74,29,32,128,,107,107,11,24,8,7,0.3,0.8
2025-04-07T1700,4226A,104.7651,31.4531,绵阳市,绵阳市气象局,颗粒物(PM10),55,59,72,10,34,126,,100,100,11,24,2,3,0.3,0.4
2025-04-07T1700,1784A,129.61,44.561,牡丹江市,环保大楼,,32,13,18,8,13,102,,106,106,11,15,5,6,0.3,0.4
2025-04-07T1700,1785A,129.6115,44.5782,牡丹江市,文化广场,,33,23,23,21,18,103,,102,102,11,14,10,10,0.5,0.5
2025-04-07T1700,1786A,129.5904,44.5963,牡丹江市,第一医院,,33,19,21,9,15,103,,102,102,15,16,11,12,0.3,0.4
2025-04-07T1700,1787A,129.6364,44.6075,牡丹江市,机车工厂,,34,23,24,10,15,106,,105,105,15,17,8,19,0.5,0.5
2025-04-07T1700,1788A,129.6386,44.5462,牡丹江市,第一中学,,35,23,21,18,17,111,,110,110,6,10,7,8,0.5,0.6
2025-04-07T1700,2531A,105.0703,29.61,内江市,市监测站,,38,23,50,22,36,119,,89,89,13,23,6,5,0.6,0.7
2025-04-07T1700,2532A,105.0717,29.5947,内江市,东兴区政府,,36,28,47,20,30,114,,82,82,9,21,3,3,0.6,0.7
2025-04-07T1700,2533A,105.0653,29.5817,内江市,内江二中,,,39,52,17,34,120,,92,92,16,25,,7,0.4,0.6
2025-04-07T1700,2534A,105.0406,29.5822,内江市,内江日报社,,40,40,52,20,38,124,,92,92,11,21,4,5,0.5,0.5
2025-04-07T1700,2628A,92.0657,31.4846,那曲市,那曲监测站,,38,24,48,9,28,120,,104,104,6,25,3,8,0.4,1.1
2025-04-07T1700,4243A,92.0515,31.4787,那曲市,那曲市委宣传部,,41,24,48,3,23,129,,108,108,2,17,4,6,0.3,0.7
2025-04-07T1700,1290A,115.8931,28.6843,南昌市,省外办,颗粒物(PM10),55,59,91,36,51,118,,108,108,19,63,9,10,0.5,0.8
2025-04-07T1700,1291A,115.8886,28.7003,南昌市,省林业公司,颗粒物(PM10),56,61,101,31,44,117,,100,100,8,50,10,11,0.4,0.6
2025-04-07T1700,1292A,115.8126,28.7442,南昌市,林科所,,,70,65,36,33,139,,133,133,,51,10,11,0.5,0.5
2025-04-07T1700,1294A,115.8518,28.687,南昌市,建工学校,颗粒物(PM10),64,78,101,36,49,124,,115,115,10,54,6,7,0.5,0.8
2025-04-07T1700,1295A,115.8921,28.6424,南昌市,象湖,颗粒物(PM10),61,71,96,29,41,141,,136,136,10,55,9,11,0.4,0.7
2025-04-07T1700,1296A,115.7423,28.7996,南昌市,武术学校,,,74,47,12,24,111,,143,143,,8,11,9,0.6,0.7
2025-04-07T1700,3046A,115.9084,28.6062,南昌市,机电学校,颗粒物(PM10),62,74,106,27,43,130,,130,130,11,52,5,6,0.6,0.7
2025-04-07T1700,3690A,115.9721,28.7031,南昌市,外国语学校,颗粒物(PM10),70,89,94,43,42,144,,130,130,25,47,10,8,0.4,0.4
2025-04-07T1700,4192A,115.9316,28.68677,南昌市,南京东路235号,颗粒物(PM10),70,89,113,36,46,134,,131,131,20,55,12,13,0.6,0.8
2025-04-07T1700,1905A,106.056,30.8064,南充市,西山风景区,颗粒物(PM10),52,54,50,34,33,141,,112,112,7,16,4,5,0.7,0.8
2025-04-07T1700,1906A,106.0789,30.8023,南充市,南充市委,"颗粒物(PM10),细颗粒物(PM2.5)",63,75,70,45,38,134,,108,108,14,31,4,4,0.5,0.7
2025-04-07T1700,1907A,106.1031,30.8217,南充市,南充炼油厂,颗粒物(PM10),65,79,78,41,40,134,,106,106,10,30,4,4,0.5,0.6
2025-04-07T1700,4227A,106.1083,30.7884,南充市,梨树横街98号,颗粒物(PM10),61,72,70,23,33,136,,106,106,13,28,6,6,0.3,0.4
2025-04-07T1700,4304A,106.1172,30.843,南充市,清泉寺北路188号,颗粒物(PM10),69,87,74,45,38,144,,114,114,15,25,7,7,0.4,0.4
2025-04-07T1700,4305A,106.067,30.7616,南充市,同庆路1号,颗粒物(PM10),65,80,71,36,38,126,,110,110,11,19,4,4,0.5,0.4
2025-04-07T1700,1151A,118.8086,32.1065,南京市,迈皋桥,颗粒物(PM10),54,58,63,29,28,152,,150,150,25,32,5,7,0.6,0.5
2025-04-07T1700,1152A,118.7538,32.0551,南京市,草场门,颗粒物(PM10),62,73,73,27,29,144,,145,145,22,30,12,10,1.0,0.8
2025-04-07T1700,1153A,118.7794,32.0745,南京市,山西路,颗粒物(PM10),63,75,83,19,27,150,,150,150,21,24,10,8,0.6,0.4
2025-04-07T1700,1154A,118.7752,32.0023,南京市,中华门,颗粒物(PM10),58,66,69,27,29,129,,130,130,23,30,17,15,0.7,0.6
2025-04-07T1700,1155A,118.8109,32.0309,南京市,瑞金路,颗粒物(PM10),64,78,74,27,29,134,,136,136,16,22,6,6,0.7,0.5
2025-04-07T1700,1156A,118.7997,32.0754,南京市,玄武湖,颗粒物(PM10),61,71,72,24,25,118,,119,119,16,20,13,10,0.9,0.7
2025-04-07T1700,1157A,118.6414,32.0931,南京市,浦口,颗粒物(PM10),62,74,78,24,25,167,,154,154,17,25,8,10,0.3,0.5
2025-04-07T1700,1158A,118.7356,31.9996,南京市,奥体中心,颗粒物(PM10),65,80,76,31,34,139,,137,137,21,26,13,11,0.6,0.5
2025-04-07T1700,1159A,118.9125,32.1028,南京市,仙林大学城,颗粒物(PM10),62,73,76,29,28,146,,148,148,24,20,16,11,1.1,0.8
2025-04-07T1700,3422A,118.8436,31.9198,南京市,江宁彩虹桥,颗粒物(PM10),63,76,75,29,31,142,,148,148,24,24,10,6,1.1,0.6
2025-04-07T1700,3427A,118.8554,32.3578,南京市,六合雄州,颗粒物(PM10),55,59,67,23,27,139,,146,146,16,20,12,10,0.7,0.6
2025-04-07T1700,4249A,118.8708,31.3402,南京市,汶溪路181号,颗粒物(PM10),54,58,76,23,39,161,,160,160,12,20,5,6,0.5,0.7
2025-04-07T1700,4312A,119.019,31.6512,南京市,中山西路1号,,49,39,58,25,32,155,,158,158,16,25,6,8,0.4,0.6
2025-04-07T1700,1401A,108.3103,22.7881,南宁市,二十一中,颗粒物(PM10),64,77,84,36,55,124,,100,100,16,26,6,6,1.0,1.1
2025-04-07T1700,1402A,108.3141,22.8528,南宁市,北湖,颗粒物(PM10),54,58,84,37,57,134,,106,106,16,29,8,9,0.7,0.8
2025-04-07T1700,1403A,108.3206,22.8225,南宁市,市监测站,颗粒物(PM10),58,66,83,38,54,125,,99,99,15,24,8,8,0.8,0.9
2025-04-07T1700,1404A,108.3829,22.8037,南宁市,大自然花园,细颗粒物(PM2.5),59,62,82,42,57,131,,106,106,8,20,6,7,1.1,1.1
2025-04-07T1700,1405A,108.4394,22.7904,南宁市,仙葫,颗粒物(PM10),56,61,79,32,62,112,,91,91,9,22,3,4,0.8,0.8
2025-04-07T1700,1406A,108.2397,22.8467,南宁市,区农职院,颗粒物(PM10),60,70,89,35,56,127,,98,98,16,31,6,6,0.8,1
2025-04-07T1700,1407A,108.3275,22.735,南宁市,英华嘉园,颗粒物(PM10),56,62,87,31,56,119,,102,102,20,24,9,8,0.6,0.8
2025-04-07T1700,3401A,108.4834,22.7618,南宁市,红星社区,颗粒物(PM10),58,66,87,29,54,134,,110,110,6,20,9,10,0.8,0.9
2025-04-07T1700,4221A,108.2177,22.7774,南宁市,乐贤路16号,颗粒物(PM10),57,63,89,35,60,112,,91,91,14,39,10,10,0.7,0.8
2025-04-07T1700,2331A,118.0966,26.6761,南平市,茫荡山,,,,,,,,,,,,,,,,
2025-04-07T1700,2332A,118.1681,26.6369,南平市,南平市监测站,,47,47,48,17,29,147,,144,144,8,17,5,6,0.5,0.7
2025-04-07T1700,2333A,118.1825,26.6489,南平市,南平铝业有限公司,,48,48,53,18,28,147,,144,144,5,19,4,6,0.5,0.8
2025-04-07T1700,2334A,118.1756,26.6272,南平市,南平七中,颗粒物(PM10),58,66,52,20,29,143,,138,138,6,13,6,6,0.5,0.7
2025-04-07T1700,1168A,120.9098,31.9663,南通市,狼山街道,臭氧1小时,80,73,92,32,50,184,,185,185,28,44,7,8,0.6,0.8
2025-04-07T1700,1169A,120.86,32.0005,南通市,虹桥,颗粒物(PM10),60,70,95,25,54,164,,175,175,55,39,9,9,0.5,0.7
2025-04-07T1700,1170A,120.87,32.02,南通市,城中,臭氧1小时,87,82,109,33,52,189,,188,188,39,36,9,10,0.7,0.8
2025-04-07T1700,1171A,120.94,31.93,南通市,星湖花园,臭氧1小时,80,82,90,34,51,184,,182,182,28,41,8,10,0.3,0.4
2025-04-07T1700,1172A,120.81,32.0417,南通市,紫琅学院,颗粒物(PM10),68,85,97,40,54,161,,164,164,64,50,6,7,0.4,0.5
2025-04-07T1700,3291A,121.067,32.062,南通市,通州监测站,臭氧1小时,102,80,93,36,51,204,,180,180,24,27,7,6,0.5,0.6
2025-04-07T1700,3432A,120.9348,31.9883,南通市,环境教育馆,臭氧1小时,101,68,91,30,53,202,,198,198,21,34,8,8,0.4,0.5
2025-04-07T1700,2404A,112.5224,33.0122,南阳市,瓦房庄,,,109,114,38,40,150,,100,,13,18,,8,0.5,0.5
2025-04-07T1700,2405A,112.5003,32.9735,南阳市,汉画馆,颗粒物(PM10),75,99,103,40,39,141,,118,118,12,20,8,7,0.5,0.5
2025-04-07T1700,2406A,112.5573,33.027,南阳市,气象站,颗粒物(PM10),80,110,122,36,37,146,,129,129,11,19,7,8,0.5,0.5
2025-04-07T1700,2407A,112.5481,32.9689,南阳市,理工学院,颗粒物(PM10),75,100,109,37,38,148,,124,124,10,19,6,6,0.5,0.6
2025-04-07T1700,4008A,112.5234,32.9922,南阳市,卧龙区政府,颗粒物(PM10),78,105,113,36,41,149,,124,124,5,14,7,7,0.6,0.6
2025-04-07T1700,1234A,121.8358,29.911,宁波市,区环保大楼,颗粒物(PM10),63,75,65,31,29,153,,143,143,22,41,7,8,0.6,0.6
2025-04-07T1700,1235A,121.56,29.82,宁波市,万里学院,,,38,56,15,29,148,,151,151,14,18,,13,0.6,0.7
2025-04-07T1700,1236A,121.713,29.9572,宁波市,龙赛医院,,50,50,73,23,33,149,,154,154,15,35,8,12,0.5,0.6
2025-04-07T1700,1239A,121.633,29.7733,宁波市,钱湖水厂,,48,32,49,17,28,151,,150,150,16,16,7,7,0.5,0.7
2025-04-07T1700,1240A,121.5856,29.8635,宁波市,太古小学,,46,40,63,16,26,147,,149,149,12,18,8,9,0.3,0.5
2025-04-07T1700,1241A,121.524,29.8674,宁波市,市环境监测中心,,44,36,61,18,31,140,,141,141,31,33,9,10,0.3,0.5
2025-04-07T1700,2871A,121.6147,29.9017,宁波市,万里国际学校,,47,47,73,14,25,147,,153,153,13,19,7,8,0.5,0.7
2025-04-07T1700,3710A,121.5594,29.8975,宁波市,白沙活动中心,,47,43,71,19,31,150,,151,151,11,23,7,8,0.4,0.5
2025-04-07T1700,2339A,119.5001,26.6946,宁德市,金涵水库,,,,,,,,,,,,,,,,
2025-04-07T1700,2341A,119.5388,26.6612,宁德市,宁德市监测站,臭氧1小时,64,69,52,30,28,171,,146,146,16,15,7,5,0.6,0.6
2025-04-07T1700,3209A,119.5231,26.6562,宁德市,宁德一中,臭氧1小时,63,70,52,39,29,170,,159,159,11,10,8,7,0.5,0.4
2025-04-07T1700,2618A,98.8601,25.8567,怒江傈僳族自治州,州监测站,颗粒物(PM10),57,64,50,36,32,118,,99,99,13,9,6,7,0.4,0.4
2025-04-07T1700,2619A,98.8546,25.8417,怒江傈僳族自治州,泸水一中,颗粒物(PM10),58,66,48,39,34,108,,83,83,14,18,7,7,0.4,0.5
2025-04-07T1700,1888A,101.6891,26.571,攀枝花市,弄弄坪,,,,60,,31,,,75,,,33,,20,,1.6
2025-04-07T1700,1889A,101.5769,26.5928,攀枝花市,河门口,,45,44,54,25,30,143,,115,115,4,18,8,16,0.6,0.9
2025-04-07T1700,1890A,101.7169,26.585,攀枝花市,炳草岗,臭氧1小时,54,44,52,18,27,163,,128,128,13,29,8,13,0.8,0.9
2025-04-07T1700,1891A,101.7369,26.5008,攀枝花市,仁和,,50,40,45,26,31,160,,138,138,7,17,9,9,0.5,0.6
2025-04-07T1700,2835A,101.7227,26.567,攀枝花市,四十中小,臭氧1小时,58,41,50,22,22,166,,133,133,10,14,10,8,0.9,0.9
2025-04-07T1700,1604A,122.0303,41.1489,盘锦市,开发区,细颗粒物(PM2.5),77,81,81,56,64,131,,127,127,22,31,12,20,0.6,1
2025-04-07T1700,1605A,122.0485,41.0883,盘锦市,兴隆台,细颗粒物(PM2.5),74,73,84,54,66,129,,121,121,20,36,13,18,0.7,1.2
2025-04-07T1700,1606A,121.8297,41.1028,盘锦市,新生街道,细颗粒物(PM2.5),57,62,58,40,65,122,,126,126,21,40,10,8,0.9,1.1
2025-04-07T1700,1832A,113.3257,33.742,平顶山市,新华旅馆,颗粒物(PM10),89,127,115,32,36,146,,138,138,11,15,7,6,0.5,0.5
2025-04-07T1700,1833A,113.2919,33.737,平顶山市,规划设计院,颗粒物(PM10),75,99,108,46,41,141,,138,138,11,12,7,5,0.5,0.4
2025-04-07T1700,1834A,113.182,33.774,平顶山市,平顶山工学院,颗粒物(PM10),74,98,107,46,38,132,,131,131,9,9,6,6,0.5,0.5
2025-04-07T1700,3204A,113.3025,33.73,平顶山市,规划局,颗粒物(PM10),80,110,111,40,40,141,,137,137,16,14,7,6,0.8,0.7
2025-04-07T1700,3594A,112.8867,33.9116,平顶山市,石龙区,颗粒物(PM10),53,56,121,20,40,125,,135,135,4,11,3,6,0.2,0.3
2025-04-07T1700,2656A,106.6692,35.5461,平凉市,聚贤嘉苑,颗粒物(PM10),53,55,80,13,24,124,,119,119,6,19,21,21,0.4,0.5
2025-04-07T1700,2657A,106.7021,35.5307,平凉市,博物馆,颗粒物(PM10),55,59,88,18,28,123,,115,115,5,24,10,11,0.6,0.8
2025-04-07T1700,2347A,114.0997,27.5002,萍乡市,武功山,,,,40,,24,,,79,,,7,,10,,1.1
2025-04-07T1700,2348A,113.8385,27.6434,萍乡市,中医院,颗粒物(PM10),60,69,77,30,34,123,,106,106,6,24,10,11,0.8,1
2025-04-07T1700,2349A,113.8493,27.6253,萍乡市,市政府车库,细颗粒物(PM2.5),60,50,60,43,39,122,,111,111,9,20,6,7,0.5,0.8
2025-04-07T1700,2350A,113.8676,27.6435,萍乡市,市环保局,颗粒物(PM10),52,54,70,35,39,120,,107,107,6,24,6,10,0.6,0.9
2025-04-07T1700,2351A,113.866,27.6198,萍乡市,安源区政府,颗粒物(PM10),55,59,68,30,34,121,,107,107,7,20,10,11,0.4,0.7
2025-04-07T1700,2319A,119.0141,25.4325,莆田市,荔城区仓后路,颗粒物(PM10),62,74,58,28,28,154,,152,152,13,15,4,3,0.8,0.7
2025-04-07T1700,2320A,119.0015,25.4553,莆田市,莆田市监测站,颗粒物(PM10),64,77,49,32,26,159,,158,158,13,9,6,4,0.6,0.4
2025-04-07T1700,2321A,119.1119,25.4561,莆田市,涵江区六中,颗粒物(PM10),54,58,59,26,26,158,,159,159,11,16,5,4,0.7,0.7
2025-04-07T1700,2322A,119.1013,25.3215,莆田市,秀屿区政府,颗粒物(PM10),55,59,56,28,25,162,,160,160,13,16,4,5,0.5,0.6
2025-04-07T1700,2323A,118.981,25.4792,莆田市,东圳水库,,,,,,,,,,,,,,,,
2025-04-07T1700,2392A,115.0312,35.7636,濮阳市,环保局,颗粒物(PM10),82,114,112,38,42,158,,130,130,11,16,8,8,0.5,0.5
2025-04-07T1700,2394A,115.0574,35.7609,濮阳市,油田运输公司,颗粒物(PM10),79,108,110,37,38,173,,143,143,12,16,7,7,0.7,0.7
2025-04-07T1700,3021A,115,35.7668,濮阳市,濮水河管理处,颗粒物(PM10),86,121,124,42,48,167,,138,138,14,22,7,8,0.8,0.8
2025-04-07T1700,4216A,115.0924,35.7686,濮阳市,任丘路479号,颗粒物(PM10),86,122,125,42,42,176,,146,146,7,15,6,7,1.0,1
2025-04-07T1700,2601A,100.98,22.7633,普洱市,市环保局,颗粒物(PM10),67,84,86,41,41,91,,88,88,8,9,6,5,0.8,0.8
2025-04-07T1700,2602A,100.9817,22.8322,普洱市,普洱第二中学,颗粒物(PM10),56,61,69,39,49,80,,79,79,9,11,7,6,0.8,0.8
2025-04-07T1700,2262A,131.0518,45.8751,七台河市,新一中,,39,20,26,14,17,124,,126,126,11,15,12,12,0.9,1
2025-04-07T1700,3345A,131.0577,45.7879,七台河市,中波台,,33,27,31,13,21,104,,102,102,20,27,5,10,0.4,0.5
2025-04-07T1700,3637A,131.0176,45.7761,七台河市,人民广场,,39,30,36,27,23,112,,109,109,20,29,9,10,0.6,0.6
2025-04-07T1700,3684A,130.8781,45.8222,七台河市,新建矿广场,,48,48,46,18,20,109,,108,108,16,25,6,8,0.4,0.6
2025-04-07T1700,1779A,123.9305,47.3636,齐齐哈尔市,安居小区,细颗粒物(PM2.5),94,86,57,70,30,96,,94,94,19,17,3,2,0.6,0.5
2025-04-07T1700,1780A,123.9488,47.3386,齐齐哈尔市,中心广场,细颗粒物(PM2.5),70,79,65,51,31,93,,89,89,20,18,7,6,0.6,0.5
2025-04-07T1700,1781A,123.9483,47.3227,齐齐哈尔市,农牧车辆厂,颗粒物(PM10),111,171,53,31,25,94,,95,95,22,14,5,5,0.3,0.2
2025-04-07T1700,1783A,123.945,47.2988,齐齐哈尔市,市环境监测站,颗粒物(PM10),54,58,50,36,30,95,,92,92,17,14,4,3,0.5,0.4
2025-04-07T1700,3662A,123.6333,47.2075,齐齐哈尔市,富区青少年活动中心,,,58,53,53,38,60,,81,81,,11,5,2,,0.5
2025-04-07T1700,2591A,107.9783,26.5747,黔东南苗族侗族自治州,市环境监测站,细颗粒物(PM2.5),77,75,84,56,59,86,,57,57,11,21,2,3,0.6,0.6
2025-04-07T1700,2881A,107.8908,26.5311,黔东南苗族侗族自治州,凯里学院,细颗粒物(PM2.5),80,,68,59,53,87,,50,50,6,15,2,2,0.6,0.6
2025-04-07T1700,2593A,107.5228,26.2403,黔南布依族苗族自治州,小围寨,,,,55,,44,,,69,,,10,,5,,0.5
2025-04-07T1700,3538A,107.5175,26.2978,黔南布依族苗族自治州,沙坝,细颗粒物(PM2.5),62,63,66,44,48,72,,75,75,12,13,4,4,0.8,0.7
2025-04-07T1700,2589A,104.9022,25.0925,黔西南布依族苗族自治州,场坝街,,35,34,29,24,21,66,,57,57,10,11,3,6,0.6,0.6
2025-04-07T1700,2590A,104.8811,25.0992,黔西南布依族苗族自治州,坪东大道,,37,37,37,19,25,60,,53,52,12,14,3,3,0.5,0.5
2025-04-07T1700,2502A,108.6236,21.9667,钦州市,市环保站,颗粒物(PM10),53,56,116,27,73,106,,81,81,23,36,10,14,0.6,1
2025-04-07T1700,2503A,108.6549,21.9481,钦州市,沙埠小学,,50,50,111,21,66,103,,79,79,13,33,7,13,0.8,1
2025-04-07T1700,2504A,108.5989,21.7431,钦州市,港区一小,颗粒物(PM10),100,150,109,48,63,61,,71,71,62,37,27,10,1.3,1.1
2025-04-07T1700,3404A,108.5959,21.9633,钦州市,北职校,颗粒物(PM10),52,54,110,32,83,111,,76,76,23,33,10,11,0.8,1.2
2025-04-07T1700,1043A,119.7493,40.0116,秦皇岛市,第一关,细颗粒物(PM2.5),87,116,74,64,44,78,,85,85,45,63,6,8,0.5,0.4
2025-04-07T1700,1044A,119.5897,39.9499,秦皇岛市,监测站,细颗粒物(PM2.5),78,100,74,57,37,84,,80,80,43,45,5,7,0.5,0.5
