timepoint,stationcode,longitude,latitude,area,positionname,primarypollutant,aqi,pm10,pm10_24h,pm2_5,pm2_5_24h,o3,o3_24h,o3_8h,o3_8h_24h,no2,no2_24h,so2,so2_24h,co,co_24h
2025-04-07T1300,2566A,102.1879,31.914,阿坝藏族羌族自治州,州农科所,,29,12,21,6,11,91,,54,54,5,9,12,12,0.4,0.4
2025-04-07T1300,2568A,102.2502,31.8896,阿坝藏族羌族自治州,马师校,,,15,23,7,15,100,,49,49,6,12,5,5,,0.4
2025-04-07T1300,3994A,102.2165,31.9024,阿坝藏族羌族自治州,马尔康中学西区,,33,12,23,10,12,104,,54,54,9,14,3,3,0.8,0.5
2025-04-07T1300,2695A,80.292,41.1694,阿克苏地区,电视台,颗粒物(PM10),181,312,339,65,71,91,,76,76,6,18,9,6,0.5,0.4
2025-04-07T1300,2696A,80.2613,41.1551,阿克苏地区,艺术中心,颗粒物(PM10),202,351,294,75,70,89,,62,62,5,19,,3,0.3,0.5
2025-04-07T1300,2204A,105.6467,38.8363,阿拉善盟,西城区西花园,颗粒物(PM10),59,68,102,22,30,118,,100,100,3,7,9,11,0.6,0.7
2025-04-07T1300,2205A,105.6985,38.8411,阿拉善盟,蒙二幼,颗粒物(PM10),73,95,114,30,36,103,,91,91,7,8,6,6,0.4,0.4
2025-04-07T1300,2206A,105.724,38.8516,阿拉善盟,环保局新楼,颗粒物(PM10),70,90,113,32,39,106,,103,100,4,4,9,8,0.6,0.6
2025-04-07T1300,2708A,88.1264,47.8517,阿勒泰地区,市站,,27,27,24,3,6,80,,94,82,11,7,4,3,0.5,0.5
2025-04-07T1300,2630A,80.1161,32.5,阿里地区,阿里监测站,,29,13,8,6,4,91,,82,72,8,8,9,8,0.4,0.4
2025-04-07T1300,3192A,80.0903,32.5028,阿里地区,阿里藏医院,,32,9,12,3,4,102,,94,80,2,6,6,8,0.4,0.4
2025-04-07T1300,2642A,109.0318,32.6537,安康市,香溪洞,颗粒物(PM10),57,63,58,30,29,114,,92,91,5,6,6,7,0.6,0.6
2025-04-07T1300,2644A,109.0072,32.6975,安康市,汉滨区检察院,颗粒物(PM10),60,69,80,30,32,124,,60,60,7,18,9,12,0.3,0.4
2025-04-07T1300,4054A,109.0325,32.6913,安康市,市邮政管理局,颗粒物(PM10),60,70,78,32,32,125,,59,59,8,19,7,11,0.5,0.6
2025-04-07T1300,2291A,117.0809,30.5177,安庆市,环科院,颗粒物(PM10),63,75,74,38,29,111,,57,57,23,64,10,9,0.6,0.5
2025-04-07T1300,2292A,117.0331,30.5119,安庆市,马山宾馆,颗粒物(PM10),59,68,68,34,28,125,,25,,22,58,7,6,0.4,0.3
2025-04-07T1300,2294A,116.9896,30.6145,安庆市,安庆大学,颗粒物(PM10),61,71,76,30,27,154,,87,87,12,33,8,6,0.4,0.5
2025-04-07T1300,3173A,117.0598,30.5351,安庆市,市人大,颗粒物(PM10),64,78,75,34,34,125,,67,67,16,50,12,8,0.5,0.5
2025-04-07T1300,3122A,105.9606,26.2611,安顺市,伍家关,,38,28,54,26,39,66,,44,44,9,13,7,7,0.9,0.9
2025-04-07T1300,3123A,105.9408,26.2431,安顺市,凤凰山,,36,36,63,24,47,70,,49,49,11,16,9,11,0.7,0.6
2025-04-07T1300,3124A,105.9439,26.2564,安顺市,金钟山,,38,36,60,26,46,72,,49,49,11,15,6,8,0.8,0.8
2025-04-07T1300,3125A,105.8983,26.2481,安顺市,娄家坡,,45,36,57,31,47,74,,50,50,9,13,5,7,0.9,0.9
2025-04-07T1300,1818A,114.4839,36.0621,安阳市,棉研所,,,,,,,,,,,,,,,,
2025-04-07T1300,1819A,114.3551,36.1017,安阳市,红庙街,颗粒物(PM10),104,158,145,70,50,120,,55,55,20,24,17,10,1.2,0.7
2025-04-07T1300,1820A,114.361,36.0681,安阳市,银杏小区,颗粒物(PM10),112,173,146,80,68,122,,54,54,21,31,20,10,1.0,0.4
2025-04-07T1300,3141A,114.3922,36.0878,安阳市,信访局,颗粒物(PM10),107,164,155,77,62,127,,52,52,19,31,16,7,1.2,0.6
2025-04-07T1300,3669A,114.4705,36.0637,安阳市,左辅环卫站,颗粒物(PM10),102,154,144,57,54,104,,61,61,19,11,11,7,0.5,0.4
2025-04-07T1300,3703A,114.2917,36.0949,安阳市,安钢职工学校,细颗粒物(PM2.5),165,184,154,125,62,114,,60,60,36,28,16,9,1.3,0.8
2025-04-07T1300,1748A,123.044,41.1196,鞍山市,深沟寺,细颗粒物(PM2.5),62,71,50,44,32,137,,114,114,16,15,13,10,0.6,0.6
2025-04-07T1300,1749A,123.011,41.0931,鞍山市,太阳城,,,70,49,40,32,128,,113,113,17,13,8,4,,0.6
2025-04-07T1300,1750A,123.0485,41.1442,鞍山市,太平,颗粒物(PM10),78,105,65,46,33,126,,108,108,15,18,12,9,0.9,0.6
2025-04-07T1300,1751A,122.9642,41.0971,鞍山市,铁西三道街,颗粒物(PM10),67,84,60,44,35,137,,105,105,19,25,8,7,0.8,0.7
2025-04-07T1300,1753A,123.022,41.0821,鞍山市,明达新区,细颗粒物(PM2.5),62,68,46,44,31,136,,117,117,12,10,9,7,0.6,0.5
2025-04-07T1300,1754A,123.1289,41.0228,鞍山市,千山,,,,34,,18,,,93,,,11,,4,,0.8
2025-04-07T1300,4201A,122.9446,41.0826,鞍山市,兴盛南路290号,颗粒物(PM10),75,100,65,45,34,138,,114,114,21,27,13,10,0.7,0.7
2025-04-07T1300,2195A,107.4212,40.761,巴彦淖尔市,附二中,颗粒物(PM10),70,90,103,13,30,104,,83,83,5,9,10,10,0.3,0.3
2025-04-07T1300,2196A,107.37,40.7372,巴彦淖尔市,市环保大楼,颗粒物(PM10),68,86,104,24,35,101,,81,81,6,9,7,7,0.2,0.2
2025-04-07T1300,1956A,86.1472,41.7538,巴音郭楞蒙古自治州,孔雀公园,颗粒物(PM10),128,206,217,55,50,96,,84,67,11,18,6,6,0.3,0.3
2025-04-07T1300,1957A,86.1972,41.7166,巴音郭楞蒙古自治州,棉纺厂,颗粒物(PM10),155,260,283,66,51,91,,68,55,12,24,6,5,0.2,0.3
2025-04-07T1300,1958A,86.2357,41.7173,巴音郭楞蒙古自治州,经济开发区,颗粒物(PM10),147,244,226,46,41,96,,89,78,9,9,8,5,0.2,0.2
2025-04-07T1300,2914A,106.7677,31.8794,巴中市,苏山坪,颗粒物(PM10),51,52,56,23,26,119,,82,82,9,13,4,4,0.3,0.4
2025-04-07T1300,3181A,106.7768,31.8526,巴中市,市五中,,48,48,59,20,29,120,,47,47,6,21,6,6,0.4,0.5
2025-04-07T1300,3183A,106.7418,31.8654,巴中市,圣泉水务公司,颗粒物(PM10),51,51,53,23,25,124,,57,57,2,21,4,3,0.3,0.4
2025-04-07T1300,3616A,106.7616,31.8344,巴中市,市中心医院,,50,48,56,35,34,120,,50,50,6,21,7,6,0.5,0.6
2025-04-07T1300,2235A,122.7911,45.6077,白城市,洮北区环保局,细颗粒物(PM2.5),54,51,43,38,32,85,,67,67,13,12,4,2,0.8,0.7
2025-04-07T1300,2236A,122.8738,45.5725,白城市,市环保局,细颗粒物(PM2.5),60,48,41,43,37,90,,66,66,13,14,6,4,0.6,0.5
2025-04-07T1300,2231A,126.4219,41.9171,白山市,喜丰,,31,23,33,9,18,98,,54,54,11,19,7,6,1.1,1.3
2025-04-07T1300,2232A,126.4077,41.9419,白山市,环保局,,32,,38,22,21,95,,55,55,11,18,6,6,0.9,1
2025-04-07T1300,2647A,104.1724,36.5446,白银市,第三小学,颗粒物(PM10),57,63,93,32,34,124,,79,79,8,18,12,24,0.6,0.8
2025-04-07T1300,2648A,104.1465,36.5482,白银市,动力公司,颗粒物(PM10),59,68,85,32,33,127,,78,78,10,18,9,18,0.4,0.6
2025-04-07T1300,2512A,106.6103,23.9011,百色市,市监测站,细颗粒物(PM2.5),98,91,98,73,73,71,,74,68,18,17,12,12,1.2,1.1
2025-04-07T1300,2513A,106.6538,23.8859,百色市,市中心血站,细颗粒物(PM2.5),115,90,100,87,86,71,,76,70,17,16,12,14,1.0,1
2025-04-07T1300,3406A,106.6085,23.8798,百色市,祈福高中,细颗粒物(PM2.5),115,100,106,87,81,65,,73,67,19,18,8,8,1.1,1.1
2025-04-07T1300,2270A,117.396,32.939,蚌埠市,工人疗养院,颗粒物(PM10),67,84,89,21,24,148,,118,118,12,15,6,7,0.6,0.6
2025-04-07T1300,2271A,117.3605,32.9427,蚌埠市,百货大楼,颗粒物(PM10),62,73,88,20,25,136,,108,108,15,24,6,8,0.4,0.5
2025-04-07T1300,2273A,117.4185,32.8911,蚌埠市,蚌埠学院,颗粒物(PM10),74,97,90,34,27,147,,111,111,11,15,6,6,0.6,0.5
2025-04-07T1300,2274A,117.3533,32.9673,蚌埠市,淮上区政府,颗粒物(PM10),64,78,85,28,31,147,,114,114,13,19,6,8,0.3,0.4
2025-04-07T1300,2275A,117.3145,32.8977,蚌埠市,高新区,颗粒物(PM10),64,78,89,25,28,143,,98,98,7,17,6,9,0.5,0.5
2025-04-07T1300,3715A,117.3092,32.9314,蚌埠市,蚌埠田家炳中学,颗粒物(PM10),71,92,96,26,32,145,,100,100,16,24,6,16,0.3,0.4
2025-04-07T1300,1585A,109.8756,40.6532,包头市,市环境监测站,,42,42,109,10,31,106,,87,87,15,23,14,13,0.6,0.6
2025-04-07T1300,1587A,109.9991,40.5842,包头市,包头八中,,43,43,128,23,41,122,,90,90,11,35,13,12,0.5,0.5
2025-04-07T1300,1588A,109.8538,40.6821,包头市,青山宾馆,,32,32,95,13,31,99,,86,86,11,24,10,12,0.4,0.6
2025-04-07T1300,1589A,109.8642,40.6288,包头市,惠龙物流,,49,49,101,19,28,112,,90,90,13,20,12,11,0.5,0.6
2025-04-07T1300,1590A,110.0377,40.5546,包头市,东河鸿龙湾,,50,50,131,18,40,133,,89,89,10,25,10,12,0.5,0.5
2025-04-07T1300,3283A,109.9154,40.5685,包头市,滨河大厦,,44,44,121,9,41,119,,92,92,11,25,12,17,0.7,0.7
2025-04-07T1300,3419A,109.9447,40.6261,包头市,包头市委党校,,46,46,99,19,28,115,,94,94,10,23,10,8,0.4,0.5
2025-04-07T1300,3683A,109.8331,40.6576,包头市,昆区政府,,32,31,96,14,31,101,,85,85,14,21,10,10,0.4,0.5
2025-04-07T1300,1930A,107.185,34.3063,宝鸡市,庙沟村,,48,48,69,23,27,126,,103,103,7,10,6,7,0.4,0.4
2025-04-07T1300,1931A,107.0708,34.3017,宝鸡市,竹园沟,细颗粒物(PM2.5),75,66,74,55,28,126,,101,101,8,12,7,7,0.4,0.4
2025-04-07T1300,1932A,107.1906,34.3672,宝鸡市,三陆医院,颗粒物(PM10),52,53,93,21,35,126,,66,66,8,34,9,8,0.5,0.6
2025-04-07T1300,1933A,107.1431,34.3547,宝鸡市,监测站,,,,97,,37,121,,75,75,4,27,8,8,0.3,0.5
2025-04-07T1300,1934A,107.1186,34.3739,宝鸡市,技工学校,颗粒物(PM10),59,68,88,28,34,121,,88,88,7,16,5,7,0.3,0.4
2025-04-07T1300,1935A,107.3906,34.3528,宝鸡市,陈仓区环保局家属楼,颗粒物(PM10),53,55,100,19,36,126,,78,78,12,35,11,23,0.5,0.7
2025-04-07T1300,1936A,107.2058,34.3497,宝鸡市,文理学院,"颗粒物(PM10),细颗粒物(PM2.5)",53,56,86,37,44,128,,76,76,11,26,9,7,0.4,0.5
2025-04-07T1300,1937A,107.2386,34.3622,宝鸡市,三迪小学,颗粒物(PM10),67,83,99,29,48,120,,60,60,17,41,16,9,0.5,0.6
2025-04-07T1300,1051A,115.493,38.8632,保定市,游泳馆,,,114,123,73,80,136,,95,95,31,40,,16,0.8,0.6
2025-04-07T1300,1052A,115.5213,38.8959,保定市,华电二区,细颗粒物(PM2.5),68,78,110,49,74,133,,87,87,23,40,5,4,1.4,0.8
2025-04-07T1300,1053A,115.4713,38.9108,保定市,接待中心,细颗粒物(PM2.5),127,103,115,96,101,129,,89,89,23,35,8,7,0.8,0.6
2025-04-07T1300,1054A,115.4612,38.8416,保定市,地表水厂,细颗粒物(PM2.5),89,123,123,66,63,141,,101,101,30,34,10,8,0.9,0.7
2025-04-07T1300,3581A,115.31981,38.95208,保定市,满城区生态环境分局,细颗粒物(PM2.5),92,114,121,68,80,134,,96,96,33,43,8,5,0.8,0.6
2025-04-07T1300,3582A,115.47694,38.76408,保定市,清苑区第二中学,颗粒物(PM10),100,149,138,60,68,138,,93,93,34,39,11,10,0.8,0.6
2025-04-07T1300,3583A,115.62909,39.02311,保定市,徐水物探局,颗粒物(PM10),83,116,119,56,64,143,,91,91,22,40,14,12,0.8,0.6
2025-04-07T1300,4004A,115.4202,38.8656,保定市,双鹰农机,细颗粒物(PM2.5),93,106,121,69,65,139,,100,100,31,43,10,9,0.6,0.5
2025-04-07T1300,4034A,115.5150,38.8590,保定市,植保所站,细颗粒物(PM2.5),135,,122,103,87,131,,84,84,26,39,8,6,0.8,0.5
2025-04-07T1300,2594A,99.1678,25.1081,保山市,市环境监测站,颗粒物(PM10),55,60,59,37,42,141,,90,90,9,12,5,7,0.5,0.5
2025-04-07T1300,2595A,99.1711,25.1328,保山市,市环保局,,,66,63,38,41,147,,111,108,,11,6,5,0.5,0.6
2025-04-07T1300,1866A,109.2262,21.588,北海市,牛尾岭水库,,,59,50,57,42,63,,52,52,,12,7,7,0.7,0.7
2025-04-07T1300,1867A,109.1436,21.4086,北海市,海滩公园,"颗粒物(PM10),细颗粒物(PM2.5)",59,67,61,42,32,85,,86,78,19,18,11,9,0.8,0.8
2025-04-07T1300,1868A,109.0981,21.4661,北海市,新市环保局,颗粒物(PM10),63,75,64,44,43,77,,88,77,30,21,12,7,0.8,0.5
2025-04-07T1300,1869A,109.1778,21.5233,北海市,北海工业园,细颗粒物(PM2.5),77,81,76,56,50,68,,74,63,26,20,18,12,0.5,0.5
2025-04-07T1300,3400A,109.1911,21.4415,北海市,龙潭自来水厂,细颗粒物(PM2.5),74,59,57,54,41,79,,78,66,21,16,13,9,0.8,0.7
2025-04-07T1300,1001A,116.3621,39.8784,北京市,万寿西宫,颗粒物(PM10),51,51,106,25,55,108,,82,79,13,39,7,14,0.4,0.9
2025-04-07T1300,1002A,116.2202,40.2915,北京市,定陵,,,,,,,,,,,,,,,,
2025-04-07T1300,1003A,116.4174,39.9289,北京市,东四,颗粒物(PM10),57,64,115,25,65,101,,76,76,8,34,7,15,0.4,0.9
2025-04-07T1300,1004A,116.4072,39.8863,北京市,天坛,颗粒物(PM10),52,54,101,27,54,98,,65,65,13,35,2,7,0.6,1.1
2025-04-07T1300,1005A,116.462,39.9365,北京市,农展馆,,50,50,101,22,52,99,,68,68,13,38,8,14,0.5,1
2025-04-07T1300,1006A,116.3392,39.9295,北京市,官园,细颗粒物(PM2.5),102,,110,76,61,81,,62,61,11,34,7,14,0.4,0.8
2025-04-07T1300,1007A,116.2878,39.9611,北京市,海淀万柳,,44,44,102,14,50,85,,55,55,14,40,5,10,0.8,1
2025-04-07T1300,1008A,116.6636,40.135,北京市,顺义新城,颗粒物(PM10),58,66,108,29,52,114,,93,93,13,27,9,14,0.5,0.8
2025-04-07T1300,1009A,116.6275,40.3275,北京市,怀柔镇,"颗粒物(PM10),细颗粒物(PM2.5)",77,104,101,56,52,123,,99,99,20,21,8,10,0.6,0.7
2025-04-07T1300,1010A,116.2296,40.217,北京市,昌平镇,,44,44,102,15,46,89,,85,75,20,28,3,7,0.3,0.6
2025-04-07T1300,1011A,116.3966,39.9821,北京市,奥体中心,,50,50,101,18,49,98,,58,58,13,47,4,10,0.5,1
2025-04-07T1300,3281A,115.9718,40.4529,北京市,延庆夏都,,45,,99,31,59,99,,71,65,8,26,6,11,0.3,0.7
2025-04-07T1300,3418A,116.8336,40.4095,北京市,密云新城,,32,30,96,11,45,100,,96,96,7,20,5,11,0.3,0.7
2025-04-07T1300,3671A,116.088,39.9726,北京市,门头沟三家店,颗粒物(PM10),51,51,166,11,63,77,,47,47,14,53,5,8,0.2,0.7
2025-04-07T1300,3672A,116.1541,39.8204,北京市,丰台云岗,,46,46,112,30,61,101,,72,72,16,44,8,12,0.4,0.7
2025-04-07T1300,3673A,116.6804,39.9081,北京市,通州东关,细颗粒物(PM2.5),78,67,128,57,58,97,,72,72,23,54,7,14,0.3,0.9
2025-04-07T1300,3674A,115.9577,39.7603,北京市,房山燕山,,30,17,113,9,61,93,,73,73,7,38,3,9,0.2,0.6
2025-04-07T1300,3675A,116.4672,39.7733,北京市,大兴旧宫,颗粒物(PM10),55,59,104,24,51,91,,58,58,10,37,1,6,0.2,0.7
2025-04-07T1300,3694A,115.986,40.4563,北京市,延庆石河营,,31,29,95,7,49,98,,64,62,6,25,4,8,0.4,0.7
2025-04-07T1300,3695A,116.6151,40.3053,北京市,怀柔新城,细颗粒物(PM2.5),74,96,94,54,50,123,,102,102,22,24,10,12,0.8,0.9
2025-04-07T1300,3696A,116.2545,39.8768,北京市,丰台小屯,颗粒物(PM10),51,51,100,34,54,90,,70,70,13,36,3,9,0.2,0.7
2025-04-07T1300,3697A,116.84,40.3844,北京市,密云镇,,33,32,100,13,47,105,,83,83,7,27,7,12,0.4,0.7
2025-04-07T1300,4182A,116.1942,39.9158,北京市,八角北路9号,颗粒物(PM10),52,54,111,20,50,103,,69,69,15,47,4,9,0.1,0.6
2025-04-07T1300,4194A,117.0790,40.1518,北京市,洳河巡河路,,32,23,91,8,48,102,,100,85,5,22,3,9,0.3,0.7
2025-04-07T1300,1761A,123.8275,41.3064,本溪市,大峪,,48,48,62,28,42,127,,82,82,13,25,8,9,0.5,0.6
2025-04-07T1300,1762A,123.7567,41.3325,本溪市,溪湖,颗粒物(PM10),51,51,65,26,44,123,,91,91,17,31,18,10,1.3,0.9
2025-04-07T1300,1763A,123.7169,41.3094,本溪市,彩屯,颗粒物(PM10),55,60,72,29,50,115,,82,82,24,35,18,12,1.8,1.6
2025-04-07T1300,1764A,123.7669,41.2864,本溪市,东明,颗粒物(PM10),58,65,67,22,34,120,,81,81,12,30,15,13,0.6,0.9
2025-04-07T1300,1765A,123.7992,41.2664,本溪市,新立屯,颗粒物(PM10),51,51,47,22,37,124,,99,99,14,29,8,7,0.7,0.8
2025-04-07T1300,1766A,123.8142,41.3472,本溪市,威宁,颗粒物(PM10),75,100,86,48,52,125,,74,74,5,22,6,5,0.7,0.8
2025-04-07T1300,2587A,105.2864,27.3125,毕节市,八中,,32,22,16,22,15,74,,41,41,10,9,17,15,0.7,0.7
2025-04-07T1300,2588A,105.31,27.2944,毕节市,师专,,,26,16,23,14,72,,42,42,,11,11,6,0.6,0.7
2025-04-07T1300,4263A,105.3688,27.3598,毕节市,工业大道,,29,24,18,20,15,78,,46,46,11,13,10,8,0.7,0.7
2025-04-07T1300,1629A,118.0018,37.3617,滨州市,第二水厂,颗粒物(PM10),112,173,132,56,39,140,,81,81,11,34,13,12,0.9,0.7
2025-04-07T1300,1630A,117.9776,37.393,滨州市,北中新校,细颗粒物(PM2.5),98,141,115,73,48,150,,92,92,16,46,19,14,0.6,0.6
2025-04-07T1300,3514A,117.9378,37.3956,滨州市,中海酒店,细颗粒物(PM2.5),92,129,104,68,48,142,,101,101,14,28,16,12,0.6,0.6
2025-04-07T1300,3515A,117.9378,37.3553,滨州市,开发区一中,颗粒物(PM10),152,254,133,56,39,139,,84,84,22,46,24,15,0.7,0.5
2025-04-07T1300,3516A,118.0917,37.694,滨州市,金海六路,颗粒物(PM10),106,161,126,63,44,145,,88,88,15,36,15,12,0.5,0.6
2025-04-07T1300,4028A,117.9956,37.3753,滨州市,滨州市西街道办事处,颗粒物(PM10),104,158,131,61,53,151,,88,88,14,42,16,11,0.6,0.7
2025-04-07T1300,2311A,115.8072,33.8399,亳州市,污水处理厂,颗粒物(PM10),85,119,118,29,34,158,,129,129,7,12,4,5,0.4,0.4
2025-04-07T1300,2312A,115.7789,33.8518,亳州市,三国揽胜宫,颗粒物(PM10),74,98,111,28,36,156,,132,132,2,8,5,6,0.4,0.5
2025-04-07T1300,3332A,115.7633,33.8034,亳州市,亳州学院,颗粒物(PM10),69,88,112,24,31,153,,126,126,6,10,7,8,0.4,0.4
2025-04-07T1300,2693A,82.0485,44.8556,博尔塔拉蒙古自治州,市党校,,29,29,27,19,13,65,,47,36,34,29,2,2,0.3,0.3
2025-04-07T1300,2694A,82.0806,44.8969,博尔塔拉蒙古自治州,市环保局,,39,39,44,16,19,88,,50,50,16,17,2,3,0.4,0.4
2025-04-07T1300,1071A,116.8842,38.2991,沧州市,沧县城建局,颗粒物(PM10),89,127,128,59,59,144,,69,69,20,44,9,9,0.7,0.7
2025-04-07T1300,1072A,116.8584,38.3254,沧州市,电视转播站,细颗粒物(PM2.5),110,146,121,83,69,154,,70,70,20,41,11,10,0.4,0.4
2025-04-07T1300,1073A,116.8709,38.3228,沧州市,市环保局,颗粒物(PM10),85,120,118,60,58,152,,73,73,18,38,11,11,0.5,0.5
2025-04-07T1300,3324A,116.8136,38.3004,沧州市,河北水利电力学院,颗粒物(PM10),108,166,140,61,61,143,,71,71,20,39,11,12,0.5,0.6
2025-04-07T1300,2622A,97.1806,31.1273,昌都市,昌都监测站,,37,18,23,6,12,116,,75,75,3,6,2,2,0.3,0.3
2025-04-07T1300,3719A,97.1714,31.1406,昌都市,昌都会议中心,,38,19,23,19,16,119,,82,82,5,6,4,3,0.3,0.3
2025-04-07T1300,2690A,88.1236,43.8886,昌吉回族自治州,天山天池,,33,,11,22,4,104,,90,90,6,6,4,4,0.5,0.5
2025-04-07T1300,2692A,87.2717,44.0297,昌吉回族自治州,新区政务中心,,34,18,21,3,9,108,,55,55,8,23,6,5,0.4,0.5
2025-04-07T1300,3613A,87.3095,44.0142,昌吉回族自治州,亚心广场,,31,24,29,9,6,99,,44,44,15,33,9,7,0.5,0.6
2025-04-07T1300,1119A,125.3325,43.9166,长春市,食品厂,,48,48,55,24,44,107,,72,72,9,24,8,7,0.5,0.6
2025-04-07T1300,1120A,125.2863,43.9027,长春市,客车厂,,33,31,45,23,46,101,,70,70,12,23,5,5,0.5,0.6
2025-04-07T1300,1121A,125.2841,43.8463,长春市,邮电学院,,39,39,49,24,47,102,,70,70,11,22,6,6,0.4,0.5
2025-04-07T1300,1122A,125.3716,43.8772,长春市,劳动公园,,38,38,46,20,41,104,,69,69,9,20,7,7,0.5,0.5
2025-04-07T1300,1123A,125.3297,43.8805,长春市,园林处,,39,39,47,20,41,102,,70,70,10,20,6,6,0.5,0.6
2025-04-07T1300,1124A,125.4605,43.79,长春市,净月潭,,34,34,46,19,38,103,,68,68,7,13,6,6,0.4,0.5
2025-04-07T1300,1125A,125.7194,43.515,长春市,甩湾子,,,,,,,,,,,,,,,,
2025-04-07T1300,1126A,125.3863,43.8447,长春市,经开区环卫处,,41,41,49,18,41,100,,66,66,8,20,5,6,0.5,0.6
2025-04-07T1300,1127A,125.245,43.7783,长春市,高新区管委会,,35,35,41,22,41,98,,66,66,11,22,7,7,0.5,0.6
2025-04-07T1300,1128A,125.1761,43.8325,长春市,岱山公园,,38,38,46,25,44,106,,70,70,12,26,5,4,0.5,0.5
2025-04-07T1300,1335A,113.0833,28.2325,长沙市,经开区环保局,,,,,,,,,,,,,,,,
2025-04-07T1300,1336A,112.8872,28.2189,长沙市,高开区环保局,颗粒物(PM10),80,110,113,56,51,97,,68,68,19,52,13,10,1.0,1.1
2025-04-07T1300,1337A,113.0792,28.2053,长沙市,马坡岭,颗粒物(PM10),78,106,110,50,51,102,,64,64,18,47,12,8,0.6,0.6
2025-04-07T1300,1338A,112.9394,28.19,长沙市,湖南师范大学,细颗粒物(PM2.5),82,90,92,60,43,90,,56,56,27,27,15,8,1.1,0.9
2025-04-07T1300,1339A,113.0178,28.1322,长沙市,雨花区环保局,颗粒物(PM10),74,97,105,50,45,98,,53,53,19,50,13,10,0.7,0.8
2025-04-07T1300,1340A,112.9792,28.2597,长沙市,伍家岭,颗粒物(PM10),85,119,123,52,52,90,,33,33,30,52,14,6,1.2,1
2025-04-07T1300,1341A,113.0014,28.1944,长沙市,火车新站,颗粒物(PM10),83,115,132,53,63,98,,44,44,22,61,16,10,1.1,1.2
2025-04-07T1300,1342A,112.9844,28.1178,长沙市,天心区环保局,细颗粒物(PM2.5),77,102,107,56,54,104,,66,66,21,49,12,8,0.8,0.9
2025-04-07T1300,1343A,112.8908,28.1308,长沙市,湖南中医药大学,颗粒物(PM10),79,108,114,48,55,94,,35,35,20,53,11,6,1.2,1.1
2025-04-07T1300,1344A,112.9581,28.3611,长沙市,沙坪,细颗粒物(PM2.5),70,85,70,51,44,95,,65,65,23,21,14,9,1.2,1
2025-04-07T1300,1727A,113.1147,36.1547,长治市,清华站,颗粒物(PM10),72,94,98,31,32,128,,68,68,14,30,7,9,0.6,0.7
2025-04-07T1300,1730A,113.0886,36.2125,长治市,审计局,颗粒物(PM10),68,86,92,31,34,124,,59,59,14,30,8,10,0.2,0.4
2025-04-07T1300,1731A,113.0844,36.1856,长治市,长治八中,,,118,119,46,43,129,,61,61,17,29,,9,0.3,0.5
2025-04-07T1300,2845A,113.1569,36.1911,长治市,德盛苑,颗粒物(PM10),75,99,93,34,32,126,,103,98,10,13,4,7,0.6,0.7
2025-04-07T1300,3568A,113.06,36.0464,长治市,向阳小学,颗粒物(PM10),77,104,103,32,36,134,,106,106,11,17,8,12,0.3,0.5
2025-04-07T1300,3569A,112.8792,36.3144,长治市,屯留一中,颗粒物(PM10),72,93,98,32,37,121,,55,55,21,40,20,10,0.6,0.7
2025-04-07T1300,4189A,113.1131,36.19948,长治市,英华南巷50号,颗粒物(PM10),76,102,99,31,37,129,,67,67,15,25,6,7,0.3,0.5
2025-04-07T1300,4190A,113.2367,36.3344,长治市,学府街1号,细颗粒物(PM2.5),108,140,124,81,53,133,,61,61,14,41,15,11,0.7,0.8
2025-04-07T1300,1854A,111.6975,28.9703,常德市,市二中,颗粒物(PM10),65,79,91,40,40,95,,58,57,10,20,7,7,0.6,0.6
2025-04-07T1300,1857A,111.7158,29.1456,常德市,白鹤山,,,,,,,,,,,,,,,,
2025-04-07T1300,3138A,111.7153,29.0289,常德市,武陵区永安,颗粒物(PM10),75,100,106,41,41,104,,60,60,11,20,6,6,0.6,0.6
2025-04-07T1300,3139A,111.6892,28.9881,常德市,鼎城区玉霞,颗粒物(PM10),73,95,96,37,40,108,,52,52,7,23,7,6,0.6,0.6
2025-04-07T1300,3140A,111.6625,29.0531,常德市,武陵区长庚,颗粒物(PM10),71,92,102,41,40,106,,68,68,8,19,7,7,0.6,0.6
2025-04-07T1300,1196A,119.9633,31.762,常州市,市监测站,臭氧1小时,90,72,119,43,59,192,,129,129,29,41,9,10,0.6,0.8
2025-04-07T1300,1200A,119.9468,31.7069,常州市,武进监测站,臭氧1小时,94,85,106,51,47,195,,134,134,26,29,17,10,0.5,0.6
2025-04-07T1300,1201A,119.9255,31.9087,常州市,安家,臭氧1小时,80,64,101,39,53,184,,133,133,17,28,12,10,0.2,0.3
2025-04-07T1300,3002A,119.9805,31.8174,常州市,行政中心,臭氧1小时,93,58,92,41,52,194,,137,137,19,28,14,15,0.5,0.6
2025-04-07T1300,3003A,120.0522,31.7748,常州市,经开区,臭氧1小时,104,98,106,48,52,207,,138,138,31,37,16,14,1.3,1
2025-04-07T1300,3010A,119.9025,31.7964,常州市,钟楼,臭氧1小时,101,86,106,46,54,202,,145,145,21,26,12,10,0.7,0.9
2025-04-07T1300,3429A,119.8598,31.7066,常州市,武进经发区,臭氧1小时,103,116,110,66,55,206,,132,132,34,32,9,12,1.1,1
2025-04-07T1300,3430A,119.5826,31.7245,常州市,金坛城区,,,,100,,45,212,,135,135,18,24,,11,,0.9
2025-04-07T1300,2220A,120.4318,41.5881,朝阳市,西梁,颗粒物(PM10),87,123,54,23,24,103,,96,96,8,14,8,12,0.6,0.8
2025-04-07T1300,2221A,120.4521,41.5646,朝阳市,河畔小区,颗粒物(PM10),90,129,49,19,24,104,,106,102,8,12,6,11,0.4,0.5
2025-04-07T1300,2222A,120.4176,41.5648,朝阳市,八里堡,颗粒物(PM10),111,171,55,17,22,100,,85,85,7,15,7,11,0.4,0.6
2025-04-07T1300,2223A,120.3806,41.5969,朝阳市,农业园区,颗粒物(PM10),131,212,68,20,32,105,,84,84,5,21,8,13,0.5,0.7
2025-04-07T1300,1705A,116.6367,23.6719,潮州市,西园路,,,,,,,,,,,,,,,,
2025-04-07T1300,3026A,116.6183,23.6608,潮州市,市政府,颗粒物(PM10),51,51,68,18,49,130,,72,72,13,27,5,9,0.6,0.9
2025-04-07T1300,4036A,116.6461,23.6761,潮州市,金山,颗粒物(PM10),56,61,61,12,51,136,,72,72,10,18,8,8,0.4,0.7
2025-04-07T1300,2472A,113.0073,25.9061,郴州市,马头岭,颗粒物(PM10),57,64,76,19,34,86,,46,46,19,25,7,7,0.8,0.9
2025-04-07T1300,2473A,113.0116,25.8226,郴州市,市职中,颗粒物(PM10),62,74,78,38,47,93,,32,32,14,28,15,8,0.6,0.7
2025-04-07T1300,2475A,113.0383,25.8071,郴州市,市审计局,颗粒物(PM10),60,69,78,41,49,82,,36,36,20,27,13,8,0.7,0.8
2025-04-07T1300,2476A,113.0348,25.7759,郴州市,市环保局,颗粒物(PM10),66,82,84,43,44,72,,41,41,24,26,14,8,0.7,0.7
2025-04-07T1300,4252A,113.0138,25.8011,郴州市,好美居路49号,颗粒物(PM10),71,92,83,40,51,79,,27,27,21,36,15,6,0.8,0.9
2025-04-07T1300,1431A,103.9728,30.7236,成都市,金泉两河,颗粒物(PM10),60,69,67,40,27,128,,54,54,12,25,3,2,0.8,0.9
2025-04-07T1300,1432A,104.176,30.6872,成都市,十里店,颗粒物(PM10),56,61,66,20,30,116,,51,51,23,32,4,3,0.7,0.7
2025-04-07T1300,1433A,104.079,30.5706,成都市,三瓦窑,,,58,68,17,28,127,,51,51,14,39,,4,0.5,0.6
2025-04-07T1300,1434A,104.1114,30.63,成都市,沙河铺,"颗粒物(PM10),细颗粒物(PM2.5)",58,66,62,41,34,111,,51,51,15,21,6,5,0.7,0.8
2025-04-07T1300,1437A,104.0786,30.6531,成都市,君平街,颗粒物(PM10),52,53,69,23,38,128,,67,67,15,28,7,6,0.7,0.8
2025-04-07T1300,1438A,103.613,31.0283,成都市,灵岩寺,,,,,,,,,,,,,,,,
2025-04-07T1300,2880A,104.0239,30.65639,成都市,大石西路,颗粒物(PM10),57,63,70,34,38,117,,53,53,18,33,5,5,0.7,0.8
2025-04-07T1300,3136A,104.2725,30.5589,成都市,龙泉驿区区政府,颗粒物(PM10),57,63,52,24,24,112,,67,67,10,14,4,4,0.8,0.8
2025-04-07T1300,3357A,104.0106,30.6931,成都市,金博路,颗粒物(PM10),55,60,61,28,28,115,,47,47,17,26,8,7,0.6,0.5
2025-04-07T1300,3359A,104.0578,30.5225,成都市,华阳,"颗粒物(PM10),细颗粒物(PM2.5)",58,66,58,41,38,119,,54,54,15,28,6,6,0.7,0.8
2025-04-07T1300,3488A,104.3853,30.7453,成都市,青白江技师分院,颗粒物(PM10),56,61,60,32,29,126,,69,69,14,29,7,7,0.6,0.6
2025-04-07T1300,3489A,104.0789,30.4072,成都市,科学城,颗粒物(PM10),53,56,52,36,29,109,,60,60,12,18,4,4,0.6,0.6
2025-04-07T1300,4011A,103.8506,30.6947,成都市,光华大道三段,颗粒物(PM10),65,80,68,32,37,124,,50,50,21,22,3,2,0.7,0.7
2025-04-07T1300,4224A,104.2433,30.5353,成都市,鲸龙路1057号,颗粒物(PM10),56,61,63,33,31,120,,60,60,15,32,4,4,0.9,0.9
2025-04-07T1300,1062A,117.9531,40.9081,承德市,铁路,颗粒物(PM10),53,55,82,12,33,100,,72,72,8,27,6,13,0.2,0.9
2025-04-07T1300,1063A,117.9392,40.9763,承德市,中国银行,,37,37,79,3,34,103,,70,70,4,18,3,7,0.2,0.8
2025-04-07T1300,1064A,117.9503,40.928,承德市,开发区,颗粒物(PM10),55,59,83,20,33,102,,73,73,7,23,5,13,0.2,0.9
2025-04-07T1300,1065A,117.8051,40.9655,承德市,文化中心,,34,34,92,3,38,103,,68,68,7,29,3,9,0.2,0.7
2025-04-07T1300,1066A,117.9268,41.0026,承德市,离宫,,,27,71,14,39,55,,45,43,6,14,25,27,,0.8
2025-04-07T1300,2314A,117.47,30.6618,池州市,池州学院,颗粒物(PM10),62,74,61,32,25,126,,81,81,20,20,16,9,1.1,0.6
2025-04-07T1300,3237A,117.4918,30.6617,池州市,展览馆,颗粒物(PM10),64,78,55,34,22,129,,81,81,16,19,14,7,1.2,0.7
2025-04-07T1300,3333A,117.5627,30.695,池州市,第八中学,颗粒物(PM10),65,79,57,31,21,130,,92,92,18,15,15,9,1.0,0.5
2025-04-07T1300,3334A,117.5038,30.6243,池州市,第十二中学,颗粒物(PM10),66,81,61,37,24,124,,78,78,16,24,18,8,1.2,0.7
2025-04-07T1300,1744A,118.9233,42.2816,赤峰市,松山一中,颗粒物(PM10),59,68,60,17,23,91,,86,86,10,29,7,13,0.4,0.7
2025-04-07T1300,1745A,118.9576,42.2728,赤峰市,哈达街,颗粒物(PM10),56,62,58,21,26,100,,92,92,9,24,7,11,0.4,0.7
2025-04-07T1300,1746A,118.8788,42.2554,赤峰市,天义路,,,,47,,27,95,,98,96,,23,7,11,,0.5
2025-04-07T1300,3058A,119.2658,42.0353,赤峰市,银河街,颗粒物(PM10),68,85,78,16,31,91,,74,74,8,21,13,29,0.2,0.6
2025-04-07T1300,3286A,118.9359,42.3147,赤峰市,桥北物流园区,细颗粒物(PM2.5),59,52,60,42,45,90,,86,86,12,30,7,26,0.4,0.9
2025-04-07T1300,2521A,107.3476,22.4136,崇左市,市环保局江州分局,"颗粒物(PM10),细颗粒物(PM2.5)",74,97,106,54,72,107,,73,73,12,16,8,7,0.9,1
2025-04-07T1300,4256A,107.3750,22.3736,崇左市,石景林东路7号,细颗粒物(PM2.5),88,92,98,65,74,111,,75,75,15,16,8,7,1.1,1
2025-04-07T1300,2298A,118.3093,32.3153,滁州市,老年大学,颗粒物(PM10),75,100,77,33,31,169,,124,124,18,23,6,6,0.7,0.7
2025-04-07T1300,2299A,118.3244,32.2786,滁州市,人大宾馆,臭氧1小时,67,79,75,26,32,173,,118,118,18,27,12,12,0.6,0.7
2025-04-07T1300,3207A,118.3118,32.3038,滁州市,市政府原办公楼,臭氧1小时,62,68,69,32,32,169,,121,121,3,17,8,8,0.5,0.6
2025-04-07T1300,3331A,118.3267,32.2634,滁州市,图书馆,颗粒物(PM10),67,84,74,37,36,163,,114,114,11,21,10,11,0.5,0.6
2025-04-07T1300,2605A,101.5482,25.0441,楚雄彝族自治州,州环境监测站,,45,45,61,31,52,140,,90,88,8,14,7,8,0.5,0.7
2025-04-07T1300,2606A,101.538,25.0492,楚雄彝族自治州,市经济开发区,,45,,64,28,53,141,,90,90,6,12,7,7,0.6,0.8
2025-04-07T1300,2548A,107.5277,31.2827,达州市,达州职业技术学院,颗粒物(PM10),63,75,64,30,29,111,,42,42,8,25,6,6,0.2,0.2
2025-04-07T1300,2549A,107.5086,31.2186,达州市,市环境监测站,颗粒物(PM10),62,74,67,27,28,117,,44,44,19,38,5,5,0.5,0.7
2025-04-07T1300,2550A,107.4988,31.2132,达州市,凤凰小区,颗粒物(PM10),64,78,69,24,31,119,,48,48,16,39,7,7,0.5,0.6
2025-04-07T1300,2551A,107.5082,31.1986,达州市,达县机关宾馆,颗粒物(PM10),65,80,72,27,30,116,,40,40,13,40,5,5,0.3,0.5
2025-04-07T1300,2552A,107.4644,31.2124,达州市,市政中心,颗粒物(PM10),68,85,77,27,29,118,,43,43,14,41,3,3,0.5,0.7
2025-04-07T1300,2614A,100.1542,25.7054,大理白族自治州,大理市环境监测站,,45,44,42,31,32,136,,112,112,7,11,8,7,0.9,0.9
2025-04-07T1300,2615A,100.2171,25.5811,大理白族自治州,大理古城,细颗粒物(PM2.5),53,44,40,37,34,140,,107,107,7,11,8,8,0.6,0.6
2025-04-07T1300,1109A,121.612,38.9741,大连市,甘井子,细颗粒物(PM2.5),54,50,48,38,32,120,,101,101,22,36,7,7,0.5,0.9
2025-04-07T1300,1110A,121.565,38.9511,大连市,周水子,细颗粒物(PM2.5),63,58,59,45,41,112,,88,88,17,31,7,8,0.5,0.4
2025-04-07T1300,1111A,121.5637,38.8845,大连市,星海三站,细颗粒物(PM2.5),54,56,47,38,32,115,,93,93,12,20,6,6,0.7,0.7
2025-04-07T1300,1112A,121.6302,38.9117,大连市,青泥洼桥,颗粒物(PM10),53,56,57,35,33,122,,98,98,14,26,10,10,0.6,0.5
2025-04-07T1300,1113A,121.6251,38.8638,大连市,傅家庄,,45,40,38,31,27,104,,95,95,13,22,6,7,0.3,0.3
2025-04-07T1300,1114A,121.5213,38.8661,大连市,七贤岭,细颗粒物(PM2.5),53,54,50,37,32,120,,95,95,11,24,6,6,0.5,0.5
2025-04-07T1300,1115A,121.2529,38.8061,大连市,旅顺,,,51,46,39,34,106,,94,94,26,29,,7,,0.5
2025-04-07T1300,1116A,121.7485,39.1311,大连市,金州,细颗粒物(PM2.5),63,62,95,45,43,109,,90,90,18,31,8,9,1.0,0.9
2025-04-07T1300,1117A,121.7811,39.0496,大连市,开发区,细颗粒物(PM2.5),55,57,60,39,39,77,,81,80,46,39,11,9,0.7,0.7
2025-04-07T1300,1118A,121.9762,39.0631,大连市,双D港,颗粒物(PM10),54,58,32,31,22,102,,100,98,18,19,11,7,0.6,0.5
2025-04-07T1300,1789A,124.81117,46.03138,大庆市,大同区,,49,49,64,28,45,89,,57,57,14,20,5,5,0.6,0.7
2025-04-07T1300,1790A,125.129,46.533,大庆市,龙凤区,,49,49,71,25,45,90,,59,59,13,22,8,10,0.6,0.7
2025-04-07T1300,1791A,124.902,46.408,大庆市,红岗区,,49,39,46,34,36,103,,67,67,8,16,7,6,0.4,0.5
2025-04-07T1300,1792A,125.153,46.586,大庆市,萨尔图区,颗粒物(PM10),58,65,69,37,46,87,,61,61,15,25,9,8,0.5,0.7
2025-04-07T1300,1793A,124.9042,46.6215,大庆市,让胡路区,,50,,50,35,42,93,,59,59,11,18,6,6,0.3,0.4
2025-04-07T1300,3481A,125.141,46.634,大庆市,萨区政府监测点,,,52,65,31,34,96,,64,64,12,20,,6,,0.6
2025-04-07T1300,1721A,113.3819,40.1097,大同市,果树场,,39,39,99,10,29,100,,81,81,4,29,6,13,0.3,0.5
2025-04-07T1300,1723A,113.2994,40.0758,大同市,云冈宾馆,,38,38,89,8,23,112,,90,90,7,24,7,11,0.4,0.6
2025-04-07T1300,1724A,113.3444,40.0917,大同市,大同大学,,50,50,86,9,32,104,,80,80,3,25,5,19,0.3,0.5
2025-04-07T1300,1725A,113.2661,40.1269,大同市,安家小村,,36,36,92,8,26,105,,87,87,4,15,9,13,0.4,1.2
2025-04-07T1300,1726A,113.2711,40.0844,大同市,教育学院,,44,44,90,6,35,106,,88,88,8,19,7,11,0.4,0.8
2025-04-07T1300,3282A,113.3397,40.0597,大同市,大同市卫生学校,,46,46,87,9,30,104,,83,83,7,27,5,10,0.4,0.6
2025-04-07T1300,3565A,113.1367,40.1122,大同市,云冈站,,40,40,84,12,30,105,,85,85,7,14,11,16,0.4,0.4
2025-04-07T1300,3566A,113.1186,40.2556,大同市,图书馆,,45,45,81,11,27,97,,75,75,7,11,12,10,0.5,0.6
2025-04-07T1300,3567A,113.5931,40.0461,大同市,区一中,颗粒物(PM10),53,55,105,9,33,111,,67,67,6,27,10,20,0.3,0.6
2025-04-07T1300,4199A,113.2798,40.0997,大同市,魏都大道141号,,49,48,106,34,35,112,,92,92,7,23,11,15,0.3,0.8
2025-04-07T1300,2269A,124.1069,50.4097,大兴安岭地区,科技局,细颗粒物(PM2.5),59,66,48,42,32,83,,82,78,9,8,7,8,0.6,0.5
2025-04-07T1300,3663A,124.1164,50.4278,大兴安岭地区,红旗社区,细颗粒物(PM2.5),55,46,34,39,26,85,,65,65,11,14,4,6,0.6,0.5
2025-04-07T1300,1600A,124.3303,40.0625,丹东市,江湾东路,,46,46,43,29,35,134,,75,75,9,21,10,10,0.5,0.9
2025-04-07T1300,1601A,124.4256,40.1503,丹东市,临江后街,细颗粒物(PM2.5),58,62,47,41,33,126,,68,68,10,19,9,10,0.6,0.9
2025-04-07T1300,1602A,124.3933,40.1461,丹东市,元宝山,,45,45,44,28,31,124,,62,62,12,23,10,7,0.4,0.7
2025-04-07T1300,1603A,124.3633,40.1092,丹东市,民主桥,颗粒物(PM10),51,52,47,25,34,130,,67,67,8,23,10,10,0.6,0.9
2025-04-07T1300,3541A,109.5726,19.5167,儋州市,第一中学子站,,24,14,12,11,8,75,,60,60,4,6,4,4,0.6,0.6
2025-04-07T1300,3542A,109.5567,19.5187,儋州市,东坡学校子站,,27,9,14,8,7,84,,66,66,4,5,4,4,0.5,0.5
2025-04-07T1300,2616A,98.5842,24.428,德宏傣族景颇族自治州,德宏州监测站,细颗粒物(PM2.5),93,88,93,69,72,110,,48,48,26,32,14,12,0.8,0.9
2025-04-07T1300,3677A,98.5881,24.4368,德宏傣族景颇族自治州,芒市人民政府综合楼,细颗粒物(PM2.5),84,86,111,62,66,130,,76,73,20,19,14,9,0.8,0.8
2025-04-07T1300,1901A,104.4239,31.1208,德阳市,东山公园,颗粒物(PM10),61,72,65,40,35,122,,79,79,12,15,3,4,0.7,0.7
2025-04-07T1300,1902A,104.3826,31.1317,德阳市,西小区,颗粒物(PM10),67,83,82,39,39,121,,64,64,18,29,4,5,0.6,0.7
2025-04-07T1300,1904A,104.3553,31.1091,德阳市,耐火材料厂,细颗粒物(PM2.5),63,74,81,45,38,128,,58,58,10,30,6,6,0.5,0.5
2025-04-07T1300,3639A,104.4019,31.1244,德阳市,市教育局,颗粒物(PM10),58,65,67,36,36,127,,68,68,10,26,4,5,0.6,0.7
2025-04-07T1300,1622A,116.3032,37.4674,德州市,儿童乐园,颗粒物(PM10),113,175,146,61,47,163,,94,94,15,18,14,13,0.6,0.6
2025-04-07T1300,1624A,116.2991,37.4451,德州市,监理站,颗粒物(PM10),115,180,140,73,51,165,,90,90,14,19,22,20,0.5,0.5
2025-04-07T1300,3066A,116.2721,37.4379,德州市,九衢泉纯净水厂,颗粒物(PM10),101,151,132,58,44,165,,87,87,18,29,16,13,0.7,0.7
2025-04-07T1300,3371A,116.3728,37.4403,德州市,开发区人民医院,颗粒物(PM10),115,180,142,53,51,173,,98,98,14,18,13,11,0.7,0.7
2025-04-07T1300,3372A,116.3572,37.4094,德州市,太阳城中学,颗粒物(PM10),104,158,136,70,47,170,,89,89,13,20,11,10,0.5,0.5
2025-04-07T1300,3511A,116.5652,37.3319,德州市,陵城艺术中心,颗粒物(PM10),98,146,132,53,43,156,,88,88,20,24,9,7,0.6,0.7
2025-04-07T1300,2621A,99.7056,27.8317,迪庆藏族自治州,迪庆州站,,42,30,52,23,30,134,,104,104,8,11,8,11,0.4,0.5
2025-04-07T1300,3180A,99.7136,27.8094,迪庆藏族自治州,质量技术监督局,,44,34,42,15,26,138,,100,99,9,13,10,11,0.5,0.7
2025-04-07T1300,4257A,104.6092,35.5962,定西市,将台街,,46,46,71,13,27,129,,73,73,7,14,6,6,0.3,0.4
2025-04-07T1300,4309A,104.6159,35.5701,定西市,正龙路62号,,41,40,67,9,29,131,,86,86,5,8,8,9,0.2,0.2
2025-04-07T1300,1389A,113.7547,23.0494,东莞市,莞城梨川,臭氧1小时,103,90,104,53,59,206,,65,65,26,54,7,6,0.6,0.8
2025-04-07T1300,1390A,113.7944,23.0128,东莞市,东城石井,臭氧1小时,107,64,74,41,47,214,,71,71,28,31,8,7,0.7,0.9
2025-04-07T1300,1391A,113.7383,22.9658,东莞市,南城西平,臭氧1小时,94,55,84,35,49,195,,61,61,28,54,8,9,0.7,0.9
2025-04-07T1300,3319A,113.7338,23.0381,东莞市,万江金泰,臭氧1小时,111,68,93,50,53,221,,70,70,22,54,9,8,0.8,1
2025-04-07T1300,3626A,113.7533,23.0202,东莞市,南城元岭,臭氧1小时,102,83,98,45,53,203,,65,65,25,54,8,7,0.8,1
2025-04-07T1300,3627A,113.7875,23.0457,东莞市,东城主山,臭氧1小时,103,93,102,50,54,206,,67,67,33,58,7,5,0.8,1
2025-04-07T1300,1666A,118.6614,37.4309,东营市,市环保局,颗粒物(PM10),109,168,108,53,35,152,,95,95,18,36,14,14,0.6,0.6
2025-04-07T1300,3036A,118.6904,37.4338,东营市,开发区管委会,颗粒物(PM10),116,181,116,51,39,155,,100,100,24,38,13,13,0.8,0.8
2025-04-07T1300,3365A,118.5719,37.565,东营市,垦利区民丰路,颗粒物(PM10),106,161,111,63,38,157,,101,101,18,36,9,8,0.8,0.8
2025-04-07T1300,3498A,118.5055,37.8612,东营市,河口城区,颗粒物(PM10),109,168,122,59,40,154,,98,98,26,32,12,10,1.0,1
2025-04-07T1300,3646A,118.4978,37.4623,东营市,胜利站,颗粒物(PM10),103,155,115,51,40,155,,91,91,20,42,17,14,1.0,0.9
2025-04-07T1300,3734A,118.35,37.26,东营市,理想之城,颗粒物(PM10),101,151,112,53,37,161,,91,91,20,43,18,18,0.8,0.7
2025-04-07T1300,1591A,110.0023,39.8129,鄂尔多斯市,综合楼,细颗粒物(PM2.5),89,80,129,66,42,100,,72,67,11,18,6,6,0.3,0.3
2025-04-07T1300,1592A,109.9486,39.8261,鄂尔多斯市,巴音孟克林场办事处,颗粒物(PM10),64,78,118,14,32,100,,73,70,9,14,6,7,0.3,0.3
2025-04-07T1300,1593A,109.7736,39.5986,鄂尔多斯市,康泽苑,颗粒物(PM10),63,75,107,9,29,96,,73,73,8,9,4,4,0.2,0.2
2025-04-07T1300,1594A,109.8119,39.5989,鄂尔多斯市,华泰汽车城,颗粒物(PM10),63,75,109,12,29,96,,64,64,7,16,4,5,0.4,0.4
2025-04-07T1300,1595A,109.9734,39.7884,鄂尔多斯市,奥林花园,颗粒物(PM10),64,78,125,17,34,99,,72,70,11,21,7,10,0.3,0.3
2025-04-07T1300,2436A,114.8938,30.3994,鄂州市,市政府,颗粒物(PM10),63,76,85,34,38,123,,60,60,17,28,12,12,0.9,0.9
2025-04-07T1300,2437A,114.8989,30.3714,鄂州市,赵家坝,颗粒物(PM10),64,78,92,29,35,105,,61,61,13,27,13,9,0.9,0.9
2025-04-07T1300,3654A,114.8094,30.4089,鄂州市,精准医疗中心,颗粒物(PM10),72,94,99,32,43,140,,57,57,20,39,9,11,0.8,0.8
2025-04-07T1300,2454A,109.4978,30.2981,恩施土家族苗族自治州,湖北民院,颗粒物(PM10),56,61,67,35,34,114,,53,53,2,15,2,1,0.3,0.4
2025-04-07T1300,2455A,109.4707,30.2798,恩施土家族苗族自治州,州电力总公司,颗粒物(PM10),53,56,70,34,35,97,,38,38,9,17,5,5,0.2,0.2
2025-04-07T1300,3549A,109.5061,30.3772,恩施土家族苗族自治州,龙凤新区,颗粒物(PM10),59,67,69,34,33,115,,44,44,9,14,6,6,0.4,0.4
2025-04-07T1300,2499A,108.3411,21.6158,防城港市,沙万,颗粒物(PM10),60,69,82,37,56,79,,57,57,26,24,3,3,0.6,0.7
2025-04-07T1300,2500A,108.3514,21.7731,防城港市,防城档案局,,,,98,,65,93,,44,44,,27,,2,0.6,0.9
2025-04-07T1300,2501A,108.3506,21.6414,防城港市,大海花园,颗粒物(PM10),57,64,83,37,58,84,,64,64,21,17,7,6,1.2,1.1
2025-04-07T1300,1371A,113.1294,23.0067,佛山市,湾梁,颗粒物(PM10),71,92,120,39,55,137,,46,46,48,76,9,9,0.8,1.1
2025-04-07T1300,1372A,113.1083,23.0478,佛山市,华材职中,颗粒物(PM10),71,92,112,44,59,142,,44,44,58,85,8,8,0.7,1.1
2025-04-07T1300,1373A,113.144,23.0453,佛山市,南海气象局,颗粒物(PM10),66,82,108,46,58,131,,39,39,42,59,7,7,0.7,1.1
2025-04-07T1300,1374A,113.2881,22.8094,佛山市,顺德苏岗,颗粒物(PM10),66,82,85,41,49,155,,46,46,39,62,10,7,0.7,1
2025-04-07T1300,1376A,112.8383,22.8678,佛山市,高明孔堂,臭氧1小时,73,69,87,48,53,178,,53,53,34,37,8,9,0.7,0.8
2025-04-07T1300,1377A,112.8836,23.1588,佛山市,三水监测站,细颗粒物(PM2.5),95,122,126,71,70,146,,47,47,69,75,5,7,0.8,1
2025-04-07T1300,1378A,112.867,23.185,佛山市,三水云东海,细颗粒物(PM2.5),102,106,105,76,79,159,,51,51,72,63,5,5,0.8,0.9
2025-04-07T1300,3625A,113.2544,22.7642,佛山市,容桂街道办,颗粒物(PM10),63,75,103,39,58,148,,51,51,38,75,8,8,0.7,1.1
2025-04-07T1300,1280A,119.3903,26.0543,福州市,鼓山,,,,58,,21,,,129,,,4,,1,,0.5
2025-04-07T1300,1282A,119.2681,26.0504,福州市,师大,臭氧1小时,69,70,59,24,27,175,,114,114,7,14,5,5,0.4,0.4
2025-04-07T1300,1283A,119.2984,26.1028,福州市,五四北路,臭氧1小时,57,46,58,28,30,165,,112,112,11,21,5,4,0.5,0.5
2025-04-07T1300,1284A,119.2648,26.0768,福州市,杨桥西路,臭氧1小时,60,64,64,25,27,168,,107,107,9,20,5,5,0.5,0.5
2025-04-07T1300,1285A,119.317,26.0746,福州市,紫阳,,50,47,67,18,30,157,,90,90,10,33,6,5,0.4,0.5
2025-04-07T1300,3048A,119.5799,26.0936,福州市,九龙,颗粒物(PM10),56,62,44,26,23,160,,108,108,7,14,6,5,0.4,0.4
2025-04-07T1300,3526A,119.5189,25.9664,福州市,吴航,臭氧1小时,59,53,49,23,25,167,,90,90,4,19,5,4,0.4,0.4
2025-04-07T1300,1755A,123.7977,41.8491,抚顺市,望花区,颗粒物(PM10),76,101,66,33,51,150,,87,87,20,26,17,11,0.8,0.8
2025-04-07T1300,1756A,123.9161,41.8822,抚顺市,顺城区,颗粒物(PM10),65,80,61,26,43,146,,82,82,19,26,13,9,0.7,0.7
2025-04-07T1300,1757A,124.0436,41.8611,抚顺市,东洲区,颗粒物(PM10),53,56,51,24,42,136,,84,84,21,18,9,6,0.8,0.7
2025-04-07T1300,1758A,123.9247,41.8642,抚顺市,新抚区,颗粒物(PM10),68,86,57,30,37,136,,77,77,15,24,10,6,0.7,0.8
2025-04-07T1300,1759A,124.0972,41.8961,抚顺市,大伙房水库,,,41,46,26,41,109,,79,79,15,13,,7,0.7,0.6
2025-04-07T1300,1760A,123.7086,41.8391,抚顺市,沈抚新城,颗粒物(PM10),67,84,86,38,49,150,,84,84,18,36,14,16,0.8,1.6
2025-04-07T1300,2376A,116.2127,28.0814,抚州市,桐源党溪,颗粒物(PM10),58,65,64,30,31,114,,69,69,3,4,7,7,0.5,0.5
2025-04-07T1300,2377A,116.3544,27.9831,抚州市,市站,颗粒物(PM10),54,58,69,22,29,97,,70,70,4,16,11,11,0.8,0.9
2025-04-07T1300,2378A,116.3565,27.963,抚州市,血防站,颗粒物(PM10),54,58,66,24,30,85,,56,56,7,16,6,7,1.4,1.1
2025-04-07T1300,2379A,116.3564,28.0007,抚州市,采茶剧团,颗粒物(PM10),53,56,67,22,30,88,,63,63,2,12,2,5,1.1,1
2025-04-07T1300,2380A,116.385,27.9647,抚州市,医学分院,颗粒物(PM10),53,56,67,19,27,89,,63,63,4,14,6,8,1.0,1.1
2025-04-07T1300,2207A,121.6094,41.998,阜新市,工业园区,颗粒物(PM10),118,185,74,21,49,103,,85,85,7,24,7,16,0.3,0.6
2025-04-07T1300,2208A,121.6697,42.0279,阜新市,长青街,颗粒物(PM10),98,146,58,16,52,104,,90,90,6,17,4,12,0.4,0.7
2025-04-07T1300,2209A,121.6673,42.0705,阜新市,农业园区,颗粒物(PM10),94,138,70,24,44,98,,88,88,5,15,6,12,0.4,0.7
2025-04-07T1300,2210A,121.6717,42.0224,阜新市,东苑,颗粒物(PM10),106,162,70,18,52,99,,81,81,7,19,4,16,0.4,0.7
2025-04-07T1300,2211A,121.6506,42.0498,阜新市,玉龙新城,颗粒物(PM10),93,135,71,16,49,102,,77,77,3,23,7,11,0.5,0.7
2025-04-07T1300,2301A,115.8277,32.8929,阜阳市,市监测站,颗粒物(PM10),58,65,88,32,36,144,,102,98,10,18,9,9,0.6,0.6
2025-04-07T1300,2303A,115.8554,32.8605,阜阳市,开发区,颗粒物(PM10),69,87,119,23,33,147,,103,103,8,20,8,9,0.4,0.4
2025-04-07T1300,2875A,115.784,32.8892,阜阳市,阜阳职业技术学院,颗粒物(PM10),64,77,96,32,34,135,,116,110,11,16,8,8,0.3,0.3
2025-04-07T1300,3468A,115.7901,32.8613,阜阳市,市规划展馆,颗粒物(PM10),68,86,103,32,35,156,,120,117,8,11,8,8,0.3,0.4
2025-04-07T1300,3469A,115.836,32.9183,阜阳市,枣园社区,颗粒物(PM10),73,96,104,36,40,155,,109,108,12,24,8,8,0.4,0.4
2025-04-07T1300,2669A,102.9099,34.9841,甘南藏族自治州,州政府,颗粒物(PM10),59,68,56,30,31,94,,50,50,10,24,8,7,0.3,0.4
2025-04-07T1300,3380A,102.8914,34.9617,甘南藏族自治州,甘肃民族师范学院,,35,34,33,24,25,89,,46,46,14,33,8,8,0.4,0.5
2025-04-07T1300,2570A,101.9603,30.0475,甘孜藏族自治州,水桥子,,25,17,19,8,8,77,,38,38,13,24,4,3,0.2,0.3
2025-04-07T1300,3065A,101.9533,29.9972,甘孜藏族自治州,州环保局,,34,34,24,9,6,94,,73,73,9,14,5,4,0.2,0.2
2025-04-07T1300,3414A,115.8347,28.932,赣江新区,桑海产业园,颗粒物(PM10),73,95,88,28,29,139,,69,69,26,43,11,9,0.5,0.5
2025-04-07T1300,2362A,114.9017,25.9149,赣州市,通天岩,颗粒物(PM10),54,58,55,8,11,127,,91,91,4,4,22,17,0.8,0.8
2025-04-07T1300,2363A,114.9367,25.8664,赣州市,地委,颗粒物(PM10),57,63,67,39,38,90,,41,41,18,34,1,5,1.1,1.1
2025-04-07T1300,2364A,114.9461,25.8481,赣州市,气象台,颗粒物(PM10),58,65,73,36,35,102,,47,47,18,42,12,10,0.5,0.6
2025-04-07T1300,2365A,114.9322,25.8333,赣州市,市图书馆,颗粒物(PM10),60,70,75,38,37,94,,50,50,17,36,7,6,0.6,0.7
2025-04-07T1300,2366A,114.8905,25.8471,赣州市,华坚鞋城,,,82,80,43,40,99,,46,46,,37,15,15,0.4,0.6
2025-04-07T1300,3109A,115.0093,25.8613,赣州市,赣县区卫计委,细颗粒物(PM2.5),72,81,62,52,37,94,,49,49,22,26,8,7,0.4,0.4
2025-04-07T1300,2683A,106.2319,36.1417,固原市,马园,,,69,108,22,44,117,,71,71,9,39,,6,0.5,0.6
2025-04-07T1300,2684A,106.2792,36.0022,固原市,监测站,,39,39,103,20,37,121,,79,79,4,23,5,7,0.2,0.4
2025-04-07T1300,2685A,106.2375,36.0211,固原市,新区,颗粒物(PM10),56,61,100,18,32,119,,75,75,7,30,6,6,0.3,0.5
2025-04-07T1300,3522A,106.2177,35.9959,固原市,原州区十五小,颗粒物(PM10),55,59,95,21,35,119,,92,92,5,14,8,8,0.3,0.3
2025-04-07T1300,2543A,106.6308,30.5278,广安市,小平旧居,,,,,,,,,,,,,,,,
2025-04-07T1300,2544A,106.6303,30.4576,广安市,市委,细颗粒物(PM2.5),72,77,81,52,48,121,,55,55,10,27,7,5,0.5,0.6
2025-04-07T1300,2545A,106.6271,30.4663,广安市,友谊中学,颗粒物(PM10),66,81,72,46,40,124,,51,51,13,26,4,2,0.6,0.7
2025-04-07T1300,2547A,106.6388,30.4551,广安市,广电花园,细颗粒物(PM2.5),82,76,76,60,44,119,,43,43,11,28,10,8,0.5,0.6
2025-04-07T1300,2902A,106.6351,30.4865,广安市,北辰小学,颗粒物(PM10),63,76,64,43,35,121,,45,45,12,19,8,6,0.7,0.8
2025-04-07T1300,2523A,105.8945,32.4535,广元市,黑石坡,颗粒物(PM10),63,75,63,26,25,115,,72,66,8,11,4,5,0.4,0.4
2025-04-07T1300,2524A,105.821,32.4444,广元市,老城,颗粒物(PM10),58,65,62,25,24,118,,46,46,13,36,1,2,1.1,0.7
2025-04-07T1300,2526A,105.8628,32.4287,广元市,监测站,,43,43,49,16,24,120,,55,55,15,16,12,7,0.6,0.5
2025-04-07T1300,3617A,105.8047,32.4166,广元市,经开区,"颗粒物(PM10),细颗粒物(PM2.5)",72,93,75,52,39,107,,43,43,21,38,28,11,1.1,0.8
2025-04-07T1300,1345A,113.2347,23.1423,广州市,广雅中学,颗粒物(PM10),71,91,120,44,62,138,,48,48,41,80,7,6,0.8,0.9
2025-04-07T1300,1346A,113.2612,23.105,广州市,市五中,颗粒物(PM10),78,106,119,44,57,133,,48,48,48,77,4,4,0.7,1
2025-04-07T1300,1348A,113.3478,23.0916,广州市,广东商学院,细颗粒物(PM2.5),83,92,100,61,58,127,,39,39,56,74,9,6,0.6,0.9
2025-04-07T1300,1349A,113.4332,23.1047,广州市,市八十六中,颗粒物(PM10),79,107,109,56,48,132,,36,36,46,78,12,6,0.9,1.2
2025-04-07T1300,1350A,113.3505,22.9483,广州市,番禺中学,臭氧1小时,98,98,101,45,55,198,,56,56,31,71,7,6,0.6,1
2025-04-07T1300,1351A,113.2146,23.3916,广州市,花都师范,细颗粒物(PM2.5),78,88,117,57,62,150,,52,52,46,78,7,7,0.7,1
2025-04-07T1300,1352A,113.2597,23.1331,广州市,市监测站,颗粒物(PM10),73,96,108,38,57,140,,50,50,47,80,8,7,0.5,0.8
2025-04-07T1300,1353A,113.5618,23.312,广州市,九龙镇镇龙,颗粒物(PM10),62,73,78,36,42,158,,54,54,20,36,6,5,0.5,0.7
2025-04-07T1300,1354A,113.2765,23.1544,广州市,麓湖,颗粒物(PM10),66,81,84,38,49,155,,56,56,40,60,7,4,0.6,1
2025-04-07T1300,1355A,113.443,23.3035,广州市,帽峰山森林公园,臭氧1小时,60,54,56,20,25,168,,69,69,16,33,4,4,0.5,0.6
2025-04-07T1300,2846A,113.3221,23.1322,广州市,体育西,颗粒物(PM10),75,100,110,50,57,145,,49,49,40,59,8,6,0.7,1
2025-04-07T1300,3298A,113.5717,23.5491,广州市,从化街口,"颗粒物(PM10),细颗粒物(PM2.5)",57,63,71,40,46,159,,55,55,14,27,10,8,0.7,0.8
2025-04-07T1300,3299A,113.3472,23.3692,广州市,白云竹料,颗粒物(PM10),74,97,110,51,58,166,,57,57,29,47,8,8,0.6,0.9
2025-04-07T1300,3300A,113.2981,23.237,广州市,白云嘉禾,颗粒物(PM10),59,68,115,35,62,145,,43,43,45,75,7,6,0.6,0.9
2025-04-07T1300,3301A,113.4256,23.1716,广州市,黄埔科学城,臭氧1小时,62,65,79,40,45,169,,61,61,34,46,9,6,0.5,0.7
2025-04-07T1300,3302A,113.3942,23.0483,广州市,番禺大学城,臭氧1小时,97,76,105,35,53,197,,50,50,32,75,13,11,0.5,0.8
2025-04-07T1300,3303A,113.4922,22.8168,广州市,南沙黄阁,颗粒物(PM10),58,66,93,19,53,155,,56,56,23,65,7,9,0.6,1.1
2025-04-07T1300,3304A,113.5342,22.7896,广州市,南沙街,臭氧1小时,53,51,80,20,47,162,,62,62,22,54,5,6,0.5,0.8
2025-04-07T1300,3443A,113.2902,23.5544,广州市,花都梯面,臭氧1小时,55,50,76,30,50,164,,61,61,29,40,6,6,0.7,0.8
2025-04-07T1300,3445A,113.7858,23.7478,广州市,从化良口,,49,48,44,34,30,130,,53,53,6,11,7,6,0.6,0.6
2025-04-07T1300,3446A,113.8051,23.2614,广州市,增城荔城,臭氧1小时,60,51,70,32,46,168,,73,73,13,22,8,8,0.4,0.5
2025-04-07T1300,2505A,109.568,23.1478,贵港市,德智高中,,,,,,,,,,,,,,,,
2025-04-07T1300,2506A,109.6047,23.0666,贵港市,江南子站,颗粒物(PM10),84,117,103,60,59,92,,55,55,27,31,13,10,0.8,1
2025-04-07T1300,2508A,109.5669,23.1065,贵港市,荷城子站,"颗粒物(PM10),细颗粒物(PM2.5)",77,104,93,56,52,87,,51,48,22,29,13,9,0.6,0.5
2025-04-07T1300,3405A,109.5886,23.1172,贵港市,新世纪学校,细颗粒物(PM2.5),85,102,94,63,59,90,,57,57,27,26,15,9,1.4,1.1
2025-04-07T1300,4260A,109.5933,23.0951,贵港市,中山路155-3号,颗粒物(PM10),86,121,93,61,54,91,,57,49,22,29,16,12,1.0,0.9
2025-04-07T1300,1439A,106.6899,26.5998,贵阳市,马鞍山,细颗粒物(PM2.5),62,56,62,44,41,57,,25,25,15,13,6,5,0.7,0.6
2025-04-07T1300,1441A,106.6243,26.6266,贵阳市,鉴湖路,细颗粒物(PM2.5),62,70,73,44,41,70,,53,53,20,16,17,10,0.6,0.5
2025-04-07T1300,1442A,106.7487,26.6343,贵阳市,燕子冲,,,58,72,58,53,51,,31,31,,19,5,4,0.7,0.6
2025-04-07T1300,1443A,106.6555,26.4365,贵阳市,碧云窝,颗粒物(PM10),53,56,80,31,45,78,,42,42,14,21,7,7,0.6,0.6
2025-04-07T1300,1445A,106.7109,26.6027,贵阳市,红边门,细颗粒物(PM2.5),67,63,76,48,52,59,,34,28,20,18,6,6,0.8,0.7
2025-04-07T1300,1446A,106.7164,26.5699,贵阳市,新华路,细颗粒物(PM2.5),73,75,78,53,49,54,,36,30,25,18,12,9,0.7,0.6
2025-04-07T1300,1447A,106.674,26.5424,贵阳市,太慈桥,,,,69,,43,55,,29,29,21,21,9,6,,0.6
2025-04-07T1300,1552A,106.805,26.3003,贵阳市,桐木岭,细颗粒物(PM2.5),77,61,87,56,56,92,,65,65,7,8,3,2,0.8,0.7
2025-04-07T1300,4230A,106.6882,26.5695,贵阳市,花果园大街66号,细颗粒物(PM2.5),73,53,68,53,57,47,,30,27,25,21,7,6,0.7,0.7
2025-04-07T1300,4231A,106.6873,26.5169,贵阳市,漓江路57号,细颗粒物(PM2.5),62,56,77,44,50,64,,37,37,24,20,14,11,0.5,0.5
2025-04-07T1300,1862A,110.4144,25.3167,桂林市,电子科大尧山校区,,,,,,,,,,,,,,,,
2025-04-07T1300,1864A,110.3089,25.2708,桂林市,龙隐路小学,细颗粒物(PM2.5),119,137,96,90,71,65,,23,23,29,32,23,18,,1.2
2025-04-07T1300,1865A,110.2869,25.2178,桂林市,八中,细颗粒物(PM2.5),112,129,106,84,70,66,,23,23,29,33,17,13,0.8,0.8
2025-04-07T1300,3531A,110.296,25.1253,桂林市,旅游学院,细颗粒物(PM2.5),113,117,93,85,67,63,,24,24,25,30,26,11,0.7,0.7
2025-04-07T1300,4222A,110.1835,25.2444,桂林市,环湖路276号,细颗粒物(PM2.5),104,124,109,78,67,45,,10,10,38,39,24,20,0.5,0.5
2025-04-07T1300,4301A,110.2803,25.2773,桂林市,信义路13号,细颗粒物(PM2.5),129,126,100,98,78,62,,20,20,35,37,27,22,1.2,1.1
2025-04-07T1300,2674A,100.2561,34.4714,果洛藏族自治州,玛沁县大武镇,,40,40,59,9,23,110,,72,72,1,4,15,14,0.3,0.4
2025-04-07T1300,1129A,126.5422,45.755,哈尔滨市,岭北,,42,35,57,29,51,113,,70,70,15,24,19,21,0.9,1.1
2025-04-07T1300,1130A,126.561,45.8167,哈尔滨市,松北商大,,43,42,56,30,45,109,,61,61,11,23,9,9,0.6,0.8
2025-04-07T1300,1131A,126.979,45.5419,哈尔滨市,阿城会宁,,,,44,22,34,,,59,59,9,13,10,11,0.6,0.6
2025-04-07T1300,1132A,126.599,45.7222,哈尔滨市,南岗学府路,,,52,74,,45,102,,50,50,12,28,9,8,0.7,0.8
2025-04-07T1300,1133A,126.689,45.7733,哈尔滨市,太平宏伟公园,,42,42,58,22,51,112,,62,62,8,25,5,5,0.7,0.9
2025-04-07T1300,1134A,126.635,45.7667,哈尔滨市,道外承德广场,,45,35,61,31,53,102,,54,54,15,34,8,8,0.3,0.5
2025-04-07T1300,1135A,126.685,45.7319,哈尔滨市,香坊红旗大街,,35,34,64,12,50,109,,59,59,11,32,8,9,0.6,0.7
2025-04-07T1300,1136A,126.6411,45.7258,哈尔滨市,动力和平路,,47,47,68,30,56,99,,55,55,13,27,7,8,0.5,0.6
2025-04-07T1300,1137A,126.593,45.7478,哈尔滨市,道里建国路,颗粒物(PM10),52,53,62,32,56,107,,54,54,14,29,12,14,0.7,0.8
2025-04-07T1300,1138A,126.615,45.61,哈尔滨市,平房东轻厂,颗粒物(PM10),52,54,58,30,41,109,,62,62,9,13,9,9,0.5,0.7
2025-04-07T1300,1139A,126.595,45.9855,哈尔滨市,呼兰师专,细颗粒物(PM2.5),57,62,59,40,55,104,,53,53,20,33,8,8,0.6,0.8
2025-04-07T1300,1140A,126.6206,45.6842,哈尔滨市,省农科院,,49,45,74,34,54,104,,53,53,13,33,10,11,0.7,0.9
2025-04-07T1300,2688A,93.5128,42.8172,哈密市,地区监测站,颗粒物(PM10),56,62,164,19,47,93,,81,77,4,9,5,6,0.2,0.3
2025-04-07T1300,2689A,93.4961,42.8328,哈密市,哈密师范学校,颗粒物(PM10),53,55,133,25,46,98,,84,84,6,10,5,5,0,0
2025-04-07T1300,2671A,100.9048,36.9639,海北藏族自治州,海晏县西海镇,,36,36,63,20,25,109,,67,67,2,5,8,10,0.4,0.5
2025-04-07T1300,3867A,102.0738,36.5056,海东市,平安区公安北苑,颗粒物(PM10),68,85,85,36,39,97,,49,49,8,12,29,19,0.8,0.6
2025-04-07T1300,1409A,110.576,19.9507,海口市,东寨港,,28,27,38,19,18,45,,24,24,4,8,9,7,0.6,0.6
2025-04-07T1300,1410A,110.3232,20.0574,海口市,海南大学,,49,49,46,31,30,112,,99,99,15,13,2,2,0.5,0.5
2025-04-07T1300,1411A,110.283,20.0053,海口市,秀英海南医院,,41,41,44,26,27,113,,100,100,12,13,4,4,0.4,0.5
2025-04-07T1300,1412A,110.338,19.9969,海口市,海南师范大学,,41,41,46,22,27,117,,98,98,7,8,4,4,0.5,0.5
2025-04-07T1300,1413A,110.33,20.0356,海口市,龙华路环保局宿舍,,42,39,44,29,28,116,,99,99,9,9,4,4,0.5,0.5
2025-04-07T1300,3539A,110.5111,19.9736,海口市,桂林洋子站,,37,26,41,16,25,116,,100,100,5,8,3,4,0.4,0.4
2025-04-07T1300,2673A,100.6188,36.2866,海南藏族自治州,共和县恰卜恰镇,颗粒物(PM10),58,65,70,40,32,122,,66,66,3,14,11,12,0.4,0.4
2025-04-07T1300,2676A,97.3731,37.3753,海西蒙古族藏族自治州,德令哈市,颗粒物(PM10),75,99,69,27,22,108,,87,86,3,4,9,8,0.4,0.4
2025-04-07T1300,1048A,114.5302,36.6116,邯郸市,东污水处理厂,颗粒物(PM10),89,128,137,58,43,146,,79,79,21,37,9,5,0.7,0.7
2025-04-07T1300,1049A,114.4918,36.5713,邯郸市,矿院,细颗粒物(PM2.5),110,116,114,83,50,122,,57,57,17,30,9,5,0.7,0.6
2025-04-07T1300,1050A,114.484,36.6133,邯郸市,丛台公园,细颗粒物(PM2.5),98,132,130,73,52,154,,80,80,18,30,12,10,0.6,0.6
2025-04-07T1300,3458A,114.7895,36.5593,邯郸市,香泉濮院小区,颗粒物(PM10),121,192,144,63,43,142,,68,68,17,25,8,7,1.1,0.6
2025-04-07T1300,3579A,114.50634,36.77178,邯郸市,永年区实验高中,颗粒物(PM10),101,151,141,66,60,137,,64,64,13,35,8,9,1.1,1.3
2025-04-07T1300,3580A,114.20016,36.44293,邯郸市,峰峰矿区临水派出所,细颗粒物(PM2.5),127,154,121,96,53,155,,103,103,27,19,23,19,1.4,1
2025-04-07T1300,2634A,106.9893,33.1842,汉中市,汉川机床厂子校,颗粒物(PM10),53,55,55,27,26,134,,95,95,2,5,9,8,0.5,0.5
2025-04-07T1300,2635A,107.0154,33.0706,汉中市,市监测站,颗粒物(PM10),59,68,61,28,28,130,,84,84,7,12,6,6,0.5,0.6
2025-04-07T1300,2636A,107.0089,33.1138,汉中市,鑫源开发区,颗粒物(PM10),64,77,65,32,31,126,,84,84,14,15,8,14,0.6,0.6
2025-04-07T1300,2637A,107.007,33.0323,汉中市,南郑大河坎水厂,颗粒物(PM10),60,70,56,29,29,126,,79,79,5,12,1,4,0.5,0.5
2025-04-07T1300,1223A,120.2072,30.2111,杭州市,滨江,臭氧1小时,79,46,88,16,45,183,,112,112,12,42,7,8,0.1,0.3
2025-04-07T1300,1224A,120.0633,30.2747,杭州市,西溪,,,39,85,24,42,168,,75,75,15,33,,7,0.3,0.4
2025-04-07T1300,1226A,120.3417,30.3150,杭州市,下沙,,,50,108,19,56,151,,93,93,15,62,8,9,,0.6
2025-04-07T1300,1227A,120.1269,30.2456,杭州市,卧龙桥,臭氧1小时,75,43,67,23,36,180,,102,102,13,25,7,6,0.4,0.4
2025-04-07T1300,1228A,120.1903,30.2692,杭州市,浙江农大,,,40,105,19,53,169,,95,95,,42,,6,0.3,0.5
2025-04-07T1300,1230A,120.1197,30.3119,杭州市,和睦小学,臭氧1小时,78,44,98,25,48,182,,107,107,13,36,8,8,0.6,0.7
2025-04-07T1300,1231A,120.3019,30.4183,杭州市,临平镇,臭氧1小时,84,60,107,19,55,187,,99,99,13,42,6,7,0.5,0.6
2025-04-07T1300,1232A,120.2753,30.1839,杭州市,城厢镇,臭氧1小时,82,55,110,25,49,185,,112,112,17,40,8,10,0.4,0.5
2025-04-07T1300,1233A,120.0883,30.1808,杭州市,云栖,臭氧1小时,88,51,86,22,37,190,,88,88,24,45,9,9,0.6,0.6
2025-04-07T1300,3557A,119.9464,30.0494,杭州市,镇二中,,50,42,67,26,35,160,,88,88,14,38,7,7,0.6,0.7
2025-04-07T1300,3558A,119.7183,30.2367,杭州市,市府大楼,,50,40,72,21,35,159,,103,103,12,25,9,9,0.4,0.5
2025-04-07T1300,3656A,120.1556,30.2864,杭州市,消防大队,臭氧1小时,85,50,104,22,56,188,,116,116,16,37,4,5,0.5,0.6
2025-04-07T1300,1270A,117.1959,31.7848,合肥市,明珠广场,颗粒物(PM10),58,66,61,17,25,164,,106,106,12,22,6,6,0.4,0.4
2025-04-07T1300,1271A,117.3072,31.8764,合肥市,三里街,颗粒物(PM10),68,85,69,27,22,158,,90,90,20,39,8,8,0.7,0.7
2025-04-07T1300,1272A,117.2588,31.8707,合肥市,琥珀山庄,颗粒物(PM10),67,83,67,30,24,162,,105,105,17,23,5,4,0.7,0.7
2025-04-07T1300,1273A,117.1604,31.9052,合肥市,董铺水库,,,88,70,,25,160,,111,111,,8,4,3,0.4,0.3
2025-04-07T1300,1274A,117.25,31.8571,合肥市,长江中路,颗粒物(PM10),69,88,66,37,28,162,,106,106,17,21,10,10,0.6,0.6
2025-04-07T1300,1275A,117.266,31.9436,合肥市,庐阳区,颗粒物(PM10),63,75,67,27,25,156,,105,105,19,23,9,7,0.4,0.4
2025-04-07T1300,1276A,117.3453,31.8616,合肥市,瑶海区,颗粒物(PM10),84,117,74,44,32,162,,104,104,14,28,8,8,0.6,0.6
2025-04-07T1300,1277A,117.3027,31.7964,合肥市,包河区,颗粒物(PM10),73,95,61,27,22,171,,112,112,11,19,8,7,0.4,0.4
2025-04-07T1300,1278A,117.2776,31.7385,合肥市,滨湖新区,颗粒物(PM10),73,95,63,31,37,160,,104,104,11,16,8,7,0.5,0.5
2025-04-07T1300,1279A,117.1318,31.8403,合肥市,高新区,颗粒物(PM10),57,63,73,23,21,150,,107,107,10,18,4,4,0.4,0.4
2025-04-07T1300,3464A,117.3803,31.9147,合肥市,高教基地,,,99,66,,28,180,,120,120,10,19,7,6,0.4,0.4
2025-04-07T1300,3614A,79.924,37.0877,和田地区,地区环保局,颗粒物(PM10),405,505,373,134,71,53,,64,50,16,15,1,2,0.4,0.4
2025-04-07T1300,3615A,79.9131,37.113,和田地区,市环保局,颗粒物(PM10),216,361,337,60,59,59,,75,54,9,11,3,2,0.1,0.1
2025-04-07T1300,2516A,108.2011,24.715,河池市,东仁乐园,细颗粒物(PM2.5),107,120,101,80,71,73,,31,30,21,25,19,15,1.2,1.2
2025-04-07T1300,2517A,108.0497,24.6947,河池市,市环保站,细颗粒物(PM2.5),97,106,89,72,70,81,,44,44,16,19,14,13,0.8,0.7
2025-04-07T1300,2518A,108.0983,24.6989,河池市,市疾控中心,,,94,88,72,72,74,,28,28,23,30,20,14,,0.9
2025-04-07T1300,1696A,114.6778,23.7569,河源市,源西,颗粒物(PM10),53,55,53,24,31,123,,42,42,8,29,4,4,0.6,0.8
2025-04-07T1300,1697A,114.6944,23.7586,河源市,东埔,,48,48,55,24,33,134,,45,45,12,28,4,4,0.6,0.8
2025-04-07T1300,1698A,114.6892,23.7233,河源市,老城,,48,48,51,21,33,133,,48,48,9,21,4,4,0.5,0.6
2025-04-07T1300,1718A,115.4208,35.2464,菏泽市,气象局,颗粒物(PM10),109,168,148,66,49,136,,97,97,10,16,5,7,0.4,0.4
2025-04-07T1300,3374A,115.5564,35.0891,菏泽市,定陶老年大学,颗粒物(PM10),92,134,126,39,36,121,,96,96,13,17,5,6,0.3,0.4
2025-04-07T1300,4184A,115.4797,35.24401,菏泽市,永昌路1号,颗粒物(PM10),95,140,138,61,49,123,,91,91,9,14,6,7,0.2,0.3
2025-04-07T1300,4193A,115.4715,35.2800,菏泽市,长城路999号,颗粒物(PM10),98,146,142,36,35,136,,102,102,12,18,5,13,0.4,0.4
2025-04-07T1300,2514A,111.5264,24.4172,贺州市,环保小区,细颗粒物(PM2.5),85,79,99,63,67,107,,54,54,20,27,10,9,0.7,0.8
2025-04-07T1300,2515A,111.5608,24.4078,贺州市,政协大楼,细颗粒物(PM2.5),95,,90,71,65,100,,52,52,17,25,12,10,0.8,0.8
2025-04-07T1300,3534A,111.4744,24.4553,贺州市,西湾,细颗粒物(PM2.5),87,101,94,64,65,105,,43,43,19,28,12,8,0.7,0.8
2025-04-07T1300,2385A,114.17,35.9019,鹤壁市,市监测站,颗粒物(PM10),94,137,131,68,50,127,,76,76,15,21,12,10,0.7,0.7
2025-04-07T1300,2386A,114.2956,35.7511,鹤壁市,市交警支队,颗粒物(PM10),98,146,140,53,46,118,,51,51,30,36,119,16,0.8,1
2025-04-07T1300,2387A,114.2878,35.7306,鹤壁市,迎宾馆,颗粒物(PM10),107,163,151,48,40,130,,57,57,22,30,14,9,0.7,0.7
2025-04-07T1300,3474A,114.2617,35.6822,鹤壁市,大新区,细颗粒物(PM2.5),169,143,138,128,71,125,,52,52,19,39,14,12,0.7,0.7
2025-04-07T1300,3596A,114.1572,35.9603,鹤壁市,南山宾馆,颗粒物(PM10),94,137,142,45,50,123,,84,84,19,23,14,9,0.6,0.6
2025-04-07T1300,2244A,130.2537,47.3416,鹤岗市,哈啤分公司,,33,33,37,23,26,100,,64,64,9,14,15,15,0.3,0.4
2025-04-07T1300,2245A,130.2684,47.3086,鹤岗市,斯达机电,,35,35,50,17,30,106,,72,66,7,14,15,15,0.4,0.5
2025-04-07T1300,2246A,130.3114,47.3388,鹤岗市,东山纸板厂,,50,50,88,28,44,97,,57,57,7,22,12,15,0.2,1.5
2025-04-07T1300,2247A,130.1097,47.3382,鹤岗市,五号水库,,,,,,,,,,,,,,,,
2025-04-07T1300,2263A,127.4833,50.2524,黑河市,交通局,,,48,36,17,21,,,56,56,14,12,7,7,0.5,0.5
2025-04-07T1300,2264A,127.5144,50.2341,黑河市,环保局,,46,46,30,27,22,111,,76,76,8,8,4,5,0.5,0.4
2025-04-07T1300,2265A,127.5291,50.2472,黑河市,大黑河岛,,43,43,26,28,17,82,,67,67,8,8,1,1,0.3,0.3
2025-04-07T1300,1074A,115.6838,37.7541,衡水市,电机北厂,细颗粒物(PM2.5),114,162,139,86,59,167,,73,73,21,24,12,10,0.6,0.5
2025-04-07T1300,1075A,115.6303,37.7316,衡水市,市监测站,颗粒物(PM10),90,130,123,63,55,167,,76,76,23,25,14,12,0.6,0.5
2025-04-07T1300,3188A,115.6683,37.7217,衡水市,市城管局,颗粒物(PM10),94,137,126,69,55,173,,74,74,24,27,10,14,0.6,0.5
2025-04-07T1300,3459A,115.5989,37.5491,衡水市,地表水厂,细颗粒物(PM2.5),125,171,136,95,55,156,,77,77,33,31,15,14,0.6,0.4
2025-04-07T1300,2456A,112.5003,26.9167,衡阳市,原169医院,颗粒物(PM10),79,108,88,47,51,95,,43,43,6,21,13,14,0.7,0.7
2025-04-07T1300,2457A,112.6194,26.9258,衡阳市,衡阳化工总厂,颗粒物(PM10),92,133,111,56,59,110,,54,54,12,24,17,15,1.2,1
2025-04-07T1300,2458A,112.6211,26.8956,衡阳市,珠晖区环保局,颗粒物(PM10),78,106,103,54,56,115,,57,57,9,23,14,17,0.9,1
2025-04-07T1300,2459A,112.6197,26.8733,衡阳市,市委党校,,,96,99,46,49,115,,56,56,,23,12,11,0.7,0.7
2025-04-07T1300,2460A,112.6006,26.8919,衡阳市,市监测站,细颗粒物(PM2.5),104,134,108,78,64,108,,56,56,14,29,15,19,0.8,1
2025-04-07T1300,2461A,112.5664,26.9056,衡阳市,真空机电公司,颗粒物(PM10),89,127,110,55,54,103,,53,53,15,30,14,17,0.9,1
2025-04-07T1300,3399A,112.6703,26.882,衡阳市,师范学院,细颗粒物(PM2.5),89,107,104,66,61,115,,53,53,13,19,19,15,0.9,0.8
2025-04-07T1300,2608A,103.3772,23.3993,红河哈尼族彝族自治州,污水处理厂,,49,41,38,34,34,83,,83,79,12,10,8,8,0.6,0.5
2025-04-07T1300,2609A,103.3861,23.35,红河哈尼族彝族自治州,监测站,颗粒物(PM10),55,60,49,25,27,89,,92,86,7,8,10,11,0.3,0.3
2025-04-07T1300,3038A,103.3758,23.368,红河哈尼族彝族自治州,州图书馆,,45,38,34,31,30,83,,88,83,12,10,6,6,0.5,0.5
2025-04-07T1300,1090A,111.6507,40.7517,呼和浩特市,呼市一监,,34,34,132,8,48,95,,84,84,3,24,10,14,0.4,0.7
2025-04-07T1300,1091A,111.6572,40.8033,呼和浩特市,小召,,32,29,121,7,44,101,,81,81,7,33,4,9,0.4,0.7
2025-04-07T1300,1094A,111.7516,40.8369,呼和浩特市,如意水处理厂,,32,29,99,7,38,102,,90,90,4,33,5,11,0.3,0.6
2025-04-07T1300,1095A,111.7276,40.8062,呼和浩特市,二十九中,,33,25,114,18,43,103,,90,90,2,25,3,8,0.6,0.8
2025-04-07T1300,1096A,111.5512,40.7866,呼和浩特市,工大金川校区,,33,30,108,12,39,105,,93,93,7,25,6,9,0.4,0.6
2025-04-07T1300,1097A,111.717,40.7612,呼和浩特市,化肥厂生活区,,34,29,128,6,48,106,,91,91,7,29,6,11,0.3,0.6
2025-04-07T1300,3698A,111.5968,40.8178,呼和浩特市,红旗小学,,36,36,110,9,35,108,,91,91,7,32,3,8,0.4,0.6
2025-04-07T1300,3699A,111.6518,40.8389,呼和浩特市,海东办,,34,34,106,9,36,98,,80,80,1,25,5,9,0.5,0.7
2025-04-07T1300,2192A,119.7594,49.2261,呼伦贝尔市,区环保局,,42,42,37,23,25,86,,58,58,7,12,5,5,0.3,0.3
2025-04-07T1300,3061A,119.7512,49.1577,呼伦贝尔市,国华电力东,,30,30,29,9,15,90,,66,66,5,6,4,4,0.4,0.4
2025-04-07T1300,1250A,120.0751,30.8669,湖州市,城西水厂,臭氧1小时,77,50,114,20,54,181,,107,107,18,37,8,9,0.4,0.5
2025-04-07T1300,2873A,120.0830,30.8929,湖州市,仁皇山新区,臭氧1小时,74,50,104,23,54,179,,108,108,18,31,6,7,0.6,0.7
2025-04-07T1300,2907A,120.1844,30.8596,湖州市,吴兴区站,臭氧1小时,72,58,115,22,51,177,,104,104,19,29,7,9,0.5,0.6
2025-04-07T1300,3562A,120.4148,30.8538,湖州市,南浔区站,臭氧1小时,84,55,97,26,50,187,,114,114,20,31,4,6,0.4,0.5
2025-04-07T1300,1607A,120.9049,40.7211,葫芦岛市,龙港区,细颗粒物(PM2.5),60,60,54,43,39,115,,84,84,13,30,10,11,0.5,0.6
2025-04-07T1300,1608A,120.8392,40.7514,葫芦岛市,化工街,颗粒物(PM10),63,75,83,44,48,106,,64,64,18,50,15,27,0.6,0.8
2025-04-07T1300,1609A,120.8341,40.7073,葫芦岛市,新区,颗粒物(PM10),59,68,69,41,59,113,,78,78,15,46,9,11,0.7,0.8
2025-04-07T1300,1610A,120.8695,40.7677,葫芦岛市,东城区,,,64,76,55,57,116,,67,67,18,48,7,40,,0.9
2025-04-07T1300,2482A,109.5981,27.5721,怀化市,林科所,颗粒物(PM10),66,82,82,47,43,54,,56,49,30,34,3,6,0.6,0.4
2025-04-07T1300,2483A,109.9453,27.5444,怀化市,河西地税局,细颗粒物(PM2.5),74,74,84,54,50,50,,30,30,9,13,10,12,0.4,0.4
2025-04-07T1300,2484A,109.9781,27.5342,怀化市,市四医院,细颗粒物(PM2.5),73,81,94,53,49,65,,39,39,9,16,8,9,0.7,0.5
2025-04-07T1300,2485A,109.9972,27.5578,怀化市,监测楼,,,70,83,50,46,,,38,,7,13,8,8,0.6,0.5
2025-04-07T1300,2486A,110.0394,27.583,怀化市,市委党校,颗粒物(PM10),60,69,88,41,47,69,,38,38,9,21,7,8,0.7,0.6
2025-04-07T1300,1210A,119.036,33.5981,淮安市,钵池山,颗粒物(PM10),59,68,79,35,35,160,,118,118,11,19,13,13,0.7,0.7
2025-04-07T1300,1211A,119.007,33.575,淮安市,北京南路,颗粒物(PM10),64,78,77,33,35,160,,114,114,16,21,20,12,0.9,0.7
2025-04-07T1300,1212A,118.989,33.6067,淮安市,市监测站,,,78,74,36,36,159,,108,108,,23,12,15,0.5,0.6
2025-04-07T1300,1213A,119.135,33.5039,淮安市,楚州区监测站,颗粒物(PM10),70,90,93,42,42,158,,95,95,9,29,12,11,0.7,0.6
2025-04-07T1300,3426A,118.8755,33.2894,淮安市,新华书店,颗粒物(PM10),64,77,82,33,38,155,,110,110,14,22,13,12,0.7,0.6
2025-04-07T1300,4206A,119.0288,33.6319,淮安市,承德北路606号,颗粒物(PM10),64,78,87,36,33,153,,117,117,11,23,11,12,0.8,0.6
2025-04-07T1300,2282A,116.8004,33.975,淮北市,监测站,颗粒物(PM10),80,110,107,41,39,164,,112,112,12,21,8,9,0.6,0.6
2025-04-07T1300,2283A,116.8091,33.9007,淮北市,烈山区政府,颗粒物(PM10),80,110,106,28,34,167,,101,101,12,24,6,7,0.7,0.7
2025-04-07T1300,3330A,116.8873,33.9836,淮北市,杜集区检察院,颗粒物(PM10),74,98,105,33,36,168,,107,107,16,23,8,8,0.7,0.6
2025-04-07T1300,4017A,116.7923,33.9535,淮北市,市博物馆,颗粒物(PM10),76,102,103,38,48,161,,105,105,12,19,9,9,0.8,0.8
2025-04-07T1300,2277A,116.8305,32.7727,淮南市,潘集区政府,颗粒物(PM10),61,71,104,30,41,132,,96,96,12,25,4,7,0.3,0.4
2025-04-07T1300,2279A,116.8569,32.5951,淮南市,谢家集区政府,颗粒物(PM10),53,55,93,26,30,133,,98,98,11,20,7,7,0.3,0.3
2025-04-07T1300,2280A,116.8281,32.633,淮南市,八公山区政府,颗粒物(PM10),63,76,96,32,31,132,,102,102,8,13,5,4,0.3,0.3
2025-04-07T1300,2281A,116.6325,32.6201,淮南市,焦岗湖风景区管理处,细颗粒物(PM2.5),58,58,66,41,30,68,,59,59,14,16,9,8,0.4,0.4
2025-04-07T1300,2894A,117.0566,32.6531,淮南市,经济技术开发区消防队,颗粒物(PM10),55,59,85,30,30,146,,98,98,5,17,6,8,0.3,0.4
2025-04-07T1300,3329A,117.0108,32.5893,淮南市,山南新区,颗粒物(PM10),61,71,99,24,28,142,,104,104,5,16,8,9,0.3,0.3
2025-04-07T1300,4209A,117.0031,32.6445,淮南市,国庆中路369号,细颗粒物(PM2.5),63,,78,45,31,140,,109,109,10,17,9,10,0.3,0.5
2025-04-07T1300,2446A,114.9028,30.4742,黄冈市,职工中心,细颗粒物(PM2.5),67,80,74,48,40,124,,83,83,32,29,17,14,0.9,0.7
2025-04-07T1300,2929A,114.8858,30.4519,黄冈市,红卫路,颗粒物(PM10),68,85,76,36,34,104,,76,76,31,27,16,12,1.1,0.8
2025-04-07T1300,3398A,114.9136,30.4445,黄冈市,市林业局,颗粒物(PM10),66,81,82,39,37,120,,79,79,39,34,19,16,1.1,1
2025-04-07T1300,2672A,102.0199,35.5102,黄南藏族自治州,同仁县隆务镇,颗粒物(PM10),59,67,62,30,25,100,,69,69,6,3,18,19,0.2,0.2
2025-04-07T1300,2295A,118.2903,29.6963,黄山市,延安路89号,,50,47,43,35,25,138,,59,59,4,14,6,6,0.3,0.2
2025-04-07T1300,2297A,118.1371,30.2756,黄山市,黄山区政府5号楼,颗粒物(PM10),56,62,51,25,28,138,,72,72,2,6,9,8,0.4,0.5
2025-04-07T1300,4210A,118.3354,29.7203,黄山市,滨江东路7-2号,颗粒物(PM10),53,56,51,14,19,139,,66,66,4,9,6,5,0.4,0.4
2025-04-07T1300,2423A,115.0601,30.2313,黄石市,沈家营,颗粒物(PM10),71,91,79,34,35,138,,62,62,26,43,14,10,0.7,0.7
2025-04-07T1300,2426A,114.8988,30.2019,黄石市,铁山,,,,75,,34,151,,92,92,14,21,,16,0.7,0.9
2025-04-07T1300,2427A,115.0307,30.2092,黄石市,团城山,颗粒物(PM10),66,82,77,30,32,138,,60,60,25,37,16,13,0.7,0.7
2025-04-07T1300,3149A,115.0235,30.1578,黄石市,笔架山北路,颗粒物(PM10),57,64,73,33,34,145,,79,79,18,27,19,19,0.8,0.9
2025-04-07T1300,4185A,115.0780,30.21118,黄石市,磁湖东路29号,颗粒物(PM10),72,93,99,38,42,150,,60,60,21,48,15,12,0.9,0.9
2025-04-07T1300,1392A,114.4183,23.0528,惠州市,河南岸金山湖子站,,46,46,59,25,35,136,,57,57,13,31,9,9,0.5,0.7
2025-04-07T1300,1393A,114.4053,23.0822,惠州市,下埔横江三路子站,颗粒物(PM10),52,53,67,26,39,149,,67,67,15,35,10,10,0.6,0.7
2025-04-07T1300,1394A,114.4103,23.1142,惠州市,江北云山西路子站,"颗粒物(PM10),臭氧1小时",52,53,71,24,40,161,,72,72,13,35,10,12,0.5,0.6
2025-04-07T1300,1395A,114.4645,22.7833,惠州市,惠阳区承修路船湖子站,,45,43,61,20,32,143,,67,67,12,31,9,9,0.4,0.7
2025-04-07T1300,1396A,114.5317,22.7422,惠州市,大亚湾管委会子站,,47,42,52,22,26,150,,76,76,9,36,8,7,0.4,0.6
2025-04-07T1300,3314A,114.4338,22.8134,惠州市,惠阳秋长,臭氧1小时,59,58,65,25,33,167,,80,80,6,24,7,7,0.7,0.8
2025-04-07T1300,3452A,114.6517,22.775,惠州市,大亚湾霞涌,,46,39,46,30,26,147,,104,104,18,18,8,7,0.6,0.5
2025-04-07T1300,2240A,130.9762,45.3001,鸡西市,环保局,,36,22,25,14,17,115,,86,86,5,16,5,6,0.5,0.6
2025-04-07T1300,2243A,130.9429,45.3039,鸡西市,第一中学,,36,15,19,9,13,113,,84,84,6,14,6,6,0.4,0.5
2025-04-07T1300,3707A,131.0207,45.3073,鸡西市,欧美日汽修厂,,40,23,34,12,21,126,,80,80,6,23,6,7,0.6,0.7
2025-04-07T1300,3709A,130.9967,45.3106,鸡西市,市政设施管理处,,35,26,31,17,17,109,,69,69,7,27,6,6,0.7,0.7
2025-04-07T1300,2367A,114.9754,27.0803,吉安市,红声器材厂,颗粒物(PM10),59,67,70,31,36,126,,71,71,12,22,12,16,0.4,0.5
2025-04-07T1300,2368A,114.9658,27.0999,吉安市,市森林工业局,颗粒物(PM10),57,63,67,31,37,128,,68,68,14,28,12,13,0.6,0.6
2025-04-07T1300,2369A,114.99,27.1312,吉安市,市环境监测站,颗粒物(PM10),53,56,62,27,35,136,,66,66,9,25,18,19,0.4,0.5
2025-04-07T1300,2370A,115.0093,27.0968,吉安市,青原区法院,颗粒物(PM10),55,60,68,31,35,135,,75,75,11,27,12,13,0.4,0.5
2025-04-07T1300,1772A,126.54,43.8622,吉林市,哈达湾,,28,18,59,12,40,89,,65,65,10,16,6,6,0.7,0.8
2025-04-07T1300,1773A,126.5844,43.8358,吉林市,东局子,,,32,54,30,42,92,,69,69,,19,5,6,0.6,0.8
2025-04-07T1300,1774A,126.5052,43.8245,吉林市,电力学院,,28,13,57,8,44,87,,57,57,10,18,4,5,0.7,0.8
2025-04-07T1300,1775A,126.6133,43.8972,吉林市,江北,,30,21,68,8,45,96,,67,67,9,20,4,5,0.5,0.7
2025-04-07T1300,1776A,126.555,43.8306,吉林市,江南公园,,28,18,55,16,43,88,,62,62,8,16,5,6,0.4,0.6
2025-04-07T1300,1778A,126.7061,43.7133,吉林市,丰满,,36,17,47,15,42,113,,77,77,8,12,5,6,1.0,1
2025-04-07T1300,2868A,126.4739,43.953,吉林市,九站,,29,24,60,12,47,90,,59,59,8,22,11,15,0.6,0.7
2025-04-07T1300,1299A,116.9862,36.6114,济南市,科干所,颗粒物(PM10),87,124,110,42,33,151,,132,128,17,11,12,9,0.6,0.5
2025-04-07T1300,1300A,116.9376,36.665,济南市,农科所,颗粒物(PM10),90,129,123,46,28,139,,117,115,17,17,12,9,0.5,0.4
2025-04-07T1300,1301A,117.1265,36.6734,济南市,开发区,颗粒物(PM10),90,129,106,49,38,148,,130,126,20,13,13,9,0.6,0.5
2025-04-07T1300,1303A,117.0624,36.6868,济南市,省种子仓库,颗粒物(PM10),98,146,120,44,32,146,,130,124,15,12,10,7,0.8,0.7
2025-04-07T1300,1304A,116.9489,36.6447,济南市,机床二厂,颗粒物(PM10),94,137,132,54,39,145,,126,120,18,20,13,11,0.5,0.4
2025-04-07T1300,1305A,117.0495,36.663,济南市,市监测站,颗粒物(PM10),95,139,116,51,33,139,,125,118,21,14,13,10,0.6,0.4
2025-04-07T1300,1306A,116.7675,36.5484,济南市,长清党校,细颗粒物(PM2.5),108,147,131,81,42,151,,122,122,24,22,10,8,0.9,0.8
2025-04-07T1300,1616A,117.6795,36.229,济南市,技术学院,,,,123,41,41,152,,114,114,14,36,13,14,0.6,0.7
2025-04-07T1300,1961A,117.532,36.6868,济南市,东山小学,颗粒物(PM10),106,161,120,42,31,148,,127,126,17,13,11,10,0.3,0.3
2025-04-07T1300,3059A,117.7161,36.2049,济南市,泰兴公司,颗粒物(PM10),82,114,120,36,43,150,,85,85,14,48,11,12,0.7,0.8
2025-04-07T1300,3064A,117.6867,36.2171,济南市,莱芜战役纪念馆,颗粒物(PM10),82,114,123,36,35,151,,106,106,20,43,9,9,0.6,0.7
2025-04-07T1300,3494A,117.1673,36.9782,济南市,济阳区政府,颗粒物(PM10),96,142,135,59,43,145,,117,117,15,28,18,12,0.7,0.5
2025-04-07T1300,3495A,117.1171,36.63,济南市,锦屏中学,,,134,105,42,32,143,,125,120,,13,13,10,0.5,0.3
2025-04-07T1300,3682A,116.9814,36.6819,济南市,济南四建,颗粒物(PM10),123,195,126,56,42,140,,125,119,24,16,10,7,0.5,0.4
2025-04-07T1300,1653A,116.6251,35.4302,济宁市,火炬城,颗粒物(PM10),82,114,104,39,43,137,,107,107,6,10,6,6,0.4,0.4
2025-04-07T1300,1655A,116.5491,35.4042,济宁市,电化厂,颗粒物(PM10),99,147,133,39,39,130,,95,95,11,16,6,6,0.3,0.3
2025-04-07T1300,3500A,116.5814,35.3707,济宁市,北湖一中,颗粒物(PM10),84,117,101,22,23,131,,104,104,13,16,12,12,0.4,0.4
2025-04-07T1300,3501A,116.8249,35.5593,济宁市,服务中心,颗粒物(PM10),88,125,125,35,37,139,,104,104,12,20,7,8,0.7,0.8
2025-04-07T1300,3678A,116.5907,35.4054,济宁市,市第七中学,颗粒物(PM10),85,119,109,34,32,135,,107,107,8,14,6,6,0.4,0.4
2025-04-07T1300,2255A,130.2751,46.8028,佳木斯市,佳纺,,36,31,56,21,31,113,,68,68,4,26,6,8,0.5,0.7
2025-04-07T1300,2256A,130.3995,46.8307,佳木斯市,发电厂,,43,43,46,29,32,112,,61,61,11,33,3,5,0.6,0.7
2025-04-07T1300,2257A,130.3258,46.7975,佳木斯市,环保局,,36,33,46,25,29,113,,68,68,10,34,2,4,0.5,0.6
2025-04-07T1300,2258A,130.3648,46.8032,佳木斯市,十一中,,38,33,47,26,32,107,,60,60,7,35,6,8,0.5,0.7
2025-04-07T1300,2259A,130.3794,46.7588,佳木斯市,四丰,,33,,24,21,14,104,,78,78,4,6,1,1,0.9,0.9
2025-04-07T1300,1252A,120.7436,30.778,嘉兴市,清河小学,臭氧1小时,70,70,89,24,41,176,,115,115,19,33,7,8,0.8,0.9
2025-04-07T1300,1253A,120.726,30.7478,嘉兴市,嘉兴学院,臭氧1小时,84,62,81,24,40,187,,119,119,16,30,9,10,0.7,0.8
2025-04-07T1300,2872A,120.7846,30.7525,嘉兴市,南湖区残联,臭氧1小时,98,73,85,25,39,198,,133,133,15,29,10,12,0.6,0.7
2025-04-07T1300,3407A,120.6916,30.7739,嘉兴市,秀洲住建,,,66,89,28,36,199,,121,121,17,31,,9,0.6,0.7
2025-04-07T1300,1945A,98.2908,39.7711,嘉峪关市,气象局,颗粒物(PM10),178,305,125,61,37,96,,89,89,6,16,19,13,0.6,0.5
2025-04-07T1300,2884A,98.2672,39.7978,嘉峪关市,酒钢宾馆,颗粒物(PM10),240,378,135,73,39,87,,78,78,6,12,25,23,0.3,0.3
2025-04-07T1300,3248A,98.2643,39.7724,嘉峪关市,雄关区,颗粒物(PM10),119,188,106,43,31,97,,84,84,8,19,4,9,0.4,0.4
2025-04-07T1300,1383A,113.1064,22.6058,江门市,北街,臭氧1小时,90,98,98,44,60,192,,68,68,38,62,5,4,0.6,1.2
2025-04-07T1300,1384A,113.0731,22.5835,江门市,西区,臭氧1小时,106,86,100,48,52,212,,70,70,43,63,10,9,0.8,1.1
2025-04-07T1300,1385A,113.0219,22.5311,江门市,圭峰西,臭氧1小时,90,95,75,51,48,192,,84,84,28,41,8,7,0.6,0.7
2025-04-07T1300,1386A,113.0828,22.5947,江门市,东湖,臭氧1小时,107,114,112,57,54,213,,68,68,39,56,8,9,0.6,1
2025-04-07T1300,3311A,113.1075,22.5647,江门市,江海富民,臭氧1小时,111,103,110,60,61,221,,72,72,43,64,10,9,0.8,1.1
2025-04-07T1300,3449A,113.05,22.4667,江门市,新会银湖,臭氧1小时,101,84,92,59,74,201,,68,68,27,45,4,2,0.4,0.6
2025-04-07T1300,1830A,113.1992,35.2590,焦作市,影视城,,,,69,,25,,,,,,5,,7,,0.8
2025-04-07T1300,3169A,113.2725,35.2067,焦作市,太极体育中心,颗粒物(PM10),72,94,132,44,50,129,,85,85,16,30,12,13,0.3,0.4
2025-04-07T1300,3335A,113.3137,35.2641,焦作市,马村街道办,颗粒物(PM10),76,102,122,40,60,120,,74,74,16,28,12,13,0.7,0.7
2025-04-07T1300,3336A,113.2465,35.2373,焦作市,焦作技师学院,颗粒物(PM10),88,126,132,31,37,117,,77,77,19,28,12,12,0.8,0.8
2025-04-07T1300,3477A,113.1656,35.2539,焦作市,中站许衡医院,颗粒物(PM10),79,108,97,38,34,116,,89,89,27,25,20,12,1.0,0.7
2025-04-07T1300,3981A,113.2449,35.1803,焦作市,原李万街道办,颗粒物(PM10),84,118,134,36,53,132,,74,74,16,32,14,18,0.4,0.6
2025-04-07T1300,4264A,113.2340,35.2190,焦作市,新安路1731号,颗粒物(PM10),87,124,135,42,47,112,,73,73,16,29,12,12,0.7,0.5
2025-04-07T1300,1708A,116.3701,23.5345,揭阳市,新兴,颗粒物(PM10),60,69,73,30,49,155,,78,78,16,27,9,8,0.6,0.9
2025-04-07T1300,1709A,116.3264,23.5443,揭阳市,西马,颗粒物(PM10),58,66,72,17,48,161,,76,76,10,22,10,9,0.6,0.8
2025-04-07T1300,1710A,116.3611,23.5626,揭阳市,东兴,颗粒物(PM10),60,69,84,24,48,158,,72,72,13,29,11,10,0.6,1
2025-04-07T1300,1711A,116.4151,23.5294,揭阳市,渔湖,颗粒物(PM10),56,62,72,31,35,161,,80,80,14,26,8,7,0.7,1
2025-04-07T1300,3320A,116.403,23.5699,揭阳市,曲溪,臭氧1小时,67,65,79,40,42,173,,84,84,17,32,2,2,0.5,0.9
2025-04-07T1300,1944A,102.1692,38.5167,金昌市,天庆家园,颗粒物(PM10),102,153,81,75,41,119,,64,64,18,20,57,27,0.6,0.9
2025-04-07T1300,4022A,102.1647,38.5371,金昌市,金川区人防中心,颗粒物(PM10),139,227,105,89,54,121,,61,59,24,15,38,20,1.0,0.6
2025-04-07T1300,4239A,102.1930,38.5319,金昌市,长春路96号,颗粒物(PM10),344,455,161,83,38,121,,61,61,20,15,58,26,0.9,0.7
2025-04-07T1300,1262A,119.647,29.077,金华市,十五中,臭氧1小时,70,63,80,22,35,176,,125,125,14,37,6,7,0.4,0.5
2025-04-07T1300,1263A,119.686,29.1029,金华市,监测站,臭氧1小时,63,64,82,29,38,170,,111,111,13,37,6,6,0.3,0.4
2025-04-07T1300,3659A,119.656,29.1131,金华市,气象局,臭氧1小时,69,67,82,25,35,175,,115,115,9,34,6,7,0.4,0.5
2025-04-07T1300,1767A,121.1115,41.0879,锦州市,南山,细颗粒物(PM2.5),84,,54,62,52,99,,69,69,24,30,12,19,0.7,0.8
2025-04-07T1300,1768A,121.0604,40.8428,锦州市,开发区,细颗粒物(PM2.5),73,63,79,53,54,103,,76,76,22,53,11,28,0.7,0.9
2025-04-07T1300,1769A,121.1836,41.1119,锦州市,百股街道,细颗粒物(PM2.5),64,69,64,46,43,108,,68,68,25,42,11,11,0.6,0.7
2025-04-07T1300,1770A,121.1178,41.1222,锦州市,天安街道,细颗粒物(PM2.5),82,62,65,60,53,98,,71,71,25,41,13,19,0.7,0.8
2025-04-07T1300,1771A,121.1303,41.1386,锦州市,北湖公园,细颗粒物(PM2.5),80,66,67,59,52,100,,66,66,25,36,13,18,0.8,0.9
2025-04-07T1300,2160A,112.85,35.5051,晋城市,自来水公司,颗粒物(PM10),78,105,104,51,36,139,,64,64,12,38,9,9,0.8,0.8
2025-04-07T1300,2161A,112.8318,35.4936,晋城市,白云商贸,颗粒物(PM10),88,125,115,29,29,140,,68,68,15,36,8,8,0.8,0.9
2025-04-07T1300,2162A,112.8508,35.4887,晋城市,市环保局,颗粒物(PM10),85,119,117,36,36,137,,62,62,12,44,6,6,0.7,0.7
2025-04-07T1300,2163A,112.8676,35.4897,晋城市,技术学院,颗粒物(PM10),81,112,110,39,34,130,,63,63,13,45,8,8,0.8,0.9
2025-04-07T1300,2165A,112.8453,35.546,晋城市,白马寺,颗粒物(PM10),72,94,84,37,36,136,,98,98,7,12,5,7,0.6,0.6
2025-04-07T1300,3620A,112.8271,35.4828,晋城市,泽州一中,颗粒物(PM10),101,152,109,44,40,139,,72,72,13,29,4,5,0.7,0.9
2025-04-07T1300,2173A,112.7249,37.7067,晋中市,南都小区,颗粒物(PM10),88,125,133,38,37,136,,68,68,20,31,15,21,0.7,0.6
2025-04-07T1300,2174A,112.6991,37.6982,晋中市,榆次区政府,颗粒物(PM10),92,134,140,38,34,136,,71,71,24,34,14,21,0.5,0.7
2025-04-07T1300,2865A,112.7195,37.6828,晋中市,榆次三中,颗粒物(PM10),95,139,152,48,43,142,,67,67,24,38,14,18,0.7,0.7
2025-04-07T1300,4200A,112.7478,37.6954,晋中市,迎宾街26号,颗粒物(PM10),97,144,147,51,48,142,,75,75,23,29,16,19,0.8,0.6
2025-04-07T1300,2439A,112.2014,31.0481,荆门市,竹园小学,颗粒物(PM10),78,106,113,44,38,141,,103,98,12,16,8,8,0.4,0.4
2025-04-07T1300,2440A,112.1969,30.9891,荆门市,掇刀,颗粒物(PM10),84,118,109,44,41,143,,99,99,9,14,10,11,0.4,0.4
2025-04-07T1300,2441A,112.2213,31.0386,荆门市,石化一小,颗粒物(PM10),79,108,110,40,36,137,,93,93,11,18,11,13,0.2,0.3
2025-04-07T1300,3012A,112.1849,31.0362,荆门市,西山林语,颗粒物(PM10),75,100,94,40,36,142,,102,96,9,12,9,7,0.3,0.3
2025-04-07T1300,3547A,112.1632,31.0138,荆门市,龙泉中学南校,颗粒物(PM10),76,102,108,45,42,128,,93,92,17,16,9,9,0.5,0.4
2025-04-07T1300,1844A,112.2494,30.3197,荆州市,市图书馆,颗粒物(PM10),60,70,88,38,43,116,,94,85,12,19,5,8,0.4,0.5
2025-04-07T1300,1845A,112.2008,30.3544,荆州市,市委党校,颗粒物(PM10),59,68,90,40,43,109,,89,75,13,22,7,9,0.6,0.6
2025-04-07T1300,3194A,112.2747,30.3122,荆州市,管委会,颗粒物(PM10),66,82,96,42,43,118,,92,87,7,15,10,11,0.5,0.6
2025-04-07T1300,4268A,112.1722,30.3366,荆州市,学苑路85号,颗粒物(PM10),58,65,73,35,41,117,,72,72,12,23,9,11,0.4,0.5
2025-04-07T1300,2342A,117.3102,29.3867,景德镇市,王港中学,,,,,,,,,,,,,,,,
2025-04-07T1300,2343A,117.2117,29.2933,景德镇市,老干部活动中心,颗粒物(PM10),64,78,74,36,31,117,,74,74,25,29,17,11,0.7,0.5
2025-04-07T1300,2344A,117.1894,29.2789,景德镇市,兽医站,颗粒物(PM10),58,66,82,29,33,105,,66,66,34,34,21,12,0.8,0.7
2025-04-07T1300,2345A,117.1547,29.2617,景德镇市,台达陶瓷,颗粒物(PM10),67,84,77,28,32,115,,74,74,27,28,27,17,0.8,0.6
2025-04-07T1300,2346A,117.2461,29.2956,景德镇市,陶研所,,,60,59,35,37,117,,58,58,11,25,,7,0.6,0.5
2025-04-07T1300,1803A,115.9872,29.6815,九江市,十里,,,110,73,29,32,112,,60,60,34,33,,4,0.6,0.6
2025-04-07T1300,1804A,115.9584,29.7046,九江市,茅山头,颗粒物(PM10),67,84,76,24,31,122,,63,63,27,43,9,6,0.5,0.5
2025-04-07T1300,1805A,115.9877,29.7295,九江市,西园,颗粒物(PM10),61,71,63,34,29,102,,49,49,34,54,11,10,0.9,0.9
2025-04-07T1300,1808A,115.9114,29.6038,九江市,综合工业园,颗粒物(PM10),58,65,65,31,26,149,,100,100,25,34,14,9,0.7,0.6
2025-04-07T1300,1809A,116.0721,29.7535,九江市,石化总厂,细颗粒物(PM2.5),54,55,54,38,36,135,,88,88,18,24,18,13,0.7,0.6
2025-04-07T1300,1810A,115.9773,29.5698,九江市,庐山气象台,颗粒物(PM10),51,52,43,26,21,141,,140,140,11,8,22,7,0.8,0.7
2025-04-07T1300,3190A,116.0254,29.6994,九江市,外国语学校,颗粒物(PM10),61,71,60,20,30,117,,66,66,16,37,18,14,0.9,0.9
2025-04-07T1300,4253A,116.0102,29.6594,九江市,莲花大道8号,颗粒物(PM10),67,83,68,37,30,108,,75,70,30,14,9,6,0.7,0.5
2025-04-07T1300,4240A,98.4958,39.7339,酒泉市,玉门东路5号,颗粒物(PM10),322,437,149,57,40,92,,71,68,4,15,7,17,0.2,0.4
2025-04-07T1300,4241A,98.5099,39.7506,酒泉市,北大街108号,颗粒物(PM10),500,622,159,67,37,81,,58,58,6,18,13,24,0.5,0.5
2025-04-07T1300,2698A,76.0072,39.4467,喀什地区,巡警大队,颗粒物(PM10),52,53,110,9,20,99,,77,77,8,25,3,4,0.4,0.6
2025-04-07T1300,2699A,75.9755,39.4694,喀什地区,吾办,,49,49,97,14,30,96,,80,80,8,24,9,6,0.4,0.5
2025-04-07T1300,4027A,75.9483,39.4689,喀什地区,老干局,颗粒物(PM10),55,59,88,8,18,100,,82,82,8,19,3,3,0.5,0.3
2025-04-07T1300,1824A,114.3389,34.7781,开封市,肿瘤医院,颗粒物(PM10),88,125,133,39,42,137,,93,93,13,21,11,10,0.6,0.6
2025-04-07T1300,1826A,114.2885,34.7965,开封市,世纪星幼儿园,颗粒物(PM10),100,149,135,48,44,144,,93,93,19,26,11,10,0.5,0.6
2025-04-07T1300,3147A,114.3438,34.8106,开封市,龙亭公园,颗粒物(PM10),100,150,138,55,77,137,,92,92,14,21,7,7,0.5,0.5
2025-04-07T1300,3210A,114.3644,34.7964,开封市,汴京公园,颗粒物(PM10),99,148,147,44,50,145,,99,99,15,23,6,6,0.3,0.3
2025-04-07T1300,3473A,114.2485,34.8306,开封市,技师学院,颗粒物(PM10),103,155,134,46,67,144,,95,95,17,23,6,7,0.9,0.9
2025-04-07T1300,3592A,114.4644,34.7556,开封市,祥符区生态环境局,颗粒物(PM10),93,136,142,42,46,139,,97,97,13,26,8,8,0.5,0.6
2025-04-07T1300,1951A,84.895,45.6094,克拉玛依市,长征新村,,26,,20,18,9,82,,68,65,16,14,8,8,0.2,0.2
2025-04-07T1300,1952A,84.8988,45.5893,克拉玛依市,南林小区,,28,28,22,8,12,83,,67,67,8,6,4,3,0.1,0.1
2025-04-07T1300,1954A,84.905,44.3396,克拉玛依市,独山子区,,34,19,19,12,10,106,,74,74,8,10,7,7,0.2,0.2
2025-04-07T1300,1955A,85.6979,46.098,克拉玛依市,乌尔禾区商贸楼,,30,,16,15,7,94,,66,66,3,8,6,6,0.2,0.2
2025-04-07T1300,3612A,85.1045,45.6899,克拉玛依市,白碱滩区新站,,27,19,30,3,7,86,,62,62,7,9,10,10,0.3,0.4
2025-04-07T1300,2697A,76.1454,39.7142,克孜勒苏柯尔克孜自治州,市人民政府,颗粒物(PM10),55,59,71,22,22,108,,94,94,2,10,6,6,0.3,0.3
2025-04-07T1300,3665A,76.1658,39.7157,克孜勒苏柯尔克孜自治州,克州文化中心,,34,31,67,3,18,107,,96,96,2,12,6,7,0.3,0.3
2025-04-07T1300,1450A,102.8204,24.8886,昆明市,呈贡新区,细颗粒物(PM2.5),57,57,70,40,56,150,,122,122,10,13,6,6,0.6,0.8
2025-04-07T1300,1451A,102.6251,24.9608,昆明市,西山森林公园,,,,,,,,,,,,,,,,
2025-04-07T1300,1452A,102.7252,25.0902,昆明市,龙泉镇,细颗粒物(PM2.5),52,43,67,36,52,135,,83,83,8,23,7,9,0.5,0.8
2025-04-07T1300,1453A,102.7266,25.0375,昆明市,东风东路,,49,49,71,33,55,137,,105,105,15,18,9,9,0.5,0.7
2025-04-07T1300,1454A,102.6742,25.0669,昆明市,金鼎山,颗粒物(PM10),60,70,72,28,51,131,,99,99,15,21,3,5,0.7,0.8
2025-04-07T1300,1455A,102.6644,25.0401,昆明市,碧鸡广场,,49,47,74,34,57,133,,97,97,13,23,7,8,0.6,0.8
2025-04-07T1300,3179A,102.7494,25.0119,昆明市,官渡区博物馆,颗粒物(PM10),56,61,72,39,48,144,,108,108,13,16,10,8,0.5,0.6
2025-04-07T1300,3375A,102.8017,24.8336,昆明市,青年创业园,细颗粒物(PM2.5),59,57,72,42,56,133,,112,112,11,12,11,11,1.3,0.9
2025-04-07T1300,3550A,102.7997,24.9786,昆明市,昆明学院,细颗粒物(PM2.5),60,56,76,43,57,142,,105,105,12,15,8,6,0.6,0.5
2025-04-07T1300,3551A,102.5967,24.6736,昆明市,晋宁区生态环境分局,细颗粒物(PM2.5),70,,56,51,51,134,,109,109,6,9,6,8,0.8,0.9
2025-04-07T1300,3552A,102.6678,24.9856,昆明市,云天化总部,细颗粒物(PM2.5),54,50,68,38,53,143,,110,110,11,12,11,8,0.7,0.7
2025-04-07T1300,1456A,91.1319,29.6514,拉萨市,八廓街,,35,25,28,10,12,110,,84,84,11,14,7,7,0.4,0.4
2025-04-07T1300,1457A,91.1221,29.6747,拉萨市,市环保局,,35,29,32,14,14,109,,74,74,14,17,4,5,0.3,0.3
2025-04-07T1300,1458A,91.0874,29.6475,拉萨市,区监测站,,33,26,26,13,12,104,,71,71,15,24,6,7,0.5,0.5
2025-04-07T1300,1459A,91.1774,29.6541,拉萨市,西藏大学,,33,28,24,12,10,105,,78,78,14,12,7,8,0.2,0.3
2025-04-07T1300,1460A,90.9798,29.6588,拉萨市,区辐射站,,34,34,29,16,14,105,,76,73,19,21,8,9,0.4,0.4
2025-04-07T1300,1461A,91.0834,29.6292,拉萨市,拉萨火车站,,,29,26,10,12,98,,60,58,17,18,3,4,,0.7
2025-04-07T1300,2520A,109.2203,23.7256,来宾市,来宾技工学校,颗粒物(PM10),72,93,109,46,72,111,,48,48,9,27,7,15,0.8,1
2025-04-07T1300,3535A,109.1781,23.7297,来宾市,兴宾区政府,细颗粒物(PM2.5),84,93,98,62,70,111,,60,60,9,20,11,12,1.0,1
2025-04-07T1300,4002A,109.2416,23.7461,来宾市,中南小学,细颗粒物(PM2.5),74,94,111,54,70,106,,50,50,11,29,8,12,1.0,1.1
2025-04-07T1300,1477A,104.1373,35.9454,兰州市,榆中兰大校区,,,,,,,,,,,,,,,,
2025-04-07T1300,1479A,103.831,36.0464,兰州市,铁路设计院,颗粒物(PM10),57,63,95,26,31,109,,53,48,31,36,13,15,1.0,0.9
2025-04-07T1300,3241A,103.7439,36.0842,兰州市,百合公园,颗粒物(PM10),53,55,78,26,29,116,,60,60,21,26,15,10,0.5,0.4
2025-04-07T1300,3242A,103.9611,35.998,兰州市,和平,颗粒物(PM10),67,84,95,38,39,113,,75,75,18,21,22,13,1.3,0.8
2025-04-07T1300,4236A,103.6293,36.0938,兰州市,庄浪东路808号,颗粒物(PM10),66,81,92,46,40,164,,77,77,35,29,26,15,0.4,0.4
2025-04-07T1300,4237A,103.7251,36.1043,兰州市,安宁西路88号,颗粒物(PM10),66,82,103,43,42,132,,69,69,22,26,14,11,0.4,0.4
2025-04-07T1300,4238A,103.8470,36.0676,兰州市,北滨河东路1号,,48,48,85,19,36,121,,51,51,21,36,15,14,0.8,0.8
2025-04-07T1300,3245A,103.6633,36.533,兰州新区,新区管委会,颗粒物(PM10),55,59,84,24,32,120,,69,69,10,18,10,14,0.2,0.3
2025-04-07T1300,3246A,103.6975,36.4789,兰州新区,舟曲中学,颗粒物(PM10),56,62,107,32,40,118,,74,74,9,17,6,9,0.5,0.5
2025-04-07T1300,1067A,116.6708,39.5111,廊坊市,药材公司,颗粒物(PM10),72,93,97,20,52,101,,93,93,17,32,4,10,0.4,0.7
2025-04-07T1300,1068A,116.7214,39.5589,廊坊市,开发区,颗粒物(PM10),74,97,110,30,54,104,,85,85,21,32,5,9,0.4,0.7
2025-04-07T1300,1070A,116.7244,39.5269,廊坊市,北华航天学院,颗粒物(PM10),84,117,108,29,53,98,,84,84,16,31,6,12,0.4,0.8
2025-04-07T1300,2919A,116.7022,39.5453,廊坊市,河北工业大学,颗粒物(PM10),67,83,94,27,56,103,,86,86,14,34,6,12,0.3,0.7
2025-04-07T1300,2535A,103.7723,29.5462,乐山市,花湖湾,,50,48,44,35,32,105,,43,42,10,12,6,7,0.6,0.5
2025-04-07T1300,2536A,103.7627,29.5844,乐山市,牛耳桥,"颗粒物(PM10),细颗粒物(PM2.5)",53,56,45,37,29,107,,36,36,14,23,7,7,0.5,0.5
2025-04-07T1300,2537A,103.7508,29.6006,乐山市,市第三水厂,,50,50,46,34,41,107,,40,40,7,17,5,4,0.6,0.6
2025-04-07T1300,2538A,103.7571,29.5664,乐山市,市监测站,细颗粒物(PM2.5),57,54,46,40,29,106,,38,38,10,16,5,5,0.6,0.6
2025-04-07T1300,3361A,103.7311,29.5628,乐山市,理工大学,"颗粒物(PM10),细颗粒物(PM2.5)",58,66,49,41,32,118,,45,45,9,18,5,5,0.7,0.7
2025-04-07T1300,2598A,100.2143,26.8576,丽江市,西南郊,颗粒物(PM10),56,62,45,37,28,142,,146,146,3,5,4,15,0.7,0.8
2025-04-07T1300,2599A,100.2497,26.8802,丽江市,丽江古城,,42,40,44,24,31,132,,116,116,10,12,7,8,0.6,0.6
2025-04-07T1300,2600A,100.2203,26.8906,丽江市,市中心,,45,41,36,31,27,132,,114,114,13,15,8,8,0.6,0.5
2025-04-07T1300,1267A,119.914,28.4514,丽水市,监测站大楼,颗粒物(PM10),55,59,58,24,29,158,,95,95,10,22,4,6,0.4,0.5
2025-04-07T1300,1268A,119.93,28.4586,丽水市,莲都小学,颗粒物(PM10),56,61,62,22,27,157,,98,98,8,23,4,4,0.3,0.3
2025-04-07T1300,1269A,119.879,28.4231,丽水市,余庄前,臭氧1小时,65,54,56,27,29,172,,94,94,9,18,4,3,0.5,0.5
2025-04-07T1300,1173A,119.176,34.5885,连云港市,市环境监测站,颗粒物(PM10),73,95,84,36,38,166,,112,112,12,22,12,13,0.6,0.6
2025-04-07T1300,3000A,119.3581,34.6972,连云港市,德源药业,颗粒物(PM10),67,83,82,31,34,158,,117,117,12,18,10,11,0.5,0.5
2025-04-07T1300,3007A,119.178,34.844,连云港市,新城一中,颗粒物(PM10),64,78,74,36,42,151,,105,105,16,24,10,11,0.8,0.7
2025-04-07T1300,3008A,119.3608,34.7519,连云港市,胡沟管理处,,,73,56,29,24,157,,133,133,20,20,,11,0.5,0.4
2025-04-07T1300,3009A,119.1478,34.5911,连云港市,矿山设计院,颗粒物(PM10),75,100,84,34,32,159,,120,120,17,22,14,12,0.6,0.6
2025-04-07T1300,3434A,119.2413,34.6539,连云港市,工贸学校,颗粒物(PM10),65,80,77,35,40,166,,122,122,19,22,11,12,0.7,0.6
2025-04-07T1300,3664A,119.4172,34.7341,连云港市,连云街道,,,88,80,35,30,157,,137,137,21,19,,9,0.6,0.5
2025-04-07T1300,2571A,102.3431,27.8099,凉山彝族自治州,青龙寺,,34,15,21,3,6,107,,70,70,4,5,8,7,0.7,0.8
2025-04-07T1300,2572A,102.2721,27.8415,凉山彝族自治州,邛海宾馆,,36,36,32,14,14,100,,74,69,10,12,11,9,0.5,0.4
2025-04-07T1300,2573A,102.2625,27.898,凉山彝族自治州,西昌市政府,,34,22,22,22,16,107,,69,69,11,10,9,8,0.6,0.5
2025-04-07T1300,2574A,102.2685,27.8851,凉山彝族自治州,凉山州政府,,35,35,23,17,15,106,,67,67,14,13,6,6,0.7,0.7
2025-04-07T1300,4229A,102.2342,27.8859,凉山彝族自治州,凯乐南路30号,,31,30,30,14,15,97,,61,57,14,14,8,8,0.7,0.7
2025-04-07T1300,2212A,123.2,41.1953,辽阳市,宏伟区,,48,48,40,33,30,141,,120,120,11,10,16,13,1.2,1
2025-04-07T1300,2213A,123.1683,41.2495,辽阳市,新华园,颗粒物(PM10),56,61,55,35,40,150,,126,126,16,23,13,14,0.7,0.6
2025-04-07T1300,2214A,123.2354,41.2639,辽阳市,滨河路,,41,38,41,26,36,131,,104,104,14,20,11,8,0.7,0.7
2025-04-07T1300,2215A,123.149,41.2991,辽阳市,铁西工业园,颗粒物(PM10),62,73,65,37,42,154,,126,126,19,22,17,12,0.9,0.7
2025-04-07T1300,2227A,125.1358,42.8845,辽源市,环保局,,,36,34,18,18,103,,64,64,,24,8,6,0.5,0.7
2025-04-07T1300,3239A,125.0764,42.9078,辽源市,银鹰制药,,35,30,30,15,22,111,,70,70,13,22,10,7,0.7,0.7
2025-04-07T1300,1625A,115.9848,36.4372,聊城市,区政府,颗粒物(PM10),97,143,133,55,42,104,,83,76,26,26,15,12,0.5,0.4
2025-04-07T1300,2878A,116.0072,36.4343,聊城市,聊大东校,颗粒物(PM10),95,139,141,59,55,121,,85,85,21,21,14,11,0.6,0.6
2025-04-07T1300,3200A,115.9819,36.4978,聊城市,监控中心,细颗粒物(PM2.5),107,145,139,80,46,116,,86,83,24,19,21,15,0.8,0.7
2025-04-07T1300,3513A,116.0445,36.4361,聊城市,九州社区,颗粒物(PM10),91,132,129,44,39,133,,86,86,14,15,11,8,0.6,0.5
2025-04-07T1300,4018A,116.0567,36.4608,聊城市,星美广场,颗粒物(PM10),97,143,131,46,36,133,,88,88,17,15,14,11,0.7,0.6
2025-04-07T1300,2632A,94.3681,29.6376,林芝市,林芝监测站,,35,24,24,9,12,112,,68,68,5,8,5,5,0.3,0.4
2025-04-07T1300,2633A,94.3616,29.6616,林芝市,林芝人民医院,,32,24,29,9,12,101,,68,68,4,4,8,8,0.3,0.4
2025-04-07T1300,2603A,100.0781,23.8982,临沧市,市环保局,颗粒物(PM10),105,159,126,56,84,140,,86,86,15,19,10,11,,1.1
2025-04-07T1300,2604A,100.0894,23.8822,临沧市,市气象局,细颗粒物(PM2.5),120,118,111,91,90,152,,76,76,17,24,7,9,0.8,0.9
2025-04-07T1300,1733A,111.5531,36.0783,临汾市,临钢医院,颗粒物(PM10),103,156,141,52,36,127,,62,62,23,32,15,9,1.0,0.7
2025-04-07T1300,1734A,111.5028,36.0714,临汾市,技工学校,颗粒物(PM10),92,134,129,59,45,123,,58,58,22,30,20,12,1.1,0.8
2025-04-07T1300,1736A,111.5018,36.0855,临汾市,市委,颗粒物(PM10),103,156,141,49,45,128,,60,60,25,32,17,11,1.1,0.8
2025-04-07T1300,3018A,111.505,36.1014,临汾市,唐尧大酒店,颗粒物(PM10),102,154,142,47,39,129,,56,56,19,28,18,12,1.1,0.8
2025-04-07T1300,4244A,111.4879,36.0530,临汾市,启星学校,颗粒物(PM10),122,193,151,53,46,122,,46,46,20,34,18,9,1.3,0.9
2025-04-07T1300,4271A,103.2464,35.6123,临夏回族自治州,滨河东路1号,颗粒物(PM10),68,85,107,30,43,102,,50,50,6,20,6,5,0.3,0.5
2025-04-07T1300,4310A,103.2093,35.5995,临夏回族自治州,新华街21号,颗粒物(PM10),65,80,100,33,44,102,,51,51,8,23,11,10,0.3,0.5
2025-04-07T1300,1618A,118.3429,35.0532,临沂市,沂河小区,颗粒物(PM10),84,117,108,51,45,127,,88,88,16,22,13,19,0.7,0.6
2025-04-07T1300,1619A,118.295,35.0583,临沂市,鲁南制药厂,颗粒物(PM10),86,122,100,46,41,139,,98,98,21,32,14,20,0.8,0.6
2025-04-07T1300,1620A,118.2794,34.9976,临沂市,新光毛纺厂,颗粒物(PM10),80,110,102,44,39,142,,86,86,25,41,10,21,0.8,0.7
2025-04-07T1300,1621A,118.3956,35.0888,临沂市,河东保险公司,颗粒物(PM10),79,107,88,41,33,140,,103,103,24,30,10,14,0.5,0.4
2025-04-07T1300,3370A,118.3564,35.0215,临沂市,十里堡居委,颗粒物(PM10),80,110,97,31,35,140,,87,87,20,28,9,13,0.7,0.7
2025-04-07T1300,3496A,118.3604,35.1084,临沂市,南坊新区,颗粒物(PM10),89,127,98,41,34,130,,98,98,21,23,12,15,0.6,0.6
2025-04-07T1300,3860A,118.3920,35.0300,临沂市,皇山花园小区,颗粒物(PM10),78,105,95,36,34,143,,94,94,15,22,12,18,0.6,0.5
2025-04-07T1300,1870A,109.4856,24.3895,柳州市,柳东小学,细颗粒物(PM2.5),112,122,102,84,78,89,,56,50,27,24,33,19,1.0,1
2025-04-07T1300,1871A,109.4157,24.3277,柳州市,环保监测站,细颗粒物(PM2.5),133,133,126,101,94,93,,46,46,29,28,18,27,1.1,1.2
2025-04-07T1300,1872A,109.389,24.341,柳州市,河西水厂,细颗粒物(PM2.5),118,159,153,89,84,85,,39,39,34,34,19,29,1.1,1.1
2025-04-07T1300,1873A,109.4311,24.2921,柳州市,市四中,细颗粒物(PM2.5),104,110,124,78,90,94,,43,43,24,32,15,14,1.1,1.3
2025-04-07T1300,1874A,109.4006,24.3631,柳州市,市九中,细颗粒物(PM2.5),113,140,127,85,80,89,,47,47,27,24,18,24,1.0,1.1
2025-04-07T1300,1875A,109.4958,24.3134,柳州市,古亭山,细颗粒物(PM2.5),109,126,120,82,82,101,,33,33,25,39,21,22,1.1,1.2
2025-04-07T1300,3402A,109.5422,24.3996,柳州市,市二中,,,,105,,80,110,,47,47,19,26,,24,0.8,0.9
2025-04-07T1300,2307A,116.5079,31.737,六安市,监测大楼,,43,40,61,22,26,136,,98,98,5,16,5,6,0.5,0.6
2025-04-07T1300,2308A,116.4738,31.7643,六安市,皖西学院,,45,45,73,20,25,139,,108,108,8,15,5,5,0.4,0.5
2025-04-07T1300,2309A,116.4996,31.7905,六安市,朝阳厂,,41,41,63,21,25,130,,91,91,12,22,4,5,0.5,0.6
2025-04-07T1300,2310A,116.5567,31.7886,六安市,开发区,颗粒物(PM10),53,55,97,24,34,142,,91,91,11,42,5,6,0.5,0.5
2025-04-07T1300,2576A,104.8,26.5892,六盘水市,窑上,,44,44,31,25,18,88,,37,37,8,14,5,5,0.8,0.8
2025-04-07T1300,2577A,104.83,26.5917,六盘水市,黄土坡,,50,44,30,35,26,64,,35,35,20,23,15,12,0.9,0.9
2025-04-07T1300,2578A,104.89,26.5939,六盘水市,水钢,,47,47,33,24,21,64,,48,48,13,14,11,10,0.6,0.5
2025-04-07T1300,2579A,104.8475,26.5894,六盘水市,民中,,,37,28,29,20,62,,36,36,19,20,,10,0.7,0.6
2025-04-07T1300,2580A,104.9544,26.5506,六盘水市,双水,,39,39,31,22,20,55,,40,38,12,17,10,9,0.6,0.6
2025-04-07T1300,2335A,117.0189,25.1181,龙岩市,龙岩师专,,,,,,,,,,,,,,,,
2025-04-07T1300,2336A,117.0217,25.1033,龙岩市,龙岩市监测站,颗粒物(PM10),53,55,53,21,28,143,,77,77,16,25,7,8,0.5,0.6
2025-04-07T1300,2337A,117.0258,25.0661,龙岩市,闽西职业技术学院,,46,46,60,26,30,139,,67,67,14,23,8,19,0.5,0.5
2025-04-07T1300,2338A,117.0196,25.0306,龙岩市,龙岩学院,,50,50,47,21,26,153,,77,77,14,14,4,3,0.6,0.5
2025-04-07T1300,2665A,105.0822,33.3261,陇南市,汉王镇固水子,,,,,,,,,,,,,,,,
2025-04-07T1300,2885A,104.9339,33.3826,陇南市,滨江中学,,39,39,49,12,20,79,,50,50,5,7,8,7,0.5,0.5
2025-04-07T1300,3247A,104.955,33.371,陇南市,市总工会,,32,32,45,16,18,84,,64,59,4,5,8,8,0.5,0.5
2025-04-07T1300,2487A,111.9589,27.8901,娄底市,电视发射台,颗粒物(PM10),72,94,80,48,35,102,,68,68,10,7,23,11,0.8,0.7
2025-04-07T1300,2488A,111.9975,27.725,娄底市,市监测站,颗粒物(PM10),85,120,100,58,54,67,,40,40,47,35,43,17,1.8,0.6
2025-04-07T1300,2489A,112.0194,27.7314,娄底市,市委党校,细颗粒物(PM2.5),90,112,99,67,52,73,,46,46,37,23,23,5,1.6,0.5
2025-04-07T1300,2490A,111.9561,27.7569,娄底市,涟钢,细颗粒物(PM2.5),88,120,104,65,55,84,,40,40,15,26,12,11,0.6,0.8
2025-04-07T1300,2491A,111.9892,27.7044,娄底市,市政府,细颗粒物(PM2.5),74,95,92,54,49,94,,52,52,18,23,12,5,0.6,0.5
2025-04-07T1300,1893A,105.4324,28.9634,泸州市,九狮山,,,,,,,,,,,,,,,,
2025-04-07T1300,1894A,105.4427,28.9063,泸州市,小市上码头,,35,24,45,19,28,110,,42,42,14,23,7,6,0.6,0.7
2025-04-07T1300,1895A,105.4241,28.8573,泸州市,兰田宪桥,,35,35,49,23,31,98,,34,34,8,14,5,5,0.5,0.6
2025-04-07T1300,1896A,105.4379,28.8833,泸州市,市环监站,,,,,,,,,,,,,,,,
2025-04-07T1300,4272A,105.3689,28.7783,泸州市,纳溪中医医院,,31,29,40,18,27,99,,36,36,6,18,6,6,0.6,0.7
2025-04-07T1300,2183A,111.1406,37.5211,吕梁市,环保局,,,,157,27,52,117,,51,51,11,41,7,5,0.4,0.4
2025-04-07T1300,2185A,111.1297,37.5136,吕梁市,自来水公司,颗粒物(PM10),83,116,203,42,56,114,,49,49,15,42,8,7,0.6,0.6
2025-04-07T1300,2867A,111.1283,37.51,吕梁市,马茂庄小学,颗粒物(PM10),87,124,187,32,44,115,,48,48,15,45,5,5,0.5,0.5
2025-04-07T1300,1812A,112.3931,34.6516,洛阳市,市委党校,细颗粒物(PM2.5),73,92,109,53,43,113,,54,54,18,27,4,7,0.7,0.7
2025-04-07T1300,1815A,112.494,34.6886,洛阳市,河南林校,颗粒物(PM10),86,122,133,39,46,129,,56,56,17,31,7,10,0.7,0.8
2025-04-07T1300,1816A,112.3844,34.623,洛阳市,开发区管委会,颗粒物(PM10),74,97,114,38,44,120,,64,64,14,23,9,9,0.3,0.3
2025-04-07T1300,1817A,112.4267,34.6258,洛阳市,市委新办公区,颗粒物(PM10),72,94,110,37,38,130,,71,71,14,21,5,7,0.3,0.2
2025-04-07T1300,3340A,112.6005,34.6326,洛阳市,伊滨,颗粒物(PM10),72,93,114,36,48,131,,70,70,14,29,7,7,0.4,0.5
2025-04-07T1300,3341A,112.4951,34.6332,洛阳市,中移产业园,颗粒物(PM10),83,116,134,37,43,124,,64,64,12,19,7,8,0.6,0.5
2025-04-07T1300,3593A,112.5736,34.8993,洛阳市,吉利监测站,颗粒物(PM10),78,106,107,44,40,134,,85,85,13,21,13,10,0.5,0.5
2025-04-07T1300,3635A,112.3677,34.662,洛阳市,河科大西苑校区,颗粒物(PM10),81,111,117,35,36,116,,49,49,22,33,8,11,0.5,0.6
2025-04-07T1300,3636A,112.4388,34.6781,洛阳市,英才小学,颗粒物(PM10),77,104,117,45,46,120,,46,46,20,37,8,14,0.5,0.7
2025-04-07T1300,4214A,112.4600,34.6949,洛阳市,春都路1号院,颗粒物(PM10),87,123,134,36,40,129,,54,54,22,33,9,14,0.7,0.8
2025-04-07T1300,2399A,114.051,33.5699,漯河市,三五一五工厂,颗粒物(PM10),79,107,122,31,43,121,,88,88,6,18,5,7,0.3,0.4
2025-04-07T1300,2400A,114.0055,33.5698,漯河市,漯河大学,颗粒物(PM10),76,102,116,27,40,128,,90,90,4,21,6,7,0.3,0.4
2025-04-07T1300,2401A,114.0138,33.5828,漯河市,市水利局,颗粒物(PM10),76,102,118,36,47,130,,95,95,6,18,4,5,0.2,0.3
2025-04-07T1300,2402A,114.0261,33.5698,漯河市,市广电局,颗粒物(PM10),79,107,118,34,42,123,,92,92,5,16,4,6,0.4,0.5
2025-04-07T1300,3478A,113.9749,33.5664,漯河市,市图书馆,颗粒物(PM10),76,101,117,32,42,128,,102,102,8,17,4,7,0.4,0.5
2025-04-07T1300,4250A,114.0892,33.5882,漯河市,韶山路11号,颗粒物(PM10),77,103,124,30,41,130,,84,84,7,22,5,7,0.4,0.5
2025-04-07T1300,1798A,118.5092,31.6837,马鞍山市,湖东路四小,颗粒物(PM10),59,68,72,16,31,162,,125,125,17,18,10,8,1.1,0.7
2025-04-07T1300,1799A,118.5024,31.6449,马鞍山市,开发区,颗粒物(PM10),65,79,94,24,35,158,,113,113,20,29,7,6,1.2,0.8
2025-04-07T1300,1802A,118.6245,31.7241,马鞍山市,濮塘,,,76,73,,32,173,,142,142,8,11,10,10,0.4,0.5
2025-04-07T1300,3633A,118.4918,31.6809,马鞍山市,雨山,颗粒物(PM10),61,71,74,26,34,154,,119,119,16,18,10,9,0.9,0.7
2025-04-07T1300,4191A,118.5274,31.72227,马鞍山市,慈湖高新区,颗粒物(PM10),54,58,82,29,37,156,,116,116,22,28,7,6,0.9,0.6
2025-04-07T1300,1686A,111.0286,21.4688,茂名市,电白南海,颗粒物(PM10),60,70,92,39,56,102,,58,58,17,23,5,7,1.2,1.2
2025-04-07T1300,1687A,110.9294,21.6533,茂名市,茂石化七小,颗粒物(PM10),60,70,86,34,46,91,,58,58,14,20,7,8,1.0,1
2025-04-07T1300,1688A,110.9107,21.6687,茂名市,健康路,颗粒物(PM10),59,68,85,31,49,105,,71,71,16,20,8,13,0.9,0.9
2025-04-07T1300,1689A,110.8592,21.6828,茂名市,高岭,颗粒物(PM10),63,75,96,34,47,98,,64,64,18,22,8,16,0.7,0.9
2025-04-07T1300,3450A,111.01,21.5165,茂名市,电白水东,颗粒物(PM10),62,73,83,31,41,91,,62,62,21,24,7,8,0.8,0.8
2025-04-07T1300,2539A,104.0308,30.0478,眉山市,黑龙滩水库,,40,18,34,17,18,125,,61,61,2,2,2,1,0.3,0.3
2025-04-07T1300,2540A,103.8416,30.0874,眉山市,气象局,颗粒物(PM10),61,71,76,39,38,123,,48,48,9,25,2,2,0.6,0.7
2025-04-07T1300,3137A,103.8578,30.0744,眉山市,市委党校,颗粒物(PM10),54,58,62,29,32,113,,46,46,11,24,6,5,0.6,0.7
2025-04-07T1300,3148A,103.8291,30.0564,眉山市,区人社局,颗粒物(PM10),53,56,58,31,34,120,,51,51,13,25,5,5,0.7,0.8
2025-04-07T1300,1690A,116.1231,24.3284,梅州市,梅江月梅,,49,49,58,24,33,143,,61,61,8,19,7,4,0.5,0.6
2025-04-07T1300,1691A,116.0797,24.2719,梅州市,梅县新城,颗粒物(PM10),54,58,57,24,32,147,,60,60,11,29,6,5,0.5,0.6
2025-04-07T1300,1692A,116.1248,24.2654,梅州市,环境监控中心,,50,50,48,24,30,134,,62,62,11,26,7,9,0.6,0.7
2025-04-07T1300,3315A,116.1233,24.2991,梅州市,梅龙,,,48,50,22,32,,,41,41,6,22,7,9,0.4,0.7
2025-04-07T1300,1878A,104.7778,31.4741,绵阳市,富乐山,颗粒物(PM10),59,68,64,40,29,121,,48,48,18,19,6,3,0.6,0.6
2025-04-07T1300,1880A,104.6697,31.4668,绵阳市,高新区自来水公司,颗粒物(PM10),76,102,87,39,34,120,,42,42,16,36,4,4,0.6,0.6
2025-04-07T1300,1881A,104.7287,31.5075,绵阳市,三水厂,颗粒物(PM10),77,104,78,52,33,115,,43,43,20,35,7,6,0.7,0.7
2025-04-07T1300,3491A,104.69,31.5322,绵阳市,西科大附属小学,颗粒物(PM10),79,108,85,57,36,110,,49,49,26,39,8,7,0.7,0.6
2025-04-07T1300,3492A,104.5648,31.5343,绵阳市,安州区旅游局,颗粒物(PM10),72,94,70,48,30,102,,52,52,27,24,9,7,0.4,0.9
2025-04-07T1300,4226A,104.7651,31.4531,绵阳市,绵阳市气象局,颗粒物(PM10),66,81,69,38,34,108,,45,45,17,25,3,3,0.5,0.4
2025-04-07T1300,1784A,129.61,44.561,牡丹江市,环保大楼,,35,6,19,6,14,109,,64,64,8,15,5,6,0.3,0.4
2025-04-07T1300,1785A,129.6115,44.5782,牡丹江市,文化广场,,34,13,23,11,18,108,,67,67,8,16,9,11,0.4,0.6
2025-04-07T1300,1786A,129.5904,44.5963,牡丹江市,第一医院,,35,22,20,7,14,111,,65,65,6,15,11,12,0.3,0.4
2025-04-07T1300,1787A,129.6364,44.6075,牡丹江市,机车工厂,,36,,24,14,14,113,,65,65,11,17,6,19,0.4,0.5
2025-04-07T1300,1788A,129.6386,44.5462,牡丹江市,第一中学,,36,15,21,3,18,114,,69,69,3,11,7,9,0.5,0.6
2025-04-07T1300,2531A,105.0703,29.61,内江市,市监测站,细颗粒物(PM2.5),53,,55,37,37,103,,40,40,12,24,6,5,0.6,0.7
2025-04-07T1300,2532A,105.0717,29.5947,内江市,东兴区政府,,38,32,49,26,30,94,,34,34,12,23,3,2,0.7,0.7
2025-04-07T1300,2533A,105.0653,29.5817,内江市,内江二中,,44,44,54,27,36,100,,41,41,15,26,8,7,0.5,0.6
2025-04-07T1300,2534A,105.0406,29.5822,内江市,内江日报社,颗粒物(PM10),60,69,53,34,40,103,,39,39,11,22,4,6,0.5,0.5
2025-04-07T1300,2628A,92.0657,31.4846,那曲市,那曲监测站,,39,36,48,11,28,122,,66,66,6,25,4,8,0.4,1.1
2025-04-07T1300,4243A,92.0515,31.4787,那曲市,那曲市委宣传部,,40,22,46,3,23,128,,63,63,2,17,4,6,0.3,0.6
2025-04-07T1300,1290A,115.8931,28.6843,南昌市,省外办,细颗粒物(PM2.5),67,70,93,48,51,125,,47,47,27,63,15,10,0.5,0.8
2025-04-07T1300,1291A,115.8886,28.7003,南昌市,省林业公司,颗粒物(PM10),69,88,106,36,44,125,,40,40,21,50,15,10,0.4,0.6
2025-04-07T1300,1292A,115.8126,28.7442,南昌市,林科所,,,,67,34,32,131,,86,86,24,49,,11,0.5,0.6
2025-04-07T1300,1294A,115.8518,28.687,南昌市,建工学校,颗粒物(PM10),73,95,104,42,49,127,,56,56,22,54,14,7,0.6,0.9
2025-04-07T1300,1295A,115.8921,28.6424,南昌市,象湖,颗粒物(PM10),64,78,99,36,42,152,,66,66,17,55,16,10,0.5,0.8
2025-04-07T1300,1296A,115.7423,28.7996,南昌市,武术学校,颗粒物(PM10),59,68,53,23,25,149,,94,94,8,8,14,10,0.6,0.7
2025-04-07T1300,3046A,115.9084,28.6062,南昌市,机电学校,颗粒物(PM10),72,93,109,41,44,138,,71,71,20,53,13,6,0.6,0.7
2025-04-07T1300,3690A,115.9721,28.7031,南昌市,外国语学校,颗粒物(PM10),83,116,93,47,40,137,,63,63,23,45,18,8,0.7,0.4
2025-04-07T1300,4192A,115.9316,28.68677,南昌市,南京东路235号,颗粒物(PM10),79,107,115,41,47,147,,68,68,26,56,18,14,0.5,0.9
2025-04-07T1300,1905A,106.056,30.8064,南充市,西山风景区,细颗粒物(PM2.5),52,45,48,36,32,121,,63,63,8,17,5,5,0.7,0.8
2025-04-07T1300,1906A,106.0789,30.8023,南充市,南充市委,"颗粒物(PM10),细颗粒物(PM2.5)",62,74,66,44,36,114,,49,49,12,31,4,4,0.6,0.7
2025-04-07T1300,1907A,106.1031,30.8217,南充市,南充炼油厂,颗粒物(PM10),64,77,73,44,38,107,,48,48,14,31,5,4,0.5,0.6
2025-04-07T1300,4227A,106.1083,30.7884,南充市,梨树横街98号,颗粒物(PM10),60,69,66,40,31,114,,50,50,12,29,6,6,0.3,0.4
2025-04-07T1300,4304A,106.1172,30.843,南充市,清泉寺北路188号,颗粒物(PM10),55,60,70,37,36,119,,56,56,14,24,8,7,0.3,0.4
2025-04-07T1300,4305A,106.067,30.7616,南充市,同庆路1号,颗粒物(PM10),62,74,69,39,38,108,,57,57,9,22,5,4,0.4,0.4
2025-04-07T1300,1151A,118.8086,32.1065,南京市,迈皋桥,颗粒物(PM10),54,58,60,24,26,159,,126,126,16,30,4,7,0.3,0.5
2025-04-07T1300,1152A,118.7538,32.0551,南京市,草场门,颗粒物(PM10),59,68,68,22,27,153,,116,116,15,29,6,10,0.6,0.8
2025-04-07T1300,1153A,118.7794,32.0745,南京市,山西路,颗粒物(PM10),74,97,81,9,25,159,,124,124,15,23,4,8,0.2,0.4
2025-04-07T1300,1154A,118.7752,32.0023,南京市,中华门,,,63,66,24,28,135,,100,100,3,29,6,15,,0.6
2025-04-07T1300,1155A,118.8109,32.0309,南京市,瑞金路,颗粒物(PM10),60,70,71,27,28,144,,105,105,2,23,6,6,0.4,0.5
2025-04-07T1300,1156A,118.7997,32.0754,南京市,玄武湖,颗粒物(PM10),62,74,70,19,24,127,,99,99,16,21,8,10,0.5,0.6
2025-04-07T1300,1157A,118.6414,32.0931,南京市,浦口,颗粒物(PM10),68,85,78,21,25,157,,129,129,22,24,12,10,0.7,0.5
2025-04-07T1300,1158A,118.7356,31.9996,南京市,奥体中心,颗粒物(PM10),63,76,73,39,32,149,,116,116,14,25,8,11,0.3,0.5
2025-04-07T1300,1159A,118.9125,32.1028,南京市,仙林大学城,颗粒物(PM10),67,83,76,22,26,154,,112,112,14,20,8,11,0.7,0.8
2025-04-07T1300,3422A,118.8436,31.9198,南京市,江宁彩虹桥,颗粒物(PM10),65,80,74,27,31,157,,118,118,4,23,4,6,0.4,0.6
2025-04-07T1300,3427A,118.8554,32.3578,南京市,六合雄州,颗粒物(PM10),53,55,65,32,27,154,,115,115,15,19,12,9,0.8,0.5
2025-04-07T1300,4249A,118.8708,31.3402,南京市,汶溪路181号,臭氧1小时,57,43,75,16,38,165,,135,135,13,20,4,5,0.6,0.6
2025-04-07T1300,4312A,119.019,31.6512,南京市,中山西路1号,臭氧1小时,53,44,57,15,31,162,,111,111,14,25,4,8,0.4,0.6
2025-04-07T1300,1401A,108.3103,22.7881,南宁市,二十一中,细颗粒物(PM2.5),72,81,86,52,58,106,,75,74,17,27,7,6,1.1,1.1
2025-04-07T1300,1402A,108.3141,22.8528,南宁市,北湖,细颗粒物(PM2.5),82,77,87,60,59,112,,69,69,18,30,9,9,0.8,0.8
2025-04-07T1300,1403A,108.3206,22.8225,南宁市,市监测站,细颗粒物(PM2.5),73,93,85,53,57,103,,79,75,17,25,9,8,0.8,0.9
2025-04-07T1300,1404A,108.3829,22.8037,南宁市,大自然花园,细颗粒物(PM2.5),73,61,86,53,59,112,,67,67,11,22,8,7,1.1,1.1
2025-04-07T1300,1405A,108.4394,22.7904,南宁市,仙葫,细颗粒物(PM2.5),69,72,81,50,66,100,,54,54,11,23,5,4,0.8,0.9
2025-04-07T1300,1406A,108.2397,22.8467,南宁市,区农职院,颗粒物(PM10),76,101,90,49,58,98,,66,66,19,32,6,5,0.9,1
2025-04-07T1300,1407A,108.3275,22.735,南宁市,英华嘉园,颗粒物(PM10),69,88,88,48,59,102,,72,72,17,25,10,8,0.7,0.8
2025-04-07T1300,3401A,108.4834,22.7618,南宁市,红星社区,颗粒物(PM10),64,77,93,45,58,118,,71,71,9,22,12,9,0.8,1
2025-04-07T1300,4221A,108.2177,22.7774,南宁市,乐贤路16号,颗粒物(PM10),70,90,92,48,63,93,,57,57,14,41,14,10,0.8,0.8
2025-04-07T1300,2331A,118.0966,26.6761,南平市,茫荡山,,,,,,,,,,,,,,,,
2025-04-07T1300,2332A,118.1681,26.6369,南平市,南平市监测站,,48,45,47,15,29,153,,92,92,7,17,5,6,0.5,0.7
2025-04-07T1300,2333A,118.1825,26.6489,南平市,南平铝业有限公司,颗粒物(PM10),54,58,54,19,28,150,,92,92,5,19,9,6,0.7,0.8
2025-04-07T1300,2334A,118.1756,26.6272,南平市,南平七中,颗粒物(PM10),59,68,52,20,28,146,,88,88,6,13,6,6,0.6,0.7
2025-04-07T1300,1168A,120.9098,31.9663,南通市,狼山街道,臭氧1小时,84,92,94,36,51,187,,107,107,32,43,8,8,0.7,0.8
2025-04-07T1300,1169A,120.86,32.0005,南通市,虹桥,臭氧1小时,67,82,96,34,56,173,,117,117,47,37,10,9,0.7,0.7
2025-04-07T1300,1170A,120.87,32.02,南通市,城中,臭氧1小时,84,108,109,39,53,187,,129,129,37,36,11,10,0.9,0.8
2025-04-07T1300,1171A,120.94,31.93,南通市,星湖花园,臭氧1小时,87,85,92,37,52,189,,115,115,28,41,9,10,0.3,0.4
2025-04-07T1300,1172A,120.81,32.0417,南通市,紫琅学院,颗粒物(PM10),66,81,96,29,53,168,,94,94,39,46,5,7,0.5,0.5
2025-04-07T1300,3291A,121.067,32.062,南通市,通州监测站,臭氧1小时,78,83,92,27,52,182,,117,117,24,26,7,7,0.5,0.6
2025-04-07T1300,3432A,120.9348,31.9883,南通市,环境教育馆,臭氧1小时,101,105,92,30,54,202,,121,121,25,33,8,9,0.5,0.5
2025-04-07T1300,2404A,112.5224,33.0122,南阳市,瓦房庄,,,116,114,42,40,119,,100,,10,17,12,7,,0.5
2025-04-07T1300,2405A,112.5003,32.9735,南阳市,汉画馆,颗粒物(PM10),80,109,104,43,38,104,,96,96,14,20,11,7,0.6,0.5
2025-04-07T1300,2406A,112.5573,33.027,南阳市,气象站,颗粒物(PM10),88,126,125,44,36,126,,108,108,12,19,12,8,0.6,0.5
2025-04-07T1300,2407A,112.5481,32.9689,南阳市,理工学院,颗粒物(PM10),81,111,111,37,36,114,,100,100,13,19,10,6,0.6,0.6
2025-04-07T1300,4008A,112.5234,32.9922,南阳市,卧龙区政府,颗粒物(PM10),82,113,117,42,40,114,,101,101,6,14,11,7,0.6,0.6
2025-04-07T1300,1234A,121.8358,29.911,宁波市,区环保大楼,,45,40,77,14,38,144,,109,109,11,44,8,9,0.5,0.7
2025-04-07T1300,1235A,121.56,29.82,宁波市,万里学院,,49,31,75,13,40,156,,118,118,11,20,15,14,0.6,0.7
2025-04-07T1300,1236A,121.713,29.9572,宁波市,龙赛医院,,49,47,92,25,40,155,,111,111,8,40,9,13,0.5,0.7
2025-04-07T1300,1239A,121.633,29.7733,宁波市,钱湖水厂,,49,27,65,15,35,156,,126,126,15,17,8,8,0.6,0.7
2025-04-07T1300,1240A,121.5856,29.8635,宁波市,太古小学,,49,34,79,15,35,156,,120,120,8,21,9,10,0.3,0.5
2025-04-07T1300,1241A,121.524,29.8674,宁波市,市环境监测中心,,46,30,81,16,40,145,,111,111,22,35,10,11,0.4,0.5
2025-04-07T1300,2871A,121.6147,29.9017,宁波市,万里国际学校,臭氧1小时,53,48,85,18,33,162,,131,131,10,21,8,9,0.6,0.7
2025-04-07T1300,3710A,121.5594,29.8975,宁波市,白沙活动中心,,49,39,86,15,40,155,,121,121,11,26,8,9,0.4,0.5
2025-04-07T1300,2339A,119.5001,26.6946,宁德市,金涵水库,,,,,,,,,,,,,,,,
2025-04-07T1300,2341A,119.5388,26.6612,宁德市,宁德市监测站,臭氧1小时,63,71,51,29,27,170,,99,99,10,14,6,5,0.5,0.6
2025-04-07T1300,3209A,119.5231,26.6562,宁德市,宁德一中,臭氧1小时,65,68,50,34,28,172,,99,99,6,10,7,6,0.4,0.3
2025-04-07T1300,2618A,98.8601,25.8567,怒江傈僳族自治州,州监测站,,45,45,46,28,30,96,,79,76,5,9,7,7,0.4,0.4
2025-04-07T1300,2619A,98.8546,25.8417,怒江傈僳族自治州,泸水一中,细颗粒物(PM2.5),62,67,47,44,34,84,,51,51,10,18,7,7,0.4,0.5
2025-04-07T1300,1888A,101.6891,26.571,攀枝花市,弄弄坪,,,,58,,32,,,102,,,29,,19,,1.5
2025-04-07T1300,1889A,101.5769,26.5928,攀枝花市,河门口,颗粒物(PM10),51,52,54,26,31,129,,67,67,10,19,15,17,1.8,0.9
2025-04-07T1300,1890A,101.7169,26.585,攀枝花市,炳草岗,,42,32,53,23,27,134,,73,73,11,28,10,13,0.8,0.9
2025-04-07T1300,1891A,101.7369,26.5008,攀枝花市,仁和,,,40,45,32,32,143,,78,78,12,17,12,9,,0.6
2025-04-07T1300,2835A,101.7227,26.567,攀枝花市,四十中小,,42,40,53,17,23,134,,95,95,10,15,8,7,0.8,0.8
2025-04-07T1300,1604A,122.0303,41.1489,盘锦市,开发区,细颗粒物(PM2.5),73,65,79,53,62,132,,89,89,11,31,12,19,0.6,1
2025-04-07T1300,1605A,122.0485,41.0883,盘锦市,兴隆台,细颗粒物(PM2.5),74,58,82,54,64,126,,79,79,13,36,15,17,0.7,1.2
2025-04-07T1300,1606A,121.8297,41.1028,盘锦市,新生街道,细颗粒物(PM2.5),67,,55,48,63,126,,76,76,15,39,10,8,0.9,1.1
2025-04-07T1300,1832A,113.3257,33.742,平顶山市,新华旅馆,颗粒物(PM10),81,112,116,32,35,142,,117,117,11,15,7,6,0.5,0.5
2025-04-07T1300,1833A,113.2919,33.737,平顶山市,规划设计院,颗粒物(PM10),80,109,110,45,41,140,,114,114,6,12,6,5,0.4,0.4
2025-04-07T1300,1834A,113.182,33.774,平顶山市,平顶山工学院,颗粒物(PM10),75,99,109,41,36,132,,112,112,8,10,6,6,0.5,0.5
2025-04-07T1300,3204A,113.3025,33.73,平顶山市,规划局,颗粒物(PM10),79,107,115,38,41,140,,116,116,8,13,7,6,0.7,0.7
2025-04-07T1300,3594A,112.8867,33.9116,平顶山市,石龙区,,,,129,,42,142,,104,103,6,12,5,6,0.2,0.3
2025-04-07T1300,2656A,106.6692,35.5461,平凉市,聚贤嘉苑,颗粒物(PM10),55,59,92,15,27,126,,84,84,7,19,23,21,0.4,0.5
2025-04-07T1300,2657A,106.7021,35.5307,平凉市,博物馆,颗粒物(PM10),51,51,102,20,31,125,,80,80,7,25,10,11,0.6,0.7
2025-04-07T1300,2347A,114.0997,27.5002,萍乡市,武功山,颗粒物(PM10),52,53,41,22,24,100,,74,74,6,7,13,10,1.0,1.1
2025-04-07T1300,2348A,113.8385,27.6434,萍乡市,中医院,颗粒物(PM10),67,83,76,28,32,121,,59,59,7,25,14,11,0.8,1.1
2025-04-07T1300,2349A,113.8493,27.6253,萍乡市,市政府车库,细颗粒物(PM2.5),60,64,60,43,36,117,,75,75,16,20,10,7,0.7,0.8
2025-04-07T1300,2350A,113.8676,27.6435,萍乡市,市环保局,颗粒物(PM10),67,84,69,42,38,116,,61,61,13,24,10,10,0.8,0.9
2025-04-07T1300,2351A,113.866,27.6198,萍乡市,安源区政府,颗粒物(PM10),64,77,68,38,33,117,,65,65,13,20,14,11,0.6,0.8
2025-04-07T1300,2319A,119.0141,25.4325,莆田市,荔城区仓后路,颗粒物(PM10),57,63,55,27,27,156,,127,127,10,16,3,3,0.5,0.7
2025-04-07T1300,2320A,119.0015,25.4553,莆田市,莆田市监测站,颗粒物(PM10),58,66,47,27,25,159,,131,131,9,10,4,4,0.4,0.4
2025-04-07T1300,2321A,119.1119,25.4561,莆田市,涵江区六中,颗粒物(PM10),57,63,57,30,25,164,,141,141,10,16,4,4,0.5,0.7
2025-04-07T1300,2322A,119.1013,25.3215,莆田市,秀屿区政府,颗粒物(PM10),59,68,54,27,22,165,,131,131,9,15,6,5,0.6,0.6
2025-04-07T1300,2323A,118.981,25.4792,莆田市,东圳水库,,,,,,,,,,,,,,,,
2025-04-07T1300,2392A,115.0312,35.7636,濮阳市,环保局,颗粒物(PM10),88,125,111,42,38,137,,87,87,12,16,10,8,0.6,0.5
2025-04-07T1300,2394A,115.0574,35.7609,濮阳市,油田运输公司,颗粒物(PM10),81,111,109,41,38,150,,93,93,12,16,10,7,0.7,0.7
2025-04-07T1300,3021A,115,35.7668,濮阳市,濮水河管理处,颗粒物(PM10),92,134,125,61,47,146,,85,85,16,22,10,8,0.8,0.8
2025-04-07T1300,4216A,115.0924,35.7686,濮阳市,任丘路479号,颗粒物(PM10),87,124,124,43,42,155,,95,95,8,15,9,7,1.0,0.9
2025-04-07T1300,2601A,100.98,22.7633,普洱市,市环保局,颗粒物(PM10),69,87,88,21,43,88,,69,69,9,10,4,5,0.8,0.8
2025-04-07T1300,2602A,100.9817,22.8322,普洱市,普洱第二中学,细颗粒物(PM2.5),68,68,73,49,52,84,,62,62,10,12,6,6,0.8,0.8
2025-04-07T1300,2262A,131.0518,45.8751,七台河市,新一中,,42,26,23,13,17,133,,84,84,11,14,12,12,0.9,1
2025-04-07T1300,3345A,131.0577,45.7879,七台河市,中波台,,33,26,29,14,20,104,,69,69,18,27,10,10,0.4,0.5
2025-04-07T1300,3637A,131.0176,45.7761,七台河市,人民广场,,38,35,35,26,22,111,,79,79,17,28,12,10,0.6,0.6
2025-04-07T1300,3684A,130.8781,45.8222,七台河市,新建矿广场,,36,34,44,10,19,114,,64,64,12,25,1,10,0.5,0.6
2025-04-07T1300,1779A,123.9305,47.3636,齐齐哈尔市,安居小区,,44,44,56,22,29,99,,69,69,14,17,2,2,0.4,0.5
2025-04-07T1300,1780A,123.9488,47.3386,齐齐哈尔市,中心广场,颗粒物(PM10),62,73,64,24,31,96,,64,64,14,19,6,6,0.5,0.5
2025-04-07T1300,1781A,123.9483,47.3227,齐齐哈尔市,农牧车辆厂,,46,46,48,22,24,102,,68,68,11,14,5,5,0.2,0.2
2025-04-07T1300,1783A,123.945,47.2988,齐齐哈尔市,市环境监测站,颗粒物(PM10),52,53,50,28,31,96,,67,67,12,14,2,2,0.4,0.4
2025-04-07T1300,3662A,123.6333,47.2075,齐齐哈尔市,富区青少年活动中心,细颗粒物(PM2.5),58,56,53,41,39,99,,64,64,10,11,1,1,0.5,0.5
2025-04-07T1300,2591A,107.9783,26.5747,黔东南苗族侗族自治州,市环境监测站,细颗粒物(PM2.5),98,106,82,73,56,36,,36,34,22,22,3,4,0.7,0.6
2025-04-07T1300,2881A,107.8908,26.5311,黔东南苗族侗族自治州,凯里学院,细颗粒物(PM2.5),85,66,69,63,49,36,,24,24,14,16,2,2,0.6,0.6
2025-04-07T1300,2593A,107.5228,26.2403,黔南布依族苗族自治州,小围寨,细颗粒物(PM2.5),67,51,55,48,42,91,,56,56,7,10,4,5,0.6,0.5
2025-04-07T1300,3538A,107.5175,26.2978,黔南布依族苗族自治州,沙坝,细颗粒物(PM2.5),77,66,66,56,46,85,,49,49,10,13,4,4,0.7,0.6
2025-04-07T1300,2589A,104.9022,25.0925,黔西南布依族苗族自治州,场坝街,,35,35,32,17,23,59,,56,50,9,12,6,6,0.6,0.6
2025-04-07T1300,2590A,104.8811,25.0992,黔西南布依族苗族自治州,坪东大道,,35,35,40,15,29,55,,53,46,13,14,5,3,0.5,0.5
2025-04-07T1300,2502A,108.6236,21.9667,钦州市,市环保站,颗粒物(PM10),64,78,125,36,80,88,,35,35,19,36,14,14,0.6,1.1
2025-04-07T1300,2503A,108.6549,21.9481,钦州市,沙埠小学,颗粒物(PM10),64,77,119,36,75,83,,32,32,18,36,12,13,0.8,1.1
2025-04-07T1300,2504A,108.5989,21.7431,钦州市,港区一小,颗粒物(PM10),71,91,105,33,63,84,,47,47,24,35,11,9,0.9,1
2025-04-07T1300,3404A,108.5959,21.9633,钦州市,北职校,颗粒物(PM10),71,91,114,43,90,91,,29,29,20,34,11,11,0.8,1.3
2025-04-07T1300,1043A,119.7493,40.0116,秦皇岛市,第一关,细颗粒物(PM2.5),65,69,64,47,38,95,,56,56,21,59,6,8,0.4,0.4
2025-04-07T1300,1044A,119.5897,39.9499,秦皇岛市,监测站,颗粒物(PM10),70,89,64,44,31,83,,46,46,25,42,5,8,0.5,0.5
2025-04-07T1300,1046A,119.5251,39.9041,秦皇岛市,建设大厦,颗粒物(PM10),64,78,73,42,31,86,,42,42,25,46,5,6,0.5,0.5
2025-04-07T1300,3132A,119.610547,39.943889,秦皇岛市,文明里,,,93,80,41,27,85,,48,48,,49,5,8,0.4,0.4
2025-04-07T1300,4198A,119.5090,39.8253,秦皇岛市,北戴河轮滑馆,颗粒物(PM10),55,60,56,37,27,91,,55,55,16,31,6,8,0.4,0.4
2025-04-07T1300,1307A,120.6659,36.2403,青岛市,仰口,颗粒物(PM10),79,108,79,39,36,161,,147,140,9,10,7,6,0.8,0.7
2025-04-07T1300,1310A,120.4134,36.0658,青岛市,市南区东部子站,颗粒物(PM10),103,156,90,75,38,129,,110,101,28,17,10,8,1.0,0.7
2025-04-07T1300,1311A,120.3664,36.1032,青岛市,四方区子站,细颗粒物(PM2.5),104,129,85,78,46,140,,112,106,29,19,11,8,1.0,0.7
2025-04-07T1300,1312A,120.2994,36.054,青岛市,市南区西部子站,细颗粒物(PM2.5),95,127,78,71,34,121,,109,101,36,26,9,7,1.2,0.9
