timepoint,stationcode,longitude,latitude,area,positionname,primarypollutant,aqi,pm10,pm10_24h,pm2_5,pm2_5_24h,o3,o3_24h,o3_8h,o3_8h_24h,no2,no2_24h,so2,so2_24h,co,co_24h
2025-04-07T1100,2566A,102.1879,31.914,阿坝藏族羌族自治州,州农科所,,28,28,22,9,11,70,,43,43,7,9,12,12,0.4,0.4
2025-04-07T1100,2568A,102.2502,31.8896,阿坝藏族羌族自治州,马师校,,,18,22,13,15,,,32,29,9,12,5,5,0.4,0.4
2025-04-07T1100,3994A,102.2165,31.9024,阿坝藏族羌族自治州,马尔康中学西区,,,,22,,12,,,72,,,14,,3,,0.5
2025-04-07T1100,2695A,80.292,41.1694,阿克苏地区,电视台,颗粒物(PM10),192,333,312,77,72,68,,73,73,14,19,6,6,0.4,0.4
2025-04-07T1100,2696A,80.2613,41.1551,阿克苏地区,艺术中心,颗粒物(PM10),215,360,293,86,70,65,,47,47,13,19,4,4,0.4,0.5
2025-04-07T1100,2204A,105.6467,38.8363,阿拉善盟,西城区西花园,颗粒物(PM10),63,75,113,16,32,110,,96,96,4,7,9,11,0.6,0.7
2025-04-07T1100,2205A,105.6985,38.8411,阿拉善盟,蒙二幼,颗粒物(PM10),72,94,129,32,40,95,,88,88,8,8,6,5,0.4,0.4
2025-04-07T1100,2206A,105.724,38.8516,阿拉善盟,环保局新楼,颗粒物(PM10),73,95,125,35,42,98,,103,100,7,4,9,8,0.7,0.6
2025-04-07T1100,2708A,88.1264,47.8517,阿勒泰地区,市站,,27,27,24,3,6,68,,94,86,25,7,18,3,0.5,0.5
2025-04-07T1100,2630A,80.1161,32.5,阿里地区,阿里监测站,,33,33,9,8,4,64,,82,68,28,7,27,8,0.5,0.4
2025-04-07T1100,3192A,80.0903,32.5028,阿里地区,阿里藏医院,,26,26,12,16,4,76,,94,80,19,5,16,8,0.6,0.4
2025-04-07T1100,2642A,109.0318,32.6537,安康市,香溪洞,颗粒物(PM10),51,51,58,27,30,92,,92,86,9,6,7,7,0.6,0.6
2025-04-07T1100,2644A,109.0072,32.6975,安康市,汉滨区检察院,颗粒物(PM10),64,78,82,32,33,68,,44,43,21,19,50,12,0.5,0.4
2025-04-07T1100,4054A,109.0325,32.6913,安康市,市邮政管理局,颗粒物(PM10),63,76,80,30,33,72,,43,41,18,19,19,11,0.7,0.7
2025-04-07T1100,2291A,117.0809,30.5177,安庆市,环科院,颗粒物(PM10),62,74,77,31,29,90,,32,32,34,64,11,9,0.5,0.5
2025-04-07T1100,2292A,117.0331,30.5119,安庆市,马山宾馆,颗粒物(PM10),60,70,70,31,28,75,,25,,51,56,10,6,0.4,0.3
2025-04-07T1100,2294A,116.9896,30.6145,安庆市,安庆大学,颗粒物(PM10),62,73,79,25,28,130,,60,60,19,34,9,6,0.4,0.6
2025-04-07T1100,3173A,117.0598,30.5351,安庆市,市人大,颗粒物(PM10),62,73,77,33,34,87,,38,38,37,49,15,8,0.5,0.5
2025-04-07T1100,3122A,105.9606,26.2611,安顺市,伍家关,,42,30,56,29,40,45,,42,40,14,12,8,7,0.9,0.9
2025-04-07T1100,3123A,105.9408,26.2431,安顺市,凤凰山,,,39,63,27,47,53,,46,45,15,16,,10,0.6,0.6
2025-04-07T1100,3124A,105.9439,26.2564,安顺市,金钟山,,43,40,61,30,46,53,,46,44,16,14,10,8,0.8,0.7
2025-04-07T1100,3125A,105.8983,26.2481,安顺市,娄家坡,,42,35,58,29,47,59,,48,45,9,13,6,8,0.9,0.9
2025-04-07T1100,1818A,114.4839,36.0621,安阳市,棉研所,,,,,,,,,,,,,,,,
2025-04-07T1100,1819A,114.3551,36.1017,安阳市,红庙街,颗粒物(PM10),110,170,140,78,47,82,,40,37,38,23,28,10,1.4,0.6
2025-04-07T1100,1820A,114.361,36.0681,安阳市,银杏小区,细颗粒物(PM2.5),130,194,140,99,65,78,,35,34,52,29,20,9,1.0,0.4
2025-04-07T1100,3141A,114.3922,36.0878,安阳市,信访局,细颗粒物(PM2.5),130,183,153,99,60,56,,36,30,60,30,16,6,1.1,0.6
2025-04-07T1100,3669A,114.4705,36.0637,安阳市,左辅环卫站,颗粒物(PM10),115,179,144,71,54,78,,52,48,,10,10,7,0.5,0.4
2025-04-07T1100,3703A,114.2917,36.0949,安阳市,安钢职工学校,细颗粒物(PM2.5),150,209,149,115,55,86,,43,43,49,27,39,8,,0.8
2025-04-07T1100,1748A,123.044,41.1196,鞍山市,深沟寺,,48,48,51,28,33,124,,105,105,14,15,11,10,0.5,0.6
2025-04-07T1100,1749A,123.011,41.0931,鞍山市,太阳城,,,46,50,28,33,,,102,102,12,13,6,5,0.6,0.7
2025-04-07T1100,1750A,123.0485,41.1442,鞍山市,太平,,,69,64,28,34,110,,101,101,,18,,9,0.6,0.6
2025-04-07T1100,1751A,122.9642,41.0971,鞍山市,铁西三道街,颗粒物(PM10),57,63,62,31,37,118,,91,91,23,26,7,10,0.7,0.8
2025-04-07T1100,1753A,123.022,41.0821,鞍山市,明达新区,,45,45,47,31,32,127,,107,107,9,10,8,7,0.4,0.5
2025-04-07T1100,1754A,123.1289,41.0228,鞍山市,千山,,,,36,,20,,,87,,,12,,4,,0.8
2025-04-07T1100,4201A,122.9446,41.0826,鞍山市,兴盛南路290号,颗粒物(PM10),58,66,65,29,35,126,,102,102,17,28,12,12,0.7,0.7
2025-04-07T1100,2195A,107.4212,40.761,巴彦淖尔市,附二中,颗粒物(PM10),54,57,130,17,36,90,,75,75,7,9,11,10,0.4,0.3
2025-04-07T1100,2196A,107.37,40.7372,巴彦淖尔市,市环保大楼,颗粒物(PM10),59,68,131,26,40,88,,76,76,8,9,8,6,0.2,0.2
2025-04-07T1100,1956A,86.1472,41.7538,巴音郭楞蒙古自治州,孔雀公园,颗粒物(PM10),120,189,239,49,53,50,,84,68,46,19,6,6,0.6,0.3
2025-04-07T1100,1957A,86.1972,41.7166,巴音郭楞蒙古自治州,棉纺厂,颗粒物(PM10),136,221,313,48,54,51,,68,50,38,24,4,5,0.4,0.3
2025-04-07T1100,1958A,86.2357,41.7173,巴音郭楞蒙古自治州,经济开发区,颗粒物(PM10),123,195,253,41,45,77,,89,77,17,9,6,5,0.3,0.2
2025-04-07T1100,2914A,106.7677,31.8794,巴中市,苏山坪,颗粒物(PM10),60,69,55,33,26,80,,78,72,21,14,5,4,0.5,0.4
2025-04-07T1100,3181A,106.7768,31.8526,巴中市,市五中,颗粒物(PM10),59,68,59,33,29,63,,26,26,24,21,7,6,0.6,0.5
2025-04-07T1100,3183A,106.7418,31.8654,巴中市,圣泉水务公司,颗粒物(PM10),57,64,52,31,25,84,,36,36,15,22,5,3,0.5,0.4
2025-04-07T1100,3616A,106.7616,31.8344,巴中市,市中心医院,细颗粒物(PM2.5),60,60,55,43,35,74,,26,26,15,22,8,6,0.6,0.6
2025-04-07T1100,2235A,122.7911,45.6077,白城市,洮北区环保局,细颗粒物(PM2.5),58,44,42,41,33,78,,58,58,11,12,2,2,0.8,0.7
2025-04-07T1100,2236A,122.8738,45.5725,白城市,市环保局,,49,46,40,34,36,79,,55,55,11,14,5,3,0.6,0.5
2025-04-07T1100,2231A,126.4219,41.9171,白山市,喜丰,,35,35,34,15,19,77,,40,40,18,19,9,6,1.1,1.3
2025-04-07T1100,2232A,126.4077,41.9419,白山市,环保局,,25,16,38,14,20,77,,37,37,15,19,8,6,1.0,1
2025-04-07T1100,2647A,104.1724,36.5446,白银市,第三小学,颗粒物(PM10),60,69,96,32,34,100,,68,68,10,19,19,24,0.7,0.8
2025-04-07T1100,2648A,104.1465,36.5482,白银市,动力公司,颗粒物(PM10),61,72,89,32,34,106,,67,67,11,18,18,18,0.5,0.6
2025-04-07T1100,2512A,106.6103,23.9011,百色市,市监测站,细颗粒物(PM2.5),98,99,98,73,73,64,,74,68,20,18,11,13,1.2,1.1
2025-04-07T1100,2513A,106.6538,23.8859,百色市,市中心血站,细颗粒物(PM2.5),115,102,101,87,85,67,,76,71,18,16,12,15,1.0,1
2025-04-07T1100,3406A,106.6085,23.8798,百色市,祈福高中,细颗粒物(PM2.5),114,94,106,86,80,66,,73,68,17,19,7,9,1.1,1.1
2025-04-07T1100,2270A,117.396,32.939,蚌埠市,工人疗养院,颗粒物(PM10),75,99,91,28,24,125,,116,112,22,15,7,7,0.6,0.6
2025-04-07T1100,2271A,117.3605,32.9427,蚌埠市,百货大楼,颗粒物(PM10),66,82,89,25,25,119,,104,101,25,24,8,8,0.4,0.5
2025-04-07T1100,2273A,117.4185,32.8911,蚌埠市,蚌埠学院,颗粒物(PM10),68,85,90,38,26,135,,105,103,9,15,5,6,0.5,0.5
2025-04-07T1100,2274A,117.3533,32.9673,蚌埠市,淮上区政府,颗粒物(PM10),69,88,86,35,31,123,,108,105,22,19,7,8,0.4,0.4
2025-04-07T1100,2275A,117.3145,32.8977,蚌埠市,高新区,颗粒物(PM10),75,100,91,31,28,119,,94,88,16,18,7,9,0.6,0.5
2025-04-07T1100,3715A,117.3092,32.9314,蚌埠市,蚌埠田家炳中学,颗粒物(PM10),71,91,97,29,32,128,,93,90,20,24,8,16,0.4,0.4
2025-04-07T1100,1585A,109.8756,40.6532,包头市,市环境监测站,,44,44,119,12,33,86,,84,84,14,25,11,16,0.5,0.7
2025-04-07T1100,1587A,109.9991,40.5842,包头市,包头八中,颗粒物(PM10),51,52,135,17,44,90,,82,82,16,36,24,13,0.7,0.6
2025-04-07T1100,1588A,109.8538,40.6821,包头市,青山宾馆,,,,103,,36,86,,82,82,9,28,11,15,,0.8
2025-04-07T1100,1589A,109.8642,40.6288,包头市,惠龙物流,,35,35,108,8,32,87,,87,87,15,22,9,15,0.4,0.8
2025-04-07T1100,1590A,110.0377,40.5546,包头市,东河鸿龙湾,颗粒物(PM10),58,66,137,18,42,98,,77,77,8,26,10,12,0.4,0.6
2025-04-07T1100,3283A,109.9154,40.5685,包头市,滨河大厦,,40,40,127,19,44,96,,84,84,14,26,16,18,0.8,0.7
2025-04-07T1100,3419A,109.9447,40.6261,包头市,包头市委党校,,47,47,106,11,31,97,,88,88,10,25,8,10,0.4,0.5
2025-04-07T1100,3683A,109.8331,40.6576,包头市,昆区政府,,36,36,105,11,37,86,,81,81,14,25,9,15,0.4,0.7
2025-04-07T1100,1930A,107.185,34.3063,宝鸡市,庙沟村,颗粒物(PM10),51,52,72,22,28,106,,102,101,8,10,7,7,0.4,0.4
2025-04-07T1100,1931A,107.0708,34.3017,宝鸡市,竹园沟,颗粒物(PM10),55,59,77,23,28,110,,92,92,9,12,6,7,0.4,0.4
2025-04-07T1100,1932A,107.1906,34.3672,宝鸡市,三陆医院,颗粒物(PM10),59,68,98,17,36,106,,40,40,8,35,4,8,0.5,0.6
2025-04-07T1100,1933A,107.1431,34.3547,宝鸡市,监测站,,,73,99,32,38,,,54,54,,28,,9,,0.5
2025-04-07T1100,1934A,107.1186,34.3739,宝鸡市,技工学校,颗粒物(PM10),56,61,93,19,37,108,,75,75,6,18,5,7,0.3,0.5
2025-04-07T1100,1935A,107.3906,34.3528,宝鸡市,陈仓区环保局家属楼,颗粒物(PM10),62,73,103,21,36,100,,63,63,22,36,26,26,0.6,0.7
2025-04-07T1100,1936A,107.2058,34.3497,宝鸡市,文理学院,颗粒物(PM10),51,52,90,24,45,105,,56,56,10,26,5,6,0.4,0.5
2025-04-07T1100,1937A,107.2386,34.3622,宝鸡市,三迪小学,颗粒物(PM10),70,89,104,26,52,105,,37,37,13,42,6,9,0.4,0.6
2025-04-07T1100,1051A,115.493,38.8632,保定市,游泳馆,细颗粒物(PM2.5),98,99,121,73,77,109,,77,77,33,40,20,15,0.9,0.6
2025-04-07T1100,1052A,115.5213,38.8959,保定市,华电二区,细颗粒物(PM2.5),94,90,109,70,72,107,,67,67,26,40,6,4,1.2,0.8
2025-04-07T1100,1053A,115.4713,38.9108,保定市,接待中心,细颗粒物(PM2.5),123,103,113,93,97,110,,71,71,25,36,11,7,0.9,0.6
2025-04-07T1100,1054A,115.4612,38.8416,保定市,地表水厂,颗粒物(PM10),89,128,119,61,59,115,,84,84,31,34,12,8,0.9,0.6
2025-04-07T1100,3581A,115.31981,38.95208,保定市,满城区生态环境分局,细颗粒物(PM2.5),113,110,118,85,77,110,,79,79,34,43,9,4,0.9,0.6
2025-04-07T1100,3582A,115.47694,38.76408,保定市,清苑区第二中学,细颗粒物(PM2.5),100,135,135,75,66,108,,76,76,38,39,14,9,0.9,0.6
2025-04-07T1100,3583A,115.62909,39.02311,保定市,徐水物探局,颗粒物(PM10),76,102,117,53,62,109,,70,70,26,40,17,12,1.1,0.5
2025-04-07T1100,4004A,115.4202,38.8656,保定市,双鹰农机,细颗粒物(PM2.5),122,124,119,92,62,114,,82,82,38,43,13,9,0.7,0.4
2025-04-07T1100,4034A,115.5150,38.8590,保定市,植保所站,颗粒物(PM10),81,111,120,53,85,100,,67,67,32,38,10,5,0.9,0.5
2025-04-07T1100,2594A,99.1678,25.1081,保山市,市环境监测站,颗粒物(PM10),60,70,61,39,45,95,,89,80,21,13,6,7,0.6,0.5
2025-04-07T1100,2595A,99.1711,25.1328,保山市,市环保局,,,,64,,42,88,,111,100,29,11,,5,,0.7
2025-04-07T1100,1866A,109.2262,21.588,北海市,牛尾岭水库,,,61,48,41,39,55,,49,49,,12,7,6,0.7,0.7
2025-04-07T1100,1867A,109.1436,21.4086,北海市,海滩公园,颗粒物(PM10),64,78,60,34,31,78,,86,79,21,17,10,9,0.7,0.7
2025-04-07T1100,1868A,109.0981,21.4661,北海市,新市环保局,细颗粒物(PM2.5),64,73,62,46,42,66,,88,81,28,20,11,7,0.6,0.5
2025-04-07T1100,1869A,109.1778,21.5233,北海市,北海工业园,细颗粒物(PM2.5),80,98,73,59,48,50,,74,64,34,18,21,12,0.5,0.5
2025-04-07T1100,3400A,109.1911,21.4415,北海市,龙潭自来水厂,,,61,57,60,39,,,78,69,18,16,10,9,0.7,0.7
2025-04-07T1100,1001A,116.3621,39.8784,北京市,万寿西宫,细颗粒物(PM2.5),94,124,109,70,56,94,,82,76,43,40,13,14,0.9,0.9
2025-04-07T1100,1002A,116.2202,40.2915,北京市,定陵,,,,,,,,,,,,,,,,
2025-04-07T1100,1003A,116.4174,39.9289,北京市,东四,细颗粒物(PM2.5),90,107,119,67,66,87,,72,69,35,35,11,15,0.7,0.9
2025-04-07T1100,1004A,116.4072,39.8863,北京市,天坛,颗粒物(PM10),78,106,104,56,55,84,,58,58,43,36,7,7,1.1,1.1
2025-04-07T1100,1005A,116.462,39.9365,北京市,农展馆,颗粒物(PM10),67,84,105,43,55,89,,55,55,28,39,11,14,0.9,1
2025-04-07T1100,1006A,116.3392,39.9295,北京市,官园,细颗粒物(PM2.5),103,129,113,77,57,72,,62,56,44,34,14,14,0.9,0.8
2025-04-07T1100,1007A,116.2878,39.9611,北京市,海淀万柳,颗粒物(PM10),81,111,104,56,51,68,,42,38,40,41,10,10,1.1,1
2025-04-07T1100,1008A,116.6636,40.135,北京市,顺义新城,颗粒物(PM10),81,111,109,53,51,121,,74,74,18,28,12,14,0.7,0.8
2025-04-07T1100,1009A,116.6275,40.3275,北京市,怀柔镇,细颗粒物(PM2.5),85,115,97,63,50,121,,92,92,19,20,10,10,0.7,0.7
2025-04-07T1100,1010A,116.2296,40.217,北京市,昌平镇,颗粒物(PM10),67,83,102,38,46,91,,85,76,25,27,6,7,0.5,0.6
2025-04-07T1100,1011A,116.3966,39.9821,北京市,奥体中心,颗粒物(PM10),77,103,104,54,51,78,,48,40,44,48,8,11,0.9,1
2025-04-07T1100,3281A,115.9718,40.4529,北京市,延庆夏都,细颗粒物(PM2.5),122,105,98,92,56,99,,71,60,23,26,12,11,0.6,0.7
2025-04-07T1100,3418A,116.8336,40.4095,北京市,密云新城,颗粒物(PM10),65,79,98,43,46,118,,83,83,12,21,9,11,0.6,0.7
2025-04-07T1100,3671A,116.088,39.9726,北京市,门头沟三家店,,,150,173,57,63,,,28,28,47,53,10,8,0.7,0.7
2025-04-07T1100,3672A,116.1541,39.8204,北京市,丰台云岗,细颗粒物(PM2.5),95,115,113,71,61,97,,54,54,34,44,14,12,0.8,0.7
2025-04-07T1100,3673A,116.6804,39.9081,北京市,通州东关,,,,125,,52,,,62,,,43,,14,,0.8
2025-04-07T1100,3674A,115.9577,39.7603,北京市,房山燕山,细颗粒物(PM2.5),99,121,116,74,62,119,,59,59,40,39,20,9,1.0,0.6
2025-04-07T1100,3675A,116.4672,39.7733,北京市,大兴旧宫,颗粒物(PM10),77,104,107,54,52,85,,48,48,33,38,6,6,0.7,0.7
2025-04-07T1100,3694A,115.986,40.4563,北京市,延庆石河营,颗粒物(PM10),78,105,94,53,49,96,,64,54,24,25,10,8,0.7,0.7
2025-04-07T1100,3695A,116.6151,40.3053,北京市,怀柔新城,细颗粒物(PM2.5),89,103,90,66,47,117,,93,93,23,23,12,12,0.9,0.9
2025-04-07T1100,3696A,116.2545,39.8768,北京市,丰台小屯,颗粒物(PM10),80,110,102,58,55,85,,65,64,36,36,9,9,0.7,0.7
2025-04-07T1100,3697A,116.84,40.3844,北京市,密云镇,颗粒物(PM10),69,87,101,47,48,129,,67,67,14,27,10,12,0.7,0.7
2025-04-07T1100,4182A,116.1942,39.9158,北京市,八角北路9号,颗粒物(PM10),85,119,113,59,50,93,,52,52,33,48,9,9,0.5,0.6
2025-04-07T1100,4194A,117.0790,40.1518,北京市,洳河巡河路,细颗粒物(PM2.5),78,96,94,57,49,104,,100,84,29,23,7,10,0.8,0.8
2025-04-07T1100,1761A,123.8275,41.3064,本溪市,大峪,,,38,63,24,43,118,,54,54,,26,8,9,0.5,0.6
2025-04-07T1100,1762A,123.7567,41.3325,本溪市,溪湖,,43,43,66,18,46,118,,72,72,14,32,10,10,0.7,0.9
2025-04-07T1100,1763A,123.7169,41.3094,本溪市,彩屯,颗粒物(PM10),54,58,70,28,51,109,,56,56,24,35,16,12,2.1,1.5
2025-04-07T1100,1764A,123.7669,41.2864,本溪市,东明,颗粒物(PM10),66,82,66,20,35,115,,57,57,11,30,15,13,0.6,0.9
2025-04-07T1100,1765A,123.7992,41.2664,本溪市,新立屯,,38,30,46,15,39,120,,84,84,12,29,8,8,0.6,0.8
2025-04-07T1100,1766A,123.8142,41.3472,本溪市,威宁,颗粒物(PM10),72,94,83,35,52,114,,46,46,9,23,6,4,0.6,0.8
2025-04-07T1100,2587A,105.2864,27.3125,毕节市,八中,,23,,16,16,14,60,,29,29,8,9,15,15,0.7,0.7
2025-04-07T1100,2588A,105.31,27.2944,毕节市,师专,,,18,17,16,14,,,31,31,10,11,6,6,0.7,0.7
2025-04-07T1100,4263A,105.3688,27.3598,毕节市,工业大道,,29,22,18,20,15,50,,36,36,14,13,8,8,0.6,0.7
2025-04-07T1100,1629A,118.0018,37.3617,滨州市,第二水厂,颗粒物(PM10),115,180,127,41,36,109,,62,62,13,34,15,12,0.8,0.6
2025-04-07T1100,1630A,117.9776,37.393,滨州市,北中新校,细颗粒物(PM2.5),100,141,111,75,44,115,,77,77,17,46,16,13,0.5,0.6
2025-04-07T1100,3514A,117.9378,37.3956,滨州市,中海酒店,细颗粒物(PM2.5),104,132,101,78,42,114,,91,91,16,28,14,11,0.6,0.6
2025-04-07T1100,3515A,117.9378,37.3553,滨州市,开发区一中,,,,125,,36,,,68,68,,45,19,15,0.6,0.5
2025-04-07T1100,3516A,118.0917,37.694,滨州市,金海六路,颗粒物(PM10),103,156,120,66,39,112,,64,64,17,36,18,11,0.7,0.6
2025-04-07T1100,4028A,117.9956,37.3753,滨州市,滨州市西街道办事处,颗粒物(PM10),107,163,126,46,52,119,,69,69,16,42,18,10,0.6,0.7
2025-04-07T1100,2311A,115.8072,33.8399,亳州市,污水处理厂,颗粒物(PM10),86,122,118,33,34,140,,121,121,10,12,6,5,0.4,0.4
2025-04-07T1100,2312A,115.7789,33.8518,亳州市,三国揽胜宫,颗粒物(PM10),79,107,112,30,36,139,,125,125,6,9,8,7,0.5,0.5
2025-04-07T1100,3332A,115.7633,33.8034,亳州市,亳州学院,,,,114,27,31,137,,117,117,9,10,11,8,0.7,0.4
2025-04-07T1100,2693A,82.0485,44.8556,博尔塔拉蒙古自治州,市党校,,35,,27,24,13,36,,47,34,38,29,2,2,0.4,0.3
2025-04-07T1100,2694A,82.0806,44.8969,博尔塔拉蒙古自治州,市环保局,,38,38,44,16,21,47,,47,43,21,17,2,3,0.5,0.4
2025-04-07T1100,1071A,116.8842,38.2991,沧州市,沧县城建局,颗粒物(PM10),97,143,124,64,56,83,,47,47,42,43,10,9,0.8,0.7
2025-04-07T1100,1072A,116.8584,38.3254,沧州市,电视转播站,细颗粒物(PM2.5),119,138,117,90,65,78,,45,45,42,41,13,10,0.6,0.4
2025-04-07T1100,1073A,116.8709,38.3228,沧州市,市环保局,,,134,114,73,55,88,,46,46,36,38,,11,0.7,0.5
2025-04-07T1100,3324A,116.8136,38.3004,沧州市,河北水利电力学院,颗粒物(PM10),109,168,135,71,58,88,,56,54,35,38,14,12,0.7,0.6
2025-04-07T1100,2622A,97.1806,31.1273,昌都市,昌都监测站,,28,28,23,12,12,79,,70,67,13,6,3,2,0.4,0.3
2025-04-07T1100,3719A,97.1714,31.1406,昌都市,昌都会议中心,,32,27,24,22,16,89,,77,74,9,6,4,3,0.4,0.2
2025-04-07T1100,2690A,88.1236,43.8886,昌吉回族自治州,天山天池,,30,6,11,3,3,94,,83,83,6,7,5,4,0.5,0.5
2025-04-07T1100,2692A,87.2717,44.0297,昌吉回族自治州,新区政务中心,,28,28,20,8,10,72,,39,39,23,23,8,5,0.7,0.4
2025-04-07T1100,3613A,87.3095,44.0142,昌吉回族自治州,亚心广场,,34,34,27,9,6,72,,28,28,24,32,10,7,0.8,0.6
2025-04-07T1100,1119A,125.3325,43.9166,长春市,食品厂,,,84,58,25,46,91,,58,58,12,24,8,7,,0.6
2025-04-07T1100,1120A,125.2863,43.9027,长春市,客车厂,,39,38,47,27,49,84,,58,58,14,24,6,5,0.6,0.6
2025-04-07T1100,1121A,125.2841,43.8463,长春市,邮电学院,,40,34,51,28,50,84,,53,53,13,23,6,6,0.5,0.5
2025-04-07T1100,1122A,125.3716,43.8772,长春市,劳动公园,,35,24,49,24,43,89,,54,54,9,21,7,7,0.5,0.5
2025-04-07T1100,1123A,125.3297,43.8805,长春市,园林处,,39,39,49,23,45,89,,56,56,10,21,7,6,0.6,0.6
2025-04-07T1100,1124A,125.4605,43.79,长春市,净月潭,,35,32,49,24,40,88,,50,50,8,14,6,6,0.5,0.6
2025-04-07T1100,1125A,125.7194,43.515,长春市,甩湾子,,,,,,,,,,,,,,,,
2025-04-07T1100,1126A,125.3863,43.8447,长春市,经开区环卫处,,40,40,51,23,44,85,,52,52,9,21,6,6,0.5,0.6
2025-04-07T1100,1127A,125.245,43.7783,长春市,高新区管委会,,39,32,43,27,44,84,,52,52,11,22,8,7,0.6,0.6
2025-04-07T1100,1128A,125.1761,43.8325,长春市,岱山公园,,42,38,47,29,46,91,,55,55,12,26,5,4,0.5,0.5
2025-04-07T1100,1335A,113.0833,28.2325,长沙市,经开区环保局,,,,,,,,,,,,,,,,
2025-04-07T1100,1336A,112.8872,28.2189,长沙市,高开区环保局,颗粒物(PM10),78,105,113,52,50,82,,47,47,25,51,16,10,1.1,1.1
2025-04-07T1100,1337A,113.0792,28.2053,长沙市,马坡岭,细颗粒物(PM2.5),72,89,110,52,50,79,,49,49,25,46,16,8,0.7,0.6
2025-04-07T1100,1338A,112.9394,28.19,长沙市,湖南师范大学,细颗粒物(PM2.5),78,93,95,57,42,76,,49,49,30,27,13,8,0.9,0.9
2025-04-07T1100,1339A,113.0178,28.1322,长沙市,雨花区环保局,颗粒物(PM10),74,97,106,49,45,83,,30,30,27,49,14,10,0.8,0.8
2025-04-07T1100,1340A,112.9792,28.2597,长沙市,伍家岭,颗粒物(PM10),87,124,123,47,52,59,,13,13,44,51,9,6,1.0,1
2025-04-07T1100,1341A,113.0014,28.1944,长沙市,火车新站,颗粒物(PM10),83,116,133,58,63,59,,21,21,45,61,13,10,1.0,1.2
2025-04-07T1100,1342A,112.9844,28.1178,长沙市,天心区环保局,细颗粒物(PM2.5),75,96,108,55,54,89,,51,51,28,49,11,8,0.9,0.9
2025-04-07T1100,1343A,112.8908,28.1308,长沙市,湖南中医药大学,颗粒物(PM10),78,106,114,52,57,56,,14,14,36,53,12,7,1.0,1.1
2025-04-07T1100,1344A,112.9581,28.3611,长沙市,沙坪,细颗粒物(PM2.5),70,85,69,51,43,78,,65,58,33,20,13,9,1.2,1
2025-04-07T1100,1727A,113.1147,36.1547,长治市,清华站,颗粒物(PM10),84,117,95,34,31,112,,45,45,18,29,9,9,0.7,0.7
2025-04-07T1100,1730A,113.0886,36.2125,长治市,审计局,颗粒物(PM10),81,112,90,36,33,100,,56,47,29,29,12,10,0.4,0.4
2025-04-07T1100,1731A,113.0844,36.1856,长治市,长治八中,颗粒物(PM10),109,167,115,76,41,100,,54,46,41,28,,9,0.6,0.5
2025-04-07T1100,2845A,113.1569,36.1911,长治市,德盛苑,颗粒物(PM10),77,104,90,36,31,107,,103,95,18,12,12,7,0.8,0.7
2025-04-07T1100,3568A,113.06,36.0464,长治市,向阳小学,颗粒物(PM10),77,103,102,39,35,121,,97,97,15,16,11,12,0.5,0.5
2025-04-07T1100,3569A,112.8792,36.3144,长治市,屯留一中,颗粒物(PM10),73,96,97,33,37,104,,30,28,30,39,13,10,0.6,0.7
2025-04-07T1100,4189A,113.1131,36.19948,长治市,英华南巷50号,颗粒物(PM10),86,122,97,36,36,105,,66,56,32,24,13,7,0.6,0.5
2025-04-07T1100,4190A,113.2367,36.3344,长治市,学府街1号,细颗粒物(PM2.5),129,184,120,98,48,117,,31,31,20,41,30,10,1.0,0.8
2025-04-07T1100,1854A,111.6975,28.9703,常德市,市二中,颗粒物(PM10),68,85,91,40,41,49,,58,52,23,19,6,7,0.7,0.6
2025-04-07T1100,1857A,111.7158,29.1456,常德市,白鹤山,,,,,,,,,,,,,,,,
2025-04-07T1100,3138A,111.7153,29.0289,常德市,武陵区永安,颗粒物(PM10),75,99,106,39,41,60,,55,52,25,20,8,6,0.7,0.6
2025-04-07T1100,3139A,111.6892,28.9881,常德市,鼎城区玉霞,颗粒物(PM10),73,96,95,46,40,43,,42,42,28,23,6,5,0.7,0.6
2025-04-07T1100,3140A,111.6625,29.0531,常德市,武陵区长庚,颗粒物(PM10),72,94,101,39,40,73,,59,59,15,19,7,7,0.6,0.6
2025-04-07T1100,1196A,119.9633,31.762,常州市,市监测站,颗粒物(PM10),72,93,119,51,58,175,,108,108,32,41,10,10,0.7,0.8
2025-04-07T1100,1200A,119.9468,31.7069,常州市,武进监测站,颗粒物(PM10),76,102,106,52,47,167,,115,115,30,28,13,9,0.6,0.6
2025-04-07T1100,1201A,119.9255,31.9087,常州市,安家,细颗粒物(PM2.5),70,87,101,51,52,169,,118,118,24,28,12,10,0.3,0.3
2025-04-07T1100,3002A,119.9805,31.8174,常州市,行政中心,细颗粒物(PM2.5),74,85,92,54,51,170,,122,121,29,27,16,15,0.5,0.6
2025-04-07T1100,3003A,120.0522,31.7748,常州市,经开区,颗粒物(PM10),80,110,105,53,51,166,,120,120,38,36,12,14,0.7,1
2025-04-07T1100,3010A,119.9025,31.7964,常州市,钟楼,颗粒物(PM10),80,109,105,58,54,177,,129,129,25,25,15,10,0.8,0.9
2025-04-07T1100,3429A,119.8598,31.7066,常州市,武进经发区,细颗粒物(PM2.5),87,118,108,64,54,165,,112,112,36,31,10,12,1.1,1
2025-04-07T1100,3430A,119.5826,31.7245,常州市,金坛城区,,,107,99,51,44,,,116,113,24,24,12,12,0.7,0.9
2025-04-07T1100,2220A,120.4318,41.5881,朝阳市,西梁,颗粒物(PM10),79,108,45,33,23,117,,94,94,17,14,14,13,0.9,0.8
2025-04-07T1100,2221A,120.4521,41.5646,朝阳市,河畔小区,颗粒物(PM10),68,86,40,36,24,120,,106,106,17,12,14,11,0.7,0.5
2025-04-07T1100,2222A,120.4176,41.5648,朝阳市,八里堡,颗粒物(PM10),75,99,42,36,22,114,,83,83,15,15,12,11,0.7,0.7
2025-04-07T1100,2223A,120.3806,41.5969,朝阳市,农业园区,颗粒物(PM10),85,120,54,34,32,114,,73,73,14,22,14,13,0.7,0.7
2025-04-07T1100,1705A,116.6367,23.6719,潮州市,西园路,,,,,,,,,,,,,,,,
2025-04-07T1100,3026A,116.6183,23.6608,潮州市,市政府,颗粒物(PM10),55,59,68,21,49,110,,50,50,15,27,4,9,0.7,0.9
2025-04-07T1100,4036A,116.6461,23.6761,潮州市,金山,颗粒物(PM10),61,72,60,19,52,111,,46,46,12,18,7,8,0.6,0.7
2025-04-07T1100,2472A,113.0073,25.9061,郴州市,马头岭,颗粒物(PM10),61,71,80,26,37,66,,30,30,26,26,8,7,0.9,0.9
2025-04-07T1100,2473A,113.0116,25.8226,郴州市,市职中,颗粒物(PM10),65,80,79,44,49,35,,17,17,34,27,16,8,0.8,0.7
2025-04-07T1100,2475A,113.0383,25.8071,郴州市,市审计局,颗粒物(PM10),61,71,79,42,51,50,,20,20,28,27,12,8,0.8,0.8
2025-04-07T1100,2476A,113.0348,25.7759,郴州市,市环保局,颗粒物(PM10),65,80,86,40,46,41,,32,32,31,26,12,9,0.7,0.7
2025-04-07T1100,4252A,113.0138,25.8011,郴州市,好美居路49号,颗粒物(PM10),67,83,83,47,52,32,,13,13,37,35,10,6,1.0,0.9
2025-04-07T1100,1431A,103.9728,30.7236,成都市,金泉两河,颗粒物(PM10),62,74,64,28,25,77,,27,27,24,27,5,2,0.9,0.9
2025-04-07T1100,1432A,104.176,30.6872,成都市,十里店,颗粒物(PM10),64,77,64,31,30,69,,41,37,40,33,4,3,0.8,0.7
2025-04-07T1100,1433A,104.079,30.5706,成都市,三瓦窑,颗粒物(PM10),55,59,67,33,28,81,,22,22,29,40,7,4,0.7,0.6
2025-04-07T1100,1434A,104.1114,30.63,成都市,沙河铺,颗粒物(PM10),54,57,61,27,33,75,,31,31,20,23,6,5,0.9,0.8
2025-04-07T1100,1437A,104.0786,30.6531,成都市,君平街,颗粒物(PM10),59,68,68,33,37,87,,48,48,24,30,10,6,0.9,0.8
2025-04-07T1100,1438A,103.613,31.0283,成都市,灵岩寺,,,,,,,,,,,,,,,,
2025-04-07T1100,2880A,104.0239,30.65639,成都市,大石西路,颗粒物(PM10),60,70,69,42,36,85,,30,30,21,34,7,4,0.8,0.8
2025-04-07T1100,3136A,104.2725,30.5589,成都市,龙泉驿区区政府,颗粒物(PM10),54,58,51,34,24,80,,52,52,26,16,4,4,0.9,0.8
2025-04-07T1100,3357A,104.0106,30.6931,成都市,金博路,颗粒物(PM10),60,70,59,39,26,79,,25,24,20,28,9,7,0.6,0.5
2025-04-07T1100,3359A,104.0578,30.5225,成都市,华阳,细颗粒物(PM2.5),62,61,57,44,38,87,,31,31,22,29,9,6,0.7,0.8
2025-04-07T1100,3488A,104.3853,30.7453,成都市,青白江技师分院,,44,44,59,22,28,103,,46,46,16,30,7,7,0.6,0.6
2025-04-07T1100,3489A,104.0789,30.4072,成都市,科学城,"颗粒物(PM10),细颗粒物(PM2.5)",54,58,51,38,29,91,,37,37,12,19,4,4,0.6,0.6
2025-04-07T1100,4011A,103.8506,30.6947,成都市,光华大道三段,颗粒物(PM10),59,68,65,38,34,76,,33,31,24,22,3,1,0.9,0.7
2025-04-07T1100,4224A,104.2433,30.5353,成都市,鲸龙路1057号,颗粒物(PM10),58,66,62,38,30,91,,38,38,26,34,4,4,0.9,0.9
2025-04-07T1100,1062A,117.9531,40.9081,承德市,铁路,颗粒物(PM10),74,98,78,34,32,100,,64,64,32,27,14,13,0.9,0.9
2025-04-07T1100,1063A,117.9392,40.9763,承德市,中国银行,颗粒物(PM10),68,85,75,36,34,104,,57,57,17,18,10,7,0.7,0.8
2025-04-07T1100,1064A,117.9503,40.928,承德市,开发区,颗粒物(PM10),73,95,79,40,31,105,,62,62,25,23,13,13,0.9,0.9
2025-04-07T1100,1065A,117.8051,40.9655,承德市,文化中心,颗粒物(PM10),71,92,90,15,38,93,,54,54,13,29,5,9,0.2,0.7
2025-04-07T1100,1066A,117.9268,41.0026,承德市,离宫,,,64,69,30,38,,,45,40,13,14,25,27,0.6,0.8
2025-04-07T1100,2314A,117.47,30.6618,池州市,池州学院,颗粒物(PM10),62,73,61,31,25,112,,67,67,18,19,15,8,0.9,0.6
2025-04-07T1100,3237A,117.4918,30.6617,池州市,展览馆,颗粒物(PM10),61,72,55,32,22,114,,62,62,16,18,7,6,0.6,0.7
2025-04-07T1100,3333A,117.5627,30.695,池州市,第八中学,颗粒物(PM10),60,70,56,27,21,102,,82,82,20,14,6,8,0.5,0.4
2025-04-07T1100,3334A,117.5038,30.6243,池州市,第十二中学,颗粒物(PM10),64,78,59,34,22,95,,61,61,17,23,7,7,0.5,0.6
2025-04-07T1100,1744A,118.9233,42.2816,赤峰市,松山一中,颗粒物(PM10),76,102,55,18,23,86,,79,79,11,30,8,14,0.4,0.7
2025-04-07T1100,1745A,118.9576,42.2728,赤峰市,哈达街,颗粒物(PM10),68,86,55,17,26,92,,82,82,14,25,7,11,0.4,0.7
2025-04-07T1100,1746A,118.8788,42.2554,赤峰市,天义路,,,69,45,14,26,,,98,98,11,23,7,11,0.3,0.5
2025-04-07T1100,3058A,119.2658,42.0353,赤峰市,银河街,颗粒物(PM10),92,133,74,29,32,80,,68,68,10,22,17,30,0.2,0.6
2025-04-07T1100,3286A,118.9359,42.3147,赤峰市,桥北物流园区,颗粒物(PM10),65,79,58,40,44,85,,80,80,15,32,7,29,0.5,0.9
2025-04-07T1100,2521A,107.3476,22.4136,崇左市,市环保局江州分局,细颗粒物(PM2.5),78,87,109,57,74,83,,65,65,13,16,8,7,0.9,1
2025-04-07T1100,4256A,107.3750,22.3736,崇左市,石景林东路7号,细颗粒物(PM2.5),88,102,101,65,77,77,,66,66,19,16,9,7,1.0,1
2025-04-07T1100,2298A,118.3093,32.3153,滁州市,老年大学,颗粒物(PM10),70,89,77,33,30,143,,110,110,29,23,6,6,0.9,0.7
2025-04-07T1100,2299A,118.3244,32.2786,滁州市,人大宾馆,颗粒物(PM10),71,91,75,40,32,144,,100,100,32,27,14,12,0.9,0.7
2025-04-07T1100,3207A,118.3118,32.3038,滁州市,市政府原办公楼,颗粒物(PM10),64,77,69,40,31,141,,107,107,18,17,9,9,0.7,0.5
2025-04-07T1100,3331A,118.3267,32.2634,滁州市,图书馆,颗粒物(PM10),72,94,75,41,36,135,,100,99,25,20,13,11,0.8,0.6
2025-04-07T1100,2605A,101.5482,25.0441,楚雄彝族自治州,州环境监测站,细颗粒物(PM2.5),79,74,62,58,53,120,,90,75,15,14,8,8,0.8,0.7
2025-04-07T1100,2606A,101.538,25.0492,楚雄彝族自治州,市经济开发区,细颗粒物(PM2.5),78,71,65,57,54,119,,90,76,14,12,8,7,0.9,0.8
2025-04-07T1100,2548A,107.5277,31.2827,达州市,达州职业技术学院,颗粒物(PM10),69,88,64,38,30,61,,18,18,30,26,9,7,0.3,0.2
2025-04-07T1100,2549A,107.5086,31.2186,达州市,市环境监测站,颗粒物(PM10),57,64,68,27,29,72,,20,20,27,39,7,5,0.6,0.7
2025-04-07T1100,2550A,107.4988,31.2132,达州市,凤凰小区,颗粒物(PM10),63,75,69,36,32,75,,24,24,23,39,8,7,0.6,0.6
2025-04-07T1100,2551A,107.5082,31.1986,达州市,达县机关宾馆,颗粒物(PM10),64,78,74,31,31,58,,14,14,32,41,6,6,0.5,0.5
2025-04-07T1100,2552A,107.4644,31.2124,达州市,市政中心,颗粒物(PM10),63,75,77,24,30,71,,16,16,28,41,4,3,0.6,0.7
2025-04-07T1100,2614A,100.1542,25.7054,大理白族自治州,大理市环境监测站,细颗粒物(PM2.5),52,40,42,36,33,106,,107,99,13,11,8,7,0.9,0.9
2025-04-07T1100,2615A,100.2171,25.5811,大理白族自治州,大理古城,,49,45,42,34,35,117,,98,96,14,12,8,8,0.6,0.6
2025-04-07T1100,1109A,121.612,38.9741,大连市,甘井子,,50,43,48,35,31,101,,96,96,24,38,6,8,0.9,1
2025-04-07T1100,1110A,121.565,38.9511,大连市,周水子,细颗粒物(PM2.5),58,51,60,41,41,92,,83,83,18,34,8,9,0.5,0.4
2025-04-07T1100,1111A,121.5637,38.8845,大连市,星海三站,,46,46,46,32,32,95,,87,87,13,21,5,6,0.7,0.7
2025-04-07T1100,1112A,121.6302,38.9117,大连市,青泥洼桥,,49,49,60,30,34,100,,93,93,16,29,8,11,0.6,0.5
2025-04-07T1100,1113A,121.6251,38.8638,大连市,傅家庄,,39,35,37,27,26,97,,93,93,14,23,6,7,0.3,0.3
2025-04-07T1100,1114A,121.5213,38.8661,大连市,七贤岭,,48,44,50,33,31,106,,86,86,14,25,5,6,0.5,0.5
2025-04-07T1100,1115A,121.2529,38.8061,大连市,旅顺,细颗粒物(PM2.5),53,45,46,37,34,102,,93,93,25,29,6,8,0.5,0.5
2025-04-07T1100,1116A,121.7485,39.1311,大连市,金州,细颗粒物(PM2.5),60,58,97,43,42,91,,85,85,18,32,7,10,1.0,0.9
2025-04-07T1100,1117A,121.7811,39.0496,大连市,开发区,细颗粒物(PM2.5),55,54,60,39,38,88,,81,81,28,39,9,9,0.7,0.7
2025-04-07T1100,1118A,121.9762,39.0631,大连市,双D港,,49,49,30,30,21,97,,100,98,17,19,8,7,0.5,0.5
2025-04-07T1100,1789A,124.81117,46.03138,大庆市,大同区,颗粒物(PM10),54,58,64,37,45,74,,45,45,14,20,4,5,0.7,0.7
2025-04-07T1100,1790A,125.129,46.533,大庆市,龙凤区,颗粒物(PM10),59,67,71,34,45,75,,51,51,13,23,9,10,0.6,0.7
2025-04-07T1100,1791A,124.902,46.408,大庆市,红岗区,,,,45,,37,85,,55,55,9,16,,6,0.5,0.6
2025-04-07T1100,1792A,125.153,46.586,大庆市,萨尔图区,颗粒物(PM10),56,62,69,38,45,75,,55,55,17,25,8,8,0.5,0.7
2025-04-07T1100,1793A,124.9042,46.6215,大庆市,让胡路区,,50,42,51,35,42,79,,52,52,11,18,6,6,0.3,0.4
2025-04-07T1100,3481A,125.141,46.634,大庆市,萨区政府监测点,,,59,65,27,34,,,62,57,13,19,,6,0.5,0.5
2025-04-07T1100,1721A,113.3819,40.1097,大同市,果树场,颗粒物(PM10),53,56,101,24,30,89,,69,69,5,30,7,14,0.3,0.6
2025-04-07T1100,1723A,113.2994,40.0758,大同市,云冈宾馆,颗粒物(PM10),52,53,94,11,25,98,,70,70,8,26,8,12,0.4,0.7
2025-04-07T1100,1724A,113.3444,40.0917,大同市,大同大学,,,67,89,14,34,89,,62,62,,26,,21,0.4,0.5
2025-04-07T1100,1725A,113.2661,40.1269,大同市,安家小村,颗粒物(PM10),54,57,98,15,29,94,,73,73,4,17,9,14,0.4,1.2
2025-04-07T1100,1726A,113.2711,40.0844,大同市,教育学院,颗粒物(PM10),57,64,95,14,40,94,,71,71,9,21,7,12,0.4,0.8
2025-04-07T1100,3282A,113.3397,40.0597,大同市,大同市卫生学校,颗粒物(PM10),57,64,91,26,32,90,,69,69,9,29,6,11,0.5,0.7
2025-04-07T1100,3565A,113.1367,40.1122,大同市,云冈站,颗粒物(PM10),59,68,91,13,35,94,,70,70,7,16,10,17,0.4,0.4
2025-04-07T1100,3566A,113.1186,40.2556,大同市,图书馆,颗粒物(PM10),58,65,84,12,29,86,,61,61,8,11,10,10,0.5,0.5
2025-04-07T1100,3567A,113.5931,40.0461,大同市,区一中,颗粒物(PM10),78,106,109,23,35,93,,48,48,15,28,17,21,0.5,0.7
2025-04-07T1100,4199A,113.2798,40.0997,大同市,魏都大道141号,细颗粒物(PM2.5),84,83,111,62,37,99,,74,74,8,25,11,16,0.4,0.8
2025-04-07T1100,2269A,124.1069,50.4097,大兴安岭地区,科技局,细颗粒物(PM2.5),58,59,44,41,29,80,,82,78,10,8,8,8,0.6,0.5
2025-04-07T1100,3663A,124.1164,50.4278,大兴安岭地区,红旗社区,细颗粒物(PM2.5),53,46,30,37,23,82,,53,53,11,14,5,6,0.6,0.5
2025-04-07T1100,1600A,124.3303,40.0625,丹东市,江湾东路,,46,44,41,32,35,117,,48,48,11,21,13,10,0.6,0.9
2025-04-07T1100,1601A,124.4256,40.1503,丹东市,临江后街,,,65,45,46,32,102,,41,41,,19,,10,0.9,0.9
2025-04-07T1100,1602A,124.3933,40.1461,丹东市,元宝山,,47,47,43,30,31,103,,36,36,18,23,12,7,0.6,0.7
2025-04-07T1100,1603A,124.3633,40.1092,丹东市,民主桥,颗粒物(PM10),52,53,45,30,34,112,,42,42,12,23,13,9,0.7,0.9
2025-04-07T1100,3541A,109.5726,19.5167,儋州市,第一中学子站,,,,12,,7,70,,53,53,4,6,4,4,,0.6
2025-04-07T1100,3542A,109.5567,19.5187,儋州市,东坡学校子站,,24,23,14,3,6,76,,60,60,3,5,6,4,0.5,0.5
2025-04-07T1100,2616A,98.5842,24.428,德宏傣族景颇族自治州,德宏州监测站,细颗粒物(PM2.5),90,97,96,67,74,64,,37,28,35,32,19,12,0.9,0.9
2025-04-07T1100,3677A,98.5881,24.4368,德宏傣族景颇族自治州,芒市人民政府综合楼,细颗粒物(PM2.5),99,100,116,74,69,74,,76,62,32,20,12,9,0.9,0.8
2025-04-07T1100,1901A,104.4239,31.1208,德阳市,东山公园,颗粒物(PM10),58,66,62,38,33,84,,67,67,18,15,5,4,0.8,0.7
2025-04-07T1100,1902A,104.3826,31.1317,德阳市,西小区,颗粒物(PM10),68,86,81,38,38,82,,42,42,26,30,5,5,0.7,0.7
2025-04-07T1100,1904A,104.3553,31.1091,德阳市,耐火材料厂,颗粒物(PM10),70,89,79,46,37,81,,35,35,29,31,7,6,0.6,0.5
2025-04-07T1100,3639A,104.4019,31.1244,德阳市,市教育局,细颗粒物(PM2.5),64,69,66,46,35,94,,48,48,16,27,6,5,0.7,0.7
2025-04-07T1100,1622A,116.3032,37.4674,德州市,儿童乐园,颗粒物(PM10),113,175,143,66,44,106,,86,78,21,18,19,12,0.7,0.6
2025-04-07T1100,1624A,116.2991,37.4451,德州市,监理站,细颗粒物(PM2.5),119,185,137,90,47,94,,80,72,30,19,48,19,0.7,0.5
2025-04-07T1100,3066A,116.2721,37.4379,德州市,九衢泉纯净水厂,颗粒物(PM10),114,178,130,63,41,96,,72,66,33,28,33,13,0.9,0.7
2025-04-07T1100,3371A,116.3728,37.4403,德州市,开发区人民医院,颗粒物(PM10),117,183,140,56,52,98,,87,81,25,17,26,11,0.8,0.7
2025-04-07T1100,3372A,116.3572,37.4094,德州市,太阳城中学,颗粒物(PM10),109,168,134,68,44,93,,77,71,25,20,19,9,0.7,0.5
2025-04-07T1100,3511A,116.5652,37.3319,德州市,陵城艺术中心,颗粒物(PM10),100,149,130,53,41,90,,88,77,26,24,7,7,0.7,0.7
2025-04-07T1100,2621A,99.7056,27.8317,迪庆藏族自治州,迪庆州站,细颗粒物(PM2.5),53,54,52,37,29,130,,95,92,14,11,10,11,0.6,0.5
2025-04-07T1100,3180A,99.7136,27.8094,迪庆藏族自治州,质量技术监督局,,50,50,42,27,26,129,,100,90,18,13,12,11,0.7,0.7
2025-04-07T1100,4257A,104.6092,35.5962,定西市,将台街,,47,47,74,17,27,99,,61,55,13,15,6,6,0.3,0.4
2025-04-07T1100,4309A,104.6159,35.5701,定西市,正龙路62号,,43,43,70,22,30,107,,79,74,8,8,10,9,0.2,0.2
2025-04-07T1100,1389A,113.7547,23.0494,东莞市,莞城梨川,细颗粒物(PM2.5),89,104,101,66,58,91,,21,21,40,53,8,6,0.7,0.8
2025-04-07T1100,1390A,113.7944,23.0128,东莞市,东城石井,细颗粒物(PM2.5),69,74,72,50,46,107,,26,26,39,30,11,7,0.8,0.9
2025-04-07T1100,1391A,113.7383,22.9658,东莞市,南城西平,细颗粒物(PM2.5),67,72,83,48,48,94,,20,20,43,52,10,9,0.8,0.9
2025-04-07T1100,3319A,113.7338,23.0381,东莞市,万江金泰,细颗粒物(PM2.5),82,85,92,60,52,99,,23,23,33,53,11,8,0.9,1
2025-04-07T1100,3626A,113.7533,23.0202,东莞市,南城元岭,细颗粒物(PM2.5),82,98,96,60,52,83,,22,22,39,53,8,7,1.0,1
2025-04-07T1100,3627A,113.7875,23.0457,东莞市,东城主山,细颗粒物(PM2.5),77,95,100,56,53,96,,22,22,50,57,6,5,0.8,1
2025-04-07T1100,1666A,118.6614,37.4309,东营市,市环保局,颗粒物(PM10),97,144,99,44,33,130,,73,73,27,36,13,13,0.6,0.6
2025-04-07T1100,3036A,118.6904,37.4338,东营市,开发区管委会,颗粒物(PM10),103,155,107,44,37,132,,84,84,33,38,12,12,0.8,0.8
2025-04-07T1100,3365A,118.5719,37.565,东营市,垦利区民丰路,颗粒物(PM10),107,163,103,48,34,124,,77,77,26,36,10,8,0.8,0.8
2025-04-07T1100,3498A,118.5055,37.8612,东营市,河口城区,颗粒物(PM10),112,173,114,61,37,131,,70,70,27,31,14,11,1.0,1
2025-04-07T1100,3646A,118.4978,37.4623,东营市,胜利站,颗粒物(PM10),105,160,107,46,37,112,,70,70,34,42,14,14,0.9,0.9
2025-04-07T1100,3734A,118.35,37.26,东营市,理想之城,颗粒物(PM10),103,156,104,44,34,123,,67,67,29,42,16,17,0.7,0.7
2025-04-07T1100,1591A,110.0023,39.8129,鄂尔多斯市,综合楼,颗粒物(PM10),68,85,130,39,40,83,,72,65,21,18,5,6,0.4,0.3
2025-04-07T1100,1592A,109.9486,39.8261,鄂尔多斯市,巴音孟克林场办事处,颗粒物(PM10),68,85,119,14,33,88,,73,66,13,14,6,7,0.3,0.3
2025-04-07T1100,1593A,109.7736,39.5986,鄂尔多斯市,康泽苑,颗粒物(PM10),75,100,107,19,30,79,,70,67,14,9,5,4,0.2,0.2
2025-04-07T1100,1594A,109.8119,39.5989,鄂尔多斯市,华泰汽车城,颗粒物(PM10),70,90,110,14,30,80,,51,51,13,16,6,5,0.4,0.4
2025-04-07T1100,1595A,109.9734,39.7884,鄂尔多斯市,奥林花园,,,95,126,14,35,,,72,66,11,20,6,10,0.3,0.4
2025-04-07T1100,2436A,114.8938,30.3994,鄂州市,市政府,颗粒物(PM10),72,94,87,41,38,70,,51,44,32,27,13,12,0.9,0.9
2025-04-07T1100,2437A,114.8989,30.3714,鄂州市,赵家坝,颗粒物(PM10),71,91,94,35,36,55,,47,44,36,27,11,8,1.0,0.9
2025-04-07T1100,3654A,114.8094,30.4089,鄂州市,精准医疗中心,颗粒物(PM10),78,105,98,44,43,76,,38,38,44,38,29,11,1.1,0.8
2025-04-07T1100,2454A,109.4978,30.2981,恩施土家族苗族自治州,湖北民院,颗粒物(PM10),54,57,69,34,34,66,,37,37,19,15,2,1,0.4,0.4
2025-04-07T1100,2455A,109.4707,30.2798,恩施土家族苗族自治州,州电力总公司,颗粒物(PM10),57,63,72,38,36,47,,21,21,24,17,9,5,0.2,0.2
2025-04-07T1100,3549A,109.5061,30.3772,恩施土家族苗族自治州,龙凤新区,细颗粒物(PM2.5),57,58,71,40,33,62,,21,21,16,14,6,6,0.5,0.4
2025-04-07T1100,2499A,108.3411,21.6158,防城港市,沙万,颗粒物(PM10),51,52,82,31,57,78,,44,44,21,25,2,3,0.6,0.7
2025-04-07T1100,2500A,108.3514,21.7731,防城港市,防城档案局,"颗粒物(PM10),细颗粒物(PM2.5)",62,74,97,44,64,72,,22,22,17,27,2,2,0.8,0.9
2025-04-07T1100,2501A,108.3506,21.6414,防城港市,大海花园,颗粒物(PM10),51,52,82,30,58,82,,51,51,16,16,4,5,1.1,1.1
2025-04-07T1100,1371A,113.1294,23.0067,佛山市,湾梁,颗粒物(PM10),85,119,119,54,55,69,,17,17,78,75,10,9,1.0,1.1
2025-04-07T1100,1372A,113.1083,23.0478,佛山市,华材职中,颗粒物(PM10),80,110,111,55,58,64,,13,13,92,83,9,8,0.9,1.1
2025-04-07T1100,1373A,113.144,23.0453,佛山市,南海气象局,颗粒物(PM10),86,121,107,54,57,59,,11,11,61,57,8,7,0.9,1.1
2025-04-07T1100,1374A,113.2881,22.8094,佛山市,顺德苏岗,细颗粒物(PM2.5),77,92,82,56,48,63,,13,13,77,61,10,6,0.9,1
2025-04-07T1100,1376A,112.8383,22.8678,佛山市,高明孔堂,细颗粒物(PM2.5),100,144,88,75,53,60,,21,21,64,37,22,10,0.9,0.8
2025-04-07T1100,1377A,112.8836,23.1588,佛山市,三水监测站,细颗粒物(PM2.5),102,117,122,76,68,75,,16,16,63,72,9,7,0.9,1
2025-04-07T1100,1378A,112.867,23.185,佛山市,三水云东海,细颗粒物(PM2.5),100,104,103,75,77,86,,16,16,62,60,10,6,0.8,0.9
2025-04-07T1100,3625A,113.2544,22.7642,佛山市,容桂街道办,细颗粒物(PM2.5),70,88,101,51,58,86,,18,18,55,75,9,8,0.9,1.1
2025-04-07T1100,1280A,119.3903,26.0543,福州市,鼓山,,,,56,,21,,,119,,,4,,1,,0.5
2025-04-07T1100,1282A,119.2681,26.0504,福州市,师大,颗粒物(PM10),61,72,57,28,27,145,,92,92,10,14,5,5,0.5,0.4
2025-04-07T1100,1283A,119.2984,26.1028,福州市,五四北路,颗粒物(PM10),57,63,58,31,30,152,,89,89,9,21,6,4,0.7,0.5
2025-04-07T1100,1284A,119.2648,26.0768,福州市,杨桥西路,颗粒物(PM10),63,76,64,30,27,144,,82,82,13,20,6,5,0.6,0.5
2025-04-07T1100,1285A,119.317,26.0746,福州市,紫阳,颗粒物(PM10),70,90,66,29,31,99,,68,68,49,33,7,5,0.6,0.5
2025-04-07T1100,3048A,119.5799,26.0936,福州市,九龙,颗粒物(PM10),58,66,43,28,22,149,,82,82,8,14,6,5,0.5,0.4
2025-04-07T1100,3526A,119.5189,25.9664,福州市,吴航,臭氧1小时,54,53,47,25,25,163,,59,59,5,20,5,4,0.4,0.4
2025-04-07T1100,1755A,123.7977,41.8491,抚顺市,望花区,颗粒物(PM10),54,57,63,22,53,129,,57,57,16,25,12,11,0.6,0.7
2025-04-07T1100,1756A,123.9161,41.8822,抚顺市,顺城区,,42,42,60,17,45,126,,54,54,16,26,9,8,0.6,0.7
2025-04-07T1100,1757A,124.0436,41.8611,抚顺市,东洲区,,39,37,53,16,44,122,,57,57,16,19,7,6,0.8,0.8
2025-04-07T1100,1758A,123.9247,41.8642,抚顺市,新抚区,颗粒物(PM10),57,64,55,18,38,117,,49,49,14,24,7,6,0.6,0.8
2025-04-07T1100,1759A,124.0972,41.8961,抚顺市,大伙房水库,,37,22,47,16,44,118,,66,66,8,13,8,7,0.5,0.6
2025-04-07T1100,1760A,123.7086,41.8391,抚顺市,沈抚新城,颗粒物(PM10),58,65,84,28,50,129,,52,52,18,36,11,16,0.7,1.6
2025-04-07T1100,2376A,116.2127,28.0814,抚州市,桐源党溪,颗粒物(PM10),61,71,64,32,31,105,,56,56,2,4,7,8,0.5,0.5
2025-04-07T1100,2377A,116.3544,27.9831,抚州市,市站,颗粒物(PM10),55,59,70,24,29,80,,61,61,17,16,7,12,0.9,0.9
2025-04-07T1100,2378A,116.3565,27.963,抚州市,血防站,颗粒物(PM10),59,68,67,29,30,65,,45,45,18,16,4,7,1.4,1.1
2025-04-07T1100,2379A,116.3564,28.0007,抚州市,采茶剧团,颗粒物(PM10),57,64,68,32,31,70,,54,54,12,12,1,5,1.1,1
2025-04-07T1100,2380A,116.385,27.9647,抚州市,医学分院,颗粒物(PM10),57,63,68,24,27,72,,51,51,13,14,3,8,1.0,1.1
2025-04-07T1100,2207A,121.6094,41.998,阜新市,工业园区,细颗粒物(PM2.5),74,72,64,54,50,115,,73,73,21,24,21,16,0.7,0.6
2025-04-07T1100,2208A,121.6697,42.0279,阜新市,长青街,细颗粒物(PM2.5),69,71,49,50,52,113,,80,80,25,17,21,12,0.8,0.7
2025-04-07T1100,2209A,121.6673,42.0705,阜新市,农业园区,颗粒物(PM10),75,100,63,48,44,113,,83,83,20,15,16,12,0.7,0.7
2025-04-07T1100,2210A,121.6717,42.0224,阜新市,东苑,细颗粒物(PM2.5),77,91,63,56,52,105,,73,73,28,19,23,16,0.7,0.7
2025-04-07T1100,2211A,121.6506,42.0498,阜新市,玉龙新城,细颗粒物(PM2.5),68,70,64,49,50,113,,57,57,19,23,18,11,0.8,0.7
2025-04-07T1100,2301A,115.8277,32.8929,阜阳市,市监测站,颗粒物(PM10),60,70,91,31,36,118,,102,92,15,18,9,9,0.5,0.6
2025-04-07T1100,2303A,115.8554,32.8605,阜阳市,开发区,颗粒物(PM10),69,88,125,28,34,121,,95,93,12,20,8,9,0.4,0.4
2025-04-07T1100,2875A,115.784,32.8892,阜阳市,阜阳职业技术学院,颗粒物(PM10),60,70,101,27,34,109,,116,109,17,16,8,8,0.3,0.3
2025-04-07T1100,3468A,115.7901,32.8613,阜阳市,市规划展馆,颗粒物(PM10),75,99,105,31,35,125,,120,111,9,11,8,8,0.3,0.4
2025-04-07T1100,3469A,115.836,32.9183,阜阳市,枣园社区,颗粒物(PM10),73,96,107,32,40,129,,109,101,14,23,7,8,0.4,0.4
2025-04-07T1100,2669A,102.9099,34.9841,甘南藏族自治州,州政府,颗粒物(PM10),61,71,58,33,32,55,,39,39,27,23,8,7,0.5,0.4
2025-04-07T1100,3380A,102.8914,34.9617,甘南藏族自治州,甘肃民族师范学院,,48,,36,33,26,46,,35,35,31,31,8,8,0.6,0.5
2025-04-07T1100,2570A,101.9603,30.0475,甘孜藏族自治州,水桥子,,27,27,18,3,8,60,,26,26,22,23,4,3,0.3,0.3
2025-04-07T1100,3065A,101.9533,29.9972,甘孜藏族自治州,州环保局,,45,45,23,7,5,83,,64,64,22,14,5,4,0.2,0.2
2025-04-07T1100,3414A,115.8347,28.932,赣江新区,桑海产业园,颗粒物(PM10),75,100,86,30,28,79,,39,39,40,42,9,9,0.5,0.5
2025-04-07T1100,2362A,114.9017,25.9149,赣州市,通天岩,颗粒物(PM10),55,59,56,12,12,115,,77,77,3,5,22,17,0.8,0.8
2025-04-07T1100,2363A,114.9367,25.8664,赣州市,地委,颗粒物(PM10),56,62,67,38,38,58,,23,23,30,34,5,6,1.1,1.1
2025-04-07T1100,2364A,114.9461,25.8481,赣州市,气象台,颗粒物(PM10),60,70,72,42,35,59,,28,28,43,41,14,10,0.6,0.6
2025-04-07T1100,2365A,114.9322,25.8333,赣州市,市图书馆,颗粒物(PM10),65,80,74,45,37,66,,35,35,36,35,10,6,0.7,0.7
2025-04-07T1100,2366A,114.8905,25.8471,赣州市,华坚鞋城,,,75,79,38,40,,,33,33,30,35,17,15,0.5,0.6
2025-04-07T1100,3109A,115.0093,25.8613,赣州市,赣县区卫计委,颗粒物(PM10),65,79,60,45,35,63,,34,34,31,24,18,7,0.4,0.4
2025-04-07T1100,2683A,106.2319,36.1417,固原市,马园,颗粒物(PM10),69,88,129,48,47,103,,54,54,13,39,6,6,0.5,0.5
2025-04-07T1100,2684A,106.2792,36.0022,固原市,监测站,颗粒物(PM10),64,77,115,24,38,103,,79,73,11,24,6,7,0.3,0.4
2025-04-07T1100,2685A,106.2375,36.0211,固原市,新区,颗粒物(PM10),61,72,109,22,34,108,,72,71,10,30,6,6,0.4,0.5
2025-04-07T1100,3522A,106.2177,35.9959,固原市,原州区十五小,颗粒物(PM10),61,71,104,26,37,102,,91,86,11,14,8,8,0.3,0.3
2025-04-07T1100,2543A,106.6308,30.5278,广安市,小平旧居,,,,,,,,,,,,,,,,
2025-04-07T1100,2544A,106.6303,30.4576,广安市,市委,细颗粒物(PM2.5),84,97,81,62,47,70,,38,38,23,27,7,5,0.5,0.6
2025-04-07T1100,2545A,106.6271,30.4663,广安市,友谊中学,细颗粒物(PM2.5),74,95,70,54,39,78,,34,34,19,26,4,2,0.7,0.7
2025-04-07T1100,2547A,106.6388,30.4551,广安市,广电花园,细颗粒物(PM2.5),80,103,76,59,44,53,,27,25,34,28,9,8,0.6,0.6
2025-04-07T1100,2902A,106.6351,30.4865,广安市,北辰小学,颗粒物(PM10),72,94,62,50,34,68,,20,20,25,19,8,6,0.9,0.8
2025-04-07T1100,2523A,105.8945,32.4535,广元市,黑石坡,颗粒物(PM10),64,77,66,18,15,65,,,,19,11,6,3,0.5,0.3
2025-04-07T1100,2524A,105.821,32.4444,广元市,老城,颗粒物(PM10),68,85,60,34,23,59,,25,25,29,36,10,3,1.2,0.7
2025-04-07T1100,2526A,105.8628,32.4287,广元市,监测站,颗粒物(PM10),55,60,47,31,24,59,,52,43,36,15,18,6,0.8,0.4
2025-04-07T1100,3617A,105.8047,32.4166,广元市,经开区,细颗粒物(PM2.5),80,96,73,59,37,60,,22,22,31,38,47,9,1.5,0.8
2025-04-07T1100,1345A,113.2347,23.1423,广州市,广雅中学,颗粒物(PM10),71,91,118,48,61,81,,17,17,57,79,7,6,0.8,0.9
2025-04-07T1100,1346A,113.2612,23.105,广州市,市五中,颗粒物(PM10),76,101,116,43,57,84,,18,18,51,75,5,3,0.8,1
2025-04-07T1100,1348A,113.3478,23.0916,广州市,广东商学院,细颗粒物(PM2.5),72,85,97,52,56,66,,12,12,61,70,9,6,0.7,0.9
2025-04-07T1100,1349A,113.4332,23.1047,广州市,市八十六中,颗粒物(PM10),77,103,105,51,46,39,,10,10,84,75,9,5,1.0,1.1
2025-04-07T1100,1350A,113.3505,22.9483,广州市,番禺中学,细颗粒物(PM2.5),82,107,99,60,54,73,,15,15,75,71,8,5,0.7,1
2025-04-07T1100,1351A,113.2146,23.3916,广州市,花都师范,细颗粒物(PM2.5),92,115,114,68,60,91,,20,20,60,76,9,7,0.8,1
2025-04-07T1100,1352A,113.2597,23.1331,广州市,市监测站,颗粒物(PM10),70,90,105,42,56,79,,18,18,58,79,9,7,0.7,0.8
2025-04-07T1100,1353A,113.5618,23.312,广州市,九龙镇镇龙,细颗粒物(PM2.5),69,84,76,50,41,94,,17,17,35,36,6,5,0.7,0.7
2025-04-07T1100,1354A,113.2765,23.1544,广州市,麓湖,颗粒物(PM10),62,74,82,38,49,98,,20,20,44,58,7,4,0.7,0.9
2025-04-07T1100,1355A,113.443,23.3035,广州市,帽峰山森林公园,颗粒物(PM10),59,68,56,27,24,94,,33,33,37,32,6,4,0.6,0.6
2025-04-07T1100,2846A,113.3221,23.1322,广州市,体育西,颗粒物(PM10),73,95,107,51,56,87,,16,16,42,57,9,6,0.8,1
2025-04-07T1100,3298A,113.5717,23.5491,广州市,从化街口,细颗粒物(PM2.5),79,89,71,58,45,91,,19,19,27,27,10,8,0.8,0.8
2025-04-07T1100,3299A,113.3472,23.3692,广州市,白云竹料,细颗粒物(PM2.5),83,114,107,61,57,91,,22,22,42,46,10,8,0.7,0.9
2025-04-07T1100,3300A,113.2981,23.237,广州市,白云嘉禾,细颗粒物(PM2.5),103,133,115,77,62,59,,10,10,78,74,8,6,0.8,0.9
2025-04-07T1100,3301A,113.4256,23.1716,广州市,黄埔科学城,颗粒物(PM10),54,57,77,36,44,107,,23,23,42,44,9,6,0.6,0.7
2025-04-07T1100,3302A,113.3942,23.0483,广州市,番禺大学城,颗粒物(PM10),78,106,102,55,51,67,,11,11,75,73,15,10,0.7,0.8
2025-04-07T1100,3303A,113.4922,22.8168,广州市,南沙黄阁,颗粒物(PM10),74,97,94,47,54,91,,20,20,60,66,11,9,0.9,1.1
2025-04-07T1100,3304A,113.5342,22.7896,广州市,南沙街,颗粒物(PM10),63,75,81,43,48,125,,26,26,50,54,7,6,0.7,0.8
2025-04-07T1100,3443A,113.2902,23.5544,广州市,花都梯面,颗粒物(PM10),58,65,76,39,50,95,,23,23,38,39,7,6,0.8,0.8
2025-04-07T1100,3445A,113.7858,23.7478,广州市,从化良口,,50,49,44,35,30,91,,27,27,8,11,7,6,0.6,0.6
2025-04-07T1100,3446A,113.8051,23.2614,广州市,增城荔城,细颗粒物(PM2.5),60,62,69,43,45,108,,38,38,15,22,8,8,0.5,0.5
2025-04-07T1100,2505A,109.568,23.1478,贵港市,德智高中,,,,,,,,,,,,,,,,
2025-04-07T1100,2506A,109.6047,23.0666,贵港市,江南子站,细颗粒物(PM2.5),97,124,102,72,59,49,,43,43,36,31,14,9,1.3,0.9
2025-04-07T1100,2508A,109.5669,23.1065,贵港市,荷城子站,细颗粒物(PM2.5),85,117,91,63,51,60,,51,43,26,29,13,8,0.5,0.4
2025-04-07T1100,3405A,109.5886,23.1172,贵港市,新世纪学校,细颗粒物(PM2.5),95,110,92,71,58,63,,56,51,26,25,14,8,1.1,1
2025-04-07T1100,4260A,109.5933,23.0951,贵港市,中山路155-3号,,,113,90,65,53,,,57,45,29,28,16,11,0.9,0.9
2025-04-07T1100,1439A,106.6899,26.5998,贵阳市,马鞍山,细颗粒物(PM2.5),62,46,62,44,40,35,,17,16,14,13,6,5,0.7,0.6
2025-04-07T1100,1441A,106.6243,26.6266,贵阳市,鉴湖路,细颗粒物(PM2.5),62,70,73,44,40,55,,45,45,16,15,21,10,0.6,0.5
2025-04-07T1100,1442A,106.7487,26.6343,贵阳市,燕子冲,,,63,72,,51,32,,26,22,27,18,,4,0.7,0.5
2025-04-07T1100,1443A,106.6555,26.4365,贵阳市,碧云窝,颗粒物(PM10),53,56,82,36,45,56,,31,31,17,21,6,7,0.6,0.6
2025-04-07T1100,1445A,106.7109,26.6027,贵阳市,红边门,细颗粒物(PM2.5),77,61,76,56,50,34,,34,24,20,17,7,6,0.8,0.7
2025-04-07T1100,1446A,106.7164,26.5699,贵阳市,新华路,细颗粒物(PM2.5),70,56,77,51,48,28,,36,27,28,17,10,8,0.8,0.6
2025-04-07T1100,1447A,106.674,26.5424,贵阳市,太慈桥,,,56,69,44,42,36,,22,22,,21,,6,0.6,0.6
2025-04-07T1100,1552A,106.805,26.3003,贵阳市,桐木岭,细颗粒物(PM2.5),77,61,89,56,56,87,,56,55,4,8,1,2,0.8,0.7
2025-04-07T1100,4230A,106.6882,26.5695,贵阳市,花果园大街66号,细颗粒物(PM2.5),79,58,68,58,56,30,,30,24,24,21,7,6,0.7,0.7
2025-04-07T1100,4231A,106.6873,26.5169,贵阳市,漓江路57号,细颗粒物(PM2.5),67,56,78,48,50,42,,37,31,24,20,11,11,0.5,0.5
2025-04-07T1100,1862A,110.4144,25.3167,桂林市,电子科大尧山校区,,,,,,,,,,,,,,,,
2025-04-07T1100,1864A,110.3089,25.2708,桂林市,龙隐路小学,细颗粒物(PM2.5),124,119,93,94,68,,,17,17,38,32,38,18,1.3,1.2
2025-04-07T1100,1865A,110.2869,25.2178,桂林市,八中,细颗粒物(PM2.5),113,113,103,85,67,20,,16,13,39,33,14,13,0.9,0.8
2025-04-07T1100,3531A,110.296,25.1253,桂林市,旅游学院,细颗粒物(PM2.5),110,119,90,83,64,25,,15,12,35,29,11,10,0.7,0.6
2025-04-07T1100,4222A,110.1835,25.2444,桂林市,环湖路276号,细颗粒物(PM2.5),119,146,107,90,68,6,,8,4,38,38,38,26,0.7,0.5
2025-04-07T1100,4301A,110.2803,25.2773,桂林市,信义路13号,细颗粒物(PM2.5),132,127,97,100,74,13,,14,12,48,36,31,20,1.3,1.1
2025-04-07T1100,2674A,100.2561,34.4714,果洛藏族自治州,玛沁县大武镇,颗粒物(PM10),54,57,61,17,24,93,,61,61,4,4,19,14,0.6,0.4
2025-04-07T1100,1129A,126.5422,45.755,哈尔滨市,岭北,细颗粒物(PM2.5),69,51,56,50,51,96,,56,56,17,24,24,21,1.0,1.1
2025-04-07T1100,1130A,126.561,45.8167,哈尔滨市,松北商大,细颗粒物(PM2.5),65,65,55,47,44,90,,47,47,14,23,9,9,0.8,0.8
2025-04-07T1100,1131A,126.979,45.5419,哈尔滨市,阿城会宁,颗粒物(PM10),62,74,44,37,35,86,,57,57,14,13,15,11,0.6,0.6
2025-04-07T1100,1132A,126.599,45.7222,哈尔滨市,南岗学府路,,,,72,,43,,,33,24,15,28,9,8,0.8,0.8
2025-04-07T1100,1133A,126.689,45.7733,哈尔滨市,太平宏伟公园,颗粒物(PM10),65,79,57,38,52,93,,45,45,12,25,6,5,0.8,0.9
2025-04-07T1100,1134A,126.635,45.7667,哈尔滨市,道外承德广场,细颗粒物(PM2.5),73,66,60,53,53,79,,39,39,22,34,8,8,0.4,0.5
2025-04-07T1100,1135A,126.685,45.7319,哈尔滨市,香坊红旗大街,颗粒物(PM10),59,68,64,35,51,88,,43,43,14,32,10,9,0.6,0.7
2025-04-07T1100,1136A,126.6411,45.7258,哈尔滨市,动力和平路,颗粒物(PM10),75,99,67,52,56,77,,40,40,18,28,8,8,0.6,0.6
2025-04-07T1100,1137A,126.593,45.7478,哈尔滨市,道里建国路,细颗粒物(PM2.5),72,78,60,52,55,84,,35,34,17,30,14,14,0.9,0.8
2025-04-07T1100,1138A,126.615,45.61,哈尔滨市,平房东轻厂,颗粒物(PM10),60,70,58,35,41,86,,47,47,7,14,10,9,0.7,0.7
2025-04-07T1100,1139A,126.595,45.9855,哈尔滨市,呼兰师专,细颗粒物(PM2.5),77,78,57,56,54,73,,38,36,26,32,9,8,0.7,0.8
2025-04-07T1100,1140A,126.6206,45.6842,哈尔滨市,省农科院,细颗粒物(PM2.5),70,66,73,51,54,82,,32,32,17,34,12,11,0.8,0.9
2025-04-07T1100,2688A,93.5128,42.8172,哈密市,地区监测站,颗粒物(PM10),51,52,186,24,51,81,,81,74,8,9,9,6,0.3,0.3
2025-04-07T1100,2689A,93.4961,42.8328,哈密市,哈密师范学校,颗粒物(PM10),56,61,150,24,50,86,,84,80,10,10,6,5,0,0
2025-04-07T1100,2671A,100.9048,36.9639,海北藏族自治州,海晏县西海镇,颗粒物(PM10),58,65,65,35,25,85,,54,54,8,5,12,10,0.6,0.5
2025-04-07T1100,3867A,102.0738,36.5056,海东市,平安区公安北苑,颗粒物(PM10),78,105,86,51,40,50,,44,39,33,13,93,17,1.3,0.6
2025-04-07T1100,1409A,110.576,19.9507,海口市,东寨港,,39,39,38,18,17,36,,22,18,5,8,8,7,0.6,0.7
2025-04-07T1100,1410A,110.3232,20.0574,海口市,海南大学,,39,39,46,23,31,108,,97,97,15,13,2,2,0.5,0.5
2025-04-07T1100,1411A,110.283,20.0053,海口市,秀英海南医院,,40,40,42,23,28,100,,99,98,15,13,5,4,0.4,0.5
2025-04-07T1100,1412A,110.338,19.9969,海口市,海南师范大学,,39,39,45,21,27,101,,95,94,10,8,4,4,0.5,0.5
2025-04-07T1100,1413A,110.33,20.0356,海口市,龙华路环保局宿舍,,36,36,43,21,29,109,,94,94,9,9,4,4,0.5,0.5
2025-04-07T1100,3539A,110.5111,19.9736,海口市,桂林洋子站,,35,26,42,16,26,110,,95,95,6,8,4,4,0.4,0.4
2025-04-07T1100,2673A,100.6188,36.2866,海南藏族自治州,共和县恰卜恰镇,细颗粒物(PM2.5),68,61,70,49,32,88,,57,51,5,13,11,12,0.4,0.5
2025-04-07T1100,2676A,97.3731,37.3753,海西蒙古族藏族自治州,德令哈市,颗粒物(PM10),65,80,70,21,23,87,,87,81,18,4,11,8,0.8,0.4
2025-04-07T1100,1048A,114.5302,36.6116,邯郸市,东污水处理厂,颗粒物(PM10),245,381,131,68,40,89,,50,50,52,37,,5,1.3,0.7
2025-04-07T1100,1049A,114.4918,36.5713,邯郸市,矿院,细颗粒物(PM2.5),107,133,108,80,44,79,,34,34,34,30,8,5,0.7,0.6
2025-04-07T1100,1050A,114.484,36.6133,邯郸市,丛台公园,细颗粒物(PM2.5),122,148,124,92,47,97,,51,51,39,29,14,10,0.7,0.6
2025-04-07T1100,3458A,114.7895,36.5593,邯郸市,香泉濮院小区,颗粒物(PM10),120,190,137,72,39,94,,51,48,30,25,9,7,0.9,0.6
2025-04-07T1100,3579A,114.50634,36.77178,邯郸市,永年区实验高中,细颗粒物(PM2.5),109,164,136,82,57,86,,38,38,38,35,10,9,1.2,1.3
2025-04-07T1100,3580A,114.20016,36.44293,邯郸市,峰峰矿区临水派出所,细颗粒物(PM2.5),114,129,118,86,50,130,,90,89,24,19,25,19,1.4,1
2025-04-07T1100,2634A,106.9893,33.1842,汉中市,汉川机床厂子校,颗粒物(PM10),57,64,55,24,26,108,,87,86,5,5,9,8,0.6,0.5
2025-04-07T1100,2635A,107.0154,33.0706,汉中市,市监测站,颗粒物(PM10),57,64,61,30,28,97,,75,72,14,12,8,6,0.7,0.6
2025-04-07T1100,2636A,107.0089,33.1138,汉中市,鑫源开发区,颗粒物(PM10),67,84,64,32,31,98,,74,73,17,15,16,14,0.8,0.6
2025-04-07T1100,2637A,107.007,33.0323,汉中市,南郑大河坎水厂,颗粒物(PM10),58,65,55,33,29,99,,65,65,12,12,3,4,0.5,0.5
2025-04-07T1100,1223A,120.2072,30.2111,杭州市,滨江,颗粒物(PM10),57,63,89,27,46,143,,79,79,31,42,8,9,0.3,0.3
2025-04-07T1100,1224A,120.0633,30.2747,杭州市,西溪,,46,46,86,28,42,142,,53,53,26,33,8,7,0.4,0.4
2025-04-07T1100,1226A,120.3417,30.3150,杭州市,下沙,,,,108,,57,152,,50,50,25,62,,9,0.5,0.6
2025-04-07T1100,1227A,120.1269,30.2456,杭州市,卧龙桥,颗粒物(PM10),51,52,68,28,36,136,,70,70,28,26,7,7,0.5,0.4
2025-04-07T1100,1228A,120.1903,30.2692,杭州市,浙江农大,,,52,106,26,53,,,49,49,27,41,6,6,0.5,0.5
2025-04-07T1100,1230A,120.1197,30.3119,杭州市,和睦小学,颗粒物(PM10),55,60,99,35,48,137,,70,70,28,36,8,8,0.7,0.7
2025-04-07T1100,1231A,120.3019,30.4183,杭州市,临平镇,颗粒物(PM10),65,79,108,25,55,146,,62,62,26,43,7,7,0.6,0.6
2025-04-07T1100,1232A,120.2753,30.1839,杭州市,城厢镇,颗粒物(PM10),57,64,112,30,50,155,,83,83,26,40,9,10,0.5,0.5
2025-04-07T1100,1233A,120.0883,30.1808,杭州市,云栖,颗粒物(PM10),65,80,88,34,37,114,,54,54,54,45,11,9,0.8,0.6
2025-04-07T1100,3557A,119.9464,30.0494,杭州市,镇二中,,50,50,68,33,35,132,,60,60,24,38,8,8,0.7,0.7
2025-04-07T1100,3558A,119.7183,30.2367,杭州市,市府大楼,颗粒物(PM10),56,61,72,34,35,150,,80,80,20,25,10,9,0.5,0.5
2025-04-07T1100,3656A,120.1556,30.2864,杭州市,消防大队,颗粒物(PM10),54,58,104,27,56,153,,85,85,27,37,5,5,0.6,0.6
2025-04-07T1100,1270A,117.1959,31.7848,合肥市,明珠广场,颗粒物(PM10),64,78,59,29,25,116,,92,90,25,22,7,5,0.5,0.4
2025-04-07T1100,1271A,117.3072,31.8764,合肥市,三里街,颗粒物(PM10),68,85,68,29,21,105,,69,69,33,38,9,8,0.8,0.7
2025-04-07T1100,1272A,117.2588,31.8707,合肥市,琥珀山庄,颗粒物(PM10),69,88,66,30,24,122,,86,86,24,22,5,4,0.7,0.7
2025-04-07T1100,1273A,117.1604,31.9052,合肥市,董铺水库,,,92,70,32,23,142,,96,96,,8,,3,0.4,0.3
2025-04-07T1100,1274A,117.25,31.8571,合肥市,长江中路,颗粒物(PM10),68,85,65,33,27,118,,94,91,24,21,11,10,0.7,0.6
2025-04-07T1100,1275A,117.266,31.9436,合肥市,庐阳区,颗粒物(PM10),64,78,67,29,25,133,,90,90,19,23,8,7,0.4,0.4
2025-04-07T1100,1276A,117.3453,31.8616,合肥市,瑶海区,颗粒物(PM10),73,95,72,44,31,118,,86,86,24,28,9,8,0.6,0.6
2025-04-07T1100,1277A,117.3027,31.7964,合肥市,包河区,颗粒物(PM10),62,73,60,27,22,124,,93,93,19,19,9,7,0.5,0.4
2025-04-07T1100,1278A,117.2776,31.7385,合肥市,滨湖新区,颗粒物(PM10),64,78,63,36,37,107,,91,88,22,16,9,7,0.6,0.5
2025-04-07T1100,1279A,117.1318,31.8403,合肥市,高新区,颗粒物(PM10),67,83,72,30,19,120,,95,95,22,18,4,4,0.4,0.3
2025-04-07T1100,3464A,117.3803,31.9147,合肥市,高教基地,颗粒物(PM10),67,83,65,35,28,139,,98,98,14,20,8,6,0.4,0.4
2025-04-07T1100,3614A,79.924,37.0877,和田地区,地区环保局,颗粒物(PM10),282,407,378,66,67,47,,64,56,15,14,3,2,0.3,0.4
2025-04-07T1100,3615A,79.9131,37.113,和田地区,市环保局,颗粒物(PM10),255,388,340,73,60,51,,75,60,13,11,3,2,0.2,0.1
2025-04-07T1100,2516A,108.2011,24.715,河池市,东仁乐园,细颗粒物(PM2.5),112,129,97,84,68,26,,31,22,38,24,12,15,1.3,1.2
2025-04-07T1100,2517A,108.0497,24.6947,河池市,市环保站,细颗粒物(PM2.5),104,100,86,78,68,39,,44,40,31,18,9,13,0.8,0.7
2025-04-07T1100,2518A,108.0983,24.6989,河池市,市疾控中心,细颗粒物(PM2.5),108,102,86,81,70,,,22,19,40,28,11,13,1.0,0.9
2025-04-07T1100,1696A,114.6778,23.7569,河源市,源西,颗粒物(PM10),54,58,53,32,31,52,,14,14,21,29,5,4,0.7,0.8
2025-04-07T1100,1697A,114.6944,23.7586,河源市,东埔,颗粒物(PM10),58,65,55,33,34,52,,16,16,27,28,5,4,0.8,0.8
2025-04-07T1100,1698A,114.6892,23.7233,河源市,老城,细颗粒物(PM2.5),53,51,50,37,34,66,,18,18,19,21,5,4,0.7,0.6
2025-04-07T1100,1718A,115.4208,35.2464,菏泽市,气象局,颗粒物(PM10),99,148,148,55,47,108,,83,83,14,16,6,8,0.4,0.4
2025-04-07T1100,3374A,115.5564,35.0891,菏泽市,定陶老年大学,颗粒物(PM10),93,136,125,29,36,105,,88,88,15,17,6,6,0.4,0.4
2025-04-07T1100,4184A,115.4797,35.24401,菏泽市,永昌路1号,颗粒物(PM10),96,141,137,56,48,98,,80,80,13,14,7,7,0.3,0.3
2025-04-07T1100,4193A,115.4715,35.2800,菏泽市,长城路999号,颗粒物(PM10),94,138,143,41,34,108,,91,91,18,18,4,14,0.4,0.4
2025-04-07T1100,2514A,111.5264,24.4172,贺州市,环保小区,细颗粒物(PM2.5),83,87,100,61,67,55,,34,34,27,27,9,8,0.8,0.8
2025-04-07T1100,2515A,111.5608,24.4078,贺州市,政协大楼,细颗粒物(PM2.5),84,82,90,62,65,58,,37,37,23,25,11,9,0.9,0.8
2025-04-07T1100,3534A,111.4744,24.4553,贺州市,西湾,细颗粒物(PM2.5),95,94,94,71,65,55,,28,28,29,27,9,8,0.8,0.8
2025-04-07T1100,2385A,114.17,35.9019,鹤壁市,市监测站,颗粒物(PM10),98,145,131,64,49,103,,60,58,26,22,17,10,0.7,0.7
2025-04-07T1100,2386A,114.2956,35.7511,鹤壁市,市交警支队,颗粒物(PM10),105,159,140,63,46,69,,41,33,,35,19,12,,1.1
2025-04-07T1100,2387A,114.2878,35.7306,鹤壁市,迎宾馆,颗粒物(PM10),110,170,152,40,38,79,,42,39,34,29,15,9,0.9,0.7
2025-04-07T1100,3474A,114.2617,35.6822,鹤壁市,大新区,细颗粒物(PM2.5),122,161,137,92,69,69,,30,30,40,38,19,12,0.9,0.7
2025-04-07T1100,3596A,114.1572,35.9603,鹤壁市,南山宾馆,颗粒物(PM10),113,175,139,63,49,78,,82,72,32,22,26,8,0.6,0.6
2025-04-07T1100,2244A,130.2537,47.3416,鹤岗市,哈啤分公司,颗粒物(PM10),51,52,37,24,26,78,,56,56,22,13,23,15,0.4,0.4
2025-04-07T1100,2245A,130.2684,47.3086,鹤岗市,斯达机电,颗粒物(PM10),54,57,50,27,30,90,,72,64,14,14,18,15,0.4,0.5
2025-04-07T1100,2246A,130.3114,47.3388,鹤岗市,东山纸板厂,颗粒物(PM10),56,62,88,36,44,73,,38,38,12,22,17,15,0.4,1.5
2025-04-07T1100,2247A,130.1097,47.3382,鹤岗市,五号水库,,,,,,,,,,,,,,,,
2025-04-07T1100,2263A,127.4833,50.2524,黑河市,交通局,,49,49,34,20,21,84,,45,45,13,12,7,7,0.8,0.5
2025-04-07T1100,2264A,127.5144,50.2341,黑河市,环保局,,45,45,27,24,21,98,,58,58,7,8,4,5,0.5,0.4
2025-04-07T1100,2265A,127.5291,50.2472,黑河市,大黑河岛,颗粒物(PM10),51,52,24,25,16,80,,57,57,8,8,1,2,0.3,0.3
2025-04-07T1100,1074A,115.6838,37.7541,衡水市,电机北厂,细颗粒物(PM2.5),129,186,134,98,54,86,,67,53,39,24,13,10,0.7,0.5
2025-04-07T1100,1075A,115.6303,37.7316,衡水市,市监测站,细颗粒物(PM2.5),125,155,119,95,51,94,,63,56,38,24,13,13,0.7,0.5
2025-04-07T1100,3188A,115.6683,37.7217,衡水市,市城管局,细颗粒物(PM2.5),122,174,121,92,51,74,,59,51,51,27,10,14,0.8,0.5
2025-04-07T1100,3459A,115.5989,37.5491,衡水市,地表水厂,颗粒物(PM10),119,188,130,89,50,97,,53,53,36,30,14,14,0.5,0.4
2025-04-07T1100,2456A,112.5003,26.9167,衡阳市,原169医院,细颗粒物(PM2.5),75,76,88,55,52,48,,38,30,27,21,20,14,0.8,0.7
2025-04-07T1100,2457A,112.6194,26.9258,衡阳市,衡阳化工总厂,细颗粒物(PM2.5),115,132,110,87,58,63,,36,36,20,24,34,14,1.3,1
2025-04-07T1100,2458A,112.6211,26.8956,衡阳市,珠晖区环保局,细颗粒物(PM2.5),90,113,102,67,56,49,,37,37,24,22,29,17,1.3,1
2025-04-07T1100,2459A,112.6197,26.8733,衡阳市,市委党校,细颗粒物(PM2.5),80,103,100,59,50,59,,44,38,21,22,20,11,0.9,0.7
2025-04-07T1100,2460A,112.6006,26.8919,衡阳市,市监测站,细颗粒物(PM2.5),102,130,106,76,63,54,,40,40,30,28,37,18,1.4,0.9
2025-04-07T1100,2461A,112.5664,26.9056,衡阳市,真空机电公司,细颗粒物(PM2.5),99,132,109,74,54,49,,32,32,37,30,46,17,1.5,1.1
2025-04-07T1100,3399A,112.6703,26.882,衡阳市,师范学院,细颗粒物(PM2.5),89,118,105,66,63,61,,50,40,18,19,19,15,1.0,0.8
2025-04-07T1100,2608A,103.3772,23.3993,红河哈尼族彝族自治州,污水处理厂,细颗粒物(PM2.5),52,43,36,36,33,74,,83,80,14,9,8,8,0.6,0.5
2025-04-07T1100,2609A,103.3861,23.35,红河哈尼族彝族自治州,监测站,颗粒物(PM10),52,53,47,23,26,81,,92,88,10,8,10,11,0.3,0.3
2025-04-07T1100,3038A,103.3758,23.368,红河哈尼族彝族自治州,州图书馆,,42,31,33,29,29,75,,88,84,12,10,6,6,0.5,0.5
2025-04-07T1100,1090A,111.6507,40.7517,呼和浩特市,呼市一监,,,36,140,9,51,86,,81,81,5,25,13,15,,0.7
2025-04-07T1100,1091A,111.6572,40.8033,呼和浩特市,小召,,29,29,128,8,47,92,,76,76,9,35,5,10,0.4,0.7
2025-04-07T1100,1094A,111.7516,40.8369,呼和浩特市,如意水处理厂,,30,29,105,7,40,94,,86,86,6,35,6,11,0.4,0.6
2025-04-07T1100,1095A,111.7276,40.8062,呼和浩特市,二十九中,,36,36,119,3,46,93,,86,86,4,27,3,9,0.6,0.8
2025-04-07T1100,1096A,111.5512,40.7866,呼和浩特市,工大金川校区,,46,46,113,10,42,91,,91,91,9,27,6,10,0.4,0.6
2025-04-07T1100,1097A,111.717,40.7612,呼和浩特市,化肥厂生活区,,39,39,135,9,51,91,,85,85,12,31,7,12,0.3,0.6
2025-04-07T1100,3698A,111.5968,40.8178,呼和浩特市,红旗小学,,31,31,117,8,38,97,,87,87,8,34,4,9,0.4,0.6
2025-04-07T1100,3699A,111.6518,40.8389,呼和浩特市,海东办,,,34,108,8,40,,,76,76,4,26,,10,0.5,0.7
2025-04-07T1100,2192A,119.7594,49.2261,呼伦贝尔市,区环保局,,48,43,37,33,24,75,,55,52,10,13,5,5,0.3,0.3
2025-04-07T1100,3061A,119.7512,49.1577,呼伦贝尔市,国华电力东,,39,39,28,21,15,80,,62,59,6,6,5,4,0.5,0.4
2025-04-07T1100,1250A,120.0751,30.8669,湖州市,城西水厂,颗粒物(PM10),67,84,116,38,54,153,,92,87,25,38,8,9,0.5,0.6
2025-04-07T1100,2873A,120.0830,30.8929,湖州市,仁皇山新区,颗粒物(PM10),64,77,108,43,56,144,,94,89,31,31,6,7,0.7,0.7
2025-04-07T1100,2907A,120.1844,30.8596,湖州市,吴兴区站,颗粒物(PM10),63,76,117,35,52,143,,86,82,31,29,8,9,0.6,0.6
2025-04-07T1100,3562A,120.4148,30.8538,湖州市,南浔区站,颗粒物(PM10),59,68,98,35,50,154,,85,85,30,31,5,6,0.5,0.5
2025-04-07T1100,1607A,120.9049,40.7211,葫芦岛市,龙港区,细颗粒物(PM2.5),59,62,53,42,39,102,,61,61,14,31,10,11,0.5,0.6
2025-04-07T1100,1608A,120.8392,40.7514,葫芦岛市,化工街,,,73,81,44,47,88,,40,40,,48,17,29,0.6,0.8
2025-04-07T1100,1609A,120.8341,40.7073,葫芦岛市,新区,细颗粒物(PM2.5),54,56,67,38,58,99,,51,51,17,46,9,11,0.7,0.8
2025-04-07T1100,1610A,120.8695,40.7677,葫芦岛市,东城区,细颗粒物(PM2.5),73,53,76,53,55,96,,37,37,23,48,8,41,0.8,0.9
2025-04-07T1100,2482A,109.5981,27.5721,怀化市,林科所,细颗粒物(PM2.5),70,83,80,51,45,40,,56,50,34,34,7,7,0.6,0.3
2025-04-07T1100,2483A,109.9453,27.5444,怀化市,河西地税局,细颗粒物(PM2.5),74,71,86,54,50,38,,24,22,10,13,12,12,0.4,0.4
2025-04-07T1100,2484A,109.9781,27.5342,怀化市,市四医院,细颗粒物(PM2.5),82,76,95,60,49,46,,32,30,17,16,14,10,0.7,0.5
2025-04-07T1100,2485A,109.9972,27.5578,怀化市,监测楼,,,80,85,56,46,,,38,,13,13,8,8,0.7,0.5
2025-04-07T1100,2486A,110.0394,27.583,怀化市,市委党校,细颗粒物(PM2.5),80,67,90,59,48,42,,25,25,18,20,12,8,0.7,0.5
2025-04-07T1100,1210A,119.036,33.5981,淮安市,钵池山,颗粒物(PM10),68,85,77,45,34,134,,102,102,20,18,18,13,0.8,0.7
2025-04-07T1100,1211A,119.007,33.575,淮安市,北京南路,颗粒物(PM10),68,85,75,40,34,134,,98,98,24,20,14,12,0.8,0.6
2025-04-07T1100,1212A,118.989,33.6067,淮安市,市监测站,颗粒物(PM10),73,95,72,46,34,126,,100,100,30,22,21,14,1.5,0.6
2025-04-07T1100,1213A,119.135,33.5039,淮安市,楚州区监测站,颗粒物(PM10),77,103,91,52,41,129,,70,70,15,29,12,11,0.6,0.6
2025-04-07T1100,3426A,118.8755,33.2894,淮安市,新华书店,颗粒物(PM10),71,92,81,44,36,127,,93,93,25,22,16,11,0.9,0.5
2025-04-07T1100,4206A,119.0288,33.6319,淮安市,承德北路606号,,,,85,,33,124,,103,102,,23,24,12,1.2,0.6
2025-04-07T1100,2282A,116.8004,33.975,淮北市,监测站,颗粒物(PM10),80,109,106,47,38,139,,94,94,22,22,11,9,0.8,0.6
2025-04-07T1100,2283A,116.8091,33.9007,淮北市,烈山区政府,颗粒物(PM10),76,101,106,34,34,116,,82,82,20,24,8,7,0.7,0.7
2025-04-07T1100,3330A,116.8873,33.9836,淮北市,杜集区检察院,颗粒物(PM10),73,95,106,48,35,138,,88,88,18,23,10,8,0.7,0.6
2025-04-07T1100,4017A,116.7923,33.9535,淮北市,市博物馆,颗粒物(PM10),78,105,102,42,48,123,,87,87,22,19,10,9,0.9,0.8
2025-04-07T1100,2277A,116.8305,32.7727,淮南市,潘集区政府,颗粒物(PM10),72,94,108,34,42,112,,81,81,19,25,5,7,0.4,0.4
2025-04-07T1100,2279A,116.8569,32.5951,淮南市,谢家集区政府,颗粒物(PM10),69,87,96,37,30,111,,86,86,17,20,7,8,0.3,0.4
2025-04-07T1100,2280A,116.8281,32.633,淮南市,八公山区政府,颗粒物(PM10),72,93,98,44,30,107,,90,90,14,13,5,4,0.3,0.3
2025-04-07T1100,2281A,116.6325,32.6201,淮南市,焦岗湖风景区管理处,颗粒物(PM10),58,66,67,25,30,63,,56,55,15,16,8,8,0.4,0.4
2025-04-07T1100,2894A,117.0566,32.6531,淮南市,经济技术开发区消防队,颗粒物(PM10),71,92,88,31,31,121,,83,83,13,17,7,8,0.4,0.4
2025-04-07T1100,3329A,117.0108,32.5893,淮南市,山南新区,颗粒物(PM10),75,100,101,30,27,119,,93,93,10,16,8,9,0.3,0.3
2025-04-07T1100,4209A,117.0031,32.6445,淮南市,国庆中路369号,"颗粒物(PM10),细颗粒物(PM2.5)",58,65,80,41,31,120,,100,100,17,16,10,10,0.4,0.5
2025-04-07T1100,2446A,114.9028,30.4742,黄冈市,职工中心,颗粒物(PM10),66,82,73,46,39,97,,66,66,32,28,16,14,0.7,0.7
2025-04-07T1100,2929A,114.8858,30.4519,黄冈市,红卫路,颗粒物(PM10),63,76,76,34,34,82,,69,64,30,26,17,12,1.0,0.8
2025-04-07T1100,3398A,114.9136,30.4445,黄冈市,市林业局,颗粒物(PM10),63,76,83,33,37,86,,64,64,40,33,19,16,1.0,1
2025-04-07T1100,2672A,102.0199,35.5102,黄南藏族自治州,同仁县隆务镇,颗粒物(PM10),62,74,64,35,25,70,,66,63,12,3,19,19,0.3,0.2
2025-04-07T1100,2295A,118.2903,29.6963,黄山市,延安路89号,细颗粒物(PM2.5),55,56,44,39,24,88,,32,32,18,14,7,6,0.3,0.2
2025-04-07T1100,2297A,118.1371,30.2756,黄山市,黄山区政府5号楼,,44,44,50,20,28,102,,47,47,4,6,8,8,0.4,0.4
2025-04-07T1100,4210A,118.3354,29.7203,黄山市,滨江东路7-2号,颗粒物(PM10),55,59,52,14,20,106,,38,38,8,9,6,5,0.4,0.4
2025-04-07T1100,2423A,115.0601,30.2313,黄石市,沈家营,颗粒物(PM10),70,90,80,33,35,82,,43,43,41,42,20,10,0.8,0.7
2025-04-07T1100,2426A,114.8988,30.2019,黄石市,铁山,,,,75,,35,,,73,70,,21,19,16,,0.9
2025-04-07T1100,2427A,115.0307,30.2092,黄石市,团城山,颗粒物(PM10),67,83,78,36,31,71,,44,42,54,36,19,12,0.8,0.7
2025-04-07T1100,3149A,115.0235,30.1578,黄石市,笔架山北路,颗粒物(PM10),63,75,73,35,34,94,,61,61,36,26,33,18,1.2,0.9
2025-04-07T1100,4185A,115.0780,30.21118,黄石市,磁湖东路29号,颗粒物(PM10),78,105,99,45,42,76,,36,36,45,47,21,12,1.2,0.9
2025-04-07T1100,1392A,114.4183,23.0528,惠州市,河南岸金山湖子站,颗粒物(PM10),57,63,59,38,35,81,,30,30,26,31,10,9,0.6,0.7
2025-04-07T1100,1393A,114.4053,23.0822,惠州市,下埔横江三路子站,颗粒物(PM10),58,65,66,36,39,90,,33,33,23,34,14,10,0.6,0.6
2025-04-07T1100,1394A,114.4103,23.1142,惠州市,江北云山西路子站,颗粒物(PM10),60,69,69,37,39,93,,38,38,22,34,16,12,0.6,0.6
2025-04-07T1100,1395A,114.4645,22.7833,惠州市,惠阳区承修路船湖子站,颗粒物(PM10),51,52,60,26,32,104,,34,34,26,31,11,9,0.5,0.7
2025-04-07T1100,1396A,114.5317,22.7422,惠州市,大亚湾管委会子站,,43,40,51,21,26,135,,41,41,10,36,8,7,0.5,0.6
2025-04-07T1100,3314A,114.4338,22.8134,惠州市,惠阳秋长,颗粒物(PM10),58,66,63,29,32,105,,45,45,13,25,8,8,0.8,0.8
2025-04-07T1100,3452A,114.6517,22.775,惠州市,大亚湾霞涌,颗粒物(PM10),53,55,47,33,26,133,,86,86,14,17,10,7,0.5,0.5
2025-04-07T1100,2240A,130.9762,45.3001,鸡西市,环保局,,36,23,24,14,16,115,,72,72,6,17,5,6,0.5,0.6
2025-04-07T1100,2243A,130.9429,45.3039,鸡西市,第一中学,,36,12,19,8,13,113,,70,70,6,14,5,6,0.4,0.5
2025-04-07T1100,3707A,131.0207,45.3073,鸡西市,欧美日汽修厂,,40,27,33,8,20,126,,59,59,8,23,8,7,0.6,0.7
2025-04-07T1100,3709A,130.9967,45.3106,鸡西市,市政设施管理处,,35,35,30,13,16,100,,51,51,14,27,7,6,0.6,0.7
2025-04-07T1100,2367A,114.9754,27.0803,吉安市,红声器材厂,颗粒物(PM10),59,68,70,35,36,89,,58,58,22,22,17,16,0.5,0.5
2025-04-07T1100,2368A,114.9658,27.0999,吉安市,市森林工业局,颗粒物(PM10),59,67,68,41,37,82,,52,52,30,28,16,13,0.4,0.6
2025-04-07T1100,2369A,114.99,27.1312,吉安市,市环境监测站,颗粒物(PM10),60,69,63,26,37,97,,49,49,18,26,24,19,0.6,0.4
2025-04-07T1100,2370A,115.0093,27.0968,吉安市,青原区法院,颗粒物(PM10),57,64,69,33,36,101,,50,50,20,28,16,13,0.6,0.5
2025-04-07T1100,1772A,126.54,43.8622,吉林市,哈达湾,,25,22,61,14,41,78,,53,53,10,17,7,6,0.7,0.8
2025-04-07T1100,1773A,126.5844,43.8358,吉林市,东局子,,,32,56,14,44,82,,57,57,8,18,,7,0.6,0.8
2025-04-07T1100,1774A,126.5052,43.8245,吉林市,电力学院,,24,16,59,11,45,76,,41,41,9,18,4,5,0.7,0.8
2025-04-07T1100,1775A,126.6133,43.8972,吉林市,江北,,28,21,72,9,48,87,,52,52,9,20,4,6,0.5,0.7
2025-04-07T1100,1776A,126.555,43.8306,吉林市,江南公园,,,21,57,18,45,,,49,49,9,16,,6,0.5,0.6
2025-04-07T1100,1778A,126.7061,43.7133,吉林市,丰满,,31,21,49,19,45,97,,58,58,8,13,5,6,1.0,1
2025-04-07T1100,2868A,126.4739,43.953,吉林市,九站,,26,25,62,15,48,81,,41,41,8,22,12,15,0.6,0.7
2025-04-07T1100,1299A,116.9862,36.6114,济南市,科干所,颗粒物(PM10),86,122,106,37,31,134,,132,124,14,10,11,9,0.6,0.5
2025-04-07T1100,1300A,116.9376,36.665,济南市,农科所,,,,120,,26,118,,117,110,,17,11,9,0.5,0.4
2025-04-07T1100,1301A,117.1265,36.6734,济南市,开发区,颗粒物(PM10),83,115,101,39,37,124,,130,123,20,12,11,9,0.6,0.5
2025-04-07T1100,1303A,117.0624,36.6868,济南市,省种子仓库,颗粒物(PM10),89,127,115,36,29,127,,130,122,15,11,9,6,0.7,0.6
2025-04-07T1100,1304A,116.9489,36.6447,济南市,机床二厂,颗粒物(PM10),100,149,129,51,38,123,,126,116,22,21,13,10,0.5,0.4
2025-04-07T1100,1305A,117.0495,36.663,济南市,市监测站,颗粒物(PM10),89,127,111,32,30,122,,125,116,18,13,12,10,0.5,0.4
2025-04-07T1100,1306A,116.7675,36.5484,济南市,长清党校,颗粒物(PM10),96,142,128,44,39,128,,121,115,24,22,10,8,0.8,0.7
2025-04-07T1100,1616A,117.6795,36.229,济南市,技术学院,颗粒物(PM10),90,129,118,44,39,134,,99,99,18,36,13,14,0.7,0.7
2025-04-07T1100,1961A,117.532,36.6868,济南市,东山小学,颗粒物(PM10),84,117,113,34,29,131,,127,122,14,12,10,10,0.3,0.3
2025-04-07T1100,3059A,117.7161,36.2049,济南市,泰兴公司,颗粒物(PM10),85,119,116,44,41,132,,63,63,19,48,12,11,0.7,0.8
2025-04-07T1100,3064A,117.6867,36.2171,济南市,莱芜战役纪念馆,颗粒物(PM10),85,119,119,34,33,131,,88,88,24,42,10,9,0.6,0.7
2025-04-07T1100,3494A,117.1673,36.9782,济南市,济阳区政府,颗粒物(PM10),96,142,134,44,40,124,,111,111,14,28,15,12,0.6,0.5
2025-04-07T1100,3495A,117.1171,36.63,济南市,锦屏中学,,,,99,,31,,,125,117,13,12,,10,0.4,0.3
2025-04-07T1100,3682A,116.9814,36.6819,济南市,济南四建,颗粒物(PM10),92,134,120,51,40,124,,125,116,20,15,10,7,0.5,0.4
2025-04-07T1100,1653A,116.6251,35.4302,济宁市,火炬城,颗粒物(PM10),78,106,102,51,43,108,,100,100,10,10,5,6,0.4,0.4
2025-04-07T1100,1655A,116.5491,35.4042,济宁市,电化厂,颗粒物(PM10),90,130,130,39,39,102,,86,85,16,16,6,6,0.4,0.3
2025-04-07T1100,3500A,116.5814,35.3707,济宁市,北湖一中,颗粒物(PM10),75,99,97,29,23,106,,97,97,19,16,12,12,0.4,0.4
2025-04-07T1100,3501A,116.8249,35.5593,济宁市,服务中心,颗粒物(PM10),85,119,123,37,36,116,,92,92,16,20,8,8,0.7,0.8
2025-04-07T1100,3678A,116.5907,35.4054,济宁市,市第七中学,颗粒物(PM10),83,115,106,31,33,108,,100,100,14,14,6,6,0.4,0.4
2025-04-07T1100,2255A,130.2751,46.8028,佳木斯市,佳纺,颗粒物(PM10),51,51,57,29,32,101,,45,45,5,27,6,8,0.5,0.7
2025-04-07T1100,2256A,130.3995,46.8307,佳木斯市,发电厂,细颗粒物(PM2.5),54,51,45,38,32,85,,40,40,20,33,4,5,0.7,0.7
2025-04-07T1100,2257A,130.3258,46.7975,佳木斯市,环保局,,48,39,48,33,30,100,,47,47,11,35,3,4,0.5,0.6
2025-04-07T1100,2258A,130.3648,46.8032,佳木斯市,十一中,,49,42,48,34,33,86,,38,38,10,36,7,8,0.5,0.7
2025-04-07T1100,2259A,130.3794,46.7588,佳木斯市,四丰,,30,,27,21,15,92,,67,67,4,7,1,1,0.9,1
2025-04-07T1100,1252A,120.7436,30.778,嘉兴市,清河小学,颗粒物(PM10),62,74,89,30,42,152,,83,83,24,33,8,8,0.9,0.9
2025-04-07T1100,1253A,120.726,30.7478,嘉兴市,嘉兴学院,颗粒物(PM10),60,69,82,31,41,161,,85,85,21,30,10,11,0.8,0.9
2025-04-07T1100,2872A,120.7846,30.7525,嘉兴市,南湖区残联,颗粒物(PM10),61,71,85,26,40,168,,101,101,19,29,11,12,0.7,0.7
2025-04-07T1100,3407A,120.6916,30.7739,嘉兴市,秀洲住建,颗粒物(PM10),63,76,90,32,37,168,,98,98,23,31,8,9,0.7,0.7
2025-04-07T1100,1945A,98.2908,39.7711,嘉峪关市,气象局,颗粒物(PM10),123,195,113,56,35,96,,86,86,8,17,3,13,0.4,0.5
2025-04-07T1100,2884A,98.2672,39.7978,嘉峪关市,酒钢宾馆,颗粒物(PM10),135,219,119,61,36,,,76,76,9,13,9,24,0.3,0.4
2025-04-07T1100,3248A,98.2643,39.7724,嘉峪关市,雄关区,颗粒物(PM10),113,176,98,42,30,91,,79,79,16,20,4,9,0.3,0.5
2025-04-07T1100,1383A,113.1064,22.6058,江门市,北街,细颗粒物(PM2.5),102,139,95,76,59,85,,21,21,78,63,7,4,,1.2
2025-04-07T1100,1384A,113.0731,22.5835,江门市,西区,细颗粒物(PM2.5),79,84,98,58,50,93,,25,25,65,63,12,9,1.0,1.1
2025-04-07T1100,1385A,113.0219,22.5311,江门市,圭峰西,颗粒物(PM10),75,100,74,47,47,109,,51,51,40,42,8,7,0.7,0.7
2025-04-07T1100,1386A,113.0828,22.5947,江门市,东湖,颗粒物(PM10),109,167,109,65,53,92,,23,23,69,55,9,9,0.8,1
2025-04-07T1100,3311A,113.1075,22.5647,江门市,江海富民,细颗粒物(PM2.5),89,104,109,66,59,99,,26,26,70,64,12,9,0.9,1.1
2025-04-07T1100,3449A,113.05,22.4667,江门市,新会银湖,细颗粒物(PM2.5),120,100,91,91,73,101,,24,24,42,46,4,2,0.5,0.6
2025-04-07T1100,1830A,113.1992,35.2590,焦作市,影视城,,,,69,,25,,,,,,5,,7,,0.8
2025-04-07T1100,3169A,113.2725,35.2067,焦作市,太极体育中心,颗粒物(PM10),83,116,132,39,50,102,,64,64,16,30,13,13,0.4,0.4
2025-04-07T1100,3335A,113.3137,35.2641,焦作市,马村街道办,细颗粒物(PM2.5),83,114,123,61,62,82,,56,56,27,29,13,13,0.7,0.8
2025-04-07T1100,3336A,113.2465,35.2373,焦作市,焦作技师学院,颗粒物(PM10),90,130,132,36,38,97,,59,59,25,28,13,12,0.7,0.8
2025-04-07T1100,3477A,113.1656,35.2539,焦作市,中站许衡医院,颗粒物(PM10),74,98,97,34,35,82,,84,78,38,25,27,13,0.8,0.7
2025-04-07T1100,3981A,113.2449,35.1803,焦作市,原李万街道办,颗粒物(PM10),97,144,134,41,53,100,,51,51,19,33,17,18,0.6,0.6
2025-04-07T1100,4264A,113.2340,35.2190,焦作市,新安路1731号,颗粒物(PM10),84,118,134,42,47,95,,54,54,17,29,12,13,0.5,0.5
2025-04-07T1100,1708A,116.3701,23.5345,揭阳市,新兴,颗粒物(PM10),76,101,73,45,49,115,,48,48,25,27,9,8,1.0,0.9
2025-04-07T1100,1709A,116.3264,23.5443,揭阳市,西马,颗粒物(PM10),70,89,72,34,48,117,,44,44,18,21,9,9,0.8,0.8
2025-04-07T1100,1710A,116.3611,23.5626,揭阳市,东兴,颗粒物(PM10),73,95,83,33,48,114,,40,40,18,29,9,10,0.9,1
2025-04-07T1100,1711A,116.4151,23.5294,揭阳市,渔湖,颗粒物(PM10),70,89,70,42,35,121,,46,46,18,26,9,7,0.8,1
2025-04-07T1100,3320A,116.403,23.5699,揭阳市,曲溪,颗粒物(PM10),63,76,77,44,41,117,,52,52,32,32,2,3,0.8,0.9
2025-04-07T1100,1944A,102.1692,38.5167,金昌市,天庆家园,细颗粒物(PM2.5),117,151,76,88,38,106,,58,54,50,18,153,18,0.7,0.9
2025-04-07T1100,4022A,102.1647,38.5371,金昌市,金川区人防中心,颗粒物(PM10),94,138,99,43,52,75,,61,51,28,12,38,17,0.8,0.5
2025-04-07T1100,4239A,102.1930,38.5319,金昌市,长春路96号,颗粒物(PM10),164,278,139,51,35,63,,55,53,37,12,83,21,0.7,0.7
2025-04-07T1100,1262A,119.647,29.077,金华市,十五中,颗粒物(PM10),58,65,82,24,36,149,,97,97,18,37,6,7,0.5,0.5
2025-04-07T1100,1263A,119.686,29.1029,金华市,监测站,颗粒物(PM10),58,65,84,29,39,154,,85,85,16,37,6,6,0.3,0.4
2025-04-07T1100,3659A,119.656,29.1131,金华市,气象局,颗粒物(PM10),59,68,84,25,36,154,,91,91,11,34,6,7,0.4,0.5
2025-04-07T1100,1767A,121.1115,41.0879,锦州市,南山,细颗粒物(PM2.5),82,64,53,60,50,90,,54,54,25,29,15,20,0.8,0.8
2025-04-07T1100,1768A,121.0604,40.8428,锦州市,开发区,细颗粒物(PM2.5),72,61,77,52,54,90,,60,60,22,52,11,28,0.6,0.9
2025-04-07T1100,1769A,121.1836,41.1119,锦州市,百股街道,,,85,62,48,42,95,,41,41,29,42,13,12,,0.7
2025-04-07T1100,1770A,121.1178,41.1222,锦州市,天安街道,细颗粒物(PM2.5),82,66,62,60,49,89,,47,47,28,40,15,19,0.7,0.8
2025-04-07T1100,1771A,121.1303,41.1386,锦州市,北湖公园,细颗粒物(PM2.5),79,77,65,58,49,88,,46,46,29,35,14,18,0.8,0.8
2025-04-07T1100,2160A,112.85,35.5051,晋城市,自来水公司,颗粒物(PM10),94,137,103,63,34,94,,38,38,33,39,18,9,1.8,0.7
2025-04-07T1100,2161A,112.8318,35.4936,晋城市,白云商贸,颗粒物(PM10),91,132,113,39,28,99,,43,43,34,36,16,8,1.6,0.9
2025-04-07T1100,2162A,112.8508,35.4887,晋城市,市环保局,颗粒物(PM10),90,130,114,53,35,95,,32,32,32,44,13,6,1.6,0.7
2025-04-07T1100,2163A,112.8676,35.4897,晋城市,技术学院,颗粒物(PM10),86,121,109,46,33,90,,34,34,36,45,16,8,1.8,0.9
2025-04-07T1100,2165A,112.8453,35.546,晋城市,白马寺,颗粒物(PM10),74,98,80,45,34,116,,94,88,16,12,15,7,1.6,0.6
2025-04-07T1100,3620A,112.8271,35.4828,晋城市,泽州一中,颗粒物(PM10),115,180,106,63,38,106,,49,49,29,29,10,5,1.9,0.9
2025-04-07T1100,2173A,112.7249,37.7067,晋中市,南都小区,颗粒物(PM10),104,158,129,49,36,99,,46,46,30,31,31,21,0.9,0.6
2025-04-07T1100,2174A,112.6991,37.6982,晋中市,榆次区政府,颗粒物(PM10),107,163,136,46,33,102,,48,48,34,33,29,21,0.8,0.7
2025-04-07T1100,2865A,112.7195,37.6828,晋中市,榆次三中,颗粒物(PM10),112,173,148,58,41,103,,38,38,37,38,32,18,1.2,0.7
2025-04-07T1100,4200A,112.7478,37.6954,晋中市,迎宾街26号,颗粒物(PM10),111,171,143,70,45,107,,50,50,32,29,31,19,0.8,0.6
2025-04-07T1100,2439A,112.2014,31.0481,荆门市,竹园小学,颗粒物(PM10),84,118,113,45,37,98,,103,90,17,15,11,8,0.4,0.4
2025-04-07T1100,2440A,112.1969,30.9891,荆门市,掇刀,颗粒物(PM10),88,126,108,48,41,99,,98,90,18,14,14,11,0.4,0.3
2025-04-07T1100,2441A,112.2213,31.0386,荆门市,石化一小,颗粒物(PM10),82,114,110,38,36,99,,84,76,20,18,16,12,0.2,0.3
2025-04-07T1100,3012A,112.1849,31.0362,荆门市,西山林语,颗粒物(PM10),76,102,94,40,35,104,,102,90,13,11,12,7,0.2,0.3
2025-04-07T1100,3547A,112.1632,31.0138,荆门市,龙泉中学南校,颗粒物(PM10),78,106,109,51,42,91,,93,87,21,15,10,9,0.5,0.4
2025-04-07T1100,1844A,112.2494,30.3197,荆州市,市图书馆,"颗粒物(PM10),细颗粒物(PM2.5)",64,78,89,46,43,78,,94,82,18,19,6,8,0.5,0.5
2025-04-07T1100,1845A,112.2008,30.3544,荆州市,市委党校,颗粒物(PM10),67,83,92,45,43,69,,89,74,20,22,8,9,0.7,0.6
2025-04-07T1100,3194A,112.2747,30.3122,荆州市,管委会,颗粒物(PM10),71,92,97,46,43,79,,92,83,14,15,10,11,0.6,0.6
2025-04-07T1100,4268A,112.1722,30.3366,荆州市,学苑路85号,颗粒物(PM10),61,71,73,40,41,74,,66,63,18,23,13,11,0.6,0.5
2025-04-07T1100,2342A,117.3102,29.3867,景德镇市,王港中学,,,,,,,,,,,,,,,,
2025-04-07T1100,2343A,117.2117,29.2933,景德镇市,老干部活动中心,颗粒物(PM10),58,65,74,33,31,93,,55,55,21,29,7,10,0.4,0.5
2025-04-07T1100,2344A,117.1894,29.2789,景德镇市,兽医站,颗粒物(PM10),56,61,82,25,33,77,,49,49,24,33,4,11,0.6,0.7
2025-04-07T1100,2345A,117.1547,29.2617,景德镇市,台达陶瓷,颗粒物(PM10),60,70,79,27,32,83,,57,57,22,26,9,15,0.6,0.6
2025-04-07T1100,2346A,117.2461,29.2956,景德镇市,陶研所,,,54,60,30,37,75,,32,32,,24,,8,0.5,0.5
2025-04-07T1100,1803A,115.9872,29.6815,九江市,十里,,,96,70,34,33,,,46,46,38,31,6,4,0.7,0.5
2025-04-07T1100,1804A,115.9584,29.7046,九江市,茅山头,颗粒物(PM10),66,82,76,43,31,79,,44,44,40,41,9,6,0.5,0.4
2025-04-07T1100,1805A,115.9877,29.7295,九江市,西园,,,62,64,15,30,,,31,31,54,52,12,11,,0.9
2025-04-07T1100,1808A,115.9114,29.6038,九江市,综合工业园,颗粒物(PM10),65,79,64,38,25,103,,85,85,29,33,13,9,0.7,0.6
2025-04-07T1100,1809A,116.0721,29.7535,九江市,石化总厂,颗粒物(PM10),56,61,56,30,35,96,,74,74,29,26,16,14,0.7,0.6
2025-04-07T1100,1810A,115.9773,29.5698,九江市,庐山气象台,颗粒物(PM10),52,54,43,30,21,144,,137,137,11,9,6,6,0.7,0.7
2025-04-07T1100,3190A,116.0254,29.6994,九江市,外国语学校,颗粒物(PM10),67,83,60,39,30,51,,52,52,69,37,16,14,1.1,0.9
2025-04-07T1100,4253A,116.0102,29.6594,九江市,莲花大道8号,颗粒物(PM10),67,84,69,38,29,61,,75,68,45,12,7,6,0.7,0.5
2025-04-07T1100,4240A,98.4958,39.7339,酒泉市,玉门东路5号,颗粒物(PM10),151,251,128,58,37,64,,71,64,28,15,43,18,0.9,0.4
2025-04-07T1100,4241A,98.5099,39.7506,酒泉市,北大街108号,颗粒物(PM10),174,298,126,43,33,61,,57,52,20,18,44,24,0.8,0.5
2025-04-07T1100,2698A,76.0072,39.4467,喀什地区,巡警大队,颗粒物(PM10),74,97,114,16,21,59,,75,75,29,25,4,4,0.6,0.6
2025-04-07T1100,2699A,75.9755,39.4694,喀什地区,吾办,颗粒物(PM10),76,102,103,20,33,62,,76,76,20,25,9,6,0.7,0.6
2025-04-07T1100,4027A,75.9483,39.4689,喀什地区,老干局,颗粒物(PM10),65,80,92,11,19,63,,79,79,21,20,4,3,0.2,0.3
2025-04-07T1100,1824A,114.3389,34.7781,开封市,肿瘤医院,颗粒物(PM10),91,132,133,44,41,109,,75,75,15,22,11,10,0.6,0.6
2025-04-07T1100,1826A,114.2885,34.7965,开封市,世纪星幼儿园,颗粒物(PM10),100,149,133,44,45,99,,74,74,30,27,10,10,0.6,0.6
2025-04-07T1100,3147A,114.3438,34.8106,开封市,龙亭公园,,,,133,,77,,,75,74,18,22,,7,0.5,0.5
2025-04-07T1100,3210A,114.3644,34.7964,开封市,汴京公园,颗粒物(PM10),106,161,146,45,51,116,,79,79,19,23,7,6,0.3,0.3
2025-04-07T1100,3473A,114.2485,34.8306,开封市,技师学院,颗粒物(PM10),96,142,133,59,67,96,,80,80,25,24,8,7,0.9,0.9
2025-04-07T1100,3592A,114.4644,34.7556,开封市,祥符区生态环境局,颗粒物(PM10),98,146,144,41,47,116,,76,76,13,27,8,8,0.5,0.6
2025-04-07T1100,1951A,84.895,45.6094,克拉玛依市,长征新村,,25,15,20,10,9,79,,68,63,13,14,8,8,0.2,0.2
2025-04-07T1100,1952A,84.8988,45.5893,克拉玛依市,南林小区,,29,21,22,20,12,78,,63,63,5,6,3,3,0.1,0.1
2025-04-07T1100,1954A,84.905,44.3396,克拉玛依市,独山子区,,27,21,21,7,10,85,,68,66,14,10,8,7,0.3,0.3
2025-04-07T1100,1955A,85.6979,46.098,克拉玛依市,乌尔禾区商贸楼,,42,42,17,3,7,62,,57,56,10,8,6,6,0.2,0.2
2025-04-07T1100,3612A,85.1045,45.6899,克拉玛依市,白碱滩区新站,,38,38,30,13,7,48,,60,55,28,9,11,10,0.6,0.4
2025-04-07T1100,2697A,76.1454,39.7142,克孜勒苏柯尔克孜自治州,市人民政府,,42,42,72,13,22,92,,85,85,3,10,5,6,0.3,0.3
2025-04-07T1100,3665A,76.1658,39.7157,克孜勒苏柯尔克孜自治州,克州文化中心,,38,38,68,11,19,89,,88,88,2,13,5,7,0.3,0.3
2025-04-07T1100,1450A,102.8204,24.8886,昆明市,呈贡新区,细颗粒物(PM2.5),93,83,71,69,56,128,,116,114,14,13,6,6,0.9,0.7
2025-04-07T1100,1451A,102.6251,24.9608,昆明市,西山森林公园,,,,,,,,,,,,,,,,
2025-04-07T1100,1452A,102.7252,25.0902,昆明市,龙泉镇,细颗粒物(PM2.5),80,69,68,59,52,122,,78,74,14,23,10,9,0.8,0.8
2025-04-07T1100,1453A,102.7266,25.0375,昆明市,东风东路,细颗粒物(PM2.5),87,81,71,64,56,124,,103,102,20,18,9,9,0.8,0.7
2025-04-07T1100,1454A,102.6742,25.0669,昆明市,金鼎山,细颗粒物(PM2.5),62,69,72,44,51,124,,92,91,17,21,7,5,0.8,0.8
2025-04-07T1100,1455A,102.6644,25.0401,昆明市,碧鸡广场,细颗粒物(PM2.5),89,87,74,66,57,118,,92,92,21,24,9,8,0.9,0.8
2025-04-07T1100,3179A,102.7494,25.0119,昆明市,官渡区博物馆,细颗粒物(PM2.5),79,77,73,58,48,123,,101,100,15,16,8,8,0.6,0.6
2025-04-07T1100,3375A,102.8017,24.8336,昆明市,青年创业园,细颗粒物(PM2.5),92,89,72,68,56,122,,105,104,10,12,12,11,1.4,0.8
2025-04-07T1100,3550A,102.7997,24.9786,昆明市,昆明学院,细颗粒物(PM2.5),95,92,76,71,57,112,,96,96,14,15,6,6,0.8,0.5
2025-04-07T1100,3551A,102.5967,24.6736,昆明市,晋宁区生态环境分局,细颗粒物(PM2.5),70,61,56,51,51,122,,105,102,8,9,7,8,0.9,0.9
2025-04-07T1100,3552A,102.6678,24.9856,昆明市,云天化总部,细颗粒物(PM2.5),83,77,69,61,53,127,,105,104,12,12,7,8,0.8,0.7
2025-04-07T1100,1456A,91.1319,29.6514,拉萨市,八廓街,,29,23,28,13,12,90,,76,76,11,14,14,8,0.4,0.5
2025-04-07T1100,1457A,91.1221,29.6747,拉萨市,市环保局,,40,40,32,13,14,76,,67,67,19,17,12,5,0.4,0.3
2025-04-07T1100,1458A,91.0874,29.6475,拉萨市,区监测站,,28,28,25,13,12,78,,58,58,18,23,13,7,0.6,0.5
2025-04-07T1100,1459A,91.1774,29.6541,拉萨市,西藏大学,,25,25,23,6,10,79,,76,72,13,11,15,8,0.2,0.3
2025-04-07T1100,1460A,90.9798,29.6588,拉萨市,区辐射站,,36,36,29,18,14,69,,76,69,38,20,10,9,0.5,0.4
2025-04-07T1100,1461A,91.0834,29.6292,拉萨市,拉萨火车站,,,28,25,11,11,,,60,52,22,17,8,4,0.7,0.7
2025-04-07T1100,2520A,109.2203,23.7256,来宾市,来宾技工学校,颗粒物(PM10),88,126,111,64,77,83,,27,27,3,28,14,16,1.1,1
2025-04-07T1100,3535A,109.1781,23.7297,来宾市,兴宾区政府,细颗粒物(PM2.5),95,98,99,71,71,68,,49,45,33,20,16,12,1.0,1
2025-04-07T1100,4002A,109.2416,23.7461,来宾市,中南小学,细颗粒物(PM2.5),98,126,111,73,71,76,,31,31,26,30,18,12,1.1,1.1
2025-04-07T1100,1477A,104.1373,35.9454,兰州市,榆中兰大校区,,,,,,,,,,,,,,,,
2025-04-07T1100,1479A,103.831,36.0464,兰州市,铁路设计院,颗粒物(PM10),60,69,97,30,31,66,,53,34,55,38,14,18,1.0,0.9
2025-04-07T1100,3241A,103.7439,36.0842,兰州市,百合公园,颗粒物(PM10),60,69,80,29,29,86,,40,40,27,27,16,13,0.6,0.4
2025-04-07T1100,3242A,103.9611,35.998,兰州市,和平,颗粒物(PM10),73,96,97,47,39,94,,64,64,17,22,22,14,1.1,0.8
2025-04-07T1100,4236A,103.6293,36.0938,兰州市,庄浪东路808号,颗粒物(PM10),65,79,92,46,39,96,,55,55,29,28,21,17,0.5,0.4
2025-04-07T1100,4237A,103.7251,36.1043,兰州市,安宁西路88号,颗粒物(PM10),66,82,104,45,42,103,,48,48,20,26,21,13,0.5,0.4
2025-04-07T1100,4238A,103.8470,36.0676,兰州市,北滨河东路1号,颗粒物(PM10),59,67,87,32,36,78,,40,31,42,40,18,17,1.0,0.8
2025-04-07T1100,3245A,103.6633,36.533,兰州新区,新区管委会,颗粒物(PM10),54,57,85,28,33,102,,53,53,11,18,15,15,0.3,0.3
2025-04-07T1100,3246A,103.6975,36.4789,兰州新区,舟曲中学,细颗粒物(PM2.5),69,78,109,50,40,104,,65,62,12,17,11,10,0.5,0.5
2025-04-07T1100,1067A,116.6708,39.5111,廊坊市,药材公司,颗粒物(PM10),73,95,97,51,53,110,,81,81,30,32,10,10,0.8,0.7
2025-04-07T1100,1068A,116.7214,39.5589,廊坊市,开发区,颗粒物(PM10),79,108,110,52,55,110,,73,73,28,32,10,9,0.7,0.7
2025-04-07T1100,1070A,116.7244,39.5269,廊坊市,北华航天学院,颗粒物(PM10),80,109,106,50,53,105,,73,73,27,31,12,12,0.8,0.7
2025-04-07T1100,2919A,116.7022,39.5453,廊坊市,河北工业大学,细颗粒物(PM2.5),70,85,94,51,57,113,,74,74,29,34,13,13,0.7,0.7
2025-04-07T1100,2535A,103.7723,29.5462,乐山市,花湖湾,细颗粒物(PM2.5),64,57,44,46,32,42,,43,32,19,13,7,7,0.7,0.5
2025-04-07T1100,2536A,103.7627,29.5844,乐山市,牛耳桥,细颗粒物(PM2.5),59,62,44,42,28,46,,19,19,31,24,8,7,0.8,0.5
2025-04-07T1100,2537A,103.7508,29.6006,乐山市,市第三水厂,,,60,45,46,42,35,,16,16,,18,5,4,1.0,0.6
2025-04-07T1100,2538A,103.7571,29.5664,乐山市,市监测站,"颗粒物(PM10),细颗粒物(PM2.5)",53,56,45,37,29,50,,29,19,21,17,6,5,0.8,0.6
2025-04-07T1100,3361A,103.7311,29.5628,乐山市,理工大学,细颗粒物(PM2.5),67,67,47,48,31,57,,26,22,19,19,7,5,0.9,0.7
2025-04-07T1100,2598A,100.2143,26.8576,丽江市,西南郊,颗粒物(PM10),58,65,44,38,27,139,,145,144,8,5,5,15,4.7,0.8
2025-04-07T1100,2599A,100.2497,26.8802,丽江市,丽江古城,,48,44,44,33,30,127,,111,111,11,11,8,8,0.6,0.6
2025-04-07T1100,2600A,100.2203,26.8906,丽江市,市中心,,48,48,36,25,27,128,,109,109,18,15,8,8,0.6,0.5
2025-04-07T1100,1267A,119.914,28.4514,丽水市,监测站大楼,颗粒物(PM10),57,64,58,27,30,138,,67,67,17,22,4,6,0.5,0.5
2025-04-07T1100,1268A,119.93,28.4586,丽水市,莲都小学,颗粒物(PM10),57,64,62,26,27,146,,73,73,14,23,5,4,0.4,0.4
2025-04-07T1100,1269A,119.879,28.4231,丽水市,余庄前,颗粒物(PM10),57,64,57,33,29,150,,61,61,15,18,4,3,0.5,0.5
2025-04-07T1100,1173A,119.176,34.5885,连云港市,市环境监测站,颗粒物(PM10),76,102,81,41,38,124,,95,95,22,22,14,13,0.7,0.6
2025-04-07T1100,3000A,119.3581,34.6972,连云港市,德源药业,颗粒物(PM10),73,95,80,44,33,119,,108,106,24,18,12,11,0.7,0.5
2025-04-07T1100,3007A,119.178,34.844,连云港市,新城一中,细颗粒物(PM2.5),74,90,72,54,42,118,,90,90,27,25,12,11,0.8,0.7
2025-04-07T1100,3008A,119.3608,34.7519,连云港市,胡沟管理处,颗粒物(PM10),62,73,54,31,24,128,,126,126,27,21,11,11,0.5,0.4
2025-04-07T1100,3009A,119.1478,34.5911,连云港市,矿山设计院,颗粒物(PM10),78,105,81,44,31,123,,110,110,26,22,14,12,0.7,0.6
2025-04-07T1100,3434A,119.2413,34.6539,连云港市,工贸学校,细颗粒物(PM2.5),79,93,75,58,39,129,,113,111,26,22,12,12,0.8,0.6
2025-04-07T1100,3664A,119.4172,34.7341,连云港市,连云街道,颗粒物(PM10),64,77,81,28,31,135,,132,132,20,22,8,10,0.6,0.5
2025-04-07T1100,2571A,102.3431,27.8099,凉山彝族自治州,青龙寺,,27,17,22,6,6,85,,60,60,5,5,10,7,0.8,0.8
2025-04-07T1100,2572A,102.2721,27.8415,凉山彝族自治州,邛海宾馆,,36,36,31,15,14,74,,74,66,12,13,13,9,0.5,0.4
2025-04-07T1100,2573A,102.2625,27.898,凉山彝族自治州,西昌市政府,,23,15,23,15,16,71,,68,61,18,10,10,8,0.6,0.5
2025-04-07T1100,2574A,102.2685,27.8851,凉山彝族自治州,凉山州政府,,27,27,23,15,16,71,,67,62,20,13,6,6,0.8,0.7
2025-04-07T1100,4229A,102.2342,27.8859,凉山彝族自治州,凯乐南路30号,,30,30,30,16,15,63,,61,52,20,14,9,8,0.7,0.7
2025-04-07T1100,2212A,123.2,41.1953,辽阳市,宏伟区,颗粒物(PM10),51,52,40,21,31,127,,111,111,8,9,12,13,0.9,1
2025-04-07T1100,2213A,123.1683,41.2495,辽阳市,新华园,,,58,54,21,40,129,,114,114,,23,,14,0.5,0.6
2025-04-07T1100,2214A,123.2354,41.2639,辽阳市,滨河路,,38,38,42,20,37,103,,94,94,14,20,8,8,0.6,0.7
2025-04-07T1100,2215A,123.149,41.2991,辽阳市,铁西工业园,颗粒物(PM10),52,53,63,26,43,136,,115,115,12,22,11,11,0.6,0.7
2025-04-07T1100,2227A,125.1358,42.8845,辽源市,环保局,,38,38,32,17,16,87,,45,45,17,24,8,8,0.7,0.7
2025-04-07T1100,3239A,125.0764,42.9078,辽源市,银鹰制药,,35,35,28,24,21,90,,48,48,15,21,22,7,0.7,0.7
2025-04-07T1100,1625A,115.9848,36.4372,聊城市,区政府,颗粒物(PM10),92,134,133,45,40,74,,83,71,29,25,15,12,0.5,0.4
2025-04-07T1100,2878A,116.0072,36.4343,聊城市,聊大东校,,,,141,,54,91,,82,76,23,20,15,11,0.6,0.6
2025-04-07T1100,3200A,115.9819,36.4978,聊城市,监控中心,颗粒物(PM10),93,135,139,48,43,92,,86,76,24,18,20,15,0.8,0.7
2025-04-07T1100,3513A,116.0445,36.4361,聊城市,九州社区,颗粒物(PM10),93,135,130,47,37,94,,81,76,18,15,10,8,0.6,0.5
2025-04-07T1100,4018A,116.0567,36.4608,聊城市,星美广场,颗粒物(PM10),96,142,129,44,34,95,,84,78,17,14,13,11,0.7,0.6
2025-04-07T1100,2632A,94.3681,29.6376,林芝市,林芝监测站,,35,35,23,16,12,69,,,,17,8,5,5,0.4,0.4
2025-04-07T1100,2633A,94.3616,29.6616,林芝市,林芝人民医院,,29,29,28,14,12,73,,66,61,9,4,8,8,0.4,0.4
2025-04-07T1100,2603A,100.0781,23.8982,临沧市,市环保局,细颗粒物(PM2.5),120,146,124,91,85,72,,72,67,,19,,11,1.2,1
2025-04-07T1100,2604A,100.0894,23.8822,临沧市,市气象局,细颗粒物(PM2.5),148,134,111,113,90,70,,69,60,37,24,10,9,1.1,0.9
2025-04-07T1100,1733A,111.5531,36.0783,临汾市,临钢医院,颗粒物(PM10),99,148,140,51,35,71,,40,40,37,32,11,9,0.8,0.7
2025-04-07T1100,1734A,111.5028,36.0714,临汾市,技工学校,颗粒物(PM10),89,128,128,50,44,72,,36,36,25,30,11,12,0.9,0.9
2025-04-07T1100,1736A,111.5018,36.0855,临汾市,市委,颗粒物(PM10),90,129,139,45,44,81,,38,38,28,32,10,12,0.9,0.8
2025-04-07T1100,3018A,111.505,36.1014,临汾市,唐尧大酒店,颗粒物(PM10),94,138,141,41,39,78,,34,34,25,28,12,13,0.9,0.8
2025-04-07T1100,4244A,111.4879,36.0530,临汾市,启星学校,颗粒物(PM10),103,156,147,42,45,62,,23,23,32,33,8,9,1.0,0.9
2025-04-07T1100,4271A,103.2464,35.6123,临夏回族自治州,滨河东路1号,颗粒物(PM10),81,111,112,29,44,70,,33,33,14,21,6,6,0.4,0.5
2025-04-07T1100,4310A,103.2093,35.5995,临夏回族自治州,新华街21号,颗粒物(PM10),76,101,105,45,46,69,,33,33,17,25,11,11,0.5,0.6
2025-04-07T1100,1618A,118.3429,35.0532,临沂市,沂河小区,,,117,104,46,43,105,,72,72,18,22,,19,0.6,0.6
2025-04-07T1100,1619A,118.295,35.0583,临沂市,鲁南制药厂,颗粒物(PM10),80,110,95,46,40,116,,82,82,26,31,14,19,0.8,0.6
2025-04-07T1100,1620A,118.2794,34.9976,临沂市,新光毛纺厂,颗粒物(PM10),74,97,98,41,38,106,,65,65,32,40,12,22,0.8,0.7
2025-04-07T1100,1621A,118.3956,35.0888,临沂市,河东保险公司,颗粒物(PM10),73,95,85,35,32,124,,86,86,27,30,9,14,0.5,0.4
2025-04-07T1100,3370A,118.3564,35.0215,临沂市,十里堡居委,颗粒物(PM10),78,105,93,34,33,111,,69,69,24,28,10,13,0.7,0.7
2025-04-07T1100,3496A,118.3604,35.1084,临沂市,南坊新区,颗粒物(PM10),82,114,92,34,33,113,,85,85,24,23,12,15,0.7,0.6
2025-04-07T1100,3860A,118.3920,35.0300,临沂市,皇山花园小区,颗粒物(PM10),78,105,90,37,32,115,,78,78,20,22,14,18,0.5,0.5
2025-04-07T1100,1870A,109.4856,24.3895,柳州市,柳东小学,细颗粒物(PM2.5),103,128,97,77,76,48,,56,45,38,23,23,17,0.9,1
2025-04-07T1100,1871A,109.4157,24.3277,柳州市,环保监测站,细颗粒物(PM2.5),134,141,122,102,91,38,,44,38,42,26,19,26,1.2,1.2
2025-04-07T1100,1872A,109.389,24.341,柳州市,河西水厂,细颗粒物(PM2.5),129,155,147,98,81,36,,31,27,39,33,24,29,1.2,1.1
2025-04-07T1100,1873A,109.4311,24.2921,柳州市,市四中,细颗粒物(PM2.5),119,126,122,90,88,49,,29,29,36,31,14,14,1.2,1.2
2025-04-07T1100,1874A,109.4006,24.3631,柳州市,市九中,细颗粒物(PM2.5),105,144,123,79,78,42,,44,41,33,23,20,23,1.1,1
2025-04-07T1100,1875A,109.4958,24.3134,柳州市,古亭山,细颗粒物(PM2.5),120,123,117,91,80,35,,17,17,48,37,37,21,1.2,1.2
2025-04-07T1100,3402A,109.5422,24.3996,柳州市,市二中,细颗粒物(PM2.5),127,151,102,96,78,40,,32,32,50,26,41,22,0.9,0.9
2025-04-07T1100,2307A,116.5079,31.737,六安市,监测大楼,,47,47,64,17,25,125,,84,84,10,16,7,6,0.5,0.6
2025-04-07T1100,2308A,116.4738,31.7643,六安市,皖西学院,颗粒物(PM10),60,69,76,20,24,111,,97,97,20,15,5,5,0.5,0.5
2025-04-07T1100,2309A,116.4996,31.7905,六安市,朝阳厂,颗粒物(PM10),58,65,66,24,25,105,,87,81,25,22,6,5,0.6,0.6
2025-04-07T1100,2310A,116.5567,31.7886,六安市,开发区,颗粒物(PM10),61,72,100,32,33,121,,72,72,27,42,7,6,0.5,0.5
2025-04-07T1100,2576A,104.8,26.5892,六盘水市,窑上,,24,24,31,11,18,25,,30,27,22,14,6,5,1.0,0.8
2025-04-07T1100,2577A,104.83,26.5917,六盘水市,黄土坡,,46,45,29,32,26,25,,32,30,38,22,18,11,1.2,0.9
2025-04-07T1100,2578A,104.89,26.5939,六盘水市,水钢,,34,34,33,18,21,49,,46,46,17,14,11,10,0.5,0.5
2025-04-07T1100,2579A,104.8475,26.5894,六盘水市,民中,,,32,28,17,20,,,36,33,,20,,9,,0.6
2025-04-07T1100,2580A,104.9544,26.5506,六盘水市,双水,,38,34,31,26,21,35,,40,36,18,17,11,9,0.7,0.6
2025-04-07T1100,2335A,117.0189,25.1181,龙岩市,龙岩师专,,,,,,,,,,,,,,,,
2025-04-07T1100,2336A,117.0217,25.1033,龙岩市,龙岩市监测站,颗粒物(PM10),62,74,52,28,27,110,,39,39,20,25,8,8,0.5,0.6
2025-04-07T1100,2337A,117.0258,25.0661,龙岩市,闽西职业技术学院,颗粒物(PM10),57,63,60,32,30,108,,44,44,17,23,7,19,0.5,0.5
2025-04-07T1100,2338A,117.0196,25.0306,龙岩市,龙岩学院,颗粒物(PM10),61,72,46,32,26,104,,53,53,20,13,4,3,0.7,0.5
2025-04-07T1100,2665A,105.0822,33.3261,陇南市,汉王镇固水子,,,,,,,,,,,,,,,,
2025-04-07T1100,2885A,104.9339,33.3826,陇南市,滨江中学,,39,39,52,14,22,56,,49,44,6,7,8,7,0.4,0.5
2025-04-07T1100,3247A,104.955,33.371,陇南市,市总工会,,32,32,48,17,19,59,,64,56,6,5,8,8,0.6,0.5
2025-04-07T1100,2487A,111.9589,27.8901,娄底市,电视发射台,颗粒物(PM10),62,73,81,42,34,75,,62,60,12,6,16,10,1.0,0.7
2025-04-07T1100,2488A,111.9975,27.725,娄底市,市监测站,细颗粒物(PM2.5),87,107,103,64,57,59,,27,27,29,34,22,17,0.6,0.7
2025-04-07T1100,2489A,112.0194,27.7314,娄底市,市委党校,颗粒物(PM10),76,102,102,55,55,61,,40,39,19,23,5,5,0.5,0.6
2025-04-07T1100,2490A,111.9561,27.7569,娄底市,涟钢,"颗粒物(PM10),细颗粒物(PM2.5)",83,116,112,61,59,39,,32,30,32,30,9,17,0.8,1.2
2025-04-07T1100,2491A,111.9892,27.7044,娄底市,市政府,细颗粒物(PM2.5),72,89,93,52,50,62,,40,40,16,23,7,5,0.5,0.5
2025-04-07T1100,1893A,105.4324,28.9634,泸州市,九狮山,,,,,,,,,,,,,,,,
2025-04-07T1100,1894A,105.4427,28.9063,泸州市,小市上码头,,34,34,47,21,29,57,,19,19,15,24,7,6,0.7,0.7
2025-04-07T1100,1895A,105.4241,28.8573,泸州市,兰田宪桥,,34,34,50,20,32,52,,14,14,11,14,5,5,0.6,0.6
2025-04-07T1100,1896A,105.4379,28.8833,泸州市,市环监站,,,,,,,,,,,,,,,,
2025-04-07T1100,4272A,105.3689,28.7783,泸州市,纳溪中医医院,,46,46,40,27,28,47,,17,17,14,18,6,6,0.7,0.8
2025-04-07T1100,2183A,111.1406,37.5211,吕梁市,环保局,颗粒物(PM10),105,160,160,62,52,77,,22,22,,42,,5,,0.4
2025-04-07T1100,2185A,111.1297,37.5136,吕梁市,自来水公司,颗粒物(PM10),96,142,200,52,55,77,,23,23,28,43,9,7,0.8,0.5
2025-04-07T1100,2867A,111.1283,37.51,吕梁市,马茂庄小学,颗粒物(PM10),103,156,184,39,43,66,,23,23,39,45,10,5,1.0,0.5
2025-04-07T1100,1812A,112.3931,34.6516,洛阳市,市委党校,颗粒物(PM10),75,99,109,54,41,68,,38,34,26,26,4,7,0.7,0.7
2025-04-07T1100,1815A,112.494,34.6886,洛阳市,河南林校,颗粒物(PM10),87,124,132,45,45,76,,32,30,29,31,6,10,0.7,0.8
2025-04-07T1100,1816A,112.3844,34.623,洛阳市,开发区管委会,颗粒物(PM10),75,99,113,41,43,74,,45,45,22,23,8,9,0.3,0.3
2025-04-07T1100,1817A,112.4267,34.6258,洛阳市,市委新办公区,颗粒物(PM10),77,104,109,37,37,91,,52,52,16,21,5,7,0.2,0.2
2025-04-07T1100,3340A,112.6005,34.6326,洛阳市,伊滨,颗粒物(PM10),81,111,113,51,47,95,,45,45,22,29,10,7,0.6,0.5
2025-04-07T1100,3341A,112.4951,34.6332,洛阳市,中移产业园,颗粒物(PM10),86,121,135,39,42,86,,46,46,18,20,9,9,0.6,0.5
2025-04-07T1100,3593A,112.5736,34.8993,洛阳市,吉利监测站,颗粒物(PM10),77,103,105,31,40,106,,68,68,12,21,11,10,0.5,0.5
2025-04-07T1100,3635A,112.3677,34.662,洛阳市,河科大西苑校区,颗粒物(PM10),89,128,116,39,36,70,,31,27,36,33,10,12,0.6,0.6
2025-04-07T1100,3636A,112.4388,34.6781,洛阳市,英才小学,颗粒物(PM10),84,118,115,47,45,64,,23,20,43,37,10,14,0.7,0.7
2025-04-07T1100,4214A,112.4600,34.6949,洛阳市,春都路1号院,颗粒物(PM10),97,144,133,50,39,79,,31,28,40,33,15,14,0.9,0.8
2025-04-07T1100,2399A,114.051,33.5699,漯河市,三五一五工厂,颗粒物(PM10),83,115,126,36,44,114,,78,78,7,18,4,7,0.4,0.4
2025-04-07T1100,2400A,114.0055,33.5698,漯河市,漯河大学,颗粒物(PM10),85,120,120,34,40,121,,73,73,4,21,6,7,0.3,0.4
2025-04-07T1100,2401A,114.0138,33.5828,漯河市,市水利局,颗粒物(PM10),85,119,122,41,47,123,,81,81,6,18,4,6,0.2,0.3
2025-04-07T1100,2402A,114.0261,33.5698,漯河市,市广电局,颗粒物(PM10),81,112,122,34,43,115,,84,84,6,16,5,6,0.4,0.5
2025-04-07T1100,3478A,113.9749,33.5664,漯河市,市图书馆,颗粒物(PM10),82,114,119,36,43,123,,90,90,7,17,5,7,0.4,0.5
2025-04-07T1100,4250A,114.0892,33.5882,漯河市,韶山路11号,颗粒物(PM10),81,111,126,34,42,119,,73,72,11,22,5,7,0.4,0.5
2025-04-07T1100,1798A,118.5092,31.6837,马鞍山市,湖东路四小,颗粒物(PM10),62,73,75,26,32,134,,118,113,18,19,7,8,0.6,0.7
2025-04-07T1100,1799A,118.5024,31.6449,马鞍山市,开发区,颗粒物(PM10),64,78,96,35,37,131,,100,98,20,30,5,6,0.6,0.7
2025-04-07T1100,1802A,118.6245,31.7241,马鞍山市,濮塘,,,83,74,,32,149,,132,132,10,11,10,10,0.6,0.5
2025-04-07T1100,3633A,118.4918,31.6809,马鞍山市,雨山,,,,77,34,36,132,,109,105,,18,8,9,0.6,0.7
2025-04-07T1100,4191A,118.5274,31.72227,马鞍山市,慈湖高新区,颗粒物(PM10),56,62,86,30,38,131,,112,107,23,29,5,7,0.5,0.6
2025-04-07T1100,1686A,111.0286,21.4688,茂名市,电白南海,"颗粒物(PM10),细颗粒物(PM2.5)",64,78,94,46,58,73,,46,46,29,23,5,7,1.2,1.2
2025-04-07T1100,1687A,110.9294,21.6533,茂名市,茂石化七小,颗粒物(PM10),64,78,91,44,47,71,,48,48,20,20,5,8,1.0,1
2025-04-07T1100,1688A,110.9107,21.6687,茂名市,健康路,颗粒物(PM10),65,80,89,44,52,87,,58,58,20,21,6,16,0.9,0.9
2025-04-07T1100,1689A,110.8592,21.6828,茂名市,高岭,,,88,102,41,50,78,,51,51,,23,26,18,0.8,0.9
2025-04-07T1100,3450A,111.01,21.5165,茂名市,电白水东,颗粒物(PM10),70,90,84,44,43,64,,50,50,27,25,10,8,0.8,0.8
2025-04-07T1100,2539A,104.0308,30.0478,眉山市,黑龙滩水库,,28,18,34,14,19,88,,38,38,2,3,2,1,0.3,0.3
2025-04-07T1100,2540A,103.8416,30.0874,眉山市,气象局,细颗粒物(PM2.5),77,93,73,56,37,79,,21,21,21,25,5,2,0.7,0.7
2025-04-07T1100,3137A,103.8578,30.0744,眉山市,市委党校,细颗粒物(PM2.5),64,73,61,46,31,67,,20,20,24,25,11,5,0.8,0.6
2025-04-07T1100,3148A,103.8291,30.0564,眉山市,区人社局,细颗粒物(PM2.5),89,69,57,66,34,82,,27,27,21,27,9,5,0.8,0.8
2025-04-07T1100,1690A,116.1231,24.3284,梅州市,梅江月梅,颗粒物(PM10),52,54,57,25,33,114,,27,27,10,19,6,4,0.5,0.6
2025-04-07T1100,1691A,116.0797,24.2719,梅州市,梅县新城,颗粒物(PM10),54,57,56,25,32,102,,26,26,15,29,6,5,0.6,0.6
2025-04-07T1100,1692A,116.1248,24.2654,梅州市,环境监控中心,颗粒物(PM10),53,56,47,27,31,99,,30,30,15,26,7,8,0.7,0.7
2025-04-07T1100,3315A,116.1233,24.2991,梅州市,梅龙,,48,48,50,24,31,107,,32,32,8,22,6,8,0.5,0.7
2025-04-07T1100,1878A,104.7778,31.4741,绵阳市,富乐山,,,70,61,40,27,,,45,38,17,19,6,3,0.7,0.5
2025-04-07T1100,1880A,104.6697,31.4668,绵阳市,高新区自来水公司,颗粒物(PM10),89,127,81,56,32,68,,18,18,29,36,7,4,0.7,0.5
2025-04-07T1100,1881A,104.7287,31.5075,绵阳市,三水厂,颗粒物(PM10),78,105,74,42,31,74,,18,18,21,36,8,6,0.8,0.7
2025-04-07T1100,3491A,104.69,31.5322,绵阳市,西科大附属小学,颗粒物(PM10),84,117,79,60,33,77,,25,25,25,38,10,7,0.7,0.6
2025-04-07T1100,3492A,104.5648,31.5343,绵阳市,安州区旅游局,,,,65,,27,78,,34,34,,24,,7,1.0,0.9
2025-04-07T1100,4226A,104.7651,31.4531,绵阳市,绵阳市气象局,"颗粒物(PM10),细颗粒物(PM2.5)",64,78,66,46,32,64,,36,32,26,26,1,3,0.5,0.4
2025-04-07T1100,1784A,129.61,44.561,牡丹江市,环保大楼,,,15,21,7,14,99,,44,44,9,16,6,6,,0.4
2025-04-07T1100,1785A,129.6115,44.5782,牡丹江市,文化广场,,33,,24,23,18,98,,51,51,7,16,10,11,0.4,0.6
2025-04-07T1100,1786A,129.5904,44.5963,牡丹江市,第一医院,,30,17,20,6,14,93,,44,44,7,16,12,12,0.4,0.4
2025-04-07T1100,1787A,129.6364,44.6075,牡丹江市,机车工厂,,30,14,24,9,14,95,,41,41,13,18,7,19,0.5,0.5
2025-04-07T1100,1788A,129.6386,44.5462,牡丹江市,第一中学,,34,14,22,9,18,107,,43,43,3,12,7,9,0.5,0.6
2025-04-07T1100,2531A,105.0703,29.61,内江市,市监测站,细颗粒物(PM2.5),55,,56,39,38,37,,35,25,28,25,5,5,0.8,0.7
2025-04-07T1100,2532A,105.0717,29.5947,内江市,东兴区政府,,40,,51,28,31,35,,33,23,28,24,1,2,0.8,0.7
2025-04-07T1100,2533A,105.0653,29.5817,内江市,内江二中,细颗粒物(PM2.5),54,,55,38,36,46,,32,26,28,27,8,7,0.6,0.6
2025-04-07T1100,2534A,105.0406,29.5822,内江市,内江日报社,细颗粒物(PM2.5),64,,50,46,39,44,,29,23,31,23,5,6,0.6,0.5
2025-04-07T1100,2628A,92.0657,31.4846,那曲市,那曲监测站,细颗粒物(PM2.5),88,98,49,65,28,81,,48,48,23,26,8,8,0.8,1.1
2025-04-07T1100,4243A,92.0515,31.4787,那曲市,那曲市委宣传部,,37,37,46,19,23,84,,47,47,14,18,5,6,0.5,0.7
2025-04-07T1100,1290A,115.8931,28.6843,南昌市,省外办,颗粒物(PM10),70,89,95,44,52,92,,18,18,53,64,15,10,0.6,0.9
2025-04-07T1100,1291A,115.8886,28.7003,南昌市,省林业公司,颗粒物(PM10),78,105,107,46,44,58,,14,14,65,49,14,10,0.7,0.6
2025-04-07T1100,1292A,115.8126,28.7442,南昌市,林科所,,,83,68,34,32,124,,63,63,32,49,13,11,,0.6
2025-04-07T1100,1294A,115.8518,28.687,南昌市,建工学校,颗粒物(PM10),77,104,105,32,49,83,,28,28,52,55,11,7,0.7,0.9
2025-04-07T1100,1295A,115.8921,28.6424,南昌市,象湖,颗粒物(PM10),73,96,100,46,42,112,,28,28,36,56,18,10,0.6,0.8
2025-04-07T1100,1296A,115.7423,28.7996,南昌市,武术学校,颗粒物(PM10),57,63,53,10,23,144,,68,68,6,8,12,9,0.6,0.7
2025-04-07T1100,3046A,115.9084,28.6062,南昌市,机电学校,颗粒物(PM10),75,99,111,39,44,123,,39,39,24,53,13,6,0.6,0.7
2025-04-07T1100,3690A,115.9721,28.7031,南昌市,外国语学校,颗粒物(PM10),86,121,92,51,40,96,,32,32,29,45,15,7,0.6,0.4
2025-04-07T1100,4192A,115.9316,28.68677,南昌市,南京东路235号,颗粒物(PM10),93,136,116,47,47,108,,34,34,41,56,20,14,0.6,0.9
2025-04-07T1100,1905A,106.056,30.8064,南充市,西山风景区,细颗粒物(PM2.5),63,54,47,45,31,77,,47,47,16,17,7,5,0.8,0.8
2025-04-07T1100,1906A,106.0789,30.8023,南充市,南充市委,细颗粒物(PM2.5),67,78,65,48,35,83,,27,27,16,32,8,4,0.6,0.7
2025-04-07T1100,1907A,106.1031,30.8217,南充市,南充炼油厂,"颗粒物(PM10),细颗粒物(PM2.5)",63,75,71,45,37,74,,33,33,16,32,6,4,0.5,0.5
2025-04-07T1100,4227A,106.1083,30.7884,南充市,梨树横街98号,颗粒物(PM10),71,91,65,49,30,66,,36,36,19,29,10,6,0.4,0.4
2025-04-07T1100,4304A,106.1172,30.843,南充市,清泉寺北路188号,颗粒物(PM10),63,76,70,34,36,78,,36,36,19,25,9,7,0.5,0.4
2025-04-07T1100,4305A,106.067,30.7616,南充市,同庆路1号,,,72,68,46,38,75,,35,35,,25,,4,0.4,0.4
2025-04-07T1100,1151A,118.8086,32.1065,南京市,迈皋桥,颗粒物(PM10),64,77,62,34,26,130,,120,116,47,31,4,8,0.6,0.6
2025-04-07T1100,1152A,118.7538,32.0551,南京市,草场门,颗粒物(PM10),68,85,71,31,28,136,,105,105,25,30,7,10,0.8,0.8
2025-04-07T1100,1153A,118.7794,32.0745,南京市,山西路,颗粒物(PM10),76,102,82,29,26,132,,113,113,29,23,7,9,0.4,0.4
2025-04-07T1100,1154A,118.7752,32.0023,南京市,中华门,,,83,69,,29,,,90,90,18,30,,17,0.5,0.6
2025-04-07T1100,1155A,118.8109,32.0309,南京市,瑞金路,颗粒物(PM10),73,95,73,34,28,125,,90,90,21,25,7,6,0.4,0.6
2025-04-07T1100,1156A,118.7997,32.0754,南京市,玄武湖,颗粒物(PM10),71,92,71,34,24,103,,89,88,26,21,9,11,0.6,0.7
2025-04-07T1100,1157A,118.6414,32.0931,南京市,浦口,颗粒物(PM10),77,103,79,32,28,135,,126,123,39,24,23,9,1.1,0.4
2025-04-07T1100,1158A,118.7356,31.9996,南京市,奥体中心,颗粒物(PM10),67,83,75,34,33,135,,108,107,22,26,10,12,0.4,0.5
2025-04-07T1100,1159A,118.9125,32.1028,南京市,仙林大学城,,,97,76,44,26,,,102,94,26,20,10,12,,0.8
2025-04-07T1100,3422A,118.8436,31.9198,南京市,江宁彩虹桥,颗粒物(PM10),75,99,75,39,31,142,,100,100,20,23,4,6,0.6,0.6
2025-04-07T1100,3427A,118.8554,32.3578,南京市,六合雄州,颗粒物(PM10),62,73,66,34,26,145,,98,98,30,18,17,9,1.3,0.5
2025-04-07T1100,4249A,118.8708,31.3402,南京市,汶溪路181号,颗粒物(PM10),63,75,78,34,39,159,,120,120,20,19,8,5,0.7,0.6
2025-04-07T1100,4312A,119.019,31.6512,南京市,中山西路1号,颗粒物(PM10),53,56,59,30,32,158,,86,86,16,25,4,8,0.5,0.6
2025-04-07T1100,1401A,108.3103,22.7881,南宁市,二十一中,细颗粒物(PM2.5),79,86,85,58,58,73,,75,71,26,28,6,6,1.1,1.1
2025-04-07T1100,1402A,108.3141,22.8528,南宁市,北湖,细颗粒物(PM2.5),89,89,86,66,58,69,,65,58,28,30,8,9,0.9,0.8
2025-04-07T1100,1403A,108.3206,22.8225,南宁市,市监测站,细颗粒物(PM2.5),80,87,85,59,57,73,,79,73,23,26,8,8,0.9,0.9
2025-04-07T1100,1404A,108.3829,22.8037,南宁市,大自然花园,细颗粒物(PM2.5),83,96,86,61,60,79,,65,59,18,23,7,6,1.1,1.1
2025-04-07T1100,1405A,108.4394,22.7904,南宁市,仙葫,细颗粒物(PM2.5),99,94,81,74,67,63,,47,44,20,23,4,4,0.9,0.9
2025-04-07T1100,1406A,108.2397,22.8467,南宁市,区农职院,细颗粒物(PM2.5),79,99,89,58,58,69,,48,48,21,32,5,6,0.9,1
2025-04-07T1100,1407A,108.3275,22.735,南宁市,英华嘉园,细颗粒物(PM2.5),79,79,89,58,61,77,,68,68,19,25,8,8,0.7,0.8
2025-04-07T1100,3401A,108.4834,22.7618,南宁市,红星社区,细颗粒物(PM2.5),83,90,93,61,59,78,,55,55,18,23,10,9,0.9,1
2025-04-07T1100,4221A,108.2177,22.7774,南宁市,乐贤路16号,细颗粒物(PM2.5),82,86,92,60,64,61,,38,38,30,42,10,10,0.8,0.9
2025-04-07T1100,2331A,118.0966,26.6761,南平市,茫荡山,,,,,,,,,,,,,,,,
2025-04-07T1100,2332A,118.1681,26.6369,南平市,南平市监测站,,45,41,46,17,30,143,,63,63,9,17,6,6,0.6,0.7
2025-04-07T1100,2333A,118.1825,26.6489,南平市,南平铝业有限公司,颗粒物(PM10),53,56,53,19,28,141,,62,62,7,19,5,6,0.6,0.9
2025-04-07T1100,2334A,118.1756,26.6272,南平市,南平七中,颗粒物(PM10),60,69,51,22,29,136,,62,62,9,13,7,6,0.6,0.7
2025-04-07T1100,1168A,120.9098,31.9663,南通市,狼山街道,颗粒物(PM10),71,92,95,37,52,154,,72,72,29,43,8,9,0.7,0.8
2025-04-07T1100,1169A,120.86,32.0005,南通市,虹桥,颗粒物(PM10),72,93,97,43,58,149,,96,96,33,37,10,10,0.8,0.8
2025-04-07T1100,1170A,120.87,32.02,南通市,城中,颗粒物(PM10),82,113,110,47,53,158,,110,110,32,36,11,11,1.0,0.9
2025-04-07T1100,1171A,120.94,31.93,南通市,星湖花园,颗粒物(PM10),70,89,93,43,53,154,,87,87,30,41,9,10,0.4,0.4
2025-04-07T1100,1172A,120.81,32.0417,南通市,紫琅学院,颗粒物(PM10),75,99,97,37,54,139,,66,66,37,47,6,7,0.5,0.6
2025-04-07T1100,3291A,121.067,32.062,南通市,通州监测站,颗粒物(PM10),74,97,91,39,52,146,,91,91,34,26,11,7,0.6,0.6
2025-04-07T1100,3432A,120.9348,31.9883,南通市,环境教育馆,颗粒物(PM10),78,105,91,39,55,165,,92,92,30,33,8,9,0.5,0.5
2025-04-07T1100,2404A,112.5224,33.0122,南阳市,瓦房庄,,,114,114,40,40,,,100,97,12,18,12,7,0.5,0.5
2025-04-07T1100,2405A,112.5003,32.9735,南阳市,汉画馆,颗粒物(PM10),81,112,105,41,38,103,,91,90,15,20,11,6,0.5,0.5
2025-04-07T1100,2406A,112.5573,33.027,南阳市,气象站,颗粒物(PM10),90,129,127,34,35,116,,103,103,12,19,10,8,0.5,0.5
2025-04-07T1100,2407A,112.5481,32.9689,南阳市,理工学院,颗粒物(PM10),84,118,111,33,36,112,,100,97,13,19,9,6,0.6,0.6
2025-04-07T1100,4008A,112.5234,32.9922,南阳市,卧龙区政府,颗粒物(PM10),87,123,119,39,40,109,,97,96,8,14,11,6,0.6,0.6
2025-04-07T1100,1234A,121.8358,29.911,宁波市,区环保大楼,颗粒物(PM10),52,54,84,25,41,132,,93,93,24,49,9,9,0.7,0.7
2025-04-07T1100,1235A,121.56,29.82,宁波市,万里学院,,49,43,78,22,42,154,,99,99,12,20,16,14,0.8,0.7
2025-04-07T1100,1236A,121.713,29.9572,宁波市,龙赛医院,,,53,103,27,44,158,,89,89,,43,9,13,,0.7
2025-04-07T1100,1239A,121.633,29.7733,宁波市,钱湖水厂,,47,32,69,20,37,150,,110,110,14,18,8,8,0.7,0.7
2025-04-07T1100,1240A,121.5856,29.8635,宁波市,太古小学,,48,46,83,22,37,152,,103,103,12,22,10,10,0.5,0.5
2025-04-07T1100,1241A,121.524,29.8674,宁波市,市环境监测中心,,45,45,84,20,41,141,,94,94,25,35,11,11,0.5,0.5
2025-04-07T1100,2871A,121.6147,29.9017,宁波市,万里国际学校,颗粒物(PM10),54,57,89,22,36,156,,115,115,14,23,8,9,0.7,0.8
2025-04-07T1100,3710A,121.5594,29.8975,宁波市,白沙活动中心,,49,48,90,19,43,154,,104,104,14,27,9,9,0.5,0.5
2025-04-07T1100,2339A,119.5001,26.6946,宁德市,金涵水库,,,,,,,,,,,,,,,,
2025-04-07T1100,2341A,119.5388,26.6612,宁德市,宁德市监测站,颗粒物(PM10),63,75,49,32,27,103,,77,77,21,14,7,5,0.6,0.6
2025-04-07T1100,3209A,119.5231,26.6562,宁德市,宁德一中,,,,47,36,27,114,,74,74,,10,,6,0.4,0.3
2025-04-07T1100,2618A,98.8601,25.8567,怒江傈僳族自治州,州监测站,颗粒物(PM10),51,52,46,26,30,80,,79,73,6,9,6,6,0.4,0.4
2025-04-07T1100,2619A,98.8546,25.8417,怒江傈僳族自治州,泸水一中,细颗粒物(PM2.5),67,56,46,48,33,62,,47,42,15,18,6,7,0.5,0.5
2025-04-07T1100,1888A,101.6891,26.571,攀枝花市,弄弄坪,,42,42,60,13,34,79,,71,71,21,29,12,19,0.6,1.4
2025-04-07T1100,1889A,101.5769,26.5928,攀枝花市,河门口,颗粒物(PM10),56,62,56,28,32,64,,56,49,35,19,29,17,1.5,0.9
2025-04-07T1100,1890A,101.7169,26.585,攀枝花市,炳草岗,,43,43,55,15,29,78,,60,60,24,28,14,14,0.8,0.9
2025-04-07T1100,1891A,101.7369,26.5008,攀枝花市,仁和,,43,35,48,30,34,112,,75,69,15,17,15,9,0.7,0.7
2025-04-07T1100,2835A,101.7227,26.567,攀枝花市,四十中小,,38,38,55,14,26,89,,90,89,14,15,7,8,0.8,0.8
2025-04-07T1100,1604A,122.0303,41.1489,盘锦市,开发区,颗粒物(PM10),57,63,77,35,61,115,,64,64,14,31,12,19,0.5,1
2025-04-07T1100,1605A,122.0485,41.0883,盘锦市,兴隆台,,48,48,82,33,64,110,,54,54,14,36,15,16,0.7,1.2
2025-04-07T1100,1606A,121.8297,41.1028,盘锦市,新生街道,细颗粒物(PM2.5),54,39,55,38,61,114,,49,49,14,39,10,8,0.9,1
2025-04-07T1100,1832A,113.3257,33.742,平顶山市,新华旅馆,颗粒物(PM10),85,120,117,29,35,125,,112,112,11,15,7,6,0.5,0.5
2025-04-07T1100,1833A,113.2919,33.737,平顶山市,规划设计院,颗粒物(PM10),81,111,111,35,40,127,,110,110,7,12,6,5,0.4,0.4
2025-04-07T1100,1834A,113.182,33.774,平顶山市,平顶山工学院,颗粒物(PM10),76,101,109,31,36,121,,107,107,8,10,6,6,0.5,0.5
2025-04-07T1100,3204A,113.3025,33.73,平顶山市,规划局,颗粒物(PM10),86,122,116,39,41,126,,113,112,9,14,7,6,0.7,0.7
2025-04-07T1100,3594A,112.8867,33.9116,平顶山市,石龙区,颗粒物(PM10),81,111,129,46,42,125,,104,96,7,12,6,6,0.3,0.3
2025-04-07T1100,2656A,106.6692,35.5461,平凉市,聚贤嘉苑,颗粒物(PM10),59,67,102,21,29,105,,76,71,13,19,23,21,0.6,0.5
2025-04-07T1100,2657A,106.7021,35.5307,平凉市,博物馆,颗粒物(PM10),63,75,111,21,32,98,,60,60,15,25,10,11,0.7,0.7
2025-04-07T1100,2347A,114.0997,27.5002,萍乡市,武功山,,44,44,41,19,24,101,,64,64,7,7,10,10,1.1,1
2025-04-07T1100,2348A,113.8385,27.6434,萍乡市,中医院,颗粒物(PM10),74,98,74,42,31,75,,44,42,41,24,24,11,2.1,1
2025-04-07T1100,2349A,113.8493,27.6253,萍乡市,市政府车库,细颗粒物(PM2.5),74,67,60,54,36,104,,60,60,24,19,14,7,1.6,0.8
2025-04-07T1100,2350A,113.8676,27.6435,萍乡市,市环保局,颗粒物(PM10),69,88,69,45,37,91,,43,43,30,23,34,10,1.5,0.9
2025-04-07T1100,2351A,113.866,27.6198,萍乡市,安源区政府,颗粒物(PM10),67,84,68,43,32,89,,47,47,27,20,20,11,1.7,0.8
2025-04-07T1100,2319A,119.0141,25.4325,莆田市,荔城区仓后路,颗粒物(PM10),60,69,55,25,28,143,,103,103,11,16,2,3,0.5,0.7
2025-04-07T1100,2320A,119.0015,25.4553,莆田市,莆田市监测站,颗粒物(PM10),57,63,47,26,26,149,,112,112,6,10,4,5,0.4,0.5
2025-04-07T1100,2321A,119.1119,25.4561,莆田市,涵江区六中,颗粒物(PM10),58,66,57,25,25,152,,125,125,8,16,4,4,0.6,0.7
2025-04-07T1100,2322A,119.1013,25.3215,莆田市,秀屿区政府,颗粒物(PM10),64,78,53,30,22,157,,110,110,11,15,5,6,0.6,0.6
2025-04-07T1100,2323A,118.981,25.4792,莆田市,东圳水库,,,,,,,,,,,,,,,,
2025-04-07T1100,2392A,115.0312,35.7636,濮阳市,环保局,颗粒物(PM10),87,123,110,47,37,99,,79,75,17,16,11,8,0.6,0.5
2025-04-07T1100,2394A,115.0574,35.7609,濮阳市,油田运输公司,颗粒物(PM10),81,112,107,41,37,112,,83,78,16,16,11,7,0.8,0.7
2025-04-07T1100,3021A,115,35.7668,濮阳市,濮水河管理处,颗粒物(PM10),93,136,124,63,45,103,,70,67,26,23,13,8,0.8,0.8
2025-04-07T1100,4216A,115.0924,35.7686,濮阳市,任丘路479号,颗粒物(PM10),88,125,122,43,41,117,,80,78,14,15,11,7,1.1,0.9
2025-04-07T1100,2601A,100.98,22.7633,普洱市,市环保局,颗粒物(PM10),66,82,90,18,45,84,,69,64,9,10,5,6,0.8,0.8
2025-04-07T1100,2602A,100.9817,22.8322,普洱市,普洱第二中学,细颗粒物(PM2.5),63,72,73,45,51,74,,56,56,12,12,6,6,0.8,0.8
2025-04-07T1100,2262A,131.0518,45.8751,七台河市,新一中,,39,14,22,12,16,123,,58,58,10,14,13,12,1.0,1
2025-04-07T1100,3345A,131.0577,45.7879,七台河市,中波台,,32,19,28,11,19,102,,53,53,14,26,9,10,0.4,0.5
2025-04-07T1100,3637A,131.0176,45.7761,七台河市,人民广场,,39,39,33,27,22,105,,64,64,18,28,10,10,0.6,0.6
2025-04-07T1100,3684A,130.8781,45.8222,七台河市,新建矿广场,颗粒物(PM10),52,53,42,22,19,99,,37,37,18,25,9,10,0.7,0.6
2025-04-07T1100,1779A,123.9305,47.3636,齐齐哈尔市,安居小区,颗粒物(PM10),54,58,57,26,29,81,,68,64,15,18,2,2,0.4,0.5
2025-04-07T1100,1780A,123.9488,47.3386,齐齐哈尔市,中心广场,颗粒物(PM10),59,68,64,25,32,76,,58,58,13,19,6,6,0.5,0.5
2025-04-07T1100,1781A,123.9483,47.3227,齐齐哈尔市,农牧车辆厂,颗粒物(PM10),51,51,48,28,25,81,,66,63,13,14,5,5,0.2,0.2
2025-04-07T1100,1783A,123.945,47.2988,齐齐哈尔市,市环境监测站,颗粒物(PM10),53,55,51,30,31,78,,60,60,12,14,2,3,0.4,0.4
2025-04-07T1100,3662A,123.6333,47.2075,齐齐哈尔市,富区青少年活动中心,颗粒物(PM10),60,69,53,36,39,71,,55,55,12,11,2,2,0.5,0.5
2025-04-07T1100,2591A,107.9783,26.5747,黔东南苗族侗族自治州,市环境监测站,细颗粒物(PM2.5),93,97,78,69,54,31,,36,36,21,21,3,4,0.6,0.6
2025-04-07T1100,2881A,107.8908,26.5311,黔东南苗族侗族自治州,凯里学院,细颗粒物(PM2.5),84,73,69,62,47,24,,23,22,17,15,2,3,0.6,0.6
2025-04-07T1100,2593A,107.5228,26.2403,黔南布依族苗族自治州,小围寨,细颗粒物(PM2.5),83,73,54,61,40,72,,42,42,10,10,4,5,0.5,0.5
2025-04-07T1100,3538A,107.5175,26.2978,黔南布依族苗族自治州,沙坝,细颗粒物(PM2.5),79,83,64,58,44,69,,37,37,12,13,4,4,0.6,0.6
2025-04-07T1100,2589A,104.9022,25.0925,黔西南布依族苗族自治州,场坝街,,30,30,33,19,25,46,,56,51,15,12,12,5,0.7,0.5
2025-04-07T1100,2590A,104.8811,25.0992,黔西南布依族苗族自治州,坪东大道,,33,33,41,21,31,37,,53,47,22,14,9,3,0.6,0.5
2025-04-07T1100,2502A,108.6236,21.9667,钦州市,市环保站,"颗粒物(PM10),细颗粒物(PM2.5)",79,107,126,58,81,44,,25,22,34,37,14,13,0.8,1.1
2025-04-07T1100,2503A,108.6549,21.9481,钦州市,沙埠小学,颗粒物(PM10),85,120,119,52,76,44,,16,15,31,36,13,12,0.9,1.1
2025-04-07T1100,2504A,108.5989,21.7431,钦州市,港区一小,颗粒物(PM10),70,90,104,31,63,78,,32,32,26,35,10,9,0.8,1
2025-04-07T1100,3404A,108.5959,21.9633,钦州市,北职校,细颗粒物(PM2.5),108,141,111,81,91,32,,16,13,43,34,16,10,1.1,1.3
2025-04-07T1100,1043A,119.7493,40.0116,秦皇岛市,第一关,颗粒物(PM10),65,80,61,46,35,76,,38,38,28,58,6,8,0.5,0.4
2025-04-07T1100,1044A,119.5897,39.9499,秦皇岛市,监测站,细颗粒物(PM2.5),67,82,60,48,28,60,,29,29,40,41,6,8,0.5,0.5
2025-04-07T1100,1046A,119.5251,39.9041,秦皇岛市,建设大厦,颗粒物(PM10),65,79,69,33,29,60,,29,29,39,45,6,6,0.5,0.4
2025-04-07T1100,3132A,119.610547,39.943889,秦皇岛市,文明里,,,93,77,36,25,64,,34,34,29,49,,8,0.4,0.4
2025-04-07T1100,4198A,119.5090,39.8253,秦皇岛市,北戴河轮滑馆,颗粒物(PM10),61,71,54,37,25,75,,38,38,21,30,8,8,0.4,0.4
