timepoint,stationcode,longitude,latitude,area,positionname,primarypollutant,aqi,pm10,pm10_24h,pm2_5,pm2_5_24h,o3,o3_24h,o3_8h,o3_8h_24h,no2,no2_24h,so2,so2_24h,co,co_24h
2025-04-07T1000,2566A,102.1879,31.914,阿坝藏族羌族自治州,州农科所,,34,34,22,14,11,47,,40,39,11,9,13,12,0.5,0.4
2025-04-07T1000,2568A,102.2502,31.8896,阿坝藏族羌族自治州,马师校,,,18,22,12,14,,,32,31,7,12,5,5,0.4,0.4
2025-04-07T1000,3994A,102.2165,31.9024,阿坝藏族羌族自治州,马尔康中学西区,,18,18,22,12,12,56,,40,40,10,14,3,3,0.7,0.5
2025-04-07T1000,2695A,80.292,41.1694,阿克苏地区,电视台,颗粒物(PM10),173,295,313,62,72,62,,73,72,18,19,5,6,0.4,0.4
2025-04-07T1000,2696A,80.2613,41.1551,阿克苏地区,艺术中心,颗粒物(PM10),178,306,291,87,70,62,,43,43,16,19,4,4,0.4,0.5
2025-04-07T1000,2204A,105.6467,38.8363,阿拉善盟,西城区西花园,颗粒物(PM10),55,60,122,23,35,105,,94,94,5,7,10,12,0.6,0.7
2025-04-07T1000,2205A,105.6985,38.8411,阿拉善盟,蒙二幼,颗粒物(PM10),73,95,139,35,42,88,,88,88,11,8,8,5,0.5,0.4
2025-04-07T1000,2206A,105.724,38.8516,阿拉善盟,环保局新楼,颗粒物(PM10),73,95,132,35,44,92,,103,101,9,4,12,8,0.7,0.6
2025-04-07T1000,2708A,88.1264,47.8517,阿勒泰地区,市站,,23,21,24,6,6,71,,94,89,14,6,2,3,0.6,0.5
2025-04-07T1000,2630A,80.1161,32.5,阿里地区,阿里监测站,,20,16,9,3,4,62,,82,71,23,7,8,7,0.5,0.4
2025-04-07T1000,3192A,80.0903,32.5028,阿里地区,阿里藏医院,,30,30,13,15,4,66,,94,82,28,5,10,8,0.8,0.4
2025-04-07T1000,2642A,109.0318,32.6537,安康市,香溪洞,颗粒物(PM10),53,56,59,26,30,73,,92,87,9,6,8,7,0.6,0.6
2025-04-07T1000,2644A,109.0072,32.6975,安康市,汉滨区检察院,颗粒物(PM10),64,78,83,29,33,47,,44,41,22,18,26,11,0.5,0.4
2025-04-07T1000,4054A,109.0325,32.6913,安康市,市邮政管理局,颗粒物(PM10),65,80,81,29,33,41,,43,38,25,19,19,11,0.8,0.7
2025-04-07T1000,2291A,117.0809,30.5177,安庆市,环科院,颗粒物(PM10),62,74,79,31,30,87,,21,21,33,65,10,10,0.5,0.5
2025-04-07T1000,2292A,117.0331,30.5119,安庆市,马山宾馆,颗粒物(PM10),63,75,71,30,28,53,,25,,63,56,6,6,0.4,0.3
2025-04-07T1000,2294A,116.9896,30.6145,安庆市,安庆大学,颗粒物(PM10),66,82,80,23,29,119,,47,47,19,34,6,7,0.4,0.6
2025-04-07T1000,3173A,117.0598,30.5351,安庆市,市人大,颗粒物(PM10),69,88,78,34,34,84,,28,28,38,49,12,8,0.5,0.5
2025-04-07T1000,3122A,105.9606,26.2611,安顺市,伍家关,,43,32,57,30,40,40,,42,40,10,12,8,7,0.9,0.8
2025-04-07T1000,3123A,105.9408,26.2431,安顺市,凤凰山,,,43,63,32,47,,,46,44,14,16,13,10,0.6,0.6
2025-04-07T1000,3124A,105.9439,26.2564,安顺市,金钟山,,50,44,62,35,47,43,,46,43,15,14,12,8,0.8,0.7
2025-04-07T1000,3125A,105.8983,26.2481,安顺市,娄家坡,,50,41,58,35,48,41,,48,44,13,13,7,8,0.9,0.9
2025-04-07T1000,1818A,114.4839,36.0621,安阳市,棉研所,,,,,,,,,,,,,,,,
2025-04-07T1000,1819A,114.3551,36.1017,安阳市,红庙街,颗粒物(PM10),111,172,138,67,46,54,,40,34,43,23,15,9,0.9,0.6
2025-04-07T1000,1820A,114.361,36.0681,安阳市,银杏小区,细颗粒物(PM2.5),120,171,137,91,63,61,,35,28,47,28,14,9,0.8,0.3
2025-04-07T1000,3141A,114.3922,36.0878,安阳市,信访局,细颗粒物(PM2.5),128,173,150,97,58,49,,36,26,55,29,7,6,1.0,0.6
2025-04-07T1000,3669A,114.4705,36.0637,安阳市,左辅环卫站,颗粒物(PM10),102,154,141,74,53,56,,52,44,19,10,8,7,0.5,0.4
2025-04-07T1000,3703A,114.2917,36.0949,安阳市,安钢职工学校,细颗粒物(PM2.5),132,,146,100,52,60,,38,37,,26,,7,1.7,0.8
2025-04-07T1000,1748A,123.044,41.1196,鞍山市,深沟寺,,42,42,52,24,35,111,,100,100,14,15,11,10,0.5,0.6
2025-04-07T1000,1749A,123.011,41.0931,鞍山市,太阳城,,,41,53,25,35,,,100,100,14,14,5,5,0.6,0.7
2025-04-07T1000,1750A,123.0485,41.1442,鞍山市,太平,,,53,65,22,34,,,98,98,14,18,9,9,0.6,0.6
2025-04-07T1000,1751A,122.9642,41.0971,鞍山市,铁西三道街,颗粒物(PM10),53,55,64,27,38,115,,85,85,20,26,6,11,0.6,0.9
2025-04-07T1000,1753A,123.022,41.0821,鞍山市,明达新区,,44,44,50,30,34,125,,102,102,9,11,8,7,0.5,0.5
2025-04-07T1000,1754A,123.1289,41.0228,鞍山市,千山,,,,36,,21,,,87,,,12,,4,,0.8
2025-04-07T1000,4201A,122.9446,41.0826,鞍山市,兴盛南路290号,颗粒物(PM10),53,56,66,24,37,119,,97,97,19,28,11,13,0.6,0.8
2025-04-07T1000,2195A,107.4212,40.761,巴彦淖尔市,附二中,颗粒物(PM10),58,66,148,17,39,83,,72,72,9,9,13,10,0.4,0.3
2025-04-07T1000,2196A,107.37,40.7372,巴彦淖尔市,市环保大楼,颗粒物(PM10),59,67,151,25,43,79,,76,75,12,9,10,6,0.3,0.2
2025-04-07T1000,1956A,86.1472,41.7538,巴音郭楞蒙古自治州,孔雀公园,颗粒物(PM10),133,215,251,53,55,34,,84,72,47,18,6,6,0.7,0.3
2025-04-07T1000,1957A,86.1972,41.7166,巴音郭楞蒙古自治州,棉纺厂,颗粒物(PM10),126,202,330,50,57,18,,68,52,63,24,4,5,0.5,0.3
2025-04-07T1000,1958A,86.2357,41.7173,巴音郭楞蒙古自治州,经济开发区,颗粒物(PM10),106,161,263,34,46,52,,89,78,29,9,5,5,0.3,0.2
2025-04-07T1000,2914A,106.7677,31.8794,巴中市,苏山坪,颗粒物(PM10),57,63,55,30,26,72,,78,73,16,14,6,4,0.5,0.4
2025-04-07T1000,3181A,106.7768,31.8526,巴中市,市五中,颗粒物(PM10),62,73,59,37,29,27,,24,22,37,21,6,6,0.9,0.5
2025-04-07T1000,3183A,106.7418,31.8654,巴中市,圣泉水务公司,颗粒物(PM10),52,53,52,24,25,51,,29,29,18,22,3,4,0.5,0.4
2025-04-07T1000,3616A,106.7616,31.8344,巴中市,市中心医院,颗粒物(PM10),59,67,55,39,35,38,,20,20,28,22,7,6,0.7,0.6
2025-04-07T1000,2235A,122.7911,45.6077,白城市,洮北区环保局,,39,37,43,27,32,63,,55,55,12,12,3,2,0.7,0.7
2025-04-07T1000,2236A,122.8738,45.5725,白城市,市环保局,细颗粒物(PM2.5),57,48,40,40,36,61,,51,51,13,14,4,3,0.5,0.5
2025-04-07T1000,2231A,126.4219,41.9171,白山市,喜丰,,34,34,33,20,19,56,,36,36,22,19,8,6,1.2,1.3
2025-04-07T1000,2232A,126.4077,41.9419,白山市,环保局,,40,40,39,18,20,59,,31,31,18,19,9,6,1.0,1
2025-04-07T1000,2647A,104.1724,36.5446,白银市,第三小学,颗粒物(PM10),73,96,98,35,34,78,,68,64,19,19,30,26,0.8,0.8
2025-04-07T1000,2648A,104.1465,36.5482,白银市,动力公司,颗粒物(PM10),72,94,91,38,34,82,,65,63,22,18,35,19,0.6,0.7
2025-04-07T1000,2512A,106.6103,23.9011,百色市,市监测站,细颗粒物(PM2.5),97,103,98,72,73,60,,74,70,20,18,9,13,1.2,1.1
2025-04-07T1000,2513A,106.6538,23.8859,百色市,市中心血站,细颗粒物(PM2.5),114,103,101,86,85,65,,76,72,20,17,9,16,1.0,1
2025-04-07T1000,3406A,106.6085,23.8798,百色市,祈福高中,细颗粒物(PM2.5),122,102,106,92,79,63,,73,70,17,20,7,9,1.1,1.1
2025-04-07T1000,2270A,117.396,32.939,蚌埠市,工人疗养院,颗粒物(PM10),86,122,92,32,24,110,,116,112,33,15,9,7,0.6,0.6
2025-04-07T1000,2271A,117.3605,32.9427,蚌埠市,百货大楼,颗粒物(PM10),75,100,90,28,25,99,,104,100,39,24,9,8,0.5,0.5
2025-04-07T1000,2273A,117.4185,32.8911,蚌埠市,蚌埠学院,颗粒物(PM10),64,78,92,32,25,110,,105,101,17,15,6,6,0.5,0.5
2025-04-07T1000,2274A,117.3533,32.9673,蚌埠市,淮上区政府,颗粒物(PM10),74,97,88,32,31,103,,108,104,32,19,8,9,0.4,0.4
2025-04-07T1000,2275A,117.3145,32.8977,蚌埠市,高新区,,,122,92,37,28,92,,94,87,,17,8,9,,0.5
2025-04-07T1000,3715A,117.3092,32.9314,蚌埠市,蚌埠田家炳中学,颗粒物(PM10),81,111,98,35,32,106,,93,88,31,24,9,16,0.5,0.4
2025-04-07T1000,1585A,109.8756,40.6532,包头市,市环境监测站,颗粒物(PM10),52,53,122,12,34,77,,83,83,17,27,12,17,0.6,0.8
2025-04-07T1000,1587A,109.9991,40.5842,包头市,包头八中,颗粒物(PM10),51,52,137,18,46,80,,79,79,19,37,13,13,0.5,0.6
2025-04-07T1000,1588A,109.8538,40.6821,包头市,青山宾馆,,,34,103,11,38,78,,80,80,,30,10,17,,0.8
2025-04-07T1000,1589A,109.8642,40.6288,包头市,惠龙物流,,41,41,112,9,34,78,,86,86,18,24,8,17,0.5,0.8
2025-04-07T1000,1590A,110.0377,40.5546,包头市,东河鸿龙湾,颗粒物(PM10),65,79,140,24,42,82,,72,72,14,27,14,13,0.6,0.6
2025-04-07T1000,3283A,109.9154,40.5685,包头市,滨河大厦,,40,40,129,9,45,88,,80,80,14,27,10,19,0.5,0.7
2025-04-07T1000,3419A,109.9447,40.6261,包头市,包头市委党校,,39,39,108,3,32,96,,84,84,8,26,6,11,0.3,0.6
2025-04-07T1000,3683A,109.8331,40.6576,包头市,昆区政府,,40,40,108,13,40,79,,80,80,14,27,8,17,0.4,0.8
2025-04-07T1000,1930A,107.185,34.3063,宝鸡市,庙沟村,颗粒物(PM10),52,54,74,22,29,99,,102,100,8,10,7,7,0.4,0.4
2025-04-07T1000,1931A,107.0708,34.3017,宝鸡市,竹园沟,颗粒物(PM10),56,61,79,24,29,97,,88,88,13,12,6,7,0.4,0.4
2025-04-07T1000,1932A,107.1906,34.3672,宝鸡市,三陆医院,颗粒物(PM10),65,80,100,20,37,89,,31,31,14,36,4,8,0.5,0.6
2025-04-07T1000,1933A,107.1431,34.3547,宝鸡市,监测站,颗粒物(PM10),57,64,100,34,39,92,,50,50,8,28,7,9,0.4,0.5
2025-04-07T1000,1934A,107.1186,34.3739,宝鸡市,技工学校,颗粒物(PM10),69,87,95,20,40,100,,68,68,5,18,4,7,0.3,0.5
2025-04-07T1000,1935A,107.3906,34.3528,宝鸡市,陈仓区环保局家属楼,颗粒物(PM10),69,87,104,26,37,80,,56,56,36,36,48,27,0.8,0.7
2025-04-07T1000,1936A,107.2058,34.3497,宝鸡市,文理学院,颗粒物(PM10),56,61,91,23,46,94,,46,46,11,27,5,6,0.4,0.5
2025-04-07T1000,1937A,107.2386,34.3622,宝鸡市,三迪小学,颗粒物(PM10),63,76,105,31,53,68,,27,27,35,43,7,9,0.6,0.6
2025-04-07T1000,1051A,115.493,38.8632,保定市,游泳馆,细颗粒物(PM2.5),94,107,121,70,76,94,,71,71,34,40,21,15,0.9,0.5
2025-04-07T1000,1052A,115.5213,38.8959,保定市,华电二区,细颗粒物(PM2.5),72,74,110,52,70,87,,59,59,30,40,5,3,1.2,0.7
2025-04-07T1000,1053A,115.4713,38.9108,保定市,接待中心,细颗粒物(PM2.5),112,99,112,84,95,89,,66,66,29,36,13,7,1.0,0.5
2025-04-07T1000,1054A,115.4612,38.8416,保定市,地表水厂,细颗粒物(PM2.5),83,100,118,61,59,100,,79,79,33,34,14,8,1.0,0.6
2025-04-07T1000,3581A,115.31981,38.95208,保定市,满城区生态环境分局,细颗粒物(PM2.5),110,110,118,83,78,100,,75,75,34,42,11,4,1.0,0.6
2025-04-07T1000,3582A,115.47694,38.76408,保定市,清苑区第二中学,颗粒物(PM10),87,124,134,59,65,95,,71,71,38,39,14,9,0.9,0.6
2025-04-07T1000,3583A,115.62909,39.02311,保定市,徐水物探局,细颗粒物(PM2.5),79,89,117,58,62,102,,64,64,27,40,17,11,1.1,0.5
2025-04-07T1000,4004A,115.4202,38.8656,保定市,双鹰农机,"颗粒物(PM10),细颗粒物(PM2.5)",74,97,118,54,60,101,,77,77,45,43,15,8,0.8,0.4
2025-04-07T1000,4034A,115.5150,38.8590,保定市,植保所站,颗粒物(PM10),78,105,120,54,85,84,,61,61,34,38,11,5,0.9,0.5
2025-04-07T1000,2594A,99.1678,25.1081,保山市,市环境监测站,细颗粒物(PM2.5),68,69,63,49,46,68,,89,80,27,13,5,7,0.7,0.5
2025-04-07T1000,2595A,99.1711,25.1328,保山市,市环保局,,,57,65,44,43,,,111,104,29,11,5,5,0.9,0.7
2025-04-07T1000,1866A,109.2262,21.588,北海市,牛尾岭水库,,,58,46,45,39,55,,48,48,,12,8,6,0.7,0.7
2025-04-07T1000,1867A,109.1436,21.4086,北海市,海滩公园,颗粒物(PM10),65,80,59,34,31,70,,86,81,23,17,11,9,0.7,0.7
2025-04-07T1000,1868A,109.0981,21.4661,北海市,新市环保局,细颗粒物(PM2.5),128,,61,97,41,66,,88,85,,19,12,6,0.5,0.5
2025-04-07T1000,1869A,109.1778,21.5233,北海市,北海工业园,细颗粒物(PM2.5),74,89,71,54,47,51,,74,68,29,17,18,11,0.4,0.4
2025-04-07T1000,3400A,109.1911,21.4415,北海市,龙潭自来水厂,颗粒物(PM10),61,71,56,41,37,57,,78,72,22,16,12,9,0.7,0.7
2025-04-07T1000,1001A,116.3621,39.8784,北京市,万寿西宫,细颗粒物(PM2.5),94,127,108,70,55,73,,82,74,69,39,15,14,1.1,0.9
2025-04-07T1000,1002A,116.2202,40.2915,北京市,定陵,,,,,,,,,,,,,,,,
2025-04-07T1000,1003A,116.4174,39.9289,北京市,东四,细颗粒物(PM2.5),147,124,119,112,65,82,,72,68,55,35,16,15,1.1,0.9
2025-04-07T1000,1004A,116.4072,39.8863,北京市,天坛,细颗粒物(PM2.5),89,113,104,66,54,79,,58,55,56,35,11,7,1.4,1.1
2025-04-07T1000,1005A,116.462,39.9365,北京市,农展馆,细颗粒物(PM2.5),90,116,106,67,55,71,,54,51,57,39,16,15,1.3,1
2025-04-07T1000,1006A,116.3392,39.9295,北京市,官园,细颗粒物(PM2.5),112,130,112,84,56,68,,62,56,54,34,15,14,1.0,0.8
2025-04-07T1000,1007A,116.2878,39.9611,北京市,海淀万柳,细颗粒物(PM2.5),88,122,103,65,50,72,,42,36,45,41,13,10,1.2,1
2025-04-07T1000,1008A,116.6636,40.135,北京市,顺义新城,颗粒物(PM10),83,116,108,55,50,108,,70,70,22,28,13,14,0.8,0.8
2025-04-07T1000,1009A,116.6275,40.3275,北京市,怀柔镇,细颗粒物(PM2.5),88,119,94,65,47,99,,89,88,24,20,10,9,0.7,0.6
2025-04-07T1000,1010A,116.2296,40.217,北京市,昌平镇,颗粒物(PM10),75,100,101,51,45,80,,85,76,34,27,7,7,0.7,0.6
2025-04-07T1000,1011A,116.3966,39.9821,北京市,奥体中心,细颗粒物(PM2.5),98,124,103,73,50,62,,48,40,66,48,11,11,1.2,1
2025-04-07T1000,3281A,115.9718,40.4529,北京市,延庆夏都,细颗粒物(PM2.5),128,124,96,97,53,77,,71,59,36,26,13,10,0.8,0.7
2025-04-07T1000,3418A,116.8336,40.4095,北京市,密云新城,细颗粒物(PM2.5),77,99,96,56,44,113,,78,78,15,21,11,11,0.7,0.7
2025-04-07T1000,3671A,116.088,39.9726,北京市,门头沟三家店,颗粒物(PM10),115,180,174,68,63,65,,26,26,46,52,11,8,0.9,0.7
2025-04-07T1000,3672A,116.1541,39.8204,北京市,丰台云岗,细颗粒物(PM2.5),98,133,112,73,60,76,,50,46,55,44,17,12,1.0,0.7
2025-04-07T1000,3673A,116.6804,39.9081,北京市,通州东关,,,,122,,51,,,56,,,42,,13,,0.7
2025-04-07T1000,3674A,115.9577,39.7603,北京市,房山燕山,细颗粒物(PM2.5),105,130,114,79,61,97,,51,51,43,38,23,8,0.9,0.6
2025-04-07T1000,3675A,116.4672,39.7733,北京市,大兴旧宫,细颗粒物(PM2.5),79,105,107,58,52,79,,47,45,48,38,7,6,0.9,0.7
2025-04-07T1000,3694A,115.986,40.4563,北京市,延庆石河营,细颗粒物(PM2.5),92,127,91,68,47,77,,64,54,36,25,11,8,0.8,0.7
2025-04-07T1000,3695A,116.6151,40.3053,北京市,怀柔新城,细颗粒物(PM2.5),83,105,88,61,44,97,,92,91,28,23,13,12,1.0,0.9
2025-04-07T1000,3696A,116.2545,39.8768,北京市,丰台小屯,细颗粒物(PM2.5),85,113,101,63,54,90,,65,63,35,36,12,9,0.8,0.7
2025-04-07T1000,3697A,116.84,40.3844,北京市,密云镇,细颗粒物(PM2.5),85,112,99,63,46,118,,59,59,21,27,13,11,0.8,0.7
2025-04-07T1000,4182A,116.1942,39.9158,北京市,八角北路9号,细颗粒物(PM2.5),94,131,112,70,49,79,,46,45,50,47,12,9,0.8,0.5
2025-04-07T1000,4194A,117.0790,40.1518,北京市,洳河巡河路,细颗粒物(PM2.5),84,99,93,62,47,87,,100,88,32,22,7,10,0.8,0.8
2025-04-07T1000,1761A,123.8275,41.3064,本溪市,大峪,,,40,64,26,44,93,,42,42,23,26,,10,,0.6
2025-04-07T1000,1762A,123.7567,41.3325,本溪市,溪湖,,43,43,66,18,46,118,,58,58,13,33,10,10,0.6,0.9
2025-04-07T1000,1763A,123.7169,41.3094,本溪市,彩屯,颗粒物(PM10),54,58,69,28,52,94,,44,44,28,35,19,12,2.4,1.5
2025-04-07T1000,1764A,123.7669,41.2864,本溪市,东明,颗粒物(PM10),54,58,66,20,35,111,,45,45,10,31,15,14,0.6,0.9
2025-04-07T1000,1765A,123.7992,41.2664,本溪市,新立屯,,35,33,47,15,40,111,,74,74,12,30,8,8,0.6,0.8
2025-04-07T1000,1766A,123.8142,41.3472,本溪市,威宁,颗粒物(PM10),81,112,82,47,52,96,,35,35,14,24,5,4,0.7,0.9
2025-04-07T1000,2587A,105.2864,27.3125,毕节市,八中,,26,,17,18,15,51,,25,25,9,9,15,15,0.7,0.7
2025-04-07T1000,2588A,105.31,27.2944,毕节市,师专,,28,20,18,19,15,50,,31,31,12,11,6,6,0.7,0.7
2025-04-07T1000,4263A,105.3688,27.3598,毕节市,工业大道,,26,19,19,18,16,50,,35,35,12,13,8,8,0.7,0.7
2025-04-07T1000,1629A,118.0018,37.3617,滨州市,第二水厂,颗粒物(PM10),109,168,122,51,35,92,,60,60,22,34,15,12,0.8,0.6
2025-04-07T1000,1630A,117.9776,37.393,滨州市,北中新校,颗粒物(PM10),86,122,107,48,42,98,,74,74,26,46,14,13,0.5,0.5
2025-04-07T1000,3514A,117.9378,37.3956,滨州市,中海酒店,颗粒物(PM10),92,134,98,51,40,97,,86,86,21,28,12,11,0.5,0.6
2025-04-07T1000,3515A,117.9378,37.3553,滨州市,开发区一中,颗粒物(PM10),111,171,122,44,35,91,,68,68,32,44,,14,0.5,0.4
2025-04-07T1000,3516A,118.0917,37.694,滨州市,金海六路,颗粒物(PM10),109,168,116,44,37,99,,53,53,24,36,20,11,0.7,0.6
2025-04-07T1000,4028A,117.9956,37.3753,滨州市,滨州市西街道办事处,颗粒物(PM10),102,153,122,56,51,104,,65,65,23,41,20,10,0.7,0.7
2025-04-07T1000,2311A,115.8072,33.8399,亳州市,污水处理厂,颗粒物(PM10),86,122,118,34,35,127,,118,118,13,12,6,5,0.5,0.4
2025-04-07T1000,2312A,115.7789,33.8518,亳州市,三国揽胜宫,颗粒物(PM10),79,107,111,33,36,131,,124,124,8,9,8,7,0.6,0.5
2025-04-07T1000,3332A,115.7633,33.8034,亳州市,亳州学院,颗粒物(PM10),85,119,113,35,31,128,,113,113,11,10,10,8,0.5,0.4
2025-04-07T1000,2693A,82.0485,44.8556,博尔塔拉蒙古自治州,市党校,,32,24,27,22,12,26,,47,37,34,28,2,2,0.2,0.3
2025-04-07T1000,2694A,82.0806,44.8969,博尔塔拉蒙古自治州,市环保局,,36,36,44,13,21,38,,47,43,19,17,2,3,0.5,0.4
2025-04-07T1000,1071A,116.8842,38.2991,沧州市,沧县城建局,细颗粒物(PM2.5),123,150,122,93,54,48,,43,42,52,42,8,9,0.8,0.7
2025-04-07T1000,1072A,116.8584,38.3254,沧州市,电视转播站,细颗粒物(PM2.5),132,149,113,100,63,51,,38,38,48,40,12,10,0.6,0.4
2025-04-07T1000,1073A,116.8709,38.3228,沧州市,市环保局,,,,112,,53,,,39,38,,37,11,11,0.7,0.5
2025-04-07T1000,3324A,116.8136,38.3004,沧州市,河北水利电力学院,颗粒物(PM10),112,173,133,78,57,58,,56,51,46,37,12,12,0.7,0.5
2025-04-07T1000,2622A,97.1806,31.1273,昌都市,昌都监测站,,28,28,22,15,12,66,,70,66,12,6,3,2,0.4,0.3
2025-04-07T1000,3719A,97.1714,31.1406,昌都市,昌都会议中心,,26,26,23,18,15,74,,77,72,10,6,3,3,0.3,0.2
2025-04-07T1000,2690A,88.1236,43.8886,昌吉回族自治州,天山天池,,30,6,13,3,4,93,,80,80,6,7,4,4,0.5,0.5
2025-04-07T1000,2692A,87.2717,44.0297,昌吉回族自治州,新区政务中心,,25,25,20,9,10,22,,34,34,38,23,6,5,0.9,0.4
2025-04-07T1000,3613A,87.3095,44.0142,昌吉回族自治州,亚心广场,,41,41,26,12,6,28,,22,22,48,32,10,7,1.2,0.6
2025-04-07T1000,1119A,125.3325,43.9166,长春市,食品厂,,,64,57,29,47,74,,51,51,14,25,,7,0.7,0.6
2025-04-07T1000,1120A,125.2863,43.9027,长春市,客车厂,,42,40,47,29,50,73,,52,52,16,24,5,5,0.7,0.6
2025-04-07T1000,1121A,125.2841,43.8463,长春市,邮电学院,,40,30,51,28,51,75,,46,46,13,23,6,6,0.5,0.5
2025-04-07T1000,1122A,125.3716,43.8772,长春市,劳动公园,,40,28,50,28,45,70,,47,47,13,21,7,7,0.6,0.5
2025-04-07T1000,1123A,125.3297,43.8805,长春市,园林处,,47,47,50,25,47,75,,50,50,13,21,7,6,0.6,0.6
2025-04-07T1000,1124A,125.4605,43.79,长春市,净月潭,,38,33,50,26,41,76,,43,43,9,15,6,6,0.6,0.6
2025-04-07T1000,1125A,125.7194,43.515,长春市,甩湾子,,,,,,,,,,,,,,,,
2025-04-07T1000,1126A,125.3863,43.8447,长春市,经开区环卫处,,38,38,52,26,45,72,,46,46,12,22,6,6,0.6,0.6
2025-04-07T1000,1127A,125.245,43.7783,长春市,高新区管委会,,43,,43,30,45,71,,46,46,11,22,8,7,0.6,0.6
2025-04-07T1000,1128A,125.1761,43.8325,长春市,岱山公园,,43,32,47,30,47,76,,48,48,14,26,5,4,0.5,0.5
2025-04-07T1000,1335A,113.0833,28.2325,长沙市,经开区环保局,,,,,,,,,,,,,,,,
2025-04-07T1000,1336A,112.8872,28.2189,长沙市,高开区环保局,颗粒物(PM10),73,95,112,52,51,71,,38,38,28,51,19,10,1.1,1.1
2025-04-07T1000,1337A,113.0792,28.2053,长沙市,马坡岭,颗粒物(PM10),67,84,110,46,50,61,,41,41,28,46,15,8,0.6,0.6
2025-04-07T1000,1338A,112.9394,28.19,长沙市,湖南师范大学,颗粒物(PM10),75,99,96,54,43,70,,48,48,30,27,12,9,0.8,0.9
2025-04-07T1000,1339A,113.0178,28.1322,长沙市,雨花区环保局,颗粒物(PM10),72,93,106,49,46,72,,19,19,31,49,14,10,0.8,0.8
2025-04-07T1000,1340A,112.9792,28.2597,长沙市,伍家岭,颗粒物(PM10),83,116,123,53,54,27,,5,5,55,50,6,6,1.0,1
2025-04-07T1000,1341A,113.0014,28.1944,长沙市,火车新站,颗粒物(PM10),86,121,134,51,64,40,,14,14,51,60,12,10,1.0,1.2
2025-04-07T1000,1342A,112.9844,28.1178,长沙市,天心区环保局,细颗粒物(PM2.5),74,96,108,54,55,83,,50,50,27,49,11,9,0.7,0.9
2025-04-07T1000,1343A,112.8908,28.1308,长沙市,湖南中医药大学,颗粒物(PM10),80,110,114,47,58,35,,7,7,47,52,10,7,1.0,1.1
2025-04-07T1000,1344A,112.9581,28.3611,长沙市,沙坪,颗粒物(PM10),68,85,69,45,43,56,,65,57,34,20,12,9,1.1,1
2025-04-07T1000,1727A,113.1147,36.1547,长治市,清华站,颗粒物(PM10),93,136,93,51,31,62,,36,36,47,29,11,9,1.1,0.7
2025-04-07T1000,1730A,113.0886,36.2125,长治市,审计局,颗粒物(PM10),96,141,88,44,33,57,,56,45,49,29,12,10,0.7,0.4
2025-04-07T1000,1731A,113.0844,36.1856,长治市,长治八中,颗粒物(PM10),126,202,112,86,39,49,,54,43,61,27,,9,0.9,0.5
2025-04-07T1000,2845A,113.1569,36.1911,长治市,德盛苑,颗粒物(PM10),86,122,88,44,30,73,,103,94,32,12,21,7,1.3,0.7
2025-04-07T1000,3568A,113.06,36.0464,长治市,向阳小学,,,118,100,35,34,,,96,94,24,16,14,12,0.9,0.5
2025-04-07T1000,3569A,112.8792,36.3144,长治市,屯留一中,颗粒物(PM10),90,129,96,62,37,54,,30,21,56,39,19,10,0.9,0.7
2025-04-07T1000,4189A,113.1131,36.19948,长治市,英华南巷50号,颗粒物(PM10),96,141,95,51,35,46,,66,55,60,23,10,7,0.9,0.5
2025-04-07T1000,4190A,113.2367,36.3344,长治市,学府街1号,细颗粒物(PM2.5),135,203,118,103,46,74,,18,18,48,41,41,10,2.2,0.7
2025-04-07T1000,1854A,111.6975,28.9703,常德市,市二中,颗粒物(PM10),67,84,90,40,41,44,,58,53,21,19,6,7,0.6,0.6
2025-04-07T1000,1857A,111.7158,29.1456,常德市,白鹤山,,,,,,,,,,,,,,,,
2025-04-07T1000,3138A,111.7153,29.0289,常德市,武陵区永安,颗粒物(PM10),72,93,105,37,41,64,,55,51,21,19,8,6,0.6,0.6
2025-04-07T1000,3139A,111.6892,28.9881,常德市,鼎城区玉霞,颗粒物(PM10),74,97,95,41,40,48,,42,42,20,22,5,5,0.7,0.6
2025-04-07T1000,3140A,111.6625,29.0531,常德市,武陵区长庚,颗粒物(PM10),73,96,101,38,41,65,,54,54,17,18,9,7,0.6,0.6
2025-04-07T1000,1196A,119.9633,31.762,常州市,市监测站,"颗粒物(PM10),细颗粒物(PM2.5)",79,108,119,58,58,147,,103,102,37,40,10,10,0.8,0.8
2025-04-07T1000,1200A,119.9468,31.7069,常州市,武进监测站,细颗粒物(PM2.5),85,112,105,63,47,145,,110,110,32,28,13,9,0.7,0.6
2025-04-07T1000,1201A,119.9255,31.9087,常州市,安家,细颗粒物(PM2.5),83,102,100,61,52,140,,116,113,29,28,11,10,0.3,0.3
2025-04-07T1000,3002A,119.9805,31.8174,常州市,行政中心,细颗粒物(PM2.5),83,99,91,61,50,139,,122,117,34,27,15,15,0.6,0.6
2025-04-07T1000,3003A,120.0522,31.7748,常州市,经开区,细颗粒物(PM2.5),83,114,104,61,51,145,,120,116,39,35,12,14,0.7,1
2025-04-07T1000,3010A,119.9025,31.7964,常州市,钟楼,细颗粒物(PM2.5),87,117,104,64,53,150,,128,125,29,24,15,10,0.9,0.9
2025-04-07T1000,3429A,119.8598,31.7066,常州市,武进经发区,细颗粒物(PM2.5),92,123,107,68,53,136,,110,108,37,31,10,12,1.1,1
2025-04-07T1000,3430A,119.5826,31.7245,常州市,金坛城区,颗粒物(PM10),85,120,99,55,44,133,,116,116,32,24,15,12,1.4,0.9
2025-04-07T1000,2220A,120.4318,41.5881,朝阳市,西梁,颗粒物(PM10),62,74,43,37,22,117,,91,91,23,14,19,13,1.2,0.8
2025-04-07T1000,2221A,120.4521,41.5646,朝阳市,河畔小区,颗粒物(PM10),57,64,38,38,23,118,,106,106,18,11,16,11,0.8,0.5
2025-04-07T1000,2222A,120.4176,41.5648,朝阳市,八里堡,颗粒物(PM10),58,66,39,34,21,116,,80,80,20,15,18,11,1.0,0.6
2025-04-07T1000,2223A,120.3806,41.5969,朝阳市,农业园区,颗粒物(PM10),64,77,51,32,31,132,,67,67,14,22,15,13,0.8,0.7
2025-04-07T1000,1705A,116.6367,23.6719,潮州市,西园路,,,,,,,,,,,,,,,,
2025-04-07T1000,3026A,116.6183,23.6608,潮州市,市政府,颗粒物(PM10),67,84,67,24,49,98,,42,42,16,27,5,9,0.7,0.9
2025-04-07T1000,4036A,116.6461,23.6761,潮州市,金山,颗粒物(PM10),61,72,59,28,52,80,,36,36,12,18,7,8,0.7,0.7
2025-04-07T1000,2472A,113.0073,25.9061,郴州市,马头岭,颗粒物(PM10),61,71,82,32,39,42,,25,25,34,26,8,7,0.9,0.9
2025-04-07T1000,2473A,113.0116,25.8226,郴州市,市职中,颗粒物(PM10),62,74,79,42,49,32,,14,14,32,27,13,8,0.8,0.7
2025-04-07T1000,2475A,113.0383,25.8071,郴州市,市审计局,颗粒物(PM10),62,73,80,39,52,40,,15,15,32,26,11,8,0.8,0.8
2025-04-07T1000,2476A,113.0348,25.7759,郴州市,市环保局,颗粒物(PM10),63,76,87,37,47,40,,32,31,28,26,10,9,0.6,0.7
2025-04-07T1000,4252A,113.0138,25.8011,郴州市,好美居路49号,细颗粒物(PM2.5),69,80,84,50,53,23,,11,11,38,34,8,6,1.0,0.9
2025-04-07T1000,1431A,103.9728,30.7236,成都市,金泉两河,颗粒物(PM10),64,77,63,34,24,66,,19,19,19,28,4,2,0.9,0.9
2025-04-07T1000,1432A,104.176,30.6872,成都市,十里店,颗粒物(PM10),54,58,63,24,30,50,,41,35,44,33,4,3,0.9,0.7
2025-04-07T1000,1433A,104.079,30.5706,成都市,三瓦窑,颗粒物(PM10),59,67,67,38,28,53,,14,13,43,41,10,4,0.8,0.6
2025-04-07T1000,1434A,104.1114,30.63,成都市,沙河铺,颗粒物(PM10),60,70,61,36,33,56,,24,24,25,24,6,5,1.0,0.8
2025-04-07T1000,1437A,104.0786,30.6531,成都市,君平街,细颗粒物(PM2.5),64,74,67,46,37,72,,42,42,25,31,12,6,0.9,0.8
2025-04-07T1000,1438A,103.613,31.0283,成都市,灵岩寺,,,,,,,,,,,,,,,,
2025-04-07T1000,2880A,104.0239,30.65639,成都市,大石西路,细颗粒物(PM2.5),73,73,67,53,36,53,,23,23,34,36,7,4,0.9,0.8
2025-04-07T1000,3136A,104.2725,30.5589,成都市,龙泉驿区区政府,颗粒物(PM10),54,58,50,29,23,71,,49,49,27,16,4,4,1.0,0.8
2025-04-07T1000,3357A,104.0106,30.6931,成都市,金博路,颗粒物(PM10),59,67,57,33,24,48,,25,20,34,28,10,7,0.7,0.5
2025-04-07T1000,3359A,104.0578,30.5225,成都市,华阳,"颗粒物(PM10),细颗粒物(PM2.5)",58,66,56,41,38,65,,26,26,29,30,8,6,0.8,0.8
2025-04-07T1000,3488A,104.3853,30.7453,成都市,青白江技师分院,颗粒物(PM10),51,51,59,23,27,86,,38,38,21,31,7,7,0.7,0.6
2025-04-07T1000,3489A,104.0789,30.4072,成都市,科学城,细颗粒物(PM2.5),55,57,50,39,29,80,,28,28,14,19,5,4,0.6,0.6
2025-04-07T1000,4011A,103.8506,30.6947,成都市,光华大道三段,颗粒物(PM10),56,62,64,37,33,62,,33,29,24,22,3,1,0.9,0.7
2025-04-07T1000,4224A,104.2433,30.5353,成都市,鲸龙路1057号,颗粒物(PM10),55,60,62,34,30,75,,31,31,34,34,4,4,1.0,0.9
2025-04-07T1000,1062A,117.9531,40.9081,承德市,铁路,颗粒物(PM10),75,100,74,52,31,81,,62,59,38,26,15,13,1.1,0.8
2025-04-07T1000,1063A,117.9392,40.9763,承德市,中国银行,颗粒物(PM10),78,106,72,54,32,86,,52,52,27,18,12,7,1.1,0.8
2025-04-07T1000,1064A,117.9503,40.928,承德市,开发区,颗粒物(PM10),73,95,76,50,30,104,,57,57,27,22,16,12,1.2,0.9
2025-04-07T1000,1065A,117.8051,40.9655,承德市,文化中心,颗粒物(PM10),94,138,87,37,37,80,,48,48,41,29,15,9,1.1,0.7
2025-04-07T1000,1066A,117.9268,41.0026,承德市,离宫,,,74,67,45,37,,,45,42,22,14,27,27,1.0,0.8
2025-04-07T1000,2314A,117.47,30.6618,池州市,池州学院,颗粒物(PM10),68,86,62,38,26,75,,66,59,22,19,6,8,0.6,0.5
2025-04-07T1000,3237A,117.4918,30.6617,池州市,展览馆,颗粒物(PM10),62,74,56,32,23,77,,55,55,26,18,7,6,0.9,0.7
2025-04-07T1000,3333A,117.5627,30.695,池州市,第八中学,颗粒物(PM10),56,61,57,25,21,87,,77,77,24,14,6,8,0.6,0.4
2025-04-07T1000,3334A,117.5038,30.6243,池州市,第十二中学,颗粒物(PM10),63,76,60,32,23,80,,56,56,19,23,7,7,0.7,0.6
2025-04-07T1000,1744A,118.9233,42.2816,赤峰市,松山一中,颗粒物(PM10),79,107,52,21,23,76,,72,72,14,31,12,14,0.4,0.7
2025-04-07T1000,1745A,118.9576,42.2728,赤峰市,哈达街,颗粒物(PM10),75,99,53,25,26,81,,76,76,17,25,10,11,0.4,0.7
2025-04-07T1000,1746A,118.8788,42.2554,赤峰市,天义路,颗粒物(PM10),67,84,43,20,25,86,,90,90,13,24,7,11,0.3,0.5
2025-04-07T1000,3058A,119.2658,42.0353,赤峰市,银河街,颗粒物(PM10),95,139,71,45,32,77,,66,66,14,22,18,30,0.3,0.6
2025-04-07T1000,3286A,118.9359,42.3147,赤峰市,桥北物流园区,颗粒物(PM10),69,88,57,46,43,73,,75,75,16,32,15,29,0.5,0.9
2025-04-07T1000,2521A,107.3476,22.4136,崇左市,市环保局江州分局,细颗粒物(PM2.5),77,81,111,56,75,73,,62,62,14,17,7,7,0.8,1
2025-04-07T1000,4256A,107.3750,22.3736,崇左市,石景林东路7号,细颗粒物(PM2.5),87,96,101,64,78,69,,64,64,20,17,8,7,1.0,1
2025-04-07T1000,2298A,118.3093,32.3153,滁州市,老年大学,颗粒物(PM10),74,97,78,38,30,119,,110,108,34,23,7,6,0.9,0.7
2025-04-07T1000,2299A,118.3244,32.2786,滁州市,人大宾馆,颗粒物(PM10),71,92,76,43,32,124,,98,97,36,26,15,12,0.8,0.7
2025-04-07T1000,3207A,118.3118,32.3038,滁州市,市政府原办公楼,颗粒物(PM10),67,84,69,42,31,114,,107,104,30,17,11,9,0.7,0.6
2025-04-07T1000,3331A,118.3267,32.2634,滁州市,图书馆,颗粒物(PM10),75,99,75,40,35,118,,100,97,28,20,14,11,0.7,0.6
2025-04-07T1000,2605A,101.5482,25.0441,楚雄彝族自治州,州环境监测站,细颗粒物(PM2.5),87,64,61,64,52,77,,90,76,25,14,8,8,0.9,0.7
2025-04-07T1000,2606A,101.538,25.0492,楚雄彝族自治州,市经济开发区,细颗粒物(PM2.5),85,65,64,63,54,84,,90,76,20,13,8,7,1.0,0.8
2025-04-07T1000,2548A,107.5277,31.2827,达州市,达州职业技术学院,颗粒物(PM10),62,73,64,30,30,39,,11,11,27,25,8,7,0.3,0.2
2025-04-07T1000,2549A,107.5086,31.2186,达州市,市环境监测站,颗粒物(PM10),60,70,69,31,30,30,,12,12,38,39,6,5,0.7,0.7
2025-04-07T1000,2550A,107.4988,31.2132,达州市,凤凰小区,颗粒物(PM10),64,78,69,29,33,39,,16,16,32,40,8,7,0.6,0.6
2025-04-07T1000,2551A,107.5082,31.1986,达州市,达县机关宾馆,颗粒物(PM10),63,75,75,40,32,24,,7,7,33,41,7,6,0.6,0.5
2025-04-07T1000,2552A,107.4644,31.2124,达州市,市政中心,颗粒物(PM10),68,85,78,34,31,24,,8,8,43,41,4,3,0.8,0.7
2025-04-07T1000,2614A,100.1542,25.7054,大理白族自治州,大理市环境监测站,,46,42,43,32,33,101,,107,100,16,11,8,7,0.9,0.9
2025-04-07T1000,2615A,100.2171,25.5811,大理白族自治州,大理古城,,46,46,43,32,36,107,,98,94,14,12,8,8,0.7,0.6
2025-04-07T1000,1109A,121.612,38.9741,大连市,甘井子,,45,39,49,31,31,97,,96,96,22,40,6,8,0.8,1
2025-04-07T1000,1110A,121.565,38.9511,大连市,周水子,细颗粒物(PM2.5),57,51,60,40,40,86,,82,82,21,35,8,9,0.5,0.4
2025-04-07T1000,1111A,121.5637,38.8845,大连市,星海三站,,47,47,45,32,31,89,,85,85,15,22,5,6,0.7,0.7
2025-04-07T1000,1112A,121.6302,38.9117,大连市,青泥洼桥,,43,43,61,27,34,92,,92,92,16,31,8,11,0.6,0.5
2025-04-07T1000,1113A,121.6251,38.8638,大连市,傅家庄,,38,34,37,26,26,96,,93,93,14,23,6,7,0.3,0.3
2025-04-07T1000,1114A,121.5213,38.8661,大连市,七贤岭,,45,42,50,31,30,96,,83,83,14,25,5,6,0.5,0.5
2025-04-07T1000,1115A,121.2529,38.8061,大连市,旅顺,细颗粒物(PM2.5),52,43,46,36,34,93,,92,92,26,29,6,8,0.5,0.5
2025-04-07T1000,1116A,121.7485,39.1311,大连市,金州,细颗粒物(PM2.5),57,58,98,40,41,85,,84,84,20,33,6,10,0.9,0.9
2025-04-07T1000,1117A,121.7811,39.0496,大连市,开发区,细颗粒物(PM2.5),54,50,61,38,38,85,,78,78,24,40,8,9,0.7,0.7
2025-04-07T1000,1118A,121.9762,39.0631,大连市,双D港,,39,33,29,27,22,91,,100,98,18,19,6,7,0.5,0.5
2025-04-07T1000,1789A,124.81117,46.03138,大庆市,大同区,细颗粒物(PM2.5),62,62,63,44,45,64,,42,42,14,20,5,5,0.7,0.7
2025-04-07T1000,1790A,125.129,46.533,大庆市,龙凤区,颗粒物(PM10),61,72,70,40,45,66,,49,49,14,23,10,9,0.6,0.7
2025-04-07T1000,1791A,124.902,46.408,大庆市,红岗区,细颗粒物(PM2.5),57,45,45,40,37,79,,52,52,9,16,7,6,0.5,0.6
2025-04-07T1000,1792A,125.153,46.586,大庆市,萨尔图区,细颗粒物(PM2.5),57,54,69,40,45,68,,55,55,18,25,8,8,0.5,0.7
2025-04-07T1000,1793A,124.9042,46.6215,大庆市,让胡路区,细颗粒物(PM2.5),59,55,51,42,42,67,,49,49,14,18,6,6,0.3,0.4
2025-04-07T1000,3481A,125.141,46.634,大庆市,萨区政府监测点,,,66,65,27,34,,,62,60,15,19,8,6,0.5,0.6
2025-04-07T1000,1721A,113.3819,40.1097,大同市,果树场,细颗粒物(PM2.5),64,58,102,46,31,83,,59,59,5,31,8,14,0.3,0.6
2025-04-07T1000,1723A,113.2994,40.0758,大同市,云冈宾馆,颗粒物(PM10),56,61,97,3,27,94,,64,64,8,27,8,13,0.4,0.7
2025-04-07T1000,1724A,113.3444,40.0917,大同市,大同大学,,,78,89,,35,,,56,56,6,26,15,21,0.5,0.6
2025-04-07T1000,1725A,113.2661,40.1269,大同市,安家小村,颗粒物(PM10),64,78,100,19,30,90,,67,67,4,18,9,15,0.4,1.2
2025-04-07T1000,1726A,113.2711,40.0844,大同市,教育学院,颗粒物(PM10),77,103,97,18,41,90,,65,65,9,22,7,12,0.4,0.8
2025-04-07T1000,3282A,113.3397,40.0597,大同市,大同市卫生学校,颗粒物(PM10),66,82,92,26,32,84,,64,64,10,30,7,12,0.7,0.7
2025-04-07T1000,3565A,113.1367,40.1122,大同市,云冈站,颗粒物(PM10),81,112,92,17,36,90,,64,64,8,17,12,18,0.5,0.4
2025-04-07T1000,3566A,113.1186,40.2556,大同市,图书馆,颗粒物(PM10),62,73,85,20,30,84,,55,55,6,11,11,11,0.5,0.5
2025-04-07T1000,3567A,113.5931,40.0461,大同市,区一中,颗粒物(PM10),105,159,109,34,35,68,,41,41,35,28,21,21,0.6,0.7
2025-04-07T1000,4199A,113.2798,40.0997,大同市,魏都大道141号,颗粒物(PM10),89,128,112,25,37,94,,67,67,8,26,11,16,0.4,0.8
2025-04-07T1000,2269A,124.1069,50.4097,大兴安岭地区,科技局,细颗粒物(PM2.5),57,58,42,40,28,78,,82,79,10,8,8,8,0.6,0.5
2025-04-07T1000,3663A,124.1164,50.4278,大兴安岭地区,红旗社区,,50,44,29,35,21,82,,52,52,11,14,5,6,0.6,0.5
2025-04-07T1000,1600A,124.3303,40.0625,丹东市,江湾东路,,50,46,41,35,35,83,,35,35,12,21,14,10,0.8,0.9
2025-04-07T1000,1601A,124.4256,40.1503,丹东市,临江后街,,,54,44,41,31,61,,30,30,,18,14,10,1.0,0.9
2025-04-07T1000,1602A,124.3933,40.1461,丹东市,元宝山,,50,50,43,33,31,64,,25,25,27,23,10,7,0.8,0.7
2025-04-07T1000,1603A,124.3633,40.1092,丹东市,民主桥,细颗粒物(PM2.5),54,55,44,38,34,73,,31,31,18,23,14,9,1.0,0.9
2025-04-07T1000,3541A,109.5726,19.5167,儋州市,第一中学子站,,,10,12,7,7,,,53,50,5,6,4,4,0.6,0.6
2025-04-07T1000,3542A,109.5567,19.5187,儋州市,东坡学校子站,,23,21,13,6,6,72,,58,58,4,6,3,4,0.5,0.5
2025-04-07T1000,2616A,98.5842,24.428,德宏傣族景颇族自治州,德宏州监测站,细颗粒物(PM2.5),93,102,96,69,75,35,,37,29,46,32,13,12,1.0,1
2025-04-07T1000,3677A,98.5881,24.4368,德宏傣族景颇族自治州,芒市人民政府综合楼,细颗粒物(PM2.5),97,91,117,72,70,34,,76,63,43,19,11,9,1.0,0.8
2025-04-07T1000,1901A,104.4239,31.1208,德阳市,东山公园,颗粒物(PM10),57,63,60,38,32,78,,64,64,14,15,5,4,0.8,0.7
2025-04-07T1000,1902A,104.3826,31.1317,德阳市,西小区,颗粒物(PM10),71,91,79,37,38,68,,36,36,24,31,5,5,0.8,0.7
2025-04-07T1000,1904A,104.3553,31.1091,德阳市,耐火材料厂,颗粒物(PM10),64,78,78,39,36,70,,28,28,25,32,6,6,0.6,0.5
2025-04-07T1000,3639A,104.4019,31.1244,德阳市,市教育局,细颗粒物(PM2.5),64,74,65,46,34,65,,41,41,24,28,5,5,0.8,0.7
2025-04-07T1000,1622A,116.3032,37.4674,德州市,儿童乐园,颗粒物(PM10),120,190,142,75,42,76,,86,77,32,18,48,12,0.9,0.6
2025-04-07T1000,1624A,116.2991,37.4451,德州市,监理站,颗粒物(PM10),103,156,137,75,44,74,,80,72,24,18,22,18,0.5,0.5
2025-04-07T1000,3066A,116.2721,37.4379,德州市,九衢泉纯净水厂,颗粒物(PM10),98,146,128,53,40,73,,72,65,29,28,13,12,0.7,0.7
2025-04-07T1000,3371A,116.3728,37.4403,德州市,开发区人民医院,颗粒物(PM10),103,156,140,53,51,80,,87,81,21,17,16,10,0.8,0.7
2025-04-07T1000,3372A,116.3572,37.4094,德州市,太阳城中学,颗粒物(PM10),100,149,133,58,43,78,,77,71,20,19,11,9,0.6,0.5
2025-04-07T1000,3511A,116.5652,37.3319,德州市,陵城艺术中心,颗粒物(PM10),91,132,129,53,40,73,,88,78,27,24,7,8,0.7,0.7
2025-04-07T1000,2621A,99.7056,27.8317,迪庆藏族自治州,迪庆州站,颗粒物(PM10),66,81,52,41,29,99,,95,89,19,11,12,11,0.7,0.5
2025-04-07T1000,3180A,99.7136,27.8094,迪庆藏族自治州,质量技术监督局,颗粒物(PM10),54,58,41,28,26,93,,100,88,24,13,16,11,0.8,0.7
2025-04-07T1000,4257A,104.6092,35.5962,定西市,将台街,颗粒物(PM10),52,53,76,25,28,76,,61,52,18,16,6,6,0.4,0.4
2025-04-07T1000,4309A,104.6159,35.5701,定西市,正龙路62号,,49,49,73,33,30,90,,79,72,7,9,10,9,0.1,0.3
2025-04-07T1000,1389A,113.7547,23.0494,东莞市,莞城梨川,细颗粒物(PM2.5),93,108,99,69,57,39,,10,10,42,53,8,6,0.8,0.8
2025-04-07T1000,1390A,113.7944,23.0128,东莞市,东城石井,细颗粒物(PM2.5),84,90,71,62,45,53,,13,13,42,29,12,7,0.9,0.9
2025-04-07T1000,1391A,113.7383,22.9658,东莞市,南城西平,细颗粒物(PM2.5),85,96,82,63,47,37,,8,8,61,52,11,9,0.9,0.9
2025-04-07T1000,3319A,113.7338,23.0381,东莞市,万江金泰,细颗粒物(PM2.5),82,92,90,60,51,48,,11,11,36,52,11,8,0.9,1
2025-04-07T1000,3626A,113.7533,23.0202,东莞市,南城元岭,细颗粒物(PM2.5),83,98,94,61,51,50,,12,12,39,52,8,7,1.0,1
2025-04-07T1000,3627A,113.7875,23.0457,东莞市,东城主山,细颗粒物(PM2.5),83,106,99,61,52,44,,10,10,57,56,5,5,0.9,1
2025-04-07T1000,1666A,118.6614,37.4309,东营市,市环保局,颗粒物(PM10),89,127,95,31,32,94,,63,63,32,36,14,13,0.7,0.6
2025-04-07T1000,3036A,118.6904,37.4338,东营市,开发区管委会,颗粒物(PM10),89,127,103,46,36,87,,77,77,41,38,18,12,0.9,0.8
2025-04-07T1000,3365A,118.5719,37.565,东营市,垦利区民丰路,颗粒物(PM10),100,149,98,44,33,120,,68,68,30,35,10,8,0.9,0.8
2025-04-07T1000,3498A,118.5055,37.8612,东营市,河口城区,颗粒物(PM10),102,153,109,51,35,114,,58,58,35,31,17,10,1.1,1
2025-04-07T1000,3646A,118.4978,37.4623,东营市,胜利站,颗粒物(PM10),92,134,102,44,36,102,,62,62,42,42,15,13,1.0,0.9
2025-04-07T1000,3734A,118.35,37.26,东营市,理想之城,颗粒物(PM10),93,136,100,39,33,99,,55,55,34,42,16,17,0.8,0.7
2025-04-07T1000,1591A,110.0023,39.8129,鄂尔多斯市,综合楼,颗粒物(PM10),87,124,133,39,40,62,,72,66,28,17,9,6,0.3,0.3
2025-04-07T1000,1592A,109.9486,39.8261,鄂尔多斯市,巴音孟克林场办事处,颗粒物(PM10),84,117,121,22,34,72,,73,67,20,14,9,7,0.4,0.3
2025-04-07T1000,1593A,109.7736,39.5986,鄂尔多斯市,康泽苑,颗粒物(PM10),84,117,111,29,32,64,,70,67,20,9,10,4,0.4,0.2
2025-04-07T1000,1594A,109.8119,39.5989,鄂尔多斯市,华泰汽车城,颗粒物(PM10),85,119,114,22,32,62,,46,46,20,16,10,5,0.5,0.4
2025-04-07T1000,1595A,109.9734,39.7884,鄂尔多斯市,奥林花园,,,,130,,36,68,,72,68,22,21,9,10,0.4,0.3
2025-04-07T1000,2436A,114.8938,30.3994,鄂州市,市政府,颗粒物(PM10),67,84,88,39,38,60,,51,43,34,28,13,12,0.9,0.9
2025-04-07T1000,2437A,114.8989,30.3714,鄂州市,赵家坝,颗粒物(PM10),66,82,95,36,36,47,,47,43,37,27,13,9,1.1,0.9
2025-04-07T1000,3654A,114.8094,30.4089,鄂州市,精准医疗中心,颗粒物(PM10),83,116,98,53,43,44,,35,34,66,37,33,11,1.4,0.8
2025-04-07T1000,2454A,109.4978,30.2981,恩施土家族苗族自治州,湖北民院,细颗粒物(PM2.5),53,54,70,37,35,42,,35,34,24,16,1,1,0.4,0.4
2025-04-07T1000,2455A,109.4707,30.2798,恩施土家族苗族自治州,州电力总公司,颗粒物(PM10),60,69,73,41,36,30,,20,18,26,17,6,5,0.3,0.2
2025-04-07T1000,3549A,109.5061,30.3772,恩施土家族苗族自治州,龙凤新区,细颗粒物(PM2.5),54,53,71,38,33,39,,15,15,18,14,6,6,0.5,0.4
2025-04-07T1000,2499A,108.3411,21.6158,防城港市,沙万,细颗粒物(PM2.5),72,92,82,52,57,49,,40,40,25,25,2,3,0.7,0.7
2025-04-07T1000,2500A,108.3514,21.7731,防城港市,防城档案局,细颗粒物(PM2.5),87,95,96,64,64,43,,15,15,28,27,1,2,0.8,0.9
2025-04-07T1000,2501A,108.3506,21.6414,防城港市,大海花园,细颗粒物(PM2.5),72,91,82,52,59,53,,46,46,21,16,3,5,1.1,1.1
2025-04-07T1000,1371A,113.1294,23.0067,佛山市,湾梁,颗粒物(PM10),103,156,117,68,54,30,,9,9,87,73,10,9,1.3,1.1
2025-04-07T1000,1372A,113.1083,23.0478,佛山市,华材职中,颗粒物(PM10),104,158,109,73,58,16,,6,6,122,81,9,8,1.2,1.1
2025-04-07T1000,1373A,113.144,23.0453,佛山市,南海气象局,颗粒物(PM10),96,141,105,68,56,18,,4,4,70,56,9,7,1.1,1.1
2025-04-07T1000,1374A,113.2881,22.8094,佛山市,顺德苏岗,颗粒物(PM10),83,116,81,58,47,31,,5,5,74,59,8,6,1.0,1
2025-04-07T1000,1376A,112.8383,22.8678,佛山市,高明孔堂,细颗粒物(PM2.5),107,129,86,80,52,24,,17,16,69,36,28,10,1.0,0.8
2025-04-07T1000,1377A,112.8836,23.1588,佛山市,三水监测站,细颗粒物(PM2.5),138,151,121,105,67,30,,7,7,83,71,12,7,1.1,1
2025-04-07T1000,1378A,112.867,23.185,佛山市,三水云东海,细颗粒物(PM2.5),153,154,102,117,76,30,,5,5,90,59,19,6,1.0,0.9
2025-04-07T1000,3625A,113.2544,22.7642,佛山市,容桂街道办,颗粒物(PM10),80,110,100,58,57,44,,7,7,68,74,9,7,1.1,1.1
2025-04-07T1000,1280A,119.3903,26.0543,福州市,鼓山,,,,56,,21,,,119,,,4,,1,,0.5
2025-04-07T1000,1282A,119.2681,26.0504,福州市,师大,颗粒物(PM10),60,69,56,30,27,118,,84,84,11,14,5,5,0.4,0.4
2025-04-07T1000,1283A,119.2984,26.1028,福州市,五四北路,颗粒物(PM10),60,70,57,32,30,120,,77,77,17,22,5,4,0.6,0.5
2025-04-07T1000,1284A,119.2648,26.0768,福州市,杨桥西路,颗粒物(PM10),61,71,62,29,27,113,,72,72,16,20,6,5,0.6,0.5
2025-04-07T1000,1285A,119.317,26.0746,福州市,紫阳,颗粒物(PM10),73,96,65,33,31,68,,62,62,54,32,6,5,0.6,0.4
2025-04-07T1000,3048A,119.5799,26.0936,福州市,九龙,颗粒物(PM10),57,64,41,27,22,130,,69,69,10,14,8,5,0.6,0.4
2025-04-07T1000,3526A,119.5189,25.9664,福州市,吴航,颗粒物(PM10),59,67,47,35,26,89,,44,44,29,20,6,4,0.5,0.5
2025-04-07T1000,1755A,123.7977,41.8491,抚顺市,望花区,颗粒物(PM10),63,75,62,25,54,104,,44,44,21,25,16,11,0.8,0.7
2025-04-07T1000,1756A,123.9161,41.8822,抚顺市,顺城区,颗粒物(PM10),53,56,61,24,46,80,,42,42,24,26,10,8,0.7,0.7
2025-04-07T1000,1757A,124.0436,41.8611,抚顺市,东洲区,,32,29,54,16,46,101,,46,46,13,20,7,6,0.6,0.8
2025-04-07T1000,1758A,123.9247,41.8642,抚顺市,新抚区,,47,47,55,21,39,77,,37,37,19,25,7,6,0.7,0.8
2025-04-07T1000,1759A,124.0972,41.8961,抚顺市,大伙房水库,,30,22,48,21,45,91,,57,57,7,13,7,7,0.6,0.6
2025-04-07T1000,1760A,123.7086,41.8391,抚顺市,沈抚新城,颗粒物(PM10),58,65,83,23,51,113,,38,38,16,36,12,16,0.6,1.6
2025-04-07T1000,2376A,116.2127,28.0814,抚州市,桐源党溪,颗粒物(PM10),61,71,64,35,31,91,,48,48,2,4,11,8,0.5,0.5
2025-04-07T1000,2377A,116.3544,27.9831,抚州市,市站,颗粒物(PM10),56,61,70,25,29,63,,59,59,22,16,8,12,0.9,0.9
2025-04-07T1000,2378A,116.3565,27.963,抚州市,血防站,颗粒物(PM10),59,68,66,29,30,45,,45,44,27,15,4,7,1.3,1.1
2025-04-07T1000,2379A,116.3564,28.0007,抚州市,采茶剧团,颗粒物(PM10),57,64,68,35,31,58,,48,48,14,12,2,5,1.1,1
2025-04-07T1000,2380A,116.385,27.9647,抚州市,医学分院,颗粒物(PM10),56,62,68,28,27,60,,48,48,16,14,4,8,1.1,1.1
2025-04-07T1000,2207A,121.6094,41.998,阜新市,工业园区,细颗粒物(PM2.5),70,79,64,51,49,108,,64,64,20,23,16,15,0.6,0.6
2025-04-07T1000,2208A,121.6697,42.0279,阜新市,长青街,细颗粒物(PM2.5),64,66,48,46,52,113,,75,75,21,16,14,12,0.7,0.7
2025-04-07T1000,2209A,121.6673,42.0705,阜新市,农业园区,颗粒物(PM10),74,97,62,51,43,109,,80,80,19,14,14,12,0.7,0.7
2025-04-07T1000,2210A,121.6717,42.0224,阜新市,东苑,,,92,62,49,52,104,,72,69,,18,16,15,,0.7
2025-04-07T1000,2211A,121.6506,42.0498,阜新市,玉龙新城,细颗粒物(PM2.5),64,65,64,46,49,105,,45,45,20,22,15,11,0.8,0.7
2025-04-07T1000,2301A,115.8277,32.8929,阜阳市,市监测站,颗粒物(PM10),67,83,93,38,36,105,,102,94,24,18,9,9,0.6,0.6
2025-04-07T1000,2303A,115.8554,32.8605,阜阳市,开发区,颗粒物(PM10),75,100,127,33,34,101,,95,93,21,20,8,9,0.4,0.4
2025-04-07T1000,2875A,115.784,32.8892,阜阳市,阜阳职业技术学院,颗粒物(PM10),63,76,103,32,35,105,,116,111,21,16,8,8,0.3,0.3
2025-04-07T1000,3468A,115.7901,32.8613,阜阳市,市规划展馆,颗粒物(PM10),81,112,106,40,34,102,,120,111,16,11,9,8,0.4,0.4
2025-04-07T1000,3469A,115.836,32.9183,阜阳市,枣园社区,颗粒物(PM10),82,113,107,42,40,114,,109,102,24,23,9,8,0.6,0.4
2025-04-07T1000,2669A,102.9099,34.9841,甘南藏族自治州,州政府,颗粒物(PM10),57,63,60,39,32,46,,37,37,25,23,7,7,0.5,0.4
2025-04-07T1000,3380A,102.8914,34.9617,甘南藏族自治州,甘肃民族师范学院,,49,,38,34,26,35,,30,30,37,31,8,8,0.6,0.5
2025-04-07T1000,2570A,101.9603,30.0475,甘孜藏族自治州,水桥子,,43,43,17,3,8,28,,20,20,36,23,4,3,0.4,0.3
2025-04-07T1000,3065A,101.9533,29.9972,甘孜藏族自治州,州环保局,,48,48,22,8,5,62,,60,60,25,13,5,4,0.3,0.2
2025-04-07T1000,3414A,115.8347,28.932,赣江新区,桑海产业园,颗粒物(PM10),71,92,86,33,28,45,,31,31,44,41,8,9,0.6,0.5
2025-04-07T1000,2362A,114.9017,25.9149,赣州市,通天岩,颗粒物(PM10),51,52,56,10,12,122,,72,72,3,5,24,17,0.8,0.8
2025-04-07T1000,2363A,114.9367,25.8664,赣州市,地委,颗粒物(PM10),55,60,67,38,38,42,,17,17,30,34,7,6,1.1,1.1
2025-04-07T1000,2364A,114.9461,25.8481,赣州市,气象台,颗粒物(PM10),59,68,72,37,35,41,,23,23,43,40,13,10,0.6,0.6
2025-04-07T1000,2365A,114.9322,25.8333,赣州市,市图书馆,颗粒物(PM10),65,80,73,45,37,52,,30,30,35,34,10,6,0.7,0.7
2025-04-07T1000,2366A,114.8905,25.8471,赣州市,华坚鞋城,颗粒物(PM10),59,68,79,35,41,68,,32,32,25,35,20,15,0.6,0.6
2025-04-07T1000,3109A,115.0093,25.8613,赣州市,赣县区卫计委,颗粒物(PM10),60,69,59,38,35,53,,29,29,24,24,20,6,0.4,0.4
2025-04-07T1000,2683A,106.2319,36.1417,固原市,马园,细颗粒物(PM2.5),75,92,134,55,47,70,,47,47,27,40,7,6,0.6,0.5
2025-04-07T1000,2684A,106.2792,36.0022,固原市,监测站,颗粒物(PM10),68,86,121,28,39,77,,79,73,24,24,7,7,0.4,0.4
2025-04-07T1000,2685A,106.2375,36.0211,固原市,新区,颗粒物(PM10),66,82,114,26,34,89,,72,70,16,30,7,6,0.5,0.5
2025-04-07T1000,3522A,106.2177,35.9959,固原市,原州区十五小,颗粒物(PM10),69,87,108,31,37,81,,91,86,21,14,8,8,0.4,0.3
2025-04-07T1000,2543A,106.6308,30.5278,广安市,小平旧居,,,,,,,,,,,,,,,,
2025-04-07T1000,2544A,106.6303,30.4576,广安市,市委,细颗粒物(PM2.5),77,98,80,56,47,64,,37,36,15,27,8,5,0.5,0.6
2025-04-07T1000,2545A,106.6271,30.4663,广安市,友谊中学,颗粒物(PM10),74,97,69,51,39,40,,29,29,28,26,5,2,0.8,0.7
2025-04-07T1000,2547A,106.6388,30.4551,广安市,广电花园,颗粒物(PM10),82,114,75,55,44,22,,27,24,40,28,10,8,0.7,0.6
2025-04-07T1000,2902A,106.6351,30.4865,广安市,北辰小学,颗粒物(PM10),72,93,62,47,34,31,,16,15,29,19,7,6,1.0,0.8
2025-04-07T1000,2523A,105.8945,32.4535,广元市,黑石坡,,,,66,,16,,,74,,,9,,2,,0.3
2025-04-07T1000,2524A,105.821,32.4444,广元市,老城,颗粒物(PM10),69,87,59,40,22,42,,20,20,32,36,15,2,1.1,0.7
2025-04-07T1000,2526A,105.8628,32.4287,广元市,监测站,颗粒物(PM10),58,66,46,35,23,34,,52,44,44,14,16,6,0.8,0.4
2025-04-07T1000,3617A,105.8047,32.4166,广元市,经开区,细颗粒物(PM2.5),80,93,72,59,36,44,,15,15,34,38,43,8,1.4,0.7
2025-04-07T1000,1345A,113.2347,23.1423,广州市,广雅中学,细颗粒物(PM2.5),90,118,118,67,61,29,,7,7,83,78,6,6,0.9,0.9
2025-04-07T1000,1346A,113.2612,23.105,广州市,市五中,颗粒物(PM10),90,129,114,54,56,39,,8,8,69,74,4,3,0.9,1
2025-04-07T1000,1348A,113.3478,23.0916,广州市,广东商学院,细颗粒物(PM2.5),94,107,96,70,55,18,,4,4,84,69,7,6,0.9,0.9
2025-04-07T1000,1349A,113.4332,23.1047,广州市,市八十六中,颗粒物(PM10),89,127,103,61,45,16,,6,6,83,72,7,5,1.1,1.1
2025-04-07T1000,1350A,113.3505,22.9483,广州市,番禺中学,细颗粒物(PM2.5),89,111,97,66,53,27,,7,7,86,69,8,5,0.9,1
2025-04-07T1000,1351A,113.2146,23.3916,广州市,花都师范,细颗粒物(PM2.5),100,142,111,75,58,41,,9,9,82,74,9,7,1.0,0.9
2025-04-07T1000,1352A,113.2597,23.1331,广州市,市监测站,颗粒物(PM10),78,105,102,56,54,46,,,,63,77,9,7,0.7,0.8
2025-04-07T1000,1353A,113.5618,23.312,广州市,九龙镇镇龙,细颗粒物(PM2.5),89,106,75,66,41,30,,5,5,57,35,7,5,0.8,0.7
2025-04-07T1000,1354A,113.2765,23.1544,广州市,麓湖,细颗粒物(PM2.5),73,90,81,53,48,47,,9,9,59,58,5,4,0.8,0.9
2025-04-07T1000,1355A,113.443,23.3035,广州市,帽峰山森林公园,颗粒物(PM10),69,88,55,36,24,50,,22,22,60,31,8,4,0.8,0.6
2025-04-07T1000,2846A,113.3221,23.1322,广州市,体育西,细颗粒物(PM2.5),85,116,106,63,55,26,,6,6,62,56,7,5,1.0,0.9
2025-04-07T1000,3298A,113.5717,23.5491,广州市,从化街口,细颗粒物(PM2.5),69,76,70,50,45,38,,8,8,23,27,9,8,0.8,0.8
2025-04-07T1000,3299A,113.3472,23.3692,广州市,白云竹料,细颗粒物(PM2.5),100,141,105,75,56,33,,12,12,55,45,9,8,0.9,0.8
2025-04-07T1000,3300A,113.2981,23.237,广州市,白云嘉禾,细颗粒物(PM2.5),120,159,112,91,60,20,,3,3,92,72,7,6,0.9,0.9
2025-04-07T1000,3301A,113.4256,23.1716,广州市,黄埔科学城,细颗粒物(PM2.5),78,86,77,57,43,54,,10,10,56,43,10,5,0.8,0.7
2025-04-07T1000,3302A,113.3942,23.0483,广州市,番禺大学城,细颗粒物(PM2.5),94,131,100,70,50,18,,2,2,83,72,12,10,0.8,0.8
2025-04-07T1000,3303A,113.4922,22.8168,广州市,南沙黄阁,颗粒物(PM10),92,133,92,67,53,32,,10,10,89,65,14,9,1.1,1.1
2025-04-07T1000,3304A,113.5342,22.7896,广州市,南沙街,细颗粒物(PM2.5),79,102,80,58,48,39,,13,13,82,54,8,7,0.9,0.8
2025-04-07T1000,3443A,113.2902,23.5544,广州市,花都梯面,细颗粒物(PM2.5),82,94,76,60,50,63,,12,12,42,38,8,7,0.8,0.8
2025-04-07T1000,3445A,113.7858,23.7478,广州市,从化良口,,33,31,43,23,30,27,,18,18,10,11,6,6,0.6,0.6
2025-04-07T1000,3446A,113.8051,23.2614,广州市,增城荔城,细颗粒物(PM2.5),73,74,68,53,45,60,,25,25,19,22,10,8,0.5,0.5
2025-04-07T1000,2505A,109.568,23.1478,贵港市,德智高中,,,,,,,,,,,,,,,,
2025-04-07T1000,2506A,109.6047,23.0666,贵港市,江南子站,细颗粒物(PM2.5),88,100,100,65,58,54,,43,42,31,30,14,9,1.3,0.9
2025-04-07T1000,2508A,109.5669,23.1065,贵港市,荷城子站,细颗粒物(PM2.5),85,115,89,63,50,49,,51,44,33,29,13,8,0.5,0.4
2025-04-07T1000,3405A,109.5886,23.1172,贵港市,新世纪学校,细颗粒物(PM2.5),97,112,91,72,57,47,,56,49,32,25,12,8,1.1,1
2025-04-07T1000,4260A,109.5933,23.0951,贵港市,中山路155-3号,细颗粒物(PM2.5),89,114,89,66,52,45,,57,49,36,28,14,11,0.9,0.9
2025-04-07T1000,1439A,106.6899,26.5998,贵阳市,马鞍山,细颗粒物(PM2.5),55,48,63,39,40,16,,17,14,18,13,4,5,0.8,0.6
2025-04-07T1000,1441A,106.6243,26.6266,贵阳市,鉴湖路,颗粒物(PM10),53,56,73,34,40,49,,43,43,15,15,15,9,0.6,0.5
2025-04-07T1000,1442A,106.7487,26.6343,贵阳市,燕子冲,,,73,72,,51,,,26,22,27,18,11,4,0.8,0.5
2025-04-07T1000,1443A,106.6555,26.4365,贵阳市,碧云窝,细颗粒物(PM2.5),62,53,83,44,45,38,,28,28,18,21,6,7,0.6,0.6
2025-04-07T1000,1445A,106.7109,26.6027,贵阳市,红边门,细颗粒物(PM2.5),73,68,76,53,49,14,,34,24,32,17,6,6,0.9,0.6
2025-04-07T1000,1446A,106.7164,26.5699,贵阳市,新华路,细颗粒物(PM2.5),67,70,78,48,47,24,,36,28,26,16,8,9,0.7,0.6
2025-04-07T1000,1447A,106.674,26.5424,贵阳市,太慈桥,,,48,70,39,42,30,,22,22,15,21,,6,0.6,0.6
2025-04-07T1000,1552A,106.805,26.3003,贵阳市,桐木岭,,,,90,56,56,73,,56,53,4,9,1,2,0.8,0.7
2025-04-07T1000,4230A,106.6882,26.5695,贵阳市,花果园大街66号,细颗粒物(PM2.5),65,,68,47,55,24,,30,24,22,20,6,6,0.7,0.7
2025-04-07T1000,4231A,106.6873,26.5169,贵阳市,漓江路57号,细颗粒物(PM2.5),62,56,79,44,49,33,,37,32,22,20,11,11,0.5,0.5
2025-04-07T1000,1862A,110.4144,25.3167,桂林市,电子科大尧山校区,,,,,,,,,,,,,,,,
2025-04-07T1000,1864A,110.3089,25.2708,桂林市,龙隐路小学,细颗粒物(PM2.5),123,118,92,93,67,14,,17,17,33,31,43,17,1.2,1.1
2025-04-07T1000,1865A,110.2869,25.2178,桂林市,八中,细颗粒物(PM2.5),99,109,102,74,66,15,,16,14,36,32,12,13,0.8,0.8
2025-04-07T1000,3531A,110.296,25.1253,桂林市,旅游学院,细颗粒物(PM2.5),104,105,88,78,64,16,,15,12,36,29,9,10,0.7,0.6
2025-04-07T1000,4222A,110.1835,25.2444,桂林市,环湖路276号,细颗粒物(PM2.5),85,110,105,63,67,4,,8,5,37,38,17,26,0.6,0.5
2025-04-07T1000,4301A,110.2803,25.2773,桂林市,信义路13号,细颗粒物(PM2.5),125,130,96,95,73,10,,14,14,44,36,46,19,1.3,1.1
2025-04-07T1000,2674A,100.2561,34.4714,果洛藏族自治州,玛沁县大武镇,颗粒物(PM10),56,62,62,17,24,81,,58,58,4,4,16,14,0.5,0.4
2025-04-07T1000,1129A,126.5422,45.755,哈尔滨市,岭北,细颗粒物(PM2.5),79,60,55,58,50,74,,54,52,21,24,24,21,1.1,1.1
2025-04-07T1000,1130A,126.561,45.8167,哈尔滨市,松北商大,细颗粒物(PM2.5),77,66,54,56,43,62,,46,42,18,23,8,9,0.9,0.8
2025-04-07T1000,1131A,126.979,45.5419,哈尔滨市,阿城会宁,细颗粒物(PM2.5),62,67,42,44,35,68,,51,51,15,13,10,11,0.7,0.6
2025-04-07T1000,1132A,126.599,45.7222,哈尔滨市,南岗学府路,,,88,71,48,42,,,33,24,20,29,10,8,0.8,0.8
2025-04-07T1000,1133A,126.689,45.7733,哈尔滨市,太平宏伟公园,细颗粒物(PM2.5),68,67,55,49,51,63,,37,37,18,25,6,5,0.9,0.9
2025-04-07T1000,1134A,126.635,45.7667,哈尔滨市,道外承德广场,细颗粒物(PM2.5),79,75,59,58,52,58,,38,35,22,34,8,8,0.5,0.5
2025-04-07T1000,1135A,126.685,45.7319,哈尔滨市,香坊红旗大街,颗粒物(PM10),65,80,63,40,50,63,,37,37,21,33,10,10,0.7,0.7
2025-04-07T1000,1136A,126.6411,45.7258,哈尔滨市,动力和平路,细颗粒物(PM2.5),79,102,64,58,55,61,,38,36,20,28,10,9,0.8,0.6
2025-04-07T1000,1137A,126.593,45.7478,哈尔滨市,道里建国路,细颗粒物(PM2.5),82,78,59,60,54,60,,35,29,23,31,14,14,1.0,0.8
2025-04-07T1000,1138A,126.615,45.61,哈尔滨市,平房东轻厂,细颗粒物(PM2.5),57,62,56,40,41,66,,47,43,10,15,10,9,0.8,0.7
2025-04-07T1000,1139A,126.595,45.9855,哈尔滨市,呼兰师专,细颗粒物(PM2.5),73,69,55,53,52,51,,38,32,27,32,9,8,0.8,0.8
2025-04-07T1000,1140A,126.6206,45.6842,哈尔滨市,省农科院,细颗粒物(PM2.5),73,87,72,53,53,66,,24,24,18,34,12,11,0.9,0.9
2025-04-07T1000,2688A,93.5128,42.8172,哈密市,地区监测站,颗粒物(PM10),62,74,196,24,53,66,,81,75,12,9,7,5,0.2,0.3
2025-04-07T1000,2689A,93.4961,42.8328,哈密市,哈密师范学校,颗粒物(PM10),59,68,158,26,52,71,,84,80,15,10,5,5,0.1,0
2025-04-07T1000,2671A,100.9048,36.9639,海北藏族自治州,海晏县西海镇,颗粒物(PM10),57,63,64,30,25,55,,54,51,12,5,10,9,0.5,0.5
2025-04-07T1000,3867A,102.0738,36.5056,海东市,平安区公安北苑,颗粒物(PM10),80,110,86,53,40,36,,44,39,33,13,82,14,1.2,0.6
2025-04-07T1000,1409A,110.576,19.9507,海口市,东寨港,,,31,38,18,17,22,,22,16,,8,12,7,0.5,0.7
2025-04-07T1000,1410A,110.3232,20.0574,海口市,海南大学,,37,37,46,23,31,101,,96,96,17,13,2,2,0.5,0.6
2025-04-07T1000,1411A,110.283,20.0053,海口市,秀英海南医院,,38,38,41,23,28,95,,99,98,16,13,4,4,0.4,0.5
2025-04-07T1000,1412A,110.338,19.9969,海口市,海南师范大学,,40,40,45,22,27,92,,95,93,12,8,4,4,0.5,0.5
2025-04-07T1000,1413A,110.33,20.0356,海口市,龙华路环保局宿舍,,41,41,42,21,29,101,,93,93,10,9,4,4,0.5,0.5
2025-04-07T1000,3539A,110.5111,19.9736,海口市,桂林洋子站,,33,30,42,19,27,105,,94,94,8,9,4,4,0.4,0.4
2025-04-07T1000,2673A,100.6188,36.2866,海南藏族自治州,共和县恰卜恰镇,细颗粒物(PM2.5),67,74,71,48,31,71,,57,50,22,13,13,12,0.5,0.5
2025-04-07T1000,2676A,97.3731,37.3753,海西蒙古族藏族自治州,德令哈市,颗粒物(PM10),53,55,71,17,23,80,,87,82,5,4,7,8,0.4,0.4
2025-04-07T1000,1048A,114.5302,36.6116,邯郸市,东污水处理厂,,,,119,,38,,,46,44,51,36,8,5,0.7,0.7
2025-04-07T1000,1049A,114.4918,36.5713,邯郸市,矿院,细颗粒物(PM2.5),110,120,106,83,43,58,,27,27,44,29,6,5,0.8,0.6
2025-04-07T1000,1050A,114.484,36.6133,邯郸市,丛台公园,细颗粒物(PM2.5),107,146,121,80,45,88,,42,42,33,29,13,10,0.7,0.7
2025-04-07T1000,3458A,114.7895,36.5593,邯郸市,香泉濮院小区,颗粒物(PM10),129,208,134,68,37,68,,51,45,40,24,9,7,0.9,0.5
2025-04-07T1000,3579A,114.50634,36.77178,邯郸市,永年区实验高中,颗粒物(PM10),117,184,134,84,56,70,,31,31,40,35,10,9,1.4,1.3
2025-04-07T1000,3580A,114.20016,36.44293,邯郸市,峰峰矿区临水派出所,细颗粒物(PM2.5),113,133,117,85,49,103,,90,86,34,19,42,19,2.1,1
2025-04-07T1000,2634A,106.9893,33.1842,汉中市,汉川机床厂子校,颗粒物(PM10),51,51,55,30,27,89,,87,83,6,5,10,8,0.5,0.5
2025-04-07T1000,2635A,107.0154,33.0706,汉中市,市监测站,颗粒物(PM10),62,74,62,28,28,79,,75,70,18,12,10,6,0.8,0.6
2025-04-07T1000,2636A,107.0089,33.1138,汉中市,鑫源开发区,颗粒物(PM10),65,79,64,34,31,84,,74,70,21,15,22,14,1.0,0.6
2025-04-07T1000,2637A,107.007,33.0323,汉中市,南郑大河坎水厂,颗粒物(PM10),58,66,55,32,29,76,,65,62,20,12,5,5,0.6,0.5
2025-04-07T1000,1223A,120.2072,30.2111,杭州市,滨江,颗粒物(PM10),57,63,90,30,46,117,,65,65,35,42,9,9,0.4,0.3
2025-04-07T1000,1224A,120.0633,30.2747,杭州市,西溪,"颗粒物(PM10),细颗粒物(PM2.5)",58,66,87,41,42,104,,39,39,44,33,8,7,0.5,0.4
2025-04-07T1000,1226A,120.3417,30.3150,杭州市,下沙,,,,106,,56,,,29,29,35,62,9,9,0.6,0.6
2025-04-07T1000,1227A,120.1269,30.2456,杭州市,卧龙桥,颗粒物(PM10),55,60,69,34,37,110,,59,59,35,25,8,7,0.5,0.4
2025-04-07T1000,1228A,120.1903,30.2692,杭州市,浙江农大,,,55,107,27,54,,,47,46,30,41,7,6,0.5,0.5
2025-04-07T1000,1230A,120.1197,30.3119,杭州市,和睦小学,颗粒物(PM10),61,72,100,42,49,116,,56,56,33,35,9,8,0.7,0.7
2025-04-07T1000,1231A,120.3019,30.4183,杭州市,临平镇,颗粒物(PM10),67,83,111,29,57,126,,52,52,30,43,7,7,0.6,0.6
2025-04-07T1000,1232A,120.2753,30.1839,杭州市,城厢镇,颗粒物(PM10),58,66,113,32,51,139,,70,70,29,40,9,10,0.5,0.5
2025-04-07T1000,1233A,120.0883,30.1808,杭州市,云栖,颗粒物(PM10),76,101,88,44,37,74,,47,47,66,45,12,9,0.8,0.6
2025-04-07T1000,3557A,119.9464,30.0494,杭州市,镇二中,"颗粒物(PM10),细颗粒物(PM2.5)",57,64,69,40,35,77,,48,48,42,38,8,8,0.9,0.7
2025-04-07T1000,3558A,119.7183,30.2367,杭州市,市府大楼,颗粒物(PM10),63,75,73,42,35,102,,69,69,30,25,10,9,0.5,0.5
2025-04-07T1000,3656A,120.1556,30.2864,杭州市,消防大队,颗粒物(PM10),58,66,105,33,56,121,,74,74,39,37,6,5,0.7,0.6
2025-04-07T1000,1270A,117.1959,31.7848,合肥市,明珠广场,颗粒物(PM10),65,80,60,27,25,97,,92,88,30,22,7,6,0.5,0.4
2025-04-07T1000,1271A,117.3072,31.8764,合肥市,三里街,颗粒物(PM10),70,90,68,29,21,81,,66,65,42,38,10,8,0.8,0.7
2025-04-07T1000,1272A,117.2588,31.8707,合肥市,琥珀山庄,颗粒物(PM10),67,83,67,31,25,103,,84,82,28,22,5,4,0.7,0.7
2025-04-07T1000,1273A,117.1604,31.9052,合肥市,董铺水库,,,92,72,24,23,120,,92,92,,8,,3,0.4,0.3
2025-04-07T1000,1274A,117.25,31.8571,合肥市,长江中路,颗粒物(PM10),65,80,65,36,27,97,,94,89,29,21,11,10,0.7,0.6
2025-04-07T1000,1275A,117.266,31.9436,合肥市,庐阳区,颗粒物(PM10),65,80,68,46,25,116,,90,86,23,23,8,7,0.5,0.4
2025-04-07T1000,1276A,117.3453,31.8616,合肥市,瑶海区,颗粒物(PM10),73,95,74,49,32,103,,83,83,28,28,10,8,0.6,0.6
2025-04-07T1000,1277A,117.3027,31.7964,合肥市,包河区,颗粒物(PM10),63,75,62,31,22,105,,91,89,24,19,9,7,0.5,0.4
2025-04-07T1000,1278A,117.2776,31.7385,合肥市,滨湖新区,颗粒物(PM10),64,78,65,41,37,95,,91,87,22,16,8,7,0.6,0.5
2025-04-07T1000,1279A,117.1318,31.8403,合肥市,高新区,颗粒物(PM10),69,88,74,27,19,106,,95,92,27,18,5,4,0.5,0.4
2025-04-07T1000,3464A,117.3803,31.9147,合肥市,高教基地,颗粒物(PM10),67,83,66,34,28,120,,93,93,19,20,8,6,0.4,0.4
2025-04-07T1000,3614A,79.924,37.0877,和田地区,地区环保局,颗粒物(PM10),459,559,376,97,67,21,,64,58,45,14,3,2,0.2,0.3
2025-04-07T1000,3615A,79.9131,37.113,和田地区,市环保局,颗粒物(PM10),374,479,340,80,60,21,,75,64,32,11,3,2,0.4,0.1
2025-04-07T1000,2516A,108.2011,24.715,河池市,东仁乐园,细颗粒物(PM2.5),109,126,96,82,67,24,,31,23,36,23,11,15,1.3,1.2
2025-04-07T1000,2517A,108.0497,24.6947,河池市,市环保站,细颗粒物(PM2.5),94,101,85,70,68,30,,44,41,32,18,8,13,0.8,0.7
2025-04-07T1000,2518A,108.0983,24.6989,河池市,市疾控中心,细颗粒物(PM2.5),103,94,85,77,69,25,,22,20,39,28,10,13,0.9,0.9
2025-04-07T1000,1696A,114.6778,23.7569,河源市,源西,,49,46,55,34,30,28,,,,26,25,4,4,0.8,0.8
2025-04-07T1000,1697A,114.6944,23.7586,河源市,东埔,颗粒物(PM10),53,55,54,35,34,33,,10,10,29,27,4,4,0.8,0.8
2025-04-07T1000,1698A,114.6892,23.7233,河源市,老城,细颗粒物(PM2.5),52,52,50,36,34,38,,11,11,21,21,5,4,0.8,0.6
2025-04-07T1000,1718A,115.4208,35.2464,菏泽市,气象局,颗粒物(PM10),98,146,149,52,46,98,,81,80,14,16,5,8,0.4,0.4
2025-04-07T1000,3374A,115.5564,35.0891,菏泽市,定陶老年大学,颗粒物(PM10),89,127,124,36,36,94,,88,86,16,17,8,6,0.4,0.4
2025-04-07T1000,4184A,115.4797,35.24401,菏泽市,永昌路1号,颗粒物(PM10),97,143,137,53,47,89,,80,78,14,15,7,7,0.3,0.3
2025-04-07T1000,4193A,115.4715,35.2800,菏泽市,长城路999号,颗粒物(PM10),95,139,143,39,34,98,,91,88,19,18,3,14,0.4,0.4
2025-04-07T1000,2514A,111.5264,24.4172,贺州市,环保小区,细颗粒物(PM2.5),87,92,101,64,67,47,,32,32,27,27,8,9,0.8,0.8
2025-04-07T1000,2515A,111.5608,24.4078,贺州市,政协大楼,细颗粒物(PM2.5),83,75,91,61,65,44,,37,36,24,25,8,9,0.9,0.8
2025-04-07T1000,3534A,111.4744,24.4553,贺州市,西湾,细颗粒物(PM2.5),97,92,94,72,64,40,,23,23,28,27,8,8,0.9,0.8
2025-04-07T1000,2385A,114.17,35.9019,鹤壁市,市监测站,细颗粒物(PM2.5),108,157,131,81,48,73,,60,54,39,22,16,10,0.8,0.7
2025-04-07T1000,2386A,114.2956,35.7511,鹤壁市,市交警支队,颗粒物(PM10),103,156,138,62,45,,,41,31,49,35,19,12,1.4,1.1
2025-04-07T1000,2387A,114.2878,35.7306,鹤壁市,迎宾馆,颗粒物(PM10),110,169,152,54,37,60,,42,36,39,29,14,9,0.9,0.6
2025-04-07T1000,3474A,114.2617,35.6822,鹤壁市,大新区,细颗粒物(PM2.5),129,152,135,98,67,50,,28,26,48,38,21,11,0.9,0.6
2025-04-07T1000,3596A,114.1572,35.9603,鹤壁市,南山宾馆,颗粒物(PM10),100,149,137,53,48,77,,82,73,32,22,13,7,0.6,0.6
2025-04-07T1000,2244A,130.2537,47.3416,鹤岗市,哈啤分公司,颗粒物(PM10),55,60,36,31,26,64,,54,53,32,13,23,15,0.7,0.4
2025-04-07T1000,2245A,130.2684,47.3086,鹤岗市,斯达机电,颗粒物(PM10),65,79,49,40,30,70,,72,62,27,13,19,15,0.7,0.5
2025-04-07T1000,2246A,130.3114,47.3388,鹤岗市,东山纸板厂,颗粒物(PM10),58,66,89,38,44,60,,30,30,24,21,35,15,0.5,1.5
2025-04-07T1000,2247A,130.1097,47.3382,鹤岗市,五号水库,,,,,,,,,,,,,,,,
2025-04-07T1000,2263A,127.4833,50.2524,黑河市,交通局,颗粒物(PM10),51,52,33,23,21,74,,40,40,15,12,6,7,0.7,0.5
2025-04-07T1000,2264A,127.5144,50.2341,黑河市,环保局,,38,38,26,25,21,83,,51,51,8,8,4,5,0.5,0.4
2025-04-07T1000,2265A,127.5291,50.2472,黑河市,大黑河岛,,44,44,23,25,15,86,,53,53,9,8,1,2,0.3,0.3
2025-04-07T1000,1074A,115.6838,37.7541,衡水市,电机北厂,细颗粒物(PM2.5),145,179,130,111,51,44,,67,53,50,23,9,10,0.6,0.5
2025-04-07T1000,1075A,115.6303,37.7316,衡水市,市监测站,细颗粒物(PM2.5),109,148,116,82,47,59,,63,54,42,23,11,13,0.6,0.5
2025-04-07T1000,3188A,115.6683,37.7217,衡水市,市城管局,"颗粒物(PM10),细颗粒物(PM2.5)",108,165,117,81,48,48,,59,51,50,26,10,14,0.6,0.5
2025-04-07T1000,3459A,115.5989,37.5491,衡水市,地表水厂,细颗粒物(PM2.5),118,171,127,89,49,80,,52,50,32,29,15,14,0.5,0.4
2025-04-07T1000,2456A,112.5003,26.9167,衡阳市,原169医院,细颗粒物(PM2.5),82,105,90,60,52,38,,38,31,23,20,16,14,0.7,0.7
2025-04-07T1000,2457A,112.6194,26.9258,衡阳市,衡阳化工总厂,细颗粒物(PM2.5),118,131,110,89,58,43,,31,31,23,23,42,14,1.4,1
2025-04-07T1000,2458A,112.6211,26.8956,衡阳市,珠晖区环保局,细颗粒物(PM2.5),104,138,102,78,55,46,,32,32,24,22,43,16,1.8,1
2025-04-07T1000,2459A,112.6197,26.8733,衡阳市,市委党校,细颗粒物(PM2.5),80,104,101,59,50,42,,44,38,26,22,25,12,0.9,0.7
2025-04-07T1000,2460A,112.6006,26.8919,衡阳市,市监测站,细颗粒物(PM2.5),109,141,106,82,64,40,,38,38,39,28,65,18,1.8,1
2025-04-07T1000,2461A,112.5664,26.9056,衡阳市,真空机电公司,细颗粒物(PM2.5),88,116,110,65,54,34,,27,27,41,30,42,17,1.3,1.1
2025-04-07T1000,3399A,112.6703,26.882,衡阳市,师范学院,细颗粒物(PM2.5),90,127,106,67,63,28,,50,40,30,19,14,17,0.9,0.8
2025-04-07T1000,2608A,103.3772,23.3993,红河哈尼族彝族自治州,污水处理厂,细颗粒物(PM2.5),58,48,35,41,32,80,,83,81,14,9,8,8,0.5,0.5
2025-04-07T1000,2609A,103.3861,23.35,红河哈尼族彝族自治州,监测站,颗粒物(PM10),53,55,46,31,26,82,,92,90,11,8,10,11,0.3,0.3
2025-04-07T1000,3038A,103.3758,23.368,红河哈尼族彝族自治州,州图书馆,细颗粒物(PM2.5),52,40,33,36,28,77,,88,86,14,10,5,6,0.5,0.5
2025-04-07T1000,1090A,111.6507,40.7517,呼和浩特市,呼市一监,,,51,142,11,52,,,76,76,,26,9,15,0.6,0.7
2025-04-07T1000,1091A,111.6572,40.8033,呼和浩特市,小召,,44,44,131,8,48,85,,71,71,11,36,6,11,0.4,0.7
2025-04-07T1000,1094A,111.7516,40.8369,呼和浩特市,如意水处理厂,,33,33,107,8,41,89,,81,81,6,36,7,12,0.4,0.6
2025-04-07T1000,1095A,111.7276,40.8062,呼和浩特市,二十九中,,39,39,121,6,47,86,,78,78,6,29,4,9,0.6,0.8
2025-04-07T1000,1096A,111.5512,40.7866,呼和浩特市,工大金川校区,,39,39,114,10,43,86,,85,85,10,28,6,11,0.4,0.6
2025-04-07T1000,1097A,111.717,40.7612,呼和浩特市,化肥厂生活区,,43,43,137,10,53,82,,79,79,14,32,8,13,0.4,0.6
2025-04-07T1000,3698A,111.5968,40.8178,呼和浩特市,红旗小学,,41,41,119,10,39,87,,85,85,10,35,4,9,0.4,0.6
2025-04-07T1000,3699A,111.6518,40.8389,呼和浩特市,海东办,,36,36,110,9,41,82,,72,72,4,26,7,10,0.5,0.7
2025-04-07T1000,2192A,119.7594,49.2261,呼伦贝尔市,区环保局,细颗粒物(PM2.5),53,48,37,37,24,72,,55,51,12,13,6,5,0.3,0.3
2025-04-07T1000,3061A,119.7512,49.1577,呼伦贝尔市,国华电力东,,40,40,28,18,15,77,,62,58,7,6,4,4,0.5,0.4
2025-04-07T1000,1250A,120.0751,30.8669,湖州市,城西水厂,颗粒物(PM10),84,118,116,57,54,110,,92,82,44,39,9,9,0.6,0.6
2025-04-07T1000,2873A,120.0830,30.8929,湖州市,仁皇山新区,细颗粒物(PM2.5),78,95,108,57,56,111,,94,86,44,31,7,7,0.8,0.7
2025-04-07T1000,2907A,120.1844,30.8596,湖州市,吴兴区站,细颗粒物(PM2.5),92,131,118,68,52,106,,86,78,49,29,9,9,0.7,0.6
2025-04-07T1000,3562A,120.4148,30.8538,湖州市,南浔区站,颗粒物(PM10),72,93,99,49,51,134,,76,76,37,30,6,6,0.6,0.5
2025-04-07T1000,1607A,120.9049,40.7211,葫芦岛市,龙港区,细颗粒物(PM2.5),59,54,53,42,38,92,,50,50,13,31,10,13,0.5,0.6
2025-04-07T1000,1608A,120.8392,40.7514,葫芦岛市,化工街,细颗粒物(PM2.5),64,73,80,46,46,84,,30,30,25,47,17,30,0.6,0.8
2025-04-07T1000,1609A,120.8341,40.7073,葫芦岛市,新区,细颗粒物(PM2.5),55,,67,39,58,94,,39,39,20,46,10,13,0.9,0.8
2025-04-07T1000,1610A,120.8695,40.7677,葫芦岛市,东城区,,,67,77,52,54,,,24,24,23,48,8,42,0.8,0.9
2025-04-07T1000,2482A,109.5981,27.5721,怀化市,林科所,细颗粒物(PM2.5),70,82,81,51,45,42,,56,51,30,35,5,7,0.6,0.3
2025-04-07T1000,2483A,109.9453,27.5444,怀化市,河西地税局,细颗粒物(PM2.5),69,67,86,50,50,24,,24,21,16,14,14,12,0.4,0.4
2025-04-07T1000,2484A,109.9781,27.5342,怀化市,市四医院,细颗粒物(PM2.5),77,80,95,56,49,32,,32,28,19,17,14,9,0.7,0.5
2025-04-07T1000,2485A,109.9972,27.5578,怀化市,监测楼,,,76,86,54,46,,,38,35,16,13,8,8,0.7,0.5
2025-04-07T1000,2486A,110.0394,27.583,怀化市,市委党校,细颗粒物(PM2.5),82,69,91,60,49,27,,23,23,22,20,9,9,0.7,0.5
2025-04-07T1000,1210A,119.036,33.5981,淮安市,钵池山,颗粒物(PM10),70,90,76,47,33,118,,98,98,23,18,16,13,0.8,0.7
2025-04-07T1000,1211A,119.007,33.575,淮安市,北京南路,颗粒物(PM10),70,90,74,46,34,114,,94,93,29,20,21,12,0.8,0.6
2025-04-07T1000,1212A,118.989,33.6067,淮安市,市监测站,颗粒物(PM10),73,95,72,51,34,109,,97,96,36,21,30,14,1.6,0.5
2025-04-07T1000,1213A,119.135,33.5039,淮安市,楚州区监测站,细颗粒物(PM2.5),75,95,89,55,40,113,,63,63,18,29,12,11,0.6,0.6
2025-04-07T1000,3426A,118.8755,33.2894,淮安市,新华书店,颗粒物(PM10),69,87,80,48,35,113,,87,87,26,21,16,11,0.8,0.5
2025-04-07T1000,4206A,119.0288,33.6319,淮安市,承德北路606号,,,110,84,41,32,,,103,100,33,23,,12,0.8,0.6
2025-04-07T1000,2282A,116.8004,33.975,淮北市,监测站,颗粒物(PM10),76,102,105,44,38,120,,88,88,23,21,10,9,0.7,0.6
2025-04-07T1000,2283A,116.8091,33.9007,淮北市,烈山区政府,颗粒物(PM10),74,98,106,34,34,104,,78,78,23,24,11,7,0.8,0.7
2025-04-07T1000,3330A,116.8873,33.9836,淮北市,杜集区检察院,颗粒物(PM10),74,97,105,36,35,114,,80,80,24,23,10,8,0.7,0.6
2025-04-07T1000,4017A,116.7923,33.9535,淮北市,市博物馆,颗粒物(PM10),74,98,102,43,47,110,,82,82,22,19,10,9,0.9,0.8
2025-04-07T1000,2277A,116.8305,32.7727,淮南市,潘集区政府,颗粒物(PM10),71,91,110,41,42,99,,75,75,24,25,6,7,0.5,0.4
2025-04-07T1000,2279A,116.8569,32.5951,淮南市,谢家集区政府,颗粒物(PM10),67,84,98,33,31,100,,81,81,20,20,8,8,0.4,0.4
2025-04-07T1000,2280A,116.8281,32.633,淮南市,八公山区政府,颗粒物(PM10),70,90,99,38,30,105,,87,87,15,12,5,4,0.3,0.3
2025-04-07T1000,2281A,116.6325,32.6201,淮南市,焦岗湖风景区管理处,颗粒物(PM10),61,71,68,26,30,55,,56,54,18,16,8,8,0.4,0.4
2025-04-07T1000,2894A,117.0566,32.6531,淮南市,经济技术开发区消防队,颗粒物(PM10),70,89,88,34,31,98,,79,79,21,17,9,8,0.4,0.4
2025-04-07T1000,3329A,117.0108,32.5893,淮南市,山南新区,颗粒物(PM10),73,96,102,30,27,98,,88,88,20,16,9,9,0.4,0.3
2025-04-07T1000,4209A,117.0031,32.6445,淮南市,国庆中路369号,颗粒物(PM10),58,65,82,31,31,109,,98,98,22,16,10,10,0.5,0.5
2025-04-07T1000,2446A,114.9028,30.4742,黄冈市,职工中心,颗粒物(PM10),65,79,74,41,40,74,,61,60,40,28,16,14,0.7,0.7
2025-04-07T1000,2929A,114.8858,30.4519,黄冈市,红卫路,颗粒物(PM10),60,70,78,30,35,80,,69,64,27,26,14,12,0.8,0.8
2025-04-07T1000,3398A,114.9136,30.4445,黄冈市,市林业局,颗粒物(PM10),66,81,84,36,38,80,,61,61,43,33,22,16,0.9,1
2025-04-07T1000,2672A,102.0199,35.5102,黄南藏族自治州,同仁县隆务镇,颗粒物(PM10),70,89,65,38,25,67,,66,64,16,3,22,20,0.4,0.2
2025-04-07T1000,2295A,118.2903,29.6963,黄山市,延安路89号,细颗粒物(PM2.5),57,60,44,40,25,50,,24,24,18,13,9,6,0.3,0.2
2025-04-07T1000,2297A,118.1371,30.2756,黄山市,黄山区政府5号楼,颗粒物(PM10),54,57,52,29,28,78,,39,39,5,6,8,8,0.4,0.4
2025-04-07T1000,4210A,118.3354,29.7203,黄山市,滨江东路7-2号,颗粒物(PM10),56,61,53,21,21,75,,28,28,10,9,7,5,0.4,0.4
2025-04-07T1000,2423A,115.0601,30.2313,黄石市,沈家营,颗粒物(PM10),68,85,81,44,36,56,,40,38,51,42,19,10,0.9,0.7
2025-04-07T1000,2426A,114.8988,30.2019,黄石市,铁山,颗粒物(PM10),68,85,75,42,35,103,,73,72,34,21,22,16,0.9,0.9
2025-04-07T1000,2427A,115.0307,30.2092,黄石市,团城山,颗粒物(PM10),66,81,78,41,32,45,,44,40,64,35,22,12,0.8,0.7
2025-04-07T1000,3149A,115.0235,30.1578,黄石市,笔架山北路,颗粒物(PM10),66,82,74,40,34,76,,57,57,38,25,40,18,1.3,0.9
2025-04-07T1000,4185A,115.0780,30.21118,黄石市,磁湖东路29号,颗粒物(PM10),76,101,101,44,43,49,,32,32,62,47,22,13,1.1,0.9
2025-04-07T1000,1392A,114.4183,23.0528,惠州市,河南岸金山湖子站,细颗粒物(PM2.5),63,72,58,45,34,53,,22,22,33,31,11,9,0.7,0.7
2025-04-07T1000,1393A,114.4053,23.0822,惠州市,下埔横江三路子站,颗粒物(PM10),60,69,64,41,38,66,,23,23,24,33,15,9,0.6,0.6
2025-04-07T1000,1394A,114.4103,23.1142,惠州市,江北云山西路子站,颗粒物(PM10),65,79,68,45,38,66,,27,27,25,34,17,11,0.6,0.6
2025-04-07T1000,1395A,114.4645,22.7833,惠州市,惠阳区承修路船湖子站,颗粒物(PM10),56,61,60,35,32,58,,21,21,26,30,11,9,0.7,0.7
2025-04-07T1000,1396A,114.5317,22.7422,惠州市,大亚湾管委会子站,,45,45,50,23,26,111,,27,27,28,36,8,6,0.5,0.6
2025-04-07T1000,3314A,114.4338,22.8134,惠州市,惠阳秋长,颗粒物(PM10),58,66,62,32,32,80,,33,33,10,24,8,8,0.8,0.8
2025-04-07T1000,3452A,114.6517,22.775,惠州市,大亚湾霞涌,颗粒物(PM10),62,73,46,31,26,122,,77,77,13,17,9,7,0.5,0.5
2025-04-07T1000,2240A,130.9762,45.3001,鸡西市,环保局,,32,24,24,15,16,100,,64,64,8,18,6,6,0.5,0.6
2025-04-07T1000,2243A,130.9429,45.3039,鸡西市,第一中学,,30,20,19,14,13,96,,62,62,8,15,6,7,0.5,0.5
2025-04-07T1000,3707A,131.0207,45.3073,鸡西市,欧美日汽修厂,,33,33,32,9,20,97,,47,47,19,23,9,6,0.6,0.7
2025-04-07T1000,3709A,130.9967,45.3106,鸡西市,市政设施管理处,,42,42,28,15,15,96,,42,42,7,27,7,6,0.6,0.7
2025-04-07T1000,2367A,114.9754,27.0803,吉安市,红声器材厂,颗粒物(PM10),63,75,70,42,37,60,,54,54,29,22,18,16,0.5,0.5
2025-04-07T1000,2368A,114.9658,27.0999,吉安市,市森林工业局,颗粒物(PM10),58,65,68,39,38,62,,46,46,32,28,17,13,0.5,0.6
2025-04-07T1000,2369A,114.99,27.1312,吉安市,市环境监测站,颗粒物(PM10),54,58,63,27,38,68,,41,41,24,26,24,20,0.5,0.4
2025-04-07T1000,2370A,115.0093,27.0968,吉安市,青原区法院,颗粒物(PM10),56,62,70,38,37,80,,43,43,21,28,16,13,0.5,0.5
2025-04-07T1000,1772A,126.54,43.8622,吉林市,哈达湾,,25,25,64,17,43,71,,50,50,10,17,6,6,0.7,0.8
2025-04-07T1000,1773A,126.5844,43.8358,吉林市,东局子,,,36,57,18,46,74,,52,52,9,19,,7,0.6,0.8
2025-04-07T1000,1774A,126.5052,43.8245,吉林市,电力学院,,22,21,60,15,46,67,,36,36,10,18,5,5,0.7,0.8
2025-04-07T1000,1775A,126.6133,43.8972,吉林市,江北,,26,25,75,12,51,81,,45,45,10,22,4,8,0.5,0.8
2025-04-07T1000,1776A,126.555,43.8306,吉林市,江南公园,,29,24,59,20,47,69,,48,48,10,16,6,6,0.5,0.6
2025-04-07T1000,1778A,126.7061,43.7133,吉林市,丰满,,28,20,50,19,46,86,,52,52,8,13,5,7,1.0,1
2025-04-07T1000,2868A,126.4739,43.953,吉林市,九站,,28,28,63,18,49,72,,33,33,11,22,14,15,0.6,0.8
2025-04-07T1000,1299A,116.9862,36.6114,济南市,科干所,颗粒物(PM10),86,122,103,39,30,123,,132,125,14,10,10,8,0.6,0.5
2025-04-07T1000,1300A,116.9376,36.665,济南市,农科所,,,132,120,34,25,,,117,111,22,16,,9,0.5,0.4
2025-04-07T1000,1301A,117.1265,36.6734,济南市,开发区,颗粒物(PM10),83,115,99,46,36,121,,130,123,15,11,10,9,0.6,0.5
2025-04-07T1000,1303A,117.0624,36.6868,济南市,省种子仓库,颗粒物(PM10),92,134,114,34,28,117,,130,123,15,10,8,6,0.7,0.6
2025-04-07T1000,1304A,116.9489,36.6447,济南市,机床二厂,颗粒物(PM10),95,139,127,44,36,110,,126,118,24,21,12,10,0.5,0.4
2025-04-07T1000,1305A,117.0495,36.663,济南市,市监测站,颗粒物(PM10),90,129,108,34,29,112,,125,118,18,12,12,9,0.5,0.4
2025-04-07T1000,1306A,116.7675,36.5484,济南市,长清党校,颗粒物(PM10),90,129,125,42,38,121,,121,115,23,21,9,8,0.8,0.7
2025-04-07T1000,1616A,117.6795,36.229,济南市,技术学院,颗粒物(PM10),93,136,115,44,38,127,,93,93,18,36,13,14,0.7,0.7
2025-04-07T1000,1961A,117.532,36.6868,济南市,东山小学,颗粒物(PM10),86,122,110,32,28,122,,127,122,15,12,10,10,0.3,0.3
2025-04-07T1000,3059A,117.7161,36.2049,济南市,泰兴公司,颗粒物(PM10),86,122,112,41,40,125,,51,51,17,48,12,12,0.7,0.8
2025-04-07T1000,3064A,117.6867,36.2171,济南市,莱芜战役纪念馆,颗粒物(PM10),84,117,117,34,32,125,,82,82,24,42,9,9,0.6,0.7
2025-04-07T1000,3494A,117.1673,36.9782,济南市,济阳区政府,颗粒物(PM10),100,149,135,61,40,114,,107,107,16,28,13,12,0.6,0.5
2025-04-07T1000,3495A,117.1171,36.63,济南市,锦屏中学,颗粒物(PM10),79,107,97,32,31,117,,125,120,14,12,12,10,0.4,0.3
2025-04-07T1000,3682A,116.9814,36.6819,济南市,济南四建,颗粒物(PM10),90,129,122,56,38,113,,125,118,21,15,8,7,0.5,0.4
2025-04-07T1000,1653A,116.6251,35.4302,济宁市,火炬城,颗粒物(PM10),77,103,100,44,42,105,,97,97,10,10,6,7,0.4,0.4
2025-04-07T1000,1655A,116.5491,35.4042,济宁市,电化厂,颗粒物(PM10),91,131,128,41,38,88,,86,83,19,16,5,6,0.4,0.3
2025-04-07T1000,3500A,116.5814,35.3707,济宁市,北湖一中,颗粒物(PM10),75,100,96,31,22,94,,96,96,20,16,11,12,0.4,0.4
2025-04-07T1000,3501A,116.8249,35.5593,济宁市,服务中心,颗粒物(PM10),85,120,122,32,36,100,,89,89,20,20,8,8,0.8,0.8
2025-04-07T1000,3678A,116.5907,35.4054,济宁市,市第七中学,颗粒物(PM10),80,110,104,31,33,101,,99,99,14,14,5,6,0.4,0.4
2025-04-07T1000,2255A,130.2751,46.8028,佳木斯市,佳纺,颗粒物(PM10),60,69,58,35,32,85,,35,35,7,27,6,8,0.6,0.7
2025-04-07T1000,2256A,130.3995,46.8307,佳木斯市,发电厂,细颗粒物(PM2.5),54,45,45,38,32,61,,32,32,29,33,5,5,0.8,0.6
2025-04-07T1000,2257A,130.3258,46.7975,佳木斯市,环保局,,49,46,49,34,30,79,,35,35,18,35,3,4,0.5,0.6
2025-04-07T1000,2258A,130.3648,46.8032,佳木斯市,十一中,,49,44,49,34,33,71,,33,33,20,36,7,8,0.6,0.7
2025-04-07T1000,2259A,130.3794,46.7588,佳木斯市,四丰,,28,28,29,19,16,77,,65,65,5,8,1,1,1.0,1
2025-04-07T1000,1252A,120.7436,30.778,嘉兴市,清河小学,颗粒物(PM10),61,72,90,32,43,123,,71,71,29,34,8,8,0.9,0.9
2025-04-07T1000,1253A,120.726,30.7478,嘉兴市,嘉兴学院,颗粒物(PM10),61,71,84,33,42,126,,71,71,27,31,10,11,0.8,0.9
2025-04-07T1000,2872A,120.7846,30.7525,嘉兴市,南湖区残联,颗粒物(PM10),61,71,85,27,41,141,,87,87,23,29,11,12,0.7,0.7
2025-04-07T1000,3407A,120.6916,30.7739,嘉兴市,秀洲住建,颗粒物(PM10),65,79,92,33,38,133,,88,88,34,32,8,9,0.7,0.7
2025-04-07T1000,1945A,98.2908,39.7711,嘉峪关市,气象局,颗粒物(PM10),124,197,108,53,34,84,,85,85,14,17,27,14,0.4,0.6
2025-04-07T1000,2884A,98.2672,39.7978,嘉峪关市,酒钢宾馆,,,,113,,35,69,,75,74,10,13,25,25,,0.4
2025-04-07T1000,3248A,98.2643,39.7724,嘉峪关市,雄关区,颗粒物(PM10),107,164,93,41,29,77,,78,78,18,20,13,10,0.3,0.6
2025-04-07T1000,1383A,113.1064,22.6058,江门市,北街,细颗粒物(PM2.5),107,138,93,80,58,41,,10,10,,62,,3,1.2,1.2
2025-04-07T1000,1384A,113.0731,22.5835,江门市,西区,颗粒物(PM10),77,104,98,55,50,60,,14,14,56,62,11,9,1.0,1.1
2025-04-07T1000,1385A,113.0219,22.5311,江门市,圭峰西,颗粒物(PM10),77,103,73,48,47,76,,40,40,46,41,9,7,0.8,0.7
2025-04-07T1000,1386A,113.0828,22.5947,江门市,东湖,颗粒物(PM10),107,164,105,61,52,55,,12,12,60,54,,10,0.8,0.9
2025-04-07T1000,3311A,113.1075,22.5647,江门市,江海富民,细颗粒物(PM2.5),100,123,108,75,58,58,,14,14,66,63,11,9,0.9,1.1
2025-04-07T1000,3449A,113.05,22.4667,江门市,新会银湖,细颗粒物(PM2.5),114,115,90,86,72,66,,12,12,41,46,2,2,0.5,0.6
2025-04-07T1000,1830A,113.1992,35.2590,焦作市,影视城,,,,69,,25,,,,,,5,,7,,0.8
2025-04-07T1000,3169A,113.2725,35.2067,焦作市,太极体育中心,颗粒物(PM10),92,134,133,44,51,71,,54,54,25,31,12,13,0.5,0.4
2025-04-07T1000,3335A,113.3137,35.2641,焦作市,马村街道办,颗粒物(PM10),87,124,124,59,62,77,,51,51,32,29,18,13,0.8,0.8
2025-04-07T1000,3336A,113.2465,35.2373,焦作市,焦作技师学院,颗粒物(PM10),98,146,133,31,38,75,,54,54,32,28,12,12,0.8,0.8
2025-04-07T1000,3477A,113.1656,35.2539,焦作市,中站许衡医院,颗粒物(PM10),87,124,97,24,35,80,,84,77,36,24,19,12,0.8,0.7
2025-04-07T1000,3981A,113.2449,35.1803,焦作市,原李万街道办,颗粒物(PM10),103,155,133,51,54,69,,40,40,27,33,16,18,0.6,0.6
2025-04-07T1000,4264A,113.2340,35.2190,焦作市,新安路1731号,颗粒物(PM10),100,149,135,49,48,65,,47,47,28,30,10,13,0.6,0.5
2025-04-07T1000,1708A,116.3701,23.5345,揭阳市,新兴,颗粒物(PM10),77,104,71,55,48,83,,40,40,27,26,8,8,1.1,0.9
2025-04-07T1000,1709A,116.3264,23.5443,揭阳市,西马,颗粒物(PM10),65,79,70,44,48,80,,34,34,24,22,10,9,0.9,0.8
2025-04-07T1000,1710A,116.3611,23.5626,揭阳市,东兴,颗粒物(PM10),87,123,82,47,48,77,,31,31,27,29,9,10,1.1,1
2025-04-07T1000,1711A,116.4151,23.5294,揭阳市,渔湖,颗粒物(PM10),73,95,69,45,34,91,,36,36,26,26,7,7,1.1,1
2025-04-07T1000,3320A,116.403,23.5699,揭阳市,曲溪,颗粒物(PM10),72,93,77,44,41,95,,43,43,29,31,2,3,0.9,0.8
2025-04-07T1000,1944A,102.1692,38.5167,金昌市,天庆家园,颗粒物(PM10),84,118,76,47,36,60,,58,50,39,16,29,12,0.9,0.9
2025-04-07T1000,4022A,102.1647,38.5371,金昌市,金川区人防中心,颗粒物(PM10),98,145,100,41,53,49,,61,50,39,11,22,16,0.8,0.5
2025-04-07T1000,4239A,102.1930,38.5319,金昌市,长春路96号,颗粒物(PM10),98,145,131,36,35,74,,55,52,16,11,42,18,0.6,0.7
2025-04-07T1000,1262A,119.647,29.077,金华市,十五中,颗粒物(PM10),57,63,84,24,37,135,,86,86,20,38,6,7,0.5,0.5
2025-04-07T1000,1263A,119.686,29.1029,金华市,监测站,颗粒物(PM10),55,60,85,25,40,146,,76,76,13,38,6,6,0.3,0.4
2025-04-07T1000,3659A,119.656,29.1131,金华市,气象局,颗粒物(PM10),56,62,85,23,37,144,,83,83,10,35,6,7,0.4,0.5
2025-04-07T1000,1767A,121.1115,41.0879,锦州市,南山,细颗粒物(PM2.5),79,61,51,58,48,80,,46,46,29,28,18,20,0.8,0.8
2025-04-07T1000,1768A,121.0604,40.8428,锦州市,开发区,细颗粒物(PM2.5),70,59,77,51,53,78,,49,49,26,52,11,29,0.6,0.9
2025-04-07T1000,1769A,121.1836,41.1119,锦州市,百股街道,,,81,61,44,41,86,,31,31,,41,14,12,,0.7
2025-04-07T1000,1770A,121.1178,41.1222,锦州市,天安街道,,,66,61,58,47,79,,35,35,,39,17,19,0.8,0.8
2025-04-07T1000,1771A,121.1303,41.1386,锦州市,北湖公园,细颗粒物(PM2.5),75,94,64,55,48,79,,35,35,32,34,17,18,0.8,0.8
2025-04-07T1000,2160A,112.85,35.5051,晋城市,自来水公司,颗粒物(PM10),86,122,101,53,32,55,,28,28,44,39,17,9,1.6,0.7
2025-04-07T1000,2161A,112.8318,35.4936,晋城市,白云商贸,颗粒物(PM10),111,171,111,53,28,67,,35,35,40,37,25,8,2.3,0.9
2025-04-07T1000,2162A,112.8508,35.4887,晋城市,市环保局,颗粒物(PM10),97,143,112,51,34,56,,23,23,47,45,13,6,1.6,0.7
2025-04-07T1000,2163A,112.8676,35.4897,晋城市,技术学院,颗粒物(PM10),90,129,108,46,33,58,,27,27,45,45,18,9,1.9,0.8
2025-04-07T1000,2165A,112.8453,35.546,晋城市,白马寺,颗粒物(PM10),84,118,80,48,33,74,,94,83,26,12,17,7,1.8,0.6
2025-04-07T1000,3620A,112.8271,35.4828,晋城市,泽州一中,颗粒物(PM10),123,195,103,88,37,62,,42,42,48,29,29,5,3.9,0.9
2025-04-07T1000,2173A,112.7249,37.7067,晋中市,南都小区,颗粒物(PM10),98,145,126,42,35,81,,41,41,28,31,36,21,0.9,0.6
2025-04-07T1000,2174A,112.6991,37.6982,晋中市,榆次区政府,颗粒物(PM10),108,166,134,42,32,79,,42,42,34,33,35,21,1.1,0.6
2025-04-07T1000,2865A,112.7195,37.6828,晋中市,榆次三中,颗粒物(PM10),109,168,146,51,40,78,,31,31,34,37,32,18,0.9,0.7
2025-04-07T1000,4200A,112.7478,37.6954,晋中市,迎宾街26号,细颗粒物(PM2.5),160,168,141,122,44,82,,43,43,31,29,32,19,0.8,0.6
2025-04-07T1000,2439A,112.2014,31.0481,荆门市,竹园小学,颗粒物(PM10),83,116,114,47,37,89,,103,94,19,15,11,8,0.4,0.4
2025-04-07T1000,2440A,112.1969,30.9891,荆门市,掇刀,颗粒物(PM10),84,117,108,47,41,86,,98,91,19,13,14,11,0.4,0.3
2025-04-07T1000,2441A,112.2213,31.0386,荆门市,石化一小,颗粒物(PM10),82,113,110,40,36,88,,84,77,19,18,15,12,0.2,0.3
2025-04-07T1000,3012A,112.1849,31.0362,荆门市,西山林语,颗粒物(PM10),78,106,94,42,35,87,,102,93,18,11,11,7,0.1,0.2
2025-04-07T1000,3547A,112.1632,31.0138,荆门市,龙泉中学南校,颗粒物(PM10),81,112,109,53,42,78,,93,88,20,15,12,9,0.5,0.4
2025-04-07T1000,1844A,112.2494,30.3197,荆州市,市图书馆,"颗粒物(PM10),细颗粒物(PM2.5)",67,84,90,48,43,70,,94,84,23,19,7,8,0.5,0.5
2025-04-07T1000,1845A,112.2008,30.3544,荆州市,市委党校,颗粒物(PM10),70,89,92,49,43,60,,89,78,26,21,9,9,0.7,0.6
2025-04-07T1000,3194A,112.2747,30.3122,荆州市,管委会,颗粒物(PM10),71,91,97,46,44,74,,92,85,17,15,13,11,0.6,0.6
2025-04-07T1000,4268A,112.1722,30.3366,荆州市,学苑路85号,细颗粒物(PM2.5),62,69,73,44,42,64,,66,64,19,23,12,11,0.6,0.5
2025-04-07T1000,2342A,117.3102,29.3867,景德镇市,王港中学,,,,,,,,,,,,,,,,
2025-04-07T1000,2343A,117.2117,29.2933,景德镇市,老干部活动中心,颗粒物(PM10),60,69,74,26,30,83,,44,44,19,29,8,11,0.4,0.5
2025-04-07T1000,2344A,117.1894,29.2789,景德镇市,兽医站,颗粒物(PM10),62,74,82,27,34,66,,42,42,21,33,5,11,0.6,0.7
2025-04-07T1000,2345A,117.1547,29.2617,景德镇市,台达陶瓷,颗粒物(PM10),54,58,79,22,32,77,,52,52,20,26,6,15,0.5,0.6
2025-04-07T1000,2346A,117.2461,29.2956,景德镇市,陶研所,,,60,60,35,37,,,25,25,24,24,4,8,0.5,0.5
2025-04-07T1000,1803A,115.9872,29.6815,九江市,十里,颗粒物(PM10),55,60,69,28,33,69,,46,46,38,31,6,4,0.7,0.5
2025-04-07T1000,1804A,115.9584,29.7046,九江市,茅山头,颗粒物(PM10),65,80,77,29,31,76,,35,35,36,40,9,6,0.5,0.4
2025-04-07T1000,1805A,115.9877,29.7295,九江市,西园,颗粒物(PM10),57,63,64,18,31,40,,28,28,79,52,12,11,1.0,0.9
2025-04-07T1000,1808A,115.9114,29.6038,九江市,综合工业园,颗粒物(PM10),60,70,65,32,26,83,,82,81,30,33,13,9,0.7,0.6
2025-04-07T1000,1809A,116.0721,29.7535,九江市,石化总厂,颗粒物(PM10),55,59,56,26,36,100,,72,72,26,27,18,14,0.7,0.6
2025-04-07T1000,1810A,115.9773,29.5698,九江市,庐山气象台,,48,48,44,29,21,141,,134,134,12,8,6,6,0.9,0.7
2025-04-07T1000,3190A,116.0254,29.6994,九江市,外国语学校,颗粒物(PM10),62,74,60,39,30,45,,50,50,69,36,18,14,1.2,0.9
2025-04-07T1000,4253A,116.0102,29.6594,九江市,莲花大道8号,颗粒物(PM10),82,114,70,35,29,72,,75,71,28,11,9,6,0.6,0.5
2025-04-07T1000,4240A,98.4958,39.7339,酒泉市,玉门东路5号,颗粒物(PM10),112,173,122,44,36,52,,71,64,30,15,18,16,0.6,0.4
2025-04-07T1000,4241A,98.5099,39.7506,酒泉市,北大街108号,颗粒物(PM10),133,215,120,45,32,38,,57,50,42,18,26,23,0.7,0.4
2025-04-07T1000,2698A,76.0072,39.4467,喀什地区,巡警大队,颗粒物(PM10),58,65,118,14,22,42,,75,75,44,26,5,4,0.7,0.6
2025-04-07T1000,2699A,75.9755,39.4694,喀什地区,吾办,颗粒物(PM10),61,71,108,19,35,58,,71,71,21,26,9,6,0.6,0.6
2025-04-07T1000,4027A,75.9483,39.4689,喀什地区,老干局,,40,40,97,10,20,61,,78,78,17,20,6,3,0.1,0.3
2025-04-07T1000,1824A,114.3389,34.7781,开封市,肿瘤医院,颗粒物(PM10),84,117,132,36,40,102,,70,70,15,22,10,11,0.6,0.6
2025-04-07T1000,1826A,114.2885,34.7965,开封市,世纪星幼儿园,颗粒物(PM10),90,130,132,38,45,93,,70,70,26,27,10,11,0.6,0.6
2025-04-07T1000,3147A,114.3438,34.8106,开封市,龙亭公园,,,126,132,52,76,99,,75,75,,23,7,8,0.5,0.5
2025-04-07T1000,3210A,114.3644,34.7964,开封市,汴京公园,颗粒物(PM10),97,144,145,41,50,109,,74,74,17,23,7,7,0.3,0.3
2025-04-07T1000,3473A,114.2485,34.8306,开封市,技师学院,颗粒物(PM10),92,134,131,58,68,89,,77,77,25,24,7,7,0.9,0.9
2025-04-07T1000,3592A,114.4644,34.7556,开封市,祥符区生态环境局,颗粒物(PM10),93,136,143,40,48,103,,69,69,15,27,8,8,0.6,0.5
2025-04-07T1000,1951A,84.895,45.6094,克拉玛依市,长征新村,,25,25,20,3,9,44,,68,61,42,13,8,8,0.3,0.2
2025-04-07T1000,1952A,84.8988,45.5893,克拉玛依市,南林小区,,25,23,22,17,11,65,,61,59,14,6,3,3,0.2,0.1
2025-04-07T1000,1954A,84.905,44.3396,克拉玛依市,独山子区,,28,28,21,3,10,49,,68,64,36,10,8,7,0.5,0.3
2025-04-07T1000,1955A,85.6979,46.098,克拉玛依市,乌尔禾区商贸楼,,19,19,16,8,7,51,,57,57,10,7,5,6,0.1,0.2
2025-04-07T1000,3612A,85.1045,45.6899,克拉玛依市,白碱滩区新站,,22,22,29,3,6,53,,60,57,19,8,10,10,0.5,0.4
2025-04-07T1000,2697A,76.1454,39.7142,克孜勒苏柯尔克孜自治州,市人民政府,,47,47,73,16,22,79,,81,81,6,11,5,6,0.3,0.3
2025-04-07T1000,3665A,76.1658,39.7157,克孜勒苏柯尔克孜自治州,克州文化中心,,35,35,70,11,19,89,,83,83,2,13,7,7,0.3,0.4
2025-04-07T1000,1450A,102.8204,24.8886,昆明市,呈贡新区,细颗粒物(PM2.5),95,76,71,71,56,116,,116,114,12,13,6,6,0.9,0.7
2025-04-07T1000,1451A,102.6251,24.9608,昆明市,西山森林公园,,,,,,,,,,,,,,,,
2025-04-07T1000,1452A,102.7252,25.0902,昆明市,龙泉镇,细颗粒物(PM2.5),97,89,68,72,52,103,,78,71,20,23,9,9,0.9,0.8
2025-04-07T1000,1453A,102.7266,25.0375,昆明市,东风东路,细颗粒物(PM2.5),95,90,71,71,56,99,,103,100,26,18,10,9,0.9,0.7
2025-04-07T1000,1454A,102.6742,25.0669,昆明市,金鼎山,细颗粒物(PM2.5),90,89,72,67,52,98,,92,88,26,21,6,5,1.0,0.8
2025-04-07T1000,1455A,102.6644,25.0401,昆明市,碧鸡广场,细颗粒物(PM2.5),98,98,74,73,57,100,,90,88,24,24,9,8,1.0,0.8
2025-04-07T1000,3179A,102.7494,25.0119,昆明市,官渡区博物馆,细颗粒物(PM2.5),87,95,73,64,49,102,,101,98,19,16,10,8,0.8,0.6
2025-04-07T1000,3375A,102.8017,24.8336,昆明市,青年创业园,细颗粒物(PM2.5),97,93,72,72,56,108,,105,103,9,12,11,11,1.5,0.8
2025-04-07T1000,3550A,102.7997,24.9786,昆明市,昆明学院,细颗粒物(PM2.5),99,95,76,74,57,102,,96,94,14,15,6,6,0.8,0.5
2025-04-07T1000,3551A,102.5967,24.6736,昆明市,晋宁区生态环境分局,细颗粒物(PM2.5),77,66,57,56,51,100,,105,101,12,9,8,8,1.1,0.9
2025-04-07T1000,3552A,102.6678,24.9856,昆明市,云天化总部,细颗粒物(PM2.5),92,85,69,68,53,117,,105,103,11,12,8,8,0.9,0.7
2025-04-07T1000,1456A,91.1319,29.6514,拉萨市,八廓街,,29,29,27,13,12,75,,74,74,15,13,19,8,0.5,0.5
2025-04-07T1000,1457A,91.1221,29.6747,拉萨市,市环保局,,36,36,31,14,13,59,,66,65,27,17,15,5,0.5,0.3
2025-04-07T1000,1458A,91.0874,29.6475,拉萨市,区监测站,,28,28,25,12,12,71,,53,53,20,23,17,8,0.6,0.5
2025-04-07T1000,1459A,91.1774,29.6541,拉萨市,西藏大学,,24,18,22,7,10,74,,76,73,10,11,20,8,0.2,0.3
2025-04-07T1000,1460A,90.9798,29.6588,拉萨市,区辐射站,,33,33,28,16,14,62,,76,70,32,19,10,10,0.5,0.4
2025-04-07T1000,1461A,91.0834,29.6292,拉萨市,拉萨火车站,,31,31,25,12,11,45,,60,54,37,16,6,4,0.9,0.7
2025-04-07T1000,2520A,109.2203,23.7256,来宾市,来宾技工学校,细颗粒物(PM2.5),107,132,111,80,78,44,,19,19,5,29,57,16,1.1,1
2025-04-07T1000,3535A,109.1781,23.7297,来宾市,兴宾区政府,细颗粒物(PM2.5),94,98,99,70,71,29,,49,43,50,19,19,12,1.0,1
2025-04-07T1000,4002A,109.2416,23.7461,来宾市,中南小学,细颗粒物(PM2.5),103,134,111,77,71,58,,28,28,31,29,35,12,1.2,1.1
2025-04-07T1000,1477A,104.1373,35.9454,兰州市,榆中兰大校区,,,,,,,,,,,,,,,,
2025-04-07T1000,1479A,103.831,36.0464,兰州市,铁路设计院,颗粒物(PM10),66,81,98,34,31,58,,53,38,56,38,14,19,0.9,0.9
2025-04-07T1000,3241A,103.7439,36.0842,兰州市,百合公园,颗粒物(PM10),65,80,81,34,29,60,,37,34,38,27,11,14,0.6,0.4
2025-04-07T1000,3242A,103.9611,35.998,兰州市,和平,细颗粒物(PM2.5),93,125,97,69,39,69,,64,60,30,22,24,14,1.4,0.8
2025-04-07T1000,4236A,103.6293,36.0938,兰州市,庄浪东路808号,"颗粒物(PM10),细颗粒物(PM2.5)",63,75,93,45,39,67,,55,50,32,29,25,20,0.6,0.4
2025-04-07T1000,4237A,103.7251,36.1043,兰州市,安宁西路88号,颗粒物(PM10),69,87,105,49,42,83,,44,43,30,27,19,15,0.5,0.4
2025-04-07T1000,4238A,103.8470,36.0676,兰州市,北滨河东路1号,颗粒物(PM10),66,82,87,42,36,46,,40,28,55,40,19,18,1.2,0.8
2025-04-07T1000,3245A,103.6633,36.533,兰州新区,新区管委会,颗粒物(PM10),59,68,86,33,33,82,,52,47,19,18,25,16,0.4,0.3
2025-04-07T1000,3246A,103.6975,36.4789,兰州新区,舟曲中学,细颗粒物(PM2.5),84,101,110,62,39,84,,65,60,20,17,18,11,0.6,0.5
2025-04-07T1000,1067A,116.6708,39.5111,廊坊市,药材公司,细颗粒物(PM2.5),70,87,97,51,52,108,,75,75,29,32,12,9,0.9,0.7
2025-04-07T1000,1068A,116.7214,39.5589,廊坊市,开发区,细颗粒物(PM2.5),75,97,110,55,54,106,,67,67,29,32,11,9,0.8,0.7
2025-04-07T1000,1070A,116.7244,39.5269,廊坊市,北华航天学院,颗粒物(PM10),76,102,107,53,53,96,,67,67,32,31,13,12,0.9,0.7
2025-04-07T1000,2919A,116.7022,39.5453,廊坊市,河北工业大学,"颗粒物(PM10),细颗粒物(PM2.5)",72,93,94,52,57,107,,67,67,30,34,14,12,0.8,0.7
2025-04-07T1000,2535A,103.7723,29.5462,乐山市,花湖湾,细颗粒物(PM2.5),73,64,44,53,32,29,,43,34,22,13,7,7,0.8,0.5
2025-04-07T1000,2536A,103.7627,29.5844,乐山市,牛耳桥,细颗粒物(PM2.5),64,65,42,46,27,17,,18,15,36,23,7,7,1.0,0.5
2025-04-07T1000,2537A,103.7508,29.6006,乐山市,市第三水厂,,,56,45,36,42,,,14,12,26,18,,4,0.9,0.6
2025-04-07T1000,2538A,103.7571,29.5664,乐山市,市监测站,"颗粒物(PM10),细颗粒物(PM2.5)",52,53,44,36,28,16,,29,16,27,17,5,5,1.0,0.6
2025-04-07T1000,3361A,103.7311,29.5628,乐山市,理工大学,细颗粒物(PM2.5),62,55,45,44,30,35,,26,20,20,19,7,5,1.0,0.7
2025-04-07T1000,2598A,100.2143,26.8576,丽江市,西南郊,臭氧1小时,116,63,43,38,26,232,,145,145,6,5,243,15,0.5,0.7
2025-04-07T1000,2599A,100.2497,26.8802,丽江市,丽江古城,,49,46,44,34,30,115,,110,108,14,11,8,8,0.7,0.6
2025-04-07T1000,2600A,100.2203,26.8906,丽江市,市中心,,45,45,35,31,27,116,,109,107,22,15,8,8,0.6,0.6
2025-04-07T1000,1267A,119.914,28.4514,丽水市,监测站大楼,颗粒物(PM10),56,62,58,26,30,103,,55,55,22,23,5,6,0.5,0.5
2025-04-07T1000,1268A,119.93,28.4586,丽水市,莲都小学,颗粒物(PM10),60,69,63,31,27,100,,63,63,26,24,6,4,0.5,0.3
2025-04-07T1000,1269A,119.879,28.4231,丽水市,余庄前,颗粒物(PM10),58,66,57,36,29,117,,47,47,20,19,4,3,0.5,0.5
2025-04-07T1000,1173A,119.176,34.5885,连云港市,市环境监测站,颗粒物(PM10),75,100,79,53,38,109,,92,92,25,22,14,14,0.8,0.6
2025-04-07T1000,3000A,119.3581,34.6972,连云港市,德源药业,颗粒物(PM10),76,102,79,44,32,106,,108,105,29,18,13,12,0.7,0.5
2025-04-07T1000,3007A,119.178,34.844,连云港市,新城一中,细颗粒物(PM2.5),79,91,71,58,41,106,,87,86,29,25,13,11,0.8,0.7
2025-04-07T1000,3008A,119.3608,34.7519,连云港市,胡沟管理处,颗粒物(PM10),59,68,53,24,24,129,,126,126,24,21,12,11,0.5,0.4
2025-04-07T1000,3009A,119.1478,34.5911,连云港市,矿山设计院,颗粒物(PM10),74,97,79,44,31,114,,108,107,25,22,14,12,0.7,0.6
2025-04-07T1000,3434A,119.2413,34.6539,连云港市,工贸学校,细颗粒物(PM2.5),74,96,74,54,38,115,,113,109,28,22,12,12,0.8,0.6
2025-04-07T1000,3664A,119.4172,34.7341,连云港市,连云街道,颗粒物(PM10),66,81,83,36,31,132,,132,132,20,24,8,10,0.6,0.5
2025-04-07T1000,2571A,102.3431,27.8099,凉山彝族自治州,青龙寺,,21,21,23,6,6,66,,57,56,7,5,8,7,0.8,0.8
2025-04-07T1000,2572A,102.2721,27.8415,凉山彝族自治州,邛海宾馆,,32,32,31,14,14,60,,74,67,19,13,12,9,0.5,0.4
2025-04-07T1000,2573A,102.2625,27.898,凉山彝族自治州,西昌市政府,,19,11,23,10,16,60,,68,61,19,10,10,8,0.6,0.5
2025-04-07T1000,2574A,102.2685,27.8851,凉山彝族自治州,凉山州政府,,25,24,23,17,15,63,,67,62,19,13,6,6,0.8,0.7
2025-04-07T1000,4229A,102.2342,27.8859,凉山彝族自治州,凯乐南路30号,,32,32,30,19,15,51,,61,54,23,14,9,8,0.7,0.7
2025-04-07T1000,2212A,123.2,41.1953,辽阳市,宏伟区,颗粒物(PM10),54,57,40,20,32,121,,107,107,8,10,12,13,0.9,1
2025-04-07T1000,2213A,123.1683,41.2495,辽阳市,新华园,,,56,54,19,41,,,108,108,14,23,10,14,0.5,0.6
2025-04-07T1000,2214A,123.2354,41.2639,辽阳市,滨河路,,40,40,43,20,37,99,,90,90,14,20,9,8,0.6,0.7
2025-04-07T1000,2215A,123.149,41.2991,辽阳市,铁西工业园,颗粒物(PM10),55,60,63,24,44,128,,109,109,12,22,10,11,0.5,0.7
2025-04-07T1000,2227A,125.1358,42.8845,辽源市,环保局,,32,31,32,22,16,76,,35,35,15,24,7,8,0.7,0.7
2025-04-07T1000,3239A,125.0764,42.9078,辽源市,银鹰制药,,35,35,27,22,20,82,,38,38,14,21,9,6,0.8,0.7
2025-04-07T1000,1625A,115.9848,36.4372,聊城市,区政府,颗粒物(PM10),89,127,133,45,40,66,,83,71,30,25,16,12,0.5,0.4
2025-04-07T1000,2878A,116.0072,36.4343,聊城市,聊大东校,,,,141,,54,76,,82,76,26,20,13,11,,0.6
2025-04-07T1000,3200A,115.9819,36.4978,聊城市,监控中心,颗粒物(PM10),93,135,140,51,42,79,,86,77,26,18,19,15,0.8,0.7
2025-04-07T1000,3513A,116.0445,36.4361,聊城市,九州社区,颗粒物(PM10),89,128,130,46,36,78,,81,75,21,14,10,8,0.5,0.5
2025-04-07T1000,4018A,116.0567,36.4608,聊城市,星美广场,颗粒物(PM10),93,136,129,39,34,81,,84,78,19,14,13,11,0.6,0.6
2025-04-07T1000,2632A,94.3681,29.6376,林芝市,林芝监测站,,31,31,22,20,12,49,,,,26,8,5,5,0.6,0.4
2025-04-07T1000,2633A,94.3616,29.6616,林芝市,林芝人民医院,,37,37,27,20,12,57,,66,60,12,4,8,8,0.5,0.4
2025-04-07T1000,2603A,100.0781,23.8982,临沧市,市环保局,细颗粒物(PM2.5),112,129,124,84,86,,,72,68,25,19,,11,1.2,1
2025-04-07T1000,2604A,100.0894,23.8822,临沧市,市气象局,细颗粒物(PM2.5),148,138,111,113,89,61,,69,61,27,25,9,9,1.1,0.9
2025-04-07T1000,1733A,111.5531,36.0783,临汾市,临钢医院,颗粒物(PM10),99,148,138,48,34,47,,34,34,40,31,8,9,0.8,0.7
2025-04-07T1000,1734A,111.5028,36.0714,临汾市,技工学校,颗粒物(PM10),89,127,127,41,43,50,,31,31,32,30,11,13,0.9,0.9
2025-04-07T1000,1736A,111.5018,36.0855,临汾市,市委,颗粒物(PM10),103,155,137,50,43,54,,34,33,34,32,9,12,0.9,0.8
2025-04-07T1000,3018A,111.505,36.1014,临汾市,唐尧大酒店,颗粒物(PM10),99,147,140,44,38,51,,30,28,30,28,10,13,0.9,0.8
2025-04-07T1000,4244A,111.4879,36.0530,临汾市,启星学校,颗粒物(PM10),100,150,146,42,45,42,,18,18,32,33,8,9,1.0,0.9
2025-04-07T1000,4271A,103.2464,35.6123,临夏回族自治州,滨河东路1号,颗粒物(PM10),84,117,115,39,45,40,,27,27,28,22,5,6,0.6,0.5
2025-04-07T1000,4310A,103.2093,35.5995,临夏回族自治州,新华街21号,颗粒物(PM10),83,116,107,53,47,50,,27,27,26,26,12,11,0.7,0.6
2025-04-07T1000,1618A,118.3429,35.0532,临沂市,沂河小区,,,,102,,43,93,,68,68,,22,,19,0.7,0.6
2025-04-07T1000,1619A,118.295,35.0583,临沂市,鲁南制药厂,颗粒物(PM10),76,102,93,45,39,107,,75,75,30,31,15,20,0.7,0.6
2025-04-07T1000,1620A,118.2794,34.9976,临沂市,新光毛纺厂,颗粒物(PM10),71,92,97,43,38,99,,56,56,33,40,13,22,0.8,0.7
2025-04-07T1000,1621A,118.3956,35.0888,临沂市,河东保险公司,颗粒物(PM10),74,97,84,37,31,111,,80,80,32,30,10,14,0.5,0.4
2025-04-07T1000,3370A,118.3564,35.0215,临沂市,十里堡居委,颗粒物(PM10),76,102,91,39,33,102,,63,63,28,28,12,14,0.8,0.7
2025-04-07T1000,3496A,118.3604,35.1084,临沂市,南坊新区,颗粒物(PM10),78,105,91,39,33,103,,81,81,27,23,12,15,0.8,0.6
2025-04-07T1000,3860A,118.3920,35.0300,临沂市,皇山花园小区,颗粒物(PM10),86,122,89,39,32,103,,73,73,25,22,17,18,0.6,0.5
2025-04-07T1000,1870A,109.4856,24.3895,柳州市,柳东小学,细颗粒物(PM2.5),94,99,95,70,75,35,,56,47,40,22,16,17,0.9,0.9
2025-04-07T1000,1871A,109.4157,24.3277,柳州市,环保监测站,细颗粒物(PM2.5),130,132,120,99,89,31,,44,40,36,24,21,26,1.1,1.2
2025-04-07T1000,1872A,109.389,24.341,柳州市,河西水厂,细颗粒物(PM2.5),129,157,144,98,79,31,,31,26,37,32,32,28,1.2,1.1
2025-04-07T1000,1873A,109.4311,24.2921,柳州市,市四中,细颗粒物(PM2.5),124,125,120,94,86,31,,27,27,38,30,12,14,1.2,1.2
2025-04-07T1000,1874A,109.4006,24.3631,柳州市,市九中,细颗粒物(PM2.5),104,125,120,78,77,39,,44,42,27,22,14,23,1.0,1
2025-04-07T1000,1875A,109.4958,24.3134,柳州市,古亭山,细颗粒物(PM2.5),118,120,116,89,78,21,,14,14,51,36,46,20,1.2,1.1
2025-04-07T1000,3402A,109.5422,24.3996,柳州市,市二中,细颗粒物(PM2.5),133,136,99,101,77,42,,31,31,41,24,36,21,0.8,0.9
2025-04-07T1000,2307A,116.5079,31.737,六安市,监测大楼,颗粒物(PM10),51,52,64,17,25,105,,81,78,20,16,8,6,0.5,0.6
2025-04-07T1000,2308A,116.4738,31.7643,六安市,皖西学院,颗粒物(PM10),59,68,75,18,24,103,,95,95,21,15,7,5,0.5,0.4
2025-04-07T1000,2309A,116.4996,31.7905,六安市,朝阳厂,颗粒物(PM10),55,60,65,24,24,96,,87,79,27,22,6,5,0.6,0.6
2025-04-07T1000,2310A,116.5567,31.7886,六安市,开发区,颗粒物(PM10),67,84,100,41,33,96,,68,66,46,42,7,6,0.6,0.5
2025-04-07T1000,2576A,104.8,26.5892,六盘水市,窑上,,17,17,32,9,18,27,,30,27,14,14,5,5,0.9,0.8
2025-04-07T1000,2577A,104.83,26.5917,六盘水市,黄土坡,,35,,28,24,26,31,,32,31,25,22,15,11,0.9,0.8
2025-04-07T1000,2578A,104.89,26.5939,六盘水市,水钢,,19,14,34,13,22,46,,45,45,16,14,13,9,0.5,0.5
2025-04-07T1000,2579A,104.8475,26.5894,六盘水市,民中,,23,23,28,12,20,25,,36,34,33,20,14,9,0.8,0.6
2025-04-07T1000,2580A,104.9544,26.5506,六盘水市,双水,,44,44,30,14,21,33,,40,38,22,17,12,9,0.8,0.6
2025-04-07T1000,2335A,117.0189,25.1181,龙岩市,龙岩师专,,,,,,,,,,,,,,,,
2025-04-07T1000,2336A,117.0217,25.1033,龙岩市,龙岩市监测站,颗粒物(PM10),58,66,51,39,27,54,,26,26,29,24,11,8,0.7,0.6
2025-04-07T1000,2337A,117.0258,25.0661,龙岩市,闽西职业技术学院,颗粒物(PM10),64,77,59,41,30,57,,40,36,25,22,11,19,0.8,0.5
2025-04-07T1000,2338A,117.0196,25.0306,龙岩市,龙岩学院,颗粒物(PM10),60,70,46,39,26,60,,46,46,26,13,7,3,0.7,0.5
2025-04-07T1000,2665A,105.0822,33.3261,陇南市,汉王镇固水子,,,,,,,,,,,,,,,,
2025-04-07T1000,2885A,104.9339,33.3826,陇南市,滨江中学,,46,46,54,16,22,46,,49,44,8,8,8,7,0.5,0.5
2025-04-07T1000,3247A,104.955,33.371,陇南市,市总工会,,36,36,50,18,20,51,,64,57,8,6,8,8,0.6,0.5
2025-04-07T1000,2487A,111.9589,27.8901,娄底市,电视发射台,颗粒物(PM10),60,69,82,36,34,69,,62,59,6,6,11,10,0.7,0.7
2025-04-07T1000,2488A,111.9975,27.725,娄底市,市监测站,细颗粒物(PM2.5),87,110,106,64,58,32,,21,20,36,36,18,19,0.8,0.8
2025-04-07T1000,2489A,112.0194,27.7314,娄底市,市委党校,细颗粒物(PM2.5),84,107,104,62,57,45,,40,37,23,24,4,6,0.5,0.7
2025-04-07T1000,2490A,111.9561,27.7569,娄底市,涟钢,颗粒物(PM10),79,107,113,56,60,41,,32,28,25,31,6,18,0.7,1.3
2025-04-07T1000,2491A,111.9892,27.7044,娄底市,市政府,颗粒物(PM10),76,101,94,50,50,55,,36,36,26,24,8,6,0.5,0.5
2025-04-07T1000,1893A,105.4324,28.9634,泸州市,九狮山,,,,,,,,,,,,,,,,
2025-04-07T1000,1894A,105.4427,28.9063,泸州市,小市上码头,,45,43,48,31,29,29,,14,14,19,24,7,6,0.8,0.7
2025-04-07T1000,1895A,105.4241,28.8573,泸州市,兰田宪桥,,49,46,51,34,33,23,,9,9,18,14,5,5,0.7,0.6
2025-04-07T1000,1896A,105.4379,28.8833,泸州市,市环监站,,,,,,,,,,,,,,,,
2025-04-07T1000,4272A,105.3689,28.7783,泸州市,纳溪中医医院,颗粒物(PM10),54,57,40,31,28,26,,12,12,16,19,7,6,0.8,0.7
2025-04-07T1000,2183A,111.1406,37.5211,吕梁市,环保局,颗粒物(PM10),108,165,168,59,51,,,15,12,,41,15,6,0.6,0.4
2025-04-07T1000,2185A,111.1297,37.5136,吕梁市,自来水公司,颗粒物(PM10),112,174,199,66,54,52,,14,14,32,43,13,7,0.8,0.5
2025-04-07T1000,2867A,111.1283,37.51,吕梁市,马茂庄小学,颗粒物(PM10),113,175,182,46,42,49,,15,15,37,45,10,5,0.7,0.5
2025-04-07T1000,1812A,112.3931,34.6516,洛阳市,市委党校,颗粒物(PM10),75,100,109,51,40,58,,38,33,22,26,4,8,0.6,0.7
2025-04-07T1000,1815A,112.494,34.6886,洛阳市,河南林校,颗粒物(PM10),82,114,131,40,44,60,,32,27,28,31,6,10,0.7,0.8
2025-04-07T1000,1816A,112.3844,34.623,洛阳市,开发区管委会,,,101,112,35,42,61,,42,41,23,23,9,9,,0.3
2025-04-07T1000,1817A,112.4267,34.6258,洛阳市,市委新办公区,颗粒物(PM10),69,87,108,35,37,74,,47,47,19,21,8,7,0.2,0.2
2025-04-07T1000,3340A,112.6005,34.6326,洛阳市,伊滨,颗粒物(PM10),78,106,121,50,46,67,,37,37,30,29,13,7,0.8,0.5
2025-04-07T1000,3341A,112.4951,34.6332,洛阳市,中移产业园,颗粒物(PM10),85,119,135,45,42,67,,46,42,20,20,8,9,0.6,0.5
2025-04-07T1000,3593A,112.5736,34.8993,洛阳市,吉利监测站,,,108,104,,40,85,,62,62,14,21,11,10,0.5,0.5
2025-04-07T1000,3635A,112.3677,34.662,洛阳市,河科大西苑校区,颗粒物(PM10),88,125,115,40,35,48,,31,23,42,32,12,12,0.7,0.6
2025-04-07T1000,3636A,112.4388,34.6781,洛阳市,英才小学,颗粒物(PM10),87,123,114,49,45,47,,23,15,45,36,12,14,0.8,0.7
2025-04-07T1000,4214A,112.4600,34.6949,洛阳市,春都路1号院,颗粒物(PM10),96,142,132,47,39,57,,31,24,42,32,14,14,0.9,0.8
2025-04-07T1000,2399A,114.051,33.5699,漯河市,三五一五工厂,颗粒物(PM10),88,125,126,39,44,93,,77,74,17,18,5,7,0.4,0.5
2025-04-07T1000,2400A,114.0055,33.5698,漯河市,漯河大学,颗粒物(PM10),84,118,119,31,40,102,,70,69,13,22,6,7,0.4,0.4
2025-04-07T1000,2401A,114.0138,33.5828,漯河市,市水利局,颗粒物(PM10),86,122,122,46,47,107,,80,78,13,18,5,6,0.3,0.3
2025-04-07T1000,2402A,114.0261,33.5698,漯河市,市广电局,颗粒物(PM10),88,125,123,38,43,99,,81,81,13,16,5,6,0.5,0.5
2025-04-07T1000,3478A,113.9749,33.5664,漯河市,市图书馆,颗粒物(PM10),85,119,118,38,43,107,,89,87,11,17,5,7,0.5,0.5
2025-04-07T1000,4250A,114.0892,33.5882,漯河市,韶山路11号,颗粒物(PM10),89,127,127,42,42,103,,73,69,21,22,7,7,0.4,0.5
2025-04-07T1000,1798A,118.5092,31.6837,马鞍山市,湖东路四小,颗粒物(PM10),66,81,77,26,33,118,,118,111,22,19,7,8,0.6,0.7
2025-04-07T1000,1799A,118.5024,31.6449,马鞍山市,开发区,颗粒物(PM10),67,84,98,38,38,114,,100,96,22,30,6,6,0.7,0.8
2025-04-07T1000,1802A,118.6245,31.7241,马鞍山市,濮塘,,,78,75,,32,137,,132,131,12,11,10,10,0.5,0.5
2025-04-07T1000,3633A,118.4918,31.6809,马鞍山市,雨山,,,,79,,37,,,109,103,19,18,,9,0.7,0.7
2025-04-07T1000,4191A,118.5274,31.72227,马鞍山市,慈湖高新区,颗粒物(PM10),59,67,89,32,39,112,,112,106,29,29,6,7,0.6,0.6
2025-04-07T1000,1686A,111.0286,21.4688,茂名市,电白南海,细颗粒物(PM2.5),85,97,94,63,58,50,,45,44,32,23,9,7,1.3,1.3
2025-04-07T1000,1687A,110.9294,21.6533,茂名市,茂石化七小,颗粒物(PM10),74,97,94,46,48,48,,44,44,29,20,7,8,1.1,1
2025-04-07T1000,1688A,110.9107,21.6687,茂名市,健康路,颗粒物(PM10),71,92,89,48,51,62,,52,52,27,21,20,16,1.0,0.9
2025-04-07T1000,1689A,110.8592,21.6828,茂名市,高岭,细颗粒物(PM2.5),83,110,104,61,50,49,,46,46,28,23,29,17,0.9,0.9
2025-04-07T1000,3450A,111.01,21.5165,茂名市,电白水东,颗粒物(PM10),68,85,84,46,43,52,,46,46,28,24,8,8,0.9,0.8
2025-04-07T1000,2539A,104.0308,30.0478,眉山市,黑龙滩水库,,25,20,35,17,19,75,,29,29,2,3,2,1,0.3,0.3
2025-04-07T1000,2540A,103.8416,30.0874,眉山市,气象局,细颗粒物(PM2.5),83,95,71,61,36,56,,12,12,28,25,4,3,0.8,0.7
2025-04-07T1000,3137A,103.8578,30.0744,眉山市,市委党校,"颗粒物(PM10),细颗粒物(PM2.5)",62,73,60,44,30,44,,13,13,29,25,8,6,0.9,0.6
2025-04-07T1000,3148A,103.8291,30.0564,眉山市,区人社局,细颗粒物(PM2.5),79,90,56,58,32,53,,22,20,31,28,11,5,0.8,0.8
2025-04-07T1000,1690A,116.1231,24.3284,梅州市,梅江月梅,颗粒物(PM10),55,59,56,34,33,58,,13,13,18,19,6,4,0.6,0.6
2025-04-07T1000,1691A,116.0797,24.2719,梅州市,梅县新城,颗粒物(PM10),63,75,55,35,32,54,,14,14,26,28,9,5,0.7,0.6
2025-04-07T1000,1692A,116.1248,24.2654,梅州市,环境监控中心,颗粒物(PM10),54,57,46,32,31,61,,19,19,19,26,9,8,0.8,0.7
2025-04-07T1000,3315A,116.1233,24.2991,梅州市,梅龙,颗粒物(PM10),51,51,49,35,31,52,,20,20,16,22,7,8,0.7,0.7
2025-04-07T1000,1878A,104.7778,31.4741,绵阳市,富乐山,颗粒物(PM10),58,66,60,38,26,54,,45,39,20,19,4,3,0.6,0.5
2025-04-07T1000,1880A,104.6697,31.4668,绵阳市,高新区自来水公司,颗粒物(PM10),87,123,78,48,30,48,,10,10,34,36,6,3,0.7,0.5
2025-04-07T1000,1881A,104.7287,31.5075,绵阳市,三水厂,颗粒物(PM10),77,104,72,38,30,42,,8,8,29,36,6,6,0.7,0.7
2025-04-07T1000,3491A,104.69,31.5322,绵阳市,西科大附属小学,颗粒物(PM10),86,121,76,55,31,53,,16,16,33,38,8,6,0.7,0.6
2025-04-07T1000,3492A,104.5648,31.5343,绵阳市,安州区旅游局,颗粒物(PM10),67,84,64,41,26,58,,27,27,21,24,10,7,0.9,0.9
2025-04-07T1000,4226A,104.7651,31.4531,绵阳市,绵阳市气象局,颗粒物(PM10),67,83,65,42,31,35,,36,30,30,26,3,3,0.5,0.4
2025-04-07T1000,1784A,129.61,44.561,牡丹江市,环保大楼,,,,21,,15,,,37,36,,17,8,6,0.3,0.4
2025-04-07T1000,1785A,129.6115,44.5782,牡丹江市,文化广场,,29,,24,20,18,74,,44,44,9,17,12,11,0.5,0.6
2025-04-07T1000,1786A,129.5904,44.5963,牡丹江市,第一医院,,25,16,20,9,15,77,,36,36,9,16,13,12,0.4,0.4
2025-04-07T1000,1787A,129.6364,44.6075,牡丹江市,机车工厂,,25,23,24,8,14,78,,34,34,15,18,8,20,0.5,0.5
2025-04-07T1000,1788A,129.6386,44.5462,牡丹江市,第一中学,,28,16,22,13,19,89,,32,32,4,12,8,9,0.5,0.6
2025-04-07T1000,2531A,105.0703,29.61,内江市,市监测站,细颗粒物(PM2.5),55,39,57,39,38,23,,35,25,26,24,7,5,1.0,0.7
2025-04-07T1000,2532A,105.0717,29.5947,内江市,东兴区政府,,46,41,52,32,31,19,,33,23,36,24,2,2,0.9,0.7
2025-04-07T1000,2533A,105.0653,29.5817,内江市,内江二中,细颗粒物(PM2.5),52,,57,36,36,38,,32,25,30,27,8,7,0.7,0.6
2025-04-07T1000,2534A,105.0406,29.5822,内江市,内江日报社,细颗粒物(PM2.5),63,,50,45,39,23,,29,22,30,22,6,6,0.7,0.5
2025-04-07T1000,2628A,92.0657,31.4846,那曲市,那曲监测站,细颗粒物(PM2.5),109,137,48,82,28,56,,42,42,53,26,18,8,1.7,1.1
2025-04-07T1000,4243A,92.0515,31.4787,那曲市,那曲市委宣传部,细颗粒物(PM2.5),84,106,47,62,24,46,,47,43,31,18,11,6,1.0,0.7
2025-04-07T1000,1290A,115.8931,28.6843,南昌市,省外办,颗粒物(PM10),81,112,96,58,52,21,,7,7,99,64,10,10,0.9,0.9
2025-04-07T1000,1291A,115.8886,28.7003,南昌市,省林业公司,颗粒物(PM10),91,132,108,53,44,17,,7,6,79,48,10,10,0.8,0.6
2025-04-07T1000,1292A,115.8126,28.7442,南昌市,林科所,颗粒物(PM10),63,75,69,34,32,97,,55,55,40,49,12,11,0.6,0.6
2025-04-07T1000,1294A,115.8518,28.687,南昌市,建工学校,颗粒物(PM10),83,116,105,33,49,58,,19,19,58,54,9,7,0.8,0.9
2025-04-07T1000,1295A,115.8921,28.6424,南昌市,象湖,颗粒物(PM10),77,103,100,48,42,67,,15,15,62,58,16,10,0.7,0.8
2025-04-07T1000,1296A,115.7423,28.7996,南昌市,武术学校,,47,47,53,19,24,143,,57,57,4,8,11,9,0.6,0.7
2025-04-07T1000,3046A,115.9084,28.6062,南昌市,机电学校,颗粒物(PM10),87,124,113,48,45,76,,25,25,40,54,13,6,0.7,0.7
2025-04-07T1000,3690A,115.9721,28.7031,南昌市,外国语学校,颗粒物(PM10),80,110,92,50,40,82,,30,30,34,44,15,7,0.6,0.4
2025-04-07T1000,4192A,115.9316,28.68677,南昌市,南京东路235号,颗粒物(PM10),96,141,116,48,47,78,,23,23,49,56,20,14,0.7,0.9
2025-04-07T1000,1905A,106.056,30.8064,南充市,西山风景区,细颗粒物(PM2.5),68,56,46,49,30,51,,47,44,20,18,7,5,0.9,0.8
2025-04-07T1000,1906A,106.0789,30.8023,南充市,南充市委,细颗粒物(PM2.5),83,99,64,61,35,54,,18,18,20,33,10,4,0.7,0.7
2025-04-07T1000,1907A,106.1031,30.8217,南充市,南充炼油厂,颗粒物(PM10),69,88,71,48,37,53,,26,26,18,33,7,4,0.6,0.5
2025-04-07T1000,4227A,106.1083,30.7884,南充市,梨树横街98号,颗粒物(PM10),72,93,63,45,29,52,,34,33,18,29,8,6,0.4,0.4
2025-04-07T1000,4304A,106.1172,30.843,南充市,清泉寺北路188号,颗粒物(PM10),70,89,69,50,36,49,,29,29,24,25,8,7,0.5,0.4
2025-04-07T1000,4305A,106.067,30.7616,南充市,同庆路1号,,,88,68,56,37,,,27,27,18,25,6,4,0.4,0.4
2025-04-07T1000,1151A,118.8086,32.1065,南京市,迈皋桥,颗粒物(PM10),66,81,62,39,26,127,,120,116,46,30,4,9,0.7,0.6
2025-04-07T1000,1152A,118.7538,32.0551,南京市,草场门,颗粒物(PM10),64,78,72,34,28,118,,102,102,32,31,7,11,0.8,0.8
2025-04-07T1000,1153A,118.7794,32.0745,南京市,山西路,颗粒物(PM10),75,100,83,34,26,128,,112,112,27,23,7,9,0.4,0.4
2025-04-07T1000,1154A,118.7752,32.0023,南京市,中华门,颗粒物(PM10),67,83,69,36,29,98,,90,90,38,31,12,16,0.6,0.6
2025-04-07T1000,1155A,118.8109,32.0309,南京市,瑞金路,颗粒物(PM10),71,92,73,31,28,116,,86,86,20,24,6,6,0.5,0.6
2025-04-07T1000,1156A,118.7997,32.0754,南京市,玄武湖,颗粒物(PM10),73,96,72,33,24,102,,89,88,27,22,10,11,0.7,0.7
2025-04-07T1000,1157A,118.6414,32.0931,南京市,浦口,颗粒物(PM10),75,99,80,33,28,119,,126,123,41,24,16,10,0.9,0.4
2025-04-07T1000,1158A,118.7356,31.9996,南京市,奥体中心,颗粒物(PM10),69,87,77,46,33,106,,108,105,34,26,10,12,0.5,0.5
2025-04-07T1000,1159A,118.9125,32.1028,南京市,仙林大学城,,,97,77,39,26,,,102,97,24,20,11,12,0.8,0.8
2025-04-07T1000,3422A,118.8436,31.9198,南京市,江宁彩虹桥,颗粒物(PM10),76,101,75,44,30,132,,93,93,23,23,6,6,0.7,0.6
2025-04-07T1000,3427A,118.8554,32.3578,南京市,六合雄州,颗粒物(PM10),68,85,67,30,26,127,,96,95,31,18,10,8,0.7,0.4
2025-04-07T1000,4249A,118.8708,31.3402,南京市,汶溪路181号,颗粒物(PM10),73,96,79,49,40,145,,116,116,22,19,7,5,0.7,0.6
2025-04-07T1000,4312A,119.019,31.6512,南京市,中山西路1号,颗粒物(PM10),58,66,61,35,32,148,,80,80,20,25,4,9,0.6,0.6
2025-04-07T1000,1401A,108.3103,22.7881,南宁市,二十一中,细颗粒物(PM2.5),82,88,86,60,59,53,,75,71,37,28,5,6,1.1,1.1
2025-04-07T1000,1402A,108.3141,22.8528,南宁市,北湖,细颗粒物(PM2.5),90,97,87,67,58,50,,65,60,38,30,8,9,0.9,0.8
2025-04-07T1000,1403A,108.3206,22.8225,南宁市,市监测站,细颗粒物(PM2.5),79,90,86,58,58,54,,79,74,35,26,8,8,0.9,0.9
2025-04-07T1000,1404A,108.3829,22.8037,南宁市,大自然花园,细颗粒物(PM2.5),85,100,86,63,60,52,,65,58,33,23,6,6,1.2,1.1
2025-04-07T1000,1405A,108.4394,22.7904,南宁市,仙葫,细颗粒物(PM2.5),100,105,81,75,67,48,,47,41,28,24,4,4,0.9,0.9
2025-04-07T1000,1406A,108.2397,22.8467,南宁市,区农职院,细颗粒物(PM2.5),77,87,89,56,58,56,,42,42,31,32,5,6,1.0,1
2025-04-07T1000,1407A,108.3275,22.735,南宁市,英华嘉园,细颗粒物(PM2.5),78,96,89,57,62,68,,66,66,23,25,8,8,0.7,0.8
2025-04-07T1000,3401A,108.4834,22.7618,南宁市,红星社区,细颗粒物(PM2.5),85,100,94,63,60,66,,52,52,17,23,9,9,0.9,1
2025-04-07T1000,4221A,108.2177,22.7774,南宁市,乐贤路16号,细颗粒物(PM2.5),79,92,92,58,65,55,,30,30,35,42,9,10,0.8,0.9
2025-04-07T1000,2331A,118.0966,26.6761,南平市,茫荡山,,,,,,,,,,,,,,,,
2025-04-07T1000,2332A,118.1681,26.6369,南平市,南平市监测站,,42,42,47,21,30,112,,49,49,12,17,7,5,0.7,0.8
2025-04-07T1000,2333A,118.1825,26.6489,南平市,南平铝业有限公司,颗粒物(PM10),53,55,52,22,29,112,,48,48,10,19,7,6,0.7,0.9
2025-04-07T1000,2334A,118.1756,26.6272,南平市,南平七中,颗粒物(PM10),59,68,50,29,29,101,,50,50,13,13,8,6,0.7,0.7
2025-04-07T1000,1168A,120.9098,31.9663,南通市,狼山街道,颗粒物(PM10),77,104,95,48,52,119,,58,58,38,43,9,9,0.8,0.9
2025-04-07T1000,1169A,120.86,32.0005,南通市,虹桥,细颗粒物(PM2.5),79,99,97,58,59,103,,90,90,48,38,11,10,0.8,0.8
2025-04-07T1000,1170A,120.87,32.02,南通市,城中,颗粒物(PM10),87,123,109,55,54,120,,104,104,44,37,11,11,1.0,0.9
2025-04-07T1000,1171A,120.94,31.93,南通市,星湖花园,颗粒物(PM10),78,106,93,54,53,129,,77,77,37,41,10,10,0.4,0.4
2025-04-07T1000,1172A,120.81,32.0417,南通市,紫琅学院,细颗粒物(PM2.5),84,106,97,62,55,88,,56,56,57,48,8,8,0.7,0.6
2025-04-07T1000,3291A,121.067,32.062,南通市,通州监测站,颗粒物(PM10),78,105,90,48,52,119,,80,80,38,25,12,7,0.6,0.6
2025-04-07T1000,3432A,120.9348,31.9883,南通市,环境教育馆,颗粒物(PM10),80,110,91,53,56,133,,83,83,38,33,9,9,0.5,0.6
2025-04-07T1000,2404A,112.5224,33.0122,南阳市,瓦房庄,,,120,114,41,40,,,100,98,13,18,10,6,0.5,0.5
2025-04-07T1000,2405A,112.5003,32.9735,南阳市,汉画馆,颗粒物(PM10),80,109,105,41,38,96,,91,88,18,20,9,6,0.5,0.5
2025-04-07T1000,2406A,112.5573,33.027,南阳市,气象站,颗粒物(PM10),89,128,127,36,35,109,,103,102,14,19,10,8,0.5,0.5
2025-04-07T1000,2407A,112.5481,32.9689,南阳市,理工学院,颗粒物(PM10),80,109,112,37,37,97,,100,96,16,19,7,5,0.6,0.6
2025-04-07T1000,4008A,112.5234,32.9922,南阳市,卧龙区政府,颗粒物(PM10),85,120,119,36,40,103,,97,95,9,14,9,6,0.6,0.6
2025-04-07T1000,1234A,121.8358,29.911,宁波市,区环保大楼,颗粒物(PM10),55,59,86,28,42,118,,88,88,27,52,8,10,0.7,0.7
2025-04-07T1000,1235A,121.56,29.82,宁波市,万里学院,,45,43,80,22,43,141,,89,89,15,21,19,14,0.8,0.7
2025-04-07T1000,1236A,121.713,29.9572,宁波市,龙赛医院,,,48,107,,45,,,77,77,14,44,,13,0.6,0.7
2025-04-07T1000,1239A,121.633,29.7733,宁波市,钱湖水厂,,40,36,71,24,38,126,,102,102,13,18,8,8,0.7,0.7
2025-04-07T1000,1240A,121.5856,29.8635,宁波市,太古小学,颗粒物(PM10),51,52,86,26,38,132,,94,94,19,22,10,10,0.6,0.5
2025-04-07T1000,1241A,121.524,29.8674,宁波市,市环境监测中心,,47,47,87,20,42,134,,87,87,26,35,12,11,0.5,0.5
2025-04-07T1000,2871A,121.6147,29.9017,宁波市,万里国际学校,颗粒物(PM10),56,62,90,24,37,138,,108,108,16,23,8,10,0.8,0.8
2025-04-07T1000,3710A,121.5594,29.8975,宁波市,白沙活动中心,颗粒物(PM10),52,53,92,21,44,139,,96,96,19,27,11,9,0.6,0.5
2025-04-07T1000,2339A,119.5001,26.6946,宁德市,金涵水库,,,,,,,,,,,,,,,,
2025-04-07T1000,2341A,119.5388,26.6612,宁德市,宁德市监测站,颗粒物(PM10),60,69,48,32,26,85,,73,72,20,13,8,5,0.6,0.6
2025-04-07T1000,3209A,119.5231,26.6562,宁德市,宁德一中,,,57,47,32,27,,,70,68,21,10,9,6,0.4,0.3
2025-04-07T1000,2618A,98.8601,25.8567,怒江傈僳族自治州,州监测站,颗粒物(PM10),51,51,45,32,30,64,,79,74,13,9,7,7,0.4,0.4
2025-04-07T1000,2619A,98.8546,25.8417,怒江傈僳族自治州,泸水一中,细颗粒物(PM2.5),59,61,45,42,32,35,,47,42,30,18,7,7,0.5,0.5
2025-04-07T1000,1888A,101.6891,26.571,攀枝花市,弄弄坪,,46,46,61,13,35,74,,68,66,21,30,10,19,0.6,1.5
2025-04-07T1000,1889A,101.5769,26.5928,攀枝花市,河门口,颗粒物(PM10),69,88,57,40,33,36,,56,50,46,19,26,19,1.1,0.9
2025-04-07T1000,1890A,101.7169,26.585,攀枝花市,炳草岗,,45,45,57,15,30,68,,56,56,27,29,16,14,0.9,0.9
2025-04-07T1000,1891A,101.7369,26.5008,攀枝花市,仁和,细颗粒物(PM2.5),57,54,49,40,35,82,,75,67,27,17,13,9,0.8,0.7
2025-04-07T1000,2835A,101.7227,26.567,攀枝花市,四十中小,,38,38,56,14,26,84,,90,89,13,15,8,8,0.8,0.8
2025-04-07T1000,1604A,122.0303,41.1489,盘锦市,开发区,颗粒物(PM10),56,62,77,35,62,92,,51,51,22,30,14,19,0.6,1
2025-04-07T1000,1605A,122.0485,41.0883,盘锦市,兴隆台,颗粒物(PM10),57,63,83,35,64,89,,42,42,21,36,20,16,0.7,1.2
2025-04-07T1000,1606A,121.8297,41.1028,盘锦市,新生街道,,42,,55,29,61,110,,36,36,13,39,10,8,0.8,1
2025-04-07T1000,1832A,113.3257,33.742,平顶山市,新华旅馆,颗粒物(PM10),80,109,116,36,36,114,,112,111,13,15,6,6,0.5,0.5
2025-04-07T1000,1833A,113.2919,33.737,平顶山市,规划设计院,颗粒物(PM10),80,110,111,37,40,116,,108,108,6,13,6,5,0.4,0.4
2025-04-07T1000,1834A,113.182,33.774,平顶山市,平顶山工学院,颗粒物(PM10),78,105,108,36,37,110,,105,105,9,10,6,6,0.5,0.5
2025-04-07T1000,3204A,113.3025,33.73,平顶山市,规划局,颗粒物(PM10),80,110,115,39,41,115,,113,111,10,14,6,6,0.7,0.7
2025-04-07T1000,3594A,112.8867,33.9116,平顶山市,石龙区,颗粒物(PM10),83,116,130,40,42,112,,104,95,11,12,7,7,0.3,0.3
2025-04-07T1000,2656A,106.6692,35.5461,平凉市,聚贤嘉苑,颗粒物(PM10),56,61,108,24,29,92,,76,69,15,19,21,21,0.6,0.5
2025-04-07T1000,2657A,106.7021,35.5307,平凉市,博物馆,颗粒物(PM10),63,76,115,25,32,74,,50,50,26,25,11,11,0.8,0.7
2025-04-07T1000,2347A,114.0997,27.5002,萍乡市,武功山,,43,43,42,25,24,72,,60,60,8,7,10,10,1.1,1
2025-04-07T1000,2348A,113.8385,27.6434,萍乡市,中医院,颗粒物(PM10),70,89,74,42,31,58,,44,42,38,23,24,10,2.3,1
2025-04-07T1000,2349A,113.8493,27.6253,萍乡市,市政府车库,细颗粒物(PM2.5),75,79,60,55,37,72,,57,56,34,19,20,7,2.3,0.8
2025-04-07T1000,2350A,113.8676,27.6435,萍乡市,市环保局,细颗粒物(PM2.5),69,86,69,50,37,68,,37,37,33,22,45,9,1.3,0.9
2025-04-07T1000,2351A,113.866,27.6198,萍乡市,安源区政府,颗粒物(PM10),66,81,69,43,32,61,,43,42,31,20,24,11,2.3,0.7
2025-04-07T1000,2319A,119.0141,25.4325,莆田市,荔城区仓后路,颗粒物(PM10),59,67,54,29,28,132,,93,93,13,16,2,3,0.5,0.7
2025-04-07T1000,2320A,119.0015,25.4553,莆田市,莆田市监测站,颗粒物(PM10),54,58,47,29,26,144,,102,102,6,10,4,5,0.4,0.5
2025-04-07T1000,2321A,119.1119,25.4561,莆田市,涵江区六中,颗粒物(PM10),61,71,56,25,25,153,,116,116,8,16,3,4,0.6,0.7
2025-04-07T1000,2322A,119.1013,25.3215,莆田市,秀屿区政府,颗粒物(PM10),69,87,52,31,22,150,,100,100,11,15,4,6,0.6,0.7
2025-04-07T1000,2323A,118.981,25.4792,莆田市,东圳水库,,,,,,,,,,,,,,,,
2025-04-07T1000,2392A,115.0312,35.7636,濮阳市,环保局,颗粒物(PM10),85,119,109,45,36,83,,79,73,19,16,10,8,0.6,0.5
2025-04-07T1000,2394A,115.0574,35.7609,濮阳市,油田运输公司,颗粒物(PM10),83,115,107,42,37,89,,83,76,21,16,10,7,0.8,0.7
2025-04-07T1000,3021A,115,35.7668,濮阳市,濮水河管理处,颗粒物(PM10),94,138,123,56,44,76,,70,64,26,22,10,8,0.8,0.8
2025-04-07T1000,4216A,115.0924,35.7686,濮阳市,任丘路479号,颗粒物(PM10),94,137,122,48,40,89,,80,74,20,15,10,7,1.1,0.9
2025-04-07T1000,2601A,100.98,22.7633,普洱市,市环保局,细颗粒物(PM2.5),87,81,90,64,46,74,,69,64,10,10,4,6,0.8,0.8
2025-04-07T1000,2602A,100.9817,22.8322,普洱市,普洱第二中学,细颗粒物(PM2.5),79,73,74,58,51,71,,55,55,11,12,6,6,0.8,0.8
2025-04-07T1000,2262A,131.0518,45.8751,七台河市,新一中,,35,,22,24,16,111,,47,47,10,14,13,12,1.0,1
2025-04-07T1000,3345A,131.0577,45.7879,七台河市,中波台,,30,22,28,15,19,94,,44,44,15,26,9,10,0.4,0.5
2025-04-07T1000,3637A,131.0176,45.7761,七台河市,人民广场,颗粒物(PM10),63,75,31,20,21,105,,55,55,15,28,10,10,0.7,0.6
2025-04-07T1000,3684A,130.8781,45.8222,七台河市,新建矿广场,,,,40,,18,,,25,25,16,25,3,10,,0.6
2025-04-07T1000,1779A,123.9305,47.3636,齐齐哈尔市,安居小区,颗粒物(PM10),59,67,57,20,29,72,,68,64,17,18,3,2,0.5,0.5
2025-04-07T1000,1780A,123.9488,47.3386,齐齐哈尔市,中心广场,颗粒物(PM10),61,72,64,29,32,69,,58,57,15,19,6,6,0.5,0.5
2025-04-07T1000,1781A,123.9483,47.3227,齐齐哈尔市,农牧车辆厂,颗粒物(PM10),53,56,49,31,25,73,,66,62,14,14,6,5,0.2,0.2
2025-04-07T1000,1783A,123.945,47.2988,齐齐哈尔市,市环境监测站,,50,45,51,35,32,72,,60,59,13,14,3,3,0.4,0.4
2025-04-07T1000,3662A,123.6333,47.2075,齐齐哈尔市,富区青少年活动中心,细颗粒物(PM2.5),58,61,52,41,40,61,,53,53,12,11,2,2,0.5,0.5
2025-04-07T1000,2591A,107.9783,26.5747,黔东南苗族侗族自治州,市环境监测站,细颗粒物(PM2.5),88,92,77,65,53,28,,36,36,21,22,3,4,0.6,0.6
2025-04-07T1000,2881A,107.8908,26.5311,黔东南苗族侗族自治州,凯里学院,细颗粒物(PM2.5),84,66,68,62,46,20,,23,22,18,16,2,3,0.7,0.6
2025-04-07T1000,2593A,107.5228,26.2403,黔南布依族苗族自治州,小围寨,细颗粒物(PM2.5),70,68,53,51,39,65,,38,38,7,10,4,5,0.5,0.5
2025-04-07T1000,3538A,107.5175,26.2978,黔南布依族苗族自治州,沙坝,细颗粒物(PM2.5),67,66,64,48,43,58,,33,33,10,13,4,4,0.6,0.6
2025-04-07T1000,2589A,104.9022,25.0925,黔西南布依族苗族自治州,场坝街,,28,28,35,19,26,42,,56,52,16,12,5,5,0.7,0.5
2025-04-07T1000,2590A,104.8811,25.0992,黔西南布依族苗族自治州,坪东大道,,32,32,43,21,32,39,,53,49,18,14,5,3,0.7,0.4
2025-04-07T1000,2502A,108.6236,21.9667,钦州市,市环保站,细颗粒物(PM2.5),85,117,124,63,80,23,,25,21,43,36,14,13,0.9,1.1
2025-04-07T1000,2503A,108.6549,21.9481,钦州市,沙埠小学,细颗粒物(PM2.5),89,126,117,66,75,17,,16,14,41,36,18,12,1.0,1.1
2025-04-07T1000,2504A,108.5989,21.7431,钦州市,港区一小,颗粒物(PM10),82,114,103,53,63,32,,26,26,43,34,11,9,1.0,1
2025-04-07T1000,3404A,108.5959,21.9633,钦州市,北职校,细颗粒物(PM2.5),120,136,107,91,90,13,,16,12,48,33,24,10,1.2,1.3
2025-04-07T1000,1043A,119.7493,40.0116,秦皇岛市,第一关,细颗粒物(PM2.5),70,86,60,51,33,60,,31,31,39,58,8,8,0.5,0.4
2025-04-07T1000,1044A,119.5897,39.9499,秦皇岛市,监测站,颗粒物(PM10),84,117,58,49,26,43,,24,24,49,40,7,8,0.6,0.5
2025-04-07T1000,1046A,119.5251,39.9041,秦皇岛市,建设大厦,颗粒物(PM10),70,89,67,37,28,52,,24,24,47,44,7,6,0.6,0.4
