timepoint,stationcode,longitude,latitude,area,positionname,primarypollutant,aqi,pm10,pm10_24h,pm2_5,pm2_5_24h,o3,o3_24h,o3_8h,o3_8h_24h,no2,no2_24h,so2,so2_24h,co,co_24h
2023-10-26T11:00:00,1001A,116.3621,39.8784,北京市,万寿西宫,,35,35,72,9,36,127,44,34,29,25,53,5,3,0.6,0.6
2023-10-26T11:00:00,1002A,116.2202,40.2915,北京市,定陵,,26,26,20,7,7,90,43,34,31,14,11,2,3,0.1,0
2023-10-26T11:00:00,1003A,116.4174,39.9289,北京市,东四,,37,37,68,9,32,114,45,36,32,20,44,5,3,0.5,0.6
2023-10-26T11:00:00,1004A,116.4072,39.8863,北京市,天坛,,28,28,63,7,35,179,48,25,22,21,42,7,2,0.6,0.6
2023-10-26T11:00:00,1005A,116.462,39.9365,北京市,农展馆,,35,35,60,9,31,110,43,25,25,29,62,5,3,0.6,0.6
2023-10-26T11:00:00,1006A,116.3392,39.9295,北京市,官园,,42,42,60,9,28,104,45,35,29,27,47,5,2,0.7,0.7
2023-10-26T11:00:00,1007A,116.2878,39.9611,北京市,海淀万柳,,48,48,52,11,21,85,33,12,12,40,62,3,2,0.6,0.8
2023-10-26T11:00:00,1008A,116.6636,40.135,北京市,顺义新城,颗粒物(PM10),57,63,44,15,21,114,48,39,38,17,31,4,3,0.4,0.3
2023-10-26T11:00:00,1009A,116.6275,40.3275,北京市,怀柔镇,,38,38,32,11,16,110,38,38,34,30,23,5,3,0.4,0.3
2023-10-26T11:00:00,1010A,116.2296,40.217,北京市,昌平镇,,36,36,31,10,15,98,46,36,36,27,31,5,4,0.2,0.3
2023-10-26T11:00:00,1011A,116.3966,39.9821,北京市,奥体中心,,37,37,64,8,30,103,40,11,11,23,69,2,3,0.5,0.7
2023-10-26T11:00:00,1012A,116.184,39.9136,北京市,古城,,47,47,57,9,20,103,41,12,12,24,57,4,2,0.5,0.7
2023-10-26T11:00:00,1015A,117.1444,39.1661,天津市,勤俭道,,22,22,173,3,99,248,52,30,30,15,64,8,11,0.4,1
2023-10-26T11:00:00,1017A,117.237,39.1082,天津市,大直沽八号路,,24,24,162,4,92,204,52,27,26,21,62,3,7,0.3,0.9
2023-10-26T11:00:00,1018A,117.202,39.0927,天津市,前进道,,,20,148,6,83,198,52,36,30,,64,7,10,,1
2023-10-26T11:00:00,1019A,117.1837,39.2133,天津市,淮河道,,25,25,178,4,104,250,55,30,30,18,83,8,10,0.5,1
2023-10-26T11:00:00,1021A,117.307,39.0877,天津市,跃进路,,20,20,153,3,91,165,56,22,22,15,70,7,10,0.4,1
2023-10-26T11:00:00,1023A,117.707,39.0343,天津市,第四大街,,17,13,139,2,82,133,53,40,40,16,83,5,9,0.3,1.1
2023-10-26T11:00:00,1024A,117.457,38.8394,天津市,永明路,,,19,156,3,93,144,,51,51,14,78,5,10,0.3,0.8
2023-10-26T11:00:00,1026A,117.764,39.1587,天津市,汉北路,,18,16,127,3,71,133,55,34,34,15,76,10,10,0.5,0.8
2023-10-26T11:00:00,1027A,117.157,38.9194,天津市,团泊洼,,18,11,160,4,99,176,57,29,29,18,61,5,8,0.5,1.1
2023-10-26T11:00:00,1029A,114.4422,38.0444,石家庄市,职工医院,,,72,66,22,24,134,61,19,19,21,56,,6,0.4,0.5
2023-10-26T11:00:00,1030A,114.6063,38.0266,石家庄市,高新区,颗粒物(PM10),66,81,82,23,30,132,69,47,47,23,45,4,5,0.5,0.5
2023-10-26T11:00:00,1031A,114.4898,38.1328,石家庄市,西北水源,,,82,82,23,23,122,54,15,15,28,51,,3,,0.5
2023-10-26T11:00:00,1032A,114.4586,38.0058,石家庄市,西南高教,颗粒物(PM10),60,69,75,31,30,133,63,38,38,22,47,4,6,0.5,0.6
2023-10-26T11:00:00,1033A,114.5331,38.0178,石家庄市,世纪公园,颗粒物(PM10),58,65,66,27,31,129,68,47,47,21,39,7,8,0.5,0.6
2023-10-26T11:00:00,1034A,114.509,38.0457,石家庄市,人民会堂,颗粒物(PM10),67,83,66,33,32,132,68,45,45,24,42,6,8,0.5,0.5
2023-10-26T11:00:00,1035A,114.3524,37.8911,石家庄市,封龙山,颗粒物(PM10),62,74,70,20,21,143,67,69,62,16,10,7,10,0.5,0.5
2023-10-26T11:00:00,1037A,118.131,39.6363,唐山市,雷达站,,33,33,134,4,76,182,63,47,47,14,39,4,8,0.5,0.9
2023-10-26T11:00:00,1038A,118.1725,39.6334,唐山市,物资局,,41,41,122,7,76,174,62,46,46,21,51,9,10,0.6,0.8
2023-10-26T11:00:00,1040A,118.1705,39.6506,唐山市,十二中,,38,38,123,10,63,169,57,40,40,22,51,4,7,0.5,0.8
2023-10-26T11:00:00,1041A,118.1869,39.622,唐山市,小山,,41,41,131,10,67,172,53,37,37,17,41,8,6,0.7,0.8
2023-10-26T11:00:00,1042A,119.5134,39.8207,秦皇岛市,北戴河环保局,,28,28,130,5,71,159,61,58,58,22,48,7,13,0,0.7
2023-10-26T11:00:00,1043A,119.7493,40.0116,秦皇岛市,第一关,,,18,109,6,67,196,,38,38,15,61,8,13,0.2,0.8
2023-10-26T11:00:00,1044A,119.5897,39.9499,秦皇岛市,监测站,,21,19,100,7,66,199,65,49,49,13,43,8,12,0.3,0.8
2023-10-26T11:00:00,1046A,119.5251,39.9041,秦皇岛市,建设大厦,,21,17,111,0,59,196,65,49,49,19,38,2,7,0.1,0.5
2023-10-26T11:00:00,1048A,114.5302,36.6116,邯郸市,东污水处理厂,细颗粒物(PM2.5),119,118,76,90,37,133,76,54,54,42,46,9,21,0.8,1.7
2023-10-26T11:00:00,1049A,114.4918,36.5713,邯郸市,矿院,细颗粒物(PM2.5),120,136,77,91,36,127,74,55,55,50,48,10,21,0.7,1.7
2023-10-26T11:00:00,1050A,114.484,36.6133,邯郸市,丛台公园,细颗粒物(PM2.5),122,174,76,92,38,139,76,54,54,50,50,10,25,0.7,1.7
2023-10-26T11:00:00,1051A,115.493,38.8632,保定市,游泳馆,颗粒物(PM10),67,84,124,17,74,106,55,52,44,32,61,7,8,0.6,0.6
2023-10-26T11:00:00,1052A,115.5213,38.8959,保定市,华电二区,颗粒物(PM10),51,51,121,17,82,101,45,40,32,25,56,11,8,0.4,0.6
2023-10-26T11:00:00,1053A,115.4713,38.9108,保定市,接待中心,颗粒物(PM10),66,81,136,17,70,120,48,42,32,24,57,11,8,0.6,0.7
2023-10-26T11:00:00,1054A,115.4612,38.8416,保定市,地表水厂,颗粒物(PM10),66,82,132,16,54,95,52,50,43,24,62,8,7,0.6,0.8
2023-10-26T11:00:00,1056A,115.5086,38.8639,保定市,监测站,颗粒物(PM10),65,80,129,22,69,100,49,48,38,38,68,8,8,0.4,0.5
2023-10-26T11:00:00,1057A,114.8883,40.8336,张家口市,人民公园,,27,27,38,3,9,93,65,51,51,9,11,4,3,0.4,0.4
2023-10-26T11:00:00,1059A,114.8687,40.8042,张家口市,五金库,,21,20,34,4,10,93,65,57,56,11,11,5,3,0.0,0
2023-10-26T11:00:00,1060A,114.8902,40.762,张家口市,世纪豪园,,24,24,36,10,12,94,65,56,56,11,12,4,3,0.3,0.3
2023-10-26T11:00:00,1061A,114.8916,40.8661,张家口市,北泵房,,23,18,32,3,10,108,73,58,58,5,8,9,7,0.1,0.1
2023-10-26T11:00:00,1062A,117.9531,40.9081,承德市,铁路,,,8,50,2,17,83,,22,16,30,31,8,10,0.3,0.5
2023-10-26T11:00:00,1063A,117.9392,40.9763,承德市,中国银行,,15,15,51,2,16,87,43,15,15,18,32,7,9,0.3,0.5
2023-10-26T11:00:00,1064A,117.9503,40.928,承德市,开发区,,47,47,60,12,23,88,38,13,13,26,42,6,8,0.3,0.5
2023-10-26T11:00:00,1065A,117.8051,40.9655,承德市,文化中心,,32,32,68,3,18,98,40,14,14,27,44,4,12,0.3,0.6
2023-10-26T11:00:00,1066A,117.9268,41.0026,承德市,离宫,,15,2,36,8,20,86,48,30,30,12,19,1,4,0.3,0.3
2023-10-26T11:00:00,1067A,116.6708,39.5111,廊坊市,药材公司,,39,39,120,11,66,131,49,29,28,26,54,5,5,0.7,0.8
2023-10-26T11:00:00,1068A,116.7214,39.5589,廊坊市,开发区,,48,48,111,7,59,129,48,21,21,25,68,6,3,0.6,0.6
2023-10-26T11:00:00,1070A,116.7244,39.5269,廊坊市,北华航天学院,颗粒物(PM10),51,51,123,5,57,132,48,25,24,22,53,8,7,0.7,0.7
2023-10-26T11:00:00,1071A,116.8842,38.2991,沧州市,沧县城建局,,50,50,123,9,60,138,67,42,42,12,67,3,7,0.3,0.8
2023-10-26T11:00:00,1072A,116.8584,38.3254,沧州市,电视转播站,颗粒物(PM10),54,57,110,5,54,144,68,38,38,7,61,6,8,0.3,0.7
2023-10-26T11:00:00,1073A,116.8709,38.3228,沧州市,市环保局,颗粒物(PM10),52,53,126,15,63,142,66,43,43,7,57,3,6,0.2,0.7
2023-10-26T11:00:00,1074A,115.6838,37.7541,衡水市,电机北厂,颗粒物(PM10),100,149,116,1,55,155,66,24,24,7,47,1,4,0.2,0.6
2023-10-26T11:00:00,1075A,115.6303,37.7316,衡水市,市监测站,颗粒物(PM10),64,77,108,7,55,146,63,31,31,15,58,6,11,0.4,0.7
2023-10-26T11:00:00,1077A,114.4704,37.0886,邢台市,达活泉,细颗粒物(PM2.5),103,143,93,77,32,119,77,61,61,30,48,9,11,1.0,1.2
2023-10-26T11:00:00,1078A,114.5062,37.0349,邢台市,邢师高专,颗粒物(PM10),95,139,90,68,32,112,75,60,60,31,52,7,8,0.5,0.8
2023-10-26T11:00:00,1079A,114.5237,37.0851,邢台市,路桥公司,细颗粒物(PM2.5),107,130,82,80,38,117,75,55,55,35,51,6,6,0.6,0.7
2023-10-26T11:00:00,1080A,114.4725,37.0719,邢台市,市环保局,细颗粒物(PM2.5),97,140,87,72,30,121,77,62,62,23,30,8,8,0.7,0.8
2023-10-26T11:00:00,1081A,112.522,37.8873,太原市,尖草坪,颗粒物(PM10),62,74,128,24,66,144,44,12,12,47,76,25,13,0.6,1.1
2023-10-26T11:00:00,1083A,112.434,38.0108,太原市,上兰,,,,,,,,,,,,,,,,
2023-10-26T11:00:00,1084A,112.469,37.7124,太原市,晋源,颗粒物(PM10),79,108,138,15,70,157,60,19,19,32,68,11,16,0.9,1.3
2023-10-26T11:00:00,1085A,112.5583,37.7394,太原市,小店,颗粒物(PM10),54,57,136,13,64,140,59,14,14,37,72,16,17,1.1,1.1
2023-10-26T11:00:00,1086A,112.5369,37.8692,太原市,桃园,颗粒物(PM10),85,120,129,29,60,141,24,8,8,86,84,59,16,3.7,1.5
2023-10-26T11:00:00,1087A,112.57,37.8195,太原市,坞城,,,82,106,28,54,148,,15,12,,45,,16,,1.1
2023-10-26T11:00:00,1088A,112.549,37.9854,太原市,南寨,颗粒物(PM10),74,98,132,17,55,129,61,18,18,27,70,14,12,0.4,0.8
2023-10-26T11:00:00,1090A,111.6507,40.7517,呼和浩特市,呼市一监,,,78,102,,48,147,,13,12,31,38,15,12,0.6,0.6
2023-10-26T11:00:00,1091A,111.6572,40.8033,呼和浩特市,小召,颗粒物(PM10),71,92,94,32,41,141,41,30,18,38,40,12,12,0.6,0.6
2023-10-26T11:00:00,1094A,111.7516,40.8369,呼和浩特市,如意水处理厂,颗粒物(PM10),63,76,83,26,37,145,51,16,16,34,47,18,13,0.5,0.5
2023-10-26T11:00:00,1095A,111.7276,40.8062,呼和浩特市,二十九中,颗粒物(PM10),65,80,98,24,41,150,46,17,17,35,47,17,14,0.6,0.6
2023-10-26T11:00:00,1096A,111.5512,40.7866,呼和浩特市,工大金川校区,,,,109,,48,125,,29,8,48,39,13,12,0.7,0.6
2023-10-26T11:00:00,1097A,111.717,40.7612,呼和浩特市,化肥厂生活区,,,,103,,49,165,44,17,17,36,37,,13,,0.7
2023-10-26T11:00:00,1098A,123.6836,41.9339,沈阳市,森林路,,,,,,,,,,,,,,,,
2023-10-26T11:00:00,1099A,123.505,41.7406,沈阳市,浑南东路,,31,31,66,10,32,176,56,48,45,16,25,8,13,0.3,0.6
2023-10-26T11:00:00,1100A,123.4231,41.6989,沈阳市,新秀街,,18,12,58,2,32,177,57,54,51,15,28,9,13,0.4,0.7
2023-10-26T11:00:00,1102A,123.5903,41.8411,沈阳市,东陵路,,,,72,5,31,193,57,43,43,12,22,7,12,,0.6
2023-10-26T11:00:00,1103A,123.4264,41.8467,沈阳市,陵东街,,19,12,52,4,30,190,59,41,36,15,27,8,10,0.4,0.8
2023-10-26T11:00:00,1104A,123.4114,41.7653,沈阳市,文化路,,19,13,66,2,31,194,59,56,51,13,22,10,12,0.6,1
2023-10-26T11:00:00,1105A,123.4678,41.7867,沈阳市,小河沿,,19,15,53,2,27,183,60,48,46,17,26,7,10,0.5,0.8
2023-10-26T11:00:00,1106A,123.4017,41.7972,沈阳市,太原街,,27,27,64,2,32,194,56,48,43,18,31,6,8,0.3,0.6
2023-10-26T11:00:00,1108A,123.3783,41.9228,沈阳市,京沈街,,27,27,90,2,46,202,60,52,48,10,22,8,13,0.3,0.6
2023-10-26T11:00:00,1109A,121.612,38.9741,大连市,甘井子,,21,11,116,3,67,175,65,75,57,15,31,3,18,0.6,0.7
2023-10-26T11:00:00,1110A,121.565,38.9511,大连市,周水子,,20,17,114,3,63,185,61,75,57,18,34,6,9,0.5,1
2023-10-26T11:00:00,1111A,121.5637,38.8845,大连市,星海三站,,22,22,102,3,65,199,64,82,58,12,21,15,18,0.4,0.7
2023-10-26T11:00:00,1112A,121.6302,38.9117,大连市,青泥洼桥,,,15,108,3,60,178,,71,49,22,25,7,10,0.5,1
2023-10-26T11:00:00,1113A,121.6251,38.8638,大连市,傅家庄,,20,14,91,3,64,198,64,84,58,16,21,8,12,0.2,0.5
2023-10-26T11:00:00,1114A,121.5213,38.8661,大连市,七贤岭,,23,17,105,4,52,205,72,90,68,19,25,7,9,0.7,1
2023-10-26T11:00:00,1115A,121.2529,38.8061,大连市,旅顺,,22,16,85,2,57,202,70,80,67,15,23,10,10,0.4,0.8
2023-10-26T11:00:00,1116A,121.7485,39.1311,大连市,金州,,21,2,128,4,63,185,66,72,58,16,32,9,14,0.5,1
2023-10-26T11:00:00,1117A,121.7811,39.0496,大连市,开发区,,34,34,126,3,67,179,64,77,58,16,32,6,10,0.3,0.8
2023-10-26T11:00:00,1118A,121.9762,39.0631,大连市,双D港,,39,39,91,4,54,208,75,79,64,22,30,10,9,0.4,0.9
2023-10-26T11:00:00,1119A,125.3325,43.9166,长春市,食品厂,,19,19,72,7,42,149,52,35,35,16,29,6,8,0.2,0.6
2023-10-26T11:00:00,1120A,125.2863,43.9027,长春市,客车厂,,,26,68,11,45,141,49,28,27,13,31,,14,0.4,0.7
2023-10-26T11:00:00,1121A,125.2841,43.8463,长春市,邮电学院,,28,28,73,6,30,164,60,40,40,14,29,7,10,0.2,0.5
2023-10-26T11:00:00,1122A,125.3716,43.8772,长春市,劳动公园,,17,11,69,6,35,157,54,40,40,12,25,6,8,0.2,0.5
2023-10-26T11:00:00,1123A,125.3297,43.8805,长春市,园林处,,25,25,63,4,28,161,56,40,40,12,23,8,12,0.4,0.7
2023-10-26T11:00:00,1124A,125.4605,43.79,长春市,净月潭,,20,20,57,4,25,164,55,43,43,11,16,9,9,0.2,0.5
2023-10-26T11:00:00,1125A,125.7194,43.515,长春市,甩湾子,,,,,,,,,,,,,,,,
2023-10-26T11:00:00,1126A,125.3863,43.8447,长春市,经开区环卫处,,20,20,67,4,34,153,55,42,42,14,24,6,8,0.3,0.6
2023-10-26T11:00:00,1127A,125.245,43.7783,长春市,高新区管委会,,23,23,68,7,33,162,54,31,30,15,30,8,8,0.3,0.7
2023-10-26T11:00:00,1128A,125.1761,43.8325,长春市,岱山公园,,27,27,70,6,36,159,58,36,33,11,28,5,7,0.3,0.6
2023-10-26T11:00:00,1129A,126.5422,45.755,哈尔滨市,岭北,,18,6,56,3,33,147,57,48,48,5,14,4,8,0.4,0.6
2023-10-26T11:00:00,1130A,126.561,45.8167,哈尔滨市,松北商大,,18,18,63,5,30,131,50,38,38,13,22,9,10,0.4,0.5
2023-10-26T11:00:00,1131A,126.979,45.5419,哈尔滨市,阿城会宁,,26,26,82,3,35,124,50,41,38,12,20,9,9,0.5,0.5
2023-10-26T11:00:00,1132A,126.599,45.7222,哈尔滨市,南岗学府路,,26,26,75,5,34,132,49,42,40,11,23,7,9,0.3,0.5
2023-10-26T11:00:00,1133A,126.689,45.7733,哈尔滨市,太平宏伟公园,,26,26,73,6,35,118,50,44,44,10,26,10,12,0.4,0.6
2023-10-26T11:00:00,1134A,126.635,45.7667,哈尔滨市,道外承德广场,,18,18,72,2,42,125,53,45,44,10,24,4,8,0.4,0.5
2023-10-26T11:00:00,1135A,126.685,45.7319,哈尔滨市,香坊红旗大街,,31,31,77,2,38,122,53,51,48,13,28,6,12,0.3,0.5
2023-10-26T11:00:00,1136A,126.6411,45.7258,哈尔滨市,动力和平路,,27,27,72,5,37,120,48,44,41,12,30,4,9,0.2,0.6
2023-10-26T11:00:00,1137A,126.593,45.7478,哈尔滨市,道里建国路,,35,35,68,9,44,132,51,45,42,13,25,5,10,0.3,0.7
2023-10-26T11:00:00,1138A,126.615,45.61,哈尔滨市,平房东轻厂,,29,29,80,6,34,143,54,36,36,11,22,7,9,0.4,0.4
2023-10-26T11:00:00,1139A,126.595,45.9855,哈尔滨市,呼兰师专,,17,16,64,3,37,133,54,47,46,11,23,6,10,0.5,0.6
2023-10-26T11:00:00,1140A,126.6206,45.6842,哈尔滨市,省农科院,,18,12,78,4,41,133,57,50,48,9,31,6,8,0.3,0.5
2023-10-26T11:00:00,1141A,121.4,31.238,上海市,普陀,细颗粒物(PM2.5),52,35,66,36,48,180,137,43,43,29,45,6,6,0.8,0.8
2023-10-26T11:00:00,1142A,121.478,31.2036,上海市,十五厂,,45,29,61,18,38,173,142,49,49,29,47,6,7,0.6,0.6
2023-10-26T11:00:00,1143A,121.467,31.3008,上海市,虹口,细颗粒物(PM2.5),55,31,62,39,53,148,148,42,42,39,62,7,6,0.8,0.8
2023-10-26T11:00:00,1144A,121.412,31.1654,上海市,徐汇上师大,细颗粒物(PM2.5),57,28,65,40,51,192,143,44,44,28,50,10,10,0.7,0.8
2023-10-26T11:00:00,1145A,121.536,31.2659,上海市,杨浦四漂,细颗粒物(PM2.5),69,42,74,50,57,158,138,30,30,42,75,9,10,0.5,0.6
2023-10-26T11:00:00,1147A,121.425,31.2261,上海市,静安监测站,细颗粒物(PM2.5),55,29,58,39,50,203,153,61,61,29,44,6,6,0.6,0.7
2023-10-26T11:00:00,1148A,121.703,31.1907,上海市,浦东川沙,颗粒物(PM10),57,64,48,39,39,164,148,32,32,16,41,8,8,0.7,0.6
2023-10-26T11:00:00,1149A,121.533,31.2284,上海市,浦东新区监测站,细颗粒物(PM2.5),54,25,58,38,46,138,137,40,40,31,45,8,8,0.9,0.8
2023-10-26T11:00:00,1150A,121.577,31.2071,上海市,浦东张江,细颗粒物(PM2.5),54,28,58,38,46,147,130,33,33,19,33,6,6,0.7,0.8
2023-10-26T11:00:00,1151A,118.8086,32.1065,南京市,迈皋桥,颗粒物(PM10),57,64,89,36,43,174,144,29,29,34,75,4,4,1.1,0.9
2023-10-26T11:00:00,1152A,118.7538,32.0551,南京市,草场门,细颗粒物(PM2.5),83,88,84,61,51,169,120,28,28,67,78,12,6,0.9,1.2
2023-10-26T11:00:00,1153A,118.7794,32.0745,南京市,山西路,"颗粒物(PM10),细颗粒物(PM2.5)",70,90,83,51,45,183,133,31,31,45,65,16,9,1.0,1.1
2023-10-26T11:00:00,1154A,118.7752,32.0023,南京市,中华门,颗粒物(PM10),60,70,80,39,47,164,133,29,29,44,74,9,7,1.3,1.4
2023-10-26T11:00:00,1155A,118.8109,32.0309,南京市,瑞金路,颗粒物(PM10),73,95,75,46,37,151,130,30,30,41,67,10,8,0.7,0.7
2023-10-26T11:00:00,1156A,118.7997,32.0754,南京市,玄武湖,细颗粒物(PM2.5),75,83,65,55,40,163,112,25,25,53,58,9,6,0.9,1
2023-10-26T11:00:00,1157A,118.6414,32.0931,南京市,浦口,颗粒物(PM10),110,170,73,57,38,158,95,106,94,,29,24,9,1.9,0.9
2023-10-26T11:00:00,1158A,118.7356,31.9996,南京市,奥体中心,颗粒物(PM10),72,94,89,51,52,169,121,28,28,60,75,14,10,0.8,1.1
2023-10-26T11:00:00,1159A,118.9125,32.1028,南京市,仙林大学城,细颗粒物(PM2.5),83,92,65,61,42,185,160,40,40,37,48,7,4,1.1,1.1
2023-10-26T11:00:00,1160A,120.561,31.2472,苏州市,上方山,颗粒物(PM10),65,80,88,45,62,212,150,36,36,25,44,12,7,0.8,0.9
2023-10-26T11:00:00,1162A,120.591,31.3019,苏州市,彩香,细颗粒物(PM2.5),59,56,105,42,72,205,161,49,49,24,57,11,10,0.9,1.1
2023-10-26T11:00:00,1163A,120.596,31.3264,苏州市,轧钢厂,臭氧1小时,72,59,113,33,67,207,177,46,46,17,60,11,11,0.8,1.1
2023-10-26T11:00:00,1164A,120.613,31.2703,苏州市,吴中区,,,54,104,31,62,215,,22,17,29,58,,11,0.8,1
2023-10-26T11:00:00,1165A,120.543,31.2994,苏州市,苏州新区,臭氧1小时,62,66,112,39,72,209,169,41,41,28,81,10,9,0.8,1
2023-10-26T11:00:00,1166A,120.669,31.3097,苏州市,苏州工业园区,颗粒物(PM10),52,54,91,34,64,209,140,50,50,39,50,11,11,1.0,1.1
2023-10-26T11:00:00,1167A,120.641,31.3708,苏州市,相城区,颗粒物(PM10),64,77,85,41,74,201,151,37,37,40,80,11,12,0.9,1.1
2023-10-26T11:00:00,1168A,120.9098,31.9663,南通市,狼山街道,颗粒物(PM10),70,89,60,50,41,195,144,30,30,62,51,13,8,0.9,0.7
2023-10-26T11:00:00,1169A,120.86,32.0005,南通市,虹桥,细颗粒物(PM2.5),98,106,82,73,62,202,153,34,34,48,61,15,9,1.0,0.8
2023-10-26T11:00:00,1170A,120.87,32.02,南通市,城中,细颗粒物(PM2.5),93,92,73,69,56,182,141,33,33,46,51,14,9,1.1,0.7
2023-10-26T11:00:00,1171A,120.94,31.93,南通市,星湖花园,细颗粒物(PM2.5),109,132,67,82,44,220,152,32,32,66,54,12,8,0.5,0.4
2023-10-26T11:00:00,1172A,120.81,32.0417,南通市,紫琅学院,细颗粒物(PM2.5),82,93,74,60,46,166,133,26,26,45,64,15,9,1.0,0.8
2023-10-26T11:00:00,1173A,119.176,34.5885,连云港市,市环境监测站,细颗粒物(PM2.5),144,153,109,110,74,167,68,72,55,61,32,22,12,0.9,0.7
2023-10-26T11:00:00,1177A,117.179,34.2761,徐州市,黄河新村,,,,113,,72,191,91,54,43,54,41,,11,1.1,0.9
2023-10-26T11:00:00,1178A,117.1918,34.2384,徐州市,淮塔,细颗粒物(PM2.5),132,149,116,100,69,197,88,16,16,51,50,16,12,1.0,0.7
2023-10-26T11:00:00,1180A,117.256,34.2153,徐州市,新城区,细颗粒物(PM2.5),138,147,140,105,83,186,92,24,24,49,68,12,9,1.0,0.9
2023-10-26T11:00:00,1181A,117.244,34.2911,徐州市,桃园路,,,,114,,68,194,67,30,30,79,58,13,15,,1
2023-10-26T11:00:00,1182A,117.2933,34.2778,徐州市,农科院,细颗粒物(PM2.5),129,161,114,98,70,184,73,29,26,72,56,13,11,1.0,0.8
2023-10-26T11:00:00,1186A,119.389,32.3761,扬州市,邗江监测站,"颗粒物(PM10),细颗粒物(PM2.5)",93,136,113,69,55,193,149,37,37,61,66,17,11,1.1,1.1
2023-10-26T11:00:00,1188A,120.269,31.4867,无锡市,雪浪,细颗粒物(PM2.5),67,80,86,48,56,200,159,34,34,22,41,12,9,1.0,1.5
2023-10-26T11:00:00,1189A,120.275,31.6219,无锡市,黄巷,颗粒物(PM10),71,92,141,51,76,178,140,32,32,48,122,13,15,1.3,2
2023-10-26T11:00:00,1190A,120.294,31.56,无锡市,曹张,细颗粒物(PM2.5),73,67,94,53,76,184,137,31,31,53,116,13,13,1.1,2
2023-10-26T11:00:00,1191A,120.242,31.5031,无锡市,漆塘,细颗粒物(PM2.5),89,105,82,66,59,222,124,31,31,54,46,11,9,1.3,1.7
2023-10-26T11:00:00,1192A,120.3489,31.5863,无锡市,东亭,细颗粒物(PM2.5),85,102,117,63,78,193,130,43,43,60,103,11,9,0.7,2
2023-10-26T11:00:00,1193A,120.354,31.5475,无锡市,旺庄,"颗粒物(PM10),细颗粒物(PM2.5)",62,73,116,44,76,189,160,47,47,53,112,10,10,1.3,2
2023-10-26T11:00:00,1194A,120.245,31.5631,无锡市,荣巷,细颗粒物(PM2.5),70,73,70,51,56,201,143,44,44,46,44,13,12,1.1,1.5
2023-10-26T11:00:00,1195A,120.299,31.6817,无锡市,堰桥,细颗粒物(PM2.5),73,90,111,53,73,202,162,39,39,36,76,19,14,1.0,1.6
2023-10-26T11:00:00,1196A,119.9633,31.762,常州市,市监测站,细颗粒物(PM2.5),128,155,164,97,94,194,158,39,39,71,106,16,12,1.5,1.7
2023-10-26T11:00:00,1200A,119.9468,31.7069,常州市,武进监测站,细颗粒物(PM2.5),88,118,143,65,78,190,183,48,48,32,91,18,17,1.1,1.5
2023-10-26T11:00:00,1201A,119.9255,31.9087,常州市,安家,细颗粒物(PM2.5),124,133,134,94,87,187,173,40,40,59,72,12,12,1.3,1.4
2023-10-26T11:00:00,1203A,119.6707,32.1875,镇江市,新区办事处,细颗粒物(PM2.5),109,105,77,82,58,237,185,46,46,32,70,12,7,1.1,1.2
2023-10-26T11:00:00,1204A,119.4974,32.1968,镇江市,职教中心,细颗粒物(PM2.5),135,112,83,103,74,210,185,37,37,42,60,8,5,1.2,1
2023-10-26T11:00:00,1205A,119.4303,32.1328,镇江市,丹徒区监测站,细颗粒物(PM2.5),114,116,78,86,62,188,177,79,79,36,43,18,10,1.3,0.9
2023-10-26T11:00:00,1206A,119.905,32.4878,泰州市,公园路,臭氧1小时,98,107,94,70,72,198,198,50,50,28,47,15,11,1.2,1
2023-10-26T11:00:00,1207A,119.9189,32.4625,泰州市,莲花,臭氧1小时,93,105,110,66,74,202,194,58,58,22,50,12,9,1.1,1
2023-10-26T11:00:00,1209A,119.888,32.4639,泰州市,留学生创业园,细颗粒物(PM2.5),110,111,103,83,78,201,189,50,50,26,62,14,11,1.5,1.1
2023-10-26T11:00:00,1210A,119.036,33.5981,淮安市,钵池山,细颗粒物(PM2.5),79,78,85,58,73,173,113,84,84,30,30,13,13,1.0,1.2
2023-10-26T11:00:00,1211A,119.007,33.575,淮安市,北京南路,细颗粒物(PM2.5),100,92,93,75,78,183,112,57,57,30,54,9,11,0.8,1
2023-10-26T11:00:00,1212A,118.989,33.6067,淮安市,市监测站,细颗粒物(PM2.5),83,95,91,61,62,189,112,85,80,35,34,15,15,0.9,1
2023-10-26T11:00:00,1213A,119.135,33.5039,淮安市,楚州区监测站,细颗粒物(PM2.5),189,85,103,142,81,186,104,34,34,38,54,9,9,1.1,1
2023-10-26T11:00:00,1214A,119.0186,33.6297,淮安市,淮阴区监测站,细颗粒物(PM2.5),95,107,107,71,70,176,116,85,82,30,35,12,14,0.9,1
2023-10-26T11:00:00,1215A,120.118,33.4022,盐城市,盐城电厂,,,83,88,39,47,172,134,72,72,,34,19,11,0.8,0.8
2023-10-26T11:00:00,1216A,120.156,33.3942,盐城市,市监测站,颗粒物(PM10),62,74,78,40,53,182,164,87,87,22,52,21,14,0.8,0.9
2023-10-26T11:00:00,1218A,120.2144,33.38,盐城市,开发区管委会,颗粒物(PM10),63,75,76,34,45,187,159,66,66,20,30,12,6,0.9,0.7
2023-10-26T11:00:00,1220A,118.293,33.9528,宿迁市,宿迁学院,细颗粒物(PM2.5),129,141,110,98,71,196,104,45,45,,48,15,12,,0.6
2023-10-26T11:00:00,1221A,118.2442,33.9592,宿迁市,宿迁中学,细颗粒物(PM2.5),128,128,150,97,86,173,100,46,46,34,42,13,10,1.0,0.9
2023-10-26T11:00:00,1223A,120.2072,30.2111,杭州市,滨江,颗粒物(PM10),99,148,111,71,60,207,85,33,33,62,62,10,8,0.9,0.9
2023-10-26T11:00:00,1224A,120.0633,30.2747,杭州市,西溪,细颗粒物(PM2.5),149,114,66,114,58,188,66,17,17,68,39,6,5,0.9,0.8
2023-10-26T11:00:00,1226A,120.3461,30.3153,杭州市,下沙,细颗粒物(PM2.5),72,91,96,52,63,197,67,24,24,54,82,9,8,0.7,0.7
2023-10-26T11:00:00,1227A,120.1269,30.2456,杭州市,卧龙桥,细颗粒物(PM2.5),135,120,69,103,57,190,82,23,23,,31,,4,1.0,0.8
2023-10-26T11:00:00,1228A,120.1903,30.2692,杭州市,浙江农大,细颗粒物(PM2.5),89,73,81,66,65,153,82,24,24,54,61,10,7,0.7,0.8
2023-10-26T11:00:00,1230A,120.1197,30.3119,杭州市,和睦小学,细颗粒物(PM2.5),99,110,95,74,66,191,76,26,26,67,72,12,9,0.7,0.8
2023-10-26T11:00:00,1231A,120.3019,30.4183,杭州市,临平镇,,,,119,,66,186,,28,27,37,58,,7,0.8,0.8
2023-10-26T11:00:00,1232A,120.2697,30.1819,杭州市,城厢镇,细颗粒物(PM2.5),133,126,112,101,86,184,62,26,26,70,59,9,8,1.0,1
2023-10-26T11:00:00,1233A,120.0883,30.1808,杭州市,云栖,细颗粒物(PM2.5),129,126,68,98,55,168,96,28,28,47,33,10,8,0.9,0.8
2023-10-26T11:00:00,1234A,121.8358,29.911,宁波市,区环保大楼,,,32,33,24,26,174,60,13,13,58,49,,7,0.7,0.6
2023-10-26T11:00:00,1235A,121.56,29.82,宁波市,万里学院,,45,45,61,22,34,185,74,19,19,28,35,10,10,0.8,0.8
2023-10-26T11:00:00,1236A,121.713,29.9572,宁波市,龙赛医院,,35,35,56,22,29,201,77,21,21,35,54,14,10,0.6,0.5
2023-10-26T11:00:00,1239A,121.633,29.7733,宁波市,钱湖水厂,,33,28,34,23,23,129,80,29,29,10,12,7,7,0.5,0.5
2023-10-26T11:00:00,1240A,121.5856,29.8635,宁波市,太古小学,,,39,49,26,28,180,110,21,21,32,38,,8,1.2,0.9
2023-10-26T11:00:00,1241A,121.524,29.8674,宁波市,市环境监测中心,,50,50,72,31,39,206,82,17,17,40,43,9,8,0.7,0.7
2023-10-26T11:00:00,1242A,120.634,28.0089,温州市,瓯海,,,,45,,25,145,19,17,12,,27,,7,0.8,0.6
2023-10-26T11:00:00,1243A,120.6748,27.9939,温州市,南浦,颗粒物(PM10),59,67,47,39,28,136,20,31,24,40,25,6,6,0.6,0.4
2023-10-26T11:00:00,1244A,120.76,27.9747,温州市,龙湾,颗粒物(PM10),53,56,49,33,22,120,13,12,9,44,33,5,5,0.7,0.5
2023-10-26T11:00:00,1245A,120.6709,28.0167,温州市,市站,细颗粒物(PM2.5),82,90,53,60,30,133,12,10,9,56,36,7,6,0.9,0.5
2023-10-26T11:00:00,1247A,120.6053,29.9928,绍兴市,城东开发委,细颗粒物(PM2.5),189,207,137,142,100,164,46,22,21,,42,11,9,1.3,1
2023-10-26T11:00:00,1250A,120.0751,30.8669,湖州市,城西水厂,细颗粒物(PM2.5),78,94,93,57,60,172,111,23,23,39,70,6,5,0.7,0.7
2023-10-26T11:00:00,1252A,120.7436,30.778,嘉兴市,清河小学,,39,26,67,15,37,194,122,40,40,30,47,8,6,0.7,0.7
2023-10-26T11:00:00,1253A,120.726,30.7478,嘉兴市,嘉兴学院,,,30,60,25,51,175,112,34,34,28,36,,7,,0.7
2023-10-26T11:00:00,1255A,121.273,28.6459,台州市,黄岩环保大楼,细颗粒物(PM2.5),89,96,63,66,43,134,31,14,11,41,26,8,6,0.7,0.6
2023-10-26T11:00:00,1256A,121.419,28.6542,台州市,台州环保大楼,,36,35,43,25,26,142,41,25,25,25,16,6,5,0.5,0.4
2023-10-26T11:00:00,1257A,121.377,28.5773,台州市,路桥田洋王,,42,35,54,29,41,115,42,25,25,25,19,7,7,0.5,0.5
2023-10-26T11:00:00,1258A,122.122,30.0203,舟山市,定海檀枫,,37,21,31,16,21,128,117,38,38,9,18,7,7,0.4,0.5
2023-10-26T11:00:00,1259A,122.3094,29.9558,舟山市,普陀东港,,,15,25,10,18,127,,34,34,6,17,5,6,0.3,0.3
2023-10-26T11:00:00,1260A,122.19,29.9944,舟山市,临城新区,,34,19,27,10,16,122,107,40,40,13,19,5,4,0.3,0.4
2023-10-26T11:00:00,1262A,119.647,29.077,金华市,十五中,细颗粒物(PM2.5),135,147,79,103,55,154,52,16,15,67,52,8,6,1.0,0.8
2023-10-26T11:00:00,1263A,119.686,29.1029,金华市,监测站,细颗粒物(PM2.5),123,116,86,93,58,142,40,13,13,78,55,7,6,1.1,0.8
2023-10-26T11:00:00,1264A,118.8692,28.9398,衢州市,环保大楼,细颗粒物(PM2.5),122,128,103,92,69,143,18,6,6,51,50,25,7,1.1,0.8
2023-10-26T11:00:00,1265A,118.8709,28.9666,衢州市,实验学校,细颗粒物(PM2.5),95,132,104,71,57,151,26,7,7,52,50,15,8,0.9,0.8
2023-10-26T11:00:00,1266A,118.8621,28.9808,衢州市,衢州学院,细颗粒物(PM2.5),122,120,94,92,64,138,24,6,6,,36,5,7,0.9,0.7
2023-10-26T11:00:00,1267A,119.914,28.4514,丽水市,监测站大楼,颗粒物(PM10),51,52,60,32,35,110,13,7,7,36,36,12,7,0.7,0.6
2023-10-26T11:00:00,1268A,119.93,28.4586,丽水市,莲都小学,,,,56,31,30,116,14,11,8,35,30,,6,0.7,0.5
2023-10-26T11:00:00,1269A,119.879,28.4231,丽水市,余庄前,颗粒物(PM10),58,66,90,33,31,112,10,5,5,36,23,6,6,0.6,0.5
2023-10-26T11:00:00,1270A,117.1959,31.7848,合肥市,明珠广场,,,,126,,63,138,82,12,12,63,90,14,12,0.9,1.3
2023-10-26T11:00:00,1271A,117.3072,31.8764,合肥市,三里街,细颗粒物(PM2.5),134,197,157,102,81,117,43,8,8,115,106,12,12,1.2,1.4
2023-10-26T11:00:00,1272A,117.2588,31.8707,合肥市,琥珀山庄,细颗粒物(PM2.5),110,153,108,83,61,138,72,16,16,93,63,10,7,1.3,1.5
2023-10-26T11:00:00,1273A,117.1604,31.9052,合肥市,董铺水库,,,143,105,70,51,115,85,19,19,,65,7,5,,0.9
2023-10-26T11:00:00,1274A,117.25,31.8571,合肥市,长江中路,细颗粒物(PM2.5),109,141,124,82,69,140,60,12,12,98,76,13,11,1.3,1.5
2023-10-26T11:00:00,1275A,117.266,31.9436,合肥市,庐阳区,细颗粒物(PM2.5),138,195,167,105,87,98,91,20,20,63,92,11,12,1.2,1.2
2023-10-26T11:00:00,1276A,117.336,31.8586,合肥市,瑶海区,细颗粒物(PM2.5),152,217,165,116,85,129,58,12,12,100,98,11,11,1.4,1.8
2023-10-26T11:00:00,1277A,117.3027,31.7964,合肥市,包河区,细颗粒物(PM2.5),113,151,134,85,72,153,66,15,15,87,97,14,16,1.0,1.2
2023-10-26T11:00:00,1278A,117.2776,31.7385,合肥市,滨湖新区,细颗粒物(PM2.5),113,158,118,85,64,159,119,21,21,44,75,12,9,1.0,1
2023-10-26T11:00:00,1279A,117.1318,31.8403,合肥市,高新区,细颗粒物(PM2.5),128,156,114,97,64,124,89,16,16,78,84,15,12,1.0,1
2023-10-26T11:00:00,1280A,119.3903,26.0543,福州市,鼓山,,,,,,,,,,,,,,,,
2023-10-26T11:00:00,1282A,119.2681,26.0504,福州市,师大,,,,34,,21,150,45,33,31,,13,6,5,,0.5
2023-10-26T11:00:00,1283A,119.2984,26.1028,福州市,五四北路,颗粒物(PM10),54,58,30,37,19,147,41,41,35,20,14,5,4,0.7,0.5
2023-10-26T11:00:00,1284A,119.2648,26.0768,福州市,杨桥西路,细颗粒物(PM2.5),55,48,39,39,22,144,49,30,30,16,16,5,4,0.6,0.5
2023-10-26T11:00:00,1285A,119.317,26.0746,福州市,紫阳,颗粒物(PM10),51,51,34,26,19,141,39,47,37,18,12,7,5,0.6,0.4
2023-10-26T11:00:00,1286A,118.1608,24.8169,厦门市,溪东,,,,,,,,,,,,,,,,
2023-10-26T11:00:00,1287A,118.1514,24.4767,厦门市,洪文,,40,40,32,21,18,134,75,42,42,13,10,5,3,0.4,0.4
2023-10-26T11:00:00,1288A,118.0661,24.4444,厦门市,鼓浪屿,,30,30,31,15,16,125,65,30,30,18,21,6,4,0.3,0.3
2023-10-26T11:00:00,1290A,115.8931,28.6843,南昌市,省外办,颗粒物(PM10),52,53,78,29,47,102,102,72,72,17,33,5,6,0.7,0.7
2023-10-26T11:00:00,1291A,115.8886,28.7003,南昌市,省林业公司,,49,44,80,34,50,100,100,78,78,28,50,6,8,0.7,0.5
2023-10-26T11:00:00,1292A,115.8126,28.7442,南昌市,林科所,,35,31,55,24,36,110,103,91,77,24,36,8,8,0.6,0.6
2023-10-26T11:00:00,1294A,115.8518,28.687,南昌市,建工学校,细颗粒物(PM2.5),62,50,83,44,55,98,75,83,80,38,40,8,10,0.8,0.8
2023-10-26T11:00:00,1295A,115.8921,28.6424,南昌市,象湖,颗粒物(PM10),58,65,76,33,48,93,93,83,83,29,37,7,9,0.7,0.7
2023-10-26T11:00:00,1296A,115.7423,28.7996,南昌市,武术学校,,26,24,21,13,17,83,83,56,56,4,7,2,2,0.4,0.4
2023-10-26T11:00:00,1298A,115.9314,28.6842,南昌市,省站,,,56,88,36,51,104,104,74,74,,34,7,9,0.5,0.6
2023-10-26T11:00:00,1299A,116.9862,36.6114,济南市,科干所,颗粒物(PM10),98,146,132,42,63,186,85,82,76,29,32,12,14,0.7,0.8
2023-10-26T11:00:00,1300A,116.9376,36.665,济南市,农科所,颗粒物(PM10),112,173,137,24,65,173,80,25,25,29,73,8,8,0.3,0.7
2023-10-26T11:00:00,1301A,117.1265,36.6734,济南市,开发区,颗粒物(PM10),89,127,112,27,51,172,84,53,53,24,61,10,12,0.5,0.7
2023-10-26T11:00:00,1303A,117.0624,36.6868,济南市,省种子仓库,颗粒物(PM10),92,134,151,29,70,186,83,31,31,23,81,7,10,0.6,1.1
2023-10-26T11:00:00,1304A,116.9489,36.6447,济南市,机床二厂,颗粒物(PM10),103,156,154,37,75,181,85,31,31,30,81,8,10,0.5,0.9
2023-10-26T11:00:00,1305A,117.0495,36.663,济南市,市监测站,颗粒物(PM10),97,144,125,27,55,187,88,61,61,39,72,10,12,0.9,1.2
2023-10-26T11:00:00,1306A,116.7675,36.5484,济南市,长清党校,颗粒物(PM10),111,171,144,51,78,188,91,67,67,41,53,13,13,0.7,0.8
2023-10-26T11:00:00,1307A,120.6659,36.2403,青岛市,仰口,细颗粒物(PM2.5),104,144,102,78,57,189,116,135,120,21,19,5,8,0.8,0.7
2023-10-26T11:00:00,1310A,120.4134,36.0658,青岛市,市南区东部子站,颗粒物(PM10),114,178,124,68,68,198,105,78,70,41,39,9,13,0.8,1.1
2023-10-26T11:00:00,1311A,120.3664,36.1032,青岛市,四方区子站,细颗粒物(PM2.5),110,156,116,83,78,197,106,70,67,40,41,7,10,1.0,1
2023-10-26T11:00:00,1312A,120.2994,36.054,青岛市,市南区西部子站,颗粒物(PM10),102,153,119,68,69,202,107,73,62,29,37,8,12,0.7,0.9
2023-10-26T11:00:00,1313A,120.4581,36.0858,青岛市,崂山区子站,颗粒物(PM10),109,168,133,78,84,210,112,87,78,41,43,9,12,0.9,1.2
2023-10-26T11:00:00,1314A,120.1983,35.9608,青岛市,黄岛区子站,颗粒物(PM10),111,171,122,76,77,207,88,70,70,62,54,8,13,0.9,1
2023-10-26T11:00:00,1315A,120.3999,36.3083,青岛市,城阳区子站,颗粒物(PM10),102,153,134,59,63,198,105,70,59,30,50,7,10,0.9,1
2023-10-26T11:00:00,1316A,113.69031,34.76122,郑州市,烟厂,颗粒物(PM10),72,93,76,45,43,130,90,71,71,24,40,16,10,0.8,0.7
2023-10-26T11:00:00,1317A,113.65724,34.77134,郑州市,郑纺机,,,88,78,40,38,129,,69,68,30,49,16,10,0.9,0.8
2023-10-26T11:00:00,1318A,113.67526,34.80246,郑州市,银行学校,颗粒物(PM10),67,84,70,41,40,126,95,79,79,24,40,13,10,0.8,0.7
2023-10-26T11:00:00,1319A,113.56746,34.81334,郑州市,供水公司,颗粒物(PM10),67,84,77,46,48,141,98,76,76,21,31,16,15,1.1,1
2023-10-26T11:00:00,1320A,113.7329,34.7178,郑州市,经开区管委,颗粒物(PM10),66,81,78,44,46,129,93,75,75,28,42,16,11,0.8,0.7
2023-10-26T11:00:00,1321A,113.73961,34.77172,郑州市,四十七中,颗粒物(PM10),66,82,72,40,37,137,97,84,84,31,45,14,9,0.8,0.7
2023-10-26T11:00:00,1322A,113.60532,34.74838,郑州市,市监测站,颗粒物(PM10),75,100,86,44,44,121,85,64,61,35,52,16,9,0.7,0.6
2023-10-26T11:00:00,1323A,113.64164,34.7525,郑州市,河医大,颗粒物(PM10),128,205,82,44,34,129,87,65,65,28,42,19,12,1.0,0.9
2023-10-26T11:00:00,1324A,113.51488,34.91089,郑州市,岗李水库,,,,,,,,,,,,,,,,
2023-10-26T11:00:00,1325A,114.3677,30.5584,武汉市,东湖梨园,细颗粒物(PM2.5),158,257,135,120,97,70,67,42,42,39,54,8,9,,1
2023-10-26T11:00:00,1326A,114.2529,30.558,武汉市,汉阳月湖,细颗粒物(PM2.5),188,218,157,141,106,52,51,31,26,43,53,9,8,1.1,1
2023-10-26T11:00:00,1327A,114.282,30.6189,武汉市,汉口花桥,细颗粒物(PM2.5),158,195,146,120,98,72,72,40,36,34,61,8,7,1.1,1.2
2023-10-26T11:00:00,1328A,114.3025,30.5332,武汉市,武昌紫阳,细颗粒物(PM2.5),128,174,139,97,90,67,65,35,31,44,62,10,10,1.2,1.1
2023-10-26T11:00:00,1329A,114.3646,30.6217,武汉市,青山钢花,细颗粒物(PM2.5),163,196,146,124,104,74,74,32,32,37,80,11,10,1.1,1.2
2023-10-26T11:00:00,1330A,114.1566,30.4825,武汉市,沌口新区,细颗粒物(PM2.5),132,150,127,100,101,81,55,33,30,43,60,11,10,1.1,1.1
2023-10-26T11:00:00,1331A,114.3014,30.5944,武汉市,汉口江滩,,,,134,,77,69,68,46,41,35,52,,7,,1
2023-10-26T11:00:00,1333A,114.135,30.6319,武汉市,吴家山,细颗粒物(PM2.5),119,148,138,90,108,76,76,22,22,26,66,11,9,0.8,0.9
2023-10-26T11:00:00,1334A,113.8454,30.2917,武汉市,沉湖七壕,细颗粒物(PM2.5),73,65,90,53,65,113,62,38,37,11,19,5,5,0.9,1
2023-10-26T11:00:00,1335A,113.0833,28.2325,长沙市,经开区环保局,细颗粒物(PM2.5),54,13,22,38,27,100,31,59,48,22,7,6,6,0.7,0.5
2023-10-26T11:00:00,1336A,112.8872,28.2189,长沙市,高开区环保局,,,55,35,57,37,98,58,55,55,13,11,,4,0.8,0.6
2023-10-26T11:00:00,1337A,113.0792,28.2053,长沙市,马坡岭,细颗粒物(PM2.5),58,32,27,41,28,110,39,68,56,22,8,5,5,0.8,0.4
2023-10-26T11:00:00,1338A,112.9394,28.19,长沙市,湖南师范大学,细颗粒物(PM2.5),83,39,26,61,27,100,47,52,46,8,8,6,6,0.9,0.7
2023-10-26T11:00:00,1339A,113.0178,28.1322,长沙市,雨花区环保局,,33,30,24,23,26,100,46,68,54,20,12,3,2,0.8,0.6
2023-10-26T11:00:00,1340A,112.9792,28.2597,长沙市,伍家岭,细颗粒物(PM2.5),94,55,32,70,34,91,41,51,45,20,15,4,4,0.8,0.6
2023-10-26T11:00:00,1341A,113.0014,28.1944,长沙市,火车新站,细颗粒物(PM2.5),62,51,32,44,24,96,43,60,54,20,13,4,4,0.8,0.6
2023-10-26T11:00:00,1342A,112.9844,28.1178,长沙市,天心区环保局,细颗粒物(PM2.5),78,52,27,57,26,104,39,68,54,17,11,4,4,0.8,0.4
2023-10-26T11:00:00,1343A,112.8908,28.1308,长沙市,湖南中医药大学,细颗粒物(PM2.5),140,76,37,107,33,109,57,59,54,18,9,3,3,1.0,0.7
2023-10-26T11:00:00,1344A,112.9581,28.3611,长沙市,沙坪,颗粒物(PM10),59,67,45,34,23,60,39,34,34,9,9,4,3,0.5,0.3
2023-10-26T11:00:00,1345A,113.2347,23.1423,广州市,广雅中学,"颗粒物(PM10),细颗粒物(PM2.5)",55,59,72,39,40,247,75,25,25,41,55,5,5,0.8,0.9
2023-10-26T11:00:00,1346A,113.2612,23.105,广州市,市五中,细颗粒物(PM2.5),60,62,68,43,46,262,73,23,23,39,46,7,7,0.8,0.8
2023-10-26T11:00:00,1348A,113.3478,23.0916,广州市,广东商学院,颗粒物(PM10),57,64,72,32,40,269,63,18,18,42,50,6,5,0.7,0.7
2023-10-26T11:00:00,1349A,113.4332,23.1047,广州市,市八十六中,颗粒物(PM10),62,74,87,40,46,277,74,21,21,45,67,5,5,0.7,0.8
2023-10-26T11:00:00,1350A,113.3505,22.9483,广州市,番禺中学,颗粒物(PM10),51,52,44,27,25,295,79,37,37,33,42,5,5,0.7,0.8
2023-10-26T11:00:00,1351A,113.2146,23.3916,广州市,花都师范,颗粒物(PM10),86,121,91,49,43,238,48,23,15,70,61,6,5,0.9,0.9
2023-10-26T11:00:00,1352A,113.2597,23.1331,广州市,市监测站,,,54,69,,42,247,,17,14,45,53,6,5,0.7,0.7
2023-10-26T11:00:00,1353A,113.5618,23.312,广州市,九龙镇镇龙,,,95,79,61,42,207,,3,2,55,51,5,5,0.9,0.8
2023-10-26T11:00:00,1354A,113.2765,23.1544,广州市,麓湖,细颗粒物(PM2.5),54,56,57,38,38,240,76,20,20,36,49,6,5,0.7,0.8
2023-10-26T11:00:00,1355A,113.443,23.3035,广州市,帽峰山森林公园,细颗粒物(PM2.5),64,65,50,46,36,192,54,51,43,57,25,10,7,0.8,0.6
2023-10-26T11:00:00,1356A,114.1063,22.5545,深圳市,通心岭子站,,30,27,33,19,21,117,96,72,72,12,14,2,3,0.8,0.8
2023-10-26T11:00:00,1357A,114.117,22.5625,深圳市,洪湖,,33,24,40,9,21,103,103,72,72,10,15,2,2,0.2,0.2
2023-10-26T11:00:00,1358A,113.987,22.5417,深圳市,华侨城,,29,26,35,18,24,120,92,70,68,14,19,5,5,0.8,0.8
2023-10-26T11:00:00,1359A,113.9181,22.5171,深圳市,南海子站,,,33,43,17,27,129,94,83,81,6,15,,5,0.6,0.6
2023-10-26T11:00:00,1360A,114.2458,22.5689,深圳市,盐田,,30,29,26,20,18,131,95,59,59,17,24,2,2,0.2,0.2
2023-10-26T11:00:00,1361A,114.2283,22.7244,深圳市,龙岗,,30,23,43,16,24,140,96,71,71,10,17,7,7,0.4,0.5
2023-10-26T11:00:00,1363A,114.494,22.5422,深圳市,南澳,,30,24,34,16,26,125,93,69,69,10,12,8,7,0.4,0.4
2023-10-26T11:00:00,1364A,114.41,22.6342,深圳市,葵涌,,29,25,31,16,24,134,90,58,58,18,17,6,5,0.7,0.7
2023-10-26T11:00:00,1365A,114.297,22.5978,深圳市,梅沙,,34,34,39,20,24,129,95,71,71,13,10,3,3,0.7,0.6
2023-10-26T11:00:00,1366A,114.0678,22.738,深圳市,观澜,,30,28,71,16,35,93,93,56,56,25,42,5,5,0.4,1
2023-10-26T11:00:00,1367A,113.5814,22.2618,珠海市,吉大,,29,27,30,17,21,159,91,59,59,9,13,6,6,0.4,0.5
2023-10-26T11:00:00,1368A,113.4881,22.2335,珠海市,前山,,28,21,35,12,18,149,89,49,49,14,24,6,7,0.4,0.5
2023-10-26T11:00:00,1369A,113.628,22.4251,珠海市,唐家,,30,30,37,17,26,157,72,48,48,23,18,5,4,0.4,0.4
2023-10-26T11:00:00,1370A,113.299,22.2281,珠海市,斗门,,26,24,34,16,23,178,83,44,41,16,18,8,8,0.4,0.5
2023-10-26T11:00:00,1371A,113.1294,23.0067,佛山市,湾梁,颗粒物(PM10),63,75,63,34,34,279,78,47,45,48,33,10,9,0.7,0.7
2023-10-26T11:00:00,1372A,113.1083,23.0478,佛山市,华材职中,颗粒物(PM10),58,66,71,37,44,294,81,48,48,40,37,8,7,0.6,0.6
2023-10-26T11:00:00,1373A,113.144,23.0453,佛山市,南海气象局,细颗粒物(PM2.5),59,62,64,42,42,244,87,43,42,51,42,9,8,0.6,0.6
2023-10-26T11:00:00,1374A,113.2881,22.8094,佛山市,顺德苏岗,,45,45,54,22,38,261,84,29,29,24,34,8,8,0.7,0.8
2023-10-26T11:00:00,1376A,112.8383,22.8678,佛山市,高明孔堂,颗粒物(PM10),52,54,70,25,41,379,99,65,56,14,24,8,7,0.6,0.7
2023-10-26T11:00:00,1377A,112.8836,23.1588,佛山市,三水监测站,颗粒物(PM10),65,80,102,46,59,270,85,23,23,40,64,8,7,0.8,0.9
2023-10-26T11:00:00,1378A,112.867,23.185,佛山市,三水云东海,细颗粒物(PM2.5),85,92,78,63,62,253,82,20,20,44,37,13,7,0.7,0.7
2023-10-26T11:00:00,1379A,113.3769,22.5211,中山市,华柏园,,26,26,38,13,24,172,67,45,45,22,22,4,3,0.3,0.4
2023-10-26T11:00:00,1380A,113.3881,22.5497,中山市,张溪,,38,38,54,24,33,193,67,44,44,20,23,4,3,0.4,0.5
2023-10-26T11:00:00,1381A,113.4075,22.5111,中山市,紫马岭,,24,24,36,16,28,177,74,36,36,16,17,4,4,0.4,0.4
2023-10-26T11:00:00,1382A,113.4411,22.4853,中山市,长江旅游区,,,,,,,,,,,,,,,,
2023-10-26T11:00:00,1383A,113.1064,22.6058,江门市,北街,,45,43,48,31,36,244,73,54,54,22,23,8,6,0.5,0.6
2023-10-26T11:00:00,1384A,113.0731,22.5835,江门市,西区,,,58,52,27,29,240,82,62,62,20,29,,7,0.5,0.6
2023-10-26T11:00:00,1385A,113.0219,22.5311,江门市,圭峰西,细颗粒物(PM2.5),52,43,51,36,31,251,83,62,60,24,26,5,5,0.6,0.6
2023-10-26T11:00:00,1386A,113.0828,22.5947,江门市,东湖,颗粒物(PM10),55,60,57,31,27,244,84,64,64,20,22,6,6,0.6,0.6
2023-10-26T11:00:00,1389A,113.7547,23.0494,东莞市,莞城梨川,,34,33,60,20,36,216,106,53,53,27,33,7,7,0.8,0.9
2023-10-26T11:00:00,1390A,113.7944,23.0128,东莞市,东城石井,,40,38,59,28,35,218,106,38,38,19,24,7,6,0.7,0.7
2023-10-26T11:00:00,1391A,113.7383,22.9658,东莞市,南城西平,,37,37,60,25,35,235,96,34,34,23,34,4,4,0.8,0.8
2023-10-26T11:00:00,1392A,114.4183,23.0528,惠州市,河南岸金山湖子站,,35,32,45,20,30,134,110,67,67,9,11,7,6,0.5,0.5
2023-10-26T11:00:00,1393A,114.4053,23.0822,惠州市,下埔横江三路子站,,38,38,53,22,31,136,108,70,70,15,16,9,8,0.7,0.7
2023-10-26T11:00:00,1394A,114.4103,23.1142,惠州市,江北云山西路子站,,40,37,51,21,31,154,125,78,78,9,14,8,8,0.6,0.6
2023-10-26T11:00:00,1395A,114.4645,22.7833,惠州市,惠阳区承修路船湖子站,,35,35,43,20,23,130,91,64,64,10,18,7,6,0.8,0.7
2023-10-26T11:00:00,1396A,114.5317,22.7422,惠州市,大亚湾管委会子站,,46,46,51,22,24,128,85,65,65,24,27,6,6,0.7,0.7
2023-10-26T11:00:00,1397A,112.4267,23.0706,肇庆市,睦岗子站,,,,78,,49,204,,15,15,43,49,19,10,0.7,0.7
2023-10-26T11:00:00,1398A,112.4645,23.0475,肇庆市,城中子站,细颗粒物(PM2.5),70,70,79,51,58,212,83,31,23,36,52,20,14,0.8,0.8
2023-10-26T11:00:00,1399A,112.5544,23.1522,肇庆市,坑口子站,细颗粒物(PM2.5),77,69,59,56,44,190,67,82,60,46,25,16,12,0.7,0.7
2023-10-26T11:00:00,1400A,112.4753,23.1,肇庆市,七星岩子站,,,,,,,,,,,,,,,,
2023-10-26T11:00:00,1401A,108.3103,22.7881,南宁市,二十一中,,,56,39,27,23,130,69,40,37,,31,11,8,1.1,0.9
2023-10-26T11:00:00,1402A,108.3141,22.8528,南宁市,北湖,颗粒物(PM10),54,57,53,29,31,130,70,23,23,23,25,13,14,0.9,0.8
2023-10-26T11:00:00,1403A,108.3206,22.8225,南宁市,市监测站,,,74,41,28,26,134,67,27,25,,32,14,16,0.8,0.7
2023-10-26T11:00:00,1404A,108.3829,22.8037,南宁市,大自然花园,,46,46,33,23,22,114,82,33,31,18,18,13,9,0.9,0.7
2023-10-26T11:00:00,1405A,108.4394,22.7904,南宁市,仙葫,颗粒物(PM10),58,66,49,29,29,115,87,21,21,21,29,10,7,0.9,0.7
2023-10-26T11:00:00,1406A,108.2397,22.8467,南宁市,区农职院,颗粒物(PM10),57,63,53,26,26,148,65,17,17,40,36,14,12,0.9,0.7
2023-10-26T11:00:00,1407A,108.3275,22.735,南宁市,英华嘉园,颗粒物(PM10),65,80,51,34,24,109,64,18,18,35,43,12,8,0.9,0.8
2023-10-26T11:00:00,1408A,108.2257,22.7757,南宁市,沙井镇街道办,颗粒物(PM10),53,55,68,24,28,127,71,19,19,26,41,9,9,0.9,0.8
2023-10-26T11:00:00,1409A,110.576,19.9507,海口市,东寨港,,,,,,,,,,,,,,,,
2023-10-26T11:00:00,1410A,110.3232,20.0574,海口市,海南大学,,26,26,29,10,17,115,78,,,6,7,6,7,0.6,0.5
2023-10-26T11:00:00,1411A,110.283,20.0053,海口市,秀英海南医院,,29,29,29,11,13,107,67,82,74,8,6,7,7,0.4,0.4
2023-10-26T11:00:00,1412A,110.338,19.9969,海口市,海南师范大学,,27,27,30,10,15,101,68,76,70,9,8,6,5,0.4,0.4
2023-10-26T11:00:00,1413A,110.33,20.0356,海口市,龙华路环保局宿舍,,27,27,28,12,14,109,75,84,77,8,8,8,8,0.3,0.3
2023-10-26T11:00:00,1414A,106.3787,29.8279,重庆市,缙云山,细颗粒物(PM2.5),59,61,74,42,46,84,46,56,56,12,10,7,7,0.3,0.3
2023-10-26T11:00:00,1416A,106.4213,29.8253,重庆市,天生,细颗粒物(PM2.5),74,87,68,54,48,36,14,7,7,37,38,6,6,1.0,1
2023-10-26T11:00:00,1417A,106.6263,29.7228,重庆市,两路,,42,33,59,29,42,51,6,4,4,46,47,6,7,1.2,1.1
2023-10-26T11:00:00,1418A,106.2953,29.5983,重庆市,虎溪,,,,54,,50,25,,34,,,27,,6,,0.6
2023-10-26T11:00:00,1419A,106.5777,29.5102,重庆市,南坪,细颗粒物(PM2.5),59,52,71,42,52,56,36,34,34,27,26,7,9,0.9,0.8
2023-10-26T11:00:00,1420A,106.6556,29.6277,重庆市,唐家沱,,,67,72,44,49,25,4,7,7,,45,8,7,,1
2023-10-26T11:00:00,1421A,106.6349,29.4906,重庆市,茶园,,50,49,58,35,36,70,40,24,24,37,31,6,6,0.8,0.8
2023-10-26T11:00:00,1422A,106.3754,29.4572,重庆市,白市驿,细颗粒物(PM2.5),58,47,54,41,48,60,36,32,30,22,19,6,7,0.6,0.6
2023-10-26T11:00:00,1425A,106.6205,29.7166,重庆市,空港,细颗粒物(PM2.5),55,57,79,39,48,64,10,9,9,51,53,5,5,1.1,1
2023-10-26T11:00:00,1426A,106.4782,29.4875,重庆市,新山村,细颗粒物(PM2.5),62,72,75,44,53,40,23,14,14,42,46,10,11,0.8,0.8
2023-10-26T11:00:00,1427A,106.5616,29.6453,重庆市,礼嘉,细颗粒物(PM2.5),72,58,69,52,50,54,12,14,14,48,50,8,9,1.0,1
2023-10-26T11:00:00,1428A,106.4522,29.7091,重庆市,蔡家,细颗粒物(PM2.5),73,61,70,53,45,55,22,17,17,36,33,8,7,0.8,0.8
2023-10-26T11:00:00,1429A,106.5093,29.3917,重庆市,鱼新街,颗粒物(PM10),54,58,62,29,42,53,16,13,13,51,44,7,8,1.1,1
2023-10-26T11:00:00,1431A,103.9728,30.7236,成都市,金泉两河,细颗粒物(PM2.5),84,83,61,62,41,76,1,0,0,44,35,2,2,0.9,0.7
2023-10-26T11:00:00,1432A,104.176,30.6872,成都市,十里店,细颗粒物(PM2.5),75,88,71,55,54,60,3,2,2,45,44,2,2,1.1,0.8
2023-10-26T11:00:00,1433A,104.079,30.5706,成都市,三瓦窑,细颗粒物(PM2.5),112,119,108,84,67,63,2,0,0,41,36,4,3,0.9,0.7
2023-10-26T11:00:00,1434A,104.1114,30.63,成都市,沙河铺,细颗粒物(PM2.5),112,110,80,84,60,63,1,0,0,34,38,2,1,1.1,0.9
2023-10-26T11:00:00,1437A,104.0786,30.6531,成都市,君平街,细颗粒物(PM2.5),94,104,92,70,64,84,4,1,1,62,58,3,2,1.1,0.9
2023-10-26T11:00:00,1438A,103.613,31.0283,成都市,灵岩寺,,18,0,44,4,28,94,56,53,53,8,13,10,14,0.2,0.5
2023-10-26T11:00:00,1439A,106.6899,26.5998,贵阳市,马鞍山,,,48,46,44,35,58,52,53,53,21,15,4,5,,0.2
2023-10-26T11:00:00,1440A,106.6971,26.5694,贵阳市,市环保站,细颗粒物(PM2.5),73,63,61,53,51,97,64,81,79,34,21,4,5,0.6,0.5
2023-10-26T11:00:00,1441A,106.6243,26.6266,贵阳市,鉴湖路,细颗粒物(PM2.5),62,53,52,44,36,81,64,71,71,18,14,2,3,0.4,0.5
2023-10-26T11:00:00,1442A,106.7487,26.6343,贵阳市,燕子冲,细颗粒物(PM2.5),67,44,60,48,50,74,49,59,58,24,17,10,7,0.7,0.6
2023-10-26T11:00:00,1443A,106.6555,26.4365,贵阳市,碧云窝,细颗粒物(PM2.5),67,53,58,48,38,78,61,64,64,22,16,4,5,0.6,0.5
2023-10-26T11:00:00,1444A,106.694,26.5161,贵阳市,中院村,细颗粒物(PM2.5),67,56,60,48,45,80,58,67,65,32,22,2,3,0.7,0.5
2023-10-26T11:00:00,1445A,106.7109,26.6027,贵阳市,红边门,细颗粒物(PM2.5),67,61,62,48,52,88,74,79,79,19,17,4,7,0.7,0.6
2023-10-26T11:00:00,1446A,106.7164,26.5699,贵阳市,新华路,,,58,58,58,48,90,,77,77,27,17,,7,0.7,0.5
2023-10-26T11:00:00,1447A,106.674,26.5424,贵阳市,太慈桥,细颗粒物(PM2.5),62,34,46,44,37,75,48,48,48,29,20,4,5,0.6,0.5
2023-10-26T11:00:00,1450A,102.8204,24.8886,昆明市,呈贡新区,,26,21,22,18,14,77,44,28,28,18,23,9,7,0.8,0.9
2023-10-26T11:00:00,1451A,102.6251,24.9608,昆明市,西山森林公园,,15,10,13,6,10,69,48,42,42,6,7,4,5,0.5,0.6
2023-10-26T11:00:00,1452A,102.7252,25.0902,昆明市,龙泉镇,,33,17,21,23,10,59,37,13,13,15,21,9,9,0.9,0.9
2023-10-26T11:00:00,1453A,102.7266,25.0375,昆明市,东风东路,,22,22,22,12,14,72,45,23,23,15,20,8,9,0.6,0.6
2023-10-26T11:00:00,1454A,102.6742,25.0669,昆明市,金鼎山,,34,34,23,21,17,73,34,26,26,22,20,17,17,0.8,0.6
2023-10-26T11:00:00,1455A,102.6644,25.0401,昆明市,碧鸡广场,,25,25,24,16,15,67,42,24,24,15,21,8,8,0.7,0.8
2023-10-26T11:00:00,1456A,91.1319,29.6514,拉萨市,八廓街,,,,22,,13,108,66,48,48,,22,17,12,0.3,0.3
2023-10-26T11:00:00,1457A,91.1221,29.6747,拉萨市,市环保局,,37,37,28,13,14,216,59,46,39,25,28,12,9,0.8,0.8
2023-10-26T11:00:00,1458A,91.0874,29.6475,拉萨市,区监测站,,28,28,19,10,9,103,52,64,47,30,27,11,9,0.5,0.4
2023-10-26T11:00:00,1459A,91.1774,29.6541,拉萨市,西藏大学,,20,19,18,6,9,104,62,52,52,17,23,14,9,0.3,0.5
2023-10-26T11:00:00,1460A,90.9798,29.6588,拉萨市,区辐射站,,39,39,25,15,9,106,53,48,47,32,25,7,6,0.5,0.5
2023-10-26T11:00:00,1461A,91.0834,29.6292,拉萨市,拉萨火车站,,36,36,18,18,9,100,40,62,49,44,21,10,7,0.6,0.6
2023-10-26T11:00:00,1462A,108.882,34.2749,西安市,高压开关厂,颗粒物(PM10),83,115,94,44,38,103,20,8,8,55,58,15,13,0.7,1
2023-10-26T11:00:00,1463A,108.993,34.2629,西安市,兴庆小区,颗粒物(PM10),51,52,53,24,24,95,32,14,14,51,47,7,7,0.6,0.5
2023-10-26T11:00:00,1464A,109.06,34.2572,西安市,纺织城,,,,71,30,32,101,25,7,7,49,49,7,6,,0.6
2023-10-26T11:00:00,1465A,108.9356,34.2173,西安市,小寨,颗粒物(PM10),54,57,59,30,24,80,23,5,5,54,56,10,8,0.6,0.8
2023-10-26T11:00:00,1466A,108.954,34.2713,西安市,市人民体育场,颗粒物(PM10),54,57,66,30,31,96,21,8,8,58,55,9,6,0.6,0.7
2023-10-26T11:00:00,1467A,108.8922,34.2322,西安市,高新西区,颗粒物(PM10),61,72,65,39,34,103,25,10,10,44,54,12,8,0.6,1
2023-10-26T11:00:00,1468A,108.935,34.3474,西安市,经开区,颗粒物(PM10),68,86,77,38,34,88,9,3,3,62,57,8,5,0.7,0.9
2023-10-26T11:00:00,1469A,108.906,34.1546,西安市,长安区,颗粒物(PM10),54,58,53,30,22,92,24,13,13,48,48,10,7,0.7,0.6
2023-10-26T11:00:00,1471A,109.2186,34.3731,西安市,临潼区,颗粒物(PM10),64,77,65,38,29,88,16,14,10,53,40,7,7,0.7,0.7
2023-10-26T11:00:00,1472A,108.869,34.378,西安市,草滩,颗粒物(PM10),74,98,120,34,42,77,10,2,2,62,74,22,15,0.7,0.8
2023-10-26T11:00:00,1473A,108.985,34.1978,西安市,曲江文化产业集团,颗粒物(PM10),54,58,50,22,20,79,20,7,7,62,57,6,5,1.2,1.1
2023-10-26T11:00:00,1474A,109.051,34.3213,西安市,广运潭,,44,44,62,20,27,89,23,10,10,42,48,8,8,0.7,0.7
2023-10-26T11:00:00,1476A,103.631,36.1031,兰州市,兰炼宾馆,颗粒物(PM10),65,79,53,40,33,98,98,22,22,72,52,7,11,0.5,0.6
2023-10-26T11:00:00,1477A,104.1373,35.9454,兰州市,榆中兰大校区,,,,,,,,,,,,,,,,
2023-10-26T11:00:00,1478A,103.8412,36.0726,兰州市,生物制品所,细颗粒物(PM2.5),53,53,47,37,33,69,24,5,5,53,52,17,10,1.9,0.8
2023-10-26T11:00:00,1479A,103.831,36.0464,兰州市,铁路设计院,颗粒物(PM10),65,80,53,42,36,68,19,6,5,64,59,16,14,1.8,1
2023-10-26T11:00:00,1483A,101.524,36.6867,西宁市,第五水厂,,,,,,,,,,,,,,,,
2023-10-26T11:00:00,1484A,105.9512,38.6016,银川市,贺兰山马莲口,,45,45,38,14,16,105,79,69,69,29,22,17,12,0.6,0.4
2023-10-26T11:00:00,1488A,106.2328,38.4975,银川市,贺兰山东路,细颗粒物(PM2.5),73,59,82,53,42,113,50,13,13,64,66,28,18,1.0,0.9
2023-10-26T11:00:00,1489A,106.1358,38.5036,银川市,学院路,细颗粒物(PM2.5),63,73,110,45,40,91,69,15,15,34,67,27,16,0.8,0.9
2023-10-26T11:00:00,1490A,87.5801,43.8303,乌鲁木齐市,监测站,颗粒物(PM10),81,111,89,24,29,36,3,2,2,70,66,8,6,1.7,0.8
2023-10-26T11:00:00,1491A,87.6046,43.768,乌鲁木齐市,收费所,颗粒物(PM10),69,88,92,26,33,33,8,5,5,58,58,4,4,1.2,0.8
2023-10-26T11:00:00,1492A,87.4754,43.9469,乌鲁木齐市,新疆农科院农场,颗粒物(PM10),105,159,142,61,43,54,6,2,2,52,57,7,5,1.4,1.1
2023-10-26T11:00:00,1493A,87.5525,43.8711,乌鲁木齐市,铁路局,颗粒物(PM10),85,120,107,36,35,35,8,5,5,62,66,6,5,1.5,1
2023-10-26T11:00:00,1494A,87.6432,43.831,乌鲁木齐市,三十一中学,颗粒物(PM10),58,66,86,24,28,41,10,20,20,57,55,10,9,1.1,0.6
2023-10-26T11:00:00,1496A,87.7216,44.1747,乌鲁木齐市,米东区环保局,颗粒物(PM10),90,129,90,42,27,78,5,4,4,46,37,5,6,0.8,0.5
2023-10-26T11:00:00,1508A,112.9433,27.8614,湘潭市,板塘,,,26,36,26,20,115,43,56,54,,18,6,8,1.0,0.7
2023-10-26T11:00:00,1511A,112.9118,27.8403,湘潭市,市监测站,,40,29,31,28,26,132,53,70,62,18,16,4,4,0.9,0.5
2023-10-26T11:00:00,1512A,112.8937,27.8728,湘潭市,江麓,,46,36,38,32,28,133,62,68,65,16,15,6,7,0.7,0.5
2023-10-26T11:00:00,1513A,112.9227,27.8159,湘潭市,岳塘,,42,25,33,29,31,135,52,72,67,19,13,10,9,1.0,0.8
2023-10-26T11:00:00,1514A,112.9074,27.9119,湘潭市,科大,细颗粒物(PM2.5),67,40,38,48,31,121,55,62,58,16,16,7,7,0.5,0.3
2023-10-26T11:00:00,1515A,113.135,27.8244,株洲市,天台山庄,,22,20,42,15,28,139,55,58,57,20,19,6,7,0.5,0.5
2023-10-26T11:00:00,1518A,113.095,27.8867,株洲市,株冶医院,,25,17,37,17,31,133,62,62,60,9,14,5,6,0.5,0.5
2023-10-26T11:00:00,1519A,113.167,27.8667,株洲市,市四中,,23,20,40,16,30,130,60,60,60,10,14,4,4,0.5,0.5
2023-10-26T11:00:00,1520A,113.143,27.8381,株洲市,火车站,,23,23,42,15,27,136,54,59,58,20,17,5,6,0.7,0.6
2023-10-26T11:00:00,1524A,113.13,27.8528,株洲市,市监测站,,33,25,44,23,33,176,51,76,74,20,19,7,7,0.6,0.7
2023-10-26T11:00:00,1552A,106.805,26.3003,贵阳市,桐木岭,,,,,,,,,,,,,,,,
2023-10-26T11:00:00,1559A,113.251,27.8336,株洲市,大京风景区,,23,19,37,16,26,129,63,60,60,5,8,4,5,0.4,0.4
2023-10-26T11:00:00,1562A,113.0048,27.9153,湘潭市,昭山,,31,31,34,21,29,129,51,60,54,17,18,4,4,0.7,0.5
2023-10-26T11:00:00,1564A,112.4876,27.9164,湘潭市,韶山,颗粒物(PM10),54,58,42,25,30,120,96,81,81,7,10,6,6,0.8,0.6
2023-10-26T11:00:00,1585A,109.8756,40.6532,包头市,市环境监测站,颗粒物(PM10),61,72,71,33,26,99,44,33,25,36,32,64,19,1.6,0.8
2023-10-26T11:00:00,1587A,109.9991,40.5842,包头市,包头八中,颗粒物(PM10),89,128,89,51,24,108,39,15,14,54,48,79,21,1.6,0.9
2023-10-26T11:00:00,1588A,109.8538,40.6821,包头市,青山宾馆,颗粒物(PM10),61,72,68,35,23,102,40,29,28,40,36,68,21,1.8,1
2023-10-26T11:00:00,1589A,109.8642,40.6288,包头市,惠龙物流,颗粒物(PM10),92,133,76,53,35,109,28,27,14,75,38,148,23,2.8,0.8
2023-10-26T11:00:00,1590A,110.0377,40.5546,包头市,东河鸿龙湾,颗粒物(PM10),72,93,75,34,20,103,52,18,18,36,44,77,27,0.9,0.7
2023-10-26T11:00:00,1591A,110.0023,39.8129,鄂尔多斯市,综合楼,,,31,62,,10,96,74,47,38,16,28,4,6,0.4,0.6
2023-10-26T11:00:00,1592A,109.9486,39.8261,鄂尔多斯市,巴音孟克林场办事处,,25,24,50,9,14,95,80,31,31,9,37,6,8,0.3,0.4
2023-10-26T11:00:00,1593A,109.7736,39.5986,鄂尔多斯市,康泽苑,颗粒物(PM10),56,61,44,20,12,97,41,45,36,37,20,5,4,0.5,0.4
2023-10-26T11:00:00,1594A,109.8119,39.5989,鄂尔多斯市,华泰汽车城,颗粒物(PM10),54,58,45,14,11,99,39,17,17,33,33,4,4,0.5,0.4
2023-10-26T11:00:00,1595A,109.9734,39.7884,鄂尔多斯市,奥林花园,,29,29,62,7,13,98,70,22,18,18,33,30,10,0.5,0.6
2023-10-26T11:00:00,1597A,122.2703,40.7094,营口市,大庆路,,38,38,96,1,49,183,65,56,56,12,28,3,7,0.1,0.5
2023-10-26T11:00:00,1598A,122.2150,40.6511,营口市,镜湖西路,,20,20,84,1,44,198,60,54,53,13,23,3,8,0.6,0.8
2023-10-26T11:00:00,1599A,122.1658,40.6789,营口市,西炮台,,28,28,82,4,49,183,64,56,56,14,22,5,9,0.3,0.5
2023-10-26T11:00:00,1600A,124.3303,40.0625,丹东市,江湾东路,,39,39,49,11,28,125,58,75,61,18,17,7,6,0.5,0.8
2023-10-26T11:00:00,1601A,124.4256,40.1503,丹东市,临江后街,,38,38,42,10,24,137,60,59,48,16,16,6,7,0.5,0.7
2023-10-26T11:00:00,1602A,124.3933,40.1461,丹东市,元宝山,,38,38,41,16,22,124,60,72,55,11,13,6,6,0.4,0.6
2023-10-26T11:00:00,1603A,124.3633,40.1092,丹东市,民主桥,,47,47,47,12,23,118,48,69,52,22,16,8,7,0.5,0.8
2023-10-26T11:00:00,1604A,122.0303,41.1489,盘锦市,开发区,,20,12,62,1,47,179,64,59,58,9,25,8,9,0.2,0.5
2023-10-26T11:00:00,1605A,122.0485,41.0883,盘锦市,兴隆台,,25,25,62,7,50,192,65,63,61,19,24,9,10,0.3,0.6
2023-10-26T11:00:00,1606A,121.8297,41.1028,盘锦市,新生街道,,,42,48,2,25,189,,50,47,17,23,7,8,0.4,0.7
2023-10-26T11:00:00,1607A,120.9092,40.7136,葫芦岛市,龙港区,,47,47,113,6,73,216,56,43,42,31,42,19,34,0.4,1.2
2023-10-26T11:00:00,1608A,120.8392,40.7514,葫芦岛市,化工街,,,27,118,5,51,206,65,58,57,,23,,10,0.4,1
2023-10-26T11:00:00,1609A,120.8341,40.7073,葫芦岛市,新区,,22,22,94,2,68,224,59,61,57,20,33,14,13,0.3,1
2023-10-26T11:00:00,1610A,120.8695,40.7677,葫芦岛市,东城区,,38,38,81,3,65,229,66,59,56,12,30,13,15,0.5,1.1
2023-10-26T11:00:00,1611A,118.5819,24.9117,泉州市,涂山街,,32,26,33,11,17,158,102,53,53,9,15,5,5,0.6,0.6
2023-10-26T11:00:00,1612A,118.5972,24.8978,泉州市,津头埔,,32,24,28,13,17,150,101,60,60,15,17,4,4,0.6,0.6
2023-10-26T11:00:00,1613A,118.6663,24.9424,泉州市,万安,,33,26,29,11,15,155,103,50,50,9,16,5,5,0.6,0.6
2023-10-26T11:00:00,1614A,118.6117,24.9604,泉州市,清源山,,,,,,,,,,,,,,,,
2023-10-26T11:00:00,1616A,117.6795,36.229,济南市,技术学院,,,,135,,64,183,108,37,37,45,68,20,13,1.3,1.3
2023-10-26T11:00:00,1618A,118.3429,35.0532,临沂市,沂河小区,细颗粒物(PM2.5),135,183,138,103,75,170,102,30,30,57,58,18,17,0.9,0.7
2023-10-26T11:00:00,1619A,118.295,35.0583,临沂市,鲁南制药厂,细颗粒物(PM2.5),134,185,148,102,67,188,119,33,33,50,59,19,18,1.1,1
2023-10-26T11:00:00,1620A,118.2794,34.9976,临沂市,新光毛纺厂,细颗粒物(PM2.5),139,173,139,106,75,180,117,30,30,56,61,17,19,1.2,1.1
2023-10-26T11:00:00,1621A,118.3956,35.0888,临沂市,河东保险公司,细颗粒物(PM2.5),149,193,132,114,66,183,84,27,27,64,52,15,12,1.2,1
2023-10-26T11:00:00,1622A,116.3032,37.4674,德州市,儿童乐园,颗粒物(PM10),76,102,142,7,57,159,69,47,47,19,57,13,17,0.5,1
2023-10-26T11:00:00,1624A,116.2991,37.4451,德州市,监理站,颗粒物(PM10),71,92,151,5,72,160,68,49,49,12,54,11,19,0.4,0.9
2023-10-26T11:00:00,1625A,115.9848,36.4372,聊城市,区政府,颗粒物(PM10),134,217,193,95,115,190,64,27,27,54,74,25,15,1.4,1.5
2023-10-26T11:00:00,1628A,118.0062,37.3803,滨州市,市环保局,,,,,,,,,,,,,,,,
2023-10-26T11:00:00,1629A,118.0018,37.3617,滨州市,第二水厂,颗粒物(PM10),74,97,144,5,71,183,75,59,59,7,34,5,16,0.4,0.9
2023-10-26T11:00:00,1630A,117.9776,37.393,滨州市,北中新校,颗粒物(PM10),66,81,136,7,67,173,72,54,54,6,38,7,18,0.4,1
2023-10-26T11:00:00,1631A,118.0414,36.8103,淄博市,人民公园,颗粒物(PM10),68,85,116,12,60,184,76,35,35,9,69,6,12,0.2,0.8
2023-10-26T11:00:00,1633A,117.8525,36.4847,淄博市,双山,颗粒物(PM10),85,119,116,34,71,174,80,53,50,18,38,11,10,0.6,0.8
2023-10-26T11:00:00,1634A,117.9592,36.6331,淄博市,气象站,颗粒物(PM10),65,79,105,17,61,167,63,39,39,17,51,7,11,0.2,0.7
2023-10-26T11:00:00,1635A,118.3092,36.8194,淄博市,莆田园,颗粒物(PM10),67,83,122,7,56,186,70,36,36,11,53,3,14,0.2,1.2
2023-10-26T11:00:00,1637A,117.558,34.8438,枣庄市,市中区政府,细颗粒物(PM2.5),153,178,139,117,86,190,96,26,26,62,60,26,12,1.1,1.1
2023-10-26T11:00:00,1638A,117.2852,34.7837,枣庄市,薛城环保局,细颗粒物(PM2.5),123,132,130,93,84,190,104,36,36,36,52,16,12,1.0,0.9
2023-10-26T11:00:00,1639A,117.5852,34.7745,枣庄市,峄城区政府,细颗粒物(PM2.5),122,129,122,92,78,187,112,49,40,37,44,19,11,0.6,0.7
2023-10-26T11:00:00,1640A,117.7276,34.5578,枣庄市,台儿庄区环保局,细颗粒物(PM2.5),125,141,106,95,72,177,92,21,21,50,58,19,7,1.2,0.8
2023-10-26T11:00:00,1641A,117.4518,35.0992,枣庄市,山亭区环保局,细颗粒物(PM2.5),89,122,123,66,75,192,127,54,54,27,39,13,10,1.0,1.1
2023-10-26T11:00:00,1642A,121.2514,37.5639,烟台市,开发区,颗粒物(PM10),59,68,110,9,56,212,67,113,90,13,31,8,12,0.5,1
2023-10-26T11:00:00,1643A,121.3719,37.5433,烟台市,轴承厂,颗粒物(PM10),58,66,111,18,64,187,65,118,88,18,24,7,9,0.3,0.5
2023-10-26T11:00:00,1644A,121.3181,37.5436,烟台市,西郊化工站,颗粒物(PM10),58,66,111,9,52,181,70,112,89,18,35,6,8,0.3,0.6
2023-10-26T11:00:00,1645A,121.4478,37.4822,烟台市,莱山环保局,颗粒物(PM10),57,63,103,13,55,192,69,127,95,20,22,8,10,0.4,0.7
2023-10-26T11:00:00,1646A,121.2611,37.4967,烟台市,福山环保局,颗粒物(PM10),62,73,116,14,56,176,69,89,85,13,38,8,10,0.5,0.7
2023-10-26T11:00:00,1650A,119.1437,36.7023,潍坊市,环保局,颗粒物(PM10),68,85,111,14,54,184,82,64,64,17,56,6,10,0.4,0.7
2023-10-26T11:00:00,1653A,116.6251,35.4302,济宁市,火炬城,细颗粒物(PM2.5),153,153,117,117,72,149,72,30,30,50,48,22,15,1.0,0.9
2023-10-26T11:00:00,1655A,116.5491,35.4042,济宁市,电化厂,细颗粒物(PM2.5),122,169,145,92,68,144,85,33,33,38,53,19,11,0.9,0.8
2023-10-26T11:00:00,1656A,117.1437,36.1937,泰安市,监测站,细颗粒物(PM2.5),169,205,130,128,80,184,123,59,59,45,52,31,13,1.7,1.2
2023-10-26T11:00:00,1657A,117.0885,36.2017,泰安市,人口学校,细颗粒物(PM2.5),150,180,112,115,73,179,133,69,69,36,42,24,11,1.3,0.9
2023-10-26T11:00:00,1658A,117.1089,36.1758,泰安市,电力学校,细颗粒物(PM2.5),158,222,145,120,80,174,118,39,39,37,68,28,13,1.4,1
2023-10-26T11:00:00,1659A,119.471,35.4209,日照市,监测站,细颗粒物(PM2.5),124,151,117,94,80,167,113,34,34,32,64,15,14,1.1,1.2
2023-10-26T11:00:00,1660A,119.523,35.4216,日照市,市政府广场,细颗粒物(PM2.5),109,161,134,82,71,178,126,83,83,40,54,13,16,0.9,1
2023-10-26T11:00:00,1661A,119.5587,35.4044,日照市,港务局,细颗粒物(PM2.5),118,153,130,89,77,181,134,68,68,34,57,17,17,1.3,1.3
2023-10-26T11:00:00,1662A,122.1214,37.4236,威海市,华夏技校,,,,78,,66,182,68,144,111,22,23,4,6,0.5,0.8
2023-10-26T11:00:00,1663A,122.0508,37.5236,威海市,山大分校,颗粒物(PM10),56,61,92,12,49,202,66,144,109,14,15,6,9,0.5,0.8
2023-10-26T11:00:00,1664A,122.1067,37.5072,威海市,市监测站,颗粒物(PM10),59,68,97,20,46,192,64,143,108,13,25,9,11,0.6,1
2023-10-26T11:00:00,1666A,118.6614,37.4309,东营市,市环保局,,48,48,103,2,48,230,80,73,73,6,32,4,15,0.2,0.6
2023-10-26T11:00:00,1669A,113.5824,24.7733,韶关市,市八中,颗粒物(PM10),64,78,44,38,25,132,86,24,24,18,22,23,16,0.8,0.7
2023-10-26T11:00:00,1671A,113.5917,24.7972,韶关市,园林处,颗粒物(PM10),51,52,41,30,29,122,87,24,24,10,22,26,20,0.8,0.8
2023-10-26T11:00:00,1672A,113.6735,24.7791,韶关市,韶关学院,颗粒物(PM10),58,65,45,35,32,157,49,13,13,26,19,38,16,1.4,0.9
2023-10-26T11:00:00,1673A,113.5971,24.6863,韶关市,曲江监测站,细颗粒物(PM2.5),60,57,43,43,29,141,64,19,19,30,21,38,15,1.0,0.8
2023-10-26T11:00:00,1674A,116.6794,23.3667,汕头市,金平子站,,35,35,28,12,15,139,85,67,65,9,10,7,7,0.6,0.6
2023-10-26T11:00:00,1675A,116.7244,23.3633,汕头市,龙湖子站,,28,23,23,13,18,134,89,71,70,10,11,7,6,0.4,0.5
2023-10-26T11:00:00,1676A,116.7258,23.2775,汕头市,濠江子站,,28,23,22,10,14,132,89,67,67,6,8,8,8,0.5,0.6
2023-10-26T11:00:00,1677A,116.7519,23.4714,汕头市,澄海子站,,27,21,30,16,19,138,85,61,58,15,13,14,11,0.6,0.6
2023-10-26T11:00:00,1678A,116.6092,23.2539,汕头市,潮阳子站,,26,26,29,10,16,128,79,58,58,6,9,8,8,0.4,0.4
2023-10-26T11:00:00,1680A,110.3539,21.2706,湛江市,湛江影剧院,颗粒物(PM10),51,51,38,17,21,136,96,99,89,8,10,12,7,0.6,0.6
2023-10-26T11:00:00,1681A,110.3928,21.2228,湛江市,市环境监测站,,34,34,30,20,26,139,87,95,86,9,9,5,3,0.6,0.6
2023-10-26T11:00:00,1682A,110.4019,21.1997,湛江市,环保局宿舍,,35,28,37,24,32,139,87,97,87,11,11,5,4,0.6,0.6
2023-10-26T11:00:00,1683A,110.4111,21.2028,湛江市,霞山游泳场,,27,20,34,17,21,143,85,92,83,7,8,6,5,0.5,0.6
2023-10-26T11:00:00,1684A,110.3316,21.2679,湛江市,麻章区环保局,,45,45,35,22,24,137,89,92,84,11,11,7,4,0.7,0.7
2023-10-26T11:00:00,1685A,110.4558,21.2567,湛江市,坡头区环保局,,30,21,30,20,24,152,94,98,90,7,7,7,6,0.5,0.5
2023-10-26T11:00:00,1686A,111.0286,21.4688,茂名市,电白南海,,46,46,48,22,30,143,86,63,60,14,16,11,11,0.7,0.7
2023-10-26T11:00:00,1687A,110.9294,21.6533,茂名市,茂石化七小,,44,44,52,19,31,141,90,73,72,10,12,8,9,0.4,0.4
2023-10-26T11:00:00,1688A,110.9107,21.6687,茂名市,健康路,颗粒物(PM10),56,61,47,31,24,146,95,76,72,10,11,10,14,0.3,0.3
2023-10-26T11:00:00,1689A,110.8592,21.6828,茂名市,高岭,细颗粒物(PM2.5),73,83,56,53,39,144,97,54,54,16,18,11,14,0.6,0.6
2023-10-26T11:00:00,1690A,116.1231,24.3284,梅州市,梅江月梅,细颗粒物(PM2.5),65,55,47,47,32,127,109,33,33,10,22,7,6,0.6,0.6
2023-10-26T11:00:00,1691A,116.0797,24.2719,梅州市,梅县新城,细颗粒物(PM2.5),58,63,53,41,32,133,100,27,27,16,28,8,7,0.9,0.9
2023-10-26T11:00:00,1692A,116.1248,24.2654,梅州市,环境监控中心,,,,48,,30,124,98,24,24,,29,,8,0.7,0.7
2023-10-26T11:00:00,1693A,115.3653,22.775,汕尾市,市环保局,,28,23,32,11,20,123,89,73,73,8,14,13,12,0.5,0.6
2023-10-26T11:00:00,1694A,115.3706,22.7898,汕尾市,市政府,,,25,32,15,24,133,,66,63,8,10,9,8,0.4,0.4
2023-10-26T11:00:00,1695A,115.3622,22.7925,汕尾市,新城中学,,36,36,36,16,24,130,91,67,67,7,9,11,9,0.5,0.6
2023-10-26T11:00:00,1696A,114.6778,23.7569,河源市,源西,细颗粒物(PM2.5),83,74,56,61,34,90,64,23,23,21,31,5,5,0.6,0.6
2023-10-26T11:00:00,1697A,114.6944,23.7586,河源市,东埔,细颗粒物(PM2.5),88,105,63,65,43,95,75,39,39,18,23,6,6,0.8,0.7
2023-10-26T11:00:00,1698A,114.6892,23.7233,河源市,老城,细颗粒物(PM2.5),73,81,45,53,29,94,82,32,32,15,18,6,5,0.8,0.7
2023-10-26T11:00:00,1699A,111.9797,21.8593,阳江市,鸳鸯湖,,35,33,36,24,30,156,84,64,64,7,11,14,12,0.7,0.7
2023-10-26T11:00:00,1701A,111.9491,21.8658,阳江市,马南垌,,42,42,42,18,36,151,85,49,49,9,17,8,7,0.6,0.6
2023-10-26T11:00:00,1702A,113.0426,23.691,清远市,环保大楼,细颗粒物(PM2.5),99,108,48,74,36,136,56,19,19,48,29,15,10,0.9,0.9
2023-10-26T11:00:00,1703A,113.0208,23.7106,清远市,凤城街办,细颗粒物(PM2.5),123,146,57,93,33,154,68,27,21,50,29,19,11,0.8,0.7
2023-10-26T11:00:00,1705A,116.6367,23.6719,潮州市,西园路,,49,49,49,7,32,157,106,48,48,9,17,5,7,0.5,0.4
2023-10-26T11:00:00,1706A,116.6447,23.6706,潮州市,档案局,,50,50,47,23,32,170,111,48,48,9,17,8,8,0.5,0.7
2023-10-26T11:00:00,1708A,116.3701,23.5345,揭阳市,新兴,,,,45,,29,180,,51,48,10,16,11,11,0.5,0.6
2023-10-26T11:00:00,1709A,116.3264,23.5443,揭阳市,西马,,48,48,50,21,27,174,106,61,61,10,14,9,9,0.6,0.7
2023-10-26T11:00:00,1710A,116.3611,23.5626,揭阳市,东兴,,50,50,52,20,26,189,107,71,71,11,15,9,9,0.8,0.9
2023-10-26T11:00:00,1711A,116.4151,23.5294,揭阳市,渔湖,,44,44,49,25,27,185,99,48,48,10,18,8,8,0.6,0.8
2023-10-26T11:00:00,1712A,112.0392,22.9169,云浮市,新市府,细颗粒物(PM2.5),62,63,47,44,33,167,104,49,49,22,9,9,6,1.0,0.9
2023-10-26T11:00:00,1714A,112.0539,22.9539,云浮市,牧羊,颗粒物(PM10),74,98,60,41,36,168,118,26,26,24,32,9,11,0.7,0.7
2023-10-26T11:00:00,1715A,102.575,24.3711,玉溪市,东风水库,,24,24,24,10,15,65,39,23,23,10,13,8,8,0.9,0.9
2023-10-26T11:00:00,1718A,115.4208,35.2464,菏泽市,气象局,细颗粒物(PM2.5),124,182,133,94,63,159,84,29,29,64,65,22,12,0.9,0.6
2023-10-26T11:00:00,1719A,115.4747,35.2375,菏泽市,市政协,细颗粒物(PM2.5),132,184,139,100,70,154,97,32,32,65,67,17,13,0.8,0.5
2023-10-26T11:00:00,1721A,113.3819,40.1097,大同市,果树场,,,,,,,,,,,,,,,,
2023-10-26T11:00:00,1723A,113.2994,40.0758,大同市,云冈宾馆,颗粒物(PM10),63,76,81,32,29,99,57,19,19,28,43,21,20,1.3,1.1
2023-10-26T11:00:00,1724A,113.3444,40.0917,大同市,大同大学,颗粒物(PM10),75,99,76,35,22,101,44,32,30,40,31,26,21,1.6,0.8
2023-10-26T11:00:00,1725A,113.2661,40.1269,大同市,安家小村,,,115,82,29,23,107,56,21,21,,32,,21,1.2,1
2023-10-26T11:00:00,1726A,113.2711,40.0844,大同市,教育学院,颗粒物(PM10),64,77,94,26,30,95,65,28,28,23,48,20,21,0.6,1
2023-10-26T11:00:00,1727A,113.1147,36.1547,长治市,清华站,,,102,99,31,53,143,61,26,26,,46,,11,0.9,1
2023-10-26T11:00:00,1728A,113.1031,36.1989,长治市,监测站,,,79,89,36,55,147,60,18,18,,55,,11,1.1,1.5
2023-10-26T11:00:00,1730A,113.0886,36.2125,长治市,审计局,颗粒物(PM10),60,69,83,27,56,142,64,22,18,35,44,32,14,0.9,1.2
2023-10-26T11:00:00,1731A,113.0844,36.1856,长治市,长治八中,颗粒物(PM10),68,85,101,48,48,139,53,16,16,39,43,25,15,0.8,0.9
2023-10-26T11:00:00,1733A,111.5531,36.0783,临汾市,临钢医院,细颗粒物(PM2.5),186,192,210,140,141,156,44,23,23,38,41,8,10,1.6,1.7
2023-10-26T11:00:00,1734A,111.5028,36.0714,临汾市,技工学校,细颗粒物(PM2.5),153,170,229,117,160,156,44,15,15,45,59,8,14,1.4,1.7
2023-10-26T11:00:00,1736A,111.5018,36.0855,临汾市,市委,细颗粒物(PM2.5),162,196,220,123,153,149,41,15,15,45,60,9,13,1.5,1.8
2023-10-26T11:00:00,1738A,113.5758,37.8572,阳泉市,市中心,,,81,94,39,48,141,49,15,15,55,84,25,22,,0.6
2023-10-26T11:00:00,1739A,113.4894,37.8731,阳泉市,赛鱼,,49,49,99,26,44,139,64,18,18,36,71,14,15,0.6,0.8
2023-10-26T11:00:00,1740A,113.5819,37.8486,阳泉市,南庄,颗粒物(PM10),71,91,122,37,46,147,59,22,22,56,63,31,32,0.9,1
2023-10-26T11:00:00,1742A,113.5614,37.8703,阳泉市,平坦,颗粒物(PM10),60,70,95,38,44,139,58,22,22,47,66,18,17,1.0,0.9
2023-10-26T11:00:00,1743A,113.5158,37.8392,阳泉市,大阳泉,,45,45,59,18,37,144,84,64,64,25,34,12,15,0.5,0.6
2023-10-26T11:00:00,1744A,118.9233,42.2816,赤峰市,松山一中,颗粒物(PM10),70,90,50,48,12,92,37,16,16,39,28,14,10,0.7,0.5
2023-10-26T11:00:00,1745A,118.9576,42.2728,赤峰市,哈达街,颗粒物(PM10),65,80,54,45,20,95,36,21,21,36,27,17,15,0.7,0.6
2023-10-26T11:00:00,1746A,118.8788,42.2554,赤峰市,天义路,颗粒物(PM10),66,81,41,44,16,99,50,28,28,23,21,15,15,1.0,0.8
2023-10-26T11:00:00,1748A,123.044,41.1196,鞍山市,深沟寺,,28,28,56,6,34,159,57,49,48,17,18,7,7,0.4,0.6
2023-10-26T11:00:00,1749A,123.011,41.0931,鞍山市,太阳城,,20,20,61,5,32,162,57,56,52,17,22,8,9,0.3,0.7
2023-10-26T11:00:00,1750A,123.0485,41.1442,鞍山市,太平,,24,24,64,4,35,164,53,46,44,21,29,12,12,0.3,0.6
2023-10-26T11:00:00,1751A,122.9642,41.0971,鞍山市,铁西三道街,,42,42,100,8,50,166,44,22,22,27,54,18,30,1.1,2.5
2023-10-26T11:00:00,1752A,122.9341,41.0833,鞍山市,铁西工业园区,,,40,88,6,48,160,43,47,46,30,40,34,30,,1.3
2023-10-26T11:00:00,1753A,123.022,41.0821,鞍山市,明达新区,,35,35,66,8,35,149,49,47,44,19,22,7,8,0.2,0.5
2023-10-26T11:00:00,1754A,123.1289,41.0228,鞍山市,千山,,,,,,,,,,,,,,,,
2023-10-26T11:00:00,1755A,123.7977,41.8491,抚顺市,望花区,,49,49,81,4,36,155,65,54,52,7,20,6,11,0.2,0.4
2023-10-26T11:00:00,1756A,123.9161,41.8822,抚顺市,顺城区,,34,34,74,4,29,148,61,50,50,9,22,5,7,0.8,1.1
2023-10-26T11:00:00,1757A,124.0436,41.8611,抚顺市,东洲区,,31,31,64,9,27,154,72,52,52,5,14,8,9,0.4,0.6
2023-10-26T11:00:00,1758A,123.9247,41.8642,抚顺市,新抚区,,23,23,69,5,33,145,63,49,48,7,16,6,8,0.2,0.5
2023-10-26T11:00:00,1759A,124.0972,41.8961,抚顺市,大伙房水库,,23,23,67,4,20,152,68,51,51,2,12,7,9,0.4,0.6
2023-10-26T11:00:00,1760A,123.7086,41.8391,抚顺市,沈抚新城,,25,25,75,4,51,168,62,51,51,7,20,5,9,0.2,0.5
2023-10-26T11:00:00,1761A,123.8275,41.3064,本溪市,大峪,,21,20,48,4,19,142,66,51,50,12,17,8,8,0.6,0.7
2023-10-26T11:00:00,1762A,123.7567,41.3325,本溪市,溪湖,,29,29,50,3,27,147,71,56,56,11,19,11,12,0.4,0.6
2023-10-26T11:00:00,1763A,123.7169,41.3094,本溪市,彩屯,,47,47,61,11,32,127,62,41,40,23,32,12,19,0.6,1.1
2023-10-26T11:00:00,1764A,123.7669,41.2864,本溪市,东明,颗粒物(PM10),57,64,62,9,24,150,69,51,50,14,20,10,10,0.5,0.6
2023-10-26T11:00:00,1765A,123.7992,41.2664,本溪市,新立屯,,38,38,56,11,26,144,71,54,52,13,16,11,10,0.6,0.7
2023-10-26T11:00:00,1766A,123.8142,41.3472,本溪市,威宁,,44,44,70,4,27,139,70,34,34,7,25,6,6,0.5,0.8
2023-10-26T11:00:00,1767A,121.1115,41.0879,锦州市,南山,,32,32,89,2,69,160,61,58,52,15,28,9,11,0.3,0.8
2023-10-26T11:00:00,1768A,121.0533,40.8434,锦州市,开发区,,27,27,114,8,76,198,60,34,32,13,42,12,14,0.4,1
2023-10-26T11:00:00,1769A,121.1836,41.1119,锦州市,百股街道,,39,39,102,7,63,193,60,50,46,14,27,10,11,0.6,1.1
2023-10-26T11:00:00,1770A,121.1178,41.1222,锦州市,天安街道,,21,21,102,5,70,156,62,59,52,15,28,8,10,0.5,1
2023-10-26T11:00:00,1771A,121.1303,41.1386,锦州市,北湖公园,,21,13,89,2,63,136,65,58,53,10,22,11,12,0.5,0.8
2023-10-26T11:00:00,1772A,126.54,43.8622,吉林市,哈达湾,,29,29,72,3,42,162,63,55,52,12,23,11,8,0.4,0.7
2023-10-26T11:00:00,1773A,126.5844,43.8358,吉林市,东局子,,20,12,70,7,43,154,62,47,45,14,31,13,10,0.5,0.7
2023-10-26T11:00:00,1774A,126.5052,43.8245,吉林市,电力学院,,20,12,94,8,61,155,64,55,54,8,33,10,11,0.5,0.9
2023-10-26T11:00:00,1775A,126.6133,43.8972,吉林市,江北,,,20,86,4,50,154,,37,31,17,37,19,13,,1.1
2023-10-26T11:00:00,1776A,126.555,43.8306,吉林市,江南公园,,21,21,74,9,49,156,58,53,49,15,31,13,10,0.5,0.8
2023-10-26T11:00:00,1778A,126.7061,43.7133,吉林市,丰满,,,,,,,,,,,,,,,,
2023-10-26T11:00:00,1779A,123.9305,47.3636,齐齐哈尔市,安居小区,,24,24,38,2,14,78,55,48,47,4,8,4,5,0.1,0.2
2023-10-26T11:00:00,1780A,123.9488,47.3386,齐齐哈尔市,中心广场,,,20,33,8,9,81,54,49,46,,7,3,2,,0.2
2023-10-26T11:00:00,1781A,123.9483,47.3227,齐齐哈尔市,农牧车辆厂,,34,34,46,2,4,80,52,49,46,6,7,5,6,0.3,0.3
2023-10-26T11:00:00,1783A,123.945,47.2988,齐齐哈尔市,市环境监测站,,45,45,45,3,8,83,52,46,43,4,7,3,4,0.1,0.2
2023-10-26T11:00:00,1784A,129.61,44.561,牡丹江市,环保大楼,,28,28,48,12,22,88,67,48,48,6,34,5,6,0.3,0.6
2023-10-26T11:00:00,1785A,129.6115,44.5782,牡丹江市,文化广场,,,,69,,37,83,64,44,44,,39,5,9,0.2,0.6
2023-10-26T11:00:00,1786A,129.5904,44.5963,牡丹江市,第一医院,,31,31,48,12,31,82,61,43,43,6,33,6,8,0.3,0.6
2023-10-26T11:00:00,1787A,129.6364,44.6075,牡丹江市,机车工厂,,41,41,84,12,29,83,64,39,39,4,28,8,7,0.4,0.7
2023-10-26T11:00:00,1788A,129.6386,44.5462,牡丹江市,第一中学,,35,35,45,8,18,89,66,44,44,5,33,6,7,0.2,0.4
2023-10-26T11:00:00,1789A,124.81117,46.03138,大庆市,大同区,,31,31,69,14,42,112,49,47,46,2,8,6,6,0.3,0.5
2023-10-26T11:00:00,1790A,125.129,46.533,大庆市,龙凤区,,24,24,52,15,21,101,44,46,42,9,16,5,5,0.3,0.4
2023-10-26T11:00:00,1791A,124.902,46.408,大庆市,红岗区,,17,17,47,4,21,111,50,49,47,6,12,4,5,0.2,0.3
2023-10-26T11:00:00,1792A,125.153,46.586,大庆市,萨尔图区,,26,26,52,6,21,103,44,48,44,10,16,4,5,0.3,0.4
2023-10-26T11:00:00,1793A,124.9042,46.6215,大庆市,让胡路区,,16,16,45,9,20,104,49,52,48,6,11,5,4,0.4,0.4
2023-10-26T11:00:00,1794A,118.3606,31.3519,芜湖市,监测站,细颗粒物(PM2.5),79,90,101,58,62,148,148,36,36,39,87,14,12,1.1,1.1
2023-10-26T11:00:00,1795A,118.3714,31.4134,芜湖市,科创中心,细颗粒物(PM2.5),94,81,111,70,71,162,162,48,48,29,90,13,12,1.1,1.3
2023-10-26T11:00:00,1796A,118.3673,31.3131,芜湖市,四水厂,细颗粒物(PM2.5),79,85,99,58,58,142,142,44,44,41,78,12,10,1.1,1.1
2023-10-26T11:00:00,1798A,118.5092,31.6837,马鞍山市,湖东路四小,颗粒物(PM10),58,65,79,40,49,147,147,54,54,24,56,17,11,1.3,1.1
2023-10-26T11:00:00,1799A,118.5024,31.6449,马鞍山市,开发区,细颗粒物(PM2.5),70,70,94,51,56,154,140,42,42,33,70,17,14,1.1,1
2023-10-26T11:00:00,1800A,118.5228,31.7231,马鞍山市,慈湖,细颗粒物(PM2.5),64,22,89,46,57,156,156,45,45,27,67,17,11,1.4,1
2023-10-26T11:00:00,1802A,118.6245,31.7241,马鞍山市,濮塘,颗粒物(PM10),54,58,54,31,35,151,151,90,90,9,13,11,8,1.0,0.8
2023-10-26T11:00:00,1803A,115.9872,29.6815,九江市,十里,细颗粒物(PM2.5),98,113,103,73,69,101,92,48,48,30,45,17,12,1.5,1.2
2023-10-26T11:00:00,1804A,115.9584,29.7046,九江市,茅山头,细颗粒物(PM2.5),103,86,96,77,76,116,83,51,51,34,52,19,15,1.6,1.3
2023-10-26T11:00:00,1805A,115.9877,29.7295,九江市,西园,细颗粒物(PM2.5),103,118,118,77,77,87,68,56,56,46,63,19,17,1.5,1.3
2023-10-26T11:00:00,1806A,116.0172,29.6547,九江市,五七二七厂,细颗粒物(PM2.5),133,106,87,101,73,104,104,79,79,31,31,20,15,1.4,1
2023-10-26T11:00:00,1808A,115.9114,29.6038,九江市,综合工业园,细颗粒物(PM2.5),128,107,101,97,70,125,97,42,42,43,56,25,16,1.9,1.3
2023-10-26T11:00:00,1809A,116.0721,29.7535,九江市,石化总厂,细颗粒物(PM2.5),117,128,124,88,80,67,67,51,51,48,70,17,17,1.4,1.2
2023-10-26T11:00:00,1810A,115.9773,29.5698,九江市,庐山气象台,细颗粒物(PM2.5),57,36,31,40,26,156,125,124,115,5,5,6,6,1.1,0.7
2023-10-26T11:00:00,1812A,112.3931,34.6516,洛阳市,市委党校,细颗粒物(PM2.5),137,119,101,104,83,149,45,28,28,51,39,11,7,0.9,0.7
2023-10-26T11:00:00,1814A,112.4657,34.6871,洛阳市,豫西宾馆,细颗粒物(PM2.5),115,139,116,87,73,148,66,,,37,37,11,7,0.8,0.7
2023-10-26T11:00:00,1815A,112.494,34.6886,洛阳市,河南林校,细颗粒物(PM2.5),103,108,95,77,70,139,61,27,27,39,38,8,4,,0.7
2023-10-26T11:00:00,1816A,112.3844,34.623,洛阳市,开发区管委会,细颗粒物(PM2.5),72,82,81,52,58,150,79,37,37,21,25,5,3,0.6,0.6
2023-10-26T11:00:00,1817A,112.4267,34.6258,洛阳市,市委新办公区,细颗粒物(PM2.5),74,81,80,54,58,145,73,52,52,25,25,5,4,0.6,0.5
2023-10-26T11:00:00,1818A,114.4839,36.0621,安阳市,棉研所,,,,,,,,,,,,,,,,
2023-10-26T11:00:00,1819A,114.3551,36.1017,安阳市,红庙街,颗粒物(PM10),79,108,84,30,35,156,75,52,52,22,40,12,18,0.9,1.3
2023-10-26T11:00:00,1820A,114.361,36.0681,安阳市,银杏小区,颗粒物(PM10),86,121,77,38,37,149,74,49,49,20,41,11,13,0.8,1
2023-10-26T11:00:00,1824A,114.3389,34.7781,开封市,肿瘤医院,颗粒物(PM10),77,103,92,54,56,146,87,65,65,24,50,8,7,0.8,0.7
2023-10-26T11:00:00,1826A,114.2885,34.7965,开封市,世纪星幼儿园,颗粒物(PM10),79,108,86,53,49,129,76,58,58,31,46,14,10,1.0,0.8
2023-10-26T11:00:00,1828A,113.227,35.2125,焦作市,市环保局,颗粒物(PM10),56,61,84,31,45,128,66,73,60,39,37,15,14,0.7,0.7
2023-10-26T11:00:00,1830A,113.1992,35.2590,焦作市,影视城,,,,,,,,,,,,,,,,
2023-10-26T11:00:00,1832A,113.3257,33.742,平顶山市,新华旅馆,颗粒物(PM10),87,123,75,40,39,130,96,76,76,20,26,11,12,0.6,0.6
2023-10-26T11:00:00,1833A,113.2919,33.737,平顶山市,规划设计院,"颗粒物(PM10),细颗粒物(PM2.5)",59,67,61,42,34,126,94,59,59,18,34,13,12,0.3,0.3
2023-10-26T11:00:00,1834A,113.182,33.774,平顶山市,平顶山工学院,颗粒物(PM10),63,76,51,36,21,131,101,65,65,21,23,16,13,0.6,0.6
2023-10-26T11:00:00,1835A,111.1922,34.7752,三门峡市,市政府,颗粒物(PM10),73,96,83,38,44,120,22,6,6,47,55,31,10,1.0,0.9
2023-10-26T11:00:00,1836A,111.1587,34.7942,三门峡市,开发区,颗粒物(PM10),78,105,121,52,62,122,28,6,6,32,45,11,9,0.6,0.7
2023-10-26T11:00:00,1838A,111.143,34.7955,三门峡市,风景区,,,,,,,,,,,,,,,,
2023-10-26T11:00:00,1840A,111.2992,30.6981,宜昌市,白龙岗,,24,24,32,9,25,97,42,23,23,18,26,5,5,0.5,0.6
2023-10-26T11:00:00,1841A,111.3549,30.6465,宜昌市,伍家岗,,20,13,31,14,29,93,42,30,26,20,28,5,5,0.3,0.6
2023-10-26T11:00:00,1842A,111.2628,30.6961,宜昌市,点军区,,18,7,27,12,26,99,31,24,23,21,16,7,7,0.4,0.5
2023-10-26T11:00:00,1843A,111.3275,30.7819,宜昌市,夷陵区,,19,19,31,7,30,86,38,20,20,18,20,6,6,0.4,0.5
2023-10-26T11:00:00,1844A,112.2494,30.3197,荆州市,市图书馆,,49,49,56,21,38,143,41,64,48,20,18,8,7,0.7,0.8
2023-10-26T11:00:00,1845A,112.2008,30.3544,荆州市,市委党校,颗粒物(PM10),53,55,66,30,44,144,37,62,45,19,17,10,7,0.6,0.7
2023-10-26T11:00:00,1847A,113.1094,29.3578,岳阳市,南湖风景区,,,52,89,44,82,106,,82,,21,24,12,11,0.8,1.1
2023-10-26T11:00:00,1848A,113.1493,29.4251,岳阳市,城陵矶,细颗粒物(PM2.5),53,42,94,37,78,95,55,70,57,22,24,12,9,1.1,1
2023-10-26T11:00:00,1849A,113.1497,29.3575,岳阳市,开发区,细颗粒物(PM2.5),67,56,102,48,91,103,70,81,68,20,21,9,9,0.7,1
2023-10-26T11:00:00,1850A,113.2621,29.4758,岳阳市,云溪区,,49,47,84,34,69,99,76,83,74,16,20,9,9,0.9,1.2
2023-10-26T11:00:00,1851A,112.9943,29.4402,岳阳市,君山区,细颗粒物(PM2.5),60,52,90,43,85,119,73,78,67,15,20,6,6,0.6,0.8
2023-10-26T11:00:00,1852A,113.2117,29.355,岳阳市,金凤水库,细颗粒物(PM2.5),57,48,92,40,77,104,81,93,86,9,12,4,3,0.6,0.9
2023-10-26T11:00:00,1854A,111.6975,28.9703,常德市,市二中,,33,31,39,23,31,123,71,98,79,15,12,10,7,0.5,0.7
2023-10-26T11:00:00,1857A,111.7158,29.1456,常德市,白鹤山,,44,44,58,22,34,87,0,6,2,7,3,3,3,0.6,0.8
2023-10-26T11:00:00,1858A,110.5319,29.1217,张家界市,永定新区,,24,24,27,14,20,94,55,54,40,19,17,6,6,0.8,0.9
2023-10-26T11:00:00,1859A,110.4697,29.1242,张家界市,电业局,,41,41,36,13,17,102,55,57,44,22,19,9,8,0.8,0.8
2023-10-26T11:00:00,1860A,110.5594,29.3547,张家界市,未央路,,24,21,21,14,19,96,76,49,46,8,10,3,3,0.4,0.7
2023-10-26T11:00:00,1861A,110.4417,29.315,张家界市,袁家界,,23,19,11,16,9,112,70,81,70,8,5,9,9,0.7,0.8
2023-10-26T11:00:00,1862A,110.4144,25.3167,桂林市,电子科大尧山校区,颗粒物(PM10),52,54,33,29,19,97,76,27,27,8,8,4,3,0.5,0.5
2023-10-26T11:00:00,1863A,110.2819,25.2697,桂林市,监测站,颗粒物(PM10),51,52,43,23,25,102,54,27,27,21,19,7,6,0.9,0.8
2023-10-26T11:00:00,1864A,110.3089,25.2708,桂林市,龙隐路小学,,47,47,37,27,29,96,59,22,22,18,22,8,7,0.7,0.7
2023-10-26T11:00:00,1865A,110.2869,25.2178,桂林市,八中,,42,42,39,22,21,100,54,25,25,19,17,7,5,0.7,0.6
2023-10-26T11:00:00,1866A,109.2262,21.588,北海市,牛尾岭水库,,,,,,,,,,,,,,,,
2023-10-26T11:00:00,1867A,109.1436,21.4086,北海市,海滩公园,,50,50,38,20,16,134,106,90,82,10,9,10,7,0.8,0.8
2023-10-26T11:00:00,1868A,109.0981,21.4661,北海市,新市环保局,,43,43,39,29,29,138,112,88,76,14,12,11,10,0.8,0.8
2023-10-26T11:00:00,1869A,109.1778,21.5233,北海市,北海工业园,颗粒物(PM10),60,70,54,37,31,147,88,74,68,20,12,16,12,1.0,0.8
2023-10-26T11:00:00,1870A,109.4856,24.3895,柳州市,柳东小学,,44,44,37,27,28,142,97,32,32,13,19,12,10,0.5,0.5
2023-10-26T11:00:00,1871A,109.4157,24.3277,柳州市,环保监测站,细颗粒物(PM2.5),70,88,55,51,37,130,90,23,23,28,30,12,9,0.9,0.8
2023-10-26T11:00:00,1872A,109.389,24.341,柳州市,河西水厂,颗粒物(PM10),71,92,70,51,36,135,85,22,22,31,30,24,14,1.3,0.8
2023-10-26T11:00:00,1873A,109.4311,24.2921,柳州市,市四中,颗粒物(PM10),60,70,52,37,30,131,96,22,22,28,36,9,6,0.9,0.9
2023-10-26T11:00:00,1874A,109.4006,24.3631,柳州市,市九中,颗粒物(PM10),65,80,60,40,32,138,70,24,24,37,29,26,7,2.0,0.9
2023-10-26T11:00:00,1875A,109.4958,24.3134,柳州市,古亭山,颗粒物(PM10),56,61,39,28,23,141,100,24,24,17,32,13,10,0.5,0.5
2023-10-26T11:00:00,1876A,109.5078,18.2489,三亚市,河东子站,,,15,12,11,7,53,30,37,29,,6,3,3,0.4,0.4
2023-10-26T11:00:00,1877A,109.4964,18.2681,三亚市,河西子站,,17,17,14,6,6,51,24,30,21,9,5,3,3,0.3,0.3
2023-10-26T11:00:00,1878A,104.7778,31.4741,绵阳市,富乐山,细颗粒物(PM2.5),57,53,76,40,55,12,5,2,2,24,26,8,6,1.0,0.9
2023-10-26T11:00:00,1879A,104.7563,31.4535,绵阳市,市人大,细颗粒物(PM2.5),62,67,82,44,57,21,5,4,4,32,37,9,10,1.3,1
2023-10-26T11:00:00,1880A,104.6697,31.4668,绵阳市,高新区自来水公司,颗粒物(PM10),78,105,73,52,42,28,3,3,2,38,36,14,18,1.0,0.7
2023-10-26T11:00:00,1881A,104.7287,31.5075,绵阳市,三水厂,细颗粒物(PM2.5),93,85,95,69,82,8,2,0,0,33,37,10,8,1.2,1.1
2023-10-26T11:00:00,1882A,104.563,28.793,宜宾市,石马中学,,,,,,,,,,,,,,,,
2023-10-26T11:00:00,1883A,104.6201,28.7728,宜宾市,市委,,33,29,83,23,62,55,55,37,37,24,34,6,8,0.5,0.7
2023-10-26T11:00:00,1884A,104.6055,28.793,宜宾市,宜宾四中,,33,30,84,23,64,54,54,34,34,23,36,7,10,0.5,0.7
2023-10-26T11:00:00,1885A,104.639,28.7562,宜宾市,市政府,,33,30,88,23,64,60,60,39,39,19,34,7,8,0.6,0.8
2023-10-26T11:00:00,1886A,104.5742,28.7199,宜宾市,黄金嘴,,25,23,70,17,52,66,66,33,33,11,26,7,8,0.4,0.7
2023-10-26T11:00:00,1888A,101.6891,26.571,攀枝花市,弄弄坪,颗粒物(PM10),53,56,41,31,20,71,31,8,8,29,23,35,16,1.4,0.9
2023-10-26T11:00:00,1889A,101.5769,26.5928,攀枝花市,河门口,,,66,28,41,16,99,22,14,13,41,19,66,17,,1.2
2023-10-26T11:00:00,1890A,101.7169,26.585,攀枝花市,炳草岗,颗粒物(PM10),69,87,58,42,28,75,24,9,9,36,29,60,24,1.7,1.1
2023-10-26T11:00:00,1891A,101.7369,26.5008,攀枝花市,仁和,,28,28,20,16,13,70,37,14,14,19,14,15,6,0.9,0.7
2023-10-26T11:00:00,1893A,105.4324,28.9634,泸州市,九狮山,细颗粒物(PM2.5),59,66,52,42,30,44,20,9,9,16,24,3,5,0.5,0.5
2023-10-26T11:00:00,1894A,105.4427,28.9063,泸州市,小市上码头,细颗粒物(PM2.5),64,62,70,46,48,61,24,14,14,25,28,7,14,0.7,0.7
2023-10-26T11:00:00,1895A,105.4241,28.8573,泸州市,兰田宪桥,细颗粒物(PM2.5),62,58,64,44,45,55,35,16,16,9,18,5,5,0.7,0.8
2023-10-26T11:00:00,1896A,105.4379,28.8833,泸州市,市环监站,颗粒物(PM10),51,52,64,34,39,51,26,14,14,20,28,4,5,0.8,0.8
2023-10-26T11:00:00,1901A,104.4239,31.1208,德阳市,东山公园,颗粒物(PM10),62,73,98,37,47,43,21,18,16,22,34,2,2,0.7,0.7
2023-10-26T11:00:00,1902A,104.3826,31.1317,德阳市,西小区,细颗粒物(PM2.5),84,102,100,62,66,53,7,2,2,42,44,3,2,1.1,1
2023-10-26T11:00:00,1904A,104.3553,31.1091,德阳市,耐火材料厂,颗粒物(PM10),77,103,122,53,64,53,10,4,4,37,43,4,2,0.8,0.8
2023-10-26T11:00:00,1905A,106.056,30.8064,南充市,西山风景区,,,52,66,54,62,36,16,8,8,,,3,6,0.6,0.6
2023-10-26T11:00:00,1906A,106.0789,30.8023,南充市,南充市委,细颗粒物(PM2.5),94,74,86,70,70,43,17,15,13,22,29,3,10,0.6,0.6
2023-10-26T11:00:00,1907A,106.1031,30.8217,南充市,南充炼油厂,,,74,87,48,58,48,12,18,15,,25,3,10,,0.7
2023-10-26T11:00:00,1908A,106.1064,30.7856,南充市,高坪区监测站,细颗粒物(PM2.5),75,75,83,55,60,50,16,18,18,22,24,4,13,0.5,0.4
2023-10-26T11:00:00,1909A,106.0642,30.7636,南充市,嘉陵区环保局,,,74,82,58,64,45,,9,8,22,27,4,12,0.5,0.5
2023-10-26T11:00:00,1910A,106.1087,30.8388,南充市,市环境监测站,细颗粒物(PM2.5),89,57,79,66,67,44,22,16,15,16,27,4,9,0.6,0.6
2023-10-26T11:00:00,1911A,106.9222,27.6869,遵义市,丁字口,,40,39,28,28,20,67,41,55,47,27,18,5,5,0.7,0.7
2023-10-26T11:00:00,1912A,106.9242,27.7019,遵义市,凤凰山,,48,35,30,33,24,81,61,68,67,12,9,7,7,0.5,0.5
2023-10-26T11:00:00,1913A,106.8906,27.6486,遵义市,忠庄,,45,45,29,26,20,69,47,58,47,14,11,2,2,0.6,0.6
2023-10-26T11:00:00,1914A,106.9231,27.6506,遵义市,舟水桥,,45,45,29,30,22,63,23,45,34,43,21,5,3,0.8,0.7
2023-10-26T11:00:00,1915A,106.9178,27.72,遵义市,干田坝,,40,40,31,18,21,60,29,50,40,26,14,6,5,0.6,0.5
2023-10-26T11:00:00,1916A,103.7897,25.5035,曲靖市,环境监测站,,33,33,28,13,17,76,24,17,14,14,17,3,3,0.7,0.7
2023-10-26T11:00:00,1917A,103.8,25.5364,曲靖市,烟厂办公区,,33,33,29,14,17,76,30,18,17,14,19,4,5,0.6,0.6
2023-10-26T11:00:00,1918A,108.7197,34.3956,咸阳市,气象站,,,,,,,,,,,,,,,,
2023-10-26T11:00:00,1919A,108.673,34.3155,咸阳市,实验中学,颗粒物(PM10),103,155,111,70,44,80,11,3,3,58,51,4,3,0.8,0.8
2023-10-26T11:00:00,1920A,108.7233,34.3617,咸阳市,师范学院,,,,107,58,50,64,,6,5,68,52,5,5,1.0,0.8
2023-10-26T11:00:00,1922A,109.0656,35.0994,铜川市,党校,,,,80,,28,33,,42,,,57,,9,,0.8
2023-10-26T11:00:00,1923A,109.0697,35.0697,铜川市,王益区政府,,,52,59,11,27,103,,13,13,50,50,,5,,0.8
2023-10-26T11:00:00,1924A,108.9344,34.9058,铜川市,新区管委会,颗粒物(PM10),55,60,68,23,28,96,48,46,46,41,36,7,6,0.4,0.5
2023-10-26T11:00:00,1926A,109.4131,36.6275,延安市,枣园,,,41,44,15,15,120,30,10,10,,34,8,7,0.4,0.3
2023-10-26T11:00:00,1927A,109.4761,36.6028,延安市,延大医附院,颗粒物(PM10),59,68,60,11,17,92,24,8,8,30,43,3,3,0.6,0.6
2023-10-26T11:00:00,1929A,109.5056,36.6106,延安市,百米大道,颗粒物(PM10),82,114,74,18,23,100,25,8,8,43,56,4,4,0.6,0.6
2023-10-26T11:00:00,1930A,107.185,34.3063,宝鸡市,庙沟村,,24,24,28,10,15,55,53,47,45,10,15,9,8,0.3,0.3
2023-10-26T11:00:00,1931A,107.0708,34.3017,宝鸡市,竹园沟,,,45,27,15,15,51,,33,33,24,20,,3,0.5,0.4
2023-10-26T11:00:00,1932A,107.1906,34.3672,宝鸡市,三陆医院,颗粒物(PM10),57,63,68,14,34,40,40,13,13,38,47,15,15,0.6,0.8
2023-10-26T11:00:00,1933A,107.1431,34.3547,宝鸡市,监测站,,39,39,42,20,25,46,36,21,21,20,32,6,6,0.4,0.6
2023-10-26T11:00:00,1934A,107.1186,34.3739,宝鸡市,技工学校,,46,46,52,23,29,65,42,26,26,20,32,9,7,0.4,0.5
2023-10-26T11:00:00,1935A,107.3906,34.3528,宝鸡市,陈仓区环保局家属楼,颗粒物(PM10),58,66,67,25,38,67,39,17,17,35,44,14,12,0.6,0.8
2023-10-26T11:00:00,1936A,107.2058,34.3497,宝鸡市,文理学院,,41,41,56,20,27,46,38,20,20,26,39,6,6,0.6,0.7
2023-10-26T11:00:00,1937A,107.2386,34.3622,宝鸡市,三迪小学,颗粒物(PM10),54,57,69,21,44,40,36,12,12,31,46,11,10,0.5,0.7
2023-10-26T11:00:00,1938A,109.5293,34.5101,渭南市,农科所,细颗粒物(PM2.5),100,112,80,75,47,93,14,18,13,59,45,6,8,1.0,0.9
2023-10-26T11:00:00,1939A,109.4974,34.4877,渭南市,日报社,颗粒物(PM10),74,97,75,48,45,89,17,7,7,58,58,8,11,0.8,0.7
2023-10-26T11:00:00,1940A,109.4636,34.493,渭南市,体育馆,颗粒物(PM10),78,105,77,56,42,91,13,9,9,64,63,6,7,0.8,0.7
2023-10-26T11:00:00,1941A,109.4259,34.5023,渭南市,高新一小,细颗粒物(PM2.5),98,130,88,73,49,94,17,5,5,54,57,6,5,0.8,0.7
2023-10-26T11:00:00,1944A,102.1692,38.5167,金昌市,天庆家园,颗粒物(PM10),80,109,69,39,26,118,62,49,43,38,30,28,19,0.7,0.8
2023-10-26T11:00:00,1945A,98.2908,39.7711,嘉峪关市,气象局,,36,36,54,7,18,113,60,57,51,24,31,3,6,0.0,0.1
2023-10-26T11:00:00,1947A,106.3394,38.817,石嘴山市,沙湖旅游区,颗粒物(PM10),66,82,83,27,33,119,72,32,32,27,31,31,15,0.9,0.6
2023-10-26T11:00:00,1948A,106.3668,39.0145,石嘴山市,大武口朝阳西街,颗粒物(PM10),80,110,69,44,25,105,56,39,29,39,31,24,16,0.9,0.5
2023-10-26T11:00:00,1949A,106.7704,39.2282,石嘴山市,惠农南大街,颗粒物(PM10),70,89,83,32,23,99,45,26,26,39,45,39,37,1.6,1.5
2023-10-26T11:00:00,1950A,106.7099,39.1325,石嘴山市,红果子镇惠新街,,,,75,,26,105,,42,23,32,31,42,45,1.4,1
2023-10-26T11:00:00,1951A,84.895,45.6094,克拉玛依市,长征新村,颗粒物(PM10),53,56,40,3,7,63,27,41,30,29,21,12,10,0.6,0.4
2023-10-26T11:00:00,1952A,84.8988,45.5893,克拉玛依市,南林小区,颗粒物(PM10),56,62,38,5,13,67,20,33,27,33,23,5,5,0.7,0.5
2023-10-26T11:00:00,1954A,84.905,44.3396,克拉玛依市,独山子区,颗粒物(PM10),57,64,67,15,22,61,21,27,26,45,30,10,7,0.9,0.6
2023-10-26T11:00:00,1955A,85.6979,46.098,克拉玛依市,乌尔禾区商贸楼,,31,31,28,0,5,68,14,29,23,29,15,9,7,0.6,0.4
2023-10-26T11:00:00,1956A,86.1472,41.7538,巴音郭楞州,孔雀公园,颗粒物(PM10),109,167,122,41,31,93,2,1,1,74,45,4,3,1.6,0.6
2023-10-26T11:00:00,1957A,86.1972,41.7166,巴音郭楞州,棉纺厂,颗粒物(PM10),144,237,148,35,35,92,14,20,12,68,38,2,1,0.9,0.4
2023-10-26T11:00:00,1958A,86.2357,41.7173,巴音郭楞州,经济开发区,颗粒物(PM10),147,243,142,37,31,99,13,53,27,73,28,3,2,0.5,0.3
2023-10-26T11:00:00,1961A,117.532,36.6868,济南市,东山小学,颗粒物(PM10),84,117,117,15,51,183,79,65,58,22,50,8,9,0.2,0.5
2023-10-26T11:00:00,1966A,120.0405,35.8735,青岛市,黄岛区4号,细颗粒物(PM2.5),107,151,137,80,86,208,122,92,90,36,40,9,14,1.1,1.2
2023-10-26T11:00:00,1982A,122.0693,37.2174,威海市,文登开发区,颗粒物(PM10),70,90,100,31,50,182,83,114,104,14,16,9,10,0.7,1.1
2023-10-26T11:00:00,2031A,113.1817,27.9958,株洲市,云田中学,,25,24,41,17,29,127,56,65,60,12,13,6,6,0.8,0.7
2023-10-26T11:00:00,2054A,114.1099,32.1059,信阳市,平桥分局,细颗粒物(PM2.5),54,40,74,38,56,163,78,43,42,17,20,4,5,0.7,0.8
2023-10-26T11:00:00,2064A,113.9956,32.1271,信阳市,南湾水厂,细颗粒物(PM2.5),62,54,60,44,49,169,81,64,60,8,9,4,4,0.8,0.8
2023-10-26T11:00:00,2065A,114.0775,32.1195,信阳市,市酿酒公司,,,,73,,54,166,,34,28,14,26,4,4,,1
2023-10-26T11:00:00,2066A,114.0609,32.1399,信阳市,审计局,,37,37,77,8,51,171,84,41,41,9,21,6,6,0.6,0.9
2023-10-26T11:00:00,2067A,114.6613,33.6128,周口市,市环境监测站,颗粒物(PM10),95,140,109,52,75,117,79,34,34,39,43,15,10,0.7,0.6
2023-10-26T11:00:00,2068A,114.6758,33.6347,周口市,周口师范,细颗粒物(PM2.5),89,112,106,66,64,129,78,33,33,41,40,13,8,0.7,0.6
2023-10-26T11:00:00,2069A,114.6546,33.5979,周口市,市运管处,,,146,120,,73,131,,27,27,,38,12,7,0.9,0.8
2023-10-26T11:00:00,2070A,114.6369,33.6406,周口市,川汇区环保局,"颗粒物(PM10),细颗粒物(PM2.5)",77,104,105,56,81,122,78,27,27,43,43,15,9,0.8,0.7
2023-10-26T11:00:00,2075A,117.6336,24.4674,漳州市,九湖,,,,,,,,,,,,,,,,
2023-10-26T11:00:00,2160A,112.85,35.5051,晋城市,自来水公司,颗粒物(PM10),52,54,95,22,51,136,84,42,42,24,40,18,12,1.4,1.2
2023-10-26T11:00:00,2161A,112.8318,35.4936,晋城市,白云商贸,颗粒物(PM10),61,71,98,27,54,137,82,39,39,23,32,20,9,1.8,1.4
2023-10-26T11:00:00,2162A,112.8508,35.4887,晋城市,市环保局,颗粒物(PM10),57,64,105,24,57,140,84,33,33,24,44,17,9,1.6,1.4
2023-10-26T11:00:00,2163A,112.8676,35.4897,晋城市,技术学院,颗粒物(PM10),59,67,96,19,55,130,85,34,34,17,37,15,10,1.1,1.2
2023-10-26T11:00:00,2165A,112.8453,35.546,晋城市,白马寺,,,,,,,,,,,,,,,,
2023-10-26T11:00:00,2166A,112.4397,39.3522,朔州市,平朔,颗粒物(PM10),92,134,92,36,28,110,49,18,18,42,40,30,14,0.7,0.7
2023-10-26T11:00:00,2167A,112.4575,39.3617,朔州市,朔唯,颗粒物(PM10),93,136,123,25,35,103,61,12,12,35,52,19,20,0.7,0.8
2023-10-26T11:00:00,2168A,112.4258,39.3197,朔州市,区政府,颗粒物(PM10),78,105,80,36,29,106,54,27,27,37,36,23,10,0.6,0.6
2023-10-26T11:00:00,2169A,112.4072,39.3278,朔州市,市环保局,,,98,78,29,24,106,61,22,22,,32,,10,0.6,0.6
2023-10-26T11:00:00,2170A,112.4272,39.3681,朔州市,市二中,颗粒物(PM10),94,138,116,28,32,108,61,19,19,33,47,20,18,0.6,0.6
2023-10-26T11:00:00,2171A,112.7532,37.6945,晋中市,锦纶小区,,,,116,,48,154,51,23,23,40,56,18,17,,0.8
2023-10-26T11:00:00,2173A,112.7249,37.7067,晋中市,南都小区,颗粒物(PM10),68,86,122,33,59,147,40,20,20,42,62,18,16,0.9,0.9
2023-10-26T11:00:00,2174A,112.6991,37.6982,晋中市,榆次区政府,颗粒物(PM10),66,81,114,30,52,148,41,22,22,52,62,18,16,1.2,1
2023-10-26T11:00:00,2175A,110.9956,35.0147,运城市,运城中学,,,,272,,158,167,48,18,18,33,43,14,11,1.6,1.2
2023-10-26T11:00:00,2178A,110.9686,35.0303,运城市,地区技校,细颗粒物(PM2.5),129,195,236,98,137,156,51,14,14,30,61,16,9,1.3,1.4
2023-10-26T11:00:00,2179A,111.0414,35.1147,运城市,空港新区,细颗粒物(PM2.5),218,,215,168,170,162,48,14,12,62,58,12,10,1.7,1.2
2023-10-26T11:00:00,2181A,112.7383,38.4519,忻州市,开发区,颗粒物(PM10),78,105,77,43,29,109,46,19,19,51,55,36,20,0.7,0.6
2023-10-26T11:00:00,2182A,112.7003,38.4928,忻州市,会展中心,,,99,86,37,28,100,,,,48,54,32,17,0.6,0.6
2023-10-26T11:00:00,2183A,111.1406,37.5211,吕梁市,环保局,颗粒物(PM10),67,84,105,23,32,109,37,8,8,29,50,19,6,0.7,0.6
2023-10-26T11:00:00,2185A,111.1297,37.5136,吕梁市,自来水公司,颗粒物(PM10),73,95,120,36,34,108,36,11,11,30,43,22,12,0.8,0.7
2023-10-26T11:00:00,2187A,106.8174,39.6973,乌海市,市林业局,颗粒物(PM10),60,70,56,20,19,100,60,38,38,35,28,15,11,0.5,0.5
2023-10-26T11:00:00,2188A,106.7907,39.6667,乌海市,中海勃湾学校,颗粒物(PM10),53,56,56,16,22,105,65,23,23,33,33,26,10,1.0,0.4
2023-10-26T11:00:00,2191A,122.2532,43.6801,通辽市,艺术职业学校,,22,17,61,6,15,118,68,57,55,11,18,5,7,0,0.1
2023-10-26T11:00:00,2192A,119.7594,49.2261,呼伦贝尔市,区环保局,,18,8,37,8,20,64,55,44,44,7,7,4,4,0.3,0.3
2023-10-26T11:00:00,2195A,107.4212,40.761,巴彦淖尔市,附二中,颗粒物(PM10),60,70,84,19,25,96,70,58,56,19,22,4,5,0.5,0.5
2023-10-26T11:00:00,2196A,107.37,40.7372,巴彦淖尔市,市环保大楼,颗粒物(PM10),66,81,89,22,29,104,75,50,50,17,22,3,4,0.3,0.3
2023-10-26T11:00:00,2197A,113.1306,40.9923,乌兰察布市,集宁新区,,,,37,,13,104,31,47,37,44,19,12,8,0.3,0.5
2023-10-26T11:00:00,2200A,122.0392,46.0656,兴安盟,胜华新制药厂,,19,17,33,11,15,92,58,57,53,6,7,3,3,0.3,0.3
2023-10-26T11:00:00,2201A,121.9504,46.0741,兴安盟,科右前旗环保局,,20,15,31,11,16,93,61,60,57,4,5,3,3,0.5,0.5
2023-10-26T11:00:00,2202A,116.1042,43.9317,锡林郭勒盟,市环保监测站,,21,18,26,11,6,73,65,42,42,5,13,7,9,0.3,0.3
2023-10-26T11:00:00,2203A,116.0781,43.9311,锡林郭勒盟,市政府,,21,20,27,2,6,75,67,37,37,8,21,10,10,0.2,0.2
2023-10-26T11:00:00,2204A,105.6467,38.8363,阿拉善盟,西城区西花园,,,48,33,17,14,99,,80,77,11,11,,7,0.8,1
2023-10-26T11:00:00,2205A,105.6985,38.8411,阿拉善盟,蒙二幼,,,40,30,13,9,100,100,90,90,8,13,7,7,,0.4
2023-10-26T11:00:00,2206A,105.724,38.8516,阿拉善盟,环保局新楼,,32,28,26,17,11,100,100,97,97,7,7,8,7,0.5,0.5
2023-10-26T11:00:00,2207A,121.6094,41.998,阜新市,工业园区,,23,23,97,4,24,166,65,47,41,17,33,7,11,0.2,0.6
2023-10-26T11:00:00,2208A,121.6697,42.0279,阜新市,长青街,,19,17,82,0,25,151,60,46,42,11,20,6,9,0.5,0.8
2023-10-26T11:00:00,2209A,121.6673,42.0705,阜新市,农业园区,,,17,69,,38,149,60,54,54,9,14,7,11,0.4,0.8
2023-10-26T11:00:00,2210A,121.6717,42.0224,阜新市,东苑,,20,18,80,0,23,141,61,41,38,14,32,7,11,0.6,1
2023-10-26T11:00:00,2211A,121.6506,42.0498,阜新市,玉龙新城,,26,26,88,0,20,164,68,41,41,10,28,6,11,0.5,0.9
2023-10-26T11:00:00,2212A,123.2,41.1953,辽阳市,宏伟区,,47,47,46,6,23,151,55,45,41,13,17,15,11,0.3,0.5
2023-10-26T11:00:00,2213A,123.1683,41.2495,辽阳市,新华园,,38,38,51,3,23,150,54,45,41,14,20,8,11,0.6,0.8
2023-10-26T11:00:00,2214A,123.2354,41.2639,辽阳市,滨河路,,38,38,52,11,28,126,53,41,38,11,17,13,10,0.6,0.8
2023-10-26T11:00:00,2215A,123.149,41.2991,辽阳市,铁西工业园,,38,38,72,12,32,179,59,40,40,15,24,9,11,0.3,0.6
2023-10-26T11:00:00,2216A,123.8139,42.3022,铁岭市,汇工街西,,,32,66,2,30,174,61,47,46,,17,5,12,,0.8
2023-10-26T11:00:00,2217A,123.8649,42.2923,铁岭市,水上乐园,,26,26,74,7,39,170,59,41,36,10,24,1,6,0.6,0.9
2023-10-26T11:00:00,2218A,123.8486,42.2867,铁岭市,银州路东段,,47,47,74,9,34,158,55,45,41,16,27,4,5,0.4,0.6
2023-10-26T11:00:00,2219A,123.7153,42.2217,铁岭市,金沙江路北,,19,12,66,6,37,171,59,51,50,8,17,6,10,0.3,0.6
2023-10-26T11:00:00,2220A,120.4318,41.5881,朝阳市,西梁,,,,60,,17,120,55,31,26,19,23,,13,,0.7
2023-10-26T11:00:00,2221A,120.4521,41.5646,朝阳市,河畔小区,,35,35,75,6,15,130,64,36,32,14,21,26,15,0.6,0.8
2023-10-26T11:00:00,2222A,120.4176,41.5648,朝阳市,八里堡,,,54,77,10,16,115,,34,24,20,25,23,13,0.6,0.7
2023-10-26T11:00:00,2223A,120.3806,41.5969,朝阳市,农业园区,颗粒物(PM10),51,52,58,12,12,131,50,38,31,27,22,14,9,0.6,0.6
2023-10-26T11:00:00,2225A,124.4002,43.1713,四平市,一商场,,25,25,91,17,33,158,58,37,37,8,22,3,6,0.0,0.6
2023-10-26T11:00:00,2226A,124.388,43.193,四平市,境园,,42,42,76,10,43,173,63,36,35,3,15,5,8,0.1,0.8
2023-10-26T11:00:00,2227A,125.1358,42.8845,辽源市,环保局,,28,28,47,13,29,184,65,52,51,10,14,14,10,0.5,0.7
2023-10-26T11:00:00,2229A,125.9358,41.7173,通化市,光明,,25,25,43,4,24,153,63,88,59,12,13,6,7,0.1,0.3
2023-10-26T11:00:00,2230A,125.9446,41.7325,通化市,铁路,,22,22,44,4,24,156,68,92,65,14,11,5,6,0.2,0.4
2023-10-26T11:00:00,2231A,126.4219,41.9171,白山市,喜丰,,44,44,65,9,26,144,64,75,59,10,13,8,9,0.5,0.7
2023-10-26T11:00:00,2232A,126.4077,41.9419,白山市,环保局,,24,24,63,5,32,144,63,60,59,6,19,7,10,0.7,0.9
2023-10-26T11:00:00,2233A,124.8006,45.1214,松原市,江南,,,18,70,6,46,153,52,48,45,3,14,6,7,,0.5
2023-10-26T11:00:00,2234A,124.7965,45.1722,松原市,江北,,19,19,65,5,47,142,55,49,49,5,11,1,4,0.3,0.5
2023-10-26T11:00:00,2235A,122.7911,45.6077,白城市,洮北区环保局,,24,24,63,7,36,114,73,63,63,9,14,8,6,0.5,0.6
2023-10-26T11:00:00,2236A,122.8738,45.5725,白城市,市环保局,,25,25,59,7,26,101,63,53,52,6,13,3,6,0.3,0.4
2023-10-26T11:00:00,2237A,129.47,42.8883,延边朝鲜族自治州,妇幼医院,,43,43,67,3,44,141,67,32,32,10,32,7,9,0.4,0.7
2023-10-26T11:00:00,2238A,129.5055,42.9108,延边朝鲜族自治州,延边医院,,,78,80,3,50,134,68,36,36,,47,6,9,0.4,1
2023-10-26T11:00:00,2239A,129.3964,42.8881,延边朝鲜族自治州,朝阳川镇医院,,40,40,60,1,35,151,73,41,41,6,20,7,8,0.3,0.7
2023-10-26T11:00:00,2240A,130.9762,45.3001,鸡西市,环保局,,,,90,,40,74,,31,31,,36,,7,,0.7
2023-10-26T11:00:00,2243A,130.9429,45.3039,鸡西市,第一中学,,32,32,72,4,30,87,60,46,46,5,32,5,10,0.1,0.4
2023-10-26T11:00:00,2244A,130.2537,47.3416,鹤岗市,哈啤分公司,,16,13,53,11,31,81,48,52,52,4,25,11,14,0.1,0.3
2023-10-26T11:00:00,2245A,130.2684,47.3086,鹤岗市,斯达机电,,26,26,63,8,36,90,46,49,49,6,26,10,12,0.3,0.5
2023-10-26T11:00:00,2246A,130.3114,47.3388,鹤岗市,东山纸板厂,,36,36,96,8,41,85,50,55,55,6,38,10,15,0.3,0.7
2023-10-26T11:00:00,2247A,130.1097,47.3382,鹤岗市,五号水库,,16,14,49,5,24,94,49,53,53,5,20,13,11,0.5,0.6
2023-10-26T11:00:00,2248A,131.1511,46.6937,双鸭山市,双合村,,27,27,88,12,39,92,60,56,54,4,19,8,15,0.4,0.9
2023-10-26T11:00:00,2249A,131.1652,46.6191,双鸭山市,南小市,,36,36,62,5,42,83,65,60,60,3,16,5,8,0.4,0.5
2023-10-26T11:00:00,2250A,131.1524,46.6554,双鸭山市,环保局,,19,19,58,9,34,83,57,53,53,10,20,6,8,0.1,0.4
2023-10-26T11:00:00,2251A,131.12,46.5656,双鸭山市,苗圃,,,,51,,38,82,,85,,,10,,3,,0.4
2023-10-26T11:00:00,2252A,128.5159,47.4311,伊春市,环保局,,15,8,28,5,20,79,46,51,45,4,17,4,7,0.4,0.5
2023-10-26T11:00:00,2253A,128.9102,47.7412,伊春市,电力嘉园,,15,15,32,9,18,80,45,52,46,4,16,3,8,0.5,0.4
2023-10-26T11:00:00,2254A,129.5029,48.471,伊春市,汤旺河国家公园,,15,14,26,8,14,74,45,45,44,3,5,5,5,0.2,0.2
2023-10-26T11:00:00,2255A,130.2751,46.8028,佳木斯市,佳纺,,24,24,61,8,37,99,49,42,42,12,33,2,3,0.3,0.5
2023-10-26T11:00:00,2256A,130.3995,46.8307,佳木斯市,发电厂,,17,15,68,10,36,89,54,48,48,3,29,6,7,0.4,0.6
2023-10-26T11:00:00,2257A,130.3258,46.7975,佳木斯市,环保局,,17,17,55,10,39,94,42,40,40,7,40,5,5,0.3,0.9
2023-10-26T11:00:00,2258A,130.3648,46.8032,佳木斯市,十一中,,24,24,60,1,35,84,52,44,44,7,38,3,3,0.3,0.6
2023-10-26T11:00:00,2259A,130.3794,46.7588,佳木斯市,四丰,,20,10,40,9,27,115,61,56,56,6,21,1,1,0.1,0.3
2023-10-26T11:00:00,2262A,131.0518,45.8751,七台河市,新一中,,21,19,51,3,35,108,67,54,54,6,23,7,8,0.4,0.6
2023-10-26T11:00:00,2263A,127.4833,50.2524,黑河市,交通局,,27,27,29,12,20,62,39,42,39,9,13,3,6,0.3,0.3
2023-10-26T11:00:00,2264A,127.5144,50.2341,黑河市,环保局,,22,22,30,10,20,66,45,44,42,3,9,3,5,0.3,0.4
2023-10-26T11:00:00,2265A,127.5291,50.2472,黑河市,大黑河岛,,,17,32,8,25,,,,,2,2,1,2,,
2023-10-26T11:00:00,2266A,126.9785,46.6365,绥化市,人和东街,,15,8,37,2,15,82,48,44,41,8,20,2,6,0.3,0.4
2023-10-26T11:00:00,2267A,126.964,46.6528,绥化市,党政办公中心,,16,8,35,3,17,85,50,47,44,5,16,2,6,0.2,0.3
2023-10-26T11:00:00,2269A,124.1069,50.4097,大兴安岭地区,科技局,,,,19,,15,67,46,44,44,,6,,6,0.2,0.2
2023-10-26T11:00:00,2270A,117.396,32.939,蚌埠市,工人疗养院,细颗粒物(PM2.5),108,135,132,81,80,168,129,59,59,32,37,8,12,0.9,0.9
2023-10-26T11:00:00,2271A,117.3605,32.9427,蚌埠市,百货大楼,细颗粒物(PM2.5),94,126,124,70,73,165,139,57,57,29,38,9,9,0.8,0.8
2023-10-26T11:00:00,2273A,117.4185,32.8911,蚌埠市,蚌埠学院,细颗粒物(PM2.5),77,83,125,56,84,172,135,60,60,16,36,12,15,0.7,0.9
2023-10-26T11:00:00,2274A,117.3533,32.9673,蚌埠市,淮上区政府,细颗粒物(PM2.5),110,110,117,83,81,163,124,64,64,32,33,12,12,0.8,0.7
2023-10-26T11:00:00,2275A,117.3145,32.8977,蚌埠市,高新区,细颗粒物(PM2.5),83,83,133,61,88,168,142,41,41,19,58,12,10,0.8,0.9
2023-10-26T11:00:00,2277A,116.8305,32.7727,淮南市,潘集区政府,颗粒物(PM10),75,99,110,51,66,158,107,34,33,25,45,10,11,0.6,0.8
2023-10-26T11:00:00,2278A,117.0067,32.6524,淮南市,师范学院,颗粒物(PM10),68,86,93,45,59,156,135,37,37,17,44,11,11,0.7,0.9
2023-10-26T11:00:00,2279A,116.8569,32.5951,淮南市,谢家集区政府,,,73,71,46,43,151,,62,49,45,43,8,9,0.6,0.5
2023-10-26T11:00:00,2280A,116.8281,32.633,淮南市,八公山区政府,细颗粒物(PM2.5),72,85,80,52,47,145,115,72,65,25,28,10,10,0.6,0.6
2023-10-26T11:00:00,2281A,116.6325,32.6201,淮南市,焦岗湖风景区管理处,颗粒物(PM10),69,87,67,46,39,139,81,22,22,24,30,3,2,0.8,0.5
2023-10-26T11:00:00,2282A,116.8004,33.975,淮北市,监测站,细颗粒物(PM2.5),119,147,118,90,68,178,98,37,37,51,49,17,14,1.0,1
2023-10-26T11:00:00,2283A,116.8091,33.9007,淮北市,烈山区政府,细颗粒物(PM2.5),156,143,143,119,93,179,73,27,27,50,55,15,13,0.8,0.7
2023-10-26T11:00:00,2285A,117.8177,30.9412,铜陵市,市第四中学,细颗粒物(PM2.5),112,138,92,84,57,136,63,16,16,70,53,32,11,1.4,1.1
2023-10-26T11:00:00,2286A,117.8059,30.9273,铜陵市,市公路局,颗粒物(PM10),90,130,96,62,39,131,57,12,12,65,49,34,13,1.7,1.2
2023-10-26T11:00:00,2287A,117.7807,30.9413,铜陵市,市新民污水厂,颗粒物(PM10),92,134,109,57,48,119,81,17,17,47,60,24,10,1.0,0.8
2023-10-26T11:00:00,2288A,117.7439,30.8792,铜陵市,市第九中学,细颗粒物(PM2.5),158,232,134,120,59,52,27,9,9,,75,15,8,,1.3
2023-10-26T11:00:00,2289A,117.846,30.9413,铜陵市,车站新区,细颗粒物(PM2.5),108,128,87,81,57,131,40,6,6,89,54,15,6,1.1,0.8
2023-10-26T11:00:00,2290A,117.8483,30.97,铜陵市,市职教基地,细颗粒物(PM2.5),92,114,97,68,58,106,55,11,11,48,39,16,10,1.3,1.1
2023-10-26T11:00:00,2291A,117.0809,30.5177,安庆市,环科院,,,,96,,62,126,61,16,16,58,77,13,10,1.2,1.1
2023-10-26T11:00:00,2292A,117.0331,30.5119,安庆市,马山宾馆,细颗粒物(PM2.5),162,128,96,123,79,123,80,18,18,52,75,15,10,1.1,1
2023-10-26T11:00:00,2294A,116.9896,30.6145,安庆市,安庆大学,细颗粒物(PM2.5),104,116,80,78,58,126,66,32,28,,98,8,7,1.2,1
2023-10-26T11:00:00,2295A,118.2903,29.6963,黄山市,延安路89号,颗粒物(PM10),59,67,68,23,36,88,20,6,6,15,14,5,5,0.5,0.5
2023-10-26T11:00:00,2296A,118.327,29.7178,黄山市,黄山东路89号,细颗粒物(PM2.5),72,82,66,52,40,84,18,6,6,22,19,5,5,0.8,0.8
2023-10-26T11:00:00,2297A,118.1371,30.2756,黄山市,黄山区政府5号楼,细颗粒物(PM2.5),65,52,52,47,34,110,65,19,19,14,12,7,6,0.8,0.7
2023-10-26T11:00:00,2298A,118.3093,32.3153,滁州市,老年大学,细颗粒物(PM2.5),79,91,79,58,63,198,109,26,26,55,39,13,10,1.1,1.1
2023-10-26T11:00:00,2299A,118.3244,32.2786,滁州市,人大宾馆,细颗粒物(PM2.5),82,99,93,60,71,186,137,47,47,45,49,15,11,1.0,1.1
2023-10-26T11:00:00,2301A,115.8277,32.8929,阜阳市,市监测站,细颗粒物(PM2.5),93,105,82,69,55,160,86,56,56,24,29,11,9,0.7,0.8
2023-10-26T11:00:00,2303A,115.8554,32.8605,阜阳市,开发区,细颗粒物(PM2.5),102,101,96,76,62,159,78,47,47,,37,12,9,,0.7
2023-10-26T11:00:00,2307A,116.5079,31.737,六安市,监测大楼,颗粒物(PM10),56,62,63,32,30,117,117,29,29,16,44,6,5,0.5,0.5
2023-10-26T11:00:00,2308A,116.4738,31.7643,六安市,皖西学院,颗粒物(PM10),61,71,77,32,38,128,128,33,33,15,45,10,8,0.6,0.6
2023-10-26T11:00:00,2309A,116.4996,31.7905,六安市,朝阳厂,细颗粒物(PM2.5),64,51,68,46,47,116,116,37,37,17,50,10,8,0.8,0.7
2023-10-26T11:00:00,2310A,116.5567,31.7886,六安市,开发区,颗粒物(PM10),60,69,83,39,41,118,118,30,30,10,40,7,8,0.7,0.7
2023-10-26T11:00:00,2311A,115.8072,33.8399,亳州市,污水处理厂,细颗粒物(PM2.5),118,144,116,89,74,163,65,45,35,49,40,16,14,1.0,0.9
2023-10-26T11:00:00,2312A,115.7789,33.8518,亳州市,三国揽胜宫,细颗粒物(PM2.5),143,131,104,109,85,174,63,43,36,49,36,16,15,0.7,0.6
2023-10-26T11:00:00,2314A,117.47,30.6618,池州市,池州学院,细颗粒物(PM2.5),105,124,81,79,51,121,56,22,22,,28,,10,,1
2023-10-26T11:00:00,2316A,118.7581,30.9454,宣城市,鳌峰子站,细颗粒物(PM2.5),99,114,82,74,55,110,96,35,35,31,33,9,6,1.0,0.8
2023-10-26T11:00:00,2317A,118.7385,30.9743,宣城市,敬亭山子站,细颗粒物(PM2.5),97,107,70,72,50,114,114,48,46,21,25,17,9,0.9,0.7
2023-10-26T11:00:00,2318A,118.7173,30.9427,宣城市,开发区子站,细颗粒物(PM2.5),90,106,91,67,62,117,97,26,26,34,47,9,6,0.9,0.8
2023-10-26T11:00:00,2319A,119.0141,25.4325,莆田市,荔城区仓后路,,35,35,26,10,13,115,86,57,57,7,11,6,6,0.6,0.7
2023-10-26T11:00:00,2320A,119.0015,25.4553,莆田市,莆田市监测站,,33,33,23,9,11,123,90,50,50,6,8,7,8,0.5,0.6
2023-10-26T11:00:00,2321A,119.1119,25.4561,莆田市,涵江区六中,,27,23,27,6,12,111,85,51,51,3,9,7,7,0.6,0.6
2023-10-26T11:00:00,2322A,119.1013,25.3215,莆田市,秀屿区政府,,38,38,26,12,14,107,82,46,46,8,14,8,8,0.6,0.6
2023-10-26T11:00:00,2323A,118.981,25.4792,莆田市,东圳水库,,,,,,,,,,,,,,,,
2023-10-26T11:00:00,2324A,117.6211,26.2625,三明市,三钢,,,,44,,36,133,,10,10,,30,,10,,0.6
2023-10-26T11:00:00,2325A,117.635,26.2714,三明市,三明二中,,46,43,39,32,32,128,66,24,24,14,22,8,7,0.5,0.7
2023-10-26T11:00:00,2326A,117.6028,26.2378,三明市,三元区政府,,49,42,45,34,28,131,71,22,22,14,28,7,11,0.6,1
2023-10-26T11:00:00,2327A,117.7275,26.3108,三明市,洋溪,,,,,,,,,,,,,,,,
2023-10-26T11:00:00,2331A,118.0966,26.6761,南平市,茫荡山,,,,,,,,,,,,,,,,
2023-10-26T11:00:00,2332A,118.1681,26.6369,南平市,南平市监测站,细颗粒物(PM2.5),54,48,42,38,30,113,17,12,11,20,21,4,4,0.6,0.6
2023-10-26T11:00:00,2333A,118.1825,26.6489,南平市,南平铝业有限公司,细颗粒物(PM2.5),54,45,37,38,32,109,20,8,8,20,23,5,6,0.8,0.7
2023-10-26T11:00:00,2334A,118.1756,26.6272,南平市,南平七中,细颗粒物(PM2.5),55,38,39,39,31,115,15,10,10,21,19,6,5,0.7,0.6
2023-10-26T11:00:00,2335A,117.0189,25.1181,龙岩市,龙岩师专,,,,,,,,,,,,,,,,
2023-10-26T11:00:00,2336A,117.0217,25.1033,龙岩市,龙岩市监测站,颗粒物(PM10),56,61,40,34,25,126,82,24,24,31,28,7,5,0.9,0.7
2023-10-26T11:00:00,2337A,117.0258,25.0661,龙岩市,闽西职业技术学院,,,69,47,37,28,124,66,25,25,32,29,,9,0.8,0.7
2023-10-26T11:00:00,2338A,117.0196,25.0306,龙岩市,龙岩学院,细颗粒物(PM2.5),60,57,35,43,22,120,65,28,28,23,13,9,4,0.7,0.5
2023-10-26T11:00:00,2339A,119.5001,26.6946,宁德市,金涵水库,,,,,,,,,,,,,,,,
2023-10-26T11:00:00,2341A,119.5388,26.6612,宁德市,宁德市监测站,,35,34,26,24,20,128,27,29,22,18,16,6,6,0.7,0.6
2023-10-26T11:00:00,2342A,117.3102,29.3867,景德镇市,王港中学,,38,33,38,26,30,72,29,10,10,4,4,2,2,0.5,0.4
2023-10-26T11:00:00,2343A,117.2117,29.2933,景德镇市,老干部活动中心,细颗粒物(PM2.5),62,44,58,44,42,77,39,13,13,11,25,16,16,0.5,0.6
2023-10-26T11:00:00,2344A,117.1894,29.2789,景德镇市,兽医站,,,40,67,57,51,84,16,9,9,,28,,15,,1.1
2023-10-26T11:00:00,2345A,117.1547,29.2617,景德镇市,台达陶瓷,细颗粒物(PM2.5),52,48,75,36,50,73,38,12,12,17,38,4,17,0.6,0.8
2023-10-26T11:00:00,2346A,117.2461,29.2956,景德镇市,陶研所,颗粒物(PM10),55,60,74,35,38,47,29,9,9,4,11,7,8,0.6,0.6
2023-10-26T11:00:00,2347A,114.0997,27.5002,萍乡市,武功山,,22,3,31,5,22,130,69,65,65,5,9,6,8,0.2,0.3
2023-10-26T11:00:00,2348A,113.8385,27.6434,萍乡市,中医院,,33,24,46,23,36,135,75,74,73,9,12,15,17,0.7,0.8
2023-10-26T11:00:00,2349A,113.8493,27.6253,萍乡市,市政府车库,,26,23,56,18,41,123,68,70,68,15,15,11,22,1.3,1
2023-10-26T11:00:00,2350A,113.8676,27.6435,萍乡市,市环保局,,33,25,55,23,40,139,75,75,74,10,12,13,19,0.6,0.7
2023-10-26T11:00:00,2351A,113.866,27.6198,萍乡市,安源区政府,,,,62,,44,137,68,71,70,17,19,7,21,,1
2023-10-26T11:00:00,2352A,115.0861,27.9317,新余市,北岗,,40,35,62,28,51,94,71,65,65,10,20,15,34,0.4,0.6
2023-10-26T11:00:00,2353A,114.9886,27.8431,新余市,飞宇,,45,42,78,31,45,99,61,69,68,25,25,10,24,0.7,0.8
2023-10-26T11:00:00,2354A,114.9231,27.8246,新余市,第二水厂,,,,92,30,45,113,84,89,86,15,20,8,14,0.4,0.5
2023-10-26T11:00:00,2355A,114.9308,27.8036,新余市,市气象局,,,,66,,48,99,71,79,77,19,22,7,12,,0.8
2023-10-26T11:00:00,2357A,116.9822,28.1136,鹰潭市,龙虎山,颗粒物(PM10),62,74,73,40,31,51,44,22,22,16,24,10,8,0.3,0.3
2023-10-26T11:00:00,2358A,117.0564,28.2642,鹰潭市,新监测站,细颗粒物(PM2.5),59,52,81,42,53,57,57,32,32,16,32,8,22,0.6,0.7
2023-10-26T11:00:00,2359A,117.0311,28.2475,鹰潭市,财苑宾馆,细颗粒物(PM2.5),69,60,88,50,62,56,56,34,34,14,30,11,27,0.6,0.8
2023-10-26T11:00:00,2360A,117.0222,28.2264,鹰潭市,体育馆,,,85,97,,72,60,60,27,27,17,36,,39,,0.9
2023-10-26T11:00:00,2361A,117.0017,28.2131,鹰潭市,三川水表,细颗粒物(PM2.5),85,67,103,63,70,53,53,23,23,24,39,13,23,0.7,0.9
2023-10-26T11:00:00,2362A,114.9017,25.9149,赣州市,通天岩,,,,,,,,,,,,,,,,
2023-10-26T11:00:00,2363A,114.9367,25.8664,赣州市,地委,细颗粒物(PM2.5),85,95,68,63,35,147,68,45,45,11,17,11,14,1.1,1.1
2023-10-26T11:00:00,2364A,114.9461,25.8481,赣州市,气象台,细颗粒物(PM2.5),88,84,58,65,35,151,69,40,40,22,28,10,12,1.0,0.9
2023-10-26T11:00:00,2365A,114.9322,25.8333,赣州市,市图书馆,细颗粒物(PM2.5),98,104,72,73,41,137,69,46,46,15,20,12,15,1.5,1.1
2023-10-26T11:00:00,2366A,114.8905,25.8471,赣州市,华坚鞋城,细颗粒物(PM2.5),100,94,67,75,43,153,63,58,54,14,20,12,15,1.4,1.2
2023-10-26T11:00:00,2367A,114.9754,27.0803,吉安市,红声器材厂,,32,30,80,22,54,142,68,59,59,14,25,8,15,0.8,1
2023-10-26T11:00:00,2368A,114.9658,27.0999,吉安市,市森林工业局,,35,30,82,24,56,141,66,59,59,14,24,8,19,0.7,0.9
2023-10-26T11:00:00,2369A,114.99,27.1312,吉安市,市环境监测站,,29,26,75,20,50,140,69,61,61,14,25,6,14,0.8,0.9
2023-10-26T11:00:00,2370A,115.0093,27.0968,吉安市,青原区法院,,32,22,73,22,54,143,72,62,62,16,24,9,16,0.8,0.9
2023-10-26T11:00:00,2371A,114.3408,27.8064,宜春市,槟榔水业,,26,24,57,18,37,133,76,84,82,20,26,1,7,0.5,0.5
2023-10-26T11:00:00,2373A,114.3956,27.7844,宜春市,市石油公司,,40,35,72,28,46,128,73,71,71,17,18,4,9,0.4,0.4
2023-10-26T11:00:00,2374A,114.3703,27.7914,宜春市,市气象局,,43,39,68,30,44,126,74,76,75,22,22,3,9,0.8,0.8
2023-10-26T11:00:00,2375A,114.4013,27.8074,宜春市,市广电局,,,34,55,21,41,130,74,80,78,,20,4,10,0.6,0.6
2023-10-26T11:00:00,2376A,116.2127,28.0814,抚州市,桐源党溪,,,54,72,46,53,70,70,38,36,,14,2,3,1.1,1.1
2023-10-26T11:00:00,2377A,116.3544,27.9831,抚州市,市站,细颗粒物(PM2.5),92,81,85,68,62,79,68,59,55,17,21,8,18,1.7,1.5
2023-10-26T11:00:00,2378A,116.3565,27.963,抚州市,血防站,细颗粒物(PM2.5),84,85,85,62,59,83,63,64,57,16,20,3,12,1.4,1.3
2023-10-26T11:00:00,2379A,116.3564,28.0007,抚州市,采茶剧团,细颗粒物(PM2.5),90,74,84,67,65,68,64,50,48,15,22,5,14,1.2,1.1
2023-10-26T11:00:00,2380A,116.385,27.9647,抚州市,医学分院,细颗粒物(PM2.5),85,80,87,63,56,75,69,58,57,16,20,7,14,1.4,1.2
2023-10-26T11:00:00,2381A,118.005,28.4572,上饶市,百草园,,,66,68,2,22,93,14,4,4,24,27,9,13,,
2023-10-26T11:00:00,2382A,117.9756,28.4436,上饶市,市监测站,细颗粒物(PM2.5),65,77,84,47,51,105,26,12,12,33,40,7,13,0.9,1
2023-10-26T11:00:00,2383A,117.9519,28.4628,上饶市,凤凰光学,细颗粒物(PM2.5),67,70,85,48,48,111,30,12,12,33,51,10,16,0.6,0.8
2023-10-26T11:00:00,2385A,114.17,35.9019,鹤壁市,市监测站,颗粒物(PM10),72,94,67,48,36,134,73,63,60,32,36,20,13,1.0,0.8
2023-10-26T11:00:00,2386A,114.2956,35.7511,鹤壁市,市交警支队,颗粒物(PM10),69,87,81,28,38,130,82,49,49,22,44,7,7,0.6,0.8
2023-10-26T11:00:00,2387A,114.2878,35.7306,鹤壁市,迎宾馆,,,,75,,41,130,,57,57,,45,,12,,0.8
2023-10-26T11:00:00,2389A,113.836,35.311,新乡市,环保西院,,,,110,,60,132,65,27,27,42,58,19,15,,0.7
2023-10-26T11:00:00,2390A,113.884,35.272,新乡市,开发区,,,,113,,61,139,,28,28,42,49,,13,1.0,0.9
2023-10-26T11:00:00,2391A,113.883,35.303,新乡市,环保东院,颗粒物(PM10),85,119,108,59,61,132,58,28,28,42,55,15,15,0.9,0.8
2023-10-26T11:00:00,2392A,115.0312,35.7636,濮阳市,环保局,细颗粒物(PM2.5),94,134,83,70,44,140,66,36,36,39,42,14,13,0.9,1
2023-10-26T11:00:00,2394A,115.0574,35.7609,濮阳市,油田运输公司,细颗粒物(PM2.5),108,144,91,81,53,157,70,40,40,41,51,13,12,0.8,0.9
2023-10-26T11:00:00,2395A,115.0866,35.7754,濮阳市,油田物探公司,细颗粒物(PM2.5),113,142,88,85,55,161,79,36,36,34,46,14,12,0.8,0.9
2023-10-26T11:00:00,2396A,113.8276,34.0159,许昌市,监测站,颗粒物(PM10),79,108,121,45,75,124,70,28,28,37,49,9,11,0.8,0.8
2023-10-26T11:00:00,2398A,113.7906,33.9953,许昌市,开发区,颗粒物(PM10),82,114,108,54,72,117,62,24,24,41,44,25,11,0.6,0.5
2023-10-26T11:00:00,2399A,114.051,33.5699,漯河市,三五一五工厂,颗粒物(PM10),84,117,97,60,61,118,69,49,49,37,38,19,13,0.6,0.5
2023-10-26T11:00:00,2400A,114.0055,33.5698,漯河市,漯河大学,,,,96,,57,50,,62,,,48,,12,,0.6
2023-10-26T11:00:00,2401A,114.0138,33.5828,漯河市,市水利局,颗粒物(PM10),82,114,101,57,56,118,63,40,40,37,38,17,12,0.8,0.7
2023-10-26T11:00:00,2402A,114.0261,33.5698,漯河市,市广电局,细颗粒物(PM2.5),87,107,99,64,53,115,60,42,42,38,38,12,8,0.8,0.7
2023-10-26T11:00:00,2404A,112.5224,33.0122,南阳市,瓦房庄,,,71,69,42,44,78,,3,3,52,48,10,8,0.7,0.8
2023-10-26T11:00:00,2405A,112.5003,32.9735,南阳市,汉画馆,细颗粒物(PM2.5),54,55,73,38,45,82,46,13,13,34,45,8,7,0.6,0.8
2023-10-26T11:00:00,2406A,112.5573,33.027,南阳市,气象站,细颗粒物(PM2.5),73,78,67,53,43,83,33,10,10,50,43,5,5,0.7,0.7
2023-10-26T11:00:00,2407A,112.5481,32.9689,南阳市,理工学院,颗粒物(PM10),68,86,85,48,53,82,38,11,11,39,35,11,7,0.5,0.6
2023-10-26T11:00:00,2408A,115.6702,34.4285,商丘市,环境监测站,细颗粒物(PM2.5),115,152,103,87,75,141,50,33,27,60,38,22,9,0.8,0.6
2023-10-26T11:00:00,2409A,115.6458,34.4045,商丘市,粮食局,颗粒物(PM10),104,157,120,76,81,140,50,26,24,62,47,21,10,0.8,0.6
2023-10-26T11:00:00,2410A,115.6293,34.3948,商丘市,睢阳区环保局,细颗粒物(PM2.5),147,153,124,112,77,135,50,15,15,50,46,21,10,0.7,0.6
2023-10-26T11:00:00,2420A,114.0189,32.9656,驻马店市,市一纸厂,细颗粒物(PM2.5),55,52,63,39,36,132,78,56,56,23,23,12,9,0.4,0.4
2023-10-26T11:00:00,2421A,114.0114,33.015,驻马店市,市彩印厂,颗粒物(PM10),68,85,71,36,42,132,72,44,44,26,20,11,8,0.4,0.4
2023-10-26T11:00:00,2422A,113.9976,32.9771,驻马店市,天方二分厂,颗粒物(PM10),60,70,67,37,44,131,68,46,46,26,22,11,8,0.6,0.5
2023-10-26T11:00:00,2423A,115.0601,30.2313,黄石市,沈家营,细颗粒物(PM2.5),118,161,158,89,91,147,147,52,52,24,43,13,10,1.3,1.4
2023-10-26T11:00:00,2424A,115.0817,30.2006,黄石市,陈家湾,细颗粒物(PM2.5),119,140,142,90,90,137,137,55,55,30,36,14,10,1.2,1.2
2023-10-26T11:00:00,2426A,114.8988,30.2019,黄石市,铁山,细颗粒物(PM2.5),124,113,112,94,102,124,124,42,42,22,44,12,13,1.4,1.5
2023-10-26T11:00:00,2427A,115.0307,30.2092,黄石市,团城山,颗粒物(PM10),105,159,166,78,101,131,131,48,48,32,51,13,13,1.2,1.5
2023-10-26T11:00:00,2428A,111.0419,32.395,十堰市,武当山,,33,33,18,10,12,98,98,93,93,6,6,11,10,0.8,0.8
2023-10-26T11:00:00,2429A,110.78,32.6494,十堰市,滨河新村,,49,49,54,28,31,36,36,17,17,20,24,9,8,0.5,0.7
2023-10-26T11:00:00,2430A,110.7258,32.6389,十堰市,刘家沟,,43,43,36,20,19,44,44,25,25,8,8,8,8,0.7,0.7
2023-10-26T11:00:00,2431A,110.8839,32.5714,十堰市,铁二处,,,,43,,23,39,32,22,22,28,18,7,6,,0.6
2023-10-26T11:00:00,2432A,112.155,32.0197,襄阳市,襄城运动路,,46,37,66,32,42,81,40,19,19,11,22,19,14,0.6,0.7
2023-10-26T11:00:00,2433A,112.1392,32.0564,襄阳市,樊城新华路,,43,43,76,24,50,80,42,22,22,21,29,14,10,0.6,0.7
2023-10-26T11:00:00,2434A,112.1825,32.1142,襄阳市,高新管委会,,39,39,68,23,67,83,59,22,22,16,34,9,9,0.7,0.9
