timepoint,stationcode,longitude,latitude,area,positionname,primarypollutant,aqi,pm10,pm10_24h,pm2_5,pm2_5_24h,o3,o3_24h,o3_8h,o3_8h_24h,no2,no2_24h,so2,so2_24h,co,co_24h
2023-10-26T20:00:00,1001A,116.3621,39.8784,北京市,万寿西宫,颗粒物(PM10),57,64,42,12,13,64,39,57,56,47,39,1,2,0.4,0.5
2023-10-26T20:00:00,1002A,116.2202,40.2915,北京市,定陵,颗粒物(PM10),51,51,26,12,7,59,18,42,36,28,15,3,2,0.3,0.1
2023-10-26T20:00:00,1003A,116.4174,39.9289,北京市,东四,颗粒物(PM10),58,65,42,12,13,64,43,58,57,35,33,2,3,0.4,0.4
2023-10-26T20:00:00,1004A,116.4072,39.8863,北京市,天坛,,50,50,37,12,13,65,32,58,55,40,32,1,2,0.5,0.4
2023-10-26T20:00:00,1005A,116.462,39.9365,北京市,农展馆,颗粒物(PM10),53,56,42,12,14,64,54,57,57,39,49,1,2,0.4,0.5
2023-10-26T20:00:00,1006A,116.3392,39.9295,北京市,官园,颗粒物(PM10),63,75,40,14,10,70,55,64,64,31,34,2,2,0.5,0.6
2023-10-26T20:00:00,1007A,116.2878,39.9611,北京市,海淀万柳,颗粒物(PM10),64,77,45,15,11,64,43,54,54,43,49,2,2,0.6,0.6
2023-10-26T20:00:00,1008A,116.6636,40.135,北京市,顺义新城,颗粒物(PM10),63,75,41,22,12,75,1,56,44,65,26,3,3,0.7,0.3
2023-10-26T20:00:00,1009A,116.6275,40.3275,北京市,怀柔镇,颗粒物(PM10),56,62,28,19,8,62,32,51,48,31,23,1,3,0.6,0.3
2023-10-26T20:00:00,1010A,116.2296,40.217,北京市,昌平镇,颗粒物(PM10),57,64,34,19,11,70,29,56,52,48,34,5,4,0.5,0.3
2023-10-26T20:00:00,1011A,116.3966,39.9821,北京市,奥体中心,颗粒物(PM10),58,66,46,13,12,59,50,54,54,35,52,3,3,0.4,0.6
2023-10-26T20:00:00,1012A,116.184,39.9136,北京市,古城,颗粒物(PM10),70,89,57,19,14,68,41,56,56,37,50,1,2,0.7,0.7
2023-10-26T20:00:00,1015A,117.1444,39.1661,天津市,勤俭道,,27,27,95,6,47,71,46,60,59,33,45,7,10,0.5,0.8
2023-10-26T20:00:00,1017A,117.237,39.1082,天津市,大直沽八号路,,27,27,95,5,47,119,46,57,56,34,48,2,6,0.4,0.7
2023-10-26T20:00:00,1018A,117.202,39.0927,天津市,前进道,,22,22,82,6,42,96,48,60,59,34,47,5,9,0.4,0.8
2023-10-26T20:00:00,1019A,117.1837,39.2133,天津市,淮河道,,23,23,94,5,47,94,52,65,64,31,55,5,9,0.5,0.7
2023-10-26T20:00:00,1021A,117.307,39.0877,天津市,跃进路,颗粒物(PM10),59,67,97,8,50,68,12,62,52,62,55,6,9,0.5,0.8
2023-10-26T20:00:00,1023A,117.707,39.0343,天津市,第四大街,,29,19,80,5,42,61,19,52,45,58,62,5,7,0.4,0.7
2023-10-26T20:00:00,1024A,117.457,38.8394,天津市,永明路,,26,23,95,7,52,75,26,69,60,51,60,5,8,0.6,0.7
2023-10-26T20:00:00,1026A,117.764,39.1587,天津市,汉北路,,22,15,70,3,34,68,29,61,55,43,52,6,9,0.4,0.6
2023-10-26T20:00:00,1027A,117.157,38.9194,天津市,团泊洼,,18,14,90,6,54,68,29,61,55,36,52,4,6,0.6,0.9
2023-10-26T20:00:00,1029A,114.4422,38.0444,石家庄市,职工医院,颗粒物(PM10),59,68,74,22,26,96,47,82,79,39,56,3,5,0.4,0.5
2023-10-26T20:00:00,1030A,114.6063,38.0266,石家庄市,高新区,颗粒物(PM10),72,93,82,27,29,95,34,82,76,49,41,2,4,0.6,0.5
2023-10-26T20:00:00,1031A,114.4898,38.1328,石家庄市,西北水源,颗粒物(PM10),69,87,87,29,26,90,31,77,71,48,52,1,2,0.4,0.4
2023-10-26T20:00:00,1032A,114.4586,38.0058,石家庄市,西南高教,颗粒物(PM10),80,110,82,33,29,98,17,82,72,71,49,2,5,0.6,0.6
2023-10-26T20:00:00,1033A,114.5331,38.0178,石家庄市,世纪公园,颗粒物(PM10),57,63,68,29,30,96,48,83,80,33,35,6,7,0.5,0.6
2023-10-26T20:00:00,1034A,114.509,38.0457,石家庄市,人民会堂,颗粒物(PM10),63,76,70,24,30,105,54,86,83,39,42,7,6,0.5,0.5
2023-10-26T20:00:00,1035A,114.3524,37.8911,石家庄市,封龙山,颗粒物(PM10),58,66,77,18,20,117,82,94,94,8,12,8,8,0.4,0.5
2023-10-26T20:00:00,1037A,118.131,39.6363,唐山市,雷达站,,50,50,71,10,27,69,32,62,56,39,28,3,8,0.5,0.8
2023-10-26T20:00:00,1038A,118.1725,39.6334,唐山市,物资局,颗粒物(PM10),55,60,71,15,31,69,33,63,57,36,35,12,10,0.6,0.7
2023-10-26T20:00:00,1040A,118.1705,39.6506,唐山市,十二中,,44,44,68,11,26,66,41,60,57,27,35,9,7,0.6,0.7
2023-10-26T20:00:00,1041A,118.1869,39.622,唐山市,小山,颗粒物(PM10),58,66,74,13,23,83,34,59,54,43,29,8,6,0.6,0.7
2023-10-26T20:00:00,1042A,119.5134,39.8207,秦皇岛市,北戴河环保局,,50,50,65,14,24,81,24,65,60,57,31,6,8,0.4,0.1
2023-10-26T20:00:00,1043A,119.7493,40.0116,秦皇岛市,第一关,颗粒物(PM10),51,51,50,28,19,86,13,73,54,71,39,9,9,0.3,0.2
2023-10-26T20:00:00,1044A,119.5897,39.9499,秦皇岛市,监测站,颗粒物(PM10),64,78,48,27,25,96,9,64,51,68,31,10,9,0.8,0.4
2023-10-26T20:00:00,1046A,119.5251,39.9041,秦皇岛市,建设大厦,颗粒物(PM10),60,69,54,19,12,86,13,64,54,68,29,4,3,0.4,0.2
2023-10-26T20:00:00,1048A,114.5302,36.6116,邯郸市,东污水处理厂,颗粒物(PM10),59,68,87,24,40,112,56,101,96,36,37,3,18,0.5,1.5
2023-10-26T20:00:00,1049A,114.4918,36.5713,邯郸市,矿院,颗粒物(PM10),60,70,84,39,43,112,48,102,96,34,45,4,19,0.5,1.5
2023-10-26T20:00:00,1050A,114.484,36.6133,邯郸市,丛台公园,颗粒物(PM10),61,72,86,30,42,117,55,104,99,37,45,4,21,0.4,1.5
2023-10-26T20:00:00,1051A,115.493,38.8632,保定市,游泳馆,颗粒物(PM10),60,70,98,21,48,84,25,71,60,63,48,4,6,0.3,0.5
2023-10-26T20:00:00,1052A,115.5213,38.8959,保定市,华电二区,颗粒物(PM10),56,61,87,17,54,76,29,64,59,49,39,5,7,0.2,0.4
2023-10-26T20:00:00,1053A,115.4713,38.9108,保定市,接待中心,颗粒物(PM10),70,89,105,28,47,77,7,65,55,74,42,5,7,1.1,0.5
2023-10-26T20:00:00,1054A,115.4612,38.8416,保定市,地表水厂,颗粒物(PM10),67,84,108,21,36,76,12,64,56,81,45,6,7,0.5,0.7
2023-10-26T20:00:00,1056A,115.5086,38.8639,保定市,监测站,颗粒物(PM10),69,87,101,27,47,83,20,68,60,66,50,6,7,0.2,0.4
2023-10-26T20:00:00,1057A,114.8883,40.8336,张家口市,人民公园,,44,44,29,13,6,87,57,76,72,20,12,2,2,0.4,0.4
2023-10-26T20:00:00,1059A,114.8687,40.8042,张家口市,五金库,颗粒物(PM10),71,92,31,39,8,88,12,75,60,71,16,6,3,0.7,0.1
2023-10-26T20:00:00,1060A,114.8902,40.762,张家口市,世纪豪园,颗粒物(PM10),67,83,30,28,9,89,14,76,62,74,16,2,2,0.9,0.4
2023-10-26T20:00:00,1061A,114.8916,40.8661,张家口市,北泵房,,39,39,28,18,8,99,54,84,74,19,10,7,7,0.2,0.1
2023-10-26T20:00:00,1062A,117.9531,40.9081,承德市,铁路,颗粒物(PM10),54,57,33,18,11,66,17,53,39,40,32,8,8,0.6,0.3
2023-10-26T20:00:00,1063A,117.9392,40.9763,承德市,中国银行,,50,50,35,16,9,71,2,53,40,52,32,6,6,0.7,0.3
2023-10-26T20:00:00,1064A,117.9503,40.928,承德市,开发区,颗粒物(PM10),56,61,50,19,16,72,2,52,41,58,39,7,6,0.7,0.4
2023-10-26T20:00:00,1065A,117.8051,40.9655,承德市,文化中心,,40,40,47,22,11,81,30,58,52,40,37,12,6,0.5,0.4
2023-10-26T20:00:00,1066A,117.9268,41.0026,承德市,离宫,,30,20,20,21,14,66,33,57,55,23,15,2,2,0.4,0.2
2023-10-26T20:00:00,1067A,116.6708,39.5111,廊坊市,药材公司,颗粒物(PM10),64,77,77,25,32,73,32,62,58,51,44,10,5,0.6,0.7
2023-10-26T20:00:00,1068A,116.7214,39.5589,廊坊市,开发区,颗粒物(PM10),61,71,74,20,30,72,37,62,60,48,52,9,4,0.5,0.5
2023-10-26T20:00:00,1070A,116.7244,39.5269,廊坊市,北华航天学院,颗粒物(PM10),63,76,76,13,25,72,37,63,60,45,40,17,7,0.5,0.6
2023-10-26T20:00:00,1071A,116.8842,38.2991,沧州市,沧县城建局,,41,41,94,20,45,77,34,72,63,49,52,3,6,0.4,0.7
2023-10-26T20:00:00,1072A,116.8584,38.3254,沧州市,电视转播站,,45,45,86,19,39,80,42,73,68,34,48,5,7,0.3,0.5
2023-10-26T20:00:00,1073A,116.8709,38.3228,沧州市,市环保局,颗粒物(PM10),51,51,98,17,48,77,38,71,64,36,44,3,4,0.3,0.6
2023-10-26T20:00:00,1074A,115.6838,37.7541,衡水市,电机北厂,颗粒物(PM10),67,83,115,12,46,110,32,78,68,44,42,8,4,0.2,0.4
2023-10-26T20:00:00,1075A,115.6303,37.7316,衡水市,市监测站,颗粒物(PM10),59,67,97,11,43,90,44,69,64,38,55,8,9,0.3,0.6
2023-10-26T20:00:00,1077A,114.4704,37.0886,邢台市,达活泉,颗粒物(PM10),77,104,97,26,33,111,44,97,90,42,36,4,7,1.0,1
2023-10-26T20:00:00,1078A,114.5062,37.0349,邢台市,邢师高专,,,115,96,34,36,106,37,96,89,50,40,,6,0.5,0.7
2023-10-26T20:00:00,1079A,114.5237,37.0851,邢台市,路桥公司,颗粒物(PM10),72,93,89,28,40,108,50,97,91,48,44,2,5,0.5,0.6
2023-10-26T20:00:00,1080A,114.4725,37.0719,邢台市,市环保局,颗粒物(PM10),75,100,94,31,32,112,46,98,92,39,22,4,7,0.8,0.7
2023-10-26T20:00:00,1081A,112.522,37.8873,太原市,尖草坪,颗粒物(PM10),79,107,93,38,39,100,20,85,76,85,65,7,9,0.8,0.8
2023-10-26T20:00:00,1083A,112.434,38.0108,太原市,上兰,,,,,,,,,,,,,,,,
2023-10-26T20:00:00,1084A,112.469,37.7124,太原市,晋源,颗粒物(PM10),61,71,109,25,40,103,37,89,80,67,58,7,10,0.9,1
2023-10-26T20:00:00,1085A,112.5583,37.7394,太原市,小店,颗粒物(PM10),76,102,102,38,39,104,11,92,80,100,61,7,11,0.9,0.9
2023-10-26T20:00:00,1086A,112.5369,37.8692,太原市,桃园,颗粒物(PM10),78,105,97,36,34,97,11,78,73,99,74,7,15,0.9,1.3
2023-10-26T20:00:00,1087A,112.57,37.8195,太原市,坞城,颗粒物(PM10),83,115,71,47,30,102,6,93,80,107,45,5,13,1.0,0.9
2023-10-26T20:00:00,1088A,112.549,37.9854,太原市,南寨,颗粒物(PM10),105,160,100,29,26,104,15,88,76,72,55,4,7,0.4,0.5
2023-10-26T20:00:00,1090A,111.6507,40.7517,呼和浩特市,呼市一监,颗粒物(PM10),117,183,90,86,38,94,22,80,70,86,39,17,10,0.8,0.6
2023-10-26T20:00:00,1091A,111.6572,40.8033,呼和浩特市,小召,颗粒物(PM10),96,141,77,60,29,91,40,78,76,78,39,21,11,1.1,0.6
2023-10-26T20:00:00,1094A,111.7516,40.8369,呼和浩特市,如意水处理厂,颗粒物(PM10),93,136,67,56,25,96,11,83,78,99,46,12,12,0.9,0.5
2023-10-26T20:00:00,1095A,111.7276,40.8062,呼和浩特市,二十九中,颗粒物(PM10),91,132,75,58,27,99,36,86,82,82,46,19,12,1.0,0.6
2023-10-26T20:00:00,1096A,111.5512,40.7866,呼和浩特市,工大金川校区,,,140,88,42,36,94,28,78,71,73,40,15,11,,0.6
2023-10-26T20:00:00,1097A,111.717,40.7612,呼和浩特市,化肥厂生活区,颗粒物(PM10),109,167,86,67,35,102,15,80,72,94,40,26,12,1.0,0.6
2023-10-26T20:00:00,1098A,123.6836,41.9339,沈阳市,森林路,,,,,,,,,,,,,,,,
2023-10-26T20:00:00,1099A,123.505,41.7406,沈阳市,浑南东路,,45,45,43,11,17,123,16,55,46,53,24,7,9,0.4,0.4
2023-10-26T20:00:00,1100A,123.4231,41.6989,沈阳市,新秀街,,28,28,26,8,10,110,23,62,53,52,23,10,10,0.5,0.4
2023-10-26T20:00:00,1102A,123.5903,41.8411,沈阳市,东陵路,颗粒物(PM10),52,53,50,12,14,123,7,61,45,52,21,8,9,0.4,0.4
2023-10-26T20:00:00,1103A,123.4264,41.8467,沈阳市,陵东街,颗粒物(PM10),51,51,26,13,11,117,5,60,44,73,28,7,8,0.7,0.5
2023-10-26T20:00:00,1104A,123.4114,41.7653,沈阳市,文化路,,38,38,26,6,9,117,33,61,55,42,19,9,10,0.8,0.7
2023-10-26T20:00:00,1105A,123.4678,41.7867,沈阳市,小河沿,,28,28,27,5,9,140,24,60,51,52,26,7,8,0.7,0.6
2023-10-26T20:00:00,1106A,123.4017,41.7972,沈阳市,太原街,,49,49,36,21,10,112,13,56,44,62,29,5,6,0.5,0.4
2023-10-26T20:00:00,1108A,123.3783,41.9228,沈阳市,京沈街,,31,31,42,5,12,120,36,63,53,38,18,7,9,0.4,0.3
2023-10-26T20:00:00,1109A,121.612,38.9741,大连市,甘井子,,19,14,57,4,33,166,58,75,70,25,20,6,16,0.6,0.6
2023-10-26T20:00:00,1110A,121.565,38.9511,大连市,周水子,,19,19,62,4,32,149,45,75,64,37,25,8,7,0.5,0.7
2023-10-26T20:00:00,1111A,121.5637,38.8845,大连市,星海三站,,24,24,60,4,29,199,58,82,72,23,14,8,14,0.4,0.5
2023-10-26T20:00:00,1112A,121.6302,38.9117,大连市,青泥洼桥,,18,14,55,4,29,177,57,71,65,28,21,8,8,0.5,0.7
2023-10-26T20:00:00,1113A,121.6251,38.8638,大连市,傅家庄,,21,16,52,3,30,192,65,84,72,20,16,8,10,0.2,0.3
2023-10-26T20:00:00,1114A,121.5213,38.8661,大连市,七贤岭,,24,17,54,4,25,205,74,90,82,25,19,8,7,0.5,0.7
2023-10-26T20:00:00,1115A,121.2529,38.8061,大连市,旅顺,,24,16,42,0,20,192,74,80,79,17,14,6,7,0.4,0.5
2023-10-26T20:00:00,1116A,121.7485,39.1311,大连市,金州,,25,25,62,8,31,170,53,72,63,23,21,8,11,0.5,0.7
2023-10-26T20:00:00,1117A,121.7811,39.0496,大连市,开发区,,30,30,78,3,33,123,68,77,70,17,24,6,7,0.3,0.5
2023-10-26T20:00:00,1118A,121.9762,39.0631,大连市,双D港,,28,28,63,4,28,130,70,80,79,27,25,8,8,0.4,0.6
2023-10-26T20:00:00,1119A,125.3325,43.9166,长春市,食品厂,颗粒物(PM10),75,100,53,52,23,78,8,54,37,64,27,10,6,0.7,0.4
2023-10-26T20:00:00,1120A,125.2863,43.9027,长春市,客车厂,细颗粒物(PM2.5),75,92,54,55,25,92,12,50,36,68,30,7,9,1.2,0.5
2023-10-26T20:00:00,1121A,125.2841,43.8463,长春市,邮电学院,颗粒物(PM10),53,55,53,29,16,104,11,61,43,65,26,13,9,0.5,0.3
2023-10-26T20:00:00,1122A,125.3716,43.8772,长春市,劳动公园,,50,50,46,14,16,110,10,57,45,59,21,8,7,0.5,0.3
2023-10-26T20:00:00,1123A,125.3297,43.8805,长春市,园林处,,42,42,41,15,12,102,9,57,44,56,21,9,10,0.7,0.5
2023-10-26T20:00:00,1124A,125.4605,43.79,长春市,净月潭,,40,40,41,8,13,103,21,58,46,32,17,7,9,0.4,0.3
2023-10-26T20:00:00,1125A,125.7194,43.515,长春市,甩湾子,,,,,,,,,,,,,,,,
2023-10-26T20:00:00,1126A,125.3863,43.8447,长春市,经开区环卫处,颗粒物(PM10),57,64,42,18,15,108,7,58,46,59,21,9,7,0.8,0.4
2023-10-26T20:00:00,1127A,125.245,43.7783,长春市,高新区管委会,,,88,51,32,17,102,4,57,38,,25,,7,1.1,0.5
2023-10-26T20:00:00,1128A,125.1761,43.8325,长春市,岱山公园,颗粒物(PM10),83,115,55,54,20,87,22,59,46,61,26,14,6,0.8,0.4
2023-10-26T20:00:00,1129A,126.5422,45.755,哈尔滨市,岭北,颗粒物(PM10),57,64,22,17,13,87,17,57,44,27,12,5,6,0.4,0.5
2023-10-26T20:00:00,1130A,126.561,45.8167,哈尔滨市,松北商大,,35,35,41,11,14,79,21,49,33,37,23,7,10,0.5,0.4
2023-10-26T20:00:00,1131A,126.979,45.5419,哈尔滨市,阿城会宁,颗粒物(PM10),55,59,61,21,18,102,19,50,39,38,21,6,8,0.6,0.5
2023-10-26T20:00:00,1132A,126.599,45.7222,哈尔滨市,南岗学府路,,39,39,45,14,14,91,21,48,40,34,17,10,8,0.4,0.3
2023-10-26T20:00:00,1133A,126.689,45.7733,哈尔滨市,太平宏伟公园,,44,44,45,18,15,82,24,49,42,34,19,13,10,0.7,0.5
2023-10-26T20:00:00,1134A,126.635,45.7667,哈尔滨市,道外承德广场,,42,42,47,21,19,87,35,51,43,30,16,4,6,0.5,0.4
2023-10-26T20:00:00,1135A,126.685,45.7319,哈尔滨市,香坊红旗大街,,30,30,47,13,14,91,33,54,47,28,17,9,7,0.4,0.3
2023-10-26T20:00:00,1136A,126.6411,45.7258,哈尔滨市,动力和平路,,34,34,47,3,16,81,24,47,,34,19,11,6,0.5,0.4
2023-10-26T20:00:00,1137A,126.593,45.7478,哈尔滨市,道里建国路,,42,42,41,12,20,87,19,49,38,41,20,7,6,0.3,0.4
2023-10-26T20:00:00,1138A,126.615,45.61,哈尔滨市,平房东轻厂,颗粒物(PM10),54,58,56,14,18,86,10,54,35,49,25,8,8,0.5,0.4
2023-10-26T20:00:00,1139A,126.595,45.9855,哈尔滨市,呼兰师专,,46,46,40,24,17,81,23,56,46,33,19,6,7,0.5,0.5
2023-10-26T20:00:00,1140A,126.6206,45.6842,哈尔滨市,省农科院,颗粒物(PM10),66,82,50,37,19,86,13,57,40,55,21,11,7,0.8,0.4
2023-10-26T20:00:00,1141A,121.4,31.238,上海市,普陀,细颗粒物(PM2.5),65,69,58,47,44,175,90,151,138,47,44,9,6,0.8,0.8
2023-10-26T20:00:00,1142A,121.478,31.2036,上海市,十五厂,,48,48,53,24,33,182,93,163,149,54,45,6,6,0.6,0.6
2023-10-26T20:00:00,1143A,121.467,31.3008,上海市,虹口,细颗粒物(PM2.5),88,72,54,65,49,161,35,148,123,116,56,6,6,1.2,0.8
2023-10-26T20:00:00,1144A,121.412,31.1654,上海市,徐汇上师大,细颗粒物(PM2.5),57,48,56,40,47,185,101,161,151,46,48,10,9,0.8,0.8
2023-10-26T20:00:00,1145A,121.536,31.2659,上海市,杨浦四漂,细颗粒物(PM2.5),79,100,68,58,56,173,13,148,116,134,72,9,9,0.6,0.5
2023-10-26T20:00:00,1147A,121.425,31.2261,上海市,静安监测站,细颗粒物(PM2.5),70,64,52,51,47,190,88,168,154,61,43,10,6,0.8,0.6
2023-10-26T20:00:00,1148A,121.703,31.1907,上海市,浦东川沙,细颗粒物(PM2.5),77,87,51,56,39,169,53,152,127,53,38,7,7,0.8,0.6
2023-10-26T20:00:00,1149A,121.533,31.2284,上海市,浦东新区监测站,细颗粒物(PM2.5),59,54,50,42,42,175,66,154,138,62,41,7,7,0.9,0.8
2023-10-26T20:00:00,1150A,121.577,31.2071,上海市,浦东张江,细颗粒物(PM2.5),65,61,51,47,43,164,64,146,129,45,29,6,6,0.8,0.7
2023-10-26T20:00:00,1151A,118.8086,32.1065,南京市,迈皋桥,颗粒物(PM10),73,95,88,39,43,197,4,157,126,142,80,4,4,1.1,1
2023-10-26T20:00:00,1152A,118.7538,32.0551,南京市,草场门,颗粒物(PM10),64,78,85,41,53,206,48,163,144,116,82,6,7,1.2,1.4
2023-10-26T20:00:00,1153A,118.7794,32.0745,南京市,山西路,颗粒物(PM10),79,107,87,56,49,213,36,178,154,110,70,9,10,1.8,1.2
2023-10-26T20:00:00,1154A,118.7752,32.0023,南京市,中华门,颗粒物(PM10),65,80,81,46,48,205,101,176,164,60,72,8,8,1.6,1.5
2023-10-26T20:00:00,1155A,118.8109,32.0309,南京市,瑞金路,细颗粒物(PM2.5),85,117,78,63,40,201,10,153,117,142,71,13,8,2.0,0.9
2023-10-26T20:00:00,1156A,118.7997,32.0754,南京市,玄武湖,细颗粒物(PM2.5),67,79,64,48,41,192,39,162,141,81,58,6,6,1.7,1.1
2023-10-26T20:00:00,1157A,118.6414,32.0931,南京市,浦口,颗粒物(PM10),51,51,71,27,39,196,143,163,163,21,28,7,10,0.8,1
2023-10-26T20:00:00,1158A,118.7356,31.9996,南京市,奥体中心,细颗粒物(PM2.5),94,134,88,70,53,185,27,163,148,125,74,9,11,1.7,1.3
2023-10-26T20:00:00,1159A,118.9125,32.1028,南京市,仙林大学城,细颗粒物(PM2.5),85,110,73,63,46,216,24,198,166,140,56,6,4,2.3,1.2
2023-10-26T20:00:00,1160A,120.561,31.2472,苏州市,上方山,颗粒物(PM10),58,65,83,32,59,218,98,196,184,54,40,20,8,0.8,0.8
2023-10-26T20:00:00,1162A,120.591,31.3019,苏州市,彩香,细颗粒物(PM2.5),75,97,93,55,63,224,87,199,185,79,48,8,9,1.2,1
2023-10-26T20:00:00,1163A,120.596,31.3264,苏州市,轧钢厂,颗粒物(PM10),81,112,98,56,58,224,71,203,182,88,52,9,10,1.2,1
2023-10-26T20:00:00,1164A,120.613,31.2703,苏州市,吴中区,颗粒物(PM10),71,92,89,46,52,229,102,218,189,82,56,9,10,1.2,0.9
2023-10-26T20:00:00,1165A,120.543,31.2994,苏州市,苏州新区,细颗粒物(PM2.5),78,88,100,57,64,234,132,212,205,58,71,8,9,1.0,0.9
2023-10-26T20:00:00,1166A,120.669,31.3097,苏州市,苏州工业园区,细颗粒物(PM2.5),72,75,76,52,53,222,93,193,177,91,47,9,10,1.1,1
2023-10-26T20:00:00,1167A,120.641,31.3708,苏州市,相城区,细颗粒物(PM2.5),70,77,71,51,60,216,79,179,159,83,71,10,11,1.1,1
2023-10-26T20:00:00,1168A,120.9098,31.9663,南通市,狼山街道,细颗粒物(PM2.5),88,83,66,65,47,230,42,186,158,106,54,8,9,1.6,1
2023-10-26T20:00:00,1169A,120.86,32.0005,南通市,虹桥,细颗粒物(PM2.5),204,184,101,154,78,239,34,197,161,174,74,18,14,2.2,1.2
2023-10-26T20:00:00,1170A,120.87,32.02,南通市,城中,细颗粒物(PM2.5),147,145,87,112,68,215,33,188,162,151,60,16,14,2.3,1.1
2023-10-26T20:00:00,1171A,120.94,31.93,南通市,星湖花园,细颗粒物(PM2.5),99,106,71,74,49,239,78,201,182,83,52,10,10,1.4,0.6
2023-10-26T20:00:00,1172A,120.81,32.0417,南通市,紫琅学院,细颗粒物(PM2.5),143,184,97,109,63,239,3,178,141,195,76,12,14,2.4,1.3
2023-10-26T20:00:00,1173A,119.176,34.5885,连云港市,市环境监测站,颗粒物(PM10),85,119,135,53,94,203,114,159,159,21,35,9,14,0.7,0.8
2023-10-26T20:00:00,1177A,117.179,34.2761,徐州市,黄河新村,细颗粒物(PM2.5),107,141,121,80,80,173,18,140,111,112,51,8,11,1.1,1
2023-10-26T20:00:00,1178A,117.1918,34.2384,徐州市,淮塔,细颗粒物(PM2.5),100,124,119,75,73,183,31,148,137,82,52,7,11,0.9,0.7
2023-10-26T20:00:00,1180A,117.256,34.2153,徐州市,新城区,"颗粒物(PM10),细颗粒物(PM2.5)",102,154,142,76,85,180,74,148,144,81,65,8,8,0.9,0.8
2023-10-26T20:00:00,1181A,117.244,34.2911,徐州市,桃园路,"颗粒物(PM10),细颗粒物(PM2.5)",118,185,120,89,72,175,14,132,118,130,61,9,12,1.0,0.9
2023-10-26T20:00:00,1182A,117.2933,34.2778,徐州市,农科院,细颗粒物(PM2.5),130,193,122,99,77,183,27,136,117,136,65,10,10,1.1,0.9
2023-10-26T20:00:00,1186A,119.389,32.3761,扬州市,邗江监测站,颗粒物(PM10),84,117,116,50,59,252,146,218,215,49,63,11,12,1.1,1.1
2023-10-26T20:00:00,1188A,120.269,31.4867,无锡市,雪浪,,,75,84,44,55,220,,199,197,30,39,6,8,,1.3
2023-10-26T20:00:00,1189A,120.275,31.6219,无锡市,黄巷,二氧化氮,101,137,138,56,73,213,11,177,148,207,116,10,13,1.4,1.8
2023-10-26T20:00:00,1190A,120.294,31.56,无锡市,曹张,二氧化氮,100,76,88,61,73,214,2,180,144,199,111,9,11,1.3,1.6
2023-10-26T20:00:00,1191A,120.242,31.5031,无锡市,漆塘,,49,48,79,34,57,232,126,200,195,25,47,6,8,1.1,1.5
2023-10-26T20:00:00,1192A,120.3489,31.5863,无锡市,东亭,细颗粒物(PM2.5),79,95,112,58,74,228,114,189,182,84,96,6,8,0.8,1.4
2023-10-26T20:00:00,1193A,120.354,31.5475,无锡市,旺庄,细颗粒物(PM2.5),85,107,112,63,72,230,102,197,180,101,106,6,8,1.6,1.7
2023-10-26T20:00:00,1194A,120.245,31.5631,无锡市,荣巷,,,,67,,54,226,,206,206,,43,9,10,0.9,1.3
2023-10-26T20:00:00,1195A,120.299,31.6817,无锡市,堰桥,颗粒物(PM10),85,119,110,61,71,218,74,185,162,102,76,9,13,1.1,1.4
2023-10-26T20:00:00,1196A,119.9633,31.762,常州市,市监测站,细颗粒物(PM2.5),100,102,158,75,94,282,48,229,204,132,101,11,12,1.2,1.6
2023-10-26T20:00:00,1200A,119.9468,31.7069,常州市,武进监测站,细颗粒物(PM2.5),105,116,154,79,83,274,83,230,211,98,87,10,16,1.2,1.4
2023-10-26T20:00:00,1201A,119.9255,31.9087,常州市,安家,细颗粒物(PM2.5),163,176,142,124,96,293,82,243,215,118,76,9,11,1.4,1.3
2023-10-26T20:00:00,1203A,119.6707,32.1875,镇江市,新区办事处,细颗粒物(PM2.5),90,113,86,67,62,270,7,224,177,144,77,5,8,1.8,1.2
2023-10-26T20:00:00,1204A,119.4974,32.1968,镇江市,职教中心,细颗粒物(PM2.5),95,101,86,71,78,277,89,231,201,66,61,5,4,1.3,1.1
2023-10-26T20:00:00,1205A,119.4303,32.1328,镇江市,丹徒区监测站,细颗粒物(PM2.5),72,80,84,52,62,234,85,215,191,84,47,7,9,1.4,0.9
2023-10-26T20:00:00,1206A,119.905,32.4878,泰州市,公园路,细颗粒物(PM2.5),79,73,102,58,79,260,136,232,217,32,49,10,12,1.1,1.1
2023-10-26T20:00:00,1207A,119.9189,32.4625,泰州市,莲花,细颗粒物(PM2.5),92,115,119,68,80,279,142,236,227,50,50,9,9,1.3,1.1
2023-10-26T20:00:00,1209A,119.888,32.4639,泰州市,留学生创业园,细颗粒物(PM2.5),85,115,111,63,83,264,128,224,212,52,60,18,13,1.3,1.2
2023-10-26T20:00:00,1210A,119.036,33.5981,淮安市,钵池山,细颗粒物(PM2.5),243,193,96,193,85,166,149,143,143,35,33,11,12,1.3,1.3
2023-10-26T20:00:00,1211A,119.007,33.575,淮安市,北京南路,细颗粒物(PM2.5),229,183,102,179,90,164,161,138,137,35,49,11,12,1.2,1.2
2023-10-26T20:00:00,1212A,118.989,33.6067,淮安市,市监测站,细颗粒物(PM2.5),195,205,105,146,71,174,162,146,146,36,36,15,16,1.4,1.1
2023-10-26T20:00:00,1213A,119.135,33.5039,淮安市,楚州区监测站,细颗粒物(PM2.5),264,212,113,214,106,169,140,140,137,36,51,9,9,1.4,1.1
2023-10-26T20:00:00,1214A,119.0186,33.6297,淮安市,淮阴区监测站,细颗粒物(PM2.5),219,234,119,169,80,174,149,147,147,40,35,13,14,1.3,1
2023-10-26T20:00:00,1215A,120.118,33.4022,盐城市,盐城电厂,细颗粒物(PM2.5),119,185,98,90,51,174,135,162,157,23,31,9,11,1.1,0.8
2023-10-26T20:00:00,1216A,120.156,33.3942,盐城市,市监测站,细颗粒物(PM2.5),207,139,81,157,62,205,155,188,184,38,47,17,16,1.0,0.9
2023-10-26T20:00:00,1218A,120.2144,33.38,盐城市,开发区管委会,细颗粒物(PM2.5),120,119,81,91,52,190,137,179,173,24,28,3,6,1.0,0.8
2023-10-26T20:00:00,1220A,118.293,33.9528,宿迁市,宿迁学院,细颗粒物(PM2.5),138,152,124,105,79,186,94,159,146,69,46,13,12,0.8,0.6
2023-10-26T20:00:00,1221A,118.2442,33.9592,宿迁市,宿迁中学,,,,151,,88,83,,88,,,44,,10,,1.0
2023-10-26T20:00:00,1223A,120.2072,30.2111,杭州市,滨江,颗粒物(PM10),68,85,107,43,57,208,136,181,181,41,60,9,8,0.8,0.9
2023-10-26T20:00:00,1224A,120.0633,30.2747,杭州市,西溪,细颗粒物(PM2.5),62,66,76,44,67,221,42,164,155,48,45,4,5,0.8,0.8
2023-10-26T20:00:00,1226A,120.3461,30.3153,杭州市,下沙,细颗粒物(PM2.5),69,77,82,50,53,200,91,168,162,86,74,10,8,0.7,0.7
2023-10-26T20:00:00,1227A,120.1269,30.2456,杭州市,卧龙桥,细颗粒物(PM2.5),62,63,77,44,64,206,61,162,144,28,32,4,5,0.8,0.8
2023-10-26T20:00:00,1228A,120.1903,30.2692,杭州市,浙江农大,细颗粒物(PM2.5),64,59,80,46,62,165,70,139,134,54,60,7,7,0.8,0.7
2023-10-26T20:00:00,1230A,120.1197,30.3119,杭州市,和睦小学,细颗粒物(PM2.5),70,81,97,51,67,212,84,168,165,63,71,9,10,0.9,0.8
2023-10-26T20:00:00,1231A,120.3019,30.4183,杭州市,临平镇,颗粒物(PM10),95,140,114,64,58,208,86,179,162,64,55,6,6,1.0,0.8
2023-10-26T20:00:00,1232A,120.2697,30.1819,杭州市,城厢镇,细颗粒物(PM2.5),89,93,100,66,77,186,98,161,160,59,55,9,8,0.9,0.9
2023-10-26T20:00:00,1233A,120.0883,30.1808,杭州市,云栖,颗粒物(PM10),52,53,78,35,62,219,100,173,169,30,36,6,8,0.7,0.8
2023-10-26T20:00:00,1234A,121.8358,29.911,宁波市,区环保大楼,,33,30,30,23,24,147,64,116,106,31,44,6,7,0.5,0.6
2023-10-26T20:00:00,1235A,121.56,29.82,宁波市,万里学院,颗粒物(PM10),57,64,55,32,30,173,49,142,134,68,38,10,10,0.8,0.7
2023-10-26T20:00:00,1236A,121.713,29.9572,宁波市,龙赛医院,,45,44,43,18,25,143,26,120,106,89,48,7,9,0.4,0.4
2023-10-26T20:00:00,1239A,121.633,29.7733,宁波市,钱湖水厂,,38,38,36,25,25,143,54,97,90,17,15,7,7,0.5,0.5
2023-10-26T20:00:00,1240A,121.5856,29.8635,宁波市,太古小学,颗粒物(PM10),61,71,46,33,26,173,71,142,131,47,37,8,9,0.8,0.8
2023-10-26T20:00:00,1241A,121.524,29.8674,宁波市,市环境监测中心,,,,61,,35,183,65,150,143,,40,8,8,0.7,0.6
2023-10-26T20:00:00,1242A,120.634,28.0089,温州市,瓯海,细颗粒物(PM2.5),90,126,70,67,36,61,6,44,36,66,37,8,7,0.9,0.6
2023-10-26T20:00:00,1243A,120.6748,27.9939,温州市,南浦,"颗粒物(PM10),细颗粒物(PM2.5)",54,57,49,38,31,55,27,40,39,51,34,5,6,0.6,0.5
2023-10-26T20:00:00,1244A,120.76,27.9747,温州市,龙湾,,24,24,45,13,23,62,62,39,39,18,40,5,5,0.5,0.6
2023-10-26T20:00:00,1245A,120.6709,28.0167,温州市,市站,颗粒物(PM10),52,54,59,34,39,61,24,44,44,51,42,6,6,0.6,0.6
2023-10-26T20:00:00,1247A,120.6053,29.9928,绍兴市,城东开发委,细颗粒物(PM2.5),63,73,139,45,101,175,89,139,139,43,41,9,9,0.9,1
2023-10-26T20:00:00,1250A,120.0751,30.8669,湖州市,城西水厂,二氧化氮,85,75,86,37,55,201,3,173,140,169,79,6,5,0.9,0.7
2023-10-26T20:00:00,1252A,120.7436,30.778,嘉兴市,清河小学,颗粒物(PM10),54,58,59,29,34,215,120,188,183,36,41,6,6,0.9,0.7
2023-10-26T20:00:00,1253A,120.726,30.7478,嘉兴市,嘉兴学院,颗粒物(PM10),58,65,57,31,48,208,94,174,167,39,34,6,6,0.8,0.6
2023-10-26T20:00:00,1255A,121.273,28.6459,台州市,黄岩环保大楼,,26,14,49,18,38,64,33,53,50,23,26,6,6,0.6,0.6
2023-10-26T20:00:00,1256A,121.419,28.6542,台州市,台州环保大楼,,24,24,34,16,20,66,54,57,57,18,17,5,5,0.5,0.5
2023-10-26T20:00:00,1257A,121.377,28.5773,台州市,路桥田洋王,,25,21,38,17,31,72,68,64,64,13,19,7,7,0.5,0.5
2023-10-26T20:00:00,1258A,122.122,30.0203,舟山市,定海檀枫,,28,26,26,19,17,130,67,120,112,19,15,6,6,0.5,0.5
2023-10-26T20:00:00,1259A,122.3094,29.9558,舟山市,普陀东港,,26,21,23,15,18,130,81,113,110,17,14,5,5,0.4,0.3
2023-10-26T20:00:00,1260A,122.19,29.9944,舟山市,临城新区,,35,35,25,24,16,124,61,114,106,26,18,4,4,0.4,0.4
2023-10-26T20:00:00,1262A,119.647,29.077,金华市,十五中,颗粒物(PM10),100,150,109,72,70,151,69,115,114,43,54,6,6,0.9,0.9
2023-10-26T20:00:00,1263A,119.686,29.1029,金华市,监测站,细颗粒物(PM2.5),102,101,100,76,72,148,62,114,112,46,58,7,6,0.9,0.9
2023-10-26T20:00:00,1264A,118.8692,28.9398,衢州市,环保大楼,细颗粒物(PM2.5),143,151,112,109,76,151,78,112,112,42,50,4,7,0.9,0.8
2023-10-26T20:00:00,1265A,118.8709,28.9666,衢州市,实验学校,颗粒物(PM10),101,151,113,75,60,149,63,113,113,45,49,6,7,0.8,0.8
2023-10-26T20:00:00,1266A,118.8621,28.9808,衢州市,衢州学院,细颗粒物(PM2.5),122,123,103,92,74,146,28,102,100,65,38,6,7,0.9,0.8
2023-10-26T20:00:00,1267A,119.914,28.4514,丽水市,监测站大楼,,32,26,52,22,34,47,30,32,32,23,36,6,7,0.6,0.7
2023-10-26T20:00:00,1268A,119.93,28.4586,丽水市,莲都小学,,33,32,47,23,27,47,47,35,35,17,31,6,6,0.6,0.5
2023-10-26T20:00:00,1269A,119.879,28.4231,丽水市,余庄前,,40,40,86,20,31,31,8,19,19,24,26,6,6,0.5,0.5
2023-10-26T20:00:00,1270A,117.1959,31.7848,合肥市,明珠广场,颗粒物(PM10),98,146,125,56,62,193,7,143,118,135,85,10,11,1.2,1.2
2023-10-26T20:00:00,1271A,117.3072,31.8764,合肥市,三里街,颗粒物(PM10),103,156,157,66,82,155,5,111,97,152,108,8,10,1.3,1.4
2023-10-26T20:00:00,1272A,117.2588,31.8707,合肥市,琥珀山庄,细颗粒物(PM2.5),89,119,109,66,64,162,21,120,110,98,65,5,7,1.7,1.5
2023-10-26T20:00:00,1273A,117.1604,31.9052,合肥市,董铺水库,细颗粒物(PM2.5),73,44,93,53,48,182,90,166,158,46,47,3,5,0.6,0.7
2023-10-26T20:00:00,1274A,117.25,31.8571,合肥市,长江中路,颗粒物(PM10),82,114,120,59,68,169,76,130,128,74,74,10,10,1.2,1.4
2023-10-26T20:00:00,1275A,117.266,31.9436,合肥市,庐阳区,颗粒物(PM10),85,119,157,53,85,175,61,139,132,94,81,6,10,1.0,1.2
2023-10-26T20:00:00,1276A,117.336,31.8586,合肥市,瑶海区,颗粒物(PM10),101,151,163,57,84,147,8,110,93,160,104,7,10,1.1,1.6
2023-10-26T20:00:00,1277A,117.3027,31.7964,合肥市,包河区,颗粒物(PM10),80,110,138,51,77,172,2,133,113,142,99,11,15,1.0,1.2
2023-10-26T20:00:00,1278A,117.2776,31.7385,合肥市,滨湖新区,二氧化氮,65,78,117,36,65,173,26,150,136,130,76,7,9,1.0,1
2023-10-26T20:00:00,1279A,117.1318,31.8403,合肥市,高新区,颗粒物(PM10),80,110,110,47,63,173,65,140,128,92,81,8,11,0.9,1
2023-10-26T20:00:00,1280A,119.3903,26.0543,福州市,鼓山,,,,,,,,,,,,,,,,
2023-10-26T20:00:00,1282A,119.2681,26.0504,福州市,师大,,43,40,32,30,22,81,37,64,60,16,14,4,5,0.7,0.5
2023-10-26T20:00:00,1283A,119.2984,26.1028,福州市,五四北路,,45,32,34,31,22,70,46,55,53,16,15,3,4,0.7,0.6
2023-10-26T20:00:00,1284A,119.2648,26.0768,福州市,杨桥西路,,50,50,38,34,24,76,22,60,53,29,18,3,4,0.7,0.5
2023-10-26T20:00:00,1285A,119.317,26.0746,福州市,紫阳,,36,36,34,25,20,67,47,54,54,12,13,5,5,0.6,0.5
2023-10-26T20:00:00,1286A,118.1608,24.8169,厦门市,溪东,,,,,,,,,,,,,,,,
2023-10-26T20:00:00,1287A,118.1514,24.4767,厦门市,洪文,,23,23,27,12,15,120,73,91,87,3,8,1,3,0.3,0.4
2023-10-26T20:00:00,1288A,118.0661,24.4444,厦门市,鼓浪屿,,22,16,26,8,13,103,68,81,79,10,18,2,4,0.2,0.3
2023-10-26T20:00:00,1290A,115.8931,28.6843,南昌市,省外办,细颗粒物(PM2.5),83,105,59,61,38,144,57,128,120,41,22,5,4,1.0,0.7
2023-10-26T20:00:00,1291A,115.8886,28.7003,南昌市,省林业公司,细颗粒物(PM2.5),73,83,56,53,40,156,53,133,124,83,37,6,6,0.6,0.4
2023-10-26T20:00:00,1292A,115.8126,28.7442,南昌市,林科所,细颗粒物(PM2.5),52,46,38,36,29,155,77,136,131,50,24,7,7,0.7,0.6
2023-10-26T20:00:00,1294A,115.8518,28.687,南昌市,建工学校,细颗粒物(PM2.5),104,90,61,78,44,149,53,132,125,87,31,9,9,1.2,0.7
2023-10-26T20:00:00,1295A,115.8921,28.6424,南昌市,象湖,"颗粒物(PM10),细颗粒物(PM2.5)",58,66,57,41,39,162,84,142,138,38,25,7,8,0.8,0.6
2023-10-26T20:00:00,1296A,115.7423,28.7996,南昌市,武术学校,,20,20,20,12,17,133,48,104,94,6,5,3,2,0.4,0.4
2023-10-26T20:00:00,1298A,115.9314,28.6842,南昌市,省站,细颗粒物(PM2.5),82,98,69,60,42,162,88,138,134,33,23,9,8,0.8,0.6
2023-10-26T20:00:00,1299A,116.9862,36.6114,济南市,科干所,,41,41,126,5,50,149,74,97,93,17,32,6,12,0.4,0.7
2023-10-26T20:00:00,1300A,116.9376,36.665,济南市,农科所,颗粒物(PM10),53,56,137,10,50,97,51,86,79,44,64,6,8,0.3,0.6
2023-10-26T20:00:00,1301A,117.1265,36.6734,济南市,开发区,,,56,113,12,42,122,50,89,81,,54,6,11,0.3,0.6
2023-10-26T20:00:00,1303A,117.0624,36.6868,济南市,省种子仓库,,48,48,146,9,61,94,59,86,74,35,72,5,9,0.4,1
2023-10-26T20:00:00,1304A,116.9489,36.6447,济南市,机床二厂,颗粒物(PM10),53,56,143,10,59,100,57,91,83,42,66,4,8,0.3,0.7
2023-10-26T20:00:00,1305A,117.0495,36.663,济南市,市监测站,颗粒物(PM10),53,56,121,7,43,104,60,94,86,52,65,5,11,0.7,1.1
2023-10-26T20:00:00,1306A,116.7675,36.5484,济南市,长清党校,颗粒物(PM10),58,66,142,12,64,109,70,98,92,30,53,5,10,0.4,0.7
2023-10-26T20:00:00,1307A,120.6659,36.2403,青岛市,仰口,,39,39,110,12,55,177,76,135,103,11,19,3,8,0.2,0.6
2023-10-26T20:00:00,1310A,120.4134,36.0658,青岛市,市南区东部子站,,48,48,125,7,57,150,46,116,100,51,40,5,10,0.3,0.7
2023-10-26T20:00:00,1311A,120.3664,36.1032,青岛市,四方区子站,,39,39,113,9,67,165,47,120,101,43,40,4,8,0.4,0.8
2023-10-26T20:00:00,1312A,120.2994,36.054,青岛市,市南区西部子站,,36,36,115,2,57,177,71,119,108,25,32,5,8,0.4,0.6
2023-10-26T20:00:00,1313A,120.4581,36.0858,青岛市,崂山区子站,,,46,126,9,67,142,,124,115,32,37,6,9,0.4,0.8
2023-10-26T20:00:00,1314A,120.1983,35.9608,青岛市,黄岛区子站,颗粒物(PM10),52,53,128,10,67,170,35,115,98,67,61,7,10,0.3,0.8
2023-10-26T20:00:00,1315A,120.3999,36.3083,青岛市,城阳区子站,,44,44,120,10,54,164,58,113,99,40,40,6,9,0.5,0.9
2023-10-26T20:00:00,1316A,113.69031,34.76122,郑州市,烟厂,细颗粒物(PM2.5),122,162,95,92,53,142,119,132,132,33,36,8,11,0.8,0.8
2023-10-26T20:00:00,1317A,113.65724,34.77134,郑州市,郑纺机,细颗粒物(PM2.5),203,147,97,153,63,138,113,128,128,39,44,9,12,0.9,0.9
2023-10-26T20:00:00,1318A,113.67526,34.80246,郑州市,银行学校,颗粒物(PM10),97,144,84,52,46,145,116,131,131,37,36,7,11,0.8,0.7
2023-10-26T20:00:00,1319A,113.56746,34.81334,郑州市,供水公司,细颗粒物(PM2.5),114,164,91,86,55,144,129,134,134,29,29,11,15,1.1,1.1
2023-10-26T20:00:00,1320A,113.7329,34.7178,郑州市,经开区管委,细颗粒物(PM2.5),117,162,93,88,53,143,120,135,135,38,37,10,12,0.8,0.8
2023-10-26T20:00:00,1321A,113.73961,34.77172,郑州市,四十七中,颗粒物(PM10),107,164,91,72,45,158,121,142,142,41,39,7,10,0.8,0.7
2023-10-26T20:00:00,1322A,113.60532,34.74838,郑州市,市监测站,颗粒物(PM10),119,187,104,89,51,144,125,131,131,39,43,8,11,0.7,0.7
2023-10-26T20:00:00,1323A,113.64164,34.7525,郑州市,河医大,颗粒物(PM10),116,182,103,65,41,135,113,124,124,39,38,11,13,1.1,1
2023-10-26T20:00:00,1324A,113.51488,34.91089,郑州市,岗李水库,,,,,,,,,,,,,,,,
2023-10-26T20:00:00,1325A,114.3677,30.5584,武汉市,东湖梨园,细颗粒物(PM2.5),119,113,150,90,102,192,72,156,151,64,41,8,9,1.1,1.1
2023-10-26T20:00:00,1326A,114.2529,30.558,武汉市,汉阳月湖,细颗粒物(PM2.5),113,133,154,85,109,154,16,116,106,91,45,7,7,1.2,1
2023-10-26T20:00:00,1327A,114.282,30.6189,武汉市,汉口花桥,细颗粒物(PM2.5),138,140,151,105,102,158,30,128,118,102,47,8,7,1.7,1.1
2023-10-26T20:00:00,1328A,114.3025,30.5332,武汉市,武昌紫阳,颗粒物(PM10),114,178,156,82,88,188,81,153,151,90,49,8,9,1.1,1.1
2023-10-26T20:00:00,1329A,114.3646,30.6217,武汉市,青山钢花,细颗粒物(PM2.5),147,154,155,112,109,182,13,157,142,148,68,9,9,1.8,1.2
2023-10-26T20:00:00,1330A,114.1566,30.4825,武汉市,沌口新区,颗粒物(PM10),103,156,129,68,92,169,16,125,115,138,56,9,9,1.0,1
2023-10-26T20:00:00,1331A,114.3014,30.5944,武汉市,汉口江滩,细颗粒物(PM2.5),108,142,141,81,66,156,9,116,96,178,58,8,7,1.1,0.9
2023-10-26T20:00:00,1333A,114.135,30.6319,武汉市,吴家山,细颗粒物(PM2.5),80,89,119,59,96,170,29,140,129,101,47,7,8,0.8,0.8
2023-10-26T20:00:00,1334A,113.8454,30.2917,武汉市,沉湖七壕,细颗粒物(PM2.5),65,54,77,47,57,154,94,127,127,15,14,6,5,0.8,0.9
2023-10-26T20:00:00,1335A,113.0833,28.2325,长沙市,经开区环保局,细颗粒物(PM2.5),176,117,31,133,41,74,40,61,61,41,13,6,6,1.1,0.6
2023-10-26T20:00:00,1336A,112.8872,28.2189,长沙市,高开区环保局,细颗粒物(PM2.5),94,87,41,70,45,103,32,78,69,43,15,5,4,0.8,0.7
2023-10-26T20:00:00,1337A,113.0792,28.2053,长沙市,马坡岭,细颗粒物(PM2.5),57,61,32,40,32,82,12,68,56,50,15,5,5,0.9,0.6
2023-10-26T20:00:00,1338A,112.9394,28.19,长沙市,湖南师范大学,细颗粒物(PM2.5),99,72,30,74,33,92,17,59,44,23,10,6,6,0.9,0.8
2023-10-26T20:00:00,1339A,113.0178,28.1322,长沙市,雨花区环保局,细颗粒物(PM2.5),78,89,31,57,27,89,42,68,60,34,15,1,2,1.1,0.7
2023-10-26T20:00:00,1340A,112.9792,28.2597,长沙市,伍家岭,细颗粒物(PM2.5),117,65,40,88,53,94,26,74,71,36,18,4,4,1.1,0.8
2023-10-26T20:00:00,1341A,113.0014,28.1944,长沙市,火车新站,细颗粒物(PM2.5),119,89,39,90,33,85,34,67,65,43,16,4,4,1.1,0.7
2023-10-26T20:00:00,1342A,112.9844,28.1178,长沙市,天心区环保局,细颗粒物(PM2.5),112,85,36,84,41,85,17,68,54,44,14,4,4,0.9,0.6
2023-10-26T20:00:00,1343A,112.8908,28.1308,长沙市,湖南中医药大学,细颗粒物(PM2.5),97,76,49,72,50,97,13,71,59,43,15,3,3,1.0,0.8
2023-10-26T20:00:00,1344A,112.9581,28.3611,长沙市,沙坪,颗粒物(PM10),86,122,61,44,28,60,8,45,35,34,13,3,3,0.5,0.4
2023-10-26T20:00:00,1345A,113.2347,23.1423,广州市,广雅中学,,49,49,61,18,34,192,106,150,150,38,47,5,5,0.7,0.8
2023-10-26T20:00:00,1346A,113.2612,23.105,广州市,市五中,颗粒物(PM10),53,56,58,29,38,194,107,150,150,38,41,8,7,0.7,0.8
2023-10-26T20:00:00,1348A,113.3478,23.0916,广州市,广东商学院,颗粒物(PM10),58,65,56,31,31,173,92,137,137,54,46,6,4,0.7,0.7
2023-10-26T20:00:00,1349A,113.4332,23.1047,广州市,市八十六中,颗粒物(PM10),76,101,72,43,36,233,87,164,163,88,62,5,4,0.7,0.7
2023-10-26T20:00:00,1350A,113.3505,22.9483,广州市,番禺中学,颗粒物(PM10),58,65,49,20,19,167,120,138,138,43,37,5,5,0.8,0.7
2023-10-26T20:00:00,1351A,113.2146,23.3916,广州市,花都师范,细颗粒物(PM2.5),74,96,102,54,46,248,129,193,193,56,63,5,5,0.8,0.9
2023-10-26T20:00:00,1352A,113.2597,23.1331,广州市,市监测站,,46,46,57,26,35,188,114,159,155,38,49,5,5,0.5,0.6
2023-10-26T20:00:00,1353A,113.5618,23.312,广州市,九龙镇镇龙,细颗粒物(PM2.5),95,131,87,71,48,265,60,186,176,93,54,5,5,0.9,0.8
2023-10-26T20:00:00,1354A,113.2765,23.1544,广州市,麓湖,,38,38,56,22,37,192,74,152,148,42,45,5,5,0.7,0.8
2023-10-26T20:00:00,1355A,113.443,23.3035,广州市,帽峰山森林公园,臭氧1小时,84,46,54,27,36,253,187,183,183,21,30,7,7,0.6,0.7
2023-10-26T20:00:00,1356A,114.1063,22.5545,深圳市,通心岭子站,,27,27,29,15,18,113,82,106,103,16,13,2,3,0.8,0.8
2023-10-26T20:00:00,1357A,114.117,22.5625,深圳市,洪湖,,36,36,35,15,16,128,85,115,110,15,13,2,2,0.2,0.2
2023-10-26T20:00:00,1358A,113.987,22.5417,深圳市,华侨城,,,,33,,21,75,,81,,,17,,5,,0.8
2023-10-26T20:00:00,1359A,113.9181,22.5171,深圳市,南海子站,,45,44,39,31,22,120,69,106,98,23,13,4,5,0.7,0.6
2023-10-26T20:00:00,1360A,114.2458,22.5689,深圳市,盐田,,21,16,24,12,17,117,66,102,92,26,26,2,2,0.4,0.3
2023-10-26T20:00:00,1361A,114.2283,22.7244,深圳市,龙岗,,39,39,38,23,22,151,68,123,118,33,17,7,7,0.4,0.4
2023-10-26T20:00:00,1363A,114.494,22.5422,深圳市,南澳,,25,25,27,16,21,115,73,103,98,11,11,8,8,0.3,0.3
2023-10-26T20:00:00,1364A,114.41,22.6342,深圳市,葵涌,,28,28,26,16,18,116,61,106,100,23,17,5,5,0.6,0.7
2023-10-26T20:00:00,1365A,114.297,22.5978,深圳市,梅沙,,26,26,31,11,17,107,70,99,89,13,10,3,3,0.6,0.6
2023-10-26T20:00:00,1366A,114.0678,22.738,深圳市,观澜,颗粒物(PM10),51,51,57,19,29,162,61,133,124,56,35,4,5,0.4,0.5
2023-10-26T20:00:00,1367A,113.5814,22.2618,珠海市,吉大,,29,24,29,13,18,128,91,106,106,16,15,6,6,0.5,0.5
2023-10-26T20:00:00,1368A,113.4881,22.2335,珠海市,前山,,23,22,27,16,15,116,68,103,99,37,24,7,7,0.5,0.4
2023-10-26T20:00:00,1369A,113.628,22.4251,珠海市,唐家,,35,35,37,11,22,156,88,121,121,16,18,4,4,0.4,0.4
2023-10-26T20:00:00,1370A,113.299,22.2281,珠海市,斗门,,33,28,29,23,22,129,78,114,112,26,17,9,8,0.5,0.5
2023-10-26T20:00:00,1371A,113.1294,23.0067,佛山市,湾梁,颗粒物(PM10),52,53,52,25,28,205,77,168,162,57,31,9,9,0.7,0.6
2023-10-26T20:00:00,1372A,113.1083,23.0478,佛山市,华材职中,颗粒物(PM10),51,51,53,28,33,204,105,170,168,31,28,7,7,0.5,0.5
2023-10-26T20:00:00,1373A,113.144,23.0453,佛山市,南海气象局,颗粒物(PM10),54,57,54,28,34,210,92,160,158,52,36,8,8,0.5,0.5
2023-10-26T20:00:00,1374A,113.2881,22.8094,佛山市,顺德苏岗,颗粒物(PM10),51,51,47,29,29,151,90,121,121,35,31,8,8,0.6,0.7
2023-10-26T20:00:00,1376A,112.8383,22.8678,佛山市,高明孔堂,,45,39,45,24,28,191,141,166,166,12,15,5,6,0.5,0.6
2023-10-26T20:00:00,1377A,112.8836,23.1588,佛山市,三水监测站,颗粒物(PM10),80,110,105,41,55,277,83,217,211,107,69,5,6,1.0,0.9
2023-10-26T20:00:00,1378A,112.867,23.185,佛山市,三水云东海,颗粒物(PM10),60,70,81,32,59,266,131,205,204,42,43,4,6,0.7,0.7
2023-10-26T20:00:00,1379A,113.3769,22.5211,中山市,华柏园,,45,45,36,31,23,122,88,107,107,35,23,4,3,0.4,0.3
2023-10-26T20:00:00,1380A,113.3881,22.5497,中山市,张溪,颗粒物(PM10),60,70,49,16,27,136,84,108,108,42,26,3,3,0.5,0.5
2023-10-26T20:00:00,1381A,113.4075,22.5111,中山市,紫马岭,,32,29,31,22,23,133,80,112,111,28,18,4,4,0.4,0.4
2023-10-26T20:00:00,1382A,113.4411,22.4853,中山市,长江旅游区,,,,,,,,,,,,,,,,
2023-10-26T20:00:00,1383A,113.1064,22.6058,江门市,北街,细颗粒物(PM2.5),53,48,45,37,32,220,104,171,170,23,20,7,7,0.6,0.5
2023-10-26T20:00:00,1384A,113.0731,22.5835,江门市,西区,颗粒物(PM10),57,63,50,36,27,206,115,168,168,26,27,7,7,0.6,0.5
2023-10-26T20:00:00,1385A,113.0219,22.5311,江门市,圭峰西,,37,37,43,21,24,159,114,144,144,25,23,5,5,0.7,0.6
2023-10-26T20:00:00,1386A,113.0828,22.5947,江门市,东湖,颗粒物(PM10),51,52,49,31,26,213,115,171,171,19,20,6,6,0.7,0.6
2023-10-26T20:00:00,1389A,113.7547,23.0494,东莞市,莞城梨川,颗粒物(PM10),61,72,56,40,33,232,142,203,203,38,33,9,7,0.7,0.8
2023-10-26T20:00:00,1390A,113.7944,23.0128,东莞市,东城石井,颗粒物(PM10),57,64,57,36,34,224,108,178,174,23,23,6,6,0.7,0.7
2023-10-26T20:00:00,1391A,113.7383,22.9658,东莞市,南城西平,颗粒物(PM10),55,59,52,30,32,217,126,187,187,33,33,3,3,0.9,0.8
2023-10-26T20:00:00,1392A,114.4183,23.0528,惠州市,河南岸金山湖子站,,49,49,45,27,29,156,97,142,138,16,11,6,7,0.5,0.5
2023-10-26T20:00:00,1393A,114.4053,23.0822,惠州市,下埔横江三路子站,颗粒物(PM10),53,55,52,32,31,159,92,145,141,28,16,9,9,0.7,0.7
2023-10-26T20:00:00,1394A,114.4103,23.1142,惠州市,江北云山西路子站,颗粒物(PM10),55,60,51,32,30,176,98,165,159,27,15,8,8,0.6,0.6
2023-10-26T20:00:00,1395A,114.4645,22.7833,惠州市,惠阳区承修路船湖子站,,42,42,42,18,22,133,62,110,102,20,16,5,6,0.8,0.7
2023-10-26T20:00:00,1396A,114.5317,22.7422,惠州市,大亚湾管委会子站,,,,48,,20,123,61,101,93,42,27,5,6,0.6,0.7
2023-10-26T20:00:00,1397A,112.4267,23.0706,肇庆市,睦岗子站,细颗粒物(PM2.5),67,72,76,48,48,179,77,156,148,63,50,9,11,0.8,0.7
2023-10-26T20:00:00,1398A,112.4645,23.0475,肇庆市,城中子站,细颗粒物(PM2.5),59,64,75,42,55,176,98,154,152,58,50,9,14,0.7,0.8
2023-10-26T20:00:00,1399A,112.5544,23.1522,肇庆市,坑口子站,,46,43,56,32,43,168,114,145,145,20,26,9,10,0.6,0.6
2023-10-26T20:00:00,1400A,112.4753,23.1,肇庆市,七星岩子站,,,,,,,,,,,,,,,,
2023-10-26T20:00:00,1401A,108.3103,22.7881,南宁市,二十一中,,30,29,38,21,22,144,69,115,109,28,31,6,9,0.9,0.9
2023-10-26T20:00:00,1402A,108.3141,22.8528,南宁市,北湖,,35,32,51,24,29,149,76,116,113,15,25,5,14,0.7,0.8
2023-10-26T20:00:00,1403A,108.3206,22.8225,南宁市,市监测站,,32,29,43,22,26,141,61,108,105,39,38,9,16,0.7,0.7
2023-10-26T20:00:00,1404A,108.3829,22.8037,南宁市,大自然花园,,30,26,34,21,21,129,74,113,108,21,19,7,9,0.7,0.7
2023-10-26T20:00:00,1405A,108.4394,22.7904,南宁市,仙葫,细颗粒物(PM2.5),58,44,47,41,29,125,68,112,105,22,28,6,7,0.7,0.7
2023-10-26T20:00:00,1406A,108.2397,22.8467,南宁市,区农职院,,44,44,50,17,24,135,43,107,99,46,35,7,12,0.7,0.7
2023-10-26T20:00:00,1407A,108.3275,22.735,南宁市,英华嘉园,颗粒物(PM10),53,56,52,34,23,114,17,93,81,80,42,7,8,0.9,0.8
2023-10-26T20:00:00,1408A,108.2257,22.7757,南宁市,沙井镇街道办,细颗粒物(PM2.5),62,72,68,44,28,123,48,102,96,40,41,82,14,0.7,0.8
2023-10-26T20:00:00,1409A,110.576,19.9507,海口市,东寨港,,,,,,,,,,,,,,,,
2023-10-26T20:00:00,1410A,110.3232,20.0574,海口市,海南大学,,19,15,22,8,11,107,60,71,60,11,7,6,6,0.5,0.5
2023-10-26T20:00:00,1411A,110.283,20.0053,海口市,秀英海南医院,,22,22,27,9,11,99,48,82,52,10,7,7,7,0.4,0.4
2023-10-26T20:00:00,1412A,110.338,19.9969,海口市,海南师范大学,,24,24,28,8,13,94,40,76,49,19,11,5,5,0.4,0.4
2023-10-26T20:00:00,1413A,110.33,20.0356,海口市,龙华路环保局宿舍,,19,18,25,10,12,102,60,84,57,9,8,8,8,0.3,0.3
2023-10-26T20:00:00,1414A,106.3787,29.8279,重庆市,缙云山,,20,20,55,7,33,84,48,56,44,13,13,7,7,0.3,0.3
2023-10-26T20:00:00,1416A,106.4213,29.8253,重庆市,天生,细颗粒物(PM2.5),65,74,62,47,47,29,4,18,16,48,35,6,6,1.1,1
2023-10-26T20:00:00,1417A,106.6263,29.7228,重庆市,两路,,29,19,52,20,40,24,8,12,12,49,49,6,6,1.1,1.1
2023-10-26T20:00:00,1418A,106.2953,29.5983,重庆市,虎溪,细颗粒物(PM2.5),55,40,48,39,44,38,5,26,14,55,36,4,5,0.9,0.6
2023-10-26T20:00:00,1419A,106.5777,29.5102,重庆市,南坪,,,,61,46,49,56,,34,,25,25,7,9,0.9,0.9
2023-10-26T20:00:00,1420A,106.6556,29.6277,重庆市,唐家沱,,48,46,64,33,45,14,2,9,6,57,45,7,7,1.1,1
2023-10-26T20:00:00,1421A,106.6349,29.4906,重庆市,茶园,细颗粒物(PM2.5),52,45,50,36,33,58,21,47,43,48,34,5,5,1.0,0.8
2023-10-26T20:00:00,1422A,106.3754,29.4572,重庆市,白市驿,,45,41,49,31,41,43,18,38,32,29,19,6,7,0.6,0.6
2023-10-26T20:00:00,1425A,106.6205,29.7166,重庆市,空港,,42,29,67,29,45,26,14,17,15,49,54,4,5,1.1,1.1
2023-10-26T20:00:00,1426A,106.4782,29.4875,重庆市,新山村,细颗粒物(PM2.5),72,60,70,52,50,27,9,21,16,58,48,8,10,1.0,0.8
2023-10-26T20:00:00,1427A,106.5616,29.6453,重庆市,礼嘉,,47,47,63,27,44,31,5,17,9,61,53,8,9,1.1,1
2023-10-26T20:00:00,1428A,106.4522,29.7091,重庆市,蔡家,,48,35,62,33,41,39,11,25,16,44,34,6,6,0.8,0.8
2023-10-26T20:00:00,1429A,106.5093,29.3917,重庆市,鱼新街,细颗粒物(PM2.5),59,52,57,42,39,38,11,26,25,63,47,6,7,1.2,1.1
2023-10-26T20:00:00,1431A,103.9728,30.7236,成都市,金泉两河,,30,30,54,4,32,31,11,18,18,22,35,2,2,0.3,0.7
2023-10-26T20:00:00,1432A,104.176,30.6872,成都市,十里店,,36,34,58,25,42,27,16,21,21,38,44,3,2,0.6,0.7
2023-10-26T20:00:00,1433A,104.079,30.5706,成都市,三瓦窑,,32,32,73,18,48,38,7,9,8,28,35,2,3,0.5,0.7
2023-10-26T20:00:00,1434A,104.1114,30.63,成都市,沙河铺,,40,40,67,25,47,18,4,7,7,31,34,1,1,0.6,0.8
2023-10-26T20:00:00,1437A,104.0786,30.6531,成都市,君平街,,33,33,73,22,50,24,16,17,17,45,57,2,2,0.5,0.9
2023-10-26T20:00:00,1438A,103.613,31.0283,成都市,灵岩寺,,12,1,15,5,15,83,37,56,52,13,11,12,14,0.3,0.4
2023-10-26T20:00:00,1439A,106.6899,26.5998,贵阳市,马鞍山,,36,36,45,22,36,69,41,60,56,18,14,4,4,0.6,0.3
2023-10-26T20:00:00,1440A,106.6971,26.5694,贵阳市,市环保站,,42,34,52,29,46,97,57,81,63,30,23,3,4,0.5,0.5
2023-10-26T20:00:00,1441A,106.6243,26.6266,贵阳市,鉴湖路,,39,31,47,27,35,81,52,71,62,16,13,2,2,0.7,0.5
2023-10-26T20:00:00,1442A,106.7487,26.6343,贵阳市,燕子冲,,49,39,48,34,43,69,48,59,56,20,15,4,6,0.5,0.6
2023-10-26T20:00:00,1443A,106.6555,26.4365,贵阳市,碧云窝,,41,41,53,22,38,78,57,68,61,23,19,5,5,0.6,0.6
2023-10-26T20:00:00,1444A,106.694,26.5161,贵阳市,中院村,,49,44,56,34,43,80,49,67,51,29,26,2,2,0.6,0.5
2023-10-26T20:00:00,1445A,106.7109,26.6027,贵阳市,红边门,细颗粒物(PM2.5),55,44,52,39,48,88,49,79,65,27,17,3,5,0.6,0.6
2023-10-26T20:00:00,1446A,106.7164,26.5699,贵阳市,新华路,细颗粒物(PM2.5),52,39,49,36,46,90,57,77,66,24,18,6,6,0.5,0.5
2023-10-26T20:00:00,1447A,106.674,26.5424,贵阳市,太慈桥,,42,34,41,29,37,61,36,51,48,35,23,3,4,0.7,0.6
2023-10-26T20:00:00,1450A,102.8204,24.8886,昆明市,呈贡新区,,26,26,22,10,12,73,36,61,58,25,23,8,7,0.7,0.9
2023-10-26T20:00:00,1451A,102.6251,24.9608,昆明市,西山森林公园,,18,10,12,9,9,74,57,67,67,6,6,6,5,0.5,0.6
2023-10-26T20:00:00,1452A,102.7252,25.0902,昆明市,龙泉镇,,32,32,19,13,10,76,14,62,57,38,20,8,9,1.0,0.9
2023-10-26T20:00:00,1453A,102.7266,25.0375,昆明市,东风东路,,22,22,19,12,12,76,37,62,60,23,19,8,9,0.7,0.6
2023-10-26T20:00:00,1454A,102.6742,25.0669,昆明市,金鼎山,,,,22,6,13,78,31,67,63,29,20,10,16,,0.5
2023-10-26T20:00:00,1455A,102.6644,25.0401,昆明市,碧鸡广场,,25,25,21,16,14,75,26,61,57,35,20,7,7,0.9,0.8
2023-10-26T20:00:00,1456A,91.1319,29.6514,拉萨市,八廓街,,25,25,21,10,12,110,70,100,98,35,23,12,12,0.4,0.3
2023-10-26T20:00:00,1457A,91.1221,29.6747,拉萨市,市环保局,,22,21,29,13,13,114,69,104,102,35,27,7,9,0.7,0.8
2023-10-26T20:00:00,1458A,91.0874,29.6475,拉萨市,区监测站,,20,11,18,6,9,107,63,98,96,39,26,8,9,0.4,0.4
2023-10-26T20:00:00,1459A,91.1774,29.6541,拉萨市,西藏大学,,27,23,18,7,8,107,85,98,98,21,23,9,9,0.3,0.5
2023-10-26T20:00:00,1460A,90.9798,29.6588,拉萨市,区辐射站,,24,22,24,9,10,102,74,95,95,33,26,6,6,0.5,0.5
2023-10-26T20:00:00,1461A,91.0834,29.6292,拉萨市,拉萨火车站,,23,18,19,8,9,99,72,90,90,31,22,6,7,0.5,0.6
2023-10-26T20:00:00,1462A,108.882,34.2749,西安市,高压开关厂,颗粒物(PM10),80,109,106,44,43,119,5,71,66,113,68,14,13,1.2,1
2023-10-26T20:00:00,1463A,108.993,34.2629,西安市,兴庆小区,颗粒物(PM10),71,92,62,33,28,100,9,76,71,108,54,8,7,1.0,0.6
2023-10-26T20:00:00,1464A,109.06,34.2572,西安市,纺织城,颗粒物(PM10),79,108,79,54,36,97,11,72,61,81,56,6,7,0.8,0.7
2023-10-26T20:00:00,1465A,108.9356,34.2173,西安市,小寨,颗粒物(PM10),75,100,67,42,30,98,6,71,66,106,61,10,9,1.8,0.9
2023-10-26T20:00:00,1466A,108.954,34.2713,西安市,市人民体育场,颗粒物(PM10),71,91,76,34,38,118,6,73,67,114,63,7,7,1.2,0.8
2023-10-26T20:00:00,1467A,108.8922,34.2322,西安市,高新西区,颗粒物(PM10),81,111,81,56,42,106,12,77,72,107,62,8,9,1.2,1
2023-10-26T20:00:00,1468A,108.935,34.3474,西安市,经开区,颗粒物(PM10),76,102,86,32,40,81,2,53,49,108,69,6,6,1.0,0.9
2023-10-26T20:00:00,1469A,108.906,34.1546,西安市,长安区,颗粒物(PM10),60,70,59,25,26,105,20,79,76,73,48,7,7,0.8,0.6
2023-10-26T20:00:00,1471A,109.2186,34.3731,西安市,临潼区,,49,49,64,29,32,88,57,68,68,34,39,8,7,0.7,0.7
2023-10-26T20:00:00,1472A,108.869,34.378,西安市,草滩,颗粒物(PM10),70,90,120,21,40,95,16,61,60,78,73,7,15,0.6,0.8
2023-10-26T20:00:00,1473A,108.985,34.1978,西安市,曲江文化产业集团,颗粒物(PM10),79,107,63,40,26,110,2,78,70,108,62,6,6,1.3,1.1
2023-10-26T20:00:00,1474A,109.051,34.3213,西安市,广运潭,颗粒物(PM10),93,136,72,37,29,67,2,47,44,95,56,11,8,1.1,0.7
2023-10-26T20:00:00,1476A,103.631,36.1031,兰州市,兰炼宾馆,细颗粒物(PM2.5),77,77,52,56,35,156,57,126,114,84,52,4,4,0.8,0.5
2023-10-26T20:00:00,1477A,104.1373,35.9454,兰州市,榆中兰大校区,,,,,,,,,,,,,,,,
2023-10-26T20:00:00,1478A,103.8412,36.0726,兰州市,生物制品所,细颗粒物(PM2.5),85,94,44,63,35,95,5,67,62,92,52,5,7,1.3,0.9
2023-10-26T20:00:00,1479A,103.831,36.0464,兰州市,铁路设计院,细颗粒物(PM2.5),68,84,54,49,35,102,13,65,60,110,63,9,10,1.3,1.1
2023-10-26T20:00:00,1483A,101.524,36.6867,西宁市,第五水厂,,,,,,,,,,,,,,,,
2023-10-26T20:00:00,1484A,105.9512,38.6016,银川市,贺兰山马莲口,,40,40,35,15,15,126,99,110,110,20,21,6,10,0.3,0.4
2023-10-26T20:00:00,1488A,106.2328,38.4975,银川市,贺兰山东路,颗粒物(PM10),78,106,81,41,42,151,95,122,122,67,66,16,18,0.8,0.9
2023-10-26T20:00:00,1489A,106.1358,38.5036,银川市,学院路,颗粒物(PM10),90,129,100,49,37,110,31,95,88,96,61,13,14,0.9,0.8
2023-10-26T20:00:00,1490A,87.5801,43.8303,乌鲁木齐市,监测站,颗粒物(PM10),84,117,92,47,30,67,22,43,43,110,67,9,7,0.9,0.9
2023-10-26T20:00:00,1491A,87.6046,43.768,乌鲁木齐市,收费所,颗粒物(PM10),86,122,97,51,37,98,6,49,47,130,60,7,4,1.1,0.8
2023-10-26T20:00:00,1492A,87.4754,43.9469,乌鲁木齐市,新疆农科院农场,颗粒物(PM10),80,110,143,42,44,106,44,62,60,42,56,19,6,1.3,1.1
2023-10-26T20:00:00,1493A,87.5525,43.8711,乌鲁木齐市,铁路局,颗粒物(PM10),90,130,107,49,37,96,43,53,53,75,67,7,6,0.9,1.1
2023-10-26T20:00:00,1494A,87.6432,43.831,乌鲁木齐市,三十一中学,颗粒物(PM10),92,134,90,52,30,68,26,46,45,88,54,7,9,0.7,0.6
2023-10-26T20:00:00,1496A,87.7216,44.1747,乌鲁木齐市,米东区环保局,颗粒物(PM10),71,92,97,19,31,80,66,69,69,16,41,16,8,0.6,0.6
2023-10-26T20:00:00,1508A,112.9433,27.8614,湘潭市,板塘,细颗粒物(PM2.5),102,86,43,76,37,65,48,56,46,24,19,7,7,0.6,0.6
2023-10-26T20:00:00,1511A,112.9118,27.8403,湘潭市,市监测站,细颗粒物(PM2.5),102,81,40,76,38,82,41,70,54,30,18,4,4,1.0,0.7
2023-10-26T20:00:00,1512A,112.8937,27.8728,湘潭市,江麓,细颗粒物(PM2.5),100,77,48,75,40,82,35,68,59,34,16,6,7,0.7,0.6
2023-10-26T20:00:00,1513A,112.9227,27.8159,湘潭市,岳塘,细颗粒物(PM2.5),122,80,39,92,44,86,35,72,54,38,15,11,10,1.2,0.8
2023-10-26T20:00:00,1514A,112.9074,27.9119,湘潭市,科大,细颗粒物(PM2.5),87,71,46,64,40,78,22,62,48,39,19,7,7,0.5,0.4
2023-10-26T20:00:00,1515A,113.135,27.8244,株洲市,天台山庄,细颗粒物(PM2.5),90,74,36,67,29,70,34,58,46,33,21,5,6,0.8,0.5
2023-10-26T20:00:00,1518A,113.095,27.8867,株洲市,株冶医院,颗粒物(PM10),68,86,33,46,27,75,9,62,32,46,18,5,5,0.9,0.6
2023-10-26T20:00:00,1519A,113.167,27.8667,株洲市,市四中,颗粒物(PM10),56,61,31,36,23,71,33,63,56,25,13,4,4,0.7,0.6
2023-10-26T20:00:00,1520A,113.143,27.8381,株洲市,火车站,细颗粒物(PM2.5),65,66,34,47,23,68,25,59,52,38,18,5,5,0.9,0.7
2023-10-26T20:00:00,1524A,113.13,27.8528,株洲市,市监测站,细颗粒物(PM2.5),72,82,37,52,28,176,20,76,42,43,20,6,6,1.1,0.7
2023-10-26T20:00:00,1552A,106.805,26.3003,贵阳市,桐木岭,,,,,,,,,,,,,,,,
2023-10-26T20:00:00,1559A,113.251,27.8336,株洲市,大京风景区,,43,38,27,30,21,71,9,60,40,7,7,5,4,0.5,0.4
2023-10-26T20:00:00,1562A,113.0048,27.9153,湘潭市,昭山,细颗粒物(PM2.5),72,90,45,52,34,76,16,60,43,53,22,5,4,0.9,0.6
2023-10-26T20:00:00,1564A,112.4876,27.9164,湘潭市,韶山,颗粒物(PM10),62,73,42,37,26,97,39,95,65,17,9,6,19,0.7,0.7
2023-10-26T20:00:00,1585A,109.8756,40.6532,包头市,市环境监测站,颗粒物(PM10),69,87,60,32,25,82,7,68,60,87,37,17,25,1.5,1
2023-10-26T20:00:00,1587A,109.9991,40.5842,包头市,包头八中,颗粒物(PM10),63,75,74,33,22,92,8,71,63,86,49,13,25,1.0,0.9
2023-10-26T20:00:00,1588A,109.8538,40.6821,包头市,青山宾馆,颗粒物(PM10),71,91,60,39,21,84,11,64,56,82,42,15,28,1.3,1.2
2023-10-26T20:00:00,1589A,109.8642,40.6288,包头市,惠龙物流,颗粒物(PM10),67,84,68,40,29,86,12,67,60,85,43,17,31,1.0,1
2023-10-26T20:00:00,1590A,110.0377,40.5546,包头市,东河鸿龙湾,颗粒物(PM10),62,73,61,23,18,98,11,82,74,86,43,17,24,0.8,0.5
2023-10-26T20:00:00,1591A,110.0023,39.8129,鄂尔多斯市,综合楼,颗粒物(PM10),52,53,52,14,9,90,31,84,76,67,30,4,6,0.9,0.6
2023-10-26T20:00:00,1592A,109.9486,39.8261,鄂尔多斯市,巴音孟克林场办事处,颗粒物(PM10),68,85,44,39,14,89,6,84,69,94,41,11,8,2.1,0.5
2023-10-26T20:00:00,1593A,109.7736,39.5986,鄂尔多斯市,康泽苑,,,48,40,13,12,95,,84,84,60,23,,4,0.6,0.4
2023-10-26T20:00:00,1594A,109.8119,39.5989,鄂尔多斯市,华泰汽车城,颗粒物(PM10),52,53,43,14,11,95,6,78,68,84,38,6,4,1.0,0.4
2023-10-26T20:00:00,1595A,109.9734,39.7884,鄂尔多斯市,奥林花园,颗粒物(PM10),76,102,59,27,12,89,4,81,66,85,39,12,12,1.0,0.6
2023-10-26T20:00:00,1597A,122.2703,40.7094,营口市,大庆路,颗粒物(PM10),56,61,60,31,20,84,14,68,51,58,23,8,5,0.6,0.3
2023-10-26T20:00:00,1598A,122.2150,40.6511,营口市,镜湖西路,,38,38,39,14,13,109,40,64,57,36,19,4,6,0.7,0.6
2023-10-26T20:00:00,1599A,122.1658,40.6789,营口市,西炮台,,39,39,45,15,16,97,30,65,54,51,23,6,8,0.4,0.4
2023-10-26T20:00:00,1600A,124.3303,40.0625,丹东市,江湾东路,,28,28,45,6,22,117,71,78,78,11,17,6,7,0.5,0.7
2023-10-26T20:00:00,1601A,124.4256,40.1503,丹东市,临江后街,,26,26,40,5,18,123,74,77,77,12,18,5,6,0.5,0.6
2023-10-26T20:00:00,1602A,124.3933,40.1461,丹东市,元宝山,,23,23,37,11,19,119,66,72,69,13,14,6,6,0.4,0.5
2023-10-26T20:00:00,1603A,124.3633,40.1092,丹东市,民主桥,,37,37,45,5,17,111,59,69,67,18,18,6,7,0.5,0.7
2023-10-26T20:00:00,1604A,122.0303,41.1489,盘锦市,开发区,,35,35,32,10,7,117,39,69,63,41,16,32,9,0.4,0.3
2023-10-26T20:00:00,1605A,122.0485,41.0883,盘锦市,兴隆台,,38,38,32,13,14,145,37,70,63,47,22,25,10,0.4,0.3
2023-10-26T20:00:00,1606A,121.8297,41.1028,盘锦市,新生街道,,29,29,32,10,6,115,26,64,50,40,25,7,7,0.5,0.5
2023-10-26T20:00:00,1607A,120.9092,40.7136,葫芦岛市,龙港区,,29,24,49,20,15,70,34,63,59,42,34,14,37,0.7,0.6
2023-10-26T20:00:00,1608A,120.8392,40.7514,葫芦岛市,化工街,颗粒物(PM10),96,141,53,46,9,75,9,70,54,68,17,21,10,1.1,0.4
2023-10-26T20:00:00,1609A,120.8341,40.7073,葫芦岛市,新区,,,,38,,4,78,,66,,,19,,13,,0.3
2023-10-26T20:00:00,1610A,120.8695,40.7677,葫芦岛市,东城区,细颗粒物(PM2.5),107,120,38,80,9,77,5,69,50,75,20,16,13,1.3,0.5
2023-10-26T20:00:00,1611A,118.5819,24.9117,泉州市,涂山街,,28,28,31,18,16,143,80,113,107,12,14,4,5,0.6,0.6
2023-10-26T20:00:00,1612A,118.5972,24.8978,泉州市,津头埔,,28,28,27,17,14,130,75,108,101,18,16,2,4,0.6,0.6
2023-10-26T20:00:00,1613A,118.6663,24.9424,泉州市,万安,,31,31,29,15,14,147,80,120,114,10,15,4,5,0.5,0.6
2023-10-26T20:00:00,1614A,118.6117,24.9604,泉州市,清源山,,,,,,,,,,,,,,,,
2023-10-26T20:00:00,1616A,117.6795,36.229,济南市,技术学院,颗粒物(PM10),51,51,129,7,49,128,61,111,93,33,63,7,12,0.5,1
2023-10-26T20:00:00,1618A,118.3429,35.0532,临沂市,沂河小区,颗粒物(PM10),60,70,148,16,75,179,70,145,137,21,54,5,16,0.2,0.7
2023-10-26T20:00:00,1619A,118.295,35.0583,临沂市,鲁南制药厂,颗粒物(PM10),58,66,158,11,71,193,80,155,147,15,56,5,16,0.4,1
2023-10-26T20:00:00,1620A,118.2794,34.9976,临沂市,新光毛纺厂,颗粒物(PM10),58,66,151,14,80,193,74,158,147,23,59,6,17,0.6,1.1
2023-10-26T20:00:00,1621A,118.3956,35.0888,临沂市,河东保险公司,颗粒物(PM10),57,63,141,20,68,176,64,144,134,23,49,3,11,0.5,1
2023-10-26T20:00:00,1622A,116.3032,37.4674,德州市,儿童乐园,颗粒物(PM10),63,75,127,19,43,94,40,80,75,42,51,8,15,0.6,0.8
2023-10-26T20:00:00,1624A,116.2991,37.4451,德州市,监理站,颗粒物(PM10),57,64,126,7,50,86,46,78,73,38,44,9,15,0.4,0.7
2023-10-26T20:00:00,1625A,115.9848,36.4372,聊城市,区政府,颗粒物(PM10),67,84,178,14,91,109,75,97,96,25,58,5,11,0.4,1.1
2023-10-26T20:00:00,1628A,118.0062,37.3803,滨州市,市环保局,,,,,,,,,,,,,,,,
2023-10-26T20:00:00,1629A,118.0018,37.3617,滨州市,第二水厂,,44,44,114,11,50,114,31,78,68,45,30,8,13,0.4,0.8
2023-10-26T20:00:00,1630A,117.9776,37.393,滨州市,北中新校,,41,41,112,12,50,106,44,77,67,35,31,10,14,0.5,0.8
2023-10-26T20:00:00,1631A,118.0414,36.8103,淄博市,人民公园,,41,41,103,12,45,86,46,80,73,35,58,3,9,0.3,0.6
2023-10-26T20:00:00,1633A,117.8525,36.4847,淄博市,双山,颗粒物(PM10),58,66,116,14,58,99,46,86,79,30,36,6,9,0.4,0.7
2023-10-26T20:00:00,1634A,117.9592,36.6331,淄博市,气象站,颗粒物(PM10),58,66,96,17,49,101,41,80,76,40,45,7,10,0.8,0.6
2023-10-26T20:00:00,1635A,118.3092,36.8194,淄博市,莆田园,,39,39,106,14,44,87,40,79,71,40,44,2,11,0.3,1
2023-10-26T20:00:00,1637A,117.558,34.8438,枣庄市,市中区政府,颗粒物(PM10),103,156,158,46,96,198,102,173,168,36,58,5,15,0.5,1.1
2023-10-26T20:00:00,1638A,117.2852,34.7837,枣庄市,薛城环保局,颗粒物(PM10),111,171,134,68,83,188,141,146,144,42,57,9,12,0.9,1
2023-10-26T20:00:00,1639A,117.5852,34.7745,枣庄市,峄城区政府,颗粒物(PM10),101,151,138,39,88,206,110,184,181,33,43,16,15,0.5,0.7
2023-10-26T20:00:00,1640A,117.7276,34.5578,枣庄市,台儿庄区环保局,颗粒物(PM10),114,178,122,85,83,185,110,155,155,44,57,13,8,1.0,0.9
2023-10-26T20:00:00,1641A,117.4518,35.0992,枣庄市,山亭区环保局,颗粒物(PM10),89,127,128,39,74,220,118,197,190,32,39,6,11,0.8,1
2023-10-26T20:00:00,1642A,121.2514,37.5639,烟台市,开发区,,34,34,86,5,35,139,75,113,76,7,21,7,9,0.4,0.7
2023-10-26T20:00:00,1643A,121.3719,37.5433,烟台市,轴承厂,,27,27,89,7,47,156,74,118,76,14,18,4,7,0.1,0.4
2023-10-26T20:00:00,1644A,121.3181,37.5436,烟台市,西郊化工站,,25,24,84,3,35,165,77,112,77,12,20,4,6,0.1,0.4
2023-10-26T20:00:00,1645A,121.4478,37.4822,烟台市,莱山环保局,,23,19,84,1,40,169,72,127,72,6,16,5,8,0.3,0.6
2023-10-26T20:00:00,1646A,121.2611,37.4967,烟台市,福山环保局,,29,29,91,7,38,120,74,89,74,11,27,5,8,0.3,0.6
2023-10-26T20:00:00,1650A,119.1437,36.7023,潍坊市,环保局,,29,29,96,4,38,88,68,83,80,22,48,5,8,0.4,0.6
2023-10-26T20:00:00,1653A,116.6251,35.4302,济宁市,火炬城,颗粒物(PM10),88,126,132,27,78,188,66,144,138,39,46,14,17,0.8,0.9
2023-10-26T20:00:00,1655A,116.5491,35.4042,济宁市,电化厂,颗粒物(PM10),99,148,166,22,78,188,70,144,138,36,51,9,13,0.8,0.9
2023-10-26T20:00:00,1656A,117.1437,36.1937,泰安市,监测站,颗粒物(PM10),60,70,133,21,74,185,69,143,127,27,48,16,14,0.7,1.2
2023-10-26T20:00:00,1657A,117.0885,36.2017,泰安市,人口学校,颗粒物(PM10),62,73,123,27,73,194,74,154,141,24,37,6,12,0.6,1
2023-10-26T20:00:00,1658A,117.1089,36.1758,泰安市,电力学校,颗粒物(PM10),65,80,146,26,74,180,72,142,127,17,56,12,13,0.3,0.9
2023-10-26T20:00:00,1659A,119.471,35.4209,日照市,监测站,,41,41,115,7,69,156,64,126,112,19,52,8,11,0.5,1
2023-10-26T20:00:00,1660A,119.523,35.4216,日照市,市政府广场,,48,48,122,9,61,184,69,147,129,27,40,4,12,0.3,0.8
2023-10-26T20:00:00,1661A,119.5587,35.4044,日照市,港务局,,48,48,121,8,63,180,73,148,131,19,42,7,14,0.7,1.1
2023-10-26T20:00:00,1662A,122.1214,37.4236,威海市,华夏技校,,23,22,66,3,50,178,71,144,76,12,20,2,4,0.3,0.7
2023-10-26T20:00:00,1663A,122.0508,37.5236,威海市,山大分校,,29,29,72,2,35,174,73,144,78,9,13,4,7,0.3,0.6
2023-10-26T20:00:00,1664A,122.1067,37.5072,威海市,市监测站,,,,83,,36,179,66,143,73,13,15,6,9,0.4,0.8
2023-10-26T20:00:00,1666A,118.6614,37.4309,东营市,市环保局,,22,22,74,5,31,112,63,82,77,18,24,4,10,0.4,0.5
2023-10-26T20:00:00,1669A,113.5824,24.7733,韶关市,市八中,,40,34,44,28,28,188,74,134,126,10,20,9,16,0.6,0.8
2023-10-26T20:00:00,1671A,113.5917,24.7972,韶关市,园林处,,36,27,44,25,33,168,75,140,129,6,20,11,21,0.8,0.8
2023-10-26T20:00:00,1672A,113.6735,24.7791,韶关市,韶关学院,,46,31,50,32,36,185,59,147,141,21,21,13,18,1.1,1
2023-10-26T20:00:00,1673A,113.5971,24.6863,韶关市,曲江监测站,,42,30,53,29,35,178,58,130,121,14,23,8,14,0.6,0.8
2023-10-26T20:00:00,1674A,116.6794,23.3667,汕头市,金平子站,,36,14,24,14,14,125,115,118,118,10,10,6,6,0.6,0.6
2023-10-26T20:00:00,1675A,116.7244,23.3633,汕头市,龙湖子站,,36,27,25,11,15,128,114,122,122,14,11,6,6,0.5,0.5
2023-10-26T20:00:00,1676A,116.7258,23.2775,汕头市,濠江子站,,35,35,23,10,14,124,100,115,115,16,9,8,8,0.6,0.6
2023-10-26T20:00:00,1677A,116.7519,23.4714,汕头市,澄海子站,,,,25,,19,78,,79,,,13,,11,,0.5
2023-10-26T20:00:00,1678A,116.6092,23.2539,汕头市,潮阳子站,,34,29,26,9,13,120,108,114,114,9,8,8,8,0.4,0.4
2023-10-26T20:00:00,1680A,110.3539,21.2706,湛江市,湛江影剧院,,29,29,36,11,19,126,71,99,80,11,8,5,7,0.5,0.5
2023-10-26T20:00:00,1681A,110.3928,21.2228,湛江市,市环境监测站,,26,19,29,9,23,121,81,95,78,6,9,2,3,0.6,0.6
2023-10-26T20:00:00,1682A,110.4019,21.1997,湛江市,环保局宿舍,,28,28,31,16,28,120,77,97,79,14,10,3,4,0.6,0.6
2023-10-26T20:00:00,1683A,110.4111,21.2028,湛江市,霞山游泳场,,27,20,29,11,19,124,85,92,80,8,7,4,5,0.6,0.6
2023-10-26T20:00:00,1684A,110.3316,21.2679,湛江市,麻章区环保局,,26,26,34,8,24,124,62,92,75,14,10,3,4,0.7,0.7
2023-10-26T20:00:00,1685A,110.4558,21.2567,湛江市,坡头区环保局,,31,20,30,12,22,128,97,98,89,5,7,3,6,0.4,0.5
2023-10-26T20:00:00,1686A,111.0286,21.4688,茂名市,电白南海,,27,27,45,17,28,114,80,88,85,9,15,8,11,0.6,0.7
2023-10-26T20:00:00,1687A,110.9294,21.6533,茂名市,茂石化七小,,44,44,52,22,31,114,60,105,98,20,12,8,9,0.4,0.4
2023-10-26T20:00:00,1688A,110.9107,21.6687,茂名市,健康路,,48,48,43,29,25,121,66,110,104,16,11,12,14,0.5,0.3
2023-10-26T20:00:00,1689A,110.8592,21.6828,茂名市,高岭,颗粒物(PM10),53,56,53,36,38,119,56,110,102,20,16,9,15,0.5,0.6
2023-10-26T20:00:00,1690A,116.1231,24.3284,梅州市,梅江月梅,细颗粒物(PM2.5),55,48,53,39,36,165,91,136,130,11,23,5,6,0.6,0.6
2023-10-26T20:00:00,1691A,116.0797,24.2719,梅州市,梅县新城,颗粒物(PM10),76,101,56,52,36,134,61,122,109,26,25,7,7,1.0,0.9
2023-10-26T20:00:00,1692A,116.1248,24.2654,梅州市,环境监控中心,细颗粒物(PM2.5),94,87,54,70,35,141,23,122,96,50,31,8,8,1.0,0.7
2023-10-26T20:00:00,1693A,115.3653,22.775,汕尾市,市环保局,,25,25,27,14,17,117,77,107,104,18,10,13,12,0.5,0.6
2023-10-26T20:00:00,1694A,115.3706,22.7898,汕尾市,市政府,,24,18,30,9,22,114,74,112,106,23,10,9,8,0.5,0.5
2023-10-26T20:00:00,1695A,115.3622,22.7925,汕尾市,新城中学,,26,26,34,17,22,123,72,108,105,18,8,10,9,0.5,0.6
2023-10-26T20:00:00,1696A,114.6778,23.7569,河源市,源西,细颗粒物(PM2.5),85,118,65,63,42,139,38,118,112,52,30,5,5,0.7,0.6
2023-10-26T20:00:00,1697A,114.6944,23.7586,河源市,东埔,细颗粒物(PM2.5),85,116,80,63,55,137,94,126,126,23,24,6,6,0.9,0.8
2023-10-26T20:00:00,1698A,114.6892,23.7233,河源市,老城,颗粒物(PM10),71,92,62,47,38,146,82,134,131,24,20,5,6,0.8,0.7
2023-10-26T20:00:00,1699A,111.9797,21.8593,阳江市,鸳鸯湖,,27,17,32,10,25,108,86,96,94,6,11,11,12,0.5,0.6
2023-10-26T20:00:00,1701A,111.9491,21.8658,阳江市,马南垌,,26,24,38,14,30,113,81,99,97,8,17,6,7,0.6,0.6
2023-10-26T20:00:00,1702A,113.0426,23.691,清远市,环保大楼,细颗粒物(PM2.5),107,121,72,80,54,243,181,212,212,48,32,10,11,1.2,0.9
2023-10-26T20:00:00,1703A,113.0208,23.7106,清远市,凤城街办,细颗粒物(PM2.5),93,119,83,69,48,256,175,221,221,52,33,11,12,1.0,0.7
2023-10-26T20:00:00,1705A,116.6367,23.6719,潮州市,西园路,细颗粒物(PM2.5),68,35,45,49,32,169,103,143,140,18,17,7,6,0.5,0.4
2023-10-26T20:00:00,1706A,116.6447,23.6706,潮州市,档案局,,33,32,43,21,28,179,103,150,146,19,17,10,7,0.6,0.6
2023-10-26T20:00:00,1708A,116.3701,23.5345,揭阳市,新兴,,50,50,44,34,27,167,93,151,142,17,16,9,11,0.7,0.6
2023-10-26T20:00:00,1709A,116.3264,23.5443,揭阳市,西马,颗粒物(PM10),56,62,46,27,23,173,102,151,147,13,13,8,9,0.6,0.7
2023-10-26T20:00:00,1710A,116.3611,23.5626,揭阳市,东兴,,48,48,47,18,22,180,108,156,153,15,14,9,9,1.2,0.8
2023-10-26T20:00:00,1711A,116.4151,23.5294,揭阳市,渔湖,,43,43,44,28,22,174,100,152,149,17,18,8,8,1.0,0.7
2023-10-26T20:00:00,1712A,112.0392,22.9169,云浮市,新市府,,42,38,47,29,33,126,76,114,107,7,8,7,6,0.8,0.9
2023-10-26T20:00:00,1714A,112.0539,22.9539,云浮市,牧羊,,49,44,61,34,38,148,86,131,124,24,31,12,11,0.6,0.7
2023-10-26T20:00:00,1715A,102.575,24.3711,玉溪市,东风水库,,13,13,20,3,13,55,34,47,45,9,13,7,8,0.7,0.9
2023-10-26T20:00:00,1718A,115.4208,35.2464,菏泽市,气象局,颗粒物(PM10),87,124,164,27,75,216,90,162,159,30,64,9,16,0.4,0.7
2023-10-26T20:00:00,1719A,115.4747,35.2375,菏泽市,市政协,颗粒物(PM10),86,122,160,29,82,213,88,164,160,31,60,9,14,0.3,0.5
2023-10-26T20:00:00,1721A,113.3819,40.1097,大同市,果树场,,,,,,,,,,,,,,,,
2023-10-26T20:00:00,1723A,113.2994,40.0758,大同市,云冈宾馆,,50,50,64,17,23,91,41,79,76,47,35,17,17,0.5,1
2023-10-26T20:00:00,1724A,113.3444,40.0917,大同市,大同大学,颗粒物(PM10),52,53,63,20,18,93,45,80,76,46,29,14,18,0.5,0.7
2023-10-26T20:00:00,1725A,113.2661,40.1269,大同市,安家小村,,28,27,66,6,17,97,88,92,92,7,26,13,17,0.2,1
2023-10-26T20:00:00,1726A,113.2711,40.0844,大同市,教育学院,颗粒物(PM10),55,60,74,12,23,91,49,81,77,40,39,15,17,0.4,0.9
2023-10-26T20:00:00,1727A,113.1147,36.1547,长治市,清华站,颗粒物(PM10),90,130,95,51,47,127,86,106,99,46,42,16,12,0.9,0.9
2023-10-26T20:00:00,1728A,113.1031,36.1989,长治市,监测站,细颗粒物(PM2.5),67,76,84,48,47,125,69,108,99,57,49,19,12,1.2,1.4
2023-10-26T20:00:00,1730A,113.0886,36.2125,长治市,审计局,细颗粒物(PM2.5),77,75,76,56,48,121,89,106,105,39,39,24,15,1.1,1.1
2023-10-26T20:00:00,1731A,113.0844,36.1856,长治市,长治八中,颗粒物(PM10),80,109,96,27,42,122,62,106,100,51,41,26,16,1.1,0.9
2023-10-26T20:00:00,1733A,111.5531,36.0783,临汾市,临钢医院,颗粒物(PM10),107,163,187,75,120,139,51,106,106,78,42,11,8,1.4,1.6
2023-10-26T20:00:00,1734A,111.5028,36.0714,临汾市,技工学校,细颗粒物(PM2.5),105,154,196,79,132,175,56,131,127,79,55,10,11,1.3,1.5
2023-10-26T20:00:00,1736A,111.5018,36.0855,临汾市,市委,细颗粒物(PM2.5),93,133,195,69,130,163,75,129,128,62,56,12,10,1.3,1.6
2023-10-26T20:00:00,1738A,113.5758,37.8572,阳泉市,市中心,颗粒物(PM10),87,123,92,47,44,99,81,91,91,47,70,11,20,0.3,0.6
2023-10-26T20:00:00,1739A,113.4894,37.8731,阳泉市,赛鱼,颗粒物(PM10),70,89,98,49,45,98,39,87,81,64,69,10,15,0.8,0.9
2023-10-26T20:00:00,1740A,113.5819,37.8486,阳泉市,南庄,颗粒物(PM10),103,155,131,54,48,104,58,94,92,60,68,21,33,1.2,1.1
2023-10-26T20:00:00,1742A,113.5614,37.8703,阳泉市,平坦,颗粒物(PM10),87,123,101,56,47,106,79,93,93,43,65,11,17,0.9,0.9
2023-10-26T20:00:00,1743A,113.5158,37.8392,阳泉市,大阳泉,颗粒物(PM10),75,100,68,49,37,111,104,104,104,32,36,10,15,0.7,0.7
2023-10-26T20:00:00,1744A,118.9233,42.2816,赤峰市,松山一中,颗粒物(PM10),67,83,38,20,15,70,10,52,42,72,37,35,15,1.2,0.6
2023-10-26T20:00:00,1745A,118.9576,42.2728,赤峰市,哈达街,细颗粒物(PM2.5),74,91,44,54,20,71,10,50,41,85,36,165,27,1.3,0.7
2023-10-26T20:00:00,1746A,118.8788,42.2554,赤峰市,天义路,颗粒物(PM10),53,55,29,13,17,82,10,63,49,68,28,17,18,1.8,0.9
2023-10-26T20:00:00,1748A,123.044,41.1196,鞍山市,深沟寺,,31,31,40,10,17,93,37,69,63,30,16,9,6,0.5,0.5
2023-10-26T20:00:00,1749A,123.011,41.0931,鞍山市,太阳城,,24,24,33,14,16,105,55,69,67,19,16,6,9,0.3,0.5
2023-10-26T20:00:00,1750A,123.0485,41.1442,鞍山市,太平,,,67,41,19,18,114,,60,57,55,25,12,10,0.6,0.4
2023-10-26T20:00:00,1751A,122.9642,41.0971,鞍山市,铁西三道街,颗粒物(PM10),52,53,64,20,23,80,12,49,38,65,48,31,34,1.6,2.7
2023-10-26T20:00:00,1752A,122.9341,41.0833,鞍山市,铁西工业园区,颗粒物(PM10),54,58,57,21,20,108,18,60,51,65,39,47,38,1.9,1.1
2023-10-26T20:00:00,1753A,123.022,41.0821,鞍山市,明达新区,,28,28,46,9,18,93,40,60,58,25,18,10,7,0.3,0.3
2023-10-26T20:00:00,1754A,123.1289,41.0228,鞍山市,千山,,,,,,,,,,,,,,,,
2023-10-26T20:00:00,1755A,123.7977,41.8491,抚顺市,望花区,颗粒物(PM10),55,60,63,12,16,87,50,63,57,19,15,8,8,0.3,0.2
2023-10-26T20:00:00,1756A,123.9161,41.8822,抚顺市,顺城区,颗粒物(PM10),74,97,58,4,13,81,37,62,56,40,18,8,6,1.1,0.9
2023-10-26T20:00:00,1757A,124.0436,41.8611,抚顺市,东洲区,颗粒物(PM10),55,59,52,36,18,109,43,69,60,24,14,24,10,0.7,0.5
2023-10-26T20:00:00,1758A,123.9247,41.8642,抚顺市,新抚区,细颗粒物(PM2.5),68,66,54,49,19,91,31,62,53,36,16,8,7,0.5,0.3
2023-10-26T20:00:00,1759A,124.0972,41.8961,抚顺市,大伙房水库,,,156,65,,18,112,27,68,57,66,16,20,10,1.2,0.5
2023-10-26T20:00:00,1760A,123.7086,41.8391,抚顺市,沈抚新城,颗粒物(PM10),52,54,51,26,21,76,24,66,54,37,17,8,7,0.4,0.3
2023-10-26T20:00:00,1761A,123.8275,41.3064,本溪市,大峪,,33,33,34,7,11,126,44,68,61,26,18,9,8,0.6,0.7
2023-10-26T20:00:00,1762A,123.7567,41.3325,本溪市,溪湖,,35,35,39,10,14,134,35,72,64,45,19,13,13,0.5,0.5
2023-10-26T20:00:00,1763A,123.7169,41.3094,本溪市,彩屯,颗粒物(PM10),66,82,52,20,19,116,24,61,51,48,29,9,11,0.6,0.7
2023-10-26T20:00:00,1764A,123.7669,41.2864,本溪市,东明,颗粒物(PM10),54,58,54,13,15,149,37,69,61,37,21,11,10,0.5,0.5
2023-10-26T20:00:00,1765A,123.7992,41.2664,本溪市,新立屯,,34,34,42,10,18,142,29,73,63,32,17,10,11,0.6,0.7
2023-10-26T20:00:00,1766A,123.8142,41.3472,本溪市,威宁,颗粒物(PM10),62,73,60,25,17,75,7,70,52,60,26,7,6,0.8,0.7
2023-10-26T20:00:00,1767A,121.1115,41.0879,锦州市,南山,颗粒物(PM10),65,79,35,46,6,70,7,64,51,62,19,9,9,1.0,0.3
2023-10-26T20:00:00,1768A,121.0533,40.8434,锦州市,开发区,颗粒物(PM10),93,135,48,20,16,71,5,65,52,83,31,20,12,0.7,0.5
2023-10-26T20:00:00,1769A,121.1836,41.1119,锦州市,百股街道,"颗粒物(PM10),细颗粒物(PM2.5)",58,66,42,41,14,85,13,64,49,56,21,43,10,1.0,0.6
2023-10-26T20:00:00,1770A,121.1178,41.1222,锦州市,天安街道,颗粒物(PM10),72,94,35,44,9,70,9,62,47,71,21,9,9,1.1,0.5
2023-10-26T20:00:00,1771A,121.1303,41.1386,锦州市,北湖公园,细颗粒物(PM2.5),67,70,24,48,8,71,19,65,51,56,18,11,11,0.9,0.5
2023-10-26T20:00:00,1772A,126.54,43.8622,吉林市,哈达湾,颗粒物(PM10),51,52,54,31,25,126,47,66,58,34,20,8,7,0.6,0.6
2023-10-26T20:00:00,1773A,126.5844,43.8358,吉林市,东局子,颗粒物(PM10),68,86,49,31,28,103,6,63,47,64,29,9,9,0.8,0.6
2023-10-26T20:00:00,1774A,126.5052,43.8245,吉林市,电力学院,细颗粒物(PM2.5),99,144,66,74,40,114,11,66,49,59,24,15,11,1.5,0.8
2023-10-26T20:00:00,1775A,126.6133,43.8972,吉林市,江北,颗粒物(PM10),73,95,70,42,34,99,20,62,48,51,35,11,14,1.1,0.9
2023-10-26T20:00:00,1776A,126.555,43.8306,吉林市,江南公园,颗粒物(PM10),70,90,52,44,31,108,19,63,55,58,24,9,9,1.0,0.6
2023-10-26T20:00:00,1778A,126.7061,43.7133,吉林市,丰满,,,,,,,,,,,,,,,,
2023-10-26T20:00:00,1779A,123.9305,47.3636,齐齐哈尔市,安居小区,,41,41,24,11,4,64,21,59,47,45,10,5,5,0.5,0.2
2023-10-26T20:00:00,1780A,123.9488,47.3386,齐齐哈尔市,中心广场,,43,43,19,14,9,59,13,53,40,51,12,3,2,0.7,0.3
2023-10-26T20:00:00,1781A,123.9483,47.3227,齐齐哈尔市,农牧车辆厂,颗粒物(PM10),51,51,31,18,4,61,15,54,40,46,11,7,6,0.6,0.3
2023-10-26T20:00:00,1783A,123.945,47.2988,齐齐哈尔市,市环境监测站,颗粒物(PM10),56,61,28,18,6,59,20,54,45,42,9,6,4,0.3,0.1
2023-10-26T20:00:00,1784A,129.61,44.561,牡丹江市,环保大楼,,38,38,46,16,21,68,28,64,52,32,26,6,6,0.5,0.5
2023-10-26T20:00:00,1785A,129.6115,44.5782,牡丹江市,文化广场,,39,39,55,21,30,64,35,61,48,25,27,5,7,0.4,0.4
2023-10-26T20:00:00,1786A,129.5904,44.5963,牡丹江市,第一医院,,39,39,40,22,25,62,39,60,50,20,22,7,7,0.5,0.5
2023-10-26T20:00:00,1787A,129.6364,44.6075,牡丹江市,机车工厂,,35,35,62,20,28,64,40,61,52,16,21,6,7,0.5,0.6
2023-10-26T20:00:00,1788A,129.6386,44.5462,牡丹江市,第一中学,,43,39,39,30,19,68,23,63,49,24,24,6,7,0.4,0.4
2023-10-26T20:00:00,1789A,124.81117,46.03138,大庆市,大同区,细颗粒物(PM2.5),63,61,33,45,12,59,30,52,46,29,6,6,5,0.6,0.3
2023-10-26T20:00:00,1790A,125.129,46.533,大庆市,龙凤区,,36,36,33,13,13,54,23,46,41,40,13,5,5,0.6,0.3
2023-10-26T20:00:00,1791A,124.902,46.408,大庆市,红岗区,,32,32,28,14,9,63,38,53,48,27,10,4,4,0.4,0.3
2023-10-26T20:00:00,1792A,125.153,46.586,大庆市,萨尔图区,颗粒物(PM10),54,57,33,21,8,55,24,48,38,44,15,5,4,0.6,0.3
2023-10-26T20:00:00,1793A,124.9042,46.6215,大庆市,让胡路区,颗粒物(PM10),51,51,28,22,16,61,7,53,40,58,12,5,4,0.7,0.4
2023-10-26T20:00:00,1794A,118.3606,31.3519,芜湖市,监测站,颗粒物(PM10),81,111,101,45,59,193,21,165,132,128,88,10,14,1.3,1.3
2023-10-26T20:00:00,1795A,118.3714,31.4134,芜湖市,科创中心,颗粒物(PM10),81,112,106,56,69,198,5,178,133,141,87,9,14,1.4,1.5
2023-10-26T20:00:00,1796A,118.3673,31.3131,芜湖市,四水厂,颗粒物(PM10),70,89,98,46,56,210,42,176,155,95,77,8,11,1.4,1.2
2023-10-26T20:00:00,1798A,118.5092,31.6837,马鞍山市,湖东路四小,颗粒物(PM10),80,109,79,57,51,193,12,164,130,118,60,10,14,1.7,1.4
2023-10-26T20:00:00,1799A,118.5024,31.6449,马鞍山市,开发区,细颗粒物(PM2.5),72,88,92,52,56,180,29,160,122,98,73,11,13,0.9,1.1
2023-10-26T20:00:00,1800A,118.5228,31.7231,马鞍山市,慈湖,颗粒物(PM10),78,106,96,56,61,197,30,157,121,110,74,13,15,1.3,1.3
2023-10-26T20:00:00,1802A,118.6245,31.7241,马鞍山市,濮塘,细颗粒物(PM2.5),65,57,51,47,35,174,119,153,144,18,12,7,7,0.9,0.8
2023-10-26T20:00:00,1803A,115.9872,29.6815,九江市,十里,颗粒物(PM10),74,97,100,52,71,196,28,152,135,72,37,8,12,1.3,1.2
2023-10-26T20:00:00,1804A,115.9584,29.7046,九江市,茅山头,二氧化氮,79,78,92,56,73,201,2,150,129,158,46,12,13,1.3,1.3
2023-10-26T20:00:00,1805A,115.9877,29.7295,九江市,西园,细颗粒物(PM2.5),82,92,111,60,73,180,37,129,117,105,52,17,14,1.0,1.2
2023-10-26T20:00:00,1806A,116.0172,29.6547,九江市,五七二七厂,,48,44,84,33,72,191,107,152,149,14,21,11,15,0.7,1
2023-10-26T20:00:00,1808A,115.9114,29.6038,九江市,综合工业园,细颗粒物(PM2.5),68,82,104,49,76,188,75,152,142,52,48,12,15,1.1,1.4
2023-10-26T20:00:00,1809A,116.0721,29.7535,九江市,石化总厂,细颗粒物(PM2.5),80,81,113,59,76,177,6,123,98,156,62,14,16,1.2,1.2
2023-10-26T20:00:00,1810A,115.9773,29.5698,九江市,庐山气象台,细颗粒物(PM2.5),60,45,37,43,35,171,143,150,150,6,6,7,6,0.7,0.8
2023-10-26T20:00:00,1812A,112.3931,34.6516,洛阳市,市委党校,颗粒物(PM10),77,103,99,54,77,142,54,115,111,64,40,8,8,1.0,0.7
2023-10-26T20:00:00,1814A,112.4657,34.6871,洛阳市,豫西宾馆,颗粒物(PM10),74,97,110,52,66,142,54,117,112,60,36,8,7,0.8,0.7
2023-10-26T20:00:00,1815A,112.494,34.6886,洛阳市,河南林校,颗粒物(PM10),69,87,93,41,64,135,44,109,104,66,37,4,4,0.9,0.6
2023-10-26T20:00:00,1816A,112.3844,34.623,洛阳市,开发区管委会,细颗粒物(PM2.5),79,86,81,58,55,136,68,112,106,32,25,4,3,0.6,0.6
2023-10-26T20:00:00,1817A,112.4267,34.6258,洛阳市,市委新办公区,颗粒物(PM10),69,88,81,45,56,141,43,114,107,68,29,4,4,0.8,0.6
2023-10-26T20:00:00,1818A,114.4839,36.0621,安阳市,棉研所,,,,,,,,,,,,,,,,
2023-10-26T20:00:00,1819A,114.3551,36.1017,安阳市,红庙街,颗粒物(PM10),82,113,107,37,48,158,85,133,131,30,40,9,18,1.1,1.3
2023-10-26T20:00:00,1820A,114.361,36.0681,安阳市,银杏小区,颗粒物(PM10),71,92,97,31,54,156,73,126,123,31,35,7,11,0.8,1
2023-10-26T20:00:00,1824A,114.3389,34.7781,开封市,肿瘤医院,颗粒物(PM10),121,192,120,83,63,176,115,136,136,28,40,6,6,,0.7
2023-10-26T20:00:00,1826A,114.2885,34.7965,开封市,世纪星幼儿园,颗粒物(PM10),100,150,113,65,58,153,108,121,121,32,43,11,11,1.0,0.9
2023-10-26T20:00:00,1828A,113.227,35.2125,焦作市,市环保局,细颗粒物(PM2.5),107,148,83,80,41,134,101,120,120,40,31,12,13,0.7,0.6
2023-10-26T20:00:00,1830A,113.1992,35.2590,焦作市,影视城,,,,,,,,,,,,,,,,
2023-10-26T20:00:00,1832A,113.3257,33.742,平顶山市,新华旅馆,颗粒物(PM10),87,123,85,54,42,154,90,130,124,46,28,13,11,0.9,0.6
2023-10-26T20:00:00,1833A,113.2919,33.737,平顶山市,规划设计院,颗粒物(PM10),99,147,71,66,39,156,11,127,102,104,38,10,12,1.5,0.4
2023-10-26T20:00:00,1834A,113.182,33.774,平顶山市,平顶山工学院,颗粒物(PM10),81,112,61,44,25,155,78,131,124,48,25,50,17,0.7,0.6
2023-10-26T20:00:00,1835A,111.1922,34.7752,三门峡市,市政府,颗粒物(PM10),81,111,75,31,36,118,9,72,67,86,56,8,10,1.0,0.8
2023-10-26T20:00:00,1836A,111.1587,34.7942,三门峡市,开发区,颗粒物(PM10),80,110,104,38,48,131,2,83,76,102,46,8,8,1.5,0.7
2023-10-26T20:00:00,1838A,111.143,34.7955,三门峡市,风景区,,,,,,,,,,,,,,,,
2023-10-26T20:00:00,1840A,111.2992,30.6981,宜昌市,白龙岗,,32,27,28,22,16,86,17,59,47,40,30,5,5,0.5,0.6
2023-10-26T20:00:00,1841A,111.3549,30.6465,宜昌市,伍家岗,,39,39,25,27,19,82,8,58,45,58,30,6,5,0.7,0.5
2023-10-26T20:00:00,1842A,111.2628,30.6961,宜昌市,点军区,,21,21,19,14,16,65,12,44,34,35,25,8,7,0.5,0.5
2023-10-26T20:00:00,1843A,111.3275,30.7819,宜昌市,夷陵区,,50,50,28,19,18,81,8,56,50,40,19,6,6,0.6,0.4
2023-10-26T20:00:00,1844A,112.2494,30.3197,荆州市,市图书馆,细颗粒物(PM2.5),57,52,43,40,25,101,4,68,53,76,23,7,7,0.9,0.6
2023-10-26T20:00:00,1845A,112.2008,30.3544,荆州市,市委党校,颗粒物(PM10),54,57,44,35,28,109,37,77,75,40,18,6,7,0.8,0.6
2023-10-26T20:00:00,1847A,113.1094,29.3578,岳阳市,南湖风景区,细颗粒物(PM2.5),59,64,67,42,58,114,58,102,96,39,22,11,11,1.1,1
2023-10-26T20:00:00,1848A,113.1493,29.4251,岳阳市,城陵矶,细颗粒物(PM2.5),68,72,71,49,55,98,38,81,78,58,23,8,9,0.8,0.9
2023-10-26T20:00:00,1849A,113.1497,29.3575,岳阳市,开发区,细颗粒物(PM2.5),87,77,75,64,69,113,74,98,95,29,19,8,9,0.8,0.8
2023-10-26T20:00:00,1850A,113.2621,29.4758,岳阳市,云溪区,细颗粒物(PM2.5),65,65,66,47,53,120,73,103,101,20,19,7,9,1.0,1.1
2023-10-26T20:00:00,1851A,112.9943,29.4402,岳阳市,君山区,细颗粒物(PM2.5),74,63,67,54,61,119,56,93,90,35,19,6,5,0.7,0.7
2023-10-26T20:00:00,1852A,113.2117,29.355,岳阳市,金凤水库,细颗粒物(PM2.5),67,67,68,48,54,132,81,117,114,25,11,4,4,0.7,0.8
2023-10-26T20:00:00,1854A,111.6975,28.9703,常德市,市二中,,45,40,40,31,30,123,54,98,84,23,13,9,7,0.6,0.6
2023-10-26T20:00:00,1857A,111.7158,29.1456,常德市,白鹤山,,40,40,53,23,27,88,52,70,69,7,4,5,3,0.6,0.7
2023-10-26T20:00:00,1858A,110.5319,29.1217,张家界市,永定新区,,32,28,25,22,18,93,37,60,54,14,17,5,6,0.5,0.8
2023-10-26T20:00:00,1859A,110.4697,29.1242,张家界市,电业局,,,36,32,15,12,79,31,57,43,,22,9,8,0.5,0.8
2023-10-26T20:00:00,1860A,110.5594,29.3547,张家界市,未央路,,28,19,19,19,15,93,28,70,53,17,10,2,3,0.4,0.6
2023-10-26T20:00:00,1861A,110.4417,29.315,张家界市,袁家界,,13,12,11,6,9,112,41,81,47,4,8,9,9,0.7,0.8
2023-10-26T20:00:00,1862A,110.4144,25.3167,桂林市,电子科大尧山校区,,23,9,35,16,23,91,64,83,79,8,9,3,3,0.6,0.5
2023-10-26T20:00:00,1863A,110.2819,25.2697,桂林市,监测站,,38,24,47,26,27,95,61,79,77,14,19,5,6,0.8,0.8
2023-10-26T20:00:00,1864A,110.3089,25.2708,桂林市,龙隐路小学,,33,16,42,23,30,95,62,82,79,10,20,6,7,0.7,0.8
2023-10-26T20:00:00,1865A,110.2869,25.2178,桂林市,八中,,21,19,42,14,23,103,67,86,84,10,17,4,5,0.7,0.6
2023-10-26T20:00:00,1866A,109.2262,21.588,北海市,牛尾岭水库,,,,,,,,,,,,,,,,
2023-10-26T20:00:00,1867A,109.1436,21.4086,北海市,海滩公园,,35,35,39,24,20,144,112,130,129,9,9,7,8,0.7,0.7
2023-10-26T20:00:00,1868A,109.0981,21.4661,北海市,新市环保局,细颗粒物(PM2.5),62,67,45,44,34,169,99,153,149,40,14,8,10,1.0,0.8
2023-10-26T20:00:00,1869A,109.1778,21.5233,北海市,北海工业园,"颗粒物(PM10),细颗粒物(PM2.5)",55,60,59,39,35,168,136,155,155,14,13,7,13,0.8,0.8
2023-10-26T20:00:00,1870A,109.4856,24.3895,柳州市,柳东小学,细颗粒物(PM2.5),79,76,39,58,30,126,78,121,116,17,21,8,11,0.6,0.5
2023-10-26T20:00:00,1871A,109.4157,24.3277,柳州市,环保监测站,颗粒物(PM10),62,73,62,42,39,122,59,107,99,32,35,9,9,1.0,0.9
2023-10-26T20:00:00,1872A,109.389,24.341,柳州市,河西水厂,,,132,88,65,45,130,,107,106,33,38,12,17,,1.1
2023-10-26T20:00:00,1873A,109.4311,24.2921,柳州市,市四中,颗粒物(PM10),71,91,59,50,35,130,56,115,104,40,39,7,6,1.2,1
2023-10-26T20:00:00,1874A,109.4006,24.3631,柳州市,市九中,颗粒物(PM10),75,99,74,51,38,133,68,100,98,22,33,7,10,0.9,1.1
2023-10-26T20:00:00,1875A,109.4958,24.3134,柳州市,古亭山,,48,40,43,33,25,135,65,109,96,23,33,8,10,0.6,0.5
2023-10-26T20:00:00,1876A,109.5078,18.2489,三亚市,河东子站,,13,9,12,9,8,54,23,40,39,17,9,4,3,0.5,0.4
2023-10-26T20:00:00,1877A,109.4964,18.2681,三亚市,河西子站,,8,5,13,4,5,54,24,38,38,12,7,3,3,0.3,0.3
2023-10-26T20:00:00,1878A,104.7778,31.4741,绵阳市,富乐山,细颗粒物(PM2.5),90,86,69,67,52,30,8,15,14,33,27,7,9,0.9,0.8
2023-10-26T20:00:00,1879A,104.7563,31.4535,绵阳市,市人大,细颗粒物(PM2.5),105,113,83,79,63,34,5,14,14,43,36,11,12,0.9,1
2023-10-26T20:00:00,1880A,104.6697,31.4668,绵阳市,高新区自来水公司,"颗粒物(PM10),细颗粒物(PM2.5)",85,119,88,63,49,52,2,27,26,44,35,39,21,0.9,0.8
2023-10-26T20:00:00,1881A,104.7287,31.5075,绵阳市,三水厂,细颗粒物(PM2.5),129,126,90,98,71,42,1,18,17,55,36,9,11,1.1,1.1
2023-10-26T20:00:00,1882A,104.563,28.793,宜宾市,石马中学,,,,,,,,,,,,,,,,
2023-10-26T20:00:00,1883A,104.6201,28.7728,宜宾市,市委,,22,14,57,10,42,69,69,48,39,19,33,6,6,0.4,0.7
2023-10-26T20:00:00,1884A,104.6055,28.793,宜宾市,宜宾四中,,23,14,59,10,45,71,71,49,44,18,32,7,8,0.3,0.6
2023-10-26T20:00:00,1885A,104.639,28.7562,宜宾市,市政府,,25,17,61,10,45,77,77,48,48,13,32,6,7,0.3,0.7
2023-10-26T20:00:00,1886A,104.5742,28.7199,宜宾市,黄金嘴,,24,11,49,7,36,76,76,51,46,8,24,6,7,0.3,0.6
2023-10-26T20:00:00,1888A,101.6891,26.571,攀枝花市,弄弄坪,颗粒物(PM10),53,55,41,20,18,57,28,49,47,35,26,24,17,0.8,0.9
2023-10-26T20:00:00,1889A,101.5769,26.5928,攀枝花市,河门口,,26,26,27,13,15,65,44,57,57,16,19,11,18,0.9,1.1
2023-10-26T20:00:00,1890A,101.7169,26.585,攀枝花市,炳草岗,,42,42,54,15,25,64,30,54,52,40,30,29,28,0.8,1.1
2023-10-26T20:00:00,1891A,101.7369,26.5008,攀枝花市,仁和,,43,43,18,21,11,69,35,59,57,26,14,5,5,0.8,0.7
2023-10-26T20:00:00,1893A,105.4324,28.9634,泸州市,九狮山,,25,25,45,15,27,39,31,33,33,19,20,2,4,0.4,0.5
2023-10-26T20:00:00,1894A,105.4427,28.9063,泸州市,小市上码头,,29,24,55,20,38,57,40,43,43,24,26,7,10,0.5,0.6
2023-10-26T20:00:00,1895A,105.4241,28.8573,泸州市,兰田宪桥,,23,21,50,16,35,63,54,54,54,9,14,4,5,0.5,0.7
2023-10-26T20:00:00,1896A,105.4379,28.8833,泸州市,市环监站,,25,20,50,17,30,57,40,45,45,21,24,3,4,0.5,0.7
2023-10-26T20:00:00,1901A,104.4239,31.1208,德阳市,东山公园,颗粒物(PM10),73,96,81,33,39,53,3,30,24,54,39,1,2,0.7,0.7
2023-10-26T20:00:00,1902A,104.3826,31.1317,德阳市,西小区,颗粒物(PM10),70,90,85,47,55,43,0,20,17,52,45,1,3,0.8,0.9
2023-10-26T20:00:00,1904A,104.3553,31.1091,德阳市,耐火材料厂,细颗粒物(PM2.5),70,85,108,51,56,48,1,22,20,49,42,2,3,0.6,0.7
2023-10-26T20:00:00,1905A,106.056,30.8064,南充市,西山风景区,,,67,67,56,60,35,22,23,22,,,3,4,0.6,0.6
2023-10-26T20:00:00,1906A,106.0789,30.8023,南充市,南充市委,细颗粒物(PM2.5),89,65,78,66,70,33,4,20,16,36,28,3,7,0.8,0.6
2023-10-26T20:00:00,1907A,106.1031,30.8217,南充市,南充炼油厂,细颗粒物(PM2.5),77,80,83,56,56,25,1,18,16,39,24,3,5,0.5,0.6
2023-10-26T20:00:00,1908A,106.1064,30.7856,南充市,高坪区监测站,细颗粒物(PM2.5),83,82,84,61,61,42,3,20,15,42,26,5,8,0.7,0.5
2023-10-26T20:00:00,1909A,106.0642,30.7636,南充市,嘉陵区环保局,细颗粒物(PM2.5),92,88,79,68,64,41,0,17,11,41,27,4,8,0.8,0.5
2023-10-26T20:00:00,1910A,106.1087,30.8388,南充市,市环境监测站,细颗粒物(PM2.5),79,78,73,58,62,28,3,20,16,42,25,4,5,0.9,0.6
2023-10-26T20:00:00,1911A,106.9222,27.6869,遵义市,丁字口,细颗粒物(PM2.5),53,38,37,37,29,67,42,55,44,28,22,7,6,0.9,0.7
2023-10-26T20:00:00,1912A,106.9242,27.7019,遵义市,凤凰山,细颗粒物(PM2.5),54,35,36,38,31,81,61,68,68,15,10,7,7,0.7,0.5
2023-10-26T20:00:00,1913A,106.8906,27.6486,遵义市,忠庄,颗粒物(PM10),52,53,37,31,26,69,25,58,50,30,14,3,2,0.6,0.6
2023-10-26T20:00:00,1914A,106.9231,27.6506,遵义市,舟水桥,,42,40,39,29,29,56,29,45,39,23,24,5,3,0.9,0.7
2023-10-26T20:00:00,1915A,106.9178,27.72,遵义市,干田坝,,41,41,36,28,25,76,51,62,62,19,16,6,5,0.6,0.5
2023-10-26T20:00:00,1916A,103.7897,25.5035,曲靖市,环境监测站,,40,40,29,24,16,74,17,51,48,30,18,15,4,1.4,0.8
2023-10-26T20:00:00,1917A,103.8,25.5364,曲靖市,烟厂办公区,,41,41,28,20,16,77,17,50,46,30,19,14,6,0.8,0.6
2023-10-26T20:00:00,1918A,108.7197,34.3956,咸阳市,气象站,,,,,,,,,,,,,,,,
2023-10-26T20:00:00,1919A,108.673,34.3155,咸阳市,实验中学,颗粒物(PM10),84,117,111,43,45,112,7,67,64,92,55,3,4,1.3,0.8
2023-10-26T20:00:00,1920A,108.7233,34.3617,咸阳市,师范学院,颗粒物(PM10),82,114,100,41,45,95,12,65,60,91,58,6,6,0.9,0.8
2023-10-26T20:00:00,1922A,109.0656,35.0994,铜川市,党校,,,,69,,21,48,,52,,,42,,8,,0.7
2023-10-26T20:00:00,1923A,109.0697,35.0697,铜川市,王益区政府,颗粒物(PM10),69,88,56,32,24,113,18,98,82,63,43,6,4,0.8,0.6
2023-10-26T20:00:00,1924A,108.9344,34.9058,铜川市,新区管委会,颗粒物(PM10),100,150,65,53,28,120,6,98,89,100,36,7,7,1.2,0.5
2023-10-26T20:00:00,1926A,109.4131,36.6275,延安市,枣园,颗粒物(PM10),60,69,45,19,15,119,4,92,84,78,34,7,7,0.5,0.3
2023-10-26T20:00:00,1927A,109.4761,36.6028,延安市,延大医附院,细颗粒物(PM2.5),73,76,60,53,19,103,6,77,68,81,39,4,3,1.2,0.6
2023-10-26T20:00:00,1929A,109.5056,36.6106,延安市,百米大道,颗粒物(PM10),66,82,72,28,22,106,4,73,63,94,53,7,4,1.0,0.6
2023-10-26T20:00:00,1930A,107.185,34.3063,宝鸡市,庙沟村,,47,47,34,16,14,112,83,95,95,26,16,10,9,0.3,0.3
2023-10-26T20:00:00,1931A,107.0708,34.3017,宝鸡市,竹园沟,颗粒物(PM10),52,53,34,32,16,138,69,118,112,28,19,4,4,0.5,0.4
2023-10-26T20:00:00,1932A,107.1906,34.3672,宝鸡市,三陆医院,颗粒物(PM10),72,93,66,46,31,130,10,102,96,93,43,11,17,1.2,0.7
2023-10-26T20:00:00,1933A,107.1431,34.3547,宝鸡市,监测站,颗粒物(PM10),57,63,42,31,22,124,42,100,98,52,28,7,7,0.6,0.5
2023-10-26T20:00:00,1934A,107.1186,34.3739,宝鸡市,技工学校,"颗粒物(PM10),细颗粒物(PM2.5)",67,83,51,48,28,127,59,107,106,56,29,10,9,0.7,0.5
2023-10-26T20:00:00,1935A,107.3906,34.3528,宝鸡市,陈仓区环保局家属楼,颗粒物(PM10),93,136,74,67,42,109,12,78,68,112,49,10,12,1.2,0.7
2023-10-26T20:00:00,1936A,107.2058,34.3497,宝鸡市,文理学院,颗粒物(PM10),74,98,54,21,25,130,16,100,94,84,36,6,8,0.7,0.6
2023-10-26T20:00:00,1937A,107.2386,34.3622,宝鸡市,三迪小学,颗粒物(PM10),77,104,67,49,41,127,13,95,89,103,45,9,11,0.8,0.6
2023-10-26T20:00:00,1938A,109.5293,34.5101,渭南市,农科所,颗粒物(PM10),75,100,72,44,43,63,3,19,13,47,43,6,6,0.9,0.9
2023-10-26T20:00:00,1939A,109.4974,34.4877,渭南市,日报社,颗粒物(PM10),79,107,72,42,41,115,4,72,68,98,56,9,9,0.8,0.7
2023-10-26T20:00:00,1940A,109.4636,34.493,渭南市,体育馆,颗粒物(PM10),69,88,75,37,37,113,6,70,66,99,60,4,6,0.7,0.6
2023-10-26T20:00:00,1941A,109.4259,34.5023,渭南市,高新一小,颗粒物(PM10),78,106,85,46,44,102,3,72,69,96,55,5,5,0.7,0.7
2023-10-26T20:00:00,1944A,102.1692,38.5167,金昌市,天庆家园,颗粒物(PM10),88,125,81,33,30,116,26,100,94,82,34,19,23,1.0,0.8
2023-10-26T20:00:00,1945A,98.2908,39.7711,嘉峪关市,气象局,颗粒物(PM10),74,97,52,29,17,111,40,97,92,66,34,4,3,0.1,0.1
2023-10-26T20:00:00,1947A,106.3394,38.817,石嘴山市,沙湖旅游区,颗粒物(PM10),58,66,76,23,28,122,20,104,93,87,33,15,15,0.5,0.6
2023-10-26T20:00:00,1948A,106.3668,39.0145,石嘴山市,大武口朝阳西街,颗粒物(PM10),65,79,72,33,27,117,34,106,101,95,35,12,18,0.9,0.6
2023-10-26T20:00:00,1949A,106.7704,39.2282,石嘴山市,惠农南大街,颗粒物(PM10),78,106,98,32,29,119,20,92,84,101,52,16,46,1.2,1.7
2023-10-26T20:00:00,1950A,106.7099,39.1325,石嘴山市,红果子镇惠新街,颗粒物(PM10),90,129,87,62,35,117,72,104,99,60,37,19,49,0.5,1
2023-10-26T20:00:00,1951A,84.895,45.6094,克拉玛依市,长征新村,颗粒物(PM10),53,56,49,7,7,78,43,64,64,38,23,12,11,0.5,0.4
2023-10-26T20:00:00,1952A,84.8988,45.5893,克拉玛依市,南林小区,颗粒物(PM10),56,62,46,9,13,86,20,67,65,54,25,6,5,0.8,0.5
2023-10-26T20:00:00,1954A,84.905,44.3396,克拉玛依市,独山子区,颗粒物(PM10),56,62,65,19,22,70,42,64,64,39,29,6,7,0.4,0.5
2023-10-26T20:00:00,1955A,85.6979,46.098,克拉玛依市,乌尔禾区商贸楼,颗粒物(PM10),108,166,45,20,7,85,13,64,62,69,21,10,8,0.6,0.4
2023-10-26T20:00:00,1956A,86.1472,41.7538,巴音郭楞州,孔雀公园,颗粒物(PM10),93,136,140,33,32,87,61,76,76,25,47,2,3,0.3,0.6
2023-10-26T20:00:00,1957A,86.1972,41.7166,巴音郭楞州,棉纺厂,颗粒物(PM10),115,180,169,45,37,86,58,77,77,28,39,2,2,0.4,0.4
2023-10-26T20:00:00,1958A,86.2357,41.7173,巴音郭楞州,经济开发区,颗粒物(PM10),111,171,158,29,32,88,,85,85,,28,3,3,0.4,0.3
2023-10-26T20:00:00,1961A,117.532,36.6868,济南市,东山小学,颗粒物(PM10),70,90,114,10,40,100,23,90,78,64,45,8,9,0.2,0.4
2023-10-26T20:00:00,1966A,120.0405,35.8735,青岛市,黄岛区4号,颗粒物(PM10),60,70,136,9,71,173,51,140,120,36,37,6,10,0.5,0.9
2023-10-26T20:00:00,1982A,122.0693,37.2174,威海市,文登开发区,,31,31,87,2,38,178,69,114,77,16,15,7,8,0.3,0.9
2023-10-26T20:00:00,2031A,113.1817,27.9958,株洲市,云田中学,细颗粒物(PM2.5),68,76,37,49,23,82,6,65,48,40,13,5,6,1.0,0.7
2023-10-26T20:00:00,2054A,114.1099,32.1059,信阳市,平桥分局,颗粒物(PM10),82,113,79,55,53,158,46,124,112,39,24,4,5,0.9,0.8
2023-10-26T20:00:00,2064A,113.9956,32.1271,信阳市,南湾水厂,颗粒物(PM10),56,61,60,39,45,156,124,142,142,17,10,7,5,0.9,0.8
2023-10-26T20:00:00,2065A,114.0775,32.1195,信阳市,市酿酒公司,,,103,73,55,53,159,43,134,115,,29,5,5,1.4,1
2023-10-26T20:00:00,2066A,114.0609,32.1399,信阳市,审计局,细颗粒物(PM2.5),72,83,71,52,46,163,43,132,118,66,27,6,6,1.2,0.9
2023-10-26T20:00:00,2067A,114.6613,33.6128,周口市,市环境监测站,细颗粒物(PM2.5),124,168,120,94,76,159,133,140,140,41,42,24,13,0.7,0.6
2023-10-26T20:00:00,2068A,114.6758,33.6347,周口市,周口师范,细颗粒物(PM2.5),117,154,117,88,68,164,108,137,137,51,42,9,9,0.6,0.6
2023-10-26T20:00:00,2069A,114.6546,33.5979,周口市,市运管处,细颗粒物(PM2.5),115,163,132,87,75,158,129,141,141,38,38,16,9,0.8,0.8
2023-10-26T20:00:00,2070A,114.6369,33.6406,周口市,川汇区环保局,颗粒物(PM10),119,188,122,86,83,154,90,127,126,61,46,10,10,0.6,0.7
2023-10-26T20:00:00,2075A,117.6336,24.4674,漳州市,九湖,,,,,,,,,,,,,,,,
2023-10-26T20:00:00,2160A,112.85,35.5051,晋城市,自来水公司,颗粒物(PM10),59,68,88,36,48,136,96,111,109,42,39,12,12,0.9,1.1
2023-10-26T20:00:00,2161A,112.8318,35.4936,晋城市,白云商贸,颗粒物(PM10),74,97,93,41,48,137,104,107,105,34,30,11,9,1.0,1.3
2023-10-26T20:00:00,2162A,112.8508,35.4887,晋城市,市环保局,颗粒物(PM10),68,85,96,36,48,140,74,112,106,55,41,9,9,1.1,1.3
2023-10-26T20:00:00,2163A,112.8676,35.4897,晋城市,技术学院,颗粒物(PM10),70,89,94,31,48,130,105,113,113,27,34,11,10,0.8,1
2023-10-26T20:00:00,2165A,112.8453,35.546,晋城市,白马寺,,,,,,,,,,,,,,,,
2023-10-26T20:00:00,2166A,112.4397,39.3522,朔州市,平朔,颗粒物(PM10),59,67,85,28,26,101,9,89,76,61,39,9,13,0.8,0.7
2023-10-26T20:00:00,2167A,112.4575,39.3617,朔州市,朔唯,颗粒物(PM10),71,92,111,33,32,96,9,85,71,70,51,12,20,0.8,0.7
2023-10-26T20:00:00,2168A,112.4258,39.3197,朔州市,区政府,颗粒物(PM10),64,78,71,44,26,96,15,85,73,73,35,10,10,1.0,0.6
2023-10-26T20:00:00,2169A,112.4072,39.3278,朔州市,市环保局,颗粒物(PM10),70,89,71,30,20,95,17,88,72,53,30,10,9,1.0,0.6
2023-10-26T20:00:00,2170A,112.4272,39.3681,朔州市,市二中,颗粒物(PM10),79,107,104,40,28,99,9,88,72,68,45,15,18,0.6,0.6
2023-10-26T20:00:00,2171A,112.7532,37.6945,晋中市,锦纶小区,颗粒物(PM10),78,105,91,29,31,106,32,90,87,78,48,9,11,0.7,0.7
2023-10-26T20:00:00,2173A,112.7249,37.7067,晋中市,南都小区,颗粒物(PM10),86,121,96,32,42,104,17,90,85,92,52,10,12,0.9,0.7
2023-10-26T20:00:00,2174A,112.6991,37.6982,晋中市,榆次区政府,颗粒物(PM10),102,153,84,42,37,104,22,92,88,92,53,13,12,1.1,0.8
2023-10-26T20:00:00,2175A,110.9956,35.0147,运城市,运城中学,颗粒物(PM10),82,113,245,44,129,150,81,124,118,27,39,8,10,0.8,1.1
2023-10-26T20:00:00,2178A,110.9686,35.0303,运城市,地区技校,颗粒物(PM10),86,122,198,58,108,156,22,120,113,95,56,7,10,1.6,1.4
2023-10-26T20:00:00,2179A,111.0414,35.1147,运城市,空港新区,细颗粒物(PM2.5),130,162,180,99,143,150,34,120,115,82,58,9,10,1.1,1.1
2023-10-26T20:00:00,2181A,112.7383,38.4519,忻州市,开发区,颗粒物(PM10),83,115,71,36,24,112,11,88,80,99,52,10,15,0.7,0.5
2023-10-26T20:00:00,2182A,112.7003,38.4928,忻州市,会展中心,颗粒物(PM10),80,110,71,40,26,105,10,90,72,92,51,9,15,0.8,0.5
2023-10-26T20:00:00,2183A,111.1406,37.5211,吕梁市,环保局,颗粒物(PM10),92,133,99,42,28,99,4,67,58,74,47,3,6,0.7,0.5
2023-10-26T20:00:00,2185A,111.1297,37.5136,吕梁市,自来水公司,颗粒物(PM10),75,99,120,33,32,97,11,65,60,64,40,2,12,0.8,0.6
2023-10-26T20:00:00,2187A,106.8174,39.6973,乌海市,市林业局,颗粒物(PM10),67,84,64,34,21,118,24,106,99,83,33,13,14,0.8,0.6
2023-10-26T20:00:00,2188A,106.7907,39.6667,乌海市,中海勃湾学校,,,124,69,53,26,116,10,104,94,105,45,15,17,,0.7
2023-10-26T20:00:00,2191A,122.2532,43.6801,通辽市,艺术职业学校,颗粒物(PM10),53,56,40,14,7,76,6,70,49,76,22,6,5,0.4,0.1
2023-10-26T20:00:00,2192A,119.7594,49.2261,呼伦贝尔市,区环保局,,30,30,20,17,16,68,47,60,55,17,10,3,4,0.4,0.3
2023-10-26T20:00:00,2195A,107.4212,40.761,巴彦淖尔市,附二中,颗粒物(PM10),70,90,72,33,25,108,71,96,94,32,22,3,4,0.6,0.5
2023-10-26T20:00:00,2196A,107.37,40.7372,巴彦淖尔市,市环保大楼,颗粒物(PM10),94,137,81,32,27,110,63,99,93,26,23,3,3,0.3,0.3
2023-10-26T20:00:00,2197A,113.1306,40.9923,乌兰察布市,集宁新区,,44,44,35,19,14,91,69,79,79,20,22,6,8,0.3,0.5
2023-10-26T20:00:00,2200A,122.0392,46.0656,兴安盟,胜华新制药厂,,,77,29,48,18,68,,63,50,39,9,5,3,0.9,0.3
2023-10-26T20:00:00,2201A,121.9504,46.0741,兴安盟,科右前旗环保局,颗粒物(PM10),88,125,29,54,18,71,7,64,45,52,10,6,3,1.4,0.6
2023-10-26T20:00:00,2202A,116.1042,43.9317,锡林郭勒盟,市环保监测站,,23,23,20,7,5,94,59,84,82,10,11,7,9,0.3,0.3
2023-10-26T20:00:00,2203A,116.0781,43.9311,锡林郭勒盟,市政府,,23,23,21,2,4,89,42,81,75,27,19,10,10,0.3,0.2
2023-10-26T20:00:00,2204A,105.6467,38.8363,阿拉善盟,西城区西花园,颗粒物(PM10),54,57,39,25,16,127,58,118,103,49,15,13,10,1.0,0.9
2023-10-26T20:00:00,2205A,105.6985,38.8411,阿拉善盟,蒙二幼,颗粒物(PM10),61,71,35,23,12,118,54,111,102,60,15,8,7,0.6,0.4
2023-10-26T20:00:00,2206A,105.724,38.8516,阿拉善盟,环保局新楼,,37,37,27,15,14,112,90,107,104,20,8,8,7,0.3,0.5
2023-10-26T20:00:00,2207A,121.6094,41.998,阜新市,工业园区,颗粒物(PM10),80,109,42,10,6,75,9,69,53,68,27,20,7,1.1,0.3
2023-10-26T20:00:00,2208A,121.6697,42.0279,阜新市,长青街,颗粒物(PM10),61,71,27,30,3,70,4,64,50,66,18,13,7,1.0,0.5
2023-10-26T20:00:00,2209A,121.6673,42.0705,阜新市,农业园区,,27,25,20,5,3,68,54,64,61,16,10,12,8,2.7,0.7
2023-10-26T20:00:00,2210A,121.6717,42.0224,阜新市,东苑,颗粒物(PM10),71,91,31,20,3,70,6,65,48,69,26,24,9,1.0,0.7
2023-10-26T20:00:00,2211A,121.6506,42.0498,阜新市,玉龙新城,颗粒物(PM10),67,83,36,11,2,77,14,71,50,57,24,8,7,2.6,0.6
2023-10-26T20:00:00,2212A,123.2,41.1953,辽阳市,宏伟区,,36,36,36,8,13,140,27,61,55,36,18,13,12,0.5,0.4
2023-10-26T20:00:00,2213A,123.1683,41.2495,辽阳市,新华园,,34,34,36,5,11,133,30,59,54,36,19,12,10,0.7,0.6
2023-10-26T20:00:00,2214A,123.2354,41.2639,辽阳市,滨河路,细颗粒物(PM2.5),57,54,40,40,23,117,17,60,50,46,17,9,9,0.5,0.6
2023-10-26T20:00:00,2215A,123.149,41.2991,辽阳市,铁西工业园,颗粒物(PM10),55,59,45,18,19,88,7,61,47,55,23,9,9,0.5,0.4
2023-10-26T20:00:00,2216A,123.8139,42.3022,铁岭市,汇工街西,颗粒物(PM10),56,62,46,36,12,133,14,61,51,50,15,83,13,0.7,0.5
2023-10-26T20:00:00,2217A,123.8649,42.2923,铁岭市,水上乐园,颗粒物(PM10),51,51,46,14,18,141,20,62,52,55,21,5,2,1.0,0.7
2023-10-26T20:00:00,2218A,123.8486,42.2867,铁岭市,银州路东段,颗粒物(PM10),56,62,45,17,16,133,23,54,46,49,24,5,4,0.5,0.5
2023-10-26T20:00:00,2219A,123.7153,42.2217,铁岭市,金沙江路北,,39,39,38,12,15,127,41,60,54,26,13,7,8,0.4,0.3
2023-10-26T20:00:00,2220A,120.4318,41.5881,朝阳市,西梁,颗粒物(PM10),75,99,37,41,13,73,6,66,53,61,24,12,11,1.1,0.6
2023-10-26T20:00:00,2221A,120.4521,41.5646,朝阳市,河畔小区,,40,40,36,23,9,73,15,70,63,41,18,7,13,0.8,0.7
2023-10-26T20:00:00,2222A,120.4176,41.5648,朝阳市,八里堡,颗粒物(PM10),86,121,53,40,12,68,6,62,50,64,25,14,11,1.3,0.7
2023-10-26T20:00:00,2223A,120.3806,41.5969,朝阳市,农业园区,颗粒物(PM10),53,55,42,26,9,70,13,61,50,55,25,13,9,0.8,0.5
2023-10-26T20:00:00,2225A,124.4002,43.1713,四平市,一商场,颗粒物(PM10),79,107,55,36,19,99,12,58,44,59,22,12,5,0.5,0.4
2023-10-26T20:00:00,2226A,124.388,43.193,四平市,境园,细颗粒物(PM2.5),85,70,53,63,20,99,11,64,51,53,15,15,7,0.7,0.6
2023-10-26T20:00:00,2227A,125.1358,42.8845,辽源市,环保局,,44,44,40,28,21,184,17,72,64,46,16,9,11,1.0,0.7
2023-10-26T20:00:00,2229A,125.9358,41.7173,通化市,光明,,34,34,36,20,18,145,40,88,68,34,14,9,7,0.7,0.3
2023-10-26T20:00:00,2230A,125.9446,41.7325,通化市,铁路,,32,29,36,22,19,149,64,92,76,13,11,6,6,0.3,0.4
2023-10-26T20:00:00,2231A,126.4219,41.9171,白山市,喜丰,颗粒物(PM10),58,65,60,22,20,118,26,75,65,54,16,11,8,0.7,0.6
2023-10-26T20:00:00,2232A,126.4077,41.9419,白山市,环保局,颗粒物(PM10),60,70,59,30,26,82,32,73,67,46,17,11,10,0.8,0.8
2023-10-26T20:00:00,2233A,124.8006,45.1214,松原市,江南,细颗粒物(PM2.5),77,93,40,56,18,75,6,48,29,48,12,10,6,1.4,0.4
2023-10-26T20:00:00,2234A,124.7965,45.1722,松原市,江北,颗粒物(PM10),55,59,38,21,12,67,8,57,46,44,9,3,3,0.5,0.3
2023-10-26T20:00:00,2235A,122.7911,45.6077,白城市,洮北区环保局,细颗粒物(PM2.5),60,67,36,43,13,87,40,80,64,48,17,9,7,0.8,0.6
2023-10-26T20:00:00,2236A,122.8738,45.5725,白城市,市环保局,颗粒物(PM10),104,157,43,36,10,77,11,70,50,61,17,8,5,0.4,0.3
2023-10-26T20:00:00,2237A,129.47,42.8883,延边朝鲜族自治州,妇幼医院,,44,44,48,22,25,73,34,67,59,34,24,12,11,0.5,0.5
2023-10-26T20:00:00,2238A,129.5055,42.9108,延边朝鲜族自治州,延边医院,,33,33,64,15,31,78,44,74,67,37,31,7,8,0.6,0.8
2023-10-26T20:00:00,2239A,129.3964,42.8881,延边朝鲜族自治州,朝阳川镇医院,,27,27,43,4,19,83,55,76,70,14,14,5,7,0.4,0.5
2023-10-26T20:00:00,2240A,130.9762,45.3001,鸡西市,环保局,,35,35,90,11,38,44,31,35,35,21,29,11,7,0.4,0.6
2023-10-26T20:00:00,2243A,130.9429,45.3039,鸡西市,第一中学,,34,34,64,11,25,60,42,55,43,12,25,6,9,0.1,0.3
2023-10-26T20:00:00,2244A,130.2537,47.3416,鹤岗市,哈啤分公司,,22,22,32,15,22,56,44,52,49,8,16,13,14,0.3,0.2
2023-10-26T20:00:00,2245A,130.2684,47.3086,鹤岗市,斯达机电,,37,37,40,20,24,55,37,49,44,17,19,10,12,0.4,0.4
2023-10-26T20:00:00,2246A,130.3114,47.3388,鹤岗市,东山纸板厂,,24,24,58,9,29,59,43,55,50,15,24,15,13,0.7,0.6
2023-10-26T20:00:00,2247A,130.1097,47.3382,鹤岗市,五号水库,,18,18,25,7,13,59,43,53,51,9,12,10,12,0.4,0.5
2023-10-26T20:00:00,2248A,131.1511,46.6937,双鸭山市,双合村,,33,33,61,6,27,69,42,58,45,11,14,9,14,0.5,0.8
2023-10-26T20:00:00,2249A,131.1652,46.6191,双鸭山市,南小市,,22,22,40,14,19,67,40,61,48,15,11,6,7,0.4,0.4
2023-10-26T20:00:00,2250A,131.1524,46.6554,双鸭山市,环保局,,50,50,44,28,26,69,23,54,39,25,18,11,8,0.5,0.3
2023-10-26T20:00:00,2251A,131.12,46.5656,双鸭山市,苗圃,,,,46,,37,74,,81,,,9,,3,,0.3
2023-10-26T20:00:00,2252A,128.5159,47.4311,伊春市,环保局,,17,17,20,7,12,64,22,51,38,21,12,2,6,0.5,0.4
2023-10-26T20:00:00,2253A,128.9102,47.7412,伊春市,电力嘉园,,26,26,25,16,14,67,16,52,42,28,10,4,7,0.3,0.3
2023-10-26T20:00:00,2254A,129.5029,48.471,伊春市,汤旺河国家公园,,10,9,20,7,10,56,26,45,36,7,5,4,4,0.1,0.2
2023-10-26T20:00:00,2255A,130.2751,46.8028,佳木斯市,佳纺,细颗粒物(PM2.5),73,72,45,53,25,66,25,51,48,27,25,3,3,0.4,0.5
2023-10-26T20:00:00,2256A,130.3995,46.8307,佳木斯市,发电厂,,17,17,34,4,18,54,43,52,48,9,17,5,6,0.4,0.4
2023-10-26T20:00:00,2257A,130.3258,46.7975,佳木斯市,环保局,细颗粒物(PM2.5),54,52,41,38,26,50,27,42,38,22,32,4,6,0.4,0.7
2023-10-26T20:00:00,2258A,130.3648,46.8032,佳木斯市,十一中,,36,36,40,24,20,52,29,49,41,28,31,2,3,0.5,0.4
2023-10-26T20:00:00,2259A,130.3794,46.7588,佳木斯市,四丰,,23,23,26,7,14,87,40,60,48,15,19,1,5,0.3,0.2
2023-10-26T20:00:00,2262A,131.0518,45.8751,七台河市,新一中,,25,25,35,10,21,70,49,65,59,13,16,8,8,0.4,0.5
2023-10-26T20:00:00,2263A,127.4833,50.2524,黑河市,交通局,颗粒物(PM10),67,83,30,46,20,59,15,42,30,43,14,8,4,0.7,0.4
2023-10-26T20:00:00,2264A,127.5144,50.2341,黑河市,环保局,细颗粒物(PM2.5),67,62,24,48,20,62,28,47,42,42,10,8,5,0.6,0.4
2023-10-26T20:00:00,2265A,127.5291,50.2472,黑河市,大黑河岛,,,72,29,47,21,,,,,2,2,2,2,,
2023-10-26T20:00:00,2266A,126.9785,46.6365,绥化市,人和东街,,47,47,27,24,12,59,19,47,34,32,16,4,3,0.5,0.4
2023-10-26T20:00:00,2267A,126.964,46.6528,绥化市,党政办公中心,颗粒物(PM10),51,51,28,24,13,77,15,49,36,34,13,4,3,0.4,0.3
2023-10-26T20:00:00,2269A,124.1069,50.4097,大兴安岭地区,科技局,,22,22,15,15,13,59,52,56,56,7,3,6,6,0.2,0.2
2023-10-26T20:00:00,2270A,117.396,32.939,蚌埠市,工人疗养院,颗粒物(PM10),74,98,131,53,81,182,97,160,148,69,39,6,12,0.9,0.9
2023-10-26T20:00:00,2271A,117.3605,32.9427,蚌埠市,百货大楼,颗粒物(PM10),77,103,126,50,75,188,95,158,141,71,43,7,10,0.8,0.8
2023-10-26T20:00:00,2273A,117.4185,32.8911,蚌埠市,蚌埠学院,细颗粒物(PM2.5),92,102,121,68,84,177,117,159,154,36,34,8,14,0.7,0.9
2023-10-26T20:00:00,2274A,117.3533,32.9673,蚌埠市,淮上区政府,细颗粒物(PM2.5),80,97,114,59,82,182,101,156,148,50,32,9,12,0.8,0.7
2023-10-26T20:00:00,2275A,117.3145,32.8977,蚌埠市,高新区,颗粒物(PM10),86,122,136,63,92,186,31,162,133,103,60,7,11,0.9,1
2023-10-26T20:00:00,2277A,116.8305,32.7727,淮南市,潘集区政府,颗粒物(PM10),81,112,113,53,68,161,90,143,137,50,41,8,10,0.7,0.8
2023-10-26T20:00:00,2278A,117.0067,32.6524,淮南市,师范学院,细颗粒物(PM2.5),89,97,92,66,55,166,89,151,138,50,39,9,11,1.0,0.9
2023-10-26T20:00:00,2279A,116.8569,32.5951,淮南市,谢家集区政府,颗粒物(PM10),64,78,71,33,42,158,128,146,141,26,35,7,8,0.4,0.5
2023-10-26T20:00:00,2280A,116.8281,32.633,淮南市,八公山区政府,颗粒物(PM10),58,65,75,36,45,154,129,145,144,22,22,8,9,0.4,0.5
2023-10-26T20:00:00,2281A,116.6325,32.6201,淮南市,焦岗湖风景区管理处,颗粒物(PM10),60,69,68,38,41,156,77,132,127,24,27,2,2,0.8,0.7
2023-10-26T20:00:00,2282A,116.8004,33.975,淮北市,监测站,细颗粒物(PM2.5),114,127,119,86,76,154,123,135,134,38,48,13,14,1.0,1
2023-10-26T20:00:00,2283A,116.8091,33.9007,淮北市,烈山区政府,细颗粒物(PM2.5),92,125,143,68,96,170,58,130,124,59,56,8,13,0.7,0.7
2023-10-26T20:00:00,2285A,117.8177,30.9412,铜陵市,市第四中学,细颗粒物(PM2.5),75,95,96,55,60,173,44,137,128,78,57,8,12,1.5,1.2
2023-10-26T20:00:00,2286A,117.8059,30.9273,铜陵市,市公路局,颗粒物(PM10),65,80,95,28,42,167,81,129,129,36,48,12,16,1.1,1.3
2023-10-26T20:00:00,2287A,117.7807,30.9413,铜陵市,市新民污水厂,颗粒物(PM10),70,89,114,37,49,167,26,122,112,74,54,6,11,0.6,0.8
2023-10-26T20:00:00,2288A,117.7439,30.8792,铜陵市,市第九中学,颗粒物(PM10),79,108,133,54,61,128,65,99,96,68,68,8,8,0.8,1.2
2023-10-26T20:00:00,2289A,117.846,30.9413,铜陵市,车站新区,细颗粒物(PM2.5),77,70,89,56,60,168,76,144,139,55,55,3,8,0.8,0.9
2023-10-26T20:00:00,2290A,117.8483,30.97,铜陵市,市职教基地,细颗粒物(PM2.5),73,85,94,53,58,158,102,140,138,32,36,10,11,0.8,1.1
2023-10-26T20:00:00,2291A,117.0809,30.5177,安庆市,环科院,细颗粒物(PM2.5),83,95,101,61,66,186,105,158,156,51,62,11,11,1.2,1.1
2023-10-26T20:00:00,2292A,117.0331,30.5119,安庆市,马山宾馆,细颗粒物(PM2.5),82,87,98,60,75,188,113,161,159,49,65,9,9,1.1,1
2023-10-26T20:00:00,2294A,116.9896,30.6145,安庆市,安庆大学,细颗粒物(PM2.5),70,72,73,51,54,174,74,150,141,51,88,6,7,0.9,1
2023-10-26T20:00:00,2295A,118.2903,29.6963,黄山市,延安路89号,颗粒物(PM10),59,68,62,32,30,129,36,94,94,15,11,5,5,0.6,0.5
2023-10-26T20:00:00,2296A,118.327,29.7178,黄山市,黄山东路89号,细颗粒物(PM2.5),77,78,66,56,42,119,17,82,78,43,19,5,5,1.0,0.8
2023-10-26T20:00:00,2297A,118.1371,30.2756,黄山市,黄山区政府5号楼,细颗粒物(PM2.5),68,78,55,49,36,135,48,115,106,18,11,7,7,0.9,0.8
2023-10-26T20:00:00,2298A,118.3093,32.3153,滁州市,老年大学,细颗粒物(PM2.5),75,72,68,55,56,207,67,166,151,49,36,6,8,1.0,1
2023-10-26T20:00:00,2299A,118.3244,32.2786,滁州市,人大宾馆,细颗粒物(PM2.5),80,95,85,59,67,218,62,172,146,80,49,8,9,1.0,1
2023-10-26T20:00:00,2301A,115.8277,32.8929,阜阳市,市监测站,细颗粒物(PM2.5),145,170,99,111,69,170,66,143,134,89,35,13,10,1.4,0.8
2023-10-26T20:00:00,2303A,115.8554,32.8605,阜阳市,开发区,细颗粒物(PM2.5),125,186,118,95,75,177,43,146,136,105,42,11,11,1.2,0.8
2023-10-26T20:00:00,2307A,116.5079,31.737,六安市,监测大楼,颗粒物(PM10),63,76,63,43,32,159,72,141,128,56,37,6,5,0.6,0.5
2023-10-26T20:00:00,2308A,116.4738,31.7643,六安市,皖西学院,颗粒物(PM10),75,99,73,35,39,160,50,146,128,72,41,7,7,1.0,0.6
2023-10-26T20:00:00,2309A,116.4996,31.7905,六安市,朝阳厂,,,,61,,46,164,67,147,133,,37,7,7,,0.7
2023-10-26T20:00:00,2310A,116.5567,31.7886,六安市,开发区,颗粒物(PM10),96,142,89,54,44,156,2,136,110,98,39,9,7,0.8,0.7
2023-10-26T20:00:00,2311A,115.8072,33.8399,亳州市,污水处理厂,细颗粒物(PM2.5),198,237,146,148,94,167,96,138,138,57,44,17,15,1.0,0.9
2023-10-26T20:00:00,2312A,115.7789,33.8518,亳州市,三国揽胜宫,细颗粒物(PM2.5),150,154,129,115,103,178,112,146,146,52,43,18,17,0.8,0.7
2023-10-26T20:00:00,2314A,117.47,30.6618,池州市,池州学院,细颗粒物(PM2.5),75,91,84,55,56,159,96,141,140,41,29,9,9,0.8,1.1
2023-10-26T20:00:00,2316A,118.7581,30.9454,宣城市,鳌峰子站,细颗粒物(PM2.5),73,90,80,53,55,150,39,128,117,67,34,4,6,1.2,0.8
2023-10-26T20:00:00,2317A,118.7385,30.9743,宣城市,敬亭山子站,颗粒物(PM10),54,57,70,32,50,157,113,136,132,13,21,7,9,0.6,0.8
2023-10-26T20:00:00,2318A,118.7173,30.9427,宣城市,开发区子站,细颗粒物(PM2.5),69,85,90,50,60,148,69,133,123,52,45,5,6,0.8,0.8
2023-10-26T20:00:00,2319A,119.0141,25.4325,莆田市,荔城区仓后路,,,31,24,26,12,106,,91,85,17,10,6,6,0.7,0.7
2023-10-26T20:00:00,2320A,119.0015,25.4553,莆田市,莆田市监测站,,33,33,22,23,11,112,56,95,85,12,8,8,8,0.6,0.6
2023-10-26T20:00:00,2321A,119.1119,25.4561,莆田市,涵江区六中,,36,36,28,20,13,104,60,90,81,14,10,8,7,0.6,0.6
2023-10-26T20:00:00,2322A,119.1013,25.3215,莆田市,秀屿区政府,,19,9,24,10,13,97,60,88,81,11,14,9,8,0.7,0.6
2023-10-26T20:00:00,2323A,118.981,25.4792,莆田市,东圳水库,,,,,,,,,,,,,,,,
2023-10-26T20:00:00,2324A,117.6211,26.2625,三明市,三钢,,33,32,42,23,39,52,42,10,,15,31,6,8,0.5,0.4
2023-10-26T20:00:00,2325A,117.635,26.2714,三明市,三明二中,,30,20,38,21,35,66,50,53,47,11,22,3,6,0.5,0.6
2023-10-26T20:00:00,2326A,117.6028,26.2378,三明市,三元区政府,,30,30,42,17,31,71,49,54,47,13,24,3,8,0.8,0.8
2023-10-26T20:00:00,2327A,117.7275,26.3108,三明市,洋溪,,,,,,,,,,,,,,,,
2023-10-26T20:00:00,2331A,118.0966,26.6761,南平市,茫荡山,,,,,,,,,,,,,,,,
2023-10-26T20:00:00,2332A,118.1681,26.6369,南平市,南平市监测站,,36,28,40,25,31,68,40,46,46,14,22,4,4,0.6,0.6
2023-10-26T20:00:00,2333A,118.1825,26.6489,南平市,南平铝业有限公司,,35,26,35,24,32,66,45,48,48,15,25,4,6,0.7,0.7
2023-10-26T20:00:00,2334A,118.1756,26.6272,南平市,南平七中,,32,25,34,22,29,63,46,44,44,9,19,5,4,0.7,0.6
2023-10-26T20:00:00,2335A,117.0189,25.1181,龙岩市,龙岩师专,,,,,,,,,,,,,,,,
2023-10-26T20:00:00,2336A,117.0217,25.1033,龙岩市,龙岩市监测站,,,36,45,28,29,124,55,99,91,18,28,,5,0.6,0.7
2023-10-26T20:00:00,2337A,117.0258,25.0661,龙岩市,闽西职业技术学院,,50,50,49,30,32,120,55,101,89,19,26,4,9,0.8,0.7
2023-10-26T20:00:00,2338A,117.0196,25.0306,龙岩市,龙岩学院,颗粒物(PM10),53,56,38,31,27,113,47,92,84,15,13,4,4,0.7,0.6
2023-10-26T20:00:00,2339A,119.5001,26.6946,宁德市,金涵水库,,,,,,,,,,,,,,,,
2023-10-26T20:00:00,2341A,119.5388,26.6612,宁德市,宁德市监测站,,31,31,23,20,18,69,31,46,46,16,18,6,6,0.7,0.6
2023-10-26T20:00:00,2342A,117.3102,29.3867,景德镇市,王港中学,,39,39,32,27,23,90,22,68,65,5,4,2,2,0.5,0.4
2023-10-26T20:00:00,2343A,117.2117,29.2933,景德镇市,老干部活动中心,细颗粒物(PM2.5),54,56,51,38,35,106,51,84,84,23,20,15,14,0.7,0.6
2023-10-26T20:00:00,2344A,117.1894,29.2789,景德镇市,兽医站,颗粒物(PM10),54,57,57,36,50,88,46,59,59,34,25,2,11,0.8,1
2023-10-26T20:00:00,2345A,117.1547,29.2617,景德镇市,台达陶瓷,细颗粒物(PM2.5),65,67,64,47,46,97,48,80,78,40,32,60,19,0.6,0.7
2023-10-26T20:00:00,2346A,117.2461,29.2956,景德镇市,陶研所,,47,47,61,27,32,96,43,73,73,2,10,4,6,0.5,0.6
2023-10-26T20:00:00,2347A,114.0997,27.5002,萍乡市,武功山,,13,5,16,3,11,70,40,67,58,6,8,6,6,0.2,0.2
2023-10-26T20:00:00,2348A,113.8385,27.6434,萍乡市,中医院,细颗粒物(PM2.5),59,43,33,42,31,92,32,76,61,32,12,11,12,1.1,0.8
2023-10-26T20:00:00,2349A,113.8493,27.6253,萍乡市,市政府车库,,45,42,41,31,30,83,32,70,60,25,14,10,14,0.9,0.9
2023-10-26T20:00:00,2350A,113.8676,27.6435,萍乡市,市环保局,,45,45,39,28,30,88,44,76,62,28,13,14,12,0.8,0.7
2023-10-26T20:00:00,2351A,113.866,27.6198,萍乡市,安源区政府,,50,39,42,35,32,81,41,72,63,15,17,9,14,0.6,0.8
2023-10-26T20:00:00,2352A,115.0861,27.9317,新余市,北岗,细颗粒物(PM2.5),53,34,46,37,39,112,41,94,87,26,13,6,20,0.5,0.5
2023-10-26T20:00:00,2353A,114.9886,27.8431,新余市,飞宇,细颗粒物(PM2.5),65,72,61,47,39,101,39,81,76,30,21,8,11,1.0,0.8
2023-10-26T20:00:00,2354A,114.9231,27.8246,新余市,第二水厂,颗粒物(PM10),90,130,92,37,36,115,39,97,87,25,16,12,10,0.7,0.5
2023-10-26T20:00:00,2355A,114.9308,27.8036,新余市,市气象局,,,67,57,47,44,95,34,82,70,,18,10,8,1.0,0.8
2023-10-26T20:00:00,2357A,116.9822,28.1136,鹰潭市,龙虎山,颗粒物(PM10),57,64,72,37,36,89,30,69,67,7,19,4,8,0.3,0.3
2023-10-26T20:00:00,2358A,117.0564,28.2642,鹰潭市,新监测站,细颗粒物(PM2.5),77,74,79,56,59,113,44,88,84,23,23,4,9,0.6,0.7
2023-10-26T20:00:00,2359A,117.0311,28.2475,鹰潭市,财苑宾馆,细颗粒物(PM2.5),75,68,81,55,66,117,52,95,92,18,21,6,15,0.7,0.7
2023-10-26T20:00:00,2360A,117.0222,28.2264,鹰潭市,体育馆,细颗粒物(PM2.5),83,67,85,61,72,110,40,92,86,17,26,2,23,0.8,0.8
2023-10-26T20:00:00,2361A,117.0017,28.2131,鹰潭市,三川水表,,,68,87,54,69,117,52,93,91,10,27,6,14,,0.8
2023-10-26T20:00:00,2362A,114.9017,25.9149,赣州市,通天岩,,,,,,,,,,,,,,,,
2023-10-26T20:00:00,2363A,114.9367,25.8664,赣州市,地委,细颗粒物(PM2.5),53,25,67,37,46,94,62,76,73,8,13,7,11,1.0,1.1
2023-10-26T20:00:00,2364A,114.9461,25.8481,赣州市,气象台,细颗粒物(PM2.5),53,18,62,37,45,97,62,75,72,14,23,5,10,1.3,0.9
2023-10-26T20:00:00,2365A,114.9322,25.8333,赣州市,市图书馆,,25,25,73,13,47,96,62,80,77,11,16,8,14,1.1,1.3
2023-10-26T20:00:00,2366A,114.8905,25.8471,赣州市,华坚鞋城,,35,28,68,24,49,97,66,82,80,11,14,7,13,1.3,1.3
2023-10-26T20:00:00,2367A,114.9754,27.0803,吉安市,红声器材厂,,50,48,65,35,45,75,60,70,69,18,24,8,12,0.7,0.9
2023-10-26T20:00:00,2368A,114.9658,27.0999,吉安市,市森林工业局,细颗粒物(PM2.5),55,49,68,39,46,75,57,70,68,19,24,11,16,0.6,0.8
2023-10-26T20:00:00,2369A,114.99,27.1312,吉安市,市环境监测站,细颗粒物(PM2.5),52,50,62,36,41,74,41,71,65,32,25,12,11,0.8,0.9
2023-10-26T20:00:00,2370A,115.0093,27.0968,吉安市,青原区法院,细颗粒物(PM2.5),57,50,60,40,45,80,64,72,71,16,24,9,12,0.8,0.9
2023-10-26T20:00:00,2371A,114.3408,27.8064,宜春市,槟榔水业,,31,31,42,20,28,103,35,86,74,22,24,1,4,0.5,0.5
2023-10-26T20:00:00,2373A,114.3956,27.7844,宜春市,市石油公司,,38,32,52,26,36,86,32,78,59,20,16,2,4,0.7,0.5
2023-10-26T20:00:00,2374A,114.3703,27.7914,宜春市,市气象局,,,40,52,32,37,87,35,80,69,15,19,3,4,,0.8
2023-10-26T20:00:00,2375A,114.4013,27.8074,宜春市,市广电局,颗粒物(PM10),52,53,47,28,32,87,41,80,66,23,19,3,5,0.9,0.6
2023-10-26T20:00:00,2376A,116.2127,28.0814,抚州市,桐源党溪,,50,50,62,32,48,105,40,85,79,5,8,3,2,0.8,1
2023-10-26T20:00:00,2377A,116.3544,27.9831,抚州市,市站,细颗粒物(PM2.5),74,79,76,54,59,105,53,90,86,20,17,10,10,1.3,1.5
2023-10-26T20:00:00,2378A,116.3565,27.963,抚州市,血防站,细颗粒物(PM2.5),72,70,79,52,60,97,50,84,79,17,15,1,4,1.4,1.3
2023-10-26T20:00:00,2379A,116.3564,28.0007,抚州市,采茶剧团,细颗粒物(PM2.5),75,64,74,55,61,96,44,84,79,18,15,6,6,1.1,1.1
2023-10-26T20:00:00,2380A,116.385,27.9647,抚州市,医学分院,细颗粒物(PM2.5),67,72,80,48,55,102,55,88,85,16,15,7,9,1.3,1.3
2023-10-26T20:00:00,2381A,118.005,28.4572,上饶市,百草园,,,65,70,55,24,50,24,33,32,22,27,13,10,,
2023-10-26T20:00:00,2382A,117.9756,28.4436,上饶市,市监测站,细颗粒物(PM2.5),78,82,83,57,54,48,36,40,40,29,38,11,11,1.0,1
2023-10-26T20:00:00,2383A,117.9519,28.4628,上饶市,凤凰光学,细颗粒物(PM2.5),82,85,80,60,49,67,19,40,38,48,44,26,15,0.8,0.7
2023-10-26T20:00:00,2385A,114.17,35.9019,鹤壁市,市监测站,"颗粒物(PM10),细颗粒物(PM2.5)",92,133,86,68,48,150,77,116,115,40,33,9,12,0.8,0.9
2023-10-26T20:00:00,2386A,114.2956,35.7511,鹤壁市,市交警支队,颗粒物(PM10),91,132,101,54,46,161,82,125,124,37,38,12,8,0.7,0.8
2023-10-26T20:00:00,2387A,114.2878,35.7306,鹤壁市,迎宾馆,颗粒物(PM10),84,118,88,52,45,167,80,140,127,46,41,13,12,0.7,0.8
2023-10-26T20:00:00,2389A,113.836,35.311,新乡市,环保西院,颗粒物(PM10),84,118,121,50,63,143,114,122,122,35,59,13,15,0.6,0.8
2023-10-26T20:00:00,2390A,113.884,35.272,新乡市,开发区,颗粒物(PM10),82,114,109,48,64,144,116,122,122,25,48,9,14,0.8,0.9
2023-10-26T20:00:00,2391A,113.883,35.303,新乡市,环保东院,颗粒物(PM10),92,134,120,55,65,141,102,115,115,33,51,12,16,0.6,0.8
2023-10-26T20:00:00,2392A,115.0312,35.7636,濮阳市,环保局,颗粒物(PM10),64,77,102,14,53,143,79,119,117,16,41,7,13,0.5,1
2023-10-26T20:00:00,2394A,115.0574,35.7609,濮阳市,油田运输公司,颗粒物(PM10),73,95,120,18,63,154,80,126,124,21,44,6,13,0.5,0.9
2023-10-26T20:00:00,2395A,115.0866,35.7754,濮阳市,油田物探公司,颗粒物(PM10),71,91,109,21,61,158,78,126,123,16,42,8,12,0.4,0.8
2023-10-26T20:00:00,2396A,113.8276,34.0159,许昌市,监测站,颗粒物(PM10),86,121,115,50,68,148,104,128,128,38,44,8,11,0.6,0.8
2023-10-26T20:00:00,2398A,113.7906,33.9953,许昌市,开发区,,,102,104,46,70,155,,142,142,26,42,7,11,0.6,0.6
2023-10-26T20:00:00,2399A,114.051,33.5699,漯河市,三五一五工厂,颗粒物(PM10),118,186,109,65,57,152,99,126,126,45,33,12,14,0.5,0.6
2023-10-26T20:00:00,2400A,114.0055,33.5698,漯河市,漯河大学,颗粒物(PM10),108,165,100,54,52,154,100,130,130,46,38,11,13,0.6,0.7
2023-10-26T20:00:00,2401A,114.0138,33.5828,漯河市,市水利局,颗粒物(PM10),117,183,110,56,51,149,91,117,116,47,35,11,12,0.7,0.7
2023-10-26T20:00:00,2402A,114.0261,33.5698,漯河市,市广电局,颗粒物(PM10),117,183,109,62,54,147,106,124,124,36,33,6,8,0.6,0.7
2023-10-26T20:00:00,2404A,112.5224,33.0122,南阳市,瓦房庄,颗粒物(PM10),94,138,75,62,46,121,5,94,78,125,52,9,8,1.5,0.8
2023-10-26T20:00:00,2405A,112.5003,32.9735,南阳市,汉画馆,细颗粒物(PM2.5),95,108,72,71,46,124,18,84,76,89,44,6,6,1.0,0.8
2023-10-26T20:00:00,2406A,112.5573,33.027,南阳市,气象站,颗粒物(PM10),70,90,67,46,42,126,43,95,94,80,44,4,4,0.9,0.7
