timepoint,stationcode,longitude,latitude,area,positionname,primarypollutant,aqi,pm10,pm10_24h,pm2_5,pm2_5_24h,o3,o3_24h,o3_8h,o3_8h_24h,no2,no2_24h,so2,so2_24h,co,co_24h
2026-01-07T0700,2568A,102.2503,31.8896,阿坝藏族羌族自治州,马师校,,20,,17,14,14,34,,,,8,17,4,4,0.6,0.7
2026-01-07T0700,3994A,102.2174,31.9016,阿坝藏族羌族自治州,马尔康中学西区,,13,10,11,6,11,41,,,,6,13,5,5,0.5,0.6
2026-01-07T0700,2695A,80.2899,41.1684,阿克苏地区,电视台,,48,37,57,33,39,30,,,,21,32,4,4,0.6,0.8
2026-01-07T0700,2696A,80.2592,41.1541,阿克苏地区,艺术中心,细颗粒物(PM2.5),53,41,53,37,43,33,,,,13,22,3,4,0.7,0.7
2026-01-07T0700,2205A,105.699,38.8409,阿拉善盟,蒙二幼,颗粒物(PM10),88,125,49,31,20,56,,,,14,13,10,10,0.7,0.6
2026-01-07T0700,2206A,105.7198,38.8508,阿拉善盟,环保局新楼,颗粒物(PM10),81,111,40,22,19,69,,,,7,8,9,9,0.7,0.6
2026-01-07T0700,2708A,88.1266,47.8515,阿勒泰地区,市站,,22,22,20,9,9,44,,,,25,36,4,4,0.5,0.5
2026-01-07T0700,4166A,88.1198,47.7931,阿勒泰地区,阿勒泰路33号,,21,21,18,7,6,51,,,,26,29,15,8,0.4,0.4
2026-01-07T0700,2630A,80.1171,32.4999,阿里地区,阿里监测站,,23,6,3,3,3,72,,,,1,9,7,11,0.3,0.4
2026-01-07T0700,3192A,80.0906,32.5029,阿里地区,阿里藏医院,,19,15,13,8,10,59,,,,8,7,10,12,0.6,0.6
2026-01-07T0700,2644A,109.0088,32.6974,安康市,汉滨区检察院,,39,39,56,27,40,8,,,,19,24,4,5,0.5,0.7
2026-01-07T0700,4054A,109.0324,32.6913,安康市,市邮政管理局,,46,40,60,32,46,11,,,,17,25,8,6,0.5,0.7
2026-01-07T0700,2291A,117.0806,30.5181,安庆市,环科院,细颗粒物(PM2.5),62,56,72,44,54,6,,,,45,25,5,5,0.4,0.5
2026-01-07T0700,2292A,117.0331,30.5118,安庆市,马山宾馆,细颗粒物(PM2.5),62,63,69,44,52,3,,,,48,25,5,4,0.5,0.6
2026-01-07T0700,2294A,116.9897,30.6146,安庆市,安庆大学,细颗粒物(PM2.5),75,79,62,55,46,1,,,,30,23,4,4,0.8,0.6
2026-01-07T0700,3173A,117.0598,30.5351,安庆市,市人大,细颗粒物(PM2.5),64,66,70,46,53,0,,,,49,29,7,7,0.6,0.5
2026-01-07T0700,3123A,105.9408,26.2431,安顺市,凤凰山,细颗粒物(PM2.5),55,41,37,39,34,48,,,,26,14,18,15,0.8,0.9
2026-01-07T0700,3124A,105.9443,26.2567,安顺市,金钟山,细颗粒物(PM2.5),52,40,35,36,32,45,,,,19,10,24,18,0.8,0.8
2026-01-07T0700,3125A,105.8983,26.248,安顺市,娄家坡,细颗粒物(PM2.5),54,45,40,38,34,59,,,,13,14,20,17,0.7,0.7
2026-01-07T0700,1819A,114.3552,36.1017,安阳市,红庙街,,37,37,42,17,23,8,,,,40,25,4,10,0.9,0.9
2026-01-07T0700,1820A,114.361,36.0681,安阳市,银杏小区,,49,49,41,22,20,4,,,,46,23,4,6,0.6,0.5
2026-01-07T0700,3141A,114.3921,36.0879,安阳市,信访局,,45,45,40,25,28,34,,,,32,22,4,6,0.7,0.8
2026-01-07T0700,3669A,114.4706,36.0634,安阳市,左辅环卫站,颗粒物(PM10),60,70,59,22,24,37,,,,21,18,8,9,0.6,0.7
2026-01-07T0700,4117A,114.2918,36.0769,安阳市,钢三路198号,颗粒物(PM10),52,53,42,34,27,16,,,,34,21,3,5,0.7,0.6
2026-01-07T0700,1748A,123.0441,41.1201,鞍山市,深沟寺,,32,32,58,12,34,57,,,,12,28,7,12,0.7,1.2
2026-01-07T0700,1749A,123.011,41.0931,鞍山市,太阳城,,39,39,58,14,35,47,,,,27,36,43,26,2.4,1.9
2026-01-07T0700,1750A,123.0483,41.1445,鞍山市,太平,,30,30,63,10,34,52,,,,17,34,10,15,1.0,1.3
2026-01-07T0700,1751A,122.964,41.0968,鞍山市,铁西三道街,,30,30,66,7,36,48,,,,25,36,19,19,1.4,1.4
2026-01-07T0700,1753A,123.0219,41.0822,鞍山市,明达新区,,33,33,57,12,33,46,,,,22,25,37,24,1.8,1.5
2026-01-07T0700,4201A,122.944647,41.082639,鞍山市,兴盛南路290号,颗粒物(PM10),57,63,74,28,42,18,,,,57,46,13,18,0.9,1
2026-01-07T0700,2195A,107.4206,40.7609,巴彦淖尔市,附二中,颗粒物(PM10),63,75,75,30,31,50,,,,8,9,2,3,0.4,0.4
2026-01-07T0700,2196A,107.37,40.7372,巴彦淖尔市,市环保大楼,颗粒物(PM10),58,66,76,23,24,53,,,,7,9,4,4,0.4,0.4
2026-01-07T0700,1956A,86.1476,41.7529,巴音郭楞蒙古自治州,孔雀公园,,39,39,56,24,33,15,,,,37,22,6,6,0.6,0.5
2026-01-07T0700,1957A,86.1971,41.7166,巴音郭楞蒙古自治州,棉纺厂,颗粒物(PM10),51,52,70,6,21,40,,,,14,20,/,/,/,/
2026-01-07T0700,1958A,86.236,41.7172,巴音郭楞蒙古自治州,经济开发区,,46,46,55,17,20,34,,,,16,19,5,4,0.6,0.6
2026-01-07T0700,3181A,106.776805,31.852614,巴中市,市五中,细颗粒物(PM2.5),55,49,52,39,39,8,,,,26,23,5,5,1.0,0.9
2026-01-07T0700,3183A,106.7419,31.8654,巴中市,圣泉水务公司,,40,36,44,28,33,23,,,,19,29,4,4,0.4,0.5
2026-01-07T0700,3616A,106.7617,31.8343,巴中市,市中心医院,细颗粒物(PM2.5),60,52,54,43,41,1,,,,31,30,6,6,0.8,0.8
2026-01-07T0700,2235A,122.7909,45.608,白城市,洮北区环保局,,35,35,35,13,17,42,,,,15,8,8,5,0.2,0.2
2026-01-07T0700,2236A,122.8741,45.5725,白城市,市环保局,,22,,32,15,19,53,,,,11,10,9,7,0.4,0.4
2026-01-07T0700,2231A,126.4219,41.9172,白山市,喜丰,颗粒物(PM10),63,75,61,6,27,66,,,,8,22,9,15,0.6,1
2026-01-07T0700,2232A,126.4082,41.9416,白山市,环保局,颗粒物(PM10),58,66,56,11,32,63,,,,10,26,9,13,0.7,1.3
2026-01-07T0700,2647A,104.1727,36.5448,白银市,第三小学,细颗粒物(PM2.5),52,41,53,36,43,30,,,,29,31,26,19,1.1,1
2026-01-07T0700,2648A,104.1467,36.5482,白银市,动力公司,,39,32,48,27,38,19,,,,33,24,5,12,1.0,0.8
2026-01-07T0700,2512A,106.6102,23.901,百色市,市监测站,,28,24,30,19,20,4,,,,22,18,7,8,0.7,0.7
2026-01-07T0700,2513A,106.6524,23.8842,百色市,市中心血站,,36,31,37,25,30,8,,,,26,27,7,9,0.7,0.8
2026-01-07T0700,4133A,106.6273,23.8798,百色市,龙景西路,,35,35,40,23,24,0,,,,16,17,6,8,0.6,0.6
2026-01-07T0700,2270A,117.396,32.9389,蚌埠市,工人疗养院,颗粒物(PM10),58,66,73,38,42,31,,,,28,21,5,5,0.4,0.5
2026-01-07T0700,2271A,117.3606,32.9428,蚌埠市,百货大楼,颗粒物(PM10),52,54,63,35,41,33,,,,25,19,6,6,0.4,0.4
2026-01-07T0700,2273A,117.4183,32.8909,蚌埠市,蚌埠学院,颗粒物(PM10),60,70,68,40,45,23,,,,36,28,3,4,0.3,0.4
2026-01-07T0700,2274A,117.3534,32.9672,蚌埠市,淮上区政府,颗粒物(PM10),53,56,70,33,45,28,,,,35,22,2,2,0.4,0.5
2026-01-07T0700,2275A,117.3143,32.8977,蚌埠市,高新区,细颗粒物(PM2.5),57,48,65,40,43,17,,,,41,28,5,6,0.5,0.5
2026-01-07T0700,3715A,117.3091,32.9314,蚌埠市,蚌埠田家炳中学,细颗粒物(PM2.5),68,73,75,49,48,12,,,,46,30,7,6,0.4,0.4
2026-01-07T0700,1585A,109.8761,40.6533,包头市,市环境监测站,,38,38,57,17,27,33,,,,26,29,6,15,0.5,0.9
2026-01-07T0700,1587A,109.9992,40.5843,包头市,包头八中,颗粒物(PM10),51,52,65,33,37,12,,,,56,42,2,6,0.6,0.8
2026-01-07T0700,1589A,109.8641,40.6288,包头市,惠龙物流,,46,46,57,24,29,30,,,,32,31,8,17,0.6,0.9
2026-01-07T0700,1590A,110.0376,40.5546,包头市,东河鸿龙湾,颗粒物(PM10),58,66,54,31,22,3,,,,71,47,9,9,1.1,0.8
2026-01-07T0700,3283A,109.9154,40.5684,包头市,滨河大厦,细颗粒物(PM2.5),58,61,55,41,27,3,,,,51,28,7,9,0.9,0.8
2026-01-07T0700,3419A,109.9449,40.6259,包头市,包头市委党校,,50,50,58,15,30,3,,,,58,39,8,13,0.8,0.9
2026-01-07T0700,3683A,109.8332,40.6577,包头市,昆区政府,,45,41,56,31,31,39,,,,26,31,9,17,0.8,1.2
2026-01-07T0700,1931A,107.0802,34.3129,宝鸡市,竹园沟,,23,21,30,16,23,30,,,,8,18,5,6,0.3,0.4
2026-01-07T0700,1933A,107.1429,34.3549,宝鸡市,监测站,,36,,44,25,34,18,,,,33,32,5,5,0.5,0.5
2026-01-07T0700,1934A,107.1172,34.3759,宝鸡市,技工学校,,39,39,56,27,34,36,,,,11,19,7,7,0.5,0.6
2026-01-07T0700,1936A,107.2025,34.3518,宝鸡市,文理学院,,35,26,46,24,34,33,,,,24,32,5,5,0.4,0.5
2026-01-07T0700,1937A,107.2396,34.3626,宝鸡市,三迪小学,,40,,50,28,39,28,,,,28,33,3,4,0.5,0.6
2026-01-07T0700,4155A,107.1721,34.3558,宝鸡市,滨河北路,,32,32,48,21,30,31,,,,24,30,4,6,0.7,0.7
2026-01-07T0700,4308A,107.3898,34.3601,宝鸡市,陈仓区北开路21号,细颗粒物(PM2.5),54,51,67,38,51,51,,,,28,34,99,51,1.0,0.8
2026-01-07T0700,1051A,115.4803,38.8568,保定市,游泳馆,颗粒物(PM10),65,79,74,43,48,13,,,,69,50,4,8,0.6,0.8
2026-01-07T0700,1052A,115.509,38.8895,保定市,华电二区,,,63,61,50,44,,,,,27,23,2,4,1.0,1.1
2026-01-07T0700,1053A,115.4588,38.9037,保定市,接待中心,细颗粒物(PM2.5),74,86,70,54,45,7,,,,50,31,1,3,0.5,0.6
2026-01-07T0700,1054A,115.4484,38.8344,保定市,地表水厂,细颗粒物(PM2.5),72,86,103,52,58,5,,,,72,51,5,5,0.6,0.6
2026-01-07T0700,3581A,115.3136,38.9511,保定市,满城区生态环境分局,颗粒物(PM10),59,68,75,29,35,9,,,,69,38,4,5,0.7,0.7
2026-01-07T0700,3582A,115.4709,38.7628,保定市,清苑区第二中学,颗粒物(PM10),62,73,99,43,50,24,,,,53,50,6,9,0.4,0.7
2026-01-07T0700,3583A,115.6231,39.0223,保定市,徐水物探局,细颗粒物(PM2.5),102,116,107,76,61,3,,,,70,52,9,11,0.9,0.9
2026-01-07T0700,4004A,115.4199,38.8665,保定市,双鹰农机,颗粒物(PM10),81,112,99,58,46,9,,,,59,36,7,9,0.7,0.7
2026-01-07T0700,4034A,115.515,38.8589,保定市,植保所站,细颗粒物(PM2.5),79,70,78,58,59,2,,,,78,54,3,4,0.8,0.8
2026-01-07T0700,2594A,99.1589,25.1137,保山市,市环境监测站,,33,,26,23,20,29,,,,9,10,5,4,0.5,0.4
2026-01-07T0700,2595A,99.1616,25.1381,保山市,市环保局,,38,,28,26,18,39,,,,4,8,4,4,0.3,0.4
2026-01-07T0700,1867A,109.1435,21.4085,北海市,海滩公园,,49,45,37,34,24,64,,,,16,14,10,8,0.4,0.3
2026-01-07T0700,1868A,109.0983,21.466,北海市,新市环保局,细颗粒物(PM2.5),64,,34,46,30,61,,,,15,12,7,4,0.8,0.7
2026-01-07T0700,1869A,109.1775,21.5232,北海市,北海工业园,细颗粒物(PM2.5),59,44,39,42,28,55,,,,15,12,12,8,0.7,0.6
2026-01-07T0700,3400A,109.1844,21.4396,北海市,龙潭自来水厂,细颗粒物(PM2.5),67,51,38,48,30,52,,,,16,13,10,7,0.6,0.6
2026-01-07T0700,1001A,116.3611,39.8786,北京市,万寿西宫,,17,15,31,3,13,52,,,,17,24,2,3,0.3,0.3
2026-01-07T0700,1003A,116.4174,39.9289,北京市,东四,,17,16,28,6,10,52,,,,12,15,4,4,0.1,0.2
2026-01-07T0700,1004A,116.4073,39.8858,北京市,天坛,,18,16,29,7,12,55,,,,14,18,2,3,0.2,0.3
2026-01-07T0700,1005A,116.4622,39.9364,北京市,农展馆,,18,14,24,3,10,57,,,,12,12,4,4,0.4,0.5
2026-01-07T0700,1006A,116.3399,39.9293,北京市,官园,,19,19,31,7,13,50,,,,15,14,4,5,0.4,0.4
2026-01-07T0700,1007A,116.2879,39.9613,北京市,海淀万柳,,17,17,26,6,10,40,,,,28,23,3,3,0.4,0.4
2026-01-07T0700,1008A,116.6635,40.1349,北京市,顺义新城,,18,15,32,3,8,57,,,,13,9,3,4,0.3,0.4
2026-01-07T0700,1009A,116.6275,40.327,北京市,怀柔镇,,15,11,20,6,10,46,,,,14,11,6,7,0.4,0.4
2026-01-07T0700,1010A,116.2295,40.217,北京市,昌平镇,,17,17,35,7,12,51,,,,16,11,5,5,0.4,0.5
2026-01-07T0700,1011A,116.3968,39.982,北京市,奥体中心,,16,15,24,6,9,50,,,,23,21,4,4,0.5,0.4
2026-01-07T0700,3418A,116.8336,40.4095,北京市,密云新城,,18,7,18,3,9,56,,,,6,10,3,4,0.3,0.3
2026-01-07T0700,3671A,116.0879,39.9725,北京市,门头沟三家店,,22,13,31,3,9,70,,,,2,4,3,4,0.4,0.4
2026-01-07T0700,3672A,116.1507,39.8246,北京市,丰台云岗,,16,13,42,3,22,51,,,,17,20,2,4,0.4,0.6
2026-01-07T0700,3674A,115.9578,39.7602,北京市,房山燕山,,22,6,41,3,25,68,,,,6,20,3,5,0.2,0.4
2026-01-07T0700,3675A,116.4669,39.7734,北京市,大兴旧宫,,15,10,47,3,23,48,,,,20,34,3,3,0.4,0.6
2026-01-07T0700,3694A,115.9859,40.4562,北京市,延庆石河营,,20,19,27,7,10,9,,,,39,17,2,3,0.4,0.4
2026-01-07T0700,3695A,116.6151,40.3052,北京市,怀柔新城,,16,9,19,6,8,50,,,,5,7,4,5,0.2,0.2
2026-01-07T0700,3696A,116.2542,39.8764,北京市,丰台小屯,,16,16,36,3,15,39,,,,22,18,4,5,0.4,0.4
2026-01-07T0700,3697A,116.8399,40.3843,北京市,密云镇,,25,17,30,6,11,13,,,,49,30,2,2,0.4,0.5
2026-01-07T0700,4057A,115.9423,40.4431,北京市,延庆百泉,,13,13,27,6,10,29,,,,14,8,1,3,0.3,0.3
2026-01-07T0700,4058A,116.6598,39.9164,北京市,通州新华,,19,19,34,3,9,41,,,,26,18,2,3,0.3,0.4
2026-01-07T0700,4182A,116.1942,39.9158,北京市,石景山八角,,19,19,30,6,10,36,,,,24,13,3,3,0.2,0.2
2026-01-07T0700,4194A,117.078628,40.151726,北京市,平谷新城,,14,14,22,6,10,28,,,,24,12,1,2,0.3,0.3
2026-01-07T0700,1761A,123.8274146,41.31234549,本溪市,大峪,,26,26,56,6,29,51,,,,15,27,9,13,0.7,1.2
2026-01-07T0700,1763A,123.7169,41.3094,本溪市,彩屯,,33,33,78,3,43,66,,,,13,36,7,17,0.6,2.4
2026-01-07T0700,1764A,123.7672166,41.28649327,本溪市,东明,,30,30,62,6,29,60,,,,11,21,8,13,0.5,1
2026-01-07T0700,1765A,123.799345,41.266614,本溪市,新立屯,,22,22,58,7,34,60,,,,8,26,10,13,0.7,1
2026-01-07T0700,1766A,123.829144,41.336777,本溪市,威宁,,44,44,78,3,32,60,,,,10,29,7,12,0.7,1.1
2026-01-07T0700,2587A,105.287,27.3133,毕节市,八中,细颗粒物(PM2.5),57,49,47,40,39,35,,,,10,9,10,10,0.7,0.6
2026-01-07T0700,2588A,105.3079,27.2987,毕节市,师专,细颗粒物(PM2.5),58,49,41,41,33,36,,,,12,11,8,8,0.6,0.6
2026-01-07T0700,4263A,105.3688,27.3598,毕节市,工业大道,细颗粒物(PM2.5),59,49,45,42,37,36,,,,9,8,20,11,/,/
2026-01-07T0700,1629A,117.9961,37.3604,滨州市,第二水厂,,34,34,135,12,90,36,,,,27,54,11,19,0.5,0.9
2026-01-07T0700,1630A,117.9789,37.3931,滨州市,北中新校,,36,36,126,14,92,27,,,,38,57,7,14,0.6,0.9
2026-01-07T0700,3514A,117.9379,37.3959,滨州市,中海酒店,,44,44,135,24,104,22,,,,45,54,8,16,0.9,1.1
2026-01-07T0700,3515A,117.9381509,37.35547456,滨州市,开发区一中,,41,41,134,12,94,34,,,,26,48,13,23,0.6,1
2026-01-07T0700,3516A,118.0914,37.6938,滨州市,金海六路,,24,24,158,7,114,30,,,,39,66,7,13,0.5,1.2
2026-01-07T0700,4028A,117.9955,37.3752,滨州市,滨州市西街道办事处,,31,31,132,14,97,38,,,,24,46,9,15,0.3,0.7
2026-01-07T0700,2311A,115.8071,33.8399,亳州市,污水处理厂,,34,34,55,14,34,38,,,,29,26,4,4,0.3,0.3
2026-01-07T0700,2312A,115.7789,33.8519,亳州市,三国揽胜宫,,40,40,63,26,35,30,,,,23,18,3,4,0.4,0.4
2026-01-07T0700,3332A,115.7631,33.803,亳州市,亳州学院,,35,35,54,17,31,36,,,,22,22,4,4,0.2,0.3
2026-01-07T0700,2693A,82.0482,44.8553,博尔塔拉蒙古自治州,市党校,颗粒物(PM10),72,94,133,43,71,30,,,,17,31,2,4,0.9,1.3
2026-01-07T0700,2694A,82.0805,44.8966,博尔塔拉蒙古自治州,市环保局,颗粒物(PM10),77,103,140,46,68,32,,,,20,34,5,7,1.1,1.3
2026-01-07T0700,1071A,116.8733,38.2922,沧州市,沧县城建局,,27,27,150,18,131,49,,,,24,58,3,5,0.1,1.1
2026-01-07T0700,1072A,116.8462,38.3189,沧州市,电视转播站,,33,33,151,7,127,31,,,,31,56,7,5,0.3,1.1
2026-01-07T0700,1073A,116.8588,38.3161,沧州市,市环保局,,29,27,152,20,130,40,,,,24,53,3,6,0.3,1.1
2026-01-07T0700,3324A,116.8011,38.294,沧州市,河北水利电力学院,,18,12,155,3,107,56,,,,13,58,4,9,0.2,1
2026-01-07T0700,2622A,97.1813,31.1289,昌都市,昌都监测站,,14,14,51,3,21,42,,,,7,25,1,3,0.4,1
2026-01-07T0700,3719A,97.1707,31.1428,昌都市,昌都会议中心,,14,11,18,8,10,43,,,,1,4,3,2,0.5,0.5
2026-01-07T0700,2692A,87.2722,44.0298,昌吉回族自治州,新区政务中心,细颗粒物(PM2.5),204,222,175,154,127,17,,,,53,50,3,6,1.7,1.4
2026-01-07T0700,3613A,87.3069,44.0093,昌吉回族自治州,亚心广场,细颗粒物(PM2.5),255,266,188,205,136,24,,,,38,44,8,7,1.8,1.7
2026-01-07T0700,4164A,87.2057,43.9289,昌吉回族自治州,财政所,细颗粒物(PM2.5),240,259,148,190,104,30,,,,35,38,6,5,1.4,1.1
2026-01-07T0700,1120A,125.2874,43.9024,长春市,客车厂,,23,,48,16,29,35,,,,32,25,8,11,0.6,0.6
2026-01-07T0700,1121A,125.2943,43.8508,长春市,邮电学院,,26,,57,18,30,42,,,,18,22,8,11,0.2,0.4
2026-01-07T0700,1122A,125.3648,43.8745,长春市,劳动公园,,15,14,50,10,24,43,,,,24,23,8,10,0.4,0.5
2026-01-07T0700,1123A,125.3233,43.8781,长春市,园林处,,23,,47,16,24,41,,,,17,22,10,12,0.3,0.5
2026-01-07T0700,1124A,125.4604,43.7904,长春市,净月潭,,19,15,50,13,21,50,,,,14,16,7,9,0.2,0.4
2026-01-07T0700,1126A,125.38,43.8422,长春市,经开区环卫处,,16,13,50,11,20,38,,,,29,24,16,9,0.4,0.6
2026-01-07T0700,1127A,125.234,43.7761,长春市,高新区管委会,,22,,50,15,25,50,,,,17,18,6,8,0.4,0.5
2026-01-07T0700,1128A,125.1695,43.83,长春市,岱山公园,,25,20,48,17,27,41,,,,26,20,7,10,0.3,0.5
2026-01-07T0700,4281A,125.334645,43.916281,长春市,北亚泰大街1068号,,16,,46,11,26,36,,,,28,26,7,11,0.5,0.6
2026-01-07T0700,1335A,113.082,28.2421,长沙市,经开区环保局,细颗粒物(PM2.5),94,94,89,70,69,4,,,,48,42,13,5,0.7,0.7
2026-01-07T0700,1336A,112.8873,28.2202,长沙市,高开区环保局,细颗粒物(PM2.5),105,97,90,79,72,0,,,,52,39,5,5,1.3,1.2
2026-01-07T0700,1337A,113.0785,28.2012,长沙市,马坡岭,细颗粒物(PM2.5),105,118,96,79,72,2,,,,38,47,4,6,1.0,1
2026-01-07T0700,1338A,112.9448,28.1894,长沙市,湖南师范大学,细颗粒物(PM2.5),83,84,78,61,57,2,,,,72,41,5,6,0.9,0.8
2026-01-07T0700,1339A,113.0177,28.1322,长沙市,雨花区环保局,细颗粒物(PM2.5),113,112,90,85,69,0,,,,53,46,7,8,0.9,0.8
2026-01-07T0700,1340A,112.9795,28.2593,长沙市,伍家岭,细颗粒物(PM2.5),87,98,97,64,64,1,,,,33,41,5,5,0.8,0.7
2026-01-07T0700,1341A,113.002,28.1944,长沙市,火车新站,细颗粒物(PM2.5),119,128,106,90,77,4,,,,56,48,9,9,0.9,0.9
2026-01-07T0700,1342A,112.9846,28.1177,长沙市,天心区环保局,细颗粒物(PM2.5),97,94,86,72,64,3,,,,68,47,6,6,1.3,0.9
2026-01-07T0700,1343A,112.8906,28.1307,长沙市,湖南中医药大学,细颗粒物(PM2.5),80,86,87,59,60,1,,,,41,43,6,6,0.8,0.8
2026-01-07T0700,1727A,113.1146,36.1547,长治市,清华站,,40,40,36,24,15,8,,,,44,23,9,12,0.6,0.5
2026-01-07T0700,1730A,113.0887,36.2126,长治市,审计局,,33,33,22,14,13,25,,,,36,21,9,9,0.6,0.5
2026-01-07T0700,1731A,113.0845,36.1856,长治市,长治八中,,40,40,30,23,18,19,,,,31,16,10,11,0.8,0.6
2026-01-07T0700,2845A,113.1561,36.1912,长治市,德盛苑,,24,24,23,12,15,52,,,,15,15,8,9,0.5,0.5
2026-01-07T0700,3568A,113.0603,36.0464,长治市,向阳小学,颗粒物(PM10),53,55,43,21,20,28,,,,26,21,10,9,0.7,0.4
2026-01-07T0700,3569A,112.8788,36.315,长治市,屯留一中,,32,32,28,20,16,27,,,,31,17,5,5,0.3,0.2
2026-01-07T0700,4189A,113.113092,36.199482,长治市,英华南巷50号,,41,41,27,27,21,22,,,,33,18,10,8,0.8,0.4
2026-01-07T0700,4190A,113.23666,36.33435,长治市,学府街1号,,38,38,33,20,17,25,,,,32,22,15,14,0.5,0.5
2026-01-07T0700,1854A,111.696,28.9725,常德市,市二中,细颗粒物(PM2.5),59,59,56,42,48,14,,,,18,25,5,5,0.6,0.6
2026-01-07T0700,3138A,111.7152,29.0288,常德市,武陵区永安,细颗粒物(PM2.5),80,68,60,59,48,4,,,,28,20,4,5,0.9,0.7
2026-01-07T0700,3139A,111.6891,28.9881,常德市,鼎城区玉霞,细颗粒物(PM2.5),65,61,62,47,51,2,,,,21,32,6,8,1.0,0.8
2026-01-07T0700,3140A,111.6651,29.0526,常德市,武陵区长庚,细颗粒物(PM2.5),87,76,60,64,50,4,,,,31,25,3,4,0.9,0.7
2026-01-07T0700,1196A,119.9524,31.7586,常州市,市监测站,细颗粒物(PM2.5),78,74,101,57,85,5,,,,50,36,4,4,0.9,0.9
2026-01-07T0700,1200A,119.9351,31.703,常州市,武进监测站,细颗粒物(PM2.5),79,74,97,58,79,14,,,,37,29,6,7,0.6,0.7
2026-01-07T0700,3002A,119.9701,31.813,常州市,行政中心,细颗粒物(PM2.5),57,61,102,40,79,21,,,,42,31,7,6,0.7,0.8
2026-01-07T0700,3003A,120.0434,31.7726,常州市,经开区,细颗粒物(PM2.5),64,66,106,46,79,25,,,,32,23,6,4,1.1,1.1
2026-01-07T0700,3010A,119.8919,31.7892,常州市,钟楼,细颗粒物(PM2.5),84,77,106,62,85,13,,,,38,32,6,7,0.7,0.8
2026-01-07T0700,3429A,119.8595,31.706,常州市,武进经发区,,,82,99,,85,10,,,,32,26,6,7,0.9,0.9
2026-01-07T0700,3430A,119.5812,31.7256,常州市,金坛城区,细颗粒物(PM2.5),88,86,93,65,79,15,,,,31,24,7,7,0.9,1
2026-01-07T0700,4089A,119.9551,31.863,常州市,崇义南街5-H号,细颗粒物(PM2.5),57,62,104,40,88,23,,,,40,33,7,6,0.8,0.9
2026-01-07T0700,2220A,120.4318,41.588,朝阳市,西梁,,40,,47,28,14,51,,,,18,16,8,9,0.3,0.5
2026-01-07T0700,2221A,120.452,41.565,朝阳市,河畔小区,,19,10,39,9,12,58,,,,15,14,8,9,0.4,0.5
2026-01-07T0700,2222A,120.4176,41.5648,朝阳市,八里堡,,18,18,48,12,13,51,,,,19,16,11,12,0.6,0.7
2026-01-07T0700,3026A,116.6179,23.6608,潮州市,市政府,,38,26,28,26,18,82,,,,2,3,6,6,0.3,0.3
2026-01-07T0700,4036A,116.646,23.676,潮州市,金山,,42,,30,29,23,71,,,,6,4,3,3,0.3,0.4
2026-01-07T0700,2473A,113.0116,25.8228,郴州市,市职中,细颗粒物(PM2.5),64,49,52,46,47,0,,,,23,17,3,4,0.8,0.6
2026-01-07T0700,2475A,113.0381,25.8074,郴州市,市审计局,细颗粒物(PM2.5),57,56,57,40,47,2,,,,28,20,1,3,/,/
2026-01-07T0700,2476A,113.0348,25.7757,郴州市,市环保局,细颗粒物(PM2.5),62,68,63,44,46,2,,,,29,25,2,3,0.9,0.7
2026-01-07T0700,4252A,113.0138,25.8011,郴州市,好美居路49号,细颗粒物(PM2.5),67,51,55,48,51,5,,,,23,22,1,4,/,/
2026-01-07T0700,1431A,103.9727,30.7242,成都市,金泉两河,细颗粒物(PM2.5),102,108,64,76,38,3,,,,65,48,4,3,0.9,0.8
2026-01-07T0700,1432A,104.1423,30.6765,成都市,十里店,细颗粒物(PM2.5),65,63,51,47,33,4,,,,72,48,4,4,0.6,0.5
2026-01-07T0700,1433A,104.0594,30.5765,成都市,三瓦窑,细颗粒物(PM2.5),65,68,51,47,40,21,,,,47,44,3,4,0.7,0.6
2026-01-07T0700,1434A,104.1122,30.6306,成都市,沙河铺,细颗粒物(PM2.5),65,69,56,47,41,5,,,,68,43,3,3,0.6,0.6
2026-01-07T0700,2880A,104.0219,30.6561,成都市,大石西路,细颗粒物(PM2.5),74,76,65,54,39,1,,,,64,52,5,5,0.8,0.6
2026-01-07T0700,3136A,104.2724,30.559,成都市,龙泉驿区区政府,,49,,33,34,28,35,,,,10,15,6,6,0.5,0.5
2026-01-07T0700,3357A,104.0028,30.6891,成都市,金博路,细颗粒物(PM2.5),84,82,52,62,40,1,,,,64,50,5,5,1.1,0.8
2026-01-07T0700,3359A,104.056,30.5228,成都市,华阳,细颗粒物(PM2.5),52,48,48,36,37,2,,,,69,38,3,3,0.6,0.5
2026-01-07T0700,3488A,104.387954,30.746684,成都市,青石路225号,细颗粒物(PM2.5),52,52,52,36,36,3,,,,56,35,1,2,0.4,0.3
2026-01-07T0700,3489A,104.0788,30.4054,成都市,科学城,细颗粒物(PM2.5),54,46,48,38,39,4,,,,33,26,6,6,0.7,0.6
2026-01-07T0700,4011A,103.8505,30.6946,成都市,光华大道三段,细颗粒物(PM2.5),98,95,65,73,47,3,,,,52,37,4,5,0.8,0.6
2026-01-07T0700,4144A,104.3257,30.6406,成都市,八角井街185号,,47,47,53,32,34,26,,,,32,23,1,3,0.8,0.7
2026-01-07T0700,4224A,104.2433276,30.53529463,成都市,鲸龙路1057号,细颗粒物(PM2.5),52,44,46,36,36,2,,,,57,36,6,6,0.3,0.3
2026-01-07T0700,1062A,117.9531,40.908,承德市,铁路,颗粒物(PM10),54,58,41,26,15,15,,,,35,17,3,4,0.8,0.5
2026-01-07T0700,1063A,117.9397,40.9763,承德市,中国银行,,46,46,40,16,11,30,,,,15,9,1,2,0.4,0.4
2026-01-07T0700,4073A,117.9462,40.95,承德市,杏林街1号,,28,24,33,19,16,23,,,,26,11,3,4,0.4,0.4
2026-01-07T0700,4274A,117.7994,40.9605,承德市,滨河大街98号,,36,36,36,14,13,28,,,,24,13,2,4,0.3,0.3
2026-01-07T0700,2314A,117.4698,30.6617,池州市,池州学院,细颗粒物(PM2.5),74,61,67,54,58,29,,,,20,23,3,4,0.8,0.7
2026-01-07T0700,3237A,117.4918,30.6617,池州市,展览馆,细颗粒物(PM2.5),62,59,64,44,48,19,,,,28,29,2,2,1.0,0.9
2026-01-07T0700,3333A,117.5626,30.695,池州市,第八中学,细颗粒物(PM2.5),72,67,69,52,53,23,,,,28,28,3,3,1.4,0.8
2026-01-07T0700,3334A,117.5037,30.6242,池州市,第十二中学,细颗粒物(PM2.5),74,72,71,54,56,9,,,,42,36,6,5,2.4,1.2
2026-01-07T0700,1744A,118.9229,42.2816,赤峰市,松山一中,,30,30,29,12,7,20,,,,47,13,6,6,0.8,0.6
2026-01-07T0700,1745A,118.9588,42.2733,赤峰市,哈达街,,22,22,27,3,5,43,,,,16,11,6,5,0.7,0.5
2026-01-07T0700,1746A,118.8792,42.2551,赤峰市,天义路,,19,,21,13,9,54,,,,12,7,6,7,0.6,0.4
2026-01-07T0700,3058A,119.2656,42.0356,赤峰市,银河街,,25,17,54,17,29,52,,,,14,11,10,13,0.7,1
2026-01-07T0700,3286A,118.9359,42.3146,赤峰市,桥北物流园区,,16,9,23,8,10,24,,,,32,11,6,4,0.7,0.5
2026-01-07T0700,2521A,107.3473,22.4137,崇左市,市环保局江州分局,,32,,31,22,20,4,,,,16,17,6,7,0.5,0.5
2026-01-07T0700,4256A,107.375,22.3736,崇左市,石景林东路7号,,35,32,24,24,16,4,,,,17,18,6,7,0.5,0.6
2026-01-07T0700,3207A,118.31131,32.3033,滁州市,市政府原办公楼,,45,45,64,26,47,49,,,,23,15,4,5,0.4,0.5
2026-01-07T0700,3331A,118.3268,32.2633,滁州市,图书馆,,42,38,60,29,39,49,,,,17,10,9,8,0.4,0.4
2026-01-07T0700,4101A,118.3196,32.3335,滁州市,银山路666号,细颗粒物(PM2.5),57,,60,40,56,49,,,,15,9,8,8,0.5,0.6
2026-01-07T0700,4102A,118.3426,32.2979,滁州市,黄山路555号,细颗粒物(PM2.5),58,54,72,41,53,48,,,,24,16,9,10,0.5,0.6
2026-01-07T0700,2606A,101.5379,25.0492,楚雄彝族自治州,市经济开发区,,40,38,28,28,18,15,,,,14,10,2,2,0.8,0.6
2026-01-07T0700,4153A,101.5536,25.0343,楚雄彝族自治州,团结路562号,,36,29,16,25,14,16,,,,11,7,1,2,0.7,0.5
2026-01-07T0700,2549A,107.5087,31.2186,达州市,市环境监测站,细颗粒物(PM2.5),77,73,81,56,60,3,,,,33,42,6,6,0.6,0.7
2026-01-07T0700,2550A,107.4988,31.2132,达州市,凤凰小区,细颗粒物(PM2.5),73,70,88,53,63,6,,,,28,38,4,4,0.5,0.7
2026-01-07T0700,2551A,107.5081,31.1987,达州市,达县机关宾馆,细颗粒物(PM2.5),72,73,88,52,61,7,,,,28,41,2,2,0.6,0.8
2026-01-07T0700,2552A,107.4644,31.2124,达州市,市政中心,细颗粒物(PM2.5),83,90,103,61,68,5,,,,30,40,5,6,0.5,0.7
2026-01-07T0700,2614A,100.2168,25.5818,大理白族自治州,大理市环境监测站,,23,21,21,16,18,53,,,,10,10,7,6,0.7,0.5
2026-01-07T0700,2615A,100.1542,25.7055,大理白族自治州,大理古城,,22,17,21,15,16,58,,,,9,10,7,8,0.6,0.6
2026-01-07T0700,1109A,121.6119,38.974,大连市,甘井子,,34,34,56,8,30,56,,,,21,21,11,9,0.5,0.3
2026-01-07T0700,1110A,121.565,38.9509,大连市,周水子,,26,26,51,3,28,59,,,,14,17,3,8,0.3,0.4
2026-01-07T0700,1111A,121.5637,38.8849,大连市,星海三站,,25,25,49,7,32,56,,,,17,20,5,8,0.3,0.5
2026-01-07T0700,1112A,121.6301,38.9117,大连市,青泥洼桥,,19,19,46,6,32,51,,,,21,25,9,9,0.2,0.5
2026-01-07T0700,1113A,121.6248,38.8643,大连市,傅家庄,,26,26,51,3,30,54,,,,15,20,9,10,0,0.1
2026-01-07T0700,1114A,121.5117,38.8636,大连市,七贤岭,,30,30,52,6,32,60,,,,12,18,8,8,0.4,0.8
2026-01-07T0700,1116A,121.7507,39.1339,大连市,金州,,24,24,48,9,31,64,,,,13,23,8,10,0.3,0.4
2026-01-07T0700,1117A,121.7811,39.0495,大连市,开发区,,29,29,58,7,31,58,,,,10,20,5,6,0.5,0.7
2026-01-07T0700,1118A,121.9762,39.0631,大连市,双D港,,33,33,60,6,28,70,,,,8,21,12,12,0.5,0.7
2026-01-07T0700,4082A,121.2548,38.8188,大连市,旅顺,,21,16,59,3,33,67,,,,6,14,6,7,0.5,0.7
2026-01-07T0700,1789A,124.8085,46.0381,大庆市,大同区,,25,,53,17,40,54,,,,5,20,5,7,0.3,0.5
2026-01-07T0700,1790A,125.1166,46.5255,大庆市,龙凤区,,29,23,59,20,41,47,,,,19,31,7,10,0.4,0.6
2026-01-07T0700,1791A,124.8894,46.4007,大庆市,红岗区,,26,20,45,18,27,50,,,,8,24,4,6,0.5,0.7
2026-01-07T0700,1792A,125.1391,46.578,大庆市,萨尔图区,,22,22,61,6,39,42,,,,15,25,7,9,0.3,0.5
2026-01-07T0700,1793A,124.9026,46.6217,大庆市,让胡路区,,25,20,44,17,38,52,,,,8,20,6,8,0.3,0.5
2026-01-07T0700,3481A,125.127,46.6277,大庆市,萨区政府监测点,,32,22,62,22,36,50,,,,7,25,8,11,0.5,0.8
2026-01-07T0700,1723A,113.2926,40.0759,大同市,云冈宾馆,颗粒物(PM10),59,68,58,41,27,8,,,,44,31,19,8,2.0,1
2026-01-07T0700,1724A,113.3437,40.0921,大同市,大同大学,颗粒物(PM10),55,60,49,29,25,18,,,,36,27,22,10,1.3,0.9
2026-01-07T0700,1725A,113.2637,40.129,大同市,安家小村,颗粒物(PM10),75,100,61,45,27,7,,,,45,32,15,13,2.9,1.5
2026-01-07T0700,3282A,113.3399,40.0586,大同市,大同市卫生学校,颗粒物(PM10),63,75,59,36,25,13,,,,45,32,27,8,1.5,0.8
2026-01-07T0700,3565A,113.1371,40.1122,大同市,云冈站,颗粒物(PM10),57,64,48,33,22,3,,,,38,27,7,7,1.0,0.7
2026-01-07T0700,3566A,113.1186,40.2556,大同市,图书馆,颗粒物(PM10),56,62,50,39,31,17,,,,19,15,5,8,1.4,0.7
2026-01-07T0700,3567A,113.5931,40.0459,大同市,区一中,细颗粒物(PM2.5),74,65,58,54,30,28,,,,30,23,8,15,1.1,0.7
2026-01-07T0700,4199A,113.2798248,40.09972476,大同市,魏都大道141号,颗粒物(PM10),69,88,79,41,31,7,,,,46,36,10,8,2.3,1.7
2026-01-07T0700,2269A,124.1068,50.4091,大兴安岭地区,科技局,,28,20,19,19,17,48,,,,2,3,6,5,0.4,0.4
2026-01-07T0700,3663A,124.117,50.4279,大兴安岭地区,红旗社区,,17,7,14,3,6,53,,,,2,10,5,7,0.3,0.4
2026-01-07T0700,1600A,124.33,40.0625,丹东市,江湾东路,,25,25,79,8,52,58,,,,11,32,8,18,0.3,1.3
2026-01-07T0700,1601A,124.4242,40.1513,丹东市,临江后街,,28,28,73,7,42,60,,,,14,34,5,17,0.4,1.2
2026-01-07T0700,1602A,124.3935,40.1461,丹东市,元宝山,,26,26,56,9,38,64,,,,6,27,7,15,0.3,0.9
2026-01-07T0700,1603A,124.3634,40.1093,丹东市,民主桥,,35,35,75,3,48,57,,,,13,31,8,14,0.3,1
2026-01-07T0700,3541A,109.5726195,19.51688767,儋州市,第一中学子站,细颗粒物(PM2.5),62,53,48,44,36,44,,,,10,9,6,5,0.7,0.7
2026-01-07T0700,3542A,109.5567,19.5187,儋州市,东坡学校子站,细颗粒物(PM2.5),53,52,46,37,31,35,,,,13,10,6,6,0.8,0.7
2026-01-07T0700,2616A,98.5611,24.4273,德宏傣族景颇族自治州,德宏州监测站,细颗粒物(PM2.5),63,,46,45,40,3,,,,26,22,6,6,0.7,0.7
2026-01-07T0700,3677A,98.5887,24.4366,德宏傣族景颇族自治州,芒市人民政府综合楼,,39,29,50,27,33,12,,,,13,15,4,6,0.7,0.7
2026-01-07T0700,1901A,104.424,31.1209,德阳市,东山公园,细颗粒物(PM2.5),80,68,49,59,38,14,,,,48,23,3,4,0.8,0.6
2026-01-07T0700,1902A,104.3827,31.1318,德阳市,西小区,细颗粒物(PM2.5),99,99,76,74,47,3,,,,53,43,4,4,0.8,0.7
2026-01-07T0700,1904A,104.3553,31.1091,德阳市,耐火材料厂,细颗粒物(PM2.5),103,87,77,77,52,2,,,,51,46,4,3,0.9,0.8
2026-01-07T0700,4145A,104.4144,31.1495,德阳市,市林业局,细颗粒物(PM2.5),99,88,59,74,45,4,,,,54,41,3,3,0.8,0.7
2026-01-07T0700,1622A,116.3034,37.4675,德州市,儿童乐园,颗粒物(PM10),70,90,111,44,61,8,,,,64,48,18,15,1.2,1.3
2026-01-07T0700,1624A,116.2992,37.4449,德州市,监理站,颗粒物(PM10),60,70,106,36,61,27,,,,58,51,17,17,0.8,1
2026-01-07T0700,3066A,116.2722,37.438,德州市,九衢泉纯净水厂,颗粒物(PM10),74,97,112,41,67,2,,,,71,55,16,18,0.9,0.9
2026-01-07T0700,3371A,116.3693,37.44,德州市,开发区人民医院,颗粒物(PM10),63,75,108,44,58,28,,,,67,61,14,16,0.6,0.8
2026-01-07T0700,3511A,116.5687,37.3331,德州市,陵城艺术中心,颗粒物(PM10),59,68,123,39,81,22,,,,50,57,15,16,0.4,0.6
2026-01-07T0700,4292A,116.352738,37.420875,德州市,新河东路,颗粒物(PM10),52,53,112,29,67,22,,,,67,62,13,16,0.9,1.2
2026-01-07T0700,2621A,99.7054,27.8319,迪庆藏族自治州,迪庆州站,,18,18,20,12,16,54,,,,7,8,4,5,0.5,0.5
2026-01-07T0700,3180A,99.7122,27.8129,迪庆藏族自治州,质量技术监督局,,28,20,21,19,16,61,,,,9,9,5,5,0.4,0.4
2026-01-07T0700,4257A,104.6092,35.5962,定西市,将台街,颗粒物(PM10),52,53,69,33,48,17,,,,26,30,9,15,0.7,0.9
2026-01-07T0700,4309A,104.6159,35.5701,定西市,正龙路62号,细颗粒物(PM2.5),62,58,70,44,53,28,,,,9,13,4,9,0.6,0.8
2026-01-07T0700,1390A,113.7943,23.0132,东莞市,东城石井,,38,35,33,26,23,56,,,,27,15,7,6,0.5,0.6
2026-01-07T0700,1391A,113.7384,22.9659,东莞市,南城西平,,36,36,32,23,22,22,,,,65,25,8,8,0.6,0.6
2026-01-07T0700,3319A,113.7283,23.041,东莞市,万江金泰,,38,38,34,26,23,43,,,,39,17,6,5,0.7,0.7
2026-01-07T0700,4129A,113.8666,23.1062,东莞市,裕兴路,,45,34,32,31,25,61,,,,21,11,4,4,0.7,0.6
2026-01-07T0700,4130A,114.0076,22.9739,东莞市,教育路1号,,43,43,41,30,25,73,,,,17,17,7,5,0.5,0.6
2026-01-07T0700,4131A,113.7981,22.8124,东莞市,长怡路1号,,42,42,39,27,22,56,,,,25,18,8,8,0.3,0.5
2026-01-07T0700,1666A,118.6612,37.4313,东营市,市环保局,颗粒物(PM10),52,53,148,24,107,24,,,,41,60,10,20,0.8,1.3
2026-01-07T0700,3036A,118.6903,37.4337,东营市,开发区管委会,颗粒物(PM10),54,57,152,34,109,26,,,,42,65,12,23,0.9,1.4
2026-01-07T0700,3365A,118.5721,37.5654,东营市,垦利区民丰路,,36,36,151,17,110,36,,,,31,60,6,13,0.8,1.4
2026-01-07T0700,3498A,118.5063,37.8606,东营市,河口城区,,31,31,165,3,118,60,,,,21,48,5,7,0.6,1.2
2026-01-07T0700,3646A,118.4979,37.4623,东营市,胜利站,颗粒物(PM10),54,57,154,27,111,20,,,,47,70,12,25,1.0,1.5
2026-01-07T0700,3734A,118.5753,37.4405,东营市,理想之城,,,,151,,114,,,59,,,64,,17,,1.4
2026-01-07T0700,1591A,110.0024,39.8127,鄂尔多斯市,综合楼,颗粒物(PM10),76,102,42,27,16,63,,,,10,9,3,4,0.5,0.5
2026-01-07T0700,1592A,109.9485,39.8259,鄂尔多斯市,巴音孟克林场办事处,颗粒物(PM10),81,112,51,29,18,62,,,,11,9,5,5,0.3,0.3
2026-01-07T0700,1593A,109.7734,39.5987,鄂尔多斯市,康泽苑,颗粒物(PM10),54,58,43,27,20,54,,,,13,9,5,5,0.4,0.4
2026-01-07T0700,1594A,109.8121,39.5987,鄂尔多斯市,华泰汽车城,,48,48,43,24,17,37,,,,23,10,2,3,0.5,0.4
2026-01-07T0700,1595A,109.9734,39.7884,鄂尔多斯市,奥林花园,颗粒物(PM10),86,122,60,24,14,59,,,,14,10,2,2,0.4,0.3
2026-01-07T0700,2436A,114.894,30.3989,鄂州市,市政府,,49,49,49,27,28,0,,,,46,26,5,5,0.7,0.8
2026-01-07T0700,2437A,114.8986,30.3714,鄂州市,赵家坝,颗粒物(PM10),53,55,53,36,32,8,,,,32,20,7,9,0.5,0.5
2026-01-07T0700,3654A,114.8093,30.4091,鄂州市,精准医疗中心,"颗粒物(PM10),细颗粒物(PM2.5)",57,63,46,40,28,39,,,,22,19,4,5,0.9,0.8
2026-01-07T0700,2454A,109.4978,30.2979,恩施土家族苗族自治州,湖北民院,,42,34,46,29,41,13,,,,14,16,6,6,0.6,0.7
2026-01-07T0700,3549A,109.5061,30.3771,恩施土家族苗族自治州,龙凤新区,,40,30,40,28,34,4,,,,5,10,6,7,0.3,0.4
2026-01-07T0700,2499A,108.3411,21.6159,防城港市,沙万,,48,41,31,33,22,56,,,,11,10,6,6,0.5,0.5
2026-01-07T0700,2500A,108.3515,21.7733,防城港市,防城档案局,颗粒物(PM10),58,65,45,16,15,42,,,,17,14,5,5,0.5,0.5
2026-01-07T0700,2501A,108.3506,21.6414,防城港市,大海花园,,36,28,28,25,20,64,,,,6,6,6,6,0.6,0.6
2026-01-07T0700,1371A,113.1293,23.0065,佛山市,湾梁,细颗粒物(PM2.5),52,46,37,36,23,40,,,,33,23,/,/,/,/
2026-01-07T0700,1372A,113.1082,23.0477,佛山市,华材职中,细颗粒物(PM2.5),54,48,42,38,25,36,,,,38,22,8,7,0.7,0.6
2026-01-07T0700,1373A,113.1439,23.045,佛山市,南海气象局,,49,36,36,34,26,40,,,,33,25,/,/,/,/
2026-01-07T0700,1374A,113.2879,22.8094,佛山市,顺德苏岗,,45,32,33,31,22,44,,,,26,21,/,/,0.7,0.7
2026-01-07T0700,1376A,112.8384,22.8678,佛山市,高明孔堂,细颗粒物(PM2.5),57,52,46,40,31,65,,,,18,21,/,/,/,/
2026-01-07T0700,1377A,112.8835,23.1584,佛山市,三水监测站,细颗粒物(PM2.5),58,51,46,41,33,52,,,,28,24,6,5,0.6,0.6
2026-01-07T0700,1378A,112.8668,23.185,佛山市,三水云东海,颗粒物(PM10),55,59,43,37,32,31,,,,26,21,/,/,/,/
2026-01-07T0700,3625A,113.2568,22.7629,佛山市,容桂街道办,,49,36,37,34,28,45,,,,23,20,/,/,/,/
2026-01-07T0700,1282A,119.2681,26.0506,福州市,师大,,49,,21,34,19,51,,,,18,16,8,6,0.5,0.5
2026-01-07T0700,1283A,119.2983,26.1028,福州市,五四北路,,35,26,21,24,17,46,,,,17,16,4,4,0.6,0.6
2026-01-07T0700,1284A,119.2648,26.0769,福州市,杨桥西路,,38,29,22,26,15,53,,,,12,10,5,4,/,/
2026-01-07T0700,3048A,119.5799,26.0937,福州市,九龙,,32,24,20,22,13,65,,,,10,14,5,4,0.5,0.6
2026-01-07T0700,3526A,119.5188,25.9666,福州市,吴航,,46,40,28,32,20,75,,,,12,18,4,4,0.5,0.6
2026-01-07T0700,4104A,119.3106,26.0648,福州市,路通桥巷6号,,49,,21,34,22,51,,,,11,12,/,/,/,/
2026-01-07T0700,1755A,123.7974,41.8494,抚顺市,望花区,颗粒物(PM10),62,73,99,8,42,55,,,,16,38,9,16,0.6,1.2
2026-01-07T0700,1756A,123.9161,41.8827,抚顺市,顺城区,,48,48,83,8,38,57,,,,15,40,7,13,0.6,1.2
2026-01-07T0700,1757A,124.0437,41.8615,抚顺市,东洲区,颗粒物(PM10),55,60,83,10,41,57,,,,13,35,7,9,0.5,1.1
2026-01-07T0700,1758A,123.9246,41.8638,抚顺市,新抚区,颗粒物(PM10),54,57,89,7,40,62,,,,14,40,7,11,0.6,1.2
2026-01-07T0700,1759A,124.0972,41.8961,抚顺市,大伙房水库,颗粒物(PM10),53,56,80,9,39,53,,,,12,29,10,14,0.5,1
2026-01-07T0700,1760A,123.708,41.8386,抚顺市,沈抚新城,颗粒物(PM10),58,65,90,7,47,60,,,,13,42,6,12,0.6,1.2
2026-01-07T0700,2377A,116.3544,27.9833,抚州市,市站,细颗粒物(PM2.5),55,54,53,39,37,11,,,,26,20,8,8,0.7,0.5
2026-01-07T0700,2378A,116.3562,27.9631,抚州市,血防站,细颗粒物(PM2.5),55,58,55,39,37,9,,,,32,24,6,6,0.7,0.6
2026-01-07T0700,2379A,116.3561,28.0007,抚州市,采茶剧团,细颗粒物(PM2.5),54,53,53,38,37,5,,,,29,18,6,8,0.8,0.8
2026-01-07T0700,2380A,116.3854,27.9648,抚州市,医学分院,颗粒物(PM10),54,58,55,37,33,12,,,,22,17,6,5,0.8,0.6
2026-01-07T0700,2207A,121.6095,41.9978,阜新市,工业园区,,31,31,90,11,36,56,,,,11,14,6,16,0.3,0.6
2026-01-07T0700,2208A,121.6567,42.0188,阜新市,长青街,,17,16,72,8,24,53,,,,9,15,7,15,0.3,0.5
2026-01-07T0700,2209A,121.6672,42.07,阜新市,农业园区,,18,18,64,9,23,56,,,,7,12,12,18,0.3,0.5
2026-01-07T0700,2211A,121.6343,42.0455,阜新市,玉龙新城,,35,35,80,6,28,32,,,,34,19,7,15,0.3,0.5
2026-01-07T0700,2301A,115.8276,32.8929,阜阳市,市监测站,,41,41,46,23,28,43,,,,24,17,4,5,0.5,0.4
2026-01-07T0700,2303A,115.8551,32.8606,阜阳市,开发区,,33,,38,23,30,48,,,,18,18,5,5,0.3,0.3
2026-01-07T0700,2875A,115.783962,32.889217,阜阳市,阜阳职业技术学院,,32,32,37,20,24,44,,,,23,15,6,7,0.5,0.5
2026-01-07T0700,3468A,115.79,32.8614,阜阳市,市规划展馆,,36,33,45,25,24,45,,,,19,18,6,6,0.3,0.3
2026-01-07T0700,3469A,115.835101,32.918568,阜阳市,枣园社区,,38,38,45,24,22,47,,,,18,17,6,6,0.3,0.3
2026-01-07T0700,2669A,102.9097,34.9841,甘南藏族自治州,州政府,颗粒物(PM10),54,57,54,35,36,6,,,,41,33,1,4,1.1,0.8
2026-01-07T0700,3380A,102.8915,34.9618,甘南藏族自治州,甘肃民族师范学院,颗粒物(PM10),56,62,68,30,32,22,,,,35,37,4,8,0.5,0.5
2026-01-07T0700,2570A,101.96,30.048,甘孜藏族自治州,水桥子,,18,11,7,6,6,57,,,,13,12,5,6,0.9,0.9
2026-01-07T0700,3065A,101.9534,29.9976,甘孜藏族自治州,州环保局,,19,8,8,8,5,58,,,,11,11,5,5,0.7,0.7
2026-01-07T0700,2363A,114.9368,25.8663,赣州市,地委,,49,49,46,27,28,9,,,,28,21,7,7,0.8,0.8
2026-01-07T0700,2364A,114.946,25.8483,赣州市,气象台,颗粒物(PM10),53,56,58,23,26,0,,,,44,37,2,2,0.4,0.6
2026-01-07T0700,2365A,114.932,25.8332,赣州市,市图书馆,,38,34,43,26,29,6,,,,44,29,4,4,0.6,0.7
2026-01-07T0700,2366A,114.8905,25.8472,赣州市,华坚鞋城,,47,47,45,32,27,3,,,,45,29,6,5,0.4,0.4
2026-01-07T0700,3109A,115.0094,25.8614,赣州市,赣县区卫计委,,33,,41,23,36,15,,,,16,21,7,7,0.5,0.5
2026-01-07T0700,2684A,106.2753,36.0057,固原市,监测站,,26,17,31,11,17,81,,,,9,17,5,5,0.5,0.7
2026-01-07T0700,2685A,106.2384,36.0189,固原市,新区,,26,15,27,7,13,81,,,,8,12,4,3,0.5,0.6
2026-01-07T0700,2544A,106.6307,30.4577,广安市,市委,细颗粒物(PM2.5),72,54,71,52,55,7,,,,22,36,8,7,0.8,1
2026-01-07T0700,2545A,106.6266,30.4662,广安市,友谊中学,细颗粒物(PM2.5),69,53,59,50,52,12,,,,10,17,6,6,0.8,0.8
2026-01-07T0700,2547A,106.6386,30.4551,广安市,广电花园,细颗粒物(PM2.5),70,54,66,51,53,5,,,,17,29,8,8,0.6,0.8
2026-01-07T0700,2902A,106.6347,30.4868,广安市,北辰小学,细颗粒物(PM2.5),69,57,65,50,54,17,,,,16,17,20,19,0.9,1
2026-01-07T0700,2524A,105.8211,32.4444,广元市,老城,,37,37,48,25,34,8,,,,50,49,4,12,1.2,0.9
2026-01-07T0700,2526A,105.8629,32.429,广元市,监测站,,40,39,47,28,31,14,,,,32,30,4,5,1.1,0.8
2026-01-07T0700,3617A,105.8047,32.4167,广元市,经开区,,49,49,54,31,35,9,,,,43,40,5,7,0.9,0.9
2026-01-07T0700,1345A,113.2346,23.1423,广州市,广雅中学,,50,49,42,35,29,39,,,,34,21,8,5,0.4,0.5
2026-01-07T0700,1346A,113.2611,23.105,广州市,市五中,细颗粒物(PM2.5),58,49,41,41,31,43,,,,41,26,15,10,/,/
2026-01-07T0700,1348A,113.3477,23.0916,广州市,广东商学院,细颗粒物(PM2.5),55,48,38,39,28,33,,,,32,17,16,8,0.4,0.4
2026-01-07T0700,1349A,113.4332,23.105,广州市,市八十六中,细颗粒物(PM2.5),53,38,36,37,30,39,,,,28,19,11,8,/,/
2026-01-07T0700,1350A,113.3506,22.9488,广州市,番禺中学,细颗粒物(PM2.5),52,48,41,36,29,46,,,,40,28,9,4,0.3,0.4
2026-01-07T0700,1351A,113.2147,23.3918,广州市,花都师范,,50,50,43,34,29,47,,,,29,22,11,8,0.6,0.5
2026-01-07T0700,1352A,113.2599,23.1329,广州市,市监测站,细颗粒物(PM2.5),58,48,41,41,31,32,,,,41,27,7,4,/,/
2026-01-07T0700,1353A,113.5618,23.3119,广州市,九龙镇镇龙,,49,48,36,34,26,35,,,,32,16,9,6,0.5,0.5
2026-01-07T0700,1354A,113.2764,23.1544,广州市,麓湖,细颗粒物(PM2.5),58,46,38,41,31,20,,,,45,28,13,9,0.5,0.5
2026-01-07T0700,2846A,113.3209,23.1323,广州市,体育西,细颗粒物(PM2.5),54,48,40,38,30,29,,,,44,22,14,8,0.7,0.6
2026-01-07T0700,3298A,113.5718,23.5493,广州市,从化街口,细颗粒物(PM2.5),57,51,35,40,29,7,,,,48,19,16,9,0.7,0.7
2026-01-07T0700,3299A,113.3463,23.369,广州市,白云竹料,细颗粒物(PM2.5),52,47,39,36,30,29,,,,37,24,10,6,0.5,0.5
2026-01-07T0700,3300A,113.2981,23.2365,广州市,白云嘉禾,"颗粒物(PM10),细颗粒物(PM2.5)",53,55,47,37,29,26,,,,42,30,10,7,/,/
2026-01-07T0700,3301A,113.4256,23.1716,广州市,黄埔科学城,细颗粒物(PM2.5),52,41,37,36,28,44,,,,24,14,9,6,0.7,0.7
2026-01-07T0700,3302A,113.3942,23.0485,广州市,番禺大学城,,46,41,35,32,26,40,,,,31,17,16,10,0.5,0.5
2026-01-07T0700,3303A,113.4923,22.8169,广州市,南沙黄阁,,49,49,39,34,27,29,,,,48,30,7,6,/,/
2026-01-07T0700,3304A,113.534,22.7893,广州市,南沙街,,45,45,41,31,25,41,,,,30,23,7,7,0.6,0.6
2026-01-07T0700,3443A,113.2905,23.5541,广州市,花都梯面,细颗粒物(PM2.5),52,47,33,36,26,40,,,,25,16,16,8,/,/
2026-01-07T0700,3445A,113.786,23.7479,广州市,从化良口,,39,30,27,27,22,72,,,,12,11,9,8,/,/
2026-01-07T0700,3446A,113.805,23.2614,广州市,增城荔城,,38,29,27,26,22,54,,,,13,11,8,6,0.5,0.5
2026-01-07T0700,2506A,109.604387,23.066791,贵港市,江南子站,细颗粒物(PM2.5),53,44,39,37,27,44,,,,23,13,4,5,0.7,0.6
2026-01-07T0700,2508A,109.5669,23.1065,贵港市,荷城子站,细颗粒物(PM2.5),67,58,42,48,31,56,,,,16,13,5,4,0.4,0.4
2026-01-07T0700,3405A,109.5886,23.1172,贵港市,新世纪学校,细颗粒物(PM2.5),67,70,47,48,34,48,,,,18,14,/,/,0.5,0.5
2026-01-07T0700,4260A,109.5933,23.095,贵港市,中山路155-3号,细颗粒物(PM2.5),72,,39,52,34,48,,,,17,13,/,/,0.6,0.6
2026-01-07T0700,1439A,106.6863,26.6035,贵阳市,马鞍山,细颗粒物(PM2.5),92,70,49,68,45,18,,,,22,14,6,7,/,/
2026-01-07T0700,1441A,106.6241,26.6266,贵阳市,鉴湖路,细颗粒物(PM2.5),58,53,50,41,32,41,,,,24,18,9,5,0.7,0.6
2026-01-07T0700,1442A,106.7468,26.6344,贵阳市,燕子冲,细颗粒物(PM2.5),83,75,53,61,48,22,,,,19,14,11,9,0.9,0.7
2026-01-07T0700,1443A,106.6556,26.4362,贵阳市,碧云窝,细颗粒物(PM2.5),62,61,57,44,38,10,,,,21,17,3,8,/,/
2026-01-07T0700,1445A,106.6963,26.6063,贵阳市,红边门,细颗粒物(PM2.5),83,70,54,61,42,38,,,,22,17,14,11,/,/
2026-01-07T0700,1446A,106.7162383,26.56964667,贵阳市,新华路,细颗粒物(PM2.5),77,73,58,56,40,35,,,,18,16,11,8,0.6,0.6
2026-01-07T0700,1447A,106.6742,26.542,贵阳市,太慈桥,细颗粒物(PM2.5),70,58,47,51,38,37,,,,20,19,4,5,/,/
2026-01-07T0700,4230A,106.688212,26.56952,贵阳市,花果园大街66号,颗粒物(PM10),56,61,46,38,32,37,,,,24,18,9,6,/,/
2026-01-07T0700,4231A,106.687268,26.516892,贵阳市,漓江路57号,细颗粒物(PM2.5),67,58,52,48,39,21,,,,30,21,12,9,0.9,0.8
2026-01-07T0700,1864A,110.3091,25.2705,桂林市,龙隐路小学,细颗粒物(PM2.5),64,54,40,46,36,27,,,,24,13,10,10,0.4,0.3
2026-01-07T0700,1865A,110.2849361,25.22909545,桂林市,八中,细颗粒物(PM2.5),67,50,44,48,38,30,,,,30,21,15,11,0.7,0.6
2026-01-07T0700,3531A,110.296,25.1254,桂林市,旅游学院,细颗粒物(PM2.5),58,56,36,41,32,14,,,,34,17,7,6,0.7,0.6
2026-01-07T0700,4222A,110.1835,25.2444,桂林市,环湖路276号,细颗粒物(PM2.5),70,68,45,51,39,18,,,,34,22,33,14,0.8,0.6
2026-01-07T0700,4301A,110.2803,25.2773,桂林市,信义路13号,细颗粒物(PM2.5),63,,39,45,32,48,,,,24,18,13,9,0.7,0.6
2026-01-07T0700,2674A,100.2262,34.4854,果洛藏族自治州,玛沁县大武镇,,25,25,30,3,8,47,,,,1,3,16,13,0.4,0.4
2026-01-07T0700,1130A,126.5557,45.8109,哈尔滨市,松北商大,,20,,45,14,34,46,,,,16,27,7,9,0.4,0.6
2026-01-07T0700,1132A,126.6162,45.719,哈尔滨市,南岗学府路,,22,22,52,10,32,32,,,,30,26,38,17,0.5,0.7
2026-01-07T0700,1133A,126.6894,45.7733,哈尔滨市,太平宏伟公园,,25,20,49,17,34,38,,,,22,25,33,21,0.5,0.6
2026-01-07T0700,1134A,126.6361,45.7672,哈尔滨市,道外承德广场,,34,34,69,16,36,49,,,,14,33,10,14,0.9,0.8
2026-01-07T0700,1136A,126.644,45.7261,哈尔滨市,动力和平路,,23,23,50,11,33,47,,,,13,23,10,12,0.4,0.7
2026-01-07T0700,1137A,126.5933,45.7479,哈尔滨市,道里建国路,,28,,48,19,40,46,,,,14,29,10,16,0,0.4
2026-01-07T0700,1138A,126.6127,45.6119,哈尔滨市,平房东轻厂,,32,27,41,22,32,47,,,,14,24,6,6,0.3,0.5
2026-01-07T0700,1139A,126.5875,45.9827,哈尔滨市,呼兰师专,,25,25,51,17,44,45,,,,8,23,9,12,0.5,0.7
2026-01-07T0700,1140A,126.6299,45.6799,哈尔滨市,省农科院,,29,29,51,16,39,50,,,,15,31,12,14,0.2,0.5
2026-01-07T0700,4282A,126.6769,45.7379,哈尔滨市,华山路1号,,24,24,47,15,32,43,,,,14,27,21,23,0.6,0.8
2026-01-07T0700,4283A,126.9717,45.5356,哈尔滨市,解放大街52号,,26,25,47,18,37,40,,,,21,21,20,17,0.5,0.7
2026-01-07T0700,2688A,93.5124,42.8176,哈密市,地区监测站,颗粒物(PM10),82,114,92,54,64,44,,,,13,19,3,4,0.0,0.4
2026-01-07T0700,2689A,93.5014,42.8312,哈密市,哈密师范学校,颗粒物(PM10),84,118,103,45,46,42,,,,17,28,4,7,0.3,0.6
2026-01-07T0700,2671A,100.9016,36.9464,海北藏族自治州,海晏县西海镇,,23,19,22,16,17,61,,,,3,7,8,8,0.3,0.4
2026-01-07T0700,3867A,102.074,36.5056,海东市,平安区公安局北苑,细颗粒物(PM2.5),70,66,78,51,61,37,,,,15,26,11,24,1.0,1.3
2026-01-07T0700,4163A,102.0984,36.5119,海东市,滨河路,颗粒物(PM10),54,57,66,37,60,19,,,,37,39,9,24,0.8,1.2
2026-01-07T0700,1410A,110.3189,20.0596,海口市,海南大学,,38,38,44,25,29,74,,,,8,12,7,8,0.3,0.4
2026-01-07T0700,1411A,110.2827,20.0051,海口市,秀英海南医院,,43,43,45,28,30,69,,,,10,14,8,10,0.4,0.5
2026-01-07T0700,1412A,110.3391,19.9979,海口市,海南师范大学,,,38,42,28,30,73,,,,,13,7,8,,0.6
2026-01-07T0700,1413A,110.3303,20.0359,海口市,龙华路环保局宿舍,,,45,45,27,29,76,,,,,14,/,/,0.6,0.7
2026-01-07T0700,3539A,110.5111,19.9737,海口市,桂林洋子站,,43,40,40,30,27,71,,,,10,12,/,/,/,/
2026-01-07T0700,4134A,110.1952,20.0451,海口市,长滨二路9号,,46,40,45,32,33,69,,,,9,11,/,/,/,/
2026-01-07T0700,2673A,100.6158,36.2985,海南藏族自治州,共和县恰卜恰镇,,25,25,34,8,18,36,,,,33,20,11,12,0.6,0.6
2026-01-07T0700,2676A,97.373,37.376,海西蒙古族藏族自治州,德令哈市,,21,11,16,8,12,65,,,,5,8,13,13,0.4,0.5
2026-01-07T0700,1049A,114.492,36.5712,邯郸市,矿院,颗粒物(PM10),67,83,46,44,38,4,,,,62,38,4,7,1.1,0.8
2026-01-07T0700,1050A,114.4839,36.6136,邯郸市,丛台公园,细颗粒物(PM2.5),62,66,42,44,32,7,,,,52,36,5,8,0.9,0.8
2026-01-07T0700,3458A,114.7893,36.5592,邯郸市,香泉濮院小区,颗粒物(PM10),57,64,60,32,44,35,,,,40,32,9,9,0.6,0.7
2026-01-07T0700,3580A,114.1998,36.4439,邯郸市,峰峰矿区临水派出所,,47,47,24,29,17,49,,,,27,14,13,9,0.7,0.5
2026-01-07T0700,4068A,114.5209,36.7697,邯郸市,建安街268号,"颗粒物(PM10),细颗粒物(PM2.5)",73,95,75,53,43,1,,,,56,52,2,9,1.1,0.9
2026-01-07T0700,4069A,114.5488,36.6177,邯郸市,丛台东路558号,细颗粒物(PM2.5),65,74,55,47,35,4,,,,71,37,8,9,0.8,0.7
2026-01-07T0700,2635A,107.0155,33.0707,汉中市,市监测站,细颗粒物(PM2.5),70,55,62,51,52,8,,,,39,35,7,8,0.9,0.9
2026-01-07T0700,2636A,107.0083,33.114,汉中市,鑫源开发区,细颗粒物(PM2.5),89,,57,66,48,10,,,,29,33,4,8,0.6,0.6
2026-01-07T0700,2637A,107.0072,33.0323,汉中市,南郑大河坎水厂,细颗粒物(PM2.5),65,57,66,47,49,8,,,,28,26,5,7,1.0,0.9
2026-01-07T0700,1223A,120.2073,30.2111,杭州市,滨江,细颗粒物(PM2.5),75,67,72,55,58,3,,,,48,26,6,6,0.5,0.6
2026-01-07T0700,1224A,120.0625,30.2737,杭州市,西溪,,43,43,65,27,50,5,,,,35,32,8,8,0.7,0.8
2026-01-07T0700,1226A,120.3417,30.315,杭州市,下沙,细颗粒物(PM2.5),68,63,76,49,62,30,,,,33,31,7,8,0.6,0.7
2026-01-07T0700,1227A,120.1252,30.2465,杭州市,卧龙桥,,48,42,68,33,53,14,,,,18,20,8,9,0.5,0.6
2026-01-07T0700,1228A,120.1902,30.2691,杭州市,浙江农大,细颗粒物(PM2.5),75,72,79,55,63,18,,,,38,33,4,5,0.5,0.6
2026-01-07T0700,1230A,120.1195,30.3121,杭州市,和睦小学,细颗粒物(PM2.5),68,58,73,49,60,14,,,,40,24,4,5,0.8,0.8
2026-01-07T0700,1231A,120.3076,30.4146,杭州市,临平镇,细颗粒物(PM2.5),54,56,76,38,57,19,,,,42,22,7,7,0.5,0.6
2026-01-07T0700,1232A,120.2753,30.1839,杭州市,城厢镇,细颗粒物(PM2.5),67,62,73,48,54,7,,,,39,27,7,7,0.6,0.6
2026-01-07T0700,1233A,120.0883,30.1808,杭州市,云栖,细颗粒物(PM2.5),54,48,64,38,49,25,,,,11,18,3,3,0.8,0.9
2026-01-07T0700,3557A,119.9463,30.0496,杭州市,镇二中,细颗粒物(PM2.5),67,,56,48,57,1,,,,41,31,5,5,0.8,0.8
2026-01-07T0700,3558A,119.7184,30.2367,杭州市,市府大楼,细颗粒物(PM2.5),64,58,76,46,58,24,,,,20,21,9,10,0.6,0.8
2026-01-07T0700,3656A,120.1554,30.2863,杭州市,消防大队,细颗粒物(PM2.5),59,53,70,42,59,16,,,,39,23,7,6,0.5,0.6
2026-01-07T0700,1270A,117.1957,31.7845,合肥市,明珠广场,,42,41,53,29,33,23,,,,43,37,5,5,0.7,0.7
2026-01-07T0700,1271A,117.307,31.8765,合肥市,三里街,颗粒物(PM10),53,56,55,29,34,1,,,,68,42,7,5,1.0,0.7
2026-01-07T0700,1272A,117.2587,31.8703,合肥市,琥珀山庄,,49,44,54,34,37,3,,,,61,40,8,8,1.0,0.9
2026-01-07T0700,1275A,117.2593,31.9376,合肥市,庐阳区,,44,44,49,22,29,16,,,,57,31,5,5,0.6,0.6
2026-01-07T0700,1276A,117.345251,31.861615,合肥市,瑶海区,,46,46,55,32,35,2,,,,71,41,4,5,0.6,0.7
2026-01-07T0700,1277A,117.3033,31.7967,合肥市,包河区,,49,39,54,34,39,2,,,,68,49,5,6,0.7,0.7
2026-01-07T0700,1278A,117.278,31.7392,合肥市,滨湖新区,,39,31,52,27,40,4,,,,63,47,4,4,0.8,0.8
2026-01-07T0700,1279A,117.1324,31.8395,合肥市,高新区,,38,34,48,26,31,43,,,,29,28,3,4,0.5,0.6
2026-01-07T0700,3464A,117.3802,31.9148,合肥市,高教基地,,46,44,56,32,33,3,,,,57,34,6,7,0.6,0.6
2026-01-07T0700,4098A,117.2518,31.8404,合肥市,中国科学技术大学,,41,41,50,20,27,28,,,,46,29,5,5,0.5,0.5
2026-01-07T0700,3614A,79.9241,37.0878,和田地区,地区环保局,,39,36,56,27,33,39,,,,15,21,1,2,0.6,0.5
2026-01-07T0700,3615A,79.9132,37.1137,和田地区,市环保局,,23,22,53,16,25,49,,,,16,23,3,2,0.2,1.3
2026-01-07T0700,2517A,108.0496,24.6957,河池市,市环保站,,32,,28,22,18,5,,,,22,18,2,2,0.6,0.7
2026-01-07T0700,4302A,108.0901,24.6945,河池市,上任中路54号,,38,36,32,26,22,0,,,,26,21,4,4,0.7,0.7
2026-01-07T0700,1697A,114.6962,23.7538,河源市,东埔,细颗粒物(PM2.5),57,40,34,40,32,50,,,,22,14,8,6,0.5,0.6
2026-01-07T0700,1698A,114.6895,23.7232,河源市,老城,,33,28,35,23,24,14,,,,35,12,6,6,0.8,0.7
2026-01-07T0700,3374A,115.5562,35.089,菏泽市,定陶老年大学,,48,48,61,19,35,12,,,,36,23,5,5,0.7,0.6
2026-01-07T0700,4114A,115.4239,35.2593,菏泽市,黄河路600号,颗粒物(PM10),63,75,64,40,33,19,,,,38,27,7,6,1.1,1
2026-01-07T0700,4115A,115.5025,35.2727,菏泽市,菏泽市人社局,颗粒物(PM10),58,66,65,30,31,25,,,,31,23,9,6,0.5,0.5
2026-01-07T0700,4184A,115.479691,35.244011,菏泽市,永昌路1号,颗粒物(PM10),60,69,69,29,41,39,,,,26,27,13,9,0.5,0.5
2026-01-07T0700,4193A,115.471542,35.280012,菏泽市,长城路999号,颗粒物(PM10),59,68,64,33,33,26,,,,32,24,5,5,0.5,0.6
2026-01-07T0700,2514A,111.5264,24.4178,贺州市,环保小区,细颗粒物(PM2.5),52,44,47,36,39,23,,,,17,20,6,6,1.3,1
2026-01-07T0700,2515A,111.561,24.4074,贺州市,政协大楼,,50,40,47,35,35,23,,,,21,20,8,8,0.6,0.7
2026-01-07T0700,3534A,111.4744,24.455,贺州市,西湾,细颗粒物(PM2.5),59,53,50,42,38,12,,,,37,19,6,7,1.0,0.7
2026-01-07T0700,2385A,114.17,35.9019,鹤壁市,市监测站,颗粒物(PM10),55,60,42,26,22,25,,,,26,22,9,6,0.6,0.6
2026-01-07T0700,2386A,114.2953,35.7512,鹤壁市,市交警支队,,42,42,41,23,20,29,,,,26,32,4,4,0.6,0.5
2026-01-07T0700,2387A,114.2877,35.7302,鹤壁市,迎宾馆,,45,45,44,31,24,30,,,,21,22,5,6,0.7,0.6
2026-01-07T0700,3474A,114.2616,35.6824,鹤壁市,大新区,,32,32,44,15,17,35,,,,19,29,5,6,0.5,0.5
2026-01-07T0700,3596A,114.1573,35.9607,鹤壁市,南山宾馆,,45,43,36,31,25,50,,,,19,15,24,9,0.6,0.5
2026-01-07T0700,2244A,130.2537,47.3416,鹤岗市,哈啤分公司,,28,28,40,19,37,61,,,,7,22,6,9,0.4,0.6
2026-01-07T0700,2245A,130.2683,47.3087,鹤岗市,斯达机电,,42,,46,29,36,56,,,,10,23,9,10,0.5,0.6
2026-01-07T0700,2246A,130.3114,47.3388,鹤岗市,东山纸板厂,,29,,44,20,34,56,,,,15,30,13,14,0.5,1
2026-01-07T0700,2263A,127.4832,50.2524,黑河市,交通局,,20,14,25,14,19,43,,,,21,14,4,7,0.4,0.5
2026-01-07T0700,2264A,127.5146,50.2339,黑河市,环保局,,19,,24,13,21,47,,,,11,17,5,9,0.3,0.5
2026-01-07T0700,1074A,115.6839,37.754,衡水市,电机北厂,颗粒物(PM10),58,66,76,34,38,29,,,,31,24,12,7,0.4,0.5
2026-01-07T0700,1075A,115.6303,37.7318,衡水市,市监测站,颗粒物(PM10),54,57,73,34,40,24,,,,32,29,6,9,0.5,0.6
2026-01-07T0700,3188A,115.6684,37.7216,衡水市,市城管局,细颗粒物(PM2.5),58,43,78,41,42,32,,,,34,30,11,10,0.5,0.6
2026-01-07T0700,3459A,115.599,37.5491,衡水市,地表水厂,颗粒物(PM10),56,62,79,27,46,26,,,,23,28,6,8,0.5,0.6
2026-01-07T0700,2457A,112.6209,26.9268,衡阳市,衡阳化工总厂,细颗粒物(PM2.5),70,54,70,51,63,1,,,,38,31,6,12,0.8,0.9
2026-01-07T0700,2458A,112.621,26.8957,衡阳市,珠晖区环保局,细颗粒物(PM2.5),75,,68,55,65,2,,,,37,40,5,8,1.1,1.1
2026-01-07T0700,2459A,112.628,26.8654,衡阳市,市委党校,颗粒物(PM10),87,124,81,62,69,1,,,,36,30,9,11,1.2,1.2
2026-01-07T0700,2460A,112.6007,26.8977,衡阳市,市监测站,细颗粒物(PM2.5),79,75,95,58,71,0,,,,39,34,6,8,1.0,1.2
2026-01-07T0700,2461A,112.5658,26.9013,衡阳市,真空机电公司,细颗粒物(PM2.5),72,71,89,52,65,22,,,,29,34,8,8,1.0,1.1
2026-01-07T0700,3399A,112.6703,26.8817,衡阳市,师范学院,细颗粒物(PM2.5),68,74,79,49,58,1,,,,34,28,2,5,1.1,1
2026-01-07T0700,3038A,103.3757,23.3679,红河哈尼族彝族自治州,州图书馆,,29,,16,20,12,39,,,,4,7,6,6,0.6,0.6
2026-01-07T0700,4154A,103.401,23.3561,红河哈尼族彝族自治州,蒙自市朝阳路,,22,,13,15,12,37,,,,4,6,4,6,0.6,0.7
2026-01-07T0700,1090A,111.6506,40.7517,呼和浩特市,呼市一监,细颗粒物(PM2.5),74,92,65,54,40,1,,,,42,33,4,4,1.0,0.7
2026-01-07T0700,1094A,111.7516,40.8369,呼和浩特市,如意水处理厂,细颗粒物(PM2.5),59,63,61,42,39,3,,,,51,42,8,11,0.9,0.7
2026-01-07T0700,1095A,111.727798,40.806187,呼和浩特市,二十九中,颗粒物(PM10),55,60,63,33,40,11,,,,39,41,10,12,0.6,0.6
2026-01-07T0700,1097A,111.717,40.7617,呼和浩特市,化肥厂生活区,"颗粒物(PM10),细颗粒物(PM2.5)",55,60,70,39,43,9,,,,42,40,5,7,0.7,0.8
2026-01-07T0700,3699A,111.6519,40.8389,呼和浩特市,海东办,,48,48,67,30,40,4,,,,52,37,5,8,0.6,0.6
2026-01-07T0700,4275A,111.591512,40.827312,呼和浩特市,成吉思汗西街8号,,44,44,63,27,36,3,,,,52,39,7,10,0.7,0.7
2026-01-07T0700,4276A,111.6597,40.8077,呼和浩特市,公园东路75号,颗粒物(PM10),59,68,66,32,37,16,,,,43,38,6,9,0.7,0.6
2026-01-07T0700,4277A,111.5427,40.7846,呼和浩特市,金海路35号,颗粒物(PM10),64,78,80,35,49,16,,,,33,41,9,13,0.6,0.6
2026-01-07T0700,3061A,119.7511,49.1576,呼伦贝尔市,国华电力东,,29,,27,20,16,58,,,,16,25,6,6,0.3,0.4
2026-01-07T0700,4279A,119.7569,49.2222,呼伦贝尔市,伊敏大街东7号,,32,30,31,22,22,58,,,,8,16,6,8,0.4,0.5
2026-01-07T0700,1250A,120.075,30.867,湖州市,城西水厂,颗粒物(PM10),59,67,88,39,61,26,,,,45,35,10,10,0.5,0.7
2026-01-07T0700,2873A,120.083,30.8929,湖州市,仁皇山新区,细颗粒物(PM2.5),67,61,89,48,73,55,,,,27,35,12,11,0.5,0.6
2026-01-07T0700,2907A,120.1846,30.8592,湖州市,吴兴区站,细颗粒物(PM2.5),65,59,89,47,74,25,,,,44,25,6,6,0.7,0.8
2026-01-07T0700,3562A,120.4146,30.8538,湖州市,南浔区站,细颗粒物(PM2.5),63,54,93,45,79,40,,,,29,28,7,7,0.7,0.9
2026-01-07T0700,1607A,120.904878,40.721091,葫芦岛市,龙港区,,17,13,69,7,31,54,,,,17,32,7,22,0.4,1
2026-01-07T0700,1608A,120.8382,40.7521,葫芦岛市,化工街,,22,22,62,7,29,46,,,,25,37,24,29,0.4,0.8
2026-01-07T0700,1609A,120.8339,40.7078,葫芦岛市,新区,,18,16,46,8,24,57,,,,18,37,9,16,0.8,1
2026-01-07T0700,1610A,120.8697,40.7679,葫芦岛市,东城区,,15,10,53,7,32,46,,,,28,34,8,16,0.5,0.8
2026-01-07T0700,2483A,109.9297,27.5383,怀化市,河西地税局,,32,27,44,22,37,3,,,,10,16,2,3,/,/
2026-01-07T0700,2484A,109.9783,27.5342,怀化市,市四医院,细颗粒物(PM2.5),68,58,59,49,41,0,,,,22,24,10,10,0.6,0.7
2026-01-07T0700,2485A,109.9971,27.5579,怀化市,监测楼,,49,39,52,34,42,0,,,,22,19,1,3,0.1,0.3
2026-01-07T0700,1210A,119.0566,33.5991,淮安市,钵池山,细颗粒物(PM2.5),79,68,107,58,87,32,,,,26,24,7,8,0.5,0.8
2026-01-07T0700,1211A,119.0083,33.578,淮安市,北京南路,细颗粒物(PM2.5),79,75,108,58,87,0,,,,51,33,6,8,0.6,1
2026-01-07T0700,1212A,118.9938,33.6083,淮安市,市监测站,细颗粒物(PM2.5),73,66,100,53,85,22,,,,33,28,8,9,0.8,0.9
2026-01-07T0700,1213A,119.135,33.5038,淮安市,楚州区监测站,细颗粒物(PM2.5),67,71,104,48,80,7,,,,42,32,8,9,0.8,0.9
2026-01-07T0700,3426A,118.8757,33.2897,淮安市,新华书店,细颗粒物(PM2.5),59,57,95,42,74,28,,,,24,21,9,9,1.1,1.1
2026-01-07T0700,4092A,119.119691,33.550006,淮安市,枚皋中路89号,细颗粒物(PM2.5),82,78,114,60,88,14,,,,35,28,8,9,0.8,1
2026-01-07T0700,4206A,119.028838,33.631911,淮安市,承德北路606号,细颗粒物(PM2.5),75,75,118,55,84,18,,,,40,28,8,8,0.6,0.7
2026-01-07T0700,2282A,116.8005,33.9749,淮北市,监测站,颗粒物(PM10),60,70,111,36,58,16,,,,46,31,9,10,0.6,0.7
2026-01-07T0700,2283A,116.8094,33.9008,淮北市,烈山区政府,细颗粒物(PM2.5),64,70,99,46,65,17,,,,40,34,9,10,0.4,0.6
2026-01-07T0700,4017A,116.7926,33.9534,淮北市,市博物馆,颗粒物(PM10),61,72,102,43,64,16,,,,38,29,10,11,0.5,0.7
2026-01-07T0700,4100A,116.8322,33.9884,淮北市,杜集区第一实验学校,颗粒物(PM10),65,79,89,44,53,2,,,,39,21,7,9,0.7,0.7
2026-01-07T0700,2277A,116.8304,32.7726,淮南市,潘集区政府,颗粒物(PM10),52,53,57,32,42,39,,,,22,18,6,6,0.5,0.5
2026-01-07T0700,2279A,116.8569,32.5949,淮南市,谢家集区政府,,45,45,51,28,22,28,,,,28,20,7,7,0.4,0.4
2026-01-07T0700,2280A,116.8279,32.6333,淮南市,八公山区政府,,29,29,38,20,22,56,,,,12,10,4,4,0.4,0.4
2026-01-07T0700,2894A,117.0561,32.6536,淮南市,经济技术开发区消防队,颗粒物(PM10),55,60,68,35,37,41,,,,26,19,5,6,0.4,0.4
2026-01-07T0700,3329A,117.011,32.5891,淮南市,山南新区,颗粒物(PM10),53,56,62,28,29,38,,,,22,18,1,2,0.4,0.4
2026-01-07T0700,4209A,117.003137,32.644456,淮南市,国庆中路369号,颗粒物(PM10),55,60,60,36,36,24,,,,34,24,6,6,0.6,0.6
2026-01-07T0700,2446A,114.9021,30.474,黄冈市,职工中心,,49,46,42,34,26,16,,,,28,23,5,11,0.7,0.7
2026-01-07T0700,2929A,114.8858,30.4519,黄冈市,红卫路,,46,44,37,32,24,14,,,,31,28,5,6,0.6,0.6
2026-01-07T0700,3398A,114.9134,30.4446,黄冈市,市林业局,,49,48,42,34,26,18,,,,26,21,4,5,0.8,0.9
2026-01-07T0700,2672A,102.02,35.5101,黄南藏族自治州,同仁县隆务镇,,20,17,36,8,23,61,,,,1,5,9,10,0.2,0.4
2026-01-07T0700,2295A,118.2905,29.6965,黄山市,延安路89号,细颗粒物(PM2.5),55,,36,39,35,20,,,,12,13,3,3,0.5,0.5
2026-01-07T0700,2297A,118.1369,30.2755,黄山市,黄山区政府5号楼,,42,42,53,29,41,15,,,,14,15,3,4,0.5,0.6
2026-01-07T0700,4210A,118.335445,29.720283,黄山市,滨江东路7-2号,细颗粒物(PM2.5),55,51,54,39,45,11,,,,14,15,/,/,/,/
2026-01-07T0700,2423A,115.0547,30.2332,黄石市,沈家营,,46,46,38,29,18,0,,,,51,18,6,6,1.2,1.2
2026-01-07T0700,2426A,114.899,30.211,黄石市,铁山,细颗粒物(PM2.5),52,44,52,36,33,34,,,,24,34,5,6,0.6,0.5
2026-01-07T0700,2427A,115.0259,30.2108,黄石市,团城山,,43,43,49,24,26,24,,,,38,17,6,6,0.9,0.8
2026-01-07T0700,3149A,115.0174,30.1591,黄石市,笔架山北路,细颗粒物(PM2.5),103,94,73,77,33,21,,,,33,22,10,7,1.3,1.1
2026-01-07T0700,4185A,115.078022,30.21118,黄石市,磁湖东路29号,,49,48,53,34,34,0,,,,51,25,6,6,1.0,0.8
2026-01-07T0700,1392A,114.4181,23.0528,惠州市,河南岸金山湖子站,,40,38,40,28,27,59,,,,21,17,5,5,0.6,0.6
2026-01-07T0700,1393A,114.4055,23.0824,惠州市,下埔横江三路子站,,46,41,39,32,27,66,,,,13,11,9,7,0.3,0.3
2026-01-07T0700,1395A,114.4645,22.7832,惠州市,惠阳区承修路船湖子站,,39,38,41,27,27,67,,,,13,11,8,6,0.6,0.5
2026-01-07T0700,1396A,114.5316,22.7423,惠州市,大亚湾管委会子站,,38,36,37,26,23,70,,,,9,7,7,6,0.3,0.4
2026-01-07T0700,3314A,114.4334,22.8134,惠州市,惠阳秋长,,42,36,41,29,26,72,,,,13,12,/,/,/,/
2026-01-07T0700,3452A,114.6521,22.7755,惠州市,大亚湾霞涌,,36,30,36,25,27,70,,,,11,11,/,/,/,/
2026-01-07T0700,4300A,114.4089,23.1147,惠州市,文华一路1号,,48,41,38,33,29,67,,,,16,12,/,/,/,/
2026-01-07T0700,2240A,130.9618,45.2926,鸡西市,环保局,,45,45,44,28,22,16,,,,35,16,9,13,0.6,0.5
2026-01-07T0700,2243A,130.9294,45.2959,鸡西市,第一中学,,39,39,37,25,24,23,,,,27,17,4,4,0.7,0.7
2026-01-07T0700,3707A,131.0069,45.2988,鸡西市,欧美日汽修厂,细颗粒物(PM2.5),63,64,62,45,32,27,,,,31,21,22,13,0.7,0.6
2026-01-07T0700,2367A,114.9753,27.0803,吉安市,红声器材厂,颗粒物(PM10),51,51,49,32,30,27,,,,25,21,9,10,0.6,0.7
2026-01-07T0700,2369A,114.9903,27.1313,吉安市,市环境监测站,细颗粒物(PM2.5),52,50,46,36,33,39,,,,18,17,15,15,/,/
2026-01-07T0700,2370A,115.009527,27.096792,吉安市,青原区法院,"颗粒物(PM10),细颗粒物(PM2.5)",53,56,50,37,33,1,,,,46,29,10,11,0.7,0.7
2026-01-07T0700,1772A,126.54,43.8622,吉林市,哈达湾,颗粒物(PM10),53,56,38,14,21,61,,,,12,15,6,12,0.9,1.1
2026-01-07T0700,1773A,126.5843,43.8358,吉林市,东局子,,35,35,36,11,20,49,,,,14,16,3,6,0.9,1
2026-01-07T0700,1774A,126.5051,43.8243,吉林市,电力学院,,32,32,31,16,22,58,,,,9,15,9,12,0.4,0.6
2026-01-07T0700,1775A,126.6133,43.8971,吉林市,江北,,36,36,39,18,22,50,,,,15,16,7,8,0.9,1
2026-01-07T0700,1776A,126.5549,43.8304,吉林市,江南公园,,31,31,36,15,26,59,,,,12,14,12,9,0.4,0.5
2026-01-07T0700,2868A,126.4737,43.953,吉林市,九站,,26,26,38,16,22,48,,,,20,18,7,8,0.4,0.6
2026-01-07T0700,1299A,116.9866,36.6118,济南市,科干所,"颗粒物(PM10),细颗粒物(PM2.5)",59,68,138,42,92,23,,,,50,40,10,12,0.9,1.2
2026-01-07T0700,1300A,116.9379,36.6652,济南市,农科所,细颗粒物(PM2.5),85,112,149,63,108,3,,,,58,45,6,10,1.0,1.1
2026-01-07T0700,1301A,117.1265,36.6736,济南市,开发区,细颗粒物(PM2.5),70,83,128,51,96,14,,,,54,39,8,8,0.9,1.1
2026-01-07T0700,1303A,117.0616,36.6865,济南市,省种子仓库,细颗粒物(PM2.5),77,100,148,56,103,9,,,,63,46,11,11,1.0,1.1
2026-01-07T0700,1304A,116.9495185,36.644937,济南市,机床二厂,细颗粒物(PM2.5),83,100,155,61,118,4,,,,66,50,16,19,1.2,1.3
2026-01-07T0700,1305A,117.0496,36.6629,济南市,市监测站,颗粒物(PM10),63,76,136,39,98,17,,,,47,35,8,8,0.8,1
2026-01-07T0700,1306A,116.7674,36.5458,济南市,长清党校,细颗粒物(PM2.5),85,105,152,63,113,1,,,,62,41,10,11,1.1,1.2
2026-01-07T0700,1961A,117.5323,36.6865,济南市,东山小学,细颗粒物(PM2.5),74,90,145,54,106,8,,,,57,42,4,7,1.0,1.2
2026-01-07T0700,3059A,117.7181,36.205,济南市,泰兴公司,细颗粒物(PM2.5),180,171,229,136,196,6,,,,49,58,6,11,1.5,1.8
2026-01-07T0700,3064A,117.6861,36.2172,济南市,莱芜战役纪念馆,细颗粒物(PM2.5),172,166,227,130,190,3,,,,57,58,9,13,1.2,1.8
2026-01-07T0700,3494A,117.1673,36.9782,济南市,济阳区政府,颗粒物(PM10),61,71,136,39,89,22,,,,50,50,10,12,0.7,0.9
2026-01-07T0700,3495A,117.1168,36.6299,济南市,锦屏中学,细颗粒物(PM2.5),68,68,109,49,81,12,,,,41,29,4,6,0.8,0.9
2026-01-07T0700,4108A,117.7107,36.2385,济南市,山财大街5号,细颗粒物(PM2.5),134,167,257,102,169,5,,,,50,48,6,12,1.1,1.5
2026-01-07T0700,4109A,116.9744,36.6889,济南市,无影山路12号,细颗粒物(PM2.5),83,104,158,61,113,2,,,,68,48,12,13,0.9,1.1
2026-01-07T0700,1653A,116.6229,35.4288,济宁市,火炬城,细颗粒物(PM2.5),107,98,131,80,116,4,,,,48,37,6,7,0.8,0.8
2026-01-07T0700,3500A,116.5808,35.3703,济宁市,北湖一中,细颗粒物(PM2.5),97,87,133,72,117,0,,,,54,45,6,7,0.8,0.9
2026-01-07T0700,3501A,116.8251,35.5592,济宁市,服务中心,细颗粒物(PM2.5),115,157,188,87,118,2,,,,58,54,12,13,1.0,1
2026-01-07T0700,3678A,116.5907,35.4054,济宁市,市第七中学,细颗粒物(PM2.5),92,103,129,68,102,5,,,,54,41,8,9,0.8,0.9
2026-01-07T0700,4111A,116.6075,35.4566,济宁市,任和路,细颗粒物(PM2.5),98,100,153,73,106,0,,,,55,41,7,7,0.9,0.9
2026-01-07T0700,4112A,116.5648,35.3921,济宁市,文体南路1号,细颗粒物(PM2.5),100,107,157,75,112,0,,,,53,47,5,6,0.9,0.9
2026-01-07T0700,2255A,130.2749,46.8028,佳木斯市,佳纺,,35,32,60,24,41,38,,,,18,30,7,9,0.4,0.5
2026-01-07T0700,2257A,130.3258,46.7975,佳木斯市,环保局,,32,24,39,22,31,47,,,,13,23,7,8,0.7,0.8
2026-01-07T0700,4285A,130.363,46.806,佳木斯市,顺和街,,30,27,38,21,32,43,,,,12,26,8,10,0.6,0.7
2026-01-07T0700,4286A,130.3952,46.8268,佳木斯市,长安路196号,,32,28,41,22,31,49,,,,6,22,5,7,0.4,0.5
2026-01-07T0700,1252A,120.7439,30.778,嘉兴市,清河小学,细颗粒物(PM2.5),74,72,113,54,92,33,,,,33,32,6,6,0.9,1
2026-01-07T0700,1253A,120.7261,30.7477,嘉兴市,嘉兴学院,细颗粒物(PM2.5),65,64,106,47,83,26,,,,42,31,9,7,1.0,1.1
2026-01-07T0700,2872A,120.7845,30.7524,嘉兴市,南湖区残联,细颗粒物(PM2.5),74,66,109,54,93,38,,,,33,27,8,5,0.8,1
2026-01-07T0700,3407A,120.6915,30.7741,嘉兴市,秀洲住建,细颗粒物(PM2.5),79,73,109,58,91,29,,,,38,31,7,6,0.6,0.8
2026-01-07T0700,1945A,98.291,39.7705,嘉峪关市,气象局,,36,36,43,19,18,66,,,,10,14,23,13,0.4,0.5
2026-01-07T0700,2884A,98.2672,39.7978,嘉峪关市,酒钢宾馆,,32,31,50,22,22,63,,,,11,15,28,27,0.6,0.9
2026-01-07T0700,3248A,98.2644,39.7723,嘉峪关市,雄关区,,38,33,33,26,19,62,,,,16,17,26,17,0.3,0.4
2026-01-07T0700,1383A,113.1063,22.6058,江门市,北街,细颗粒物(PM2.5),59,47,38,42,30,43,,,,28,20,/,/,/,/
2026-01-07T0700,1384A,113.073,22.5835,江门市,西区,,47,47,43,32,24,44,,,,28,24,/,/,/,/
2026-01-07T0700,1385A,113.0218,22.531,江门市,圭峰西,,49,37,37,34,29,54,,,,21,20,/,/,/,/
2026-01-07T0700,1386A,113.0826,22.5947,江门市,东湖,细颗粒物(PM2.5),53,41,38,37,27,48,,,,27,24,11,8,0.6,0.5
2026-01-07T0700,3311A,113.1077,22.5647,江门市,江海富民,颗粒物(PM10),53,55,39,25,20,43,,,,35,26,/,/,0.6,0.5
2026-01-07T0700,3449A,113.0496,22.4669,江门市,新会银湖,细颗粒物(PM2.5),55,,40,39,31,37,,,,31,20,10,8,0.7,0.6
2026-01-07T0700,3335A,113.3137,35.2643,焦作市,马村街道办,,39,39,35,22,16,59,,,,14,14,7,7,0.6,0.4
2026-01-07T0700,3336A,113.2464,35.2374,焦作市,焦作技师学院,,48,48,33,22,15,53,,,,19,17,8,8,0.4,0.3
2026-01-07T0700,3477A,113.1656,35.2536,焦作市,中站许衡医院,,46,,35,32,26,61,,,,12,13,6,6,0.4,0.4
2026-01-07T0700,3981A,113.2456,35.18,焦作市,原李万街道办,,41,41,36,19,12,62,,,,11,12,10,5,0.6,0.4
2026-01-07T0700,4264A,113.234,35.219,焦作市,新安路1731号,,48,48,34,26,17,60,,,,13,14,5,5,0.4,0.4
2026-01-07T0700,4295A,113.2722,35.2121,焦作市,人民路3066号,,,50,38,21,9,57,,,,,9,,5,0.4,0.3
2026-01-07T0700,1708A,116.3701,23.5345,揭阳市,新兴,细颗粒物(PM2.5),52,47,33,36,25,65,,,,16,13,8,8,0.5,0.5
2026-01-07T0700,1709A,116.3261,23.5442,揭阳市,西马,,46,40,35,32,22,70,,,,11,12,4,4,0.7,0.7
2026-01-07T0700,1710A,116.361,23.5627,揭阳市,东兴,,36,36,34,24,18,44,,,,27,13,12,8,/,/
2026-01-07T0700,1711A,116.4151,23.5295,揭阳市,渔湖,,48,33,34,33,20,59,,,,20,14,6,4,/,/
2026-01-07T0700,3320A,116.4028,23.5699,揭阳市,曲溪,,46,40,32,32,22,60,,,,20,10,5,2,0.4,0.4
2026-01-07T0700,1944A,102.1691,38.5166,金昌市,天庆家园,,24,22,65,12,24,75,,,,9,20,8,15,0.6,0.8
2026-01-07T0700,4022A,102.1648,38.5369,金昌市,金川区人防中心,,25,23,60,13,26,77,,,,9,17,6,19,0.5,0.7
2026-01-07T0700,4239A,102.193042,38.531887,金昌市,长春路96号,,28,28,52,11,23,69,,,,13,18,9,19,0.6,0.8
2026-01-07T0700,1262A,119.6478,29.0773,金华市,十五中,细颗粒物(PM2.5),65,62,59,47,45,31,,,,45,28,6,4,0.7,0.5
2026-01-07T0700,1263A,119.6859,29.1032,金华市,监测站,细颗粒物(PM2.5),67,64,63,48,46,15,,,,54,43,4,3,0.5,0.6
2026-01-07T0700,3659A,119.656,29.1132,金华市,气象局,细颗粒物(PM2.5),60,58,63,43,43,20,,,,48,40,3,3,1.0,0.9
2026-01-07T0700,1767A,121.1114,41.0879,锦州市,南山,,35,35,52,13,34,53,,,,17,23,9,15,0.6,0.9
2026-01-07T0700,1768A,121.060361,40.842794,锦州市,开发区,,31,31,87,14,47,32,,,,36,49,16,30,0.6,1
2026-01-07T0700,1769A,121.1836,41.1118,锦州市,百股街道,,22,22,58,3,31,62,,,,12,22,5,10,0.6,0.9
2026-01-07T0700,1770A,121.1176,41.1224,锦州市,天安街道,,31,31,44,17,22,60,,,,24,17,21,15,0.5,0.7
2026-01-07T0700,1771A,121.1303,41.1385,锦州市,北湖公园,,27,27,44,9,17,62,,,,10,14,7,12,0.5,0.6
2026-01-07T0700,2160A,112.8496,35.5051,晋城市,自来水公司,,39,39,33,27,16,56,,,,15,12,6,6,0.7,0.6
2026-01-07T0700,2162A,112.8509,35.4886,晋城市,市环保局,,35,35,34,24,13,63,,,,14,12,5,5,0.6,0.6
2026-01-07T0700,3620A,112.8258,35.4804,晋城市,泽州一中,,41,41,33,19,10,64,,,,11,11,4,5,0.3,0.2
2026-01-07T0700,4078A,112.8246,35.5152,晋城市,前书院路,颗粒物(PM10),54,58,39,14,17,55,,,,12,10,5,6,0.3,0.4
2026-01-07T0700,4079A,112.8864,35.4773,晋城市,祥云街666号,,48,44,31,33,17,61,,,,14,12,6,6,0.4,0.3
2026-01-07T0700,2174A,112.6992,37.6984,晋中市,榆次区政府,颗粒物(PM10),51,51,58,25,23,64,,,,15,26,9,13,0.5,0.5
2026-01-07T0700,2865A,112.7195,37.683,晋中市,榆次三中,颗粒物(PM10),53,56,67,17,20,67,,,,10,23,7,16,0,0.6
2026-01-07T0700,4080A,112.7375,37.7215,晋中市,广安街188号,颗粒物(PM10),56,61,53,28,23,67,,,,14,25,8,13,0.3,0.4
2026-01-07T0700,4200A,112.7478,37.6954,晋中市,迎宾街26号,颗粒物(PM10),56,61,65,22,23,67,,,,15,27,9,17,0.5,0.7
2026-01-07T0700,2439A,112.2012,31.048,荆门市,竹园小学,细颗粒物(PM2.5),134,,54,102,39,5,,,,65,35,1,6,0.9,0.4
2026-01-07T0700,2440A,112.1968,30.9892,荆门市,掇刀,细颗粒物(PM2.5),80,79,54,59,40,44,,,,35,30,3,4,0.7,0.5
2026-01-07T0700,3012A,112.1849,31.0361,荆门市,西山林语,细颗粒物(PM2.5),69,65,44,50,31,38,,,,29,20,4,5,1.0,0.6
2026-01-07T0700,3547A,112.1631,31.0134,荆门市,龙泉中学南校,细颗粒物(PM2.5),92,84,56,68,40,72,,,,9,14,8,8,0.8,0.6
2026-01-07T0700,4124A,112.2213,31.0654,荆门市,新台西路6号,细颗粒物(PM2.5),113,106,73,85,58,4,,,,54,38,7,10,0.6,0.6
2026-01-07T0700,1844A,112.2493,30.3198,荆州市,市图书馆,细颗粒物(PM2.5),120,116,69,91,76,22,,,,34,32,11,9,1.0,0.9
2026-01-07T0700,1845A,112.2009,30.3543,荆州市,市委党校,细颗粒物(PM2.5),110,106,72,83,71,3,,,,47,36,6,5,1.2,1
2026-01-07T0700,3194A,112.2749,30.3124,荆州市,管委会,细颗粒物(PM2.5),124,106,74,94,77,11,,,,43,41,8,7,1.1,1
2026-01-07T0700,4268A,112.1722,30.3366,荆州市,学苑路85号,细颗粒物(PM2.5),110,84,68,83,63,8,,,,37,27,16,12,0.9,0.8
2026-01-07T0700,2343A,117.2114,29.2931,景德镇市,老干部活动中心,,43,35,45,30,42,4,,,,23,21,7,10,0.4,0.5
2026-01-07T0700,2344A,117.1893,29.2789,景德镇市,兽医站,,42,35,44,29,33,14,,,,20,21,8,12,0.8,0.9
2026-01-07T0700,2346A,117.246,29.2958,景德镇市,陶研所,细颗粒物(PM2.5),52,41,46,36,44,1,,,,23,21,4,4,0.4,0.5
2026-01-07T0700,4289A,117.154766,29.256967,景德镇市,青少年活动中心,,46,42,51,32,34,9,,,,31,28,6,21,/,/
2026-01-07T0700,1803A,115.9873,29.6816,九江市,十里,,38,38,47,24,34,4,,,,59,45,4,4,0.8,0.8
2026-01-07T0700,1804A,115.9583,29.7047,九江市,茅山头,,45,36,44,31,33,15,,,,41,31,8,5,0.8,0.8
2026-01-07T0700,1805A,115.9877,29.7295,九江市,西园,,33,33,45,14,28,39,,,,39,36,3,3,0.7,0.7
2026-01-07T0700,1808A,115.9112,29.6038,九江市,综合工业园,细颗粒物(PM2.5),79,,46,58,39,7,,,,62,42,5,4,0.9,0.8
2026-01-07T0700,3190A,116.0254,29.6995,九江市,外国语学校,,29,20,43,20,30,20,,,,52,31,7,8,0.7,0.8
2026-01-07T0700,4253A,116.010205,29.659402,九江市,莲花大道8号,,27,27,46,14,27,54,,,,5,11,3,4,0.3,0.4
2026-01-07T0700,4240A,98.495752,39.733935,酒泉市,玉门东路5号,颗粒物(PM10),54,58,75,33,27,43,,,,12,15,8,12,0.4,0.6
2026-01-07T0700,4241A,98.5099,39.7506,酒泉市,北大街108号,,48,48,76,30,28,42,,,,17,19,6,10,0.6,0.7
2026-01-07T0700,2698A,76.0071,39.466,喀什地区,巡警大队,细颗粒物(PM2.5),149,,97,114,95,7,,,,29,30,2,3,1.6,1.4
2026-01-07T0700,2699A,75.9756,39.4693,喀什地区,吾办,细颗粒物(PM2.5),102,77,85,76,70,15,,,,21,24,2,5,1.2,1.2
2026-01-07T0700,4027A,75.9485,39.4688,喀什地区,老干局,细颗粒物(PM2.5),87,89,95,64,70,16,,,,18,22,1,1,2.0,1.6
2026-01-07T0700,1824A,114.3389,34.778,开封市,肿瘤医院,,36,36,42,19,17,49,,,,21,18,7,8,0.5,0.6
2026-01-07T0700,1826A,114.2884,34.7966,开封市,世纪星幼儿园,,30,30,32,18,15,50,,,,22,19,4,2,0.4,0.4
2026-01-07T0700,3147A,114.3434,34.8101,开封市,龙亭公园,,36,36,47,16,9,47,,,,28,17,8,6,0.3,0.7
2026-01-07T0700,3210A,114.3645,34.7955,开封市,汴京公园,,39,39,62,18,15,40,,,,26,19,5,6,0.5,0.5
2026-01-07T0700,3473A,114.2485,34.8306,开封市,技师学院,,29,29,33,20,16,43,,,,22,17,6,6,0.6,0.6
2026-01-07T0700,3592A,114.4518,34.7503,开封市,祥符区生态环境局,,43,43,38,17,16,47,,,,24,21,5,5,0.5,0.4
2026-01-07T0700,1951A,84.886,45.6029,克拉玛依市,长征新村,细颗粒物(PM2.5),93,94,133,69,93,34,,,,34,41,5,4,1.0,1.2
2026-01-07T0700,1952A,84.8894,45.5827,克拉玛依市,南林小区,细颗粒物(PM2.5),78,101,130,57,76,33,,,,16,26,2,4,1.1,1.3
2026-01-07T0700,1954A,84.896,44.3328,克拉玛依市,独山子区,细颗粒物(PM2.5),150,161,230,115,142,55,,,,29,45,5,6,1.0,1.3
2026-01-07T0700,1955A,85.6888,46.0909,克拉玛依市,乌尔禾区商贸楼,细颗粒物(PM2.5),75,57,94,55,83,24,,,,37,37,4,4,1.0,1.1
2026-01-07T0700,3612A,85.1045,45.6895,克拉玛依市,白碱滩区新站,细颗粒物(PM2.5),97,109,134,72,93,32,,,,7,14,6,7,0.7,0.9
2026-01-07T0700,2697A,76.1457,39.7143,克孜勒苏柯尔克孜自治州,市人民政府,细颗粒物(PM2.5),90,98,86,67,58,26,,,,11,18,5,5,0.4,0.4
2026-01-07T0700,3665A,76.1654,39.7157,克孜勒苏柯尔克孜自治州,克州文化中心,细颗粒物(PM2.5),90,82,69,67,56,23,,,,9,13,2,2,0.8,0.8
2026-01-07T0700,1450A,102.8203,24.889,昆明市,呈贡新区,,12,12,23,8,20,37,,,,8,14,2,3,0.7,0.7
2026-01-07T0700,1452A,102.7253,25.0904,昆明市,龙泉镇,,25,20,30,17,24,20,,,,15,15,2,2,0.8,0.9
2026-01-07T0700,1453A,102.7267,25.0378,昆明市,东风东路,,26,25,42,18,25,34,,,,16,23,4,3,0.6,0.7
2026-01-07T0700,1454A,102.6744,25.0671,昆明市,金鼎山,,24,24,42,15,27,30,,,,13,17,2,2,0.8,0.9
2026-01-07T0700,1455A,102.6643,25.0401,昆明市,碧鸡广场,,25,20,32,17,23,34,,,,15,22,2,2,0.5,0.6
2026-01-07T0700,3179A,102.7491,25.012,昆明市,官渡区博物馆,,29,27,37,20,26,28,,,,22,29,2,2,0.8,0.8
2026-01-07T0700,3375A,102.8016,24.8336,昆明市,青年创业园,,18,15,27,12,19,39,,,,6,10,3,3,0.6,0.7
2026-01-07T0700,3550A,102.8,24.9787,昆明市,昆明学院,,23,22,38,16,25,40,,,,12,21,2,2,0.9,0.9
2026-01-07T0700,3551A,102.5969,24.6738,昆明市,晋宁区生态环境分局,,19,19,30,7,18,36,,,,6,15,2,2,0.7,0.8
2026-01-07T0700,3552A,102.6673,24.9861,昆明市,云天化总部,,25,25,42,16,24,38,,,,13,28,4,4,0.8,0.9
2026-01-07T0700,1456A,91.132,29.6515,拉萨市,八廓街,,21,21,37,9,17,55,,,,16,19,7,8,1.1,0.9
2026-01-07T0700,1457A,91.1221,29.6748,拉萨市,市环保局,,35,35,67,12,40,18,,,,29,31,8,11,1.2,1.7
2026-01-07T0700,1458A,91.0874,29.6476,拉萨市,区监测站,,23,15,34,6,16,71,,,,12,38,4,5,0.9,1.2
2026-01-07T0700,1459A,91.1774,29.6541,拉萨市,西藏大学,,27,27,40,16,20,45,,,,24,32,6,7,0.8,0.8
2026-01-07T0700,1460A,90.9798,29.6586,拉萨市,区辐射站,,27,27,53,6,29,33,,,,31,40,5,5,0.5,0.9
2026-01-07T0700,1461A,91.0831,29.6292,拉萨市,拉萨火车站,,24,17,38,7,16,75,,,,8,24,4,5,0.6,0.7
2026-01-07T0700,2520A,109.2203,23.7252,来宾市,来宾技工学校,,49,47,37,34,26,36,,,,18,12,12,7,0.6,0.5
2026-01-07T0700,3535A,109.1781,23.7293,来宾市,兴宾区政府,细颗粒物(PM2.5),54,47,44,38,35,27,,,,18,9,6,5,0.6,0.5
2026-01-07T0700,4002A,109.2312,23.7428,来宾市,中南小学,细颗粒物(PM2.5),60,51,40,43,33,22,,,,28,17,13,6,0.8,0.6
2026-01-07T0700,1479A,103.8309,36.0467,兰州市,铁路设计院,,,,,,,,,,,,,,,,
2026-01-07T0700,3241A,103.7439,36.0841,兰州市,百合公园,细颗粒物(PM2.5),92,96,80,68,58,1,,,,57,60,27,15,2.0,1.7
2026-01-07T0700,3242A,103.9613,35.9985,兰州市,和平,细颗粒物(PM2.5),67,63,81,48,70,11,,,,47,39,7,9,1.8,1.4
2026-01-07T0700,4236A,103.629272,36.093822,兰州市,庄浪东路808号,细颗粒物(PM2.5),74,86,88,54,57,9,,,,52,53,28,17,1.2,1.1
2026-01-07T0700,4237A,103.7251,36.104344,兰州市,安宁西路88号,细颗粒物(PM2.5),89,110,96,66,56,2,,,,66,67,23,13,1.3,1.3
2026-01-07T0700,4238A,103.846982,36.067567,兰州市,北滨河东路1号,细颗粒物(PM2.5),73,85,76,53,49,2,,,,65,60,11,13,1.9,1.5
2026-01-07T0700,1067A,116.6712,39.5109,廊坊市,药材公司,,18,18,92,3,79,51,,,,22,46,1,3,0.5,1
2026-01-07T0700,1068A,116.7215,39.5592,廊坊市,开发区,,16,6,74,3,48,45,,,,32,50,3,4,0.2,0.6
2026-01-07T0700,1070A,116.7246,39.5273,廊坊市,北华航天学院,,15,14,81,3,50,43,,,,30,40,1,4,0.3,0.6
2026-01-07T0700,2919A,116.7022,39.5454,廊坊市,河北工业大学,,15,12,86,3,51,47,,,,29,44,3,5,0.3,0.6
2026-01-07T0700,2536A,103.7629,29.5844,乐山市,牛耳桥,细颗粒物(PM2.5),62,51,47,44,39,8,,,,19,27,7,8,0.5,0.6
2026-01-07T0700,2537A,103.7501,29.6002,乐山市,市第三水厂,细颗粒物(PM2.5),64,52,47,46,40,9,,,,28,32,6,6,0.6,0.6
2026-01-07T0700,2538A,103.7571,29.5664,乐山市,市监测站,细颗粒物(PM2.5),70,59,47,51,40,9,,,,22,25,7,7,0.6,0.7
2026-01-07T0700,3361A,103.7313,29.563,乐山市,理工大学,细颗粒物(PM2.5),63,54,48,45,40,4,,,,23,28,4,5,0.5,0.6
2026-01-07T0700,2599A,100.2497,26.8802,丽江市,丽江古城,,24,19,31,12,15,76,,,,9,14,7,8,0.6,0.6
2026-01-07T0700,2600A,100.2203,26.8906,丽江市,市中心,,23,14,21,6,12,71,,,,11,15,7,7,0.4,0.4
2026-01-07T0700,1267A,119.9141,28.4513,丽水市,监测站大楼,,32,26,37,22,33,1,,,,25,26,8,6,0.8,0.8
2026-01-07T0700,1268A,119.93,28.4589,丽水市,莲都小学,,38,37,46,26,32,0,,,,33,29,/,/,/,/
2026-01-07T0700,1269A,119.8794,28.4232,丽水市,余庄前,,38,30,37,26,31,1,,,,12,17,4,4,0.4,0.4
2026-01-07T0700,1173A,119.1759,34.5885,连云港市,市环境监测站,细颗粒物(PM2.5),252,232,168,202,141,1,,,,57,40,20,13,1.4,1.1
2026-01-07T0700,3000A,119.3577,34.6971,连云港市,德源药业,细颗粒物(PM2.5),262,266,173,212,138,2,,,,59,42,6,5,1.0,0.6
2026-01-07T0700,3007A,119.178,34.8442,连云港市,新城一中,细颗粒物(PM2.5),324,290,181,274,158,1,,,,55,40,10,12,1.7,1.2
2026-01-07T0700,3008A,119.3607,34.7519,连云港市,胡沟管理处,细颗粒物(PM2.5),240,224,171,190,141,14,,,,47,48,9,8,1.3,1.2
2026-01-07T0700,3009A,119.1478,34.5913,连云港市,矿山设计院,细颗粒物(PM2.5),245,246,184,195,140,3,,,,50,38,14,10,,1.2
2026-01-07T0700,3434A,119.2414,34.6539,连云港市,工贸学校,细颗粒物(PM2.5),248,225,171,198,140,19,,,,35,33,11,14,1.3,1
2026-01-07T0700,3664A,119.4171,34.734,连云港市,连云街道,细颗粒物(PM2.5),142,132,143,108,116,39,,,,30,30,8,6,0.9,1
2026-01-07T0700,2573A,102.2629,27.8981,凉山彝族自治州,西昌市政府,,25,25,23,17,18,41,,,,12,13,5,5,0.9,0.8
2026-01-07T0700,2574A,102.2686,27.885,凉山彝族自治州,凉山州政府,,,26,23,,14,34,,,,14,12,7,7,0.4,0.7
2026-01-07T0700,4229A,102.2342,27.8859,凉山彝族自治州,凯乐南路30号,,18,16,19,12,10,34,,,,24,14,5,5,0.6,0.7
2026-01-07T0700,2212A,123.1978,41.2036,辽阳市,宏伟区,,23,20,53,16,39,54,,,,7,20,5,9,0.4,0.8
2026-01-07T0700,2213A,123.1684,41.2497,辽阳市,新华园,,33,33,62,12,31,54,,,,11,28,7,13,0.6,1
2026-01-07T0700,2214A,123.2355,41.2663,辽阳市,滨河路,,39,39,70,12,31,56,,,,5,23,5,9,0.3,0.8
2026-01-07T0700,4083A,123.153,41.2874,辽阳市,铁西路150号,,30,30,76,7,36,60,,,,10,31,11,17,0.8,1.4
2026-01-07T0700,2227A,125.1359,42.8845,辽源市,环保局,颗粒物(PM10),64,77,83,13,23,57,,,,8,16,7,6,0.4,0.7
2026-01-07T0700,4085A,125.0998,42.9134,辽源市,安宁大街333号,,26,26,71,3,18,65,,,,6,16,6,9,0.2,0.5
2026-01-07T0700,1625A,115.9789,36.4372,聊城市,区政府,颗粒物(PM10),60,70,110,35,76,27,,,,48,47,20,15,0.9,1
2026-01-07T0700,3200A,115.9772,36.4986,聊城市,监控中心,颗粒物(PM10),64,77,113,34,82,20,,,,50,44,12,14,0.8,0.9
2026-01-07T0700,3513A,116.0443,36.436,聊城市,九州社区,颗粒物(PM10),69,87,123,41,83,32,,,,37,29,12,8,0.6,0.7
2026-01-07T0700,4018A,116.0564,36.4609,聊城市,星美广场,颗粒物(PM10),75,100,123,45,79,16,,,,40,30,6,6,0.8,0.9
2026-01-07T0700,4113A,116.0091,36.4495,聊城市,利民路,颗粒物(PM10),74,97,116,37,74,16,,,,51,39,10,10,0.6,0.7
2026-01-07T0700,2632A,94.3683,29.6373,林芝市,林芝监测站,,27,,9,6,6,84,,,,2,3,4,4,0.3,0.3
2026-01-07T0700,2633A,94.3616,29.6634,林芝市,林芝人民医院,,24,8,13,7,7,75,,,,1,4,6,6,0.5,0.5
2026-01-07T0700,2603A,100.0779,23.8981,临沧市,市环保局,细颗粒物(PM2.5),55,,35,39,44,15,,,,7,9,5,7,0.5,0.5
2026-01-07T0700,2604A,100.0894,23.882,临沧市,市气象局,,33,33,36,21,24,10,,,,11,12,6,6,0.5,0.5
2026-01-07T0700,1733A,111.5552,36.0791,临汾市,临钢医院,细颗粒物(PM2.5),72,82,41,52,23,15,,,,38,19,8,7,0.9,0.6
2026-01-07T0700,1734A,111.4984,36.0734,临汾市,技工学校,"颗粒物(PM10),细颗粒物(PM2.5)",62,73,45,44,29,19,,,,36,27,14,8,1.2,0.9
2026-01-07T0700,1736A,111.5017,36.0857,临汾市,市委,颗粒物(PM10),63,75,51,34,20,18,,,,41,27,14,10,1.0,0.8
2026-01-07T0700,3018A,111.5048,36.1015,临汾市,唐尧大酒店,颗粒物(PM10),62,74,51,28,20,29,,,,33,24,10,5,1.1,0.8
2026-01-07T0700,4244A,111.4879,36.053,临汾市,启星学校,细颗粒物(PM2.5),73,83,46,53,32,10,,,,53,34,7,8,1.3,0.9
2026-01-07T0700,4271A,103.2464,35.6123,临夏回族自治州,滨河东路1号,细颗粒物(PM2.5),105,133,138,79,84,24,,,,20,29,3,5,1.4,1.3
2026-01-07T0700,4310A,103.207136,35.599807,临夏回族自治州,新华街21号,细颗粒物(PM2.5),112,119,122,84,86,16,,,,31,31,5,9,1.6,1.2
2026-01-07T0700,1618A,118.3429,35.0532,临沂市,沂河小区,细颗粒物(PM2.5),247,232,193,197,170,3,,,,68,56,16,16,1.8,1.2
2026-01-07T0700,1619A,118.2962,35.0568,临沂市,鲁南制药厂,细颗粒物(PM2.5),232,232,200,182,164,2,,,,66,60,19,18,1.8,1.2
2026-01-07T0700,1620A,118.2793,34.9976,临沂市,新光毛纺厂,细颗粒物(PM2.5),238,224,189,188,161,5,,,,58,49,17,14,1.8,1.2
2026-01-07T0700,1621A,118.3955,35.0889,临沂市,河东保险公司,细颗粒物(PM2.5),244,241,177,194,138,4,,,,51,45,9,14,1.7,1.1
2026-01-07T0700,3370A,118.3563,35.0215,临沂市,十里堡居委,细颗粒物(PM2.5),230,234,191,180,141,3,,,,66,57,15,16,2.0,1.4
2026-01-07T0700,3496A,118.359,35.1067,临沂市,南坊新区,细颗粒物(PM2.5),195,193,180,146,145,3,,,,69,56,12,14,1.2,1.1
2026-01-07T0700,3860A,118.3915,35.0297,临沂市,皇山花园小区,细颗粒物(PM2.5),226,241,182,176,131,6,,,,68,53,14,17,1.7,1.3
2026-01-07T0700,1870A,109.4854,24.3898,柳州市,柳东小学,细颗粒物(PM2.5),58,48,40,41,36,49,,,,8,9,8,8,0.5,0.6
2026-01-07T0700,1871A,109.4109,24.3304,柳州市,环保监测站,,48,48,48,33,35,37,,,,16,22,6,6,0.6,0.6
2026-01-07T0700,1872A,109.3886,24.3408,柳州市,河西水厂,细颗粒物(PM2.5),78,78,59,57,41,3,,,,38,27,13,10,0.6,0.7
2026-01-07T0700,1873A,109.4263,24.2951,柳州市,市四中,,45,32,44,31,30,47,,,,13,23,10,10,0.6,0.7
2026-01-07T0700,1874A,109.396,24.3658,柳州市,市九中,细颗粒物(PM2.5),72,,48,52,36,25,,,,25,23,10,11,0.8,0.7
2026-01-07T0700,1875A,109.4912,24.3164,柳州市,古亭山,,43,33,33,30,23,42,,,,10,19,10,10,0.8,0.7
2026-01-07T0700,3402A,109.5422,24.3994,柳州市,市二中,细颗粒物(PM2.5),52,39,39,36,34,35,,,,14,19,8,8,0.5,0.5
2026-01-07T0700,2307A,116.5078,31.7369,六安市,监测大楼,,29,25,45,20,33,51,,,,25,19,3,3,0.4,0.5
2026-01-07T0700,2308A,116.4738,31.7642,六安市,皖西学院,,32,30,49,22,34,47,,,,25,22,4,4,0.4,0.4
2026-01-07T0700,2309A,116.4997,31.7904,六安市,朝阳厂,,26,23,42,18,30,59,,,,22,21,5,5,0.4,0.5
2026-01-07T0700,2310A,116.5566,31.7885,六安市,开发区,,33,33,53,22,37,60,,,,17,29,4,3,0.3,0.4
2026-01-07T0700,2577A,104.8293,26.592,六盘水市,黄土坡,细颗粒物(PM2.5),53,54,32,37,23,43,,,,12,13,8,10,0.7,0.7
2026-01-07T0700,2579A,104.8481,26.5898,六盘水市,民中,细颗粒物(PM2.5),58,52,31,41,24,45,,,,10,15,3,4,0.6,0.6
2026-01-07T0700,2580A,104.9541,26.5506,六盘水市,双水,细颗粒物(PM2.5),55,51,30,39,23,40,,,,13,9,5,4,0.4,0.4
2026-01-07T0700,4151A,104.8899,26.5685,六盘水市,钟山大道中段564号,,49,49,37,32,23,47,,,,8,11,6,7,0.9,1
2026-01-07T0700,2336A,117.022,25.1031,龙岩市,龙岩市监测站,,35,32,29,24,21,48,,,,18,15,30,20,0.6,0.5
2026-01-07T0700,2337A,117.0257,25.0662,龙岩市,闽西职业技术学院,,42,,22,29,19,32,,,,20,12,8,6,0.5,0.4
2026-01-07T0700,2338A,117.0195,25.0306,龙岩市,龙岩学院,,46,37,24,32,21,36,,,,12,9,7,6,/,/
2026-01-07T0700,2885A,104.9344,33.3827,陇南市,滨江中学,,47,47,84,26,47,20,,,,31,46,8,14,1.2,1.9
2026-01-07T0700,3247A,104.9551,33.3709,陇南市,市总工会,颗粒物(PM10),54,58,112,34,38,23,,,,26,29,9,9,1.0,0.9
2026-01-07T0700,2488A,111.9984,27.7346,娄底市,市监测站,细颗粒物(PM2.5),89,66,77,66,61,7,,,,35,40,6,12,1.0,1.3
2026-01-07T0700,2491A,111.9888,27.7035,娄底市,市政府,细颗粒物(PM2.5),60,47,59,43,50,6,,,,11,21,4,6,0.9,1
2026-01-07T0700,4127A,111.9812,27.7591,娄底市,涟钢职大,颗粒物(PM10),55,59,73,29,46,9,,,,22,30,4,9,1.5,1.5
2026-01-07T0700,4128A,112.0303,27.7457,娄底市,娄底体校,,33,28,55,23,40,2,,,,14,20,2,4,0.5,0.8
2026-01-07T0700,1894A,105.4427,28.9063,泸州市,小市上码头,细颗粒物(PM2.5),84,91,70,62,50,18,,,,30,26,9,9,1.0,0.9
2026-01-07T0700,1895A,105.4241,28.8573,泸州市,兰田宪桥,细颗粒物(PM2.5),73,68,66,53,55,21,,,,14,23,7,8,1.0,1
2026-01-07T0700,1896A,105.4378,28.8833,泸州市,市环监站,细颗粒物(PM2.5),82,80,66,60,49,23,,,,29,35,8,8,1.0,0.9
2026-01-07T0700,4272A,105.3689,28.7783,泸州市,纳溪中医医院,细颗粒物(PM2.5),73,58,70,53,54,4,,,,18,22,7,8,0.8,0.8
2026-01-07T0700,2183A,111.1447,37.5212,吕梁市,环保局,颗粒物(PM10),76,102,65,46,26,0,,,,42,34,4,6,0.8,0.5
2026-01-07T0700,2185A,111.1285,37.5338,吕梁市,自来水公司,颗粒物(PM10),97,144,77,45,33,1,,,,39,29,10,9,0.6,0.5
2026-01-07T0700,2867A,111.1225,37.5093,吕梁市,马茂庄小学,颗粒物(PM10),84,117,74,44,28,4,,,,48,36,7,8,0.9,0.6
2026-01-07T0700,1812A,112.3934,34.6517,洛阳市,市委党校,,33,33,37,22,17,55,,,,18,14,9,9,0.4,0.3
2026-01-07T0700,1815A,112.494,34.6883,洛阳市,河南林校,颗粒物(PM10),52,53,51,26,17,45,,,,26,18,18,11,0.8,0.5
2026-01-07T0700,1816A,112.3843,34.623,洛阳市,开发区管委会,,36,36,33,22,17,58,,,,14,13,11,9,0.3,0.3
2026-01-07T0700,1817A,112.4263,34.6249,洛阳市,市委新办公区,,36,35,33,25,23,61,,,,15,12,10,9,0.4,0.4
2026-01-07T0700,3340A,112.6005,34.6323,洛阳市,伊滨,,48,41,34,33,21,44,,,,20,15,6,7,0.6,0.5
2026-01-07T0700,3341A,112.495,34.6338,洛阳市,中移产业园,,42,35,37,29,22,50,,,,25,18,12,9,0.4,0.3
2026-01-07T0700,3593A,112.5736,34.8993,洛阳市,吉利监测站,,33,33,34,21,16,59,,,,25,20,10,7,0.7,0.6
2026-01-07T0700,3635A,112.3678,34.6623,洛阳市,河科大西苑校区,,38,38,40,23,19,54,,,,16,12,9,9,0.5,0.4
2026-01-07T0700,3636A,112.4387,34.678,洛阳市,英才小学,细颗粒物(PM2.5),52,46,42,36,26,49,,,,32,24,12,11,0.5,0.4
2026-01-07T0700,4214A,112.460027,34.694929,洛阳市,春都路1号院,颗粒物(PM10),55,60,50,27,19,51,,,,18,16,22,10,0.9,0.6
2026-01-07T0700,2399A,114.051,33.5721,漯河市,三五一五工厂,,40,40,42,14,20,63,,,,10,10,10,7,0.6,0.5
2026-01-07T0700,2400A,114.0055,33.5698,漯河市,漯河大学,,33,33,39,14,14,60,,,,19,19,8,6,0.5,0.5
2026-01-07T0700,2401A,114.0134,33.5826,漯河市,市水利局,,34,34,35,19,19,52,,,,23,19,8,7,0.6,0.6
2026-01-07T0700,2402A,114.0261,33.5697,漯河市,市广电局,,32,32,34,18,15,62,,,,13,10,9,7,0.6,0.5
2026-01-07T0700,3478A,113.9691,33.568,漯河市,市图书馆,,32,32,38,20,20,49,,,,13,11,7,5,0.6,0.6
2026-01-07T0700,4250A,114.089259,33.588274,漯河市,韶山路11号,,36,36,38,20,18,57,,,,16,13,7,7,0.4,0.4
2026-01-07T0700,1798A,118.5084,31.6838,马鞍山市,湖东路四小,细颗粒物(PM2.5),70,64,75,51,54,29,,,,36,27,4,5,0.5,0.6
2026-01-07T0700,1799A,118.5019,31.6449,马鞍山市,开发区,细颗粒物(PM2.5),75,71,78,55,57,11,,,,51,36,4,4,0.5,0.6
2026-01-07T0700,3633A,118.4914,31.681,马鞍山市,雨山,细颗粒物(PM2.5),67,72,78,48,53,26,,,,41,32,6,7,0.6,0.6
2026-01-07T0700,4191A,118.527362,31.722269,马鞍山市,慈湖高新区,细颗粒物(PM2.5),70,71,75,51,53,24,,,,45,40,4,8,0.4,1.1
2026-01-07T0700,1686A,111.0285,21.469,茂名市,电白南海,,,,58,,35,,,103,,,17,,12,,0.7
2026-01-07T0700,1687A,110.9294,21.6533,茂名市,茂石化七小,,,,48,,30,,,92,,,14,,7,,0.6
2026-01-07T0700,1688A,110.9108,21.6688,茂名市,健康路,,,,40,,29,,,99,,,17,,12,,0.7
2026-01-07T0700,1689A,110.8592,21.6826,茂名市,高岭,颗粒物(PM10),54,58,55,34,31,45,,,,27,16,27,20,/,/
2026-01-07T0700,3450A,111.0101,21.5165,茂名市,电白水东,细颗粒物(PM2.5),55,48,50,39,33,67,,,,10,11,11,11,/,/
2026-01-07T0700,2540A,103.8414,30.0871,眉山市,气象局,细颗粒物(PM2.5),64,48,56,46,41,7,,,,25,30,8,9,0.7,0.7
2026-01-07T0700,3148A,103.829,30.0563,眉山市,区人社局,细颗粒物(PM2.5),58,54,52,41,37,16,,,,29,25,5,7,0.6,0.6
2026-01-07T0700,4148A,103.8836,30.0695,眉山市,眉职院,,49,49,50,31,31,0,,,,44,23,1,2,0.6,0.6
2026-01-07T0700,1690A,116.1248,24.3307,梅州市,梅江月梅,,30,30,30,21,22,8,,,,29,20,/,/,/,/
2026-01-07T0700,1691A,116.0798,24.2719,梅州市,梅县新城,,38,33,27,26,30,6,,,,28,19,6,7,0.4,0.5
2026-01-07T0700,3315A,116.1234,24.2994,梅州市,梅龙,,33,31,32,23,20,10,,,,24,14,11,10,0.5,0.5
2026-01-07T0700,1878A,104.7775,31.4741,绵阳市,富乐山,细颗粒物(PM2.5),80,72,52,59,39,1,,,,37,20,11,11,0.9,0.7
2026-01-07T0700,1880A,104.6698,31.4668,绵阳市,高新区自来水公司,细颗粒物(PM2.5),83,98,92,61,54,6,,,,42,44,8,9,0.9,0.9
2026-01-07T0700,3491A,104.6899,31.5324,绵阳市,西科大附属小学,细颗粒物(PM2.5),89,115,88,66,56,3,,,,39,42,8,9,1.5,1.1
2026-01-07T0700,3492A,104.5647,31.5343,绵阳市,安州区旅游局,细颗粒物(PM2.5),83,78,80,61,60,7,,,,41,39,13,13,1.2,1.1
2026-01-07T0700,4146A,104.7092,31.4972,绵阳市,科技城新区公安局,,,,74,68,54,2,,,,44,40,3,3,0.9,0.7
2026-01-07T0700,4226A,104.765114,31.453094,绵阳市,绵阳市气象局,细颗粒物(PM2.5),90,91,65,67,48,0,,,,40,35,11,7,1.1,0.9
2026-01-07T0700,1784A,129.61,44.561,牡丹江市,环保大楼,颗粒物(PM10),71,91,71,43,42,28,,,,30,37,9,9,0.6,0.9
2026-01-07T0700,1787A,129.6364,44.6075,牡丹江市,机车工厂,细颗粒物(PM2.5),63,50,97,45,50,8,,,,50,47,8,22,0.6,0.9
2026-01-07T0700,1788A,129.6386,44.5462,牡丹江市,第一中学,细颗粒物(PM2.5),65,50,61,47,42,14,,,,34,40,9,10,0.7,0.9
2026-01-07T0700,4287A,129.5992,44.5964,牡丹江市,东晓云街98号,细颗粒物(PM2.5),72,66,81,52,66,8,,,,53,42,8,11,0.7,1.1
2026-01-07T0700,2531A,105.0703,29.61,内江市,市监测站,细颗粒物(PM2.5),80,,58,59,48,15,,,,19,25,5,5,0.7,0.6
2026-01-07T0700,2533A,105.0657,29.5807,内江市,内江二中,细颗粒物(PM2.5),83,78,65,61,50,5,,,,28,33,4,5,0.9,0.8
2026-01-07T0700,2534A,105.0407,29.5828,内江市,内江日报社,细颗粒物(PM2.5),69,60,50,50,41,2,,,,36,39,2,3,0.7,0.6
2026-01-07T0700,4147A,105.0433,29.6105,内江市,玉峰路西段888号,细颗粒物(PM2.5),79,80,64,58,44,12,,,,24,28,2,4,0.7,0.6
2026-01-07T0700,2628A,92.0653,31.4846,那曲市,那曲监测站,,15,15,50,9,34,33,,,,17,30,7,14,1.2,1.5
2026-01-07T0700,4243A,92.0515,31.4787,那曲市,那曲市委宣传部,,23,22,28,16,18,18,,,,22,21,8,8,1.3,1.2
2026-01-07T0700,1291A,115.8887,28.7006,南昌市,省林业公司,,46,46,46,27,34,8,,,,76,29,5,4,0.6,0.7
2026-01-07T0700,1292A,115.813,28.7443,南昌市,林科所,,17,17,32,9,26,37,,,,28,22,5,6,0.4,0.5
2026-01-07T0700,1294A,115.8518,28.687,南昌市,建工学校,,50,50,50,29,34,19,,,,41,24,13,12,0.6,0.7
2026-01-07T0700,1295A,115.8926,28.6425,南昌市,象湖,颗粒物(PM10),53,55,46,34,36,0,,,,57,37,9,9,1.0,0.8
2026-01-07T0700,3046A,115.9084,28.6062,南昌市,机电学校,颗粒物(PM10),55,60,53,31,35,4,,,,53,35,3,5,0.6,0.6
2026-01-07T0700,3690A,115.9718,28.7032,南昌市,外国语学校,,40,39,44,28,41,14,,,,58,37,10,11,0.5,0.6
2026-01-07T0700,4106A,115.7923,28.6873,南昌市,工业二路,,29,19,38,13,27,1,,,,58,32,4,5,0.4,0.4
2026-01-07T0700,4192A,115.931587,28.686774,南昌市,南京东路235号,颗粒物(PM10),51,52,51,31,38,11,,,,65,39,6,5,0.4,0.4
2026-01-07T0700,1906A,106.0791,30.8022,南充市,南充市委,细颗粒物(PM2.5),57,54,54,40,43,3,,,,32,35,4,4,0.6,0.7
2026-01-07T0700,1907A,106.1038,30.8215,南充市,南充炼油厂,细颗粒物(PM2.5),68,72,73,49,53,4,,,,34,36,8,6,0.5,0.6
2026-01-07T0700,4227A,106.108336,30.788436,南充市,梨树横街98号,细颗粒物(PM2.5),65,59,58,47,42,5,,,,30,34,6,6,0.7,0.7
2026-01-07T0700,4304A,106.1172,30.843,南充市,清泉寺北路188号,细颗粒物(PM2.5),52,50,52,36,42,28,,,,24,28,9,7,0.4,0.5
2026-01-07T0700,4305A,106.067,30.7616,南充市,同庆路1号,细颗粒物(PM2.5),70,65,54,51,41,3,,,,38,38,5,6,0.5,1.4
2026-01-07T0700,1151A,118.8033,32.1085,南京市,迈皋桥,颗粒物(PM10),52,53,64,24,44,20,,,,45,12,2,2,0.6,0.4
2026-01-07T0700,1152A,118.7487,32.057,南京市,草场门,颗粒物(PM10),51,51,67,34,44,18,,,,48,27,7,6,0.3,0.3
2026-01-07T0700,1154A,118.770105,32.004342,南京市,中华门,细颗粒物(PM2.5),55,56,65,39,48,9,,,,45,25,5,5,0.6,0.5
2026-01-07T0700,1155A,118.8059,32.0329,南京市,瑞金路,细颗粒物(PM2.5),55,53,71,39,53,10,,,,52,28,4,4,0.9,0.7
2026-01-07T0700,1156A,118.7946,32.0774,南京市,玄武湖,,46,46,64,26,42,24,,,,22,21,4,4,0.5,0.6
2026-01-07T0700,1157A,118.6415,32.0964,南京市,浦口,颗粒物(PM10),51,51,70,25,48,39,,,,27,21,7,7,0.6,0.7
2026-01-07T0700,1158A,118.730129,32.000956,南京市,奥体中心,细颗粒物(PM2.5),55,52,68,39,50,34,,,,40,34,6,6,0.5,0.5
2026-01-07T0700,1159A,118.9072,32.1047,南京市,仙林大学城,,48,48,72,24,49,4,,,,58,32,5,6,0.7,0.8
2026-01-07T0700,3422A,118.8443,31.919,南京市,江宁彩虹桥,颗粒物(PM10),54,58,74,36,51,5,,,,41,26,4,4,0.8,0.6
2026-01-07T0700,3427A,118.8497,32.3599,南京市,六合雄州,,47,47,67,28,47,40,,,,25,22,6,10,0.6,0.6
2026-01-07T0700,4086A,118.7641,32.0841,南京市,新模范马路66号,细颗粒物(PM2.5),65,65,76,47,44,8,,,,56,25,6,5,0.9,0.8
2026-01-07T0700,4249A,118.8707617,31.34017673,南京市,汶溪路181号,细颗粒物(PM2.5),78,65,70,57,61,39,,,,24,25,5,6,0.9,0.7
2026-01-07T0700,4312A,119.019,31.6512,南京市,中山西路1号,细颗粒物(PM2.5),82,63,70,60,69,23,,,,29,25,4,4,0.7,0.8
2026-01-07T0700,1401A,108.3098,22.788,南宁市,二十一中,,39,39,26,20,12,28,,,,19,14,8,5,0.5,0.5
2026-01-07T0700,1402A,108.3135,22.8529,南宁市,北湖,,47,47,32,20,9,31,,,,22,20,13,7,0.7,0.7
2026-01-07T0700,1403A,108.3205,22.8222,南宁市,市监测站,,38,32,28,26,22,22,,,,24,15,14,8,0.7,0.6
2026-01-07T0700,1404A,108.3828,22.8038,南宁市,大自然花园,,29,27,26,20,17,33,,,,19,13,5,6,0.6,0.6
2026-01-07T0700,1406A,108.2397,22.8462,南宁市,区农职院,颗粒物(PM10),57,64,34,27,21,15,,,,25,18,8,8,0.9,0.7
2026-01-07T0700,1407A,108.3285,22.7356,南宁市,英华嘉园,,26,20,26,18,9,35,,,,13,8,6,4,0.6,0.6
2026-01-07T0700,3401A,108.4829,22.762,南宁市,红星社区,,40,28,24,28,20,56,,,,11,7,7,5,0.6,0.6
2026-01-07T0700,4132A,108.2927,23.1477,南宁市,起凤路9号,,42,31,27,29,23,14,,,,21,11,2,2,0.8,0.8
2026-01-07T0700,4221A,108.2177,22.7774,南宁市,乐贤路16号,颗粒物(PM10),70,90,37,25,21,28,,,,18,15,2,5,0.5,0.4
2026-01-07T0700,2332A,118.1682,26.6371,南平市,南平市监测站,,45,40,24,31,19,10,,,,25,18,3,3,0.5,0.5
2026-01-07T0700,2334A,118.1757,26.6276,南平市,南平七中,细颗粒物(PM2.5),59,48,28,42,22,15,,,,24,18,4,4,0.5,0.5
2026-01-07T0700,1168A,120.9056,31.9669,南通市,狼山街道,细颗粒物(PM2.5),67,73,96,48,76,13,,,,49,36,6,5,1.1,1
2026-01-07T0700,1170A,120.8635,32.0231,南通市,城中,"颗粒物(PM10),细颗粒物(PM2.5)",64,78,103,46,74,27,,,,39,39,5,5,0.7,0.8
2026-01-07T0700,1171A,120.9376,31.9301,南通市,星湖花园,细颗粒物(PM2.5),73,79,103,53,82,14,,,,52,50,9,8,1.5,1.3
2026-01-07T0700,1172A,120.8053,32.046,南通市,紫琅学院,"颗粒物(PM10),细颗粒物(PM2.5)",64,77,110,46,80,28,,,,38,37,6,5,0.7,0.9
2026-01-07T0700,3291A,121.0631,32.0644,南通市,通州监测站,细颗粒物(PM2.5),67,66,92,48,76,32,,,,35,43,5,4,0.7,0.8
2026-01-07T0700,3432A,120.9348,31.9874,南通市,环境教育馆,细颗粒物(PM2.5),64,66,92,46,73,28,,,,45,41,6,6,0.6,0.8
2026-01-07T0700,4091A,120.8692,31.9885,南通市,洪江路,颗粒物(PM10),67,83,105,42,74,24,,,,48,48,5,4,0.5,0.7
2026-01-07T0700,2404A,112.5338,33.0086,南阳市,瓦房庄,细颗粒物(PM2.5),68,66,42,49,27,9,,,,34,14,6,6,0.7,0.5
2026-01-07T0700,2405A,112.5002,32.9734,南阳市,汉画馆,颗粒物(PM10),51,51,32,23,18,16,,,,28,15,5,6,0.6,0.5
2026-01-07T0700,2406A,112.5778,33.0144,南阳市,气象站,细颗粒物(PM2.5),58,63,40,41,19,5,,,,44,22,4,5,0.6,0.5
2026-01-07T0700,2407A,112.548,32.9687,南阳市,理工学院,,43,43,33,30,16,1,,,,54,19,6,5,0.5,0.4
2026-01-07T0700,4008A,112.5233,32.9921,南阳市,卧龙区政府,颗粒物(PM10),51,52,30,31,21,6,,,,41,19,5,5,0.6,0.5
2026-01-07T0700,1234A,121.8352,29.9111,宁波市,区环保大楼,细颗粒物(PM2.5),67,58,107,48,86,42,,,,33,40,6,8,0.8,1
2026-01-07T0700,1235A,121.5595,29.8208,宁波市,万里学院,细颗粒物(PM2.5),62,57,107,44,87,38,,,,33,32,5,5,0.6,0.8
2026-01-07T0700,1236A,121.713,29.9564,宁波市,龙赛医院,"颗粒物(PM10),细颗粒物(PM2.5)",55,59,101,39,81,44,,,,30,37,3,4,0.6,0.8
2026-01-07T0700,1240A,121.5855,29.8635,宁波市,太古小学,细颗粒物(PM2.5),64,61,105,46,87,42,,,,24,24,2,4,0.7,0.8
2026-01-07T0700,1241A,121.5239,29.8673,宁波市,市环境监测中心,细颗粒物(PM2.5),65,61,97,47,78,33,,,,26,26,6,6,0.7,0.9
2026-01-07T0700,2871A,121.6156,29.9015,宁波市,万里国际学校,细颗粒物(PM2.5),62,62,104,44,89,41,,,,33,33,4,4,0.6,0.8
2026-01-07T0700,3710A,121.5593,29.8976,宁波市,白沙活动中心,细颗粒物(PM2.5),67,62,94,48,85,36,,,,34,33,4,5,0.7,0.8
2026-01-07T0700,4095A,121.8962,29.7529,宁波市,中科路88号,细颗粒物(PM2.5),57,51,88,40,86,62,,,,14,22,5,5,0.6,0.8
2026-01-07T0700,2341A,119.5387,26.6611,宁德市,宁德市监测站,,40,,23,28,19,36,,,,34,18,6,6,0.5,0.5
2026-01-07T0700,3209A,119.5231,26.6562,宁德市,宁德一中,,27,27,26,14,12,61,,,,9,11,4,5,0.5,0.5
2026-01-07T0700,2618A,98.859,25.8541,怒江傈僳族自治州,州监测站,,26,21,32,18,21,37,,,,8,12,5,6,0.4,0.4
2026-01-07T0700,2619A,98.8607,25.8168,怒江傈僳族自治州,泸水一中,,23,,26,16,22,24,,,,9,16,6,6,0.5,0.6
2026-01-07T0700,1888A,101.6891,26.571,攀枝花市,弄弄坪,,41,41,50,28,31,27,,,,18,13,8,10,0.8,0.8
2026-01-07T0700,1889A,101.577,26.5914,攀枝花市,河门口,颗粒物(PM10),51,51,56,35,35,28,,,,22,24,19,25,1.3,1.6
2026-01-07T0700,1891A,101.7365,26.4986,攀枝花市,仁和,细颗粒物(PM2.5),52,37,38,36,33,12,,,,23,20,7,9,0.8,0.8
2026-01-07T0700,2835A,101.7222,26.567,攀枝花市,四十中小,,44,44,46,28,27,43,,,,12,16,13,14,1.0,0.9
2026-01-07T0700,1604A,122.0303,41.1489,盘锦市,开发区,,23,23,52,16,30,52,,,,12,23,4,8,0.7,1
2026-01-07T0700,1605A,122.0486,41.0883,盘锦市,兴隆台,,21,21,44,9,29,49,,,,23,36,5,7,0.4,0.8
2026-01-07T0700,1606A,121.8297,41.1026,盘锦市,新生街道,,26,26,42,8,20,42,,,,27,39,5,9,0.4,0.6
2026-01-07T0700,1832A,113.3257,33.7423,平顶山市,新华旅馆,,50,50,46,19,15,67,,,,13,12,6,5,0.3,0.2
2026-01-07T0700,1833A,113.2917,33.737,平顶山市,规划设计院,,31,31,32,21,18,60,,,,12,18,7,7,0.3,0.2
2026-01-07T0700,1834A,113.182,33.7738,平顶山市,平顶山工学院,,28,26,29,19,16,60,,,,13,11,9,7,0.2,0.2
2026-01-07T0700,3594A,112.8736,33.9068,平顶山市,石龙区,,43,43,40,20,18,77,,,,16,18,6,5,0.4,0.4
2026-01-07T0700,4116A,113.284,33.7139,平顶山市,姚电大道23号,,44,44,36,27,19,59,,,,16,16,10,9,0.5,0.4
2026-01-07T0700,2656A,106.6633,35.5338,平凉市,聚贤嘉苑,,27,27,32,12,19,39,,,,36,25,7,8,0.6,0.7
2026-01-07T0700,2657A,106.7021,35.5307,平凉市,博物馆,,40,40,40,22,25,38,,,,30,26,10,11,1.0,1
2026-01-07T0700,2348A,113.8384,27.6436,萍乡市,中医院,细颗粒物(PM2.5),89,90,92,66,62,4,,,,34,31,3,7,1.2,1.3
2026-01-07T0700,2350A,113.8677,27.6438,萍乡市,市环保局,细颗粒物(PM2.5),89,76,77,66,64,10,,,,29,27,11,13,1.1,1
2026-01-07T0700,2351A,113.8663,27.6202,萍乡市,安源区政府,细颗粒物(PM2.5),89,86,80,66,66,10,,,,21,22,7,10,1.2,1.2
2026-01-07T0700,4107A,113.8686,27.6668,萍乡市,联洪村委会,细颗粒物(PM2.5),84,78,82,62,57,52,,,,24,29,4,8,1.0,1.1
2026-01-07T0700,2319A,119.0142,25.4324,莆田市,荔城区仓后路,,43,,25,30,18,80,,,,8,11,/,/,/,/
2026-01-07T0700,2320A,119.0016,25.4553,莆田市,莆田市监测站,,40,,20,28,17,85,,,,4,6,3,2,0.4,0.5
2026-01-07T0700,2321A,119.112,25.4561,莆田市,涵江区六中,,42,,23,29,17,75,,,,7,10,/,/,0.5,0.6
2026-01-07T0700,2322A,119.1014,25.3215,莆田市,秀屿区政府,,45,31,28,31,17,70,,,,10,9,4,2,0.7,0.8
2026-01-07T0700,2392A,115.0312,35.7636,濮阳市,环保局,颗粒物(PM10),55,59,46,22,33,29,,,,34,28,8,8,0.6,0.6
2026-01-07T0700,3021A,115,35.7667,濮阳市,濮水河管理处,颗粒物(PM10),60,69,59,32,28,14,,,,35,26,7,8,1.0,0.8
2026-01-07T0700,4118A,115.0552,35.7816,濮阳市,中原东路68号,颗粒物(PM10),64,78,62,33,29,28,,,,34,25,8,8,0.7,0.7
2026-01-07T0700,4216A,115.0923632,35.76857718,濮阳市,任丘路479号,颗粒物(PM10),59,68,58,39,35,17,,,,43,33,7,8,0.6,0.6
2026-01-07T0700,2601A,100.9801,22.7634,普洱市,市环保局,,31,31,43,6,17,19,,,,10,10,6,4,0.5,0.5
2026-01-07T0700,2602A,100.9763,22.8237,普洱市,普洱第二中学,,25,25,36,16,16,7,,,,15,16,5,5,0.5,0.5
2026-01-07T0700,3345A,131.0413,45.7795,七台河市,中波台,,28,26,47,19,26,45,,,,12,17,6,9,0.5,0.5
2026-01-07T0700,3637A,131.0136,45.7688,七台河市,人民广场,,38,38,55,23,36,47,,,,16,24,7,11,0.6,0.7
2026-01-07T0700,3684A,130.8639,45.8144,七台河市,新建矿广场,细颗粒物(PM2.5),65,61,71,47,38,11,,,,36,35,12,13,0.4,0.4
2026-01-07T0700,1779A,123.9307,47.3641,齐齐哈尔市,安居小区,,26,21,49,18,34,42,,,,17,24,10,10,0.4,0.7
2026-01-07T0700,1780A,123.9497,47.3389,齐齐哈尔市,中心广场,,15,14,47,9,31,48,,,,8,25,8,9,0.4,0.7
2026-01-07T0700,1781A,123.9483,47.3229,齐齐哈尔市,农牧车辆厂,,15,7,51,7,29,45,,,,9,27,3,4,0.3,0.5
2026-01-07T0700,1783A,123.9442,47.2994,齐齐哈尔市,市环境监测站,,18,18,52,6,33,51,,,,9,25,7,10,0.4,0.7
2026-01-07T0700,3662A,123.6341,47.2079,齐齐哈尔市,富区青少年活动中心,,16,16,84,9,48,45,,,,15,23,8,10,0.4,0.9
2026-01-07T0700,2591A,107.9765,26.5724,黔东南苗族侗族自治州,市环境监测站,,46,35,40,32,32,14,,,,11,19,2,4,0.5,0.6
2026-01-07T0700,2881A,107.8909,26.531,黔东南苗族侗族自治州,凯里学院,,43,31,35,30,28,18,,,,7,16,4,4,0.7,0.8
2026-01-07T0700,2593A,107.5223,26.2371,黔南布依族苗族自治州,小围寨,,49,39,32,34,30,8,,,,12,10,5,6,0.9,0.8
2026-01-07T0700,3538A,107.5175,26.2977,黔南布依族苗族自治州,沙坝,细颗粒物(PM2.5),52,41,38,36,32,7,,,,13,12,5,7,0.9,0.8
2026-01-07T0700,2589A,104.9022,25.0943,黔西南布依族苗族自治州,场坝街,细颗粒物(PM2.5),59,48,40,42,29,42,,,,14,13,9,7,0.7,0.7
2026-01-07T0700,2590A,104.8812,25.0994,黔西南布依族苗族自治州,坪东大道,细颗粒物(PM2.5),69,50,32,50,28,40,,,,15,15,8,7,0.7,0.7
2026-01-07T0700,2502A,108.6238,21.9667,钦州市,市环保站,,49,44,45,34,21,49,,,,19,15,5,3,1.6,0.9
2026-01-07T0700,2503A,108.655,21.9481,钦州市,沙埠小学,,43,43,54,24,18,42,,,,32,20,7,5,0.8,0.8
2026-01-07T0700,2504A,108.5989,21.7435,钦州市,港区一小,,43,43,48,30,23,31,,,,34,21,12,7,0.8,0.7
2026-01-07T0700,3404A,108.5959,21.9634,钦州市,北职校,,49,38,34,34,26,55,,,,24,12,9,8,0.6,0.7
2026-01-07T0700,1046A,119.5247,39.9346,秦皇岛市,建设大厦,,29,,40,20,26,54,,,,17,25,4,7,0.3,0.5
2026-01-07T0700,3132A,119.5979,39.938,秦皇岛市,文明里,,19,14,42,9,17,60,,,,11,27,8,11,0.2,0.3
2026-01-07T0700,4066A,119.7458,39.9952,秦皇岛市,南园路157号,,24,24,52,6,16,57,,,,18,29,3,7,0.3,0.6
2026-01-07T0700,4067A,119.5131,39.8858,秦皇岛市,翠岛大街1号,,20,20,39,3,13,45,,,,27,22,8,14,0.3,0.6
2026-01-07T0700,4198A,119.509013,39.825305,秦皇岛市,北戴河轮滑馆,,19,19,40,11,19,60,,,,15,23,4,8,0.5,0.6
2026-01-07T0700,1310A,120.404,36.0625,青岛市,市南区东部子站,细颗粒物(PM2.5),117,139,174,88,123,8,,,,58,55,18,16,1.2,1.2
2026-01-07T0700,1311A,120.362344,36.10282,青岛市,四方区子站,细颗粒物(PM2.5),128,158,229,97,139,7,,,,57,62,11,11,1.2,1.3
2026-01-07T0700,1312A,120.294373,36.054183,青岛市,市南区西部子站,细颗粒物(PM2.5),110,134,175,83,129,13,,,,49,56,8,9,1.1,1.2
2026-01-07T0700,1313A,120.4581,36.0858,青岛市,崂山区子站,细颗粒物(PM2.5),138,146,167,105,119,6,,,,68,57,17,16,1.5,1.4
2026-01-07T0700,1315A,120.3945,36.3083,青岛市,城阳区子站,细颗粒物(PM2.5),113,151,191,85,109,10,,,,59,68,16,14,1.5,1.5
2026-01-07T0700,3642A,120.3454,36.0735,青岛市,市北区南部,细颗粒物(PM2.5),117,166,186,88,130,2,,,,54,54,9,8,1.1,1.2
2026-01-07T0700,3643A,120.3897,36.18,青岛市,李沧区北部,细颗粒物(PM2.5),153,151,169,117,136,3,,,,63,67,16,14,1.6,1.4
2026-01-07T0700,4110A,120.5222,36.4089,青岛市,盟旺路653号,细颗粒物(PM2.5),168,197,180,127,124,2,,,,65,62,9,12,1.4,1.2
2026-01-07T0700,4290A,120.196923,35.954556,青岛市,珠江路669号,细颗粒物(PM2.5),123,132,151,93,123,19,,,,50,42,14,15,1.1,1.2
2026-01-07T0700,4291A,120.0424,35.8656,青岛市,黄岛区人民政府广场,细颗粒物(PM2.5),119,132,179,90,140,19,,,,57,62,12,12,1.2,1.5
2026-01-07T0700,1703A,113.0218,23.7086,清远市,凤城街办,细颗粒物(PM2.5),54,43,37,38,30,80,,,,15,15,/,/,/,/
2026-01-07T0700,3025A,113.0479,23.6343,清远市,技师学院,,42,40,43,29,29,66,,,,17,22,6,7,0.7,0.7
2026-01-07T0700,3318A,112.9898,23.7403,清远市,清新太和,,40,36,37,28,28,85,,,,12,11,4,5,0.5,0.5
2026-01-07T0700,3455A,113.076,23.72,清远市,清城东城,,42,38,38,29,27,81,,,,11,15,/,/,/,/
2026-01-07T0700,2661A,107.6325,35.7357,庆阳市,庆阳五中,颗粒物(PM10),53,56,30,16,16,74,,,,10,11,4,4,0.5,0.5
2026-01-07T0700,2662A,107.6361,35.7067,庆阳市,市环保局,颗粒物(PM10),53,56,36,13,15,77,,,,6,8,2,2,0.4,0.4
2026-01-07T0700,1916A,103.7897,25.5036,曲靖市,环境监测站,颗粒物(PM10),53,55,29,30,14,42,,,,14,15,3,4,1.0,1
2026-01-07T0700,1917A,103.8013,25.5357,曲靖市,烟厂办公区,,44,44,25,29,16,40,,,,16,14,4,5,0.6,0.7
2026-01-07T0700,3376A,103.7926,25.4651,曲靖市,南苑二区,,47,47,26,30,15,46,,,,13,11,4,5,0.6,0.6
2026-01-07T0700,3377A,103.7442,25.5259,曲靖市,曲靖师范学院,细颗粒物(PM2.5),59,44,29,42,21,44,,,,12,13,2,4,0.5,0.7
2026-01-07T0700,1264A,118.8694,28.94,衢州市,环保大楼,细颗粒物(PM2.5),60,57,49,43,38,29,,,,27,25,/,/,/,/
2026-01-07T0700,1266A,118.8622,28.9809,衢州市,衢州学院,细颗粒物(PM2.5),62,53,46,44,37,20,,,,37,34,4,5,0.5,0.3
2026-01-07T0700,4097A,118.9646,28.9832,衢州市,衢州三中,细颗粒物(PM2.5),62,61,53,44,40,38,,,,27,24,6,5,0.6,0.6
2026-01-07T0700,1611A,118.5818,24.9116,泉州市,涂山街,,39,,24,27,20,55,,,,11,10,3,2,0.5,0.6
2026-01-07T0700,1612A,118.597,24.8976,泉州市,津头埔,,42,,24,29,22,59,,,,10,14,4,4,0.5,0.6
2026-01-07T0700,1613A,118.6669,24.9422,泉州市,万安,,36,25,27,25,19,49,,,,16,15,3,3,0.4,0.6
2026-01-07T0700,4105A,118.6355,24.9148,泉州市,霞新路6号,,38,37,26,26,20,46,,,,21,14,/,/,0.3,0.5
2026-01-07T0700,2626A,88.8873,29.2723,日喀则市,日喀则监测站,,25,25,61,11,18,27,,,,20,28,6,13,0.7,1.1
2026-01-07T0700,3726A,88.8775,29.2425,日喀则市,林业技术推广中心,,21,21,36,10,17,50,,,,4,8,10,12,0.3,0.5
2026-01-07T0700,1659A,119.4711,35.421,日照市,监测站,细颗粒物(PM2.5),170,161,167,129,129,7,,,,63,62,10,15,1.3,1.3
2026-01-07T0700,1660A,119.523,35.4216,日照市,市政府广场,细颗粒物(PM2.5),127,127,158,96,124,28,,,,42,51,14,16,0.9,1
2026-01-07T0700,1661A,119.5511,35.4113,日照市,港务局,细颗粒物(PM2.5),124,124,171,94,135,31,,,,39,57,12,14,0.9,1.3
2026-01-07T0700,3507A,119.5326,35.4627,日照市,职业技术学院,细颗粒物(PM2.5),125,132,165,95,109,23,,,,50,57,11,12,1.2,1.3
2026-01-07T0700,3604A,119.3267,35.1043,日照市,岚山环保分局,细颗粒物(PM2.5),200,197,152,150,112,5,,,,65,58,28,18,2.0,1.6
2026-01-07T0700,1835A,111.1922,34.7752,三门峡市,市政府,,,47,38,35,26,,,,,43,31,12,29,0.6,0.5
2026-01-07T0700,1836A,111.1588,34.794,三门峡市,开发区,颗粒物(PM10),52,54,35,31,23,18,,,,43,25,8,6,0.6,0.4
2026-01-07T0700,3039A,111.1911,34.7829,三门峡市,三门峡市第一小学,,48,45,37,33,21,28,,,,39,30,10,8,0.7,0.6
2026-01-07T0700,3598A,111.1031,34.719,三门峡市,富达温泉假日酒店,"颗粒物(PM10),细颗粒物(PM2.5)",52,53,43,36,24,37,,,,29,26,12,8,0.8,0.6
2026-01-07T0700,2324A,117.621,26.2626,三明市,三钢,,41,41,31,26,26,12,,,,26,20,7,6,1.5,1.3
2026-01-07T0700,2325A,117.6352,26.2714,三明市,三明二中,细颗粒物(PM2.5),68,58,31,49,26,2,,,,34,20,20,6,2.6,1
2026-01-07T0700,2326A,117.6028,26.2377,三明市,三元区政府,,39,,29,27,24,16,,,,19,19,5,4,0.7,0.6
2026-01-07T0700,1877A,109.4962,18.2682,三亚市,河西子站,,45,40,46,31,35,76,,,,8,8,6,4,0.7,0.6
2026-01-07T0700,3540A,109.7348,18.3443,三亚市,君悦子站,细颗粒物(PM2.5),52,40,45,36,30,71,,,,11,10,6,6,0.7,0.7
2026-01-07T0700,4135A,109.1714,18.3739,三亚市,城东小学站,,46,,37,32,32,56,,,,9,10,/,/,/,/
2026-01-07T0700,2624A,91.7592,29.234,山南市,山南监测站,,23,18,27,16,12,59,,,,8,7,5,5,0.3,0.3
2026-01-07T0700,2625A,91.7701,29.2436,山南市,山南人民医院,,24,24,28,8,11,61,,,,7,7,4,5,0.3,0.3
2026-01-07T0700,1674A,116.6795,23.3666,汕头市,金平子站,细颗粒物(PM2.5),57,,35,40,31,69,,,,16,16,8,7,0.8,0.7
2026-01-07T0700,1675A,116.7248,23.3632,汕头市,龙湖子站,,29,28,32,20,16,64,,,,16,14,11,11,/,/
2026-01-07T0700,1676A,116.7257,23.2774,汕头市,濠江子站,,,29,30,25,21,66,,,,,16,10,24,/,/
2026-01-07T0700,1677A,116.7518,23.4712,汕头市,澄海子站,,42,,28,29,21,64,,,,12,12,6,6,0.3,0.4
2026-01-07T0700,1678A,116.6088,23.2539,汕头市,潮阳子站,,26,25,30,18,18,76,,,,11,14,9,7,0.5,0.6
2026-01-07T0700,3444A,116.4539,23.2684,汕头市,潮南峡山,,43,41,32,30,22,61,,,,14,10,10,9,0.6,0.6
2026-01-07T0700,3624A,116.4069,23.2533,汕头市,潮南子站,,48,36,40,33,27,57,,,,19,15,6,6,/,/
2026-01-07T0700,1693A,115.3653,22.7751,汕尾市,市环保局,,40,,25,28,23,75,,,,8,8,7,7,0.4,0.5
2026-01-07T0700,1695A,115.362,22.7926,汕尾市,新城中学,,39,,25,27,19,77,,,,7,5,5,4,0.5,0.5
2026-01-07T0700,2645A,109.9155,33.8714,商洛市,监测站,,22,22,20,13,13,37,,,,24,18,4,5,0.4,0.3
2026-01-07T0700,3045A,109.9647,33.8486,商洛市,商州区中学,,20,19,29,14,15,35,,,,32,30,4,5,0.6,0.6
2026-01-07T0700,2408A,115.6701,34.4283,商丘市,环境监测站,,35,34,56,24,37,36,,,,25,22,3,3,0.2,0.2
2026-01-07T0700,2409A,115.6458,34.4047,商丘市,粮食局,,30,30,56,20,36,38,,,,16,21,6,5,0.4,0.6
2026-01-07T0700,3171A,115.6069,34.4465,商丘市,梁园区档案局,,36,36,52,19,34,24,,,,31,24,5,6,0.3,0.4
2026-01-07T0700,4119A,115.6701,34.3767,商丘市,北海东路185号,,34,34,50,16,33,38,,,,21,24,3,3,0.4,0.4
2026-01-07T0700,4120A,115.6172,34.3704,商丘市,中山大街3号,,40,40,61,17,42,36,,,,22,33,4,4,0.2,0.2
2026-01-07T0700,1141A,121.401,31.2382,上海市,普陀,细颗粒物(PM2.5),67,62,98,48,89,12,,,,53,48,7,7,0.8,0.8
2026-01-07T0700,1142A,121.4774,31.2043,上海市,十五厂,细颗粒物(PM2.5),63,56,93,45,80,27,,,,43,44,7,7,0.9,1
2026-01-07T0700,1143A,121.4673,31.3011,上海市,虹口,细颗粒物(PM2.5),62,57,99,44,82,10,,,,54,42,8,7,0.7,0.8
2026-01-07T0700,1147A,121.4253,31.226,上海市,静安监测站,细颗粒物(PM2.5),67,58,96,48,83,16,,,,53,46,7,7,0.6,0.7
2026-01-07T0700,1148A,121.7029,31.1905,上海市,浦东川沙,细颗粒物(PM2.5),62,59,96,44,76,10,,,,59,41,8,7,0.7,0.9
2026-01-07T0700,1149A,121.5339,31.229,上海市,浦东新区监测站,细颗粒物(PM2.5),69,53,91,50,82,28,,,,47,46,8,7,0.9,0.9
2026-01-07T0700,1150A,121.5776,31.2038,上海市,浦东张江,细颗粒物(PM2.5),58,57,95,41,76,22,,,,45,38,8,7,0.7,0.9
2026-01-07T0700,3265A,121.4242,31.3303,上海市,宝山庙行,细颗粒物(PM2.5),63,56,100,45,85,9,,,,61,48,7,7,0.7,0.8
2026-01-07T0700,3266A,121.8789,31.4662,上海市,崇明上实东滩,细颗粒物(PM2.5),77,72,94,56,75,27,,,,35,28,6,5,0.7,0.7
2026-01-07T0700,3268A,121.316,31.2839,上海市,嘉定南翔,细颗粒物(PM2.5),64,57,97,46,89,2,,,,58,46,4,5,0.7,0.8
2026-01-07T0700,3269A,121.3357,30.7455,上海市,金山新城,细颗粒物(PM2.5),90,,104,67,114,21,,,,45,37,7,9,1.0,1.3
2026-01-07T0700,3270A,121.4996,31.0741,上海市,闵行浦江,细颗粒物(PM2.5),62,58,99,44,84,6,,,,58,45,6,7,0.4,0.6
2026-01-07T0700,3271A,121.2886,31.1663,上海市,青浦徐泾,细颗粒物(PM2.5),65,59,104,47,91,16,,,,45,44,5,5,0.8,1
2026-01-07T0700,3272A,121.2193,31.0382,上海市,松江图书馆,颗粒物(PM10),61,71,113,43,73,2,,,,60,35,7,7,0.6,0.8
2026-01-07T0700,3273A,121.3904,31.206,上海市,长宁仙霞,细颗粒物(PM2.5),62,56,94,44,82,9,,,,58,52,7,7,0.6,0.7
2026-01-07T0700,3274A,121.7964,31.0507,上海市,浦东惠南,细颗粒物(PM2.5),64,58,88,46,77,7,,,,57,43,4,5,0.7,0.9
2026-01-07T0700,3544A,121.4891,30.925,上海市,奉贤南桥新城,细颗粒物(PM2.5),80,71,112,59,100,14,,,,52,39,8,9,0.9,1.1
2026-01-07T0700,4183A,121.417401,31.16637,上海市,冠生园路458号,细颗粒物(PM2.5),63,58,98,45,86,24,,,,52,52,5,6,0.5,0.7
2026-01-07T0700,4205A,121.541914,31.268301,上海市,宁武路151号,细颗粒物(PM2.5),58,52,92,41,79,25,,,,46,41,6,6,0.8,0.8
2026-01-07T0700,2382A,117.9758,28.4439,上饶市,市监测站,细颗粒物(PM2.5),55,47,48,39,31,26,,,,26,28,11,11,/,/
2026-01-07T0700,2383A,117.9521,28.4637,上饶市,凤凰光学,,48,48,49,31,28,3,,,,36,26,15,11,0.6,0.7
2026-01-07T0700,3685A,117.897,28.4316,上饶市,双创科技城,细颗粒物(PM2.5),69,64,49,50,37,16,,,,53,36,22,11,1.0,0.7
2026-01-07T0700,4211A,118.190438,28.444845,上饶市,裕丰大道,细颗粒物(PM2.5),55,57,60,39,42,16,,,,24,27,14,22,0.7,0.7
2026-01-07T0700,1669A,113.5821,24.7733,韶关市,市八中,,50,40,36,35,29,15,,,,34,20,11,10,0.7,0.6
2026-01-07T0700,1671A,113.5916,24.7973,韶关市,园林处,,43,30,31,30,30,4,,,,36,21,12,12,/,/
2026-01-07T0700,1673A,113.5971,24.6864,韶关市,曲江监测站,细颗粒物(PM2.5),64,69,40,46,31,6,,,,30,20,64,16,1.0,0.5
2026-01-07T0700,2809A,113.6668,24.7756,韶关市,大学路288号,,18,,24,12,22,1,,,,20,14,4,6,/,/
2026-01-07T0700,3622A,113.5556,24.8082,韶关市,碧湖山庄,,45,45,42,29,33,17,,,,21,16,6,8,0.5,0.5
2026-01-07T0700,2464A,111.5277,27.2442,邵阳市,市化工厂,细颗粒物(PM2.5),83,81,72,61,54,0,,,,28,30,8,9,1.1,1.1
2026-01-07T0700,2466A,111.4327,27.2276,邵阳市,市环保局,细颗粒物(PM2.5),85,,55,63,51,9,,,,25,24,22,7,1.1,1
2026-01-07T0700,4218A,111.446,27.2472,邵阳市,北塔二期4-26地块,细颗粒物(PM2.5),87,,57,64,54,2,,,,25,24,4,5,1.1,1
2026-01-07T0700,4219A,111.4739,27.2282,邵阳市,邵水西路287号,,,,82,68,57,2,,,,34,30,15,12,0.9,0.8
2026-01-07T0700,1247A,120.6053,29.9927,绍兴市,城东开发委,细颗粒物(PM2.5),57,52,69,40,59,22,,,,33,28,7,8,0.6,0.7
2026-01-07T0700,2921A,120.5482,30.0003,绍兴市,树下王站,细颗粒物(PM2.5),62,64,72,44,55,7,,,,44,33,6,6,0.8,0.8
2026-01-07T0700,3408A,120.5685,29.936,绍兴市,绍兴中专,细颗粒物(PM2.5),53,53,72,37,55,19,,,,31,27,7,7,0.6,0.7
2026-01-07T0700,3409A,120.4905,30.086,绍兴市,柯桥区政府,细颗粒物(PM2.5),53,49,69,37,51,31,,,,25,29,4,4,0.5,0.6
2026-01-07T0700,3410A,120.8751,30.0249,绍兴市,重华小学,细颗粒物(PM2.5),62,56,79,44,65,9,,,,41,29,5,5,0.7,0.7
2026-01-07T0700,3411A,120.837,30.0137,绍兴市,上虞中学,细颗粒物(PM2.5),69,58,78,50,66,0,,,,48,36,11,8,0.7,0.7
2026-01-07T0700,3560A,120.4715,30.0414,绍兴市,柯桥妇保,,49,42,60,34,50,18,,,,25,24,5,5,0.8,0.8
2026-01-07T0700,3658A,120.6156,30.0762,绍兴市,袍江中学,细颗粒物(PM2.5),75,65,81,55,67,15,,,,39,33,6,6,0.9,0.9
2026-01-07T0700,1356A,114.0948,22.5506,深圳市,通心岭子站,,46,45,45,32,26,51,,,,22,15,7,7,0.5,0.6
2026-01-07T0700,1357A,114.1153,22.5713,深圳市,洪湖,,50,50,45,32,27,36,,,,40,19,8,8,0.7,0.6
2026-01-07T0700,1358A,113.9823,22.5398,深圳市,华侨城,,45,39,38,31,27,62,,,,16,17,/,/,/,/
2026-01-07T0700,1359A,113.9181,22.517,深圳市,南海子站,,43,43,45,25,27,70,,,,13,16,7,6,0.6,0.6
2026-01-07T0700,1360A,114.2345,22.565,深圳市,盐田,,41,41,40,24,25,83,,,,8,10,8,7,0.6,0.6
2026-01-07T0700,1363A,114.4911,22.5381,深圳市,南澳,,29,29,38,18,24,85,,,,8,8,/,/,/,/
2026-01-07T0700,1364A,114.41,22.6346,深圳市,葵涌,,32,29,34,22,23,76,,,,9,10,8,8,0.6,0.6
2026-01-07T0700,1365A,114.2967,22.5978,深圳市,梅沙,,42,35,39,29,26,85,,,,10,13,/,/,/,/
2026-01-07T0700,1366A,114.0563,22.7353,深圳市,观澜,细颗粒物(PM2.5),53,53,54,37,31,62,,,,19,20,7,7,0.5,0.6
2026-01-07T0700,3305A,114.0614,22.556,深圳市,莲花,,45,40,39,31,26,57,,,,19,18,/,/,/,/
2026-01-07T0700,3306A,114.0144,22.6163,深圳市,民治,,38,38,39,25,25,65,,,,16,15,/,/,/,/
2026-01-07T0700,3307A,114.1756,22.6421,深圳市,横岗,,45,41,41,31,28,72,,,,18,15,/,/,/,/
2026-01-07T0700,3447A,114.344,22.7115,深圳市,坪山,,45,42,48,31,27,65,,,,19,18,9,8,0.6,0.7
2026-01-07T0700,3623A,113.8952,22.586,深圳市,西乡,,41,41,40,28,25,70,,,,17,17,8,6,0.6,0.7
2026-01-07T0700,4220A,114.214113,22.713717,深圳市,黄阁路,,45,37,37,31,27,75,,,,10,11,7,7,0.5,0.5
2026-01-07T0700,1099A,123.5058,41.7084,沈阳市,浑南东路,,47,47,78,19,49,56,,,,18,43,9,15,0.4,1.1
2026-01-07T0700,1100A,123.4238,41.6992,沈阳市,新秀街,颗粒物(PM10),51,51,87,17,42,64,,,,13,34,7,15,0.5,1.1
2026-01-07T0700,1102A,123.5903,41.8412,沈阳市,东陵路,颗粒物(PM10),51,51,78,15,41,54,,,,17,35,6,12,0.3,1
2026-01-07T0700,1103A,123.4267,41.8466,沈阳市,陵东街,颗粒物(PM10),53,56,79,14,43,55,,,,13,33,11,18,0.3,1.1
2026-01-07T0700,1104A,123.4116,41.7654,沈阳市,文化路,,33,33,76,13,46,52,,,,22,38,11,16,0.5,1.1
2026-01-07T0700,1105A,123.4673,41.787,沈阳市,小河沿,,46,46,76,16,47,51,,,,20,37,10,15,0.6,1.2
2026-01-07T0700,1106A,123.4019,41.7978,沈阳市,太原街,,39,39,73,7,48,44,,,,29,42,10,21,0.3,1
2026-01-07T0700,1108A,123.3778,41.9233,沈阳市,京沈街,,36,36,86,12,48,60,,,,13,37,3,13,0.3,0.9
2026-01-07T0700,2897A,123.2429,41.7341,沈阳市,沈辽西路,,40,40,76,15,44,58,,,,16,37,8,13,0.5,1.1
2026-01-07T0700,2900A,123.5951,41.9085,沈阳市,裕农路,颗粒物(PM10),51,51,69,7,36,62,,,,14,33,4,12,0.4,1
2026-01-07T0700,2429A,110.78,32.6494,十堰市,滨河新村,,39,39,33,17,21,32,,,,25,26,/,/,0.8,0.7
2026-01-07T0700,2430A,110.7305,32.6408,十堰市,刘家沟,,22,16,26,15,19,46,,,,12,14,/,/,/,/
2026-01-07T0700,2431A,110.8843,32.5712,十堰市,铁二处,细颗粒物(PM2.5),62,,45,44,36,14,,,,33,31,6,7,0.8,0.8
2026-01-07T0700,3545A,110.8053,32.8401,十堰市,郧阳区金沙路,,29,25,21,20,17,47,,,,12,10,5,5,0.6,0.5
2026-01-07T0700,2709A,86.0391,44.298,石河子市,艾青诗歌馆,细颗粒物(PM2.5),170,191,177,129,147,53,,,,18,38,6,7,1.2,1.4
2026-01-07T0700,3442A,86.047,44.2331,石河子市,南区管委会,细颗粒物(PM2.5),183,200,147,138,114,55,,,,35,39,6,7,1.4,1.4
2026-01-07T0700,4051A,86.0791,44.3018,石河子市,世纪广场,细颗粒物(PM2.5),178,252,202,134,146,56,,,,36,53,7,7,1.3,1.6
2026-01-07T0700,4167A,86.0126,44.2349,石河子市,城南景苑小区,细颗粒物(PM2.5),188,203,164,141,114,60,,,,21,35,4,4,0.9,0.9
2026-01-07T0700,1030A,114.5919,38.0328,石家庄市,高新区,,50,50,61,27,28,44,,,,23,22,8,6,0.4,0.4
2026-01-07T0700,1032A,114.4556,38.0136,石家庄市,西南高教,颗粒物(PM10),51,52,66,17,18,33,,,,36,29,4,3,0.6,0.4
2026-01-07T0700,1033A,114.533,38.0177,石家庄市,世纪公园,颗粒物(PM10),51,52,50,23,23,41,,,,25,20,7,5,0.5,0.5
2026-01-07T0700,1034A,114.5105,38.0489,石家庄市,人民会堂,,48,48,56,19,17,41,,,,24,19,4,2,0.6,0.4
2026-01-07T0700,3456A,114.2887,38.0905,石家庄市,鹿泉一中,颗粒物(PM10),57,64,63,33,29,36,,,,29,19,6,5,0.5,0.4
2026-01-07T0700,4024A,114.6491,37.9014,石家庄市,栾城区星河路,,38,38,50,16,24,58,,,,19,27,7,6,0.4,0.4
2026-01-07T0700,4059A,114.4563,38.0365,石家庄市,裕华西路63号,,42,42,46,24,21,35,,,,32,27,7,4,0.6,0.5
2026-01-07T0700,4060A,114.5586,38.0581,石家庄市,和平路363号,颗粒物(PM10),51,52,56,20,24,32,,,,35,23,4,3,0.7,0.4
2026-01-07T0700,4061A,114.8347,38.0213,石家庄市,廉州西路160号,颗粒物(PM10),57,64,62,27,22,20,,,,44,34,5,4,0.8,0.6
2026-01-07T0700,4062A,114.4498,38.0729,石家庄市,北城路41号,颗粒物(PM10),53,56,55,16,18,26,,,,32,25,8,4,0.8,0.4
2026-01-07T0700,4314A,114.0494,38.059,石家庄市,矿区区委大楼,,50,50,59,17,11,33,,,,34,21,13,7,0.4,0.4
2026-01-07T0700,1948A,106.3668,39.0145,石嘴山市,大武口朝阳西街,颗粒物(PM10),68,85,53,34,26,27,,,,33,24,20,15,0.9,0.7
2026-01-07T0700,1949A,106.7713,39.2278,石嘴山市,惠农南大街,颗粒物(PM10),88,125,54,24,27,73,,,,12,17,11,13,0.5,0.6
