timepoint,stationcode,longitude,latitude,area,positionname,primarypollutant,aqi,pm10,pm10_24h,pm2_5,pm2_5_24h,o3,o3_24h,o3_8h,o3_8h_24h,no2,no2_24h,so2,so2_24h,co,co_24h
2026-01-07T1200,2568A,102.2503,31.8896,阿坝藏族羌族自治州,马师校,,19,13,17,10,14,60,,34,34,9,18,4,4,0.6,0.7
2026-01-07T1200,3994A,102.2174,31.9016,阿坝藏族羌族自治州,马尔康中学西区,,19,,11,8,11,60,,42,42,7,13,5,5,0.5,0.6
2026-01-07T1200,2695A,80.2899,41.1684,阿克苏地区,电视台,颗粒物(PM10),63,76,57,38,38,14,,23,22,33,32,4,4,1.0,0.8
2026-01-07T1200,2696A,80.2592,41.1541,阿克苏地区,艺术中心,细颗粒物(PM2.5),63,57,53,45,43,23,,30,26,21,23,4,4,0.8,0.7
2026-01-07T1200,2205A,105.699,38.8409,阿拉善盟,蒙二幼,颗粒物(PM10),66,81,67,15,22,71,,62,61,6,12,10,10,0.5,0.6
2026-01-07T1200,2206A,105.7198,38.8508,阿拉善盟,环保局新楼,颗粒物(PM10),59,68,57,20,21,67,,70,65,6,8,9,9,0.6,0.6
2026-01-07T1200,2708A,88.1266,47.8515,阿勒泰地区,市站,,18,11,21,11,9,47,,47,47,36,34,4,4,0.3,0.4
2026-01-07T1200,4166A,88.1198,47.7931,阿勒泰地区,阿勒泰路33号,,19,19,18,3,5,54,,61,58,33,26,6,9,0.6,0.4
2026-01-07T1200,2630A,80.1171,32.4999,阿里地区,阿里监测站,,22,6,3,3,3,70,,69,69,4,8,10,11,0.4,0.4
2026-01-07T1200,3192A,80.0906,32.5029,阿里地区,阿里藏医院,,20,17,12,14,9,59,,58,54,10,6,16,11,0.7,0.6
2026-01-07T1200,2644A,109.0088,32.6974,安康市,汉滨区检察院,颗粒物(PM10),54,57,53,37,35,35,,15,15,18,23,7,5,0.7,0.7
2026-01-07T1200,4054A,109.0324,32.6913,安康市,市邮政管理局,细颗粒物(PM2.5),63,62,55,45,40,30,,13,13,22,25,8,6,0.8,0.7
2026-01-07T1200,2291A,117.0806,30.5181,安庆市,环科院,,,65,70,42,52,,,17,17,20,28,8,6,,0.5
2026-01-07T1200,2292A,117.0331,30.5118,安庆市,马山宾馆,细颗粒物(PM2.5),60,62,69,43,51,55,,18,18,26,28,8,5,0.5,0.6
2026-01-07T1200,2294A,116.9897,30.6146,安庆市,安庆大学,细颗粒物(PM2.5),70,65,67,51,49,65,,19,19,13,23,6,4,0.5,0.5
2026-01-07T1200,3173A,117.0598,30.5351,安庆市,市人大,细颗粒物(PM2.5),60,58,69,43,52,58,,20,20,26,32,9,7,0.4,0.5
2026-01-07T1200,3123A,105.9408,26.2431,安顺市,凤凰山,,,37,39,34,37,,,57,56,12,15,16,16,0.9,0.9
2026-01-07T1200,3124A,105.9443,26.2567,安顺市,金钟山,,46,39,38,32,35,73,,54,54,12,12,18,20,0.7,0.8
2026-01-07T1200,3125A,105.8983,26.248,安顺市,娄家坡,细颗粒物(PM2.5),52,43,44,36,39,72,,56,52,15,16,20,24,0.7,0.8
2026-01-07T1200,1819A,114.3552,36.1017,安阳市,红庙街,颗粒物(PM10),53,56,44,22,23,55,,31,23,16,28,4,8,0.4,0.8
2026-01-07T1200,1820A,114.361,36.0681,安阳市,银杏小区,颗粒物(PM10),53,56,45,27,22,63,,33,26,18,26,5,6,0.3,0.5
2026-01-07T1200,3141A,114.3921,36.0879,安阳市,信访局,,,53,44,27,27,,,47,32,19,25,3,5,0.5,0.7
2026-01-07T1200,3669A,114.4706,36.0634,安阳市,左辅环卫站,颗粒物(PM10),54,58,62,24,25,64,,45,39,16,21,6,7,0.5,0.6
2026-01-07T1200,4117A,114.2918,36.0769,安阳市,钢三路198号,颗粒物(PM10),56,62,49,25,28,55,,34,27,20,25,5,5,0.5,0.6
2026-01-07T1200,1748A,123.0441,41.1201,鞍山市,深沟寺,,38,38,49,12,25,62,,60,59,7,23,6,11,0.5,1
2026-01-07T1200,1749A,123.011,41.0931,鞍山市,太阳城,,46,46,52,12,26,63,,56,56,10,33,17,27,0.9,1.9
2026-01-07T1200,1750A,123.0483,41.1445,鞍山市,太平,,47,47,51,12,22,60,,57,54,9,28,9,14,0.4,1
2026-01-07T1200,1751A,122.964,41.0968,鞍山市,铁西三道街,,35,35,52,7,25,64,,58,57,8,29,9,16,0.5,1.1
2026-01-07T1200,1753A,123.0219,41.0822,鞍山市,明达新区,,38,38,49,11,24,60,,53,53,12,24,14,24,0.6,1.4
2026-01-07T1200,4201A,122.944647,41.082639,鞍山市,兴盛南路290号,,,35,65,8,33,,,44,38,16,43,10,16,0.4,0.9
2026-01-07T1200,2195A,107.4206,40.7609,巴彦淖尔市,附二中,颗粒物(PM10),75,99,85,35,32,53,,53,50,10,9,3,3,0.5,0.4
2026-01-07T1200,2196A,107.37,40.7372,巴彦淖尔市,市环保大楼,颗粒物(PM10),62,73,81,27,24,65,,56,54,8,9,5,4,0.4,0.4
2026-01-07T1200,1956A,86.1476,41.7529,巴音郭楞蒙古自治州,孔雀公园,颗粒物(PM10),63,75,56,35,33,16,,30,19,39,22,10,7,0.8,0.6
2026-01-07T1200,1957A,86.1971,41.7166,巴音郭楞蒙古自治州,棉纺厂,颗粒物(PM10),52,53,69,21,22,34,,40,34,16,17,/,/,/,/
2026-01-07T1200,1958A,86.236,41.7172,巴音郭楞蒙古自治州,经济开发区,,26,26,55,10,21,34,,35,30,13,18,6,5,0.5,0.6
2026-01-07T1200,3181A,106.776805,31.852614,巴中市,市五中,细颗粒物(PM2.5),52,50,52,36,39,36,,14,12,26,24,6,5,1.0,0.8
2026-01-07T1200,3183A,106.7419,31.8654,巴中市,圣泉水务公司,,43,43,44,27,33,43,,27,27,23,28,4,4,0.6,0.5
2026-01-07T1200,3616A,106.7617,31.8343,巴中市,市中心医院,,48,41,55,33,42,44,,10,10,20,31,7,6,0.7,0.8
2026-01-07T1200,2235A,122.7909,45.608,白城市,洮北区环保局,,29,20,38,20,17,57,,50,48,2,6,7,5,0.1,0.2
2026-01-07T1200,2236A,122.8741,45.5725,白城市,市环保局,,,14,30,13,18,54,,54,53,,8,5,6,,0.4
2026-01-07T1200,2231A,126.4219,41.9172,白山市,喜丰,,,124,66,17,23,59,,65,64,,16,5,12,0.5,0.9
2026-01-07T1200,2232A,126.4082,41.9416,白山市,环保局,,38,38,52,10,29,62,,63,62,7,21,8,12,0.7,1.1
2026-01-07T1200,2647A,104.1727,36.5448,白银市,第三小学,细颗粒物(PM2.5),77,,49,56,41,51,,32,30,26,30,36,21,1.2,0.9
2026-01-07T1200,2648A,104.1467,36.5482,白银市,动力公司,细颗粒物(PM2.5),70,60,49,51,38,61,,29,29,25,27,35,15,1.2,0.9
2026-01-07T1200,2512A,106.6102,23.901,百色市,市监测站,,,60,32,35,22,,,12,12,12,17,7,7,0.8,0.7
2026-01-07T1200,2513A,106.6524,23.8842,百色市,市中心血站,细颗粒物(PM2.5),64,48,38,46,31,46,,15,15,16,26,7,8,0.8,0.8
2026-01-07T1200,4133A,106.6273,23.8798,百色市,龙景西路,,49,48,39,34,26,41,,9,9,8,16,7,7,0.6,0.6
2026-01-07T1200,2270A,117.396,32.9389,蚌埠市,工人疗养院,颗粒物(PM10),58,66,64,35,32,48,,34,34,27,24,7,5,0.5,0.5
2026-01-07T1200,2271A,117.3606,32.9428,蚌埠市,百货大楼,颗粒物(PM10),51,52,54,26,32,47,,36,36,27,21,8,6,0.4,0.4
2026-01-07T1200,2273A,117.4183,32.8909,蚌埠市,蚌埠学院,,44,44,60,28,35,57,,32,32,22,29,7,4,0.4,0.4
2026-01-07T1200,2274A,117.3534,32.9672,蚌埠市,淮上区政府,颗粒物(PM10),54,58,59,32,35,58,,38,38,19,23,4,3,0.4,0.4
2026-01-07T1200,2275A,117.3143,32.8977,蚌埠市,高新区,颗粒物(PM10),51,51,59,32,37,52,,26,26,22,31,9,6,0.4,0.4
2026-01-07T1200,3715A,117.3091,32.9314,蚌埠市,蚌埠田家炳中学,颗粒物(PM10),56,61,69,32,41,51,,25,25,24,32,6,7,0.4,0.4
2026-01-07T1200,1585A,109.8761,40.6533,包头市,市环境监测站,细颗粒物(PM2.5),115,146,61,87,28,22,,34,22,46,31,20,14,2.8,1
2026-01-07T1200,1587A,109.9992,40.5843,包头市,包头八中,细颗粒物(PM2.5),90,118,72,67,40,31,,14,14,42,44,4,6,1.2,0.8
2026-01-07T1200,1589A,109.8641,40.6288,包头市,惠龙物流,细颗粒物(PM2.5),135,166,64,103,33,15,,28,20,58,33,41,18,4.1,1
2026-01-07T1200,1590A,110.0376,40.5546,包头市,东河鸿龙湾,颗粒物(PM10),70,90,63,37,26,38,,14,14,30,50,11,10,0.6,0.8
2026-01-07T1200,3283A,109.9154,40.5684,包头市,滨河大厦,"颗粒物(PM10),细颗粒物(PM2.5)",74,97,65,54,32,34,,17,12,31,30,14,9,0.9,0.8
2026-01-07T1200,3419A,109.9449,40.6259,包头市,包头市委党校,,,,59,,30,20,,14,8,54,42,41,13,,0.9
2026-01-07T1200,3683A,109.8332,40.6577,包头市,昆区政府,细颗粒物(PM2.5),120,107,58,91,35,28,,40,32,45,33,14,17,,1.2
2026-01-07T1200,1931A,107.0802,34.3129,宝鸡市,竹园沟,,,33,30,24,24,,,29,29,24,19,,6,0.5,0.4
2026-01-07T1200,1933A,107.1429,34.3549,宝鸡市,监测站,颗粒物(PM10),58,65,44,38,34,38,,24,22,35,34,6,5,0.6,0.5
2026-01-07T1200,1934A,107.1172,34.3759,宝鸡市,技工学校,颗粒物(PM10),67,84,58,36,34,45,,33,32,23,21,10,7,0.6,0.6
2026-01-07T1200,1936A,107.2025,34.3518,宝鸡市,文理学院,"颗粒物(PM10),细颗粒物(PM2.5)",52,53,47,36,35,51,,31,31,27,34,6,5,0.6,0.5
2026-01-07T1200,1937A,107.2396,34.3626,宝鸡市,三迪小学,,,,50,42,39,40,,28,27,,35,5,5,,0.6
2026-01-07T1200,4155A,107.1721,34.3558,宝鸡市,滨河北路,颗粒物(PM10),51,51,48,35,31,47,,33,33,31,31,6,6,0.9,0.7
2026-01-07T1200,4308A,107.3898,34.3601,宝鸡市,陈仓区北开路21号,,43,38,66,30,49,70,,55,55,18,34,47,52,0.8,0.8
2026-01-07T1200,1051A,115.4803,38.8568,保定市,游泳馆,,49,49,64,20,35,52,,24,24,30,48,6,6,0.5,0.6
2026-01-07T1200,1052A,115.509,38.8895,保定市,华电二区,,43,43,52,23,35,57,,34,34,8,18,4,3,0.8,0.9
2026-01-07T1200,1053A,115.4588,38.9037,保定市,接待中心,,48,48,60,31,34,42,,22,22,31,29,2,2,0.4,0.4
2026-01-07T1200,1054A,115.4484,38.8344,保定市,地表水厂,,44,44,84,20,42,53,,19,19,28,50,4,5,0.3,0.4
2026-01-07T1200,3581A,115.3136,38.9511,保定市,满城区生态环境分局,颗粒物(PM10),53,56,60,22,22,59,,23,23,23,36,4,4,0.4,0.5
2026-01-07T1200,3582A,115.4709,38.7628,保定市,清苑区第二中学,,48,48,85,19,36,54,,26,26,16,48,6,8,0.3,0.5
2026-01-07T1200,3583A,115.6231,39.0223,保定市,徐水物探局,,48,48,91,22,49,54,,18,18,27,51,8,10,0.4,0.7
2026-01-07T1200,4004A,115.4199,38.8665,保定市,双鹰农机,,,87,85,37,37,55,,26,23,27,35,,9,0.4,0.5
2026-01-07T1200,4034A,115.515,38.8589,保定市,植保所站,,49,49,65,23,46,48,,17,17,27,47,3,3,0.4,0.6
2026-01-07T1200,2594A,99.1589,25.1137,保山市,市环境监测站,,,53,27,30,20,,,34,25,16,10,,3,0.7,0.4
2026-01-07T1200,2595A,99.1616,25.1381,保山市,市环保局,颗粒物(PM10),53,56,30,30,18,60,,43,37,16,7,4,4,0.6,0.4
2026-01-07T1200,1867A,109.1435,21.4085,北海市,海滩公园,,37,37,40,24,27,92,,71,71,13,14,8,8,0.3,0.3
2026-01-07T1200,1868A,109.0983,21.466,北海市,新市环保局,细颗粒物(PM2.5),52,37,37,36,33,96,,71,71,13,13,3,5,0.7,0.7
2026-01-07T1200,1869A,109.1775,21.5232,北海市,北海工业园,,,70,43,,33,90,,63,63,9,13,6,8,,0.6
2026-01-07T1200,3400A,109.1844,21.4396,北海市,龙潭自来水厂,,43,34,40,30,32,90,,64,64,10,13,8,8,0.5,0.5
2026-01-07T1200,1001A,116.3611,39.8786,北京市,万寿西宫,,23,23,26,10,10,57,,54,54,12,19,3,3,0.3,0.3
2026-01-07T1200,1003A,116.4174,39.9289,北京市,东四,,27,27,26,9,8,56,,51,51,12,13,5,4,0.2,0.2
2026-01-07T1200,1004A,116.4073,39.8858,北京市,天坛,,23,23,27,9,10,62,,56,55,10,14,3,3,0.3,0.3
2026-01-07T1200,1005A,116.4622,39.9364,北京市,农展馆,,23,23,22,9,8,61,,57,54,10,12,5,4,0.5,0.4
2026-01-07T1200,1006A,116.3399,39.9293,北京市,官园,,28,28,29,13,12,57,,52,52,12,12,5,5,0.4,0.4
2026-01-07T1200,1007A,116.2879,39.9613,北京市,海淀万柳,,26,26,25,10,9,54,,42,42,16,19,4,3,0.4,0.3
2026-01-07T1200,1008A,116.6635,40.1349,北京市,顺义新城,,20,20,28,7,7,62,,62,57,10,10,3,3,0.3,0.4
2026-01-07T1200,1009A,116.6275,40.327,北京市,怀柔镇,,28,28,19,13,9,42,,53,42,25,12,6,6,0.4,0.4
2026-01-07T1200,1010A,116.2295,40.217,北京市,昌平镇,,29,29,28,13,9,59,,57,55,10,10,6,5,0.4,0.4
2026-01-07T1200,1011A,116.3968,39.982,北京市,奥体中心,,26,26,21,9,7,56,,53,53,13,19,5,4,0.5,0.4
2026-01-07T1200,3418A,116.8336,40.4095,北京市,密云新城,,20,10,17,3,8,61,,64,58,6,8,3,4,0.3,0.3
2026-01-07T1200,3671A,116.0879,39.9725,北京市,门头沟三家店,,23,19,27,6,8,73,,70,70,1,3,3,3,0.4,0.4
2026-01-07T1200,3672A,116.1507,39.8246,北京市,丰台云岗,,42,42,30,20,14,55,,62,51,22,17,3,3,0.5,0.5
2026-01-07T1200,3674A,115.9578,39.7602,北京市,房山燕山,,49,49,34,25,19,48,,65,55,22,18,4,4,0.4,0.3
2026-01-07T1200,3675A,116.4669,39.7734,北京市,大兴旧宫,,17,17,30,3,13,51,,44,44,15,25,3,3,0.4,0.5
2026-01-07T1200,3694A,115.9859,40.4562,北京市,延庆石河营,,25,25,25,12,9,52,,23,18,12,19,3,3,0.5,0.4
2026-01-07T1200,3695A,116.6151,40.3052,北京市,怀柔新城,,32,32,17,15,7,31,,56,44,26,8,5,4,0.3,0.2
2026-01-07T1200,3696A,116.2542,39.8764,北京市,丰台小屯,,23,23,29,8,10,55,,42,42,11,16,5,4,0.4,0.3
2026-01-07T1200,3697A,116.8399,40.3843,北京市,密云镇,,18,15,29,3,11,56,,31,28,13,31,2,2,0.3,0.4
2026-01-07T1200,4057A,115.9423,40.4431,北京市,延庆百泉,,38,38,25,16,9,42,,42,29,18,10,3,2,0.5,0.3
2026-01-07T1200,4058A,116.6598,39.9164,北京市,通州新华,,27,27,33,7,7,51,,43,42,18,19,3,3,0.4,0.4
2026-01-07T1200,4182A,116.1942,39.9158,北京市,石景山八角,,33,33,30,11,9,49,,42,34,17,16,2,2,0.3,0.2
2026-01-07T1200,4194A,117.078628,40.151726,北京市,平谷新城,,20,20,24,9,10,49,,50,34,18,15,2,2,0.3,0.3
2026-01-07T1200,1761A,123.8274146,41.31234549,本溪市,大峪,,44,44,46,8,20,54,,57,54,12,22,11,11,0.6,1
2026-01-07T1200,1763A,123.7169,41.3094,本溪市,彩屯,,36,36,57,8,27,64,,67,64,13,25,8,12,0.7,1.3
2026-01-07T1200,1764A,123.7672166,41.28649327,本溪市,东明,,38,38,51,8,18,62,,64,61,7,13,10,10,0.5,0.7
2026-01-07T1200,1765A,123.799345,41.266614,本溪市,新立屯,,42,42,50,18,21,57,,61,58,9,21,12,12,0.7,0.8
2026-01-07T1200,1766A,123.829144,41.336777,本溪市,威宁,,42,42,66,8,24,57,,60,58,11,24,9,10,0.7,1
2026-01-07T1200,2587A,105.287,27.3133,毕节市,八中,,46,39,48,32,39,57,,40,40,10,10,11,10,0.6,0.7
2026-01-07T1200,2588A,105.3079,27.2987,毕节市,师专,,45,38,43,31,35,62,,41,41,10,12,9,8,0.6,0.6
2026-01-07T1200,4263A,105.3688,27.3598,毕节市,工业大道,,48,39,45,33,37,61,,42,42,7,8,10,11,/,/
2026-01-07T1200,1629A,117.9961,37.3604,滨州市,第二水厂,,19,17,107,12,68,60,,40,40,13,43,11,17,0.2,0.8
2026-01-07T1200,1630A,117.9789,37.3931,滨州市,北中新校,,,19,102,3,70,66,,32,32,,50,9,12,0.3,0.8
2026-01-07T1200,3514A,117.9379,37.3959,滨州市,中海酒店,,,22,109,12,80,67,,34,34,11,47,10,15,,1
2026-01-07T1200,3515A,117.9381509,37.35547456,滨州市,开发区一中,,21,14,109,9,72,65,,41,41,9,40,11,18,0.3,0.8
2026-01-07T1200,3516A,118.0914,37.6938,滨州市,金海六路,,25,7,129,3,90,77,,38,38,12,58,9,12,0.5,1.1
2026-01-07T1200,4028A,117.9955,37.3752,滨州市,滨州市西街道办事处,,22,14,106,7,74,68,,41,41,11,39,10,14,0.1,0.6
2026-01-07T1200,2311A,115.8071,33.8399,亳州市,污水处理厂,颗粒物(PM10),60,69,55,28,31,60,,42,42,23,28,7,5,0.3,0.3
2026-01-07T1200,2312A,115.7789,33.8519,亳州市,三国揽胜宫,颗粒物(PM10),62,73,59,28,32,55,,38,38,18,20,7,4,0.5,0.4
2026-01-07T1200,3332A,115.7631,33.803,亳州市,亳州学院,颗粒物(PM10),54,57,52,25,27,57,,40,40,20,24,6,4,0.3,0.3
2026-01-07T1200,2693A,82.0482,44.8553,博尔塔拉蒙古自治州,市党校,颗粒物(PM10),65,80,129,22,69,30,,30,28,20,30,3,4,0.8,1.2
2026-01-07T1200,2694A,82.0805,44.8966,博尔塔拉蒙古自治州,市环保局,颗粒物(PM10),70,89,132,50,66,24,,27,24,43,34,6,7,1.3,1.3
2026-01-07T1200,1071A,116.8733,38.2922,沧州市,沧县城建局,,26,26,123,12,105,71,,52,52,11,51,1,5,0.1,0.8
2026-01-07T1200,1072A,116.8462,38.3189,沧州市,电视转播站,,,28,127,7,103,65,,38,38,,53,2,5,0.3,1
2026-01-07T1200,1073A,116.8588,38.3161,沧州市,市环保局,,27,27,124,13,103,63,,46,46,11,47,4,5,0.3,0.9
2026-01-07T1200,3324A,116.8011,38.294,沧州市,河北水利电力学院,,20,12,120,3,82,63,,51,51,13,50,5,8,0.2,0.8
2026-01-07T1200,2622A,97.1813,31.1289,昌都市,昌都监测站,,34,34,54,17,21,52,,43,43,12,25,1,3,0.7,1
2026-01-07T1200,3719A,97.1707,31.1428,昌都市,昌都会议中心,,17,15,18,9,10,52,,43,43,2,4,3,2,0.5,0.6
2026-01-07T1200,2692A,87.2722,44.0298,昌吉回族自治州,新区政务中心,细颗粒物(PM2.5),244,262,208,194,150,26,,25,17,47,49,3,5,1.7,1.6
2026-01-07T1200,3613A,87.3069,44.0093,昌吉回族自治州,亚心广场,细颗粒物(PM2.5),188,205,216,141,159,38,,35,26,28,41,7,7,1.6,1.7
2026-01-07T1200,4164A,87.2057,43.9289,昌吉回族自治州,财政所,细颗粒物(PM2.5),185,191,177,139,126,37,,38,38,30,41,5,5,1.2,1.2
2026-01-07T1200,1120A,125.2874,43.9024,长春市,客车厂,,,,44,,25,50,,51,44,12,21,8,10,0.3,0.5
2026-01-07T1200,1121A,125.2943,43.8508,长春市,邮电学院,,22,16,47,15,26,51,,48,46,9,18,8,10,0.2,0.3
2026-01-07T1200,1122A,125.3648,43.8745,长春市,劳动公园,,20,20,43,12,20,55,,52,49,10,20,8,10,0.3,0.4
2026-01-07T1200,1123A,125.3233,43.8781,长春市,园林处,,22,,40,15,21,50,,46,43,8,18,9,10,0.3,0.4
2026-01-07T1200,1124A,125.4604,43.7904,长春市,净月潭,,23,23,45,13,19,51,,54,50,11,15,7,8,0.3,0.3
2026-01-07T1200,1126A,125.38,43.8422,长春市,经开区环卫处,,,26,42,12,17,48,,50,45,,22,13,9,,0.5
2026-01-07T1200,1127A,125.234,43.7761,长春市,高新区管委会,,21,21,42,14,22,58,,57,52,8,15,6,7,0.3,0.4
2026-01-07T1200,1128A,125.1695,43.83,长春市,岱山公园,,25,24,43,17,23,53,,49,46,12,18,8,8,0.3,0.4
2026-01-07T1200,4281A,125.334645,43.916281,长春市,北亚泰大街1068号,,26,26,39,17,21,51,,48,46,12,22,8,9,0.4,0.5
2026-01-07T1200,1335A,113.082,28.2421,长沙市,经开区环保局,细颗粒物(PM2.5),72,91,87,52,65,58,,14,14,36,44,4,5,0.5,0.7
2026-01-07T1200,1336A,112.8873,28.2202,长沙市,高开区环保局,细颗粒物(PM2.5),77,77,91,56,72,55,,11,11,28,44,6,5,1.0,1.2
2026-01-07T1200,1337A,113.0785,28.2012,长沙市,马坡岭,,,90,96,74,71,53,,12,12,,47,,5,0.8,1
2026-01-07T1200,1338A,112.9448,28.1894,长沙市,湖南师范大学,细颗粒物(PM2.5),90,98,79,67,56,46,,13,13,56,48,8,6,0.8,0.8
2026-01-07T1200,1339A,113.0177,28.1322,长沙市,雨花区环保局,细颗粒物(PM2.5),82,95,89,60,66,34,,9,9,48,47,8,8,0.9,0.8
2026-01-07T1200,1340A,112.9795,28.2593,长沙市,伍家岭,细颗粒物(PM2.5),92,112,99,68,65,37,,8,8,53,44,6,5,0.7,0.7
2026-01-07T1200,1341A,113.002,28.1944,长沙市,火车新站,细颗粒物(PM2.5),107,114,107,80,77,29,,10,10,65,53,9,9,1.0,0.9
2026-01-07T1200,1342A,112.9846,28.1177,长沙市,天心区环保局,细颗粒物(PM2.5),84,99,86,62,63,48,,11,11,49,54,6,6,0.8,1
2026-01-07T1200,1343A,112.8906,28.1307,长沙市,湖南中医药大学,细颗粒物(PM2.5),85,90,87,63,58,53,,12,12,40,46,8,6,0.8,0.8
2026-01-07T1200,1727A,113.1146,36.1547,长治市,清华站,,44,44,40,19,17,68,,29,29,14,24,12,12,0.5,0.5
2026-01-07T1200,1730A,113.0887,36.2126,长治市,审计局,,33,33,25,22,16,63,,35,35,14,22,10,9,0.5,0.5
2026-01-07T1200,1731A,113.0845,36.1856,长治市,长治八中,,46,46,37,25,20,66,,33,33,9,18,11,11,0.6,0.6
2026-01-07T1200,2845A,113.1561,36.1912,长治市,德盛苑,,38,38,24,22,16,66,,53,53,16,16,10,9,0.5,0.5
2026-01-07T1200,3568A,113.0603,36.0464,长治市,向阳小学,颗粒物(PM10),54,58,48,20,21,76,,41,40,12,22,8,10,0.4,0.5
2026-01-07T1200,3569A,112.8788,36.315,长治市,屯留一中,,35,35,31,6,16,71,,43,43,5,15,3,5,0.4,0.3
2026-01-07T1200,4189A,113.113092,36.199482,长治市,英华南巷50号,,48,48,31,29,23,66,,34,34,12,19,8,9,0.5,0.5
2026-01-07T1200,4190A,113.23666,36.33435,长治市,学府街1号,颗粒物(PM10),51,52,35,31,19,60,,36,36,22,24,21,13,0.8,0.5
2026-01-07T1200,1854A,111.696,28.9725,常德市,市二中,细颗粒物(PM2.5),79,,53,58,46,49,,16,16,19,24,5,5,0.7,0.6
2026-01-07T1200,3138A,111.7152,29.0288,常德市,武陵区永安,细颗粒物(PM2.5),77,59,61,56,49,66,,20,20,17,21,6,5,0.7,0.7
2026-01-07T1200,3139A,111.6891,28.9881,常德市,鼎城区玉霞,细颗粒物(PM2.5),74,,58,54,49,52,,14,14,20,31,8,8,0.8,0.8
2026-01-07T1200,3140A,111.6651,29.0526,常德市,武陵区长庚,,,83,63,65,51,,,12,9,17,26,4,4,0.9,0.8
2026-01-07T1200,1196A,119.9524,31.7586,常州市,市监测站,,45,42,73,31,62,71,,29,29,21,32,5,4,0.6,0.8
2026-01-07T1200,1200A,119.9351,31.703,常州市,武进监测站,,43,40,70,30,58,71,,34,34,19,26,8,7,0.4,0.6
2026-01-07T1200,3002A,119.9701,31.813,常州市,行政中心,颗粒物(PM10),55,59,78,38,57,66,,34,34,21,28,6,6,0.5,0.7
2026-01-07T1200,3003A,120.0434,31.7726,常州市,经开区,,46,46,75,28,56,72,,40,40,12,19,9,5,0.8,1
2026-01-07T1200,3010A,119.8919,31.7892,常州市,钟楼,颗粒物(PM10),51,51,79,31,62,68,,31,31,17,29,8,7,0.5,0.7
2026-01-07T1200,3429A,119.8595,31.706,常州市,武进经发区,,50,50,76,35,65,72,,35,35,16,22,9,7,0.5,0.8
2026-01-07T1200,3430A,119.5812,31.7256,常州市,金坛城区,,45,37,69,31,58,60,,30,30,14,22,8,7,0.5,0.9
2026-01-07T1200,4089A,119.9551,31.863,常州市,崇义南街5-H号,"颗粒物(PM10),细颗粒物(PM2.5)",53,56,79,37,61,65,,32,32,23,31,8,6,0.6,0.8
2026-01-07T1200,2220A,120.4318,41.588,朝阳市,西梁,,27,27,42,3,13,68,,55,55,9,15,6,7,0.3,0.4
2026-01-07T1200,2221A,120.452,41.565,朝阳市,河畔小区,,28,28,35,6,10,71,,63,58,7,13,5,7,0.3,0.4
2026-01-07T1200,2222A,120.4176,41.5648,朝阳市,八里堡,,50,50,44,6,9,68,,59,53,7,14,8,10,0.5,0.5
2026-01-07T1200,3026A,116.6179,23.6608,潮州市,市政府,,32,32,28,22,20,92,,83,83,2,3,6,6,0.3,0.3
2026-01-07T1200,4036A,116.646,23.676,潮州市,金山,颗粒物(PM10),52,54,34,25,25,86,,76,76,5,4,4,3,0.3,0.3
2026-01-07T1200,2473A,113.0116,25.8228,郴州市,市职中,细颗粒物(PM2.5),72,57,51,52,44,78,,23,23,12,18,9,4,0.5,0.6
2026-01-07T1200,2475A,113.0381,25.8074,郴州市,市审计局,细颗粒物(PM2.5),74,58,55,54,44,82,,21,21,15,22,8,3,/,/
2026-01-07T1200,2476A,113.0348,25.7757,郴州市,市环保局,细颗粒物(PM2.5),69,73,63,50,45,85,,20,20,17,27,7,3,0.6,0.8
2026-01-07T1200,4252A,113.0138,25.8011,郴州市,好美居路49号,细颗粒物(PM2.5),72,61,53,52,49,88,,28,28,11,23,5,3,/,/
2026-01-07T1200,1431A,103.9727,30.7242,成都市,金泉两河,颗粒物(PM10),83,115,76,50,46,36,,11,11,48,54,7,4,0.8,0.9
2026-01-07T1200,1432A,104.1423,30.6765,成都市,十里店,颗粒物(PM10),77,104,62,52,39,15,,11,7,74,54,6,4,1.0,0.6
2026-01-07T1200,1433A,104.0594,30.5765,成都市,三瓦窑,细颗粒物(PM2.5),79,73,55,58,42,16,,16,15,72,50,5,4,1.1,0.6
2026-01-07T1200,1434A,104.1122,30.6306,成都市,沙河铺,颗粒物(PM10),63,76,60,41,42,17,,21,10,74,50,4,3,0.8,0.6
2026-01-07T1200,2880A,104.0219,30.6561,成都市,大石西路,,,97,74,62,46,,,4,4,73,56,,5,1.1,0.7
2026-01-07T1200,3136A,104.2724,30.559,成都市,龙泉驿区区政府,细颗粒物(PM2.5),58,58,33,41,28,40,,38,32,23,16,12,6,0.8,0.6
2026-01-07T1200,3357A,104.0028,30.6891,成都市,金博路,细颗粒物(PM2.5),85,88,65,63,48,27,,6,6,58,54,16,6,1.0,0.9
2026-01-07T1200,3359A,104.056,30.5228,成都市,华阳,,,78,50,56,38,,,17,8,54,46,6,3,0.9,0.6
2026-01-07T1200,3488A,104.387954,30.746684,成都市,青石路225号,颗粒物(PM10),57,63,56,39,37,27,,21,8,49,39,2,2,0.5,0.3
2026-01-07T1200,3489A,104.0788,30.4054,成都市,科学城,细颗粒物(PM2.5),60,51,45,43,37,50,,13,13,25,27,12,7,0.8,0.6
2026-01-07T1200,4011A,103.8505,30.6946,成都市,光华大道三段,细颗粒物(PM2.5),79,99,75,58,55,32,,11,10,49,41,8,6,0.9,0.7
2026-01-07T1200,4144A,104.3257,30.6406,成都市,八角井街185号,细颗粒物(PM2.5),74,73,57,54,33,22,,48,25,65,30,6,3,1.0,0.7
2026-01-07T1200,4224A,104.2433276,30.53529463,成都市,鲸龙路1057号,细颗粒物(PM2.5),65,70,45,47,34,54,,13,13,34,41,12,6,0.5,0.3
2026-01-07T1200,1062A,117.9531,40.908,承德市,铁路,,25,25,36,3,13,40,,31,22,23,14,7,4,0.4,0.4
2026-01-07T1200,1063A,117.9397,40.9763,承德市,中国银行,,30,30,41,7,10,53,,37,33,13,9,2,2,0.4,0.3
2026-01-07T1200,4073A,117.9462,40.95,承德市,杏林街1号,,30,30,30,14,15,46,,44,31,23,11,4,4,0.5,0.3
2026-01-07T1200,4274A,117.7994,40.9605,承德市,滨河大街98号,颗粒物(PM10),57,64,38,19,12,36,,38,30,35,13,9,3,0.7,0.3
2026-01-07T1200,2314A,117.4698,30.6617,池州市,池州学院,,,58,63,46,55,,,34,34,22,23,15,4,1.1,0.7
2026-01-07T1200,3237A,117.4918,30.6617,池州市,展览馆,颗粒物(PM10),52,53,60,35,44,63,,32,32,28,31,10,3,1.1,1
2026-01-07T1200,3333A,117.5626,30.695,池州市,第八中学,细颗粒物(PM2.5),52,44,63,36,50,74,,33,33,22,29,6,4,0.7,0.9
2026-01-07T1200,3334A,117.5037,30.6242,池州市,第十二中学,颗粒物(PM10),51,52,68,34,52,72,,33,33,22,37,6,6,0.3,1.3
2026-01-07T1200,1744A,118.9229,42.2816,赤峰市,松山一中,,40,40,31,11,8,56,,44,34,15,17,5,6,0.7,0.6
2026-01-07T1200,1745A,118.9588,42.2733,赤峰市,哈达街,,34,34,28,19,8,65,,58,48,16,14,6,6,0.6,0.6
2026-01-07T1200,1746A,118.8792,42.2551,赤峰市,天义路,,24,24,20,16,12,67,,62,52,13,11,7,8,0.4,0.4
2026-01-07T1200,3058A,119.2656,42.0356,赤峰市,银河街,,,100,39,26,17,74,,60,50,5,9,,11,0.6,0.7
2026-01-07T1200,3286A,118.9359,42.3146,赤峰市,桥北物流园区,,32,27,25,22,12,66,,47,37,12,14,6,5,0.6,0.6
2026-01-07T1200,2521A,107.3473,22.4137,崇左市,市环保局江州分局,,34,34,34,18,21,69,,20,20,6,17,8,7,0.4,0.6
2026-01-07T1200,4256A,107.375,22.3736,崇左市,石景林东路7号,,,34,28,22,18,68,,15,15,,19,,7,0.5,0.6
2026-01-07T1200,3207A,118.31131,32.3033,滁州市,市政府原办公楼,,38,38,47,24,29,80,,58,58,12,16,7,5,0.4,0.4
2026-01-07T1200,3331A,118.3268,32.2633,滁州市,图书馆,,30,30,40,17,23,76,,58,58,11,10,11,9,0.4,0.4
2026-01-07T1200,4101A,118.3196,32.3335,滁州市,银山路666号,细颗粒物(PM2.5),57,,45,40,36,73,,57,57,11,9,9,8,0.5,0.5
2026-01-07T1200,4102A,118.3426,32.2979,滁州市,黄山路555号,,48,45,54,33,34,83,,56,56,14,16,12,10,0.5,0.5
2026-01-07T1200,2606A,101.5379,25.0492,楚雄彝族自治州,市经济开发区,细颗粒物(PM2.5),52,38,27,36,18,13,,29,14,17,10,2,2,0.9,0.7
2026-01-07T1200,4153A,101.5536,25.0343,楚雄彝族自治州,团结路562号,,30,29,17,21,14,14,,31,16,10,6,1,2,0.7,0.6
2026-01-07T1200,2549A,107.5087,31.2186,达州市,市环境监测站,细颗粒物(PM2.5),70,69,83,51,62,27,,8,8,37,43,10,6,0.5,0.7
2026-01-07T1200,2550A,107.4988,31.2132,达州市,凤凰小区,细颗粒物(PM2.5),70,63,89,51,63,35,,12,12,28,40,10,5,0.4,0.6
2026-01-07T1200,2551A,107.5081,31.1987,达州市,达县机关宾馆,"颗粒物(PM10),细颗粒物(PM2.5)",62,73,92,44,62,30,,12,12,37,43,8,3,0.6,0.8
2026-01-07T1200,2552A,107.4644,31.2124,达州市,市政中心,细颗粒物(PM2.5),77,94,105,56,69,22,,9,9,40,42,11,7,0.5,0.7
2026-01-07T1200,2614A,100.2168,25.5818,大理白族自治州,大理市环境监测站,,22,18,20,12,17,69,,58,55,11,11,6,7,0.6,0.5
2026-01-07T1200,2615A,100.1542,25.7055,大理白族自治州,大理古城,,26,24,21,3,15,82,,64,64,4,10,8,8,0.6,0.6
2026-01-07T1200,1109A,121.6119,38.974,大连市,甘井子,,,33,45,3,14,76,,66,64,7,16,,9,0.4,0.2
2026-01-07T1200,1110A,121.565,38.9509,大连市,周水子,,36,36,38,7,13,71,,66,65,4,13,3,6,0.3,0.4
2026-01-07T1200,1111A,121.5637,38.8849,大连市,星海三站,,24,24,36,9,17,70,,62,62,10,17,5,7,0.3,0.4
2026-01-07T1200,1112A,121.6301,38.9117,大连市,青泥洼桥,,20,17,29,3,16,64,,60,57,11,21,7,8,0.2,0.4
2026-01-07T1200,1113A,121.6248,38.8643,大连市,傅家庄,,,24,37,3,16,62,,59,57,8,17,,9,0.2,0
2026-01-07T1200,1114A,121.5117,38.8636,大连市,七贤岭,,,30,40,3,16,67,,64,61,3,15,,8,0.4,0.6
2026-01-07T1200,1116A,121.7507,39.1339,大连市,金州,,23,22,30,7,15,73,,69,67,9,17,6,9,0.2,0.3
2026-01-07T1200,1117A,121.7811,39.0495,大连市,开发区,,25,25,43,6,15,66,,64,61,6,14,6,6,0.5,0.6
2026-01-07T1200,1118A,121.9762,39.0631,大连市,双D港,,24,17,45,3,14,76,,74,73,7,15,11,12,0.4,0.5
2026-01-07T1200,4082A,121.2548,38.8188,大连市,旅顺,,23,18,41,3,16,71,,68,68,4,12,5,7,0.5,0.6
2026-01-07T1200,1789A,124.8085,46.0381,大庆市,大同区,,25,25,40,9,29,56,,59,54,3,17,6,7,0.3,0.4
2026-01-07T1200,1790A,125.1166,46.5255,大庆市,龙凤区,,17,17,42,9,28,53,,53,48,12,27,7,9,0.4,0.5
2026-01-07T1200,1791A,124.8894,46.4007,大庆市,红岗区,,23,21,36,16,22,50,,53,48,7,19,6,6,0.5,0.6
2026-01-07T1200,1792A,125.1391,46.578,大庆市,萨尔图区,,,19,44,13,27,50,,52,44,5,21,,8,0.3,0.4
2026-01-07T1200,1793A,124.9026,46.6217,大庆市,让胡路区,,28,,37,19,33,59,,58,54,2,15,7,7,0.3,0.4
2026-01-07T1200,3481A,125.127,46.6277,大庆市,萨区政府监测点,,25,25,47,14,24,57,,57,52,2,20,9,10,0.5,0.7
2026-01-07T1200,1723A,113.2926,40.0759,大同市,云冈宾馆,颗粒物(PM10),75,99,59,45,27,31,,14,14,35,31,11,9,1.4,1
2026-01-07T1200,1724A,113.3437,40.0921,大同市,大同大学,颗粒物(PM10),61,72,50,41,25,34,,23,22,31,27,9,11,1.0,0.8
2026-01-07T1200,1725A,113.2637,40.129,大同市,安家小村,,,133,70,39,29,,,16,10,31,33,,14,2.1,1.8
2026-01-07T1200,3282A,113.3399,40.0586,大同市,大同市卫生学校,颗粒物(PM10),68,85,55,37,23,30,,22,19,40,32,10,9,1.0,0.8
2026-01-07T1200,3565A,113.1371,40.1122,大同市,云冈站,颗粒物(PM10),63,76,53,41,24,45,,14,14,22,30,8,7,0.6,0.7
2026-01-07T1200,3566A,113.1186,40.2556,大同市,图书馆,细颗粒物(PM2.5),75,98,50,55,28,37,,22,22,21,15,9,8,0.7,0.8
2026-01-07T1200,3567A,113.5931,40.0459,大同市,区一中,颗粒物(PM10),77,104,66,32,32,33,,31,31,41,24,36,15,1.0,0.8
2026-01-07T1200,4199A,113.2798248,40.09972476,大同市,魏都大道141号,颗粒物(PM10),89,127,79,37,30,35,,14,14,31,36,12,8,2.0,1.5
2026-01-07T1200,2269A,124.1068,50.4091,大兴安岭地区,科技局,,20,,18,14,18,52,,48,48,1,2,6,5,0.4,0.4
2026-01-07T1200,3663A,124.117,50.4279,大兴安岭地区,红旗社区,,,,9,,5,58,,55,53,1,5,8,6,,0.3
2026-01-07T1200,1600A,124.33,40.0625,丹东市,江湾东路,,24,24,72,8,46,64,,61,61,6,27,7,13,0.3,1
2026-01-07T1200,1601A,124.4242,40.1513,丹东市,临江后街,,27,27,67,6,36,68,,65,65,5,28,4,12,0.4,1
2026-01-07T1200,1602A,124.3935,40.1461,丹东市,元宝山,,,28,52,13,32,63,,64,64,6,22,,12,0.2,0.7
2026-01-07T1200,1603A,124.3634,40.1093,丹东市,民主桥,,33,33,73,3,43,65,,62,61,6,26,6,12,0.3,0.9
2026-01-07T1200,3541A,109.5726195,19.51688767,儋州市,第一中学子站,,46,41,50,32,38,73,,55,54,6,9,5,5,0.6,0.7
2026-01-07T1200,3542A,109.5567,19.5187,儋州市,东坡学校子站,,44,44,46,30,33,76,,54,54,6,9,4,5,0.7,0.7
2026-01-07T1200,2616A,98.5611,24.4273,德宏傣族景颇族自治州,德宏州监测站,细颗粒物(PM2.5),79,82,46,58,41,30,,9,9,26,23,7,6,0.7,0.7
2026-01-07T1200,3677A,98.5887,24.4366,德宏傣族景颇族自治州,芒市人民政府综合楼,细颗粒物(PM2.5),67,61,49,48,34,22,,19,10,28,16,5,5,0.9,0.7
2026-01-07T1200,1901A,104.424,31.1209,德阳市,东山公园,细颗粒物(PM2.5),73,75,53,53,43,28,,38,17,35,27,4,3,0.8,0.6
2026-01-07T1200,1902A,104.3827,31.1318,德阳市,西小区,细颗粒物(PM2.5),105,149,84,79,52,11,,6,5,60,46,2,4,1.1,0.7
2026-01-07T1200,1904A,104.3553,31.1091,德阳市,耐火材料厂,细颗粒物(PM2.5),112,129,82,84,57,23,,7,7,,49,,3,1.2,0.8
2026-01-07T1200,4145A,104.4144,31.1495,德阳市,市林业局,细颗粒物(PM2.5),105,82,66,79,50,21,,7,7,45,46,5,3,0.8,0.7
2026-01-07T1200,1622A,116.3034,37.4675,德州市,儿童乐园,,22,22,84,3,38,69,,23,23,18,46,10,15,0.8,1.1
2026-01-07T1200,1624A,116.2992,37.4449,德州市,监理站,,,14,74,3,35,,,36,36,19,48,11,16,0.5,0.8
2026-01-07T1200,3066A,116.2722,37.438,德州市,九衢泉纯净水厂,,22,22,82,3,41,68,,23,23,15,53,9,17,0.4,0.7
2026-01-07T1200,3371A,116.3693,37.44,德州市,开发区人民医院,,23,17,78,3,36,72,,33,33,30,59,10,16,0.3,0.7
2026-01-07T1200,3511A,116.5687,37.3331,德州市,陵城艺术中心,,24,24,87,9,45,67,,34,34,22,51,9,14,0.0,0.4
2026-01-07T1200,4292A,116.352738,37.420875,德州市,新河东路,,23,19,78,3,39,71,,36,36,23,57,11,15,0.7,1
2026-01-07T1200,2621A,99.7054,27.8319,迪庆藏族自治州,迪庆州站,,,,23,,17,91,,61,54,5,9,,5,,0.6
2026-01-07T1200,3180A,99.7122,27.8129,迪庆藏族自治州,质量技术监督局,,30,17,22,9,17,95,,72,64,7,10,7,6,0.3,0.4
2026-01-07T1200,4257A,104.6092,35.5962,定西市,将台街,细颗粒物(PM2.5),75,62,64,55,43,48,,20,20,24,30,19,15,1.2,0.8
2026-01-07T1200,4309A,104.6159,35.5701,定西市,正龙路62号,颗粒物(PM10),58,66,67,37,49,48,,30,29,19,14,17,10,1.3,0.8
2026-01-07T1200,1390A,113.7943,23.0132,东莞市,东城石井,,38,37,35,26,24,97,,69,69,12,17,8,6,0.5,0.6
2026-01-07T1200,1391A,113.7384,22.9659,东莞市,南城西平,,,36,34,26,24,96,,57,57,16,26,,8,0.6,0.6
2026-01-07T1200,3319A,113.7283,23.041,东莞市,万江金泰,,40,38,36,28,25,97,,63,63,13,19,7,6,0.6,0.7
2026-01-07T1200,4129A,113.8666,23.1062,东莞市,裕兴路,,39,39,34,27,27,107,,82,82,12,13,6,4,0.6,0.6
2026-01-07T1200,4130A,114.0076,22.9739,东莞市,教育路1号,,42,42,43,29,27,95,,75,75,14,18,5,5,0.5,0.6
2026-01-07T1200,4131A,113.7981,22.8124,东莞市,长怡路1号,,47,47,41,30,23,91,,70,70,17,19,8,7,0.6,0.5
2026-01-07T1200,1666A,118.6612,37.4313,东营市,市环保局,,22,22,120,3,84,70,,42,42,16,48,10,14,0.8,1.1
2026-01-07T1200,3036A,118.6903,37.4337,东营市,开发区管委会,,29,29,126,3,87,77,,47,47,13,50,12,17,0.8,1.2
2026-01-07T1200,3365A,118.5721,37.5654,东营市,垦利区民丰路,,24,19,124,3,87,74,,46,46,10,48,4,10,0.9,1.2
2026-01-07T1200,3498A,118.5063,37.8606,东营市,河口城区,,25,19,142,3,99,77,,67,67,15,41,5,6,0.6,1
2026-01-07T1200,3646A,118.4979,37.4623,东营市,胜利站,,23,18,129,3,87,72,,36,36,13,59,12,17,0.7,1.3
2026-01-07T1200,3734A,118.5753,37.4405,东营市,理想之城,,23,19,126,9,92,73,,45,45,20,53,7,11,0.7,1.2
2026-01-07T1200,1591A,110.0024,39.8127,鄂尔多斯市,综合楼,颗粒物(PM10),53,56,59,19,19,67,,66,65,9,10,4,4,0.5,0.5
2026-01-07T1200,1592A,109.9485,39.8259,鄂尔多斯市,巴音孟克林场办事处,颗粒物(PM10),62,73,70,22,22,69,,64,61,7,11,6,5,0.3,0.3
2026-01-07T1200,1593A,109.7734,39.5987,鄂尔多斯市,康泽苑,颗粒物(PM10),65,80,53,31,23,74,,58,57,7,10,6,5,0.4,0.4
2026-01-07T1200,1594A,109.8121,39.5987,鄂尔多斯市,华泰汽车城,颗粒物(PM10),64,78,53,27,21,68,,52,47,8,12,2,2,0.4,0.4
2026-01-07T1200,1595A,109.9734,39.7884,鄂尔多斯市,奥林花园,颗粒物(PM10),64,78,77,19,18,68,,64,59,8,12,3,2,0.4,0.4
2026-01-07T1200,2436A,114.894,30.3989,鄂州市,市政府,细颗粒物(PM2.5),75,75,49,55,28,39,,20,18,36,28,9,6,1.1,0.8
2026-01-07T1200,2437A,114.8986,30.3714,鄂州市,赵家坝,细颗粒物(PM2.5),77,79,53,56,31,52,,30,27,26,23,16,10,1.0,0.6
2026-01-07T1200,3654A,114.8093,30.4091,鄂州市,精准医疗中心,细颗粒物(PM2.5),82,72,46,60,29,50,,39,39,39,21,9,6,1.2,0.8
2026-01-07T1200,2454A,109.4978,30.2979,恩施土家族苗族自治州,湖北民院,,,78,48,58,43,,,19,19,,17,6,6,0.7,0.7
2026-01-07T1200,3549A,109.5061,30.3771,恩施土家族苗族自治州,龙凤新区,细颗粒物(PM2.5),59,48,40,42,36,41,,14,14,16,11,7,7,0.3,0.3
2026-01-07T1200,2499A,108.3411,21.6159,防城港市,沙万,,43,31,32,30,26,77,,60,60,10,11,7,6,0.5,0.5
2026-01-07T1200,2500A,108.3515,21.7733,防城港市,防城档案局,,46,46,48,27,18,75,,50,50,12,14,6,5,0.5,0.5
2026-01-07T1200,2501A,108.3506,21.6414,防城港市,大海花园,,44,44,30,24,22,88,,68,68,6,6,7,6,0.6,0.6
2026-01-07T1200,1371A,113.1293,23.0065,佛山市,湾梁,,,46,41,28,26,,,50,50,20,25,/,/,/,/
2026-01-07T1200,1372A,113.1082,23.0477,佛山市,华材职中,颗粒物(PM10),52,53,47,30,27,86,,52,52,17,26,8,7,0.5,0.6
2026-01-07T1200,1373A,113.1439,23.045,佛山市,南海气象局,颗粒物(PM10),52,54,39,32,29,87,,52,52,19,27,/,/,/,/
2026-01-07T1200,1374A,113.2879,22.8094,佛山市,顺德苏岗,,41,41,36,27,25,79,,56,56,22,22,/,/,0.6,0.7
2026-01-07T1200,1376A,112.8384,22.8678,佛山市,高明孔堂,,50,49,51,35,35,88,,64,64,16,23,/,/,/,/
2026-01-07T1200,1377A,112.8835,23.1584,佛山市,三水监测站,,48,48,50,31,36,76,,59,59,18,26,7,6,0.6,0.6
2026-01-07T1200,1378A,112.8668,23.185,佛山市,三水云东海,颗粒物(PM10),51,51,49,31,34,83,,49,49,15,23,/,/,/,/
2026-01-07T1200,3625A,113.2568,22.7629,佛山市,容桂街道办,,46,46,39,31,29,78,,55,55,21,20,/,/,/,/
2026-01-07T1200,1282A,119.2681,26.0506,福州市,师大,,,,24,,21,83,,58,58,16,16,,6,0.5,0.5
2026-01-07T1200,1283A,119.2983,26.1028,福州市,五四北路,,43,,23,30,19,82,,60,60,16,16,5,4,0.6,0.6
2026-01-07T1200,1284A,119.2648,26.0769,福州市,杨桥西路,,43,,24,30,18,89,,64,64,10,10,5,4,/,/
2026-01-07T1200,3048A,119.5799,26.0937,福州市,九龙,,40,,22,28,15,91,,73,73,15,13,6,4,0.7,0.6
2026-01-07T1200,3526A,119.5188,25.9666,福州市,吴航,,33,30,30,23,23,95,,75,75,12,16,5,4,0.6,0.6
2026-01-07T1200,4104A,119.3106,26.0648,福州市,路通桥巷6号,,,44,24,29,24,,,58,58,11,12,/,/,/,/
2026-01-07T1200,1755A,123.7974,41.8494,抚顺市,望花区,,40,40,88,15,31,60,,60,56,9,29,8,15,0.6,1
2026-01-07T1200,1756A,123.9161,41.8827,抚顺市,顺城区,,,,73,14,27,59,,59,57,11,32,7,12,,1
2026-01-07T1200,1757A,124.0437,41.8615,抚顺市,东洲区,,38,38,81,13,32,60,,61,58,8,30,3,7,0.5,1
2026-01-07T1200,1758A,123.9246,41.8638,抚顺市,新抚区,,38,38,79,13,29,64,,63,61,11,32,7,10,0.6,1.1
2026-01-07T1200,1759A,124.0972,41.8961,抚顺市,大伙房水库,,33,33,80,11,34,58,,58,55,5,26,10,13,0.5,1
2026-01-07T1200,1760A,123.708,41.8386,抚顺市,沈抚新城,,41,41,80,10,34,64,,63,61,7,32,6,10,0.6,0.9
2026-01-07T1200,2377A,116.3544,27.9833,抚州市,市站,颗粒物(PM10),53,56,54,32,38,82,,33,33,15,21,10,9,0.4,0.5
2026-01-07T1200,2378A,116.3562,27.9631,抚州市,血防站,颗粒物(PM10),51,51,56,29,37,77,,32,32,22,26,8,7,0.6,0.6
2026-01-07T1200,2379A,116.3561,28.0007,抚州市,采茶剧团,颗粒物(PM10),51,52,54,30,37,83,,29,29,8,19,7,9,0.7,0.8
2026-01-07T1200,2380A,116.3854,27.9648,抚州市,医学分院,,47,47,56,29,33,85,,35,35,11,17,5,6,0.5,0.7
2026-01-07T1200,2207A,121.6095,41.9978,阜新市,工业园区,颗粒物(PM10),66,81,65,3,13,71,,60,59,3,10,5,8,0.3,0.4
2026-01-07T1200,2208A,121.6567,42.0188,阜新市,长青街,颗粒物(PM10),51,52,57,3,9,66,,61,60,3,8,6,8,0.2,0.3
2026-01-07T1200,2209A,121.6672,42.07,阜新市,农业园区,,46,46,56,3,11,61,,60,58,5,8,4,9,0.2,0.3
2026-01-07T1200,2211A,121.6343,42.0455,阜新市,玉龙新城,颗粒物(PM10),51,52,60,3,9,63,,51,49,4,13,4,9,0.2,0.3
2026-01-07T1200,2301A,115.8276,32.8929,阜阳市,市监测站,,47,47,46,24,25,63,,51,50,20,19,8,5,0.5,0.5
2026-01-07T1200,2303A,115.8551,32.8606,阜阳市,开发区,,34,34,36,17,26,63,,49,49,18,21,9,6,0.4,0.4
2026-01-07T1200,2875A,115.783962,32.889217,阜阳市,阜阳职业技术学院,,,31,37,31,23,66,,50,49,,17,11,7,,0.5
2026-01-07T1200,3468A,115.79,32.8614,阜阳市,市规划展馆,颗粒物(PM10),57,64,45,25,25,68,,50,50,16,20,11,6,0.4,0.3
2026-01-07T1200,3469A,115.835101,32.918568,阜阳市,枣园社区,,50,50,44,27,23,64,,51,51,21,19,9,6,0.3,0.3
2026-01-07T1200,2669A,102.9097,34.9841,甘南藏族自治州,州政府,细颗粒物(PM2.5),52,,52,36,34,52,,16,16,23,34,6,3,0.8,0.8
2026-01-07T1200,3380A,102.8915,34.9618,甘南藏族自治州,甘肃民族师范学院,细颗粒物(PM2.5),59,61,65,42,29,47,,27,27,38,36,56,9,0.7,0.5
2026-01-07T1200,2570A,101.96,30.048,甘孜藏族自治州,水桥子,,18,15,8,3,5,56,,59,54,21,13,6,6,1.0,0.9
2026-01-07T1200,3065A,101.9534,29.9976,甘孜藏族自治州,州环保局,,19,13,9,3,6,59,,61,55,17,12,6,5,0.7,0.7
2026-01-07T1200,2363A,114.9368,25.8663,赣州市,地委,,45,42,46,31,29,83,,28,28,13,23,9,7,0.8,0.8
2026-01-07T1200,2364A,114.946,25.8483,赣州市,气象台,,49,49,59,30,26,84,,27,27,20,38,4,3,0.5,0.5
2026-01-07T1200,2365A,114.932,25.8332,赣州市,市图书馆,,,42,45,35,29,72,,22,21,21,32,,4,0.5,0.6
2026-01-07T1200,2366A,114.8905,25.8472,赣州市,华坚鞋城,,48,48,47,28,27,73,,24,24,18,32,7,5,0.4,0.4
2026-01-07T1200,3109A,115.0094,25.8614,赣州市,赣县区卫计委,细颗粒物(PM2.5),52,47,43,36,37,74,,24,24,21,23,8,7,0.6,0.6
2026-01-07T1200,2684A,106.2753,36.0057,固原市,监测站,,,,24,28,14,,,78,75,11,12,,5,0.6,0.5
2026-01-07T1200,2685A,106.2384,36.0189,固原市,新区,,27,24,23,15,12,84,,82,82,10,9,7,4,0.6,0.5
2026-01-07T1200,2544A,106.6307,30.4577,广安市,市委,细颗粒物(PM2.5),70,71,71,51,56,35,,17,17,21,35,8,8,0.8,1
2026-01-07T1200,2545A,106.6266,30.4662,广安市,友谊中学,细颗粒物(PM2.5),68,67,58,49,51,35,,20,20,14,17,6,6,0.7,0.7
2026-01-07T1200,2547A,106.6386,30.4551,广安市,广电花园,细颗粒物(PM2.5),73,70,66,53,53,32,,13,13,20,29,8,8,0.6,0.8
2026-01-07T1200,2902A,106.6347,30.4868,广安市,北辰小学,细颗粒物(PM2.5),70,84,66,51,53,26,,21,20,22,18,21,20,1.1,1
2026-01-07T1200,2524A,105.8211,32.4444,广元市,老城,细颗粒物(PM2.5),89,80,46,66,34,25,,12,12,50,49,58,11,2.7,1
2026-01-07T1200,2526A,105.8629,32.429,广元市,监测站,细颗粒物(PM2.5),78,76,50,57,32,20,,18,12,50,32,33,6,1.6,0.9
2026-01-07T1200,3617A,105.8047,32.4167,广元市,经开区,细颗粒物(PM2.5),84,96,58,62,37,17,,5,5,38,41,61,9,2.1,1
2026-01-07T1200,1345A,113.2346,23.1423,广州市,广雅中学,,50,50,46,34,31,86,,54,54,12,23,4,5,0.6,0.5
2026-01-07T1200,1346A,113.2611,23.105,广州市,市五中,细颗粒物(PM2.5),52,48,44,36,34,95,,62,62,23,28,10,11,/,/
2026-01-07T1200,1348A,113.3477,23.0916,广州市,广东商学院,,42,42,42,29,31,84,,52,52,14,19,6,8,0.3,0.4
2026-01-07T1200,1349A,113.4332,23.105,广州市,市八十六中,,36,33,38,25,32,89,,58,58,15,20,8,8,/,/
2026-01-07T1200,1350A,113.3506,22.9488,广州市,番禺中学,,49,38,43,34,31,85,,61,61,23,29,4,4,0.4,0.3
2026-01-07T1200,1351A,113.2147,23.3918,广州市,花都师范,,,,47,,31,,,68,54,,24,,8,,0.5
2026-01-07T1200,1352A,113.2599,23.1329,广州市,市监测站,细颗粒物(PM2.5),53,49,44,37,34,85,,51,51,19,29,4,4,/,/
2026-01-07T1200,1353A,113.5618,23.3119,广州市,九龙镇镇龙,,42,40,40,29,29,87,,48,48,12,19,6,6,0.5,0.5
2026-01-07T1200,1354A,113.2764,23.1544,广州市,麓湖,细颗粒物(PM2.5),52,46,41,36,34,84,,40,40,13,30,10,9,0.5,0.5
2026-01-07T1200,2846A,113.3209,23.1323,广州市,体育西,,46,46,44,32,33,87,,50,50,17,25,7,8,0.6,0.6
2026-01-07T1200,3298A,113.5718,23.5493,广州市,从化街口,,38,33,38,26,31,92,,42,42,11,22,9,10,0.6,0.7
2026-01-07T1200,3299A,113.3463,23.369,广州市,白云竹料,,36,36,43,25,33,97,,53,53,10,25,4,6,0.4,0.5
2026-01-07T1200,3300A,113.2981,23.2365,广州市,白云嘉禾,颗粒物(PM10),51,51,52,31,32,91,,48,48,18,33,6,7,/,/
2026-01-07T1200,3301A,113.4256,23.1716,广州市,黄埔科学城,,43,38,38,30,30,100,,67,67,12,15,4,6,0.6,0.7
2026-01-07T1200,3302A,113.3942,23.0485,广州市,番禺大学城,,40,38,37,28,28,89,,62,62,18,19,10,11,0.4,0.5
2026-01-07T1200,3303A,113.4923,22.8169,广州市,南沙黄阁,颗粒物(PM10),51,52,46,33,30,97,,54,54,20,32,9,7,/,/
2026-01-07T1200,3304A,113.534,22.7893,广州市,南沙街,,48,48,45,30,27,89,,56,56,18,23,7,7,0.5,0.6
2026-01-07T1200,3443A,113.2905,23.5541,广州市,花都梯面,,38,35,36,26,28,89,,55,55,11,17,8,9,/,/
2026-01-07T1200,3445A,113.786,23.7479,广州市,从化良口,,40,35,29,28,24,90,,78,78,8,11,9,8,/,/
2026-01-07T1200,3446A,113.805,23.2614,广州市,增城荔城,,39,32,29,27,24,92,,68,68,10,12,8,7,0.5,0.5
2026-01-07T1200,2506A,109.604387,23.066791,贵港市,江南子站,,,,45,31,30,83,,50,49,,17,,6,0.5,0.6
2026-01-07T1200,2508A,109.5669,23.1065,贵港市,荷城子站,,49,46,46,34,34,82,,61,60,12,14,5,5,0.3,0.4
2026-01-07T1200,3405A,109.5886,23.1172,贵港市,新世纪学校,细颗粒物(PM2.5),55,51,52,39,37,79,,55,55,15,16,/,/,0.5,0.5
2026-01-07T1200,4260A,109.5933,23.095,贵港市,中山路155-3号,细颗粒物(PM2.5),57,59,42,40,37,80,,55,55,17,15,/,/,0.5,0.6
2026-01-07T1200,1439A,106.6863,26.6035,贵阳市,马鞍山,细颗粒物(PM2.5),67,53,54,48,49,62,,31,31,16,16,12,8,/,/
2026-01-07T1200,1441A,106.6241,26.6266,贵阳市,鉴湖路,细颗粒物(PM2.5),62,63,54,44,36,63,,47,47,26,20,16,7,0.6,0.6
2026-01-07T1200,1442A,106.7468,26.6344,贵阳市,燕子冲,细颗粒物(PM2.5),85,66,57,63,52,44,,31,26,22,17,21,11,0.9,0.8
2026-01-07T1200,1443A,106.6556,26.4362,贵阳市,碧云窝,,,83,62,56,43,,,23,17,30,20,24,10,/,/
2026-01-07T1200,1445A,106.6963,26.6063,贵阳市,红边门,细颗粒物(PM2.5),89,70,60,66,49,29,,39,29,30,21,20,12,/,/
2026-01-07T1200,1446A,106.7162383,26.56964667,贵阳市,新华路,细颗粒物(PM2.5),70,70,63,51,44,37,,40,36,25,18,17,10,0.8,0.6
2026-01-07T1200,1447A,106.6742,26.542,贵阳市,太慈桥,细颗粒物(PM2.5),64,56,52,46,42,44,,43,41,30,22,10,6,/,/
2026-01-07T1200,4230A,106.688212,26.56952,贵阳市,花果园大街66号,细颗粒物(PM2.5),54,53,51,38,34,35,,38,35,30,21,14,7,/,/
2026-01-07T1200,4231A,106.687268,26.516892,贵阳市,漓江路57号,细颗粒物(PM2.5),73,75,57,53,44,42,,27,24,31,25,21,13,1.0,0.8
2026-01-07T1200,1864A,110.3091,25.2705,桂林市,龙隐路小学,细颗粒物(PM2.5),52,45,44,36,39,86,,44,44,9,15,8,10,0.3,0.4
2026-01-07T1200,1865A,110.2849361,25.22909545,桂林市,八中,颗粒物(PM10),55,59,47,38,39,76,,44,43,18,23,8,10,0.6,0.6
2026-01-07T1200,3531A,110.296,25.1254,桂林市,旅游学院,,39,39,39,27,34,92,,38,38,9,20,6,5,0.6,0.6
2026-01-07T1200,4222A,110.1835,25.2444,桂林市,环湖路276号,,45,41,49,31,41,73,,29,29,23,28,10,17,0.5,0.6
2026-01-07T1200,4301A,110.2803,25.2773,桂林市,信义路13号,颗粒物(PM10),55,59,44,29,34,93,,58,58,13,20,6,9,0.5,0.6
2026-01-07T1200,2674A,100.2262,34.4854,果洛藏族自治州,玛沁县大武镇,颗粒物(PM10),63,75,31,11,7,66,,59,51,17,3,26,13,0.8,0.4
2026-01-07T1200,1130A,126.5557,45.8109,哈尔滨市,松北商大,,22,16,38,15,29,54,,48,48,9,24,7,8,0.4,0.5
2026-01-07T1200,1132A,126.6162,45.719,哈尔滨市,南岗学府路,,21,21,44,9,25,43,,39,39,17,24,37,20,0.5,0.7
2026-01-07T1200,1133A,126.6894,45.7733,哈尔滨市,太平宏伟公园,,27,27,43,15,30,53,,45,45,10,23,29,24,0.5,0.6
2026-01-07T1200,1134A,126.6361,45.7672,哈尔滨市,道外承德广场,,27,27,59,13,30,55,,50,50,10,28,9,11,0.6,0.7
2026-01-07T1200,1136A,126.644,45.7261,哈尔滨市,动力和平路,,20,20,42,9,27,54,,49,49,8,20,9,10,0.4,0.5
2026-01-07T1200,1137A,126.5933,45.7479,哈尔滨市,道里建国路,,31,31,40,15,34,49,,45,45,8,25,7,13,0,0.2
2026-01-07T1200,1138A,126.6127,45.6119,哈尔滨市,平房东轻厂,,22,16,36,15,29,48,,43,43,12,24,5,6,0.2,0.4
2026-01-07T1200,1139A,126.5875,45.9827,哈尔滨市,呼兰师专,,28,20,41,19,37,48,,46,46,5,18,7,10,0.5,0.6
2026-01-07T1200,1140A,126.6299,45.6799,哈尔滨市,省农科院,,19,14,42,13,32,56,,53,53,10,26,12,14,0.1,0.3
2026-01-07T1200,4282A,126.6769,45.7379,哈尔滨市,华山路1号,,17,12,37,10,27,52,,47,47,9,24,18,22,0.6,0.7
2026-01-07T1200,4283A,126.9717,45.5356,哈尔滨市,解放大街52号,,20,18,43,14,33,59,,47,47,11,21,14,17,0.5,0.6
2026-01-07T1200,2688A,93.5124,42.8176,哈密市,地区监测站,颗粒物(PM10),67,83,85,46,60,46,,44,44,12,18,3,4,0.0,0.3
2026-01-07T1200,2689A,93.5014,42.8312,哈密市,哈密师范学校,颗粒物(PM10),62,73,96,36,43,44,,38,38,16,26,6,7,0.2,0.5
2026-01-07T1200,2671A,100.9016,36.9464,海北藏族自治州,海晏县西海镇,,28,13,18,13,14,87,,69,62,2,5,7,8,0.3,0.4
2026-01-07T1200,3867A,102.074,36.5056,海东市,平安区公安局北苑,,,74,72,56,56,,,37,28,34,26,40,24,2.2,1.2
2026-01-07T1200,4163A,102.0984,36.5119,海东市,滨河路,细颗粒物(PM2.5),79,63,62,58,55,48,,24,23,35,40,36,25,1.8,1.1
2026-01-07T1200,1410A,110.3189,20.0596,海口市,海南大学,,36,36,44,25,29,90,,77,77,8,11,8,8,0.2,0.4
2026-01-07T1200,1411A,110.2827,20.0051,海口市,秀英海南医院,,44,44,45,25,31,84,,71,71,9,14,9,10,0.4,0.5
2026-01-07T1200,1412A,110.3391,19.9979,海口市,海南师范大学,,40,40,42,25,31,92,,79,79,9,13,7,8,0.5,0.6
2026-01-07T1200,1413A,110.3303,20.0359,海口市,龙华路环保局宿舍,,38,31,44,26,30,92,,81,81,10,13,/,/,0.6,0.6
2026-01-07T1200,3539A,110.5111,19.9737,海口市,桂林洋子站,,38,36,40,26,29,90,,78,77,8,11,/,/,/,/
2026-01-07T1200,4134A,110.1952,20.0451,海口市,长滨二路9号,,35,30,46,24,33,90,,72,72,6,11,/,/,/,/
2026-01-07T1200,2673A,100.6158,36.2985,海南藏族自治州,共和县恰卜恰镇,,,44,34,34,17,,,47,30,9,23,12,12,0.7,0.6
2026-01-07T1200,2676A,97.373,37.376,海西蒙古族藏族自治州,德令哈市,,26,6,15,3,12,83,,71,71,2,6,12,13,0.4,0.5
2026-01-07T1200,1049A,114.492,36.5712,邯郸市,矿院,,32,,47,22,37,65,,21,21,20,41,3,7,0.3,0.7
2026-01-07T1200,1050A,114.4839,36.6136,邯郸市,丛台公园,,25,,42,17,31,68,,31,31,17,38,2,7,0.3,0.7
2026-01-07T1200,3458A,114.7893,36.5592,邯郸市,香泉濮院小区,,40,40,62,20,42,74,,41,41,12,34,3,8,0.4,0.6
2026-01-07T1200,3580A,114.1998,36.4439,邯郸市,峰峰矿区临水派出所,,32,32,27,19,18,71,,63,55,18,17,7,10,0.6,0.6
2026-01-07T1200,4068A,114.5209,36.7697,邯郸市,建安街268号,,22,22,83,10,45,60,,13,13,20,54,2,6,0.2,0.8
2026-01-07T1200,4069A,114.5488,36.6177,邯郸市,丛台东路558号,,33,33,57,3,34,62,,24,24,20,40,7,8,0.5,0.6
2026-01-07T1200,2635A,107.0155,33.0707,汉中市,市监测站,细颗粒物(PM2.5),58,64,65,41,56,58,,20,20,29,36,24,8,1.0,0.9
2026-01-07T1200,2636A,107.0083,33.114,汉中市,鑫源开发区,颗粒物(PM10),64,78,64,42,53,51,,24,20,26,35,24,9,0.9,0.7
2026-01-07T1200,2637A,107.0072,33.0323,汉中市,南郑大河坎水厂,,,99,73,62,54,38,,20,16,,26,14,7,,1
2026-01-07T1200,1223A,120.2073,30.2111,杭州市,滨江,,46,43,64,32,51,63,,31,24,20,26,7,6,0.5,0.5
2026-01-07T1200,1224A,120.0625,30.2737,杭州市,西溪,,39,39,58,23,43,81,,26,26,16,31,10,8,0.6,0.7
2026-01-07T1200,1226A,120.3417,30.315,杭州市,下沙,,46,42,68,32,54,72,,47,45,20,30,9,8,0.5,0.7
2026-01-07T1200,1227A,120.1252,30.2465,杭州市,卧龙桥,,34,34,58,23,46,78,,33,33,12,19,10,9,0.4,0.6
2026-01-07T1200,1228A,120.1902,30.2691,杭州市,浙江农大,,48,42,69,33,55,65,,36,36,24,32,6,5,0.4,0.5
2026-01-07T1200,1230A,120.1195,30.3121,杭州市,和睦小学,细颗粒物(PM2.5),52,37,63,36,54,78,,41,40,15,24,6,5,0.5,0.7
2026-01-07T1200,1231A,120.3076,30.4146,杭州市,临平镇,,38,38,64,21,45,76,,44,38,12,21,8,7,0.4,0.5
2026-01-07T1200,1232A,120.2753,30.1839,杭州市,城厢镇,颗粒物(PM10),54,57,68,35,49,66,,31,24,24,26,8,7,0.5,0.6
2026-01-07T1200,1233A,120.0883,30.1808,杭州市,云栖,,,37,56,27,43,80,,31,31,,18,5,3,0.7,0.8
2026-01-07T1200,3557A,119.9463,30.0496,杭州市,镇二中,细颗粒物(PM2.5),58,41,52,41,53,54,,16,16,27,32,6,5,0.7,0.8
2026-01-07T1200,3558A,119.7184,30.2367,杭州市,市府大楼,,42,36,64,29,49,75,,35,35,12,20,10,10,0.5,0.7
2026-01-07T1200,3656A,120.1554,30.2863,杭州市,消防大队,,,42,60,29,49,66,,36,30,,24,8,6,0.4,0.6
2026-01-07T1200,1270A,117.1957,31.7845,合肥市,明珠广场,,44,44,48,14,28,58,,34,34,26,39,7,6,0.6,0.7
2026-01-07T1200,1271A,117.307,31.8765,合肥市,三里街,,29,29,48,14,27,60,,21,21,21,44,7,6,0.5,0.7
2026-01-07T1200,1272A,117.2587,31.8703,合肥市,琥珀山庄,,34,34,45,19,31,66,,28,28,14,41,10,8,0.7,0.8
2026-01-07T1200,1275A,117.2593,31.9376,合肥市,庐阳区,,29,29,42,12,22,68,,40,40,20,33,6,5,0.6,0.6
2026-01-07T1200,1276A,117.345251,31.861615,合肥市,瑶海区,,34,34,45,15,26,65,,25,25,18,43,6,5,0.5,0.6
2026-01-07T1200,1277A,117.3033,31.7967,合肥市,包河区,,36,36,46,17,32,59,,20,20,20,51,6,6,0.7,0.7
2026-01-07T1200,1278A,117.278,31.7392,合肥市,滨湖新区,,41,41,48,19,35,63,,20,20,22,51,5,4,0.7,0.7
2026-01-07T1200,1279A,117.1324,31.8395,合肥市,高新区,,39,39,42,14,24,68,,49,49,18,30,5,4,0.6,0.5
2026-01-07T1200,3464A,117.3802,31.9148,合肥市,高教基地,,36,36,48,15,28,68,,24,24,21,36,8,7,0.6,0.6
2026-01-07T1200,4098A,117.2518,31.8404,合肥市,中国科学技术大学,,32,32,42,11,20,74,,45,45,14,31,6,5,0.4,0.5
2026-01-07T1200,3614A,79.9241,37.0878,和田地区,地区环保局,颗粒物(PM10),51,51,54,33,33,46,,38,36,14,20,3,2,0.5,0.5
2026-01-07T1200,3615A,79.9132,37.1137,和田地区,市环保局,颗粒物(PM10),71,91,52,23,23,47,,44,42,20,21,2,2,0.5,0.8
2026-01-07T1200,2517A,108.0496,24.6957,河池市,市环保站,,50,50,28,26,20,58,,16,16,9,19,4,2,0.6,0.7
2026-01-07T1200,4302A,108.0901,24.6945,河池市,上任中路54号,,,77,39,24,24,56,,10,10,,24,,4,0.6,0.7
2026-01-07T1200,1697A,114.6962,23.7538,河源市,东埔,,43,33,35,30,34,99,,70,70,10,16,8,6,0.5,0.5
2026-01-07T1200,1698A,114.6895,23.7232,河源市,老城,,42,39,34,29,25,94,,53,53,7,14,8,6,0.7,0.7
2026-01-07T1200,3374A,115.5562,35.089,菏泽市,定陶老年大学,颗粒物(PM10),69,88,66,46,37,48,,23,23,25,26,8,5,0.8,0.7
2026-01-07T1200,4114A,115.4239,35.2593,菏泽市,黄河路600号,颗粒物(PM10),74,97,70,53,36,55,,31,31,27,29,10,7,1.1,1
2026-01-07T1200,4115A,115.5025,35.2727,菏泽市,菏泽市人社局,细颗粒物(PM2.5),88,94,69,65,34,57,,35,35,24,24,9,7,0.6,0.5
2026-01-07T1200,4184A,115.479691,35.244011,菏泽市,永昌路1号,颗粒物(PM10),72,94,74,50,42,58,,42,42,27,29,13,10,0.6,0.5
2026-01-07T1200,4193A,115.471542,35.280012,菏泽市,长城路999号,颗粒物(PM10),70,89,70,48,35,58,,35,35,24,25,8,6,0.6,0.5
2026-01-07T1200,2514A,111.5264,24.4178,贺州市,环保小区,细颗粒物(PM2.5),68,56,47,49,38,83,,39,39,14,19,8,6,0.6,1.1
2026-01-07T1200,2515A,111.561,24.4074,贺州市,政协大楼,,43,43,48,30,34,86,,36,36,14,20,9,8,0.6,0.7
2026-01-07T1200,3534A,111.4744,24.455,贺州市,西湾,"颗粒物(PM10),细颗粒物(PM2.5)",55,59,50,39,37,83,,37,37,14,21,8,7,0.7,0.8
2026-01-07T1200,2385A,114.17,35.9019,鹤壁市,市监测站,,,54,48,18,24,58,,40,37,,25,10,6,0.6,0.6
2026-01-07T1200,2386A,114.2953,35.7512,鹤壁市,市交警支队,,46,46,44,16,19,52,,28,28,20,34,5,3,0.4,0.5
2026-01-07T1200,2387A,114.2877,35.7302,鹤壁市,迎宾馆,颗粒物(PM10),53,55,47,17,23,56,,36,36,18,25,3,5,0.6,0.6
2026-01-07T1200,3474A,114.2616,35.6824,鹤壁市,大新区,颗粒物(PM10),59,67,47,12,17,56,,34,34,20,31,7,6,0.4,0.5
2026-01-07T1200,3596A,114.1573,35.9607,鹤壁市,南山宾馆,颗粒物(PM10),54,58,41,18,23,62,,59,52,18,16,9,11,0.5,0.5
2026-01-07T1200,2244A,130.2537,47.3416,鹤岗市,哈啤分公司,,21,18,38,9,31,66,,60,60,4,18,6,8,0.4,0.5
2026-01-07T1200,2245A,130.2683,47.3087,鹤岗市,斯达机电,,26,,41,18,34,60,,55,55,6,18,6,9,0.5,0.6
2026-01-07T1200,2246A,130.3114,47.3388,鹤岗市,东山纸板厂,,,19,36,19,28,62,,60,60,,23,10,12,,0.6
2026-01-07T1200,2263A,127.4832,50.2524,黑河市,交通局,,20,14,23,14,18,58,,53,50,4,12,3,6,0.4,0.4
2026-01-07T1200,2264A,127.5146,50.2339,黑河市,环保局,,28,23,21,19,19,45,,49,46,14,15,22,9,0.3,0.4
2026-01-07T1200,1074A,115.6839,37.754,衡水市,电机北厂,,20,13,64,3,30,64,,37,37,11,22,6,7,0.3,0.4
2026-01-07T1200,1075A,115.6303,37.7318,衡水市,市监测站,,,,61,,30,63,,33,33,,28,5,8,0.3,0.5
2026-01-07T1200,3188A,115.6684,37.7216,衡水市,市城管局,,41,41,63,8,32,66,,39,39,21,29,5,9,0.3,0.5
2026-01-07T1200,3459A,115.599,37.5491,衡水市,地表水厂,,23,11,65,7,32,73,,35,35,8,27,2,7,0.3,0.5
2026-01-07T1200,2457A,112.6209,26.9268,衡阳市,衡阳化工总厂,细颗粒物(PM2.5),88,87,68,65,59,42,,11,11,34,32,8,9,1.0,0.9
2026-01-07T1200,2458A,112.621,26.8957,衡阳市,珠晖区环保局,,,84,70,63,64,,,6,6,44,41,,6,1.2,1.2
2026-01-07T1200,2459A,112.628,26.8654,衡阳市,市委党校,细颗粒物(PM2.5),85,97,86,63,68,60,,12,12,33,32,9,10,1.1,1.2
2026-01-07T1200,2460A,112.6007,26.8977,衡阳市,市监测站,细颗粒物(PM2.5),94,106,96,70,70,34,,9,9,42,36,8,8,1.2,1.2
2026-01-07T1200,2461A,112.5658,26.9013,衡阳市,真空机电公司,细颗粒物(PM2.5),70,76,86,51,62,72,,23,23,19,35,9,8,0.9,1.1
2026-01-07T1200,3399A,112.6703,26.8817,衡阳市,师范学院,颗粒物(PM10),68,86,79,47,57,50,,12,12,32,30,4,4,1.0,1
2026-01-07T1200,3038A,103.3757,23.3679,红河哈尼族彝族自治州,州图书馆,,18,17,17,12,13,31,,36,34,8,7,7,6,0.6,0.6
2026-01-07T1200,4154A,103.401,23.3561,红河哈尼族彝族自治州,蒙自市朝阳路,,20,,14,14,13,31,,34,34,6,6,4,5,0.7,0.7
2026-01-07T1200,1090A,111.6506,40.7517,呼和浩特市,呼市一监,"颗粒物(PM10),细颗粒物(PM2.5)",62,73,73,44,42,43,,14,14,17,35,7,4,0.6,0.8
2026-01-07T1200,1094A,111.7516,40.8369,呼和浩特市,如意水处理厂,颗粒物(PM10),66,82,64,45,39,34,,12,11,26,46,12,11,0.8,0.8
2026-01-07T1200,1095A,111.727798,40.806187,呼和浩特市,二十九中,颗粒物(PM10),67,84,67,47,41,37,,13,13,21,43,17,12,0.6,0.6
2026-01-07T1200,1097A,111.717,40.7617,呼和浩特市,化肥厂生活区,,,,75,,46,42,,14,14,,43,,7,0.6,0.8
2026-01-07T1200,3699A,111.6519,40.8389,呼和浩特市,海东办,颗粒物(PM10),63,75,68,41,38,45,,12,11,18,40,7,8,0.6,0.7
2026-01-07T1200,4275A,111.591512,40.827312,呼和浩特市,成吉思汗西街8号,颗粒物(PM10),71,92,68,37,36,36,,11,11,20,41,9,10,0.8,0.7
2026-01-07T1200,4276A,111.6597,40.8077,呼和浩特市,公园东路75号,颗粒物(PM10),70,90,72,44,36,39,,19,19,26,40,12,9,0.6,0.6
2026-01-07T1200,4277A,111.5427,40.7846,呼和浩特市,金海路35号,颗粒物(PM10),75,99,89,50,48,38,,17,17,21,42,10,14,0.7,0.7
2026-01-07T1200,3061A,119.7511,49.1576,呼伦贝尔市,国华电力东,,19,16,26,9,17,60,,57,57,16,20,6,6,0.3,0.3
2026-01-07T1200,4279A,119.7569,49.2222,呼伦贝尔市,伊敏大街东7号,,28,21,29,19,22,57,,56,55,9,10,8,7,0.4,0.4
2026-01-07T1200,1250A,120.075,30.867,湖州市,城西水厂,,40,40,71,22,49,82,,38,38,26,35,11,10,0.3,0.5
2026-01-07T1200,2873A,120.083,30.8929,湖州市,仁皇山新区,,46,42,68,32,55,80,,56,56,25,31,12,12,0.4,0.5
2026-01-07T1200,2907A,120.1846,30.8592,湖州市,吴兴区站,,42,40,70,29,57,84,,52,52,14,24,7,6,0.6,0.7
2026-01-07T1200,3562A,120.4146,30.8538,湖州市,南浔区站,,40,36,71,28,60,74,,49,49,19,26,8,7,0.5,0.8
2026-01-07T1200,1607A,120.904878,40.721091,葫芦岛市,龙港区,,35,35,45,7,23,71,,56,53,7,25,10,12,0.4,0.6
2026-01-07T1200,1608A,120.8382,40.7521,葫芦岛市,化工街,,48,48,40,3,15,69,,51,51,6,28,13,23,0.3,0.5
2026-01-07T1200,1609A,120.8339,40.7078,葫芦岛市,新区,,,,34,,15,67,,58,56,9,26,,12,,0.8
2026-01-07T1200,1610A,120.8697,40.7679,葫芦岛市,东城区,,33,33,34,3,19,70,,52,51,7,28,9,12,0.4,0.6
2026-01-07T1200,2483A,109.9297,27.5383,怀化市,河西地税局,细颗粒物(PM2.5),64,57,42,46,35,36,,10,10,29,16,10,3,/,/
2026-01-07T1200,2484A,109.9783,27.5342,怀化市,市四医院,细颗粒物(PM2.5),89,86,61,66,41,37,,7,7,24,24,12,10,0.9,0.7
2026-01-07T1200,2485A,109.9971,27.5579,怀化市,监测楼,细颗粒物(PM2.5),77,67,53,56,44,51,,13,13,29,21,5,2,0.3,0.2
2026-01-07T1200,1210A,119.0566,33.5991,淮安市,钵池山,细颗粒物(PM2.5),69,70,80,50,65,57,,36,36,23,23,14,8,0.8,0.6
2026-01-07T1200,1211A,119.0083,33.578,淮安市,北京南路,细颗粒物(PM2.5),67,73,82,48,62,45,,15,15,22,32,10,7,0.8,0.7
2026-01-07T1200,1212A,118.9938,33.6083,淮安市,市监测站,细颗粒物(PM2.5),64,70,75,46,57,52,,27,27,23,27,12,9,0.8,0.8
2026-01-07T1200,1213A,119.135,33.5038,淮安市,楚州区监测站,颗粒物(PM10),55,59,79,37,49,48,,21,21,18,29,11,9,0.7,0.8
2026-01-07T1200,3426A,118.8757,33.2897,淮安市,新华书店,细颗粒物(PM2.5),54,55,65,38,42,47,,37,34,18,18,10,9,1.0,1
2026-01-07T1200,4092A,119.119691,33.550006,淮安市,枚皋中路89号,颗粒物(PM10),70,90,90,39,61,63,,28,28,17,25,11,10,0.6,0.9
2026-01-07T1200,4206A,119.028838,33.631911,淮安市,承德北路606号,细颗粒物(PM2.5),67,78,89,48,62,59,,30,30,19,27,10,8,0.5,0.6
2026-01-07T1200,2282A,116.8005,33.9749,淮北市,监测站,颗粒物(PM10),68,86,89,45,48,41,,28,27,36,34,11,10,0.7,0.7
2026-01-07T1200,2283A,116.8094,33.9008,淮北市,烈山区政府,颗粒物(PM10),61,71,89,40,54,46,,23,23,20,36,14,11,0.5,0.5
2026-01-07T1200,4017A,116.7926,33.9534,淮北市,市博物馆,,,91,87,,54,41,,23,23,,32,,11,0.7,0.6
2026-01-07T1200,4100A,116.8322,33.9884,淮北市,杜集区第一实验学校,颗粒物(PM10),66,81,90,36,52,46,,17,17,22,25,13,9,0.7,0.7
2026-01-07T1200,2277A,116.8304,32.7726,淮南市,潘集区政府,细颗粒物(PM2.5),52,45,53,36,38,56,,42,42,17,20,8,6,0.5,0.5
2026-01-07T1200,2279A,116.8569,32.5949,淮南市,谢家集区政府,,45,45,50,16,22,54,,38,36,21,22,8,7,0.4,0.4
2026-01-07T1200,2280A,116.8279,32.6333,淮南市,八公山区政府,,38,38,35,22,18,60,,64,57,16,11,10,5,0.4,0.4
2026-01-07T1200,2894A,117.0561,32.6536,淮南市,经济技术开发区消防队,颗粒物(PM10),52,53,63,29,32,58,,46,45,20,21,8,6,0.4,0.4
2026-01-07T1200,3329A,117.011,32.5891,淮南市,山南新区,颗粒物(PM10),52,54,55,29,22,57,,44,43,18,19,4,2,0.4,0.4
2026-01-07T1200,4209A,117.003137,32.644456,淮南市,国庆中路369号,,,27,54,13,34,,,30,29,21,26,8,6,0.6,0.6
2026-01-07T1200,2446A,114.9021,30.474,黄冈市,职工中心,颗粒物(PM10),53,55,39,36,24,75,,28,28,40,24,13,7,1.0,0.7
2026-01-07T1200,2929A,114.8858,30.4519,黄冈市,红卫路,细颗粒物(PM2.5),57,54,36,40,24,56,,26,26,39,29,13,7,1.0,0.6
2026-01-07T1200,3398A,114.9134,30.4446,黄冈市,市林业局,细颗粒物(PM2.5),60,61,40,43,24,55,,27,24,39,25,15,5,1.0,0.8
2026-01-07T1200,2672A,102.02,35.5101,黄南藏族自治州,同仁县隆务镇,,,,31,16,19,,,63,63,1,4,9,10,0.2,0.3
2026-01-07T1200,2295A,118.2905,29.6965,黄山市,延安路89号,细颗粒物(PM2.5),69,57,36,50,35,66,,29,29,13,13,4,4,0.5,0.5
2026-01-07T1200,2297A,118.1369,30.2755,黄山市,黄山区政府5号楼,细颗粒物(PM2.5),57,45,48,40,36,46,,23,23,13,15,3,3,0.4,0.5
2026-01-07T1200,4210A,118.335445,29.720283,黄山市,滨江东路7-2号,细颗粒物(PM2.5),73,63,53,53,43,57,,28,28,21,15,/,/,/,/
2026-01-07T1200,2423A,115.0547,30.2332,黄石市,沈家营,颗粒物(PM10),60,70,44,34,22,77,,27,24,25,24,9,6,1.3,1.2
2026-01-07T1200,2426A,114.899,30.211,黄石市,铁山,细颗粒物(PM2.5),63,59,51,45,31,76,,42,42,34,34,11,6,0.5,0.5
2026-01-07T1200,2427A,115.0259,30.2108,黄石市,团城山,颗粒物(PM10),68,86,45,31,19,84,,45,43,19,20,7,7,0.7,0.7
2026-01-07T1200,3149A,115.0174,30.1591,黄石市,笔架山北路,颗粒物(PM10),79,107,70,50,31,76,,37,37,26,24,10,8,1.2,1.1
2026-01-07T1200,4185A,115.078022,30.21118,黄石市,磁湖东路29号,"颗粒物(PM10),细颗粒物(PM2.5)",57,64,48,40,28,62,,19,17,22,28,10,7,0.9,0.8
2026-01-07T1200,1392A,114.4181,23.0528,惠州市,河南岸金山湖子站,,43,41,41,30,28,89,,68,68,13,18,5,5,0.6,0.6
2026-01-07T1200,1393A,114.4055,23.0824,惠州市,下埔横江三路子站,,40,40,40,28,28,93,,74,74,8,11,8,8,0.3,0.3
2026-01-07T1200,1395A,114.4645,22.7832,惠州市,惠阳区承修路船湖子站,,43,43,41,28,27,91,,73,73,8,11,7,7,0.6,0.6
2026-01-07T1200,1396A,114.5316,22.7423,惠州市,大亚湾管委会子站,,42,41,38,29,25,90,,74,74,7,7,7,6,0.3,0.4
2026-01-07T1200,3314A,114.4334,22.8134,惠州市,惠阳秋长,,45,44,41,31,27,96,,79,79,11,12,/,/,/,/
2026-01-07T1200,3452A,114.6521,22.7755,惠州市,大亚湾霞涌,颗粒物(PM10),52,53,38,29,27,92,,75,75,11,11,/,/,/,/
2026-01-07T1200,4300A,114.4089,23.1147,惠州市,文华一路1号,,45,42,39,31,30,98,,79,79,11,13,/,/,/,/
2026-01-07T1200,2240A,130.9618,45.2926,鸡西市,环保局,细颗粒物(PM2.5),63,67,48,45,25,50,,30,26,12,19,10,13,0.6,0.6
2026-01-07T1200,2243A,130.9294,45.2959,鸡西市,第一中学,细颗粒物(PM2.5),57,61,41,40,28,52,,30,30,12,20,4,4,0.7,0.7
2026-01-07T1200,3707A,131.0069,45.2988,鸡西市,欧美日汽修厂,颗粒物(PM10),82,113,74,47,42,51,,32,29,13,21,12,16,0.7,0.7
2026-01-07T1200,2367A,114.9753,27.0803,吉安市,红声器材厂,,49,46,50,34,31,82,,43,40,16,21,11,9,0.7,0.7
2026-01-07T1200,2369A,114.9903,27.1313,吉安市,市环境监测站,细颗粒物(PM2.5),53,54,47,37,33,59,,48,41,27,20,15,14,/,/
2026-01-07T1200,2370A,115.009527,27.096792,吉安市,青原区法院,细颗粒物(PM2.5),55,48,50,39,33,69,,22,22,21,31,11,10,0.7,0.7
2026-01-07T1200,1772A,126.54,43.8622,吉林市,哈达湾,,41,41,42,13,19,67,,64,63,6,13,6,11,0.9,1
2026-01-07T1200,1773A,126.5843,43.8358,吉林市,东局子,,28,28,36,10,19,56,,51,51,7,14,5,5,0.9,0.9
2026-01-07T1200,1774A,126.5051,43.8243,吉林市,电力学院,,,28,33,13,21,,,58,58,5,12,,11,0.5,0.5
2026-01-07T1200,1775A,126.6133,43.8971,吉林市,江北,,28,28,40,15,22,57,,54,53,9,15,23,8,0.9,1
2026-01-07T1200,1776A,126.5549,43.8304,吉林市,江南公园,,30,30,35,11,23,64,,60,60,6,13,7,9,0.4,0.5
2026-01-07T1200,2868A,126.4737,43.953,吉林市,九站,,21,21,37,14,22,59,,53,53,9,17,9,8,0.4,0.5
2026-01-07T1200,1299A,116.9866,36.6118,济南市,科干所,,,41,100,12,62,54,,34,34,,39,,12,0.8,1.1
2026-01-07T1200,1300A,116.9379,36.6652,济南市,农科所,,44,44,114,17,74,54,,22,22,26,44,12,10,0.7,1
2026-01-07T1200,1301A,117.1265,36.6736,济南市,开发区,,44,44,101,22,70,58,,30,29,27,38,10,9,0.7,1
2026-01-07T1200,1303A,117.0616,36.6865,济南市,省种子仓库,,48,48,115,17,74,60,,28,28,27,43,10,11,0.6,1
2026-01-07T1200,1304A,116.9495185,36.644937,济南市,机床二厂,,49,49,118,22,81,55,,27,27,30,48,11,18,0.9,1.2
2026-01-07T1200,1305A,117.0496,36.6629,济南市,市监测站,,44,44,105,15,67,56,,29,29,22,32,9,9,0.7,0.9
2026-01-07T1200,1306A,116.7674,36.5458,济南市,长清党校,颗粒物(PM10),55,59,109,22,72,52,,20,20,29,42,12,11,0.9,1
2026-01-07T1200,1961A,117.5323,36.6865,济南市,东山小学,,46,46,114,20,77,62,,26,26,23,42,9,7,0.8,1.1
2026-01-07T1200,3059A,117.7181,36.205,济南市,泰兴公司,,41,41,209,19,173,67,,20,20,23,55,7,10,0.6,1.7
2026-01-07T1200,3064A,117.6861,36.2172,济南市,莱芜战役纪念馆,颗粒物(PM10),51,51,206,31,169,55,,16,16,25,55,8,12,0.6,1.7
2026-01-07T1200,3494A,117.1673,36.9782,济南市,济阳区政府,,,24,103,3,60,,,29,29,16,43,6,11,0.4,0.8
2026-01-07T1200,3495A,117.1168,36.6299,济南市,锦屏中学,,27,27,87,10,60,67,,41,41,20,29,5,7,0.6,0.9
2026-01-07T1200,4108A,117.7107,36.2385,济南市,山财大街5号,,49,49,213,13,136,72,,25,25,20,46,8,10,0.4,1.2
2026-01-07T1200,4109A,116.9744,36.6889,济南市,无影山路12号,,47,47,122,13,76,55,,23,23,28,47,11,13,0.6,1
2026-01-07T1200,1653A,116.6229,35.4288,济宁市,火炬城,细颗粒物(PM2.5),140,134,128,107,109,35,,13,13,44,42,12,8,0.9,0.9
2026-01-07T1200,3500A,116.5808,35.3703,济宁市,北湖一中,细颗粒物(PM2.5),114,115,130,86,112,39,,12,12,,49,15,8,1.0,0.9
2026-01-07T1200,3501A,116.8251,35.5592,济宁市,服务中心,细颗粒物(PM2.5),122,186,172,92,112,28,,7,7,70,57,15,13,1.1,1
2026-01-07T1200,3678A,116.5907,35.4054,济宁市,市第七中学,细颗粒物(PM2.5),113,151,130,85,96,42,,18,18,42,45,17,11,1.0,0.9
2026-01-07T1200,4111A,116.6075,35.4566,济宁市,任和路,细颗粒物(PM2.5),145,169,150,111,100,33,,9,9,45,45,14,8,1.0,0.9
2026-01-07T1200,4112A,116.5648,35.3921,济宁市,文体南路1号,细颗粒物(PM2.5),117,137,152,88,105,33,,12,12,46,51,13,8,1.0,0.9
2026-01-07T1200,2255A,130.2749,46.8028,佳木斯市,佳纺,,30,23,51,21,37,53,,42,42,9,24,8,8,0.4,0.5
2026-01-07T1200,2257A,130.3258,46.7975,佳木斯市,环保局,,23,17,37,16,29,55,,48,48,9,22,8,8,0.7,0.8
2026-01-07T1200,4285A,130.363,46.806,佳木斯市,顺和街,,25,23,37,17,31,47,,42,42,10,22,10,10,0.5,0.6
2026-01-07T1200,4286A,130.3952,46.8268,佳木斯市,长安路196号,,22,19,39,15,29,55,,49,49,4,16,6,6,0.3,0.5
2026-01-07T1200,1252A,120.7439,30.778,嘉兴市,清河小学,"颗粒物(PM10),细颗粒物(PM2.5)",53,55,91,37,71,68,,42,42,21,29,7,6,0.8,0.9
2026-01-07T1200,1253A,120.7261,30.7477,嘉兴市,嘉兴学院,,49,48,81,34,64,70,,38,38,20,29,9,8,0.9,1
2026-01-07T1200,2872A,120.7845,30.7524,嘉兴市,南湖区残联,,,48,84,39,71,,,45,45,18,24,6,5,0.7,0.8
2026-01-07T1200,3407A,120.6915,30.7741,嘉兴市,秀洲住建,细颗粒物(PM2.5),57,59,87,40,72,73,,39,39,20,30,8,6,0.5,0.7
2026-01-07T1200,1945A,98.291,39.7705,嘉峪关市,气象局,,24,24,44,12,17,75,,77,70,7,13,10,12,0.3,0.5
2026-01-07T1200,2884A,98.2672,39.7978,嘉峪关市,酒钢宾馆,,48,48,46,9,19,77,,75,68,6,13,15,21,0.4,0.7
2026-01-07T1200,3248A,98.2644,39.7723,嘉峪关市,雄关区,,26,26,34,13,19,74,,74,68,12,16,14,17,0.3,0.4
2026-01-07T1200,1383A,113.1063,22.6058,江门市,北街,细颗粒物(PM2.5),52,49,42,36,34,85,,57,57,19,22,/,/,/,/
2026-01-07T1200,1384A,113.073,22.5835,江门市,西区,颗粒物(PM10),57,63,46,29,28,82,,55,55,22,25,/,/,/,/
2026-01-07T1200,1385A,113.0218,22.531,江门市,圭峰西,颗粒物(PM10),62,73,40,36,32,82,,61,61,22,21,/,/,/,/
2026-01-07T1200,1386A,113.0826,22.5947,江门市,东湖,细颗粒物(PM2.5),54,44,41,38,31,85,,58,58,23,25,10,9,0.5,0.5
2026-01-07T1200,3311A,113.1077,22.5647,江门市,江海富民,"颗粒物(PM10),细颗粒物(PM2.5)",54,58,44,38,25,85,,57,57,28,29,/,/,0.5,0.6
2026-01-07T1200,3449A,113.0496,22.4669,江门市,新会银湖,细颗粒物(PM2.5),55,52,44,39,35,81,,51,51,19,22,10,9,0.5,0.6
2026-01-07T1200,3335A,113.3137,35.2643,焦作市,马村街道办,,45,45,37,27,18,72,,61,61,12,14,8,8,0.6,0.5
2026-01-07T1200,3336A,113.2464,35.2374,焦作市,焦作技师学院,,41,41,37,17,16,71,,55,55,12,18,7,8,0.2,0.3
2026-01-07T1200,3477A,113.1656,35.2536,焦作市,中站许衡医院,,41,41,36,19,26,74,,63,63,8,14,5,6,0.3,0.4
2026-01-07T1200,3981A,113.2456,35.18,焦作市,原李万街道办,颗粒物(PM10),54,57,41,14,14,76,,63,63,6,12,4,6,0.4,0.4
2026-01-07T1200,4264A,113.234,35.219,焦作市,新安路1731号,,47,47,38,21,19,72,,60,60,11,15,4,5,0.3,0.4
2026-01-07T1200,4295A,113.2722,35.2121,焦作市,人民路3066号,,50,50,42,20,11,65,,56,56,6,10,5,5,0.3,0.4
2026-01-07T1200,1708A,116.3701,23.5345,揭阳市,新兴,颗粒物(PM10),53,56,37,22,27,87,,69,69,13,14,9,8,0.5,0.5
2026-01-07T1200,1709A,116.3261,23.5442,揭阳市,西马,,48,48,36,26,24,82,,74,74,16,12,4,4,0.7,0.7
2026-01-07T1200,1710A,116.361,23.5627,揭阳市,东兴,颗粒物(PM10),54,58,39,28,20,84,,58,58,11,15,7,9,/,/
2026-01-07T1200,1711A,116.4151,23.5295,揭阳市,渔湖,,42,42,36,22,22,88,,68,68,10,14,3,4,/,/
2026-01-07T1200,3320A,116.4028,23.5699,揭阳市,曲溪,,35,34,36,24,23,98,,73,73,4,10,2,2,0.3,0.4
2026-01-07T1200,1944A,102.1691,38.5166,金昌市,天庆家园,,34,34,58,7,20,79,,64,64,6,16,5,14,0.5,0.7
2026-01-07T1200,4022A,102.1648,38.5369,金昌市,金川区人防中心,,26,26,53,9,21,71,,71,71,5,13,4,13,0.4,0.6
2026-01-07T1200,4239A,102.193042,38.531887,金昌市,长春路96号,,34,34,48,8,18,80,,72,72,4,11,6,15,0.5,0.7
2026-01-07T1200,1262A,119.6478,29.0773,金华市,十五中,细颗粒物(PM2.5),59,66,57,42,42,78,,45,41,26,31,6,5,0.4,0.5
2026-01-07T1200,1263A,119.6859,29.1032,金华市,监测站,细颗粒物(PM2.5),67,66,63,48,45,60,,28,28,32,46,5,3,0.4,0.5
2026-01-07T1200,3659A,119.656,29.1132,金华市,气象局,细颗粒物(PM2.5),59,64,60,42,42,66,,32,32,29,42,3,3,1.0,0.9
2026-01-07T1200,1767A,121.1114,41.0879,锦州市,南山,,,20,40,10,21,74,,63,59,,19,,15,0.4,0.8
2026-01-07T1200,1768A,121.060361,40.842794,锦州市,开发区,,30,30,60,14,33,69,,44,44,8,41,6,18,0.5,0.8
2026-01-07T1200,1769A,121.1836,41.1118,锦州市,百股街道,,22,15,41,3,15,70,,65,62,5,16,5,9,0.6,0.7
2026-01-07T1200,1770A,121.1176,41.1224,锦州市,天安街道,,25,14,36,6,12,80,,72,68,6,14,10,15,0.4,0.6
2026-01-07T1200,1771A,121.1303,41.1385,锦州市,北湖公园,,23,20,33,8,10,72,,68,65,3,8,7,11,0.5,0.5
2026-01-07T1200,2160A,112.8496,35.5051,晋城市,自来水公司,颗粒物(PM10),52,53,37,20,19,65,,61,59,11,12,6,6,0.6,0.6
2026-01-07T1200,2162A,112.8509,35.4886,晋城市,市环保局,,44,44,36,17,16,72,,66,66,13,12,5,5,0.5,0.6
2026-01-07T1200,3620A,112.8258,35.4804,晋城市,泽州一中,颗粒物(PM10),53,55,36,24,13,72,,67,67,13,12,5,5,0.2,0.2
2026-01-07T1200,4078A,112.8246,35.5152,晋城市,前书院路,颗粒物(PM10),52,53,43,9,16,68,,60,60,9,10,5,6,0.2,0.3
2026-01-07T1200,4079A,112.8864,35.4773,晋城市,祥云街666号,颗粒物(PM10),53,56,36,12,18,72,,66,65,12,12,6,6,0.3,0.4
2026-01-07T1200,2174A,112.6992,37.6984,晋中市,榆次区政府,颗粒物(PM10),65,80,61,28,23,71,,64,64,17,23,9,12,0.4,0.6
2026-01-07T1200,2865A,112.7195,37.683,晋中市,榆次三中,颗粒物(PM10),68,85,69,19,19,72,,68,68,13,19,7,13,0,0.3
2026-01-07T1200,4080A,112.7375,37.7215,晋中市,广安街188号,,,95,59,23,23,71,,65,65,8,22,8,12,,0.4
2026-01-07T1200,4200A,112.7478,37.6954,晋中市,迎宾街26号,颗粒物(PM10),69,88,68,24,22,72,,66,66,15,24,8,14,0.5,0.6
2026-01-07T1200,2439A,112.2012,31.048,荆门市,竹园小学,细颗粒物(PM2.5),127,130,68,96,49,69,,50,34,40,40,5,7,0.9,0.5
2026-01-07T1200,2440A,112.1968,30.9892,荆门市,掇刀,细颗粒物(PM2.5),114,140,67,86,47,75,,51,41,50,36,12,6,1.0,0.7
2026-01-07T1200,3012A,112.1849,31.0361,荆门市,西山林语,,,133,53,72,38,69,,64,49,44,26,12,6,,0.7
2026-01-07T1200,3547A,112.1631,31.0134,荆门市,龙泉中学南校,细颗粒物(PM2.5),127,121,67,96,50,68,,70,54,46,17,10,8,1.1,0.7
2026-01-07T1200,4124A,112.2213,31.0654,荆门市,新台西路6号,细颗粒物(PM2.5),138,111,84,105,66,56,,17,17,43,41,21,11,0.8,0.6
2026-01-07T1200,1844A,112.2493,30.3198,荆州市,市图书馆,细颗粒物(PM2.5),132,,69,100,77,65,,38,32,25,31,9,10,0.9,0.9
2026-01-07T1200,1845A,112.2009,30.3543,荆州市,市委党校,细颗粒物(PM2.5),130,,75,99,73,53,,25,20,29,35,6,5,1.0,1
2026-01-07T1200,3194A,112.2749,30.3124,荆州市,管委会,细颗粒物(PM2.5),137,,79,104,81,73,,35,27,19,40,7,8,0.8,1
2026-01-07T1200,4268A,112.1722,30.3366,荆州市,学苑路85号,细颗粒物(PM2.5),108,95,70,81,66,63,,34,24,22,27,16,12,0.8,0.8
2026-01-07T1200,2343A,117.2114,29.2931,景德镇市,老干部活动中心,细颗粒物(PM2.5),57,54,45,40,39,45,,13,13,29,23,23,9,0.6,0.5
2026-01-07T1200,2344A,117.1893,29.2789,景德镇市,兽医站,"颗粒物(PM10),细颗粒物(PM2.5)",55,60,45,39,33,57,,19,19,35,23,30,11,0.9,0.9
2026-01-07T1200,2346A,117.246,29.2958,景德镇市,陶研所,细颗粒物(PM2.5),68,49,47,49,42,41,,11,11,46,24,21,4,0.7,0.5
2026-01-07T1200,4289A,117.154766,29.256967,景德镇市,青少年活动中心,细颗粒物(PM2.5),62,69,51,44,33,64,,18,18,33,31,40,22,/,/
2026-01-07T1200,1803A,115.9873,29.6816,九江市,十里,,45,38,44,31,30,92,,23,23,19,49,6,5,0.7,0.8
2026-01-07T1200,1804A,115.9583,29.7047,九江市,茅山头,,,17,40,,30,72,,33,33,,34,7,5,,0.8
2026-01-07T1200,1805A,115.9877,29.7295,九江市,西园,,40,40,41,22,24,92,,53,53,23,38,3,4,0.6,0.7
2026-01-07T1200,1808A,115.9112,29.6038,九江市,综合工业园,,40,31,42,28,33,96,,32,32,16,47,4,4,0.4,0.8
2026-01-07T1200,3190A,116.0254,29.6995,九江市,外国语学校,,38,38,39,23,25,83,,39,39,13,35,8,8,0.7,0.8
2026-01-07T1200,4253A,116.010205,29.659402,九江市,莲花大道8号,细颗粒物(PM2.5),53,39,40,37,21,88,,59,51,12,15,4,4,0.4,0.4
2026-01-07T1200,4240A,98.495752,39.733935,酒泉市,玉门东路5号,,46,46,75,22,28,63,,44,44,12,13,19,12,0.4,0.5
2026-01-07T1200,4241A,98.5099,39.7506,酒泉市,北大街108号,颗粒物(PM10),54,58,71,23,27,60,,45,45,17,17,17,10,0.5,0.6
2026-01-07T1200,2698A,76.0071,39.466,喀什地区,巡警大队,细颗粒物(PM2.5),190,195,112,143,108,4,,4,4,42,34,6,4,3.0,1.9
2026-01-07T1200,2699A,75.9756,39.4693,喀什地区,吾办,细颗粒物(PM2.5),176,161,95,133,78,12,,9,6,33,29,3,4,1.7,1.5
2026-01-07T1200,4027A,75.9485,39.4688,喀什地区,老干局,细颗粒物(PM2.5),294,317,114,244,86,7,,10,8,50,26,6,2,5.4,2.1
2026-01-07T1200,1824A,114.3389,34.778,开封市,肿瘤医院,,48,48,39,25,18,63,,57,54,16,19,8,9,0.6,0.6
2026-01-07T1200,1826A,114.2884,34.7966,开封市,世纪星幼儿园,颗粒物(PM10),52,54,35,29,17,63,,63,63,18,20,6,3,0.4,0.4
2026-01-07T1200,3147A,114.3434,34.8101,开封市,龙亭公园,,50,50,49,32,14,62,,52,51,22,21,10,8,0.4,0.5
2026-01-07T1200,3210A,114.3645,34.7955,开封市,汴京公园,颗粒物(PM10),55,59,50,27,18,58,,50,48,19,21,7,6,0.6,0.5
2026-01-07T1200,3473A,114.2485,34.8306,开封市,技师学院,,,,33,,18,,,45,41,,20,,6,0.7,0.6
2026-01-07T1200,3592A,114.4518,34.7503,开封市,祥符区生态环境局,,50,50,43,23,18,62,,55,52,20,23,6,5,0.5,0.5
2026-01-07T1200,1951A,84.886,45.6029,克拉玛依市,长征新村,细颗粒物(PM2.5),92,90,119,68,83,14,,34,33,60,42,6,4,1.5,1.1
2026-01-07T1200,1952A,84.8894,45.5827,克拉玛依市,南林小区,颗粒物(PM10),74,97,119,47,67,22,,22,22,35,28,4,4,1.5,1.4
2026-01-07T1200,1954A,84.896,44.3328,克拉玛依市,独山子区,细颗粒物(PM2.5),138,157,220,105,138,54,,55,45,36,46,5,6,1.0,1.3
2026-01-07T1200,1955A,85.6888,46.0909,克拉玛依市,乌尔禾区商贸楼,细颗粒物(PM2.5),117,113,87,88,74,10,,29,19,52,38,6,5,1.8,1.2
2026-01-07T1200,3612A,85.1045,45.6895,克拉玛依市,白碱滩区新站,细颗粒物(PM2.5),169,258,132,128,89,3,,37,19,23,13,9,7,1.6,0.9
2026-01-07T1200,2697A,76.1457,39.7143,克孜勒苏柯尔克孜自治州,市人民政府,细颗粒物(PM2.5),84,89,93,62,63,24,,25,23,12,18,5,5,0.3,0.5
2026-01-07T1200,3665A,76.1654,39.7157,克孜勒苏柯尔克孜自治州,克州文化中心,细颗粒物(PM2.5),85,105,76,63,61,14,,29,18,21,14,2,2,1.2,0.9
2026-01-07T1200,1450A,102.8203,24.889,昆明市,呈贡新区,,,14,20,14,17,35,,37,37,,14,2,3,0.7,0.7
2026-01-07T1200,1452A,102.7253,25.0904,昆明市,龙泉镇,,,,23,24,19,,,23,19,,14,2,2,0.9,0.9
2026-01-07T1200,1453A,102.7267,25.0378,昆明市,东风东路,,49,49,37,30,22,29,,31,31,27,23,4,3,0.7,0.7
2026-01-07T1200,1454A,102.6744,25.0671,昆明市,金鼎山,,40,36,32,28,21,27,,24,24,25,18,2,2,0.9,0.8
2026-01-07T1200,1455A,102.6643,25.0401,昆明市,碧鸡广场,,36,36,27,25,20,25,,27,27,31,23,2,2,0.7,0.6
2026-01-07T1200,3179A,102.7491,25.012,昆明市,官渡区博物馆,,35,28,33,24,21,29,,30,30,28,29,2,2,0.8,0.8
2026-01-07T1200,3375A,102.8016,24.8336,昆明市,青年创业园,,36,32,24,25,17,39,,34,34,8,9,3,3,0.7,0.7
2026-01-07T1200,3550A,102.8,24.9787,昆明市,昆明学院,,22,18,30,15,21,37,,38,38,19,20,2,2,0.9,0.9
2026-01-07T1200,3551A,102.5969,24.6738,昆明市,晋宁区生态环境分局,,,39,25,34,16,21,,26,25,15,13,,2,,0.8
2026-01-07T1200,3552A,102.6673,24.9861,昆明市,云天化总部,,33,33,36,21,21,29,,32,32,26,27,4,4,0.9,0.9
2026-01-07T1200,1456A,91.132,29.6515,拉萨市,八廓街,颗粒物(PM10),54,58,46,36,21,70,,52,48,16,22,8,8,0.8,1
2026-01-07T1200,1457A,91.1221,29.6748,拉萨市,市环保局,细颗粒物(PM2.5),53,52,78,37,48,58,,21,21,18,33,8,11,0.7,1.9
2026-01-07T1200,1458A,91.0874,29.6476,拉萨市,区监测站,,38,38,36,18,17,72,,59,59,12,38,4,5,0.8,1.2
2026-01-07T1200,1459A,91.1774,29.6541,拉萨市,西藏大学,,45,45,43,23,22,63,,44,44,25,33,6,7,0.6,0.8
2026-01-07T1200,1460A,90.9798,29.6586,拉萨市,区辐射站,颗粒物(PM10),56,61,55,31,29,57,,37,37,28,40,5,5,0.6,0.9
2026-01-07T1200,1461A,91.0831,29.6292,拉萨市,拉萨火车站,颗粒物(PM10),51,51,38,14,14,72,,76,65,14,19,4,4,0.5,0.6
2026-01-07T1200,2520A,109.2203,23.7252,来宾市,来宾技工学校,,40,39,41,28,29,83,,49,49,9,14,9,8,0.5,0.5
2026-01-07T1200,3535A,109.1781,23.7293,来宾市,兴宾区政府,细颗粒物(PM2.5),53,46,46,37,37,86,,45,45,8,11,11,6,0.7,0.5
2026-01-07T1200,4002A,109.2312,23.7428,来宾市,中南小学,,43,43,45,25,35,85,,41,41,9,19,7,7,0.5,0.6
2026-01-07T1200,1479A,103.8309,36.0467,兰州市,铁路设计院,,,,,,,,,,,,,,,,
2026-01-07T1200,3241A,103.7439,36.0841,兰州市,百合公园,,,,85,,62,,,4,3,51,61,,19,2.1,1.7
2026-01-07T1200,3242A,103.9613,35.9985,兰州市,和平,细颗粒物(PM2.5),122,109,82,92,68,39,,18,18,43,41,23,12,2.0,1.4
2026-01-07T1200,4236A,103.629272,36.093822,兰州市,庄浪东路808号,细颗粒物(PM2.5),112,111,91,84,61,29,,16,16,61,54,43,21,1.8,1.2
2026-01-07T1200,4237A,103.7251,36.104344,兰州市,安宁西路88号,,,,98,,59,41,,11,11,51,67,49,18,1.7,1.2
2026-01-07T1200,4238A,103.846982,36.067567,兰州市,北滨河东路1号,细颗粒物(PM2.5),77,91,81,56,52,25,,7,7,60,63,32,15,2.6,1.6
2026-01-07T1200,1067A,116.6712,39.5109,廊坊市,药材公司,,20,10,52,3,38,62,,53,53,15,33,2,3,0.5,0.7
2026-01-07T1200,1068A,116.7215,39.5592,廊坊市,开发区,,,10,51,3,31,64,,51,51,13,40,3,3,,0.5
2026-01-07T1200,1070A,116.7246,39.5273,廊坊市,北华航天学院,,20,15,55,3,30,64,,50,50,15,32,1,3,0.3,0.5
2026-01-07T1200,2919A,116.7022,39.5454,廊坊市,河北工业大学,,22,22,58,6,32,63,,50,50,16,35,3,4,0.2,0.4
2026-01-07T1200,2536A,103.7629,29.5844,乐山市,牛耳桥,,,68,51,59,43,,,10,8,34,28,,8,0.8,0.6
2026-01-07T1200,2537A,103.7501,29.6002,乐山市,市第三水厂,细颗粒物(PM2.5),77,72,53,56,44,15,,8,8,35,33,7,6,0.8,0.7
2026-01-07T1200,2538A,103.7571,29.5664,乐山市,市监测站,细颗粒物(PM2.5),77,74,53,56,44,12,,11,8,32,27,8,8,0.9,0.7
2026-01-07T1200,3361A,103.7313,29.563,乐山市,理工大学,细颗粒物(PM2.5),62,63,54,44,42,15,,10,9,29,28,6,5,0.8,0.6
2026-01-07T1200,2599A,100.2497,26.8802,丽江市,丽江古城,,49,,27,34,14,87,,78,78,8,11,8,8,0.4,0.6
2026-01-07T1200,2600A,100.2203,26.8906,丽江市,市中心,,27,19,20,11,12,85,,73,70,10,13,8,8,0.3,0.4
2026-01-07T1200,1267A,119.9141,28.4513,丽水市,监测站大楼,细颗粒物(PM2.5),64,64,36,46,30,51,,14,14,33,27,8,6,0.8,0.8
2026-01-07T1200,1268A,119.93,28.4589,丽水市,莲都小学,细颗粒物(PM2.5),58,58,43,41,30,59,,15,15,25,29,/,/,/,/
2026-01-07T1200,1269A,119.8794,28.4232,丽水市,余庄前,,,74,40,59,32,51,,11,11,,18,,4,0.5,0.4
2026-01-07T1200,1173A,119.1759,34.5885,连云港市,市环境监测站,细颗粒物(PM2.5),156,146,186,119,159,41,,14,14,38,40,18,15,1.2,1.2
2026-01-07T1200,3000A,119.3577,34.6971,连云港市,德源药业,颗粒物(PM10),82,114,195,58,154,49,,13,13,38,44,8,5,0.8,0.7
2026-01-07T1200,3007A,119.178,34.8442,连云港市,新城一中,细颗粒物(PM2.5),82,106,202,60,178,52,,14,14,31,41,19,13,1.7,1.4
2026-01-07T1200,3008A,119.3607,34.7519,连云港市,胡沟管理处,细颗粒物(PM2.5),110,117,180,83,148,45,,22,22,39,49,19,10,1.6,1.3
2026-01-07T1200,3009A,119.1478,34.5913,连云港市,矿山设计院,细颗粒物(PM2.5),125,136,196,95,150,51,,16,16,30,38,12,12,1.3,1.3
2026-01-07T1200,3434A,119.2414,34.6539,连云港市,工贸学校,细颗粒物(PM2.5),112,97,177,84,149,48,,26,26,32,33,23,15,1.4,1.1
2026-01-07T1200,3664A,119.4171,34.734,连云港市,连云街道,细颗粒物(PM2.5),90,94,137,67,109,43,,39,39,44,33,12,8,1.2,1
2026-01-07T1200,2573A,102.2629,27.8981,凉山彝族自治州,西昌市政府,细颗粒物(PM2.5),97,,27,72,26,47,,39,39,24,15,9,6,1.2,0.9
2026-01-07T1200,2574A,102.2686,27.885,凉山彝族自治州,凉山州政府,,38,31,24,26,19,44,,40,40,22,13,8,7,0.4,0.5
2026-01-07T1200,4229A,102.2342,27.8859,凉山彝族自治州,凯乐南路30号,,31,31,21,21,12,48,,48,37,21,18,7,6,0.8,0.7
2026-01-07T1200,2212A,123.1978,41.2036,辽阳市,宏伟区,颗粒物(PM10),78,105,51,13,31,59,,56,54,4,17,4,8,0.3,0.7
2026-01-07T1200,2213A,123.1684,41.2497,辽阳市,新华园,颗粒物(PM10),56,62,57,9,22,60,,56,54,6,22,6,9,0.5,0.8
2026-01-07T1200,2214A,123.2355,41.2663,辽阳市,滨河路,,49,49,65,11,24,58,,58,56,3,19,4,7,0.3,0.6
2026-01-07T1200,4083A,123.153,41.2874,辽阳市,铁西路150号,,,65,66,7,26,52,,61,57,6,24,,14,0.8,1.2
2026-01-07T1200,2227A,125.1359,42.8845,辽源市,环保局,颗粒物(PM10),60,69,77,16,16,62,,62,58,7,12,5,6,0.4,0.5
2026-01-07T1200,4085A,125.0998,42.9134,辽源市,安宁大街333号,,29,29,63,12,14,65,,68,65,8,12,7,8,0.3,0.3
2026-01-07T1200,1625A,115.9789,36.4372,聊城市,区政府,,,20,73,3,42,,,40,40,24,44,11,15,0.6,0.9
2026-01-07T1200,3200A,115.9772,36.4986,聊城市,监控中心,,50,50,83,24,50,60,,31,31,25,43,22,15,0.7,0.8
2026-01-07T1200,3513A,116.0443,36.436,聊城市,九州社区,,40,40,88,12,47,78,,51,51,12,27,4,8,0.3,0.6
2026-01-07T1200,4018A,116.0564,36.4609,聊城市,星美广场,,36,36,90,9,45,64,,32,32,13,28,4,7,0.3,0.7
2026-01-07T1200,4113A,116.0091,36.4495,聊城市,利民路,,26,26,79,11,39,61,,34,34,21,38,3,9,0.3,0.6
2026-01-07T1200,2632A,94.3683,29.6373,林芝市,林芝监测站,,25,11,8,3,6,79,,82,78,2,3,3,4,0.3,0.3
2026-01-07T1200,2633A,94.3616,29.6634,林芝市,林芝人民医院,,23,16,13,6,7,71,,74,67,4,4,6,6,0.5,0.5
2026-01-07T1200,2603A,100.0779,23.8981,临沧市,市环保局,,30,30,34,19,43,44,,22,19,10,8,11,7,0.6,0.5
2026-01-07T1200,2604A,100.0894,23.882,临沧市,市气象局,,42,42,35,24,24,41,,18,16,13,11,7,6,0.6,0.5
2026-01-07T1200,1733A,111.5552,36.0791,临汾市,临钢医院,颗粒物(PM10),68,86,56,39,30,50,,40,29,23,24,11,8,0.8,0.7
2026-01-07T1200,1734A,111.4984,36.0734,临汾市,技工学校,颗粒物(PM10),60,69,56,34,34,52,,25,25,16,31,8,9,0.7,1
2026-01-07T1200,1736A,111.5017,36.0857,临汾市,市委,颗粒物(PM10),63,75,61,33,25,56,,32,32,20,31,12,11,0.9,0.9
2026-01-07T1200,3018A,111.5048,36.1015,临汾市,唐尧大酒店,颗粒物(PM10),66,81,59,34,23,58,,47,47,20,25,7,6,0.9,0.9
2026-01-07T1200,4244A,111.4879,36.053,临汾市,启星学校,颗粒物(PM10),58,66,57,31,39,59,,21,21,24,39,12,9,1.0,1
2026-01-07T1200,4271A,103.2464,35.6123,临夏回族自治州,滨河东路1号,细颗粒物(PM2.5),123,168,144,93,88,43,,23,23,32,29,5,5,1.5,1.4
2026-01-07T1200,4310A,103.207136,35.599807,临夏回族自治州,新华街21号,细颗粒物(PM2.5),145,170,121,111,85,35,,17,17,43,31,10,10,1.9,1.3
2026-01-07T1200,1618A,118.3429,35.0532,临沂市,沂河小区,细颗粒物(PM2.5),103,100,177,77,150,44,,15,15,39,52,14,15,0.9,1.2
2026-01-07T1200,1619A,118.2962,35.0568,临沂市,鲁南制药厂,细颗粒物(PM2.5),75,88,179,55,139,51,,16,16,35,57,15,17,0.7,1.2
2026-01-07T1200,1620A,118.2793,34.9976,临沂市,新光毛纺厂,细颗粒物(PM2.5),78,78,177,57,144,53,,17,17,29,48,15,14,0.8,1.2
2026-01-07T1200,1621A,118.3955,35.0889,临沂市,河东保险公司,细颗粒物(PM2.5),94,92,171,70,132,47,,14,14,33,43,15,13,0.8,1.2
2026-01-07T1200,3370A,118.3563,35.0215,临沂市,十里堡居委,细颗粒物(PM2.5),85,107,181,63,131,38,,13,13,52,54,16,14,1.1,1.5
2026-01-07T1200,3496A,118.359,35.1067,临沂市,南坊新区,细颗粒物(PM2.5),73,88,162,53,126,52,,17,17,34,55,14,13,1.0,1.1
2026-01-07T1200,3860A,118.3915,35.0297,临沂市,皇山花园小区,细颗粒物(PM2.5),94,119,179,70,127,45,,16,16,46,52,17,16,1.0,1.3
2026-01-07T1200,1870A,109.4854,24.3898,柳州市,柳东小学,细颗粒物(PM2.5),57,44,44,40,39,77,,53,53,8,9,8,8,0.5,0.6
2026-01-07T1200,1871A,109.4109,24.3304,柳州市,环保监测站,细颗粒物(PM2.5),52,37,51,36,38,73,,42,42,10,23,6,7,0.5,0.6
2026-01-07T1200,1872A,109.3886,24.3408,柳州市,河西水厂,颗粒物(PM10),51,52,64,28,45,75,,27,27,12,28,7,10,0.5,0.6
2026-01-07T1200,1873A,109.4263,24.2951,柳州市,市四中,,,47,46,29,32,74,,48,48,13,24,,10,0.4,0.7
2026-01-07T1200,1874A,109.396,24.3658,柳州市,市九中,细颗粒物(PM2.5),64,,53,46,41,76,,34,34,12,25,9,12,0.5,0.8
2026-01-07T1200,1875A,109.4912,24.3164,柳州市,古亭山,颗粒物(PM10),53,56,37,26,25,77,,50,50,8,20,10,10,0.6,0.7
2026-01-07T1200,3402A,109.5422,24.3994,柳州市,市二中,,42,42,42,26,36,80,,36,36,10,20,9,8,0.4,0.5
2026-01-07T1200,2307A,116.5078,31.7369,六安市,监测大楼,,29,29,39,17,28,74,,54,54,12,20,4,3,0.7,0.5
2026-01-07T1200,2308A,116.4738,31.7642,六安市,皖西学院,,32,32,42,17,28,81,,57,57,12,21,6,4,0.4,0.4
2026-01-07T1200,2309A,116.4997,31.7904,六安市,朝阳厂,,33,33,37,14,24,79,,66,62,12,21,6,6,0.4,0.5
2026-01-07T1200,2310A,116.5566,31.7885,六安市,开发区,,43,43,45,19,31,75,,56,56,15,28,5,3,0.3,0.4
2026-01-07T1200,2577A,104.8293,26.592,六盘水市,黄土坡,细颗粒物(PM2.5),62,67,43,44,31,41,,47,40,23,15,17,11,1.0,0.8
2026-01-07T1200,2579A,104.8481,26.5898,六盘水市,民中,细颗粒物(PM2.5),67,54,40,48,32,38,,45,36,27,17,5,5,0.7,0.6
2026-01-07T1200,2580A,104.9541,26.5506,六盘水市,双水,,,58,37,37,28,56,,49,48,8,9,,4,0.6,0.4
2026-01-07T1200,4151A,104.8899,26.5685,六盘水市,钟山大道中段564号,颗粒物(PM10),61,72,47,39,29,54,,50,49,11,10,6,7,0.9,0.9
2026-01-07T1200,2336A,117.022,25.1031,龙岩市,龙岩市监测站,,48,48,26,23,21,94,,62,62,10,15,10,20,0.4,0.5
2026-01-07T1200,2337A,117.0257,25.0662,龙岩市,闽西职业技术学院,,,79,27,21,20,99,,55,55,,14,,6,0.4,0.4
2026-01-07T1200,2338A,117.0195,25.0306,龙岩市,龙岩学院,,30,27,27,17,23,93,,54,54,6,9,7,7,/,/
2026-01-07T1200,2885A,104.9344,33.3827,陇南市,滨江中学,,,45,81,31,45,,,18,17,21,47,10,15,1.1,2
2026-01-07T1200,3247A,104.9551,33.3709,陇南市,市总工会,细颗粒物(PM2.5),65,78,115,47,39,38,,26,21,34,30,14,9,1.0,0.9
2026-01-07T1200,2488A,111.9984,27.7346,娄底市,市监测站,细颗粒物(PM2.5),105,115,79,79,62,32,,11,11,53,41,54,15,2.2,1.3
2026-01-07T1200,2491A,111.9888,27.7035,娄底市,市政府,细颗粒物(PM2.5),85,100,62,63,51,62,,16,16,20,21,8,6,1.0,1
2026-01-07T1200,4127A,111.9812,27.7591,娄底市,涟钢职大,颗粒物(PM10),73,96,73,46,45,29,,16,14,52,31,41,10,5.4,1.8
2026-01-07T1200,4128A,112.0303,27.7457,娄底市,娄底体校,细颗粒物(PM2.5),115,126,59,87,44,15,,5,5,68,22,46,6,4.5,1
2026-01-07T1200,1894A,105.4427,28.9063,泸州市,小市上码头,细颗粒物(PM2.5),98,92,76,73,55,16,,26,13,44,29,10,9,1.2,1
2026-01-07T1200,1895A,105.4241,28.8573,泸州市,兰田宪桥,,,90,70,71,59,15,,13,13,33,26,8,8,,1
2026-01-07T1200,1896A,105.4378,28.8833,泸州市,市环监站,细颗粒物(PM2.5),95,92,73,71,54,9,,16,12,47,38,8,8,1.2,1
2026-01-07T1200,4272A,105.3689,28.7783,泸州市,纳溪中医医院,细颗粒物(PM2.5),92,90,73,68,56,16,,7,7,30,24,8,8,0.9,0.9
2026-01-07T1200,2183A,111.1447,37.5212,吕梁市,环保局,颗粒物(PM10),75,99,76,30,29,34,,7,7,29,36,8,6,0.6,0.5
2026-01-07T1200,2185A,111.1285,37.5338,吕梁市,自来水公司,颗粒物(PM10),83,115,102,26,38,46,,9,9,17,31,8,9,0.5,0.5
2026-01-07T1200,2867A,111.1225,37.5093,吕梁市,马茂庄小学,颗粒物(PM10),89,128,92,24,32,40,,8,8,25,39,10,8,0.6,0.7
2026-01-07T1200,1812A,112.3934,34.6517,洛阳市,市委党校,,42,42,35,23,19,70,,61,58,14,15,10,9,0.4,0.3
2026-01-07T1200,1815A,112.494,34.6883,洛阳市,河南林校,颗粒物(PM10),57,63,51,19,19,68,,53,49,18,21,15,12,0.6,0.6
2026-01-07T1200,1816A,112.3843,34.623,洛阳市,开发区管委会,,41,41,34,21,18,69,,57,57,11,15,10,10,0.3,0.3
2026-01-07T1200,1817A,112.4263,34.6249,洛阳市,市委新办公区,,41,41,34,27,24,72,,64,60,8,13,10,9,0.5,0.4
2026-01-07T1200,3340A,112.6005,34.6323,洛阳市,伊滨,,,,35,,22,67,,59,52,,16,,7,0.4,0.5
2026-01-07T1200,3341A,112.495,34.6338,洛阳市,中移产业园,,47,47,37,25,24,72,,58,54,16,19,10,9,0.4,0.3
2026-01-07T1200,3593A,112.5736,34.8993,洛阳市,吉利监测站,,47,47,35,25,18,80,,60,60,15,22,8,8,0.7,0.6
2026-01-07T1200,3635A,112.3678,34.6623,洛阳市,河科大西苑校区,,50,50,39,24,20,71,,61,58,12,13,10,9,0.5,0.4
2026-01-07T1200,3636A,112.4387,34.678,洛阳市,英才小学,颗粒物(PM10),54,57,44,31,27,75,,61,56,22,26,13,11,0.5,0.5
2026-01-07T1200,4214A,112.460027,34.694929,洛阳市,春都路1号院,颗粒物(PM10),57,64,52,25,20,67,,55,53,18,18,14,12,0.7,0.6
2026-01-07T1200,2399A,114.051,33.5721,漯河市,三五一五工厂,颗粒物(PM10),61,72,43,23,20,76,,63,62,11,12,9,8,0.6,0.6
2026-01-07T1200,2400A,114.0055,33.5698,漯河市,漯河大学,颗粒物(PM10),55,60,40,22,16,75,,62,61,14,20,7,7,0.6,0.5
2026-01-07T1200,2401A,114.0134,33.5826,漯河市,市水利局,颗粒物(PM10),51,51,36,27,20,73,,55,55,16,20,9,8,0.7,0.6
2026-01-07T1200,2402A,114.0261,33.5697,漯河市,市广电局,,,54,34,34,17,78,,64,64,,12,9,8,0.7,0.5
2026-01-07T1200,3478A,113.9691,33.568,漯河市,市图书馆,颗粒物(PM10),56,61,37,30,21,66,,53,52,8,11,6,6,0.6,0.5
2026-01-07T1200,4250A,114.089259,33.588274,漯河市,韶山路11号,颗粒物(PM10),56,62,39,28,19,65,,59,56,16,15,8,7,0.5,0.4
2026-01-07T1200,1798A,118.5084,31.6838,马鞍山市,湖东路四小,颗粒物(PM10),61,72,64,33,45,69,,40,40,17,27,5,5,0.5,0.6
2026-01-07T1200,1799A,118.5019,31.6449,马鞍山市,开发区,细颗粒物(PM2.5),62,67,68,44,50,68,,34,34,18,36,6,4,0.6,0.6
2026-01-07T1200,3633A,118.4914,31.681,马鞍山市,雨山,颗粒物(PM10),60,70,69,38,45,73,,40,40,19,33,7,7,0.5,0.6
2026-01-07T1200,4191A,118.527362,31.722269,马鞍山市,慈湖高新区,,,49,63,32,43,,,29,29,29,40,9,8,1.4,1
2026-01-07T1200,1686A,111.0285,21.469,茂名市,电白南海,细颗粒物(PM2.5),55,58,60,39,38,91,,67,66,14,17,13,14,0.5,0.7
2026-01-07T1200,1687A,110.9294,21.6533,茂名市,茂石化七小,颗粒物(PM10),54,58,49,34,34,89,,69,69,15,15,16,11,0.5,0.6
2026-01-07T1200,1688A,110.9108,21.6688,茂名市,健康路,细颗粒物(PM2.5),52,41,43,36,33,98,,74,74,18,19,15,17,0.5,0.7
2026-01-07T1200,1689A,110.8592,21.6826,茂名市,高岭,,,48,57,19,32,,,60,56,15,18,10,22,/,/
2026-01-07T1200,3450A,111.0101,21.5165,茂名市,电白水东,,49,48,52,34,36,93,,73,73,9,11,11,11,/,/
2026-01-07T1200,2540A,103.8414,30.0871,眉山市,气象局,,,59,60,58,45,29,,10,10,36,31,,9,0.7,0.7
2026-01-07T1200,3148A,103.829,30.0563,眉山市,区人社局,细颗粒物(PM2.5),77,66,56,56,39,22,,24,13,44,27,6,6,0.8,0.7
2026-01-07T1200,4148A,103.8836,30.0695,眉山市,眉职院,颗粒物(PM10),62,73,50,42,30,33,,14,7,30,26,2,2,0.6,0.6
2026-01-07T1200,1690A,116.1248,24.3307,梅州市,梅江月梅,,35,34,34,24,23,82,,32,32,16,22,/,/,/,/
2026-01-07T1200,1691A,116.0798,24.2719,梅州市,梅县新城,,49,37,32,34,34,81,,28,28,19,21,8,7,0.5,0.5
2026-01-07T1200,3315A,116.1234,24.2994,梅州市,梅龙,,35,31,37,24,23,80,,31,31,13,16,8,11,0.5,0.5
2026-01-07T1200,1878A,104.7775,31.4741,绵阳市,富乐山,细颗粒物(PM2.5),72,70,56,52,44,42,,14,13,19,21,11,11,0.8,0.7
2026-01-07T1200,1880A,104.6698,31.4668,绵阳市,高新区自来水公司,"颗粒物(PM10),细颗粒物(PM2.5)",70,90,97,51,58,28,,7,7,32,45,9,9,0.8,0.9
2026-01-07T1200,3491A,104.6899,31.5324,绵阳市,西科大附属小学,,,94,95,56,60,21,,6,6,,45,,9,1.3,1.1
2026-01-07T1200,3492A,104.5647,31.5343,绵阳市,安州区旅游局,细颗粒物(PM2.5),92,96,87,68,65,38,,12,12,31,40,14,12,1.0,1.2
2026-01-07T1200,4146A,104.7092,31.4972,绵阳市,科技城新区公安局,细颗粒物(PM2.5),78,85,80,57,58,22,,5,5,38,43,3,3,0.8,0.7
2026-01-07T1200,4226A,104.765114,31.453094,绵阳市,绵阳市气象局,细颗粒物(PM2.5),78,74,71,57,52,21,,4,4,34,37,12,8,1.0,0.9
2026-01-07T1200,1784A,129.61,44.561,牡丹江市,环保大楼,,49,49,70,18,41,61,,43,43,9,33,4,8,0.3,0.7
2026-01-07T1200,1787A,129.6364,44.6075,牡丹江市,机车工厂,,35,34,90,24,49,56,,31,31,10,43,4,22,0.3,0.8
2026-01-07T1200,1788A,129.6386,44.5462,牡丹江市,第一中学,,,45,61,32,44,58,,32,32,6,36,,9,0.4,0.8
2026-01-07T1200,4287A,129.5992,44.5964,牡丹江市,东晓云街98号,,39,39,75,23,58,57,,35,35,8,36,4,10,0.4,0.9
2026-01-07T1200,2531A,105.0703,29.61,内江市,市监测站,细颗粒物(PM2.5),89,,61,66,52,23,,16,16,39,26,6,5,1.0,0.7
2026-01-07T1200,2533A,105.0657,29.5807,内江市,内江二中,细颗粒物(PM2.5),80,71,69,59,55,39,,12,12,40,34,6,4,0.9,0.8
2026-01-07T1200,2534A,105.0407,29.5828,内江市,内江日报社,,,,53,,44,,,4,4,41,41,3,2,0.8,0.7
2026-01-07T1200,4147A,105.0433,29.6105,内江市,玉峰路西段888号,细颗粒物(PM2.5),83,94,70,61,47,24,,14,14,40,30,5,4,0.9,0.7
2026-01-07T1200,2628A,92.0653,31.4846,那曲市,那曲监测站,细颗粒物(PM2.5),105,101,48,79,33,49,,34,34,41,29,17,13,2.0,1.5
2026-01-07T1200,4243A,92.0515,31.4787,那曲市,那曲市委宣传部,,39,39,27,24,17,45,,21,21,18,20,7,8,1.0,1.2
2026-01-07T1200,1291A,115.8887,28.7006,南昌市,省林业公司,细颗粒物(PM2.5),52,51,47,36,32,60,,24,24,30,37,14,5,0.6,0.6
2026-01-07T1200,1292A,115.813,28.7443,南昌市,林科所,颗粒物(PM10),53,56,31,34,24,68,,37,35,26,28,19,7,0.5,0.4
2026-01-07T1200,1294A,115.8518,28.687,南昌市,建工学校,细颗粒物(PM2.5),60,68,48,43,31,59,,21,21,20,28,28,14,0.6,0.6
2026-01-07T1200,1295A,115.8926,28.6425,南昌市,象湖,细颗粒物(PM2.5),58,42,44,41,34,65,,24,24,24,40,22,10,0.7,0.8
2026-01-07T1200,3046A,115.9084,28.6062,南昌市,机电学校,细颗粒物(PM2.5),58,56,53,41,34,70,,28,28,22,37,17,6,0.6,0.6
2026-01-07T1200,3690A,115.9718,28.7032,南昌市,外国语学校,细颗粒物(PM2.5),74,,45,54,38,66,,29,29,21,39,15,12,0.5,0.6
2026-01-07T1200,4106A,115.7923,28.6873,南昌市,工业二路,细颗粒物(PM2.5),55,51,36,39,24,61,,20,20,30,36,18,6,0.4,0.4
2026-01-07T1200,4192A,115.931587,28.686774,南昌市,南京东路235号,"颗粒物(PM10),细颗粒物(PM2.5)",53,56,50,37,36,74,,30,30,32,42,11,6,0.3,0.4
2026-01-07T1200,1906A,106.0791,30.8022,南充市,南充市委,,,81,60,56,46,,,4,4,42,37,6,5,0.9,0.7
2026-01-07T1200,1907A,106.1038,30.8215,南充市,南充炼油厂,细颗粒物(PM2.5),82,97,79,60,57,6,,3,3,35,38,6,6,0.6,0.6
2026-01-07T1200,4227A,106.108336,30.788436,南充市,梨树横街98号,细颗粒物(PM2.5),68,71,62,49,44,15,,7,7,32,36,6,6,0.8,0.7
2026-01-07T1200,4304A,106.1172,30.843,南充市,清泉寺北路188号,细颗粒物(PM2.5),68,59,55,49,45,23,,19,19,13,28,6,7,0.3,0.4
2026-01-07T1200,4305A,106.067,30.7616,南充市,同庆路1号,细颗粒物(PM2.5),73,84,61,53,45,9,,4,4,44,40,7,6,0.9,1.3
2026-01-07T1200,1151A,118.8033,32.1085,南京市,迈皋桥,,,,47,,28,,,37,36,10,14,2,2,0.6,0.4
2026-01-07T1200,1152A,118.7487,32.057,南京市,草场门,,46,46,52,27,31,63,,35,35,24,28,7,6,0.3,0.3
2026-01-07T1200,1154A,118.770105,32.004342,南京市,中华门,,46,46,50,27,33,64,,31,31,25,26,6,5,0.4,0.5
2026-01-07T1200,1155A,118.8059,32.0329,南京市,瑞金路,,,44,54,31,36,62,,27,27,22,31,,4,0.6,0.7
2026-01-07T1200,1156A,118.7946,32.0774,南京市,玄武湖,颗粒物(PM10),51,52,50,30,28,58,,37,37,25,21,4,4,0.5,0.5
2026-01-07T1200,1157A,118.6415,32.0964,南京市,浦口,细颗粒物(PM2.5),52,49,52,36,33,77,,48,46,15,20,9,8,0.6,0.6
2026-01-07T1200,1158A,118.730129,32.000956,南京市,奥体中心,细颗粒物(PM2.5),52,48,54,36,35,70,,42,42,27,35,9,7,0.5,0.5
2026-01-07T1200,1159A,118.9072,32.1047,南京市,仙林大学城,,41,41,53,19,28,60,,23,23,19,32,7,6,0.6,0.7
2026-01-07T1200,3422A,118.8443,31.919,南京市,江宁彩虹桥,颗粒物(PM10),59,68,62,31,36,71,,28,28,20,27,7,5,0.5,0.6
2026-01-07T1200,3427A,118.8497,32.3599,南京市,六合雄州,颗粒物(PM10),51,52,45,33,30,69,,48,48,17,21,8,10,0.6,0.6
2026-01-07T1200,4086A,118.7641,32.0841,南京市,新模范马路66号,颗粒物(PM10),60,70,59,32,29,55,,28,28,24,26,7,5,0.7,0.8
2026-01-07T1200,4249A,118.8707617,31.34017673,南京市,汶溪路181号,细颗粒物(PM2.5),65,53,61,47,55,63,,46,46,29,24,8,6,0.8,0.6
2026-01-07T1200,4312A,119.019,31.6512,南京市,中山西路1号,,,61,58,59,58,40,,26,26,28,25,,4,0.9,0.7
2026-01-07T1200,1401A,108.3098,22.788,南宁市,二十一中,,37,37,28,25,16,62,,38,36,12,15,5,6,0.5,0.5
2026-01-07T1200,1402A,108.3135,22.8529,南宁市,北湖,,38,38,34,20,13,74,,41,41,12,22,5,8,0.6,0.7
2026-01-07T1200,1403A,108.3205,22.8222,南宁市,市监测站,,,46,34,30,23,67,,35,35,16,17,8,9,,0.6
2026-01-07T1200,1404A,108.3828,22.8038,南宁市,大自然花园,,43,43,29,24,19,78,,51,49,13,15,10,6,0.6,0.6
2026-01-07T1200,1406A,108.2397,22.8462,南宁市,区农职院,,35,32,39,24,22,70,,32,32,12,19,9,8,0.7,0.7
2026-01-07T1200,1407A,108.3285,22.7356,南宁市,英华嘉园,细颗粒物(PM2.5),53,38,32,37,15,72,,46,41,9,11,7,5,0.5,0.6
2026-01-07T1200,3401A,108.4829,22.762,南宁市,红星社区,,30,23,26,21,22,90,,66,66,4,7,6,6,0.5,0.6
2026-01-07T1200,4132A,108.2927,23.1477,南宁市,起凤路9号,,,,29,,25,76,,35,35,,13,,3,0.8,0.8
2026-01-07T1200,4221A,108.2177,22.7774,南宁市,乐贤路16号,,35,32,42,24,22,68,,31,31,12,17,4,7,0.4,0.5
2026-01-07T1200,2332A,118.1682,26.6371,南平市,南平市监测站,,40,32,30,28,24,68,,23,23,14,20,5,3,0.5,0.5
2026-01-07T1200,2334A,118.1757,26.6276,南平市,南平七中,,48,48,32,27,27,68,,25,25,14,19,8,4,0.6,0.5
2026-01-07T1200,1168A,120.9056,31.9669,南通市,狼山街道,,,,100,39,76,,,33,24,36,37,9,6,,1
2026-01-07T1200,1170A,120.8635,32.0231,南通市,城中,颗粒物(PM10),62,74,100,37,71,57,,35,35,28,35,8,5,0.6,0.7
2026-01-07T1200,1171A,120.9376,31.9301,南通市,星湖花园,,,81,106,48,83,36,,21,21,58,51,11,8,,1.3
2026-01-07T1200,1172A,120.8053,32.046,南通市,紫琅学院,颗粒物(PM10),60,70,102,32,73,63,,38,38,21,32,7,5,0.7,0.8
2026-01-07T1200,3291A,121.0631,32.0644,南通市,通州监测站,颗粒物(PM10),59,68,93,39,77,66,,42,42,25,37,10,5,0.7,0.8
2026-01-07T1200,3432A,120.9348,31.9874,南通市,环境教育馆,颗粒物(PM10),59,68,95,41,74,59,,41,36,33,41,10,7,0.7,0.8
2026-01-07T1200,4091A,120.8692,31.9885,南通市,洪江路,颗粒物(PM10),67,83,111,37,72,42,,28,24,45,48,10,5,0.6,0.7
2026-01-07T1200,2404A,112.5338,33.0086,南阳市,瓦房庄,细颗粒物(PM2.5),59,58,45,42,28,53,,33,20,22,19,7,6,0.6,0.6
2026-01-07T1200,2405A,112.5002,32.9734,南阳市,汉画馆,,,81,38,48,21,37,,42,24,37,20,7,6,,0.5
2026-01-07T1200,2406A,112.5778,33.0144,南阳市,气象站,颗粒物(PM10),55,59,45,34,23,55,,22,22,20,26,5,5,0.6,0.5
2026-01-07T1200,2407A,112.548,32.9687,南阳市,理工学院,颗粒物(PM10),56,61,39,37,20,44,,35,21,31,24,5,5,0.5,0.5
2026-01-07T1200,4008A,112.5233,32.9921,南阳市,卧龙区政府,颗粒物(PM10),55,60,37,36,25,48,,33,21,26,24,6,5,0.7,0.5
2026-01-07T1200,1234A,121.8352,29.9111,宁波市,区环保大楼,细颗粒物(PM2.5),64,73,90,46,72,75,,52,52,37,37,10,8,0.8,0.9
2026-01-07T1200,1235A,121.5595,29.8208,宁波市,万里学院,,50,49,84,35,67,82,,51,51,17,29,6,5,0.5,0.7
2026-01-07T1200,1236A,121.713,29.9564,宁波市,龙赛医院,细颗粒物(PM2.5),62,63,83,44,64,82,,56,56,24,32,5,4,0.6,0.7
2026-01-07T1200,1240A,121.5855,29.8635,宁波市,太古小学,细颗粒物(PM2.5),52,48,83,36,68,87,,57,57,13,21,3,2,0.5,0.7
2026-01-07T1200,1241A,121.5239,29.8673,宁波市,市环境监测中心,,,50,82,,56,78,,46,46,12,24,7,6,0.7,0.8
2026-01-07T1200,2871A,121.6156,29.9015,宁波市,万里国际学校,,50,50,85,34,68,81,,52,52,23,30,6,4,0.5,0.7
2026-01-07T1200,3710A,121.5593,29.8976,宁波市,白沙活动中心,,45,45,79,31,67,80,,52,52,21,30,6,4,0.5,0.7
2026-01-07T1200,4095A,121.8962,29.7529,宁波市,中科路88号,细颗粒物(PM2.5),67,57,75,48,70,84,,68,68,19,21,7,5,0.6,0.7
2026-01-07T1200,2341A,119.5387,26.6611,宁德市,宁德市监测站,颗粒物(PM10),54,58,29,27,23,71,,48,48,23,19,7,6,0.4,0.5
2026-01-07T1200,3209A,119.5231,26.6562,宁德市,宁德一中,,46,37,28,32,15,72,,61,61,21,12,5,5,0.5,0.5
2026-01-07T1200,2618A,98.859,25.8541,怒江傈僳族自治州,州监测站,,33,33,33,17,21,57,,39,39,7,12,8,6,0.4,0.4
2026-01-07T1200,2619A,98.8607,25.8168,怒江傈僳族自治州,泸水一中,,49,36,27,34,21,45,,24,24,12,16,6,6,0.6,0.6
2026-01-07T1200,1888A,101.6891,26.571,攀枝花市,弄弄坪,,45,38,44,31,29,51,,35,31,18,18,14,10,0.9,0.8
2026-01-07T1200,1889A,101.577,26.5914,攀枝花市,河门口,"颗粒物(PM10),细颗粒物(PM2.5)",64,77,55,46,35,33,,33,27,30,22,25,23,1.7,1.4
2026-01-07T1200,1891A,101.7365,26.4986,攀枝花市,仁和,细颗粒物(PM2.5),73,70,39,53,35,69,,22,22,20,21,20,10,1.2,0.9
2026-01-07T1200,2835A,101.7222,26.567,攀枝花市,四十中小,,41,41,44,26,27,52,,46,43,12,13,15,13,0.9,0.9
2026-01-07T1200,1604A,122.0303,41.1489,盘锦市,开发区,,20,20,42,12,18,62,,56,56,6,16,4,7,0.6,0.7
2026-01-07T1200,1605A,122.0486,41.0883,盘锦市,兴隆台,,27,27,38,9,17,63,,56,55,11,27,4,7,0.4,0.5
2026-01-07T1200,1606A,121.8297,41.1026,盘锦市,新生街道,,31,31,40,7,13,68,,46,46,9,35,4,8,0.3,0.4
2026-01-07T1200,1832A,113.3257,33.7423,平顶山市,新华旅馆,颗粒物(PM10),53,56,45,23,17,74,,69,68,14,13,7,6,0.4,0.3
2026-01-07T1200,1833A,113.2917,33.737,平顶山市,规划设计院,,,,31,,18,,,78,,,17,,7,,0.2
2026-01-07T1200,1834A,113.182,33.7738,平顶山市,平顶山工学院,,38,38,30,22,18,81,,64,64,13,12,8,8,0.2,0.2
2026-01-07T1200,3594A,112.8736,33.9068,平顶山市,石龙区,颗粒物(PM10),54,58,41,22,18,87,,74,74,13,19,6,6,0.4,0.4
2026-01-07T1200,4116A,113.284,33.7139,平顶山市,姚电大道23号,颗粒物(PM10),60,69,41,20,21,75,,62,62,16,18,9,9,0.5,0.4
2026-01-07T1200,2656A,106.6633,35.5338,平凉市,聚贤嘉苑,,,45,32,29,20,74,,43,41,,27,12,8,,0.7
2026-01-07T1200,2657A,106.7021,35.5307,平凉市,博物馆,颗粒物(PM10),52,53,41,34,26,64,,40,37,23,27,13,11,1.0,1
2026-01-07T1200,2348A,113.8384,27.6436,萍乡市,中医院,,,,87,,58,90,,32,32,38,32,20,6,2.7,1.2
2026-01-07T1200,2350A,113.8677,27.6438,萍乡市,市环保局,细颗粒物(PM2.5),89,83,76,66,64,99,,36,36,24,27,16,13,1.4,1
2026-01-07T1200,2351A,113.8663,27.6202,萍乡市,安源区政府,细颗粒物(PM2.5),80,73,80,59,66,65,,27,27,26,22,16,9,1.7,1.2
2026-01-07T1200,4107A,113.8686,27.6668,萍乡市,联洪村委会,细颗粒物(PM2.5),103,96,81,77,63,92,,61,61,31,28,14,6,1.7,1
2026-01-07T1200,2319A,119.0142,25.4324,莆田市,荔城区仓后路,,44,44,28,24,21,86,,80,80,12,10,/,/,/,/
2026-01-07T1200,2320A,119.0016,25.4553,莆田市,莆田市监测站,,30,23,23,18,19,96,,87,87,6,4,2,2,0.3,0.5
2026-01-07T1200,2321A,119.112,25.4561,莆田市,涵江区六中,,32,30,25,22,20,95,,78,78,5,9,/,/,0.5,0.5
2026-01-07T1200,2322A,119.1014,25.3215,莆田市,秀屿区政府,,,59,30,27,21,94,,73,73,,9,3,3,0.4,0.7
2026-01-07T1200,2392A,115.0312,35.7636,濮阳市,环保局,,50,50,50,16,23,56,,37,37,25,30,8,8,0.6,0.6
2026-01-07T1200,3021A,115,35.7667,濮阳市,濮水河管理处,颗粒物(PM10),52,54,63,22,28,55,,27,27,11,25,8,7,0.6,0.8
2026-01-07T1200,4118A,115.0552,35.7816,濮阳市,中原东路68号,,,60,64,22,29,54,,35,35,30,29,,8,,0.7
2026-01-07T1200,4216A,115.0923632,35.76857718,濮阳市,任丘路479号,颗粒物(PM10),51,52,62,10,35,54,,27,27,28,36,7,8,0.5,0.6
2026-01-07T1200,2601A,100.9801,22.7634,普洱市,市环保局,,,48,40,,18,,,26,26,5,10,4,4,0.4,0.4
2026-01-07T1200,2602A,100.9763,22.8237,普洱市,普洱第二中学,,35,35,35,13,15,57,,18,18,6,16,5,5,0.5,0.5
2026-01-07T1200,3345A,131.0413,45.7795,七台河市,中波台,细颗粒物(PM2.5),78,74,37,57,24,50,,44,43,14,14,6,7,0.7,0.5
2026-01-07T1200,3637A,131.0136,45.7688,七台河市,人民广场,,,102,46,67,32,51,,45,44,,20,7,9,,0.6
2026-01-07T1200,3684A,130.8639,45.8144,七台河市,新建矿广场,颗粒物(PM10),73,95,71,42,40,45,,27,27,14,31,8,12,0.4,0.4
2026-01-07T1200,1779A,123.9307,47.3641,齐齐哈尔市,安居小区,,,23,44,3,31,,,52,46,7,20,,9,0.4,0.6
2026-01-07T1200,1780A,123.9497,47.3389,齐齐哈尔市,中心广场,,18,18,40,9,26,52,,53,48,8,20,5,8,0.4,0.6
2026-01-07T1200,1781A,123.9483,47.3229,齐齐哈尔市,农牧车辆厂,,24,24,41,16,26,52,,52,47,5,20,4,4,0.3,0.4
2026-01-07T1200,1783A,123.9442,47.2994,齐齐哈尔市,市环境监测站,,28,28,41,7,26,59,,58,53,3,18,7,10,0.4,0.6
2026-01-07T1200,3662A,123.6341,47.2079,齐齐哈尔市,富区青少年活动中心,,29,29,58,12,34,55,,51,49,6,18,4,7,0.4,0.6
2026-01-07T1200,2591A,107.9765,26.5724,黔东南苗族侗族自治州,市环境监测站,细颗粒物(PM2.5),89,78,44,66,36,27,,12,12,29,22,7,3,0.9,0.7
2026-01-07T1200,2881A,107.8909,26.531,黔东南苗族侗族自治州,凯里学院,,,61,37,46,30,27,,16,16,,16,7,4,,0.8
2026-01-07T1200,2593A,107.5223,26.2371,黔南布依族苗族自治州,小围寨,细颗粒物(PM2.5),70,58,36,51,33,45,,10,10,15,12,17,8,1.0,0.9
2026-01-07T1200,3538A,107.5175,26.2977,黔南布依族苗族自治州,沙坝,,,61,44,46,36,47,,15,15,,13,12,7,0.9,0.9
2026-01-07T1200,2589A,104.9022,25.0943,黔西南布依族苗族自治州,场坝街,,,70,47,64,37,48,,48,44,,14,,8,0.7,0.7
2026-01-07T1200,2590A,104.8812,25.0994,黔西南布依族苗族自治州,坪东大道,细颗粒物(PM2.5),69,51,36,50,32,51,,46,41,17,16,16,8,0.8,0.7
2026-01-07T1200,2502A,108.6238,21.9667,钦州市,市环保站,颗粒物(PM10),57,63,48,27,25,85,,56,56,15,16,4,4,0.6,1
2026-01-07T1200,2503A,108.655,21.9481,钦州市,沙埠小学,颗粒物(PM10),59,68,57,32,21,89,,55,55,17,21,6,6,0.7,0.8
2026-01-07T1200,2504A,108.5989,21.7435,钦州市,港区一小,颗粒物(PM10),54,57,52,36,27,81,,48,48,14,22,8,8,0.6,0.7
2026-01-07T1200,3404A,108.5959,21.9634,钦州市,北职校,,,41,36,33,28,81,,59,59,,18,10,8,0.8,0.7
2026-01-07T1200,1046A,119.5247,39.9346,秦皇岛市,建设大厦,,22,20,35,10,23,69,,56,47,8,24,4,6,0.2,0.4
2026-01-07T1200,3132A,119.5979,39.938,秦皇岛市,文明里,,19,18,37,8,15,59,,61,57,16,23,8,10,0.3,0.3
2026-01-07T1200,4066A,119.7458,39.9952,秦皇岛市,南园路157号,,24,8,40,3,11,74,,63,63,6,23,2,5,0.3,0.4
2026-01-07T1200,4067A,119.5131,39.8858,秦皇岛市,翠岛大街1号,,20,16,31,3,9,64,,59,49,14,19,8,10,0.3,0.4
2026-01-07T1200,4198A,119.509013,39.825305,秦皇岛市,北戴河轮滑馆,,22,14,33,9,15,70,,64,61,8,19,5,6,0.4,0.5
2026-01-07T1200,1310A,120.404,36.0625,青岛市,市南区东部子站,颗粒物(PM10),73,95,185,44,128,51,,22,22,36,57,12,15,0.8,1.3
2026-01-07T1200,1311A,120.362344,36.10282,青岛市,四方区子站,,,,245,,148,,,17,17,38,62,8,11,,1.3
2026-01-07T1200,1312A,120.294373,36.054183,青岛市,市南区西部子站,细颗粒物(PM2.5),108,132,184,81,133,49,,24,24,37,57,8,9,1.0,1.3
2026-01-07T1200,1313A,120.4581,36.0858,青岛市,崂山区子站,颗粒物(PM10),63,75,176,34,123,60,,22,22,31,59,13,16,0.8,1.5
2026-01-07T1200,1315A,120.3945,36.3083,青岛市,城阳区子站,颗粒物(PM10),69,88,194,37,112,65,,25,25,27,64,14,15,0.8,1.6
2026-01-07T1200,3642A,120.3454,36.0735,青岛市,市北区南部,颗粒物(PM10),104,157,197,58,134,35,,14,14,44,56,12,8,1.0,1.2
2026-01-07T1200,3643A,120.3897,36.18,青岛市,李沧区北部,细颗粒物(PM2.5),64,75,179,46,143,56,,16,16,28,64,12,14,0.8,1.5
2026-01-07T1200,4110A,120.5222,36.4089,青岛市,盟旺路653号,颗粒物(PM10),53,55,190,19,129,70,,21,21,19,60,6,12,0.4,1.2
2026-01-07T1200,4290A,120.196923,35.954556,青岛市,珠江路669号,,,63,157,32,125,,,37,28,32,44,15,14,0.6,1.2
2026-01-07T1200,4291A,120.0424,35.8656,青岛市,黄岛区人民政府广场,颗粒物(PM10),68,85,181,36,140,70,,35,35,27,59,12,12,0.8,1.4
2026-01-07T1200,1703A,113.0218,23.7086,清远市,凤城街办,,35,30,37,24,31,92,,82,82,13,16,/,/,/,/
2026-01-07T1200,3025A,113.0479,23.6343,清远市,技师学院,,,39,45,25,30,83,,67,67,,23,8,8,,0.7
2026-01-07T1200,3318A,112.9898,23.7403,清远市,清新太和,,32,27,37,22,28,101,,91,91,8,11,6,5,0.5,0.5
2026-01-07T1200,3455A,113.076,23.72,清远市,清城东城,,38,34,40,26,29,89,,78,78,15,15,/,/,/,/
2026-01-07T1200,2661A,107.6325,35.7357,庆阳市,庆阳五中,,38,38,36,20,17,81,,75,71,10,12,6,5,0.5,0.5
2026-01-07T1200,2662A,107.6361,35.7067,庆阳市,市环保局,颗粒物(PM10),51,51,41,20,17,78,,77,74,8,8,2,2,0.4,0.4
2026-01-07T1200,1916A,103.7897,25.5036,曲靖市,环境监测站,细颗粒物(PM2.5),53,49,36,37,19,45,,41,40,18,15,3,4,1.2,1
2026-01-07T1200,1917A,103.8013,25.5357,曲靖市,烟厂办公区,颗粒物(PM10),51,51,32,22,19,41,,43,40,19,15,4,5,0.7,0.6
2026-01-07T1200,3376A,103.7926,25.4651,曲靖市,南苑二区,细颗粒物(PM2.5),57,53,35,40,20,50,,46,45,11,11,4,4,0.7,0.6
2026-01-07T1200,3377A,103.7442,25.5259,曲靖市,曲靖师范学院,,43,43,36,30,28,50,,44,44,11,14,2,4,0.5,0.6
2026-01-07T1200,1264A,118.8694,28.94,衢州市,环保大楼,细颗粒物(PM2.5),53,52,51,37,38,92,,46,46,13,24,/,/,/,/
2026-01-07T1200,1266A,118.8622,28.9809,衢州市,衢州学院,,,56,47,38,36,,,27,27,15,33,9,5,0.4,0.4
2026-01-07T1200,4097A,118.9646,28.9832,衢州市,衢州三中,细颗粒物(PM2.5),54,54,53,38,39,89,,50,50,15,24,9,6,0.7,0.6
2026-01-07T1200,1611A,118.5818,24.9116,泉州市,涂山街,,36,26,27,25,22,88,,66,66,7,9,3,2,0.4,0.6
2026-01-07T1200,1612A,118.597,24.8976,泉州市,津头埔,,40,,25,28,24,89,,66,66,11,12,4,4,0.5,0.6
2026-01-07T1200,1613A,118.6669,24.9422,泉州市,万安,,38,27,28,26,20,87,,59,59,7,14,3,3,0.5,0.5
2026-01-07T1200,4105A,118.6355,24.9148,泉州市,霞新路6号,,32,24,26,22,21,93,,65,65,11,14,/,/,0.1,0.4
2026-01-07T1200,2626A,88.8873,29.2723,日喀则市,日喀则监测站,,44,44,62,21,20,70,,30,30,8,30,5,13,0.5,1.1
2026-01-07T1200,3726A,88.8775,29.2425,日喀则市,林业技术推广中心,,40,30,32,28,16,69,,51,51,6,7,11,11,0.3,0.4
2026-01-07T1200,1659A,119.4711,35.421,日照市,监测站,,46,46,157,18,120,66,,27,27,23,57,9,13,0.6,1.2
2026-01-07T1200,1660A,119.523,35.4216,日照市,市政府广场,,44,44,149,15,114,69,,40,40,19,46,10,14,0.3,0.9
2026-01-07T1200,1661A,119.5511,35.4113,日照市,港务局,,41,41,159,23,126,67,,41,41,19,49,9,13,0.5,1.1
2026-01-07T1200,3507A,119.5326,35.4627,日照市,职业技术学院,,,,164,,109,69,,38,38,,53,,11,0.7,1.2
2026-01-07T1200,3604A,119.3267,35.1043,日照市,岚山环保分局,颗粒物(PM10),60,70,154,30,111,68,,25,25,23,55,18,20,1.1,1.7
2026-01-07T1200,1835A,111.1922,34.7752,三门峡市,市政府,,,,41,,28,,,19,,,37,,33,,0.6
2026-01-07T1200,1836A,111.1588,34.794,三门峡市,开发区,颗粒物(PM10),54,58,41,33,26,49,,32,32,25,30,7,6,0.5,0.4
2026-01-07T1200,3039A,111.1911,34.7829,三门峡市,三门峡市第一小学,颗粒物(PM10),65,80,43,29,25,52,,29,29,29,35,14,9,0.7,0.7
2026-01-07T1200,3598A,111.1031,34.719,三门峡市,富达温泉假日酒店,颗粒物(PM10),55,60,50,27,27,71,,39,39,17,31,8,9,0.5,0.7
2026-01-07T1200,2324A,117.621,26.2626,三明市,三钢,,,,36,57,32,68,,20,20,,24,9,8,1.2,1.6
2026-01-07T1200,2325A,117.6352,26.2714,三明市,三明二中,细颗粒物(PM2.5),80,79,41,59,36,62,,17,17,24,24,8,8,1.7,1.5
2026-01-07T1200,2326A,117.6028,26.2377,三明市,三元区政府,细颗粒物(PM2.5),64,69,32,46,27,43,,21,21,34,20,16,5,2.7,0.8
2026-01-07T1200,1877A,109.4962,18.2682,三亚市,河西子站,,50,50,43,27,31,94,,79,79,8,8,6,5,0.7,0.7
2026-01-07T1200,3540A,109.7348,18.3443,三亚市,君悦子站,,,56,43,29,29,84,,72,72,,10,7,6,0.6,0.7
2026-01-07T1200,4135A,109.1714,18.3739,三亚市,城东小学站,,41,41,37,26,31,83,,62,62,7,10,/,/,/,/
2026-01-07T1200,2624A,91.7592,29.234,山南市,山南监测站,细颗粒物(PM2.5),54,53,27,38,14,63,,66,53,10,7,5,5,0.4,0.3
2026-01-07T1200,2625A,91.7701,29.2436,山南市,山南人民医院,,,28,31,,11,58,,63,58,10,7,6,5,0.4,0.3
2026-01-07T1200,1674A,116.6795,23.3666,汕头市,金平子站,,43,40,36,30,35,87,,74,74,13,15,7,7,0.7,0.7
2026-01-07T1200,1675A,116.7248,23.3632,汕头市,龙湖子站,,36,36,32,19,17,85,,70,70,9,13,11,11,/,/
2026-01-07T1200,1676A,116.7257,23.2774,汕头市,濠江子站,颗粒物(PM10),52,54,33,21,22,82,,69,69,12,16,8,24,/,/
2026-01-07T1200,1677A,116.7518,23.4712,汕头市,澄海子站,,37,37,28,19,22,89,,69,69,11,12,8,6,0.3,0.4
2026-01-07T1200,1678A,116.6088,23.2539,汕头市,潮阳子站,,38,38,31,20,18,92,,79,79,14,13,8,8,0.5,0.5
2026-01-07T1200,3444A,116.4539,23.2684,汕头市,潮南峡山,,38,38,35,26,24,95,,73,73,10,11,10,9,0.6,0.6
2026-01-07T1200,3624A,116.4069,23.2533,汕头市,潮南子站,,40,39,41,28,29,86,,68,68,14,16,8,7,/,/
2026-01-07T1200,1693A,115.3653,22.7751,汕尾市,市环保局,,40,32,26,28,24,87,,78,78,9,8,7,7,0.4,0.4
2026-01-07T1200,1695A,115.362,22.7926,汕尾市,新城中学,,,40,24,28,22,86,,79,79,,6,,5,0.5,0.5
2026-01-07T1200,2645A,109.9155,33.8714,商洛市,监测站,,31,31,24,13,15,87,,46,42,8,23,4,5,0.2,0.4
2026-01-07T1200,3045A,109.9647,33.8486,商洛市,商州区中学,颗粒物(PM10),61,72,34,14,16,85,,43,43,11,34,5,6,0.5,0.6
2026-01-07T1200,2408A,115.6701,34.4283,商丘市,环境监测站,颗粒物(PM10),64,77,57,38,37,56,,41,40,24,24,5,4,0.2,0.2
2026-01-07T1200,2409A,115.6458,34.4047,商丘市,粮食局,颗粒物(PM10),69,87,59,30,36,56,,40,40,17,22,7,6,0.3,0.5
2026-01-07T1200,3171A,115.6069,34.4465,商丘市,梁园区档案局,颗粒物(PM10),56,61,55,18,35,52,,31,31,17,27,8,6,0.4,0.4
2026-01-07T1200,4119A,115.6701,34.3767,商丘市,北海东路185号,颗粒物(PM10),58,65,53,25,33,52,,38,38,20,26,5,4,0.5,0.4
2026-01-07T1200,4120A,115.6172,34.3704,商丘市,中山大街3号,,,68,66,27,41,55,,34,34,20,36,,4,0.2,0.2
2026-01-07T1200,1141A,121.401,31.2382,上海市,普陀,细颗粒物(PM2.5),85,81,98,63,90,66,,29,29,32,44,10,7,0.8,0.8
2026-01-07T1200,1142A,121.4774,31.2043,上海市,十五厂,细颗粒物(PM2.5),78,84,93,57,82,67,,36,36,32,41,10,7,0.9,1
2026-01-07T1200,1143A,121.4673,31.3011,上海市,虹口,细颗粒物(PM2.5),80,84,100,59,85,63,,30,30,26,39,11,8,0.7,0.8
2026-01-07T1200,1147A,121.4253,31.226,上海市,静安监测站,细颗粒物(PM2.5),80,83,96,59,84,67,,33,33,33,43,10,7,0.7,0.7
2026-01-07T1200,1148A,121.7029,31.1905,上海市,浦东川沙,细颗粒物(PM2.5),79,88,96,58,78,67,,35,35,29,37,10,8,0.8,0.8
2026-01-07T1200,1149A,121.5339,31.229,上海市,浦东新区监测站,细颗粒物(PM2.5),79,83,93,58,85,66,,38,38,35,44,10,7,0.9,0.9
2026-01-07T1200,1150A,121.5776,31.2038,上海市,浦东张江,细颗粒物(PM2.5),84,84,94,62,77,71,,40,40,30,34,10,7,0.8,0.8
2026-01-07T1200,3265A,121.4242,31.3303,上海市,宝山庙行,细颗粒物(PM2.5),75,80,101,55,88,65,,29,29,29,45,10,7,0.7,0.8
2026-01-07T1200,3266A,121.8789,31.4662,上海市,崇明上实东滩,细颗粒物(PM2.5),80,85,100,59,79,66,,38,38,26,31,10,6,0.6,0.7
2026-01-07T1200,3268A,121.316,31.2839,上海市,嘉定南翔,细颗粒物(PM2.5),75,75,94,55,84,63,,22,22,25,42,8,5,0.7,0.8
2026-01-07T1200,3269A,121.3357,30.7455,上海市,金山新城,细颗粒物(PM2.5),77,56,87,56,99,72,,38,38,26,33,10,9,1.1,1.2
2026-01-07T1200,3270A,121.4996,31.0741,上海市,闵行浦江,细颗粒物(PM2.5),77,74,97,56,84,57,,27,25,39,43,10,7,0.5,0.6
2026-01-07T1200,3271A,121.2886,31.1663,上海市,青浦徐泾,细颗粒物(PM2.5),74,73,96,54,86,65,,27,27,27,40,9,6,0.8,0.9
2026-01-07T1200,3272A,121.2193,31.0382,上海市,松江图书馆,,,72,99,39,67,65,,28,25,23,32,,7,0.6,0.7
2026-01-07T1200,3273A,121.3904,31.206,上海市,长宁仙霞,细颗粒物(PM2.5),74,81,93,54,82,63,,26,26,34,49,10,7,0.6,0.7
2026-01-07T1200,3274A,121.7964,31.0507,上海市,浦东惠南,细颗粒物(PM2.5),78,77,90,57,79,63,,29,29,35,41,8,5,0.8,0.9
2026-01-07T1200,3544A,121.4891,30.925,上海市,奉贤南桥新城,细颗粒物(PM2.5),74,72,102,54,92,69,,37,37,25,34,11,9,0.9,1
2026-01-07T1200,4183A,121.417401,31.16637,上海市,冠生园路458号,细颗粒物(PM2.5),80,76,97,59,87,62,,33,32,44,50,9,6,0.6,0.7
2026-01-07T1200,4205A,121.541914,31.268301,上海市,宁武路151号,细颗粒物(PM2.5),75,75,94,55,82,70,,36,36,29,39,10,6,0.8,0.8
2026-01-07T1200,2382A,117.9758,28.4439,上饶市,市监测站,,,66,48,40,34,,,26,26,22,28,19,14,/,/
2026-01-07T1200,2383A,117.9521,28.4637,上饶市,凤凰光学,颗粒物(PM10),56,62,52,22,30,80,,24,24,17,27,28,13,0.8,0.7
2026-01-07T1200,3685A,117.897,28.4316,上饶市,双创科技城,颗粒物(PM10),57,64,54,37,38,77,,34,34,26,38,17,16,0.7,0.8
2026-01-07T1200,4211A,118.190438,28.444845,上饶市,裕丰大道,颗粒物(PM10),52,53,60,30,42,87,,37,37,14,25,12,19,0.6,0.7
2026-01-07T1200,1669A,113.5821,24.7733,韶关市,市八中,,45,38,36,31,30,81,,31,31,9,22,7,10,0.5,0.6
2026-01-07T1200,1671A,113.5916,24.7973,韶关市,园林处,,43,,31,30,31,87,,30,30,9,22,9,12,/,/
2026-01-07T1200,1673A,113.5971,24.6864,韶关市,曲江监测站,,43,38,43,30,32,80,,26,26,10,21,8,18,0.3,0.5
2026-01-07T1200,2809A,113.6668,24.7756,韶关市,大学路288号,,39,32,22,27,21,86,,20,20,10,15,7,6,/,/
2026-01-07T1200,3622A,113.5556,24.8082,韶关市,碧湖山庄,,,40,41,29,31,86,,36,36,9,16,7,8,,0.5
2026-01-07T1200,2464A,111.5277,27.2442,邵阳市,市化工厂,细颗粒物(PM2.5),100,110,75,75,56,36,,9,9,35,31,13,9,1.3,1.1
2026-01-07T1200,2466A,111.4327,27.2276,邵阳市,市环保局,细颗粒物(PM2.5),88,87,60,65,54,62,,21,21,17,24,9,8,1.0,1
2026-01-07T1200,4218A,111.446,27.2472,邵阳市,北塔二期4-26地块,细颗粒物(PM2.5),87,97,60,64,56,58,,14,14,19,25,6,5,0.9,1
2026-01-07T1200,4219A,111.4739,27.2282,邵阳市,邵水西路287号,,,,89,69,62,70,,17,17,23,31,15,14,0.8,0.8
2026-01-07T1200,1247A,120.6053,29.9927,绍兴市,城东开发委,,40,37,61,28,51,80,,38,38,12,28,9,8,0.5,0.6
2026-01-07T1200,2921A,120.5482,30.0003,绍兴市,树下王站,,39,39,66,27,50,76,,30,30,13,32,8,6,0.6,0.8
2026-01-07T1200,3408A,120.5685,29.936,绍兴市,绍兴中专,,36,34,62,25,44,81,,38,38,10,27,8,7,0.6,0.7
2026-01-07T1200,3409A,120.4905,30.086,绍兴市,柯桥区政府,,,34,60,24,44,84,,42,42,,29,6,4,,0.6
2026-01-07T1200,3410A,120.8751,30.0249,绍兴市,重华小学,,39,31,70,27,58,78,,31,31,13,29,6,6,0.6,0.7
2026-01-07T1200,3411A,120.837,30.0137,绍兴市,上虞中学,,39,31,69,27,60,82,,24,24,12,37,8,8,0.5,0.7
2026-01-07T1200,3560A,120.4715,30.0414,绍兴市,柯桥妇保,,35,32,51,24,42,80,,34,34,12,24,6,5,0.7,0.8
2026-01-07T1200,3658A,120.6156,30.0762,绍兴市,袍江中学,,,,73,,62,,,35,35,12,33,7,6,,0.9
2026-01-07T1200,1356A,114.0948,22.5506,深圳市,通心岭子站,,50,46,46,35,28,91,,68,68,12,16,9,8,0.5,0.5
2026-01-07T1200,1357A,114.1153,22.5713,深圳市,洪湖,,46,46,46,31,28,94,,64,64,13,20,9,8,0.6,0.7
2026-01-07T1200,1358A,113.9823,22.5398,深圳市,华侨城,,48,48,41,30,29,90,,68,68,18,17,/,/,/,/
2026-01-07T1200,1359A,113.9181,22.517,深圳市,南海子站,颗粒物(PM10),54,58,48,28,27,89,,71,71,19,17,6,6,0.6,0.6
2026-01-07T1200,1360A,114.2345,22.565,深圳市,盐田,,,41,41,26,26,,,83,83,,11,8,8,0.6,0.6
2026-01-07T1200,1363A,114.4911,22.5381,深圳市,南澳,,36,36,39,20,25,96,,86,86,14,9,/,/,/,/
2026-01-07T1200,1364A,114.41,22.6346,深圳市,葵涌,,32,32,34,20,23,89,,79,79,12,11,8,8,0.6,0.6
2026-01-07T1200,1365A,114.2967,22.5978,深圳市,梅沙,,43,42,40,30,27,94,,86,86,14,13,/,/,/,/
2026-01-07T1200,1366A,114.0563,22.7353,深圳市,观澜,颗粒物(PM10),52,53,56,31,33,98,,70,70,15,21,8,7,0.5,0.6
2026-01-07T1200,3305A,114.0614,22.556,深圳市,莲花,,42,41,40,29,28,89,,69,69,15,18,/,/,/,/
2026-01-07T1200,3306A,114.0144,22.6163,深圳市,民治,颗粒物(PM10),52,53,41,34,26,91,,71,71,17,16,/,/,/,/
2026-01-07T1200,3307A,114.1756,22.6421,深圳市,横岗,,46,46,42,32,29,96,,80,80,13,16,/,/,/,/
2026-01-07T1200,3447A,114.344,22.7115,深圳市,坪山,颗粒物(PM10),53,56,49,35,29,90,,72,72,14,19,10,9,0.7,0.7
2026-01-07T1200,3623A,113.8952,22.586,深圳市,西乡,,48,44,42,33,26,93,,75,75,18,17,8,7,0.6,0.6
2026-01-07T1200,4220A,114.214113,22.713717,深圳市,黄阁路,,46,41,38,32,28,90,,80,80,12,11,8,7,0.5,0.5
