timepoint,stationcode,longitude,latitude,area,positionname,primarypollutant,aqi,pm10,pm10_24h,pm2_5,pm2_5_24h,o3,o3_24h,o3_8h,o3_8h_24h,no2,no2_24h,so2,so2_24h,co,co_24h
2026-01-07T1700,2568A,102.2503,31.8896,阿坝藏族羌族自治州,马师校,,25,14,18,13,15,80,,64,64,7,18,4,4,0.4,0.7
2026-01-07T1700,3994A,102.2174,31.9016,阿坝藏族羌族自治州,马尔康中学西区,,25,22,12,9,10,80,,66,66,5,13,5,5,0.5,0.6
2026-01-07T1700,2695A,80.2899,41.1684,阿克苏地区,电视台,细颗粒物(PM2.5),64,76,62,46,40,56,,33,33,30,34,6,4,0.8,0.9
2026-01-07T1700,2696A,80.2592,41.1541,阿克苏地区,艺术中心,细颗粒物(PM2.5),63,54,55,45,45,68,,39,39,14,24,5,4,0.7,0.8
2026-01-07T1700,2205A,105.699,38.8409,阿拉善盟,蒙二幼,颗粒物(PM10),51,52,72,14,20,80,,74,74,8,12,10,10,0.5,0.6
2026-01-07T1700,2206A,105.7198,38.8508,阿拉善盟,环保局新楼,颗粒物(PM10),52,54,62,16,19,74,,70,70,6,7,9,9,0.6,0.6
2026-01-07T1700,2708A,88.1266,47.8515,阿勒泰地区,市站,,24,13,18,3,7,76,,63,63,14,31,6,4,0.2,0.4
2026-01-07T1700,4166A,88.1198,47.7931,阿勒泰地区,阿勒泰路33号,,27,14,18,3,5,85,,69,69,6,26,4,9,0.3,0.4
2026-01-07T1700,2630A,80.1171,32.4999,阿里地区,阿里监测站,,,6,3,3,3,,,76,76,,8,,11,,0.4
2026-01-07T1700,3192A,80.0906,32.5029,阿里地区,阿里藏医院,,26,,11,3,9,82,,68,68,1,7,9,11,0.5,0.6
2026-01-07T1700,2644A,109.0088,32.6974,安康市,汉滨区检察院,,50,50,52,30,32,68,,46,46,22,23,5,5,0.5,0.6
2026-01-07T1700,4054A,109.0324,32.6913,安康市,市邮政管理局,颗粒物(PM10),53,55,53,33,38,57,,40,40,25,26,5,6,0.6,0.7
2026-01-07T1700,2291A,117.0806,30.5181,安庆市,环科院,,45,37,65,31,47,95,,74,74,14,28,7,6,0.3,0.4
2026-01-07T1700,2292A,117.0331,30.5118,安庆市,马山宾馆,,40,36,63,28,46,95,,70,70,14,29,6,5,0.4,0.5
2026-01-07T1700,2294A,116.9897,30.6146,安庆市,安庆大学,,46,36,64,32,48,92,,75,75,18,24,5,4,0.5,0.5
2026-01-07T1700,3173A,117.0598,30.5351,安庆市,市人大,,40,33,64,28,48,101,,74,74,14,31,8,7,0.3,0.5
2026-01-07T1700,3123A,105.9408,26.2431,安顺市,凤凰山,细颗粒物(PM2.5),62,46,41,44,39,72,,72,72,15,16,17,17,0.6,0.9
2026-01-07T1700,3124A,105.9443,26.2567,安顺市,金钟山,细颗粒物(PM2.5),55,41,39,39,36,75,,73,73,13,12,18,20,0.8,0.8
2026-01-07T1700,3125A,105.8983,26.248,安顺市,娄家坡,细颗粒物(PM2.5),63,50,46,45,41,75,,69,69,16,17,23,26,0.7,0.8
2026-01-07T1700,1819A,114.3552,36.1017,安阳市,红庙街,颗粒物(PM10),51,52,46,26,24,68,,62,62,16,27,5,7,0.5,0.8
2026-01-07T1700,1820A,114.361,36.0681,安阳市,银杏小区,颗粒物(PM10),51,52,47,28,23,71,,62,62,18,27,6,6,0.4,0.5
2026-01-07T1700,3141A,114.3921,36.0879,安阳市,信访局,,46,46,46,30,27,71,,59,59,12,26,7,5,0.5,0.7
2026-01-07T1700,3669A,114.4706,36.0634,安阳市,左辅环卫站,颗粒物(PM10),55,59,57,25,20,74,,66,66,14,21,6,7,0.5,0.5
2026-01-07T1700,4117A,114.2918,36.0769,安阳市,钢三路198号,颗粒物(PM10),56,62,54,36,29,63,,56,56,23,26,6,5,0.5,0.6
2026-01-07T1700,1748A,123.0441,41.1201,鞍山市,深沟寺,,37,37,42,17,18,56,,62,62,13,17,8,9,0.8,0.8
2026-01-07T1700,1749A,123.011,41.0931,鞍山市,太阳城,,47,47,48,17,20,53,,63,63,20,27,27,27,1.7,1.8
2026-01-07T1700,1750A,123.0483,41.1445,鞍山市,太平,颗粒物(PM10),51,51,45,18,17,51,,58,58,19,21,12,13,0.5,0.8
2026-01-07T1700,1751A,122.964,41.0968,鞍山市,铁西三道街,,42,42,43,13,17,56,,64,64,18,23,12,13,0.6,0.9
2026-01-07T1700,1753A,123.0219,41.0822,鞍山市,明达新区,,41,41,42,17,18,51,,59,58,18,21,23,24,1.3,1.4
2026-01-07T1700,4201A,122.944647,41.082639,鞍山市,兴盛南路290号,颗粒物(PM10),54,58,58,27,26,42,,59,59,40,40,13,14,0.4,0.8
2026-01-07T1700,2195A,107.4206,40.7609,巴彦淖尔市,附二中,颗粒物(PM10),52,53,78,29,33,68,,58,58,7,9,4,4,0.4,0.4
2026-01-07T1700,2196A,107.37,40.7372,巴彦淖尔市,市环保大楼,颗粒物(PM10),52,54,76,35,25,76,,67,67,7,9,4,4,0.4,0.4
2026-01-07T1700,1956A,86.1476,41.7529,巴音郭楞蒙古自治州,孔雀公园,颗粒物(PM10),51,52,57,35,33,57,,33,33,8,23,7,6,0.4,0.6
2026-01-07T1700,1957A,86.1971,41.7166,巴音郭楞蒙古自治州,棉纺厂,颗粒物(PM10),57,64,67,30,20,61,,42,42,9,17,/,/,/,/
2026-01-07T1700,1958A,86.236,41.7172,巴音郭楞蒙古自治州,经济开发区,,50,50,54,17,21,53,,39,39,13,18,5,5,0.4,0.6
2026-01-07T1700,3181A,106.776805,31.852614,巴中市,市五中,,49,46,55,34,41,82,,51,51,16,24,6,5,0.7,0.9
2026-01-07T1700,3183A,106.7419,31.8654,巴中市,圣泉水务公司,,,46,46,39,35,87,,62,62,13,29,,4,0.4,0.5
2026-01-07T1700,3616A,106.7617,31.8343,巴中市,市中心医院,,49,45,60,34,44,87,,57,57,11,32,8,6,0.6,0.8
2026-01-07T1700,2235A,122.7909,45.608,白城市,洮北区环保局,,43,43,39,19,16,46,,56,56,20,6,6,6,0.2,0.2
2026-01-07T1700,2236A,122.8741,45.5725,白城市,市环保局,,38,36,30,26,18,44,,57,57,19,8,5,6,0.2,0.4
2026-01-07T1700,2231A,126.4219,41.9172,白山市,喜丰,,37,37,62,6,19,59,,65,60,12,14,11,12,0.4,0.8
2026-01-07T1700,2232A,126.4082,41.9416,白山市,环保局,,22,22,45,14,26,63,,63,63,7,17,10,11,0.7,1
2026-01-07T1700,2647A,104.1727,36.5448,白银市,第三小学,,27,22,47,17,39,85,,61,61,12,30,7,23,0.5,0.9
2026-01-07T1700,2648A,104.1467,36.5482,白银市,动力公司,,45,45,47,19,37,88,,67,67,10,27,7,18,0.4,0.9
2026-01-07T1700,2512A,106.6102,23.901,百色市,市监测站,,42,34,32,29,24,76,,55,55,11,17,7,7,0.6,0.7
2026-01-07T1700,2513A,106.6524,23.8842,百色市,市中心血站,,46,,39,32,32,88,,61,61,13,25,8,8,0.7,0.7
2026-01-07T1700,4133A,106.6273,23.8798,百色市,龙景西路,,,29,39,29,27,88,,57,57,,16,8,7,0.6,0.6
2026-01-07T1700,2270A,117.396,32.9389,蚌埠市,工人疗养院,颗粒物(PM10),59,68,65,40,34,63,,54,54,24,26,8,6,0.5,0.5
2026-01-07T1700,2271A,117.3606,32.9428,蚌埠市,百货大楼,细颗粒物(PM2.5),58,60,56,41,33,64,,56,56,19,23,8,7,0.5,0.4
2026-01-07T1700,2273A,117.4183,32.8909,蚌埠市,蚌埠学院,,,61,62,31,37,68,,58,58,20,30,,5,0.4,0.4
2026-01-07T1700,2274A,117.3534,32.9672,蚌埠市,淮上区政府,颗粒物(PM10),58,66,60,39,37,64,,60,60,23,25,5,3,0.5,0.4
2026-01-07T1700,2275A,117.3143,32.8977,蚌埠市,高新区,细颗粒物(PM2.5),60,66,60,43,39,59,,53,53,23,32,9,7,0.4,0.4
2026-01-07T1700,3715A,117.3091,32.9314,蚌埠市,蚌埠田家炳中学,"颗粒物(PM10),细颗粒物(PM2.5)",59,68,70,42,42,68,,55,55,20,34,7,7,0.4,0.4
2026-01-07T1700,1585A,109.8761,40.6533,包头市,市环境监测站,细颗粒物(PM2.5),114,143,79,86,41,71,,34,32,15,33,5,15,0.4,1.1
2026-01-07T1700,1587A,109.9992,40.5843,包头市,包头八中,细颗粒物(PM2.5),98,142,75,73,44,36,,39,39,48,44,14,5,1.6,0.8
2026-01-07T1700,1589A,109.8641,40.6288,包头市,惠龙物流,细颗粒物(PM2.5),98,126,80,73,44,68,,32,32,18,35,10,21,0.5,1.2
2026-01-07T1700,1590A,110.0376,40.5546,包头市,东河鸿龙湾,细颗粒物(PM2.5),97,112,66,72,28,46,,47,47,44,50,16,9,1.6,0.9
2026-01-07T1700,3283A,109.9154,40.5684,包头市,滨河大厦,细颗粒物(PM2.5),92,113,68,68,36,39,,39,39,37,31,16,10,1.4,0.9
2026-01-07T1700,3419A,109.9449,40.6259,包头市,包头市委党校,细颗粒物(PM2.5),103,151,72,77,43,60,,37,37,23,43,9,13,0.9,1
2026-01-07T1700,3683A,109.8332,40.6577,包头市,昆区政府,颗粒物(PM10),95,140,78,23,49,73,,40,36,14,34,6,17,0.5,1.3
2026-01-07T1700,1931A,107.0802,34.3129,宝鸡市,竹园沟,,41,41,31,22,24,82,,66,66,17,18,7,5,0.3,0.4
2026-01-07T1700,1933A,107.1429,34.3549,宝鸡市,监测站,,42,42,46,21,34,74,,51,51,27,35,6,5,0.4,0.5
2026-01-07T1700,1934A,107.1172,34.3759,宝鸡市,技工学校,颗粒物(PM10),51,51,55,28,34,74,,57,57,21,20,8,7,0.4,0.6
2026-01-07T1700,1936A,107.2025,34.3518,宝鸡市,文理学院,,33,33,47,16,34,86,,62,62,21,35,4,5,0.3,0.5
2026-01-07T1700,1937A,107.2396,34.3626,宝鸡市,三迪小学,,40,40,50,20,40,82,,61,61,24,36,4,4,0.2,0.6
2026-01-07T1700,4155A,107.1721,34.3558,宝鸡市,滨河北路,,27,27,48,17,31,78,,60,60,31,32,6,5,0.6,0.8
2026-01-07T1700,4308A,107.3898,34.3601,宝鸡市,陈仓区北开路21号,,,,68,,53,,,74,,,36,,58,,0.8
2026-01-07T1700,1051A,115.4803,38.8568,保定市,游泳馆,,40,40,61,19,32,57,,54,54,26,47,4,5,0.4,0.6
2026-01-07T1700,1052A,115.509,38.8895,保定市,华电二区,,,35,50,24,32,65,,59,59,,17,4,3,0.8,0.9
2026-01-07T1700,1053A,115.4588,38.9037,保定市,接待中心,,41,41,56,17,30,61,,52,52,13,28,2,2,0.2,0.4
2026-01-07T1700,1054A,115.4484,38.8344,保定市,地表水厂,,49,49,81,18,39,61,,52,52,24,51,3,4,0.2,0.4
2026-01-07T1700,3581A,115.3136,38.9511,保定市,满城区生态环境分局,颗粒物(PM10),53,56,57,22,18,57,,62,62,30,35,4,4,0.4,0.5
2026-01-07T1700,3582A,115.4709,38.7628,保定市,清苑区第二中学,,48,48,82,14,35,52,,56,56,21,46,5,7,0.3,0.5
2026-01-07T1700,3583A,115.6231,39.0223,保定市,徐水物探局,颗粒物(PM10),52,53,86,21,45,52,,51,51,29,50,6,9,0.4,0.6
2026-01-07T1700,4004A,115.4199,38.8665,保定市,双鹰农机,,48,39,84,33,38,62,,59,59,18,36,5,8,0.3,0.5
2026-01-07T1700,4034A,115.515,38.8589,保定市,植保所站,颗粒物(PM10),51,52,62,33,44,54,,49,49,27,45,2,3,0.4,0.6
2026-01-07T1700,2594A,99.1589,25.1137,保山市,市环境监测站,,,,28,,21,90,,76,76,5,10,4,4,,0.5
2026-01-07T1700,2595A,99.1616,25.1381,保山市,市环保局,,33,30,30,23,19,91,,70,70,4,7,4,4,0.4,0.4
2026-01-07T1700,1867A,109.1435,21.4085,北海市,海滩公园,颗粒物(PM10),51,51,43,29,27,127,,102,102,15,15,10,9,0.4,0.3
2026-01-07T1700,1868A,109.0983,21.466,北海市,新市环保局,,45,38,37,31,33,112,,101,101,11,13,4,5,0.6,0.7
2026-01-07T1700,1869A,109.1775,21.5232,北海市,北海工业园,,36,36,43,24,32,106,,99,99,9,12,6,8,0.5,0.6
2026-01-07T1700,3400A,109.1844,21.4396,北海市,龙潭自来水厂,,42,37,40,29,34,119,,97,97,16,13,8,8,0.5,0.5
2026-01-07T1700,1001A,116.3611,39.8786,北京市,万寿西宫,,30,30,22,20,9,64,,61,61,12,16,2,2,0.2,0.2
2026-01-07T1700,1003A,116.4174,39.9289,北京市,东四,,35,35,24,13,7,60,,57,57,13,13,4,4,0.2,0.2
2026-01-07T1700,1004A,116.4073,39.8858,北京市,天坛,,31,31,23,12,8,65,,62,62,11,13,3,2,0.3,0.3
2026-01-07T1700,1005A,116.4622,39.9364,北京市,农展馆,,31,31,20,14,7,64,,60,60,11,12,4,4,0.5,0.4
2026-01-07T1700,1006A,116.3399,39.9293,北京市,官园,,33,33,26,21,12,64,,59,59,9,12,4,4,0.4,0.4
2026-01-07T1700,1007A,116.2879,39.9613,北京市,海淀万柳,,35,35,24,17,8,61,,56,56,13,20,3,3,0.3,0.3
2026-01-07T1700,1008A,116.6635,40.1349,北京市,顺义新城,,24,24,20,10,6,66,,64,64,8,9,3,3,0.3,0.3
2026-01-07T1700,1009A,116.6275,40.327,北京市,怀柔镇,,19,17,15,8,7,59,,53,52,12,12,6,6,0.3,0.3
2026-01-07T1700,1010A,116.2295,40.217,北京市,昌平镇,,41,41,24,18,9,60,,62,62,13,10,6,5,0.5,0.4
2026-01-07T1700,1011A,116.3968,39.982,北京市,奥体中心,,33,33,20,13,7,68,,62,62,13,19,4,4,0.4,0.4
2026-01-07T1700,3418A,116.8336,40.4095,北京市,密云新城,,22,9,13,3,6,68,,64,62,5,6,3,3,0.3,0.3
2026-01-07T1700,3671A,116.0879,39.9725,北京市,门头沟三家店,,30,30,22,13,6,72,,73,73,4,2,4,3,0.4,0.4
2026-01-07T1700,3672A,116.1507,39.8246,北京市,丰台云岗,,34,34,22,19,10,57,,62,58,21,14,2,2,0.5,0.4
2026-01-07T1700,3674A,115.9578,39.7602,北京市,房山燕山,,39,39,26,18,12,45,,65,50,29,16,4,4,0.3,0.3
2026-01-07T1700,3675A,116.4669,39.7734,北京市,大兴旧宫,,21,21,21,10,8,63,,56,56,10,21,3,3,0.3,0.4
2026-01-07T1700,3694A,115.9859,40.4562,北京市,延庆石河营,,29,29,22,14,9,61,,50,50,12,20,4,3,0.4,0.4
2026-01-07T1700,3695A,116.6151,40.3052,北京市,怀柔新城,,19,16,14,6,6,60,,56,48,10,9,4,4,0.2,0.2
2026-01-07T1700,3696A,116.2542,39.8764,北京市,丰台小屯,,28,28,23,12,7,60,,55,55,9,15,4,4,0.3,0.3
2026-01-07T1700,3697A,116.8399,40.3843,北京市,密云镇,,21,11,23,3,9,67,,59,59,8,29,2,2,0.3,0.4
2026-01-07T1700,4057A,115.9423,40.4431,北京市,延庆百泉,,36,36,23,17,10,56,,46,46,8,10,3,2,0.3,0.3
2026-01-07T1700,4058A,116.6598,39.9164,北京市,通州新华,,21,21,28,12,6,59,,52,52,14,19,3,3,0.4,0.4
2026-01-07T1700,4182A,116.1942,39.9158,北京市,石景山八角,,33,33,26,13,7,60,,51,51,10,16,1,2,0.2,0.2
2026-01-07T1700,4194A,117.078628,40.151726,北京市,平谷新城,,21,10,18,3,8,65,,53,53,4,14,3,2,0.3,0.3
2026-01-07T1700,1761A,123.8274146,41.31234549,本溪市,大峪,,40,40,43,11,15,46,,57,53,23,19,9,11,0.6,0.8
2026-01-07T1700,1763A,123.7169,41.3094,本溪市,彩屯,,36,36,50,14,22,54,,67,62,22,20,6,9,0.7,0.8
2026-01-07T1700,1764A,123.7672166,41.28649327,本溪市,东明,,29,29,46,13,14,58,,64,62,12,12,8,10,0.5,0.6
2026-01-07T1700,1765A,123.799345,41.266614,本溪市,新立屯,,23,23,45,11,16,54,,61,57,14,17,10,12,0.7,0.7
2026-01-07T1700,1766A,123.829144,41.336777,本溪市,威宁,,,20,57,11,18,52,,60,57,19,20,,9,0.7,0.8
2026-01-07T1700,2587A,105.287,27.3133,毕节市,八中,,39,31,44,27,35,74,,64,64,8,10,11,10,0.5,0.6
2026-01-07T1700,2588A,105.3079,27.2987,毕节市,师专,,35,30,41,24,34,82,,66,66,8,11,9,8,0.4,0.6
2026-01-07T1700,4263A,105.3688,27.3598,毕节市,工业大道,,50,44,45,35,37,73,,68,68,8,8,10,11,/,/
2026-01-07T1700,1629A,117.9961,37.3604,滨州市,第二水厂,,22,22,68,8,38,59,,59,59,17,36,10,15,0.3,0.6
2026-01-07T1700,1630A,117.9789,37.3931,滨州市,北中新校,,24,24,65,7,38,63,,65,65,19,43,7,10,0.3,0.6
2026-01-07T1700,3514A,117.9379,37.3959,滨州市,中海酒店,,22,22,68,12,45,68,,66,66,14,39,8,13,0.6,0.9
2026-01-07T1700,3515A,117.9381509,37.35547456,滨州市,开发区一中,,27,27,71,9,41,66,,64,64,12,34,10,15,0.4,0.6
2026-01-07T1700,3516A,118.0914,37.6938,滨州市,金海六路,,23,19,82,3,51,72,,72,72,19,50,7,10,0.5,0.9
2026-01-07T1700,4028A,117.9955,37.3752,滨州市,滨州市西街道办事处,,24,24,65,12,41,65,,65,65,15,33,8,12,0.2,0.4
2026-01-07T1700,2311A,115.8071,33.8399,亳州市,污水处理厂,,48,48,54,28,30,75,,72,72,24,28,4,5,0.3,0.3
2026-01-07T1700,2312A,115.7789,33.8519,亳州市,三国揽胜宫,颗粒物(PM10),51,52,59,20,31,70,,60,60,19,21,4,4,0.3,0.4
2026-01-07T1700,3332A,115.7631,33.803,亳州市,亳州学院,,45,45,51,19,26,72,,62,62,26,25,5,4,0.1,0.3
2026-01-07T1700,2693A,82.0482,44.8553,博尔塔拉蒙古自治州,市党校,细颗粒物(PM2.5),70,87,113,51,56,41,,38,38,31,28,8,4,1.2,1.1
2026-01-07T1700,2694A,82.0805,44.8966,博尔塔拉蒙古自治州,市环保局,颗粒物(PM10),83,115,125,54,61,45,,29,29,40,38,10,7,1.2,1.4
2026-01-07T1700,1071A,116.8733,38.2922,沧州市,沧县城建局,,31,31,83,16,64,63,,67,67,24,42,3,3,0.2,0.6
2026-01-07T1700,1072A,116.8462,38.3189,沧州市,电视转播站,,33,33,88,12,63,63,,65,65,22,46,3,4,0.3,0.7
2026-01-07T1700,1073A,116.8588,38.3161,沧州市,市环保局,,43,33,86,30,66,60,,60,60,18,40,4,4,0.3,0.7
2026-01-07T1700,3324A,116.8011,38.294,沧州市,河北水利电力学院,,26,,75,18,49,60,,60,60,19,41,5,7,0.2,0.6
2026-01-07T1700,2622A,97.1813,31.1289,昌都市,昌都监测站,,28,6,54,3,21,89,,68,68,3,23,1,2,0.3,1
2026-01-07T1700,3719A,97.1707,31.1428,昌都市,昌都会议中心,,25,10,17,3,10,80,,63,63,1,4,2,2,0.4,0.5
2026-01-07T1700,2692A,87.2722,44.0298,昌吉回族自治州,新区政务中心,细颗粒物(PM2.5),198,201,219,148,160,51,,35,35,34,46,5,4,1.5,1.6
2026-01-07T1700,3613A,87.3069,44.0093,昌吉回族自治州,亚心广场,细颗粒物(PM2.5),206,207,225,156,168,44,,36,36,34,37,8,7,1.6,1.7
2026-01-07T1700,4164A,87.2057,43.9289,昌吉回族自治州,财政所,细颗粒物(PM2.5),204,186,187,154,135,43,,45,45,36,38,5,5,1.2,1.2
2026-01-07T1700,1120A,125.2874,43.9024,长春市,客车厂,,32,29,40,22,22,32,,51,47,32,19,8,9,0.4,0.4
2026-01-07T1700,1121A,125.2943,43.8508,长春市,邮电学院,,25,20,41,17,22,42,,50,50,17,15,8,9,0.2,0.2
2026-01-07T1700,1122A,125.3648,43.8745,长春市,劳动公园,,25,22,36,17,18,46,,53,53,20,17,11,9,0.5,0.4
2026-01-07T1700,1123A,125.3233,43.8781,长春市,园林处,,,26,34,20,19,41,,49,49,,15,,10,0.4,0.3
2026-01-07T1700,1124A,125.4604,43.7904,长春市,净月潭,,17,17,40,11,16,51,,54,54,12,13,6,7,0.3,0.3
2026-01-07T1700,1126A,125.38,43.8422,长春市,经开区环卫处,,19,17,36,13,16,38,,50,49,28,21,20,10,0.3,0.4
2026-01-07T1700,1127A,125.234,43.7761,长春市,高新区管委会,,28,,36,19,19,49,,58,58,20,13,6,6,0.3,0.4
2026-01-07T1700,1128A,125.1695,43.83,长春市,岱山公园,,28,27,39,19,20,29,,51,50,40,18,11,8,0.4,0.3
2026-01-07T1700,4281A,125.334645,43.916281,长春市,北亚泰大街1068号,,29,20,34,20,19,41,,50,50,22,19,6,8,0.5,0.5
2026-01-07T1700,1335A,113.082,28.2421,长沙市,经开区环保局,,46,36,81,32,59,93,,67,67,20,45,4,5,0.3,0.7
2026-01-07T1700,1336A,112.8873,28.2202,长沙市,高开区环保局,,,33,86,31,67,90,,62,62,,47,5,5,0.8,1.2
2026-01-07T1700,1337A,113.0785,28.2012,长沙市,马坡岭,,50,41,89,35,65,96,,73,73,17,45,4,5,0.7,0.9
2026-01-07T1700,1338A,112.9448,28.1894,长沙市,湖南师范大学,,43,42,76,30,53,96,,68,68,28,50,7,6,0.4,0.8
2026-01-07T1700,1339A,113.0177,28.1322,长沙市,雨花区环保局,,43,38,84,30,60,95,,60,60,20,49,8,8,0.4,0.8
2026-01-07T1700,1340A,112.9795,28.2593,长沙市,伍家岭,细颗粒物(PM2.5),53,41,95,37,62,92,,60,60,27,47,6,5,0.2,0.7
2026-01-07T1700,1341A,113.002,28.1944,长沙市,火车新站,细颗粒物(PM2.5),52,49,101,36,73,93,,59,59,22,55,9,9,0.3,0.9
2026-01-07T1700,1342A,112.9846,28.1177,长沙市,天心区环保局,,,36,81,36,59,98,,66,66,,57,6,6,0.5,1
2026-01-07T1700,1343A,112.8906,28.1307,长沙市,湖南中医药大学,,38,38,80,26,53,95,,68,68,24,47,6,6,0.5,0.8
2026-01-07T1700,1727A,113.1146,36.1547,长治市,清华站,,35,35,32,22,18,80,,68,68,12,24,12,12,0.5,0.5
2026-01-07T1700,1730A,113.0887,36.2126,长治市,审计局,,36,36,29,19,17,78,,66,66,10,23,7,9,0.5,0.5
2026-01-07T1700,1731A,113.0845,36.1856,长治市,长治八中,,,44,40,21,21,77,,67,67,6,19,9,11,,0.7
2026-01-07T1700,2845A,113.1561,36.1912,长治市,德盛苑,,41,41,28,24,17,78,,71,71,14,16,9,9,0.5,0.5
2026-01-07T1700,3568A,113.0603,36.0464,长治市,向阳小学,颗粒物(PM10),57,64,54,27,23,83,,76,76,15,23,8,10,0.4,0.5
2026-01-07T1700,3569A,112.8788,36.315,长治市,屯留一中,颗粒物(PM10),53,55,34,16,17,78,,71,71,4,14,4,5,0.1,0.2
2026-01-07T1700,4189A,113.113092,36.199482,长治市,英华南巷50号,,49,42,35,34,26,79,,68,68,10,19,8,9,0.4,0.5
2026-01-07T1700,4190A,113.23666,36.33435,长治市,学府街1号,,42,42,39,22,21,77,,67,67,16,24,11,14,0.5,0.6
2026-01-07T1700,1854A,111.696,28.9725,常德市,市二中,,31,31,53,20,46,87,,64,64,17,25,6,6,0.4,0.6
2026-01-07T1700,3138A,111.7152,29.0288,常德市,武陵区永安,,32,32,62,21,49,92,,71,71,13,21,4,5,0.5,0.7
2026-01-07T1700,3139A,111.6891,28.9881,常德市,鼎城区玉霞,,36,36,59,24,50,92,,67,67,15,32,9,8,0.6,0.8
2026-01-07T1700,3140A,111.6651,29.0526,常德市,武陵区长庚,,,,62,22,51,91,,69,69,19,27,,4,0.5,0.8
2026-01-07T1700,1196A,119.9524,31.7586,常州市,市监测站,,48,43,52,33,44,87,,74,74,21,30,5,4,0.6,0.7
2026-01-07T1700,1200A,119.9351,31.703,常州市,武进监测站,,49,35,49,34,41,85,,77,77,21,25,8,7,0.4,0.5
2026-01-07T1700,3002A,119.9701,31.813,常州市,行政中心,,46,46,59,28,39,81,,71,71,22,27,6,6,0.5,0.6
2026-01-07T1700,3003A,120.0434,31.7726,常州市,经开区,,,42,52,28,37,86,,76,76,,18,5,5,,0.9
2026-01-07T1700,3010A,119.8919,31.7892,常州市,钟楼,颗粒物(PM10),51,51,59,30,42,76,,69,69,24,28,8,7,0.5,0.6
2026-01-07T1700,3429A,119.8595,31.706,常州市,武进经发区,,43,38,56,30,38,87,,82,82,18,21,9,7,0.4,0.7
2026-01-07T1700,3430A,119.5812,31.7256,常州市,金坛城区,,38,36,55,26,44,74,,67,67,16,21,8,7,0.5,0.8
2026-01-07T1700,4089A,119.9551,31.863,常州市,崇义南街5-H号,,38,38,60,20,39,83,,71,71,25,30,6,6,0.5,0.7
2026-01-07T1700,2220A,120.4318,41.588,朝阳市,西梁,,40,40,37,12,12,52,,66,64,25,13,6,7,0.5,0.4
2026-01-07T1700,2221A,120.452,41.565,朝阳市,河畔小区,,38,38,32,10,10,65,,68,68,13,12,6,6,0.3,0.3
2026-01-07T1700,2222A,120.4176,41.5648,朝阳市,八里堡,,43,43,44,11,9,63,,66,66,12,12,10,9,0.5,0.5
2026-01-07T1700,3026A,116.6179,23.6608,潮州市,市政府,,,30,29,18,20,98,,95,95,,3,7,6,0.3,0.3
2026-01-07T1700,4036A,116.646,23.676,潮州市,金山,,39,32,35,27,27,93,,89,89,7,4,4,4,0.3,0.3
2026-01-07T1700,2473A,113.0116,25.8228,郴州市,市职中,,38,33,50,26,44,99,,80,80,3,18,12,5,0.4,0.6
2026-01-07T1700,2475A,113.0381,25.8074,郴州市,市审计局,,45,43,55,31,43,105,,81,81,11,23,19,4,/,/
2026-01-07T1700,2476A,113.0348,25.7757,郴州市,市环保局,,36,36,63,24,44,99,,78,78,13,28,20,4,0.6,0.8
2026-01-07T1700,4252A,113.0138,25.8011,郴州市,好美居路49号,,48,48,53,30,47,102,,87,87,10,23,13,3,/,/
2026-01-07T1700,1431A,103.9727,30.7242,成都市,金泉两河,,50,50,79,25,49,106,,65,65,19,56,3,5,0.4,0.9
2026-01-07T1700,1432A,104.1423,30.6765,成都市,十里店,,,,65,,42,100,,53,53,23,59,4,4,,0.7
2026-01-07T1700,1433A,104.0594,30.5765,成都市,三瓦窑,细颗粒物(PM2.5),65,53,59,47,45,101,,56,56,26,53,5,4,0.5,0.7
2026-01-07T1700,1434A,104.1122,30.6306,成都市,沙河铺,,,49,63,37,45,89,,45,45,,55,4,3,0.4,0.7
2026-01-07T1700,2880A,104.0219,30.6561,成都市,大石西路,细颗粒物(PM2.5),54,56,75,38,49,95,,56,56,19,58,5,5,0.4,0.7
2026-01-07T1700,3136A,104.2724,30.559,成都市,龙泉驿区区政府,,34,34,34,22,29,66,,51,51,16,16,7,6,0.5,0.6
2026-01-07T1700,3357A,104.0028,30.6891,成都市,金博路,,36,34,67,25,50,104,,61,61,19,55,4,6,0.5,0.9
2026-01-07T1700,3359A,104.056,30.5228,成都市,华阳,细颗粒物(PM2.5),58,51,52,41,41,108,,64,64,16,47,5,3,0.4,0.6
2026-01-07T1700,3488A,104.387954,30.746684,成都市,青石路225号,颗粒物(PM10),56,61,60,39,40,87,,52,52,35,43,2,2,0.4,0.4
2026-01-07T1700,3489A,104.0788,30.4054,成都市,科学城,细颗粒物(PM2.5),80,66,49,59,40,106,,68,68,15,28,8,7,0.4,0.6
2026-01-07T1700,4011A,103.8505,30.6946,成都市,光华大道三段,细颗粒物(PM2.5),72,67,79,52,58,120,,81,81,15,42,4,6,0.4,0.7
2026-01-07T1700,4144A,104.3257,30.6406,成都市,八角井街185号,,45,39,58,31,35,89,,54,54,26,34,7,4,0.6,0.8
2026-01-07T1700,4224A,104.2433276,30.53529463,成都市,鲸龙路1057号,,43,42,48,30,36,97,,68,68,18,42,7,7,0.2,0.3
2026-01-07T1700,1062A,117.9531,40.908,承德市,铁路,,23,23,33,14,13,67,,56,56,6,15,3,4,0.2,0.4
2026-01-07T1700,1063A,117.9397,40.9763,承德市,中国银行,,21,17,35,7,10,65,,57,57,6,10,2,2,0.2,0.3
2026-01-07T1700,4073A,117.9462,40.95,承德市,杏林街1号,,22,14,26,12,14,69,,55,55,4,11,3,4,0.2,0.3
2026-01-07T1700,4274A,117.7994,40.9605,承德市,滨河大街98号,,25,,32,17,12,65,,54,54,7,13,3,3,0.2,0.3
2026-01-07T1700,2314A,117.4698,30.6617,池州市,池州学院,,40,38,58,28,49,85,,73,73,20,25,10,5,0.8,0.8
2026-01-07T1700,3237A,117.4918,30.6617,池州市,展览馆,,38,38,55,19,39,85,,72,72,30,31,6,3,0.8,1
2026-01-07T1700,3333A,117.5626,30.695,池州市,第八中学,,32,31,57,22,45,87,,77,77,25,29,7,4,0.7,0.9
2026-01-07T1700,3334A,117.5037,30.6242,池州市,第十二中学,,44,44,62,28,46,86,,75,75,27,37,8,6,0.3,1.2
2026-01-07T1700,1744A,118.9229,42.2816,赤峰市,松山一中,,21,21,25,3,7,61,,56,56,11,17,3,6,0.5,0.6
2026-01-07T1700,1745A,118.9588,42.2733,赤峰市,哈达街,,20,18,23,3,9,63,,61,61,13,14,4,6,0.6,0.6
2026-01-07T1700,1746A,118.8792,42.2551,赤峰市,天义路,,22,,14,11,11,70,,67,67,11,11,5,8,0.4,0.4
2026-01-07T1700,3058A,119.2656,42.0356,赤峰市,银河街,,21,20,36,3,15,66,,67,67,9,9,15,12,0.5,0.7
2026-01-07T1700,3286A,118.9359,42.3146,赤峰市,桥北物流园区,,28,,20,19,11,62,,62,62,13,14,3,5,0.5,0.6
2026-01-07T1700,2521A,107.3473,22.4137,崇左市,市环保局江州分局,,,28,34,17,22,87,,68,68,8,17,,7,0.4,0.5
2026-01-07T1700,4256A,107.375,22.3736,崇左市,石景林东路7号,,38,,28,26,20,90,,73,73,8,19,8,7,0.4,0.6
2026-01-07T1700,3207A,118.31131,32.3033,滁州市,市政府原办公楼,,43,43,45,26,27,77,,78,78,15,17,7,6,0.4,0.4
2026-01-07T1700,3331A,118.3268,32.2633,滁州市,图书馆,,31,31,37,14,22,78,,75,75,14,12,9,9,0.4,0.4
2026-01-07T1700,4101A,118.3196,32.3335,滁州市,银山路666号,,45,40,41,31,36,75,,75,75,11,10,8,8,0.6,0.5
2026-01-07T1700,4102A,118.3426,32.2979,滁州市,黄山路555号,,49,49,52,30,34,85,,84,84,14,17,12,10,0.6,0.5
2026-01-07T1700,2606A,101.5379,25.0492,楚雄彝族自治州,市经济开发区,,19,13,27,13,19,37,,29,23,6,10,2,2,0.7,0.7
2026-01-07T1700,4153A,101.5536,25.0343,楚雄彝族自治州,团结路562号,,,11,17,8,16,36,,31,25,,7,2,2,0.7,0.6
2026-01-07T1700,2549A,107.5087,31.2186,达州市,市环境监测站,细颗粒物(PM2.5),113,124,87,85,64,24,,28,28,71,46,11,7,0.7,0.6
2026-01-07T1700,2550A,107.4988,31.2132,达州市,凤凰小区,细颗粒物(PM2.5),110,129,93,83,65,28,,32,32,66,42,10,6,0.6,0.6
2026-01-07T1700,2551A,107.5081,31.1987,达州市,达县机关宾馆,细颗粒物(PM2.5),103,122,97,77,65,31,,29,29,64,45,6,4,0.8,0.8
2026-01-07T1700,2552A,107.4644,31.2124,达州市,市政中心,,,112,106,68,67,51,,34,34,43,44,,7,0.5,0.7
2026-01-07T1700,2614A,100.2168,25.5818,大理白族自治州,大理市环境监测站,,24,16,20,14,17,76,,68,68,8,11,6,7,0.4,0.5
2026-01-07T1700,2615A,100.1542,25.7055,大理白族自治州,大理古城,,25,16,19,10,15,80,,80,80,8,9,8,8,0.6,0.6
2026-01-07T1700,1109A,121.6119,38.974,大连市,甘井子,,35,35,39,12,8,70,,74,74,17,15,8,9,0.6,0.3
2026-01-07T1700,1110A,121.565,38.9509,大连市,周水子,,31,31,32,12,8,62,,70,70,15,11,3,5,0.3,0.3
2026-01-07T1700,1111A,121.5637,38.8849,大连市,星海三站,,22,22,28,11,9,63,,69,69,16,15,6,6,0.4,0.4
2026-01-07T1700,1112A,121.6301,38.9117,大连市,青泥洼桥,,28,28,22,11,9,59,,62,62,19,18,8,8,0.2,0.3
2026-01-07T1700,1113A,121.6248,38.8643,大连市,傅家庄,,26,26,28,13,8,55,,60,60,17,14,8,9,0.2,0
2026-01-07T1700,1114A,121.5117,38.8636,大连市,七贤岭,,29,29,33,11,8,59,,65,65,14,11,7,7,0.5,0.5
2026-01-07T1700,1116A,121.7507,39.1339,大连市,金州,,33,33,27,16,11,69,,72,72,18,14,9,8,0.2,0.3
2026-01-07T1700,1117A,121.7811,39.0495,大连市,开发区,,26,26,34,11,9,64,,66,66,12,11,6,5,0.5,0.5
2026-01-07T1700,1118A,121.9762,39.0631,大连市,双D港,,25,23,34,10,7,78,,77,77,8,11,12,11,0.5,0.5
2026-01-07T1700,4082A,121.2548,38.8188,大连市,旅顺,,31,31,34,10,9,69,,71,71,8,9,6,6,0.6,0.6
2026-01-07T1700,1789A,124.8085,46.0381,大庆市,大同区,,33,33,33,17,24,55,,59,56,7,12,4,6,0.3,0.4
2026-01-07T1700,1790A,125.1166,46.5255,大庆市,龙凤区,,18,18,33,10,22,47,,53,51,18,22,6,8,0.4,0.5
2026-01-07T1700,1791A,124.8894,46.4007,大庆市,红岗区,,29,27,29,20,22,47,,53,50,11,15,4,5,0.5,0.6
2026-01-07T1700,1792A,125.1391,46.578,大庆市,萨尔图区,,22,22,33,7,18,38,,52,46,17,15,7,8,0.3,0.3
2026-01-07T1700,1793A,124.9026,46.6217,大庆市,让胡路区,,25,22,30,17,27,54,,58,57,7,10,6,7,0.3,0.4
2026-01-07T1700,3481A,125.127,46.6277,大庆市,萨区政府监测点,,26,26,37,14,18,50,,57,54,8,12,8,9,0.5,0.6
2026-01-07T1700,1723A,113.2926,40.0759,大同市,云冈宾馆,颗粒物(PM10),54,57,67,16,30,52,,37,37,23,34,8,9,0.5,1.1
2026-01-07T1700,1724A,113.3437,40.0921,大同市,大同大学,颗粒物(PM10),51,52,53,18,27,55,,42,42,20,29,7,11,0.7,0.9
2026-01-07T1700,1725A,113.2637,40.129,大同市,安家小村,颗粒物(PM10),52,54,77,19,32,63,,46,46,19,36,6,13,0.4,1.9
2026-01-07T1700,3282A,113.3399,40.0586,大同市,大同市卫生学校,颗粒物(PM10),55,59,59,21,26,55,,22,,22,35,7,10,0.4,0.9
2026-01-07T1700,3565A,113.1371,40.1122,大同市,云冈站,,40,40,55,21,26,63,,49,49,12,31,6,7,0.6,0.8
2026-01-07T1700,3566A,113.1186,40.2556,大同市,图书馆,颗粒物(PM10),51,51,55,35,32,51,,45,45,22,17,10,8,0.8,0.9
2026-01-07T1700,3567A,113.5931,40.0459,大同市,区一中,颗粒物(PM10),58,65,74,20,36,63,,45,45,20,28,18,18,0.5,0.8
2026-01-07T1700,4199A,113.2798248,40.09972476,大同市,魏都大道141号,颗粒物(PM10),55,60,82,26,32,54,,38,38,23,38,7,9,0.5,1.6
2026-01-07T1700,2269A,124.1068,50.4091,大兴安岭地区,科技局,,20,19,19,14,18,51,,51,51,6,2,6,5,0.4,0.4
2026-01-07T1700,3663A,124.117,50.4279,大兴安岭地区,红旗社区,,19,,8,6,5,60,,59,59,3,3,6,6,0.2,0.3
2026-01-07T1700,1600A,124.33,40.0625,丹东市,江湾东路,,33,33,61,15,37,58,,63,63,13,23,8,10,0.4,0.8
2026-01-07T1700,1601A,124.4242,40.1513,丹东市,临江后街,,37,37,60,12,31,58,,67,66,15,25,7,10,0.5,0.9
2026-01-07T1700,1602A,124.3935,40.1461,丹东市,元宝山,,34,34,46,14,26,61,,64,63,8,16,8,9,0.4,0.5
2026-01-07T1700,1603A,124.3634,40.1093,丹东市,民主桥,,34,34,66,6,35,59,,63,63,12,22,8,9,0.4,0.7
2026-01-07T1700,3541A,109.5726195,19.51688767,儋州市,第一中学子站,,40,40,48,28,37,103,,83,83,6,8,5,5,0.6,0.7
2026-01-07T1700,3542A,109.5567,19.5187,儋州市,东坡学校子站,,38,33,44,26,32,112,,88,88,7,8,3,5,0.6,0.7
2026-01-07T1700,2616A,98.5611,24.4273,德宏傣族景颇族自治州,德宏州监测站,,39,39,47,22,41,93,,55,55,8,23,6,6,0.4,0.7
2026-01-07T1700,3677A,98.5887,24.4366,德宏傣族景颇族自治州,芒市人民政府综合楼,,44,44,49,30,35,87,,48,48,8,16,5,5,0.5,0.7
2026-01-07T1700,1901A,104.424,31.1209,德阳市,东山公园,细颗粒物(PM2.5),73,64,60,53,50,95,,52,52,19,30,4,4,0.6,0.7
2026-01-07T1700,1902A,104.3827,31.1318,德阳市,西小区,细颗粒物(PM2.5),78,73,91,57,58,92,,49,49,25,48,4,4,0.5,0.8
2026-01-07T1700,1904A,104.3553,31.1091,德阳市,耐火材料厂,细颗粒物(PM2.5),73,62,86,53,62,99,,64,64,24,50,3,3,0.5,0.8
2026-01-07T1700,4145A,104.4144,31.1495,德阳市,市林业局,细颗粒物(PM2.5),67,65,74,48,56,92,,50,50,23,49,4,4,0.6,0.7
2026-01-07T1700,1622A,116.3034,37.4675,德州市,儿童乐园,,24,24,73,7,32,73,,67,67,23,44,11,14,0.8,1.1
2026-01-07T1700,1624A,116.2992,37.4449,德州市,监理站,,26,22,64,3,31,81,,76,76,14,46,11,15,0.5,0.8
2026-01-07T1700,3066A,116.2722,37.438,德州市,九衢泉纯净水厂,,27,27,71,7,35,75,,67,67,16,49,12,16,0.4,0.7
2026-01-07T1700,3371A,116.3693,37.44,德州市,开发区人民医院,,27,27,66,3,31,75,,69,69,36,57,11,15,0.3,0.6
2026-01-07T1700,3511A,116.5687,37.3331,德州市,陵城艺术中心,,27,27,74,3,37,60,,62,62,34,48,10,13,0.0,0.3
2026-01-07T1700,4292A,116.352738,37.420875,德州市,新河东路,,24,22,64,12,34,76,,70,70,31,54,10,14,0.7,0.9
2026-01-07T1700,2621A,99.7054,27.8319,迪庆藏族自治州,迪庆州站,,28,17,23,14,17,89,,84,84,4,9,4,5,0.3,0.5
2026-01-07T1700,3180A,99.7122,27.8129,迪庆藏族自治州,质量技术监督局,,30,30,22,8,16,93,,88,88,5,10,6,5,0.3,0.4
2026-01-07T1700,4257A,104.6092,35.5962,定西市,将台街,,42,42,62,21,43,100,,69,69,7,30,10,14,0.2,0.8
2026-01-07T1700,4309A,104.6159,35.5701,定西市,正龙路62号,,,46,64,,47,96,,66,66,4,13,8,10,0.3,0.8
2026-01-07T1700,1390A,113.7943,23.0132,东莞市,东城石井,,34,31,36,21,25,108,,103,103,16,17,7,7,0.5,0.5
2026-01-07T1700,1391A,113.7384,22.9659,东莞市,南城西平,,33,29,35,22,24,104,,99,99,16,26,9,9,0.5,0.6
2026-01-07T1700,3319A,113.7283,23.041,东莞市,万江金泰,,32,29,36,20,25,101,,98,98,12,19,6,6,0.6,0.7
2026-01-07T1700,4129A,113.8666,23.1062,东莞市,裕兴路,,,37,36,23,29,127,,118,118,,14,,4,0.6,0.6
2026-01-07T1700,4130A,114.0076,22.9739,东莞市,教育路1号,,34,31,44,19,27,108,,100,100,17,18,5,4,0.4,0.5
2026-01-07T1700,4131A,113.7981,22.8124,东莞市,长怡路1号,,,47,43,26,25,116,,106,106,20,20,,8,0.5,0.5
2026-01-07T1700,1666A,118.6612,37.4313,东营市,市环保局,,,7,75,3,45,70,,70,70,17,41,7,12,,1
2026-01-07T1700,3036A,118.6903,37.4337,东营市,开发区管委会,,25,11,85,3,49,79,,78,78,14,44,9,14,0.6,1
2026-01-07T1700,3365A,118.5721,37.5654,东营市,垦利区民丰路,,24,9,77,3,48,74,,72,72,12,38,4,9,0.8,1.1
2026-01-07T1700,3498A,118.5063,37.8606,东营市,河口城区,,25,17,99,3,64,79,,79,79,16,36,5,6,0.5,0.9
2026-01-07T1700,3646A,118.4979,37.4623,东营市,胜利站,,23,22,83,3,49,72,,70,70,16,49,11,15,0.7,1.1
2026-01-07T1700,3734A,118.5753,37.4405,东营市,理想之城,,22,14,78,9,51,68,,69,69,21,46,5,9,0.6,0.9
2026-01-07T1700,1591A,110.0024,39.8127,鄂尔多斯市,综合楼,颗粒物(PM10),52,53,68,19,22,66,,66,66,14,10,5,4,0.6,0.5
2026-01-07T1700,1592A,109.9485,39.8259,鄂尔多斯市,巴音孟克林场办事处,颗粒物(PM10),59,68,80,19,24,73,,67,67,10,11,6,5,0.3,0.3
2026-01-07T1700,1593A,109.7734,39.5987,鄂尔多斯市,康泽苑,细颗粒物(PM2.5),70,63,62,51,27,78,,72,72,7,10,5,5,0.4,0.4
2026-01-07T1700,1594A,109.8121,39.5987,鄂尔多斯市,华泰汽车城,颗粒物(PM10),62,73,64,27,23,73,,65,65,8,12,4,3,0.3,0.4
2026-01-07T1700,1595A,109.9734,39.7884,鄂尔多斯市,奥林花园,颗粒物(PM10),63,75,86,19,20,70,,65,65,12,12,2,2,0.4,0.4
2026-01-07T1700,2436A,114.894,30.3989,鄂州市,市政府,,48,44,48,33,32,77,,51,51,19,31,5,6,0.7,0.8
2026-01-07T1700,2437A,114.8986,30.3714,鄂州市,赵家坝,,48,43,54,33,35,92,,64,64,14,25,8,10,0.4,0.5
2026-01-07T1700,3654A,114.8093,30.4091,鄂州市,精准医疗中心,细颗粒物(PM2.5),52,46,48,36,34,99,,72,72,12,25,4,6,0.4,0.8
2026-01-07T1700,2454A,109.4978,30.2979,恩施土家族苗族自治州,湖北民院,,46,39,52,32,43,83,,65,65,12,18,6,6,0.6,0.7
2026-01-07T1700,3549A,109.5061,30.3771,恩施土家族苗族自治州,龙凤新区,,48,45,42,33,35,69,,48,48,15,12,6,7,0.2,0.3
2026-01-07T1700,2499A,108.3411,21.6159,防城港市,沙万,,40,36,33,28,29,100,,85,85,10,11,6,6,0.4,0.5
2026-01-07T1700,2500A,108.3515,21.7733,防城港市,防城档案局,,45,45,48,22,21,90,,80,80,15,14,5,5,0.4,0.5
2026-01-07T1700,2501A,108.3506,21.6414,防城港市,大海花园,,42,42,32,23,23,108,,94,94,7,7,6,6,0.5,0.6
2026-01-07T1700,1371A,113.1293,23.0065,佛山市,湾梁,,39,39,40,24,27,102,,92,92,21,26,/,/,/,/
2026-01-07T1700,1372A,113.1082,23.0477,佛山市,华材职中,,46,46,47,22,27,101,,89,89,20,26,8,7,0.5,0.6
2026-01-07T1700,1373A,113.1439,23.045,佛山市,南海气象局,颗粒物(PM10),63,75,40,31,30,101,,89,89,20,28,/,/,/,/
2026-01-07T1700,1374A,113.2879,22.8094,佛山市,顺德苏岗,,48,48,36,27,27,105,,89,89,24,23,/,/,0.6,0.6
2026-01-07T1700,1376A,112.8384,22.8678,佛山市,高明孔堂,细颗粒物(PM2.5),53,,51,37,37,107,,95,95,19,24,/,/,/,/
2026-01-07T1700,1377A,112.8835,23.1584,佛山市,三水监测站,,,,49,27,36,94,,81,81,15,26,5,6,0.5,0.6
2026-01-07T1700,1378A,112.8668,23.185,佛山市,三水云东海,,44,44,48,23,33,100,,89,89,14,23,/,/,/,/
2026-01-07T1700,3625A,113.2568,22.7629,佛山市,容桂街道办,,46,46,39,31,29,104,,87,87,23,21,/,/,/,/
2026-01-07T1700,1282A,119.2681,26.0506,福州市,师大,,50,39,27,35,26,95,,96,96,30,18,5,6,0.5,0.5
2026-01-07T1700,1283A,119.2983,26.1028,福州市,五四北路,,49,38,25,34,23,95,,88,88,24,17,5,4,0.6,0.6
2026-01-07T1700,1284A,119.2648,26.0769,福州市,杨桥西路,细颗粒物(PM2.5),55,44,27,39,23,97,,91,91,23,12,5,4,/,/
2026-01-07T1700,3048A,119.5799,26.0937,福州市,九龙,,46,,24,32,21,110,,98,98,15,13,5,5,0.5,0.6
2026-01-07T1700,3526A,119.5188,25.9666,福州市,吴航,,36,32,32,25,25,107,,96,96,16,16,6,5,0.7,0.6
2026-01-07T1700,4104A,119.3106,26.0648,福州市,路通桥巷6号,颗粒物(PM10),57,64,32,33,27,97,,87,87,20,14,/,/,/,/
2026-01-07T1700,1755A,123.7974,41.8494,抚顺市,望花区,,26,26,70,11,19,52,,60,59,18,20,8,11,0.6,0.7
2026-01-07T1700,1756A,123.9161,41.8827,抚顺市,顺城区,,25,25,56,16,17,54,,60,59,17,22,7,9,0.4,0.7
2026-01-07T1700,1757A,124.0437,41.8615,抚顺市,东洲区,,19,14,66,13,21,57,,61,61,12,20,3,6,0.5,0.8
2026-01-07T1700,1758A,123.9246,41.8638,抚顺市,新抚区,,22,22,62,11,18,60,,64,64,17,22,7,8,0.7,0.8
2026-01-07T1700,1759A,124.0972,41.8961,抚顺市,大伙房水库,,22,22,64,14,22,53,,58,58,12,19,10,11,0.6,0.7
2026-01-07T1700,1760A,123.708,41.8386,抚顺市,沈抚新城,,23,17,63,16,16,57,,64,64,16,20,8,7,0.6,0.6
2026-01-07T1700,2377A,116.3544,27.9833,抚州市,市站,,32,28,53,17,36,100,,81,81,9,21,8,10,0.3,0.5
2026-01-07T1700,2378A,116.3562,27.9631,抚州市,血防站,,,32,54,18,35,105,,86,86,11,26,5,7,,0.6
2026-01-07T1700,2379A,116.3561,28.0007,抚州市,采茶剧团,,35,33,53,11,35,110,,87,87,7,19,7,9,0.5,0.7
2026-01-07T1700,2380A,116.3854,27.9648,抚州市,医学分院,,35,31,54,13,32,111,,92,92,2,16,7,6,0.5,0.6
2026-01-07T1700,2207A,121.6095,41.9978,阜新市,工业园区,,48,48,54,7,10,67,,70,70,10,8,5,6,0.3,0.3
2026-01-07T1700,2208A,121.6567,42.0188,阜新市,长青街,,21,18,44,3,6,66,,66,66,6,6,6,6,0.3,0.3
2026-01-07T1700,2209A,121.6672,42.07,阜新市,农业园区,,33,33,44,7,7,61,,61,61,7,6,4,6,0.2,0.3
2026-01-07T1700,2211A,121.6343,42.0455,阜新市,玉龙新城,,29,29,45,6,6,62,,63,63,8,10,3,6,0.2,0.2
2026-01-07T1700,2301A,115.8276,32.8929,阜阳市,市监测站,颗粒物(PM10),52,54,49,34,27,80,,68,68,19,21,6,5,0.5,0.5
2026-01-07T1700,2303A,115.8551,32.8606,阜阳市,开发区,颗粒物(PM10),52,53,40,25,27,81,,69,69,18,22,7,6,0.4,0.4
2026-01-07T1700,2875A,115.783962,32.889217,阜阳市,阜阳职业技术学院,颗粒物(PM10),52,53,39,22,25,84,,75,75,15,19,9,8,0.4,0.5
2026-01-07T1700,3468A,115.79,32.8614,阜阳市,市规划展馆,,49,49,48,28,27,85,,73,73,18,21,8,7,0.4,0.4
2026-01-07T1700,3469A,115.835101,32.918568,阜阳市,枣园社区,颗粒物(PM10),52,53,47,34,27,85,,71,71,20,21,8,7,0.2,0.3
2026-01-07T1700,2669A,102.9097,34.9841,甘南藏族自治州,州政府,,,21,49,19,32,89,,67,67,,34,1,3,0.2,0.8
2026-01-07T1700,3380A,102.8915,34.9618,甘南藏族自治州,甘肃民族师范学院,,31,13,60,3,26,97,,73,73,2,35,2,8,0.4,0.5
2026-01-07T1700,2570A,101.96,30.048,甘孜藏族自治州,水桥子,,27,14,8,6,5,86,,67,67,7,13,6,6,0.8,0.9
2026-01-07T1700,3065A,101.9534,29.9976,甘孜藏族自治州,州环保局,,26,16,10,3,5,83,,69,69,8,12,6,5,0.6,0.7
2026-01-07T1700,2363A,114.9368,25.8663,赣州市,地委,,32,24,44,22,29,101,,84,84,12,23,8,7,0.8,0.8
2026-01-07T1700,2364A,114.946,25.8483,赣州市,气象台,,39,39,57,17,26,100,,88,88,19,36,3,3,0.5,0.5
2026-01-07T1700,2365A,114.932,25.8332,赣州市,市图书馆,,31,27,44,8,29,97,,81,81,13,32,4,4,0.5,0.6
2026-01-07T1700,2366A,114.8905,25.8472,赣州市,华坚鞋城,,29,28,46,18,27,91,,77,77,12,32,5,5,0.3,0.4
2026-01-07T1700,3109A,115.0094,25.8614,赣州市,赣县区卫计委,,34,31,44,23,36,107,,80,80,12,24,8,7,0.4,0.5
2026-01-07T1700,2684A,106.2753,36.0057,固原市,监测站,,33,33,25,13,15,86,,82,82,7,11,4,5,0.3,0.5
2026-01-07T1700,2685A,106.2384,36.0189,固原市,新区,,30,21,23,7,12,95,,90,90,6,9,3,4,0.4,0.5
2026-01-07T1700,2544A,106.6307,30.4577,广安市,市委,细颗粒物(PM2.5),74,67,74,54,59,59,,38,38,35,37,9,8,0.8,1
2026-01-07T1700,2545A,106.6266,30.4662,广安市,友谊中学,细颗粒物(PM2.5),69,60,62,50,53,66,,46,46,24,19,7,6,0.7,0.8
2026-01-07T1700,2547A,106.6386,30.4551,广安市,广电花园,细颗粒物(PM2.5),67,68,70,48,56,61,,36,36,28,32,10,8,0.6,0.8
2026-01-07T1700,2902A,106.6347,30.4868,广安市,北辰小学,,,59,70,44,55,81,,49,49,,20,24,20,,1
2026-01-07T1700,2524A,105.8211,32.4444,广元市,老城,,30,,49,21,34,95,,49,49,14,51,9,15,0.4,1.1
2026-01-07T1700,2526A,105.8629,32.429,广元市,监测站,,30,23,51,20,33,94,,48,48,13,33,2,9,1.4,1
2026-01-07T1700,3617A,105.8047,32.4167,广元市,经开区,,31,31,58,20,37,59,,35,35,24,42,3,12,0.5,1.1
2026-01-07T1700,1345A,113.2346,23.1423,广州市,广雅中学,,35,35,45,22,31,96,,91,91,18,24,4,5,0.5,0.5
2026-01-07T1700,1346A,113.2611,23.105,广州市,市五中,,,38,44,24,33,116,,104,104,,29,10,11,/,/
2026-01-07T1700,1348A,113.3477,23.0916,广州市,广东商学院,,36,36,41,24,31,103,,93,93,15,19,7,8,0.2,0.3
2026-01-07T1700,1349A,113.4332,23.105,广州市,市八十六中,,35,32,36,20,32,109,,96,96,16,20,8,8,/,/
2026-01-07T1700,1350A,113.3506,22.9488,广州市,番禺中学,,45,36,43,31,32,112,,97,97,24,29,3,4,0.3,0.3
2026-01-07T1700,1351A,113.2147,23.3918,广州市,花都师范,,,,47,,32,,,68,,,27,,9,,0.6
2026-01-07T1700,1352A,113.2599,23.1329,广州市,市监测站,,33,33,44,23,34,101,,93,93,21,28,3,4,/,/
2026-01-07T1700,1353A,113.5618,23.3119,广州市,九龙镇镇龙,,35,34,40,24,29,99,,87,87,15,19,6,6,0.4,0.5
2026-01-07T1700,1354A,113.2764,23.1544,广州市,麓湖,,32,30,41,22,34,100,,92,92,15,30,9,10,0.4,0.5
2026-01-07T1700,2846A,113.3209,23.1323,广州市,体育西,,,35,43,24,33,107,,94,94,16,25,7,8,,0.6
2026-01-07T1700,3298A,113.5718,23.5493,广州市,从化街口,,33,29,38,22,30,103,,96,96,10,22,9,10,0.5,0.7
2026-01-07T1700,3299A,113.3463,23.369,广州市,白云竹料,,34,31,42,21,32,108,,101,101,12,25,5,6,0.3,0.5
2026-01-07T1700,3300A,113.2981,23.2365,广州市,白云嘉禾,,39,39,51,21,31,106,,98,98,22,32,6,7,/,/
2026-01-07T1700,3301A,113.4256,23.1716,广州市,黄埔科学城,,36,30,37,23,30,115,,104,104,14,15,5,6,0.6,0.7
2026-01-07T1700,3302A,113.3942,23.0485,广州市,番禺大学城,,37,37,38,23,28,117,,102,102,16,20,10,11,0.4,0.4
2026-01-07T1700,3303A,113.4923,22.8169,广州市,南沙黄阁,,47,47,46,28,30,104,,100,100,27,32,7,7,/,/
2026-01-07T1700,3304A,113.534,22.7893,广州市,南沙街,,38,32,45,26,28,102,,96,96,22,23,7,7,0.3,0.5
2026-01-07T1700,3443A,113.2905,23.5541,广州市,花都梯面,,32,29,34,22,27,100,,93,93,14,17,8,9,/,/
2026-01-07T1700,3445A,113.786,23.7479,广州市,从化良口,,32,27,29,22,24,100,,94,94,8,12,8,8,/,/
2026-01-07T1700,3446A,113.805,23.2614,广州市,增城荔城,,33,24,29,20,24,105,,95,95,9,12,7,7,0.4,0.5
2026-01-07T1700,2506A,109.604387,23.066791,贵港市,江南子站,,,,45,30,31,122,,99,99,10,17,7,7,0.5,0.6
2026-01-07T1700,2508A,109.5669,23.1065,贵港市,荷城子站,,39,34,45,27,36,106,,90,90,10,14,5,5,0.3,0.4
2026-01-07T1700,3405A,109.5886,23.1172,贵港市,新世纪学校,,40,36,51,28,38,110,,91,91,9,15,/,/,0.4,0.5
2026-01-07T1700,4260A,109.5933,23.095,贵港市,中山路155-3号,,45,42,42,31,38,117,,94,94,10,16,/,/,0.4,0.5
2026-01-07T1700,1439A,106.6863,26.6035,贵阳市,马鞍山,细颗粒物(PM2.5),67,56,58,48,52,70,,63,63,17,17,12,9,/,/
2026-01-07T1700,1441A,106.6241,26.6266,贵阳市,鉴湖路,细颗粒物(PM2.5),64,68,58,46,39,69,,66,66,21,21,8,9,0.6,0.6
2026-01-07T1700,1442A,106.7468,26.6344,贵阳市,燕子冲,,,56,60,48,54,72,,56,56,16,17,,12,,0.8
2026-01-07T1700,1443A,106.6556,26.4362,贵阳市,碧云窝,细颗粒物(PM2.5),70,78,67,51,47,49,,39,39,28,22,20,12,/,/
2026-01-07T1700,1445A,106.6963,26.6063,贵阳市,红边门,细颗粒物(PM2.5),67,63,62,48,51,60,,42,42,20,21,14,13,/,/
2026-01-07T1700,1446A,106.7162383,26.56964667,贵阳市,新华路,细颗粒物(PM2.5),58,61,66,41,47,67,,52,52,16,18,9,11,0.6,0.6
2026-01-07T1700,1447A,106.6742,26.542,贵阳市,太慈桥,细颗粒物(PM2.5),70,66,57,51,45,66,,51,51,22,23,10,7,/,/
2026-01-07T1700,4230A,106.688212,26.56952,贵阳市,花果园大街66号,颗粒物(PM10),57,63,55,34,35,57,,45,45,21,23,9,8,/,/
2026-01-07T1700,4231A,106.687268,26.516892,贵阳市,漓江路57号,细颗粒物(PM2.5),70,63,62,51,47,61,,47,47,28,27,16,15,0.9,0.9
2026-01-07T1700,1864A,110.3091,25.2705,桂林市,龙隐路小学,,33,33,44,15,38,95,,83,83,7,15,7,10,0.1,0.3
2026-01-07T1700,1865A,110.2849361,25.22909545,桂林市,八中,,31,31,47,17,38,88,,79,79,17,23,7,10,0.3,0.6
2026-01-07T1700,3531A,110.296,25.1254,桂林市,旅游学院,,32,,39,14,32,102,,92,92,8,20,4,5,0.6,0.6
2026-01-07T1700,4222A,110.1835,25.2444,桂林市,环湖路276号,,29,27,48,19,40,91,,72,72,11,28,6,16,0.3,0.6
2026-01-07T1700,4301A,110.2803,25.2773,桂林市,信义路13号,,30,30,44,12,32,96,,90,90,12,20,5,9,0.3,0.6
2026-01-07T1700,2674A,100.2262,34.4854,果洛藏族自治州,玛沁县大武镇,,34,,29,19,8,106,,84,84,2,3,6,14,0.3,0.4
2026-01-07T1700,1130A,126.5557,45.8109,哈尔滨市,松北商大,,23,21,30,16,25,47,,52,52,12,21,7,8,0.4,0.5
2026-01-07T1700,1132A,126.6162,45.719,哈尔滨市,南岗学府路,,21,21,35,9,19,34,,46,44,22,23,35,23,0.5,0.6
2026-01-07T1700,1133A,126.6894,45.7733,哈尔滨市,太平宏伟公园,,19,18,33,13,24,44,,52,52,13,20,34,25,0.5,0.5
2026-01-07T1700,1134A,126.6361,45.7672,哈尔滨市,道外承德广场,,32,32,50,12,24,51,,53,53,10,23,9,10,0.8,0.7
2026-01-07T1700,1136A,126.644,45.7261,哈尔滨市,动力和平路,,19,19,33,9,21,50,,53,53,8,16,8,10,0.4,0.5
2026-01-07T1700,1137A,126.5933,45.7479,哈尔滨市,道里建国路,,,,30,13,27,46,,48,48,11,21,6,12,0.6,0.2
2026-01-07T1700,1138A,126.6127,45.6119,哈尔滨市,平房东轻厂,,,24,30,18,24,,,47,47,20,22,6,6,,0.4
2026-01-07T1700,1139A,126.5875,45.9827,哈尔滨市,呼兰师专,,30,,32,21,31,44,,48,47,7,15,8,9,0.5,0.6
2026-01-07T1700,1140A,126.6299,45.6799,哈尔滨市,省农科院,,18,17,33,12,25,54,,56,56,10,21,8,12,0.1,0.2
2026-01-07T1700,4282A,126.6769,45.7379,哈尔滨市,华山路1号,,,,28,,22,50,,50,50,,20,10,20,0.6,0.6
2026-01-07T1700,4283A,126.9717,45.5356,哈尔滨市,解放大街52号,,25,24,35,17,26,48,,54,54,14,19,9,16,0.5,0.6
2026-01-07T1700,2688A,93.5124,42.8176,哈密市,地区监测站,颗粒物(PM10),64,78,85,26,56,57,,50,50,7,17,4,4,0.1,0.3
2026-01-07T1700,2689A,93.5014,42.8312,哈密市,哈密师范学校,颗粒物(PM10),64,78,91,28,38,53,,47,47,10,24,6,6,0.1,0.5
2026-01-07T1700,2671A,100.9016,36.9464,海北藏族自治州,海晏县西海镇,,,,16,10,13,86,,80,80,,5,6,8,0.4,0.3
2026-01-07T1700,3867A,102.074,36.5056,海东市,平安区公安局北苑,,26,23,65,3,50,81,,58,58,10,23,7,21,0.5,1.2
2026-01-07T1700,4163A,102.0984,36.5119,海东市,滨河路,,25,25,55,14,48,79,,58,58,14,36,5,22,0.5,1
2026-01-07T1700,1410A,110.3189,20.0596,海口市,海南大学,,38,32,41,24,28,120,,99,99,8,10,8,8,0.2,0.3
2026-01-07T1700,1411A,110.2827,20.0051,海口市,秀英海南医院,,35,35,45,23,30,106,,91,91,9,13,9,10,0.3,0.4
2026-01-07T1700,1412A,110.3391,19.9979,海口市,海南师范大学,,37,31,41,24,30,118,,99,99,11,13,8,8,0.5,0.5
2026-01-07T1700,1413A,110.3303,20.0359,海口市,龙华路环保局宿舍,,38,31,42,22,28,121,,101,101,10,12,/,/,0.5,0.6
2026-01-07T1700,3539A,110.5111,19.9737,海口市,桂林洋子站,,37,37,41,24,29,113,,98,98,9,11,/,/,/,/
2026-01-07T1700,4134A,110.1952,20.0451,海口市,长滨二路9号,,36,33,45,24,32,114,,96,96,6,10,/,/,/,/
2026-01-07T1700,2673A,100.6158,36.2985,海南藏族自治州,共和县恰卜恰镇,,32,28,34,16,16,100,,77,77,1,23,10,11,0.2,0.6
2026-01-07T1700,2676A,97.373,37.376,海西蒙古族藏族自治州,德令哈市,,,18,16,,12,94,,84,84,,7,13,13,0.7,0.5
2026-01-07T1700,1049A,114.492,36.5712,邯郸市,矿院,,46,46,51,22,37,72,,69,69,12,42,3,6,0.4,0.7
2026-01-07T1700,1050A,114.4839,36.6136,邯郸市,丛台公园,,47,47,42,24,29,72,,68,68,17,38,2,6,0.4,0.6
2026-01-07T1700,3458A,114.7893,36.5592,邯郸市,香泉濮院小区,,35,24,61,24,39,80,,72,72,14,33,3,7,0.4,0.6
2026-01-07T1700,3580A,114.1998,36.4439,邯郸市,峰峰矿区临水派出所,,35,32,30,24,20,82,,72,72,15,18,8,10,0.6,0.6
2026-01-07T1700,4068A,114.5209,36.7697,邯郸市,建安街268号,,34,34,84,17,43,58,,53,53,29,53,1,5,0.2,0.7
2026-01-07T1700,4069A,114.5488,36.6177,邯郸市,丛台东路558号,细颗粒物(PM2.5),52,,55,36,33,74,,71,71,19,40,5,8,0.5,0.6
2026-01-07T1700,2635A,107.0155,33.0707,汉中市,市监测站,细颗粒物(PM2.5),68,70,71,49,61,74,,57,57,28,38,11,9,0.9,1
2026-01-07T1700,2636A,107.0083,33.114,汉中市,鑫源开发区,细颗粒物(PM2.5),57,47,66,40,57,83,,58,58,22,37,10,10,0.5,0.7
2026-01-07T1700,2637A,107.0072,33.0323,汉中市,南郑大河坎水厂,细颗粒物(PM2.5),63,55,80,45,60,80,,52,52,21,28,10,8,0.7,1
2026-01-07T1700,1223A,120.2073,30.2111,杭州市,滨江,,29,29,54,19,42,84,,70,70,21,24,7,6,0.4,0.5
2026-01-07T1700,1224A,120.0625,30.2737,杭州市,西溪,,36,36,49,22,34,91,,79,79,15,29,9,9,0.7,0.7
2026-01-07T1700,1226A,120.3417,30.315,杭州市,下沙,,42,37,56,29,43,88,,76,76,31,28,8,8,0.1,0.6
2026-01-07T1700,1227A,120.1252,30.2465,杭州市,卧龙桥,,34,34,48,21,37,85,,78,78,21,19,10,9,0.3,0.5
2026-01-07T1700,1228A,120.1902,30.2691,杭州市,浙江农大,,35,35,56,24,43,48,,68,68,64,33,6,5,0.3,0.5
2026-01-07T1700,1230A,120.1195,30.3121,杭州市,和睦小学,,48,36,53,33,46,90,,78,78,18,23,5,5,0.5,0.7
2026-01-07T1700,1231A,120.3076,30.4146,杭州市,临平镇,,35,35,52,20,35,92,,80,80,11,20,8,7,0.3,0.5
2026-01-07T1700,1232A,120.2753,30.1839,杭州市,城厢镇,颗粒物(PM10),52,53,62,22,41,93,,74,74,25,25,8,8,0.2,0.5
2026-01-07T1700,1233A,120.0883,30.1808,杭州市,云栖,,32,32,49,14,36,83,,79,79,18,18,4,4,0.4,0.7
2026-01-07T1700,3557A,119.9463,30.0496,杭州市,镇二中,,36,26,45,25,46,88,,67,67,21,32,6,5,0.5,0.8
2026-01-07T1700,3558A,119.7184,30.2367,杭州市,市府大楼,,32,32,56,20,43,90,,77,77,12,20,10,10,0.3,0.7
2026-01-07T1700,3656A,120.1554,30.2863,杭州市,消防大队,,39,39,51,27,40,85,,75,75,17,23,7,7,0.3,0.5
2026-01-07T1700,1270A,117.1957,31.7845,合肥市,明珠广场,,46,46,45,22,24,56,,56,56,38,41,7,6,0.6,0.7
2026-01-07T1700,1271A,117.307,31.8765,合肥市,三里街,,41,41,44,17,23,76,,64,64,20,44,7,6,0.5,0.7
2026-01-07T1700,1272A,117.2587,31.8703,合肥市,琥珀山庄,,44,44,42,19,26,78,,70,70,16,41,9,8,0.6,0.8
2026-01-07T1700,1275A,117.2593,31.9376,合肥市,庐阳区,,34,34,38,17,18,81,,70,70,20,34,7,6,0.5,0.6
2026-01-07T1700,1276A,117.345251,31.861615,合肥市,瑶海区,,31,31,41,17,21,80,,68,68,19,42,5,5,0.3,0.5
2026-01-07T1700,1277A,117.3033,31.7967,合肥市,包河区,,41,41,42,17,28,66,,60,60,25,50,8,6,0.6,0.7
2026-01-07T1700,1278A,117.278,31.7392,合肥市,滨湖新区,,39,39,44,22,29,68,,62,62,30,51,5,5,0.7,0.7
2026-01-07T1700,1279A,117.1324,31.8395,合肥市,高新区,,39,39,39,21,20,82,,73,73,20,30,5,4,0.5,0.5
2026-01-07T1700,3464A,117.3802,31.9148,合肥市,高教基地,,41,41,45,21,24,78,,69,69,22,36,8,7,0.6,0.6
2026-01-07T1700,4098A,117.2518,31.8404,合肥市,中国科学技术大学,,,30,38,11,16,87,,78,78,,32,,6,0.5,0.5
2026-01-07T1700,3614A,79.9241,37.0878,和田地区,地区环保局,,46,46,48,18,29,69,,51,51,8,17,2,2,0.7,0.6
2026-01-07T1700,3615A,79.9132,37.1137,和田地区,市环保局,,49,49,45,22,20,67,,54,54,15,19,2,2,0.2,0.8
2026-01-07T1700,2517A,108.0496,24.6957,河池市,市环保站,,29,26,30,20,21,83,,65,65,12,19,3,2,0.5,0.7
2026-01-07T1700,4302A,108.0901,24.6945,河池市,上任中路54号,,29,,38,20,25,80,,65,65,11,24,5,4,0.6,0.7
2026-01-07T1700,1697A,114.6962,23.7538,河源市,东埔,,34,22,33,20,32,106,,100,100,11,16,6,7,0.4,0.5
2026-01-07T1700,1698A,114.6895,23.7232,河源市,老城,,32,32,34,19,24,102,,95,95,8,14,6,7,0.6,0.7
2026-01-07T1700,3374A,115.5562,35.089,菏泽市,定陶老年大学,颗粒物(PM10),52,53,63,22,33,74,,57,57,16,26,5,5,0.6,0.7
2026-01-07T1700,4114A,115.4239,35.2593,菏泽市,黄河路600号,,,,69,30,33,79,,62,62,18,29,,7,0.2,1
2026-01-07T1700,4115A,115.5025,35.2727,菏泽市,菏泽市人社局,颗粒物(PM10),54,58,65,29,32,75,,63,63,18,24,5,6,0.4,0.5
2026-01-07T1700,4184A,115.479691,35.244011,菏泽市,永昌路1号,颗粒物(PM10),57,64,70,35,39,81,,68,68,25,29,8,10,0.5,0.5
2026-01-07T1700,4193A,115.471542,35.280012,菏泽市,长城路999号,颗粒物(PM10),56,61,69,30,33,78,,66,66,19,25,9,6,0.4,0.5
2026-01-07T1700,2514A,111.5264,24.4178,贺州市,环保小区,,36,36,45,25,37,103,,84,84,13,19,8,6,0.4,1.1
2026-01-07T1700,2515A,111.561,24.4074,贺州市,政协大楼,,34,34,47,22,33,104,,90,90,12,20,9,8,0.5,0.7
2026-01-07T1700,3534A,111.4744,24.455,贺州市,西湾,,,34,50,23,36,97,,86,86,15,21,,7,0.6,0.7
2026-01-07T1700,2385A,114.17,35.9019,鹤壁市,市监测站,颗粒物(PM10),58,65,51,31,26,59,,60,60,32,27,6,7,0.5,0.6
2026-01-07T1700,2386A,114.2953,35.7512,鹤壁市,市交警支队,,48,48,47,25,21,61,,53,53,20,31,6,4,0.5,0.6
2026-01-07T1700,2387A,114.2877,35.7302,鹤壁市,迎宾馆,颗粒物(PM10),52,54,49,33,24,66,,59,59,25,26,6,6,0.6,0.7
2026-01-07T1700,3474A,114.2616,35.6824,鹤壁市,大新区,,50,50,49,18,18,64,,56,56,20,31,7,6,0.4,0.5
2026-01-07T1700,3596A,114.1573,35.9607,鹤壁市,南山宾馆,颗粒物(PM10),55,59,46,29,24,64,,62,62,21,17,8,11,0.4,0.5
2026-01-07T1700,2244A,130.2537,47.3416,鹤岗市,哈啤分公司,,30,30,33,19,25,69,,68,68,5,11,6,7,0.4,0.4
2026-01-07T1700,2245A,130.2683,47.3087,鹤岗市,斯达机电,,21,18,32,14,28,65,,62,62,8,14,5,8,0.4,0.6
2026-01-07T1700,2246A,130.3114,47.3388,鹤岗市,东山纸板厂,,29,29,29,12,24,66,,65,65,11,17,6,12,0.3,0.5
2026-01-07T1700,2263A,127.4832,50.2524,黑河市,交通局,,,,20,,17,48,,54,54,16,10,3,5,,0.4
2026-01-07T1700,2264A,127.5146,50.2339,黑河市,环保局,,25,,20,17,18,49,,49,49,13,13,5,8,0.4,0.4
2026-01-07T1700,1074A,115.6839,37.754,衡水市,电机北厂,,50,,57,35,28,68,,64,64,13,20,4,6,0.3,0.4
2026-01-07T1700,1075A,115.6303,37.7318,衡水市,市监测站,,33,29,56,23,28,68,,67,67,16,26,5,7,0.3,0.5
2026-01-07T1700,3188A,115.6684,37.7216,衡水市,市城管局,,45,,55,31,29,69,,64,64,21,28,6,8,0.3,0.4
2026-01-07T1700,3459A,115.599,37.5491,衡水市,地表水厂,,28,28,56,9,28,73,,65,65,14,26,3,6,0.3,0.5
2026-01-07T1700,2457A,112.6209,26.9268,衡阳市,衡阳化工总厂,细颗粒物(PM2.5),58,58,65,41,54,100,,67,67,16,32,14,8,0.7,0.9
2026-01-07T1700,2458A,112.621,26.8957,衡阳市,珠晖区环保局,细颗粒物(PM2.5),67,,68,48,61,86,,60,60,16,41,9,5,0.9,1.1
2026-01-07T1700,2459A,112.628,26.8654,衡阳市,市委党校,细颗粒物(PM2.5),57,,83,40,63,103,,70,70,14,33,12,9,0.8,1.2
2026-01-07T1700,2460A,112.6007,26.8977,衡阳市,市监测站,细颗粒物(PM2.5),52,40,92,36,66,102,,65,65,12,36,11,7,0.6,1.1
2026-01-07T1700,2461A,112.5658,26.9013,衡阳市,真空机电公司,细颗粒物(PM2.5),54,55,82,38,58,98,,74,74,18,34,9,8,0.8,1.1
2026-01-07T1700,3399A,112.6703,26.8817,衡阳市,师范学院,,36,36,75,17,53,102,,69,69,16,30,4,3,0.6,1
2026-01-07T1700,3038A,103.3757,23.3679,红河哈尼族彝族自治州,州图书馆,,46,41,20,32,16,34,,36,33,14,8,7,6,0.7,0.6
2026-01-07T1700,4154A,103.401,23.3561,红河哈尼族彝族自治州,蒙自市朝阳路,,35,,13,24,15,31,,34,32,9,6,5,5,0.6,0.6
2026-01-07T1700,1090A,111.6506,40.7517,呼和浩特市,呼市一监,,,,74,,43,,,41,41,,36,,4,,0.8
2026-01-07T1700,1094A,111.7516,40.8369,呼和浩特市,如意水处理厂,颗粒物(PM10),64,77,69,41,41,44,,38,38,28,46,11,11,0.6,0.8
2026-01-07T1700,1095A,111.727798,40.806187,呼和浩特市,二十九中,颗粒物(PM10),64,77,70,39,43,45,,37,37,26,43,12,13,0.4,0.6
2026-01-07T1700,1097A,111.717,40.7617,呼和浩特市,化肥厂生活区,颗粒物(PM10),61,71,80,38,49,52,,42,42,22,42,6,7,0.5,0.8
2026-01-07T1700,3699A,111.6519,40.8389,呼和浩特市,海东办,颗粒物(PM10),64,78,70,38,39,44,,38,38,29,39,16,8,0.7,0.7
2026-01-07T1700,4275A,111.591512,40.827312,呼和浩特市,成吉思汗西街8号,颗粒物(PM10),70,90,71,42,36,39,,34,34,30,40,15,11,0.6,0.7
2026-01-07T1700,4276A,111.6597,40.8077,呼和浩特市,公园东路75号,颗粒物(PM10),65,80,75,39,37,37,,39,39,34,40,9,9,0.5,0.6
2026-01-07T1700,4277A,111.5427,40.7846,呼和浩特市,金海路35号,颗粒物(PM10),72,94,93,46,50,40,,39,39,28,41,14,15,0.7,0.7
2026-01-07T1700,3061A,119.7511,49.1576,呼伦贝尔市,国华电力东,,32,27,25,22,18,56,,58,58,19,18,6,6,0.3,0.3
2026-01-07T1700,4279A,119.7569,49.2222,呼伦贝尔市,伊敏大街东7号,,28,22,27,19,20,52,,56,56,12,9,7,7,0.5,0.4
2026-01-07T1700,1250A,120.075,30.867,湖州市,城西水厂,,41,41,58,25,38,76,,80,80,33,34,11,10,0.3,0.4
2026-01-07T1700,2873A,120.083,30.8929,湖州市,仁皇山新区,,43,41,56,30,44,90,,85,85,26,30,12,12,0.4,0.5
2026-01-07T1700,2907A,120.1846,30.8592,湖州市,吴兴区站,,43,42,55,30,42,88,,86,86,21,23,7,6,0.6,0.6
2026-01-07T1700,3562A,120.4146,30.8538,湖州市,南浔区站,,39,38,51,27,41,92,,81,81,17,23,7,7,0.5,0.7
2026-01-07T1700,1607A,120.904878,40.721091,葫芦岛市,龙港区,,43,41,40,30,20,59,,68,68,20,21,11,11,0.6,0.6
2026-01-07T1700,1608A,120.8382,40.7521,葫芦岛市,化工街,,41,41,37,19,12,52,,65,65,25,23,15,20,0.5,0.5
2026-01-07T1700,1609A,120.8339,40.7078,葫芦岛市,新区,,27,27,30,18,11,58,,66,66,20,21,8,10,0.6,0.7
2026-01-07T1700,1610A,120.8697,40.7679,葫芦岛市,东城区,,20,20,32,12,14,62,,68,68,16,22,9,10,0.5,0.5
2026-01-07T1700,2483A,109.9297,27.5383,怀化市,河西地税局,,29,28,45,20,38,87,,60,60,12,18,4,4,/,/
2026-01-07T1700,2484A,109.9783,27.5342,怀化市,市四医院,,,41,62,29,44,77,,50,50,9,25,,10,0.5,0.7
2026-01-07T1700,2485A,109.9971,27.5579,怀化市,监测楼,,40,38,55,28,46,89,,65,65,18,23,5,2,0.0,0.2
2026-01-07T1700,1210A,119.0566,33.5991,淮安市,钵池山,细颗粒物(PM2.5),58,56,77,41,59,76,,64,64,18,24,11,9,0.5,0.7
2026-01-07T1700,1211A,119.0083,33.578,淮安市,北京南路,细颗粒物(PM2.5),55,56,78,39,57,62,,50,50,22,33,9,8,0.8,0.7
2026-01-07T1700,1212A,118.9938,33.6083,淮安市,市监测站,,46,46,71,31,51,71,,58,58,19,28,11,10,0.7,0.8
2026-01-07T1700,1213A,119.135,33.5038,淮安市,楚州区监测站,颗粒物(PM10),51,51,74,26,44,73,,55,55,15,30,11,10,0.6,0.7
2026-01-07T1700,3426A,118.8757,33.2897,淮安市,新华书店,颗粒物(PM10),52,54,62,34,39,62,,54,54,24,20,10,9,1.0,1
2026-01-07T1700,4092A,119.119691,33.550006,淮安市,枚皋中路89号,,44,44,79,28,54,81,,66,66,17,26,10,10,0.5,0.8
2026-01-07T1700,4206A,119.028838,33.631911,淮安市,承德北路606号,细颗粒物(PM2.5),55,58,85,39,56,69,,59,59,20,28,10,9,0.5,0.6
2026-01-07T1700,2282A,116.8005,33.9749,淮北市,监测站,,,,91,,46,72,,57,57,26,35,11,10,,0.7
2026-01-07T1700,2283A,116.8094,33.9008,淮北市,烈山区政府,颗粒物(PM10),63,76,88,43,54,72,,57,57,17,37,12,11,0.4,0.5
2026-01-07T1700,4017A,116.7926,33.9534,淮北市,市博物馆,颗粒物(PM10),59,67,87,33,51,71,,60,60,25,33,8,10,0.6,0.6
2026-01-07T1700,4100A,116.8322,33.9884,淮北市,杜集区第一实验学校,颗粒物(PM10),67,83,89,29,49,74,,58,58,20,26,12,10,0.5,0.7
2026-01-07T1700,2277A,116.8304,32.7726,淮南市,潘集区政府,颗粒物(PM10),61,72,57,40,40,70,,60,60,19,21,8,7,0.6,0.5
2026-01-07T1700,2279A,116.8569,32.5949,淮南市,谢家集区政府,颗粒物(PM10),67,84,55,19,25,67,,56,56,24,25,9,8,0.4,0.4
2026-01-07T1700,2280A,116.8279,32.6333,淮南市,八公山区政府,颗粒物(PM10),52,53,39,24,21,72,,64,64,18,13,12,7,0.5,0.4
2026-01-07T1700,2894A,117.0561,32.6536,淮南市,经济技术开发区消防队,颗粒物(PM10),67,83,64,37,35,71,,61,61,21,22,8,6,0.4,0.4
2026-01-07T1700,3329A,117.011,32.5891,淮南市,山南新区,颗粒物(PM10),61,72,58,19,23,62,,57,57,27,20,5,3,0.5,0.4
2026-01-07T1700,4209A,117.003137,32.644456,淮南市,国庆中路369号,颗粒物(PM10),56,61,57,26,35,54,,47,47,27,29,9,7,0.6,0.6
2026-01-07T1700,2446A,114.9021,30.474,黄冈市,职工中心,,33,31,40,15,26,103,,77,77,18,27,7,7,0.5,0.7
2026-01-07T1700,2929A,114.8858,30.4519,黄冈市,红卫路,,38,38,38,15,26,88,,73,73,30,33,8,8,0.6,0.7
2026-01-07T1700,3398A,114.9134,30.4446,黄冈市,市林业局,,30,28,41,16,26,94,,81,81,24,29,6,6,0.5,0.8
2026-01-07T1700,2672A,102.02,35.5101,黄南藏族自治州,同仁县隆务镇,,26,22,29,7,15,81,,75,75,4,3,9,9,0.3,0.3
2026-01-07T1700,2295A,118.2905,29.6965,黄山市,延安路89号,,32,21,36,14,34,102,,78,78,6,13,4,4,0.4,0.5
2026-01-07T1700,2297A,118.1369,30.2755,黄山市,黄山区政府5号楼,,31,24,44,15,33,99,,71,71,9,14,4,3,0.2,0.5
2026-01-07T1700,4210A,118.335445,29.720283,黄山市,滨江东路7-2号,,38,36,52,26,42,94,,75,75,11,14,/,/,/,/
2026-01-07T1700,2423A,115.0547,30.2332,黄石市,沈家营,,39,39,44,23,24,92,,77,77,15,25,8,7,1.2,1.2
2026-01-07T1700,2426A,114.899,30.211,黄石市,铁山,,45,40,52,31,34,103,,85,85,19,35,8,6,0.4,0.5
2026-01-07T1700,2427A,115.0259,30.2108,黄石市,团城山,,41,41,46,24,20,98,,81,81,17,20,7,7,0.5,0.7
2026-01-07T1700,3149A,115.0174,30.1591,黄石市,笔架山北路,,44,44,68,22,32,91,,76,76,13,24,8,8,0.9,1.1
2026-01-07T1700,4185A,115.078022,30.21118,黄石市,磁湖东路29号,,43,35,45,30,29,78,,64,64,22,28,7,7,0.7,0.8
2026-01-07T1700,1392A,114.4181,23.0528,惠州市,河南岸金山湖子站,,40,38,40,28,28,98,,92,92,20,18,6,5,0.5,0.6
2026-01-07T1700,1393A,114.4055,23.0824,惠州市,下埔横江三路子站,,34,34,40,23,28,108,,98,98,11,11,8,8,0.3,0.3
2026-01-07T1700,1395A,114.4645,22.7832,惠州市,惠阳区承修路船湖子站,,42,42,41,29,27,108,,100,100,14,12,7,7,0.3,0.6
2026-01-07T1700,1396A,114.5316,22.7423,惠州市,大亚湾管委会子站,,38,36,38,26,26,101,,94,94,11,8,7,7,0.4,0.4
2026-01-07T1700,3314A,114.4334,22.8134,惠州市,惠阳秋长,,46,46,40,26,27,112,,101,101,15,13,/,/,/,/
2026-01-07T1700,3452A,114.6521,22.7755,惠州市,大亚湾霞涌,,45,45,38,23,26,104,,96,96,11,11,/,/,/,/
2026-01-07T1700,4300A,114.4089,23.1147,惠州市,文华一路1号,,37,36,40,24,30,116,,102,102,12,13,/,/,/,/
2026-01-07T1700,2240A,130.9618,45.2926,鸡西市,环保局,颗粒物(PM10),52,53,53,29,28,48,,46,46,11,18,6,9,0.5,0.6
2026-01-07T1700,2243A,130.9294,45.2959,鸡西市,第一中学,,,,44,,31,52,,49,49,10,20,4,4,,0.7
2026-01-07T1700,3707A,131.0069,45.2988,鸡西市,欧美日汽修厂,颗粒物(PM10),57,64,78,35,45,57,,46,46,11,22,10,16,0.6,0.7
2026-01-07T1700,2367A,114.9753,27.0803,吉安市,红声器材厂,,32,29,50,14,31,102,,80,80,11,21,9,9,0.4,0.6
2026-01-07T1700,2369A,114.9903,27.1313,吉安市,市环境监测站,,32,25,47,15,33,102,,78,78,8,21,14,14,/,/
2026-01-07T1700,2370A,115.009527,27.096792,吉安市,青原区法院,,31,22,50,20,33,97,,76,76,13,31,11,11,0.4,0.6
2026-01-07T1700,1772A,126.54,43.8622,吉林市,哈达湾,,,43,43,13,17,58,,64,63,,12,6,9,0.7,1
2026-01-07T1700,1773A,126.5843,43.8358,吉林市,东局子,,32,32,36,15,16,50,,52,52,13,13,5,5,0.9,0.9
2026-01-07T1700,1774A,126.5051,43.8243,吉林市,电力学院,颗粒物(PM10),63,75,40,22,20,52,,59,58,14,11,10,10,0.6,0.5
2026-01-07T1700,1775A,126.6133,43.8971,吉林市,江北,,36,36,38,20,21,52,,55,55,13,14,5,8,1.0,0.9
2026-01-07T1700,1776A,126.5549,43.8304,吉林市,江南公园,,33,33,35,15,19,57,,61,61,12,12,13,10,0.5,0.4
2026-01-07T1700,2868A,126.4737,43.953,吉林市,九站,,38,38,35,18,21,43,,54,53,21,17,6,8,0.5,0.5
2026-01-07T1700,1299A,116.9866,36.6118,济南市,科干所,,36,36,70,7,40,60,,56,56,22,35,6,11,0.6,1
2026-01-07T1700,1300A,116.9379,36.6652,济南市,农科所,,24,24,86,10,49,66,,59,59,15,39,3,8,0.5,0.9
2026-01-07T1700,1301A,117.1265,36.6736,济南市,开发区,,39,39,72,12,45,61,,59,59,30,36,5,8,0.6,0.9
2026-01-07T1700,1303A,117.0616,36.6865,济南市,省种子仓库,,31,31,83,12,47,68,,62,62,23,40,5,11,0.5,0.8
2026-01-07T1700,1304A,116.9495185,36.644937,济南市,机床二厂,,27,27,88,7,55,66,,60,60,24,45,4,16,0.6,1
2026-01-07T1700,1305A,117.0496,36.6629,济南市,市监测站,,34,34,73,12,41,63,,58,58,18,30,6,8,0.6,0.8
2026-01-07T1700,1306A,116.7674,36.5458,济南市,长清党校,,32,32,80,10,47,63,,53,53,21,40,5,10,0.6,0.9
2026-01-07T1700,1961A,117.5323,36.6865,济南市,东山小学,,27,27,81,10,49,74,,67,67,15,38,4,7,0.7,1
2026-01-07T1700,3059A,117.7181,36.205,济南市,泰兴公司,,46,46,161,22,127,71,,65,65,26,50,6,8,0.6,1.4
2026-01-07T1700,3064A,117.6861,36.2172,济南市,莱芜战役纪念馆,,39,39,157,26,124,65,,63,63,24,51,8,10,0.3,1.4
2026-01-07T1700,3494A,117.1673,36.9782,济南市,济阳区政府,,,22,77,7,42,,,32,,16,39,5,10,0.3,0.6
2026-01-07T1700,3495A,117.1168,36.6299,济南市,锦屏中学,,37,37,62,7,36,66,,63,63,23,28,5,6,0.5,0.8
2026-01-07T1700,4108A,117.7107,36.2385,济南市,山财大街5号,颗粒物(PM10),63,76,159,8,93,74,,69,69,27,43,7,8,0.4,1
2026-01-07T1700,4109A,116.9744,36.6889,济南市,无影山路12号,,30,30,90,3,49,67,,60,60,18,44,3,12,0.4,0.8
2026-01-07T1700,1653A,116.6229,35.4288,济宁市,火炬城,细颗粒物(PM2.5),73,65,108,53,84,71,,51,51,23,41,8,8,0.4,0.8
2026-01-07T1700,3500A,116.5808,35.3703,济宁市,北湖一中,细颗粒物(PM2.5),67,65,106,48,84,71,,54,54,17,47,6,9,0.5,0.8
2026-01-07T1700,3501A,116.8251,35.5592,济宁市,服务中心,颗粒物(PM10),72,94,166,26,94,63,,42,42,39,60,10,14,0.7,1
2026-01-07T1700,3678A,116.5907,35.4054,济宁市,市第七中学,颗粒物(PM10),56,61,106,31,71,76,,56,56,22,43,8,12,0.6,0.8
2026-01-07T1700,4111A,116.6075,35.4566,济宁市,任和路,颗粒物(PM10),66,81,129,42,77,68,,48,48,25,44,8,9,0.5,0.8
2026-01-07T1700,4112A,116.5648,35.3921,济宁市,文体南路1号,颗粒物(PM10),57,63,125,30,76,71,,48,48,19,49,4,8,0.4,0.8
2026-01-07T1700,2255A,130.2749,46.8028,佳木斯市,佳纺,细颗粒物(PM2.5),52,45,46,36,34,33,,48,46,27,23,11,9,0.7,0.5
2026-01-07T1700,2257A,130.3258,46.7975,佳木斯市,环保局,,38,32,35,26,27,38,,51,50,25,22,8,8,0.8,0.8
2026-01-07T1700,4285A,130.363,46.806,佳木斯市,顺和街,,46,33,34,32,29,34,,43,38,27,24,10,10,0.6,0.6
2026-01-07T1700,4286A,130.3952,46.8268,佳木斯市,长安路196号,,,41,36,25,26,37,,52,50,,14,7,6,0.6,0.4
2026-01-07T1700,1252A,120.7439,30.778,嘉兴市,清河小学,,50,50,69,34,52,82,,75,75,22,27,7,6,0.6,0.8
2026-01-07T1700,1253A,120.7261,30.7477,嘉兴市,嘉兴学院,,45,45,62,30,47,80,,76,76,23,29,9,8,0.9,0.9
2026-01-07T1700,2872A,120.7845,30.7524,嘉兴市,南湖区残联,细颗粒物(PM2.5),53,44,64,37,53,88,,85,85,28,25,6,5,0.5,0.8
2026-01-07T1700,3407A,120.6915,30.7741,嘉兴市,秀洲住建,颗粒物(PM10),51,52,68,35,53,83,,79,79,24,29,8,7,0.4,0.6
2026-01-07T1700,1945A,98.291,39.7705,嘉峪关市,气象局,,46,46,39,17,16,76,,77,74,13,12,9,11,0.6,0.5
2026-01-07T1700,2884A,98.2672,39.7978,嘉峪关市,酒钢宾馆,颗粒物(PM10),65,80,45,19,18,67,,75,65,14,13,28,24,1.1,0.8
2026-01-07T1700,3248A,98.2644,39.7723,嘉峪关市,雄关区,,28,28,30,11,17,85,,76,76,11,15,12,16,0.3,0.3
2026-01-07T1700,1383A,113.1063,22.6058,江门市,北街,,50,50,43,32,34,112,,96,96,23,22,/,/,/,/
2026-01-07T1700,1384A,113.073,22.5835,江门市,西区,颗粒物(PM10),52,53,49,35,30,107,,91,91,28,25,/,/,/,/
2026-01-07T1700,1385A,113.0218,22.531,江门市,圭峰西,细颗粒物(PM2.5),54,47,42,38,34,106,,91,91,25,22,/,/,/,/
2026-01-07T1700,1386A,113.0826,22.5947,江门市,东湖,,49,49,42,32,33,112,,96,96,27,25,8,9,0.4,0.5
2026-01-07T1700,3311A,113.1077,22.5647,江门市,江海富民,,45,45,48,31,29,115,,96,96,34,30,/,/,0.5,0.6
2026-01-07T1700,3449A,113.0496,22.4669,江门市,新会银湖,细颗粒物(PM2.5),58,49,45,41,37,109,,91,91,25,22,8,9,0.4,0.6
2026-01-07T1700,3335A,113.3137,35.2643,焦作市,马村街道办,,43,43,40,23,21,84,,76,76,11,14,6,7,0.3,0.5
2026-01-07T1700,3336A,113.2464,35.2374,焦作市,焦作技师学院,,46,46,41,17,17,83,,76,76,12,18,8,8,0.2,0.3
2026-01-07T1700,3477A,113.1656,35.2536,焦作市,中站许衡医院,,46,46,39,27,27,84,,77,77,10,14,5,6,0.4,0.4
2026-01-07T1700,3981A,113.2456,35.18,焦作市,原李万街道办,颗粒物(PM10),52,53,47,19,15,84,,79,79,7,11,7,7,0.4,0.4
2026-01-07T1700,4264A,113.234,35.219,焦作市,新安路1731号,,50,50,42,25,21,80,,74,74,14,15,5,5,0.4,0.4
2026-01-07T1700,4295A,113.2722,35.2121,焦作市,人民路3066号,颗粒物(PM10),54,58,47,20,14,73,,68,68,9,10,6,6,0.4,0.4
2026-01-07T1700,1708A,116.3701,23.5345,揭阳市,新兴,,,,36,,29,108,,92,92,16,15,9,9,0.5,0.5
2026-01-07T1700,1709A,116.3261,23.5442,揭阳市,西马,颗粒物(PM10),52,54,40,23,26,99,,92,92,12,12,5,4,0.7,0.7
2026-01-07T1700,1710A,116.361,23.5627,揭阳市,东兴,,40,38,39,28,23,97,,89,89,12,15,8,9,/,/
2026-01-07T1700,1711A,116.4151,23.5295,揭阳市,渔湖,,49,49,36,21,23,101,,92,92,20,14,4,4,/,/
2026-01-07T1700,3320A,116.4028,23.5699,揭阳市,曲溪,,43,43,37,24,24,113,,101,101,19,10,4,2,0.5,0.4
2026-01-07T1700,1944A,102.1691,38.5166,金昌市,天庆家园,,31,31,60,8,18,83,,77,77,6,15,5,10,0.5,0.7
2026-01-07T1700,4022A,102.1648,38.5369,金昌市,金川区人防中心,,35,35,52,12,18,86,,80,80,6,12,4,9,0.5,0.5
2026-01-07T1700,4239A,102.193042,38.531887,金昌市,长春路96号,,40,40,51,10,16,83,,81,81,5,11,5,12,0.5,0.6
2026-01-07T1700,1262A,119.6478,29.0773,金华市,十五中,,46,46,56,32,41,106,,86,86,20,31,6,5,0.3,0.4
2026-01-07T1700,1263A,119.6859,29.1032,金华市,监测站,,50,50,62,34,44,88,,72,72,26,44,5,4,0.3,0.4
2026-01-07T1700,3659A,119.656,29.1132,金华市,气象局,颗粒物(PM10),54,58,60,32,40,93,,77,77,26,42,4,3,0.8,0.9
2026-01-07T1700,1767A,121.1114,41.0879,锦州市,南山,,28,28,33,16,15,67,,71,71,12,13,8,13,0.3,0.6
2026-01-07T1700,1768A,121.060361,40.842794,锦州市,开发区,,40,40,44,26,23,56,,64,64,21,29,6,12,0.6,0.7
2026-01-07T1700,1769A,121.1836,41.1118,锦州市,百股街道,,26,26,32,12,8,62,,69,69,13,10,11,7,0.7,0.6
2026-01-07T1700,1770A,121.1176,41.1224,锦州市,天安街道,,31,31,33,15,9,71,,79,79,13,11,11,14,0.5,0.5
2026-01-07T1700,1771A,121.1303,41.1385,锦州市,北湖公园,,40,,30,28,9,63,,71,71,11,6,10,10,0.6,0.5
2026-01-07T1700,2160A,112.8496,35.5051,晋城市,自来水公司,颗粒物(PM10),51,51,42,26,20,70,,70,70,19,13,7,6,0.7,0.6
2026-01-07T1700,2162A,112.8509,35.4886,晋城市,市环保局,,49,49,39,22,18,82,,77,77,17,13,6,5,0.6,0.6
2026-01-07T1700,3620A,112.8258,35.4804,晋城市,泽州一中,,45,45,39,17,14,86,,78,78,13,12,5,5,0.3,0.2
2026-01-07T1700,4078A,112.8246,35.5152,晋城市,前书院路,颗粒物(PM10),55,60,46,27,15,73,,70,70,16,11,6,6,0.3,0.3
2026-01-07T1700,4079A,112.8864,35.4773,晋城市,祥云街666号,细颗粒物(PM2.5),54,56,41,38,20,82,,76,76,16,13,6,6,0.4,0.4
2026-01-07T1700,2174A,112.6992,37.6984,晋中市,榆次区政府,颗粒物(PM10),65,80,62,25,25,73,,71,71,16,22,7,11,0.4,0.6
2026-01-07T1700,2865A,112.7195,37.683,晋中市,榆次三中,,,92,69,12,19,76,,73,73,11,19,8,12,,0.3
2026-01-07T1700,4080A,112.7375,37.7215,晋中市,广安街188号,颗粒物(PM10),66,81,62,21,24,78,,73,73,7,20,8,11,0.3,0.4
2026-01-07T1700,4200A,112.7478,37.6954,晋中市,迎宾街26号,颗粒物(PM10),69,88,68,19,22,77,,73,73,15,24,7,13,0.4,0.6
2026-01-07T1700,2439A,112.2012,31.048,荆门市,竹园小学,细颗粒物(PM2.5),59,44,80,42,58,88,,70,70,24,44,2,3,0.4,0.7
2026-01-07T1700,2440A,112.1968,30.9892,荆门市,掇刀,细颗粒物(PM2.5),58,,77,41,53,92,,70,70,14,40,4,6,0.4,0.7
2026-01-07T1700,3012A,112.1849,31.0361,荆门市,西山林语,细颗粒物(PM2.5),60,53,69,43,46,91,,83,83,22,30,7,7,0.3,0.7
2026-01-07T1700,3547A,112.1631,31.0134,荆门市,龙泉中学南校,颗粒物(PM10),55,60,75,38,57,88,,74,74,14,20,8,9,0.6,0.8
2026-01-07T1700,4124A,112.2213,31.0654,荆门市,新台西路6号,,,58,88,44,70,88,,66,66,,46,9,12,0.4,0.6
2026-01-07T1700,1844A,112.2493,30.3198,荆州市,市图书馆,细颗粒物(PM2.5),60,,68,43,75,102,,78,78,12,30,7,9,0.6,0.9
2026-01-07T1700,1845A,112.2009,30.3543,荆州市,市委党校,,,,72,42,72,87,,65,65,15,34,,5,0.7,0.9
2026-01-07T1700,3194A,112.2749,30.3124,荆州市,管委会,细颗粒物(PM2.5),57,,76,40,78,98,,74,74,13,39,5,7,0.6,1
2026-01-07T1700,4268A,112.1722,30.3366,荆州市,学苑路85号,,45,38,68,31,63,105,,75,75,11,25,9,12,0.6,0.8
2026-01-07T1700,2343A,117.2114,29.2931,景德镇市,老干部活动中心,,36,25,42,25,34,94,,65,65,6,23,10,9,0.3,0.5
2026-01-07T1700,2344A,117.1893,29.2789,景德镇市,兽医站,,31,28,43,20,31,98,,70,70,10,23,9,11,0.7,0.8
2026-01-07T1700,2346A,117.246,29.2958,景德镇市,陶研所,,39,,44,27,38,95,,65,65,5,24,4,5,0.3,0.5
2026-01-07T1700,4289A,117.154766,29.256967,景德镇市,青少年活动中心,,32,31,49,17,32,102,,72,72,13,31,8,21,/,/
2026-01-07T1700,1803A,115.9873,29.6816,九江市,十里,,36,36,41,25,29,101,,84,84,22,48,5,5,0.6,0.8
2026-01-07T1700,1804A,115.9583,29.7047,九江市,茅山头,,41,41,39,25,29,93,,80,80,16,35,4,5,0.7,0.8
2026-01-07T1700,1805A,115.9877,29.7295,九江市,西园,,38,38,40,16,23,99,,87,87,27,39,2,4,0.6,0.7
2026-01-07T1700,1808A,115.9112,29.6038,九江市,综合工业园,,36,27,39,25,31,97,,82,82,22,46,4,4,0.7,0.8
2026-01-07T1700,3190A,116.0254,29.6995,九江市,外国语学校,,35,35,36,20,24,86,,77,77,18,35,8,8,0.7,0.7
2026-01-07T1700,4253A,116.010205,29.659402,九江市,莲花大道8号,,49,49,38,23,21,89,,78,78,15,15,5,4,0.3,0.4
2026-01-07T1700,4240A,98.495752,39.733935,酒泉市,玉门东路5号,,,53,70,28,28,70,,62,62,,14,15,12,0.6,0.5
2026-01-07T1700,4241A,98.5099,39.7506,酒泉市,北大街108号,颗粒物(PM10),54,58,64,18,24,71,,62,62,13,18,11,10,0.5,0.6
2026-01-07T1700,2698A,76.0071,39.466,喀什地区,巡警大队,细颗粒物(PM2.5),87,90,121,64,114,58,,24,24,21,36,7,4,1.0,2
2026-01-07T1700,2699A,75.9756,39.4693,喀什地区,吾办,,,,103,,84,58,,28,28,,33,4,4,1.2,1.6
2026-01-07T1700,4027A,75.9485,39.4688,喀什地区,老干局,细颗粒物(PM2.5),85,88,132,63,92,64,,30,30,17,29,5,3,1.4,2.3
2026-01-07T1700,1824A,114.3389,34.778,开封市,肿瘤医院,颗粒物(PM10),54,57,42,21,20,78,,69,69,18,19,6,6,0.5,0.5
2026-01-07T1700,1826A,114.2884,34.7966,开封市,世纪星幼儿园,,49,49,37,23,19,78,,79,79,16,20,4,3,0.3,0.4
2026-01-07T1700,3147A,114.3434,34.8101,开封市,龙亭公园,颗粒物(PM10),52,54,48,20,17,79,,68,68,22,24,8,9,0.2,0.3
2026-01-07T1700,3210A,114.3645,34.7955,开封市,汴京公园,颗粒物(PM10),59,67,50,21,20,75,,64,64,18,21,5,6,0.4,0.5
2026-01-07T1700,3473A,114.2485,34.8306,开封市,技师学院,颗粒物(PM10),53,56,37,18,19,76,,69,69,16,21,6,6,0.5,0.6
2026-01-07T1700,3592A,114.4518,34.7503,开封市,祥符区生态环境局,,39,39,44,22,19,80,,69,69,17,23,4,5,0.4,0.5
2026-01-07T1700,1951A,84.886,45.6029,克拉玛依市,长征新村,细颗粒物(PM2.5),140,167,116,107,81,44,,34,31,36,44,8,5,1.3,1.2
2026-01-07T1700,1952A,84.8894,45.5827,克拉玛依市,南林小区,颗粒物(PM10),103,155,115,74,62,44,,24,24,24,30,5,4,1.3,1.4
2026-01-07T1700,1954A,84.896,44.3328,克拉玛依市,独山子区,细颗粒物(PM2.5),97,123,205,72,136,87,,64,64,36,44,6,6,0.9,1.3
2026-01-07T1700,1955A,85.6888,46.0909,克拉玛依市,乌尔禾区商贸楼,细颗粒物(PM2.5),118,,80,89,68,45,,29,26,31,38,5,5,1.1,1.2
2026-01-07T1700,3612A,85.1045,45.6895,克拉玛依市,白碱滩区新站,细颗粒物(PM2.5),127,147,142,96,90,44,,37,14,,13,8,7,1.0,1
2026-01-07T1700,2697A,76.1457,39.7143,克孜勒苏柯尔克孜自治州,市人民政府,细颗粒物(PM2.5),99,84,97,74,65,72,,42,42,7,17,6,5,0.2,0.4
2026-01-07T1700,3665A,76.1654,39.7157,克孜勒苏柯尔克孜自治州,克州文化中心,细颗粒物(PM2.5),78,84,82,57,63,67,,37,37,9,14,4,2,0.7,0.9
2026-01-07T1700,1450A,102.8203,24.889,昆明市,呈贡新区,细颗粒物(PM2.5),54,44,23,38,20,26,,37,32,21,14,5,3,0.7,0.7
2026-01-07T1700,1452A,102.7253,25.0904,昆明市,龙泉镇,,40,34,25,28,21,29,,27,27,20,16,2,2,0.8,0.9
2026-01-07T1700,1453A,102.7267,25.0378,昆明市,东风东路,,44,44,38,29,24,30,,32,32,25,24,4,3,0.7,0.7
2026-01-07T1700,1454A,102.6744,25.0671,昆明市,金鼎山,,40,35,31,28,23,31,,31,31,19,19,2,2,0.8,0.8
2026-01-07T1700,1455A,102.6643,25.0401,昆明市,碧鸡广场,,40,32,29,28,22,31,,30,30,20,23,3,2,0.6,0.6
2026-01-07T1700,3179A,102.7491,25.012,昆明市,官渡区博物馆,,49,38,32,34,23,16,,33,31,40,28,2,2,0.8,0.8
2026-01-07T1700,3375A,102.8016,24.8336,昆明市,青年创业园,,42,37,27,29,20,29,,39,38,12,9,3,3,0.7,0.7
2026-01-07T1700,3550A,102.8,24.9787,昆明市,昆明学院,,46,44,32,32,23,18,,38,31,35,21,2,2,0.9,0.9
2026-01-07T1700,3551A,102.5969,24.6738,昆明市,晋宁区生态环境分局,,32,29,26,22,18,30,,26,26,13,13,2,2,0.7,0.8
2026-01-07T1700,3552A,102.6673,24.9861,昆明市,云天化总部,,36,33,37,25,22,37,,34,34,15,24,4,4,0.8,0.9
2026-01-07T1700,1456A,91.132,29.6515,拉萨市,八廓街,,32,32,47,11,21,99,,74,74,3,21,8,8,0.5,1
2026-01-07T1700,1457A,91.1221,29.6748,拉萨市,市环保局,,40,40,79,9,47,91,,64,64,8,32,8,11,0.4,1.9
2026-01-07T1700,1458A,91.0874,29.6476,拉萨市,区监测站,,28,26,40,8,18,89,,66,66,7,38,4,5,0.5,1.1
2026-01-07T1700,1459A,91.1774,29.6541,拉萨市,西藏大学,,38,38,45,8,21,94,,72,72,11,33,5,7,0.3,0.8
2026-01-07T1700,1460A,90.9798,29.6586,拉萨市,区辐射站,,50,50,56,10,29,90,,68,68,12,38,4,5,0.3,0.8
2026-01-07T1700,1461A,91.0831,29.6292,拉萨市,拉萨火车站,,40,40,39,10,14,94,,76,74,7,18,4,4,0.4,0.6
2026-01-07T1700,2520A,109.2203,23.7252,来宾市,来宾技工学校,,40,40,42,24,30,97,,88,88,7,14,6,8,0.2,0.5
2026-01-07T1700,3535A,109.1781,23.7293,来宾市,兴宾区政府,,36,32,49,22,38,115,,94,94,5,11,6,6,0.4,0.6
2026-01-07T1700,4002A,109.2312,23.7428,来宾市,中南小学,,35,34,45,21,35,110,,90,90,8,19,5,8,0.4,0.6
2026-01-07T1700,1479A,103.8309,36.0467,兰州市,铁路设计院,,,,,,,,,,,,,,,,
2026-01-07T1700,3241A,103.7439,36.0841,兰州市,百合公园,细颗粒物(PM2.5),72,81,87,52,63,41,,34,34,68,65,20,22,1.4,1.7
2026-01-07T1700,3242A,103.9613,35.9985,兰州市,和平,细颗粒物(PM2.5),83,64,83,61,69,82,,58,58,18,41,15,14,1.0,1.5
2026-01-07T1700,4236A,103.629272,36.093822,兰州市,庄浪东路808号,细颗粒物(PM2.5),77,94,94,56,62,71,,48,48,41,54,26,24,1.1,1.3
2026-01-07T1700,4237A,103.7251,36.104344,兰州市,安宁西路88号,细颗粒物(PM2.5),113,139,104,85,63,46,,49,49,77,68,22,21,1.4,1.2
2026-01-07T1700,4238A,103.846982,36.067567,兰州市,北滨河东路1号,细颗粒物(PM2.5),77,,83,56,54,73,,43,43,44,66,18,16,1.3,1.7
2026-01-07T1700,1067A,116.6712,39.5109,廊坊市,药材公司,,,21,40,6,26,55,,62,62,25,28,,2,,0.6
2026-01-07T1700,1068A,116.7215,39.5592,廊坊市,开发区,,20,16,37,8,21,61,,64,63,18,36,3,3,0.3,0.4
2026-01-07T1700,1070A,116.7246,39.5273,廊坊市,北华航天学院,,20,20,42,8,20,58,,63,63,22,27,1,2,0.3,0.4
2026-01-07T1700,2919A,116.7022,39.5454,廊坊市,河北工业大学,,24,24,44,10,22,57,,62,62,24,30,4,3,0.3,0.3
2026-01-07T1700,2536A,103.7629,29.5844,乐山市,牛耳桥,,40,34,54,28,45,95,,48,48,15,28,8,8,0.4,0.6
2026-01-07T1700,2537A,103.7501,29.6002,乐山市,市第三水厂,,42,37,56,29,47,98,,46,46,15,34,6,6,0.4,0.7
2026-01-07T1700,2538A,103.7571,29.5664,乐山市,市监测站,,42,37,56,29,46,90,,43,43,12,27,7,8,0.4,0.7
2026-01-07T1700,3361A,103.7313,29.563,乐山市,理工大学,,43,40,57,30,44,90,,44,44,12,28,6,6,0.3,0.6
2026-01-07T1700,2599A,100.2497,26.8802,丽江市,丽江古城,,29,24,25,9,14,92,,88,88,9,11,8,8,0.4,0.6
2026-01-07T1700,2600A,100.2203,26.8906,丽江市,市中心,,29,20,19,3,11,92,,85,85,10,13,7,8,0.3,0.4
2026-01-07T1700,1267A,119.9141,28.4513,丽水市,监测站大楼,,50,45,40,35,30,90,,69,69,16,28,6,7,0.3,0.7
2026-01-07T1700,1268A,119.93,28.4589,丽水市,莲都小学,,41,41,44,27,30,96,,72,72,15,30,/,/,/,/
2026-01-07T1700,1269A,119.8794,28.4232,丽水市,余庄前,,49,43,40,34,32,85,,74,74,20,18,6,4,0.5,0.4
2026-01-07T1700,1173A,119.1759,34.5885,连云港市,市环境监测站,细颗粒物(PM2.5),117,112,184,88,155,51,,46,46,40,43,14,17,1.1,1.3
2026-01-07T1700,3000A,119.3577,34.6971,连云港市,德源药业,颗粒物(PM10),84,117,188,51,141,37,,42,42,54,47,6,6,0.5,0.7
2026-01-07T1700,3007A,119.178,34.8442,连云港市,新城一中,细颗粒物(PM2.5),78,102,193,57,166,37,,44,44,50,43,15,13,1.4,1.5
2026-01-07T1700,3008A,119.3607,34.7519,连云港市,胡沟管理处,细颗粒物(PM2.5),67,73,168,48,134,52,,51,51,37,48,10,10,1.0,1.2
2026-01-07T1700,3009A,119.1478,34.5913,连云港市,矿山设计院,细颗粒物(PM2.5),100,117,194,75,146,51,,49,49,39,40,9,13,1.2,1.4
2026-01-07T1700,3434A,119.2414,34.6539,连云港市,工贸学校,细颗粒物(PM2.5),105,113,168,79,141,54,,49,49,34,34,16,16,0.9,1.2
2026-01-07T1700,3664A,119.4171,34.734,连云港市,连云街道,细颗粒物(PM2.5),65,76,126,47,98,41,,44,44,44,36,10,8,1.0,1.1
2026-01-07T1700,2573A,102.2629,27.8981,凉山彝族自治州,西昌市政府,,,48,33,43,31,51,,48,48,,16,10,6,,0.9
2026-01-07T1700,2574A,102.2686,27.885,凉山彝族自治州,凉山州政府,,40,36,28,28,24,52,,51,51,21,14,12,8,0.3,0.4
2026-01-07T1700,4229A,102.2342,27.8859,凉山彝族自治州,凯乐南路30号,,33,33,23,21,15,56,,49,49,18,17,6,6,0.8,0.7
2026-01-07T1700,2212A,123.1978,41.2036,辽阳市,宏伟区,,43,43,46,16,24,53,,59,59,9,13,5,6,0.4,0.5
2026-01-07T1700,2213A,123.1684,41.2497,辽阳市,新华园,,40,40,50,13,18,52,,60,60,13,16,6,7,0.6,0.7
2026-01-07T1700,2214A,123.2355,41.2663,辽阳市,滨河路,,49,49,55,15,19,54,,59,59,9,13,5,6,0.3,0.4
2026-01-07T1700,4083A,123.153,41.2874,辽阳市,铁西路150号,,,48,59,12,18,54,,61,61,14,19,8,11,,1
2026-01-07T1700,2227A,125.1359,42.8845,辽源市,环保局,颗粒物(PM10),62,74,76,20,16,53,,62,60,16,11,4,6,0.5,0.5
2026-01-07T1700,4085A,125.0998,42.9134,辽源市,安宁大街333号,,28,28,56,8,11,64,,68,67,10,10,6,7,0.3,0.3
2026-01-07T1700,1625A,115.9789,36.4372,聊城市,区政府,,22,19,62,6,35,69,,64,64,19,41,11,15,0.5,0.8
2026-01-07T1700,3200A,115.9772,36.4986,聊城市,监控中心,,25,14,66,3,38,77,,69,69,19,41,9,15,0.3,0.7
2026-01-07T1700,3513A,116.0443,36.436,聊城市,九州社区,,32,32,74,8,37,81,,75,75,13,26,5,8,0.3,0.5
2026-01-07T1700,4018A,116.0564,36.4609,聊城市,星美广场,,34,34,76,13,36,68,,63,63,12,26,5,7,0.3,0.6
2026-01-07T1700,4113A,116.0091,36.4495,聊城市,利民路,,25,25,64,3,30,68,,60,60,17,37,9,9,0.3,0.5
2026-01-07T1700,2632A,94.3683,29.6373,林芝市,林芝监测站,,29,10,8,3,5,90,,82,82,1,2,4,4,0.3,0.3
2026-01-07T1700,2633A,94.3616,29.6634,林芝市,林芝人民医院,,26,9,12,3,7,83,,74,73,2,3,7,6,0.4,0.5
2026-01-07T1700,2603A,100.0779,23.8981,临沧市,市环保局,,,,33,31,42,83,,58,58,2,8,7,7,,0.5
2026-01-07T1700,2604A,100.0894,23.882,临沧市,市气象局,,26,16,34,10,23,82,,57,57,3,11,5,6,0.3,0.5
2026-01-07T1700,1733A,111.5552,36.0791,临汾市,临钢医院,颗粒物(PM10),56,62,63,28,34,78,,60,60,15,24,8,8,0.6,0.7
2026-01-07T1700,1734A,111.4984,36.0734,临汾市,技工学校,颗粒物(PM10),57,63,65,38,38,75,,57,57,14,31,9,10,0.7,1
2026-01-07T1700,1736A,111.5017,36.0857,临汾市,市委,颗粒物(PM10),55,60,68,24,28,80,,66,66,17,32,12,12,0.9,0.9
2026-01-07T1700,3018A,111.5048,36.1015,临汾市,唐尧大酒店,颗粒物(PM10),57,63,65,28,26,81,,71,71,17,26,8,6,0.9,0.9
2026-01-07T1700,4244A,111.4879,36.053,临汾市,启星学校,颗粒物(PM10),51,52,64,24,39,82,,62,62,22,41,11,10,0.9,1.1
2026-01-07T1700,4271A,103.2464,35.6123,临夏回族自治州,滨河东路1号,颗粒物(PM10),59,68,146,40,88,81,,60,60,13,29,6,5,0.6,1.4
2026-01-07T1700,4310A,103.207136,35.599807,临夏回族自治州,新华街21号,颗粒物(PM10),55,60,126,34,88,80,,55,55,15,33,8,10,0.7,1.4
2026-01-07T1700,1618A,118.3429,35.0532,临沂市,沂河小区,细颗粒物(PM2.5),74,70,168,54,141,57,,50,50,35,52,13,15,0.8,1.2
2026-01-07T1700,1619A,118.2962,35.0568,临沂市,鲁南制药厂,"颗粒物(PM10),细颗粒物(PM2.5)",62,73,170,44,130,55,,50,50,41,57,16,17,0.7,1.1
2026-01-07T1700,1620A,118.2793,34.9976,临沂市,新光毛纺厂,细颗粒物(PM2.5),69,73,170,50,137,60,,51,51,36,49,16,15,0.7,1.2
2026-01-07T1700,1621A,118.3955,35.0889,临沂市,河东保险公司,颗粒物(PM10),56,61,160,37,122,60,,50,50,33,43,12,12,0.7,1.1
2026-01-07T1700,3370A,118.3563,35.0215,临沂市,十里堡居委,颗粒物(PM10),63,75,169,41,121,58,,48,48,39,54,14,14,0.9,1.4
2026-01-07T1700,3496A,118.359,35.1067,临沂市,南坊新区,,,66,157,39,120,59,,52,52,,56,12,14,0.7,1.1
2026-01-07T1700,3860A,118.3915,35.0297,临沂市,皇山花园小区,颗粒物(PM10),58,66,170,38,118,66,,52,52,34,52,15,16,0.7,1.3
2026-01-07T1700,1870A,109.4854,24.3898,柳州市,柳东小学,,35,27,45,24,40,106,,87,87,7,9,8,8,0.4,0.5
2026-01-07T1700,1871A,109.4109,24.3304,柳州市,环保监测站,,,48,53,28,40,98,,78,78,12,23,6,7,,0.6
2026-01-07T1700,1872A,109.3886,24.3408,柳州市,河西水厂,,43,43,65,24,46,101,,81,81,21,29,8,10,0.6,0.6
2026-01-07T1700,1873A,109.4263,24.2951,柳州市,市四中,,42,42,48,22,35,102,,86,86,11,24,9,10,0.3,0.7
2026-01-07T1700,1874A,109.396,24.3658,柳州市,市九中,,,,55,,43,,,79,79,,25,,12,,0.7
2026-01-07T1700,1875A,109.4912,24.3164,柳州市,古亭山,,45,45,38,24,25,100,,86,86,8,20,10,10,0.4,0.7
2026-01-07T1700,3402A,109.5422,24.3994,柳州市,市二中,,34,29,41,20,36,108,,85,85,9,20,9,8,0.4,0.5
2026-01-07T1700,2307A,116.5078,31.7369,六安市,监测大楼,,,39,35,19,23,86,,78,78,13,20,4,3,,0.5
2026-01-07T1700,2308A,116.4738,31.7642,六安市,皖西学院,,47,47,39,18,22,92,,82,82,13,20,6,4,0.4,0.4
2026-01-07T1700,2309A,116.4997,31.7904,六安市,朝阳厂,,37,37,33,17,20,86,,78,78,22,21,8,6,0.5,0.4
2026-01-07T1700,2310A,116.5566,31.7885,六安市,开发区,,,41,43,,28,85,,77,77,17,26,5,4,0.3,0.4
2026-01-07T1700,2577A,104.8293,26.592,六盘水市,黄土坡,细颗粒物(PM2.5),62,61,50,44,37,57,,47,47,16,16,12,11,0.7,0.8
2026-01-07T1700,2579A,104.8481,26.5898,六盘水市,民中,细颗粒物(PM2.5),67,54,47,48,38,52,,45,41,18,18,4,5,0.6,0.7
2026-01-07T1700,2580A,104.9541,26.5506,六盘水市,双水,细颗粒物(PM2.5),54,51,43,38,33,63,,59,59,13,10,5,4,0.5,0.4
2026-01-07T1700,4151A,104.8899,26.5685,六盘水市,钟山大道中段564号,细颗粒物(PM2.5),63,62,55,45,35,61,,54,54,12,10,8,7,1.0,0.9
2026-01-07T1700,2336A,117.022,25.1031,龙岩市,龙岩市监测站,,35,34,29,24,22,103,,97,97,13,15,12,21,0.4,0.5
2026-01-07T1700,2337A,117.0257,25.0662,龙岩市,闽西职业技术学院,,35,34,31,24,23,105,,100,100,8,14,10,7,0.4,0.4
2026-01-07T1700,2338A,117.0195,25.0306,龙岩市,龙岩学院,,32,28,29,21,24,101,,92,92,10,9,11,7,/,/
2026-01-07T1700,2885A,104.9344,33.3827,陇南市,滨江中学,,,86,78,33,43,58,,60,60,,46,11,15,,1.9
2026-01-07T1700,3247A,104.9551,33.3709,陇南市,市总工会,颗粒物(PM10),51,52,115,20,39,80,,54,54,12,31,8,9,0.5,0.9
2026-01-07T1700,2488A,111.9984,27.7346,娄底市,市监测站,细颗粒物(PM2.5),52,41,77,36,60,102,,65,65,11,41,9,15,0.8,1.4
2026-01-07T1700,2491A,111.9888,27.7035,娄底市,市政府,颗粒物(PM10),51,52,60,28,49,102,,72,72,17,21,7,6,1.0,1
2026-01-07T1700,4127A,111.9812,27.7591,娄底市,涟钢职大,细颗粒物(PM2.5),70,60,71,51,43,106,,65,65,17,32,9,11,0.7,1.9
2026-01-07T1700,4128A,112.0303,27.7457,娄底市,娄底体校,,42,,58,29,44,100,,56,56,12,23,6,7,0.6,1
2026-01-07T1700,1894A,105.4427,28.9063,泸州市,小市上码头,,48,48,81,29,58,92,,40,40,12,33,9,10,0.8,1
2026-01-07T1700,1895A,105.4241,28.8573,泸州市,兰田宪桥,,46,43,75,32,62,79,,42,42,13,28,7,8,0.8,1
2026-01-07T1700,1896A,105.4378,28.8833,泸州市,市环监站,,45,42,76,31,56,90,,38,38,16,41,8,8,0.8,1
2026-01-07T1700,4272A,105.3689,28.7783,泸州市,纳溪中医医院,细颗粒物(PM2.5),73,69,76,53,60,69,,40,40,20,26,8,8,0.8,0.9
2026-01-07T1700,2183A,111.1447,37.5212,吕梁市,环保局,颗粒物(PM10),71,91,87,38,32,65,,44,44,8,37,6,6,0.5,0.5
2026-01-07T1700,2185A,111.1285,37.5338,吕梁市,自来水公司,颗粒物(PM10),68,86,108,25,38,64,,46,46,9,32,5,9,0.4,0.5
2026-01-07T1700,2867A,111.1225,37.5093,吕梁市,马茂庄小学,颗粒物(PM10),80,110,104,31,35,64,,42,42,11,41,6,8,0.5,0.7
2026-01-07T1700,1812A,112.3934,34.6517,洛阳市,市委党校,颗粒物(PM10),55,59,37,23,21,82,,74,74,13,15,8,9,0.3,0.4
2026-01-07T1700,1815A,112.494,34.6883,洛阳市,河南林校,,,,51,,21,79,,72,72,20,21,11,13,0.5,0.6
2026-01-07T1700,1816A,112.3843,34.623,洛阳市,开发区管委会,颗粒物(PM10),53,55,37,26,20,77,,71,71,12,15,9,10,0.3,0.3
2026-01-07T1700,1817A,112.4263,34.6249,洛阳市,市委新办公区,颗粒物(PM10),55,60,37,27,25,84,,74,74,9,13,9,9,0.4,0.4
2026-01-07T1700,3340A,112.6005,34.6323,洛阳市,伊滨,颗粒物(PM10),54,57,39,25,24,79,,77,77,11,15,7,7,0.3,0.5
2026-01-07T1700,3341A,112.495,34.6338,洛阳市,中移产业园,颗粒物(PM10),59,67,39,25,25,82,,73,73,16,19,9,10,0.3,0.4
2026-01-07T1700,3593A,112.5736,34.8993,洛阳市,吉利监测站,,44,44,38,21,20,96,,85,85,15,22,8,8,0.5,0.6
2026-01-07T1700,3635A,112.3678,34.6623,洛阳市,河科大西苑校区,颗粒物(PM10),58,66,41,22,21,81,,75,75,13,14,8,9,0.4,0.4
2026-01-07T1700,3636A,112.4387,34.678,洛阳市,英才小学,颗粒物(PM10),60,69,47,28,29,88,,80,80,23,26,11,11,0.4,0.5
2026-01-07T1700,4214A,112.460027,34.694929,洛阳市,春都路1号院,颗粒物(PM10),66,82,54,22,22,79,,72,72,16,18,9,12,0.5,0.6
2026-01-07T1700,2399A,114.051,33.5721,漯河市,三五一五工厂,颗粒物(PM10),51,52,44,24,22,88,,80,80,11,12,8,8,0.6,0.6
2026-01-07T1700,2400A,114.0055,33.5698,漯河市,漯河大学,颗粒物(PM10),52,53,40,22,18,87,,78,78,15,20,7,7,0.5,0.5
2026-01-07T1700,2401A,114.0134,33.5826,漯河市,市水利局,,,,36,22,21,79,,74,74,17,20,,8,,0.6
2026-01-07T1700,2402A,114.0261,33.5697,漯河市,市广电局,,44,44,35,25,20,92,,86,86,9,12,8,8,0.5,0.5
2026-01-07T1700,3478A,113.9691,33.568,漯河市,市图书馆,,49,49,38,21,21,75,,68,68,10,11,5,6,0.6,0.5
2026-01-07T1700,4250A,114.089259,33.588274,漯河市,韶山路11号,颗粒物(PM10),53,55,42,22,20,80,,71,71,18,16,8,7,0.4,0.4
2026-01-07T1700,1798A,118.5084,31.6838,马鞍山市,湖东路四小,,38,38,62,16,43,69,,68,68,24,28,5,4,0.4,0.5
2026-01-07T1700,1799A,118.5019,31.6449,马鞍山市,开发区,,43,43,65,20,48,72,,69,69,23,37,6,4,0.5,0.6
2026-01-07T1700,3633A,118.4914,31.681,马鞍山市,雨山,,47,47,65,20,44,73,,72,72,25,33,7,7,0.4,0.5
2026-01-07T1700,4191A,118.527362,31.722269,马鞍山市,慈湖高新区,,40,38,62,28,42,51,,59,59,40,42,14,8,1.2,1.1
2026-01-07T1700,1686A,111.0285,21.469,茂名市,电白南海,,49,48,59,34,37,127,,104,104,15,17,11,14,0.5,0.6
2026-01-07T1700,1687A,110.9294,21.6533,茂名市,茂石化七小,,39,39,50,24,35,114,,98,98,13,15,10,12,0.4,0.6
2026-01-07T1700,1688A,110.9108,21.6688,茂名市,健康路,,39,31,44,27,33,123,,106,106,16,19,13,18,0.5,0.7
2026-01-07T1700,1689A,110.8592,21.6826,茂名市,高岭,,44,44,58,19,34,114,,103,103,12,19,9,23,/,/
2026-01-07T1700,3450A,111.0101,21.5165,茂名市,电白水东,颗粒物(PM10),53,56,52,29,36,119,,102,102,16,11,9,12,/,/
2026-01-07T1700,2540A,103.8414,30.0871,眉山市,气象局,,50,50,61,34,47,104,,68,68,12,32,9,9,0.4,0.7
2026-01-07T1700,3148A,103.829,30.0563,眉山市,区人社局,细颗粒物(PM2.5),52,49,57,36,42,98,,60,60,12,28,6,6,0.4,0.7
2026-01-07T1700,4148A,103.8836,30.0695,眉山市,眉职院,,43,43,53,25,32,101,,60,60,8,27,2,1,0.4,0.6
2026-01-07T1700,1690A,116.1248,24.3307,梅州市,梅江月梅,,,30,35,24,24,,,82,82,15,23,/,/,/,/
2026-01-07T1700,1691A,116.0798,24.2719,梅州市,梅县新城,,32,26,33,20,33,100,,81,81,18,22,7,7,0.5,0.5
2026-01-07T1700,3315A,116.1234,24.2994,梅州市,梅龙,,31,27,38,17,24,98,,82,82,12,18,8,11,0.4,0.5
2026-01-07T1700,1878A,104.7775,31.4741,绵阳市,富乐山,细颗粒物(PM2.5),58,58,59,41,47,97,,63,63,15,22,12,11,0.6,0.7
2026-01-07T1700,1880A,104.6698,31.4668,绵阳市,高新区自来水公司,细颗粒物(PM2.5),62,56,99,44,59,94,,56,56,20,46,9,9,0.5,0.9
2026-01-07T1700,3491A,104.6899,31.5324,绵阳市,西科大附属小学,细颗粒物(PM2.5),75,70,95,55,60,88,,57,57,19,44,9,9,0,1.1
2026-01-07T1700,3492A,104.5647,31.5343,绵阳市,安州区旅游局,,45,41,89,31,66,86,,56,56,28,41,10,12,0.9,1.2
2026-01-07T1700,4146A,104.7092,31.4972,绵阳市,科技城新区公安局,颗粒物(PM10),54,58,84,36,60,97,,57,57,24,44,5,3,0.4,0.7
2026-01-07T1700,4226A,104.765114,31.453094,绵阳市,绵阳市气象局,颗粒物(PM10),51,51,76,34,54,95,,52,52,18,37,12,10,0.6,0.9
2026-01-07T1700,1784A,129.61,44.561,牡丹江市,环保大楼,颗粒物(PM10),53,55,69,32,41,54,,61,61,16,28,3,8,0.3,0.6
2026-01-07T1700,1787A,129.6364,44.6075,牡丹江市,机车工厂,,46,46,85,23,47,56,,59,58,12,39,3,21,0.3,0.7
2026-01-07T1700,1788A,129.6386,44.5462,牡丹江市,第一中学,,38,38,60,23,45,55,,58,58,8,33,4,9,0.4,0.8
2026-01-07T1700,4287A,129.5992,44.5964,牡丹江市,东晓云街98号,,48,38,71,33,57,56,,59,58,10,32,4,9,0.4,0.9
2026-01-07T1700,2531A,105.0703,29.61,内江市,市监测站,细颗粒物(PM2.5),59,49,63,42,55,109,,62,62,16,28,5,5,0.5,0.7
2026-01-07T1700,2533A,105.0657,29.5807,内江市,内江二中,细颗粒物(PM2.5),54,53,72,38,59,99,,59,59,20,36,5,5,0.7,0.9
2026-01-07T1700,2534A,105.0407,29.5828,内江市,内江日报社,细颗粒物(PM2.5),58,42,56,41,48,102,,58,58,21,42,2,3,0.4,0.7
2026-01-07T1700,4147A,105.0433,29.6105,内江市,玉峰路西段888号,颗粒物(PM10),51,51,77,33,50,110,,60,60,19,32,4,4,0.5,0.7
2026-01-07T1700,2628A,92.0653,31.4846,那曲市,那曲监测站,,35,35,46,18,34,74,,57,57,7,28,6,11,0.7,1.5
2026-01-07T1700,4243A,92.0515,31.4787,那曲市,那曲市委宣传部,,30,13,26,3,16,93,,61,61,2,20,4,7,0.5,1.2
2026-01-07T1700,1291A,115.8887,28.7006,南昌市,省林业公司,,32,29,45,22,30,87,,67,67,13,39,5,6,0.4,0.5
2026-01-07T1700,1292A,115.813,28.7443,南昌市,林科所,,36,36,30,17,22,86,,70,70,20,30,8,8,0.4,0.4
2026-01-07T1700,1294A,115.8518,28.687,南昌市,建工学校,,32,22,46,22,29,83,,64,64,12,27,14,15,0.5,0.6
2026-01-07T1700,1295A,115.8926,28.6425,南昌市,象湖,,32,30,43,22,32,87,,72,72,19,41,10,11,0.6,0.8
2026-01-07T1700,3046A,115.9084,28.6062,南昌市,机电学校,,36,36,50,19,31,86,,74,74,19,38,6,7,0.5,0.6
2026-01-07T1700,3690A,115.9718,28.7032,南昌市,外国语学校,,32,24,42,22,35,79,,68,68,33,41,12,12,0.5,0.5
2026-01-07T1700,4106A,115.7923,28.6873,南昌市,工业二路,,36,36,35,25,23,82,,66,66,23,39,8,7,0.4,0.4
2026-01-07T1700,4192A,115.931587,28.686774,南昌市,南京东路235号,,32,30,47,9,33,101,,79,79,23,43,6,6,0.1,0.3
2026-01-07T1700,1906A,106.0791,30.8022,南充市,南充市委,细颗粒物(PM2.5),73,69,69,53,52,55,,27,27,34,42,5,5,0.6,0.8
2026-01-07T1700,1907A,106.1038,30.8215,南充市,南充炼油厂,,,,88,,63,63,,26,26,,43,,6,0.5,0.7
2026-01-07T1700,4227A,106.108336,30.788436,南充市,梨树横街98号,颗粒物(PM10),57,64,70,37,49,71,,37,37,28,39,7,6,0.5,0.7
2026-01-07T1700,4304A,106.1172,30.843,南充市,清泉寺北路188号,细颗粒物(PM2.5),60,46,60,43,48,73,,42,42,26,29,7,7,0.4,0.4
2026-01-07T1700,4305A,106.067,30.7616,南充市,同庆路1号,细颗粒物(PM2.5),62,51,68,44,50,64,,31,31,27,44,6,6,1.6,1.2
2026-01-07T1700,1151A,118.8033,32.1085,南京市,迈皋桥,,34,34,42,19,25,82,,75,75,4,15,2,2,0.4,0.5
2026-01-07T1700,1152A,118.7487,32.057,南京市,草场门,,41,41,47,22,29,77,,69,69,21,29,7,6,0.2,0.2
2026-01-07T1700,1154A,118.770105,32.004342,南京市,中华门,,41,41,47,22,30,73,,68,68,14,27,4,5,0.4,0.5
2026-01-07T1700,1155A,118.8059,32.0329,南京市,瑞金路,,46,46,49,24,32,68,,65,65,21,33,4,4,0.6,0.7
2026-01-07T1700,1156A,118.7946,32.0774,南京市,玄武湖,,34,34,45,14,24,73,,66,66,20,21,4,4,0.4,0.5
2026-01-07T1700,1157A,118.6415,32.0964,南京市,浦口,,43,43,48,23,28,72,,70,70,24,21,9,8,0.6,0.6
2026-01-07T1700,1158A,118.730129,32.000956,南京市,奥体中心,,38,38,51,22,33,85,,77,77,20,34,8,7,0.4,0.5
2026-01-07T1700,1159A,118.9072,32.1047,南京市,仙林大学城,,44,44,48,22,25,66,,63,63,23,33,6,6,0.6,0.7
2026-01-07T1700,3422A,118.8443,31.919,南京市,江宁彩虹桥,,37,37,53,22,33,71,,67,67,16,29,4,5,0.3,0.6
2026-01-07T1700,3427A,118.8497,32.3599,南京市,六合雄州,,39,33,43,27,27,79,,74,74,20,22,8,10,0.6,0.6
2026-01-07T1700,4086A,118.7641,32.0841,南京市,新模范马路66号,,41,41,55,8,26,71,,62,62,19,27,7,6,0.5,0.7
2026-01-07T1700,4249A,118.8707617,31.34017673,南京市,汶溪路181号,,36,36,58,22,51,82,,75,75,21,25,5,6,0.4,0.6
2026-01-07T1700,4312A,119.019,31.6512,南京市,中山西路1号,,,39,56,30,53,68,,61,61,,27,4,4,0.6,0.7
2026-01-07T1700,1401A,108.3098,22.788,南宁市,二十一中,,40,40,30,27,19,88,,70,70,14,16,5,6,0.4,0.5
2026-01-07T1700,1402A,108.3135,22.8529,南宁市,北湖,,,34,36,,16,102,,81,81,16,23,7,8,0.6,0.7
2026-01-07T1700,1403A,108.3205,22.8222,南宁市,市监测站,,43,36,36,30,25,95,,82,82,18,19,9,10,0.6,0.6
2026-01-07T1700,1404A,108.3828,22.8038,南宁市,大自然花园,,39,39,35,24,21,101,,85,85,12,15,6,7,0.5,0.6
2026-01-07T1700,1406A,108.2397,22.8462,南宁市,区农职院,,36,33,40,25,23,99,,77,77,11,19,9,8,0.7,0.7
2026-01-07T1700,1407A,108.3285,22.7356,南宁市,英华嘉园,,40,34,33,28,22,102,,80,80,10,11,5,5,0.6,0.6
2026-01-07T1700,3401A,108.4829,22.762,南宁市,红星社区,,32,24,27,16,23,102,,93,93,6,7,6,6,0.5,0.5
2026-01-07T1700,4132A,108.2927,23.1477,南宁市,起凤路9号,,30,24,31,19,27,94,,80,80,10,14,2,3,0.4,0.7
2026-01-07T1700,4221A,108.2177,22.7774,南宁市,乐贤路16号,,32,32,43,20,23,91,,72,72,10,18,2,7,0.4,0.4
2026-01-07T1700,2332A,118.1682,26.6371,南平市,南平市监测站,,38,28,33,26,27,93,,74,74,11,21,4,3,0.4,0.5
2026-01-07T1700,2334A,118.1757,26.6276,南平市,南平七中,颗粒物(PM10),53,55,38,22,30,92,,75,75,13,20,5,5,0.5,0.5
2026-01-07T1700,1168A,120.9056,31.9669,南通市,狼山街道,细颗粒物(PM2.5),65,63,70,47,48,66,,52,52,27,32,6,6,0.4,0.8
2026-01-07T1700,1170A,120.8635,32.0231,南通市,城中,颗粒物(PM10),60,70,73,39,45,70,,59,59,26,30,7,6,0.5,0.6
2026-01-07T1700,1171A,120.9376,31.9301,南通市,星湖花园,细颗粒物(PM2.5),60,59,76,43,55,58,,51,51,47,47,7,8,0.5,1.1
2026-01-07T1700,1172A,120.8053,32.046,南通市,紫琅学院,颗粒物(PM10),56,62,72,38,45,77,,66,66,23,28,6,6,0.6,0.7
2026-01-07T1700,3291A,121.0631,32.0644,南通市,通州监测站,细颗粒物(PM2.5),62,58,69,44,52,79,,69,69,30,33,6,5,0.6,0.7
2026-01-07T1700,3432A,120.9348,31.9874,南通市,环境教育馆,细颗粒物(PM2.5),57,61,71,40,47,76,,60,60,28,33,7,7,0.6,0.7
2026-01-07T1700,4091A,120.8692,31.9885,南通市,洪江路,颗粒物(PM10),55,60,84,33,43,67,,49,49,31,42,6,6,0.4,0.5
2026-01-07T1700,2404A,112.5338,33.0086,南阳市,瓦房庄,,37,37,47,22,29,87,,61,61,10,21,7,7,0.5,0.6
2026-01-07T1700,2405A,112.5002,32.9734,南阳市,汉画馆,,37,37,42,19,24,79,,62,62,14,22,6,6,0.5,0.5
2026-01-07T1700,2406A,112.5778,33.0144,南阳市,气象站,,32,32,46,17,24,87,,69,69,13,26,5,6,0.4,0.5
2026-01-07T1700,2407A,112.548,32.9687,南阳市,理工学院,,34,34,41,12,22,84,,63,63,16,25,6,6,0.4,0.5
2026-01-07T1700,4008A,112.5233,32.9921,南阳市,卧龙区政府,,31,31,41,20,27,81,,58,58,13,26,6,5,0.4,0.5
2026-01-07T1700,1234A,121.8352,29.9111,宁波市,区环保大楼,颗粒物(PM10),54,58,73,33,56,75,,73,73,45,36,8,8,0.7,0.8
2026-01-07T1700,1235A,121.5595,29.8208,宁波市,万里学院,颗粒物(PM10),51,52,70,33,54,79,,80,80,29,28,5,5,0.5,0.6
2026-01-07T1700,1236A,121.713,29.9564,宁波市,龙赛医院,颗粒物(PM10),53,55,69,36,50,72,,76,76,38,31,4,4,0.5,0.6
2026-01-07T1700,1240A,121.5855,29.8635,宁波市,太古小学,细颗粒物(PM2.5),55,50,68,39,55,81,,85,85,26,21,2,2,0.5,0.6
2026-01-07T1700,1241A,121.5239,29.8673,宁波市,市环境监测中心,细颗粒物(PM2.5),79,,70,58,51,75,,79,79,27,25,7,6,0.7,0.8
2026-01-07T1700,2871A,121.6156,29.9015,宁波市,万里国际学校,颗粒物(PM10),51,52,70,35,53,76,,84,84,39,31,4,4,0.5,0.6
2026-01-07T1700,3710A,121.5593,29.8976,宁波市,白沙活动中心,,49,46,66,34,54,78,,78,78,33,30,5,5,0.5,0.6
2026-01-07T1700,4095A,121.8962,29.7529,宁波市,中科路88号,细颗粒物(PM2.5),57,52,62,40,55,75,,85,85,37,22,6,6,0.5,0.6
2026-01-07T1700,2341A,119.5387,26.6611,宁德市,宁德市监测站,,30,30,30,18,24,85,,81,81,28,20,8,6,0.5,0.4
2026-01-07T1700,3209A,119.5231,26.6562,宁德市,宁德一中,,39,,29,27,19,81,,81,81,12,12,5,5,0.5,0.5
2026-01-07T1700,2618A,98.859,25.8541,怒江傈僳族自治州,州监测站,,,,33,,22,84,,67,67,,12,,6,0.4,0.4
2026-01-07T1700,2619A,98.8607,25.8168,怒江傈僳族自治州,泸水一中,,32,32,29,10,21,75,,54,54,9,17,6,6,0.5,0.6
2026-01-07T1700,1888A,101.6891,26.571,攀枝花市,弄弄坪,细颗粒物(PM2.5),58,53,46,41,31,102,,70,70,14,18,15,10,0.8,0.8
2026-01-07T1700,1889A,101.577,26.5914,攀枝花市,河门口,细颗粒物(PM2.5),54,56,57,38,37,97,,63,63,16,22,20,23,1.3,1.5
2026-01-07T1700,1891A,101.7365,26.4986,攀枝花市,仁和,,32,30,43,22,39,87,,70,70,15,21,10,10,0.8,0.9
2026-01-07T1700,2835A,101.7222,26.567,攀枝花市,四十中小,,40,40,44,28,26,98,,70,70,14,13,15,13,0.9,0.9
2026-01-07T1700,1604A,122.0303,41.1489,盘锦市,开发区,颗粒物(PM10),51,51,41,25,14,58,,62,62,9,13,3,5,0.7,0.7
2026-01-07T1700,1605A,122.0486,41.0883,盘锦市,兴隆台,细颗粒物(PM2.5),57,60,40,40,16,59,,63,63,20,22,5,6,0.5,0.4
2026-01-07T1700,1606A,121.8297,41.1026,盘锦市,新生街道,,35,35,38,8,10,54,,65,65,15,32,2,6,0.2,0.4
2026-01-07T1700,1832A,113.3257,33.7423,平顶山市,新华旅馆,颗粒物(PM10),52,54,45,19,17,85,,81,81,13,13,5,6,0.3,0.3
2026-01-07T1700,1833A,113.2917,33.737,平顶山市,规划设计院,,,,32,,19,,,78,,,13,,7,,0.3
2026-01-07T1700,1834A,113.182,33.7738,平顶山市,平顶山工学院,,45,45,33,19,19,87,,83,83,12,13,7,8,0.1,0.2
2026-01-07T1700,3594A,112.8736,33.9068,平顶山市,石龙区,颗粒物(PM10),57,63,44,27,20,89,,87,87,16,19,5,6,0.4,0.4
2026-01-07T1700,4116A,113.284,33.7139,平顶山市,姚电大道23号,颗粒物(PM10),56,62,46,27,22,86,,83,83,17,18,8,9,0.4,0.4
2026-01-07T1700,2656A,106.6633,35.5338,平凉市,聚贤嘉苑,,34,34,32,20,21,94,,79,79,12,29,13,9,0.5,0.7
2026-01-07T1700,2657A,106.7021,35.5307,平凉市,博物馆,,32,32,42,21,27,96,,72,72,13,28,12,12,0.6,1
2026-01-07T1700,2348A,113.8384,27.6436,萍乡市,中医院,,45,45,88,24,58,135,,104,104,14,32,5,6,0.8,1.3
2026-01-07T1700,2350A,113.8677,27.6438,萍乡市,市环保局,,,44,75,31,62,147,,113,113,16,28,,13,,1
2026-01-07T1700,2351A,113.8663,27.6202,萍乡市,安源区政府,细颗粒物(PM2.5),54,42,79,38,65,115,,85,85,16,22,9,10,0.9,1.3
2026-01-07T1700,4107A,113.8686,27.6668,萍乡市,联洪村委会,,,48,81,35,62,,,82,,,31,,6,,1.1
2026-01-07T1700,2319A,119.0142,25.4324,莆田市,荔城区仓后路,,46,46,31,29,24,99,,94,94,19,11,/,/,/,/
2026-01-07T1700,2320A,119.0016,25.4553,莆田市,莆田市监测站,,45,37,25,31,22,103,,99,99,17,6,4,3,0.5,0.4
2026-01-07T1700,2321A,119.112,25.4561,莆田市,涵江区六中,,50,50,30,32,24,101,,95,95,16,10,/,/,0.7,0.5
2026-01-07T1700,2322A,119.1014,25.3215,莆田市,秀屿区政府,,42,42,34,27,25,109,,102,102,9,9,4,3,0.5,0.7
2026-01-07T1700,2392A,115.0312,35.7636,濮阳市,环保局,,42,42,49,16,21,71,,62,62,29,31,10,8,0.5,0.6
2026-01-07T1700,3021A,115,35.7667,濮阳市,濮水河管理处,,50,50,59,13,26,74,,61,61,7,22,10,7,0.5,0.7
2026-01-07T1700,4118A,115.0552,35.7816,濮阳市,中原东路68号,,48,48,61,31,27,78,,64,64,20,29,9,8,0.4,0.7
2026-01-07T1700,4216A,115.0923632,35.76857718,濮阳市,任丘路479号,,49,49,59,22,32,69,,57,57,21,35,8,7,0.4,0.5
2026-01-07T1700,2601A,100.9801,22.7634,普洱市,市环保局,,31,31,41,10,18,59,,57,57,5,10,4,4,0.3,0.4
2026-01-07T1700,2602A,100.9763,22.8237,普洱市,普洱第二中学,,28,28,33,17,16,61,,55,55,6,15,5,5,0.4,0.5
2026-01-07T1700,3345A,131.0413,45.7795,七台河市,中波台,,,,38,,28,,,52,48,,13,,6,,0.5
2026-01-07T1700,3637A,131.0136,45.7688,七台河市,人民广场,颗粒物(PM10),53,56,48,36,34,46,,49,49,21,19,7,8,0.5,0.6
2026-01-07T1700,3684A,130.8639,45.8144,七台河市,新建矿广场,,50,39,70,35,42,48,,45,45,11,27,7,11,0.2,0.4
2026-01-07T1700,1779A,123.9307,47.3641,齐齐哈尔市,安居小区,,23,21,32,16,24,42,,52,51,16,15,6,8,0.5,0.5
2026-01-07T1700,1780A,123.9497,47.3389,齐齐哈尔市,中心广场,,15,15,28,7,17,45,,53,50,15,13,5,6,0.5,0.5
2026-01-07T1700,1781A,123.9483,47.3229,齐齐哈尔市,农牧车辆厂,,15,14,25,3,17,46,,52,50,12,12,3,4,0.3,0.3
2026-01-07T1700,1783A,123.9442,47.2994,齐齐哈尔市,市环境监测站,,17,17,28,3,16,53,,58,57,8,11,6,8,0.4,0.5
2026-01-07T1700,3662A,123.6341,47.2079,齐齐哈尔市,富区青少年活动中心,,44,44,38,24,24,40,,53,52,21,13,6,5,0.6,0.5
2026-01-07T1700,2591A,107.9765,26.5724,黔东南苗族侗族自治州,市环境监测站,,28,23,45,19,38,79,,48,48,8,22,1,3,0.4,0.7
2026-01-07T1700,2881A,107.8909,26.531,黔东南苗族侗族自治州,凯里学院,,33,29,40,23,33,77,,49,49,11,17,4,5,0.4,0.7
2026-01-07T1700,2593A,107.5223,26.2371,黔南布依族苗族自治州,小围寨,,42,36,39,29,36,73,,52,52,7,13,8,8,0.8,0.9
2026-01-07T1700,3538A,107.5175,26.2977,黔南布依族苗族自治州,沙坝,,41,41,45,27,38,73,,63,63,14,13,6,7,0.7,0.9
2026-01-07T1700,2589A,104.9022,25.0943,黔西南布依族苗族自治州,场坝街,细颗粒物(PM2.5),73,67,52,53,42,64,,59,59,18,15,12,9,0.8,0.7
2026-01-07T1700,2590A,104.8812,25.0994,黔西南布依族苗族自治州,坪东大道,细颗粒物(PM2.5),68,,42,49,39,68,,58,58,21,18,12,10,0.9,0.8
2026-01-07T1700,2502A,108.6238,21.9667,钦州市,市环保站,,48,48,49,27,27,113,,92,92,13,17,3,4,0.6,1.1
2026-01-07T1700,2503A,108.655,21.9481,钦州市,沙埠小学,颗粒物(PM10),66,81,54,30,25,104,,91,91,28,22,6,6,0.7,0.8
2026-01-07T1700,2504A,108.5989,21.7435,钦州市,港区一小,,50,50,52,28,28,105,,88,88,15,22,8,8,0.6,0.7
2026-01-07T1700,3404A,108.5959,21.9634,钦州市,北职校,,40,34,37,28,30,111,,91,91,11,21,10,9,0.6,0.8
2026-01-07T1700,1046A,119.5247,39.9346,秦皇岛市,建设大厦,,28,27,28,19,22,61,,63,63,15,23,4,5,0.3,0.3
2026-01-07T1700,3132A,119.5979,39.938,秦皇岛市,文明里,,40,40,32,17,15,59,,62,62,15,22,9,9,0.3,0.3
2026-01-07T1700,4066A,119.7458,39.9952,秦皇岛市,南园路157号,,,39,32,22,9,50,,71,70,,22,32,5,0.3,0.4
2026-01-07T1700,4067A,119.5131,39.8858,秦皇岛市,翠岛大街1号,颗粒物(PM10),53,55,31,9,7,61,,64,64,10,17,8,9,0.3,0.3
2026-01-07T1700,4198A,119.509013,39.825305,秦皇岛市,北戴河轮滑馆,,38,38,29,15,15,64,,69,68,12,17,7,5,0.4,0.5
2026-01-07T1700,1310A,120.404,36.0625,青岛市,市南区东部子站,,41,41,159,12,104,71,,58,58,15,53,8,14,0.4,1.1
2026-01-07T1700,1311A,120.362344,36.10282,青岛市,四方区子站,颗粒物(PM10),59,68,216,17,119,74,,61,61,13,56,3,9,0.4,1.2
2026-01-07T1700,1312A,120.294373,36.054183,青岛市,市南区西部子站,,36,36,154,15,106,72,,57,57,18,52,3,8,0.4,1.1
2026-01-07T1700,1313A,120.4581,36.0858,青岛市,崂山区子站,,31,31,150,9,101,73,,61,61,20,54,10,15,0.5,1.3
2026-01-07T1700,1315A,120.3945,36.3083,青岛市,城阳区子站,,39,39,164,12,90,76,,66,66,14,58,7,14,0.6,1.4
2026-01-07T1700,3642A,120.3454,36.0735,青岛市,市北区南部,颗粒物(PM10),59,67,182,12,109,59,,48,48,21,51,3,8,0.3,1.1
2026-01-07T1700,3643A,120.3897,36.18,青岛市,李沧区北部,,39,39,154,9,118,66,,54,54,19,58,8,13,0.6,1.4
2026-01-07T1700,4110A,120.5222,36.4089,青岛市,盟旺路653号,,35,35,159,8,102,71,,66,66,19,55,2,11,0.4,1
2026-01-07T1700,4290A,120.196923,35.954556,青岛市,珠江路669号,,41,41,133,22,97,74,,61,61,21,42,10,15,0.5,1
2026-01-07T1700,4291A,120.0424,35.8656,青岛市,黄岛区人民政府广场,,,,159,17,111,78,,76,76,,57,,11,,1.3
2026-01-07T1700,1703A,113.0218,23.7086,清远市,凤城街办,,33,24,35,20,29,104,,96,96,13,16,/,/,/,/
2026-01-07T1700,3025A,113.0479,23.6343,清远市,技师学院,,30,28,42,16,28,94,,89,89,19,23,6,8,0.3,0.6
2026-01-07T1700,3318A,112.9898,23.7403,清远市,清新太和,,36,28,35,22,26,114,,106,106,9,11,6,6,0.3,0.5
2026-01-07T1700,3455A,113.076,23.72,清远市,清城东城,,33,24,37,18,27,104,,96,96,14,15,/,/,/,/
2026-01-07T1700,2661A,107.6325,35.7357,庆阳市,庆阳五中,,30,30,39,12,18,95,,84,84,7,12,4,5,0.4,0.5
2026-01-07T1700,2662A,107.6361,35.7067,庆阳市,市环保局,,34,34,44,9,17,92,,83,83,8,8,1,2,0.3,0.4
2026-01-07T1700,1916A,103.7897,25.5036,曲靖市,环境监测站,,,,42,,23,47,,44,44,,15,,3,1.0,1
2026-01-07T1700,1917A,103.8013,25.5357,曲靖市,烟厂办公区,,48,43,36,33,23,44,,43,43,16,15,4,4,0.7,0.6
2026-01-07T1700,3376A,103.7926,25.4651,曲靖市,南苑二区,,48,44,41,33,25,46,,48,48,13,11,4,4,0.6,0.6
2026-01-07T1700,3377A,103.7442,25.5259,曲靖市,曲靖师范学院,,49,40,39,34,32,50,,46,46,12,13,1,3,0.5,0.5
2026-01-07T1700,1264A,118.8694,28.94,衢州市,环保大楼,,38,38,50,26,37,95,,88,88,18,24,/,/,/,/
2026-01-07T1700,1266A,118.8622,28.9809,衢州市,衢州学院,,40,40,47,26,35,92,,81,81,18,34,7,5,0.4,0.4
2026-01-07T1700,4097A,118.9646,28.9832,衢州市,衢州三中,,37,37,52,25,38,90,,86,86,21,23,7,7,0.6,0.6
2026-01-07T1700,1611A,118.5818,24.9116,泉州市,涂山街,颗粒物(PM10),51,51,30,33,24,103,,95,95,17,9,5,3,0.5,0.5
2026-01-07T1700,1612A,118.597,24.8976,泉州市,津头埔,,50,50,29,33,26,105,,96,96,20,12,6,4,0.6,0.6
2026-01-07T1700,1613A,118.6669,24.9422,泉州市,万安,颗粒物(PM10),51,52,30,28,22,100,,91,91,15,14,4,3,0.6,0.5
2026-01-07T1700,4105A,118.6355,24.9148,泉州市,霞新路6号,,43,37,28,30,23,106,,98,98,20,14,/,/,0.3,0.3
2026-01-07T1700,2626A,88.8873,29.2723,日喀则市,日喀则监测站,,,8,61,3,20,,,65,65,2,30,7,13,0.4,1.1
2026-01-07T1700,3726A,88.8775,29.2425,日喀则市,林业技术推广中心,,29,9,27,3,14,91,,75,75,2,6,10,11,0.2,0.4
2026-01-07T1700,1659A,119.4711,35.421,日照市,监测站,,41,41,130,13,97,70,,70,70,20,52,7,11,0.5,1
2026-01-07T1700,1660A,119.523,35.4216,日照市,市政府广场,,34,34,118,13,87,72,,68,68,21,40,9,12,0.3,0.7
2026-01-07T1700,1661A,119.5511,35.4113,日照市,港务局,,39,39,124,21,98,75,,68,68,17,42,7,11,0.4,0.9
2026-01-07T1700,3507A,119.5326,35.4627,日照市,职业技术学院,,41,41,132,9,83,76,,72,72,16,45,8,10,0.5,1.1
2026-01-07T1700,3604A,119.3267,35.1043,日照市,岚山环保分局,颗粒物(PM10),71,92,139,44,94,45,,54,54,49,55,19,21,1.3,1.7
2026-01-07T1700,1835A,111.1922,34.7752,三门峡市,市政府,颗粒物(PM10),53,55,52,21,31,90,,21,,9,39,7,33,0.3,0.6
2026-01-07T1700,1836A,111.1588,34.794,三门峡市,开发区,,42,42,48,16,28,85,,62,62,8,31,5,6,0.3,0.5
2026-01-07T1700,3039A,111.1911,34.7829,三门峡市,三门峡市第一小学,,,69,52,15,28,83,,68,68,11,37,6,10,,0.7
2026-01-07T1700,3598A,111.1031,34.719,三门峡市,富达温泉假日酒店,,50,50,58,20,29,83,,68,68,15,32,5,9,0.4,0.7
2026-01-07T1700,2324A,117.621,26.2626,三明市,三钢,,40,34,39,28,33,100,,86,86,8,25,5,8,0.4,1.5
2026-01-07T1700,2325A,117.6352,26.2714,三明市,三明二中,,30,28,43,17,36,93,,72,72,10,24,4,8,0.6,1.5
2026-01-07T1700,2326A,117.6028,26.2377,三明市,三元区政府,,40,33,36,28,28,97,,72,72,12,20,4,6,0.7,0.8
2026-01-07T1700,1877A,109.4962,18.2682,三亚市,河西子站,,44,44,41,24,27,123,,105,105,7,8,5,5,0.7,0.7
2026-01-07T1700,3540A,109.7348,18.3443,三亚市,君悦子站,颗粒物(PM10),59,67,45,26,30,102,,92,92,8,10,6,6,0.6,0.7
2026-01-07T1700,4135A,109.1714,18.3739,三亚市,城东小学站,,45,39,36,31,29,108,,92,92,8,9,/,/,/,/
2026-01-07T1700,2624A,91.7592,29.234,山南市,山南监测站,,30,18,28,15,16,96,,70,70,4,7,5,5,0.3,0.3
2026-01-07T1700,2625A,91.7701,29.2436,山南市,山南人民医院,,29,13,27,3,8,90,,70,70,2,7,8,6,0.3,0.3
2026-01-07T1700,1674A,116.6795,23.3666,汕头市,金平子站,,36,32,35,25,37,112,,95,95,13,15,6,7,0.7,0.7
2026-01-07T1700,1675A,116.7248,23.3632,汕头市,龙湖子站,,35,35,30,23,19,109,,92,92,10,12,11,10,/,/
2026-01-07T1700,1676A,116.7257,23.2774,汕头市,濠江子站,,45,38,33,31,23,109,,90,90,14,15,9,23,/,/
2026-01-07T1700,1677A,116.7518,23.4712,汕头市,澄海子站,,,50,33,25,23,109,,93,93,13,13,,6,0.4,0.3
2026-01-07T1700,1678A,116.6088,23.2539,汕头市,潮阳子站,,44,44,31,24,18,114,,98,98,12,12,7,8,0.4,0.5
2026-01-07T1700,3444A,116.4539,23.2684,汕头市,潮南峡山,,40,40,38,25,26,121,,106,106,13,11,11,9,0.6,0.6
2026-01-07T1700,3624A,116.4069,23.2533,汕头市,潮南子站,颗粒物(PM10),52,53,44,28,30,106,,96,96,24,16,8,7,/,/
2026-01-07T1700,1693A,115.3653,22.7751,汕尾市,市环保局,,33,30,27,21,25,103,,90,90,8,8,8,7,0.4,0.4
2026-01-07T1700,1695A,115.362,22.7926,汕尾市,新城中学,,32,28,26,22,23,101,,93,93,9,7,6,5,0.5,0.5
2026-01-07T1700,2645A,109.9155,33.8714,商洛市,监测站,,30,22,25,10,15,95,,80,80,9,23,4,5,0.1,0.3
2026-01-07T1700,3045A,109.9647,33.8486,商洛市,商州区中学,,40,40,37,3,16,99,,83,83,8,33,5,6,0.3,0.6
2026-01-07T1700,2408A,115.6701,34.4283,商丘市,环境监测站,,46,46,54,29,35,79,,65,65,19,25,4,4,0.1,0.2
2026-01-07T1700,2409A,115.6458,34.4047,商丘市,粮食局,颗粒物(PM10),55,60,60,28,33,77,,64,64,21,22,6,6,0.1,0.4
2026-01-07T1700,3171A,115.6069,34.4465,商丘市,梁园区档案局,,44,44,53,24,32,72,,58,58,16,27,7,6,0.3,0.4
2026-01-07T1700,4119A,115.6701,34.3767,商丘市,北海东路185号,颗粒物(PM10),51,52,53,34,30,77,,64,64,20,26,4,3,0.4,0.4
2026-01-07T1700,4120A,115.6172,34.3704,商丘市,中山大街3号,,,,66,29,38,78,,64,64,14,38,6,4,,0.2
2026-01-07T1700,1141A,121.401,31.2382,上海市,普陀,细颗粒物(PM2.5),69,61,77,50,70,70,,65,65,46,43,8,7,0.6,0.8
2026-01-07T1700,1142A,121.4774,31.2043,上海市,十五厂,细颗粒物(PM2.5),68,59,75,49,65,72,,67,67,43,39,8,8,0.8,0.9
2026-01-07T1700,1143A,121.4673,31.3011,上海市,虹口,细颗粒物(PM2.5),62,59,79,44,66,66,,62,62,39,38,9,8,0.5,0.7
2026-01-07T1700,1147A,121.4253,31.226,上海市,静安监测站,细颗粒物(PM2.5),65,62,76,47,66,74,,68,68,42,42,8,8,0.5,0.6
2026-01-07T1700,1148A,121.7029,31.1905,上海市,浦东川沙,细颗粒物(PM2.5),70,70,82,51,66,74,,70,70,38,36,8,8,0.7,0.8
2026-01-07T1700,1149A,121.5339,31.229,上海市,浦东新区监测站,细颗粒物(PM2.5),55,58,76,39,68,78,,68,68,40,41,8,8,0.7,0.9
2026-01-07T1700,1150A,121.5776,31.2038,上海市,浦东张江,,,64,78,3,61,82,,74,74,,33,,8,0.6,0.8
2026-01-07T1700,3265A,121.4242,31.3303,上海市,宝山庙行,细颗粒物(PM2.5),59,61,80,42,68,72,,66,66,38,43,8,7,0.6,0.7
2026-01-07T1700,3266A,121.8789,31.4662,上海市,崇明上实东滩,细颗粒物(PM2.5),77,83,91,56,71,89,,70,70,24,30,9,7,0.5,0.7
2026-01-07T1700,3268A,121.316,31.2839,上海市,嘉定南翔,细颗粒物(PM2.5),62,55,72,44,63,72,,65,65,34,41,6,5,0.6,0.7
2026-01-07T1700,3269A,121.3357,30.7455,上海市,金山新城,,45,32,63,31,70,87,,76,76,24,31,9,9,0.9,1.1
2026-01-07T1700,3270A,121.4996,31.0741,上海市,闵行浦江,细颗粒物(PM2.5),64,57,77,46,66,65,,62,62,48,43,9,8,0.5,0.5
2026-01-07T1700,3271A,121.2886,31.1663,上海市,青浦徐泾,细颗粒物(PM2.5),63,61,75,45,65,63,,64,64,43,39,7,6,0.8,0.8
2026-01-07T1700,3272A,121.2193,31.0382,上海市,松江图书馆,,40,40,74,8,47,90,,78,78,22,31,8,7,0.4,0.6
2026-01-07T1700,3273A,121.3904,31.206,上海市,长宁仙霞,细颗粒物(PM2.5),60,56,74,43,63,67,,62,62,46,48,9,8,0.6,0.7
2026-01-07T1700,3274A,121.7964,31.0507,上海市,浦东惠南,细颗粒物(PM2.5),78,67,78,57,68,76,,67,67,41,41,7,5,1.0,0.8
2026-01-07T1700,3544A,121.4891,30.925,上海市,奉贤南桥新城,细颗粒物(PM2.5),58,46,78,41,70,90,,77,77,27,32,10,9,0.8,0.9
2026-01-07T1700,4183A,121.417401,31.16637,上海市,冠生园路458号,细颗粒物(PM2.5),68,57,77,49,67,74,,64,64,46,48,7,6,0.5,0.6
2026-01-07T1700,4205A,121.541914,31.268301,上海市,宁武路151号,细颗粒物(PM2.5),64,58,75,46,65,76,,68,68,36,38,8,7,0.6,0.8
2026-01-07T1700,2382A,117.9758,28.4439,上饶市,市监测站,,39,39,48,23,34,96,,88,88,18,29,14,16,/,/
2026-01-07T1700,2383A,117.9521,28.4637,上饶市,凤凰光学,,40,40,52,25,30,90,,79,79,17,27,16,15,0.8,0.7
2026-01-07T1700,3685A,117.897,28.4316,上饶市,双创科技城,,39,39,56,26,42,92,,80,80,22,38,14,18,0.7,0.8
2026-01-07T1700,4211A,118.190438,28.444845,上饶市,裕丰大道,,40,40,59,23,40,101,,88,88,18,25,18,20,0.6,0.7
2026-01-07T1700,1669A,113.5821,24.7733,韶关市,市八中,,30,25,34,20,28,93,,78,78,11,21,8,9,0.5,0.6
2026-01-07T1700,1671A,113.5916,24.7973,韶关市,园林处,,32,,29,20,29,101,,85,85,12,22,12,12,/,/
2026-01-07T1700,1673A,113.5971,24.6864,韶关市,曲江监测站,,32,26,42,22,31,92,,76,76,11,21,10,17,0.3,0.5
2026-01-07T1700,2809A,113.6668,24.7756,韶关市,大学路288号,,39,39,23,21,20,101,,79,79,11,15,7,5,/,/
2026-01-07T1700,3622A,113.5556,24.8082,韶关市,碧湖山庄,,32,27,39,22,29,97,,78,78,13,16,8,7,0.4,0.5
2026-01-07T1700,2464A,111.5277,27.2442,邵阳市,市化工厂,,49,34,75,34,57,101,,66,66,16,32,12,10,0.9,1.1
2026-01-07T1700,2466A,111.4327,27.2276,邵阳市,市环保局,,50,50,61,34,55,97,,75,75,15,24,6,8,0.8,1
2026-01-07T1700,4218A,111.446,27.2472,邵阳市,北塔二期4-26地块,细颗粒物(PM2.5),63,63,62,45,57,90,,67,67,24,25,6,5,0.8,1
2026-01-07T1700,4219A,111.4739,27.2282,邵阳市,邵水西路287号,,,,104,42,62,102,,76,76,,32,,14,0.5,0.8
2026-01-07T1700,1247A,120.6053,29.9927,绍兴市,城东开发委,,40,38,53,28,42,80,,76,76,25,28,8,8,0.5,0.6
2026-01-07T1700,2921A,120.5482,30.0003,绍兴市,树下王站,,35,34,56,24,41,81,,72,72,22,32,7,7,0.6,0.7
2026-01-07T1700,3408A,120.5685,29.936,绍兴市,绍兴中专,,44,44,53,28,37,81,,78,78,22,26,8,7,0.5,0.7
2026-01-07T1700,3409A,120.4905,30.086,绍兴市,柯桥区政府,,32,31,52,22,38,89,,76,76,23,29,5,5,0.3,0.5
2026-01-07T1700,3410A,120.8751,30.0249,绍兴市,重华小学,,48,40,60,33,49,76,,72,72,36,30,8,6,0.7,0.7
2026-01-07T1700,3411A,120.837,30.0137,绍兴市,上虞中学,,45,37,60,31,51,76,,72,72,32,37,8,8,0.5,0.7
2026-01-07T1700,3560A,120.4715,30.0414,绍兴市,柯桥妇保,,35,32,44,24,35,82,,76,76,25,24,6,5,0.6,0.7
2026-01-07T1700,3658A,120.6156,30.0762,绍兴市,袍江中学,,49,48,62,34,52,76,,72,72,34,32,7,6,0.3,0.8
2026-01-07T1700,1356A,114.0948,22.5506,深圳市,通心岭子站,,49,47,45,34,30,121,,103,103,18,16,8,8,0.4,0.5
2026-01-07T1700,1357A,114.1153,22.5713,深圳市,洪湖,颗粒物(PM10),51,52,46,35,29,119,,104,104,24,20,9,9,0.6,0.7
2026-01-07T1700,1358A,113.9823,22.5398,深圳市,华侨城,颗粒物(PM10),51,51,42,32,29,116,,101,101,19,18,/,/,/,/
2026-01-07T1700,1359A,113.9181,22.517,深圳市,南海子站,细颗粒物(PM2.5),59,63,49,42,28,118,,98,98,20,17,6,6,0.6,0.6
2026-01-07T1700,1360A,114.2345,22.565,深圳市,盐田,,49,46,42,34,26,110,,100,100,12,11,8,8,0.5,0.6
2026-01-07T1700,1363A,114.4911,22.5381,深圳市,南澳,,42,42,38,29,24,118,,107,107,12,10,/,/,/,/
2026-01-07T1700,1364A,114.41,22.6346,深圳市,葵涌,,39,39,33,25,23,105,,96,96,15,11,8,8,0.6,0.6
2026-01-07T1700,1365A,114.2967,22.5978,深圳市,梅沙,,46,46,40,25,27,115,,103,103,17,13,/,/,/,/
2026-01-07T1700,1366A,114.0563,22.7353,深圳市,观澜,颗粒物(PM10),55,60,57,33,33,110,,101,101,25,21,7,8,0.4,0.5
2026-01-07T1700,3305A,114.0614,22.556,深圳市,莲花,颗粒物(PM10),52,54,41,31,28,109,,98,98,22,18,/,/,/,/
2026-01-07T1700,3306A,114.0144,22.6163,深圳市,民治,颗粒物(PM10),55,59,43,38,27,117,,101,101,18,17,/,/,/,/
2026-01-07T1700,3307A,114.1756,22.6421,深圳市,横岗,,44,44,42,29,29,120,,105,105,18,16,/,/,/,/
2026-01-07T1700,3447A,114.344,22.7115,深圳市,坪山,,44,44,48,26,29,109,,97,97,17,18,9,9,0.6,0.6
2026-01-07T1700,3623A,113.8952,22.586,深圳市,西乡,颗粒物(PM10),52,53,44,31,27,125,,107,107,20,18,6,7,0.6,0.6
2026-01-07T1700,4220A,114.214113,22.713717,深圳市,黄阁路,,,45,38,29,29,121,,102,102,13,11,8,7,,0.5
2026-01-07T1700,1099A,123.5058,41.7084,沈阳市,浑南东路,,33,33,51,14,26,52,,62,58,18,21,9,10,0.4,0.4
2026-01-07T1700,1100A,123.4238,41.6992,沈阳市,新秀街,颗粒物(PM10),51,51,60,12,23,61,,68,66,12,17,5,10,0.5,0.6
2026-01-07T1700,1102A,123.5903,41.8412,沈阳市,东陵路,,23,23,57,16,21,48,,59,59,20,18,7,7,0.4,0.4
2026-01-07T1700,1103A,123.4267,41.8466,沈阳市,陵东街,,36,36,57,11,19,54,,62,62,12,12,10,10,0.4,0.4
2026-01-07T1700,1104A,123.4116,41.7654,沈阳市,文化路,,36,36,43,16,19,53,,60,59,18,23,12,14,0.5,0.6
2026-01-07T1700,1105A,123.4673,41.787,沈阳市,小河沿,,36,36,51,11,20,53,,58,57,14,19,8,10,0.6,0.6
2026-01-07T1700,1106A,123.4019,41.7978,沈阳市,太原街,,47,47,44,22,16,40,,56,55,30,26,10,11,0.4,0.3
2026-01-07T1700,1108A,123.3778,41.9233,沈阳市,京沈街,,32,32,59,15,17,55,,65,64,16,16,2,3,0.3,0.4
2026-01-07T1700,2897A,123.2429,41.7341,沈阳市,沈辽西路,颗粒物(PM10),55,60,49,16,19,50,,65,64,22,19,7,8,0.5,0.5
2026-01-07T1700,2900A,123.5951,41.9085,沈阳市,裕农路,,39,39,51,9,12,57,,66,66,16,18,4,6,0.4,0.4
2026-01-07T1700,2429A,110.78,32.6494,十堰市,滨河新村,,29,27,35,7,21,92,,76,76,11,28,/,/,0.5,0.7
2026-01-07T1700,2430A,110.7305,32.6408,十堰市,刘家沟,,29,27,28,12,20,92,,77,77,10,13,/,/,/,/
2026-01-07T1700,2431A,110.8843,32.5712,十堰市,铁二处,,38,38,51,12,40,71,,59,59,27,34,8,7,0.7,0.9
2026-01-07T1700,3545A,110.8053,32.8401,十堰市,郧阳区金沙路,,28,,22,13,18,89,,76,76,7,11,6,5,0.5,0.5
2026-01-07T1700,2709A,86.0391,44.298,石河子市,艾青诗歌馆,细颗粒物(PM2.5),158,151,190,120,153,48,,51,51,34,31,7,7,1.3,1.4
