timepoint,stationcode,longitude,latitude,area,positionname,primarypollutant,aqi,pm10,pm10_24h,pm2_5,pm2_5_24h,o3,o3_24h,o3_8h,o3_8h_24h,no2,no2_24h,so2,so2_24h,co,co_24h
2026-01-07T2000,2568A,102.2503,31.8896,阿坝藏族羌族自治州,马师校,,38,31,19,26,15,50,,75,74,22,17,5,4,0.5,0.6
2026-01-07T2000,3994A,102.2174,31.9016,阿坝藏族羌族自治州,马尔康中学西区,,25,,11,17,10,78,,78,78,6,11,5,5,0.5,0.6
2026-01-07T2000,2695A,80.2899,41.1684,阿克苏地区,电视台,颗粒物(PM10),87,123,68,56,42,45,,48,48,39,35,4,4,0.7,0.9
2026-01-07T2000,2696A,80.2592,41.1541,阿克苏地区,艺术中心,颗粒物(PM10),76,101,60,55,47,38,,54,54,36,26,4,4,0.7,0.8
2026-01-07T2000,2205A,105.699,38.8409,阿拉善盟,蒙二幼,颗粒物(PM10),53,56,73,17,19,52,,76,73,25,12,9,10,0.7,0.6
2026-01-07T2000,2206A,105.7198,38.8508,阿拉善盟,环保局新楼,,39,39,63,12,18,77,,74,74,7,7,9,9,0.6,0.6
2026-01-07T2000,2708A,88.1266,47.8515,阿勒泰地区,市站,,23,14,18,3,7,73,,68,68,17,27,6,5,0.2,0.4
2026-01-07T2000,4166A,88.1198,47.7931,阿勒泰地区,阿勒泰路33号,,24,14,18,3,5,74,,75,75,15,22,4,8,0.4,0.4
2026-01-07T2000,2630A,80.1171,32.4999,阿里地区,阿里监测站,,17,6,3,3,3,53,,76,68,2,8,9,11,0.4,0.5
2026-01-07T2000,3192A,80.0906,32.5029,阿里地区,阿里藏医院,,26,10,11,3,8,83,,79,79,1,6,9,11,0.4,0.6
2026-01-07T2000,2644A,109.0088,32.6974,安康市,汉滨区检察院,细颗粒物(PM2.5),65,70,52,47,32,19,,53,51,43,23,5,5,0.7,0.6
2026-01-07T2000,4054A,109.0324,32.6913,安康市,市邮政管理局,细颗粒物(PM2.5),87,81,55,64,39,13,,43,39,54,27,6,7,1.3,0.7
2026-01-07T2000,2291A,117.0806,30.5181,安庆市,环科院,细颗粒物(PM2.5),67,66,64,48,46,13,,81,73,85,33,7,6,0.6,0.4
2026-01-07T2000,2292A,117.0331,30.5118,安庆市,马山宾馆,细颗粒物(PM2.5),79,70,62,58,47,15,,79,74,86,33,6,6,0.8,0.5
2026-01-07T2000,2294A,116.9897,30.6146,安庆市,安庆大学,"颗粒物(PM10),细颗粒物(PM2.5)",54,58,64,38,47,44,,80,75,38,26,5,4,0.5,0.6
2026-01-07T2000,3173A,117.0598,30.5351,安庆市,市人大,细颗粒物(PM2.5),74,71,62,54,47,24,,86,81,72,34,7,7,0.8,0.5
2026-01-07T2000,3123A,105.9408,26.2431,安顺市,凤凰山,细颗粒物(PM2.5),64,52,42,46,40,67,,73,72,19,16,19,18,0.5,0.8
2026-01-07T2000,3124A,105.9443,26.2567,安顺市,金钟山,细颗粒物(PM2.5),63,50,41,45,37,71,,74,74,14,12,19,20,0.8,0.8
2026-01-07T2000,3125A,105.8983,26.248,安顺市,娄家坡,细颗粒物(PM2.5),75,60,48,55,43,66,,74,73,18,17,22,28,0.7,0.8
2026-01-07T2000,1819A,114.3552,36.1017,安阳市,红庙街,颗粒物(PM10),58,66,47,33,24,50,,63,63,27,26,4,7,0.6,0.7
2026-01-07T2000,1820A,114.361,36.0681,安阳市,银杏小区,颗粒物(PM10),56,61,48,36,24,52,,67,64,27,27,6,6,0.5,0.5
2026-01-07T2000,3141A,114.3921,36.0879,安阳市,信访局,颗粒物(PM10),59,67,48,35,27,43,,64,60,31,26,7,6,0.7,0.7
2026-01-07T2000,3669A,114.4706,36.0634,安阳市,左辅环卫站,颗粒物(PM10),69,87,59,45,22,49,,70,66,24,22,7,7,0.7,0.6
2026-01-07T2000,4117A,114.2918,36.0769,安阳市,钢三路198号,颗粒物(PM10),58,66,55,29,27,55,,61,61,24,26,5,5,0.6,0.6
2026-01-07T2000,1748A,123.0441,41.1201,鞍山市,深沟寺,,44,44,38,17,14,47,,62,57,18,13,10,8,0.8,0.8
2026-01-07T2000,1749A,123.011,41.0931,鞍山市,太阳城,,50,50,45,15,16,56,,63,59,15,22,15,28,0.6,1.8
2026-01-07T2000,1750A,123.0483,41.1445,鞍山市,太平,颗粒物(PM10),56,61,43,19,14,44,,58,53,23,17,14,12,0.8,0.7
2026-01-07T2000,1751A,122.964,41.0968,鞍山市,铁西三道街,颗粒物(PM10),53,56,38,17,12,44,,64,58,28,18,29,13,2.0,0.9
2026-01-07T2000,1753A,123.0219,41.0822,鞍山市,明达新区,,45,45,39,16,14,53,,59,55,15,18,15,24,0.5,1.3
2026-01-07T2000,4201A,122.944647,41.082639,鞍山市,兴盛南路290号,,49,49,52,15,20,52,,59,53,26,35,11,13,0.6,0.7
2026-01-07T2000,2195A,107.4206,40.7609,巴彦淖尔市,附二中,颗粒物(PM10),54,58,78,27,32,53,,62,62,18,10,3,4,0.4,0.4
2026-01-07T2000,2196A,107.37,40.7372,巴彦淖尔市,市环保大楼,颗粒物(PM10),52,53,76,34,26,49,,70,67,22,10,4,4,0.5,0.4
2026-01-07T2000,1956A,86.1476,41.7529,巴音郭楞蒙古自治州,孔雀公园,颗粒物(PM10),64,77,55,34,34,43,,48,48,24,24,6,7,0.5,0.6
2026-01-07T2000,1957A,86.1971,41.7166,巴音郭楞蒙古自治州,棉纺厂,颗粒物(PM10),59,68,63,25,21,48,,53,53,20,17,/,/,/,/
2026-01-07T2000,1958A,86.236,41.7172,巴音郭楞蒙古自治州,经济开发区,颗粒物(PM10),52,53,49,26,21,40,,48,48,26,19,5,5,0.5,0.5
2026-01-07T2000,3181A,106.776805,31.852614,巴中市,市五中,细颗粒物(PM2.5),73,76,57,53,42,31,,64,64,35,25,5,5,0.9,0.9
2026-01-07T2000,3183A,106.7419,31.8654,巴中市,圣泉水务公司,细颗粒物(PM2.5),95,89,49,71,37,3,,73,68,67,29,4,4,0.9,0.5
2026-01-07T2000,3616A,106.7617,31.8343,巴中市,市中心医院,细颗粒物(PM2.5),83,92,63,61,47,18,,63,60,52,33,6,6,1.0,0.8
2026-01-07T2000,2235A,122.7909,45.608,白城市,洮北区环保局,,47,47,40,29,18,35,,56,51,28,9,5,6,0.3,0.2
2026-01-07T2000,2236A,122.8741,45.5725,白城市,市环保局,,35,31,27,24,19,37,,57,52,20,9,6,6,0.3,0.3
2026-01-07T2000,2231A,126.4219,41.9172,白山市,喜丰,,29,29,59,18,17,59,,65,59,8,13,10,11,0.4,0.7
2026-01-07T2000,2232A,126.4082,41.9416,白山市,环保局,,35,30,41,24,23,42,,63,59,25,16,12,11,1.0,0.9
2026-01-07T2000,2647A,104.1727,36.5448,白银市,第三小学,颗粒物(PM10),58,65,46,28,37,41,,71,69,49,30,20,23,0.8,0.9
2026-01-07T2000,2648A,104.1467,36.5482,白银市,动力公司,"颗粒物(PM10),细颗粒物(PM2.5)",52,53,46,36,34,50,,78,77,46,26,17,17,0.8,0.9
2026-01-07T2000,2512A,106.6102,23.901,百色市,市监测站,,50,49,34,35,26,40,,65,62,19,18,7,7,0.8,0.7
2026-01-07T2000,2513A,106.6524,23.8842,百色市,市中心血站,细颗粒物(PM2.5),74,75,42,54,34,17,,73,69,57,28,10,8,1.1,0.8
2026-01-07T2000,4133A,106.6273,23.8798,百色市,龙景西路,细颗粒物(PM2.5),65,72,41,47,29,26,,72,70,37,18,7,7,0.8,0.6
2026-01-07T2000,2270A,117.396,32.9389,蚌埠市,工人疗养院,细颗粒物(PM2.5),77,98,67,56,36,34,,56,54,48,29,7,6,0.7,0.5
2026-01-07T2000,2271A,117.3606,32.9428,蚌埠市,百货大楼,细颗粒物(PM2.5),84,90,59,62,36,29,,57,52,50,26,8,7,0.7,0.5
2026-01-07T2000,2273A,117.4183,32.8909,蚌埠市,蚌埠学院,细颗粒物(PM2.5),74,83,65,54,38,25,,65,60,54,32,6,5,0.5,0.4
2026-01-07T2000,2274A,117.3534,32.9672,蚌埠市,淮上区政府,细颗粒物(PM2.5),95,119,65,71,39,8,,61,51,78,30,5,3,0.7,0.5
2026-01-07T2000,2275A,117.3143,32.8977,蚌埠市,高新区,细颗粒物(PM2.5),92,107,64,68,41,18,,55,49,59,35,8,7,0.5,0.5
2026-01-07T2000,3715A,117.3091,32.9314,蚌埠市,蚌埠田家炳中学,"颗粒物(PM10),细颗粒物(PM2.5)",70,90,72,51,43,53,,60,60,32,35,7,7,0.5,0.4
2026-01-07T2000,1585A,109.8761,40.6533,包头市,市环境监测站,颗粒物(PM10),58,65,83,21,43,52,,47,47,28,33,4,15,0.5,1.1
2026-01-07T2000,1587A,109.9992,40.5843,包头市,包头八中,颗粒物(PM10),69,87,83,38,46,44,,48,48,35,46,1,5,0.4,0.8
2026-01-07T2000,1589A,109.8641,40.6288,包头市,惠龙物流,颗粒物(PM10),55,59,84,22,46,59,,50,50,22,35,7,21,0.3,1.2
2026-01-07T2000,1590A,110.0376,40.5546,包头市,东河鸿龙湾,颗粒物(PM10),71,91,73,39,34,31,,50,49,54,53,8,10,0.9,0.9
2026-01-07T2000,3283A,109.9154,40.5684,包头市,滨河大厦,颗粒物(PM10),56,62,72,18,38,51,,47,47,21,33,7,10,0.6,0.9
2026-01-07T2000,3419A,109.9449,40.6259,包头市,包头市委党校,颗粒物(PM10),62,73,78,20,43,37,,46,46,40,44,8,13,0.5,1
2026-01-07T2000,3683A,109.8332,40.6577,包头市,昆区政府,颗粒物(PM10),58,65,82,37,49,50,,48,48,35,34,7,17,0.7,1.3
2026-01-07T2000,1931A,107.0802,34.3129,宝鸡市,竹园沟,,50,43,30,35,23,41,,71,66,24,19,5,5,0.4,0.4
2026-01-07T2000,1933A,107.1429,34.3549,宝鸡市,监测站,细颗粒物(PM2.5),70,62,45,51,32,31,,61,60,44,34,5,5,0.5,0.5
2026-01-07T2000,1934A,107.1172,34.3759,宝鸡市,技工学校,颗粒物(PM10),66,81,55,40,33,36,,64,63,37,21,8,7,0.6,0.6
2026-01-07T2000,1936A,107.2025,34.3518,宝鸡市,文理学院,,50,50,44,31,31,26,,70,67,49,33,4,5,0.5,0.5
2026-01-07T2000,1937A,107.2396,34.3626,宝鸡市,三迪小学,细颗粒物(PM2.5),63,62,50,45,38,18,,68,66,69,35,4,4,0.7,0.6
2026-01-07T2000,4155A,107.1721,34.3558,宝鸡市,滨河北路,颗粒物(PM10),62,73,47,42,30,29,,66,64,56,31,5,5,0.8,0.8
2026-01-07T2000,4308A,107.3898,34.3601,宝鸡市,陈仓区北开路21号,,,,67,,52,,,62,,,32,,66,,0.9
2026-01-07T2000,1051A,115.4803,38.8568,保定市,游泳馆,颗粒物(PM10),53,56,60,28,31,26,,56,52,57,48,4,5,0.6,0.6
2026-01-07T2000,1052A,115.509,38.8895,保定市,华电二区,,,51,53,15,36,35,,62,59,,18,,3,1.2,0.9
2026-01-07T2000,1053A,115.4588,38.9037,保定市,接待中心,颗粒物(PM10),53,55,56,25,30,34,,55,53,33,30,2,2,0.4,0.4
2026-01-07T2000,1054A,115.4484,38.8344,保定市,地表水厂,颗粒物(PM10),59,68,77,28,38,33,,55,52,48,49,2,4,0.3,0.4
2026-01-07T2000,3581A,115.3136,38.9511,保定市,满城区生态环境分局,颗粒物(PM10),69,88,58,48,22,20,,62,51,64,40,6,4,0.8,0.5
2026-01-07T2000,3582A,115.4709,38.7628,保定市,清苑区第二中学,颗粒物(PM10),63,76,79,31,33,25,,56,48,45,42,4,6,0.4,0.4
2026-01-07T2000,3583A,115.6231,39.0223,保定市,徐水物探局,颗粒物(PM10),62,74,83,40,45,31,,53,48,45,50,8,8,0.5,0.6
2026-01-07T2000,4004A,115.4199,38.8665,保定市,双鹰农机,颗粒物(PM10),62,73,81,26,37,38,,61,57,43,37,6,7,0.4,0.5
2026-01-07T2000,4034A,115.515,38.8589,保定市,植保所站,颗粒物(PM10),64,77,64,43,44,16,,52,47,66,48,3,3,0.6,0.6
2026-01-07T2000,2594A,99.1589,25.1137,保山市,市环境监测站,,39,39,28,18,22,62,,88,84,9,10,3,4,0.4,0.5
2026-01-07T2000,2595A,99.1616,25.1381,保山市,市环保局,,,,30,,19,,,89,89,3,6,3,4,0.4,0.4
2026-01-07T2000,1867A,109.1435,21.4085,北海市,海滩公园,,39,30,42,27,27,107,,114,114,16,15,10,9,0.3,0.3
2026-01-07T2000,1868A,109.0983,21.466,北海市,新市环保局,细颗粒物(PM2.5),52,45,38,36,34,109,,110,110,16,13,4,5,0.6,0.7
2026-01-07T2000,1869A,109.1775,21.5232,北海市,北海工业园,细颗粒物(PM2.5),59,42,42,42,32,98,,103,103,16,13,11,8,0.7,0.6
2026-01-07T2000,3400A,109.1844,21.4396,北海市,龙潭自来水厂,,42,38,40,29,34,92,,105,105,15,14,9,8,0.5,0.5
2026-01-07T2000,1001A,116.3611,39.8786,北京市,万寿西宫,,49,49,22,29,10,29,,62,56,47,17,2,2,0.3,0.3
2026-01-07T2000,1003A,116.4174,39.9289,北京市,东四,,49,49,25,23,9,35,,58,54,29,14,5,4,0.4,0.2
2026-01-07T2000,1004A,116.4073,39.8858,北京市,天坛,,36,36,22,19,9,38,,63,58,22,13,2,2,0.3,0.3
2026-01-07T2000,1005A,116.4622,39.9364,北京市,农展馆,,41,41,21,22,8,38,,62,59,30,13,5,4,0.7,0.4
2026-01-07T2000,1006A,116.3399,39.9293,北京市,官园,,45,45,26,29,13,29,,60,55,41,15,4,4,0.5,0.4
2026-01-07T2000,1007A,116.2879,39.9613,北京市,海淀万柳,颗粒物(PM10),53,56,26,26,10,12,,56,47,60,25,3,3,0.7,0.4
2026-01-07T2000,1008A,116.6635,40.1349,北京市,顺义新城,,24,24,16,11,6,51,,65,63,18,9,3,3,0.4,0.3
2026-01-07T2000,1009A,116.6275,40.327,北京市,怀柔镇,,23,23,15,14,7,50,,54,54,15,14,6,6,0.5,0.4
2026-01-07T2000,1010A,116.2295,40.217,北京市,昌平镇,,40,40,25,20,10,54,,62,60,11,11,5,5,0.5,0.4
2026-01-07T2000,1011A,116.3968,39.982,北京市,奥体中心,,44,44,22,20,8,42,,63,61,30,20,4,4,0.6,0.4
2026-01-07T2000,3418A,116.8336,40.4095,北京市,密云新城,,24,24,11,11,5,48,,65,63,11,5,3,3,0.4,0.3
2026-01-07T2000,3671A,116.0879,39.9725,北京市,门头沟三家店,,50,50,22,24,8,13,,73,60,43,5,3,3,0.6,0.4
2026-01-07T2000,3672A,116.1507,39.8246,北京市,丰台云岗,颗粒物(PM10),54,57,24,27,12,21,,62,49,49,18,3,2,0.5,0.5
2026-01-07T2000,3674A,115.9578,39.7602,北京市,房山燕山,,42,42,24,23,11,34,,65,46,25,15,6,4,0.4,0.3
2026-01-07T2000,3675A,116.4669,39.7734,北京市,大兴旧宫,,39,39,16,15,6,21,,58,55,34,19,2,2,0.4,0.4
2026-01-07T2000,3694A,115.9859,40.4562,北京市,延庆石河营,颗粒物(PM10),60,70,25,42,11,6,,52,45,55,25,3,3,0.9,0.4
2026-01-07T2000,3695A,116.6151,40.3052,北京市,怀柔新城,,22,22,14,14,7,52,,56,54,11,10,4,4,0.3,0.2
2026-01-07T2000,3696A,116.2542,39.8764,北京市,丰台小屯,颗粒物(PM10),53,55,24,25,8,16,,55,45,53,19,4,4,0.4,0.3
2026-01-07T2000,3697A,116.8399,40.3843,北京市,密云镇,颗粒物(PM10),60,69,21,28,8,7,,62,52,58,29,2,2,0.7,0.4
2026-01-07T2000,4057A,115.9423,40.4431,北京市,延庆百泉,,50,50,27,25,12,29,,50,48,21,12,2,2,0.5,0.3
2026-01-07T2000,4058A,116.6598,39.9164,北京市,通州新华,,46,46,26,16,7,2,,54,47,55,20,3,3,0.4,0.4
2026-01-07T2000,4182A,116.1942,39.9158,北京市,石景山八角,颗粒物(PM10),63,76,28,27,9,19,,54,49,49,18,1,2,0.3,0.2
2026-01-07T2000,4194A,117.078628,40.151726,北京市,平谷新城,,36,36,15,21,7,43,,59,58,20,13,1,1,0.4,0.3
2026-01-07T2000,1761A,123.8274146,41.31234549,本溪市,大峪,,50,50,40,20,11,25,,57,44,35,17,8,10,0.6,0.7
2026-01-07T2000,1763A,123.7169,41.3094,本溪市,彩屯,颗粒物(PM10),51,51,39,34,10,37,,67,56,32,15,9,8,0.9,0.7
2026-01-07T2000,1764A,123.7672166,41.28649327,本溪市,东明,,35,35,43,18,11,48,,64,57,17,10,9,9,0.6,0.6
2026-01-07T2000,1765A,123.799345,41.266614,本溪市,新立屯,,29,28,41,20,12,22,,61,48,36,13,10,11,0.9,0.7
2026-01-07T2000,1766A,123.829144,41.336777,本溪市,威宁,颗粒物(PM10),70,89,57,38,13,8,,60,45,60,18,7,8,1.0,0.8
2026-01-07T2000,2587A,105.287,27.3133,毕节市,八中,细颗粒物(PM2.5),58,50,45,41,36,65,,71,71,10,10,11,10,0.6,0.6
2026-01-07T2000,2588A,105.3079,27.2987,毕节市,师专,细颗粒物(PM2.5),62,50,42,44,35,70,,76,76,10,11,10,8,0.5,0.6
2026-01-07T2000,4263A,105.3688,27.3598,毕节市,工业大道,细颗粒物(PM2.5),55,50,46,39,38,68,,70,70,9,8,11,11,/,/
2026-01-07T2000,1629A,117.9961,37.3604,滨州市,第二水厂,,36,36,53,3,27,32,,59,53,42,33,12,15,0.4,0.5
2026-01-07T2000,1630A,117.9789,37.3931,滨州市,北中新校,,34,34,53,12,29,27,,65,56,50,40,6,9,0.5,0.6
2026-01-07T2000,3514A,117.9379,37.3959,滨州市,中海酒店,,31,31,56,14,35,37,,66,59,36,35,8,12,0.7,0.8
2026-01-07T2000,3515A,117.9381509,37.35547456,滨州市,开发区一中,,39,39,57,12,30,40,,65,60,31,30,10,14,0.5,0.6
2026-01-07T2000,3516A,118.0914,37.6938,滨州市,金海六路,,44,44,63,14,36,17,,73,61,58,45,11,10,0.8,0.8
2026-01-07T2000,4028A,117.9955,37.3752,滨州市,滨州市西街道办事处,,29,29,52,19,32,38,,66,59,33,30,9,12,0.3,0.4
2026-01-07T2000,2311A,115.8071,33.8399,亳州市,污水处理厂,,,73,52,,28,60,,72,70,,27,15,5,0.3,0.3
2026-01-07T2000,2312A,115.7789,33.8519,亳州市,三国揽胜宫,颗粒物(PM10),57,64,57,39,30,41,,64,62,37,21,5,4,0.6,0.4
2026-01-07T2000,3332A,115.7631,33.803,亳州市,亳州学院,颗粒物(PM10),58,65,50,31,25,37,,65,63,47,26,4,4,0.4,0.3
2026-01-07T2000,2693A,82.0482,44.8553,博尔塔拉蒙古自治州,市党校,,,,110,,53,,,46,46,48,27,3,3,1.1,1.1
2026-01-07T2000,2694A,82.0805,44.8966,博尔塔拉蒙古自治州,市环保局,细颗粒物(PM2.5),102,152,124,76,60,19,,34,34,65,41,12,8,1.3,1.4
2026-01-07T2000,1071A,116.8733,38.2922,沧州市,沧县城建局,,,84,66,39,46,,,67,65,74,39,7,3,0.6,0.5
2026-01-07T2000,1072A,116.8462,38.3189,沧州市,电视转播站,颗粒物(PM10),51,51,66,31,43,20,,65,56,56,40,2,4,0.7,0.6
2026-01-07T2000,1073A,116.8588,38.3161,沧州市,市环保局,颗粒物(PM10),55,59,66,35,48,29,,61,55,43,34,8,4,0.6,0.6
2026-01-07T2000,3324A,116.8011,38.294,沧州市,河北水利电力学院,颗粒物(PM10),56,61,57,33,36,6,,60,49,76,38,8,6,0.8,0.5
2026-01-07T2000,2622A,97.1813,31.1289,昌都市,昌都监测站,,44,44,42,28,18,43,,75,74,38,19,2,2,1.0,0.8
2026-01-07T2000,3719A,97.1707,31.1428,昌都市,昌都会议中心,,32,32,17,21,10,56,,72,72,18,4,3,2,0.8,0.5
2026-01-07T2000,2692A,87.2722,44.0298,昌吉回族自治州,新区政务中心,细颗粒物(PM2.5),203,217,222,153,161,19,,46,45,65,46,6,4,1.8,1.6
2026-01-07T2000,3613A,87.3069,44.0093,昌吉回族自治州,亚心广场,细颗粒物(PM2.5),201,207,227,151,170,24,,43,41,50,37,6,7,1.6,1.7
2026-01-07T2000,4164A,87.2057,43.9289,昌吉回族自治州,财政所,细颗粒物(PM2.5),186,201,189,140,137,24,,45,41,45,38,5,5,1.3,1.3
2026-01-07T2000,1120A,125.2874,43.9024,长春市,客车厂,细颗粒物(PM2.5),104,,38,78,23,18,,51,36,50,22,11,9,0.8,0.4
2026-01-07T2000,1121A,125.2943,43.8508,长春市,邮电学院,,50,45,36,35,20,27,,50,44,32,15,9,8,0.4,0.2
2026-01-07T2000,1122A,125.3648,43.8745,长春市,劳动公园,,50,41,32,35,15,36,,53,48,29,16,9,9,0.7,0.4
2026-01-07T2000,1123A,125.3233,43.8781,长春市,园林处,颗粒物(PM10),54,57,32,35,18,23,,49,45,37,15,12,10,0.6,0.3
2026-01-07T2000,1124A,125.4604,43.7904,长春市,净月潭,,29,29,35,16,14,32,,54,49,23,12,6,7,0.4,0.2
2026-01-07T2000,1126A,125.38,43.8422,长春市,经开区环卫处,,35,32,31,24,14,32,,50,42,29,20,11,11,0.4,0.3
2026-01-07T2000,1127A,125.234,43.7761,长春市,高新区管委会,细颗粒物(PM2.5),72,,34,52,18,13,,58,45,56,16,8,6,0.7,0.4
2026-01-07T2000,1128A,125.1695,43.83,长春市,岱山公园,细颗粒物(PM2.5),74,,36,54,19,13,,51,36,56,22,12,8,0.8,0.3
2026-01-07T2000,4281A,125.334645,43.916281,长春市,北亚泰大街1068号,细颗粒物(PM2.5),73,,32,53,19,14,,50,38,49,20,8,8,0.8,0.5
2026-01-07T2000,1335A,113.082,28.2421,长沙市,经开区环保局,细颗粒物(PM2.5),62,66,80,44,58,49,,80,78,55,47,5,5,0.6,0.7
2026-01-07T2000,1336A,112.8873,28.2202,长沙市,高开区环保局,,,49,83,34,65,,,83,83,20,46,5,5,0.4,1.2
2026-01-07T2000,1337A,113.0785,28.2012,长沙市,马坡岭,细颗粒物(PM2.5),79,84,88,58,65,14,,82,72,88,48,5,5,1.3,1
2026-01-07T2000,1338A,112.9448,28.1894,长沙市,湖南师范大学,,40,40,73,28,51,67,,85,85,36,50,6,6,0.5,0.7
2026-01-07T2000,1339A,113.0177,28.1322,长沙市,雨花区环保局,细颗粒物(PM2.5),62,61,83,44,59,60,,79,79,43,51,8,8,0.7,0.8
2026-01-07T2000,1340A,112.9795,28.2593,长沙市,伍家岭,细颗粒物(PM2.5),59,66,93,42,60,44,,77,77,61,47,6,5,0.5,0.7
2026-01-07T2000,1341A,113.002,28.1944,长沙市,火车新站,细颗粒物(PM2.5),62,55,99,44,71,74,,82,82,33,56,10,9,0.5,0.9
2026-01-07T2000,1342A,112.9846,28.1177,长沙市,天心区环保局,细颗粒物(PM2.5),55,47,81,39,58,76,,89,89,32,57,6,6,0.7,1
2026-01-07T2000,1343A,112.8906,28.1307,长沙市,湖南中医药大学,颗粒物(PM10),57,64,78,36,51,22,,77,73,77,48,6,6,0.7,0.8
2026-01-07T2000,1727A,113.1146,36.1547,长治市,清华站,,50,50,35,29,20,47,,75,72,37,25,12,12,0.5,0.5
2026-01-07T2000,1730A,113.0887,36.2126,长治市,审计局,,50,50,32,22,19,58,,71,70,22,24,10,9,0.6,0.5
2026-01-07T2000,1731A,113.0845,36.1856,长治市,长治八中,颗粒物(PM10),57,64,44,25,22,59,,74,73,11,18,11,11,0.5,0.7
2026-01-07T2000,2845A,113.1561,36.1912,长治市,德盛苑,,46,46,31,27,19,66,,75,75,19,16,10,9,0.6,0.5
2026-01-07T2000,3568A,113.0603,36.0464,长治市,向阳小学,,,,58,,25,66,,81,78,,23,11,10,,0.5
2026-01-07T2000,3569A,112.8788,36.315,长治市,屯留一中,颗粒物(PM10),58,66,37,38,19,57,,76,74,20,14,9,5,0.2,0.2
2026-01-07T2000,4189A,113.113092,36.199482,长治市,英华南巷50号,细颗粒物(PM2.5),58,53,38,41,29,63,,74,74,16,20,9,9,0.5,0.5
2026-01-07T2000,4190A,113.23666,36.33435,长治市,学府街1号,颗粒物(PM10),56,61,42,29,23,53,,70,69,27,25,17,15,0.9,0.6
2026-01-07T2000,1854A,111.696,28.9725,常德市,市二中,,40,40,52,27,44,57,,79,79,35,25,4,5,0.4,0.6
2026-01-07T2000,3138A,111.7152,29.0288,常德市,武陵区永安,,46,46,61,26,47,70,,83,83,19,21,4,5,0.5,0.7
2026-01-07T2000,3139A,111.6891,28.9881,常德市,鼎城区玉霞,,43,42,57,30,47,59,,82,82,27,28,8,8,0.7,0.8
2026-01-07T2000,3140A,111.6651,29.0526,常德市,武陵区长庚,,,42,60,26,49,66,,86,83,,26,4,4,0.7,0.8
2026-01-07T2000,1196A,119.9524,31.7586,常州市,市监测站,细颗粒物(PM2.5),67,60,52,48,43,26,,79,72,70,34,4,4,0.8,0.7
2026-01-07T2000,1200A,119.9351,31.703,常州市,武进监测站,细颗粒物(PM2.5),60,47,49,43,41,31,,79,74,60,28,7,7,0.5,0.5
2026-01-07T2000,3002A,119.9701,31.813,常州市,行政中心,细颗粒物(PM2.5),64,63,58,46,38,36,,74,71,54,29,6,6,0.7,0.6
2026-01-07T2000,3003A,120.0434,31.7726,常州市,经开区,,,,52,39,36,51,,84,81,37,20,5,5,0.6,0.8
2026-01-07T2000,3010A,119.8919,31.7892,常州市,钟楼,细颗粒物(PM2.5),65,69,60,47,42,11,,71,61,77,32,8,7,0.7,0.6
2026-01-07T2000,3429A,119.8595,31.706,常州市,武进经发区,细颗粒物(PM2.5),57,51,56,40,38,46,,82,76,43,24,8,8,0.5,0.7
2026-01-07T2000,3430A,119.5812,31.7256,常州市,金坛城区,,49,46,55,34,44,45,,67,65,36,23,8,7,1.1,0.8
2026-01-07T2000,4089A,119.9551,31.863,常州市,崇义南街5-H号,颗粒物(PM10),65,79,60,41,39,4,,74,64,86,35,6,6,0.8,0.7
2026-01-07T2000,2220A,120.4318,41.588,朝阳市,西梁,细颗粒物(PM2.5),168,,35,127,18,4,,66,54,70,17,19,7,1.7,0.4
2026-01-07T2000,2221A,120.452,41.565,朝阳市,河畔小区,,40,38,27,28,11,49,,69,64,20,12,9,7,0.8,0.4
2026-01-07T2000,2222A,120.4176,41.5648,朝阳市,八里堡,细颗粒物(PM2.5),95,110,39,71,15,8,,66,51,66,17,18,10,1.3,0.6
2026-01-07T2000,3026A,116.6179,23.6608,潮州市,市政府,细颗粒物(PM2.5),92,71,31,68,27,58,,97,92,30,4,10,6,0.5,0.3
2026-01-07T2000,4036A,116.646,23.676,潮州市,金山,细颗粒物(PM2.5),84,,37,62,31,69,,95,92,32,7,10,4,0.5,0.3
2026-01-07T2000,2473A,113.0116,25.8228,郴州市,市职中,细颗粒物(PM2.5),68,59,50,49,43,33,,89,83,32,20,5,5,0.8,0.6
2026-01-07T2000,2475A,113.0381,25.8074,郴州市,市审计局,细颗粒物(PM2.5),62,66,55,44,43,38,,94,88,47,25,4,5,/,/
2026-01-07T2000,2476A,113.0348,25.7757,郴州市,市环保局,颗粒物(PM10),54,58,62,33,42,64,,91,88,29,28,3,4,0.7,0.8
2026-01-07T2000,4252A,113.0138,25.8011,郴州市,好美居路49号,细颗粒物(PM2.5),55,47,52,39,46,53,,98,94,46,24,4,4,/,/
2026-01-07T2000,1431A,103.9727,30.7242,成都市,金泉两河,细颗粒物(PM2.5),67,65,82,48,52,17,,84,81,86,57,3,5,0.9,0.9
2026-01-07T2000,1432A,104.1423,30.6765,成都市,十里店,细颗粒物(PM2.5),74,78,68,54,45,66,,79,79,50,59,5,4,0.6,0.7
2026-01-07T2000,1433A,104.0594,30.5765,成都市,三瓦窑,细颗粒物(PM2.5),87,75,62,64,48,55,,80,80,64,54,4,4,0.8,0.7
2026-01-07T2000,1434A,104.1122,30.6306,成都市,沙河铺,,,80,65,70,46,,,69,69,48,57,3,3,0.7,0.6
2026-01-07T2000,2880A,104.0219,30.6561,成都市,大石西路,细颗粒物(PM2.5),93,113,79,69,52,34,,78,73,63,58,5,5,0.9,0.8
2026-01-07T2000,3136A,104.2724,30.559,成都市,龙泉驿区区政府,细颗粒物(PM2.5),73,66,36,53,31,46,,60,60,26,17,6,6,0.7,0.6
2026-01-07T2000,3357A,104.0028,30.6891,成都市,金博路,细颗粒物(PM2.5),87,77,70,64,53,28,,83,83,79,57,5,6,1.1,0.9
2026-01-07T2000,3359A,104.056,30.5228,成都市,华阳,细颗粒物(PM2.5),79,73,55,58,43,49,,88,83,58,48,3,3,0.9,0.6
2026-01-07T2000,3488A,104.387954,30.746684,成都市,青石路225号,细颗粒物(PM2.5),172,151,66,130,45,8,,60,58,92,48,5,2,0.8,0.4
2026-01-07T2000,3489A,104.0788,30.4054,成都市,科学城,细颗粒物(PM2.5),69,58,51,50,42,77,,91,91,27,29,7,7,0.5,0.6
2026-01-07T2000,4011A,103.8505,30.6946,成都市,光华大道三段,细颗粒物(PM2.5),100,110,83,75,61,41,,96,96,72,42,6,5,0.8,0.8
2026-01-07T2000,4144A,104.3257,30.6406,成都市,八角井街185号,颗粒物(PM10),60,70,59,35,36,54,,72,72,38,35,4,4,0.6,0.8
2026-01-07T2000,4224A,104.2433276,30.53529463,成都市,鲸龙路1057号,细颗粒物(PM2.5),88,90,52,65,39,6,,85,79,80,46,7,7,0.7,0.4
2026-01-07T2000,1062A,117.9531,40.908,承德市,铁路,,49,44,33,34,15,24,,56,52,34,19,7,4,0.7,0.4
2026-01-07T2000,1063A,117.9397,40.9763,承德市,中国银行,,42,42,31,17,11,24,,59,53,26,12,2,2,0.5,0.3
2026-01-07T2000,4073A,117.9462,40.95,承德市,杏林街1号,,43,43,24,27,15,19,,60,57,40,14,6,4,0.7,0.4
2026-01-07T2000,4274A,117.7994,40.9605,承德市,滨河大街98号,,48,48,27,26,14,25,,58,56,33,16,3,3,0.3,0.3
2026-01-07T2000,2314A,117.4698,30.6617,池州市,池州学院,细颗粒物(PM2.5),64,59,58,46,48,68,,80,78,30,25,8,6,0.8,0.8
2026-01-07T2000,3237A,117.4918,30.6617,池州市,展览馆,细颗粒物(PM2.5),57,61,55,40,38,43,,78,76,43,33,4,4,0.9,1
2026-01-07T2000,3333A,117.5626,30.695,池州市,第八中学,细颗粒物(PM2.5),52,51,55,36,43,55,,84,81,48,29,5,5,0.7,0.9
2026-01-07T2000,3334A,117.5037,30.6242,池州市,第十二中学,细颗粒物(PM2.5),67,72,62,48,44,10,,81,73,81,38,6,6,0.5,1.1
2026-01-07T2000,1744A,118.9229,42.2816,赤峰市,松山一中,,26,26,23,6,7,54,,60,60,18,18,3,6,0.6,0.6
2026-01-07T2000,1745A,118.9588,42.2733,赤峰市,哈达街,,20,18,21,10,9,62,,66,65,14,14,5,6,0.6,0.6
2026-01-07T2000,1746A,118.8792,42.2551,赤峰市,天义路,,21,15,13,14,12,67,,70,70,10,12,5,8,0.4,0.5
2026-01-07T2000,3058A,119.2656,42.0356,赤峰市,银河街,,45,45,33,27,16,47,,70,64,17,11,16,13,0.6,0.7
2026-01-07T2000,3286A,118.9359,42.3146,赤峰市,桥北物流园区,,22,19,17,15,12,43,,64,61,25,16,5,5,0.6,0.6
2026-01-07T2000,2521A,107.3473,22.4137,崇左市,市环保局江州分局,,,43,37,31,22,,,84,84,23,18,8,7,0.6,0.5
2026-01-07T2000,4256A,107.375,22.3736,崇左市,石景林东路7号,,39,27,31,27,22,81,,85,85,18,19,9,7,0.5,0.6
2026-01-07T2000,3207A,118.31131,32.3033,滁州市,市政府原办公楼,颗粒物(PM10),51,52,46,35,27,62,,78,74,24,18,6,6,0.5,0.4
2026-01-07T2000,3331A,118.3268,32.2633,滁州市,图书馆,,45,45,38,23,22,60,,77,75,21,13,8,9,0.4,0.4
2026-01-07T2000,4101A,118.3196,32.3335,滁州市,银山路666号,细颗粒物(PM2.5),58,48,42,41,37,55,,75,71,19,12,9,8,0.7,0.5
2026-01-07T2000,4102A,118.3426,32.2979,滁州市,黄山路555号,颗粒物(PM10),59,68,54,39,36,66,,85,82,18,18,10,10,0.6,0.6
2026-01-07T2000,2606A,101.5379,25.0492,楚雄彝族自治州,市经济开发区,,22,18,26,15,20,37,,33,33,8,10,2,2,0.8,0.8
2026-01-07T2000,4153A,101.5536,25.0343,楚雄彝族自治州,团结路562号,,,,17,16,16,38,,34,34,,7,2,2,0.6,0.7
2026-01-07T2000,2549A,107.5087,31.2186,达州市,市环境监测站,细颗粒物(PM2.5),140,132,90,107,67,7,,30,26,74,47,7,7,1.0,0.6
2026-01-07T2000,2550A,107.4988,31.2132,达州市,凤凰小区,细颗粒物(PM2.5),144,158,96,110,68,5,,33,28,79,44,7,6,1.3,0.6
2026-01-07T2000,2551A,107.5081,31.1987,达州市,达县机关宾馆,细颗粒物(PM2.5),147,156,98,112,68,5,,30,24,68,44,4,4,1.1,0.7
2026-01-07T2000,2552A,107.4644,31.2124,达州市,市政中心,细颗粒物(PM2.5),119,158,109,90,70,,,44,44,70,43,7,7,1.1,0.7
2026-01-07T2000,2614A,100.2168,25.5818,大理白族自治州,大理市环境监测站,,29,25,20,20,17,70,,73,73,13,11,6,6,0.5,0.5
2026-01-07T2000,2615A,100.1542,25.7055,大理白族自治州,大理古城,,38,,19,26,15,76,,80,79,10,9,8,8,0.7,0.6
2026-01-07T2000,1109A,121.6119,38.974,大连市,甘井子,,39,39,37,22,9,64,,74,70,19,14,9,9,0.6,0.4
2026-01-07T2000,1110A,121.565,38.9509,大连市,周水子,,32,32,32,16,8,62,,70,66,14,10,1,4,0.3,0.3
2026-01-07T2000,1111A,121.5637,38.8849,大连市,星海三站,,24,24,26,16,9,59,,69,66,17,14,5,5,0.4,0.3
2026-01-07T2000,1112A,121.6301,38.9117,大连市,青泥洼桥,,42,42,23,18,8,49,,62,59,27,17,10,8,0.3,0.3
2026-01-07T2000,1113A,121.6248,38.8643,大连市,傅家庄,,32,32,28,20,9,54,,60,58,17,13,8,8,0.2,0.1
2026-01-07T2000,1114A,121.5117,38.8636,大连市,七贤岭,,32,32,32,15,8,48,,65,61,23,10,9,7,0.7,0.5
2026-01-07T2000,1116A,121.7507,39.1339,大连市,金州,,44,44,28,25,12,62,,72,69,18,14,12,9,0.3,0.2
2026-01-07T2000,1117A,121.7811,39.0495,大连市,开发区,,27,27,32,15,9,64,,66,65,9,9,5,5,0.5,0.5
2026-01-07T2000,1118A,121.9762,39.0631,大连市,双D港,,31,31,31,16,8,68,,77,74,11,10,12,11,0.5,0.5
2026-01-07T2000,4082A,121.2548,38.8188,大连市,旅顺,,43,43,31,27,10,59,,71,67,11,8,7,6,0.7,0.6
2026-01-07T2000,1789A,124.8085,46.0381,大庆市,大同区,,48,42,29,33,19,45,,59,53,18,9,6,6,0.5,0.3
2026-01-07T2000,1790A,125.1166,46.5255,大庆市,龙凤区,,25,25,28,17,19,41,,53,47,22,18,6,7,0.4,0.4
2026-01-07T2000,1791A,124.8894,46.4007,大庆市,红岗区,,30,25,27,21,22,43,,53,48,13,10,4,5,0.6,0.5
2026-01-07T2000,1792A,125.1391,46.578,大庆市,萨尔图区,,37,37,29,16,14,36,,52,40,19,13,7,8,0.4,0.3
2026-01-07T2000,1793A,124.9026,46.6217,大庆市,让胡路区,,33,,25,23,24,53,,58,56,8,7,6,6,0.3,0.3
2026-01-07T2000,3481A,125.127,46.6277,大庆市,萨区政府监测点,,35,,32,24,15,18,,57,45,39,10,8,8,0.8,0.6
2026-01-07T2000,1723A,113.2926,40.0759,大同市,云冈宾馆,颗粒物(PM10),60,70,71,26,32,33,,42,42,37,36,8,10,0.7,1.1
2026-01-07T2000,1724A,113.3437,40.0921,大同市,大同大学,颗粒物(PM10),77,104,58,40,30,11,,44,38,60,33,8,12,1.1,1
2026-01-07T2000,1725A,113.2637,40.129,大同市,安家小村,颗粒物(PM10),56,62,81,33,35,39,,48,46,35,39,6,13,0.6,1.9
2026-01-07T2000,3282A,113.3399,40.0586,大同市,大同市卫生学校,,,78,62,26,28,33,,22,,40,37,,11,,1
2026-01-07T2000,3565A,113.1371,40.1122,大同市,云冈站,颗粒物(PM10),60,70,59,26,27,13,,55,48,49,32,8,8,0.7,0.8
2026-01-07T2000,3566A,113.1186,40.2556,大同市,图书馆,细颗粒物(PM2.5),59,55,58,42,35,29,,52,51,37,19,25,9,1.1,0.9
2026-01-07T2000,3567A,113.5931,40.0459,大同市,区一中,颗粒物(PM10),61,72,80,26,38,53,,52,52,23,29,2,17,0.6,0.9
2026-01-07T2000,4199A,113.2798248,40.09972476,大同市,魏都大道141号,颗粒物(PM10),72,93,86,34,34,25,,42,40,45,40,7,9,0.8,1.6
2026-01-07T2000,2269A,124.1068,50.4091,大兴安岭地区,科技局,,30,21,19,21,18,53,,51,51,1,3,6,5,0.4,0.4
2026-01-07T2000,3663A,124.117,50.4279,大兴安岭地区,红旗社区,,20,6,7,3,5,61,,60,60,2,3,6,6,0.2,0.3
2026-01-07T2000,1600A,124.33,40.0625,丹东市,江湾东路,,39,39,44,19,24,51,,63,59,16,17,7,9,0.5,0.6
2026-01-07T2000,1601A,124.4242,40.1513,丹东市,临江后街,,34,34,42,11,18,64,,67,64,7,17,4,8,0.4,0.6
2026-01-07T2000,1602A,124.3935,40.1461,丹东市,元宝山,,34,34,38,17,19,55,,64,61,12,12,9,9,0.4,0.4
2026-01-07T2000,1603A,124.3634,40.1093,丹东市,民主桥,,40,40,48,13,18,52,,63,59,14,16,7,8,0.4,0.5
2026-01-07T2000,3541A,109.5726195,19.51688767,儋州市,第一中学子站,,48,47,46,33,35,87,,94,94,8,8,4,5,0.6,0.6
2026-01-07T2000,3542A,109.5567,19.5187,儋州市,东坡学校子站,,41,41,43,28,31,93,,101,101,9,8,5,5,0.6,0.7
2026-01-07T2000,2616A,98.5611,24.4273,德宏傣族景颇族自治州,德宏州监测站,细颗粒物(PM2.5),72,70,48,52,41,42,,74,74,32,23,6,6,0.9,0.7
2026-01-07T2000,3677A,98.5887,24.4366,德宏傣族景颇族自治州,芒市人民政府综合楼,颗粒物(PM10),57,64,49,20,34,57,,70,70,18,16,4,5,0.7,0.7
2026-01-07T2000,1901A,104.424,31.1209,德阳市,东山公园,细颗粒物(PM2.5),80,73,63,59,52,70,,75,75,39,33,5,4,0.7,0.7
2026-01-07T2000,1902A,104.3827,31.1318,德阳市,西小区,细颗粒物(PM2.5),88,99,95,65,60,15,,66,66,96,51,5,4,0.9,0.8
2026-01-07T2000,1904A,104.3553,31.1091,德阳市,耐火材料厂,细颗粒物(PM2.5),88,89,89,65,65,59,,77,77,51,52,3,3,0.7,0.8
2026-01-07T2000,4145A,104.4144,31.1495,德阳市,市林业局,细颗粒物(PM2.5),77,94,76,56,60,4,,64,62,91,52,3,4,0.9,0.8
2026-01-07T2000,1622A,116.3034,37.4675,德州市,儿童乐园,,41,41,68,17,29,43,,70,66,41,44,10,14,0.9,1
2026-01-07T2000,1624A,116.2992,37.4449,德州市,监理站,,36,36,58,12,27,53,,79,74,35,42,12,14,0.7,0.7
2026-01-07T2000,3066A,116.2722,37.438,德州市,九衢泉纯净水厂,颗粒物(PM10),52,53,66,22,32,26,,71,64,56,46,16,15,0.7,0.7
2026-01-07T2000,3371A,116.3693,37.44,德州市,开发区人民医院,,44,44,63,19,29,25,,71,62,83,59,11,14,0.5,0.6
2026-01-07T2000,3511A,116.5687,37.3331,德州市,陵城艺术中心,细颗粒物(PM2.5),85,83,73,63,38,16,,64,53,62,49,23,14,0.7,0.4
2026-01-07T2000,4292A,116.352738,37.420875,德州市,新河东路,,45,44,59,17,31,12,,71,58,90,56,9,13,0.9,0.9
2026-01-07T2000,2621A,99.7054,27.8319,迪庆藏族自治州,迪庆州站,,33,33,24,17,17,79,,89,87,13,9,5,5,0.6,0.5
2026-01-07T2000,3180A,99.7122,27.8129,迪庆藏族自治州,质量技术监督局,,28,,22,17,16,87,,94,92,7,10,5,5,0.3,0.4
2026-01-07T2000,4257A,104.6092,35.5962,定西市,将台街,颗粒物(PM10),79,107,64,42,43,60,,87,87,36,30,31,15,0.8,0.7
2026-01-07T2000,4309A,104.6159,35.5701,定西市,正龙路62号,,48,44,63,33,46,77,,85,85,11,13,16,10,0.8,0.8
2026-01-07T2000,1390A,113.7943,23.0132,东莞市,东城石井,,33,33,35,21,24,74,,104,101,22,18,6,7,0.6,0.5
2026-01-07T2000,1391A,113.7384,22.9659,东莞市,南城西平,,40,40,35,26,24,49,,102,94,61,29,11,9,0.6,0.6
2026-01-07T2000,3319A,113.7283,23.041,东莞市,万江金泰,,43,43,36,25,25,67,,100,95,36,21,8,6,0.7,0.6
2026-01-07T2000,4129A,113.8666,23.1062,东莞市,裕兴路,,,,37,,29,,,123,123,54,19,7,5,0.7,0.6
2026-01-07T2000,4130A,114.0076,22.9739,东莞市,教育路1号,颗粒物(PM10),57,63,44,32,28,42,,102,92,71,23,6,5,0.6,0.5
2026-01-07T2000,4131A,113.7981,22.8124,东莞市,长怡路1号,,50,50,44,26,26,52,,109,103,55,22,9,8,0.6,0.5
2026-01-07T2000,1666A,118.6612,37.4313,东营市,市环保局,,36,36,58,17,31,29,,70,64,49,38,10,11,0.6,0.9
2026-01-07T2000,3036A,118.6903,37.4337,东营市,开发区管委会,,,,67,,34,50,,78,73,,38,14,13,0.8,0.9
2026-01-07T2000,3365A,118.5721,37.5654,东营市,垦利区民丰路,,29,29,59,17,34,50,,72,67,27,36,8,8,0.9,1
2026-01-07T2000,3498A,118.5063,37.8606,东营市,河口城区,,27,27,67,10,38,51,,79,72,33,32,5,5,0.7,0.8
2026-01-07T2000,3646A,118.4979,37.4623,东营市,胜利站,,41,41,63,27,35,41,,71,65,38,43,14,15,0.9,1
2026-01-07T2000,3734A,118.5753,37.4405,东营市,理想之城,,36,36,58,22,36,30,,69,60,50,43,12,8,0.7,0.8
2026-01-07T2000,1591A,110.0024,39.8127,鄂尔多斯市,综合楼,,46,46,68,22,22,63,,67,66,18,11,5,4,0.6,0.5
2026-01-07T2000,1592A,109.9485,39.8259,鄂尔多斯市,巴音孟克林场办事处,颗粒物(PM10),56,61,80,24,24,60,,68,67,17,11,6,6,0.3,0.3
2026-01-07T2000,1593A,109.7734,39.5987,鄂尔多斯市,康泽苑,颗粒物(PM10),63,75,65,34,28,56,,76,73,16,10,6,5,0.4,0.4
2026-01-07T2000,1594A,109.8121,39.5987,鄂尔多斯市,华泰汽车城,,,73,65,24,23,,,71,71,28,13,4,3,0.5,0.4
2026-01-07T2000,1595A,109.9734,39.7884,鄂尔多斯市,奥林花园,颗粒物(PM10),60,70,86,24,21,59,,69,67,21,13,2,3,0.4,0.4
2026-01-07T2000,2436A,114.894,30.3989,鄂州市,市政府,细颗粒物(PM2.5),70,85,51,51,34,3,,57,53,73,35,5,6,1.2,0.8
2026-01-07T2000,2437A,114.8986,30.3714,鄂州市,赵家坝,细颗粒物(PM2.5),102,,57,76,39,5,,71,65,71,28,7,9,1.0,0.5
2026-01-07T2000,3654A,114.8093,30.4091,鄂州市,精准医疗中心,细颗粒物(PM2.5),64,60,51,46,38,87,,85,85,21,26,8,6,0.3,0.7
2026-01-07T2000,2454A,109.4978,30.2979,恩施土家族苗族自治州,湖北民院,细颗粒物(PM2.5),92,,54,68,44,24,,70,61,38,20,6,6,0.9,0.7
2026-01-07T2000,3549A,109.5061,30.3771,恩施土家族苗族自治州,龙凤新区,细颗粒物(PM2.5),72,62,43,52,36,47,,56,56,27,12,6,7,1.1,0.4
2026-01-07T2000,2499A,108.3411,21.6159,防城港市,沙万,,40,38,34,28,30,80,,92,92,18,11,6,6,0.4,0.5
2026-01-07T2000,2500A,108.3515,21.7733,防城港市,防城档案局,颗粒物(PM10),80,109,53,37,23,56,,86,83,37,16,5,5,0.7,0.5
2026-01-07T2000,2501A,108.3506,21.6414,防城港市,大海花园,,39,32,33,27,24,90,,102,102,14,7,7,6,0.5,0.6
2026-01-07T2000,1371A,113.1293,23.0065,佛山市,湾梁,,38,36,41,26,27,83,,99,97,25,26,/,/,/,/
2026-01-07T2000,1372A,113.1082,23.0477,佛山市,华材职中,,46,46,47,20,27,70,,94,92,35,28,8,8,0.6,0.6
2026-01-07T2000,1373A,113.1439,23.045,佛山市,南海气象局,,45,34,41,31,31,80,,96,95,28,28,/,/,/,/
2026-01-07T2000,1374A,113.2879,22.8094,佛山市,顺德苏岗,,40,40,35,27,27,59,,93,91,44,25,/,/,0.7,0.6
2026-01-07T2000,1376A,112.8384,22.8678,佛山市,高明孔堂,,46,42,50,32,36,77,,100,99,25,24,/,/,/,/
2026-01-07T2000,1377A,112.8835,23.1584,佛山市,三水监测站,,44,44,49,29,35,71,,86,85,28,27,2,6,0.6,0.6
2026-01-07T2000,1378A,112.8668,23.185,佛山市,三水云东海,,,43,47,25,32,45,,92,87,,23,/,/,/,/
2026-01-07T2000,3625A,113.2568,22.7629,佛山市,容桂街道办,颗粒物(PM10),54,58,39,36,30,62,,90,88,43,23,/,/,/,/
2026-01-07T2000,1282A,119.2681,26.0506,福州市,师大,细颗粒物(PM2.5),58,46,30,41,29,82,,96,93,35,20,4,6,0.6,0.5
2026-01-07T2000,1283A,119.2983,26.1028,福州市,五四北路,细颗粒物(PM2.5),52,51,29,36,26,73,,90,89,35,20,5,4,0.7,0.6
2026-01-07T2000,1284A,119.2648,26.0769,福州市,杨桥西路,细颗粒物(PM2.5),53,47,30,37,26,86,,94,94,23,14,5,5,/,/
2026-01-07T2000,3048A,119.5799,26.0937,福州市,九龙,,46,38,25,32,23,68,,102,99,26,14,4,5,0.6,0.6
2026-01-07T2000,3526A,119.5188,25.9666,福州市,吴航,,43,38,34,30,27,74,,100,97,26,16,5,5,0.6,0.6
2026-01-07T2000,4104A,119.3106,26.0648,福州市,路通桥巷6号,细颗粒物(PM2.5),59,61,36,42,29,75,,90,88,29,16,/,/,/,/
2026-01-07T2000,1755A,123.7974,41.8494,抚顺市,望花区,细颗粒物(PM2.5),55,57,59,39,12,19,,60,50,46,15,10,9,0.9,0.6
2026-01-07T2000,1756A,123.9161,41.8827,抚顺市,顺城区,细颗粒物(PM2.5),88,,48,65,14,8,,60,49,59,17,10,8,0.9,0.5
2026-01-07T2000,1757A,124.0437,41.8615,抚顺市,东洲区,颗粒物(PM10),51,52,56,29,13,32,,61,54,31,13,23,5,0.8,0.5
2026-01-07T2000,1758A,123.9246,41.8638,抚顺市,新抚区,,39,39,51,21,11,45,,64,58,26,16,9,7,0.7,0.6
2026-01-07T2000,1759A,124.0972,41.8961,抚顺市,大伙房水库,细颗粒物(PM2.5),58,47,55,41,15,11,,58,44,50,16,11,11,0.9,0.6
2026-01-07T2000,1760A,123.708,41.8386,抚顺市,沈抚新城,,46,46,54,17,9,34,,64,55,35,14,10,7,0.7,0.6
2026-01-07T2000,2377A,116.3544,27.9833,抚州市,市站,,48,48,49,30,33,62,,94,91,28,20,10,10,0.5,0.5
2026-01-07T2000,2378A,116.3562,27.9631,抚州市,血防站,,,47,52,29,33,72,,97,96,,25,5,7,0.6,0.6
2026-01-07T2000,2379A,116.3561,28.0007,抚州市,采茶剧团,,46,46,50,32,33,83,,98,98,21,19,6,9,0.6,0.7
2026-01-07T2000,2380A,116.3854,27.9648,抚州市,医学分院,,43,43,50,25,30,84,,102,102,12,15,4,6,0.5,0.6
2026-01-07T2000,2207A,121.6095,41.9978,阜新市,工业园区,颗粒物(PM10),78,106,47,44,13,27,,70,58,42,11,15,7,0.6,0.4
2026-01-07T2000,2208A,121.6567,42.0188,阜新市,长青街,细颗粒物(PM2.5),63,56,33,45,7,32,,66,60,30,7,9,6,0.5,0.3
2026-01-07T2000,2209A,121.6672,42.07,阜新市,农业园区,,36,36,34,14,7,50,,61,58,13,6,17,7,0.3,0.3
2026-01-07T2000,2211A,121.6343,42.0455,阜新市,玉龙新城,细颗粒物(PM2.5),94,96,38,70,10,6,,63,48,59,14,10,6,1.0,0.3
2026-01-07T2000,2301A,115.8276,32.8929,阜阳市,市监测站,,,106,51,67,29,,,73,73,53,23,6,5,0.7,0.5
2026-01-07T2000,2303A,115.8551,32.8606,阜阳市,开发区,颗粒物(PM10),70,90,42,35,28,38,,73,70,52,24,7,6,0.6,0.4
2026-01-07T2000,2875A,115.783962,32.889217,阜阳市,阜阳职业技术学院,颗粒物(PM10),59,67,41,33,26,45,,76,73,44,20,9,8,0.5,0.5
2026-01-07T2000,3468A,115.79,32.8614,阜阳市,市规划展馆,细颗粒物(PM2.5),55,54,48,39,28,51,,78,76,42,22,8,7,0.5,0.4
2026-01-07T2000,3469A,115.835101,32.918568,阜阳市,枣园社区,细颗粒物(PM2.5),65,74,49,47,29,16,,75,69,84,24,8,7,0.4,0.3
2026-01-07T2000,2669A,102.9097,34.9841,甘南藏族自治州,州政府,,,35,48,28,32,,,89,89,21,35,6,3,0.6,0.8
2026-01-07T2000,3380A,102.8915,34.9618,甘南藏族自治州,甘肃民族师范学院,,45,45,58,10,25,48,,88,88,28,33,4,8,0.7,0.5
2026-01-07T2000,2570A,101.96,30.048,甘孜藏族自治州,水桥子,,25,16,8,3,5,80,,79,79,7,13,5,6,0.8,0.9
2026-01-07T2000,3065A,101.9534,29.9976,甘孜藏族自治州,州环保局,,24,20,11,15,6,74,,78,78,15,12,5,5,0.6,0.7
2026-01-07T2000,2363A,114.9368,25.8663,赣州市,地委,,36,36,42,19,28,90,,98,98,19,23,8,7,0.8,0.8
2026-01-07T2000,2364A,114.946,25.8483,赣州市,气象台,颗粒物(PM10),52,53,56,18,25,83,,98,98,31,34,3,3,0.5,0.5
2026-01-07T2000,2365A,114.932,25.8332,赣州市,市图书馆,,41,41,43,26,28,84,,92,92,23,31,3,4,0.5,0.6
2026-01-07T2000,2366A,114.8905,25.8472,赣州市,华坚鞋城,,36,36,45,22,26,86,,89,89,17,30,5,5,0.3,0.4
2026-01-07T2000,3109A,115.0094,25.8614,赣州市,赣县区卫计委,细颗粒物(PM2.5),57,,41,40,35,80,,95,95,14,23,8,7,0.5,0.5
2026-01-07T2000,2684A,106.2753,36.0057,固原市,监测站,,42,42,26,20,15,66,,83,81,19,11,5,5,0.4,0.5
2026-01-07T2000,2685A,106.2384,36.0189,固原市,新区,,44,44,24,26,11,67,,91,88,23,9,4,4,0.6,0.5
2026-01-07T2000,2544A,106.6307,30.4577,广安市,市委,细颗粒物(PM2.5),108,123,76,81,60,7,,47,43,89,39,8,8,1.6,1
2026-01-07T2000,2545A,106.6266,30.4662,广安市,友谊中学,细颗粒物(PM2.5),90,97,64,67,55,9,,56,52,67,21,7,6,1.4,0.8
2026-01-07T2000,2547A,106.6386,30.4551,广安市,广电花园,细颗粒物(PM2.5),107,94,72,80,58,11,,44,41,73,32,9,9,1.3,0.8
2026-01-07T2000,2902A,106.6347,30.4868,广安市,北辰小学,,,72,73,55,57,,,64,64,36,22,20,21,0.9,1
2026-01-07T2000,2524A,105.8211,32.4444,广元市,老城,颗粒物(PM10),63,76,49,31,33,7,,57,55,80,51,8,14,0.8,1
2026-01-07T2000,2526A,105.8629,32.429,广元市,监测站,颗粒物(PM10),56,62,52,27,33,37,,61,61,40,34,3,9,0.7,1
2026-01-07T2000,3617A,105.8047,32.4167,广元市,经开区,颗粒物(PM10),57,64,59,38,37,6,,39,38,67,44,4,12,1.1,1.1
2026-01-07T2000,1345A,113.2346,23.1423,广州市,广雅中学,,45,45,44,28,30,67,,95,91,35,26,5,5,0.6,0.5
2026-01-07T2000,1346A,113.2611,23.105,广州市,市五中,,44,44,43,27,32,82,,109,107,39,30,11,11,/,/
2026-01-07T2000,1348A,113.3477,23.0916,广州市,广东商学院,,40,40,40,26,30,72,,96,95,31,20,9,8,0.3,0.3
2026-01-07T2000,1349A,113.4332,23.105,广州市,市八十六中,,36,35,35,25,30,73,,101,99,32,22,10,8,/,/
2026-01-07T2000,1350A,113.3506,22.9488,广州市,番禺中学,,43,40,42,30,31,74,,101,99,41,31,4,4,0.4,0.3
2026-01-07T2000,1351A,113.2147,23.3918,广州市,花都师范,,,34,42,22,28,80,,97,96,29,24,,9,0.5,0.5
2026-01-07T2000,1352A,113.2599,23.1329,广州市,市监测站,,42,42,42,28,33,68,,97,94,41,30,4,4,/,/
2026-01-07T2000,1353A,113.5618,23.3119,广州市,九龙镇镇龙,,47,47,41,30,29,76,,93,92,25,20,8,7,0.5,0.5
2026-01-07T2000,1354A,113.2764,23.1544,广州市,麓湖,,35,35,40,24,32,62,,95,91,30,31,10,10,0.5,0.5
2026-01-07T2000,2846A,113.3209,23.1323,广州市,体育西,,,58,44,31,32,75,,99,98,,26,9,9,0.6,0.6
2026-01-07T2000,3298A,113.5718,23.5493,广州市,从化街口,,50,48,38,35,30,85,,98,97,19,23,10,10,0.6,0.6
2026-01-07T2000,3299A,113.3463,23.369,广州市,白云竹料,细颗粒物(PM2.5),65,64,43,47,32,83,,103,101,26,26,6,7,0.5,0.5
2026-01-07T2000,3300A,113.2981,23.2365,广州市,白云嘉禾,颗粒物(PM10),51,52,50,27,30,58,,100,95,54,34,7,7,/,/
2026-01-07T2000,3301A,113.4256,23.1716,广州市,黄埔科学城,,35,32,36,24,29,71,,107,102,34,18,8,6,0.6,0.7
2026-01-07T2000,3302A,113.3942,23.0485,广州市,番禺大学城,,40,40,38,23,27,83,,107,106,29,21,12,11,0.4,0.4
2026-01-07T2000,3303A,113.4923,22.8169,广州市,南沙黄阁,颗粒物(PM10),56,62,47,26,30,65,,104,99,53,34,7,7,/,/
2026-01-07T2000,3304A,113.534,22.7893,广州市,南沙街,颗粒物(PM10),55,59,45,29,28,72,,100,98,34,24,5,7,0.4,0.5
2026-01-07T2000,3443A,113.2905,23.5541,广州市,花都梯面,,29,25,34,19,26,92,,98,98,14,17,8,9,/,/
2026-01-07T2000,3445A,113.786,23.7479,广州市,从化良口,,25,22,29,17,24,75,,96,93,13,12,8,8,/,/
2026-01-07T2000,3446A,113.805,23.2614,广州市,增城荔城,,32,32,29,20,24,51,,97,89,34,14,6,7,0.7,0.5
2026-01-07T2000,2506A,109.604387,23.066791,贵港市,江南子站,细颗粒物(PM2.5),55,53,48,39,33,100,,110,110,16,17,6,7,0.5,0.6
2026-01-07T2000,2508A,109.5669,23.1065,贵港市,荷城子站,,46,46,46,31,36,94,,101,101,16,14,5,5,0.4,0.4
2026-01-07T2000,3405A,109.5886,23.1172,贵港市,新世纪学校,"颗粒物(PM10),细颗粒物(PM2.5)",58,66,52,41,38,75,,101,100,30,16,/,/,0.5,0.5
2026-01-07T2000,4260A,109.5933,23.095,贵港市,中山路155-3号,细颗粒物(PM2.5),54,39,43,38,39,96,,106,106,19,16,/,/,0.5,0.5
2026-01-07T2000,1439A,106.6863,26.6035,贵阳市,马鞍山,细颗粒物(PM2.5),64,46,60,46,54,52,,65,63,17,18,10,9,/,/
2026-01-07T2000,1441A,106.6241,26.6266,贵阳市,鉴湖路,细颗粒物(PM2.5),55,53,60,39,40,68,,69,69,20,22,9,10,0.6,0.6
2026-01-07T2000,1442A,106.7468,26.6344,贵阳市,燕子冲,细颗粒物(PM2.5),92,75,63,68,57,59,,67,67,18,18,12,13,0.7,0.8
2026-01-07T2000,1443A,106.6556,26.4362,贵阳市,碧云窝,细颗粒物(PM2.5),73,75,70,53,49,55,,48,48,16,22,14,12,/,/
2026-01-07T2000,1445A,106.6963,26.6063,贵阳市,红边门,细颗粒物(PM2.5),70,61,64,51,52,54,,54,54,24,22,17,14,/,/
2026-01-07T2000,1446A,106.7162383,26.56964667,贵阳市,新华路,细颗粒物(PM2.5),79,78,68,58,49,58,,59,59,22,19,14,11,0.6,0.6
2026-01-07T2000,1447A,106.6742,26.542,贵阳市,太慈桥,细颗粒物(PM2.5),67,61,59,48,47,56,,58,58,25,24,10,8,/,/
2026-01-07T2000,4230A,106.688212,26.56952,贵阳市,花果园大街66号,颗粒物(PM10),52,53,57,35,36,54,,53,53,21,23,8,9,/,/
2026-01-07T2000,4231A,106.687268,26.516892,贵阳市,漓江路57号,细颗粒物(PM2.5),73,63,64,53,49,54,,55,55,26,28,12,16,0.8,0.9
2026-01-07T2000,1864A,110.3091,25.2705,桂林市,龙隐路小学,,31,31,44,21,37,74,,90,89,15,16,8,10,0.2,0.3
2026-01-07T2000,1865A,110.2849361,25.22909545,桂林市,八中,,38,32,46,26,37,58,,83,81,33,24,10,10,0.4,0.5
2026-01-07T2000,3531A,110.296,25.1254,桂林市,旅游学院,,35,31,39,24,31,75,,97,95,19,20,5,5,0.6,0.6
2026-01-07T2000,4222A,110.1835,25.2444,桂林市,环湖路276号,,39,34,46,27,38,71,,84,84,20,28,10,17,0.5,0.6
2026-01-07T2000,4301A,110.2803,25.2773,桂林市,信义路13号,,,,44,,32,,,94,94,21,20,6,9,0.4,0.5
2026-01-07T2000,2674A,100.2262,34.4854,果洛藏族自治州,玛沁县大武镇,颗粒物(PM10),53,56,30,24,10,98,,102,102,1,3,15,14,0.3,0.4
2026-01-07T2000,1130A,126.5557,45.8109,哈尔滨市,松北商大,,27,27,27,17,24,34,,52,46,22,19,7,8,0.5,0.5
2026-01-07T2000,1132A,126.6162,45.719,哈尔滨市,南岗学府路,,25,25,31,9,16,48,,46,43,8,22,11,24,0.5,0.6
2026-01-07T2000,1133A,126.6894,45.7733,哈尔滨市,太平宏伟公园,,28,24,29,19,22,48,,52,49,10,17,13,25,0.6,0.5
2026-01-07T2000,1134A,126.6361,45.7672,哈尔滨市,道外承德广场,,32,32,45,16,22,45,,53,50,15,18,14,10,0.9,0.7
2026-01-07T2000,1136A,126.644,45.7261,哈尔滨市,动力和平路,,16,16,28,11,18,47,,53,50,9,14,5,9,0.4,0.5
2026-01-07T2000,1137A,126.5933,45.7479,哈尔滨市,道里建国路,,23,,25,16,24,41,,48,46,14,18,5,11,0.6,0.2
2026-01-07T2000,1138A,126.6127,45.6119,哈尔滨市,平房东轻厂,,40,37,30,28,24,14,,49,38,41,23,9,6,0.5,0.4
2026-01-07T2000,1139A,126.5875,45.9827,哈尔滨市,呼兰师专,,32,,28,22,28,36,,48,44,14,13,6,8,0.5,0.6
2026-01-07T2000,1140A,126.6299,45.6799,哈尔滨市,省农科院,,24,24,29,13,21,51,,56,53,11,17,13,12,0.2,0.2
2026-01-07T2000,4282A,126.6769,45.7379,哈尔滨市,华山路1号,,19,19,24,12,19,46,,50,47,13,17,23,20,0.4,0.6
2026-01-07T2000,4283A,126.9717,45.5356,哈尔滨市,解放大街52号,,26,24,30,18,22,42,,54,49,16,18,12,15,0.5,0.6
2026-01-07T2000,2688A,93.5124,42.8176,哈密市,地区监测站,颗粒物(PM10),63,75,76,26,46,35,,51,49,21,15,3,3,0.3,0.2
2026-01-07T2000,2689A,93.5014,42.8312,哈密市,哈密师范学校,颗粒物(PM10),67,84,83,24,37,20,,49,46,44,23,4,5,0.5,0.4
2026-01-07T2000,2671A,100.9016,36.9464,海北藏族自治州,海晏县西海镇,,,,15,,13,,,87,87,7,6,4,7,,0.3
2026-01-07T2000,3867A,102.074,36.5056,海东市,平安区公安局北苑,,38,38,57,13,45,57,,70,69,16,22,11,18,0.7,1.1
2026-01-07T2000,4163A,102.0984,36.5119,海东市,滨河路,颗粒物(PM10),63,76,52,26,42,7,,65,59,80,37,22,18,1.0,1
2026-01-07T2000,1410A,110.3189,20.0596,海口市,海南大学,,36,32,40,22,28,115,,112,112,10,10,7,8,0.2,0.3
2026-01-07T2000,1411A,110.2827,20.0051,海口市,秀英海南医院,,35,35,43,22,29,107,,102,102,11,12,9,9,0.3,0.4
2026-01-07T2000,1412A,110.3391,19.9979,海口市,海南师范大学,,37,34,40,23,29,116,,112,112,12,12,7,8,0.5,0.5
2026-01-07T2000,1413A,110.3303,20.0359,海口市,龙华路环保局宿舍,,37,34,41,21,27,116,,113,113,12,12,/,/,0.4,0.5
2026-01-07T2000,3539A,110.5111,19.9737,海口市,桂林洋子站,,43,43,40,28,29,100,,106,106,17,11,/,/,/,/
2026-01-07T2000,4134A,110.1952,20.0451,海口市,长滨二路9号,,35,29,43,20,31,111,,108,108,7,9,/,/,/,/
2026-01-07T2000,2673A,100.6158,36.2985,海南藏族自治州,共和县恰卜恰镇,,28,28,32,12,15,65,,93,90,27,22,10,11,0.4,0.6
2026-01-07T2000,2676A,97.373,37.376,海西蒙古族藏族自治州,德令哈市,,,35,17,10,11,,,88,88,12,8,15,13,0.5,0.5
2026-01-07T2000,1049A,114.492,36.5712,邯郸市,矿院,细颗粒物(PM2.5),55,52,51,39,37,43,,69,64,32,42,4,6,0.5,0.7
2026-01-07T2000,1050A,114.4839,36.6136,邯郸市,丛台公园,颗粒物(PM10),51,51,43,29,29,52,,70,67,31,38,3,6,0.5,0.6
2026-01-07T2000,3458A,114.7893,36.5592,邯郸市,香泉濮院小区,颗粒物(PM10),58,65,61,35,38,62,,76,74,30,33,6,7,0.5,0.6
2026-01-07T2000,3580A,114.1998,36.4439,邯郸市,峰峰矿区临水派出所,,45,41,33,31,22,65,,76,75,22,20,6,10,0.6,0.6
2026-01-07T2000,4068A,114.5209,36.7697,邯郸市,建安街268号,颗粒物(PM10),76,101,86,44,43,1,,55,44,73,53,3,4,0.5,0.7
2026-01-07T2000,4069A,114.5488,36.6177,邯郸市,丛台东路558号,,45,45,55,25,32,38,,71,65,43,42,5,7,0.6,0.6
2026-01-07T2000,2635A,107.0155,33.0707,汉中市,市监测站,细颗粒物(PM2.5),95,82,74,71,64,16,,64,58,73,40,8,10,1.5,1
2026-01-07T2000,2636A,107.0083,33.114,汉中市,鑫源开发区,细颗粒物(PM2.5),92,77,69,68,59,38,,67,65,50,38,7,10,0.5,0.8
2026-01-07T2000,2637A,107.0072,33.0323,汉中市,南郑大河坎水厂,细颗粒物(PM2.5),162,140,84,123,63,9,,60,56,74,30,11,8,1.9,1.1
2026-01-07T2000,1223A,120.2073,30.2111,杭州市,滨江,,48,48,50,30,37,46,,76,74,47,26,6,6,0.5,0.5
2026-01-07T2000,1224A,120.0625,30.2737,杭州市,西溪,,34,34,45,23,29,21,,84,75,43,29,8,9,0.8,0.7
2026-01-07T2000,1226A,120.3417,30.315,杭州市,下沙,细颗粒物(PM2.5),57,52,51,40,39,18,,79,72,85,31,9,8,0.5,0.6
2026-01-07T2000,1227A,120.1252,30.2465,杭州市,卧龙桥,,,34,44,23,32,,,82,82,34,20,8,9,0.4,0.5
2026-01-07T2000,1228A,120.1902,30.2691,杭州市,浙江农大,"颗粒物(PM10),细颗粒物(PM2.5)",55,59,52,39,39,15,,68,57,75,39,5,5,0.6,0.4
2026-01-07T2000,1230A,120.1195,30.3121,杭州市,和睦小学,细颗粒物(PM2.5),57,56,49,40,43,30,,86,80,62,25,5,5,0.7,0.6
2026-01-07T2000,1231A,120.3076,30.4146,杭州市,临平镇,颗粒物(PM10),55,59,49,36,32,49,,85,82,37,21,8,7,0.5,0.4
2026-01-07T2000,1232A,120.2753,30.1839,杭州市,城厢镇,颗粒物(PM10),56,62,60,32,38,16,,80,73,84,30,8,8,0.4,0.5
2026-01-07T2000,1233A,120.0883,30.1808,杭州市,云栖,,33,33,45,17,31,38,,83,73,27,18,4,4,0.5,0.7
2026-01-07T2000,3557A,119.9463,30.0496,杭州市,镇二中,细颗粒物(PM2.5),72,65,45,52,45,6,,73,67,77,35,5,5,1.2,0.8
2026-01-07T2000,3558A,119.7184,30.2367,杭州市,市府大楼,细颗粒物(PM2.5),67,76,55,48,41,18,,82,73,51,22,11,10,1.0,0.7
2026-01-07T2000,3656A,120.1554,30.2863,杭州市,消防大队,细颗粒物(PM2.5),64,57,49,46,37,29,,79,71,66,27,7,7,0.6,0.5
2026-01-07T2000,1270A,117.1957,31.7845,合肥市,明珠广场,颗粒物(PM10),58,66,46,27,23,30,,58,54,58,42,6,6,0.7,0.7
2026-01-07T2000,1271A,117.307,31.8765,合肥市,三里街,,48,48,44,29,23,43,,68,66,47,45,7,6,0.7,0.7
2026-01-07T2000,1272A,117.2587,31.8703,合肥市,琥珀山庄,颗粒物(PM10),54,58,42,31,26,48,,72,70,41,42,9,8,0.7,0.8
2026-01-07T2000,1275A,117.2593,31.9376,合肥市,庐阳区,颗粒物(PM10),52,53,39,27,19,59,,73,72,36,35,6,6,0.6,0.6
2026-01-07T2000,1276A,117.345251,31.861615,合肥市,瑶海区,,46,46,41,24,21,62,,73,73,32,42,5,5,0.5,0.5
2026-01-07T2000,1277A,117.3033,31.7967,合肥市,包河区,,46,46,42,24,28,40,,63,60,52,50,7,6,0.7,0.7
2026-01-07T2000,1278A,117.278,31.7392,合肥市,滨湖新区,颗粒物(PM10),56,61,45,36,29,23,,66,58,73,53,5,5,0.8,0.7
2026-01-07T2000,1279A,117.1324,31.8395,合肥市,高新区,颗粒物(PM10),52,53,40,32,21,64,,76,75,34,32,5,4,0.6,0.5
2026-01-07T2000,3464A,117.3802,31.9148,合肥市,高教基地,颗粒物(PM10),52,53,45,32,25,42,,72,68,41,37,7,7,0.7,0.6
2026-01-07T2000,4098A,117.2518,31.8404,合肥市,中国科学技术大学,,46,46,37,22,16,57,,80,78,34,32,9,6,0.5,0.5
2026-01-07T2000,3614A,79.9241,37.0878,和田地区,地区环保局,颗粒物(PM10),67,83,49,30,27,49,,60,60,23,17,2,2,0.4,0.6
2026-01-07T2000,3615A,79.9132,37.1137,和田地区,市环保局,,46,46,43,22,19,50,,61,61,31,19,2,2,0.8,0.7
2026-01-07T2000,2517A,108.0496,24.6957,河池市,市环保站,,29,26,31,20,22,49,,76,75,24,20,2,2,0.7,0.7
2026-01-07T2000,4302A,108.0901,24.6945,河池市,上任中路54号,颗粒物(PM10),54,58,40,37,27,16,,73,63,51,27,6,5,0.8,0.7
2026-01-07T2000,1697A,114.6962,23.7538,河源市,东埔,,35,27,32,24,31,92,,103,102,18,16,8,7,0.5,0.5
2026-01-07T2000,1698A,114.6895,23.7232,河源市,老城,,30,30,34,21,23,89,,98,97,14,14,8,7,0.7,0.7
2026-01-07T2000,3374A,115.5562,35.089,菏泽市,定陶老年大学,颗粒物(PM10),64,78,62,44,32,50,,66,66,34,26,8,5,0.7,0.7
2026-01-07T2000,4114A,115.4239,35.2593,菏泽市,黄河路600号,,,,69,,34,42,,66,64,47,30,,7,,0.9
2026-01-07T2000,4115A,115.5025,35.2727,菏泽市,菏泽市人社局,颗粒物(PM10),71,91,66,45,33,34,,66,62,50,26,10,7,0.6,0.5
2026-01-07T2000,4184A,115.479691,35.244011,菏泽市,永昌路1号,细颗粒物(PM2.5),80,89,70,59,39,40,,73,70,54,29,12,10,0.8,0.5
2026-01-07T2000,4193A,115.471542,35.280012,菏泽市,长城路999号,颗粒物(PM10),70,89,70,48,33,39,,70,68,47,26,12,7,0.7,0.5
2026-01-07T2000,2514A,111.5264,24.4178,贺州市,环保小区,颗粒物(PM10),53,56,45,28,36,80,,94,93,21,19,8,7,0.5,1
2026-01-07T2000,2515A,111.561,24.4074,贺州市,政协大楼,颗粒物(PM10),57,63,46,34,32,47,,97,92,37,21,9,8,0.7,0.7
2026-01-07T2000,3534A,111.4744,24.455,贺州市,西湾,,,,50,,36,72,,92,91,22,22,10,7,0.6,0.7
2026-01-07T2000,2385A,114.17,35.9019,鹤壁市,市监测站,颗粒物(PM10),99,147,57,53,26,16,,60,53,58,28,4,7,0.8,0.6
2026-01-07T2000,2386A,114.2953,35.7512,鹤壁市,市交警支队,颗粒物(PM10),73,96,50,51,23,11,,56,48,70,33,2,4,0.8,0.6
2026-01-07T2000,2387A,114.2877,35.7302,鹤壁市,迎宾馆,颗粒物(PM10),67,83,53,43,25,23,,61,55,56,28,9,7,0.8,0.7
2026-01-07T2000,3474A,114.2616,35.6824,鹤壁市,大新区,"颗粒物(PM10),细颗粒物(PM2.5)",54,57,51,38,20,34,,60,57,41,30,7,6,0.6,0.5
2026-01-07T2000,3596A,114.1573,35.9607,鹤壁市,南山宾馆,细颗粒物(PM2.5),65,78,48,47,25,49,,64,62,27,17,7,11,0.6,0.5
2026-01-07T2000,2244A,130.2537,47.3416,鹤岗市,哈啤分公司,,22,17,30,14,21,68,,70,70,3,8,6,7,0.3,0.4
2026-01-07T2000,2245A,130.2683,47.3087,鹤岗市,斯达机电,,24,24,28,14,25,65,,65,65,5,11,5,7,0.4,0.5
2026-01-07T2000,2246A,130.3114,47.3388,鹤岗市,东山纸板厂,,22,22,25,11,20,66,,67,67,2,11,5,11,0.2,0.4
2026-01-07T2000,2263A,127.4832,50.2524,黑河市,交通局,,30,21,20,21,16,55,,54,53,6,10,5,4,0.3,0.4
2026-01-07T2000,2264A,127.5146,50.2339,黑河市,环保局,,32,,18,22,18,52,,51,51,10,12,6,8,0.4,0.4
2026-01-07T2000,1074A,115.6839,37.754,衡水市,电机北厂,,48,46,53,33,26,33,,66,61,38,21,4,6,0.5,0.4
2026-01-07T2000,1075A,115.6303,37.7318,衡水市,市监测站,,48,48,55,26,25,32,,67,58,46,28,5,7,0.5,0.5
2026-01-07T2000,3188A,115.6684,37.7216,衡水市,市城管局,,47,47,52,28,26,15,,66,57,69,30,6,8,0.5,0.4
2026-01-07T2000,3459A,115.599,37.5491,衡水市,地表水厂,颗粒物(PM10),73,95,54,41,25,8,,66,52,85,28,22,7,0.8,0.5
2026-01-07T2000,2457A,112.6209,26.9268,衡阳市,衡阳化工总厂,细颗粒物(PM2.5),55,44,64,39,52,78,,90,90,22,33,7,8,0.7,0.9
2026-01-07T2000,2458A,112.621,26.8957,衡阳市,珠晖区环保局,细颗粒物(PM2.5),82,80,67,60,60,19,,73,67,81,43,7,6,1.4,1.2
2026-01-07T2000,2459A,112.628,26.8654,衡阳市,市委党校,细颗粒物(PM2.5),74,69,83,54,62,50,,85,84,48,34,11,10,1.1,1.2
2026-01-07T2000,2460A,112.6007,26.8977,衡阳市,市监测站,细颗粒物(PM2.5),107,129,91,80,65,17,,79,77,70,38,8,7,2.2,1.2
2026-01-07T2000,2461A,112.5658,26.9013,衡阳市,真空机电公司,细颗粒物(PM2.5),92,107,82,68,58,28,,85,80,81,38,10,8,1.5,1.1
2026-01-07T2000,3399A,112.6703,26.8817,衡阳市,师范学院,细颗粒物(PM2.5),77,77,73,56,51,43,,85,84,41,31,3,3,0.9,1
2026-01-07T2000,3038A,103.3757,23.3679,红河哈尼族彝族自治州,州图书馆,,43,31,22,30,19,32,,36,34,10,8,6,6,0.6,0.6
2026-01-07T2000,4154A,103.401,23.3561,红河哈尼族彝族自治州,蒙自市朝阳路,,36,,14,25,16,32,,34,32,7,6,4,5,0.7,0.6
2026-01-07T2000,1090A,111.6506,40.7517,呼和浩特市,呼市一监,细颗粒物(PM2.5),89,90,72,66,44,28,,47,44,39,34,4,4,1.4,0.8
2026-01-07T2000,1094A,111.7516,40.8369,呼和浩特市,如意水处理厂,颗粒物(PM10),77,104,70,55,41,8,,40,37,62,45,14,12,0.9,0.8
2026-01-07T2000,1095A,111.727798,40.806187,呼和浩特市,二十九中,颗粒物(PM10),72,93,70,50,43,17,,40,37,47,42,21,13,0.6,0.6
2026-01-07T2000,1097A,111.717,40.7617,呼和浩特市,化肥厂生活区,颗粒物(PM10),75,99,80,54,48,11,,45,38,56,42,6,7,0.9,0.8
2026-01-07T2000,3699A,111.6519,40.8389,呼和浩特市,海东办,颗粒物(PM10),80,110,70,56,38,4,,42,37,62,38,7,9,0.8,0.7
2026-01-07T2000,4275A,111.591512,40.827312,呼和浩特市,成吉思汗西街8号,细颗粒物(PM2.5),74,95,70,54,35,5,,36,31,56,39,6,11,0.7,0.7
2026-01-07T2000,4276A,111.6597,40.8077,呼和浩特市,公园东路75号,颗粒物(PM10),71,92,75,44,37,28,,40,38,39,38,10,10,0.6,0.6
2026-01-07T2000,4277A,111.5427,40.7846,呼和浩特市,金海路35号,颗粒物(PM10),87,124,94,63,51,5,,39,32,54,40,9,15,1.0,0.7
2026-01-07T2000,3061A,119.7511,49.1576,呼伦贝尔市,国华电力东,,43,37,25,30,19,47,,58,53,25,19,6,6,0.5,0.3
2026-01-07T2000,4279A,119.7569,49.2222,呼伦贝尔市,伊敏大街东7号,,39,30,26,27,20,43,,56,51,18,10,6,7,0.5,0.4
2026-01-07T2000,1250A,120.075,30.867,湖州市,城西水厂,颗粒物(PM10),55,59,57,35,35,9,,80,65,99,39,12,10,0.4,0.4
2026-01-07T2000,2873A,120.083,30.8929,湖州市,仁皇山新区,,45,42,54,31,42,72,,88,87,33,31,11,12,0.5,0.5
2026-01-07T2000,2907A,120.1846,30.8592,湖州市,吴兴区站,,,44,52,32,40,74,,89,87,,25,,7,0.7,0.6
2026-01-07T2000,3562A,120.4146,30.8538,湖州市,南浔区站,,49,46,48,34,38,60,,84,83,37,24,7,7,0.7,0.6
2026-01-07T2000,1607A,120.904878,40.721091,葫芦岛市,龙港区,颗粒物(PM10),56,61,36,24,15,41,,68,59,28,18,76,15,0.5,0.5
2026-01-07T2000,1608A,120.8382,40.7521,葫芦岛市,化工街,颗粒物(PM10),54,58,32,27,10,28,,65,56,41,20,25,20,0.6,0.4
2026-01-07T2000,1609A,120.8339,40.7078,葫芦岛市,新区,,44,44,27,22,10,41,,66,60,27,17,14,10,0.6,0.6
2026-01-07T2000,1610A,120.8697,40.7679,葫芦岛市,东城区,颗粒物(PM10),53,56,27,35,11,21,,68,57,52,20,28,10,0.7,0.5
2026-01-07T2000,2483A,109.9297,27.5383,怀化市,河西地税局,细颗粒物(PM2.5),75,80,46,55,38,33,,70,70,33,18,4,4,/,/
2026-01-07T2000,2484A,109.9783,27.5342,怀化市,市四医院,细颗粒物(PM2.5),68,63,64,49,44,39,,62,62,22,26,11,10,0.8,0.7
2026-01-07T2000,2485A,109.9971,27.5579,怀化市,监测楼,细颗粒物(PM2.5),67,58,52,48,44,42,,76,75,33,25,4,3,0.3,0.2
2026-01-07T2000,1210A,119.0566,33.5991,淮安市,钵池山,细颗粒物(PM2.5),72,88,78,52,58,34,,67,64,54,26,9,9,0.8,0.7
2026-01-07T2000,1211A,119.0083,33.578,淮安市,北京南路,细颗粒物(PM2.5),73,90,79,53,56,13,,52,46,65,36,8,8,0.7,0.7
2026-01-07T2000,1212A,118.9938,33.6083,淮安市,市监测站,颗粒物(PM10),68,85,72,48,51,16,,62,55,67,31,9,9,1.0,0.8
2026-01-07T2000,1213A,119.135,33.5038,淮安市,楚州区监测站,颗粒物(PM10),68,85,76,48,45,88,,67,67,65,32,10,10,0.7,0.8
2026-01-07T2000,3426A,118.8757,33.2897,淮安市,新华书店,细颗粒物(PM2.5),70,83,64,51,41,22,,57,53,56,23,9,9,1.4,1.1
2026-01-07T2000,4092A,119.119691,33.550006,淮安市,枚皋中路89号,细颗粒物(PM2.5),55,54,77,39,53,35,,71,68,43,27,8,10,0.8,0.8
2026-01-07T2000,4206A,119.028838,33.631911,淮安市,承德北路606号,颗粒物(PM10),69,88,85,46,55,22,,61,53,68,32,9,9,0.9,0.6
2026-01-07T2000,2282A,116.8005,33.9749,淮北市,监测站,颗粒物(PM10),63,76,89,43,41,62,,66,66,31,35,11,10,0.8,0.7
2026-01-07T2000,2283A,116.8094,33.9008,淮北市,烈山区政府,颗粒物(PM10),69,87,85,47,50,49,,63,63,33,37,11,11,0.5,0.5
2026-01-07T2000,4017A,116.7926,33.9534,淮北市,市博物馆,颗粒物(PM10),70,89,84,43,48,54,,64,64,36,34,7,10,0.7,0.6
2026-01-07T2000,4100A,116.8322,33.9884,淮北市,杜集区第一实验学校,颗粒物(PM10),63,76,87,35,45,62,,68,68,23,27,12,10,0.5,0.7
2026-01-07T2000,2277A,116.8304,32.7726,淮南市,潘集区政府,颗粒物(PM10),70,89,60,49,41,49,,63,62,30,22,7,7,0.6,0.5
2026-01-07T2000,2279A,116.8569,32.5949,淮南市,谢家集区政府,颗粒物(PM10),63,76,57,17,24,60,,63,63,24,25,9,8,0.4,0.4
2026-01-07T2000,2280A,116.8279,32.6333,淮南市,八公山区政府,颗粒物(PM10),51,52,40,22,21,63,,68,68,18,14,10,8,0.4,0.4
2026-01-07T2000,2894A,117.0561,32.6536,淮南市,经济技术开发区消防队,细颗粒物(PM2.5),69,83,66,50,36,47,,63,62,36,24,8,6,0.6,0.4
2026-01-07T2000,3329A,117.011,32.5891,淮南市,山南新区,颗粒物(PM10),75,99,62,52,25,52,,62,61,31,22,6,3,0.6,0.4
2026-01-07T2000,4209A,117.003137,32.644456,淮南市,国庆中路369号,颗粒物(PM10),58,66,58,38,34,43,,50,50,32,30,8,7,0.7,0.6
2026-01-07T2000,2446A,114.9021,30.474,黄冈市,职工中心,"颗粒物(PM10),细颗粒物(PM2.5)",57,63,43,40,28,63,,89,87,54,31,8,7,1.0,0.8
2026-01-07T2000,2929A,114.8858,30.4519,黄冈市,红卫路,细颗粒物(PM2.5),59,62,42,42,29,55,,84,84,57,36,8,8,0.9,0.7
2026-01-07T2000,3398A,114.9134,30.4446,黄冈市,市林业局,颗粒物(PM10),60,69,44,37,28,61,,89,89,52,33,6,6,0.9,0.8
2026-01-07T2000,2672A,102.02,35.5101,黄南藏族自治州,同仁县隆务镇,,42,42,27,8,13,58,,79,76,12,3,15,9,0.6,0.3
2026-01-07T2000,2295A,118.2905,29.6965,黄山市,延安路89号,细颗粒物(PM2.5),52,,35,36,34,53,,89,87,19,13,4,4,0.5,0.5
2026-01-07T2000,2297A,118.1369,30.2755,黄山市,黄山区政府5号楼,,32,32,41,20,30,44,,79,79,14,14,3,3,0.3,0.4
2026-01-07T2000,4210A,118.335445,29.720283,黄山市,滨江东路7-2号,细颗粒物(PM2.5),57,52,51,40,40,35,,81,78,30,15,/,/,/,/
2026-01-07T2000,2423A,115.0547,30.2332,黄石市,沈家营,细颗粒物(PM2.5),67,54,47,48,26,37,,86,81,50,27,5,7,1.2,1.2
2026-01-07T2000,2426A,114.899,30.211,黄石市,铁山,细颗粒物(PM2.5),69,78,55,50,38,30,,89,80,58,38,5,7,0.5,0.5
2026-01-07T2000,2427A,115.0259,30.2108,黄石市,团城山,细颗粒物(PM2.5),59,53,48,42,23,68,,93,91,30,22,7,7,0.6,0.7
2026-01-07T2000,3149A,115.0174,30.1591,黄石市,笔架山北路,颗粒物(PM10),60,69,70,26,34,70,,86,85,21,26,7,8,1.0,1.1
2026-01-07T2000,4185A,115.078022,30.21118,黄石市,磁湖东路29号,颗粒物(PM10),69,88,49,46,33,31,,70,63,53,33,7,7,1.1,0.9
2026-01-07T2000,1392A,114.4181,23.0528,惠州市,河南岸金山湖子站,颗粒物(PM10),53,55,41,34,28,61,,93,89,42,21,4,6,0.8,0.6
2026-01-07T2000,1393A,114.4055,23.0824,惠州市,下埔横江三路子站,,46,46,40,30,28,63,,102,98,35,13,7,8,0.5,0.3
2026-01-07T2000,1395A,114.4645,22.7832,惠州市,惠阳区承修路船湖子站,,47,47,42,31,28,77,,101,99,31,14,7,7,0.5,0.5
2026-01-07T2000,1396A,114.5316,22.7423,惠州市,大亚湾管委会子站,,36,36,38,24,26,83,,96,96,21,10,7,7,0.4,0.4
2026-01-07T2000,3314A,114.4334,22.8134,惠州市,惠阳秋长,颗粒物(PM10),56,61,41,27,28,78,,104,102,34,14,/,/,/,/
2026-01-07T2000,3452A,114.6521,22.7755,惠州市,大亚湾霞涌,颗粒物(PM10),52,53,39,30,26,84,,100,99,18,12,/,/,/,/
2026-01-07T2000,4300A,114.4089,23.1147,惠州市,文华一路1号,,47,47,40,30,30,61,,105,100,49,16,/,/,/,/
2026-01-07T2000,2240A,130.9618,45.2926,鸡西市,环保局,,30,30,54,20,30,55,,53,53,5,17,6,9,0.4,0.6
2026-01-07T2000,2243A,130.9294,45.2959,鸡西市,第一中学,,15,6,43,3,30,47,,54,53,7,18,4,4,0.7,0.7
2026-01-07T2000,3707A,131.0069,45.2988,鸡西市,欧美日汽修厂,,35,,76,24,44,61,,58,58,8,21,5,16,0.5,0.7
2026-01-07T2000,2367A,114.9753,27.0803,吉安市,红声器材厂,,42,42,48,23,30,66,,93,91,31,21,10,10,0.6,0.6
2026-01-07T2000,2369A,114.9903,27.1313,吉安市,市环境监测站,,39,39,45,20,31,65,,91,91,29,21,12,14,/,/
2026-01-07T2000,2370A,115.009527,27.096792,吉安市,青原区法院,颗粒物(PM10),51,52,49,29,32,55,,85,83,32,31,18,11,0.5,0.6
2026-01-07T2000,1772A,126.54,43.8622,吉林市,哈达湾,,,,44,,16,44,,64,58,25,12,6,8,0.8,0.9
2026-01-07T2000,1773A,126.5843,43.8358,吉林市,东局子,,33,33,35,22,16,40,,52,48,19,14,3,4,1.0,0.9
2026-01-07T2000,1774A,126.5051,43.8243,吉林市,电力学院,颗粒物(PM10),76,101,45,43,21,37,,59,53,28,11,13,10,1.0,0.5
2026-01-07T2000,1775A,126.6133,43.8971,吉林市,江北,细颗粒物(PM2.5),60,63,38,43,21,40,,55,50,20,14,24,10,1.2,1
2026-01-07T2000,1776A,126.5549,43.8304,吉林市,江南公园,,35,35,34,16,17,49,,61,57,17,12,40,12,0.5,0.4
2026-01-07T2000,2868A,126.4737,43.953,吉林市,九站,颗粒物(PM10),60,69,36,38,21,15,,54,42,47,19,8,12,0.9,0.5
2026-01-07T2000,1299A,116.9866,36.6118,济南市,科干所,,36,36,57,12,31,40,,57,53,34,34,7,10,0.7,0.9
2026-01-07T2000,1300A,116.9379,36.6652,济南市,农科所,,42,42,73,12,39,30,,60,56,42,37,9,8,0.7,0.8
2026-01-07T2000,1301A,117.1265,36.6736,济南市,开发区,,42,42,61,20,35,47,,60,58,37,34,5,8,0.7,0.8
2026-01-07T2000,1303A,117.0616,36.6865,济南市,省种子仓库,颗粒物(PM10),52,53,71,19,38,36,,65,62,49,39,10,10,0.6,0.8
2026-01-07T2000,1304A,116.9495185,36.644937,济南市,机床二厂,,44,44,73,12,43,38,,61,58,45,42,5,13,0.7,1
2026-01-07T2000,1305A,117.0496,36.6629,济南市,市监测站,,42,42,61,12,31,41,,60,58,34,29,6,8,0.6,0.7
2026-01-07T2000,1306A,116.7674,36.5458,济南市,长清党校,,44,44,68,22,39,31,,58,56,49,40,12,10,0.7,0.9
2026-01-07T2000,1961A,117.5323,36.6865,济南市,东山小学,,42,42,65,17,36,47,,69,66,30,36,6,7,0.8,0.9
2026-01-07T2000,3059A,117.7181,36.205,济南市,泰兴公司,颗粒物(PM10),53,56,135,29,102,41,,71,67,48,48,10,8,0.7,1.3
2026-01-07T2000,3064A,117.6861,36.2172,济南市,莱芜战役纪念馆,"颗粒物(PM10),细颗粒物(PM2.5)",52,53,132,36,100,44,,63,61,40,49,14,10,0.5,1.2
2026-01-07T2000,3494A,117.1673,36.9782,济南市,济阳区政府,,34,34,67,12,35,43,,32,,40,38,6,9,0.4,0.6
2026-01-07T2000,3495A,117.1168,36.6299,济南市,锦屏中学,,39,39,53,15,27,30,,64,55,38,27,3,6,0.7,0.7
2026-01-07T2000,4108A,117.7107,36.2385,济南市,山财大街5号,颗粒物(PM10),56,61,130,12,70,46,,75,70,42,42,12,8,0.6,0.8
2026-01-07T2000,4109A,116.9744,36.6889,济南市,无影山路12号,,,,78,10,38,,,61,61,,41,8,11,0.9,0.8
2026-01-07T2000,1653A,116.6229,35.4288,济宁市,火炬城,颗粒物(PM10),54,58,97,36,75,52,,63,63,28,39,7,8,0.4,0.7
2026-01-07T2000,3500A,116.5808,35.3703,济宁市,北湖一中,"颗粒物(PM10),细颗粒物(PM2.5)",53,55,92,37,72,53,,60,60,27,44,7,8,0.6,0.8
2026-01-07T2000,3501A,116.8251,35.5592,济宁市,服务中心,颗粒物(PM10),69,88,152,33,86,32,,49,49,52,60,12,14,0.7,1
2026-01-07T2000,3678A,116.5907,35.4054,济宁市,市第七中学,颗粒物(PM10),59,68,94,29,62,48,,64,64,37,42,13,12,0.6,0.8
2026-01-07T2000,4111A,116.6075,35.4566,济宁市,任和路,颗粒物(PM10),67,83,118,38,71,39,,58,58,39,43,10,9,0.5,0.8
2026-01-07T2000,4112A,116.5648,35.3921,济宁市,文体南路1号,颗粒物(PM10),57,63,110,21,64,53,,59,59,26,46,22,8,0.5,0.8
2026-01-07T2000,2255A,130.2749,46.8028,佳木斯市,佳纺,,46,44,41,32,31,45,,48,43,16,19,7,9,0.5,0.5
2026-01-07T2000,2257A,130.3258,46.7975,佳木斯市,环保局,,42,39,34,29,27,53,,51,46,11,18,8,8,0.7,0.8
2026-01-07T2000,4285A,130.363,46.806,佳木斯市,顺和街,,42,36,33,29,29,46,,43,37,13,20,10,9,0.4,0.6
2026-01-07T2000,4286A,130.3952,46.8268,佳木斯市,长安路196号,,41,41,35,27,24,55,,52,48,6,12,5,6,0.4,0.4
2026-01-07T2000,1252A,120.7439,30.778,嘉兴市,清河小学,细颗粒物(PM2.5),69,77,62,50,45,21,,77,69,76,29,7,6,0.8,0.8
2026-01-07T2000,1253A,120.7261,30.7477,嘉兴市,嘉兴学院,细颗粒物(PM2.5),58,62,56,41,41,48,,79,76,45,30,9,8,1.1,0.9
2026-01-07T2000,2872A,120.7845,30.7524,嘉兴市,南湖区残联,细颗粒物(PM2.5),77,67,57,56,47,57,,88,84,46,27,6,6,0.7,0.7
2026-01-07T2000,3407A,120.6915,30.7741,嘉兴市,秀洲住建,细颗粒物(PM2.5),85,88,63,63,48,10,,83,74,78,31,7,7,0.8,0.5
2026-01-07T2000,1945A,98.291,39.7705,嘉峪关市,气象局,,24,24,32,9,13,72,,78,78,15,11,4,10,0.4,0.4
2026-01-07T2000,2884A,98.2672,39.7978,嘉峪关市,酒钢宾馆,,24,24,43,9,17,75,,75,68,11,12,11,23,0.4,0.8
2026-01-07T2000,3248A,98.2644,39.7723,嘉峪关市,雄关区,,35,33,29,24,16,69,,80,80,19,14,15,15,0.2,0.3
2026-01-07T2000,1383A,113.1063,22.6058,江门市,北街,颗粒物(PM10),53,55,43,32,34,80,,102,102,38,24,/,/,/,/
2026-01-07T2000,1384A,113.073,22.5835,江门市,西区,"颗粒物(PM10),细颗粒物(PM2.5)",55,60,49,39,31,73,,96,95,40,27,/,/,/,/
2026-01-07T2000,1385A,113.0218,22.531,江门市,圭峰西,,46,34,42,32,34,91,,100,100,25,22,/,/,/,/
2026-01-07T2000,1386A,113.0826,22.5947,江门市,东湖,,50,50,42,34,33,75,,102,100,39,26,9,9,0.6,0.5
2026-01-07T2000,3311A,113.1077,22.5647,江门市,江海富民,,,48,49,,29,76,,103,102,54,31,/,/,0.7,0.6
2026-01-07T2000,3449A,113.0496,22.4669,江门市,新会银湖,颗粒物(PM10),62,74,46,43,37,34,,96,90,64,25,9,9,0.5,0.6
2026-01-07T2000,3335A,113.3137,35.2643,焦作市,马村街道办,颗粒物(PM10),56,62,43,30,22,76,,80,80,18,14,7,7,0.5,0.5
2026-01-07T2000,3336A,113.2464,35.2374,焦作市,焦作技师学院,颗粒物(PM10),55,60,44,24,19,79,,80,80,17,18,8,8,0.3,0.3
2026-01-07T2000,3477A,113.1656,35.2536,焦作市,中站许衡医院,,49,44,40,34,28,76,,81,81,16,14,6,7,0.5,0.4
2026-01-07T2000,3981A,113.2456,35.18,焦作市,原李万街道办,颗粒物(PM10),57,63,49,29,16,70,,84,83,17,11,9,7,0.5,0.4
2026-01-07T2000,4264A,113.234,35.219,焦作市,新安路1731号,颗粒物(PM10),52,54,45,30,22,80,,80,80,14,15,5,5,0.4,0.4
2026-01-07T2000,4295A,113.2722,35.2121,焦作市,人民路3066号,颗粒物(PM10),55,60,50,22,16,72,,73,73,8,10,6,6,0.4,0.4
2026-01-07T2000,1708A,116.3701,23.5345,揭阳市,新兴,细颗粒物(PM2.5),65,62,39,47,31,66,,95,92,42,16,12,9,0.7,0.5
2026-01-07T2000,1709A,116.3261,23.5442,揭阳市,西马,颗粒物(PM10),57,64,43,36,28,64,,92,90,28,14,7,4,0.9,0.7
2026-01-07T2000,1710A,116.361,23.5627,揭阳市,东兴,细颗粒物(PM2.5),62,58,41,44,25,51,,90,84,36,17,8,9,/,/
2026-01-07T2000,1711A,116.4151,23.5295,揭阳市,渔湖,颗粒物(PM10),62,74,40,37,25,68,,95,90,40,17,6,4,/,/
2026-01-07T2000,3320A,116.4028,23.5699,揭阳市,曲溪,颗粒物(PM10),68,85,41,40,27,72,,103,98,40,13,7,3,0.6,0.4
2026-01-07T2000,1944A,102.1691,38.5166,金昌市,天庆家园,颗粒物(PM10),63,75,46,31,16,38,,80,74,41,16,12,10,0.9,0.7
2026-01-07T2000,4022A,102.1648,38.5369,金昌市,金川区人防中心,细颗粒物(PM2.5),59,44,39,42,18,36,,82,75,45,14,8,8,1.2,0.6
2026-01-07T2000,4239A,102.193042,38.531887,金昌市,长春路96号,颗粒物(PM10),64,77,45,29,15,60,,81,78,27,11,36,12,0.8,0.6
2026-01-07T2000,1262A,119.6478,29.0773,金华市,十五中,细颗粒物(PM2.5),63,66,58,45,41,39,,93,88,63,34,4,5,0.7,0.5
2026-01-07T2000,1263A,119.6859,29.1032,金华市,监测站,细颗粒物(PM2.5),65,70,61,47,44,9,,77,71,96,46,3,4,0.5,0.4
2026-01-07T2000,3659A,119.656,29.1132,金华市,气象局,细颗粒物(PM2.5),68,77,62,49,41,4,,80,71,100,46,4,3,1.2,0.9
2026-01-07T2000,1767A,121.1114,41.0879,锦州市,南山,,45,35,28,31,16,41,,71,63,28,14,12,12,0.6,0.6
2026-01-07T2000,1768A,121.060361,40.842794,锦州市,开发区,,40,40,39,26,18,37,,64,56,28,24,16,12,0.7,0.6
2026-01-07T2000,1769A,121.1836,41.1118,锦州市,百股街道,,,65,31,48,10,,,69,63,33,11,10,7,1.2,0.7
2026-01-07T2000,1770A,121.1176,41.1224,锦州市,天安街道,细颗粒物(PM2.5),53,48,31,37,11,39,,79,67,33,13,15,15,0.8,0.5
2026-01-07T2000,1771A,121.1303,41.1385,锦州市,北湖公园,细颗粒物(PM2.5),95,,29,71,14,24,,71,59,41,8,19,11,1.1,0.5
2026-01-07T2000,2160A,112.8496,35.5051,晋城市,自来水公司,颗粒物(PM10),53,55,44,32,22,68,,70,69,19,14,7,6,0.8,0.7
2026-01-07T2000,2162A,112.8509,35.4886,晋城市,市环保局,颗粒物(PM10),54,57,42,27,19,76,,79,79,21,14,6,6,0.7,0.6
2026-01-07T2000,3620A,112.8258,35.4804,晋城市,泽州一中,颗粒物(PM10),58,66,43,27,16,80,,83,83,16,12,6,5,0.4,0.3
2026-01-07T2000,4078A,112.8246,35.5152,晋城市,前书院路,颗粒物(PM10),56,61,48,32,17,72,,72,72,14,12,7,6,0.4,0.3
2026-01-07T2000,4079A,112.8864,35.4773,晋城市,祥云街666号,颗粒物(PM10),55,60,45,26,22,74,,78,78,20,14,7,6,0.6,0.4
2026-01-07T2000,2174A,112.6992,37.6984,晋中市,榆次区政府,颗粒物(PM10),67,83,66,31,26,64,,72,71,19,22,6,11,0.5,0.6
2026-01-07T2000,2865A,112.7195,37.683,晋中市,榆次三中,颗粒物(PM10),65,80,68,24,19,64,,75,73,14,17,7,12,0.6,0.2
2026-01-07T2000,4080A,112.7375,37.7215,晋中市,广安街188号,颗粒物(PM10),63,76,66,36,26,67,,74,74,13,19,8,11,0.4,0.4
2026-01-07T2000,4200A,112.7478,37.6954,晋中市,迎宾街26号,颗粒物(PM10),63,75,68,24,22,68,,74,73,17,22,7,13,0.5,0.5
2026-01-07T2000,2439A,112.2012,31.048,荆门市,竹园小学,细颗粒物(PM2.5),87,104,83,64,62,9,,77,68,80,44,2,3,0.8,0.8
2026-01-07T2000,2440A,112.1968,30.9892,荆门市,掇刀,,,52,77,45,54,57,,82,79,,40,,6,0.6,0.7
2026-01-07T2000,3012A,112.1849,31.0361,荆门市,西山林语,细颗粒物(PM2.5),60,43,71,43,49,49,,84,81,28,30,4,7,0.5,0.7
2026-01-07T2000,3547A,112.1631,31.0134,荆门市,龙泉中学南校,细颗粒物(PM2.5),57,53,76,40,58,72,,84,84,19,20,9,9,0.6,0.8
2026-01-07T2000,4124A,112.2213,31.0654,荆门市,新台西路6号,细颗粒物(PM2.5),99,101,91,74,73,39,,76,74,55,48,9,11,0.9,0.6
2026-01-07T2000,1844A,112.2493,30.3198,荆州市,市图书馆,细颗粒物(PM2.5),60,54,66,43,73,74,,91,91,51,30,7,9,1.1,0.9
2026-01-07T2000,1845A,112.2009,30.3543,荆州市,市委党校,细颗粒物(PM2.5),62,62,71,44,70,41,,75,73,54,35,4,5,0.9,0.9
2026-01-07T2000,3194A,112.2749,30.3124,荆州市,管委会,细颗粒物(PM2.5),53,52,73,37,75,44,,86,82,50,38,7,7,0.9,1
2026-01-07T2000,4268A,112.1722,30.3366,荆州市,学苑路85号,细颗粒物(PM2.5),62,45,67,44,62,70,,92,92,28,25,14,12,0.6,0.8
2026-01-07T2000,2343A,117.2114,29.2931,景德镇市,老干部活动中心,细颗粒物(PM2.5),63,60,43,45,35,52,,78,78,27,24,12,10,0.6,0.5
2026-01-07T2000,2344A,117.1893,29.2789,景德镇市,兽医站,细颗粒物(PM2.5),55,52,44,39,32,28,,82,78,59,26,24,12,1.0,0.9
2026-01-07T2000,2346A,117.246,29.2958,景德镇市,陶研所,细颗粒物(PM2.5),62,,43,44,38,44,,77,77,19,23,3,5,0.4,0.5
2026-01-07T2000,4289A,117.154766,29.256967,景德镇市,青少年活动中心,细颗粒物(PM2.5),59,65,50,42,32,25,,83,78,69,35,118,27,/,/
2026-01-07T2000,1803A,115.9873,29.6816,九江市,十里,细颗粒物(PM2.5),57,55,42,40,30,7,,92,78,106,53,8,5,1.0,0.8
2026-01-07T2000,1804A,115.9583,29.7047,九江市,茅山头,,50,50,39,22,29,28,,88,77,63,37,4,5,0.8,0.8
2026-01-07T2000,1805A,115.9877,29.7295,九江市,西园,颗粒物(PM10),54,58,41,36,24,58,,90,85,62,41,3,4,0.8,0.7
2026-01-07T2000,1808A,115.9112,29.6038,九江市,综合工业园,颗粒物(PM10),63,76,42,39,31,60,,90,85,65,44,3,4,0.8,0.8
2026-01-07T2000,3190A,116.0254,29.6995,九江市,外国语学校,颗粒物(PM10),57,63,38,34,24,37,,81,74,69,38,8,8,0.9,0.8
2026-01-07T2000,4253A,116.010205,29.659402,九江市,莲花大道8号,细颗粒物(PM2.5),65,58,39,47,24,61,,85,81,24,16,3,4,0.5,0.4
2026-01-07T2000,4240A,98.495752,39.733935,酒泉市,玉门东路5号,颗粒物(PM10),73,95,66,46,29,50,,66,64,30,17,11,12,0.8,0.6
2026-01-07T2000,4241A,98.5099,39.7506,酒泉市,北大街108号,颗粒物(PM10),84,117,63,40,25,31,,65,61,52,20,11,10,1.2,0.6
2026-01-07T2000,2698A,76.0071,39.466,喀什地区,巡警大队,细颗粒物(PM2.5),69,71,118,50,110,64,,46,46,17,35,3,4,0.9,2
2026-01-07T2000,2699A,75.9756,39.4693,喀什地区,吾办,细颗粒物(PM2.5),80,83,102,59,83,48,,46,46,30,33,3,3,1.1,1.7
2026-01-07T2000,4027A,75.9485,39.4688,喀什地区,老干局,细颗粒物(PM2.5),85,87,132,63,92,55,,52,52,23,29,3,3,1.4,2.3
2026-01-07T2000,1824A,114.3389,34.778,开封市,肿瘤医院,颗粒物(PM10),63,75,43,42,22,36,,71,66,50,20,8,6,0.7,0.5
2026-01-07T2000,1826A,114.2884,34.7966,开封市,世纪星幼儿园,颗粒物(PM10),65,79,40,38,21,25,,79,65,60,23,4,4,0.8,0.4
2026-01-07T2000,3147A,114.3434,34.8101,开封市,龙亭公园,细颗粒物(PM2.5),70,79,49,51,21,50,,71,68,43,26,10,9,0.5,0.3
2026-01-07T2000,3210A,114.3645,34.7955,开封市,汴京公园,颗粒物(PM10),70,89,51,40,22,39,,66,63,44,22,8,6,0.6,0.5
2026-01-07T2000,3473A,114.2485,34.8306,开封市,技师学院,细颗粒物(PM2.5),53,45,39,37,21,42,,73,69,38,23,6,6,0.8,0.6
2026-01-07T2000,3592A,114.4518,34.7503,开封市,祥符区生态环境局,颗粒物(PM10),85,119,51,40,21,31,,69,63,56,25,5,5,0.6,0.5
2026-01-07T2000,1951A,84.886,45.6029,克拉玛依市,长征新村,,,,117,,81,31,,34,34,,43,4,5,1.0,1.2
2026-01-07T2000,1952A,84.8894,45.5827,克拉玛依市,南林小区,细颗粒物(PM2.5),94,131,115,70,62,45,,37,37,23,30,4,4,1.3,1.4
2026-01-07T2000,1954A,84.896,44.3328,克拉玛依市,独山子区,细颗粒物(PM2.5),90,102,178,67,120,61,,84,84,62,42,5,6,1.1,1.1
2026-01-07T2000,1955A,85.6888,46.0909,克拉玛依市,乌尔禾区商贸楼,细颗粒物(PM2.5),122,94,82,92,71,49,,42,42,35,38,5,5,1.3,1.2
2026-01-07T2000,3612A,85.1045,45.6895,克拉玛依市,白碱滩区新站,细颗粒物(PM2.5),130,132,141,99,91,48,,37,34,18,13,7,7,1.0,1
2026-01-07T2000,2697A,76.1457,39.7143,克孜勒苏柯尔克孜自治州,市人民政府,细颗粒物(PM2.5),78,82,97,57,66,62,,60,60,16,16,6,5,0.4,0.4
2026-01-07T2000,3665A,76.1654,39.7157,克孜勒苏柯尔克孜自治州,克州文化中心,细颗粒物(PM2.5),79,82,83,58,64,58,,57,57,17,14,4,3,0.9,0.9
2026-01-07T2000,1450A,102.8203,24.889,昆明市,呈贡新区,,42,31,24,29,21,24,,37,29,19,15,3,3,0.5,0.7
2026-01-07T2000,1452A,102.7253,25.0904,昆明市,龙泉镇,细颗粒物(PM2.5),68,62,28,49,24,12,,27,23,29,18,4,2,1.0,0.9
2026-01-07T2000,1453A,102.7267,25.0378,昆明市,东风东路,细颗粒物(PM2.5),69,67,41,50,26,2,,32,24,44,25,5,3,0.9,0.7
2026-01-07T2000,1454A,102.6744,25.0671,昆明市,金鼎山,"颗粒物(PM10),细颗粒物(PM2.5)",54,57,33,38,25,9,,31,27,39,20,3,2,1.0,0.9
2026-01-07T2000,1455A,102.6643,25.0401,昆明市,碧鸡广场,细颗粒物(PM2.5),52,47,31,36,23,12,,31,29,38,23,2,2,0.7,0.6
2026-01-07T2000,3179A,102.7491,25.012,昆明市,官渡区博物馆,细颗粒物(PM2.5),63,62,33,45,26,3,,33,23,46,29,3,2,0.9,0.8
2026-01-07T2000,3375A,102.8016,24.8336,昆明市,青年创业园,,43,41,28,30,21,23,,39,36,16,10,2,3,0.7,0.7
2026-01-07T2000,3550A,102.8,24.9787,昆明市,昆明学院,细颗粒物(PM2.5),53,52,35,37,25,17,,38,24,29,22,2,2,0.9,0.9
2026-01-07T2000,3551A,102.5969,24.6738,昆明市,晋宁区生态环境分局,,49,46,26,34,19,10,,27,25,21,13,2,2,0.8,0.8
2026-01-07T2000,3552A,102.6673,24.9861,昆明市,云天化总部,,45,44,37,31,24,10,,34,30,41,24,4,4,1.0,0.9
2026-01-07T2000,1456A,91.132,29.6515,拉萨市,八廓街,,30,23,45,7,20,94,,94,94,10,19,8,8,0.6,1
2026-01-07T2000,1457A,91.1221,29.6748,拉萨市,市环保局,,31,31,72,20,42,75,,82,82,17,30,10,11,0.9,1.8
2026-01-07T2000,1458A,91.0874,29.6476,拉萨市,区监测站,,28,18,38,6,18,87,,85,85,14,35,4,5,0.5,1.1
2026-01-07T2000,1459A,91.1774,29.6541,拉萨市,西藏大学,,25,24,41,16,20,79,,87,87,26,32,7,7,0.6,0.8
2026-01-07T2000,1460A,90.9798,29.6586,拉萨市,区辐射站,,45,45,56,18,28,56,,80,80,47,38,5,5,0.7,0.8
2026-01-07T2000,1461A,91.0831,29.6292,拉萨市,拉萨火车站,,30,19,36,3,13,96,,90,90,6,16,5,4,0.4,0.6
2026-01-07T2000,2520A,109.2203,23.7252,来宾市,来宾技工学校,细颗粒物(PM2.5),60,52,43,43,32,76,,99,98,23,15,8,9,0.5,0.5
2026-01-07T2000,3535A,109.1781,23.7293,来宾市,兴宾区政府,,38,38,49,20,38,86,,104,104,18,12,6,7,0.5,0.6
2026-01-07T2000,4002A,109.2312,23.7428,来宾市,中南小学,细颗粒物(PM2.5),59,49,45,42,36,55,,100,96,45,21,7,8,0.6,0.6
2026-01-07T2000,1479A,103.8309,36.0467,兰州市,铁路设计院,,,,,,,,,,,,,,,,
2026-01-07T2000,3241A,103.7439,36.0841,兰州市,百合公园,细颗粒物(PM2.5),77,93,86,56,61,15,,47,43,85,64,18,22,1.2,1.6
2026-01-07T2000,3242A,103.9613,35.9985,兰州市,和平,细颗粒物(PM2.5),110,107,83,83,67,34,,65,64,47,41,12,14,1.1,1.5
2026-01-07T2000,4236A,103.629272,36.093822,兰州市,庄浪东路808号,细颗粒物(PM2.5),78,87,94,57,63,24,,51,50,72,57,17,25,1.2,1.4
2026-01-07T2000,4237A,103.7251,36.104344,兰州市,安宁西路88号,细颗粒物(PM2.5),100,75,100,75,63,43,,61,61,60,64,16,22,0.8,1.2
2026-01-07T2000,4238A,103.846982,36.067567,兰州市,北滨河东路1号,细颗粒物(PM2.5),95,100,83,71,55,13,,60,58,99,65,17,16,1.5,1.7
2026-01-07T2000,1067A,116.6712,39.5109,廊坊市,药材公司,颗粒物(PM10),52,53,26,18,9,12,,62,52,59,26,2,2,0.8,0.6
2026-01-07T2000,1068A,116.7215,39.5592,廊坊市,开发区,,44,44,24,15,9,8,,64,51,67,31,4,3,0.9,0.3
2026-01-07T2000,1070A,116.7246,39.5273,廊坊市,北华航天学院,,36,36,29,16,8,25,,63,54,51,25,2,2,0.6,0.3
2026-01-07T2000,2919A,116.7022,39.5454,廊坊市,河北工业大学,,40,40,30,21,9,29,,62,55,46,27,3,3,0.5,0.3
2026-01-07T2000,2536A,103.7629,29.5844,乐山市,牛耳桥,细颗粒物(PM2.5),54,50,54,38,45,42,,70,67,48,28,8,8,0.6,0.6
2026-01-07T2000,2537A,103.7501,29.6002,乐山市,市第三水厂,细颗粒物(PM2.5),55,53,57,39,47,49,,66,66,45,34,6,6,0.6,0.7
2026-01-07T2000,2538A,103.7571,29.5664,乐山市,市监测站,细颗粒物(PM2.5),64,56,56,46,46,57,,68,68,27,27,8,8,0.5,0.7
2026-01-07T2000,3361A,103.7313,29.563,乐山市,理工大学,细颗粒物(PM2.5),65,62,57,47,44,52,,70,70,30,27,5,5,0.4,0.6
2026-01-07T2000,2599A,100.2497,26.8802,丽江市,丽江古城,,36,36,25,7,14,68,,89,86,20,11,8,8,0.5,0.5
2026-01-07T2000,2600A,100.2203,26.8906,丽江市,市中心,,31,31,19,16,10,56,,88,83,35,14,8,7,0.7,0.4
2026-01-07T2000,1267A,119.9141,28.4513,丽水市,监测站大楼,细颗粒物(PM2.5),52,48,40,36,30,56,,84,84,27,27,5,7,0.5,0.7
2026-01-07T2000,1268A,119.93,28.4589,丽水市,莲都小学,,40,40,43,28,30,59,,87,87,35,28,/,/,/,/
2026-01-07T2000,1269A,119.8794,28.4232,丽水市,余庄前,,40,37,41,28,33,46,,81,78,20,19,4,4,0.3,0.4
2026-01-07T2000,1173A,119.1759,34.5885,连云港市,市环境监测站,颗粒物(PM10),63,75,182,41,152,24,,48,46,52,46,16,17,1.0,1.3
2026-01-07T2000,3000A,119.3577,34.6971,连云港市,德源药业,颗粒物(PM10),85,119,195,44,140,4,,46,39,70,52,8,6,0.8,0.8
2026-01-07T2000,3007A,119.178,34.8442,连云港市,新城一中,颗粒物(PM10),64,78,192,28,164,41,,44,42,37,47,12,13,1.1,1.5
2026-01-07T2000,3008A,119.3607,34.7519,连云港市,胡沟管理处,颗粒物(PM10),52,53,163,22,128,34,,51,47,48,50,11,11,0.7,1.2
2026-01-07T2000,3009A,119.1478,34.5913,连云港市,矿山设计院,颗粒物(PM10),65,80,193,36,144,22,,51,45,53,43,10,12,1.2,1.4
2026-01-07T2000,3434A,119.2414,34.6539,连云港市,工贸学校,细颗粒物(PM2.5),97,106,172,72,142,38,,52,50,36,36,19,16,1.0,1.2
2026-01-07T2000,3664A,119.4171,34.734,连云港市,连云街道,,44,44,126,26,97,52,,48,48,34,37,10,9,0.7,1.1
2026-01-07T2000,2573A,102.2629,27.8981,凉山彝族自治州,西昌市政府,,48,37,35,33,34,50,,52,52,10,16,5,6,0.7,0.9
2026-01-07T2000,2574A,102.2686,27.885,凉山彝族自治州,凉山州政府,,46,46,30,30,27,50,,53,53,14,15,6,8,0.3,0.4
2026-01-07T2000,4229A,102.2342,27.8859,凉山彝族自治州,凯乐南路30号,,38,38,24,24,16,52,,55,55,16,18,8,6,0.8,0.7
2026-01-07T2000,2212A,123.1978,41.2036,辽阳市,宏伟区,,44,44,44,18,19,43,,59,53,13,9,5,5,0.5,0.4
2026-01-07T2000,2213A,123.1684,41.2497,辽阳市,新华园,颗粒物(PM10),51,51,47,19,13,43,,60,54,18,11,6,6,0.7,0.6
2026-01-07T2000,2214A,123.2355,41.2663,辽阳市,滨河路,颗粒物(PM10),52,54,51,18,14,47,,59,54,11,7,5,5,0.3,0.3
2026-01-07T2000,4083A,123.153,41.2874,辽阳市,铁西路150号,,,134,50,,9,16,,61,54,50,14,24,10,1.5,0.8
2026-01-07T2000,2227A,125.1359,42.8845,辽源市,环保局,颗粒物(PM10),72,93,76,24,14,35,,62,54,31,10,4,6,0.8,0.4
2026-01-07T2000,4085A,125.0998,42.9134,辽源市,安宁大街333号,,43,43,51,27,8,41,,68,60,22,9,5,7,0.5,0.3
2026-01-07T2000,1625A,115.9789,36.4372,聊城市,区政府,,44,44,57,19,31,40,,66,63,43,38,12,15,0.6,0.8
2026-01-07T2000,3200A,115.9772,36.4986,聊城市,监控中心,颗粒物(PM10),52,53,61,34,35,30,,69,63,50,40,17,14,0.6,0.7
2026-01-07T2000,3513A,116.0443,36.436,聊城市,九州社区,颗粒物(PM10),54,57,70,20,34,40,,76,70,43,27,5,8,0.4,0.5
2026-01-07T2000,4018A,116.0564,36.4609,聊城市,星美广场,,,67,73,25,33,15,,63,51,,28,5,6,0.4,0.6
2026-01-07T2000,4113A,116.0091,36.4495,聊城市,利民路,颗粒物(PM10),53,55,59,16,27,21,,62,57,64,37,4,9,0.5,0.5
2026-01-07T2000,2632A,94.3683,29.6373,林芝市,林芝监测站,,27,21,8,12,6,85,,88,88,2,2,4,4,0.3,0.3
2026-01-07T2000,2633A,94.3616,29.6634,林芝市,林芝人民医院,,31,31,13,12,7,80,,81,81,2,4,7,6,0.4,0.5
2026-01-07T2000,2603A,100.0779,23.8981,临沧市,市环保局,,,,32,,41,,,75,75,28,9,8,6,1.0,0.5
2026-01-07T2000,2604A,100.0894,23.882,临沧市,市气象局,,41,41,34,28,23,47,,72,72,20,11,7,6,0.6,0.5
2026-01-07T2000,1733A,111.5552,36.0791,临汾市,临钢医院,颗粒物(PM10),72,93,68,41,35,22,,66,60,54,27,6,8,0.8,0.8
2026-01-07T2000,1734A,111.4984,36.0734,临汾市,技工学校,颗粒物(PM10),71,91,68,44,41,51,,65,65,30,30,7,10,0.7,1
2026-01-07T2000,1736A,111.5017,36.0857,临汾市,市委,颗粒物(PM10),74,98,72,27,30,49,,71,68,39,32,9,12,1.0,1
2026-01-07T2000,3018A,111.5048,36.1015,临汾市,唐尧大酒店,颗粒物(PM10),69,87,68,27,28,52,,73,70,35,26,6,7,1.1,1
2026-01-07T2000,4244A,111.4879,36.053,临汾市,启星学校,颗粒物(PM10),74,97,67,38,40,33,,69,66,58,41,8,10,1.1,1.1
2026-01-07T2000,4271A,103.2464,35.6123,临夏回族自治州,滨河东路1号,细颗粒物(PM2.5),95,98,144,71,88,31,,71,70,51,31,6,5,1.1,1.4
2026-01-07T2000,4310A,103.207136,35.599807,临夏回族自治州,新华街21号,细颗粒物(PM2.5),94,117,127,70,88,48,,68,68,34,34,14,9,1.1,1.4
2026-01-07T2000,1618A,118.3429,35.0532,临沂市,沂河小区,细颗粒物(PM2.5),83,112,164,61,137,6,,52,46,81,55,16,14,1.2,1.2
2026-01-07T2000,1619A,118.2962,35.0568,临沂市,鲁南制药厂,颗粒物(PM10),79,107,166,56,127,12,,53,46,81,59,28,18,1.2,1.2
2026-01-07T2000,1620A,118.2793,34.9976,临沂市,新光毛纺厂,细颗粒物(PM2.5),89,117,168,66,133,17,,55,48,72,52,37,17,1.1,1.3
2026-01-07T2000,1621A,118.3955,35.0889,临沂市,河东保险公司,细颗粒物(PM2.5),112,149,160,84,121,6,,52,45,83,47,20,12,1.3,1.2
2026-01-07T2000,3370A,118.3563,35.0215,临沂市,十里堡居委,颗粒物(PM10),82,114,165,51,117,6,,52,47,87,58,16,14,1.3,1.4
2026-01-07T2000,3496A,118.359,35.1067,临沂市,南坊新区,,,107,153,63,118,,,58,58,67,56,14,13,1.2,1.1
2026-01-07T2000,3860A,118.3915,35.0297,临沂市,皇山花园小区,颗粒物(PM10),95,139,170,66,116,8,,55,49,92,57,20,16,1.2,1.3
2026-01-07T2000,1870A,109.4854,24.3898,柳州市,柳东小学,细颗粒物(PM2.5),57,47,45,40,40,97,,102,102,23,10,11,9,0.6,0.5
2026-01-07T2000,1871A,109.4109,24.3304,柳州市,环保监测站,,,64,55,34,41,,,89,89,46,25,6,7,0.9,0.7
2026-01-07T2000,1872A,109.3886,24.3408,柳州市,河西水厂,"颗粒物(PM10),细颗粒物(PM2.5)",62,74,68,44,47,42,,91,87,52,31,11,12,0.8,0.6
2026-01-07T2000,1873A,109.4263,24.2951,柳州市,市四中,细颗粒物(PM2.5),72,84,52,52,37,15,,94,81,71,28,10,10,1.0,0.7
2026-01-07T2000,1874A,109.396,24.3658,柳州市,市九中,颗粒物(PM10),57,63,57,29,44,62,,91,89,32,27,9,11,0.7,0.7
2026-01-07T2000,1875A,109.4912,24.3164,柳州市,古亭山,细颗粒物(PM2.5),69,61,40,50,27,24,,91,82,60,23,11,10,0.7,0.7
2026-01-07T2000,3402A,109.5422,24.3994,柳州市,市二中,"颗粒物(PM10),细颗粒物(PM2.5)",77,103,46,56,39,16,,99,91,83,23,9,8,0.9,0.5
2026-01-07T2000,2307A,116.5078,31.7369,六安市,监测大楼,,46,46,35,27,23,72,,79,79,22,20,4,4,0.1,0.5
2026-01-07T2000,2308A,116.4738,31.7642,六安市,皖西学院,颗粒物(PM10),53,56,41,32,23,71,,86,84,24,21,5,5,0.4,0.4
2026-01-07T2000,2309A,116.4997,31.7904,六安市,朝阳厂,颗粒物(PM10),51,52,34,35,20,63,,80,78,34,22,6,6,0.5,0.5
2026-01-07T2000,2310A,116.5566,31.7885,六安市,开发区,细颗粒物(PM2.5),64,56,44,46,27,45,,78,72,47,27,4,4,0.4,0.4
2026-01-07T2000,2577A,104.8293,26.592,六盘水市,黄土坡,,43,43,51,28,37,64,,56,56,18,16,14,12,0.6,0.7
2026-01-07T2000,2579A,104.8481,26.5898,六盘水市,民中,,49,48,48,34,40,60,,51,51,19,18,6,5,0.6,0.6
2026-01-07T2000,2580A,104.9541,26.5506,六盘水市,双水,细颗粒物(PM2.5),55,44,45,39,34,72,,64,64,11,10,4,4,0.6,0.5
2026-01-07T2000,4151A,104.8899,26.5685,六盘水市,钟山大道中段564号,颗粒物(PM10),56,61,57,37,37,62,,59,59,19,11,8,7,0.9,0.9
2026-01-07T2000,2336A,117.022,25.1031,龙岩市,龙岩市监测站,,29,22,30,20,22,92,,100,99,13,16,12,21,0.3,0.5
2026-01-07T2000,2337A,117.0257,25.0662,龙岩市,闽西职业技术学院,,33,,32,23,24,90,,102,101,12,14,8,7,0.5,0.5
2026-01-07T2000,2338A,117.0195,25.0306,龙岩市,龙岩学院,,29,24,30,20,24,80,,96,93,11,10,7,8,/,/
2026-01-07T2000,2885A,104.9344,33.3827,陇南市,滨江中学,细颗粒物(PM2.5),189,215,76,142,41,7,,62,49,94,42,59,15,6.2,1.8
2026-01-07T2000,3247A,104.9551,33.3709,陇南市,市总工会,颗粒物(PM10),71,92,113,48,38,30,,66,65,49,31,10,9,1.1,0.9
2026-01-07T2000,2488A,111.9984,27.7346,娄底市,市监测站,细颗粒物(PM2.5),90,88,77,67,60,49,,84,84,53,41,10,15,1.4,1.4
2026-01-07T2000,2491A,111.9888,27.7035,娄底市,市政府,细颗粒物(PM2.5),74,84,60,54,48,5,,84,77,84,23,5,6,1.8,1
2026-01-07T2000,4127A,111.9812,27.7591,娄底市,涟钢职大,细颗粒物(PM2.5),95,99,71,71,44,37,,84,84,59,33,9,11,0.8,1.9
2026-01-07T2000,4128A,112.0303,27.7457,娄底市,娄底体校,细颗粒物(PM2.5),70,84,57,51,43,42,,74,74,37,23,3,7,1.0,1
2026-01-07T2000,1894A,105.4427,28.9063,泸州市,小市上码头,细颗粒物(PM2.5),60,59,81,43,58,51,,64,64,44,32,9,10,1.0,1
2026-01-07T2000,1895A,105.4241,28.8573,泸州市,兰田宪桥,细颗粒物(PM2.5),73,64,75,53,62,28,,50,50,50,29,8,8,1.1,1
2026-01-07T2000,1896A,105.4378,28.8833,泸州市,市环监站,细颗粒物(PM2.5),54,52,76,38,56,65,,64,64,36,39,8,8,0.9,1
2026-01-07T2000,4272A,105.3689,28.7783,泸州市,纳溪中医医院,细颗粒物(PM2.5),107,112,78,80,61,5,,50,49,52,26,8,8,1.1,0.9
2026-01-07T2000,2183A,111.1447,37.5212,吕梁市,环保局,颗粒物(PM10),70,90,93,48,34,44,,58,58,20,35,7,6,0.5,0.6
2026-01-07T2000,2185A,111.1285,37.5338,吕梁市,自来水公司,颗粒物(PM10),74,97,115,38,39,42,,57,56,20,31,6,9,0.5,0.5
2026-01-07T2000,2867A,111.1225,37.5093,吕梁市,马茂庄小学,颗粒物(PM10),77,104,109,33,35,40,,53,53,25,38,7,8,0.7,0.7
2026-01-07T2000,1812A,112.3934,34.6517,洛阳市,市委党校,颗粒物(PM10),57,63,41,33,23,47,,76,72,45,18,9,9,0.5,0.4
2026-01-07T2000,1815A,112.494,34.6883,洛阳市,河南林校,颗粒物(PM10),60,69,54,30,21,76,,78,78,16,21,9,13,0.5,0.6
2026-01-07T2000,1816A,112.3843,34.623,洛阳市,开发区管委会,颗粒物(PM10),62,73,42,32,22,50,,73,70,33,17,9,10,0.4,0.3
2026-01-07T2000,1817A,112.4263,34.6249,洛阳市,市委新办公区,颗粒物(PM10),60,70,42,30,27,62,,79,78,23,14,8,9,0.5,0.4
2026-01-07T2000,3340A,112.6005,34.6323,洛阳市,伊滨,颗粒物(PM10),58,66,43,28,25,66,,77,76,17,15,7,7,0.3,0.5
2026-01-07T2000,3341A,112.495,34.6338,洛阳市,中移产业园,颗粒物(PM10),58,65,43,32,26,68,,77,76,25,20,9,10,0.4,0.4
2026-01-07T2000,3593A,112.5736,34.8993,洛阳市,吉利监测站,,50,50,41,25,21,76,,89,88,25,22,7,8,0.6,0.6
2026-01-07T2000,3635A,112.3678,34.6623,洛阳市,河科大西苑校区,颗粒物(PM10),60,69,46,29,22,67,,77,75,25,16,8,9,0.5,0.4
2026-01-07T2000,3636A,112.4387,34.678,洛阳市,英才小学,颗粒物(PM10),59,67,49,35,30,64,,84,82,44,27,10,12,0.6,0.5
2026-01-07T2000,4214A,112.460027,34.694929,洛阳市,春都路1号院,,,76,57,24,23,,,78,78,24,19,8,12,0.6,0.7
2026-01-07T2000,2399A,114.051,33.5721,漯河市,三五一五工厂,细颗粒物(PM2.5),60,52,42,43,23,60,,83,81,24,12,8,8,0.7,0.6
2026-01-07T2000,2400A,114.0055,33.5698,漯河市,漯河大学,颗粒物(PM10),59,67,42,24,19,64,,81,80,28,20,6,7,0.6,0.5
2026-01-07T2000,2401A,114.0134,33.5826,漯河市,市水利局,颗粒物(PM10),63,75,39,41,22,36,,78,72,32,21,8,8,0.6,0.6
2026-01-07T2000,2402A,114.0261,33.5697,漯河市,市广电局,颗粒物(PM10),57,63,38,33,21,59,,86,83,27,13,7,8,0.7,0.6
2026-01-07T2000,3478A,113.9691,33.568,漯河市,市图书馆,颗粒物(PM10),56,62,41,31,22,62,,71,70,14,12,6,6,0.6,0.6
2026-01-07T2000,4250A,114.089259,33.588274,漯河市,韶山路11号,颗粒物(PM10),55,60,44,28,20,61,,75,75,27,17,7,7,0.5,0.4
2026-01-07T2000,1798A,118.5084,31.6838,马鞍山市,湖东路四小,,47,47,60,20,39,42,,70,66,46,30,33,6,1.0,0.5
2026-01-07T2000,1799A,118.5019,31.6449,马鞍山市,开发区,颗粒物(PM10),53,56,63,26,45,36,,71,64,51,38,6,4,0.5,0.5
2026-01-07T2000,3633A,118.4914,31.681,马鞍山市,雨山,颗粒物(PM10),53,56,63,28,41,37,,73,68,56,35,15,7,1.2,0.6
2026-01-07T2000,4191A,118.527362,31.722269,马鞍山市,慈湖高新区,,42,42,59,27,40,48,,59,56,43,44,21,9,1.2,0.9
2026-01-07T2000,1686A,111.0285,21.469,茂名市,电白南海,颗粒物(PM10),53,56,58,22,36,97,,114,114,27,18,10,14,0.6,0.6
2026-01-07T2000,1687A,110.9294,21.6533,茂名市,茂石化七小,颗粒物(PM10),67,83,51,36,34,80,,105,104,37,17,7,12,0.6,0.6
2026-01-07T2000,1688A,110.9108,21.6688,茂名市,健康路,细颗粒物(PM2.5),58,58,43,41,33,89,,113,112,33,20,14,18,0.6,0.6
2026-01-07T2000,1689A,110.8592,21.6826,茂名市,高岭,颗粒物(PM10),82,114,61,36,32,29,,108,97,65,21,9,22,/,/
2026-01-07T2000,3450A,111.0101,21.5165,茂名市,电白水东,,46,46,50,29,35,101,,114,114,18,12,9,11,/,/
2026-01-07T2000,2540A,103.8414,30.0871,眉山市,气象局,颗粒物(PM10),83,115,65,48,48,44,,82,82,59,33,8,9,0.8,0.7
2026-01-07T2000,3148A,103.829,30.0563,眉山市,区人社局,细颗粒物(PM2.5),62,71,59,44,43,49,,82,82,48,28,6,6,0.7,0.7
2026-01-07T2000,4148A,103.8836,30.0695,眉山市,眉职院,"颗粒物(PM10),细颗粒物(PM2.5)",57,64,55,40,33,16,,79,77,55,28,2,2,0.6,0.6
2026-01-07T2000,1690A,116.1248,24.3307,梅州市,梅江月梅,细颗粒物(PM2.5),54,56,37,38,25,35,,91,84,57,25,/,/,/,/
2026-01-07T2000,1691A,116.0798,24.2719,梅州市,梅县新城,,33,30,34,23,30,81,,91,91,18,22,8,7,0.5,0.5
2026-01-07T2000,3315A,116.1234,24.2994,梅州市,梅龙,颗粒物(PM10),53,56,39,27,23,46,,89,84,35,19,8,11,0.7,0.5
2026-01-07T2000,1878A,104.7775,31.4741,绵阳市,富乐山,细颗粒物(PM2.5),63,55,61,45,48,74,,82,82,20,23,11,11,0.7,0.7
2026-01-07T2000,1880A,104.6698,31.4668,绵阳市,高新区自来水公司,细颗粒物(PM2.5),73,82,100,53,59,22,,73,72,77,45,9,9,0.8,0.9
2026-01-07T2000,3491A,104.6899,31.5324,绵阳市,西科大附属小学,细颗粒物(PM2.5),94,95,95,70,60,27,,66,64,65,44,9,9,0.3,1
2026-01-07T2000,3492A,104.5647,31.5343,绵阳市,安州区旅游局,细颗粒物(PM2.5),83,97,90,61,65,23,,68,66,74,42,10,12,1.2,1.2
2026-01-07T2000,4146A,104.7092,31.4972,绵阳市,科技城新区公安局,细颗粒物(PM2.5),64,68,86,46,61,63,,80,80,50,45,4,3,0.6,0.7
2026-01-07T2000,4226A,104.765114,31.453094,绵阳市,绵阳市气象局,细颗粒物(PM2.5),78,71,77,57,55,33,,74,74,73,40,12,11,0.9,1
2026-01-07T2000,1784A,129.61,44.561,牡丹江市,环保大楼,,46,38,64,32,38,54,,61,58,9,24,3,7,0.3,0.6
2026-01-07T2000,1787A,129.6364,44.6075,牡丹江市,机车工厂,,42,42,76,17,43,52,,59,56,9,34,2,18,0.2,0.7
2026-01-07T2000,1788A,129.6386,44.5462,牡丹江市,第一中学,,26,26,51,16,39,53,,58,56,4,26,4,8,0.3,0.7
2026-01-07T2000,4287A,129.5992,44.5964,牡丹江市,东晓云街98号,,48,46,61,33,48,52,,59,56,7,26,4,8,0.3,0.7
2026-01-07T2000,2531A,105.0703,29.61,内江市,市监测站,细颗粒物(PM2.5),77,77,63,56,56,75,,89,89,30,28,6,5,0.7,0.7
2026-01-07T2000,2533A,105.0657,29.5807,内江市,内江二中,细颗粒物(PM2.5),79,91,72,58,58,59,,78,78,42,36,7,5,0.9,0.9
2026-01-07T2000,2534A,105.0407,29.5828,内江市,内江日报社,细颗粒物(PM2.5),77,79,58,56,50,61,,80,78,43,42,4,3,0.6,0.7
2026-01-07T2000,4147A,105.0433,29.6105,内江市,玉峰路西段888号,,,62,78,62,52,77,,89,89,33,32,,4,0.6,0.7
2026-01-07T2000,2628A,92.0653,31.4846,那曲市,那曲监测站,,25,25,47,17,33,67,,75,75,30,28,12,11,1.1,1.5
2026-01-07T2000,4243A,92.0515,31.4787,那曲市,那曲市委宣传部,,27,19,26,7,16,84,,84,84,3,20,2,7,0.6,1.2
2026-01-07T2000,1291A,115.8887,28.7006,南昌市,省林业公司,颗粒物(PM10),54,58,46,34,30,55,,72,72,36,41,6,6,0.6,0.5
2026-01-07T2000,1292A,115.813,28.7443,南昌市,林科所,,34,34,30,22,22,54,,72,70,39,32,7,8,0.4,0.4
2026-01-07T2000,1294A,115.8518,28.687,南昌市,建工学校,颗粒物(PM10),57,63,44,35,28,65,,74,74,24,28,16,15,0.6,0.6
2026-01-07T2000,1295A,115.8926,28.6425,南昌市,象湖,细颗粒物(PM2.5),62,65,44,44,32,9,,74,63,91,46,12,11,1.4,0.8
2026-01-07T2000,3046A,115.9084,28.6062,南昌市,机电学校,颗粒物(PM10),73,96,52,51,32,17,,78,70,78,41,8,7,0.9,0.6
2026-01-07T2000,3690A,115.9718,28.7032,南昌市,外国语学校,细颗粒物(PM2.5),57,48,43,40,34,59,,74,73,38,43,11,12,0.6,0.6
2026-01-07T2000,4106A,115.7923,28.6873,南昌市,工业二路,颗粒物(PM10),59,68,37,36,23,13,,70,62,87,45,6,7,0.6,0.4
2026-01-07T2000,4192A,115.931587,28.686774,南昌市,南京东路235号,颗粒物(PM10),58,66,48,39,32,50,,84,80,54,45,6,6,0.5,0.4
2026-01-07T2000,1906A,106.0791,30.8022,南充市,南充市委,细颗粒物(PM2.5),113,117,74,85,55,3,,34,30,91,44,5,5,1.8,0.8
2026-01-07T2000,1907A,106.1038,30.8215,南充市,南充炼油厂,细颗粒物(PM2.5),87,106,90,64,65,4,,35,34,92,45,7,6,0.8,0.7
2026-01-07T2000,4227A,106.108336,30.788436,南充市,梨树横街98号,细颗粒物(PM2.5),83,87,72,61,50,22,,49,49,65,39,6,6,1.1,0.8
2026-01-07T2000,4304A,106.1172,30.843,南充市,清泉寺北路188号,细颗粒物(PM2.5),75,74,63,55,49,52,,60,60,40,30,7,7,0.5,0.4
2026-01-07T2000,4305A,106.067,30.7616,南充市,同庆路1号,细颗粒物(PM2.5),85,95,70,63,52,2,,40,39,69,44,7,6,2.0,1.1
2026-01-07T2000,1151A,118.8033,32.1085,南京市,迈皋桥,,48,48,43,29,25,49,,78,73,32,18,2,2,0.5,0.5
2026-01-07T2000,1152A,118.7487,32.057,南京市,草场门,颗粒物(PM10),51,51,47,31,27,36,,72,68,50,31,7,7,0.3,0.2
2026-01-07T2000,1154A,118.770105,32.004342,南京市,中华门,,46,46,45,29,28,37,,71,66,35,28,4,5,0.6,0.5
2026-01-07T2000,1155A,118.8059,32.0329,南京市,瑞金路,颗粒物(PM10),56,61,48,36,31,12,,68,57,66,36,4,4,1.0,0.7
2026-01-07T2000,1156A,118.7946,32.0774,南京市,玄武湖,,42,42,43,19,22,55,,69,69,23,21,4,4,0.5,0.5
2026-01-07T2000,1157A,118.6415,32.0964,南京市,浦口,,49,49,48,26,27,66,,74,73,20,21,10,8,0.6,0.6
2026-01-07T2000,1158A,118.730129,32.000956,南京市,奥体中心,颗粒物(PM10),53,56,49,29,30,44,,80,75,48,35,7,8,0.5,0.5
2026-01-07T2000,1159A,118.9072,32.1047,南京市,仙林大学城,颗粒物(PM10),53,56,47,29,24,32,,66,61,50,34,6,6,0.7,0.7
2026-01-07T2000,3422A,118.8443,31.919,南京市,江宁彩虹桥,,45,45,51,29,31,44,,71,67,30,30,4,5,0.4,0.5
2026-01-07T2000,3427A,118.8497,32.3599,南京市,六合雄州,,50,44,43,35,28,54,,75,71,26,24,8,8,0.7,0.6
2026-01-07T2000,4086A,118.7641,32.0841,南京市,新模范马路66号,,40,40,54,15,24,45,,66,64,36,29,7,6,0.6,0.7
2026-01-07T2000,4249A,118.8707617,31.34017673,南京市,汶溪路181号,,50,49,57,35,49,49,,77,74,45,27,5,6,0.4,0.6
2026-01-07T2000,4312A,119.019,31.6512,南京市,中山西路1号,,,44,57,36,53,38,,62,62,36,29,4,4,,0.8
2026-01-07T2000,1401A,108.3098,22.788,南宁市,二十一中,,40,,31,28,21,67,,80,80,19,16,5,6,0.5,0.5
2026-01-07T2000,1402A,108.3135,22.8529,南宁市,北湖,,46,46,36,26,19,71,,92,92,23,22,5,8,0.7,0.7
2026-01-07T2000,1403A,108.3205,22.8222,南宁市,市监测站,,40,,35,28,26,69,,85,85,31,20,8,9,0.6,0.6
2026-01-07T2000,1404A,108.3828,22.8038,南宁市,大自然花园,,38,31,36,26,22,81,,93,93,25,16,7,7,0.6,0.6
2026-01-07T2000,1406A,108.2397,22.8462,南宁市,区农职院,,47,47,41,30,24,35,,85,81,43,21,8,9,0.7,0.7
2026-01-07T2000,1407A,108.3285,22.7356,南宁市,英华嘉园,,39,32,33,27,24,70,,90,90,16,12,4,5,0.6,0.6
2026-01-07T2000,3401A,108.4829,22.762,南宁市,红星社区,,38,38,28,25,23,78,,98,96,15,8,6,7,0.6,0.5
2026-01-07T2000,4132A,108.2927,23.1477,南宁市,起凤路9号,细颗粒物(PM2.5),83,72,34,61,28,58,,89,86,31,15,2,3,0.6,0.7
2026-01-07T2000,4221A,108.2177,22.7774,南宁市,乐贤路16号,颗粒物(PM10),51,52,44,24,23,29,,83,78,64,20,4,7,0.5,0.4
2026-01-07T2000,2332A,118.1682,26.6371,南平市,南平市监测站,,45,34,34,31,28,45,,79,76,28,23,4,4,0.8,0.5
2026-01-07T2000,2334A,118.1757,26.6276,南平市,南平七中,,29,20,38,20,30,62,,84,84,16,20,5,5,0.5,0.5
2026-01-07T2000,1168A,120.9056,31.9669,南通市,狼山街道,细颗粒物(PM2.5),65,65,63,47,42,39,,61,58,24,31,3,6,0.5,0.7
2026-01-07T2000,1170A,120.8635,32.0231,南通市,城中,细颗粒物(PM2.5),84,93,70,62,41,32,,62,59,59,33,7,6,0.7,0.6
2026-01-07T2000,1171A,120.9376,31.9301,南通市,星湖花园,细颗粒物(PM2.5),70,77,70,51,48,18,,55,51,66,48,5,8,0.8,1
2026-01-07T2000,1172A,120.8053,32.046,南通市,紫琅学院,细颗粒物(PM2.5),78,91,71,57,41,9,,68,57,81,34,7,6,0.8,0.7
2026-01-07T2000,3291A,121.0631,32.0644,南通市,通州监测站,细颗粒物(PM2.5),73,80,64,53,45,42,,71,65,50,35,4,5,0.8,0.7
2026-01-07T2000,3432A,120.9348,31.9874,南通市,环境教育馆,细颗粒物(PM2.5),80,97,65,59,41,10,,69,63,78,35,6,7,0.8,0.6
2026-01-07T2000,4091A,120.8692,31.9885,南通市,洪江路,细颗粒物(PM2.5),73,75,72,53,38,25,,56,54,66,44,4,6,0.6,0.5
2026-01-07T2000,2404A,112.5338,33.0086,南阳市,瓦房庄,颗粒物(PM10),64,77,51,38,31,26,,71,67,49,23,7,7,1.0,0.6
2026-01-07T2000,2405A,112.5002,32.9734,南阳市,汉画馆,颗粒物(PM10),62,74,46,36,26,23,,63,62,48,23,6,6,0.8,0.6
2026-01-07T2000,2406A,112.5778,33.0144,南阳市,气象站,颗粒物(PM10),54,58,48,31,25,56,,77,77,31,28,6,6,0.6,0.5
2026-01-07T2000,2407A,112.548,32.9687,南阳市,理工学院,颗粒物(PM10),66,82,44,43,23,25,,70,68,63,28,7,6,0.7,0.5
2026-01-07T2000,4008A,112.5233,32.9921,南阳市,卧龙区政府,颗粒物(PM10),61,71,43,39,28,26,,64,62,58,28,6,6,1.0,0.6
2026-01-07T2000,1234A,121.8352,29.9111,宁波市,区环保大楼,颗粒物(PM10),54,57,67,35,51,52,,75,72,59,36,8,8,0.7,0.8
2026-01-07T2000,1235A,121.5595,29.8208,宁波市,万里学院,细颗粒物(PM2.5),65,68,63,47,48,45,,82,76,55,29,4,5,0.7,0.6
2026-01-07T2000,1236A,121.713,29.9564,宁波市,龙赛医院,颗粒物(PM10),55,59,63,34,44,43,,77,70,61,33,4,4,0.6,0.6
2026-01-07T2000,1240A,121.5855,29.8635,宁波市,太古小学,细颗粒物(PM2.5),68,68,62,49,49,43,,87,80,52,22,2,2,0.7,0.6
2026-01-07T2000,1241A,121.5239,29.8673,宁波市,市环境监测中心,细颗粒物(PM2.5),89,72,65,66,50,26,,79,67,69,28,6,6,1.0,0.7
2026-01-07T2000,2871A,121.6156,29.9015,宁波市,万里国际学校,颗粒物(PM10),54,57,63,36,46,40,,84,76,71,33,5,4,0.6,0.6
2026-01-07T2000,3710A,121.5593,29.8976,宁波市,白沙活动中心,细颗粒物(PM2.5),64,58,61,46,48,28,,81,71,65,31,4,5,0.7,0.6
2026-01-07T2000,4095A,121.8962,29.7529,宁波市,中科路88号,细颗粒物(PM2.5),73,74,58,53,49,24,,85,74,75,25,6,6,0.7,0.6
2026-01-07T2000,2341A,119.5387,26.6611,宁德市,宁德市监测站,,42,42,32,24,25,67,,85,84,22,23,6,6,0.6,0.4
2026-01-07T2000,3209A,119.5231,26.6562,宁德市,宁德一中,,49,34,30,34,20,74,,85,85,16,13,5,5,0.6,0.5
2026-01-07T2000,2618A,98.859,25.8541,怒江傈僳族自治州,州监测站,,39,39,33,27,23,58,,76,76,21,12,5,6,0.6,0.4
2026-01-07T2000,2619A,98.8607,25.8168,怒江傈僳族自治州,泸水一中,,43,43,28,19,22,37,,65,64,32,16,6,6,0.9,0.6
2026-01-07T2000,1888A,101.6891,26.571,攀枝花市,弄弄坪,颗粒物(PM10),58,66,47,40,33,57,,84,84,32,19,12,11,0.9,0.8
2026-01-07T2000,1889A,101.577,26.5914,攀枝花市,河门口,颗粒物(PM10),51,51,58,34,38,69,,83,83,18,22,39,24,1.0,1.5
2026-01-07T2000,1891A,101.7365,26.4986,攀枝花市,仁和,细颗粒物(PM2.5),57,61,39,40,38,31,,79,75,31,21,8,10,0.9,0.9
2026-01-07T2000,2835A,101.7222,26.567,攀枝花市,四十中小,,46,46,44,28,27,65,,82,82,30,15,16,13,1.0,1
2026-01-07T2000,1604A,122.0303,41.1489,盘锦市,开发区,细颗粒物(PM2.5),80,61,41,59,15,35,,62,55,23,9,4,4,0.9,0.6
2026-01-07T2000,1605A,122.0486,41.0883,盘锦市,兴隆台,细颗粒物(PM2.5),110,103,45,83,14,19,,63,53,59,19,7,5,0.9,0.4
2026-01-07T2000,1606A,121.8297,41.1026,盘锦市,新生街道,,50,43,34,35,8,16,,65,51,52,29,5,5,0.5,0.3
2026-01-07T2000,1832A,113.3257,33.7423,平顶山市,新华旅馆,颗粒物(PM10),65,80,49,29,18,62,,81,80,26,14,7,6,0.4,0.3
2026-01-07T2000,1833A,113.2917,33.737,平顶山市,规划设计院,颗粒物(PM10),79,108,38,48,21,28,,61,,52,16,6,7,1.9,0.4
2026-01-07T2000,1834A,113.182,33.7738,平顶山市,平顶山工学院,颗粒物(PM10),61,72,36,29,20,68,,86,84,23,14,11,8,0.2,0.2
2026-01-07T2000,3594A,112.8736,33.9068,平顶山市,石龙区,颗粒物(PM10),62,74,49,26,22,75,,87,83,22,19,6,6,0.4,0.4
2026-01-07T2000,4116A,113.284,33.7139,平顶山市,姚电大道23号,细颗粒物(PM2.5),117,181,54,88,24,26,,83,76,59,20,10,9,0.8,0.5
2026-01-07T2000,2656A,106.6633,35.5338,平凉市,聚贤嘉苑,,34,34,32,20,20,75,,88,88,20,27,11,9,0.5,0.7
2026-01-07T2000,2657A,106.7021,35.5307,平凉市,博物馆,,37,37,42,22,26,86,,89,89,10,27,10,12,0.7,1
2026-01-07T2000,2348A,113.8384,27.6436,萍乡市,中医院,细颗粒物(PM2.5),87,107,88,64,56,41,,111,105,60,34,7,7,1.5,1.3
2026-01-07T2000,2350A,113.8677,27.6438,萍乡市,市环保局,,,,74,,61,46,,130,123,54,29,14,14,1.5,1.1
2026-01-07T2000,2351A,113.8663,27.6202,萍乡市,安源区政府,细颗粒物(PM2.5),118,95,78,89,66,62,,97,96,36,23,10,10,1.4,1.3
2026-01-07T2000,4107A,113.8686,27.6668,萍乡市,联洪村委会,细颗粒物(PM2.5),92,93,84,68,62,54,,82,,46,32,7,7,1.3,1.2
2026-01-07T2000,2319A,119.0142,25.4324,莆田市,荔城区仓后路,,46,45,34,32,25,86,,95,95,23,13,/,/,/,/
2026-01-07T2000,2320A,119.0016,25.4553,莆田市,莆田市监测站,,49,35,28,34,24,69,,99,94,18,8,3,3,0.6,0.5
2026-01-07T2000,2321A,119.112,25.4561,莆田市,涵江区六中,,48,42,33,33,26,95,,99,99,17,11,/,/,0.6,0.6
2026-01-07T2000,2322A,119.1014,25.3215,莆田市,秀屿区政府,,40,31,35,28,26,98,,105,105,13,10,3,3,0.5,0.6
2026-01-07T2000,2392A,115.0312,35.7636,濮阳市,环保局,颗粒物(PM10),57,63,50,24,21,57,,64,64,32,33,9,8,0.5,0.6
2026-01-07T2000,3021A,115,35.7667,濮阳市,濮水河管理处,颗粒物(PM10),56,61,57,16,25,49,,64,63,21,22,8,7,0.8,0.7
2026-01-07T2000,4118A,115.0552,35.7816,濮阳市,中原东路68号,颗粒物(PM10),72,94,63,36,28,39,,70,67,40,30,8,8,0.7,0.7
2026-01-07T2000,4216A,115.0923632,35.76857718,濮阳市,任丘路479号,颗粒物(PM10),58,66,59,31,30,30,,60,57,50,36,7,7,0.5,0.5
2026-01-07T2000,2601A,100.9801,22.7634,普洱市,市环保局,,48,,38,33,18,40,,59,55,6,9,4,4,0.4,0.4
2026-01-07T2000,2602A,100.9763,22.8237,普洱市,普洱第二中学,,35,31,32,24,16,41,,60,58,7,15,5,5,0.5,0.5
2026-01-07T2000,3345A,131.0413,45.7795,七台河市,中波台,,18,18,35,7,26,46,,50,,17,13,1,10,0.7,0.6
2026-01-07T2000,3637A,131.0136,45.7688,七台河市,人民广场,,38,29,46,26,33,48,,49,47,20,18,7,7,0.4,0.6
2026-01-07T2000,3684A,130.8639,45.8144,七台河市,新建矿广场,,33,,64,23,40,54,,49,49,6,24,7,10,0.0,0.3
2026-01-07T2000,1779A,123.9307,47.3641,齐齐哈尔市,安居小区,颗粒物(PM10),54,58,29,35,22,26,,52,44,34,15,7,8,0.7,0.5
2026-01-07T2000,1780A,123.9497,47.3389,齐齐哈尔市,中心广场,,28,26,21,19,12,33,,53,45,26,11,6,6,1.0,0.5
2026-01-07T2000,1781A,123.9483,47.3229,齐齐哈尔市,农牧车辆厂,颗粒物(PM10),51,51,22,16,12,26,,52,45,27,9,4,4,0.6,0.3
2026-01-07T2000,1783A,123.9442,47.2994,齐齐哈尔市,市环境监测站,细颗粒物(PM2.5),57,62,25,40,13,19,,58,47,41,10,8,7,0.9,0.5
2026-01-07T2000,3662A,123.6341,47.2079,齐齐哈尔市,富区青少年活动中心,,49,34,31,34,18,38,,53,46,23,12,6,5,0.7,0.5
2026-01-07T2000,2591A,107.9765,26.5724,黔东南苗族侗族自治州,市环境监测站,细颗粒物(PM2.5),52,42,44,36,37,19,,60,59,52,22,2,3,0.7,0.7
2026-01-07T2000,2881A,107.8909,26.531,黔东南苗族侗族自治州,凯里学院,细颗粒物(PM2.5),57,51,41,40,34,44,,60,60,21,17,6,5,0.6,0.7
2026-01-07T2000,2593A,107.5223,26.2371,黔南布依族苗族自治州,小围寨,,42,34,39,29,35,65,,70,70,7,13,6,8,0.8,0.9
2026-01-07T2000,3538A,107.5175,26.2977,黔南布依族苗族自治州,沙坝,,42,41,46,29,37,55,,69,69,14,14,6,7,0.8,0.9
2026-01-07T2000,2589A,104.9022,25.0943,黔西南布依族苗族自治州,场坝街,细颗粒物(PM2.5),117,95,56,88,49,46,,62,61,20,15,10,10,0.9,0.7
2026-01-07T2000,2590A,104.8812,25.0994,黔西南布依族苗族自治州,坪东大道,细颗粒物(PM2.5),109,83,45,82,44,36,,62,60,32,19,6,10,1.0,0.8
2026-01-07T2000,2502A,108.6238,21.9667,钦州市,市环保站,颗粒物(PM10),63,75,50,31,27,88,,102,102,28,17,3,4,0.7,1
2026-01-07T2000,2503A,108.655,21.9481,钦州市,沙埠小学,"颗粒物(PM10),细颗粒物(PM2.5)",57,64,55,40,27,81,,102,101,41,22,7,6,0.8,0.8
2026-01-07T2000,2504A,108.5989,21.7435,钦州市,港区一小,颗粒物(PM10),52,54,54,30,29,86,,99,99,33,22,7,8,0.6,0.7
2026-01-07T2000,3404A,108.5959,21.9634,钦州市,北职校,颗粒物(PM10),58,66,39,38,32,75,,100,100,30,21,8,9,0.7,0.8
2026-01-07T2000,1046A,119.5247,39.9346,秦皇岛市,建设大厦,颗粒物(PM10),70,89,29,47,23,5,,64,52,80,24,10,5,1.0,0.3
2026-01-07T2000,3132A,119.5979,39.938,秦皇岛市,文明里,颗粒物(PM10),56,62,30,32,16,11,,62,51,62,22,10,8,0.6,0.3
2026-01-07T2000,4066A,119.7458,39.9952,秦皇岛市,南园路157号,,,,30,30,11,7,,71,55,73,23,8,5,,0.4
2026-01-07T2000,4067A,119.5131,39.8858,秦皇岛市,翠岛大街1号,颗粒物(PM10),56,62,33,29,9,13,,64,53,60,19,12,8,0.6,0.3
2026-01-07T2000,4198A,119.509013,39.825305,秦皇岛市,北戴河轮滑馆,,44,44,28,28,15,26,,69,60,46,17,10,5,0.9,0.4
2026-01-07T2000,1310A,120.404,36.0625,青岛市,市南区东部子站,,46,46,136,22,86,44,,64,64,34,47,9,13,0.5,1
2026-01-07T2000,1311A,120.362344,36.10282,青岛市,四方区子站,颗粒物(PM10),59,68,186,19,98,44,,71,68,33,47,4,8,0.6,1
2026-01-07T2000,1312A,120.294373,36.054183,青岛市,市南区西部子站,,36,36,131,7,86,62,,68,68,18,44,4,7,0.3,1
2026-01-07T2000,1313A,120.4581,36.0858,青岛市,崂山区子站,,34,34,127,17,84,52,,68,67,31,49,10,14,0.6,1.2
2026-01-07T2000,1315A,120.3945,36.3083,青岛市,城阳区子站,,48,48,138,24,75,52,,71,69,29,49,8,14,0.9,1.3
2026-01-07T2000,3642A,120.3454,36.0735,青岛市,市北区南部,,37,37,161,14,90,48,,58,58,24,45,3,7,0.4,1
2026-01-07T2000,3643A,120.3897,36.18,青岛市,李沧区北部,颗粒物(PM10),51,51,136,29,100,24,,59,55,53,54,10,13,0.8,1.3
2026-01-07T2000,4110A,120.5222,36.4089,青岛市,盟旺路653号,,38,38,133,18,82,48,,70,67,34,48,5,10,0.4,0.9
2026-01-07T2000,4290A,120.196923,35.954556,青岛市,珠江路669号,,46,46,114,17,78,24,,63,57,63,43,10,15,0.5,0.9
2026-01-07T2000,4291A,120.0424,35.8656,青岛市,黄岛区人民政府广场,,41,41,135,14,90,63,,76,74,27,49,8,11,0.6,1.2
2026-01-07T2000,1703A,113.0218,23.7086,清远市,凤城街办,,27,24,33,18,28,85,,99,98,22,16,/,/,/,/
2026-01-07T2000,3025A,113.0479,23.6343,清远市,技师学院,,40,40,40,19,27,72,,92,88,33,25,10,8,0.5,0.6
2026-01-07T2000,3318A,112.9898,23.7403,清远市,清新太和,,32,21,32,15,24,102,,109,109,11,10,6,5,0.4,0.5
2026-01-07T2000,3455A,113.076,23.72,清远市,清城东城,,27,26,35,18,25,86,,99,98,20,15,/,/,/,/
2026-01-07T2000,2661A,107.6325,35.7357,庆阳市,庆阳五中,,37,37,39,14,17,89,,91,91,7,11,4,5,0.4,0.5
2026-01-07T2000,2662A,107.6361,35.7067,庆阳市,市环保局,,44,44,44,13,16,87,,89,89,7,8,3,2,0.4,0.4
2026-01-07T2000,1916A,103.7897,25.5036,曲靖市,环境监测站,,,71,47,45,26,,,44,43,27,17,2,3,0.7,1
2026-01-07T2000,1917A,103.8013,25.5357,曲靖市,烟厂办公区,颗粒物(PM10),57,64,40,37,25,24,,43,40,30,16,5,4,0.8,0.6
2026-01-07T2000,3376A,103.7926,25.4651,曲靖市,南苑二区,细颗粒物(PM2.5),58,61,45,41,28,29,,48,44,22,12,4,4,0.8,0.6
2026-01-07T2000,3377A,103.7442,25.5259,曲靖市,曲靖师范学院,细颗粒物(PM2.5),64,59,42,46,34,34,,47,44,19,13,2,2,0.6,0.5
2026-01-07T2000,1264A,118.8694,28.94,衢州市,环保大楼,细颗粒物(PM2.5),57,61,51,40,37,47,,92,85,46,25,/,/,/,/
2026-01-07T2000,1266A,118.8622,28.9809,衢州市,衢州学院,"颗粒物(PM10),细颗粒物(PM2.5)",52,54,47,36,34,42,,87,81,56,35,8,6,0.6,0.4
2026-01-07T2000,4097A,118.9646,28.9832,衢州市,衢州三中,颗粒物(PM10),52,53,52,35,37,62,,89,86,34,24,8,7,0.6,0.6
2026-01-07T2000,1611A,118.5818,24.9116,泉州市,涂山街,,43,40,31,30,26,88,,98,98,16,10,4,3,0.5,0.5
2026-01-07T2000,1612A,118.597,24.8976,泉州市,津头埔,,43,37,30,30,28,88,,100,100,20,13,5,4,0.6,0.6
2026-01-07T2000,1613A,118.6669,24.9422,泉州市,万安,,40,40,33,25,24,86,,96,96,14,14,3,3,0.6,0.5
2026-01-07T2000,4105A,118.6355,24.9148,泉州市,霞新路6号,,38,35,30,26,24,86,,101,100,26,16,/,/,0.2,0.3
2026-01-07T2000,2626A,88.8873,29.2723,日喀则市,日喀则监测站,,21,18,59,7,19,66,,65,,41,30,14,12,0.9,1.1
2026-01-07T2000,3726A,88.8775,29.2425,日喀则市,林业技术推广中心,,24,14,26,3,14,76,,87,87,2,6,9,11,0.2,0.4
2026-01-07T2000,1659A,119.4711,35.421,日照市,监测站,颗粒物(PM10),57,63,117,34,85,25,,70,62,56,48,12,10,0.8,1
2026-01-07T2000,1660A,119.523,35.4216,日照市,市政府广场,,48,48,107,22,77,61,,72,70,27,37,11,12,0.4,0.6
2026-01-07T2000,1661A,119.5511,35.4113,日照市,港务局,,50,48,111,35,87,59,,71,70,26,38,9,10,0.5,0.8
2026-01-07T2000,3507A,119.5326,35.4627,日照市,职业技术学院,,46,46,115,22,72,63,,75,73,24,39,10,10,0.7,1
2026-01-07T2000,3604A,119.3267,35.1043,日照市,岚山环保分局,颗粒物(PM10),64,78,136,35,91,53,,55,50,38,54,14,21,0.7,1.5
2026-01-07T2000,1835A,111.1922,34.7752,三门峡市,市政府,颗粒物(PM10),67,84,56,44,32,4,,83,68,81,42,16,32,1.5,0.7
2026-01-07T2000,1836A,111.1588,34.794,三门峡市,开发区,颗粒物(PM10),63,75,52,31,29,33,,71,69,57,33,8,6,0.7,0.5
2026-01-07T2000,3039A,111.1911,34.7829,三门峡市,三门峡市第一小学,颗粒物(PM10),69,87,58,45,30,16,,74,68,72,40,11,10,1.0,0.7
2026-01-07T2000,3598A,111.1031,34.719,三门峡市,富达温泉假日酒店,颗粒物(PM10),77,104,63,50,32,30,,73,68,50,32,19,10,1.2,0.8
2026-01-07T2000,2324A,117.621,26.2626,三明市,三钢,细颗粒物(PM2.5),59,,39,42,34,42,,89,86,39,26,5,8,0.6,1.4
2026-01-07T2000,2325A,117.6352,26.2714,三明市,三明二中,,39,30,42,27,36,66,,86,86,18,23,6,8,0.7,1.5
2026-01-07T2000,2326A,117.6028,26.2377,三明市,三元区政府,,50,50,38,29,29,28,,82,80,47,22,5,6,0.8,0.8
2026-01-07T2000,1877A,109.4962,18.2682,三亚市,河西子站,,46,46,39,25,26,97,,113,113,18,9,5,5,0.7,0.7
2026-01-07T2000,3540A,109.7348,18.3443,三亚市,君悦子站,颗粒物(PM10),51,52,47,29,30,96,,97,97,10,10,6,6,0.6,0.7
2026-01-07T2000,4135A,109.1714,18.3739,三亚市,城东小学站,,49,42,33,34,28,103,,104,104,9,9,/,/,/,/
2026-01-07T2000,2624A,91.7592,29.234,山南市,山南监测站,,22,21,25,6,16,68,,83,83,22,8,5,5,0.4,0.3
2026-01-07T2000,2625A,91.7701,29.2436,山南市,山南人民医院,,35,35,25,20,8,49,,77,76,45,7,6,6,0.8,0.3
2026-01-07T2000,1674A,116.6795,23.3666,汕头市,金平子站,,46,42,34,32,36,93,,104,104,28,15,5,7,0.9,0.7
2026-01-07T2000,1675A,116.7248,23.3632,汕头市,龙湖子站,,44,44,31,25,20,98,,102,102,23,12,12,11,/,/
2026-01-07T2000,1676A,116.7257,23.2774,汕头市,濠江子站,,45,33,33,31,25,100,,102,102,18,14,8,23,/,/
2026-01-07T2000,1677A,116.7518,23.4712,汕头市,澄海子站,,,53,35,35,26,,,103,103,29,13,9,7,0.5,0.3
2026-01-07T2000,1678A,116.6088,23.2539,汕头市,潮阳子站,,44,44,33,30,20,109,,107,107,19,13,7,8,0.5,0.5
2026-01-07T2000,3444A,116.4539,23.2684,汕头市,潮南峡山,颗粒物(PM10),51,52,40,32,27,88,,111,110,22,12,10,9,0.7,0.6
2026-01-07T2000,3624A,116.4069,23.2533,汕头市,潮南子站,颗粒物(PM10),61,71,46,36,32,91,,103,103,26,16,8,7,/,/
2026-01-07T2000,1693A,115.3653,22.7751,汕尾市,市环保局,,42,39,28,29,26,92,,96,96,23,9,8,8,0.5,0.4
2026-01-07T2000,1695A,115.362,22.7926,汕尾市,新城中学,,44,44,28,27,24,42,,96,87,57,11,5,5,0.7,0.5
2026-01-07T2000,2645A,109.9155,33.8714,商洛市,监测站,,38,36,25,26,15,66,,92,89,30,22,5,5,0.4,0.3
2026-01-07T2000,3045A,109.9647,33.8486,商洛市,商州区中学,,28,28,36,9,14,61,,92,90,34,32,6,6,0.5,0.6
2026-01-07T2000,2408A,115.6701,34.4283,商丘市,环境监测站,颗粒物(PM10),64,78,54,44,35,34,,69,64,57,27,4,4,0.3,0.2
2026-01-07T2000,2409A,115.6458,34.4047,商丘市,粮食局,细颗粒物(PM2.5),63,57,60,45,32,37,,67,63,47,24,6,6,0.6,0.4
2026-01-07T2000,3171A,115.6069,34.4465,商丘市,梁园区档案局,细颗粒物(PM2.5),72,72,53,52,32,17,,63,58,69,29,8,6,0.7,0.4
2026-01-07T2000,4119A,115.6701,34.3767,商丘市,北海东路185号,颗粒物(PM10),64,78,54,36,30,15,,66,59,60,28,3,3,0.8,0.5
2026-01-07T2000,4120A,115.6172,34.3704,商丘市,中山大街3号,颗粒物(PM10),66,82,65,46,36,36,,68,66,47,36,5,4,0.5,0.2
2026-01-07T2000,1141A,121.401,31.2382,上海市,普陀,细颗粒物(PM2.5),78,76,66,57,58,11,,68,58,103,48,7,8,1.0,0.7
2026-01-07T2000,1142A,121.4774,31.2043,上海市,十五厂,细颗粒物(PM2.5),70,72,64,51,54,28,,70,65,87,43,8,8,1.1,0.9
2026-01-07T2000,1143A,121.4673,31.3011,上海市,虹口,细颗粒物(PM2.5),73,86,68,53,54,2,,64,53,106,43,8,8,0.9,0.7
2026-01-07T2000,1147A,121.4253,31.226,上海市,静安监测站,细颗粒物(PM2.5),68,74,66,49,55,28,,71,65,82,45,8,8,0.7,0.6
2026-01-07T2000,1148A,121.7029,31.1905,上海市,浦东川沙,细颗粒物(PM2.5),84,98,74,62,57,2,,70,54,108,43,10,8,0.9,0.8
2026-01-07T2000,1149A,121.5339,31.229,上海市,浦东新区监测站,细颗粒物(PM2.5),69,66,64,50,56,36,,74,70,75,43,8,8,0.8,0.8
2026-01-07T2000,1150A,121.5776,31.2038,上海市,浦东张江,"颗粒物(PM10),细颗粒物(PM2.5)",62,73,67,44,49,28,,80,74,73,35,8,8,0.7,0.7
2026-01-07T2000,3265A,121.4242,31.3303,上海市,宝山庙行,细颗粒物(PM2.5),70,73,67,51,56,3,,68,55,107,48,7,8,0.8,0.7
2026-01-07T2000,3266A,121.8789,31.4662,上海市,崇明上实东滩,细颗粒物(PM2.5),89,96,81,66,61,51,,73,71,32,30,5,7,0.4,0.6
2026-01-07T2000,3268A,121.316,31.2839,上海市,嘉定南翔,细颗粒物(PM2.5),72,68,61,52,52,2,,66,52,96,47,5,5,0.8,0.7
2026-01-07T2000,3269A,121.3357,30.7455,上海市,金山新城,细颗粒物(PM2.5),62,51,53,44,59,51,,80,78,48,32,9,9,1.0,1.1
2026-01-07T2000,3270A,121.4996,31.0741,上海市,闵行浦江,细颗粒物(PM2.5),72,77,67,52,56,0,,64,52,108,48,8,8,0.7,0.5
2026-01-07T2000,3271A,121.2886,31.1663,上海市,青浦徐泾,细颗粒物(PM2.5),62,69,64,44,53,0,,64,52,100,43,6,6,0.9,0.8
2026-01-07T2000,3272A,121.2193,31.0382,上海市,松江图书馆,细颗粒物(PM2.5),57,61,61,40,38,46,,83,78,55,32,7,7,0.6,0.6
2026-01-07T2000,3273A,121.3904,31.206,上海市,长宁仙霞,细颗粒物(PM2.5),75,87,64,55,53,3,,65,54,102,52,8,8,1.0,0.7
2026-01-07T2000,3274A,121.7964,31.0507,上海市,浦东惠南,细颗粒物(PM2.5),77,86,69,56,58,7,,67,56,102,47,7,6,1.0,0.8
2026-01-07T2000,3544A,121.4891,30.925,上海市,奉贤南桥新城,,,,66,,59,,,83,83,,32,9,9,0.9,0.9
2026-01-07T2000,4183A,121.417401,31.16637,上海市,冠生园路458号,,,,64,,56,24,,67,62,,49,,6,0.8,0.6
2026-01-07T2000,4205A,121.541914,31.268301,上海市,宁武路151号,细颗粒物(PM2.5),75,84,64,55,53,14,,71,63,91,41,6,7,1.0,0.7
2026-01-07T2000,2382A,117.9758,28.4439,上饶市,市监测站,颗粒物(PM10),53,55,49,29,33,72,,96,92,29,30,14,17,/,/
2026-01-07T2000,2383A,117.9521,28.4637,上饶市,凤凰光学,颗粒物(PM10),53,56,51,30,30,40,,87,82,54,29,11,15,0.8,0.7
2026-01-07T2000,3685A,117.897,28.4316,上饶市,双创科技城,颗粒物(PM10),53,55,56,31,41,41,,87,83,80,41,15,19,0.7,0.8
2026-01-07T2000,4211A,118.190438,28.444845,上饶市,裕丰大道,细颗粒物(PM2.5),64,74,60,46,40,28,,97,89,61,26,19,21,0.8,0.7
2026-01-07T2000,1669A,113.5821,24.7733,韶关市,市八中,颗粒物(PM10),51,51,35,34,28,56,,84,80,38,23,9,9,0.7,0.6
2026-01-07T2000,1671A,113.5916,24.7973,韶关市,园林处,,43,35,29,30,29,64,,94,91,35,23,14,12,/,/
2026-01-07T2000,1673A,113.5971,24.6864,韶关市,曲江监测站,,50,47,42,35,31,40,,88,83,40,22,10,17,0.6,0.5
2026-01-07T2000,2809A,113.6668,24.7756,韶关市,大学路288号,,33,33,24,20,20,60,,91,88,16,15,6,5,/,/
2026-01-07T2000,3622A,113.5556,24.8082,韶关市,碧湖山庄,,39,37,39,27,29,74,,93,91,21,16,8,7,0.4,0.5
2026-01-07T2000,2464A,111.5277,27.2442,邵阳市,市化工厂,细颗粒物(PM2.5),60,53,75,43,57,70,,89,89,28,32,13,10,1.0,1.1
2026-01-07T2000,2466A,111.4327,27.2276,邵阳市,市环保局,细颗粒物(PM2.5),58,47,61,41,54,78,,93,93,24,24,8,8,0.9,1
2026-01-07T2000,4218A,111.446,27.2472,邵阳市,北塔二期4-26地块,细颗粒物(PM2.5),84,84,63,62,58,24,,76,72,64,28,6,5,1.4,1
2026-01-07T2000,4219A,111.4739,27.2282,邵阳市,邵水西路287号,细颗粒物(PM2.5),67,,103,48,62,77,,93,93,22,31,10,14,0.6,0.8
2026-01-07T2000,1247A,120.6053,29.9927,绍兴市,城东开发委,,50,50,51,31,40,21,,79,66,58,31,7,8,0.6,0.6
