timepoint,stationcode,longitude,latitude,area,positionname,primarypollutant,aqi,pm10,pm10_24h,pm2_5,pm2_5_24h,o3,o3_24h,o3_8h,o3_8h_24h,no2,no2_24h,so2,so2_24h,co,co_24h
2026-01-10T1000,2568A,102.2503,31.8896,阿坝藏族羌族自治州,马师校,,35,,18,24,18,31,,34,32,22,15,4,4,0.6,0.5
2026-01-10T1000,3994A,102.2174,31.9016,阿坝藏族羌族自治州,马尔康中学西区,,15,,13,10,12,37,,37,37,14,13,6,5,0.5,0.5
2026-01-10T1000,2695A,80.2899,41.1684,阿克苏地区,电视台,细颗粒物(PM2.5),75,91,109,55,68,21,,30,28,34,40,2,4,1.1,1.3
2026-01-10T1000,2696A,80.2592,41.1541,阿克苏地区,艺术中心,细颗粒物(PM2.5),95,89,98,71,74,28,,32,32,22,36,3,4,1.0,1
2026-01-10T1000,2205A,105.699,38.8409,阿拉善盟,蒙二幼,,24,21,121,8,24,76,,77,75,7,7,9,9,0.6,0.5
2026-01-10T1000,2206A,105.7198,38.8508,阿拉善盟,环保局新楼,,24,18,109,10,25,76,,77,76,4,5,6,7,0.6,0.6
2026-01-10T1000,2708A,88.1266,47.8515,阿勒泰地区,市站,,17,8,17,8,8,41,,65,63,33,24,2,2,0.5,0.4
2026-01-10T1000,4166A,88.1198,47.7931,阿勒泰地区,阿勒泰路33号,,19,6,22,3,12,58,,64,64,20,26,2,3,0.4,0.6
2026-01-10T1000,2630A,80.1171,32.4999,阿里地区,阿里监测站,,20,6,3,3,3,61,,66,66,7,9,5,7,0.5,0.5
2026-01-10T1000,3192A,80.0906,32.5029,阿里地区,阿里藏医院,,20,10,11,3,6,63,,60,60,6,7,13,13,0.7,0.6
2026-01-10T1000,2644A,109.0088,32.6974,安康市,汉滨区检察院,细颗粒物(PM2.5),77,63,60,56,46,8,,20,16,27,26,8,5,0.7,0.7
2026-01-10T1000,4054A,109.0324,32.6913,安康市,市邮政管理局,细颗粒物(PM2.5),75,72,76,55,56,5,,10,10,30,35,8,8,1.0,1
2026-01-10T1000,2291A,117.0806,30.5181,安庆市,环科院,细颗粒物(PM2.5),70,73,65,51,48,60,,47,47,37,33,9,8,0.4,0.3
2026-01-10T1000,2292A,117.0331,30.5118,安庆市,马山宾馆,细颗粒物(PM2.5),74,75,65,54,47,52,,62,62,45,31,9,7,0.5,0.5
2026-01-10T1000,2294A,116.9897,30.6146,安庆市,安庆大学,细颗粒物(PM2.5),78,78,63,57,48,75,,81,72,28,22,12,7,0.6,0.6
2026-01-10T1000,3173A,117.0598,30.5351,安庆市,市人大,细颗粒物(PM2.5),74,65,66,54,48,69,,63,60,32,26,14,10,0.4,0.4
2026-01-10T1000,3123A,105.9408,26.2431,安顺市,凤凰山,细颗粒物(PM2.5),54,46,62,38,55,75,,69,69,20,22,23,28,0.5,0.6
2026-01-10T1000,3124A,105.9443,26.2567,安顺市,金钟山,细颗粒物(PM2.5),58,48,65,41,59,77,,71,71,15,16,20,29,0.5,0.7
2026-01-10T1000,3125A,105.8983,26.248,安顺市,娄家坡,细颗粒物(PM2.5),53,46,60,37,53,78,,72,72,14,16,14,20,0.7,0.8
2026-01-10T1000,1819A,114.3552,36.1017,安阳市,红庙街,颗粒物(PM10),56,61,134,10,16,68,,70,68,9,10,3,4,0.4,0.5
2026-01-10T1000,1820A,114.361,36.0681,安阳市,银杏小区,颗粒物(PM10),59,68,141,17,22,69,,71,70,9,14,3,8,0.3,0.4
2026-01-10T1000,3141A,114.3921,36.0879,安阳市,信访局,颗粒物(PM10),53,56,139,18,24,72,,74,73,4,7,4,5,0.4,0.5
2026-01-10T1000,3669A,114.4706,36.0634,安阳市,左辅环卫站,颗粒物(PM10),52,53,151,15,23,74,,76,76,6,7,4,4,0.3,0.3
2026-01-10T1000,4117A,114.2918,36.0769,安阳市,钢三路198号,颗粒物(PM10),68,86,135,15,21,66,,67,67,9,15,1,4,0.4,0.4
2026-01-10T1000,1748A,123.0441,41.1201,鞍山市,深沟寺,颗粒物(PM10),62,74,77,14,47,54,,45,45,11,22,8,8,0.7,0.9
2026-01-10T1000,1749A,123.011,41.0931,鞍山市,太阳城,颗粒物(PM10),57,64,81,17,49,59,,50,50,12,25,12,11,0.6,0.9
2026-01-10T1000,1750A,123.0483,41.1445,鞍山市,太平,颗粒物(PM10),52,54,84,13,48,54,,47,47,13,27,8,9,0.5,0.8
2026-01-10T1000,1751A,122.964,41.0968,鞍山市,铁西三道街,颗粒物(PM10),51,51,95,14,55,53,,45,45,15,34,13,16,1.0,1.2
2026-01-10T1000,1753A,123.0219,41.0822,鞍山市,明达新区,,,106,112,11,64,,,47,47,12,19,10,11,0.6,0.7
2026-01-10T1000,4201A,122.944647,41.082639,鞍山市,兴盛南路290号,颗粒物(PM10),104,157,113,12,52,53,,46,46,14,34,9,11,0.5,0.7
2026-01-10T1000,2195A,107.4206,40.7609,巴彦淖尔市,附二中,颗粒物(PM10),52,53,218,34,42,34,,53,46,23,9,5,3,0.6,0.4
2026-01-10T1000,2196A,107.37,40.7372,巴彦淖尔市,市环保大楼,颗粒物(PM10),52,54,200,22,36,56,,43,43,8,13,4,4,0.5,0.4
2026-01-10T1000,1956A,86.1476,41.7529,巴音郭楞蒙古自治州,孔雀公园,颗粒物(PM10),93,136,126,53,52,10,,30,30,54,42,7,7,0.8,0.7
2026-01-10T1000,1957A,86.1971,41.7166,巴音郭楞蒙古自治州,棉纺厂,颗粒物(PM10),102,154,161,47,43,5,,21,13,65,49,/,/,/,/
2026-01-10T1000,1958A,86.236,41.7172,巴音郭楞蒙古自治州,经济开发区,颗粒物(PM10),85,120,120,44,42,16,,33,32,35,28,4,4,0.7,0.7
2026-01-10T1000,3181A,106.776805,31.852614,巴中市,市五中,细颗粒物(PM2.5),112,110,103,84,79,2,,19,13,26,27,6,5,1.6,1.1
2026-01-10T1000,3183A,106.7419,31.8654,巴中市,圣泉水务公司,细颗粒物(PM2.5),103,90,85,77,70,7,,29,27,38,36,4,4,1.0,0.7
2026-01-10T1000,3616A,106.7617,31.8343,巴中市,市中心医院,细颗粒物(PM2.5),122,106,103,92,83,6,,2,2,28,34,6,7,1.1,1.1
2026-01-10T1000,2235A,122.7909,45.608,白城市,洮北区环保局,细颗粒物(PM2.5),107,102,45,80,40,30,,37,34,30,20,8,6,0.7,0.4
2026-01-10T1000,2236A,122.8741,45.5725,白城市,市环保局,细颗粒物(PM2.5),82,63,36,60,31,36,,40,38,20,15,10,5,0.5,0.3
2026-01-10T1000,2231A,126.4219,41.9172,白山市,喜丰,颗粒物(PM10),53,55,70,30,39,45,,38,38,21,30,14,15,0.9,1
2026-01-10T1000,2232A,126.4082,41.9416,白山市,环保局,细颗粒物(PM2.5),60,,56,43,49,45,,31,31,20,33,10,12,1.2,1.4
2026-01-10T1000,2647A,104.1727,36.5448,白银市,第三小学,颗粒物(PM10),56,62,64,21,25,33,,61,53,31,19,2,20,0.7,0.6
2026-01-10T1000,2648A,104.1467,36.5482,白银市,动力公司,颗粒物(PM10),57,64,61,22,24,40,,49,42,21,17,1,16,0.7,0.7
2026-01-10T1000,2512A,106.6102,23.901,百色市,市监测站,细颗粒物(PM2.5),68,70,58,49,41,12,,13,12,25,26,10,13,0.8,0.8
2026-01-10T1000,2513A,106.6524,23.8842,百色市,市中心血站,细颗粒物(PM2.5),98,107,78,73,53,13,,8,8,36,39,27,17,1.0,0.8
2026-01-10T1000,4133A,106.6273,23.8798,百色市,龙景西路,细颗粒物(PM2.5),74,88,92,54,43,14,,9,9,25,32,29,15,0.8,0.7
2026-01-10T1000,2270A,117.396,32.9389,蚌埠市,工人疗养院,颗粒物(PM10),172,293,105,34,41,56,,56,54,18,23,5,6,0.4,0.5
2026-01-10T1000,2271A,117.3606,32.9428,蚌埠市,百货大楼,颗粒物(PM10),155,260,90,42,42,56,,55,52,16,21,8,8,0.4,0.5
2026-01-10T1000,2273A,117.4183,32.8909,蚌埠市,蚌埠学院,颗粒物(PM10),167,283,85,39,44,62,,56,56,15,22,5,6,0.3,0.4
2026-01-10T1000,2274A,117.3534,32.9672,蚌埠市,淮上区政府,颗粒物(PM10),144,237,90,52,49,40,,52,46,29,23,4,3,0.5,0.6
2026-01-10T1000,2275A,117.3143,32.8977,蚌埠市,高新区,颗粒物(PM10),148,246,88,48,48,34,,45,40,35,26,11,8,0.3,0.4
2026-01-10T1000,3715A,117.3091,32.9314,蚌埠市,蚌埠田家炳中学,颗粒物(PM10),154,257,99,46,53,34,,37,32,37,38,6,7,0.4,0.5
2026-01-10T1000,1585A,109.8761,40.6533,包头市,市环境监测站,,37,37,162,8,12,61,,66,66,14,11,4,3,0.6,0.6
2026-01-10T1000,1587A,109.9992,40.5843,包头市,包头八中,,30,30,138,13,20,58,,63,62,12,11,2,3,0.5,0.4
2026-01-10T1000,1589A,109.8641,40.6288,包头市,惠龙物流,,32,32,151,17,16,62,,66,64,13,12,12,9,0.5,0.4
2026-01-10T1000,1590A,110.0376,40.5546,包头市,东河鸿龙湾,,26,26,132,3,11,51,,59,56,20,12,7,6,0.6,0.6
2026-01-10T1000,3283A,109.9154,40.5684,包头市,滨河大厦,,40,40,142,11,23,57,,56,56,8,7,14,9,0.9,0.7
2026-01-10T1000,3419A,109.9449,40.6259,包头市,包头市委党校,,43,36,124,30,21,62,,64,64,10,10,6,6,0.4,0.4
2026-01-10T1000,3683A,109.8332,40.6577,包头市,昆区政府,,30,30,132,9,15,58,,67,65,20,14,6,6,0.5,0.5
2026-01-10T1000,1931A,107.0802,34.3129,宝鸡市,竹园沟,,48,48,35,25,24,29,,36,34,19,19,6,6,0.4,0.3
2026-01-10T1000,1933A,107.1429,34.3549,宝鸡市,监测站,颗粒物(PM10),51,52,50,31,33,15,,18,16,36,33,4,5,0.6,0.5
2026-01-10T1000,1934A,107.1172,34.3759,宝鸡市,技工学校,颗粒物(PM10),64,78,60,34,32,18,,27,23,25,28,30,8,0.8,0.6
2026-01-10T1000,1936A,107.2025,34.3518,宝鸡市,文理学院,颗粒物(PM10),55,59,49,31,31,19,,24,22,32,31,6,4,0.5,0.4
2026-01-10T1000,1937A,107.2396,34.3626,宝鸡市,三迪小学,颗粒物(PM10),55,60,57,31,34,15,,16,16,38,43,5,5,0.6,0.5
2026-01-10T1000,4155A,107.1721,34.3558,宝鸡市,滨河北路,颗粒物(PM10),53,55,51,26,27,19,,23,21,27,32,6,5,0.6,0.5
2026-01-10T1000,4308A,107.3898,34.3601,宝鸡市,陈仓区北开路21号,细颗粒物(PM2.5),78,90,69,57,43,43,,40,40,37,43,98,38,1.2,0.5
2026-01-10T1000,1051A,115.4803,38.8568,保定市,游泳馆,,22,17,105,3,26,70,,73,71,2,13,5,9,0.4,0.4
2026-01-10T1000,1052A,115.509,38.8895,保定市,华电二区,,22,22,92,15,32,64,,69,67,2,13,3,3,0.5,0.6
2026-01-10T1000,1053A,115.4588,38.9037,保定市,接待中心,,26,26,97,3,25,67,,71,69,7,14,3,3,0.0,0.2
2026-01-10T1000,1054A,115.4484,38.8344,保定市,地表水厂,,,34,133,3,26,,,70,68,14,20,2,3,0.1,0.2
2026-01-10T1000,3581A,115.3136,38.9511,保定市,满城区生态环境分局,,24,17,123,3,24,74,,76,74,7,16,3,3,0.5,0.5
2026-01-10T1000,3582A,115.4709,38.7628,保定市,清苑区第二中学,,32,32,143,3,24,62,,66,65,5,12,4,6,0.2,0.3
2026-01-10T1000,3583A,115.6231,39.0223,保定市,徐水物探局,,33,33,114,11,29,69,,71,69,3,8,3,4,0.3,0.4
2026-01-10T1000,4004A,115.4199,38.8665,保定市,双鹰农机,,27,27,137,12,36,76,,77,76,2,11,4,5,0.2,0.3
2026-01-10T1000,4034A,115.515,38.8589,保定市,植保所站,,30,30,100,8,37,64,,69,67,4,11,3,3,0.3,0.4
2026-01-10T1000,2594A,99.1589,25.1137,保山市,市环境监测站,,49,,25,34,19,35,,57,51,20,8,4,3,0.6,0.3
2026-01-10T1000,2595A,99.1616,25.1381,保山市,市环保局,,33,28,28,23,22,39,,63,57,19,6,4,4,0.5,0.4
2026-01-10T1000,1867A,109.1435,21.4085,北海市,海滩公园,细颗粒物(PM2.5),102,117,58,76,40,72,,80,76,31,22,23,13,1.0,0.8
2026-01-10T1000,1868A,109.0983,21.466,北海市,新市环保局,细颗粒物(PM2.5),100,83,56,75,47,70,,88,78,41,28,16,8,1.0,0.6
2026-01-10T1000,1869A,109.1775,21.5232,北海市,北海工业园,细颗粒物(PM2.5),98,117,68,73,50,71,,65,65,36,29,36,18,0.8,0.7
2026-01-10T1000,3400A,109.1844,21.4396,北海市,龙潭自来水厂,细颗粒物(PM2.5),137,116,64,104,55,59,,43,42,32,27,22,10,1.2,0.8
2026-01-10T1000,1001A,116.3611,39.8786,北京市,万寿西宫,,26,26,74,3,26,61,,64,62,4,27,3,3,0.3,0.4
2026-01-10T1000,1003A,116.4174,39.9289,北京市,东四,,31,31,84,6,25,58,,60,58,4,24,5,5,0.2,0.4
2026-01-10T1000,1004A,116.4073,39.8858,北京市,天坛,,26,26,74,6,26,64,,66,65,3,27,3,4,0.3,0.5
2026-01-10T1000,1005A,116.4622,39.9364,北京市,农展馆,,30,30,80,6,28,64,,65,64,1,19,5,5,0.5,0.6
2026-01-10T1000,1006A,116.3399,39.9293,北京市,官园,,30,30,82,10,31,62,,63,62,2,22,5,5,0.4,0.6
2026-01-10T1000,1007A,116.2879,39.9613,北京市,海淀万柳,,29,29,72,6,23,56,,59,58,7,24,3,4,0.3,0.5
2026-01-10T1000,1008A,116.6635,40.1349,北京市,顺义新城,,30,30,73,8,27,62,,65,64,7,21,4,4,0.4,0.5
2026-01-10T1000,1009A,116.6275,40.327,北京市,怀柔镇,,21,21,54,6,23,61,,64,62,2,18,7,7,0.4,0.5
2026-01-10T1000,1010A,116.2295,40.217,北京市,昌平镇,,31,31,68,9,20,59,,60,58,8,20,5,5,0.5,0.5
2026-01-10T1000,1011A,116.3968,39.982,北京市,奥体中心,,31,31,87,7,27,64,,64,63,5,23,5,5,0.5,0.7
2026-01-10T1000,3418A,116.8336,40.4095,北京市,密云新城,,20,8,59,3,24,64,,64,62,4,19,3,4,0.3,0.5
2026-01-10T1000,3671A,116.0879,39.9725,北京市,门头沟三家店,,24,24,74,3,18,65,,65,65,2,13,4,4,0.4,0.5
2026-01-10T1000,3672A,116.1507,39.8246,北京市,丰台云岗,,39,39,77,6,21,72,,74,72,1,18,3,4,0.2,0.4
2026-01-10T1000,3674A,115.9578,39.7602,北京市,房山燕山,,21,16,65,3,22,66,,68,67,2,17,4,5,0.2,0.3
2026-01-10T1000,3675A,116.4669,39.7734,北京市,大兴旧宫,,27,27,82,3,27,64,,62,62,2,23,3,4,0.3,0.4
2026-01-10T1000,3694A,115.9859,40.4562,北京市,延庆石河营,,45,45,70,13,15,47,,62,57,14,8,3,3,0.4,0.3
2026-01-10T1000,3695A,116.6151,40.3052,北京市,怀柔新城,,20,17,46,8,20,64,,64,64,3,14,5,5,0.2,0.3
2026-01-10T1000,3696A,116.2542,39.8764,北京市,丰台小屯,,,30,77,3,25,,,53,52,6,28,4,5,0.3,0.5
2026-01-10T1000,3697A,116.8399,40.3843,北京市,密云镇,,20,14,58,3,23,61,,64,61,8,21,1,2,0.3,0.5
2026-01-10T1000,4057A,115.9423,40.4431,北京市,延庆百泉,,27,27,76,3,13,57,,60,59,1,5,2,3,0.3,0.4
2026-01-10T1000,4058A,116.6598,39.9164,北京市,通州新华,,47,47,90,10,28,50,,52,52,12,31,5,4,0.2,0.4
2026-01-10T1000,4182A,116.1942,39.9158,北京市,石景山八角,,27,27,70,3,21,57,,58,57,4,24,1,2,0.1,0.3
2026-01-10T1000,4194A,117.078628,40.151726,北京市,平谷新城,,18,10,67,3,30,57,,58,58,5,26,3,3,0.2,0.5
2026-01-10T1000,1761A,123.8274146,41.31234549,本溪市,大峪,,48,48,76,30,48,39,,37,37,17,31,9,11,0.7,1
2026-01-10T1000,1763A,123.7169,41.3094,本溪市,彩屯,颗粒物(PM10),73,95,89,26,51,49,,41,41,17,28,7,12,0.9,1.8
2026-01-10T1000,1764A,123.7672166,41.28649327,本溪市,东明,,40,40,60,26,45,46,,40,40,14,20,7,10,0.8,0.8
2026-01-10T1000,1765A,123.799345,41.266614,本溪市,新立屯,,48,48,68,26,39,43,,36,36,15,24,9,11,0.9,1
2026-01-10T1000,1766A,123.829144,41.336777,本溪市,威宁,颗粒物(PM10),58,65,83,24,44,43,,36,36,17,35,5,9,0.7,0.9
2026-01-10T1000,2587A,105.287,27.3133,毕节市,八中,细颗粒物(PM2.5),110,99,126,83,104,50,,22,22,22,27,13,14,0.8,1
2026-01-10T1000,2588A,105.3079,27.2987,毕节市,师专,细颗粒物(PM2.5),105,96,135,79,110,60,,21,21,15,36,11,12,0.7,1
2026-01-10T1000,4263A,105.3688,27.3598,毕节市,工业大道,细颗粒物(PM2.5),104,96,129,78,97,60,,27,27,14,30,12,14,/,/
2026-01-10T1000,1629A,117.9961,37.3604,滨州市,第二水厂,颗粒物(PM10),52,53,142,6,25,55,,53,52,10,19,9,10,0.3,0.4
2026-01-10T1000,1630A,117.9789,37.3931,滨州市,北中新校,,44,44,106,3,27,57,,56,54,12,21,3,6,0.2,0.4
2026-01-10T1000,3514A,117.9379,37.3959,滨州市,中海酒店,,46,46,123,12,29,62,,55,54,8,19,8,10,0.4,0.6
2026-01-10T1000,3515A,117.9381509,37.35547456,滨州市,开发区一中,颗粒物(PM10),54,58,145,7,28,59,,54,53,10,17,11,14,0.3,0.5
2026-01-10T1000,3516A,118.0914,37.6938,滨州市,金海六路,颗粒物(PM10),59,68,135,3,23,65,,59,58,11,25,3,5,0.4,0.6
2026-01-10T1000,4028A,117.9955,37.3752,滨州市,滨州市西街道办事处,颗粒物(PM10),51,51,131,12,29,61,,58,57,9,16,7,9,0.2,0.3
2026-01-10T1000,2311A,115.8071,33.8399,亳州市,污水处理厂,颗粒物(PM10),151,251,103,31,36,55,,38,38,10,16,4,4,0.2,0.3
2026-01-10T1000,2312A,115.7789,33.8519,亳州市,三国揽胜宫,颗粒物(PM10),144,238,103,40,42,53,,42,42,16,20,3,4,0.2,0.3
2026-01-10T1000,3332A,115.7631,33.803,亳州市,亳州学院,颗粒物(PM10),124,198,101,27,38,60,,49,49,16,19,3,3,0.1,0.2
2026-01-10T1000,2693A,82.0482,44.8553,博尔塔拉蒙古自治州,市党校,颗粒物(PM10),67,83,119,46,80,60,,59,59,19,25,3,3,0.6,0.9
2026-01-10T1000,2694A,82.0805,44.8966,博尔塔拉蒙古自治州,市环保局,颗粒物(PM10),64,78,134,32,66,43,,58,55,22,30,5,6,0.9,1.2
2026-01-10T1000,1071A,116.8733,38.2922,沧州市,沧县城建局,,44,44,134,22,33,56,,67,64,17,17,4,4,0.3,0.3
2026-01-10T1000,1072A,116.8462,38.3189,沧州市,电视转播站,,40,40,113,17,28,48,,60,58,21,20,1,3,0.4,0.4
2026-01-10T1000,1073A,116.8588,38.3161,沧州市,市环保局,颗粒物(PM10),51,51,134,21,39,49,,59,56,15,15,6,5,0.4,0.4
2026-01-10T1000,3324A,116.8011,38.294,沧州市,河北水利电力学院,,41,41,150,12,27,47,,58,56,17,18,3,4,0.3,0.3
2026-01-10T1000,2622A,97.1813,31.1289,昌都市,昌都监测站,,25,25,52,7,9,38,,40,40,11,22,3,3,0.4,0.7
2026-01-10T1000,3719A,97.1707,31.1428,昌都市,昌都会议中心,,20,20,19,13,11,40,,47,45,1,3,2,1,0.3,0.3
2026-01-10T1000,2692A,87.2722,44.0298,昌吉回族自治州,新区政务中心,细颗粒物(PM2.5),186,205,111,140,80,5,,24,18,63,37,11,7,1.6,1.1
2026-01-10T1000,3613A,87.3069,44.0093,昌吉回族自治州,亚心广场,细颗粒物(PM2.5),257,271,123,207,94,12,,40,30,58,28,30,8,1.6,1
2026-01-10T1000,4164A,87.2057,43.9289,昌吉回族自治州,财政所,细颗粒物(PM2.5),150,154,102,115,78,20,,21,21,34,31,5,5,1.4,1
2026-01-10T1000,1120A,125.2874,43.9024,长春市,客车厂,,,71,60,69,60,,,33,33,31,36,13,11,0.7,0.6
2026-01-10T1000,1121A,125.2943,43.8508,长春市,邮电学院,细颗粒物(PM2.5),94,,77,70,58,38,,34,34,30,34,17,15,0.6,0.5
2026-01-10T1000,1122A,125.3648,43.8745,长春市,劳动公园,细颗粒物(PM2.5),74,79,74,54,50,42,,38,38,27,31,12,10,0.7,0.7
2026-01-10T1000,1123A,125.3233,43.8781,长春市,园林处,细颗粒物(PM2.5),69,51,59,50,48,39,,37,37,24,27,13,10,0.8,0.6
2026-01-10T1000,1124A,125.4604,43.7904,长春市,净月潭,细颗粒物(PM2.5),73,61,68,53,54,42,,39,39,23,25,9,7,0.6,0.6
2026-01-10T1000,1126A,125.38,43.8422,长春市,经开区环卫处,细颗粒物(PM2.5),74,68,68,54,48,41,,37,37,25,33,8,8,0.6,0.6
2026-01-10T1000,1127A,125.234,43.7761,长春市,高新区管委会,细颗粒物(PM2.5),89,,55,66,49,45,,39,39,24,36,10,9,1.0,0.8
2026-01-10T1000,1128A,125.1695,43.83,长春市,岱山公园,细颗粒物(PM2.5),89,,64,66,56,44,,39,39,19,40,6,8,0.6,0.6
2026-01-10T1000,4281A,125.334645,43.916281,长春市,北亚泰大街1068号,细颗粒物(PM2.5),72,52,61,52,54,40,,36,36,25,27,9,8,0.8,0.7
2026-01-10T1000,1335A,113.082,28.2421,长沙市,经开区环保局,细颗粒物(PM2.5),55,58,76,39,49,26,,7,7,45,52,19,10,0.6,0.6
2026-01-10T1000,1336A,112.8873,28.2202,长沙市,高开区环保局,"颗粒物(PM10),细颗粒物(PM2.5)",59,67,71,42,52,28,,4,4,32,43,6,8,0.8,0.8
2026-01-10T1000,1337A,113.0785,28.2012,长沙市,马坡岭,细颗粒物(PM2.5),69,80,76,50,53,13,,15,15,41,43,5,6,0.8,0.8
2026-01-10T1000,1338A,112.9448,28.1894,长沙市,湖南师范大学,细颗粒物(PM2.5),58,60,66,41,41,43,,15,15,44,51,6,7,0.7,0.7
2026-01-10T1000,1339A,113.0177,28.1322,长沙市,雨花区环保局,颗粒物(PM10),53,55,68,34,44,32,,12,12,36,47,8,10,0.7,0.7
2026-01-10T1000,1340A,112.9795,28.2593,长沙市,伍家岭,颗粒物(PM10),86,121,105,61,62,5,,1,1,44,53,6,6,1.0,0.9
2026-01-10T1000,1341A,113.002,28.1944,长沙市,火车新站,细颗粒物(PM2.5),70,72,88,51,62,29,,16,16,44,56,9,10,0.7,0.9
2026-01-10T1000,1342A,112.9846,28.1177,长沙市,天心区环保局,颗粒物(PM10),53,55,62,35,42,50,,25,25,32,46,6,8,0.7,0.9
2026-01-10T1000,1343A,112.8906,28.1307,长沙市,湖南中医药大学,细颗粒物(PM2.5),74,92,78,54,50,10,,2,2,55,57,7,8,1.0,0.9
2026-01-10T1000,1727A,113.1146,36.1547,长治市,清华站,颗粒物(PM10),62,73,106,14,23,68,,63,63,6,12,9,11,0.4,0.5
2026-01-10T1000,1730A,113.0887,36.2126,长治市,审计局,颗粒物(PM10),61,71,105,14,21,67,,65,65,7,13,6,7,0.3,0.4
2026-01-10T1000,1731A,113.0845,36.1856,长治市,长治八中,颗粒物(PM10),73,96,137,22,27,66,,60,60,3,8,8,9,0.4,0.4
2026-01-10T1000,2845A,113.1561,36.1912,长治市,德盛苑,颗粒物(PM10),59,67,102,17,27,71,,72,72,6,10,6,8,0.3,0.3
2026-01-10T1000,3568A,113.0603,36.0464,长治市,向阳小学,颗粒物(PM10),78,105,133,16,26,74,,70,70,8,15,7,8,0.3,0.4
2026-01-10T1000,3569A,112.8788,36.315,长治市,屯留一中,颗粒物(PM10),69,88,122,14,21,71,,66,66,1,9,3,5,0.1,0.3
2026-01-10T1000,4189A,113.113092,36.199482,长治市,英华南巷50号,颗粒物(PM10),61,71,125,39,48,72,,70,70,5,10,5,6,0.3,0.4
2026-01-10T1000,4190A,113.23666,36.33435,长治市,学府街1号,颗粒物(PM10),59,68,131,17,23,67,,69,69,10,12,6,9,0.3,0.4
2026-01-10T1000,1854A,111.696,28.9725,常德市,市二中,细颗粒物(PM2.5),80,61,48,59,41,29,,51,45,20,18,6,6,0.8,0.6
2026-01-10T1000,3138A,111.7152,29.0288,常德市,武陵区永安,细颗粒物(PM2.5),80,68,61,59,44,25,,16,16,29,25,5,5,0.9,0.7
2026-01-10T1000,3139A,111.6891,28.9881,常德市,鼎城区玉霞,细颗粒物(PM2.5),90,77,64,67,51,23,,18,18,28,28,8,8,0.7,0.5
2026-01-10T1000,3140A,111.6651,29.0526,常德市,武陵区长庚,细颗粒物(PM2.5),103,96,69,77,53,14,,9,9,37,34,4,5,1.0,0.8
2026-01-10T1000,1196A,119.9524,31.7586,常州市,市监测站,细颗粒物(PM2.5),77,87,59,56,40,42,,52,49,52,44,9,8,1.0,0.8
2026-01-10T1000,1200A,119.9351,31.703,常州市,武进监测站,,,85,53,52,37,,,44,43,40,38,14,12,0.7,0.4
2026-01-10T1000,3002A,119.9701,31.813,常州市,行政中心,"颗粒物(PM10),细颗粒物(PM2.5)",75,100,64,55,39,40,,56,49,47,33,12,10,0.8,0.6
2026-01-10T1000,3003A,120.0434,31.7726,常州市,经开区,颗粒物(PM10),72,94,69,51,37,52,,63,61,39,33,10,9,0.8,0.5
2026-01-10T1000,3010A,119.8919,31.7892,常州市,钟楼,细颗粒物(PM2.5),75,84,65,55,38,42,,47,42,45,39,12,10,0.7,0.5
2026-01-10T1000,3429A,119.8595,31.706,常州市,武进经发区,细颗粒物(PM2.5),95,88,61,71,47,48,,58,55,38,32,13,11,0.9,0.6
2026-01-10T1000,3430A,119.5812,31.7256,常州市,金坛城区,细颗粒物(PM2.5),78,84,58,57,41,40,,47,43,29,25,12,10,1.0,0.7
2026-01-10T1000,4089A,119.9551,31.863,常州市,崇义南街5-H号,细颗粒物(PM2.5),85,98,66,63,39,34,,45,36,50,44,17,10,1.1,0.7
2026-01-10T1000,2220A,120.4318,41.588,朝阳市,西梁,,46,46,74,6,38,54,,52,52,16,30,8,15,0.4,0.8
2026-01-10T1000,2221A,120.452,41.565,朝阳市,河畔小区,,44,44,62,7,34,60,,60,60,13,22,7,16,0.4,0.7
2026-01-10T1000,2222A,120.4176,41.5648,朝阳市,八里堡,,26,26,71,8,35,62,,59,59,10,28,7,15,0.3,0.7
2026-01-10T1000,3026A,116.6179,23.6608,潮州市,市政府,颗粒物(PM10),52,54,59,24,36,68,,54,54,15,20,9,10,0.4,0.4
2026-01-10T1000,4036A,116.646,23.676,潮州市,金山,颗粒物(PM10),55,59,49,22,33,58,,49,48,12,15,4,5,0.3,0.3
2026-01-10T1000,2473A,113.0116,25.8228,郴州市,市职中,细颗粒物(PM2.5),55,48,43,39,33,0,,0,0,31,29,6,7,0.7,0.6
2026-01-10T1000,2475A,113.0381,25.8074,郴州市,市审计局,细颗粒物(PM2.5),55,58,47,39,32,0,,0,0,36,34,4,5,/,/
2026-01-10T1000,2476A,113.0348,25.7757,郴州市,市环保局,,46,46,50,30,30,6,,3,3,41,38,4,6,0.7,0.6
2026-01-10T1000,4252A,113.0138,25.8011,郴州市,好美居路49号,,49,40,45,34,34,6,,2,2,32,36,3,5,/,/
2026-01-10T1000,1431A,103.9727,30.7242,成都市,金泉两河,细颗粒物(PM2.5),144,155,127,110,96,38,,24,24,44,62,10,5,0.9,1.3
2026-01-10T1000,1432A,104.1423,30.6765,成都市,十里店,细颗粒物(PM2.5),127,138,110,96,79,23,,11,11,52,59,6,5,0.9,0.8
2026-01-10T1000,1433A,104.0594,30.5765,成都市,三瓦窑,细颗粒物(PM2.5),149,137,97,114,81,5,,5,2,80,65,6,5,1.2,0.9
2026-01-10T1000,1434A,104.1122,30.6306,成都市,沙河铺,细颗粒物(PM2.5),188,154,110,141,95,14,,7,7,71,72,3,4,1.0,0.9
2026-01-10T1000,2880A,104.0219,30.6561,成都市,大石西路,细颗粒物(PM2.5),142,142,115,108,87,14,,9,9,63,63,6,6,1.1,1.1
2026-01-10T1000,3136A,104.2724,30.559,成都市,龙泉驿区区政府,细颗粒物(PM2.5),125,114,81,95,67,26,,64,47,45,24,7,7,0.6,0.5
2026-01-10T1000,3357A,104.0028,30.6891,成都市,金博路,细颗粒物(PM2.5),138,129,114,105,94,18,,4,4,52,68,6,5,1.2,1.3
2026-01-10T1000,3359A,104.056,30.5228,成都市,华阳,细颗粒物(PM2.5),128,124,90,97,72,8,,6,4,81,60,4,4,1.0,0.9
2026-01-10T1000,3488A,104.387954,30.746684,成都市,青石路225号,,,,77,,77,7,,33,12,60,45,4,4,1.3,0.7
2026-01-10T1000,3489A,104.0788,30.4054,成都市,科学城,细颗粒物(PM2.5),103,94,83,77,71,6,,2,2,48,38,7,7,0.8,0.5
2026-01-10T1000,4011A,103.8505,30.6946,成都市,光华大道三段,细颗粒物(PM2.5),156,147,130,119,105,41,,19,19,43,55,9,5,0.9,1.1
2026-01-10T1000,4144A,104.3257,30.6406,成都市,八角井街185号,细颗粒物(PM2.5),125,119,98,95,76,14,,60,38,54,27,2,3,1.0,0.7
2026-01-10T1000,4224A,104.2433276,30.53529463,成都市,鲸龙路1057号,细颗粒物(PM2.5),144,132,97,110,80,17,,8,8,54,46,7,6,0.9,0.7
2026-01-10T1000,1062A,117.9531,40.908,承德市,铁路,,28,28,65,3,22,59,,62,61,4,19,3,6,0.2,0.4
2026-01-10T1000,1063A,117.9397,40.9763,承德市,中国银行,,36,36,70,10,23,57,,63,60,6,16,3,3,0.2,0.4
2026-01-10T1000,4073A,117.9462,40.95,承德市,杏林街1号,,19,,63,10,26,58,,62,61,3,12,3,4,0.2,0.4
2026-01-10T1000,4274A,117.7994,40.9605,承德市,滨河大街98号,,19,,59,3,25,60,,60,58,4,19,3,5,0.2,0.4
2026-01-10T1000,2314A,117.4698,30.6617,池州市,池州学院,细颗粒物(PM2.5),73,72,57,53,39,49,,55,51,43,25,21,18,1.0,0.8
2026-01-10T1000,3237A,117.4918,30.6617,池州市,展览馆,细颗粒物(PM2.5),68,64,52,49,34,52,,37,33,40,25,15,4,1.0,0.7
2026-01-10T1000,3333A,117.5626,30.695,池州市,第八中学,细颗粒物(PM2.5),83,89,63,61,39,30,,36,33,55,34,17,20,1.3,0.7
2026-01-10T1000,3334A,117.5037,30.6242,池州市,第十二中学,颗粒物(PM10),57,63,51,38,31,42,,50,39,46,31,6,5,1.5,0.7
2026-01-10T1000,1744A,118.9229,42.2816,赤峰市,松山一中,,18,15,59,3,21,55,,57,57,9,23,4,19,0.6,1
2026-01-10T1000,1745A,118.9588,42.2733,赤峰市,哈达街,,18,13,63,10,23,56,,60,59,11,24,5,38,0.6,0.9
2026-01-10T1000,1746A,118.8792,42.2551,赤峰市,天义路,,20,,51,10,31,64,,67,65,7,27,5,31,0.4,0.7
2026-01-10T1000,3058A,119.2656,42.0356,赤峰市,银河街,,20,18,86,14,47,58,,59,58,9,20,16,18,0.8,1
2026-01-10T1000,3286A,118.9359,42.3146,赤峰市,桥北物流园区,,19,15,44,8,27,59,,67,65,11,16,4,10,0.4,0.7
2026-01-10T1000,2521A,107.3473,22.4137,崇左市,市环保局江州分局,细颗粒物(PM2.5),97,86,84,72,59,25,,13,13,23,33,11,9,0.8,0.8
2026-01-10T1000,4256A,107.375,22.3736,崇左市,石景林东路7号,细颗粒物(PM2.5),89,76,69,66,56,22,,20,20,30,30,7,8,0.7,0.6
2026-01-10T1000,3207A,118.31131,32.3033,滁州市,市政府原办公楼,颗粒物(PM10),99,147,61,47,38,56,,83,74,21,19,6,7,0.4,0.4
2026-01-10T1000,3331A,118.3268,32.2633,滁州市,图书馆,颗粒物(PM10),84,118,60,31,33,57,,69,63,19,21,9,10,0.4,0.4
2026-01-10T1000,4101A,118.3196,32.3335,滁州市,银山路666号,颗粒物(PM10),99,148,60,51,48,49,,72,64,23,21,12,15,0.3,0.3
2026-01-10T1000,4102A,118.3426,32.2979,滁州市,黄山路555号,颗粒物(PM10),124,198,77,49,50,57,,76,68,22,21,10,12,0.6,0.7
2026-01-10T1000,2606A,101.5379,25.0492,楚雄彝族自治州,市经济开发区,细颗粒物(PM2.5),54,42,22,38,16,15,,25,19,28,11,21,4,0.8,0.7
2026-01-10T1000,4153A,101.5536,25.0343,楚雄彝族自治州,团结路562号,,35,32,21,24,15,8,,19,15,19,5,1,2,0.7,0.5
2026-01-10T1000,2549A,107.5087,31.2186,达州市,市环境监测站,细颗粒物(PM2.5),98,91,103,73,83,15,,11,11,40,50,9,8,0.6,0.6
2026-01-10T1000,2550A,107.4988,31.2132,达州市,凤凰小区,细颗粒物(PM2.5),104,100,110,78,81,16,,14,14,35,44,9,7,0.6,0.7
2026-01-10T1000,2551A,107.5081,31.1987,达州市,达县机关宾馆,细颗粒物(PM2.5),109,117,118,82,83,10,,9,8,42,53,6,4,0.8,0.9
2026-01-10T1000,2552A,107.4644,31.2124,达州市,市政中心,细颗粒物(PM2.5),104,104,118,78,83,14,,11,11,40,48,8,8,0.7,0.7
2026-01-10T1000,2614A,100.2168,25.5818,大理白族自治州,大理市环境监测站,,38,,26,26,21,62,,74,71,12,8,6,6,0.6,0.6
2026-01-10T1000,2615A,100.1542,25.7055,大理白族自治州,大理古城,,23,23,24,7,19,57,,64,61,14,11,8,8,0.5,0.5
2026-01-10T1000,1109A,121.6119,38.974,大连市,甘井子,颗粒物(PM10),62,73,92,8,54,67,,52,52,11,31,5,10,0.4,0.5
2026-01-10T1000,1110A,121.565,38.9509,大连市,周水子,,45,45,87,8,57,60,,47,47,9,28,4,9,0.4,0.7
2026-01-10T1000,1111A,121.5637,38.8849,大连市,星海三站,,41,41,77,11,52,59,,46,46,15,25,6,8,0.3,0.6
2026-01-10T1000,1112A,121.6301,38.9117,大连市,青泥洼桥,,19,19,84,7,76,59,,47,47,11,27,6,9,0.2,0.6
2026-01-10T1000,1113A,121.6248,38.8643,大连市,傅家庄,,38,38,81,8,48,54,,43,43,12,26,7,11,0.2,0.6
2026-01-10T1000,1114A,121.5117,38.8636,大连市,七贤岭,,42,42,83,7,47,59,,48,48,8,24,6,10,0.5,0.8
2026-01-10T1000,1116A,121.7507,39.1339,大连市,金州,,,27,90,10,61,,,50,50,9,36,8,12,0.2,0.7
2026-01-10T1000,1117A,121.7811,39.0495,大连市,开发区,,44,44,90,9,56,59,,42,42,7,32,5,6,0.5,0.9
2026-01-10T1000,1118A,121.9762,39.0631,大连市,双D港,,31,31,84,9,63,69,,50,50,8,28,8,10,0.2,0.6
2026-01-10T1000,4082A,121.2548,38.8188,大连市,旅顺,,,56,93,11,46,62,,52,52,4,17,5,8,,0.8
2026-01-10T1000,1789A,124.8085,46.0381,大庆市,大同区,细颗粒物(PM2.5),64,67,58,46,44,47,,43,43,15,20,7,6,0.6,0.6
2026-01-10T1000,1790A,125.1166,46.5255,大庆市,龙凤区,,43,40,43,30,32,31,,43,37,33,28,10,9,0.7,0.6
2026-01-10T1000,1791A,124.8894,46.4007,大庆市,红岗区,细颗粒物(PM2.5),58,46,49,41,37,28,,32,30,22,25,4,5,0.7,0.8
2026-01-10T1000,1792A,125.1391,46.578,大庆市,萨尔图区,,38,27,52,26,37,40,,46,43,15,16,9,8,0.4,0.5
2026-01-10T1000,1793A,124.9026,46.6217,大庆市,让胡路区,细颗粒物(PM2.5),60,,47,43,44,42,,49,46,20,16,9,8,0.6,0.5
2026-01-10T1000,3481A,125.127,46.6277,大庆市,萨区政府监测点,,40,40,56,24,40,43,,43,42,14,16,11,9,0.4,0.4
2026-01-10T1000,1723A,113.2926,40.0759,大同市,云冈宾馆,,35,35,154,11,20,56,,59,57,8,9,4,4,0.4,0.4
2026-01-10T1000,1724A,113.3437,40.0921,大同市,大同大学,,26,26,130,6,16,66,,65,63,5,7,2,2,0.4,0.4
2026-01-10T1000,1725A,113.2637,40.129,大同市,安家小村,,18,17,143,10,15,56,,62,60,6,8,4,3,0.2,0.2
2026-01-10T1000,3282A,113.3399,40.0586,大同市,大同市卫生学校,,28,28,135,7,16,58,,63,61,10,10,2,3,0.2,0.2
2026-01-10T1000,3565A,113.1371,40.1122,大同市,云冈站,,22,22,145,10,17,57,,57,54,5,5,4,4,0.4,0.4
2026-01-10T1000,3566A,113.1186,40.2556,大同市,图书馆,,20,13,124,8,20,64,,62,61,2,2,2,2,0.3,0.4
2026-01-10T1000,3567A,113.5931,40.0459,大同市,区一中,,,38,150,8,20,,,69,67,9,10,2,2,0.3,0.3
2026-01-10T1000,4199A,113.2798248,40.09972476,大同市,魏都大道141号,,31,31,158,7,16,60,,60,58,7,8,3,3,0.5,0.4
2026-01-10T1000,2269A,124.1068,50.4091,大兴安岭地区,科技局,,29,20,24,20,19,45,,42,42,4,10,5,5,0.3,0.3
2026-01-10T1000,3663A,124.117,50.4279,大兴安岭地区,红旗社区,,32,24,40,22,34,34,,16,16,22,34,11,9,0.6,0.6
2026-01-10T1000,1600A,124.33,40.0625,丹东市,江湾东路,"颗粒物(PM10),细颗粒物(PM2.5)",53,55,82,37,52,42,,32,32,15,21,7,12,0.7,1.2
2026-01-10T1000,1601A,124.4242,40.1513,丹东市,临江后街,,50,50,80,26,47,42,,32,32,18,30,7,10,0.7,1
2026-01-10T1000,1602A,124.3935,40.1461,丹东市,元宝山,,43,43,67,27,42,45,,38,38,15,25,7,11,0.5,0.8
2026-01-10T1000,1603A,124.3634,40.1093,丹东市,民主桥,,,,87,28,49,,,37,36,18,32,7,14,0.5,0.9
2026-01-10T1000,3541A,109.5726195,19.51688767,儋州市,第一中学子站,,38,38,43,20,24,84,,91,85,12,9,5,5,0.5,0.5
2026-01-10T1000,3542A,109.5567,19.5187,儋州市,东坡学校子站,,41,41,40,26,28,88,,101,92,11,9,8,5,0.6,0.5
2026-01-10T1000,2616A,98.5611,24.4273,德宏傣族景颇族自治州,德宏州监测站,细颗粒物(PM2.5),87,70,60,64,48,12,,8,5,23,24,7,7,0.8,0.7
2026-01-10T1000,3677A,98.5887,24.4366,德宏傣族景颇族自治州,芒市人民政府综合楼,,50,49,54,35,37,15,,14,10,18,17,4,4,0.9,0.7
2026-01-10T1000,1901A,104.424,31.1209,德阳市,东山公园,细颗粒物(PM2.5),128,109,86,97,80,44,,67,52,30,22,4,5,0.9,0.8
2026-01-10T1000,1902A,104.3827,31.1318,德阳市,西小区,细颗粒物(PM2.5),133,143,130,101,94,16,,8,8,52,60,4,5,1.2,1
2026-01-10T1000,1904A,104.3553,31.1091,德阳市,耐火材料厂,细颗粒物(PM2.5),143,141,121,109,104,25,,20,19,50,55,4,4,0.9,0.9
2026-01-10T1000,4145A,104.4144,31.1495,德阳市,市林业局,细颗粒物(PM2.5),169,153,105,128,94,10,,10,10,56,57,4,4,1.2,1
2026-01-10T1000,1622A,116.3034,37.4675,德州市,儿童乐园,颗粒物(PM10),69,88,178,3,25,58,,54,54,16,22,9,11,0.7,0.9
2026-01-10T1000,1624A,116.2992,37.4449,德州市,监理站,颗粒物(PM10),54,58,180,3,23,68,,63,63,16,22,11,13,0.5,0.6
2026-01-10T1000,3066A,116.2722,37.438,德州市,九衢泉纯净水厂,颗粒物(PM10),54,58,174,12,25,57,,56,55,20,23,10,13,0.4,0.6
2026-01-10T1000,3371A,116.3693,37.44,德州市,开发区人民医院,颗粒物(PM10),57,63,174,3,23,62,,64,63,28,33,10,12,0.3,0.5
2026-01-10T1000,3511A,116.5687,37.3331,德州市,陵城艺术中心,颗粒物(PM10),57,63,139,7,25,57,,59,58,23,29,13,10,0.1,0.2
2026-01-10T1000,4292A,116.352738,37.420875,德州市,新河东路,颗粒物(PM10),52,53,169,7,26,64,,63,63,11,23,10,12,0.8,0.8
2026-01-10T1000,2621A,99.7054,27.8319,迪庆藏族自治州,迪庆州站,,42,41,27,29,19,60,,74,68,16,9,6,5,0.7,0.5
2026-01-10T1000,3180A,99.7122,27.8129,迪庆藏族自治州,质量技术监督局,细颗粒物(PM2.5),65,62,27,47,16,44,,82,72,42,11,5,4,1.1,0.4
2026-01-10T1000,4257A,104.6092,35.5962,定西市,将台街,细颗粒物(PM2.5),88,114,66,65,36,16,,14,10,30,29,25,14,1.4,0.7
2026-01-10T1000,4309A,104.6159,35.5701,定西市,正龙路62号,细颗粒物(PM2.5),176,,75,133,45,24,,31,28,10,12,12,12,0.9,0.8
2026-01-10T1000,1390A,113.7943,23.0132,东莞市,东城石井,颗粒物(PM10),55,60,57,36,33,44,,11,11,55,56,11,8,0.6,0.6
2026-01-10T1000,1391A,113.7384,22.9659,东莞市,南城西平,"颗粒物(PM10),细颗粒物(PM2.5)",63,75,61,45,35,29,,5,5,75,61,13,11,0.7,0.6
2026-01-10T1000,3319A,113.7283,23.041,东莞市,万江金泰,,50,50,67,26,37,49,,16,16,43,57,10,8,0.7,0.8
2026-01-10T1000,4129A,113.8666,23.1062,东莞市,裕兴路,颗粒物(PM10),52,54,68,25,34,59,,34,34,40,55,13,10,0.7,0.7
2026-01-10T1000,4130A,114.0076,22.9739,东莞市,教育路1号,颗粒物(PM10),70,90,95,49,48,38,,8,8,69,71,9,7,0.7,0.8
2026-01-10T1000,4131A,113.7981,22.8124,东莞市,长怡路1号,细颗粒物(PM2.5),74,96,78,54,40,36,,10,10,80,69,12,10,0.7,0.6
2026-01-10T1000,1666A,118.6612,37.4313,东营市,市环保局,颗粒物(PM10),52,53,133,7,25,59,,58,57,19,27,9,14,0.5,0.6
2026-01-10T1000,3036A,118.6903,37.4337,东营市,开发区管委会,颗粒物(PM10),72,93,145,7,29,64,,62,61,13,26,10,16,0.5,0.6
2026-01-10T1000,3365A,118.5721,37.5654,东营市,垦利区民丰路,颗粒物(PM10),64,78,128,3,27,61,,54,54,13,26,2,6,0.5,0.6
2026-01-10T1000,3498A,118.5063,37.8606,东营市,河口城区,颗粒物(PM10),64,78,126,3,28,71,,65,65,14,28,5,7,0.5,0.7
2026-01-10T1000,3646A,118.4979,37.4623,东营市,胜利站,,43,43,105,3,28,59,,57,56,17,29,12,14,0.2,0.5
2026-01-10T1000,3734A,118.5753,37.4405,东营市,理想之城,颗粒物(PM10),58,66,128,9,32,57,,57,56,14,26,7,9,0.5,0.7
2026-01-10T1000,1591A,110.0024,39.8127,鄂尔多斯市,综合楼,,18,14,186,3,27,57,,56,55,9,9,4,4,0.4,0.3
2026-01-10T1000,1592A,109.9485,39.8259,鄂尔多斯市,巴音孟克林场办事处,,22,22,252,7,28,61,,59,59,7,8,5,6,0.3,0.2
2026-01-10T1000,1593A,109.7734,39.5987,鄂尔多斯市,康泽苑,,31,31,252,12,34,62,,56,56,7,6,5,4,0.3,0.3
2026-01-10T1000,1594A,109.8121,39.5987,鄂尔多斯市,华泰汽车城,,34,34,247,12,31,61,,59,58,7,6,3,3,0.3,0.3
2026-01-10T1000,1595A,109.9734,39.7884,鄂尔多斯市,奥林花园,,22,22,258,3,26,61,,60,59,10,12,3,4,0.3,0.3
2026-01-10T1000,2436A,114.894,30.3989,鄂州市,市政府,细颗粒物(PM2.5),75,69,78,55,55,33,,11,11,42,50,6,9,0.8,0.9
2026-01-10T1000,2437A,114.8986,30.3714,鄂州市,赵家坝,细颗粒物(PM2.5),94,101,76,70,51,28,,18,18,36,28,16,12,1.0,0.9
2026-01-10T1000,3654A,114.8093,30.4091,鄂州市,精准医疗中心,细颗粒物(PM2.5),79,80,79,58,57,45,,22,22,37,44,6,6,0.7,0.6
2026-01-10T1000,2454A,109.4978,30.2979,恩施土家族苗族自治州,湖北民院,细颗粒物(PM2.5),110,,83,83,87,17,,10,10,19,25,6,6,0.9,1
2026-01-10T1000,3549A,109.5061,30.3771,恩施土家族苗族自治州,龙凤新区,细颗粒物(PM2.5),72,64,73,52,59,15,,8,8,17,15,7,7,0.5,0.5
2026-01-10T1000,2499A,108.3411,21.6159,防城港市,沙万,颗粒物(PM10),55,60,66,38,40,61,,82,71,21,29,8,12,0.6,0.6
2026-01-10T1000,2500A,108.3515,21.7733,防城港市,防城档案局,颗粒物(PM10),74,97,77,44,50,43,,24,23,36,24,6,7,0.6,0.7
2026-01-10T1000,2501A,108.3506,21.6414,防城港市,大海花园,细颗粒物(PM2.5),59,59,59,42,41,52,,84,73,30,24,8,16,0.8,0.8
2026-01-10T1000,1371A,113.1293,23.0065,佛山市,湾梁,,,,58,,35,,,97,,,54,,,,
2026-01-10T1000,1372A,113.1082,23.0477,佛山市,华材职中,颗粒物(PM10),80,110,97,54,49,18,,8,8,87,79,10,7,0.7,0.7
2026-01-10T1000,1373A,113.1439,23.045,佛山市,南海气象局,细颗粒物(PM2.5),82,96,79,60,44,9,,2,2,86,70,/,/,/,/
2026-01-10T1000,1374A,113.2879,22.8094,佛山市,顺德苏岗,"颗粒物(PM10),细颗粒物(PM2.5)",67,83,57,48,37,26,,6,6,82,69,/,/,0.8,0.7
2026-01-10T1000,1376A,112.8384,22.8678,佛山市,高明孔堂,颗粒物(PM10),68,85,47,46,32,32,,40,36,66,30,/,/,/,/
2026-01-10T1000,1377A,112.8835,23.1584,佛山市,三水监测站,颗粒物(PM10),69,88,78,48,44,32,,9,9,54,67,25,13,0.7,0.7
2026-01-10T1000,1378A,112.8668,23.185,佛山市,三水云东海,细颗粒物(PM2.5),69,81,61,50,42,37,,6,6,52,52,/,/,/,/
2026-01-10T1000,3625A,113.2568,22.7629,佛山市,容桂街道办,细颗粒物(PM2.5),77,90,84,56,48,22,,5,5,85,79,/,/,/,/
2026-01-10T1000,1282A,119.2681,26.0506,福州市,师大,,41,41,50,22,34,62,,54,52,25,33,6,5,0.5,0.5
2026-01-10T1000,1283A,119.2983,26.1028,福州市,五四北路,,45,45,47,25,37,61,,53,53,26,33,6,6,0.6,0.6
2026-01-10T1000,1284A,119.2648,26.0769,福州市,杨桥西路,,37,37,47,21,34,56,,50,49,20,24,7,6,/,/
2026-01-10T1000,3048A,119.5799,26.0937,福州市,九龙,颗粒物(PM10),56,62,41,38,32,55,,61,58,37,24,7,5,0.7,0.6
2026-01-10T1000,3526A,119.5188,25.9666,福州市,吴航,颗粒物(PM10),53,56,56,32,34,45,,36,34,34,33,6,6,0.6,0.6
2026-01-10T1000,4104A,119.3106,26.0648,福州市,路通桥巷6号,,42,37,57,29,39,55,,51,50,22,24,/,/,/,/
2026-01-10T1000,1755A,123.7974,41.8494,抚顺市,望花区,,46,41,87,32,59,47,,43,43,16,36,8,17,0.6,0.8
2026-01-10T1000,1756A,123.9161,41.8827,抚顺市,顺城区,,46,36,82,32,55,48,,39,39,18,44,6,10,0.6,0.9
2026-01-10T1000,1757A,124.0437,41.8615,抚顺市,东洲区,细颗粒物(PM2.5),52,38,73,36,52,47,,38,38,18,31,8,9,0.7,0.9
2026-01-10T1000,1758A,123.9246,41.8638,抚顺市,新抚区,,48,36,84,33,57,51,,41,41,21,52,7,9,0.8,1.2
2026-01-10T1000,1759A,124.0972,41.8961,抚顺市,大伙房水库,,48,39,67,33,49,47,,37,37,14,24,10,11,0.8,0.9
2026-01-10T1000,1760A,123.708,41.8386,抚顺市,沈抚新城,,44,44,85,18,58,52,,48,48,8,32,6,9,0.5,0.9
2026-01-10T1000,2377A,116.3544,27.9833,抚州市,市站,颗粒物(PM10),51,52,50,24,28,37,,36,33,29,24,10,9,0.5,0.5
2026-01-10T1000,2378A,116.3562,27.9631,抚州市,血防站,颗粒物(PM10),51,52,48,28,28,20,,24,21,53,43,8,6,1.1,1
2026-01-10T1000,2379A,116.3561,28.0007,抚州市,采茶剧团,颗粒物(PM10),51,52,47,32,28,41,,32,29,24,23,6,6,0.8,0.7
2026-01-10T1000,2380A,116.3854,27.9648,抚州市,医学分院,,43,43,48,24,25,43,,43,38,24,18,7,6,0.7,0.7
2026-01-10T1000,2207A,121.6095,41.9978,阜新市,工业园区,,24,24,58,15,24,59,,66,65,8,16,7,11,0.4,0.5
2026-01-10T1000,2208A,121.6567,42.0188,阜新市,长青街,,20,20,42,14,24,58,,63,63,7,14,7,12,0.4,0.5
2026-01-10T1000,2209A,121.6672,42.07,阜新市,农业园区,,25,,46,17,22,54,,57,57,9,14,6,7,0.3,0.4
2026-01-10T1000,2211A,121.6343,42.0455,阜新市,玉龙新城,,21,21,52,12,21,57,,62,61,8,16,8,10,0.4,0.4
2026-01-10T1000,2301A,115.8276,32.8929,阜阳市,市监测站,颗粒物(PM10),122,193,82,57,48,30,,64,51,46,24,6,6,0.4,0.4
2026-01-10T1000,2303A,115.8551,32.8606,阜阳市,开发区,颗粒物(PM10),149,248,78,47,45,51,,65,58,22,22,6,6,0.4,0.4
2026-01-10T1000,2875A,115.783962,32.889217,阜阳市,阜阳职业技术学院,颗粒物(PM10),109,167,71,43,42,53,,62,56,18,19,8,8,0.4,0.4
2026-01-10T1000,3468A,115.79,32.8614,阜阳市,市规划展馆,颗粒物(PM10),126,202,77,26,50,58,,66,62,20,21,7,7,0.5,0.5
2026-01-10T1000,3469A,115.835101,32.918568,阜阳市,枣园社区,颗粒物(PM10),118,185,76,44,50,30,,66,56,40,21,6,6,0.5,0.4
2026-01-10T1000,2669A,102.9097,34.9841,甘南藏族自治州,州政府,细颗粒物(PM2.5),74,83,51,54,29,21,,8,8,34,31,7,7,1.7,0.9
2026-01-10T1000,3380A,102.8915,34.9618,甘南藏族自治州,甘肃民族师范学院,颗粒物(PM10),65,79,65,33,14,25,,18,18,35,28,16,9,1.0,0.6
2026-01-10T1000,2570A,101.96,30.048,甘孜藏族自治州,水桥子,,37,37,21,8,9,21,,33,30,36,21,6,6,0.4,0.3
2026-01-10T1000,3065A,101.9534,29.9976,甘孜藏族自治州,州环保局,颗粒物(PM10),52,54,19,3,6,32,,61,55,29,10,5,6,0.6,0.5
2026-01-10T1000,2363A,114.9368,25.8663,赣州市,地委,,38,38,46,25,28,26,,21,21,26,39,8,8,0.7,0.7
2026-01-10T1000,2364A,114.946,25.8483,赣州市,气象台,,48,48,64,17,25,18,,14,14,43,54,5,4,0.7,0.6
2026-01-10T1000,2365A,114.932,25.8332,赣州市,市图书馆,颗粒物(PM10),52,54,55,29,27,16,,11,11,40,51,5,5,0.7,0.7
2026-01-10T1000,2366A,114.8905,25.8472,赣州市,华坚鞋城,颗粒物(PM10),51,51,64,28,33,16,,10,10,37,47,9,9,0.4,0.5
2026-01-10T1000,3109A,115.0094,25.8614,赣州市,赣县区卫计委,颗粒物(PM10),52,54,47,35,33,12,,15,15,40,36,7,7,0.6,0.5
2026-01-10T1000,2684A,106.2753,36.0057,固原市,监测站,颗粒物(PM10),55,59,80,13,18,72,,66,66,6,13,4,5,0.4,0.4
2026-01-10T1000,2685A,106.2384,36.0189,固原市,新区,颗粒物(PM10),51,51,76,8,25,75,,68,68,4,11,2,3,0.4,0.4
2026-01-10T1000,2544A,106.6307,30.4577,广安市,市委,细颗粒物(PM2.5),115,102,106,87,89,30,,30,30,20,36,,10,1.0,1.1
2026-01-10T1000,2545A,106.6266,30.4662,广安市,友谊中学,细颗粒物(PM2.5),114,92,93,86,83,29,,38,36,23,27,6,6,0.9,0.8
2026-01-10T1000,2547A,106.6386,30.4551,广安市,广电花园,细颗粒物(PM2.5),119,112,106,90,91,21,,30,30,23,34,8,9,0.8,0.9
2026-01-10T1000,2902A,106.6347,30.4868,广安市,北辰小学,细颗粒物(PM2.5),107,101,101,80,89,35,,27,25,20,21,20,23,1.0,1
2026-01-10T1000,2524A,105.8211,32.4444,广元市,老城,细颗粒物(PM2.5),119,121,84,90,69,6,,6,6,58,61,24,13,1.5,1.1
2026-01-10T1000,2526A,105.8629,32.429,广元市,监测站,细颗粒物(PM2.5),102,110,85,76,62,5,,14,13,54,44,6,5,1.4,1.2
2026-01-10T1000,3617A,105.8047,32.4167,广元市,经开区,细颗粒物(PM2.5),118,110,90,89,69,4,,8,2,50,51,10,8,1.2,1.1
2026-01-10T1000,1345A,113.2346,23.1423,广州市,广雅中学,颗粒物(PM10),73,95,97,46,52,9,,2,2,77,78,5,5,1.0,1.1
2026-01-10T1000,1346A,113.2611,23.105,广州市,市五中,"颗粒物(PM10),细颗粒物(PM2.5)",65,80,82,47,52,10,,4,4,108,90,12,11,/,/
2026-01-10T1000,1348A,113.3477,23.0916,广州市,广东商学院,颗粒物(PM10),57,64,72,36,40,35,,6,6,56,69,9,7,0.3,0.4
2026-01-10T1000,1349A,113.4332,23.105,广州市,市八十六中,,50,50,53,32,36,21,,4,4,76,70,10,9,/,/
2026-01-10T1000,1350A,113.3506,22.9488,广州市,番禺中学,颗粒物(PM10),64,77,80,43,49,33,,10,10,78,71,7,4,0.6,0.7
2026-01-10T1000,1351A,113.2147,23.3918,广州市,花都师范,颗粒物(PM10),61,71,62,36,32,22,,6,6,75,62,14,7,0.7,0.7
2026-01-10T1000,1352A,113.2599,23.1329,广州市,市监测站,颗粒物(PM10),65,80,77,42,44,11,,3,3,88,84,4,3,/,/
2026-01-10T1000,1353A,113.5618,23.3119,广州市,九龙镇镇龙,颗粒物(PM10),53,56,70,24,31,23,,4,4,50,49,6,6,0.4,0.5
2026-01-10T1000,1354A,113.2764,23.1544,广州市,麓湖,颗粒物(PM10),57,64,58,39,36,15,,4,4,73,72,10,10,0.5,0.5
2026-01-10T1000,2846A,113.3209,23.1323,广州市,体育西,颗粒物(PM10),55,60,65,35,40,13,,3,3,79,65,10,8,0.6,0.8
2026-01-10T1000,3298A,113.5718,23.5493,广州市,从化街口,颗粒物(PM10),51,51,51,30,30,32,,8,8,34,45,9,10,0.5,0.5
2026-01-10T1000,3299A,113.3463,23.369,广州市,白云竹料,颗粒物(PM10),52,54,69,30,35,26,,9,9,46,52,12,6,0.6,0.6
2026-01-10T1000,3300A,113.2981,23.2365,广州市,白云嘉禾,颗粒物(PM10),55,60,70,29,33,20,,8,8,69,70,7,6,/,/
2026-01-10T1000,3301A,113.4256,23.1716,广州市,黄埔科学城,,37,37,42,20,24,64,,25,25,36,46,6,6,0.6,0.6
2026-01-10T1000,3302A,113.3942,23.0485,广州市,番禺大学城,颗粒物(PM10),58,66,62,40,37,20,,4,4,82,68,14,10,0.5,0.5
2026-01-10T1000,3303A,113.4923,22.8169,广州市,南沙黄阁,颗粒物(PM10),71,92,76,50,39,34,,8,8,78,74,13,10,/,/
2026-01-10T1000,3304A,113.534,22.7893,广州市,南沙街,"颗粒物(PM10),细颗粒物(PM2.5)",72,93,70,52,45,27,,8,5,83,59,9,6,0.7,0.6
2026-01-10T1000,3443A,113.2905,23.5541,广州市,花都梯面,,42,42,29,24,17,55,,9,9,22,39,24,8,/,/
2026-01-10T1000,3445A,113.786,23.7479,广州市,从化良口,,16,16,17,10,12,36,,21,21,24,26,8,8,/,/
2026-01-10T1000,3446A,113.805,23.2614,广州市,增城荔城,,29,27,31,20,19,63,,44,44,16,22,12,9,0.4,0.5
2026-01-10T1000,2506A,109.604387,23.066791,贵港市,江南子站,细颗粒物(PM2.5),172,283,116,130,73,14,,5,5,69,46,8,9,1.7,0.9
2026-01-10T1000,2508A,109.5669,23.1065,贵港市,荷城子站,细颗粒物(PM2.5),147,151,94,112,62,13,,5,5,61,46,10,9,1.3,1
2026-01-10T1000,3405A,109.5886,23.1172,贵港市,新世纪学校,细颗粒物(PM2.5),109,112,81,82,52,38,,21,21,44,38,/,/,0.7,0.5
2026-01-10T1000,4260A,109.5933,23.095,贵港市,中山路155-3号,细颗粒物(PM2.5),143,129,90,109,68,13,,6,6,55,44,/,/,1.0,0.8
2026-01-10T1000,1439A,106.6863,26.6035,贵阳市,马鞍山,细颗粒物(PM2.5),79,73,76,58,65,8,,4,4,30,38,12,13,/,/
2026-01-10T1000,1441A,106.6241,26.6266,贵阳市,鉴湖路,颗粒物(PM10),54,58,76,34,46,37,,50,50,29,28,16,19,0.8,0.7
2026-01-10T1000,1442A,106.7468,26.6344,贵阳市,燕子冲,细颗粒物(PM2.5),98,85,88,73,74,10,,4,4,38,50,21,22,1.0,1.1
2026-01-10T1000,1443A,106.6556,26.4362,贵阳市,碧云窝,颗粒物(PM10),68,85,83,44,56,41,,44,44,31,28,35,21,/,/
2026-01-10T1000,1445A,106.6963,26.6063,贵阳市,红边门,细颗粒物(PM2.5),73,73,83,53,61,21,,28,27,36,49,19,30,/,/
2026-01-10T1000,1446A,106.7162383,26.56964667,贵阳市,新华路,细颗粒物(PM2.5),79,80,82,58,53,22,,29,26,36,45,17,22,0.7,0.8
2026-01-10T1000,1447A,106.6742,26.542,贵阳市,太慈桥,细颗粒物(PM2.5),62,68,77,44,56,23,,21,21,50,46,8,9,/,/
2026-01-10T1000,4230A,106.688212,26.56952,贵阳市,花果园大街66号,细颗粒物(PM2.5),60,66,70,43,44,21,,28,28,41,47,13,20,/,/
2026-01-10T1000,4231A,106.687268,26.516892,贵阳市,漓江路57号,细颗粒物(PM2.5),62,61,83,44,60,21,,16,16,44,48,19,28,1.1,1.2
2026-01-10T1000,1864A,110.3091,25.2705,桂林市,龙隐路小学,细颗粒物(PM2.5),72,52,58,52,47,26,,22,19,29,29,21,14,0.4,0.3
2026-01-10T1000,1865A,110.2849361,25.22909545,桂林市,八中,细颗粒物(PM2.5),104,90,67,78,54,18,,22,20,38,34,19,13,0.7,0.5
2026-01-10T1000,3531A,110.296,25.1254,桂林市,旅游学院,细颗粒物(PM2.5),55,56,52,39,38,20,,5,5,25,28,7,5,0.3,0.3
2026-01-10T1000,4222A,110.1835,25.2444,桂林市,环湖路276号,细颗粒物(PM2.5),92,92,72,68,51,7,,4,4,45,43,30,11,0.8,0.7
2026-01-10T1000,4301A,110.2803,25.2773,桂林市,信义路13号,细颗粒物(PM2.5),62,64,62,44,46,28,,20,20,38,41,26,14,0.7,0.7
2026-01-10T1000,2674A,100.2262,34.4854,果洛藏族自治州,玛沁县大武镇,,33,33,30,3,9,29,,34,32,10,7,18,15,0.5,0.4
2026-01-10T1000,1130A,126.5557,45.8109,哈尔滨市,松北商大,细颗粒物(PM2.5),55,48,72,39,60,40,,32,32,20,28,12,10,0.9,0.7
2026-01-10T1000,1132A,126.6162,45.719,哈尔滨市,南岗学府路,细颗粒物(PM2.5),58,53,79,41,59,36,,35,34,22,28,16,14,0.9,0.9
2026-01-10T1000,1133A,126.6894,45.7733,哈尔滨市,太平宏伟公园,细颗粒物(PM2.5),55,42,74,39,61,42,,38,38,18,25,12,17,0.7,0.7
2026-01-10T1000,1134A,126.6361,45.7672,哈尔滨市,道外承德广场,细颗粒物(PM2.5),62,70,101,44,63,41,,37,37,22,30,10,12,0.9,0.9
2026-01-10T1000,1136A,126.644,45.7261,哈尔滨市,动力和平路,"颗粒物(PM10),细颗粒物(PM2.5)",53,56,76,37,60,37,,32,32,22,30,10,16,0.8,0.8
2026-01-10T1000,1137A,126.5933,45.7479,哈尔滨市,道里建国路,细颗粒物(PM2.5),63,,74,45,68,37,,33,33,23,28,13,5,0.7,0.6
2026-01-10T1000,1138A,126.6127,45.6119,哈尔滨市,平房东轻厂,细颗粒物(PM2.5),74,63,93,54,71,27,,17,17,35,47,22,10,0.8,0.9
2026-01-10T1000,1139A,126.5875,45.9827,哈尔滨市,呼兰师专,细颗粒物(PM2.5),55,46,77,39,76,39,,34,34,14,24,11,8,0.7,0.8
2026-01-10T1000,1140A,126.6299,45.6799,哈尔滨市,省农科院,细颗粒物(PM2.5),59,51,81,42,63,37,,34,34,30,38,15,16,0.8,0.7
2026-01-10T1000,4282A,126.6769,45.7379,哈尔滨市,华山路1号,细颗粒物(PM2.5),60,51,71,43,58,33,,31,29,30,31,26,25,0.8,0.8
2026-01-10T1000,4283A,126.9717,45.5356,哈尔滨市,解放大街52号,细颗粒物(PM2.5),92,81,96,68,80,35,,34,32,28,32,21,17,1.6,1.2
2026-01-10T1000,2688A,93.5124,42.8176,哈密市,地区监测站,颗粒物(PM10),102,153,137,30,53,54,,54,54,13,17,3,3,0.1,0.4
2026-01-10T1000,2689A,93.5014,42.8312,哈密市,哈密师范学校,颗粒物(PM10),96,141,130,30,41,35,,37,35,36,29,4,5,0.5,0.5
2026-01-10T1000,2671A,100.9016,36.9464,海北藏族自治州,海晏县西海镇,,23,18,27,16,14,61,,72,69,4,1,8,7,0.4,0.3
2026-01-10T1000,3867A,102.074,36.5056,海东市,平安区公安局北苑,细颗粒物(PM2.5),107,89,58,80,21,17,,36,28,32,13,12,12,1.0,0.7
2026-01-10T1000,4163A,102.0984,36.5119,海东市,滨河路,颗粒物(PM10),51,51,67,32,25,15,,33,24,45,32,19,16,0.8,0.6
2026-01-10T1000,1410A,110.3189,20.0596,海口市,海南大学,,36,36,37,20,21,107,,98,88,15,13,7,7,0.3,0.2
2026-01-10T1000,1411A,110.2827,20.0051,海口市,秀英海南医院,颗粒物(PM10),56,61,43,23,24,66,,63,48,40,24,9,9,0.4,0.4
2026-01-10T1000,1412A,110.3391,19.9979,海口市,海南师范大学,颗粒物(PM10),52,54,41,26,25,93,,77,66,25,19,7,7,0.5,0.4
2026-01-10T1000,1413A,110.3303,20.0359,海口市,龙华路环保局宿舍,,44,44,36,22,22,86,,87,74,26,18,/,/,0.6,0.5
2026-01-10T1000,3539A,110.5111,19.9737,海口市,桂林洋子站,,50,50,44,30,27,63,,69,48,43,26,/,/,/,/
2026-01-10T1000,4134A,110.1952,20.0451,海口市,长滨二路9号,,34,34,42,20,26,91,,71,59,20,17,/,/,/,/
2026-01-10T1000,2673A,100.6158,36.2985,海南藏族自治州,共和县恰卜恰镇,颗粒物(PM10),54,58,28,18,8,24,,48,34,32,10,13,12,0.7,0.4
2026-01-10T1000,2676A,97.373,37.376,海西蒙古族藏族自治州,德令哈市,,22,9,17,8,9,69,,66,65,2,5,15,12,0.3,0.5
2026-01-10T1000,1049A,114.492,36.5712,邯郸市,矿院,,28,20,126,19,41,75,,74,74,6,14,1,6,0.2,0.5
2026-01-10T1000,1050A,114.4839,36.6136,邯郸市,丛台公园,,25,18,110,7,23,77,,77,76,9,11,3,5,0.2,0.4
2026-01-10T1000,3458A,114.7893,36.5592,邯郸市,香泉濮院小区,,33,33,182,8,29,73,,70,70,7,10,1,3,0.3,0.3
2026-01-10T1000,3580A,114.1998,36.4439,邯郸市,峰峰矿区临水派出所,,26,26,106,7,24,75,,77,75,4,5,5,5,0.3,0.4
2026-01-10T1000,4068A,114.5209,36.7697,邯郸市,建安街268号,颗粒物(PM10),56,61,139,7,28,71,,70,70,4,8,2,4,0.3,0.3
2026-01-10T1000,4069A,114.5488,36.6177,邯郸市,丛台东路558号,,25,11,123,3,28,78,,78,78,7,13,1,5,0.2,0.4
2026-01-10T1000,2635A,107.0155,33.0707,汉中市,市监测站,细颗粒物(PM2.5),123,96,102,93,100,13,,11,9,46,42,7,6,1.7,1.3
2026-01-10T1000,2636A,107.0083,33.114,汉中市,鑫源开发区,细颗粒物(PM2.5),109,103,89,82,84,6,,11,8,42,44,9,8,1.1,1
2026-01-10T1000,2637A,107.0072,33.0323,汉中市,南郑大河坎水厂,细颗粒物(PM2.5),102,113,118,76,95,9,,8,7,33,35,5,7,1.1,1.2
2026-01-10T1000,1223A,120.2073,30.2111,杭州市,滨江,颗粒物(PM10),54,58,71,34,45,42,,38,37,42,43,8,7,0.5,0.5
2026-01-10T1000,1224A,120.0625,30.2737,杭州市,西溪,,49,49,51,32,30,24,,4,4,62,38,10,9,0.8,0.9
2026-01-10T1000,1226A,120.3417,30.315,杭州市,下沙,颗粒物(PM10),51,52,69,35,45,54,,53,53,37,40,10,9,0.8,0.7
2026-01-10T1000,1227A,120.1252,30.2465,杭州市,卧龙桥,,49,45,50,34,35,44,,23,23,35,33,10,10,0.5,0.5
2026-01-10T1000,1228A,120.1902,30.2691,杭州市,浙江农大,细颗粒物(PM2.5),54,56,68,38,45,33,,18,18,56,59,7,7,0.7,0.6
2026-01-10T1000,1230A,120.1195,30.3121,杭州市,和睦小学,细颗粒物(PM2.5),54,50,65,38,47,34,,16,13,49,48,6,6,0.7,0.8
2026-01-10T1000,1231A,120.3076,30.4146,杭州市,临平镇,颗粒物(PM10),55,60,74,34,41,36,,26,26,48,52,8,8,0.5,0.5
2026-01-10T1000,1232A,120.2753,30.1839,杭州市,城厢镇,细颗粒物(PM2.5),58,59,76,41,47,48,,34,34,39,48,9,9,0.6,0.5
2026-01-10T1000,1233A,120.0883,30.1808,杭州市,云栖,,45,45,50,31,30,33,,37,32,50,27,4,4,0.6,0.5
2026-01-10T1000,3557A,119.9463,30.0496,杭州市,镇二中,细颗粒物(PM2.5),52,42,57,36,45,39,,21,20,44,42,8,6,0.9,0.8
2026-01-10T1000,3558A,119.7184,30.2367,杭州市,市府大楼,细颗粒物(PM2.5),67,60,57,48,38,53,,38,38,28,26,12,11,0.7,0.7
2026-01-10T1000,3656A,120.1554,30.2863,杭州市,消防大队,,46,46,60,32,41,48,,27,27,35,39,8,7,0.5,0.5
2026-01-10T1000,1270A,117.1957,31.7845,合肥市,明珠广场,,,,64,,40,,,65,,,55,,7,,0.6
2026-01-10T1000,1271A,117.307,31.8765,合肥市,三里街,颗粒物(PM10),98,146,77,53,45,46,,13,13,29,66,7,7,0.6,0.8
2026-01-10T1000,1272A,117.2587,31.8703,合肥市,琥珀山庄,颗粒物(PM10),102,153,72,54,48,45,,16,16,31,65,9,8,0.8,1.1
2026-01-10T1000,1275A,117.2593,31.9376,合肥市,庐阳区,颗粒物(PM10),112,173,67,51,34,49,,43,43,37,50,8,8,0.8,0.8
2026-01-10T1000,1276A,117.345251,31.861615,合肥市,瑶海区,颗粒物(PM10),113,175,74,42,41,50,,13,13,32,72,5,6,0.6,0.6
2026-01-10T1000,1277A,117.3033,31.7967,合肥市,包河区,颗粒物(PM10),98,146,68,48,45,44,,12,12,36,62,8,8,0.7,0.7
2026-01-10T1000,1278A,117.278,31.7392,合肥市,滨湖新区,颗粒物(PM10),84,117,62,61,45,51,,16,16,32,59,5,6,0.6,0.6
2026-01-10T1000,1279A,117.1324,31.8395,合肥市,高新区,颗粒物(PM10),90,129,56,54,32,45,,52,51,34,38,6,5,0.6,0.5
2026-01-10T1000,3464A,117.3802,31.9148,合肥市,高教基地,颗粒物(PM10),98,146,70,48,46,51,,21,21,24,50,8,8,0.6,0.6
2026-01-10T1000,4098A,117.2518,31.8404,合肥市,中国科学技术大学,颗粒物(PM10),96,141,61,44,38,47,,32,32,32,53,9,9,0.6,0.6
2026-01-10T1000,3614A,79.9241,37.0878,和田地区,地区环保局,颗粒物(PM10),54,58,88,18,46,27,,26,22,37,38,3,4,0.3,0.5
2026-01-10T1000,3615A,79.9132,37.1137,和田地区,市环保局,颗粒物(PM10),59,68,79,21,39,18,,20,18,45,40,3,3,1.0,1
2026-01-10T1000,2517A,108.0496,24.6957,河池市,市环保站,细颗粒物(PM2.5),72,60,61,52,44,21,,16,16,27,28,4,7,0.7,0.7
2026-01-10T1000,4302A,108.0901,24.6945,河池市,上任中路54号,细颗粒物(PM2.5),82,84,68,60,54,9,,3,3,35,38,6,11,0.9,0.8
2026-01-10T1000,1697A,114.6962,23.7538,河源市,东埔,,41,41,38,22,24,48,,18,18,25,44,13,7,0.6,0.6
2026-01-10T1000,1698A,114.6895,23.7232,河源市,老城,,38,38,34,20,19,31,,24,23,27,27,9,7,0.8,0.7
2026-01-10T1000,3374A,115.5562,35.089,菏泽市,定陶老年大学,颗粒物(PM10),106,161,151,24,25,64,,52,52,12,21,3,3,0.1,0.2
2026-01-10T1000,4114A,115.4239,35.2593,菏泽市,黄河路600号,颗粒物(PM10),122,193,169,32,25,57,,52,52,18,22,4,3,0.4,0.4
2026-01-10T1000,4115A,115.5025,35.2727,菏泽市,菏泽市人社局,颗粒物(PM10),89,128,142,19,22,60,,52,52,11,18,2,3,0.3,0.3
2026-01-10T1000,4184A,115.479691,35.244011,菏泽市,永昌路1号,颗粒物(PM10),103,156,167,36,31,63,,56,56,13,20,5,7,0.3,0.3
2026-01-10T1000,4193A,115.471542,35.280012,菏泽市,长城路999号,颗粒物(PM10),98,145,166,30,24,61,,54,54,11,17,4,8,0.4,0.4
2026-01-10T1000,2514A,111.5264,24.4178,贺州市,环保小区,细颗粒物(PM2.5),59,57,56,42,45,12,,17,14,34,27,11,8,0.6,0.5
2026-01-10T1000,2515A,111.561,24.4074,贺州市,政协大楼,颗粒物(PM10),58,65,57,39,39,13,,6,6,33,37,22,13,0.7,0.7
2026-01-10T1000,3534A,111.4744,24.455,贺州市,西湾,细颗粒物(PM2.5),64,68,67,46,42,13,,6,6,34,37,10,9,0.6,0.6
2026-01-10T1000,2385A,114.17,35.9019,鹤壁市,市监测站,颗粒物(PM10),55,60,93,22,24,72,,74,74,10,19,2,2,0.4,0.4
2026-01-10T1000,2386A,114.2953,35.7512,鹤壁市,市交警支队,颗粒物(PM10),61,72,108,11,22,66,,62,62,5,11,3,3,0.3,0.4
2026-01-10T1000,2387A,114.2877,35.7302,鹤壁市,迎宾馆,颗粒物(PM10),65,80,141,14,23,67,,66,66,10,18,7,3,0.4,0.5
2026-01-10T1000,3474A,114.2616,35.6824,鹤壁市,大新区,,,93,123,3,13,,,71,71,10,12,5,4,0.2,0.4
2026-01-10T1000,3596A,114.1573,35.9607,鹤壁市,南山宾馆,颗粒物(PM10),65,80,128,12,21,74,,77,77,2,5,4,4,0.4,0.4
2026-01-10T1000,2244A,130.2537,47.3416,鹤岗市,哈啤分公司,,25,19,42,17,41,57,,63,62,13,23,7,7,0.4,0.6
2026-01-10T1000,2245A,130.2683,47.3087,鹤岗市,斯达机电,,25,,54,17,41,57,,60,60,9,28,7,9,0.5,0.6
2026-01-10T1000,2246A,130.3114,47.3388,鹤岗市,东山纸板厂,,30,21,52,21,47,59,,60,60,7,30,14,14,0.3,0.9
2026-01-10T1000,2263A,127.4832,50.2524,黑河市,交通局,,18,13,16,12,16,41,,47,43,17,10,4,4,0.4,0.3
2026-01-10T1000,2264A,127.5146,50.2339,黑河市,环保局,,19,,18,13,17,39,,41,40,18,14,4,5,0,0.2
2026-01-10T1000,1074A,115.6839,37.754,衡水市,电机北厂,颗粒物(PM10),51,52,194,8,30,60,,58,58,4,9,4,6,0.2,0.3
2026-01-10T1000,1075A,115.6303,37.7318,衡水市,市监测站,,40,40,184,3,30,57,,54,54,11,14,6,6,0.2,0.3
2026-01-10T1000,3188A,115.6684,37.7216,衡水市,市城管局,颗粒物(PM10),55,60,231,8,36,60,,59,58,10,15,5,6,0.3,0.3
2026-01-10T1000,3459A,115.599,37.5491,衡水市,地表水厂,颗粒物(PM10),60,70,186,3,23,65,,63,61,2,4,4,4,0.3,0.3
2026-01-10T1000,2457A,112.6209,26.9268,衡阳市,衡阳化工总厂,细颗粒物(PM2.5),79,80,81,58,59,11,,4,4,35,39,11,13,1.1,0.9
2026-01-10T1000,2458A,112.621,26.8957,衡阳市,珠晖区环保局,细颗粒物(PM2.5),77,71,74,56,55,15,,6,6,52,46,34,9,1.2,1.2
2026-01-10T1000,2459A,112.628,26.8654,衡阳市,市委党校,细颗粒物(PM2.5),89,86,67,66,53,15,,11,11,35,34,13,12,1.1,0.9
2026-01-10T1000,2460A,112.6007,26.8977,衡阳市,市监测站,细颗粒物(PM2.5),72,85,97,52,62,10,,3,3,46,47,13,9,1.2,1.2
2026-01-10T1000,2461A,112.5658,26.9013,衡阳市,真空机电公司,细颗粒物(PM2.5),78,88,96,57,62,4,,2,2,39,50,9,9,1.3,1.3
2026-01-10T1000,3399A,112.6703,26.8817,衡阳市,师范学院,细颗粒物(PM2.5),60,66,72,43,49,12,,9,8,35,34,3,4,1.0,0.9
2026-01-10T1000,3038A,103.3757,23.3679,红河哈尼族彝族自治州,州图书馆,,32,28,25,22,19,58,,56,56,8,6,7,7,0.5,0.5
2026-01-10T1000,4154A,103.401,23.3561,红河哈尼族彝族自治州,蒙自市朝阳路,,36,,17,25,21,43,,45,45,14,6,5,5,0.5,0.4
2026-01-10T1000,1090A,111.6506,40.7517,呼和浩特市,呼市一监,,22,14,69,3,10,68,,72,72,6,9,2,2,0.2,0.3
2026-01-10T1000,1094A,111.7516,40.8369,呼和浩特市,如意水处理厂,,21,21,44,3,10,60,,61,61,9,18,8,9,0,0.1
2026-01-10T1000,1095A,111.727798,40.806187,呼和浩特市,二十九中,,23,23,60,3,10,60,,67,66,5,9,9,10,0.3,0.3
2026-01-10T1000,1097A,111.717,40.7617,呼和浩特市,化肥厂生活区,,28,28,64,3,10,62,,66,65,6,10,4,5,0.4,0.4
2026-01-10T1000,3699A,111.6519,40.8389,呼和浩特市,海东办,,27,27,60,3,9,67,,73,72,6,11,3,4,0.2,0.3
2026-01-10T1000,4275A,111.591512,40.827312,呼和浩特市,成吉思汗西街8号,,31,31,58,3,8,58,,61,60,3,8,2,4,0.4,0.5
2026-01-10T1000,4276A,111.6597,40.8077,呼和浩特市,公园东路75号,,22,22,71,3,10,56,,62,61,8,13,4,5,0.1,0.2
2026-01-10T1000,4277A,111.5427,40.7846,呼和浩特市,金海路35号,,20,13,64,3,9,61,,64,63,6,10,7,8,0.7,0.6
2026-01-10T1000,3061A,119.7511,49.1576,呼伦贝尔市,国华电力东,,35,28,29,24,24,40,,48,45,28,24,16,6,0.6,0.5
2026-01-10T1000,4279A,119.7569,49.2222,呼伦贝尔市,伊敏大街东7号,,33,23,38,23,30,34,,37,37,24,36,7,8,0.6,0.7
2026-01-10T1000,1250A,120.075,30.867,湖州市,城西水厂,颗粒物(PM10),54,57,59,31,34,57,,18,18,53,55,12,11,0.4,0.4
2026-01-10T1000,2873A,120.083,30.8929,湖州市,仁皇山新区,颗粒物(PM10),56,61,63,39,40,56,,22,22,57,71,16,12,0.5,0.6
2026-01-10T1000,2907A,120.1846,30.8592,湖州市,吴兴区站,颗粒物(PM10),54,58,64,35,40,46,,15,15,50,57,9,9,0.7,0.6
2026-01-10T1000,3562A,120.4146,30.8538,湖州市,南浔区站,细颗粒物(PM2.5),63,62,67,45,44,36,,33,31,59,54,10,8,0.7,0.7
2026-01-10T1000,1607A,120.904878,40.721091,葫芦岛市,龙港区,,25,25,111,13,64,58,,59,59,10,44,11,37,0.6,1.1
2026-01-10T1000,1608A,120.8382,40.7521,葫芦岛市,化工街,,27,27,117,12,64,57,,56,56,9,47,18,45,0.3,0.9
2026-01-10T1000,1609A,120.8339,40.7078,葫芦岛市,新区,,26,26,89,13,59,53,,54,54,14,44,11,17,0.6,1.1
2026-01-10T1000,1610A,120.8697,40.7679,葫芦岛市,东城区,,19,13,97,10,68,58,,58,58,11,45,9,22,0.6,1.2
2026-01-10T1000,2483A,109.9297,27.5383,怀化市,河西地税局,细颗粒物(PM2.5),85,70,59,63,53,7,,3,2,26,26,3,4,/,/
2026-01-10T1000,2484A,109.9783,27.5342,怀化市,市四医院,细颗粒物(PM2.5),99,106,81,74,59,0,,1,1,30,32,13,12,0.7,0.6
2026-01-10T1000,2485A,109.9971,27.5579,怀化市,监测楼,细颗粒物(PM2.5),108,98,73,81,62,8,,3,3,31,33,3,4,0.3,0.3
2026-01-10T1000,1210A,119.0566,33.5991,淮安市,钵池山,颗粒物(PM10),135,219,90,34,44,,,45,45,11,20,7,10,0.1,0.4
2026-01-10T1000,1211A,119.0083,33.578,淮安市,北京南路,颗粒物(PM10),139,227,99,31,44,48,,34,34,14,29,7,18,0.4,1.2
2026-01-10T1000,1212A,118.9938,33.6083,淮安市,市监测站,颗粒物(PM10),140,229,84,29,36,52,,34,34,16,25,9,10,0.7,0.8
2026-01-10T1000,1213A,119.135,33.5038,淮安市,楚州区监测站,颗粒物(PM10),145,239,96,20,37,53,,38,38,13,24,11,12,0.4,0.5
2026-01-10T1000,3426A,118.8757,33.2897,淮安市,新华书店,颗粒物(PM10),148,245,88,23,42,46,,45,41,18,21,9,9,0.8,0.9
2026-01-10T1000,4092A,119.119691,33.550006,淮安市,枚皋中路89号,颗粒物(PM10),131,212,88,23,41,63,,48,48,13,21,9,11,0.2,0.5
2026-01-10T1000,4206A,119.028838,33.631911,淮安市,承德北路606号,颗粒物(PM10),147,244,98,35,43,57,,40,40,14,23,8,9,0.4,0.6
2026-01-10T1000,2282A,116.8005,33.9749,淮北市,监测站,颗粒物(PM10),163,276,128,36,40,60,,55,55,18,25,9,10,0.6,0.7
2026-01-10T1000,2283A,116.8094,33.9008,淮北市,烈山区政府,颗粒物(PM10),164,278,136,37,40,64,,56,56,6,17,9,11,0.2,0.3
2026-01-10T1000,4017A,116.7926,33.9534,淮北市,市博物馆,颗粒物(PM10),177,304,129,35,41,62,,57,57,16,26,4,5,0.4,0.5
2026-01-10T1000,4100A,116.8322,33.9884,淮北市,杜集区第一实验学校,颗粒物(PM10),223,366,159,36,37,53,,45,45,11,18,8,9,0.4,0.5
2026-01-10T1000,2277A,116.8304,32.7726,淮南市,潘集区政府,颗粒物(PM10),159,267,89,57,53,45,,52,46,23,22,10,7,0.5,0.7
2026-01-10T1000,2279A,116.8569,32.5949,淮南市,谢家集区政府,颗粒物(PM10),149,248,82,80,39,32,,50,43,37,26,16,9,0.7,0.6
2026-01-10T1000,2280A,116.8279,32.6333,淮南市,八公山区政府,颗粒物(PM10),134,218,71,41,37,36,,69,56,30,15,11,7,0.5,0.5
2026-01-10T1000,2894A,117.0561,32.6536,淮南市,经济技术开发区消防队,颗粒物(PM10),163,275,93,66,42,38,,60,49,29,22,6,6,0.5,0.6
2026-01-10T1000,3329A,117.011,32.5891,淮南市,山南新区,颗粒物(PM10),206,354,99,36,38,57,,58,56,17,25,5,3,0.4,0.6
2026-01-10T1000,4209A,117.003137,32.644456,淮南市,国庆中路369号,颗粒物(PM10),102,153,67,38,47,27,,48,38,32,25,8,9,0.7,0.7
2026-01-10T1000,2446A,114.9021,30.474,黄冈市,职工中心,细颗粒物(PM2.5),67,65,64,48,46,52,,47,47,29,32,7,8,0.9,0.8
2026-01-10T1000,2929A,114.8858,30.4519,黄冈市,红卫路,细颗粒物(PM2.5),63,52,64,45,51,54,,43,43,28,36,8,9,0.7,0.7
2026-01-10T1000,3398A,114.9134,30.4446,黄冈市,市林业局,细颗粒物(PM2.5),68,62,73,49,49,53,,46,46,31,41,4,8,0.8,0.8
2026-01-10T1000,2672A,102.02,35.5101,黄南藏族自治州,同仁县隆务镇,,,17,32,3,15,,,,,2,4,13,14,0.2,0.4
2026-01-10T1000,2295A,118.2905,29.6965,黄山市,延安路89号,,,,40,,27,,,103,19,,14,,4,,0.5
2026-01-10T1000,2297A,118.1369,30.2755,黄山市,黄山区政府5号楼,,39,34,36,27,27,43,,35,30,10,10,3,3,0.4,0.4
2026-01-10T1000,4210A,118.335445,29.720283,黄山市,滨江东路7-2号,细颗粒物(PM2.5),65,58,53,47,36,26,,24,21,18,18,/,/,/,/
2026-01-10T1000,2423A,115.0547,30.2332,黄石市,沈家营,细颗粒物(PM2.5),80,82,81,59,51,28,,18,18,46,55,10,10,1.4,1.4
2026-01-10T1000,2426A,114.899,30.211,黄石市,铁山,细颗粒物(PM2.5),166,126,69,126,50,14,,16,14,68,37,20,12,1.2,0.6
2026-01-10T1000,2427A,115.0259,30.2108,黄石市,团城山,细颗粒物(PM2.5),70,74,74,51,48,35,,17,17,38,46,8,8,0.8,0.8
2026-01-10T1000,3149A,115.0174,30.1591,黄石市,笔架山北路,细颗粒物(PM2.5),134,162,102,102,54,19,,20,16,61,33,18,13,1.5,1.2
2026-01-10T1000,4185A,115.078022,30.21118,黄石市,磁湖东路29号,细颗粒物(PM2.5),89,103,91,66,60,19,,6,6,48,56,14,10,1.2,1.2
2026-01-10T1000,1392A,114.4181,23.0528,惠州市,河南岸金山湖子站,"颗粒物(PM10),细颗粒物(PM2.5)",54,58,56,38,33,35,,22,22,39,40,13,7,0.7,0.7
2026-01-10T1000,1393A,114.4055,23.0824,惠州市,下埔横江三路子站,颗粒物(PM10),53,56,62,32,36,43,,14,14,32,44,13,10,0.5,0.5
2026-01-10T1000,1395A,114.4645,22.7832,惠州市,惠阳区承修路船湖子站,颗粒物(PM10),55,59,62,31,31,61,,40,40,31,43,8,7,0.4,0.5
2026-01-10T1000,1396A,114.5316,22.7423,惠州市,大亚湾管委会子站,颗粒物(PM10),53,55,53,26,26,58,,18,18,36,48,8,7,0.4,0.4
2026-01-10T1000,3314A,114.4334,22.8134,惠州市,惠阳秋长,颗粒物(PM10),51,51,57,29,31,67,,40,40,31,42,/,/,/,/
2026-01-10T1000,3452A,114.6521,22.7755,惠州市,大亚湾霞涌,,39,39,42,21,22,79,,78,76,20,21,/,/,/,/
2026-01-10T1000,4300A,114.4089,23.1147,惠州市,文华一路1号,,,,63,,34,,,10,10,39,49,/,/,/,/
2026-01-10T1000,2240A,130.9618,45.2926,鸡西市,环保局,"颗粒物(PM10),细颗粒物(PM2.5)",67,84,87,48,61,29,,23,23,27,33,15,13,0.7,0.8
2026-01-10T1000,2243A,130.9294,45.2959,鸡西市,第一中学,细颗粒物(PM2.5),58,49,69,41,52,39,,37,37,7,14,4,4,0.9,1
2026-01-10T1000,3707A,131.0069,45.2988,鸡西市,欧美日汽修厂,颗粒物(PM10),59,68,95,39,78,42,,22,22,16,32,14,23,0.4,0.7
2026-01-10T1000,2367A,114.9753,27.0803,吉安市,红声器材厂,"颗粒物(PM10),细颗粒物(PM2.5)",59,67,52,42,31,21,,25,20,31,36,9,9,0.7,0.6
2026-01-10T1000,2369A,114.9903,27.1313,吉安市,市环境监测站,细颗粒物(PM2.5),54,53,52,38,32,40,,14,14,34,45,11,10,/,/
2026-01-10T1000,2370A,115.009527,27.096792,吉安市,青原区法院,颗粒物(PM10),55,59,52,38,29,16,,8,8,38,44,12,11,0.6,0.5
2026-01-10T1000,1772A,126.54,43.8622,吉林市,哈达湾,细颗粒物(PM2.5),109,145,113,82,59,46,,34,34,27,33,10,12,1.4,1.3
2026-01-10T1000,1773A,126.5843,43.8358,吉林市,东局子,细颗粒物(PM2.5),122,130,89,92,70,28,,25,23,36,34,9,6,1.7,1.1
2026-01-10T1000,1774A,126.5051,43.8243,吉林市,电力学院,细颗粒物(PM2.5),105,142,102,79,68,48,,32,32,25,33,20,22,1.0,1.1
2026-01-10T1000,1775A,126.6133,43.8971,吉林市,江北,细颗粒物(PM2.5),133,121,97,101,74,38,,33,32,30,27,12,10,1.4,1.2
2026-01-10T1000,1776A,126.5549,43.8304,吉林市,江南公园,颗粒物(PM10),151,251,134,103,70,40,,31,29,32,36,11,9,1.5,0.9
2026-01-10T1000,2868A,126.4737,43.953,吉林市,九站,细颗粒物(PM2.5),147,129,106,112,78,40,,26,26,34,42,16,11,1.0,0.9
2026-01-10T1000,1299A,116.9866,36.6118,济南市,科干所,颗粒物(PM10),53,56,139,10,28,58,,56,55,14,19,5,6,0.6,0.7
2026-01-10T1000,1300A,116.9379,36.6652,济南市,农科所,颗粒物(PM10),55,59,152,3,26,58,,55,54,10,20,3,5,0.5,0.6
2026-01-10T1000,1301A,117.1265,36.6736,济南市,开发区,颗粒物(PM10),51,51,136,10,28,53,,57,55,21,26,4,5,0.6,0.6
2026-01-10T1000,1303A,117.0616,36.6865,济南市,省种子仓库,颗粒物(PM10),54,58,151,9,27,59,,58,57,16,22,5,6,0.4,0.6
2026-01-10T1000,1304A,116.9495185,36.644937,济南市,机床二厂,颗粒物(PM10),55,59,171,12,31,60,,59,57,15,24,4,7,0.2,0.3
2026-01-10T1000,1305A,117.0496,36.6629,济南市,市监测站,颗粒物(PM10),53,56,155,3,28,56,,56,55,14,18,4,5,0.5,0.6
2026-01-10T1000,1306A,116.7674,36.5458,济南市,长清党校,颗粒物(PM10),73,95,182,10,31,56,,50,48,16,23,6,7,0.6,0.7
2026-01-10T1000,1961A,117.5323,36.6865,济南市,东山小学,颗粒物(PM10),53,56,136,10,27,61,,61,59,13,18,4,5,0.7,0.7
2026-01-10T1000,3059A,117.7181,36.205,济南市,泰兴公司,颗粒物(PM10),60,70,142,9,37,72,,71,70,12,27,3,7,0.5,0.7
2026-01-10T1000,3064A,117.6861,36.2172,济南市,莱芜战役纪念馆,颗粒物(PM10),52,53,129,12,37,68,,67,66,13,24,4,7,0.1,0.3
2026-01-10T1000,3494A,117.1673,36.9782,济南市,济阳区政府,颗粒物(PM10),55,59,140,10,24,58,,55,54,13,23,7,8,0.3,0.5
2026-01-10T1000,3495A,117.1168,36.6299,济南市,锦屏中学,,49,49,131,3,20,61,,61,60,16,19,2,3,0.5,0.5
2026-01-10T1000,4108A,117.7107,36.2385,济南市,山财大街5号,,39,39,124,3,26,71,,71,70,22,30,7,10,0.6,0.8
2026-01-10T1000,4109A,116.9744,36.6889,济南市,无影山路12号,,,56,156,8,29,56,,55,53,15,20,7,8,,0.1
2026-01-10T1000,1653A,116.6229,35.4288,济宁市,火炬城,颗粒物(PM10),151,252,170,44,40,52,,56,53,18,18,2,3,0.2,0.3
2026-01-10T1000,3500A,116.5808,35.3703,济宁市,北湖一中,颗粒物(PM10),138,226,156,50,41,,,55,52,23,21,4,6,0.4,0.4
2026-01-10T1000,3501A,116.8251,35.5592,济宁市,服务中心,颗粒物(PM10),148,246,168,40,32,37,,49,44,40,35,9,9,0.5,0.6
2026-01-10T1000,3678A,116.5907,35.4054,济宁市,市第七中学,,,,176,,30,,,82,,,20,,6,,0.4
2026-01-10T1000,4111A,116.6075,35.4566,济宁市,任和路,颗粒物(PM10),163,276,182,38,28,54,,50,48,15,21,4,5,0.3,0.3
2026-01-10T1000,4112A,116.5648,35.3921,济宁市,文体南路1号,颗粒物(PM10),167,283,175,38,28,47,,54,50,24,20,3,3,0.4,0.4
2026-01-10T1000,2255A,130.2749,46.8028,佳木斯市,佳纺,细颗粒物(PM2.5),59,45,65,42,50,45,,34,34,16,35,8,9,0.5,0.7
2026-01-10T1000,2257A,130.3258,46.7975,佳木斯市,环保局,,36,30,59,25,52,50,,42,42,15,40,9,10,0.4,0.7
2026-01-10T1000,4285A,130.363,46.806,佳木斯市,顺和街,,45,41,55,31,44,45,,36,36,13,37,11,12,0.4,0.6
2026-01-10T1000,4286A,130.3952,46.8268,佳木斯市,长安路196号,,43,33,49,30,40,46,,36,36,12,28,6,7,0.5,0.6
2026-01-10T1000,1252A,120.7439,30.778,嘉兴市,清河小学,"颗粒物(PM10),细颗粒物(PM2.5)",62,73,80,44,51,30,,29,29,70,58,17,8,0.4,0.4
2026-01-10T1000,1253A,120.7261,30.7477,嘉兴市,嘉兴学院,颗粒物(PM10),58,65,75,39,46,35,,15,15,54,56,10,9,0.5,0.5
2026-01-10T1000,2872A,120.7845,30.7524,嘉兴市,南湖区残联,细颗粒物(PM2.5),63,62,71,45,47,45,,36,36,53,56,7,6,0.8,0.7
2026-01-10T1000,3407A,120.6915,30.7741,嘉兴市,秀洲住建,"颗粒物(PM10),细颗粒物(PM2.5)",58,65,81,41,51,44,,19,19,48,62,8,9,0.6,0.6
2026-01-10T1000,1945A,98.291,39.7705,嘉峪关市,气象局,,23,22,141,9,26,71,,62,62,13,16,8,13,0.4,0.5
2026-01-10T1000,2884A,98.2672,39.7978,嘉峪关市,酒钢宾馆,,39,39,149,14,29,40,,36,36,47,54,22,31,0,1
2026-01-10T1000,3248A,98.2644,39.7723,嘉峪关市,雄关区,,32,32,105,16,25,77,,60,60,12,20,14,15,0.3,0.5
2026-01-10T1000,1383A,113.1063,22.6058,江门市,北街,细颗粒物(PM2.5),97,125,65,72,43,17,,6,6,107,73,/,/,/,/
2026-01-10T1000,1384A,113.073,22.5835,江门市,西区,细颗粒物(PM2.5),87,114,79,64,43,22,,4,4,90,71,/,/,/,/
2026-01-10T1000,1385A,113.0218,22.531,江门市,圭峰西,细颗粒物(PM2.5),87,116,62,64,41,31,,24,22,96,49,/,/,/,/
2026-01-10T1000,1386A,113.0826,22.5947,江门市,东湖,颗粒物(PM10),78,105,73,52,40,22,,5,5,98,73,19,9,0.8,0.7
2026-01-10T1000,3311A,113.1077,22.5647,江门市,江海富民,颗粒物(PM10),77,104,77,42,29,24,,6,6,101,80,/,/,0.7,0.6
2026-01-10T1000,3449A,113.0496,22.4669,江门市,新会银湖,细颗粒物(PM2.5),114,109,67,86,52,24,,6,6,83,51,13,8,0.8,0.5
2026-01-10T1000,3335A,113.3137,35.2643,焦作市,马村街道办,颗粒物(PM10),58,66,110,19,25,74,,73,73,8,12,4,6,0.2,0.3
2026-01-10T1000,3336A,113.2464,35.2374,焦作市,焦作技师学院,颗粒物(PM10),75,100,131,22,27,73,,72,72,8,15,4,8,0.1,0.3
2026-01-10T1000,3477A,113.1656,35.2536,焦作市,中站许衡医院,颗粒物(PM10),63,75,108,30,29,74,,72,72,5,9,2,5,0.1,0.3
2026-01-10T1000,3981A,113.2456,35.18,焦作市,原李万街道办,颗粒物(PM10),77,103,130,22,21,75,,73,73,4,10,3,6,0.3,0.4
2026-01-10T1000,4264A,113.234,35.219,焦作市,新安路1731号,颗粒物(PM10),84,118,129,21,26,72,,70,70,8,14,3,5,0.4,0.4
2026-01-10T1000,4295A,113.2722,35.2121,焦作市,人民路3066号,颗粒物(PM10),78,105,136,15,22,69,,67,67,3,9,2,5,0.2,0.3
2026-01-10T1000,1708A,116.3701,23.5345,揭阳市,新兴,细颗粒物(PM2.5),65,75,69,47,46,61,,45,42,39,39,14,14,0.8,0.6
2026-01-10T1000,1709A,116.3261,23.5442,揭阳市,西马,颗粒物(PM10),70,89,76,46,44,55,,38,36,34,34,14,9,0.7,0.7
2026-01-10T1000,1710A,116.361,23.5627,揭阳市,东兴,颗粒物(PM10),73,96,72,41,40,51,,29,28,37,39,12,13,/,/
2026-01-10T1000,1711A,116.4151,23.5295,揭阳市,渔湖,细颗粒物(PM2.5),78,102,73,57,44,42,,27,22,58,40,18,9,/,/
2026-01-10T1000,3320A,116.4028,23.5699,揭阳市,曲溪,颗粒物(PM10),74,98,77,46,43,50,,37,32,43,37,28,10,0.7,0.6
2026-01-10T1000,1944A,102.1691,38.5166,金昌市,天庆家园,颗粒物(PM10),78,105,82,43,21,48,,63,57,26,10,19,11,1.0,0.6
2026-01-10T1000,4022A,102.1648,38.5369,金昌市,金川区人防中心,颗粒物(PM10),70,90,72,46,25,46,,65,59,22,9,11,7,1.0,0.6
2026-01-10T1000,4239A,102.193042,38.531887,金昌市,长春路96号,颗粒物(PM10),56,62,73,17,18,56,,71,67,20,7,13,8,0.8,0.6
2026-01-10T1000,1262A,119.6478,29.0773,金华市,十五中,颗粒物(PM10),54,57,65,28,40,41,,41,41,44,42,7,5,0.5,0.5
2026-01-10T1000,1263A,119.6859,29.1032,金华市,监测站,,49,49,70,33,46,37,,34,34,43,40,8,5,0.6,0.4
2026-01-10T1000,3659A,119.656,29.1132,金华市,气象局,颗粒物(PM10),51,51,69,33,44,33,,36,35,46,44,4,4,0.8,0.7
2026-01-10T1000,1767A,121.1114,41.0879,锦州市,南山,,19,,76,13,63,57,,61,61,11,38,9,30,0.5,0.8
2026-01-10T1000,1768A,121.060361,40.842794,锦州市,开发区,,,31,117,18,69,,,56,56,12,39,15,14,0.7,0.9
2026-01-10T1000,1769A,121.1836,41.1118,锦州市,百股街道,,20,20,88,9,62,56,,61,61,13,36,9,27,0.6,1
2026-01-10T1000,1770A,121.1176,41.1224,锦州市,天安街道,,20,14,83,13,64,64,,68,68,12,34,10,22,0.5,1.1
2026-01-10T1000,1771A,121.1303,41.1385,锦州市,北湖公园,,22,22,85,13,64,56,,60,60,10,32,8,17,0.6,1.1
2026-01-10T1000,2160A,112.8496,35.5051,晋城市,自来水公司,颗粒物(PM10),72,93,129,19,27,65,,65,65,8,12,3,4,0.6,0.6
2026-01-10T1000,2162A,112.8509,35.4886,晋城市,市环保局,颗粒物(PM10),81,111,131,9,21,73,,73,73,9,13,1,3,0.4,0.5
2026-01-10T1000,3620A,112.8258,35.4804,晋城市,泽州一中,颗粒物(PM10),87,123,138,17,20,74,,73,73,1,4,2,3,0.1,0.2
2026-01-10T1000,4078A,112.8246,35.5152,晋城市,前书院路,颗粒物(PM10),99,148,169,13,20,64,,65,65,6,10,3,4,0.2,0.3
2026-01-10T1000,4079A,112.8864,35.4773,晋城市,祥云街666号,颗粒物(PM10),74,97,148,17,27,73,,74,74,8,11,2,4,0.2,0.3
2026-01-10T1000,2174A,112.6992,37.6984,晋中市,榆次区政府,颗粒物(PM10),56,61,214,10,30,66,,69,67,11,13,6,10,0.3,0.4
2026-01-10T1000,2865A,112.7195,37.683,晋中市,榆次三中,颗粒物(PM10),59,68,250,3,19,68,,73,70,7,8,6,8,0.3,0.4
2026-01-10T1000,4080A,112.7375,37.7215,晋中市,广安街188号,,,48,211,3,27,66,,71,69,9,10,,9,0.3,0.2
2026-01-10T1000,4200A,112.7478,37.6954,晋中市,迎宾街26号,颗粒物(PM10),53,56,222,12,26,66,,72,70,9,10,7,9,0.4,0.5
2026-01-10T1000,2439A,112.2012,31.048,荆门市,竹园小学,细颗粒物(PM2.5),67,80,89,48,62,44,,31,31,23,32,1,2,0.3,0.5
2026-01-10T1000,2440A,112.1968,30.9892,荆门市,掇刀,细颗粒物(PM2.5),60,58,79,43,57,59,,45,45,18,30,4,6,0.5,0.6
2026-01-10T1000,3012A,112.1849,31.0361,荆门市,西山林语,细颗粒物(PM2.5),58,61,72,41,51,50,,52,49,23,25,6,6,0.4,0.4
2026-01-10T1000,3547A,112.1631,31.0134,荆门市,龙泉中学南校,,43,43,74,23,57,76,,66,65,2,16,3,6,0.4,0.6
2026-01-10T1000,4124A,112.2213,31.0654,荆门市,新台西路6号,细颗粒物(PM2.5),118,99,100,89,83,36,,21,21,27,38,13,9,0.6,0.9
2026-01-10T1000,1844A,112.2493,30.3198,荆州市,市图书馆,细颗粒物(PM2.5),115,,62,87,68,39,,42,34,32,29,11,9,0.8,0.8
2026-01-10T1000,1845A,112.2009,30.3543,荆州市,市委党校,细颗粒物(PM2.5),112,84,69,84,65,41,,28,27,32,37,8,4,0.9,0.8
2026-01-10T1000,3194A,112.2749,30.3124,荆州市,管委会,细颗粒物(PM2.5),117,,66,88,67,34,,35,25,33,29,11,9,0.8,0.8
2026-01-10T1000,4268A,112.1722,30.3366,荆州市,学苑路85号,细颗粒物(PM2.5),102,84,69,76,62,33,,39,29,32,27,14,11,0.9,0.7
2026-01-10T1000,2343A,117.2114,29.2931,景德镇市,老干部活动中心,细颗粒物(PM2.5),55,44,54,39,42,32,,14,14,22,28,8,11,0.5,0.6
2026-01-10T1000,2344A,117.1893,29.2789,景德镇市,兽医站,细颗粒物(PM2.5),64,51,56,46,44,38,,14,14,22,29,9,11,0.6,0.7
2026-01-10T1000,2346A,117.246,29.2958,景德镇市,陶研所,,,77,51,43,44,,,7,6,,26,,5,,0.5
2026-01-10T1000,4289A,117.154766,29.256967,景德镇市,青少年活动中心,细颗粒物(PM2.5),53,54,63,37,40,40,,17,17,23,38,4,14,/,/
2026-01-10T1000,1803A,115.9873,29.6816,九江市,十里,细颗粒物(PM2.5),73,69,52,53,39,32,,14,14,60,51,12,6,1.0,0.9
2026-01-10T1000,1804A,115.9583,29.7047,九江市,茅山头,细颗粒物(PM2.5),70,79,68,51,44,18,,7,7,55,57,6,6,1.0,1.1
2026-01-10T1000,1805A,115.9877,29.7295,九江市,西园,细颗粒物(PM2.5),70,71,58,51,38,45,,17,17,52,67,7,4,0.9,0.8
2026-01-10T1000,1808A,115.9112,29.6038,九江市,综合工业园,细颗粒物(PM2.5),88,92,58,65,46,34,,24,20,51,50,6,6,0.5,0.7
2026-01-10T1000,3190A,116.0254,29.6995,九江市,外国语学校,细颗粒物(PM2.5),75,67,56,55,42,35,,26,24,50,48,14,11,1.0,0.8
2026-01-10T1000,4253A,116.010205,29.659402,九江市,莲花大道8号,细颗粒物(PM2.5),62,66,39,44,30,38,,45,41,28,15,6,4,0.6,0.4
2026-01-10T1000,4240A,98.495752,39.733935,酒泉市,玉门东路5号,颗粒物(PM10),71,92,179,21,31,20,,29,23,38,16,10,10,1.0,0.5
2026-01-10T1000,4241A,98.5099,39.7506,酒泉市,北大街108号,颗粒物(PM10),124,197,174,77,31,8,,30,20,51,20,12,9,2.0,0.6
2026-01-10T1000,2698A,76.0071,39.466,喀什地区,巡警大队,,,64,127,,96,12,,8,8,31,49,3,9,1.9,2.5
2026-01-10T1000,2699A,75.9756,39.4693,喀什地区,吾办,细颗粒物(PM2.5),69,80,122,50,81,4,,3,3,48,50,5,7,2.1,2.4
2026-01-10T1000,4027A,75.9485,39.4688,喀什地区,老干局,细颗粒物(PM2.5),123,127,153,93,91,2,,2,2,39,45,4,7,3.4,3.5
2026-01-10T1000,1824A,114.3389,34.778,开封市,肿瘤医院,颗粒物(PM10),105,160,120,26,23,70,,66,66,10,23,4,5,0.4,0.5
2026-01-10T1000,1826A,114.2884,34.7966,开封市,世纪星幼儿园,颗粒物(PM10),100,150,108,29,23,72,,66,66,13,24,2,3,0.3,0.3
2026-01-10T1000,3147A,114.3434,34.8101,开封市,龙亭公园,颗粒物(PM10),117,184,121,19,15,69,,64,64,20,31,6,7,0.3,0.3
2026-01-10T1000,3210A,114.3645,34.7955,开封市,汴京公园,颗粒物(PM10),125,200,123,28,23,61,,59,59,15,26,4,5,0.3,0.4
2026-01-10T1000,3473A,114.2485,34.8306,开封市,技师学院,颗粒物(PM10),88,126,98,27,22,69,,60,60,11,22,4,5,0.4,0.5
2026-01-10T1000,3592A,114.4518,34.7503,开封市,祥符区生态环境局,颗粒物(PM10),99,148,111,24,21,69,,61,61,12,26,3,5,0.3,0.4
2026-01-10T1000,1951A,84.886,45.6029,克拉玛依市,长征新村,,22,22,28,12,18,29,,50,46,38,21,5,4,0.4,0.3
2026-01-10T1000,1952A,84.8894,45.5827,克拉玛依市,南林小区,,28,28,30,12,20,21,,47,43,32,16,4,4,0.7,0.5
2026-01-10T1000,1954A,84.896,44.3328,克拉玛依市,独山子区,细颗粒物(PM2.5),82,105,95,60,61,36,,54,50,43,25,6,5,0.9,0.7
2026-01-10T1000,1955A,85.6888,46.0909,克拉玛依市,乌尔禾区商贸楼,,29,25,27,20,15,44,,54,53,23,25,4,5,0.4,0.4
2026-01-10T1000,3612A,85.1045,45.6895,克拉玛依市,白碱滩区新站,,32,28,29,22,23,11,,52,43,40,18,6,7,0.3,0.3
2026-01-10T1000,2697A,76.1457,39.7143,克孜勒苏柯尔克孜自治州,市人民政府,,36,36,54,19,30,44,,46,46,7,13,3,2,0.1,0.2
2026-01-10T1000,3665A,76.1654,39.7157,克孜勒苏柯尔克孜自治州,克州文化中心,,38,32,54,26,32,40,,44,44,12,18,4,4,0.4,0.8
2026-01-10T1000,1450A,102.8203,24.889,昆明市,呈贡新区,,23,22,26,16,14,46,,45,45,13,16,3,6,0.6,0.6
2026-01-10T1000,1452A,102.7253,25.0904,昆明市,龙泉镇,,38,38,33,22,18,43,,34,34,13,21,2,3,0.6,0.6
2026-01-10T1000,1453A,102.7267,25.0378,昆明市,东风东路,,36,28,28,25,24,44,,45,45,20,20,4,4,0.4,0.5
2026-01-10T1000,1454A,102.6744,25.0671,昆明市,金鼎山,,41,41,32,22,17,40,,38,37,16,15,4,3,0.7,0.6
2026-01-10T1000,1455A,102.6643,25.0401,昆明市,碧鸡广场,,36,35,26,25,19,39,,34,33,18,20,4,4,0.5,0.4
2026-01-10T1000,3179A,102.7491,25.012,昆明市,官渡区博物馆,,,28,31,19,19,,,44,43,25,17,2,3,0.6,0.6
2026-01-10T1000,3375A,102.8016,24.8336,昆明市,青年创业园,,16,13,24,10,18,49,,43,43,6,11,3,4,0.5,0.5
2026-01-10T1000,3550A,102.8,24.9787,昆明市,昆明学院,,23,22,24,16,17,50,,48,48,11,13,3,3,0.3,0.4
2026-01-10T1000,3551A,102.5969,24.6738,昆明市,晋宁区生态环境分局,,35,28,26,24,17,34,,28,28,12,11,2,1,0.6,0.5
2026-01-10T1000,3552A,102.6673,24.9861,昆明市,云天化总部,,26,24,23,18,16,51,,50,50,10,13,4,5,0.4,0.4
2026-01-10T1000,1456A,91.132,29.6515,拉萨市,八廓街,,37,37,40,22,23,41,,26,26,21,31,8,8,0.4,0.8
2026-01-10T1000,1457A,91.1221,29.6748,拉萨市,市环保局,,45,45,86,26,52,18,,10,10,29,31,11,13,1.0,2.4
2026-01-10T1000,1458A,91.0874,29.6476,拉萨市,区监测站,,21,21,37,11,23,28,,20,20,36,44,5,6,0.8,1.3
2026-01-10T1000,1459A,91.1774,29.6541,拉萨市,西藏大学,,24,24,51,8,28,38,,29,29,17,35,5,7,0.4,0.8
2026-01-10T1000,1460A,90.9798,29.6586,拉萨市,区辐射站,细颗粒物(PM2.5),129,150,66,98,44,12,,10,10,66,51,12,8,2.4,1.4
2026-01-10T1000,1461A,91.0831,29.6292,拉萨市,拉萨火车站,,39,39,32,21,18,6,,11,8,59,39,9,5,1.3,1
2026-01-10T1000,2520A,109.2203,23.7252,来宾市,来宾技工学校,细颗粒物(PM2.5),103,92,78,77,57,16,,7,6,25,28,26,15,0.8,0.7
2026-01-10T1000,3535A,109.1781,23.7293,来宾市,兴宾区政府,细颗粒物(PM2.5),74,68,64,54,49,42,,31,28,11,15,6,7,0.6,0.6
2026-01-10T1000,4002A,109.2312,23.7428,来宾市,中南小学,细颗粒物(PM2.5),110,109,83,83,55,5,,1,1,34,39,13,8,0.9,0.7
2026-01-10T1000,1479A,103.8309,36.0467,兰州市,铁路设计院,,,,,,,,,,,,,,,,
2026-01-10T1000,3241A,103.7439,36.0841,兰州市,百合公园,颗粒物(PM10),68,85,79,36,39,22,,15,15,42,53,16,17,0.9,1
2026-01-10T1000,3242A,103.9613,35.9985,兰州市,和平,颗粒物(PM10),69,88,73,35,41,24,,41,40,37,21,15,13,1.6,1
2026-01-10T1000,4236A,103.629272,36.093822,兰州市,庄浪东路808号,颗粒物(PM10),106,162,87,47,45,20,,39,34,45,42,16,20,0.9,0.9
2026-01-10T1000,4237A,103.7251,36.104344,兰州市,安宁西路88号,颗粒物(PM10),77,104,90,32,38,24,,48,43,48,43,22,14,0.6,0.8
2026-01-10T1000,4238A,103.846982,36.067567,兰州市,北滨河东路1号,颗粒物(PM10),71,91,75,33,37,19,,26,26,56,57,10,12,1.2,0.8
2026-01-10T1000,1067A,116.6712,39.5109,廊坊市,药材公司,,26,26,97,6,36,62,,65,62,7,24,3,6,0.4,0.6
2026-01-10T1000,1068A,116.7215,39.5592,廊坊市,开发区,,23,23,106,3,36,64,,65,63,10,30,4,6,0.2,0.4
2026-01-10T1000,1070A,116.7246,39.5273,廊坊市,北华航天学院,,30,30,107,6,37,63,,66,63,10,25,2,4,0.2,0.4
2026-01-10T1000,2919A,116.7022,39.5454,廊坊市,河北工业大学,,27,27,107,6,36,63,,66,63,8,26,4,6,0.3,0.5
2026-01-10T1000,2536A,103.7629,29.5844,乐山市,牛耳桥,细颗粒物(PM2.5),142,113,89,108,78,4,,6,3,38,33,10,8,1.1,0.7
2026-01-10T1000,2537A,103.7501,29.6002,乐山市,市第三水厂,细颗粒物(PM2.5),138,131,92,105,75,3,,2,2,52,39,10,6,1.2,0.8
2026-01-10T1000,2538A,103.7571,29.5664,乐山市,市监测站,细颗粒物(PM2.5),147,131,87,112,75,3,,1,1,36,30,8,7,1.1,0.8
2026-01-10T1000,3361A,103.7313,29.563,乐山市,理工大学,细颗粒物(PM2.5),165,137,95,125,82,4,,2,2,37,35,8,5,0.9,0.7
2026-01-10T1000,2599A,100.2497,26.8802,丽江市,丽江古城,,37,37,30,19,14,61,,72,68,19,12,8,8,0.6,0.5
2026-01-10T1000,2600A,100.2203,26.8906,丽江市,市中心,,25,20,21,3,10,77,,75,74,11,11,7,8,0.4,0.4
2026-01-10T1000,1267A,119.9141,28.4513,丽水市,监测站大楼,,38,38,43,23,32,26,,6,6,34,41,14,9,0.5,0.5
2026-01-10T1000,1268A,119.93,28.4589,丽水市,莲都小学,颗粒物(PM10),51,52,39,25,19,24,,6,6,29,32,/,/,/,/
2026-01-10T1000,1269A,119.8794,28.4232,丽水市,余庄前,,50,50,41,34,26,16,,4,4,39,28,6,5,0.4,0.3
2026-01-10T1000,1173A,119.1759,34.5885,连云港市,市环境监测站,颗粒物(PM10),122,193,122,36,39,51,,44,44,17,22,11,11,0.7,0.5
2026-01-10T1000,3000A,119.3577,34.6971,连云港市,德源药业,颗粒物(PM10),122,193,137,22,36,56,,34,34,21,30,6,7,0.3,0.4
2026-01-10T1000,3007A,119.178,34.8442,连云港市,新城一中,颗粒物(PM10),91,132,99,26,45,51,,53,53,21,25,11,11,0.7,0.7
2026-01-10T1000,3008A,119.3607,34.7519,连云港市,胡沟管理处,颗粒物(PM10),82,114,119,12,34,63,,60,60,12,23,4,5,0.6,0.5
2026-01-10T1000,3009A,119.1478,34.5913,连云港市,矿山设计院,颗粒物(PM10),119,188,125,24,34,52,,35,35,22,28,8,9,0.6,0.6
2026-01-10T1000,3434A,119.2414,34.6539,连云港市,工贸学校,颗粒物(PM10),126,201,100,29,42,,,45,45,21,22,11,12,,0.6
2026-01-10T1000,3664A,119.4171,34.734,连云港市,连云街道,颗粒物(PM10),90,130,101,19,32,53,,58,58,26,23,5,4,0.5,0.5
2026-01-10T1000,2573A,102.2629,27.8981,凉山彝族自治州,西昌市政府,细颗粒物(PM2.5),90,78,67,67,52,7,,27,18,39,24,8,7,1.2,0.9
2026-01-10T1000,2574A,102.2686,27.885,凉山彝族自治州,凉山州政府,细颗粒物(PM2.5),70,88,85,51,102,6,,18,14,44,27,10,8,1.4,1.1
2026-01-10T1000,4229A,102.2342,27.8859,凉山彝族自治州,凯乐南路30号,细颗粒物(PM2.5),94,104,97,70,65,2,,2,2,51,48,8,8,1.0,1
2026-01-10T1000,2212A,123.1978,41.2036,辽阳市,宏伟区,颗粒物(PM10),51,52,115,25,49,57,,50,50,8,18,5,6,0.4,0.7
2026-01-10T1000,2213A,123.1684,41.2497,辽阳市,新华园,,26,26,69,14,49,54,,47,47,12,24,5,7,0.2,0.4
2026-01-10T1000,2214A,123.2355,41.2663,辽阳市,滨河路,,30,24,67,21,48,47,,38,38,8,22,5,12,0,0.3
2026-01-10T1000,4083A,123.153,41.2874,辽阳市,铁西路150号,,24,24,73,14,45,56,,49,49,7,24,7,8,0.4,0.7
2026-01-10T1000,2227A,125.1359,42.8845,辽源市,环保局,细颗粒物(PM2.5),99,86,81,74,56,50,,41,41,20,33,5,7,0.8,0.9
2026-01-10T1000,4085A,125.0998,42.9134,辽源市,安宁大街333号,细颗粒物(PM2.5),92,70,73,68,57,51,,45,45,14,22,1,4,0.5,0.5
2026-01-10T1000,1625A,115.9789,36.4372,聊城市,区政府,颗粒物(PM10),85,119,224,14,29,57,,60,59,17,21,12,12,0.6,0.6
2026-01-10T1000,3200A,115.9772,36.4986,聊城市,监控中心,颗粒物(PM10),98,145,245,22,36,58,,61,58,15,21,12,11,0.5,0.5
2026-01-10T1000,3513A,116.0443,36.436,聊城市,九州社区,颗粒物(PM10),94,138,233,24,35,68,,72,70,3,8,1,4,0.3,0.4
2026-01-10T1000,4018A,116.0564,36.4609,聊城市,星美广场,颗粒物(PM10),94,137,206,23,32,60,,63,62,9,12,4,4,0.3,0.4
2026-01-10T1000,4113A,116.0091,36.4495,聊城市,利民路,颗粒物(PM10),81,112,195,33,36,58,,62,60,18,20,9,9,0.6,0.6
2026-01-10T1000,2632A,94.3683,29.6373,林芝市,林芝监测站,,14,14,16,9,8,35,,73,64,21,4,3,3,0.5,0.3
2026-01-10T1000,2633A,94.3616,29.6634,林芝市,林芝人民医院,,35,35,24,22,9,42,,61,55,14,5,1,2,0.6,0.4
2026-01-10T1000,2603A,100.0779,23.8981,临沧市,市环保局,细颗粒物(PM2.5),52,,37,36,43,23,,21,18,8,11,3,3,0.5,0.5
2026-01-10T1000,2604A,100.0894,23.882,临沧市,市气象局,,48,43,38,33,31,12,,23,18,14,12,5,5,0.6,0.5
2026-01-10T1000,1733A,111.5552,36.0791,临汾市,临钢医院,颗粒物(PM10),80,109,179,20,46,67,,67,67,10,25,2,6,0.4,0.8
2026-01-10T1000,1734A,111.4984,36.0734,临汾市,技工学校,颗粒物(PM10),74,97,168,22,46,66,,66,66,7,23,2,5,0.3,0.8
2026-01-10T1000,1736A,111.5017,36.0857,临汾市,市委,颗粒物(PM10),75,100,172,14,36,71,,72,72,9,26,3,8,0.6,1
2026-01-10T1000,3018A,111.5048,36.1015,临汾市,唐尧大酒店,颗粒物(PM10),79,107,159,14,41,74,,73,73,10,27,3,5,0.3,0.8
2026-01-10T1000,4244A,111.4879,36.053,临汾市,启星学校,颗粒物(PM10),68,85,155,19,40,73,,72,72,14,30,3,8,0.6,1.1
2026-01-10T1000,4271A,103.2464,35.6123,临夏回族自治州,滨河东路1号,颗粒物(PM10),108,165,126,58,54,10,,10,10,34,34,5,7,1.4,1.2
2026-01-10T1000,4310A,103.207136,35.599807,临夏回族自治州,新华街21号,细颗粒物(PM2.5),105,137,110,79,55,17,,14,12,34,32,10,12,1.8,1.2
2026-01-10T1000,1618A,118.3429,35.0532,临沂市,沂河小区,颗粒物(PM10),142,234,171,36,49,45,,45,43,33,32,12,14,0.5,0.6
2026-01-10T1000,1619A,118.2962,35.0568,临沂市,鲁南制药厂,颗粒物(PM10),172,293,199,34,45,53,,,,21,32,14,16,0.4,0.5
2026-01-10T1000,1620A,118.2793,34.9976,临沂市,新光毛纺厂,颗粒物(PM10),152,254,172,35,45,59,,53,53,15,27,8,12,0.4,0.5
2026-01-10T1000,1621A,118.3955,35.0889,临沂市,河东保险公司,,,,158,,40,,,52,51,17,24,11,14,0.5,0.6
2026-01-10T1000,3370A,118.3563,35.0215,临沂市,十里堡居委,颗粒物(PM10),156,261,181,24,34,55,,49,49,22,31,11,14,0.3,0.4
2026-01-10T1000,3496A,118.359,35.1067,临沂市,南坊新区,颗粒物(PM10),142,234,180,29,42,55,,48,48,25,32,12,13,0.5,0.6
2026-01-10T1000,3860A,118.3915,35.0297,临沂市,皇山花园小区,颗粒物(PM10),146,241,177,29,38,51,,52,50,30,29,13,16,0.5,0.6
2026-01-10T1000,1870A,109.4854,24.3898,柳州市,柳东小学,细颗粒物(PM2.5),153,123,83,117,74,47,,27,27,21,27,16,21,0.8,0.8
2026-01-10T1000,1871A,109.4109,24.3304,柳州市,环保监测站,细颗粒物(PM2.5),179,165,119,135,84,33,,9,9,35,51,17,14,1.2,1
2026-01-10T1000,1872A,109.3886,24.3408,柳州市,河西水厂,细颗粒物(PM2.5),153,201,149,117,89,12,,4,4,44,53,38,18,1.0,0.9
2026-01-10T1000,1873A,109.4263,24.2951,柳州市,市四中,细颗粒物(PM2.5),130,116,97,99,75,33,,6,6,38,57,23,15,1.0,1.1
2026-01-10T1000,1874A,109.396,24.3658,柳州市,市九中,细颗粒物(PM2.5),192,170,124,144,91,38,,19,19,44,50,24,19,1.1,1.1
2026-01-10T1000,1875A,109.4912,24.3164,柳州市,古亭山,细颗粒物(PM2.5),108,,59,81,44,12,,2,2,58,48,35,15,1.0,0.8
2026-01-10T1000,3402A,109.5422,24.3994,柳州市,市二中,细颗粒物(PM2.5),139,116,88,106,78,30,,6,6,35,40,26,28,0.7,0.7
2026-01-10T1000,2307A,116.5078,31.7369,六安市,监测大楼,细颗粒物(PM2.5),64,59,37,46,27,61,,73,70,26,24,4,4,0.5,0.4
2026-01-10T1000,2308A,116.4738,31.7642,六安市,皖西学院,颗粒物(PM10),63,75,46,38,29,65,,63,63,22,19,5,5,0.5,0.4
2026-01-10T1000,2309A,116.4997,31.7904,六安市,朝阳厂,细颗粒物(PM2.5),60,66,37,43,26,54,,78,70,26,16,6,6,0.5,0.3
2026-01-10T1000,2310A,116.5566,31.7885,六安市,开发区,颗粒物(PM10),74,98,56,51,32,43,,34,34,38,39,5,5,0.5,0.4
2026-01-10T1000,2577A,104.8293,26.592,六盘水市,黄土坡,细颗粒物(PM2.5),98,103,104,73,77,20,,47,41,34,27,12,12,1.3,1
2026-01-10T1000,2579A,104.8481,26.5898,六盘水市,民中,细颗粒物(PM2.5),94,76,95,70,82,18,,47,40,33,27,6,7,1.1,1
2026-01-10T1000,2580A,104.9541,26.5506,六盘水市,双水,细颗粒物(PM2.5),85,78,94,63,68,30,,55,49,27,20,6,7,0.6,0.6
2026-01-10T1000,4151A,104.8899,26.5685,六盘水市,钟山大道中段564号,细颗粒物(PM2.5),93,108,122,69,79,31,,48,44,22,22,6,10,1.0,1.2
2026-01-10T1000,2336A,117.022,25.1031,龙岩市,龙岩市监测站,颗粒物(PM10),51,52,35,27,23,44,,32,32,30,33,22,20,0.7,0.5
2026-01-10T1000,2337A,117.0257,25.0662,龙岩市,闽西职业技术学院,颗粒物(PM10),57,64,44,27,20,38,,23,23,27,28,15,14,0.6,0.4
2026-01-10T1000,2338A,117.0195,25.0306,龙岩市,龙岩学院,,41,41,30,24,19,45,,36,33,21,16,18,8,/,/
2026-01-10T1000,2885A,104.9344,33.3827,陇南市,滨江中学,颗粒物(PM10),77,103,105,46,57,12,,8,8,38,58,9,14,1.1,1.8
2026-01-10T1000,3247A,104.9551,33.3709,陇南市,市总工会,颗粒物(PM10),66,82,70,43,42,16,,22,19,36,36,12,11,1.1,1.1
2026-01-10T1000,2488A,111.9984,27.7346,娄底市,市监测站,细颗粒物(PM2.5),107,112,88,80,67,16,,7,7,48,48,52,14,3.0,1.3
2026-01-10T1000,2491A,111.9888,27.7035,娄底市,市政府,细颗粒物(PM2.5),113,99,79,85,60,18,,14,14,23,26,10,7,1.1,0.8
2026-01-10T1000,4127A,111.9812,27.7591,娄底市,涟钢职大,颗粒物(PM10),67,83,84,39,54,24,,26,26,34,38,15,13,6.2,1.5
2026-01-10T1000,4128A,112.0303,27.7457,娄底市,娄底体校,细颗粒物(PM2.5),89,80,70,66,53,8,,7,6,27,24,5,4,1.4,0.7
2026-01-10T1000,1894A,105.4427,28.9063,泸州市,小市上码头,细颗粒物(PM2.5),190,178,154,143,120,16,,21,14,43,34,13,14,1.4,1.3
2026-01-10T1000,1895A,105.4241,28.8573,泸州市,兰田宪桥,细颗粒物(PM2.5),180,179,142,136,111,4,,14,10,38,32,8,9,1.5,1.3
2026-01-10T1000,1896A,105.4378,28.8833,泸州市,市环监站,细颗粒物(PM2.5),179,174,145,135,117,15,,21,19,49,37,9,12,1.2,1.2
2026-01-10T1000,4272A,105.3689,28.7783,泸州市,纳溪中医医院,细颗粒物(PM2.5),143,140,117,109,96,2,,6,4,26,27,8,8,1.2,1
2026-01-10T1000,2183A,111.1447,37.5212,吕梁市,环保局,颗粒物(PM10),89,128,221,20,30,52,,61,57,12,9,3,3,0.4,0.4
2026-01-10T1000,2185A,111.1285,37.5338,吕梁市,自来水公司,颗粒物(PM10),91,131,225,24,31,59,,60,57,6,8,3,4,0.3,0.3
2026-01-10T1000,2867A,111.1225,37.5093,吕梁市,马茂庄小学,颗粒物(PM10),104,157,247,26,36,43,,53,46,22,15,5,4,0.3,0.3
2026-01-10T1000,1812A,112.3934,34.6517,洛阳市,市委党校,颗粒物(PM10),114,177,73,45,24,50,,56,52,24,19,11,9,0.5,0.3
2026-01-10T1000,1815A,112.494,34.6883,洛阳市,河南林校,颗粒物(PM10),125,199,94,37,24,68,,56,56,14,21,8,11,0.5,0.5
2026-01-10T1000,1816A,112.3843,34.623,洛阳市,开发区管委会,颗粒物(PM10),116,182,77,39,27,48,,54,51,26,19,44,20,0.8,0.6
2026-01-10T1000,1817A,112.4263,34.6249,洛阳市,市委新办公区,颗粒物(PM10),112,173,73,44,25,56,,61,59,18,15,10,9,0.6,0.5
2026-01-10T1000,3340A,112.6005,34.6323,洛阳市,伊滨,颗粒物(PM10),120,189,75,39,25,65,,58,58,5,10,6,7,0.3,0.3
2026-01-10T1000,3341A,112.495,34.6338,洛阳市,中移产业园,颗粒物(PM10),140,230,84,38,25,63,,54,54,16,20,9,9,0.4,0.3
2026-01-10T1000,3593A,112.5736,34.8993,洛阳市,吉利监测站,颗粒物(PM10),108,165,98,32,22,69,,61,61,,25,7,9,0.6,0.5
2026-01-10T1000,3635A,112.3678,34.6623,洛阳市,河科大西苑校区,颗粒物(PM10),127,204,82,34,20,54,,52,50,17,15,10,9,0.6,0.4
2026-01-10T1000,3636A,112.4387,34.678,洛阳市,英才小学,颗粒物(PM10),126,201,86,38,27,67,,57,57,14,19,9,11,0.5,0.4
2026-01-10T1000,4214A,112.460027,34.694929,洛阳市,春都路1号院,颗粒物(PM10),127,204,98,32,22,68,,56,56,11,18,7,9,0.6,0.6
2026-01-10T1000,2399A,114.051,33.5721,漯河市,三五一五工厂,颗粒物(PM10),163,275,87,44,44,55,,45,44,13,20,6,8,0.6,0.7
2026-01-10T1000,2400A,114.0055,33.5698,漯河市,漯河大学,颗粒物(PM10),160,270,82,44,36,48,,45,43,22,19,5,7,0.5,0.5
2026-01-10T1000,2401A,114.0134,33.5826,漯河市,市水利局,颗粒物(PM10),183,315,84,48,40,48,,40,38,16,17,7,8,0.4,0.5
2026-01-10T1000,2402A,114.0261,33.5697,漯河市,市广电局,颗粒物(PM10),186,322,86,33,38,55,,47,46,13,18,6,8,0.4,0.6
2026-01-10T1000,3478A,113.9691,33.568,漯河市,市图书馆,颗粒物(PM10),164,278,82,48,44,45,,40,39,14,15,4,6,0.4,0.5
2026-01-10T1000,4250A,114.089259,33.588274,漯河市,韶山路11号,颗粒物(PM10),145,239,81,39,40,48,,39,37,16,23,6,9,0.5,0.4
2026-01-10T1000,1798A,118.5084,31.6838,马鞍山市,湖东路四小,颗粒物(PM10),71,92,72,51,44,47,,61,53,38,32,16,7,1.1,0.6
2026-01-10T1000,1799A,118.5019,31.6449,马鞍山市,开发区,细颗粒物(PM2.5),82,91,76,60,52,49,,39,36,40,43,16,7,2.1,0.7
2026-01-10T1000,3633A,118.4914,31.681,马鞍山市,雨山,细颗粒物(PM2.5),74,89,75,54,49,46,,50,44,47,37,33,11,2.4,0.7
2026-01-10T1000,4191A,118.527362,31.722269,马鞍山市,慈湖高新区,细颗粒物(PM2.5),77,95,78,56,50,47,,58,51,38,35,10,7,0.6,0.6
2026-01-10T1000,1686A,111.0285,21.469,茂名市,电白南海,,,80,53,,24,58,,59,59,32,26,30,20,0.7,0.5
2026-01-10T1000,1687A,110.9294,21.6533,茂名市,茂石化七小,颗粒物(PM10),67,83,57,39,30,46,,45,42,45,30,59,22,0.6,0.4
2026-01-10T1000,1688A,110.9108,21.6688,茂名市,健康路,细颗粒物(PM2.5),67,80,52,48,34,48,,44,41,39,33,67,22,0.9,0.6
2026-01-10T1000,1689A,110.8592,21.6826,茂名市,高岭,颗粒物(PM10),64,78,82,34,34,48,,22,22,28,41,17,23,/,/
2026-01-10T1000,3450A,111.0101,21.5165,茂名市,电白水东,颗粒物(PM10),56,61,45,34,26,76,,77,72,29,19,18,18,/,/
2026-01-10T1000,2540A,103.8414,30.0871,眉山市,气象局,细颗粒物(PM2.5),170,136,94,129,84,9,,4,4,51,38,21,12,0.9,0.7
2026-01-10T1000,3148A,103.829,30.0563,眉山市,区人社局,细颗粒物(PM2.5),156,132,101,119,83,17,,4,4,48,47,52,13,1.3,1
2026-01-10T1000,4148A,103.8836,30.0695,眉山市,眉职院,细颗粒物(PM2.5),139,135,100,106,70,13,,12,8,33,30,6,3,1.0,0.7
2026-01-10T1000,1690A,116.1248,24.3307,梅州市,梅江月梅,,43,43,44,21,24,32,,9,9,24,36,/,/,/,/
2026-01-10T1000,1691A,116.0798,24.2719,梅州市,梅县新城,,39,39,47,27,33,34,,15,15,30,37,16,8,0.6,0.6
2026-01-10T1000,3315A,116.1234,24.2994,梅州市,梅龙,,36,36,42,22,24,32,,19,19,24,30,10,9,0.5,0.6
2026-01-10T1000,1878A,104.7775,31.4741,绵阳市,富乐山,细颗粒物(PM2.5),115,118,97,87,79,11,,19,14,46,31,12,12,0.8,0.6
2026-01-10T1000,1880A,104.6698,31.4668,绵阳市,高新区自来水公司,细颗粒物(PM2.5),138,147,125,105,88,3,,12,12,51,50,9,9,1.4,1.1
2026-01-10T1000,3491A,104.6899,31.5324,绵阳市,西科大附属小学,细颗粒物(PM2.5),109,129,128,82,91,16,,12,12,39,48,8,9,1.0,0.8
2026-01-10T1000,3492A,104.5647,31.5343,绵阳市,安州区旅游局,细颗粒物(PM2.5),134,142,116,102,92,9,,18,16,50,47,12,14,1.9,1.4
2026-01-10T1000,4146A,104.7092,31.4972,绵阳市,科技城新区公安局,细颗粒物(PM2.5),124,124,121,94,87,26,,20,20,35,48,3,4,0.9,1
2026-01-10T1000,4226A,104.765114,31.453094,绵阳市,绵阳市气象局,细颗粒物(PM2.5),115,137,115,87,88,,,0,,44,49,9,9,0.8,0.7
2026-01-10T1000,1784A,129.61,44.561,牡丹江市,环保大楼,颗粒物(PM10),63,76,80,31,40,50,,43,43,18,29,8,8,0.5,0.6
2026-01-10T1000,1787A,129.6364,44.6075,牡丹江市,机车工厂,,,90,106,32,40,,,42,42,14,29,8,12,0.4,0.6
2026-01-10T1000,1788A,129.6386,44.5462,牡丹江市,第一中学,细颗粒物(PM2.5),57,55,64,40,44,48,,39,39,14,32,9,9,0.6,0.8
2026-01-10T1000,4287A,129.5992,44.5964,牡丹江市,东晓云街98号,细颗粒物(PM2.5),55,57,70,39,53,49,,45,45,16,29,12,11,0.3,0.6
2026-01-10T1000,2531A,105.0703,29.61,内江市,市监测站,细颗粒物(PM2.5),129,,101,98,94,48,,49,49,29,33,6,6,0.7,0.8
2026-01-10T1000,2533A,105.0657,29.5807,内江市,内江二中,细颗粒物(PM2.5),128,137,117,97,93,26,,19,19,52,51,6,5,1.0,1.1
2026-01-10T1000,2534A,105.0407,29.5828,内江市,内江日报社,细颗粒物(PM2.5),119,101,95,90,87,47,,44,44,32,55,4,3,0.6,0.7
2026-01-10T1000,4147A,105.0433,29.6105,内江市,玉峰路西段888号,细颗粒物(PM2.5),124,111,116,94,91,33,,26,26,35,33,4,5,0.8,0.9
2026-01-10T1000,2628A,92.0653,31.4846,那曲市,那曲监测站,,45,45,57,31,39,22,,25,25,28,31,13,13,1.3,1.7
2026-01-10T1000,4243A,92.0515,31.4787,那曲市,那曲市委宣传部,细颗粒物(PM2.5),68,64,34,49,19,13,,17,16,29,25,12,8,1.9,1.2
2026-01-10T1000,1291A,115.8887,28.7006,南昌市,省林业公司,颗粒物(PM10),90,129,84,66,53,23,,6,6,52,55,11,8,1.0,1
2026-01-10T1000,1292A,115.813,28.7443,南昌市,林科所,细颗粒物(PM2.5),67,75,59,48,42,17,,24,21,63,53,12,10,0.6,0.3
2026-01-10T1000,1294A,115.8518,28.687,南昌市,建工学校,细颗粒物(PM2.5),78,103,90,57,58,24,,5,5,36,43,23,17,0.8,0.9
2026-01-10T1000,1295A,115.8926,28.6425,南昌市,象湖,细颗粒物(PM2.5),79,88,75,58,55,29,,5,5,49,59,16,14,1.0,1.1
2026-01-10T1000,3046A,115.9084,28.6062,南昌市,机电学校,细颗粒物(PM2.5),92,103,89,68,57,31,,9,9,54,58,14,11,0.8,0.6
2026-01-10T1000,3690A,115.9718,28.7032,南昌市,外国语学校,细颗粒物(PM2.5),85,85,80,63,56,24,,10,9,49,52,17,19,0.7,0.7
2026-01-10T1000,4106A,115.7923,28.6873,南昌市,工业二路,细颗粒物(PM2.5),79,76,62,58,46,23,,5,5,67,61,16,8,0.6,0.4
2026-01-10T1000,4192A,115.931587,28.686774,南昌市,南京东路235号,细颗粒物(PM2.5),92,107,91,68,66,31,,8,8,51,63,13,11,0.6,0.7
2026-01-10T1000,1906A,106.0791,30.8022,南充市,南充市委,细颗粒物(PM2.5),115,92,98,87,84,13,,14,14,39,47,5,5,0.9,0.9
2026-01-10T1000,1907A,106.1038,30.8215,南充市,南充炼油厂,细颗粒物(PM2.5),112,98,106,84,85,40,,26,26,22,39,8,6,0.6,0.7
2026-01-10T1000,4227A,106.108336,30.788436,南充市,梨树横街98号,细颗粒物(PM2.5),103,99,101,77,77,33,,23,23,30,41,6,6,0.8,0.8
2026-01-10T1000,4304A,106.1172,30.843,南充市,清泉寺北路188号,细颗粒物(PM2.5),95,90,84,71,72,39,,42,42,20,27,6,6,0.5,0.5
2026-01-10T1000,4305A,106.067,30.7616,南充市,同庆路1号,细颗粒物(PM2.5),110,109,93,83,78,29,,17,17,35,50,7,7,0.6,1.2
2026-01-10T1000,1151A,118.8033,32.1085,南京市,迈皋桥,颗粒物(PM10),92,134,68,31,38,60,,52,52,22,28,8,8,0.8,0.7
2026-01-10T1000,1152A,118.7487,32.057,南京市,草场门,颗粒物(PM10),108,166,77,39,40,49,,42,42,31,43,8,12,0.3,0.6
2026-01-10T1000,1154A,118.770105,32.004342,南京市,中华门,颗粒物(PM10),114,178,72,41,40,48,,19,19,30,43,6,5,0.8,0.9
2026-01-10T1000,1155A,118.8059,32.0329,南京市,瑞金路,颗粒物(PM10),109,168,76,46,44,44,,15,15,42,60,4,4,1.1,1.1
2026-01-10T1000,1156A,118.7946,32.0774,南京市,玄武湖,颗粒物(PM10),73,95,69,37,37,46,,41,41,21,24,4,4,0.9,0.9
2026-01-10T1000,1157A,118.6415,32.0964,南京市,浦口,颗粒物(PM10),84,118,76,50,42,48,,58,56,26,29,10,11,0.4,0.5
2026-01-10T1000,1158A,118.730129,32.000956,南京市,奥体中心,颗粒物(PM10),102,154,77,46,43,60,,37,37,20,44,9,12,0.4,0.8
2026-01-10T1000,1159A,118.9072,32.1047,南京市,仙林大学城,颗粒物(PM10),115,180,79,39,39,44,,28,28,29,42,9,11,0.7,1
2026-01-10T1000,3422A,118.8443,31.919,南京市,江宁彩虹桥,颗粒物(PM10),76,101,66,44,37,53,,52,48,26,26,6,12,0.7,0.8
2026-01-10T1000,3427A,118.8497,32.3599,南京市,六合雄州,颗粒物(PM10),67,84,74,45,46,51,,62,54,25,29,9,12,0.6,0.9
2026-01-10T1000,4086A,118.7641,32.0841,南京市,新模范马路66号,颗粒物(PM10),119,188,86,42,44,45,,43,43,37,39,4,5,1.0,0.9
2026-01-10T1000,4249A,118.8707617,31.34017673,南京市,汶溪路181号,细颗粒物(PM2.5),73,,43,53,35,52,,71,67,43,24,8,7,0.9,0.5
2026-01-10T1000,4312A,119.019,31.6512,南京市,中山西路1号,细颗粒物(PM2.5),80,78,54,59,42,44,,56,51,42,28,4,4,0.8,0.6
2026-01-10T1000,1401A,108.3098,22.788,南宁市,二十一中,细颗粒物(PM2.5),112,101,81,84,62,5,,1,1,55,47,8,5,,0.7
2026-01-10T1000,1402A,108.3135,22.8529,南宁市,北湖,细颗粒物(PM2.5),80,62,74,59,51,11,,3,3,52,59,13,10,0.9,0.9
2026-01-10T1000,1403A,108.3205,22.8222,南宁市,市监测站,细颗粒物(PM2.5),75,92,70,55,51,10,,17,7,61,48,14,13,1.0,0.8
2026-01-10T1000,1404A,108.3828,22.8038,南宁市,大自然花园,细颗粒物(PM2.5),79,80,59,58,45,17,,37,30,51,33,9,7,0.9,0.7
2026-01-10T1000,1406A,108.2397,22.8462,南宁市,区农职院,细颗粒物(PM2.5),83,81,55,61,46,14,,20,15,39,33,21,11,0.9,0.7
2026-01-10T1000,1407A,108.3285,22.7356,南宁市,英华嘉园,细颗粒物(PM2.5),120,106,83,91,70,28,,8,8,40,54,10,6,0.8,0.8
2026-01-10T1000,3401A,108.4829,22.762,南宁市,红星社区,细颗粒物(PM2.5),73,64,61,53,46,20,,8,8,37,40,8,7,0.8,0.7
2026-01-10T1000,4132A,108.2927,23.1477,南宁市,起凤路9号,细颗粒物(PM2.5),93,84,73,69,58,12,,3,3,29,34,2,4,0.7,0.6
2026-01-10T1000,4221A,108.2177,22.7774,南宁市,乐贤路16号,细颗粒物(PM2.5),89,82,79,66,50,12,,2,2,35,49,7,6,0.6,0.6
2026-01-10T1000,2332A,118.1682,26.6371,南平市,南平市监测站,,46,44,38,32,28,27,,9,9,24,26,8,5,0.6,0.5
2026-01-10T1000,2334A,118.1757,26.6276,南平市,南平七中,颗粒物(PM10),51,52,33,26,22,30,,15,14,23,24,6,5,0.6,0.5
2026-01-10T1000,1168A,120.9056,31.9669,南通市,狼山街道,颗粒物(PM10),85,120,73,49,49,50,,22,22,26,57,8,5,0.6,0.6
2026-01-10T1000,1170A,120.8635,32.0231,南通市,城中,颗粒物(PM10),94,138,84,53,46,44,,27,27,35,61,8,8,0.7,0.7
2026-01-10T1000,1171A,120.9376,31.9301,南通市,星湖花园,颗粒物(PM10),88,126,83,56,51,54,,32,32,34,66,9,9,0.5,0.6
2026-01-10T1000,1172A,120.8053,32.046,南通市,紫琅学院,一氧化碳(CO),99,137,83,62,48,47,,27,27,34,63,9,8,9.9,1.8
2026-01-10T1000,3291A,121.0631,32.0644,南通市,通州监测站,,,,83,,53,,,20,20,36,74,,8,0.8,0.8
2026-01-10T1000,3432A,120.9348,31.9874,南通市,环境教育馆,颗粒物(PM10),87,124,75,57,48,54,,29,29,32,58,9,8,0.7,0.8
2026-01-10T1000,4091A,120.8692,31.9885,南通市,洪江路,细颗粒物(PM2.5),82,105,71,60,46,43,,18,18,28,67,9,6,0.7,0.7
2026-01-10T1000,2404A,112.5338,33.0086,南阳市,瓦房庄,细颗粒物(PM2.5),127,113,74,96,56,13,,20,14,39,24,8,7,0.9,0.6
2026-01-10T1000,2405A,112.5002,32.9734,南阳市,汉画馆,细颗粒物(PM2.5),112,128,84,84,58,10,,12,8,49,31,7,7,0.9,0.6
2026-01-10T1000,2406A,112.5778,33.0144,南阳市,气象站,细颗粒物(PM2.5),113,127,80,85,47,22,,27,19,40,26,7,7,0.8,0.7
2026-01-10T1000,2407A,112.548,32.9687,南阳市,理工学院,细颗粒物(PM2.5),109,118,72,82,46,11,,26,16,48,29,8,7,0.8,0.6
2026-01-10T1000,4008A,112.5233,32.9921,南阳市,卧龙区政府,细颗粒物(PM2.5),114,124,83,86,53,14,,18,13,46,28,7,6,0.8,0.7
2026-01-10T1000,1234A,121.8352,29.9111,宁波市,区环保大楼,,47,47,75,31,49,50,,28,27,54,59,8,8,0.5,0.6
2026-01-10T1000,1235A,121.5595,29.8208,宁波市,万里学院,细颗粒物(PM2.5),67,68,86,48,58,28,,22,18,59,52,7,6,0.7,0.7
2026-01-10T1000,1236A,121.713,29.9564,宁波市,龙赛医院,颗粒物(PM10),68,85,95,43,58,30,,22,21,62,61,6,5,0.7,0.7
2026-01-10T1000,1240A,121.5855,29.8635,宁波市,太古小学,细颗粒物(PM2.5),67,78,85,48,60,24,,33,23,64,45,7,6,0.9,0.8
2026-01-10T1000,1241A,121.5239,29.8673,宁波市,市环境监测中心,颗粒物(PM10),62,73,87,42,58,20,,12,7,68,54,10,9,0.9,0.9
2026-01-10T1000,2871A,121.6156,29.9015,宁波市,万里国际学校,细颗粒物(PM2.5),69,70,80,50,56,28,,38,28,68,48,6,6,0.8,0.6
2026-01-10T1000,3710A,121.5593,29.8976,宁波市,白沙活动中心,细颗粒物(PM2.5),57,62,75,40,58,30,,17,14,65,52,8,6,0.8,0.7
2026-01-10T1000,4095A,121.8962,29.7529,宁波市,中科路88号,细颗粒物(PM2.5),74,72,77,54,61,48,,32,32,46,44,8,6,0.7,0.6
2026-01-10T1000,2341A,119.5387,26.6611,宁德市,宁德市监测站,,42,42,39,16,25,52,,58,53,29,23,7,7,0.4,0.5
2026-01-10T1000,3209A,119.5231,26.6562,宁德市,宁德一中,,27,27,39,14,28,56,,57,53,24,18,6,6,0.7,0.6
2026-01-10T1000,2618A,98.859,25.8541,怒江傈僳族自治州,州监测站,,32,30,34,22,22,32,,33,32,10,12,8,7,0.4,0.4
2026-01-10T1000,2619A,98.8607,25.8168,怒江傈僳族自治州,泸水一中,,32,25,30,22,21,18,,24,22,17,17,6,6,0.6,0.6
2026-01-10T1000,1888A,101.6891,26.571,攀枝花市,弄弄坪,颗粒物(PM10),70,89,52,47,37,12,,20,14,37,23,31,15,2.5,1.3
2026-01-10T1000,1889A,101.577,26.5914,攀枝花市,河门口,细颗粒物(PM2.5),78,82,53,57,36,13,,11,10,33,24,20,15,1.9,1.2
2026-01-10T1000,1891A,101.7365,26.4986,攀枝花市,仁和,,50,50,51,35,35,12,,16,12,22,23,8,11,1.0,1.1
2026-01-10T1000,2835A,101.7222,26.567,攀枝花市,四十中小,细颗粒物(PM2.5),63,70,63,45,41,6,,3,3,36,39,16,17,1.9,1.5
2026-01-10T1000,1604A,122.0303,41.1489,盘锦市,开发区,,,27,107,10,65,61,,60,60,,22,5,7,0.3,0.8
2026-01-10T1000,1605A,122.0486,41.0883,盘锦市,兴隆台,,28,28,85,10,58,60,,58,58,14,36,5,7,0.4,0.8
2026-01-10T1000,1606A,121.8297,41.1026,盘锦市,新生街道,,19,15,78,7,61,59,,52,52,17,35,6,8,0.3,0.8
2026-01-10T1000,1832A,113.3257,33.7423,平顶山市,新华旅馆,颗粒物(PM10),94,138,84,24,34,68,,65,65,10,33,6,6,0.3,0.5
2026-01-10T1000,1833A,113.2917,33.737,平顶山市,规划设计院,颗粒物(PM10),85,119,85,22,38,67,,59,59,7,29,8,7,0.3,0.6
2026-01-10T1000,1834A,113.182,33.7738,平顶山市,平顶山工学院,颗粒物(PM10),92,134,68,27,29,65,,63,63,11,21,10,8,0.3,0.3
2026-01-10T1000,3594A,112.8736,33.9068,平顶山市,石龙区,,,283,85,,21,,,71,71,11,26,6,6,0.5,0.4
2026-01-10T1000,4116A,113.284,33.7139,平顶山市,姚电大道23号,颗粒物(PM10),84,117,81,28,37,62,,60,60,14,29,9,8,0.4,0.5
2026-01-10T1000,2656A,106.6633,35.5338,平凉市,聚贤嘉苑,颗粒物(PM10),56,61,47,24,22,37,,35,35,28,25,12,11,0.7,0.7
2026-01-10T1000,2657A,106.7021,35.5307,平凉市,博物馆,颗粒物(PM10),60,69,59,34,25,36,,39,39,28,24,12,11,0.6,0.6
2026-01-10T1000,2348A,113.8384,27.6436,萍乡市,中医院,颗粒物(PM10),70,90,91,43,56,20,,8,8,46,43,13,8,1.3,1.5
2026-01-10T1000,2350A,113.8677,27.6438,萍乡市,市环保局,细颗粒物(PM2.5),75,82,77,55,55,27,,8,8,41,44,23,16,0.9,1.2
2026-01-10T1000,2351A,113.8663,27.6202,萍乡市,安源区政府,细颗粒物(PM2.5),98,98,79,73,66,10,,6,5,47,33,25,12,2.9,1.7
2026-01-10T1000,4107A,113.8686,27.6668,萍乡市,联洪村委会,细颗粒物(PM2.5),74,70,82,54,56,18,,12,12,41,39,11,8,1.1,1.3
2026-01-10T1000,2319A,119.0142,25.4324,莆田市,荔城区仓后路,颗粒物(PM10),56,62,58,36,42,52,,58,53,31,25,/,/,/,/
2026-01-10T1000,2320A,119.0016,25.4553,莆田市,莆田市监测站,颗粒物(PM10),55,60,45,26,34,61,,64,58,24,17,4,3,0.5,0.6
2026-01-10T1000,2321A,119.112,25.4561,莆田市,涵江区六中,,49,44,54,34,39,60,,60,55,24,23,/,/,0.6,0.6
2026-01-10T1000,2322A,119.1014,25.3215,莆田市,秀屿区政府,"颗粒物(PM10),细颗粒物(PM2.5)",64,78,58,46,47,66,,56,55,30,23,6,5,0.7,0.6
2026-01-10T1000,2392A,115.0312,35.7636,濮阳市,环保局,颗粒物(PM10),77,103,126,11,17,58,,59,58,20,19,7,7,0.6,0.4
2026-01-10T1000,3021A,115,35.7667,濮阳市,濮水河管理处,颗粒物(PM10),65,79,131,14,15,62,,60,59,2,5,5,5,0.5,0.6
2026-01-10T1000,4118A,115.0552,35.7816,濮阳市,中原东路68号,颗粒物(PM10),83,116,148,14,16,61,,58,58,14,20,5,5,0.4,0.3
2026-01-10T1000,4216A,115.0923632,35.76857718,濮阳市,任丘路479号,颗粒物(PM10),75,100,139,7,16,59,,54,52,16,19,5,5,0.4,0.4
2026-01-10T1000,2601A,100.9801,22.7634,普洱市,市环保局,颗粒物(PM10),59,68,50,16,14,10,,10,8,23,12,7,5,0.7,0.5
2026-01-10T1000,2602A,100.9763,22.8237,普洱市,普洱第二中学,,48,48,38,21,21,13,,6,6,19,15,5,5,0.4,0.4
2026-01-10T1000,3345A,131.0413,45.7795,七台河市,中波台,,39,39,54,26,39,53,,40,40,10,27,6,7,0.2,0.4
2026-01-10T1000,3637A,131.0136,45.7688,七台河市,人民广场,细颗粒物(PM2.5),54,42,63,38,47,56,,40,40,13,36,8,10,0.5,0.8
2026-01-10T1000,3684A,130.8639,45.8144,七台河市,新建矿广场,,,75,85,56,53,29,,10,10,18,40,,10,0.8,0.6
2026-01-10T1000,1779A,123.9307,47.3641,齐齐哈尔市,安居小区,细颗粒物(PM2.5),85,68,47,63,40,29,,39,34,29,23,9,9,0.9,0.7
2026-01-10T1000,1780A,123.9497,47.3389,齐齐哈尔市,中心广场,细颗粒物(PM2.5),94,84,45,70,34,25,,41,36,34,22,6,9,1.0,0.7
2026-01-10T1000,1781A,123.9483,47.3229,齐齐哈尔市,农牧车辆厂,细颗粒物(PM2.5),85,102,43,63,28,18,,40,32,46,22,5,4,1.0,0.5
2026-01-10T1000,1783A,123.9442,47.2994,齐齐哈尔市,市环境监测站,细颗粒物(PM2.5),123,120,46,93,32,19,,36,27,46,26,9,10,1.3,0.7
2026-01-10T1000,3662A,123.6341,47.2079,齐齐哈尔市,富区青少年活动中心,细颗粒物(PM2.5),113,97,61,85,50,34,,34,32,24,22,10,6,0.9,0.7
2026-01-10T1000,2591A,107.9765,26.5724,黔东南苗族侗族自治州,市环境监测站,细颗粒物(PM2.5),82,79,75,60,69,3,,1,1,29,42,4,4,0.5,0.8
2026-01-10T1000,2881A,107.8909,26.531,黔东南苗族侗族自治州,凯里学院,细颗粒物(PM2.5),65,70,69,47,47,14,,8,8,18,27,6,6,0.6,0.7
2026-01-10T1000,2593A,107.5223,26.2371,黔南布依族苗族自治州,小围寨,细颗粒物(PM2.5),70,61,57,51,50,5,,3,2,20,22,11,11,0.9,0.8
2026-01-10T1000,3538A,107.5175,26.2977,黔南布依族苗族自治州,沙坝,,,85,72,63,55,,,1,1,21,27,10,9,1.1,1
2026-01-10T1000,2589A,104.9022,25.0943,黔西南布依族苗族自治州,场坝街,细颗粒物(PM2.5),77,64,62,56,53,52,,56,53,14,14,4,5,0.6,0.7
2026-01-10T1000,2590A,104.8812,25.0994,黔西南布依族苗族自治州,坪东大道,细颗粒物(PM2.5),85,65,60,63,52,52,,59,55,11,13,6,6,0.7,0.7
2026-01-10T1000,2502A,108.6238,21.9667,钦州市,市环保站,颗粒物(PM10),85,119,102,56,50,36,,17,17,47,40,8,6,0.9,1.3
2026-01-10T1000,2503A,108.655,21.9481,钦州市,沙埠小学,细颗粒物(PM2.5),89,124,103,66,61,28,,14,14,49,54,12,10,1.0,1
2026-01-10T1000,2504A,108.5989,21.7435,钦州市,港区一小,细颗粒物(PM2.5),88,106,77,65,50,36,,42,25,61,41,15,10,2.2,1.1
2026-01-10T1000,3404A,108.5959,21.9634,钦州市,北职校,细颗粒物(PM2.5),94,110,76,70,53,35,,26,21,42,32,13,10,6.6,1.5
2026-01-10T1000,1046A,119.5247,39.9346,秦皇岛市,建设大厦,,29,,108,20,58,58,,58,58,11,38,5,12,0.3,0.9
2026-01-10T1000,3132A,119.5979,39.938,秦皇岛市,文明里,,22,22,109,13,47,61,,62,62,9,38,8,15,0.0,0.7
2026-01-10T1000,4066A,119.7458,39.9952,秦皇岛市,南园路157号,,19,19,104,3,50,60,,62,62,11,36,7,13,0.3,0.8
2026-01-10T1000,4067A,119.5131,39.8858,秦皇岛市,翠岛大街1号,,30,30,104,3,53,54,,57,56,11,36,8,15,0.3,0.9
2026-01-10T1000,4198A,119.509013,39.825305,秦皇岛市,北戴河轮滑馆,,27,27,103,12,54,60,,61,61,11,38,5,9,0.2,0.8
2026-01-10T1000,1310A,120.404,36.0625,青岛市,市南区东部子站,颗粒物(PM10),63,75,144,7,34,61,,57,57,11,23,12,12,0.5,0.6
2026-01-10T1000,1311A,120.362344,36.10282,青岛市,四方区子站,颗粒物(PM10),69,88,148,9,39,68,,64,64,6,24,4,6,0.4,0.7
2026-01-10T1000,1312A,120.294373,36.054183,青岛市,市南区西部子站,颗粒物(PM10),62,73,146,7,34,65,,56,56,8,30,4,6,0.4,0.6
2026-01-10T1000,1313A,120.4581,36.0858,青岛市,崂山区子站,颗粒物(PM10),63,75,135,9,31,66,,63,63,7,20,11,12,0.3,0.4
2026-01-10T1000,1315A,120.3945,36.3083,青岛市,城阳区子站,颗粒物(PM10),78,105,145,10,33,66,,61,61,15,33,8,9,0.6,0.8
2026-01-10T1000,3642A,120.3454,36.0735,青岛市,市北区南部,颗粒物(PM10),65,80,134,3,33,60,,55,55,9,24,2,4,0.4,0.6
2026-01-10T1000,3643A,120.3897,36.18,青岛市,李沧区北部,颗粒物(PM10),74,97,147,17,40,56,,54,54,11,27,9,11,0.6,0.8
2026-01-10T1000,4110A,120.5222,36.4089,青岛市,盟旺路653号,颗粒物(PM10),62,73,130,9,35,58,,51,51,20,34,4,6,0.3,0.6
2026-01-10T1000,4290A,120.196923,35.954556,青岛市,珠江路669号,颗粒物(PM10),85,119,147,10,44,70,,65,65,9,24,10,12,0.5,0.7
2026-01-10T1000,4291A,120.0424,35.8656,青岛市,黄岛区人民政府广场,颗粒物(PM10),73,95,156,7,35,69,,65,65,12,29,8,11,0.6,0.8
2026-01-10T1000,1703A,113.0218,23.7086,清远市,凤城街办,,46,46,33,30,21,29,,42,37,46,33,/,/,/,/
2026-01-10T1000,3025A,113.0479,23.6343,清远市,技师学院,,47,47,52,27,25,30,,9,9,43,48,25,11,0.5,0.5
2026-01-10T1000,3318A,112.9898,23.7403,清远市,清新太和,,50,50,30,28,17,24,,49,41,54,24,6,6,0.7,0.4
2026-01-10T1000,3455A,113.076,23.72,清远市,清城东城,,49,49,30,28,16,28,,24,20,43,29,/,/,/,/
2026-01-10T1000,2661A,107.6325,35.7357,庆阳市,庆阳五中,颗粒物(PM10),52,53,61,18,17,75,,77,76,10,9,4,4,0.3,0.2
2026-01-10T1000,2662A,107.6361,35.7067,庆阳市,市环保局,颗粒物(PM10),61,71,63,25,14,71,,79,77,14,9,6,5,0.4,0.3
2026-01-10T1000,1916A,103.7897,25.5036,曲靖市,环境监测站,,48,48,46,31,25,31,,36,36,19,18,5,4,0.6,0.6
2026-01-10T1000,1917A,103.8013,25.5357,曲靖市,烟厂办公区,,43,43,44,24,28,35,,38,38,16,16,6,4,0.5,0.5
2026-01-10T1000,3376A,103.7926,25.4651,曲靖市,南苑二区,,37,37,40,24,28,33,,41,41,15,12,4,4,0.5,0.5
2026-01-10T1000,3377A,103.7442,25.5259,曲靖市,曲靖师范学院,,34,34,39,20,29,39,,49,48,13,14,2,3,0.4,0.5
2026-01-10T1000,1264A,118.8694,28.94,衢州市,环保大楼,,42,42,60,25,34,46,,47,41,26,28,/,/,/,/
2026-01-10T1000,1266A,118.8622,28.9809,衢州市,衢州学院,颗粒物(PM10),51,52,58,26,30,35,,27,19,40,37,9,8,0.6,0.6
2026-01-10T1000,4097A,118.9646,28.9832,衢州市,衢州三中,颗粒物(PM10),57,64,64,39,39,28,,33,26,48,34,13,10,1.2,0.9
2026-01-10T1000,1611A,118.5818,24.9116,泉州市,涂山街,细颗粒物(PM2.5),58,60,58,41,43,59,,46,46,27,24,4,4,0.7,0.6
2026-01-10T1000,1612A,118.597,24.8976,泉州市,津头埔,细颗粒物(PM2.5),60,61,58,43,43,57,,49,46,30,27,6,6,0.7,0.6
2026-01-10T1000,1613A,118.6669,24.9422,泉州市,万安,细颗粒物(PM2.5),62,69,59,44,39,57,,50,50,33,26,4,4,0.7,0.6
2026-01-10T1000,4105A,118.6355,24.9148,泉州市,霞新路6号,,,70,63,47,41,60,,35,35,37,29,/,/,,0.5
2026-01-10T1000,2626A,88.8873,29.2723,日喀则市,日喀则监测站,,49,49,33,18,12,20,,62,49,32,11,6,5,0.7,0.4
2026-01-10T1000,3726A,88.8775,29.2425,日喀则市,林业技术推广中心,,21,21,37,6,10,49,,70,61,6,7,8,10,0.2,0.2
2026-01-10T1000,1659A,119.4711,35.421,日照市,监测站,颗粒物(PM10),64,78,138,12,39,67,,62,62,9,28,6,11,0.5,0.7
2026-01-10T1000,1660A,119.523,35.4216,日照市,市政府广场,颗粒物(PM10),54,58,128,6,37,68,,62,62,12,28,8,12,0.2,0.4
2026-01-10T1000,1661A,119.5511,35.4113,日照市,港务局,颗粒物(PM10),69,88,148,17,46,67,,60,60,11,33,7,11,0.4,0.6
2026-01-10T1000,3507A,119.5326,35.4627,日照市,职业技术学院,颗粒物(PM10),70,90,136,7,33,69,,64,63,12,29,6,10,0.5,0.7
2026-01-10T1000,3604A,119.3267,35.1043,日照市,岚山环保分局,颗粒物(PM10),107,163,148,22,46,66,,55,55,17,35,10,16,0.7,0.9
2026-01-10T1000,1835A,111.1922,34.7752,三门峡市,市政府,颗粒物(PM10),106,161,80,33,28,67,,68,68,8,23,7,10,0.2,0.4
2026-01-10T1000,1836A,111.1588,34.794,三门峡市,开发区,颗粒物(PM10),111,171,80,32,27,64,,67,66,7,22,4,5,0.3,0.3
2026-01-10T1000,3039A,111.1911,34.7829,三门峡市,三门峡市第一小学,颗粒物(PM10),120,189,95,36,26,62,,65,65,11,24,6,8,0.3,0.4
2026-01-10T1000,3598A,111.1031,34.719,三门峡市,富达温泉假日酒店,颗粒物(PM10),127,204,95,33,28,65,,63,63,11,28,4,10,0.3,0.5
2026-01-10T1000,2324A,117.621,26.2626,三明市,三钢,,48,48,40,31,33,25,,16,16,28,34,12,9,1.7,1.5
2026-01-10T1000,2325A,117.6352,26.2714,三明市,三明二中,,48,,39,33,28,22,,16,15,27,28,9,10,1.3,1.2
2026-01-10T1000,2326A,117.6028,26.2377,三明市,三元区政府,,35,35,43,23,29,29,,12,12,25,34,15,9,1.5,1.1
2026-01-10T1000,1877A,109.4962,18.2682,三亚市,河西子站,,44,44,44,21,19,110,,113,109,19,15,6,6,0.6,0.6
2026-01-10T1000,3540A,109.7348,18.3443,三亚市,君悦子站,颗粒物(PM10),54,57,48,24,22,82,,71,70,20,16,6,6,0.6,0.6
2026-01-10T1000,4135A,109.1714,18.3739,三亚市,城东小学站,,43,30,32,30,27,70,,60,59,12,10,/,/,/,/
2026-01-10T1000,2624A,91.7592,29.234,山南市,山南监测站,,34,34,35,17,13,19,,51,39,26,12,6,5,0.5,0.4
2026-01-10T1000,2625A,91.7701,29.2436,山南市,山南人民医院,颗粒物(PM10),51,51,34,16,6,25,,48,38,23,12,5,6,0.6,0.4
2026-01-10T1000,1674A,116.6795,23.3666,汕头市,金平子站,颗粒物(PM10),70,89,58,50,40,65,,59,51,47,30,21,10,1.0,0.9
2026-01-10T1000,1675A,116.7248,23.3632,汕头市,龙湖子站,颗粒物(PM10),58,65,52,32,29,62,,66,57,35,23,20,14,/,/
2026-01-10T1000,1676A,116.7257,23.2774,汕头市,濠江子站,"颗粒物(PM10),细颗粒物(PM2.5)",63,76,53,45,35,74,,66,60,35,22,16,10,/,/
2026-01-10T1000,1677A,116.7518,23.4712,汕头市,澄海子站,颗粒物(PM10),51,51,57,31,35,66,,68,64,24,22,9,10,0.3,0.3
2026-01-10T1000,1678A,116.6088,23.2539,汕头市,潮阳子站,细颗粒物(PM2.5),72,79,55,52,32,65,,61,54,42,25,20,10,0.8,0.6
2026-01-10T1000,3444A,116.4539,23.2684,汕头市,潮南峡山,细颗粒物(PM2.5),92,105,69,68,42,74,,53,47,30,23,16,11,0.7,0.6
2026-01-10T1000,3624A,116.4069,23.2533,汕头市,潮南子站,细颗粒物(PM2.5),90,107,89,67,46,60,,36,32,37,30,16,9,/,/
2026-01-10T1000,1693A,115.3653,22.7751,汕尾市,市环保局,颗粒物(PM10),53,56,45,32,31,86,,92,86,26,19,8,8,0.6,0.5
2026-01-10T1000,1695A,115.362,22.7926,汕尾市,新城中学,颗粒物(PM10),55,60,45,27,31,83,,87,79,22,17,6,5,0.6,0.6
2026-01-10T1000,2645A,109.9155,33.8714,商洛市,监测站,颗粒物(PM10),55,59,36,22,18,41,,42,40,33,27,4,5,0.4,0.3
2026-01-10T1000,3045A,109.9647,33.8486,商洛市,商州区中学,颗粒物(PM10),60,70,48,31,38,33,,32,31,41,33,7,6,0.7,0.5
2026-01-10T1000,2408A,115.6701,34.4283,商丘市,环境监测站,颗粒物(PM10),136,221,124,31,38,60,,48,48,13,20,3,3,0.3,0.2
2026-01-10T1000,2409A,115.6458,34.4047,商丘市,粮食局,颗粒物(PM10),122,194,115,36,37,54,,50,50,16,20,4,4,0.3,0.2
2026-01-10T1000,3171A,115.6069,34.4465,商丘市,梁园区档案局,颗粒物(PM10),136,222,121,35,35,46,,42,42,24,21,5,5,0.3,0.3
2026-01-10T1000,4119A,115.6701,34.3767,商丘市,北海东路185号,颗粒物(PM10),118,185,105,27,34,59,,50,50,16,19,3,3,0.4,0.4
2026-01-10T1000,4120A,115.6172,34.3704,商丘市,中山大街3号,颗粒物(PM10),145,240,124,36,38,42,,44,43,23,20,4,4,0.2,0.2
2026-01-10T1000,1141A,121.401,31.2382,上海市,普陀,细颗粒物(PM2.5),70,71,84,51,63,31,,23,21,67,58,8,8,0.7,0.7
2026-01-10T1000,1142A,121.4774,31.2043,上海市,十五厂,细颗粒物(PM2.5),60,66,83,43,60,39,,32,32,65,66,10,9,0.8,0.8
2026-01-10T1000,1143A,121.4673,31.3011,上海市,虹口,颗粒物(PM10),62,73,85,43,57,38,,27,26,57,56,10,9,0.6,0.6
2026-01-10T1000,1147A,121.4253,31.226,上海市,静安监测站,细颗粒物(PM2.5),68,68,81,49,59,40,,34,32,63,59,9,9,0.6,0.6
2026-01-10T1000,1148A,121.7029,31.1905,上海市,浦东川沙,细颗粒物(PM2.5),68,75,96,49,65,39,,22,16,61,54,9,8,0.8,0.7
2026-01-10T1000,1149A,121.5339,31.229,上海市,浦东新区监测站,细颗粒物(PM2.5),68,62,80,49,60,57,,49,49,50,51,9,9,0.7,0.8
2026-01-10T1000,1150A,121.5776,31.2038,上海市,浦东张江,细颗粒物(PM2.5),59,66,91,42,61,53,,22,22,53,55,10,9,0.6,0.7
2026-01-10T1000,3265A,121.4242,31.3303,上海市,宝山庙行,细颗粒物(PM2.5),67,75,86,48,61,37,,22,22,61,56,10,9,0.6,0.6
2026-01-10T1000,3266A,121.8789,31.4662,上海市,崇明上实东滩,细颗粒物(PM2.5),73,79,88,53,58,62,,28,28,37,48,10,6,0.7,0.6
2026-01-10T1000,3268A,121.316,31.2839,上海市,嘉定南翔,细颗粒物(PM2.5),79,69,83,58,61,23,,9,9,74,73,7,6,0.6,0.7
2026-01-10T1000,3269A,121.3357,30.7455,上海市,金山新城,细颗粒物(PM2.5),82,62,72,60,67,45,,27,27,49,46,13,19,0.5,0.6
2026-01-10T1000,3270A,121.4996,31.0741,上海市,闵行浦江,细颗粒物(PM2.5),74,68,87,54,64,32,,16,15,64,59,9,9,0.6,0.6
2026-01-10T1000,3271A,121.2886,31.1663,上海市,青浦徐泾,细颗粒物(PM2.5),63,62,84,45,61,37,,12,12,55,69,7,7,0.7,0.8
2026-01-10T1000,3272A,121.2193,31.0382,上海市,松江图书馆,细颗粒物(PM2.5),69,70,91,50,62,44,,17,17,58,62,9,8,0.6,0.6
2026-01-10T1000,3273A,121.3904,31.206,上海市,长宁仙霞,细颗粒物(PM2.5),63,65,81,45,60,28,,9,9,75,69,10,9,0.6,0.6
2026-01-10T1000,3274A,121.7964,31.0507,上海市,浦东惠南,细颗粒物(PM2.5),74,69,90,54,67,29,,25,21,61,58,7,6,0.7,0.8
2026-01-10T1000,3544A,121.4891,30.925,上海市,奉贤南桥新城,细颗粒物(PM2.5),73,69,86,53,63,50,,43,43,51,48,10,10,0.7,0.7
2026-01-10T1000,4183A,121.417401,31.16637,上海市,冠生园路458号,细颗粒物(PM2.5),64,58,80,46,65,34,,23,23,70,61,7,7,0.6,0.6
