timepoint,stationcode,longitude,latitude,area,positionname,primarypollutant,aqi,pm10,pm10_24h,pm2_5,pm2_5_24h,o3,o3_24h,o3_8h,o3_8h_24h,no2,no2_24h,so2,so2_24h,co,co_24h
2024-01-16T1300,2566A,102.1879,31.914,阿坝藏族羌族自治州,州农科所,,19,13,11,13,11,17,,9,9,16,25,5,7,0.2,0.4
2024-01-16T1300,2568A,102.2502,31.8896,阿坝藏族羌族自治州,马师校,,17,9,15,6,11,52,,30,30,10,23,3,2,0.5,0.6
2024-01-16T1300,3994A,102.2165,31.9024,阿坝藏族羌族自治州,马尔康中学西区,,18,6,14,5,8,55,,36,36,8,17,5,5,0.4,0.5
2024-01-16T1300,2695A,80.292,41.1694,阿克苏地区,电视台,颗粒物(PM10),102,154,213,55,88,28,,24,24,56,63,12,12,1.5,2.1
2024-01-16T1300,2696A,80.2613,41.1551,阿克苏地区,艺术中心,颗粒物(PM10),118,185,203,84,81,31,,32,32,48,58,9,9,1.4,1.7
2024-01-16T1300,2204A,105.6467,38.8363,阿拉善盟,西城区西花园,颗粒物(PM10),77,103,76,44,31,76,,54,53,18,24,13,12,0.6,0.5
2024-01-16T1300,2205A,105.6985,38.8411,阿拉善盟,蒙二幼,颗粒物(PM10),90,130,90,40,33,77,,61,61,18,25,12,12,0.8,0.8
2024-01-16T1300,2206A,105.724,38.8516,阿拉善盟,环保局新楼,,,,102,,36,79,,68,68,14,19,7,8,0.6,0.8
2024-01-16T1300,2708A,88.1264,47.8517,阿勒泰地区,市站,,28,24,21,19,14,22,,36,21,45,39,6,5,0.7,0.5
2024-01-16T1300,2630A,80.1161,32.5,阿里地区,阿里监测站,,22,14,12,5,6,69,,54,50,9,12,22,12,0.5,0.5
2024-01-16T1300,3192A,80.0903,32.5028,阿里地区,阿里藏医院,,23,16,13,12,6,73,,72,57,11,8,12,7,0.6,0.5
2024-01-16T1300,2642A,109.0318,32.6537,安康市,香溪洞,细颗粒物(PM2.5),53,44,34,37,32,46,,50,48,14,11,5,7,0.6,0.6
2024-01-16T1300,2643A,109.0281,32.6939,安康市,安康市监测站,细颗粒物(PM2.5),77,63,56,56,40,46,,48,48,21,19,69,21,0.6,0.7
2024-01-16T1300,2644A,109.0072,32.6975,安康市,汉滨区检察院,细颗粒物(PM2.5),65,59,54,47,43,61,,58,58,12,15,8,16,0.6,0.6
2024-01-16T1300,2291A,117.0809,30.5177,安庆市,环科院,细颗粒物(PM2.5),73,80,70,53,40,55,,34,34,26,26,9,10,0.8,0.7
2024-01-16T1300,2292A,117.0331,30.5119,安庆市,马山宾馆,颗粒物(PM10),65,80,66,42,36,56,,39,38,28,26,7,7,0.5,0.4
2024-01-16T1300,2294A,116.9896,30.6145,安庆市,安庆大学,细颗粒物(PM2.5),64,71,60,46,34,52,,36,34,24,24,8,8,0.8,0.7
2024-01-16T1300,3173A,117.0598,30.5351,安庆市,市人大,细颗粒物(PM2.5),69,78,69,50,38,53,,34,34,32,32,6,6,0.7,0.7
2024-01-16T1300,3122A,105.9606,26.2611,安顺市,伍家关,,,,,,,,,,,,,,,,
2024-01-16T1300,3123A,105.9408,26.2431,安顺市,凤凰山,,23,16,17,14,14,72,,70,70,5,6,9,9,0.5,0.6
2024-01-16T1300,3124A,105.9439,26.2564,安顺市,金钟山,,23,18,19,11,14,72,,70,70,6,6,12,12,0.6,0.6
2024-01-16T1300,3125A,105.8983,26.2481,安顺市,娄家坡,,23,22,25,16,16,69,,67,66,5,5,9,9,0.5,0.5
2024-01-16T1300,1818A,114.4839,36.0621,安阳市,棉研所,,,,,,,,,,,,,,,,
2024-01-16T1300,1819A,114.3551,36.1017,安阳市,红庙街,,42,30,36,29,26,51,,64,59,25,17,8,9,0.6,0.6
2024-01-16T1300,1820A,114.361,36.0681,安阳市,银杏小区,,36,,31,25,28,48,,61,56,24,17,3,4,0.4,0.4
2024-01-16T1300,3141A,114.3922,36.0878,安阳市,信访局,,42,,34,29,31,53,,62,57,25,18,3,3,0.2,0.3
2024-01-16T1300,3669A,114.4705,36.0637,安阳市,左辅环卫站,,43,,40,30,30,64,,56,56,9,16,4,4,0.3,0.4
2024-01-16T1300,3703A,114.2917,36.0949,安阳市,安钢职工学校,,45,38,37,31,31,65,,66,64,16,19,6,6,0.6,0.5
2024-01-16T1300,1748A,123.044,41.1196,鞍山市,深沟寺,颗粒物(PM10),67,84,60,42,28,59,,50,50,26,40,16,16,1.0,1.2
2024-01-16T1300,1749A,123.011,41.0931,鞍山市,太阳城,颗粒物(PM10),53,56,47,32,20,60,,54,54,29,31,22,17,1.2,1.2
2024-01-16T1300,1750A,123.0485,41.1442,鞍山市,太平,颗粒物(PM10),63,76,75,35,37,60,,49,49,28,48,18,21,1.0,1.5
2024-01-16T1300,1751A,122.9642,41.0971,鞍山市,铁西三道街,颗粒物(PM10),73,95,93,37,36,55,,27,27,29,53,15,17,1.1,1.6
2024-01-16T1300,1752A,122.9341,41.0833,鞍山市,铁西工业园区,颗粒物(PM10),58,66,82,29,39,52,,29,29,32,57,20,22,1.1,1.9
2024-01-16T1300,1753A,123.022,41.0821,鞍山市,明达新区,,50,50,47,30,22,56,,44,44,28,33,18,16,1.3,1.4
2024-01-16T1300,1754A,123.1289,41.0228,鞍山市,千山,,,,,,,,,,,,,,,,
2024-01-16T1300,2195A,107.4212,40.761,巴彦淖尔市,附二中,,,138,106,65,48,18,,8,8,46,48,18,17,,0.8
2024-01-16T1300,2196A,107.37,40.7372,巴彦淖尔市,市环保大楼,颗粒物(PM10),82,114,99,49,46,25,,10,10,31,43,11,11,1.0,0.9
2024-01-16T1300,1956A,86.1472,41.7538,巴音郭楞蒙古自治州,孔雀公园,细颗粒物(PM2.5),98,126,115,73,59,52,,64,56,39,37,11,7,1.0,0.9
2024-01-16T1300,1957A,86.1972,41.7166,巴音郭楞蒙古自治州,棉纺厂,颗粒物(PM10),90,130,134,62,59,66,,43,43,34,54,6,5,0.9,0.9
2024-01-16T1300,1958A,86.2357,41.7173,巴音郭楞蒙古自治州,经济开发区,细颗粒物(PM2.5),102,99,110,76,54,72,,74,71,28,35,7,6,0.8,0.7
2024-01-16T1300,2914A,106.7677,31.8794,巴中市,苏山坪,,11,9,29,3,14,35,,39,37,10,8,3,3,0.7,0.7
2024-01-16T1300,3182A,106.7656,31.8545,巴中市,丽阳花园,,19,17,31,13,25,23,,26,25,28,26,4,4,0.8,0.9
2024-01-16T1300,3183A,106.7418,31.8654,巴中市,圣泉水务公司,,23,18,24,16,20,18,,30,20,31,28,5,4,1.0,0.9
2024-01-16T1300,3616A,106.7616,31.8344,巴中市,市中心医院,,13,11,28,9,25,27,,30,28,20,22,3,3,0.8,0.8
2024-01-16T1300,2235A,122.7911,45.6077,白城市,洮北区环保局,细颗粒物(PM2.5),68,64,51,49,36,64,,55,55,16,16,21,10,0.8,0.7
2024-01-16T1300,2236A,122.8738,45.5725,白城市,市环保局,细颗粒物(PM2.5),69,65,51,50,31,65,,45,45,16,30,15,7,0.9,0.8
2024-01-16T1300,2231A,126.4219,41.9171,白山市,喜丰,颗粒物(PM10),55,60,74,27,34,51,,32,32,32,35,20,22,0.8,1
2024-01-16T1300,2232A,126.4077,41.9419,白山市,环保局,颗粒物(PM10),70,90,90,43,35,51,,27,27,36,43,44,23,1.0,1.1
2024-01-16T1300,2647A,104.1724,36.5446,白银市,第三小学,颗粒物(PM10),77,103,107,52,41,47,,33,22,39,32,40,60,1.4,1.3
2024-01-16T1300,2648A,104.1465,36.5482,白银市,动力公司,细颗粒物(PM2.5),83,100,101,61,50,57,,40,30,31,30,37,59,1.4,1
2024-01-16T1300,2512A,106.6103,23.9011,百色市,市监测站,颗粒物(PM10),53,56,61,24,34,77,,35,35,20,26,14,18,0.8,0.9
2024-01-16T1300,2513A,106.6538,23.8859,百色市,市中心血站,,42,42,53,19,29,82,,47,47,19,25,13,21,0.5,0.6
2024-01-16T1300,3406A,106.6085,23.8798,百色市,祈福高中,颗粒物(PM10),52,53,61,29,43,75,,32,32,20,27,18,19,0.9,0.9
2024-01-16T1300,2270A,117.396,32.939,蚌埠市,工人疗养院,,26,26,44,12,21,58,,58,58,15,21,6,6,0.5,0.4
2024-01-16T1300,2271A,117.3605,32.9427,蚌埠市,百货大楼,,29,29,44,19,23,54,,53,53,18,25,3,3,0.4,0.4
2024-01-16T1300,2273A,117.4185,32.8911,蚌埠市,蚌埠学院,,31,31,48,18,26,38,,44,41,35,35,7,10,0.5,0.4
2024-01-16T1300,2274A,117.3533,32.9673,蚌埠市,淮上区政府,,29,29,43,11,23,56,,56,56,16,18,5,5,0.5,0.4
2024-01-16T1300,2275A,117.3145,32.8977,蚌埠市,高新区,,27,27,44,15,25,44,,48,46,32,32,7,7,0.5,0.4
2024-01-16T1300,3715A,117.3092,32.9314,蚌埠市,蚌埠田家炳中学,,32,32,52,13,25,53,,52,52,20,30,6,6,0.5,0.5
2024-01-16T1300,1585A,109.8756,40.6532,包头市,市环境监测站,颗粒物(PM10),86,121,101,59,57,32,,11,11,43,60,21,23,1.0,1.4
2024-01-16T1300,1587A,109.9991,40.5842,包头市,包头八中,细颗粒物(PM2.5),100,104,104,75,63,31,,11,11,43,56,21,35,1.0,1.4
2024-01-16T1300,1588A,109.8538,40.6821,包头市,青山宾馆,细颗粒物(PM2.5),92,108,98,68,65,32,,13,13,47,62,22,20,1.3,1.6
2024-01-16T1300,1589A,109.8642,40.6288,包头市,惠龙物流,细颗粒物(PM2.5),75,97,91,55,53,33,,10,10,39,56,22,26,1.0,1.4
2024-01-16T1300,1590A,110.0377,40.5546,包头市,东河鸿龙湾,颗粒物(PM10),68,85,87,44,50,27,,16,16,45,50,15,14,1.1,1.3
2024-01-16T1300,3283A,109.9154,40.5685,包头市,滨河大厦,细颗粒物(PM2.5),78,87,81,57,49,36,,16,16,42,53,22,21,1.2,1.2
2024-01-16T1300,3419A,109.9447,40.6261,包头市,包头市委党校,细颗粒物(PM2.5),75,96,99,55,49,33,,14,14,46,62,21,30,1.0,1.6
2024-01-16T1300,3683A,109.8331,40.6576,包头市,昆区政府,细颗粒物(PM2.5),114,100,87,86,60,29,,11,11,51,65,23,25,1.1,1.6
2024-01-16T1300,1930A,107.185,34.3063,宝鸡市,庙沟村,细颗粒物(PM2.5),110,,118,83,112,4,,5,5,19,22,4,4,0.8,0.9
2024-01-16T1300,1931A,107.0708,34.3017,宝鸡市,竹园沟,细颗粒物(PM2.5),98,,131,73,113,11,,14,12,34,38,3,3,1.3,1.3
2024-01-16T1300,1932A,107.1906,34.3672,宝鸡市,三陆医院,细颗粒物(PM2.5),119,106,117,90,109,11,,16,14,36,36,5,7,1.1,1.3
2024-01-16T1300,1933A,107.1431,34.3547,宝鸡市,监测站,细颗粒物(PM2.5),120,,122,91,110,9,,19,12,37,36,3,3,1.2,1.2
2024-01-16T1300,1934A,107.1186,34.3739,宝鸡市,技工学校,颗粒物(PM10),135,219,114,86,112,,,16,14,36,37,6,6,,1.2
2024-01-16T1300,1935A,107.3906,34.3528,宝鸡市,陈仓区环保局家属楼,细颗粒物(PM2.5),119,107,107,90,99,14,,19,18,38,42,6,6,1.1,1.3
2024-01-16T1300,1936A,107.2058,34.3497,宝鸡市,文理学院,细颗粒物(PM2.5),112,89,113,84,102,10,,17,12,41,42,7,7,1.2,1.3
2024-01-16T1300,1937A,107.2386,34.3622,宝鸡市,三迪小学,细颗粒物(PM2.5),115,96,107,87,101,11,,16,15,36,37,6,6,1.3,1.4
2024-01-16T1300,1051A,115.493,38.8632,保定市,游泳馆,细颗粒物(PM2.5),110,114,85,83,55,17,,11,11,42,44,5,4,0.9,0.8
2024-01-16T1300,1052A,115.5213,38.8959,保定市,华电二区,细颗粒物(PM2.5),68,70,73,49,49,26,,18,18,55,51,7,7,0.8,0.7
2024-01-16T1300,1053A,115.4713,38.9108,保定市,接待中心,细颗粒物(PM2.5),98,84,80,73,53,19,,7,7,49,44,6,5,0.6,0.5
2024-01-16T1300,1054A,115.4612,38.8416,保定市,地表水厂,细颗粒物(PM2.5),109,137,79,82,50,13,,8,8,56,55,5,6,0.8,0.7
2024-01-16T1300,1056A,115.5086,38.8639,保定市,监测站,细颗粒物(PM2.5),84,111,82,62,54,10,,7,7,59,54,8,7,0.8,0.6
2024-01-16T1300,3581A,115.31981,38.95208,保定市,满城区生态环境分局,颗粒物(PM10),86,122,120,59,51,27,,9,9,47,51,7,6,0.8,1
2024-01-16T1300,3582A,115.47694,38.76408,保定市,清苑区第二中学,细颗粒物(PM2.5),98,95,75,73,49,16,,8,8,48,53,6,8,0.8,0.7
2024-01-16T1300,3583A,115.62909,39.02311,保定市,徐水物探局,细颗粒物(PM2.5),83,102,94,61,48,20,,7,7,45,45,9,6,1.0,1
2024-01-16T1300,4004A,115.4202,38.8656,保定市,双鹰农机,颗粒物(PM10),82,114,79,55,44,27,,15,15,49,47,6,6,1.0,0.9
2024-01-16T1300,2594A,99.1678,25.1081,保山市,市环境监测站,,46,46,20,28,16,68,,39,32,19,13,7,6,0.8,0.7
2024-01-16T1300,2595A,99.1711,25.1328,保山市,市环保局,,,,24,,20,,,59,,,8,,6,,0.5
2024-01-16T1300,1866A,109.2262,21.588,北海市,牛尾岭水库,,,,,,,,,,,,,,,,
2024-01-16T1300,1867A,109.1436,21.4086,北海市,海滩公园,,45,45,42,27,25,120,,96,93,10,12,10,10,0.4,0.4
2024-01-16T1300,1868A,109.0981,21.4661,北海市,新市环保局,,49,44,37,34,25,115,,104,96,11,14,8,8,0.4,0.4
2024-01-16T1300,1869A,109.1778,21.5233,北海市,北海工业园,颗粒物(PM10),58,65,49,32,32,109,,71,69,8,15,7,9,0.4,0.3
2024-01-16T1300,3400A,109.1911,21.4415,北海市,龙潭自来水厂,,44,44,44,26,31,114,,78,68,6,10,10,9,0.4,0.4
2024-01-16T1300,1001A,116.3621,39.8784,北京市,万寿西宫,,,95,73,57,41,,,10,10,53,64,3,2,0.8,0.7
2024-01-16T1300,1002A,116.2202,40.2915,北京市,定陵,颗粒物(PM10),55,60,40,34,22,25,,13,13,32,31,3,3,0.5,0.4
2024-01-16T1300,1003A,116.4174,39.9289,北京市,东四,细颗粒物(PM2.5),83,110,75,61,37,22,,11,11,49,52,6,3,1.0,0.9
2024-01-16T1300,1004A,116.4072,39.8863,北京市,天坛,细颗粒物(PM2.5),77,95,65,56,41,22,,11,11,61,55,3,3,0.8,0.7
2024-01-16T1300,1005A,116.462,39.9365,北京市,农展馆,细颗粒物(PM2.5),89,119,76,66,40,21,,10,10,61,61,7,3,0.7,0.6
2024-01-16T1300,1006A,116.3392,39.9295,北京市,官园,细颗粒物(PM2.5),74,93,68,54,36,36,,19,19,41,53,5,2,0.7,0.6
2024-01-16T1300,1007A,116.2878,39.9611,北京市,海淀万柳,颗粒物(PM10),74,97,67,51,29,32,,14,14,46,62,2,3,0.7,0.7
2024-01-16T1300,1008A,116.6636,40.135,北京市,顺义新城,细颗粒物(PM2.5),67,82,55,48,28,35,,20,20,32,47,3,3,0.6,0.5
2024-01-16T1300,1009A,116.6275,40.3275,北京市,怀柔镇,颗粒物(PM10),65,80,38,44,21,39,,18,18,30,28,6,3,0.4,0.3
2024-01-16T1300,1010A,116.2296,40.217,北京市,昌平镇,颗粒物(PM10),70,89,52,43,24,28,,15,15,42,42,3,2,0.5,0.4
2024-01-16T1300,1011A,116.3966,39.9821,北京市,奥体中心,细颗粒物(PM2.5),70,83,58,51,31,28,,19,19,42,46,5,2,1.0,0.9
2024-01-16T1300,1012A,116.184,39.9136,北京市,古城,颗粒物(PM10),75,99,68,45,28,17,,9,9,54,53,4,2,0.9,0.6
2024-01-16T1300,3281A,115.9718,40.4529,北京市,延庆夏都,细颗粒物(PM2.5),65,67,56,47,32,22,,9,9,35,36,3,3,0.6,0.8
2024-01-16T1300,3417A,117.0709,40.1465,北京市,平谷新城,细颗粒物(PM2.5),87,95,58,64,33,15,,11,11,49,30,3,3,0.9,0.8
2024-01-16T1300,3418A,116.8336,40.4095,北京市,密云新城,颗粒物(PM10),58,65,36,39,18,38,,29,29,26,22,3,2,0.5,0.3
2024-01-16T1300,3671A,116.088,39.9726,北京市,门头沟三家店,,,,,,,,,,,,,,,,
2024-01-16T1300,3672A,116.1541,39.8204,北京市,丰台云岗,颗粒物(PM10),74,97,63,52,29,25,,10,10,52,52,5,2,0.7,0.5
2024-01-16T1300,3673A,116.6804,39.9081,北京市,通州东关,细颗粒物(PM2.5),93,119,86,69,47,14,,5,5,69,67,5,2,0.9,0.8
2024-01-16T1300,3674A,115.9577,39.7603,北京市,房山燕山,细颗粒物(PM2.5),73,86,53,53,33,25,,16,16,49,38,2,2,0.7,0.5
2024-01-16T1300,3675A,116.4672,39.7733,北京市,大兴旧宫,细颗粒物(PM2.5),89,111,83,66,50,8,,4,4,78,66,2,2,0.9,0.8
2024-01-16T1300,3694A,115.986,40.4563,北京市,延庆石河营,"颗粒物(PM10),细颗粒物(PM2.5)",60,70,62,43,31,22,,8,8,38,34,3,3,0.8,1
2024-01-16T1300,3695A,116.6151,40.3053,北京市,怀柔新城,颗粒物(PM10),63,76,39,44,21,36,,19,19,29,24,6,2,0.5,0.3
2024-01-16T1300,3696A,116.2545,39.8768,北京市,丰台小屯,颗粒物(PM10),73,96,80,48,34,26,,11,11,49,63,3,2,0.8,0.7
2024-01-16T1300,3697A,116.84,40.3844,北京市,密云镇,颗粒物(PM10),61,72,43,40,22,31,,13,13,27,42,3,3,0.5,0.4
2024-01-16T1300,1761A,123.8275,41.3064,本溪市,大峪,颗粒物(PM10),59,68,74,33,37,47,,24,24,37,52,11,11,1.3,2.1
2024-01-16T1300,1762A,123.7567,41.3325,本溪市,溪湖,,,93,95,50,50,30,,16,16,,52,,15,4.4,1.9
2024-01-16T1300,1763A,123.7169,41.3094,本溪市,彩屯,细颗粒物(PM2.5),93,108,88,69,58,44,,21,21,73,60,65,20,5.2,2.5
2024-01-16T1300,1764A,123.7669,41.2864,本溪市,东明,颗粒物(PM10),64,78,77,36,45,44,,22,22,42,60,17,16,1.4,1.9
2024-01-16T1300,1765A,123.7992,41.2664,本溪市,新立屯,颗粒物(PM10),63,75,52,28,29,55,,22,22,33,52,11,14,0.8,1.5
2024-01-16T1300,1766A,123.8142,41.3472,本溪市,威宁,颗粒物(PM10),69,87,97,38,51,45,,20,20,31,52,10,7,0.9,1.5
2024-01-16T1300,2587A,105.2864,27.3125,毕节市,八中,,25,19,46,13,36,78,,31,31,9,15,9,8,0.5,0.8
2024-01-16T1300,2588A,105.31,27.2944,毕节市,师专,,26,19,41,11,29,82,,35,35,8,16,8,8,0.5,0.7
2024-01-16T1300,3537A,105.3631,27.3533,毕节市,长征村,,27,16,38,14,34,86,,34,34,7,12,8,8,0.4,0.6
2024-01-16T1300,1629A,118.0018,37.3617,滨州市,第二水厂,细颗粒物(PM2.5),122,183,94,92,52,12,,8,8,90,65,28,22,1.7,1.2
2024-01-16T1300,1630A,117.9776,37.393,滨州市,北中新校,颗粒物(PM10),91,132,103,57,48,15,,5,5,80,69,33,18,1.2,1.3
2024-01-16T1300,3514A,117.9378,37.3956,滨州市,中海酒店,细颗粒物(PM2.5),98,114,86,73,50,23,,13,13,90,82,41,23,1.3,1.3
2024-01-16T1300,3515A,117.9378,37.3553,滨州市,开发区一中,细颗粒物(PM2.5),113,173,89,85,52,14,,10,10,94,63,48,23,1.4,1.2
2024-01-16T1300,3516A,118.0917,37.694,滨州市,金海六路,细颗粒物(PM2.5),90,128,97,67,54,23,,14,14,71,61,27,26,1.4,1.3
2024-01-16T1300,4028A,117.9956,37.3753,滨州市,滨州市西街道办事处,颗粒物(PM10),95,139,101,66,54,16,,6,6,72,60,34,23,1.5,1.5
2024-01-16T1300,2311A,115.8072,33.8399,亳州市,污水处理厂,,31,31,62,17,36,57,,38,38,11,21,7,7,0.5,0.6
2024-01-16T1300,2312A,115.7789,33.8518,亳州市,三国揽胜宫,,43,43,70,15,34,52,,34,34,15,24,6,7,0.5,0.6
2024-01-16T1300,3332A,115.7633,33.8034,亳州市,亳州学院,,35,35,60,24,36,53,,40,37,14,20,4,6,0.7,0.8
2024-01-16T1300,2693A,82.0485,44.8556,博尔塔拉蒙古自治州,市党校,颗粒物(PM10),52,54,51,31,33,36,,28,28,18,24,10,12,0.5,0.7
2024-01-16T1300,2694A,82.0806,44.8969,博尔塔拉蒙古自治州,市环保局,,40,40,47,22,26,36,,33,33,32,28,9,11,0.3,0.5
2024-01-16T1300,1071A,116.8842,38.2991,沧州市,沧县城建局,细颗粒物(PM2.5),59,54,72,42,44,47,,20,20,29,51,7,12,0.6,0.7
2024-01-16T1300,1072A,116.8584,38.3254,沧州市,电视转播站,"颗粒物(PM10),细颗粒物(PM2.5)",55,60,70,39,42,53,,22,22,24,48,9,14,1.0,1
2024-01-16T1300,1073A,116.8709,38.3228,沧州市,市环保局,细颗粒物(PM2.5),63,67,72,45,42,50,,23,23,27,48,7,11,0.5,0.6
2024-01-16T1300,3324A,116.8136,38.3004,沧州市,河北水利电力学院,颗粒物(PM10),54,58,74,36,48,45,,18,18,22,44,10,15,0.6,0.7
2024-01-16T1300,2622A,97.1806,31.1273,昌都市,昌都监测站,,22,22,36,5,18,68,,36,36,7,35,6,7,0.3,0.9
2024-01-16T1300,3719A,97.1714,31.1406,昌都市,昌都会议中心,,24,6,10,4,8,75,,63,63,8,9,4,4,0.3,0.4
2024-01-16T1300,2690A,88.1236,43.8886,昌吉回族自治州,天山天池,,24,,19,13,12,76,,74,74,6,7,6,6,0.6,0.6
2024-01-16T1300,2692A,87.2717,44.0297,昌吉回族自治州,新区政务中心,细颗粒物(PM2.5),72,65,80,52,60,45,,25,25,22,46,6,5,0.9,1.1
2024-01-16T1300,3613A,87.3095,44.0142,昌吉回族自治州,亚心广场,,,51,76,44,52,44,,31,31,28,47,,6,0.8,1.1
2024-01-16T1300,1119A,125.3325,43.9166,长春市,食品厂,颗粒物(PM10),58,65,69,33,43,51,,32,32,34,49,15,18,0.7,0.8
2024-01-16T1300,1120A,125.2863,43.9027,长春市,客车厂,颗粒物(PM10),59,67,56,36,40,49,,30,30,36,51,18,25,0.8,0.8
2024-01-16T1300,1121A,125.2841,43.8463,长春市,邮电学院,颗粒物(PM10),64,78,63,39,42,61,,41,41,22,39,17,13,0.8,0.8
2024-01-16T1300,1122A,125.3716,43.8772,长春市,劳动公园,颗粒物(PM10),87,124,55,38,32,68,,39,39,23,38,6,11,0.6,0.6
2024-01-16T1300,1123A,125.3297,43.8805,长春市,园林处,颗粒物(PM10),56,61,45,33,31,63,,43,43,20,33,13,15,0.6,0.6
2024-01-16T1300,1124A,125.4605,43.79,长春市,净月潭,,36,34,35,25,24,78,,59,59,5,11,9,7,0.6,0.5
2024-01-16T1300,1125A,125.7194,43.515,长春市,甩湾子,,,,,,,,,,,,,,,,
2024-01-16T1300,1126A,125.3863,43.8447,长春市,经开区环卫处,颗粒物(PM10),62,73,55,30,33,65,,41,41,19,35,10,12,0.6,0.7
2024-01-16T1300,1127A,125.245,43.7783,长春市,高新区管委会,,42,42,64,22,47,67,,42,42,16,39,13,10,0.5,0.9
2024-01-16T1300,1128A,125.1761,43.8325,长春市,岱山公园,颗粒物(PM10),51,51,54,23,40,64,,41,41,18,42,13,7,0.5,0.7
2024-01-16T1300,1335A,113.0833,28.2325,长沙市,经开区环保局,细颗粒物(PM2.5),110,124,155,83,108,18,,15,14,26,30,6,6,0.7,0.8
2024-01-16T1300,1336A,112.8872,28.2189,长沙市,高开区环保局,细颗粒物(PM2.5),110,112,150,83,105,16,,18,16,23,26,2,3,0.7,0.9
2024-01-16T1300,1337A,113.0792,28.2053,长沙市,马坡岭,细颗粒物(PM2.5),125,121,152,95,114,18,,14,13,25,27,,6,0.6,0.7
2024-01-16T1300,1338A,112.9394,28.19,长沙市,湖南师范大学,细颗粒物(PM2.5),110,115,155,83,114,18,,17,17,22,25,5,5,0.8,1
2024-01-16T1300,1339A,113.0178,28.1322,长沙市,雨花区环保局,细颗粒物(PM2.5),133,132,157,101,119,16,,10,10,29,32,2,3,0.9,1.1
2024-01-16T1300,1340A,112.9792,28.2597,长沙市,伍家岭,细颗粒物(PM2.5),92,110,160,68,100,16,,14,13,24,29,4,5,0.7,0.9
2024-01-16T1300,1341A,113.0014,28.1944,长沙市,火车新站,细颗粒物(PM2.5),119,123,151,90,113,18,,19,18,27,26,2,3,0.9,1.1
2024-01-16T1300,1342A,112.9844,28.1178,长沙市,天心区环保局,细颗粒物(PM2.5),115,119,153,87,99,15,,10,10,31,34,3,4,0.5,0.6
2024-01-16T1300,1343A,112.8908,28.1308,长沙市,湖南中医药大学,细颗粒物(PM2.5),115,114,152,87,108,17,,15,13,20,24,3,3,0.9,1
2024-01-16T1300,1344A,112.9581,28.3611,长沙市,沙坪,细颗粒物(PM2.5),97,85,129,72,99,16,,17,17,14,16,3,4,0.7,0.9
2024-01-16T1300,1727A,113.1147,36.1547,长治市,清华站,细颗粒物(PM2.5),55,40,73,39,60,53,,42,42,22,31,8,12,0.8,1
2024-01-16T1300,1728A,113.1031,36.1989,长治市,监测站,细颗粒物(PM2.5),55,44,67,39,64,53,,41,41,24,34,9,11,0.8,1.1
2024-01-16T1300,1730A,113.0886,36.2125,长治市,审计局,细颗粒物(PM2.5),55,39,67,39,62,56,,45,45,17,26,9,12,0.8,0.9
2024-01-16T1300,1731A,113.0844,36.1856,长治市,长治八中,,40,40,75,23,57,58,,46,46,13,25,3,3,0.7,0.8
2024-01-16T1300,2845A,113.1569,36.1911,长治市,德盛苑,细颗粒物(PM2.5),89,,82,66,71,40,,32,31,22,29,10,12,0.9,1.1
2024-01-16T1300,3568A,113.06,36.0464,长治市,向阳小学,,46,46,80,31,68,58,,51,51,17,26,6,12,1.0,0.9
2024-01-16T1300,3569A,112.8792,36.3144,长治市,屯留一中,细颗粒物(PM2.5),55,41,75,39,72,66,,63,63,6,22,8,8,0.8,1.1
2024-01-16T1300,3570A,113.235,36.3489,长治市,潞城四中,细颗粒物(PM2.5),84,71,98,62,86,47,,35,35,19,29,8,7,0.8,1.5
2024-01-16T1300,1854A,111.6975,28.9703,常德市,市二中,细颗粒物(PM2.5),80,66,110,59,88,33,,36,34,21,23,5,6,0.7,0.9
2024-01-16T1300,1857A,111.7158,29.1456,常德市,白鹤山,细颗粒物(PM2.5),65,52,116,47,78,9,,12,10,8,11,3,4,0.7,0.8
2024-01-16T1300,3138A,111.7153,29.0289,常德市,武陵区永安,细颗粒物(PM2.5),73,69,112,53,83,30,,33,30,26,29,6,7,0.7,0.8
2024-01-16T1300,3139A,111.6892,28.9881,常德市,鼎城区玉霞,细颗粒物(PM2.5),78,64,109,57,89,32,,36,34,19,24,8,9,0.9,1
2024-01-16T1300,3140A,111.6625,29.0531,常德市,武陵区长庚,细颗粒物(PM2.5),75,61,109,55,82,29,,33,32,22,24,4,5,0.8,0.9
2024-01-16T1300,1196A,119.9633,31.762,常州市,市监测站,,36,36,41,18,25,53,,38,38,31,37,9,9,0.6,0.6
2024-01-16T1300,1200A,119.9468,31.7069,常州市,武进监测站,,34,34,41,10,20,58,,43,43,25,36,3,5,0.4,0.6
2024-01-16T1300,1201A,119.9255,31.9087,常州市,安家,,,,,,,,,,,,,,,,
2024-01-16T1300,3002A,119.9805,31.8174,常州市,行政中心,,29,29,35,11,19,56,,40,40,30,39,6,7,0.3,0.4
2024-01-16T1300,3003A,120.0522,31.7748,常州市,经开区,,31,31,41,13,21,55,,38,38,25,38,8,9,0.6,0.7
2024-01-16T1300,3010A,119.9025,31.7964,常州市,钟楼,,33,33,33,17,21,52,,47,43,32,34,8,8,0.8,0.8
2024-01-16T1300,3429A,119.8598,31.7066,常州市,武进经发区,,33,33,39,11,17,65,,49,49,30,45,7,8,0.7,0.8
2024-01-16T1300,3430A,119.5826,31.7245,常州市,金坛城区,,,26,41,6,19,,,44,43,14,33,7,8,0.5,0.7
2024-01-16T1300,2220A,120.4318,41.5881,朝阳市,西梁,颗粒物(PM10),70,90,95,49,48,48,,20,20,24,38,32,24,1.5,1.6
2024-01-16T1300,2221A,120.4521,41.5646,朝阳市,河畔小区,颗粒物(PM10),73,95,85,48,55,52,,,,25,34,27,15,1.3,1.6
2024-01-16T1300,2222A,120.4176,41.5648,朝阳市,八里堡,颗粒物(PM10),63,75,104,44,51,50,,20,20,23,40,27,22,1.3,1.8
2024-01-16T1300,2223A,120.3806,41.5969,朝阳市,农业园区,颗粒物(PM10),85,120,92,50,51,43,,18,18,31,43,46,22,2.0,1.7
2024-01-16T1300,1705A,116.6367,23.6719,潮州市,西园路,,42,34,73,29,61,112,,90,90,14,17,6,5,0.5,0.5
2024-01-16T1300,1706A,116.6447,23.6706,潮州市,档案局,颗粒物(PM10),52,53,63,32,63,108,,82,80,14,18,7,6,0.5,0.6
2024-01-16T1300,3026A,116.6183,23.6608,潮州市,市政府,,46,46,62,29,54,108,,89,89,12,15,8,7,0.8,0.8
2024-01-16T1300,2472A,113.0073,25.9061,郴州市,马头岭,细颗粒物(PM2.5),129,189,205,98,124,46,,28,28,28,31,9,10,1.1,1.2
2024-01-16T1300,2473A,113.0116,25.8226,郴州市,市职中,细颗粒物(PM2.5),172,160,184,130,156,48,,25,25,22,23,14,10,1.1,1.2
2024-01-16T1300,2474A,113.0161,25.8001,郴州市,兴隆步行街,细颗粒物(PM2.5),190,196,219,143,172,50,,24,24,25,27,12,7,1.2,1.3
2024-01-16T1300,2475A,113.0383,25.8071,郴州市,市审计局,细颗粒物(PM2.5),170,173,191,129,158,45,,21,21,24,27,10,8,1.1,1.2
2024-01-16T1300,2476A,113.0348,25.7759,郴州市,市环保局,细颗粒物(PM2.5),190,172,194,143,179,48,,22,22,28,30,13,7,1.2,1.2
2024-01-16T1300,1431A,103.9728,30.7236,成都市,金泉两河,,40,40,66,7,39,42,,32,32,22,26,1,2,0.6,0.6
2024-01-16T1300,1432A,104.176,30.6872,成都市,十里店,,50,50,62,33,46,43,,24,24,26,35,2,2,0.8,0.7
2024-01-16T1300,1433A,104.079,30.5706,成都市,三瓦窑,颗粒物(PM10),52,54,81,24,46,40,,24,21,16,22,1,2,0.6,0.7
2024-01-16T1300,1434A,104.1114,30.63,成都市,沙河铺,,45,45,65,19,46,31,,26,25,34,34,4,4,0.8,0.8
2024-01-16T1300,1437A,104.0786,30.6531,成都市,君平街,颗粒物(PM10),55,59,74,27,49,35,,29,29,38,38,5,5,0.8,0.7
2024-01-16T1300,1438A,103.613,31.0283,成都市,灵岩寺,,,,53,46,48,44,,44,38,29,21,3,2,0.9,1.2
2024-01-16T1300,2880A,104.0239,30.65639,成都市,大石西路,颗粒物(PM10),52,54,66,25,45,40,,31,31,38,40,6,5,0.6,0.6
2024-01-16T1300,3136A,104.2725,30.5589,成都市,龙泉驿区区政府,细颗粒物(PM2.5),58,56,66,41,48,41,,28,23,29,27,2,2,0.9,0.8
2024-01-16T1300,3357A,104.0106,30.6931,成都市,金博路,,50,50,72,31,47,42,,31,31,33,40,1,2,0.9,0.8
2024-01-16T1300,3359A,104.0578,30.5225,成都市,华阳,颗粒物(PM10),54,58,69,34,50,22,,20,13,40,42,2,2,0.8,0.7
2024-01-16T1300,3487A,104.2394,30.5319,成都市,车城东七路,细颗粒物(PM2.5),74,66,72,54,55,45,,28,24,28,33,2,2,0.9,0.8
2024-01-16T1300,3488A,104.3853,30.7453,成都市,青白江技师分院,,21,16,72,9,48,66,,23,23,10,31,3,3,0.8,0.8
2024-01-16T1300,3489A,104.0789,30.4072,成都市,科学城,细颗粒物(PM2.5),54,53,76,38,58,28,,28,21,30,30,4,4,1.0,0.9
2024-01-16T1300,4011A,103.8506,30.6947,成都市,光华大道三段,,28,28,58,9,33,62,,38,38,14,29,1,2,0.8,0.8
2024-01-16T1300,1062A,117.9531,40.9081,承德市,铁路,颗粒物(PM10),72,94,73,46,37,22,,12,12,47,48,81,15,1.9,1.1
2024-01-16T1300,1063A,117.9392,40.9763,承德市,中国银行,颗粒物(PM10),60,69,70,24,33,30,,16,16,34,42,25,7,0.9,0.9
2024-01-16T1300,1064A,117.9503,40.928,承德市,开发区,颗粒物(PM10),59,67,66,36,36,28,,16,16,40,46,70,12,1.5,1.1
2024-01-16T1300,1065A,117.8051,40.9655,承德市,文化中心,颗粒物(PM10),114,177,117,63,45,19,,12,12,45,48,69,30,1.8,1.3
2024-01-16T1300,1066A,117.9268,41.0026,承德市,离宫,颗粒物(PM10),61,71,57,28,33,19,,9,9,30,38,10,2,0.8,0.6
2024-01-16T1300,2314A,117.47,30.6618,池州市,池州学院,细颗粒物(PM2.5),82,92,70,60,43,47,,30,30,31,25,15,7,0.6,0.5
2024-01-16T1300,3237A,117.4918,30.6617,池州市,展览馆,细颗粒物(PM2.5),74,87,68,54,42,50,,32,32,33,25,10,7,0.7,0.6
2024-01-16T1300,3333A,117.5627,30.695,池州市,第八中学,细颗粒物(PM2.5),85,89,66,63,42,48,,30,30,29,23,7,3,0.6,0.6
2024-01-16T1300,3334A,117.5038,30.6243,池州市,第十二中学,细颗粒物(PM2.5),74,88,65,54,43,48,,31,31,32,25,8,5,0.6,0.5
2024-01-16T1300,1744A,118.9233,42.2816,赤峰市,松山一中,颗粒物(PM10),69,88,86,43,44,18,,11,11,79,59,83,44,2.8,1.8
2024-01-16T1300,1745A,118.9576,42.2728,赤峰市,哈达街,颗粒物(PM10),91,131,95,62,52,21,,13,13,92,58,214,64,2.9,1.9
2024-01-16T1300,1746A,118.8788,42.2554,赤峰市,天义路,颗粒物(PM10),60,70,74,33,42,24,,17,17,64,51,17,32,1.4,1.6
2024-01-16T1300,3058A,119.2658,42.0353,赤峰市,银河街,,,,116,,77,43,,18,18,,42,29,32,,1.9
2024-01-16T1300,3286A,118.9359,42.3147,赤峰市,桥北物流园区,细颗粒物(PM2.5),97,,72,72,51,31,,15,15,57,50,104,51,1.9,1.6
2024-01-16T1300,2521A,107.3476,22.4136,崇左市,市环保局江州分局,颗粒物(PM10),56,62,45,17,20,99,,43,43,13,19,8,7,0.5,0.7
2024-01-16T1300,2522A,107.3702,22.3707,崇左市,城南新区,,42,42,40,14,20,100,,44,44,12,22,9,7,0.5,0.6
2024-01-16T1300,2298A,118.3093,32.3153,滁州市,老年大学,颗粒物(PM10),53,56,47,26,30,50,,39,39,33,30,8,6,0.7,0.6
2024-01-16T1300,2299A,118.3244,32.2786,滁州市,人大宾馆,,45,45,47,22,21,50,,41,41,38,38,8,6,0.6,0.4
2024-01-16T1300,3207A,118.3118,32.3038,滁州市,市政府原办公楼,,41,41,41,22,22,54,,42,42,37,35,7,5,0.5,0.4
2024-01-16T1300,3331A,118.3267,32.2634,滁州市,图书馆,,48,48,47,18,20,55,,42,42,31,31,7,7,0.7,0.5
2024-01-16T1300,2605A,101.5482,25.0441,楚雄彝族自治州,州环境监测站,,,36,31,24,24,54,,15,15,15,25,6,9,,0.7
2024-01-16T1300,2606A,101.538,25.0492,楚雄彝族自治州,市经济开发区,,40,40,37,28,25,49,,13,13,20,28,7,9,0.7,0.6
2024-01-16T1300,2548A,107.5277,31.2827,达州市,达州职业技术学院,,27,27,51,13,34,26,,31,26,18,24,8,11,0.6,0.7
2024-01-16T1300,2549A,107.5086,31.2186,达州市,市环境监测站,,28,25,44,19,32,18,,31,19,34,37,9,14,0.9,0.9
2024-01-16T1300,2550A,107.4988,31.2132,达州市,凤凰小区,,29,29,41,19,33,20,,30,20,37,38,8,14,1.0,1
2024-01-16T1300,2551A,107.5082,31.1986,达州市,达县机关宾馆,,24,24,37,3,32,18,,24,16,35,41,8,11,0.7,0.8
2024-01-16T1300,2552A,107.4644,31.2124,达州市,市政中心,,34,34,51,19,30,11,,30,18,43,34,6,13,0.8,0.9
2024-01-16T1300,2614A,100.1542,25.7054,大理白族自治州,大理市环境监测站,,,,24,,15,,,68,,,8,,6,,0.5
2024-01-16T1300,2615A,100.2171,25.5811,大理白族自治州,大理古城,,25,,16,13,12,80,,84,81,4,6,6,6,0.5,0.5
2024-01-16T1300,1109A,121.612,38.9741,大连市,甘井子,细颗粒物(PM2.5),80,80,70,59,44,49,,21,21,37,51,12,18,0.5,0.7
2024-01-16T1300,1110A,121.565,38.9511,大连市,周水子,细颗粒物(PM2.5),79,76,65,58,45,46,,20,20,30,45,20,20,0.7,0.9
2024-01-16T1300,1111A,121.5637,38.8845,大连市,星海三站,,,61,56,58,39,54,,20,20,,34,9,9,0.7,0.9
2024-01-16T1300,1112A,121.6302,38.9117,大连市,青泥洼桥,细颗粒物(PM2.5),62,55,60,44,38,56,,29,29,26,40,15,12,0.8,0.9
2024-01-16T1300,1113A,121.6251,38.8638,大连市,傅家庄,细颗粒物(PM2.5),69,73,64,50,34,57,,43,43,20,27,14,19,1.0,1
2024-01-16T1300,1114A,121.5213,38.8661,大连市,七贤岭,,49,49,56,34,34,58,,26,26,25,31,18,11,0.9,1.1
2024-01-16T1300,1115A,121.2529,38.8061,大连市,旅顺,,41,41,51,27,31,61,,38,38,24,28,13,12,0.9,1.1
2024-01-16T1300,1116A,121.7485,39.1311,大连市,金州,细颗粒物(PM2.5),85,81,72,63,47,36,,21,21,48,36,21,12,1.1,1.5
2024-01-16T1300,1117A,121.7811,39.0496,大连市,开发区,细颗粒物(PM2.5),87,98,81,64,51,35,,15,15,43,58,11,12,1.0,1.2
2024-01-16T1300,1118A,121.9762,39.0631,大连市,双D港,细颗粒物(PM2.5),64,61,59,46,38,58,,37,37,13,24,9,10,1.0,1.2
2024-01-16T1300,1789A,124.81117,46.03138,大庆市,大同区,,,91,61,59,45,53,,41,41,,25,19,12,0.9,0.8
2024-01-16T1300,1790A,125.129,46.533,大庆市,龙凤区,颗粒物(PM10),66,82,64,46,48,53,,46,46,28,31,12,8,0.8,0.7
2024-01-16T1300,1791A,124.902,46.408,大庆市,红岗区,细颗粒物(PM2.5),57,42,43,40,28,47,,44,44,20,26,13,10,1.0,0.8
2024-01-16T1300,1792A,125.153,46.586,大庆市,萨尔图区,细颗粒物(PM2.5),73,82,51,53,36,57,,51,51,32,38,15,10,0.7,0.7
2024-01-16T1300,1793A,124.9042,46.6215,大庆市,让胡路区,颗粒物(PM10),56,61,45,28,24,60,,51,51,17,35,9,7,0.6,0.6
2024-01-16T1300,3481A,125.141,46.634,大庆市,萨区政府监测点,细颗粒物(PM2.5),60,54,33,43,28,62,,54,54,18,26,16,13,0.5,0.4
2024-01-16T1300,1721A,113.3819,40.1097,大同市,果树场,,,,,,,,,,,,,,,,
2024-01-16T1300,1723A,113.2994,40.0758,大同市,云冈宾馆,细颗粒物(PM2.5),127,193,133,96,69,19,,10,10,76,61,57,37,3.4,2.1
2024-01-16T1300,1724A,113.3444,40.0917,大同市,大同大学,细颗粒物(PM2.5),110,142,108,83,63,28,,14,14,63,62,60,39,2.4,1.7
2024-01-16T1300,1725A,113.2661,40.1269,大同市,安家小村,颗粒物(PM10),115,180,153,86,73,31,,17,17,57,57,74,47,2.6,2.8
2024-01-16T1300,1726A,113.2711,40.0844,大同市,教育学院,颗粒物(PM10),118,185,161,83,75,23,,18,18,70,66,54,33,2.5,2.4
2024-01-16T1300,3282A,113.3397,40.0597,大同市,大同市卫生学校,细颗粒物(PM2.5),133,142,91,101,63,21,,12,12,76,62,59,42,2.8,1.8
2024-01-16T1300,3565A,113.1367,40.1122,大同市,云冈站,细颗粒物(PM2.5),89,124,134,66,64,28,,16,16,56,47,81,49,1.9,1.8
2024-01-16T1300,3566A,113.1186,40.2556,大同市,图书馆,细颗粒物(PM2.5),122,123,94,92,68,31,,16,16,46,36,139,29,1.8,1.9
2024-01-16T1300,3567A,113.5931,40.0461,大同市,区一中,细颗粒物(PM2.5),103,151,124,77,67,24,,17,17,59,45,61,43,1.7,1.4
2024-01-16T1300,3676A,113.2802,40.0995,大同市,第二人民医院,细颗粒物(PM2.5),124,195,161,94,79,24,,15,15,74,66,59,34,2.8,2.2
2024-01-16T1300,2269A,124.1069,50.4097,大兴安岭地区,科技局,,24,9,16,7,15,75,,60,60,4,11,7,6,0.4,0.5
2024-01-16T1300,3663A,124.1164,50.4278,大兴安岭地区,红旗社区,,25,17,31,4,21,79,,52,52,8,32,5,14,0.3,0.6
2024-01-16T1300,1600A,124.3303,40.0625,丹东市,江湾东路,,26,26,55,15,41,82,,52,52,2,29,17,22,0.7,1.3
2024-01-16T1300,1601A,124.4256,40.1503,丹东市,临江后街,,26,24,62,12,44,82,,45,45,7,34,13,16,0.5,1.3
2024-01-16T1300,1602A,124.3933,40.1461,丹东市,元宝山,,28,28,44,15,34,68,,37,37,11,29,14,17,0.8,1.3
2024-01-16T1300,1603A,124.3633,40.1092,丹东市,民主桥,,35,35,57,14,36,76,,37,37,8,41,15,19,0.6,1.2
2024-01-16T1300,3541A,109.5726,19.5167,儋州市,第一中学子站,,27,27,26,13,11,85,,88,87,1,3,4,5,0.7,0.7
2024-01-16T1300,3542A,109.5567,19.5187,儋州市,东坡学校子站,,29,28,31,13,12,90,,92,92,1,3,7,7,0.5,0.5
2024-01-16T1300,2616A,98.5842,24.428,德宏傣族景颇族自治州,德宏州监测站,颗粒物(PM10),65,80,51,39,37,52,,14,14,31,28,35,25,0.6,0.5
2024-01-16T1300,3677A,98.5881,24.4368,德宏傣族景颇族自治州,芒市人民政府综合楼,细颗粒物(PM2.5),59,63,41,42,29,45,,16,14,28,23,32,20,0.6,0.6
2024-01-16T1300,1901A,104.4239,31.1208,德阳市,东山公园,,28,28,40,17,32,67,,49,49,13,18,1,2,0.7,0.7
2024-01-16T1300,1902A,104.3826,31.1317,德阳市,西小区,,39,39,52,22,39,61,,32,32,13,22,1,2,0.6,0.8
2024-01-16T1300,1904A,104.3553,31.1091,德阳市,耐火材料厂,,36,36,53,20,39,62,,29,29,10,22,2,3,0.7,0.7
2024-01-16T1300,3639A,104.4019,31.1244,德阳市,市教育局,,33,33,44,14,31,63,,45,45,13,22,3,2,0.8,0.8
2024-01-16T1300,1622A,116.3032,37.4674,德州市,儿童乐园,细颗粒物(PM2.5),62,56,77,44,43,48,,39,39,25,36,8,11,0.8,0.8
2024-01-16T1300,1624A,116.2991,37.4451,德州市,监理站,细颗粒物(PM2.5),62,53,72,44,44,46,,37,37,24,44,8,11,0.6,0.7
2024-01-16T1300,3066A,116.2721,37.4379,德州市,九衢泉纯净水厂,细颗粒物(PM2.5),55,55,82,39,45,43,,32,32,26,42,9,11,0.7,0.8
2024-01-16T1300,3371A,116.3728,37.4403,德州市,开发区人民医院,细颗粒物(PM2.5),64,66,84,46,45,39,,29,29,29,45,5,9,0.6,0.8
2024-01-16T1300,3372A,116.3572,37.4094,德州市,太阳城中学,细颗粒物(PM2.5),63,61,80,45,50,42,,31,31,24,44,7,11,0.7,0.9
2024-01-16T1300,3511A,116.5652,37.3319,德州市,陵城艺术中心,颗粒物(PM10),59,68,77,36,41,32,,30,30,30,31,5,9,0.8,0.8
2024-01-16T1300,2621A,99.7056,27.8317,迪庆藏族自治州,迪庆州站,,28,18,26,11,16,87,,66,66,8,12,7,8,0.4,0.6
2024-01-16T1300,3180A,99.7136,27.8094,迪庆藏族自治州,质量技术监督局,,28,19,22,6,16,87,,55,55,6,17,7,7,0.4,0.8
2024-01-16T1300,2663A,104.6241,35.5734,定西市,东关小学,颗粒物(PM10),70,89,97,48,54,38,,8,8,9,22,20,15,0.7,1
2024-01-16T1300,2664A,104.6194,35.5934,定西市,供电公司,细颗粒物(PM2.5),97,126,100,72,63,35,,11,11,34,28,29,12,1.9,0.9
2024-01-16T1300,1389A,113.7547,23.0494,东莞市,莞城梨川,颗粒物(PM10),52,54,53,32,25,150,,88,88,24,29,7,8,0.8,0.8
2024-01-16T1300,1390A,113.7944,23.0128,东莞市,东城石井,颗粒物(PM10),55,60,50,35,24,153,,77,77,23,29,10,10,0.8,0.7
2024-01-16T1300,1391A,113.7383,22.9658,东莞市,南城西平,颗粒物(PM10),53,56,49,31,24,144,,84,84,24,30,8,9,0.8,0.8
2024-01-16T1300,3319A,113.7338,23.0381,东莞市,万江金泰,颗粒物(PM10),55,59,51,38,28,145,,82,82,22,27,8,8,0.9,0.8
2024-01-16T1300,3626A,113.7533,23.0202,东莞市,南城元岭,颗粒物(PM10),56,61,52,37,25,153,,83,83,24,28,9,9,0.8,0.7
2024-01-16T1300,3627A,113.7875,23.0457,东莞市,东城主山,颗粒物(PM10),56,62,52,33,25,142,,80,80,24,28,8,8,0.7,0.7
2024-01-16T1300,1666A,118.6614,37.4309,东营市,市环保局,细颗粒物(PM2.5),122,146,83,92,53,18,,22,16,89,54,34,24,1.5,0.9
2024-01-16T1300,3036A,118.6904,37.4338,东营市,开发区管委会,细颗粒物(PM2.5),125,148,85,95,57,16,,23,16,94,55,26,19,1.2,0.7
2024-01-16T1300,3365A,118.5719,37.565,东营市,垦利区民丰路,细颗粒物(PM2.5),122,151,102,92,59,16,,9,9,97,70,28,19,1.4,1.1
2024-01-16T1300,3498A,118.5055,37.8612,东营市,河口城区,颗粒物(PM10),108,166,97,80,58,29,,22,22,62,49,25,10,1.1,0.9
2024-01-16T1300,3646A,118.4978,37.4623,东营市,胜利站,细颗粒物(PM2.5),125,163,94,95,58,16,,17,12,120,73,34,22,1.7,1
2024-01-16T1300,3734A,118.35,37.26,东营市,理想之城,细颗粒物(PM2.5),119,149,92,90,53,15,,16,11,114,72,34,21,1.7,1.1
2024-01-16T1300,1591A,110.0023,39.8129,鄂尔多斯市,综合楼,细颗粒物(PM2.5),77,63,115,56,54,54,,34,34,31,61,6,22,0.9,1
2024-01-16T1300,1592A,109.9486,39.8261,鄂尔多斯市,巴音孟克林场办事处,,,,96,,49,37,,32,32,,58,,25,0.9,1
2024-01-16T1300,1593A,109.7736,39.5986,鄂尔多斯市,康泽苑,细颗粒物(PM2.5),100,75,118,75,63,49,,20,20,32,61,8,15,1.0,1.5
2024-01-16T1300,1594A,109.8119,39.5989,鄂尔多斯市,华泰汽车城,细颗粒物(PM2.5),85,73,139,63,66,53,,16,16,31,62,7,16,0.9,1.5
2024-01-16T1300,1595A,109.9734,39.7884,鄂尔多斯市,奥林花园,细颗粒物(PM2.5),85,78,133,63,61,47,,29,29,28,60,4,21,0.8,1.2
2024-01-16T1300,2436A,114.8938,30.3994,鄂州市,市政府,细颗粒物(PM2.5),73,,101,53,80,19,,31,22,26,32,6,8,0.8,1.1
2024-01-16T1300,2437A,114.8989,30.3714,鄂州市,赵家坝,细颗粒物(PM2.5),73,,102,53,80,26,,34,25,35,43,5,6,0.9,1.1
2024-01-16T1300,3654A,114.8094,30.4089,鄂州市,精准医疗中心,,,,133,46,79,30,,32,31,22,31,5,9,0.6,0.8
2024-01-16T1300,2454A,109.4978,30.2981,恩施土家族苗族自治州,湖北民院,细颗粒物(PM2.5),59,58,75,42,55,31,,41,35,24,16,6,6,1.1,1.1
2024-01-16T1300,2455A,109.4707,30.2798,恩施土家族苗族自治州,州电力总公司,颗粒物(PM10),57,63,95,26,41,24,,39,30,40,34,5,5,1.0,1
2024-01-16T1300,3549A,109.5061,30.3772,恩施土家族苗族自治州,龙凤新区,细颗粒物(PM2.5),83,,83,61,86,26,,27,26,33,27,6,6,1.2,1.1
2024-01-16T1300,2499A,108.3411,21.6158,防城港市,沙万,,46,46,48,21,20,114,,56,56,11,30,4,7,0.5,0.6
2024-01-16T1300,2500A,108.3514,21.7731,防城港市,防城档案局,,,55,83,22,28,100,,37,37,18,28,6,5,,1.4
2024-01-16T1300,2501A,108.3506,21.6414,防城港市,大海花园,,44,44,41,27,19,109,,57,57,11,24,5,7,0.4,0.5
2024-01-16T1300,1371A,113.1294,23.0067,佛山市,湾梁,颗粒物(PM10),62,73,62,28,25,120,,63,63,26,37,9,9,0.4,0.5
2024-01-16T1300,1372A,113.1083,23.0478,佛山市,华材职中,颗粒物(PM10),63,75,58,39,34,115,,69,69,31,37,10,10,0.6,0.5
2024-01-16T1300,1373A,113.144,23.0453,佛山市,南海气象局,颗粒物(PM10),58,65,61,31,32,112,,65,65,33,41,6,7,0.6,0.6
2024-01-16T1300,1374A,113.2881,22.8094,佛山市,顺德苏岗,颗粒物(PM10),52,53,54,29,30,112,,63,63,26,34,10,9,0.5,0.6
2024-01-16T1300,1376A,112.8383,22.8678,佛山市,高明孔堂,细颗粒物(PM2.5),57,50,60,40,32,106,,70,70,20,25,6,8,0.6,0.7
2024-01-16T1300,1377A,112.8836,23.1588,佛山市,三水监测站,细颗粒物(PM2.5),67,70,93,48,52,105,,49,49,38,78,4,6,0.6,0.8
2024-01-16T1300,1378A,112.867,23.185,佛山市,三水云东海,细颗粒物(PM2.5),67,72,68,48,40,115,,49,49,40,51,8,7,0.5,0.5
2024-01-16T1300,3625A,113.2544,22.7642,佛山市,容桂街道办,颗粒物(PM10),52,53,60,19,26,98,,75,70,25,29,7,7,0.6,0.6
2024-01-16T1300,1280A,119.3903,26.0543,福州市,鼓山,,,,,,,,,,,,,,,,
2024-01-16T1300,1282A,119.2681,26.0504,福州市,师大,,31,28,52,15,50,98,,77,76,15,17,5,5,0.6,0.8
2024-01-16T1300,1283A,119.2984,26.1028,福州市,五四北路,,30,27,48,18,56,95,,75,75,14,20,3,3,0.7,0.8
2024-01-16T1300,1284A,119.2648,26.0768,福州市,杨桥西路,,36,36,55,18,53,100,,79,79,11,15,3,3,0.6,0.7
2024-01-16T1300,1285A,119.317,26.0746,福州市,紫阳,,34,34,52,17,48,91,,74,74,12,15,5,5,0.7,0.8
2024-01-16T1300,3048A,119.5799,26.0936,福州市,九龙,,,31,46,,38,90,,72,70,,19,4,3,,0.7
2024-01-16T1300,3526A,119.5189,25.9664,福州市,吴航,,28,20,56,10,30,88,,72,72,14,16,5,4,0.6,0.9
2024-01-16T1300,1755A,123.7977,41.8491,抚顺市,望花区,细颗粒物(PM2.5),73,93,84,53,54,51,,26,26,61,56,14,8,1.7,1.3
2024-01-16T1300,1756A,123.9161,41.8822,抚顺市,顺城区,颗粒物(PM10),53,56,92,36,65,59,,40,40,34,50,9,10,0.8,1.2
2024-01-16T1300,1757A,124.0436,41.8611,抚顺市,东洲区,,39,39,56,17,39,78,,50,50,10,26,10,12,0.5,0.8
2024-01-16T1300,1758A,123.9247,41.8642,抚顺市,新抚区,,43,41,85,30,61,74,,38,38,24,49,11,12,0.8,1.2
2024-01-16T1300,1759A,124.0972,41.8961,抚顺市,大伙房水库,,28,28,50,17,31,72,,49,49,10,24,12,12,0.6,0.7
2024-01-16T1300,1760A,123.7086,41.8391,抚顺市,沈抚新城,颗粒物(PM10),84,118,93,44,48,67,,29,29,37,52,13,23,1.4,2
2024-01-16T1300,2376A,116.2127,28.0814,抚州市,桐源党溪,细颗粒物(PM2.5),97,87,98,72,76,57,,23,23,27,19,8,4,1.3,1.1
2024-01-16T1300,2377A,116.3544,27.9831,抚州市,市站,细颗粒物(PM2.5),98,106,122,73,86,51,,31,31,30,28,7,7,1.2,1.2
2024-01-16T1300,2378A,116.3565,27.963,抚州市,血防站,细颗粒物(PM2.5),100,110,124,75,93,45,,28,28,31,27,3,6,1.3,1.3
2024-01-16T1300,2379A,116.3564,28.0007,抚州市,采茶剧团,细颗粒物(PM2.5),104,96,116,78,97,49,,28,28,24,25,5,6,1.5,1.4
2024-01-16T1300,2380A,116.385,27.9647,抚州市,医学分院,细颗粒物(PM2.5),105,129,124,79,83,42,,27,27,21,21,6,10,1.2,1.1
2024-01-16T1300,2207A,121.6094,41.998,阜新市,工业园区,,,148,181,71,90,35,,14,14,,53,25,30,1.3,2.1
2024-01-16T1300,2208A,121.6697,42.0279,阜新市,长青街,细颗粒物(PM2.5),110,132,120,83,74,38,,15,15,37,47,29,27,1.4,2.9
2024-01-16T1300,2209A,121.6673,42.0705,阜新市,农业园区,细颗粒物(PM2.5),144,139,97,110,64,47,,25,25,38,37,31,41,1.5,1.3
2024-01-16T1300,2210A,121.6717,42.0224,阜新市,东苑,,,,,,,,,,,,,,,,
2024-01-16T1300,2211A,121.6506,42.0498,阜新市,玉龙新城,细颗粒物(PM2.5),123,121,103,93,69,45,,21,21,36,45,31,24,1.2,2.2
2024-01-16T1300,2301A,115.8277,32.8929,阜阳市,市监测站,细颗粒物(PM2.5),52,39,49,36,34,41,,41,36,18,20,6,6,0.3,0.3
2024-01-16T1300,2303A,115.8554,32.8605,阜阳市,开发区,,46,46,62,32,33,42,,40,33,21,21,8,8,0.5,0.6
2024-01-16T1300,2875A,115.784,32.8892,阜阳市,阜阳职业技术学院,,39,35,49,27,29,39,,43,36,17,16,4,4,0.4,0.4
2024-01-16T1300,3468A,115.7901,32.8613,阜阳市,市规划展馆,,48,48,53,30,29,40,,42,35,20,21,4,5,0.5,0.4
2024-01-16T1300,3469A,115.836,32.9183,阜阳市,枣园社区,,42,40,52,29,30,41,,41,35,23,23,5,5,0.4,0.4
2024-01-16T1300,2669A,102.9099,34.9841,甘南藏族自治州,州政府,,38,30,74,26,40,62,,16,16,14,39,25,25,0.4,1
2024-01-16T1300,3380A,102.8914,34.9617,甘南藏族自治州,甘肃民族师范学院,颗粒物(PM10),54,57,85,21,33,63,,15,15,18,43,25,18,0.6,0.9
2024-01-16T1300,2570A,101.9603,30.0475,甘孜藏族自治州,水桥子,,36,,31,25,22,47,,28,25,26,30,11,10,0.6,0.5
2024-01-16T1300,3065A,101.9533,29.9972,甘孜藏族自治州,州环保局,,24,12,23,5,9,75,,61,61,10,13,8,8,0.2,0.4
2024-01-16T1300,3414A,115.8347,28.932,赣江新区,桑海产业园,细颗粒物(PM2.5),93,95,122,69,67,60,,30,30,28,34,8,6,0.9,0.8
2024-01-16T1300,2362A,114.9017,25.9149,赣州市,通天岩,,,,,,,,,,,,,,,,
2024-01-16T1300,2363A,114.9367,25.8664,赣州市,地委,细颗粒物(PM2.5),137,140,116,104,75,59,,56,48,18,14,4,7,1.5,1.3
2024-01-16T1300,2364A,114.9461,25.8481,赣州市,气象台,细颗粒物(PM2.5),137,157,115,104,75,62,,65,51,36,15,11,11,1.4,1.2
2024-01-16T1300,2365A,114.9322,25.8333,赣州市,市图书馆,细颗粒物(PM2.5),137,161,120,104,77,61,,70,54,29,18,9,9,1.4,1.2
2024-01-16T1300,2366A,114.8905,25.8471,赣州市,华坚鞋城,细颗粒物(PM2.5),152,151,119,116,85,69,,76,56,22,14,12,6,1.9,1.6
2024-01-16T1300,3109A,115.0093,25.8613,赣州市,赣县区卫计委,细颗粒物(PM2.5),135,113,80,103,66,67,,34,34,19,26,10,7,1.4,1.2
2024-01-16T1300,2683A,106.2319,36.1417,固原市,马园,细颗粒物(PM2.5),112,114,127,84,77,29,,20,14,31,36,6,6,1.1,1
2024-01-16T1300,2684A,106.2792,36.0022,固原市,监测站,细颗粒物(PM2.5),129,116,122,98,83,33,,38,26,28,24,4,4,0.9,0.8
2024-01-16T1300,2685A,106.2375,36.0211,固原市,新区,细颗粒物(PM2.5),117,132,119,88,81,26,,34,22,29,21,6,6,1.0,0.8
2024-01-16T1300,3522A,106.2177,35.9959,固原市,原州区十五小,细颗粒物(PM2.5),108,139,141,81,74,17,,25,21,47,28,8,7,1.3,1
2024-01-16T1300,2543A,106.6308,30.5278,广安市,小平旧居,,,,,,,,,,,,,,,,
2024-01-16T1300,2544A,106.6303,30.4576,广安市,市委,细颗粒物(PM2.5),72,75,68,52,62,23,,23,23,26,26,5,5,1.2,1.2
2024-01-16T1300,2545A,106.6271,30.4663,广安市,友谊中学,细颗粒物(PM2.5),67,73,64,48,54,18,,21,21,30,25,4,4,1.2,1.1
2024-01-16T1300,2547A,106.6388,30.4551,广安市,广电花园,细颗粒物(PM2.5),73,64,61,53,61,16,,15,15,28,27,3,3,1.0,1
2024-01-16T1300,2902A,106.6351,30.4865,广安市,北辰小学,细颗粒物(PM2.5),65,63,61,47,59,23,,18,18,25,24,6,6,1.1,1.1
2024-01-16T1300,2523A,105.8945,32.4535,广元市,黑石坡,细颗粒物(PM2.5),52,37,30,36,26,37,,57,48,24,19,3,4,0.7,0.7
2024-01-16T1300,2524A,105.821,32.4444,广元市,老城,,35,28,36,24,23,47,,62,53,18,18,3,2,0.8,0.8
2024-01-16T1300,2526A,105.8628,32.4287,广元市,监测站,,25,25,32,13,22,43,,60,51,23,19,2,2,0.5,0.6
2024-01-16T1300,3617A,105.8047,32.4166,广元市,经开区,,25,23,36,17,23,43,,62,52,23,21,3,3,0.8,0.8
2024-01-16T1300,1345A,113.2347,23.1423,广州市,广雅中学,颗粒物(PM10),62,73,62,38,30,93,,58,58,42,46,7,7,0.8,0.9
2024-01-16T1300,1346A,113.2612,23.105,广州市,市五中,颗粒物(PM10),61,72,61,41,32,108,,65,65,35,37,14,9,0.7,0.6
2024-01-16T1300,1348A,113.3478,23.0916,广州市,广东商学院,颗粒物(PM10),60,69,63,42,35,118,,55,55,33,51,13,7,0.7,0.6
2024-01-16T1300,1349A,113.4332,23.1047,广州市,市八十六中,,,83,72,40,30,120,,55,55,,57,10,7,0.6,0.9
2024-01-16T1300,1350A,113.3505,22.9483,广州市,番禺中学,"颗粒物(PM10),细颗粒物(PM2.5)",59,67,56,42,29,158,,88,88,34,37,6,5,0.7,0.7
2024-01-16T1300,1351A,113.2146,23.3916,广州市,花都师范,颗粒物(PM10),55,59,71,30,31,109,,49,49,25,58,6,7,0.5,0.5
2024-01-16T1300,1352A,113.2597,23.1331,广州市,市监测站,,,70,61,37,31,100,,61,61,,43,7,6,0.7,0.7
2024-01-16T1300,1353A,113.5618,23.312,广州市,九龙镇镇龙,,50,50,72,31,33,108,,51,51,14,48,6,6,0.6,0.6
2024-01-16T1300,1354A,113.2765,23.1544,广州市,麓湖,颗粒物(PM10),67,84,57,43,30,103,,56,54,36,40,6,6,0.6,0.6
2024-01-16T1300,1355A,113.443,23.3035,广州市,帽峰山森林公园,,46,46,50,24,25,120,,70,70,11,26,8,10,0.2,0.3
2024-01-16T1300,2846A,113.3221,23.1322,广州市,体育西,颗粒物(PM10),59,68,62,40,31,108,,56,56,35,44,9,9,0.7,0.7
2024-01-16T1300,3298A,113.5717,23.5491,广州市,从化街口,,39,39,54,24,36,113,,47,47,12,38,7,7,0.6,0.8
2024-01-16T1300,3299A,113.3472,23.3692,广州市,白云竹料,颗粒物(PM10),51,51,67,27,33,111,,66,66,20,50,6,7,0.8,0.9
2024-01-16T1300,3300A,113.2981,23.237,广州市,白云嘉禾,颗粒物(PM10),51,51,61,29,29,107,,55,55,31,60,8,8,0.7,0.7
2024-01-16T1300,3301A,113.4256,23.1716,广州市,黄埔科学城,颗粒物(PM10),51,52,60,33,32,115,,48,48,23,52,5,6,0.8,0.8
2024-01-16T1300,3302A,113.3942,23.0483,广州市,番禺大学城,颗粒物(PM10),58,65,63,35,27,134,,72,72,31,41,14,12,0.7,0.7
2024-01-16T1300,3303A,113.4922,22.8168,广州市,南沙黄阁,颗粒物(PM10),55,60,60,38,31,130,,73,73,27,38,4,5,0.6,0.7
2024-01-16T1300,3304A,113.5342,22.7896,广州市,南沙街,细颗粒物(PM2.5),54,49,56,38,28,134,,82,82,32,35,5,6,0.8,0.7
2024-01-16T1300,3443A,113.2902,23.5544,广州市,花都梯面,,46,46,45,25,27,111,,61,61,19,38,6,6,0.6,0.6
2024-01-16T1300,3445A,113.7858,23.7478,广州市,从化良口,,36,30,20,23,15,115,,46,46,9,20,7,6,0.6,0.6
2024-01-16T1300,3446A,113.8051,23.2614,广州市,增城荔城,颗粒物(PM10),63,76,54,43,30,112,,67,67,14,26,7,8,0.6,0.6
2024-01-16T1300,2505A,109.568,23.1478,贵港市,德智高中,细颗粒物(PM2.5),82,101,64,60,44,114,,88,74,35,29,15,12,1.1,0.9
2024-01-16T1300,2506A,109.6047,23.0666,贵港市,江南子站,颗粒物(PM10),79,107,143,52,64,126,,42,42,28,49,18,12,0.7,1.1
2024-01-16T1300,2507A,109.6014,23.0948,贵港市,贵城子站,颗粒物(PM10),71,91,86,41,59,121,,47,47,28,41,20,14,0.9,1.1
2024-01-16T1300,2508A,109.5669,23.1065,贵港市,荷城子站,颗粒物(PM10),81,112,87,53,54,122,,54,54,32,38,18,13,1.1,1.2
2024-01-16T1300,3405A,109.5886,23.1172,贵港市,新世纪学校,颗粒物(PM10),93,136,86,63,52,117,,57,57,40,33,18,10,1.1,0.9
2024-01-16T1300,1439A,106.6899,26.5998,贵阳市,马鞍山,,22,19,19,9,10,69,,65,62,10,10,6,8,0.5,0.5
2024-01-16T1300,1440A,106.6971,26.5694,贵阳市,市环保站,,,,18,,15,67,,70,63,18,15,,7,0.3,0.3
2024-01-16T1300,1441A,106.6243,26.6266,贵阳市,鉴湖路,,24,24,25,12,11,74,,68,68,5,8,5,5,0.4,0.4
2024-01-16T1300,1442A,106.7487,26.6343,贵阳市,燕子冲,,25,24,21,17,14,78,,70,67,9,10,9,7,0.5,0.5
2024-01-16T1300,1443A,106.6555,26.4365,贵阳市,碧云窝,,27,27,24,7,9,74,,70,70,6,7,6,7,0.3,0.4
2024-01-16T1300,1444A,106.694,26.5161,贵阳市,中院村,,24,24,23,9,12,68,,64,61,10,11,10,10,0.3,0.4
2024-01-16T1300,1445A,106.7109,26.6027,贵阳市,红边门,,34,34,27,19,16,68,,63,58,11,12,7,7,0.4,0.4
2024-01-16T1300,1446A,106.7164,26.5699,贵阳市,新华路,,29,29,24,19,15,75,,69,66,10,13,10,9,0.3,0.5
2024-01-16T1300,1447A,106.674,26.5424,贵阳市,太慈桥,,,,28,,10,62,,67,63,9,9,6,7,,0.3
2024-01-16T1300,1552A,106.805,26.3003,贵阳市,桐木岭,,,,,,,,,,,,,,,,
2024-01-16T1300,1862A,110.4144,25.3167,桂林市,电子科大尧山校区,,,55,89,46,58,70,,41,41,,13,7,9,1.1,1.3
2024-01-16T1300,1863A,110.2819,25.2697,桂林市,监测站,细颗粒物(PM2.5),133,119,114,101,109,54,,38,32,24,22,12,10,1.4,1.4
2024-01-16T1300,1864A,110.3089,25.2708,桂林市,龙隐路小学,细颗粒物(PM2.5),147,,99,112,114,60,,41,38,24,24,11,9,1.3,1.3
2024-01-16T1300,1865A,110.2869,25.2178,桂林市,八中,细颗粒物(PM2.5),134,,108,102,117,56,,34,33,25,23,10,8,1.1,1.1
2024-01-16T1300,3403A,110.1764,25.2381,桂林市,创业大厦,细颗粒物(PM2.5),140,122,127,107,116,55,,38,33,25,21,11,8,0.8,0.8
2024-01-16T1300,3531A,110.296,25.1253,桂林市,旅游学院,细颗粒物(PM2.5),119,92,105,90,104,60,,37,37,16,18,9,9,1.0,1
2024-01-16T1300,2674A,100.2561,34.4714,果洛藏族自治州,玛沁县大武镇,,27,19,36,15,15,84,,40,38,8,15,13,9,0.4,0.4
2024-01-16T1300,1129A,126.5422,45.755,哈尔滨市,岭北,细颗粒物(PM2.5),70,62,77,51,65,43,,103,76,30,49,10,6,2.2,1.1
2024-01-16T1300,1130A,126.561,45.8167,哈尔滨市,松北商大,颗粒物(PM10),70,89,69,49,47,65,,37,37,38,44,14,16,0.9,0.9
2024-01-16T1300,1131A,126.979,45.5419,哈尔滨市,阿城会宁,细颗粒物(PM2.5),52,48,87,36,77,75,,56,56,18,30,28,17,0.7,1
2024-01-16T1300,1132A,126.599,45.7222,哈尔滨市,南岗学府路,细颗粒物(PM2.5),77,96,88,56,62,67,,42,42,34,49,12,13,0.9,0.9
2024-01-16T1300,1133A,126.689,45.7733,哈尔滨市,太平宏伟公园,颗粒物(PM10),75,99,71,51,52,69,,36,36,26,46,14,18,0.8,0.8
2024-01-16T1300,1134A,126.635,45.7667,哈尔滨市,道外承德广场,"颗粒物(PM10),细颗粒物(PM2.5)",58,66,64,41,48,66,,38,38,30,48,12,12,0.8,1.1
2024-01-16T1300,1135A,126.685,45.7319,哈尔滨市,香坊红旗大街,细颗粒物(PM2.5),87,99,77,64,69,73,,42,42,37,57,15,14,0.9,1
2024-01-16T1300,1136A,126.6411,45.7258,哈尔滨市,动力和平路,,,77,77,54,63,70,,30,30,,60,,11,0.8,0.9
2024-01-16T1300,1137A,126.593,45.7478,哈尔滨市,道里建国路,"颗粒物(PM10),细颗粒物(PM2.5)",78,106,72,57,58,66,,37,37,29,45,19,15,0.9,0.6
2024-01-16T1300,1138A,126.615,45.61,哈尔滨市,平房东轻厂,细颗粒物(PM2.5),80,92,84,59,71,84,,53,53,18,44,8,9,0.9,1
2024-01-16T1300,1139A,126.595,45.9855,哈尔滨市,呼兰师专,细颗粒物(PM2.5),77,88,70,56,56,72,,48,48,25,32,18,14,1.2,0.9
2024-01-16T1300,1140A,126.6206,45.6842,哈尔滨市,省农科院,细颗粒物(PM2.5),75,86,93,55,72,81,,42,42,33,61,10,16,0.6,1.1
2024-01-16T1300,2688A,93.5128,42.8172,哈密市,地区监测站,颗粒物(PM10),374,479,375,87,61,33,,20,20,57,51,16,8,5.6,1.5
2024-01-16T1300,2689A,93.4961,42.8328,哈密市,哈密师范学校,,,0,341,0,58,30,,13,13,65,61,,9,3.9,1.6
2024-01-16T1300,2671A,100.9048,36.9639,海北藏族自治州,海晏县西海镇,,,,36,,14,,,73,,,8,,11,,0.4
2024-01-16T1300,3867A,102.0738,36.5056,海东市,平安区公安北苑,细颗粒物(PM2.5),68,74,101,49,59,53,,22,22,37,42,55,39,1.6,1.4
2024-01-16T1300,1409A,110.576,19.9507,海口市,东寨港,,,,,,,,,,,,,,,,
2024-01-16T1300,1410A,110.3232,20.0574,海口市,海南大学,,49,49,36,23,15,97,,106,93,3,11,8,8,0.4,0.3
2024-01-16T1300,1411A,110.283,20.0053,海口市,秀英海南医院,,45,45,33,23,15,96,,114,97,3,6,8,8,0.4,0.3
2024-01-16T1300,1412A,110.338,19.9969,海口市,海南师范大学,,45,45,33,22,16,95,,109,94,4,7,6,6,0.5,0.4
2024-01-16T1300,1413A,110.33,20.0356,海口市,龙华路环保局宿舍,,,43,33,21,14,95,,107,92,,8,8,8,0.4,0.3
2024-01-16T1300,3539A,110.5111,19.9736,海口市,桂林洋子站,,41,41,33,21,14,97,,103,92,4,5,6,6,0.4,0.3
2024-01-16T1300,2673A,100.6188,36.2866,海南藏族自治州,共和县恰卜恰镇,,32,22,41,22,22,76,,36,36,12,31,13,11,0.4,0.8
2024-01-16T1300,2676A,97.3731,37.3753,海西蒙古族藏族自治州,德令哈市,,29,25,32,6,13,92,,78,78,9,11,15,13,0.5,0.5
2024-01-16T1300,1048A,114.5302,36.6116,邯郸市,东污水处理厂,,32,,30,22,26,54,,60,53,8,14,3,3,0.3,0.4
2024-01-16T1300,1049A,114.4918,36.5713,邯郸市,矿院,,32,,40,22,21,53,,60,53,13,18,2,2,0.4,0.5
2024-01-16T1300,1050A,114.484,36.6133,邯郸市,丛台公园,,26,,23,18,18,58,,66,59,13,16,2,2,0.3,0.3
2024-01-16T1300,3458A,114.7895,36.5593,邯郸市,香泉濮院小区,细颗粒物(PM2.5),52,38,46,36,29,66,,70,59,13,16,1,3,0.3,0.4
2024-01-16T1300,3579A,114.50634,36.77178,邯郸市,永年区实验高中,,30,30,40,16,22,63,,66,62,11,20,4,5,0.1,0.4
2024-01-16T1300,3580A,114.20016,36.44293,邯郸市,峰峰矿区临水派出所,细颗粒物(PM2.5),57,,46,40,34,59,,60,60,14,19,3,4,0.4,0.5
2024-01-16T1300,2634A,106.9893,33.1842,汉中市,汉川机床厂子校,细颗粒物(PM2.5),58,50,45,41,43,46,,55,49,12,9,3,4,0.8,0.7
2024-01-16T1300,2635A,107.0154,33.0706,汉中市,市监测站,细颗粒物(PM2.5),63,,59,45,52,49,,47,45,17,18,8,8,0.9,0.9
2024-01-16T1300,2636A,107.0089,33.1138,汉中市,鑫源开发区,细颗粒物(PM2.5),62,,50,44,49,49,,46,43,11,10,7,8,0.6,0.6
2024-01-16T1300,2637A,107.007,33.0323,汉中市,南郑大河坎水厂,细颗粒物(PM2.5),62,54,72,44,52,50,,54,50,16,19,9,9,0.7,0.9
2024-01-16T1300,1223A,120.2072,30.2111,杭州市,滨江,颗粒物(PM10),55,59,57,30,29,65,,42,42,23,32,10,10,0.5,0.5
2024-01-16T1300,1224A,120.0633,30.2747,杭州市,西溪,颗粒物(PM10),57,64,48,39,35,63,,47,47,31,38,7,7,0.7,0.7
2024-01-16T1300,1226A,120.3461,30.3153,杭州市,下沙,颗粒物(PM10),57,63,56,33,26,73,,46,46,25,45,7,6,0.7,0.6
2024-01-16T1300,1227A,120.1269,30.2456,杭州市,卧龙桥,颗粒物(PM10),56,61,64,36,32,54,,34,34,28,29,6,5,0.5,0.5
2024-01-16T1300,1228A,120.1903,30.2692,杭州市,浙江农大,颗粒物(PM10),54,58,57,35,27,67,,44,44,26,38,9,9,0.4,0.5
2024-01-16T1300,1230A,120.1197,30.3119,杭州市,和睦小学,颗粒物(PM10),56,62,64,33,34,60,,46,46,30,39,6,6,0.6,0.5
2024-01-16T1300,1231A,120.3019,30.4183,杭州市,临平镇,,50,50,52,18,23,72,,47,47,15,29,6,6,0.9,0.8
2024-01-16T1300,1232A,120.2697,30.1819,杭州市,城厢镇,颗粒物(PM10),54,58,58,31,30,74,,44,44,22,38,7,6,0.5,0.5
2024-01-16T1300,1233A,120.0883,30.1808,杭州市,云栖,颗粒物(PM10),53,56,50,32,28,62,,34,34,32,34,7,6,0.5,0.6
2024-01-16T1300,3557A,119.9464,30.0494,杭州市,镇二中,细颗粒物(PM2.5),53,50,56,37,42,57,,20,20,29,46,4,3,0.5,0.7
2024-01-16T1300,3558A,119.7183,30.2367,杭州市,市府大楼,细颗粒物(PM2.5),65,63,71,47,50,72,,29,29,25,36,6,5,0.6,0.7
2024-01-16T1300,3656A,120.1556,30.2864,杭州市,消防大队,颗粒物(PM10),59,67,51,37,29,67,,49,49,29,39,8,8,0.7,0.6
2024-01-16T1300,1270A,117.1959,31.7848,合肥市,明珠广场,,46,46,61,29,27,21,,16,16,40,41,6,7,0.7,0.6
2024-01-16T1300,1271A,117.3072,31.8764,合肥市,三里街,,36,36,49,22,25,24,,22,22,41,42,5,6,0.6,0.5
2024-01-16T1300,1272A,117.2588,31.8707,合肥市,琥珀山庄,,36,36,50,12,25,32,,29,29,36,32,5,6,0.7,0.6
2024-01-16T1300,1273A,117.1604,31.9052,合肥市,董铺水库,,39,39,56,19,24,39,,31,31,24,26,3,4,0.5,0.5
2024-01-16T1300,1274A,117.25,31.8571,合肥市,长江中路,,,46,49,32,29,,,24,24,33,34,7,8,0.9,0.8
2024-01-16T1300,1275A,117.266,31.9436,合肥市,庐阳区,,39,39,58,17,22,34,,28,28,31,30,3,3,0.7,0.6
2024-01-16T1300,1276A,117.336,31.8586,合肥市,瑶海区,,42,41,53,29,30,34,,27,27,31,32,2,2,0.6,0.6
2024-01-16T1300,1277A,117.3027,31.7964,合肥市,包河区,,46,46,58,27,31,16,,12,12,49,49,3,4,0.6,0.6
2024-01-16T1300,1278A,117.2776,31.7385,合肥市,滨湖新区,颗粒物(PM10),51,51,61,31,32,41,,25,25,28,28,6,6,0.4,0.4
2024-01-16T1300,1279A,117.1318,31.8403,合肥市,高新区,,44,44,56,24,27,25,,20,19,42,42,6,7,0.8,0.7
2024-01-16T1300,3464A,117.3803,31.9147,合肥市,高教基地,,38,38,50,26,26,38,,34,34,37,37,4,4,0.5,0.4
2024-01-16T1300,3614A,79.924,37.0877,和田地区,地区环保局,颗粒物(PM10),222,365,251,132,69,45,,61,53,73,37,33,17,3.4,1.4
2024-01-16T1300,3615A,79.9131,37.113,和田地区,市环保局,颗粒物(PM10),236,375,216,142,66,39,,38,30,77,41,39,16,6.5,2.8
2024-01-16T1300,2516A,108.2011,24.715,河池市,东仁乐园,颗粒物(PM10),51,51,66,35,53,100,,48,48,8,16,8,6,0.7,1
2024-01-16T1300,2517A,108.0497,24.6947,河池市,市环保站,颗粒物(PM10),54,58,72,21,47,94,,38,38,15,26,9,8,0.6,1.1
2024-01-16T1300,2518A,108.0983,24.6989,河池市,市疾控中心,颗粒物(PM10),56,61,73,21,50,97,,47,47,14,37,9,8,0.6,1
2024-01-16T1300,1696A,114.6778,23.7569,河源市,源西,颗粒物(PM10),54,57,65,25,29,108,,42,42,12,46,5,5,0.7,0.8
2024-01-16T1300,1697A,114.6944,23.7586,河源市,东埔,颗粒物(PM10),56,62,61,31,34,114,,55,55,8,24,8,8,0.8,0.9
2024-01-16T1300,1698A,114.6892,23.7233,河源市,老城,,44,44,52,27,29,119,,58,58,8,21,6,9,0.7,0.7
2024-01-16T1300,1718A,115.4208,35.2464,菏泽市,气象局,,,57,58,42,40,,,52,49,18,27,2,3,0.6,0.5
2024-01-16T1300,1719A,115.4747,35.2375,菏泽市,市政协,细颗粒物(PM2.5),69,59,56,50,42,58,,45,42,18,21,4,4,0.6,0.6
2024-01-16T1300,3374A,115.5564,35.0891,菏泽市,定陶老年大学,细颗粒物(PM2.5),55,41,54,39,35,62,,47,47,19,24,4,4,0.4,0.3
2024-01-16T1300,3647A,115.4702,35.2706,菏泽市,菏泽医专,细颗粒物(PM2.5),55,48,56,39,35,60,,46,46,20,23,6,4,0.5,0.5
2024-01-16T1300,2514A,111.5264,24.4172,贺州市,环保小区,细颗粒物(PM2.5),109,137,117,82,85,84,,40,40,28,22,6,7,1.2,1.2
2024-01-16T1300,2515A,111.5608,24.4078,贺州市,政协大楼,细颗粒物(PM2.5),112,108,114,84,83,109,,42,42,29,24,9,9,1.0,1.1
2024-01-16T1300,3534A,111.4744,24.4553,贺州市,西湾,细颗粒物(PM2.5),109,111,104,82,91,97,,40,40,28,19,11,10,1.1,1.1
2024-01-16T1300,2385A,114.17,35.9019,鹤壁市,市监测站,,42,36,49,29,35,62,,56,56,16,24,4,5,0.5,0.5
2024-01-16T1300,2386A,114.2956,35.7511,鹤壁市,市交警支队,,,40,45,32,28,55,,54,51,,25,5,10,0.4,0.4
2024-01-16T1300,2387A,114.2878,35.7306,鹤壁市,迎宾馆,,43,43,35,29,35,58,,53,51,32,32,8,8,0.5,0.5
2024-01-16T1300,3474A,114.2617,35.6822,鹤壁市,大新区,颗粒物(PM10),53,55,36,36,29,53,,50,40,28,32,8,6,0.4,0.4
2024-01-16T1300,3596A,114.1572,35.9603,鹤壁市,南山宾馆,,50,,42,35,31,62,,55,54,12,15,5,6,0.4,0.4
2024-01-16T1300,2244A,130.2537,47.3416,鹤岗市,哈啤分公司,,33,33,22,23,17,45,,62,58,31,10,20,13,0.6,0.4
2024-01-16T1300,2245A,130.2684,47.3086,鹤岗市,斯达机电,,29,29,24,14,14,64,,66,58,20,12,14,10,0.5,0.4
2024-01-16T1300,2246A,130.3114,47.3388,鹤岗市,东山纸板厂,,39,39,23,17,19,58,,60,44,24,15,18,16,0.3,0.3
2024-01-16T1300,2247A,130.1097,47.3382,鹤岗市,五号水库,,,,19,43,12,114,,68,68,13,7,,12,,0.6
2024-01-16T1300,2263A,127.4833,50.2524,黑河市,交通局,,24,15,18,11,14,76,,73,73,6,10,5,5,0.4,0.5
2024-01-16T1300,2264A,127.5144,50.2341,黑河市,环保局,,24,,14,12,14,75,,73,73,8,12,4,8,0.3,0.3
2024-01-16T1300,2265A,127.5291,50.2472,黑河市,大黑河岛,,20,15,15,10,6,63,,46,46,13,9,7,7,0.6,0.7
2024-01-16T1300,1074A,115.6838,37.7541,衡水市,电机北厂,,23,,40,16,35,50,,47,47,8,21,3,4,0.3,0.5
2024-01-16T1300,1075A,115.6303,37.7316,衡水市,市监测站,,30,30,53,14,32,44,,40,40,18,31,4,7,0.4,0.6
2024-01-16T1300,3188A,115.6683,37.7217,衡水市,市城管局,,,32,51,25,33,44,,42,42,,32,4,7,0.4,0.6
2024-01-16T1300,3459A,115.5989,37.5491,衡水市,地表水厂,,48,,47,33,35,43,,42,42,13,31,3,4,0.4,0.5
2024-01-16T1300,2456A,112.5003,26.9167,衡阳市,原169医院,细颗粒物(PM2.5),85,115,103,63,59,22,,15,15,24,28,8,8,0.9,0.9
2024-01-16T1300,2457A,112.6194,26.9258,衡阳市,衡阳化工总厂,细颗粒物(PM2.5),188,159,145,141,125,18,,17,14,26,28,8,11,1.4,1.2
2024-01-16T1300,2458A,112.6211,26.8956,衡阳市,珠晖区环保局,细颗粒物(PM2.5),179,146,128,135,122,18,,15,12,22,24,10,10,1.3,1.1
2024-01-16T1300,2459A,112.6197,26.8733,衡阳市,市委党校,细颗粒物(PM2.5),186,154,137,140,112,22,,15,14,27,27,19,12,1.4,1.2
2024-01-16T1300,2460A,112.6006,26.8919,衡阳市,市监测站,细颗粒物(PM2.5),207,189,165,157,135,20,,18,15,28,27,7,10,1.4,1.1
2024-01-16T1300,2461A,112.5664,26.9056,衡阳市,真空机电公司,细颗粒物(PM2.5),183,,125,138,127,21,,16,13,23,24,7,12,1.3,1.2
2024-01-16T1300,3399A,112.6703,26.882,衡阳市,师范学院,细颗粒物(PM2.5),193,179,160,145,131,24,,14,13,26,26,12,9,1.4,1.3
2024-01-16T1300,2608A,103.3772,23.3993,红河哈尼族彝族自治州,污水处理厂,,32,23,23,22,18,75,,66,66,6,7,5,5,0.4,0.5
2024-01-16T1300,2609A,103.3861,23.35,红河哈尼族彝族自治州,监测站,,23,20,19,13,13,72,,69,69,13,9,8,8,0.5,0.6
2024-01-16T1300,3038A,103.3758,23.368,红河哈尼族彝族自治州,州图书馆,,24,,14,13,17,74,,66,66,6,8,7,7,0.4,0.5
2024-01-16T1300,1090A,111.6507,40.7517,呼和浩特市,呼市一监,细颗粒物(PM2.5),92,83,61,68,37,43,,17,17,38,57,19,16,0.8,1.1
2024-01-16T1300,1091A,111.6572,40.8033,呼和浩特市,小召,,,83,60,57,27,,,13,13,,69,15,13,1.1,1.3
2024-01-16T1300,1094A,111.7516,40.8369,呼和浩特市,如意水处理厂,细颗粒物(PM2.5),84,112,51,62,27,53,,20,20,33,62,21,15,0.9,1
2024-01-16T1300,1095A,111.7276,40.8062,呼和浩特市,二十九中,细颗粒物(PM2.5),90,81,51,67,28,49,,18,18,32,60,23,16,0.9,1
2024-01-16T1300,1096A,111.5512,40.7866,呼和浩特市,工大金川校区,细颗粒物(PM2.5),85,100,59,63,28,36,,11,11,44,66,14,11,1.0,0.9
2024-01-16T1300,1097A,111.717,40.7612,呼和浩特市,化肥厂生活区,细颗粒物(PM2.5),80,98,58,59,34,40,,19,19,40,55,26,20,1.0,1.4
2024-01-16T1300,3698A,111.5968,40.8178,呼和浩特市,红旗小学,细颗粒物(PM2.5),74,88,64,54,33,39,,15,15,46,70,18,17,1.0,1.1
2024-01-16T1300,3699A,111.6518,40.8389,呼和浩特市,海东办,,,,67,,32,,,6,,,71,24,17,0.7,1.1
2024-01-16T1300,2192A,119.7594,49.2261,呼伦贝尔市,区环保局,,31,31,41,20,33,76,,27,27,11,54,4,5,0.4,0.7
2024-01-16T1300,3061A,119.7512,49.1577,呼伦贝尔市,国华电力东,,34,34,29,22,21,79,,71,71,6,21,5,5,0.2,0.3
2024-01-16T1300,1250A,120.0751,30.8669,湖州市,城西水厂,,44,44,42,19,18,80,,42,42,23,40,5,4,0.2,0.4
2024-01-16T1300,2873A,120.0875,30.8955,湖州市,仁皇山新区,,42,42,40,20,18,78,,50,50,22,39,7,6,0.4,0.5
2024-01-16T1300,2907A,120.1844,30.8596,湖州市,吴兴区站,,39,39,40,17,19,78,,47,47,19,36,5,6,0.4,0.6
2024-01-16T1300,3562A,120.4148,30.8538,湖州市,南浔区站,,28,28,41,12,22,80,,48,48,17,38,6,6,0.3,0.5
2024-01-16T1300,1607A,120.9092,40.7136,葫芦岛市,龙港区,细颗粒物(PM2.5),73,84,104,53,76,38,,17,17,27,47,31,53,0.9,1.4
2024-01-16T1300,1608A,120.8392,40.7514,葫芦岛市,化工街,细颗粒物(PM2.5),83,107,97,61,55,32,,12,12,31,45,23,25,1.5,1.8
2024-01-16T1300,1609A,120.8341,40.7073,葫芦岛市,新区,细颗粒物(PM2.5),82,73,94,60,65,37,,,,34,50,31,22,1.1,1.4
2024-01-16T1300,1610A,120.8695,40.7677,葫芦岛市,东城区,细颗粒物(PM2.5),79,86,89,58,64,24,,10,10,39,50,31,35,1.4,1.6
2024-01-16T1300,2482A,109.5981,27.5721,怀化市,林科所,细颗粒物(PM2.5),78,,71,57,63,27,,34,26,4,4,3,4,0.3,0.3
2024-01-16T1300,2483A,109.9453,27.5444,怀化市,河西地税局,细颗粒物(PM2.5),127,110,116,96,89,23,,34,24,16,14,2,2,1.0,0.9
2024-01-16T1300,2484A,109.9781,27.5342,怀化市,市四医院,细颗粒物(PM2.5),119,109,119,90,88,26,,34,24,13,13,3,3,0.8,0.8
2024-01-16T1300,2485A,109.9972,27.5578,怀化市,监测楼,细颗粒物(PM2.5),115,109,121,87,94,26,,34,26,18,17,4,4,1.0,1
2024-01-16T1300,2486A,110.0394,27.583,怀化市,市委党校,细颗粒物(PM2.5),123,122,128,93,92,23,,31,21,11,11,4,4,0.9,0.9
2024-01-16T1300,1210A,119.036,33.5981,淮安市,钵池山,,31,31,41,20,25,46,,38,38,22,30,5,5,0.4,0.4
2024-01-16T1300,1211A,119.007,33.575,淮安市,北京南路,,34,34,42,19,24,49,,47,46,19,24,6,6,0.5,0.6
2024-01-16T1300,1212A,118.989,33.6067,淮安市,市监测站,,31,31,42,19,24,48,,50,43,25,28,6,6,0.5,0.5
2024-01-16T1300,1213A,119.135,33.5039,淮安市,楚州区监测站,,37,37,44,25,26,47,,41,41,21,31,7,7,0.5,0.4
2024-01-16T1300,1214A,119.0186,33.6297,淮安市,淮阴区监测站,,36,36,54,22,49,51,,34,34,18,35,5,5,0.4,0.5
2024-01-16T1300,3426A,118.8755,33.2894,淮安市,新华书店,,33,33,41,14,19,49,,40,40,22,31,5,5,0.4,0.4
2024-01-16T1300,2282A,116.8004,33.975,淮北市,监测站,,37,37,57,17,29,61,,50,50,16,20,6,6,0.5,0.6
2024-01-16T1300,2283A,116.8091,33.9007,淮北市,烈山区政府,,39,39,55,16,29,66,,57,57,14,21,4,5,0.2,0.3
2024-01-16T1300,3330A,116.8873,33.9836,淮北市,杜集区检察院,,42,42,57,23,32,66,,57,57,19,22,7,7,0.3,0.4
2024-01-16T1300,4017A,116.7923,33.9535,淮北市,市博物馆,,28,28,54,15,25,63,,54,54,18,22,5,6,0.5,0.6
2024-01-16T1300,2277A,116.8305,32.7727,淮南市,潘集区政府,,38,33,57,26,38,48,,45,45,18,24,5,5,0.5,0.5
2024-01-16T1300,2278A,117.0067,32.6524,淮南市,师范学院,,39,39,56,22,35,40,,40,37,30,28,9,10,0.5,0.5
2024-01-16T1300,2279A,116.8569,32.5951,淮南市,谢家集区政府,,39,33,62,27,31,41,,44,40,28,29,4,4,0.4,0.3
2024-01-16T1300,2280A,116.8281,32.633,淮南市,八公山区政府,,40,40,55,21,28,44,,41,41,16,19,7,8,0.4,0.3
2024-01-16T1300,2281A,116.6325,32.6201,淮南市,焦岗湖风景区管理处,,32,29,48,22,28,30,,29,29,23,29,2,2,0.2,0.2
2024-01-16T1300,2894A,117.0566,32.6531,淮南市,经济技术开发区消防队,,33,33,54,6,26,46,,42,41,19,25,4,4,0.4,0.3
2024-01-16T1300,3329A,117.0108,32.5893,淮南市,山南新区,,,37,55,17,28,45,,47,44,,23,4,4,0.6,0.5
2024-01-16T1300,2446A,114.9028,30.4742,黄冈市,职工中心,,,,106,,74,25,,31,28,13,22,,9,0.8,0.8
2024-01-16T1300,2929A,114.8858,30.4519,黄冈市,红卫路,细颗粒物(PM2.5),67,61,101,48,74,26,,32,29,18,20,6,8,0.6,0.8
2024-01-16T1300,3398A,114.9136,30.4445,黄冈市,市林业局,细颗粒物(PM2.5),73,56,95,53,77,25,,32,26,21,33,6,7,0.7,0.9
2024-01-16T1300,2672A,102.0199,35.5102,黄南藏族自治州,同仁县隆务镇,,,,68,,42,,,63,,,20,,13,,0.8
2024-01-16T1300,2295A,118.2903,29.6963,黄山市,延安路89号,颗粒物(PM10),59,68,68,41,47,89,,36,36,12,14,5,5,0.4,0.5
2024-01-16T1300,2296A,118.327,29.7178,黄山市,黄山东路89号,细颗粒物(PM2.5),70,66,68,51,46,84,,34,34,14,20,5,5,0.3,0.4
2024-01-16T1300,2297A,118.1371,30.2756,黄山市,黄山区政府5号楼,,,,84,31,55,73,,26,26,,22,4,3,,0.8
2024-01-16T1300,2423A,115.0601,30.2313,黄石市,沈家营,细颗粒物(PM2.5),63,70,95,45,56,34,,43,33,38,34,13,9,0.7,1
2024-01-16T1300,2424A,115.0817,30.2006,黄石市,陈家湾,细颗粒物(PM2.5),75,70,84,55,60,32,,57,44,46,27,13,11,1.0,0.8
2024-01-16T1300,2426A,114.8988,30.2019,黄石市,铁山,细颗粒物(PM2.5),79,66,88,58,67,24,,56,38,25,18,8,10,0.6,0.7
2024-01-16T1300,2427A,115.0307,30.2092,黄石市,团城山,细颗粒物(PM2.5),63,65,92,45,53,29,,57,46,38,29,8,7,0.8,0.8
2024-01-16T1300,3149A,115.0235,30.1578,黄石市,笔架山北路,细颗粒物(PM2.5),63,65,75,45,47,38,,50,42,34,27,12,8,0.7,0.7
2024-01-16T1300,1392A,114.4183,23.0528,惠州市,河南岸金山湖子站,颗粒物(PM10),51,51,48,32,27,108,,80,78,16,14,5,6,0.6,0.6
2024-01-16T1300,1393A,114.4053,23.0822,惠州市,下埔横江三路子站,颗粒物(PM10),53,55,51,32,26,112,,82,80,16,14,11,11,0.8,0.7
2024-01-16T1300,1394A,114.4103,23.1142,惠州市,江北云山西路子站,颗粒物(PM10),51,51,50,23,23,118,,80,75,13,13,8,8,0.6,0.5
2024-01-16T1300,1395A,114.4645,22.7833,惠州市,惠阳区承修路船湖子站,颗粒物(PM10),53,55,51,33,27,119,,91,91,26,18,12,9,0.7,0.7
2024-01-16T1300,1396A,114.5317,22.7422,惠州市,大亚湾管委会子站,,50,50,59,27,25,119,,89,89,20,26,6,6,0.9,0.8
2024-01-16T1300,3314A,114.4338,22.8134,惠州市,惠阳秋长,颗粒物(PM10),57,63,56,25,25,136,,86,86,20,15,8,7,0.7,0.7
2024-01-16T1300,3452A,114.6517,22.775,惠州市,大亚湾霞涌,,49,48,42,34,32,118,,90,90,10,12,7,8,0.6,0.5
2024-01-16T1300,2240A,130.9762,45.3001,鸡西市,环保局,,27,27,20,14,11,64,,63,58,9,8,8,6,0.6,0.6
2024-01-16T1300,2243A,130.9429,45.3039,鸡西市,第一中学,,23,23,19,11,12,72,,64,64,7,8,9,8,0.2,0.2
2024-01-16T1300,3707A,131.0207,45.3073,鸡西市,欧美日汽修厂,,32,32,26,11,15,59,,53,47,17,15,23,19,1.0,1
2024-01-16T1300,3709A,130.9967,45.3106,鸡西市,市政设施管理处,,32,32,24,13,13,74,,62,56,13,15,4,2,0.5,0.4
2024-01-16T1300,2367A,114.9754,27.0803,吉安市,红声器材厂,细颗粒物(PM2.5),133,154,174,101,122,73,,49,41,33,29,17,18,1.5,1.5
2024-01-16T1300,2368A,114.9658,27.0999,吉安市,市森林工业局,细颗粒物(PM2.5),143,148,164,109,128,69,,40,35,35,32,17,17,0.8,0.9
2024-01-16T1300,2369A,114.99,27.1312,吉安市,市环境监测站,细颗粒物(PM2.5),142,149,164,108,116,65,,40,34,35,30,16,15,1.3,1.4
2024-01-16T1300,2370A,115.0093,27.0968,吉安市,青原区法院,细颗粒物(PM2.5),139,149,161,106,125,72,,46,39,34,31,20,21,1.6,1.6
2024-01-16T1300,1772A,126.54,43.8622,吉林市,哈达湾,,34,34,49,18,29,70,,43,43,16,30,8,10,0.7,0.9
2024-01-16T1300,1773A,126.5844,43.8358,吉林市,东局子,,25,25,56,15,32,72,,41,41,14,36,7,7,0.6,0.9
2024-01-16T1300,1774A,126.5052,43.8245,吉林市,电力学院,,,39,87,22,52,64,,28,28,,40,12,17,0.7,1.4
2024-01-16T1300,1775A,126.6133,43.8972,吉林市,江北,,23,19,75,10,48,71,,48,48,15,36,11,14,0.6,1.1
2024-01-16T1300,1776A,126.555,43.8306,吉林市,江南公园,,33,31,62,23,44,69,,39,39,13,37,10,11,0.6,1
2024-01-16T1300,1778A,126.7061,43.7133,吉林市,丰满,,,,,,,,,,,,,,,,
2024-01-16T1300,2868A,126.4739,43.953,吉林市,九站,,,101,129,71,96,56,,31,31,,54,16,16,0.9,1.3
2024-01-16T1300,1299A,116.9862,36.6114,济南市,科干所,颗粒物(PM10),71,92,63,44,33,22,,36,34,57,48,20,17,1.0,0.9
2024-01-16T1300,1300A,116.9376,36.665,济南市,农科所,颗粒物(PM10),69,88,73,46,34,10,,23,22,58,52,14,15,0.8,0.8
2024-01-16T1300,1301A,117.1265,36.6734,济南市,开发区,颗粒物(PM10),74,98,74,44,34,17,,27,27,58,61,9,12,0.9,0.9
2024-01-16T1300,1303A,117.0624,36.6868,济南市,省种子仓库,颗粒物(PM10),78,105,86,39,32,15,,26,26,54,51,12,11,0.9,1
2024-01-16T1300,1304A,116.9489,36.6447,济南市,机床二厂,"颗粒物(PM10),细颗粒物(PM2.5)",68,85,72,49,37,21,,27,27,50,52,18,20,0.9,0.9
2024-01-16T1300,1305A,117.0495,36.663,济南市,市监测站,颗粒物(PM10),81,112,65,44,31,17,,30,30,67,64,21,15,0.9,0.7
2024-01-16T1300,1306A,116.7675,36.5484,济南市,长清党校,细颗粒物(PM2.5),83,95,66,61,37,36,,38,33,45,48,12,10,0.6,0.6
2024-01-16T1300,1616A,117.6795,36.229,济南市,技术学院,颗粒物(PM10),53,56,80,31,53,44,,25,25,37,53,18,22,1.5,1.7
2024-01-16T1300,1961A,117.532,36.6868,济南市,东山小学,颗粒物(PM10),63,76,66,34,28,35,,41,41,47,50,15,11,0.7,0.6
2024-01-16T1300,3059A,117.7161,36.2049,济南市,泰兴公司,,46,46,91,24,55,51,,24,24,34,62,13,14,1.0,1.4
2024-01-16T1300,3064A,117.6867,36.2171,济南市,莱芜战役纪念馆,颗粒物(PM10),56,61,87,31,54,40,,23,23,44,60,16,19,1.1,1.4
2024-01-16T1300,3494A,117.1673,36.9782,济南市,济阳区政府,,,85,76,44,34,35,,17,17,66,68,21,16,,0.7
2024-01-16T1300,3495A,117.1171,36.63,济南市,锦屏中学,颗粒物(PM10),56,61,48,37,28,34,,47,47,44,33,10,10,0.7,0.6
2024-01-16T1300,3682A,116.9814,36.6819,济南市,济南四建,颗粒物(PM10),78,105,67,49,36,11,,27,27,68,58,19,19,1.1,1
2024-01-16T1300,1653A,116.6251,35.4302,济宁市,火炬城,,45,39,57,31,34,55,,44,44,28,34,4,6,0.6,0.6
2024-01-16T1300,1655A,116.5491,35.4042,济宁市,电化厂,,43,43,58,29,31,60,,52,52,22,30,5,6,0.6,0.6
2024-01-16T1300,3500A,116.5814,35.3707,济宁市,北湖一中,,43,43,54,24,36,56,,46,46,19,27,3,5,0.8,0.7
2024-01-16T1300,3501A,116.8249,35.5593,济宁市,服务中心,,49,49,78,21,39,58,,40,40,19,36,3,6,0.6,0.7
2024-01-16T1300,3678A,116.5907,35.4054,济宁市,市第七中学,,34,34,57,19,33,58,,45,45,23,32,4,6,0.7,0.7
2024-01-16T1300,2255A,130.2751,46.8028,佳木斯市,佳纺,,40,31,40,28,28,75,,64,64,10,22,5,9,0.5,0.7
2024-01-16T1300,2256A,130.3995,46.8307,佳木斯市,发电厂,,31,31,19,21,15,67,,60,60,19,18,13,10,0.6,0.5
2024-01-16T1300,2257A,130.3258,46.7975,佳木斯市,环保局,,43,31,25,30,21,69,,58,58,13,22,7,8,0.4,0.5
2024-01-16T1300,2258A,130.3648,46.8032,佳木斯市,十一中,,40,29,21,28,18,61,,59,56,19,21,6,6,0.6,0.6
2024-01-16T1300,2259A,130.3794,46.7588,佳木斯市,四丰,,29,27,21,20,14,84,,75,75,2,5,1,1,0.3,0.3
2024-01-16T1300,1252A,120.7436,30.778,嘉兴市,清河小学,,33,33,37,9,13,75,,38,38,11,33,8,6,1.0,1.1
2024-01-16T1300,1253A,120.726,30.7478,嘉兴市,嘉兴学院,,25,25,35,2,9,78,,40,39,12,30,8,7,0.5,0.6
2024-01-16T1300,2872A,120.7846,30.7525,嘉兴市,南湖区残联,,28,28,35,10,14,83,,39,39,13,39,8,6,0.4,0.5
2024-01-16T1300,3407A,120.6916,30.7739,嘉兴市,秀洲住建,,28,28,37,9,14,73,,35,35,12,38,8,8,0.4,0.4
2024-01-16T1300,1945A,98.2908,39.7711,嘉峪关市,气象局,颗粒物(PM10),75,100,171,36,45,37,,31,24,44,45,26,9,0.8,0.5
2024-01-16T1300,2884A,98.2672,39.7978,嘉峪关市,酒钢宾馆,,,,181,,45,41,,41,38,44,38,17,22,1.3,0.6
2024-01-16T1300,3248A,98.2643,39.7724,嘉峪关市,雄关区,颗粒物(PM10),59,68,137,14,36,35,,26,23,50,44,17,10,0.9,0.4
2024-01-16T1300,1383A,113.1064,22.6058,江门市,北街,颗粒物(PM10),60,70,58,38,39,136,,80,80,33,41,7,8,0.6,0.6
2024-01-16T1300,1384A,113.0731,22.5835,江门市,西区,颗粒物(PM10),61,71,70,38,36,135,,84,84,31,36,7,7,0.6,0.6
2024-01-16T1300,1385A,113.0219,22.5311,江门市,圭峰西,颗粒物(PM10),57,63,56,34,35,143,,83,83,16,35,7,8,0.5,0.7
2024-01-16T1300,1386A,113.0828,22.5947,江门市,东湖,颗粒物(PM10),64,77,62,39,35,135,,79,79,33,36,8,8,0.5,0.5
2024-01-16T1300,3311A,113.1075,22.5647,江门市,江海富民,颗粒物(PM10),62,74,82,32,38,132,,84,84,32,40,10,9,0.6,0.6
2024-01-16T1300,3449A,113.05,22.4667,江门市,新会银湖,颗粒物(PM10),53,55,52,24,30,122,,75,75,8,27,8,9,0.6,0.7
2024-01-16T1300,1828A,113.227,35.2125,焦作市,市环保局,细颗粒物(PM2.5),72,64,71,52,54,37,,35,35,26,35,4,6,0.6,0.6
2024-01-16T1300,1830A,113.1992,35.2590,焦作市,影视城,,,,,,,,,,,,,,,,
2024-01-16T1300,3169A,113.2725,35.2067,焦作市,太极体育中心,细颗粒物(PM2.5),98,96,73,73,55,37,,36,36,24,34,7,8,0.6,0.7
2024-01-16T1300,3335A,113.3137,35.2641,焦作市,马村街道办,细颗粒物(PM2.5),87,68,68,64,56,43,,36,36,27,42,4,6,0.4,0.6
2024-01-16T1300,3336A,113.2465,35.2373,焦作市,焦作技师学院,细颗粒物(PM2.5),83,62,64,61,54,38,,37,37,27,36,7,7,0.9,0.8
2024-01-16T1300,3477A,113.1656,35.2539,焦作市,中站许衡医院,细颗粒物(PM2.5),52,45,67,36,48,40,,36,36,25,45,8,12,0.1,0.4
2024-01-16T1300,3981A,113.2449,35.1803,焦作市,原李万街道办,细颗粒物(PM2.5),100,90,71,75,52,36,,35,35,23,32,5,7,0.6,0.7
2024-01-16T1300,1708A,116.3701,23.5345,揭阳市,新兴,细颗粒物(PM2.5),63,61,61,45,52,129,,97,97,18,19,13,10,0.8,0.7
2024-01-16T1300,1709A,116.3264,23.5443,揭阳市,西马,"颗粒物(PM10),细颗粒物(PM2.5)",59,67,61,42,48,136,,102,102,17,15,13,9,0.7,0.7
2024-01-16T1300,1710A,116.3611,23.5626,揭阳市,东兴,"颗粒物(PM10),细颗粒物(PM2.5)",64,77,67,46,47,134,,99,99,18,16,16,10,0.9,0.9
2024-01-16T1300,1711A,116.4151,23.5294,揭阳市,渔湖,颗粒物(PM10),51,52,58,34,31,126,,97,97,8,8,10,8,0.7,0.7
2024-01-16T1300,3320A,116.403,23.5699,揭阳市,曲溪,细颗粒物(PM2.5),60,62,62,43,38,133,,99,99,17,16,8,6,0.6,0.6
2024-01-16T1300,1944A,102.1692,38.5167,金昌市,天庆家园,细颗粒物(PM2.5),238,350,168,188,66,80,,31,31,61,41,195,49,1.1,1.2
2024-01-16T1300,3170A,102.1864,38.5253,金昌市,市委党校,颗粒物(PM10),140,230,170,98,59,64,,41,41,40,29,99,26,1.3,1.1
2024-01-16T1300,4022A,102.1647,38.5371,金昌市,金川区人防中心,颗粒物(PM10),149,248,176,113,56,92,,46,46,44,27,162,33,1.3,1.3
2024-01-16T1300,1262A,119.647,29.077,金华市,十五中,,,98,84,55,48,32,,18,18,,51,,2,0.6,0.7
2024-01-16T1300,1263A,119.686,29.1029,金华市,监测站,颗粒物(PM10),79,108,93,55,48,38,,19,19,48,49,4,3,0.7,0.7
2024-01-16T1300,3659A,119.656,29.1131,金华市,气象局,颗粒物(PM10),76,101,89,55,49,33,,19,19,48,50,4,3,0.8,0.7
2024-01-16T1300,1767A,121.1115,41.0879,锦州市,南山,细颗粒物(PM2.5),153,180,97,117,82,26,,11,11,54,48,71,18,1.6,1.3
2024-01-16T1300,1768A,121.0533,40.8434,锦州市,开发区,颗粒物(PM10),105,160,131,71,88,28,,10,10,34,48,37,34,1.2,1.6
2024-01-16T1300,1769A,121.1836,41.1119,锦州市,百股街道,细颗粒物(PM2.5),144,133,91,110,71,29,,11,11,51,49,58,16,1.6,1.6
2024-01-16T1300,1770A,121.1178,41.1222,锦州市,天安街道,细颗粒物(PM2.5),175,186,91,132,68,26,,12,12,55,48,63,19,2.1,1.4
2024-01-16T1300,1771A,121.1303,41.1386,锦州市,北湖公园,细颗粒物(PM2.5),186,177,66,140,56,30,,21,16,59,45,61,17,2.0,1.2
2024-01-16T1300,2160A,112.85,35.5051,晋城市,自来水公司,,24,24,37,14,23,69,,77,62,16,18,3,3,0.5,0.5
2024-01-16T1300,2161A,112.8318,35.4936,晋城市,白云商贸,,32,32,41,12,21,60,,74,59,20,19,2,3,0.7,0.7
2024-01-16T1300,2162A,112.8508,35.4887,晋城市,市环保局,,26,26,41,12,24,67,,72,59,16,17,3,4,0.6,0.6
2024-01-16T1300,2163A,112.8676,35.4897,晋城市,技术学院,,28,28,34,12,19,61,,70,55,23,23,4,5,0.7,0.7
2024-01-16T1300,2165A,112.8453,35.546,晋城市,白马寺,,,,,,,,,,,,,,,,
2024-01-16T1300,3620A,112.8271,35.4828,晋城市,泽州一中,,25,20,33,17,19,61,,72,60,19,19,2,3,0.5,0.8
2024-01-16T1300,2171A,112.7532,37.6945,晋中市,锦纶小区,细颗粒物(PM2.5),119,166,112,90,58,20,,13,13,61,57,18,17,1.3,1
2024-01-16T1300,2173A,112.7249,37.7067,晋中市,南都小区,细颗粒物(PM2.5),95,136,125,71,59,18,,10,10,62,61,19,18,1.2,1.3
2024-01-16T1300,2174A,112.6991,37.6982,晋中市,榆次区政府,细颗粒物(PM2.5),87,109,126,64,67,22,,9,9,58,62,21,20,1.0,1.2
2024-01-16T1300,2865A,112.7195,37.6828,晋中市,榆次三中,细颗粒物(PM2.5),98,144,128,73,58,20,,9,9,59,60,21,16,1.2,1.2
2024-01-16T1300,2439A,112.2014,31.0481,荆门市,竹园小学,细颗粒物(PM2.5),103,104,95,77,63,26,,32,27,30,30,6,9,0.7,0.7
2024-01-16T1300,2440A,112.1969,30.9891,荆门市,掇刀,细颗粒物(PM2.5),102,101,92,76,62,32,,40,33,,21,6,6,,0.7
2024-01-16T1300,2441A,112.2213,31.0386,荆门市,石化一小,细颗粒物(PM2.5),102,106,95,76,64,29,,31,29,27,27,12,14,0.6,0.6
2024-01-16T1300,3012A,112.1849,31.0362,荆门市,西山林语,细颗粒物(PM2.5),103,92,85,77,65,37,,38,36,19,23,6,8,0.7,0.6
2024-01-16T1300,3547A,112.1632,31.0138,荆门市,龙泉中学南校,,,72,94,63,68,,,46,42,15,16,7,11,0.6,1.1
2024-01-16T1300,1844A,112.2494,30.3197,荆州市,市图书馆,细颗粒物(PM2.5),129,,88,98,87,19,,30,26,29,26,7,7,0.9,0.9
2024-01-16T1300,1845A,112.2008,30.3544,荆州市,市委党校,细颗粒物(PM2.5),120,92,95,91,81,22,,29,27,27,28,7,7,0.8,0.8
2024-01-16T1300,3194A,112.2747,30.3122,荆州市,管委会,细颗粒物(PM2.5),125,,85,95,83,22,,32,28,25,24,7,7,1.0,1
2024-01-16T1300,3548A,112.1655,30.3364,荆州市,学苑路,细颗粒物(PM2.5),120,,80,91,79,23,,33,30,34,31,7,8,0.8,0.8
2024-01-16T1300,2342A,117.3102,29.3867,景德镇市,王港中学,,,,,,,,,,,,,,,,
2024-01-16T1300,2343A,117.2117,29.2933,景德镇市,老干部活动中心,细颗粒物(PM2.5),60,54,65,43,64,73,,43,43,14,18,6,5,0.6,1
2024-01-16T1300,2344A,117.1894,29.2789,景德镇市,兽医站,,46,45,73,32,48,74,,45,45,18,20,5,4,0.6,0.9
2024-01-16T1300,2345A,117.1547,29.2617,景德镇市,台达陶瓷,细颗粒物(PM2.5),62,50,65,44,51,76,,45,45,22,22,9,6,0.7,1
2024-01-16T1300,2346A,117.2461,29.2956,景德镇市,陶研所,,47,47,68,21,45,79,,33,33,16,27,3,4,0.5,1
2024-01-16T1300,1803A,115.9872,29.6815,九江市,十里,颗粒物(PM10),61,72,65,37,37,52,,41,35,32,28,13,11,0.8,0.7
2024-01-16T1300,1804A,115.9584,29.7046,九江市,茅山头,,,109,69,56,46,43,,32,27,,32,,15,0.8,0.7
2024-01-16T1300,1805A,115.9877,29.7295,九江市,西园,细颗粒物(PM2.5),64,60,60,46,42,52,,39,38,29,29,10,9,0.7,0.6
2024-01-16T1300,1806A,116.0172,29.6547,九江市,五七二七厂,细颗粒物(PM2.5),68,77,72,49,46,46,,33,29,35,28,17,10,1.1,0.7
2024-01-16T1300,1808A,115.9114,29.6038,九江市,综合工业园,细颗粒物(PM2.5),88,71,72,65,58,43,,28,24,40,37,17,12,0.9,0.5
2024-01-16T1300,1809A,116.0721,29.7535,九江市,石化总厂,颗粒物(PM10),61,71,70,39,40,47,,33,32,33,34,11,10,0.8,0.6
2024-01-16T1300,1810A,115.9773,29.5698,九江市,庐山气象台,,32,,36,22,33,98,,98,98,8,11,8,7,0.9,0.8
2024-01-16T1300,3190A,116.0254,29.6994,九江市,外国语学校,细颗粒物(PM2.5),67,54,59,48,42,44,,34,29,34,30,13,8,0.9,0.6
2024-01-16T1300,2658A,98.5061,39.7443,酒泉市,仓门街子站,颗粒物(PM10),147,244,250,50,58,53,,28,28,33,40,52,18,1.2,0.9
2024-01-16T1300,2659A,98.4989,39.7256,酒泉市,油田生活基地,颗粒物(PM10),146,241,238,60,54,46,,27,27,41,37,61,16,1.5,0.8
2024-01-16T1300,2698A,76.0072,39.4467,喀什地区,巡警大队,颗粒物(PM10),189,328,255,96,87,24,,19,19,86,67,17,12,2.5,2.9
2024-01-16T1300,2699A,75.9755,39.4694,喀什地区,吾办,细颗粒物(PM2.5),199,307,245,149,102,30,,20,20,83,67,20,8,2.9,2.9
2024-01-16T1300,4027A,75.9483,39.4689,喀什地区,老干局,颗粒物(PM10),275,402,263,131,83,24,,23,23,88,56,23,10,4.2,2.8
2024-01-16T1300,1824A,114.3389,34.7781,开封市,肿瘤医院,细颗粒物(PM2.5),79,,62,58,50,32,,34,32,29,28,5,5,0.7,0.7
2024-01-16T1300,1826A,114.2885,34.7965,开封市,世纪星幼儿园,细颗粒物(PM2.5),65,,55,47,43,34,,42,38,32,25,5,6,0.5,0.5
2024-01-16T1300,3147A,114.3438,34.8106,开封市,龙亭公园,细颗粒物(PM2.5),65,,51,47,40,29,,42,39,40,26,3,4,1.2,0.5
2024-01-16T1300,3210A,114.3644,34.7964,开封市,汴京公园,细颗粒物(PM2.5),62,,57,44,40,29,,41,39,42,32,2,3,0.4,0.4
2024-01-16T1300,3473A,114.2485,34.8306,开封市,技师学院,细颗粒物(PM2.5),62,52,52,44,41,32,,44,39,36,26,3,3,0.5,0.5
2024-01-16T1300,3592A,114.4644,34.7556,开封市,祥符区生态环境局,细颗粒物(PM2.5),74,65,77,54,47,44,,38,38,25,30,4,5,0.4,0.4
2024-01-16T1300,1951A,84.895,45.6094,克拉玛依市,长征新村,细颗粒物(PM2.5),72,59,42,52,32,30,,26,20,32,38,9,9,0.6,0.6
2024-01-16T1300,1952A,84.8988,45.5893,克拉玛依市,南林小区,细颗粒物(PM2.5),69,53,50,50,34,37,,20,17,19,32,4,3,0.5,0.5
2024-01-16T1300,1954A,84.905,44.3396,克拉玛依市,独山子区,,26,26,22,16,14,53,,69,59,21,18,5,4,0.5,0.5
2024-01-16T1300,1955A,85.6979,46.098,克拉玛依市,乌尔禾区商贸楼,,32,27,43,22,39,34,,30,28,40,30,6,6,0.6,0.6
2024-01-16T1300,3612A,85.1045,45.6899,克拉玛依市,白碱滩区新站,细颗粒物(PM2.5),58,49,50,41,34,35,,20,19,23,32,9,9,0.6,0.6
2024-01-16T1300,2697A,76.1454,39.7142,克孜勒苏柯尔克孜自治州,市人民政府,颗粒物(PM10),111,172,177,68,60,57,,52,51,18,22,6,6,1.1,1
2024-01-16T1300,3665A,76.1658,39.7157,克孜勒苏柯尔克孜自治州,克州文化中心,颗粒物(PM10),129,207,195,77,56,36,,53,45,47,30,11,10,2.2,1
2024-01-16T1300,1450A,102.8204,24.8886,昆明市,呈贡新区,,22,14,24,6,14,68,,48,46,11,18,6,5,0.5,0.5
2024-01-16T1300,1451A,102.6251,24.9608,昆明市,西山森林公园,,24,14,18,12,12,74,,61,61,14,14,6,8,0.7,0.7
2024-01-16T1300,1452A,102.7252,25.0902,昆明市,龙泉镇,,25,,32,17,21,67,,45,45,16,28,8,8,0.5,0.6
2024-01-16T1300,1453A,102.7266,25.0375,昆明市,东风东路,,,25,28,18,20,57,,44,44,,18,9,9,0.7,0.7
2024-01-16T1300,1454A,102.6742,25.0669,昆明市,金鼎山,,24,17,32,10,16,74,,49,49,18,22,17,17,0.6,0.6
2024-01-16T1300,1455A,102.6644,25.0401,昆明市,碧鸡广场,,28,22,34,19,23,66,,43,43,15,24,9,10,0.6,0.7
2024-01-16T1300,3179A,102.7494,25.0119,昆明市,官渡区博物馆,,20,,22,14,16,63,,51,51,11,13,8,7,0.5,0.5
2024-01-16T1300,3375A,102.8017,24.8336,昆明市,青年创业园,,24,11,22,8,15,74,,51,50,8,13,8,8,0.5,0.5
2024-01-16T1300,3550A,102.7997,24.9786,昆明市,昆明学院,,21,20,28,13,17,67,,43,43,8,14,9,12,0.5,0.6
2024-01-16T1300,3551A,102.5967,24.6736,昆明市,晋宁区生态环境分局,,,16,36,14,21,63,,43,42,8,12,,3,0.6,0.7
2024-01-16T1300,3552A,102.6678,24.9856,昆明市,云天化总部,,22,20,27,14,17,68,,52,52,11,11,3,3,0.7,0.7
2024-01-16T1300,1456A,91.1319,29.6514,拉萨市,八廓街,,23,16,34,11,22,73,,54,54,12,35,6,7,0.3,0.8
2024-01-16T1300,1457A,91.1221,29.6747,拉萨市,市环保局,,22,15,44,6,27,70,,45,45,12,31,5,12,0.5,1.2
2024-01-16T1300,1458A,91.0874,29.6475,拉萨市,区监测站,,22,13,22,6,12,68,,56,56,15,31,4,4,0.4,0.6
2024-01-16T1300,1459A,91.1774,29.6541,拉萨市,西藏大学,,22,19,28,10,18,68,,60,60,14,27,5,6,0.5,0.8
2024-01-16T1300,1460A,90.9798,29.6588,拉萨市,区辐射站,,21,15,23,7,13,67,,60,60,12,23,5,6,0.5,0.6
2024-01-16T1300,1461A,91.0834,29.6292,拉萨市,拉萨火车站,,19,13,22,8,11,58,,43,43,11,26,5,5,0.6,0.6
2024-01-16T1300,2520A,109.2203,23.7256,来宾市,来宾技工学校,颗粒物(PM10),58,65,88,37,50,116,,37,37,14,34,15,14,1.0,1.1
2024-01-16T1300,3535A,109.1781,23.7297,来宾市,兴宾区政府,,40,36,63,28,42,85,,27,27,19,29,8,13,0.7,0.9
2024-01-16T1300,4002A,109.2416,23.7461,来宾市,中南小学,颗粒物(PM10),56,62,89,30,54,123,,40,40,12,36,16,15,0.9,1.1
2024-01-16T1300,1476A,103.631,36.1031,兰州市,兰炼宾馆,颗粒物(PM10),91,132,131,65,72,43,,14,14,66,78,75,50,1.7,1.7
2024-01-16T1300,1477A,104.1373,35.9454,兰州市,榆中兰大校区,,,,,,,,,,,,,,,,
2024-01-16T1300,1478A,103.8412,36.0726,兰州市,生物制品所,细颗粒物(PM2.5),123,169,120,93,62,25,,10,10,108,80,47,20,2.4,1.4
2024-01-16T1300,1479A,103.831,36.0464,兰州市,铁路设计院,细颗粒物(PM2.5),133,170,127,101,70,16,,7,7,126,94,40,27,2.8,2.2
2024-01-16T1300,3186A,103.7158,36.1058,兰州市,教育港,颗粒物(PM10),83,115,122,56,65,36,,12,12,66,79,94,35,1.6,1.4
2024-01-16T1300,3241A,103.7439,36.0842,兰州市,百合公园,颗粒物(PM10),90,129,118,62,60,40,,16,16,66,80,85,32,1.9,1.8
2024-01-16T1300,3242A,103.9611,35.998,兰州市,和平,细颗粒物(PM2.5),169,187,132,128,73,35,,13,13,69,69,50,21,2.8,1.8
2024-01-16T1300,3245A,103.6633,36.533,兰州新区,新区管委会,颗粒物(PM10),76,101,99,39,49,59,,20,20,34,36,35,17,1.0,1.1
2024-01-16T1300,3246A,103.6975,36.4789,兰州新区,舟曲中学,颗粒物(PM10),87,123,122,60,56,50,,17,17,41,44,40,25,1.1,1.1
2024-01-16T1300,1067A,116.6708,39.5111,廊坊市,药材公司,细颗粒物(PM2.5),120,158,118,91,65,11,,6,6,80,67,16,12,1.2,1.1
2024-01-16T1300,1068A,116.7214,39.5589,廊坊市,开发区,细颗粒物(PM2.5),112,151,104,84,59,11,,4,4,92,81,9,8,1.2,1.2
2024-01-16T1300,1070A,116.7244,39.5269,廊坊市,北华航天学院,细颗粒物(PM2.5),118,142,104,89,60,17,,6,6,74,71,17,9,1.1,1.1
2024-01-16T1300,2919A,116.7022,39.5453,廊坊市,河北工业大学,细颗粒物(PM2.5),112,141,102,84,60,12,,6,6,78,66,12,9,1.2,1.1
2024-01-16T1300,2535A,103.7723,29.5462,乐山市,花湖湾,细颗粒物(PM2.5),89,93,131,66,94,13,,34,13,32,26,3,4,0.7,0.8
2024-01-16T1300,2536A,103.7627,29.5844,乐山市,牛耳桥,细颗粒物(PM2.5),73,61,101,53,84,31,,35,17,28,35,4,5,0.9,1
2024-01-16T1300,2537A,103.7508,29.6006,乐山市,市第三水厂,细颗粒物(PM2.5),69,69,113,50,79,33,,40,19,26,35,4,5,0.8,1
2024-01-16T1300,2538A,103.7571,29.5664,乐山市,市监测站,细颗粒物(PM2.5),63,53,97,45,74,34,,36,20,24,25,7,8,0.9,1
2024-01-16T1300,3361A,103.7311,29.5628,乐山市,理工大学,细颗粒物(PM2.5),72,62,113,52,92,26,,38,17,32,29,8,9,0.8,0.9
2024-01-16T1300,2598A,100.2143,26.8576,丽江市,西南郊,,,,,,,,,,,,,,,,
2024-01-16T1300,2599A,100.2497,26.8802,丽江市,丽江古城,,38,38,66,18,45,86,,71,71,17,21,7,8,0.6,0.7
2024-01-16T1300,2600A,100.2203,26.8906,丽江市,市中心,,25,24,50,9,46,79,,59,59,8,17,6,7,0.3,0.7
2024-01-16T1300,1267A,119.914,28.4514,丽水市,监测站大楼,,34,34,69,22,62,84,,43,43,9,25,3,4,0.5,0.8
2024-01-16T1300,1268A,119.93,28.4586,丽水市,莲都小学,,34,34,85,16,59,87,,47,47,15,28,3,4,0.5,0.8
2024-01-16T1300,1269A,119.879,28.4231,丽水市,余庄前,,34,34,77,23,58,73,,36,36,14,24,4,4,0.6,0.9
2024-01-16T1300,1173A,119.176,34.5885,连云港市,市环境监测站,,27,27,47,9,23,51,,42,22,15,32,6,7,0.5,0.8
2024-01-16T1300,3000A,119.3581,34.6972,连云港市,德源药业,,24,24,59,7,22,64,,19,19,10,45,5,7,0.4,0.6
2024-01-16T1300,3007A,119.178,34.844,连云港市,新城一中,颗粒物(PM10),51,51,45,35,30,25,,19,19,56,57,14,11,1.5,1
2024-01-16T1300,3008A,119.3608,34.7519,连云港市,胡沟管理处,,24,24,43,7,14,41,,22,22,40,54,16,14,0.9,0.7
2024-01-16T1300,3009A,119.1478,34.5911,连云港市,矿山设计院,,46,46,55,22,26,34,,27,10,34,58,8,7,0.4,0.8
2024-01-16T1300,3434A,119.2413,34.6539,连云港市,工贸学校,,22,18,46,9,23,68,,38,22,14,28,9,10,0.5,0.7
2024-01-16T1300,3664A,119.4172,34.7341,连云港市,连云街道,,22,20,32,8,14,68,,52,52,12,23,4,6,0.2,0.4
2024-01-16T1300,2571A,102.3431,27.8099,凉山彝族自治州,青龙寺,,29,29,45,8,12,90,,61,61,4,9,5,6,0.7,0.9
2024-01-16T1300,2572A,102.2721,27.8415,凉山彝族自治州,邛海宾馆,,44,44,58,19,32,86,,50,50,7,20,7,11,0.5,0.8
2024-01-16T1300,2573A,102.2625,27.898,凉山彝族自治州,西昌市政府,,27,22,26,14,18,86,,57,55,6,12,10,13,0.6,0.9
2024-01-16T1300,2574A,102.2685,27.8851,凉山彝族自治州,凉山州政府,,28,26,33,19,25,83,,45,43,7,20,9,11,0.5,0.8
2024-01-16T1300,2575A,102.237,27.8914,凉山彝族自治州,长安,,28,23,27,15,18,88,,49,49,12,22,12,18,0.5,0.9
2024-01-16T1300,2212A,123.2,41.1953,辽阳市,宏伟区,颗粒物(PM10),55,59,60,24,37,57,,45,45,22,42,14,24,0.9,1.3
2024-01-16T1300,2213A,123.1683,41.2495,辽阳市,新华园,颗粒物(PM10),62,73,81,32,44,51,,27,27,31,56,13,27,1.1,1.6
2024-01-16T1300,2214A,123.2354,41.2639,辽阳市,滨河路,颗粒物(PM10),53,55,58,28,38,54,,41,41,26,39,12,14,1.0,1.2
2024-01-16T1300,2215A,123.149,41.2991,辽阳市,铁西工业园,颗粒物(PM10),68,86,89,38,82,53,,31,31,30,47,23,18,1.3,1.7
2024-01-16T1300,2227A,125.1358,42.8845,辽源市,环保局,细颗粒物(PM2.5),69,77,62,50,42,63,,30,30,32,38,17,13,1.0,1.2
2024-01-16T1300,3239A,125.0764,42.9078,辽源市,银鹰制药,细颗粒物(PM2.5),60,57,54,43,44,75,,36,36,24,36,24,21,0.8,1.1
2024-01-16T1300,1625A,115.9848,36.4372,聊城市,区政府,细颗粒物(PM2.5),65,59,65,47,38,45,,52,46,22,25,2,5,0.5,0.6
2024-01-16T1300,2878A,116.0072,36.4343,聊城市,聊大东校,细颗粒物(PM2.5),69,59,62,50,45,50,,55,49,17,24,1,7,0.6,0.6
2024-01-16T1300,3200A,115.9819,36.4978,聊城市,监控中心,细颗粒物(PM2.5),62,57,63,44,37,47,,54,50,19,23,4,5,0.6,0.6
2024-01-16T1300,3513A,116.0445,36.4361,聊城市,九州社区,细颗粒物(PM2.5),59,46,60,42,37,52,,50,48,13,25,4,8,0.7,0.7
2024-01-16T1300,4018A,116.0567,36.4608,聊城市,星美广场,细颗粒物(PM2.5),59,44,57,42,37,51,,49,45,20,29,5,7,0.5,0.6
2024-01-16T1300,2632A,94.3681,29.6376,林芝市,林芝监测站,,25,14,8,8,7,79,,68,59,3,5,7,7,0.3,0.3
2024-01-16T1300,2633A,94.3616,29.6616,林芝市,林芝人民医院,,24,9,10,4,6,75,,63,60,6,6,9,9,0.4,0.4
2024-01-16T1300,2603A,100.0781,23.8982,临沧市,市环保局,,39,39,31,15,23,54,,24,23,18,16,13,9,0.5,0.4
2024-01-16T1300,2604A,100.0894,23.8822,临沧市,市气象局,,,42,36,24,27,57,,25,25,15,17,,5,0.4,0.4
2024-01-16T1300,1733A,111.5531,36.0783,临汾市,临钢医院,细颗粒物(PM2.5),196,168,126,147,102,33,,10,10,36,47,8,10,1.9,1.2
2024-01-16T1300,1734A,111.5028,36.0714,临汾市,技工学校,细颗粒物(PM2.5),212,175,118,162,103,23,,14,14,44,44,9,10,2.2,1.3
2024-01-16T1300,1736A,111.5018,36.0855,临汾市,市委,细颗粒物(PM2.5),223,203,126,173,100,26,,15,15,47,48,9,11,2.3,1.5
2024-01-16T1300,3018A,111.505,36.1014,临汾市,唐尧大酒店,细颗粒物(PM2.5),178,142,113,134,94,12,,9,9,47,50,7,11,1.5,1.2
2024-01-16T1300,3668A,111.5036,36.0414,临汾市,城南,细颗粒物(PM2.5),218,184,125,168,105,28,,10,10,43,50,8,9,1.6,1.2
2024-01-16T1300,2667A,103.2069,35.5993,临夏回族自治州,环保局,颗粒物(PM10),53,56,69,26,31,53,,13,13,48,45,25,24,1.7,2.3
2024-01-16T1300,2668A,103.2417,35.6057,临夏回族自治州,建设大厦,颗粒物(PM10),58,65,78,19,26,62,,29,29,38,29,19,16,1.6,1.5
2024-01-16T1300,1618A,118.3429,35.0532,临沂市,沂河小区,细颗粒物(PM2.5),85,75,69,63,49,30,,28,28,42,46,6,8,1.0,0.7
2024-01-16T1300,1619A,118.295,35.0583,临沂市,鲁南制药厂,细颗粒物(PM2.5),79,63,70,58,47,38,,27,27,39,46,9,13,1.2,1
2024-01-16T1300,1620A,118.2794,34.9976,临沂市,新光毛纺厂,,,68,68,55,42,32,,28,28,,54,7,11,,0.8
2024-01-16T1300,1621A,118.3956,35.0888,临沂市,河东保险公司,细颗粒物(PM2.5),87,78,80,64,56,28,,14,14,45,57,9,9,1.4,1
2024-01-16T1300,3370A,118.3564,35.0215,临沂市,十里堡居委,细颗粒物(PM2.5),79,63,65,58,46,33,,30,30,42,43,4,7,1.3,0.9
2024-01-16T1300,3496A,118.3604,35.1084,临沂市,南坊新区,细颗粒物(PM2.5),85,75,74,63,51,35,,,,39,57,9,10,1.2,0.9
2024-01-16T1300,3860A,118.3920,35.0300,临沂市,皇山花园小区,细颗粒物(PM2.5),75,70,71,55,46,33,,23,23,47,49,9,11,1.3,1
2024-01-16T1300,1870A,109.4856,24.3895,柳州市,柳东小学,细颗粒物(PM2.5),73,70,69,53,58,122,,50,50,20,28,11,17,0.7,0.9
2024-01-16T1300,1871A,109.4157,24.3277,柳州市,环保监测站,颗粒物(PM10),55,59,75,36,53,126,,48,48,22,40,11,10,0.9,1.3
2024-01-16T1300,1872A,109.389,24.341,柳州市,河西水厂,颗粒物(PM10),59,68,96,41,58,129,,36,36,12,37,11,10,0.9,1.3
2024-01-16T1300,1873A,109.4311,24.2921,柳州市,市四中,颗粒物(PM10),61,71,87,27,53,129,,49,49,20,47,11,11,0.9,1.3
2024-01-16T1300,1874A,109.4006,24.3631,柳州市,市九中,颗粒物(PM10),54,57,81,34,57,124,,50,50,14,28,8,7,0.7,1
2024-01-16T1300,1875A,109.4958,24.3134,柳州市,古亭山,颗粒物(PM10),62,74,78,34,47,122,,46,46,18,34,13,15,0.8,1
2024-01-16T1300,3402A,109.5422,24.3996,柳州市,市二中,颗粒物(PM10),71,92,79,47,58,104,,44,44,27,33,17,22,1.1,1.1
2024-01-16T1300,2307A,116.5079,31.737,六安市,监测大楼,,50,39,51,35,36,19,,22,14,37,37,4,5,0.8,0.6
2024-01-16T1300,2308A,116.4738,31.7643,六安市,皖西学院,颗粒物(PM10),51,51,65,30,32,24,,22,17,34,37,3,5,0.7,0.6
2024-01-16T1300,2309A,116.4996,31.7905,六安市,朝阳厂,细颗粒物(PM2.5),67,,57,48,38,20,,20,14,30,32,5,6,0.7,0.5
2024-01-16T1300,2310A,116.5567,31.7886,六安市,开发区,,48,46,66,33,36,26,,20,17,35,38,3,4,0.6,0.4
2024-01-16T1300,2576A,104.8,26.5892,六盘水市,窑上,,,,,,,,,,,,,,,,
2024-01-16T1300,2577A,104.83,26.5917,六盘水市,黄土坡,,26,12,29,11,20,82,,62,62,6,11,6,8,0.4,0.6
2024-01-16T1300,2578A,104.89,26.5939,六盘水市,水钢,,31,31,28,14,20,85,,63,63,6,8,5,4,0.4,0.5
2024-01-16T1300,2579A,104.8475,26.5894,六盘水市,民中,,25,18,29,9,19,80,,56,56,5,10,7,7,0.5,0.7
2024-01-16T1300,2580A,104.9544,26.5506,六盘水市,双水,,,19,27,4,17,75,,62,62,6,8,7,6,,0.5
2024-01-16T1300,2335A,117.0189,25.1181,龙岩市,龙岩师专,,,,,,,,,,,,,,,,
2024-01-16T1300,2336A,117.0217,25.1033,龙岩市,龙岩市监测站,细颗粒物(PM2.5),63,58,50,45,36,103,,64,64,11,29,8,9,0.6,0.7
2024-01-16T1300,2337A,117.0258,25.0661,龙岩市,闽西职业技术学院,细颗粒物(PM2.5),69,59,62,50,48,98,,56,56,12,24,9,9,0.8,0.8
2024-01-16T1300,2338A,117.0196,25.0306,龙岩市,龙岩学院,细颗粒物(PM2.5),73,60,48,53,41,94,,48,48,15,19,7,6,0.7,0.6
2024-01-16T1300,2665A,105.0822,33.3261,陇南市,汉王镇固水子,,,,,,,,,,,,,,,,
2024-01-16T1300,2885A,104.9339,33.3826,陇南市,滨江中学,"颗粒物(PM10),细颗粒物(PM2.5)",55,59,69,39,41,55,,29,23,21,29,9,23,0.3,0.4
2024-01-16T1300,3247A,104.955,33.371,陇南市,市总工会,细颗粒物(PM2.5),58,58,67,41,41,58,,35,28,15,23,7,11,0.6,0.7
2024-01-16T1300,2487A,111.9589,27.8901,娄底市,电视发射台,细颗粒物(PM2.5),130,133,105,99,79,15,,14,14,27,27,4,4,1.6,1.5
2024-01-16T1300,2488A,111.9975,27.725,娄底市,市监测站,细颗粒物(PM2.5),169,158,114,128,95,12,,14,11,,23,7,5,1.0,0.8
2024-01-16T1300,2489A,112.0194,27.7314,娄底市,市委党校,细颗粒物(PM2.5),145,158,117,111,93,12,,14,12,37,36,4,3,0.9,0.8
2024-01-16T1300,2490A,111.9561,27.7569,娄底市,涟钢,细颗粒物(PM2.5),137,137,113,104,90,16,,14,10,28,29,4,5,1.2,1
2024-01-16T1300,2491A,111.9892,27.7044,娄底市,市政府,细颗粒物(PM2.5),163,156,118,124,95,16,,18,15,34,34,,4,0.8,0.8
2024-01-16T1300,1893A,105.4324,28.9634,泸州市,九狮山,细颗粒物(PM2.5),80,94,142,59,99,50,,31,29,25,32,10,6,0.8,0.8
2024-01-16T1300,1894A,105.4427,28.9063,泸州市,小市上码头,细颗粒物(PM2.5),99,97,139,74,111,30,,39,30,30,24,6,6,0.9,0.9
2024-01-16T1300,1895A,105.4241,28.8573,泸州市,兰田宪桥,细颗粒物(PM2.5),122,106,142,92,117,37,,39,29,25,30,4,6,0.7,0.7
2024-01-16T1300,1896A,105.4379,28.8833,泸州市,市环监站,细颗粒物(PM2.5),108,93,128,81,111,32,,39,26,28,23,6,6,0.5,0.5
2024-01-16T1300,3490A,105.3617,28.7703,泸州市,纳溪区环保局,细颗粒物(PM2.5),104,87,131,78,112,52,,28,28,18,35,6,6,0.9,1.1
2024-01-16T1300,2183A,111.1406,37.5211,吕梁市,环保局,细颗粒物(PM2.5),99,105,98,74,54,26,,9,9,45,58,10,15,1.0,1
2024-01-16T1300,2185A,111.1297,37.5136,吕梁市,自来水公司,,,,98,,51,36,,14,14,42,55,9,15,1.0,0.9
2024-01-16T1300,2867A,111.1283,37.51,吕梁市,马茂庄小学,细颗粒物(PM2.5),109,97,113,82,59,26,,9,9,41,56,7,14,0.7,0.8
2024-01-16T1300,1812A,112.3931,34.6516,洛阳市,市委党校,,,,59,,51,17,,27,19,38,33,,6,0.7,0.8
2024-01-16T1300,1814A,112.4657,34.6871,洛阳市,豫西宾馆,细颗粒物(PM2.5),84,80,64,62,49,19,,21,17,34,33,4,6,0.7,0.6
2024-01-16T1300,1815A,112.494,34.6886,洛阳市,河南林校,细颗粒物(PM2.5),93,78,58,69,51,17,,15,12,35,35,5,6,0.8,0.8
2024-01-16T1300,1816A,112.3844,34.623,洛阳市,开发区管委会,细颗粒物(PM2.5),99,89,55,74,48,22,,23,20,36,36,3,3,0.7,0.6
2024-01-16T1300,1817A,112.4267,34.6258,洛阳市,市委新办公区,细颗粒物(PM2.5),123,99,56,93,57,21,,23,19,34,32,3,4,1.0,0.9
2024-01-16T1300,3340A,112.6005,34.6326,洛阳市,伊滨,细颗粒物(PM2.5),149,134,82,114,60,21,,16,16,31,33,1,3,0.9,0.9
2024-01-16T1300,3341A,112.4951,34.6332,洛阳市,中移产业园,细颗粒物(PM2.5),130,104,63,99,58,18,,19,16,37,35,3,5,1.0,0.9
2024-01-16T1300,3593A,112.5736,34.8993,洛阳市,吉利监测站,细颗粒物(PM2.5),104,,52,78,52,28,,16,16,31,38,2,4,0.6,0.7
2024-01-16T1300,3635A,112.3677,34.662,洛阳市,河科大西苑校区,细颗粒物(PM2.5),79,71,56,58,48,21,,21,15,36,35,1,3,0.6,0.6
2024-01-16T1300,3636A,112.4388,34.6781,洛阳市,英才小学,,,,49,,47,,,22,,,29,,4,,0.8
2024-01-16T1300,2399A,114.051,33.5699,漯河市,三五一五工厂,,,76,92,62,71,32,,30,30,,28,4,6,0.4,0.4
2024-01-16T1300,2400A,114.0055,33.5698,漯河市,漯河大学,细颗粒物(PM2.5),89,75,89,66,66,33,,32,32,20,26,4,5,0.5,0.4
2024-01-16T1300,2401A,114.0138,33.5828,漯河市,市水利局,细颗粒物(PM2.5),85,75,94,63,69,35,,33,33,16,23,6,7,0.5,0.5
2024-01-16T1300,2402A,114.0261,33.5698,漯河市,市广电局,,,,97,,71,,,38,,,26,,3,,0.4
2024-01-16T1300,3478A,113.9749,33.5664,漯河市,市图书馆,细颗粒物(PM2.5),90,75,95,67,68,29,,27,27,20,27,4,5,0.7,0.7
2024-01-16T1300,3479A,114.0967,33.5906,漯河市,召陵区卫健委,细颗粒物(PM2.5),85,71,100,63,72,36,,32,32,14,24,5,6,0.6,0.6
2024-01-16T1300,1798A,118.5092,31.6837,马鞍山市,湖东路四小,,31,31,44,14,20,67,,50,50,21,32,7,7,0.4,0.5
2024-01-16T1300,1799A,118.5024,31.6449,马鞍山市,开发区,,36,36,43,18,22,68,,44,44,19,31,9,9,0.5,0.6
2024-01-16T1300,1800A,118.5228,31.7231,马鞍山市,慈湖,,28,28,41,18,26,65,,48,48,25,35,8,8,0.6,0.7
2024-01-16T1300,1802A,118.6245,31.7241,马鞍山市,濮塘,,37,37,42,14,22,67,,50,50,13,24,5,4,0.4,0.5
2024-01-16T1300,3633A,118.4918,31.6809,马鞍山市,雨山,,31,31,45,16,21,69,,50,50,18,27,7,8,0.5,0.6
2024-01-16T1300,1686A,111.0286,21.4688,茂名市,电白南海,颗粒物(PM10),56,61,45,19,20,92,,102,90,16,21,8,11,0.4,0.4
2024-01-16T1300,1687A,110.9294,21.6533,茂名市,茂石化七小,,46,46,51,24,26,98,,98,91,11,14,8,11,0.5,0.5
2024-01-16T1300,1688A,110.9107,21.6687,茂名市,健康路,,46,46,44,17,20,97,,102,91,8,13,5,9,0.5,0.5
2024-01-16T1300,1689A,110.8592,21.6828,茂名市,高岭,,48,48,53,27,23,90,,96,85,17,24,17,16,0.7,0.7
2024-01-16T1300,3450A,111.01,21.5165,茂名市,电白水东,,44,44,41,22,20,96,,97,86,11,18,5,8,0.5,0.4
2024-01-16T1300,2539A,104.0308,30.0478,眉山市,黑龙滩水库,颗粒物(PM10),62,73,91,43,59,34,,40,26,22,15,7,8,0.7,0.8
2024-01-16T1300,2540A,103.8416,30.0874,眉山市,气象局,细颗粒物(PM2.5),55,52,92,39,75,50,,18,18,16,39,18,9,0.9,1
2024-01-16T1300,3137A,103.8578,30.0744,眉山市,市委党校,细颗粒物(PM2.5),58,61,98,41,76,47,,24,19,22,37,24,12,0.7,0.7
2024-01-16T1300,3148A,103.8291,30.0564,眉山市,区人社局,细颗粒物(PM2.5),52,,78,36,76,46,,24,19,22,44,11,12,0.9,1
2024-01-16T1300,1690A,116.1231,24.3284,梅州市,梅江月梅,细颗粒物(PM2.5),58,52,48,41,42,104,,71,71,13,18,7,8,0.6,0.6
2024-01-16T1300,1691A,116.0797,24.2719,梅州市,梅县新城,,49,36,56,34,44,105,,57,57,10,37,4,5,0.8,0.9
2024-01-16T1300,1692A,116.1248,24.2654,梅州市,环境监控中心,细颗粒物(PM2.5),53,43,52,37,42,98,,64,64,12,44,4,6,0.7,0.7
2024-01-16T1300,3315A,116.1233,24.2991,梅州市,梅龙,,38,29,55,26,38,101,,80,80,10,18,5,8,0.7,0.7
2024-01-16T1300,1878A,104.7778,31.4741,绵阳市,富乐山,,32,32,37,22,30,64,,59,55,16,17,6,7,0.8,0.8
2024-01-16T1300,1879A,104.7563,31.4535,绵阳市,市人大,,46,46,48,29,32,59,,55,46,18,20,4,6,0.7,0.7
2024-01-16T1300,1880A,104.6697,31.4668,绵阳市,高新区自来水公司,,46,46,50,26,29,52,,51,50,25,22,7,7,1.0,0.9
2024-01-16T1300,1881A,104.7287,31.5075,绵阳市,三水厂,,38,29,48,26,34,63,,54,54,17,19,5,6,0.7,0.7
2024-01-16T1300,3491A,104.69,31.5322,绵阳市,西科大附属小学,,46,46,50,28,31,54,,41,40,23,26,6,6,0.9,0.8
2024-01-16T1300,3492A,104.5648,31.5343,绵阳市,安州区旅游局,,40,40,59,21,35,51,,36,36,26,31,9,8,0.9,1
2024-01-16T1300,1784A,129.61,44.561,牡丹江市,环保大楼,,30,30,33,18,21,67,,50,48,21,19,13,11,0.5,0.4
2024-01-16T1300,1785A,129.6115,44.5782,牡丹江市,文化广场,,48,48,38,33,29,61,,45,42,23,21,15,12,0.7,0.7
2024-01-16T1300,1786A,129.5904,44.5963,牡丹江市,第一医院,,43,35,36,30,33,58,,37,37,23,23,13,11,0.8,0.7
2024-01-16T1300,1787A,129.6364,44.6075,牡丹江市,机车工厂,,30,30,44,21,30,58,,32,32,22,28,12,11,0.6,0.6
2024-01-16T1300,1788A,129.6386,44.5462,牡丹江市,第一中学,,32,24,32,22,25,69,,45,45,12,16,13,11,0.6,0.6
2024-01-16T1300,2531A,105.0703,29.61,内江市,市监测站,细颗粒物(PM2.5),77,57,96,56,101,31,,36,24,20,22,7,9,0.7,0.7
2024-01-16T1300,2532A,105.0717,29.5947,内江市,东兴区政府,细颗粒物(PM2.5),70,58,100,51,90,29,,34,24,16,16,9,11,0.7,0.7
2024-01-16T1300,2533A,105.0653,29.5817,内江市,内江二中,细颗粒物(PM2.5),70,,100,51,102,31,,36,26,25,24,8,9,0.9,0.9
2024-01-16T1300,2534A,105.0406,29.5822,内江市,内江日报社,细颗粒物(PM2.5),59,49,101,42,89,40,,36,27,20,27,7,9,0.8,0.9
2024-01-16T1300,2628A,92.0657,31.4846,那曲市,那曲监测站,,34,34,35,16,17,77,,58,52,6,10,7,6,0.6,1.1
2024-01-16T1300,3128A,92.0506,31.4797,那曲市,那曲会议中心,,23,23,23,6,8,68,,52,44,6,9,7,6,0.5,0.5
2024-01-16T1300,1290A,115.8931,28.6843,南昌市,省外办,细颗粒物(PM2.5),107,114,138,80,80,67,,33,33,23,29,10,8,1.0,1
2024-01-16T1300,1291A,115.8886,28.7003,南昌市,省林业公司,细颗粒物(PM2.5),92,90,124,68,72,63,,31,31,28,33,11,10,0.9,0.9
2024-01-16T1300,1292A,115.8126,28.7442,南昌市,林科所,细颗粒物(PM2.5),100,97,125,75,76,70,,36,36,24,30,9,7,1.0,0.8
2024-01-16T1300,1294A,115.8518,28.687,南昌市,建工学校,细颗粒物(PM2.5),82,85,127,60,66,64,,34,34,21,28,14,10,0.9,0.9
2024-01-16T1300,1295A,115.8921,28.6424,南昌市,象湖,细颗粒物(PM2.5),103,88,109,77,76,63,,31,31,24,29,13,9,1.3,1.1
2024-01-16T1300,1296A,115.7423,28.7996,南昌市,武术学校,细颗粒物(PM2.5),77,59,86,56,58,59,,33,33,23,16,14,10,1.0,1
2024-01-16T1300,1298A,115.9314,28.6842,南昌市,省站,细颗粒物(PM2.5),99,98,123,74,70,72,,34,34,14,22,13,12,0.9,0.9
2024-01-16T1300,3046A,115.9084,28.6062,南昌市,机电学校,细颗粒物(PM2.5),110,118,132,83,78,71,,35,35,21,29,16,13,0.9,0.8
2024-01-16T1300,3690A,115.9721,28.7031,南昌市,外国语学校,,,97,121,60,65,74,,36,36,,27,,11,0.4,0.6
2024-01-16T1300,1905A,106.056,30.8064,南充市,西山风景区,,32,,49,22,44,24,,26,24,12,16,3,10,0.8,0.9
2024-01-16T1300,1906A,106.0789,30.8023,南充市,南充市委,,33,33,60,9,52,25,,20,20,18,21,4,4,0.8,0.9
2024-01-16T1300,1907A,106.1031,30.8217,南充市,南充炼油厂,,29,29,72,18,58,26,,25,20,11,17,3,4,0.6,0.8
2024-01-16T1300,1908A,106.1064,30.7856,南充市,高坪区监测站,,28,21,64,19,57,23,,25,21,18,19,5,6,0.5,0.6
2024-01-16T1300,1909A,106.0642,30.7636,南充市,嘉陵区环保局,,29,29,68,9,54,22,,23,19,16,20,2,4,0.7,0.8
2024-01-16T1300,1910A,106.1087,30.8388,南充市,市环境监测站,,,,67,23,53,28,,26,26,,12,5,5,0.6,0.7
2024-01-16T1300,1151A,118.8086,32.1065,南京市,迈皋桥,,41,41,47,9,17,60,,54,54,11,23,4,3,0.2,0.3
2024-01-16T1300,1152A,118.7538,32.0551,南京市,草场门,,36,36,39,5,15,63,,54,54,24,35,3,4,0.2,0.4
2024-01-16T1300,1153A,118.7794,32.0745,南京市,山西路,,39,39,41,17,23,68,,61,61,20,30,5,7,0.2,0.4
2024-01-16T1300,1154A,118.7752,32.0023,南京市,中华门,,,,40,9,15,61,,52,52,,32,,10,0.3,0.4
2024-01-16T1300,1155A,118.8109,32.0309,南京市,瑞金路,,39,39,42,12,18,62,,52,52,18,29,4,4,0.5,0.7
2024-01-16T1300,1156A,118.7997,32.0754,南京市,玄武湖,,39,39,45,9,15,63,,57,57,14,25,7,8,0.3,0.5
2024-01-16T1300,1157A,118.6414,32.0931,南京市,浦口,,43,43,49,12,21,60,,54,54,33,43,4,5,0.7,0.8
2024-01-16T1300,1158A,118.7356,31.9996,南京市,奥体中心,,41,41,45,12,18,67,,56,56,18,29,5,6,0.5,0.6
2024-01-16T1300,1159A,118.9125,32.1028,南京市,仙林大学城,,36,36,39,7,12,60,,58,58,16,26,4,4,0.4,0.5
2024-01-16T1300,3422A,118.8436,31.9198,南京市,江宁彩虹桥,,39,39,46,9,17,69,,51,51,22,33,5,6,0.1,0.3
2024-01-16T1300,3423A,119.0138,31.6494,南京市,溧水永阳,,29,29,40,9,25,70,,56,56,16,27,4,4,0.4,0.4
2024-01-16T1300,3424A,118.879,31.3302,南京市,高淳老职中,,25,22,47,17,28,72,,50,50,17,30,6,6,0.7,0.8
2024-01-16T1300,3427A,118.8554,32.3578,南京市,六合雄州,,36,36,44,6,16,55,,48,48,29,19,3,2,0.7,0.7
2024-01-16T1300,1401A,108.3103,22.7881,南宁市,二十一中,,33,32,45,16,26,103,,60,60,10,31,7,8,0.8,1
2024-01-16T1300,1402A,108.3141,22.8528,南宁市,北湖,,40,40,66,14,37,102,,42,42,9,32,5,7,0.7,1.1
2024-01-16T1300,1403A,108.3206,22.8225,南宁市,市监测站,,36,36,46,18,30,106,,63,63,12,39,7,8,0.7,0.9
2024-01-16T1300,1404A,108.3829,22.8037,南宁市,大自然花园,,39,39,39,17,22,98,,55,55,8,22,6,8,0.5,0.7
2024-01-16T1300,1405A,108.4394,22.7904,南宁市,仙葫,,32,30,52,16,29,100,,38,38,4,35,4,5,0.4,0.6
2024-01-16T1300,1406A,108.2397,22.8467,南宁市,区农职院,,45,45,51,15,23,98,,44,44,17,35,8,8,0.6,0.8
2024-01-16T1300,1407A,108.3275,22.735,南宁市,英华嘉园,,37,37,59,15,27,87,,40,40,18,50,6,6,0.6,0.9
2024-01-16T1300,1408A,108.2257,22.7757,南宁市,沙井镇街道办,颗粒物(PM10),53,55,78,15,31,98,,41,41,11,47,9,10,0.5,0.7
2024-01-16T1300,3401A,108.4834,22.7618,南宁市,红星社区,,30,30,46,15,26,93,,40,40,8,26,8,8,0.7,0.9
2024-01-16T1300,2331A,118.0966,26.6761,南平市,茫荡山,,,,,,,,,,,,,,,,
2024-01-16T1300,2332A,118.1681,26.6369,南平市,南平市监测站,,36,26,59,25,49,74,,80,77,15,25,4,5,0.8,1
2024-01-16T1300,2333A,118.1825,26.6489,南平市,南平铝业有限公司,,26,19,46,18,45,70,,73,70,14,23,5,7,0.8,0.9
2024-01-16T1300,2334A,118.1756,26.6272,南平市,南平七中,,38,30,50,26,43,78,,86,83,13,21,5,7,0.6,0.8
2024-01-16T1300,1168A,120.9098,31.9663,南通市,狼山街道,,,29,34,9,18,74,,31,31,,31,,7,0.4,0.5
2024-01-16T1300,1169A,120.86,32.0005,南通市,虹桥,,28,28,34,9,16,70,,42,42,15,27,3,4,0.5,0.6
2024-01-16T1300,1170A,120.87,32.02,南通市,城中,,25,25,38,5,14,72,,39,39,15,31,6,6,0.4,0.5
2024-01-16T1300,1171A,120.94,31.93,南通市,星湖花园,,23,19,31,7,14,71,,38,38,15,33,4,4,0.3,0.4
2024-01-16T1300,1172A,120.81,32.0417,南通市,紫琅学院,,22,21,33,3,13,69,,36,36,19,37,5,6,0.3,0.3
2024-01-16T1300,3291A,121.067,32.062,南通市,通州监测站,,24,24,30,7,13,76,,56,56,10,16,7,6,0.5,0.4
2024-01-16T1300,3432A,120.9348,31.9883,南通市,环境教育馆,,23,19,38,4,18,72,,31,31,8,37,6,6,0.4,0.5
2024-01-16T1300,2404A,112.5224,33.0122,南阳市,瓦房庄,细颗粒物(PM2.5),80,63,77,59,61,32,,32,27,23,28,8,9,0.4,0.5
2024-01-16T1300,2405A,112.5003,32.9735,南阳市,汉画馆,细颗粒物(PM2.5),90,75,86,67,64,32,,36,30,21,25,3,5,0.6,0.6
2024-01-16T1300,2406A,112.5573,33.027,南阳市,气象站,细颗粒物(PM2.5),85,67,80,63,64,32,,29,29,28,34,3,4,0.5,0.6
2024-01-16T1300,2407A,112.5481,32.9689,南阳市,理工学院,细颗粒物(PM2.5),72,63,78,52,55,33,,33,30,22,26,4,6,0.4,0.5
2024-01-16T1300,4008A,112.5234,32.9922,南阳市,卧龙区政府,细颗粒物(PM2.5),82,68,80,60,59,29,,33,26,32,34,7,9,0.6,0.7
2024-01-16T1300,1234A,121.8358,29.911,宁波市,区环保大楼,,25,25,32,10,12,66,,31,26,19,35,5,6,0.4,0.4
2024-01-16T1300,1235A,121.56,29.82,宁波市,万里学院,,,21,33,5,9,76,,33,33,8,30,,6,0.3,0.6
2024-01-16T1300,1236A,121.713,29.9572,宁波市,龙赛医院,,21,21,34,11,10,60,,37,21,27,34,4,4,0.5,0.5
2024-01-16T1300,1239A,121.633,29.7733,宁波市,钱湖水厂,,24,14,30,9,14,76,,47,47,8,20,7,8,0.3,0.4
2024-01-16T1300,1240A,121.5856,29.8635,宁波市,太古小学,,24,20,30,9,11,74,,36,36,14,28,6,6,0.6,0.7
2024-01-16T1300,1241A,121.524,29.8674,宁波市,市环境监测中心,,23,22,32,9,12,73,,37,37,12,27,6,6,0.4,0.5
2024-01-16T1300,2871A,121.6147,29.9017,宁波市,万里国际学校,,,31,35,13,14,66,,41,32,,29,7,7,,0.8
2024-01-16T1300,3710A,121.5594,29.8975,宁波市,白沙活动中心,,22,17,37,6,11,70,,42,40,13,26,8,7,0.4,0.4
2024-01-16T1300,2339A,119.5001,26.6946,宁德市,金涵水库,,,,,,,,,,,,,,,,
2024-01-16T1300,2341A,119.5388,26.6612,宁德市,宁德市监测站,颗粒物(PM10),54,58,56,31,56,67,,60,57,22,16,14,5,0.8,0.7
2024-01-16T1300,3209A,119.5231,26.6562,宁德市,宁德一中,颗粒物(PM10),54,57,59,32,52,75,,65,64,18,13,10,4,0.8,0.8
2024-01-16T1300,2618A,98.8601,25.8567,怒江傈僳族自治州,州监测站,,32,32,35,19,22,68,,41,41,16,19,8,8,0.5,0.5
2024-01-16T1300,2619A,98.8546,25.8417,怒江傈僳族自治州,泸水一中,,36,36,40,25,25,62,,27,27,12,28,8,8,0.4,0.6
2024-01-16T1300,1888A,101.6891,26.571,攀枝花市,弄弄坪,颗粒物(PM10),54,58,72,34,42,44,,15,15,57,55,56,39,2.7,2.8
2024-01-16T1300,1889A,101.5769,26.5928,攀枝花市,河门口,颗粒物(PM10),52,53,56,27,27,55,,25,25,34,33,15,18,0.9,1.1
2024-01-16T1300,1890A,101.7169,26.585,攀枝花市,炳草岗,颗粒物(PM10),59,67,72,35,35,49,,14,14,54,57,51,28,2.8,2.3
2024-01-16T1300,1891A,101.7369,26.5008,攀枝花市,仁和,颗粒物(PM10),53,56,54,36,33,73,,23,23,43,40,66,21,4.1,1.9
2024-01-16T1300,2835A,101.7227,26.567,攀枝花市,四十中小,,,87,71,46,43,40,,14,14,71,62,42,27,,2.9
2024-01-16T1300,1604A,122.0303,41.1489,盘锦市,开发区,细颗粒物(PM2.5),70,81,106,51,68,35,,16,16,46,70,18,25,1.2,2
2024-01-16T1300,1605A,122.0485,41.0883,盘锦市,兴隆台,,,103,98,62,58,,,15,15,52,61,14,24,1.2,1.8
2024-01-16T1300,1606A,121.8297,41.1028,盘锦市,新生街道,细颗粒物(PM2.5),83,72,74,61,46,32,,16,16,42,48,15,12,1.2,1.2
2024-01-16T1300,1832A,113.3257,33.742,平顶山市,新华旅馆,,,69,118,45,64,,,32,32,19,25,5,8,0.7,0.8
2024-01-16T1300,1833A,113.2919,33.737,平顶山市,规划设计院,细颗粒物(PM2.5),93,74,84,69,64,34,,37,37,19,27,7,9,0.6,0.6
2024-01-16T1300,1834A,113.182,33.774,平顶山市,平顶山工学院,细颗粒物(PM2.5),100,80,90,75,61,35,,38,38,23,31,4,6,0.6,0.7
2024-01-16T1300,3204A,113.3025,33.73,平顶山市,规划局,细颗粒物(PM2.5),92,88,94,68,65,33,,35,35,22,28,5,7,0.7,0.7
2024-01-16T1300,3594A,112.8867,33.9116,平顶山市,石龙区,细颗粒物(PM2.5),97,74,80,72,66,43,,45,45,17,26,4,7,0.5,0.6
2024-01-16T1300,2656A,106.6692,35.5461,平凉市,聚贤嘉苑,细颗粒物(PM2.5),143,133,118,109,85,52,,27,27,25,33,11,9,1.2,1.2
2024-01-16T1300,2657A,106.7021,35.5307,平凉市,博物馆,细颗粒物(PM2.5),135,136,130,103,84,51,,28,28,22,29,11,9,1.1,1
2024-01-16T1300,2347A,114.0997,27.5002,萍乡市,武功山,细颗粒物(PM2.5),153,145,154,117,128,61,,48,48,18,18,8,8,1.2,1.2
2024-01-16T1300,2348A,113.8385,27.6434,萍乡市,中医院,细颗粒物(PM2.5),163,,180,124,141,48,,18,18,34,43,22,19,1.8,2
2024-01-16T1300,2349A,113.8493,27.6253,萍乡市,市政府车库,细颗粒物(PM2.5),150,124,175,115,148,50,,22,22,26,39,23,20,1.9,1.5
2024-01-16T1300,2350A,113.8676,27.6435,萍乡市,市环保局,细颗粒物(PM2.5),132,140,188,100,136,50,,21,21,32,45,17,17,1.4,1.9
2024-01-16T1300,2351A,113.866,27.6198,萍乡市,安源区政府,细颗粒物(PM2.5),134,146,188,102,135,50,,21,21,24,36,16,18,1.4,1.4
2024-01-16T1300,2319A,119.0141,25.4325,莆田市,荔城区仓后路,,35,35,59,14,52,100,,91,89,10,14,6,6,0.6,0.8
2024-01-16T1300,2320A,119.0015,25.4553,莆田市,莆田市监测站,,41,41,56,8,48,98,,94,94,15,18,6,6,0.6,0.9
2024-01-16T1300,2321A,119.1119,25.4561,莆田市,涵江区六中,,30,20,57,10,44,93,,93,89,13,15,7,7,0.6,0.8
2024-01-16T1300,2322A,119.1013,25.3215,莆田市,秀屿区政府,,39,39,56,13,47,89,,80,77,15,18,9,8,0.6,0.8
2024-01-16T1300,2323A,118.981,25.4792,莆田市,东圳水库,,,,,,,,,,,,,,,,
2024-01-16T1300,2392A,115.0312,35.7636,濮阳市,环保局,细颗粒物(PM2.5),73,,44,53,41,45,,42,42,21,20,3,5,0.7,0.5
2024-01-16T1300,2394A,115.0574,35.7609,濮阳市,油田运输公司,细颗粒物(PM2.5),80,62,55,59,41,48,,45,45,23,22,5,6,0.9,0.7
2024-01-16T1300,2395A,115.0866,35.7754,濮阳市,油田物探公司,细颗粒物(PM2.5),85,,56,63,46,48,,42,42,22,24,3,4,0.6,0.5
2024-01-16T1300,3021A,115,35.7668,濮阳市,濮水河管理处,细颗粒物(PM2.5),67,,46,48,39,49,,44,44,24,22,5,6,0.8,0.8
2024-01-16T1300,2601A,100.98,22.7633,普洱市,市环保局,,20,11,21,9,15,62,,43,42,6,7,4,3,0.5,0.5
2024-01-16T1300,2602A,100.9817,22.8322,普洱市,普洱第二中学,,22,12,18,7,13,69,,47,47,6,8,8,8,0.5,0.6
2024-01-16T1300,2262A,131.0518,45.8751,七台河市,新一中,细颗粒物(PM2.5),54,38,21,38,16,89,,76,76,6,9,11,11,0.4,0.4
2024-01-16T1300,3345A,131.0577,45.7879,七台河市,中波台,,24,18,29,11,20,76,,63,63,19,26,8,15,0.6,0.8
2024-01-16T1300,3637A,131.0176,45.7761,七台河市,人民广场,,25,,36,17,28,67,,59,59,25,28,13,16,0.6,0.7
2024-01-16T1300,3684A,130.8781,45.8222,七台河市,新建矿广场,,24,,22,13,29,74,,46,46,17,24,7,7,0.5,0.6
2024-01-16T1300,1779A,123.9305,47.3636,齐齐哈尔市,安居小区,,36,36,33,15,16,48,,48,40,14,22,8,8,0.6,0.6
2024-01-16T1300,1780A,123.9488,47.3386,齐齐哈尔市,中心广场,,39,39,37,17,22,47,,43,34,12,25,5,7,0.5,0.5
2024-01-16T1300,1781A,123.9483,47.3227,齐齐哈尔市,农牧车辆厂,,46,46,41,28,23,42,,39,32,19,26,12,13,0.5,0.5
2024-01-16T1300,1783A,123.945,47.2988,齐齐哈尔市,市环境监测站,,46,46,38,16,19,51,,45,42,11,19,6,7,0.5,0.5
2024-01-16T1300,3662A,123.6333,47.2075,齐齐哈尔市,富区青少年活动中心,,40,40,36,13,16,54,,42,40,10,15,10,9,0.6,0.6
2024-01-16T1300,2591A,107.9783,26.5747,黔东南苗族侗族自治州,市环境监测站,细颗粒物(PM2.5),64,55,67,46,56,26,,22,18,27,18,10,7,0.9,1
2024-01-16T1300,2881A,107.8908,26.5311,黔东南苗族侗族自治州,凯里学院,,30,30,51,20,44,96,,36,36,8,14,6,6,0.3,0.8
2024-01-16T1300,2593A,107.5228,26.2403,黔南布依族苗族自治州,小围寨,,29,14,15,7,12,90,,72,72,2,3,5,4,0.4,0.4
2024-01-16T1300,3538A,107.5175,26.2978,黔南布依族苗族自治州,沙坝,,29,17,17,9,15,90,,64,64,4,3,4,4,0.5,0.5
2024-01-16T1300,2589A,104.9022,25.0925,黔西南布依族苗族自治州,场坝街,,20,18,20,8,16,64,,64,60,7,7,2,2,0.2,0.3
2024-01-16T1300,2590A,104.8811,25.0992,黔西南布依族苗族自治州,坪东大道,,21,13,22,10,14,67,,65,60,4,6,3,3,0.3,0.3
2024-01-16T1300,2502A,108.6236,21.9667,钦州市,市环保站,,48,48,60,17,25,98,,70,70,14,28,6,8,0.6,0.7
2024-01-16T1300,2503A,108.6549,21.9481,钦州市,沙埠小学,,,60,69,21,31,,,56,56,13,43,8,11,0.6,0.7
2024-01-16T1300,2504A,108.5989,21.7431,钦州市,港区一小,颗粒物(PM10),59,68,76,23,23,110,,66,66,13,32,18,12,0.7,0.7
2024-01-16T1300,3404A,108.5959,21.9633,钦州市,北职校,,50,50,61,25,31,92,,50,50,15,30,9,9,0.6,0.7
2024-01-16T1300,1042A,119.5134,39.8207,秦皇岛市,北戴河环保局,颗粒物(PM10),63,76,67,43,35,37,,16,16,52,63,15,13,0.8,1.2
2024-01-16T1300,1043A,119.7493,40.0116,秦皇岛市,第一关,颗粒物(PM10),77,103,76,51,44,42,,16,16,48,51,20,14,1.9,0.9
2024-01-16T1300,1044A,119.5897,39.9499,秦皇岛市,监测站,"颗粒物(PM10),细颗粒物(PM2.5)",62,73,75,44,42,46,,16,16,49,58,25,16,2.1,1.3
2024-01-16T1300,1046A,119.5251,39.9041,秦皇岛市,建设大厦,,,,80,,40,46,,16,16,45,54,21,9,2.2,1.2
2024-01-16T1300,3132A,119.610547,39.943889,秦皇岛市,文明里,颗粒物(PM10),77,104,97,40,44,39,,14,14,57,67,20,12,2.0,1.3
2024-01-16T1300,1307A,120.6659,36.2403,青岛市,仰口,细颗粒物(PM2.5),58,58,49,41,31,57,,48,45,28,28,6,6,0.7,0.6
2024-01-16T1300,1310A,120.4134,36.0658,青岛市,市南区东部子站,颗粒物(PM10),53,56,57,36,30,57,,35,35,28,48,10,12,0.8,0.8
2024-01-16T1300,1311A,120.3664,36.1032,青岛市,四方区子站,细颗粒物(PM2.5),62,61,62,44,37,52,,25,25,36,63,9,10,0.9,1
2024-01-16T1300,1312A,120.2994,36.054,青岛市,市南区西部子站,,41,41,56,27,29,59,,30,30,25,57,10,12,0.6,0.8
2024-01-16T1300,1313A,120.4581,36.0858,青岛市,崂山区子站,,,53,56,34,28,59,,32,32,,52,10,10,0.8,0.8
2024-01-16T1300,1314A,120.1983,35.9608,青岛市,黄岛区子站,,,,57,,34,,,18,18,,60,,14,,0.9
2024-01-16T1300,1315A,120.3999,36.3083,青岛市,城阳区子站,颗粒物(PM10),75,100,79,42,38,22,,15,15,64,54,12,13,1.1,1.4
2024-01-16T1300,1966A,120.0405,35.8735,青岛市,黄岛区4号,,41,41,61,24,34,44,,24,21,46,53,9,11,0.8,1.2
2024-01-16T1300,3362A,120.5014,36.4034,青岛市,即墨2号,颗粒物(PM10),58,65,84,39,47,52,,29,29,25,50,13,19,0.7,1.1
2024-01-16T1300,3642A,120.3503,36.0736,青岛市,市北区南部,颗粒物(PM10),58,66,62,34,29,50,,29,29,37,56,11,12,0.8,0.8
2024-01-16T1300,3643A,120.3948,36.1805,青岛市,李沧区北部,细颗粒物(PM2.5),64,63,72,46,42,53,,22,22,39,65,13,14,0.8,1.1
2024-01-16T1300,1702A,113.0426,23.691,清远市,环保大楼,颗粒物(PM10),51,51,59,30,35,121,,40,40,16,42,5,6,0.7,0.9
2024-01-16T1300,1703A,113.0208,23.7106,清远市,凤城街办,颗粒物(PM10),54,58,66,36,40,135,,53,53,15,40,8,8,0.6,0.9
2024-01-16T1300,3025A,113.0477,23.6344,清远市,技师学院,颗粒物(PM10),60,70,94,35,46,134,,47,47,15,56,6,9,0.6,0.9
2024-01-16T1300,3318A,112.9903,23.7403,清远市,清新太和,颗粒物(PM10),58,66,59,40,37,121,,57,57,24,32,8,8,0.8,0.8
2024-01-16T1300,3455A,113.076,23.7198,清远市,清城东城,颗粒物(PM10),60,69,51,37,32,127,,48,48,21,31,9,9,0.6,0.8
2024-01-16T1300,2661A,107.6325,35.7357,庆阳市,庆阳五中,细颗粒物(PM2.5),160,,94,122,93,17,,28,20,34,30,11,10,1.3,1
2024-01-16T1300,2662A,107.6364,35.7067,庆阳市,市环保局,细颗粒物(PM2.5),145,,75,111,84,28,,39,30,22,21,6,7,1.5,1.2
2024-01-16T1300,1916A,103.7897,25.5035,曲靖市,环境监测站,,22,10,28,8,14,70,,52,51,6,13,3,2,0.2,0.2
2024-01-16T1300,1917A,103.8,25.5364,曲靖市,烟厂办公区,,23,10,26,7,13,72,,56,56,7,11,4,4,0.4,0.5
2024-01-16T1300,3376A,103.7947,25.462,曲靖市,南苑二区,,22,,24,11,13,68,,54,52,2,6,4,4,0.4,0.4
2024-01-16T1300,3377A,103.7444,25.5261,曲靖市,曲靖师范学院,,24,17,25,9,17,74,,63,63,7,9,4,3,0.5,0.5
2024-01-16T1300,1264A,118.8692,28.9398,衢州市,环保大楼,,,87,87,58,60,41,,39,34,,19,,4,0.6,0.7
2024-01-16T1300,1265A,118.8709,28.9666,衢州市,实验学校,细颗粒物(PM2.5),83,93,90,61,60,42,,37,32,18,18,5,6,0.7,0.7
2024-01-16T1300,1266A,118.8621,28.9808,衢州市,衢州学院,细颗粒物(PM2.5),83,92,88,61,61,45,,39,36,21,22,4,4,0.7,0.7
