timepoint,stationcode,longitude,latitude,area,positionname,primarypollutant,aqi,pm10,pm10_24h,pm2_5,pm2_5_24h,o3,o3_24h,o3_8h,o3_8h_24h,no2,no2_24h,so2,so2_24h,co,co_24h
2024-12-04T1700,2566A,102.1879,31.914,阿坝藏族羌族自治州,州农科所,,28,10,28,3,12,89,,72,72,15,14,11,19,0.3,0.5
2024-12-04T1700,2568A,102.2502,31.8896,阿坝藏族羌族自治州,马师校,,19,18,16,12,15,59,,52,52,19,23,4,4,0.4,0.5
2024-12-04T1700,3994A,102.2165,31.9024,阿坝藏族羌族自治州,马尔康中学西区,,24,24,26,12,13,67,,56,56,16,19,5,5,0.4,0.5
2024-12-04T1700,2695A,80.292,41.1694,阿克苏地区,电视台,颗粒物(PM10),73,96,133,42,73,75,,52,52,36,58,10,5,0.8,1.7
2024-12-04T1700,2696A,80.2613,41.1551,阿克苏地区,艺术中心,颗粒物(PM10),64,77,109,30,55,83,,54,54,21,50,4,4,0.7,1.3
2024-12-04T1700,2204A,105.6467,38.8363,阿拉善盟,西城区西花园,,,,33,,20,89,,89,89,11,14,7,8,0.5,0.7
2024-12-04T1700,2205A,105.6985,38.8411,阿拉善盟,蒙二幼,,26,21,26,8,10,83,,86,86,10,10,6,7,0.6,0.5
2024-12-04T1700,2206A,105.724,38.8516,阿拉善盟,环保局新楼,,27,14,20,7,8,85,,89,89,6,7,7,8,0.5,0.5
2024-12-04T1700,2708A,88.1264,47.8517,阿勒泰地区,市站,,17,13,15,3,7,52,,51,51,20,16,8,8,0.4,0.4
2024-12-04T1700,2630A,80.1161,32.5,阿里地区,阿里监测站,,30,6,11,3,6,94,,76,76,1,9,4,9,0.4,0.5
2024-12-04T1700,3192A,80.0903,32.5028,阿里地区,阿里藏医院,,30,6,13,3,5,95,,79,79,1,6,6,9,0.5,0.6
2024-12-04T1700,2642A,109.0318,32.6537,安康市,香溪洞,细颗粒物(PM2.5),67,54,56,48,43,29,,55,29,33,19,10,11,0.6,0.5
2024-12-04T1700,2644A,109.0072,32.6975,安康市,汉滨区检察院,细颗粒物(PM2.5),70,74,72,51,46,53,,39,32,25,25,13,12,0.7,0.6
2024-12-04T1700,4054A,109.0325,32.6913,安康市,市邮政管理局,细颗粒物(PM2.5),73,70,76,53,54,59,,42,35,20,24,22,13,0.7,0.7
2024-12-04T1700,2291A,117.0809,30.5177,安庆市,环科院,细颗粒物(PM2.5),88,113,110,65,71,46,,36,36,27,29,7,6,1.0,0.8
2024-12-04T1700,2292A,117.0331,30.5119,安庆市,马山宾馆,,,117,101,61,66,40,,34,34,,32,10,7,0.8,0.7
2024-12-04T1700,2294A,116.9896,30.6145,安庆市,安庆大学,细颗粒物(PM2.5),80,98,107,59,66,48,,41,41,35,36,10,10,0.9,0.8
2024-12-04T1700,3173A,117.0598,30.5351,安庆市,市人大,细颗粒物(PM2.5),88,98,86,65,69,40,,34,34,31,29,6,5,1.0,0.9
2024-12-04T1700,3122A,105.9606,26.2611,安顺市,伍家关,,36,36,51,16,30,27,,30,29,15,16,6,13,1.2,1.2
2024-12-04T1700,3123A,105.9408,26.2431,安顺市,凤凰山,,36,35,75,25,58,28,,37,29,15,19,9,17,0.7,0.7
2024-12-04T1700,3124A,105.9439,26.2564,安顺市,金钟山,,35,31,75,24,54,27,,38,,14,15,10,19,0.7,0.7
2024-12-04T1700,3125A,105.8983,26.2481,安顺市,娄家坡,,39,33,72,27,57,26,,39,29,17,17,11,18,0.7,0.8
2024-12-04T1700,1818A,114.4839,36.0621,安阳市,棉研所,细颗粒物(PM2.5),155,132,118,118,89,56,,45,45,24,45,6,8,0.7,0.8
2024-12-04T1700,1819A,114.3551,36.1017,安阳市,红庙街,细颗粒物(PM2.5),124,115,113,94,76,56,,48,48,25,38,5,8,0.6,1.1
2024-12-04T1700,1820A,114.361,36.0681,安阳市,银杏小区,细颗粒物(PM2.5),142,,103,108,76,55,,51,51,22,35,2,4,1.2,1.3
2024-12-04T1700,3141A,114.3922,36.0878,安阳市,信访局,细颗粒物(PM2.5),149,119,117,114,79,55,,50,50,20,37,4,6,0.7,1.1
2024-12-04T1700,3669A,114.4705,36.0637,安阳市,左辅环卫站,细颗粒物(PM2.5),133,141,121,101,84,58,,45,45,21,39,3,4,0.7,0.8
2024-12-04T1700,3703A,114.2917,36.0949,安阳市,安钢职工学校,细颗粒物(PM2.5),148,120,125,113,84,55,,47,47,35,43,4,8,0.6,0.8
2024-12-04T1700,1748A,123.044,41.1196,鞍山市,深沟寺,,25,25,34,14,15,53,,58,58,25,18,10,10,0.6,0.7
2024-12-04T1700,1749A,123.011,41.0931,鞍山市,太阳城,,25,25,28,13,14,53,,59,59,26,19,13,13,1.2,0.8
2024-12-04T1700,1750A,123.0485,41.1442,鞍山市,太平,,33,33,43,14,18,34,,51,51,47,30,26,14,1.8,1
2024-12-04T1700,1751A,122.9642,41.0971,鞍山市,铁西三道街,,49,49,46,19,18,42,,56,56,35,29,11,13,1.5,0.9
2024-12-04T1700,1752A,122.9341,41.0833,鞍山市,铁西工业园区,,39,39,50,16,19,47,,57,57,32,38,14,14,0.5,0.8
2024-12-04T1700,1753A,123.022,41.0821,鞍山市,明达新区,,26,26,28,13,14,50,,56,56,20,18,11,11,1.0,1
2024-12-04T1700,1754A,123.1289,41.0228,鞍山市,千山,,,,26,,12,,,41,,,13,,4,,0.6
2024-12-04T1700,2195A,107.4212,40.761,巴彦淖尔市,附二中,,42,42,56,22,23,72,,62,62,10,21,4,7,0.4,0.5
2024-12-04T1700,2196A,107.37,40.7372,巴彦淖尔市,市环保大楼,,38,38,49,16,18,72,,66,66,7,18,3,4,0.3,0.3
2024-12-04T1700,1956A,86.1472,41.7538,巴音郭楞蒙古自治州,孔雀公园,颗粒物(PM10),63,75,107,36,48,80,,42,42,17,65,5,4,0.4,1
2024-12-04T1700,1957A,86.1972,41.7166,巴音郭楞蒙古自治州,棉纺厂,颗粒物(PM10),67,83,125,23,34,82,,47,47,12,45,3,3,0.3,0.6
2024-12-04T1700,1958A,86.2357,41.7173,巴音郭楞蒙古自治州,经济开发区,细颗粒物(PM2.5),67,65,98,48,31,80,,52,52,12,34,4,3,0.4,0.5
2024-12-04T1700,2914A,106.7677,31.8794,巴中市,苏山坪,,26,,29,18,22,60,,56,56,12,13,3,4,0.4,0.5
2024-12-04T1700,3182A,106.7656,31.8545,巴中市,丽阳花园,,46,46,47,27,38,10,,14,14,51,35,4,3,1.0,0.8
2024-12-04T1700,3183A,106.7418,31.8654,巴中市,圣泉水务公司,,38,35,43,26,35,10,,34,31,50,29,4,3,0.6,0.5
2024-12-04T1700,3616A,106.7616,31.8344,巴中市,市中心医院,,35,33,44,24,45,10,,12,12,41,31,3,2,0.6,0.6
2024-12-04T1700,2235A,122.7911,45.6077,白城市,洮北区环保局,,21,,16,14,16,65,,69,69,13,10,5,6,0.5,0.4
2024-12-04T1700,2236A,122.8738,45.5725,白城市,市环保局,,24,24,19,11,11,71,,74,74,9,10,4,4,0.4,0.4
2024-12-04T1700,2231A,126.4219,41.9171,白山市,喜丰,,23,18,32,6,12,73,,68,68,7,18,9,18,0.5,0.6
2024-12-04T1700,2232A,126.4077,41.9419,白山市,环保局,颗粒物(PM10),51,52,56,3,15,58,,59,59,14,14,4,9,0.6,0.6
2024-12-04T1700,2647A,104.1724,36.5446,白银市,第三小学,颗粒物(PM10),54,58,50,25,23,82,,65,65,17,23,84,36,0.8,0.9
2024-12-04T1700,2648A,104.1465,36.5482,白银市,动力公司,颗粒物(PM10),53,55,43,25,24,79,,71,71,19,20,35,21,0.8,0.8
2024-12-04T1700,2512A,106.6103,23.9011,百色市,市监测站,颗粒物(PM10),57,64,61,37,36,135,,120,120,15,20,14,12,0.8,0.9
2024-12-04T1700,2513A,106.6538,23.8859,百色市,市中心血站,颗粒物(PM10),64,78,70,41,44,126,,98,98,16,23,14,15,0.8,0.8
2024-12-04T1700,3406A,106.6085,23.8798,百色市,祈福高中,颗粒物(PM10),64,77,74,34,38,138,,111,111,12,29,12,9,0.8,0.8
2024-12-04T1700,2270A,117.396,32.939,蚌埠市,工人疗养院,细颗粒物(PM2.5),84,96,90,62,54,46,,61,61,30,32,4,4,0.6,0.6
2024-12-04T1700,2271A,117.3605,32.9427,蚌埠市,百货大楼,细颗粒物(PM2.5),73,89,89,53,53,43,,60,58,31,30,4,5,0.5,0.5
2024-12-04T1700,2273A,117.4185,32.8911,蚌埠市,蚌埠学院,细颗粒物(PM2.5),79,73,81,58,52,48,,49,49,34,47,6,10,0.6,0.6
2024-12-04T1700,2274A,117.3533,32.9673,蚌埠市,淮上区政府,细颗粒物(PM2.5),68,75,88,49,57,49,,58,58,27,33,8,9,0.5,0.5
2024-12-04T1700,2275A,117.3145,32.8977,蚌埠市,高新区,细颗粒物(PM2.5),73,73,75,53,51,31,,50,50,47,38,6,8,0.5,0.5
2024-12-04T1700,3715A,117.3092,32.9314,蚌埠市,蚌埠田家炳中学,细颗粒物(PM2.5),73,85,90,53,53,31,,55,55,45,35,5,6,0.5,0.5
2024-12-04T1700,1585A,109.8756,40.6532,包头市,市环境监测站,,22,13,24,3,8,70,,69,69,14,18,7,9,0.4,0.4
2024-12-04T1700,1587A,109.9991,40.5842,包头市,包头八中,,21,21,48,10,16,63,,58,58,10,35,5,8,0.2,0.5
2024-12-04T1700,1588A,109.8538,40.6821,包头市,青山宾馆,,22,22,22,15,11,65,,68,68,18,19,10,11,0.4,0.3
2024-12-04T1700,1589A,109.8642,40.6288,包头市,惠龙物流,,24,24,33,10,13,69,,68,68,15,27,5,8,0.4,0.6
2024-12-04T1700,1590A,110.0377,40.5546,包头市,东河鸿龙湾,,27,27,61,6,25,62,,58,58,14,35,8,11,0.8,1.2
2024-12-04T1700,3283A,109.9154,40.5685,包头市,滨河大厦,,26,26,50,16,24,67,,60,60,17,36,6,14,0.4,0.8
2024-12-04T1700,3419A,109.9447,40.6261,包头市,包头市委党校,,23,21,36,13,12,71,,69,69,13,31,4,8,0.3,1
2024-12-04T1700,3683A,109.8331,40.6576,包头市,昆区政府,,22,21,31,11,13,70,,68,68,13,19,7,9,0.4,0.5
2024-12-04T1700,1930A,107.185,34.3063,宝鸡市,庙沟村,,41,41,52,23,40,90,,78,78,9,24,8,8,0.3,0.4
2024-12-04T1700,1931A,107.0708,34.3017,宝鸡市,竹园沟,,41,41,68,15,44,90,,70,70,17,34,8,7,0.3,0.5
2024-12-04T1700,1932A,107.1906,34.3672,宝鸡市,三陆医院,颗粒物(PM10),51,52,79,20,54,79,,60,60,28,45,6,8,0.4,0.7
2024-12-04T1700,1933A,107.1431,34.3547,宝鸡市,监测站,颗粒物(PM10),56,62,81,17,52,81,,63,63,22,39,8,8,0.4,0.6
2024-12-04T1700,1934A,107.1186,34.3739,宝鸡市,技工学校,,46,46,79,17,55,84,,66,66,17,29,6,8,0.3,0.6
2024-12-04T1700,1935A,107.3906,34.3528,宝鸡市,陈仓区环保局家属楼,,43,43,93,15,58,87,,15,,19,47,7,9,0.4,0.8
2024-12-04T1700,1936A,107.2058,34.3497,宝鸡市,文理学院,,36,36,81,16,50,80,,57,57,20,39,7,8,0.3,0.5
2024-12-04T1700,1937A,107.2386,34.3622,宝鸡市,三迪小学,颗粒物(PM10),52,53,80,22,54,80,,55,55,26,50,7,8,0.3,0.6
2024-12-04T1700,1051A,115.493,38.8632,保定市,游泳馆,细颗粒物(PM2.5),104,117,100,78,65,45,,37,37,29,41,4,3,0.8,0.9
2024-12-04T1700,1052A,115.5213,38.8959,保定市,华电二区,细颗粒物(PM2.5),107,113,103,80,78,38,,26,26,45,56,7,5,0.7,0.6
2024-12-04T1700,1053A,115.4713,38.9108,保定市,接待中心,细颗粒物(PM2.5),114,117,111,86,76,33,,30,30,47,51,,4,,0.7
2024-12-04T1700,1054A,115.4612,38.8416,保定市,地表水厂,细颗粒物(PM2.5),98,136,111,73,66,38,,41,41,52,55,6,4,0.6,0.6
2024-12-04T1700,3581A,115.31981,38.95208,保定市,满城区生态环境分局,细颗粒物(PM2.5),100,124,138,75,89,26,,31,31,68,62,4,3,0.8,1
2024-12-04T1700,3582A,115.47694,38.76408,保定市,清苑区第二中学,细颗粒物(PM2.5),82,90,110,60,60,53,,38,38,37,56,8,8,0.6,0.8
2024-12-04T1700,3583A,115.62909,39.02311,保定市,徐水物探局,细颗粒物(PM2.5),98,107,117,73,66,26,,24,24,50,46,9,9,0.7,0.8
2024-12-04T1700,4004A,115.4202,38.8656,保定市,双鹰农机,细颗粒物(PM2.5),105,122,110,79,72,32,,35,35,44,52,5,4,0.7,0.8
2024-12-04T1700,4034A,115.5150,38.8590,保定市,植保所站,细颗粒物(PM2.5),115,113,108,87,70,47,,40,40,44,55,8,6,0.8,0.8
2024-12-04T1700,2594A,99.1678,25.1081,保山市,市环境监测站,,27,25,27,3,7,85,,67,67,5,9,4,4,0.2,0.3
2024-12-04T1700,2595A,99.1711,25.1328,保山市,市环保局,,28,18,25,12,16,87,,69,69,3,6,6,6,0.2,0.3
2024-12-04T1700,1866A,109.2262,21.588,北海市,牛尾岭水库,,,36,41,35,36,145,,142,142,,11,7,8,0.6,0.6
2024-12-04T1700,1867A,109.1436,21.4086,北海市,海滩公园,臭氧1小时,59,40,46,20,27,167,,162,162,12,13,11,13,0.5,0.7
2024-12-04T1700,1868A,109.0981,21.4661,北海市,新市环保局,,45,35,44,29,30,143,,154,154,17,19,8,11,0.6,0.7
2024-12-04T1700,1869A,109.1778,21.5233,北海市,北海工业园,颗粒物(PM10),55,59,57,29,37,159,,158,158,14,20,9,17,0.5,0.7
2024-12-04T1700,3400A,109.1911,21.4415,北海市,龙潭自来水厂,,50,41,46,28,35,157,,152,152,13,17,11,11,0.5,0.6
2024-12-04T1700,1001A,116.3621,39.8784,北京市,万寿西宫,细颗粒物(PM2.5),74,80,37,54,19,23,,31,31,61,46,5,3,0.5,0.5
2024-12-04T1700,1002A,116.2202,40.2915,北京市,定陵,,17,12,10,6,6,52,,47,47,7,8,4,4,0.2,0.2
2024-12-04T1700,1003A,116.4174,39.9289,北京市,东四,颗粒物(PM10),54,57,29,27,13,45,,42,42,32,34,3,2,0.3,0.4
2024-12-04T1700,1004A,116.4072,39.8863,北京市,天坛,颗粒物(PM10),62,74,33,35,15,34,,39,39,41,31,2,3,0.5,0.4
2024-12-04T1700,1005A,116.462,39.9365,北京市,农展馆,细颗粒物(PM2.5),64,76,34,46,13,43,,44,44,37,45,3,6,0.5,0.4
2024-12-04T1700,1006A,116.3392,39.9295,北京市,官园,颗粒物(PM10),54,57,30,33,14,42,,40,40,34,34,4,3,0.6,0.5
2024-12-04T1700,1007A,116.2878,39.9611,北京市,海淀万柳,,21,16,29,6,12,67,,48,48,12,40,3,3,0.3,0.5
2024-12-04T1700,1008A,116.6636,40.135,北京市,顺义新城,,24,24,20,11,7,52,,54,54,18,21,2,2,0.2,0.2
2024-12-04T1700,1009A,116.6275,40.3275,北京市,怀柔镇,,20,20,18,8,8,47,,52,52,23,20,3,3,0.3,0.3
2024-12-04T1700,1010A,116.2296,40.217,北京市,昌平镇,,21,19,20,6,8,66,,61,61,8,9,6,6,0.2,0.2
2024-12-04T1700,1011A,116.3966,39.9821,北京市,奥体中心,,21,17,23,6,9,65,,50,50,13,38,4,4,0.5,0.5
2024-12-04T1700,1012A,116.184,39.9136,北京市,古城,,24,24,35,9,15,45,,42,42,19,30,5,5,0.5,0.6
2024-12-04T1700,3281A,115.9718,40.4529,北京市,延庆夏都,,19,13,20,3,9,59,,47,47,2,17,1,2,0.1,0.2
2024-12-04T1700,3417A,117.0709,40.1465,北京市,平谷新城,,22,22,22,8,9,41,,49,49,22,16,1,3,0.2,0.3
2024-12-04T1700,3418A,116.8336,40.4095,北京市,密云新城,,20,12,16,3,8,62,,58,58,5,12,3,2,0.1,0.2
2024-12-04T1700,3671A,116.088,39.9726,北京市,门头沟三家店,,22,22,41,9,12,62,,62,62,12,40,2,2,0.2,0.3
2024-12-04T1700,3672A,116.1541,39.8204,北京市,丰台云岗,细颗粒物(PM2.5),75,94,60,55,28,27,,37,37,50,47,5,3,0.5,0.4
2024-12-04T1700,3673A,116.6804,39.9081,北京市,通州东关,颗粒物(PM10),65,80,33,40,14,36,,36,36,39,41,4,3,0.4,0.3
2024-12-04T1700,3674A,115.9577,39.7603,北京市,房山燕山,细颗粒物(PM2.5),77,95,48,56,25,29,,36,36,45,29,2,2,0.5,0.4
2024-12-04T1700,3675A,116.4672,39.7733,北京市,大兴旧宫,颗粒物(PM10),57,64,64,30,31,35,,30,30,34,45,2,3,0.3,0.4
2024-12-04T1700,3694A,115.986,40.4563,北京市,延庆石河营,,22,12,18,3,8,69,,52,52,4,18,1,2,0.2,0.3
2024-12-04T1700,3695A,116.6151,40.3053,北京市,怀柔新城,,20,20,17,8,10,47,,48,48,18,16,1,2,0.2,0.2
2024-12-04T1700,3696A,116.2545,39.8768,北京市,丰台小屯,细颗粒物(PM2.5),72,88,47,52,20,28,,32,32,48,47,5,3,0.6,0.4
2024-12-04T1700,3697A,116.84,40.3844,北京市,密云镇,,18,15,26,3,9,57,,55,55,13,32,2,2,0.1,0.2
2024-12-04T1700,1761A,123.8275,41.3064,本溪市,大峪,,37,37,32,20,16,45,,48,48,33,28,19,15,1.3,1.3
2024-12-04T1700,1762A,123.7567,41.3325,本溪市,溪湖,,37,37,38,16,16,47,,51,51,28,24,17,14,1.0,0.9
2024-12-04T1700,1763A,123.7169,41.3094,本溪市,彩屯,,49,49,36,30,23,32,,50,50,51,30,16,13,1.2,0.9
2024-12-04T1700,1764A,123.7669,41.2864,本溪市,东明,,38,38,44,23,21,27,,46,46,59,35,38,17,2.2,1.4
2024-12-04T1700,1765A,123.7992,41.2664,本溪市,新立屯,,35,31,29,24,15,20,,57,56,59,40,8,10,0.8,1.1
2024-12-04T1700,1766A,123.8142,41.3472,本溪市,威宁,,31,31,65,18,20,35,,48,48,47,41,17,11,1.2,0.9
2024-12-04T1700,2587A,105.2864,27.3125,毕节市,八中,,42,38,53,29,43,75,,67,67,14,17,7,7,0.6,0.7
2024-12-04T1700,2588A,105.31,27.2944,毕节市,师专,,49,40,49,34,44,71,,64,64,11,14,5,6,0.6,0.7
2024-12-04T1700,3537A,105.3631,27.3533,毕节市,长征村,细颗粒物(PM2.5),64,52,49,46,44,79,,73,73,11,12,7,8,0.7,0.7
2024-12-04T1700,1629A,118.0018,37.3617,滨州市,第二水厂,颗粒物(PM10),71,92,81,51,45,40,,39,39,49,60,26,16,1.0,0.6
2024-12-04T1700,1630A,117.9776,37.393,滨州市,北中新校,颗粒物(PM10),64,78,80,44,43,36,,32,32,44,59,16,15,0.9,1
2024-12-04T1700,3514A,117.9378,37.3956,滨州市,中海酒店,细颗粒物(PM2.5),70,80,84,51,53,52,,48,48,36,53,13,16,0.5,0.9
2024-12-04T1700,3515A,117.9378,37.3553,滨州市,开发区一中,颗粒物(PM10),69,88,82,46,42,43,,40,40,52,65,21,16,0.8,0.8
2024-12-04T1700,3516A,118.0917,37.694,滨州市,金海六路,,49,49,85,24,50,48,,43,43,35,55,5,13,0.6,0.8
2024-12-04T1700,4028A,117.9956,37.3753,滨州市,滨州市西街道办事处,,,,78,,53,42,,41,41,40,53,20,14,0.7,1.1
2024-12-04T1700,2311A,115.8072,33.8399,亳州市,污水处理厂,细颗粒物(PM2.5),87,109,102,64,56,52,,36,36,21,38,8,8,0.8,0.8
2024-12-04T1700,2312A,115.7789,33.8518,亳州市,三国揽胜宫,细颗粒物(PM2.5),95,131,111,71,60,44,,32,32,29,40,7,7,0.7,0.8
2024-12-04T1700,3332A,115.7633,33.8034,亳州市,亳州学院,颗粒物(PM10),81,111,104,56,53,47,,33,33,30,36,3,4,0.7,0.9
2024-12-04T1700,2693A,82.0485,44.8556,博尔塔拉蒙古自治州,市党校,,,35,30,,25,22,,24,24,21,19,1,4,0.6,0.5
2024-12-04T1700,2694A,82.0806,44.8969,博尔塔拉蒙古自治州,市环保局,颗粒物(PM10),51,51,42,33,22,36,,43,33,21,21,3,3,0.5,0.5
2024-12-04T1700,1071A,116.8842,38.2991,沧州市,沧县城建局,细颗粒物(PM2.5),93,93,94,69,62,50,,42,42,36,56,10,9,0.5,0.8
2024-12-04T1700,1072A,116.8584,38.3254,沧州市,电视转播站,细颗粒物(PM2.5),73,92,88,53,53,57,,48,48,31,54,9,9,0.5,0.7
2024-12-04T1700,1073A,116.8709,38.3228,沧州市,市环保局,细颗粒物(PM2.5),68,80,81,49,56,54,,44,44,32,52,6,6,0.6,0.7
2024-12-04T1700,3324A,116.8136,38.3004,沧州市,河北水利电力学院,细颗粒物(PM2.5),79,85,93,58,55,56,,47,47,30,48,11,10,0.5,0.7
2024-12-04T1700,2622A,97.1806,31.1273,昌都市,昌都监测站,,23,14,36,3,15,72,,60,60,11,32,6,7,0.5,1.1
2024-12-04T1700,3719A,97.1714,31.1406,昌都市,昌都会议中心,,26,17,13,3,8,82,,62,62,1,10,5,5,0.3,0.4
2024-12-04T1700,2690A,88.1236,43.8886,昌吉回族自治州,天山天池,,25,6,1,3,1,77,,68,68,4,2,3,4,0.5,0.5
2024-12-04T1700,2692A,87.2717,44.0297,昌吉回族自治州,新区政务中心,,,26,42,10,26,54,,52,49,,15,7,5,1.2,1
2024-12-04T1700,3613A,87.3095,44.0142,昌吉回族自治州,亚心广场,,27,27,46,14,33,54,,54,49,23,21,7,6,1.0,0.7
2024-12-04T1700,1119A,125.3325,43.9166,长春市,食品厂,,45,45,32,10,12,45,,58,58,26,17,9,7,0.4,0.3
2024-12-04T1700,1120A,125.2863,43.9027,长春市,客车厂,,38,38,35,11,12,38,,57,54,30,18,14,11,0.2,0.2
2024-12-04T1700,1121A,125.2841,43.8463,长春市,邮电学院,,43,43,32,10,10,37,,58,57,38,22,23,18,0.3,0.3
2024-12-04T1700,1122A,125.3716,43.8772,长春市,劳动公园,,32,32,28,10,9,52,,63,63,27,17,15,13,0.3,0.2
2024-12-04T1700,1123A,125.3297,43.8805,长春市,园林处,,33,33,28,9,10,50,,57,57,21,15,8,9,0.3,0.3
2024-12-04T1700,1124A,125.4605,43.79,长春市,净月潭,,37,37,25,10,8,58,,65,65,13,10,7,8,0.3,0.2
2024-12-04T1700,1125A,125.7194,43.515,长春市,甩湾子,,22,22,20,11,7,45,,48,48,11,9,6,6,0.4,0.3
2024-12-04T1700,1126A,125.3863,43.8447,长春市,经开区环卫处,,37,37,31,14,8,48,,58,58,25,18,29,18,0.4,0.4
2024-12-04T1700,1127A,125.245,43.7783,长春市,高新区管委会,,28,28,26,17,10,54,,62,62,17,11,6,6,0.3,0.2
2024-12-04T1700,1128A,125.1761,43.8325,长春市,岱山公园,,35,35,27,20,11,47,,58,58,17,10,7,7,0.5,0.4
2024-12-04T1700,1335A,113.0833,28.2325,长沙市,经开区环保局,细颗粒物(PM2.5),142,148,157,108,109,29,,36,36,25,27,3,3,0.7,0.7
2024-12-04T1700,1336A,112.8872,28.2189,长沙市,高开区环保局,细颗粒物(PM2.5),145,129,149,111,110,42,,36,36,23,23,4,6,0.8,0.8
2024-12-04T1700,1337A,113.0792,28.2053,长沙市,马坡岭,细颗粒物(PM2.5),153,143,153,117,120,36,,42,42,21,20,2,5,0.8,0.8
2024-12-04T1700,1338A,112.9394,28.19,长沙市,湖南师范大学,细颗粒物(PM2.5),137,151,164,104,111,47,,42,42,20,22,7,12,0.7,0.7
2024-12-04T1700,1339A,113.0178,28.1322,长沙市,雨花区环保局,细颗粒物(PM2.5),153,138,147,117,120,47,,45,45,22,22,4,6,0.7,0.7
2024-12-04T1700,1340A,112.9792,28.2597,长沙市,伍家岭,细颗粒物(PM2.5),140,147,157,107,110,33,,36,36,21,23,2,4,1.0,0.9
2024-12-04T1700,1341A,113.0014,28.1944,长沙市,火车新站,细颗粒物(PM2.5),156,172,152,119,121,41,,41,41,,21,1,4,0.8,0.7
2024-12-04T1700,1342A,112.9844,28.1178,长沙市,天心区环保局,细颗粒物(PM2.5),129,162,165,98,106,46,,43,43,20,22,3,5,0.7,0.7
2024-12-04T1700,1343A,112.8908,28.1308,长沙市,湖南中医药大学,细颗粒物(PM2.5),149,156,163,114,115,35,,43,43,26,26,5,7,0.8,0.9
2024-12-04T1700,1344A,112.9581,28.3611,长沙市,沙坪,细颗粒物(PM2.5),134,127,130,102,102,24,,30,30,26,24,6,8,1.0,1
2024-12-04T1700,1727A,113.1147,36.1547,长治市,清华站,,46,46,85,27,43,64,,39,39,29,51,17,19,0.6,1
2024-12-04T1700,1728A,113.1031,36.1989,长治市,监测站,,42,41,72,29,48,65,,38,38,20,41,17,22,0.7,1.2
2024-12-04T1700,1730A,113.0886,36.2125,长治市,审计局,,45,45,87,31,50,56,,35,35,26,46,13,18,0.5,1
2024-12-04T1700,1731A,113.0844,36.1856,长治市,长治八中,,46,42,104,32,58,63,,38,38,20,42,14,19,0.6,1.1
2024-12-04T1700,2845A,113.1569,36.1911,长治市,德盛苑,,48,48,64,24,40,58,,46,46,26,31,10,15,0.8,1.4
2024-12-04T1700,3568A,113.06,36.0464,长治市,向阳小学,颗粒物(PM10),65,80,88,43,48,59,,52,52,30,34,12,14,0.7,1
2024-12-04T1700,3569A,112.8792,36.3144,长治市,屯留一中,,49,44,49,34,31,72,,56,56,29,43,13,14,0.4,0.7
2024-12-04T1700,3570A,113.235,36.3489,长治市,潞城四中,颗粒物(PM10),54,58,94,35,55,68,,52,52,26,43,15,25,0.7,1.6
2024-12-04T1700,1854A,111.6975,28.9703,常德市,市二中,细颗粒物(PM2.5),77,102,119,56,91,70,,67,67,10,15,3,6,0.6,0.7
2024-12-04T1700,1857A,111.7158,29.1456,常德市,白鹤山,,,,,,,,,,,,,,,,
2024-12-04T1700,3138A,111.7153,29.0289,常德市,武陵区永安,细颗粒物(PM2.5),82,73,118,60,88,68,,64,64,9,13,1,4,0.6,0.7
2024-12-04T1700,3139A,111.6892,28.9881,常德市,鼎城区玉霞,细颗粒物(PM2.5),83,78,123,61,91,70,,67,67,11,15,2,5,0.7,0.7
2024-12-04T1700,3140A,111.6625,29.0531,常德市,武陵区长庚,细颗粒物(PM2.5),73,91,122,53,84,66,,61,61,10,13,1,4,0.5,0.6
2024-12-04T1700,1196A,119.9633,31.762,常州市,市监测站,颗粒物(PM10),59,68,53,35,32,49,,50,49,38,32,12,11,0.8,0.7
2024-12-04T1700,1200A,119.9468,31.7069,常州市,武进监测站,颗粒物(PM10),51,51,51,31,28,34,,46,42,54,37,11,10,1.1,0.8
2024-12-04T1700,1201A,119.9255,31.9087,常州市,安家,颗粒物(PM10),52,54,44,30,27,50,,58,53,36,27,9,9,0.6,0.6
2024-12-04T1700,3002A,119.9805,31.8174,常州市,行政中心,颗粒物(PM10),51,51,46,31,28,53,,48,48,34,34,11,10,0.5,0.5
2024-12-04T1700,3003A,120.0522,31.7748,常州市,经开区,颗粒物(PM10),54,58,57,31,27,43,,47,47,46,41,12,12,0.9,0.8
2024-12-04T1700,3010A,119.9025,31.7964,常州市,钟楼,颗粒物(PM10),52,54,50,26,28,54,,51,51,34,32,9,10,0.8,0.8
2024-12-04T1700,3429A,119.8598,31.7066,常州市,武进经发区,颗粒物(PM10),57,64,55,33,28,27,,49,42,56,33,10,9,0.9,0.8
2024-12-04T1700,3430A,119.5826,31.7245,常州市,金坛城区,颗粒物(PM10),60,69,55,41,34,58,,53,53,24,31,8,9,0.5,0.6
2024-12-04T1700,2220A,120.4318,41.5881,朝阳市,西梁,,25,25,35,16,12,30,,55,55,25,21,8,15,0.7,0.9
2024-12-04T1700,2221A,120.4521,41.5646,朝阳市,河畔小区,,22,20,33,15,13,52,,55,55,21,18,6,14,0.7,0.9
2024-12-04T1700,2222A,120.4176,41.5648,朝阳市,八里堡,,48,48,37,16,14,30,,57,57,46,22,12,18,1.0,0.9
2024-12-04T1700,2223A,120.3806,41.5969,朝阳市,农业园区,,30,27,28,21,12,64,,65,65,15,16,18,11,0.5,0.9
2024-12-04T1700,1705A,116.6367,23.6719,潮州市,西园路,细颗粒物(PM2.5),63,62,45,45,37,129,,96,96,16,18,5,5,0.4,0.6
2024-12-04T1700,3026A,116.6183,23.6608,潮州市,市政府,细颗粒物(PM2.5),90,,58,67,44,129,,103,103,17,26,6,11,0.6,0.8
2024-12-04T1700,4036A,116.6461,23.6761,潮州市,金山,颗粒物(PM10),52,53,45,33,27,138,,102,102,14,16,8,7,0.6,0.6
2024-12-04T1700,2472A,113.0073,25.9061,郴州市,马头岭,,,,137,75,80,125,,101,101,20,29,,18,0.7,1.1
2024-12-04T1700,2473A,113.0116,25.8226,郴州市,市职中,细颗粒物(PM2.5),105,103,112,79,91,132,,109,109,24,31,9,10,1.0,1.1
2024-12-04T1700,2474A,113.0161,25.8001,郴州市,兴隆步行街,细颗粒物(PM2.5),129,122,126,98,101,131,,110,110,20,20,10,12,0.9,0.9
2024-12-04T1700,2475A,113.0383,25.8071,郴州市,市审计局,细颗粒物(PM2.5),118,105,112,89,92,135,,109,109,15,15,9,11,1.0,1
2024-12-04T1700,2476A,113.0348,25.7759,郴州市,市环保局,细颗粒物(PM2.5),123,119,119,93,105,128,,105,105,22,22,9,12,0.8,1
2024-12-04T1700,1431A,103.9728,30.7236,成都市,金泉两河,颗粒物(PM10),67,84,85,40,64,56,,32,32,32,45,3,2,0.4,0.6
2024-12-04T1700,1432A,104.176,30.6872,成都市,十里店,细颗粒物(PM2.5),67,62,84,48,62,66,,36,36,29,44,3,2,0.5,0.6
2024-12-04T1700,1433A,104.079,30.5706,成都市,三瓦窑,颗粒物(PM10),56,61,85,25,58,64,,35,35,27,42,2,2,0.5,0.7
2024-12-04T1700,1434A,104.1114,30.63,成都市,沙河铺,细颗粒物(PM2.5),58,64,81,41,61,56,,36,36,31,37,4,4,0.5,0.6
2024-12-04T1700,1437A,104.0786,30.6531,成都市,君平街,细颗粒物(PM2.5),60,66,79,43,64,67,,44,44,27,40,4,4,0.6,0.7
2024-12-04T1700,1438A,103.613,31.0283,成都市,灵岩寺,,,,,,,,,,,,,,,,
2024-12-04T1700,2880A,104.0239,30.65639,成都市,大石西路,细颗粒物(PM2.5),63,61,84,45,62,69,,41,41,20,33,5,5,0.4,0.6
2024-12-04T1700,3136A,104.2725,30.5589,成都市,龙泉驿区区政府,,46,46,84,27,65,73,,29,29,14,30,4,4,0.4,0.6
2024-12-04T1700,3357A,104.0106,30.6931,成都市,金博路,颗粒物(PM10),56,62,74,35,53,56,,34,34,29,40,2,2,0.6,0.8
2024-12-04T1700,3359A,104.0578,30.5225,成都市,华阳,颗粒物(PM10),56,61,87,34,58,57,,30,30,23,34,2,1,0.4,0.7
2024-12-04T1700,3487A,104.2394,30.5319,成都市,车城东七路,,,38,89,28,70,,,20,20,17,37,,4,0.4,0.6
2024-12-04T1700,3488A,104.3853,30.7453,成都市,青白江技师分院,颗粒物(PM10),54,58,81,35,68,74,,32,32,20,31,7,7,0.6,0.8
2024-12-04T1700,3489A,104.0789,30.4072,成都市,科学城,细颗粒物(PM2.5),57,49,85,40,72,54,,23,23,27,34,5,4,0.5,0.7
2024-12-04T1700,4011A,103.8506,30.6947,成都市,光华大道三段,,49,49,80,33,56,50,,32,32,30,40,2,1,0.5,0.8
2024-12-04T1700,1062A,117.9531,40.9081,承德市,铁路,,42,42,30,14,12,30,,46,44,46,21,27,8,0.5,0.5
2024-12-04T1700,1063A,117.9392,40.9763,承德市,中国银行,,36,36,34,17,11,43,,49,49,19,18,3,2,0.4,0.4
2024-12-04T1700,1064A,117.9503,40.928,承德市,开发区,,32,32,37,14,20,22,,45,45,50,25,9,5,0.3,0.4
2024-12-04T1700,1065A,117.8051,40.9655,承德市,文化中心,,32,32,49,14,13,60,,53,53,13,27,13,9,0.3,0.5
2024-12-04T1700,1066A,117.9268,41.0026,承德市,离宫,,32,30,35,22,24,56,,50,50,3,19,2,2,0.2,0.4
2024-12-04T1700,2314A,117.47,30.6618,池州市,池州学院,"颗粒物(PM10),细颗粒物(PM2.5)",60,70,79,43,49,47,,32,32,30,36,8,10,0.8,0.8
2024-12-04T1700,3237A,117.4918,30.6617,池州市,展览馆,细颗粒物(PM2.5),63,69,84,45,54,47,,33,33,34,38,10,10,0.7,0.8
2024-12-04T1700,3333A,117.5627,30.695,池州市,第八中学,颗粒物(PM10),56,62,80,37,50,44,,31,31,34,37,8,7,0.7,0.7
2024-12-04T1700,3334A,117.5038,30.6243,池州市,第十二中学,颗粒物(PM10),60,69,80,42,52,41,,36,36,36,35,6,5,0.8,0.8
2024-12-04T1700,1744A,118.9233,42.2816,赤峰市,松山一中,,20,14,22,3,7,64,,67,67,14,13,7,10,0.4,0.5
2024-12-04T1700,1745A,118.9576,42.2728,赤峰市,哈达街,,,,14,,6,67,,66,66,19,16,6,7,0.6,0.6
2024-12-04T1700,1746A,118.8788,42.2554,赤峰市,天义路,,18,15,20,7,6,55,,64,64,25,14,6,7,0.3,0.4
2024-12-04T1700,3058A,119.2658,42.0353,赤峰市,银河街,,22,22,33,9,17,68,,66,66,14,20,12,24,0.4,0.7
2024-12-04T1700,3286A,118.9359,42.3147,赤峰市,桥北物流园区,,23,13,15,3,6,73,,71,71,13,18,8,9,0.7,0.7
2024-12-04T1700,2521A,107.3476,22.4136,崇左市,市环保局江州分局,,44,44,60,18,32,121,,105,105,5,20,5,7,0.5,0.7
2024-12-04T1700,2522A,107.3702,22.3707,崇左市,城南新区,,38,27,38,17,25,121,,106,106,6,17,6,8,0.7,0.8
2024-12-04T1700,2298A,118.3093,32.3153,滁州市,老年大学,,49,48,59,34,35,40,,56,47,32,26,11,12,0.5,0.5
2024-12-04T1700,2299A,118.3244,32.2786,滁州市,人大宾馆,细颗粒物(PM2.5),54,42,56,38,38,42,,50,46,38,31,8,7,0.3,0.3
2024-12-04T1700,3207A,118.3118,32.3038,滁州市,市政府原办公楼,,48,38,49,33,37,38,,54,45,34,25,5,5,0.9,0.8
2024-12-04T1700,3331A,118.3267,32.2634,滁州市,图书馆,颗粒物(PM10),51,51,66,34,33,35,,52,45,37,24,5,5,0.3,0.3
2024-12-04T1700,2605A,101.5482,25.0441,楚雄彝族自治州,州环境监测站,,23,8,18,3,12,73,,67,67,3,19,4,10,0.3,0.4
2024-12-04T1700,2606A,101.538,25.0492,楚雄彝族自治州,市经济开发区,,23,20,24,3,13,71,,60,60,5,22,4,9,0.5,0.6
2024-12-04T1700,2548A,107.5277,31.2827,达州市,达州职业技术学院,,,63,36,29,30,23,,30,29,,30,8,9,0.7,0.8
2024-12-04T1700,2549A,107.5086,31.2186,达州市,市环境监测站,,40,40,38,22,22,52,,33,33,28,36,7,7,0.6,0.6
2024-12-04T1700,2550A,107.4988,31.2132,达州市,凤凰小区,,28,24,33,19,24,66,,46,46,18,32,8,9,0.5,0.6
2024-12-04T1700,2551A,107.5082,31.1986,达州市,达县机关宾馆,,42,29,31,29,31,35,,20,20,42,41,7,7,0.6,0.7
2024-12-04T1700,2552A,107.4644,31.2124,达州市,市政中心,,32,32,39,14,22,55,,40,40,27,35,7,7,0.5,0.6
2024-12-04T1700,2614A,100.1542,25.7054,大理白族自治州,大理市环境监测站,,,18,22,9,13,82,,77,77,5,10,,7,0.4,0.4
2024-12-04T1700,2615A,100.2171,25.5811,大理白族自治州,大理古城,,28,15,20,9,10,87,,84,84,5,11,5,5,0.4,0.4
2024-12-04T1700,1109A,121.612,38.9741,大连市,甘井子,,24,24,31,3,15,68,,66,66,14,24,16,19,0.3,0.6
2024-12-04T1700,1110A,121.565,38.9511,大连市,周水子,,22,22,31,7,19,54,,52,52,28,44,8,12,0.3,0.5
2024-12-04T1700,1111A,121.5637,38.8845,大连市,星海三站,,22,20,32,3,17,68,,59,59,12,34,7,12,0.3,0.5
2024-12-04T1700,1112A,121.6302,38.9117,大连市,青泥洼桥,,16,14,33,6,17,49,,53,53,16,26,10,12,0.3,0.5
2024-12-04T1700,1113A,121.6251,38.8638,大连市,傅家庄,,21,21,27,7,13,67,,66,66,12,21,14,15,0.4,0.7
2024-12-04T1700,1114A,121.5213,38.8661,大连市,七贤岭,,22,13,28,3,15,70,,66,66,12,24,7,9,0.6,0.8
2024-12-04T1700,1115A,121.2529,38.8061,大连市,旅顺,,22,16,21,8,13,68,,64,64,10,15,10,10,0.4,0.3
2024-12-04T1700,1116A,121.7485,39.1311,大连市,金州,,,,32,,18,63,,62,62,17,17,6,9,0.5,0.6
2024-12-04T1700,1117A,121.7811,39.0496,大连市,开发区,,26,26,33,8,20,56,,51,51,20,30,11,12,0.4,0.6
2024-12-04T1700,1118A,121.9762,39.0631,大连市,双D港,,22,19,27,3,15,69,,72,72,15,15,7,10,0.4,0.7
2024-12-04T1700,1789A,124.81117,46.03138,大庆市,大同区,,47,47,27,23,17,32,,52,50,41,14,5,5,0.5,0.3
2024-12-04T1700,1790A,125.129,46.533,大庆市,龙凤区,,33,,29,23,24,38,,51,51,36,24,16,10,0.8,0.7
2024-12-04T1700,1791A,124.902,46.408,大庆市,红岗区,,35,30,21,24,15,26,,53,52,48,17,5,6,0.5,0.4
2024-12-04T1700,1792A,125.153,46.586,大庆市,萨尔图区,,33,33,28,10,21,49,,58,58,28,27,6,6,0.4,0.6
2024-12-04T1700,1793A,124.9042,46.6215,大庆市,让胡路区,,36,31,21,25,21,43,,54,54,31,20,6,6,0.4,0.3
2024-12-04T1700,3481A,125.141,46.634,大庆市,萨区政府监测点,,17,10,17,7,11,53,,58,58,16,20,6,6,0.5,0.4
2024-12-04T1700,1721A,113.3819,40.1097,大同市,果树场,,25,25,51,3,26,62,,48,48,22,38,7,14,0.3,0.8
2024-12-04T1700,1723A,113.2994,40.0758,大同市,云冈宾馆,,23,23,36,9,15,72,,58,58,13,30,8,17,0.3,0.8
2024-12-04T1700,1724A,113.3444,40.0917,大同市,大同大学,,24,17,34,9,16,74,,53,53,9,32,4,15,0.3,0.6
2024-12-04T1700,1725A,113.2661,40.1269,大同市,安家小村,,22,13,49,9,21,69,,52,52,8,30,12,20,0.1,0.9
2024-12-04T1700,1726A,113.2711,40.0844,大同市,教育学院,,29,29,46,9,18,56,,47,47,25,36,7,15,0.4,0.9
2024-12-04T1700,3282A,113.3397,40.0597,大同市,大同市卫生学校,,22,14,37,9,16,68,,50,50,14,35,6,15,0.3,0.8
2024-12-04T1700,3565A,113.1367,40.1122,大同市,云冈站,,33,33,51,7,19,65,,56,56,17,40,9,21,0.2,0.5
2024-12-04T1700,3566A,113.1186,40.2556,大同市,图书馆,,27,27,29,3,16,69,,60,60,13,12,7,11,0.3,0.4
2024-12-04T1700,3567A,113.5931,40.0461,大同市,区一中,,28,28,50,7,17,70,,55,55,13,31,17,21,0.4,0.8
2024-12-04T1700,3676A,113.2802,40.0995,大同市,第二人民医院,,22,20,47,14,23,70,,55,55,15,39,10,18,0.2,0.9
2024-12-04T1700,2269A,124.1069,50.4097,大兴安岭地区,科技局,,,,15,17,14,65,,68,68,9,5,4,5,0.5,0.4
2024-12-04T1700,3663A,124.1164,50.4278,大兴安岭地区,红旗社区,,21,7,6,6,5,65,,65,65,6,5,6,5,0.3,0.2
2024-12-04T1700,1600A,124.3303,40.0625,丹东市,江湾东路,,46,46,56,30,37,29,,50,50,40,30,27,17,0.7,1.1
2024-12-04T1700,1601A,124.4256,40.1503,丹东市,临江后街,,50,50,66,29,45,42,,54,54,28,39,24,15,0.8,1.1
2024-12-04T1700,1602A,124.3933,40.1461,丹东市,元宝山,,38,38,45,19,26,46,,51,51,22,24,10,11,0.7,0.8
2024-12-04T1700,1603A,124.3633,40.1092,丹东市,民主桥,,44,44,59,16,31,50,,54,54,23,33,12,13,0.7,1.2
2024-12-04T1700,3541A,109.5726,19.5167,儋州市,第一中学子站,,29,19,26,10,13,90,,85,85,3,3,5,6,0.5,0.5
2024-12-04T1700,3542A,109.5567,19.5187,儋州市,东坡学校子站,,31,17,24,12,13,98,,93,93,5,3,6,6,0.5,0.5
2024-12-04T1700,2616A,98.5842,24.428,德宏傣族景颇族自治州,德宏州监测站,,26,20,40,7,22,83,,57,57,10,24,10,14,0.5,0.7
2024-12-04T1700,3677A,98.5881,24.4368,德宏傣族景颇族自治州,芒市人民政府综合楼,,33,33,36,3,19,77,,52,52,9,16,10,10,0.4,0.6
2024-12-04T1700,1901A,104.4239,31.1208,德阳市,东山公园,颗粒物(PM10),63,75,79,36,51,77,,50,50,15,28,3,2,0.5,0.8
2024-12-04T1700,1902A,104.3826,31.1317,德阳市,西小区,颗粒物(PM10),53,55,66,33,50,71,,40,40,18,31,2,2,0.6,0.8
2024-12-04T1700,1904A,104.3553,31.1091,德阳市,耐火材料厂,颗粒物(PM10),52,53,70,33,51,70,,37,37,21,33,5,4,0.4,0.6
2024-12-04T1700,3639A,104.4019,31.1244,德阳市,市教育局,"颗粒物(PM10),细颗粒物(PM2.5)",52,54,65,36,53,73,,45,45,19,30,4,3,0.6,0.8
2024-12-04T1700,1622A,116.3032,37.4674,德州市,儿童乐园,细颗粒物(PM2.5),77,92,100,56,53,60,,54,54,38,53,11,13,0.6,0.8
2024-12-04T1700,1624A,116.2991,37.4451,德州市,监理站,,,92,83,56,48,62,,54,54,38,55,12,15,,0.8
2024-12-04T1700,3066A,116.2721,37.4379,德州市,九衢泉纯净水厂,细颗粒物(PM2.5),83,100,98,61,54,46,,7,,44,62,11,14,0.6,0.9
2024-12-04T1700,3371A,116.3728,37.4403,德州市,开发区人民医院,,,100,91,48,50,59,,50,50,,56,11,14,0.6,0.7
2024-12-04T1700,3372A,116.3572,37.4094,德州市,太阳城中学,细颗粒物(PM2.5),79,97,89,58,55,52,,56,56,46,56,10,14,0.7,0.7
2024-12-04T1700,3511A,116.5652,37.3319,德州市,陵城艺术中心,颗粒物(PM10),68,85,104,46,65,57,,48,48,31,48,12,17,0.7,1
2024-12-04T1700,2621A,99.7056,27.8317,迪庆藏族自治州,迪庆州站,,25,14,27,9,18,77,,72,72,7,12,8,5,0.4,0.5
2024-12-04T1700,3180A,99.7136,27.8094,迪庆藏族自治州,质量技术监督局,,30,30,31,6,15,70,,62,62,7,14,8,7,0.3,0.5
2024-12-04T1700,2663A,104.6241,35.5734,定西市,东关小学,颗粒物(PM10),56,61,59,21,27,76,,62,62,10,18,7,11,0.4,0.5
2024-12-04T1700,2664A,104.6194,35.5934,定西市,供电公司,,,49,57,20,30,,,61,61,12,25,6,10,0.4,0.8
2024-12-04T1700,1389A,113.7547,23.0494,东莞市,莞城梨川,臭氧1小时,54,53,73,29,40,163,,137,137,20,56,8,9,0.7,0.9
2024-12-04T1700,1390A,113.7944,23.0128,东莞市,东城石井,,49,46,62,31,39,155,,135,135,23,50,6,6,0.7,0.8
2024-12-04T1700,1391A,113.7383,22.9658,东莞市,南城西平,臭氧1小时,65,48,82,28,43,172,,144,144,20,74,5,6,0.7,0.8
2024-12-04T1700,3319A,113.7338,23.0381,东莞市,万江金泰,臭氧1小时,52,48,70,29,40,161,,125,125,20,57,8,8,0.6,0.8
2024-12-04T1700,3626A,113.7533,23.0202,东莞市,南城元岭,颗粒物(PM10),51,51,73,32,39,158,,130,130,16,55,9,10,0.7,0.9
2024-12-04T1700,3627A,113.7875,23.0457,东莞市,东城主山,,,,78,30,41,156,,128,128,,63,,11,0.6,0.7
2024-12-04T1700,1666A,118.6614,37.4309,东营市,市环保局,颗粒物(PM10),53,56,60,29,35,56,,53,53,45,63,11,20,0.8,0.8
2024-12-04T1700,3036A,118.6904,37.4338,东营市,开发区管委会,,45,45,64,24,37,58,,56,56,37,60,11,14,0.9,1
2024-12-04T1700,3365A,118.5719,37.565,东营市,垦利区民丰路,颗粒物(PM10),51,51,63,29,35,50,,52,52,37,48,13,11,0.5,0.6
2024-12-04T1700,3498A,118.5055,37.8612,东营市,河口城区,,23,17,66,3,35,72,,54,54,15,40,3,6,0.5,0.7
2024-12-04T1700,3646A,118.4978,37.4623,东营市,胜利站,颗粒物(PM10),58,66,77,34,45,40,,54,54,52,57,11,13,0.8,1.1
2024-12-04T1700,3734A,118.35,37.26,东营市,理想之城,颗粒物(PM10),58,66,76,34,42,53,,53,53,46,60,11,10,0.7,0.8
2024-12-04T1700,1591A,110.0023,39.8129,鄂尔多斯市,综合楼,,25,17,32,12,8,80,,74,73,14,20,6,8,0.5,0.5
2024-12-04T1700,1592A,109.9486,39.8261,鄂尔多斯市,巴音孟克林场办事处,,23,22,31,12,12,72,,67,67,10,18,6,7,0.4,0.4
2024-12-04T1700,1593A,109.7736,39.5986,鄂尔多斯市,康泽苑,,25,19,28,12,11,77,,75,75,7,14,5,6,0.5,0.5
2024-12-04T1700,1594A,109.8119,39.5989,鄂尔多斯市,华泰汽车城,,,19,32,14,13,74,,73,73,11,20,,6,,0.5
2024-12-04T1700,1595A,109.9734,39.7884,鄂尔多斯市,奥林花园,,24,24,35,14,10,69,,67,67,13,22,5,7,0.4,0.4
2024-12-04T1700,2436A,114.8938,30.3994,鄂州市,市政府,细颗粒物(PM2.5),92,77,103,68,87,13,,22,22,35,36,6,7,1.1,1
2024-12-04T1700,2437A,114.8989,30.3714,鄂州市,赵家坝,,,76,112,67,86,15,,28,28,35,33,,3,0.9,0.7
2024-12-04T1700,3654A,114.8094,30.4089,鄂州市,精准医疗中心,细颗粒物(PM2.5),87,69,96,64,84,21,,32,32,30,29,4,8,0.9,1
2024-12-04T1700,2454A,109.4978,30.2981,恩施土家族苗族自治州,湖北民院,,,39,86,25,73,54,,36,36,17,23,,6,0.8,1
2024-12-04T1700,2455A,109.4707,30.2798,恩施土家族苗族自治州,州电力总公司,,42,42,80,26,70,44,,33,33,24,24,7,7,0.9,1.1
2024-12-04T1700,3549A,109.5061,30.3772,恩施土家族苗族自治州,龙凤新区,,46,36,70,32,52,31,,33,33,11,18,6,6,0.4,0.6
2024-12-04T1700,2499A,108.3411,21.6158,防城港市,沙万,臭氧1小时,65,70,53,35,30,172,,151,151,30,30,18,14,0.8,0.6
2024-12-04T1700,2500A,108.3514,21.7731,防城港市,防城档案局,臭氧1小时,105,72,97,45,38,210,,170,170,22,32,13,9,0.9,0.8
2024-12-04T1700,2501A,108.3506,21.6414,防城港市,大海花园,臭氧1小时,98,88,54,39,27,198,,167,167,29,26,24,11,0.6,0.6
2024-12-04T1700,1371A,113.1294,23.0067,佛山市,湾梁,颗粒物(PM10),58,66,96,25,42,136,,102,102,38,83,9,9,0.7,1
2024-12-04T1700,1372A,113.1083,23.0478,佛山市,华材职中,细颗粒物(PM2.5),54,56,111,38,60,152,,107,107,34,97,10,10,0.6,1
2024-12-04T1700,1373A,113.144,23.0453,佛山市,南海气象局,颗粒物(PM10),54,58,87,36,51,133,,100,100,30,76,9,9,0.6,0.9
2024-12-04T1700,1374A,113.2881,22.8094,佛山市,顺德苏岗,臭氧1小时,113,77,86,46,51,226,,154,154,36,68,9,9,0.6,0.8
2024-12-04T1700,1376A,112.8383,22.8678,佛山市,高明孔堂,臭氧1小时,111,73,81,58,53,221,,150,150,48,48,8,11,0.8,0.9
2024-12-04T1700,1377A,112.8836,23.1588,佛山市,三水监测站,颗粒物(PM10),58,66,96,38,55,150,,118,118,50,85,9,19,0.7,0.9
2024-12-04T1700,1378A,112.867,23.185,佛山市,三水云东海,,43,43,79,28,52,128,,115,115,33,69,11,14,0.7,0.8
2024-12-04T1700,3625A,113.2544,22.7642,佛山市,容桂街道办,臭氧1小时,111,66,96,44,55,222,,159,159,35,81,8,9,0.7,1
2024-12-04T1700,1280A,119.3903,26.0543,福州市,鼓山,,,,33,,16,,,112,,,8,,1,,0.3
2024-12-04T1700,1282A,119.2681,26.0504,福州市,师大,颗粒物(PM10),56,62,45,30,22,101,,112,100,17,15,3,4,0.5,0.4
2024-12-04T1700,1283A,119.2984,26.1028,福州市,五四北路,颗粒物(PM10),54,58,39,30,22,98,,111,96,19,13,1,2,0.5,0.5
2024-12-04T1700,1284A,119.2648,26.0768,福州市,杨桥西路,颗粒物(PM10),57,63,43,31,21,101,,113,101,17,12,1,2,0.5,0.4
2024-12-04T1700,1285A,119.317,26.0746,福州市,紫阳,颗粒物(PM10),53,56,42,30,22,100,,111,90,14,12,2,3,0.4,0.3
2024-12-04T1700,3048A,119.5799,26.0936,福州市,九龙,,50,50,40,23,22,115,,105,101,7,9,2,3,0.3,0.3
2024-12-04T1700,3526A,119.5189,25.9664,福州市,吴航,,,49,40,26,22,118,,114,111,11,11,3,4,,0.3
2024-12-04T1700,1755A,123.7977,41.8491,抚顺市,望花区,,50,50,56,25,28,34,,42,42,39,39,8,8,0.7,0.8
2024-12-04T1700,1756A,123.9161,41.8822,抚顺市,顺城区,,,39,68,16,32,43,,46,46,,42,10,10,0.5,0.9
2024-12-04T1700,1757A,124.0436,41.8611,抚顺市,东洲区,,50,50,57,25,31,42,,46,46,32,33,13,9,0.9,0.7
2024-12-04T1700,1758A,123.9247,41.8642,抚顺市,新抚区,颗粒物(PM10),53,56,71,21,32,34,,40,40,41,37,11,8,0.5,0.6
2024-12-04T1700,1759A,124.0972,41.8961,抚顺市,大伙房水库,,36,36,49,22,27,50,,50,50,24,36,13,10,0.8,0.6
2024-12-04T1700,1760A,123.7086,41.8391,抚顺市,沈抚新城,,47,47,40,11,22,44,,51,51,34,34,9,8,0.4,0.6
2024-12-04T1700,2376A,116.2127,28.0814,抚州市,桐源党溪,细颗粒物(PM2.5),69,81,94,50,63,108,,88,88,9,10,5,6,0.6,0.8
2024-12-04T1700,2377A,116.3544,27.9831,抚州市,市站,细颗粒物(PM2.5),72,86,105,52,69,114,,88,88,18,20,3,3,1.0,1.3
2024-12-04T1700,2378A,116.3565,27.963,抚州市,血防站,细颗粒物(PM2.5),74,79,103,54,69,118,,95,95,12,16,4,10,0.7,1.1
2024-12-04T1700,2379A,116.3564,28.0007,抚州市,采茶剧团,细颗粒物(PM2.5),70,72,97,51,73,115,,86,86,15,18,7,6,0.9,1
2024-12-04T1700,2380A,116.385,27.9647,抚州市,医学分院,细颗粒物(PM2.5),69,75,103,50,68,116,,90,90,13,18,4,8,1.0,1.2
2024-12-04T1700,2207A,121.6094,41.998,阜新市,工业园区,,46,46,60,32,21,60,,63,63,26,25,12,20,0.5,0.6
2024-12-04T1700,2208A,121.6697,42.0279,阜新市,长青街,,35,35,42,11,15,53,,58,58,18,20,8,17,0.6,0.6
2024-12-04T1700,2209A,121.6673,42.0705,阜新市,农业园区,,33,33,31,7,8,60,,58,58,13,16,8,17,0.3,0.4
2024-12-04T1700,2210A,121.6717,42.0224,阜新市,东苑,,22,21,41,15,21,51,,52,52,14,19,10,24,0.3,0.5
2024-12-04T1700,2211A,121.6506,42.0498,阜新市,玉龙新城,,25,23,55,17,18,56,,61,61,20,27,5,11,0.5,0.6
2024-12-04T1700,2301A,115.8277,32.8929,阜阳市,市监测站,细颗粒物(PM2.5),103,102,86,77,63,8,,24,22,48,34,6,6,0.7,0.6
2024-12-04T1700,2303A,115.8554,32.8605,阜阳市,开发区,细颗粒物(PM2.5),98,111,109,73,66,10,,25,25,41,32,6,7,0.7,0.6
2024-12-04T1700,2875A,115.784,32.8892,阜阳市,阜阳职业技术学院,细颗粒物(PM2.5),114,98,90,86,62,13,,23,22,41,34,6,7,0.8,0.7
2024-12-04T1700,3468A,115.7901,32.8613,阜阳市,市规划展馆,细颗粒物(PM2.5),109,98,89,82,58,11,,34,28,46,30,6,7,0.7,0.6
2024-12-04T1700,3469A,115.836,32.9183,阜阳市,枣园社区,细颗粒物(PM2.5),99,103,99,74,67,15,,24,24,39,39,4,6,0.7,0.7
2024-12-04T1700,2669A,102.9099,34.9841,甘南藏族自治州,州政府,,37,37,56,24,32,86,,76,76,7,18,6,9,0.2,0.7
2024-12-04T1700,3380A,102.8914,34.9617,甘南藏族自治州,甘肃民族师范学院,,28,19,35,14,25,88,,75,72,22,25,5,11,0.4,0.6
2024-12-04T1700,2570A,101.9603,30.0475,甘孜藏族自治州,水桥子,,13,10,21,3,11,40,,30,30,20,29,7,8,0.4,0.5
2024-12-04T1700,3065A,101.9533,29.9972,甘孜藏族自治州,州环保局,,16,9,25,3,8,49,,35,35,14,25,4,4,0.3,0.4
2024-12-04T1700,3414A,115.8347,28.932,赣江新区,桑海产业园,细颗粒物(PM2.5),117,134,147,88,100,72,,73,73,27,25,9,11,0.8,0.8
2024-12-04T1700,2362A,114.9017,25.9149,赣州市,通天岩,细颗粒物(PM2.5),80,,48,59,39,101,,109,109,10,10,6,4,0.5,0.6
2024-12-04T1700,2363A,114.9367,25.8664,赣州市,地委,,50,50,62,33,33,105,,109,109,11,22,4,7,0.9,0.9
2024-12-04T1700,2364A,114.9461,25.8481,赣州市,气象台,,48,48,67,28,34,95,,104,104,21,28,13,18,0.8,0.8
2024-12-04T1700,2365A,114.9322,25.8333,赣州市,市图书馆,,,39,61,25,36,110,,118,118,12,34,7,11,,0.9
2024-12-04T1700,2366A,114.8905,25.8471,赣州市,华坚鞋城,,49,49,63,28,36,84,,93,93,19,19,6,10,0.5,0.5
2024-12-04T1700,3109A,115.0093,25.8613,赣州市,赣县区卫计委,"颗粒物(PM10),细颗粒物(PM2.5)",54,57,62,38,42,102,,84,84,15,36,9,6,0.8,0.8
2024-12-04T1700,2683A,106.2319,36.1417,固原市,马园,颗粒物(PM10),51,52,72,15,24,77,,69,69,12,28,7,9,0.7,0.9
2024-12-04T1700,2684A,106.2792,36.0022,固原市,监测站,,39,39,48,14,17,82,,81,81,13,19,5,7,0.3,0.4
2024-12-04T1700,2685A,106.2375,36.0211,固原市,新区,,32,32,47,14,18,84,,82,82,10,17,3,4,0.1,0.3
2024-12-04T1700,3522A,106.2177,35.9959,固原市,原州区十五小,,44,44,47,15,19,87,,86,86,11,16,6,6,0.4,0.4
2024-12-04T1700,2543A,106.6308,30.5278,广安市,小平旧居,,,,,,,,,,,,,,,,
2024-12-04T1700,2544A,106.6303,30.4576,广安市,市委,,36,36,56,13,47,25,,20,13,18,19,2,2,0.6,0.7
2024-12-04T1700,2545A,106.6271,30.4663,广安市,友谊中学,,50,36,55,35,49,23,,16,8,18,22,2,3,0.8,0.8
2024-12-04T1700,2547A,106.6388,30.4551,广安市,广电花园,细颗粒物(PM2.5),52,,54,36,51,19,,19,10,26,24,2,2,0.8,0.9
2024-12-04T1700,2902A,106.6351,30.4865,广安市,北辰小学,,,,56,,50,32,,15,10,,20,4,4,0.6,0.9
2024-12-04T1700,2523A,105.8945,32.4535,广元市,黑石坡,,44,44,46,30,33,65,,67,62,12,16,7,12,0.4,0.6
2024-12-04T1700,2524A,105.821,32.4444,广元市,老城,,43,43,52,12,28,64,,72,69,28,26,1,2,0.5,0.6
2024-12-04T1700,2526A,105.8628,32.4287,广元市,监测站,,48,43,44,33,31,82,,81,80,18,26,6,6,0.7,0.8
2024-12-04T1700,3617A,105.8047,32.4166,广元市,经开区,颗粒物(PM10),51,52,58,28,36,61,,69,66,33,33,5,5,0.5,0.6
2024-12-04T1700,1345A,113.2347,23.1423,广州市,广雅中学,颗粒物(PM10),53,56,96,24,41,135,,108,108,28,83,8,8,0.8,1
2024-12-04T1700,1346A,113.2612,23.105,广州市,市五中,颗粒物(PM10),52,53,76,33,48,151,,122,122,18,64,7,7,0.6,1.1
2024-12-04T1700,1348A,113.3478,23.0916,广州市,广东商学院,臭氧1小时,57,57,82,35,44,165,,105,105,25,85,8,6,0.6,0.9
2024-12-04T1700,1349A,113.4332,23.1047,广州市,市八十六中,,,78,81,36,38,147,,100,100,54,88,,8,,1.1
2024-12-04T1700,1350A,113.3505,22.9483,广州市,番禺中学,臭氧1小时,119,79,91,45,54,238,,146,146,31,81,6,7,0.7,1
2024-12-04T1700,1351A,113.2146,23.3916,广州市,花都师范,,,39,73,20,39,127,,97,97,,65,,8,0.4,0.6
2024-12-04T1700,1352A,113.2597,23.1331,广州市,市监测站,,48,48,66,22,34,138,,111,111,18,67,6,7,0.4,0.7
2024-12-04T1700,1353A,113.5618,23.312,广州市,九龙镇镇龙,,40,40,66,22,33,118,,92,92,16,45,6,6,0.5,0.6
2024-12-04T1700,1354A,113.2765,23.1544,广州市,麓湖,,46,46,50,24,30,120,,117,117,25,63,5,6,0.5,0.6
2024-12-04T1700,1355A,113.443,23.3035,广州市,帽峰山森林公园,,39,26,21,26,16,123,,106,106,11,13,6,7,0.4,0.4
2024-12-04T1700,2846A,113.3221,23.1322,广州市,体育西,颗粒物(PM10),56,61,70,30,38,135,,106,106,22,59,6,5,0.7,0.9
2024-12-04T1700,3298A,113.5717,23.5491,广州市,从化街口,,34,30,54,22,35,106,,90,90,14,38,8,8,0.6,0.8
2024-12-04T1700,3299A,113.3472,23.3692,广州市,白云竹料,,41,40,69,22,39,130,,108,108,17,53,7,9,0.5,0.7
2024-12-04T1700,3300A,113.2981,23.237,广州市,白云嘉禾,颗粒物(PM10),51,51,70,21,31,126,,99,99,33,70,8,8,0.8,0.9
2024-12-04T1700,3301A,113.4256,23.1716,广州市,黄埔科学城,,45,45,50,24,26,129,,119,119,23,51,8,7,0.6,0.7
2024-12-04T1700,3302A,113.3942,23.0483,广州市,番禺大学城,臭氧1小时,100,73,94,33,39,200,,118,118,27,83,12,12,0.8,1
2024-12-04T1700,3303A,113.4922,22.8168,广州市,南沙黄阁,臭氧1小时,116,76,83,46,47,232,,171,171,47,74,9,10,0.8,0.9
2024-12-04T1700,3304A,113.5342,22.7896,广州市,南沙街,臭氧1小时,111,72,73,36,42,222,,183,183,31,57,6,7,0.7,0.8
2024-12-04T1700,3443A,113.2902,23.5544,广州市,花都梯面,细颗粒物(PM2.5),78,90,42,57,28,21,,94,93,79,39,9,9,0.7,0.6
2024-12-04T1700,3445A,113.7858,23.7478,广州市,从化良口,,31,31,25,21,16,57,,69,69,15,21,6,6,0.6,0.5
2024-12-04T1700,3446A,113.8051,23.2614,广州市,增城荔城,细颗粒物(PM2.5),73,71,43,53,30,142,,117,117,15,23,4,4,0.6,0.6
2024-12-04T1700,2505A,109.568,23.1478,贵港市,德智高中,,,,,,,,,,,,,,,,
2024-12-04T1700,2506A,109.6047,23.0666,贵港市,江南子站,臭氧1小时,94,70,117,38,64,195,,176,176,18,42,12,19,0.7,1.1
2024-12-04T1700,2507A,109.6014,23.0948,贵港市,贵城子站,臭氧1小时,73,67,91,40,64,178,,164,164,19,32,12,19,0.9,1
2024-12-04T1700,2508A,109.5669,23.1065,贵港市,荷城子站,臭氧1小时,68,66,91,31,50,174,,161,161,24,34,17,22,0.9,0.8
2024-12-04T1700,3405A,109.5886,23.1172,贵港市,新世纪学校,臭氧1小时,80,63,93,33,53,184,,165,165,17,34,21,22,0.7,0.8
2024-12-04T1700,1439A,106.6899,26.5998,贵阳市,马鞍山,,22,22,37,3,23,16,,23,13,24,21,6,7,0.7,0.8
2024-12-04T1700,1440A,106.6971,26.5694,贵阳市,市环保站,,29,22,40,20,36,15,,31,11,24,22,7,6,0.5,0.5
2024-12-04T1700,1441A,106.6243,26.6266,贵阳市,鉴湖路,,20,19,43,14,28,15,,12,10,17,20,7,6,0.6,0.7
2024-12-04T1700,1442A,106.7487,26.6343,贵阳市,燕子冲,,35,24,33,24,31,16,,28,12,19,16,6,7,0.8,0.8
2024-12-04T1700,1443A,106.6555,26.4365,贵阳市,碧云窝,,36,36,53,19,31,6,,17,9,28,26,11,10,0.9,0.8
2024-12-04T1700,1444A,106.694,26.5161,贵阳市,中院村,,25,24,42,17,31,12,,27,10,23,21,12,13,1.0,0.9
2024-12-04T1700,1445A,106.7109,26.6027,贵阳市,红边门,,42,31,41,29,34,15,,26,10,24,22,14,12,0.8,0.9
2024-12-04T1700,1446A,106.7164,26.5699,贵阳市,新华路,,22,22,37,12,28,11,,30,10,23,18,6,6,0.8,0.7
2024-12-04T1700,1447A,106.674,26.5424,贵阳市,太慈桥,,19,19,36,12,26,13,,22,11,21,21,6,6,0.7,0.7
2024-12-04T1700,1552A,106.805,26.3003,贵阳市,桐木岭,,34,34,39,19,28,22,,36,34,10,11,9,8,0.9,0.9
2024-12-04T1700,1862A,110.4144,25.3167,桂林市,电子科大尧山校区,,,89,86,54,51,,,187,187,13,13,10,14,0.8,0.7
2024-12-04T1700,1863A,110.2819,25.2697,桂林市,监测站,细颗粒物(PM2.5),79,91,87,58,69,144,,141,141,21,20,13,16,1.1,1.1
2024-12-04T1700,1864A,110.3089,25.2708,桂林市,龙隐路小学,细颗粒物(PM2.5),92,84,79,68,66,155,,147,147,16,18,14,22,1.1,1.1
2024-12-04T1700,1865A,110.2869,25.2178,桂林市,八中,"颗粒物(PM10),细颗粒物(PM2.5)",68,86,87,49,67,144,,137,137,19,20,12,18,0.8,0.8
2024-12-04T1700,3403A,110.1764,25.2381,桂林市,创业大厦,细颗粒物(PM2.5),79,92,91,58,67,158,,145,145,21,19,21,13,0.8,0.8
2024-12-04T1700,3531A,110.296,25.1253,桂林市,旅游学院,细颗粒物(PM2.5),70,68,77,51,58,154,,142,142,16,21,12,14,0.8,0.9
2024-12-04T1700,2674A,100.2561,34.4714,果洛藏族自治州,玛沁县大武镇,,32,23,30,12,13,101,,75,75,1,4,5,8,0.4,0.5
2024-12-04T1700,1129A,126.5422,45.755,哈尔滨市,岭北,,24,24,20,13,14,60,,63,63,17,14,4,5,0.9,0.6
2024-12-04T1700,1130A,126.561,45.8167,哈尔滨市,松北商大,,29,29,25,12,14,48,,53,53,20,16,8,9,0.3,0.5
2024-12-04T1700,1131A,126.979,45.5419,哈尔滨市,阿城会宁,,29,22,33,20,21,49,,55,55,16,14,5,5,0.7,0.8
2024-12-04T1700,1132A,126.599,45.7222,哈尔滨市,南岗学府路,,45,45,41,22,18,44,,55,55,24,15,11,7,0.6,0.4
2024-12-04T1700,1133A,126.689,45.7733,哈尔滨市,太平宏伟公园,,30,21,24,21,14,37,,48,48,28,18,10,8,0.7,0.5
2024-12-04T1700,1134A,126.635,45.7667,哈尔滨市,道外承德广场,,32,30,26,22,14,36,,48,48,36,23,10,8,0.8,0.7
2024-12-04T1700,1135A,126.685,45.7319,哈尔滨市,香坊红旗大街,,34,34,34,21,18,35,,48,48,33,19,7,5,0.4,0.5
2024-12-04T1700,1136A,126.6411,45.7258,哈尔滨市,动力和平路,,39,31,34,27,19,38,,52,51,28,17,9,7,0.4,0.3
2024-12-04T1700,1137A,126.593,45.7478,哈尔滨市,道里建国路,,29,24,25,20,18,35,,49,48,33,17,11,7,0.5,0.7
2024-12-04T1700,1138A,126.615,45.61,哈尔滨市,平房东轻厂,,28,28,27,18,16,30,,53,51,40,24,8,9,0.5,0.4
2024-12-04T1700,1139A,126.595,45.9855,哈尔滨市,呼兰师专,,38,30,26,26,20,57,,59,59,22,20,7,4,0.6,0.6
2024-12-04T1700,1140A,126.6206,45.6842,哈尔滨市,省农科院,细颗粒物(PM2.5),73,,34,53,25,24,,51,49,43,23,9,8,0.7,0.6
2024-12-04T1700,2688A,93.5128,42.8172,哈密市,地区监测站,,,54,71,23,37,64,,57,57,,24,9,6,0.4,0.4
2024-12-04T1700,2689A,93.4961,42.8328,哈密市,哈密师范学校,,35,35,71,20,40,61,,52,52,18,35,8,5,0.5,0.5
2024-12-04T1700,2671A,100.9048,36.9639,海北藏族自治州,海晏县西海镇,,45,43,45,31,33,106,,90,90,24,21,115,20,0.6,0.8
2024-12-04T1700,3867A,102.0738,36.5056,海东市,平安区公安北苑,颗粒物(PM10),59,68,63,27,35,91,,69,69,28,27,24,18,0.6,0.7
2024-12-04T1700,1409A,110.576,19.9507,海口市,东寨港,,43,43,26,15,14,79,,82,82,3,3,13,13,0.4,0.5
2024-12-04T1700,1410A,110.3232,20.0574,海口市,海南大学,,41,41,36,18,16,96,,98,98,8,8,5,5,0.4,0.4
2024-12-04T1700,1411A,110.283,20.0053,海口市,秀英海南医院,,35,35,33,15,14,97,,101,101,8,8,4,4,0.3,0.3
2024-12-04T1700,1412A,110.338,19.9969,海口市,海南师范大学,,39,39,31,15,16,96,,100,100,5,8,5,6,0.3,0.4
2024-12-04T1700,1413A,110.33,20.0356,海口市,龙华路环保局宿舍,,34,34,32,15,16,97,,100,100,5,6,5,5,0.4,0.4
2024-12-04T1700,3539A,110.5111,19.9736,海口市,桂林洋子站,,32,32,31,16,17,93,,96,96,7,9,5,5,0.4,0.4
2024-12-04T1700,2673A,100.6188,36.2866,海南藏族自治州,共和县恰卜恰镇,,35,,30,24,18,86,,77,77,8,29,6,11,0.5,0.5
2024-12-04T1700,2676A,97.3731,37.3753,海西蒙古族藏族自治州,德令哈市,,33,33,32,19,16,98,,93,93,15,12,18,17,0.5,0.5
2024-12-04T1700,1048A,114.5302,36.6116,邯郸市,东污水处理厂,细颗粒物(PM2.5),140,126,103,107,74,61,,42,42,24,50,4,4,0.8,0.8
2024-12-04T1700,1049A,114.4918,36.5713,邯郸市,矿院,细颗粒物(PM2.5),140,156,113,107,72,59,,43,43,26,39,3,2,,0.6
2024-12-04T1700,1050A,114.484,36.6133,邯郸市,丛台公园,细颗粒物(PM2.5),134,138,105,102,69,61,,45,45,25,43,,2,0.7,0.7
2024-12-04T1700,3458A,114.7895,36.5593,邯郸市,香泉濮院小区,细颗粒物(PM2.5),135,148,126,103,83,74,,50,50,10,38,4,7,1.0,0.9
2024-12-04T1700,3579A,114.50634,36.77178,邯郸市,永年区实验高中,细颗粒物(PM2.5),135,164,142,103,73,61,,38,38,25,45,7,8,0.3,1
2024-12-04T1700,3580A,114.20016,36.44293,邯郸市,峰峰矿区临水派出所,细颗粒物(PM2.5),129,144,99,98,57,52,,45,45,30,29,16,14,1.2,1.3
2024-12-04T1700,2634A,106.9893,33.1842,汉中市,汉川机床厂子校,细颗粒物(PM2.5),58,59,54,41,38,74,,66,66,15,13,7,7,0.5,0.4
2024-12-04T1700,2635A,107.0154,33.0706,汉中市,市监测站,细颗粒物(PM2.5),67,71,68,48,50,64,,50,50,20,25,6,6,0.7,0.9
2024-12-04T1700,2636A,107.0089,33.1138,汉中市,鑫源开发区,细颗粒物(PM2.5),67,51,60,48,48,64,,51,51,21,27,6,6,0.6,0.7
2024-12-04T1700,2637A,107.007,33.0323,汉中市,南郑大河坎水厂,,,75,72,50,50,,,47,47,,31,6,5,,0.7
2024-12-04T1700,1223A,120.2072,30.2111,杭州市,滨江,,32,32,71,20,45,65,,59,45,27,37,7,7,0.5,0.6
2024-12-04T1700,1224A,120.0633,30.2747,杭州市,西溪,颗粒物(PM10),58,65,84,24,37,7,,61,26,74,41,7,6,0.6,0.7
2024-12-04T1700,1226A,120.3461,30.3153,杭州市,下沙,,28,28,53,18,32,54,,53,53,45,44,6,6,0.6,0.7
2024-12-04T1700,1227A,120.1269,30.2456,杭州市,卧龙桥,颗粒物(PM10),61,72,79,32,41,5,,63,36,78,40,8,7,0.5,0.6
2024-12-04T1700,1228A,120.1903,30.2692,杭州市,浙江农大,颗粒物(PM10),52,53,54,32,36,4,,52,30,72,40,5,4,0.6,0.6
2024-12-04T1700,1230A,120.1197,30.3119,杭州市,和睦小学,颗粒物(PM10),54,58,76,33,39,5,,54,21,76,43,6,6,0.5,0.7
2024-12-04T1700,1231A,120.3019,30.4183,杭州市,临平镇,,43,43,71,20,40,70,,49,41,27,37,6,6,0.5,0.6
2024-12-04T1700,1232A,120.2697,30.1819,杭州市,城厢镇,,39,39,85,18,44,54,,55,51,40,39,6,6,0.6,0.7
2024-12-04T1700,1233A,120.0883,30.1808,杭州市,云栖,细颗粒物(PM2.5),58,60,70,41,49,7,,64,43,78,41,7,7,0.8,0.7
2024-12-04T1700,3557A,119.9464,30.0494,杭州市,镇二中,颗粒物(PM10),59,68,80,36,53,12,,63,44,62,37,6,6,0.7,0.6
2024-12-04T1700,3558A,119.7183,30.2367,杭州市,市府大楼,颗粒物(PM10),69,87,110,49,67,32,,47,43,59,52,8,7,0.7,0.8
2024-12-04T1700,3656A,120.1556,30.2864,杭州市,消防大队,颗粒物(PM10),61,72,82,40,49,10,,60,36,77,43,8,8,0.5,0.6
2024-12-04T1700,1270A,117.1959,31.7848,合肥市,明珠广场,细颗粒物(PM2.5),52,44,72,36,42,34,,34,34,32,34,7,7,0.6,0.7
2024-12-04T1700,1271A,117.3072,31.8764,合肥市,三里街,,36,36,67,24,41,36,,34,34,28,30,6,6,0.5,0.6
2024-12-04T1700,1272A,117.2588,31.8707,合肥市,琥珀山庄,,39,31,65,27,42,44,,43,43,33,36,4,4,0.7,0.8
2024-12-04T1700,1273A,117.1604,31.9052,合肥市,董铺水库,,,34,70,,34,40,,41,41,27,29,4,4,0.3,0.4
2024-12-04T1700,1274A,117.25,31.8571,合肥市,长江中路,细颗粒物(PM2.5),52,41,70,36,46,43,,42,42,28,32,6,7,0.7,0.8
2024-12-04T1700,1275A,117.266,31.9436,合肥市,庐阳区,,41,41,70,24,37,49,,44,44,29,32,4,4,0.6,0.7
2024-12-04T1700,1276A,117.336,31.8586,合肥市,瑶海区,,34,34,67,23,38,51,,43,43,28,33,8,9,0.6,0.8
2024-12-04T1700,1277A,117.3027,31.7964,合肥市,包河区,,48,48,76,31,41,20,,23,23,52,47,2,3,0.6,0.6
2024-12-04T1700,1278A,117.2776,31.7385,合肥市,滨湖新区,,,,78,,37,27,,35,34,36,31,5,5,,0.7
2024-12-04T1700,1279A,117.1318,31.8403,合肥市,高新区,,45,39,71,31,45,36,,35,35,33,36,2,1,0.6,0.8
2024-12-04T1700,3464A,117.3803,31.9147,合肥市,高教基地,,,,66,,39,,,44,44,25,31,6,7,,0.4
2024-12-04T1700,3614A,79.924,37.0877,和田地区,地区环保局,颗粒物(PM10),67,84,127,27,50,83,,64,64,16,40,11,17,0.8,1.2
2024-12-04T1700,3615A,79.9131,37.113,和田地区,市环保局,颗粒物(PM10),71,91,96,37,48,91,,62,62,15,49,10,14,0.8,1.9
2024-12-04T1700,2516A,108.2011,24.715,河池市,东仁乐园,细颗粒物(PM2.5),80,93,112,59,71,140,,99,99,16,38,10,6,0.8,0.8
2024-12-04T1700,2517A,108.0497,24.6947,河池市,市环保站,细颗粒物(PM2.5),65,65,91,47,71,141,,115,115,20,38,16,12,0.8,0.9
2024-12-04T1700,2518A,108.0983,24.6989,河池市,市疾控中心,,,65,92,,72,147,,103,103,18,44,16,14,0.6,0.8
2024-12-04T1700,1696A,114.6778,23.7569,河源市,源西,,34,34,35,23,25,95,,94,94,15,24,6,6,0.4,0.4
2024-12-04T1700,1697A,114.6944,23.7586,河源市,东埔,,35,35,40,18,28,112,,101,101,13,25,4,5,0.5,0.6
2024-12-04T1700,1698A,114.6892,23.7233,河源市,老城,细颗粒物(PM2.5),59,,39,42,26,108,,95,95,9,26,5,5,0.6,0.6
2024-12-04T1700,1718A,115.4208,35.2464,菏泽市,气象局,细颗粒物(PM2.5),128,172,147,97,85,64,,44,44,23,43,4,4,0.7,0.8
2024-12-04T1700,1719A,115.4747,35.2375,菏泽市,市政协,细颗粒物(PM2.5),125,158,145,95,92,66,,48,48,22,36,6,6,0.7,0.8
2024-12-04T1700,3374A,115.5564,35.0891,菏泽市,定陶老年大学,细颗粒物(PM2.5),134,158,135,102,90,59,,52,52,39,44,6,6,0.9,0.9
2024-12-04T1700,3647A,115.4702,35.2706,菏泽市,菏泽医专,细颗粒物(PM2.5),108,150,147,81,82,69,,47,47,26,51,9,9,0.6,1
2024-12-04T1700,2514A,111.5264,24.4172,贺州市,环保小区,细颗粒物(PM2.5),69,59,69,50,48,130,,117,117,16,31,8,7,0.7,0.8
2024-12-04T1700,2515A,111.5608,24.4078,贺州市,政协大楼,细颗粒物(PM2.5),62,64,80,44,50,145,,125,125,17,44,11,12,0.6,0.8
2024-12-04T1700,3534A,111.4744,24.4553,贺州市,西湾,细颗粒物(PM2.5),63,64,77,45,48,130,,122,122,13,32,9,8,0.6,0.7
2024-12-04T1700,2385A,114.17,35.9019,鹤壁市,市监测站,细颗粒物(PM2.5),127,141,132,96,73,45,,43,43,30,38,2,3,0.6,0.6
2024-12-04T1700,2386A,114.2956,35.7511,鹤壁市,市交警支队,细颗粒物(PM2.5),138,143,123,105,69,28,,40,40,38,38,3,4,0.7,0.8
2024-12-04T1700,2387A,114.2878,35.7306,鹤壁市,迎宾馆,细颗粒物(PM2.5),137,156,120,104,63,25,,42,42,36,28,3,3,0.3,0.4
2024-12-04T1700,3474A,114.2617,35.6822,鹤壁市,大新区,细颗粒物(PM2.5),168,131,101,127,79,15,,30,30,49,33,4,3,0.8,0.7
2024-12-04T1700,3596A,114.1572,35.9603,鹤壁市,南山宾馆,细颗粒物(PM2.5),138,138,117,105,83,46,,48,48,23,27,9,10,0.4,0.5
2024-12-04T1700,2244A,130.2537,47.3416,鹤岗市,哈啤分公司,,29,27,24,20,18,43,,46,44,14,9,16,16,0.4,0.4
2024-12-04T1700,2245A,130.2684,47.3086,鹤岗市,斯达机电,,21,21,23,13,17,43,,42,41,16,22,15,17,0.3,0.3
2024-12-04T1700,2246A,130.3114,47.3388,鹤岗市,东山纸板厂,,37,37,23,23,21,29,,50,38,35,21,19,15,0.3,0.3
2024-12-04T1700,2247A,130.1097,47.3382,鹤岗市,五号水库,,22,20,21,11,12,70,,67,67,4,4,10,9,0.2,0.1
2024-12-04T1700,2263A,127.4833,50.2524,黑河市,交通局,,32,26,29,22,23,32,,54,48,27,26,7,7,0.4,0.4
2024-12-04T1700,2264A,127.5144,50.2341,黑河市,环保局,,41,41,21,25,19,27,,57,43,25,19,6,5,0.4,0.4
2024-12-04T1700,2265A,127.5291,50.2472,黑河市,大黑河岛,,,26,28,,,16,,55,43,15,20,2,2,0.7,0.7
2024-12-04T1700,1074A,115.6838,37.7541,衡水市,电机北厂,细颗粒物(PM2.5),104,95,93,78,58,75,,60,60,25,49,6,9,0.5,0.7
2024-12-04T1700,1075A,115.6303,37.7316,衡水市,市监测站,细颗粒物(PM2.5),103,108,81,77,51,60,,58,58,38,53,6,7,0.6,0.7
2024-12-04T1700,3188A,115.6683,37.7217,衡水市,市城管局,细颗粒物(PM2.5),98,96,90,73,54,72,,60,60,30,52,5,6,0.5,0.7
2024-12-04T1700,3459A,115.5989,37.5491,衡水市,地表水厂,细颗粒物(PM2.5),110,101,91,83,69,84,,63,63,23,55,5,22,0.5,0.7
2024-12-04T1700,2456A,112.5003,26.9167,衡阳市,原169医院,细颗粒物(PM2.5),94,98,112,70,78,79,,72,72,25,29,9,9,0.9,0.9
2024-12-04T1700,2457A,112.6194,26.9258,衡阳市,衡阳化工总厂,细颗粒物(PM2.5),153,145,136,117,121,116,,101,101,19,18,11,11,0.9,0.9
2024-12-04T1700,2458A,112.6211,26.8956,衡阳市,珠晖区环保局,细颗粒物(PM2.5),149,133,123,114,117,113,,97,97,29,25,10,11,1.1,1
2024-12-04T1700,2459A,112.6197,26.8733,衡阳市,市委党校,细颗粒物(PM2.5),156,,123,119,116,125,,108,108,22,22,21,16,1.0,0.9
2024-12-04T1700,2460A,112.6006,26.8919,衡阳市,市监测站,细颗粒物(PM2.5),170,168,160,129,128,121,,100,100,18,18,11,12,1.0,0.9
2024-12-04T1700,2461A,112.5664,26.9056,衡阳市,真空机电公司,细颗粒物(PM2.5),150,129,114,115,118,119,,97,97,18,20,8,9,,1.4
2024-12-04T1700,3399A,112.6703,26.882,衡阳市,师范学院,,,129,141,,94,124,,102,102,24,22,13,13,1.0,0.9
2024-12-04T1700,2608A,103.3772,23.3993,红河哈尼族彝族自治州,污水处理厂,,36,,33,25,28,70,,67,67,5,7,5,5,0.5,0.5
2024-12-04T1700,2609A,103.3861,23.35,红河哈尼族彝族自治州,监测站,,,,33,23,34,62,,65,65,15,10,9,11,0.6,0.5
2024-12-04T1700,3038A,103.3758,23.368,红河哈尼族彝族自治州,州图书馆,,29,22,27,20,21,63,,60,60,6,9,6,6,0.5,0.5
2024-12-04T1700,1090A,111.6507,40.7517,呼和浩特市,呼市一监,,48,48,60,23,29,43,,46,46,29,42,9,11,0.6,0.7
2024-12-04T1700,1091A,111.6572,40.8033,呼和浩特市,小召,,,,51,,24,,,61,61,14,47,8,11,0.5,0.8
2024-12-04T1700,1094A,111.7516,40.8369,呼和浩特市,如意水处理厂,,22,12,53,3,21,69,,60,60,14,40,6,9,0.2,0.6
2024-12-04T1700,1095A,111.7276,40.8062,呼和浩特市,二十九中,,25,10,52,6,23,77,,68,68,13,37,6,9,0.3,0.6
2024-12-04T1700,1096A,111.5512,40.7866,呼和浩特市,工大金川校区,颗粒物(PM10),53,56,66,29,27,40,,56,56,40,49,11,9,0.6,0.6
2024-12-04T1700,1097A,111.717,40.7612,呼和浩特市,化肥厂生活区,,44,44,61,23,24,60,,54,54,25,41,8,9,0.3,0.6
2024-12-04T1700,3698A,111.5968,40.8178,呼和浩特市,红旗小学,,34,34,50,13,20,59,,56,56,26,48,5,7,0.4,0.5
2024-12-04T1700,3699A,111.6518,40.8389,呼和浩特市,海东办,,23,7,43,3,19,71,,68,68,18,40,9,9,0.4,0.7
2024-12-04T1700,2192A,119.7594,49.2261,呼伦贝尔市,区环保局,,20,19,21,14,16,58,,64,62,18,11,6,7,0.4,0.5
2024-12-04T1700,3061A,119.7512,49.1577,呼伦贝尔市,国华电力东,,26,24,20,18,14,58,,64,63,12,6,7,5,0.2,0.2
2024-12-04T1700,1250A,120.0751,30.8669,湖州市,城西水厂,,36,36,52,13,26,42,,58,48,41,29,7,7,0.5,0.5
2024-12-04T1700,2873A,120.0875,30.8955,湖州市,仁皇山新区,,,31,46,15,25,,,59,53,44,28,7,8,,0.6
2024-12-04T1700,2907A,120.1844,30.8596,湖州市,吴兴区站,,36,36,54,16,26,27,,51,34,57,36,7,8,0.5,0.5
2024-12-04T1700,3562A,120.4148,30.8538,湖州市,南浔区站,,42,42,43,7,19,18,,38,35,65,40,7,7,0.3,0.6
2024-12-04T1700,1607A,120.9092,40.7136,葫芦岛市,龙港区,细颗粒物(PM2.5),54,,53,38,35,58,,62,62,20,37,14,47,0.3,0.8
2024-12-04T1700,1608A,120.8392,40.7514,葫芦岛市,化工街,颗粒物(PM10),59,68,76,31,39,38,,56,56,32,34,35,33,0.4,0.9
2024-12-04T1700,1609A,120.8341,40.7073,葫芦岛市,新区,,43,35,48,30,30,47,,62,62,35,44,17,19,0.5,0.8
2024-12-04T1700,1610A,120.8695,40.7677,葫芦岛市,东城区,,48,,68,33,43,38,,55,55,37,41,15,28,1.1,1.6
2024-12-04T1700,2482A,109.5981,27.5721,怀化市,林科所,细颗粒物(PM2.5),77,58,74,56,61,75,,85,72,14,16,12,17,0.5,0.6
2024-12-04T1700,2483A,109.9453,27.5444,怀化市,河西地税局,细颗粒物(PM2.5),98,105,111,73,76,69,,84,70,21,18,8,12,0.6,0.6
2024-12-04T1700,2484A,109.9781,27.5342,怀化市,市四医院,细颗粒物(PM2.5),95,94,110,71,75,74,,81,71,12,15,10,12,0.7,0.8
2024-12-04T1700,2485A,109.9972,27.5578,怀化市,监测楼,细颗粒物(PM2.5),79,90,106,58,68,74,,80,71,14,16,3,6,0.6,0.7
2024-12-04T1700,2486A,110.0394,27.583,怀化市,市委党校,颗粒物(PM10),74,98,111,52,67,67,,76,70,16,14,5,6,0.5,0.6
2024-12-04T1700,1210A,119.036,33.5981,淮安市,钵池山,细颗粒物(PM2.5),80,80,88,59,61,64,,63,63,30,48,6,6,0.6,0.9
2024-12-04T1700,1211A,119.007,33.575,淮安市,北京南路,细颗粒物(PM2.5),68,80,78,49,51,61,,66,66,37,38,8,7,0.8,0.8
2024-12-04T1700,1212A,118.989,33.6067,淮安市,市监测站,细颗粒物(PM2.5),92,83,83,68,62,71,,65,65,30,42,7,5,0.8,0.8
2024-12-04T1700,1213A,119.135,33.5039,淮安市,楚州区监测站,颗粒物(PM10),61,71,81,39,49,71,,67,67,28,35,8,6,0.5,0.6
2024-12-04T1700,1214A,119.0186,33.6297,淮安市,淮阴区监测站,细颗粒物(PM2.5),75,95,97,55,54,67,,65,65,34,50,8,6,0.9,0.9
2024-12-04T1700,3426A,118.8755,33.2894,淮安市,新华书店,细颗粒物(PM2.5),64,68,81,46,55,76,,64,64,21,42,6,8,0.6,0.6
2024-12-04T1700,2282A,116.8004,33.975,淮北市,监测站,细颗粒物(PM2.5),109,123,106,82,65,44,,44,44,35,41,6,6,0.8,0.8
2024-12-04T1700,2283A,116.8091,33.9007,淮北市,烈山区政府,细颗粒物(PM2.5),104,109,94,78,60,44,,42,42,40,50,6,5,0.6,0.6
2024-12-04T1700,3330A,116.8873,33.9836,淮北市,杜集区检察院,细颗粒物(PM2.5),115,131,110,87,67,35,,34,34,49,44,6,5,0.6,0.6
2024-12-04T1700,4017A,116.7923,33.9535,淮北市,市博物馆,细颗粒物(PM2.5),118,132,103,89,66,41,,44,44,45,47,5,5,0.8,0.7
2024-12-04T1700,2277A,116.8305,32.7727,淮南市,潘集区政府,细颗粒物(PM2.5),114,101,128,86,95,24,,42,42,40,38,6,8,0.6,0.8
2024-12-04T1700,2278A,117.0067,32.6524,淮南市,师范学院,颗粒物(PM10),60,70,108,31,71,36,,42,42,35,35,4,4,0.5,0.6
2024-12-04T1700,2279A,116.8569,32.5951,淮南市,谢家集区政府,颗粒物(PM10),52,54,89,35,64,47,,38,38,26,34,9,9,0.4,0.6
2024-12-04T1700,2280A,116.8281,32.633,淮南市,八公山区政府,细颗粒物(PM2.5),58,64,107,41,73,38,,37,37,32,34,7,6,0.5,0.7
2024-12-04T1700,2281A,116.6325,32.6201,淮南市,焦岗湖风景区管理处,颗粒物(PM10),54,57,83,35,57,13,,16,16,42,41,4,5,0.3,0.5
2024-12-04T1700,2894A,117.0566,32.6531,淮南市,经济技术开发区消防队,颗粒物(PM10),51,51,94,32,60,38,,44,44,34,38,5,5,0.4,0.5
2024-12-04T1700,3329A,117.0108,32.5893,淮南市,山南新区,颗粒物(PM10),58,66,89,33,56,43,,48,48,29,28,3,2,0.2,0.4
2024-12-04T1700,2446A,114.9028,30.4742,黄冈市,职工中心,细颗粒物(PM2.5),88,75,108,65,81,14,,23,23,26,27,8,9,0.8,0.8
2024-12-04T1700,2929A,114.8858,30.4519,黄冈市,红卫路,细颗粒物(PM2.5),90,76,103,67,75,16,,27,27,30,32,3,6,1.1,0.8
2024-12-04T1700,3398A,114.9136,30.4445,黄冈市,市林业局,,,91,124,67,77,37,,35,35,,31,7,9,0.7,0.7
2024-12-04T1700,2672A,102.0199,35.5102,黄南藏族自治州,同仁县隆务镇,"颗粒物(PM10),细颗粒物(PM2.5)",60,69,60,43,40,94,,86,86,21,11,10,10,0.7,0.7
2024-12-04T1700,2295A,118.2903,29.6963,黄山市,延安路89号,颗粒物(PM10),56,62,64,32,35,88,,83,83,13,16,7,7,0.3,0.6
2024-12-04T1700,2296A,118.327,29.7178,黄山市,黄山东路89号,颗粒物(PM10),60,70,82,37,50,83,,78,78,12,18,6,6,0.4,0.5
2024-12-04T1700,2297A,118.1371,30.2756,黄山市,黄山区政府5号楼,颗粒物(PM10),79,108,132,55,86,43,,57,57,29,23,8,8,0.4,0.7
2024-12-04T1700,2423A,115.0601,30.2313,黄石市,沈家营,细颗粒物(PM2.5),92,112,139,68,87,25,,39,39,43,47,8,9,1.2,1.1
2024-12-04T1700,2424A,115.0817,30.2006,黄石市,陈家湾,细颗粒物(PM2.5),110,97,134,83,110,25,,39,39,38,40,10,10,1.2,1
2024-12-04T1700,2426A,114.8988,30.2019,黄石市,铁山,细颗粒物(PM2.5),107,80,119,80,103,36,,35,35,35,46,10,13,0.5,1
2024-12-04T1700,2427A,115.0307,30.2092,黄石市,团城山,细颗粒物(PM2.5),104,104,133,78,101,21,,34,34,36,41,7,9,1.1,0.9
2024-12-04T1700,3149A,115.0235,30.1578,黄石市,笔架山北路,细颗粒物(PM2.5),103,96,129,77,104,28,,38,38,36,43,10,12,1.4,1.3
2024-12-04T1700,1392A,114.4183,23.0528,惠州市,河南岸金山湖子站,,47,47,66,26,43,112,,100,100,13,32,7,8,0.5,0.8
2024-12-04T1700,1393A,114.4053,23.0822,惠州市,下埔横江三路子站,,,,73,,41,138,,110,110,,43,,7,0.4,0.6
2024-12-04T1700,1394A,114.4103,23.1142,惠州市,江北云山西路子站,,45,41,67,24,36,141,,113,113,12,41,8,9,0.6,0.7
2024-12-04T1700,1395A,114.4645,22.7833,惠州市,惠阳区承修路船湖子站,,,,64,,30,119,,101,101,14,35,,9,0.4,0.5
2024-12-04T1700,1396A,114.5317,22.7422,惠州市,大亚湾管委会子站,,44,37,44,16,22,140,,116,116,10,32,6,7,0.5,0.6
2024-12-04T1700,3314A,114.4338,22.8134,惠州市,惠阳秋长,颗粒物(PM10),51,51,53,21,33,138,,118,118,19,30,8,8,0.6,0.7
2024-12-04T1700,3452A,114.6517,22.775,惠州市,大亚湾霞涌,,41,34,40,18,25,130,,116,116,13,19,6,6,0.3,0.3
2024-12-04T1700,2240A,130.9762,45.3001,鸡西市,环保局,,17,15,13,3,6,54,,54,54,5,3,6,6,0.4,0.3
2024-12-04T1700,2243A,130.9429,45.3039,鸡西市,第一中学,,19,12,15,7,6,59,,60,60,6,3,5,5,0.3,0.3
2024-12-04T1700,3707A,131.0207,45.3073,鸡西市,欧美日汽修厂,,26,,21,18,16,55,,54,54,14,12,27,24,1.0,0.6
2024-12-04T1700,3709A,130.9967,45.3106,鸡西市,市政设施管理处,,22,18,16,15,8,56,,57,57,10,7,2,2,0.7,0.6
2024-12-04T1700,2367A,114.9754,27.0803,吉安市,红声器材厂,细颗粒物(PM2.5),87,95,93,64,58,126,,103,103,25,29,15,17,0.8,0.8
2024-12-04T1700,2368A,114.9658,27.0999,吉安市,市森林工业局,细颗粒物(PM2.5),89,99,92,66,59,119,,100,100,29,30,14,17,0.6,0.6
2024-12-04T1700,2369A,114.99,27.1312,吉安市,市环境监测站,细颗粒物(PM2.5),65,50,80,47,57,120,,104,104,38,35,13,15,0.9,0.7
2024-12-04T1700,2370A,115.0093,27.0968,吉安市,青原区法院,,,97,91,63,57,124,,110,110,,33,13,16,1.1,0.9
2024-12-04T1700,1772A,126.54,43.8622,吉林市,哈达湾,,22,22,24,13,8,69,,68,68,10,9,6,6,0.4,0.4
2024-12-04T1700,1773A,126.5844,43.8358,吉林市,东局子,,26,26,26,10,8,69,,68,68,10,9,5,5,0.5,0.4
2024-12-04T1700,1774A,126.5052,43.8245,吉林市,电力学院,,36,36,20,13,7,68,,66,66,9,7,6,6,0.4,0.4
2024-12-04T1700,1775A,126.6133,43.8972,吉林市,江北,,32,32,28,8,9,64,,63,63,13,12,8,15,0.4,0.4
2024-12-04T1700,1776A,126.555,43.8306,吉林市,江南公园,,28,28,23,11,7,65,,65,65,12,8,8,8,0.5,0.5
2024-12-04T1700,1778A,126.7061,43.7133,吉林市,丰满,,22,16,15,13,7,68,,67,67,7,4,9,8,0.2,0.2
2024-12-04T1700,2868A,126.4739,43.953,吉林市,九站,,39,39,26,18,11,58,,64,64,15,11,4,4,0.5,0.5
2024-12-04T1700,1299A,116.9862,36.6114,济南市,科干所,颗粒物(PM10),65,80,73,37,36,53,,44,44,43,49,10,10,0.6,1
2024-12-04T1700,1300A,116.9376,36.665,济南市,农科所,颗粒物(PM10),61,71,100,27,37,51,,38,38,40,56,9,12,0.8,1.2
2024-12-04T1700,1301A,117.1265,36.6734,济南市,开发区,颗粒物(PM10),62,73,82,37,41,38,,36,36,58,58,10,8,0.5,0.7
2024-12-04T1700,1303A,117.0624,36.6868,济南市,省种子仓库,颗粒物(PM10),60,70,103,27,39,55,,34,34,36,57,8,9,0.5,0.9
2024-12-04T1700,1304A,116.9489,36.6447,济南市,机床二厂,颗粒物(PM10),69,88,114,42,49,50,,46,46,39,53,11,21,0.8,1.2
2024-12-04T1700,1305A,117.0495,36.663,济南市,市监测站,细颗粒物(PM2.5),62,66,84,44,42,58,,41,41,38,55,9,9,0.5,0.8
2024-12-04T1700,1306A,116.7675,36.5484,济南市,长清党校,细颗粒物(PM2.5),89,100,76,66,47,54,,49,49,48,49,14,9,0.8,0.8
2024-12-04T1700,1616A,117.6795,36.229,济南市,技术学院,细颗粒物(PM2.5),92,100,96,68,62,58,,48,48,42,52,16,14,1.1,1.2
2024-12-04T1700,1961A,117.532,36.6868,济南市,东山小学,颗粒物(PM10),75,100,79,49,38,39,,39,39,48,50,13,9,0.7,0.7
2024-12-04T1700,3059A,117.7161,36.2049,济南市,泰兴公司,细颗粒物(PM2.5),110,114,107,83,62,59,,53,53,44,53,16,13,0.9,1
2024-12-04T1700,3064A,117.6867,36.2171,济南市,莱芜战役纪念馆,细颗粒物(PM2.5),98,105,113,73,64,60,,48,48,39,51,13,13,0.9,1.2
2024-12-04T1700,3494A,117.1673,36.9782,济南市,济阳区政府,颗粒物(PM10),62,73,95,37,52,38,,31,31,43,55,15,15,0.6,0.8
2024-12-04T1700,3495A,117.1171,36.63,济南市,锦屏中学,颗粒物(PM10),59,68,56,37,31,39,,44,44,57,41,8,6,0.6,0.5
2024-12-04T1700,3682A,116.9814,36.6819,济南市,济南四建,颗粒物(PM10),56,61,103,39,44,48,,34,34,42,63,8,11,0.6,1
2024-12-04T1700,1653A,116.6251,35.4302,济宁市,火炬城,细颗粒物(PM2.5),147,131,117,112,100,77,,44,44,28,54,8,9,0.7,0.8
2024-12-04T1700,1655A,116.5491,35.4042,济宁市,电化厂,细颗粒物(PM2.5),138,177,152,105,85,72,,45,45,36,54,10,13,0.9,1
2024-12-04T1700,3500A,116.5814,35.3707,济宁市,北湖一中,细颗粒物(PM2.5),168,135,110,127,94,72,,46,46,38,50,3,5,0.8,0.9
2024-12-04T1700,3501A,116.8249,35.5593,济宁市,服务中心,细颗粒物(PM2.5),137,176,161,104,89,,,34,34,39,59,11,11,0.7,1.1
2024-12-04T1700,3678A,116.5907,35.4054,济宁市,市第七中学,细颗粒物(PM2.5),140,133,112,107,89,83,,54,54,30,45,8,6,0.9,0.9
2024-12-04T1700,2255A,130.2751,46.8028,佳木斯市,佳纺,,20,20,21,14,15,56,,56,56,9,8,9,10,0.4,0.4
2024-12-04T1700,2256A,130.3995,46.8307,佳木斯市,发电厂,,23,21,16,16,13,50,,49,49,11,9,6,7,0.4,0.5
2024-12-04T1700,2257A,130.3258,46.7975,佳木斯市,环保局,,35,,17,24,16,47,,50,48,15,11,12,11,0.1,0.5
2024-12-04T1700,2258A,130.3648,46.8032,佳木斯市,十一中,,24,24,17,15,13,50,,52,52,15,10,2,2,0.5,0.4
2024-12-04T1700,2259A,130.3794,46.7588,佳木斯市,四丰,,23,23,13,6,9,57,,56,56,5,3,1,1,0.2,0.2
2024-12-04T1700,1252A,120.7436,30.778,嘉兴市,清河小学,,29,29,49,6,20,47,,43,43,34,36,16,16,0.5,0.6
2024-12-04T1700,1253A,120.726,30.7478,嘉兴市,嘉兴学院,,31,31,54,10,27,47,,44,44,34,34,6,6,0.4,0.5
2024-12-04T1700,2872A,120.7846,30.7525,嘉兴市,南湖区残联,,41,41,58,11,25,55,,53,53,31,31,7,7,0.5,0.6
2024-12-04T1700,3407A,120.6916,30.7739,嘉兴市,秀洲住建,,26,26,50,12,27,43,,40,40,37,39,9,9,0.4,0.5
2024-12-04T1700,1945A,98.2908,39.7711,嘉峪关市,气象局,,41,41,55,14,16,79,,72,72,15,19,17,18,0.3,0.3
2024-12-04T1700,2884A,98.2672,39.7978,嘉峪关市,酒钢宾馆,颗粒物(PM10),51,51,56,14,15,72,,72,72,24,20,26,14,0.8,0.6
2024-12-04T1700,3248A,98.2643,39.7724,嘉峪关市,雄关区,,38,38,51,22,20,81,,77,77,18,26,12,12,0.5,0.4
2024-12-04T1700,1383A,113.1064,22.6058,江门市,北街,臭氧1小时,77,52,85,24,55,181,,144,144,26,68,7,9,0.4,0.8
2024-12-04T1700,1384A,113.0731,22.5835,江门市,西区,臭氧1小时,84,50,100,27,50,187,,147,147,30,90,8,10,0.5,0.9
2024-12-04T1700,1385A,113.0219,22.5311,江门市,圭峰西,臭氧1小时,72,60,61,19,40,177,,149,149,19,34,4,5,0.4,0.5
2024-12-04T1700,1386A,113.0828,22.5947,江门市,东湖,臭氧1小时,58,39,92,24,46,166,,136,136,24,72,7,9,0.4,0.9
2024-12-04T1700,3311A,113.1075,22.5647,江门市,江海富民,颗粒物(PM10),65,79,109,35,56,168,,143,143,31,85,8,12,0.7,1
2024-12-04T1700,3449A,113.05,22.4667,江门市,新会银湖,颗粒物(PM10),55,59,77,15,55,145,,130,130,17,53,8,6,0.5,0.7
2024-12-04T1700,1828A,113.227,35.2125,焦作市,市环保局,细颗粒物(PM2.5),160,166,119,122,79,42,,34,34,42,38,10,9,0.8,0.6
2024-12-04T1700,1830A,113.1992,35.2590,焦作市,影视城,细颗粒物(PM2.5),152,225,119,116,70,37,,37,37,43,32,15,16,0.8,0.6
2024-12-04T1700,3169A,113.2725,35.2067,焦作市,太极体育中心,细颗粒物(PM2.5),129,162,127,98,69,43,,32,32,43,36,11,11,0.8,0.5
2024-12-04T1700,3335A,113.3137,35.2641,焦作市,马村街道办,细颗粒物(PM2.5),172,162,121,130,79,27,,30,30,48,36,15,16,0.8,0.8
2024-12-04T1700,3336A,113.2465,35.2373,焦作市,焦作技师学院,细颗粒物(PM2.5),140,162,115,107,70,40,,33,33,31,27,13,12,1.1,0.8
2024-12-04T1700,3477A,113.1656,35.2539,焦作市,中站许衡医院,细颗粒物(PM2.5),158,186,113,120,73,23,,32,32,60,45,25,18,1.2,0.9
2024-12-04T1700,3981A,113.2449,35.1803,焦作市,原李万街道办,细颗粒物(PM2.5),148,177,128,113,80,45,,38,38,39,36,12,13,0.9,0.7
2024-12-04T1700,1708A,116.3701,23.5345,揭阳市,新兴,颗粒物(PM10),51,52,61,27,40,144,,123,123,21,33,8,10,0.4,0.6
2024-12-04T1700,1709A,116.3264,23.5443,揭阳市,西马,颗粒物(PM10),60,70,72,21,46,149,,129,129,14,29,9,10,0.6,0.8
2024-12-04T1700,1710A,116.3611,23.5626,揭阳市,东兴,,49,49,67,24,36,145,,120,120,17,32,11,12,0.7,0.9
2024-12-04T1700,1711A,116.4151,23.5294,揭阳市,渔湖,,49,49,59,20,26,147,,128,128,20,29,11,11,0.5,0.6
2024-12-04T1700,3320A,116.403,23.5699,揭阳市,曲溪,,47,47,54,24,50,149,,124,124,16,32,5,10,0.7,0.8
2024-12-04T1700,1944A,102.1692,38.5167,金昌市,天庆家园,,29,26,60,17,25,90,,75,75,6,18,11,31,0.5,0.8
2024-12-04T1700,3170A,102.1864,38.5253,金昌市,市委党校,,49,49,69,18,24,91,,74,74,7,18,9,31,0.6,0.6
2024-12-04T1700,4022A,102.1647,38.5371,金昌市,金川区人防中心,,44,44,63,22,24,91,,80,80,5,14,11,17,0.5,0.6
2024-12-04T1700,1262A,119.647,29.077,金华市,十五中,细颗粒物(PM2.5),92,91,119,68,90,47,,66,66,55,41,4,4,0.7,0.9
2024-12-04T1700,1263A,119.686,29.1029,金华市,监测站,颗粒物(PM10),69,87,128,10,84,40,,62,62,56,45,4,4,0.6,1
2024-12-04T1700,3659A,119.656,29.1131,金华市,气象局,细颗粒物(PM2.5),75,85,127,55,82,47,,66,66,52,46,4,4,0.5,0.6
2024-12-04T1700,1767A,121.1115,41.0879,锦州市,南山,细颗粒物(PM2.5),53,,55,37,49,51,,64,64,29,40,15,24,0.8,1.6
2024-12-04T1700,1768A,121.0533,40.8434,锦州市,开发区,颗粒物(PM10),59,68,117,25,52,13,,44,44,75,60,16,23,0.8,1.3
2024-12-04T1700,1769A,121.1836,41.1119,锦州市,百股街道,,18,18,47,7,31,52,,63,63,23,32,10,15,0.6,1
2024-12-04T1700,1770A,121.1178,41.1222,锦州市,天安街道,,32,32,46,18,26,55,,65,65,25,34,13,21,0.6,0.9
2024-12-04T1700,1771A,121.1303,41.1386,锦州市,北湖公园,,29,29,43,16,28,57,,63,63,18,27,12,22,0.4,0.9
2024-12-04T1700,2160A,112.85,35.5051,晋城市,自来水公司,,39,39,84,19,53,48,,41,41,44,47,11,12,0.8,1.4
2024-12-04T1700,2161A,112.8318,35.4936,晋城市,白云商贸,,50,50,86,22,49,58,,49,49,37,45,9,8,0.7,1.2
2024-12-04T1700,2162A,112.8508,35.4887,晋城市,市环保局,,,,94,,55,55,,45,45,35,48,10,10,0.7,1.4
2024-12-04T1700,2163A,112.8676,35.4897,晋城市,技术学院,颗粒物(PM10),51,51,87,22,52,58,,45,45,39,50,11,12,0.7,1.3
2024-12-04T1700,2165A,112.8453,35.546,晋城市,白马寺,,,53,85,33,55,58,,47,47,,36,14,16,0.6,1.4
2024-12-04T1700,3620A,112.8271,35.4828,晋城市,泽州一中,,35,28,84,24,50,54,,49,49,39,50,10,10,0.9,1.2
2024-12-04T1700,2171A,112.7532,37.6945,晋中市,锦纶小区,颗粒物(PM10),69,88,76,27,37,62,,49,49,32,46,11,16,0.5,0.8
2024-12-04T1700,2173A,112.7249,37.7067,晋中市,南都小区,颗粒物(PM10),84,117,79,39,42,63,,50,50,27,50,11,19,0.4,0.7
2024-12-04T1700,2174A,112.6991,37.6982,晋中市,榆次区政府,颗粒物(PM10),112,173,93,31,41,61,,47,47,31,48,10,16,0.4,0.7
2024-12-04T1700,2865A,112.7195,37.6828,晋中市,榆次三中,颗粒物(PM10),95,139,84,22,35,64,,45,45,26,44,13,17,0.4,0.7
2024-12-04T1700,2439A,112.2014,31.0481,荆门市,竹园小学,细颗粒物(PM2.5),67,60,94,48,69,60,,70,59,17,21,12,11,0.6,0.6
2024-12-04T1700,2440A,112.1969,30.9891,荆门市,掇刀,细颗粒物(PM2.5),69,78,93,50,70,68,,81,69,20,19,9,7,0.5,0.6
2024-12-04T1700,2441A,112.2213,31.0386,荆门市,石化一小,细颗粒物(PM2.5),73,81,88,53,63,54,,72,60,24,18,9,9,0.6,0.6
2024-12-04T1700,3012A,112.1849,31.0362,荆门市,西山林语,细颗粒物(PM2.5),57,61,84,40,67,67,,84,74,16,14,7,7,0.6,0.5
2024-12-04T1700,3547A,112.1632,31.0138,荆门市,龙泉中学南校,,,,83,,68,76,,91,79,18,20,,10,0.5,0.6
2024-12-04T1700,1844A,112.2494,30.3197,荆州市,市图书馆,细颗粒物(PM2.5),77,,75,56,87,52,,57,49,24,23,4,5,0.9,0.9
2024-12-04T1700,1845A,112.2008,30.3544,荆州市,市委党校,细颗粒物(PM2.5),80,59,83,59,85,57,,64,52,25,25,4,5,0.8,0.9
2024-12-04T1700,3194A,112.2747,30.3122,荆州市,管委会,,,,80,68,88,52,,58,50,21,23,6,7,,0.7
2024-12-04T1700,3548A,112.1655,30.3364,荆州市,学苑路,细颗粒物(PM2.5),77,70,104,56,77,54,,67,57,37,30,8,9,0.8,0.8
2024-12-04T1700,2342A,117.3102,29.3867,景德镇市,王港中学,,,,,,,,,,,,,,,,
2024-12-04T1700,2343A,117.2117,29.2933,景德镇市,老干部活动中心,细颗粒物(PM2.5),77,64,61,56,50,102,,96,96,12,25,7,8,0.6,0.6
2024-12-04T1700,2344A,117.1894,29.2789,景德镇市,兽医站,细颗粒物(PM2.5),62,66,66,44,41,98,,103,103,13,19,7,7,0.6,0.5
2024-12-04T1700,2345A,117.1547,29.2617,景德镇市,台达陶瓷,细颗粒物(PM2.5),64,74,76,46,44,75,,80,80,6,13,19,9,0.7,0.7
2024-12-04T1700,2346A,117.2461,29.2956,景德镇市,陶研所,颗粒物(PM10),58,65,54,37,32,89,,88,88,21,23,4,4,0.7,0.5
2024-12-04T1700,1803A,115.9872,29.6815,九江市,十里,细颗粒物(PM2.5),87,84,97,64,64,76,,65,65,33,33,7,7,0.8,0.8
2024-12-04T1700,1804A,115.9584,29.7046,九江市,茅山头,颗粒物(PM10),75,99,102,53,64,73,,61,61,29,29,8,10,0.8,0.8
2024-12-04T1700,1805A,115.9877,29.7295,九江市,西园,细颗粒物(PM2.5),90,84,93,67,68,69,,62,62,26,28,6,6,0.1,0.6
2024-12-04T1700,1806A,116.0172,29.6547,九江市,五七二七厂,细颗粒物(PM2.5),99,103,121,74,79,75,,65,65,25,24,4,6,1.1,1
2024-12-04T1700,1808A,115.9114,29.6038,九江市,综合工业园,细颗粒物(PM2.5),128,,107,97,104,81,,66,66,38,34,13,13,0.9,0.9
2024-12-04T1700,1809A,116.0721,29.7535,九江市,石化总厂,细颗粒物(PM2.5),82,108,108,60,69,65,,63,63,33,34,11,10,0.9,0.9
2024-12-04T1700,1810A,115.9773,29.5698,九江市,庐山气象台,细颗粒物(PM2.5),88,,31,65,28,94,,112,110,14,5,7,8,1.0,0.9
2024-12-04T1700,3190A,116.0254,29.6994,九江市,外国语学校,细颗粒物(PM2.5),79,103,105,58,67,67,,58,58,27,28,15,13,0.5,0.7
2024-12-04T1700,2658A,98.5061,39.7443,酒泉市,仓门街子站,,41,41,65,21,23,88,,71,71,6,17,7,14,0.6,0.6
2024-12-04T1700,2659A,98.4989,39.7256,酒泉市,油田生活基地,,42,36,83,29,30,93,,72,72,9,22,7,12,0.6,0.7
2024-12-04T1700,2698A,76.0072,39.4467,喀什地区,巡警大队,颗粒物(PM10),65,79,165,21,58,80,,39,39,11,56,8,8,0.0,1.7
2024-12-04T1700,2699A,75.9755,39.4694,喀什地区,吾办,颗粒物(PM10),71,92,140,31,63,77,,44,44,18,59,5,3,0.4,1.8
2024-12-04T1700,4027A,75.9483,39.4689,喀什地区,老干局,颗粒物(PM10),90,129,171,27,61,83,,39,39,15,59,5,4,0.4,2.3
2024-12-04T1700,1824A,114.3389,34.7781,开封市,肿瘤医院,细颗粒物(PM2.5),125,123,135,95,103,42,,32,32,30,47,3,5,0.6,0.7
2024-12-04T1700,1826A,114.2885,34.7965,开封市,世纪星幼儿园,细颗粒物(PM2.5),135,116,119,103,103,46,,31,31,32,43,3,4,0.6,0.7
2024-12-04T1700,3147A,114.3438,34.8106,开封市,龙亭公园,细颗粒物(PM2.5),135,117,127,103,105,49,,31,31,29,48,2,2,0.7,0.9
2024-12-04T1700,3210A,114.3644,34.7964,开封市,汴京公园,细颗粒物(PM2.5),134,129,149,102,104,46,,30,30,32,48,2,2,0.7,0.8
2024-12-04T1700,3473A,114.2485,34.8306,开封市,技师学院,细颗粒物(PM2.5),132,116,123,100,95,45,,31,31,28,43,4,6,0.8,0.9
2024-12-04T1700,3592A,114.4644,34.7556,开封市,祥符区生态环境局,细颗粒物(PM2.5),122,137,150,92,103,42,,33,33,31,45,2,2,0.5,0.6
2024-12-04T1700,1951A,84.895,45.6094,克拉玛依市,长征新村,,16,16,24,3,14,30,,42,32,19,16,4,4,0.5,0.4
2024-12-04T1700,1952A,84.8988,45.5893,克拉玛依市,南林小区,,16,16,23,11,20,33,,43,32,20,18,1,1,0.5,0.5
2024-12-04T1700,1954A,84.905,44.3396,克拉玛依市,独山子区,颗粒物(PM10),54,58,36,24,32,40,,46,44,20,19,4,5,0.5,0.5
2024-12-04T1700,1955A,85.6979,46.098,克拉玛依市,乌尔禾区商贸楼,,19,6,7,3,7,60,,50,49,14,19,3,3,0.4,0.5
2024-12-04T1700,3612A,85.1045,45.6899,克拉玛依市,白碱滩区新站,,18,13,24,12,16,34,,53,38,29,20,7,8,0.8,0.7
2024-12-04T1700,2697A,76.1454,39.7142,克孜勒苏柯尔克孜自治州,市人民政府,颗粒物(PM10),62,74,75,38,33,102,,66,66,6,15,5,8,0.7,0.8
2024-12-04T1700,3665A,76.1658,39.7157,克孜勒苏柯尔克孜自治州,克州文化中心,颗粒物(PM10),62,74,74,27,29,95,,59,59,11,27,9,12,0.7,0.8
2024-12-04T1700,1450A,102.8204,24.8886,昆明市,呈贡新区,,25,20,19,3,14,78,,72,72,8,23,5,7,0.3,0.4
2024-12-04T1700,1451A,102.6251,24.9608,昆明市,西山森林公园,,,,,,,,,,,,,,,,
2024-12-04T1700,1452A,102.7252,25.0902,昆明市,龙泉镇,,27,,25,6,14,84,,68,68,10,34,8,7,0.4,0.6
2024-12-04T1700,1453A,102.7266,25.0375,昆明市,东风东路,,24,13,30,10,20,74,,62,62,10,31,9,9,0.3,0.5
2024-12-04T1700,1454A,102.6742,25.0669,昆明市,金鼎山,,,27,25,3,15,78,,71,71,,29,14,14,0.4,0.5
2024-12-04T1700,1455A,102.6644,25.0401,昆明市,碧鸡广场,,25,11,31,6,14,78,,68,68,10,36,8,9,0.3,0.4
2024-12-04T1700,3179A,102.7494,25.0119,昆明市,官渡区博物馆,,25,24,26,8,15,80,,69,69,8,24,7,7,0.3,0.5
2024-12-04T1700,3375A,102.8017,24.8336,昆明市,青年创业园,,27,9,21,3,10,86,,79,79,2,24,5,7,0.3,0.4
2024-12-04T1700,3550A,102.7997,24.9786,昆明市,昆明学院,,25,11,23,6,9,79,,74,74,8,20,8,9,0.2,0.3
2024-12-04T1700,3551A,102.5967,24.6736,昆明市,晋宁区生态环境分局,,28,10,42,3,14,89,,78,78,3,17,2,2,0.2,0.4
2024-12-04T1700,3552A,102.6678,24.9856,昆明市,云天化总部,,,,18,,11,85,,80,80,5,28,,7,0,0.1
2024-12-04T1700,1456A,91.1319,29.6514,拉萨市,八廓街,,29,12,32,10,18,91,,69,69,14,31,7,8,0.2,0.6
2024-12-04T1700,1457A,91.1221,29.6747,拉萨市,市环保局,,34,13,46,6,25,107,,75,75,15,32,7,8,0.4,1
2024-12-04T1700,1458A,91.0874,29.6475,拉萨市,区监测站,,32,7,21,3,11,101,,73,73,13,28,5,5,0.4,0.6
2024-12-04T1700,1459A,91.1774,29.6541,拉萨市,西藏大学,,31,19,29,7,12,98,,74,74,15,21,4,4,0.6,0.7
2024-12-04T1700,1460A,90.9798,29.6588,拉萨市,区辐射站,,31,25,54,12,30,99,,64,64,15,45,7,10,0.4,0.9
2024-12-04T1700,1461A,91.0834,29.6292,拉萨市,拉萨火车站,,30,21,24,7,13,95,,67,67,20,34,5,5,0.5,0.8
2024-12-04T1700,2520A,109.2203,23.7256,来宾市,来宾技工学校,臭氧1小时,77,71,117,30,82,181,,155,155,15,43,8,15,0.7,1.1
2024-12-04T1700,3535A,109.1781,23.7297,来宾市,兴宾区政府,臭氧1小时,104,89,108,57,76,207,,164,164,20,24,14,12,0.7,0.8
2024-12-04T1700,4002A,109.2416,23.7461,来宾市,中南小学,,,,134,,86,170,,149,149,16,49,6,14,,1
2024-12-04T1700,1476A,103.631,36.1031,兰州市,兰炼宾馆,颗粒物(PM10),64,78,69,41,37,71,,56,56,37,34,20,25,0.6,0.6
2024-12-04T1700,1477A,104.1373,35.9454,兰州市,榆中兰大校区,,,,,,,,,,,,,,,,
2024-12-04T1700,1478A,103.8412,36.0726,兰州市,生物制品所,颗粒物(PM10),53,55,58,34,33,72,,58,58,32,37,16,18,0.5,0.5
2024-12-04T1700,1479A,103.831,36.0464,兰州市,铁路设计院,颗粒物(PM10),63,76,62,38,38,54,,52,52,51,43,14,19,0.7,0.7
2024-12-04T1700,3186A,103.7158,36.1058,兰州市,教育港,颗粒物(PM10),63,75,69,38,36,60,,51,51,42,37,21,23,0.6,0.6
2024-12-04T1700,3241A,103.7439,36.0842,兰州市,百合公园,颗粒物(PM10),53,55,58,22,28,64,,52,52,44,39,15,20,0.6,0.7
2024-12-04T1700,3242A,103.9611,35.998,兰州市,和平,,,46,68,,36,75,,67,67,24,37,16,24,0.5,0.8
2024-12-04T1700,3245A,103.6633,36.533,兰州新区,新区管委会,,50,47,53,35,35,93,,80,80,18,22,23,22,0.3,0.5
2024-12-04T1700,3246A,103.6975,36.4789,兰州新区,舟曲中学,,47,47,53,28,26,91,,79,79,12,21,19,21,0.3,0.3
2024-12-04T1700,1067A,116.6708,39.5111,廊坊市,药材公司,细颗粒物(PM2.5),62,70,57,44,40,45,,40,40,41,56,5,5,0.6,0.7
2024-12-04T1700,1068A,116.7214,39.5589,廊坊市,开发区,,,48,57,,34,41,,42,42,42,54,7,4,,0.6
2024-12-04T1700,1070A,116.7244,39.5269,廊坊市,北华航天学院,颗粒物(PM10),54,58,62,34,36,44,,41,41,42,54,8,6,0.5,0.8
2024-12-04T1700,2919A,116.7022,39.5453,廊坊市,河北工业大学,颗粒物(PM10),57,63,55,39,32,44,,40,40,35,51,8,6,0.5,0.6
2024-12-04T1700,2535A,103.7723,29.5462,乐山市,花湖湾,,,,118,71,93,39,,26,19,26,27,4,3,0.6,0.7
2024-12-04T1700,2536A,103.7627,29.5844,乐山市,牛耳桥,细颗粒物(PM2.5),90,94,114,67,86,32,,17,17,34,46,7,6,0.6,0.8
2024-12-04T1700,2537A,103.7508,29.6006,乐山市,市第三水厂,细颗粒物(PM2.5),80,77,102,59,80,43,,22,22,30,49,6,5,0.5,0.7
2024-12-04T1700,2538A,103.7571,29.5664,乐山市,市监测站,细颗粒物(PM2.5),89,79,99,66,75,37,,23,23,27,30,6,5,0.6,0.8
2024-12-04T1700,3361A,103.7311,29.5628,乐山市,理工大学,细颗粒物(PM2.5),73,62,87,53,75,39,,21,21,30,36,6,5,0.7,0.8
2024-12-04T1700,2598A,100.2143,26.8576,丽江市,西南郊,,,,,,,,,,,,,,,,
2024-12-04T1700,2599A,100.2497,26.8802,丽江市,丽江古城,,26,25,26,10,16,82,,78,78,10,12,9,9,0.7,0.7
2024-12-04T1700,2600A,100.2203,26.8906,丽江市,市中心,,26,12,12,6,8,82,,76,76,13,14,6,7,0.7,0.7
2024-12-04T1700,1267A,119.914,28.4514,丽水市,监测站大楼,,45,45,48,26,44,89,,97,97,11,29,2,2,0.8,1
2024-12-04T1700,1268A,119.93,28.4586,丽水市,莲都小学,,,51,59,26,42,90,,98,98,,27,4,5,0.7,0.8
2024-12-04T1700,1269A,119.879,28.4231,丽水市,余庄前,,35,34,43,24,32,89,,96,96,14,20,5,5,0.5,0.5
2024-12-04T1700,1173A,119.176,34.5885,连云港市,市环境监测站,颗粒物(PM10),53,56,86,27,36,46,,37,37,44,58,11,12,0.5,1
2024-12-04T1700,3000A,119.3581,34.6972,连云港市,德源药业,颗粒物(PM10),59,68,83,29,45,32,,51,51,58,58,8,6,0.5,0.7
2024-12-04T1700,3007A,119.178,34.844,连云港市,新城一中,颗粒物(PM10),60,70,81,35,52,33,,42,42,59,60,12,21,0.6,1.1
2024-12-04T1700,3008A,119.3608,34.7519,连云港市,胡沟管理处,,48,48,65,24,34,55,,63,63,24,28,7,8,0.3,0.5
2024-12-04T1700,3009A,119.1478,34.5911,连云港市,矿山设计院,颗粒物(PM10),56,61,88,36,49,45,,34,34,41,54,11,11,0.8,1.2
2024-12-04T1700,3434A,119.2413,34.6539,连云港市,工贸学校,颗粒物(PM10),52,54,68,32,43,54,,53,53,34,31,10,10,0.6,0.7
2024-12-04T1700,3664A,119.4172,34.7341,连云港市,连云街道,,44,44,57,25,33,41,,59,59,40,27,10,10,0.7,0.7
2024-12-04T1700,2571A,102.3431,27.8099,凉山彝族自治州,青龙寺,,30,23,35,7,15,95,,72,72,4,9,4,5,0.6,0.7
2024-12-04T1700,2572A,102.2721,27.8415,凉山彝族自治州,邛海宾馆,,38,38,47,18,26,77,,64,64,8,15,11,11,0.6,0.7
2024-12-04T1700,2573A,102.2625,27.898,凉山彝族自治州,西昌市政府,,36,35,32,25,25,98,,66,66,10,14,10,6,0.8,0.7
2024-12-04T1700,2574A,102.2685,27.8851,凉山彝族自治州,凉山州政府,,30,29,35,20,23,94,,64,64,8,15,14,10,0.7,0.7
2024-12-04T1700,2575A,102.237,27.8914,凉山彝族自治州,长安,,41,41,50,22,29,90,,61,61,14,23,10,8,0.7,0.6
2024-12-04T1700,2212A,123.2,41.1953,辽阳市,宏伟区,,34,34,29,20,14,41,,49,49,28,19,11,11,0.7,0.7
2024-12-04T1700,2213A,123.1683,41.2495,辽阳市,新华园,,26,26,34,16,16,40,,52,52,34,26,13,11,0.9,0.9
2024-12-04T1700,2214A,123.2354,41.2639,辽阳市,滨河路,,20,20,36,14,14,50,,52,52,24,18,14,13,0.6,0.5
2024-12-04T1700,2215A,123.149,41.2991,辽阳市,铁西工业园,,48,42,44,33,20,33,,52,52,39,28,9,11,0.7,0.5
2024-12-04T1700,2227A,125.1358,42.8845,辽源市,环保局,,20,16,18,3,4,63,,66,66,12,10,8,7,0.5,0.4
2024-12-04T1700,3239A,125.0764,42.9078,辽源市,银鹰制药,,20,15,31,10,14,62,,66,65,13,11,12,10,0.4,0.4
2024-12-04T1700,1625A,115.9848,36.4372,聊城市,区政府,细颗粒物(PM2.5),127,155,116,96,70,81,,66,66,31,53,9,8,0.8,1
2024-12-04T1700,2878A,116.0072,36.4343,聊城市,聊大东校,细颗粒物(PM2.5),139,171,136,106,83,67,,58,58,40,51,10,10,0.9,0.9
2024-12-04T1700,3200A,115.9819,36.4978,聊城市,监控中心,细颗粒物(PM2.5),153,163,155,117,90,68,,60,60,46,77,10,13,0.7,1
2024-12-04T1700,3513A,116.0445,36.4361,聊城市,九州社区,细颗粒物(PM2.5),124,148,115,94,76,72,,70,70,31,45,10,12,0.8,0.7
2024-12-04T1700,4018A,116.0567,36.4608,聊城市,星美广场,细颗粒物(PM2.5),128,159,138,97,82,73,,62,62,32,47,14,15,0.8,1
2024-12-04T1700,2632A,94.3681,29.6376,林芝市,林芝监测站,,25,,12,3,4,80,,67,64,2,3,6,6,0.5,0.3
2024-12-04T1700,2633A,94.3616,29.6616,林芝市,林芝人民医院,,24,7,12,3,6,76,,62,62,3,4,6,6,0.1,0.2
2024-12-04T1700,2603A,100.0781,23.8982,临沧市,市环保局,,24,11,23,7,15,75,,18,,6,14,10,9,0.3,0.4
2024-12-04T1700,2604A,100.0894,23.8822,临沧市,市气象局,,23,16,27,11,19,72,,56,56,6,15,7,8,0.4,0.5
2024-12-04T1700,1733A,111.5531,36.0783,临汾市,临钢医院,,41,41,64,16,37,60,,32,32,22,39,8,8,0.4,0.8
2024-12-04T1700,1734A,111.5028,36.0714,临汾市,技工学校,,36,36,78,25,49,66,,32,32,19,51,6,9,0.4,0.9
2024-12-04T1700,1736A,111.5018,36.0855,临汾市,市委,颗粒物(PM10),58,65,89,9,42,60,,27,27,16,42,4,7,0.3,0.8
2024-12-04T1700,3018A,111.505,36.1014,临汾市,唐尧大酒店,,,39,78,16,45,,,25,25,13,40,8,10,0.4,0.9
2024-12-04T1700,3668A,111.5036,36.0414,临汾市,城南,颗粒物(PM10),55,60,90,21,44,69,,32,32,19,42,5,7,0.4,1
2024-12-04T1700,2667A,103.2069,35.5993,临夏回族自治州,环保局,,46,46,49,10,13,85,,62,62,14,24,10,13,0.5,0.7
2024-12-04T1700,2668A,103.2417,35.6057,临夏回族自治州,建设大厦,,39,39,49,7,16,89,,66,66,10,26,13,13,0.6,0.9
2024-12-04T1700,1618A,118.3429,35.0532,临沂市,沂河小区,细颗粒物(PM2.5),102,119,109,76,67,48,,51,51,62,61,17,16,0.9,1
2024-12-04T1700,1619A,118.295,35.0583,临沂市,鲁南制药厂,细颗粒物(PM2.5),107,129,115,80,70,47,,49,49,54,61,14,15,0.7,0.9
2024-12-04T1700,1620A,118.2794,34.9976,临沂市,新光毛纺厂,细颗粒物(PM2.5),92,114,109,68,64,47,,47,47,59,61,16,15,1.1,1.1
2024-12-04T1700,1621A,118.3956,35.0888,临沂市,河东保险公司,细颗粒物(PM2.5),110,124,112,83,72,51,,54,54,54,52,15,10,0.7,0.8
2024-12-04T1700,3370A,118.3564,35.0215,临沂市,十里堡居委,细颗粒物(PM2.5),94,107,105,70,63,36,,47,47,62,57,22,17,1.1,1.1
2024-12-04T1700,3496A,118.3604,35.1084,临沂市,南坊新区,细颗粒物(PM2.5),110,124,103,83,63,54,,55,55,64,59,11,11,0.9,1
2024-12-04T1700,3860A,118.3920,35.0300,临沂市,皇山花园小区,细颗粒物(PM2.5),92,119,119,68,67,37,,44,44,68,71,19,13,1.1,1.2
2024-12-04T1700,1870A,109.4856,24.3895,柳州市,柳东小学,臭氧1小时,70,50,75,46,58,176,,147,147,12,24,16,16,0.6,0.7
2024-12-04T1700,1871A,109.4157,24.3277,柳州市,环保监测站,臭氧1小时,82,64,88,52,58,185,,153,153,18,38,14,14,0.7,0.9
2024-12-04T1700,1872A,109.389,24.341,柳州市,河西水厂,臭氧1小时,82,74,110,45,67,185,,148,148,19,48,13,15,0.9,1.2
2024-12-04T1700,1873A,109.4311,24.2921,柳州市,市四中,臭氧1小时,85,70,95,47,57,188,,163,163,17,46,12,15,0.8,1.1
2024-12-04T1700,1874A,109.4006,24.3631,柳州市,市九中,臭氧1小时,83,76,93,47,58,186,,156,156,18,34,10,10,0.8,0.9
2024-12-04T1700,1875A,109.4958,24.3134,柳州市,古亭山,臭氧1小时,72,82,72,44,49,177,,150,150,19,52,17,24,0.9,1
2024-12-04T1700,3402A,109.5422,24.3996,柳州市,市二中,颗粒物(PM10),54,58,89,34,60,150,,131,131,15,49,13,13,0.6,0.7
2024-12-04T1700,2307A,116.5079,31.737,六安市,监测大楼,,,,82,,66,,,22,22,22,35,5,5,0.6,0.7
2024-12-04T1700,2308A,116.4738,31.7643,六安市,皖西学院,颗粒物(PM10),53,56,92,33,64,37,,25,25,27,39,4,5,0.6,0.7
2024-12-04T1700,2309A,116.4996,31.7905,六安市,朝阳厂,细颗粒物(PM2.5),52,39,79,36,60,34,,22,22,20,34,1,1,0.6,0.8
2024-12-04T1700,2310A,116.5567,31.7886,六安市,开发区,,48,45,94,33,58,40,,30,30,26,38,4,4,0.6,0.7
2024-12-04T1700,2576A,104.8,26.5892,六盘水市,窑上,细颗粒物(PM2.5),64,49,54,46,47,39,,48,47,14,13,8,9,0.9,0.8
2024-12-04T1700,2577A,104.83,26.5917,六盘水市,黄土坡,,45,33,64,31,50,37,,56,49,14,18,8,10,0.6,0.6
2024-12-04T1700,2578A,104.89,26.5939,六盘水市,水钢,,49,44,74,34,58,40,,63,54,20,15,8,7,1.3,0.7
2024-12-04T1700,2579A,104.8475,26.5894,六盘水市,民中,,49,39,55,34,46,34,,61,51,18,17,8,9,0.7,0.7
2024-12-04T1700,2580A,104.9544,26.5506,六盘水市,双水,,50,46,58,35,46,45,,72,66,14,12,7,7,0.7,0.6
2024-12-04T1700,2335A,117.0189,25.1181,龙岩市,龙岩师专,,,,,,,,,,,,,,,,
2024-12-04T1700,2336A,117.0217,25.1033,龙岩市,龙岩市监测站,,33,33,39,17,25,81,,74,74,13,38,8,6,0.4,0.7
2024-12-04T1700,2337A,117.0258,25.0661,龙岩市,闽西职业技术学院,,30,30,59,19,28,77,,69,69,11,32,6,12,0.4,0.5
2024-12-04T1700,2338A,117.0196,25.0306,龙岩市,龙岩学院,,32,32,34,18,23,72,,67,67,15,18,3,3,0.5,0.5
2024-12-04T1700,2665A,105.0822,33.3261,陇南市,汉王镇固水子,,,,,,,,,,,,,,,,
2024-12-04T1700,2885A,104.9339,33.3826,陇南市,滨江中学,颗粒物(PM10),62,73,100,25,47,74,,72,72,30,43,7,15,0.7,2.1
2024-12-04T1700,3247A,104.955,33.371,陇南市,市总工会,颗粒物(PM10),58,66,74,20,37,84,,76,76,19,32,2,3,0.3,0.7
2024-12-04T1700,2487A,111.9589,27.8901,娄底市,电视发射台,,,,93,,86,,,81,81,,21,,8,,0.6
2024-12-04T1700,2488A,111.9975,27.725,娄底市,市监测站,细颗粒物(PM2.5),158,146,144,120,111,69,,84,84,21,22,6,10,0.8,0.7
2024-12-04T1700,2489A,112.0194,27.7314,娄底市,市委党校,细颗粒物(PM2.5),147,139,137,112,104,65,,78,78,24,24,5,6,0.3,0.3
2024-12-04T1700,2490A,111.9561,27.7569,娄底市,涟钢,细颗粒物(PM2.5),158,165,152,120,110,63,,79,79,29,25,10,10,1.3,1.1
2024-12-04T1700,2491A,111.9892,27.7044,娄底市,市政府,细颗粒物(PM2.5),148,145,143,113,111,67,,81,81,30,26,8,10,1.0,0.9
2024-12-04T1700,1893A,105.4324,28.9634,泸州市,九狮山,,,,,,,,,,,,,,,,
2024-12-04T1700,1894A,105.4427,28.9063,泸州市,小市上码头,细颗粒物(PM2.5),140,142,124,107,101,11,,22,12,40,31,3,4,0.8,0.7
2024-12-04T1700,1895A,105.4241,28.8573,泸州市,兰田宪桥,细颗粒物(PM2.5),150,,106,115,106,28,,18,17,23,29,3,4,0.8,0.8
2024-12-04T1700,1896A,105.4379,28.8833,泸州市,市环监站,细颗粒物(PM2.5),145,133,117,111,97,18,,17,12,33,32,5,5,0.8,0.7
2024-12-04T1700,3490A,105.3617,28.7703,泸州市,纳溪区环保局,细颗粒物(PM2.5),119,98,101,90,87,5,,7,6,42,36,3,5,0.9,0.8
2024-12-04T1700,2183A,111.1406,37.5211,吕梁市,环保局,,30,23,80,21,25,77,,52,52,9,39,1,4,0.3,0.4
2024-12-04T1700,2185A,111.1297,37.5136,吕梁市,自来水公司,,29,28,98,20,30,77,,53,53,11,34,3,6,0.3,0.5
2024-12-04T1700,2867A,111.1283,37.51,吕梁市,马茂庄小学,,32,32,81,19,27,77,,60,60,11,43,1,5,0.2,0.5
2024-12-04T1700,1812A,112.3931,34.6516,洛阳市,市委党校,细颗粒物(PM2.5),124,146,120,94,75,17,,25,25,68,56,8,8,1.1,0.9
2024-12-04T1700,1814A,112.4657,34.6871,洛阳市,豫西宾馆,细颗粒物(PM2.5),122,166,130,92,68,23,,29,29,58,50,9,8,0.8,0.9
2024-12-04T1700,1815A,112.494,34.6886,洛阳市,河南林校,细颗粒物(PM2.5),152,141,113,116,82,17,,24,24,63,54,6,6,0.8,0.7
2024-12-04T1700,1816A,112.3844,34.623,洛阳市,开发区管委会,细颗粒物(PM2.5),140,156,121,107,79,24,,29,29,58,50,10,9,0.8,0.6
2024-12-04T1700,1817A,112.4267,34.6258,洛阳市,市委新办公区,细颗粒物(PM2.5),139,179,132,106,82,18,,27,27,59,46,7,6,0.8,0.7
2024-12-04T1700,3340A,112.6005,34.6326,洛阳市,伊滨,细颗粒物(PM2.5),130,163,139,99,70,30,,32,32,53,58,9,8,0.9,0.8
2024-12-04T1700,3341A,112.4951,34.6332,洛阳市,中移产业园,细颗粒物(PM2.5),133,131,107,101,77,30,,29,29,54,51,9,8,0.8,0.6
2024-12-04T1700,3593A,112.5736,34.8993,洛阳市,吉利监测站,细颗粒物(PM2.5),144,136,111,110,77,18,,24,24,59,51,7,4,0.7,0.7
2024-12-04T1700,3635A,112.3677,34.662,洛阳市,河科大西苑校区,细颗粒物(PM2.5),123,155,124,93,73,21,,29,29,66,51,10,10,1.0,0.8
2024-12-04T1700,3636A,112.4388,34.6781,洛阳市,英才小学,细颗粒物(PM2.5),115,147,117,87,68,16,,21,21,62,52,8,7,0.8,0.6
2024-12-04T1700,2399A,114.051,33.5699,漯河市,三五一五工厂,细颗粒物(PM2.5),110,117,132,83,94,47,,25,25,27,35,8,7,0.5,0.6
2024-12-04T1700,2400A,114.0055,33.5698,漯河市,漯河大学,细颗粒物(PM2.5),113,134,138,85,89,34,,23,23,32,41,7,6,0.7,0.7
2024-12-04T1700,2401A,114.0138,33.5828,漯河市,市水利局,细颗粒物(PM2.5),110,127,137,83,90,39,,23,23,26,34,8,7,0.5,0.6
2024-12-04T1700,2402A,114.0261,33.5698,漯河市,市广电局,细颗粒物(PM2.5),122,125,130,92,94,38,,25,25,29,35,8,7,0.7,0.7
2024-12-04T1700,3478A,113.9749,33.5664,漯河市,市图书馆,细颗粒物(PM2.5),119,133,145,90,93,32,,21,21,29,39,5,5,0.8,0.9
2024-12-04T1700,3479A,114.0967,33.5906,漯河市,召陵区卫健委,细颗粒物(PM2.5),113,146,156,85,103,41,,18,18,,38,10,9,0.7,0.9
2024-12-04T1700,1798A,118.5092,31.6837,马鞍山市,湖东路四小,,44,44,58,20,30,38,,59,56,41,24,4,5,0.9,0.9
2024-12-04T1700,1799A,118.5024,31.6449,马鞍山市,开发区,,42,42,63,25,40,39,,55,52,45,30,7,8,0.8,0.8
2024-12-04T1700,1800A,118.5228,31.7231,马鞍山市,慈湖,,50,50,53,30,38,24,,61,53,54,24,7,8,0.9,0.9
2024-12-04T1700,1802A,118.6245,31.7241,马鞍山市,濮塘,颗粒物(PM10),51,52,59,25,34,35,,62,57,41,24,10,10,0.8,0.7
2024-12-04T1700,3633A,118.4918,31.6809,马鞍山市,雨山,,50,50,60,20,30,33,,58,54,43,23,8,9,0.7,0.7
2024-12-04T1700,1686A,111.0286,21.4688,茂名市,电白南海,,41,41,61,14,31,108,,130,130,14,23,5,9,0.5,0.6
2024-12-04T1700,1687A,110.9294,21.6533,茂名市,茂石化七小,颗粒物(PM10),51,51,73,27,43,116,,145,144,14,20,8,12,0.7,0.8
2024-12-04T1700,1688A,110.9107,21.6687,茂名市,健康路,,48,48,63,17,38,129,,160,156,13,19,12,17,0.6,0.7
2024-12-04T1700,1689A,110.8592,21.6828,茂名市,高岭,颗粒物(PM10),60,70,88,29,47,111,,136,136,19,31,11,23,0.6,0.8
2024-12-04T1700,3450A,111.01,21.5165,茂名市,电白水东,,36,36,58,17,35,97,,120,120,8,16,8,12,0.7,0.8
2024-12-04T1700,2539A,104.0308,30.0478,眉山市,黑龙滩水库,"颗粒物(PM10),细颗粒物(PM2.5)",74,97,125,54,70,69,,19,19,13,20,16,7,0.4,0.5
2024-12-04T1700,2540A,103.8416,30.0874,眉山市,气象局,细颗粒物(PM2.5),83,80,100,61,89,36,,24,24,42,40,5,5,0.5,0.7
2024-12-04T1700,3137A,103.8578,30.0744,眉山市,市委党校,细颗粒物(PM2.5),73,80,100,53,79,34,,25,25,47,41,6,7,0.5,0.7
2024-12-04T1700,3148A,103.8291,30.0564,眉山市,区人社局,细颗粒物(PM2.5),70,58,82,51,82,39,,24,24,47,50,6,6,0.7,0.8
2024-12-04T1700,1690A,116.1231,24.3284,梅州市,梅江月梅,,34,30,50,12,28,106,,93,93,10,23,8,8,0.5,0.7
2024-12-04T1700,1691A,116.0797,24.2719,梅州市,梅县新城,,43,38,63,30,42,91,,80,80,21,38,4,5,0.5,0.7
2024-12-04T1700,1692A,116.1248,24.2654,梅州市,环境监控中心,,40,,55,28,35,81,,82,82,30,38,6,9,0.6,0.7
2024-12-04T1700,3315A,116.1233,24.2991,梅州市,梅龙,,31,24,49,12,30,97,,77,77,13,34,5,6,0.6,0.9
2024-12-04T1700,1878A,104.7778,31.4741,绵阳市,富乐山,,50,50,49,30,38,78,,44,44,16,24,4,3,0.5,0.6
2024-12-04T1700,1879A,104.7563,31.4535,绵阳市,市人大,颗粒物(PM10),53,56,61,25,40,62,,38,38,31,36,2,2,0.5,0.5
2024-12-04T1700,1880A,104.6697,31.4668,绵阳市,高新区自来水公司,颗粒物(PM10),56,61,62,29,37,75,,46,46,20,36,5,5,0.4,0.7
2024-12-04T1700,1881A,104.7287,31.5075,绵阳市,三水厂,颗粒物(PM10),52,53,67,35,46,80,,46,46,16,34,7,8,0.4,0.6
2024-12-04T1700,3491A,104.69,31.5322,绵阳市,西科大附属小学,"颗粒物(PM10),细颗粒物(PM2.5)",53,56,60,37,45,71,,46,46,24,32,6,5,0.6,0.8
2024-12-04T1700,3492A,104.5648,31.5343,绵阳市,安州区旅游局,细颗粒物(PM2.5),55,48,62,39,47,78,,49,49,24,31,7,7,0.6,0.9
2024-12-04T1700,1784A,129.61,44.561,牡丹江市,环保大楼,,36,25,25,25,17,41,,54,53,28,12,7,7,0.5,0.3
2024-12-04T1700,1785A,129.6115,44.5782,牡丹江市,文化广场,,45,32,29,31,19,38,,52,51,36,17,10,9,0.5,0.5
2024-12-04T1700,1786A,129.5904,44.5963,牡丹江市,第一医院,,28,22,27,19,24,51,,64,64,27,15,6,6,0.5,0.4
2024-12-04T1700,1787A,129.6364,44.6075,牡丹江市,机车工厂,,24,14,30,8,19,21,,47,45,47,21,8,10,0.5,0.4
2024-12-04T1700,1788A,129.6386,44.5462,牡丹江市,第一中学,,25,25,23,12,19,42,,57,55,26,14,6,5,0.3,0.3
2024-12-04T1700,2531A,105.0703,29.61,内江市,市监测站,细颗粒物(PM2.5),62,59,99,44,93,27,,22,22,26,28,6,7,0.7,0.8
2024-12-04T1700,2532A,105.0717,29.5947,内江市,东兴区政府,细颗粒物(PM2.5),59,51,93,42,87,29,,23,22,27,31,6,6,0.8,0.9
2024-12-04T1700,2533A,105.0653,29.5817,内江市,内江二中,细颗粒物(PM2.5),57,,108,40,93,30,,25,22,25,27,7,8,0.7,0.8
2024-12-04T1700,2534A,105.0406,29.5822,内江市,内江日报社,细颗粒物(PM2.5),62,52,97,44,91,30,,24,24,25,32,11,11,0.6,0.7
2024-12-04T1700,2628A,92.0657,31.4846,那曲市,那曲监测站,,,28,74,7,42,100,,66,66,,27,8,10,0.3,1.6
2024-12-04T1700,3128A,92.0506,31.4797,那曲市,那曲会议中心,,32,23,68,3,30,101,,71,71,2,18,2,6,0.6,1.1
2024-12-04T1700,1290A,115.8931,28.6843,南昌市,省外办,细颗粒物(PM2.5),113,119,142,85,107,88,,82,82,28,26,5,6,0.8,1
2024-12-04T1700,1291A,115.8886,28.7003,南昌市,省林业公司,细颗粒物(PM2.5),107,119,137,80,98,91,,85,85,22,28,8,8,0.6,0.8
2024-12-04T1700,1292A,115.8126,28.7442,南昌市,林科所,细颗粒物(PM2.5),94,107,126,70,92,86,,88,88,36,31,6,8,1.1,1.1
2024-12-04T1700,1294A,115.8518,28.687,南昌市,建工学校,颗粒物(PM10),84,118,144,61,80,87,,83,83,34,32,7,8,0.7,0.9
2024-12-04T1700,1295A,115.8921,28.6424,南昌市,象湖,细颗粒物(PM2.5),100,91,109,75,95,101,,91,91,31,31,7,8,1.1,1.2
2024-12-04T1700,1296A,115.7423,28.7996,南昌市,武术学校,细颗粒物(PM2.5),89,100,94,66,61,62,,67,67,20,16,3,3,0.8,0.8
2024-12-04T1700,1298A,115.9314,28.6842,南昌市,省站,细颗粒物(PM2.5),110,114,145,83,100,88,,83,83,32,32,10,11,0.7,0.8
2024-12-04T1700,3046A,115.9084,28.6062,南昌市,机电学校,细颗粒物(PM2.5),100,123,148,75,98,96,,88,88,28,26,10,11,0.8,1
2024-12-04T1700,3690A,115.9721,28.7031,南昌市,外国语学校,细颗粒物(PM2.5),104,128,143,78,90,81,,79,79,29,28,6,7,0.8,0.9
2024-12-04T1700,1905A,106.056,30.8064,南充市,西山风景区,,45,36,51,31,53,32,,34,34,16,10,1,1,0.9,0.9
2024-12-04T1700,1906A,106.0789,30.8023,南充市,南充市委,,42,38,61,29,50,34,,29,29,31,24,3,3,0.4,0.5
2024-12-04T1700,1907A,106.1031,30.8217,南充市,南充炼油厂,细颗粒物(PM2.5),52,43,66,36,54,42,,36,36,28,21,3,3,0.6,0.7
2024-12-04T1700,1908A,106.1064,30.7856,南充市,高坪区监测站,细颗粒物(PM2.5),57,47,65,40,51,45,,36,36,20,23,7,3,0.4,0.5
2024-12-04T1700,1909A,106.0642,30.7636,南充市,嘉陵区环保局,,45,31,66,31,49,40,,30,30,29,28,5,4,0.6,0.7
2024-12-04T1700,1910A,106.1087,30.8388,南充市,市环境监测站,细颗粒物(PM2.5),57,59,70,40,55,44,,37,37,23,18,4,5,0.4,0.5
2024-12-04T1700,1151A,118.8086,32.1065,南京市,迈皋桥,,35,35,50,22,25,27,,52,39,41,30,5,6,0.4,0.4
2024-12-04T1700,1152A,118.7538,32.0551,南京市,草场门,,39,39,52,27,28,30,,52,35,41,33,4,5,0.6,0.6
2024-12-04T1700,1153A,118.7794,32.0745,南京市,山西路,,,39,57,27,31,37,,63,49,52,46,4,4,,0.3
2024-12-04T1700,1154A,118.7752,32.0023,南京市,中华门,,36,36,52,19,25,30,,61,42,45,30,4,4,0.6,0.6
2024-12-04T1700,1155A,118.8109,32.0309,南京市,瑞金路,,46,46,56,22,26,30,,57,37,35,23,5,5,0.4,0.4
2024-12-04T1700,1156A,118.7997,32.0754,南京市,玄武湖,颗粒物(PM10),51,51,57,23,25,25,,41,30,51,43,7,8,0.4,0.1
2024-12-04T1700,1157A,118.6414,32.0931,南京市,浦口,,43,43,66,27,30,28,,44,30,34,32,6,7,0.7,0.7
2024-12-04T1700,1158A,118.7356,31.9996,南京市,奥体中心,,46,46,60,19,28,34,,64,43,49,32,9,8,0.4,0.4
2024-12-04T1700,1159A,118.9125,32.1028,南京市,仙林大学城,,34,34,54,22,28,23,,50,33,48,31,6,6,0.5,0.5
2024-12-04T1700,3422A,118.8436,31.9198,南京市,江宁彩虹桥,颗粒物(PM10),55,59,52,22,24,20,,61,46,63,27,8,6,0.4,0.4
2024-12-04T1700,3423A,119.0138,31.6494,南京市,溧水永阳,,48,48,54,31,28,49,,53,53,29,26,3,4,0.3,0.3
2024-12-04T1700,3424A,118.879,31.3302,南京市,高淳老职中,颗粒物(PM10),57,63,67,37,44,46,,57,57,36,29,8,7,0.8,0.8
2024-12-04T1700,3427A,118.8554,32.3578,南京市,六合雄州,颗粒物(PM10),53,55,46,23,24,36,,46,44,29,16,5,6,0.4,0.7
2024-12-04T1700,1401A,108.3103,22.7881,南宁市,二十一中,臭氧1小时,55,49,72,31,48,164,,154,154,15,29,5,7,0.8,0.9
2024-12-04T1700,1402A,108.3141,22.8528,南宁市,北湖,臭氧1小时,59,65,83,35,56,167,,152,152,19,45,10,11,0.8,1
2024-12-04T1700,1403A,108.3206,22.8225,南宁市,市监测站,颗粒物(PM10),54,57,77,36,50,155,,150,150,21,35,11,14,0.7,0.8
2024-12-04T1700,1404A,108.3829,22.8037,南宁市,大自然花园,细颗粒物(PM2.5),60,60,76,43,53,161,,156,156,18,30,9,10,0.4,0.6
2024-12-04T1700,1405A,108.4394,22.7904,南宁市,仙葫,颗粒物(PM10),54,58,77,28,62,147,,141,141,10,34,6,7,0.6,0.8
2024-12-04T1700,1406A,108.2397,22.8467,南宁市,区农职院,颗粒物(PM10),53,55,85,29,51,160,,152,152,19,45,7,13,0.5,0.7
2024-12-04T1700,1407A,108.3275,22.735,南宁市,英华嘉园,,45,44,77,29,49,141,,140,140,27,41,8,10,0.7,0.8
2024-12-04T1700,1408A,108.2257,22.7757,南宁市,沙井镇街道办,,47,47,110,30,48,148,,134,134,17,61,9,9,0.8,0.9
2024-12-04T1700,3401A,108.4834,22.7618,南宁市,红星社区,颗粒物(PM10),66,81,88,32,62,157,,154,154,14,34,9,9,0.6,0.8
2024-12-04T1700,2331A,118.0966,26.6761,南平市,茫荡山,,,,,,,,,,,,,,,,
2024-12-04T1700,2332A,118.1681,26.6369,南平市,南平市监测站,,35,26,44,24,35,96,,72,72,8,26,3,5,0.3,0.7
2024-12-04T1700,2333A,118.1825,26.6489,南平市,南平铝业有限公司,,31,31,39,20,32,78,,54,54,9,27,3,5,0.4,0.5
2024-12-04T1700,2334A,118.1756,26.6272,南平市,南平七中,,31,31,40,19,29,99,,72,72,6,22,3,5,0.2,0.5
2024-12-04T1700,1168A,120.9098,31.9663,南通市,狼山街道,,32,32,36,11,15,73,,77,77,17,16,7,7,0.3,0.3
2024-12-04T1700,1169A,120.86,32.0005,南通市,虹桥,,34,34,36,16,20,69,,70,70,17,18,5,6,0.4,0.4
2024-12-04T1700,1170A,120.87,32.02,南通市,城中,,37,37,44,12,19,69,,72,72,24,24,7,7,0.4,0.5
2024-12-04T1700,1171A,120.94,31.93,南通市,星湖花园,,30,30,32,10,14,69,,71,71,20,21,5,5,0.3,0.3
2024-12-04T1700,1172A,120.81,32.0417,南通市,紫琅学院,,31,31,40,10,20,62,,66,66,24,24,4,3,0.5,0.5
2024-12-04T1700,3291A,121.067,32.062,南通市,通州监测站,,34,34,36,14,15,83,,82,82,11,11,3,3,0.3,0.4
2024-12-04T1700,3432A,120.9348,31.9883,南通市,环境教育馆,,31,31,36,11,17,76,,80,80,17,19,4,4,0.4,0.5
2024-12-04T1700,2404A,112.5224,33.0122,南阳市,瓦房庄,细颗粒物(PM2.5),153,136,124,117,100,28,,28,28,39,40,6,6,0.7,0.7
2024-12-04T1700,2405A,112.5003,32.9735,南阳市,汉画馆,细颗粒物(PM2.5),142,143,126,108,89,30,,28,28,35,40,6,6,0.9,0.9
2024-12-04T1700,2406A,112.5573,33.027,南阳市,气象站,细颗粒物(PM2.5),149,159,129,114,94,,,24,24,46,46,5,5,1.1,0.9
2024-12-04T1700,2407A,112.5481,32.9689,南阳市,理工学院,细颗粒物(PM2.5),166,149,125,126,97,24,,20,20,39,39,5,5,0.7,0.7
2024-12-04T1700,4008A,112.5234,32.9922,南阳市,卧龙区政府,细颗粒物(PM2.5),150,148,130,115,92,29,,26,26,38,42,5,5,0.7,0.7
2024-12-04T1700,1234A,121.8358,29.911,宁波市,区环保大楼,,38,38,55,18,29,72,,78,75,32,34,10,9,0.6,0.7
2024-12-04T1700,1235A,121.56,29.82,宁波市,万里学院,颗粒物(PM10),51,52,68,26,36,88,,75,75,29,38,7,9,0.6,0.7
2024-12-04T1700,1236A,121.713,29.9572,宁波市,龙赛医院,,,39,54,16,28,68,,74,74,34,36,10,10,,0.6
2024-12-04T1700,1239A,121.633,29.7733,宁波市,钱湖水厂,,30,30,59,18,34,79,,86,86,16,28,6,7,0.8,0.9
2024-12-04T1700,1240A,121.5856,29.8635,宁波市,太古小学,,50,50,65,23,33,68,,70,67,42,38,9,9,0.6,0.7
2024-12-04T1700,1241A,121.524,29.8674,宁波市,市环境监测中心,,34,34,55,12,28,66,,72,71,37,35,6,8,0.8,0.9
2024-12-04T1700,2871A,121.6147,29.9017,宁波市,万里国际学校,颗粒物(PM10),54,58,67,27,26,43,,73,72,66,43,8,8,0.6,0.6
2024-12-04T1700,3710A,121.5594,29.8975,宁波市,白沙活动中心,,45,45,59,16,26,61,,75,75,39,33,9,10,0.6,0.7
2024-12-04T1700,2339A,119.5001,26.6946,宁德市,金涵水库,,,,,,,,,,,,,,,,
2024-12-04T1700,2341A,119.5388,26.6612,宁德市,宁德市监测站,细颗粒物(PM2.5),57,59,42,40,32,80,,67,67,32,26,10,5,0.7,0.5
2024-12-04T1700,3209A,119.5231,26.6562,宁德市,宁德一中,,,60,41,41,28,96,,78,75,18,17,,4,0.7,0.5
2024-12-04T1700,2618A,98.8601,25.8567,怒江傈僳族自治州,州监测站,,28,28,30,6,13,85,,67,67,6,13,5,5,0.4,0.4
2024-12-04T1700,2619A,98.8546,25.8417,怒江傈僳族自治州,泸水一中,,27,27,27,9,16,73,,56,56,12,20,6,6,0.5,0.6
2024-12-04T1700,1888A,101.6891,26.571,攀枝花市,弄弄坪,,44,44,46,20,28,82,,58,58,27,31,25,19,0.5,1
2024-12-04T1700,1889A,101.5769,26.5928,攀枝花市,河门口,,38,38,49,26,32,86,,66,66,32,32,33,17,1.9,1.5
2024-12-04T1700,1890A,101.7169,26.585,攀枝花市,炳草岗,,30,29,53,12,28,95,,63,63,19,41,28,19,0.6,0.8
2024-12-04T1700,1891A,101.7369,26.5008,攀枝花市,仁和,,34,34,54,19,25,102,,70,70,19,26,28,13,0.4,0.8
2024-12-04T1700,2835A,101.7227,26.567,攀枝花市,四十中小,,41,41,54,26,30,95,,63,63,16,46,20,11,0.4,0.9
2024-12-04T1700,1604A,122.0303,41.1489,盘锦市,开发区,,44,44,39,19,22,35,,59,59,43,33,11,12,0.5,1
2024-12-04T1700,1605A,122.0485,41.0883,盘锦市,兴隆台,,36,36,39,25,22,33,,58,58,44,39,12,15,0.6,0.8
2024-12-04T1700,1606A,121.8297,41.1028,盘锦市,新生街道,,19,19,29,8,16,58,,65,65,24,36,9,12,0.3,0.6
2024-12-04T1700,1832A,113.3257,33.742,平顶山市,新华旅馆,细颗粒物(PM2.5),183,211,190,138,112,28,,14,14,37,47,8,8,0.8,0.8
2024-12-04T1700,1833A,113.2919,33.737,平顶山市,规划设计院,细颗粒物(PM2.5),195,224,199,146,125,28,,17,17,37,46,6,6,1.0,1
2024-12-04T1700,1834A,113.182,33.774,平顶山市,平顶山工学院,细颗粒物(PM2.5),180,196,176,136,109,34,,20,20,26,44,7,8,1.0,1
2024-12-04T1700,3204A,113.3025,33.73,平顶山市,规划局,细颗粒物(PM2.5),202,200,183,152,122,20,,12,12,40,45,7,7,1.0,1.1
2024-12-04T1700,3594A,112.8867,33.9116,平顶山市,石龙区,细颗粒物(PM2.5),150,168,169,115,106,33,,26,26,40,45,14,12,1.4,1.1
2024-12-04T1700,2656A,106.6692,35.5461,平凉市,聚贤嘉苑,,40,40,56,22,29,103,,99,99,11,28,8,10,0.2,0.4
2024-12-04T1700,2657A,106.7021,35.5307,平凉市,博物馆,颗粒物(PM10),53,55,62,20,28,105,,101,101,8,24,16,12,0.3,0.6
2024-12-04T1700,2347A,114.0997,27.5002,萍乡市,武功山,"颗粒物(PM10),细颗粒物(PM2.5)",79,107,55,58,31,121,,93,93,20,11,15,12,0.4,0.3
2024-12-04T1700,2348A,113.8385,27.6434,萍乡市,中医院,细颗粒物(PM2.5),144,174,137,110,83,109,,90,90,32,39,9,22,1.0,1.3
2024-12-04T1700,2349A,113.8493,27.6253,萍乡市,市政府车库,细颗粒物(PM2.5),120,150,104,91,80,110,,95,95,27,31,12,18,1.0,1.1
2024-12-04T1700,2350A,113.8676,27.6435,萍乡市,市环保局,细颗粒物(PM2.5),107,116,107,80,71,113,,87,87,28,31,16,25,1.0,1.1
2024-12-04T1700,2351A,113.866,27.6198,萍乡市,安源区政府,细颗粒物(PM2.5),143,131,108,109,75,120,,90,90,28,32,10,23,1.0,1.2
2024-12-04T1700,2319A,119.0141,25.4325,莆田市,荔城区仓后路,,49,49,33,30,18,106,,106,106,12,9,2,2,0.5,0.5
2024-12-04T1700,2320A,119.0015,25.4553,莆田市,莆田市监测站,颗粒物(PM10),52,53,28,28,17,110,,109,109,12,7,3,3,0.5,0.4
2024-12-04T1700,2321A,119.1119,25.4561,莆田市,涵江区六中,,50,50,35,29,19,111,,114,112,12,8,2,2,0.3,0.3
2024-12-04T1700,2322A,119.1013,25.3215,莆田市,秀屿区政府,颗粒物(PM10),52,54,39,29,22,118,,114,114,11,12,1,2,0.4,0.4
2024-12-04T1700,2323A,118.981,25.4792,莆田市,东圳水库,,,,,,,,,,,,,,,,
2024-12-04T1700,2392A,115.0312,35.7636,濮阳市,环保局,细颗粒物(PM2.5),83,74,106,61,86,58,,51,51,24,43,2,3,0.5,0.8
2024-12-04T1700,2394A,115.0574,35.7609,濮阳市,油田运输公司,细颗粒物(PM2.5),85,98,133,63,90,55,,48,48,23,44,2,3,0.7,0.9
2024-12-04T1700,2395A,115.0866,35.7754,濮阳市,油田物探公司,细颗粒物(PM2.5),87,101,137,64,91,57,,50,50,21,42,3,4,0.6,0.8
2024-12-04T1700,3021A,115,35.7668,濮阳市,濮水河管理处,细颗粒物(PM2.5),88,116,135,65,82,53,,53,53,21,41,4,3,0.5,0.7
2024-12-04T1700,2601A,100.98,22.7633,普洱市,市环保局,,,32,29,7,13,58,,50,50,,12,7,5,0.4,0.3
2024-12-04T1700,2602A,100.9817,22.8322,普洱市,普洱第二中学,,19,18,27,10,14,59,,51,51,5,13,6,7,0.4,0.5
2024-12-04T1700,2262A,131.0518,45.8751,七台河市,新一中,,27,27,21,3,12,70,,67,67,9,12,10,11,1.3,1.3
2024-12-04T1700,3345A,131.0577,45.7879,七台河市,中波台,,16,13,20,7,12,39,,51,50,32,20,14,9,0.6,0.6
2024-12-04T1700,3637A,131.0176,45.7761,七台河市,人民广场,,20,20,23,14,17,39,,53,50,35,21,7,7,0.5,0.5
2024-12-04T1700,3684A,130.8781,45.8222,七台河市,新建矿广场,,23,19,16,16,19,48,,53,53,25,21,3,3,0.5,0.4
2024-12-04T1700,1779A,123.9305,47.3636,齐齐哈尔市,安居小区,,36,36,20,24,12,54,,64,64,25,13,1,2,0.6,0.5
2024-12-04T1700,1780A,123.9488,47.3386,齐齐哈尔市,中心广场,,16,15,14,11,10,46,,58,58,29,14,4,5,0.6,0.4
2024-12-04T1700,1781A,123.9483,47.3227,齐齐哈尔市,农牧车辆厂,,36,36,23,13,9,44,,56,56,35,19,7,7,0.5,0.4
2024-12-04T1700,1783A,123.945,47.2988,齐齐哈尔市,市环境监测站,,30,30,26,11,14,47,,62,61,30,17,2,4,0.5,0.5
2024-12-04T1700,3662A,123.6333,47.2075,齐齐哈尔市,富区青少年活动中心,,,52,33,18,18,28,,50,47,44,21,,12,1.1,0.7
2024-12-04T1700,2591A,107.9783,26.5747,黔东南苗族侗族自治州,市环境监测站,细颗粒物(PM2.5),95,84,85,71,70,57,,58,54,18,17,2,3,0.8,0.8
2024-12-04T1700,2881A,107.8908,26.5311,黔东南苗族侗族自治州,凯里学院,细颗粒物(PM2.5),87,78,70,64,61,59,,64,59,21,15,3,4,0.7,0.7
2024-12-04T1700,2593A,107.5228,26.2403,黔南布依族苗族自治州,小围寨,细颗粒物(PM2.5),52,41,40,36,37,31,,38,30,8,7,4,5,0.7,0.6
2024-12-04T1700,3538A,107.5175,26.2978,黔南布依族苗族自治州,沙坝,细颗粒物(PM2.5),64,51,53,46,40,33,,33,31,15,11,4,4,0.7,0.9
2024-12-04T1700,2589A,104.9022,25.0925,黔西南布依族苗族自治州,场坝街,,36,29,45,25,34,75,,71,71,6,13,2,3,0.3,0.4
2024-12-04T1700,2590A,104.8811,25.0992,黔西南布依族苗族自治州,坪东大道,,39,,39,27,34,72,,68,68,6,17,3,3,0.3,0.4
2024-12-04T1700,2502A,108.6236,21.9667,钦州市,市环保站,臭氧1小时,110,92,76,46,36,220,,161,161,26,35,10,10,1.0,0.9
2024-12-04T1700,2503A,108.6549,21.9481,钦州市,沙埠小学,臭氧1小时,120,89,92,55,42,239,,163,163,30,48,12,10,0.9,0.8
2024-12-04T1700,2504A,108.5989,21.7431,钦州市,港区一小,臭氧1小时,103,125,100,53,40,206,,196,196,41,42,13,11,0.9,1
2024-12-04T1700,3404A,108.5959,21.9633,钦州市,北职校,臭氧1小时,111,81,68,51,40,221,,166,166,22,32,14,14,0.9,0.9
2024-12-04T1700,1042A,119.5134,39.8207,秦皇岛市,北戴河环保局,,21,14,20,8,13,66,,66,66,10,21,1,2,0.3,0.4
2024-12-04T1700,1043A,119.7493,40.0116,秦皇岛市,第一关,,29,,16,20,17,61,,69,69,21,32,3,3,0.2,0.3
2024-12-04T1700,1044A,119.5897,39.9499,秦皇岛市,监测站,,25,25,34,8,20,53,,60,60,20,33,2,4,0.3,0.4
2024-12-04T1700,1046A,119.5251,39.9041,秦皇岛市,建设大厦,,33,33,28,10,16,54,,57,57,21,37,2,2,0.3,0.4
2024-12-04T1700,3132A,119.610547,39.943889,秦皇岛市,文明里,,34,34,35,13,18,53,,57,57,26,35,3,4,0.3,0.4
2024-12-04T1700,1307A,120.6659,36.2403,青岛市,仰口,,48,47,34,33,24,66,,71,71,26,16,10,9,0.3,0.3
2024-12-04T1700,1310A,120.4134,36.0658,青岛市,市南区东部子站,颗粒物(PM10),75,100,65,51,31,67,,68,68,55,48,18,12,0.8,0.7
2024-12-04T1700,1311A,120.3664,36.1032,青岛市,四方区子站,"颗粒物(PM10),细颗粒物(PM2.5)",62,73,69,44,44,64,,71,70,53,64,15,14,0.7,0.8
2024-12-04T1700,1312A,120.2994,36.054,青岛市,市南区西部子站,颗粒物(PM10),57,63,59,32,34,71,,65,65,40,48,14,13,0.8,0.7
2024-12-04T1700,1313A,120.4581,36.0858,青岛市,崂山区子站,颗粒物(PM10),59,68,53,39,29,66,,73,73,43,46,13,12,0.7,0.8
2024-12-04T1700,1314A,120.1983,35.9608,青岛市,黄岛区子站,,48,48,55,29,32,51,,53,53,47,61,9,10,0.6,0.6
2024-12-04T1700,1315A,120.3999,36.3083,青岛市,城阳区子站,颗粒物(PM10),58,66,90,29,46,41,,54,54,46,56,13,14,0.9,1.3
2024-12-04T1700,1966A,120.0405,35.8735,青岛市,黄岛区4号,,41,41,45,19,24,49,,63,63,44,35,9,10,0.6,0.6
2024-12-04T1700,3362A,120.5014,36.4034,青岛市,即墨2号,颗粒物(PM10),59,68,90,32,52,44,,50,50,47,53,14,16,0.9,1.1
2024-12-04T1700,3642A,120.3503,36.0736,青岛市,市北区南部,颗粒物(PM10),74,98,73,44,35,67,,63,63,60,66,12,12,0.7,0.7
2024-12-04T1700,3643A,120.3948,36.1805,青岛市,李沧区北部,颗粒物(PM10),54,58,74,27,46,38,,58,58,55,58,12,15,0.7,0.8
2024-12-04T1700,1702A,113.0426,23.691,清远市,环保大楼,,43,21,37,20,37,136,,115,115,6,30,7,8,0.7,0.8
2024-12-04T1700,1703A,113.0208,23.7106,清远市,凤城街办,,41,29,48,19,32,130,,113,113,8,35,11,12,0.6,0.8
2024-12-04T1700,3025A,113.0477,23.6344,清远市,技师学院,,42,33,64,21,35,132,,106,106,12,46,9,12,0.8,0.9
2024-12-04T1700,3318A,112.9903,23.7403,清远市,清新太和,,43,43,47,23,28,128,,99,99,19,26,6,6,0.6,0.7
2024-12-04T1700,3455A,113.076,23.7198,清远市,清城东城,,47,47,49,25,29,139,,115,115,9,20,9,8,0.9,1
2024-12-04T1700,2661A,107.6325,35.7357,庆阳市,庆阳五中,颗粒物(PM10),51,52,57,16,24,80,,77,77,14,16,5,6,0.3,0.5
2024-12-04T1700,2662A,107.6364,35.7067,庆阳市,市环保局,,40,40,55,9,20,89,,82,82,8,15,3,6,0.3,0.5
2024-12-04T1700,1916A,103.7897,25.5035,曲靖市,环境监测站,,31,15,37,3,20,97,,76,76,9,19,5,7,0.4,0.6
2024-12-04T1700,1917A,103.8,25.5364,曲靖市,烟厂办公区,,31,,39,18,25,98,,72,72,7,16,4,6,0.1,0.4
2024-12-04T1700,3376A,103.7947,25.462,曲靖市,南苑二区,,32,10,35,7,21,102,,82,82,4,9,4,6,0.4,0.5
2024-12-04T1700,3377A,103.7444,25.5261,曲靖市,曲靖师范学院,,35,18,30,3,28,110,,87,87,6,16,8,39,0.2,0.7
2024-12-04T1700,1264A,118.8692,28.9398,衢州市,环保大楼,细颗粒物(PM2.5),99,95,135,74,101,73,,63,63,31,34,5,5,0.7,0.7
2024-12-04T1700,1265A,118.8709,28.9666,衢州市,实验学校,细颗粒物(PM2.5),77,70,115,56,90,77,,70,70,26,32,4,5,0.5,0.6
2024-12-04T1700,1266A,118.8621,28.9808,衢州市,衢州学院,细颗粒物(PM2.5),89,93,124,66,94,94,,89,89,32,41,6,6,0.4,0.5
2024-12-04T1700,1611A,118.5819,24.9117,泉州市,涂山街,颗粒物(PM10),53,56,33,28,16,110,,115,115,13,9,1,2,0.6,0.5
2024-12-04T1700,1612A,118.5972,24.8978,泉州市,津头埔,,,,34,27,17,108,,113,113,16,12,2,2,0.4,0.6
2024-12-04T1700,1613A,118.6663,24.9424,泉州市,万安,颗粒物(PM10),55,59,40,26,18,121,,123,123,13,9,1,1,0.4,0.3
