timepoint,stationcode,longitude,latitude,area,positionname,primarypollutant,aqi,pm10,pm10_24h,pm2_5,pm2_5_24h,o3,o3_24h,o3_8h,o3_8h_24h,no2,no2_24h,so2,so2_24h,co,co_24h
2024-12-04T2100,2566A,102.1879,31.914,阿坝藏族羌族自治州,州农科所,,36,36,32,20,12,44,,74,68,28,16,12,19,0.7,0.5
2024-12-04T2100,2568A,102.2502,31.8896,阿坝藏族羌族自治州,马师校,,40,35,18,28,15,12,,55,44,47,23,4,4,0.7,0.5
2024-12-04T2100,3994A,102.2165,31.9024,阿坝藏族羌族自治州,马尔康中学西区,,45,45,26,27,13,26,,60,52,34,18,6,5,0.7,0.5
2024-12-04T2100,2695A,80.292,41.1694,阿克苏地区,电视台,颗粒物(PM10),87,123,133,51,74,34,,67,66,75,59,9,6,1.1,1.7
2024-12-04T2100,2696A,80.2613,41.1551,阿克苏地区,艺术中心,颗粒物(PM10),89,128,109,47,55,9,,68,63,83,50,4,4,1.2,1.3
2024-12-04T2100,2204A,105.6467,38.8363,阿拉善盟,西城区西花园,,28,28,31,16,19,79,,89,84,15,13,7,8,0.5,0.7
2024-12-04T2100,2205A,105.6985,38.8411,阿拉善盟,蒙二幼,,25,15,22,8,9,79,,86,83,10,10,6,7,0.6,0.5
2024-12-04T2100,2206A,105.724,38.8516,阿拉善盟,环保局新楼,,27,11,18,3,8,86,,89,86,6,6,8,8,0.5,0.5
2024-12-04T2100,2708A,88.1264,47.8517,阿勒泰地区,市站,,16,16,13,6,7,30,,51,47,31,16,7,7,0.5,0.4
2024-12-04T2100,2630A,80.1161,32.5,阿里地区,阿里监测站,,26,8,9,3,6,82,,90,90,10,9,6,9,0.5,0.5
2024-12-04T2100,3192A,80.0903,32.5028,阿里地区,阿里藏医院,,27,9,11,3,4,86,,92,92,2,6,6,9,0.5,0.6
2024-12-04T2100,2642A,109.0318,32.6537,安康市,香溪洞,细颗粒物(PM2.5),65,54,53,47,43,37,,55,30,26,20,42,12,0.7,0.5
2024-12-04T2100,2644A,109.0072,32.6975,安康市,汉滨区检察院,细颗粒物(PM2.5),93,93,74,69,50,16,,39,34,43,29,37,16,0.9,0.7
2024-12-04T2100,4054A,109.0325,32.6913,安康市,市邮政管理局,细颗粒物(PM2.5),99,93,77,74,57,9,,42,32,46,28,17,14,0.9,0.7
2024-12-04T2100,2291A,117.0809,30.5177,安庆市,环科院,细颗粒物(PM2.5),73,62,103,53,64,28,,41,40,29,29,5,6,0.8,0.8
2024-12-04T2100,2292A,117.0331,30.5119,安庆市,马山宾馆,,,57,96,50,62,26,,39,36,30,32,7,7,,0.7
2024-12-04T2100,2294A,116.9896,30.6145,安庆市,安庆大学,细颗粒物(PM2.5),70,68,99,51,61,35,,44,43,34,36,9,10,0.8,0.8
2024-12-04T2100,3173A,117.0598,30.5351,安庆市,市人大,细颗粒物(PM2.5),72,,79,52,63,27,,38,37,30,29,4,5,1.0,0.9
2024-12-04T2100,3122A,105.9606,26.2611,安顺市,伍家关,,22,22,40,8,22,66,,40,40,9,15,6,10,0.9,1.1
2024-12-04T2100,3123A,105.9408,26.2431,安顺市,凤凰山,,18,18,69,11,52,57,,37,35,10,18,11,17,0.5,0.7
2024-12-04T2100,3124A,105.9439,26.2564,安顺市,金钟山,,19,12,68,10,48,60,,38,38,9,15,11,18,0.5,0.7
2024-12-04T2100,3125A,105.8983,26.2481,安顺市,娄家坡,,18,14,66,12,51,52,,39,34,13,17,14,18,0.6,0.8
2024-12-04T2100,1818A,114.4839,36.0621,安阳市,棉研所,细颗粒物(PM2.5),158,144,129,120,100,5,,51,43,59,45,6,8,0.8,0.8
2024-12-04T2100,1819A,114.3551,36.1017,安阳市,红庙街,细颗粒物(PM2.5),149,160,122,114,87,15,,51,43,44,40,2,8,0.7,1.1
2024-12-04T2100,1820A,114.361,36.0681,安阳市,银杏小区,细颗粒物(PM2.5),155,152,113,118,88,14,,54,43,44,36,3,4,1.4,1.4
2024-12-04T2100,3141A,114.3922,36.0878,安阳市,信访局,细颗粒物(PM2.5),163,141,128,124,92,15,,53,44,36,39,2,6,0.8,1.1
2024-12-04T2100,3669A,114.4705,36.0637,安阳市,左辅环卫站,细颗粒物(PM2.5),143,159,133,109,94,9,,50,45,59,41,2,4,0.7,0.8
2024-12-04T2100,3703A,114.2917,36.0949,安阳市,安钢职工学校,细颗粒物(PM2.5),160,162,136,122,95,8,,50,40,60,46,5,8,0.8,0.8
2024-12-04T2100,1748A,123.044,41.1196,鞍山市,深沟寺,,38,38,32,25,15,37,,58,50,37,20,19,11,0.9,0.7
2024-12-04T2100,1749A,123.011,41.0931,鞍山市,太阳城,,39,39,30,24,16,28,,59,47,41,22,18,13,1.2,0.8
2024-12-04T2100,1750A,123.0485,41.1442,鞍山市,太平,颗粒物(PM10),52,53,40,30,16,32,,51,39,42,32,17,15,0.8,1
2024-12-04T2100,1751A,122.9642,41.0971,鞍山市,铁西三道街,颗粒物(PM10),58,65,49,36,20,22,,56,41,49,30,21,13,0.9,0.8
2024-12-04T2100,1752A,122.9341,41.0833,鞍山市,铁西工业园区,细颗粒物(PM2.5),68,68,46,49,20,24,,58,46,50,36,20,14,0.9,0.7
2024-12-04T2100,1753A,123.022,41.0821,鞍山市,明达新区,,41,41,31,20,15,32,,56,45,30,19,22,12,1.6,1
2024-12-04T2100,1754A,123.1289,41.0228,鞍山市,千山,,,,24,,10,,,44,,,13,,4,,0.6
2024-12-04T2100,2195A,107.4212,40.761,巴彦淖尔市,附二中,,43,43,48,28,23,60,,69,68,18,16,4,5,0.4,0.5
2024-12-04T2100,2196A,107.37,40.7372,巴彦淖尔市,市环保大楼,,43,43,44,13,19,46,,69,64,26,13,3,4,0.3,0.3
2024-12-04T2100,1956A,86.1472,41.7538,巴音郭楞蒙古自治州,孔雀公园,颗粒物(PM10),72,94,102,48,45,14,,66,62,72,65,4,5,0.7,1
2024-12-04T2100,1957A,86.1972,41.7166,巴音郭楞蒙古自治州,棉纺厂,颗粒物(PM10),97,143,124,60,34,16,,69,64,64,43,3,3,1.0,0.6
2024-12-04T2100,1958A,86.2357,41.7173,巴音郭楞蒙古自治州,经济开发区,颗粒物(PM10),70,89,97,26,30,46,,70,67,27,31,3,3,0.6,0.5
2024-12-04T2100,2914A,106.7677,31.8794,巴中市,苏山坪,,26,19,26,18,21,62,,56,53,11,14,5,4,0.4,0.5
2024-12-04T2100,3182A,106.7656,31.8545,巴中市,丽阳花园,,48,48,47,31,36,4,,14,12,34,36,3,3,0.7,0.8
2024-12-04T2100,3183A,106.7418,31.8654,巴中市,圣泉水务公司,细颗粒物(PM2.5),74,78,45,54,35,4,,34,24,42,33,4,3,0.9,0.6
2024-12-04T2100,3616A,106.7616,31.8344,巴中市,市中心医院,细颗粒物(PM2.5),58,51,43,41,41,3,,12,10,41,32,2,2,0.8,0.6
2024-12-04T2100,2235A,122.7911,45.6077,白城市,洮北区环保局,,23,14,14,13,14,73,,70,69,8,9,5,6,0.4,0.4
2024-12-04T2100,2236A,122.8738,45.5725,白城市,市环保局,,24,24,18,8,10,73,,74,72,7,9,3,4,0.4,0.4
2024-12-04T2100,2231A,126.4219,41.9171,白山市,喜丰,,32,32,31,7,12,60,,70,67,14,17,20,19,0.6,0.6
2024-12-04T2100,2232A,126.4077,41.9419,白山市,环保局,颗粒物(PM10),54,57,58,21,15,37,,61,55,20,15,3,8,0.9,0.6
2024-12-04T2100,2647A,104.1724,36.5446,白银市,第三小学,,50,50,50,19,24,80,,72,72,15,24,8,49,0.7,0.9
2024-12-04T2100,2648A,104.1465,36.5482,白银市,动力公司,,43,43,44,20,24,76,,75,75,14,21,3,33,0.5,0.9
2024-12-04T2100,2512A,106.6103,23.9011,百色市,市监测站,细颗粒物(PM2.5),62,72,63,44,38,124,,131,131,20,20,18,14,0.9,0.9
2024-12-04T2100,2513A,106.6538,23.8859,百色市,市中心血站,"颗粒物(PM10),细颗粒物(PM2.5)",60,70,73,43,45,129,,123,123,18,23,15,16,0.8,0.9
2024-12-04T2100,3406A,106.6085,23.8798,百色市,祈福高中,颗粒物(PM10),69,88,78,43,39,115,,129,128,23,28,18,11,0.8,0.8
2024-12-04T2100,2270A,117.396,32.939,蚌埠市,工人疗养院,细颗粒物(PM2.5),103,102,87,77,54,25,,61,43,37,33,3,4,0.6,0.6
2024-12-04T2100,2271A,117.3605,32.9427,蚌埠市,百货大楼,细颗粒物(PM2.5),115,106,86,87,54,22,,60,46,36,30,4,5,0.5,0.5
2024-12-04T2100,2273A,117.4185,32.8911,蚌埠市,蚌埠学院,细颗粒物(PM2.5),59,48,75,42,52,56,,49,44,27,46,5,9,0.5,0.5
2024-12-04T2100,2274A,117.3533,32.9673,蚌埠市,淮上区政府,细颗粒物(PM2.5),114,97,88,86,60,16,,58,36,38,34,8,8,0.6,0.5
2024-12-04T2100,2275A,117.3145,32.8977,蚌埠市,高新区,细颗粒物(PM2.5),100,80,73,75,52,22,,50,37,44,41,5,7,0.6,0.5
2024-12-04T2100,3715A,117.3092,32.9314,蚌埠市,蚌埠田家炳中学,细颗粒物(PM2.5),130,115,89,99,56,13,,55,31,48,37,4,6,0.6,0.5
2024-12-04T2100,1585A,109.8756,40.6532,包头市,市环境监测站,,18,17,21,3,8,56,,72,67,29,17,7,9,0.5,0.4
2024-12-04T2100,1587A,109.9991,40.5842,包头市,包头八中,,25,25,39,14,14,48,,60,57,22,31,5,7,0.3,0.4
2024-12-04T2100,1588A,109.8538,40.6821,包头市,青山宾馆,,19,11,20,9,11,59,,71,66,25,16,10,11,0.3,0.3
2024-12-04T2100,1589A,109.8642,40.6288,包头市,惠龙物流,,18,15,25,9,10,56,,72,68,28,21,6,7,0.6,0.5
2024-12-04T2100,1590A,110.0377,40.5546,包头市,东河鸿龙湾,,17,17,46,8,18,43,,61,58,30,30,8,10,0.8,1.1
2024-12-04T2100,3283A,109.9154,40.5685,包头市,滨河大厦,,19,19,42,9,20,44,,69,61,36,31,7,13,0.5,0.7
2024-12-04T2100,3419A,109.9447,40.6261,包头市,包头市委党校,,24,24,32,3,9,48,,69,64,36,27,4,7,0.3,0.7
2024-12-04T2100,3683A,109.8331,40.6576,包头市,昆区政府,,23,17,28,16,13,61,,72,69,22,16,8,9,0.6,0.5
2024-12-04T2100,1930A,107.185,34.3063,宝鸡市,庙沟村,,36,36,47,24,34,61,,83,80,25,21,7,8,0.3,0.4
2024-12-04T2100,1931A,107.0708,34.3017,宝鸡市,竹园沟,,47,47,61,23,38,45,,79,74,27,31,6,7,0.4,0.5
2024-12-04T2100,1932A,107.1906,34.3672,宝鸡市,三陆医院,细颗粒物(PM2.5),114,107,78,86,52,15,,63,54,60,45,5,8,0.8,0.7
2024-12-04T2100,1933A,107.1431,34.3547,宝鸡市,监测站,细颗粒物(PM2.5),64,68,76,46,48,20,,67,59,48,38,7,8,0.7,0.6
2024-12-04T2100,1934A,107.1186,34.3739,宝鸡市,技工学校,细颗粒物(PM2.5),67,75,75,48,49,39,,69,63,30,28,6,8,0.6,0.5
2024-12-04T2100,1935A,107.3906,34.3528,宝鸡市,陈仓区环保局家属楼,细颗粒物(PM2.5),158,133,91,120,57,13,,59,53,67,47,8,9,1.3,0.8
2024-12-04T2100,1936A,107.2058,34.3497,宝鸡市,文理学院,细颗粒物(PM2.5),64,71,77,46,46,26,,62,55,49,39,6,8,0.5,0.5
2024-12-04T2100,1937A,107.2386,34.3622,宝鸡市,三迪小学,细颗粒物(PM2.5),79,92,78,58,51,7,,63,54,81,50,6,8,0.7,0.6
2024-12-04T2100,1051A,115.493,38.8632,保定市,游泳馆,细颗粒物(PM2.5),137,147,108,104,74,7,,38,31,65,44,5,4,1.3,1
2024-12-04T2100,1052A,115.5213,38.8959,保定市,华电二区,细颗粒物(PM2.5),105,111,108,79,86,6,,28,25,75,59,4,5,1.0,0.7
2024-12-04T2100,1053A,115.4713,38.9108,保定市,接待中心,细颗粒物(PM2.5),133,127,118,101,84,9,,36,31,63,52,6,4,0.6,0.7
2024-12-04T2100,1054A,115.4612,38.8416,保定市,地表水厂,细颗粒物(PM2.5),127,142,121,96,75,10,,41,31,70,59,8,5,0.8,0.7
2024-12-04T2100,3581A,115.31981,38.95208,保定市,满城区生态环境分局,细颗粒物(PM2.5),149,175,143,114,95,5,,31,22,85,64,2,3,1.3,1
2024-12-04T2100,3582A,115.47694,38.76408,保定市,清苑区第二中学,细颗粒物(PM2.5),119,134,112,90,64,8,,41,37,72,56,10,8,0.9,0.8
2024-12-04T2100,3583A,115.62909,39.02311,保定市,徐水物探局,颗粒物(PM10),107,163,123,63,71,2,,24,19,71,48,7,9,1.2,0.8
2024-12-04T2100,4004A,115.4202,38.8656,保定市,双鹰农机,细颗粒物(PM2.5),133,122,117,101,81,17,,36,28,57,54,7,4,0.9,0.8
2024-12-04T2100,4034A,115.5150,38.8590,保定市,植保所站,细颗粒物(PM2.5),140,158,116,107,76,5,,40,29,76,58,5,6,1.3,0.8
2024-12-04T2100,2594A,99.1678,25.1081,保山市,市环境监测站,,28,28,26,11,7,57,,78,75,9,10,6,4,0.3,0.3
2024-12-04T2100,2595A,99.1711,25.1328,保山市,市环保局,,36,26,25,25,16,66,,81,79,4,6,7,6,0.2,0.3
2024-12-04T2100,1866A,109.2262,21.588,北海市,牛尾岭水库,,,53,42,49,35,92,,154,135,,11,5,8,0.6,0.6
2024-12-04T2100,1867A,109.1436,21.4086,北海市,海滩公园,,46,46,47,27,28,127,,172,161,11,13,8,13,0.5,0.6
2024-12-04T2100,1868A,109.0981,21.4661,北海市,新市环保局,,41,39,44,27,30,131,,157,142,16,18,6,11,0.8,0.7
2024-12-04T2100,1869A,109.1778,21.5233,北海市,北海工业园,,47,47,59,32,38,124,,164,147,14,21,8,17,0.8,0.7
2024-12-04T2100,3400A,109.1911,21.4415,北海市,龙潭自来水厂,,46,41,45,32,35,135,,159,151,11,15,9,12,0.7,0.6
2024-12-04T2100,1001A,116.3621,39.8784,北京市,万寿西宫,细颗粒物(PM2.5),97,118,52,72,29,0,,31,19,90,55,5,4,0.8,0.5
2024-12-04T2100,1002A,116.2202,40.2915,北京市,定陵,,16,10,12,3,6,49,,49,47,4,8,3,4,0.2,0.2
2024-12-04T2100,1003A,116.4174,39.9289,北京市,东四,颗粒物(PM10),52,53,40,27,19,34,,42,31,42,39,3,2,0.5,0.4
2024-12-04T2100,1004A,116.4072,39.8863,北京市,天坛,细颗粒物(PM2.5),80,91,45,59,22,16,,39,30,58,38,1,2,0.7,0.4
2024-12-04T2100,1005A,116.462,39.9365,北京市,农展馆,颗粒物(PM10),65,79,46,43,20,24,,44,33,56,50,2,5,0.7,0.5
2024-12-04T2100,1006A,116.3392,39.9295,北京市,官园,,28,28,37,15,19,56,,40,36,19,38,3,3,0.4,0.5
2024-12-04T2100,1007A,116.2878,39.9611,北京市,海淀万柳,,22,18,29,7,12,68,,63,63,9,37,3,3,0.3,0.5
2024-12-04T2100,1008A,116.6636,40.135,北京市,顺义新城,,47,47,18,20,8,12,,54,46,54,20,3,2,0.4,0.2
2024-12-04T2100,1009A,116.6275,40.3275,北京市,怀柔镇,,21,21,17,14,8,48,,52,45,11,19,3,3,0.3,0.3
2024-12-04T2100,1010A,116.2296,40.217,北京市,昌平镇,,25,25,20,10,8,29,,62,56,42,13,5,6,0.3,0.2
2024-12-04T2100,1011A,116.3966,39.9821,北京市,奥体中心,,34,34,24,7,9,57,,58,58,20,35,4,4,0.5,0.5
2024-12-04T2100,1012A,116.184,39.9136,北京市,古城,颗粒物(PM10),73,96,44,49,17,14,,42,30,48,31,6,5,1.1,0.6
2024-12-04T2100,3281A,115.9718,40.4529,北京市,延庆夏都,,20,12,20,3,9,63,,58,58,2,15,3,2,0.1,0.2
2024-12-04T2100,3417A,117.0709,40.1465,北京市,平谷新城,,34,34,22,18,9,30,,49,40,22,16,3,3,0.4,0.3
2024-12-04T2100,3418A,116.8336,40.4095,北京市,密云新城,,29,29,13,13,6,7,,59,48,49,11,1,2,0.2,0.2
2024-12-04T2100,3671A,116.088,39.9726,北京市,门头沟三家店,,34,34,38,14,11,48,,62,45,22,37,2,2,0.2,0.3
2024-12-04T2100,3672A,116.1541,39.8204,北京市,丰台云岗,"颗粒物(PM10),细颗粒物(PM2.5)",78,105,64,57,33,26,,37,26,42,47,5,3,0.6,0.4
2024-12-04T2100,3673A,116.6804,39.9081,北京市,通州东关,颗粒物(PM10),78,106,45,56,20,4,,36,26,76,47,3,3,0.7,0.4
2024-12-04T2100,3674A,115.9577,39.7603,北京市,房山燕山,细颗粒物(PM2.5),75,86,53,55,31,18,,36,25,39,30,1,2,0.5,0.4
2024-12-04T2100,3675A,116.4672,39.7733,北京市,大兴旧宫,细颗粒物(PM2.5),89,122,72,66,36,4,,33,27,67,47,2,2,0.7,0.5
2024-12-04T2100,3694A,115.986,40.4563,北京市,延庆石河营,,20,11,18,3,8,63,,65,65,3,18,1,2,0.2,0.3
2024-12-04T2100,3695A,116.6151,40.3053,北京市,怀柔新城,,23,23,15,11,8,44,,48,46,8,15,3,2,0.2,0.2
2024-12-04T2100,3696A,116.2545,39.8768,北京市,丰台小屯,细颗粒物(PM2.5),95,113,57,71,26,3,,32,21,74,51,4,4,0.7,0.4
2024-12-04T2100,3697A,116.84,40.3844,北京市,密云镇,颗粒物(PM10),53,55,24,21,8,2,,58,39,59,31,2,2,0.5,0.2
2024-12-04T2100,1761A,123.8275,41.3064,本溪市,大峪,,49,49,34,24,16,16,,51,42,62,30,19,15,1.5,1.4
2024-12-04T2100,1762A,123.7567,41.3325,本溪市,溪湖,,31,31,39,13,16,32,,54,46,33,26,14,14,0.9,0.9
2024-12-04T2100,1763A,123.7169,41.3094,本溪市,彩屯,细颗粒物(PM2.5),55,56,46,39,26,16,,50,34,46,35,10,13,1.1,1
2024-12-04T2100,1764A,123.7669,41.2864,本溪市,东明,,30,25,46,21,23,42,,46,41,32,37,13,18,0.8,1.4
2024-12-04T2100,1765A,123.7992,41.2664,本溪市,新立屯,,29,28,29,18,15,12,,57,30,58,41,6,10,0.5,1
2024-12-04T2100,1766A,123.8142,41.3472,本溪市,威宁,颗粒物(PM10),55,59,64,36,20,9,,49,35,56,41,9,11,1.7,1
2024-12-04T2100,2587A,105.2864,27.3125,毕节市,八中,,45,39,48,31,38,62,,71,71,13,14,7,7,0.6,0.6
2024-12-04T2100,2588A,105.31,27.2944,毕节市,师专,,50,42,45,35,41,62,,68,68,11,12,4,6,0.7,0.6
2024-12-04T2100,3537A,105.3631,27.3533,毕节市,长征村,,43,34,47,30,42,70,,77,77,9,11,6,7,0.7,0.7
2024-12-04T2100,1629A,118.0018,37.3617,滨州市,第二水厂,细颗粒物(PM2.5),79,97,85,58,49,16,,42,34,64,61,14,17,1.0,0.6
2024-12-04T2100,1630A,117.9776,37.393,滨州市,北中新校,细颗粒物(PM2.5),92,100,85,68,47,17,,34,26,61,60,11,16,0.9,1
2024-12-04T2100,3514A,117.9378,37.3956,滨州市,中海酒店,细颗粒物(PM2.5),89,105,90,66,59,18,,48,36,58,54,13,17,0.9,0.9
2024-12-04T2100,3515A,117.9378,37.3553,滨州市,开发区一中,颗粒物(PM10),80,110,89,56,47,7,,42,31,79,67,16,17,0.7,0.8
2024-12-04T2100,3516A,118.0917,37.694,滨州市,金海六路,细颗粒物(PM2.5),98,127,90,73,53,8,,44,33,72,55,12,13,1.0,0.9
2024-12-04T2100,4028A,117.9956,37.3753,滨州市,滨州市西街道办事处,细颗粒物(PM2.5),104,102,85,78,57,24,,42,36,49,54,11,15,0.8,1
2024-12-04T2100,2311A,115.8072,33.8399,亳州市,污水处理厂,细颗粒物(PM2.5),92,124,107,68,59,16,,38,35,35,38,5,8,0.9,0.8
2024-12-04T2100,2312A,115.7789,33.8518,亳州市,三国揽胜宫,细颗粒物(PM2.5),98,131,118,73,64,24,,38,36,34,39,6,7,0.8,0.8
2024-12-04T2100,3332A,115.7633,33.8034,亳州市,亳州学院,细颗粒物(PM2.5),100,136,110,75,58,20,,39,37,34,37,2,4,0.9,0.9
2024-12-04T2100,2693A,82.0485,44.8556,博尔塔拉蒙古自治州,市党校,,,75,33,27,25,,,33,33,19,17,5,3,0.7,0.5
2024-12-04T2100,2694A,82.0806,44.8969,博尔塔拉蒙古自治州,市环保局,,39,39,42,21,24,33,,43,34,17,20,2,3,0.8,0.6
2024-12-04T2100,1071A,116.8842,38.2991,沧州市,沧县城建局,细颗粒物(PM2.5),115,109,95,87,65,12,,45,35,72,56,9,9,0.8,0.8
2024-12-04T2100,1072A,116.8584,38.3254,沧州市,电视转播站,细颗粒物(PM2.5),100,119,91,75,57,2,,49,39,73,54,6,9,1.0,0.7
2024-12-04T2100,1073A,116.8709,38.3228,沧州市,市环保局,细颗粒物(PM2.5),90,104,84,67,57,4,,49,39,73,51,6,6,0.9,0.7
2024-12-04T2100,3324A,116.8136,38.3004,沧州市,河北水利电力学院,细颗粒物(PM2.5),107,119,98,80,58,13,,50,38,64,49,13,10,0.8,0.7
2024-12-04T2100,2622A,97.1806,31.1273,昌都市,昌都监测站,细颗粒物(PM2.5),89,107,33,66,16,8,,62,50,84,32,10,7,2.4,1
2024-12-04T2100,3719A,97.1714,31.1406,昌都市,昌都会议中心,,32,30,14,22,9,36,,71,66,35,12,5,5,0.7,0.4
2024-12-04T2100,2690A,88.1236,43.8886,昌吉回族自治州,天山天池,,19,8,2,7,2,58,,71,69,3,2,3,3,0.5,0.5
2024-12-04T2100,2692A,87.2717,44.0297,昌吉回族自治州,新区政务中心,,,19,29,3,17,,,52,52,21,15,7,5,0.7,0.9
2024-12-04T2100,3613A,87.3095,44.0142,昌吉回族自治州,亚心广场,,27,27,32,14,22,48,,54,52,27,20,6,6,0.5,0.7
2024-12-04T2100,1119A,125.3325,43.9166,长春市,食品厂,,40,40,30,20,11,45,,58,50,18,16,7,7,0.4,0.3
2024-12-04T2100,1120A,125.2863,43.9027,长春市,客车厂,,50,50,32,20,11,38,,57,44,26,19,11,11,0.2,0.2
2024-12-04T2100,1121A,125.2841,43.8463,长春市,邮电学院,,45,45,31,17,10,41,,58,47,25,23,26,21,0.4,0.3
2024-12-04T2100,1122A,125.3716,43.8772,长春市,劳动公园,,42,42,27,17,9,46,,63,53,26,19,11,13,0.4,0.2
2024-12-04T2100,1123A,125.3297,43.8805,长春市,园林处,,45,45,27,13,10,40,,57,49,24,16,8,8,0.4,0.3
2024-12-04T2100,1124A,125.4605,43.79,长春市,净月潭,,34,34,24,12,8,53,,65,59,13,10,8,8,0.3,0.3
2024-12-04T2100,1125A,125.7194,43.515,长春市,甩湾子,,26,26,20,12,7,39,,48,46,11,8,6,6,0.4,0.3
2024-12-04T2100,1126A,125.3863,43.8447,长春市,经开区环卫处,,43,43,31,17,9,42,,58,51,23,16,17,17,0.5,0.4
2024-12-04T2100,1127A,125.245,43.7783,长春市,高新区管委会,,35,35,25,19,11,43,,62,56,20,11,8,6,0.5,0.2
2024-12-04T2100,1128A,125.1761,43.8325,长春市,岱山公园,,41,41,25,20,12,41,,58,52,13,7,7,7,0.5,0.4
2024-12-04T2100,1335A,113.0833,28.2325,长沙市,经开区环保局,细颗粒物(PM2.5),103,114,155,77,108,28,,36,31,24,26,1,2,0.6,0.7
2024-12-04T2100,1336A,112.8872,28.2189,长沙市,高开区环保局,细颗粒物(PM2.5),87,88,140,64,107,38,,38,38,17,23,3,6,0.7,0.8
2024-12-04T2100,1337A,113.0792,28.2053,长沙市,马坡岭,细颗粒物(PM2.5),107,111,151,80,118,29,,42,36,19,20,2,4,0.7,0.8
2024-12-04T2100,1338A,112.9394,28.19,长沙市,湖南师范大学,细颗粒物(PM2.5),93,99,158,69,108,36,,42,40,19,22,7,11,0.6,0.7
2024-12-04T2100,1339A,113.0178,28.1322,长沙市,雨花区环保局,细颗粒物(PM2.5),110,86,140,83,119,32,,46,40,18,22,4,6,0.6,0.7
2024-12-04T2100,1340A,112.9792,28.2597,长沙市,伍家岭,细颗粒物(PM2.5),87,96,151,64,107,29,,36,33,19,22,2,4,0.8,0.9
2024-12-04T2100,1341A,113.0014,28.1944,长沙市,火车新站,细颗粒物(PM2.5),104,93,148,78,120,32,,41,37,19,21,1,3,0.6,0.7
2024-12-04T2100,1342A,112.9844,28.1178,长沙市,天心区环保局,细颗粒物(PM2.5),98,118,162,73,104,31,,44,39,18,21,2,4,0.6,0.7
2024-12-04T2100,1343A,112.8908,28.1308,长沙市,湖南中医药大学,细颗粒物(PM2.5),89,103,157,66,110,38,,43,39,20,25,4,6,0.7,0.9
2024-12-04T2100,1344A,112.9581,28.3611,长沙市,沙坪,细颗粒物(PM2.5),67,77,126,48,98,31,,31,31,13,23,7,7,0.5,1
2024-12-04T2100,1727A,113.1147,36.1547,长治市,清华站,,43,43,82,12,41,65,,58,58,19,46,10,19,0.4,1
2024-12-04T2100,1728A,113.1031,36.1989,长治市,监测站,,33,33,69,17,45,57,,57,57,15,37,14,22,0.6,1.2
2024-12-04T2100,1730A,113.0886,36.2125,长治市,审计局,,40,40,84,14,46,57,,55,55,14,41,8,17,0.3,0.9
2024-12-04T2100,1731A,113.0844,36.1856,长治市,长治八中,,44,44,99,20,56,63,,58,58,11,36,9,18,0.4,1
2024-12-04T2100,2845A,113.1569,36.1911,长治市,德盛苑,,49,49,67,22,40,58,,60,60,17,31,9,15,0.7,1.3
2024-12-04T2100,3568A,113.06,36.0464,长治市,向阳小学,颗粒物(PM10),54,58,84,26,47,59,,57,57,24,32,9,14,0.5,1
2024-12-04T2100,3569A,112.8792,36.3144,长治市,屯留一中,,29,29,40,9,24,70,,74,74,20,36,8,13,0.2,0.6
2024-12-04T2100,3570A,113.235,36.3489,长治市,潞城四中,颗粒物(PM10),57,64,90,17,50,71,,61,61,15,38,19,24,0.7,1.5
2024-12-04T2100,1854A,111.6975,28.9703,常德市,市二中,细颗粒物(PM2.5),58,64,106,41,80,71,,70,70,10,13,4,5,0.6,0.7
2024-12-04T2100,1857A,111.7158,29.1456,常德市,白鹤山,,,,,,,,,,,,,,,,
2024-12-04T2100,3138A,111.7153,29.0289,常德市,武陵区永安,细颗粒物(PM2.5),65,66,106,47,79,66,,67,67,11,12,2,3,0.6,0.7
2024-12-04T2100,3139A,111.6892,28.9881,常德市,鼎城区玉霞,细颗粒物(PM2.5),62,68,110,44,81,71,,71,71,12,14,3,4,0.6,0.7
2024-12-04T2100,3140A,111.6625,29.0531,常德市,武陵区长庚,颗粒物(PM10),63,75,111,44,75,64,,65,65,9,12,2,3,0.5,0.6
2024-12-04T2100,1196A,119.9633,31.762,常州市,市监测站,颗粒物(PM10),59,68,54,37,33,43,,52,48,30,31,8,10,0.5,0.7
2024-12-04T2100,1200A,119.9468,31.7069,常州市,武进监测站,颗粒物(PM10),51,51,50,31,28,41,,46,45,34,37,7,9,0.6,0.8
2024-12-04T2100,1201A,119.9255,31.9087,常州市,安家,细颗粒物(PM2.5),55,58,45,39,28,13,,58,37,61,32,7,9,0.6,0.6
2024-12-04T2100,3002A,119.9805,31.8174,常州市,行政中心,颗粒物(PM10),54,57,46,37,29,28,,49,41,43,34,9,10,0.4,0.5
2024-12-04T2100,3003A,120.0522,31.7748,常州市,经开区,颗粒物(PM10),55,60,56,36,27,19,,48,38,49,41,9,11,0.7,0.8
2024-12-04T2100,3010A,119.9025,31.7964,常州市,钟楼,颗粒物(PM10),53,56,50,32,28,25,,52,43,47,32,7,10,0.7,0.8
2024-12-04T2100,3429A,119.8598,31.7066,常州市,武进经发区,颗粒物(PM10),57,64,56,39,30,4,,49,27,66,36,7,9,0.7,0.8
2024-12-04T2100,3430A,119.5826,31.7245,常州市,金坛城区,颗粒物(PM10),51,51,56,32,34,42,,53,49,28,30,6,9,0.4,0.6
2024-12-04T2100,2220A,120.4318,41.5881,朝阳市,西梁,,,,37,,16,,,55,44,33,24,8,15,0.8,0.9
2024-12-04T2100,2221A,120.4521,41.5646,朝阳市,河畔小区,,43,33,31,30,15,37,,55,49,27,19,8,14,0.8,0.8
2024-12-04T2100,2222A,120.4176,41.5648,朝阳市,八里堡,颗粒物(PM10),53,55,38,21,14,22,,57,43,42,25,12,18,1.0,1
2024-12-04T2100,2223A,120.3806,41.5969,朝阳市,农业园区,,18,14,26,11,13,57,,67,63,19,16,7,11,0.4,0.8
2024-12-04T2100,1705A,116.6367,23.6719,潮州市,西园路,细颗粒物(PM2.5),63,67,46,45,38,106,,115,115,14,17,5,5,0.3,0.5
2024-12-04T2100,3026A,116.6183,23.6608,潮州市,市政府,颗粒物(PM10),54,57,58,29,44,92,,113,112,23,25,8,11,0.7,0.8
2024-12-04T2100,4036A,116.6461,23.6761,潮州市,金山,,47,47,45,28,27,108,,122,122,15,16,7,6,0.5,0.6
2024-12-04T2100,2472A,113.0073,25.9061,郴州市,马头岭,细颗粒物(PM2.5),128,159,150,97,88,92,,112,107,33,33,15,18,0.9,1.1
2024-12-04T2100,2473A,113.0116,25.8226,郴州市,市职中,细颗粒物(PM2.5),155,148,123,118,101,31,,122,111,62,35,6,9,1.0,1.1
2024-12-04T2100,2474A,113.0161,25.8001,郴州市,兴隆步行街,细颗粒物(PM2.5),169,160,138,128,112,83,,124,119,34,22,8,12,1.0,0.9
2024-12-04T2100,2475A,113.0383,25.8071,郴州市,市审计局,细颗粒物(PM2.5),138,133,122,105,100,87,,126,123,22,16,7,11,1.1,1
2024-12-04T2100,2476A,113.0348,25.7759,郴州市,市环保局,细颗粒物(PM2.5),153,147,129,117,114,86,,120,117,30,22,8,11,1.0,1
2024-12-04T2100,1431A,103.9728,30.7236,成都市,金泉两河,细颗粒物(PM2.5),63,56,74,45,52,3,,44,42,69,43,2,2,0.8,0.5
2024-12-04T2100,1432A,104.176,30.6872,成都市,十里店,颗粒物(PM10),56,61,77,37,57,48,,56,56,40,42,3,2,0.5,0.6
2024-12-04T2100,1433A,104.079,30.5706,成都市,三瓦窑,颗粒物(PM10),56,61,80,34,53,45,,56,56,40,42,2,2,0.5,0.6
2024-12-04T2100,1434A,104.1114,30.63,成都市,沙河铺,细颗粒物(PM2.5),60,51,76,43,55,30,,49,48,46,37,4,4,0.5,0.6
2024-12-04T2100,1437A,104.0786,30.6531,成都市,君平街,颗粒物(PM10),56,61,73,30,58,63,,64,64,31,38,6,4,0.6,0.7
2024-12-04T2100,1438A,103.613,31.0283,成都市,灵岩寺,,,,,,,,,,,,,,,,
2024-12-04T2100,2880A,104.0239,30.65639,成都市,大石西路,颗粒物(PM10),61,71,79,27,56,62,,64,64,24,30,6,5,0.4,0.5
2024-12-04T2100,3136A,104.2725,30.5589,成都市,龙泉驿区区政府,细颗粒物(PM2.5),55,41,76,39,59,45,,51,51,21,29,4,4,0.5,0.6
2024-12-04T2100,3357A,104.0106,30.6931,成都市,金博路,,45,42,69,31,49,52,,55,55,30,37,2,2,0.6,0.7
2024-12-04T2100,3359A,104.0578,30.5225,成都市,华阳,颗粒物(PM10),53,56,80,36,53,23,,48,48,49,34,2,1,0.6,0.6
2024-12-04T2100,3487A,104.2394,30.5319,成都市,车城东七路,细颗粒物(PM2.5),53,51,80,37,63,27,,45,45,50,37,4,4,0.8,0.6
2024-12-04T2100,3488A,104.3853,30.7453,成都市,青白江技师分院,细颗粒物(PM2.5),65,62,74,47,60,4,,43,43,61,33,8,7,0.8,0.8
2024-12-04T2100,3489A,104.0789,30.4072,成都市,科学城,细颗粒物(PM2.5),57,57,80,40,68,18,,41,41,50,35,4,4,0.6,0.7
2024-12-04T2100,4011A,103.8506,30.6947,成都市,光华大道三段,颗粒物(PM10),53,56,75,23,52,8,,42,40,66,38,2,2,1.0,0.8
2024-12-04T2100,1062A,117.9531,40.9081,承德市,铁路,颗粒物(PM10),65,80,40,40,18,6,,46,31,58,31,11,10,0.9,0.6
2024-12-04T2100,1063A,117.9392,40.9763,承德市,中国银行,细颗粒物(PM2.5),85,91,40,63,15,4,,49,33,57,25,6,2,1.2,0.5
2024-12-04T2100,1064A,117.9503,40.928,承德市,开发区,,39,39,45,27,22,29,,45,38,23,31,4,6,0.4,0.5
2024-12-04T2100,1065A,117.8051,40.9655,承德市,文化中心,颗粒物(PM10),55,60,56,23,18,25,,53,43,36,33,6,10,0.6,0.6
2024-12-04T2100,1066A,117.9268,41.0026,承德市,离宫,,30,30,35,19,24,58,,57,57,9,19,2,2,0.2,0.3
2024-12-04T2100,2314A,117.47,30.6618,池州市,池州学院,颗粒物(PM10),53,55,74,35,45,21,,39,38,36,36,8,10,0.8,0.8
2024-12-04T2100,3237A,117.4918,30.6617,池州市,展览馆,细颗粒物(PM2.5),60,67,79,43,51,21,,39,38,39,39,10,9,0.7,0.8
2024-12-04T2100,3333A,117.5627,30.695,池州市,第八中学,颗粒物(PM10),55,59,75,38,46,17,,37,34,38,38,7,7,0.7,0.7
2024-12-04T2100,3334A,117.5038,30.6243,池州市,第十二中学,颗粒物(PM10),54,57,76,34,47,20,,38,35,37,35,6,5,0.8,0.8
2024-12-04T2100,1744A,118.9233,42.2816,赤峰市,松山一中,,20,17,21,11,7,63,,67,65,12,13,8,10,0.4,0.5
2024-12-04T2100,1745A,118.9576,42.2728,赤峰市,哈达街,,21,20,15,3,5,66,,67,65,18,16,6,7,0.6,0.6
2024-12-04T2100,1746A,118.8788,42.2554,赤峰市,天义路,,19,18,18,9,6,59,,64,61,18,14,6,7,0.3,0.3
2024-12-04T2100,3058A,119.2658,42.0353,赤峰市,银河街,,22,,33,12,17,69,,69,69,10,19,12,24,0.3,0.7
2024-12-04T2100,3286A,118.9359,42.3147,赤峰市,桥北物流园区,,22,6,13,3,5,69,,73,72,11,18,8,9,0.7,0.7
2024-12-04T2100,2521A,107.3476,22.4136,崇左市,市环保局江州分局,颗粒物(PM10),61,72,61,36,33,135,,120,120,14,20,8,7,0.8,0.8
2024-12-04T2100,2522A,107.3702,22.3707,崇左市,城南新区,细颗粒物(PM2.5),57,53,40,40,27,153,,123,123,13,17,9,8,0.9,0.8
2024-12-04T2100,2298A,118.3093,32.3153,滁州市,老年大学,,50,40,52,35,33,38,,56,44,29,26,11,12,0.5,0.5
2024-12-04T2100,2299A,118.3244,32.2786,滁州市,人大宾馆,,46,34,50,32,35,45,,50,47,32,31,7,7,0.3,0.3
2024-12-04T2100,3207A,118.3118,32.3038,滁州市,市政府原办公楼,,49,36,44,34,35,38,,54,42,30,26,4,5,0.9,0.8
2024-12-04T2100,3331A,118.3267,32.2634,滁州市,图书馆,,42,42,60,28,31,47,,52,46,26,23,5,5,0.3,0.2
2024-12-04T2100,2605A,101.5482,25.0441,楚雄彝族自治州,州环境监测站,,19,13,19,10,13,59,,71,68,7,19,5,10,0.4,0.4
2024-12-04T2100,2606A,101.538,25.0492,楚雄彝族自治州,市经济开发区,,28,28,24,12,13,53,,70,66,13,20,6,9,0.6,0.6
2024-12-04T2100,2548A,107.5277,31.2827,达州市,达州职业技术学院,细颗粒物(PM2.5),52,38,36,36,29,13,,30,24,41,30,8,8,0.9,0.8
2024-12-04T2100,2549A,107.5086,31.2186,达州市,市环境监测站,,39,39,36,24,19,23,,40,39,45,36,6,7,0.6,0.6
2024-12-04T2100,2550A,107.4988,31.2132,达州市,凤凰小区,,28,27,29,19,20,33,,58,56,39,30,7,9,0.6,0.6
2024-12-04T2100,2551A,107.5082,31.1986,达州市,达县机关宾馆,,29,24,28,20,28,14,,22,22,54,43,5,7,0.7,0.7
2024-12-04T2100,2552A,107.4644,31.2124,达州市,市政中心,,28,28,36,17,19,33,,51,50,42,34,8,7,0.5,0.6
2024-12-04T2100,2614A,100.1542,25.7054,大理白族自治州,大理市环境监测站,,,25,21,14,12,,,82,82,13,8,7,7,0.5,0.4
2024-12-04T2100,2615A,100.2171,25.5811,大理白族自治州,大理古城,,32,32,20,18,9,81,,87,85,6,9,5,5,0.5,0.4
2024-12-04T2100,1109A,121.612,38.9741,大连市,甘井子,,20,20,29,8,13,58,,68,66,18,22,18,20,0.3,0.6
2024-12-04T2100,1110A,121.565,38.9511,大连市,周水子,,32,25,29,22,17,15,,55,50,63,42,10,12,0.5,0.4
2024-12-04T2100,1111A,121.5637,38.8845,大连市,星海三站,,19,19,30,11,16,50,,66,63,27,32,9,12,0.4,0.5
2024-12-04T2100,1112A,121.6302,38.9117,大连市,青泥洼桥,,28,28,30,15,16,23,,53,44,39,24,13,12,0.5,0.5
2024-12-04T2100,1113A,121.6251,38.8638,大连市,傅家庄,,18,18,25,10,12,52,,67,62,22,19,13,14,0.5,0.6
2024-12-04T2100,1114A,121.5213,38.8661,大连市,七贤岭,,26,26,26,15,14,42,,70,65,32,23,7,9,0.7,0.7
2024-12-04T2100,1115A,121.2529,38.8061,大连市,旅顺,,26,25,19,18,12,68,,68,67,11,13,12,11,0.6,0.4
2024-12-04T2100,1116A,121.7485,39.1311,大连市,金州,,33,33,29,22,17,53,,62,57,14,16,6,10,0.5,0.6
2024-12-04T2100,1117A,121.7811,39.0496,大连市,开发区,,25,25,31,12,18,58,,53,53,15,29,11,12,0.4,0.6
2024-12-04T2100,1118A,121.9762,39.0631,大连市,双D港,,33,25,24,23,14,50,,72,63,19,14,7,10,0.5,0.6
2024-12-04T2100,1789A,124.81117,46.03138,大庆市,大同区,细颗粒物(PM2.5),59,45,29,42,20,40,,52,42,20,15,6,5,0.4,0.3
2024-12-04T2100,1790A,125.129,46.533,大庆市,龙凤区,,,,25,,21,,,40,,,20,,10,,0.7
2024-12-04T2100,1791A,124.902,46.408,大庆市,红岗区,,32,28,20,22,15,44,,53,40,22,17,5,5,0.4,0.4
2024-12-04T2100,1792A,125.153,46.586,大庆市,萨尔图区,,25,25,31,17,20,53,,58,51,23,24,6,6,0.4,0.6
2024-12-04T2100,1793A,124.9042,46.6215,大庆市,让胡路区,细颗粒物(PM2.5),52,,21,36,22,52,,54,51,15,15,8,6,0.4,0.3
2024-12-04T2100,3481A,125.141,46.634,大庆市,萨区政府监测点,,25,22,16,17,9,50,,59,50,19,17,6,6,0.5,0.4
2024-12-04T2100,1721A,113.3819,40.1097,大同市,果树场,颗粒物(PM10),77,103,48,50,22,6,,48,38,62,42,8,14,1.2,0.8
2024-12-04T2100,1723A,113.2994,40.0758,大同市,云冈宾馆,,46,46,37,18,16,48,,64,62,26,28,10,17,0.4,0.8
2024-12-04T2100,1724A,113.3444,40.0917,大同市,大同大学,,38,38,34,26,16,32,,63,61,37,28,6,14,0.5,0.6
2024-12-04T2100,1725A,113.2661,40.1269,大同市,安家小村,细颗粒物(PM2.5),54,50,50,38,22,39,,63,60,31,29,20,20,0.4,0.8
2024-12-04T2100,1726A,113.2711,40.0844,大同市,教育学院,颗粒物(PM10),51,52,47,20,20,36,,50,46,36,37,11,14,0.5,0.9
2024-12-04T2100,3282A,113.3397,40.0597,大同市,大同市卫生学校,,42,42,38,26,16,43,,58,58,30,33,8,15,0.5,0.8
2024-12-04T2100,3565A,113.1367,40.1122,大同市,云冈站,,40,40,49,21,20,36,,59,50,33,38,12,20,0.3,0.5
2024-12-04T2100,3566A,113.1186,40.2556,大同市,图书馆,,32,31,30,22,18,55,,69,67,17,13,8,11,0.4,0.4
2024-12-04T2100,3567A,113.5931,40.0461,大同市,区一中,,35,35,49,17,18,48,,60,59,23,30,16,20,0.4,0.8
2024-12-04T2100,3676A,113.2802,40.0995,大同市,第二人民医院,,45,45,46,24,22,55,,63,63,22,35,12,17,0.4,0.8
2024-12-04T2100,2269A,124.1069,50.4097,大兴安岭地区,科技局,,26,,13,18,14,67,,69,69,6,6,5,5,0.5,0.4
2024-12-04T2100,3663A,124.1164,50.4278,大兴安岭地区,红旗社区,,21,6,6,3,4,66,,67,67,3,5,6,6,0.2,0.2
2024-12-04T2100,1600A,124.3303,40.0625,丹东市,江湾东路,细颗粒物(PM2.5),85,90,53,63,34,9,,50,30,56,30,31,21,1.9,1
2024-12-04T2100,1601A,124.4256,40.1503,丹东市,临江后街,细颗粒物(PM2.5),92,119,63,68,44,8,,54,36,55,37,12,16,1.5,1.1
2024-12-04T2100,1602A,124.3933,40.1461,丹东市,元宝山,颗粒物(PM10),56,61,47,38,27,34,,53,48,32,23,14,12,1.2,0.8
2024-12-04T2100,1603A,124.3633,40.1092,丹东市,民主桥,细颗粒物(PM2.5),70,77,58,51,30,13,,54,37,49,33,9,13,1.6,1.1
2024-12-04T2100,3541A,109.5726,19.5167,儋州市,第一中学子站,,45,45,28,23,14,68,,87,83,7,3,5,6,0.5,0.5
2024-12-04T2100,3542A,109.5567,19.5187,儋州市,东坡学校子站,,42,42,25,19,13,75,,96,92,8,4,5,6,0.5,0.5
2024-12-04T2100,2616A,98.5842,24.428,德宏傣族景颇族自治州,德宏州监测站,颗粒物(PM10),56,61,38,31,20,22,,68,63,43,24,8,14,1.0,0.7
2024-12-04T2100,3677A,98.5881,24.4368,德宏傣族景颇族自治州,芒市人民政府综合楼,,42,42,36,17,19,42,,66,64,18,16,8,10,0.6,0.6
2024-12-04T2100,1901A,104.4239,31.1208,德阳市,东山公园,颗粒物(PM10),67,83,76,40,47,66,,74,74,21,26,4,2,0.6,0.8
2024-12-04T2100,1902A,104.3826,31.1317,德阳市,西小区,细颗粒物(PM2.5),59,65,63,42,45,22,,57,56,56,32,3,2,0.8,0.8
2024-12-04T2100,1904A,104.3553,31.1091,德阳市,耐火材料厂,颗粒物(PM10),66,81,68,42,47,9,,56,54,66,34,4,4,0.8,0.6
2024-12-04T2100,3639A,104.4019,31.1244,德阳市,市教育局,细颗粒物(PM2.5),65,64,62,47,48,24,,60,57,55,31,4,3,0.8,0.8
2024-12-04T2100,1622A,116.3032,37.4674,德州市,儿童乐园,细颗粒物(PM2.5),110,136,103,83,58,31,,57,50,61,53,13,13,0.8,0.7
2024-12-04T2100,1624A,116.2991,37.4451,德州市,监理站,细颗粒物(PM2.5),132,151,90,100,55,11,,62,54,85,56,16,16,1.0,0.9
2024-12-04T2100,3066A,116.2721,37.4379,德州市,九衢泉纯净水厂,细颗粒物(PM2.5),132,149,103,100,61,11,,42,38,82,60,12,14,1.1,0.9
2024-12-04T2100,3371A,116.3728,37.4403,德州市,开发区人民医院,,,136,100,75,56,13,,53,32,75,58,11,14,,0.7
2024-12-04T2100,3372A,116.3572,37.4094,德州市,太阳城中学,细颗粒物(PM2.5),110,129,96,83,61,10,,56,44,91,58,12,14,0.9,0.8
2024-12-04T2100,3511A,116.5652,37.3319,德州市,陵城艺术中心,细颗粒物(PM2.5),94,122,105,70,65,13,,50,40,61,47,12,17,1.1,1
2024-12-04T2100,2621A,99.7056,27.8317,迪庆藏族自治州,迪庆州站,,30,30,27,16,18,63,,77,73,18,13,9,5,0.7,0.5
2024-12-04T2100,3180A,99.7136,27.8094,迪庆藏族自治州,质量技术监督局,,33,,31,23,15,63,,68,66,10,14,8,8,0.5,0.6
2024-12-04T2100,2663A,104.6241,35.5734,定西市,东关小学,颗粒物(PM10),77,104,61,44,28,38,,70,66,36,17,20,10,1.0,0.5
2024-12-04T2100,2664A,104.6194,35.5934,定西市,供电公司,颗粒物(PM10),53,56,59,32,31,34,,75,69,49,25,11,10,0.4,0.7
2024-12-04T2100,1389A,113.7547,23.0494,东莞市,莞城梨川,细颗粒物(PM2.5),79,106,73,58,41,67,,140,125,69,57,8,9,1.1,0.9
2024-12-04T2100,1390A,113.7944,23.0128,东莞市,东城石井,颗粒物(PM10),53,55,63,34,40,72,,146,130,30,49,5,6,0.7,0.8
2024-12-04T2100,1391A,113.7383,22.9658,东莞市,南城西平,颗粒物(PM10),64,78,83,41,44,85,,164,153,61,69,5,5,0.8,0.8
2024-12-04T2100,3319A,113.7338,23.0381,东莞市,万江金泰,细颗粒物(PM2.5),78,104,71,57,40,82,,147,132,71,57,4,8,1.0,0.8
2024-12-04T2100,3626A,113.7533,23.0202,东莞市,南城元岭,颗粒物(PM10),74,98,75,52,41,44,,142,116,96,58,9,10,1.0,0.9
2024-12-04T2100,3627A,113.7875,23.0457,东莞市,东城主山,,,121,81,61,43,,,145,,112,66,,11,1.0,0.7
2024-12-04T2100,1666A,118.6614,37.4309,东营市,市环保局,细颗粒物(PM2.5),70,83,64,51,38,8,,54,38,83,64,14,21,1.0,0.9
2024-12-04T2100,3036A,118.6904,37.4338,东营市,开发区管委会,细颗粒物(PM2.5),67,77,64,48,38,9,,57,44,86,60,11,15,1.1,1
2024-12-04T2100,3365A,118.5719,37.565,东营市,垦利区民丰路,"颗粒物(PM10),细颗粒物(PM2.5)",64,78,68,46,37,21,,52,40,56,51,12,11,0.6,0.6
2024-12-04T2100,3498A,118.5055,37.8612,东营市,河口城区,,34,34,60,15,31,41,,62,60,30,40,4,6,0.7,0.7
2024-12-04T2100,3646A,118.4978,37.4623,东营市,胜利站,细颗粒物(PM2.5),73,93,79,53,46,6,,54,34,76,60,14,14,1.1,1.1
2024-12-04T2100,3734A,118.35,37.26,东营市,理想之城,细颗粒物(PM2.5),77,97,77,56,44,6,,53,36,78,60,9,10,0.9,0.8
2024-12-04T2100,1591A,110.0023,39.8129,鄂尔多斯市,综合楼,,27,27,24,14,8,66,,77,76,18,15,6,7,0.5,0.5
2024-12-04T2100,1592A,109.9486,39.8261,鄂尔多斯市,巴音孟克林场办事处,,31,31,28,14,12,58,,68,67,14,13,6,6,0.4,0.4
2024-12-04T2100,1593A,109.7736,39.5986,鄂尔多斯市,康泽苑,,29,29,26,14,11,57,,76,71,16,12,5,5,0.5,0.4
2024-12-04T2100,1594A,109.8119,39.5989,鄂尔多斯市,华泰汽车城,,28,24,30,19,13,53,,75,68,20,16,5,6,0.4,0.5
2024-12-04T2100,1595A,109.9734,39.7884,鄂尔多斯市,奥林花园,,31,31,32,14,10,53,,68,64,20,18,5,6,0.4,0.3
2024-12-04T2100,2436A,114.8938,30.3994,鄂州市,市政府,,45,43,88,31,75,11,,22,16,34,35,6,7,0.9,1
2024-12-04T2100,2437A,114.8989,30.3714,鄂州市,赵家坝,,,,100,30,75,13,,28,21,30,32,3,3,0.7,0.7
2024-12-04T2100,3654A,114.8094,30.4089,鄂州市,精准医疗中心,,40,40,82,28,72,22,,32,24,25,28,8,7,1.0,1
2024-12-04T2100,2454A,109.4978,30.2981,恩施土家族苗族自治州,湖北民院,,,,72,,59,52,,48,48,12,19,6,6,,0.9
2024-12-04T2100,2455A,109.4707,30.2798,恩施土家族苗族自治州,州电力总公司,,23,21,63,16,55,52,,45,45,16,22,7,7,0.8,0.9
2024-12-04T2100,3549A,109.5061,30.3772,恩施土家族苗族自治州,龙凤新区,,26,21,61,18,43,54,,44,44,9,17,6,6,0.3,0.5
2024-12-04T2100,2499A,108.3411,21.6158,防城港市,沙万,颗粒物(PM10),67,83,57,39,33,77,,166,145,58,32,9,15,0.8,0.6
2024-12-04T2100,2500A,108.3514,21.7731,防城港市,防城档案局,颗粒物(PM10),98,145,107,66,44,70,,197,166,37,34,10,9,1.0,0.9
2024-12-04T2100,2501A,108.3506,21.6414,防城港市,大海花园,颗粒物(PM10),69,88,59,42,28,77,,186,165,48,27,10,11,1.0,0.6
2024-12-04T2100,1371A,113.1294,23.0067,佛山市,湾梁,颗粒物(PM10),71,92,94,43,43,67,,126,121,71,81,7,9,0.9,1
2024-12-04T2100,1372A,113.1083,23.0478,佛山市,华材职中,颗粒物(PM10),75,100,106,50,59,41,,130,122,89,89,8,10,1.0,1
2024-12-04T2100,1373A,113.144,23.0453,佛山市,南海气象局,"颗粒物(PM10),细颗粒物(PM2.5)",77,103,87,56,51,104,,125,125,74,76,8,9,0.9,0.9
2024-12-04T2100,1374A,113.2881,22.8094,佛山市,顺德苏岗,细颗粒物(PM2.5),92,87,89,68,55,91,,184,175,54,69,8,9,0.9,0.8
2024-12-04T2100,1376A,112.8383,22.8678,佛山市,高明孔堂,"颗粒物(PM10),细颗粒物(PM2.5)",62,74,78,44,53,132,,177,176,34,46,6,11,0.9,0.9
2024-12-04T2100,1377A,112.8836,23.1588,佛山市,三水监测站,颗粒物(PM10),81,112,99,55,57,2,,124,93,138,93,8,19,1.0,0.9
2024-12-04T2100,1378A,112.867,23.185,佛山市,三水云东海,颗粒物(PM10),65,79,82,42,54,26,,122,106,109,74,9,14,0.8,0.8
2024-12-04T2100,3625A,113.2544,22.7642,佛山市,容桂街道办,颗粒物(PM10),78,105,97,46,56,44,,191,173,113,84,8,9,1.0,1
2024-12-04T2100,1280A,119.3903,26.0543,福州市,鼓山,,,,37,,18,,,111,,,9,,1,,0.3
2024-12-04T2100,1282A,119.2681,26.0504,福州市,师大,颗粒物(PM10),51,51,48,28,25,114,,112,105,11,14,3,4,0.4,0.4
2024-12-04T2100,1283A,119.2984,26.1028,福州市,五四北路,,50,50,43,28,25,105,,111,100,15,14,3,2,0.4,0.5
2024-12-04T2100,1284A,119.2648,26.0768,福州市,杨桥西路,颗粒物(PM10),51,52,47,26,24,108,,113,103,12,12,1,2,0.3,0.4
2024-12-04T2100,1285A,119.317,26.0746,福州市,紫阳,颗粒物(PM10),51,51,47,28,25,108,,111,99,10,13,2,3,0.3,0.4
2024-12-04T2100,3048A,119.5799,26.0936,福州市,九龙,,41,41,42,20,23,119,,112,112,5,9,1,3,0.3,0.3
2024-12-04T2100,3526A,119.5189,25.9664,福州市,吴航,,,47,42,25,23,,,120,120,,11,,4,,0.3
2024-12-04T2100,1755A,123.7977,41.8491,抚顺市,望花区,颗粒物(PM10),55,60,60,37,31,20,,42,32,47,42,10,8,0.8,0.9
2024-12-04T2100,1756A,123.9161,41.8822,抚顺市,顺城区,颗粒物(PM10),55,60,69,34,34,35,,50,45,46,45,11,11,0.5,0.9
2024-12-04T2100,1757A,124.0436,41.8611,抚顺市,东洲区,颗粒物(PM10),52,54,58,29,32,37,,49,45,36,34,20,10,1.1,0.7
2024-12-04T2100,1758A,123.9247,41.8642,抚顺市,新抚区,颗粒物(PM10),53,55,75,35,35,28,,43,38,39,39,11,8,0.8,0.7
2024-12-04T2100,1759A,124.0972,41.8961,抚顺市,大伙房水库,细颗粒物(PM2.5),58,61,51,41,30,21,,52,44,46,35,13,11,0.9,0.7
2024-12-04T2100,1760A,123.7086,41.8391,抚顺市,沈抚新城,细颗粒物(PM2.5),55,57,44,39,24,9,,51,34,61,38,11,9,0.6,0.6
2024-12-04T2100,2376A,116.2127,28.0814,抚州市,桐源党溪,颗粒物(PM10),80,110,98,58,65,69,,101,98,12,10,6,6,0.7,0.8
2024-12-04T2100,2377A,116.3544,27.9831,抚州市,市站,细颗粒物(PM2.5),87,107,107,64,71,69,,102,99,22,20,1,3,1.3,1.3
2024-12-04T2100,2378A,116.3565,27.963,抚州市,血防站,细颗粒物(PM2.5),87,91,105,64,72,72,,107,104,16,15,2,8,0.8,1
2024-12-04T2100,2379A,116.3564,28.0007,抚州市,采茶剧团,细颗粒物(PM2.5),89,89,97,66,74,63,,102,98,19,17,5,6,1.0,1.1
2024-12-04T2100,2380A,116.385,27.9647,抚州市,医学分院,细颗粒物(PM2.5),89,102,105,66,71,70,,105,101,20,17,3,7,1.2,1.2
2024-12-04T2100,2207A,121.6094,41.998,阜新市,工业园区,细颗粒物(PM2.5),99,87,62,74,26,7,,64,46,53,28,26,21,1.1,0.7
2024-12-04T2100,2208A,121.6697,42.0279,阜新市,长青街,颗粒物(PM10),55,59,44,35,16,14,,58,47,37,22,14,17,0.9,0.7
2024-12-04T2100,2209A,121.6673,42.0705,阜新市,农业园区,,20,20,31,14,8,61,,64,64,11,16,10,18,0.3,0.4
2024-12-04T2100,2210A,121.6717,42.0224,阜新市,东苑,细颗粒物(PM2.5),63,45,41,45,24,24,,54,48,37,21,20,24,0.5,0.5
2024-12-04T2100,2211A,121.6506,42.0498,阜新市,玉龙新城,颗粒物(PM10),60,70,57,28,20,12,,62,44,53,30,9,12,0.7,0.7
2024-12-04T2100,2301A,115.8277,32.8929,阜阳市,市监测站,细颗粒物(PM2.5),112,88,88,84,68,8,,24,13,43,37,5,6,0.7,0.6
2024-12-04T2100,2303A,115.8554,32.8605,阜阳市,开发区,细颗粒物(PM2.5),114,116,108,86,70,3,,25,14,42,34,6,7,0.7,0.6
2024-12-04T2100,2875A,115.784,32.8892,阜阳市,阜阳职业技术学院,细颗粒物(PM2.5),108,94,92,81,66,3,,23,10,40,36,6,7,0.8,0.7
2024-12-04T2100,3468A,115.7901,32.8613,阜阳市,市规划展馆,细颗粒物(PM2.5),113,95,91,85,63,8,,34,16,42,33,5,7,0.7,0.6
2024-12-04T2100,3469A,115.836,32.9183,阜阳市,枣园社区,细颗粒物(PM2.5),107,94,101,80,71,5,,24,14,45,40,5,6,0.8,0.7
2024-12-04T2100,2669A,102.9099,34.9841,甘南藏族自治州,州政府,颗粒物(PM10),57,63,55,30,32,70,,82,82,20,17,8,8,0.5,0.7
2024-12-04T2100,3380A,102.8914,34.9617,甘南藏族自治州,甘肃民族师范学院,,33,32,35,23,25,73,,85,85,32,26,7,11,0.5,0.6
2024-12-04T2100,2570A,101.9603,30.0475,甘孜藏族自治州,水桥子,,15,11,19,3,10,46,,44,44,20,27,7,8,0.4,0.4
2024-12-04T2100,3065A,101.9533,29.9972,甘孜藏族自治州,州环保局,,18,14,23,12,8,47,,46,46,19,22,4,4,0.4,0.4
2024-12-04T2100,3414A,115.8347,28.932,赣江新区,桑海产业园,细颗粒物(PM2.5),124,156,140,94,93,49,,78,73,28,25,8,11,0.8,0.8
2024-12-04T2100,2362A,114.9017,25.9149,赣州市,通天岩,细颗粒物(PM2.5),72,53,48,52,42,41,,109,85,8,10,2,4,0.5,0.6
2024-12-04T2100,2363A,114.9367,25.8664,赣州市,地委,颗粒物(PM10),56,61,62,34,36,124,,113,113,14,20,5,8,1.0,0.9
2024-12-04T2100,2364A,114.9461,25.8481,赣州市,气象台,颗粒物(PM10),61,71,67,32,34,104,,105,102,24,25,16,17,0.8,0.8
2024-12-04T2100,2365A,114.9322,25.8333,赣州市,市图书馆,颗粒物(PM10),57,64,62,25,37,124,,118,113,14,30,7,10,0.9,0.9
2024-12-04T2100,2366A,114.8905,25.8471,赣州市,华坚鞋城,颗粒物(PM10),64,78,62,40,35,103,,95,94,16,16,8,10,0.6,0.5
2024-12-04T2100,3109A,115.0093,25.8613,赣州市,赣县区卫计委,"颗粒物(PM10),细颗粒物(PM2.5)",67,83,64,48,44,87,,88,81,19,34,6,6,0.8,0.8
2024-12-04T2100,2683A,106.2319,36.1417,固原市,马园,颗粒物(PM10),78,105,64,45,24,11,,74,61,64,29,15,8,1.2,0.9
2024-12-04T2100,2684A,106.2792,36.0022,固原市,监测站,颗粒物(PM10),60,70,46,23,17,58,,81,72,27,18,6,6,0.6,0.4
2024-12-04T2100,2685A,106.2375,36.0211,固原市,新区,颗粒物(PM10),57,64,46,19,17,60,,82,72,24,17,3,4,0.3,0.3
2024-12-04T2100,3522A,106.2177,35.9959,固原市,原州区十五小,颗粒物(PM10),57,63,47,23,18,59,,86,75,28,16,6,6,0.5,0.4
2024-12-04T2100,2543A,106.6308,30.5278,广安市,小平旧居,,,,,,,,,,,,,,,,
2024-12-04T2100,2544A,106.6303,30.4576,广安市,市委,,36,32,50,25,42,56,,35,35,14,18,2,2,0.5,0.7
2024-12-04T2100,2545A,106.6271,30.4663,广安市,友谊中学,,36,32,47,25,42,58,,34,34,16,21,2,2,0.6,0.8
2024-12-04T2100,2547A,106.6388,30.4551,广安市,广电花园,,35,35,48,24,44,56,,31,31,15,22,3,2,0.7,0.9
2024-12-04T2100,2902A,106.6351,30.4865,广安市,北辰小学,,35,34,48,24,43,54,,38,38,16,19,3,4,0.7,0.8
2024-12-04T2100,2523A,105.8945,32.4535,广元市,黑石坡,,40,40,44,24,31,62,,67,64,14,14,7,11,0.3,0.5
2024-12-04T2100,2524A,105.821,32.4444,广元市,老城,,45,45,51,23,27,58,,72,60,32,25,1,2,0.5,0.5
2024-12-04T2100,2526A,105.8628,32.4287,广元市,监测站,颗粒物(PM10),51,52,44,32,32,52,,81,67,43,26,5,6,0.7,0.7
2024-12-04T2100,3617A,105.8047,32.4166,广元市,经开区,颗粒物(PM10),55,60,57,33,34,55,,69,52,34,31,5,5,0.4,0.5
2024-12-04T2100,1345A,113.2347,23.1423,广州市,广雅中学,细颗粒物(PM2.5),83,110,96,61,42,20,,125,109,130,78,8,8,1.3,1
2024-12-04T2100,1346A,113.2612,23.105,广州市,市五中,细颗粒物(PM2.5),87,102,75,64,48,61,,131,122,58,61,6,7,1.1,1
2024-12-04T2100,1348A,113.3478,23.0916,广州市,广东商学院,细颗粒物(PM2.5),108,128,83,81,47,34,,137,128,132,80,6,6,1.2,0.8
2024-12-04T2100,1349A,113.4332,23.1047,广州市,市八十六中,颗粒物(PM10),101,152,83,67,39,5,,119,99,165,88,8,8,1.2,1
2024-12-04T2100,1350A,113.3505,22.9483,广州市,番禺中学,细颗粒物(PM2.5),112,135,95,84,58,61,,183,172,109,82,6,7,1.5,1.1
2024-12-04T2100,1351A,113.2146,23.3916,广州市,花都师范,颗粒物(PM10),82,114,74,55,40,6,,115,92,115,67,6,8,1.1,0.7
2024-12-04T2100,1352A,113.2597,23.1331,广州市,市监测站,细颗粒物(PM2.5),80,100,67,59,35,16,,132,116,113,64,6,7,1.2,0.7
2024-12-04T2100,1353A,113.5618,23.312,广州市,九龙镇镇龙,颗粒物(PM10),94,137,69,60,34,3,,98,68,75,45,6,6,0.8,0.7
2024-12-04T2100,1354A,113.2765,23.1544,广州市,麓湖,颗粒物(PM10),58,66,52,40,32,8,,127,91,112,67,5,6,0.9,0.7
2024-12-04T2100,1355A,113.443,23.3035,广州市,帽峰山森林公园,,40,29,22,26,18,125,,123,123,15,13,6,6,0.4,0.4
2024-12-04T2100,2846A,113.3221,23.1322,广州市,体育西,颗粒物(PM10),91,132,75,66,41,20,,126,110,102,60,4,5,1.3,0.9
2024-12-04T2100,3298A,113.5717,23.5491,广州市,从化街口,颗粒物(PM10),51,52,54,35,36,7,,94,75,56,38,7,8,1.0,0.8
2024-12-04T2100,3299A,113.3472,23.3692,广州市,白云竹料,细颗粒物(PM2.5),95,134,65,71,36,8,,114,86,89,54,7,9,1.2,0.7
2024-12-04T2100,3300A,113.2981,23.237,广州市,白云嘉禾,颗粒物(PM10),90,129,74,59,33,5,,104,80,128,73,9,8,1.5,1
2024-12-04T2100,3301A,113.4256,23.1716,广州市,黄埔科学城,颗粒物(PM10),61,72,51,37,27,6,,125,97,83,51,7,7,0.8,0.7
2024-12-04T2100,3302A,113.3942,23.0483,广州市,番禺大学城,"颗粒物(PM10),细颗粒物(PM2.5)",82,113,96,60,42,122,,156,156,52,78,10,12,1.0,1
2024-12-04T2100,3303A,113.4922,22.8168,广州市,南沙黄阁,颗粒物(PM10),63,76,84,30,48,62,,200,177,75,71,6,10,1.0,0.9
2024-12-04T2100,3304A,113.5342,22.7896,广州市,南沙街,颗粒物(PM10),63,76,72,32,42,47,,195,171,64,56,4,6,0.7,0.8
2024-12-04T2100,3443A,113.2902,23.5544,广州市,花都梯面,细颗粒物(PM2.5),57,61,46,40,29,3,,94,47,49,39,7,9,0.7,0.6
2024-12-04T2100,3445A,113.7858,23.7478,广州市,从化良口,,34,34,26,22,16,60,,73,65,17,21,6,6,0.6,0.5
2024-12-04T2100,3446A,113.8051,23.2614,广州市,增城荔城,,50,50,45,33,32,35,,122,100,52,26,2,4,0.7,0.6
2024-12-04T2100,2505A,109.568,23.1478,贵港市,德智高中,,,,,,,,,,,,,,,,
2024-12-04T2100,2506A,109.6047,23.0666,贵港市,江南子站,细颗粒物(PM2.5),92,132,118,68,64,86,,190,167,58,42,14,19,1.3,1.1
2024-12-04T2100,2507A,109.6014,23.0948,贵港市,贵城子站,细颗粒物(PM2.5),94,116,92,70,64,118,,175,161,31,32,13,19,1.0,1
2024-12-04T2100,2508A,109.5669,23.1065,贵港市,荷城子站,细颗粒物(PM2.5),73,80,91,53,50,108,,167,149,38,35,15,22,0.8,0.8
2024-12-04T2100,3405A,109.5886,23.1172,贵港市,新世纪学校,细颗粒物(PM2.5),69,78,92,50,53,117,,174,158,33,34,17,22,0.8,0.8
2024-12-04T2100,1439A,106.6899,26.5998,贵阳市,马鞍山,,11,9,33,3,19,34,,23,21,17,20,5,6,0.6,0.8
2024-12-04T2100,1440A,106.6971,26.5694,贵阳市,市环保站,,22,19,35,15,32,40,,31,21,23,20,6,6,0.2,0.4
2024-12-04T2100,1441A,106.6243,26.6266,贵阳市,鉴湖路,,14,14,39,7,26,38,,19,19,8,17,5,6,0.5,0.7
2024-12-04T2100,1442A,106.7487,26.6343,贵阳市,燕子冲,,25,17,29,17,28,41,,28,22,11,15,5,7,0.5,0.7
2024-12-04T2100,1443A,106.6555,26.4365,贵阳市,碧云窝,,22,22,48,12,28,33,,17,14,20,25,8,9,0.6,0.8
2024-12-04T2100,1444A,106.694,26.5161,贵阳市,中院村,,32,,39,22,29,37,,27,18,17,20,11,12,0.7,0.9
2024-12-04T2100,1445A,106.7109,26.6027,贵阳市,红边门,,28,,38,19,31,48,,26,22,15,21,11,12,0.6,0.8
2024-12-04T2100,1446A,106.7164,26.5699,贵阳市,新华路,,24,24,35,14,26,40,,30,18,16,18,4,5,0.6,0.7
2024-12-04T2100,1447A,106.674,26.5424,贵阳市,太慈桥,,13,12,32,3,23,40,,22,18,13,20,6,6,0.5,0.7
2024-12-04T2100,1552A,106.805,26.3003,贵阳市,桐木岭,,29,29,34,14,23,35,,36,23,5,9,5,8,0.8,0.9
2024-12-04T2100,1862A,110.4144,25.3167,桂林市,电子科大尧山校区,细颗粒物(PM2.5),94,101,92,70,56,124,,187,158,13,14,10,13,0.8,0.8
2024-12-04T2100,1863A,110.2819,25.2697,桂林市,监测站,细颗粒物(PM2.5),104,91,91,78,73,116,,143,136,21,18,22,16,1.2,1.1
2024-12-04T2100,1864A,110.3089,25.2708,桂林市,龙隐路小学,细颗粒物(PM2.5),104,86,82,78,70,125,,149,144,18,17,18,20,1.1,1.1
2024-12-04T2100,1865A,110.2869,25.2178,桂林市,八中,,,105,96,72,69,,,140,140,23,19,15,17,0.8,0.8
2024-12-04T2100,3403A,110.1764,25.2381,桂林市,创业大厦,细颗粒物(PM2.5),94,97,96,70,70,115,,149,143,22,18,12,14,0.8,0.8
2024-12-04T2100,3531A,110.296,25.1253,桂林市,旅游学院,,,,81,,63,117,,146,142,16,21,14,14,0.9,0.9
2024-12-04T2100,2674A,100.2561,34.4714,果洛藏族自治州,玛沁县大武镇,,36,36,32,17,14,78,,90,90,3,4,5,8,0.4,0.5
2024-12-04T2100,1129A,126.5422,45.755,哈尔滨市,岭北,,35,32,24,24,16,53,,63,56,20,16,5,5,1.1,0.7
2024-12-04T2100,1130A,126.561,45.8167,哈尔滨市,松北商大,,32,32,26,20,14,41,,53,44,27,17,10,9,0.4,0.5
2024-12-04T2100,1131A,126.979,45.5419,哈尔滨市,阿城会宁,,45,42,33,31,22,30,,55,47,29,14,8,5,0.8,0.8
2024-12-04T2100,1132A,126.599,45.7222,哈尔滨市,南岗学府路,,41,41,43,14,18,40,,55,46,32,17,23,8,0.5,0.5
2024-12-04T2100,1133A,126.689,45.7733,哈尔滨市,太平宏伟公园,,40,38,27,28,16,41,,48,45,25,20,20,9,0.7,0.6
2024-12-04T2100,1134A,126.635,45.7667,哈尔滨市,道外承德广场,,39,33,28,27,15,42,,48,44,29,25,13,9,0.9,0.7
2024-12-04T2100,1135A,126.685,45.7319,哈尔滨市,香坊红旗大街,,36,36,35,24,19,49,,48,44,20,21,12,6,0.3,0.5
2024-12-04T2100,1136A,126.6411,45.7258,哈尔滨市,动力和平路,,32,28,36,22,20,50,,52,44,18,18,13,7,0.3,0.3
2024-12-04T2100,1137A,126.593,45.7478,哈尔滨市,道里建国路,,35,31,27,24,19,40,,49,41,27,19,13,9,0.5,0.6
2024-12-04T2100,1138A,126.615,45.61,哈尔滨市,平房东轻厂,颗粒物(PM10),51,52,28,34,17,10,,53,36,56,24,16,10,0.9,0.4
2024-12-04T2100,1139A,126.595,45.9855,哈尔滨市,呼兰师专,,,,28,50,22,,,59,58,30,19,10,4,1.0,0.6
2024-12-04T2100,1140A,126.6206,45.6842,哈尔滨市,省农科院,细颗粒物(PM2.5),57,57,36,40,28,26,,51,35,42,24,11,9,0.7,0.6
2024-12-04T2100,2688A,93.5128,42.8172,哈密市,地区监测站,,48,48,65,26,34,51,,62,59,32,24,5,5,0.5,0.4
2024-12-04T2100,2689A,93.4961,42.8328,哈密市,哈密师范学校,颗粒物(PM10),60,69,67,25,35,17,,55,50,61,36,4,5,0.9,0.5
2024-12-04T2100,2671A,100.9048,36.9639,海北藏族自治州,海晏县西海镇,颗粒物(PM10),60,70,48,34,34,62,,100,94,27,22,21,22,0.6,0.7
2024-12-04T2100,3867A,102.0738,36.5056,海东市,平安区公安北苑,,,73,64,36,34,,,85,85,46,24,33,17,0.8,0.7
2024-12-04T2100,1409A,110.576,19.9507,海口市,东寨港,,30,30,26,16,14,84,,82,80,3,3,10,12,0.5,0.5
2024-12-04T2100,1410A,110.3232,20.0574,海口市,海南大学,,48,48,36,20,16,103,,98,97,7,8,5,5,0.4,0.4
2024-12-04T2100,1411A,110.283,20.0053,海口市,秀英海南医院,,43,43,34,18,14,97,,101,97,8,8,3,4,0.3,0.3
2024-12-04T2100,1412A,110.338,19.9969,海口市,海南师范大学,,42,42,32,18,16,102,,100,97,6,7,5,6,0.4,0.4
2024-12-04T2100,1413A,110.33,20.0356,海口市,龙华路环保局宿舍,,43,43,33,18,16,101,,100,97,6,5,5,5,0.4,0.4
2024-12-04T2100,3539A,110.5111,19.9736,海口市,桂林洋子站,,45,45,31,19,16,100,,96,94,8,9,4,5,0.4,0.4
2024-12-04T2100,2673A,100.6188,36.2866,海南藏族自治州,共和县恰卜恰镇,,30,30,30,16,19,37,,78,67,38,29,8,10,0.6,0.6
2024-12-04T2100,2676A,97.3731,37.3753,海西蒙古族藏族自治州,德令哈市,,39,39,31,21,16,57,,95,87,19,12,15,17,0.6,0.5
2024-12-04T2100,1048A,114.5302,36.6116,邯郸市,东污水处理厂,细颗粒物(PM2.5),149,138,115,114,86,34,,49,48,36,51,2,4,0.7,0.8
2024-12-04T2100,1049A,114.4918,36.5713,邯郸市,矿院,细颗粒物(PM2.5),156,170,126,119,83,18,,54,49,51,41,1,2,0.6,0.6
2024-12-04T2100,1050A,114.484,36.6133,邯郸市,丛台公园,细颗粒物(PM2.5),130,142,117,99,79,,,60,60,30,43,1,2,0.6,0.8
2024-12-04T2100,3458A,114.7895,36.5593,邯郸市,香泉濮院小区,细颗粒物(PM2.5),186,190,140,140,96,36,,62,60,28,36,4,6,1.1,0.9
2024-12-04T2100,3579A,114.50634,36.77178,邯郸市,永年区实验高中,细颗粒物(PM2.5),175,222,155,132,84,4,,47,44,72,46,6,8,1.1,1
2024-12-04T2100,3580A,114.20016,36.44293,邯郸市,峰峰矿区临水派出所,细颗粒物(PM2.5),140,155,112,107,69,47,,50,50,24,30,11,14,1.0,1.3
2024-12-04T2100,2634A,106.9893,33.1842,汉中市,汉川机床厂子校,细颗粒物(PM2.5),52,47,54,36,38,40,,68,64,12,13,5,6,0.4,0.4
2024-12-04T2100,2635A,107.0154,33.0706,汉中市,市监测站,细颗粒物(PM2.5),73,78,69,53,51,51,,57,57,31,25,8,6,1.2,0.9
2024-12-04T2100,2636A,107.0089,33.1138,汉中市,鑫源开发区,细颗粒物(PM2.5),112,101,64,84,52,14,,56,48,59,31,7,6,1.1,0.7
2024-12-04T2100,2637A,107.007,33.0323,汉中市,南郑大河坎水厂,细颗粒物(PM2.5),128,133,77,97,55,11,,53,43,55,36,7,5,1.6,0.8
2024-12-04T2100,1223A,120.2072,30.2111,杭州市,滨江,,32,32,57,20,38,51,,59,54,27,31,6,7,0.4,0.5
2024-12-04T2100,1224A,120.0633,30.2747,杭州市,西溪,,48,48,67,18,28,3,,61,10,68,45,6,6,0.6,0.6
2024-12-04T2100,1226A,120.3461,30.3153,杭州市,下沙,,24,24,47,13,27,41,,57,54,44,42,5,6,0.6,0.7
2024-12-04T2100,1227A,120.1269,30.2456,杭州市,卧龙桥,,49,49,66,22,33,4,,63,13,72,44,8,8,0.5,0.5
2024-12-04T2100,1228A,120.1903,30.2692,杭州市,浙江农大,,34,34,48,18,32,15,,52,13,57,42,4,4,0.6,0.6
2024-12-04T2100,1230A,120.1197,30.3119,杭州市,和睦小学,,50,50,63,29,34,2,,54,8,74,47,6,6,0.4,0.6
2024-12-04T2100,1231A,120.3019,30.4183,杭州市,临平镇,,42,42,63,20,34,16,,49,39,56,38,6,6,0.5,0.6
2024-12-04T2100,1232A,120.2697,30.1819,杭州市,城厢镇,,36,36,71,16,36,51,,55,54,32,35,6,6,0.5,0.7
2024-12-04T2100,1233A,120.0883,30.1808,杭州市,云栖,,37,32,55,23,39,4,,64,16,74,44,7,7,0.7,0.7
2024-12-04T2100,3557A,119.9464,30.0494,杭州市,镇二中,,43,43,61,24,37,6,,63,22,57,36,6,6,0.6,0.6
2024-12-04T2100,3558A,119.7183,30.2367,杭州市,市府大楼,颗粒物(PM10),54,58,93,34,57,23,,47,30,53,49,7,7,0.5,0.7
2024-12-04T2100,3656A,120.1556,30.2864,杭州市,消防大队,颗粒物(PM10),55,60,73,30,42,7,,60,15,75,45,8,8,0.5,0.5
2024-12-04T2100,1270A,117.1959,31.7848,合肥市,明珠广场,,45,34,65,31,41,49,,39,39,26,32,6,7,0.6,0.7
2024-12-04T2100,1271A,117.3072,31.8764,合肥市,三里街,,39,36,61,27,38,42,,37,37,22,28,5,6,0.5,0.6
2024-12-04T2100,1272A,117.2588,31.8707,合肥市,琥珀山庄,,43,31,58,30,40,55,,46,46,23,33,4,4,0.7,0.8
2024-12-04T2100,1273A,117.1604,31.9052,合肥市,董铺水库,,39,39,64,24,32,55,,46,46,13,26,4,4,0.3,0.4
2024-12-04T2100,1274A,117.25,31.8571,合肥市,长江中路,细颗粒物(PM2.5),54,41,63,38,44,56,,46,46,21,29,6,7,0.7,0.7
2024-12-04T2100,1275A,117.266,31.9436,合肥市,庐阳区,,42,41,64,29,35,54,,48,48,24,30,4,4,0.6,0.7
2024-12-04T2100,1276A,117.336,31.8586,合肥市,瑶海区,,35,31,60,24,35,60,,49,49,22,31,8,9,0.6,0.8
2024-12-04T2100,1277A,117.3027,31.7964,合肥市,包河区,,41,41,69,27,40,21,,24,22,58,46,2,3,0.5,0.6
2024-12-04T2100,1278A,117.2776,31.7385,合肥市,滨湖新区,,46,46,71,31,36,60,,41,41,17,29,6,5,0.2,0.6
2024-12-04T2100,1279A,117.1318,31.8403,合肥市,高新区,,48,44,64,33,43,46,,41,41,27,34,1,1,0.5,0.8
2024-12-04T2100,3464A,117.3803,31.9147,合肥市,高教基地,,33,28,60,23,37,57,,46,46,13,28,6,7,0.2,0.4
2024-12-04T2100,3614A,79.924,37.0877,和田地区,地区环保局,颗粒物(PM10),96,141,126,31,49,37,,75,70,54,40,13,18,1.0,1.2
2024-12-04T2100,3615A,79.9131,37.113,和田地区,市环保局,颗粒物(PM10),79,108,95,38,47,33,,80,76,70,49,15,14,1.7,1.9
2024-12-04T2100,2516A,108.2011,24.715,河池市,东仁乐园,颗粒物(PM10),92,134,115,63,70,5,,116,96,75,39,4,6,0.9,0.8
2024-12-04T2100,2517A,108.0497,24.6947,河池市,市环保站,细颗粒物(PM2.5),74,83,87,54,67,49,,135,120,56,40,10,11,1.0,0.9
2024-12-04T2100,2518A,108.0983,24.6989,河池市,市疾控中心,细颗粒物(PM2.5),77,92,92,56,70,15,,136,118,86,45,12,14,0.8,0.8
2024-12-04T2100,1696A,114.6778,23.7569,河源市,源西,,49,46,34,34,25,37,,95,72,43,24,5,6,0.6,0.4
2024-12-04T2100,1697A,114.6944,23.7586,河源市,东埔,细颗粒物(PM2.5),54,55,39,38,28,64,,106,91,29,25,4,5,0.7,0.6
2024-12-04T2100,1698A,114.6892,23.7233,河源市,老城,,30,30,39,19,27,47,,99,88,20,24,3,5,0.6,0.6
2024-12-04T2100,1718A,115.4208,35.2464,菏泽市,气象局,细颗粒物(PM2.5),138,166,153,105,89,36,,57,55,36,41,4,4,0.8,0.8
2024-12-04T2100,1719A,115.4747,35.2375,菏泽市,市政协,细颗粒物(PM2.5),139,166,150,106,96,34,,58,56,36,34,6,6,0.7,0.8
2024-12-04T2100,3374A,115.5564,35.0891,菏泽市,定陶老年大学,细颗粒物(PM2.5),147,175,144,112,97,19,,56,44,55,46,6,6,1.0,0.9
2024-12-04T2100,3647A,115.4702,35.2706,菏泽市,菏泽医专,细颗粒物(PM2.5),125,160,150,95,85,39,,57,57,39,48,9,9,0.7,0.9
2024-12-04T2100,2514A,111.5264,24.4172,贺州市,环保小区,细颗粒物(PM2.5),87,116,70,64,50,50,,125,102,51,31,8,7,1.1,0.8
2024-12-04T2100,2515A,111.5608,24.4078,贺州市,政协大楼,细颗粒物(PM2.5),137,135,79,104,52,26,,131,103,65,43,12,11,1.1,0.8
2024-12-04T2100,3534A,111.4744,24.4553,贺州市,西湾,,,,80,,50,,,126,118,36,27,7,8,0.8,0.7
2024-12-04T2100,2385A,114.17,35.9019,鹤壁市,市监测站,细颗粒物(PM2.5),156,175,143,119,83,0,,45,32,56,39,3,3,0.8,0.6
2024-12-04T2100,2386A,114.2956,35.7511,鹤壁市,市交警支队,细颗粒物(PM2.5),160,191,138,122,78,0,,41,28,54,40,4,4,0.9,0.8
2024-12-04T2100,2387A,114.2878,35.7306,鹤壁市,迎宾馆,细颗粒物(PM2.5),163,183,133,124,74,0,,42,27,48,31,3,3,0.5,0.4
2024-12-04T2100,3474A,114.2617,35.6822,鹤壁市,大新区,细颗粒物(PM2.5),195,174,111,146,88,1,,30,21,50,33,3,3,0.9,0.7
2024-12-04T2100,3596A,114.1572,35.9603,鹤壁市,南山宾馆,细颗粒物(PM2.5),172,172,128,130,93,4,,49,35,47,28,6,10,0.6,0.5
2024-12-04T2100,2244A,130.2537,47.3416,鹤岗市,哈啤分公司,,30,22,24,21,18,50,,46,42,8,10,16,16,0.5,0.4
2024-12-04T2100,2245A,130.2684,47.3086,鹤岗市,斯达机电,,,,23,,16,,,51,51,35,24,,16,0.3,0.3
2024-12-04T2100,2246A,130.3114,47.3388,鹤岗市,东山纸板厂,,32,32,25,13,21,48,,50,37,17,22,13,15,0.4,0.3
2024-12-04T2100,2247A,130.1097,47.3382,鹤岗市,五号水库,,22,22,21,14,13,62,,68,67,8,5,9,9,0.1,0.1
2024-12-04T2100,2263A,127.4833,50.2524,黑河市,交通局,,40,28,23,28,19,33,,54,40,23,20,7,7,0.4,0.3
2024-12-04T2100,2264A,127.5144,50.2341,黑河市,环保局,,36,,20,25,18,30,,57,33,20,15,6,5,0.4,0.4
2024-12-04T2100,2265A,127.5291,50.2472,黑河市,大黑河岛,,,36,22,,,6,,55,19,16,16,3,2,0.7,0.7
2024-12-04T2100,1074A,115.6838,37.7541,衡水市,电机北厂,细颗粒物(PM2.5),132,141,101,100,65,54,,72,70,33,45,6,8,0.7,0.7
2024-12-04T2100,1075A,115.6303,37.7316,衡水市,市监测站,细颗粒物(PM2.5),124,130,91,94,60,42,,59,53,45,53,6,7,0.7,0.7
2024-12-04T2100,3188A,115.6683,37.7217,衡水市,市城管局,细颗粒物(PM2.5),137,145,98,104,61,54,,69,67,35,49,6,6,0.7,0.6
2024-12-04T2100,3459A,115.5989,37.5491,衡水市,地表水厂,细颗粒物(PM2.5),148,167,103,113,79,10,,64,50,91,57,24,23,0.8,0.7
2024-12-04T2100,2456A,112.5003,26.9167,衡阳市,原169医院,细颗粒物(PM2.5),105,104,111,79,77,24,,77,64,,27,6,8,0.8,0.8
2024-12-04T2100,2457A,112.6194,26.9258,衡阳市,衡阳化工总厂,细颗粒物(PM2.5),162,,136,123,123,42,,107,90,20,18,9,11,0.9,0.9
2024-12-04T2100,2458A,112.6211,26.8956,衡阳市,珠晖区环保局,细颗粒物(PM2.5),168,,122,127,120,41,,104,92,25,25,7,10,1.0,1
2024-12-04T2100,2459A,112.6197,26.8733,衡阳市,市委党校,细颗粒物(PM2.5),168,,123,127,120,47,,115,99,23,22,16,16,0.9,0.9
2024-12-04T2100,2460A,112.6006,26.8919,衡阳市,市监测站,细颗粒物(PM2.5),170,159,161,129,129,45,,106,95,20,18,10,12,1.0,0.9
2024-12-04T2100,2461A,112.5664,26.9056,衡阳市,真空机电公司,细颗粒物(PM2.5),169,,113,128,122,42,,105,95,24,20,7,8,0.9,1.3
2024-12-04T2100,3399A,112.6703,26.882,衡阳市,师范学院,细颗粒物(PM2.5),139,133,141,106,93,45,,109,98,24,23,8,13,0.9,0.9
2024-12-04T2100,2608A,103.3772,23.3993,红河哈尼族彝族自治州,污水处理厂,,50,39,32,35,29,59,,68,67,8,7,5,5,0.5,0.5
2024-12-04T2100,2609A,103.3861,23.35,红河哈尼族彝族自治州,监测站,细颗粒物(PM2.5),58,41,33,41,34,50,,66,62,17,11,10,10,0.6,0.5
2024-12-04T2100,3038A,103.3758,23.368,红河哈尼族彝族自治州,州图书馆,,38,31,26,26,20,53,,62,60,10,9,6,6,0.5,0.5
2024-12-04T2100,1090A,111.6507,40.7517,呼和浩特市,呼市一监,颗粒物(PM10),58,66,55,26,28,34,,47,44,39,39,6,9,0.6,0.7
2024-12-04T2100,1091A,111.6572,40.8033,呼和浩特市,小召,,20,17,43,12,22,44,,67,61,39,42,9,10,0.4,0.8
2024-12-04T2100,1094A,111.7516,40.8369,呼和浩特市,如意水处理厂,,33,33,43,14,18,24,,67,59,54,36,6,8,0.4,0.5
2024-12-04T2100,1095A,111.7276,40.8062,呼和浩特市,二十九中,,23,16,45,11,20,43,,74,69,45,34,9,8,0.5,0.6
2024-12-04T2100,1096A,111.5512,40.7866,呼和浩特市,工大金川校区,,40,40,63,12,25,7,,56,40,72,49,5,8,0.5,0.6
2024-12-04T2100,1097A,111.717,40.7612,呼和浩特市,化肥厂生活区,颗粒物(PM10),62,73,59,34,25,6,,56,43,68,40,8,8,0.7,0.6
2024-12-04T2100,3698A,111.5968,40.8178,呼和浩特市,红旗小学,,15,9,38,7,17,48,,61,56,28,42,3,6,0.3,0.5
2024-12-04T2100,3699A,111.6518,40.8389,呼和浩特市,海东办,,30,14,32,12,16,14,,70,59,59,37,7,8,0.6,0.6
2024-12-04T2100,2192A,119.7594,49.2261,呼伦贝尔市,区环保局,,29,29,21,20,16,55,,64,59,18,12,7,7,0.3,0.4
2024-12-04T2100,3061A,119.7512,49.1577,呼伦贝尔市,国华电力东,,35,30,21,24,15,52,,64,59,16,7,5,6,0.3,0.2
2024-12-04T2100,1250A,120.0751,30.8669,湖州市,城西水厂,颗粒物(PM10),60,69,48,30,23,43,,58,38,38,31,7,7,0.5,0.5
2024-12-04T2100,2873A,120.0875,30.8955,湖州市,仁皇山新区,颗粒物(PM10),58,65,43,36,23,45,,59,45,40,29,7,8,0.5,0.5
2024-12-04T2100,2907A,120.1844,30.8596,湖州市,吴兴区站,颗粒物(PM10),66,81,51,40,25,44,,51,30,33,37,8,8,0.6,0.5
2024-12-04T2100,3562A,120.4148,30.8538,湖州市,南浔区站,颗粒物(PM10),60,70,46,19,18,33,,38,32,41,42,5,7,0.3,0.6
2024-12-04T2100,1607A,120.9092,40.7136,葫芦岛市,龙港区,,35,30,49,24,31,34,,62,53,40,35,29,47,0.4,0.8
2024-12-04T2100,1608A,120.8392,40.7514,葫芦岛市,化工街,,,,59,117,33,9,,56,35,64,34,53,32,1.0,0.7
2024-12-04T2100,1609A,120.8341,40.7073,葫芦岛市,新区,细颗粒物(PM2.5),54,44,45,38,25,7,,62,38,70,45,21,20,0.5,0.7
2024-12-04T2100,1610A,120.8695,40.7677,葫芦岛市,东城区,细颗粒物(PM2.5),118,118,57,89,36,12,,55,34,70,42,31,27,2.0,1.5
2024-12-04T2100,2482A,109.5981,27.5721,怀化市,林科所,细颗粒物(PM2.5),58,49,71,41,59,64,,85,74,12,15,2,12,0.6,0.6
2024-12-04T2100,2483A,109.9453,27.5444,怀化市,河西地税局,细颗粒物(PM2.5),67,62,108,48,75,64,,84,70,15,18,5,9,0.6,0.6
2024-12-04T2100,2484A,109.9781,27.5342,怀化市,市四医院,细颗粒物(PM2.5),78,,105,57,73,62,,81,71,10,14,9,12,0.6,0.8
2024-12-04T2100,2485A,109.9972,27.5578,怀化市,监测楼,细颗粒物(PM2.5),70,71,102,51,67,65,,80,72,12,15,1,6,0.6,0.7
2024-12-04T2100,2486A,110.0394,27.583,怀化市,市委党校,细颗粒物(PM2.5),64,57,107,46,65,55,,76,67,14,14,4,6,0.5,0.5
2024-12-04T2100,1210A,119.036,33.5981,淮安市,钵池山,细颗粒物(PM2.5),82,80,87,60,62,54,,69,66,34,44,8,6,0.7,0.8
2024-12-04T2100,1211A,119.007,33.575,淮安市,北京南路,细颗粒物(PM2.5),88,124,81,65,53,5,,66,52,75,41,8,7,1.0,0.9
2024-12-04T2100,1212A,118.989,33.6067,淮安市,市监测站,细颗粒物(PM2.5),125,134,88,95,67,5,,65,48,79,47,7,5,1.0,0.9
2024-12-04T2100,1213A,119.135,33.5039,淮安市,楚州区监测站,细颗粒物(PM2.5),87,105,85,64,50,8,,68,47,72,41,6,6,0.7,0.6
2024-12-04T2100,1214A,119.0186,33.6297,淮安市,淮阴区监测站,细颗粒物(PM2.5),90,119,100,67,57,22,,67,54,68,52,8,7,1.0,0.9
2024-12-04T2100,3426A,118.8755,33.2894,淮安市,新华书店,"颗粒物(PM10),细颗粒物(PM2.5)",57,63,76,40,52,64,,71,69,22,37,6,7,0.6,0.6
2024-12-04T2100,2282A,116.8004,33.975,淮北市,监测站,细颗粒物(PM2.5),130,129,113,99,72,27,,46,44,41,39,5,6,1.0,0.8
2024-12-04T2100,2283A,116.8091,33.9007,淮北市,烈山区政府,细颗粒物(PM2.5),123,153,111,93,71,5,,42,29,69,55,5,6,0.8,0.6
2024-12-04T2100,3330A,116.8873,33.9836,淮北市,杜集区检察院,细颗粒物(PM2.5),138,166,121,105,77,10,,37,34,56,46,4,5,0.7,0.7
2024-12-04T2100,4017A,116.7923,33.9535,淮北市,市博物馆,细颗粒物(PM2.5),153,178,116,117,76,10,,44,32,67,50,4,5,1.0,0.8
2024-12-04T2100,2277A,116.8305,32.7727,淮南市,潘集区政府,细颗粒物(PM2.5),110,98,118,83,89,10,,42,30,46,38,6,7,0.7,0.7
2024-12-04T2100,2278A,117.0067,32.6524,淮南市,师范学院,细颗粒物(PM2.5),103,110,109,77,73,18,,42,30,36,34,3,4,0.5,0.5
2024-12-04T2100,2279A,116.8569,32.5951,淮南市,谢家集区政府,细颗粒物(PM2.5),92,,85,68,64,62,,44,44,21,32,8,9,0.5,0.5
2024-12-04T2100,2280A,116.8281,32.633,淮南市,八公山区政府,细颗粒物(PM2.5),103,92,98,77,68,33,,39,36,29,32,7,6,0.6,0.6
2024-12-04T2100,2281A,116.6325,32.6201,淮南市,焦岗湖风景区管理处,细颗粒物(PM2.5),77,70,79,56,55,5,,17,14,42,40,5,4,0.4,0.4
2024-12-04T2100,2894A,117.0566,32.6531,淮南市,经济技术开发区消防队,"颗粒物(PM10),细颗粒物(PM2.5)",58,65,86,41,57,34,,45,39,34,35,4,5,0.4,0.5
2024-12-04T2100,3329A,117.0108,32.5893,淮南市,山南新区,细颗粒物(PM2.5),60,58,81,43,52,28,,50,45,32,27,3,2,0.3,0.3
2024-12-04T2100,2446A,114.9028,30.4742,黄冈市,职工中心,细颗粒物(PM2.5),53,,89,37,70,14,,23,16,22,26,8,9,0.8,0.8
2024-12-04T2100,2929A,114.8858,30.4519,黄冈市,红卫路,,48,33,85,33,64,14,,27,18,30,31,5,6,0.8,0.8
2024-12-04T2100,3398A,114.9136,30.4445,黄冈市,市林业局,颗粒物(PM10),52,53,108,34,67,23,,35,28,24,30,7,8,0.7,0.7
2024-12-04T2100,2672A,102.0199,35.5102,黄南藏族自治州,同仁县隆务镇,颗粒物(PM10),57,63,60,39,41,83,,92,90,7,11,9,10,0.6,0.7
2024-12-04T2100,2295A,118.2903,29.6963,黄山市,延安路89号,颗粒物(PM10),61,72,60,33,30,58,,85,82,16,15,8,7,0.3,0.5
2024-12-04T2100,2296A,118.327,29.7178,黄山市,黄山东路89号,颗粒物(PM10),65,80,78,46,48,52,,84,76,16,15,6,6,0.4,0.5
2024-12-04T2100,2297A,118.1371,30.2756,黄山市,黄山区政府5号楼,颗粒物(PM10),75,100,124,51,78,44,,57,47,26,24,8,8,0.4,0.6
2024-12-04T2100,2423A,115.0601,30.2313,黄石市,沈家营,颗粒物(PM10),61,72,127,39,78,11,,39,26,36,45,7,9,1.0,1.1
2024-12-04T2100,2424A,115.0817,30.2006,黄石市,陈家湾,细颗粒物(PM2.5),64,59,120,46,98,12,,39,26,30,38,8,9,0.9,0.9
2024-12-04T2100,2426A,114.8988,30.2019,黄石市,铁山,细颗粒物(PM2.5),58,,106,41,92,19,,38,32,31,42,10,13,0.5,1
2024-12-04T2100,2427A,115.0307,30.2092,黄石市,团城山,细颗粒物(PM2.5),59,66,121,42,90,8,,34,22,30,38,9,9,0.9,0.9
2024-12-04T2100,3149A,115.0235,30.1578,黄石市,笔架山北路,细颗粒物(PM2.5),63,60,120,45,95,8,,39,28,32,40,6,11,1.2,1.3
2024-12-04T2100,1392A,114.4183,23.0528,惠州市,河南岸金山湖子站,颗粒物(PM10),51,51,63,24,40,79,,108,104,20,29,7,8,0.5,0.7
2024-12-04T2100,1393A,114.4053,23.0822,惠州市,下埔横江三路子站,颗粒物(PM10),52,54,72,27,40,92,,124,121,23,37,6,7,0.4,0.6
2024-12-04T2100,1394A,114.4103,23.1142,惠州市,江北云山西路子站,颗粒物(PM10),52,54,67,28,37,96,,130,126,22,37,8,9,0.6,0.7
2024-12-04T2100,1395A,114.4645,22.7833,惠州市,惠阳区承修路船湖子站,颗粒物(PM10),52,54,63,20,29,108,,117,115,10,33,7,9,0.4,0.5
2024-12-04T2100,1396A,114.5317,22.7422,惠州市,大亚湾管委会子站,,45,45,42,18,20,130,,132,132,10,30,6,7,0.5,0.6
2024-12-04T2100,3314A,114.4338,22.8134,惠州市,惠阳秋长,,40,39,51,16,32,125,,133,133,12,29,6,7,0.5,0.7
2024-12-04T2100,3452A,114.6517,22.775,惠州市,大亚湾霞涌,,41,41,39,25,24,125,,129,129,6,16,6,6,0.2,0.3
2024-12-04T2100,2240A,130.9762,45.3001,鸡西市,环保局,,23,23,14,9,7,53,,54,54,3,3,6,6,0.4,0.3
2024-12-04T2100,2243A,130.9429,45.3039,鸡西市,第一中学,,32,32,16,8,6,62,,61,61,4,3,4,5,0.3,0.3
2024-12-04T2100,3707A,131.0207,45.3073,鸡西市,欧美日汽修厂,颗粒物(PM10),52,54,24,16,16,56,,55,55,13,12,23,24,1.1,0.7
2024-12-04T2100,3709A,130.9967,45.3106,鸡西市,市政设施管理处,,45,45,18,7,8,57,,57,57,8,8,2,2,0.7,0.6
2024-12-04T2100,2367A,114.9754,27.0803,吉安市,红声器材厂,细颗粒物(PM2.5),89,94,96,66,63,109,,120,120,30,28,15,16,0.7,0.8
2024-12-04T2100,2368A,114.9658,27.0999,吉安市,市森林工业局,细颗粒物(PM2.5),89,97,96,66,63,97,,116,114,38,30,25,17,0.5,0.6
2024-12-04T2100,2369A,114.99,27.1312,吉安市,市环境监测站,细颗粒物(PM2.5),79,89,85,58,59,108,,120,119,38,35,14,15,0.8,0.7
2024-12-04T2100,2370A,115.0093,27.0968,吉安市,青原区法院,细颗粒物(PM2.5),88,100,95,65,60,102,,122,117,32,33,13,15,0.8,0.9
2024-12-04T2100,1772A,126.54,43.8622,吉林市,哈达湾,,26,26,25,13,9,59,,68,66,13,10,7,6,0.4,0.4
2024-12-04T2100,1773A,126.5844,43.8358,吉林市,东局子,,37,37,27,11,8,58,,68,66,14,9,6,5,0.5,0.4
2024-12-04T2100,1774A,126.5052,43.8245,吉林市,电力学院,,31,31,22,13,7,56,,67,65,12,8,7,6,0.5,0.4
2024-12-04T2100,1775A,126.6133,43.8972,吉林市,江北,,42,42,30,13,8,51,,64,60,19,13,10,15,0.5,0.4
2024-12-04T2100,1776A,126.555,43.8306,吉林市,江南公园,,34,34,25,15,8,57,,66,65,12,8,9,8,0.5,0.5
2024-12-04T2100,1778A,126.7061,43.7133,吉林市,丰满,,22,22,15,14,8,61,,68,67,7,4,10,8,0.2,0.2
2024-12-04T2100,2868A,126.4739,43.953,吉林市,九站,,31,31,26,12,10,58,,64,63,9,10,4,4,0.5,0.5
2024-12-04T2100,1299A,116.9862,36.6114,济南市,科干所,细颗粒物(PM2.5),92,105,77,68,39,27,,48,44,59,51,17,10,1.0,0.9
2024-12-04T2100,1300A,116.9376,36.665,济南市,农科所,颗粒物(PM10),89,127,102,63,39,9,,40,35,87,58,17,11,1.3,1.2
2024-12-04T2100,1301A,117.1265,36.6734,济南市,开发区,细颗粒物(PM2.5),77,90,84,56,43,12,,36,30,71,60,9,8,0.9,0.7
2024-12-04T2100,1303A,117.0624,36.6868,济南市,省种子仓库,颗粒物(PM10),79,107,105,53,41,7,,38,35,77,59,8,9,1.0,0.9
2024-12-04T2100,1304A,116.9489,36.6447,济南市,机床二厂,细颗粒物(PM2.5),110,164,119,83,52,11,,47,36,82,56,46,23,1.5,1.2
2024-12-04T2100,1305A,117.0495,36.663,济南市,市监测站,细颗粒物(PM2.5),83,90,85,61,45,17,,46,42,71,56,8,9,0.8,0.8
2024-12-04T2100,1306A,116.7675,36.5484,济南市,长清党校,细颗粒物(PM2.5),123,127,85,93,54,30,,54,51,67,52,11,10,0.9,0.8
2024-12-04T2100,1616A,117.6795,36.229,济南市,技术学院,细颗粒物(PM2.5),140,151,100,107,65,21,,53,47,67,52,17,15,1.6,1.3
2024-12-04T2100,1961A,117.532,36.6868,济南市,东山小学,"颗粒物(PM10),细颗粒物(PM2.5)",77,103,82,56,41,9,,39,27,68,51,11,10,0.8,0.7
2024-12-04T2100,3059A,117.7161,36.2049,济南市,泰兴公司,细颗粒物(PM2.5),138,151,110,105,68,9,,54,41,78,54,13,14,1.4,1
2024-12-04T2100,3064A,117.6867,36.2171,济南市,莱芜战役纪念馆,细颗粒物(PM2.5),128,144,113,97,67,26,,55,50,61,50,16,13,1.6,1.3
2024-12-04T2100,3494A,117.1673,36.9782,济南市,济阳区政府,颗粒物(PM10),94,137,99,61,53,7,,31,26,77,57,22,16,0.9,0.8
2024-12-04T2100,3495A,117.1171,36.63,济南市,锦屏中学,细颗粒物(PM2.5),70,81,59,51,34,20,,44,37,60,44,7,6,0.8,0.6
2024-12-04T2100,3682A,116.9814,36.6819,济南市,济南四建,细颗粒物(PM2.5),89,117,103,66,47,6,,38,34,87,64,20,12,1.3,1
2024-12-04T2100,1653A,116.6251,35.4302,济宁市,火炬城,细颗粒物(PM2.5),185,171,123,139,106,16,,55,48,70,53,8,9,1.1,0.8
2024-12-04T2100,1655A,116.5491,35.4042,济宁市,电化厂,细颗粒物(PM2.5),153,212,161,117,90,,,57,57,82,54,15,13,1.2,1
2024-12-04T2100,3500A,116.5814,35.3707,济宁市,北湖一中,细颗粒物(PM2.5),175,158,119,132,101,14,,55,50,78,52,3,4,1.1,0.9
2024-12-04T2100,3501A,116.8249,35.5593,济宁市,服务中心,细颗粒物(PM2.5),155,209,172,118,97,38,,43,43,45,57,11,11,0.9,1.1
2024-12-04T2100,3678A,116.5907,35.4054,济宁市,市第七中学,细颗粒物(PM2.5),156,153,120,119,96,51,,70,69,42,44,4,6,1.0,0.9
2024-12-04T2100,2255A,130.2751,46.8028,佳木斯市,佳纺,,23,20,20,16,14,60,,58,58,7,7,11,10,0.4,0.4
2024-12-04T2100,2256A,130.3995,46.8307,佳木斯市,发电厂,,25,19,17,17,14,53,,51,51,11,10,7,7,0.4,0.5
2024-12-04T2100,2257A,130.3258,46.7975,佳木斯市,环保局,,26,24,18,18,17,44,,50,49,19,11,11,11,0.2,0.4
2024-12-04T2100,2258A,130.3648,46.8032,佳木斯市,十一中,,22,20,18,15,14,54,,53,53,15,11,3,2,0.5,0.5
2024-12-04T2100,2259A,130.3794,46.7588,佳木斯市,四丰,,19,19,15,8,9,59,,58,58,5,4,1,1,0.3,0.2
2024-12-04T2100,1252A,120.7436,30.778,嘉兴市,清河小学,,32,32,46,9,18,50,,46,46,28,36,16,16,0.5,0.6
2024-12-04T2100,1253A,120.726,30.7478,嘉兴市,嘉兴学院,,38,38,50,15,24,48,,47,47,30,34,6,6,0.4,0.5
2024-12-04T2100,2872A,120.7846,30.7525,嘉兴市,南湖区残联,,42,42,55,14,23,52,,55,51,29,32,7,7,0.5,0.6
2024-12-04T2100,3407A,120.6916,30.7739,嘉兴市,秀洲住建,,35,35,47,16,25,50,,43,43,28,38,9,9,0.4,0.5
2024-12-04T2100,1945A,98.2908,39.7711,嘉峪关市,气象局,颗粒物(PM10),53,56,54,17,18,42,,77,70,40,21,4,18,0.3,0.3
2024-12-04T2100,2884A,98.2672,39.7978,嘉峪关市,酒钢宾馆,,44,44,55,12,16,64,,78,72,24,22,3,15,0.5,0.6
2024-12-04T2100,3248A,98.2643,39.7724,嘉峪关市,雄关区,颗粒物(PM10),52,53,48,23,20,50,,79,74,37,26,10,12,0.3,0.4
2024-12-04T2100,1383A,113.1064,22.6058,江门市,北街,,50,50,82,22,53,64,,163,146,42,64,7,8,0.7,0.8
2024-12-04T2100,1384A,113.0731,22.5835,江门市,西区,颗粒物(PM10),59,68,93,27,48,60,,161,145,53,80,8,10,0.7,0.8
2024-12-04T2100,1385A,113.0219,22.5311,江门市,圭峰西,颗粒物(PM10),51,51,60,23,40,72,,159,142,31,34,4,5,0.6,0.5
2024-12-04T2100,1386A,113.0828,22.5947,江门市,东湖,,46,46,88,22,44,71,,152,137,33,68,7,9,0.6,0.8
2024-12-04T2100,3311A,113.1075,22.5647,江门市,江海富民,颗粒物(PM10),58,66,105,28,55,79,,156,142,45,76,9,12,1.0,1
2024-12-04T2100,3449A,113.05,22.4667,江门市,新会银湖,,40,40,73,18,52,76,,138,118,30,50,6,6,0.4,0.7
2024-12-04T2100,1828A,113.227,35.2125,焦作市,市环保局,细颗粒物(PM2.5),190,206,131,143,90,3,,35,26,74,42,9,9,1.0,0.7
2024-12-04T2100,1830A,113.1992,35.2590,焦作市,影视城,颗粒物(PM10),64,78,123,36,74,47,,38,35,31,34,12,16,0.6,0.6
2024-12-04T2100,3169A,113.2725,35.2067,焦作市,太极体育中心,细颗粒物(PM2.5),173,201,141,131,81,4,,32,26,74,41,11,11,1.0,0.6
2024-12-04T2100,3335A,113.3137,35.2641,焦作市,马村街道办,细颗粒物(PM2.5),175,199,133,132,91,4,,30,20,62,39,13,16,1.2,0.9
2024-12-04T2100,3336A,113.2465,35.2373,焦作市,焦作技师学院,细颗粒物(PM2.5),175,209,129,132,81,4,,34,25,53,30,13,12,1.4,0.9
2024-12-04T2100,3477A,113.1656,35.2539,焦作市,中站许衡医院,颗粒物(PM10),75,99,124,50,78,22,,32,21,58,48,13,19,1.2,1
2024-12-04T2100,3981A,113.2449,35.1803,焦作市,原李万街道办,细颗粒物(PM2.5),186,227,144,140,92,4,,40,31,71,39,14,13,1.0,0.8
2024-12-04T2100,1708A,116.3701,23.5345,揭阳市,新兴,颗粒物(PM10),54,58,64,33,40,104,,138,134,26,32,7,10,0.5,0.6
2024-12-04T2100,1709A,116.3264,23.5443,揭阳市,西马,颗粒物(PM10),57,63,71,23,44,112,,142,140,15,28,8,10,0.6,0.7
2024-12-04T2100,1710A,116.3611,23.5626,揭阳市,东兴,颗粒物(PM10),59,68,67,30,35,117,,141,140,14,32,9,12,0.7,0.8
2024-12-04T2100,1711A,116.4151,23.5294,揭阳市,渔湖,颗粒物(PM10),53,55,58,29,26,111,,144,139,19,28,9,11,0.6,0.6
2024-12-04T2100,3320A,116.403,23.5699,揭阳市,曲溪,颗粒物(PM10),55,59,55,20,41,113,,142,139,15,30,5,11,0.6,0.7
2024-12-04T2100,1944A,102.1692,38.5167,金昌市,天庆家园,,31,31,59,18,24,84,,87,87,8,16,12,30,0.5,0.7
2024-12-04T2100,3170A,102.1864,38.5253,金昌市,市委党校,,36,36,69,12,23,86,,89,89,8,16,9,29,0.6,0.7
2024-12-04T2100,4022A,102.1647,38.5371,金昌市,金川区人防中心,,41,41,64,18,24,86,,90,90,7,13,10,17,0.5,0.6
2024-12-04T2100,1262A,119.647,29.077,金华市,十五中,细颗粒物(PM2.5),110,114,107,83,81,31,,66,50,53,41,4,4,1.0,0.8
2024-12-04T2100,1263A,119.686,29.1029,金华市,监测站,,,114,116,,67,24,,62,46,58,45,4,4,1.0,0.9
2024-12-04T2100,3659A,119.656,29.1131,金华市,气象局,细颗粒物(PM2.5),89,117,115,66,73,25,,66,49,55,44,4,4,0.4,0.5
2024-12-04T2100,1767A,121.1115,41.0879,锦州市,南山,细颗粒物(PM2.5),105,93,59,79,54,20,,64,43,57,41,27,29,1.6,1.7
2024-12-04T2100,1768A,121.0533,40.8434,锦州市,开发区,颗粒物(PM10),114,178,119,56,46,6,,44,22,77,60,51,24,1.1,1.2
2024-12-04T2100,1769A,121.1836,41.1119,锦州市,百股街道,细颗粒物(PM2.5),83,73,46,61,31,20,,63,43,51,32,16,15,1.4,1
2024-12-04T2100,1770A,121.1178,41.1222,锦州市,天安街道,细颗粒物(PM2.5),144,110,55,110,37,16,,65,44,56,35,63,27,3.2,1.1
2024-12-04T2100,1771A,121.1303,41.1386,锦州市,北湖公园,细颗粒物(PM2.5),69,59,42,50,29,34,,63,49,36,26,33,25,0.9,0.9
2024-12-04T2100,2160A,112.85,35.5051,晋城市,自来水公司,颗粒物(PM10),51,51,77,24,48,50,,50,50,34,47,10,12,1.0,1.4
2024-12-04T2100,2161A,112.8318,35.4936,晋城市,白云商贸,颗粒物(PM10),62,74,79,17,44,55,,60,60,34,43,8,8,0.8,1.2
2024-12-04T2100,2162A,112.8508,35.4887,晋城市,市环保局,颗粒物(PM10),55,59,86,34,53,56,,57,57,31,47,9,10,0.8,1.4
2024-12-04T2100,2163A,112.8676,35.4897,晋城市,技术学院,,44,44,79,27,48,56,,58,58,34,50,11,12,0.9,1.3
2024-12-04T2100,2165A,112.8453,35.546,晋城市,白马寺,颗粒物(PM10),57,64,79,29,50,59,,62,62,23,34,14,16,0.7,1.3
2024-12-04T2100,3620A,112.8271,35.4828,晋城市,泽州一中,,49,49,76,17,44,57,,61,61,33,48,10,10,0.8,1.2
2024-12-04T2100,2171A,112.7532,37.6945,晋中市,锦纶小区,,36,36,72,19,33,53,,57,57,26,39,2,14,0.4,0.7
2024-12-04T2100,2173A,112.7249,37.7067,晋中市,南都小区,颗粒物(PM10),51,52,74,30,39,55,,57,57,22,42,4,16,0.3,0.7
2024-12-04T2100,2174A,112.6991,37.6982,晋中市,榆次区政府,,41,41,85,20,36,54,,57,57,24,40,3,14,0.3,0.6
2024-12-04T2100,2865A,112.7195,37.6828,晋中市,榆次三中,,46,46,82,17,30,52,,57,57,24,37,7,14,0.3,0.6
2024-12-04T2100,2439A,112.2014,31.0481,荆门市,竹园小学,细颗粒物(PM2.5),70,82,84,51,61,53,,70,58,20,20,9,11,0.8,0.6
2024-12-04T2100,2440A,112.1969,30.9891,荆门市,掇刀,细颗粒物(PM2.5),79,73,85,58,64,56,,81,66,29,20,7,7,0.6,0.6
2024-12-04T2100,2441A,112.2213,31.0386,荆门市,石化一小,细颗粒物(PM2.5),77,79,83,56,59,46,,72,56,31,19,9,8,0.6,0.6
2024-12-04T2100,3012A,112.1849,31.0362,荆门市,西山林语,细颗粒物(PM2.5),79,74,75,58,59,60,,84,67,18,14,7,7,0.6,0.5
2024-12-04T2100,3547A,112.1632,31.0138,荆门市,龙泉中学南校,细颗粒物(PM2.5),75,79,78,55,64,53,,91,72,27,20,10,10,0.6,0.6
2024-12-04T2100,1844A,112.2494,30.3197,荆州市,市图书馆,细颗粒物(PM2.5),79,65,66,58,79,43,,57,50,31,22,4,4,0.8,0.9
2024-12-04T2100,1845A,112.2008,30.3544,荆州市,市委党校,细颗粒物(PM2.5),77,,72,56,77,39,,64,54,36,24,4,4,0.8,0.9
2024-12-04T2100,3194A,112.2747,30.3122,荆州市,管委会,,,56,72,46,80,,,58,53,18,21,,6,,0.7
2024-12-04T2100,3548A,112.1655,30.3364,荆州市,学苑路,细颗粒物(PM2.5),65,68,92,47,68,48,,67,56,37,29,8,8,0.7,0.8
2024-12-04T2100,2342A,117.3102,29.3867,景德镇市,王港中学,,,,,,,,,,,,,,,,
2024-12-04T2100,2343A,117.2117,29.2933,景德镇市,老干部活动中心,细颗粒物(PM2.5),107,100,63,80,53,30,,101,84,34,23,19,8,0.8,0.6
2024-12-04T2100,2344A,117.1894,29.2789,景德镇市,兽医站,颗粒物(PM10),83,115,69,55,42,31,,103,82,38,19,26,9,0.7,0.5
2024-12-04T2100,2345A,117.1547,29.2617,景德镇市,台达陶瓷,细颗粒物(PM2.5),84,115,73,62,45,25,,81,63,16,10,24,9,0.8,0.6
2024-12-04T2100,2346A,117.2461,29.2956,景德镇市,陶研所,细颗粒物(PM2.5),89,99,57,66,35,13,,89,70,53,22,5,4,1.0,0.6
2024-12-04T2100,1803A,115.9872,29.6815,九江市,十里,细颗粒物(PM2.5),89,85,92,66,62,46,,68,66,35,33,7,6,0.9,0.8
2024-12-04T2100,1804A,115.9584,29.7046,九江市,茅山头,细颗粒物(PM2.5),88,92,98,65,60,46,,66,64,30,29,6,9,0.9,0.8
2024-12-04T2100,1805A,115.9877,29.7295,九江市,西园,细颗粒物(PM2.5),87,84,87,64,64,46,,65,63,28,29,6,6,0.8,0.6
2024-12-04T2100,1806A,116.0172,29.6547,九江市,五七二七厂,细颗粒物(PM2.5),97,103,115,72,74,47,,69,67,27,25,5,6,1.1,1
2024-12-04T2100,1808A,115.9114,29.6038,九江市,综合工业园,细颗粒物(PM2.5),119,,102,90,99,52,,74,73,31,34,13,13,1.0,0.9
2024-12-04T2100,1809A,116.0721,29.7535,九江市,石化总厂,细颗粒物(PM2.5),95,88,101,71,64,40,,66,61,33,34,10,10,0.9,0.9
2024-12-04T2100,1810A,115.9773,29.5698,九江市,庐山气象台,,47,47,36,24,32,73,,112,100,10,6,7,8,1.1,0.9
2024-12-04T2100,3190A,116.0254,29.6994,九江市,外国语学校,细颗粒物(PM2.5),90,82,100,67,64,40,,62,60,28,28,14,13,0.6,0.6
2024-12-04T2100,2658A,98.5061,39.7443,酒泉市,仓门街子站,,45,31,59,31,24,66,,81,78,14,18,6,14,0.5,0.6
2024-12-04T2100,2659A,98.4989,39.7256,酒泉市,油田生活基地,颗粒物(PM10),86,122,82,41,31,33,,85,80,45,24,6,12,1.0,0.7
2024-12-04T2100,2698A,76.0072,39.4467,喀什地区,巡警大队,颗粒物(PM10),75,99,166,36,58,41,,66,66,57,56,8,8,0.7,1.7
2024-12-04T2100,2699A,75.9755,39.4694,喀什地区,吾办,颗粒物(PM10),77,103,141,31,63,49,,65,65,48,58,4,4,0.8,1.8
2024-12-04T2100,4027A,75.9483,39.4689,喀什地区,老干局,颗粒物(PM10),60,70,166,32,60,39,,66,66,55,57,3,4,1.0,2.2
2024-12-04T2100,1824A,114.3389,34.7781,开封市,肿瘤医院,细颗粒物(PM2.5),124,124,134,94,102,16,,35,31,43,46,2,4,0.6,0.7
2024-12-04T2100,1826A,114.2885,34.7965,开封市,世纪星幼儿园,细颗粒物(PM2.5),125,124,123,95,103,19,,35,33,46,44,3,4,0.6,0.7
2024-12-04T2100,3147A,114.3438,34.8106,开封市,龙亭公园,细颗粒物(PM2.5),120,108,126,91,102,28,,39,38,38,47,1,2,0.7,0.9
2024-12-04T2100,3210A,114.3644,34.7964,开封市,汴京公园,细颗粒物(PM2.5),132,154,150,100,105,17,,35,33,44,48,1,2,0.8,0.8
2024-12-04T2100,3473A,114.2485,34.8306,开封市,技师学院,细颗粒物(PM2.5),122,135,127,92,98,30,,39,38,35,44,4,5,0.8,0.9
2024-12-04T2100,3592A,114.4644,34.7556,开封市,祥符区生态环境局,细颗粒物(PM2.5),139,162,148,106,101,14,,34,30,45,43,1,2,0.6,0.6
2024-12-04T2100,1951A,84.895,45.6094,克拉玛依市,长征新村,,23,23,22,15,12,27,,42,29,22,16,4,4,0.5,0.4
2024-12-04T2100,1952A,84.8988,45.5893,克拉玛依市,南林小区,,26,26,21,18,18,32,,43,32,22,18,1,1,0.6,0.5
2024-12-04T2100,1954A,84.905,44.3396,克拉玛依市,独山子区,,42,32,28,29,27,39,,46,41,24,18,4,4,0.4,0.5
2024-12-04T2100,1955A,85.6979,46.098,克拉玛依市,乌尔禾区商贸楼,,18,,5,6,7,56,,58,58,12,17,3,3,0.3,0.5
2024-12-04T2100,3612A,85.1045,45.6899,克拉玛依市,白碱滩区新站,,15,15,22,7,14,33,,53,33,28,21,7,8,0.7,0.7
2024-12-04T2100,2697A,76.1454,39.7142,克孜勒苏柯尔克孜自治州,市人民政府,颗粒物(PM10),81,111,78,32,34,52,,82,82,44,15,5,8,0.9,0.8
2024-12-04T2100,3665A,76.1658,39.7157,克孜勒苏柯尔克孜自治州,克州文化中心,颗粒物(PM10),76,102,78,29,31,61,,80,80,45,27,9,12,1.0,0.8
2024-12-04T2100,1450A,102.8204,24.8886,昆明市,呈贡新区,,38,,21,26,14,44,,75,68,26,24,6,7,0.4,0.4
2024-12-04T2100,1451A,102.6251,24.9608,昆明市,西山森林公园,,,,,,,,,,,,,,,,
2024-12-04T2100,1452A,102.7252,25.0902,昆明市,龙泉镇,,41,41,25,21,14,5,,77,64,66,32,6,7,0.9,0.6
2024-12-04T2100,1453A,102.7266,25.0375,昆明市,东风东路,,23,23,30,12,19,45,,71,66,21,30,10,9,0.4,0.6
2024-12-04T2100,1454A,102.6742,25.0669,昆明市,金鼎山,,32,22,25,22,16,41,,79,72,35,29,11,14,0.5,0.5
2024-12-04T2100,1455A,102.6644,25.0401,昆明市,碧鸡广场,颗粒物(PM10),61,71,32,39,15,12,,75,63,57,35,8,9,0.9,0.5
2024-12-04T2100,3179A,102.7494,25.0119,昆明市,官渡区博物馆,,25,19,25,17,15,41,,78,71,30,25,8,7,0.4,0.5
2024-12-04T2100,3375A,102.8017,24.8336,昆明市,青年创业园,,24,24,20,12,9,44,,85,78,24,22,9,7,0.6,0.4
2024-12-04T2100,3550A,102.7997,24.9786,昆明市,昆明学院,,21,21,22,11,9,55,,78,74,18,19,8,9,0.3,0.3
2024-12-04T2100,3551A,102.5967,24.6736,昆明市,晋宁区生态环境分局,,45,45,32,22,14,48,,84,79,23,17,1,2,0.3,0.4
2024-12-04T2100,3552A,102.6678,24.9856,昆明市,云天化总部,,16,15,18,9,11,50,,85,79,19,29,7,7,0.2,0.2
2024-12-04T2100,1456A,91.1319,29.6514,拉萨市,八廓街,,,117,36,,18,18,,77,67,105,33,17,8,2.9,0.6
2024-12-04T2100,1457A,91.1221,29.6747,拉萨市,市环保局,颗粒物(PM10),65,79,46,43,25,29,,92,84,59,31,13,8,1.7,1
2024-12-04T2100,1458A,91.0874,29.6475,拉萨市,区监测站,,30,30,22,14,12,57,,83,79,49,30,6,5,0.7,0.6
2024-12-04T2100,1459A,91.1774,29.6541,拉萨市,西藏大学,颗粒物(PM10),55,60,29,33,12,22,,84,76,81,21,7,4,1.4,0.7
2024-12-04T2100,1460A,90.9798,29.6588,拉萨市,区辐射站,颗粒物(PM10),57,63,51,37,29,50,,78,75,54,43,13,10,1.1,0.9
2024-12-04T2100,1461A,91.0834,29.6292,拉萨市,拉萨火车站,,30,18,24,8,13,96,,93,93,15,35,6,5,0.5,0.8
2024-12-04T2100,2520A,109.2203,23.7256,来宾市,来宾技工学校,颗粒物(PM10),65,80,113,41,79,54,,173,151,41,40,7,15,1.1,1
2024-12-04T2100,3535A,109.1781,23.7297,来宾市,兴宾区政府,细颗粒物(PM2.5),68,80,107,49,75,114,,180,168,30,24,10,12,0.9,0.8
2024-12-04T2100,4002A,109.2416,23.7461,来宾市,中南小学,颗粒物(PM10),84,118,128,50,81,16,,164,128,80,49,7,13,1.1,1
2024-12-04T2100,1476A,103.631,36.1031,兰州市,兰炼宾馆,细颗粒物(PM2.5),87,86,69,64,37,12,,61,51,90,41,17,25,1.1,0.6
2024-12-04T2100,1477A,104.1373,35.9454,兰州市,榆中兰大校区,,,,,,,,,,,,,,,,
2024-12-04T2100,1478A,103.8412,36.0726,兰州市,生物制品所,颗粒物(PM10),70,89,60,46,33,5,,67,58,88,42,16,18,0.8,0.5
2024-12-04T2100,1479A,103.831,36.0464,兰州市,铁路设计院,细颗粒物(PM2.5),73,83,63,53,38,18,,56,46,83,48,16,18,1.0,0.7
2024-12-04T2100,3186A,103.7158,36.1058,兰州市,教育港,颗粒物(PM10),66,82,72,41,35,62,,55,53,32,42,20,22,0.6,0.6
2024-12-04T2100,3241A,103.7439,36.0842,兰州市,百合公园,颗粒物(PM10),73,96,61,47,29,6,,56,45,89,46,20,20,1.1,0.7
2024-12-04T2100,3242A,103.9611,35.998,兰州市,和平,颗粒物(PM10),59,67,66,33,31,46,,71,61,42,37,15,22,0.7,0.8
2024-12-04T2100,3245A,103.6633,36.533,兰州新区,新区管委会,颗粒物(PM10),61,72,54,39,36,74,,88,84,18,23,16,23,0.3,0.5
2024-12-04T2100,3246A,103.6975,36.4789,兰州新区,舟曲中学,颗粒物(PM10),62,74,54,30,27,52,,82,76,27,22,14,25,0.3,0.3
2024-12-04T2100,1067A,116.6708,39.5111,廊坊市,药材公司,细颗粒物(PM2.5),108,115,61,81,43,9,,41,34,83,56,6,5,0.9,0.7
2024-12-04T2100,1068A,116.7214,39.5589,廊坊市,开发区,细颗粒物(PM2.5),100,112,61,75,38,11,,42,30,78,56,6,4,0.8,0.6
2024-12-04T2100,1070A,116.7244,39.5269,廊坊市,北华航天学院,细颗粒物(PM2.5),94,113,63,70,38,19,,41,36,71,54,8,6,0.8,0.8
2024-12-04T2100,2919A,116.7022,39.5453,廊坊市,河北工业大学,细颗粒物(PM2.5),98,121,58,73,35,15,,40,34,70,51,8,6,0.8,0.6
2024-12-04T2100,2535A,103.7723,29.5462,乐山市,花湖湾,,,,124,35,92,50,,30,30,18,29,3,3,0.5,0.7
2024-12-04T2100,2536A,103.7627,29.5844,乐山市,牛耳桥,,42,42,108,29,81,42,,25,25,29,44,6,6,0.5,0.8
2024-12-04T2100,2537A,103.7508,29.6006,乐山市,市第三水厂,,39,36,97,27,76,51,,32,32,26,45,5,5,0.4,0.7
2024-12-04T2100,2538A,103.7571,29.5664,乐山市,市监测站,,40,34,94,28,72,50,,31,31,19,31,4,5,0.5,0.7
2024-12-04T2100,3361A,103.7311,29.5628,乐山市,理工大学,,43,36,82,30,71,51,,31,31,21,37,4,5,0.6,0.8
2024-12-04T2100,2598A,100.2143,26.8576,丽江市,西南郊,,,,,,,,,,,,,,,,
2024-12-04T2100,2599A,100.2497,26.8802,丽江市,丽江古城,,44,44,25,21,15,53,,81,76,23,12,10,9,0.9,0.7
2024-12-04T2100,2600A,100.2203,26.8906,丽江市,市中心,,47,47,13,30,9,26,,77,65,52,16,6,7,1.3,0.7
2024-12-04T2100,1267A,119.914,28.4514,丽水市,监测站大楼,,46,46,46,26,39,64,,99,84,19,25,2,2,0.9,0.9
2024-12-04T2100,1268A,119.93,28.4586,丽水市,莲都小学,颗粒物(PM10),53,55,55,29,39,64,,102,84,20,24,4,5,0.5,0.7
2024-12-04T2100,1269A,119.879,28.4231,丽水市,余庄前,,39,39,40,26,30,54,,97,78,15,18,5,5,0.5,0.5
2024-12-04T2100,1173A,119.176,34.5885,连云港市,市环境监测站,细颗粒物(PM2.5),64,63,82,46,34,39,,45,44,46,54,11,12,0.6,0.9
2024-12-04T2100,3000A,119.3581,34.6972,连云港市,德源药业,颗粒物(PM10),71,92,85,39,45,1,,51,28,77,59,9,7,0.7,0.7
2024-12-04T2100,3007A,119.178,34.844,连云港市,新城一中,细颗粒物(PM2.5),69,77,82,50,51,4,,42,28,78,62,11,21,0.6,1.1
2024-12-04T2100,3008A,119.3608,34.7519,连云港市,胡沟管理处,颗粒物(PM10),57,63,65,29,34,12,,63,41,46,29,6,8,0.3,0.4
2024-12-04T2100,3009A,119.1478,34.5911,连云港市,矿山设计院,细颗粒物(PM2.5),67,80,85,48,49,10,,40,35,64,52,9,10,0.9,1.1
2024-12-04T2100,3434A,119.2413,34.6539,连云港市,工贸学校,颗粒物(PM10),53,56,66,36,43,39,,57,52,28,30,10,10,0.7,0.7
2024-12-04T2100,3664A,119.4172,34.7341,连云港市,连云街道,颗粒物(PM10),55,59,55,35,33,43,,59,49,27,29,9,10,0.6,0.7
2024-12-04T2100,2571A,102.3431,27.8099,凉山彝族自治州,青龙寺,,33,33,35,15,14,60,,82,80,10,9,5,5,0.8,0.7
2024-12-04T2100,2572A,102.2721,27.8415,凉山彝族自治州,邛海宾馆,,43,43,45,24,26,50,,74,72,21,15,14,11,0.8,0.7
2024-12-04T2100,2573A,102.2625,27.898,凉山彝族自治州,西昌市政府,,33,33,33,23,25,52,,80,79,11,14,5,6,0.7,0.7
2024-12-04T2100,2574A,102.2685,27.8851,凉山彝族自治州,凉山州政府,,43,43,36,30,24,44,,78,75,20,16,9,11,0.9,0.7
2024-12-04T2100,2575A,102.237,27.8914,凉山彝族自治州,长安,颗粒物(PM10),57,63,51,34,30,44,,76,74,26,24,10,9,0.8,0.6
2024-12-04T2100,2212A,123.2,41.1953,辽阳市,宏伟区,,46,46,32,21,14,22,,49,36,45,22,17,12,1.1,0.8
2024-12-04T2100,2213A,123.1683,41.2495,辽阳市,新华园,颗粒物(PM10),53,56,38,28,17,5,,52,34,79,32,21,12,1.4,1
2024-12-04T2100,2214A,123.2354,41.2639,辽阳市,滨河路,颗粒物(PM10),58,66,40,35,16,11,,52,37,66,25,23,14,0.8,0.6
2024-12-04T2100,2215A,123.149,41.2991,辽阳市,铁西工业园,颗粒物(PM10),60,69,47,33,21,19,,52,34,49,30,21,13,1.3,0.7
2024-12-04T2100,2227A,125.1358,42.8845,辽源市,环保局,,21,21,17,12,5,57,,66,63,13,10,9,8,0.5,0.5
2024-12-04T2100,3239A,125.0764,42.9078,辽源市,银鹰制药,,24,24,30,10,14,55,,66,62,16,11,13,10,0.4,0.4
2024-12-04T2100,1625A,115.9848,36.4372,聊城市,区政府,细颗粒物(PM2.5),180,182,130,136,82,27,,75,67,60,53,7,8,1.2,1
2024-12-04T2100,2878A,116.0072,36.4343,聊城市,聊大东校,细颗粒物(PM2.5),163,195,148,124,93,15,,63,48,77,54,8,10,1.0,0.9
2024-12-04T2100,3200A,115.9819,36.4978,聊城市,监控中心,细颗粒物(PM2.5),203,213,166,153,103,8,,65,51,99,77,10,13,1.2,1
2024-12-04T2100,3513A,116.0445,36.4361,聊城市,九州社区,细颗粒物(PM2.5),169,170,127,128,87,12,,70,60,70,45,12,12,1.0,0.8
2024-12-04T2100,4018A,116.0567,36.4608,聊城市,星美广场,细颗粒物(PM2.5),199,222,153,149,94,7,,72,62,83,48,14,16,1.1,1
2024-12-04T2100,2632A,94.3681,29.6376,林芝市,林芝监测站,,40,40,18,7,5,72,,74,74,1,3,6,6,0.2,0.3
2024-12-04T2100,2633A,94.3616,29.6616,林芝市,林芝人民医院,,29,29,18,10,7,68,,72,72,1,3,6,6,0.2,0.2
2024-12-04T2100,2603A,100.0781,23.8982,临沧市,市环保局,,42,,21,29,15,43,,75,67,16,13,9,9,0.5,0.4
2024-12-04T2100,2604A,100.0894,23.8822,临沧市,市气象局,,39,39,27,25,18,36,,68,64,19,15,8,8,0.7,0.5
2024-12-04T2100,1733A,111.5531,36.0783,临汾市,临钢医院,,25,24,57,17,34,62,,56,56,17,33,6,8,0.3,0.7
2024-12-04T2100,1734A,111.5028,36.0714,临汾市,技工学校,,35,,70,24,45,59,,55,55,22,44,4,8,0.4,0.8
2024-12-04T2100,1736A,111.5018,36.0855,临汾市,市委,,21,21,78,13,37,56,,51,51,20,35,4,7,0.3,0.8
2024-12-04T2100,3018A,111.505,36.1014,临汾市,唐尧大酒店,,28,28,75,13,44,55,,47,47,19,34,8,9,0.5,0.9
2024-12-04T2100,3668A,111.5036,36.0414,临汾市,城南,颗粒物(PM10),53,56,81,16,41,62,,57,57,18,35,4,7,0.5,1
2024-12-04T2100,2667A,103.2069,35.5993,临夏回族自治州,环保局,颗粒物(PM10),74,98,49,15,12,27,,74,68,52,24,16,12,1.8,0.8
2024-12-04T2100,2668A,103.2417,35.6057,临夏回族自治州,建设大厦,颗粒物(PM10),82,114,51,30,16,12,,76,63,63,27,11,13,1.5,0.9
2024-12-04T2100,1618A,118.3429,35.0532,临沂市,沂河小区,细颗粒物(PM2.5),182,185,118,137,75,27,,51,45,65,62,27,17,1.0,1
2024-12-04T2100,1619A,118.295,35.0583,临沂市,鲁南制药厂,细颗粒物(PM2.5),189,212,124,142,77,5,,49,36,78,63,19,15,0.9,0.9
2024-12-04T2100,1620A,118.2794,34.9976,临沂市,新光毛纺厂,细颗粒物(PM2.5),196,193,120,147,74,10,,50,39,78,62,21,16,1.1,1.2
2024-12-04T2100,1621A,118.3956,35.0888,临沂市,河东保险公司,细颗粒物(PM2.5),152,166,118,116,79,37,,57,52,50,51,12,11,0.7,0.8
2024-12-04T2100,3370A,118.3564,35.0215,临沂市,十里堡居委,细颗粒物(PM2.5),156,166,111,119,70,28,,47,41,60,56,19,17,1.1,1.2
2024-12-04T2100,3496A,118.3604,35.1084,临沂市,南坊新区,细颗粒物(PM2.5),156,171,112,119,70,32,,58,51,63,60,20,12,1.1,1.1
2024-12-04T2100,3860A,118.3920,35.0300,临沂市,皇山花园小区,细颗粒物(PM2.5),137,161,125,104,72,33,,44,39,62,70,16,14,1.0,1.2
2024-12-04T2100,1870A,109.4856,24.3895,柳州市,柳东小学,细颗粒物(PM2.5),74,78,74,54,57,121,,161,158,22,23,13,16,0.8,0.7
2024-12-04T2100,1871A,109.4157,24.3277,柳州市,环保监测站,细颗粒物(PM2.5),77,95,86,56,58,79,,164,152,45,34,11,14,1.0,0.9
2024-12-04T2100,1872A,109.389,24.341,柳州市,河西水厂,颗粒物(PM10),86,122,108,62,66,49,,164,150,71,45,12,15,1.4,1.1
2024-12-04T2100,1873A,109.4311,24.2921,柳州市,市四中,细颗粒物(PM2.5),89,115,95,66,57,34,,163,137,83,44,13,16,1.8,1.1
2024-12-04T2100,1874A,109.4006,24.3631,柳州市,市九中,颗粒物(PM10),78,106,92,54,58,102,,166,157,32,29,8,10,0.9,0.9
2024-12-04T2100,1875A,109.4958,24.3134,柳州市,古亭山,细颗粒物(PM2.5),59,56,71,42,48,50,,155,130,80,55,13,25,1.0,1
2024-12-04T2100,3402A,109.5422,24.3996,柳州市,市二中,细颗粒物(PM2.5),105,95,88,79,59,34,,142,119,81,47,10,12,0.9,0.7
2024-12-04T2100,2307A,116.5079,31.737,六安市,监测大楼,细颗粒物(PM2.5),54,49,74,38,62,61,,42,42,12,32,4,5,0.5,0.7
2024-12-04T2100,2308A,116.4738,31.7643,六安市,皖西学院,,49,49,82,34,60,66,,44,44,15,35,4,5,0.5,0.7
2024-12-04T2100,2309A,116.4996,31.7905,六安市,朝阳厂,,46,46,70,31,56,54,,37,37,13,30,3,1,0.5,0.7
2024-12-04T2100,2310A,116.5567,31.7886,六安市,开发区,,50,50,84,31,52,63,,44,44,16,34,3,4,0.5,0.7
2024-12-04T2100,2576A,104.8,26.5892,六盘水市,窑上,,,50,53,34,44,59,,48,46,8,13,4,8,,0.8
2024-12-04T2100,2577A,104.83,26.5917,六盘水市,黄土坡,,39,33,54,27,42,66,,56,46,10,15,8,9,0.5,0.6
2024-12-04T2100,2578A,104.89,26.5939,六盘水市,水钢,,39,39,65,23,50,58,,63,51,19,14,7,7,0.9,0.7
2024-12-04T2100,2579A,104.8475,26.5894,六盘水市,民中,,27,27,47,17,38,52,,61,44,20,15,7,8,0.7,0.7
2024-12-04T2100,2580A,104.9544,26.5506,六盘水市,双水,,38,31,50,26,40,67,,72,59,10,11,7,7,0.6,0.6
2024-12-04T2100,2335A,117.0189,25.1181,龙岩市,龙岩师专,,,,,,,,,,,,,,,,
2024-12-04T2100,2336A,117.0217,25.1033,龙岩市,龙岩市监测站,,29,22,35,20,23,58,,77,74,15,29,6,6,0.5,0.6
2024-12-04T2100,2337A,117.0258,25.0661,龙岩市,闽西职业技术学院,,34,34,53,22,26,55,,74,71,14,25,10,11,0.6,0.5
2024-12-04T2100,2338A,117.0196,25.0306,龙岩市,龙岩学院,,38,31,35,26,24,39,,70,62,19,18,3,3,0.6,0.5
2024-12-04T2100,2665A,105.0822,33.3261,陇南市,汉王镇固水子,,,,,,,,,,,,,,,,
2024-12-04T2100,2885A,104.9339,33.3826,陇南市,滨江中学,颗粒物(PM10),51,52,75,27,37,77,,80,80,17,33,6,11,0.6,1.5
2024-12-04T2100,3247A,104.955,33.371,陇南市,市总工会,颗粒物(PM10),51,51,68,20,33,79,,88,88,8,27,1,3,0.2,0.6
2024-12-04T2100,2487A,111.9589,27.8901,娄底市,电视发射台,细颗粒物(PM2.5),105,80,87,79,87,64,,85,78,23,21,6,7,0.5,0.6
2024-12-04T2100,2488A,111.9975,27.725,娄底市,市监测站,细颗粒物(PM2.5),117,107,141,88,111,56,,84,76,19,21,6,9,0.7,0.7
2024-12-04T2100,2489A,112.0194,27.7314,娄底市,市委党校,细颗粒物(PM2.5),112,90,136,84,106,,,79,76,20,25,4,6,0.6,0.4
2024-12-04T2100,2490A,111.9561,27.7569,娄底市,涟钢,细颗粒物(PM2.5),119,110,150,90,111,55,,79,70,22,25,7,9,0.9,1.2
2024-12-04T2100,2491A,111.9892,27.7044,娄底市,市政府,细颗粒物(PM2.5),119,102,140,90,111,55,,83,74,25,26,6,9,0.8,0.8
2024-12-04T2100,1893A,105.4324,28.9634,泸州市,九狮山,,,,,,,,,,,,,,,,
2024-12-04T2100,1894A,105.4427,28.9063,泸州市,小市上码头,细颗粒物(PM2.5),88,81,124,65,101,10,,22,13,32,33,3,4,0.7,0.7
2024-12-04T2100,1895A,105.4241,28.8573,泸州市,兰田宪桥,细颗粒物(PM2.5),95,,105,71,109,15,,20,20,24,27,2,4,0.7,0.8
2024-12-04T2100,1896A,105.4379,28.8833,泸州市,市环监站,细颗粒物(PM2.5),92,79,119,68,100,9,,17,13,29,32,4,5,0.8,0.8
2024-12-04T2100,3490A,105.3617,28.7703,泸州市,纳溪区环保局,细颗粒物(PM2.5),74,71,100,54,88,16,,9,9,23,36,3,4,0.7,0.8
2024-12-04T2100,2183A,111.1406,37.5211,吕梁市,环保局,,28,28,65,14,21,66,,74,74,10,30,1,3,0.3,0.4
2024-12-04T2100,2185A,111.1297,37.5136,吕梁市,自来水公司,,25,17,89,17,27,63,,73,73,14,30,1,6,0.3,0.4
2024-12-04T2100,2867A,111.1283,37.51,吕梁市,马茂庄小学,,27,27,66,12,22,70,,75,75,10,33,1,3,0.2,0.4
2024-12-04T2100,1812A,112.3931,34.6516,洛阳市,市委党校,"颗粒物(PM10),细颗粒物(PM2.5)",68,85,123,49,78,36,,28,28,37,55,9,8,0.8,0.9
2024-12-04T2100,1814A,112.4657,34.6871,洛阳市,豫西宾馆,颗粒物(PM10),71,91,134,46,71,27,,29,26,45,50,14,9,0.5,0.9
2024-12-04T2100,1815A,112.494,34.6886,洛阳市,河南林校,细颗粒物(PM2.5),73,82,118,53,85,22,,24,21,46,52,12,6,0.7,0.7
2024-12-04T2100,1816A,112.3844,34.623,洛阳市,开发区管委会,细颗粒物(PM2.5),69,62,121,50,80,44,,37,37,27,49,10,10,0.5,0.6
2024-12-04T2100,1817A,112.4267,34.6258,洛阳市,市委新办公区,细颗粒物(PM2.5),73,91,135,53,85,42,,29,29,26,45,9,7,0.6,0.7
2024-12-04T2100,3340A,112.6005,34.6326,洛阳市,伊滨,颗粒物(PM10),108,165,146,51,75,18,,33,26,54,57,8,8,0.9,0.8
2024-12-04T2100,3341A,112.4951,34.6332,洛阳市,中移产业园,颗粒物(PM10),60,70,109,38,79,42,,34,34,32,50,9,8,0.5,0.6
2024-12-04T2100,3593A,112.5736,34.8993,洛阳市,吉利监测站,细颗粒物(PM2.5),105,125,121,79,87,5,,24,15,68,55,6,5,0.8,0.7
2024-12-04T2100,3635A,112.3677,34.662,洛阳市,河科大西苑校区,"颗粒物(PM10),细颗粒物(PM2.5)",70,90,125,51,75,36,,34,34,35,51,10,10,0.7,0.8
2024-12-04T2100,3636A,112.4388,34.6781,洛阳市,英才小学,细颗粒物(PM2.5),67,77,120,48,71,19,,21,20,50,51,12,8,0.6,0.7
2024-12-04T2100,2399A,114.051,33.5699,漯河市,三五一五工厂,细颗粒物(PM2.5),170,168,137,129,98,10,,27,25,40,35,6,7,0.7,0.6
2024-12-04T2100,2400A,114.0055,33.5698,漯河市,漯河大学,细颗粒物(PM2.5),185,185,142,139,94,5,,24,23,52,40,6,6,0.9,0.8
2024-12-04T2100,2401A,114.0138,33.5828,漯河市,市水利局,细颗粒物(PM2.5),163,171,140,124,94,7,,25,24,41,34,7,7,0.7,0.6
2024-12-04T2100,2402A,114.0261,33.5698,漯河市,市广电局,细颗粒物(PM2.5),162,159,133,123,98,15,,28,27,37,35,6,7,0.8,0.7
2024-12-04T2100,3478A,113.9749,33.5664,漯河市,市图书馆,细颗粒物(PM2.5),172,197,147,130,96,9,,23,22,,37,5,5,0.7,0.9
2024-12-04T2100,3479A,114.0967,33.5906,漯河市,召陵区卫健委,细颗粒物(PM2.5),155,178,157,118,104,8,,22,20,48,39,10,9,0.8,0.9
2024-12-04T2100,1798A,118.5092,31.6837,马鞍山市,湖东路四小,,50,44,52,35,26,15,,59,32,48,29,4,5,0.9,0.9
2024-12-04T2100,1799A,118.5024,31.6449,马鞍山市,开发区,细颗粒物(PM2.5),64,52,56,46,36,13,,55,26,59,35,6,8,0.8,0.8
2024-12-04T2100,1800A,118.5228,31.7231,马鞍山市,慈湖,细颗粒物(PM2.5),63,,46,45,34,14,,61,25,48,30,6,8,0.9,0.9
2024-12-04T2100,1802A,118.6245,31.7241,马鞍山市,濮塘,细颗粒物(PM2.5),57,46,52,40,31,19,,62,33,42,27,8,10,0.7,0.7
2024-12-04T2100,3633A,118.4918,31.6809,马鞍山市,雨山,,46,38,53,32,27,15,,58,29,46,28,8,8,0.7,0.7
2024-12-04T2100,1686A,111.0286,21.4688,茂名市,电白南海,,48,48,62,14,31,115,,130,112,14,22,5,9,0.5,0.6
2024-12-04T2100,1687A,110.9294,21.6533,茂名市,茂石化七小,,44,44,69,24,40,100,,145,116,12,18,7,12,0.7,0.8
2024-12-04T2100,1688A,110.9107,21.6687,茂名市,健康路,,44,44,61,19,37,107,,160,124,13,18,11,16,0.6,0.7
2024-12-04T2100,1689A,110.8592,21.6828,茂名市,高岭,颗粒物(PM10),52,53,86,22,45,94,,136,111,18,27,11,23,0.6,0.8
2024-12-04T2100,3450A,111.01,21.5165,茂名市,电白水东,,41,41,58,22,34,105,,120,103,6,14,12,12,0.7,0.8
2024-12-04T2100,2539A,104.0308,30.0478,眉山市,黑龙滩水库,,47,47,116,31,66,65,,52,52,9,20,2,7,0.4,0.5
2024-12-04T2100,2540A,103.8416,30.0874,眉山市,气象局,颗粒物(PM10),55,59,93,36,81,19,,38,38,51,40,4,5,0.5,0.6
2024-12-04T2100,3137A,103.8578,30.0744,眉山市,市委党校,,48,48,93,29,71,28,,36,36,47,42,5,6,0.5,0.7
2024-12-04T2100,3148A,103.8291,30.0564,眉山市,区人社局,,47,47,78,29,74,37,,38,38,42,47,4,6,0.6,0.8
2024-12-04T2100,1690A,116.1231,24.3284,梅州市,梅江月梅,颗粒物(PM10),66,82,53,39,28,8,,93,76,62,27,10,8,0.7,0.7
2024-12-04T2100,1691A,116.0797,24.2719,梅州市,梅县新城,颗粒物(PM10),66,82,60,46,35,5,,82,59,66,37,4,4,0.8,0.7
2024-12-04T2100,1692A,116.1248,24.2654,梅州市,环境监控中心,,50,50,52,24,31,7,,82,62,65,38,6,9,0.7,0.7
2024-12-04T2100,3315A,116.1233,24.2991,梅州市,梅龙,,46,46,47,27,27,23,,81,64,42,33,6,6,0.8,0.8
2024-12-04T2100,1878A,104.7778,31.4741,绵阳市,富乐山,,45,45,50,31,38,0,,63,59,72,27,2,3,0.8,0.6
2024-12-04T2100,1879A,104.7563,31.4535,绵阳市,市人大,细颗粒物(PM2.5),73,77,63,53,41,3,,45,41,79,42,3,2,1.1,0.6
2024-12-04T2100,1880A,104.6697,31.4668,绵阳市,高新区自来水公司,颗粒物(PM10),82,114,68,46,38,3,,53,47,70,40,7,5,0.8,0.7
2024-12-04T2100,1881A,104.7287,31.5075,绵阳市,三水厂,细颗粒物(PM2.5),70,78,68,51,47,4,,52,48,63,38,8,8,0.8,0.6
2024-12-04T2100,3491A,104.69,31.5322,绵阳市,西科大附属小学,细颗粒物(PM2.5),85,88,65,63,48,7,,52,46,57,35,6,6,0.9,0.8
2024-12-04T2100,3492A,104.5648,31.5343,绵阳市,安州区旅游局,细颗粒物(PM2.5),89,98,64,66,49,7,,58,54,76,34,7,7,1.0,0.9
2024-12-04T2100,1784A,129.61,44.561,牡丹江市,环保大楼,,40,,25,28,18,55,,54,50,16,13,6,6,0.4,0.3
2024-12-04T2100,1785A,129.6115,44.5782,牡丹江市,文化广场,,35,28,29,24,20,59,,52,48,15,18,10,10,0.5,0.5
2024-12-04T2100,1786A,129.5904,44.5963,牡丹江市,第一医院,细颗粒物(PM2.5),59,,26,42,25,66,,64,63,12,15,6,6,0.4,0.4
2024-12-04T2100,1787A,129.6364,44.6075,牡丹江市,机车工厂,,26,26,29,17,18,54,,47,41,17,22,6,10,0.4,0.4
2024-12-04T2100,1788A,129.6386,44.5462,牡丹江市,第一中学,,23,21,22,16,17,57,,57,52,13,13,5,5,0.3,0.3
2024-12-04T2100,2531A,105.0703,29.61,内江市,市监测站,细颗粒物(PM2.5),53,37,85,37,80,34,,27,27,19,24,5,6,0.7,0.8
2024-12-04T2100,2532A,105.0717,29.5947,内江市,东兴区政府,,46,46,80,31,74,35,,28,28,26,30,5,6,0.7,0.8
2024-12-04T2100,2533A,105.0653,29.5817,内江市,内江二中,,39,34,92,27,78,32,,28,28,28,27,7,7,0.6,0.7
2024-12-04T2100,2534A,105.0406,29.5822,内江市,内江日报社,,,51,83,28,78,,,29,29,,28,6,11,0.7,0.7
2024-12-04T2100,2628A,92.0657,31.4846,那曲市,那曲监测站,颗粒物(PM10),57,63,71,13,42,64,,88,88,38,26,12,10,1.2,1.5
2024-12-04T2100,3128A,92.0506,31.4797,那曲市,那曲会议中心,颗粒物(PM10),73,95,71,18,30,91,,96,96,2,18,2,6,0.8,1.1
2024-12-04T2100,1290A,115.8931,28.6843,南昌市,省外办,细颗粒物(PM2.5),122,138,135,92,100,55,,88,82,22,26,5,5,0.9,0.9
2024-12-04T2100,1291A,115.8886,28.7003,南昌市,省林业公司,细颗粒物(PM2.5),113,127,130,85,92,50,,90,83,27,26,8,8,0.6,0.8
2024-12-04T2100,1292A,115.8126,28.7442,南昌市,林科所,细颗粒物(PM2.5),132,134,120,100,87,70,,92,88,36,31,5,7,1.1,1.1
2024-12-04T2100,1294A,115.8518,28.687,南昌市,建工学校,颗粒物(PM10),89,128,135,64,76,58,,87,82,36,32,7,8,0.8,0.8
2024-12-04T2100,1295A,115.8921,28.6424,南昌市,象湖,细颗粒物(PM2.5),112,101,104,84,90,65,,98,93,32,31,6,7,1.1,1.2
2024-12-04T2100,1296A,115.7423,28.7996,南昌市,武术学校,细颗粒物(PM2.5),83,109,90,61,59,44,,69,62,23,16,3,3,0.9,0.8
2024-12-04T2100,1298A,115.9314,28.6842,南昌市,省站,细颗粒物(PM2.5),107,130,136,80,93,55,,88,82,34,32,9,11,0.7,0.8
2024-12-04T2100,3046A,115.9084,28.6062,南昌市,机电学校,细颗粒物(PM2.5),113,139,142,85,92,63,,94,90,26,26,10,11,0.8,0.9
2024-12-04T2100,3690A,115.9721,28.7031,南昌市,外国语学校,细颗粒物(PM2.5),97,123,135,72,86,51,,85,79,27,27,6,7,0.8,0.9
2024-12-04T2100,1905A,106.056,30.8064,南充市,西山风景区,,45,37,44,31,46,44,,46,46,19,10,1,2,0.9,0.9
2024-12-04T2100,1906A,106.0789,30.8023,南充市,南充市委,,49,44,53,34,44,25,,45,44,38,25,3,4,0.5,0.5
2024-12-04T2100,1907A,106.1031,30.8217,南充市,南充炼油厂,细颗粒物(PM2.5),57,50,59,40,47,38,,52,51,28,22,4,4,0.7,0.7
2024-12-04T2100,1908A,106.1064,30.7856,南充市,高坪区监测站,,50,50,58,31,45,40,,50,50,29,23,4,4,0.5,0.5
2024-12-04T2100,1909A,106.0642,30.7636,南充市,嘉陵区环保局,,49,48,59,34,43,38,,47,47,37,28,4,4,0.6,0.7
2024-12-04T2100,1910A,106.1087,30.8388,南充市,市环境监测站,"颗粒物(PM10),细颗粒物(PM2.5)",54,58,64,38,49,38,,52,50,26,18,4,4,0.4,0.4
2024-12-04T2100,1151A,118.8086,32.1065,南京市,迈皋桥,,32,32,43,17,22,44,,52,36,27,30,4,6,0.4,0.4
2024-12-04T2100,1152A,118.7538,32.0551,南京市,草场门,,29,29,44,19,24,49,,52,36,27,32,3,4,0.6,0.6
2024-12-04T2100,1153A,118.7794,32.0745,南京市,山西路,,41,41,50,22,27,64,,63,47,37,45,3,4,0.2,0.3
2024-12-04T2100,1154A,118.7752,32.0023,南京市,中华门,,41,41,45,24,22,47,,61,36,32,30,4,4,0.6,0.6
2024-12-04T2100,1155A,118.8109,32.0309,南京市,瑞金路,,35,34,48,24,22,37,,57,30,28,24,4,5,0.4,0.4
2024-12-04T2100,1156A,118.7997,32.0754,南京市,玄武湖,,40,40,49,18,22,36,,41,31,42,42,6,7,0.4,0.2
2024-12-04T2100,1157A,118.6414,32.0931,南京市,浦口,,49,49,58,26,28,50,,44,38,18,32,6,7,0.7,0.7
2024-12-04T2100,1158A,118.7356,31.9996,南京市,奥体中心,,39,35,51,27,25,52,,64,38,34,33,8,8,0.4,0.4
2024-12-04T2100,1159A,118.9125,32.1028,南京市,仙林大学城,,42,31,46,29,26,42,,50,28,29,32,5,6,0.5,0.5
2024-12-04T2100,3422A,118.8436,31.9198,南京市,江宁彩虹桥,,35,33,46,24,21,36,,61,33,36,29,5,6,0.3,0.3
2024-12-04T2100,3423A,119.0138,31.6494,南京市,溧水永阳,,41,41,48,26,26,23,,53,40,41,28,4,4,0.3,0.3
2024-12-04T2100,3424A,118.879,31.3302,南京市,高淳老职中,细颗粒物(PM2.5),54,54,62,38,40,32,,57,49,33,29,5,7,0.7,0.8
2024-12-04T2100,3427A,118.8554,32.3578,南京市,六合雄州,,38,38,42,26,22,31,,46,38,31,17,5,6,0.5,0.6
2024-12-04T2100,1401A,108.3103,22.7881,南宁市,二十一中,细颗粒物(PM2.5),64,57,70,46,47,124,,164,155,31,29,7,7,1.0,0.9
2024-12-04T2100,1402A,108.3141,22.8528,南宁市,北湖,细颗粒物(PM2.5),69,86,85,50,56,49,,156,131,83,49,7,11,1.2,1
2024-12-04T2100,1403A,108.3206,22.8225,南宁市,市监测站,,,78,78,48,50,112,,160,146,35,34,11,14,,0.9
2024-12-04T2100,1404A,108.3829,22.8037,南宁市,大自然花园,细颗粒物(PM2.5),79,78,77,58,55,95,,162,142,44,30,8,10,0.6,0.6
2024-12-04T2100,1405A,108.4394,22.7904,南宁市,仙葫,颗粒物(PM10),71,91,78,49,63,72,,150,131,38,35,6,8,0.8,0.8
2024-12-04T2100,1406A,108.2397,22.8467,南宁市,区农职院,"颗粒物(PM10),细颗粒物(PM2.5)",77,104,88,56,53,39,,165,133,70,46,8,13,0.7,0.7
2024-12-04T2100,1407A,108.3275,22.735,南宁市,英华嘉园,细颗粒物(PM2.5),97,138,83,72,51,19,,143,113,108,46,8,10,1.1,0.8
2024-12-04T2100,1408A,108.2257,22.7757,南宁市,沙井镇街道办,颗粒物(PM10),99,148,107,57,49,28,,142,106,104,63,8,9,1.0,0.9
2024-12-04T2100,3401A,108.4834,22.7618,南宁市,红星社区,细颗粒物(PM2.5),78,102,90,57,61,69,,160,137,44,37,8,9,0.8,0.8
2024-12-04T2100,2331A,118.0966,26.6761,南平市,茫荡山,,,,,,,,,,,,,,,,
2024-12-04T2100,2332A,118.1681,26.6369,南平市,南平市监测站,,43,40,41,30,33,42,,85,76,29,26,4,5,0.8,0.7
2024-12-04T2100,2333A,118.1825,26.6489,南平市,南平铝业有限公司,,38,34,38,26,30,27,,68,60,38,27,6,5,0.6,0.5
2024-12-04T2100,2334A,118.1756,26.6272,南平市,南平七中,,40,40,39,27,28,38,,89,80,27,22,4,5,0.7,0.5
2024-12-04T2100,1168A,120.9098,31.9663,南通市,狼山街道,,25,25,34,11,14,59,,77,73,22,16,7,7,0.3,0.3
2024-12-04T2100,1169A,120.86,32.0005,南通市,虹桥,,29,29,33,11,19,59,,71,68,20,18,5,6,0.3,0.4
2024-12-04T2100,1170A,120.87,32.02,南通市,城中,,35,35,40,16,18,54,,72,66,29,24,7,7,0.4,0.4
2024-12-04T2100,1171A,120.94,31.93,南通市,星湖花园,,23,23,29,8,13,61,,72,69,21,21,4,5,0.3,0.3
2024-12-04T2100,1172A,120.81,32.0417,南通市,紫琅学院,,41,41,37,17,18,37,,66,58,39,25,3,3,0.5,0.5
2024-12-04T2100,3291A,121.067,32.062,南通市,通州监测站,,36,36,33,19,14,75,,84,81,12,11,3,3,0.3,0.3
2024-12-04T2100,3432A,120.9348,31.9883,南通市,环境教育馆,,27,27,33,13,15,52,,81,73,26,19,3,4,0.4,0.5
2024-12-04T2100,2404A,112.5224,33.0122,南阳市,瓦房庄,细颗粒物(PM2.5),160,129,129,122,109,17,,30,28,37,37,6,6,0.8,0.7
2024-12-04T2100,2405A,112.5003,32.9735,南阳市,汉画馆,细颗粒物(PM2.5),140,134,129,107,95,4,,30,25,47,38,6,6,1.0,0.9
2024-12-04T2100,2406A,112.5573,33.027,南阳市,气象站,细颗粒物(PM2.5),144,130,133,110,101,21,,28,27,37,43,4,5,1.1,1
2024-12-04T2100,2407A,112.5481,32.9689,南阳市,理工学院,细颗粒物(PM2.5),147,131,129,112,103,9,,22,20,37,38,5,5,0.8,0.7
2024-12-04T2100,4008A,112.5234,32.9922,南阳市,卧龙区政府,细颗粒物(PM2.5),145,136,134,111,100,13,,29,27,40,39,4,4,0.7,0.7
2024-12-04T2100,1234A,121.8358,29.911,宁波市,区环保大楼,,34,34,52,17,27,70,,78,70,32,33,7,9,0.5,0.6
2024-12-04T2100,1235A,121.56,29.82,宁波市,万里学院,,40,40,66,20,34,44,,77,67,46,40,8,9,0.6,0.7
2024-12-04T2100,1236A,121.713,29.9572,宁波市,龙赛医院,,33,33,49,14,25,61,,74,66,38,36,10,10,0.5,0.6
2024-12-04T2100,1239A,121.633,29.7733,宁波市,钱湖水厂,,23,21,50,12,29,71,,90,82,14,24,6,7,0.7,0.9
2024-12-04T2100,1240A,121.5856,29.8635,宁波市,太古小学,,44,44,62,19,31,52,,70,64,42,40,10,10,0.5,0.7
2024-12-04T2100,1241A,121.524,29.8674,宁波市,市环境监测中心,,34,34,52,13,26,54,,72,61,39,38,9,8,0.8,0.9
2024-12-04T2100,2871A,121.6147,29.9017,宁波市,万里国际学校,,46,46,63,16,25,49,,73,60,47,47,8,9,0.5,0.6
2024-12-04T2100,3710A,121.5594,29.8975,宁波市,白沙活动中心,,42,42,56,15,24,48,,75,63,42,36,9,10,0.6,0.7
2024-12-04T2100,2339A,119.5001,26.6946,宁德市,金涵水库,,,,,,,,,,,,,,,,
2024-12-04T2100,2341A,119.5388,26.6612,宁德市,宁德市监测站,,48,44,46,33,34,106,,93,93,17,26,2,5,0.4,0.5
2024-12-04T2100,3209A,119.5231,26.6562,宁德市,宁德一中,,,42,43,30,29,107,,99,99,,17,2,4,0.4,0.5
2024-12-04T2100,2618A,98.8601,25.8567,怒江傈僳族自治州,州监测站,,43,43,30,17,12,48,,75,72,24,12,5,5,0.5,0.4
2024-12-04T2100,2619A,98.8546,25.8417,怒江傈僳族自治州,泸水一中,,40,40,24,20,14,17,,62,53,37,19,7,6,1.0,0.6
2024-12-04T2100,1888A,101.6891,26.571,攀枝花市,弄弄坪,颗粒物(PM10),53,56,47,33,28,59,,71,71,27,31,21,20,0.6,1
2024-12-04T2100,1889A,101.5769,26.5928,攀枝花市,河门口,颗粒物(PM10),51,51,51,29,32,54,,78,77,30,33,14,17,1.0,1.5
2024-12-04T2100,1890A,101.7169,26.585,攀枝花市,炳草岗,颗粒物(PM10),55,60,54,27,29,34,,78,74,54,40,19,20,0.8,0.8
2024-12-04T2100,1891A,101.7369,26.5008,攀枝花市,仁和,颗粒物(PM10),53,56,45,30,25,40,,80,77,31,26,10,14,0.5,0.8
2024-12-04T2100,2835A,101.7227,26.567,攀枝花市,四十中小,颗粒物(PM10),52,53,52,32,29,28,,70,65,66,46,8,11,1.3,0.9
2024-12-04T2100,1604A,122.0303,41.1489,盘锦市,开发区,,30,29,38,21,22,27,,59,44,43,34,10,12,0.5,0.9
2024-12-04T2100,1605A,122.0485,41.0883,盘锦市,兴隆台,,46,,39,32,24,11,,58,37,59,42,11,15,0.6,0.8
2024-12-04T2100,1606A,121.8297,41.1028,盘锦市,新生街道,,30,12,26,8,15,10,,68,56,60,34,9,12,0.3,0.5
2024-12-04T2100,1832A,113.3257,33.742,平顶山市,新华旅馆,细颗粒物(PM2.5),179,198,198,135,120,7,,16,15,52,49,7,8,0.9,0.8
2024-12-04T2100,1833A,113.2919,33.737,平顶山市,规划设计院,细颗粒物(PM2.5),192,215,209,144,132,10,,19,19,51,47,5,6,1.2,1
2024-12-04T2100,1834A,113.182,33.774,平顶山市,平顶山工学院,细颗粒物(PM2.5),156,184,184,119,117,19,,22,22,32,43,7,8,1.0,1
2024-12-04T2100,3204A,113.3025,33.73,平顶山市,规划局,细颗粒物(PM2.5),193,190,190,145,131,5,,14,14,52,47,7,7,1.2,1.1
2024-12-04T2100,3594A,112.8867,33.9116,平顶山市,石龙区,细颗粒物(PM2.5),145,183,169,111,110,2,,31,27,64,44,12,12,1.2,1.1
2024-12-04T2100,2656A,106.6692,35.5461,平凉市,聚贤嘉苑,颗粒物(PM10),51,51,48,29,24,21,,101,86,80,24,10,9,0.4,0.3
2024-12-04T2100,2657A,106.7021,35.5307,平凉市,博物馆,颗粒物(PM10),66,81,57,35,24,52,,104,96,33,14,13,11,0.8,0.5
2024-12-04T2100,2347A,114.0997,27.5002,萍乡市,武功山,细颗粒物(PM2.5),110,125,64,83,39,64,,107,103,18,12,11,12,0.5,0.3
2024-12-04T2100,2348A,113.8385,27.6434,萍乡市,中医院,细颗粒物(PM2.5),149,167,155,114,97,30,,95,82,39,41,12,19,1.1,1.4
2024-12-04T2100,2349A,113.8493,27.6253,萍乡市,市政府车库,细颗粒物(PM2.5),165,141,122,125,96,33,,100,83,32,32,14,17,0.9,1
2024-12-04T2100,2350A,113.8676,27.6435,萍乡市,市环保局,细颗粒物(PM2.5),132,144,124,100,83,38,,92,82,34,33,14,23,1.0,1.2
2024-12-04T2100,2351A,113.866,27.6198,萍乡市,安源区政府,细颗粒物(PM2.5),169,160,125,128,90,37,,94,87,34,33,6,20,0.8,1.2
2024-12-04T2100,2319A,119.0141,25.4325,莆田市,荔城区仓后路,,43,43,37,24,21,107,,106,105,9,10,1,2,0.5,0.5
2024-12-04T2100,2320A,119.0015,25.4553,莆田市,莆田市监测站,,49,49,32,22,19,109,,110,110,7,7,2,3,0.3,0.4
2024-12-04T2100,2321A,119.1119,25.4561,莆田市,涵江区六中,,36,34,39,22,21,114,,114,113,8,9,2,2,0.3,0.3
2024-12-04T2100,2322A,119.1013,25.3215,莆田市,秀屿区政府,,36,36,40,24,24,112,,116,115,10,12,1,2,0.4,0.4
2024-12-04T2100,2323A,118.981,25.4792,莆田市,东圳水库,,,,,,,,,,,,,,,,
2024-12-04T2100,2392A,115.0312,35.7636,濮阳市,环保局,细颗粒物(PM2.5),128,108,106,97,87,25,,55,50,50,42,1,2,0.8,0.8
2024-12-04T2100,2394A,115.0574,35.7609,濮阳市,油田运输公司,细颗粒物(PM2.5),133,148,133,101,90,23,,54,48,47,43,2,3,1.0,0.9
2024-12-04T2100,2395A,115.0866,35.7754,濮阳市,油田物探公司,细颗粒物(PM2.5),148,159,138,113,92,26,,56,49,44,41,3,3,0.9,0.8
2024-12-04T2100,3021A,115,35.7668,濮阳市,濮水河管理处,细颗粒物(PM2.5),108,126,134,81,83,6,,53,37,34,38,3,3,0.7,0.7
2024-12-04T2100,2601A,100.98,22.7633,普洱市,市环保局,,,,29,,13,31,,60,55,11,12,6,6,0.5,0.3
2024-12-04T2100,2602A,100.9817,22.8322,普洱市,普洱第二中学,,50,50,28,19,13,22,,58,48,15,14,6,7,0.6,0.5
2024-12-04T2100,2262A,131.0518,45.8751,七台河市,新一中,,20,17,21,12,11,63,,69,68,14,12,10,11,1.5,1.3
2024-12-04T2100,3345A,131.0577,45.7879,七台河市,中波台,,18,18,19,12,12,53,,51,45,16,21,8,9,0.6,0.6
2024-12-04T2100,3637A,131.0176,45.7761,七台河市,人民广场,,25,21,19,17,16,54,,53,45,20,22,7,7,0.5,0.5
2024-12-04T2100,3684A,130.8781,45.8222,七台河市,新建矿广场,,35,,15,24,19,49,,53,50,21,22,3,3,0.5,0.4
2024-12-04T2100,1779A,123.9305,47.3636,齐齐哈尔市,安居小区,,,,21,,12,56,,64,56,18,14,7,3,,0.5
2024-12-04T2100,1780A,123.9488,47.3386,齐齐哈尔市,中心广场,,19,16,13,3,9,60,,58,56,10,12,4,5,0.5,0.4
2024-12-04T2100,1781A,123.9483,47.3227,齐齐哈尔市,农牧车辆厂,,20,,19,11,8,62,,57,56,8,15,5,7,0.3,0.4
2024-12-04T2100,1783A,123.945,47.2988,齐齐哈尔市,市环境监测站,,21,,19,8,10,65,,62,60,8,12,2,3,0.4,0.4
2024-12-04T2100,3662A,123.6333,47.2075,齐齐哈尔市,富区青少年活动中心,,17,12,32,8,17,54,,50,47,10,20,7,12,0.5,0.7
2024-12-04T2100,2591A,107.9783,26.5747,黔东南苗族侗族自治州,市环境监测站,细颗粒物(PM2.5),84,71,85,62,71,55,,58,55,19,17,2,3,0.7,0.8
2024-12-04T2100,2881A,107.8908,26.5311,黔东南苗族侗族自治州,凯里学院,细颗粒物(PM2.5),75,56,72,55,64,60,,64,59,18,16,3,4,0.7,0.7
2024-12-04T2100,2593A,107.5228,26.2403,黔南布依族苗族自治州,小围寨,,25,22,37,17,34,51,,38,35,5,6,6,5,0.8,0.6
2024-12-04T2100,3538A,107.5175,26.2978,黔南布依族苗族自治州,沙坝,,20,17,47,14,37,58,,42,42,8,11,4,4,0.6,0.9
2024-12-04T2100,2589A,104.9022,25.0925,黔西南布依族苗族自治州,场坝街,细颗粒物(PM2.5),69,55,45,50,36,74,,74,74,8,12,5,3,0.4,0.4
2024-12-04T2100,2590A,104.8811,25.0992,黔西南布依族苗族自治州,坪东大道,细颗粒物(PM2.5),68,,40,49,35,68,,71,71,10,13,3,3,0.4,0.4
2024-12-04T2100,2502A,108.6236,21.9667,钦州市,市环保站,"颗粒物(PM10),细颗粒物(PM2.5)",92,134,88,68,42,110,,188,178,57,39,11,11,1.2,1
2024-12-04T2100,2503A,108.6549,21.9481,钦州市,沙埠小学,颗粒物(PM10),107,163,103,74,49,81,,196,177,78,51,11,11,0.9,0.8
2024-12-04T2100,2504A,108.5989,21.7431,钦州市,港区一小,颗粒物(PM10),91,131,111,39,43,62,,196,157,100,49,9,12,0.8,1
2024-12-04T2100,3404A,108.5959,21.9633,钦州市,北职校,细颗粒物(PM2.5),78,87,77,57,48,129,,193,185,31,34,12,15,0.9,0.9
2024-12-04T2100,1042A,119.5134,39.8207,秦皇岛市,北戴河环保局,,30,30,17,14,12,38,,66,58,33,19,1,2,0.7,0.4
2024-12-04T2100,1043A,119.7493,40.0116,秦皇岛市,第一关,,43,22,16,15,16,3,,69,46,85,36,7,4,0.6,0.3
2024-12-04T2100,1044A,119.5897,39.9499,秦皇岛市,监测站,,40,40,28,15,16,30,,60,49,42,29,5,3,0.6,0.4
2024-12-04T2100,1046A,119.5251,39.9041,秦皇岛市,建设大厦,,35,,26,24,15,26,,60,50,44,32,6,2,0.6,0.3
2024-12-04T2100,3132A,119.610547,39.943889,秦皇岛市,文明里,,40,40,30,24,16,31,,59,50,44,31,6,4,0.5,0.3
2024-12-04T2100,1307A,120.6659,36.2403,青岛市,仰口,细颗粒物(PM2.5),54,52,37,38,26,63,,71,66,24,17,11,10,0.4,0.3
2024-12-04T2100,1310A,120.4134,36.0658,青岛市,市南区东部子站,颗粒物(PM10),69,88,67,41,32,8,,68,46,88,51,13,13,1.1,0.8
2024-12-04T2100,1311A,120.3664,36.1032,青岛市,四方区子站,细颗粒物(PM2.5),62,70,68,44,45,7,,71,46,89,65,13,14,1.0,0.9
2024-12-04T2100,1312A,120.2994,36.054,青岛市,市南区西部子站,细颗粒物(PM2.5),53,53,61,37,36,46,,66,65,43,49,12,13,0.8,0.8
2024-12-04T2100,1313A,120.4581,36.0858,青岛市,崂山区子站,颗粒物(PM10),64,78,57,41,31,15,,73,50,76,48,13,12,0.8,0.8
2024-12-04T2100,1314A,120.1983,35.9608,青岛市,黄岛区子站,细颗粒物(PM2.5),62,70,54,44,32,11,,53,39,86,59,10,10,0.9,0.7
2024-12-04T2100,1315A,120.3999,36.3083,青岛市,城阳区子站,颗粒物(PM10),81,112,94,56,48,9,,54,35,83,59,18,14,1.3,1.3
2024-12-04T2100,1966A,120.0405,35.8735,青岛市,黄岛区4号,细颗粒物(PM2.5),73,88,49,53,25,15,,63,44,83,40,12,10,0.9,0.6
2024-12-04T2100,3362A,120.5014,36.4034,青岛市,即墨2号,细颗粒物(PM2.5),82,103,93,60,55,14,,50,34,77,56,22,17,1.2,1.1
2024-12-04T2100,3642A,120.3503,36.0736,青岛市,市北区南部,颗粒物(PM10),61,71,77,39,37,11,,63,44,84,69,16,13,0.8,0.7
2024-12-04T2100,3643A,120.3948,36.1805,青岛市,李沧区北部,细颗粒物(PM2.5),79,90,78,58,49,11,,58,34,84,60,18,16,1.0,0.9
2024-12-04T2100,1702A,113.0426,23.691,清远市,环保大楼,细颗粒物(PM2.5),60,50,38,43,37,47,,123,99,48,32,6,8,0.9,0.8
2024-12-04T2100,1703A,113.0208,23.7106,清远市,凤城街办,"颗粒物(PM10),细颗粒物(PM2.5)",57,64,50,40,33,57,,120,99,44,38,10,12,1.1,0.9
2024-12-04T2100,3025A,113.0477,23.6344,清远市,技师学院,细颗粒物(PM2.5),82,104,63,60,36,6,,117,93,94,46,10,12,1.3,0.9
2024-12-04T2100,3318A,112.9903,23.7403,清远市,清新太和,,,37,48,,29,99,,118,117,,27,4,6,0.6,0.7
