timepoint,stationcode,longitude,latitude,area,positionname,primarypollutant,aqi,pm10,pm10_24h,pm2_5,pm2_5_24h,o3,o3_24h,o3_8h,o3_8h_24h,no2,no2_24h,so2,so2_24h,co,co_24h
2026-04-26T1700,2568A,102.2503,31.8896,阿坝藏族羌族自治州,马师校,,32,19,29,3,8,100,100,83,83,3,4,6,6,0.2,0.3
2026-04-26T1700,3994A,102.2174,31.9016,阿坝藏族羌族自治州,马尔康中学西区,,30,9,24,6,9,95,95,85,85,5,5,4,4,0.3,0.3
2026-04-26T1700,2695A,80.2899,41.1684,阿克苏地区,电视台,颗粒物(PM10),63,67,94,18,29,123,123,96,96,7,19,3,3,0.2,0.3
2026-04-26T1700,2696A,80.2592,41.1541,阿克苏地区,艺术中心,颗粒物(PM10),63,67,88,18,36,129,129,99,99,5,22,4,4,0.3,0.5
2026-04-26T1700,2205A,105.699,38.8409,阿拉善盟,蒙二幼,,44,44,38,16,16,108,108,108,108,1,3,8,8,0.4,0.4
2026-04-26T1700,2206A,105.7198,38.8508,阿拉善盟,环保局新楼,,44,44,32,9,6,103,103,106,105,4,3,8,8,0.6,0.5
2026-04-26T1700,2708A,88.1266,47.8515,阿勒泰地区,市站,,33,17,19,3,4,104,104,88,88,5,8,5,5,0.3,0.4
2026-04-26T1700,4166A,88.1198,47.7931,阿勒泰地区,阿勒泰路33号,,32,18,17,3,3,102,102,88,88,6,5,7,7,0.2,0.2
2026-04-26T1700,2630A,80.1171,32.4999,阿里地区,阿里监测站,,42,16,17,3,4,132,132,110,110,2,3,7,7,0.3,0.3
2026-04-26T1700,3192A,80.0906,32.5029,阿里地区,阿里藏医院,,45,14,11,3,3,143,143,116,116,1,3,7,9,0.3,0.3
2026-04-26T1700,2644A,109.0088,32.6974,安康市,汉滨区检察院,,50,50,46,24,22,131,131,98,98,6,11,6,7,0.3,0.4
2026-04-26T1700,4054A,109.0324,32.6913,安康市,市邮政管理局,颗粒物(PM10),58,60,59,29,28,127,127,99,99,20,16,5,15,0.5,0.6
2026-04-26T1700,2291A,117.0806,30.5181,安庆市,环科院,,42,39,30,13,15,132,132,116,116,7,36,6,7,0.4,0.5
2026-04-26T1700,2292A,117.0331,30.5118,安庆市,马山宾馆,,42,37,29,13,15,134,134,112,112,2,40,6,5,0.5,0.5
2026-04-26T1700,2294A,116.9897,30.6146,安庆市,安庆大学,,44,36,31,13,15,140,140,124,124,7,19,6,5,0.3,0.4
2026-04-26T1700,3173A,117.0598,30.5351,安庆市,市人大,,43,36,30,11,9,137,137,120,120,2,28,5,5,0.4,0.4
2026-04-26T1700,3123A,105.9408,26.2431,安顺市,凤凰山,,48,39,37,33,29,101,101,90,90,6,7,6,8,0.7,0.6
2026-04-26T1700,3124A,105.9443,26.2567,安顺市,金钟山,细颗粒物(PM2.5),52,37,38,36,30,92,92,82,82,6,6,5,7,0.7,0.6
2026-04-26T1700,3125A,105.8983,26.248,安顺市,娄家坡,细颗粒物(PM2.5),52,44,36,36,31,90,90,80,80,4,5,5,6,0.9,0.8
2026-04-26T1700,1819A,114.3552,36.1017,安阳市,红庙街,颗粒物(PM10),72,80,62,32,32,146,146,123,123,8,13,4,6,0.3,0.4
2026-04-26T1700,1820A,114.361,36.0681,安阳市,银杏小区,颗粒物(PM10),83,95,69,41,36,152,152,127,127,11,14,6,7,0.4,0.5
2026-04-26T1700,3141A,114.3921,36.0879,安阳市,信访局,细颗粒物(PM2.5),74,77,63,47,35,155,155,129,129,5,11,3,4,0.4,0.5
2026-04-26T1700,3669A,114.4706,36.0634,安阳市,左辅环卫站,颗粒物(PM10),85,99,66,43,32,142,142,124,124,10,12,2,3,0.5,0.5
2026-04-26T1700,4117A,114.2918,36.0769,安阳市,钢三路198号,颗粒物(PM10),77,87,64,42,39,138,138,120,120,10,12,3,4,0.4,0.5
2026-04-26T1700,1748A,123.0441,41.1201,鞍山市,深沟寺,,35,23,57,10,24,110,110,96,96,14,18,9,12,0.5,1
2026-04-26T1700,1749A,123.011,41.0931,鞍山市,太阳城,,35,14,58,9,27,112,112,97,97,7,12,7,9,0.4,0.8
2026-04-26T1700,1750A,123.0483,41.1445,鞍山市,太平,,36,28,63,13,29,114,114,102,102,12,14,8,10,0.5,0.8
2026-04-26T1700,1751A,122.964,41.0968,鞍山市,铁西三道街,,35,28,60,13,27,109,109,95,93,14,18,13,12,1.1,1.2
2026-04-26T1700,1753A,123.0219,41.0822,鞍山市,明达新区,,34,19,55,11,25,108,108,99,95,11,14,7,9,0.5,0.8
2026-04-26T1700,4201A,122.944647,41.082639,鞍山市,兴盛南路290号,NA,NA,21,67,12,29,113,113,96,96,NA,NA,12,12,0.8,1.1
2026-04-26T1700,2195A,107.4206,40.7609,巴彦淖尔市,附二中,,50,50,69,11,16,114,114,105,105,4,7,12,13,0.3,0.3
2026-04-26T1700,2196A,107.37,40.7372,巴彦淖尔市,市环保大楼,颗粒物(PM10),83,96,64,16,18,114,114,108,108,4,7,7,8,0.3,0.3
2026-04-26T1700,1956A,86.1476,41.7529,巴音郭楞蒙古自治州,孔雀公园,颗粒物(PM10),82,94,60,33,17,106,106,106,106,3,16,2,3,0.2,0.3
2026-04-26T1700,1957A,86.1971,41.7166,巴音郭楞蒙古自治州,棉纺厂,颗粒物(PM10),96,114,82,49,26,117,117,115,115,2,14,/,/,/,/
2026-04-26T1700,1958A,86.236,41.7172,巴音郭楞蒙古自治州,经济开发区,颗粒物(PM10),76,86,58,31,30,105,105,102,102,2,7,8,9,0.4,0.4
2026-04-26T1700,3181A,106.776805,31.852614,巴中市,市五中,颗粒物(PM10),64,69,60,41,37,62,62,59,59,27,21,10,9,0.8,0.8
2026-04-26T1700,3183A,106.7419,31.8654,巴中市,圣泉水务公司,颗粒物(PM10),52,52,50,31,32,60,60,66,55,20,21,10,10,0.7,0.7
2026-04-26T1700,3616A,106.7617,31.8343,巴中市,市中心医院,细颗粒物(PM2.5),68,70,65,44,40,63,63,60,60,20,24,10,10,0.8,0.8
2026-04-26T1700,2235A,122.7909,45.608,白城市,洮北区环保局,,33,23,32,3,14,104,104,106,106,8,16,5,6,0.1,0.2
2026-04-26T1700,2236A,122.8741,45.5725,白城市,市环保局,,30,17,28,7,13,93,93,96,96,9,26,4,5,0.3,0.3
2026-04-26T1700,2231A,126.4219,41.9172,白山市,喜丰,,29,16,43,3,18,90,90,115,89,7,11,7,8,0.8,1
2026-04-26T1700,2232A,126.4082,41.9416,白山市,环保局,,30,13,33,3,16,95,95,123,94,8,10,10,11,0.6,0.7
2026-04-26T1700,2647A,104.1727,36.5448,白银市,第三小学,颗粒物(PM10),55,57,57,18,16,113,113,114,114,2,11,4,24,0.3,0.5
2026-04-26T1700,2648A,104.1467,36.5482,白银市,动力公司,颗粒物(PM10),53,53,52,19,18,111,111,112,112,5,9,5,13,0.3,0.3
2026-04-26T1700,2512A,106.6102,23.901,百色市,市监测站,细颗粒物(PM2.5),58,53,55,39,33,89,89,88,88,13,24,8,14,0.8,0.8
2026-04-26T1700,2513A,106.6524,23.8842,百色市,市中心血站,细颗粒物(PM2.5),74,51,54,47,41,97,97,98,98,11,21,8,16,0.8,0.8
2026-04-26T1700,4133A,106.6273,23.8798,百色市,龙景西路,细颗粒物(PM2.5),90,82,69,55,42,85,85,90,90,19,23,11,16,0.6,0.6
2026-04-26T1700,2270A,117.396,32.9389,蚌埠市,工人疗养院,,48,48,58,12,24,148,148,131,131,15,27,5,6,0.4,0.5
2026-04-26T1700,2271A,117.3606,32.9428,蚌埠市,百货大楼,,46,42,48,10,22,147,147,131,131,7,21,5,7,0.4,0.5
2026-04-26T1700,2273A,117.4183,32.8909,蚌埠市,蚌埠学院,,43,36,50,10,23,137,137,124,124,7,17,5,6,0.4,0.5
2026-04-26T1700,2274A,117.3534,32.9672,蚌埠市,淮上区政府,,48,44,49,10,24,152,152,135,135,13,24,5,6,0.3,0.4
2026-04-26T1700,2275A,117.3143,32.8977,蚌埠市,高新区,,46,39,48,10,25,146,146,127,127,2,11,7,9,0.4,0.5
2026-04-26T1700,3715A,117.3091,32.9314,蚌埠市,蚌埠田家炳中学,,48,42,57,10,27,152,152,133,133,9,19,6,12,0.3,0.5
2026-04-26T1700,1585A,109.8761,40.6533,包头市,市环境监测站,,45,45,50,16,23,118,118,121,121,6,12,6,10,0.4,0.5
2026-04-26T1700,1587A,109.9992,40.5843,包头市,包头八中,,38,38,63,14,19,118,118,111,111,9,13,12,9,0.5,0.5
2026-04-26T1700,1589A,109.8641,40.6288,包头市,惠龙物流,,40,40,44,13,15,112,112,116,116,5,10,7,9,0.4,0.4
2026-04-26T1700,1590A,110.0376,40.5546,包头市,东河鸿龙湾,,42,31,45,3,17,132,132,118,118,9,13,14,12,0.5,0.5
2026-04-26T1700,3283A,109.9154,40.5684,包头市,滨河大厦,颗粒物(PM10),65,71,41,14,18,122,122,116,116,6,10,12,10,0.3,0.4
2026-04-26T1700,3419A,109.9449,40.6259,包头市,包头市委党校,颗粒物(PM10),54,55,46,9,14,118,118,114,114,6,12,8,9,0.2,0.4
2026-04-26T1700,3683A,109.8332,40.6577,包头市,昆区政府,,41,41,45,26,17,116,116,117,117,8,14,2,6,0.4,0.5
2026-04-26T1700,1931A,107.0802,34.3129,宝鸡市,竹园沟,颗粒物(PM10),54,55,60,16,21,151,151,126,126,6,11,8,8,0.4,0.4
2026-04-26T1700,1933A,107.1429,34.3549,宝鸡市,监测站,颗粒物(PM10),72,80,74,34,35,168,168,127,127,13,17,6,6,0.3,0.4
2026-04-26T1700,1934A,107.1172,34.3759,宝鸡市,技工学校,颗粒物(PM10),72,80,76,27,38,169,169,129,129,12,12,4,6,0.4,0.5
2026-04-26T1700,1936A,107.2025,34.3518,宝鸡市,文理学院,臭氧1小时(O3_1h),65,64,74,30,37,172,172,126,126,11,17,6,6,0.4,0.5
2026-04-26T1700,1937A,107.2396,34.3626,宝鸡市,三迪小学,臭氧1小时(O3_1h),69,72,83,40,36,175,175,132,132,15,22,6,6,0.5,0.5
2026-04-26T1700,4155A,107.1721,34.3558,宝鸡市,滨河北路,细颗粒物(PM2.5),78,69,87,49,41,162,162,122,122,9,14,8,8,0.6,0.6
2026-04-26T1700,4308A,107.3898,34.3601,宝鸡市,陈仓区北开路21号,颗粒物(PM10),71,79,91,35,37,167,167,128,128,8,20,10,9,0.5,0.5
2026-04-26T1700,1051A,115.4803,38.8568,保定市,游泳馆,颗粒物(PM10),99,118,63,55,30,107,107,108,108,24,16,4,3,0.3,0
2026-04-26T1700,1052A,115.509,38.8895,保定市,华电二区,颗粒物(PM10),98,116,59,50,28,112,112,108,108,23,15,2,2,0.6,0.4
2026-04-26T1700,1053A,115.4588,38.9037,保定市,接待中心,颗粒物(PM10),99,118,78,51,29,102,102,94,94,20,11,2,2,0.4,0.1
2026-04-26T1700,1054A,115.4484,38.8344,保定市,地表水厂,颗粒物(PM10),120,171,93,55,28,114,114,109,109,21,15,4,4,0.5,0.2
2026-04-26T1700,3581A,115.3136,38.9511,保定市,满城区生态环境分局,颗粒物(PM10),103,127,83,43,25,136,136,110,110,13,14,2,2,0.3,0.2
2026-04-26T1700,3582A,115.4709,38.7628,保定市,清苑区第二中学,颗粒物(PM10),114,154,88,51,31,111,111,110,110,22,15,5,5,0.5,0.3
2026-04-26T1700,3583A,115.6231,39.0223,保定市,徐水物探局,颗粒物(PM10),139,221,100,50,31,105,105,106,106,26,17,4,2,0.7,0.4
2026-04-26T1700,4004A,115.4199,38.8665,保定市,双鹰农机,颗粒物(PM10),104,130,72,58,30,120,120,112,112,22,13,2,3,0.4,0.2
2026-04-26T1700,4034A,115.515,38.8589,保定市,植保所站,颗粒物(PM10),104,129,83,53,28,109,109,110,110,26,17,2,3,0.4,0.2
2026-04-26T1700,2594A,99.1589,25.1137,保山市,市环境监测站,,44,38,54,27,36,138,138,136,136,7,9,7,7,0.4,0.5
2026-04-26T1700,2595A,99.1616,25.1381,保山市,市环保局,,44,41,60,26,42,139,139,139,139,5,6,7,7,0.4,0.5
2026-04-26T1700,1867A,109.1435,21.4085,北海市,海滩公园,,38,25,24,24,23,121,121,117,117,6,7,7,7,0.9,0.8
2026-04-26T1700,1868A,109.0983,21.466,北海市,新市环保局,,31,23,21,9,15,98,98,99,99,6,8,5,9,0.5,0.6
2026-04-26T1700,1869A,109.1775,21.5232,北海市,北海工业园,,33,32,35,12,22,105,105,104,104,3,12,6,6,0.8,0.9
2026-04-26T1700,3400A,109.1844,21.4396,北海市,龙潭自来水厂,,33,25,22,10,14,103,103,106,106,5,7,6,9,0.9,1
2026-04-26T1700,1001A,116.3611,39.8786,北京市,万寿西宫,颗粒物(PM10),70,77,54,27,19,118,118,107,107,13,16,4,4,0.4,0.4
2026-04-26T1700,1003A,116.4174,39.9289,北京市,东四,颗粒物(PM10),79,90,54,29,20,121,121,109,109,10,14,4,3,0.3,0.3
2026-04-26T1700,1004A,116.4073,39.8858,北京市,天坛,颗粒物(PM10),68,75,50,28,18,111,111,102,102,18,20,6,5,0.1,0.2
2026-04-26T1700,1005A,116.4622,39.9364,北京市,农展馆,颗粒物(PM10),70,78,56,24,18,116,116,105,105,11,18,5,4,0.5,0.5
2026-04-26T1700,1006A,116.3399,39.9293,北京市,官园,颗粒物(PM10),70,78,52,33,22,110,110,96,96,17,22,3,2,0.3,0.2
2026-04-26T1700,1007A,116.2879,39.9613,北京市,海淀万柳,颗粒物(PM10),71,79,52,27,17,108,108,88,88,19,26,6,5,0.5,0.4
2026-04-26T1700,1008A,116.6635,40.1349,北京市,顺义新城,颗粒物(PM10),87,101,63,40,22,124,124,107,107,6,10,3,2,0.7,0.6
2026-04-26T1700,1009A,116.6275,40.327,北京市,怀柔镇,颗粒物(PM10),86,100,46,30,16,134,134,107,107,15,16,6,4,0.5,0.4
2026-04-26T1700,1010A,116.2295,40.217,北京市,昌平镇,颗粒物(PM10),62,66,41,22,13,139,139,103,103,18,15,4,3,0.3,0.3
2026-04-26T1700,1011A,116.3968,39.982,北京市,奥体中心,颗粒物(PM10),68,74,52,27,17,107,107,92,92,13,20,5,4,0.4,0.3
2026-04-26T1700,3418A,116.8336,40.4095,北京市,密云新城,颗粒物(PM10),73,81,48,28,16,126,126,103,103,8,7,6,4,0.3,0.3
2026-04-26T1700,3671A,116.0879,39.9725,北京市,门头沟三家店,颗粒物(PM10),69,76,55,43,19,128,128,99,99,14,19,4,3,0.3,0.3
2026-04-26T1700,3672A,116.1507,39.8246,北京市,丰台云岗,颗粒物(PM10),75,85,60,36,18,128,128,108,108,18,20,3,2,0.4,0.4
2026-04-26T1700,3674A,115.9578,39.7602,北京市,房山燕山,颗粒物(PM10),93,110,53,33,17,124,124,93,93,14,12,5,4,0.4,0.3
2026-04-26T1700,3675A,116.4669,39.7734,北京市,大兴旧宫,颗粒物(PM10),63,68,61,23,22,115,115,104,104,13,18,1,2,0.4,0.4
2026-04-26T1700,3694A,115.9859,40.4562,北京市,延庆石河营,,35,11,41,3,17,112,112,100,100,9,15,1,1,0.3,0.4
2026-04-26T1700,3695A,116.6151,40.3052,北京市,怀柔新城,颗粒物(PM10),86,100,48,31,15,129,129,102,102,15,13,5,4,0.5,0.4
2026-04-26T1700,3696A,116.2542,39.8764,北京市,丰台小屯,颗粒物(PM10),68,75,55,29,19,110,110,96,96,11,17,4,2,0.3,0.3
2026-04-26T1700,3697A,116.8399,40.3843,北京市,密云镇,颗粒物(PM10),76,86,50,30,17,130,130,108,108,12,12,8,7,0.5,0.4
2026-04-26T1700,4057A,115.9423,40.4431,北京市,延庆百泉,,36,12,43,3,17,113,113,103,103,6,16,1,1,0.4,0.5
2026-04-26T1700,4058A,116.6598,39.9164,北京市,通州新华,颗粒物(PM10),68,75,72,25,26,102,102,101,101,2,22,4,5,0.5,0.4
2026-04-26T1700,4182A,116.1942,39.9158,北京市,石景山八角,颗粒物(PM10),80,91,59,28,15,110,110,97,97,22,24,6,4,0.4,0.3
2026-04-26T1700,4194A,117.078628,40.151726,北京市,平谷新城,颗粒物(PM10),80,92,66,34,28,110,110,102,102,3,4,4,3,0.6,0.5
2026-04-26T1700,1761A,123.8274146,41.31234549,本溪市,大峪,,35,14,54,8,23,112,112,93,90,7,14,7,9,0.4,0.8
2026-04-26T1700,1763A,123.7169,41.3094,本溪市,彩屯,,36,22,65,8,34,115,115,98,98,7,20,9,17,0.5,1.9
2026-04-26T1700,1764A,123.7672166,41.28649327,本溪市,东明,,37,37,49,7,27,109,109,106,90,12,14,4,6,0.5,0.7
2026-04-26T1700,1765A,123.799345,41.266614,本溪市,新立屯,,37,22,41,6,25,116,116,111,96,5,10,8,9,0.5,0.6
2026-04-26T1700,1766A,123.829144,41.336777,本溪市,威宁,,37,12,49,8,27,116,116,92,90,9,16,6,8,0.5,0.9
2026-04-26T1700,2587A,105.287,27.3133,毕节市,八中,,44,44,49,23,35,96,96,84,84,7,12,7,10,0.6,0.7
2026-04-26T1700,2588A,105.3079,27.2987,毕节市,师专,,32,28,46,22,32,93,93,88,88,9,11,10,12,0.5,0.5
2026-04-26T1700,4263A,105.3688,27.3598,毕节市,工业大道,,49,NA,45,34,31,110,110,96,96,10,8,10,11,/,/
2026-04-26T1700,1629A,117.9961,37.3604,滨州市,第二水厂,颗粒物(PM10),102,124,66,59,30,116,116,130,130,19,23,11,9,0.9,0.7
2026-04-26T1700,1630A,117.9789,37.3931,滨州市,北中新校,细颗粒物(PM2.5),82,92,60,51,28,124,124,141,141,24,24,18,14,0.5,0.4
2026-04-26T1700,3514A,117.9379,37.3959,滨州市,中海酒店,颗粒物(PM10),91,107,55,48,26,134,134,142,142,25,23,13,11,0.6,0.5
2026-04-26T1700,3515A,117.9381509,37.35547456,滨州市,开发区一中,颗粒物(PM10),104,129,69,58,32,118,118,128,128,25,28,16,13,1.0,0.8
2026-04-26T1700,3516A,118.0914,37.6938,滨州市,金海六路,细颗粒物(PM2.5),78,83,70,49,36,132,132,133,133,11,29,9,10,0.9,0.8
2026-04-26T1700,4028A,117.9955,37.3752,滨州市,滨州市西街道办事处,颗粒物(PM10),98,117,65,50,28,125,125,140,140,18,21,9,9,0.7,0.6
2026-04-26T1700,2311A,115.8071,33.8399,亳州市,污水处理厂,,46,37,34,8,16,145,145,135,135,5,11,6,6,0.2,0.2
2026-04-26T1700,2312A,115.7789,33.8519,亳州市,三国揽胜宫,NA,NA,NA,38,12,16,137,137,129,129,5,8,5,5,0.2,0.2
2026-04-26T1700,3332A,115.7631,33.803,亳州市,亳州学院,,42,31,34,10,16,134,134,126,126,3,7,7,8,0.4,0.5
2026-04-26T1700,2693A,82.0482,44.8553,博尔塔拉蒙古自治州,市党校,,42,29,25,3,4,133,133,101,101,5,6,3,2,0.1,0.1
2026-04-26T1700,2694A,82.0805,44.8966,博尔塔拉蒙古自治州,市环保局,,39,15,26,3,5,124,124,96,96,3,13,2,3,0.3,0.4
2026-04-26T1700,1071A,116.8733,38.2922,沧州市,沧县城建局,颗粒物(PM10),58,60,55,25,29,107,107,98,98,16,17,5,8,0.6,0.7
2026-04-26T1700,1072A,116.8462,38.3189,沧州市,电视转播站,颗粒物(PM10),56,58,56,37,32,113,113,98,98,13,14,5,9,0.3,0.4
2026-04-26T1700,1073A,116.8588,38.3161,沧州市,市环保局,颗粒物(PM10),62,66,63,22,28,111,111,98,98,12,15,8,9,0.7,0.8
2026-04-26T1700,3324A,116.8011,38.294,沧州市,河北水利电力学院,细颗粒物(PM2.5),70,66,50,45,31,107,107,95,95,13,16,9,10,0.3,0.4
2026-04-26T1700,2622A,97.1813,31.1289,昌都市,昌都监测站,,34,8,14,3,3,107,107,92,92,6,9,10,10,0.5,0.6
2026-04-26T1700,3719A,97.1707,31.1428,昌都市,昌都会议中心,,33,8,13,3,4,103,103,92,92,6,5,6,6,0.4,0.3
2026-04-26T1700,2692A,87.2722,44.0298,昌吉回族自治州,新区政务中心,,40,9,17,3,11,128,128,104,104,10,11,6,6,0.2,0.3
2026-04-26T1700,3613A,87.3069,44.0093,昌吉回族自治州,亚心广场,NA,NA,9,22,NA,16,138,138,112,112,4,10,6,7,0.2,0.3
2026-04-26T1700,4164A,87.2057,43.9289,昌吉回族自治州,财政所,,40,19,23,6,9,127,127,109,109,5,8,7,8,0.2,0.3
2026-04-26T1700,1120A,125.2874,43.9024,长春市,客车厂,,31,21,26,9,20,98,98,92,92,11,16,7,7,0.3,0.3
2026-04-26T1700,1121A,125.2943,43.8508,长春市,邮电学院,,34,16,26,9,20,107,107,101,101,7,3,6,6,0.5,0.5
2026-04-26T1700,1122A,125.3648,43.8745,长春市,劳动公园,,33,18,27,10,12,105,105,NA,NA,10,10,6,7,0.6,0.8
2026-04-26T1700,1123A,125.3233,43.8781,长春市,园林处,,34,15,26,10,19,106,106,100,100,9,12,6,6,0.3,0.4
2026-04-26T1700,1124A,125.4604,43.7904,长春市,净月潭,,34,17,29,8,19,107,107,100,100,9,10,5,6,0.3,0.4
2026-04-26T1700,1126A,125.38,43.8422,长春市,经开区环卫处,,34,12,27,9,21,107,107,101,101,8,13,5,6,0.4,0.5
2026-04-26T1700,1127A,125.234,43.7761,长春市,高新区管委会,,33,17,26,9,19,103,103,97,97,6,11,8,8,0.2,0.3
2026-04-26T1700,1128A,125.1695,43.83,长春市,岱山公园,,35,21,28,12,21,111,111,107,107,10,20,4,4,0.2,0.3
2026-04-26T1700,4281A,125.334645,43.916281,长春市,北亚泰大街1068号,,33,25,27,11,20,104,104,99,99,12,14,5,5,0.3,0.4
2026-04-26T1700,1335A,113.082,28.2421,长沙市,经开区环保局,颗粒物(PM10),52,52,50,22,25,140,140,128,128,11,20,5,5,0.5,0.6
2026-04-26T1700,1336A,112.8873,28.2202,长沙市,高开区环保局,,46,46,48,23,26,138,138,127,127,8,20,8,10,0.3,0.6
2026-04-26T1700,1337A,113.0785,28.2012,长沙市,马坡岭,,46,46,49,20,27,142,142,134,134,14,26,7,8,0.6,0.6
2026-04-26T1700,1338A,112.9448,28.1894,长沙市,湖南师范大学,,50,50,52,28,25,152,152,135,135,8,18,11,9,0.7,0.7
2026-04-26T1700,1339A,113.0177,28.1322,长沙市,雨花区环保局,,47,45,46,22,22,148,148,133,133,5,18,6,7,0.6,0.7
2026-04-26T1700,1340A,112.9795,28.2593,长沙市,伍家岭,颗粒物(PM10),52,52,77,20,35,150,150,130,130,7,32,9,7,0.6,0.8
2026-04-26T1700,1341A,113.002,28.1944,长沙市,火车新站,,50,50,57,14,21,146,146,129,129,7,27,9,7,0.4,0.6
2026-04-26T1700,1342A,112.9846,28.1177,长沙市,天心区环保局,,48,45,49,24,25,153,153,137,137,11,22,9,9,0.5,0.6
2026-04-26T1700,1343A,112.8906,28.1307,长沙市,湖南中医药大学,,45,43,57,20,28,142,142,129,129,9,37,9,9,0.5,0.7
2026-04-26T1700,1727A,113.1146,36.1547,长治市,清华站,,39,39,54,6,24,120,120,131,131,13,17,8,9,0.6,0.5
2026-04-26T1700,1730A,113.0887,36.2126,长治市,审计局,,42,42,51,3,26,126,126,119,119,7,13,6,10,0.3,0.4
2026-04-26T1700,1731A,113.0845,36.1856,长治市,长治八中,,40,40,62,12,28,120,120,115,115,13,19,8,11,0.3,0.5
2026-04-26T1700,2845A,113.1561,36.1912,长治市,德盛苑,,38,36,47,18,25,119,119,119,119,9,14,8,10,0.4,0.5
2026-04-26T1700,3568A,113.0603,36.0464,长治市,向阳小学,颗粒物(PM10),51,51,76,14,25,133,133,130,130,16,18,8,9,0.5,0.6
2026-04-26T1700,3569A,112.8788,36.315,长治市,屯留一中,,37,37,56,16,27,115,115,119,119,17,26,8,13,0.5,0.7
2026-04-26T1700,4189A,113.113092,36.199482,长治市,英华南巷50号,,47,47,58,3,25,128,128,121,121,7,11,6,8,0.4,0.6
2026-04-26T1700,4190A,113.23666,36.33435,长治市,学府街1号,颗粒物(PM10),60,64,61,25,26,148,148,126,126,9,17,8,6,0.8,0.8
2026-04-26T1700,1854A,111.696,28.9725,常德市,市二中,颗粒物(PM10),56,58,48,24,31,134,134,118,118,8,14,11,9,0.9,0.9
2026-04-26T1700,3138A,111.7152,29.0288,常德市,武陵区永安,,49,49,51,21,30,146,146,123,123,10,12,9,8,0.6,0.7
2026-04-26T1700,3139A,111.6891,28.9881,常德市,鼎城区玉霞,颗粒物(PM10),55,57,50,22,30,135,135,119,119,4,12,10,9,0.7,0.8
2026-04-26T1700,3140A,111.6651,29.0526,常德市,武陵区长庚,颗粒物(PM10),60,64,50,30,31,131,131,117,117,6,10,11,11,0.7,0.8
2026-04-26T1700,1196A,119.9524,31.7586,常州市,市监测站,臭氧1小时(O3_1h),80,40,60,13,24,184,184,168,168,12,30,6,6,0.6,0.7
2026-04-26T1700,1200A,119.9351,31.703,常州市,武进监测站,,50,25,49,8,21,159,159,152,152,12,25,2,8,0.5,0.6
2026-04-26T1700,3002A,119.9701,31.813,常州市,行政中心,臭氧1小时(O3_1h),82,38,52,15,20,185,185,165,165,13,26,6,8,0.2,0.3
2026-04-26T1700,3003A,120.0434,31.7726,常州市,经开区,臭氧1小时(O3_1h),100,38,57,13,24,200,200,179,179,8,26,5,5,0.6,0.7
2026-04-26T1700,3010A,119.8919,31.7892,常州市,钟楼,臭氧1小时(O3_1h),87,39,49,10,20,189,189,181,181,16,28,8,10,0.4,0.5
2026-04-26T1700,3429A,119.8595,31.706,常州市,武进经发区,臭氧1小时(O3_1h),72,31,53,17,27,177,177,177,177,16,33,7,9,0.5,0.6
2026-04-26T1700,3430A,119.5812,31.7256,常州市,金坛城区,臭氧1小时(O3_1h),57,27,40,13,22,165,165,171,171,4,15,10,11,0.6,0.7
2026-04-26T1700,4089A,119.9551,31.863,常州市,崇义南街5-H号,臭氧1小时(O3_1h),69,34,55,10,24,175,175,175,175,8,31,7,8,0.5,0.6
2026-04-26T1700,2220A,120.4318,41.588,朝阳市,西梁,,32,15,41,6,13,101,101,100,100,8,13,6,9,0.2,0.4
2026-04-26T1700,2221A,120.452,41.565,朝阳市,河畔小区,,33,19,38,8,13,105,105,105,105,7,11,6,8,0.2,0.4
2026-04-26T1700,2222A,120.4176,41.5648,朝阳市,八里堡,,33,14,44,3,12,103,103,102,102,9,13,6,9,0.4,0.6
2026-04-26T1700,3026A,116.6179,23.6608,潮州市,市政府,臭氧1小时(O3_1h),73,50,35,24,17,178,178,129,129,12,9,4,3,0.6,0.6
2026-04-26T1700,4036A,116.646,23.676,潮州市,金山,臭氧1小时(O3_1h),69,44,25,23,14,175,175,113,113,9,6,4,2,0.5,0.4
2026-04-26T1700,2473A,113.0116,25.8228,郴州市,市职中,,36,32,36,15,19,113,113,105,105,12,28,6,6,0.5,0.5
2026-04-26T1700,2475A,113.0381,25.8074,郴州市,市审计局,,35,35,35,14,21,100,100,90,90,10,28,4,4,/,/
2026-04-26T1700,2476A,113.0348,25.7757,郴州市,市环保局,,41,41,38,16,19,103,103,96,96,16,25,6,6,0.4,0.6
2026-04-26T1700,4252A,113.0138,25.8011,郴州市,好美居路49号,,37,35,31,23,16,116,116,108,108,8,29,5,4,/,/
2026-04-26T1700,1431A,103.9727,30.7242,成都市,金泉两河,颗粒物(PM10),53,54,79,27,48,116,116,114,114,11,27,4,5,0.3,0.5
2026-04-26T1700,1432A,104.1423,30.6765,成都市,十里店,颗粒物(PM10),55,57,74,28,45,108,108,118,118,24,23,5,6,0.6,0.7
2026-04-26T1700,1433A,104.0594,30.5765,成都市,三瓦窑,颗粒物(PM10),60,64,71,29,43,129,129,123,123,7,35,3,4,0.6,0.7
2026-04-26T1700,1434A,104.1122,30.6306,成都市,沙河铺,颗粒物(PM10),52,52,75,29,46,114,114,108,108,12,35,4,4,0.5,0.7
2026-04-26T1700,2880A,104.0219,30.6561,成都市,大石西路,颗粒物(PM10),60,64,80,33,51,110,110,113,113,15,32,4,5,0.5,0.7
2026-04-26T1700,3136A,104.2724,30.559,成都市,龙泉驿区区政府,颗粒物(PM10),51,51,57,34,39,109,109,114,114,6,9,9,9,0.5,0.6
2026-04-26T1700,3357A,104.0028,30.6891,成都市,金博路,颗粒物(PM10),54,55,71,26,48,110,110,115,115,18,43,6,7,0.5,0.7
2026-04-26T1700,3359A,104.056,30.5228,成都市,华阳,颗粒物(PM10),56,58,68,27,44,124,124,113,113,7,28,6,6,0.6,0.8
2026-04-26T1700,3488A,104.387954,30.746684,成都市,青石路225号,颗粒物(PM10),55,56,67,33,44,116,116,122,122,8,23,7,8,0.6,0.7
2026-04-26T1700,3489A,104.0788,30.4054,成都市,科学城,,41,25,64,24,46,129,129,121,121,5,18,6,6,0.5,0.6
2026-04-26T1700,4011A,103.8505,30.6946,成都市,光华大道三段,颗粒物(PM10),53,54,86,24,50,121,121,117,117,4,16,4,7,0.4,0.7
2026-04-26T1700,4144A,104.3257,30.6406,成都市,八角井街185号,颗粒物(PM10),60,63,69,27,38,109,109,112,112,5,11,6,7,0.6,0.6
2026-04-26T1700,4224A,104.2433276,30.53529463,成都市,鲸龙路1057号,颗粒物(PM10),55,57,64,29,37,114,114,121,121,8,17,8,8,0.5,0.6
2026-04-26T1700,1062A,117.9531,40.908,承德市,铁路,,36,18,51,3,19,115,115,104,104,8,12,3,3,0.1,0.3
2026-04-26T1700,1063A,117.9397,40.9763,承德市,中国银行,,40,NA,53,28,28,115,115,104,104,3,12,1,2,0.1,0.3
2026-04-26T1700,4073A,117.9462,40.95,承德市,杏林街1号,,37,26,54,3,32,118,118,108,108,3,9,2,2,0.0,0.3
2026-04-26T1700,4274A,117.7994,40.9605,承德市,滨河大街98号,,36,14,43,12,18,114,114,109,109,3,9,6,7,0.2,0.3
2026-04-26T1700,2314A,117.4698,30.6617,池州市,池州学院,,46,38,24,21,15,146,146,128,128,14,21,6,5,0.5,0.8
2026-04-26T1700,3237A,117.4918,30.6617,池州市,展览馆,,49,40,28,19,14,154,154,133,133,10,18,5,3,0.5,0.7
2026-04-26T1700,3333A,117.5626,30.695,池州市,第八中学,,45,37,24,19,13,144,144,125,125,17,22,6,5,0.2,0.4
2026-04-26T1700,3334A,117.5037,30.6242,池州市,第十二中学,,48,46,33,23,15,151,151,128,128,13,28,8,5,0.4,0.9
2026-04-26T1700,1744A,118.9229,42.2816,赤峰市,松山一中,,32,NA,26,18,10,102,102,98,98,18,15,19,8,0.7,0.5
2026-04-26T1700,1745A,118.9588,42.2733,赤峰市,哈达街,,28,23,30,16,14,87,87,91,91,18,8,25,11,0.9,0.6
2026-04-26T1700,1746A,118.8792,42.2551,赤峰市,天义路,,31,NA,24,13,10,98,98,101,101,22,14,23,6,0.9,0.4
2026-04-26T1700,3058A,119.2656,42.0356,赤峰市,银河街,,36,17,46,7,17,114,114,105,105,4,7,9,14,0.5,0.6
2026-04-26T1700,3286A,118.9359,42.3146,赤峰市,桥北物流园区,,32,NA,24,9,10,102,102,99,99,7,7,3,4,0.3,0.4
2026-04-26T1700,2521A,107.3473,22.4137,崇左市,市环保局江州分局,,36,34,51,24,30,113,113,110,110,8,15,6,6,0.7,0.7
2026-04-26T1700,4256A,107.375,22.3736,崇左市,石景林东路7号,,37,26,36,24,26,117,117,115,115,7,15,3,4,0.7,0.6
2026-04-26T1700,3207A,118.31131,32.3033,滁州市,市政府原办公楼,,44,33,45,21,34,139,139,129,129,7,25,5,7,0.3,0.5
2026-04-26T1700,3331A,118.3268,32.2633,滁州市,图书馆,,48,32,47,9,23,151,151,137,137,12,26,10,11,0.5,0.6
2026-04-26T1700,4101A,118.3196,32.3335,滁州市,银山路666号,,45,36,50,11,24,141,141,133,133,9,28,8,8,0.2,0.4
2026-04-26T1700,4102A,118.3426,32.2979,滁州市,黄山路555号,,49,49,62,14,30,154,154,144,144,8,25,7,8,0.6,0.7
2026-04-26T1700,2606A,101.5379,25.0492,楚雄彝族自治州,市经济开发区,,43,27,53,22,36,135,135,123,123,6,9,2,3,0.3,0.5
2026-04-26T1700,4153A,101.5536,25.0343,楚雄彝族自治州,团结路562号,,44,30,43,20,34,138,138,128,128,6,7,4,4,0.4,0.5
2026-04-26T1700,2549A,107.5087,31.2186,达州市,市环境监测站,颗粒物(PM10),104,129,80,63,43,30,30,36,34,72,45,11,10,0.7,0.6
2026-04-26T1700,2550A,107.4988,31.2132,达州市,凤凰小区,细颗粒物(PM2.5),106,127,85,66,41,38,38,42,39,62,44,10,9,0.5,0.4
2026-04-26T1700,2551A,107.5081,31.1987,达州市,达县机关宾馆,颗粒物(PM10),116,161,93,64,48,20,20,46,38,79,55,11,8,0.7,0.5
2026-04-26T1700,2552A,107.4644,31.2124,达州市,市政中心,颗粒物(PM10),107,137,90,60,40,36,36,37,36,68,48,11,8,0.6,0.6
2026-04-26T1700,2614A,100.2168,25.5818,大理白族自治州,大理市环境监测站,,35,27,50,18,39,112,112,127,115,12,10,4,4,0.6,0.6
2026-04-26T1700,2615A,100.1542,25.7055,大理白族自治州,大理古城,NA,NA,38,42,18,33,118,118,131,120,NA,7,3,3,0.7,0.7
2026-04-26T1700,1109A,121.6119,38.974,大连市,甘井子,颗粒物(PM10),56,58,59,24,29,75,75,120,114,34,20,10,10,0.7,0.6
2026-04-26T1700,1110A,121.565,38.9509,大连市,周水子,颗粒物(PM10),54,55,57,22,29,72,72,121,113,34,23,7,9,0.8,0.6
2026-04-26T1700,1111A,121.5637,38.8849,大连市,星海三站,细颗粒物(PM2.5),62,55,45,41,26,98,98,119,118,20,21,5,6,0.6,0.5
2026-04-26T1700,1112A,121.6301,38.9117,大连市,青泥洼桥,颗粒物(PM10),67,73,51,40,27,91,91,128,124,31,20,6,7,0.8,0.6
2026-04-26T1700,1113A,121.6248,38.8643,大连市,傅家庄,颗粒物(PM10),68,75,42,38,23,93,93,110,107,24,18,10,10,0.6,0.5
2026-04-26T1700,1114A,121.5117,38.8636,大连市,七贤岭,颗粒物(PM10),68,74,50,34,26,103,103,125,123,17,19,6,7,0.7,0.6
2026-04-26T1700,1116A,121.7507,39.1339,大连市,金州,颗粒物(PM10),53,53,56,26,37,70,70,119,112,28,21,5,10,0.6,0.5
2026-04-26T1700,1117A,121.7811,39.0495,大连市,开发区,颗粒物(PM10),61,65,52,26,25,85,85,118,116,30,30,9,10,0.7,0.5
2026-04-26T1700,1118A,121.9762,39.0631,大连市,双D港,颗粒物(PM10),64,69,50,40,25,78,78,121,118,37,25,6,7,0.5,0.5
2026-04-26T1700,4082A,121.2548,38.8188,大连市,旅顺,,49,49,51,23,29,86,86,110,107,14,21,7,9,0.6,0.5
2026-04-26T1700,1789A,124.8085,46.0381,大庆市,大同区,,31,24,30,9,12,98,98,99,99,3,11,1,2,0.5,0.5
2026-04-26T1700,1790A,125.1166,46.5255,大庆市,龙凤区,,25,20,44,12,22,78,78,80,80,7,19,1,6,0.2,0.3
2026-04-26T1700,1791A,124.8894,46.4007,大庆市,红岗区,,26,23,32,9,13,82,82,84,84,4,12,7,7,0.3,0.4
2026-04-26T1700,1792A,125.1391,46.578,大庆市,萨尔图区,,25,24,40,9,16,79,79,81,81,8,16,7,8,0.4,0.5
2026-04-26T1700,1793A,124.9026,46.6217,大庆市,让胡路区,,26,22,34,10,18,82,82,81,81,3,12,3,2,0.2,0.4
2026-04-26T1700,3481A,125.127,46.6277,大庆市,萨区政府监测点,,27,18,32,9,16,84,84,86,86,1,11,8,9,0.3,0.4
2026-04-26T1700,1723A,113.2926,40.0759,大同市,云冈宾馆,,40,20,47,14,11,125,125,109,109,7,14,6,8,0.4,0.6
2026-04-26T1700,1724A,113.3437,40.0921,大同市,大同大学,,39,13,22,3,12,124,124,112,112,10,20,3,5,0.4,0.7
2026-04-26T1700,1725A,113.2637,40.129,大同市,安家小村,,40,8,42,3,9,125,125,112,112,6,12,8,10,0.2,0.4
2026-04-26T1700,3282A,113.3399,40.0586,大同市,大同市卫生学校,,43,30,49,6,10,136,136,118,118,9,15,5,7,0.4,0.6
2026-04-26T1700,3565A,113.1371,40.1122,大同市,云冈站,,38,9,45,3,11,121,121,108,108,4,18,4,8,0.3,0.4
2026-04-26T1700,3566A,113.1186,40.2556,大同市,图书馆,,37,11,38,3,9,116,116,107,107,5,10,6,6,0.3,0.3
2026-04-26T1700,3567A,113.5931,40.0459,大同市,区一中,,41,NA,51,15,14,129,129,122,122,12,18,1,2,0.3,0.6
2026-04-26T1700,4199A,113.2798248,40.09972476,大同市,魏都大道141号,,38,17,52,7,15,119,119,104,104,8,15,7,10,0.3,0.5
2026-04-26T1700,2269A,124.1068,50.4091,大兴安岭地区,科技局,,23,19,18,9,7,73,73,73,73,4,3,7,6,0.3,0.3
2026-04-26T1700,3663A,124.117,50.4279,大兴安岭地区,红旗社区,,26,7,3,3,4,82,82,81,81,3,3,6,6,0.3,0.3
2026-04-26T1700,1600A,124.33,40.0625,丹东市,江湾东路,颗粒物(PM10),51,51,41,28,21,82,82,109,106,19,16,6,5,0.6,0.4
2026-04-26T1700,1601A,124.4242,40.1513,丹东市,临江后街,,50,50,51,28,23,79,79,104,102,14,15,4,8,0.5,0.6
2026-04-26T1700,1602A,124.3935,40.1461,丹东市,元宝山,颗粒物(PM10),54,55,50,32,21,75,75,102,99,15,16,6,7,0.6,0.5
2026-04-26T1700,1603A,124.3634,40.1093,丹东市,民主桥,颗粒物(PM10),54,55,49,29,22,74,74,104,101,19,16,6,7,0.6,0.5
2026-04-26T1700,3541A,109.5726195,19.51688767,儋州市,第一中学子站,,28,21,28,14,18,89,89,84,84,4,5,4,4,0.6,0.7
2026-04-26T1700,3542A,109.5567,19.5187,儋州市,东坡学校子站,,31,28,29,16,18,99,99,95,95,3,6,3,4,0.6,0.6
2026-04-26T1700,2616A,98.5611,24.4273,德宏傣族景颇族自治州,德宏州监测站,细颗粒物(PM2.5),60,NA,62,40,55,132,132,121,121,9,15,6,7,0.8,1.2
2026-04-26T1700,3677A,98.5887,24.4366,德宏傣族景颇族自治州,芒市人民政府综合楼,颗粒物(PM10),63,68,107,35,58,136,136,125,125,12,17,3,4,1.2,1.4
2026-04-26T1700,1901A,104.424,31.1209,德阳市,东山公园,,48,42,59,33,41,100,100,99,99,2,9,4,5,0.4,0.5
2026-04-26T1700,1902A,104.3827,31.1318,德阳市,西小区,颗粒物(PM10),53,53,76,26,46,100,100,94,94,7,27,4,5,0.5,0.7
2026-04-26T1700,1904A,104.3553,31.1091,德阳市,耐火材料厂,颗粒物(PM10),51,51,78,28,51,115,115,102,102,9,29,2,6,0.3,0.5
2026-04-26T1700,4145A,104.4144,31.1495,德阳市,市林业局,,48,48,64,26,43,111,111,108,108,7,27,3,3,0.3,0.4
2026-04-26T1700,1622A,116.3034,37.4675,德州市,儿童乐园,颗粒物(PM10),78,88,60,34,24,104,104,107,107,16,12,7,8,0.6,0.6
2026-04-26T1700,1624A,116.2992,37.4449,德州市,监理站,颗粒物(PM10),79,90,58,33,23,110,110,110,110,10,11,10,11,0.5,0.5
2026-04-26T1700,3066A,116.2722,37.438,德州市,九衢泉纯净水厂,颗粒物(PM10),72,80,52,33,24,117,117,112,112,14,18,7,12,0.8,0.7
2026-04-26T1700,3371A,116.3693,37.44,德州市,开发区人民医院,颗粒物(PM10),75,85,58,38,24,106,106,108,108,16,15,21,11,0.6,0.6
2026-04-26T1700,3511A,116.5687,37.3331,德州市,陵城艺术中心,颗粒物(PM10),65,70,52,40,29,107,107,113,113,12,17,11,14,0.6,0.7
2026-04-26T1700,4292A,116.352738,37.420875,德州市,新河东路,颗粒物(PM10),74,83,51,36,22,110,110,109,109,10,13,17,10,0.8,0.7
2026-04-26T1700,2621A,99.7054,27.8319,迪庆藏族自治州,迪庆州站,,40,12,25,7,15,125,125,122,122,8,10,7,7,0.3,0.3
2026-04-26T1700,3180A,99.7122,27.8129,迪庆藏族自治州,质量技术监督局,,40,25,29,11,13,125,125,128,128,10,9,8,8,0.5,0.4
2026-04-26T1700,4257A,104.6092,35.5962,定西市,将台街,,46,36,62,12,28,145,145,137,137,4,21,5,5,0.1,0.2
2026-04-26T1700,4309A,104.6159,35.5701,定西市,正龙路62号,,45,40,60,7,29,142,142,126,126,6,14,4,3,0.3,0.3
2026-04-26T1700,4071A,114.9883,38.5232,定州市,交通局,颗粒物(PM10),87,101,86,40,32,149,149,112,112,10,16,8,8,0.4,0.4
2026-04-26T1700,4072A,115.0045,38.5136,定州市,第五中学,颗粒物(PM10),109,142,93,36,28,146,146,109,109,9,13,3,3,0.4,0.3
2026-04-26T1700,1390A,113.7943,23.0132,东莞市,东城石井,臭氧1小时(O3_1h),120,37,37,20,24,239,239,169,169,22,25,6,6,0.7,0.7
2026-04-26T1700,1391A,113.7384,22.9659,东莞市,南城西平,臭氧1小时(O3_1h),118,38,45,24,30,235,235,167,167,20,29,8,7,0.5,0.6
2026-04-26T1700,3319A,113.7283,23.041,东莞市,万江金泰,臭氧1小时(O3_1h),112,43,47,33,29,224,224,157,157,19,22,8,7,0.8,0.9
2026-04-26T1700,4129A,113.8666,23.1062,东莞市,裕兴路,臭氧1小时(O3_1h),98,37,44,12,24,198,198,137,137,12,20,6,9,0.6,0.7
2026-04-26T1700,4130A,114.0076,22.9739,东莞市,教育路1号,臭氧1小时(O3_1h),106,30,45,14,27,212,212,154,154,19,24,7,8,0.6,0.6
2026-04-26T1700,4131A,113.7981,22.8124,东莞市,长怡路1号,臭氧1小时(O3_1h),115,44,58,23,33,229,229,186,186,21,31,7,7,0.7,0.7
2026-04-26T1700,1666A,118.6612,37.4313,东营市,市环保局,颗粒物(PM10),95,112,71,38,36,134,134,167,167,13,26,9,13,0.3,0.5
2026-04-26T1700,3036A,118.6903,37.4337,东营市,开发区管委会,颗粒物(PM10),87,101,70,49,40,139,139,169,169,18,28,8,13,0.5,0.6
2026-04-26T1700,3365A,118.5721,37.5654,东营市,垦利区民丰路,细颗粒物(PM2.5),84,70,67,52,34,136,136,160,160,13,25,10,14,0.8,0.7
2026-04-26T1700,3498A,118.5063,37.8606,东营市,河口城区,颗粒物(PM10),55,56,70,31,33,124,124,154,154,14,20,9,13,1.0,1.1
2026-04-26T1700,3646A,118.4979,37.4623,东营市,胜利站,颗粒物(PM10),90,106,59,49,31,121,121,145,145,18,28,6,10,0.8,0.8
2026-04-26T1700,3734A,118.5753,37.4405,东营市,理想之城,细颗粒物(PM2.5),94,102,69,57,40,102,102,127,127,24,34,7,10,0.6,0.6
2026-04-26T1700,1591A,110.0024,39.8127,鄂尔多斯市,综合楼,颗粒物(PM10),51,51,71,14,15,113,113,104,104,10,25,6,8,0.3,0.3
2026-04-26T1700,1592A,109.9485,39.8259,鄂尔多斯市,巴音孟克林场办事处,,38,22,60,3,12,121,121,111,111,5,16,4,6,0.2,0.2
2026-04-26T1700,1593A,109.7734,39.5987,鄂尔多斯市,康泽苑,,37,22,46,3,10,117,117,108,108,5,11,8,9,0.2,0.3
2026-04-26T1700,1594A,109.8121,39.5987,鄂尔多斯市,华泰汽车城,,37,12,46,7,9,116,116,107,107,5,17,8,9,0.3,0.3
2026-04-26T1700,1595A,109.9734,39.7884,鄂尔多斯市,奥林花园,,38,27,60,3,10,119,119,108,108,11,17,4,5,0.2,0.2
2026-04-26T1700,2436A,114.894,30.3989,鄂州市,市政府,臭氧1小时(O3_1h),73,60,44,20,20,178,178,142,142,12,21,12,13,0.6,0.6
2026-04-26T1700,2437A,114.8986,30.3714,鄂州市,赵家坝,臭氧1小时(O3_1h),64,52,42,26,20,171,171,139,139,2,10,16,14,0.8,0.8
2026-04-26T1700,3654A,114.8093,30.4091,鄂州市,精准医疗中心,臭氧1小时(O3_1h),68,46,47,25,25,174,174,135,135,10,23,5,16,0.7,1.4
2026-04-26T1700,2454A,109.4978,30.2979,恩施土家族苗族自治州,湖北民院,,50,46,53,35,31,88,88,93,93,13,15,8,8,0.4,0.4
2026-04-26T1700,3549A,109.5061,30.3771,恩施土家族苗族自治州,龙凤新区,颗粒物(PM10),53,53,51,25,25,75,75,82,82,11,12,6,7,0.4,0.4
2026-04-26T1700,2499A,108.3411,21.6159,防城港市,沙万,,30,29,44,20,27,93,93,84,84,18,23,6,8,0.9,0.8
2026-04-26T1700,2500A,108.3515,21.7733,防城港市,防城档案局,,34,27,44,17,29,108,108,91,91,9,10,8,8,0.9,0.8
2026-04-26T1700,2501A,108.3506,21.6414,防城港市,大海花园,,35,28,38,22,29,112,112,102,102,14,14,13,12,1.4,0.8
2026-04-26T1700,1371A,113.1293,23.0065,佛山市,湾梁,臭氧1小时(O3_1h),114,51,51,22,44,227,227,184,184,17,36,/,/,/,/
2026-04-26T1700,1372A,113.1082,23.0477,佛山市,华材职中,臭氧1小时(O3_1h),112,51,66,28,51,223,223,186,186,19,37,4,4,0.5,0.6
2026-04-26T1700,1373A,113.1439,23.045,佛山市,南海气象局,臭氧1小时(O3_1h),109,67,50,29,39,218,218,181,181,17,33,/,/,/,/
2026-04-26T1700,1374A,113.2879,22.8094,佛山市,顺德苏岗,臭氧1小时(O3_1h),123,NA,33,29,32,245,245,193,193,14,22,/,/,0.6,0.7
2026-04-26T1700,1376A,112.8384,22.8678,佛山市,高明孔堂,颗粒物(PM10),51,51,49,18,37,154,154,171,171,11,30,/,/,/,/
2026-04-26T1700,1377A,112.8835,23.1584,佛山市,三水监测站,臭氧1小时(O3_1h),101,66,63,28,41,202,202,167,167,31,59,2,4,0.5,0.7
2026-04-26T1700,1378A,112.8668,23.185,佛山市,三水云东海,臭氧1小时(O3_1h),112,79,67,24,38,223,223,192,192,22,39,/,/,/,/
2026-04-26T1700,3625A,113.2568,22.7629,佛山市,容桂街道办,臭氧1小时(O3_1h),114,46,47,28,39,228,228,194,194,22,29,/,/,/,/
2026-04-26T1700,1282A,119.2681,26.0506,福州市,师大,颗粒物(PM10),60,64,46,21,20,146,146,134,134,16,14,5,4,0.6,0.4
2026-04-26T1700,1283A,119.2983,26.1028,福州市,五四北路,颗粒物(PM10),61,65,40,25,20,148,148,132,132,16,17,5,4,0.5,0.3
2026-04-26T1700,1284A,119.2648,26.0769,福州市,杨桥西路,颗粒物(PM10),58,61,42,24,17,149,149,135,135,15,14,5,4,/,/
2026-04-26T1700,3048A,119.5799,26.0937,福州市,九龙,,42,32,33,11,15,133,133,132,132,8,13,5,5,0.3,0.3
2026-04-26T1700,3526A,119.5188,25.9666,福州市,吴航,,43,35,36,16,19,137,137,131,131,12,16,6,6,0.3,0.3
2026-04-26T1700,4104A,119.3106,26.0648,福州市,路通桥巷6号,颗粒物(PM10),53,53,43,25,21,148,148,135,135,15,12,/,/,/,/
2026-04-26T1700,1755A,123.7974,41.8494,抚顺市,望花区,,38,15,56,7,25,121,121,108,108,10,17,8,13,0.3,0.7
2026-04-26T1700,1756A,123.9161,41.8827,抚顺市,顺城区,,37,17,41,6,23,118,118,106,106,11,15,9,11,0.4,0.7
2026-04-26T1700,1757A,124.0437,41.8615,抚顺市,东洲区,,37,25,50,7,24,116,116,96,NA,9,13,7,8,0.4,0.6
2026-04-26T1700,1758A,123.9246,41.8638,抚顺市,新抚区,,40,15,44,7,23,125,125,110,110,10,15,7,9,0.4,0.7
2026-04-26T1700,1759A,124.0972,41.8961,抚顺市,大伙房水库,,38,13,36,3,22,120,120,102,102,7,12,8,9,0.3,0.5
2026-04-26T1700,1760A,123.708,41.8386,抚顺市,沈抚新城,,38,21,48,10,23,119,119,105,105,10,18,8,9,0.4,0.7
2026-04-26T1700,2377A,116.3544,27.9833,抚州市,市站,,36,32,36,24,24,115,115,102,102,4,17,4,4,0.8,0.8
2026-04-26T1700,2378A,116.3562,27.9631,抚州市,血防站,NA,NA,28,34,15,19,125,125,108,108,3,18,NA,8,0.8,0.8
2026-04-26T1700,2379A,116.3561,28.0007,抚州市,采茶剧团,,39,37,38,15,21,122,122,105,105,2,18,6,6,0.6,0.7
2026-04-26T1700,2380A,116.3854,27.9648,抚州市,医学分院,,40,38,38,12,18,127,127,110,110,2,15,6,7,0.8,0.8
2026-04-26T1700,2207A,121.6095,41.9978,阜新市,工业园区,,32,17,41,3,18,101,101,96,96,8,11,7,8,0.3,0.5
2026-04-26T1700,2208A,121.6567,42.0188,阜新市,长青街,,34,12,35,3,17,107,107,104,104,9,12,3,5,0.4,0.7
2026-04-26T1700,2209A,121.6672,42.07,阜新市,农业园区,,31,12,38,3,16,99,99,96,96,9,12,5,5,0.3,0.5
2026-04-26T1700,2211A,121.6343,42.0455,阜新市,玉龙新城,,32,15,37,3,12,102,102,99,99,10,14,6,8,0.4,0.6
2026-04-26T1700,2301A,115.8276,32.8929,阜阳市,市监测站,,43,42,41,9,17,136,136,125,125,4,17,6,7,0.3,0.4
2026-04-26T1700,2303A,115.8551,32.8606,阜阳市,开发区,NA,NA,NA,44,10,15,136,136,123,123,8,15,5,5,0.4,0.5
2026-04-26T1700,2875A,115.783962,32.889217,阜阳市,阜阳职业技术学院,,50,50,39,12,14,138,138,127,127,5,11,7,7,0.4,0.4
2026-04-26T1700,3468A,115.79,32.8614,阜阳市,市规划展馆,颗粒物(PM10),52,52,39,10,15,136,136,126,126,4,9,8,8,0.4,0.5
2026-04-26T1700,3469A,115.835101,32.918568,阜阳市,枣园社区,,43,43,38,10,16,132,132,125,125,10,16,6,7,0.2,0.3
2026-04-26T1700,2669A,102.9097,34.9841,甘南藏族自治州,州政府,,42,34,61,20,23,133,133,114,114,3,26,6,5,0.3,0.3
2026-04-26T1700,3380A,102.8915,34.9618,甘南藏族自治州,甘肃民族师范学院,,49,49,84,10,24,144,144,128,128,1,30,2,3,0.3,0.3
2026-04-26T1700,2570A,101.96,30.048,甘孜藏族自治州,水桥子,,31,16,21,14,11,97,97,77,77,4,18,6,6,0.2,0.2
2026-04-26T1700,3065A,101.9534,29.9976,甘孜藏族自治州,州环保局,,30,30,20,16,10,91,91,80,80,16,20,4,5,0.5,0.4
2026-04-26T1700,2363A,114.9368,25.8663,赣州市,地委,臭氧1小时(O3_1h),63,42,40,23,19,170,170,139,139,4,23,3,3,1.1,1
2026-04-26T1700,2364A,114.946,25.8483,赣州市,气象台,臭氧1小时(O3_1h),60,34,39,23,22,168,168,141,141,9,26,7,6,0.6,0.9
2026-04-26T1700,2365A,114.932,25.8332,赣州市,市图书馆,臭氧1小时(O3_1h),54,41,38,25,21,163,163,138,138,7,28,4,4,0.7,0.9
2026-04-26T1700,2366A,114.8905,25.8472,赣州市,华坚鞋城,,49,49,42,18,24,148,148,136,136,8,25,8,8,0,0.4
2026-04-26T1700,3109A,115.0094,25.8614,赣州市,赣县区卫计委,"颗粒物(PM10),臭氧1小时(O3_1h)",55,57,39,27,16,164,164,121,121,23,24,4,4,0.5,0.5
2026-04-26T1700,2684A,106.2753,36.0057,固原市,监测站,NA,NA,58,58,13,25,128,128,133,132,6,14,8,7,NA,0.4
2026-04-26T1700,2685A,106.2384,36.0189,固原市,新区,颗粒物(PM10),58,60,60,18,22,136,136,136,136,5,11,7,7,0.4,0.5
2026-04-26T1700,2544A,106.6307,30.4577,广安市,市委,,40,38,64,28,45,72,72,84,70,7,14,7,8,0.4,0.5
2026-04-26T1700,2545A,106.6266,30.4662,广安市,友谊中学,,40,40,57,25,37,73,73,82,69,6,14,8,8,0.4,0.5
2026-04-26T1700,2547A,106.6386,30.4551,广安市,广电花园,,45,38,61,31,46,62,62,71,60,10,16,6,7,0.4,0.5
2026-04-26T1700,2902A,106.6347,30.4868,广安市,北辰小学,,40,38,67,28,45,71,71,76,68,6,13,8,8,0.3,0.4
2026-04-26T1700,2524A,105.8211,32.4444,广元市,老城,颗粒物(PM10),67,73,64,41,34,78,78,87,87,26,28,8,4,0.9,0.7
2026-04-26T1700,2526A,105.8629,32.429,广元市,监测站,细颗粒物(PM2.5),74,69,61,47,34,74,74,82,82,32,21,11,6,1.0,0.7
2026-04-26T1700,3617A,105.8047,32.4167,广元市,经开区,颗粒物(PM10),63,67,63,35,38,77,77,82,82,24,24,7,8,0.7,0.7
2026-04-26T1700,1345A,113.2346,23.1423,广州市,广雅中学,臭氧1小时(O3_1h),103,40,52,23,32,206,206,169,169,18,49,2,3,0.9,1
2026-04-26T1700,1346A,113.2611,23.105,广州市,市五中,臭氧1小时(O3_1h),116,35,47,25,34,232,232,196,196,18,37,3,4,/,/
2026-04-26T1700,1348A,113.3477,23.0916,广州市,广东商学院,臭氧1小时(O3_1h),111,36,49,22,37,221,221,171,171,17,43,6,6,0.7,0.9
2026-04-26T1700,1349A,113.4332,23.105,广州市,市八十六中,臭氧1小时(O3_1h),115,38,43,28,28,230,230,170,170,16,50,9,9,/,/
2026-04-26T1700,1350A,113.3506,22.9488,广州市,番禺中学,臭氧1小时(O3_1h),113,48,47,26,28,225,225,174,174,16,28,6,6,0.6,0.7
2026-04-26T1700,1351A,113.2147,23.3918,广州市,花都师范,臭氧1小时(O3_1h),116,40,59,27,36,232,232,192,192,22,48,6,7,0.8,0.9
2026-04-26T1700,1352A,113.2599,23.1329,广州市,市监测站,臭氧1小时(O3_1h),101,29,45,22,30,201,201,170,170,12,36,3,3,/,/
2026-04-26T1700,1353A,113.5618,23.3119,广州市,九龙镇镇龙,臭氧1小时(O3_1h),54,37,56,19,31,163,163,125,125,16,30,6,6,0.5,0.6
2026-04-26T1700,1354A,113.2764,23.1544,广州市,麓湖,臭氧1小时(O3_1h),100,48,45,26,29,200,200,169,169,12,42,5,6,0.6,0.8
2026-04-26T1700,2846A,113.3209,23.1323,广州市,体育西,臭氧1小时(O3_1h),105,47,51,26,30,210,210,166,166,20,41,6,6,0.7,0.8
2026-04-26T1700,3298A,113.5718,23.5493,广州市,从化街口,,44,37,44,22,28,139,139,120,120,9,25,7,7,0.5,0.7
2026-04-26T1700,3299A,113.3463,23.369,广州市,白云竹料,臭氧1小时(O3_1h),107,53,60,27,32,213,213,166,166,21,37,4,4,0.7,0.8
2026-04-26T1700,3300A,113.2981,23.2365,广州市,白云嘉禾,臭氧1小时(O3_1h),104,35,64,16,38,207,207,174,174,19,46,8,7,/,/
2026-04-26T1700,3301A,113.4256,23.1716,广州市,黄埔科学城,臭氧1小时(O3_1h),105,41,49,25,35,209,209,170,170,22,33,7,5,0.6,0.7
2026-04-26T1700,3302A,113.3942,23.0485,广州市,番禺大学城,臭氧1小时(O3_1h),110,31,53,14,32,220,220,188,188,16,33,7,8,0.4,0.5
2026-04-26T1700,3303A,113.4923,22.8169,广州市,南沙黄阁,臭氧1小时(O3_1h),104,47,46,30,29,208,208,190,190,13,22,7,7,/,/
2026-04-26T1700,3304A,113.534,22.7893,广州市,南沙街,NA,NA,NA,41,NA,29,NA,NA,175,NA,NA,30,NA,7,NA,0.6
2026-04-26T1700,3443A,113.2905,23.5541,广州市,花都梯面,臭氧1小时(O3_1h),74,39,39,20,26,179,179,119,119,18,25,7,8,/,/
2026-04-26T1700,3445A,113.786,23.7479,广州市,从化良口,,40,40,25,28,18,119,119,108,108,6,13,5,5,/,/
2026-04-26T1700,3446A,113.805,23.2614,广州市,增城荔城,臭氧1小时(O3_1h),52,41,35,23,21,161,161,133,133,13,19,7,6,0.5,0.7
2026-04-26T1700,2506A,109.604387,23.066791,贵港市,江南子站,,45,44,64,31,37,117,117,114,114,4,20,8,12,0.7,0.7
2026-04-26T1700,2508A,109.5669,23.1065,贵港市,荷城子站,,41,41,53,28,34,113,113,108,108,10,20,6,9,0.6,0.7
2026-04-26T1700,3405A,109.5886,23.1172,贵港市,新世纪学校,,37,36,56,19,38,116,116,112,112,16,28,/,/,0.7,0.7
2026-04-26T1700,4260A,109.5933,23.095,贵港市,中山路155-3号,,46,46,61,25,39,128,128,122,122,8,20,/,/,0.7,0.7
2026-04-26T1700,1439A,106.6863,26.6035,贵阳市,马鞍山,,45,36,34,31,22,86,86,78,78,10,11,3,4,/,/
2026-04-26T1700,1441A,106.6241,26.6266,贵阳市,鉴湖路,颗粒物(PM10),53,53,47,21,21,91,91,86,86,14,12,6,8,0.8,0.6
2026-04-26T1700,1442A,106.7468,26.6344,贵阳市,燕子冲,,48,48,45,31,24,88,88,86,86,10,11,4,6,0.8,0.7
2026-04-26T1700,1443A,106.6556,26.4362,贵阳市,碧云窝,,46,46,48,28,24,92,92,85,85,7,8,6,10,/,/
2026-04-26T1700,1445A,106.6963,26.6063,贵阳市,红边门,,46,46,45,30,26,83,83,79,79,12,15,5,9,/,/
2026-04-26T1700,1446A,106.7162383,26.56964667,贵阳市,新华路,颗粒物(PM10),53,53,51,29,24,81,81,80,80,14,16,32,26,0.4,0.3
2026-04-26T1700,1447A,106.6742,26.542,贵阳市,太慈桥,,46,44,41,32,24,75,75,72,72,11,15,4,6,/,/
2026-04-26T1700,4230A,106.688212,26.56952,贵阳市,花果园大街66号,,40,34,29,28,23,83,83,78,78,10,10,3,5,/,/
2026-04-26T1700,4231A,106.687268,26.516892,贵阳市,漓江路57号,,42,39,35,29,25,74,74,74,74,11,13,6,9,0.4,0.3
2026-04-26T1700,1864A,110.3091,25.2705,桂林市,龙隐路小学,,39,28,43,27,30,120,120,106,106,7,14,5,7,0.4,0.5
2026-04-26T1700,1865A,110.2849361,25.22909545,桂林市,八中,,37,37,55,7,20,114,114,99,99,5,21,5,6,0.4,0.6
2026-04-26T1700,3531A,110.296,25.1254,桂林市,旅游学院,,38,38,46,21,32,120,120,110,110,3,17,7,8,0.6,0.6
2026-04-26T1700,4222A,110.1835,25.2444,桂林市,环湖路276号,,42,31,48,29,32,126,126,105,105,4,35,4,7,0.4,0.4
2026-04-26T1700,4301A,110.2803,25.2773,桂林市,信义路13号,颗粒物(PM10),75,84,50,11,30,122,122,107,107,7,22,6,10,0.7,0.7
2026-04-26T1700,2674A,100.2262,34.4854,果洛藏族自治州,玛沁县大武镇,,29,20,32,6,12,90,90,86,86,1,4,18,22,0.3,0.5
2026-04-26T1700,1130A,126.5557,45.8109,哈尔滨市,松北商大,,28,27,27,11,12,89,89,94,94,6,15,4,5,0.6,0.6
2026-04-26T1700,1132A,126.6162,45.719,哈尔滨市,南岗学府路,,30,23,36,3,12,94,94,96,96,7,20,2,2,0.3,0.7
2026-04-26T1700,1133A,126.6894,45.7733,哈尔滨市,太平宏伟公园,,30,30,32,6,13,90,90,96,96,10,25,4,5,0.3,0.3
2026-04-26T1700,1134A,126.6361,45.7672,哈尔滨市,道外承德广场,,41,41,43,9,11,90,90,90,90,8,31,6,7,0.2,0.5
2026-04-26T1700,1136A,126.644,45.7261,哈尔滨市,动力和平路,,29,28,32,3,11,90,90,94,94,10,25,17,6,0.0,0.3
2026-04-26T1700,1137A,126.5933,45.7479,哈尔滨市,道里建国路,,29,27,27,11,13,90,90,93,93,6,27,1,2,1.0,0.8
2026-04-26T1700,1138A,126.6127,45.6119,哈尔滨市,平房东轻厂,,30,10,23,8,10,95,95,99,99,8,26,9,11,0.3,0.4
2026-04-26T1700,1139A,126.5875,45.9827,哈尔滨市,呼兰师专,,39,39,26,7,8,72,72,82,82,10,20,10,10,0.1,0.1
2026-04-26T1700,1140A,126.6299,45.6799,哈尔滨市,省农科院,颗粒物(PM10),90,106,65,19,20,93,93,93,93,4,23,5,6,0.3,0.4
2026-04-26T1700,4282A,126.6769,45.7379,哈尔滨市,华山路1号,,31,22,33,11,12,97,97,101,101,1,19,3,2,0.3,0.4
2026-04-26T1700,4283A,126.9717,45.5356,哈尔滨市,解放大街52号,,32,22,43,3,11,102,102,104,104,11,19,3,4,0.3,0.5
2026-04-26T1700,2688A,93.5124,42.8176,哈密市,地区监测站,,35,NA,24,23,12,110,110,98,98,5,8,15,14,0.1,0.1
2026-04-26T1700,2689A,93.5014,42.8312,哈密市,哈密师范学校,NA,NA,NA,35,NA,16,NA,NA,115,99,NA,10,NA,9,NA,0.0
2026-04-26T1700,2671A,100.9016,36.9464,海北藏族自治州,海晏县西海镇,,44,32,35,17,15,140,140,133,133,1,2,10,9,0.4,0.4
2026-04-26T1700,3867A,102.074,36.5056,海东市,平安区公安局北苑,颗粒物(PM10),55,57,65,33,24,148,148,129,129,7,13,12,13,0.5,0.5
2026-04-26T1700,4163A,102.0984,36.5119,海东市,滨河路,,41,41,56,20,19,121,121,107,107,16,32,10,12,0.6,0.7
2026-04-26T1700,1410A,110.3189,20.0596,海口市,海南大学,,34,21,27,11,20,106,106,120,108,4,5,5,5,0.4,0.5
2026-04-26T1700,1411A,110.2827,20.0051,海口市,秀英海南医院,,31,22,24,10,18,97,97,101,96,4,7,7,7,0.3,0.4
2026-04-26T1700,1412A,110.3391,19.9979,海口市,海南师范大学,,33,27,30,12,21,103,103,109,100,5,6,5,6,0.5,0.5
2026-04-26T1700,1413A,110.3303,20.0359,海口市,龙华路环保局宿舍,,34,24,26,12,19,107,107,114,106,6,7,/,/,0.8,0.8
2026-04-26T1700,3539A,110.5111,19.9737,海口市,桂林洋子站,,27,16,32,11,20,84,84,89,89,3,7,/,/,/,/
2026-04-26T1700,4134A,110.1952,20.0451,海口市,长滨二路9号,,32,18,22,11,19,102,102,104,104,2,5,/,/,/,/
2026-04-26T1700,2673A,100.6158,36.2985,海南藏族自治州,共和县恰卜恰镇,,48,39,43,20,17,151,151,137,137,5,7,10,11,0.2,0.3
2026-04-26T1700,2676A,97.373,37.376,海西蒙古族藏族自治州,德令哈市,,44,35,29,9,11,140,140,134,134,1,1,16,16,0.3,0.3
2026-04-26T1700,1049A,114.492,36.5712,邯郸市,矿院,颗粒物(PM10),64,69,52,34,31,138,138,125,125,3,8,4,5,0.3,0.4
2026-04-26T1700,1050A,114.4839,36.6136,邯郸市,丛台公园,颗粒物(PM10),55,56,49,29,30,136,136,123,123,4,9,3,4,0.3,0.4
2026-04-26T1700,3458A,114.7893,36.5592,邯郸市,香泉濮院小区,颗粒物(PM10),76,86,58,44,33,133,133,114,114,9,11,3,3,0.5,0.4
2026-04-26T1700,3580A,114.1998,36.4439,邯郸市,峰峰矿区临水派出所,颗粒物(PM10),54,55,65,27,32,134,134,128,128,11,20,5,7,0.3,0.6
2026-04-26T1700,4068A,114.5209,36.7697,邯郸市,建安街268号,颗粒物(PM10),56,58,70,25,26,121,121,107,107,12,12,2,3,0.3,0.5
2026-04-26T1700,4069A,114.5488,36.6177,邯郸市,丛台东路558号,颗粒物(PM10),68,74,56,28,26,128,128,116,116,4,12,2,4,0.3,0.4
2026-04-26T1700,2635A,107.0155,33.0707,汉中市,市监测站,颗粒物(PM10),60,64,64,29,37,132,132,106,106,12,18,5,6,0.5,0.6
2026-04-26T1700,2636A,107.0083,33.114,汉中市,鑫源开发区,颗粒物(PM10),61,65,57,25,36,139,139,109,109,12,20,6,7,0.5,0.7
2026-04-26T1700,2637A,107.0072,33.0323,汉中市,南郑大河坎水厂,颗粒物(PM10),52,52,58,30,34,122,122,103,103,12,17,4,4,0.3,0.4
2026-04-26T1700,1223A,120.2073,30.2111,杭州市,滨江,臭氧1小时(O3_1h),98,38,57,20,30,198,198,164,164,14,28,9,9,0.7,0.7
2026-04-26T1700,1224A,120.0625,30.2737,杭州市,西溪,臭氧1小时(O3_1h),85,36,44,18,23,188,188,149,149,10,18,6,5,0.6,0.6
2026-04-26T1700,1226A,120.3417,30.315,杭州市,下沙,臭氧1小时(O3_1h),62,27,65,19,30,169,169,155,155,9,32,8,9,0.6,0.7
2026-04-26T1700,1227A,120.1252,30.2465,杭州市,卧龙桥,臭氧1小时(O3_1h),93,35,44,18,24,194,194,166,166,18,22,9,9,0.4,0.5
2026-04-26T1700,1228A,120.1902,30.2691,杭州市,浙江农大,臭氧1小时(O3_1h),69,35,50,19,27,175,175,151,151,36,37,8,9,0.4,0.4
2026-04-26T1700,1230A,120.1195,30.3121,杭州市,和睦小学,臭氧1小时(O3_1h),82,43,43,19,27,185,185,154,154,24,28,7,7,0.5,0.6
2026-04-26T1700,1231A,120.3076,30.4146,杭州市,临平镇,臭氧1小时(O3_1h),88,36,55,18,30,190,190,166,166,14,27,7,7,0.5,0.5
2026-04-26T1700,1232A,120.2753,30.1839,杭州市,城厢镇,臭氧1小时(O3_1h),60,36,55,24,34,168,168,140,140,20,31,7,8,0.5,0.5
2026-04-26T1700,1233A,120.0883,30.1808,杭州市,云栖,颗粒物(PM10),69,76,65,17,26,171,171,157,157,17,28,8,8,0.6,0.7
2026-04-26T1700,3557A,119.9463,30.0496,杭州市,镇二中,臭氧1小时(O3_1h),62,34,54,19,36,169,169,144,144,20,26,6,7,0.4,0.5
2026-04-26T1700,3558A,119.7184,30.2367,杭州市,市府大楼,臭氧1小时(O3_1h),54,29,46,18,32,163,163,141,141,14,20,8,8,0.5,0.6
2026-04-26T1700,3656A,120.1554,30.2863,杭州市,消防大队,臭氧1小时(O3_1h),63,40,56,22,31,170,170,138,138,12,22,6,6,0.5,0.5
2026-04-26T1700,1270A,117.1957,31.7845,合肥市,明珠广场,,47,39,37,13,19,149,149,128,128,9,27,8,8,0.5,0.6
2026-04-26T1700,1271A,117.307,31.8765,合肥市,三里街,,40,39,44,11,21,126,126,104,104,21,39,7,6,0.4,0.6
2026-04-26T1700,1272A,117.2587,31.8703,合肥市,琥珀山庄,,45,39,42,9,19,143,143,121,121,9,26,8,7,0.7,0.8
2026-04-26T1700,1275A,117.2593,31.9376,合肥市,庐阳区,,41,41,46,11,19,131,131,114,114,14,36,6,6,0.5,0.7
2026-04-26T1700,1276A,117.345251,31.861615,合肥市,瑶海区,颗粒物(PM10),51,51,44,9,17,138,138,117,117,13,31,8,7,0.4,0.5
2026-04-26T1700,1277A,117.3033,31.7967,合肥市,包河区,,42,39,50,10,20,134,134,114,114,3,41,10,10,0.5,0.5
2026-04-26T1700,1278A,117.278,31.7392,合肥市,滨湖新区,,43,36,33,9,15,135,135,117,117,4,11,7,6,0.5,0.5
2026-04-26T1700,1279A,117.1324,31.8395,合肥市,高新区,,45,39,37,12,15,144,144,123,123,6,18,6,6,0.4,0.5
2026-04-26T1700,3464A,117.3802,31.9148,合肥市,高教基地,,45,39,38,9,14,142,142,119,119,8,27,9,8,0.5,0.6
2026-04-26T1700,4098A,117.2518,31.8404,合肥市,中国科学技术大学,,46,39,40,10,18,147,147,123,123,8,22,7,7,0.6,0.6
2026-04-26T1700,3614A,79.9241,37.0878,和田地区,地区环保局,颗粒物(PM10),72,80,321,22,97,102,102,99,99,1,5,3,3,0.5,0.5
2026-04-26T1700,3615A,79.9132,37.1137,和田地区,市环保局,颗粒物(PM10),72,80,269,14,88,103,103,98,98,3,7,1,2,0.2,0.5
2026-04-26T1700,2517A,108.0496,24.6957,河池市,市环保站,,45,45,38,25,24,118,118,106,106,3,11,11,10,0.8,0.7
2026-04-26T1700,4302A,108.0901,24.6945,河池市,上任中路54号,,46,46,45,23,24,124,124,103,103,6,24,10,11,0.8,0.8
2026-04-26T1700,1697A,114.6962,23.7538,河源市,东埔,,43,36,29,30,21,125,125,97,97,6,18,6,6,0.3,0.5
2026-04-26T1700,1698A,114.6895,23.7232,河源市,老城,,49,49,29,24,19,119,119,96,96,5,16,6,6,0.3,0.5
2026-04-26T1700,3374A,115.5562,35.089,菏泽市,定陶老年大学,颗粒物(PM10),56,58,48,15,19,136,136,124,124,8,13,6,6,0.4,0.4
2026-04-26T1700,4114A,115.4239,35.2593,菏泽市,黄河路600号,颗粒物(PM10),65,71,58,18,21,135,135,121,121,6,10,3,4,0.4,0.3
2026-04-26T1700,4115A,115.5025,35.2727,菏泽市,菏泽市人社局,颗粒物(PM10),59,62,48,17,19,133,133,123,123,6,10,7,7,0.3,0.3
2026-04-26T1700,4184A,115.479691,35.244011,菏泽市,永昌路1号,颗粒物(PM10),60,63,46,17,18,147,147,133,133,7,10,6,5,0.2,0.2
2026-04-26T1700,4193A,115.471542,35.280012,菏泽市,长城路999号,颗粒物(PM10),56,58,46,22,20,141,141,128,128,6,10,9,9,0.3,0.3
2026-04-26T1700,2514A,111.5264,24.4178,贺州市,环保小区,,50,50,44,20,26,148,148,125,125,12,17,8,6,0.4,0.4
2026-04-26T1700,2515A,111.561,24.4074,贺州市,政协大楼,臭氧1小时(O3_1h),52,36,39,21,27,161,161,156,156,14,24,11,11,0.3,0.4
2026-04-26T1700,3534A,111.4744,24.455,贺州市,西湾,,46,36,53,22,31,145,145,126,126,10,25,10,9,0.6,0.7
2026-04-26T1700,2385A,114.17,35.9019,鹤壁市,市监测站,细颗粒物(PM2.5),82,73,61,51,43,148,148,130,130,8,11,6,8,0.7,0.7
2026-04-26T1700,2386A,114.2953,35.7512,鹤壁市,市交警支队,颗粒物(PM10),83,96,69,46,35,136,136,127,127,6,11,5,8,0.7,0.6
2026-04-26T1700,2387A,114.2877,35.7302,鹤壁市,迎宾馆,细颗粒物(PM2.5),102,106,82,62,38,148,148,135,135,9,13,10,7,0.6,0.5
2026-04-26T1700,3474A,114.2616,35.6824,鹤壁市,大新区,细颗粒物(PM2.5),92,103,76,56,44,143,143,129,129,8,13,8,8,0.7,0.6
2026-04-26T1700,3596A,114.1573,35.9607,鹤壁市,南山宾馆,颗粒物(PM10),95,112,75,51,42,143,143,127,127,11,13,9,9,0.7,0.7
2026-04-26T1700,2244A,130.2537,47.3416,鹤岗市,哈啤分公司,,28,23,29,8,14,88,88,86,86,8,12,10,11,0.3,0.3
2026-04-26T1700,2245A,130.2683,47.3087,鹤岗市,斯达机电,,28,24,32,10,15,88,88,88,88,6,11,10,11,0.4,0.4
2026-04-26T1700,2246A,130.3114,47.3388,鹤岗市,东山纸板厂,,39,39,74,14,18,89,89,90,90,7,18,8,10,0.4,0.5
2026-04-26T1700,2263A,127.4832,50.2524,黑河市,交通局,,26,20,15,18,22,71,71,73,73,17,11,9,6,0.3,0.2
2026-04-26T1700,2264A,127.5146,50.2339,黑河市,环保局,,24,10,13,9,6,74,74,72,72,10,8,6,6,0.3,0.3
2026-04-26T1700,1074A,115.6839,37.754,衡水市,电机北厂,细颗粒物(PM2.5),80,81,67,50,29,115,115,114,114,13,13,4,5,0.4,0.4
2026-04-26T1700,1075A,115.6303,37.7318,衡水市,市监测站,颗粒物(PM10),83,96,68,48,26,114,114,111,111,15,12,8,7,0.5,0.4
2026-04-26T1700,3188A,115.6684,37.7216,衡水市,市城管局,细颗粒物(PM2.5),90,99,65,55,29,120,120,121,121,13,12,3,3,0.4,0.4
2026-04-26T1700,3459A,115.599,37.5491,衡水市,地表水厂,颗粒物(PM10),82,94,64,36,25,117,117,112,112,8,10,5,6,0.4,0.3
2026-04-26T1700,2457A,112.6209,26.9268,衡阳市,衡阳化工总厂,颗粒物(PM10),53,54,57,13,28,137,137,116,116,8,22,6,8,0.5,0.7
2026-04-26T1700,2458A,112.621,26.8957,衡阳市,珠晖区环保局,,47,47,57,10,28,131,131,120,120,6,28,8,9,0.5,0.9
2026-04-26T1700,2459A,112.628,26.8654,衡阳市,市委党校,,46,46,58,16,37,133,133,114,114,6,20,10,10,0.5,0.8
2026-04-26T1700,2460A,112.6007,26.8977,衡阳市,市监测站,细颗粒物(PM2.5),64,44,58,42,36,124,124,104,104,13,27,9,9,0.4,0.9
2026-04-26T1700,2461A,112.5658,26.9013,衡阳市,真空机电公司,,43,42,54,15,31,136,136,117,117,11,31,8,10,0.5,1
2026-04-26T1700,3399A,112.6703,26.8817,衡阳市,师范学院,NA,NA,47,47,NA,28,137,137,119,119,7,14,7,10,0.4,0.6
2026-04-26T1700,3038A,103.3757,23.3679,红河哈尼族彝族自治州,州图书馆,,33,22,38,22,29,105,105,103,103,6,6,4,4,0.5,0.5
2026-04-26T1700,4154A,103.401,23.3561,红河哈尼族彝族自治州,蒙自市朝阳路,,35,NA,25,19,27,109,109,100,100,3,3,4,4,0.4,0.5
2026-04-26T1700,1090A,111.6506,40.7517,呼和浩特市,呼市一监,,44,44,33,16,9,137,137,115,115,9,8,8,7,0.3,0.3
2026-04-26T1700,1094A,111.7516,40.8369,呼和浩特市,如意水处理厂,,42,31,31,8,10,132,132,112,112,7,8,9,7,0.3,0.2
2026-04-26T1700,1095A,111.727798,40.806187,呼和浩特市,二十九中,,39,17,34,16,14,124,124,106,106,6,5,10,8,0.3,0.4
2026-04-26T1700,1097A,111.717,40.7617,呼和浩特市,化肥厂生活区,,42,38,36,18,11,133,133,112,112,8,9,8,7,0.2,0.2
2026-04-26T1700,3699A,111.6519,40.8389,呼和浩特市,海东办,NA,NA,56,30,NA,8,128,128,108,108,9,8,7,4,0.3,0.2
2026-04-26T1700,4275A,111.591512,40.827312,呼和浩特市,成吉思汗西街8号,颗粒物(PM10),65,70,38,21,11,132,132,110,110,12,14,6,5,0.4,0.3
2026-04-26T1700,4276A,111.6597,40.8077,呼和浩特市,公园东路75号,颗粒物(PM10),53,53,37,10,9,124,124,107,107,10,9,7,4,0.2,0.3
2026-04-26T1700,4277A,111.5427,40.7846,呼和浩特市,金海路35号,,40,39,46,24,13,126,126,107,107,15,12,7,5,0.4,0.3
2026-04-26T1700,3061A,119.7511,49.1576,呼伦贝尔市,国华电力东,,26,22,26,7,12,83,83,81,81,5,9,4,4,0.3,0.3
2026-04-26T1700,4279A,119.7569,49.2222,呼伦贝尔市,伊敏大街东7号,,25,15,27,8,11,80,80,78,78,7,12,6,6,0.7,0.5
2026-04-26T1700,1250A,120.075,30.867,湖州市,城西水厂,臭氧1小时(O3_1h),89,33,44,19,25,191,191,168,168,12,28,7,8,0.4,0.4
2026-04-26T1700,2873A,120.083,30.8929,湖州市,仁皇山新区,臭氧1小时(O3_1h),83,35,43,23,26,186,186,160,160,19,32,6,6,0.5,0.5
2026-04-26T1700,2907A,120.1846,30.8592,湖州市,吴兴区站,臭氧1小时(O3_1h),92,43,71,16,25,193,193,170,170,15,29,7,8,0.4,0.3
2026-04-26T1700,3562A,120.4146,30.8538,湖州市,南浔区站,臭氧1小时(O3_1h),62,32,52,17,29,169,169,156,156,11,21,6,8,0.6,0.6
2026-04-26T1700,1607A,120.904878,40.721091,葫芦岛市,龙港区,,37,27,41,8,21,118,118,105,105,17,15,10,14,0.6,0.6
2026-04-26T1700,1608A,120.8382,40.7521,葫芦岛市,化工街,细颗粒物(PM2.5),52,NA,48,36,29,112,112,100,100,18,19,23,16,0.5,0.5
2026-04-26T1700,1609A,120.8339,40.7078,葫芦岛市,新区,,37,20,39,14,24,117,117,102,102,12,14,9,12,0.4,0.5
2026-04-26T1700,1610A,120.8697,40.7679,葫芦岛市,东城区,,38,33,42,20,25,119,119,105,105,17,18,11,13,0.4,0.6
2026-04-26T1700,2483A,109.9297,27.5383,怀化市,河西地税局,,37,37,48,24,24,114,114,104,104,13,13,8,8,/,/
2026-04-26T1700,2484A,109.9783,27.5342,怀化市,市四医院,,42,42,70,20,52,115,115,106,106,10,21,7,8,0.4,0.4
2026-04-26T1700,2485A,109.9971,27.5579,怀化市,监测楼,,43,43,62,28,34,112,112,99,99,2,14,5,5,0.6,0.7
2026-04-26T1700,1210A,119.0566,33.5991,淮安市,钵池山,臭氧1小时(O3_1h),62,41,54,19,32,169,169,155,155,11,21,10,11,0.6,0.6
2026-04-26T1700,1211A,119.0083,33.578,淮安市,北京南路,,49,36,51,12,29,154,154,148,148,10,23,9,10,0.3,0.4
2026-04-26T1700,1212A,118.9938,33.6083,淮安市,市监测站,臭氧1小时(O3_1h),57,27,44,11,30,165,165,166,166,8,19,9,11,0.8,0.9
2026-04-26T1700,1213A,119.135,33.5038,淮安市,楚州区监测站,臭氧1小时(O3_1h),77,51,56,23,32,181,181,164,164,11,27,8,8,0.6,0.6
2026-04-26T1700,3426A,118.8757,33.2897,淮安市,新华书店,,46,30,57,10,26,147,147,146,146,6,23,8,9,0.4,0.6
2026-04-26T1700,4092A,119.119691,33.550006,淮安市,枚皋中路89号,臭氧1小时(O3_1h),78,36,56,17,32,182,182,162,162,8,20,8,9,0.7,0.6
2026-04-26T1700,4206A,119.028838,33.631911,淮安市,承德北路606号,,48,36,59,12,27,153,153,156,155,12,20,11,11,0.5,0.6
2026-04-26T1700,2282A,116.8005,33.9749,淮北市,监测站,,44,32,55,14,29,138,138,134,134,8,18,7,8,0.4,0.5
2026-04-26T1700,2283A,116.8094,33.9008,淮北市,烈山区政府,,42,42,64,6,30,133,133,126,126,5,18,6,9,0.3,0.5
2026-04-26T1700,4017A,116.7926,33.9534,淮北市,市博物馆,颗粒物(PM10),58,60,53,13,31,135,135,130,130,7,16,6,9,0.3,0.5
2026-04-26T1700,4100A,116.8322,33.9884,淮北市,杜集区第一实验学校,,46,46,62,7,26,138,138,132,132,6,13,7,9,0.4,0.5
2026-04-26T1700,2277A,116.8304,32.7726,淮南市,潘集区政府,,41,40,41,7,21,131,131,115,115,10,22,6,8,0.3,0.5
2026-04-26T1700,2279A,116.8569,32.5949,淮南市,谢家集区政府,,43,22,32,9,22,136,136,115,115,8,18,7,9,0.2,0.3
2026-04-26T1700,2280A,116.8279,32.6333,淮南市,八公山区政府,,42,36,43,8,20,134,134,114,114,5,13,6,7,0.1,0.3
2026-04-26T1700,2894A,117.0561,32.6536,淮南市,经济技术开发区消防队,,42,29,42,9,23,133,133,114,114,6,18,7,8,0.3,0.4
2026-04-26T1700,3329A,117.011,32.5891,淮南市,山南新区,,45,37,35,9,22,143,143,122,122,10,16,8,9,0.2,0.4
2026-04-26T1700,4209A,117.003137,32.644456,淮南市,国庆中路369号,,41,37,37,12,20,130,130,114,114,6,12,8,8,0.3,0.4
2026-04-26T1700,2446A,114.9021,30.474,黄冈市,职工中心,臭氧1小时(O3_1h),53,42,34,28,23,162,162,132,132,12,13,13,12,0.7,0.7
2026-04-26T1700,2929A,114.8858,30.4519,黄冈市,红卫路,臭氧1小时(O3_1h),64,39,33,24,25,171,171,141,141,7,12,8,8,0.2,0.2
2026-04-26T1700,3398A,114.9134,30.4446,黄冈市,市林业局,臭氧1小时(O3_1h),63,58,45,34,25,170,170,144,144,8,16,3,4,0.6,0.6
2026-04-26T1700,2672A,102.02,35.5101,黄南藏族自治州,同仁县隆务镇,,46,44,41,22,16,146,146,137,137,3,3,12,11,0.2,0.2
2026-04-26T1700,2295A,118.2905,29.6965,黄山市,延安路89号,,35,35,22,12,10,111,111,97,97,3,9,5,5,0.2,0.3
2026-04-26T1700,2297A,118.1369,30.2755,黄山市,黄山区政府5号楼,颗粒物(PM10),51,51,22,11,11,107,107,93,93,5,5,3,2,0.3,0.3
2026-04-26T1700,4210A,118.335445,29.720283,黄山市,滨江东路7-2号,,43,43,35,14,12,111,111,103,103,6,10,/,/,/,/
2026-04-26T1700,2423A,115.0547,30.2332,黄石市,沈家营,颗粒物(PM10),63,68,49,30,24,149,149,132,132,20,25,6,5,0.7,0.5
2026-04-26T1700,2426A,114.899,30.211,黄石市,铁山,颗粒物(PM10),54,55,53,31,23,153,153,136,136,8,16,15,12,0.2,0.2
2026-04-26T1700,2427A,115.0259,30.2108,黄石市,团城山,颗粒物(PM10),53,53,46,24,21,130,130,105,105,18,21,9,8,0.7,0.8
2026-04-26T1700,3149A,115.0174,30.1591,黄石市,笔架山北路,颗粒物(PM10),51,51,57,22,24,151,151,127,127,8,15,10,14,0.8,0.9
2026-04-26T1700,4185A,115.078022,30.21118,黄石市,磁湖东路29号,颗粒物(PM10),56,58,51,28,25,149,149,123,123,15,25,5,4,0.5,0.6
2026-04-26T1700,1392A,114.4181,23.0528,惠州市,河南岸金山湖子站,,45,31,33,24,22,143,143,97,97,11,14,7,7,0.5,0.6
2026-04-26T1700,1393A,114.4055,23.0824,惠州市,下埔横江三路子站,,47,28,39,12,22,149,149,107,107,8,11,5,5,0.7,0.8
2026-04-26T1700,1395A,114.4645,22.7832,惠州市,惠阳区承修路船湖子站,,43,31,48,20,27,137,137,121,121,10,14,7,7,0.6,0.6
2026-04-26T1700,1396A,114.5316,22.7423,惠州市,大亚湾管委会子站,,45,30,37,20,23,143,143,50,NA,9,15,6,6,0.5,0.6
2026-04-26T1700,3314A,114.4334,22.8134,惠州市,惠阳秋长,,45,39,35,13,23,142,142,129,129,11,16,/,/,/,/
2026-04-26T1700,3452A,114.6521,22.7755,惠州市,大亚湾霞涌,,46,32,25,21,21,147,147,121,121,9,11,/,/,/,/
2026-04-26T1700,4300A,114.4089,23.1147,惠州市,文华一路1号,,45,22,34,13,23,142,142,109,109,6,11,/,/,/,/
2026-04-26T1700,2240A,130.9618,45.2926,鸡西市,环保局,,30,18,18,9,12,94,94,94,94,7,8,7,7,0.2,0.2
2026-04-26T1700,2243A,130.9294,45.2959,鸡西市,第一中学,,30,16,17,8,13,93,93,89,89,4,7,6,6,0.2,0.2
2026-04-26T1700,3707A,131.0069,45.2988,鸡西市,欧美日汽修厂,,27,16,21,6,12,86,86,85,85,11,13,6,7,0.3,0.4
2026-04-26T1700,2367A,114.9753,27.0803,吉安市,红声器材厂,,48,48,45,23,22,142,142,124,124,6,16,8,9,0.1,0.3
2026-04-26T1700,2369A,114.9903,27.1313,吉安市,市环境监测站,,47,40,41,19,24,150,150,134,134,7,18,12,14,/,/
2026-04-26T1700,2370A,115.009527,27.096792,吉安市,青原区法院,,46,46,38,19,20,133,133,119,119,8,20,7,8,0.3,0.4
2026-04-26T1700,1772A,126.54,43.8622,吉林市,哈达湾,,35,22,41,10,22,112,112,106,106,5,9,5,7,0.2,0.3
2026-04-26T1700,1773A,126.5843,43.8358,吉林市,东局子,,35,11,33,9,20,110,110,103,103,8,10,3,4,0.7,0.8
2026-04-26T1700,1774A,126.5051,43.8243,吉林市,电力学院,,39,15,38,10,24,123,123,115,115,5,9,5,7,0.4,0.6
2026-04-26T1700,1775A,126.6133,43.8971,吉林市,江北,,35,20,37,10,20,111,111,104,104,10,8,10,10,0.6,0.7
2026-04-26T1700,1776A,126.5549,43.8304,吉林市,江南公园,,34,19,36,10,21,108,108,101,101,8,12,6,7,0.5,0.6
2026-04-26T1700,2868A,126.4737,43.953,吉林市,九站,,36,23,44,12,26,115,115,103,103,7,16,8,19,0.2,0.4
2026-04-26T1700,1299A,116.9866,36.6118,济南市,科干所,细颗粒物(PM2.5),62,61,46,41,20,153,153,144,144,14,11,8,7,0.8,0.6
2026-04-26T1700,1300A,116.9379,36.6652,济南市,农科所,细颗粒物(PM2.5),78,76,52,49,23,144,144,137,137,14,12,8,7,0.4,0.3
2026-04-26T1700,1301A,117.1265,36.6736,济南市,开发区,细颗粒物(PM2.5),88,81,41,54,21,151,151,141,141,17,9,7,6,0.7,0.4
2026-04-26T1700,1303A,117.0616,36.6865,济南市,省种子仓库,细颗粒物(PM2.5),96,107,64,58,22,149,149,143,143,15,10,7,6,0.8,0.5
2026-04-26T1700,1304A,116.9495185,36.644937,济南市,机床二厂,细颗粒物(PM2.5),84,66,57,52,29,144,144,138,138,14,12,8,7,0.6,0.5
2026-04-26T1700,1305A,117.0496,36.6629,济南市,市监测站,细颗粒物(PM2.5),101,85,48,61,23,145,145,139,139,20,12,5,5,0.8,0.6
2026-04-26T1700,1306A,116.7674,36.5458,济南市,长清党校,颗粒物(PM10),69,76,55,44,23,140,140,137,137,8,12,7,7,0.7,0.6
2026-04-26T1700,1961A,117.5323,36.6865,济南市,东山小学,颗粒物(PM10),65,71,58,32,22,141,141,147,147,11,13,6,6,0.4,0.4
2026-04-26T1700,3059A,117.7181,36.205,济南市,泰兴公司,颗粒物(PM10),51,51,55,12,24,145,145,140,140,8,29,9,16,0.3,0.5
2026-04-26T1700,3064A,117.6861,36.2172,济南市,莱芜战役纪念馆,颗粒物(PM10),51,51,54,11,24,155,155,149,149,7,20,6,10,0.2,0.3
2026-04-26T1700,3494A,117.1673,36.9782,济南市,济阳区政府,细颗粒物(PM2.5),82,76,61,51,27,130,130,131,131,18,21,6,7,0.7,0.5
2026-04-26T1700,3495A,117.1168,36.6299,济南市,锦屏中学,细颗粒物(PM2.5),86,78,41,53,19,109,109,114,112,15,8,8,6,0.5,0.4
2026-04-26T1700,4108A,117.7107,36.2385,济南市,山财大街5号,,48,48,54,12,24,151,151,146,146,10,23,6,11,0.6,0.7
2026-04-26T1700,4109A,116.9744,36.6889,济南市,无影山路12号,细颗粒物(PM2.5),88,73,44,54,23,131,131,132,132,15,13,6,6,0.8,0.5
2026-04-26T1700,1653A,116.6229,35.4288,济宁市,火炬城,,46,46,49,8,23,139,139,131,131,5,11,4,5,0.5,0.6
2026-04-26T1700,3500A,116.5808,35.3703,济宁市,北湖一中,颗粒物(PM10),53,54,49,11,22,150,150,143,143,8,15,8,10,0.3,0.5
2026-04-26T1700,3501A,116.8251,35.5592,济宁市,服务中心,,45,45,53,14,36,143,143,131,131,6,15,2,4,0.5,0.7
2026-04-26T1700,3678A,116.5907,35.4054,济宁市,市第七中学,,49,49,52,11,24,154,154,146,146,8,14,5,7,0.3,0.4
2026-04-26T1700,4111A,116.6075,35.4566,济宁市,任和路,,50,50,58,12,23,154,154,145,145,7,12,6,8,0.4,0.5
2026-04-26T1700,4112A,116.5648,35.3921,济宁市,文体南路1号,,45,45,53,3,20,144,144,134,134,6,9,5,6,0.5,0.6
2026-04-26T1700,4122A,112.6071,35.1015,济源市,市委党校,颗粒物(PM10),71,79,86,30,36,133,133,130,130,12,19,8,15,0.5,0.7
2026-04-26T1700,4123A,112.596,35.0702,济源市,沁园中路1号,颗粒物(PM10),60,64,70,24,35,144,144,125,125,11,25,4,8,0.5,0.9
2026-04-26T1700,2255A,130.2749,46.8028,佳木斯市,佳纺,,28,24,31,16,16,88,88,92,92,8,13,3,4,0.2,0.3
2026-04-26T1700,2257A,130.3258,46.7975,佳木斯市,环保局,,30,20,25,17,16,96,96,96,96,6,12,1,2,0.1,0.1
2026-04-26T1700,4285A,130.363,46.806,佳木斯市,顺和街,,29,16,28,11,17,92,92,90,90,8,19,2,2,0.2,0.3
2026-04-26T1700,4286A,130.3952,46.8268,佳木斯市,长安路196号,,30,16,24,11,16,96,96,92,92,6,15,2,2,0.2,0.3
2026-04-26T1700,1252A,120.7439,30.778,嘉兴市,清河小学,臭氧1小时(O3_1h),79,46,48,15,24,183,183,172,172,15,22,8,8,0.4,0.4
2026-04-26T1700,1253A,120.7261,30.7477,嘉兴市,嘉兴学院,臭氧1小时(O3_1h),107,54,56,30,25,213,213,176,176,21,23,8,8,0.5,0.5
2026-04-26T1700,2872A,120.7845,30.7524,嘉兴市,南湖区残联,臭氧1小时(O3_1h),117,77,44,42,26,234,234,196,196,20,26,6,7,0.6,0.5
2026-04-26T1700,3407A,120.6915,30.7741,嘉兴市,秀洲住建,臭氧1小时(O3_1h),95,38,46,14,24,196,196,184,184,15,25,8,9,0.4,0.3
2026-04-26T1700,1945A,98.291,39.7705,嘉峪关市,气象局,,39,36,42,20,16,122,122,112,112,4,9,11,12,0.7,0.7
2026-04-26T1700,2884A,98.2672,39.7978,嘉峪关市,酒钢宾馆,,44,44,42,15,15,123,123,112,112,5,11,15,24,0.8,1
2026-04-26T1700,3248A,98.2644,39.7723,嘉峪关市,雄关区,,46,46,50,18,13,120,120,111,111,5,10,8,9,0.3,0.4
2026-04-26T1700,1383A,113.1063,22.6058,江门市,北街,臭氧1小时(O3_1h),72,48,44,16,32,177,177,176,176,14,25,/,/,/,/
2026-04-26T1700,1384A,113.073,22.5835,江门市,西区,臭氧1小时(O3_1h),82,NA,47,21,33,185,185,53,NA,16,30,/,/,/,/
2026-04-26T1700,1385A,113.0218,22.531,江门市,圭峰西,,50,36,41,14,31,160,160,155,155,13,20,/,/,/,/
2026-04-26T1700,1386A,113.0826,22.5947,江门市,东湖,臭氧1小时(O3_1h),70,33,47,11,23,176,176,168,168,14,22,8,9,0.5,0.6
2026-04-26T1700,3311A,113.1077,22.5647,江门市,江海富民,臭氧1小时(O3_1h),77,62,57,17,33,181,181,175,175,15,26,/,/,0.4,0.5
2026-04-26T1700,3449A,113.0496,22.4669,江门市,新会银湖,臭氧1小时(O3_1h),68,38,43,12,31,174,174,160,160,15,31,8,8,0.4,0.4
2026-04-26T1700,3335A,113.3137,35.2643,焦作市,马村街道办,NA,NA,74,69,28,33,150,150,134,134,6,9,NA,11,0.4,0.4
2026-04-26T1700,3336A,113.2464,35.2374,焦作市,焦作技师学院,颗粒物(PM10),70,77,63,31,32,149,149,129,129,10,12,13,12,0.6,0.8
2026-04-26T1700,3477A,113.1656,35.2536,焦作市,中站许衡医院,细颗粒物(PM2.5),58,55,60,39,28,149,149,125,125,11,14,13,14,0.6,0.7
2026-04-26T1700,3981A,113.2456,35.18,焦作市,原李万街道办,颗粒物(PM10),80,91,62,34,32,144,144,127,127,12,12,8,8,0.3,0.4
2026-04-26T1700,4264A,113.234,35.219,焦作市,新安路1731号,颗粒物(PM10),65,70,61,34,30,163,163,138,138,5,10,13,14,0.3,0.5
2026-04-26T1700,4295A,113.2722,35.2121,焦作市,人民路3066号,颗粒物(PM10),58,61,65,34,33,150,150,130,130,11,14,6,7,0.3,0.5
2026-04-26T1700,1708A,116.3701,23.5345,揭阳市,新兴,,50,50,50,18,28,135,135,120,120,17,28,8,18,0.8,0.9
2026-04-26T1700,1709A,116.3261,23.5442,揭阳市,西马,颗粒物(PM10),52,52,52,16,26,149,149,125,125,15,25,6,10,0.9,1
2026-04-26T1700,1710A,116.361,23.5627,揭阳市,东兴,颗粒物(PM10),53,54,48,21,34,142,142,126,126,13,21,4,8,/,/
2026-04-26T1700,1711A,116.4151,23.5295,揭阳市,渔湖,颗粒物(PM10),69,76,54,17,30,148,148,125,125,18,32,5,10,/,/
2026-04-26T1700,3320A,116.4028,23.5699,揭阳市,曲溪,,49,26,41,17,23,155,155,129,129,14,27,12,15,0.9,0.8
2026-04-26T1700,1944A,102.1691,38.5166,金昌市,天庆家园,,44,44,56,11,16,114,114,112,112,3,10,4,6,0.3,0.4
2026-04-26T1700,4022A,102.1648,38.5369,金昌市,金川区人防中心,,36,31,57,14,21,113,113,114,114,6,9,7,6,0.3,0.4
2026-04-26T1700,4239A,102.193042,38.531887,金昌市,长春路96号,,42,42,49,12,19,110,110,110,110,2,7,7,6,0.4,0.4
2026-04-26T1700,1262A,119.6478,29.0773,金华市,十五中,,49,37,51,14,29,155,155,139,139,12,23,4,4,0.7,0.7
2026-04-26T1700,1263A,119.6859,29.1032,金华市,监测站,臭氧1小时(O3_1h),55,29,46,17,26,164,164,149,149,11,30,5,4,0.6,0.7
2026-04-26T1700,3659A,119.656,29.1132,金华市,气象局,,46,34,52,12,28,147,147,134,134,13,38,5,5,0.4,0.5
2026-04-26T1700,1767A,121.1114,41.0879,锦州市,南山,,37,25,42,6,24,116,116,112,112,13,16,9,12,0.3,0.6
2026-04-26T1700,1768A,121.060361,40.842794,锦州市,开发区,,40,30,57,10,26,126,126,113,113,9,17,6,9,0.4,0.5
2026-04-26T1700,1769A,121.1836,41.1118,锦州市,百股街道,,36,28,44,7,26,113,113,110,110,10,15,6,11,0.3,0.6
2026-04-26T1700,1770A,121.1176,41.1224,锦州市,天安街道,,33,24,44,6,23,105,105,104,104,12,15,5,8,0.4,0.5
2026-04-26T1700,1771A,121.1303,41.1385,锦州市,北湖公园,,34,12,41,9,26,108,108,106,106,10,13,7,10,0.3,0.5
2026-04-26T1700,2160A,112.8496,35.5051,晋城市,自来水公司,颗粒物(PM10),73,82,66,38,24,164,164,137,137,12,23,6,6,0.3,0.5
2026-04-26T1700,2162A,112.8509,35.4886,晋城市,市环保局,颗粒物(PM10),83,96,74,22,30,151,151,128,128,6,17,7,6,0.4,0.6
2026-04-26T1700,3620A,112.8258,35.4804,晋城市,泽州一中,NA,NA,69,62,26,31,155,155,142,142,NA,15,6,5,0.5,0.7
2026-04-26T1700,4078A,112.8246,35.5152,晋城市,前书院路,颗粒物(PM10),70,77,68,24,24,156,156,135,135,9,25,10,10,0.3,0.6
2026-04-26T1700,4079A,112.8864,35.4773,晋城市,祥云街666号,颗粒物(PM10),71,79,62,41,30,146,146,123,123,8,15,9,9,0.5,0.6
2026-04-26T1700,2174A,112.6992,37.6984,晋中市,榆次区政府,颗粒物(PM10),74,83,104,33,40,119,119,108,108,30,31,6,11,0.7,1
2026-04-26T1700,2865A,112.7195,37.683,晋中市,榆次三中,颗粒物(PM10),83,95,104,23,32,132,132,118,118,17,24,7,11,0.4,0.7
2026-04-26T1700,4080A,112.7375,37.7215,晋中市,广安街188号,颗粒物(PM10),80,92,104,28,30,128,128,110,110,17,25,7,10,0.1,0.4
2026-04-26T1700,4200A,112.7478,37.6954,晋中市,迎宾街26号,颗粒物(PM10),84,97,102,29,37,138,138,116,116,19,24,7,11,0.4,0.5
2026-04-26T1700,2439A,112.2012,31.048,荆门市,竹园小学,细颗粒物(PM2.5),66,61,72,43,42,140,140,134,134,8,11,1,6,0.5,0.5
2026-04-26T1700,2440A,112.1968,30.9892,荆门市,掇刀,颗粒物(PM10),63,67,74,34,44,143,143,134,134,8,13,8,12,0.7,0.7
2026-04-26T1700,3012A,112.1849,31.0361,荆门市,西山林语,颗粒物(PM10),66,72,69,38,39,135,135,129,129,10,10,7,8,0.6,0.6
2026-04-26T1700,3547A,112.1631,31.0134,荆门市,龙泉中学南校,颗粒物(PM10),65,70,43,34,37,142,142,134,134,10,12,5,7,0.6,0.6
2026-04-26T1700,4124A,112.2213,31.0654,荆门市,新台西路6号,颗粒物(PM10),69,76,63,40,44,146,146,135,135,10,16,11,11,0.8,0.8
2026-04-26T1700,1844A,112.2493,30.3198,荆州市,市图书馆,细颗粒物(PM2.5),56,56,49,38,38,126,126,123,123,13,28,8,8,0.5,0.6
2026-04-26T1700,1845A,112.2009,30.3543,荆州市,市委党校,细颗粒物(PM2.5),62,44,57,41,41,101,101,100,100,10,22,8,9,0.6,0.7
2026-04-26T1700,3194A,112.2749,30.3124,荆州市,管委会,颗粒物(PM10),58,60,50,35,42,112,112,113,113,14,24,10,10,0.5,0.6
2026-04-26T1700,4268A,112.1722,30.3366,荆州市,学苑路85号,细颗粒物(PM2.5),58,48,55,39,42,124,124,128,128,6,18,4,7,0.8,0.8
2026-04-26T1700,2343A,117.2114,29.2931,景德镇市,老干部活动中心,,39,38,32,22,31,123,123,109,109,3,14,7,6,0.5,0.6
2026-04-26T1700,2344A,117.1893,29.2789,景德镇市,兽医站,,44,44,42,18,26,138,138,120,120,6,19,4,5,0.5,0.7
2026-04-26T1700,2346A,117.246,29.2958,景德镇市,陶研所,,43,39,30,25,23,135,135,120,120,10,15,10,6,0.7,0.8
2026-04-26T1700,4289A,117.154766,29.256967,景德镇市,青少年活动中心,,48,48,42,23,26,126,126,113,113,9,21,14,20,/,/
2026-04-26T1700,1803A,115.9873,29.6816,九江市,十里,,49,38,41,20,22,156,156,126,126,13,33,8,7,0.9,0.9
2026-04-26T1700,1804A,115.9583,29.7047,九江市,茅山头,,47,36,33,19,22,149,149,127,127,11,29,3,4,0.6,0.6
2026-04-26T1700,1805A,115.9877,29.7295,九江市,西园,,50,33,34,17,22,159,159,125,125,13,38,6,6,0.7,0.7
2026-04-26T1700,1808A,115.9112,29.6038,九江市,综合工业园,,48,48,36,14,20,142,142,126,126,24,31,9,9,0.5,0.6
2026-04-26T1700,3190A,116.0254,29.6995,九江市,外国语学校,,50,30,27,20,20,160,160,118,118,10,30,12,12,0.9,0.8
2026-04-26T1700,4253A,116.010205,29.659402,九江市,莲花大道8号,,48,33,29,21,17,153,153,115,115,5,11,8,6,0.6,0.5
2026-04-26T1700,4240A,98.495752,39.733935,酒泉市,玉门东路5号,NA,NA,29,45,16,22,97,97,90,90,5,12,NA,6,0.2,0.3
2026-04-26T1700,4241A,98.5099,39.7506,酒泉市,北大街108号,,31,31,41,21,19,98,98,91,91,3,9,7,7,0.2,0.2
2026-04-26T1700,2698A,76.0071,39.466,喀什地区,巡警大队,颗粒物(PM10),130,198,72,86,25,121,121,110,110,1,10,4,4,0.1,0.1
2026-04-26T1700,2699A,75.9756,39.4693,喀什地区,吾办,"颗粒物(PM10),细颗粒物(PM2.5)",128,191,75,90,20,115,115,112,112,5,6,4,4,0.1,0.1
2026-04-26T1700,4027A,75.9485,39.4688,喀什地区,老干局,颗粒物(PM10),116,160,62,62,15,116,116,108,108,2,5,3,3,0.2,0.3
2026-04-26T1700,1824A,114.3389,34.778,开封市,肿瘤医院,颗粒物(PM10),58,60,51,37,32,154,154,138,138,8,15,8,7,0.8,0.8
2026-04-26T1700,1826A,114.2884,34.7966,开封市,世纪星幼儿园,颗粒物(PM10),62,66,57,29,32,158,158,137,137,7,12,7,7,0.7,0.7
2026-04-26T1700,3147A,114.3434,34.8101,开封市,龙亭公园,颗粒物(PM10),60,64,51,34,28,159,159,142,142,12,18,8,8,0.6,0.6
2026-04-26T1700,3210A,114.3645,34.7955,开封市,汴京公园,颗粒物(PM10),63,68,55,41,31,155,155,138,138,9,15,5,5,0.6,0.6
2026-04-26T1700,3473A,114.2485,34.8306,开封市,技师学院,颗粒物(PM10),71,79,61,43,33,164,164,143,143,10,13,5,5,0.6,0.6
2026-04-26T1700,3592A,114.4518,34.7503,开封市,祥符区生态环境局,NA,NA,50,53,36,31,NA,NA,134,134,10,20,8,8,0.6,0.6
2026-04-26T1700,1951A,84.886,45.6029,克拉玛依市,长征新村,,36,12,16,3,10,114,114,97,97,4,9,6,6,0.3,0.4
2026-04-26T1700,1952A,84.8894,45.5827,克拉玛依市,南林小区,NA,NA,16,21,3,3,103,103,85,85,NA,8,2,2,0.1,0.2
2026-04-26T1700,1954A,84.896,44.3328,克拉玛依市,独山子区,,41,34,26,3,7,131,131,102,102,5,10,7,5,0.5,0.5
2026-04-26T1700,1955A,85.6888,46.0909,克拉玛依市,乌尔禾区商贸楼,,35,14,24,3,7,112,112,98,98,5,10,3,3,0.0,0.1
2026-04-26T1700,3612A,85.1045,45.6895,克拉玛依市,白碱滩区新站,,40,22,51,6,13,127,127,107,107,3,9,8,7,0.2,0.2
2026-04-26T1700,2697A,76.1457,39.7143,克孜勒苏柯尔克孜自治州,市人民政府,颗粒物(PM10),100,119,48,36,20,123,123,115,115,1,5,4,8,0.1,0.1
2026-04-26T1700,3665A,76.1654,39.7157,克孜勒苏柯尔克孜自治州,克州文化中心,颗粒物(PM10),105,131,54,40,18,123,123,118,118,2,3,3,3,0.2,0.1
2026-04-26T1700,1450A,102.8203,24.889,昆明市,呈贡新区,,46,18,34,17,29,146,146,142,142,8,10,1,4,0.3,0.4
2026-04-26T1700,1452A,102.7253,25.0904,昆明市,龙泉镇,,40,24,43,21,33,127,127,124,124,8,15,5,5,0.6,0.7
2026-04-26T1700,1453A,102.7267,25.0378,昆明市,东风东路,,42,27,43,24,32,133,133,132,132,13,18,2,2,0.5,0.6
2026-04-26T1700,1454A,102.6744,25.0671,昆明市,金鼎山,,41,41,50,24,33,129,129,130,130,11,12,2,2,0.7,0.8
2026-04-26T1700,1455A,102.6643,25.0401,昆明市,碧鸡广场,,40,NA,47,26,34,126,126,124,124,11,14,5,6,0.5,0.7
2026-04-26T1700,3179A,102.7491,25.012,昆明市,官渡区博物馆,,41,41,43,25,32,130,130,129,129,11,19,3,4,0.6,0.8
2026-04-26T1700,3375A,102.8016,24.8336,昆明市,青年创业园,,44,NA,37,24,26,140,140,136,136,4,7,4,5,0.4,0.6
2026-04-26T1700,3550A,102.8,24.9787,昆明市,昆明学院,,42,25,44,19,26,134,134,130,130,8,14,4,5,0.4,0.5
2026-04-26T1700,3551A,102.5969,24.6738,昆明市,晋宁区生态环境分局,,44,20,46,19,34,138,138,130,130,4,8,4,4,0.5,0.6
2026-04-26T1700,3552A,102.6673,24.9861,昆明市,云天化总部,,40,35,58,22,29,128,128,128,128,9,10,4,5,0.6,0.7
2026-04-26T1700,1456A,91.132,29.6515,拉萨市,八廓街,,37,23,29,7,11,116,116,113,113,6,7,6,5,0.5,0.4
2026-04-26T1700,1457A,91.1221,29.6748,拉萨市,市环保局,,36,19,30,8,12,115,115,109,109,8,11,5,5,0.3,0.3
2026-04-26T1700,1458A,91.0874,29.6476,拉萨市,区监测站,,35,16,26,3,10,109,109,106,106,12,13,5,5,0.3,0.3
2026-04-26T1700,1459A,91.1774,29.6541,拉萨市,西藏大学,,36,23,26,3,9,113,113,107,107,11,12,4,6,0.3,0.3
2026-04-26T1700,1460A,90.9798,29.6586,拉萨市,区辐射站,,43,43,31,17,11,103,103,94,94,10,16,5,6,0.3,0.3
2026-04-26T1700,1461A,91.0831,29.6292,拉萨市,拉萨火车站,,36,29,29,12,14,113,113,106,106,9,9,4,4,0.3,0.3
2026-04-26T1700,2520A,109.2203,23.7252,来宾市,来宾技工学校,细颗粒物(PM2.5),60,48,64,40,40,136,136,119,119,6,24,6,16,0.8,0.7
2026-04-26T1700,3535A,109.1781,23.7293,来宾市,兴宾区政府,颗粒物(PM10),55,57,61,34,34,137,137,132,132,7,20,8,12,0.6,0.6
2026-04-26T1700,4002A,109.2312,23.7428,来宾市,中南小学,细颗粒物(PM2.5),64,49,61,42,40,151,151,129,129,9,34,7,10,0.6,0.6
2026-04-26T1700,1479A,103.8309,36.0467,兰州市,铁路设计院,,50,50,69,20,25,129,129,131,131,12,40,6,9,0.3,0.5
2026-04-26T1700,3241A,103.7439,36.0841,兰州市,百合公园,颗粒物(PM10),61,65,73,30,28,129,129,150,150,6,45,4,10,0.2,0.5
2026-04-26T1700,3242A,103.9613,35.9985,兰州市,和平,颗粒物(PM10),51,51,62,18,24,138,138,122,122,3,10,7,10,0.2,0.3
2026-04-26T1700,4236A,103.629272,36.093822,兰州市,庄浪东路808号,颗粒物(PM10),78,88,70,21,25,134,134,151,151,3,20,9,16,0.4,0.4
2026-04-26T1700,4237A,103.7251,36.104344,兰州市,安宁西路88号,颗粒物(PM10),83,95,91,18,31,143,143,162,162,4,32,9,16,0.2,0.4
2026-04-26T1700,4238A,103.846982,36.067567,兰州市,北滨河东路1号,颗粒物(PM10),104,128,79,14,25,134,134,127,127,7,43,11,13,0.5,0.5
2026-04-26T1700,1067A,116.6712,39.5109,廊坊市,药材公司,颗粒物(PM10),66,72,73,23,33,104,104,98,98,10,12,3,2,0.4,0.4
2026-04-26T1700,1068A,116.7215,39.5592,廊坊市,开发区,颗粒物(PM10),70,77,77,31,33,107,107,100,100,7,9,4,3,0.4,0.3
2026-04-26T1700,1070A,116.7246,39.5273,廊坊市,北华航天学院,颗粒物(PM10),68,75,74,21,30,106,106,98,98,8,13,4,3,0.3,0.3
2026-04-26T1700,2919A,116.7022,39.5454,廊坊市,河北工业大学,颗粒物(PM10),68,74,73,22,29,108,108,101,101,12,13,4,3,0.4,0.4
2026-04-26T1700,2536A,103.7629,29.5844,乐山市,牛耳桥,臭氧1小时(O3_1h),70,65,107,36,87,176,176,134,134,18,34,6,8,0.6,0.9
2026-04-26T1700,2537A,103.7501,29.6002,乐山市,市第三水厂,颗粒物(PM10),65,71,96,37,74,168,168,125,125,16,34,6,7,0.7,1
2026-04-26T1700,2538A,103.7571,29.5664,乐山市,市监测站,颗粒物(PM10),68,74,106,39,75,168,168,121,121,13,26,6,8,0.6,1.1
2026-04-26T1700,3361A,103.7313,29.563,乐山市,理工大学,臭氧1小时(O3_1h),97,84,95,53,77,197,197,126,126,16,28,9,9,0.7,1.1
2026-04-26T1700,2599A,100.2497,26.8802,丽江市,丽江古城,,39,19,40,13,22,124,124,122,122,8,10,5,6,0.7,0.7
2026-04-26T1700,2600A,100.2203,26.8906,丽江市,市中心,,40,14,27,9,18,128,128,124,124,9,11,8,6,0.6,0.6
2026-04-26T1700,1267A,119.9141,28.4513,丽水市,监测站大楼,,47,47,36,13,19,137,137,117,117,8,15,5,5,0.4,0.4
2026-04-26T1700,1268A,119.93,28.4589,丽水市,莲都小学,,44,31,37,13,18,140,140,120,120,6,17,/,/,/,/
2026-04-26T1700,1269A,119.8794,28.4232,丽水市,余庄前,,40,28,33,11,19,128,128,110,110,4,12,4,4,0.3,0.4
2026-04-26T1700,1173A,119.1759,34.5885,连云港市,市环境监测站,臭氧1小时(O3_1h),55,36,45,22,27,164,164,154,154,11,16,9,11,0.6,0.6
2026-04-26T1700,3000A,119.3577,34.6971,连云港市,德源药业,臭氧1小时(O3_1h),67,51,50,24,23,173,173,156,156,14,19,8,8,0.8,0.7
2026-04-26T1700,3007A,119.178,34.8442,连云港市,新城一中,颗粒物(PM10),58,60,51,32,28,158,158,158,158,29,23,5,7,0.8,0.8
2026-04-26T1700,3008A,119.3607,34.7519,连云港市,胡沟管理处,臭氧1小时(O3_1h),58,22,23,17,17,166,166,159,159,16,25,11,11,0.5,0.5
2026-04-26T1700,3009A,119.1478,34.5913,连云港市,矿山设计院,臭氧1小时(O3_1h),53,36,47,17,24,162,162,156,156,10,14,6,8,0.7,0.7
2026-04-26T1700,3434A,119.2414,34.6539,连云港市,工贸学校,臭氧1小时(O3_1h),62,34,45,19,25,169,169,159,159,10,12,6,7,0.5,0.5
2026-04-26T1700,3664A,119.4171,34.734,连云港市,连云街道,臭氧1小时(O3_1h),63,43,47,23,23,170,170,145,145,13,18,10,10,0.6,0.5
2026-04-26T1700,2573A,102.2629,27.8981,凉山彝族自治州,西昌市政府,,49,39,30,34,27,139,139,120,120,9,10,16,6,0.7,0.6
2026-04-26T1700,2574A,102.2686,27.885,凉山彝族自治州,凉山州政府,,50,50,34,32,25,128,128,105,105,8,11,14,6,0.4,0.6
2026-04-26T1700,4229A,102.2342,27.8859,凉山彝族自治州,凯乐南路30号,细颗粒物(PM2.5),54,48,34,37,25,125,125,105,105,12,14,14,6,1.1,0.6
2026-04-26T1700,2212A,123.1978,41.2036,辽阳市,宏伟区,,37,27,44,9,27,117,117,101,101,9,12,5,7,0.3,0.5
2026-04-26T1700,2213A,123.1684,41.2497,辽阳市,新华园,,38,23,49,10,27,120,120,105,105,10,15,9,9,0.4,0.5
2026-04-26T1700,2214A,123.2355,41.2663,辽阳市,滨河路,,35,25,44,12,29,112,112,98,98,10,13,6,8,0.3,0.4
2026-04-26T1700,4083A,123.153,41.2874,辽阳市,铁西路150号,,35,25,49,9,28,111,111,99,99,10,15,6,9,0.4,0.6
2026-04-26T1700,2227A,125.1359,42.8845,辽源市,环保局,,36,24,36,3,18,115,115,109,109,6,9,7,8,0.3,0.4
2026-04-26T1700,4085A,125.0998,42.9134,辽源市,安宁大街333号,,36,21,41,3,18,115,115,110,110,6,10,5,5,0.3,0.4
2026-04-26T1700,1625A,115.9789,36.4372,聊城市,区政府,颗粒物(PM10),71,79,52,41,23,132,132,119,119,12,12,10,8,0.8,0.7
2026-04-26T1700,3200A,115.9772,36.4986,聊城市,监控中心,颗粒物(PM10),75,85,55,45,21,135,135,130,130,9,10,11,9,0.5,0.5
2026-04-26T1700,3513A,116.0443,36.436,聊城市,九州社区,颗粒物(PM10),81,93,57,40,23,139,139,131,131,16,16,12,9,0.4,0.4
2026-04-26T1700,4018A,116.0564,36.4609,聊城市,星美广场,颗粒物(PM10),84,97,56,44,22,126,126,122,122,16,14,11,7,0.6,0.4
2026-04-26T1700,4113A,116.0091,36.4495,聊城市,利民路,颗粒物(PM10),75,84,41,42,25,140,140,131,131,11,13,12,10,0.5,0.5
2026-04-26T1700,2632A,94.3683,29.6373,林芝市,林芝监测站,,33,17,11,3,6,104,104,94,94,4,4,3,3,0.5,0.5
2026-04-26T1700,2633A,94.3616,29.6634,林芝市,林芝人民医院,,35,10,15,3,6,112,112,101,101,5,5,4,3,0.6,0.6
2026-04-26T1700,2603A,100.0779,23.8981,临沧市,市环保局,颗粒物(PM10),53,54,69,33,54,144,144,138,138,5,9,6,6,0.5,0.7
2026-04-26T1700,2604A,100.0894,23.882,临沧市,市气象局,NA,NA,43,72,38,62,141,141,137,137,NA,10,9,8,NA,0.8
2026-04-26T1700,1733A,111.5552,36.0791,临汾市,临钢医院,颗粒物(PM10),86,100,85,36,27,152,152,126,126,12,19,13,10,0.9,0.8
2026-04-26T1700,1734A,111.4984,36.0734,临汾市,技工学校,颗粒物(PM10),83,96,84,34,34,153,153,127,127,12,21,15,11,0.7,0.7
2026-04-26T1700,1736A,111.5017,36.0857,临汾市,市委,颗粒物(PM10),75,84,85,34,31,165,165,137,137,10,19,14,11,1.0,1
2026-04-26T1700,3018A,111.5048,36.1015,临汾市,唐尧大酒店,颗粒物(PM10),100,119,96,34,29,161,161,132,132,12,20,16,10,1.1,1
2026-04-26T1700,4244A,111.4879,36.053,临汾市,启星学校,颗粒物(PM10),73,82,80,31,30,155,155,129,129,15,24,12,9,0.8,0.9
2026-04-26T1700,4271A,103.2464,35.6123,临夏回族自治州,滨河东路1号,颗粒物(PM10),61,65,108,30,37,143,143,111,111,9,31,13,11,0.3,0.4
2026-04-26T1700,4310A,103.207136,35.599807,临夏回族自治州,新华街21号,,49,49,78,19,30,111,111,91,91,4,14,9,8,0.3,0.4
2026-04-26T1700,1618A,118.3429,35.0532,临沂市,沂河小区,,46,36,73,7,40,146,146,142,142,8,24,11,22,0.3,0.4
2026-04-26T1700,1619A,118.2962,35.0568,临沂市,鲁南制药厂,,48,39,71,8,42,153,153,149,149,11,27,12,21,0.2,0.4
2026-04-26T1700,1620A,118.2793,34.9976,临沂市,新光毛纺厂,,47,29,73,8,47,150,150,145,145,6,28,10,24,0.2,0.4
2026-04-26T1700,1621A,118.3955,35.0889,临沂市,河东保险公司,,50,36,81,8,51,157,157,157,157,9,39,12,24,0.3,0.5
2026-04-26T1700,3370A,118.3563,35.0215,临沂市,十里堡居委,,49,36,74,8,41,154,154,154,154,10,29,11,24,0.5,0.6
2026-04-26T1700,3496A,118.359,35.1067,临沂市,南坊新区,,45,44,70,10,45,144,144,140,140,11,28,11,21,0.2,0.3
2026-04-26T1700,3860A,118.3915,35.0297,临沂市,皇山花园小区,臭氧1小时(O3_1h),59,44,68,15,46,167,167,156,156,16,34,12,30,0.6,0.6
2026-04-26T1700,1870A,109.4854,24.3898,柳州市,柳东小学,,47,45,51,31,35,148,148,137,137,7,20,6,13,0.8,0.7
2026-04-26T1700,1871A,109.4109,24.3304,柳州市,环保监测站,细颗粒物(PM2.5),64,56,61,42,36,139,139,128,128,13,33,5,7,0.8,0.9
2026-04-26T1700,1872A,109.3886,24.3408,柳州市,河西水厂,细颗粒物(PM2.5),60,49,81,40,44,154,154,142,142,8,35,10,14,0.7,0.8
2026-04-26T1700,1873A,109.4263,24.2951,柳州市,市四中,细颗粒物(PM2.5),70,58,62,45,36,138,138,128,128,11,30,7,10,0.6,0.6
2026-04-26T1700,1874A,109.396,24.3658,柳州市,市九中,颗粒物(PM10),60,63,76,37,43,140,140,133,133,9,28,5,9,0.7,0.7
2026-04-26T1700,1875A,109.4912,24.3164,柳州市,古亭山,NA,NA,57,44,36,30,143,143,130,130,15,35,6,6,NA,0.7
2026-04-26T1700,3402A,109.5422,24.3994,柳州市,市二中,,47,43,56,27,40,149,149,135,135,10,30,8,14,0.4,0.4
2026-04-26T1700,2307A,116.5078,31.7369,六安市,监测大楼,,41,27,22,15,15,131,131,112,112,5,12,4,5,0.3,0.3
2026-04-26T1700,2308A,116.4738,31.7642,六安市,皖西学院,,45,45,29,13,13,139,139,125,125,3,9,5,5,0.3,0.3
2026-04-26T1700,2309A,116.4997,31.7904,六安市,朝阳厂,,40,35,20,15,13,128,128,114,114,4,11,6,6,0.2,0.3
2026-04-26T1700,2310A,116.5566,31.7885,六安市,开发区,,45,38,16,10,14,144,144,127,127,8,23,5,6,0.3,0.4
2026-04-26T1700,2577A,104.8293,26.592,六盘水市,黄土坡,,46,45,37,32,28,102,102,98,98,11,10,7,6,0.4,0.4
2026-04-26T1700,2579A,104.8481,26.5898,六盘水市,民中,,46,33,31,32,29,108,108,93,93,11,10,4,4,0.6,0.6
2026-04-26T1700,2580A,104.9541,26.5506,六盘水市,双水,,45,44,35,31,25,102,102,84,84,7,7,4,4,0.3,0.3
2026-04-26T1700,4151A,104.8899,26.5685,六盘水市,钟山大道中段564号,颗粒物(PM10),52,52,44,23,26,101,101,81,81,6,6,2,2,0.7,0.6
2026-04-26T1700,2336A,117.022,25.1031,龙岩市,龙岩市监测站,,36,36,26,14,15,107,107,104,104,6,11,5,6,0.4,0.6
2026-04-26T1700,2337A,117.0257,25.0662,龙岩市,闽西职业技术学院,,40,40,31,13,17,104,104,97,97,3,8,6,7,0.5,0.7
2026-04-26T1700,2338A,117.0195,25.0306,龙岩市,龙岩学院,,40,40,29,12,14,108,108,103,103,2,6,5,4,/,/
2026-04-26T1700,2885A,104.9344,33.3827,陇南市,滨江中学,颗粒物(PM10),62,66,68,28,36,124,124,126,126,7,9,8,9,0.5,0.6
2026-04-26T1700,3247A,104.9551,33.3709,陇南市,市总工会,颗粒物(PM10),54,55,60,26,34,123,123,125,125,8,8,8,8,0.5,0.6
2026-04-26T1700,2488A,111.9984,27.7346,娄底市,市监测站,,39,39,57,16,36,123,123,114,114,4,21,5,8,0.4,0.6
2026-04-26T1700,2491A,111.9888,27.7035,娄底市,市政府,,43,40,46,16,30,135,135,121,121,7,10,4,5,0.3,0.4
2026-04-26T1700,4127A,111.9812,27.7591,娄底市,涟钢职大,,44,41,52,26,31,138,138,122,122,5,17,3,10,0.3,0.9
2026-04-26T1700,4128A,112.0303,27.7457,娄底市,娄底体校,,41,41,52,16,32,122,122,111,111,5,10,5,6,0.2,0.4
2026-04-26T1700,1894A,105.4427,28.9063,泸州市,小市上码头,,42,42,51,24,35,130,130,102,102,8,16,9,9,0.6,0.7
2026-04-26T1700,1895A,105.4241,28.8573,泸州市,兰田宪桥,颗粒物(PM10),65,70,69,33,40,136,136,107,107,11,22,9,9,0.6,0.7
2026-04-26T1700,1896A,105.4378,28.8833,泸州市,市环监站,,42,39,55,21,34,132,132,101,101,10,16,10,10,0.8,0.8
2026-04-26T1700,4272A,105.3689,28.7783,泸州市,纳溪中医医院,颗粒物(PM10),65,70,60,28,37,157,157,114,114,7,17,5,4,0.6,0.7
2026-04-26T1700,2183A,111.1447,37.5212,吕梁市,环保局,颗粒物(PM10),55,56,77,25,30,120,120,116,116,6,31,4,6,0.4,0.5
2026-04-26T1700,2185A,111.1285,37.5338,吕梁市,自来水公司,颗粒物(PM10),59,62,87,20,29,117,117,115,115,6,27,3,5,0.3,0.4
2026-04-26T1700,2867A,111.1225,37.5093,吕梁市,马茂庄小学,颗粒物(PM10),58,60,85,3,17,121,121,117,117,4,36,2,4,0.2,0.3
2026-04-26T1700,1812A,112.3934,34.6517,洛阳市,市委党校,,50,50,50,33,27,141,141,113,113,11,14,8,9,0.5,0.6
2026-04-26T1700,1815A,112.494,34.6883,洛阳市,河南林校,颗粒物(PM10),58,61,59,20,26,151,151,121,121,11,22,13,12,0.5,0.6
2026-04-26T1700,1816A,112.3843,34.623,洛阳市,开发区管委会,,50,50,51,23,30,148,148,117,117,5,9,11,12,0.5,0.6
2026-04-26T1700,1817A,112.4263,34.6249,洛阳市,市委新办公区,颗粒物(PM10),59,62,57,28,32,148,148,118,118,11,14,12,10,0.5,0.6
2026-04-26T1700,3340A,112.6005,34.6323,洛阳市,伊滨,颗粒物(PM10),57,59,56,29,30,142,142,119,119,15,21,12,12,0.3,0.4
2026-04-26T1700,3341A,112.495,34.6338,洛阳市,中移产业园,颗粒物(PM10),53,54,52,36,30,149,149,118,118,8,13,13,11,0.5,0.6
2026-04-26T1700,3593A,112.5736,34.8993,洛阳市,吉利监测站,颗粒物(PM10),68,75,57,29,26,158,158,116,116,11,18,10,9,0.4,0.4
2026-04-26T1700,3635A,112.3678,34.6623,洛阳市,河科大西苑校区,NA,NA,53,51,34,31,144,144,112,112,NA,15,9,11,0.9,0.5
2026-04-26T1700,3636A,112.4387,34.678,洛阳市,英才小学,颗粒物(PM10),59,62,63,38,34,142,142,114,114,6,16,9,8,0.4,0.5
2026-04-26T1700,4214A,112.460027,34.694929,洛阳市,春都路1号院,颗粒物(PM10),63,67,58,31,29,147,147,122,122,7,18,10,9,0.5,0.5
2026-04-26T1700,2399A,114.051,33.5721,漯河市,三五一五工厂,颗粒物(PM10),55,57,51,29,30,141,141,130,130,11,20,6,6,0.5,0.5
2026-04-26T1700,2400A,114.0055,33.5698,漯河市,漯河大学,,46,46,40,32,30,138,138,129,129,7,15,6,8,0.4,0.5
2026-04-26T1700,2401A,114.0134,33.5826,漯河市,市水利局,颗粒物(PM10),53,53,48,32,30,136,136,127,127,4,12,5,6,0.5,0.5
2026-04-26T1700,2402A,114.0261,33.5697,漯河市,市广电局,细颗粒物(PM2.5),60,46,46,40,31,144,144,133,133,11,19,5,6,0.5,0.5
2026-04-26T1700,3478A,113.9691,33.568,漯河市,市图书馆,,48,48,49,24,28,126,126,120,120,10,17,7,9,0.8,0.8
2026-04-26T1700,4250A,114.089259,33.588274,漯河市,韶山路11号,颗粒物(PM10),52,52,54,31,30,134,134,126,126,9,18,6,7,0.5,0.5
2026-04-26T1700,1798A,118.5084,31.6838,马鞍山市,湖东路四小,,50,35,50,13,24,157,157,145,145,12,22,7,10,0.4,0.5
2026-04-26T1700,1799A,118.5019,31.6449,马鞍山市,开发区,,50,39,65,14,29,157,157,145,145,14,27,9,9,0.3,0.6
2026-04-26T1700,3633A,118.4914,31.681,马鞍山市,雨山,,50,36,49,17,24,158,158,146,146,15,22,12,14,0.4,0.6
2026-04-26T1700,4191A,118.527362,31.722269,马鞍山市,慈湖高新区,,47,32,56,14,25,150,150,143,143,15,29,6,11,0.3,0.5
2026-04-26T1700,1686A,111.0285,21.469,茂名市,电白南海,,38,34,37,16,22,121,121,117,117,10,14,5,7,0.9,0.8
2026-04-26T1700,1687A,110.9294,21.6533,茂名市,茂石化七小,,36,36,38,13,27,100,100,104,104,9,14,6,9,0.6,0.7
2026-04-26T1700,1688A,110.9108,21.6688,茂名市,健康路,,34,29,31,13,24,106,106,112,112,8,13,4,12,0.6,0.6
2026-04-26T1700,1689A,110.8592,21.6826,茂名市,高岭,,41,41,51,14,26,103,103,113,113,13,14,4,9,/,/
2026-04-26T1700,3450A,111.0101,21.5165,茂名市,电白水东,,34,27,28,16,23,108,108,106,106,13,13,4,5,/,/
2026-04-26T1700,2540A,103.8414,30.0871,眉山市,气象局,颗粒物(PM10),66,72,90,12,46,146,146,127,127,9,38,7,9,0.6,0.8
2026-04-26T1700,3148A,103.829,30.0563,眉山市,区人社局,颗粒物(PM10),67,73,88,16,51,144,144,123,123,16,44,11,16,0.6,0.9
2026-04-26T1700,4148A,103.8836,30.0695,眉山市,眉职院,NA,NA,NA,111,11,56,138,138,122,122,8,32,8,10,0.6,1
2026-04-26T1700,1690A,116.1248,24.3307,梅州市,梅江月梅,,48,48,22,13,12,118,118,84,84,6,10,/,/,/,/
2026-04-26T1700,1691A,116.0798,24.2719,梅州市,梅县新城,,50,50,25,11,14,119,119,83,83,7,14,8,8,0.4,0.6
2026-04-26T1700,3315A,116.1234,24.2994,梅州市,梅龙,,39,39,22,11,13,122,122,90,90,6,9,6,6,0.4,0.7
2026-04-26T1700,1878A,104.7775,31.4741,绵阳市,富乐山,,48,48,64,30,43,74,74,68,68,10,18,7,7,0.7,0.7
2026-04-26T1700,1880A,104.6698,31.4668,绵阳市,高新区自来水公司,颗粒物(PM10),55,56,82,30,46,86,86,78,78,15,31,6,7,0.4,0.6
2026-04-26T1700,3491A,104.6899,31.5324,绵阳市,西科大附属小学,颗粒物(PM10),53,53,87,29,47,89,89,72,72,12,32,4,5,0.5,0.6
2026-04-26T1700,3492A,104.5647,31.5343,绵阳市,安州区旅游局,颗粒物(PM10),53,53,84,27,47,110,110,85,85,5,23,3,4,0.3,0.5
2026-04-26T1700,4146A,104.7092,31.4972,绵阳市,科技城新区公安局,颗粒物(PM10),55,57,87,27,46,81,81,75,75,12,26,5,6,0.6,0.7
2026-04-26T1700,4226A,104.765114,31.453094,绵阳市,绵阳市气象局,颗粒物(PM10),54,55,77,30,42,56,56,62,62,32,31,8,8,0.3,0.4
2026-04-26T1700,1784A,129.61,44.561,牡丹江市,环保大楼,,30,20,25,3,14,95,95,97,97,10,10,4,3,0.2,0.2
2026-04-26T1700,1787A,129.6364,44.6075,牡丹江市,机车工厂,,30,30,35,10,19,91,91,91,91,11,12,6,8,0.2,0.3
2026-04-26T1700,1788A,129.6386,44.5462,牡丹江市,第一中学,,30,28,24,14,15,94,94,97,97,7,9,2,3,0.2,0.3
2026-04-26T1700,4287A,129.5992,44.5964,牡丹江市,东晓云街98号,,32,32,33,7,14,94,94,92,92,8,9,4,5,0.2,0.2
2026-04-26T1700,2531A,105.0703,29.61,内江市,市监测站,细颗粒物(PM2.5),64,56,67,42,54,99,99,112,112,7,21,10,11,0.7,0.8
2026-04-26T1700,2533A,105.0657,29.5807,内江市,内江二中,细颗粒物(PM2.5),60,55,69,40,46,94,94,108,108,11,24,8,9,0.4,0.4
2026-04-26T1700,2534A,105.0407,29.5828,内江市,内江日报社,细颗粒物(PM2.5),64,52,64,42,52,93,93,106,106,11,31,13,13,0.6,0.6
2026-04-26T1700,4147A,105.0433,29.6105,内江市,玉峰路西段888号,细颗粒物(PM2.5),64,NA,66,42,51,95,95,109,109,10,22,7,7,0.5,0.6
2026-04-26T1700,2628A,92.0653,31.4846,那曲市,那曲监测站,,41,41,37,14,20,96,96,86,86,10,15,7,8,0.6,0.7
2026-04-26T1700,4243A,92.0515,31.4787,那曲市,那曲市委宣传部,NA,NA,21,29,11,15,105,105,96,96,NA,13,8,13,0.5,0.7
2026-04-26T1700,1291A,115.8887,28.7006,南昌市,省林业公司,,46,41,44,17,29,145,145,126,126,4,44,7,5,0.3,0.5
2026-04-26T1700,1292A,115.813,28.7443,南昌市,林科所,,50,39,29,18,20,158,158,143,143,5,26,12,10,0.3,0.4
2026-04-26T1700,1294A,115.8518,28.687,南昌市,建工学校,,45,44,51,21,30,141,141,125,125,6,36,9,7,0.6,0.8
2026-04-26T1700,1295A,115.8926,28.6425,南昌市,象湖,,45,38,47,15,33,142,142,124,124,10,39,12,10,0.8,1.1
2026-04-26T1700,3046A,115.9084,28.6062,南昌市,机电学校,,49,43,53,15,29,154,154,139,139,4,37,9,8,0.4,0.6
2026-04-26T1700,3690A,115.9718,28.7032,南昌市,外国语学校,NA,NA,48,38,NA,27,144,144,128,128,6,26,12,10,0.5,0.7
2026-04-26T1700,4106A,115.7923,28.6873,南昌市,工业二路,,50,50,47,17,24,145,145,130,130,8,35,8,6,0.5,0.6
2026-04-26T1700,4192A,115.931587,28.686774,南昌市,南京东路235号,,47,47,55,16,35,150,150,135,135,6,27,9,8,0.5,0.9
2026-04-26T1700,1906A,106.0791,30.8022,南充市,南充市委,,44,44,70,29,41,57,57,47,47,14,27,6,7,0.2,0.4
2026-04-26T1700,1907A,106.1038,30.8215,南充市,南充炼油厂,,43,40,76,30,45,62,62,53,53,9,25,4,6,0.2,0.4
2026-04-26T1700,4227A,106.108336,30.788436,南充市,梨树横街98号,,49,48,76,34,50,54,54,47,46,9,28,6,6,0.3,0.4
2026-04-26T1700,4304A,106.1172,30.843,南充市,清泉寺北路188号,,49,37,70,34,47,60,60,67,53,7,16,6,8,0.5,0.6
2026-04-26T1700,4305A,106.067,30.7616,南充市,同庆路1号,颗粒物(PM10),51,51,73,25,40,58,58,51,51,16,33,6,7,0.3,0.5
2026-04-26T1700,1151A,118.8033,32.1085,南京市,迈皋桥,NA,NA,38,38,9,18,187,187,177,177,21,20,19,15,NA,0.3
2026-04-26T1700,1152A,118.7487,32.057,南京市,草场门,臭氧1小时(O3_1h),55,48,46,10,22,164,164,155,155,19,27,13,7,0.9,0.5
2026-04-26T1700,1154A,118.770105,32.004342,南京市,中华门,臭氧1小时(O3_1h),74,36,46,6,20,179,179,168,168,11,20,16,11,0.8,0.5
2026-04-26T1700,1155A,118.8059,32.0329,南京市,瑞金路,臭氧1小时(O3_1h),75,44,47,8,25,180,180,166,166,12,28,10,8,1.1,0.9
2026-04-26T1700,1156A,118.7946,32.0774,南京市,玄武湖,臭氧1小时(O3_1h),54,46,43,7,16,163,163,153,153,14,17,10,6,0.8,0.5
2026-04-26T1700,1157A,118.6415,32.0964,南京市,浦口,,50,41,48,7,15,158,158,143,143,10,19,8,8,0.6,0.7
2026-04-26T1700,1158A,118.730129,32.000956,南京市,奥体中心,,43,42,49,3,19,137,137,135,135,19,32,15,10,0.7,0.4
2026-04-26T1700,1159A,118.9072,32.1047,南京市,仙林大学城,臭氧1小时(O3_1h),99,56,52,10,23,199,199,173,173,15,25,13,10,0.8,0.6
2026-04-26T1700,3422A,118.8443,31.919,南京市,江宁彩虹桥,NA,NA,54,49,9,19,169,169,156,156,15,26,3,4,NA,0.5
2026-04-26T1700,3427A,118.8497,32.3599,南京市,六合雄州,臭氧1小时(O3_1h),93,34,53,9,24,194,194,165,165,21,50,4,5,1.1,0.7
2026-04-26T1700,4086A,118.7641,32.0841,南京市,新模范马路66号,臭氧1小时(O3_1h),73,44,47,7,17,178,178,166,166,13,17,4,4,1.0,0.6
2026-04-26T1700,4249A,118.8707617,31.34017673,南京市,汶溪路181号,,50,39,42,3,17,158,158,142,142,10,19,5,7,0.5,0.5
2026-04-26T1700,4312A,119.019,31.6512,南京市,中山西路1号,,48,44,39,8,17,153,153,133,133,11,22,3,4,0.6,0.5
2026-04-26T1700,1401A,108.3098,22.788,南宁市,二十一中,,40,33,45,28,39,111,111,105,105,8,21,1,3,0.6,0.6
2026-04-26T1700,1402A,108.3135,22.8529,南宁市,北湖,,43,40,54,30,45,111,111,105,105,10,30,2,5,0.7,0.7
2026-04-26T1700,1403A,108.3205,22.8222,南宁市,市监测站,,38,36,49,26,36,116,116,112,112,8,17,2,5,0.6,0.6
2026-04-26T1700,1404A,108.3828,22.8038,南宁市,大自然花园,,35,31,44,24,34,107,107,103,103,8,18,5,6,0.5,0.5
2026-04-26T1700,1406A,108.2397,22.8462,南宁市,区农职院,,40,35,54,28,36,102,102,101,101,7,22,2,7,0.6,0.6
2026-04-26T1700,1407A,108.3285,22.7356,南宁市,英华嘉园,,41,41,52,26,38,110,110,106,106,12,29,4,6,0.6,0.6
2026-04-26T1700,3401A,108.4829,22.762,南宁市,红星社区,,38,34,45,26,34,113,113,106,106,6,23,5,6,0.6,0.6
2026-04-26T1700,4132A,108.2927,23.1477,南宁市,起凤路9号,NA,NA,36,60,27,46,108,108,118,118,8,19,NA,6,0.7,0.7
2026-04-26T1700,4221A,108.2177,22.7774,南宁市,乐贤路16号,,40,38,54,28,36,104,104,102,102,10,38,4,6,0.5,0.6
2026-04-26T1700,2332A,118.1682,26.6371,南平市,南平市监测站,,38,37,31,13,18,119,119,109,109,3,11,4,5,0.2,0.4
2026-04-26T1700,2334A,118.1757,26.6276,南平市,南平七中,,44,44,29,12,15,117,117,107,107,4,10,2,2,0.3,0.4
2026-04-26T1700,1168A,120.9056,31.9669,南通市,狼山街道,臭氧1小时(O3_1h),102,45,46,22,20,204,204,180,180,22,29,11,8,0.9,0.6
2026-04-26T1700,1170A,120.8635,32.0231,南通市,城中,臭氧1小时(O3_1h),108,65,57,28,21,216,216,179,179,26,31,10,7,0.8,0.5
2026-04-26T1700,1171A,120.9376,31.9301,南通市,星湖花园,臭氧1小时(O3_1h),113,52,46,26,20,225,225,193,193,16,23,10,7,0.8,0.5
2026-04-26T1700,1172A,120.8053,32.046,南通市,紫琅学院,臭氧1小时(O3_1h),116,51,46,23,18,231,231,197,197,36,38,11,8,1.0,0.9
2026-04-26T1700,3291A,121.0631,32.0644,南通市,通州监测站,臭氧1小时(O3_1h),100,61,58,13,21,200,200,180,180,15,18,5,5,0.6,0.5
2026-04-26T1700,3432A,120.9348,31.9874,南通市,环境教育馆,臭氧1小时(O3_1h),111,58,53,27,23,221,221,186,186,24,40,12,7,1.0,0.7
2026-04-26T1700,4091A,120.8692,31.9885,南通市,洪江路,臭氧1小时(O3_1h),98,56,48,30,23,198,198,163,163,39,36,14,9,1.3,1
2026-04-26T1700,2404A,112.5338,33.0086,南阳市,瓦房庄,细颗粒物(PM2.5),62,59,56,41,36,126,126,110,110,10,17,5,5,0.5,0.5
2026-04-26T1700,2405A,112.5002,32.9734,南阳市,汉画馆,颗粒物(PM10),65,71,61,41,34,128,128,109,109,9,16,6,7,0.5,0.5
2026-04-26T1700,2406A,112.5778,33.0144,南阳市,气象站,细颗粒物(PM2.5),66,69,58,43,34,136,136,122,122,6,16,6,6,0.4,0.4
2026-04-26T1700,2407A,112.548,32.9687,南阳市,理工学院,细颗粒物(PM2.5),72,69,58,46,39,128,128,113,113,9,18,6,7,0.5,0.5
2026-04-26T1700,4008A,112.5233,32.9921,南阳市,卧龙区政府,细颗粒物(PM2.5),72,62,83,46,39,121,121,106,106,9,15,6,7,0.6,0.6
2026-04-26T1700,1234A,121.8352,29.9111,宁波市,区环保大楼,颗粒物(PM10),55,56,51,20,21,153,153,154,154,42,30,10,8,0.4,0.3
2026-04-26T1700,1235A,121.5595,29.8208,宁波市,万里学院,臭氧1小时(O3_1h),104,68,52,30,24,208,208,178,178,20,22,6,4,0.4,0.4
2026-04-26T1700,1236A,121.713,29.9564,宁波市,龙赛医院,臭氧1小时(O3_1h),78,71,60,22,26,182,182,164,164,34,30,10,8,0.5,0.5
2026-04-26T1700,1240A,121.5855,29.8635,宁波市,太古小学,臭氧1小时(O3_1h),90,57,53,24,23,192,192,169,169,18,21,6,5,0.5,0.4
2026-04-26T1700,1241A,121.5239,29.8673,宁波市,市环境监测中心,臭氧1小时(O3_1h),107,65,48,35,27,214,214,184,184,21,21,10,8,0.5,0.5
2026-04-26T1700,2871A,121.6156,29.9015,宁波市,万里国际学校,臭氧1小时(O3_1h),93,52,49,23,25,194,194,174,174,19,22,7,6,0.5,0.5
2026-04-26T1700,3710A,121.5593,29.8976,宁波市,白沙活动中心,臭氧1小时(O3_1h),105,54,60,27,28,210,210,189,189,22,20,10,7,0.4,0.3
2026-04-26T1700,4095A,121.8962,29.7529,宁波市,中科路88号,,50,26,36,12,19,159,159,139,139,4,11,8,9,0.4,0.4
2026-04-26T1700,2341A,119.5387,26.6611,宁德市,宁德市监测站,,46,46,39,23,18,145,145,131,131,15,13,10,8,0.5,0.4
2026-04-26T1700,3209A,119.5231,26.6562,宁德市,宁德一中,颗粒物(PM10),52,52,33,22,19,144,144,128,128,14,12,11,8,0.7,0.4
2026-04-26T1700,2618A,98.859,25.8541,怒江傈僳族自治州,州监测站,,36,22,49,16,38,115,115,102,100,6,9,6,6,0.3,0.4
2026-04-26T1700,2619A,98.8607,25.8168,怒江傈僳族自治州,泸水一中,,37,24,43,15,39,118,118,99,99,12,18,5,5,0.6,0.7
2026-04-26T1700,1888A,101.6891,26.571,攀枝花市,弄弄坪,,50,35,53,19,34,160,160,133,133,13,19,16,23,1.1,0.8
2026-04-26T1700,1889A,101.577,26.5914,攀枝花市,河门口,,49,25,63,14,41,155,155,125,125,7,22,6,23,0,0.4
2026-04-26T1700,1891A,101.7365,26.4986,攀枝花市,仁和,,46,30,63,22,49,146,146,125,125,7,21,4,13,0.4,0.5
2026-04-26T1700,2835A,101.7222,26.567,攀枝花市,四十中小,臭氧1小时(O3_1h),57,36,37,21,29,165,165,127,127,11,13,14,27,1.1,0.8
2026-04-26T1700,1604A,122.0303,41.1489,盘锦市,开发区,,38,35,33,10,30,120,120,111,111,9,10,7,7,0.3,0.5
2026-04-26T1700,1605A,122.0486,41.0883,盘锦市,兴隆台,,39,25,39,9,31,124,124,112,112,10,13,8,9,0.5,0.6
2026-04-26T1700,1606A,121.8297,41.1026,盘锦市,新生街道,,41,27,30,6,21,129,129,121,121,18,17,5,6,0.3,0.5
2026-04-26T1700,1832A,113.3257,33.7423,平顶山市,新华旅馆,细颗粒物(PM2.5),68,56,63,44,40,125,125,121,121,6,14,4,5,0.5,0.5
2026-04-26T1700,1833A,113.2917,33.737,平顶山市,规划设计院,细颗粒物(PM2.5),78,65,63,49,37,123,123,123,123,10,15,7,7,0.6,0.6
2026-04-26T1700,1834A,113.182,33.7738,平顶山市,平顶山工学院,细颗粒物(PM2.5),78,NA,50,49,34,124,124,121,121,7,10,8,9,0.6,0.5
2026-04-26T1700,3594A,112.8736,33.9068,平顶山市,石龙区,细颗粒物(PM2.5),74,67,63,47,38,126,126,115,115,10,21,8,8,0.6,0.5
2026-04-26T1700,4116A,113.284,33.7139,平顶山市,姚电大道23号,细颗粒物(PM2.5),68,68,69,44,38,132,132,126,126,12,19,7,8,0.4,0.5
2026-04-26T1700,2656A,106.6633,35.5338,平凉市,聚贤嘉苑,颗粒物(PM10),63,68,75,24,36,134,134,123,123,7,21,9,7,0.3,0.4
2026-04-26T1700,2657A,106.7021,35.5307,平凉市,博物馆,颗粒物(PM10),53,54,71,33,34,148,148,130,130,7,20,9,9,0.4,0.5
2026-04-26T1700,2348A,113.8384,27.6436,萍乡市,中医院,,41,36,40,22,23,131,131,120,120,12,19,8,9,0.5,0.6
2026-04-26T1700,2350A,113.8677,27.6438,萍乡市,市环保局,颗粒物(PM10),55,56,48,26,26,146,146,121,121,13,25,20,18,0.7,0.9
2026-04-26T1700,2351A,113.8663,27.6202,萍乡市,安源区政府,颗粒物(PM10),56,58,46,29,26,134,134,108,108,10,20,8,9,0.4,0.8
2026-04-26T1700,4107A,113.8686,27.6668,萍乡市,联洪村委会,颗粒物(PM10),61,65,46,26,23,142,142,122,122,7,20,7,8,0.5,0.5
2026-04-26T1700,2319A,119.0142,25.4324,莆田市,荔城区仓后路,,37,36,41,17,20,118,118,129,129,5,6,/,/,/,/
2026-04-26T1700,2320A,119.0016,25.4553,莆田市,莆田市监测站,,48,48,36,13,17,128,128,136,136,12,10,3,3,0.4,0.5
2026-04-26T1700,2321A,119.112,25.4561,莆田市,涵江区六中,,41,41,42,22,21,126,126,128,128,6,11,/,/,0.4,0.6
2026-04-26T1700,2322A,119.1014,25.3215,莆田市,秀屿区政府,,41,24,44,14,23,131,131,135,135,7,11,4,5,0.4,0.6
2026-04-26T1700,2392A,115.0312,35.7636,濮阳市,环保局,颗粒物(PM10),68,75,43,34,20,145,145,122,122,12,13,7,5,0.7,0.6
2026-04-26T1700,3021A,115,35.7667,濮阳市,濮水河管理处,颗粒物(PM10),65,70,48,35,23,139,139,119,119,11,14,7,5,0.9,0.7
2026-04-26T1700,4118A,115.0552,35.7816,濮阳市,中原东路68号,颗粒物(PM10),69,76,52,30,21,149,149,127,127,9,10,6,4,0.7,0.6
2026-04-26T1700,4216A,115.0923632,35.76857718,濮阳市,任丘路479号,颗粒物(PM10),63,67,51,35,22,140,140,121,121,19,19,6,4,0.7,0.7
2026-04-26T1700,2601A,100.9801,22.7634,普洱市,市环保局,,43,43,87,30,50,133,133,122,122,8,9,5,5,0.7,0.9
2026-04-26T1700,2602A,100.9763,22.8237,普洱市,普洱第二中学,,47,47,76,23,51,135,135,125,125,7,9,6,6,0.8,1.1
2026-04-26T1700,3345A,131.0413,45.7795,七台河市,中波台,,43,43,19,18,12,101,101,98,98,7,13,3,4,0.2,0.2
2026-04-26T1700,3637A,131.0136,45.7688,七台河市,人民广场,NA,NA,26,24,10,13,101,101,100,100,NA,17,10,10,0.5,0.6
2026-04-26T1700,3684A,130.8639,45.8144,七台河市,新建矿广场,,34,34,19,14,11,86,86,88,88,11,15,8,8,0.3,0.5
2026-04-26T1700,1779A,123.9307,47.3641,齐齐哈尔市,安居小区,,24,23,19,3,5,75,75,79,79,5,4,5,5,0.2,0.2
2026-04-26T1700,1780A,123.9497,47.3389,齐齐哈尔市,中心广场,,23,18,18,3,5,73,73,79,78,7,5,7,7,0.3,0.2
2026-04-26T1700,1781A,123.9483,47.3229,齐齐哈尔市,农牧车辆厂,,25,24,22,3,5,80,80,83,83,6,7,4,4,0.3,0.4
2026-04-26T1700,1783A,123.9442,47.2994,齐齐哈尔市,市环境监测站,,25,15,25,3,5,80,80,83,83,5,10,3,3,0.2,0.2
2026-04-26T1700,3662A,123.6341,47.2079,齐齐哈尔市,富区青少年活动中心,,25,23,27,7,7,78,78,80,80,5,8,2,3,0.3,0.3
2026-04-26T1700,2591A,107.9765,26.5724,黔东南苗族侗族自治州,市环境监测站,,42,38,46,29,28,111,111,100,100,6,20,3,3,0.2,0.4
2026-04-26T1700,2881A,107.8909,26.531,黔东南苗族侗族自治州,凯里学院,,37,34,35,24,25,116,116,111,111,3,13,3,3,0.4,0.4
2026-04-26T1700,2593A,107.5223,26.2371,黔南布依族苗族自治州,小围寨,,36,NA,31,25,21,88,88,90,90,5,10,4,5,0.4,0.3
2026-04-26T1700,3538A,107.5175,26.2977,黔南布依族苗族自治州,沙坝,,38,34,43,26,22,80,80,77,77,5,12,4,4,0.7,0.6
2026-04-26T1700,2589A,104.9022,25.0943,黔西南布依族苗族自治州,场坝街,,35,NA,28,24,23,104,104,85,85,3,4,6,6,0.5,0.4
2026-04-26T1700,2590A,104.8812,25.0994,黔西南布依族苗族自治州,坪东大道,,45,33,30,31,22,104,104,88,88,6,5,4,4,0.5,0.3
2026-04-26T1700,2502A,108.6238,21.9667,钦州市,市环保站,,39,39,50,7,24,104,104,78,78,9,20,2,3,0.7,0.9
2026-04-26T1700,2503A,108.655,21.9481,钦州市,沙埠小学,,33,NA,56,13,31,105,105,83,83,5,29,2,4,0.4,0.5
2026-04-26T1700,2504A,108.5989,21.7435,钦州市,港区一小,,36,36,57,20,27,111,111,89,89,8,26,2,5,0.7,0.8
2026-04-26T1700,3404A,108.5959,21.9634,钦州市,北职校,,35,NA,52,22,32,112,112,82,82,7,22,8,3,0.5,0.6
2026-04-26T1700,1046A,119.5247,39.9346,秦皇岛市,建设大厦,,50,50,70,13,20,109,109,94,94,5,7,6,8,0.2,0.4
2026-04-26T1700,3132A,119.5979,39.938,秦皇岛市,文明里,,48,48,66,15,23,112,112,94,94,9,18,9,10,0.3,0.4
2026-04-26T1700,4066A,119.7458,39.9952,秦皇岛市,南园路157号,,34,33,60,19,27,107,107,90,90,11,20,8,9,0.2,0.4
2026-04-26T1700,4067A,119.5131,39.8858,秦皇岛市,翠岛大街1号,,37,37,50,14,24,108,108,98,89,12,17,8,9,0.2,0.4
2026-04-26T1700,4198A,119.509013,39.825305,秦皇岛市,北戴河轮滑馆,,42,42,57,12,22,104,104,101,88,14,17,9,10,0.2,0.3
2026-04-26T1700,1310A,120.404,36.0625,青岛市,市南区东部子站,颗粒物(PM10),60,63,38,36,17,160,160,136,136,14,14,9,7,0.6,0.4
2026-04-26T1700,1311A,120.362344,36.10282,青岛市,四方区子站,臭氧1小时(O3_1h),92,66,41,44,21,193,193,165,165,22,17,10,7,0.9,0.7
2026-04-26T1700,1312A,120.294373,36.054183,青岛市,市南区西部子站,颗粒物(PM10),58,61,37,31,15,147,147,128,128,27,27,5,4,0.9,0.7
2026-04-26T1700,1313A,120.4581,36.0858,青岛市,崂山区子站,臭氧1小时(O3_1h),62,61,37,30,15,169,169,140,140,13,15,11,9,0.6,0.4
2026-04-26T1700,1315A,120.3945,36.3083,青岛市,城阳区子站,臭氧1小时(O3_1h),77,58,49,24,19,181,181,174,174,18,14,9,8,0.8,0.7
2026-04-26T1700,3642A,120.3454,36.0735,青岛市,市北区南部,臭氧1小时(O3_1h),82,51,34,33,16,185,185,162,162,11,10,7,5,0.8,0.6
2026-04-26T1700,3643A,120.3897,36.18,青岛市,李沧区北部,NA,NA,NA,44,37,21,161,161,149,149,21,17,12,10,0.7,0.5
2026-04-26T1700,4110A,120.5222,36.4089,青岛市,盟旺路653号,臭氧1小时(O3_1h),100,45,36,22,17,200,200,188,188,11,8,7,5,0.9,0.6
2026-04-26T1700,4290A,120.196923,35.954556,青岛市,珠江路669号,颗粒物(PM10),74,83,47,30,18,166,166,148,148,27,17,7,6,0.8,0.7
2026-04-26T1700,4291A,120.0424,35.8656,青岛市,黄岛区人民政府广场,臭氧1小时(O3_1h),68,73,45,39,20,174,174,126,126,20,18,11,9,0.8,0.6
2026-04-26T1700,1703A,113.0218,23.7086,清远市,凤城街办,臭氧1小时(O3_1h),105,50,44,43,31,210,210,176,176,23,23,/,/,/,/
2026-04-26T1700,3025A,113.0479,23.6343,清远市,技师学院,臭氧1小时(O3_1h),121,44,52,32,31,241,241,192,192,19,31,5,7,0.7,0.7
2026-04-26T1700,3318A,112.9898,23.7403,清远市,清新太和,臭氧1小时(O3_1h),123,58,45,36,30,246,246,203,203,19,19,10,9,0.6,0.6
2026-04-26T1700,3455A,113.076,23.72,清远市,清城东城,臭氧1小时(O3_1h),114,61,45,45,30,228,228,185,185,22,19,/,/,/,/
2026-04-26T1700,2661A,107.6325,35.7357,庆阳市,庆阳五中,颗粒物(PM10),54,55,71,10,26,127,127,121,121,7,13,4,4,0.2,0.3
2026-04-26T1700,2662A,107.6361,35.7067,庆阳市,市环保局,,47,47,72,9,25,137,137,133,133,10,16,6,7,0.4,0.4
2026-04-26T1700,1916A,103.7897,25.5036,曲靖市,环境监测站,,47,37,40,22,27,150,150,140,140,9,10,6,7,0.6,0.6
2026-04-26T1700,1917A,103.8013,25.5357,曲靖市,烟厂办公区,,47,31,36,24,25,150,150,138,138,6,9,8,8,0.6,0.7
2026-04-26T1700,3376A,103.7926,25.4651,曲靖市,南苑二区,,44,22,33,19,26,138,138,131,131,7,10,4,4,0.7,0.7
2026-04-26T1700,3377A,103.7442,25.5259,曲靖市,曲靖师范学院,,48,28,34,26,27,152,152,142,142,7,9,2,3,0.4,0.5
2026-04-26T1700,1264A,118.8694,28.94,衢州市,环保大楼,,43,42,38,20,21,135,135,126,126,8,24,/,/,/,/
2026-04-26T1700,1266A,118.8622,28.9809,衢州市,衢州学院,,40,38,31,18,30,128,128,112,112,6,31,7,7,0.4,0.5
2026-04-26T1700,4097A,118.9646,28.9832,衢州市,衢州三中,,43,40,39,17,21,136,136,125,125,10,30,8,9,0.3,0.5
2026-04-26T1700,1611A,118.5818,24.9116,泉州市,涂山街,NA,NA,49,44,24,26,122,122,122,122,NA,22,NA,5,0.4,0.5
2026-04-26T1700,1612A,118.597,24.8976,泉州市,津头埔,颗粒物(PM10),54,55,46,22,26,136,136,132,132,17,19,5,4,0.4,0.5
2026-04-26T1700,1613A,118.6669,24.9422,泉州市,万安,,47,47,43,22,21,123,123,116,116,12,22,5,4,0.6,0.6
2026-04-26T1700,4105A,118.6355,24.9148,泉州市,霞新路6号,,40,40,39,24,22,118,118,116,116,10,19,/,/,0.5,0.5
2026-04-26T1700,2626A,88.8873,29.2723,日喀则市,日喀则监测站,,37,25,28,10,11,116,116,110,110,5,5,8,8,0.4,0.4
2026-04-26T1700,3726A,88.8775,29.2425,日喀则市,林业技术推广中心,,37,23,32,14,14,116,116,108,108,4,5,10,9,0.3,0.4
2026-04-26T1700,1659A,119.4711,35.421,日照市,监测站,颗粒物(PM10),95,112,60,29,25,174,174,150,150,37,38,11,12,0.6,0.7
2026-04-26T1700,1660A,119.523,35.4216,日照市,市政府广场,颗粒物(PM10),75,85,67,34,28,177,177,144,144,27,32,10,12,0.8,0.9
2026-04-26T1700,1661A,119.5511,35.4113,日照市,港务局,臭氧1小时(O3_1h),82,83,74,33,30,185,185,136,136,21,33,8,8,0.7,0.7
2026-04-26T1700,3507A,119.5326,35.4627,日照市,职业技术学院,臭氧1小时(O3_1h),83,68,65,34,27,186,186,152,152,29,31,11,12,0.7,0.8
2026-04-26T1700,3604A,119.3267,35.1043,日照市,岚山环保分局,颗粒物(PM10),86,100,65,28,24,176,176,149,149,29,28,12,12,0.7,0.7
2026-04-26T1700,1835A,111.1922,34.7752,三门峡市,市政府,颗粒物(PM10),60,63,50,25,23,135,135,115,115,10,12,10,11,0.5,0.5
2026-04-26T1700,1836A,111.1588,34.794,三门峡市,开发区,颗粒物(PM10),52,52,47,21,26,139,139,119,119,9,10,12,13,0.6,0.6
2026-04-26T1700,3039A,111.1911,34.7829,三门峡市,三门峡市第一小学,颗粒物(PM10),73,82,55,30,24,143,143,121,121,13,12,14,15,0.7,0.7
2026-04-26T1700,3598A,111.1031,34.719,三门峡市,富达温泉假日酒店,颗粒物(PM10),65,71,64,22,26,145,145,115,115,17,16,24,16,0.4,0.3
2026-04-26T1700,2324A,117.621,26.2626,三明市,三钢,,39,35,32,14,21,122,122,110,110,6,16,6,6,0.7,1.1
2026-04-26T1700,2325A,117.6352,26.2714,三明市,三明二中,颗粒物(PM10),53,54,30,16,18,116,116,105,105,5,13,1,3,0.5,0.8
2026-04-26T1700,2326A,117.6028,26.2377,三明市,三元区政府,颗粒物(PM10),54,55,39,18,24,124,124,110,110,5,15,6,7,0.5,0.8
2026-04-26T1700,1877A,109.4962,18.2682,三亚市,河西子站,,30,26,22,13,15,94,94,100,100,5,5,4,4,0.5,0.6
2026-04-26T1700,3540A,109.7348,18.3443,三亚市,君悦子站,,27,15,22,13,21,85,85,96,96,4,9,4,4,0.6,0.7
2026-04-26T1700,4135A,109.1714,18.3739,三亚市,城东小学站,,29,29,24,9,15,84,84,101,101,6,9,/,/,/,/
2026-04-26T1700,2624A,91.7592,29.234,山南市,山南监测站,,35,17,19,6,12,111,111,103,103,2,5,7,7,0.3,0.3
2026-04-26T1700,2625A,91.7701,29.2436,山南市,山南人民医院,,35,30,23,10,8,111,111,104,104,4,4,9,8,0.2,0.2
2026-04-26T1700,1674A,116.6795,23.3666,汕头市,金平子站,,50,41,35,18,24,158,158,137,137,12,16,6,6,0.8,0.8
2026-04-26T1700,1675A,116.7248,23.3632,汕头市,龙湖子站,,48,40,30,17,21,153,153,128,128,6,10,6,7,/,/
2026-04-26T1700,1676A,116.7257,23.2774,汕头市,濠江子站,,45,34,32,19,20,142,142,122,122,15,14,8,8,/,/
2026-04-26T1700,1677A,116.7518,23.4712,汕头市,澄海子站,臭氧1小时(O3_1h),58,49,38,22,22,166,166,134,134,12,15,8,8,0.7,0.7
2026-04-26T1700,1678A,116.6088,23.2539,汕头市,潮阳子站,,50,34,31,24,23,160,160,138,138,7,10,7,7,0.7,0.6
2026-04-26T1700,3444A,116.4539,23.2684,汕头市,潮南峡山,臭氧1小时(O3_1h),54,39,42,26,26,163,163,147,147,9,13,8,7,0.8,0.8
2026-04-26T1700,3624A,116.4069,23.2533,汕头市,潮南子站,颗粒物(PM10),56,58,51,31,28,150,150,134,134,12,15,7,7,/,/
2026-04-26T1700,1693A,115.3653,22.7751,汕尾市,市环保局,,47,34,32,14,24,150,150,119,119,7,9,6,5,0.8,0.8
2026-04-26T1700,1695A,115.362,22.7926,汕尾市,新城中学,,49,33,33,15,24,156,156,124,124,7,9,7,6,0.6,0.7
2026-04-26T1700,2645A,109.9155,33.8714,商洛市,监测站,,44,39,55,26,29,139,139,129,129,10,12,6,9,0.5,0.6
