timepoint,stationcode,longitude,latitude,area,positionname,primarypollutant,aqi,pm10,pm10_24h,pm2_5,pm2_5_24h,o3,o3_24h,o3_8h,o3_8h_24h,no2,no2_24h,so2,so2_24h,co,co_24h
2025-08-22T0200,2566A,102.1879,31.914,阿坝藏族羌族自治州,州农科所,,14,14,24,6,8,38,,,,5,8,15,15,0.0,0
2025-08-22T0200,2568A,102.2502,31.8896,阿坝藏族羌族自治州,马师校,,22,,13,15,15,35,,,,3,5,8,8,0.7,0.7
2025-08-22T0200,3994A,102.2165,31.9024,阿坝藏族羌族自治州,马尔康中学西区,,26,21,12,18,14,37,,,,2,4,8,9,0.6,0.5
2025-08-22T0200,2695A,80.292,41.1694,阿克苏地区,电视台,,50,46,67,35,27,66,,,,13,10,5,5,0.7,0.7
2025-08-22T0200,2696A,80.2613,41.1551,阿克苏地区,艺术中心,颗粒物(PM10),74,97,63,44,30,8,,,,61,19,3,4,0.8,0.6
2025-08-22T0200,2204A,105.6467,38.8363,阿拉善盟,西城区西花园,,35,19,15,10,10,110,,,,8,12,10,8,0.8,0.7
2025-08-22T0200,2205A,105.6985,38.8411,阿拉善盟,蒙二幼,,30,15,16,3,5,95,,,,3,5,10,9,0.4,0.4
2025-08-22T0200,2206A,105.724,38.8516,阿拉善盟,环保局新楼,,33,10,12,3,5,104,,,,4,6,10,9,0.4,0.4
2025-08-22T0200,2708A,88.1264,47.8517,阿勒泰地区,市站,,38,38,24,9,5,53,,,,12,13,3,3,0.3,0.4
2025-08-22T0200,2630A,80.1161,32.5,阿里地区,阿里监测站,,21,8,8,3,3,66,,,,24,8,4,5,0.2,0.1
2025-08-22T0200,3192A,80.0903,32.5028,阿里地区,阿里藏医院,,30,7,9,3,2,94,,,,2,2,6,5,0.1,0.1
2025-08-22T0200,2642A,109.0318,32.6537,安康市,香溪洞,,16,,13,3,4,50,,,,4,6,6,6,0.5,0.5
2025-08-22T0200,2644A,109.0072,32.6975,安康市,汉滨区检察院,,15,,18,3,8,47,,,,5,7,5,5,0.3,0.4
2025-08-22T0200,4054A,109.0325,32.6913,安康市,市邮政管理局,,14,6,18,3,10,42,,,,5,7,4,7,0.5,0.5
2025-08-22T0200,2291A,117.0809,30.5177,安庆市,环科院,,14,6,16,3,11,42,,,,11,12,4,5,0.5,0.5
2025-08-22T0200,2292A,117.0331,30.5119,安庆市,马山宾馆,,11,8,17,6,8,28,,,,21,13,4,4,0.4,0.4
2025-08-22T0200,2294A,116.9896,30.6145,安庆市,安庆大学,,16,16,19,8,11,35,,,,17,14,4,4,0.4,0.4
2025-08-22T0200,3173A,117.0598,30.5351,安庆市,市人大,,15,6,15,3,9,47,,,,10,10,6,5,0.4,0.4
2025-08-22T0200,3122A,105.9606,26.2611,安顺市,伍家关,,,,6,5,5,50,,,,4,5,4,4,0.5,0.5
2025-08-22T0200,3123A,105.9408,26.2431,安顺市,凤凰山,,15,8,10,3,8,46,,,,2,5,6,7,0.3,0.4
2025-08-22T0200,3124A,105.9439,26.2564,安顺市,金钟山,,16,7,7,6,6,49,,,,2,4,6,6,0.5,0.5
2025-08-22T0200,3125A,105.8983,26.2481,安顺市,娄家坡,,15,6,8,3,6,48,,,,1,3,7,7,0.5,0.5
2025-08-22T0200,1818A,114.4839,36.0621,安阳市,棉研所,,,,,,,,,,,,,,,,
2025-08-22T0200,1819A,114.3551,36.1017,安阳市,红庙街,,32,32,33,3,13,19,,,,29,13,6,7,0.6,0.6
2025-08-22T0200,1820A,114.361,36.0681,安阳市,银杏小区,,34,34,34,7,17,22,,,,30,15,6,6,0.4,0.6
2025-08-22T0200,3141A,114.3922,36.0878,安阳市,信访局,,22,22,28,6,12,26,,,,28,13,6,7,0.7,0.8
2025-08-22T0200,3669A,114.4705,36.0637,安阳市,左辅环卫站,,26,26,33,7,14,27,,,,24,14,5,6,0.4,0.5
2025-08-22T0200,3703A,114.2917,36.0949,安阳市,安钢职工学校,颗粒物(PM10),83,116,41,7,15,22,,,,23,11,8,6,0.8,0.8
2025-08-22T0200,1748A,123.044,41.1196,鞍山市,深沟寺,,34,19,15,12,10,107,,,,2,4,6,5,0.7,0.7
2025-08-22T0200,1749A,123.011,41.0931,鞍山市,太阳城,,35,19,18,12,10,109,,,,3,5,5,5,0.6,0.6
2025-08-22T0200,1750A,123.0485,41.1442,鞍山市,太平,,33,23,26,14,14,105,,,,3,8,5,5,0.7,0.7
2025-08-22T0200,1751A,122.9642,41.0971,鞍山市,铁西三道街,,30,24,22,14,12,93,,,,8,13,6,5,0.6,0.8
2025-08-22T0200,1753A,123.022,41.0821,鞍山市,明达新区,,31,19,17,11,10,98,,,,3,6,6,6,0.7,0.7
2025-08-22T0200,1754A,123.1289,41.0228,鞍山市,千山,,,,,,,,,,,,,,,,
2025-08-22T0200,4201A,122.9446,41.0826,鞍山市,兴盛南路290号,,31,22,23,13,12,99,,,,9,15,6,8,0.7,0.8
2025-08-22T0200,2195A,107.4212,40.761,巴彦淖尔市,附二中,,28,28,24,14,11,85,,,,16,8,9,7,0.5,0.6
2025-08-22T0200,2196A,107.37,40.7372,巴彦淖尔市,市环保大楼,,33,33,32,13,13,67,,,,16,9,8,8,0.5,0.5
2025-08-22T0200,1956A,86.1472,41.7538,巴音郭楞蒙古自治州,孔雀公园,,30,15,49,9,18,93,,,,12,19,4,4,0.2,0.3
2025-08-22T0200,1957A,86.1972,41.7166,巴音郭楞蒙古自治州,棉纺厂,,27,18,60,8,13,85,,,,4,15,4,4,0.1,0.2
2025-08-22T0200,1958A,86.2357,41.7173,巴音郭楞蒙古自治州,经济开发区,,28,11,38,3,10,89,,,,3,5,3,4,0.1,0.1
2025-08-22T0200,2914A,106.7677,31.8794,巴中市,苏山坪,,12,12,10,7,7,32,,,,5,5,4,4,0.4,0.4
2025-08-22T0200,3181A,106.7768,31.8526,巴中市,市五中,,12,12,18,3,10,23,,,,5,9,6,6,0.4,0.4
2025-08-22T0200,3183A,106.7418,31.8654,巴中市,圣泉水务公司,,9,8,11,6,7,27,,,,4,4,6,6,0.6,0.5
2025-08-22T0200,3616A,106.7616,31.8344,巴中市,市中心医院,,,11,15,,10,25,,,,7,9,5,6,0.4,0.3
2025-08-22T0200,2235A,122.7911,45.6077,白城市,洮北区环保局,,25,,15,8,9,78,,,,2,6,3,6,0.3,0.4
2025-08-22T0200,2236A,122.8738,45.5725,白城市,市环保局,,25,6,16,3,9,78,,,,2,9,3,3,0.4,0.4
2025-08-22T0200,2231A,126.4219,41.9171,白山市,喜丰,,26,26,35,3,9,8,,,,15,13,6,7,0.7,0.6
2025-08-22T0200,2232A,126.4077,41.9419,白山市,环保局,,28,28,24,10,10,3,,,,10,12,4,6,0.7,0.7
2025-08-22T0200,2647A,104.1724,36.5446,白银市,第三小学,,22,12,15,3,14,68,,,,11,10,8,12,0.6,0.6
2025-08-22T0200,2648A,104.1465,36.5482,白银市,动力公司,,15,15,13,7,14,43,,,,22,9,4,5,0.4,0.5
2025-08-22T0200,2512A,106.6103,23.9011,百色市,市监测站,,28,28,25,6,13,16,,,,9,11,6,9,0.5,0.6
2025-08-22T0200,2513A,106.6538,23.8859,百色市,市中心血站,,28,28,25,13,17,8,,,,27,17,4,10,0.6,0.7
2025-08-22T0200,3406A,106.6085,23.8798,百色市,祈福高中,,39,39,31,13,17,4,,,,23,17,5,9,0.6,0.7
2025-08-22T0200,2270A,117.396,32.939,蚌埠市,工人疗养院,,34,34,39,3,7,70,,,,5,4,4,4,0.2,0.3
2025-08-22T0200,2271A,117.3605,32.9427,蚌埠市,百货大楼,,22,20,24,8,9,68,,,,10,9,6,7,0.4,0.4
2025-08-22T0200,2273A,117.4185,32.8911,蚌埠市,蚌埠学院,,24,24,23,13,12,66,,,,6,6,7,6,0.4,0.4
2025-08-22T0200,2274A,117.3533,32.9673,蚌埠市,淮上区政府,,25,24,24,10,10,80,,,,6,6,6,6,0.3,0.4
2025-08-22T0200,2275A,117.3145,32.8977,蚌埠市,高新区,,29,29,27,10,11,58,,,,15,13,15,11,0.6,0.6
2025-08-22T0200,3715A,117.3092,32.9314,蚌埠市,蚌埠田家炳中学,,32,32,31,15,12,67,,,,18,12,18,13,0.5,0.4
2025-08-22T0200,1585A,109.8756,40.6532,包头市,市环境监测站,,48,48,36,13,15,0,,,,52,30,5,14,1.3,1.1
2025-08-22T0200,1587A,109.9991,40.5842,包头市,包头八中,颗粒物(PM10),51,52,43,24,17,18,,,,36,27,8,15,1.4,0.8
2025-08-22T0200,1588A,109.8538,40.6821,包头市,青山宾馆,,38,38,33,21,16,11,,,,38,33,4,11,1.1,0.9
2025-08-22T0200,1589A,109.8642,40.6288,包头市,惠龙物流,颗粒物(PM10),54,58,39,24,16,21,,,,39,25,12,17,1.4,1
2025-08-22T0200,1590A,110.0377,40.5546,包头市,东河鸿龙湾,,29,28,25,13,8,7,,,,57,21,5,9,0.8,0.5
2025-08-22T0200,3283A,109.9154,40.5685,包头市,滨河大厦,,37,37,24,19,11,2,,,,52,19,6,8,0.9,0.5
2025-08-22T0200,3419A,109.9447,40.6261,包头市,包头市委党校,,38,38,31,19,15,21,,,,44,26,12,18,1.5,0.9
2025-08-22T0200,3683A,109.8331,40.6576,包头市,昆区政府,颗粒物(PM10),53,55,42,29,17,2,,,,57,29,6,15,1.3,1.1
2025-08-22T0200,1930A,107.185,34.3063,宝鸡市,庙沟村,,25,14,27,3,12,78,,,,8,7,4,5,0.5,0.5
2025-08-22T0200,1931A,107.0708,34.3017,宝鸡市,竹园沟,,16,11,31,3,12,50,,,,11,7,7,8,0.3,0.2
2025-08-22T0200,1932A,107.1906,34.3672,宝鸡市,三陆医院,,19,19,33,3,9,43,,,,20,14,8,8,0.5,0.4
2025-08-22T0200,1933A,107.1431,34.3547,宝鸡市,监测站,,18,10,30,7,14,56,,,,10,8,8,8,0.3,0.3
2025-08-22T0200,1934A,107.1186,34.3739,宝鸡市,技工学校,,19,18,34,13,14,54,,,,10,7,6,6,0.5,0.5
2025-08-22T0200,1936A,107.2058,34.3497,宝鸡市,文理学院,,22,22,33,8,11,57,,,,14,10,7,7,0.4,0.4
2025-08-22T0200,1937A,107.2386,34.3622,宝鸡市,三迪小学,,18,13,35,9,14,57,,,,15,12,4,4,0.4,0.4
2025-08-22T0200,4308A,107.3898,34.3601,宝鸡市,陈仓区北开路21号,,22,,26,15,11,53,,,,15,12,6,6,0.3,0.3
2025-08-22T0200,1051A,115.493,38.8632,保定市,游泳馆,,23,20,28,6,16,71,,,,2,7,9,9,0.6,0.3
2025-08-22T0200,1052A,115.5213,38.8959,保定市,华电二区,,20,11,32,9,18,61,,,,12,10,3,3,0.6,0.6
2025-08-22T0200,1053A,115.4713,38.9108,保定市,接待中心,,22,22,34,3,14,55,,,,5,8,3,3,0.3,0.3
2025-08-22T0200,1054A,115.4612,38.8416,保定市,地表水厂,,18,10,31,3,13,56,,,,18,14,3,3,0.5,0.6
2025-08-22T0200,3581A,115.31981,38.95208,保定市,满城区生态环境分局,,,19,27,3,13,,,,,12,11,3,3,0.1,0.1
2025-08-22T0200,3582A,115.47694,38.76408,保定市,清苑区第二中学,,20,19,29,14,15,49,,,,12,6,4,4,0.5,0.3
2025-08-22T0200,3583A,115.62909,39.02311,保定市,徐水物探局,,31,31,31,3,6,59,,,,11,11,6,8,0.3,0.4
2025-08-22T0200,4004A,115.4202,38.8656,保定市,双鹰农机,,20,20,25,7,18,56,,,,13,8,4,4,0.4,0.3
2025-08-22T0200,4034A,115.5150,38.8590,保定市,植保所站,,24,9,23,6,12,75,,,,7,7,1,3,0.2,0.2
2025-08-22T0200,2594A,99.1678,25.1081,保山市,市环境监测站,,10,10,11,3,10,25,,,,6,6,7,6,0.4,0.3
2025-08-22T0200,2595A,99.1711,25.1328,保山市,市环保局,,12,8,11,8,9,28,,,,2,3,6,7,0.3,0.3
2025-08-22T0200,1866A,109.2262,21.588,北海市,牛尾岭水库,,27,27,20,10,11,13,,,,10,7,2,11,0.4,0.4
2025-08-22T0200,1867A,109.1436,21.4086,北海市,海滩公园,,11,11,31,3,6,25,,,,7,7,4,3,0.6,0.6
2025-08-22T0200,1868A,109.0981,21.4661,北海市,新市环保局,,25,22,23,17,13,18,,,,13,10,6,3,0.4,0.4
2025-08-22T0200,1869A,109.1778,21.5233,北海市,北海工业园,,33,33,31,20,14,9,,,,21,13,16,6,0.5,0.5
2025-08-22T0200,3400A,109.1911,21.4415,北海市,龙潭自来水厂,,18,18,21,3,10,23,,,,8,8,3,3,0.4,0.5
2025-08-22T0200,1001A,116.3621,39.8784,北京市,万寿西宫,,15,15,23,8,17,18,,,,24,9,2,2,0.6,0.6
2025-08-22T0200,1002A,116.2202,40.2915,北京市,定陵,,13,6,19,3,14,41,,,,3,3,3,3,0.3,0.6
2025-08-22T0200,1003A,116.4174,39.9289,北京市,东四,,16,16,27,9,20,26,,,,21,15,2,2,0.7,0.7
2025-08-22T0200,1004A,116.4072,39.8863,北京市,天坛,,12,12,24,7,18,11,,,,20,8,3,3,0.6,0.7
2025-08-22T0200,1005A,116.462,39.9365,北京市,农展馆,,16,11,23,6,17,7,,,,31,12,2,2,0.7,0.8
2025-08-22T0200,1006A,116.3392,39.9295,北京市,官园,,13,11,23,9,16,34,,,,14,12,5,5,0.5,0.7
2025-08-22T0200,1007A,116.2878,39.9611,北京市,海淀万柳,,12,12,26,6,18,14,,,,18,13,3,3,0.4,0.6
2025-08-22T0200,1008A,116.6636,40.135,北京市,顺义新城,,,,,,,,,,,,,,,,
2025-08-22T0200,1009A,116.6275,40.3275,北京市,怀柔镇,,10,9,24,3,17,30,,,,4,9,3,3,0.5,0.7
2025-08-22T0200,1010A,116.2296,40.217,北京市,昌平镇,,12,8,24,3,16,36,,,,9,11,4,4,0.5,0.8
2025-08-22T0200,1011A,116.3966,39.9821,北京市,奥体中心,,11,10,23,3,16,22,,,,22,10,4,4,0.5,0.6
2025-08-22T0200,3281A,115.9718,40.4529,北京市,延庆夏都,,17,17,17,7,12,14,,,,15,9,3,3,0.4,0.6
2025-08-22T0200,3418A,116.8336,40.4095,北京市,密云新城,,9,9,26,3,17,22,,,,4,7,1,1,0.4,0.6
2025-08-22T0200,3671A,116.088,39.9726,北京市,门头沟三家店,,18,18,19,7,14,7,,,,25,14,3,3,0.6,0.8
2025-08-22T0200,3672A,116.1541,39.8204,北京市,丰台云岗,,15,15,15,6,11,5,,,,19,6,4,4,0.5,0.5
2025-08-22T0200,3673A,116.6804,39.9081,北京市,通州东关,,12,12,23,8,15,25,,,,24,12,4,4,0.6,0.7
2025-08-22T0200,3674A,115.9577,39.7603,北京市,房山燕山,,13,13,23,7,20,14,,,,9,7,17,6,0.4,0.6
2025-08-22T0200,3675A,116.4672,39.7733,北京市,大兴旧宫,,19,19,25,10,16,15,,,,25,10,2,2,0.6,0.7
2025-08-22T0200,3694A,115.986,40.4563,北京市,延庆石河营,,12,12,15,7,12,7,,,,12,7,1,2,0.4,0.6
2025-08-22T0200,3695A,116.6151,40.3053,北京市,怀柔新城,,10,9,24,3,19,29,,,,1,6,2,2,0.5,0.8
2025-08-22T0200,3696A,116.2545,39.8768,北京市,丰台小屯,,20,20,25,10,17,3,,,,23,8,2,2,0.8,0.8
2025-08-22T0200,3697A,116.84,40.3844,北京市,密云镇,,10,8,23,3,18,10,,,,20,10,4,4,0.6,0.8
2025-08-22T0200,4182A,116.1942,39.9158,北京市,八角北路9号,,19,19,25,10,16,8,,,,37,8,3,2,0.6,0.6
2025-08-22T0200,4194A,117.0790,40.1518,北京市,洳河巡河路,,15,9,31,3,22,47,,,,4,5,2,3,0.4,0.7
2025-08-22T0200,1761A,123.8275,41.3064,本溪市,大峪,,34,19,24,11,12,106,,,,1,9,4,5,0.4,0.5
2025-08-22T0200,1762A,123.7567,41.3325,本溪市,溪湖,,27,25,22,15,11,86,,,,7,10,8,9,1.2,1
2025-08-22T0200,1763A,123.7169,41.3094,本溪市,彩屯,,30,30,28,16,15,69,,,,19,23,8,10,2.2,2.1
2025-08-22T0200,1764A,123.7669,41.2864,本溪市,东明,,31,31,29,10,8,98,,,,6,12,4,4,0.6,0.6
2025-08-22T0200,1765A,123.7992,41.2664,本溪市,新立屯,,33,33,20,18,13,102,,,,3,8,4,4,0.8,0.9
2025-08-22T0200,1766A,123.8142,41.3472,本溪市,威宁,,25,20,26,16,13,78,,,,4,9,9,9,0.4,0.5
2025-08-22T0200,2587A,105.2864,27.3125,毕节市,八中,,20,,16,14,13,22,,,,13,8,5,6,0.6,0.5
2025-08-22T0200,2588A,105.31,27.2944,毕节市,师专,,13,13,18,6,9,25,,,,11,11,6,7,0.6,0.6
2025-08-22T0200,4263A,105.3688,27.3598,毕节市,工业大道,,10,10,13,7,9,29,,,,12,11,8,8,0.6,0.6
2025-08-22T0200,1629A,118.0018,37.3617,滨州市,第二水厂,,29,29,35,12,20,65,,,,16,13,3,2,0.4,0.5
2025-08-22T0200,1630A,117.9776,37.393,滨州市,北中新校,,31,31,38,14,20,90,,,,16,17,3,2,0.7,0.6
2025-08-22T0200,3514A,117.9378,37.3956,滨州市,中海酒店,,29,29,32,19,19,80,,,,14,12,5,4,0.6,0.6
2025-08-22T0200,3515A,117.9378,37.3553,滨州市,开发区一中,,,31,37,19,19,,,,,19,19,8,7,0.5,0.5
2025-08-22T0200,3516A,118.0917,37.694,滨州市,金海六路,,,37,36,12,17,,,,,56,21,4,4,0.4,0.4
2025-08-22T0200,4028A,117.9956,37.3753,滨州市,滨州市西街道办事处,,28,19,27,19,20,81,,,,14,13,2,2,0.3,0.3
2025-08-22T0200,2311A,115.8072,33.8399,亳州市,污水处理厂,,22,9,13,7,10,68,,,,10,10,8,5,0.5,0.6
2025-08-22T0200,2312A,115.7789,33.8518,亳州市,三国揽胜宫,,26,19,21,11,9,81,,,,5,5,3,3,0.7,0.7
2025-08-22T0200,3332A,115.7633,33.8034,亳州市,亳州学院,,21,13,17,10,10,65,,,,8,7,2,3,0.7,0.6
2025-08-22T0200,2693A,82.0485,44.8556,博尔塔拉蒙古自治州,市党校,,24,24,30,13,12,50,,,,10,7,3,4,0.1,0.2
2025-08-22T0200,2694A,82.0806,44.8969,博尔塔拉蒙古自治州,市环保局,,34,34,38,14,14,40,,,,10,7,5,4,0.3,0.3
2025-08-22T0200,1071A,116.8842,38.2991,沧州市,沧县城建局,,21,13,22,8,11,67,,,,10,10,5,4,0.1,0.3
2025-08-22T0200,1072A,116.8584,38.3254,沧州市,电视转播站,,33,33,42,3,11,57,,,,8,10,3,3,0.1,0.2
2025-08-22T0200,1073A,116.8709,38.3228,沧州市,市环保局,,26,,32,18,20,65,,,,10,12,3,3,0.2,0.3
2025-08-22T0200,3324A,116.8136,38.3004,沧州市,河北水利电力学院,,22,,19,7,15,68,,,,6,7,4,4,0.2,0.2
2025-08-22T0200,2622A,97.1806,31.1273,昌都市,昌都监测站,,18,6,6,3,5,55,,,,2,4,4,5,0.2,0.2
2025-08-22T0200,3719A,97.1714,31.1406,昌都市,昌都会议中心,,16,6,8,3,5,50,,,,2,4,2,3,0.2,0.2
2025-08-22T0200,2690A,88.1236,43.8886,昌吉回族自治州,天山天池,,20,11,9,7,7,63,,,,9,9,10,10,0.5,0.5
2025-08-22T0200,2692A,87.2717,44.0297,昌吉回族自治州,新区政务中心,,34,32,34,3,9,107,,,,6,18,1,2,0.3,0.4
2025-08-22T0200,3613A,87.3095,44.0142,昌吉回族自治州,亚心广场,,34,34,43,12,15,104,,,,7,23,7,8,0.2,0.4
2025-08-22T0200,1120A,125.2863,43.9027,长春市,客车厂,,22,15,22,12,9,70,,,,6,18,3,4,0.4,0.3
2025-08-22T0200,1121A,125.2841,43.8463,长春市,邮电学院,,25,13,16,8,8,77,,,,4,12,4,4,0.5,0.5
2025-08-22T0200,1122A,125.3716,43.8772,长春市,劳动公园,,21,16,20,13,8,65,,,,7,17,6,7,0.5,0.5
2025-08-22T0200,1123A,125.3297,43.8805,长春市,园林处,,24,22,18,12,6,76,,,,4,13,4,4,0.5,0.5
2025-08-22T0200,1124A,125.4605,43.79,长春市,净月潭,,20,20,14,11,5,49,,,,5,6,4,5,0.4,0.3
2025-08-22T0200,1125A,125.7194,43.515,长春市,甩湾子,,19,16,15,10,7,58,,,,4,6,3,3,0.6,0.5
2025-08-22T0200,1126A,125.3863,43.8447,长春市,经开区环卫处,,21,21,24,7,7,57,,,,6,17,3,4,0.5,0.5
2025-08-22T0200,1127A,125.245,43.7783,长春市,高新区管委会,,24,22,22,10,7,74,,,,3,12,2,3,0.5,0.4
2025-08-22T0200,1128A,125.1761,43.8325,长春市,岱山公园,,26,22,23,18,8,64,,,,5,21,3,3,0.4,0.4
2025-08-22T0200,4281A,125.3346,43.9164,长春市,北亚泰大街1068号,,25,25,28,13,12,72,,,,8,21,6,7,0.5,0.4
2025-08-22T0200,1335A,113.0833,28.2325,长沙市,经开区环保局,,9,8,20,3,11,28,,,,18,10,5,5,0.3,0.3
2025-08-22T0200,1336A,112.8872,28.2189,长沙市,高开区环保局,,,11,21,3,11,,,,,4,6,4,5,0.2,0.3
2025-08-22T0200,1337A,113.0792,28.2053,长沙市,马坡岭,,11,11,19,3,8,31,,,,16,7,5,5,0.4,0.4
2025-08-22T0200,1338A,112.9394,28.19,长沙市,湖南师范大学,,11,11,19,7,9,32,,,,19,10,9,5,0.5,0.3
2025-08-22T0200,1339A,113.0178,28.1322,长沙市,雨花区环保局,,14,14,17,3,8,26,,,,15,6,7,6,0.5,0.4
2025-08-22T0200,1340A,112.9792,28.2597,长沙市,伍家岭,,18,14,20,12,9,34,,,,12,7,8,4,0.5,0.3
2025-08-22T0200,1341A,113.0014,28.1944,长沙市,火车新站,,16,16,22,7,7,34,,,,10,6,7,7,0.5,0.4
2025-08-22T0200,1342A,112.9844,28.1178,长沙市,天心区环保局,,18,18,18,8,8,27,,,,21,8,5,4,0.6,0.4
2025-08-22T0200,1343A,112.8908,28.1308,长沙市,湖南中医药大学,,11,9,20,3,11,34,,,,7,4,5,4,0.7,0.6
2025-08-22T0200,1344A,112.9581,28.3611,长沙市,沙坪,,16,13,27,3,16,49,,,,7,9,2,2,0.3,0.3
2025-08-22T0200,1727A,113.1147,36.1547,长治市,清华站,,18,18,16,3,4,40,,,,14,7,8,7,0.5,0.6
2025-08-22T0200,1730A,113.0886,36.2125,长治市,审计局,,18,18,21,3,5,36,,,,14,10,6,5,0.6,0.6
2025-08-22T0200,1731A,113.0844,36.1856,长治市,长治八中,,22,20,16,15,12,36,,,,14,7,9,8,0.7,0.7
2025-08-22T0200,2845A,113.1569,36.1911,长治市,德盛苑,,21,21,16,9,6,38,,,,11,7,6,6,0.6,0.6
2025-08-22T0200,3568A,113.06,36.0464,长治市,向阳小学,,48,48,46,17,22,25,,,,12,6,4,4,0.7,0.7
2025-08-22T0200,3569A,112.8792,36.3144,长治市,屯留一中,,24,24,15,15,15,55,,,,14,12,8,8,0.4,0.3
2025-08-22T0200,4189A,113.1131,36.19948,长治市,英华南巷50号,,23,23,17,9,5,39,,,,15,9,8,8,0.7,0.7
2025-08-22T0200,4190A,113.2367,36.3344,长治市,学府街1号,,,22,24,11,13,,,,,14,12,1,2,1.1,0.8
2025-08-22T0200,1854A,111.6975,28.9703,常德市,市二中,,14,8,13,3,10,42,,,,9,7,4,4,0.3,0.3
2025-08-22T0200,1857A,111.7158,29.1456,常德市,白鹤山,,,,,,,,,,,,,,,,
2025-08-22T0200,3138A,111.7153,29.0289,常德市,武陵区永安,,14,8,14,3,7,42,,,,5,5,4,4,0.3,0.3
2025-08-22T0200,3139A,111.6892,28.9881,常德市,鼎城区玉霞,,13,12,16,3,9,39,,,,6,6,5,4,0.5,0.4
2025-08-22T0200,3140A,111.6625,29.0531,常德市,武陵区长庚,,14,7,11,3,8,44,,,,2,3,4,4,0.3,0.3
2025-08-22T0200,1196A,119.9633,31.762,常州市,市监测站,,27,19,47,15,30,86,,,,10,23,12,12,0.6,0.7
2025-08-22T0200,1200A,119.9468,31.7069,常州市,武进监测站,,34,34,40,13,26,88,,,,7,12,10,9,0.9,1.1
2025-08-22T0200,1201A,119.9255,31.9087,常州市,安家,,33,33,45,17,29,81,,,,21,25,10,9,0.8,0.9
2025-08-22T0200,3002A,119.9805,31.8174,常州市,行政中心,,26,26,52,14,30,81,,,,18,26,10,11,0.5,0.7
2025-08-22T0200,3003A,120.0522,31.7748,常州市,经开区,,30,30,58,14,30,94,,,,10,28,4,5,0.7,0.9
2025-08-22T0200,3010A,119.9025,31.7964,常州市,钟楼,,28,28,44,10,26,80,,,,13,18,6,6,0.4,0.7
2025-08-22T0200,3429A,119.8598,31.7066,常州市,武进经发区,,27,22,46,12,30,86,,,,8,12,10,10,0.8,0.9
2025-08-22T0200,3430A,119.5826,31.7245,常州市,金坛城区,,23,21,36,13,24,72,,,,12,12,9,10,0.4,0.5
2025-08-22T0200,2220A,120.4318,41.5881,朝阳市,西梁,,18,,32,12,19,55,,,,12,11,2,7,0.9,0.7
2025-08-22T0200,2221A,120.4521,41.5646,朝阳市,河畔小区,,24,17,24,6,15,76,,,,6,8,4,5,0.6,0.6
2025-08-22T0200,2222A,120.4176,41.5648,朝阳市,八里堡,,23,10,31,10,19,72,,,,8,11,6,7,0.8,0.7
2025-08-22T0200,2223A,120.3806,41.5969,朝阳市,农业园区,,18,12,25,12,21,49,,,,6,11,7,7,0.6,0.7
2025-08-22T0200,1705A,116.6367,23.6719,潮州市,西园路,,14,14,24,9,17,17,,,,8,12,3,5,0.3,0.4
2025-08-22T0200,3026A,116.6183,23.6608,潮州市,市政府,,28,28,36,9,13,20,,,,7,16,3,8,0.3,0.5
2025-08-22T0200,4036A,116.6461,23.6761,潮州市,金山,,22,22,28,12,18,8,,,,9,10,4,6,0.4,0.6
2025-08-22T0200,2472A,113.0073,25.9061,郴州市,马头岭,,18,,27,12,12,11,,,,19,12,5,5,0.5,0.5
2025-08-22T0200,2473A,113.0116,25.8226,郴州市,市职中,,21,21,16,10,8,21,,,,9,7,4,4,0.3,0.3
2025-08-22T0200,2475A,113.0383,25.8071,郴州市,市审计局,,19,19,17,9,9,29,,,,15,11,5,5,0.4,0.4
2025-08-22T0200,2476A,113.0348,25.7759,郴州市,市环保局,,26,26,16,13,12,35,,,,11,11,2,1,0.2,0.2
2025-08-22T0200,4252A,113.0138,25.8011,郴州市,好美居路49号,,24,24,17,11,10,45,,,,7,7,4,4,0.3,0.3
2025-08-22T0200,1431A,103.9728,30.7236,成都市,金泉两河,,,19,19,3,8,,,,,17,10,2,2,0.6,0.6
2025-08-22T0200,1432A,104.176,30.6872,成都市,十里店,,15,11,26,3,11,45,,,,14,14,2,3,0.6,0.6
2025-08-22T0200,1433A,104.079,30.5706,成都市,三瓦窑,,17,8,25,3,14,26,,,,34,21,2,2,0.4,0.4
2025-08-22T0200,1434A,104.1114,30.63,成都市,沙河铺,,12,11,28,3,11,38,,,,9,12,3,3,0.5,0.6
2025-08-22T0200,1437A,104.0786,30.6531,成都市,君平街,,18,12,26,3,14,57,,,,6,7,2,3,0.5,0.6
2025-08-22T0200,1438A,103.613,31.0283,成都市,灵岩寺,,,,,,,,,,,,,,,,
2025-08-22T0200,2880A,104.0239,30.65639,成都市,大石西路,,10,10,26,3,17,30,,,,12,15,2,3,0.7,0.7
2025-08-22T0200,3136A,104.2725,30.5589,成都市,龙泉驿区区政府,,17,17,19,7,10,18,,,,22,15,5,5,0.5,0.5
2025-08-22T0200,3357A,104.0106,30.6931,成都市,金博路,,14,14,17,3,10,31,,,,13,11,4,5,0.6,0.6
2025-08-22T0200,3359A,104.0578,30.5225,成都市,华阳,,,12,20,,15,40,,,,13,18,3,4,0.5,0.3
2025-08-22T0200,3488A,104.3853,30.7453,成都市,青白江技师分院,,26,26,31,11,20,14,,,,20,18,6,7,0.6,0.6
2025-08-22T0200,3489A,104.0789,30.4072,成都市,科学城,,34,34,24,19,15,29,,,,15,13,4,3,0.5,0.5
2025-08-22T0200,4011A,103.8506,30.6947,成都市,光华大道三段,,18,,21,10,11,55,,,,9,12,4,5,0.7,0.8
2025-08-22T0200,4224A,104.2433,30.5353,成都市,鲸龙路1057号,,24,24,28,16,20,28,,,,16,16,3,4,0.5,0.6
2025-08-22T0200,1062A,117.9531,40.9081,承德市,铁路,,20,20,22,3,11,37,,,,12,13,3,2,0.2,0.5
2025-08-22T0200,1063A,117.9392,40.9763,承德市,中国银行,,23,23,23,10,14,34,,,,9,11,1,2,0.4,0.5
2025-08-22T0200,1064A,117.9503,40.928,承德市,开发区,,19,19,27,3,11,43,,,,6,12,5,5,0.4,0.6
2025-08-22T0200,1066A,117.9268,41.0026,承德市,离宫,,19,19,18,6,7,20,,,,5,5,2,1,0.3,0.4
2025-08-22T0200,4274A,117.7994,40.9605,承德市,滨河大街98号,,19,19,13,12,9,27,,,,4,5,3,2,0.3,0.4
2025-08-22T0200,2314A,117.47,30.6618,池州市,池州学院,,12,12,18,6,10,38,,,,10,8,5,6,0.5,0.6
2025-08-22T0200,3237A,117.4918,30.6617,池州市,展览馆,,15,9,21,3,10,46,,,,8,9,5,6,0.6,0.6
2025-08-22T0200,3333A,117.5627,30.695,池州市,第八中学,,11,11,18,6,11,35,,,,9,7,5,5,0.3,0.2
2025-08-22T0200,3334A,117.5038,30.6243,池州市,第十二中学,,12,11,19,3,8,37,,,,14,12,4,4,0.8,0.8
2025-08-22T0200,1744A,118.9233,42.2816,赤峰市,松山一中,,14,8,15,3,9,44,,,,9,11,5,5,0.5,0.7
2025-08-22T0200,1745A,118.9576,42.2728,赤峰市,哈达街,,12,10,24,3,7,38,,,,10,12,10,10,0.4,0.6
2025-08-22T0200,1746A,118.8788,42.2554,赤峰市,天义路,,16,,11,9,11,50,,,,4,9,8,9,0.2,0.4
2025-08-22T0200,3058A,119.2658,42.0353,赤峰市,银河街,,22,,22,15,20,36,,,,10,10,8,9,0.7,0.8
2025-08-22T0200,3286A,118.9359,42.3147,赤峰市,桥北物流园区,,12,12,17,3,11,20,,,,6,12,9,12,0.5,0.7
2025-08-22T0200,2521A,107.3476,22.4136,崇左市,市环保局江州分局,,30,30,25,9,9,5,,,,12,10,6,7,0.6,0.6
2025-08-22T0200,4256A,107.3750,22.3736,崇左市,石景林东路7号,,20,20,21,7,10,9,,,,14,12,3,3,0.4,0.4
2025-08-22T0200,2298A,118.3093,32.3153,滁州市,老年大学,,30,30,32,12,14,65,,,,10,12,6,9,0.4,0.3
2025-08-22T0200,2299A,118.3244,32.2786,滁州市,人大宾馆,,26,25,22,18,19,60,,,,4,8,6,5,0.4,0.4
2025-08-22T0200,3207A,118.3118,32.3038,滁州市,市政府原办公楼,,32,30,29,22,22,60,,,,8,11,8,7,0.4,0.4
2025-08-22T0200,3331A,118.3267,32.2634,滁州市,图书馆,,29,26,24,20,20,62,,,,10,10,13,11,0.4,0.4
2025-08-22T0200,2605A,101.5482,25.0441,楚雄彝族自治州,州环境监测站,,12,10,7,8,5,21,,,,6,6,4,4,0.5,0.4
2025-08-22T0200,2606A,101.538,25.0492,楚雄彝族自治州,市经济开发区,,16,16,11,9,6,19,,,,8,8,6,6,0.3,0.3
2025-08-22T0200,2548A,107.5277,31.2827,达州市,达州职业技术学院,,19,19,33,8,8,13,,,,14,14,9,9,0.3,0.4
2025-08-22T0200,2549A,107.5086,31.2186,达州市,市环境监测站,,22,22,36,3,11,21,,,,17,25,8,7,0.4,0.4
2025-08-22T0200,2550A,107.4988,31.2132,达州市,凤凰小区,,14,14,27,7,14,28,,,,15,17,5,4,0.3,0.3
2025-08-22T0200,2551A,107.5082,31.1986,达州市,达县机关宾馆,,14,14,27,3,12,26,,,,19,20,9,7,0.3,0.4
2025-08-22T0200,2552A,107.4644,31.2124,达州市,市政中心,,29,29,31,9,11,33,,,,10,13,8,5,0.3,0.3
2025-08-22T0200,2614A,100.1542,25.7054,大理白族自治州,大理市环境监测站,,19,,8,13,14,36,,,,7,8,4,4,0.4,0.4
2025-08-22T0200,2615A,100.2171,25.5811,大理白族自治州,大理古城,,15,15,13,9,7,24,,,,6,8,6,6,0.6,0.6
2025-08-22T0200,1109A,121.612,38.9741,大连市,甘井子,,19,19,24,13,18,57,,,,10,17,6,7,0.4,0.4
2025-08-22T0200,1110A,121.565,38.9511,大连市,周水子,,25,23,25,14,17,77,,,,6,12,9,9,0.2,0.3
2025-08-22T0200,1111A,121.5637,38.8845,大连市,星海三站,,25,25,24,12,16,72,,,,11,12,4,3,0.3,0.3
2025-08-22T0200,1112A,121.6302,38.9117,大连市,青泥洼桥,,25,23,25,12,16,77,,,,6,7,6,6,0.5,0.6
2025-08-22T0200,1113A,121.6251,38.8638,大连市,傅家庄,,27,27,23,13,18,67,,,,7,8,9,8,0.2,0.2
2025-08-22T0200,1114A,121.5213,38.8661,大连市,七贤岭,,23,22,24,12,16,73,,,,5,6,6,6,0.4,0.5
2025-08-22T0200,1115A,121.2529,38.8061,大连市,旅顺,,26,25,26,17,16,82,,,,7,7,6,6,0.3,0.3
2025-08-22T0200,1116A,121.7485,39.1311,大连市,金州,,24,18,20,12,17,74,,,,11,11,11,10,0.2,0.2
2025-08-22T0200,1117A,121.7811,39.0496,大连市,开发区,,25,25,26,10,17,54,,,,15,14,6,6,0.4,0.5
2025-08-22T0200,1118A,121.9762,39.0631,大连市,双D港,,22,22,27,12,15,52,,,,14,8,7,8,0.6,0.5
2025-08-22T0200,1789A,124.81117,46.03138,大庆市,大同区,,15,,23,6,8,48,,,,8,11,8,8,0.6,0.6
2025-08-22T0200,1790A,125.129,46.533,大庆市,龙凤区,,13,6,15,3,7,41,,,,6,9,7,7,0.4,0.5
2025-08-22T0200,1791A,124.902,46.408,大庆市,红岗区,,20,20,18,7,9,40,,,,9,8,8,8,0.6,0.6
2025-08-22T0200,1792A,125.153,46.586,大庆市,萨尔图区,,19,19,23,8,7,38,,,,6,10,8,9,0.4,0.4
2025-08-22T0200,1793A,124.9042,46.6215,大庆市,让胡路区,,18,17,27,12,12,34,,,,9,11,6,5,0.3,0.4
2025-08-22T0200,3481A,125.141,46.634,大庆市,萨区政府监测点,,18,18,20,3,4,38,,,,4,7,7,7,0.3,0.4
2025-08-22T0200,1721A,113.3819,40.1097,大同市,果树场,,,,29,,14,,,38,,,22,,8,,0.5
2025-08-22T0200,1723A,113.2994,40.0758,大同市,云冈宾馆,,46,46,34,8,16,49,,,,22,15,6,5,0.8,0.6
2025-08-22T0200,1724A,113.3444,40.0917,大同市,大同大学,,39,39,32,13,15,42,,,,24,19,9,8,1.0,0.6
2025-08-22T0200,1725A,113.2661,40.1269,大同市,安家小村,,41,41,38,8,11,70,,,,10,16,4,4,0.8,0.7
2025-08-22T0200,1726A,113.2711,40.0844,大同市,教育学院,颗粒物(PM10),55,60,42,11,15,48,,,,17,14,10,9,0.6,0.5
2025-08-22T0200,3282A,113.3397,40.0597,大同市,大同市卫生学校,颗粒物(PM10),53,55,38,15,17,42,,,,28,17,8,7,1.0,0.8
2025-08-22T0200,3565A,113.1367,40.1122,大同市,云冈站,,36,36,34,10,13,23,,,,10,7,6,4,0.8,0.7
2025-08-22T0200,3566A,113.1186,40.2556,大同市,图书馆,,32,32,31,8,14,20,,,,5,8,2,3,0.6,0.7
2025-08-22T0200,3567A,113.5931,40.0461,大同市,区一中,颗粒物(PM10),51,52,39,16,16,48,,,,16,15,11,10,0.6,0.6
2025-08-22T0200,4199A,113.2798,40.0997,大同市,魏都大道141号,,47,47,35,18,17,37,,,,27,16,3,3,0.8,0.6
2025-08-22T0200,2269A,124.1069,50.4097,大兴安岭地区,科技局,,16,15,27,10,10,49,,,,2,3,5,5,0.3,0.3
2025-08-22T0200,3663A,124.1164,50.4278,大兴安岭地区,红旗社区,,14,9,9,3,3,43,,,,2,3,4,4,0.3,0.3
2025-08-22T0200,1600A,124.3303,40.0625,丹东市,江湾东路,,18,11,15,3,9,56,,,,5,8,3,4,0.5,0.7
2025-08-22T0200,1601A,124.4256,40.1503,丹东市,临江后街,,17,12,22,3,11,54,,,,4,8,6,6,0.5,0.7
2025-08-22T0200,1602A,124.3933,40.1461,丹东市,元宝山,,16,7,20,6,10,50,,,,6,10,2,3,0.4,0.6
2025-08-22T0200,1603A,124.3633,40.1092,丹东市,民主桥,,16,13,22,3,10,51,,,,3,8,3,3,0.4,0.7
2025-08-22T0200,3541A,109.5726,19.5167,儋州市,第一中学子站,,11,11,16,7,9,22,,,,4,6,6,6,0.4,0.5
2025-08-22T0200,3542A,109.5567,19.5187,儋州市,东坡学校子站,,11,11,16,6,10,21,,,,4,4,7,8,0.5,0.6
2025-08-22T0200,2616A,98.5842,24.428,德宏傣族景颇族自治州,德宏州监测站,,19,19,17,8,8,12,,,,12,8,28,18,0.7,0.7
2025-08-22T0200,3677A,98.5881,24.4368,德宏傣族景颇族自治州,芒市人民政府综合楼,,26,26,23,8,8,9,,,,9,8,19,14,0.6,0.6
2025-08-22T0200,1901A,104.4239,31.1208,德阳市,东山公园,,19,6,13,3,11,60,,,,3,5,3,3,0.6,0.7
2025-08-22T0200,1902A,104.3826,31.1317,德阳市,西小区,,19,13,22,3,14,59,,,,8,10,3,2,0.6,0.7
2025-08-22T0200,1904A,104.3553,31.1091,德阳市,耐火材料厂,,16,12,24,7,14,50,,,,8,10,1,2,0.4,0.5
2025-08-22T0200,3639A,104.4019,31.1244,德阳市,市教育局,,19,14,23,3,12,60,,,,3,6,6,7,0.7,0.8
2025-08-22T0200,1622A,116.3032,37.4674,德州市,儿童乐园,,,9,28,3,14,,,,,17,11,12,11,0.4,0.4
2025-08-22T0200,1624A,116.2991,37.4451,德州市,监理站,,21,7,28,3,11,66,,,,17,11,10,9,0.4,0.4
2025-08-22T0200,3066A,116.2721,37.4379,德州市,九衢泉纯净水厂,,23,14,29,3,15,27,,,,46,17,8,5,0.6,0.7
2025-08-22T0200,3371A,116.3728,37.4403,德州市,开发区人民医院,,24,17,30,3,15,76,,,,11,13,11,13,0.9,0.9
2025-08-22T0200,3511A,116.5652,37.3319,德州市,陵城艺术中心,,27,14,34,3,12,85,,,,11,14,14,16,0.6,0.7
2025-08-22T0200,4292A,116.3525,37.4209,德州市,新河东路,,22,12,31,7,18,68,,,,18,15,11,10,0.8,0.8
2025-08-22T0200,2621A,99.7056,27.8317,迪庆藏族自治州,迪庆州站,,12,10,16,8,13,17,,,,6,8,7,7,0.6,0.6
2025-08-22T0200,3180A,99.7136,27.8094,迪庆藏族自治州,质量技术监督局,,10,9,14,7,10,25,,,,6,9,9,8,0.4,0.5
2025-08-22T0200,4257A,104.6092,35.5962,定西市,将台街,,26,20,23,18,15,46,,,,21,14,8,7,0.5,0.5
2025-08-22T0200,4309A,104.6159,35.5701,定西市,正龙路62号,,26,26,26,16,18,36,,,,21,10,4,4,0.2,0.2
2025-08-22T0200,1389A,113.7547,23.0494,东莞市,莞城梨川,,10,10,18,3,8,20,,,,17,16,5,6,0.3,0.3
2025-08-22T0200,1390A,113.7944,23.0128,东莞市,东城石井,,20,20,23,3,9,6,,,,23,18,2,4,0.8,0.7
2025-08-22T0200,1391A,113.7383,22.9658,东莞市,南城西平,,27,27,22,10,10,6,,,,40,22,6,7,0.6,0.5
2025-08-22T0200,3319A,113.7338,23.0381,东莞市,万江金泰,,,,20,,9,,,48,,,19,,4,,0.5
2025-08-22T0200,3626A,113.7533,23.0202,东莞市,南城元岭,,19,19,21,8,10,13,,,,24,20,6,6,0.4,0.4
2025-08-22T0200,3627A,113.7875,23.0457,东莞市,东城主山,,19,19,25,8,9,14,,,,20,19,5,5,0.4,0.4
2025-08-22T0200,1666A,118.6614,37.4309,东营市,市环保局,,31,31,31,12,16,74,,,,22,18,8,8,0.3,0.3
2025-08-22T0200,3036A,118.6904,37.4338,东营市,开发区管委会,,35,35,37,19,15,74,,,,24,18,10,7,0.4,0.4
2025-08-22T0200,3365A,118.5719,37.565,东营市,垦利区民丰路,,27,27,38,17,20,83,,,,16,16,13,13,0.9,0.9
2025-08-22T0200,3498A,118.5055,37.8612,东营市,河口城区,,34,34,37,12,15,71,,,,21,18,6,8,1.0,0.8
2025-08-22T0200,3646A,118.4978,37.4623,东营市,胜利站,,26,26,40,14,17,73,,,,22,22,2,3,0.6,0.6
2025-08-22T0200,3734A,118.35,37.26,东营市,理想之城,,27,27,29,14,19,59,,,,14,17,2,5,0.4,0.5
2025-08-22T0200,1591A,110.0023,39.8129,鄂尔多斯市,综合楼,,24,24,30,9,7,63,,,,20,13,6,6,0.5,0.5
2025-08-22T0200,1592A,109.9486,39.8261,鄂尔多斯市,巴音孟克林场办事处,,28,24,31,9,8,88,,,,11,12,6,5,0.6,0.5
2025-08-22T0200,1593A,109.7736,39.5986,鄂尔多斯市,康泽苑,,24,24,28,9,6,23,,,,16,10,5,5,0.5,0.5
2025-08-22T0200,1594A,109.8119,39.5989,鄂尔多斯市,华泰汽车城,,31,31,30,14,10,3,,,,33,14,4,5,0.6,0.5
2025-08-22T0200,1595A,109.9734,39.7884,鄂尔多斯市,奥林花园,,34,34,36,7,8,35,,,,21,17,6,6,0.6,0.5
2025-08-22T0200,2436A,114.8938,30.3994,鄂州市,市政府,,19,18,19,3,3,59,,,,8,12,7,8,0.6,0.5
2025-08-22T0200,2437A,114.8989,30.3714,鄂州市,赵家坝,,17,15,28,3,4,52,,,,6,14,6,7,0.5,0.7
2025-08-22T0200,3654A,114.8094,30.4089,鄂州市,精准医疗中心,,19,19,22,6,7,56,,,,13,10,8,6,0.4,0.5
2025-08-22T0200,2454A,109.4978,30.2981,恩施土家族苗族自治州,湖北民院,,20,20,15,8,8,12,,,,10,7,5,5,0.5,0.5
2025-08-22T0200,2455A,109.4707,30.2798,恩施土家族苗族自治州,州电力总公司,,,26,14,6,10,,,,,10,9,4,4,0.3,0.1
2025-08-22T0200,3549A,109.5061,30.3772,恩施土家族苗族自治州,龙凤新区,,,21,15,11,11,,,,,5,6,4,4,0.4,0.4
2025-08-22T0200,2499A,108.3411,21.6158,防城港市,沙万,,48,48,31,15,13,9,,,,27,22,3,4,0.5,0.4
2025-08-22T0200,2500A,108.3514,21.7731,防城港市,防城档案局,颗粒物(PM10),53,55,27,16,14,5,,,,17,17,2,2,0.5,0.5
2025-08-22T0200,2501A,108.3506,21.6414,防城港市,大海花园,,28,28,25,9,10,18,,,,16,11,5,4,0.6,0.5
2025-08-22T0200,1371A,113.1294,23.0067,佛山市,湾梁,,35,,22,24,14,6,,,,34,26,8,6,0.6,0.5
2025-08-22T0200,1372A,113.1083,23.0478,佛山市,华材职中,,29,29,21,17,13,1,,,,34,16,4,3,0.7,0.6
2025-08-22T0200,1373A,113.144,23.0453,佛山市,南海气象局,,25,25,24,13,12,0,,,,36,20,4,4,0.6,0.4
2025-08-22T0200,1374A,113.2881,22.8094,佛山市,顺德苏岗,,37,37,24,7,8,9,,,,21,15,5,5,0.7,0.6
2025-08-22T0200,1376A,112.8383,22.8678,佛山市,高明孔堂,,11,10,16,6,8,16,,,,22,8,7,6,0.5,0.5
2025-08-22T0200,1377A,112.8836,23.1588,佛山市,三水监测站,,36,36,20,16,13,4,,,,33,21,6,6,0.6,0.5
2025-08-22T0200,1378A,112.867,23.185,佛山市,三水云东海,,38,38,28,19,12,0,,,,32,21,2,2,0.7,0.6
2025-08-22T0200,3625A,113.2544,22.7642,佛山市,容桂街道办,,20,17,14,14,11,19,,,,20,16,6,6,0.7,0.7
2025-08-22T0200,1280A,119.3903,26.0543,福州市,鼓山,,,,,,,,,,,,,,,,
2025-08-22T0200,1282A,119.2681,26.0504,福州市,师大,,16,16,20,3,5,23,,,,12,9,7,5,0.2,0.2
2025-08-22T0200,1283A,119.2984,26.1028,福州市,五四北路,,13,13,20,3,5,21,,,,17,13,4,4,0.2,0.2
2025-08-22T0200,1284A,119.2648,26.0768,福州市,杨桥西路,,16,16,18,3,4,24,,,,13,10,5,4,0.3,0.3
2025-08-22T0200,1285A,119.317,26.0746,福州市,紫阳,,11,11,26,3,6,29,,,,8,15,4,4,0.2,0.2
2025-08-22T0200,3048A,119.5799,26.0936,福州市,九龙,,12,12,16,3,6,28,,,,14,10,4,5,0.2,0.2
2025-08-22T0200,3526A,119.5189,25.9664,福州市,吴航,,14,14,22,6,11,16,,,,16,13,6,6,0.3,0.3
2025-08-22T0200,1755A,123.7977,41.8491,抚顺市,望花区,,30,25,33,18,14,96,,,,8,18,4,5,0.6,0.6
2025-08-22T0200,1756A,123.9161,41.8822,抚顺市,顺城区,,31,28,21,17,10,99,,,,7,14,4,4,0.6,0.7
2025-08-22T0200,1757A,124.0436,41.8611,抚顺市,东洲区,,27,,18,16,10,84,,,,5,8,6,5,0.6,0.6
2025-08-22T0200,1758A,123.9247,41.8642,抚顺市,新抚区,,31,24,21,13,11,98,,,,5,13,5,5,0.6,0.7
2025-08-22T0200,1759A,124.0972,41.8961,抚顺市,大伙房水库,,28,22,13,10,9,87,,,,5,7,7,7,0.6,0.6
2025-08-22T0200,1760A,123.7086,41.8391,抚顺市,沈抚新城,,27,16,30,13,13,85,,,,12,21,5,7,1.0,1.2
2025-08-22T0200,2376A,116.2127,28.0814,抚州市,桐源党溪,,24,24,20,10,8,23,,,,3,4,5,4,0.8,0.7
2025-08-22T0200,2377A,116.3544,27.9831,抚州市,市站,,15,15,16,3,5,29,,,,8,4,2,1,0.6,0.5
2025-08-22T0200,2378A,116.3565,27.963,抚州市,血防站,,15,15,18,3,6,22,,,,11,7,3,10,0.4,0.3
2025-08-22T0200,2379A,116.3564,28.0007,抚州市,采茶剧团,,19,19,20,3,7,24,,,,7,3,8,4,0.6,0.5
2025-08-22T0200,2380A,116.385,27.9647,抚州市,医学分院,,15,15,20,3,4,25,,,,4,7,15,6,0.3,0.4
2025-08-22T0200,2207A,121.6094,41.998,阜新市,工业园区,,34,34,45,3,25,105,,,,6,16,4,7,0.5,0.7
2025-08-22T0200,2208A,121.6697,42.0279,阜新市,长青街,,32,,37,13,25,102,,,,3,11,4,7,0.6,0.7
2025-08-22T0200,2209A,121.6673,42.0705,阜新市,农业园区,,46,46,55,3,21,108,,,,4,10,2,7,0.6,0.7
2025-08-22T0200,2210A,121.6717,42.0224,阜新市,东苑,,43,35,44,30,25,106,,,,5,13,6,11,0.5,0.6
2025-08-22T0200,2211A,121.6506,42.0498,阜新市,玉龙新城,,35,35,49,7,22,94,,,,3,12,5,10,0.6,0.8
2025-08-22T0200,2301A,115.8277,32.8929,阜阳市,市监测站,,25,19,26,14,14,80,,,,9,11,4,4,0.1,0.1
2025-08-22T0200,2303A,115.8554,32.8605,阜阳市,开发区,,,33,24,6,12,,,,,10,10,5,6,0.3,0.3
2025-08-22T0200,2875A,115.784,32.8892,阜阳市,阜阳职业技术学院,,26,26,21,7,8,74,,,,11,8,5,4,0.3,0.3
2025-08-22T0200,3468A,115.7901,32.8613,阜阳市,市规划展馆,,23,23,28,13,14,54,,,,12,10,2,3,0.4,0.4
2025-08-22T0200,3469A,115.836,32.9183,阜阳市,枣园社区,,24,24,28,7,14,64,,,,13,12,2,2,0.5,0.4
2025-08-22T0200,2669A,102.9099,34.9841,甘南藏族自治州,州政府,,18,,10,12,10,36,,,,11,7,4,4,0.2,0.3
2025-08-22T0200,3380A,102.8914,34.9617,甘南藏族自治州,甘肃民族师范学院,,16,16,10,3,6,33,,,,11,20,4,4,0.1,0.3
2025-08-22T0200,2570A,101.9603,30.0475,甘孜藏族自治州,水桥子,,18,,6,3,6,55,,,,14,11,6,6,0.2,0.3
2025-08-22T0200,3065A,101.9533,29.9972,甘孜藏族自治州,州环保局,,20,9,11,8,5,63,,,,15,11,4,4,0.8,0.8
2025-08-22T0200,3414A,115.8347,28.932,赣江新区,桑海产业园,,22,22,20,12,6,26,,,,21,11,5,6,0.4,0.3
2025-08-22T0200,2362A,114.9017,25.9149,赣州市,通天岩,,23,,19,16,16,44,,,,4,5,18,17,1.5,1.6
2025-08-22T0200,2363A,114.9367,25.8664,赣州市,地委,,19,19,21,8,9,52,,,,8,9,6,6,0.7,0.7
2025-08-22T0200,2364A,114.9461,25.8481,赣州市,气象台,,18,18,20,6,7,44,,,,5,6,10,10,0.6,0.6
2025-08-22T0200,2365A,114.9322,25.8333,赣州市,市图书馆,,13,10,16,3,9,40,,,,8,8,5,5,0.5,0.5
2025-08-22T0200,2366A,114.8905,25.8471,赣州市,华坚鞋城,,16,16,23,6,10,39,,,,12,11,5,5,0.4,0.5
2025-08-22T0200,3109A,115.0093,25.8613,赣州市,赣县区卫计委,,12,,17,8,11,33,,,,8,7,6,6,0.3,0.3
2025-08-22T0200,2683A,106.2319,36.1417,固原市,马园,,,,,,,,,,,,,,,,
2025-08-22T0200,2684A,106.2792,36.0022,固原市,监测站,,19,19,16,6,11,56,,,,12,10,6,7,0.3,0.3
2025-08-22T0200,2685A,106.2375,36.0211,固原市,新区,,23,,19,16,9,57,,,,11,10,8,8,0.2,0.3
2025-08-22T0200,3522A,106.2177,35.9959,固原市,原州区十五小,,24,24,23,13,9,56,,,,11,9,8,9,0.3,0.3
2025-08-22T0200,2543A,106.6308,30.5278,广安市,小平旧居,,,,,,,,,,,,,,,,
2025-08-22T0200,2544A,106.6303,30.4576,广安市,市委,细颗粒物(PM2.5),82,70,30,60,21,54,,,,12,11,1,2,0.5,0.3
2025-08-22T0200,2545A,106.6271,30.4663,广安市,友谊中学,细颗粒物(PM2.5),68,63,28,49,21,63,,,,12,12,6,5,0.8,0.7
2025-08-22T0200,2547A,106.6388,30.4551,广安市,广电花园,细颗粒物(PM2.5),62,68,38,44,20,52,,,,11,11,4,4,0.5,0.3
2025-08-22T0200,2902A,106.6351,30.4865,广安市,北辰小学,细颗粒物(PM2.5),68,59,35,49,23,60,,,,9,9,9,9,0.6,0.5
2025-08-22T0200,2523A,105.8945,32.4535,广元市,黑石坡,,17,17,19,8,12,46,,,,2,6,1,2,0.2,0.3
2025-08-22T0200,2524A,105.821,32.4444,广元市,老城,,20,12,14,6,7,62,,,,13,13,3,3,0.5,0.6
2025-08-22T0200,2526A,105.8628,32.4287,广元市,监测站,,20,9,13,8,9,64,,,,7,9,6,6,0.6,0.7
2025-08-22T0200,3617A,105.8047,32.4166,广元市,经开区,,31,31,20,13,10,44,,,,18,12,31,7,0.9,0.6
2025-08-22T0200,1345A,113.2347,23.1423,广州市,广雅中学,,26,26,24,13,11,0,,,,39,24,2,2,0.6,0.5
2025-08-22T0200,1346A,113.2612,23.105,广州市,市五中,,32,32,28,18,13,0,,,,44,25,5,4,0.5,0.3
2025-08-22T0200,1348A,113.3478,23.0916,广州市,广东商学院,,21,19,13,3,10,16,,,,42,25,4,4,1.2,0.8
2025-08-22T0200,1349A,113.4332,23.1047,广州市,市八十六中,,26,26,19,15,10,1,,,,41,30,4,3,0.5,0.4
2025-08-22T0200,1350A,113.3505,22.9483,广州市,番禺中学,,19,19,22,3,9,9,,,,28,16,5,6,0.5,0.5
2025-08-22T0200,1351A,113.2146,23.3916,广州市,花都师范,,14,14,23,8,14,14,,,,24,25,4,4,0.6,0.6
2025-08-22T0200,1352A,113.2597,23.1331,广州市,市监测站,,34,34,24,19,11,1,,,,39,23,6,5,0.6,0.4
2025-08-22T0200,1353A,113.5618,23.312,广州市,九龙镇镇龙,,11,11,26,3,12,18,,,,10,19,6,7,0.4,0.5
2025-08-22T0200,1354A,113.2765,23.1544,广州市,麓湖,,33,33,22,18,12,1,,,,34,21,1,1,0.4,0.2
2025-08-22T0200,1355A,113.443,23.3035,广州市,帽峰山森林公园,,12,9,15,8,7,9,,,,11,13,7,7,0.4,0.5
2025-08-22T0200,2846A,113.3221,23.1322,广州市,体育西,,35,35,27,13,11,0,,,,43,24,3,3,0.6,0.5
2025-08-22T0200,3298A,113.5717,23.5491,广州市,从化街口,,14,14,26,3,13,19,,,,14,14,6,7,0.5,0.6
2025-08-22T0200,3299A,113.3472,23.3692,广州市,白云竹料,,12,12,26,7,11,12,,,,20,19,3,4,0.5,0.5
2025-08-22T0200,3300A,113.2981,23.237,广州市,白云嘉禾,,17,17,25,7,11,0,,,,33,24,5,5,0.5,0.4
2025-08-22T0200,3301A,113.4256,23.1716,广州市,黄埔科学城,,,24,23,9,10,0,,,,26,19,4,9,,0.5
2025-08-22T0200,3302A,113.3942,23.0483,广州市,番禺大学城,,33,33,22,18,11,1,,,,41,23,9,8,0.5,0.3
2025-08-22T0200,3303A,113.4922,22.8168,广州市,南沙黄阁,,23,23,20,3,7,19,,,,27,13,3,3,0.5,0.2
2025-08-22T0200,3304A,113.5342,22.7896,广州市,南沙街,,16,16,18,3,7,21,,,,20,13,4,4,0.4,0.4
2025-08-22T0200,3443A,113.2902,23.5544,广州市,花都梯面,,16,16,21,6,9,10,,,,24,18,8,6,0.4,0.5
2025-08-22T0200,3445A,113.7858,23.7478,广州市,从化良口,,10,10,21,3,10,16,,,,7,10,4,4,0.4,0.5
2025-08-22T0200,3446A,113.8051,23.2614,广州市,增城荔城,,10,10,24,3,12,28,,,,8,14,7,8,0.3,0.4
2025-08-22T0200,2505A,109.568,23.1478,贵港市,德智高中,,,,,,,,,,,,,,,,
2025-08-22T0200,2506A,109.6047,23.0666,贵港市,江南子站,颗粒物(PM10),53,56,40,24,20,10,,,,18,16,7,6,0.7,0.6
2025-08-22T0200,2508A,109.5669,23.1065,贵港市,荷城子站,,9,9,21,3,8,23,,,,9,13,2,5,0.5,0.6
2025-08-22T0200,3405A,109.5886,23.1172,贵港市,新世纪学校,,15,,23,10,13,24,,,,15,16,1,1,0.5,0.6
2025-08-22T0200,4260A,109.5933,23.0951,贵港市,中山路155-3号,,20,16,30,14,17,20,,,,14,13,4,6,0.5,0.6
2025-08-22T0200,1439A,106.6899,26.5998,贵阳市,马鞍山,,,7,11,,0,50,,,,3,5,3,3,0.2,0.2
2025-08-22T0200,1441A,106.6243,26.6266,贵阳市,鉴湖路,,17,17,21,3,3,42,,,,3,5,3,3,0.1,0.2
2025-08-22T0200,1442A,106.7487,26.6343,贵阳市,燕子冲,,14,6,7,3,10,44,,,,6,9,2,3,0.3,0.4
2025-08-22T0200,1443A,106.6555,26.4365,贵阳市,碧云窝,,16,12,19,3,3,49,,,,9,10,3,5,0.1,0.2
2025-08-22T0200,1445A,106.7109,26.6027,贵阳市,红边门,,14,9,15,7,7,42,,,,8,13,8,7,0.3,0.3
2025-08-22T0200,1446A,106.7164,26.5699,贵阳市,新华路,,12,,11,7,11,37,,,,10,13,2,3,0.3,0.3
2025-08-22T0200,1447A,106.674,26.5424,贵阳市,太慈桥,,15,6,11,3,4,45,,,,4,8,5,6,0,0
2025-08-22T0200,1552A,106.805,26.3003,贵阳市,桐木岭,,18,17,23,7,11,56,,,,5,5,3,4,0.9,0.9
2025-08-22T0200,4230A,106.6882,26.5695,贵阳市,花果园大街66号,,15,,3,3,8,45,,,,3,7,3,3,0.4,0.4
2025-08-22T0200,4231A,106.6873,26.5169,贵阳市,漓江路57号,,16,7,10,3,4,49,,,,4,6,3,4,0.3,0.4
2025-08-22T0200,1862A,110.4144,25.3167,桂林市,电子科大尧山校区,,,,,,,,,,,,,,,,
2025-08-22T0200,1864A,110.3089,25.2708,桂林市,龙隐路小学,,32,32,22,11,8,6,,,,18,11,6,5,0.4,0.3
2025-08-22T0200,1865A,110.2869,25.2178,桂林市,八中,,28,28,22,12,9,8,,,,20,17,6,6,0.5,0.6
2025-08-22T0200,3531A,110.296,25.1253,桂林市,旅游学院,,17,17,17,7,7,3,,,,18,13,3,4,0.5,0.4
2025-08-22T0200,4222A,110.1835,25.2444,桂林市,环湖路276号,,24,24,24,12,12,12,,,,16,12,10,11,0.4,0.3
2025-08-22T0200,4301A,110.2803,25.2773,桂林市,信义路13号,,32,32,21,8,9,9,,,,19,15,4,4,0.7,0.6
2025-08-22T0200,2674A,100.2561,34.4714,果洛藏族自治州,玛沁县大武镇,,16,16,10,11,10,44,,,,3,2,14,15,0.3,0.3
2025-08-22T0200,1129A,126.5422,45.755,哈尔滨市,岭北,,20,12,20,8,10,64,,,,16,22,9,10,0.7,0.9
2025-08-22T0200,1130A,126.561,45.8167,哈尔滨市,松北商大,,,,30,,8,,,36,,,21,,6,,0.4
2025-08-22T0200,1131A,126.979,45.5419,哈尔滨市,阿城会宁,,18,18,28,6,8,35,,,,7,16,7,7,0.5,0.5
2025-08-22T0200,1132A,126.599,45.7222,哈尔滨市,南岗学府路,,16,16,28,3,6,35,,,,14,20,6,6,0.5,0.6
2025-08-22T0200,1133A,126.689,45.7733,哈尔滨市,太平宏伟公园,,18,18,37,9,10,24,,,,19,23,7,8,0.7,0.6
2025-08-22T0200,1134A,126.635,45.7667,哈尔滨市,道外承德广场,,25,25,35,6,9,21,,,,17,23,6,7,0.7,0.6
2025-08-22T0200,1135A,126.685,45.7319,哈尔滨市,香坊红旗大街,,12,,26,6,11,36,,,,12,21,6,7,0.4,0.5
2025-08-22T0200,1136A,126.6411,45.7258,哈尔滨市,动力和平路,,,13,24,,7,38,,,,11,18,4,6,0.5,0.5
2025-08-22T0200,1137A,126.593,45.7478,哈尔滨市,道里建国路,,14,10,24,7,9,43,,,,11,21,9,10,0.4,0.7
2025-08-22T0200,1138A,126.615,45.61,哈尔滨市,平房东轻厂,,14,11,30,7,10,42,,,,10,23,7,7,0.4,0.5
2025-08-22T0200,1139A,126.595,45.9855,哈尔滨市,呼兰师专,,,,27,,7,,,41,,,20,,8,,0.4
2025-08-22T0200,1140A,126.6206,45.6842,哈尔滨市,省农科院,,10,9,31,3,9,31,,,,13,24,8,9,0.6,0.6
2025-08-22T0200,2688A,93.5128,42.8172,哈密市,地区监测站,细颗粒物(PM2.5),212,,126,162,42,114,,,,4,15,8,6,0.3,0.1
2025-08-22T0200,2689A,93.4961,42.8328,哈密市,哈密师范学校,颗粒物(PM10),61,71,101,39,24,114,,,,5,19,4,5,0.0,0.2
2025-08-22T0200,2671A,100.9048,36.9639,海北藏族自治州,海晏县西海镇,,25,16,18,15,17,77,,,,4,4,7,7,0.5,0.6
2025-08-22T0200,3867A,102.0738,36.5056,海东市,平安区公安北苑,,20,20,20,7,11,37,,,,3,6,6,10,0.4,0.7
2025-08-22T0200,1409A,110.576,19.9507,海口市,东寨港,,15,15,14,9,8,14,,,,4,3,7,8,0.4,0.4
2025-08-22T0200,1410A,110.3232,20.0574,海口市,海南大学,,15,15,17,8,9,36,,,,4,3,3,3,0.3,0.3
2025-08-22T0200,1411A,110.283,20.0053,海口市,秀英海南医院,,20,20,20,7,10,15,,,,17,9,5,6,0.3,0.3
2025-08-22T0200,1412A,110.338,19.9969,海口市,海南师范大学,,20,20,20,8,10,27,,,,5,5,4,4,0.4,0.4
2025-08-22T0200,1413A,110.33,20.0356,海口市,龙华路环保局宿舍,,18,14,21,12,12,33,,,,4,5,6,6,0.3,0.3
2025-08-22T0200,3539A,110.5111,19.9736,海口市,桂林洋子站,,,27,18,17,10,17,,,,,8,3,3,0.3,0.2
2025-08-22T0200,2673A,100.6188,36.2866,海南藏族自治州,共和县恰卜恰镇,,24,24,18,12,5,70,,,,6,6,11,13,0.7,0.5
2025-08-22T0200,2676A,97.3731,37.3753,海西蒙古族藏族自治州,德令哈市,,40,20,23,10,13,126,,,,1,4,11,12,0.4,0.5
2025-08-22T0200,1048A,114.5302,36.6116,邯郸市,东污水处理厂,,34,34,34,23,22,12,,,,34,13,16,8,1.6,0.9
2025-08-22T0200,1049A,114.4918,36.5713,邯郸市,矿院,,23,23,24,12,9,16,,,,36,14,8,5,1.0,0.7
2025-08-22T0200,1050A,114.484,36.6133,邯郸市,丛台公园,,31,31,25,19,18,24,,,,34,14,9,8,1.3,0.9
2025-08-22T0200,3458A,114.7895,36.5593,邯郸市,香泉濮院小区,,17,17,28,7,4,23,,,,30,11,5,3,0.9,1
2025-08-22T0200,3579A,114.50634,36.77178,邯郸市,永年区实验高中,,44,44,32,20,19,13,,,,39,15,6,5,1.6,1.1
2025-08-22T0200,3580A,114.20016,36.44293,邯郸市,峰峰矿区临水派出所,,,34,31,,8,44,,,,18,8,8,5,0.7,0.4
2025-08-22T0200,2634A,106.9893,33.1842,汉中市,汉川机床厂子校,,16,14,20,3,7,50,,,,9,8,4,4,0.6,0.6
2025-08-22T0200,2635A,107.0154,33.0706,汉中市,市监测站,,20,20,24,3,11,36,,,,10,10,6,11,0.5,0.8
2025-08-22T0200,2636A,107.0089,33.1138,汉中市,鑫源开发区,,15,11,22,10,9,47,,,,12,10,8,10,0.6,0.7
2025-08-22T0200,2637A,107.007,33.0323,汉中市,南郑大河坎水厂,,17,17,21,9,10,19,,,,8,10,4,4,0.4,0.5
2025-08-22T0200,1223A,120.2072,30.2111,杭州市,滨江,,21,21,34,13,18,66,,,,19,18,6,7,0.7,0.6
2025-08-22T0200,1224A,120.0633,30.2747,杭州市,西溪,,22,22,29,13,22,59,,,,14,14,10,9,0.4,0.4
2025-08-22T0200,1226A,120.3417,30.3150,杭州市,下沙,,26,26,33,14,19,81,,,,13,16,6,7,0.3,0.3
2025-08-22T0200,1227A,120.1269,30.2456,杭州市,卧龙桥,,24,24,32,12,22,41,,,,12,11,7,8,0.5,0.5
2025-08-22T0200,1228A,120.1903,30.2692,杭州市,浙江农大,,31,31,60,12,20,73,,,,11,15,4,4,0.6,0.6
2025-08-22T0200,1230A,120.1197,30.3119,杭州市,和睦小学,,21,18,31,14,20,65,,,,15,13,6,6,0.4,0.4
2025-08-22T0200,1231A,120.3019,30.4183,杭州市,临平镇,,23,23,41,16,22,73,,,,12,15,6,6,0.3,0.4
2025-08-22T0200,1232A,120.2753,30.1839,杭州市,城厢镇,颗粒物(PM10),53,56,52,18,23,51,,,,21,15,8,8,0.6,0.6
2025-08-22T0200,1233A,120.0883,30.1808,杭州市,云栖,,,23,32,11,18,,,,,24,20,9,10,0.6,0.6
2025-08-22T0200,3557A,119.9464,30.0494,杭州市,镇二中,,18,8,28,8,20,57,,,,15,17,4,5,0.6,0.5
2025-08-22T0200,3558A,119.7183,30.2367,杭州市,市府大楼,,16,,24,11,16,48,,,,13,11,8,8,0.3,0.3
2025-08-22T0200,3656A,120.1556,30.2864,杭州市,消防大队,,27,27,31,14,20,67,,,,15,11,6,6,0.7,0.7
2025-08-22T0200,1270A,117.1959,31.7848,合肥市,明珠广场,,20,19,23,14,10,43,,,,19,13,7,7,0.5,0.5
2025-08-22T0200,1271A,117.3072,31.8764,合肥市,三里街,,19,19,22,9,10,52,,,,11,12,6,6,0.4,0.5
2025-08-22T0200,1272A,117.2588,31.8707,合肥市,琥珀山庄,,20,19,23,12,16,64,,,,12,9,7,7,0.4,0.4
2025-08-22T0200,1273A,117.1604,31.9052,合肥市,董铺水库,,22,22,21,9,9,47,,,,8,6,5,5,0.3,0.3
2025-08-22T0200,1274A,117.25,31.8571,合肥市,长江中路,,18,17,23,9,8,56,,,,10,10,7,7,0.4,0.4
2025-08-22T0200,1275A,117.266,31.9436,合肥市,庐阳区,,22,22,24,9,9,55,,,,14,10,6,6,0.4,0.3
2025-08-22T0200,1276A,117.3453,31.8616,合肥市,瑶海区,,19,19,26,10,9,48,,,,15,15,7,6,0.5,0.5
2025-08-22T0200,1277A,117.3027,31.7964,合肥市,包河区,,,14,20,9,10,,,,,8,6,10,8,0.5,0.5
2025-08-22T0200,1278A,117.2776,31.7385,合肥市,滨湖新区,,19,14,21,7,14,58,,,,6,7,4,8,0.4,0.4
2025-08-22T0200,1279A,117.1318,31.8403,合肥市,高新区,,20,17,21,9,10,62,,,,11,11,7,6,0.4,0.4
2025-08-22T0200,3464A,117.3803,31.9147,合肥市,高教基地,,17,14,18,10,12,53,,,,9,8,6,6,0.3,0.6
2025-08-22T0200,3614A,79.924,37.0877,和田地区,地区环保局,颗粒物(PM10),150,249,170,67,35,54,,,,12,7,1,2,0.2,0.7
2025-08-22T0200,3615A,79.9131,37.113,和田地区,市环保局,颗粒物(PM10),126,201,160,46,32,30,,,,40,21,3,2,0.7,0.3
2025-08-22T0200,2516A,108.2011,24.715,河池市,东仁乐园,,,,,,,,,,,,,,,,
2025-08-22T0200,2517A,108.0497,24.6947,河池市,市环保站,,14,14,22,7,8,29,,,,7,7,5,6,0.5,0.5
2025-08-22T0200,2518A,108.0983,24.6989,河池市,市疾控中心,,18,18,20,9,9,25,,,,10,11,6,7,0.6,0.6
2025-08-22T0200,1696A,114.6778,23.7569,河源市,源西,,14,14,21,7,12,35,,,,14,9,5,6,0.6,0.7
2025-08-22T0200,1697A,114.6944,23.7586,河源市,东埔,,21,21,22,10,11,35,,,,20,11,4,5,0.4,0.4
2025-08-22T0200,1698A,114.6892,23.7233,河源市,老城,,28,28,26,3,9,28,,,,15,10,7,5,0.5,0.5
2025-08-22T0200,1718A,115.4208,35.2464,菏泽市,气象局,,,28,32,16,15,,,,,18,11,4,4,0.3,0.3
2025-08-22T0200,3374A,115.5564,35.0891,菏泽市,定陶老年大学,,,29,27,3,8,,,,,12,9,5,5,0.3,0.3
2025-08-22T0200,4184A,115.4797,35.24401,菏泽市,永昌路1号,,23,20,28,9,15,72,,,,11,10,8,7,0.2,0.3
2025-08-22T0200,4193A,115.4715,35.2800,菏泽市,长城路999号,,26,19,24,6,8,81,,,,9,7,6,8,0.5,0.5
2025-08-22T0200,2514A,111.5264,24.4172,贺州市,环保小区,,16,16,19,8,9,9,,,,16,9,12,12,0.5,0.8
2025-08-22T0200,2515A,111.5608,24.4078,贺州市,政协大楼,,25,25,16,8,9,10,,,,14,8,7,8,0.7,0.7
2025-08-22T0200,3534A,111.4744,24.4553,贺州市,西湾,,22,22,20,6,8,6,,,,11,10,7,8,0.4,0.4
2025-08-22T0200,2385A,114.17,35.9019,鹤壁市,市监测站,,33,,26,23,22,33,,,,14,10,5,5,0.4,0.3
2025-08-22T0200,2386A,114.2956,35.7511,鹤壁市,市交警支队,,35,35,28,17,23,47,,,,20,12,6,6,0.5,0.7
2025-08-22T0200,2387A,114.2878,35.7306,鹤壁市,迎宾馆,,40,40,38,17,22,48,,,,19,10,3,6,0.6,0.8
2025-08-22T0200,3474A,114.2617,35.6822,鹤壁市,大新区,,25,25,36,11,13,35,,,,20,9,6,6,0.6,0.7
2025-08-22T0200,3596A,114.1572,35.9603,鹤壁市,南山宾馆,,16,16,31,8,15,51,,,,15,11,4,4,0.7,0.9
2025-08-22T0200,2244A,130.2537,47.3416,鹤岗市,哈啤分公司,,13,13,19,3,8,34,,,,5,6,11,12,0.4,0.4
2025-08-22T0200,2245A,130.2684,47.3086,鹤岗市,斯达机电,,27,27,21,12,12,36,,,,13,9,12,12,0.4,0.4
2025-08-22T0200,2246A,130.3114,47.3388,鹤岗市,东山纸板厂,,40,40,39,9,16,20,,,,16,15,13,12,0.6,0.5
2025-08-22T0200,2247A,130.1097,47.3382,鹤岗市,五号水库,,8,6,6,3,4,18,,,,9,8,6,6,0.4,0.4
2025-08-22T0200,2263A,127.4833,50.2524,黑河市,交通局,,28,28,30,7,9,14,,,,8,14,5,6,0.5,0.4
2025-08-22T0200,2264A,127.5144,50.2341,黑河市,环保局,,32,32,35,13,12,17,,,,13,18,1,4,0.6,0.4
2025-08-22T0200,2265A,127.5291,50.2472,黑河市,大黑河岛,,,,,13,13,19,,,,2,4,22,22,0.4,0.3
2025-08-22T0200,1074A,115.6838,37.7541,衡水市,电机北厂,,19,14,27,3,17,59,,,,10,9,5,2,0.4,0.5
2025-08-22T0200,1075A,115.6303,37.7316,衡水市,市监测站,,17,17,34,10,14,54,,,,6,6,5,4,0.6,0.6
2025-08-22T0200,3188A,115.6683,37.7217,衡水市,市城管局,,22,,32,15,17,52,,,,6,6,7,5,0.4,0.3
2025-08-22T0200,3459A,115.5989,37.5491,衡水市,地表水厂,,22,22,32,3,7,43,,,,4,9,7,8,0.2,0.2
2025-08-22T0200,2456A,112.5003,26.9167,衡阳市,原169医院,,15,15,17,3,7,27,,,,2,4,1,5,0.5,0.5
2025-08-22T0200,2457A,112.6194,26.9258,衡阳市,衡阳化工总厂,,,22,17,9,9,14,,,,16,7,,6,1.3,0.8
2025-08-22T0200,2458A,112.6211,26.8956,衡阳市,珠晖区环保局,,15,15,17,9,9,21,,,,16,8,27,11,1.3,0.6
2025-08-22T0200,2459A,112.6197,26.8733,衡阳市,市委党校,,8,8,12,3,8,20,,,,15,8,19,12,0.6,0.5
2025-08-22T0200,2460A,112.6006,26.8919,衡阳市,市监测站,,23,14,17,8,8,13,,,,22,10,20,8,2.3,0.7
2025-08-22T0200,2461A,112.5664,26.9056,衡阳市,真空机电公司,,13,12,18,9,10,20,,,,9,7,3,9,0.6,0.8
2025-08-22T0200,3399A,112.6703,26.882,衡阳市,师范学院,,16,16,22,9,8,20,,,,11,9,10,9,0.9,0.8
2025-08-22T0200,2608A,103.3772,23.3993,红河哈尼族彝族自治州,污水处理厂,,19,,13,13,14,52,,,,4,5,7,7,0.3,0.3
2025-08-22T0200,2609A,103.3861,23.35,红河哈尼族彝族自治州,监测站,,25,25,24,3,9,53,,,,2,3,8,10,0.1,0.1
2025-08-22T0200,3038A,103.3758,23.368,红河哈尼族彝族自治州,州图书馆,,28,,9,19,17,54,,,,3,4,2,1,0.3,0.3
2025-08-22T0200,1090A,111.6507,40.7517,呼和浩特市,呼市一监,,36,36,30,17,15,22,,,,25,10,2,3,0.5,0.5
2025-08-22T0200,1091A,111.6572,40.8033,呼和浩特市,小召,,39,39,40,24,22,18,,,,38,20,8,9,0.9,0.8
2025-08-22T0200,1094A,111.7516,40.8369,呼和浩特市,如意水处理厂,颗粒物(PM10),60,69,37,34,18,19,,,,20,16,5,5,0.5,0.5
2025-08-22T0200,1095A,111.7276,40.8062,呼和浩特市,二十九中,,45,45,40,22,19,16,,,,38,12,6,7,0.8,0.7
2025-08-22T0200,1096A,111.5512,40.7866,呼和浩特市,工大金川校区,,41,41,42,19,17,5,,,,34,20,5,5,0.4,0.4
2025-08-22T0200,1097A,111.717,40.7612,呼和浩特市,化肥厂生活区,,40,40,34,18,15,38,,,,18,14,5,6,0.5,0.5
2025-08-22T0200,3698A,111.5968,40.8178,呼和浩特市,红旗小学,,41,41,42,19,19,10,,,,34,23,4,4,0.3,0.4
2025-08-22T0200,3699A,111.6518,40.8389,呼和浩特市,海东办,,46,46,45,20,20,5,,,,37,18,5,6,0.5,0.5
2025-08-22T0200,2192A,119.7594,49.2261,呼伦贝尔市,区环保局,,21,16,20,11,12,67,,,,5,8,5,5,0.4,0.6
2025-08-22T0200,3061A,119.7512,49.1577,呼伦贝尔市,国华电力东,,23,19,15,9,7,73,,,,2,3,7,8,0.6,0.6
2025-08-22T0200,1250A,120.0751,30.8669,湖州市,城西水厂,,25,19,40,13,27,79,,,,23,23,6,7,0.4,0.5
2025-08-22T0200,2873A,120.0830,30.8929,湖州市,仁皇山新区,,22,19,42,14,27,69,,,,17,16,5,4,0.3,0.5
2025-08-22T0200,2907A,120.1844,30.8596,湖州市,吴兴区站,,25,25,42,8,29,69,,,,14,16,7,7,0.5,0.7
2025-08-22T0200,3562A,120.4148,30.8538,湖州市,南浔区站,,31,31,42,19,32,64,,,,14,13,6,6,0.6,0.7
2025-08-22T0200,1607A,120.9049,40.7211,葫芦岛市,龙港区,,,,79,6,33,88,,,,5,14,3,4,0.4,0.5
2025-08-22T0200,1608A,120.8392,40.7514,葫芦岛市,化工街,,24,6,27,3,17,76,,,,11,18,6,9,0.5,0.5
2025-08-22T0200,1609A,120.8341,40.7073,葫芦岛市,新区,,,,43,3,33,80,,,,4,12,2,2,0.5,0.6
2025-08-22T0200,1610A,120.8695,40.7677,葫芦岛市,东城区,,30,6,30,3,32,93,,,,8,20,3,5,0.6,0.7
2025-08-22T0200,2482A,109.5981,27.5721,怀化市,林科所,,15,15,15,3,3,29,,,,4,4,4,4,0.7,0.5
2025-08-22T0200,2483A,109.9453,27.5444,怀化市,河西地税局,,12,,12,3,8,37,,,,4,4,2,3,0,0.1
2025-08-22T0200,2484A,109.9781,27.5342,怀化市,市四医院,,15,15,20,3,7,29,,,,6,5,5,4,0.5,0.5
2025-08-22T0200,2485A,109.9972,27.5578,怀化市,监测楼,,12,10,15,6,7,37,,,,6,6,5,4,0.3,0.3
2025-08-22T0200,2486A,110.0394,27.583,怀化市,市委党校,,11,11,15,3,8,25,,,,6,5,7,7,0.2,0.2
2025-08-22T0200,1210A,119.036,33.5981,淮安市,钵池山,,36,29,36,25,25,89,,,,10,11,4,4,0.7,0.8
2025-08-22T0200,1211A,119.007,33.575,淮安市,北京南路,,34,34,42,23,26,85,,,,11,14,8,8,0.6,0.8
2025-08-22T0200,1212A,118.989,33.6067,淮安市,市监测站,,41,41,45,27,31,97,,,,9,12,10,10,0.6,0.7
2025-08-22T0200,1213A,119.135,33.5039,淮安市,楚州区监测站,,34,34,57,23,26,63,,,,17,20,7,8,0.5,0.7
2025-08-22T0200,3426A,118.8755,33.2894,淮安市,新华书店,,46,37,39,32,28,107,,,,18,17,6,6,0.6,0.5
2025-08-22T0200,4206A,119.0288,33.6319,淮安市,承德北路606号,,44,44,49,26,29,87,,,,13,14,7,7,0.5,0.5
2025-08-22T0200,2282A,116.8004,33.975,淮北市,监测站,,31,31,33,17,20,80,,,,6,6,7,8,0.6,0.6
2025-08-22T0200,2283A,116.8091,33.9007,淮北市,烈山区政府,,47,47,40,14,11,51,,,,22,13,9,9,0.5,0.5
2025-08-22T0200,3330A,116.8873,33.9836,淮北市,杜集区检察院,,42,42,35,23,19,65,,,,14,11,8,9,0.7,0.6
2025-08-22T0200,4017A,116.7923,33.9535,淮北市,市博物馆,,,,31,,16,,,111,,,11,,10,,0.5
2025-08-22T0200,2277A,116.8305,32.7727,淮南市,潘集区政府,,25,25,23,7,9,48,,,,14,10,3,4,0.2,0.2
2025-08-22T0200,2279A,116.8569,32.5951,淮南市,谢家集区政府,,30,30,27,16,10,48,,,,12,10,6,6,0.1,0.1
2025-08-22T0200,2280A,116.8281,32.633,淮南市,八公山区政府,,28,28,22,12,9,50,,,,10,8,3,5,0.3,0.3
2025-08-22T0200,2281A,116.6325,32.6201,淮南市,焦岗湖风景区管理处,,,,,,,,,,,,,,,,
2025-08-22T0200,2894A,117.0566,32.6531,淮南市,经济技术开发区消防队,,35,35,21,8,5,53,,,,18,11,9,8,0.2,0.2
2025-08-22T0200,3329A,117.0108,32.5893,淮南市,山南新区,,26,26,17,7,4,52,,,,14,10,5,5,0.5,0.4
2025-08-22T0200,4209A,117.0031,32.6445,淮南市,国庆中路369号,,28,28,21,14,16,58,,,,10,6,4,4,0.4,0.4
2025-08-22T0200,2446A,114.9028,30.4742,黄冈市,职工中心,,19,11,16,6,11,60,,,,7,12,8,10,0.4,0.5
2025-08-22T0200,2929A,114.8858,30.4519,黄冈市,红卫路,,19,14,18,12,13,58,,,,12,14,9,12,0.4,0.4
2025-08-22T0200,3398A,114.9136,30.4445,黄冈市,市林业局,,18,18,24,9,10,54,,,,14,15,7,10,0.4,0.4
2025-08-22T0200,2672A,102.0199,35.5102,黄南藏族自治州,同仁县隆务镇,,22,13,14,7,4,69,,,,2,5,9,9,0.2,0.3
2025-08-22T0200,2295A,118.2903,29.6963,黄山市,延安路89号,,15,15,21,9,8,22,,,,11,6,3,4,0.3,0.3
2025-08-22T0200,2297A,118.1371,30.2756,黄山市,黄山区政府5号楼,,18,18,18,3,9,15,,,,5,4,4,4,0.5,0.4
2025-08-22T0200,4210A,118.3354,29.7203,黄山市,滨江东路7-2号,,10,10,19,3,7,27,,,,5,6,2,2,0.3,0.3
2025-08-22T0200,2423A,115.0601,30.2313,黄石市,沈家营,,49,49,36,8,7,8,,,,38,19,7,7,0.4,0.4
2025-08-22T0200,2426A,114.8988,30.2019,黄石市,铁山,,23,23,25,3,6,30,,,,11,11,5,6,0.7,0.5
2025-08-22T0200,2427A,115.0307,30.2092,黄石市,团城山,,32,32,23,6,3,17,,,,26,7,6,7,0.6,0.6
2025-08-22T0200,3149A,115.0235,30.1578,黄石市,笔架山北路,,24,24,17,6,3,26,,,,15,6,10,6,0.7,0.5
2025-08-22T0200,4185A,115.0780,30.21118,黄石市,磁湖东路29号,颗粒物(PM10),53,55,34,9,8,4,,,,45,14,11,9,0.7,0.6
2025-08-22T0200,1392A,114.4183,23.0528,惠州市,河南岸金山湖子站,,24,24,23,12,13,17,,,,17,15,8,7,0.5,0.5
2025-08-22T0200,1393A,114.4053,23.0822,惠州市,下埔横江三路子站,,28,28,26,15,12,23,,,,16,13,6,5,0.4,0.4
2025-08-22T0200,1394A,114.4103,23.1142,惠州市,江北云山西路子站,,30,30,26,11,10,22,,,,24,18,9,9,0.6,0.6
2025-08-22T0200,1395A,114.4645,22.7833,惠州市,惠阳区承修路船湖子站,,37,37,26,17,11,12,,,,25,12,7,6,0.7,0.5
2025-08-22T0200,1396A,114.5317,22.7422,惠州市,大亚湾管委会子站,,42,42,21,17,10,7,,,,31,15,7,7,0.4,0.4
2025-08-22T0200,3314A,114.4338,22.8134,惠州市,惠阳秋长,,36,36,33,20,14,7,,,,37,21,7,7,0.6,0.5
2025-08-22T0200,3452A,114.6517,22.775,惠州市,大亚湾霞涌,,,,13,8,5,11,,,,16,11,5,5,0.3,0.3
2025-08-22T0200,2240A,130.9762,45.3001,鸡西市,环保局,,22,22,25,12,9,45,,,,11,15,8,7,0.4,0.4
2025-08-22T0200,2243A,130.9429,45.3039,鸡西市,第一中学,,18,18,24,3,8,46,,,,11,16,10,9,0.5,0.6
2025-08-22T0200,3707A,131.0207,45.3073,鸡西市,欧美日汽修厂,,25,,25,17,12,38,,,,14,17,9,10,0.5,0.6
2025-08-22T0200,3709A,130.9967,45.3106,鸡西市,市政设施管理处,,26,26,29,3,9,44,,,,15,22,6,8,0.5,0.6
2025-08-22T0200,2367A,114.9754,27.0803,吉安市,红声器材厂,,30,30,27,12,13,50,,,,5,6,7,8,0.6,0.6
2025-08-22T0200,2368A,114.9658,27.0999,吉安市,市森林工业局,,29,29,23,12,10,40,,,,11,6,9,8,0.5,0.4
2025-08-22T0200,2369A,114.99,27.1312,吉安市,市环境监测站,,23,23,19,12,8,58,,,,3,2,10,10,0.5,0.5
2025-08-22T0200,2370A,115.0093,27.0968,吉安市,青原区法院,,25,25,19,10,9,54,,,,5,6,9,8,0.6,0.6
2025-08-22T0200,1772A,126.54,43.8622,吉林市,哈达湾,,22,,19,15,12,64,,,,4,11,6,7,0.4,0.4
2025-08-22T0200,1773A,126.5844,43.8358,吉林市,东局子,,25,,15,17,9,53,,,,4,7,5,6,0.7,0.7
2025-08-22T0200,1774A,126.5052,43.8245,吉林市,电力学院,,16,15,18,6,9,50,,,,3,11,5,6,0.6,0.5
2025-08-22T0200,1775A,126.6133,43.8972,吉林市,江北,,19,17,20,13,12,55,,,,3,7,4,5,0.5,0.7
2025-08-22T0200,1776A,126.555,43.8306,吉林市,江南公园,,30,23,20,21,13,68,,,,2,10,1,2,0.4,0.4
2025-08-22T0200,1778A,126.7061,43.7133,吉林市,丰满,,25,15,11,15,10,80,,,,3,4,5,5,0.9,0.7
2025-08-22T0200,2868A,126.4739,43.953,吉林市,九站,,44,44,35,13,12,70,,,,6,17,2,7,0.5,0.5
2025-08-22T0200,1299A,116.9862,36.6114,济南市,科干所,,34,34,25,20,16,104,,,,10,7,8,7,0.6,0.5
2025-08-22T0200,1300A,116.9376,36.665,济南市,农科所,,34,34,27,20,12,86,,,,19,14,9,9,0.3,0.3
2025-08-22T0200,1301A,117.1265,36.6734,济南市,开发区,,33,27,22,20,14,104,,,,8,10,8,8,0.6,0.5
2025-08-22T0200,1303A,117.0624,36.6868,济南市,省种子仓库,,36,36,29,17,11,101,,,,12,9,5,5,0.6,0.6
2025-08-22T0200,1304A,116.9489,36.6447,济南市,机床二厂,,,44,30,15,11,,,,,18,12,9,10,0.4,0.4
2025-08-22T0200,1305A,117.0495,36.663,济南市,市监测站,,32,32,24,12,12,97,,,,11,9,9,9,0.7,0.6
2025-08-22T0200,1306A,116.7675,36.5484,济南市,长清党校,,34,34,25,12,17,80,,,,18,13,9,7,0.7,0.7
2025-08-22T0200,1616A,117.6795,36.229,济南市,技术学院,,33,19,27,14,15,105,,,,8,13,12,11,0.4,0.6
2025-08-22T0200,1961A,117.532,36.6868,济南市,东山小学,,29,27,31,15,15,90,,,,14,12,7,7,0.3,0.3
2025-08-22T0200,3059A,117.7161,36.2049,济南市,泰兴公司,,28,27,30,14,15,89,,,,11,15,20,16,0.6,0.6
2025-08-22T0200,3064A,117.6867,36.2171,济南市,莱芜战役纪念馆,,31,31,28,16,18,94,,,,11,15,8,8,0.6,0.6
2025-08-22T0200,3494A,117.1673,36.9782,济南市,济阳区政府,,37,37,42,10,13,84,,,,9,11,7,7,0.3,0.3
2025-08-22T0200,3495A,117.1171,36.63,济南市,锦屏中学,,31,29,20,15,11,97,,,,13,9,10,9,0.6,0.6
2025-08-22T0200,3682A,116.9814,36.6819,济南市,济南四建,,41,41,25,17,13,92,,,,12,8,6,6,0.5,0.5
2025-08-22T0200,1653A,116.6251,35.4302,济宁市,火炬城,,,41,32,12,12,,,,,7,7,6,6,0.7,0.6
2025-08-22T0200,1655A,116.5491,35.4042,济宁市,电化厂,,37,37,33,14,15,78,,,,8,8,4,3,0.9,0.9
2025-08-22T0200,3500A,116.5814,35.3707,济宁市,北湖一中,,37,37,32,17,13,81,,,,4,4,7,8,0.3,0.3
2025-08-22T0200,3501A,116.8249,35.5593,济宁市,服务中心,,38,38,34,10,10,77,,,,8,8,2,2,0.5,0.6
2025-08-22T0200,3678A,116.5907,35.4054,济宁市,市第七中学,,32,32,29,12,7,77,,,,5,6,8,7,0.4,0.4
2025-08-22T0200,2255A,130.2751,46.8028,佳木斯市,佳纺,,22,20,22,8,8,5,,,,44,23,10,9,0.4,0.4
2025-08-22T0200,2256A,130.3995,46.8307,佳木斯市,发电厂,,24,24,32,3,8,13,,,,37,24,10,7,0.6,0.6
2025-08-22T0200,2257A,130.3258,46.7975,佳木斯市,环保局,,26,26,27,13,9,10,,,,49,29,10,9,0.6,0.6
2025-08-22T0200,2258A,130.3648,46.8032,佳木斯市,十一中,,28,28,22,9,8,7,,,,49,26,12,10,0.6,0.6
2025-08-22T0200,2259A,130.3794,46.7588,佳木斯市,四丰,,,15,11,,,4,,,,45,31,291,21,0.4,0.4
2025-08-22T0200,1252A,120.7436,30.778,嘉兴市,清河小学,,21,21,47,14,25,60,,,,19,18,6,7,0.7,0.8
2025-08-22T0200,1253A,120.726,30.7478,嘉兴市,嘉兴学院,,34,34,45,17,30,54,,,,22,16,4,6,0.5,0.5
2025-08-22T0200,2872A,120.7846,30.7525,嘉兴市,南湖区残联,,28,26,46,19,33,71,,,,18,18,5,7,0.5,0.7
2025-08-22T0200,3407A,120.6916,30.7739,嘉兴市,秀洲住建,,23,23,44,13,27,63,,,,16,18,6,7,0.6,0.7
2025-08-22T0200,1945A,98.2908,39.7711,嘉峪关市,气象局,,23,7,15,7,5,72,,,,21,15,2,2,0.6,0.5
2025-08-22T0200,2884A,98.2672,39.7978,嘉峪关市,酒钢宾馆,,33,14,25,3,9,104,,,,7,12,11,14,0.6,0.6
2025-08-22T0200,3248A,98.2643,39.7724,嘉峪关市,雄关区,,22,21,20,11,12,68,,,,22,19,9,10,0.4,0.4
2025-08-22T0200,1383A,113.1064,22.6058,江门市,北街,,10,10,16,3,8,30,,,,10,8,3,3,0.5,0.5
2025-08-22T0200,1384A,113.0731,22.5835,江门市,西区,,25,25,18,8,5,24,,,,16,10,7,6,0.8,0.6
2025-08-22T0200,1385A,113.0219,22.5311,江门市,圭峰西,,19,19,24,8,10,22,,,,12,9,2,2,0.5,0.5
2025-08-22T0200,1386A,113.0828,22.5947,江门市,东湖,,17,17,18,3,9,23,,,,14,9,8,8,0.4,0.4
2025-08-22T0200,3311A,113.1075,22.5647,江门市,江海富民,,30,30,29,13,9,30,,,,10,9,4,5,0.2,0.2
2025-08-22T0200,3449A,113.05,22.4667,江门市,新会银湖,,24,24,20,12,10,17,,,,12,9,3,2,0.4,0.4
2025-08-22T0200,1830A,113.1992,35.2590,焦作市,影视城,,,,22,,14,,,,,,8,,8,,0.6
2025-08-22T0200,3335A,113.3137,35.2641,焦作市,马村街道办,,36,36,34,16,18,29,,,,20,12,6,6,0.6,0.4
2025-08-22T0200,3336A,113.2465,35.2373,焦作市,焦作技师学院,,44,44,36,17,9,28,,,,23,17,3,3,0.9,0.8
2025-08-22T0200,3477A,113.1656,35.2539,焦作市,中站许衡医院,,46,46,33,22,17,20,,,,30,12,19,8,1.1,0.6
2025-08-22T0200,3981A,113.2449,35.1803,焦作市,原李万街道办,,19,19,30,9,7,38,,,,15,11,12,12,0.3,0.2
2025-08-22T0200,4264A,113.2340,35.2190,焦作市,新安路1731号,,34,34,32,11,9,32,,,,18,11,7,5,0.5,0.4
2025-08-22T0200,4295A,113.2722,35.2121,焦作市,人民路3066号,,33,33,33,17,15,34,,,,17,11,4,3,0.4,0.3
2025-08-22T0200,1708A,116.3701,23.5345,揭阳市,新兴,,36,36,32,15,18,3,,,,40,20,16,10,0.5,0.5
2025-08-22T0200,1709A,116.3264,23.5443,揭阳市,西马,,46,46,33,19,15,6,,,,35,18,12,6,0.6,0.6
2025-08-22T0200,1710A,116.3611,23.5626,揭阳市,东兴,,34,34,32,16,13,6,,,,34,18,12,6,0.6,0.6
2025-08-22T0200,1711A,116.4151,23.5294,揭阳市,渔湖,,33,33,41,20,22,1,,,,37,21,10,9,0.7,0.6
2025-08-22T0200,3320A,116.403,23.5699,揭阳市,曲溪,,31,31,32,20,13,5,,,,32,18,10,6,0.5,0.5
2025-08-22T0200,1944A,102.1692,38.5167,金昌市,天庆家园,,24,24,36,14,15,61,,,,19,17,4,4,0.7,0.6
2025-08-22T0200,4022A,102.1647,38.5371,金昌市,金川区人防中心,,24,19,23,12,16,75,,,,9,13,10,11,0.6,0.5
2025-08-22T0200,4239A,102.1930,38.5319,金昌市,长春路96号,,26,26,24,11,12,64,,,,10,14,6,8,0.6,0.4
2025-08-22T0200,1262A,119.647,29.077,金华市,十五中,,21,21,23,11,12,38,,,,10,10,3,4,0.4,0.4
2025-08-22T0200,1263A,119.686,29.1029,金华市,监测站,,29,29,24,13,13,37,,,,13,13,4,5,0.5,0.5
2025-08-22T0200,3659A,119.656,29.1131,金华市,气象局,,23,23,23,14,12,27,,,,25,13,3,3,0.6,0.6
2025-08-22T0200,1767A,121.1115,41.0879,锦州市,南山,,27,14,32,6,25,86,,,,3,10,3,5,0.6,0.6
2025-08-22T0200,1768A,121.0604,40.8428,锦州市,开发区,,25,23,41,3,15,79,,,,7,19,2,3,0.9,0.8
2025-08-22T0200,1769A,121.1836,41.1119,锦州市,百股街道,,,,30,2,15,100,,,,4,11,3,32,0.7,0.6
2025-08-22T0200,1770A,121.1178,41.1222,锦州市,天安街道,,27,17,33,16,19,85,,,,5,14,4,8,0.7,0.8
2025-08-22T0200,1771A,121.1303,41.1386,锦州市,北湖公园,,28,,37,6,22,89,,,,3,10,3,12,0.6,0.7
2025-08-22T0200,2160A,112.85,35.5051,晋城市,自来水公司,,30,30,36,12,11,43,,,,14,12,5,4,0.5,0.4
2025-08-22T0200,2161A,112.8318,35.4936,晋城市,白云商贸,,29,29,30,9,6,52,,,,9,9,5,4,0.6,0.4
2025-08-22T0200,2162A,112.8508,35.4887,晋城市,市环保局,,18,18,25,12,10,46,,,,10,9,1,2,0.6,0.5
2025-08-22T0200,2163A,112.8676,35.4897,晋城市,技术学院,,37,37,36,9,7,44,,,,13,11,3,4,0.7,0.6
2025-08-22T0200,2165A,112.8453,35.546,晋城市,白马寺,,20,13,15,6,25,63,,,,6,5,6,6,0.6,0.6
2025-08-22T0200,3620A,112.8271,35.4828,晋城市,泽州一中,,24,24,29,7,7,56,,,,6,7,3,3,0.8,0.6
2025-08-22T0200,2173A,112.7249,37.7067,晋中市,南都小区,,37,37,35,12,19,43,,,,25,14,6,5,0.5,0.6
2025-08-22T0200,2174A,112.6991,37.6982,晋中市,榆次区政府,,29,29,26,20,17,33,,,,30,11,5,5,0.7,0.9
2025-08-22T0200,2865A,112.7195,37.6828,晋中市,榆次三中,,39,39,25,14,12,48,,,,20,10,7,6,0.7,0.9
2025-08-22T0200,4200A,112.7478,37.6954,晋中市,迎宾街26号,,,29,26,14,11,,,,,18,12,8,7,0.5,0.8
2025-08-22T0200,2439A,112.2014,31.0481,荆门市,竹园小学,,,24,21,16,13,,,,,8,8,4,3,0.7,0.3
2025-08-22T0200,2440A,112.1969,30.9891,荆门市,掇刀,,33,33,22,12,12,53,,,,10,8,2,1,0.6,0.5
2025-08-22T0200,2441A,112.2213,31.0386,荆门市,石化一小,,48,48,26,20,14,59,,,,14,11,7,6,0.9,0.7
2025-08-22T0200,3012A,112.1849,31.0362,荆门市,西山林语,,,27,21,14,10,,,,,9,7,1,2,0.4,0.4
2025-08-22T0200,3547A,112.1632,31.0138,荆门市,龙泉中学南校,,22,21,20,15,10,49,,,,10,9,4,4,0.8,0.7
2025-08-22T0200,1844A,112.2494,30.3197,荆州市,市图书馆,,,24,14,21,11,46,,,,13,6,,4,0.6,0.5
2025-08-22T0200,1845A,112.2008,30.3544,荆州市,市委党校,,28,22,14,19,12,46,,,,13,11,5,4,0.4,0.4
2025-08-22T0200,3194A,112.2747,30.3122,荆州市,管委会,,,20,14,16,13,42,,,,12,10,,7,0.6,0.5
2025-08-22T0200,4268A,112.1722,30.3366,荆州市,学苑路85号,,23,,15,16,11,40,,,,17,11,5,6,0.4,0.4
2025-08-22T0200,2342A,117.3102,29.3867,景德镇市,王港中学,,,,,,,,,,,,,,,,
2025-08-22T0200,2343A,117.2117,29.2933,景德镇市,老干部活动中心,,19,17,15,13,10,32,,,,5,4,10,9,0.6,0.6
2025-08-22T0200,2344A,117.1894,29.2789,景德镇市,兽医站,,23,23,25,3,10,33,,,,9,14,5,11,0.8,0.8
2025-08-22T0200,2346A,117.2461,29.2956,景德镇市,陶研所,,19,19,19,6,8,30,,,,5,5,10,10,0.6,0.5
2025-08-22T0200,4289A,117.1542,29.2566,景德镇市,青少年活动中心,,17,17,20,10,9,17,,,,17,14,6,15,0.5,0.5
2025-08-22T0200,1803A,115.9872,29.6815,九江市,十里,,23,,18,16,13,34,,,,14,10,4,5,0.5,0.5
2025-08-22T0200,1804A,115.9584,29.7046,九江市,茅山头,,11,7,19,3,10,33,,,,10,8,4,4,0.5,0.5
2025-08-22T0200,1805A,115.9877,29.7295,九江市,西园,,14,13,13,9,8,43,,,,12,16,4,5,0.5,0.5
2025-08-22T0200,1808A,115.9114,29.6038,九江市,综合工业园,,16,,16,11,9,40,,,,12,12,7,8,0.7,0.7
2025-08-22T0200,1809A,116.0721,29.7535,九江市,石化总厂,,36,,20,25,19,46,,,,10,10,6,7,0.4,0.4
2025-08-22T0200,1810A,115.9773,29.5698,九江市,庐山气象台,,20,12,7,3,2,61,,,,4,4,6,6,0.5,0.7
2025-08-22T0200,3190A,116.0254,29.6994,九江市,外国语学校,,16,,13,11,12,40,,,,8,9,4,8,0.7,0.7
2025-08-22T0200,4253A,116.0102,29.6594,九江市,莲花大道8号,,12,8,12,3,7,36,,,,2,3,4,5,0.5,0.4
2025-08-22T0200,4240A,98.4958,39.7339,酒泉市,玉门东路5号,,26,,23,18,23,73,,,,8,10,6,8,0.2,0.3
2025-08-22T0200,4241A,98.5099,39.7506,酒泉市,北大街108号,,36,36,20,14,16,37,,,,28,10,8,10,0.4,0.2
2025-08-22T0200,2698A,76.0072,39.4467,喀什地区,巡警大队,颗粒物(PM10),120,190,205,57,61,81,,,,23,23,3,3,0.3,0.3
2025-08-22T0200,2699A,75.9755,39.4694,喀什地区,吾办,颗粒物(PM10),116,182,214,69,67,77,,,,23,20,8,8,0.4,0.4
2025-08-22T0200,4027A,75.9483,39.4689,喀什地区,老干局,颗粒物(PM10),121,191,196,49,52,82,,,,16,21,5,5,0.2,0.3
2025-08-22T0200,1824A,114.3389,34.7781,开封市,肿瘤医院,,29,29,32,7,7,62,,,,17,14,3,2,0.5,0.5
2025-08-22T0200,1826A,114.2885,34.7965,开封市,世纪星幼儿园,,28,28,26,3,10,57,,,,16,11,4,4,0.7,0.6
2025-08-22T0200,3147A,114.3438,34.8106,开封市,龙亭公园,,21,21,30,9,3,58,,,,14,7,4,4,0.7,0.6
2025-08-22T0200,3210A,114.3644,34.7964,开封市,汴京公园,,30,30,31,14,12,71,,,,10,8,4,4,0.5,0.5
2025-08-22T0200,3473A,114.2485,34.8306,开封市,技师学院,,29,29,24,16,9,44,,,,26,7,4,5,0.8,0.9
2025-08-22T0200,3592A,114.4644,34.7556,开封市,祥符区生态环境局,,31,31,30,14,10,52,,,,20,16,3,3,0.6,0.5
2025-08-22T0200,1951A,84.895,45.6094,克拉玛依市,长征新村,,31,10,14,3,6,98,,,,3,6,3,3,0.2,0.2
2025-08-22T0200,1952A,84.8988,45.5893,克拉玛依市,南林小区,,,,18,,6,72,,,,14,30,5,5,0.1,0.1
2025-08-22T0200,1954A,84.905,44.3396,克拉玛依市,独山子区,,33,,27,3,10,104,,,,5,12,8,10,0.3,0.5
2025-08-22T0200,1955A,85.6979,46.098,克拉玛依市,乌尔禾区商贸楼,,30,30,22,3,11,73,,,,14,19,7,7,0.2,0.3
2025-08-22T0200,3612A,85.1045,45.6899,克拉玛依市,白碱滩区新站,,35,29,26,16,16,109,,,,4,4,9,9,0.4,0.4
2025-08-22T0200,2697A,76.1454,39.7142,克孜勒苏柯尔克孜自治州,市人民政府,颗粒物(PM10),90,130,177,34,59,81,,,,26,15,5,6,0.1,0.1
2025-08-22T0200,3665A,76.1658,39.7157,克孜勒苏柯尔克孜自治州,克州文化中心,颗粒物(PM10),92,134,172,47,53,100,,,,11,11,7,8,0.3,0.2
2025-08-22T0200,1450A,102.8204,24.8886,昆明市,呈贡新区,,9,,2,6,8,23,,,,13,12,4,3,0.3,0.4
2025-08-22T0200,1451A,102.6251,24.9608,昆明市,西山森林公园,,,,,,,,,,,,,,,,
2025-08-22T0200,1452A,102.7252,25.0902,昆明市,龙泉镇,,10,7,15,7,9,30,,,,6,13,1,1,0.3,0.4
2025-08-22T0200,1453A,102.7266,25.0375,昆明市,东风东路,,9,6,13,3,8,28,,,,8,14,3,3,0.3,0.4
2025-08-22T0200,1454A,102.6742,25.0669,昆明市,金鼎山,,8,6,18,3,7,25,,,,8,14,1,2,0.3,0.4
2025-08-22T0200,1455A,102.6644,25.0401,昆明市,碧鸡广场,,7,6,16,3,4,22,,,,12,16,6,7,0.4,0.5
2025-08-22T0200,3179A,102.7494,25.0119,昆明市,官渡区博物馆,,9,9,11,6,5,27,,,,7,12,3,2,0.4,0.5
2025-08-22T0200,3375A,102.8017,24.8336,昆明市,青年创业园,,,11,8,6,5,,,,,13,6,2,3,0.3,0.4
2025-08-22T0200,3550A,102.7997,24.9786,昆明市,昆明学院,,9,8,13,3,5,27,,,,8,14,6,6,0.3,0.4
2025-08-22T0200,3551A,102.5967,24.6736,昆明市,晋宁区生态环境分局,,10,10,14,3,5,26,,,,8,7,2,2,0.5,0.5
2025-08-22T0200,3552A,102.6678,24.9856,昆明市,云天化总部,,8,7,10,3,5,25,,,,7,10,3,5,0.2,0.3
2025-08-22T0200,1456A,91.1319,29.6514,拉萨市,八廓街,,19,7,8,3,6,60,,,,10,11,5,6,0.3,0.3
2025-08-22T0200,1457A,91.1221,29.6747,拉萨市,市环保局,,20,8,9,8,7,61,,,,6,9,6,7,0.2,0.2
2025-08-22T0200,1458A,91.0874,29.6475,拉萨市,区监测站,,18,6,6,6,6,56,,,,15,12,3,3,0.4,0.4
2025-08-22T0200,1459A,91.1774,29.6541,拉萨市,西藏大学,,20,10,8,6,6,64,,,,5,11,5,5,0.1,0.2
2025-08-22T0200,1460A,90.9798,29.6588,拉萨市,区辐射站,,21,6,7,3,6,65,,,,10,10,4,4,0.3,0.4
2025-08-22T0200,1461A,91.0834,29.6292,拉萨市,拉萨火车站,,18,7,7,3,6,56,,,,18,14,5,5,0.2,0.2
2025-08-22T0200,2520A,109.2203,23.7256,来宾市,来宾技工学校,,25,25,27,3,12,16,,,,8,10,8,8,0.4,0.6
2025-08-22T0200,3535A,109.1781,23.7297,来宾市,兴宾区政府,,28,28,22,9,12,19,,,,9,10,7,9,0.6,0.7
2025-08-22T0200,4002A,109.2416,23.7461,来宾市,中南小学,,22,22,23,6,10,9,,,,13,11,4,4,0.6,0.6
2025-08-22T0200,1477A,104.1373,35.9454,兰州市,榆中兰大校区,,,,,,,,,,,,,,,,
2025-08-22T0200,1479A,103.831,36.0464,兰州市,铁路设计院,,34,34,31,17,19,24,,,,42,27,10,9,0.6,0.4
2025-08-22T0200,3241A,103.7439,36.0842,兰州市,百合公园,,32,32,23,12,11,27,,,,32,14,6,3,0.5,0.4
2025-08-22T0200,3242A,103.9611,35.998,兰州市,和平,,21,21,14,3,8,12,,,,42,14,6,7,0,0.1
2025-08-22T0200,4236A,103.6293,36.0938,兰州市,庄浪东路808号,,28,28,26,13,15,23,,,,35,26,11,11,0.2,0.3
2025-08-22T0200,4237A,103.7251,36.1043,兰州市,安宁西路88号,,32,27,26,22,19,52,,,,16,9,7,6,0.4,0.3
2025-08-22T0200,4238A,103.8470,36.0676,兰州市,北滨河东路1号,,29,21,22,20,19,28,,,,36,20,10,8,0.7,0.4
2025-08-22T0200,3245A,103.6633,36.533,兰州新区,新区管委会,,19,18,18,13,14,55,,,,16,9,9,9,0.4,0.3
2025-08-22T0200,3246A,103.6975,36.4789,兰州新区,舟曲中学,,23,23,20,11,11,48,,,,37,11,7,7,0.4,0.3
2025-08-22T0200,1067A,116.6708,39.5111,廊坊市,药材公司,,21,21,27,6,13,45,,,,11,9,4,4,0.2,0.3
2025-08-22T0200,1068A,116.7214,39.5589,廊坊市,开发区,,26,26,29,12,15,27,,,,12,10,2,2,0.3,0.4
2025-08-22T0200,1070A,116.7244,39.5269,廊坊市,北华航天学院,,40,40,48,9,15,42,,,,12,8,3,4,0.3,0.4
2025-08-22T0200,2919A,116.7022,39.5453,廊坊市,河北工业大学,,30,30,41,9,13,45,,,,14,8,2,3,0.3,0.4
2025-08-22T0200,2535A,103.7723,29.5462,乐山市,花湖湾,,20,14,14,9,10,63,,,,6,9,2,2,0.4,0.4
2025-08-22T0200,2536A,103.7627,29.5844,乐山市,牛耳桥,,25,19,17,17,17,73,,,,6,10,9,5,0.5,0.6
2025-08-22T0200,2537A,103.7508,29.6006,乐山市,市第三水厂,,23,18,15,11,12,73,,,,7,10,4,3,0.6,0.6
2025-08-22T0200,2538A,103.7571,29.5664,乐山市,市监测站,,22,16,15,15,12,66,,,,6,9,11,6,0.7,0.7
2025-08-22T0200,3361A,103.7311,29.5628,乐山市,理工大学,,19,17,15,12,10,60,,,,6,8,6,6,0.6,0.6
2025-08-22T0200,2598A,100.2143,26.8576,丽江市,西南郊,,16,6,7,3,3,50,,,,4,8,6,6,0.8,0.9
2025-08-22T0200,2599A,100.2497,26.8802,丽江市,丽江古城,细颗粒物(PM2.5),63,,17,45,7,32,,,,9,12,10,10,0.6,0.5
2025-08-22T0200,2600A,100.2203,26.8906,丽江市,市中心,细颗粒物(PM2.5),53,,10,37,8,36,,,,8,13,8,9,0.5,0.5
2025-08-22T0200,1267A,119.914,28.4514,丽水市,监测站大楼,,12,12,18,3,7,30,,,,12,12,4,4,0.3,0.3
2025-08-22T0200,1268A,119.93,28.4586,丽水市,莲都小学,,10,10,20,6,9,30,,,,11,14,4,3,0.2,0.3
2025-08-22T0200,1269A,119.879,28.4231,丽水市,余庄前,,9,9,16,3,10,5,,,,12,11,4,5,0.4,0.5
2025-08-22T0200,1173A,119.176,34.5885,连云港市,市环境监测站,,27,27,34,12,18,63,,,,11,10,1,1,0.5,0.6
2025-08-22T0200,3000A,119.3581,34.6972,连云港市,德源药业,,24,24,31,9,16,71,,,,13,12,4,5,0.7,0.7
2025-08-22T0200,3007A,119.178,34.844,连云港市,新城一中,,33,33,33,18,19,85,,,,7,9,4,4,0.7,1.2
2025-08-22T0200,3008A,119.3608,34.7519,连云港市,胡沟管理处,,35,22,23,9,15,110,,,,8,9,8,9,0.6,0.7
2025-08-22T0200,3009A,119.1478,34.5911,连云港市,矿山设计院,,20,19,34,14,20,62,,,,13,10,12,6,0.7,0.8
2025-08-22T0200,3434A,119.2413,34.6539,连云港市,工贸学校,,34,27,34,18,21,107,,,,6,7,7,7,0.8,0.9
2025-08-22T0200,3664A,119.4172,34.7341,连云港市,连云街道,,40,30,34,18,20,128,,,,4,6,4,5,0.7,0.8
2025-08-22T0200,2571A,102.3431,27.8099,凉山彝族自治州,青龙寺,,15,15,17,6,7,18,,,,2,6,2,3,0.5,0.6
2025-08-22T0200,2572A,102.2721,27.8415,凉山彝族自治州,邛海宾馆,,13,13,20,7,14,36,,,,6,11,5,11,0.4,0.7
2025-08-22T0200,2573A,102.2625,27.898,凉山彝族自治州,西昌市政府,,15,15,20,7,19,34,,,,5,12,4,10,0.1,0.3
2025-08-22T0200,2574A,102.2685,27.8851,凉山彝族自治州,凉山州政府,,16,,21,11,15,41,,,,11,17,6,14,0.7,0.8
2025-08-22T0200,4229A,102.2342,27.8859,凉山彝族自治州,凯乐南路30号,,12,12,19,8,12,32,,,,14,14,9,15,0.6,0.8
2025-08-22T0200,2212A,123.2,41.1953,辽阳市,宏伟区,,28,25,17,10,9,89,,,,2,4,2,2,0.6,0.6
2025-08-22T0200,2213A,123.1683,41.2495,辽阳市,新华园,,31,30,21,10,9,99,,,,2,6,4,5,0.4,0.5
2025-08-22T0200,2214A,123.2354,41.2639,辽阳市,滨河路,,27,26,23,12,11,85,,,,4,9,3,3,0.5,0.5
2025-08-22T0200,2215A,123.149,41.2991,辽阳市,铁西工业园,,39,39,27,12,11,94,,,,1,5,2,2,0.7,0.8
2025-08-22T0200,2227A,125.1358,42.8845,辽源市,环保局,,28,26,27,12,6,87,,,,2,10,7,8,0.5,0.5
2025-08-22T0200,3239A,125.0764,42.9078,辽源市,银鹰制药,,26,15,17,14,10,81,,,,5,13,8,10,0.5,0.4
2025-08-22T0200,1625A,115.9848,36.4372,聊城市,区政府,,28,28,24,16,12,69,,,,12,9,11,10,0.8,0.7
2025-08-22T0200,2878A,116.0072,36.4343,聊城市,聊大东校,,29,29,31,13,12,67,,,,15,12,10,9,0.4,0.4
2025-08-22T0200,3200A,115.9819,36.4978,聊城市,监控中心,,25,24,28,9,9,79,,,,15,14,10,9,0.7,0.7
2025-08-22T0200,3513A,116.0445,36.4361,聊城市,九州社区,,34,34,33,18,14,59,,,,13,11,6,5,0.2,0.2
2025-08-22T0200,4018A,116.0567,36.4608,聊城市,星美广场,,31,31,27,19,11,64,,,,9,8,2,4,0.5,0.6
2025-08-22T0200,2632A,94.3681,29.6376,林芝市,林芝监测站,,7,7,10,3,5,20,,,,2,6,4,6,0.4,0.4
2025-08-22T0200,2633A,94.3616,29.6616,林芝市,林芝人民医院,,7,7,10,3,5,13,,,,3,4,8,8,0.6,0.5
2025-08-22T0200,2603A,100.0781,23.8982,临沧市,市环保局,,32,,16,22,24,9,,,,10,8,4,6,0.3,0.3
2025-08-22T0200,2604A,100.0894,23.8822,临沧市,市气象局,,18,16,16,12,10,10,,,,10,8,8,8,0.5,0.5
2025-08-22T0200,1733A,111.5531,36.0783,临汾市,临钢医院,颗粒物(PM10),55,59,31,13,7,38,,,,26,17,10,8,1.0,0.6
2025-08-22T0200,1734A,111.5028,36.0714,临汾市,技工学校,颗粒物(PM10),54,57,29,26,20,40,,,,18,11,12,7,0.9,0.7
2025-08-22T0200,1736A,111.5018,36.0855,临汾市,市委,,49,49,39,11,7,42,,,,18,10,10,7,1.2,0.9
2025-08-22T0200,3018A,111.505,36.1014,临汾市,唐尧大酒店,颗粒物(PM10),55,59,45,11,9,39,,,,24,13,4,4,0.8,0.7
2025-08-22T0200,4244A,111.4879,36.0530,临汾市,启星学校,,50,50,28,32,20,35,,,,18,12,2,2,0.9,0.7
2025-08-22T0200,4271A,103.2464,35.6123,临夏回族自治州,滨河东路1号,,46,46,14,24,8,0,,,,21,11,7,6,0.5,0.3
2025-08-22T0200,4310A,103.2093,35.5995,临夏回族自治州,新华街21号,,25,23,11,17,7,16,,,,20,8,5,4,0.4,0.2
2025-08-22T0200,1618A,118.3429,35.0532,临沂市,沂河小区,细颗粒物(PM2.5),64,68,42,46,29,106,,,,17,15,10,10,0.6,0.5
2025-08-22T0200,1619A,118.295,35.0583,临沂市,鲁南制药厂,颗粒物(PM10),54,58,39,25,23,119,,,,10,13,8,9,0.6,0.5
2025-08-22T0200,1620A,118.2794,34.9976,临沂市,新光毛纺厂,颗粒物(PM10),51,51,35,32,22,114,,,,24,17,7,8,0.6,0.5
2025-08-22T0200,1621A,118.3956,35.0888,临沂市,河东保险公司,细颗粒物(PM2.5),60,58,37,43,21,111,,,,16,15,8,7,0.5,0.4
2025-08-22T0200,3370A,118.3564,35.0215,临沂市,十里堡居委,细颗粒物(PM2.5),67,63,36,48,29,103,,,,20,14,11,11,0.6,0.5
2025-08-22T0200,3496A,118.3604,35.1084,临沂市,南坊新区,颗粒物(PM10),60,70,42,39,21,111,,,,14,14,7,8,0.7,0.5
2025-08-22T0200,3860A,118.3920,35.0300,临沂市,皇山花园小区,细颗粒物(PM2.5),77,73,39,56,24,110,,,,15,15,9,9,0.8,0.6
2025-08-22T0200,1870A,109.4856,24.3895,柳州市,柳东小学,,23,23,19,9,10,10,,,,15,9,4,5,0.3,0.3
2025-08-22T0200,1871A,109.4157,24.3277,柳州市,环保监测站,,24,24,18,3,8,18,,,,12,9,7,7,0.4,0.4
2025-08-22T0200,1872A,109.389,24.341,柳州市,河西水厂,,28,28,21,3,10,21,,,,13,11,5,4,0.4,0.4
2025-08-22T0200,1873A,109.4311,24.2921,柳州市,市四中,,23,23,20,6,8,13,,,,18,14,6,6,0.6,0.5
2025-08-22T0200,1874A,109.4006,24.3631,柳州市,市九中,,24,24,21,3,13,17,,,,13,11,4,4,0.2,0.4
2025-08-22T0200,1875A,109.4958,24.3134,柳州市,古亭山,,32,32,23,7,8,1,,,,15,11,5,5,0.6,0.6
2025-08-22T0200,3402A,109.5422,24.3996,柳州市,市二中,,18,18,19,9,10,18,,,,12,11,5,7,0.6,0.7
2025-08-22T0200,2307A,116.5079,31.737,六安市,监测大楼,,19,14,16,13,11,58,,,,5,6,4,3,0.3,0.3
2025-08-22T0200,2308A,116.4738,31.7643,六安市,皖西学院,,23,23,18,15,10,67,,,,6,5,2,3,0.3,0.3
2025-08-22T0200,2309A,116.4996,31.7905,六安市,朝阳厂,,19,13,14,13,11,60,,,,8,8,6,6,0.4,0.3
2025-08-22T0200,2310A,116.5567,31.7886,六安市,开发区,,22,,19,15,16,49,,,,7,8,2,3,0.4,0.4
2025-08-22T0200,2576A,104.8,26.5892,六盘水市,窑上,,20,20,20,3,3,24,,,,4,4,5,5,0.2,0.3
2025-08-22T0200,2577A,104.83,26.5917,六盘水市,黄土坡,,11,6,10,3,5,35,,,,9,13,9,11,0.3,0.4
2025-08-22T0200,2578A,104.89,26.5939,六盘水市,水钢,,30,,22,21,18,48,,,,6,6,11,11,0.2,0.2
2025-08-22T0200,2579A,104.8475,26.5894,六盘水市,民中,,13,6,8,3,2,39,,,,10,10,8,8,0.3,0.3
2025-08-22T0200,2580A,104.9544,26.5506,六盘水市,双水,,13,,3,8,5,39,,,,6,7,6,6,0.1,0.1
2025-08-22T0200,2335A,117.0189,25.1181,龙岩市,龙岩师专,,,,,,,,,,,,,,,,
2025-08-22T0200,2336A,117.0217,25.1033,龙岩市,龙岩市监测站,,17,17,21,3,8,5,,,,19,15,11,8,0.6,0.6
2025-08-22T0200,2337A,117.0258,25.0661,龙岩市,闽西职业技术学院,,27,27,24,8,9,3,,,,15,13,35,16,0.6,0.6
2025-08-22T0200,2338A,117.0196,25.0306,龙岩市,龙岩学院,,19,19,15,3,7,12,,,,6,7,5,5,0.4,0.4
2025-08-22T0200,2665A,105.0822,33.3261,陇南市,汉王镇固水子,,,,,,,,,,,,,,,,
2025-08-22T0200,2885A,104.9339,33.3826,陇南市,滨江中学,,31,31,33,10,11,38,,,,9,5,7,8,0.7,0.6
2025-08-22T0200,3247A,104.955,33.371,陇南市,市总工会,,25,25,32,3,6,39,,,,3,6,6,6,0.6,0.6
2025-08-22T0200,2487A,111.9589,27.8901,娄底市,电视发射台,,,14,18,,7,12,,,,5,5,4,6,0.6,0.5
2025-08-22T0200,2488A,111.9975,27.725,娄底市,市监测站,,15,15,19,9,11,26,,,,16,7,6,6,0.7,0.5
2025-08-22T0200,2489A,112.0194,27.7314,娄底市,市委党校,,12,12,18,3,12,33,,,,6,5,2,4,0.4,0.4
2025-08-22T0200,2490A,111.9561,27.7569,娄底市,涟钢,颗粒物(PM10),52,54,24,7,11,21,,,,13,16,3,11,0.6,0.8
2025-08-22T0200,2491A,111.9892,27.7044,娄底市,市政府,,16,,13,11,11,22,,,,7,3,6,6,1.0,0.7
2025-08-22T0200,1893A,105.4324,28.9634,泸州市,九狮山,,33,,38,23,27,52,,,,5,6,5,7,0.3,0.3
2025-08-22T0200,1894A,105.4427,28.9063,泸州市,小市上码头,,17,17,27,3,15,43,,,,6,8,3,5,0.0,0.4
2025-08-22T0200,1895A,105.4241,28.8573,泸州市,兰田宪桥,,15,15,30,3,18,27,,,,6,7,7,7,0.2,0.4
2025-08-22T0200,1896A,105.4379,28.8833,泸州市,市环监站,,15,14,27,8,18,48,,,,6,9,5,5,0.2,0.2
2025-08-22T0200,4272A,105.3689,28.7783,泸州市,纳溪中医医院,,15,6,32,3,19,47,,,,8,13,1,2,0.4,0.4
2025-08-22T0200,2183A,111.1406,37.5211,吕梁市,环保局,,50,50,28,17,16,12,,,,27,19,2,1,0.5,0.6
2025-08-22T0200,2185A,111.1297,37.5136,吕梁市,自来水公司,颗粒物(PM10),51,52,24,11,13,21,,,,22,13,2,2,0.6,0.6
2025-08-22T0200,2867A,111.1283,37.51,吕梁市,马茂庄小学,,44,44,30,16,15,15,,,,30,23,1,1,0.4,0.4
2025-08-22T0200,1812A,112.3931,34.6516,洛阳市,市委党校,,33,33,31,14,15,62,,,,11,7,8,10,0.4,0.5
2025-08-22T0200,1815A,112.494,34.6886,洛阳市,河南林校,,40,40,33,16,13,65,,,,16,9,9,7,0.6,0.5
2025-08-22T0200,1816A,112.3844,34.623,洛阳市,开发区管委会,,36,36,27,12,15,41,,,,8,6,3,7,0.5,0.5
2025-08-22T0200,1817A,112.4267,34.6258,洛阳市,市委新办公区,,36,36,28,18,16,51,,,,10,8,7,9,0.4,0.4
2025-08-22T0200,3340A,112.6005,34.6326,洛阳市,伊滨,,48,48,31,16,15,61,,,,12,8,8,8,0.6,0.5
2025-08-22T0200,3341A,112.4951,34.6332,洛阳市,中移产业园,,36,36,29,17,14,59,,,,15,10,8,8,0.6,0.6
2025-08-22T0200,3593A,112.5736,34.8993,洛阳市,吉利监测站,,36,36,31,12,16,53,,,,4,8,4,6,0.7,0.3
2025-08-22T0200,3635A,112.3677,34.662,洛阳市,河科大西苑校区,,33,33,30,11,10,62,,,,17,11,8,10,0.4,0.5
2025-08-22T0200,3636A,112.4388,34.6781,洛阳市,英才小学,,40,40,26,21,14,56,,,,18,10,9,8,0.6,0.6
2025-08-22T0200,4214A,112.4600,34.6949,洛阳市,春都路1号院,,35,35,26,8,6,43,,,,10,5,9,7,0.7,0.6
2025-08-22T0200,2399A,114.051,33.5699,漯河市,三五一五工厂,,22,22,24,12,10,64,,,,14,12,6,6,0.5,0.5
2025-08-22T0200,2400A,114.0055,33.5698,漯河市,漯河大学,,18,18,17,9,6,55,,,,15,10,5,6,0.4,0.4
2025-08-22T0200,2401A,114.0138,33.5828,漯河市,市水利局,,24,24,21,14,9,60,,,,12,8,5,6,0.3,0.3
2025-08-22T0200,2402A,114.0261,33.5698,漯河市,市广电局,,20,17,19,14,15,62,,,,13,9,3,4,0.4,0.4
2025-08-22T0200,3478A,113.9749,33.5664,漯河市,市图书馆,,22,22,25,14,11,49,,,,13,9,5,7,0.3,0.3
2025-08-22T0200,4250A,114.0892,33.5882,漯河市,韶山路11号,,23,23,27,14,11,69,,,,12,11,6,4,0.5,0.5
2025-08-22T0200,1798A,118.5092,31.6837,马鞍山市,湖东路四小,,28,25,36,19,18,47,,,,20,14,8,7,0.9,0.7
2025-08-22T0200,1799A,118.5024,31.6449,马鞍山市,开发区,,24,24,36,10,17,49,,,,18,17,10,8,1.1,0.7
2025-08-22T0200,1802A,118.6245,31.7241,马鞍山市,濮塘,,20,18,23,3,16,61,,,,11,8,7,7,0.6,0.7
2025-08-22T0200,3633A,118.4918,31.6809,马鞍山市,雨山,,28,28,32,13,17,45,,,,21,16,8,7,0.6,0.7
2025-08-22T0200,4191A,118.5274,31.72227,马鞍山市,慈湖高新区,,23,23,35,12,17,46,,,,22,19,9,7,0.8,0.6
2025-08-22T0200,1686A,111.0286,21.4688,茂名市,电白南海,,17,17,20,3,11,38,,,,5,6,3,3,1.0,0.9
2025-08-22T0200,1687A,110.9294,21.6533,茂名市,茂石化七小,,17,17,22,3,8,27,,,,8,7,7,5,0.5,0.5
2025-08-22T0200,1688A,110.9107,21.6687,茂名市,健康路,,17,17,17,7,8,31,,,,8,7,6,4,0.7,0.7
2025-08-22T0200,1689A,110.8592,21.6828,茂名市,高岭,,19,19,24,3,4,27,,,,17,10,6,6,0.5,0.5
2025-08-22T0200,3450A,111.01,21.5165,茂名市,电白水东,,12,6,12,3,5,38,,,,4,5,4,4,0.5,0.4
2025-08-22T0200,2539A,104.0308,30.0478,眉山市,黑龙滩水库,,32,8,12,7,8,100,,,,8,6,3,3,0.3,0.3
2025-08-22T0200,2540A,103.8416,30.0874,眉山市,气象局,,23,23,25,3,8,65,,,,8,10,10,11,0.4,0.5
2025-08-22T0200,3137A,103.8578,30.0744,眉山市,市委党校,,19,7,14,3,5,59,,,,10,11,7,9,0.4,0.4
2025-08-22T0200,3148A,103.8291,30.0564,眉山市,区人社局,,26,26,29,3,2,66,,,,10,13,8,10,0.5,0.6
2025-08-22T0200,1690A,116.1231,24.3284,梅州市,梅江月梅,,23,23,19,8,9,13,,,,9,10,9,9,0.6,0.6
2025-08-22T0200,1691A,116.0797,24.2719,梅州市,梅县新城,,16,16,20,10,10,19,,,,10,9,11,8,0.5,0.5
2025-08-22T0200,1692A,116.1248,24.2654,梅州市,环境监控中心,,12,12,29,8,10,14,,,,12,10,9,5,0.3,0.4
2025-08-22T0200,3315A,116.1233,24.2991,梅州市,梅龙,,12,12,16,6,11,18,,,,9,9,9,8,0.6,0.6
2025-08-22T0200,1878A,104.7778,31.4741,绵阳市,富乐山,,22,,21,8,14,68,,,,4,6,8,8,0.4,0.5
2025-08-22T0200,1880A,104.6697,31.4668,绵阳市,高新区自来水公司,,20,7,16,3,6,62,,,,5,9,8,8,0.3,0.4
2025-08-22T0200,1881A,104.7287,31.5075,绵阳市,三水厂,,23,11,18,3,12,71,,,,3,9,8,8,0.3,0.4
2025-08-22T0200,3491A,104.69,31.5322,绵阳市,西科大附属小学,,,8,19,3,10,,,,,5,9,9,9,0.4,0.5
2025-08-22T0200,3492A,104.5648,31.5343,绵阳市,安州区旅游局,,16,16,16,7,6,49,,,,9,8,11,9,0.3,0.3
2025-08-22T0200,4226A,104.7651,31.4531,绵阳市,绵阳市气象局,,21,11,18,8,11,65,,,,2,6,6,9,0.3,0.3
2025-08-22T0200,1784A,129.61,44.561,牡丹江市,环保大楼,,11,9,18,3,9,34,,,,16,14,4,5,0.3,0.3
2025-08-22T0200,1785A,129.6115,44.5782,牡丹江市,文化广场,,29,,20,20,15,35,,,,16,18,6,7,0.4,0.4
2025-08-22T0200,1786A,129.5904,44.5963,牡丹江市,第一医院,,13,13,17,7,11,34,,,,12,16,6,7,0.2,0.2
2025-08-22T0200,1787A,129.6364,44.6075,牡丹江市,机车工厂,,14,14,24,3,13,24,,,,13,15,6,6,0.4,0.3
2025-08-22T0200,1788A,129.6386,44.5462,牡丹江市,第一中学,,21,21,19,8,9,25,,,,21,16,5,5,0.2,0.2
2025-08-22T0200,2531A,105.0703,29.61,内江市,市监测站,,25,,20,17,20,66,,,,7,9,1,2,0.7,0.9
2025-08-22T0200,2532A,105.0717,29.5947,内江市,东兴区政府,,20,8,23,3,13,63,,,,8,10,5,6,0.6,0.6
2025-08-22T0200,2533A,105.0653,29.5817,内江市,内江二中,,21,18,30,11,22,66,,,,10,12,3,3,0.6,0.6
2025-08-22T0200,2534A,105.0406,29.5822,内江市,内江日报社,,22,11,27,9,19,68,,,,9,11,8,8,0.5,0.5
2025-08-22T0200,2628A,92.0657,31.4846,那曲市,那曲监测站,,23,6,15,3,10,71,,,,9,13,4,5,0.3,0.5
2025-08-22T0200,4243A,92.0515,31.4787,那曲市,那曲市委宣传部,,24,6,9,3,5,76,,,,6,9,5,5,0.4,0.4
2025-08-22T0200,1290A,115.8931,28.6843,南昌市,省外办,,14,14,20,7,12,22,,,,8,7,7,7,0.5,0.5
2025-08-22T0200,1291A,115.8886,28.7003,南昌市,省林业公司,,18,12,15,12,9,24,,,,14,7,4,5,0.5,0.4
2025-08-22T0200,1292A,115.8126,28.7442,南昌市,林科所,,12,12,16,3,5,16,,,,21,14,4,5,0.6,0.6
2025-08-22T0200,1294A,115.8518,28.687,南昌市,建工学校,,18,14,22,12,12,24,,,,20,14,8,8,0.5,0.5
2025-08-22T0200,1295A,115.8921,28.6424,南昌市,象湖,,12,12,15,3,5,23,,,,16,13,8,9,0.4,0.4
2025-08-22T0200,1296A,115.7423,28.7996,南昌市,武术学校,,16,12,13,11,11,20,,,,10,7,9,9,0.6,0.5
2025-08-22T0200,3046A,115.9084,28.6062,南昌市,机电学校,,20,17,21,14,8,22,,,,14,12,7,8,0.5,0.5
2025-08-22T0200,3690A,115.9721,28.7031,南昌市,外国语学校,,21,21,22,3,8,20,,,,17,12,13,9,0.6,0.4
2025-08-22T0200,4192A,115.9316,28.68677,南昌市,南京东路235号,,23,23,24,3,7,22,,,,16,12,11,11,0.6,0.6
2025-08-22T0200,1905A,106.056,30.8064,南充市,西山风景区,,,,,,,,,,,,,,,,
2025-08-22T0200,1906A,106.0789,30.8023,南充市,南充市委,,16,16,32,11,25,37,,,,7,11,4,5,0.4,0.5
2025-08-22T0200,1907A,106.1031,30.8217,南充市,南充炼油厂,,27,27,46,3,29,41,,,,4,9,4,6,0.2,0.3
2025-08-22T0200,4227A,106.1083,30.7884,南充市,梨树横街98号,,23,,32,16,29,46,,,,5,9,3,5,0.2,0.3
2025-08-22T0200,4304A,106.1172,30.843,南充市,清泉寺北路188号,,24,24,41,12,31,44,,,,5,9,4,5,0.3,0.4
2025-08-22T0200,4305A,106.067,30.7616,南充市,同庆路1号,,18,18,32,3,22,50,,,,7,11,4,5,0.3,0.4
2025-08-22T0200,1151A,118.8086,32.1065,南京市,迈皋桥,,23,23,25,14,16,68,,,,20,15,4,4,0.9,0.5
2025-08-22T0200,1152A,118.7538,32.0551,南京市,草场门,,29,29,30,7,17,58,,,,16,13,6,5,1.1,0.8
2025-08-22T0200,1153A,118.7794,32.0745,南京市,山西路,,29,29,34,3,11,67,,,,19,17,4,4,0.9,0.7
2025-08-22T0200,1154A,118.7752,32.0023,南京市,中华门,,31,31,22,3,12,56,,,,8,9,4,4,0.9,0.9
2025-08-22T0200,1155A,118.8109,32.0309,南京市,瑞金路,,21,12,24,9,15,67,,,,15,21,7,7,0.4,0.5
2025-08-22T0200,1156A,118.7997,32.0754,南京市,玄武湖,,20,19,29,3,9,62,,,,11,12,4,4,0.5,0.4
2025-08-22T0200,1157A,118.6414,32.0931,南京市,浦口,,23,23,31,8,14,61,,,,16,13,6,6,0.7,0.6
2025-08-22T0200,1158A,118.7356,31.9996,南京市,奥体中心,,23,23,28,7,16,66,,,,12,12,6,7,0.4,0.5
2025-08-22T0200,1159A,118.9125,32.1028,南京市,仙林大学城,,29,29,35,7,12,58,,,,18,10,9,9,0.7,0.7
2025-08-22T0200,3422A,118.8436,31.9198,南京市,江宁彩虹桥,,36,36,26,9,15,55,,,,11,11,3,4,0.4,0.5
2025-08-22T0200,3427A,118.8554,32.3578,南京市,六合雄州,,37,37,40,3,21,43,,,,24,21,7,6,1.1,0.9
2025-08-22T0200,4249A,118.8708,31.3402,南京市,汶溪路181号,,20,9,17,7,12,62,,,,8,8,5,6,0.4,0.5
2025-08-22T0200,4312A,119.019,31.6512,南京市,中山西路1号,,17,,17,7,14,53,,,,10,11,3,4,0.5,0.5
2025-08-22T0200,1401A,108.3103,22.7881,南宁市,二十一中,,21,21,22,8,9,25,,,,8,8,4,4,0.5,0.5
2025-08-22T0200,1402A,108.3141,22.8528,南宁市,北湖,,24,24,25,12,12,28,,,,7,8,4,4,0.4,0.4
2025-08-22T0200,1403A,108.3206,22.8225,南宁市,市监测站,,18,18,21,10,11,32,,,,6,7,3,3,0.4,0.4
2025-08-22T0200,1404A,108.3829,22.8037,南宁市,大自然花园,,26,26,22,12,10,33,,,,7,5,5,5,0.5,0.6
2025-08-22T0200,1405A,108.4394,22.7904,南宁市,仙葫,,27,27,19,10,8,32,,,,8,6,5,5,0.4,0.4
2025-08-22T0200,1406A,108.2397,22.8467,南宁市,区农职院,,23,23,22,11,9,22,,,,14,12,6,4,0.3,0.3
2025-08-22T0200,1407A,108.3275,22.735,南宁市,英华嘉园,,28,28,22,10,11,24,,,,12,11,2,2,0.4,0.5
2025-08-22T0200,3401A,108.4834,22.7618,南宁市,红星社区,,33,33,23,15,16,33,,,,7,7,3,3,0.4,0.4
2025-08-22T0200,4221A,108.2177,22.7774,南宁市,乐贤路16号,,38,38,26,12,12,7,,,,25,16,8,7,0.6,0.6
2025-08-22T0200,2331A,118.0966,26.6761,南平市,茫荡山,,,,,,,,,,,,,,,,
2025-08-22T0200,2332A,118.1681,26.6369,南平市,南平市监测站,,13,13,10,3,10,7,,,,16,12,4,4,0.4,0.4
2025-08-22T0200,2333A,118.1825,26.6489,南平市,南平铝业有限公司,,16,16,13,3,8,3,,,,18,13,5,5,0.5,0.6
2025-08-22T0200,2334A,118.1756,26.6272,南平市,南平七中,,17,17,13,3,7,6,,,,8,9,2,3,0.6,0.7
2025-08-22T0200,1168A,120.9098,31.9663,南通市,狼山街道,,38,38,32,26,21,72,,,,13,16,2,5,0.8,0.8
2025-08-22T0200,1169A,120.86,32.0005,南通市,虹桥,,49,42,36,34,24,101,,,,14,22,2,3,0.7,0.7
2025-08-22T0200,1170A,120.87,32.02,南通市,城中,,43,43,38,27,19,96,,,,12,16,7,6,0.6,0.6
2025-08-22T0200,1171A,120.94,31.93,南通市,星湖花园,,35,35,29,24,21,92,,,,14,15,3,4,0.5,0.5
2025-08-22T0200,1172A,120.81,32.0417,南通市,紫琅学院,,43,36,35,30,22,94,,,,19,21,8,6,0.7,0.7
2025-08-22T0200,3291A,121.067,32.062,南通市,通州监测站,,35,34,28,24,18,92,,,,8,8,1,1,0.7,0.7
2025-08-22T0200,3432A,120.9348,31.9883,南通市,环境教育馆,,,39,34,25,19,,,,,14,17,3,4,0.4,0.4
2025-08-22T0200,2404A,112.5224,33.0122,南阳市,瓦房庄,,,32,27,15,9,,,,,10,8,6,7,0.4,0.4
2025-08-22T0200,2405A,112.5003,32.9735,南阳市,汉画馆,,35,35,28,7,5,59,,,,8,8,8,8,0.4,0.4
2025-08-22T0200,2406A,112.5573,33.027,南阳市,气象站,,,27,13,9,5,,,,,8,8,8,8,0.3,0.3
2025-08-22T0200,2407A,112.5481,32.9689,南阳市,理工学院,,29,29,21,6,5,58,,,,8,8,8,8,0.4,0.4
2025-08-22T0200,4008A,112.5234,32.9922,南阳市,卧龙区政府,,32,32,23,12,12,69,,,,10,9,6,6,0.5,0.4
2025-08-22T0200,1234A,121.8358,29.911,宁波市,区环保大楼,,41,41,53,21,22,82,,,,10,23,4,5,0.5,0.6
2025-08-22T0200,1235A,121.56,29.82,宁波市,万里学院,,40,40,39,26,25,72,,,,11,16,7,7,0.5,0.5
2025-08-22T0200,1236A,121.713,29.9572,宁波市,龙赛医院,,43,43,49,21,20,72,,,,12,19,4,5,0.4,0.5
2025-08-22T0200,1239A,121.633,29.7733,宁波市,钱湖水厂,,30,30,33,21,23,64,,,,12,11,5,6,0.4,0.5
2025-08-22T0200,1240A,121.5856,29.8635,宁波市,太古小学,,,45,38,19,22,68,,,,10,10,3,4,,0.7
2025-08-22T0200,1241A,121.524,29.8674,宁波市,市环境监测中心,,44,44,37,23,20,56,,,,17,17,9,9,0.7,0.6
2025-08-22T0200,2871A,121.6147,29.9017,宁波市,万里国际学校,,31,31,30,19,23,79,,,,8,11,4,4,0.7,0.7
2025-08-22T0200,3710A,121.5594,29.8975,宁波市,白沙活动中心,,31,31,30,20,19,71,,,,14,15,6,6,0.7,0.7
2025-08-22T0200,2339A,119.5001,26.6946,宁德市,金涵水库,,,,,,,,,,,,,,,,
2025-08-22T0200,2341A,119.5388,26.6612,宁德市,宁德市监测站,,10,,18,6,8,32,,,,6,9,3,3,0.4,0.5
2025-08-22T0200,3209A,119.5231,26.6562,宁德市,宁德一中,,10,6,15,3,7,32,,,,5,6,4,4,0.2,0.2
2025-08-22T0200,2618A,98.8601,25.8567,怒江傈僳族自治州,州监测站,,16,16,19,11,10,27,,,,8,7,4,5,0.4,0.4
2025-08-22T0200,2619A,98.8546,25.8417,怒江傈僳族自治州,泸水一中,,8,8,15,3,7,12,,,,10,9,4,4,0.4,0.4
2025-08-22T0200,1888A,101.6891,26.571,攀枝花市,弄弄坪,,23,23,47,9,21,33,,,,12,19,3,9,0.8,0.9
2025-08-22T0200,1889A,101.5769,26.5928,攀枝花市,河门口,,13,8,27,3,18,41,,,,8,14,6,14,0.5,1.2
2025-08-22T0200,1890A,101.7169,26.585,攀枝花市,炳草岗,,33,33,38,16,20,22,,,,17,20,11,9,0.9,0.8
2025-08-22T0200,1891A,101.7369,26.5008,攀枝花市,仁和,,15,15,27,8,18,7,,,,8,10,6,10,0.6,0.7
2025-08-22T0200,2835A,101.7227,26.567,攀枝花市,四十中小,,29,29,27,14,17,26,,,,11,14,10,11,0.9,0.8
2025-08-22T0200,1604A,122.0303,41.1489,盘锦市,开发区,,,,31,3,22,82,,,,4,11,6,8,0.3,0.6
2025-08-22T0200,1605A,122.0485,41.0883,盘锦市,兴隆台,,26,16,31,8,17,82,,,,4,14,4,5,0.4,0.7
2025-08-22T0200,1606A,121.8297,41.1028,盘锦市,新生街道,,30,16,34,3,15,93,,,,6,10,3,3,0.5,0.8
2025-08-22T0200,1832A,113.3257,33.742,平顶山市,新华旅馆,,,52,34,23,16,,,,,10,9,5,5,0.4,0.3
2025-08-22T0200,1833A,113.2919,33.737,平顶山市,规划设计院,,,51,29,19,13,,,,,15,13,5,4,0.5,0.6
2025-08-22T0200,1834A,113.182,33.774,平顶山市,平顶山工学院,,,45,24,22,8,,,,,11,8,6,5,0.5,0.4
2025-08-22T0200,3204A,113.3025,33.73,平顶山市,规划局,,,48,33,19,10,,,,,13,11,5,5,0.3,0.3
2025-08-22T0200,3594A,112.8867,33.9116,平顶山市,石龙区,颗粒物(PM10),51,52,32,21,15,52,,,,15,10,7,7,0.5,0.4
2025-08-22T0200,2656A,106.6692,35.5461,平凉市,聚贤嘉苑,,50,50,32,25,15,51,,,,23,18,6,6,0.6,0.6
2025-08-22T0200,2657A,106.7021,35.5307,平凉市,博物馆,,50,50,37,13,12,48,,,,24,15,9,9,0.4,0.4
2025-08-22T0200,2347A,114.0997,27.5002,萍乡市,武功山,,6,6,6,3,3,15,,,,5,4,8,8,0.5,0.5
2025-08-22T0200,2348A,113.8385,27.6434,萍乡市,中医院,,18,,12,12,6,44,,,,11,10,15,12,0.5,0.6
2025-08-22T0200,2349A,113.8493,27.6253,萍乡市,市政府车库,,9,8,12,3,8,26,,,,9,9,10,10,0.3,0.5
2025-08-22T0200,2350A,113.8676,27.6435,萍乡市,市环保局,,16,13,16,11,12,35,,,,8,8,7,7,0.4,0.5
2025-08-22T0200,2351A,113.866,27.6198,萍乡市,安源区政府,,26,26,22,14,9,20,,,,8,7,11,12,0.4,0.5
2025-08-22T0200,2319A,119.0141,25.4325,莆田市,荔城区仓后路,,29,29,21,3,8,14,,,,12,10,7,7,0.5,0.6
2025-08-22T0200,2320A,119.0015,25.4553,莆田市,莆田市监测站,,11,11,14,3,5,19,,,,6,6,4,5,0.3,0.3
2025-08-22T0200,2321A,119.1119,25.4561,莆田市,涵江区六中,,19,19,27,3,14,18,,,,16,16,6,6,0.5,0.6
2025-08-22T0200,2322A,119.1013,25.3215,莆田市,秀屿区政府,,28,28,26,17,13,23,,,,24,20,4,4,0.5,0.3
2025-08-22T0200,2323A,118.981,25.4792,莆田市,东圳水库,,,,,,,,,,,,,,,,
2025-08-22T0200,2392A,115.0312,35.7636,濮阳市,环保局,,24,16,23,8,10,76,,,,9,10,3,3,0.4,0.5
2025-08-22T0200,2394A,115.0574,35.7609,濮阳市,油田运输公司,,24,18,25,7,11,75,,,,7,8,2,2,0.4,0.4
2025-08-22T0200,3021A,115,35.7668,濮阳市,濮水河管理处,,,20,27,,,63,,,,10,8,2,2,0.4,0.4
2025-08-22T0200,4216A,115.0924,35.7686,濮阳市,任丘路479号,,29,29,30,10,10,69,,,,7,8,2,2,0.5,0.5
2025-08-22T0200,2601A,100.98,22.7633,普洱市,市环保局,,43,,22,30,15,42,,,,3,3,6,7,0.5,0.5
2025-08-22T0200,2602A,100.9817,22.8322,普洱市,普洱第二中学,,22,17,27,15,13,35,,,,4,4,5,6,0.4,0.4
2025-08-22T0200,2262A,131.0518,45.8751,七台河市,新一中,,18,16,13,3,6,56,,,,18,15,11,10,0.9,0.8
2025-08-22T0200,3345A,131.0577,45.7879,七台河市,中波台,,14,,11,7,9,43,,,,16,22,7,8,0.4,0.5
2025-08-22T0200,3637A,131.0176,45.7761,七台河市,人民广场,,18,18,26,8,10,50,,,,15,17,10,10,0.5,0.5
2025-08-22T0200,3684A,130.8781,45.8222,七台河市,新建矿广场,,16,7,23,3,8,50,,,,13,14,9,11,0.3,0.3
2025-08-22T0200,1779A,123.9305,47.3636,齐齐哈尔市,安居小区,,15,15,28,6,6,38,,,,4,14,3,3,0.4,0.5
2025-08-22T0200,1780A,123.9488,47.3386,齐齐哈尔市,中心广场,,15,15,18,3,5,42,,,,5,10,5,5,0.4,0.4
2025-08-22T0200,1781A,123.9483,47.3227,齐齐哈尔市,农牧车辆厂,,19,19,23,3,8,46,,,,3,8,6,6,0.2,0.3
2025-08-22T0200,1783A,123.945,47.2988,齐齐哈尔市,市环境监测站,,16,10,18,3,6,51,,,,4,10,6,6,0.4,0.5
2025-08-22T0200,3662A,123.6333,47.2075,齐齐哈尔市,富区青少年活动中心,,24,6,24,3,8,76,,,,1,6,4,5,0.4,0.4
2025-08-22T0200,2591A,107.9783,26.5747,黔东南苗族侗族自治州,市环境监测站,,18,,8,12,12,50,,,,1,3,2,2,0.4,0.4
2025-08-22T0200,2881A,107.8908,26.5311,黔东南苗族侗族自治州,凯里学院,,17,6,5,3,7,53,,,,5,5,3,3,0.4,0.4
2025-08-22T0200,2593A,107.5228,26.2403,黔南布依族苗族自治州,小围寨,,12,9,7,3,2,37,,,,4,3,3,3,0.2,0.2
2025-08-22T0200,3538A,107.5175,26.2978,黔南布依族苗族自治州,沙坝,,12,12,12,3,1,28,,,,5,4,4,4,0.3,0.2
2025-08-22T0200,2589A,104.9022,25.0925,黔西南布依族苗族自治州,场坝街,,12,11,13,3,7,37,,,,4,5,7,5,0.3,0.3
2025-08-22T0200,2590A,104.8811,25.0992,黔西南布依族苗族自治州,坪东大道,,25,25,17,6,7,35,,,,3,5,1,2,0.4,0.4
2025-08-22T0200,2502A,108.6236,21.9667,钦州市,市环保站,,34,34,22,14,9,20,,,,15,12,4,4,0.6,0.5
2025-08-22T0200,2503A,108.6549,21.9481,钦州市,沙埠小学,,31,31,28,16,13,17,,,,12,14,3,2,0.5,0.5
2025-08-22T0200,2504A,108.5989,21.7431,钦州市,港区一小,,46,46,36,13,11,11,,,,27,21,3,3,0.5,0.8
2025-08-22T0200,3404A,108.5959,21.9633,钦州市,北职校,,37,37,24,23,12,21,,,,14,12,4,3,0.6,0.5
2025-08-22T0200,1043A,119.7493,40.0116,秦皇岛市,第一关,,17,,24,11,13,54,,,,13,24,5,5,0.3,0.4
2025-08-22T0200,1044A,119.5897,39.9499,秦皇岛市,监测站,,24,13,36,3,9,74,,,,5,18,5,4,0.4,0.4
2025-08-22T0200,1046A,119.5251,39.9041,秦皇岛市,建设大厦,,22,12,30,6,10,70,,,,6,22,7,6,0.5,0.4
2025-08-22T0200,3132A,119.610547,39.943889,秦皇岛市,文明里,,,,35,,17,,,91,,,16,,5,,0.3
2025-08-22T0200,4198A,119.5090,39.8253,秦皇岛市,北戴河轮滑馆,,28,28,27,6,10,77,,,,3,6,2,2,0.3,0.4
2025-08-22T0200,1307A,120.6659,36.2403,青岛市,仰口,,26,21,28,12,16,82,,,,3,5,9,9,0.9,0.9
2025-08-22T0200,1310A,120.4134,36.0658,青岛市,市南区东部子站,,30,27,22,12,10,94,,,,1,3,6,6,0.1,0.1
2025-08-22T0200,1311A,120.3664,36.1032,青岛市,四方区子站,,,19,20,9,12,,,,,2,2,6,6,0.2,0.2
2025-08-22T0200,1312A,120.2994,36.054,青岛市,市南区西部子站,,28,24,21,10,9,88,,,,2,12,4,5,0.5,0.6
2025-08-22T0200,1313A,120.4581,36.0858,青岛市,崂山区子站,,,41,29,12,8,,,,,1,3,7,7,0.2,0.2
2025-08-22T0200,1315A,120.3999,36.3083,青岛市,城阳区子站,,27,19,26,10,12,85,,,,4,7,7,7,0.4,0.5
2025-08-22T0200,1966A,120.0405,35.8735,青岛市,黄岛区4号,,,19,22,3,6,,,,,2,4,5,5,0.4,0.5
2025-08-22T0200,3362A,120.5014,36.4034,青岛市,即墨2号,,28,28,28,10,10,85,,,,6,6,3,4,0.2,0.2
2025-08-22T0200,3642A,120.3503,36.0736,青岛市,市北区南部,,49,28,20,9,7,156,,,,8,8,5,5,0.6,0.6
2025-08-22T0200,3643A,120.3948,36.1805,青岛市,李沧区北部,,27,14,19,12,16,85,,,,3,7,4,6,0.2,0.4
2025-08-22T0200,4290A,120.1969,35.9546,青岛市,珠江路669号,,27,17,16,10,11,85,,,,2,3,5,5,0.3,0.4
2025-08-22T0200,1702A,113.0426,23.691,清远市,环保大楼,,12,9,26,3,9,38,,,,8,15,10,8,0.7,0.8
2025-08-22T0200,1703A,113.0208,23.7106,清远市,凤城街办,,10,10,24,3,12,30,,,,14,20,8,7,0.4,0.5
2025-08-22T0200,3025A,113.0477,23.6344,清远市,技师学院,,14,14,24,6,10,29,,,,12,17,9,7,0.4,0.4
2025-08-22T0200,3318A,112.9903,23.7403,清远市,清新太和,,18,18,24,6,12,22,,,,13,19,8,9,0.4,0.5
2025-08-22T0200,3455A,113.076,23.7198,清远市,清城东城,,15,15,32,3,12,26,,,,10,14,7,7,0.6,0.5
2025-08-22T0200,2661A,107.6325,35.7357,庆阳市,庆阳五中,颗粒物(PM10),52,53,42,14,14,76,,,,7,6,7,7,0.4,0.4
2025-08-22T0200,2662A,107.6364,35.7067,庆阳市,市环保局,颗粒物(PM10),55,60,44,20,14,52,,,,22,6,2,3,0.4,0.3
2025-08-22T0200,1916A,103.7897,25.5035,曲靖市,环境监测站,,22,22,14,6,6,15,,,,12,9,4,5,0.4,0.4
2025-08-22T0200,1917A,103.8,25.5364,曲靖市,烟厂办公区,,25,25,12,15,8,15,,,,12,8,5,4,0.5,0.7
2025-08-22T0200,3376A,103.7947,25.462,曲靖市,南苑二区,,12,12,10,7,5,22,,,,7,7,3,4,0.5,0.5
2025-08-22T0200,3377A,103.7444,25.5261,曲靖市,曲靖师范学院,,9,,12,6,7,21,,,,12,10,5,6,0.4,0.4
2025-08-22T0200,1264A,118.8692,28.9398,衢州市,环保大楼,,27,27,24,15,13,16,,,,20,13,2,3,0.4,0.4
2025-08-22T0200,1265A,118.8709,28.9666,衢州市,实验学校,,31,31,28,19,14,19,,,,21,15,2,4,0.4,0.4
2025-08-22T0200,1266A,118.8621,28.9808,衢州市,衢州学院,,32,27,24,22,15,23,,,,20,16,3,4,0.3,0.4
2025-08-22T0200,1611A,118.5819,24.9117,泉州市,涂山街,,46,46,30,27,15,1,,,,30,20,3,3,0.8,0.6
2025-08-22T0200,1612A,118.5972,24.8978,泉州市,津头埔,,42,42,28,25,15,0,,,,34,22,3,4,0.7,0.6
2025-08-22T0200,1613A,118.6663,24.9424,泉州市,万安,,32,32,31,14,12,4,,,,27,25,2,3,0.6,0.5
2025-08-22T0200,1614A,118.6117,24.9604,泉州市,清源山,,,,,,,,,,,,,,,,
2025-08-22T0200,3529A,118.6333,24.9264,泉州市,城华南路,,32,32,21,15,12,10,,,,22,18,2,4,0.6,0.5
2025-08-22T0200,2626A,88.8876,29.2718,日喀则市,日喀则监测站,,26,6,5,3,1,83,,,,3,7,11,11,0.2,0.3
2025-08-22T0200,3726A,88.8781,29.2426,日喀则市,林业技术推广中心,,20,6,7,3,1,64,,,,3,4,6,6,0.3,0.3
2025-08-22T0200,1659A,119.471,35.4209,日照市,监测站,,24,17,33,9,17,74,,,,11,16,8,10,0.6,0.7
2025-08-22T0200,1660A,119.523,35.4216,日照市,市政府广场,,29,29,36,18,14,59,,,,22,18,12,9,1.2,0.9
2025-08-22T0200,1661A,119.5587,35.4044,日照市,港务局,,,,38,,27,61,,,,23,17,10,8,0.8,0.8
2025-08-22T0200,3507A,119.5328,35.4625,日照市,职业技术学院,,29,29,34,12,16,62,,,,24,19,9,7,0.8,0.7
2025-08-22T0200,3604A,119.3266,35.1044,日照市,岚山环保分局,,29,24,33,10,15,91,,,,9,12,7,9,0.7,0.8
2025-08-22T0200,1835A,111.1922,34.7752,三门峡市,市政府,颗粒物(PM10),54,57,48,18,17,40,,,,31,15,8,7,0.5,0.5
2025-08-22T0200,1836A,111.1587,34.7942,三门峡市,开发区,,50,50,41,18,16,44,,,,15,11,4,5,0.3,0.3
2025-08-22T0200,1838A,111.143,34.7955,三门峡市,风景区,,29,29,56,12,20,51,,,,9,8,4,4,0.5,0.4
2025-08-22T0200,3039A,111.1911,34.7829,三门峡市,三门峡市第一小学,颗粒物(PM10),58,66,46,17,15,42,,,,24,12,6,7,0.4,0.4
2025-08-22T0200,3598A,111.1,34.7167,三门峡市,富达温泉假日酒店,颗粒物(PM10),56,61,60,27,28,35,,,,35,14,7,6,0.6,0.5
2025-08-22T0200,2324A,117.6211,26.2625,三明市,三钢,,26,18,19,18,10,15,,,,16,19,7,8,0.6,1.4
2025-08-22T0200,2325A,117.635,26.2714,三明市,三明二中,,15,15,19,8,12,18,,,,14,16,6,4,0.5,0.8
2025-08-22T0200,2326A,117.6028,26.2378,三明市,三元区政府,,23,23,18,3,12,9,,,,19,17,5,3,0.4,0.6
2025-08-22T0200,2327A,117.7275,26.3108,三明市,洋溪,,,,,,,,,,,,,,,,
2025-08-22T0200,1876A,109.5078,18.2489,三亚市,河东子站,,10,9,16,7,9,22,,,,6,3,3,3,0.6,0.5
2025-08-22T0200,1877A,109.4964,18.2681,三亚市,河西子站,,13,13,18,3,3,22,,,,7,8,2,2,0.4,0.4
2025-08-22T0200,3540A,109.7348,18.3443,三亚市,君悦子站,,25,25,22,8,7,23,,,,10,7,3,3,0.2,0.2
2025-08-22T0200,2624A,91.7608,29.2313,山南市,山南监测站,,10,10,5,3,2,26,,,,13,10,2,3,0.3,0.3
2025-08-22T0200,2625A,91.7706,29.2436,山南市,山南人民医院,,12,6,7,3,3,38,,,,4,8,3,4,0.3,0.3
2025-08-22T0200,1674A,116.6794,23.3667,汕头市,金平子站,,13,13,20,8,11,30,,,,16,14,3,2,0.5,0.5
2025-08-22T0200,1675A,116.7244,23.3633,汕头市,龙湖子站,,24,24,17,3,10,34,,,,13,11,8,7,0.4,0.5
2025-08-22T0200,1676A,116.7258,23.2775,汕头市,濠江子站,,21,21,19,9,10,26,,,,11,12,6,6,0.6,0.6
2025-08-22T0200,1677A,116.7519,23.4714,汕头市,澄海子站,,34,34,33,7,14,15,,,,27,14,7,4,0.7,0.7
2025-08-22T0200,1678A,116.6092,23.2539,汕头市,潮阳子站,,26,26,20,10,10,19,,,,16,9,5,5,0.6,0.6
2025-08-22T0200,3444A,116.454,23.2684,汕头市,潮南峡山,,,50,25,19,12,,,,,22,12,7,6,0.7,0.7
2025-08-22T0200,3624A,116.4069,23.2533,汕头市,潮南子站,,40,40,33,19,16,21,,,,12,10,5,6,0.6,0.6
2025-08-22T0200,1693A,115.3653,22.775,汕尾市,市环保局,,14,11,13,3,5,44,,,,6,8,2,3,0.4,0.5
2025-08-22T0200,1694A,115.3706,22.7898,汕尾市,市政府,,21,21,15,8,6,41,,,,7,8,3,4,0.6,0.6
2025-08-22T0200,1695A,115.3622,22.7925,汕尾市,新城中学,,22,22,20,8,6,34,,,,8,9,3,3,0.5,0.5
2025-08-22T0200,2645A,109.9154,33.8715,商洛市,监测站,,41,41,56,16,23,69,,,,11,8,4,5,0.4,0.5
2025-08-22T0200,3045A,109.9643,33.8471,商洛市,商州区中学,,35,35,70,9,19,63,,,,12,10,4,4,0.4,0.4
2025-08-22T0200,2408A,115.6702,34.4285,商丘市,环境监测站,,,26,27,12,13,,,,,10,7,3,2,0.5,0.5
2025-08-22T0200,2409A,115.6458,34.4045,商丘市,粮食局,,,22,26,14,11,,,,,7,6,4,3,0.5,0.5
2025-08-22T0200,2410A,115.6293,34.3948,商丘市,睢阳区环保局,,,28,35,11,14,,,,,10,8,3,3,0.4,0.4
2025-08-22T0200,3171A,115.6071,34.4465,商丘市,梁园区档案局,,,30,29,16,13,,,,,8,7,,2,0.5,0.4
2025-08-22T0200,1141A,121.4,31.238,上海市,普陀,,44,44,46,24,27,74,,,,24,18,6,6,0.6,0.6
2025-08-22T0200,1142A,121.478,31.2036,上海市,十五厂,,48,44,47,33,31,65,,,,19,16,8,8,0.6,0.6
2025-08-22T0200,1143A,121.467,31.3008,上海市,虹口,颗粒物(PM10),52,53,49,31,29,69,,,,21,16,6,6,0.8,0.8
2025-08-22T0200,1147A,121.425,31.2261,上海市,静安监测站,,45,45,46,26,30,71,,,,24,17,4,4,0.6,0.6
2025-08-22T0200,1148A,121.703,31.1907,上海市,浦东川沙,,,55,49,24,30,,,,,31,24,6,6,0.6,0.6
2025-08-22T0200,1149A,121.533,31.2284,上海市,浦东新区监测站,,47,47,45,24,24,59,,,,20,12,8,8,0.8,0.8
2025-08-22T0200,1150A,121.577,31.2071,上海市,浦东张江,,,51,48,30,29,,,,,28,15,5,6,0.8,0.7
2025-08-22T0200,3265A,121.4316,31.3322,上海市,宝山庙行,颗粒物(PM10),52,53,52,31,27,73,,,,22,20,6,8,0.5,0.5
2025-08-22T0200,3266A,121.8791,31.4662,上海市,崇明上实东滩,,30,30,34,18,21,54,,,,27,14,6,5,0.6,0.7
2025-08-22T0200,3268A,121.3162,31.2838,上海市,嘉定南翔,颗粒物(PM10),58,66,48,28,30,53,,,,43,26,4,4,0.4,0.4
2025-08-22T0200,3269A,121.3359,30.7456,上海市,金山新城,,37,37,39,25,28,50,,,,22,11,4,4,0.7,0.7
2025-08-22T0200,3270A,121.4996,31.0739,上海市,闵行浦江,,34,34,38,23,26,66,,,,12,13,5,5,1.2,1.2
2025-08-22T0200,3271A,121.2886,31.1663,上海市,青浦徐泾,,42,42,40,26,28,69,,,,20,17,6,7,0.7,0.7
2025-08-22T0200,3272A,121.2186,31.0378,上海市,松江图书馆,,36,36,39,23,31,59,,,,23,20,7,8,0.6,0.6
2025-08-22T0200,3273A,121.3902,31.2059,上海市,长宁仙霞,,45,45,46,24,27,56,,,,22,17,8,8,0.7,0.7
2025-08-22T0200,3274A,121.7965,31.0507,上海市,浦东惠南,,,44,38,27,33,,,,,24,14,10,10,0.9,0.8
2025-08-22T0200,3544A,121.4891,30.925,上海市,奉贤南桥新城,,38,38,41,22,30,61,,,,14,12,5,5,0.8,0.7
2025-08-22T0200,4183A,121.4174,31.16637,上海市,冠生园路458号,颗粒物(PM10),51,51,44,25,28,55,,,,26,19,4,4,0.8,0.8
2025-08-22T0200,4205A,121.5419,31.2683,上海市,宁武路151号,,50,50,55,27,27,53,,,,32,27,4,3,0.3,0.3
2025-08-22T0200,2381A,118.005,28.4572,上饶市,百草园,,,,,,,,,,,,,,,,
2025-08-22T0200,2382A,117.9756,28.4436,上饶市,市监测站,,14,14,24,3,13,20,,,,12,13,4,9,0.4,0.4
2025-08-22T0200,2383A,117.9519,28.4628,上饶市,凤凰光学,,20,20,30,6,15,25,,,,7,11,6,15,0.1,0.5
2025-08-22T0200,3685A,117.897,28.4315,上饶市,双创科技城,,17,17,24,8,12,34,,,,8,12,6,10,0.3,0.4
2025-08-22T0200,4211A,118.1904,28.4448,上饶市,裕丰大道,,20,16,15,14,9,37,,,,8,10,28,20,0.3,0.4
2025-08-22T0200,1669A,113.5824,24.7733,韶关市,市八中,,10,6,30,3,12,30,,,,12,11,9,11,0.6,0.6
2025-08-22T0200,1671A,113.5917,24.7972,韶关市,园林处,,15,15,23,3,12,30,,,,7,9,10,11,0.3,0.4
2025-08-22T0200,1673A,113.5971,24.6863,韶关市,曲江监测站,,13,13,25,3,12,22,,,,23,18,9,10,0.5,0.6
2025-08-22T0200,2809A,113.6668,24.7756,韶关市,大学路288号,,11,11,29,3,12,26,,,,10,10,13,15,0.6,0.6
2025-08-22T0200,3622A,113.5556,24.8082,韶关市,碧湖山庄,,15,15,28,3,10,25,,,,8,11,9,10,0.5,0.6
2025-08-22T0200,2462A,111.5239,27.3033,邵阳市,市水土所,,,,,,,,,,,,,,,,
2025-08-22T0200,2464A,111.5283,27.2442,邵阳市,市化工厂,,,16,20,3,8,15,,,,11,13,,8,0.7,0.7
2025-08-22T0200,2466A,111.4328,27.2272,邵阳市,市环保局,,,18,21,6,11,32,,,,,10,8,8,0.3,0.1
2025-08-22T0200,4218A,111.4460,27.2472,邵阳市,北塔二期4-26地块,,,15,21,3,9,8,,,,12,10,,5,0.3,0.3
2025-08-22T0200,4219A,111.4739,27.2282,邵阳市,邵水西路287号,,9,9,12,3,8,22,,,,12,12,8,8,0.4,0.5
2025-08-22T0200,1247A,120.6053,29.9928,绍兴市,城东开发委,,20,20,26,8,18,58,,,,14,13,5,6,0.3,0.3
2025-08-22T0200,2921A,120.5483,30.0003,绍兴市,树下王站,,19,16,27,8,18,60,,,,14,11,5,6,0.3,0.3
2025-08-22T0200,3408A,120.5683,29.9361,绍兴市,绍兴中专,,22,22,33,12,20,54,,,,20,19,6,6,0.5,0.6
2025-08-22T0200,3409A,120.4906,30.0861,绍兴市,柯桥区政府,,33,33,39,10,21,70,,,,11,13,5,13,0.4,0.5
2025-08-22T0200,3410A,120.8752,30.0249,绍兴市,重华小学,,22,22,28,14,21,47,,,,16,14,9,8,0.4,0.4
2025-08-22T0200,3411A,120.8369,30.0137,绍兴市,上虞中学,,24,24,33,16,24,31,,,,36,22,17,9,0.4,0.4
2025-08-22T0200,3560A,120.4722,30.0415,绍兴市,柯桥妇保,,22,18,32,11,21,68,,,,12,12,4,11,0.5,0.6
2025-08-22T0200,3658A,120.6153,30.0764,绍兴市,袍江中学,,20,17,31,10,19,63,,,,13,14,2,3,0.4,0.5
2025-08-22T0200,1356A,114.1063,22.5545,深圳市,通心岭子站,,18,18,14,8,6,1,,,,33,13,4,4,0.6,0.5
2025-08-22T0200,1357A,114.117,22.5625,深圳市,洪湖,,,22,16,3,6,,,,,30,10,7,7,0.6,0.6
2025-08-22T0200,1358A,113.987,22.5417,深圳市,华侨城,,18,18,15,11,7,12,,,,19,17,6,7,0.5,0.5
2025-08-22T0200,1359A,113.9181,22.5171,深圳市,南海子站,,18,18,18,3,9,16,,,,26,21,5,5,0.6,0.6
2025-08-22T0200,1360A,114.2458,22.5689,深圳市,盐田,,26,26,21,13,9,0,,,,32,23,9,8,0.5,0.5
2025-08-22T0200,1361A,114.2283,22.7244,深圳市,龙岗,,29,29,22,14,10,1,,,,41,20,6,6,1.0,0.9
2025-08-22T0200,1363A,114.494,22.5422,深圳市,南澳,,16,16,15,9,6,15,,,,7,5,6,6,0.5,0.5
2025-08-22T0200,1364A,114.41,22.6342,深圳市,葵涌,,34,34,18,18,9,4,,,,17,12,7,8,0.6,0.6
2025-08-22T0200,1365A,114.297,22.5978,深圳市,梅沙,,15,15,15,3,5,6,,,,20,11,7,7,0.6,0.7
2025-08-22T0200,1366A,114.0678,22.738,深圳市,观澜,颗粒物(PM10),51,52,34,10,12,0,,,,32,26,8,7,0.6,0.6
2025-08-22T0200,3305A,114.0731,22.559,深圳市,莲花,,,21,18,9,8,,,,,36,16,7,7,0.8,0.7
2025-08-22T0200,3306A,114.0261,22.6198,深圳市,民治,,21,13,16,8,12,2,,,,42,25,6,7,0.5,0.5
2025-08-22T0200,3307A,114.1871,22.6451,深圳市,横岗,,42,42,22,24,12,1,,,,34,25,6,6,0.8,0.6
2025-08-22T0200,3447A,114.3551,22.7151,深圳市,坪山,,24,24,16,10,8,8,,,,25,13,8,8,0.5,0.5
2025-08-22T0200,3623A,113.8953,22.5861,深圳市,西乡,,22,22,23,3,8,10,,,,35,24,6,8,0.5,0.5
2025-08-22T0200,1098A,123.6836,41.9339,沈阳市,森林路,,,,,,,,,,,,,,,,
2025-08-22T0200,1099A,123.505,41.7406,沈阳市,浑南东路,,27,21,20,13,11,85,,,,12,18,3,4,0.7,0.8
2025-08-22T0200,1100A,123.4231,41.6989,沈阳市,新秀街,,30,21,24,14,10,94,,,,7,15,3,2,0.6,0.7
2025-08-22T0200,1102A,123.5903,41.8411,沈阳市,东陵路,,31,31,30,12,10,77,,,,8,14,5,7,0.5,0.7
2025-08-22T0200,1103A,123.4264,41.8467,沈阳市,陵东街,,30,18,20,12,12,96,,,,4,16,3,4,0.5,0.7
2025-08-22T0200,1104A,123.4114,41.7653,沈阳市,文化路,,31,31,29,20,12,98,,,,2,8,5,7,0.6,0.6
2025-08-22T0200,1105A,123.4678,41.7867,沈阳市,小河沿,,25,24,23,13,11,79,,,,8,12,3,3,0.7,0.8
2025-08-22T0200,1106A,123.4017,41.7972,沈阳市,太原街,,33,33,34,14,8,103,,,,1,12,3,4,0.6,0.7
2025-08-22T0200,1108A,123.3783,41.9228,沈阳市,京沈街,,30,29,30,14,14,95,,,,4,18,6,8,0.7,1
2025-08-22T0200,2897A,123.2444,41.7347,沈阳市,沈辽西路,,28,28,29,13,12,83,,,,5,14,4,6,0.6,0.8
2025-08-22T0200,2900A,123.5953,41.9086,沈阳市,裕农路,,25,21,20,14,11,77,,,,5,9,4,5,0.6,0.7
2025-08-22T0200,2428A,111.0419,32.395,十堰市,武当山,,11,11,23,3,10,34,,,,3,3,6,6,0.7,0.7
2025-08-22T0200,2429A,110.78,32.6494,十堰市,滨河新村,,,26,36,10,16,,,,,9,10,11,11,0.4,0.5
2025-08-22T0200,2430A,110.7258,32.6389,十堰市,刘家沟,,,35,33,16,18,,,,,6,8,8,8,0.5,0.6
2025-08-22T0200,2431A,110.8839,32.5714,十堰市,铁二处,,,20,18,19,16,,,,,5,8,7,8,0.5,0.5
2025-08-22T0200,3545A,110.8054,32.8401,十堰市,郧阳区金沙路,,25,25,34,15,16,51,,,,3,4,6,7,0.5,0.5
2025-08-22T0200,2709A,86.0497,44.2967,石河子市,艾青诗歌馆,,37,22,40,10,21,117,,,,2,22,9,10,0.2,0.4
2025-08-22T0200,3442A,86.047,44.2331,石河子市,南区管委会,,39,,31,7,12,123,,,,2,11,10,11,0.3,0.3
2025-08-22T0200,4051A,86.0791,44.3017,石河子市,世纪广场,颗粒物(PM10),54,57,45,3,14,117,,,,1,17,5,7,0.4,0.6
2025-08-22T0200,1029A,114.4422,38.0444,石家庄市,职工医院,,24,24,34,11,17,52,,,,12,6,3,3,0.5,0.6
2025-08-22T0200,1030A,114.6063,38.0266,石家庄市,高新区,,29,26,36,20,24,22,,,,31,9,3,3,0.5,0.7
2025-08-22T0200,1031A,114.4898,38.1328,石家庄市,西北水源,,41,41,34,14,16,40,,,,16,8,2,2,0.6,0.6
2025-08-22T0200,1032A,114.4586,38.0058,石家庄市,西南高教,,20,14,31,14,20,42,,,,16,6,3,3,0.4,0.5
2025-08-22T0200,1033A,114.5331,38.0178,石家庄市,世纪公园,,24,24,40,13,22,35,,,,11,4,2,2,0.5,0.6
2025-08-22T0200,1034A,114.509,38.0457,石家庄市,人民会堂,,36,36,34,9,16,50,,,,14,7,3,3,0.4,0.5
2025-08-22T0200,1035A,114.3524,37.8911,石家庄市,封龙山,,43,43,39,28,20,75,,,,11,6,6,6,0.6,0.7
2025-08-22T0200,2862A,114.5481,38.0378,石家庄市,22中南校区,,38,38,41,18,26,40,,,,12,4,1,1,0.4,0.5
2025-08-22T0200,3456A,114.289,38.0906,石家庄市,鹿泉一中,,41,41,44,27,22,57,,,,12,8,3,3,0.6,0.7
2025-08-22T0200,3573A,114.8506765,38.0322033,石家庄市,藁城区实验学校,,30,30,44,14,21,43,,,,19,11,3,3,0.3,0.4
2025-08-22T0200,4024A,114.6549,37.9020,石家庄市,栾城区星河路,,20,20,42,11,16,44,,,,11,8,4,3,0.3,0.5
2025-08-22T0200,4314A,114.0494,38.059,石家庄市,矿区区委大楼,,33,33,31,3,14,20,,,,30,12,5,5,0.4,0.4
2025-08-22T0200,1947A,106.3394,38.817,石嘴山市,沙湖旅游区,,,,,,,,,,,,,,,,
2025-08-22T0200,1948A,106.3668,39.0145,石嘴山市,大武口朝阳西街,,38,38,30,12,10,58,,,,21,17,14,17,0.4,0.4
2025-08-22T0200,1949A,106.7704,39.2282,石嘴山市,惠农南大街,,29,29,34,9,10,54,,,,19,20,9,11,0.5,0.6
2025-08-22T0200,1950A,106.7099,39.1325,石嘴山市,红果子镇惠新街,,32,32,30,11,11,52,,,,28,20,14,7,0.4,0.5
2025-08-22T0200,3520A,106.3495,38.9836,石嘴山市,妇女儿童医院,,38,38,26,18,9,56,,,,20,14,8,9,0.4,0.4
2025-08-22T0200,3521A,106.7492,39.2069,石嘴山市,石大公路,,36,36,34,13,13,55,,,,26,26,7,8,0.5,0.6
2025-08-22T0200,2248A,131.1511,46.6937,双鸭山市,双合村,,41,41,29,19,11,7,,,,33,18,17,11,1.2,0.7
