timepoint,stationcode,longitude,latitude,area,positionname,primarypollutant,aqi,pm10,pm10_24h,pm2_5,pm2_5_24h,o3,o3_24h,o3_8h,o3_8h_24h,no2,no2_24h,so2,so2_24h,co,co_24h
2025-08-22T1400,2566A,102.1879,31.914,阿坝藏族羌族自治州,州农科所,,24,11,19,6,9,74,,50,50,8,6,15,15,0.0,0
2025-08-22T1400,2568A,102.2502,31.8896,阿坝藏族羌族自治州,马师校,,23,10,12,9,14,71,,45,45,6,5,8,8,0.7,0.7
2025-08-22T1400,3994A,102.2165,31.9024,阿坝藏族羌族自治州,马尔康中学西区,,25,,12,7,14,79,,50,50,3,3,8,8,0.6,0.6
2025-08-22T1400,2695A,80.292,41.1694,阿克苏地区,电视台,,43,43,62,13,26,122,,82,82,4,9,4,5,0.5,0.6
2025-08-22T1400,2696A,80.2613,41.1551,阿克苏地区,艺术中心,,40,34,54,16,29,125,,74,74,7,18,3,4,0.3,0.5
2025-08-22T1400,2204A,105.6467,38.8363,阿拉善盟,西城区西花园,,42,16,18,6,11,134,,112,112,7,12,10,9,0.8,0.8
2025-08-22T1400,2205A,105.6985,38.8411,阿拉善盟,蒙二幼,,39,23,20,3,5,122,,104,104,3,5,10,9,0.4,0.4
2025-08-22T1400,2206A,105.724,38.8516,阿拉善盟,环保局新楼,,38,12,11,3,4,119,,109,109,4,5,10,9,0.4,0.4
2025-08-22T1400,2708A,88.1264,47.8517,阿勒泰地区,市站,,28,24,25,3,5,89,,69,69,12,13,3,3,0.3,0.3
2025-08-22T1400,2630A,80.1161,32.5,阿里地区,阿里监测站,,34,7,9,3,4,106,,69,69,2,12,6,5,0.1,0.2
2025-08-22T1400,3192A,80.0903,32.5028,阿里地区,阿里藏医院,,34,6,8,3,2,108,,86,83,1,3,5,5,0.1,0.1
2025-08-22T1400,2642A,109.0318,32.6537,安康市,香溪洞,,30,30,18,6,4,70,,48,43,4,5,6,6,0.7,0.6
2025-08-22T1400,2644A,109.0072,32.6975,安康市,汉滨区检察院,,31,31,21,12,7,66,,40,39,4,7,5,5,0.4,0.4
2025-08-22T1400,4054A,109.0325,32.6913,安康市,市邮政管理局,,32,32,21,14,9,69,,41,41,4,6,5,5,0.5,0.5
2025-08-22T1400,2291A,117.0809,30.5177,安庆市,环科院,,35,19,13,15,9,112,,67,67,4,9,6,5,0.6,0.5
2025-08-22T1400,2292A,117.0331,30.5119,安庆市,马山宾馆,,33,22,15,14,8,103,,60,60,10,13,6,5,0.5,0.4
2025-08-22T1400,2294A,116.9896,30.6145,安庆市,安庆大学,,38,27,17,17,10,120,,76,76,6,10,6,5,0.5,0.4
2025-08-22T1400,3173A,117.0598,30.5351,安庆市,市人大,,35,26,14,12,8,112,,68,68,6,10,6,5,0.5,0.4
2025-08-22T1400,3122A,105.9606,26.2611,安顺市,伍家关,,,,6,5,5,56,,57,57,3,4,5,4,0.5,0.5
2025-08-22T1400,3123A,105.9408,26.2431,安顺市,凤凰山,,16,6,8,3,6,49,,50,50,4,4,6,6,0.4,0.4
2025-08-22T1400,3124A,105.9439,26.2564,安顺市,金钟山,,,6,7,3,5,51,,53,53,4,3,5,6,,0.5
2025-08-22T1400,3125A,105.8983,26.2481,安顺市,娄家坡,,16,6,6,3,5,49,,51,51,2,2,7,7,0.5,0.5
2025-08-22T1400,1818A,114.4839,36.0621,安阳市,棉研所,,,,,,,,,,,,,,,,
2025-08-22T1400,1819A,114.3551,36.1017,安阳市,红庙街,,44,30,31,9,8,139,,82,82,6,16,7,10,0.5,0.6
2025-08-22T1400,1820A,114.361,36.0681,安阳市,银杏小区,,43,35,33,14,10,137,,94,94,7,18,6,8,0.3,0.5
2025-08-22T1400,3141A,114.3922,36.0878,安阳市,信访局,,47,35,28,14,9,150,,90,90,7,16,6,9,0.6,0.8
2025-08-22T1400,3669A,114.4705,36.0637,安阳市,左辅环卫站,,44,33,29,8,8,140,,87,87,8,16,6,7,0.4,0.5
2025-08-22T1400,3703A,114.2917,36.0949,安阳市,安钢职工学校,,43,32,44,10,11,137,,84,84,4,17,6,11,0.4,0.8
2025-08-22T1400,1748A,123.044,41.1196,鞍山市,深沟寺,,26,21,16,15,11,83,,91,70,10,6,6,6,1.4,0.9
2025-08-22T1400,1749A,123.011,41.0931,鞍山市,太阳城,,31,31,20,20,13,96,,92,73,11,7,9,6,1.3,0.8
2025-08-22T1400,1750A,123.0485,41.1442,鞍山市,太平,,36,36,25,20,15,89,,87,71,12,9,8,6,1.3,0.9
2025-08-22T1400,1751A,122.9642,41.0971,鞍山市,铁西三道街,,28,28,23,14,13,89,,80,66,10,12,6,5,1.1,0.9
2025-08-22T1400,1753A,123.022,41.0821,鞍山市,明达新区,,27,27,20,16,11,83,,83,66,11,8,8,8,1.4,0.9
2025-08-22T1400,1754A,123.1289,41.0228,鞍山市,千山,,,,,,,,,,,,,,,,
2025-08-22T1400,4201A,122.9446,41.0826,鞍山市,兴盛南路290号,,40,40,24,25,14,99,,85,71,12,13,10,8,1.0,0.9
2025-08-22T1400,2195A,107.4212,40.761,巴彦淖尔市,附二中,颗粒物(PM10),51,52,41,32,18,117,,73,73,16,20,17,12,1.0,0.8
2025-08-22T1400,2196A,107.37,40.7372,巴彦淖尔市,市环保大楼,颗粒物(PM10),54,58,44,24,15,102,,60,60,15,19,13,10,1.0,0.7
2025-08-22T1400,1956A,86.1472,41.7538,巴音郭楞蒙古自治州,孔雀公园,,36,34,28,15,13,113,,87,83,3,10,5,5,0.2,0.2
2025-08-22T1400,1957A,86.1972,41.7166,巴音郭楞蒙古自治州,棉纺厂,,48,48,37,9,9,122,,93,93,2,6,7,4,0.2,0.2
2025-08-22T1400,1958A,86.2357,41.7173,巴音郭楞蒙古自治州,经济开发区,,36,34,23,11,6,114,,94,94,1,3,4,4,0.1,0.1
2025-08-22T1400,2914A,106.7677,31.8794,巴中市,苏山坪,,23,23,14,13,8,65,,43,43,5,5,4,4,0.5,0.4
2025-08-22T1400,3181A,106.7768,31.8526,巴中市,市五中,,24,15,15,14,10,75,,40,40,6,6,6,6,0.4,0.4
2025-08-22T1400,3183A,106.7418,31.8654,巴中市,圣泉水务公司,,27,19,11,16,8,86,,46,46,2,4,6,6,0.6,0.6
2025-08-22T1400,3616A,106.7616,31.8344,巴中市,市中心医院,,25,20,14,14,6,79,,42,42,3,7,6,6,0.3,0.3
2025-08-22T1400,2235A,122.7911,45.6077,白城市,洮北区环保局,,25,,10,6,8,80,,69,69,1,3,4,5,0.3,0.3
2025-08-22T1400,2236A,122.8738,45.5725,白城市,市环保局,,24,7,9,7,6,75,,66,66,1,4,4,3,0.4,0.4
2025-08-22T1400,2231A,126.4219,41.9171,白山市,喜丰,,24,24,26,3,9,35,,62,54,12,12,5,5,0.6,0.6
2025-08-22T1400,2232A,126.4077,41.9419,白山市,环保局,,20,20,24,12,12,48,,67,60,10,11,8,5,0.7,0.7
2025-08-22T1400,2647A,104.1724,36.5446,白银市,第三小学,,28,22,26,3,13,87,,42,42,5,21,8,21,0.4,0.7
2025-08-22T1400,2648A,104.1465,36.5482,白银市,动力公司,,21,10,21,6,11,66,,45,45,8,16,17,7,0.3,0.6
2025-08-22T1400,2512A,106.6103,23.9011,百色市,市监测站,,30,30,28,13,11,56,,26,26,8,12,10,10,0.5,0.6
2025-08-22T1400,2513A,106.6538,23.8859,百色市,市中心血站,,29,29,30,20,17,56,,30,30,12,18,10,11,0.7,0.7
2025-08-22T1400,3406A,106.6085,23.8798,百色市,祈福高中,,34,34,34,15,16,53,,23,23,10,18,9,10,0.5,0.6
2025-08-22T1400,2270A,117.396,32.939,蚌埠市,工人疗养院,,30,10,37,3,7,96,,100,100,2,5,3,5,0.2,0.3
2025-08-22T1400,2271A,117.3605,32.9427,蚌埠市,百货大楼,,29,9,24,3,10,90,,90,90,2,11,6,7,0.3,0.4
2025-08-22T1400,2273A,117.4185,32.8911,蚌埠市,蚌埠学院,,32,12,26,6,12,101,,102,102,2,7,4,7,0.3,0.4
2025-08-22T1400,2274A,117.3533,32.9673,蚌埠市,淮上区政府,,31,7,27,3,12,97,,99,99,2,7,5,7,0.2,0.3
2025-08-22T1400,2275A,117.3145,32.8977,蚌埠市,高新区,,29,14,30,8,13,92,,87,87,5,14,5,12,0.4,0.6
2025-08-22T1400,3715A,117.3092,32.9314,蚌埠市,蚌埠田家炳中学,,31,18,33,3,13,98,,95,95,5,14,6,14,0.3,0.5
2025-08-22T1400,1585A,109.8756,40.6532,包头市,市环境监测站,,44,40,43,21,17,140,,64,64,10,37,9,13,0.8,1.2
2025-08-22T1400,1587A,109.9991,40.5842,包头市,包头八中,,43,33,48,14,23,137,,66,66,12,30,10,12,0.6,1.1
2025-08-22T1400,1588A,109.8538,40.6821,包头市,青山宾馆,,43,34,41,10,21,137,,64,64,13,39,8,11,0.6,1.1
2025-08-22T1400,1589A,109.8642,40.6288,包头市,惠龙物流,,42,35,45,15,19,133,,66,66,8,27,7,14,0.7,1.1
2025-08-22T1400,1590A,110.0377,40.5546,包头市,东河鸿龙湾,,48,36,32,17,14,151,,77,77,8,27,8,7,0.7,0.7
2025-08-22T1400,3283A,109.9154,40.5685,包头市,滨河大厦,,43,33,31,15,15,136,,73,73,9,26,8,6,0.6,0.7
2025-08-22T1400,3419A,109.9447,40.6261,包头市,包头市委党校,,46,20,39,18,19,145,,72,72,10,31,11,16,0.7,1.1
2025-08-22T1400,3683A,109.8331,40.6576,包头市,昆区政府,,45,39,49,12,23,142,,68,68,10,35,9,14,0.6,1.2
2025-08-22T1400,1930A,107.185,34.3063,宝鸡市,庙沟村,,36,26,16,9,6,115,,90,90,8,8,5,5,0.5,0.5
2025-08-22T1400,1931A,107.0708,34.3017,宝鸡市,竹园沟,,34,27,15,8,6,108,,75,75,6,9,8,8,0.3,0.3
2025-08-22T1400,1932A,107.1906,34.3672,宝鸡市,三陆医院,,35,35,23,14,7,107,,71,71,8,18,9,8,0.5,0.5
2025-08-22T1400,1933A,107.1431,34.3547,宝鸡市,监测站,,37,37,17,9,9,108,,72,72,8,9,10,8,0.4,0.3
2025-08-22T1400,1934A,107.1186,34.3739,宝鸡市,技工学校,,39,39,20,11,8,105,,74,74,8,8,7,6,0.5,0.5
2025-08-22T1400,1936A,107.2058,34.3497,宝鸡市,文理学院,,36,32,19,10,8,113,,77,77,7,11,8,7,0.4,0.4
2025-08-22T1400,1937A,107.2386,34.3622,宝鸡市,三迪小学,,45,45,22,10,10,108,,76,76,11,13,6,4,0.4,0.4
2025-08-22T1400,4308A,107.3898,34.3601,宝鸡市,陈仓区北开路21号,,33,22,12,8,10,105,,73,73,5,12,7,7,0.4,0.3
2025-08-22T1400,1051A,115.493,38.8632,保定市,游泳馆,,45,18,27,14,12,144,,81,81,2,8,9,9,0.3,0.3
2025-08-22T1400,1052A,115.5213,38.8959,保定市,华电二区,,44,23,25,3,14,140,,77,77,5,10,5,3,0.4,0.6
2025-08-22T1400,1053A,115.4713,38.9108,保定市,接待中心,,40,22,27,16,11,127,,69,69,2,5,3,3,0.3,0.3
2025-08-22T1400,1054A,115.4612,38.8416,保定市,地表水厂,,48,35,33,9,10,152,,82,82,11,16,4,3,0.5,0.6
2025-08-22T1400,3581A,115.31981,38.95208,保定市,满城区生态环境分局,,44,24,28,7,12,138,,75,75,8,11,3,3,0.1,0.1
2025-08-22T1400,3582A,115.47694,38.76408,保定市,清苑区第二中学,,46,46,33,9,14,115,,70,70,2,7,4,4,0.4,0.4
2025-08-22T1400,3583A,115.62909,39.02311,保定市,徐水物探局,,,29,31,3,5,120,,71,71,,11,7,7,0.3,0.4
2025-08-22T1400,4004A,115.4202,38.8656,保定市,双鹰农机,臭氧1小时,54,30,26,10,16,163,,87,87,6,9,6,4,0.2,0.3
2025-08-22T1400,4034A,115.5150,38.8590,保定市,植保所站,,49,34,26,3,10,155,,92,92,6,9,3,3,0.2,0.2
2025-08-22T1400,2594A,99.1678,25.1081,保山市,市环境监测站,,32,,12,22,11,33,,25,24,7,7,7,7,0.4,0.4
2025-08-22T1400,2595A,99.1711,25.1328,保山市,市环保局,,18,18,12,12,9,36,,22,22,5,4,6,7,0.4,0.3
2025-08-22T1400,1866A,109.2262,21.588,北海市,牛尾岭水库,,15,15,19,6,9,45,,36,36,1,7,1,3,0.4,0.4
2025-08-22T1400,1867A,109.1436,21.4086,北海市,海滩公园,,50,50,25,3,5,67,,46,46,10,7,3,3,0.8,0.6
2025-08-22T1400,1868A,109.0981,21.4661,北海市,新市环保局,,18,17,20,12,13,49,,33,33,11,10,3,3,0.3,0.3
2025-08-22T1400,1869A,109.1778,21.5233,北海市,北海工业园,,20,18,28,10,12,61,,39,39,4,13,3,6,0.4,0.5
2025-08-22T1400,3400A,109.1911,21.4415,北海市,龙潭自来水厂,,25,19,19,17,9,64,,45,45,6,7,3,3,0.5,0.5
2025-08-22T1400,1001A,116.3621,39.8784,北京市,万寿西宫,,47,20,15,11,9,148,,68,68,15,16,4,3,0.5,0.6
2025-08-22T1400,1002A,116.2202,40.2915,北京市,定陵,,38,20,11,7,6,121,,86,86,2,2,4,3,0.4,0.4
2025-08-22T1400,1003A,116.4174,39.9289,北京市,东四,,46,22,17,8,10,145,,75,75,7,17,3,2,0.5,0.6
2025-08-22T1400,1004A,116.4072,39.8863,北京市,天坛,,44,23,15,8,9,139,,60,60,17,16,4,3,0.5,0.6
2025-08-22T1400,1005A,116.462,39.9365,北京市,农展馆,,41,20,14,9,9,129,,59,59,5,15,4,3,0.5,0.7
2025-08-22T1400,1006A,116.3392,39.9295,北京市,官园,,48,26,15,10,10,153,,74,74,14,17,6,5,0.5,0.6
2025-08-22T1400,1007A,116.2878,39.9611,北京市,海淀万柳,,41,21,16,9,9,129,,52,52,12,18,4,3,0.4,0.5
2025-08-22T1400,1008A,116.6636,40.135,北京市,顺义新城,,,,,,,,,,,,,,,,
2025-08-22T1400,1009A,116.6275,40.3275,北京市,怀柔镇,,31,15,11,3,6,97,,59,59,5,7,1,3,0.5,0.5
2025-08-22T1400,1010A,116.2296,40.217,北京市,昌平镇,,39,16,13,7,7,123,,79,79,7,10,5,4,0.6,0.6
2025-08-22T1400,1011A,116.3966,39.9821,北京市,奥体中心,,32,19,14,9,8,102,,52,52,5,15,4,4,0.4,0.5
2025-08-22T1400,3281A,115.9718,40.4529,北京市,延庆夏都,,39,19,16,8,8,122,,64,64,4,9,4,3,0.4,0.5
2025-08-22T1400,3418A,116.8336,40.4095,北京市,密云新城,,25,8,12,6,6,79,,51,51,3,5,2,1,0.3,0.4
2025-08-22T1400,3671A,116.088,39.9726,北京市,门头沟三家店,,40,34,21,12,9,127,,63,63,13,14,38,5,0.6,0.7
2025-08-22T1400,3672A,116.1541,39.8204,北京市,丰台云岗,,32,20,17,11,9,101,,43,43,6,10,7,5,0.5,0.5
2025-08-22T1400,3673A,116.6804,39.9081,北京市,通州东关,,43,22,16,9,10,137,,60,60,12,19,6,4,0.5,0.6
2025-08-22T1400,3674A,115.9577,39.7603,北京市,房山燕山,,27,22,15,10,10,84,,55,55,7,9,3,20,0.4,0.4
2025-08-22T1400,3675A,116.4672,39.7733,北京市,大兴旧宫,,39,26,18,12,9,124,,48,48,14,15,3,2,0.7,0.6
2025-08-22T1400,3694A,115.986,40.4563,北京市,延庆石河营,,35,14,13,7,8,109,,54,54,3,7,2,2,0.5,0.4
2025-08-22T1400,3695A,116.6151,40.3053,北京市,怀柔新城,,29,14,11,6,6,90,,53,53,4,3,3,2,0.5,0.6
2025-08-22T1400,3696A,116.2545,39.8768,北京市,丰台小屯,,37,22,19,10,10,118,,50,50,7,13,8,2,0.7,0.7
2025-08-22T1400,3697A,116.84,40.3844,北京市,密云镇,,30,7,11,7,6,94,,50,50,4,8,4,4,0.4,0.6
2025-08-22T1400,4182A,116.1942,39.9158,北京市,八角北路9号,,48,32,20,16,11,151,,62,62,6,15,87,5,0.3,0.5
2025-08-22T1400,4194A,117.0790,40.1518,北京市,洳河巡河路,,30,12,19,3,10,94,,53,53,2,4,2,2,0.4,0.5
2025-08-22T1400,1761A,123.8275,41.3064,本溪市,大峪,,29,17,18,11,11,92,,96,83,17,7,5,5,1.2,0.6
2025-08-22T1400,1762A,123.7567,41.3325,本溪市,溪湖,,23,16,21,9,11,71,,72,58,9,8,9,8,1.2,1.2
2025-08-22T1400,1763A,123.7169,41.3094,本溪市,彩屯,,23,15,25,7,13,72,,57,52,7,19,7,9,1.0,1.8
2025-08-22T1400,1764A,123.7669,41.2864,本溪市,东明,,25,15,22,8,8,77,,87,71,13,8,4,4,1.5,0.7
2025-08-22T1400,1765A,123.7992,41.2664,本溪市,新立屯,,20,13,20,12,12,61,,88,64,12,6,4,4,1.1,0.9
2025-08-22T1400,1766A,123.8142,41.3472,本溪市,威宁,,22,,18,15,11,54,,63,42,15,9,9,9,1.0,0.6
2025-08-22T1400,2587A,105.2864,27.3125,毕节市,八中,,15,11,11,7,9,45,,30,30,4,8,6,7,0.5,0.5
2025-08-22T1400,2588A,105.31,27.2944,毕节市,师专,,14,13,20,6,6,44,,30,30,11,11,17,11,0.6,0.6
2025-08-22T1400,4263A,105.3688,27.3598,毕节市,工业大道,,17,6,9,3,6,54,,37,37,8,10,7,8,0.6,0.6
2025-08-22T1400,1629A,118.0018,37.3617,滨州市,第二水厂,臭氧1小时,52,36,31,31,18,161,,115,115,3,11,2,3,0.5,0.5
2025-08-22T1400,1630A,117.9776,37.393,滨州市,北中新校,,48,39,33,27,17,152,,108,108,6,16,1,3,0.5,0.5
2025-08-22T1400,3514A,117.9378,37.3956,滨州市,中海酒店,,46,39,30,29,18,146,,106,106,4,11,2,4,0.6,0.6
2025-08-22T1400,3515A,117.9378,37.3553,滨州市,开发区一中,臭氧1小时,57,46,36,29,18,165,,125,125,9,16,6,8,0.5,0.5
2025-08-22T1400,3516A,118.0917,37.694,滨州市,金海六路,,39,24,24,12,10,122,,92,92,2,15,5,4,0.3,0.3
2025-08-22T1400,4028A,117.9956,37.3753,滨州市,滨州市西街道办事处,臭氧1小时,62,29,25,27,18,169,,124,124,5,12,3,3,0.3,0.3
2025-08-22T1400,2311A,115.8072,33.8399,亳州市,污水处理厂,,,9,11,8,7,115,,93,93,5,9,,7,0.5,0.6
2025-08-22T1400,2312A,115.7789,33.8518,亳州市,三国揽胜宫,,36,17,20,6,7,114,,95,95,2,5,3,3,0.7,0.7
2025-08-22T1400,3332A,115.7633,33.8034,亳州市,亳州学院,,37,13,15,12,11,118,,91,91,4,8,2,3,0.7,0.8
2025-08-22T1400,2693A,82.0485,44.8556,博尔塔拉蒙古自治州,市党校,,33,25,25,16,14,105,,66,66,8,8,4,3,0.2,0.1
2025-08-22T1400,2694A,82.0806,44.8969,博尔塔拉蒙古自治州,市环保局,,31,24,39,11,13,97,,65,65,6,7,6,3,0.2,0.3
2025-08-22T1400,1071A,116.8842,38.2991,沧州市,沧县城建局,,38,17,19,6,10,120,,72,72,3,10,5,4,0.2,0.2
2025-08-22T1400,1072A,116.8584,38.3254,沧州市,电视转播站,,37,37,41,12,8,100,,57,57,5,12,2,3,0.2,0.2
2025-08-22T1400,1073A,116.8709,38.3228,沧州市,市环保局,,35,27,30,15,18,111,,64,64,6,14,4,3,0.3,0.3
2025-08-22T1400,3324A,116.8136,38.3004,沧州市,河北水利电力学院,,42,24,15,12,13,132,,78,78,2,10,5,4,0.3,0.2
2025-08-22T1400,2622A,97.1806,31.1273,昌都市,昌都监测站,,17,,6,3,5,54,,46,39,3,4,5,5,0.3,0.3
2025-08-22T1400,3719A,97.1714,31.1406,昌都市,昌都会议中心,,18,,7,7,5,56,,42,38,2,4,3,3,0.2,0.2
2025-08-22T1400,2690A,88.1236,43.8886,昌吉回族自治州,天山天池,,32,17,14,3,3,102,,82,82,11,9,11,10,0.4,0.4
2025-08-22T1400,2692A,87.2717,44.0297,昌吉回族自治州,新区政务中心,,39,9,24,9,7,122,,80,78,4,12,1,1,0.3,0.4
2025-08-22T1400,3613A,87.3095,44.0142,昌吉回族自治州,亚心广场,,39,12,34,3,15,122,,81,81,5,15,7,8,0.2,0.3
2025-08-22T1400,1120A,125.2863,43.9027,长春市,客车厂,,25,12,15,3,9,78,,71,71,8,10,3,3,0.3,0.4
2025-08-22T1400,1121A,125.2841,43.8463,长春市,邮电学院,,26,10,13,3,6,83,,74,71,4,7,4,4,0.4,0.5
2025-08-22T1400,1122A,125.3716,43.8772,长春市,劳动公园,,26,22,14,3,8,82,,71,71,6,10,7,6,0.4,0.5
2025-08-22T1400,1123A,125.3297,43.8805,长春市,园林处,,25,6,16,3,6,77,,73,68,8,8,4,4,0.4,0.5
2025-08-22T1400,1124A,125.4605,43.79,长春市,净月潭,,28,11,13,3,7,89,,74,74,5,5,4,4,0.3,0.3
2025-08-22T1400,1125A,125.7194,43.515,长春市,甩湾子,,,,14,,8,,,72,,,5,,3,,0.6
2025-08-22T1400,1126A,125.3863,43.8447,长春市,经开区环卫处,,28,9,16,3,6,87,,75,75,4,10,3,3,0.4,0.5
2025-08-22T1400,1127A,125.245,43.7783,长春市,高新区管委会,,27,14,15,3,6,85,,76,75,2,5,3,2,0.4,0.5
2025-08-22T1400,1128A,125.1761,43.8325,长春市,岱山公园,,26,12,16,3,8,83,,71,71,2,8,3,3,0.3,0.4
2025-08-22T1400,4281A,125.3346,43.9164,长春市,北亚泰大街1068号,,25,13,18,9,10,78,,70,68,8,12,6,6,0.4,0.5
2025-08-22T1400,1335A,113.0833,28.2325,长沙市,经开区环保局,,21,21,20,10,10,60,,44,44,7,12,6,6,0.3,0.4
2025-08-22T1400,1336A,112.8872,28.2189,长沙市,高开区环保局,,19,19,19,7,8,48,,40,40,5,6,4,5,0.2,0.2
2025-08-22T1400,1337A,113.0792,28.2053,长沙市,马坡岭,,26,26,21,10,8,64,,45,45,5,9,6,6,0.5,0.5
2025-08-22T1400,1338A,112.9394,28.19,长沙市,湖南师范大学,,23,23,19,9,9,53,,45,45,8,12,3,4,0.2,0.2
2025-08-22T1400,1339A,113.0178,28.1322,长沙市,雨花区环保局,,23,23,19,8,7,50,,40,40,3,7,6,7,0.4,0.5
2025-08-22T1400,1340A,112.9792,28.2597,长沙市,伍家岭,,19,19,19,11,10,57,,47,47,3,6,2,4,0.2,0.3
2025-08-22T1400,1341A,113.0014,28.1944,长沙市,火车新站,,28,28,21,3,7,54,,48,48,3,6,6,7,0.4,0.5
2025-08-22T1400,1342A,112.9844,28.1178,长沙市,天心区环保局,,23,23,17,3,8,52,,43,43,3,9,3,5,0.3,0.4
2025-08-22T1400,1343A,112.8908,28.1308,长沙市,湖南中医药大学,,20,20,18,3,10,51,,40,40,4,4,3,4,0.6,0.6
2025-08-22T1400,1344A,112.9581,28.3611,长沙市,沙坪,,20,13,22,7,7,62,,47,47,4,7,2,3,0.3,0.3
2025-08-22T1400,1727A,113.1147,36.1547,长治市,清华站,,50,50,24,22,9,146,,84,84,10,12,15,10,1.1,0.7
2025-08-22T1400,1730A,113.0886,36.2125,长治市,审计局,,40,37,31,27,10,125,,74,74,8,13,10,7,1.0,0.8
2025-08-22T1400,1731A,113.0844,36.1856,长治市,长治八中,细颗粒物(PM2.5),52,52,24,36,17,148,,80,80,8,11,13,9,1.2,0.9
2025-08-22T1400,2845A,113.1569,36.1911,长治市,德盛苑,,33,28,23,17,11,103,,68,68,5,10,9,8,0.9,0.8
2025-08-22T1400,3568A,113.06,36.0464,长治市,向阳小学,颗粒物(PM10),60,69,54,23,23,153,,78,78,4,10,7,5,1.0,0.8
2025-08-22T1400,3569A,112.8792,36.3144,长治市,屯留一中,细颗粒物(PM2.5),72,78,28,52,21,153,,94,94,22,16,20,10,1.5,0.5
2025-08-22T1400,4189A,113.1131,36.19948,长治市,英华南巷50号,,38,36,24,22,10,119,,83,83,8,12,12,9,0.8,0.8
2025-08-22T1400,4190A,113.2367,36.3344,长治市,学府街1号,,35,29,26,18,13,111,,65,65,7,14,1,2,0.9,0.8
2025-08-22T1400,1854A,111.6975,28.9703,常德市,市二中,,19,15,13,8,10,58,,48,48,4,8,4,4,0.3,0.3
2025-08-22T1400,1857A,111.7158,29.1456,常德市,白鹤山,,,,,,,,,,,,,,,,
2025-08-22T1400,3138A,111.7153,29.0289,常德市,武陵区永安,,21,7,13,6,7,67,,53,53,2,4,5,4,0.4,0.4
2025-08-22T1400,3139A,111.6892,28.9881,常德市,鼎城区玉霞,,18,,16,10,9,56,,47,47,3,6,5,4,0.5,0.5
2025-08-22T1400,3140A,111.6625,29.0531,常德市,武陵区长庚,,18,10,11,7,7,57,,48,48,2,4,4,4,0.3,0.3
2025-08-22T1400,1196A,119.9633,31.762,常州市,市监测站,,50,25,30,14,22,157,,110,110,6,15,11,13,0.5,0.6
2025-08-22T1400,1200A,119.9468,31.7069,常州市,武进监测站,,47,27,36,12,24,148,,100,100,2,11,7,11,0.7,1.1
2025-08-22T1400,1201A,119.9255,31.9087,常州市,安家,臭氧1小时,101,33,37,16,21,202,,116,116,10,22,11,11,0.8,0.9
2025-08-22T1400,3002A,119.9805,31.8174,常州市,行政中心,臭氧1小时,65,37,39,24,22,172,,110,110,8,16,11,13,0.6,0.6
2025-08-22T1400,3003A,120.0522,31.7748,常州市,经开区,臭氧1小时,75,43,43,21,21,180,,119,119,17,20,5,7,1.1,0.9
2025-08-22T1400,3010A,119.9025,31.7964,常州市,钟楼,,47,25,34,11,18,148,,99,99,8,15,7,7,0.4,0.6
2025-08-22T1400,3429A,119.8598,31.7066,常州市,武进经发区,,48,27,35,14,22,153,,95,95,2,11,8,11,0.8,0.9
2025-08-22T1400,3430A,119.5826,31.7245,常州市,金坛城区,,40,11,27,9,19,128,,86,86,9,20,9,8,0.3,0.4
2025-08-22T1400,2220A,120.4318,41.5881,朝阳市,西梁,,35,18,20,3,12,111,,73,73,7,10,4,4,0.4,0.7
2025-08-22T1400,2221A,120.4521,41.5646,朝阳市,河畔小区,,38,20,20,3,8,121,,75,75,9,9,8,5,0.7,0.7
2025-08-22T1400,2222A,120.4176,41.5648,朝阳市,八里堡,,37,36,25,12,14,117,,77,77,12,11,8,7,0.7,0.8
2025-08-22T1400,2223A,120.3806,41.5969,朝阳市,农业园区,,35,15,17,3,11,111,,68,68,4,8,8,7,0.4,0.6
2025-08-22T1400,1705A,116.6367,23.6719,潮州市,西园路,,25,,17,17,13,76,,40,40,5,8,4,3,0.2,0.3
2025-08-22T1400,3026A,116.6183,23.6608,潮州市,市政府,,30,18,28,7,10,93,,47,47,4,11,3,5,0.3,0.4
2025-08-22T1400,4036A,116.6461,23.6761,潮州市,金山,,24,18,21,16,14,76,,43,43,3,7,4,4,0.4,0.4
2025-08-22T1400,2472A,113.0073,25.9061,郴州市,马头岭,,19,15,22,3,10,59,,34,34,7,11,4,5,0.5,0.5
2025-08-22T1400,2473A,113.0116,25.8226,郴州市,市职中,,18,18,19,6,11,50,,33,33,4,8,3,4,0.3,0.3
2025-08-22T1400,2475A,113.0383,25.8071,郴州市,市审计局,,17,17,20,10,11,47,,34,34,9,11,7,6,0.2,0.4
2025-08-22T1400,2476A,113.0348,25.7759,郴州市,市环保局,,15,13,19,6,13,46,,33,33,4,9,1,1,0.2,0.2
2025-08-22T1400,4252A,113.0138,25.8011,郴州市,好美居路49号,,30,30,20,16,12,50,,35,35,3,8,4,4,0.2,0.3
2025-08-22T1400,1431A,103.9728,30.7236,成都市,金泉两河,,21,16,16,3,8,66,,47,47,7,11,2,2,0.5,0.6
2025-08-22T1400,1432A,104.176,30.6872,成都市,十里店,,26,13,19,13,9,82,,54,54,7,14,2,2,0.6,0.6
2025-08-22T1400,1433A,104.079,30.5706,成都市,三瓦窑,,29,22,21,9,12,92,,62,62,10,20,2,2,0.3,0.4
2025-08-22T1400,1434A,104.1114,30.63,成都市,沙河铺,,33,33,27,8,10,73,,47,47,9,12,3,3,0.5,0.5
2025-08-22T1400,1437A,104.0786,30.6531,成都市,君平街,,25,17,26,16,13,80,,54,54,6,7,2,3,0.5,0.5
2025-08-22T1400,1438A,103.613,31.0283,成都市,灵岩寺,,,,,,,,,,,,,,,,
2025-08-22T1400,2880A,104.0239,30.65639,成都市,大石西路,,23,23,25,14,17,62,,46,46,14,15,3,3,0.7,0.7
2025-08-22T1400,3136A,104.2725,30.5589,成都市,龙泉驿区区政府,,29,12,12,3,6,92,,62,62,11,14,5,5,0.5,0.5
2025-08-22T1400,3357A,104.0106,30.6931,成都市,金博路,,20,,18,3,9,61,,46,46,12,12,4,5,0.5,0.6
2025-08-22T1400,3359A,104.0578,30.5225,成都市,华阳,,,22,18,,14,88,,59,59,12,17,2,3,0.6,0.6
2025-08-22T1400,3488A,104.3853,30.7453,成都市,青白江技师分院,,24,7,23,3,12,74,,60,60,6,15,6,6,0.5,0.6
2025-08-22T1400,3489A,104.0789,30.4072,成都市,科学城,,32,19,20,9,11,100,,63,63,8,12,3,4,0.5,0.5
2025-08-22T1400,4011A,103.8506,30.6947,成都市,光华大道三段,,23,11,21,3,10,71,,44,44,8,12,4,5,0.7,0.7
2025-08-22T1400,4224A,104.2433,30.5353,成都市,鲸龙路1057号,,30,23,19,15,13,94,,63,63,10,15,3,3,0.4,0.5
2025-08-22T1400,1062A,117.9531,40.9081,承德市,铁路,,37,31,24,3,11,116,,57,57,10,11,24,5,0.9,0.4
2025-08-22T1400,1063A,117.9392,40.9763,承德市,中国银行,,36,22,22,11,13,114,,60,60,6,8,12,2,0.4,0.4
2025-08-22T1400,1064A,117.9503,40.928,承德市,开发区,,36,30,25,11,11,115,,59,59,13,10,29,7,0.9,0.5
2025-08-22T1400,1066A,117.9268,41.0026,承德市,离宫,,33,,17,11,7,104,,55,55,3,5,6,2,0.3,0.4
2025-08-22T1400,4274A,117.7994,40.9605,承德市,滨河大街98号,颗粒物(PM10),51,51,16,15,9,105,,55,55,17,8,62,9,1.6,0.4
2025-08-22T1400,2314A,117.47,30.6618,池州市,池州学院,,23,14,17,7,9,72,,70,70,6,8,6,6,0.4,0.5
2025-08-22T1400,3237A,117.4918,30.6617,池州市,展览馆,,24,11,16,3,7,74,,71,71,5,8,5,6,0.5,0.6
2025-08-22T1400,3333A,117.5627,30.695,池州市,第八中学,,24,16,16,7,9,74,,70,70,3,6,5,6,0.2,0.3
2025-08-22T1400,3334A,117.5038,30.6243,池州市,第十二中学,,20,14,18,6,7,64,,68,68,12,12,3,4,0.6,0.7
2025-08-22T1400,1744A,118.9233,42.2816,赤峰市,松山一中,,34,10,12,3,5,107,,83,83,8,12,4,5,0.4,0.6
2025-08-22T1400,1745A,118.9576,42.2728,赤峰市,哈达街,,34,7,16,3,5,106,,78,78,10,13,10,10,0.4,0.5
2025-08-22T1400,1746A,118.8788,42.2554,赤峰市,天义路,,33,6,8,3,7,104,,82,82,5,9,8,9,0.2,0.3
2025-08-22T1400,3058A,119.2658,42.0353,赤峰市,银河街,,35,16,18,10,18,112,,69,69,5,9,5,9,0.4,0.7
2025-08-22T1400,3286A,118.9359,42.3147,赤峰市,桥北物流园区,,,,16,12,8,94,,68,68,4,10,9,9,,0.6
2025-08-22T1400,2521A,107.3476,22.4136,崇左市,市环保局江州分局,,26,26,21,6,8,52,,34,34,4,8,6,6,0.5,0.6
2025-08-22T1400,4256A,107.3750,22.3736,崇左市,石景林东路7号,,33,33,17,8,8,53,,30,30,3,10,5,4,1.0,0.5
2025-08-22T1400,2298A,118.3093,32.3153,滁州市,老年大学,,43,26,28,11,10,136,,95,95,6,8,16,9,0.3,0.3
2025-08-22T1400,2299A,118.3244,32.2786,滁州市,人大宾馆,,43,14,19,12,14,136,,93,93,1,4,5,5,0.3,0.3
2025-08-22T1400,3207A,118.3118,32.3038,滁州市,市政府原办公楼,,42,21,25,17,19,132,,90,90,2,6,7,7,0.3,0.3
2025-08-22T1400,3331A,118.3267,32.2634,滁州市,图书馆,,44,13,16,13,16,139,,96,96,2,5,10,11,0.3,0.3
2025-08-22T1400,2605A,101.5482,25.0441,楚雄彝族自治州,州环境监测站,,8,7,6,3,5,23,,20,20,4,5,4,4,0.4,0.4
2025-08-22T1400,2606A,101.538,25.0492,楚雄彝族自治州,市经济开发区,,7,6,10,3,6,22,,19,19,6,8,6,6,0.3,0.3
2025-08-22T1400,2548A,107.5277,31.2827,达州市,达州职业技术学院,,30,26,31,3,6,94,,53,53,3,13,8,10,0.4,0.4
2025-08-22T1400,2549A,107.5086,31.2186,达州市,市环境监测站,,26,20,30,3,8,83,,47,47,9,21,6,8,0.3,0.4
2025-08-22T1400,2550A,107.4988,31.2132,达州市,凤凰小区,,25,9,24,3,13,77,,49,49,7,15,3,4,0.2,0.3
2025-08-22T1400,2551A,107.5082,31.1986,达州市,达县机关宾馆,,27,12,25,3,10,84,,53,53,10,19,5,7,0.3,0.4
2025-08-22T1400,2552A,107.4644,31.2124,达州市,市政中心,,28,22,31,3,10,89,,55,55,6,11,4,6,0.2,0.3
2025-08-22T1400,2614A,100.1542,25.7054,大理白族自治州,大理市环境监测站,,12,,6,8,15,33,,33,29,4,7,4,4,0.4,0.4
2025-08-22T1400,2615A,100.2171,25.5811,大理白族自治州,大理古城,,10,7,13,3,7,31,,22,21,7,8,5,6,0.7,0.6
2025-08-22T1400,1109A,121.612,38.9741,大连市,甘井子,,27,18,22,12,13,86,,61,61,9,14,4,6,0.4,0.5
2025-08-22T1400,1110A,121.565,38.9511,大连市,周水子,,33,19,23,11,14,104,,76,76,6,11,6,8,0.3,0.3
2025-08-22T1400,1111A,121.5637,38.8845,大连市,星海三站,,35,16,23,9,10,109,,90,90,12,12,5,4,0.4,0.3
2025-08-22T1400,1112A,121.6302,38.9117,大连市,青泥洼桥,,37,15,19,8,11,117,,105,105,6,7,6,6,0.4,0.6
2025-08-22T1400,1113A,121.6251,38.8638,大连市,傅家庄,,35,18,25,11,13,112,,89,89,7,7,9,8,0.3,0.2
2025-08-22T1400,1114A,121.5213,38.8661,大连市,七贤岭,,36,15,21,8,11,114,,92,92,4,6,6,6,0.5,0.5
2025-08-22T1400,1115A,121.2529,38.8061,大连市,旅顺,,25,16,21,10,13,80,,72,70,13,9,7,6,0.3,0.3
2025-08-22T1400,1116A,121.7485,39.1311,大连市,金州,,38,16,18,12,13,121,,96,96,12,12,11,10,0.2,0.2
2025-08-22T1400,1117A,121.7811,39.0496,大连市,开发区,,35,20,25,9,12,112,,86,86,9,14,5,5,0.5,0.5
2025-08-22T1400,1118A,121.9762,39.0631,大连市,双D港,,33,17,20,10,10,104,,86,86,7,8,8,7,0.6,0.6
2025-08-22T1400,1789A,124.81117,46.03138,大庆市,大同区,,22,8,13,3,6,68,,58,58,5,9,9,8,0.5,0.6
2025-08-22T1400,1790A,125.129,46.533,大庆市,龙凤区,,18,15,12,7,7,56,,55,54,11,9,7,7,0.5,0.4
2025-08-22T1400,1791A,124.902,46.408,大庆市,红岗区,,20,19,17,3,8,61,,58,57,5,7,8,8,0.6,0.6
2025-08-22T1400,1792A,125.153,46.586,大庆市,萨尔图区,,22,22,19,8,6,48,,50,48,14,8,8,8,0.5,0.4
2025-08-22T1400,1793A,124.9042,46.6215,大庆市,让胡路区,,18,17,20,6,11,57,,58,58,4,7,6,5,0.3,0.3
2025-08-22T1400,3481A,125.141,46.634,大庆市,萨区政府监测点,,19,14,18,3,3,60,,56,56,6,6,7,7,0.3,0.3
2025-08-22T1400,1721A,113.3819,40.1097,大同市,果树场,,,,31,,14,,,44,,,24,,10,,0.7
2025-08-22T1400,1723A,113.2994,40.0758,大同市,云冈宾馆,,47,23,43,3,15,149,,87,87,7,19,5,6,0.5,0.8
2025-08-22T1400,1724A,113.3444,40.0917,大同市,大同大学,,46,27,41,10,15,146,,89,89,9,21,9,11,0.5,1
2025-08-22T1400,1725A,113.2661,40.1269,大同市,安家小村,,46,29,45,12,14,145,,89,89,7,16,6,6,0.8,0.8
2025-08-22T1400,1726A,113.2711,40.0844,大同市,教育学院,,45,30,52,8,15,144,,87,87,8,17,10,11,0.4,0.6
2025-08-22T1400,3282A,113.3397,40.0597,大同市,大同市卫生学校,,43,27,48,9,18,137,,83,83,12,22,9,9,0.5,1.1
2025-08-22T1400,3565A,113.1367,40.1122,大同市,云冈站,,43,32,37,6,12,135,,88,88,5,8,5,6,0.4,0.7
2025-08-22T1400,3566A,113.1186,40.2556,大同市,图书馆,,,,34,,13,,,60,,,8,,3,,0.6
2025-08-22T1400,3567A,113.5931,40.0461,大同市,区一中,,49,49,50,6,16,139,,86,86,5,20,11,13,0.5,0.8
2025-08-22T1400,4199A,113.2798,40.0997,大同市,魏都大道141号,,45,40,47,12,19,142,,85,85,7,20,2,4,0.4,0.8
2025-08-22T1400,2269A,124.1069,50.4097,大兴安岭地区,科技局,,19,18,19,10,10,58,,49,49,2,2,5,5,0.3,0.3
2025-08-22T1400,3663A,124.1164,50.4278,大兴安岭地区,红旗社区,,16,,6,3,3,51,,41,41,2,3,4,4,0.3,0.3
2025-08-22T1400,1600A,124.3303,40.0625,丹东市,江湾东路,,24,17,13,11,6,75,,56,56,8,7,7,4,0.5,0.5
2025-08-22T1400,1601A,124.4256,40.1503,丹东市,临江后街,,22,16,15,7,7,70,,52,52,5,6,6,5,0.6,0.6
2025-08-22T1400,1602A,124.3933,40.1461,丹东市,元宝山,,19,18,14,9,8,60,,50,48,9,9,2,2,0.5,0.5
2025-08-22T1400,1603A,124.3633,40.1092,丹东市,民主桥,,22,16,16,7,6,68,,52,52,6,6,2,3,0.5,0.5
2025-08-22T1400,3541A,109.5726,19.5167,儋州市,第一中学子站,,10,6,15,3,9,31,,24,24,2,6,6,6,0.4,0.5
2025-08-22T1400,3542A,109.5567,19.5187,儋州市,东坡学校子站,,,13,18,3,9,30,,28,28,3,4,8,8,,0.6
2025-08-22T1400,2616A,98.5842,24.428,德宏傣族景颇族自治州,德宏州监测站,,14,13,18,9,9,43,,21,21,6,9,15,19,0.7,0.7
2025-08-22T1400,3677A,98.5881,24.4368,德宏傣族景颇族自治州,芒市人民政府综合楼,,26,26,24,9,8,35,,17,17,6,8,14,15,0.6,0.6
2025-08-22T1400,1901A,104.4239,31.1208,德阳市,东山公园,,21,6,7,3,7,65,,52,50,3,3,3,3,0.6,0.6
2025-08-22T1400,1902A,104.3826,31.1317,德阳市,西小区,,22,16,16,3,9,70,,57,57,7,8,3,3,0.7,0.7
2025-08-22T1400,1904A,104.3553,31.1091,德阳市,耐火材料厂,,20,15,16,6,10,64,,48,48,6,9,1,1,0.5,0.5
2025-08-22T1400,3639A,104.4019,31.1244,德阳市,市教育局,,20,13,17,3,8,64,,54,53,5,4,6,6,0.8,0.8
2025-08-22T1400,1622A,116.3032,37.4674,德州市,儿童乐园,,40,24,20,9,9,127,,92,92,5,11,11,13,0.5,0.4
2025-08-22T1400,1624A,116.2991,37.4451,德州市,监理站,,42,24,20,9,8,132,,96,96,3,10,10,11,0.5,0.4
2025-08-22T1400,3066A,116.2721,37.4379,德州市,九衢泉纯净水厂,,41,22,21,12,10,131,,94,94,4,17,6,8,0.8,0.7
2025-08-22T1400,3371A,116.3728,37.4403,德州市,开发区人民医院,,40,27,24,17,11,126,,93,93,7,13,14,14,0.8,0.9
2025-08-22T1400,3511A,116.5652,37.3319,德州市,陵城艺术中心,,34,34,28,12,9,102,,74,74,8,12,17,16,0.6,0.6
2025-08-22T1400,4292A,116.3525,37.4209,德州市,新河东路,,45,27,23,14,10,144,,102,102,8,15,14,12,1.0,0.8
2025-08-22T1400,2621A,99.7056,27.8317,迪庆藏族自治州,迪庆州站,,11,10,17,7,13,33,,24,24,4,8,6,6,0.4,0.6
2025-08-22T1400,3180A,99.7136,27.8094,迪庆藏族自治州,质量技术监督局,,16,16,14,3,9,36,,27,27,7,10,9,8,0.4,0.5
2025-08-22T1400,4257A,104.6092,35.5962,定西市,将台街,,30,20,21,16,13,94,,50,50,9,21,7,8,0.4,0.5
2025-08-22T1400,4309A,104.6159,35.5701,定西市,正龙路62号,,31,31,29,12,16,90,,61,61,5,14,5,5,0.1,0.2
2025-08-22T1400,1389A,113.7547,23.0494,东莞市,莞城梨川,,43,12,19,3,8,137,,68,68,8,18,6,6,0.3,0.3
2025-08-22T1400,1390A,113.7944,23.0128,东莞市,东城石井,臭氧1小时,60,24,23,18,8,168,,75,75,12,20,5,4,0.8,0.7
2025-08-22T1400,1391A,113.7383,22.9658,东莞市,南城西平,,42,17,20,16,11,132,,76,76,14,24,7,7,0.5,0.5
2025-08-22T1400,3319A,113.7338,23.0381,东莞市,万江金泰,,43,23,19,15,10,137,,,,10,15,6,4,0.5,0.5
2025-08-22T1400,3626A,113.7533,23.0202,东莞市,南城元岭,,44,19,24,14,11,138,,70,70,10,21,7,7,0.3,0.4
2025-08-22T1400,3627A,113.7875,23.0457,东莞市,东城主山,,44,26,34,12,13,140,,63,63,8,22,6,5,0.4,0.4
2025-08-22T1400,1666A,118.6614,37.4309,东营市,市环保局,,45,27,27,9,13,142,,112,112,11,16,8,9,0.3,0.3
2025-08-22T1400,3036A,118.6904,37.4338,东营市,开发区管委会,,44,29,30,12,11,139,,108,108,9,15,6,7,0.4,0.4
2025-08-22T1400,3365A,118.5719,37.565,东营市,垦利区民丰路,,45,39,30,19,13,141,,107,107,10,13,7,11,0.9,0.9
2025-08-22T1400,3498A,118.5055,37.8612,东营市,河口城区,,41,19,26,15,8,129,,99,99,10,14,10,8,0.6,0.8
2025-08-22T1400,3646A,118.4978,37.4623,东营市,胜利站,臭氧1小时,53,39,34,19,13,162,,114,114,13,19,3,3,0.5,0.6
2025-08-22T1400,3734A,118.35,37.26,东营市,理想之城,,46,29,26,14,15,147,,109,109,9,12,6,5,0.6,0.5
2025-08-22T1400,1591A,110.0023,39.8129,鄂尔多斯市,综合楼,,46,24,30,3,9,146,,103,103,8,18,6,6,0.4,0.5
2025-08-22T1400,1592A,109.9486,39.8261,鄂尔多斯市,巴音孟克林场办事处,,50,27,31,3,9,158,,110,110,9,15,6,6,0.5,0.6
2025-08-22T1400,1593A,109.7736,39.5986,鄂尔多斯市,康泽苑,,43,31,29,7,9,136,,84,84,5,12,6,5,0.3,0.5
2025-08-22T1400,1594A,109.8119,39.5989,鄂尔多斯市,华泰汽车城,,41,24,30,7,12,131,,73,73,5,20,5,5,0.4,0.5
2025-08-22T1400,1595A,109.9734,39.7884,鄂尔多斯市,奥林花园,,45,36,36,17,11,143,,84,84,8,23,8,7,0.5,0.6
2025-08-22T1400,2436A,114.8938,30.3994,鄂州市,市政府,,24,6,20,3,5,75,,64,64,4,12,6,8,0.4,0.5
2025-08-22T1400,2437A,114.8989,30.3714,鄂州市,赵家坝,,26,13,30,3,5,83,,66,66,4,9,7,7,0.5,0.6
2025-08-22T1400,3654A,114.8094,30.4089,鄂州市,精准医疗中心,,27,6,20,3,6,85,,64,64,2,11,6,7,0.4,0.5
2025-08-22T1400,2454A,109.4978,30.2981,恩施土家族苗族自治州,湖北民院,,19,10,17,3,10,60,,34,34,2,7,5,5,0.4,0.5
2025-08-22T1400,2455A,109.4707,30.2798,恩施土家族苗族自治州,州电力总公司,,,6,19,,12,54,,29,29,2,9,4,4,0.2,0.2
2025-08-22T1400,3549A,109.5061,30.3772,恩施土家族苗族自治州,龙凤新区,,24,11,18,9,8,75,,48,48,2,5,5,5,0.3,0.4
2025-08-22T1400,2499A,108.3411,21.6158,防城港市,沙万,,33,33,33,12,13,36,,16,16,14,23,2,4,0.6,0.5
2025-08-22T1400,2500A,108.3514,21.7731,防城港市,防城档案局,,28,28,36,15,16,31,,13,13,18,21,3,2,0.9,0.6
2025-08-22T1400,2501A,108.3506,21.6414,防城港市,大海花园,,33,33,26,10,12,42,,20,20,13,15,4,5,0.8,0.6
2025-08-22T1400,1371A,113.1294,23.0067,佛山市,湾梁,细颗粒物(PM2.5),54,,23,38,24,118,,62,62,14,26,6,7,0.5,0.5
2025-08-22T1400,1372A,113.1083,23.0478,佛山市,华材职中,,50,39,29,17,15,158,,59,59,11,24,4,4,0.5,0.6
2025-08-22T1400,1373A,113.144,23.0453,佛山市,南海气象局,,36,35,27,13,12,115,,55,55,8,23,5,5,0.3,0.5
2025-08-22T1400,1374A,113.2881,22.8094,佛山市,顺德苏岗,,36,,25,17,8,113,,53,53,12,15,5,6,0.6,0.6
2025-08-22T1400,1376A,112.8383,22.8678,佛山市,高明孔堂,,20,,19,9,9,64,,43,43,5,11,6,6,0.5,0.5
2025-08-22T1400,1377A,112.8836,23.1588,佛山市,三水监测站,,30,,25,21,15,89,,41,41,3,24,5,5,0.5,0.6
2025-08-22T1400,1378A,112.867,23.185,佛山市,三水云东海,,33,23,33,12,16,104,,52,52,8,24,1,2,0.5,0.6
2025-08-22T1400,3625A,113.2544,22.7642,佛山市,容桂街道办,,41,17,14,14,12,131,,66,66,11,17,6,8,0.6,0.7
2025-08-22T1400,1280A,119.3903,26.0543,福州市,鼓山,,,,,,,,,,,,,,,,
2025-08-22T1400,1282A,119.2681,26.0504,福州市,师大,,38,27,17,8,4,120,,67,67,4,8,5,5,0.2,0.2
2025-08-22T1400,1283A,119.2984,26.1028,福州市,五四北路,,31,14,17,10,4,97,,66,66,5,11,4,4,0.2,0.2
2025-08-22T1400,1284A,119.2648,26.0768,福州市,杨桥西路,,36,20,15,15,3,114,,73,73,4,9,4,4,0.2,0.3
2025-08-22T1400,1285A,119.317,26.0746,福州市,紫阳,,33,22,19,6,4,105,,67,67,9,11,5,4,0.2,0.2
2025-08-22T1400,3048A,119.5799,26.0936,福州市,九龙,,45,33,15,22,4,142,,69,69,8,10,6,5,0.3,0.2
2025-08-22T1400,3526A,119.5189,25.9664,福州市,吴航,,32,14,15,8,6,101,,56,56,3,13,6,6,0.3,0.3
2025-08-22T1400,1755A,123.7977,41.8491,抚顺市,望花区,,35,21,23,12,11,109,,80,68,11,15,5,5,0.5,0.6
2025-08-22T1400,1756A,123.9161,41.8822,抚顺市,顺城区,,34,,17,13,11,108,,88,74,12,13,6,5,0.8,0.8
2025-08-22T1400,1757A,124.0436,41.8611,抚顺市,东洲区,,31,22,14,13,11,99,,78,68,8,10,6,6,0.8,0.8
2025-08-22T1400,1758A,123.9247,41.8642,抚顺市,新抚区,,33,13,17,7,9,104,,84,70,8,11,5,5,0.8,0.8
2025-08-22T1400,1759A,124.0972,41.8961,抚顺市,大伙房水库,,30,17,13,13,8,95,,79,68,8,8,7,7,0.8,0.7
2025-08-22T1400,1760A,123.7086,41.8391,抚顺市,沈抚新城,,33,13,18,11,7,103,,77,68,11,15,5,5,0.7,0.9
2025-08-22T1400,2376A,116.2127,28.0814,抚州市,桐源党溪,,24,24,22,6,9,71,,46,46,3,4,4,4,0.8,0.8
2025-08-22T1400,2377A,116.3544,27.9831,抚州市,市站,,24,22,18,6,5,74,,51,51,2,6,1,1,0.5,0.6
2025-08-22T1400,2378A,116.3565,27.963,抚州市,血防站,,22,22,20,10,7,66,,43,43,4,9,3,8,0.4,0.4
2025-08-22T1400,2379A,116.3564,28.0007,抚州市,采茶剧团,,22,21,18,3,6,68,,47,47,2,4,4,4,0.6,0.6
2025-08-22T1400,2380A,116.385,27.9647,抚州市,医学分院,,26,26,19,10,6,67,,45,45,4,4,4,5,0.4,0.3
2025-08-22T1400,2207A,121.6094,41.998,阜新市,工业园区,,33,13,28,3,14,105,,80,78,7,8,6,5,0.4,0.5
2025-08-22T1400,2208A,121.6697,42.0279,阜新市,长青街,,34,12,23,3,16,106,,76,76,3,6,6,6,0.4,0.6
2025-08-22T1400,2209A,121.6673,42.0705,阜新市,农业园区,,31,17,37,3,11,98,,76,73,4,6,4,3,0.4,0.6
2025-08-22T1400,2210A,121.6717,42.0224,阜新市,东苑,,35,19,28,10,22,110,,80,78,5,9,7,8,0.3,0.5
2025-08-22T1400,2211A,121.6506,42.0498,阜新市,玉龙新城,,31,12,29,3,14,99,,68,68,3,5,7,6,0.4,0.6
2025-08-22T1400,2301A,115.8277,32.8929,阜阳市,市监测站,,,,24,,13,,,96,,,10,,4,,0.1
2025-08-22T1400,2303A,115.8554,32.8605,阜阳市,开发区,,34,22,22,8,10,107,,89,89,6,10,6,6,0.3,0.3
2025-08-22T1400,2875A,115.784,32.8892,阜阳市,阜阳职业技术学院,,37,15,21,9,8,118,,102,102,4,9,4,5,0.3,0.3
2025-08-22T1400,3468A,115.7901,32.8613,阜阳市,市规划展馆,,35,20,26,13,14,111,,91,91,4,9,2,3,0.4,0.4
2025-08-22T1400,3469A,115.836,32.9183,阜阳市,枣园社区,,35,25,24,24,14,112,,95,95,8,10,3,2,0.2,0.4
2025-08-22T1400,2669A,102.9099,34.9841,甘南藏族自治州,州政府,,22,16,13,15,11,47,,50,50,6,7,5,4,0.3,0.3
2025-08-22T1400,3380A,102.8914,34.9617,甘南藏族自治州,甘肃民族师范学院,,18,17,14,3,5,57,,47,47,2,13,4,4,0.1,0.1
2025-08-22T1400,2570A,101.9603,30.0475,甘孜藏族自治州,水桥子,,27,12,10,3,5,86,,59,59,5,12,6,6,0.2,0.2
2025-08-22T1400,3065A,101.9533,29.9972,甘孜藏族自治州,州环保局,,28,6,11,3,5,87,,69,69,4,10,5,4,0.2,0.7
2025-08-22T1400,3414A,115.8347,28.932,赣江新区,桑海产业园,,33,22,23,14,9,104,,64,64,4,13,7,6,0.4,0.4
2025-08-22T1400,2362A,114.9017,25.9149,赣州市,通天岩,,27,18,19,18,15,84,,51,51,5,5,19,18,1.7,1.6
2025-08-22T1400,2363A,114.9367,25.8664,赣州市,地委,,25,19,21,13,10,78,,55,55,7,9,6,6,0.7,0.7
2025-08-22T1400,2364A,114.9461,25.8481,赣州市,气象台,,24,18,20,3,7,76,,51,51,4,5,9,10,0.5,0.6
2025-08-22T1400,2365A,114.9322,25.8333,赣州市,市图书馆,,22,16,15,6,9,69,,44,44,6,8,4,5,0.5,0.5
2025-08-22T1400,2366A,114.8905,25.8471,赣州市,华坚鞋城,,23,22,21,7,9,71,,49,49,8,11,5,5,0.4,0.4
2025-08-22T1400,3109A,115.0093,25.8613,赣州市,赣县区卫计委,,22,12,17,3,11,69,,42,42,4,9,6,6,0.3,0.3
2025-08-22T1400,2683A,106.2319,36.1417,固原市,马园,,,,,,,,,,,,,,,,
2025-08-22T1400,2684A,106.2792,36.0022,固原市,监测站,,45,45,32,10,10,104,,95,95,4,9,6,6,0.3,0.3
2025-08-22T1400,2685A,106.2375,36.0211,固原市,新区,,43,43,30,10,12,95,,86,86,4,10,7,8,0.2,0.2
2025-08-22T1400,3522A,106.2177,35.9959,固原市,原州区十五小,,,,32,,12,92,,85,85,4,10,8,8,0.4,0.3
2025-08-22T1400,2543A,106.6308,30.5278,广安市,小平旧居,,,,,,,,,,,,,,,,
2025-08-22T1400,2544A,106.6303,30.4576,广安市,市委,,34,23,37,14,29,107,,72,72,7,10,3,2,0.3,0.3
2025-08-22T1400,2545A,106.6271,30.4663,广安市,友谊中学,,38,20,35,17,28,119,,84,84,9,10,6,5,0.6,0.7
2025-08-22T1400,2547A,106.6388,30.4551,广安市,广电花园,,42,42,48,16,25,106,,73,73,6,10,5,4,0.4,0.4
2025-08-22T1400,2902A,106.6351,30.4865,广安市,北辰小学,,38,31,44,18,28,120,,84,84,6,8,12,9,0.5,0.6
2025-08-22T1400,2523A,105.8945,32.4535,广元市,黑石坡,,17,17,14,3,6,34,,40,29,7,3,1,1,0.3,0.2
2025-08-22T1400,2524A,105.821,32.4444,广元市,老城,,19,10,12,9,7,58,,57,53,16,13,3,3,0.6,0.6
2025-08-22T1400,2526A,105.8628,32.4287,广元市,监测站,,16,12,12,6,7,50,,59,45,14,9,6,6,0.8,0.7
2025-08-22T1400,3617A,105.8047,32.4166,广元市,经开区,,22,22,17,11,7,47,,48,46,21,12,7,6,0.7,0.6
2025-08-22T1400,1345A,113.2347,23.1423,广州市,广雅中学,臭氧1小时,90,48,31,28,15,192,,61,61,22,33,4,3,0.6,0.6
2025-08-22T1400,1346A,113.2612,23.105,广州市,市五中,臭氧1小时,73,45,30,26,16,178,,56,56,21,33,6,5,0.3,0.3
2025-08-22T1400,1348A,113.3478,23.0916,广州市,广东商学院,,47,19,17,15,7,148,,54,54,15,30,3,4,1.5,1.3
2025-08-22T1400,1349A,113.4332,23.1047,广州市,市八十六中,,42,31,26,16,13,133,,52,52,24,33,3,4,0.3,0.5
2025-08-22T1400,1350A,113.3505,22.9483,广州市,番禺中学,,36,17,22,10,8,113,,63,63,6,17,6,6,0.4,0.5
2025-08-22T1400,1351A,113.2146,23.3916,广州市,花都师范,,49,41,23,34,16,152,,56,56,13,28,5,5,0.6,0.6
2025-08-22T1400,1352A,113.2597,23.1331,广州市,市监测站,臭氧1小时,89,48,30,21,15,191,,60,60,21,31,6,6,0.4,0.4
2025-08-22T1400,1353A,113.5618,23.312,广州市,九龙镇镇龙,,42,39,23,21,11,134,,52,52,14,16,6,7,0.5,0.5
2025-08-22T1400,1354A,113.2765,23.1544,广州市,麓湖,臭氧1小时,93,44,27,25,14,194,,57,57,26,27,2,2,0.4,0.3
2025-08-22T1400,1355A,113.443,23.3035,广州市,帽峰山森林公园,,43,27,14,7,8,136,,57,57,17,14,7,7,0.6,0.5
2025-08-22T1400,2846A,113.3221,23.1322,广州市,体育西,臭氧1小时,59,45,39,24,16,167,,52,52,23,31,3,3,0.5,0.6
2025-08-22T1400,3298A,113.5717,23.5491,广州市,从化街口,,32,30,22,17,11,101,,42,42,10,13,8,7,0.6,0.5
2025-08-22T1400,3299A,113.3472,23.3692,广州市,白云竹料,颗粒物(PM10),56,61,24,32,13,164,,57,57,22,21,4,3,0.6,0.5
2025-08-22T1400,3300A,113.2981,23.237,广州市,白云嘉禾,臭氧1小时,103,65,30,34,13,205,,65,65,24,27,6,5,0.5,0.5
2025-08-22T1400,3301A,113.4256,23.1716,广州市,黄埔科学城,,45,37,27,22,12,142,,47,47,20,21,4,6,0.5,0.5
2025-08-22T1400,3302A,113.3942,23.0483,广州市,番禺大学城,,49,28,27,16,15,154,,59,59,13,28,9,13,0.3,0.4
2025-08-22T1400,3303A,113.4922,22.8168,广州市,南沙黄阁,臭氧1小时,67,48,24,32,9,173,,81,81,14,16,4,3,0.5,0.5
2025-08-22T1400,3304A,113.5342,22.7896,广州市,南沙街,臭氧1小时,59,29,20,16,9,167,,75,75,14,16,5,4,0.4,0.4
2025-08-22T1400,3443A,113.2902,23.5544,广州市,花都梯面,,36,28,21,18,10,113,,42,42,10,18,7,6,0.5,0.4
2025-08-22T1400,3445A,113.7858,23.7478,广州市,从化良口,,25,22,16,13,7,77,,34,34,6,8,5,4,0.5,0.5
2025-08-22T1400,3446A,113.8051,23.2614,广州市,增城荔城,细颗粒物(PM2.5),55,41,19,39,11,118,,54,54,10,10,8,8,0.5,0.4
2025-08-22T1400,2505A,109.568,23.1478,贵港市,德智高中,,,,,,,,,,,,,,,,
2025-08-22T1400,2506A,109.6047,23.0666,贵港市,江南子站,,17,12,35,11,19,53,,36,36,2,15,2,7,0.4,0.6
2025-08-22T1400,2508A,109.5669,23.1065,贵港市,荷城子站,,19,7,16,7,6,60,,41,41,3,12,2,4,0.4,0.5
2025-08-22T1400,3405A,109.5886,23.1172,贵港市,新世纪学校,,22,12,20,11,11,69,,43,43,8,16,14,3,0.4,0.5
2025-08-22T1400,4260A,109.5933,23.0951,贵港市,中山路155-3号,,20,18,25,12,13,61,,42,42,3,12,3,6,0.5,0.6
2025-08-22T1400,1439A,106.6899,26.5998,贵阳市,马鞍山,,,7,8,,0,55,,47,47,5,5,4,3,0.2,0.2
2025-08-22T1400,1441A,106.6243,26.6266,贵阳市,鉴湖路,,19,19,18,3,0,50,,42,42,5,5,3,3,0.1,0.2
2025-08-22T1400,1442A,106.7487,26.6343,贵阳市,燕子冲,,17,6,6,3,8,53,,44,44,6,9,4,3,0.3,0.4
2025-08-22T1400,1443A,106.6555,26.4365,贵阳市,碧云窝,,17,12,19,3,1,54,,46,46,8,9,4,4,0.1,0.2
2025-08-22T1400,1445A,106.7109,26.6027,贵阳市,红边门,,16,12,11,3,6,51,,41,41,8,12,8,7,0.3,0.3
2025-08-22T1400,1446A,106.7164,26.5699,贵阳市,新华路,,15,7,8,7,8,46,,38,38,7,12,8,3,0.4,0.4
2025-08-22T1400,1447A,106.674,26.5424,贵阳市,太慈桥,,16,7,10,3,2,50,,43,43,6,7,6,6,0,0
2025-08-22T1400,1552A,106.805,26.3003,贵阳市,桐木岭,臭氧1小时,60,22,21,12,9,168,,68,68,1,4,4,3,0.9,0.9
2025-08-22T1400,4230A,106.6882,26.5695,贵阳市,花果园大街66号,,16,,0,3,5,50,,41,41,5,6,3,3,0.4,0.4
2025-08-22T1400,4231A,106.6873,26.5169,贵阳市,漓江路57号,,19,7,9,3,3,58,,48,48,3,5,4,4,0.3,0.3
2025-08-22T1400,1862A,110.4144,25.3167,桂林市,电子科大尧山校区,,,,,,,,,,,,,,,,
2025-08-22T1400,1864A,110.3089,25.2708,桂林市,龙隐路小学,,21,21,22,7,8,54,,33,33,4,12,5,5,0.2,0.3
2025-08-22T1400,1865A,110.2869,25.2178,桂林市,八中,,20,20,22,7,9,56,,34,34,6,17,6,7,0.4,0.5
2025-08-22T1400,3531A,110.296,25.1253,桂林市,旅游学院,,18,7,17,3,8,57,,34,34,3,13,1,6,0.4,0.4
2025-08-22T1400,4222A,110.1835,25.2444,桂林市,环湖路276号,,17,17,28,7,13,53,,32,32,6,13,5,12,0.2,0.3
2025-08-22T1400,4301A,110.2803,25.2773,桂林市,信义路13号,,24,24,21,3,8,57,,35,35,4,15,4,4,0.4,0.6
2025-08-22T1400,2674A,100.2561,34.4714,果洛藏族自治州,玛沁县大武镇,,26,17,18,15,10,81,,53,53,2,2,14,14,0.3,0.4
2025-08-22T1400,1129A,126.5422,45.755,哈尔滨市,岭北,,24,6,14,3,7,74,,60,60,6,16,10,10,0.7,0.8
2025-08-22T1400,1130A,126.561,45.8167,哈尔滨市,松北商大,,13,13,16,6,5,32,,23,22,10,14,6,6,0.4,0.4
2025-08-22T1400,1131A,126.979,45.5419,哈尔滨市,阿城会宁,,17,13,23,6,7,53,,45,45,7,13,7,7,0.4,0.5
2025-08-22T1400,1132A,126.599,45.7222,哈尔滨市,南岗学府路,,18,13,24,3,6,56,,30,30,7,17,6,6,0.5,0.6
2025-08-22T1400,1133A,126.689,45.7733,哈尔滨市,太平宏伟公园,,17,8,22,6,8,53,,29,29,10,19,7,7,0.4,0.5
2025-08-22T1400,1134A,126.635,45.7667,哈尔滨市,道外承德广场,,21,21,31,3,7,46,,22,22,9,17,6,6,0.5,0.8
2025-08-22T1400,1135A,126.685,45.7319,哈尔滨市,香坊红旗大街,,18,,15,6,9,57,,33,33,7,17,6,6,0.4,0.5
2025-08-22T1400,1136A,126.6411,45.7258,哈尔滨市,动力和平路,,,8,19,,7,57,,32,32,8,17,4,5,0.5,0.5
2025-08-22T1400,1137A,126.593,45.7478,哈尔滨市,道里建国路,,18,,17,3,8,56,,33,33,6,17,8,9,0.2,0.6
2025-08-22T1400,1138A,126.615,45.61,哈尔滨市,平房东轻厂,,15,6,25,3,8,47,,36,36,8,16,8,7,0.4,0.5
2025-08-22T1400,1139A,126.595,45.9855,哈尔滨市,呼兰师专,,18,7,16,3,5,56,,38,38,5,13,8,7,0.4,0.4
2025-08-22T1400,1140A,126.6206,45.6842,哈尔滨市,省农科院,,22,,19,15,11,41,,25,25,14,19,9,9,0.5,0.6
2025-08-22T1400,2688A,93.5128,42.8172,哈密市,地区监测站,颗粒物(PM10),63,75,124,32,44,122,,102,98,3,8,15,9,0.4,0.3
2025-08-22T1400,2689A,93.4961,42.8328,哈密市,哈密师范学校,颗粒物(PM10),56,61,100,22,25,124,,96,92,4,11,5,5,0.1,0.1
2025-08-22T1400,2671A,100.9048,36.9639,海北藏族自治州,海晏县西海镇,,39,19,19,10,16,124,,78,78,2,4,6,7,0.4,0.5
2025-08-22T1400,3867A,102.0738,36.5056,海东市,平安区公安北苑,,26,26,27,17,11,65,,33,30,16,12,9,9,0.8,1
2025-08-22T1400,1409A,110.576,19.9507,海口市,东寨港,,12,12,14,6,8,30,,31,31,3,4,7,8,0.3,0.3
2025-08-22T1400,1410A,110.3232,20.0574,海口市,海南大学,,16,16,13,6,7,35,,39,39,5,4,3,3,0.3,0.3
2025-08-22T1400,1411A,110.283,20.0053,海口市,秀英海南医院,,,21,17,7,7,33,,33,33,,10,6,5,0.2,0.3
2025-08-22T1400,1412A,110.338,19.9969,海口市,海南师范大学,,11,8,17,3,8,35,,36,36,5,5,4,4,0.3,0.4
2025-08-22T1400,1413A,110.33,20.0356,海口市,龙华路环保局宿舍,,16,16,15,7,9,35,,38,38,5,5,5,6,0.3,0.3
2025-08-22T1400,3539A,110.5111,19.9736,海口市,桂林洋子站,,13,13,18,6,10,34,,32,32,4,10,3,3,0.2,0.2
2025-08-22T1400,2673A,100.6188,36.2866,海南藏族自治州,共和县恰卜恰镇,,43,13,19,3,8,136,,114,114,2,5,12,12,0.4,0.5
2025-08-22T1400,2676A,97.3731,37.3753,海西蒙古族藏族自治州,德令哈市,,42,,24,17,14,134,,121,121,2,6,13,13,0.4,0.4
2025-08-22T1400,1048A,114.5302,36.6116,邯郸市,东污水处理厂,,44,23,34,20,20,139,,90,90,1,17,8,10,0.4,1
2025-08-22T1400,1049A,114.4918,36.5713,邯郸市,矿院,,50,23,26,3,5,158,,98,98,3,20,6,7,0.4,0.8
2025-08-22T1400,1050A,114.484,36.6133,邯郸市,丛台公园,臭氧1小时,62,20,29,17,16,169,,99,99,6,20,10,9,0.4,1
2025-08-22T1400,3458A,114.7895,36.5593,邯郸市,香泉濮院小区,,45,34,31,9,7,142,,101,101,4,13,6,5,0.4,0.6
2025-08-22T1400,3579A,114.50634,36.77178,邯郸市,永年区实验高中,,50,33,35,3,17,159,,90,90,7,20,7,7,0.2,1
2025-08-22T1400,3580A,114.20016,36.44293,邯郸市,峰峰矿区临水派出所,,,32,35,,4,184,,106,106,,6,,7,0.6,0.5
2025-08-22T1400,2634A,106.9893,33.1842,汉中市,汉川机床厂子校,,45,45,20,13,6,87,,63,63,8,9,5,5,0.6,0.7
2025-08-22T1400,2635A,107.0154,33.0706,汉中市,市监测站,,39,39,21,12,8,88,,57,57,7,8,7,6,0.6,0.6
2025-08-22T1400,2636A,107.0089,33.1138,汉中市,鑫源开发区,,34,34,20,12,8,97,,65,65,6,9,9,9,0.6,0.6
2025-08-22T1400,2637A,107.007,33.0323,汉中市,南郑大河坎水厂,,30,30,22,10,8,78,,47,47,9,9,4,3,0.4,0.4
2025-08-22T1400,1223A,120.2072,30.2111,杭州市,滨江,,43,26,28,12,14,135,,94,94,12,16,7,7,0.2,0.6
2025-08-22T1400,1224A,120.0633,30.2747,杭州市,西溪,,45,16,23,11,17,143,,100,100,9,13,10,10,0.3,0.4
2025-08-22T1400,1226A,120.3417,30.3150,杭州市,下沙,臭氧1小时,70,19,28,13,16,176,,110,110,11,15,7,6,0.3,0.3
2025-08-22T1400,1227A,120.1269,30.2456,杭州市,卧龙桥,,40,17,26,10,17,127,,86,86,4,10,7,8,0.4,0.4
2025-08-22T1400,1228A,120.1903,30.2692,杭州市,浙江农大,,35,19,43,8,16,111,,84,84,3,11,4,4,0.5,0.6
2025-08-22T1400,1230A,120.1197,30.3119,杭州市,和睦小学,,41,16,25,10,16,131,,98,98,6,12,6,6,0.4,0.4
2025-08-22T1400,1231A,120.3019,30.4183,杭州市,临平镇,,49,32,35,10,18,155,,102,102,11,14,6,6,0.2,0.3
2025-08-22T1400,1232A,120.2753,30.1839,杭州市,城厢镇,臭氧1小时,78,32,49,16,19,182,,108,108,9,13,8,8,0.5,0.5
2025-08-22T1400,1233A,120.0883,30.1808,杭州市,云栖,,49,18,25,8,13,154,,97,97,13,18,10,10,0.6,0.6
2025-08-22T1400,3557A,119.9464,30.0494,杭州市,镇二中,,29,14,22,10,16,90,,70,70,16,15,5,5,0.5,0.5
2025-08-22T1400,3558A,119.7183,30.2367,杭州市,市府大楼,,37,18,17,9,12,116,,80,80,6,10,8,8,0.3,0.3
2025-08-22T1400,3656A,120.1556,30.2864,杭州市,消防大队,,38,17,26,7,14,120,,90,90,2,8,6,6,0.6,0.6
2025-08-22T1400,1270A,117.1959,31.7848,合肥市,明珠广场,,40,22,24,14,10,128,,96,96,7,14,7,7,0.5,0.5
2025-08-22T1400,1271A,117.3072,31.8764,合肥市,三里街,,34,17,24,9,8,108,,82,82,9,12,7,6,0.5,0.5
2025-08-22T1400,1272A,117.2588,31.8707,合肥市,琥珀山庄,,41,19,25,13,14,129,,106,106,6,10,8,7,0.4,0.4
2025-08-22T1400,1273A,117.1604,31.9052,合肥市,董铺水库,,38,36,21,19,10,120,,87,87,6,7,5,5,0.5,0.3
2025-08-22T1400,1274A,117.25,31.8571,合肥市,长江中路,,38,22,25,9,8,120,,97,97,6,11,8,7,0.4,0.4
2025-08-22T1400,1275A,117.266,31.9436,合肥市,庐阳区,,41,24,24,7,8,129,,102,102,8,11,7,6,0.4,0.3
2025-08-22T1400,1276A,117.3453,31.8616,合肥市,瑶海区,,35,17,24,10,7,109,,85,85,6,14,7,6,0.5,0.5
2025-08-22T1400,1277A,117.3027,31.7964,合肥市,包河区,,34,14,19,7,8,108,,87,87,1,6,12,11,0.5,0.5
2025-08-22T1400,1278A,117.2776,31.7385,合肥市,滨湖新区,,35,19,22,12,13,111,,84,84,3,6,5,5,0.5,0.4
2025-08-22T1400,1279A,117.1318,31.8403,合肥市,高新区,,43,29,23,12,10,137,,106,106,10,12,5,6,0.4,0.4
2025-08-22T1400,3464A,117.3803,31.9147,合肥市,高教基地,,38,19,18,14,10,120,,91,91,6,8,5,6,0.4,0.5
2025-08-22T1400,3614A,79.924,37.0877,和田地区,地区环保局,颗粒物(PM10),202,351,264,73,55,100,,64,64,2,4,1,2,0.5,0.5
2025-08-22T1400,3615A,79.9131,37.113,和田地区,市环保局,颗粒物(PM10),158,265,228,61,45,95,,61,61,14,20,3,3,0.2,0.3
2025-08-22T1400,2516A,108.2011,24.715,河池市,东仁乐园,,,,,,,,,,,,,,,,
2025-08-22T1400,2517A,108.0497,24.6947,河池市,市环保站,,17,17,22,9,8,48,,31,31,5,7,5,6,0.4,0.5
2025-08-22T1400,2518A,108.0983,24.6989,河池市,市疾控中心,,18,18,20,9,10,46,,27,27,6,11,6,7,0.5,0.6
2025-08-22T1400,1696A,114.6778,23.7569,河源市,源西,,23,22,19,13,9,72,,36,36,5,10,5,5,0.7,0.6
2025-08-22T1400,1697A,114.6944,23.7586,河源市,东埔,,34,34,20,13,10,84,,43,43,8,13,4,4,0.4,0.4
2025-08-22T1400,1698A,114.6892,23.7233,河源市,老城,,30,22,25,19,10,93,,46,46,6,12,4,5,0.5,0.5
2025-08-22T1400,1718A,115.4208,35.2464,菏泽市,气象局,臭氧1小时,52,44,35,23,17,161,,114,114,6,12,3,5,0.4,0.3
2025-08-22T1400,3374A,115.5564,35.0891,菏泽市,定陶老年大学,,35,29,28,7,7,110,,90,90,3,9,4,5,0.3,0.4
2025-08-22T1400,4184A,115.4797,35.24401,菏泽市,永昌路1号,,42,38,31,17,16,133,,102,102,6,9,7,8,0.2,0.2
2025-08-22T1400,4193A,115.4715,35.2800,菏泽市,长城路999号,,50,35,27,16,10,158,,114,114,7,8,6,7,0.6,0.5
2025-08-22T1400,2514A,111.5264,24.4172,贺州市,环保小区,,19,17,22,12,8,59,,29,29,4,11,12,12,0.4,0.6
2025-08-22T1400,2515A,111.5608,24.4078,贺州市,政协大楼,,29,,18,3,10,90,,38,38,3,8,7,8,0.7,0.7
2025-08-22T1400,3534A,111.4744,24.4553,贺州市,西湾,,32,32,24,3,7,65,,31,31,5,9,8,7,0.3,0.4
2025-08-22T1400,2385A,114.17,35.9019,鹤壁市,市监测站,,44,25,29,15,19,138,,80,80,4,12,7,6,0.5,0.6
2025-08-22T1400,2386A,114.2956,35.7511,鹤壁市,市交警支队,,45,42,32,31,22,142,,80,80,6,15,12,10,0.8,0.8
2025-08-22T1400,2387A,114.2878,35.7306,鹤壁市,迎宾馆,,45,32,38,20,18,144,,84,84,6,14,10,10,1.2,0.9
2025-08-22T1400,3474A,114.2617,35.6822,鹤壁市,大新区,颗粒物(PM10),51,51,39,26,12,148,,85,85,6,14,11,9,1.6,0.8
2025-08-22T1400,3596A,114.1572,35.9603,鹤壁市,南山宾馆,,50,36,29,20,12,157,,102,102,6,13,5,7,0.5,0.9
2025-08-22T1400,2244A,130.2537,47.3416,鹤岗市,哈啤分公司,,19,12,19,7,7,59,,44,44,5,7,13,12,0.4,0.4
2025-08-22T1400,2245A,130.2684,47.3086,鹤岗市,斯达机电,,20,12,25,6,12,61,,47,47,6,12,13,13,0.4,0.4
2025-08-22T1400,2246A,130.3114,47.3388,鹤岗市,东山纸板厂,,20,17,30,8,14,62,,50,50,7,15,12,12,0.5,0.5
2025-08-22T1400,2247A,130.1097,47.3382,鹤岗市,五号水库,,19,7,6,3,4,58,,47,47,9,9,6,6,0.4,0.4
2025-08-22T1400,2263A,127.4833,50.2524,黑河市,交通局,,22,22,32,7,8,34,,20,20,11,16,5,6,0.5,0.5
2025-08-22T1400,2264A,127.5144,50.2341,黑河市,环保局,,16,12,34,11,13,29,,21,21,8,19,1,2,0.4,0.5
2025-08-22T1400,2265A,127.5291,50.2472,黑河市,大黑河岛,,,,,6,10,22,,18,16,2,2,21,22,0.5,0.4
2025-08-22T1400,1074A,115.6838,37.7541,衡水市,电机北厂,,40,12,20,7,11,126,,76,76,5,9,4,5,0.5,0.6
2025-08-22T1400,1075A,115.6303,37.7316,衡水市,市监测站,,41,32,28,16,10,130,,76,76,3,6,4,5,0.5,0.6
2025-08-22T1400,3188A,115.6683,37.7217,衡水市,市城管局,,39,28,24,3,12,123,,77,77,3,6,7,7,0.5,0.4
2025-08-22T1400,3459A,115.5989,37.5491,衡水市,地表水厂,,,,27,19,8,138,,82,82,4,8,1,8,0.3,0.2
2025-08-22T1400,2456A,112.5003,26.9167,衡阳市,原169医院,,25,25,19,6,6,69,,34,34,1,4,2,3,0.5,0.5
2025-08-22T1400,2457A,112.6194,26.9258,衡阳市,衡阳化工总厂,,23,23,21,9,11,66,,35,35,4,10,4,6,0.7,0.8
2025-08-22T1400,2458A,112.6211,26.8956,衡阳市,珠晖区环保局,,,31,20,,9,76,,38,38,4,12,10,11,0.5,0.7
2025-08-22T1400,2459A,112.6197,26.8733,衡阳市,市委党校,,24,17,16,10,9,74,,38,38,5,12,10,12,0.3,0.5
2025-08-22T1400,2460A,112.6006,26.8919,衡阳市,市监测站,,28,28,22,14,12,70,,40,40,5,12,7,8,0.5,0.8
2025-08-22T1400,2461A,112.5664,26.9056,衡阳市,真空机电公司,,20,11,17,11,10,63,,31,31,1,9,5,7,0.6,0.9
2025-08-22T1400,3399A,112.6703,26.882,衡阳市,师范学院,,50,50,27,8,11,78,,38,38,5,11,10,10,0.8,0.8
2025-08-22T1400,2608A,103.3772,23.3993,红河哈尼族彝族自治州,污水处理厂,,19,13,15,13,17,40,,48,39,6,6,8,7,0.3,0.3
2025-08-22T1400,2609A,103.3861,23.35,红河哈尼族彝族自治州,监测站,,23,23,25,8,10,45,,49,42,2,3,9,9,0.2,0.1
2025-08-22T1400,3038A,103.3758,23.368,红河哈尼族彝族自治州,州图书馆,,28,,11,19,19,44,,50,42,5,4,3,1,0.3,0.3
2025-08-22T1400,1090A,111.6507,40.7517,呼和浩特市,呼市一监,,40,31,37,9,20,128,,68,68,5,16,4,4,0.4,0.6
2025-08-22T1400,1091A,111.6572,40.8033,呼和浩特市,小召,,39,39,43,10,24,121,,71,71,16,22,11,9,0.8,0.9
2025-08-22T1400,1094A,111.7516,40.8369,呼和浩特市,如意水处理厂,,46,27,46,10,21,145,,71,71,8,21,8,6,0.4,0.5
2025-08-22T1400,1095A,111.7276,40.8062,呼和浩特市,二十九中,,42,36,45,8,25,134,,75,75,11,16,8,7,0.6,0.8
2025-08-22T1400,1096A,111.5512,40.7866,呼和浩特市,工大金川校区,,45,45,47,14,20,125,,69,69,16,25,9,6,0.4,0.4
2025-08-22T1400,1097A,111.717,40.7612,呼和浩特市,化肥厂生活区,,45,23,43,10,20,143,,78,78,8,19,8,7,0.4,0.6
2025-08-22T1400,3698A,111.5968,40.8178,呼和浩特市,红旗小学,,,44,45,17,19,142,,22,,12,26,8,5,,0.4
2025-08-22T1400,3699A,111.6518,40.8389,呼和浩特市,海东办,,48,48,50,11,19,147,,80,80,11,22,9,7,0.4,0.5
2025-08-22T1400,2192A,119.7594,49.2261,呼伦贝尔市,区环保局,,,13,17,11,14,92,,80,80,6,7,5,5,,0.4
2025-08-22T1400,3061A,119.7512,49.1577,呼伦贝尔市,国华电力东,,34,9,14,8,8,108,,94,94,2,2,7,8,0.6,0.6
2025-08-22T1400,1250A,120.0751,30.8669,湖州市,城西水厂,,46,19,29,13,20,147,,109,109,8,20,7,7,0.4,0.4
2025-08-22T1400,2873A,120.0830,30.8929,湖州市,仁皇山新区,,40,18,32,9,21,126,,98,98,5,16,4,5,0.2,0.3
2025-08-22T1400,2907A,120.1844,30.8596,湖州市,吴兴区站,,49,26,33,14,20,156,,99,99,4,13,7,7,0.5,0.6
2025-08-22T1400,3562A,120.4148,30.8538,湖州市,南浔区站,,50,25,34,15,23,159,,105,105,5,10,6,6,0.6,0.6
2025-08-22T1400,1607A,120.9049,40.7211,葫芦岛市,龙港区,颗粒物(PM10),52,54,69,6,28,133,,80,80,10,8,8,4,0.6,0.6
2025-08-22T1400,1608A,120.8392,40.7514,葫芦岛市,化工街,,39,14,22,3,13,124,,73,73,9,12,8,7,0.5,0.5
2025-08-22T1400,1609A,120.8341,40.7073,葫芦岛市,新区,,43,43,36,7,27,124,,78,78,7,8,2,2,0.7,0.7
2025-08-22T1400,1610A,120.8695,40.7677,葫芦岛市,东城区,颗粒物(PM10),54,58,27,3,24,132,,84,84,10,12,6,3,0.6,0.7
2025-08-22T1400,2482A,109.5981,27.5721,怀化市,林科所,,,17,17,3,3,39,,30,30,,5,6,4,,0.6
2025-08-22T1400,2483A,109.9453,27.5444,怀化市,河西地税局,,20,20,15,8,8,46,,32,32,4,6,3,2,0.1,0
2025-08-22T1400,2484A,109.9781,27.5342,怀化市,市四医院,,22,22,22,9,7,41,,31,31,1,5,3,4,0.4,0.5
2025-08-22T1400,2485A,109.9972,27.5578,怀化市,监测楼,,14,13,18,3,7,44,,33,33,2,6,3,4,0.2,0.2
2025-08-22T1400,2486A,110.0394,27.583,怀化市,市委党校,,12,12,16,3,8,37,,26,26,2,5,6,7,0.2,0.2
2025-08-22T1400,1210A,119.036,33.5981,淮安市,钵池山,,37,,33,21,24,116,,105,105,4,9,4,4,0.6,0.8
2025-08-22T1400,1211A,119.007,33.575,淮安市,北京南路,,33,17,37,16,24,105,,101,101,4,11,7,7,0.5,0.7
2025-08-22T1400,1212A,118.989,33.6067,淮安市,市监测站,,38,22,42,17,28,119,,107,107,6,11,10,10,0.5,0.7
2025-08-22T1400,1213A,119.135,33.5039,淮安市,楚州区监测站,,39,39,52,20,24,119,,87,87,9,16,8,7,0.5,0.6
2025-08-22T1400,3426A,118.8755,33.2894,淮安市,新华书店,,35,23,35,14,26,112,,90,90,10,16,6,6,0.3,0.5
2025-08-22T1400,4206A,119.0288,33.6319,淮安市,承德北路606号,,36,27,44,24,29,115,,103,103,4,12,6,8,0.3,0.5
2025-08-22T1400,2282A,116.8004,33.975,淮北市,监测站,,44,30,34,19,20,139,,110,110,2,6,7,8,0.5,0.6
2025-08-22T1400,2283A,116.8091,33.9007,淮北市,烈山区政府,,43,19,39,3,12,137,,100,100,3,14,9,9,0.4,0.5
2025-08-22T1400,3330A,116.8873,33.9836,淮北市,杜集区检察院,,43,16,35,12,20,136,,106,106,3,10,8,8,0.6,0.6
2025-08-22T1400,4017A,116.7923,33.9535,淮北市,市博物馆,,44,27,31,15,17,139,,108,108,4,9,9,9,0.4,0.5
2025-08-22T1400,2277A,116.8305,32.7727,淮南市,潘集区政府,,31,25,29,7,8,99,,82,82,11,12,3,3,0.4,0.3
2025-08-22T1400,2279A,116.8569,32.5951,淮南市,谢家集区政府,,42,16,29,8,13,132,,84,84,5,10,6,7,0.1,0.1
2025-08-22T1400,2280A,116.8281,32.633,淮南市,八公山区政府,,40,18,27,10,12,128,,80,80,6,9,7,4,0.3,0.3
2025-08-22T1400,2281A,116.6325,32.6201,淮南市,焦岗湖风景区管理处,,,,,,,,,,,,,,,,
2025-08-22T1400,2894A,117.0566,32.6531,淮南市,经济技术开发区消防队,,37,37,26,8,5,109,,92,92,7,12,9,9,0.3,0.2
2025-08-22T1400,3329A,117.0108,32.5893,淮南市,山南新区,,40,30,27,3,6,128,,86,86,5,10,5,5,0.5,0.5
2025-08-22T1400,4209A,117.0031,32.6445,淮南市,国庆中路369号,,40,40,26,11,16,115,,84,84,4,7,4,4,0.5,0.4
2025-08-22T1400,2446A,114.9028,30.4742,黄冈市,职工中心,,28,10,16,6,12,87,,72,72,5,13,8,9,0.2,0.4
2025-08-22T1400,2929A,114.8858,30.4519,黄冈市,红卫路,,27,11,20,10,14,84,,67,67,5,15,10,12,0.2,0.4
2025-08-22T1400,3398A,114.9136,30.4445,黄冈市,市林业局,,30,16,23,3,12,94,,75,75,5,14,9,9,0.4,0.4
2025-08-22T1400,2672A,102.0199,35.5102,黄南藏族自治州,同仁县隆务镇,,28,28,19,8,5,84,,74,74,7,4,9,9,0.3,0.3
2025-08-22T1400,2295A,118.2903,29.6963,黄山市,延安路89号,,28,27,20,19,7,60,,43,43,5,6,4,4,0.4,0.3
2025-08-22T1400,2297A,118.1371,30.2756,黄山市,黄山区政府5号楼,,22,,16,12,7,69,,44,44,2,4,4,4,0.5,0.5
2025-08-22T1400,4210A,118.3354,29.7203,黄山市,滨江东路7-2号,,20,19,17,3,5,62,,48,48,4,5,2,2,0.4,0.3
2025-08-22T1400,2423A,115.0601,30.2313,黄石市,沈家营,,39,19,43,6,9,123,,72,72,1,18,7,8,0.4,0.5
2025-08-22T1400,2426A,114.8988,30.2019,黄石市,铁山,,22,16,24,3,5,70,,50,50,2,11,4,6,0.6,0.6
2025-08-22T1400,2427A,115.0307,30.2092,黄石市,团城山,,31,10,27,3,4,99,,70,70,2,16,7,8,0.6,0.7
2025-08-22T1400,3149A,115.0235,30.1578,黄石市,笔架山北路,,27,6,22,3,3,86,,65,65,4,10,5,7,0.6,0.6
2025-08-22T1400,4185A,115.0780,30.21118,黄石市,磁湖东路29号,,,37,47,10,11,112,,71,71,,17,10,11,0.5,0.7
2025-08-22T1400,1392A,114.4183,23.0528,惠州市,河南岸金山湖子站,,39,21,26,19,16,122,,62,62,11,17,8,8,0.5,0.5
2025-08-22T1400,1393A,114.4053,23.0822,惠州市,下埔横江三路子站,,44,23,29,11,15,138,,67,67,8,16,4,6,0.3,0.3
2025-08-22T1400,1394A,114.4103,23.1142,惠州市,江北云山西路子站,,44,19,28,12,13,140,,70,70,11,20,8,10,0.5,0.6
2025-08-22T1400,1395A,114.4645,22.7833,惠州市,惠阳区承修路船湖子站,臭氧1小时,70,31,32,22,15,176,,83,83,13,17,7,7,0.6,0.6
2025-08-22T1400,1396A,114.5317,22.7422,惠州市,大亚湾管委会子站,臭氧1小时,60,28,22,21,12,168,,73,73,14,18,8,8,0.4,0.4
2025-08-22T1400,3314A,114.4338,22.8134,惠州市,惠阳秋长,,44,27,31,12,16,139,,79,79,12,23,8,7,0.5,0.5
2025-08-22T1400,3452A,114.6517,22.775,惠州市,大亚湾霞涌,臭氧1小时,67,39,16,17,8,173,,81,81,13,13,6,5,0.2,0.3
2025-08-22T1400,2240A,130.9762,45.3001,鸡西市,环保局,,15,6,19,3,7,46,,54,54,10,13,6,6,0.5,0.4
2025-08-22T1400,2243A,130.9429,45.3039,鸡西市,第一中学,,15,6,18,3,6,45,,52,52,11,13,8,9,0.6,0.6
2025-08-22T1400,3707A,131.0207,45.3073,鸡西市,欧美日汽修厂,,15,6,18,3,7,46,,57,57,9,13,10,9,0.6,0.6
2025-08-22T1400,3709A,130.9967,45.3106,鸡西市,市政设施管理处,,14,,19,3,6,44,,55,55,14,18,6,7,0.7,0.6
2025-08-22T1400,2367A,114.9754,27.0803,吉安市,红声器材厂,,24,22,31,10,16,75,,60,60,2,7,8,8,0.6,0.6
2025-08-22T1400,2368A,114.9658,27.0999,吉安市,市森林工业局,,26,26,28,8,12,82,,64,64,2,7,8,9,0.3,0.4
2025-08-22T1400,2369A,114.99,27.1312,吉安市,市环境监测站,,29,29,23,15,11,92,,73,73,1,3,10,11,0.5,0.5
2025-08-22T1400,2370A,115.0093,27.0968,吉安市,青原区法院,,25,22,23,11,12,77,,63,63,6,7,7,8,0.5,0.6
2025-08-22T1400,1772A,126.54,43.8622,吉林市,哈达湾,,,,12,9,12,91,,79,79,,5,7,6,0.4,0.4
2025-08-22T1400,1773A,126.5844,43.8358,吉林市,东局子,,25,6,8,3,11,79,,66,66,4,5,6,5,0.6,0.7
2025-08-22T1400,1774A,126.5052,43.8245,吉林市,电力学院,,27,,14,8,10,85,,72,72,1,5,6,6,0.6,0.6
2025-08-22T1400,1775A,126.6133,43.8972,吉林市,江北,,27,13,18,6,11,85,,69,69,5,5,5,4,0.4,0.6
2025-08-22T1400,1776A,126.555,43.8306,吉林市,江南公园,,27,12,18,7,14,86,,77,77,3,5,2,2,0.4,0.4
2025-08-22T1400,1778A,126.7061,43.7133,吉林市,丰满,,35,10,11,7,11,109,,105,105,3,3,6,5,0.8,0.8
2025-08-22T1400,2868A,126.4739,43.953,吉林市,九站,,30,,30,10,10,94,,81,81,5,9,2,3,0.4,0.5
2025-08-22T1400,1299A,116.9862,36.6114,济南市,科干所,,37,17,24,12,15,116,,102,102,5,8,6,7,0.4,0.5
2025-08-22T1400,1300A,116.9376,36.665,济南市,农科所,,31,12,27,7,11,98,,91,91,12,15,8,9,0.3,0.3
2025-08-22T1400,1301A,117.1265,36.6734,济南市,开发区,,33,10,19,7,13,104,,95,95,6,9,7,8,0.5,0.5
2025-08-22T1400,1303A,117.0624,36.6868,济南市,省种子仓库,,,14,27,9,10,,,92,,4,8,5,5,0.5,0.5
2025-08-22T1400,1304A,116.9489,36.6447,济南市,机床二厂,,31,22,30,7,14,99,,96,96,10,12,11,9,0.3,0.4
2025-08-22T1400,1305A,117.0495,36.663,济南市,市监测站,,,,25,10,13,105,,96,96,6,9,9,9,0.6,0.6
2025-08-22T1400,1306A,116.7675,36.5484,济南市,长清党校,,31,,24,17,16,99,,94,94,9,13,5,7,0.6,0.7
2025-08-22T1400,1616A,117.6795,36.229,济南市,技术学院,,40,12,23,7,14,125,,110,110,3,10,8,11,0.4,0.6
2025-08-22T1400,1961A,117.532,36.6868,济南市,东山小学,,39,20,25,17,13,122,,98,98,6,11,6,6,0.2,0.3
2025-08-22T1400,3059A,117.7161,36.2049,济南市,泰兴公司,,39,19,27,12,13,122,,103,103,4,12,12,16,0.6,0.6
2025-08-22T1400,3064A,117.6867,36.2171,济南市,莱芜战役纪念馆,,37,24,25,13,17,117,,97,97,6,13,9,8,0.3,0.6
2025-08-22T1400,3494A,117.1673,36.9782,济南市,济阳区政府,,49,49,43,20,13,151,,102,102,4,9,7,8,0.4,0.3
2025-08-22T1400,3495A,117.1171,36.63,济南市,锦屏中学,,32,10,19,7,9,102,,90,90,7,9,8,9,0.5,0.6
2025-08-22T1400,3682A,116.9814,36.6819,济南市,济南四建,,35,17,23,10,14,109,,103,103,5,8,6,6,0.4,0.5
2025-08-22T1400,1653A,116.6251,35.4302,济宁市,火炬城,,35,33,29,3,11,109,,94,94,3,6,5,6,0.5,0.6
2025-08-22T1400,1655A,116.5491,35.4042,济宁市,电化厂,,36,23,32,7,14,115,,93,93,1,8,1,2,0.8,0.9
2025-08-22T1400,3500A,116.5814,35.3707,济宁市,北湖一中,,35,19,28,10,13,109,,93,93,2,4,9,7,0.2,0.2
2025-08-22T1400,3501A,116.8249,35.5593,济宁市,服务中心,,31,18,30,6,9,98,,87,87,1,7,2,2,0.3,0.5
2025-08-22T1400,3678A,116.5907,35.4054,济宁市,市第七中学,,35,28,28,3,6,110,,92,92,1,5,7,8,0.4,0.4
2025-08-22T1400,2255A,130.2751,46.8028,佳木斯市,佳纺,,15,8,22,3,7,47,,29,29,9,27,9,9,0.4,0.4
2025-08-22T1400,2256A,130.3995,46.8307,佳木斯市,发电厂,,16,16,30,6,8,45,,32,32,15,30,12,11,0.5,0.6
2025-08-22T1400,2257A,130.3258,46.7975,佳木斯市,环保局,,12,9,25,8,10,38,,22,22,16,36,8,10,0.6,0.6
2025-08-22T1400,2258A,130.3648,46.8032,佳木斯市,十一中,,16,,21,11,9,45,,28,28,8,30,10,11,0.6,0.6
2025-08-22T1400,2259A,130.3794,46.7588,佳木斯市,四丰,,,7,11,,,5,,5,5,10,37,1,26,0.4,0.4
2025-08-22T1400,1252A,120.7436,30.778,嘉兴市,清河小学,,42,21,33,15,18,133,,101,101,7,17,5,6,0.6,0.8
2025-08-22T1400,1253A,120.726,30.7478,嘉兴市,嘉兴学院,,,,40,,24,,,49,,,18,,6,,0.6
2025-08-22T1400,2872A,120.7846,30.7525,嘉兴市,南湖区残联,,45,16,33,13,25,144,,106,106,6,18,6,6,0.5,0.6
2025-08-22T1400,3407A,120.6916,30.7739,嘉兴市,秀洲住建,臭氧1小时,62,32,34,19,20,169,,108,108,8,16,6,7,0.6,0.7
2025-08-22T1400,1945A,98.2908,39.7711,嘉峪关市,气象局,,46,19,20,7,7,147,,106,106,6,17,9,8,0.7,0.6
2025-08-22T1400,2884A,98.2672,39.7978,嘉峪关市,酒钢宾馆,臭氧1小时,52,24,29,7,10,161,,127,127,3,11,30,25,0.8,0.7
2025-08-22T1400,3248A,98.2643,39.7724,嘉峪关市,雄关区,,43,29,23,18,13,135,,99,99,12,19,19,15,0.3,0.6
2025-08-22T1400,1383A,113.1064,22.6058,江门市,北街,,34,30,17,20,9,106,,59,59,8,10,4,3,0.4,0.5
2025-08-22T1400,1384A,113.0731,22.5835,江门市,西区,,27,19,20,3,7,84,,56,56,5,11,7,7,0.9,0.8
2025-08-22T1400,1385A,113.0219,22.5311,江门市,圭峰西,,27,15,21,11,9,84,,53,53,4,7,2,2,0.5,0.5
2025-08-22T1400,1386A,113.0828,22.5947,江门市,东湖,,26,19,18,13,9,82,,51,51,7,10,8,8,0.4,0.4
2025-08-22T1400,3311A,113.1075,22.5647,江门市,江海富民,,34,33,29,10,9,107,,57,57,6,10,4,4,0.2,0.2
2025-08-22T1400,3449A,113.05,22.4667,江门市,新会银湖,,26,17,21,11,11,81,,50,50,4,10,3,3,0.4,0.4
2025-08-22T1400,1830A,113.1992,35.2590,焦作市,影视城,,,,23,,14,,,,,,22,,10,,1.0
2025-08-22T1400,3335A,113.3137,35.2641,焦作市,马村街道办,,48,30,36,17,16,152,,88,88,7,15,7,7,0.5,0.5
2025-08-22T1400,3336A,113.2465,35.2373,焦作市,焦作技师学院,,46,22,40,12,11,145,,86,86,11,20,3,3,0.8,0.9
2025-08-22T1400,3477A,113.1656,35.2539,焦作市,中站许衡医院,,42,39,37,12,20,132,,84,84,6,17,7,9,0.6,0.7
2025-08-22T1400,3981A,113.2449,35.1803,焦作市,原李万街道办,,,,26,9,7,155,,96,96,8,12,,12,0.4,0.3
2025-08-22T1400,4264A,113.2340,35.2190,焦作市,新安路1731号,,46,27,31,12,12,147,,89,89,4,15,6,6,0.5,0.5
2025-08-22T1400,4295A,113.2722,35.2121,焦作市,人民路3066号,,45,35,34,17,15,143,,84,84,5,13,4,4,0.4,0.4
2025-08-22T1400,1708A,116.3701,23.5345,揭阳市,新兴,,47,47,39,23,17,134,,78,78,8,24,6,14,0.4,0.5
2025-08-22T1400,1709A,116.3264,23.5443,揭阳市,西马,,47,41,41,26,18,148,,72,72,8,21,3,8,0.6,0.6
2025-08-22T1400,1710A,116.3611,23.5626,揭阳市,东兴,,47,47,37,22,16,143,,82,82,7,20,5,8,0.6,0.6
2025-08-22T1400,1711A,116.4151,23.5294,揭阳市,渔湖,,44,44,42,15,20,118,,68,68,6,23,7,11,0.5,0.7
2025-08-22T1400,3320A,116.403,23.5699,揭阳市,曲溪,,43,,37,26,15,135,,73,73,6,20,2,9,0.4,0.5
2025-08-22T1400,1944A,102.1692,38.5167,金昌市,天庆家园,,29,22,28,3,10,91,,88,86,10,13,3,4,0.5,0.6
2025-08-22T1400,4022A,102.1647,38.5371,金昌市,金川区人防中心,,25,18,19,3,10,80,,75,75,6,10,9,9,0.7,0.6
2025-08-22T1400,4239A,102.1930,38.5319,金昌市,长春路96号,,23,14,18,3,8,71,,72,70,6,8,4,6,0.5,0.5
2025-08-22T1400,1262A,119.647,29.077,金华市,十五中,,35,24,22,12,11,112,,82,82,5,9,4,4,0.4,0.4
2025-08-22T1400,1263A,119.686,29.1029,金华市,监测站,,33,15,22,10,12,104,,76,76,7,13,4,5,0.4,0.5
2025-08-22T1400,3659A,119.656,29.1131,金华市,气象局,,31,18,22,8,12,98,,76,76,5,13,2,3,0.5,0.6
2025-08-22T1400,1767A,121.1115,41.0879,锦州市,南山,,35,23,27,3,21,109,,71,71,2,6,5,4,0.4,0.7
2025-08-22T1400,1768A,121.0604,40.8428,锦州市,开发区,颗粒物(PM10),56,61,35,16,14,130,,73,73,13,15,5,2,0.8,0.8
2025-08-22T1400,1769A,121.1836,41.1119,锦州市,百股街道,,45,30,27,3,14,141,,93,93,5,6,8,5,0.6,0.7
2025-08-22T1400,1770A,121.1178,41.1222,锦州市,天安街道,,,,29,20,19,105,,79,79,,9,,7,0.6,0.8
2025-08-22T1400,1771A,121.1303,41.1386,锦州市,北湖公园,,30,14,32,3,17,95,,67,67,2,6,5,4,0.5,0.7
2025-08-22T1400,2160A,112.85,35.5051,晋城市,自来水公司,,47,40,37,27,11,149,,85,85,10,15,5,5,0.5,0.7
2025-08-22T1400,2161A,112.8318,35.4936,晋城市,白云商贸,,46,34,33,9,7,147,,87,87,7,10,6,6,0.6,0.7
2025-08-22T1400,2162A,112.8508,35.4887,晋城市,市环保局,,40,40,26,22,11,124,,76,76,8,12,3,2,0.6,0.7
2025-08-22T1400,2163A,112.8676,35.4897,晋城市,技术学院,,39,27,35,17,9,122,,76,76,8,13,4,4,0.7,0.8
2025-08-22T1400,2165A,112.8453,35.546,晋城市,白马寺,,46,19,16,19,14,145,,89,89,4,7,7,7,0.7,0.8
2025-08-22T1400,3620A,112.8271,35.4828,晋城市,泽州一中,,48,45,33,22,8,151,,92,92,8,10,2,3,0.7,0.9
2025-08-22T1400,2173A,112.7249,37.7067,晋中市,南都小区,,43,35,41,18,18,136,,84,84,7,21,6,7,0.5,0.6
2025-08-22T1400,2174A,112.6991,37.6982,晋中市,榆次区政府,,43,34,39,10,18,136,,77,77,7,18,7,7,0.5,0.8
2025-08-22T1400,2865A,112.7195,37.6828,晋中市,榆次三中,,44,29,38,7,15,138,,82,82,2,15,7,9,0.5,0.8
2025-08-22T1400,4200A,112.7478,37.6954,晋中市,迎宾街26号,,44,27,37,3,13,138,,80,80,3,18,8,10,0.6,0.8
2025-08-22T1400,2439A,112.2014,31.0481,荆门市,竹园小学,,29,24,24,11,13,92,,59,59,6,11,5,4,0.6,0.6
2025-08-22T1400,2440A,112.1969,30.9891,荆门市,掇刀,,30,16,25,12,12,96,,60,60,5,10,1,1,0.5,0.5
2025-08-22T1400,2441A,112.2213,31.0386,荆门市,石化一小,,31,18,27,12,16,98,,60,60,8,13,8,7,0.7,0.8
2025-08-22T1400,3012A,112.1849,31.0362,荆门市,西山林语,,28,20,22,10,11,89,,60,60,4,9,3,2,0.5,0.4
2025-08-22T1400,3547A,112.1632,31.0138,荆门市,龙泉中学南校,,30,14,23,3,11,93,,65,65,8,10,3,4,0.6,0.7
2025-08-22T1400,1844A,112.2494,30.3197,荆州市,市图书馆,,24,6,12,3,9,75,,58,58,4,7,3,3,0.4,0.5
2025-08-22T1400,1845A,112.2008,30.3544,荆州市,市委党校,,24,15,16,9,13,76,,57,57,7,11,4,5,0.4,0.4
2025-08-22T1400,3194A,112.2747,30.3122,荆州市,管委会,,23,19,15,8,12,71,,54,54,4,9,6,6,0.5,0.5
2025-08-22T1400,4268A,112.1722,30.3366,荆州市,学苑路85号,,,,14,8,11,81,,62,62,7,10,5,5,0.4,0.4
2025-08-22T1400,2342A,117.3102,29.3867,景德镇市,王港中学,,,,,,,,,,,,,,,,
2025-08-22T1400,2343A,117.2117,29.2933,景德镇市,老干部活动中心,,31,22,15,15,10,97,,51,51,6,6,14,9,0.7,0.6
2025-08-22T1400,2344A,117.1894,29.2789,景德镇市,兽医站,,29,28,25,17,8,91,,52,52,12,11,10,7,0.9,0.8
2025-08-22T1400,2346A,117.2461,29.2956,景德镇市,陶研所,,23,21,19,11,8,72,,49,49,3,6,8,9,0.5,0.5
2025-08-22T1400,4289A,117.1542,29.2566,景德镇市,青少年活动中心,,30,21,19,12,10,95,,52,52,8,14,7,13,0.5,0.5
2025-08-22T1400,1803A,115.9872,29.6815,九江市,十里,,33,15,15,13,13,103,,60,60,6,11,4,4,0.6,0.5
2025-08-22T1400,1804A,115.9584,29.7046,九江市,茅山头,,35,,17,13,10,111,,65,65,7,9,4,4,0.5,0.5
2025-08-22T1400,1805A,115.9877,29.7295,九江市,西园,,35,12,13,9,7,112,,68,68,7,13,4,4,0.5,0.5
2025-08-22T1400,1808A,115.9114,29.6038,九江市,综合工业园,,29,,13,9,8,91,,72,72,7,11,6,7,0.6,0.7
2025-08-22T1400,1809A,116.0721,29.7535,九江市,石化总厂,,36,,17,20,21,115,,69,69,7,10,6,6,0.5,0.4
2025-08-22T1400,1810A,115.9773,29.5698,九江市,庐山气象台,,23,7,7,3,3,72,,60,60,4,4,6,6,0.8,0.7
2025-08-22T1400,3190A,116.0254,29.6994,九江市,外国语学校,,34,,12,8,9,108,,61,61,8,9,6,5,0.8,0.8
2025-08-22T1400,4253A,116.0102,29.6594,九江市,莲花大道8号,,30,18,10,10,7,93,,57,57,1,3,5,4,0.4,0.4
2025-08-22T1400,4240A,98.4958,39.7339,酒泉市,玉门东路5号,,45,,28,20,22,141,,100,100,3,12,11,9,0.3,0.4
2025-08-22T1400,4241A,98.5099,39.7506,酒泉市,北大街108号,,41,17,26,14,16,131,,91,91,3,13,12,11,0.3,0.3
2025-08-22T1400,2698A,76.0072,39.4467,喀什地区,巡警大队,颗粒物(PM10),91,132,172,40,54,115,,100,100,7,18,3,3,0.2,0.3
2025-08-22T1400,2699A,75.9755,39.4694,喀什地区,吾办,颗粒物(PM10),94,137,178,43,57,111,,97,97,9,17,8,8,0.3,0.4
2025-08-22T1400,4027A,75.9483,39.4689,喀什地区,老干局,颗粒物(PM10),87,124,166,30,44,114,,97,97,6,17,5,5,0.1,0.2
2025-08-22T1400,1824A,114.3389,34.7781,开封市,肿瘤医院,颗粒物(PM10),52,54,38,11,9,130,,104,104,10,15,3,3,0.5,0.5
2025-08-22T1400,1826A,114.2885,34.7965,开封市,世纪星幼儿园,,43,39,33,20,16,136,,102,102,6,11,4,4,0.6,0.6
2025-08-22T1400,3147A,114.3438,34.8106,开封市,龙亭公园,,,42,34,,8,129,,104,104,4,8,4,5,0.6,0.6
2025-08-22T1400,3210A,114.3644,34.7964,开封市,汴京公园,,41,39,38,18,16,129,,109,109,5,10,4,4,0.5,0.5
2025-08-22T1400,3473A,114.2485,34.8306,开封市,技师学院,,41,36,31,15,18,129,,100,100,3,10,3,5,0.7,0.8
2025-08-22T1400,3592A,114.4644,34.7556,开封市,祥符区生态环境局,,42,42,39,15,15,115,,82,82,8,18,3,3,0.5,0.6
2025-08-22T1400,1951A,84.895,45.6094,克拉玛依市,长征新村,,33,29,15,8,7,103,,82,72,6,7,3,3,0.2,0.2
2025-08-22T1400,1952A,84.8988,45.5893,克拉玛依市,南林小区,,32,27,22,7,7,102,,71,63,8,19,6,6,0.2,0.1
2025-08-22T1400,1954A,84.905,44.3396,克拉玛依市,独山子区,,35,17,20,3,7,112,,92,83,8,11,11,9,0.4,0.4
2025-08-22T1400,1955A,85.6979,46.098,克拉玛依市,乌尔禾区商贸楼,,34,,29,16,12,108,,63,63,6,21,7,7,0.2,0.3
2025-08-22T1400,3612A,85.1045,45.6899,克拉玛依市,白碱滩区新站,,42,42,38,19,17,103,,85,71,4,7,10,9,0.4,0.4
2025-08-22T1400,2697A,76.1454,39.7142,克孜勒苏柯尔克孜自治州,市人民政府,颗粒物(PM10),67,84,129,40,44,120,,91,91,4,16,5,9,0.0,0.1
2025-08-22T1400,3665A,76.1658,39.7157,克孜勒苏柯尔克孜自治州,克州文化中心,颗粒物(PM10),68,85,125,27,41,124,,105,105,2,9,6,7,0.3,0.3
2025-08-22T1400,1450A,102.8204,24.8886,昆明市,呈贡新区,,20,,3,14,7,30,,26,25,11,14,6,4,0.7,0.4
2025-08-22T1400,1451A,102.6251,24.9608,昆明市,西山森林公园,,,,,,,,,,,,,,,,
2025-08-22T1400,1452A,102.7252,25.0902,昆明市,龙泉镇,,8,6,13,3,7,25,,24,22,10,13,1,1,0.3,0.4
2025-08-22T1400,1453A,102.7266,25.0375,昆明市,东风东路,,9,6,11,6,6,28,,24,23,12,15,2,3,0.4,0.4
2025-08-22T1400,1454A,102.6742,25.0669,昆明市,金鼎山,,9,6,13,3,6,26,,23,22,8,14,2,2,0.3,0.4
2025-08-22T1400,1455A,102.6644,25.0401,昆明市,碧鸡广场,,8,6,12,3,4,25,,21,21,10,16,8,7,0.5,0.5
2025-08-22T1400,3179A,102.7494,25.0119,昆明市,官渡区博物馆,,11,6,10,3,4,33,,29,29,6,11,3,2,0.4,0.5
2025-08-22T1400,3375A,102.8017,24.8336,昆明市,青年创业园,,25,23,9,17,5,30,,25,24,8,8,4,3,0.9,0.4
2025-08-22T1400,3550A,102.7997,24.9786,昆明市,昆明学院,,9,7,10,3,4,27,,28,24,12,13,6,6,0.4,0.4
2025-08-22T1400,3551A,102.5967,24.6736,昆明市,晋宁区生态环境分局,,14,14,13,3,4,34,,30,30,7,7,2,2,0.6,0.6
2025-08-22T1400,3552A,102.6678,24.9856,昆明市,云天化总部,,9,6,10,3,4,26,,26,23,8,10,5,4,0.4,0.4
2025-08-22T1400,1456A,91.1319,29.6514,拉萨市,八廓街,,32,7,7,7,6,101,,89,89,5,10,4,6,0.3,0.3
2025-08-22T1400,1457A,91.1221,29.6747,拉萨市,市环保局,,35,7,8,3,6,111,,88,88,6,9,6,6,0.2,0.2
2025-08-22T1400,1458A,91.0874,29.6475,拉萨市,区监测站,,32,6,6,3,6,102,,84,84,6,12,3,3,0.5,0.4
2025-08-22T1400,1459A,91.1774,29.6541,拉萨市,西藏大学,,31,6,7,3,5,97,,88,88,5,9,5,5,0.1,0.2
2025-08-22T1400,1460A,90.9798,29.6588,拉萨市,区辐射站,,31,9,8,6,6,97,,78,78,6,12,4,4,0.3,0.4
2025-08-22T1400,1461A,91.0834,29.6292,拉萨市,拉萨火车站,,32,7,7,3,6,102,,86,86,5,12,5,5,0.2,0.2
2025-08-22T1400,2520A,109.2203,23.7256,来宾市,来宾技工学校,,22,21,27,15,8,63,,32,32,2,9,8,9,0.4,0.4
2025-08-22T1400,3535A,109.1781,23.7297,来宾市,兴宾区政府,,32,24,24,22,11,68,,39,39,3,9,6,9,0.6,0.6
2025-08-22T1400,4002A,109.2416,23.7461,来宾市,中南小学,,22,22,24,3,10,68,,35,35,2,10,12,5,0.6,0.7
2025-08-22T1400,1477A,104.1373,35.9454,兰州市,榆中兰大校区,,,,,,,,,,,,,,,,
2025-08-22T1400,1479A,103.831,36.0464,兰州市,铁路设计院,,42,42,36,24,21,47,,26,26,38,36,14,15,0.7,0.8
2025-08-22T1400,3241A,103.7439,36.0842,兰州市,百合公园,,37,37,30,20,15,54,,32,32,21,23,18,6,0.8,0.6
2025-08-22T1400,3242A,103.9611,35.998,兰州市,和平,,32,26,27,22,10,82,,39,39,10,21,9,13,0.4,0.2
2025-08-22T1400,4236A,103.6293,36.0938,兰州市,庄浪东路808号,,45,45,33,29,17,30,,24,24,33,36,23,12,0.6,0.4
2025-08-22T1400,4237A,103.7251,36.1043,兰州市,安宁西路88号,,43,43,29,29,21,58,,43,43,21,15,21,8,0.8,0.4
2025-08-22T1400,4238A,103.8470,36.0676,兰州市,北滨河东路1号,,25,23,29,17,20,79,,41,41,20,27,8,13,0.4,0.8
2025-08-22T1400,3245A,103.6633,36.533,兰州新区,新区管委会,,31,24,22,19,14,99,,59,59,7,15,22,12,0.3,0.4
2025-08-22T1400,3246A,103.6975,36.4789,兰州新区,舟曲中学,,30,11,16,3,7,95,,62,62,10,18,7,7,0.3,0.3
2025-08-22T1400,1067A,116.6708,39.5111,廊坊市,药材公司,,35,34,30,12,12,110,,62,62,16,13,4,4,0.3,0.3
2025-08-22T1400,1068A,116.7214,39.5589,廊坊市,开发区,,32,30,28,16,13,100,,54,54,15,11,3,2,0.4,0.3
2025-08-22T1400,1070A,116.7244,39.5269,廊坊市,北华航天学院,,49,49,46,10,12,114,,66,66,11,10,5,4,0.3,0.3
2025-08-22T1400,2919A,116.7022,39.5453,廊坊市,河北工业大学,,41,41,41,11,12,109,,62,62,14,10,3,3,0.4,0.3
2025-08-22T1400,2535A,103.7723,29.5462,乐山市,花湖湾,,28,,13,11,9,88,,59,59,4,7,2,2,0.3,0.4
2025-08-22T1400,2536A,103.7627,29.5844,乐山市,牛耳桥,,30,15,15,13,13,94,,68,64,6,10,4,5,0.5,0.5
2025-08-22T1400,2537A,103.7508,29.6006,乐山市,市第三水厂,,29,16,14,10,10,90,,66,64,6,8,3,3,0.6,0.6
2025-08-22T1400,2538A,103.7571,29.5664,乐山市,市监测站,,26,17,13,11,11,83,,63,59,5,8,6,6,0.7,0.7
2025-08-22T1400,3361A,103.7311,29.5628,乐山市,理工大学,,27,22,14,13,10,86,,63,60,6,8,7,6,0.6,0.6
2025-08-22T1400,2598A,100.2143,26.8576,丽江市,西南郊,,19,6,4,3,3,60,,40,34,5,8,6,7,0.9,0.9
2025-08-22T1400,2599A,100.2497,26.8802,丽江市,丽江古城,,17,10,18,3,9,54,,28,28,9,13,10,10,0.5,0.6
2025-08-22T1400,2600A,100.2203,26.8906,丽江市,市中心,,16,13,13,11,12,48,,26,24,14,14,8,9,0.6,0.5
2025-08-22T1400,1267A,119.914,28.4514,丽水市,监测站大楼,,29,14,15,6,6,90,,66,66,5,11,3,4,0.3,0.3
2025-08-22T1400,1268A,119.93,28.4586,丽水市,莲都小学,,29,16,18,3,6,91,,63,63,4,15,4,4,0.2,0.3
2025-08-22T1400,1269A,119.879,28.4231,丽水市,余庄前,,27,10,11,7,6,86,,63,63,4,10,5,5,0.4,0.4
2025-08-22T1400,1173A,119.176,34.5885,连云港市,市环境监测站,,44,24,31,14,18,138,,110,110,4,10,2,2,0.5,0.5
2025-08-22T1400,3000A,119.3581,34.6972,连云港市,德源药业,,35,14,30,7,15,110,,96,96,6,13,5,5,0.5,0.7
2025-08-22T1400,3007A,119.178,34.844,连云港市,新城一中,臭氧1小时,100,31,33,22,20,200,,126,126,7,9,3,4,0.8,0.8
2025-08-22T1400,3008A,119.3608,34.7519,连云港市,胡沟管理处,,48,31,27,14,17,152,,140,140,13,13,10,9,0.6,0.7
2025-08-22T1400,3009A,119.1478,34.5911,连云港市,矿山设计院,,40,22,33,14,18,125,,101,101,6,11,12,11,0.7,0.8
2025-08-22T1400,3434A,119.2413,34.6539,连云港市,工贸学校,,43,43,34,20,22,135,,115,115,5,7,7,7,0.8,0.8
2025-08-22T1400,3664A,119.4172,34.7341,连云港市,连云街道,,50,40,35,21,20,158,,145,144,12,8,6,5,0.8,0.8
2025-08-22T1400,2571A,102.3431,27.8099,凉山彝族自治州,青龙寺,,22,,14,6,6,70,,38,38,2,3,2,2,0.5,0.5
2025-08-22T1400,2572A,102.2721,27.8415,凉山彝族自治州,邛海宾馆,,,,16,9,10,87,,51,51,2,7,7,6,,0.5
2025-08-22T1400,2573A,102.2625,27.898,凉山彝族自治州,西昌市政府,,28,21,17,14,11,87,,47,47,5,8,6,5,0.3,0.2
2025-08-22T1400,2574A,102.2685,27.8851,凉山彝族自治州,凉山州政府,,29,18,16,15,13,92,,48,48,14,14,8,7,0.2,0.6
2025-08-22T1400,4229A,102.2342,27.8859,凉山彝族自治州,凯乐南路30号,,32,14,16,8,11,100,,46,46,6,11,10,10,0.6,0.7
2025-08-22T1400,2212A,123.2,41.1953,辽阳市,宏伟区,,27,22,19,16,9,85,,79,65,7,6,2,2,1.0,0.7
2025-08-22T1400,2213A,123.1683,41.2495,辽阳市,新华园,,,,25,17,12,108,,76,76,12,8,8,5,1.0,0.6
2025-08-22T1400,2214A,123.2354,41.2639,辽阳市,滨河路,,,,19,10,10,94,,76,68,7,7,3,3,1.0,0.6
2025-08-22T1400,2215A,123.149,41.2991,辽阳市,铁西工业园,,,,34,20,12,89,,79,63,14,8,4,3,1.6,1
2025-08-22T1400,2227A,125.1358,42.8845,辽源市,环保局,,27,6,20,3,4,84,,84,83,2,3,7,7,0.4,0.5
2025-08-22T1400,3239A,125.0764,42.9078,辽源市,银鹰制药,,27,6,14,3,9,86,,82,82,2,7,8,8,0.4,0.4
2025-08-22T1400,1625A,115.9848,36.4372,聊城市,区政府,,43,30,26,18,14,137,,94,94,5,9,10,10,0.8,0.8
2025-08-22T1400,2878A,116.0072,36.4343,聊城市,聊大东校,,43,29,31,23,14,137,,96,96,6,12,10,9,0.4,0.4
2025-08-22T1400,3200A,115.9819,36.4978,聊城市,监控中心,,46,30,30,12,10,145,,102,102,10,15,9,10,0.8,0.7
2025-08-22T1400,3513A,116.0445,36.4361,聊城市,九州社区,,43,35,34,19,15,135,,96,96,5,10,2,5,0.2,0.2
2025-08-22T1400,4018A,116.0567,36.4608,聊城市,星美广场,,,32,30,18,13,139,,98,98,,8,3,3,0.6,0.6
2025-08-22T1400,2632A,94.3681,29.6376,林芝市,林芝监测站,,11,6,6,3,5,34,,23,23,3,6,4,4,0.4,0.4
2025-08-22T1400,2633A,94.3616,29.6616,林芝市,林芝人民医院,,10,9,9,3,5,31,,15,,3,4,6,8,0.6,0.5
2025-08-22T1400,2603A,100.0781,23.8982,临沧市,市环保局,,26,20,16,18,21,30,,22,22,8,9,7,6,0.3,0.3
2025-08-22T1400,2604A,100.0894,23.8822,临沧市,市气象局,,18,,15,12,11,31,,24,24,10,8,8,8,0.5,0.5
2025-08-22T1400,1733A,111.5531,36.0783,临汾市,临钢医院,,48,45,43,12,9,152,,93,93,12,19,14,11,1.0,0.9
2025-08-22T1400,1734A,111.5028,36.0714,临汾市,技工学校,,44,44,41,30,23,140,,88,88,7,14,15,11,1.0,0.9
2025-08-22T1400,1736A,111.5018,36.0855,临汾市,市委,颗粒物(PM10),53,56,53,17,10,149,,101,101,9,14,13,10,1.0,1.1
2025-08-22T1400,3018A,111.505,36.1014,临汾市,唐尧大酒店,颗粒物(PM10),54,57,53,22,11,147,,93,93,8,17,9,5,0.8,0.8
2025-08-22T1400,4244A,111.4879,36.0530,临汾市,启星学校,,45,41,40,9,22,143,,85,85,15,16,6,2,0.9,0.9
2025-08-22T1400,4271A,103.2464,35.6123,临夏回族自治州,滨河东路1号,,26,26,28,13,15,40,,19,19,9,13,7,7,0.4,0.4
2025-08-22T1400,4310A,103.2093,35.5995,临夏回族自治州,新华街21号,,23,23,26,13,17,62,,35,35,5,13,5,5,0.3,0.3
2025-08-22T1400,1618A,118.3429,35.0532,临沂市,沂河小区,,49,36,47,24,32,154,,114,114,10,15,12,10,0.5,0.5
2025-08-22T1400,1619A,118.295,35.0583,临沂市,鲁南制药厂,臭氧1小时,53,48,41,30,24,162,,115,115,18,13,10,9,0.4,0.5
2025-08-22T1400,1620A,118.2794,34.9976,临沂市,新光毛纺厂,臭氧1小时,63,34,36,23,25,170,,121,121,8,17,7,8,0.5,0.5
2025-08-22T1400,1621A,118.3956,35.0888,临沂市,河东保险公司,臭氧1小时,57,31,41,18,25,165,,131,131,7,13,8,8,0.3,0.4
2025-08-22T1400,3370A,118.3564,35.0215,临沂市,十里堡居委,,49,24,44,22,36,156,,127,127,9,16,9,11,0.4,0.5
2025-08-22T1400,3496A,118.3604,35.1084,临沂市,南坊新区,臭氧1小时,58,36,45,19,23,166,,126,126,11,12,8,8,0.5,0.6
2025-08-22T1400,3860A,118.3920,35.0300,临沂市,皇山花园小区,,48,22,50,22,37,153,,128,128,6,14,10,10,0.5,0.6
2025-08-22T1400,1870A,109.4856,24.3895,柳州市,柳东小学,,23,20,21,12,8,73,,38,38,4,10,4,5,0.3,0.3
2025-08-22T1400,1871A,109.4157,24.3277,柳州市,环保监测站,,29,24,20,20,9,64,,32,32,3,10,7,7,0.3,0.4
2025-08-22T1400,1872A,109.389,24.341,柳州市,河西水厂,,28,28,21,12,9,66,,36,36,4,11,4,5,0.4,0.4
2025-08-22T1400,1873A,109.4311,24.2921,柳州市,市四中,,33,33,20,8,7,62,,30,30,6,15,7,7,0.5,0.5
2025-08-22T1400,1874A,109.4006,24.3631,柳州市,市九中,,32,22,22,22,10,62,,31,31,5,12,4,4,0.2,0.2
2025-08-22T1400,1875A,109.4958,24.3134,柳州市,古亭山,,36,36,25,16,8,66,,32,32,3,11,5,5,0.5,0.6
2025-08-22T1400,3402A,109.5422,24.3996,柳州市,市二中,,28,28,21,18,10,72,,35,35,5,13,6,6,0.6,0.7
2025-08-22T1400,2307A,116.5079,31.737,六安市,监测大楼,,,16,18,3,12,,,75,75,2,7,,4,0.1,0.4
2025-08-22T1400,2308A,116.4738,31.7643,六安市,皖西学院,,29,,20,20,12,76,,84,84,2,5,2,3,0.2,0.3
2025-08-22T1400,2309A,116.4996,31.7905,六安市,朝阳厂,,31,31,18,19,12,82,,78,78,6,10,5,6,0.3,0.4
2025-08-22T1400,2310A,116.5567,31.7886,六安市,开发区,,38,38,19,16,15,90,,76,76,3,9,2,3,0.3,0.4
2025-08-22T1400,2576A,104.8,26.5892,六盘水市,窑上,,11,8,20,7,3,34,,36,36,11,6,5,5,0.3,0.3
2025-08-22T1400,2577A,104.83,26.5917,六盘水市,黄土坡,,11,10,10,6,4,34,,32,32,13,15,10,10,0.3,0.5
2025-08-22T1400,2578A,104.89,26.5939,六盘水市,水钢,,15,,18,10,16,37,,39,39,6,8,11,11,0.2,0.3
2025-08-22T1400,2579A,104.8475,26.5894,六盘水市,民中,,11,6,8,3,1,35,,34,34,11,13,9,9,0.4,0.5
2025-08-22T1400,2580A,104.9544,26.5506,六盘水市,双水,,13,,2,8,5,40,,39,34,6,7,6,6,0.1,0.1
2025-08-22T1400,2335A,117.0189,25.1181,龙岩市,龙岩师专,,,,,,,,,,,,,,,,
2025-08-22T1400,2336A,117.0217,25.1033,龙岩市,龙岩市监测站,,42,42,25,14,10,113,,59,59,6,16,5,7,0.6,0.6
2025-08-22T1400,2337A,117.0258,25.0661,龙岩市,闽西职业技术学院,,34,19,22,11,10,107,,49,49,3,14,4,12,0.6,0.6
2025-08-22T1400,2338A,117.0196,25.0306,龙岩市,龙岩学院,,35,26,19,14,11,109,,52,52,5,8,5,5,0.5,0.4
2025-08-22T1400,2665A,105.0822,33.3261,陇南市,汉王镇固水子,,,,,,,,,,,,,,,,
2025-08-22T1400,2885A,104.9339,33.3826,陇南市,滨江中学,,25,25,31,3,10,79,,47,47,2,7,8,8,0.6,0.7
2025-08-22T1400,3247A,104.955,33.371,陇南市,市总工会,,,30,34,9,6,4,,40,34,,8,6,6,0.6,0.6
2025-08-22T1400,2487A,111.9589,27.8901,娄底市,电视发射台,,36,36,22,15,7,56,,27,27,7,6,8,6,0.5,0.5
2025-08-22T1400,2488A,111.9975,27.725,娄底市,市监测站,,19,19,18,10,10,50,,35,35,5,9,4,6,0.6,0.5
2025-08-22T1400,2489A,112.0194,27.7314,娄底市,市委党校,,19,19,16,7,10,53,,37,37,6,6,3,4,0.4,0.4
2025-08-22T1400,2490A,111.9561,27.7569,娄底市,涟钢,,26,26,26,10,11,44,,28,28,18,16,10,4,0.7,0.9
2025-08-22T1400,2491A,111.9892,27.7044,娄底市,市政府,,17,16,15,3,10,53,,38,38,2,4,6,6,0.3,0.7
2025-08-22T1400,1893A,105.4324,28.9634,泸州市,九狮山,,41,41,33,28,25,89,,54,54,5,6,5,6,0.4,0.3
2025-08-22T1400,1894A,105.4427,28.9063,泸州市,小市上码头,,33,33,25,12,12,66,,37,36,7,10,4,4,0.1,0.1
2025-08-22T1400,1895A,105.4241,28.8573,泸州市,兰田宪桥,,28,28,27,11,14,78,,33,33,5,7,7,7,0.4,0.3
2025-08-22T1400,1896A,105.4379,28.8833,泸州市,市环监站,,30,30,24,20,15,87,,51,51,9,9,6,5,0.1,0.2
2025-08-22T1400,4272A,105.3689,28.7783,泸州市,纳溪中医医院,,29,20,22,14,14,91,,48,48,12,14,4,2,0.4,0.4
2025-08-22T1400,2183A,111.1406,37.5211,吕梁市,环保局,,36,,34,19,14,113,,55,55,6,18,2,2,0.4,0.5
2025-08-22T1400,2185A,111.1297,37.5136,吕梁市,自来水公司,,32,,36,12,12,101,,53,53,5,16,3,4,0.4,0.6
2025-08-22T1400,2867A,111.1283,37.51,吕梁市,马茂庄小学,,36,19,38,7,12,113,,56,56,6,21,2,3,0.3,0.4
2025-08-22T1400,1812A,112.3931,34.6516,洛阳市,市委党校,,45,27,37,14,17,142,,96,96,4,9,9,9,0.5,0.5
2025-08-22T1400,1815A,112.494,34.6886,洛阳市,河南林校,,48,35,42,15,17,153,,115,115,8,13,8,8,0.5,0.6
2025-08-22T1400,1816A,112.3844,34.623,洛阳市,开发区管委会,,48,28,32,14,16,153,,101,101,4,7,6,5,0.5,0.5
2025-08-22T1400,1817A,112.4267,34.6258,洛阳市,市委新办公区,,44,28,34,18,19,140,,98,98,5,9,9,8,0.4,0.4
2025-08-22T1400,3340A,112.6005,34.6326,洛阳市,伊滨,,39,35,40,17,17,124,,99,99,5,10,10,8,0.6,0.6
2025-08-22T1400,3341A,112.4951,34.6332,洛阳市,中移产业园,,44,27,37,10,16,140,,98,98,8,13,9,8,0.6,0.6
2025-08-22T1400,3593A,112.5736,34.8993,洛阳市,吉利监测站,,48,34,33,27,17,151,,93,93,3,6,7,6,0.8,0.6
2025-08-22T1400,3635A,112.3677,34.662,洛阳市,河科大西苑校区,,45,28,38,11,13,141,,100,100,8,13,8,8,0.5,0.5
2025-08-22T1400,3636A,112.4388,34.6781,洛阳市,英才小学,,43,28,39,18,21,136,,99,99,6,14,7,9,0.6,0.6
2025-08-22T1400,4214A,112.4600,34.6949,洛阳市,春都路1号院,,41,26,36,12,11,130,,86,86,8,8,8,9,0.7,0.7
2025-08-22T1400,2399A,114.051,33.5699,漯河市,三五一五工厂,,34,23,32,12,13,108,,89,89,4,10,5,6,0.5,0.5
2025-08-22T1400,2400A,114.0055,33.5698,漯河市,漯河大学,,35,17,26,9,11,112,,94,94,5,10,5,6,0.4,0.4
2025-08-22T1400,2401A,114.0138,33.5828,漯河市,市水利局,,35,22,31,12,13,112,,95,95,4,9,5,6,0.4,0.4
2025-08-22T1400,2402A,114.0261,33.5698,漯河市,市广电局,,37,17,26,16,16,118,,100,100,3,9,3,4,0.5,0.4
2025-08-22T1400,3478A,113.9749,33.5664,漯河市,市图书馆,,35,35,33,15,15,109,,89,89,4,9,5,7,0.4,0.4
2025-08-22T1400,4250A,114.0892,33.5882,漯河市,韶山路11号,,35,15,33,13,14,112,,93,93,5,10,4,5,0.5,0.5
2025-08-22T1400,1798A,118.5092,31.6837,马鞍山市,湖东路四小,臭氧1小时,100,49,27,18,16,200,,103,103,9,14,8,7,0.9,0.6
2025-08-22T1400,1799A,118.5024,31.6449,马鞍山市,开发区,臭氧1小时,83,42,28,14,14,186,,103,103,12,17,10,10,0.9,0.8
2025-08-22T1400,1802A,118.6245,31.7241,马鞍山市,濮塘,臭氧1小时,58,33,24,16,14,166,,114,114,5,12,8,8,0.8,0.8
2025-08-22T1400,3633A,118.4918,31.6809,马鞍山市,雨山,臭氧1小时,87,40,26,19,14,189,,96,96,11,16,8,8,0.9,0.6
2025-08-22T1400,4191A,118.5274,31.72227,马鞍山市,慈湖高新区,臭氧1小时,75,34,27,14,13,180,,96,96,12,17,9,8,0.8,0.5
2025-08-22T1400,1686A,111.0286,21.4688,茂名市,电白南海,,,12,17,,9,48,,44,44,5,6,3,3,0.3,0.9
2025-08-22T1400,1687A,110.9294,21.6533,茂名市,茂石化七小,,15,9,21,3,8,48,,39,39,3,8,5,6,0.5,0.5
2025-08-22T1400,1688A,110.9107,21.6687,茂名市,健康路,,15,6,15,3,8,46,,40,40,4,8,4,6,0.8,0.7
2025-08-22T1400,1689A,110.8592,21.6828,茂名市,高岭,,13,9,22,3,4,41,,39,39,5,11,6,6,0.4,0.5
2025-08-22T1400,3450A,111.01,21.5165,茂名市,电白水东,,15,6,8,3,4,45,,42,42,3,5,4,4,0.3,0.4
2025-08-22T1400,2539A,104.0308,30.0478,眉山市,黑龙滩水库,,35,7,10,3,7,109,,95,88,2,5,2,3,0.2,0.3
2025-08-22T1400,2540A,103.8416,30.0874,眉山市,气象局,,35,26,24,9,6,109,,60,60,11,10,13,11,0.5,0.5
2025-08-22T1400,3137A,103.8578,30.0744,眉山市,市委党校,,30,19,12,7,3,96,,55,55,12,11,7,8,0.5,0.4
2025-08-22T1400,3148A,103.8291,30.0564,眉山市,区人社局,,38,38,27,3,0,100,,54,54,13,13,10,9,0.6,0.6
2025-08-22T1400,1690A,116.1231,24.3284,梅州市,梅江月梅,,34,20,19,18,9,107,,50,50,8,10,9,9,0.6,0.6
2025-08-22T1400,1691A,116.0797,24.2719,梅州市,梅县新城,,30,30,17,17,8,86,,44,44,4,9,6,8,0.4,0.5
2025-08-22T1400,1692A,116.1248,24.2654,梅州市,环境监控中心,,40,40,21,12,9,91,,43,43,6,10,4,7,0.3,0.3
2025-08-22T1400,3315A,116.1233,24.2991,梅州市,梅龙,,28,17,15,3,7,89,,44,44,5,7,7,8,0.6,0.6
2025-08-22T1400,1878A,104.7778,31.4741,绵阳市,富乐山,,17,13,14,9,8,53,,53,52,4,5,8,8,0.4,0.4
2025-08-22T1400,1880A,104.6697,31.4668,绵阳市,高新区自来水公司,,19,12,10,3,3,59,,51,49,7,8,8,8,0.4,0.4
2025-08-22T1400,1881A,104.7287,31.5075,绵阳市,三水厂,,20,,13,8,7,62,,56,56,3,6,8,8,0.3,0.3
2025-08-22T1400,3491A,104.69,31.5322,绵阳市,西科大附属小学,,21,13,13,3,5,65,,52,52,6,9,9,8,0.4,0.4
2025-08-22T1400,3492A,104.5648,31.5343,绵阳市,安州区旅游局,,18,14,13,3,3,55,,45,45,7,9,12,10,0.2,0.2
2025-08-22T1400,4226A,104.7651,31.4531,绵阳市,绵阳市气象局,,17,17,12,6,7,52,,56,49,4,5,7,8,0.3,0.3
2025-08-22T1400,1784A,129.61,44.561,牡丹江市,环保大楼,,22,13,17,8,9,68,,34,,5,13,4,5,0.3,0.3
2025-08-22T1400,1785A,129.6115,44.5782,牡丹江市,文化广场,,22,16,16,15,15,68,,44,44,6,18,6,6,0.5,0.5
2025-08-22T1400,1786A,129.5904,44.5963,牡丹江市,第一医院,,22,14,14,10,11,68,,47,47,6,14,6,6,0.2,0.2
2025-08-22T1400,1787A,129.6364,44.6075,牡丹江市,机车工厂,,18,14,20,10,9,57,,35,35,8,15,6,6,0.6,0.4
2025-08-22T1400,1788A,129.6386,44.5462,牡丹江市,第一中学,,23,10,18,6,11,72,,49,49,4,16,5,5,0.3,0.3
2025-08-22T1400,2531A,105.0703,29.61,内江市,市监测站,,37,37,20,15,15,86,,54,54,8,8,1,2,0.9,0.9
2025-08-22T1400,2532A,105.0717,29.5947,内江市,东兴区政府,,27,,17,13,8,86,,53,51,7,9,6,6,0.6,0.6
2025-08-22T1400,2533A,105.0653,29.5817,内江市,内江二中,,28,20,24,18,15,89,,55,54,8,10,3,3,0.6,0.6
2025-08-22T1400,2534A,105.0406,29.5822,内江市,内江日报社,,36,25,21,25,14,96,,56,56,12,11,8,8,0.5,0.5
2025-08-22T1400,2628A,92.0657,31.4846,那曲市,那曲监测站,,41,41,15,12,7,103,,80,80,11,10,5,5,0.3,0.4
2025-08-22T1400,4243A,92.0515,31.4787,那曲市,那曲市委宣传部,,,6,7,3,5,118,,92,92,2,5,,5,0.3,0.3
2025-08-22T1400,1290A,115.8931,28.6843,南昌市,省外办,,31,31,23,17,16,76,,57,57,8,8,6,7,0.5,0.5
2025-08-22T1400,1291A,115.8886,28.7003,南昌市,省林业公司,,28,24,18,17,12,88,,60,60,3,9,3,5,0.5,0.5
2025-08-22T1400,1292A,115.8126,28.7442,南昌市,林科所,颗粒物(PM10),59,68,21,9,7,96,,58,58,9,15,4,5,0.5,0.6
2025-08-22T1400,1294A,115.8518,28.687,南昌市,建工学校,细颗粒物(PM2.5),52,36,22,36,14,83,,59,59,10,16,6,8,0.5,0.5
2025-08-22T1400,1295A,115.8921,28.6424,南昌市,象湖,,32,32,19,12,8,73,,55,55,11,14,6,9,0.4,0.5
2025-08-22T1400,1296A,115.7423,28.7996,南昌市,武术学校,,27,15,14,14,11,86,,57,57,8,9,12,10,0.6,0.6
2025-08-22T1400,3046A,115.9084,28.6062,南昌市,机电学校,,32,32,26,7,10,83,,60,60,6,11,5,7,0.4,0.5
2025-08-22T1400,3690A,115.9721,28.7031,南昌市,外国语学校,,33,30,28,19,9,105,,61,61,8,14,7,10,0.4,0.6
2025-08-22T1400,4192A,115.9316,28.68677,南昌市,南京东路235号,,40,40,30,11,9,85,,54,54,9,16,10,12,0.6,0.7
2025-08-22T1400,1905A,106.056,30.8064,南充市,西山风景区,,,,,,,,,,,,,,,,
2025-08-22T1400,1906A,106.0789,30.8023,南充市,南充市委,,43,39,23,30,16,96,,54,54,6,9,4,4,0.4,0.4
2025-08-22T1400,1907A,106.1031,30.8217,南充市,南充炼油厂,,31,31,31,21,16,99,,55,55,4,6,5,5,0.3,0.3
2025-08-22T1400,4227A,106.1083,30.7884,南充市,梨树横街98号,,36,30,23,25,19,114,,68,68,4,7,4,4,0.2,0.2
2025-08-22T1400,4304A,106.1172,30.843,南充市,清泉寺北路188号,,33,30,26,23,19,97,,53,53,5,7,3,4,0.4,0.4
2025-08-22T1400,4305A,106.067,30.7616,南充市,同庆路1号,,34,17,22,9,13,108,,61,61,6,10,6,5,0.4,0.3
2025-08-22T1400,1151A,118.8086,32.1065,南京市,迈皋桥,臭氧1小时,72,19,18,12,11,177,,108,108,6,16,4,4,0.5,0.5
2025-08-22T1400,1152A,118.7538,32.0551,南京市,草场门,,50,24,23,19,11,158,,94,94,9,14,4,6,0.7,0.9
2025-08-22T1400,1153A,118.7794,32.0745,南京市,山西路,臭氧1小时,69,31,25,14,7,175,,105,105,13,18,4,4,0.7,0.7
2025-08-22T1400,1154A,118.7752,32.0023,南京市,中华门,,47,22,18,9,8,150,,87,87,6,10,4,4,1.0,1.1
2025-08-22T1400,1155A,118.8109,32.0309,南京市,瑞金路,,47,17,19,12,10,149,,98,98,16,22,7,7,0.5,0.6
2025-08-22T1400,1156A,118.7997,32.0754,南京市,玄武湖,,48,28,23,8,4,153,,96,96,12,11,4,4,0.3,0.5
2025-08-22T1400,1157A,118.6414,32.0931,南京市,浦口,,49,25,25,13,10,154,,88,88,10,15,7,6,0.7,0.6
2025-08-22T1400,1158A,118.7356,31.9996,南京市,奥体中心,,47,24,23,19,11,150,,94,94,7,14,7,9,0.5,0.6
2025-08-22T1400,1159A,118.9125,32.1028,南京市,仙林大学城,,44,27,27,7,6,138,,94,94,3,11,8,10,0.7,0.7
2025-08-22T1400,3422A,118.8436,31.9198,南京市,江宁彩虹桥,,,,20,12,8,144,,94,94,6,11,4,4,0.5,0.5
2025-08-22T1400,3427A,118.8554,32.3578,南京市,六合雄州,臭氧1小时,89,30,32,16,12,191,,103,103,12,20,7,7,0.9,0.9
2025-08-22T1400,4249A,118.8708,31.3402,南京市,汶溪路181号,,40,,13,23,10,126,,89,89,5,7,7,6,0.5,0.4
2025-08-22T1400,4312A,119.019,31.6512,南京市,中山西路1号,,31,,10,13,10,98,,72,72,8,11,4,4,0.5,0.5
2025-08-22T1400,1401A,108.3103,22.7881,南宁市,二十一中,,23,23,25,13,10,60,,35,35,4,8,4,4,0.4,0.5
2025-08-22T1400,1402A,108.3141,22.8528,南宁市,北湖,,21,15,27,13,15,65,,38,38,5,7,4,4,0.3,0.4
2025-08-22T1400,1403A,108.3206,22.8225,南宁市,市监测站,,20,17,22,12,12,64,,40,40,4,6,3,3,0.4,0.4
2025-08-22T1400,1404A,108.3829,22.8037,南宁市,大自然花园,,20,19,24,12,12,63,,39,39,3,6,4,5,0.5,0.6
2025-08-22T1400,1405A,108.4394,22.7904,南宁市,仙葫,,22,22,21,12,12,58,,37,37,4,6,5,5,0.4,0.4
2025-08-22T1400,1406A,108.2397,22.8467,南宁市,区农职院,,25,25,23,13,13,65,,42,42,9,12,4,5,0.4,0.3
2025-08-22T1400,1407A,108.3275,22.735,南宁市,英华嘉园,,30,,25,21,15,57,,35,35,6,11,2,2,0.4,0.4
2025-08-22T1400,3401A,108.4834,22.7618,南宁市,红星社区,,26,22,23,18,16,64,,40,40,4,7,2,2,0.4,0.4
2025-08-22T1400,4221A,108.2177,22.7774,南宁市,乐贤路16号,,22,21,28,15,15,56,,37,37,6,15,1,7,0.4,0.6
2025-08-22T1400,2331A,118.0966,26.6761,南平市,茫荡山,,,,,,,,,,,,,,,,
2025-08-22T1400,2332A,118.1681,26.6369,南平市,南平市监测站,,27,24,16,12,7,86,,37,37,5,10,4,4,0.5,0.4
2025-08-22T1400,2333A,118.1825,26.6489,南平市,南平铝业有限公司,,26,18,15,11,6,83,,38,38,4,12,4,4,0.6,0.6
2025-08-22T1400,2334A,118.1756,26.6272,南平市,南平七中,,,40,20,11,5,88,,40,40,,8,4,3,,0.6
2025-08-22T1400,1168A,120.9098,31.9663,南通市,狼山街道,臭氧1小时,115,47,40,33,27,230,,146,146,12,15,3,4,0.8,0.8
2025-08-22T1400,1169A,120.86,32.0005,南通市,虹桥,臭氧1小时,110,41,41,33,28,220,,151,151,15,20,3,2,0.7,0.7
2025-08-22T1400,1170A,120.87,32.02,南通市,城中,臭氧1小时,97,42,44,27,26,197,,145,145,10,16,4,5,0.5,0.6
2025-08-22T1400,1171A,120.94,31.93,南通市,星湖花园,臭氧1小时,125,47,36,35,26,249,,159,159,15,16,5,3,0.6,0.5
2025-08-22T1400,1172A,120.81,32.0417,南通市,紫琅学院,臭氧1小时,89,35,42,23,27,191,,146,146,9,22,4,6,0.7,0.8
2025-08-22T1400,3291A,121.067,32.062,南通市,通州监测站,臭氧1小时,82,41,38,27,25,185,,142,142,8,11,3,1,0.8,0.7
2025-08-22T1400,3432A,120.9348,31.9883,南通市,环境教育馆,臭氧1小时,119,70,44,34,25,237,,144,144,11,17,5,3,0.4,0.4
2025-08-22T1400,2404A,112.5224,33.0122,南阳市,瓦房庄,,32,28,30,9,11,102,,80,80,6,7,6,6,0.4,0.4
2025-08-22T1400,2405A,112.5003,32.9735,南阳市,汉画馆,,31,24,29,9,6,98,,77,77,5,8,8,8,0.4,0.4
2025-08-22T1400,2406A,112.5573,33.027,南阳市,气象站,,35,17,16,9,6,111,,90,90,4,8,8,8,0.3,0.3
2025-08-22T1400,2407A,112.5481,32.9689,南阳市,理工学院,,32,18,23,3,6,100,,79,79,3,8,8,8,0.4,0.4
2025-08-22T1400,4008A,112.5234,32.9922,南阳市,卧龙区政府,,31,22,26,13,13,98,,78,78,6,9,6,6,0.4,0.5
2025-08-22T1400,1234A,121.8358,29.911,宁波市,区环保大楼,,40,39,48,16,20,126,,114,114,7,17,4,5,0.5,0.6
2025-08-22T1400,1235A,121.56,29.82,宁波市,万里学院,,40,32,38,15,23,128,,108,108,4,10,6,6,0.4,0.5
2025-08-22T1400,1236A,121.713,29.9572,宁波市,龙赛医院,,45,39,44,18,20,144,,109,109,29,17,6,4,0.6,0.5
2025-08-22T1400,1239A,121.633,29.7733,宁波市,钱湖水厂,,39,24,29,18,21,124,,105,105,8,10,6,6,0.4,0.4
2025-08-22T1400,1240A,121.5856,29.8635,宁波市,太古小学,,40,25,36,18,20,126,,105,105,2,8,2,3,0.5,0.6
2025-08-22T1400,1241A,121.524,29.8674,宁波市,市环境监测中心,,41,27,35,16,19,131,,99,99,6,13,7,8,0.5,0.6
2025-08-22T1400,2871A,121.6147,29.9017,宁波市,万里国际学校,,43,25,30,18,21,136,,117,117,5,10,4,4,0.6,0.7
2025-08-22T1400,3710A,121.5594,29.8975,宁波市,白沙活动中心,,42,22,29,13,18,134,,107,107,6,13,5,6,0.6,0.7
2025-08-22T1400,2339A,119.5001,26.6946,宁德市,金涵水库,,,,,,,,,,,,,,,,
2025-08-22T1400,2341A,119.5388,26.6612,宁德市,宁德市监测站,,27,18,12,8,6,86,,57,57,5,8,3,3,0.4,0.4
2025-08-22T1400,3209A,119.5231,26.6562,宁德市,宁德一中,,29,14,12,6,4,92,,59,59,3,6,5,4,0.2,0.2
2025-08-22T1400,2618A,98.8601,25.8567,怒江傈僳族自治州,州监测站,,15,15,17,9,11,45,,24,24,5,8,3,4,0.4,0.4
2025-08-22T1400,2619A,98.8546,25.8417,怒江傈僳族自治州,泸水一中,,13,13,16,3,7,34,,13,13,6,10,4,4,0.4,0.4
2025-08-22T1400,1888A,101.6891,26.571,攀枝花市,弄弄坪,,26,14,34,7,14,82,,40,40,8,17,6,7,0.8,0.9
2025-08-22T1400,1889A,101.5769,26.5928,攀枝花市,河门口,,25,12,16,6,10,79,,49,49,7,10,7,10,0.6,0.8
2025-08-22T1400,1890A,101.7169,26.585,攀枝花市,炳草岗,,28,28,33,13,17,86,,40,40,10,19,10,10,0.9,0.8
2025-08-22T1400,1891A,101.7369,26.5008,攀枝花市,仁和,,32,21,18,15,12,100,,48,48,10,10,17,11,1.5,1
2025-08-22T1400,2835A,101.7227,26.567,攀枝花市,四十中小,,28,18,25,12,15,89,,43,43,7,13,8,11,0.9,0.8
2025-08-22T1400,1604A,122.0303,41.1489,盘锦市,开发区,,35,16,22,9,15,110,,86,86,6,7,8,7,0.3,0.4
2025-08-22T1400,1605A,122.0485,41.0883,盘锦市,兴隆台,,30,14,23,6,12,93,,80,80,5,8,5,5,0.4,0.5
2025-08-22T1400,1606A,121.8297,41.1028,盘锦市,新生街道,,37,10,28,3,8,118,,83,83,8,8,3,3,0.6,0.6
2025-08-22T1400,1832A,113.3257,33.742,平顶山市,新华旅馆,,31,24,47,16,18,99,,94,94,4,9,4,6,0.4,0.4
2025-08-22T1400,1833A,113.2919,33.737,平顶山市,规划设计院,,,31,44,16,20,,,101,,,32,,4,,0.5
2025-08-22T1400,1834A,113.182,33.774,平顶山市,平顶山工学院,,42,25,32,7,13,134,,97,97,6,9,6,6,0.5,0.5
2025-08-22T1400,3204A,113.3025,33.73,平顶山市,规划局,,36,27,43,11,14,114,,99,99,5,11,4,6,0.3,0.4
2025-08-22T1400,3594A,112.8867,33.9116,平顶山市,石龙区,,36,26,38,14,15,113,,85,85,7,11,8,8,0.4,0.5
2025-08-22T1400,2656A,106.6692,35.5461,平凉市,聚贤嘉苑,,50,50,40,17,17,86,,59,59,13,24,7,6,0.7,0.6
2025-08-22T1400,2657A,106.7021,35.5307,平凉市,博物馆,颗粒物(PM10),57,64,48,14,14,91,,66,66,12,20,9,9,0.5,0.4
2025-08-22T1400,2347A,114.0997,27.5002,萍乡市,武功山,,15,,5,3,4,45,,30,30,3,4,8,8,0.5,0.5
2025-08-22T1400,2348A,113.8385,27.6434,萍乡市,中医院,,20,13,18,6,8,63,,45,45,7,10,10,13,0.5,0.6
2025-08-22T1400,2349A,113.8493,27.6253,萍乡市,市政府车库,,18,14,12,12,10,54,,38,38,4,7,10,10,0.3,0.3
2025-08-22T1400,2350A,113.8676,27.6435,萍乡市,市环保局,,20,,17,11,11,62,,43,43,3,8,6,7,0.4,0.5
2025-08-22T1400,2351A,113.866,27.6198,萍乡市,安源区政府,,16,,20,6,11,49,,36,36,1,5,11,12,0.4,0.4
2025-08-22T1400,2319A,119.0141,25.4325,莆田市,荔城区仓后路,臭氧1小时,53,26,21,15,8,162,,90,90,12,11,8,7,0.6,0.6
2025-08-22T1400,2320A,119.0015,25.4553,莆田市,莆田市监测站,,50,50,16,9,3,145,,82,82,9,6,6,5,0.4,0.3
2025-08-22T1400,2321A,119.1119,25.4561,莆田市,涵江区六中,臭氧1小时,73,37,25,18,10,178,,99,99,10,13,8,5,0.6,0.6
2025-08-22T1400,2322A,119.1013,25.3215,莆田市,秀屿区政府,,40,34,28,13,14,125,,70,70,16,18,5,4,0.5,0.5
2025-08-22T1400,2323A,118.981,25.4792,莆田市,东圳水库,,,,,,,,,,,,,,,,
2025-08-22T1400,2392A,115.0312,35.7636,濮阳市,环保局,,47,41,28,22,15,148,,102,102,8,12,6,4,0.6,0.5
2025-08-22T1400,2394A,115.0574,35.7609,濮阳市,油田运输公司,,49,43,29,27,14,155,,102,102,8,10,5,3,0.5,0.5
2025-08-22T1400,3021A,115,35.7668,濮阳市,濮水河管理处,,,47,32,,,144,,92,92,7,9,4,3,0.6,0.5
2025-08-22T1400,4216A,115.0924,35.7686,濮阳市,任丘路479号,,46,46,35,16,14,145,,99,99,6,9,4,3,0.6,0.5
2025-08-22T1400,2601A,100.98,22.7633,普洱市,市环保局,,16,16,20,10,16,31,,35,32,2,3,7,7,0.5,0.5
2025-08-22T1400,2602A,100.9817,22.8322,普洱市,普洱第二中学,,24,24,20,6,12,32,,32,31,4,5,5,5,0.4,0.4
2025-08-22T1400,2262A,131.0518,45.8751,七台河市,新一中,,16,6,13,3,7,51,,55,55,6,13,9,10,1.0,0.9
2025-08-22T1400,3345A,131.0577,45.7879,七台河市,中波台,,,,10,,8,,,52,,,19,,8,,0.4
2025-08-22T1400,3637A,131.0176,45.7761,七台河市,人民广场,,13,,20,7,8,39,,49,49,10,17,10,10,0.6,0.5
2025-08-22T1400,3684A,130.8781,45.8222,七台河市,新建矿广场,,13,,21,6,8,40,,47,47,8,13,8,10,0.3,0.3
2025-08-22T1400,1779A,123.9305,47.3636,齐齐哈尔市,安居小区,,18,6,17,3,5,57,,45,45,6,10,3,3,0.5,0.5
2025-08-22T1400,1780A,123.9488,47.3386,齐齐哈尔市,中心广场,,21,16,15,3,3,65,,49,49,9,10,5,5,0.4,0.4
2025-08-22T1400,1781A,123.9483,47.3227,齐齐哈尔市,农牧车辆厂,,20,19,21,6,7,64,,49,49,7,7,6,9,0.3,0.4
2025-08-22T1400,1783A,123.945,47.2988,齐齐哈尔市,市环境监测站,,20,12,12,3,5,61,,47,46,7,8,6,6,0.5,0.5
2025-08-22T1400,3662A,123.6333,47.2075,齐齐哈尔市,富区青少年活动中心,,18,17,16,12,7,56,,56,48,5,4,6,4,0.5,0.4
2025-08-22T1400,2591A,107.9783,26.5747,黔东南苗族侗族自治州,市环境监测站,,18,,7,12,12,48,,46,42,2,3,2,2,0.4,0.4
2025-08-22T1400,2881A,107.8908,26.5311,黔东南苗族侗族自治州,凯里学院,,16,,4,6,6,49,,46,41,5,6,3,3,0.4,0.4
2025-08-22T1400,2593A,107.5228,26.2403,黔南布依族苗族自治州,小围寨,,13,9,6,3,2,39,,37,35,2,3,3,3,0.2,0.2
2025-08-22T1400,3538A,107.5175,26.2978,黔南布依族苗族自治州,沙坝,,12,12,12,3,0,38,,30,30,2,4,4,4,0.2,0.2
2025-08-22T1400,2589A,104.9022,25.0925,黔西南布依族苗族自治州,场坝街,,15,9,14,7,6,45,,43,43,5,5,3,4,0.3,0.3
2025-08-22T1400,2590A,104.8811,25.0992,黔西南布依族苗族自治州,坪东大道,,15,10,17,3,6,45,,42,42,4,4,2,2,0.4,0.4
2025-08-22T1400,2502A,108.6236,21.9667,钦州市,市环保站,,29,14,24,7,10,91,,35,35,8,12,6,4,0.5,0.5
2025-08-22T1400,2503A,108.6549,21.9481,钦州市,沙埠小学,,25,22,29,12,13,77,,31,31,7,13,3,2,0.5,0.5
2025-08-22T1400,2504A,108.5989,21.7431,钦州市,港区一小,,30,30,36,11,12,74,,26,26,18,21,10,4,0.9,0.6
2025-08-22T1400,3404A,108.5959,21.9633,钦州市,北职校,,33,22,28,9,14,105,,35,35,9,12,7,3,0.6,0.6
2025-08-22T1400,1043A,119.7493,40.0116,秦皇岛市,第一关,,42,6,27,3,15,132,,73,73,4,19,6,5,1.5,0.5
2025-08-22T1400,1044A,119.5897,39.9499,秦皇岛市,监测站,,40,30,40,3,10,125,,82,82,6,13,5,5,0.4,0.6
2025-08-22T1400,1046A,119.5251,39.9041,秦皇岛市,建设大厦,,36,20,35,3,10,113,,76,76,5,17,7,7,0.4,0.6
2025-08-22T1400,3132A,119.610547,39.943889,秦皇岛市,文明里,,37,23,46,3,20,116,,,,11,15,6,6,0.2,0.3
2025-08-22T1400,4198A,119.5090,39.8253,秦皇岛市,北戴河轮滑馆,,41,40,31,9,15,131,,72,72,5,7,5,3,0.5,0.6
2025-08-22T1400,1307A,120.6659,36.2403,青岛市,仰口,,34,29,27,11,15,108,,94,94,4,4,9,9,1.0,0.9
2025-08-22T1400,1310A,120.4134,36.0658,青岛市,市南区东部子站,,33,24,26,19,13,103,,92,92,2,3,6,6,0.1,0.1
2025-08-22T1400,1311A,120.3664,36.1032,青岛市,四方区子站,,44,31,22,17,14,138,,110,110,1,3,13,7,0.3,0.2
2025-08-22T1400,1312A,120.2994,36.054,青岛市,市南区西部子站,,31,27,24,12,11,99,,80,80,15,13,5,5,0.7,0.6
2025-08-22T1400,1313A,120.4581,36.0858,青岛市,崂山区子站,,29,29,33,14,10,88,,85,85,3,4,8,8,0.2,0.2
2025-08-22T1400,1315A,120.3999,36.3083,青岛市,城阳区子站,,47,29,28,15,12,148,,119,119,7,8,8,8,0.6,0.5
2025-08-22T1400,1966A,120.0405,35.8735,青岛市,黄岛区4号,,47,34,23,14,8,149,,108,108,4,4,7,5,0.7,0.5
2025-08-22T1400,3362A,120.5014,36.4034,青岛市,即墨2号,,50,34,30,12,11,160,,133,133,6,7,4,4,0.3,0.2
2025-08-22T1400,3642A,120.3503,36.0736,青岛市,市北区南部,,45,21,22,14,10,143,,130,130,5,8,6,5,0.7,0.6
2025-08-22T1400,3643A,120.3948,36.1805,青岛市,李沧区北部,,39,,22,27,16,120,,91,91,7,7,6,5,0.5,0.4
2025-08-22T1400,4290A,120.1969,35.9546,青岛市,珠江路669号,,38,27,19,17,12,120,,100,100,3,2,6,6,0.6,0.4
2025-08-22T1400,1702A,113.0426,23.691,清远市,环保大楼,,30,29,25,21,8,88,,36,36,9,12,9,9,0.8,0.8
2025-08-22T1400,1703A,113.0208,23.7106,清远市,凤城街办,,28,23,21,12,10,88,,38,38,10,15,9,8,0.4,0.4
2025-08-22T1400,3025A,113.0477,23.6344,清远市,技师学院,,30,25,25,14,12,96,,42,42,8,17,10,10,0.4,0.4
2025-08-22T1400,3318A,112.9903,23.7403,清远市,清新太和,,28,28,22,15,10,87,,42,42,11,15,8,8,0.4,0.4
2025-08-22T1400,3455A,113.076,23.7198,清远市,清城东城,,24,17,27,8,10,75,,32,32,6,12,7,8,0.6,0.5
2025-08-22T1400,2661A,107.6325,35.7357,庆阳市,庆阳五中,,44,44,48,12,13,106,,86,86,5,7,9,7,0.4,0.4
2025-08-22T1400,2662A,107.6364,35.7067,庆阳市,市环保局,,42,42,49,13,14,109,,94,94,3,6,4,3,0.4,0.4
2025-08-22T1400,1916A,103.7897,25.5035,曲靖市,环境监测站,,13,6,12,3,5,41,,34,34,4,9,5,5,0.3,0.4
2025-08-22T1400,1917A,103.8,25.5364,曲靖市,烟厂办公区,,15,,9,10,7,37,,31,31,3,7,4,4,0.5,0.5
2025-08-22T1400,3376A,103.7947,25.462,曲靖市,南苑二区,,13,6,8,3,4,40,,35,35,2,6,4,4,0.4,0.5
2025-08-22T1400,3377A,103.7444,25.5261,曲靖市,曲靖师范学院,,14,,7,3,5,42,,40,40,4,8,5,6,0.3,0.4
2025-08-22T1400,1264A,118.8692,28.9398,衢州市,环保大楼,,36,36,25,21,13,106,,65,65,12,13,3,4,0.5,0.5
2025-08-22T1400,1265A,118.8709,28.9666,衢州市,实验学校,,32,29,29,16,15,102,,56,56,17,15,2,3,0.4,0.4
2025-08-22T1400,1266A,118.8621,28.9808,衢州市,衢州学院,,35,25,23,12,15,112,,65,65,8,15,4,4,0.4,0.3
2025-08-22T1400,1611A,118.5819,24.9117,泉州市,涂山街,,47,26,33,13,17,150,,80,80,9,19,5,3,0.5,0.6
2025-08-22T1400,1612A,118.5972,24.8978,泉州市,津头埔,,50,30,32,13,17,159,,83,83,10,19,6,3,0.4,0.6
2025-08-22T1400,1613A,118.6663,24.9424,泉州市,万安,,47,28,33,19,14,149,,84,84,9,21,2,2,0.5,0.5
2025-08-22T1400,1614A,118.6117,24.9604,泉州市,清源山,,,,,,,,,,,,,,,,
2025-08-22T1400,3529A,118.6333,24.9264,泉州市,城华南路,,45,24,26,15,14,144,,78,78,8,17,3,3,0.5,0.5
2025-08-22T1400,2626A,88.8876,29.2718,日喀则市,日喀则监测站,,30,6,5,3,1,93,,84,84,3,6,11,11,0.3,0.3
2025-08-22T1400,3726A,88.8781,29.2426,日喀则市,林业技术推广中心,,29,6,6,3,0,90,,83,83,3,3,6,6,0.3,0.3
2025-08-22T1400,1659A,119.471,35.4209,日照市,监测站,,48,48,32,22,18,148,,125,125,18,17,12,10,0.8,0.7
2025-08-22T1400,1660A,119.523,35.4216,日照市,市政府广场,,49,34,37,20,15,154,,127,127,7,16,8,9,0.8,1
2025-08-22T1400,1661A,119.5587,35.4044,日照市,港务局,臭氧1小时,74,46,39,39,29,179,,118,118,13,19,10,9,1.0,0.8
2025-08-22T1400,3507A,119.5328,35.4625,日照市,职业技术学院,臭氧1小时,69,39,34,27,17,175,,128,128,12,18,8,8,0.8,0.8
2025-08-22T1400,3604A,119.3266,35.1044,日照市,岚山环保分局,臭氧1小时,67,27,36,21,16,173,,131,131,12,15,8,9,0.7,0.9
2025-08-22T1400,1835A,111.1922,34.7752,三门峡市,市政府,,47,47,47,16,18,147,,91,91,9,18,8,8,0.4,0.4
2025-08-22T1400,1836A,111.1587,34.7942,三门峡市,开发区,,46,41,46,18,18,146,,87,87,10,13,7,5,0.3,0.3
2025-08-22T1400,1838A,111.143,34.7955,三门峡市,风景区,,50,50,50,15,18,160,,96,96,8,10,6,5,0.4,0.5
2025-08-22T1400,3039A,111.1911,34.7829,三门峡市,三门峡市第一小学,,50,50,50,20,16,147,,94,94,7,13,8,7,0.4,0.4
2025-08-22T1400,3598A,111.1,34.7167,三门峡市,富达温泉假日酒店,颗粒物(PM10),55,60,66,18,26,162,,94,94,10,17,13,7,0.6,0.6
2025-08-22T1400,2324A,117.6211,26.2625,三明市,三钢,,34,27,22,18,15,106,,45,45,6,17,4,7,0.8,1.4
2025-08-22T1400,2325A,117.635,26.2714,三明市,三明二中,,31,27,26,15,14,99,,42,42,5,14,4,4,0.7,0.9
2025-08-22T1400,2326A,117.6028,26.2378,三明市,三元区政府,,34,28,23,17,10,108,,45,45,5,17,5,4,0.4,0.7
2025-08-22T1400,2327A,117.7275,26.3108,三明市,洋溪,,,,,,,,,,,,,,,,
2025-08-22T1400,1876A,109.5078,18.2489,三亚市,河东子站,,13,12,11,3,5,40,,31,31,2,4,3,3,0.5,0.5
2025-08-22T1400,1877A,109.4964,18.2681,三亚市,河西子站,,13,7,14,3,2,41,,29,29,4,7,2,2,0.4,0.4
2025-08-22T1400,3540A,109.7348,18.3443,三亚市,君悦子站,,15,8,16,3,5,48,,40,40,2,6,3,3,0.1,0.2
2025-08-22T1400,2624A,91.7608,29.2313,山南市,山南监测站,,25,6,6,3,3,80,,75,75,2,10,2,3,0.3,0.3
2025-08-22T1400,2625A,91.7706,29.2436,山南市,山南人民医院,,24,6,6,3,3,74,,74,73,1,7,3,4,0.2,0.3
2025-08-22T1400,1674A,116.6794,23.3667,汕头市,金平子站,臭氧1小时,84,58,25,29,15,187,,89,89,16,18,4,3,0.6,0.6
2025-08-22T1400,1675A,116.7244,23.3633,汕头市,龙湖子站,臭氧1小时,70,55,24,24,10,176,,88,88,14,14,9,8,0.6,0.5
2025-08-22T1400,1676A,116.7258,23.2775,汕头市,濠江子站,臭氧1小时,83,66,25,29,12,186,,86,86,19,14,10,6,0.8,0.7
2025-08-22T1400,1677A,116.7519,23.4714,汕头市,澄海子站,颗粒物(PM10),51,51,32,23,12,139,,68,68,9,15,3,4,0.7,0.6
2025-08-22T1400,1678A,116.6092,23.2539,汕头市,潮阳子站,颗粒物(PM10),52,54,27,21,12,154,,72,72,12,12,6,6,0.7,0.6
2025-08-22T1400,3444A,116.454,23.2684,汕头市,潮南峡山,,45,27,34,20,18,142,,72,72,8,14,6,6,0.6,0.6
2025-08-22T1400,3624A,116.4069,23.2533,汕头市,潮南子站,,40,40,36,17,17,104,,61,61,6,11,4,5,0.6,0.6
2025-08-22T1400,1693A,115.3653,22.775,汕尾市,市环保局,,24,18,14,8,6,75,,56,56,6,9,4,3,0.4,0.5
2025-08-22T1400,1694A,115.3706,22.7898,汕尾市,市政府,,26,11,14,9,7,82,,55,55,6,8,4,4,0.6,0.6
2025-08-22T1400,1695A,115.3622,22.7925,汕尾市,新城中学,,36,36,20,8,6,81,,55,55,10,11,5,4,0.5,0.5
2025-08-22T1400,2645A,109.9154,33.8715,商洛市,监测站,,46,46,49,16,17,96,,60,60,10,10,16,5,0.7,0.5
2025-08-22T1400,3045A,109.9643,33.8471,商洛市,商州区中学,,,93,57,40,16,89,,65,65,,10,36,6,0.6,0.4
2025-08-22T1400,2408A,115.6702,34.4285,商丘市,环境监测站,,31,18,26,7,12,98,,96,96,2,6,1,2,0.4,0.5
2025-08-22T1400,2409A,115.6458,34.4045,商丘市,粮食局,,30,18,26,7,11,96,,93,93,1,5,2,3,0.4,0.5
2025-08-22T1400,2410A,115.6293,34.3948,商丘市,睢阳区环保局,,29,27,34,12,14,92,,86,86,3,8,3,3,0.3,0.4
2025-08-22T1400,3171A,115.6071,34.4465,商丘市,梁园区档案局,,34,28,30,13,14,106,,95,95,4,7,2,2,0.5,0.5
2025-08-22T1400,1141A,121.4,31.238,上海市,普陀,臭氧1小时,101,34,45,26,27,201,,134,134,12,21,6,6,0.5,0.6
2025-08-22T1400,1142A,121.478,31.2036,上海市,十五厂,臭氧1小时,103,40,45,28,29,206,,133,133,9,18,10,8,0.5,0.6
2025-08-22T1400,1143A,121.467,31.3008,上海市,虹口,臭氧1小时,100,35,48,34,30,200,,129,129,11,18,6,6,0.7,0.8
2025-08-22T1400,1147A,121.425,31.2261,上海市,静安监测站,臭氧1小时,106,39,44,30,28,212,,138,138,13,19,5,4,0.7,0.6
2025-08-22T1400,1148A,121.703,31.1907,上海市,浦东川沙,,48,25,46,24,27,152,,130,130,8,23,6,6,0.7,0.6
2025-08-22T1400,1149A,121.533,31.2284,上海市,浦东新区监测站,臭氧1小时,89,31,44,28,21,191,,132,132,6,14,9,9,0.8,0.8
2025-08-22T1400,1150A,121.577,31.2071,上海市,浦东张江,臭氧1小时,105,,47,34,27,209,,139,139,10,18,5,6,0.8,0.8
2025-08-22T1400,3265A,121.4316,31.3322,上海市,宝山庙行,臭氧1小时,121,57,50,32,26,241,,136,136,23,20,6,6,0.5,0.5
2025-08-22T1400,3266A,121.8791,31.4662,上海市,崇明上实东滩,臭氧1小时,118,33,35,27,25,235,,148,148,12,18,6,6,0.6,0.7
2025-08-22T1400,3268A,121.3162,31.2838,上海市,嘉定南翔,臭氧1小时,95,42,49,28,29,196,,120,120,13,27,4,4,0.3,0.4
2025-08-22T1400,3269A,121.3359,30.7456,上海市,金山新城,臭氧1小时,60,24,33,16,24,168,,103,103,8,15,6,6,0.5,0.7
2025-08-22T1400,3270A,121.4996,31.0739,上海市,闵行浦江,臭氧1小时,83,,35,26,25,186,,131,131,8,15,6,5,1.1,1.2
2025-08-22T1400,3271A,121.2886,31.1663,上海市,青浦徐泾,臭氧1小时,70,25,38,21,25,176,,129,129,8,19,7,7,0.6,0.7
2025-08-22T1400,3272A,121.2186,31.0378,上海市,松江图书馆,臭氧1小时,72,26,35,26,28,177,,118,118,11,19,9,9,0.5,0.6
2025-08-22T1400,3273A,121.3902,31.2059,上海市,长宁仙霞,臭氧1小时,84,41,43,18,25,187,,114,114,14,19,9,8,0.6,0.7
2025-08-22T1400,3274A,121.7965,31.0507,上海市,浦东惠南,,42,,34,20,28,132,,104,104,7,15,10,10,0.7,0.8
2025-08-22T1400,3544A,121.4891,30.925,上海市,奉贤南桥新城,,50,21,34,15,25,159,,124,124,11,14,5,6,0.6,0.7
2025-08-22T1400,4183A,121.4174,31.16637,上海市,冠生园路458号,臭氧1小时,78,33,42,26,26,182,,119,119,13,21,4,4,0.7,0.8
2025-08-22T1400,4205A,121.5419,31.2683,上海市,宁武路151号,臭氧1小时,83,48,53,20,26,186,,125,125,16,28,4,4,0.3,0.3
2025-08-22T1400,2381A,118.005,28.4572,上饶市,百草园,,,,,,,,,,,,,,,,
2025-08-22T1400,2382A,117.9756,28.4436,上饶市,市监测站,,27,16,18,3,6,86,,54,54,8,9,3,4,0.4,0.4
2025-08-22T1400,2383A,117.9519,28.4628,上饶市,凤凰光学,,27,14,21,3,9,84,,46,46,9,10,4,7,0.1,0.1
2025-08-22T1400,3685A,117.897,28.4315,上饶市,双创科技城,,34,18,20,8,10,106,,56,56,5,10,4,6,0.4,0.4
2025-08-22T1400,4211A,118.1904,28.4448,上饶市,裕丰大道,,23,18,14,3,7,72,,52,52,4,8,15,19,0.4,0.4
2025-08-22T1400,1669A,113.5824,24.7733,韶关市,市八中,,40,40,26,21,13,85,,46,46,7,13,13,14,0.5,0.6
2025-08-22T1400,1671A,113.5917,24.7972,韶关市,园林处,,29,17,22,13,12,91,,48,48,6,10,15,14,0.4,0.4
2025-08-22T1400,1673A,113.5971,24.6863,韶关市,曲江监测站,,20,14,22,9,10,62,,39,39,11,18,9,9,0.5,0.6
2025-08-22T1400,2809A,113.6668,24.7756,韶关市,大学路288号,,31,31,26,11,10,75,,45,45,10,10,18,16,0.9,0.6
2025-08-22T1400,3622A,113.5556,24.8082,韶关市,碧湖山庄,,29,22,29,12,13,91,,47,47,8,11,9,10,0.6,0.6
2025-08-22T1400,2462A,111.5239,27.3033,邵阳市,市水土所,,,,,,,,,,,,,,,,
2025-08-22T1400,2464A,111.5283,27.2442,邵阳市,市化工厂,,27,27,17,13,9,49,,26,26,8,12,9,8,0.7,0.7
2025-08-22T1400,2466A,111.4328,27.2272,邵阳市,市环保局,,31,31,18,15,9,56,,26,26,7,10,8,8,0,0
2025-08-22T1400,4218A,111.4460,27.2472,邵阳市,北塔二期4-26地块,,18,17,21,12,9,47,,20,20,9,11,5,5,0.4,0.3
2025-08-22T1400,4219A,111.4739,27.2282,邵阳市,邵水西路287号,,25,25,18,9,9,50,,27,27,8,12,8,9,0.4,0.4
2025-08-22T1400,1247A,120.6053,29.9928,绍兴市,城东开发委,,34,16,22,12,14,106,,85,85,6,12,5,5,0.3,0.3
2025-08-22T1400,2921A,120.5483,30.0003,绍兴市,树下王站,,40,16,22,10,12,128,,94,94,5,11,5,5,0.2,0.3
2025-08-22T1400,3408A,120.5683,29.9361,绍兴市,绍兴中专,,37,21,30,15,16,117,,86,86,8,17,6,6,0.5,0.5
