timepoint,stationcode,longitude,latitude,area,positionname,primarypollutant,aqi,pm10,pm10_24h,pm2_5,pm2_5_24h,o3,o3_24h,o3_8h,o3_8h_24h,no2,no2_24h,so2,so2_24h,co,co_24h
2025-05-25T0200,2566A,102.1879,31.914,阿坝藏族羌族自治州,州农科所,,18,12,28,12,9,44,,,,5,7,11,12,0.7,0.7
2025-05-25T0200,2568A,102.2502,31.8896,阿坝藏族羌族自治州,马师校,,32,,25,22,17,24,,,,13,8,5,5,0.5,0.5
2025-05-25T0200,3994A,102.2165,31.9024,阿坝藏族羌族自治州,马尔康中学西区,,30,21,22,21,18,32,,,,10,5,5,5,0.5,0.5
2025-05-25T0200,2695A,80.292,41.1694,阿克苏地区,电视台,,47,47,186,29,54,88,,,,12,13,6,6,0.4,0.4
2025-05-25T0200,2696A,80.2613,41.1551,阿克苏地区,艺术中心,,47,47,199,28,54,88,,,,4,12,4,4,0.6,0.6
2025-05-25T0200,2204A,105.6467,38.8363,阿拉善盟,西城区西花园,,46,37,24,32,25,106,,,,15,10,6,5,1.0,0.9
2025-05-25T0200,2205A,105.6985,38.8411,阿拉善盟,蒙二幼,,39,38,30,23,19,123,,,,9,8,10,9,0.5,0.5
2025-05-25T0200,2206A,105.724,38.8516,阿拉善盟,环保局新楼,,42,28,25,20,18,132,,,,4,5,10,9,0.7,0.7
2025-05-25T0200,2708A,88.1264,47.8517,阿勒泰地区,市站,,50,50,35,11,5,51,,,,6,7,2,2,0.3,0.2
2025-05-25T0200,2630A,80.1161,32.5,阿里地区,阿里监测站,,27,27,23,10,10,68,,,,20,6,4,5,0.5,0.3
2025-05-25T0200,3192A,80.0903,32.5028,阿里地区,阿里藏医院,,36,36,32,11,10,94,,,,4,4,5,5,0.3,0.3
2025-05-25T0200,2642A,109.0318,32.6537,安康市,香溪洞,颗粒物(PM10),51,51,36,27,18,128,,,,5,8,9,10,0.5,0.5
2025-05-25T0200,2644A,109.0072,32.6975,安康市,汉滨区检察院,,45,45,39,20,16,55,,,,19,12,9,10,0.5,0.5
2025-05-25T0200,4054A,109.0325,32.6913,安康市,市邮政管理局,,48,48,46,27,21,65,,,,18,15,12,13,0.5,0.5
2025-05-25T0200,2291A,117.0809,30.5177,安庆市,环科院,细颗粒物(PM2.5),58,50,57,41,42,113,,,,8,10,2,2,0.6,0.6
2025-05-25T0200,2292A,117.0331,30.5119,安庆市,马山宾馆,细颗粒物(PM2.5),73,,54,53,45,113,,,,14,11,4,4,0.5,0.7
2025-05-25T0200,2294A,116.9896,30.6145,安庆市,安庆大学,细颗粒物(PM2.5),67,54,55,48,44,114,,,,10,12,3,3,0.4,0.4
2025-05-25T0200,3173A,117.0598,30.5351,安庆市,市人大,细颗粒物(PM2.5),62,55,61,44,44,119,,,,13,12,8,8,0.5,0.6
2025-05-25T0200,3122A,105.9606,26.2611,安顺市,伍家关,细颗粒物(PM2.5),57,58,75,40,31,59,,,,10,12,4,3,0.4,0.4
2025-05-25T0200,3123A,105.9408,26.2431,安顺市,凤凰山,细颗粒物(PM2.5),60,64,67,43,45,74,,,,10,11,11,9,0.5,0.5
2025-05-25T0200,3124A,105.9439,26.2564,安顺市,金钟山,细颗粒物(PM2.5),63,71,67,45,43,65,,,,8,10,8,7,0.4,0.4
2025-05-25T0200,3125A,105.8983,26.2481,安顺市,娄家坡,细颗粒物(PM2.5),65,58,70,47,53,66,,,,8,9,8,10,0.5,0.5
2025-05-25T0200,1818A,114.4839,36.0621,安阳市,棉研所,,,,,,,,,,,,,,,,
2025-05-25T0200,1819A,114.3551,36.1017,安阳市,红庙街,,45,45,50,20,29,49,,,,20,10,3,6,0.6,0.8
2025-05-25T0200,1820A,114.361,36.0681,安阳市,银杏小区,,49,49,50,28,28,60,,,,19,12,3,5,0.5,0.5
2025-05-25T0200,3141A,114.3922,36.0878,安阳市,信访局,,39,39,50,19,36,90,,,,15,11,4,6,0.6,0.7
2025-05-25T0200,3669A,114.4705,36.0637,安阳市,左辅环卫站,,44,44,56,23,28,58,,,,32,23,2,3,0.6,0.7
2025-05-25T0200,3703A,114.2917,36.0949,安阳市,安钢职工学校,颗粒物(PM10),67,83,56,47,32,41,,,,28,11,4,4,0.5,0.6
2025-05-25T0200,1748A,123.044,41.1196,鞍山市,深沟寺,,50,50,40,32,25,53,,,,30,22,9,11,1.0,1
2025-05-25T0200,1749A,123.011,41.0931,鞍山市,太阳城,,48,48,45,28,28,74,,,,15,21,9,11,0.9,0.9
2025-05-25T0200,1750A,123.0485,41.1442,鞍山市,太平,颗粒物(PM10),59,67,59,33,28,41,,,,32,26,11,18,1.2,1.2
2025-05-25T0200,1751A,122.9642,41.0971,鞍山市,铁西三道街,颗粒物(PM10),59,68,54,34,29,25,,,,58,34,5,9,0.8,0.7
2025-05-25T0200,1753A,123.022,41.0821,鞍山市,明达新区,,47,47,44,26,26,64,,,,17,19,8,9,0.8,0.7
2025-05-25T0200,1754A,123.1289,41.0228,鞍山市,千山,,,,25,,14,,,87,,,11,,6,,0.4
2025-05-25T0200,4201A,122.9446,41.0826,鞍山市,兴盛南路290号,颗粒物(PM10),61,72,57,30,28,36,,,,53,31,7,10,0.7,0.7
2025-05-25T0200,2195A,107.4212,40.761,巴彦淖尔市,附二中,细颗粒物(PM2.5),58,56,49,41,39,94,,,,18,13,6,6,0.6,0.5
2025-05-25T0200,2196A,107.37,40.7372,巴彦淖尔市,市环保大楼,细颗粒物(PM2.5),67,56,53,48,42,124,,,,19,15,8,7,0.4,0.3
2025-05-25T0200,1956A,86.1472,41.7538,巴音郭楞蒙古自治州,孔雀公园,颗粒物(PM10),85,120,115,36,33,64,,,,24,17,8,9,0.2,0.3
2025-05-25T0200,1957A,86.1972,41.7166,巴音郭楞蒙古自治州,棉纺厂,颗粒物(PM10),103,156,137,32,28,72,,,,16,18,4,5,0.2,0.3
2025-05-25T0200,1958A,86.2357,41.7173,巴音郭楞蒙古自治州,经济开发区,颗粒物(PM10),74,98,103,22,23,80,,,,6,7,8,8,0.1,0.2
2025-05-25T0200,2914A,106.7677,31.8794,巴中市,苏山坪,颗粒物(PM10),54,58,75,35,45,105,,,,10,12,5,6,0.3,0.3
2025-05-25T0200,3181A,106.7768,31.8526,巴中市,市五中,颗粒物(PM10),60,70,87,34,44,79,,,,12,15,7,8,0.5,0.6
2025-05-25T0200,3183A,106.7418,31.8654,巴中市,圣泉水务公司,颗粒物(PM10),56,62,67,30,35,84,,,,20,15,5,5,0.5,0.5
2025-05-25T0200,3616A,106.7616,31.8344,巴中市,市中心医院,颗粒物(PM10),57,64,83,31,56,74,,,,18,17,6,6,0.6,0.6
2025-05-25T0200,2235A,122.7911,45.6077,白城市,洮北区环保局,,35,27,33,15,24,3,,,,70,20,4,3,0.3,0.3
2025-05-25T0200,2236A,122.8738,45.5725,白城市,市环保局,,22,22,30,12,25,29,,,,42,16,8,8,0.4,0.4
2025-05-25T0200,2231A,126.4219,41.9171,白山市,喜丰,,26,26,39,15,16,49,,,,16,15,6,7,0.5,0.5
2025-05-25T0200,2232A,126.4077,41.9419,白山市,环保局,,36,36,37,7,16,58,,,,6,12,9,9,0.5,0.5
2025-05-25T0200,2647A,104.1724,36.5446,白银市,第三小学,,23,20,44,13,20,72,,,,15,17,12,52,0.9,1.2
2025-05-25T0200,2648A,104.1465,36.5482,白银市,动力公司,,19,18,32,13,15,53,,,,19,15,9,39,0.5,0.6
2025-05-25T0200,2512A,106.6103,23.9011,百色市,市监测站,颗粒物(PM10),54,57,42,27,15,33,,,,22,11,14,5,0.9,0.8
2025-05-25T0200,2513A,106.6538,23.8859,百色市,市中心血站,颗粒物(PM10),56,62,50,35,17,56,,,,18,16,23,7,0.8,0.7
2025-05-25T0200,3406A,106.6085,23.8798,百色市,祈福高中,颗粒物(PM10),55,60,47,29,15,24,,,,25,14,8,5,0.5,0.5
2025-05-25T0200,2270A,117.396,32.939,蚌埠市,工人疗养院,颗粒物(PM10),76,102,85,52,46,35,,,,54,20,7,6,0.6,0.5
2025-05-25T0200,2271A,117.3605,32.9427,蚌埠市,百货大楼,细颗粒物(PM2.5),72,86,85,52,52,63,,,,43,24,11,8,0.4,0.4
2025-05-25T0200,2273A,117.4185,32.8911,蚌埠市,蚌埠学院,细颗粒物(PM2.5),88,102,75,65,51,44,,,,42,20,5,5,0.5,0.5
2025-05-25T0200,2274A,117.3533,32.9673,蚌埠市,淮上区政府,细颗粒物(PM2.5),80,90,85,59,54,53,,,,68,31,9,7,0.5,0.5
2025-05-25T0200,2275A,117.3145,32.8977,蚌埠市,高新区,细颗粒物(PM2.5),97,105,79,72,54,38,,,,53,31,26,8,0.5,0.5
2025-05-25T0200,3715A,117.3092,32.9314,蚌埠市,蚌埠田家炳中学,"颗粒物(PM10),细颗粒物(PM2.5)",67,83,88,48,52,73,,,,23,18,9,7,0.4,0.4
2025-05-25T0200,1585A,109.8756,40.6532,包头市,市环境监测站,细颗粒物(PM2.5),77,62,44,56,32,26,,,,61,30,8,13,1.6,1.1
2025-05-25T0200,1587A,109.9991,40.5842,包头市,包头八中,细颗粒物(PM2.5),67,51,51,48,54,57,,,,41,39,10,14,0.7,1
2025-05-25T0200,1588A,109.8538,40.6821,包头市,青山宾馆,细颗粒物(PM2.5),79,69,42,58,34,17,,,,76,31,8,11,1.1,0.9
2025-05-25T0200,1589A,109.8642,40.6288,包头市,惠龙物流,细颗粒物(PM2.5),68,66,49,49,34,43,,,,57,30,8,15,1.1,0.8
2025-05-25T0200,1590A,110.0377,40.5546,包头市,东河鸿龙湾,颗粒物(PM10),69,88,51,27,25,28,,,,44,30,6,10,0.9,1.1
2025-05-25T0200,3283A,109.9154,40.5685,包头市,滨河大厦,颗粒物(PM10),55,59,42,34,31,34,,,,61,36,9,12,1.0,0.9
2025-05-25T0200,3419A,109.9447,40.6261,包头市,包头市委党校,颗粒物(PM10),51,52,36,34,26,60,,,,35,29,9,12,0.8,0.6
2025-05-25T0200,3683A,109.8331,40.6576,包头市,昆区政府,细颗粒物(PM2.5),77,73,43,56,38,47,,,,66,34,8,12,1.1,0.9
2025-05-25T0200,1930A,107.185,34.3063,宝鸡市,庙沟村,,42,,39,29,29,116,,,,11,18,7,8,0.7,0.7
2025-05-25T0200,1931A,107.0708,34.3017,宝鸡市,竹园沟,,45,38,44,31,26,111,,,,9,18,4,5,0.5,0.5
2025-05-25T0200,1932A,107.1906,34.3672,宝鸡市,三陆医院,,49,36,62,34,33,116,,,,11,20,6,9,0.5,0.5
2025-05-25T0200,1933A,107.1431,34.3547,宝鸡市,监测站,细颗粒物(PM2.5),54,,52,38,32,117,,,,11,21,6,7,0.3,0.4
2025-05-25T0200,1934A,107.1186,34.3739,宝鸡市,技工学校,细颗粒物(PM2.5),59,,53,42,31,118,,,,7,15,4,6,0.7,0.6
2025-05-25T0200,1935A,107.3906,34.3528,宝鸡市,陈仓区环保局家属楼,细颗粒物(PM2.5),57,,53,40,32,116,,,,8,19,4,6,0.7,0.7
2025-05-25T0200,1936A,107.2058,34.3497,宝鸡市,文理学院,,50,,49,35,31,124,,,,9,17,7,10,0.5,0.5
2025-05-25T0200,1937A,107.2386,34.3622,宝鸡市,三迪小学,细颗粒物(PM2.5),57,,53,40,39,120,,,,9,18,7,10,0.5,0.5
2025-05-25T0200,1051A,115.493,38.8632,保定市,游泳馆,颗粒物(PM10),54,58,51,28,31,70,,,,28,22,4,3,0.3,0.3
2025-05-25T0200,1052A,115.5213,38.8959,保定市,华电二区,,37,37,36,25,26,89,,,,8,8,3,2,0.2,0.2
2025-05-25T0200,1053A,115.4713,38.9108,保定市,接待中心,,44,44,46,21,24,91,,,,13,14,1,3,0.2,0.2
2025-05-25T0200,1054A,115.4612,38.8416,保定市,地表水厂,颗粒物(PM10),62,73,60,24,24,64,,,,30,24,4,2,0.2,0.2
2025-05-25T0200,3581A,115.31981,38.95208,保定市,满城区生态环境分局,颗粒物(PM10),54,58,38,14,17,90,,,,20,9,3,3,0.0,0
2025-05-25T0200,3582A,115.47694,38.76408,保定市,清苑区第二中学,颗粒物(PM10),55,60,54,33,30,44,,,,45,14,12,2,0.5,0.4
2025-05-25T0200,3583A,115.62909,39.02311,保定市,徐水物探局,,49,49,50,14,18,81,,,,16,20,3,3,0.1,0.2
2025-05-25T0200,4004A,115.4202,38.8656,保定市,双鹰农机,颗粒物(PM10),51,52,45,23,26,84,,,,16,16,4,3,0.2,0.3
2025-05-25T0200,4034A,115.5150,38.8590,保定市,植保所站,颗粒物(PM10),52,53,49,27,30,81,,,,16,10,3,3,0.3,0.3
2025-05-25T0200,2594A,99.1678,25.1081,保山市,市环境监测站,,25,,21,8,24,77,,,,5,8,8,8,0.4,0.5
2025-05-25T0200,2595A,99.1711,25.1328,保山市,市环保局,,27,7,22,3,16,86,,,,4,5,7,7,0.4,0.4
2025-05-25T0200,1866A,109.2262,21.588,北海市,牛尾岭水库,,,8,16,3,7,55,,,,,11,6,6,0.6,0.7
2025-05-25T0200,1867A,109.1436,21.4086,北海市,海滩公园,,19,11,20,3,7,59,,,,7,8,6,5,0.6,0.6
2025-05-25T0200,1868A,109.0981,21.4661,北海市,新市环保局,,25,13,16,3,10,78,,,,7,9,2,4,0.7,0.6
2025-05-25T0200,1869A,109.1778,21.5233,北海市,北海工业园,,22,11,19,7,12,69,,,,7,9,8,8,0.8,0.8
2025-05-25T0200,3400A,109.1911,21.4415,北海市,龙潭自来水厂,,20,,27,12,14,64,,,,8,8,3,3,0.5,0.5
2025-05-25T0200,1001A,116.3621,39.8784,北京市,万寿西宫,颗粒物(PM10),54,58,36,18,20,52,,,,50,30,3,3,0.4,0.4
2025-05-25T0200,1002A,116.2202,40.2915,北京市,定陵,,,,,,,,,,,,,,,,
2025-05-25T0200,1003A,116.4174,39.9289,北京市,东四,,46,46,37,18,22,63,,,,32,22,3,3,0.3,0.4
2025-05-25T0200,1004A,116.4072,39.8863,北京市,天坛,,41,41,34,16,20,55,,,,30,20,1,2,0.4,0.4
2025-05-25T0200,1005A,116.462,39.9365,北京市,农展馆,,41,41,35,17,21,59,,,,34,26,3,3,0.4,0.4
2025-05-25T0200,1006A,116.3392,39.9295,北京市,官园,,47,47,38,20,21,51,,,,42,27,6,6,0.2,0.2
2025-05-25T0200,1007A,116.2878,39.9611,北京市,海淀万柳,颗粒物(PM10),51,52,34,20,20,33,,,,52,28,1,2,0.3,0.3
2025-05-25T0200,1008A,116.6636,40.135,北京市,顺义新城,颗粒物(PM10),54,57,29,19,15,20,,,,50,21,4,5,0.4,0.3
2025-05-25T0200,1009A,116.6275,40.3275,北京市,怀柔镇,,27,27,25,18,18,61,,,,11,14,2,2,0.5,0.5
2025-05-25T0200,1010A,116.2296,40.217,北京市,昌平镇,,37,37,31,24,22,88,,,,22,18,4,4,0.5,0.6
2025-05-25T0200,1011A,116.3966,39.9821,北京市,奥体中心,,36,36,31,16,19,50,,,,38,28,3,3,0.6,0.5
2025-05-25T0200,3281A,115.9718,40.4529,北京市,延庆夏都,,,,35,,26,,,56,,,17,,4,,0.5
2025-05-25T0200,3418A,116.8336,40.4095,北京市,密云新城,,32,32,25,13,13,37,,,,10,15,3,2,0.3,0.3
2025-05-25T0200,3671A,116.088,39.9726,北京市,门头沟三家店,颗粒物(PM10),75,99,91,22,22,56,,,,31,17,2,2,0.3,0.2
2025-05-25T0200,3672A,116.1541,39.8204,北京市,丰台云岗,颗粒物(PM10),58,66,37,16,18,42,,,,36,22,3,3,0.2,0.3
2025-05-25T0200,3673A,116.6804,39.9081,北京市,通州东关,,47,47,33,21,18,75,,,,36,30,2,2,0.6,0.6
2025-05-25T0200,3674A,115.9577,39.7603,北京市,房山燕山,,36,28,28,25,18,59,,,,7,11,30,3,0.6,0.4
2025-05-25T0200,3675A,116.4672,39.7733,北京市,大兴旧宫,,46,46,34,19,18,46,,,,32,20,2,2,0.5,0.5
2025-05-25T0200,3694A,115.986,40.4563,北京市,延庆石河营,,40,40,34,28,26,23,,,,28,20,2,2,0.4,0.4
2025-05-25T0200,3695A,116.6151,40.3053,北京市,怀柔新城,,37,37,27,20,18,61,,,,8,10,1,1,0.4,0.4
2025-05-25T0200,3696A,116.2545,39.8768,北京市,丰台小屯,颗粒物(PM10),53,55,34,21,17,9,,,,72,28,1,2,0.3,0.3
2025-05-25T0200,3697A,116.84,40.3844,北京市,密云镇,,37,37,26,12,13,5,,,,55,24,5,6,0.5,0.3
2025-05-25T0200,4182A,116.1942,39.9158,北京市,八角北路9号,颗粒物(PM10),61,72,40,23,19,13,,,,72,26,4,3,0.2,0.2
2025-05-25T0200,4194A,117.0790,40.1518,北京市,洳河巡河路,,39,39,27,17,15,37,,,,16,10,2,3,0.4,0.4
2025-05-25T0200,1761A,123.8275,41.3064,本溪市,大峪,颗粒物(PM10),52,53,49,31,30,21,,,,34,17,6,7,0.6,0.7
2025-05-25T0200,1762A,123.7567,41.3325,本溪市,溪湖,颗粒物(PM10),76,101,68,41,39,24,,,,39,30,5,10,0.7,1.1
2025-05-25T0200,1763A,123.7169,41.3094,本溪市,彩屯,颗粒物(PM10),54,57,54,34,33,18,,,,47,30,9,13,0.7,1.1
2025-05-25T0200,1764A,123.7669,41.2864,本溪市,东明,颗粒物(PM10),54,58,54,30,28,12,,,,47,28,6,10,1.0,1.2
2025-05-25T0200,1765A,123.7992,41.2664,本溪市,新立屯,细颗粒物(PM2.5),62,58,41,44,28,26,,,,53,28,11,9,2.1,0.9
2025-05-25T0200,1766A,123.8142,41.3472,本溪市,威宁,颗粒物(PM10),60,70,67,39,35,10,,,,40,31,5,6,0.7,0.6
2025-05-25T0200,2587A,105.2864,27.3125,毕节市,八中,,49,49,55,34,27,49,,,,8,8,5,5,0.6,0.5
2025-05-25T0200,2588A,105.31,27.2944,毕节市,师专,,46,42,56,32,29,50,,,,14,11,5,4,0.4,0.3
2025-05-25T0200,4263A,105.3688,27.3598,毕节市,工业大道,,36,36,51,24,25,65,,,,10,12,6,6,0.5,0.5
2025-05-25T0200,1629A,118.0018,37.3617,滨州市,第二水厂,,48,48,29,22,25,69,,,,24,13,14,8,0.1,0.2
2025-05-25T0200,1630A,117.9776,37.393,滨州市,北中新校,,31,31,43,17,27,83,,,,16,14,21,7,0.7,0.6
2025-05-25T0200,3514A,117.9378,37.3956,滨州市,中海酒店,,45,44,43,31,32,74,,,,19,14,12,8,0.6,0.6
2025-05-25T0200,3515A,117.9378,37.3553,滨州市,开发区一中,,48,48,53,31,29,45,,,,37,26,8,7,0.5,0.5
2025-05-25T0200,3516A,118.0917,37.694,滨州市,金海六路,,32,32,42,17,23,56,,,,44,29,10,8,0.2,0.3
2025-05-25T0200,4028A,117.9956,37.3753,滨州市,滨州市西街道办事处,,32,27,41,22,33,87,,,,16,14,9,5,0.3,0.3
2025-05-25T0200,2311A,115.8072,33.8399,亳州市,污水处理厂,颗粒物(PM10),54,58,56,37,37,82,,,,15,8,5,3,0.4,0.3
2025-05-25T0200,2312A,115.7789,33.8518,亳州市,三国揽胜宫,细颗粒物(PM2.5),62,69,61,44,41,73,,,,18,14,4,4,0.5,0.4
2025-05-25T0200,3332A,115.7633,33.8034,亳州市,亳州学院,"颗粒物(PM10),细颗粒物(PM2.5)",55,59,52,39,38,90,,,,16,9,4,2,0.4,0.4
2025-05-25T0200,2693A,82.0485,44.8556,博尔塔拉蒙古自治州,市党校,,22,15,28,3,8,69,,,,16,8,3,4,0.4,0.4
2025-05-25T0200,2694A,82.0806,44.8969,博尔塔拉蒙古自治州,市环保局,,33,33,39,12,16,69,,,,14,9,4,3,0.4,0.3
2025-05-25T0200,1071A,116.8842,38.2991,沧州市,沧县城建局,,33,33,44,23,27,99,,,,19,20,1,3,0.2,0.2
2025-05-25T0200,1072A,116.8584,38.3254,沧州市,电视转播站,,38,38,52,14,28,112,,,,14,18,3,3,0.2,0.4
2025-05-25T0200,1073A,116.8709,38.3228,沧州市,市环保局,,,50,54,23,30,120,,,,10,14,,3,0.3,0.4
2025-05-25T0200,3324A,116.8136,38.3004,沧州市,河北水利电力学院,,35,31,41,19,26,112,,,,20,24,4,4,0.1,0.3
2025-05-25T0200,2622A,97.1806,31.1273,昌都市,昌都监测站,,22,22,17,14,16,64,,,,4,5,3,3,0.3,0.3
2025-05-25T0200,3719A,97.1714,31.1406,昌都市,昌都会议中心,,20,20,20,12,12,64,,,,3,5,3,3,0.2,0.2
2025-05-25T0200,2690A,88.1236,43.8886,昌吉回族自治州,天山天池,,19,19,48,3,13,38,,,,5,6,6,7,0.5,0.5
2025-05-25T0200,2692A,87.2717,44.0297,昌吉回族自治州,新区政务中心,,24,21,68,10,13,75,,,,3,3,9,8,0.4,0.4
2025-05-25T0200,3613A,87.3095,44.0142,昌吉回族自治州,亚心广场,,26,17,95,3,18,82,,,,14,10,8,8,0.2,0.3
2025-05-25T0200,1119A,125.3325,43.9166,长春市,食品厂,颗粒物(PM10),51,51,31,24,15,12,,,,65,27,6,5,0.4,0.3
2025-05-25T0200,1120A,125.2863,43.9027,长春市,客车厂,,34,34,26,23,14,9,,,,62,23,6,5,0.4,0.3
2025-05-25T0200,1121A,125.2841,43.8463,长春市,邮电学院,,32,32,24,20,13,31,,,,44,17,6,6,0.3,0.2
2025-05-25T0200,1122A,125.3716,43.8772,长春市,劳动公园,,29,29,27,16,13,26,,,,43,16,6,6,0.3,0.3
2025-05-25T0200,1123A,125.3297,43.8805,长春市,园林处,,24,24,26,11,10,42,,,,33,16,6,6,0.3,0.3
2025-05-25T0200,1124A,125.4605,43.79,长春市,净月潭,,18,18,21,11,10,44,,,,19,12,6,6,0.3,0.3
2025-05-25T0200,1125A,125.7194,43.515,长春市,甩湾子,,,,,,,,,,,,,,,,
2025-05-25T0200,1126A,125.3863,43.8447,长春市,经开区环卫处,,37,37,35,14,10,37,,,,20,17,6,6,0.3,0.3
2025-05-25T0200,1127A,125.245,43.7783,长春市,高新区管委会,,39,39,25,24,15,13,,,,48,20,6,6,0.3,0.2
2025-05-25T0200,1128A,125.1761,43.8325,长春市,岱山公园,,50,50,31,22,16,15,,,,63,32,5,4,0.3,0.3
2025-05-25T0200,1335A,113.0833,28.2325,长沙市,经开区环保局,细颗粒物(PM2.5),54,52,59,38,38,127,,,,20,19,5,5,0.8,0.8
2025-05-25T0200,1336A,112.8872,28.2189,长沙市,高开区环保局,,48,46,59,33,41,139,,,,12,9,7,7,0.6,0.6
2025-05-25T0200,1337A,113.0792,28.2053,长沙市,马坡岭,细颗粒物(PM2.5),60,53,62,43,42,126,,,,15,15,5,5,0.4,0.5
2025-05-25T0200,1338A,112.9394,28.19,长沙市,湖南师范大学,颗粒物(PM10),54,57,61,34,38,135,,,,19,16,7,6,0.5,0.5
2025-05-25T0200,1339A,113.0178,28.1322,长沙市,雨花区环保局,,47,47,61,32,36,137,,,,12,14,6,6,1.0,1
2025-05-25T0200,1340A,112.9792,28.2597,长沙市,伍家岭,颗粒物(PM10),54,58,62,33,35,109,,,,17,13,4,4,0.6,0.6
2025-05-25T0200,1341A,113.0014,28.1944,长沙市,火车新站,颗粒物(PM10),54,57,60,31,39,119,,,,17,16,8,8,0.5,0.5
2025-05-25T0200,1342A,112.9844,28.1178,长沙市,天心区环保局,细颗粒物(PM2.5),57,51,58,40,42,142,,,,14,16,4,3,0.6,0.6
2025-05-25T0200,1343A,112.8908,28.1308,长沙市,湖南中医药大学,颗粒物(PM10),53,56,61,35,42,124,,,,15,15,3,3,0.6,0.6
2025-05-25T0200,1344A,112.9581,28.3611,长沙市,沙坪,,50,46,51,35,40,122,,,,25,13,8,4,0.5,0.6
2025-05-25T0200,1727A,113.1147,36.1547,长治市,清华站,,43,43,43,19,21,93,,,,26,17,7,11,0.7,0.7
2025-05-25T0200,1730A,113.0886,36.2125,长治市,审计局,,34,34,33,19,27,105,,,,22,21,9,13,0.5,0.6
2025-05-25T0200,1731A,113.0844,36.1856,长治市,长治八中,,42,42,36,26,28,96,,,,23,19,10,13,0.2,0.2
2025-05-25T0200,2845A,113.1569,36.1911,长治市,德盛苑,,40,38,33,27,23,127,,,,11,13,10,11,0.7,0.8
2025-05-25T0200,3568A,113.06,36.0464,长治市,向阳小学,颗粒物(PM10),55,60,60,28,31,110,,,,14,17,6,9,0.5,0.6
2025-05-25T0200,3569A,112.8792,36.3144,长治市,屯留一中,,38,37,25,26,19,70,,,,31,17,8,8,0.1,0.1
2025-05-25T0200,4189A,113.1131,36.19948,长治市,英华南巷50号,,39,39,35,27,24,95,,,,18,18,10,12,0.8,0.7
2025-05-25T0200,4190A,113.2367,36.3344,长治市,学府街1号,,43,43,36,25,21,25,,,,77,24,2,7,0.5,0.6
2025-05-25T0200,1854A,111.6975,28.9703,常德市,市二中,细颗粒物(PM2.5),102,,62,76,54,19,,,,38,16,5,7,1.3,1.1
2025-05-25T0200,1857A,111.7158,29.1456,常德市,白鹤山,,,,,,,,,,,,,,,,
2025-05-25T0200,3138A,111.7153,29.0289,常德市,武陵区永安,细颗粒物(PM2.5),64,70,68,46,53,103,,,,13,12,6,8,0.7,0.7
2025-05-25T0200,3139A,111.6892,28.9881,常德市,鼎城区玉霞,细颗粒物(PM2.5),74,93,66,54,50,7,,,,50,16,2,4,0.8,0.7
2025-05-25T0200,3140A,111.6625,29.0531,常德市,武陵区长庚,细颗粒物(PM2.5),72,85,66,52,47,35,,,,33,15,8,8,0.9,0.8
2025-05-25T0200,1196A,119.9633,31.762,常州市,市监测站,颗粒物(PM10),56,61,45,39,30,50,,,,49,20,7,8,0.5,0.5
2025-05-25T0200,1200A,119.9468,31.7069,常州市,武进监测站,细颗粒物(PM2.5),63,64,45,45,30,47,,,,51,25,9,9,0.8,0.7
2025-05-25T0200,1201A,119.9255,31.9087,常州市,安家,细颗粒物(PM2.5),75,93,52,55,34,8,,,,92,33,12,11,0.5,0.4
2025-05-25T0200,3002A,119.9805,31.8174,常州市,行政中心,"颗粒物(PM10),细颗粒物(PM2.5)",54,58,42,38,32,69,,,,31,19,6,7,0.6,0.5
2025-05-25T0200,3003A,120.0522,31.7748,常州市,经开区,颗粒物(PM10),59,67,54,39,32,110,,,,28,25,10,5,0.6,0.6
2025-05-25T0200,3010A,119.9025,31.7964,常州市,钟楼,细颗粒物(PM2.5),72,81,44,52,32,3,,,,102,28,10,8,0.9,0.6
2025-05-25T0200,3429A,119.8598,31.7066,常州市,武进经发区,细颗粒物(PM2.5),80,82,50,59,36,42,,,,43,20,8,8,0.9,0.7
2025-05-25T0200,3430A,119.5826,31.7245,常州市,金坛城区,细颗粒物(PM2.5),79,94,55,58,34,56,,,,33,17,8,9,0.6,0.5
2025-05-25T0200,2220A,120.4318,41.5881,朝阳市,西梁,颗粒物(PM10),54,58,48,33,27,30,,,,42,24,14,9,0.5,0.5
2025-05-25T0200,2221A,120.4521,41.5646,朝阳市,河畔小区,,50,43,41,35,26,50,,,,24,17,19,11,0.7,0.4
2025-05-25T0200,2222A,120.4176,41.5648,朝阳市,八里堡,颗粒物(PM10),53,55,66,35,28,44,,,,33,22,17,9,0.5,0.6
2025-05-25T0200,2223A,120.3806,41.5969,朝阳市,农业园区,,46,42,51,32,33,53,,,,23,22,9,8,0.4,0.4
2025-05-25T0200,1705A,116.6367,23.6719,潮州市,西园路,,,,18,19,9,63,,,,5,6,3,3,0.6,0.6
2025-05-25T0200,3026A,116.6183,23.6608,潮州市,市政府,,25,25,20,15,9,68,,,,2,5,3,4,0.7,0.7
2025-05-25T0200,4036A,116.6461,23.6761,潮州市,金山,细颗粒物(PM2.5),63,,19,45,34,64,,,,3,4,5,5,0.6,0.6
2025-05-25T0200,2472A,113.0073,25.9061,郴州市,马头岭,,50,50,50,25,26,11,,,,18,11,7,8,0.5,0.5
2025-05-25T0200,2473A,113.0116,25.8226,郴州市,市职中,细颗粒物(PM2.5),55,52,49,39,40,28,,,,12,11,2,2,0.8,0.8
2025-05-25T0200,2475A,113.0383,25.8071,郴州市,市审计局,细颗粒物(PM2.5),58,47,45,41,37,34,,,,15,10,3,3,0.9,0.8
2025-05-25T0200,2476A,113.0348,25.7759,郴州市,市环保局,,,57,51,44,38,,,,,24,13,2,2,0.8,0.7
2025-05-25T0200,4252A,113.0138,25.8011,郴州市,好美居路49号,细颗粒物(PM2.5),59,56,46,42,35,53,,,,11,11,11,8,0.7,0.7
2025-05-25T0200,1431A,103.9728,30.7236,成都市,金泉两河,颗粒物(PM10),54,57,51,19,18,43,,,,35,14,3,3,0.5,0.3
2025-05-25T0200,1432A,104.176,30.6872,成都市,十里店,,45,45,54,15,20,75,,,,27,18,4,4,0.4,0.3
2025-05-25T0200,1433A,104.079,30.5706,成都市,三瓦窑,颗粒物(PM10),55,59,53,22,21,81,,,,26,20,4,4,0.6,0.5
2025-05-25T0200,1434A,104.1114,30.63,成都市,沙河铺,颗粒物(PM10),53,55,55,24,22,78,,,,15,16,7,7,0.3,0.4
2025-05-25T0200,1437A,104.0786,30.6531,成都市,君平街,颗粒物(PM10),57,64,57,21,25,88,,,,15,19,8,7,0.5,0.5
2025-05-25T0200,1438A,103.613,31.0283,成都市,灵岩寺,,,,,,,,,,,,,,,,
2025-05-25T0200,2880A,104.0239,30.65639,成都市,大石西路,颗粒物(PM10),53,55,56,20,25,101,,,,12,17,4,4,0.4,0.4
2025-05-25T0200,3136A,104.2725,30.5589,成都市,龙泉驿区区政府,,41,41,47,22,21,102,,,,11,12,5,5,0.5,0.5
2025-05-25T0200,3357A,104.0106,30.6931,成都市,金博路,,38,38,44,15,16,93,,,,12,14,8,8,0.3,0.3
2025-05-25T0200,3359A,104.0578,30.5225,成都市,华阳,,44,44,49,24,29,76,,,,20,16,6,7,0.4,0.5
2025-05-25T0200,3488A,104.3853,30.7453,成都市,青白江技师分院,颗粒物(PM10),59,68,60,23,25,91,,,,26,22,5,5,0.3,0.3
2025-05-25T0200,3489A,104.0789,30.4072,成都市,科学城,颗粒物(PM10),54,57,57,24,25,86,,,,13,12,4,4,0.4,0.4
2025-05-25T0200,4011A,103.8506,30.6947,成都市,光华大道三段,颗粒物(PM10),53,56,54,30,27,91,,,,15,12,4,4,0.7,0.6
2025-05-25T0200,4224A,104.2433,30.5353,成都市,鲸龙路1057号,颗粒物(PM10),54,58,60,27,28,98,,,,12,11,7,7,0.5,0.5
2025-05-25T0200,1062A,117.9531,40.9081,承德市,铁路,,23,23,26,14,10,17,,,,45,18,4,7,0.4,0.4
2025-05-25T0200,1063A,117.9392,40.9763,承德市,中国银行,,32,30,26,22,9,40,,,,11,13,3,4,0.3,0.4
2025-05-25T0200,1064A,117.9503,40.928,承德市,开发区,,36,36,31,24,19,37,,,,26,15,4,4,0.5,0.4
2025-05-25T0200,1065A,117.8051,40.9655,承德市,文化中心,,34,34,37,15,10,39,,,,29,17,1,9,0.2,0.4
2025-05-25T0200,1066A,117.9268,41.0026,承德市,离宫,,50,,26,35,20,43,,,,13,9,2,4,0.2,0.3
2025-05-25T0200,2314A,117.47,30.6618,池州市,池州学院,细颗粒物(PM2.5),57,51,61,40,47,74,,,,17,12,4,5,0.6,0.7
2025-05-25T0200,3237A,117.4918,30.6617,池州市,展览馆,颗粒物(PM10),51,52,56,32,43,64,,,,16,12,4,4,0.7,0.7
2025-05-25T0200,3333A,117.5627,30.695,池州市,第八中学,,49,48,61,34,44,73,,,,14,13,5,6,0.5,0.5
2025-05-25T0200,3334A,117.5038,30.6243,池州市,第十二中学,,46,40,60,32,42,46,,,,20,17,3,3,1.3,0.8
2025-05-25T0200,1744A,118.9233,42.2816,赤峰市,松山一中,,35,35,40,24,26,66,,,,16,19,9,9,0.4,0.4
2025-05-25T0200,1745A,118.9576,42.2728,赤峰市,哈达街,细颗粒物(PM2.5),69,,41,50,21,57,,,,21,22,7,7,0.4,0.4
2025-05-25T0200,1746A,118.8788,42.2554,赤峰市,天义路,,42,35,30,29,24,69,,,,14,15,8,9,0.4,0.5
2025-05-25T0200,3058A,119.2658,42.0353,赤峰市,银河街,颗粒物(PM10),61,72,68,33,32,50,,,,16,16,24,17,0.6,0.7
2025-05-25T0200,3286A,118.9359,42.3147,赤峰市,桥北物流园区,细颗粒物(PM2.5),52,38,39,36,29,45,,,,24,17,8,8,0.5,0.5
2025-05-25T0200,2521A,107.3476,22.4136,崇左市,市环保局江州分局,,28,22,26,11,11,88,,,,3,4,6,5,0.3,0.3
2025-05-25T0200,4256A,107.3750,22.3736,崇左市,石景林东路7号,,30,23,23,10,8,94,,,,6,5,4,3,0.7,0.6
2025-05-25T0200,2298A,118.3093,32.3153,滁州市,老年大学,细颗粒物(PM2.5),63,52,56,45,44,72,,,,11,11,3,2,0.4,0.4
2025-05-25T0200,2299A,118.3244,32.2786,滁州市,人大宾馆,细颗粒物(PM2.5),67,61,59,48,42,87,,,,14,13,4,4,0.4,0.4
2025-05-25T0200,3207A,118.3118,32.3038,滁州市,市政府原办公楼,细颗粒物(PM2.5),58,55,54,41,41,82,,,,16,12,4,4,0.5,0.4
2025-05-25T0200,3331A,118.3267,32.2634,滁州市,图书馆,细颗粒物(PM2.5),65,57,48,47,45,99,,,,12,11,8,8,0.4,0.4
2025-05-25T0200,2605A,101.5482,25.0441,楚雄彝族自治州,州环境监测站,,24,6,16,3,12,75,,,,9,12,6,6,0.5,0.5
2025-05-25T0200,2606A,101.538,25.0492,楚雄彝族自治州,市经济开发区,,23,6,16,3,13,71,,,,10,12,7,10,0.5,0.5
2025-05-25T0200,2548A,107.5277,31.2827,达州市,达州职业技术学院,颗粒物(PM10),53,55,79,25,35,33,,,,41,22,5,7,0.8,0.9
2025-05-25T0200,2549A,107.5086,31.2186,达州市,市环境监测站,颗粒物(PM10),56,61,80,27,34,74,,,,24,26,6,6,0.3,0.3
2025-05-25T0200,2550A,107.4988,31.2132,达州市,凤凰小区,颗粒物(PM10),62,73,81,31,36,76,,,,25,23,7,8,0.4,0.4
2025-05-25T0200,2551A,107.5082,31.1986,达州市,达县机关宾馆,颗粒物(PM10),63,75,84,28,32,28,,,,60,30,5,6,0.3,0.3
2025-05-25T0200,2552A,107.4644,31.2124,达州市,市政中心,颗粒物(PM10),66,81,84,31,34,66,,,,25,23,3,3,0.4,0.4
2025-05-25T0200,2614A,100.1542,25.7054,大理白族自治州,大理市环境监测站,,26,,9,15,17,83,,,,5,8,7,7,0.3,0.4
2025-05-25T0200,2615A,100.2171,25.5811,大理白族自治州,大理古城,,,,11,1,9,80,,,,5,8,8,8,0.4,0.6
2025-05-25T0200,1109A,121.612,38.9741,大连市,甘井子,细颗粒物(PM2.5),60,59,42,43,30,43,,,,54,25,6,5,0.6,0.4
2025-05-25T0200,1110A,121.565,38.9511,大连市,周水子,细颗粒物(PM2.5),78,81,48,57,32,21,,,,68,25,8,7,0.7,0.4
2025-05-25T0200,1111A,121.5637,38.8845,大连市,星海三站,细颗粒物(PM2.5),122,103,49,92,41,65,,,,14,15,5,4,0.9,0.5
2025-05-25T0200,1112A,121.6302,38.9117,大连市,青泥洼桥,,38,,32,26,30,71,,,,21,16,8,8,0.6,0.5
2025-05-25T0200,1113A,121.6251,38.8638,大连市,傅家庄,细颗粒物(PM2.5),97,111,51,72,39,77,,,,22,17,7,5,0.8,0.3
2025-05-25T0200,1114A,121.5213,38.8661,大连市,七贤岭,细颗粒物(PM2.5),117,164,63,88,45,64,,,,20,21,5,5,1.3,0.7
2025-05-25T0200,1115A,121.2529,38.8061,大连市,旅顺,,29,26,44,20,39,78,,,,22,18,9,10,0.4,0.4
2025-05-25T0200,1116A,121.7485,39.1311,大连市,金州,,35,35,54,23,38,97,,,,30,24,11,10,0.5,0.5
2025-05-25T0200,1117A,121.7811,39.0496,大连市,开发区,颗粒物(PM10),52,53,52,32,37,85,,,,30,26,8,8,0.6,0.6
2025-05-25T0200,1118A,121.9762,39.0631,大连市,双D港,,42,32,32,29,26,84,,,,20,15,7,7,0.5,0.4
2025-05-25T0200,1789A,124.81117,46.03138,大庆市,大同区,,32,31,26,22,23,54,,,,15,12,5,4,0.4,0.4
2025-05-25T0200,1790A,125.129,46.533,大庆市,龙凤区,,33,33,34,18,21,38,,,,28,15,10,6,0.4,0.4
2025-05-25T0200,1791A,124.902,46.408,大庆市,红岗区,,26,25,27,18,24,46,,,,30,11,7,7,0.3,0.3
2025-05-25T0200,1792A,125.153,46.586,大庆市,萨尔图区,,48,48,37,20,18,44,,,,29,17,7,6,0.5,0.5
2025-05-25T0200,1793A,124.9042,46.6215,大庆市,让胡路区,,36,30,33,25,26,38,,,,11,14,7,7,0.2,0.2
2025-05-25T0200,3481A,125.141,46.634,大庆市,萨区政府监测点,颗粒物(PM10),57,64,33,12,11,51,,,,24,13,6,5,0.5,0.4
2025-05-25T0200,1721A,113.3819,40.1097,大同市,果树场,,,,,,,,,,,,,,,,
2025-05-25T0200,1723A,113.2994,40.0758,大同市,云冈宾馆,颗粒物(PM10),54,57,42,31,25,51,,,,35,19,6,7,0.5,0.5
2025-05-25T0200,1724A,113.3444,40.0917,大同市,大同大学,颗粒物(PM10),53,56,39,30,25,51,,,,38,23,12,10,0.5,0.7
2025-05-25T0200,1725A,113.2661,40.1269,大同市,安家小村,颗粒物(PM10),56,62,38,23,23,44,,,,24,14,11,9,1.9,0.8
2025-05-25T0200,1726A,113.2711,40.0844,大同市,教育学院,细颗粒物(PM2.5),62,63,42,44,29,25,,,,50,19,8,8,0.4,0.2
2025-05-25T0200,3282A,113.3397,40.0597,大同市,大同市卫生学校,颗粒物(PM10),55,60,48,36,34,27,,,,52,22,15,10,0.7,0.8
2025-05-25T0200,3565A,113.1367,40.1122,大同市,云冈站,颗粒物(PM10),54,58,49,31,35,20,,,,31,18,11,8,0.5,0.6
2025-05-25T0200,3566A,113.1186,40.2556,大同市,图书馆,,41,41,32,27,25,34,,,,8,9,5,7,0.5,0.5
2025-05-25T0200,3567A,113.5931,40.0461,大同市,区一中,细颗粒物(PM2.5),59,58,45,42,36,19,,,,30,18,12,15,0.4,0.5
2025-05-25T0200,4199A,113.2798,40.0997,大同市,魏都大道141号,细颗粒物(PM2.5),63,72,46,45,30,39,,,,32,20,7,8,1.3,0.8
2025-05-25T0200,2269A,124.1069,50.4097,大兴安岭地区,科技局,,24,24,21,16,13,18,,,,7,4,7,6,0.3,0.2
2025-05-25T0200,3663A,124.1164,50.4278,大兴安岭地区,红旗社区,,15,12,13,10,9,14,,,,15,8,6,4,0.3,0.3
2025-05-25T0200,1600A,124.3303,40.0625,丹东市,江湾东路,,46,42,39,32,27,48,,,,19,13,9,9,0.8,0.6
2025-05-25T0200,1601A,124.4256,40.1503,丹东市,临江后街,颗粒物(PM10),55,60,41,27,29,46,,,,19,17,7,9,0.7,0.7
2025-05-25T0200,1602A,124.3933,40.1461,丹东市,元宝山,,35,35,44,21,22,59,,,,11,14,7,8,0.4,0.4
2025-05-25T0200,1603A,124.3633,40.1092,丹东市,民主桥,,42,42,40,26,23,25,,,,27,16,7,8,0.5,0.5
2025-05-25T0200,3541A,109.5726,19.5167,儋州市,第一中学子站,,17,17,17,8,9,32,,,,5,5,5,6,0.6,0.6
2025-05-25T0200,3542A,109.5567,19.5187,儋州市,东坡学校子站,,26,26,18,9,8,28,,,,5,5,5,5,0.5,0.5
2025-05-25T0200,2616A,98.5842,24.428,德宏傣族景颇族自治州,德宏州监测站,,19,11,33,8,23,60,,,,6,11,6,7,0.7,0.7
2025-05-25T0200,3677A,98.5881,24.4368,德宏傣族景颇族自治州,芒市人民政府综合楼,,21,16,39,10,21,65,,,,5,10,6,7,0.4,0.5
2025-05-25T0200,1901A,104.4239,31.1208,德阳市,东山公园,,46,46,60,28,25,100,,,,9,14,5,5,0.9,0.8
2025-05-25T0200,1902A,104.3826,31.1317,德阳市,西小区,颗粒物(PM10),63,76,73,30,31,111,,,,12,23,6,5,0.9,0.8
2025-05-25T0200,1904A,104.3553,31.1091,德阳市,耐火材料厂,颗粒物(PM10),60,70,74,33,28,83,,,,24,20,11,7,0.5,0.4
2025-05-25T0200,3639A,104.4019,31.1244,德阳市,市教育局,颗粒物(PM10),51,51,64,26,25,93,,,,12,17,8,6,0.7,0.6
2025-05-25T0200,1622A,116.3032,37.4674,德州市,儿童乐园,,39,39,48,14,27,112,,,,14,13,8,6,0.3,0.4
2025-05-25T0200,1624A,116.2991,37.4451,德州市,监理站,,34,34,38,22,25,77,,,,24,16,7,6,0.3,0.4
2025-05-25T0200,3066A,116.2721,37.4379,德州市,九衢泉纯净水厂,,48,48,47,19,28,56,,,,34,27,8,11,0.4,0.5
2025-05-25T0200,3371A,116.3728,37.4403,德州市,开发区人民医院,,36,36,43,17,21,103,,,,20,17,9,7,0.4,0.4
2025-05-25T0200,3372A,116.3572,37.4094,德州市,太阳城中学,,46,46,45,22,25,83,,,,31,20,5,4,0.3,0.4
2025-05-25T0200,3511A,116.5652,37.3319,德州市,陵城艺术中心,,39,39,42,19,24,93,,,,19,16,7,6,0.6,0.6
2025-05-25T0200,2621A,99.7056,27.8317,迪庆藏族自治州,迪庆州站,,20,20,15,9,12,40,,,,7,9,6,6,0.6,0.7
2025-05-25T0200,3180A,99.7136,27.8094,迪庆藏族自治州,质量技术监督局,,16,13,15,11,8,43,,,,8,12,5,5,0.6,0.6
2025-05-25T0200,4257A,104.6092,35.5962,定西市,将台街,,33,33,46,19,17,78,,,,9,10,4,4,0.3,0.4
2025-05-25T0200,4309A,104.6159,35.5701,定西市,正龙路62号,,32,32,41,16,17,82,,,,7,8,6,6,0.2,0.2
2025-05-25T0200,1389A,113.7547,23.0494,东莞市,莞城梨川,,49,49,27,26,13,92,,,,10,13,7,7,0.5,0.5
2025-05-25T0200,1390A,113.7944,23.0128,东莞市,东城石井,,45,45,23,26,11,85,,,,8,13,3,3,0.5,0.6
2025-05-25T0200,1391A,113.7383,22.9658,东莞市,南城西平,,42,42,22,17,10,78,,,,19,20,1,1,0.6,0.6
2025-05-25T0200,3319A,113.7338,23.0381,东莞市,万江金泰,,40,40,22,25,12,82,,,,7,12,1,2,0.9,1
2025-05-25T0200,3626A,113.7533,23.0202,东莞市,南城元岭,,36,36,21,21,11,89,,,,12,14,5,5,0.6,0.7
2025-05-25T0200,3627A,113.7875,23.0457,东莞市,东城主山,,48,48,34,24,16,79,,,,12,9,5,5,0.7,0.7
2025-05-25T0200,1666A,118.6614,37.4309,东营市,市环保局,,46,46,42,22,23,59,,,,36,19,11,6,0.5,0.5
2025-05-25T0200,3036A,118.6904,37.4338,东营市,开发区管委会,,45,45,50,24,28,78,,,,39,27,9,6,0.5,0.5
2025-05-25T0200,3365A,118.5719,37.565,东营市,垦利区民丰路,,39,39,42,12,26,72,,,,30,23,7,8,0.6,0.7
2025-05-25T0200,3498A,118.5055,37.8612,东营市,河口城区,,44,44,40,17,20,49,,,,38,22,14,9,0.6,0.6
2025-05-25T0200,3646A,118.4978,37.4623,东营市,胜利站,,50,50,46,14,26,72,,,,34,22,11,11,0.6,0.6
2025-05-25T0200,3734A,118.35,37.26,东营市,理想之城,颗粒物(PM10),51,51,51,27,28,32,,,,53,33,9,6,0.5,0.5
2025-05-25T0200,1591A,110.0023,39.8129,鄂尔多斯市,综合楼,,44,44,55,19,33,72,,,,33,25,6,6,0.5,0.5
2025-05-25T0200,1592A,109.9486,39.8261,鄂尔多斯市,巴音孟克林场办事处,,41,41,56,19,35,102,,,,20,25,9,6,0.5,0.6
2025-05-25T0200,1593A,109.7736,39.5986,鄂尔多斯市,康泽苑,颗粒物(PM10),52,53,54,19,32,50,,,,28,15,8,8,0.3,0.3
2025-05-25T0200,1594A,109.8119,39.5989,鄂尔多斯市,华泰汽车城,,41,41,52,17,35,27,,,,36,21,5,5,0.4,0.4
2025-05-25T0200,1595A,109.9734,39.7884,鄂尔多斯市,奥林花园,,46,46,57,17,33,53,,,,41,30,5,6,0.5,0.6
2025-05-25T0200,2436A,114.8938,30.3994,鄂州市,市政府,细颗粒物(PM2.5),53,44,49,37,39,107,,,,27,14,9,7,0.4,0.5
2025-05-25T0200,2437A,114.8989,30.3714,鄂州市,赵家坝,,35,35,46,24,34,94,,,,18,13,7,6,0.7,0.7
2025-05-25T0200,3654A,114.8094,30.4089,鄂州市,精准医疗中心,,49,46,49,34,34,115,,,,13,10,4,4,0.6,0.7
2025-05-25T0200,2454A,109.4978,30.2981,恩施土家族苗族自治州,湖北民院,颗粒物(PM10),56,62,66,28,30,94,,,,5,8,6,6,0.2,0.2
2025-05-25T0200,2455A,109.4707,30.2798,恩施土家族苗族自治州,州电力总公司,,46,46,54,27,28,67,,,,4,10,6,6,0.2,0.2
2025-05-25T0200,3549A,109.5061,30.3772,恩施土家族苗族自治州,龙凤新区,,50,50,53,32,26,56,,,,10,10,6,6,0.4,0.3
2025-05-25T0200,2499A,108.3411,21.6158,防城港市,沙万,,28,24,16,11,5,88,,,,5,5,2,2,0.3,0.3
2025-05-25T0200,2500A,108.3514,21.7731,防城港市,防城档案局,,34,34,24,8,10,77,,,,14,10,1,1,0.5,0.5
2025-05-25T0200,2501A,108.3506,21.6414,防城港市,大海花园,,29,22,17,11,7,92,,,,8,9,2,2,0.6,0.6
2025-05-25T0200,1371A,113.1294,23.0067,佛山市,湾梁,,31,31,23,15,12,87,,,,20,17,8,8,0.7,0.8
2025-05-25T0200,1372A,113.1083,23.0478,佛山市,华材职中,,34,34,25,20,12,90,,,,26,22,7,6,0.5,0.5
2025-05-25T0200,1373A,113.144,23.0453,佛山市,南海气象局,,33,33,21,14,11,90,,,,17,17,3,3,0.6,0.7
2025-05-25T0200,1374A,113.2881,22.8094,佛山市,顺德苏岗,,38,38,28,22,11,69,,,,19,21,7,7,0.6,0.7
2025-05-25T0200,1376A,112.8383,22.8678,佛山市,高明孔堂,,35,35,25,10,9,86,,,,23,17,9,8,0.6,0.7
2025-05-25T0200,1377A,112.8836,23.1588,佛山市,三水监测站,,31,31,21,3,7,69,,,,24,16,5,5,0.5,0.6
2025-05-25T0200,1378A,112.867,23.185,佛山市,三水云东海,,30,30,30,17,12,63,,,,20,14,2,3,0.7,0.8
2025-05-25T0200,3625A,113.2544,22.7642,佛山市,容桂街道办,,35,34,21,24,15,64,,,,26,24,6,6,0.7,0.9
2025-05-25T0200,1280A,119.3903,26.0543,福州市,鼓山,,,,20,,2,,,81,,,4,,3,,0.4
2025-05-25T0200,1282A,119.2681,26.0504,福州市,师大,,38,26,12,26,5,108,,,,5,8,3,4,0.3,0.3
2025-05-25T0200,1283A,119.2984,26.1028,福州市,五四北路,,35,18,11,18,4,112,,,,6,12,3,3,0.5,0.5
2025-05-25T0200,1284A,119.2648,26.0768,福州市,杨桥西路,,39,39,14,25,5,104,,,,6,9,3,3,0.3,0.3
2025-05-25T0200,1285A,119.317,26.0746,福州市,紫阳,,36,24,11,22,4,115,,,,7,11,4,4,0.4,0.4
2025-05-25T0200,3048A,119.5799,26.0936,福州市,九龙,,40,40,18,26,6,91,,,,10,7,4,4,0.4,0.3
2025-05-25T0200,3526A,119.5189,25.9664,福州市,吴航,,43,42,14,30,9,115,,,,8,8,4,4,0.3,0.3
2025-05-25T0200,1755A,123.7977,41.8491,抚顺市,望花区,颗粒物(PM10),58,65,72,3,31,8,,,,58,32,5,9,0.7,0.8
2025-05-25T0200,1756A,123.9161,41.8822,抚顺市,顺城区,颗粒物(PM10),63,76,66,40,35,2,,,,67,43,8,11,0.7,0.8
2025-05-25T0200,1757A,124.0436,41.8611,抚顺市,东洲区,,40,39,51,28,28,42,,,,23,19,6,10,0.5,0.6
2025-05-25T0200,1758A,123.9247,41.8642,抚顺市,新抚区,颗粒物(PM10),58,66,61,30,29,0,,,,62,32,8,11,0.6,0.6
2025-05-25T0200,1759A,124.0972,41.8961,抚顺市,大伙房水库,,50,36,42,35,28,37,,,,44,25,8,10,0.6,0.6
2025-05-25T0200,1760A,123.7086,41.8391,抚顺市,沈抚新城,颗粒物(PM10),62,74,53,28,34,0,,,,56,36,6,9,0.6,0.8
2025-05-25T0200,2376A,116.2127,28.0814,抚州市,桐源党溪,颗粒物(PM10),56,62,68,39,42,25,,,,3,3,4,5,0.9,0.9
2025-05-25T0200,2377A,116.3544,27.9831,抚州市,市站,细颗粒物(PM2.5),63,61,62,45,43,68,,,,9,6,6,4,0.5,0.6
2025-05-25T0200,2378A,116.3565,27.963,抚州市,血防站,细颗粒物(PM2.5),68,71,69,49,45,69,,,,12,7,5,4,0.4,0.4
2025-05-25T0200,2379A,116.3564,28.0007,抚州市,采茶剧团,细颗粒物(PM2.5),63,67,65,45,42,71,,,,10,5,14,4,0.3,0.2
2025-05-25T0200,2380A,116.385,27.9647,抚州市,医学分院,"颗粒物(PM10),细颗粒物(PM2.5)",59,67,69,42,39,70,,,,15,5,4,5,0.9,0.8
2025-05-25T0200,2207A,121.6094,41.998,阜新市,工业园区,颗粒物(PM10),61,71,54,38,37,1,,,,54,32,9,13,0.6,0.5
2025-05-25T0200,2208A,121.6697,42.0279,阜新市,长青街,,36,30,32,25,26,30,,,,36,28,15,11,0.5,0.5
2025-05-25T0200,2209A,121.6673,42.0705,阜新市,农业园区,,45,45,56,27,17,75,,,,16,17,10,8,2.0,0.5
2025-05-25T0200,2210A,121.6717,42.0224,阜新市,东苑,,50,50,54,31,42,41,,,,32,29,16,14,0.5,0.6
2025-05-25T0200,2211A,121.6506,42.0498,阜新市,玉龙新城,颗粒物(PM10),53,56,58,29,29,26,,,,38,29,8,9,1.2,0.6
2025-05-25T0200,2301A,115.8277,32.8929,阜阳市,市监测站,细颗粒物(PM2.5),84,72,72,62,52,54,,,,32,18,8,8,0.5,0.4
2025-05-25T0200,2303A,115.8554,32.8605,阜阳市,开发区,颗粒物(PM10),83,115,79,48,45,40,,,,31,17,6,6,0.3,0.3
2025-05-25T0200,2875A,115.784,32.8892,阜阳市,阜阳职业技术学院,细颗粒物(PM2.5),74,77,67,54,46,61,,,,40,17,5,5,0.4,0.4
2025-05-25T0200,3468A,115.7901,32.8613,阜阳市,市规划展馆,细颗粒物(PM2.5),77,80,65,56,48,72,,,,25,13,6,6,0.6,0.5
2025-05-25T0200,3469A,115.836,32.9183,阜阳市,枣园社区,细颗粒物(PM2.5),72,76,66,52,47,54,,,,36,15,4,4,0.5,0.3
2025-05-25T0200,2669A,102.9099,34.9841,甘南藏族自治州,州政府,,41,41,42,19,20,48,,,,26,10,1,2,0.2,0.3
2025-05-25T0200,3380A,102.8914,34.9617,甘南藏族自治州,甘肃民族师范学院,颗粒物(PM10),52,53,47,8,16,40,,,,30,12,7,7,0.4,0.3
2025-05-25T0200,2570A,101.9603,30.0475,甘孜藏族自治州,水桥子,,19,19,12,8,5,14,,,,34,21,4,4,0.4,0.4
2025-05-25T0200,3065A,101.9533,29.9972,甘孜藏族自治州,州环保局,,24,24,14,6,6,31,,,,26,21,2,1,0.3,0.3
2025-05-25T0200,3414A,115.8347,28.932,赣江新区,桑海产业园,,36,34,50,20,33,115,,,,23,15,4,5,0.6,0.6
2025-05-25T0200,2362A,114.9017,25.9149,赣州市,通天岩,颗粒物(PM10),53,56,42,6,9,45,,,,5,5,5,5,0.8,0.7
2025-05-25T0200,2363A,114.9367,25.8664,赣州市,地委,细颗粒物(PM2.5),55,58,41,39,27,82,,,,12,9,2,2,0.5,0.5
2025-05-25T0200,2364A,114.9461,25.8481,赣州市,气象台,颗粒物(PM10),54,57,46,36,25,87,,,,13,11,8,8,0.5,0.5
2025-05-25T0200,2365A,114.9322,25.8333,赣州市,市图书馆,颗粒物(PM10),53,55,40,35,30,114,,,,7,6,3,4,0.6,0.6
2025-05-25T0200,2366A,114.8905,25.8471,赣州市,华坚鞋城,细颗粒物(PM2.5),55,51,42,39,28,98,,,,14,8,4,4,0.3,0.3
2025-05-25T0200,3109A,115.0093,25.8613,赣州市,赣县区卫计委,细颗粒物(PM2.5),63,46,36,45,29,42,,,,20,10,2,2,0.7,0.7
2025-05-25T0200,2683A,106.2319,36.1417,固原市,马园,,38,,32,12,20,120,,,,7,23,5,5,0.3,0.3
2025-05-25T0200,2684A,106.2792,36.0022,固原市,监测站,,33,6,27,3,12,105,,,,13,11,5,6,0.3,0.3
2025-05-25T0200,2685A,106.2375,36.0211,固原市,新区,,31,,24,7,13,98,,,,8,14,4,5,0.4,0.4
2025-05-25T0200,3522A,106.2177,35.9959,固原市,原州区十五小,,37,8,27,3,13,118,,,,7,9,9,9,0.2,0.2
2025-05-25T0200,2543A,106.6308,30.5278,广安市,小平旧居,,,,,,,,,,,,,,,,
2025-05-25T0200,2544A,106.6303,30.4576,广安市,市委,颗粒物(PM10),67,83,84,44,44,82,,,,14,15,3,5,0.4,0.4
2025-05-25T0200,2545A,106.6271,30.4663,广安市,友谊中学,颗粒物(PM10),61,72,71,36,40,86,,,,16,17,5,8,0.7,0.6
2025-05-25T0200,2547A,106.6388,30.4551,广安市,广电花园,颗粒物(PM10),64,77,77,40,39,74,,,,18,19,7,8,0.5,0.5
2025-05-25T0200,2902A,106.6351,30.4865,广安市,北辰小学,颗粒物(PM10),61,72,82,33,37,91,,,,16,16,10,13,0.5,0.5
2025-05-25T0200,2523A,105.8945,32.4535,广元市,黑石坡,颗粒物(PM10),58,66,62,35,22,104,,,,9,11,6,5,0.4,0.3
2025-05-25T0200,2524A,105.821,32.4444,广元市,老城,颗粒物(PM10),53,55,51,21,18,113,,,,2,11,1,2,0.5,0.2
2025-05-25T0200,2526A,105.8628,32.4287,广元市,监测站,颗粒物(PM10),54,57,42,24,19,96,,,,8,9,2,2,0.3,0.3
2025-05-25T0200,3617A,105.8047,32.4166,广元市,经开区,颗粒物(PM10),58,65,64,36,37,112,,,,13,20,3,6,0.2,0.5
2025-05-25T0200,1345A,113.2347,23.1423,广州市,广雅中学,颗粒物(PM10),52,54,32,34,18,83,,,,31,22,4,4,0.4,0.6
2025-05-25T0200,1346A,113.2612,23.105,广州市,市五中,,36,32,24,25,15,96,,,,17,16,3,4,0.4,0.4
2025-05-25T0200,1348A,113.3478,23.0916,广州市,广东商学院,,36,36,27,19,14,99,,,,12,14,5,4,0.5,0.6
2025-05-25T0200,1349A,113.4332,23.1047,广州市,市八十六中,,49,42,27,34,17,100,,,,16,14,3,3,0.6,0.7
2025-05-25T0200,1350A,113.3505,22.9483,广州市,番禺中学,,45,45,29,12,11,83,,,,21,17,6,6,0.4,0.5
2025-05-25T0200,1351A,113.2146,23.3916,广州市,花都师范,,28,25,20,13,12,88,,,,17,12,9,5,0.5,0.6
2025-05-25T0200,1352A,113.2597,23.1331,广州市,市监测站,,46,46,28,26,15,79,,,,31,21,6,6,0.4,0.5
2025-05-25T0200,1353A,113.5618,23.312,广州市,九龙镇镇龙,,30,30,21,17,12,86,,,,11,14,5,6,0.5,0.5
2025-05-25T0200,1354A,113.2765,23.1544,广州市,麓湖,,40,40,26,24,15,51,,,,41,23,5,5,0.5,0.7
2025-05-25T0200,1355A,113.443,23.3035,广州市,帽峰山森林公园,,35,26,17,24,13,93,,,,13,12,5,6,0.6,0.7
2025-05-25T0200,2846A,113.3221,23.1322,广州市,体育西,,47,47,30,19,18,94,,,,17,18,4,5,0.3,0.4
2025-05-25T0200,3298A,113.5717,23.5491,广州市,从化街口,,39,37,24,25,15,122,,,,6,10,7,7,0.6,0.7
2025-05-25T0200,3299A,113.3472,23.3692,广州市,白云竹料,,38,34,24,26,14,117,,,,13,9,3,3,0.5,0.6
2025-05-25T0200,3300A,113.2981,23.237,广州市,白云嘉禾,,41,41,28,26,17,88,,,,25,19,8,7,0.6,0.8
2025-05-25T0200,3301A,113.4256,23.1716,广州市,黄埔科学城,,40,39,27,28,15,98,,,,8,9,4,4,0.4,0.5
2025-05-25T0200,3302A,113.3942,23.0483,广州市,番禺大学城,,33,,15,23,14,93,,,,25,21,1,4,0.6,0.5
2025-05-25T0200,3303A,113.4922,22.8168,广州市,南沙黄阁,,39,39,28,26,16,72,,,,21,25,9,7,0.8,0.9
2025-05-25T0200,3304A,113.5342,22.7896,广州市,南沙街,,39,39,27,26,15,73,,,,16,20,9,5,0.7,0.7
2025-05-25T0200,3443A,113.2902,23.5544,广州市,花都梯面,,31,31,21,19,14,63,,,,21,11,12,7,0.5,0.6
2025-05-25T0200,3445A,113.7858,23.7478,广州市,从化良口,,36,36,25,25,14,58,,,,12,7,6,7,0.4,0.5
2025-05-25T0200,3446A,113.8051,23.2614,广州市,增城荔城,,40,40,19,23,11,97,,,,7,7,8,8,0.6,0.5
2025-05-25T0200,2505A,109.568,23.1478,贵港市,德智高中,,,,,,,,,,,,,,,,
2025-05-25T0200,2506A,109.6047,23.0666,贵港市,江南子站,,34,34,9,13,7,78,,,,18,10,5,3,0.7,0.7
2025-05-25T0200,2508A,109.5669,23.1065,贵港市,荷城子站,,35,35,11,19,3,77,,,,18,10,6,4,0.4,0.5
2025-05-25T0200,3405A,109.5886,23.1172,贵港市,新世纪学校,,36,36,10,16,9,73,,,,14,7,1,1,0.8,0.8
2025-05-25T0200,4260A,109.5933,23.0951,贵港市,中山路155-3号,,37,37,12,24,9,89,,,,14,10,4,3,0.7,0.6
2025-05-25T0200,1439A,106.6899,26.5998,贵阳市,马鞍山,,44,44,50,27,19,18,,,,8,10,3,4,0.3,0.3
2025-05-25T0200,1441A,106.6243,26.6266,贵阳市,鉴湖路,,49,48,59,34,26,47,,,,16,18,6,7,0.4,0.4
2025-05-25T0200,1442A,106.7487,26.6343,贵阳市,燕子冲,细颗粒物(PM2.5),70,51,59,51,35,50,,,,8,11,3,4,0.4,0.4
2025-05-25T0200,1443A,106.6555,26.4365,贵阳市,碧云窝,颗粒物(PM10),57,63,65,39,27,56,,,,21,20,5,5,0.4,0.3
2025-05-25T0200,1445A,106.7109,26.6027,贵阳市,红边门,细颗粒物(PM2.5),58,51,59,41,31,59,,,,2,4,9,10,0.3,0.1
2025-05-25T0200,1446A,106.7164,26.5699,贵阳市,新华路,细颗粒物(PM2.5),55,46,57,39,28,52,,,,7,9,7,9,0.5,0.4
2025-05-25T0200,1447A,106.674,26.5424,贵阳市,太慈桥,,42,41,53,29,24,22,,,,17,15,5,6,0.4,0.3
2025-05-25T0200,1552A,106.805,26.3003,贵阳市,桐木岭,颗粒物(PM10),57,63,71,34,32,86,,,,5,6,1,2,0.5,0.6
2025-05-25T0200,4230A,106.6882,26.5695,贵阳市,花果园大街66号,细颗粒物(PM2.5),67,53,59,48,34,54,,,,8,10,3,4,0.5,0.4
2025-05-25T0200,4231A,106.6873,26.5169,贵阳市,漓江路57号,细颗粒物(PM2.5),55,51,59,39,29,53,,,,7,12,2,3,0.4,0.4
2025-05-25T0200,1862A,110.4144,25.3167,桂林市,电子科大尧山校区,,,,,,,,,,,,,,,,
2025-05-25T0200,1864A,110.3089,25.2708,桂林市,龙隐路小学,,45,45,41,31,16,125,,,,9,8,10,10,0.5,0.4
2025-05-25T0200,1865A,110.2869,25.2178,桂林市,八中,细颗粒物(PM2.5),54,49,43,38,20,121,,,,10,11,8,8,0.6,0.6
2025-05-25T0200,3531A,110.296,25.1253,桂林市,旅游学院,,49,46,36,34,24,76,,,,17,6,2,2,0.4,0.4
2025-05-25T0200,4222A,110.1835,25.2444,桂林市,环湖路276号,细颗粒物(PM2.5),77,73,49,56,32,70,,,,17,7,60,8,0.6,0.5
2025-05-25T0200,4301A,110.2803,25.2773,桂林市,信义路13号,颗粒物(PM10),51,52,46,33,19,113,,,,11,10,5,4,0.5,0.5
2025-05-25T0200,2674A,100.2561,34.4714,果洛藏族自治州,玛沁县大武镇,,50,50,51,17,17,62,,,,6,4,22,26,0.4,0.4
2025-05-25T0200,1129A,126.5422,45.755,哈尔滨市,岭北,,36,36,18,25,11,17,,,,54,16,12,12,0.6,0.5
2025-05-25T0200,1130A,126.561,45.8167,哈尔滨市,松北商大,,47,47,23,25,13,0,,,,71,22,6,6,0.5,0.4
2025-05-25T0200,1131A,126.979,45.5419,哈尔滨市,阿城会宁,颗粒物(PM10),51,52,42,24,17,0,,,,46,19,7,6,0.3,0.4
2025-05-25T0200,1132A,126.599,45.7222,哈尔滨市,南岗学府路,颗粒物(PM10),53,56,30,21,11,5,,,,57,21,6,6,0.6,0.5
2025-05-25T0200,1133A,126.689,45.7733,哈尔滨市,太平宏伟公园,,39,39,28,21,21,9,,,,63,25,5,4,0.5,0.5
2025-05-25T0200,1134A,126.635,45.7667,哈尔滨市,道外承德广场,,41,41,22,23,12,20,,,,50,22,5,5,0.5,0.4
2025-05-25T0200,1135A,126.685,45.7319,哈尔滨市,香坊红旗大街,细颗粒物(PM2.5),78,80,23,57,14,4,,,,70,24,5,4,0.8,0.6
2025-05-25T0200,1136A,126.6411,45.7258,哈尔滨市,动力和平路,颗粒物(PM10),51,52,22,32,18,17,,,,55,24,8,6,0.5,0.4
2025-05-25T0200,1137A,126.593,45.7478,哈尔滨市,道里建国路,,46,46,19,26,13,5,,,,68,21,6,3,1.5,0.7
2025-05-25T0200,1138A,126.615,45.61,哈尔滨市,平房东轻厂,颗粒物(PM10),57,64,28,21,22,2,,,,73,32,11,9,0.8,0.5
2025-05-25T0200,1139A,126.595,45.9855,哈尔滨市,呼兰师专,,28,21,17,19,14,46,,,,31,19,6,6,0.5,0.5
2025-05-25T0200,1140A,126.6206,45.6842,哈尔滨市,省农科院,颗粒物(PM10),64,78,36,28,20,0,,,,66,29,11,9,0.8,0.6
2025-05-25T0200,2688A,93.5128,42.8172,哈密市,地区监测站,,29,,20,20,33,80,,,,9,12,5,4,0.1,0.1
2025-05-25T0200,2689A,93.4961,42.8328,哈密市,哈密师范学校,,27,,18,14,9,84,,,,10,13,4,4,0.2,0.3
2025-05-25T0200,2671A,100.9048,36.9639,海北藏族自治州,海晏县西海镇,,24,24,31,15,16,72,,,,7,5,12,12,0.4,0.4
2025-05-25T0200,3867A,102.0738,36.5056,海东市,平安区公安北苑,,30,20,34,11,18,96,,,,2,5,7,7,0.5,0.5
2025-05-25T0200,1409A,110.576,19.9507,海口市,东寨港,,20,19,12,6,6,61,,,,3,3,15,6,0.5,0.4
2025-05-25T0200,1410A,110.3232,20.0574,海口市,海南大学,,36,36,16,19,6,82,,,,4,6,3,2,0.6,0.4
2025-05-25T0200,1411A,110.283,20.0053,海口市,秀英海南医院,,,,14,16,6,,,,,5,9,4,4,0.4,0.3
2025-05-25T0200,1412A,110.338,19.9969,海口市,海南师范大学,,25,16,14,14,7,80,,,,4,6,4,3,0.5,0.4
2025-05-25T0200,1413A,110.33,20.0356,海口市,龙华路环保局宿舍,,27,,14,15,6,85,,,,6,7,4,4,0.7,0.5
2025-05-25T0200,3539A,110.5111,19.9736,海口市,桂林洋子站,,26,26,16,12,7,75,,,,6,6,4,4,0.4,0.2
2025-05-25T0200,2673A,100.6188,36.2866,海南藏族自治州,共和县恰卜恰镇,,30,30,59,11,17,86,,,,10,10,12,13,0.4,0.4
2025-05-25T0200,2676A,97.3731,37.3753,海西蒙古族藏族自治州,德令哈市,,37,32,41,24,16,116,,,,2,2,10,10,0.3,0.3
2025-05-25T0200,1048A,114.5302,36.6116,邯郸市,东污水处理厂,,39,39,38,12,14,50,,,,43,21,6,6,0.6,0.7
2025-05-25T0200,1049A,114.4918,36.5713,邯郸市,矿院,,47,47,39,17,18,21,,,,65,23,8,8,0.5,0.7
2025-05-25T0200,1050A,114.484,36.6133,邯郸市,丛台公园,,31,31,36,15,21,73,,,,23,21,4,6,0.5,0.8
2025-05-25T0200,3458A,114.7895,36.5593,邯郸市,香泉濮院小区,,44,44,50,9,18,86,,,,17,19,4,4,0.3,0.3
2025-05-25T0200,3579A,114.50634,36.77178,邯郸市,永年区实验高中,,50,50,48,19,28,71,,,,19,17,7,4,0.7,0.5
2025-05-25T0200,3580A,114.20016,36.44293,邯郸市,峰峰矿区临水派出所,,35,16,26,3,9,112,,,,10,13,6,7,0.4,0.5
2025-05-25T0200,2634A,106.9893,33.1842,汉中市,汉川机床厂子校,,35,26,35,23,25,111,,,,6,8,7,8,0.5,0.5
2025-05-25T0200,2635A,107.0154,33.0706,汉中市,市监测站,,,56,43,30,29,90,,,,12,11,7,7,,0.6
2025-05-25T0200,2636A,107.0089,33.1138,汉中市,鑫源开发区,,35,31,44,24,30,89,,,,11,12,5,6,0.5,0.5
2025-05-25T0200,2637A,107.007,33.0323,汉中市,南郑大河坎水厂,颗粒物(PM10),60,69,50,33,35,85,,,,14,13,7,7,0.6,0.6
2025-05-25T0200,1223A,120.2072,30.2111,杭州市,滨江,细颗粒物(PM2.5),68,78,55,49,33,105,,,,28,23,7,7,1.0,0.9
2025-05-25T0200,1224A,120.0633,30.2747,杭州市,西溪,细颗粒物(PM2.5),70,58,32,51,28,47,,,,18,13,4,4,0.6,0.4
2025-05-25T0200,1226A,120.3417,30.3150,杭州市,下沙,细颗粒物(PM2.5),68,76,52,49,32,87,,,,36,26,7,6,0.7,0.7
2025-05-25T0200,1227A,120.1269,30.2456,杭州市,卧龙桥,细颗粒物(PM2.5),70,64,40,51,32,84,,,,13,10,9,9,0.7,0.6
2025-05-25T0200,1228A,120.1903,30.2692,杭州市,浙江农大,细颗粒物(PM2.5),69,72,53,50,42,89,,,,33,30,9,9,0.7,0.6
2025-05-25T0200,1230A,120.1197,30.3119,杭州市,和睦小学,细颗粒物(PM2.5),63,73,49,45,25,105,,,,18,14,7,7,0.6,0.4
2025-05-25T0200,1231A,120.3019,30.4183,杭州市,临平镇,细颗粒物(PM2.5),186,,55,140,34,97,,,,22,18,6,6,0.7,0.6
2025-05-25T0200,1232A,120.2753,30.1839,杭州市,城厢镇,细颗粒物(PM2.5),77,75,39,56,37,118,,,,24,20,7,7,0.6,0.5
2025-05-25T0200,1233A,120.0883,30.1808,杭州市,云栖,颗粒物(PM10),56,61,49,35,26,77,,,,19,17,6,6,0.5,0.4
2025-05-25T0200,3557A,119.9464,30.0494,杭州市,镇二中,细颗粒物(PM2.5),73,59,46,53,28,49,,,,28,20,3,3,0.7,0.6
2025-05-25T0200,3558A,119.7183,30.2367,杭州市,市府大楼,细颗粒物(PM2.5),69,70,35,50,34,83,,,,22,18,8,8,0.8,0.7
2025-05-25T0200,3656A,120.1556,30.2864,杭州市,消防大队,细颗粒物(PM2.5),67,64,37,48,36,109,,,,25,19,5,5,0.8,0.7
2025-05-25T0200,1270A,117.1959,31.7848,合肥市,明珠广场,细颗粒物(PM2.5),79,78,74,58,50,48,,,,43,23,4,5,0.5,0.5
2025-05-25T0200,1271A,117.3072,31.8764,合肥市,三里街,细颗粒物(PM2.5),64,68,73,46,47,79,,,,25,16,6,6,0.6,0.5
2025-05-25T0200,1272A,117.2588,31.8707,合肥市,琥珀山庄,细颗粒物(PM2.5),72,61,70,52,50,73,,,,31,20,5,5,0.6,0.6
2025-05-25T0200,1273A,117.1604,31.9052,合肥市,董铺水库,细颗粒物(PM2.5),64,75,74,46,44,78,,,,17,10,1,2,0.4,0.5
2025-05-25T0200,1274A,117.25,31.8571,合肥市,长江中路,细颗粒物(PM2.5),75,66,75,55,52,90,,,,23,16,6,5,0.6,0.6
2025-05-25T0200,1275A,117.266,31.9436,合肥市,庐阳区,细颗粒物(PM2.5),67,78,77,48,49,66,,,,27,14,6,6,0.3,0.4
2025-05-25T0200,1276A,117.3453,31.8616,合肥市,瑶海区,细颗粒物(PM2.5),68,68,75,49,48,91,,,,22,18,6,6,0.5,0.5
2025-05-25T0200,1277A,117.3027,31.7964,合肥市,包河区,细颗粒物(PM2.5),64,61,73,46,49,56,,,,55,29,8,8,0.5,0.5
2025-05-25T0200,1278A,117.2776,31.7385,合肥市,滨湖新区,细颗粒物(PM2.5),89,83,80,66,59,53,,,,57,24,5,5,0.6,0.6
2025-05-25T0200,1279A,117.1318,31.8403,合肥市,高新区,细颗粒物(PM2.5),69,68,72,50,50,96,,,,19,16,5,5,0.5,0.5
2025-05-25T0200,3464A,117.3803,31.9147,合肥市,高教基地,细颗粒物(PM2.5),65,70,76,47,45,38,,,,37,16,5,6,0.4,0.5
2025-05-25T0200,3614A,79.924,37.0877,和田地区,地区环保局,颗粒物(PM10),202,351,464,95,109,41,,,,44,13,1,2,0.7,0.5
2025-05-25T0200,3615A,79.9131,37.113,和田地区,市环保局,颗粒物(PM10),164,277,405,123,107,34,,,,11,11,1,2,0.3,0.2
2025-05-25T0200,2516A,108.2011,24.715,河池市,东仁乐园,,,,,,,,,,,,,,,,
2025-05-25T0200,2517A,108.0497,24.6947,河池市,市环保站,,36,36,42,24,16,66,,,,9,6,23,11,0.5,0.5
2025-05-25T0200,2518A,108.0983,24.6989,河池市,市疾控中心,,42,42,43,24,17,47,,,,18,14,8,7,0.6,0.6
2025-05-25T0200,1696A,114.6778,23.7569,河源市,源西,,49,49,22,29,16,101,,,,18,10,5,5,0.6,0.5
2025-05-25T0200,1697A,114.6944,23.7586,河源市,东埔,,50,47,25,35,18,109,,,,13,10,5,5,0.7,0.6
2025-05-25T0200,1698A,114.6892,23.7233,河源市,老城,细颗粒物(PM2.5),54,48,24,38,18,105,,,,10,10,4,5,0.5,0.4
2025-05-25T0200,1718A,115.4208,35.2464,菏泽市,气象局,颗粒物(PM10),53,55,61,34,42,92,,,,21,19,9,3,0.3,0.5
2025-05-25T0200,3374A,115.5564,35.0891,菏泽市,定陶老年大学,颗粒物(PM10),59,68,50,41,32,42,,,,36,15,4,5,0.4,0.3
2025-05-25T0200,4184A,115.4797,35.24401,菏泽市,永昌路1号,细颗粒物(PM2.5),55,47,51,39,44,86,,,,26,18,7,6,0.3,0.3
2025-05-25T0200,4193A,115.4715,35.2800,菏泽市,长城路999号,,47,47,59,23,35,84,,,,28,23,13,11,0.2,0.2
2025-05-25T0200,2514A,111.5264,24.4172,贺州市,环保小区,,31,31,35,20,22,32,,,,10,10,7,7,0.6,0.8
2025-05-25T0200,2515A,111.5608,24.4078,贺州市,政协大楼,,38,38,32,26,23,16,,,,17,11,8,8,0.9,0.8
2025-05-25T0200,3534A,111.4744,24.4553,贺州市,西湾,,44,44,36,24,24,21,,,,12,9,5,7,0.8,0.7
2025-05-25T0200,2385A,114.17,35.9019,鹤壁市,市监测站,颗粒物(PM10),59,68,54,33,31,61,,,,36,17,2,4,0.5,0.6
2025-05-25T0200,2386A,114.2956,35.7511,鹤壁市,市交警支队,颗粒物(PM10),51,51,56,27,30,85,,,,22,20,11,8,0.5,0.5
2025-05-25T0200,2387A,114.2878,35.7306,鹤壁市,迎宾馆,,43,43,54,28,35,97,,,,16,17,5,4,0.5,0.6
2025-05-25T0200,3474A,114.2617,35.6822,鹤壁市,大新区,,41,41,51,24,31,50,,,,50,19,8,6,0.4,0.5
2025-05-25T0200,3596A,114.1572,35.9603,鹤壁市,南山宾馆,颗粒物(PM10),53,56,45,33,33,94,,,,18,13,5,5,0.6,0.6
2025-05-25T0200,2244A,130.2537,47.3416,鹤岗市,哈啤分公司,,33,,18,23,21,26,,,,4,5,11,12,0.3,0.2
2025-05-25T0200,2245A,130.2684,47.3086,鹤岗市,斯达机电,,40,,23,28,22,18,,,,11,7,11,11,0.4,0.4
2025-05-25T0200,2246A,130.3114,47.3388,鹤岗市,东山纸板厂,,41,41,27,15,12,6,,,,22,8,20,13,1.0,0.4
2025-05-25T0200,2247A,130.1097,47.3382,鹤岗市,五号水库,,,,,,,,,,,,,,,,
2025-05-25T0200,2263A,127.4833,50.2524,黑河市,交通局,,26,19,25,18,16,31,,,,6,9,6,7,0.2,0.2
2025-05-25T0200,2264A,127.5144,50.2341,黑河市,环保局,,36,30,22,25,14,32,,,,11,7,5,4,0.3,0.2
2025-05-25T0200,2265A,127.5291,50.2472,黑河市,大黑河岛,,,43,22,,,60,,,,4,6,3,2,0.2,0.2
2025-05-25T0200,1074A,115.6838,37.7541,衡水市,电机北厂,,43,43,46,25,29,108,,,,12,14,11,5,0.3,0.4
2025-05-25T0200,1075A,115.6303,37.7316,衡水市,市监测站,,42,42,49,11,26,91,,,,13,13,11,12,0.3,0.3
2025-05-25T0200,3188A,115.6683,37.7217,衡水市,市城管局,颗粒物(PM10),52,53,48,26,29,89,,,,15,15,6,5,0.3,0.4
2025-05-25T0200,3459A,115.5989,37.5491,衡水市,地表水厂,,41,41,52,23,27,78,,,,27,20,9,9,0.3,0.4
2025-05-25T0200,2456A,112.5003,26.9167,衡阳市,原169医院,细颗粒物(PM2.5),54,54,50,38,35,97,,,,14,11,5,5,0.7,0.6
2025-05-25T0200,2457A,112.6194,26.9258,衡阳市,衡阳化工总厂,细颗粒物(PM2.5),67,62,57,48,40,104,,,,11,9,6,5,0.6,0.6
2025-05-25T0200,2458A,112.6211,26.8956,衡阳市,珠晖区环保局,颗粒物(PM10),52,54,58,33,31,110,,,,18,13,7,7,0.7,0.7
2025-05-25T0200,2459A,112.6197,26.8733,衡阳市,市委党校,颗粒物(PM10),55,59,53,30,32,125,,,,11,11,4,5,0.5,0.5
2025-05-25T0200,2460A,112.6006,26.8919,衡阳市,市监测站,细颗粒物(PM2.5),58,64,56,41,43,117,,,,12,10,8,8,0.5,0.5
2025-05-25T0200,2461A,112.5664,26.9056,衡阳市,真空机电公司,颗粒物(PM10),54,58,54,37,36,94,,,,19,10,5,5,0.6,0.6
2025-05-25T0200,3399A,112.6703,26.882,衡阳市,师范学院,细颗粒物(PM2.5),52,48,58,36,40,124,,,,12,11,7,8,0.7,0.7
2025-05-25T0200,2608A,103.3772,23.3993,红河哈尼族彝族自治州,污水处理厂,颗粒物(PM10),51,51,37,20,22,80,,,,7,6,7,7,0.2,0.2
2025-05-25T0200,2609A,103.3861,23.35,红河哈尼族彝族自治州,监测站,,42,42,38,18,21,79,,,,5,5,7,7,0.2,0.2
2025-05-25T0200,3038A,103.3758,23.368,红河哈尼族彝族自治州,州图书馆,,42,35,29,29,19,88,,,,6,6,5,4,0.2,0.2
2025-05-25T0200,1090A,111.6507,40.7517,呼和浩特市,呼市一监,,,,,,,,,,,,,,,,
2025-05-25T0200,1091A,111.6572,40.8033,呼和浩特市,小召,,40,36,40,28,28,64,,,,29,29,8,9,0.7,0.8
2025-05-25T0200,1094A,111.7516,40.8369,呼和浩特市,如意水处理厂,,41,41,36,28,24,54,,,,28,24,6,7,0.3,0.3
2025-05-25T0200,1095A,111.7276,40.8062,呼和浩特市,二十九中,细颗粒物(PM2.5),52,51,38,36,28,40,,,,36,22,4,5,0.7,0.6
2025-05-25T0200,1096A,111.5512,40.7866,呼和浩特市,工大金川校区,颗粒物(PM10),67,83,42,34,31,20,,,,57,35,5,7,0.6,0.6
2025-05-25T0200,1097A,111.717,40.7612,呼和浩特市,化肥厂生活区,"颗粒物(PM10),细颗粒物(PM2.5)",54,57,45,38,32,19,,,,57,28,6,7,0.6,0.5
2025-05-25T0200,3698A,111.5968,40.8178,呼和浩特市,红旗小学,,42,34,38,29,28,12,,,,66,34,4,5,0.5,0.5
2025-05-25T0200,3699A,111.6518,40.8389,呼和浩特市,海东办,,43,39,36,30,27,6,,,,75,32,8,9,0.6,0.6
2025-05-25T0200,2192A,119.7594,49.2261,呼伦贝尔市,区环保局,,36,28,57,25,48,83,,,,6,20,5,5,0.2,0.3
2025-05-25T0200,3061A,119.7512,49.1577,呼伦贝尔市,国华电力东,,29,26,58,20,45,60,,,,8,10,3,5,0.2,0.3
2025-05-25T0200,1250A,120.0751,30.8669,湖州市,城西水厂,细颗粒物(PM2.5),94,104,63,70,43,68,,,,45,38,7,7,0.7,0.6
2025-05-25T0200,2873A,120.0830,30.8929,湖州市,仁皇山新区,细颗粒物(PM2.5),79,75,55,58,40,31,,,,83,25,6,6,0.9,0.7
2025-05-25T0200,2907A,120.1844,30.8596,湖州市,吴兴区站,细颗粒物(PM2.5),84,71,54,62,41,64,,,,48,25,9,9,0.7,0.5
2025-05-25T0200,3562A,120.4148,30.8538,湖州市,南浔区站,细颗粒物(PM2.5),64,68,59,46,37,97,,,,22,20,5,5,0.6,0.6
2025-05-25T0200,1607A,120.9049,40.7211,葫芦岛市,龙港区,,46,35,52,32,24,36,,,,53,27,16,15,0.5,0.5
2025-05-25T0200,1608A,120.8392,40.7514,葫芦岛市,化工街,,46,46,43,24,21,44,,,,44,41,21,16,0.7,0.6
2025-05-25T0200,1609A,120.8341,40.7073,葫芦岛市,新区,,42,,42,29,22,47,,,,44,37,12,12,0.5,0.5
2025-05-25T0200,1610A,120.8695,40.7677,葫芦岛市,东城区,,43,,49,30,26,28,,,,69,42,23,25,0.7,0.6
2025-05-25T0200,2482A,109.5981,27.5721,怀化市,林科所,颗粒物(PM10),53,56,58,35,29,55,,,,9,9,4,7,0.5,0.6
2025-05-25T0200,2483A,109.9453,27.5444,怀化市,河西地税局,颗粒物(PM10),51,51,52,34,32,32,,,,15,13,2,3,0.6,0.3
2025-05-25T0200,2484A,109.9781,27.5342,怀化市,市四医院,颗粒物(PM10),61,72,59,43,36,70,,,,7,7,4,8,0.7,0.7
2025-05-25T0200,2485A,109.9972,27.5578,怀化市,监测楼,细颗粒物(PM2.5),62,64,57,44,34,64,,,,6,6,3,7,0.3,0.3
2025-05-25T0200,2486A,110.0394,27.583,怀化市,市委党校,细颗粒物(PM2.5),59,49,48,42,32,33,,,,12,7,8,6,0.8,0.7
2025-05-25T0200,1210A,119.036,33.5981,淮安市,钵池山,细颗粒物(PM2.5),59,63,48,42,35,108,,,,26,19,10,7,1.1,0.7
2025-05-25T0200,1211A,119.007,33.575,淮安市,北京南路,细颗粒物(PM2.5),65,63,54,47,35,90,,,,29,19,9,9,1.1,0.8
2025-05-25T0200,1212A,118.989,33.6067,淮安市,市监测站,细颗粒物(PM2.5),73,63,54,53,40,96,,,,24,21,11,10,0.6,0.5
2025-05-25T0200,1213A,119.135,33.5039,淮安市,楚州区监测站,颗粒物(PM10),72,93,68,48,37,54,,,,56,22,7,8,0.9,0.9
2025-05-25T0200,3426A,118.8755,33.2894,淮安市,新华书店,细颗粒物(PM2.5),64,62,50,46,39,104,,,,20,15,8,10,0.9,0.9
2025-05-25T0200,4206A,119.0288,33.6319,淮安市,承德北路606号,细颗粒物(PM2.5),62,68,57,44,38,120,,,,18,17,7,7,0.5,0.5
2025-05-25T0200,2282A,116.8004,33.975,淮北市,监测站,,46,46,53,29,35,88,,,,18,9,8,6,0.7,0.6
2025-05-25T0200,2283A,116.8091,33.9007,淮北市,烈山区政府,细颗粒物(PM2.5),62,69,53,44,40,69,,,,34,16,15,6,1.0,0.7
2025-05-25T0200,3330A,116.8873,33.9836,淮北市,杜集区检察院,颗粒物(PM10),69,88,69,43,43,55,,,,20,14,8,8,0.8,0.7
2025-05-25T0200,4017A,116.7923,33.9535,淮北市,市博物馆,细颗粒物(PM2.5),65,56,53,47,48,94,,,,23,15,11,7,0.7,0.6
2025-05-25T0200,2277A,116.8305,32.7727,淮南市,潘集区政府,颗粒物(PM10),77,104,86,54,55,50,,,,47,19,4,4,0.5,0.5
2025-05-25T0200,2279A,116.8569,32.5951,淮南市,谢家集区政府,颗粒物(PM10),56,61,68,37,50,94,,,,16,14,7,6,0.3,0.3
2025-05-25T0200,2280A,116.8281,32.633,淮南市,八公山区政府,颗粒物(PM10),62,73,81,37,48,101,,,,12,12,7,5,0.3,0.3
2025-05-25T0200,2281A,116.6325,32.6201,淮南市,焦岗湖风景区管理处,,,,,,,,,,,,,,,,
2025-05-25T0200,2894A,117.0566,32.6531,淮南市,经济技术开发区消防队,,,,85,,62,,,101,,,13,,7,,0.4
2025-05-25T0200,3329A,117.0108,32.5893,淮南市,山南新区,细颗粒物(PM2.5),72,81,85,52,59,89,,,,20,14,9,8,0.4,0.5
2025-05-25T0200,4209A,117.0031,32.6445,淮南市,国庆中路369号,,,127,95,63,55,,,,,33,14,8,5,0.7,0.6
2025-05-25T0200,2446A,114.9028,30.4742,黄冈市,职工中心,,49,39,48,34,41,115,,,,6,6,6,6,0.6,0.7
2025-05-25T0200,2929A,114.8858,30.4519,黄冈市,红卫路,细颗粒物(PM2.5),59,,47,42,43,111,,,,11,4,1,2,0.6,0.7
2025-05-25T0200,3398A,114.9136,30.4445,黄冈市,市林业局,,50,46,52,35,41,111,,,,8,7,6,7,0.9,0.9
2025-05-25T0200,2672A,102.0199,35.5102,黄南藏族自治州,同仁县隆务镇,,32,32,47,15,18,90,,,,1,5,3,4,0.1,0.2
2025-05-25T0200,2295A,118.2903,29.6963,黄山市,延安路89号,,48,48,52,33,40,35,,,,13,8,5,5,0.4,0.4
2025-05-25T0200,2297A,118.1371,30.2756,黄山市,黄山区政府5号楼,细颗粒物(PM2.5),58,55,64,41,43,32,,,,8,8,3,4,0.4,0.4
2025-05-25T0200,4210A,118.3354,29.7203,黄山市,滨江东路7-2号,细颗粒物(PM2.5),57,48,58,40,41,46,,,,9,8,4,5,0.4,0.4
2025-05-25T0200,2423A,115.0601,30.2313,黄石市,沈家营,,42,37,48,29,32,107,,,,5,7,6,7,0.7,0.7
2025-05-25T0200,2426A,114.8988,30.2019,黄石市,铁山,,43,43,51,27,34,116,,,,11,7,4,4,1.2,1.3
2025-05-25T0200,2427A,115.0307,30.2092,黄石市,团城山,,46,39,48,32,30,122,,,,6,6,7,8,0.4,0.5
2025-05-25T0200,3149A,115.0235,30.1578,黄石市,笔架山北路,,41,30,41,27,30,129,,,,13,21,6,9,0.7,0.9
2025-05-25T0200,4185A,115.0780,30.21118,黄石市,磁湖东路29号,,48,39,50,33,37,103,,,,6,5,7,7,0.6,0.6
2025-05-25T0200,1392A,114.4183,23.0528,惠州市,河南岸金山湖子站,,47,47,28,32,14,89,,,,10,12,9,8,0.7,0.5
2025-05-25T0200,1393A,114.4053,23.0822,惠州市,下埔横江三路子站,,49,49,26,32,16,93,,,,14,11,7,6,0.3,0.3
2025-05-25T0200,1394A,114.4103,23.1142,惠州市,江北云山西路子站,细颗粒物(PM2.5),54,52,28,38,17,92,,,,13,12,9,7,0.5,0.5
2025-05-25T0200,1395A,114.4645,22.7833,惠州市,惠阳区承修路船湖子站,,47,47,26,29,15,82,,,,10,13,8,9,0.6,0.6
2025-05-25T0200,1396A,114.5317,22.7422,惠州市,大亚湾管委会子站,,37,37,22,24,14,71,,,,11,13,8,8,0.5,0.5
2025-05-25T0200,3314A,114.4338,22.8134,惠州市,惠阳秋长,,44,44,22,28,11,100,,,,5,8,11,12,0.6,0.6
2025-05-25T0200,3452A,114.6517,22.775,惠州市,大亚湾霞涌,,32,32,20,20,13,71,,,,7,8,6,6,0.5,0.5
2025-05-25T0200,2240A,130.9762,45.3001,鸡西市,环保局,,25,23,22,17,13,59,,,,13,20,5,7,0.4,0.4
2025-05-25T0200,2243A,130.9429,45.3039,鸡西市,第一中学,,19,17,22,13,11,57,,,,8,14,6,7,0.2,0.2
2025-05-25T0200,3707A,131.0207,45.3073,鸡西市,欧美日汽修厂,,29,20,25,20,12,58,,,,7,12,6,5,0.3,0.4
2025-05-25T0200,3709A,130.9967,45.3106,鸡西市,市政设施管理处,,22,20,25,15,12,57,,,,13,18,5,5,0.4,0.5
2025-05-25T0200,2367A,114.9754,27.0803,吉安市,红声器材厂,,47,47,52,32,32,125,,,,10,10,11,13,0.6,0.6
2025-05-25T0200,2368A,114.9658,27.0999,吉安市,市森林工业局,,50,50,50,35,34,111,,,,8,7,13,12,0.5,0.5
2025-05-25T0200,2369A,114.99,27.1312,吉安市,市环境监测站,"颗粒物(PM10),细颗粒物(PM2.5)",52,53,47,36,32,127,,,,4,5,57,20,0.7,0.6
2025-05-25T0200,2370A,115.0093,27.0968,吉安市,青原区法院,细颗粒物(PM2.5),58,52,51,41,37,102,,,,12,9,6,6,0.4,0.4
2025-05-25T0200,1772A,126.54,43.8622,吉林市,哈达湾,颗粒物(PM10),58,66,36,31,19,46,,,,30,20,19,11,0.5,0.4
2025-05-25T0200,1773A,126.5844,43.8358,吉林市,东局子,,38,33,33,26,21,37,,,,26,24,6,7,0.7,0.6
2025-05-25T0200,1774A,126.5052,43.8245,吉林市,电力学院,,39,39,32,23,19,51,,,,16,19,11,9,0.5,0.4
2025-05-25T0200,1775A,126.6133,43.8972,吉林市,江北,,28,28,40,16,17,42,,,,10,18,6,8,0.4,0.4
2025-05-25T0200,1776A,126.555,43.8306,吉林市,江南公园,,45,45,35,24,20,32,,,,33,20,10,7,0.5,0.4
2025-05-25T0200,1778A,126.7061,43.7133,吉林市,丰满,,,,,,,,,,,,,,,,
2025-05-25T0200,2868A,126.4739,43.953,吉林市,九站,,36,33,36,25,20,25,,,,41,25,12,13,0.3,0.4
2025-05-25T0200,1299A,116.9862,36.6114,济南市,科干所,,32,27,42,15,26,100,,,,25,21,4,4,0.1,0.1
2025-05-25T0200,1300A,116.9376,36.665,济南市,农科所,颗粒物(PM10),59,68,48,15,26,70,,,,30,24,6,7,0.2,0.2
2025-05-25T0200,1301A,117.1265,36.6734,济南市,开发区,,35,22,40,15,26,111,,,,8,13,6,7,0.6,0.6
2025-05-25T0200,1303A,117.0624,36.6868,济南市,省种子仓库,,46,46,50,17,26,76,,,,32,22,4,4,0.4,0.4
2025-05-25T0200,1304A,116.9489,36.6447,济南市,机床二厂,颗粒物(PM10),69,88,59,29,30,45,,,,66,33,3,5,0.5,0.5
2025-05-25T0200,1305A,117.0495,36.663,济南市,市监测站,,32,32,46,12,24,70,,,,38,18,8,8,0.5,0.5
2025-05-25T0200,1306A,116.7675,36.5484,济南市,长清党校,,27,27,40,15,30,84,,,,34,15,5,5,0.4,0.5
2025-05-25T0200,1616A,117.6795,36.229,济南市,技术学院,,35,34,48,24,32,27,,,,70,27,10,10,0.6,0.5
2025-05-25T0200,1961A,117.532,36.6868,济南市,东山小学,,31,24,55,10,32,98,,,,16,19,5,5,0.2,0.2
2025-05-25T0200,3059A,117.7161,36.2049,济南市,泰兴公司,,40,34,46,22,27,4,,,,80,26,6,5,0.2,0.2
2025-05-25T0200,3064A,117.6867,36.2171,济南市,莱芜战役纪念馆,,39,39,55,26,37,27,,,,62,22,5,6,0.9,0.8
2025-05-25T0200,3494A,117.1673,36.9782,济南市,济阳区政府,,46,46,50,10,30,73,,,,46,17,8,9,0.3,0.4
2025-05-25T0200,3495A,117.1171,36.63,济南市,锦屏中学,,34,29,34,10,20,107,,,,14,14,8,8,0.4,0.5
2025-05-25T0200,3682A,116.9814,36.6819,济南市,济南四建,颗粒物(PM10),52,53,50,20,40,72,,,,38,22,4,5,0.4,0.5
2025-05-25T0200,1653A,116.6251,35.4302,济宁市,火炬城,,39,34,49,27,36,58,,,,26,10,4,5,0.3,0.6
2025-05-25T0200,1655A,116.5491,35.4042,济宁市,电化厂,,46,46,54,24,30,68,,,,21,10,2,2,0.4,0.5
2025-05-25T0200,3500A,116.5814,35.3707,济宁市,北湖一中,颗粒物(PM10),53,55,52,32,38,66,,,,32,12,4,5,0.2,0.3
2025-05-25T0200,3501A,116.8249,35.5593,济宁市,服务中心,,36,36,52,14,25,72,,,,23,14,1,2,0.2,0.3
2025-05-25T0200,3678A,116.5907,35.4054,济宁市,市第七中学,,46,46,53,31,34,78,,,,18,8,6,6,0.3,0.4
2025-05-25T0200,2255A,130.2751,46.8028,佳木斯市,佳纺,,10,10,17,3,9,30,,,,7,11,3,3,0.3,0.3
2025-05-25T0200,2256A,130.3995,46.8307,佳木斯市,发电厂,,14,14,9,8,8,40,,,,5,8,4,4,0.3,0.4
2025-05-25T0200,2257A,130.3258,46.7975,佳木斯市,环保局,,20,20,16,12,11,35,,,,6,12,3,3,0.2,0.4
2025-05-25T0200,2258A,130.3648,46.8032,佳木斯市,十一中,,14,14,11,7,9,38,,,,4,8,3,3,0.3,0.3
2025-05-25T0200,2259A,130.3794,46.7588,佳木斯市,四丰,,,18,16,3,8,,,,,7,13,1,1,0.4,0.4
2025-05-25T0200,1252A,120.7436,30.778,嘉兴市,清河小学,颗粒物(PM10),54,58,47,36,31,95,,,,19,16,7,7,0.7,0.7
2025-05-25T0200,1253A,120.726,30.7478,嘉兴市,嘉兴学院,,46,45,43,32,31,97,,,,19,18,6,6,0.7,0.6
2025-05-25T0200,2872A,120.7846,30.7525,嘉兴市,南湖区残联,,49,40,50,34,31,92,,,,17,14,7,7,0.5,0.5
2025-05-25T0200,3407A,120.6916,30.7739,嘉兴市,秀洲住建,颗粒物(PM10),57,64,48,30,39,56,,,,22,15,6,6,0.3,0.4
2025-05-25T0200,1945A,98.2908,39.7711,嘉峪关市,气象局,颗粒物(PM10),100,149,101,36,21,113,,,,6,8,3,8,0.1,0.3
2025-05-25T0200,2884A,98.2672,39.7978,嘉峪关市,酒钢宾馆,颗粒物(PM10),93,136,98,31,24,103,,,,7,11,8,18,0.5,0.7
2025-05-25T0200,3248A,98.2643,39.7724,嘉峪关市,雄关区,颗粒物(PM10),85,119,81,31,20,108,,,,10,11,8,11,0.2,0.3
2025-05-25T0200,1383A,113.1064,22.6058,江门市,北街,,36,36,26,18,15,71,,,,24,22,5,4,0.4,0.5
2025-05-25T0200,1384A,113.0731,22.5835,江门市,西区,,30,30,24,16,13,65,,,,20,21,8,7,0.4,0.6
2025-05-25T0200,1385A,113.0219,22.5311,江门市,圭峰西,,30,29,24,21,17,71,,,,15,15,6,5,0.5,0.6
2025-05-25T0200,1386A,113.0828,22.5947,江门市,东湖,,29,29,27,16,18,62,,,,21,20,8,8,0.7,0.8
2025-05-25T0200,3311A,113.1075,22.5647,江门市,江海富民,,37,37,31,8,13,67,,,,20,21,9,9,0.6,0.6
2025-05-25T0200,3449A,113.05,22.4667,江门市,新会银湖,,29,25,28,20,18,62,,,,16,18,3,2,0.4,0.5
2025-05-25T0200,1830A,113.1992,35.2590,焦作市,影视城,,,,69,,29,,,,,,16,,10,,0.6
2025-05-25T0200,3169A,113.2725,35.2067,焦作市,太极体育中心,颗粒物(PM10),63,76,71,35,40,58,,,,27,10,6,6,0.4,0.1
2025-05-25T0200,3335A,113.3137,35.2641,焦作市,马村街道办,颗粒物(PM10),53,55,65,24,39,87,,,,21,20,10,12,0.6,0.7
2025-05-25T0200,3336A,113.2465,35.2373,焦作市,焦作技师学院,,49,49,58,24,35,90,,,,12,11,6,7,0.2,0.5
2025-05-25T0200,3477A,113.1656,35.2539,焦作市,中站许衡医院,颗粒物(PM10),52,54,47,34,37,47,,,,68,23,6,7,0.5,0.6
2025-05-25T0200,3981A,113.2449,35.1803,焦作市,原李万街道办,颗粒物(PM10),60,70,64,31,35,59,,,,26,16,8,10,0.7,0.6
2025-05-25T0200,4264A,113.2340,35.2190,焦作市,新安路1731号,,48,48,61,23,38,84,,,,16,12,6,8,0.4,0.4
2025-05-25T0200,1708A,116.3701,23.5345,揭阳市,新兴,,26,25,23,18,14,58,,,,7,4,6,5,0.5,0.5
2025-05-25T0200,1709A,116.3264,23.5443,揭阳市,西马,,50,,25,35,17,63,,,,8,9,7,7,0.6,0.6
2025-05-25T0200,1710A,116.3611,23.5626,揭阳市,东兴,,32,26,25,22,14,55,,,,10,6,4,4,0.8,0.7
2025-05-25T0200,1711A,116.4151,23.5294,揭阳市,渔湖,,29,,34,20,11,61,,,,13,12,4,3,0.6,0.6
2025-05-25T0200,3320A,116.403,23.5699,揭阳市,曲溪,,22,17,20,15,11,56,,,,8,7,3,4,0.5,0.4
2025-05-25T0200,1944A,102.1692,38.5167,金昌市,天庆家园,,35,19,38,14,12,111,,,,6,12,8,12,0.7,0.7
2025-05-25T0200,4022A,102.1647,38.5371,金昌市,金川区人防中心,,49,49,40,12,14,121,,,,5,10,8,14,0.6,0.4
2025-05-25T0200,4239A,102.1930,38.5319,金昌市,长春路96号,,43,43,37,18,14,121,,,,2,9,4,6,0.7,0.6
2025-05-25T0200,1262A,119.647,29.077,金华市,十五中,颗粒物(PM10),54,58,38,34,18,68,,,,23,14,3,2,0.7,0.6
2025-05-25T0200,1263A,119.686,29.1029,金华市,监测站,细颗粒物(PM2.5),63,59,35,45,29,52,,,,25,13,2,2,0.5,0.5
2025-05-25T0200,3659A,119.656,29.1131,金华市,气象局,细颗粒物(PM2.5),57,59,39,40,15,39,,,,36,15,2,2,0.6,0.5
2025-05-25T0200,1767A,121.1115,41.0879,锦州市,南山,细颗粒物(PM2.5),69,57,48,50,26,56,,,,24,23,14,14,1.1,0.7
2025-05-25T0200,1768A,121.0604,40.8428,锦州市,开发区,细颗粒物(PM2.5),53,,66,37,30,32,,,,51,39,8,20,0.6,0.8
2025-05-25T0200,1769A,121.1836,41.1119,锦州市,百股街道,细颗粒物(PM2.5),62,61,48,44,24,37,,,,34,24,23,14,1.1,0.6
2025-05-25T0200,1770A,121.1178,41.1222,锦州市,天安街道,"颗粒物(PM10),细颗粒物(PM2.5)",54,57,46,38,22,63,,,,24,25,12,13,1.1,0.6
2025-05-25T0200,1771A,121.1303,41.1386,锦州市,北湖公园,细颗粒物(PM2.5),63,55,45,45,27,59,,,,23,24,14,15,1.2,0.6
2025-05-25T0200,2160A,112.85,35.5051,晋城市,自来水公司,颗粒物(PM10),60,70,53,36,24,53,,,,38,16,3,2,0.2,0.3
2025-05-25T0200,2161A,112.8318,35.4936,晋城市,白云商贸,颗粒物(PM10),61,72,50,22,13,67,,,,28,19,6,8,0.5,0.6
2025-05-25T0200,2162A,112.8508,35.4887,晋城市,市环保局,颗粒物(PM10),56,62,48,24,21,47,,,,27,15,5,5,0.6,0.6
2025-05-25T0200,2163A,112.8676,35.4897,晋城市,技术学院,颗粒物(PM10),59,67,89,31,29,50,,,,46,24,7,8,0.6,0.2
2025-05-25T0200,2165A,112.8453,35.546,晋城市,白马寺,细颗粒物(PM2.5),53,41,37,37,27,141,,,,9,9,6,6,0.4,0.6
2025-05-25T0200,3620A,112.8271,35.4828,晋城市,泽州一中,,48,48,34,22,19,84,,,,24,19,9,9,0.5,0.5
2025-05-25T0200,2173A,112.7249,37.7067,晋中市,南都小区,,43,43,65,20,36,16,,,,53,23,6,8,0.3,0.5
2025-05-25T0200,2174A,112.6991,37.6982,晋中市,榆次区政府,,36,36,59,21,32,30,,,,44,28,7,9,0.1,0.3
2025-05-25T0200,2865A,112.7195,37.6828,晋中市,榆次三中,,31,31,54,12,28,25,,,,45,27,5,7,0.3,0.6
2025-05-25T0200,4200A,112.7478,37.6954,晋中市,迎宾街26号,,36,36,51,22,33,18,,,,43,23,4,7,0.5,0.6
2025-05-25T0200,2439A,112.2014,31.0481,荆门市,竹园小学,细颗粒物(PM2.5),90,83,78,67,52,53,,,,35,15,6,7,0.6,0.6
2025-05-25T0200,2440A,112.1969,30.9891,荆门市,掇刀,细颗粒物(PM2.5),103,97,75,77,55,103,,,,14,11,8,9,0.6,0.6
2025-05-25T0200,2441A,112.2213,31.0386,荆门市,石化一小,细颗粒物(PM2.5),88,102,85,65,58,85,,,,24,18,4,8,0.4,0.5
2025-05-25T0200,3012A,112.1849,31.0362,荆门市,西山林语,细颗粒物(PM2.5),89,67,67,66,48,63,,,,17,9,9,10,0.4,0.4
2025-05-25T0200,3547A,112.1632,31.0138,荆门市,龙泉中学南校,细颗粒物(PM2.5),73,58,64,53,45,70,,,,19,10,4,6,0.9,0.8
2025-05-25T0200,1844A,112.2494,30.3197,荆州市,市图书馆,,49,45,54,34,43,121,,,,17,21,5,5,0.8,0.7
2025-05-25T0200,1845A,112.2008,30.3544,荆州市,市委党校,细颗粒物(PM2.5),54,44,55,38,42,114,,,,12,14,9,8,0.9,0.9
2025-05-25T0200,3194A,112.2747,30.3122,荆州市,管委会,细颗粒物(PM2.5),62,,48,44,42,116,,,,13,19,9,10,0.8,0.8
2025-05-25T0200,4268A,112.1722,30.3366,荆州市,学苑路85号,细颗粒物(PM2.5),62,,55,44,46,86,,,,35,27,5,5,0.3,0.8
2025-05-25T0200,2342A,117.3102,29.3867,景德镇市,王港中学,,,,,,,,,,,,,,,,
2025-05-25T0200,2343A,117.2117,29.2933,景德镇市,老干部活动中心,,49,49,56,33,40,73,,,,12,9,8,7,0.6,0.6
2025-05-25T0200,2344A,117.1894,29.2789,景德镇市,兽医站,"颗粒物(PM10),细颗粒物(PM2.5)",53,56,68,37,39,84,,,,7,10,5,4,0.7,0.5
2025-05-25T0200,2345A,117.1547,29.2617,景德镇市,台达陶瓷,细颗粒物(PM2.5),59,50,59,42,42,91,,,,11,16,4,11,0.6,0.5
2025-05-25T0200,2346A,117.2461,29.2956,景德镇市,陶研所,细颗粒物(PM2.5),58,55,57,41,44,48,,,,16,9,3,3,0.3,0.3
2025-05-25T0200,1803A,115.9872,29.6815,九江市,十里,细颗粒物(PM2.5),52,45,46,36,40,89,,,,18,12,5,5,0.6,0.6
2025-05-25T0200,1804A,115.9584,29.7046,九江市,茅山头,细颗粒物(PM2.5),58,56,53,41,40,92,,,,27,16,14,8,0.6,0.6
2025-05-25T0200,1805A,115.9877,29.7295,九江市,西园,细颗粒物(PM2.5),64,46,58,46,43,102,,,,39,34,8,15,0.9,0.9
2025-05-25T0200,1808A,115.9114,29.6038,九江市,综合工业园,颗粒物(PM10),78,105,53,35,39,76,,,,38,26,7,8,0.7,0.7
2025-05-25T0200,1809A,116.0721,29.7535,九江市,石化总厂,细颗粒物(PM2.5),78,,58,57,46,92,,,,26,21,3,5,0.7,0.8
2025-05-25T0200,1810A,115.9773,29.5698,九江市,庐山气象台,细颗粒物(PM2.5),65,,49,47,46,114,,,,12,10,6,7,1.1,0.8
2025-05-25T0200,3190A,116.0254,29.6994,九江市,外国语学校,,49,49,51,34,39,95,,,,20,21,13,11,0.8,0.9
2025-05-25T0200,4253A,116.0102,29.6594,九江市,莲花大道8号,,45,45,53,25,28,84,,,,10,9,5,5,0.7,0.7
2025-05-25T0200,4240A,98.4958,39.7339,酒泉市,玉门东路5号,颗粒物(PM10),95,139,119,41,33,66,,,,20,5,7,16,0.3,0.2
2025-05-25T0200,4241A,98.5099,39.7506,酒泉市,北大街108号,颗粒物(PM10),85,119,114,37,26,89,,,,12,8,113,23,0.2,0.2
2025-05-25T0200,2698A,76.0072,39.4467,喀什地区,巡警大队,颗粒物(PM10),98,146,119,27,22,97,,,,17,17,4,4,0.2,0.3
2025-05-25T0200,2699A,75.9755,39.4694,喀什地区,吾办,颗粒物(PM10),86,121,128,37,34,85,,,,15,17,12,9,0.1,0.2
2025-05-25T0200,4027A,75.9483,39.4689,喀什地区,老干局,颗粒物(PM10),88,126,118,26,17,90,,,,9,12,5,5,0.4,0.3
2025-05-25T0200,1824A,114.3389,34.7781,开封市,肿瘤医院,细颗粒物(PM2.5),64,73,57,46,40,64,,,,32,15,6,7,0.3,0.6
2025-05-25T0200,1826A,114.2885,34.7965,开封市,世纪星幼儿园,细颗粒物(PM2.5),62,62,58,44,39,96,,,,23,22,7,7,0.7,0.7
2025-05-25T0200,3147A,114.3438,34.8106,开封市,龙亭公园,颗粒物(PM10),58,65,59,35,36,70,,,,34,19,3,3,0.7,0.7
2025-05-25T0200,3210A,114.3644,34.7964,开封市,汴京公园,颗粒物(PM10),61,72,65,43,39,78,,,,28,17,5,6,0.9,1.2
2025-05-25T0200,3473A,114.2485,34.8306,开封市,技师学院,细颗粒物(PM2.5),62,45,51,44,37,105,,,,17,10,7,7,0.8,0.9
2025-05-25T0200,3592A,114.4644,34.7556,开封市,祥符区生态环境局,细颗粒物(PM2.5),62,60,54,44,40,37,,,,65,33,12,9,1.0,0.9
2025-05-25T0200,1951A,84.895,45.6094,克拉玛依市,长征新村,,33,,12,10,5,103,,,,3,6,5,6,0.1,0.1
2025-05-25T0200,1952A,84.8988,45.5893,克拉玛依市,南林小区,,30,,23,16,9,96,,,,2,5,11,8,0.3,0.3
2025-05-25T0200,1954A,84.905,44.3396,克拉玛依市,独山子区,,29,29,42,14,16,59,,,,8,10,6,7,0.5,0.3
2025-05-25T0200,1955A,85.6979,46.098,克拉玛依市,乌尔禾区商贸楼,,26,26,42,7,7,76,,,,5,3,2,2,0.2,0.2
2025-05-25T0200,3612A,85.1045,45.6899,克拉玛依市,白碱滩区新站,,29,29,48,12,20,88,,,,4,2,12,12,0.2,0.2
2025-05-25T0200,2697A,76.1454,39.7142,克孜勒苏柯尔克孜自治州,市人民政府,颗粒物(PM10),87,124,61,43,33,74,,,,19,10,2,4,0.4,0.4
2025-05-25T0200,3665A,76.1658,39.7157,克孜勒苏柯尔克孜自治州,克州文化中心,颗粒物(PM10),67,84,59,27,23,92,,,,10,6,3,7,0.4,0.3
2025-05-25T0200,1450A,102.8204,24.8886,昆明市,呈贡新区,,32,32,30,18,18,80,,,,11,12,3,4,0.4,0.4
2025-05-25T0200,1451A,102.6251,24.9608,昆明市,西山森林公园,,,,,,,,,,,,,,,,
2025-05-25T0200,1452A,102.7252,25.0902,昆明市,龙泉镇,,20,8,21,6,12,62,,,,6,9,3,1,0.3,0.4
2025-05-25T0200,1453A,102.7266,25.0375,昆明市,东风东路,,23,23,32,14,16,54,,,,17,17,6,6,0.3,0.3
2025-05-25T0200,1454A,102.6742,25.0669,昆明市,金鼎山,,20,14,20,9,14,64,,,,9,10,1,1,0.3,0.3
2025-05-25T0200,1455A,102.6644,25.0401,昆明市,碧鸡广场,,21,21,26,11,14,62,,,,10,13,5,6,0.4,0.3
2025-05-25T0200,3179A,102.7494,25.0119,昆明市,官渡区博物馆,,16,16,24,9,13,48,,,,23,18,6,6,0.5,0.5
2025-05-25T0200,3375A,102.8017,24.8336,昆明市,青年创业园,,41,41,36,27,22,88,,,,11,11,12,8,0.6,0.5
2025-05-25T0200,3550A,102.7997,24.9786,昆明市,昆明学院,,30,30,33,18,19,62,,,,23,21,4,4,0.1,0.1
2025-05-25T0200,3551A,102.5967,24.6736,昆明市,晋宁区生态环境分局,,35,31,26,24,16,93,,,,8,10,7,5,0.5,0.4
2025-05-25T0200,3552A,102.6678,24.9856,昆明市,云天化总部,,28,25,25,19,15,61,,,,15,15,2,2,0.2,0.2
2025-05-25T0200,1456A,91.1319,29.6514,拉萨市,八廓街,,29,26,25,14,12,90,,,,15,12,6,6,0.2,0.3
2025-05-25T0200,1457A,91.1221,29.6747,拉萨市,市环保局,,37,37,35,14,14,72,,,,17,17,5,4,0.3,0.3
2025-05-25T0200,1458A,91.0874,29.6475,拉萨市,区监测站,,30,30,27,13,12,80,,,,29,22,5,6,0.2,0.3
2025-05-25T0200,1459A,91.1774,29.6541,拉萨市,西藏大学,,32,27,24,9,11,102,,,,10,12,5,4,0.3,0.2
2025-05-25T0200,1460A,90.9798,29.6588,拉萨市,区辐射站,,34,34,32,13,13,85,,,,27,22,6,7,0.3,0.3
2025-05-25T0200,1461A,91.0834,29.6292,拉萨市,拉萨火车站,,27,25,23,10,11,86,,,,20,13,3,3,0.2,0.2
2025-05-25T0200,2520A,109.2203,23.7256,来宾市,来宾技工学校,,35,35,27,23,14,68,,,,8,8,4,4,0.8,0.7
2025-05-25T0200,3535A,109.1781,23.7297,来宾市,兴宾区政府,,33,33,26,21,17,57,,,,9,7,4,4,0.6,0.6
2025-05-25T0200,4002A,109.2416,23.7461,来宾市,中南小学,,32,32,29,21,13,67,,,,9,8,2,3,0.6,0.5
2025-05-25T0200,1477A,104.1373,35.9454,兰州市,榆中兰大校区,,,,,,,,,,,,,,,,
2025-05-25T0200,1479A,103.831,36.0464,兰州市,铁路设计院,,32,31,43,22,24,66,,,,24,28,8,12,0.4,0.5
2025-05-25T0200,3241A,103.7439,36.0842,兰州市,百合公园,,43,36,39,30,19,24,,,,41,42,4,6,0.4,0.4
2025-05-25T0200,3242A,103.9611,35.998,兰州市,和平,,19,15,40,3,15,59,,,,15,14,6,9,0.2,0.4
2025-05-25T0200,4236A,103.6293,36.0938,兰州市,庄浪东路808号,,32,32,46,22,24,46,,,,30,25,7,16,0.2,0.3
2025-05-25T0200,4237A,103.7251,36.1043,兰州市,安宁西路88号,,46,35,47,32,30,65,,,,14,17,5,8,0.2,0.3
2025-05-25T0200,4238A,103.8470,36.0676,兰州市,北滨河东路1号,,33,33,44,18,19,15,,,,56,29,7,11,0.6,0.6
2025-05-25T0200,3245A,103.6633,36.533,兰州新区,新区管委会,,30,26,33,21,25,84,,,,8,9,19,7,0.3,0.3
2025-05-25T0200,3246A,103.6975,36.4789,兰州新区,舟曲中学,,30,30,30,13,15,95,,,,16,14,37,13,0.3,0.3
2025-05-25T0200,1067A,116.6708,39.5111,廊坊市,药材公司,,,,46,,25,,,85,,,20,,1,,0.3
2025-05-25T0200,1068A,116.7214,39.5589,廊坊市,开发区,颗粒物(PM10),53,55,43,21,24,81,,,,23,22,3,2,0.3,0.3
2025-05-25T0200,1070A,116.7244,39.5269,廊坊市,北华航天学院,颗粒物(PM10),57,63,50,22,26,87,,,,21,20,5,4,0.3,0.3
2025-05-25T0200,2919A,116.7022,39.5453,廊坊市,河北工业大学,颗粒物(PM10),56,62,49,22,25,80,,,,21,20,4,3,0.3,0.3
2025-05-25T0200,2535A,103.7723,29.5462,乐山市,花湖湾,,48,48,50,26,27,100,,,,7,13,4,4,0.3,0.4
2025-05-25T0200,2536A,103.7627,29.5844,乐山市,牛耳桥,颗粒物(PM10),52,53,55,25,24,65,,,,19,14,7,9,0.6,0.7
2025-05-25T0200,2537A,103.7508,29.6006,乐山市,市第三水厂,颗粒物(PM10),56,62,53,38,26,53,,,,28,17,5,6,0.8,0.8
2025-05-25T0200,2538A,103.7571,29.5664,乐山市,市监测站,,43,43,51,22,26,67,,,,12,13,8,9,0.9,0.9
2025-05-25T0200,3361A,103.7311,29.5628,乐山市,理工大学,,41,41,49,24,26,71,,,,19,19,9,10,0.6,0.6
2025-05-25T0200,2598A,100.2143,26.8576,丽江市,西南郊,,25,9,7,7,5,80,,,,5,10,4,5,1.1,1.1
2025-05-25T0200,2599A,100.2497,26.8802,丽江市,丽江古城,,26,12,14,8,11,83,,,,10,15,9,9,0.5,0.5
2025-05-25T0200,2600A,100.2203,26.8906,丽江市,市中心,,24,,5,10,7,76,,,,13,16,9,9,0.3,0.3
2025-05-25T0200,1267A,119.914,28.4514,丽水市,监测站大楼,,47,47,37,32,16,36,,,,25,13,2,3,0.5,0.5
2025-05-25T0200,1268A,119.93,28.4586,丽水市,莲都小学,颗粒物(PM10),53,56,41,33,23,62,,,,19,13,3,3,0.4,0.5
2025-05-25T0200,1269A,119.879,28.4231,丽水市,余庄前,,50,50,38,34,24,8,,,,10,10,3,3,0.4,0.5
2025-05-25T0200,1173A,119.176,34.5885,连云港市,市环境监测站,细颗粒物(PM2.5),73,68,54,53,35,80,,,,32,21,6,8,0.5,0.6
2025-05-25T0200,3000A,119.3581,34.6972,连云港市,德源药业,颗粒物(PM10),52,53,58,34,33,66,,,,36,21,8,10,1.1,1
2025-05-25T0200,3007A,119.178,34.844,连云港市,新城一中,细颗粒物(PM2.5),65,59,57,47,39,111,,,,21,32,9,10,0.8,0.8
2025-05-25T0200,3008A,119.3608,34.7519,连云港市,胡沟管理处,,36,24,43,9,26,114,,,,18,20,10,12,0.7,0.9
2025-05-25T0200,3009A,119.1478,34.5911,连云港市,矿山设计院,颗粒物(PM10),59,68,55,41,31,56,,,,24,11,5,7,0.7,0.6
2025-05-25T0200,3434A,119.2413,34.6539,连云港市,工贸学校,,33,30,41,12,34,103,,,,12,15,8,11,0.5,0.7
2025-05-25T0200,3664A,119.4172,34.7341,连云港市,连云街道,,31,8,55,3,29,99,,,,9,29,6,11,0.3,0.6
2025-05-25T0200,2571A,102.3431,27.8099,凉山彝族自治州,青龙寺,,17,17,17,3,5,30,,,,4,3,5,5,0.5,0.5
2025-05-25T0200,2572A,102.2721,27.8415,凉山彝族自治州,邛海宾馆,,29,29,20,19,12,28,,,,22,11,8,7,0.9,0.6
2025-05-25T0200,2573A,102.2625,27.898,凉山彝族自治州,西昌市政府,,23,17,18,16,10,47,,,,13,10,9,8,0.7,0.6
2025-05-25T0200,2574A,102.2685,27.8851,凉山彝族自治州,凉山州政府,,29,26,18,20,11,52,,,,18,11,8,7,1.0,0.8
2025-05-25T0200,4229A,102.2342,27.8859,凉山彝族自治州,凯乐南路30号,,38,38,23,14,9,56,,,,22,15,11,9,1.1,0.7
2025-05-25T0200,2212A,123.2,41.1953,辽阳市,宏伟区,颗粒物(PM10),65,80,51,34,24,34,,,,45,23,13,12,0.9,0.8
2025-05-25T0200,2213A,123.1683,41.2495,辽阳市,新华园,颗粒物(PM10),73,95,55,52,40,14,,,,69,25,11,13,0.9,0.8
2025-05-25T0200,2214A,123.2354,41.2639,辽阳市,滨河路,细颗粒物(PM2.5),72,63,48,52,39,8,,,,56,22,11,11,0.5,0.6
2025-05-25T0200,2215A,123.149,41.2991,辽阳市,铁西工业园,细颗粒物(PM2.5),79,78,66,58,39,18,,,,35,26,5,9,0.5,0.8
2025-05-25T0200,2227A,125.1358,42.8845,辽源市,环保局,颗粒物(PM10),51,52,43,19,16,8,,,,38,30,3,4,0.5,0.6
2025-05-25T0200,3239A,125.0764,42.9078,辽源市,银鹰制药,,49,47,34,34,21,4,,,,43,28,3,4,0.5,0.4
2025-05-25T0200,1625A,115.9848,36.4372,聊城市,区政府,,34,34,41,23,26,66,,,,47,16,5,5,0.6,0.7
2025-05-25T0200,2878A,116.0072,36.4343,聊城市,聊大东校,,36,36,44,23,34,88,,,,26,13,7,6,0.2,0.3
2025-05-25T0200,3200A,115.9819,36.4978,聊城市,监控中心,,40,40,43,24,29,82,,,,32,20,6,7,0.6,0.6
2025-05-25T0200,3513A,116.0445,36.4361,聊城市,九州社区,,34,34,44,19,26,92,,,,20,9,4,5,0.3,0.4
2025-05-25T0200,4018A,116.0567,36.4608,聊城市,星美广场,,33,32,47,9,23,105,,,,14,9,8,8,0.5,0.6
2025-05-25T0200,2632A,94.3681,29.6376,林芝市,林芝监测站,,20,13,11,8,7,64,,,,6,6,3,3,0.3,0.1
2025-05-25T0200,2633A,94.3616,29.6616,林芝市,林芝人民医院,,18,17,15,8,7,55,,,,3,4,6,6,0.2,0.2
2025-05-25T0200,2603A,100.0781,23.8982,临沧市,市环保局,,30,,33,21,35,52,,,,7,9,2,3,0.5,0.6
2025-05-25T0200,2604A,100.0894,23.8822,临沧市,市气象局,,18,14,34,8,23,55,,,,8,10,8,8,0.6,0.7
2025-05-25T0200,1733A,111.5531,36.0783,临汾市,临钢医院,,32,32,39,16,16,43,,,,30,23,2,4,0.6,0.7
2025-05-25T0200,1734A,111.5028,36.0714,临汾市,技工学校,,50,50,32,20,22,64,,,,28,18,3,5,0.5,0.6
2025-05-25T0200,1736A,111.5018,36.0855,临汾市,市委,颗粒物(PM10),52,53,44,16,14,60,,,,28,20,4,5,0.5,0.6
2025-05-25T0200,3018A,111.505,36.1014,临汾市,唐尧大酒店,颗粒物(PM10),52,53,45,19,17,56,,,,28,19,4,5,0.6,0.6
2025-05-25T0200,4244A,111.4879,36.0530,临汾市,启星学校,颗粒物(PM10),58,65,35,22,21,27,,,,45,24,2,2,0.6,0.7
2025-05-25T0200,4271A,103.2464,35.6123,临夏回族自治州,滨河东路1号,,38,38,54,19,20,28,,,,25,16,4,5,0.4,0.3
2025-05-25T0200,4310A,103.2093,35.5995,临夏回族自治州,新华街21号,,28,28,52,15,21,64,,,,20,14,3,6,0.2,0.3
2025-05-25T0200,1618A,118.3429,35.0532,临沂市,沂河小区,颗粒物(PM10),53,56,55,34,32,60,,,,31,17,8,6,0.5,0.4
2025-05-25T0200,1619A,118.295,35.0583,临沂市,鲁南制药厂,颗粒物(PM10),70,90,50,30,30,17,,,,91,26,8,7,0.5,0.4
2025-05-25T0200,1620A,118.2794,34.9976,临沂市,新光毛纺厂,颗粒物(PM10),52,53,53,35,36,54,,,,53,28,9,8,0.5,0.4
2025-05-25T0200,1621A,118.3956,35.0888,临沂市,河东保险公司,,49,48,47,34,30,49,,,,47,17,7,6,0.5,0.4
2025-05-25T0200,3370A,118.3564,35.0215,临沂市,十里堡居委,颗粒物(PM10),62,73,49,39,29,52,,,,66,23,10,8,0.6,0.4
2025-05-25T0200,3496A,118.3604,35.1084,临沂市,南坊新区,颗粒物(PM10),57,63,52,24,27,41,,,,53,21,7,8,0.5,0.4
2025-05-25T0200,3860A,118.3920,35.0300,临沂市,皇山花园小区,细颗粒物(PM2.5),63,70,53,45,31,57,,,,47,27,16,9,0.8,0.5
2025-05-25T0200,1870A,109.4856,24.3895,柳州市,柳东小学,,42,41,34,29,20,71,,,,13,10,12,10,0.5,0.4
2025-05-25T0200,1871A,109.4157,24.3277,柳州市,环保监测站,颗粒物(PM10),55,59,38,33,19,36,,,,30,13,3,3,0.7,0.5
2025-05-25T0200,1872A,109.389,24.341,柳州市,河西水厂,细颗粒物(PM2.5),57,59,40,40,21,36,,,,27,14,11,5,0.8,0.6
2025-05-25T0200,1873A,109.4311,24.2921,柳州市,市四中,颗粒物(PM10),54,58,33,24,12,29,,,,28,14,7,8,0.6,0.4
2025-05-25T0200,1874A,109.4006,24.3631,柳州市,市九中,细颗粒物(PM2.5),59,61,42,42,17,34,,,,32,11,10,9,0.7,0.5
2025-05-25T0200,1875A,109.4958,24.3134,柳州市,古亭山,细颗粒物(PM2.5),53,40,36,37,37,13,,,,31,10,5,6,0.5,0.5
2025-05-25T0200,3402A,109.5422,24.3996,柳州市,市二中,,46,44,35,32,23,36,,,,19,18,10,10,0.7,0.6
2025-05-25T0200,2307A,116.5079,31.737,六安市,监测大楼,细颗粒物(PM2.5),79,,56,58,48,78,,,,11,8,2,3,0.5,0.4
2025-05-25T0200,2308A,116.4738,31.7643,六安市,皖西学院,细颗粒物(PM2.5),73,58,62,53,48,71,,,,12,6,5,5,0.4,0.4
2025-05-25T0200,2309A,116.4996,31.7905,六安市,朝阳厂,细颗粒物(PM2.5),58,45,53,41,46,70,,,,19,17,4,4,0.4,0.3
2025-05-25T0200,2310A,116.5567,31.7886,六安市,开发区,颗粒物(PM10),56,62,68,31,43,77,,,,13,11,4,4,0.5,0.5
2025-05-25T0200,2576A,104.8,26.5892,六盘水市,窑上,,25,25,50,13,27,36,,,,4,7,3,3,0.3,0.3
2025-05-25T0200,2577A,104.83,26.5917,六盘水市,黄土坡,,33,30,44,23,25,50,,,,14,11,7,9,0.2,0.2
2025-05-25T0200,2578A,104.89,26.5939,六盘水市,水钢,,24,21,47,15,23,76,,,,9,13,8,8,0.3,0.4
2025-05-25T0200,2579A,104.8475,26.5894,六盘水市,民中,,25,23,40,17,22,51,,,,31,13,7,8,0.4,0.3
2025-05-25T0200,2580A,104.9544,26.5506,六盘水市,双水,,24,22,40,9,16,74,,,,6,13,8,9,0.2,0.3
2025-05-25T0200,2335A,117.0189,25.1181,龙岩市,龙岩师专,,,,,,,,,,,,,,,,
2025-05-25T0200,2336A,117.0217,25.1033,龙岩市,龙岩市监测站,,22,20,15,12,4,68,,,,8,9,4,6,0.5,0.6
2025-05-25T0200,2337A,117.0258,25.0661,龙岩市,闽西职业技术学院,,33,26,15,23,7,65,,,,8,7,9,5,0.6,0.6
2025-05-25T0200,2338A,117.0196,25.0306,龙岩市,龙岩学院,,35,,16,24,9,64,,,,6,7,7,6,0.5,0.6
2025-05-25T0200,2665A,105.0822,33.3261,陇南市,汉王镇固水子,,,,,,,,,,,,,,,,
2025-05-25T0200,2885A,104.9339,33.3826,陇南市,滨江中学,,28,28,51,14,25,68,,,,5,6,7,7,0.4,0.4
2025-05-25T0200,3247A,104.955,33.371,陇南市,市总工会,,31,31,48,10,20,69,,,,5,6,7,7,0.5,0.5
2025-05-25T0200,2487A,111.9589,27.8901,娄底市,电视发射台,颗粒物(PM10),54,58,65,31,38,71,,,,2,3,6,9,0.3,0.4
2025-05-25T0200,2488A,111.9975,27.725,娄底市,市监测站,细颗粒物(PM2.5),67,62,60,48,43,85,,,,42,21,24,11,0.8,0.7
2025-05-25T0200,2489A,112.0194,27.7314,娄底市,市委党校,细颗粒物(PM2.5),77,66,64,56,48,109,,,,9,6,3,4,0.7,0.6
2025-05-25T0200,2490A,111.9561,27.7569,娄底市,涟钢,细颗粒物(PM2.5),64,62,64,46,44,80,,,,8,14,7,8,0.6,0.9
2025-05-25T0200,2491A,111.9892,27.7044,娄底市,市政府,细颗粒物(PM2.5),74,73,61,54,47,50,,,,15,11,3,4,0.7,0.6
2025-05-25T0200,1893A,105.4324,28.9634,泸州市,九狮山,细颗粒物(PM2.5),55,57,71,39,39,51,,,,23,21,6,6,0.7,0.5
2025-05-25T0200,1894A,105.4427,28.9063,泸州市,小市上码头,颗粒物(PM10),53,56,64,22,28,66,,,,2,5,10,9,0.4,0.4
2025-05-25T0200,1895A,105.4241,28.8573,泸州市,兰田宪桥,颗粒物(PM10),55,60,68,22,32,45,,,,12,12,8,9,0.3,0.3
2025-05-25T0200,1896A,105.4379,28.8833,泸州市,市环监站,颗粒物(PM10),53,55,50,26,32,70,,,,8,9,5,7,0.4,0.3
2025-05-25T0200,4272A,105.3689,28.7783,泸州市,纳溪中医医院,颗粒物(PM10),56,61,81,35,44,30,,,,24,22,7,8,0.7,0.7
2025-05-25T0200,2183A,111.1406,37.5211,吕梁市,环保局,,45,45,50,30,30,52,,,,31,23,4,4,0.3,0.3
2025-05-25T0200,2185A,111.1297,37.5136,吕梁市,自来水公司,,40,39,33,28,27,35,,,,33,19,5,5,0.4,0.5
2025-05-25T0200,2867A,111.1283,37.51,吕梁市,马茂庄小学,颗粒物(PM10),51,52,52,27,28,60,,,,24,20,1,1,0.5,0.5
2025-05-25T0200,1812A,112.3931,34.6516,洛阳市,市委党校,颗粒物(PM10),51,51,54,34,40,105,,,,17,17,13,7,0.5,0.6
2025-05-25T0200,1815A,112.494,34.6886,洛阳市,河南林校,,48,48,57,30,46,100,,,,20,25,11,9,0.7,0.8
2025-05-25T0200,1816A,112.3844,34.623,洛阳市,开发区管委会,细颗粒物(PM2.5),59,60,53,42,42,100,,,,16,13,13,6,0.5,0.6
2025-05-25T0200,1817A,112.4267,34.6258,洛阳市,市委新办公区,颗粒物(PM10),56,61,57,34,40,111,,,,18,16,12,7,0.6,0.7
2025-05-25T0200,3340A,112.6005,34.6326,洛阳市,伊滨,颗粒物(PM10),70,90,66,50,46,45,,,,48,23,4,4,0.7,0.6
2025-05-25T0200,3341A,112.4951,34.6332,洛阳市,中移产业园,颗粒物(PM10),51,52,60,29,40,109,,,,17,18,9,7,0.2,0.4
2025-05-25T0200,3593A,112.5736,34.8993,洛阳市,吉利监测站,颗粒物(PM10),55,59,58,30,31,61,,,,29,16,10,9,0.6,0.5
2025-05-25T0200,3635A,112.3677,34.662,洛阳市,河科大西苑校区,颗粒物(PM10),54,58,52,31,38,100,,,,19,16,21,9,0.6,0.6
2025-05-25T0200,3636A,112.4388,34.6781,洛阳市,英才小学,颗粒物(PM10),51,51,60,30,37,109,,,,17,24,13,10,0.4,0.5
2025-05-25T0200,4214A,112.4600,34.6949,洛阳市,春都路1号院,颗粒物(PM10),54,58,64,31,40,116,,,,23,26,12,9,0.5,0.6
2025-05-25T0200,2399A,114.051,33.5699,漯河市,三五一五工厂,细颗粒物(PM2.5),67,72,57,48,51,94,,,,28,18,6,5,0.7,0.6
2025-05-25T0200,2400A,114.0055,33.5698,漯河市,漯河大学,细颗粒物(PM2.5),70,65,61,51,44,95,,,,25,15,6,4,0.6,0.5
2025-05-25T0200,2401A,114.0138,33.5828,漯河市,市水利局,细颗粒物(PM2.5),64,66,60,46,43,93,,,,19,16,5,5,0.7,0.7
2025-05-25T0200,2402A,114.0261,33.5698,漯河市,市广电局,细颗粒物(PM2.5),70,63,56,51,44,95,,,,22,16,5,4,0.6,0.5
2025-05-25T0200,3478A,113.9749,33.5664,漯河市,市图书馆,细颗粒物(PM2.5),69,66,59,50,43,102,,,,25,19,11,5,0.7,0.6
2025-05-25T0200,4250A,114.0892,33.5882,漯河市,韶山路11号,细颗粒物(PM2.5),65,77,64,47,46,91,,,,26,21,6,6,0.5,0.5
2025-05-25T0200,1798A,118.5092,31.6837,马鞍山市,湖东路四小,细颗粒物(PM2.5),70,79,64,51,41,17,,,,54,23,6,8,0.8,0.8
2025-05-25T0200,1799A,118.5024,31.6449,马鞍山市,开发区,颗粒物(PM10),65,80,65,44,43,0,,,,70,29,5,7,0.8,0.8
2025-05-25T0200,1802A,118.6245,31.7241,马鞍山市,濮塘,细颗粒物(PM2.5),69,56,55,50,45,114,,,,11,8,7,8,0.7,0.7
2025-05-25T0200,3633A,118.4918,31.6809,马鞍山市,雨山,细颗粒物(PM2.5),83,86,64,61,42,52,,,,40,24,8,12,0.6,0.7
2025-05-25T0200,4191A,118.5274,31.72227,马鞍山市,慈湖高新区,细颗粒物(PM2.5),105,86,73,79,58,69,,,,24,27,9,10,0.8,0.8
2025-05-25T0200,1686A,111.0286,21.4688,茂名市,电白南海,,21,19,19,12,11,66,,,,7,9,5,3,0.7,0.6
2025-05-25T0200,1687A,110.9294,21.6533,茂名市,茂石化七小,,17,17,16,7,8,49,,,,8,9,11,6,0.7,0.5
2025-05-25T0200,1688A,110.9107,21.6687,茂名市,健康路,,20,17,14,14,10,46,,,,12,12,16,11,0.7,0.5
2025-05-25T0200,1689A,110.8592,21.6828,茂名市,高岭,,,31,26,7,5,39,,,,,13,25,12,0.4,0.4
2025-05-25T0200,3450A,111.01,21.5165,茂名市,电白水东,,22,17,13,9,6,69,,,,13,13,2,5,0.4,0.4
2025-05-25T0200,2539A,104.0308,30.0478,眉山市,黑龙滩水库,,42,42,33,13,12,96,,,,5,4,1,2,0.3,0.2
2025-05-25T0200,2540A,103.8416,30.0874,眉山市,气象局,颗粒物(PM10),51,51,58,22,22,36,,,,41,16,3,2,0.3,0.3
2025-05-25T0200,3137A,103.8578,30.0744,眉山市,市委党校,颗粒物(PM10),51,51,48,22,19,67,,,,24,14,8,8,0.5,0.3
2025-05-25T0200,3148A,103.8291,30.0564,眉山市,区人社局,,44,44,47,19,19,90,,,,17,16,13,11,0.4,0.5
2025-05-25T0200,1690A,116.1231,24.3284,梅州市,梅江月梅,,44,44,21,24,6,68,,,,14,8,6,5,0.8,0.7
2025-05-25T0200,1691A,116.0797,24.2719,梅州市,梅县新城,,38,38,22,18,8,80,,,,8,8,6,6,0.6,0.6
2025-05-25T0200,1692A,116.1248,24.2654,梅州市,环境监控中心,,40,40,24,22,8,68,,,,22,11,7,7,0.7,0.7
2025-05-25T0200,3315A,116.1233,24.2991,梅州市,梅龙,,46,44,22,32,17,82,,,,10,5,6,6,0.7,0.6
2025-05-25T0200,1878A,104.7778,31.4741,绵阳市,富乐山,颗粒物(PM10),63,75,71,37,37,101,,,,10,14,8,9,0.4,0.4
2025-05-25T0200,1880A,104.6697,31.4668,绵阳市,高新区自来水公司,细颗粒物(PM2.5),79,104,71,58,36,83,,,,14,15,7,6,0.7,0.6
2025-05-25T0200,1881A,104.7287,31.5075,绵阳市,三水厂,颗粒物(PM10),61,71,68,30,36,93,,,,14,17,10,10,0.5,0.5
2025-05-25T0200,3491A,104.69,31.5322,绵阳市,西科大附属小学,细颗粒物(PM2.5),84,112,80,62,37,96,,,,15,17,11,10,0.6,0.5
2025-05-25T0200,3492A,104.5648,31.5343,绵阳市,安州区旅游局,颗粒物(PM10),57,63,66,34,25,85,,,,17,14,6,5,0.6,0.5
2025-05-25T0200,4226A,104.7651,31.4531,绵阳市,绵阳市气象局,颗粒物(PM10),55,60,69,31,35,96,,,,8,14,8,7,0.2,0.4
2025-05-25T0200,1784A,129.61,44.561,牡丹江市,环保大楼,,21,16,18,13,13,67,,,,7,11,7,6,0.1,0.3
2025-05-25T0200,1785A,129.6115,44.5782,牡丹江市,文化广场,,29,24,35,20,20,62,,,,10,16,9,10,0.4,0.4
2025-05-25T0200,1786A,129.5904,44.5963,牡丹江市,第一医院,,18,17,23,12,15,54,,,,6,12,3,5,0.5,0.5
2025-05-25T0200,1787A,129.6364,44.6075,牡丹江市,机车工厂,,17,17,33,6,12,49,,,,9,13,8,9,0.3,0.3
2025-05-25T0200,1788A,129.6386,44.5462,牡丹江市,第一中学,,21,19,23,14,10,67,,,,8,12,5,6,0.5,0.5
2025-05-25T0200,2531A,105.0703,29.61,内江市,市监测站,颗粒物(PM10),58,65,57,34,36,72,,,,12,14,2,3,0.9,1
2025-05-25T0200,2532A,105.0717,29.5947,内江市,东兴区政府,颗粒物(PM10),55,59,58,24,29,82,,,,11,15,8,10,0.5,0.7
2025-05-25T0200,2533A,105.0653,29.5817,内江市,内江二中,细颗粒物(PM2.5),52,44,61,36,36,78,,,,29,26,7,8,0.4,0.5
2025-05-25T0200,2534A,105.0406,29.5822,内江市,内江日报社,,46,45,53,32,37,73,,,,16,14,6,4,0.5,0.6
2025-05-25T0200,2628A,92.0657,31.4846,那曲市,那曲监测站,,33,33,40,13,16,70,,,,12,17,7,7,0.7,0.6
2025-05-25T0200,4243A,92.0515,31.4787,那曲市,那曲市委宣传部,,42,42,34,18,15,65,,,,16,12,6,6,0.5,0.3
2025-05-25T0200,1290A,115.8931,28.6843,南昌市,省外办,,42,37,52,29,41,126,,,,14,16,9,10,0.5,0.5
2025-05-25T0200,1291A,115.8886,28.7003,南昌市,省林业公司,,42,34,52,29,38,127,,,,11,13,8,9,0.5,0.5
2025-05-25T0200,1292A,115.8126,28.7442,南昌市,林科所,,40,29,41,22,31,126,,,,7,10,5,5,0.4,0.4
2025-05-25T0200,1294A,115.8518,28.687,南昌市,建工学校,细颗粒物(PM2.5),62,54,56,44,46,128,,,,18,15,5,5,0.5,0.5
2025-05-25T0200,1295A,115.8921,28.6424,南昌市,象湖,,48,48,56,27,35,125,,,,13,15,7,8,0.7,0.7
2025-05-25T0200,1296A,115.7423,28.7996,南昌市,武术学校,,38,38,34,14,22,45,,,,5,6,6,7,0.7,0.6
2025-05-25T0200,3046A,115.9084,28.6062,南昌市,机电学校,,45,45,65,29,41,127,,,,20,22,4,5,0.5,0.5
2025-05-25T0200,3690A,115.9721,28.7031,南昌市,外国语学校,,50,42,55,35,44,111,,,,25,16,8,7,0.3,0.3
2025-05-25T0200,4192A,115.9316,28.68677,南昌市,南京东路235号,颗粒物(PM10),54,58,64,28,38,103,,,,21,13,22,8,0.7,0.6
2025-05-25T0200,1905A,106.056,30.8064,南充市,西山风景区,,,,,,,,,,,,,,,,
2025-05-25T0200,1906A,106.0789,30.8023,南充市,南充市委,颗粒物(PM10),64,77,78,40,40,105,,,,13,12,7,7,0.3,0.3
2025-05-25T0200,1907A,106.1031,30.8217,南充市,南充炼油厂,细颗粒物(PM2.5),75,73,75,55,43,99,,,,14,11,7,6,0.4,0.4
2025-05-25T0200,4227A,106.1083,30.7884,南充市,梨树横街98号,颗粒物(PM10),66,82,81,36,39,92,,,,12,10,4,5,0.3,0.3
2025-05-25T0200,4304A,106.1172,30.843,南充市,清泉寺北路188号,颗粒物(PM10),58,65,72,40,43,89,,,,14,12,5,6,0.3,0.3
2025-05-25T0200,4305A,106.067,30.7616,南充市,同庆路1号,颗粒物(PM10),59,68,76,39,40,86,,,,12,11,5,5,0.2,0.2
2025-05-25T0200,1151A,118.8086,32.1065,南京市,迈皋桥,细颗粒物(PM2.5),52,39,44,36,36,58,,,,31,23,4,6,0.5,0.7
2025-05-25T0200,1152A,118.7538,32.0551,南京市,草场门,细颗粒物(PM2.5),55,51,53,39,35,36,,,,69,27,1,2,0.5,0.4
2025-05-25T0200,1153A,118.7794,32.0745,南京市,山西路,,45,44,57,31,32,69,,,,25,15,3,4,0.3,0.3
2025-05-25T0200,1154A,118.7752,32.0023,南京市,中华门,颗粒物(PM10),51,51,47,31,33,58,,,,27,15,5,4,0.6,0.5
2025-05-25T0200,1155A,118.8109,32.0309,南京市,瑞金路,,42,41,55,29,36,66,,,,14,12,6,6,0.5,0.5
2025-05-25T0200,1156A,118.7997,32.0754,南京市,玄武湖,颗粒物(PM10),52,54,52,26,30,80,,,,15,9,4,4,0.5,0.6
2025-05-25T0200,1157A,118.6414,32.0931,南京市,浦口,,40,40,48,25,35,115,,,,11,14,3,4,0.5,0.5
2025-05-25T0200,1158A,118.7356,31.9996,南京市,奥体中心,细颗粒物(PM2.5),64,69,54,46,37,20,,,,67,25,5,6,0.6,0.4
2025-05-25T0200,1159A,118.9125,32.1028,南京市,仙林大学城,颗粒物(PM10),51,51,57,31,31,12,,,,73,29,11,12,0.6,0.6
2025-05-25T0200,3422A,118.8436,31.9198,南京市,江宁彩虹桥,颗粒物(PM10),51,51,52,34,34,38,,,,60,28,3,3,0.5,0.5
2025-05-25T0200,3427A,118.8554,32.3578,南京市,六合雄州,颗粒物(PM10),55,60,56,34,37,41,,,,62,30,6,7,0.4,0.5
2025-05-25T0200,4249A,118.8708,31.3402,南京市,汶溪路181号,细颗粒物(PM2.5),82,,50,60,45,79,,,,31,19,2,4,0.4,0.4
2025-05-25T0200,4312A,119.019,31.6512,南京市,中山西路1号,细颗粒物(PM2.5),60,53,48,43,38,27,,,,54,28,7,6,0.6,0.6
2025-05-25T0200,1401A,108.3103,22.7881,南宁市,二十一中,,28,15,11,8,7,88,,,,16,11,1,2,0.7,0.7
2025-05-25T0200,1402A,108.3141,22.8528,南宁市,北湖,,28,,16,11,10,89,,,,14,11,7,5,0.5,0.5
2025-05-25T0200,1403A,108.3206,22.8225,南宁市,市监测站,,27,20,16,9,10,86,,,,3,5,5,2,0.4,0.5
2025-05-25T0200,1404A,108.3829,22.8037,南宁市,大自然花园,,32,18,17,13,10,102,,,,6,7,4,4,0.5,0.6
2025-05-25T0200,1405A,108.4394,22.7904,南宁市,仙葫,,30,15,22,10,9,94,,,,7,7,8,8,0.6,0.6
2025-05-25T0200,1406A,108.2397,22.8467,南宁市,区农职院,,19,17,14,12,8,59,,,,10,10,6,5,0.9,0.8
2025-05-25T0200,1407A,108.3275,22.735,南宁市,英华嘉园,,31,10,16,9,11,98,,,,8,8,6,6,0.4,0.4
2025-05-25T0200,3401A,108.4834,22.7618,南宁市,红星社区,,33,15,16,6,7,104,,,,6,4,10,9,0.3,0.3
2025-05-25T0200,4221A,108.2177,22.7774,南宁市,乐贤路16号,,24,24,16,9,11,61,,,,19,12,4,4,0.5,0.5
2025-05-25T0200,2331A,118.0966,26.6761,南平市,茫荡山,,,,,,,,,,,,,,,,
2025-05-25T0200,2332A,118.1681,26.6369,南平市,南平市监测站,,26,26,14,6,4,39,,,,14,7,4,4,0.7,0.7
2025-05-25T0200,2333A,118.1825,26.6489,南平市,南平铝业有限公司,,28,28,16,14,3,52,,,,14,8,4,3,0.6,0.6
2025-05-25T0200,2334A,118.1756,26.6272,南平市,南平七中,,30,30,20,9,6,18,,,,19,6,4,4,0.6,0.6
2025-05-25T0200,1168A,120.9098,31.9663,南通市,狼山街道,,46,36,40,32,29,34,,,,30,13,3,4,0.7,0.8
2025-05-25T0200,1169A,120.86,32.0005,南通市,虹桥,细颗粒物(PM2.5),63,57,44,45,35,52,,,,72,22,3,3,0.4,0.3
2025-05-25T0200,1170A,120.87,32.02,南通市,城中,颗粒物(PM10),53,56,49,36,34,78,,,,29,14,5,6,0.7,0.6
2025-05-25T0200,1171A,120.94,31.93,南通市,星湖花园,细颗粒物(PM2.5),54,42,36,38,29,52,,,,43,15,3,4,0.6,0.3
2025-05-25T0200,1172A,120.81,32.0417,南通市,紫琅学院,细颗粒物(PM2.5),54,56,48,38,29,83,,,,22,17,7,6,0.6,0.5
2025-05-25T0200,3291A,121.067,32.062,南通市,通州监测站,细颗粒物(PM2.5),58,58,42,41,29,64,,,,44,12,5,5,0.5,0.2
2025-05-25T0200,3432A,120.9348,31.9883,南通市,环境教育馆,细颗粒物(PM2.5),55,48,47,39,30,68,,,,22,14,2,3,0.5,0.4
2025-05-25T0200,2404A,112.5224,33.0122,南阳市,瓦房庄,颗粒物(PM10),66,81,68,45,38,103,,,,19,10,7,7,0.5,0.4
2025-05-25T0200,2405A,112.5003,32.9735,南阳市,汉画馆,颗粒物(PM10),70,89,60,47,38,75,,,,45,19,8,6,0.5,0.5
2025-05-25T0200,2406A,112.5573,33.027,南阳市,气象站,颗粒物(PM10),61,72,64,34,37,116,,,,19,13,4,3,0.5,0.5
2025-05-25T0200,2407A,112.5481,32.9689,南阳市,理工学院,颗粒物(PM10),72,93,68,49,36,89,,,,28,16,6,5,0.6,0.6
2025-05-25T0200,4008A,112.5234,32.9922,南阳市,卧龙区政府,细颗粒物(PM2.5),69,85,62,50,43,86,,,,32,17,6,5,0.5,0.5
2025-05-25T0200,1234A,121.8358,29.911,宁波市,区环保大楼,颗粒物(PM10),51,52,49,28,33,57,,,,34,24,9,11,0.6,0.5
2025-05-25T0200,1235A,121.56,29.82,宁波市,万里学院,细颗粒物(PM2.5),62,52,41,44,43,61,,,,35,17,5,5,0.7,0.6
2025-05-25T0200,1236A,121.713,29.9572,宁波市,龙赛医院,,45,45,48,21,21,87,,,,18,17,8,9,0.5,0.6
2025-05-25T0200,1239A,121.633,29.7733,宁波市,钱湖水厂,颗粒物(PM10),52,54,55,33,31,64,,,,21,16,9,10,0.7,0.6
2025-05-25T0200,1240A,121.5856,29.8635,宁波市,太古小学,,39,39,47,25,27,110,,,,16,15,7,7,0.4,0.4
2025-05-25T0200,1241A,121.524,29.8674,宁波市,市环境监测中心,颗粒物(PM10),55,60,48,34,24,60,,,,26,15,6,7,0.7,0.6
2025-05-25T0200,2871A,121.6147,29.9017,宁波市,万里国际学校,,40,38,41,28,30,69,,,,47,28,7,7,0.3,0.4
2025-05-25T0200,3710A,121.5594,29.8975,宁波市,白沙活动中心,,45,45,52,27,30,81,,,,19,12,9,9,0.4,0.5
2025-05-25T0200,2339A,119.5001,26.6946,宁德市,金涵水库,,,,,,,,,,,,,,,,
2025-05-25T0200,2341A,119.5388,26.6612,宁德市,宁德市监测站,,28,25,13,19,11,76,,,,7,13,4,3,0.4,0.4
2025-05-25T0200,3209A,119.5231,26.6562,宁德市,宁德一中,,32,32,17,7,19,80,,,,1,6,3,2,0.5,0.5
2025-05-25T0200,2618A,98.8601,25.8567,怒江傈僳族自治州,州监测站,,18,18,30,10,19,45,,,,4,6,7,7,0.3,0.4
2025-05-25T0200,2619A,98.8546,25.8417,怒江傈僳族自治州,泸水一中,,10,10,32,3,16,28,,,,11,10,6,6,0.3,0.3
2025-05-25T0200,1888A,101.6891,26.571,攀枝花市,弄弄坪,细颗粒物(PM2.5),57,41,32,40,21,48,,,,20,16,9,6,0.7,0.6
2025-05-25T0200,1889A,101.5769,26.5928,攀枝花市,河门口,,42,38,37,29,24,61,,,,14,16,11,9,0.8,0.7
2025-05-25T0200,1890A,101.7169,26.585,攀枝花市,炳草岗,细颗粒物(PM2.5),109,,34,82,28,30,,,,31,22,16,5,1.1,0.6
2025-05-25T0200,1891A,101.7369,26.5008,攀枝花市,仁和,,20,20,24,11,13,48,,,,12,10,7,8,0.5,0.6
2025-05-25T0200,2835A,101.7227,26.567,攀枝花市,四十中小,,48,45,32,33,19,49,,,,18,16,17,7,1.1,0.8
2025-05-25T0200,1604A,122.0303,41.1489,盘锦市,开发区,细颗粒物(PM2.5),52,50,39,36,32,61,,,,24,17,11,12,0.5,0.6
2025-05-25T0200,1605A,122.0485,41.0883,盘锦市,兴隆台,颗粒物(PM10),52,53,42,28,30,71,,,,27,18,12,9,0.4,0.5
2025-05-25T0200,1606A,121.8297,41.1028,盘锦市,新生街道,细颗粒物(PM2.5),57,,31,40,31,60,,,,24,18,11,9,0.4,0.4
2025-05-25T0200,1832A,113.3257,33.742,平顶山市,新华旅馆,颗粒物(PM10),101,152,76,34,37,43,,,,47,17,6,6,0.6,0.5
2025-05-25T0200,1833A,113.2919,33.737,平顶山市,规划设计院,颗粒物(PM10),71,91,69,36,40,60,,,,37,17,6,6,0.8,0.8
2025-05-25T0200,1834A,113.182,33.774,平顶山市,平顶山工学院,颗粒物(PM10),70,90,60,34,37,74,,,,28,13,5,6,0.5,0.5
2025-05-25T0200,3204A,113.3025,33.73,平顶山市,规划局,颗粒物(PM10),62,73,64,33,36,71,,,,29,14,6,6,0.5,0.5
2025-05-25T0200,3594A,112.8867,33.9116,平顶山市,石龙区,颗粒物(PM10),62,73,73,29,37,113,,,,20,24,8,10,0.5,0.7
2025-05-25T0200,2656A,106.6692,35.5461,平凉市,聚贤嘉苑,,38,29,45,26,26,100,,,,15,15,11,11,1.0,0.6
2025-05-25T0200,2657A,106.7021,35.5307,平凉市,博物馆,,,,46,22,23,114,,,,11,15,9,9,0.6,0.6
2025-05-25T0200,2347A,114.0997,27.5002,萍乡市,武功山,,29,26,23,20,16,66,,,,5,6,6,7,0.9,1
2025-05-25T0200,2348A,113.8385,27.6434,萍乡市,中医院,,50,50,45,29,28,70,,,,16,13,13,12,0.7,0.7
2025-05-25T0200,2349A,113.8493,27.6253,萍乡市,市政府车库,细颗粒物(PM2.5),54,40,48,38,28,48,,,,18,11,7,28,0.4,0.6
2025-05-25T0200,2350A,113.8676,27.6435,萍乡市,市环保局,细颗粒物(PM2.5),55,48,40,39,28,64,,,,16,10,11,10,0.7,0.7
2025-05-25T0200,2351A,113.866,27.6198,萍乡市,安源区政府,颗粒物(PM10),55,60,40,34,25,49,,,,14,12,4,5,0.5,0.7
2025-05-25T0200,2319A,119.0141,25.4325,莆田市,荔城区仓后路,,46,44,17,32,5,120,,,,8,9,4,4,0.6,0.6
2025-05-25T0200,2320A,119.0015,25.4553,莆田市,莆田市监测站,,42,42,27,24,4,94,,,,3,4,3,2,0.4,0.4
2025-05-25T0200,2321A,119.1119,25.4561,莆田市,涵江区六中,,45,43,18,31,5,129,,,,8,10,3,2,0.5,0.5
2025-05-25T0200,2322A,119.1013,25.3215,莆田市,秀屿区政府,,43,33,18,30,6,120,,,,9,11,4,4,0.5,0.6
2025-05-25T0200,2323A,118.981,25.4792,莆田市,东圳水库,,,,,,,,,,,,,,,,
2025-05-25T0200,2392A,115.0312,35.7636,濮阳市,环保局,,44,44,46,26,34,55,,,,53,23,6,8,0.5,0.6
2025-05-25T0200,2394A,115.0574,35.7609,濮阳市,油田运输公司,,46,46,53,25,34,67,,,,37,19,6,7,0.6,0.7
2025-05-25T0200,3021A,115,35.7668,濮阳市,濮水河管理处,颗粒物(PM10),51,51,51,32,37,29,,,,51,28,4,5,0.6,0.6
2025-05-25T0200,4216A,115.0924,35.7686,濮阳市,任丘路479号,,43,43,56,14,6,84,,,,26,18,6,8,0.5,0.6
2025-05-25T0200,2601A,100.98,22.7633,普洱市,市环保局,,35,27,55,24,20,67,,,,4,7,3,4,0.6,0.7
2025-05-25T0200,2602A,100.9817,22.8322,普洱市,普洱第二中学,,22,13,40,7,20,70,,,,5,10,5,5,0.5,0.5
2025-05-25T0200,2262A,131.0518,45.8751,七台河市,新一中,,22,,13,15,10,47,,,,6,8,10,11,0.8,0.7
2025-05-25T0200,3345A,131.0577,45.7879,七台河市,中波台,,15,6,7,3,5,46,,,,8,15,5,6,0.3,0.3
2025-05-25T0200,3637A,131.0176,45.7761,七台河市,人民广场,,18,12,25,12,17,47,,,,8,16,10,11,0.4,0.5
2025-05-25T0200,3684A,130.8781,45.8222,七台河市,新建矿广场,,,,24,,8,,,59,,,13,,13,,0.4
2025-05-25T0200,1779A,123.9305,47.3636,齐齐哈尔市,安居小区,,26,26,34,10,14,46,,,,22,20,1,14,0.3,0.4
2025-05-25T0200,1780A,123.9488,47.3386,齐齐哈尔市,中心广场,,31,31,30,17,11,63,,,,15,19,4,4,0.3,0.4
2025-05-25T0200,1781A,123.9483,47.3227,齐齐哈尔市,农牧车辆厂,,46,46,32,22,15,48,,,,23,16,6,5,0.9,0.3
2025-05-25T0200,1783A,123.945,47.2988,齐齐哈尔市,市环境监测站,,35,35,28,23,14,31,,,,28,14,3,3,0.2,0.2
2025-05-25T0200,3662A,123.6333,47.2075,齐齐哈尔市,富区青少年活动中心,,28,20,34,19,24,62,,,,15,13,2,2,0.3,0.3
2025-05-25T0200,2591A,107.9783,26.5747,黔东南苗族侗族自治州,市环境监测站,颗粒物(PM10),55,59,54,38,29,66,,,,8,7,3,4,0.9,0.5
2025-05-25T0200,2881A,107.8908,26.5311,黔东南苗族侗族自治州,凯里学院,,39,31,49,27,23,71,,,,8,7,2,3,0.6,0.5
2025-05-25T0200,2593A,107.5228,26.2403,黔南布依族苗族自治州,小围寨,,36,36,46,19,20,48,,,,8,7,1,3,0.4,0.4
2025-05-25T0200,3538A,107.5175,26.2978,黔南布依族苗族自治州,沙坝,,42,41,57,29,21,46,,,,8,9,3,5,0.4,0.8
2025-05-25T0200,2589A,104.9022,25.0925,黔西南布依族苗族自治州,场坝街,,43,43,47,16,20,43,,,,20,18,26,17,0.3,0.3
2025-05-25T0200,2590A,104.8811,25.0992,黔西南布依族苗族自治州,坪东大道,,50,50,39,19,20,35,,,,18,17,2,6,0.1,0.2
2025-05-25T0200,2502A,108.6236,21.9667,钦州市,市环保站,,31,31,19,12,7,77,,,,12,9,6,5,1.3,0.8
2025-05-25T0200,2503A,108.6549,21.9481,钦州市,沙埠小学,,30,20,17,10,7,93,,,,8,8,5,5,0.4,0.5
2025-05-25T0200,2504A,108.5989,21.7431,钦州市,港区一小,,27,21,28,12,10,86,,,,12,15,8,8,0.5,0.5
2025-05-25T0200,3404A,108.5959,21.9633,钦州市,北职校,,25,23,21,14,11,78,,,,6,6,6,5,0.6,0.6
2025-05-25T0200,1043A,119.7493,40.0116,秦皇岛市,第一关,,42,40,37,29,18,51,,,,51,41,7,6,0.5,0.5
2025-05-25T0200,1044A,119.5897,39.9499,秦皇岛市,监测站,颗粒物(PM10),52,54,53,16,12,82,,,,29,27,13,6,1.1,0.5
2025-05-25T0200,1046A,119.5251,39.9041,秦皇岛市,建设大厦,颗粒物(PM10),56,61,43,22,13,82,,,,26,28,15,6,1.1,0.4
2025-05-25T0200,3132A,119.610547,39.943889,秦皇岛市,文明里,颗粒物(PM10),55,59,41,15,11,84,,,,19,25,13,6,1.0,0.4
2025-05-25T0200,4198A,119.5090,39.8253,秦皇岛市,北戴河轮滑馆,,33,33,39,20,18,62,,,,31,25,11,6,0.8,0.6
2025-05-25T0200,1307A,120.6659,36.2403,青岛市,仰口,,39,13,35,11,27,122,,,,4,7,7,9,0.3,0.4
2025-05-25T0200,1310A,120.4134,36.0658,青岛市,市南区东部子站,,41,41,57,22,30,42,,,,69,27,10,9,0.5,0.5
2025-05-25T0200,1311A,120.3664,36.1032,青岛市,四方区子站,,41,41,46,24,28,47,,,,57,26,7,7,0.7,0.6
2025-05-25T0200,1312A,120.2994,36.054,青岛市,市南区西部子站,二氧化氮,65,66,52,15,23,2,,,,129,36,16,10,0.7,0.7
2025-05-25T0200,1313A,120.4581,36.0858,青岛市,崂山区子站,,29,29,51,17,27,74,,,,28,20,13,9,0.4,0.4
2025-05-25T0200,1315A,120.3999,36.3083,青岛市,城阳区子站,,39,39,45,15,23,53,,,,40,21,6,7,0.6,0.5
2025-05-25T0200,1966A,120.0405,35.8735,青岛市,黄岛区4号,,30,24,38,12,19,93,,,,24,18,9,10,0.5,0.6
2025-05-25T0200,3362A,120.5014,36.4034,青岛市,即墨2号,颗粒物(PM10),56,61,49,31,33,48,,,,39,15,10,9,0.7,0.7
2025-05-25T0200,3642A,120.3503,36.0736,青岛市,市北区南部,,38,38,48,19,27,41,,,,58,22,9,12,0.4,0.5
2025-05-25T0200,3643A,120.3948,36.1805,青岛市,李沧区北部,,29,29,53,14,30,59,,,,46,26,8,8,0.5,0.6
2025-05-25T0200,4290A,120.1969,35.9546,青岛市,珠江路669号,,24,24,48,12,24,67,,,,25,19,7,8,0.6,0.6
2025-05-25T0200,1702A,113.0426,23.691,清远市,环保大楼,,28,28,16,3,6,88,,,,11,8,8,6,0.8,0.8
2025-05-25T0200,1703A,113.0208,23.7106,清远市,凤城街办,,26,25,18,11,8,81,,,,11,11,5,6,0.5,0.5
2025-05-25T0200,3025A,113.0477,23.6344,清远市,技师学院,,25,25,16,16,10,74,,,,11,12,7,6,0.9,0.8
2025-05-25T0200,3318A,112.9903,23.7403,清远市,清新太和,,28,28,16,17,10,80,,,,6,5,8,8,0.6,0.6
2025-05-25T0200,3455A,113.076,23.7198,清远市,清城东城,,26,26,16,14,8,76,,,,9,5,7,7,0.7,0.6
2025-05-25T0200,2661A,107.6325,35.7357,庆阳市,庆阳五中,,34,26,52,17,31,108,,,,10,11,3,4,0.4,0.5
2025-05-25T0200,2662A,107.6364,35.7067,庆阳市,市环保局,,36,34,52,19,27,115,,,,8,12,8,9,0.4,0.4
2025-05-25T0200,1916A,103.7897,25.5035,曲靖市,环境监测站,,33,33,38,19,15,64,,,,10,12,5,6,0.4,0.4
2025-05-25T0200,1917A,103.8,25.5364,曲靖市,烟厂办公区,,37,37,40,15,14,62,,,,10,10,4,4,0.7,0.6
2025-05-25T0200,3376A,103.7947,25.462,曲靖市,南苑二区,,32,32,41,14,16,62,,,,12,15,4,4,0.5,0.5
2025-05-25T0200,3377A,103.7444,25.5261,曲靖市,曲靖师范学院,,36,30,33,25,21,59,,,,17,14,6,6,0.5,0.4
2025-05-25T0200,1264A,118.8692,28.9398,衢州市,环保大楼,细颗粒物(PM2.5),62,59,43,44,31,52,,,,25,14,3,3,0.5,0.5
2025-05-25T0200,1265A,118.8709,28.9666,衢州市,实验学校,细颗粒物(PM2.5),58,55,41,41,28,48,,,,27,17,3,3,0.4,0.4
2025-05-25T0200,1266A,118.8621,28.9808,衢州市,衢州学院,细颗粒物(PM2.5),67,62,41,48,31,48,,,,22,17,4,4,0.4,0.3
2025-05-25T0200,1611A,118.5819,24.9117,泉州市,涂山街,,33,27,21,22,9,105,,,,10,12,4,4,0.7,0.6
2025-05-25T0200,1612A,118.5972,24.8978,泉州市,津头埔,细颗粒物(PM2.5),57,,22,40,13,98,,,,9,12,2,1,0.8,0.7
2025-05-25T0200,1613A,118.6663,24.9424,泉州市,万安,,32,30,22,22,7,101,,,,6,9,5,4,0.7,0.6
2025-05-25T0200,1614A,118.6117,24.9604,泉州市,清源山,,,,,,,,,,,,,,,,
2025-05-25T0200,3529A,118.6333,24.9264,泉州市,城华南路,,35,35,17,22,7,86,,,,8,9,4,3,0.6,0.6
2025-05-25T0200,2626A,88.8876,29.2718,日喀则市,日喀则监测站,,37,8,25,7,11,116,,,,3,12,10,10,0.1,0.1
2025-05-25T0200,3726A,88.8781,29.2426,日喀则市,林业技术推广中心,,34,16,23,6,9,107,,,,3,4,6,7,0.4,0.3
2025-05-25T0200,1659A,119.471,35.4209,日照市,监测站,,42,31,44,9,24,2,,,,84,31,5,7,0.5,0.6
2025-05-25T0200,1660A,119.523,35.4216,日照市,市政府广场,,39,39,42,24,23,11,,,,73,18,4,6,0.7,0.6
2025-05-25T0200,1661A,119.5587,35.4044,日照市,港务局,,33,31,47,22,31,39,,,,66,26,5,8,0.5,0.5
2025-05-25T0200,3507A,119.5328,35.4625,日照市,职业技术学院,,27,27,44,9,22,37,,,,54,20,4,6,0.5,0.6
2025-05-25T0200,3604A,119.3266,35.1044,日照市,岚山环保分局,颗粒物(PM10),64,78,55,32,33,64,,,,60,23,12,10,0.8,0.9
2025-05-25T0200,1835A,111.1922,34.7752,三门峡市,市政府,,48,48,41,33,30,76,,,,33,22,9,7,0.5,0.7
2025-05-25T0200,1836A,111.1587,34.7942,三门峡市,开发区,,46,41,35,32,27,84,,,,17,19,13,8,0.7,0.9
2025-05-25T0200,1838A,111.143,34.7955,三门峡市,风景区,,36,29,30,25,22,92,,,,14,15,14,10,0.6,0.7
2025-05-25T0200,3039A,111.1911,34.7829,三门峡市,三门峡市第一小学,颗粒物(PM10),51,52,40,24,24,80,,,,32,21,12,9,0.6,0.8
2025-05-25T0200,3598A,111.1,34.7167,三门峡市,富达温泉假日酒店,,46,46,40,27,25,108,,,,17,15,7,7,0.3,0.5
2025-05-25T0200,2324A,117.6211,26.2625,三明市,三钢,,36,36,22,25,18,25,,,,16,12,2,4,0.8,1.2
2025-05-25T0200,2325A,117.635,26.2714,三明市,三明二中,,36,36,20,22,7,21,,,,17,10,3,4,1.2,1.1
2025-05-25T0200,2326A,117.6028,26.2378,三明市,三元区政府,,43,43,23,18,6,30,,,,10,10,4,4,0.5,0.5
2025-05-25T0200,2327A,117.7275,26.3108,三明市,洋溪,,,,,,,,,,,,,,,,
2025-05-25T0200,1876A,109.5078,18.2489,三亚市,河东子站,,10,7,10,7,4,28,,,,3,3,3,3,0.4,0.4
2025-05-25T0200,1877A,109.4964,18.2681,三亚市,河西子站,,9,,14,3,4,28,,,,6,6,3,3,0.3,0.3
2025-05-25T0200,3540A,109.7348,18.3443,三亚市,君悦子站,,16,16,11,8,4,3,,,,8,6,2,2,0.0,0.1
2025-05-25T0200,2624A,91.7608,29.2313,山南市,山南监测站,,,,23,11,14,112,,,,1,5,3,3,0.3,0.3
2025-05-25T0200,2625A,91.7706,29.2436,山南市,山南人民医院,,36,16,27,12,15,113,,,,1,5,5,4,0.4,0.4
2025-05-25T0200,1674A,116.6794,23.3667,汕头市,金平子站,,24,11,18,3,7,74,,,,10,13,4,5,0.6,0.7
2025-05-25T0200,1675A,116.7244,23.3633,汕头市,龙湖子站,,24,6,21,3,6,74,,,,7,9,4,7,0.5,0.5
2025-05-25T0200,1676A,116.7258,23.2775,汕头市,濠江子站,,24,8,20,3,7,74,,,,5,7,4,6,0.5,0.7
2025-05-25T0200,1677A,116.7519,23.4714,汕头市,澄海子站,,,,28,5,7,69,,,,8,10,2,3,0.5,0.5
2025-05-25T0200,1678A,116.6092,23.2539,汕头市,潮阳子站,,26,7,20,3,4,83,,,,4,8,4,5,0.5,0.5
2025-05-25T0200,3444A,116.454,23.2684,汕头市,潮南峡山,,25,10,20,3,7,78,,,,5,6,4,5,0.6,0.6
2025-05-25T0200,3624A,116.4069,23.2533,汕头市,潮南子站,,23,11,25,3,8,72,,,,6,7,6,5,0.5,0.6
2025-05-25T0200,1693A,115.3653,22.775,汕尾市,市环保局,细颗粒物(PM2.5),53,,15,37,12,68,,,,8,8,2,2,0.7,0.6
2025-05-25T0200,1694A,115.3706,22.7898,汕尾市,市政府,,31,31,16,10,4,68,,,,6,7,6,5,0.5,0.5
2025-05-25T0200,1695A,115.3622,22.7925,汕尾市,新城中学,,33,27,18,23,10,71,,,,7,8,3,2,0.6,0.6
2025-05-25T0200,2645A,109.9154,33.8715,商洛市,监测站,细颗粒物(PM2.5),79,79,57,58,34,154,,,,12,12,12,7,0.7,0.5
2025-05-25T0200,3045A,109.9643,33.8471,商洛市,商州区中学,细颗粒物(PM2.5),74,84,62,54,33,143,,,,17,22,9,6,0.4,0.4
2025-05-25T0200,2408A,115.6702,34.4285,商丘市,环境监测站,颗粒物(PM10),59,68,56,38,37,78,,,,26,17,4,4,0.3,0.3
2025-05-25T0200,2409A,115.6458,34.4045,商丘市,粮食局,细颗粒物(PM2.5),63,65,59,45,46,70,,,,34,19,1,2,0.6,0.5
2025-05-25T0200,2410A,115.6293,34.3948,商丘市,睢阳区环保局,细颗粒物(PM2.5),67,60,61,48,42,48,,,,55,24,1,2,0.4,0.4
2025-05-25T0200,3171A,115.6071,34.4465,商丘市,梁园区档案局,细颗粒物(PM2.5),77,66,56,56,44,48,,,,52,22,3,3,0.4,0.4
2025-05-25T0200,1141A,121.4,31.238,上海市,普陀,,49,44,42,34,35,70,,,,59,25,5,7,0.5,0.6
2025-05-25T0200,1142A,121.478,31.2036,上海市,十五厂,,49,42,42,34,33,105,,,,27,21,10,8,0.8,0.6
2025-05-25T0200,1143A,121.467,31.3008,上海市,虹口,,49,45,42,34,32,86,,,,26,17,7,8,0.4,0.4
2025-05-25T0200,1147A,121.425,31.2261,上海市,静安监测站,,43,38,42,30,33,98,,,,28,26,8,9,0.5,0.6
2025-05-25T0200,1148A,121.703,31.1907,上海市,浦东川沙,颗粒物(PM10),52,53,37,26,24,78,,,,30,17,8,8,0.6,0.6
2025-05-25T0200,1149A,121.533,31.2284,上海市,浦东新区监测站,,46,44,42,32,29,93,,,,37,27,11,8,0.8,0.5
2025-05-25T0200,1150A,121.577,31.2071,上海市,浦东张江,颗粒物(PM10),52,53,42,34,34,64,,,,39,18,7,7,0.8,0.8
2025-05-25T0200,3265A,121.4316,31.3322,上海市,宝山庙行,,49,49,42,12,32,61,,,,45,24,7,9,0.6,0.7
2025-05-25T0200,3266A,121.8791,31.4662,上海市,崇明上实东滩,细颗粒物(PM2.5),52,44,36,36,28,91,,,,10,9,2,2,0.6,0.6
2025-05-25T0200,3268A,121.3162,31.2838,上海市,嘉定南翔,,50,50,41,33,31,37,,,,61,17,6,7,0.7,0.6
2025-05-25T0200,3269A,121.3359,30.7456,上海市,金山新城,细颗粒物(PM2.5),57,48,41,40,38,90,,,,28,20,4,4,0.6,0.6
2025-05-25T0200,3270A,121.4996,31.0739,上海市,闵行浦江,细颗粒物(PM2.5),54,51,41,38,35,85,,,,36,22,6,5,0.9,0.6
2025-05-25T0200,3271A,121.2886,31.1663,上海市,青浦徐泾,,48,48,41,32,31,85,,,,21,13,7,8,0.7,0.7
2025-05-25T0200,3272A,121.2186,31.0378,上海市,松江图书馆,颗粒物(PM10),51,51,46,33,33,103,,,,25,21,9,9,0.6,0.6
2025-05-25T0200,3273A,121.3902,31.2059,上海市,长宁仙霞,,43,42,41,30,32,61,,,,46,22,9,9,0.7,0.7
2025-05-25T0200,3274A,121.7965,31.0507,上海市,浦东惠南,颗粒物(PM10),56,62,42,37,30,81,,,,31,23,10,9,1.0,0.7
2025-05-25T0200,3544A,121.4891,30.925,上海市,奉贤南桥新城,,50,50,41,34,33,72,,,,39,15,8,6,0.8,0.7
2025-05-25T0200,4183A,121.4174,31.16637,上海市,冠生园路458号,,43,37,39,30,34,84,,,,24,19,4,5,0.8,0.8
2025-05-25T0200,4205A,121.5419,31.2683,上海市,宁武路151号,细颗粒物(PM2.5),59,46,42,42,34,83,,,,36,23,6,6,0.7,0.6
2025-05-25T0200,2381A,118.005,28.4572,上饶市,百草园,,,,,,,,,,,,,,,,
2025-05-25T0200,2382A,117.9756,28.4436,上饶市,市监测站,细颗粒物(PM2.5),57,58,46,40,29,49,,,,14,11,11,11,0.6,0.6
2025-05-25T0200,2383A,117.9519,28.4628,上饶市,凤凰光学,颗粒物(PM10),52,53,43,32,29,34,,,,27,10,15,12,1.1,1.1
2025-05-25T0200,3685A,117.897,28.4315,上饶市,双创科技城,细颗粒物(PM2.5),59,60,44,42,30,12,,,,49,23,12,13,0.8,0.8
2025-05-25T0200,4211A,118.1904,28.4448,上饶市,裕丰大道,细颗粒物(PM2.5),62,54,37,44,28,36,,,,12,10,11,10,0.6,0.6
2025-05-25T0200,1669A,113.5824,24.7733,韶关市,市八中,,47,47,29,30,17,37,,,,14,14,8,9,0.6,0.6
2025-05-25T0200,1671A,113.5917,24.7972,韶关市,园林处,细颗粒物(PM2.5),52,47,29,36,20,59,,,,8,6,6,7,0.6,0.6
