timepoint,stationcode,longitude,latitude,area,positionname,primarypollutant,aqi,pm10,pm10_24h,pm2_5,pm2_5_24h,o3,o3_24h,o3_8h,o3_8h_24h,no2,no2_24h,so2,so2_24h,co,co_24h
2024-05-22T1300,2566A,102.1879,31.914,阿坝藏族羌族自治州,州农科所,,23,23,34,7,11,45,,28,28,6,11,2,2,0,0
2024-05-22T1300,2568A,102.2502,31.8896,阿坝藏族羌族自治州,马师校,,37,7,20,6,13,117,,66,66,6,9,4,3,0.3,0.3
2024-05-22T1300,3994A,102.2165,31.9024,阿坝藏族羌族自治州,马尔康中学西区,,35,17,28,10,16,109,,65,65,4,6,3,3,0.2,0.2
2024-05-22T1300,2695A,80.292,41.1694,阿克苏地区,电视台,颗粒物(PM10),89,128,206,61,94,99,,75,72,11,13,6,5,0.4,0.5
2024-05-22T1300,2696A,80.2613,41.1551,阿克苏地区,艺术中心,颗粒物(PM10),53,56,194,17,88,107,,70,67,12,16,5,5,0.3,0.3
2024-05-22T1300,2204A,105.6467,38.8363,阿拉善盟,西城区西花园,臭氧1小时,64,60,78,9,23,171,,155,155,6,6,8,8,0.6,0.6
2024-05-22T1300,2205A,105.6985,38.8411,阿拉善盟,蒙二幼,臭氧1小时,53,41,110,17,33,162,,154,154,9,9,10,11,0.5,0.6
2024-05-22T1300,2206A,105.724,38.8516,阿拉善盟,环保局新楼,臭氧1小时,60,34,84,13,27,168,,164,164,6,6,8,9,0.5,0.5
2024-05-22T1300,2708A,88.1264,47.8517,阿勒泰地区,市站,,34,34,21,7,6,106,,55,55,4,11,5,6,0.3,0.5
2024-05-22T1300,2630A,80.1161,32.5,阿里地区,阿里监测站,,49,16,14,3,6,155,,118,114,4,10,9,8,0.4,0.4
2024-05-22T1300,3192A,80.0903,32.5028,阿里地区,阿里藏医院,,50,,14,18,6,158,,127,118,4,6,8,8,0.5,0.5
2024-05-22T1300,2642A,109.0318,32.6537,安康市,香溪洞,颗粒物(PM10),52,53,45,28,27,135,,66,66,6,7,7,7,0.6,0.5
2024-05-22T1300,2643A,109.0281,32.6939,安康市,安康市监测站,,43,38,48,29,26,137,,73,73,4,9,8,9,0.5,0.5
2024-05-22T1300,2644A,109.0072,32.6975,安康市,汉滨区检察院,,43,36,44,29,32,137,,72,72,4,8,7,6,0.4,0.4
2024-05-22T1300,2291A,117.0809,30.5177,安庆市,环科院,,38,25,22,16,15,121,,66,66,6,14,3,4,0.5,0.6
2024-05-22T1300,2292A,117.0331,30.5119,安庆市,马山宾馆,,,,25,,17,127,,,,15,25,7,8,0.3,0.6
2024-05-22T1300,2294A,116.9896,30.6145,安庆市,安庆大学,,,45,27,28,18,101,,51,51,,15,6,6,,0.6
2024-05-22T1300,3173A,117.0598,30.5351,安庆市,市人大,,39,32,30,17,17,123,,68,68,9,16,5,6,0.5,0.7
2024-05-22T1300,3123A,105.9408,26.2431,安顺市,凤凰山,,43,16,20,11,14,135,,101,101,4,7,5,6,0.7,0.8
2024-05-22T1300,3124A,105.9439,26.2564,安顺市,金钟山,,41,20,21,11,17,131,,88,88,5,8,6,6,0.8,0.9
2024-05-22T1300,3125A,105.8983,26.2481,安顺市,娄家坡,,42,28,34,15,19,133,,96,96,5,7,8,9,0.5,0.5
2024-05-22T1300,1819A,114.3551,36.1017,安阳市,红庙街,颗粒物(PM10),58,65,73,22,32,159,,107,107,1,15,3,8,0.4,0.7
2024-05-22T1300,1820A,114.361,36.0681,安阳市,银杏小区,颗粒物(PM10),57,64,65,17,26,157,,104,104,2,14,5,8,0.5,0.7
2024-05-22T1300,3141A,114.3922,36.0878,安阳市,信访局,颗粒物(PM10),62,74,76,19,27,154,,104,104,1,14,6,3,0.5,0.6
2024-05-22T1300,3669A,114.4705,36.0637,安阳市,左辅环卫站,,49,48,70,18,36,154,,103,103,4,17,8,9,0.3,0.4
2024-05-22T1300,3703A,114.2917,36.0949,安阳市,安钢职工学校,颗粒物(PM10),64,78,78,16,36,157,,103,103,5,14,6,11,0.3,0.4
2024-05-22T1300,1748A,123.044,41.1196,鞍山市,深沟寺,,44,44,44,26,26,133,,121,121,6,12,8,8,0.5,0.6
2024-05-22T1300,1749A,123.011,41.0931,鞍山市,太阳城,,44,42,46,21,25,138,,126,126,9,16,7,8,0.7,0.9
2024-05-22T1300,1750A,123.0485,41.1442,鞍山市,太平,,49,49,50,27,30,136,,121,121,9,19,6,6,0.5,0.6
2024-05-22T1300,1751A,122.9642,41.0971,鞍山市,铁西三道街,颗粒物(PM10),59,68,59,33,30,133,,122,122,10,21,5,6,0.7,0.9
2024-05-22T1300,1752A,122.9341,41.0833,鞍山市,铁西工业园区,,44,44,51,26,30,125,,120,120,6,14,6,7,0.6,0.8
2024-05-22T1300,1753A,123.022,41.0821,鞍山市,明达新区,,40,38,46,26,27,127,,119,119,8,16,9,10,0.7,0.9
2024-05-22T1300,2195A,107.4212,40.761,巴彦淖尔市,附二中,颗粒物(PM10),102,153,119,42,45,162,,130,130,6,19,3,8,0.4,0.6
2024-05-22T1300,2196A,107.37,40.7372,巴彦淖尔市,市环保大楼,颗粒物(PM10),96,141,126,25,34,158,,120,120,5,15,4,8,0.4,0.5
2024-05-22T1300,1956A,86.1472,41.7538,巴音郭楞蒙古自治州,孔雀公园,颗粒物(PM10),63,75,102,14,32,105,,115,112,7,9,7,7,0.3,0.2
2024-05-22T1300,1957A,86.1972,41.7166,巴音郭楞蒙古自治州,棉纺厂,颗粒物(PM10),59,68,108,21,34,98,,109,106,8,8,4,3,0.5,0.2
2024-05-22T1300,1958A,86.2357,41.7173,巴音郭楞蒙古自治州,经济开发区,颗粒物(PM10),63,76,115,15,35,110,,121,118,7,4,8,8,0.2,0.2
2024-05-22T1300,2914A,106.7677,31.8794,巴中市,苏山坪,,42,30,33,20,21,132,,107,105,8,9,6,5,0.5,0.4
2024-05-22T1300,3182A,106.7656,31.8545,巴中市,丽阳花园,,45,28,39,20,26,144,,80,80,8,19,7,6,0.4,0.4
2024-05-22T1300,3183A,106.7418,31.8654,巴中市,圣泉水务公司,,43,27,35,21,27,137,,100,100,8,23,5,4,0.4,0.4
2024-05-22T1300,3616A,106.7616,31.8344,巴中市,市中心医院,,43,29,38,20,27,137,,73,73,6,19,8,6,0.5,0.6
2024-05-22T1300,2235A,122.7911,45.6077,白城市,洮北区环保局,,31,18,37,8,14,98,,91,90,9,11,6,8,0.3,0.4
2024-05-22T1300,2236A,122.8738,45.5725,白城市,市环保局,,,,38,42,17,98,,,,8,11,4,6,0.3,0.4
2024-05-22T1300,2231A,126.4219,41.9171,白山市,喜丰,,,87,27,9,10,126,,79,79,,19,5,11,0.6,0.9
2024-05-22T1300,2232A,126.4077,41.9419,白山市,环保局,,38,37,42,12,14,121,,80,80,6,21,10,10,0.7,0.7
2024-05-22T1300,2647A,104.1724,36.5446,白银市,第三小学,,44,44,56,22,28,127,,110,110,12,17,14,52,0.5,0.5
2024-05-22T1300,2648A,104.1465,36.5482,白银市,动力公司,颗粒物(PM10),51,51,56,22,26,141,,109,109,7,13,15,37,0.5,0.6
2024-05-22T1300,2512A,106.6103,23.9011,百色市,市监测站,,27,24,22,10,15,84,,64,58,8,8,5,7,0.6,0.7
2024-05-22T1300,2513A,106.6538,23.8859,百色市,市中心血站,,26,21,28,12,17,81,,58,57,8,11,4,6,0.5,0.5
2024-05-22T1300,3406A,106.6085,23.8798,百色市,祈福高中,,,,31,11,14,81,,62,57,8,12,6,9,0.7,0.6
2024-05-22T1300,2270A,117.396,32.939,蚌埠市,工人疗养院,,46,33,47,13,20,147,,81,81,5,12,7,8,0.3,0.3
2024-05-22T1300,2271A,117.3605,32.9427,蚌埠市,百货大楼,,46,41,51,16,27,145,,79,79,4,14,4,5,0.3,0.4
2024-05-22T1300,2273A,117.4185,32.8911,蚌埠市,蚌埠学院,,42,27,32,19,22,134,,79,79,4,8,5,5,0.4,0.4
2024-05-22T1300,2274A,117.3533,32.9673,蚌埠市,淮上区政府,,45,36,43,20,26,141,,77,77,3,7,7,7,0.2,0.4
2024-05-22T1300,2275A,117.3145,32.8977,蚌埠市,高新区,,46,31,40,17,25,145,,88,88,2,5,6,6,0.4,0.4
2024-05-22T1300,3715A,117.3092,32.9314,蚌埠市,蚌埠田家炳中学,,46,33,48,22,25,146,,85,85,1,12,6,7,0.3,0.3
2024-05-22T1300,1585A,109.8756,40.6532,包头市,市环境监测站,臭氧1小时,82,59,90,21,28,185,,129,129,13,34,21,14,0.7,0.5
2024-05-22T1300,1587A,109.9991,40.5842,包头市,包头八中,臭氧1小时,90,55,89,24,37,192,,134,134,10,20,10,16,0.6,0.8
2024-05-22T1300,1588A,109.8538,40.6821,包头市,青山宾馆,臭氧1小时,75,,78,52,38,180,,129,129,11,26,16,17,0.7,0.8
2024-05-22T1300,1589A,109.8642,40.6288,包头市,惠龙物流,臭氧1小时,85,58,86,34,32,188,,134,134,12,24,20,15,0.6,0.6
2024-05-22T1300,1590A,110.0377,40.5546,包头市,东河鸿龙湾,臭氧1小时,84,41,88,40,35,187,,126,126,8,26,7,12,0.3,0.5
2024-05-22T1300,3283A,109.9154,40.5685,包头市,滨河大厦,臭氧1小时,79,66,85,14,30,183,,117,117,7,31,10,13,0.7,0.8
2024-05-22T1300,3419A,109.9447,40.6261,包头市,包头市委党校,臭氧1小时,82,67,86,18,27,185,,141,141,11,25,11,15,0.4,0.5
2024-05-22T1300,3683A,109.8331,40.6576,包头市,昆区政府,臭氧1小时,80,58,83,22,34,184,,137,137,15,24,14,18,0.7,0.7
2024-05-22T1300,1930A,107.185,34.3063,宝鸡市,庙沟村,臭氧1小时,58,60,44,33,21,166,,112,112,10,11,11,10,0.6,0.5
2024-05-22T1300,1931A,107.0708,34.3017,宝鸡市,竹园沟,臭氧1小时,87,55,40,33,21,189,,117,117,15,15,8,7,0.5,0.5
2024-05-22T1300,1932A,107.1906,34.3672,宝鸡市,三陆医院,臭氧1小时,78,77,57,42,27,182,,107,107,15,25,8,9,0.5,0.5
2024-05-22T1300,1933A,107.1431,34.3547,宝鸡市,监测站,臭氧1小时,74,75,46,29,22,179,,113,113,18,21,10,8,0.5,0.4
2024-05-22T1300,1934A,107.1186,34.3739,宝鸡市,技工学校,臭氧1小时,73,70,49,27,27,178,,119,119,15,15,8,7,0.5,0.5
2024-05-22T1300,1935A,107.3906,34.3528,宝鸡市,陈仓区环保局家属楼,臭氧1小时,85,55,41,31,29,188,,111,111,14,23,8,8,0.5,0.5
2024-05-22T1300,1936A,107.2058,34.3497,宝鸡市,文理学院,臭氧1小时,77,77,55,32,23,181,,112,112,12,20,8,8,0.4,0.3
2024-05-22T1300,1937A,107.2386,34.3622,宝鸡市,三迪小学,臭氧1小时,83,64,57,38,23,186,,112,112,10,20,10,9,0.6,0.5
2024-05-22T1300,1051A,115.493,38.8632,保定市,游泳馆,颗粒物(PM10),88,126,100,48,41,162,,123,123,2,14,4,3,0.4,0.3
2024-05-22T1300,1052A,115.5213,38.8959,保定市,华电二区,臭氧1小时,65,68,60,32,28,172,,128,128,8,19,3,3,0.5,0.3
2024-05-22T1300,1053A,115.4713,38.9108,保定市,接待中心,细颗粒物(PM2.5),79,,54,58,47,172,,119,119,2,11,3,2,0.6,0.4
2024-05-22T1300,1054A,115.4612,38.8416,保定市,地表水厂,细颗粒物(PM2.5),75,89,68,55,48,169,,120,120,3,23,2,3,1.1,0.7
2024-05-22T1300,3581A,115.31981,38.95208,保定市,满城区生态环境分局,颗粒物(PM10),68,85,80,46,42,168,,89,89,2,16,3,3,0.5,0.3
2024-05-22T1300,3582A,115.47694,38.76408,保定市,清苑区第二中学,细颗粒物(PM2.5),78,70,53,57,43,174,,112,112,4,24,3,2,0.6,0.4
2024-05-22T1300,3583A,115.62909,39.02311,保定市,徐水物探局,臭氧1小时,101,127,81,53,42,201,,107,107,8,23,5,6,0.4,0.3
2024-05-22T1300,4004A,115.4202,38.8656,保定市,双鹰农机,臭氧1小时,72,79,70,44,39,177,,118,118,7,21,7,6,0.3,0.1
2024-05-22T1300,4034A,115.5150,38.8590,保定市,植保所站,臭氧1小时,73,81,70,49,38,178,,125,125,7,26,4,5,0.6,0.5
2024-05-22T1300,2594A,99.1678,25.1081,保山市,市环境监测站,,43,29,29,13,13,136,,71,71,9,11,4,4,0.3,0.4
2024-05-22T1300,2595A,99.1711,25.1328,保山市,市环保局,,45,42,37,15,12,141,,78,78,9,9,5,5,0.5,0.5
2024-05-22T1300,1867A,109.1436,21.4086,北海市,海滩公园,,32,32,23,10,10,81,,47,47,19,11,10,10,0.8,0.7
2024-05-22T1300,1868A,109.0981,21.4661,北海市,新市环保局,,30,28,21,12,11,93,,54,54,6,11,6,8,0.6,0.7
2024-05-22T1300,1869A,109.1778,21.5233,北海市,北海工业园,,26,22,25,7,13,83,,46,46,6,11,6,12,0.6,0.7
2024-05-22T1300,3400A,109.1911,21.4415,北海市,龙潭自来水厂,,24,16,22,9,16,76,,39,39,6,10,10,8,0.6,0.7
2024-05-22T1300,1001A,116.3621,39.8784,北京市,万寿西宫,细颗粒物(PM2.5),99,103,77,74,46,181,,81,81,18,30,2,2,0.7,0.6
2024-05-22T1300,1002A,116.2202,40.2915,北京市,定陵,臭氧1小时,69,71,39,45,23,175,,96,96,21,17,2,2,0.7,0.7
2024-05-22T1300,1003A,116.4174,39.9289,北京市,东四,细颗粒物(PM2.5),102,103,75,76,45,170,,72,72,19,33,3,4,0.6,0.4
2024-05-22T1300,1004A,116.4072,39.8863,北京市,天坛,细颗粒物(PM2.5),87,108,69,64,42,179,,80,80,12,26,4,4,0.7,0.6
2024-05-22T1300,1005A,116.462,39.9365,北京市,农展馆,细颗粒物(PM2.5),104,107,73,78,47,180,,89,89,17,31,3,2,0.7,0.6
2024-05-22T1300,1006A,116.3392,39.9295,北京市,官园,颗粒物(PM10),77,104,73,51,40,170,,80,80,14,27,4,4,0.7,0.5
2024-05-22T1300,1007A,116.2878,39.9611,北京市,海淀万柳,细颗粒物(PM2.5),82,101,59,60,30,154,,63,63,21,41,5,6,0.6,0.5
2024-05-22T1300,1008A,116.6636,40.135,北京市,顺义新城,细颗粒物(PM2.5),108,110,71,81,44,133,,76,76,17,21,3,2,0.7,0.6
2024-05-22T1300,1009A,116.6275,40.3275,北京市,怀柔镇,细颗粒物(PM2.5),103,97,53,77,32,156,,91,91,14,14,4,5,0.9,0.7
2024-05-22T1300,1010A,116.2296,40.217,北京市,昌平镇,细颗粒物(PM2.5),82,101,61,60,31,145,,86,86,26,23,3,2,0.7,0.5
2024-05-22T1300,1011A,116.3966,39.9821,北京市,奥体中心,细颗粒物(PM2.5),77,80,64,56,40,158,,71,71,20,32,1,2,0.8,0.6
2024-05-22T1300,1012A,116.184,39.9136,北京市,古城,细颗粒物(PM2.5),90,95,72,67,29,147,,63,63,17,42,2,3,0.9,0.8
2024-05-22T1300,3281A,115.9718,40.4529,北京市,延庆夏都,臭氧1小时,73,57,51,37,27,178,,125,125,14,17,2,2,0.5,0.4
2024-05-22T1300,3417A,117.0709,40.1465,北京市,平谷新城,细颗粒物(PM2.5),85,109,51,63,31,151,,78,78,8,14,3,2,0.6,0.6
2024-05-22T1300,3418A,116.8336,40.4095,北京市,密云新城,细颗粒物(PM2.5),89,94,47,66,26,162,,77,77,12,19,2,2,0.7,0.7
2024-05-22T1300,3672A,116.1541,39.8204,北京市,丰台云岗,颗粒物(PM10),63,75,70,42,30,141,,57,57,11,33,3,2,0.7,0.5
2024-05-22T1300,3673A,116.6804,39.9081,北京市,通州东关,细颗粒物(PM2.5),104,108,80,78,48,161,,77,77,22,25,2,2,0.7,0.7
2024-05-22T1300,3674A,115.9577,39.7603,北京市,房山燕山,颗粒物(PM10),78,105,73,36,30,150,,68,68,19,26,1,2,0.6,0.5
2024-05-22T1300,3675A,116.4672,39.7733,北京市,大兴旧宫,细颗粒物(PM2.5),77,74,65,56,42,175,,74,74,11,24,1,2,0.7,0.5
2024-05-22T1300,3694A,115.986,40.4563,北京市,延庆石河营,臭氧1小时,60,53,44,32,37,168,,116,116,13,15,2,3,0.6,0.4
2024-05-22T1300,3695A,116.6151,40.3053,北京市,怀柔新城,细颗粒物(PM2.5),90,98,53,67,31,144,,82,82,15,17,1,2,0.9,0.6
2024-05-22T1300,3696A,116.2545,39.8768,北京市,丰台小屯,颗粒物(PM10),67,84,66,45,36,150,,63,63,9,27,1,2,0.6,0.4
2024-05-22T1300,3697A,116.84,40.3844,北京市,密云镇,细颗粒物(PM2.5),97,90,48,72,29,158,,79,79,11,22,3,3,0.6,0.5
2024-05-22T1300,1761A,123.8275,41.3064,本溪市,大峪,,46,45,26,23,13,145,,136,136,5,8,10,9,0.6,0.5
2024-05-22T1300,1762A,123.7567,41.3325,本溪市,溪湖,,35,35,34,16,18,110,,112,112,10,18,10,12,0.6,1
2024-05-22T1300,1763A,123.7169,41.3094,本溪市,彩屯,,45,45,39,26,26,93,,96,96,24,28,17,18,1.7,1.9
2024-05-22T1300,1764A,123.7669,41.2864,本溪市,东明,,,52,37,19,15,110,,114,114,,11,9,9,0.5,0.7
2024-05-22T1300,1765A,123.7992,41.2664,本溪市,新立屯,颗粒物(PM10),59,67,32,17,13,115,,119,119,6,8,11,11,0.6,0.7
2024-05-22T1300,1766A,123.8142,41.3472,本溪市,威宁,颗粒物(PM10),52,53,39,20,14,118,,98,98,9,16,7,6,0.6,0.6
2024-05-22T1300,2587A,105.2864,27.3125,毕节市,八中,,41,16,29,10,18,129,,75,75,7,10,5,5,0.4,0.5
2024-05-22T1300,2588A,105.31,27.2944,毕节市,师专,,,18,27,9,17,131,,76,76,,10,7,7,0.4,0.4
2024-05-22T1300,3537A,105.3631,27.3533,毕节市,长征村,,45,17,31,12,24,141,,78,78,5,8,6,6,0.2,0.3
2024-05-22T1300,1629A,118.0018,37.3617,滨州市,第二水厂,臭氧1小时,121,97,68,53,35,242,,109,109,14,25,19,11,1.1,1
2024-05-22T1300,1630A,117.9776,37.393,滨州市,北中新校,臭氧1小时,110,88,78,46,38,220,,129,129,15,32,,12,1.2,1.1
2024-05-22T1300,3514A,117.9378,37.3956,滨州市,中海酒店,臭氧1小时,100,73,72,46,39,200,,102,102,10,24,11,15,1.3,1
2024-05-22T1300,3515A,117.9378,37.3553,滨州市,开发区一中,臭氧1小时,102,102,76,44,39,204,,100,100,5,21,16,13,0.8,0.7
2024-05-22T1300,3516A,118.0917,37.694,滨州市,金海六路,臭氧1小时,90,80,64,27,29,192,,105,105,8,19,13,9,0.7,0.6
2024-05-22T1300,4028A,117.9956,37.3753,滨州市,滨州市西街道办事处,臭氧1小时,118,95,69,56,44,236,,111,111,15,26,18,14,1.3,1.1
2024-05-22T1300,2311A,115.8072,33.8399,亳州市,污水处理厂,,45,35,39,24,24,142,,98,98,4,4,3,8,0.4,0.4
2024-05-22T1300,2312A,115.7789,33.8518,亳州市,三国揽胜宫,,46,43,42,21,20,145,,94,94,2,4,9,10,0.3,0.3
2024-05-22T1300,3332A,115.7633,33.8034,亳州市,亳州学院,,45,37,40,20,20,144,,94,94,2,4,9,9,0.3,0.3
2024-05-22T1300,2693A,82.0485,44.8556,博尔塔拉蒙古自治州,市党校,,31,31,24,8,8,89,,78,67,10,10,12,8,0.3,0.3
2024-05-22T1300,2694A,82.0806,44.8969,博尔塔拉蒙古自治州,市环保局,,30,28,26,12,10,93,,83,67,9,11,11,10,0.3,0.3
2024-05-22T1300,1071A,116.8842,38.2991,沧州市,沧县城建局,颗粒物(PM10),51,52,58,10,25,154,,112,112,7,27,3,5,0.5,0.6
2024-05-22T1300,1072A,116.8584,38.3254,沧州市,电视转播站,颗粒物(PM10),52,54,56,27,35,144,,102,102,3,20,1,7,0.3,0.3
2024-05-22T1300,1073A,116.8709,38.3228,沧州市,市环保局,颗粒物(PM10),60,70,60,25,31,148,,110,110,7,23,6,6,0.3,0.4
2024-05-22T1300,3324A,116.8136,38.3004,沧州市,河北水利电力学院,颗粒物(PM10),56,61,60,3,30,152,,113,113,6,23,6,7,0.2,0.4
2024-05-22T1300,2622A,97.1806,31.1273,昌都市,昌都监测站,臭氧1小时,55,17,15,11,12,164,,127,117,4,6,7,7,0.4,0.4
2024-05-22T1300,3719A,97.1714,31.1406,昌都市,昌都会议中心,臭氧1小时,75,7,14,3,8,180,,139,134,4,6,7,6,0.3,0.3
2024-05-22T1300,2690A,88.1236,43.8886,昌吉回族自治州,天山天池,,,0,2,,3,77,,47,47,11,6,15,12,0.7,0.5
2024-05-22T1300,2692A,87.2717,44.0297,昌吉回族自治州,新区政务中心,,33,24,22,11,13,105,,51,51,9,16,12,8,0.3,0.4
2024-05-22T1300,3613A,87.3095,44.0142,昌吉回族自治州,亚心广场,,36,22,25,7,8,113,,54,54,8,22,10,8,0.3,0.4
2024-05-22T1300,1119A,125.3325,43.9166,长春市,食品厂,颗粒物(PM10),64,77,53,26,20,135,,118,118,14,19,7,8,0.5,0.4
2024-05-22T1300,1120A,125.2863,43.9027,长春市,客车厂,颗粒物(PM10),64,77,58,31,22,126,,111,111,10,14,5,6,0.6,0.5
2024-05-22T1300,1121A,125.2841,43.8463,长春市,邮电学院,颗粒物(PM10),79,107,64,6,15,130,,117,117,13,16,8,9,0.5,0.4
2024-05-22T1300,1122A,125.3716,43.8772,长春市,劳动公园,颗粒物(PM10),66,82,54,27,17,139,,122,122,13,15,5,6,0.5,0.5
2024-05-22T1300,1123A,125.3297,43.8805,长春市,园林处,颗粒物(PM10),53,55,44,29,21,131,,120,120,14,16,6,7,0.6,0.5
2024-05-22T1300,1124A,125.4605,43.79,长春市,净月潭,颗粒物(PM10),56,62,36,25,10,141,,118,118,9,9,9,8,0.7,0.6
2024-05-22T1300,1126A,125.3863,43.8447,长春市,经开区环卫处,颗粒物(PM10),54,57,42,18,14,139,,119,119,13,16,6,7,0.7,0.6
2024-05-22T1300,1127A,125.245,43.7783,长春市,高新区管委会,颗粒物(PM10),56,61,40,16,15,137,,121,121,10,13,7,8,0.5,0.4
2024-05-22T1300,1128A,125.1761,43.8325,长春市,岱山公园,颗粒物(PM10),56,62,50,25,21,131,,113,113,10,14,5,6,0.5,0.5
2024-05-22T1300,1335A,113.0833,28.2325,长沙市,经开区环保局,,33,33,36,20,22,49,,52,47,15,9,7,7,0.5,0.5
2024-05-22T1300,1336A,112.8872,28.2189,长沙市,高开区环保局,,39,39,44,21,28,75,,57,57,10,20,5,5,0.6,0.7
2024-05-22T1300,1337A,113.0792,28.2053,长沙市,马坡岭,,25,24,37,17,26,58,,50,50,14,10,6,9,0.6,0.5
2024-05-22T1300,1338A,112.9394,28.19,长沙市,湖南师范大学,,35,32,37,24,26,66,,59,59,8,7,4,4,0.7,0.7
2024-05-22T1300,1339A,113.0178,28.1322,长沙市,雨花区环保局,,25,24,39,17,25,63,,41,40,8,12,4,5,0.2,0.3
2024-05-22T1300,1340A,112.9792,28.2597,长沙市,伍家岭,,40,40,43,19,25,49,,43,43,14,14,5,5,0.4,0.4
2024-05-22T1300,1341A,113.0014,28.1944,长沙市,火车新站,,42,34,38,29,28,60,,51,51,14,14,3,3,0.6,0.6
2024-05-22T1300,1342A,112.9844,28.1178,长沙市,天心区环保局,,29,29,40,15,23,57,,39,37,19,22,2,2,1.0,0.9
2024-05-22T1300,1343A,112.8908,28.1308,长沙市,湖南中医药大学,,42,33,40,29,30,77,,54,54,10,12,2,1,0.8,0.8
2024-05-22T1300,1344A,112.9581,28.3611,长沙市,沙坪,,34,34,46,16,18,61,,38,38,6,9,7,7,0.5,0.7
2024-05-22T1300,1727A,113.1147,36.1547,长治市,清华站,臭氧1小时,93,48,61,14,25,194,,144,144,9,18,10,11,0.4,0.3
2024-05-22T1300,1728A,113.1031,36.1989,长治市,监测站,臭氧1小时,97,50,62,22,28,197,,149,149,12,20,5,5,0.5,0.7
2024-05-22T1300,1730A,113.0886,36.2125,长治市,审计局,臭氧1小时,92,47,59,19,29,193,,150,150,6,14,13,16,0.2,0.4
2024-05-22T1300,1731A,113.0844,36.1856,长治市,长治八中,臭氧1小时,93,56,77,29,28,194,,151,151,11,24,8,12,0.5,0.7
2024-05-22T1300,3568A,113.06,36.0464,长治市,向阳小学,臭氧1小时,99,74,75,40,45,199,,160,160,8,14,11,11,0.6,0.7
2024-05-22T1300,3569A,112.8792,36.3144,长治市,屯留一中,臭氧1小时,93,43,62,10,30,194,,144,144,6,16,10,11,0.3,0.5
2024-05-22T1300,3570A,113.235,36.3489,长治市,潞城四中,臭氧1小时,105,75,76,20,32,210,,151,151,7,23,7,8,0.5,0.7
2024-05-22T1300,1854A,111.6975,28.9703,常德市,市二中,细颗粒物(PM2.5),74,61,58,54,39,170,,93,93,6,11,9,10,0.5,0.6
2024-05-22T1300,3138A,111.7153,29.0289,常德市,武陵区永安,臭氧1小时,57,49,55,34,39,165,,108,108,6,13,8,8,0.4,0.5
2024-05-22T1300,3139A,111.6892,28.9881,常德市,鼎城区玉霞,臭氧1小时,64,48,56,30,38,171,,88,88,4,12,8,8,0.4,0.6
2024-05-22T1300,3140A,111.6625,29.0531,常德市,武陵区长庚,,50,49,56,29,39,160,,105,105,4,11,9,10,0.6,0.7
2024-05-22T1300,1196A,119.9633,31.762,常州市,市监测站,,41,28,47,25,27,130,,63,63,18,29,16,13,0.8,0.6
2024-05-22T1300,1200A,119.9468,31.7069,常州市,武进监测站,,36,35,39,23,20,113,,57,57,17,23,18,12,0.6,0.6
2024-05-22T1300,1201A,119.9255,31.9087,常州市,安家,,36,29,47,25,26,102,,54,54,13,29,12,11,0.5,0.7
2024-05-22T1300,3002A,119.9805,31.8174,常州市,行政中心,,33,27,44,20,22,105,,57,57,13,29,14,14,0.2,0.4
2024-05-22T1300,3003A,120.0522,31.7748,常州市,经开区,,40,40,47,21,23,126,,65,65,15,32,13,12,0.4,0.5
2024-05-22T1300,3010A,119.9025,31.7964,常州市,钟楼,,45,45,39,23,23,117,,60,60,18,28,13,11,0.6,0.6
2024-05-22T1300,3429A,119.8598,31.7066,常州市,武进经发区,,34,31,37,21,19,108,,55,55,19,25,14,11,0.5,0.4
2024-05-22T1300,3430A,119.5826,31.7245,常州市,金坛城区,,34,27,30,17,20,108,,58,58,15,17,12,10,0.5,0.6
2024-05-22T1300,2220A,120.4318,41.5881,朝阳市,西梁,,50,40,41,20,30,159,,114,114,9,10,15,14,0.7,0.6
2024-05-22T1300,2221A,120.4521,41.5646,朝阳市,河畔小区,臭氧1小时,70,36,44,21,33,176,,129,129,8,8,11,11,0.6,0.6
2024-05-22T1300,2222A,120.4176,41.5648,朝阳市,八里堡,臭氧1小时,53,36,56,18,31,162,,114,114,13,13,10,11,0.9,0.8
2024-05-22T1300,2223A,120.3806,41.5969,朝阳市,农业园区,,,59,47,21,41,178,,117,117,9,12,11,12,,0.8
2024-05-22T1300,1705A,116.6367,23.6719,潮州市,西园路,,20,,13,6,10,63,,47,47,6,12,3,3,0.2,0.3
2024-05-22T1300,3026A,116.6183,23.6608,潮州市,市政府,,21,9,16,8,10,65,,46,46,6,14,6,8,0.7,0.7
2024-05-22T1300,4036A,116.6461,23.6761,潮州市,金山,,20,14,14,3,9,64,,47,47,5,10,6,6,0.5,0.7
2024-05-22T1300,2472A,113.0073,25.9061,郴州市,马头岭,,37,37,34,13,16,62,,49,49,8,8,5,4,0.6,0.6
2024-05-22T1300,2473A,113.0116,25.8226,郴州市,市职中,,30,28,29,21,27,59,,36,36,10,14,7,7,0.7,0.8
2024-05-22T1300,2474A,113.0161,25.8001,郴州市,兴隆步行街,,39,39,37,19,24,59,,47,47,6,10,7,6,0.7,0.8
2024-05-22T1300,2475A,113.0383,25.8071,郴州市,市审计局,,45,45,31,20,25,59,,37,37,5,11,4,3,0.7,0.7
2024-05-22T1300,2476A,113.0348,25.7759,郴州市,市环保局,,,,36,24,32,57,,37,37,9,16,,3,,0.9
2024-05-22T1300,1431A,103.9728,30.7236,成都市,金泉两河,臭氧1小时,82,60,53,29,33,185,,80,80,7,20,2,2,0.4,0.5
2024-05-22T1300,1432A,104.176,30.6872,成都市,十里店,臭氧1小时,89,27,40,8,20,191,,114,114,12,20,4,3,0.5,0.6
2024-05-22T1300,1433A,104.079,30.5706,成都市,三瓦窑,臭氧1小时,79,46,48,21,28,183,,96,96,10,33,3,3,0.5,0.6
2024-05-22T1300,1434A,104.1114,30.63,成都市,沙河铺,臭氧1小时,73,63,40,33,22,178,,96,96,13,23,6,5,0.5,0.5
2024-05-22T1300,1437A,104.0786,30.6531,成都市,君平街,臭氧1小时,102,42,44,33,26,204,,106,106,10,19,5,5,0.5,0.5
2024-05-22T1300,2880A,104.0239,30.65639,成都市,大石西路,臭氧1小时,103,50,45,24,23,205,,102,102,14,25,4,4,0.4,0.5
2024-05-22T1300,3136A,104.2725,30.5589,成都市,龙泉驿区区政府,,50,27,23,14,14,160,,111,111,5,8,4,3,0.5,0.5
2024-05-22T1300,3357A,104.0106,30.6931,成都市,金博路,臭氧1小时,101,45,49,28,29,202,,87,87,8,25,2,2,0.6,0.7
2024-05-22T1300,3359A,104.0578,30.5225,成都市,华阳,臭氧1小时,90,36,41,27,30,192,,112,112,6,19,2,2,0.5,0.6
2024-05-22T1300,3487A,104.2394,30.5319,成都市,车城东七路,,,39,38,27,24,158,,114,114,,12,3,3,0.5,0.5
2024-05-22T1300,3488A,104.3853,30.7453,成都市,青白江技师分院,臭氧1小时,53,18,22,7,10,162,,110,110,5,16,4,4,0.6,0.5
2024-05-22T1300,3489A,104.0789,30.4072,成都市,科学城,臭氧1小时,95,38,44,17,28,196,,115,115,8,17,5,4,0.7,0.7
2024-05-22T1300,4011A,103.8506,30.6947,成都市,光华大道三段,臭氧1小时,77,51,47,26,28,181,,82,82,7,18,1,2,0.4,0.5
2024-05-22T1300,1062A,117.9531,40.9081,承德市,铁路,臭氧1小时,85,30,36,11,15,188,,124,124,13,20,16,11,0.6,0.5
2024-05-22T1300,1063A,117.9392,40.9763,承德市,中国银行,,,,36,,14,192,,112,112,12,17,21,12,0.6,0.5
2024-05-22T1300,1064A,117.9503,40.928,承德市,开发区,臭氧1小时,90,49,40,23,21,192,,114,114,16,20,16,10,0.7,0.6
2024-05-22T1300,1065A,117.8051,40.9655,承德市,文化中心,臭氧1小时,98,62,46,25,15,198,,119,119,19,25,33,22,1.5,0.7
2024-05-22T1300,1066A,117.9268,41.0026,承德市,离宫,臭氧1小时,92,48,34,26,18,193,,113,113,11,13,18,7,0.7,0.5
2024-05-22T1300,2314A,117.47,30.6618,池州市,池州学院,,36,27,27,17,17,113,,68,68,6,11,6,5,0.4,0.5
2024-05-22T1300,3237A,117.4918,30.6617,池州市,展览馆,,33,21,25,18,14,105,,64,64,4,10,3,3,0.4,0.6
2024-05-22T1300,3333A,117.5627,30.695,池州市,第八中学,,34,27,24,18,15,108,,63,63,4,9,3,3,0.4,0.6
2024-05-22T1300,3334A,117.5038,30.6243,池州市,第十二中学,,34,24,27,11,16,107,,58,58,8,16,4,4,0.5,0.7
2024-05-22T1300,1744A,118.9233,42.2816,赤峰市,松山一中,,50,39,33,3,14,157,,144,144,20,20,13,11,0.5,0.5
2024-05-22T1300,1745A,118.9576,42.2728,赤峰市,哈达街,,48,34,38,20,13,152,,136,136,19,27,12,13,0.6,0.6
2024-05-22T1300,1746A,118.8788,42.2554,赤峰市,天义路,,,124,37,,14,155,,,,17,17,9,7,0.4,0.5
2024-05-22T1300,3058A,119.2658,42.0353,赤峰市,银河街,颗粒物(PM10),79,108,85,35,28,181,,118,118,15,23,12,19,0.5,0.8
2024-05-22T1300,3286A,118.9359,42.3147,赤峰市,桥北物流园区,,50,23,36,22,21,159,,140,140,17,18,8,6,0.7,0.7
2024-05-22T1300,2521A,107.3476,22.4136,崇左市,市环保局江州分局,,30,22,30,12,14,95,,41,41,7,12,10,8,0.6,0.6
2024-05-22T1300,2522A,107.3702,22.3707,崇左市,城南新区,,29,22,27,12,15,91,,38,38,4,15,6,6,0.5,0.5
2024-05-22T1300,2298A,118.3093,32.3153,滁州市,老年大学,,45,35,53,18,25,141,,76,76,10,25,10,9,0.5,0.6
2024-05-22T1300,2299A,118.3244,32.2786,滁州市,人大宾馆,,44,31,37,12,26,140,,76,76,10,22,7,8,0.5,0.7
2024-05-22T1300,3207A,118.3118,32.3038,滁州市,市政府原办公楼,,44,35,47,26,36,140,,76,76,8,24,7,8,0.5,0.7
2024-05-22T1300,3331A,118.3267,32.2634,滁州市,图书馆,,43,38,48,13,27,137,,77,77,11,25,9,10,0.6,0.8
2024-05-22T1300,2605A,101.5482,25.0441,楚雄彝族自治州,州环境监测站,,41,30,31,19,23,131,,75,75,6,22,5,9,0.5,0.6
2024-05-22T1300,2606A,101.538,25.0492,楚雄彝族自治州,市经济开发区,,40,28,34,19,23,126,,68,68,8,21,5,6,0.6,0.5
2024-05-22T1300,2548A,107.5277,31.2827,达州市,达州职业技术学院,,41,30,29,10,12,131,,69,69,5,26,5,6,0.3,0.4
2024-05-22T1300,2549A,107.5086,31.2186,达州市,市环境监测站,,40,34,38,9,13,128,,60,60,16,32,5,6,0.4,0.5
2024-05-22T1300,2550A,107.4988,31.2132,达州市,凤凰小区,,42,27,33,14,17,134,,71,71,10,26,6,7,0.4,0.5
2024-05-22T1300,2551A,107.5082,31.1986,达州市,达县机关宾馆,,41,27,36,15,17,129,,66,66,16,37,3,4,0.4,0.5
2024-05-22T1300,2552A,107.4644,31.2124,达州市,市政中心,,42,27,38,17,16,134,,68,68,11,27,6,6,0.8,0.9
2024-05-22T1300,2614A,100.1542,25.7054,大理白族自治州,大理市环境监测站,,44,27,32,15,17,138,,87,87,10,23,6,7,0.5,0.5
2024-05-22T1300,2615A,100.2171,25.5811,大理白族自治州,大理古城,,42,18,28,17,19,132,,82,82,9,16,6,6,0.5,0.5
2024-05-22T1300,1109A,121.612,38.9741,大连市,甘井子,,30,29,33,16,13,96,,58,58,14,18,9,9,0.6,0.6
2024-05-22T1300,1110A,121.565,38.9511,大连市,周水子,,30,30,32,16,18,86,,57,57,12,15,8,8,0.5,0.6
2024-05-22T1300,1111A,121.5637,38.8845,大连市,星海三站,,23,23,28,13,13,69,,52,49,9,9,7,6,0.4,0.5
2024-05-22T1300,1112A,121.6302,38.9117,大连市,青泥洼桥,,27,22,27,12,14,84,,58,58,10,12,7,6,0.7,0.7
2024-05-22T1300,1113A,121.6251,38.8638,大连市,傅家庄,,20,19,19,13,12,61,,51,51,18,13,8,7,0.5,0.5
2024-05-22T1300,1114A,121.5213,38.8661,大连市,七贤岭,,28,28,32,16,14,70,,52,49,13,15,8,7,0.4,0.4
2024-05-22T1300,1115A,121.2529,38.8061,大连市,旅顺,,26,19,18,15,11,81,,57,57,16,15,8,7,0.4,0.5
2024-05-22T1300,1116A,121.7485,39.1311,大连市,金州,,28,18,24,12,15,88,,65,65,6,10,10,9,0.6,0.6
2024-05-22T1300,1117A,121.7811,39.0496,大连市,开发区,,27,24,34,12,15,85,,58,56,6,16,6,4,0.5,0.6
2024-05-22T1300,1118A,121.9762,39.0631,大连市,双D港,,21,16,14,9,9,65,,65,51,18,11,7,7,0.5,0.6
2024-05-22T1300,1789A,124.81117,46.03138,大庆市,大同区,,32,27,82,22,32,99,,104,100,8,11,7,8,0.3,0.4
2024-05-22T1300,1790A,125.129,46.533,大庆市,龙凤区,,31,31,60,18,32,74,,88,80,21,20,5,8,0.3,0.4
2024-05-22T1300,1791A,124.902,46.408,大庆市,红岗区,,27,27,57,18,23,83,,93,89,10,12,7,8,0.3,0.4
2024-05-22T1300,1792A,125.153,46.586,大庆市,萨尔图区,,33,33,60,16,18,58,,86,71,26,16,8,9,0.3,0.3
2024-05-22T1300,1793A,124.9042,46.6215,大庆市,让胡路区,,32,32,45,13,22,67,,90,75,12,14,4,6,0.3,0.4
2024-05-22T1300,3481A,125.141,46.634,大庆市,萨区政府监测点,,30,30,64,3,21,64,,89,71,16,17,8,9,0.2,0.5
2024-05-22T1300,1723A,113.2994,40.0758,大同市,云冈宾馆,臭氧1小时,73,57,76,23,31,178,,136,136,11,24,6,12,0.3,0.5
2024-05-22T1300,1724A,113.3444,40.0917,大同市,大同大学,臭氧1小时,69,68,61,34,33,175,,132,132,10,20,13,16,0.3,0.4
2024-05-22T1300,1725A,113.2661,40.1269,大同市,安家小村,颗粒物(PM10),75,100,92,46,39,167,,123,123,10,21,9,15,0.3,0.4
2024-05-22T1300,1726A,113.2711,40.0844,大同市,教育学院,臭氧1小时,73,88,92,24,33,178,,119,119,13,29,8,14,0.4,0.6
2024-05-22T1300,3282A,113.3397,40.0597,大同市,大同市卫生学校,臭氧1小时,72,87,77,26,32,177,,132,132,9,25,8,13,0.8,0.9
2024-05-22T1300,3565A,113.1367,40.1122,大同市,云冈站,细颗粒物(PM2.5),140,,90,107,46,176,,127,127,7,22,7,14,0.4,0.5
2024-05-22T1300,3566A,113.1186,40.2556,大同市,图书馆,细颗粒物(PM2.5),89,106,84,66,40,158,,123,123,11,20,11,16,0.6,0.8
2024-05-22T1300,3567A,113.5931,40.0461,大同市,区一中,臭氧1小时,101,106,65,37,24,201,,147,147,14,20,4,5,0.4,0.5
2024-05-22T1300,3676A,113.2802,40.0995,大同市,第二人民医院,颗粒物(PM10),74,98,88,29,33,177,,127,127,7,20,10,14,0.4,0.5
2024-05-22T1300,2269A,124.1069,50.4097,大兴安岭地区,科技局,,28,21,22,12,18,88,,82,82,2,4,2,3,0.1,0.2
2024-05-22T1300,3663A,124.1164,50.4278,大兴安岭地区,红旗社区,,,9,10,,9,87,,82,82,2,4,8,8,0.2,0.2
2024-05-22T1300,1600A,124.3303,40.0625,丹东市,江湾东路,,29,12,22,3,12,90,,105,104,6,10,7,8,0.4,0.5
2024-05-22T1300,1601A,124.4256,40.1503,丹东市,临江后街,,30,8,21,3,12,93,,105,104,4,7,8,8,0.5,0.5
2024-05-22T1300,1602A,124.3933,40.1461,丹东市,元宝山,,26,10,23,3,14,83,,94,94,7,10,9,9,0.4,0.6
2024-05-22T1300,1603A,124.3633,40.1092,丹东市,民主桥,,26,12,26,3,13,81,,98,97,5,7,9,11,0.3,0.4
2024-05-22T1300,3541A,109.5726,19.5167,儋州市,第一中学子站,,28,28,19,15,13,69,,51,51,3,4,4,4,0.6,0.5
2024-05-22T1300,3542A,109.5567,19.5187,儋州市,东坡学校子站,,21,20,16,12,8,66,,48,48,2,3,3,3,0.7,0.7
2024-05-22T1300,2616A,98.5842,24.428,德宏傣族景颇族自治州,德宏州监测站,细颗粒物(PM2.5),52,52,47,36,33,114,,50,50,16,21,4,9,0.8,0.9
2024-05-22T1300,3677A,98.5881,24.4368,德宏傣族景颇族自治州,芒市人民政府综合楼,,45,44,45,31,26,107,,48,48,13,18,6,9,0.6,0.7
2024-05-22T1300,1901A,104.4239,31.1208,德阳市,东山公园,,48,39,38,22,18,151,,102,102,7,10,2,3,0.5,0.5
2024-05-22T1300,1902A,104.3826,31.1317,德阳市,西小区,臭氧1小时,55,46,38,25,23,164,,96,96,14,18,2,3,0.5,0.5
2024-05-22T1300,1904A,104.3553,31.1091,德阳市,耐火材料厂,臭氧1小时,89,43,43,20,22,191,,90,90,7,19,4,5,0.5,0.5
2024-05-22T1300,3639A,104.4019,31.1244,德阳市,市教育局,,48,39,36,16,19,151,,92,92,7,14,2,3,0.5,0.5
2024-05-22T1300,1622A,116.3032,37.4674,德州市,儿童乐园,臭氧1小时,64,73,73,19,43,171,,127,127,8,17,8,10,0.7,0.8
2024-05-22T1300,1624A,116.2991,37.4451,德州市,监理站,颗粒物(PM10),62,73,67,29,49,166,,122,122,5,14,13,13,0.4,0.6
2024-05-22T1300,3066A,116.2721,37.4379,德州市,九衢泉纯净水厂,颗粒物(PM10),59,68,74,22,38,156,,112,112,11,21,6,8,0.5,0.6
2024-05-22T1300,3371A,116.3728,37.4403,德州市,开发区人民医院,颗粒物(PM10),60,70,70,22,36,166,,114,114,3,16,9,11,0.5,0.6
2024-05-22T1300,3372A,116.3572,37.4094,德州市,太阳城中学,颗粒物(PM10),64,78,69,19,39,162,,104,104,6,20,7,8,0.7,0.7
2024-05-22T1300,3511A,116.5652,37.3319,德州市,陵城艺术中心,颗粒物(PM10),64,78,69,22,41,155,,108,108,9,17,10,10,0.6,0.6
2024-05-22T1300,2621A,99.7056,27.8317,迪庆藏族自治州,迪庆州站,,34,16,19,8,10,107,,66,66,9,11,8,9,0.4,0.5
2024-05-22T1300,3180A,99.7136,27.8094,迪庆藏族自治州,质量技术监督局,,33,20,24,6,8,104,,65,65,10,11,7,7,0.4,0.4
2024-05-22T1300,2663A,104.6241,35.5734,定西市,东关小学,,45,45,51,20,22,139,,106,106,6,11,4,4,0.3,0.2
2024-05-22T1300,2664A,104.6194,35.5934,定西市,供电公司,,42,32,47,12,23,134,,97,97,2,10,6,5,0.3,0.3
2024-05-22T1300,1389A,113.7547,23.0494,东莞市,莞城梨川,,40,33,17,21,13,125,,47,47,18,25,8,8,0.8,1
2024-05-22T1300,1390A,113.7944,23.0128,东莞市,东城石井,,49,40,23,30,13,156,,48,48,22,20,7,7,0.8,0.8
2024-05-22T1300,1391A,113.7383,22.9658,东莞市,南城西平,,38,36,21,23,13,119,,39,39,19,31,6,7,0.8,0.8
2024-05-22T1300,3319A,113.7338,23.0381,东莞市,万江金泰,,36,36,18,21,10,103,,37,37,14,21,8,8,0.8,0.7
2024-05-22T1300,3626A,113.7533,23.0202,东莞市,南城元岭,细颗粒物(PM2.5),54,49,17,38,12,127,,44,44,18,19,7,7,0.8,0.8
2024-05-22T1300,3627A,113.7875,23.0457,东莞市,东城主山,,44,44,20,26,11,138,,46,46,18,21,8,8,1.0,0.9
2024-05-22T1300,1666A,118.6614,37.4309,东营市,市环保局,臭氧1小时,101,95,41,44,24,202,,109,109,12,18,12,12,0.3,0.1
2024-05-22T1300,3036A,118.6904,37.4338,东营市,开发区管委会,臭氧1小时,107,94,49,46,25,213,,105,105,14,20,10,9,0.6,0.4
2024-05-22T1300,3365A,118.5719,37.565,东营市,垦利区民丰路,臭氧1小时,116,90,51,46,26,232,,112,112,16,18,15,12,0.9,0.8
2024-05-22T1300,3498A,118.5055,37.8612,东营市,河口城区,臭氧1小时,121,88,48,51,27,241,,121,121,15,17,9,8,0.6,0.4
2024-05-22T1300,3646A,118.4978,37.4623,东营市,胜利站,臭氧1小时,122,81,52,46,25,244,,120,120,16,22,11,10,1.0,0.9
2024-05-22T1300,3734A,118.35,37.26,东营市,理想之城,臭氧1小时,105,85,49,48,26,210,,100,100,16,20,17,13,0.7,0.5
2024-05-22T1300,1591A,110.0023,39.8129,鄂尔多斯市,综合楼,臭氧1小时,79,83,107,34,39,183,,144,144,12,21,8,10,0.4,0.5
2024-05-22T1300,1592A,109.9486,39.8261,鄂尔多斯市,巴音孟克林场办事处,,,88,98,34,35,160,,133,133,8,13,7,9,,0.6
2024-05-22T1300,1593A,109.7736,39.5986,鄂尔多斯市,康泽苑,臭氧1小时,72,80,81,34,38,177,,152,152,10,13,9,8,0.3,0.3
2024-05-22T1300,1594A,109.8119,39.5989,鄂尔多斯市,华泰汽车城,,,,76,,31,165,,136,136,9,13,8,9,0.4,0.4
2024-05-22T1300,1595A,109.9734,39.7884,鄂尔多斯市,奥林花园,颗粒物(PM10),67,83,92,39,39,166,,129,129,8,18,8,9,0.5,0.5
2024-05-22T1300,2436A,114.8938,30.3994,鄂州市,市政府,,,18,37,13,18,132,,100,100,7,11,9,10,,0.5
2024-05-22T1300,2437A,114.8989,30.3714,鄂州市,赵家坝,,41,41,35,19,19,84,,64,61,2,6,6,8,0.8,0.7
2024-05-22T1300,3654A,114.8094,30.4089,鄂州市,精准医疗中心,,,31,41,8,18,80,,63,63,8,16,4,6,,0.6
2024-05-22T1300,2454A,109.4978,30.2981,恩施土家族苗族自治州,湖北民院,,44,37,39,24,27,138,,68,68,3,15,8,8,0.6,0.6
2024-05-22T1300,2455A,109.4707,30.2798,恩施土家族苗族自治州,州电力总公司,,43,38,38,24,25,136,,59,59,10,20,10,10,0.5,0.6
2024-05-22T1300,3549A,109.5061,30.3772,恩施土家族苗族自治州,龙凤新区,,40,37,35,23,24,127,,61,61,12,12,6,6,0.7,0.7
2024-05-22T1300,2499A,108.3411,21.6158,防城港市,沙万,,43,43,27,15,15,92,,63,63,10,11,8,6,0.9,0.7
2024-05-22T1300,2500A,108.3514,21.7731,防城港市,防城档案局,,,100,48,10,16,78,,52,52,,19,4,4,0.6,0.6
2024-05-22T1300,2501A,108.3506,21.6414,防城港市,大海花园,,27,20,26,13,12,86,,60,60,8,12,5,5,0.7,0.6
2024-05-22T1300,1371A,113.1294,23.0067,佛山市,湾梁,,30,19,20,12,10,96,,38,38,11,33,5,6,0.6,0.8
2024-05-22T1300,1372A,113.1083,23.0478,佛山市,华材职中,,34,17,21,8,9,108,,37,37,16,37,7,7,0.4,0.6
2024-05-22T1300,1373A,113.144,23.0453,佛山市,南海气象局,,29,28,20,12,10,92,,35,35,16,31,5,5,0.6,0.7
2024-05-22T1300,1374A,113.2881,22.8094,佛山市,顺德苏岗,,25,,10,17,11,67,,21,21,18,34,5,5,0.7,0.8
2024-05-22T1300,1376A,112.8383,22.8678,佛山市,高明孔堂,,33,23,27,15,13,104,,45,45,13,26,7,7,0.6,0.9
2024-05-22T1300,1377A,112.8836,23.1588,佛山市,三水监测站,,35,,16,24,14,98,,42,42,15,26,9,8,0.7,0.7
2024-05-22T1300,1378A,112.867,23.185,佛山市,三水云东海,,30,17,16,16,10,96,,40,40,11,17,7,4,0.6,0.7
2024-05-22T1300,3625A,113.2544,22.7642,佛山市,容桂街道办,,23,12,17,9,8,72,,24,24,27,41,6,6,0.6,0.7
2024-05-22T1300,1282A,119.2681,26.0504,福州市,师大,,18,14,9,7,4,55,,44,43,12,12,3,3,0.7,0.7
2024-05-22T1300,1283A,119.2984,26.1028,福州市,五四北路,,,,6,4,1,72,,58,58,11,13,3,3,0.6,0.5
2024-05-22T1300,1284A,119.2648,26.0768,福州市,杨桥西路,,19,18,8,10,3,59,,46,46,15,14,3,3,0.6,0.6
2024-05-22T1300,1285A,119.317,26.0746,福州市,紫阳,,28,28,11,16,5,41,,41,36,23,15,2,2,0.7,0.6
2024-05-22T1300,3048A,119.5799,26.0936,福州市,九龙,,20,15,9,8,3,64,,60,57,10,8,4,4,0.4,0.4
2024-05-22T1300,3526A,119.5189,25.9664,福州市,吴航,,25,9,8,8,6,77,,62,62,4,5,4,4,0.7,0.6
2024-05-22T1300,1755A,123.7977,41.8491,抚顺市,望花区,颗粒物(PM10),56,61,45,28,21,151,,113,113,15,28,4,6,0.5,0.7
2024-05-22T1300,1756A,123.9161,41.8822,抚顺市,顺城区,颗粒物(PM10),60,69,39,26,16,152,,120,120,12,17,9,9,0.8,0.4
2024-05-22T1300,1757A,124.0436,41.8611,抚顺市,东洲区,,49,49,28,30,19,149,,119,119,7,13,6,6,0.6,0.5
2024-05-22T1300,1758A,123.9247,41.8642,抚顺市,新抚区,颗粒物(PM10),59,67,37,15,13,160,,123,123,9,16,7,7,0.6,0.5
2024-05-22T1300,1759A,124.0972,41.8961,抚顺市,大伙房水库,,47,44,27,24,15,148,,120,120,7,9,7,8,0.7,0.5
2024-05-22T1300,1760A,123.7086,41.8391,抚顺市,沈抚新城,颗粒物(PM10),56,62,36,30,17,157,,120,120,10,16,7,7,0.6,0.6
2024-05-22T1300,2376A,116.2127,28.0814,抚州市,桐源党溪,,32,32,25,22,13,83,,53,53,2,6,6,7,0.4,0.4
2024-05-22T1300,2377A,116.3544,27.9831,抚州市,市站,,,39,25,19,14,81,,32,,8,18,6,3,,0.9
2024-05-22T1300,2378A,116.3565,27.963,抚州市,血防站,,30,30,27,19,14,86,,50,50,9,12,3,3,1.1,1.1
2024-05-22T1300,2379A,116.3564,28.0007,抚州市,采茶剧团,,33,33,23,16,15,83,,50,50,7,10,8,4,0.9,0.9
2024-05-22T1300,2380A,116.385,27.9647,抚州市,医学分院,,30,30,25,11,11,76,,48,48,8,13,3,6,0.9,1
2024-05-22T1300,2207A,121.6094,41.998,阜新市,工业园区,,42,42,60,18,23,106,,108,97,12,11,7,10,0.6,0.6
2024-05-22T1300,2208A,121.6697,42.0279,阜新市,长青街,,41,41,52,20,27,112,,112,102,13,11,8,8,0.5,0.5
2024-05-22T1300,2209A,121.6673,42.0705,阜新市,农业园区,颗粒物(PM10),55,60,56,27,24,105,,106,96,14,12,7,8,0.6,0.5
2024-05-22T1300,2210A,121.6717,42.0224,阜新市,东苑,,40,40,49,17,22,110,,110,100,15,13,6,7,0.6,0.4
2024-05-22T1300,2211A,121.6506,42.0498,阜新市,玉龙新城,,32,32,54,18,22,88,,100,86,11,10,8,9,0.4,0.4
2024-05-22T1300,2301A,115.8277,32.8929,阜阳市,市监测站,,46,41,52,26,31,146,,98,98,8,15,7,8,0.4,0.5
2024-05-22T1300,2303A,115.8554,32.8605,阜阳市,开发区,,46,21,55,21,28,146,,98,98,6,12,6,7,0.2,0.4
2024-05-22T1300,2875A,115.784,32.8892,阜阳市,阜阳职业技术学院,,47,37,49,22,26,149,,100,100,8,13,6,8,0.3,0.4
2024-05-22T1300,3468A,115.7901,32.8613,阜阳市,市规划展馆,,47,46,56,16,32,150,,102,102,8,15,4,7,0.4,0.5
2024-05-22T1300,3469A,115.836,32.9183,阜阳市,枣园社区,颗粒物(PM10),58,65,56,22,32,148,,98,98,10,13,7,7,0.3,0.4
2024-05-22T1300,2669A,102.9099,34.9841,甘南藏族自治州,州政府,,47,36,51,18,25,149,,74,74,1,24,8,7,0.4,0.4
2024-05-22T1300,3380A,102.8914,34.9617,甘南藏族自治州,甘肃民族师范学院,,50,34,60,3,24,158,,63,63,3,30,8,7,0.4,0.3
2024-05-22T1300,2570A,101.9603,30.0475,甘孜藏族自治州,水桥子,,33,16,22,7,9,105,,46,46,3,13,3,2,0.2,0.3
2024-05-22T1300,3065A,101.9533,29.9972,甘孜藏族自治州,州环保局,,37,20,26,3,8,118,,60,60,8,17,2,2,0.2,0.2
2024-05-22T1300,3414A,115.8347,28.932,赣江新区,桑海产业园,,25,7,9,3,7,79,,56,56,8,14,8,8,0.5,0.3
2024-05-22T1300,2363A,114.9367,25.8664,赣州市,地委,,18,15,12,9,7,57,,42,42,8,5,19,13,0.6,0.5
2024-05-22T1300,2364A,114.9461,25.8481,赣州市,气象台,,18,18,13,10,8,56,,37,37,7,10,10,8,0.6,0.8
2024-05-22T1300,2365A,114.9322,25.8333,赣州市,市图书馆,,19,12,9,3,5,60,,38,38,6,8,6,6,0.8,0.9
2024-05-22T1300,2366A,114.8905,25.8471,赣州市,华坚鞋城,,27,27,20,8,8,51,,34,34,13,12,8,6,0.3,0.3
2024-05-22T1300,3109A,115.0093,25.8613,赣州市,赣县区卫计委,,20,8,8,3,7,61,,44,44,6,10,5,5,0.5,0.6
2024-05-22T1300,2683A,106.2319,36.1417,固原市,马园,,46,44,50,16,18,145,,119,119,13,26,5,5,0.2,0.3
2024-05-22T1300,2684A,106.2792,36.0022,固原市,监测站,,46,25,34,16,15,147,,124,124,8,12,4,4,0.3,0.3
2024-05-22T1300,2685A,106.2375,36.0211,固原市,新区,,46,33,35,11,13,145,,121,121,8,12,3,4,0.3,0.3
2024-05-22T1300,3522A,106.2177,35.9959,固原市,原州区十五小,,49,30,36,14,16,154,,123,123,5,10,4,4,0.4,0.5
2024-05-22T1300,2544A,106.6303,30.4576,广安市,市委,,47,22,38,16,19,148,,87,87,8,21,8,8,0.5,0.6
2024-05-22T1300,2545A,106.6271,30.4663,广安市,友谊中学,,46,26,29,13,19,146,,85,85,10,19,7,7,0.5,0.4
2024-05-22T1300,2547A,106.6388,30.4551,广安市,广电花园,,46,22,34,12,20,146,,82,82,9,20,9,9,0.6,0.7
2024-05-22T1300,2902A,106.6351,30.4865,广安市,北辰小学,,44,25,34,15,19,140,,85,85,8,13,9,9,0.5,0.5
2024-05-22T1300,2523A,105.8945,32.4535,广元市,黑石坡,,41,11,20,8,14,130,,98,98,7,8,7,8,0.4,0.4
2024-05-22T1300,2524A,105.821,32.4444,广元市,老城,,45,24,32,6,16,144,,78,78,7,23,1,2,0.6,0.5
2024-05-22T1300,2526A,105.8628,32.4287,广元市,监测站,,47,12,31,6,17,150,,93,93,5,10,8,6,0.4,0.4
2024-05-22T1300,3617A,105.8047,32.4166,广元市,经开区,,47,41,41,27,27,149,,91,91,7,13,8,4,0.5,0.5
2024-05-22T1300,1345A,113.2347,23.1423,广州市,广雅中学,,29,21,20,10,14,92,,32,32,32,45,5,5,0.7,0.8
2024-05-22T1300,1346A,113.2612,23.105,广州市,市五中,,31,19,14,13,11,98,,37,37,19,26,5,5,0.6,0.6
2024-05-22T1300,1348A,113.3478,23.0916,广州市,广东商学院,,25,15,18,8,7,78,,29,29,17,31,4,4,0.6,0.7
2024-05-22T1300,1349A,113.4332,23.1047,广州市,市八十六中,,23,21,14,9,7,72,,30,30,29,30,3,3,0.6,0.7
2024-05-22T1300,1350A,113.3505,22.9483,广州市,番禺中学,,25,16,18,9,12,78,,28,28,21,37,4,4,0.5,0.7
2024-05-22T1300,1351A,113.2146,23.3916,广州市,花都师范,,28,10,15,7,10,88,,40,40,9,18,6,6,0.6,0.6
2024-05-22T1300,1352A,113.2597,23.1331,广州市,市监测站,,30,21,19,9,9,95,,33,33,22,34,5,5,0.6,0.6
2024-05-22T1300,1353A,113.5618,23.312,广州市,九龙镇镇龙,,21,8,13,6,9,66,,28,28,6,18,6,6,0.5,0.5
2024-05-22T1300,1354A,113.2765,23.1544,广州市,麓湖,,27,18,17,13,10,86,,30,30,19,24,5,5,0.7,0.8
2024-05-22T1300,1355A,113.443,23.3035,广州市,帽峰山森林公园,,25,,4,3,5,80,,42,42,8,11,5,5,0.5,0.5
2024-05-22T1300,2846A,113.3221,23.1322,广州市,体育西,细颗粒物(PM2.5),88,,14,65,17,82,,32,32,17,25,3,3,0.6,0.6
2024-05-22T1300,3298A,113.5717,23.5491,广州市,从化街口,,,11,13,9,8,79,,33,33,,22,6,6,0.6,0.8
2024-05-22T1300,3299A,113.3472,23.3692,广州市,白云竹料,,,9,13,3,8,89,,37,37,9,23,4,4,,0.7
2024-05-22T1300,3300A,113.2981,23.237,广州市,白云嘉禾,,37,28,20,15,12,118,,38,38,24,38,5,5,0.8,0.9
2024-05-22T1300,3301A,113.4256,23.1716,广州市,黄埔科学城,,23,12,10,12,5,72,,38,38,10,16,4,3,0.7,0.7
2024-05-22T1300,3302A,113.3942,23.0483,广州市,番禺大学城,,23,16,11,9,9,72,,27,27,20,33,3,3,0.7,0.7
2024-05-22T1300,3303A,113.4922,22.8168,广州市,南沙黄阁,,35,33,27,24,16,51,,20,20,41,41,9,8,0.8,0.8
2024-05-22T1300,3304A,113.5342,22.7896,广州市,南沙街,,,36,27,26,15,89,,29,29,,40,8,9,0.6,0.6
2024-05-22T1300,3443A,113.2902,23.5544,广州市,花都梯面,,25,9,10,6,6,77,,44,44,4,9,6,6,0.6,0.6
2024-05-22T1300,3445A,113.7858,23.7478,广州市,从化良口,,16,7,7,3,0,50,,37,37,3,5,5,5,0.6,0.6
2024-05-22T1300,3446A,113.8051,23.2614,广州市,增城荔城,,28,19,8,19,5,89,,44,44,8,8,5,5,0.4,0.4
2024-05-22T1300,2506A,109.6047,23.0666,贵港市,江南子站,,35,,21,24,16,91,,48,48,7,15,7,8,0.5,0.7
2024-05-22T1300,2507A,109.6014,23.0948,贵港市,贵城子站,,26,19,24,13,15,81,,46,46,5,11,7,8,0.5,0.5
2024-05-22T1300,2508A,109.5669,23.1065,贵港市,荷城子站,,41,41,22,17,8,82,,45,45,14,11,9,10,0.5,0.4
2024-05-22T1300,3405A,109.5886,23.1172,贵港市,新世纪学校,,27,19,21,10,10,84,,46,46,6,10,10,11,0.6,0.6
2024-05-22T1300,1439A,106.6899,26.5998,贵阳市,马鞍山,,,29,15,19,7,,,16,,,11,7,7,0.5,0.5
2024-05-22T1300,1440A,106.6971,26.5694,贵阳市,市环保站,,39,,12,21,10,123,,67,67,8,12,4,4,0.3,0.4
2024-05-22T1300,1441A,106.6243,26.6266,贵阳市,鉴湖路,,37,29,17,14,8,118,,67,67,8,8,4,4,0.4,0.4
2024-05-22T1300,1442A,106.7487,26.6343,贵阳市,燕子冲,,32,22,12,22,11,102,,50,50,6,8,10,6,0.4,0.4
2024-05-22T1300,1443A,106.6555,26.4365,贵阳市,碧云窝,,40,36,14,14,3,125,,55,55,10,12,5,4,0.6,0.5
2024-05-22T1300,1444A,106.694,26.5161,贵阳市,中院村,,37,31,21,17,8,117,,57,57,6,12,7,7,0.5,0.6
2024-05-22T1300,1445A,106.7109,26.6027,贵阳市,红边门,,35,27,16,22,12,110,,57,57,10,13,4,4,0.5,0.5
2024-05-22T1300,1446A,106.7164,26.5699,贵阳市,新华路,,36,22,12,14,7,115,,63,63,6,9,3,2,0.4,0.4
2024-05-22T1300,1447A,106.674,26.5424,贵阳市,太慈桥,,37,24,11,14,5,117,,51,51,10,13,7,7,0.6,0.4
2024-05-22T1300,1862A,110.4144,25.3167,桂林市,电子科大尧山校区,,46,39,32,32,23,95,,74,74,6,6,6,5,0.7,0.6
2024-05-22T1300,1863A,110.2819,25.2697,桂林市,监测站,细颗粒物(PM2.5),55,53,34,39,28,100,,74,74,12,11,7,5,0.8,0.7
2024-05-22T1300,1864A,110.3089,25.2708,桂林市,龙隐路小学,颗粒物(PM10),51,52,31,30,22,99,,73,73,8,7,6,14,0.9,0.9
2024-05-22T1300,1865A,110.2869,25.2178,桂林市,八中,,44,44,33,30,21,96,,71,71,12,10,6,8,0.8,0.7
2024-05-22T1300,3403A,110.1764,25.2381,桂林市,创业大厦,,49,46,34,34,24,94,,59,53,11,13,23,18,0.8,0.7
2024-05-22T1300,3531A,110.296,25.1253,桂林市,旅游学院,,45,41,24,31,19,102,,64,64,7,8,9,10,0.7,0.6
2024-05-22T1300,2674A,100.2561,34.4714,果洛藏族自治州,玛沁县大武镇,,46,14,22,6,14,145,,85,85,17,18,10,9,0.4,0.4
2024-05-22T1300,1129A,126.5422,45.755,哈尔滨市,岭北,,43,43,74,25,23,122,,113,113,12,15,15,14,0.9,0.7
2024-05-22T1300,1130A,126.561,45.8167,哈尔滨市,松北商大,颗粒物(PM10),56,62,71,23,18,109,,102,102,10,13,6,6,0.5,0.5
2024-05-22T1300,1131A,126.979,45.5419,哈尔滨市,阿城会宁,颗粒物(PM10),74,97,69,44,24,128,,111,111,10,11,18,15,0.8,0.7
2024-05-22T1300,1132A,126.599,45.7222,哈尔滨市,南岗学府路,颗粒物(PM10),62,73,84,18,20,122,,113,113,12,13,7,6,0.7,0.6
2024-05-22T1300,1133A,126.689,45.7733,哈尔滨市,太平宏伟公园,细颗粒物(PM2.5),68,71,100,49,30,124,,112,112,14,16,8,7,0.6,0.5
2024-05-22T1300,1136A,126.6411,45.7258,哈尔滨市,动力和平路,细颗粒物(PM2.5),104,,79,78,35,117,,108,108,15,16,6,6,0.6,0.5
2024-05-22T1300,1137A,126.593,45.7478,哈尔滨市,道里建国路,,,,79,36,34,114,,104,104,15,17,10,9,0.5,0.4
2024-05-22T1300,1138A,126.615,45.61,哈尔滨市,平房东轻厂,细颗粒物(PM2.5),80,99,108,59,32,122,,109,109,8,11,8,8,0.7,0.5
2024-05-22T1300,1139A,126.595,45.9855,哈尔滨市,呼兰师专,,39,39,79,21,23,103,,105,105,9,14,6,8,0.4,0.4
2024-05-22T1300,1140A,126.6206,45.6842,哈尔滨市,省农科院,颗粒物(PM10),63,76,104,36,31,125,,112,112,11,14,8,8,0.6,0.5
2024-05-22T1300,2688A,93.5128,42.8172,哈密市,地区监测站,颗粒物(PM10),92,134,425,41,106,84,,83,83,11,10,5,4,0.3,0.3
2024-05-22T1300,2689A,93.4961,42.8328,哈密市,哈密师范学校,颗粒物(PM10),98,146,339,35,86,82,,82,80,7,7,4,5,0.5,0.4
2024-05-22T1300,2671A,100.9048,36.9639,海北藏族自治州,海晏县西海镇,,47,27,36,19,19,148,,98,98,6,9,12,11,0.4,0.4
2024-05-22T1300,3867A,102.0738,36.5056,海东市,平安区公安北苑,臭氧1小时,54,47,58,22,31,163,,98,98,10,12,11,11,0.4,0.4
2024-05-22T1300,1410A,110.3232,20.0574,海口市,海南大学,,26,11,17,7,10,81,,83,81,8,9,4,5,0.5,0.5
2024-05-22T1300,1411A,110.283,20.0053,海口市,秀英海南医院,,22,16,15,6,12,69,,80,76,11,9,5,5,0.4,0.4
2024-05-22T1300,1412A,110.338,19.9969,海口市,海南师范大学,,26,13,14,3,10,82,,82,82,3,5,6,6,0.4,0.5
2024-05-22T1300,1413A,110.33,20.0356,海口市,龙华路环保局宿舍,,25,12,16,7,11,78,,78,76,8,12,6,6,0.4,0.4
2024-05-22T1300,3539A,110.5111,19.9736,海口市,桂林洋子站,,25,6,18,3,9,80,,74,74,5,5,5,5,0.3,0.4
2024-05-22T1300,2673A,100.6188,36.2866,海南藏族自治州,共和县恰卜恰镇,,43,19,37,3,16,135,,96,96,8,14,7,11,0.7,0.5
2024-05-22T1300,2676A,97.3731,37.3753,海西蒙古族藏族自治州,德令哈市,,47,47,43,12,16,146,,117,117,11,10,9,7,0.6,0.6
2024-05-22T1300,1048A,114.5302,36.6116,邯郸市,东污水处理厂,,48,37,62,24,40,151,,103,103,3,19,8,8,0.3,0.4
2024-05-22T1300,1049A,114.4918,36.5713,邯郸市,矿院,颗粒物(PM10),51,51,75,17,35,149,,101,101,3,18,7,9,0.5,0.7
2024-05-22T1300,1050A,114.484,36.6133,邯郸市,丛台公园,颗粒物(PM10),55,60,61,25,33,153,,108,108,1,13,8,9,0.3,0.5
2024-05-22T1300,3458A,114.7895,36.5593,邯郸市,香泉濮院小区,颗粒物(PM10),53,56,70,15,31,157,,115,115,2,8,6,8,0.2,0.3
2024-05-22T1300,3579A,114.50634,36.77178,邯郸市,永年区实验高中,臭氧1小时,77,64,84,16,39,181,,108,108,3,22,5,5,0.2,0.5
2024-05-22T1300,3580A,114.20016,36.44293,邯郸市,峰峰矿区临水派出所,颗粒物(PM10),73,95,78,22,36,174,,140,140,2,7,8,9,0.5,0.9
2024-05-22T1300,2634A,106.9893,33.1842,汉中市,汉川机床厂子校,,45,38,33,21,19,141,,94,94,5,10,7,5,0.7,0.7
2024-05-22T1300,2635A,107.0154,33.0706,汉中市,市监测站,,,,54,30,32,138,,107,107,,18,10,15,0.5,0.7
2024-05-22T1300,2636A,107.0089,33.1138,汉中市,鑫源开发区,,47,42,47,30,28,148,,104,104,5,15,11,13,0.5,0.6
2024-05-22T1300,2637A,107.007,33.0323,汉中市,南郑大河坎水厂,,48,38,52,21,32,151,,93,93,5,11,8,10,0.4,0.6
2024-05-22T1300,1223A,120.2072,30.2111,杭州市,滨江,,42,42,51,21,25,98,,56,56,14,23,8,7,0.5,0.6
2024-05-22T1300,1224A,120.0633,30.2747,杭州市,西溪,,38,38,39,25,24,100,,54,54,20,20,9,7,0.5,0.5
2024-05-22T1300,1226A,120.3461,30.3153,杭州市,下沙,,34,33,38,15,18,108,,63,63,9,23,10,10,0.3,0.4
2024-05-22T1300,1227A,120.1269,30.2456,杭州市,卧龙桥,,38,38,36,24,27,97,,58,58,18,20,7,7,0.5,0.5
2024-05-22T1300,1228A,120.1903,30.2692,杭州市,浙江农大,,33,33,40,21,24,87,,50,50,16,23,10,10,0.3,0.3
2024-05-22T1300,1230A,120.1197,30.3119,杭州市,和睦小学,,,23,31,18,16,106,,67,67,,27,,6,0.4,0.4
2024-05-22T1300,1231A,120.3019,30.4183,杭州市,临平镇,,32,29,39,16,24,101,,60,60,11,16,8,7,0.3,0.4
2024-05-22T1300,1232A,120.2697,30.1819,杭州市,城厢镇,,37,37,45,21,29,102,,56,56,17,29,10,8,0.5,0.6
2024-05-22T1300,1233A,120.0883,30.1808,杭州市,云栖,,44,44,47,22,23,104,,51,51,22,28,11,9,0.5,0.6
2024-05-22T1300,3557A,119.9464,30.0494,杭州市,镇二中,细颗粒物(PM2.5),53,52,45,37,33,105,,52,52,25,26,13,10,0.7,0.7
2024-05-22T1300,3558A,119.7183,30.2367,杭州市,市府大楼,,46,42,38,32,26,122,,68,68,20,21,10,7,0.5,0.5
2024-05-22T1300,3656A,120.1556,30.2864,杭州市,消防大队,,33,33,41,20,25,98,,62,62,14,22,11,9,0.5,0.6
2024-05-22T1300,1270A,117.1959,31.7848,合肥市,明珠广场,,,41,51,27,32,133,,85,85,,22,11,9,0.6,0.7
2024-05-22T1300,1271A,117.3072,31.8764,合肥市,三里街,,46,46,51,24,29,136,,74,74,16,24,11,8,0.4,0.5
2024-05-22T1300,1272A,117.2588,31.8707,合肥市,琥珀山庄,,46,36,46,19,22,146,,88,88,9,17,14,11,0.4,0.5
2024-05-22T1300,1273A,117.1604,31.9052,合肥市,董铺水库,颗粒物(PM10),51,51,50,22,29,152,,93,93,8,16,4,2,0.3,0.4
2024-05-22T1300,1274A,117.25,31.8571,合肥市,长江中路,颗粒物(PM10),52,53,57,28,34,136,,84,84,10,18,10,7,0.5,0.6
2024-05-22T1300,1275A,117.266,31.9436,合肥市,庐阳区,,43,36,52,22,33,137,,80,80,13,23,11,9,0.3,0.5
2024-05-22T1300,1276A,117.336,31.8586,合肥市,瑶海区,颗粒物(PM10),57,63,49,23,30,136,,82,82,12,21,12,8,0.4,0.7
2024-05-22T1300,1277A,117.3027,31.7964,合肥市,包河区,,40,29,46,14,28,127,,79,79,9,33,11,9,0.3,0.4
2024-05-22T1300,1278A,117.2776,31.7385,合肥市,滨湖新区,,45,39,41,31,32,134,,84,84,7,13,9,7,0.4,0.4
2024-05-22T1300,1279A,117.1318,31.8403,合肥市,高新区,,40,29,46,15,31,128,,88,88,8,17,9,8,0.5,0.7
2024-05-22T1300,3464A,117.3803,31.9147,合肥市,高教基地,,43,29,45,3,26,135,,75,75,10,17,8,6,0.2,0.4
2024-05-22T1300,3614A,79.924,37.0877,和田地区,地区环保局,颗粒物(PM10),94,137,372,32,94,118,,115,104,3,4,6,6,0.5,0.4
2024-05-22T1300,3615A,79.9131,37.113,和田地区,市环保局,颗粒物(PM10),104,157,373,41,84,106,,97,83,8,16,10,7,0.8,0.6
2024-05-22T1300,2516A,108.2011,24.715,河池市,东仁乐园,,35,35,27,10,8,11,,6,6,6,8,3,3,0.8,0.8
2024-05-22T1300,2517A,108.0497,24.6947,河池市,市环保站,,29,29,21,12,12,73,,32,32,8,11,7,7,0.5,0.6
2024-05-22T1300,2518A,108.0983,24.6989,河池市,市疾控中心,,,,23,,12,72,,29,29,10,15,7,8,,0.5
2024-05-22T1300,1697A,114.6944,23.7586,河源市,东埔,,20,10,12,3,6,63,,34,34,8,15,6,6,0.7,0.7
2024-05-22T1300,1698A,114.6892,23.7233,河源市,老城,,20,,12,3,7,62,,29,29,2,13,5,5,0.5,0.7
2024-05-22T1300,1718A,115.4208,35.2464,菏泽市,气象局,臭氧1小时,62,58,61,30,26,169,,120,120,10,17,4,5,0.4,0.4
2024-05-22T1300,1719A,115.4747,35.2375,菏泽市,市政协,臭氧1小时,57,56,55,34,29,165,,113,113,8,14,2,4,0.3,0.2
2024-05-22T1300,3374A,115.5564,35.0891,菏泽市,定陶老年大学,,46,41,50,24,22,146,,104,104,8,14,3,5,0.6,0.7
2024-05-22T1300,3647A,115.4702,35.2706,菏泽市,菏泽医专,颗粒物(PM10),56,62,60,24,21,158,,110,110,7,14,4,4,0.2,0.2
2024-05-22T1300,2514A,111.5264,24.4172,贺州市,环保小区,,38,38,27,20,15,87,,44,44,8,13,6,6,0.7,0.7
2024-05-22T1300,2515A,111.5608,24.4078,贺州市,政协大楼,,38,34,29,26,15,95,,46,46,9,15,7,6,0.5,0.5
2024-05-22T1300,3534A,111.4744,24.4553,贺州市,西湾,,35,35,26,22,16,82,,46,46,8,13,8,8,0.7,0.6
2024-05-22T1300,2385A,114.17,35.9019,鹤壁市,市监测站,臭氧1小时,64,51,69,26,43,171,,103,103,1,13,9,10,0.5,0.7
2024-05-22T1300,2386A,114.2956,35.7511,鹤壁市,市交警支队,臭氧1小时,57,58,69,28,34,165,,107,107,8,20,9,9,0.4,0.5
2024-05-22T1300,2387A,114.2878,35.7306,鹤壁市,迎宾馆,颗粒物(PM10),63,75,69,26,44,166,,103,103,5,19,12,12,0.4,0.5
2024-05-22T1300,3474A,114.2617,35.6822,鹤壁市,大新区,颗粒物(PM10),54,57,71,18,31,158,,96,96,9,30,10,11,0.4,0.5
2024-05-22T1300,3596A,114.1572,35.9603,鹤壁市,南山宾馆,臭氧1小时,68,65,76,24,43,174,,114,114,6,16,11,13,0.4,0.6
2024-05-22T1300,2244A,130.2537,47.3416,鹤岗市,哈啤分公司,,33,33,35,12,12,88,,61,61,6,14,12,13,0.3,0.3
2024-05-22T1300,2245A,130.2684,47.3086,鹤岗市,斯达机电,,,39,32,14,14,84,,60,60,11,17,10,11,,0.4
2024-05-22T1300,2246A,130.3114,47.3388,鹤岗市,东山纸板厂,,32,32,49,15,14,92,,60,60,8,19,16,16,0.5,0.5
2024-05-22T1300,2247A,130.1097,47.3382,鹤岗市,五号水库,,36,36,23,12,9,102,,75,75,6,8,12,12,0.3,0.3
2024-05-22T1300,2263A,127.4833,50.2524,黑河市,交通局,,26,,22,18,20,65,,70,70,6,10,5,6,0.2,0.3
2024-05-22T1300,2264A,127.5144,50.2341,黑河市,环保局,,,15,28,,20,68,,74,73,7,11,4,5,0.2,0.4
2024-05-22T1300,2265A,127.5291,50.2472,黑河市,大黑河岛,,25,22,25,9,22,78,,75,75,5,12,7,7,0.4,0.5
2024-05-22T1300,1074A,115.6838,37.7541,衡水市,电机北厂,臭氧1小时,67,64,58,11,38,173,,119,119,5,14,5,6,0.2,0.4
2024-05-22T1300,1075A,115.6303,37.7316,衡水市,市监测站,臭氧1小时,70,57,59,15,37,176,,116,116,9,18,7,8,0.4,0.6
2024-05-22T1300,3188A,115.6683,37.7217,衡水市,市城管局,臭氧1小时,68,66,64,20,44,174,,116,116,8,18,4,5,0.3,0.5
2024-05-22T1300,3459A,115.5989,37.5491,衡水市,地表水厂,颗粒物(PM10),67,84,72,20,33,167,,106,106,8,22,4,4,0.2,0.4
2024-05-22T1300,2456A,112.5003,26.9167,衡阳市,原169医院,,,39,52,24,28,60,,52,51,6,9,5,6,,0.8
2024-05-22T1300,2457A,112.6194,26.9258,衡阳市,衡阳化工总厂,,33,33,48,22,26,72,,60,56,8,12,9,9,0.6,0.6
2024-05-22T1300,2458A,112.6211,26.8956,衡阳市,珠晖区环保局,,28,27,43,19,25,69,,64,56,9,14,8,7,0.7,0.7
2024-05-22T1300,2459A,112.6197,26.8733,衡阳市,市委党校,,,26,38,15,28,73,,76,62,,9,8,6,0.6,0.6
2024-05-22T1300,2460A,112.6006,26.8919,衡阳市,市监测站,,33,28,40,23,29,75,,73,63,8,9,9,8,0.6,0.6
2024-05-22T1300,2461A,112.5664,26.9056,衡阳市,真空机电公司,,28,23,41,19,26,68,,56,53,7,10,8,7,0.7,0.7
2024-05-22T1300,3399A,112.6703,26.882,衡阳市,师范学院,,23,23,42,16,33,73,,72,60,7,10,10,9,0.6,0.7
2024-05-22T1300,2608A,103.3772,23.3993,红河哈尼族彝族自治州,污水处理厂,,30,21,31,21,27,93,,74,74,7,10,7,9,0.4,0.4
2024-05-22T1300,2609A,103.3861,23.35,红河哈尼族彝族自治州,监测站,,29,29,30,16,17,79,,76,71,9,10,4,8,0.4,0.4
2024-05-22T1300,3038A,103.3758,23.368,红河哈尼族彝族自治州,州图书馆,,27,25,29,14,22,86,,77,76,5,8,4,4,0.4,0.4
2024-05-22T1300,1090A,111.6507,40.7517,呼和浩特市,呼市一监,臭氧1小时,99,110,99,25,36,199,,124,124,11,31,9,9,0.4,0.5
2024-05-22T1300,1091A,111.6572,40.8033,呼和浩特市,小召,颗粒物(PM10),90,129,89,29,33,185,,114,114,18,39,8,9,0.5,0.6
2024-05-22T1300,1094A,111.7516,40.8369,呼和浩特市,如意水处理厂,臭氧1小时,83,98,88,28,28,186,,108,108,13,38,9,8,0.5,0.5
2024-05-22T1300,1095A,111.7276,40.8062,呼和浩特市,二十九中,臭氧1小时,97,99,92,60,37,197,,116,116,13,40,5,5,0.5,0.6
2024-05-22T1300,1096A,111.5512,40.7866,呼和浩特市,工大金川校区,臭氧1小时,84,99,88,33,38,187,,111,111,12,40,7,9,0.4,0.5
2024-05-22T1300,1097A,111.717,40.7612,呼和浩特市,化肥厂生活区,臭氧1小时,93,125,107,46,42,194,,121,121,12,35,8,10,0.3,0.4
2024-05-22T1300,3698A,111.5968,40.8178,呼和浩特市,红旗小学,臭氧1小时,97,139,98,34,36,197,,110,110,16,48,4,6,0.4,0.4
2024-05-22T1300,3699A,111.6518,40.8389,呼和浩特市,海东办,颗粒物(PM10),96,141,90,37,36,191,,122,122,13,34,7,8,0.3,0.4
2024-05-22T1300,2192A,119.7594,49.2261,呼伦贝尔市,区环保局,,29,27,31,18,19,92,,80,80,6,10,5,4,0.3,0.4
2024-05-22T1300,3061A,119.7512,49.1577,呼伦贝尔市,国华电力东,,34,34,29,14,13,94,,85,85,3,5,4,4,0.2,0.3
2024-05-22T1300,1250A,120.0751,30.8669,湖州市,城西水厂,,40,40,30,22,17,106,,74,74,25,20,9,8,0.6,0.6
2024-05-22T1300,2873A,120.0875,30.8955,湖州市,仁皇山新区,,39,39,33,25,18,107,,69,69,32,25,10,9,0.5,0.5
2024-05-22T1300,2907A,120.1844,30.8596,湖州市,吴兴区站,,46,46,34,22,17,98,,70,70,28,17,10,9,0.4,0.4
2024-05-22T1300,3562A,120.4148,30.8538,湖州市,南浔区站,,38,38,32,20,19,111,,71,71,22,19,9,12,0.4,0.4
2024-05-22T1300,1607A,120.9092,40.7136,葫芦岛市,龙港区,细颗粒物(PM2.5),52,45,43,36,33,66,,85,57,11,8,6,7,0.4,0.7
2024-05-22T1300,1608A,120.8392,40.7514,葫芦岛市,化工街,,48,48,40,31,24,59,,86,50,17,14,10,10,1.3,1.3
2024-05-22T1300,1609A,120.8341,40.7073,葫芦岛市,新区,细颗粒物(PM2.5),58,,30,41,36,73,,94,60,11,9,6,6,0.6,0.6
2024-05-22T1300,1610A,120.8695,40.7677,葫芦岛市,东城区,,50,,26,35,31,73,,97,58,13,10,4,4,0.8,0.8
2024-05-22T1300,2482A,109.5981,27.5721,怀化市,林科所,,45,37,32,19,18,143,,102,102,14,14,5,4,0.5,0.5
2024-05-22T1300,2483A,109.9453,27.5444,怀化市,河西地税局,,42,42,38,23,23,118,,66,66,6,10,5,5,0.7,0.6
2024-05-22T1300,2484A,109.9781,27.5342,怀化市,市四医院,颗粒物(PM10),51,52,40,27,29,124,,70,70,8,14,4,6,0.5,0.4
2024-05-22T1300,2485A,109.9972,27.5578,怀化市,监测楼,,42,42,45,15,26,117,,71,71,4,9,8,12,0.6,0.6
2024-05-22T1300,2486A,110.0394,27.583,怀化市,市委党校,,38,,44,25,27,120,,71,71,4,14,6,15,0.6,0.7
2024-05-22T1300,1210A,119.036,33.5981,淮安市,钵池山,,31,22,22,14,16,97,,77,77,11,11,8,8,0.5,0.5
2024-05-22T1300,1211A,119.007,33.575,淮安市,北京南路,,34,24,25,15,16,107,,76,76,6,10,8,9,0.3,0.4
2024-05-22T1300,1212A,118.989,33.6067,淮安市,市监测站,,32,24,26,14,15,102,,72,72,10,13,7,7,0.4,0.5
2024-05-22T1300,1213A,119.135,33.5039,淮安市,楚州区监测站,,28,24,29,12,15,89,,70,70,8,14,8,8,0.5,0.5
2024-05-22T1300,1214A,119.0186,33.6297,淮安市,淮阴区监测站,,32,27,26,16,17,101,,74,74,10,15,7,7,0.4,0.4
2024-05-22T1300,3426A,118.8755,33.2894,淮安市,新华书店,,31,16,24,10,16,97,,73,73,6,10,7,6,0.3,0.3
2024-05-22T1300,2282A,116.8004,33.975,淮北市,监测站,,40,36,38,18,21,128,,82,82,2,4,5,5,0.5,0.5
2024-05-22T1300,2283A,116.8091,33.9007,淮北市,烈山区政府,,,53,49,19,16,130,,82,82,,7,5,5,0.4,0.4
2024-05-22T1300,3330A,116.8873,33.9836,淮北市,杜集区检察院,,43,42,44,25,29,136,,88,88,4,6,5,6,0.5,0.6
2024-05-22T1300,4017A,116.7923,33.9535,淮北市,市博物馆,,43,36,38,20,22,137,,89,89,2,3,5,4,0.5,0.5
2024-05-22T1300,2277A,116.8305,32.7727,淮南市,潘集区政府,,47,31,53,22,31,148,,88,88,5,14,8,8,0.2,0.3
2024-05-22T1300,2278A,117.0067,32.6524,淮南市,师范学院,,,30,55,15,32,125,,83,83,,8,9,10,0.1,0.2
2024-05-22T1300,2279A,116.8569,32.5951,淮南市,谢家集区政府,,43,29,51,13,20,135,,84,84,10,15,6,12,0.1,0.3
2024-05-22T1300,2280A,116.8281,32.633,淮南市,八公山区政府,,39,38,58,23,40,123,,74,74,4,12,5,5,0.3,0.5
2024-05-22T1300,2281A,116.6325,32.6201,淮南市,焦岗湖风景区管理处,,36,36,54,16,16,105,,62,62,8,25,6,4,0.2,0.3
2024-05-22T1300,2894A,117.0566,32.6531,淮南市,经济技术开发区消防队,,41,25,38,3,24,131,,86,86,7,15,4,6,0.2,0.4
2024-05-22T1300,3329A,117.0108,32.5893,淮南市,山南新区,,40,39,56,3,28,128,,88,88,6,11,5,6,0.2,0.4
2024-05-22T1300,2446A,114.9028,30.4742,黄冈市,职工中心,,31,20,43,11,29,99,,82,74,2,7,5,6,0.3,0.4
2024-05-22T1300,2929A,114.8858,30.4519,黄冈市,红卫路,,35,35,39,23,29,98,,79,77,7,6,7,11,0.5,0.5
2024-05-22T1300,3398A,114.9136,30.4445,黄冈市,市林业局,,,20,37,12,32,104,,84,78,2,5,3,3,,0.2
2024-05-22T1300,2672A,102.0199,35.5102,黄南藏族自治州,同仁县隆务镇,,47,29,43,17,19,150,,105,105,2,3,8,8,0.5,0.5
2024-05-22T1300,2295A,118.2903,29.6963,黄山市,延安路89号,,,,36,,8,83,,49,49,2,7,5,5,0.4,0.5
2024-05-22T1300,2296A,118.327,29.7178,黄山市,黄山东路89号,,26,26,24,3,6,79,,48,48,3,8,5,5,0.3,0.3
2024-05-22T1300,2297A,118.1371,30.2756,黄山市,黄山区政府5号楼,,28,,18,19,10,75,,50,50,4,7,4,4,0.4,0.3
2024-05-22T1300,2423A,115.0601,30.2313,黄石市,沈家营,,27,24,36,9,14,85,,68,68,9,12,22,20,0.7,0.6
2024-05-22T1300,2424A,115.0817,30.2006,黄石市,陈家湾,,30,21,31,15,15,96,,70,70,2,11,5,5,0.5,0.6
2024-05-22T1300,2426A,114.8988,30.2019,黄石市,铁山,,27,12,24,7,13,86,,70,70,7,8,5,10,0.4,0.4
2024-05-22T1300,2427A,115.0307,30.2092,黄石市,团城山,,31,18,35,6,9,97,,75,75,2,8,8,10,0.2,0.4
2024-05-22T1300,3149A,115.0235,30.1578,黄石市,笔架山北路,,31,16,33,3,8,97,,71,71,1,6,5,4,0.5,0.6
2024-05-22T1300,1392A,114.4183,23.0528,惠州市,河南岸金山湖子站,,20,14,10,8,6,64,,32,32,6,12,6,5,0.5,0.5
2024-05-22T1300,1393A,114.4053,23.0822,惠州市,下埔横江三路子站,,22,13,12,8,8,70,,39,39,7,12,7,7,0.6,0.7
2024-05-22T1300,1394A,114.4103,23.1142,惠州市,江北云山西路子站,,20,7,9,3,5,64,,33,33,2,11,5,5,0.6,0.6
2024-05-22T1300,1395A,114.4645,22.7833,惠州市,惠阳区承修路船湖子站,,21,19,12,11,9,65,,35,35,15,17,3,3,0.6,0.5
2024-05-22T1300,1396A,114.5317,22.7422,惠州市,大亚湾管委会子站,,32,29,12,22,9,91,,44,44,19,18,4,4,0.9,0.8
2024-05-22T1300,3314A,114.4338,22.8134,惠州市,惠阳秋长,,23,19,18,10,8,72,,42,42,10,14,5,5,0.7,0.7
2024-05-22T1300,3452A,114.6517,22.775,惠州市,大亚湾霞涌,,22,11,10,3,8,68,,36,36,6,8,5,5,0.3,0.3
2024-05-22T1300,2240A,130.9762,45.3001,鸡西市,环保局,颗粒物(PM10),53,55,30,18,10,90,,82,82,4,5,6,6,0.3,0.3
2024-05-22T1300,2243A,130.9429,45.3039,鸡西市,第一中学,颗粒物(PM10),55,59,31,10,10,116,,96,96,2,5,7,7,0.3,0.2
2024-05-22T1300,3707A,131.0207,45.3073,鸡西市,欧美日汽修厂,颗粒物(PM10),74,98,43,18,23,96,,82,82,8,9,7,6,0.4,0.4
2024-05-22T1300,3709A,130.9967,45.3106,鸡西市,市政设施管理处,颗粒物(PM10),60,70,39,15,12,110,,86,86,10,12,8,7,0.4,0.4
2024-05-22T1300,2367A,114.9754,27.0803,吉安市,红声器材厂,,26,26,21,10,9,70,,55,55,14,15,11,13,0.4,0.4
2024-05-22T1300,2368A,114.9658,27.0999,吉安市,市森林工业局,,20,20,25,11,15,63,,49,49,12,14,12,12,0.4,0.4
2024-05-22T1300,2369A,114.99,27.1312,吉安市,市环境监测站,,22,16,22,8,10,68,,50,50,10,13,12,12,0.5,0.6
2024-05-22T1300,2370A,115.0093,27.0968,吉安市,青原区法院,,24,24,22,11,13,71,,49,49,14,15,11,14,0.4,0.5
2024-05-22T1300,1772A,126.54,43.8622,吉林市,哈达湾,臭氧1小时,53,51,29,23,9,162,,127,127,6,9,5,5,0.6,0.6
2024-05-22T1300,1773A,126.5844,43.8358,吉林市,东局子,臭氧1小时,53,42,28,17,11,162,,123,123,8,14,4,4,0.5,0.5
2024-05-22T1300,1774A,126.5052,43.8245,吉林市,电力学院,,50,45,27,14,11,159,,121,121,6,10,8,8,0.5,0.5
2024-05-22T1300,1775A,126.6133,43.8972,吉林市,江北,颗粒物(PM10),57,63,30,25,12,157,,119,119,11,15,7,7,0.6,0.6
2024-05-22T1300,1776A,126.555,43.8306,吉林市,江南公园,颗粒物(PM10),55,59,34,18,14,157,,123,123,9,11,5,5,0.6,0.5
2024-05-22T1300,2868A,126.4739,43.953,吉林市,九站,颗粒物(PM10),65,80,43,26,12,164,,129,129,8,12,6,6,0.7,0.6
2024-05-22T1300,1299A,116.9862,36.6114,济南市,科干所,颗粒物(PM10),52,53,79,22,37,154,,117,117,7,19,8,9,0.4,0.9
2024-05-22T1300,1300A,116.9376,36.665,济南市,农科所,颗粒物(PM10),51,51,74,22,30,158,,111,111,9,24,6,7,0.5,0.6
2024-05-22T1300,1301A,117.1265,36.6734,济南市,开发区,臭氧1小时,75,46,83,29,40,180,,133,133,7,22,7,9,0.3,0.5
2024-05-22T1300,1303A,117.0624,36.6868,济南市,省种子仓库,臭氧1小时,58,53,89,24,39,166,,119,119,4,27,4,6,0.4,0.6
2024-05-22T1300,1304A,116.9489,36.6447,济南市,机床二厂,颗粒物(PM10),59,68,83,24,34,158,,118,118,5,17,9,11,0.5,0.7
2024-05-22T1300,1305A,117.0495,36.663,济南市,市监测站,臭氧1小时,64,54,80,29,35,171,,128,128,14,27,9,11,0.5,0.7
2024-05-22T1300,1306A,116.7675,36.5484,济南市,长清党校,颗粒物(PM10),58,66,68,24,37,146,,105,105,7,16,7,8,0.7,0.8
2024-05-22T1300,1616A,117.6795,36.229,济南市,技术学院,颗粒物(PM10),58,66,62,34,35,163,,91,91,12,23,12,12,0.6,0.9
2024-05-22T1300,1961A,117.532,36.6868,济南市,东山小学,臭氧1小时,73,66,81,27,37,178,,119,119,8,18,7,9,0.5,0.6
2024-05-22T1300,3059A,117.7161,36.2049,济南市,泰兴公司,颗粒物(PM10),54,58,63,29,31,160,,88,88,11,29,9,9,0.5,0.8
2024-05-22T1300,3064A,117.6867,36.2171,济南市,莱芜战役纪念馆,颗粒物(PM10),59,68,62,27,28,152,,82,82,12,24,11,9,0.4,0.7
2024-05-22T1300,3494A,117.1673,36.9782,济南市,济阳区政府,臭氧1小时,88,61,91,22,39,190,,105,105,14,31,8,10,0.2,0.5
2024-05-22T1300,3495A,117.1171,36.63,济南市,锦屏中学,臭氧1小时,70,54,80,24,39,176,,127,127,6,14,7,9,0.3,0.5
2024-05-22T1300,3682A,116.9814,36.6819,济南市,济南四建,,,46,75,24,38,153,,119,119,,23,8,9,0.6,0.8
2024-05-22T1300,1653A,116.6251,35.4302,济宁市,火炬城,颗粒物(PM10),58,66,52,27,22,144,,76,76,2,9,6,9,0.7,0.7
2024-05-22T1300,1655A,116.5491,35.4042,济宁市,电化厂,颗粒物(PM10),57,64,64,24,22,141,,81,81,2,10,8,7,0.7,0.8
2024-05-22T1300,3500A,116.5814,35.3707,济宁市,北湖一中,颗粒物(PM10),54,57,51,36,17,135,,74,74,4,9,5,8,0.3,0.3
2024-05-22T1300,3501A,116.8249,35.5593,济宁市,服务中心,颗粒物(PM10),64,78,57,22,22,147,,77,77,7,14,2,3,0.6,0.6
2024-05-22T1300,3678A,116.5907,35.4054,济宁市,市第七中学,颗粒物(PM10),60,70,61,22,20,151,,82,82,2,10,4,6,0.5,0.5
2024-05-22T1300,2255A,130.2751,46.8028,佳木斯市,佳纺,颗粒物(PM10),57,64,35,33,14,100,,107,105,11,6,5,4,0.5,0.4
2024-05-22T1300,2256A,130.3995,46.8307,佳木斯市,发电厂,,48,48,35,28,17,101,,106,104,10,11,7,6,0.5,0.4
2024-05-22T1300,2257A,130.3258,46.7975,佳木斯市,环保局,,45,45,33,27,14,96,,102,100,11,9,5,5,0.7,0.5
2024-05-22T1300,2258A,130.3648,46.8032,佳木斯市,十一中,颗粒物(PM10),54,57,39,27,16,98,,105,102,15,12,6,6,0.7,0.5
2024-05-22T1300,2259A,130.3794,46.7588,佳木斯市,四丰,,36,36,20,21,9,101,,108,107,9,6,1,1,0.8,0.6
2024-05-22T1300,1252A,120.7436,30.778,嘉兴市,清河小学,,36,33,30,23,17,113,,68,68,13,17,6,7,0.9,0.9
2024-05-22T1300,1253A,120.726,30.7478,嘉兴市,嘉兴学院,,36,36,28,19,16,110,,63,63,13,16,9,8,0.3,0.3
2024-05-22T1300,2872A,120.7846,30.7525,嘉兴市,南湖区残联,,39,39,41,18,19,115,,65,65,9,15,9,9,0.4,0.4
2024-05-22T1300,3407A,120.6916,30.7739,嘉兴市,秀洲住建,,38,35,29,26,18,119,,68,68,12,18,8,8,0.5,0.6
2024-05-22T1300,1945A,98.2908,39.7711,嘉峪关市,气象局,颗粒物(PM10),300,420,194,88,53,112,,95,95,13,30,31,29,0.9,0.7
2024-05-22T1300,2884A,98.2672,39.7978,嘉峪关市,酒钢宾馆,颗粒物(PM10),318,434,185,124,60,110,,93,93,9,18,45,32,0.6,0.5
2024-05-22T1300,3248A,98.2643,39.7724,嘉峪关市,雄关区,,,,126,,39,103,,89,89,,23,28,15,0.6,0.4
2024-05-22T1300,1383A,113.1064,22.6058,江门市,北街,,50,50,27,23,19,137,,45,45,25,44,6,4,0.7,0.8
2024-05-22T1300,1384A,113.0731,22.5835,江门市,西区,,44,24,25,20,14,139,,44,44,23,41,7,6,0.6,0.8
2024-05-22T1300,1385A,113.0219,22.5311,江门市,圭峰西,,36,24,22,9,12,115,,50,50,14,27,5,4,0.5,0.7
2024-05-22T1300,1386A,113.0828,22.5947,江门市,东湖,,43,40,30,28,15,135,,42,42,22,33,6,5,0.6,0.7
2024-05-22T1300,3311A,113.1075,22.5647,江门市,江海富民,,42,33,37,22,14,134,,43,43,25,42,6,5,0.7,0.8
2024-05-22T1300,1828A,113.227,35.2125,焦作市,市环保局,臭氧1小时,90,58,68,27,39,192,,136,136,8,14,2,4,0.3,0.5
2024-05-22T1300,3169A,113.2725,35.2067,焦作市,太极体育中心,臭氧1小时,92,74,79,26,41,193,,135,135,8,14,4,8,0.1,0.4
2024-05-22T1300,3335A,113.3137,35.2641,焦作市,马村街道办,臭氧1小时,74,76,79,26,38,179,,136,136,6,12,7,6,0.4,0.6
2024-05-22T1300,3336A,113.2465,35.2373,焦作市,焦作技师学院,臭氧1小时,67,50,71,27,39,173,,129,129,7,12,2,3,0.3,0.5
2024-05-22T1300,3477A,113.1656,35.2539,焦作市,中站许衡医院,臭氧1小时,67,45,62,22,31,173,,132,132,9,14,7,8,0.3,0.4
2024-05-22T1300,3981A,113.2449,35.1803,焦作市,原李万街道办,臭氧1小时,78,59,81,31,42,182,,131,131,14,20,7,12,0.3,0.5
2024-05-22T1300,1708A,116.3701,23.5345,揭阳市,新兴,,26,26,19,11,14,66,,54,54,11,17,5,5,0.5,0.5
2024-05-22T1300,1709A,116.3264,23.5443,揭阳市,西马,,21,15,22,10,11,67,,55,55,6,12,6,6,0.6,0.8
2024-05-22T1300,1710A,116.3611,23.5626,揭阳市,东兴,,21,20,21,8,12,66,,54,54,10,17,6,8,0.7,0.8
2024-05-22T1300,1711A,116.4151,23.5294,揭阳市,渔湖,,22,22,18,13,14,62,,52,52,5,12,6,5,0.6,0.7
2024-05-22T1300,3320A,116.403,23.5699,揭阳市,曲溪,,20,14,16,7,10,64,,52,52,12,16,5,6,0.5,0.6
2024-05-22T1300,1944A,102.1692,38.5167,金昌市,天庆家园,细颗粒物(PM2.5),105,146,168,79,81,145,,108,108,8,15,9,20,0.3,0.3
2024-05-22T1300,3170A,102.1864,38.5253,金昌市,市委党校,颗粒物(PM10),95,139,180,49,69,153,,123,123,4,7,10,9,0.5,0.5
2024-05-22T1300,4022A,102.1647,38.5371,金昌市,金川区人防中心,颗粒物(PM10),111,171,161,44,72,154,,117,117,5,9,14,11,0.5,0.6
2024-05-22T1300,1262A,119.647,29.077,金华市,十五中,,34,30,36,21,25,107,,68,68,6,20,6,5,0.4,0.4
2024-05-22T1300,1263A,119.686,29.1029,金华市,监测站,,,,38,,23,101,,60,60,9,26,4,3,0.4,0.4
2024-05-22T1300,3659A,119.656,29.1131,金华市,气象局,,33,33,37,16,21,102,,56,56,12,32,7,5,0.5,0.4
2024-05-22T1300,1767A,121.1115,41.0879,锦州市,南山,细颗粒物(PM2.5),70,,38,51,45,65,,98,60,15,11,9,8,0.5,0.5
2024-05-22T1300,1768A,121.0533,40.8434,锦州市,开发区,细颗粒物(PM2.5),54,48,37,38,38,70,,88,59,15,15,7,10,0.5,0.6
2024-05-22T1300,1769A,121.1836,41.1119,锦州市,百股街道,,42,31,31,29,22,72,,97,62,17,14,4,5,0.6,0.5
2024-05-22T1300,1770A,121.1178,41.1222,锦州市,天安街道,细颗粒物(PM2.5),54,48,38,38,33,62,,91,58,18,14,8,8,0.8,0.7
2024-05-22T1300,1771A,121.1303,41.1386,锦州市,北湖公园,,,61,43,59,48,62,,92,60,,13,8,9,0.7,0.7
2024-05-22T1300,2160A,112.85,35.5051,晋城市,自来水公司,臭氧1小时,67,37,81,9,29,173,,123,123,8,27,6,7,0.6,0.7
2024-05-22T1300,2161A,112.8318,35.4936,晋城市,白云商贸,臭氧1小时,67,57,80,9,29,173,,132,132,9,21,6,7,0.5,0.6
2024-05-22T1300,2162A,112.8508,35.4887,晋城市,市环保局,臭氧1小时,68,45,94,19,34,174,,122,122,8,30,6,8,0.5,0.6
2024-05-22T1300,2163A,112.8676,35.4897,晋城市,技术学院,臭氧1小时,70,42,73,14,30,176,,122,122,11,29,6,8,0.5,0.6
2024-05-22T1300,3620A,112.8271,35.4828,晋城市,泽州一中,臭氧1小时,62,51,79,12,28,169,,124,124,11,23,8,9,0.6,0.9
2024-05-22T1300,2171A,112.7532,37.6945,晋中市,锦纶小区,臭氧1小时,105,73,86,29,41,209,,128,128,16,23,16,14,0.5,0.5
2024-05-22T1300,2173A,112.7249,37.7067,晋中市,南都小区,臭氧1小时,104,66,77,20,33,208,,139,139,13,18,13,12,0.5,0.6
2024-05-22T1300,2174A,112.6991,37.6982,晋中市,榆次区政府,臭氧1小时,104,68,76,31,37,208,,137,137,14,20,14,13,0.5,0.6
2024-05-22T1300,2865A,112.7195,37.6828,晋中市,榆次三中,臭氧1小时,103,75,83,27,35,206,,129,129,11,20,13,12,0.8,0.8
2024-05-22T1300,2439A,112.2014,31.0481,荆门市,竹园小学,臭氧1小时,79,77,62,45,32,183,,114,114,11,24,11,11,0.6,0.6
2024-05-22T1300,2440A,112.1969,30.9891,荆门市,掇刀,臭氧1小时,89,81,57,46,35,191,,123,123,15,23,14,10,0.6,0.6
2024-05-22T1300,2441A,112.2213,31.0386,荆门市,石化一小,臭氧1小时,92,89,66,54,31,193,,126,126,12,24,11,13,0.6,0.7
2024-05-22T1300,3012A,112.1849,31.0362,荆门市,西山林语,臭氧1小时,85,72,53,38,31,188,,126,126,9,13,10,8,0.6,0.7
2024-05-22T1300,3547A,112.1632,31.0138,荆门市,龙泉中学南校,臭氧1小时,84,75,55,42,31,187,,118,118,13,20,10,9,0.5,0.6
2024-05-22T1300,1844A,112.2494,30.3197,荆州市,市图书馆,,50,43,39,26,27,160,,113,113,10,20,6,7,0.6,0.6
2024-05-22T1300,1845A,112.2008,30.3544,荆州市,市委党校,颗粒物(PM10),51,52,42,18,31,159,,112,112,10,18,7,8,0.7,0.6
2024-05-22T1300,3194A,112.2747,30.3122,荆州市,管委会,细颗粒物(PM2.5),63,,39,45,30,164,,106,106,7,21,5,6,0.6,0.6
2024-05-22T1300,3548A,112.1655,30.3364,荆州市,学苑路,臭氧1小时,72,,34,37,32,177,,116,116,6,15,6,6,0.6,0.5
2024-05-22T1300,2343A,117.2117,29.2933,景德镇市,老干部活动中心,,21,,16,9,10,67,,46,46,4,10,5,6,0.1,0.1
2024-05-22T1300,2344A,117.1894,29.2789,景德镇市,兽医站,,23,8,19,3,10,71,,53,53,5,6,5,7,0.2,0.4
2024-05-22T1300,2345A,117.1547,29.2617,景德镇市,台达陶瓷,,22,10,11,3,10,69,,53,53,7,8,11,7,0.3,0.2
2024-05-22T1300,2346A,117.2461,29.2956,景德镇市,陶研所,,,7,16,3,6,72,,48,48,,13,3,4,0.2,0.2
2024-05-22T1300,1803A,115.9872,29.6815,九江市,十里,,32,17,18,12,9,101,,58,58,7,12,9,9,0.5,0.5
2024-05-22T1300,1804A,115.9584,29.7046,九江市,茅山头,,29,16,14,15,11,91,,51,51,16,15,10,12,0.5,0.5
2024-05-22T1300,1805A,115.9877,29.7295,九江市,西园,,29,19,14,7,10,90,,56,56,36,24,12,12,0.7,0.6
2024-05-22T1300,1806A,116.0172,29.6547,九江市,五七二七厂,,27,17,11,10,9,85,,56,56,8,10,11,10,0.5,0.5
2024-05-22T1300,1808A,115.9114,29.6038,九江市,综合工业园,,29,29,15,19,9,77,,39,39,25,25,9,7,0.9,0.8
2024-05-22T1300,1809A,116.0721,29.7535,九江市,石化总厂,,31,14,19,7,12,99,,66,66,12,18,13,12,0.6,0.6
2024-05-22T1300,1810A,115.9773,29.5698,九江市,庐山气象台,,20,,22,14,5,63,,64,61,4,3,7,8,0.6,0.7
2024-05-22T1300,3190A,116.0254,29.6994,九江市,外国语学校,,30,20,15,9,11,95,,51,51,15,21,11,20,0.5,0.6
2024-05-22T1300,2658A,98.5061,39.7443,酒泉市,仓门街子站,颗粒物(PM10),135,219,182,39,41,110,,96,96,2,15,2,8,0.2,0.4
2024-05-22T1300,2659A,98.4989,39.7256,酒泉市,油田生活基地,颗粒物(PM10),139,227,189,41,51,114,,101,101,3,14,2,6,0.3,0.3
2024-05-22T1300,2698A,76.0072,39.4467,喀什地区,巡警大队,颗粒物(PM10),60,70,61,3,8,110,,,,11,24,3,3,0.2,0.3
2024-05-22T1300,2699A,75.9755,39.4694,喀什地区,吾办,颗粒物(PM10),54,57,62,23,20,105,,85,70,11,18,4,5,0.2,0.2
2024-05-22T1300,1824A,114.3389,34.7781,开封市,肿瘤医院,颗粒物(PM10),55,59,68,22,25,159,,108,108,4,17,1,4,0.3,0.5
2024-05-22T1300,1826A,114.2885,34.7965,开封市,世纪星幼儿园,,50,50,59,21,23,160,,116,116,6,14,2,4,0.3,0.3
2024-05-22T1300,3147A,114.3438,34.8106,开封市,龙亭公园,颗粒物(PM10),58,65,65,21,19,162,,112,112,5,16,4,6,0.5,0.5
2024-05-22T1300,3210A,114.3644,34.7964,开封市,汴京公园,臭氧1小时,53,54,69,25,28,162,,114,114,8,20,4,4,0.5,0.5
2024-05-22T1300,3473A,114.2485,34.8306,开封市,技师学院,,,50,63,,,161,,122,122,7,13,7,7,0.5,0.5
2024-05-22T1300,3592A,114.4644,34.7556,开封市,祥符区生态环境局,颗粒物(PM10),55,60,77,30,26,161,,108,108,8,33,6,7,0.4,0.4
2024-05-22T1300,1951A,84.895,45.6094,克拉玛依市,长征新村,,31,31,16,3,6,96,,64,64,10,9,9,8,0.2,0.2
2024-05-22T1300,1952A,84.8988,45.5893,克拉玛依市,南林小区,,30,29,16,12,9,94,,60,60,11,11,9,8,0.3,0.2
2024-05-22T1300,1954A,84.905,44.3396,克拉玛依市,独山子区,,33,25,18,11,9,103,,73,73,10,15,11,8,0.3,0.4
2024-05-22T1300,1955A,85.6979,46.098,克拉玛依市,乌尔禾区商贸楼,,,13,14,3,4,,,50,50,,6,8,8,0.2,0.2
2024-05-22T1300,3612A,85.1045,45.6899,克拉玛依市,白碱滩区新站,,30,17,13,3,6,96,,57,57,12,10,8,8,0.2,0.2
2024-05-22T1300,2697A,76.1454,39.7142,克孜勒苏柯尔克孜自治州,市人民政府,,39,39,31,17,17,124,,110,110,3,7,7,8,0.1,0.1
2024-05-22T1300,3665A,76.1658,39.7157,克孜勒苏柯尔克孜自治州,克州文化中心,,40,22,20,15,14,126,,113,113,3,3,8,8,0.2,0.2
2024-05-22T1300,1450A,102.8204,24.8886,昆明市,呈贡新区,,45,21,28,20,19,142,,105,105,9,11,7,7,0.6,0.6
2024-05-22T1300,1452A,102.7252,25.0902,昆明市,龙泉镇,,46,,25,17,12,145,,88,88,11,20,8,9,0.5,0.5
2024-05-22T1300,1453A,102.7266,25.0375,昆明市,东风东路,,,36,33,22,17,147,,94,94,,19,6,6,0.5,0.5
2024-05-22T1300,1454A,102.6742,25.0669,昆明市,金鼎山,,49,30,30,23,16,154,,101,101,16,18,5,5,0.5,0.5
2024-05-22T1300,1455A,102.6644,25.0401,昆明市,碧鸡广场,,43,23,30,15,18,136,,91,91,11,17,4,4,0.5,0.5
2024-05-22T1300,3179A,102.7494,25.0119,昆明市,官渡区博物馆,臭氧1小时,57,28,30,23,17,165,,98,98,13,27,9,9,0.4,0.5
2024-05-22T1300,3375A,102.8017,24.8336,昆明市,青年创业园,,49,33,31,18,18,155,,114,114,7,12,8,8,0.6,0.5
2024-05-22T1300,3550A,102.7997,24.9786,昆明市,昆明学院,,50,38,36,21,19,160,,94,94,13,20,9,9,0.5,0.5
2024-05-22T1300,3551A,102.5967,24.6736,昆明市,晋宁区生态环境分局,,46,29,29,17,22,146,,110,110,8,14,2,4,0.7,0.8
2024-05-22T1300,3552A,102.6678,24.9856,昆明市,云天化总部,,44,14,29,9,18,138,,104,104,5,15,10,11,0.6,0.6
2024-05-22T1300,1456A,91.1319,29.6514,拉萨市,八廓街,,46,17,24,11,14,146,,116,116,2,10,7,7,0.2,0.3
2024-05-22T1300,1457A,91.1221,29.6747,拉萨市,市环保局,,45,21,28,10,13,144,,109,109,10,19,6,6,0.2,0.3
2024-05-22T1300,1458A,91.0874,29.6475,拉萨市,区监测站,,44,13,27,9,14,138,,108,108,6,27,5,6,0.2,0.2
2024-05-22T1300,1459A,91.1774,29.6541,拉萨市,西藏大学,,47,15,20,3,10,149,,120,120,6,8,4,4,0.3,0.3
2024-05-22T1300,1460A,90.9798,29.6588,拉萨市,区辐射站,,39,15,25,8,13,122,,100,98,16,18,6,7,0.3,0.3
2024-05-22T1300,1461A,91.0834,29.6292,拉萨市,拉萨火车站,,42,17,25,7,12,132,,98,98,8,19,6,6,0.3,0.3
2024-05-22T1300,2520A,109.2203,23.7256,来宾市,来宾技工学校,,33,32,23,17,14,103,,53,53,6,11,6,4,0.8,0.7
2024-05-22T1300,3535A,109.1781,23.7297,来宾市,兴宾区政府,,31,26,20,17,13,99,,50,50,7,12,5,4,0.9,0.7
2024-05-22T1300,4002A,109.2416,23.7461,来宾市,中南小学,,40,40,24,17,13,108,,52,52,7,15,8,6,0.7,0.6
2024-05-22T1300,1476A,103.631,36.1031,兰州市,兰炼宾馆,臭氧1小时,63,33,54,20,30,170,,106,106,18,25,6,5,0.3,0.3
2024-05-22T1300,1478A,103.8412,36.0726,兰州市,生物制品所,,50,44,53,28,36,158,,108,108,12,19,11,10,0.4,0.3
2024-05-22T1300,1479A,103.831,36.0464,兰州市,铁路设计院,臭氧1小时,52,51,52,20,23,161,,102,102,21,29,6,6,0.4,0.4
2024-05-22T1300,3186A,103.7158,36.1058,兰州市,教育港,臭氧1小时,67,44,58,24,32,173,,105,105,12,18,8,8,0.4,0.3
2024-05-22T1300,3241A,103.7439,36.0842,兰州市,百合公园,臭氧1小时,53,35,45,20,23,162,,96,96,13,17,5,4,0.3,0.2
2024-05-22T1300,3242A,103.9611,35.998,兰州市,和平,,49,42,61,14,27,155,,112,112,7,14,9,9,0.4,0.4
2024-05-22T1300,3245A,103.6633,36.533,兰州新区,新区管委会,,34,34,56,23,38,107,,,,4,6,10,10,1.0,0.4
2024-05-22T1300,3246A,103.6975,36.4789,兰州新区,舟曲中学,颗粒物(PM10),55,59,69,28,25,155,,124,124,6,8,8,8,0.3,0.5
2024-05-22T1300,1067A,116.6708,39.5111,廊坊市,药材公司,臭氧1小时,106,105,66,61,39,211,,98,98,22,34,5,3,0.7,0.6
2024-05-22T1300,1068A,116.7214,39.5589,廊坊市,开发区,臭氧1小时,104,,71,59,41,208,,93,93,24,37,4,3,,0.5
2024-05-22T1300,1070A,116.7244,39.5269,廊坊市,北华航天学院,细颗粒物(PM2.5),114,127,80,86,62,205,,88,88,18,32,4,3,0.6,0.5
2024-05-22T1300,2919A,116.7022,39.5453,廊坊市,河北工业大学,臭氧1小时,105,122,74,62,45,209,,89,89,16,31,2,2,0.6,0.5
2024-05-22T1300,2535A,103.7723,29.5462,乐山市,花湖湾,,,,42,43,32,149,,60,60,,20,105,9,0.8,0.8
2024-05-22T1300,2536A,103.7627,29.5844,乐山市,牛耳桥,臭氧1小时,54,45,36,35,26,163,,83,83,12,23,8,10,0.5,0.6
2024-05-22T1300,2537A,103.7508,29.6006,乐山市,市第三水厂,,50,39,36,32,25,159,,82,82,9,21,4,5,0.4,0.5
2024-05-22T1300,2538A,103.7571,29.5664,乐山市,市监测站,细颗粒物(PM2.5),52,46,41,36,26,160,,79,79,7,18,9,9,0.9,1
2024-05-22T1300,3361A,103.7311,29.5628,乐山市,理工大学,臭氧1小时,64,41,41,31,27,171,,83,83,7,20,8,9,0.6,0.7
2024-05-22T1300,2599A,100.2497,26.8802,丽江市,丽江古城,,38,27,27,15,14,120,,83,83,10,13,6,6,0.5,0.5
2024-05-22T1300,2600A,100.2203,26.8906,丽江市,市中心,,,43,21,7,10,123,,80,80,,10,9,9,,0.8
2024-05-22T1300,1267A,119.914,28.4514,丽水市,监测站大楼,,35,33,20,24,12,87,,48,48,6,19,4,2,0.6,0.7
2024-05-22T1300,1268A,119.93,28.4586,丽水市,莲都小学,,30,30,23,19,13,90,,53,53,6,20,4,4,0.6,0.7
2024-05-22T1300,1269A,119.879,28.4231,丽水市,余庄前,,29,21,19,15,11,90,,39,39,5,15,4,4,0.5,0.5
2024-05-22T1300,1173A,119.176,34.5885,连云港市,市环境监测站,,39,39,29,22,18,105,,76,76,8,8,6,6,0.3,0.1
2024-05-22T1300,3000A,119.3581,34.6972,连云港市,德源药业,,,29,24,17,15,102,,75,75,8,7,7,5,,0.4
2024-05-22T1300,3007A,119.178,34.844,连云港市,新城一中,,46,37,25,32,19,112,,72,72,10,16,5,5,0.8,0.7
2024-05-22T1300,3008A,119.3608,34.7519,连云港市,胡沟管理处,,27,27,26,12,16,86,,70,70,3,13,7,7,0.4,0.4
2024-05-22T1300,3009A,119.1478,34.5911,连云港市,矿山设计院,,34,34,29,14,15,103,,74,74,7,8,4,5,0.6,0.6
2024-05-22T1300,3434A,119.2413,34.6539,连云港市,工贸学校,,49,49,24,30,16,111,,82,82,8,5,7,7,0.6,0.6
2024-05-22T1300,3664A,119.4172,34.7341,连云港市,连云街道,,35,35,35,17,21,77,,59,58,15,15,4,4,0.4,0.4
2024-05-22T1300,2571A,102.3431,27.8099,凉山彝族自治州,青龙寺,,43,20,19,10,12,137,,94,94,4,7,8,3,0.4,0
2024-05-22T1300,2572A,102.2721,27.8415,凉山彝族自治州,邛海宾馆,,42,28,21,17,13,132,,94,94,5,10,10,9,0.6,0.5
2024-05-22T1300,2573A,102.2625,27.898,凉山彝族自治州,西昌市政府,,45,36,25,26,16,144,,98,98,9,8,12,11,0.6,0.5
2024-05-22T1300,2574A,102.2685,27.8851,凉山彝族自治州,凉山州政府,,44,36,25,19,13,140,,101,101,8,10,9,8,0.7,0.5
2024-05-22T1300,2575A,102.237,27.8914,凉山彝族自治州,长安,,47,32,28,20,14,149,,100,100,11,13,10,9,0.6,0.5
2024-05-22T1300,2212A,123.2,41.1953,辽阳市,宏伟区,,31,30,21,13,11,98,,102,101,7,8,9,9,0.7,0.6
2024-05-22T1300,2213A,123.1683,41.2495,辽阳市,新华园,,34,30,28,16,16,107,,106,106,7,14,9,10,0.7,0.7
2024-05-22T1300,2214A,123.2354,41.2639,辽阳市,滨河路,,47,47,28,11,11,104,,99,99,9,12,7,10,0.5,0.4
2024-05-22T1300,2215A,123.149,41.2991,辽阳市,铁西工业园,,50,50,41,12,16,114,,107,107,10,16,11,13,0.5,0.9
2024-05-22T1300,2227A,125.1358,42.8845,辽源市,环保局,臭氧1小时,70,30,21,18,12,176,,137,137,8,15,6,7,0.6,0.5
2024-05-22T1300,3239A,125.0764,42.9078,辽源市,银鹰制药,臭氧1小时,67,30,20,17,8,173,,138,138,11,13,6,8,0.7,0.6
2024-05-22T1300,1625A,115.9848,36.4372,聊城市,区政府,颗粒物(PM10),59,67,70,27,28,144,,104,104,9,16,7,11,0.8,0.8
2024-05-22T1300,2878A,116.0072,36.4343,聊城市,聊大东校,颗粒物(PM10),55,59,63,35,33,156,,111,111,6,14,7,11,0.5,0.6
2024-05-22T1300,3200A,115.9819,36.4978,聊城市,监控中心,颗粒物(PM10),62,73,75,27,20,152,,115,115,9,17,7,11,0.8,0.8
2024-05-22T1300,3513A,116.0445,36.4361,聊城市,九州社区,颗粒物(PM10),67,84,82,25,29,152,,105,105,9,16,4,11,0.4,0.5
2024-05-22T1300,4018A,116.0567,36.4608,聊城市,星美广场,颗粒物(PM10),61,71,73,27,29,153,,108,108,10,17,4,10,0.6,0.6
2024-05-22T1300,2632A,94.3681,29.6376,林芝市,林芝监测站,,43,18,20,14,13,137,,94,94,2,3,6,6,0.3,0.3
2024-05-22T1300,2633A,94.3616,29.6616,林芝市,林芝人民医院,细颗粒物(PM2.5),69,,20,50,11,140,,98,98,5,6,7,7,0.4,0.4
2024-05-22T1300,2603A,100.0781,23.8982,临沧市,市环保局,,36,,38,25,28,111,,62,62,6,15,5,6,0.5,0.6
2024-05-22T1300,2604A,100.0894,23.8822,临沧市,市气象局,,35,27,38,24,30,109,,67,67,8,16,6,7,0.5,0.6
2024-05-22T1300,1733A,111.5531,36.0783,临汾市,临钢医院,臭氧1小时,98,95,86,25,27,198,,132,132,7,18,6,6,0.6,0.6
2024-05-22T1300,1734A,111.5028,36.0714,临汾市,技工学校,臭氧1小时,102,96,89,24,32,204,,148,148,10,20,6,8,0.6,0.8
2024-05-22T1300,1736A,111.5018,36.0855,临汾市,市委,臭氧1小时,106,75,90,25,28,211,,,,7,19,6,9,0.5,0.7
2024-05-22T1300,3018A,111.505,36.1014,临汾市,唐尧大酒店,臭氧1小时,74,87,98,20,28,179,,127,127,6,16,5,8,0.5,0.6
2024-05-22T1300,3668A,111.5036,36.0414,临汾市,城南,臭氧1小时,100,68,89,25,34,200,,132,132,7,22,7,8,0.4,0.6
2024-05-22T1300,2667A,103.2069,35.5993,临夏回族自治州,环保局,,46,37,72,14,29,147,,81,81,4,16,5,5,0.3,0.4
2024-05-22T1300,2668A,103.2417,35.6057,临夏回族自治州,建设大厦,,47,47,66,16,31,149,,88,88,6,13,12,11,0.3,0.3
2024-05-22T1300,1618A,118.3429,35.0532,临沂市,沂河小区,颗粒物(PM10),53,56,39,30,25,121,,79,79,8,12,6,6,0.3,0.2
2024-05-22T1300,1619A,118.295,35.0583,临沂市,鲁南制药厂,,49,44,34,34,22,132,,72,72,6,10,7,5,0.4,0.3
2024-05-22T1300,1620A,118.2794,34.9976,临沂市,新光毛纺厂,,48,44,29,33,22,129,,77,77,6,8,4,4,0.5,0.4
2024-05-22T1300,1621A,118.3956,35.0888,临沂市,河东保险公司,,48,48,33,25,17,118,,72,72,9,10,5,3,0.3,0.2
2024-05-22T1300,3370A,118.3564,35.0215,临沂市,十里堡居委,,48,48,34,31,24,118,,68,68,7,11,4,4,0.4,0.4
2024-05-22T1300,3496A,118.3604,35.1084,临沂市,南坊新区,,48,48,32,24,15,131,,78,78,8,13,7,5,0.5,0.4
2024-05-22T1300,3860A,118.3920,35.0300,临沂市,皇山花园小区,,50,44,39,35,25,128,,75,75,9,16,8,7,0.6,0.5
2024-05-22T1300,1870A,109.4856,24.3895,柳州市,柳东小学,,26,26,22,13,18,76,,47,47,7,12,9,11,0.6,0.6
2024-05-22T1300,1871A,109.4157,24.3277,柳州市,环保监测站,,39,39,31,27,19,85,,47,47,10,14,11,11,0.8,0.8
2024-05-22T1300,1872A,109.389,24.341,柳州市,河西水厂,,34,34,28,16,15,76,,44,44,7,13,12,12,0.8,0.9
2024-05-22T1300,1873A,109.4311,24.2921,柳州市,市四中,,49,49,27,18,17,88,,56,56,11,12,10,9,0.7,0.7
2024-05-22T1300,1874A,109.4006,24.3631,柳州市,市九中,,38,38,38,20,20,82,,49,49,12,16,9,12,0.5,0.7
2024-05-22T1300,1875A,109.4958,24.3134,柳州市,古亭山,,46,46,24,19,13,90,,50,50,8,12,8,9,0.5,0.6
2024-05-22T1300,3402A,109.5422,24.3996,柳州市,市二中,,39,39,28,20,15,79,,40,40,11,16,8,9,0.5,0.6
2024-05-22T1300,2307A,116.5079,31.737,六安市,监测大楼,,40,28,37,10,27,125,,84,84,5,11,4,5,0.4,0.5
2024-05-22T1300,2308A,116.4738,31.7643,六安市,皖西学院,,41,38,43,15,24,129,,93,93,6,10,3,3,0.4,0.5
2024-05-22T1300,2309A,116.4996,31.7905,六安市,朝阳厂,,37,21,39,16,26,117,,81,81,2,8,6,6,0.3,0.4
2024-05-22T1300,2310A,116.5567,31.7886,六安市,开发区,,39,34,43,24,29,123,,80,80,9,14,10,9,0.5,0.6
2024-05-22T1300,2577A,104.83,26.5917,六盘水市,黄土坡,,47,27,25,12,14,148,,103,103,10,10,10,6,0.6,0.3
2024-05-22T1300,2578A,104.89,26.5939,六盘水市,水钢,,45,45,39,28,24,142,,88,88,6,19,9,18,0.4,0.8
2024-05-22T1300,2579A,104.8475,26.5894,六盘水市,民中,,45,26,22,14,14,142,,102,102,14,11,15,7,1.0,0.5
2024-05-22T1300,2580A,104.9544,26.5506,六盘水市,双水,,45,19,26,9,14,144,,89,89,4,11,7,7,0.4,0.5
2024-05-22T1300,2336A,117.0217,25.1033,龙岩市,龙岩市监测站,,18,10,6,7,7,57,,56,52,11,11,4,7,0.4,0.4
2024-05-22T1300,2337A,117.0258,25.0661,龙岩市,闽西职业技术学院,,17,9,8,3,6,53,,51,48,9,9,4,4,0.5,0.6
2024-05-22T1300,2338A,117.0196,25.0306,龙岩市,龙岩学院,,19,9,9,3,4,60,,50,48,9,11,4,4,0.5,0.5
2024-05-22T1300,2885A,104.9339,33.3826,陇南市,滨江中学,,41,41,53,23,19,126,,93,93,1,6,6,10,0.6,0.6
2024-05-22T1300,3247A,104.955,33.371,陇南市,市总工会,,,31,36,15,9,124,,101,101,6,6,,8,0.5,0.4
2024-05-22T1300,2487A,111.9589,27.8901,娄底市,电视发射台,,49,49,41,30,26,82,,73,73,5,5,6,6,0.7,0.6
2024-05-22T1300,2488A,111.9975,27.725,娄底市,市监测站,颗粒物(PM10),55,59,60,22,35,90,,57,57,6,16,5,7,0.6,0.6
2024-05-22T1300,2489A,112.0194,27.7314,娄底市,市委党校,,,,49,,35,87,,52,52,,18,7,6,0.5,0.4
2024-05-22T1300,2490A,111.9561,27.7569,娄底市,涟钢,,45,45,51,30,32,68,,51,48,30,18,13,9,0.9,0.5
2024-05-22T1300,2491A,111.9892,27.7044,娄底市,市政府,,39,37,46,27,35,98,,50,50,7,15,7,7,0.5,0.5
2024-05-22T1300,1893A,105.4324,28.9634,泸州市,九狮山,,44,21,25,7,16,138,,66,66,7,12,6,6,0.3,0.4
2024-05-22T1300,1894A,105.4427,28.9063,泸州市,小市上码头,,48,20,27,19,18,153,,76,76,7,10,7,8,0.3,0.4
2024-05-22T1300,1895A,105.4241,28.8573,泸州市,兰田宪桥,,,,29,19,19,157,,71,71,11,16,6,7,0.2,0.4
2024-05-22T1300,1896A,105.4379,28.8833,泸州市,市环监站,,48,18,28,13,21,153,,69,69,8,15,7,12,0.4,0.5
2024-05-22T1300,3490A,105.3617,28.7703,泸州市,纳溪区环保局,,50,27,27,9,13,158,,70,70,9,19,2,2,0.3,0.4
2024-05-22T1300,2183A,111.1406,37.5211,吕梁市,环保局,臭氧1小时,78,49,70,29,29,182,,110,110,9,25,5,4,0.5,0.6
2024-05-22T1300,2185A,111.1297,37.5136,吕梁市,自来水公司,臭氧1小时,69,57,72,26,29,175,,92,92,9,24,7,7,0.5,0.5
2024-05-22T1300,2867A,111.1283,37.51,吕梁市,马茂庄小学,,,,76,21,30,178,,112,112,,36,5,5,0.4,0.5
2024-05-22T1300,1812A,112.3931,34.6516,洛阳市,市委党校,臭氧1小时,93,54,82,33,51,194,,120,120,6,22,5,7,0.5,0.7
2024-05-22T1300,1814A,112.4657,34.6871,洛阳市,豫西宾馆,臭氧1小时,101,74,96,33,47,201,,113,113,6,21,,8,0.5,0.7
2024-05-22T1300,1815A,112.494,34.6886,洛阳市,河南林校,臭氧1小时,95,59,77,31,45,196,,119,119,13,24,9,9,0.4,0.5
2024-05-22T1300,1816A,112.3844,34.623,洛阳市,开发区管委会,臭氧1小时,87,62,79,34,48,189,,115,115,8,18,6,6,0.2,0.4
2024-05-22T1300,1817A,112.4267,34.6258,洛阳市,市委新办公区,臭氧1小时,88,60,79,36,55,190,,121,121,6,15,8,9,0.3,0.4
2024-05-22T1300,3340A,112.6005,34.6326,洛阳市,伊滨,臭氧1小时,82,52,84,32,46,185,,116,116,10,25,9,8,0.4,0.5
2024-05-22T1300,3341A,112.4951,34.6332,洛阳市,中移产业园,臭氧1小时,84,57,76,32,45,187,,121,121,8,19,7,9,0.6,0.8
2024-05-22T1300,3593A,112.5736,34.8993,洛阳市,吉利监测站,臭氧1小时,85,73,79,20,36,188,,125,125,12,26,7,5,0.3,0.4
2024-05-22T1300,3635A,112.3677,34.662,洛阳市,河科大西苑校区,臭氧1小时,92,63,93,33,50,193,,109,109,6,28,6,9,0.6,0.7
2024-05-22T1300,3636A,112.4388,34.6781,洛阳市,英才小学,,,76,100,35,49,195,,105,105,,26,8,9,0.6,0.7
2024-05-22T1300,2399A,114.051,33.5699,漯河市,三五一五工厂,,50,46,59,30,27,160,,116,116,7,15,6,8,0.6,0.5
2024-05-22T1300,2400A,114.0055,33.5698,漯河市,漯河大学,颗粒物(PM10),58,66,65,36,35,161,,127,127,10,17,8,11,0.5,0.5
2024-05-22T1300,2401A,114.0138,33.5828,漯河市,市水利局,臭氧1小时,55,53,61,36,33,164,,125,125,5,10,7,9,0.4,0.4
2024-05-22T1300,2402A,114.0261,33.5698,漯河市,市广电局,臭氧1小时,53,51,58,33,28,162,,123,123,4,12,5,7,0.3,0.2
2024-05-22T1300,3478A,113.9749,33.5664,漯河市,市图书馆,"细颗粒物(PM2.5),臭氧1小时",57,52,56,40,29,165,,124,124,2,10,4,10,0.5,0.4
2024-05-22T1300,3479A,114.0967,33.5906,漯河市,召陵区卫健委,细颗粒物(PM2.5),68,,63,49,40,157,,100,100,5,16,5,8,0.5,0.5
2024-05-22T1300,1798A,118.5092,31.6837,马鞍山市,湖东路四小,,40,40,39,13,18,126,,89,89,9,14,10,8,0.5,0.6
2024-05-22T1300,1799A,118.5024,31.6449,马鞍山市,开发区,,42,42,42,19,20,129,,83,83,11,19,12,10,0.5,0.6
2024-05-22T1300,1800A,118.5228,31.7231,马鞍山市,慈湖,,39,26,38,22,21,122,,85,85,15,20,8,6,0.4,0.5
2024-05-22T1300,1802A,118.6245,31.7241,马鞍山市,濮塘,,40,33,30,18,26,126,,84,84,8,12,8,5,0.5,0.6
2024-05-22T1300,3633A,118.4918,31.6809,马鞍山市,雨山,,40,34,40,20,19,128,,90,90,7,12,13,10,0.5,0.6
2024-05-22T1300,1686A,111.0286,21.4688,茂名市,电白南海,,32,19,28,14,16,102,,53,53,8,12,10,12,0.5,0.5
2024-05-22T1300,1687A,110.9294,21.6533,茂名市,茂石化七小,,35,34,21,17,16,109,,52,52,14,14,9,12,0.8,0.8
2024-05-22T1300,1688A,110.9107,21.6687,茂名市,健康路,,34,34,22,22,10,105,,51,51,14,11,12,16,0.9,0.8
2024-05-22T1300,1689A,110.8592,21.6828,茂名市,高岭,,34,34,24,22,13,97,,46,46,14,14,15,12,0.8,0.5
2024-05-22T1300,3450A,111.01,21.5165,茂名市,电白水东,,32,17,20,9,13,102,,56,56,9,14,8,12,0.6,0.7
2024-05-22T1300,2539A,104.0308,30.0478,眉山市,黑龙滩水库,臭氧1小时,57,31,29,18,22,165,,106,106,4,7,6,5,0.5,0.5
2024-05-22T1300,2540A,103.8416,30.0874,眉山市,气象局,臭氧1小时,69,41,43,27,32,175,,69,69,12,45,8,9,0.4,0.4
2024-05-22T1300,3137A,103.8578,30.0744,眉山市,市委党校,臭氧1小时,64,44,40,19,19,171,,67,67,17,36,9,11,0.3,0.4
2024-05-22T1300,3148A,103.8291,30.0564,眉山市,区人社局,臭氧1小时,68,40,37,19,22,174,,59,59,17,46,10,9,0.4,0.4
2024-05-22T1300,1690A,116.1231,24.3284,梅州市,梅江月梅,,10,,12,6,10,31,,20,20,9,18,3,4,0.6,0.6
2024-05-22T1300,1691A,116.0797,24.2719,梅州市,梅县新城,,13,11,10,9,10,41,,23,21,8,11,3,3,0.5,0.5
2024-05-22T1300,1692A,116.1248,24.2654,梅州市,环境监控中心,,10,,11,6,9,30,,20,20,11,16,3,4,0.6,0.6
2024-05-22T1300,3315A,116.1233,24.2991,梅州市,梅龙,,11,,7,3,6,34,,18,18,4,12,7,7,0.6,0.6
2024-05-22T1300,1878A,104.7778,31.4741,绵阳市,富乐山,臭氧1小时,53,39,38,22,24,162,,109,109,7,8,9,8,0.6,0.6
2024-05-22T1300,1879A,104.7563,31.4535,绵阳市,市人大,,45,37,37,20,23,142,,95,95,12,16,9,8,0.6,0.6
2024-05-22T1300,1880A,104.6697,31.4668,绵阳市,高新区自来水公司,,45,,46,26,26,144,,83,83,8,20,9,10,0.7,0.7
2024-05-22T1300,1881A,104.7287,31.5075,绵阳市,三水厂,颗粒物(PM10),51,51,48,30,30,153,,79,79,10,24,5,5,0.6,0.5
2024-05-22T1300,3491A,104.69,31.5322,绵阳市,西科大附属小学,,46,42,48,23,25,145,,82,82,11,25,6,6,0.5,0.5
2024-05-22T1300,3492A,104.5648,31.5343,绵阳市,安州区旅游局,细颗粒物(PM2.5),62,,42,44,34,143,,94,94,12,21,8,8,0.5,0.7
2024-05-22T1300,1784A,129.61,44.561,牡丹江市,环保大楼,,46,46,32,8,10,129,,102,102,4,6,5,5,0.3,0.2
2024-05-22T1300,1785A,129.6115,44.5782,牡丹江市,文化广场,,39,37,27,10,14,123,,95,95,9,10,6,6,0.4,0.3
2024-05-22T1300,1787A,129.6364,44.6075,牡丹江市,机车工厂,颗粒物(PM10),51,51,38,8,11,122,,93,93,5,10,4,4,0.3,0.2
2024-05-22T1300,1788A,129.6386,44.5462,牡丹江市,第一中学,,46,46,37,3,14,132,,103,103,6,8,2,2,0.3,0.3
2024-05-22T1300,2531A,105.0703,29.61,内江市,市监测站,,47,28,27,22,25,150,,84,84,7,13,6,8,0.2,0.5
2024-05-22T1300,2532A,105.0717,29.5947,内江市,东兴区政府,,43,17,28,9,14,136,,78,78,8,13,10,10,0.6,0.6
2024-05-22T1300,2533A,105.0653,29.5817,内江市,内江二中,,44,22,23,8,18,140,,82,82,8,14,8,8,0.4,0.4
2024-05-22T1300,2534A,105.0406,29.5822,内江市,内江日报社,,47,11,33,10,24,148,,78,78,10,21,7,7,0.5,0.5
2024-05-22T1300,2628A,92.0657,31.4846,那曲市,那曲监测站,,48,21,34,8,16,151,,97,97,5,7,5,6,0.4,0.7
2024-05-22T1300,3128A,92.0506,31.4797,那曲市,那曲会议中心,,48,27,51,10,21,152,,87,87,4,12,3,4,0.4,0.5
2024-05-22T1300,1290A,115.8931,28.6843,南昌市,省外办,,27,22,19,12,7,84,,54,54,10,13,5,5,0.3,0.4
2024-05-22T1300,1291A,115.8886,28.7003,南昌市,省林业公司,,27,9,9,9,8,85,,57,57,6,14,4,3,0.5,0.6
2024-05-22T1300,1292A,115.8126,28.7442,南昌市,林科所,,29,7,5,3,4,91,,52,52,7,16,6,5,0.4,0.5
2024-05-22T1300,1294A,115.8518,28.687,南昌市,建工学校,,28,,13,15,9,89,,62,62,2,7,5,5,0.4,0.4
2024-05-22T1300,1295A,115.8921,28.6424,南昌市,象湖,,30,13,12,8,8,94,,64,64,1,7,4,4,0.5,0.5
2024-05-22T1300,1296A,115.7423,28.7996,南昌市,武术学校,,43,,13,30,14,75,,44,44,2,3,14,12,0.2,0.2
2024-05-22T1300,1298A,115.9314,28.6842,南昌市,省站,,32,32,16,8,8,90,,64,64,2,6,7,8,0.5,0.5
2024-05-22T1300,3046A,115.9084,28.6062,南昌市,机电学校,,26,25,18,9,7,83,,55,55,5,12,10,8,0.8,0.6
2024-05-22T1300,3690A,115.9721,28.7031,南昌市,外国语学校,,29,17,12,7,9,90,,65,65,2,4,3,3,0.4,0.4
2024-05-22T1300,1906A,106.0789,30.8023,南充市,南充市委,,45,29,42,20,25,142,,74,74,7,16,5,6,0.2,0.3
2024-05-22T1300,1907A,106.1031,30.8217,南充市,南充炼油厂,臭氧1小时,69,38,47,23,28,175,,90,90,9,17,6,7,0.4,0.4
2024-05-22T1300,1908A,106.1064,30.7856,南充市,高坪区监测站,臭氧1小时,55,24,40,24,25,164,,98,98,10,19,6,8,0.2,0.2
2024-05-22T1300,1909A,106.0642,30.7636,南充市,嘉陵区环保局,,44,28,39,14,24,139,,84,84,10,20,8,10,0.4,0.4
2024-05-22T1300,1910A,106.1087,30.8388,南充市,市环境监测站,,48,39,46,16,28,151,,88,88,11,20,6,7,0.5,0.4
2024-05-22T1300,1151A,118.8086,32.1065,南京市,迈皋桥,,41,26,34,19,20,131,,73,73,7,18,6,5,0.7,0.8
2024-05-22T1300,1152A,118.7538,32.0551,南京市,草场门,,,,33,,20,123,,73,73,,19,,4,0.3,0.4
2024-05-22T1300,1153A,118.7794,32.0745,南京市,山西路,,39,24,32,12,16,122,,72,72,7,14,4,4,0.2,0.3
2024-05-22T1300,1154A,118.7752,32.0023,南京市,中华门,,40,22,31,14,17,128,,75,75,11,15,10,9,0.8,0.6
2024-05-22T1300,1155A,118.8109,32.0309,南京市,瑞金路,,39,27,42,14,19,122,,68,68,12,16,11,9,0.3,0.3
2024-05-22T1300,1156A,118.7997,32.0754,南京市,玄武湖,,39,32,35,12,18,122,,69,69,2,14,10,9,0.3,0.3
2024-05-22T1300,1157A,118.6414,32.0931,南京市,浦口,,37,,32,22,20,117,,69,69,10,20,7,6,0.3,0.4
2024-05-22T1300,1158A,118.7356,31.9996,南京市,奥体中心,,,32,37,17,22,130,,79,79,9,15,10,10,,0.5
2024-05-22T1300,1159A,118.9125,32.1028,南京市,仙林大学城,,40,27,36,9,14,127,,74,74,13,19,12,11,0.4,0.5
2024-05-22T1300,3422A,118.8436,31.9198,南京市,江宁彩虹桥,,44,33,33,19,20,138,,70,70,8,15,6,5,0.5,0.5
2024-05-22T1300,3423A,119.0138,31.6494,南京市,溧水永阳,,39,31,29,27,21,123,,86,86,17,15,12,8,0.4,0.4
2024-05-22T1300,3424A,118.879,31.3302,南京市,高淳老职中,颗粒物(PM10),51,51,40,14,22,129,,82,82,12,15,10,8,0.3,0.4
2024-05-22T1300,3427A,118.8554,32.3578,南京市,六合雄州,,,,36,12,27,117,,60,60,8,21,6,6,0.4,0.8
2024-05-22T1300,1401A,108.3103,22.7881,南宁市,二十一中,,36,36,38,22,22,103,,38,38,11,28,8,10,0.7,0.7
2024-05-22T1300,1402A,108.3141,22.8528,南宁市,北湖,,35,28,38,24,23,92,,43,43,11,28,6,9,0.8,0.9
2024-05-22T1300,1403A,108.3206,22.8225,南宁市,市监测站,,50,50,36,23,23,89,,38,38,24,30,7,7,0.8,0.9
2024-05-22T1300,1404A,108.3829,22.8037,南宁市,大自然花园,,34,34,30,17,19,92,,46,46,11,20,6,7,0.5,0.5
2024-05-22T1300,1405A,108.4394,22.7904,南宁市,仙葫,,28,19,30,17,19,89,,49,49,8,19,6,6,0.8,1
2024-05-22T1300,1406A,108.2397,22.8467,南宁市,区农职院,,49,49,36,25,19,94,,44,44,15,19,10,9,0.8,0.7
2024-05-22T1300,1407A,108.3275,22.735,南宁市,英华嘉园,,36,36,42,15,25,86,,34,34,10,29,7,9,0.6,0.7
2024-05-22T1300,1408A,108.2257,22.7757,南宁市,沙井镇街道办,颗粒物(PM10),53,55,43,31,24,73,,35,35,29,27,10,9,0.7,0.7
2024-05-22T1300,3401A,108.4834,22.7618,南宁市,红星社区,,31,,26,12,17,98,,55,55,8,17,9,10,0.6,0.7
2024-05-22T1300,2332A,118.1681,26.6369,南平市,南平市监测站,,19,8,4,6,5,60,,55,55,7,9,4,4,0.6,0.5
2024-05-22T1300,2333A,118.1825,26.6489,南平市,南平铝业有限公司,,18,15,7,8,5,55,,55,55,7,10,4,4,0.5,0.5
2024-05-22T1300,2334A,118.1756,26.6272,南平市,南平七中,,19,14,9,9,3,60,,55,55,6,8,6,6,0.5,0.5
2024-05-22T1300,1168A,120.9098,31.9663,南通市,狼山街道,,42,35,24,18,10,134,,89,89,4,5,13,11,0.4,0.4
2024-05-22T1300,1169A,120.86,32.0005,南通市,虹桥,,38,38,27,16,10,116,,81,81,14,7,8,7,0.3,0.4
2024-05-22T1300,1170A,120.87,32.02,南通市,城中,,44,44,34,21,18,119,,78,78,7,10,8,7,0.4,0.5
2024-05-22T1300,1171A,120.94,31.93,南通市,星湖花园,,40,30,20,12,9,128,,86,86,7,9,11,9,0.3,0.4
2024-05-22T1300,1172A,120.81,32.0417,南通市,紫琅学院,,39,30,22,18,14,124,,82,82,18,12,12,10,0.4,0.4
2024-05-22T1300,3291A,121.067,32.062,南通市,通州监测站,,40,34,32,12,9,125,,92,92,2,3,12,10,0.4,0.4
2024-05-22T1300,3432A,120.9348,31.9883,南通市,环境教育馆,,40,34,28,17,13,128,,82,82,7,13,10,8,0.4,0.4
2024-05-22T1300,2404A,112.5224,33.0122,南阳市,瓦房庄,臭氧1小时,73,48,63,25,32,178,,132,132,10,20,5,6,0.5,0.6
2024-05-22T1300,2405A,112.5003,32.9735,南阳市,汉画馆,臭氧1小时,75,55,66,33,36,180,,130,130,11,18,5,6,0.4,0.6
2024-05-22T1300,2406A,112.5573,33.027,南阳市,气象站,臭氧1小时,83,49,64,19,31,186,,132,132,11,18,4,5,0.3,0.4
2024-05-22T1300,2407A,112.5481,32.9689,南阳市,理工学院,臭氧1小时,78,47,61,23,30,182,,133,133,18,18,5,6,0.5,0.5
2024-05-22T1300,4008A,112.5234,32.9922,南阳市,卧龙区政府,臭氧1小时,82,48,62,30,36,185,,134,134,11,19,6,7,0.5,0.6
2024-05-22T1300,1234A,121.8358,29.911,宁波市,区环保大楼,颗粒物(PM10),53,56,40,27,18,89,,50,50,31,44,8,9,0.4,0.7
2024-05-22T1300,1235A,121.56,29.82,宁波市,万里学院,,50,37,38,23,23,158,,74,74,16,27,9,7,0.6,0.5
2024-05-22T1300,1236A,121.713,29.9572,宁波市,龙赛医院,,41,41,32,20,15,108,,62,62,10,40,7,13,0.3,0.4
2024-05-22T1300,1239A,121.633,29.7733,宁波市,钱湖水厂,,38,26,36,23,20,119,,60,60,18,19,8,6,0.5,0.5
2024-05-22T1300,1240A,121.5856,29.8635,宁波市,太古小学,,44,28,28,20,16,140,,78,78,16,25,10,9,0.6,0.6
2024-05-22T1300,1241A,121.524,29.8674,宁波市,市环境监测中心,,49,30,29,17,16,155,,92,92,14,23,14,12,0.5,0.5
2024-05-22T1300,2871A,121.6147,29.9017,宁波市,万里国际学校,,45,35,40,24,17,144,,77,77,17,30,10,8,0.4,0.4
2024-05-22T1300,3710A,121.5594,29.8975,宁波市,白沙活动中心,,46,32,38,11,12,147,,80,80,14,24,16,13,0.5,0.5
2024-05-22T1300,2341A,119.5388,26.6612,宁德市,宁德市监测站,,21,21,8,11,7,54,,42,42,20,21,4,4,0.5,0.4
2024-05-22T1300,3209A,119.5231,26.6562,宁德市,宁德一中,,21,16,10,8,6,66,,52,50,12,13,6,6,0.5,0.5
2024-05-22T1300,2618A,98.8601,25.8567,怒江傈僳族自治州,州监测站,,,,25,,17,111,,73,73,5,11,7,8,,0.4
2024-05-22T1300,2619A,98.8546,25.8417,怒江傈僳族自治州,泸水一中,,32,30,28,20,17,100,,51,51,8,18,7,6,0.1,0.2
2024-05-22T1300,1888A,101.6891,26.571,攀枝花市,弄弄坪,,,59,44,36,23,160,,96,96,22,21,28,24,,1.1
2024-05-22T1300,1889A,101.5769,26.5928,攀枝花市,河门口,,46,33,37,17,20,147,,79,79,12,21,11,13,0.5,0.6
2024-05-22T1300,1890A,101.7169,26.585,攀枝花市,炳草岗,臭氧1小时,67,42,47,21,22,173,,70,70,20,35,21,27,1.2,1
2024-05-22T1300,1891A,101.7369,26.5008,攀枝花市,仁和,臭氧1小时,75,43,37,25,23,180,,80,80,13,20,22,14,0.9,0.7
2024-05-22T1300,2835A,101.7227,26.567,攀枝花市,四十中小,臭氧1小时,70,41,40,25,24,176,,78,78,16,32,24,24,1.2,1.4
2024-05-22T1300,1604A,122.0303,41.1489,盘锦市,开发区,细颗粒物(PM2.5),104,,29,78,38,106,,101,88,12,12,5,5,0.5,0.5
2024-05-22T1300,1605A,122.0485,41.0883,盘锦市,兴隆台,,39,39,28,26,36,104,,98,89,11,12,6,6,0.5,0.5
2024-05-22T1300,1606A,121.8297,41.1028,盘锦市,新生街道,,45,41,33,31,35,102,,98,85,8,10,5,5,0.4,0.5
2024-05-22T1300,1832A,113.3257,33.742,平顶山市,新华旅馆,臭氧1小时,80,44,79,31,45,184,,129,129,9,36,8,11,0.4,0.5
2024-05-22T1300,1833A,113.2919,33.737,平顶山市,规划设计院,臭氧1小时,68,50,61,28,36,174,,123,123,9,25,8,7,0.4,0.4
2024-05-22T1300,1834A,113.182,33.774,平顶山市,平顶山工学院,臭氧1小时,79,49,60,29,32,183,,111,111,7,25,6,7,0.5,0.6
2024-05-22T1300,3204A,113.3025,33.73,平顶山市,规划局,臭氧1小时,70,58,77,30,37,176,,125,125,6,21,9,8,0.7,0.7
2024-05-22T1300,3594A,112.8867,33.9116,平顶山市,石龙区,臭氧1小时,95,70,139,27,47,196,,104,104,9,52,11,13,0.3,0.5
2024-05-22T1300,2656A,106.6692,35.5461,平凉市,聚贤嘉苑,,50,50,52,19,20,155,,112,112,7,18,7,7,0.3,0.3
2024-05-22T1300,2657A,106.7021,35.5307,平凉市,博物馆,臭氧1小时,53,49,55,19,21,162,,120,120,5,20,3,11,0.2,0.3
2024-05-22T1300,2347A,114.0997,27.5002,萍乡市,武功山,,16,6,7,3,3,50,,38,38,4,4,11,11,0.2,0.3
2024-05-22T1300,2348A,113.8385,27.6434,萍乡市,中医院,,20,20,19,9,14,61,,46,46,5,6,5,7,0.4,0.4
2024-05-22T1300,2349A,113.8493,27.6253,萍乡市,市政府车库,,,21,13,7,15,60,,44,44,6,8,,15,0.5,0.8
2024-05-22T1300,2350A,113.8676,27.6435,萍乡市,市环保局,,19,18,19,10,13,58,,43,43,4,8,6,10,0.4,0.4
2024-05-22T1300,2351A,113.866,27.6198,萍乡市,安源区政府,,17,16,19,9,9,53,,37,37,5,12,16,16,0.6,0.5
2024-05-22T1300,2319A,119.0141,25.4325,莆田市,荔城区仓后路,,22,16,12,6,5,68,,50,50,13,15,5,5,0.7,0.8
2024-05-22T1300,2320A,119.0015,25.4553,莆田市,莆田市监测站,,20,,7,7,2,63,,47,47,10,4,6,6,0.8,0.7
2024-05-22T1300,2321A,119.1119,25.4561,莆田市,涵江区六中,,21,18,10,3,3,65,,52,52,17,20,7,7,0.5,0.6
2024-05-22T1300,2322A,119.1013,25.3215,莆田市,秀屿区政府,,24,15,8,3,0,76,,70,70,7,8,6,6,0.7,0.7
2024-05-22T1300,2392A,115.0312,35.7636,濮阳市,环保局,,49,49,55,26,29,141,,102,102,8,15,9,11,0.4,0.4
2024-05-22T1300,2394A,115.0574,35.7609,濮阳市,油田运输公司,颗粒物(PM10),56,62,64,23,27,157,,109,109,7,12,11,12,0.2,0.3
2024-05-22T1300,2395A,115.0866,35.7754,濮阳市,油田物探公司,颗粒物(PM10),61,72,79,29,30,165,,109,109,6,12,10,10,0.3,0.3
2024-05-22T1300,3021A,115,35.7668,濮阳市,濮水河管理处,,47,47,52,29,30,138,,102,102,4,14,8,9,0.3,0.4
2024-05-22T1300,2601A,100.98,22.7633,普洱市,市环保局,,28,26,37,19,27,87,,68,68,11,17,9,9,0.5,0.6
2024-05-22T1300,2602A,100.9817,22.8322,普洱市,普洱第二中学,,26,26,38,15,19,81,,68,68,11,16,10,11,0.6,0.6
2024-05-22T1300,2262A,131.0518,45.8751,七台河市,新一中,颗粒物(PM10),52,53,27,12,11,145,,116,116,7,12,10,10,0.8,0.8
2024-05-22T1300,3345A,131.0577,45.7879,七台河市,中波台,颗粒物(PM10),91,132,48,7,6,127,,92,92,14,21,8,6,0.4,0.3
2024-05-22T1300,3637A,131.0176,45.7761,七台河市,人民广场,颗粒物(PM10),53,56,28,27,14,122,,99,99,13,11,14,11,0.5,0.3
2024-05-22T1300,3684A,130.8781,45.8222,七台河市,新建矿广场,颗粒物(PM10),76,102,31,9,14,125,,96,96,16,18,9,8,0.5,0.4
2024-05-22T1300,1779A,123.9305,47.3636,齐齐哈尔市,安居小区,,33,31,36,23,20,80,,75,71,12,20,5,5,0.3,0.4
2024-05-22T1300,1780A,123.9488,47.3386,齐齐哈尔市,中心广场,,31,31,41,20,15,80,,79,73,12,23,8,8,0.4,0.5
2024-05-22T1300,1781A,123.9483,47.3227,齐齐哈尔市,农牧车辆厂,,29,29,39,6,10,85,,82,77,8,17,8,8,0.3,0.4
2024-05-22T1300,1783A,123.945,47.2988,齐齐哈尔市,市环境监测站,,29,29,38,20,22,82,,82,78,9,14,5,5,0.3,0.3
2024-05-22T1300,3662A,123.6333,47.2075,齐齐哈尔市,富区青少年活动中心,,35,33,44,24,15,80,,79,78,15,16,7,9,0.4,0.5
2024-05-22T1300,2591A,107.9783,26.5747,黔东南苗族侗族自治州,市环境监测站,,,,20,,12,116,,90,90,11,9,6,3,0.5,0.6
2024-05-22T1300,2881A,107.8908,26.5311,黔东南苗族侗族自治州,凯里学院,,44,33,16,22,11,139,,100,100,4,5,9,3,0.5,0.4
2024-05-22T1300,2593A,107.5228,26.2403,黔南布依族苗族自治州,小围寨,,29,29,12,19,8,87,,54,54,8,8,4,4,0.4,0.4
2024-05-22T1300,3538A,107.5175,26.2978,黔南布依族苗族自治州,沙坝,,36,36,14,17,6,85,,50,50,9,9,4,3,0.6,0.5
2024-05-22T1300,2589A,104.9022,25.0925,黔西南布依族苗族自治州,场坝街,,41,11,14,3,8,130,,87,87,8,13,6,10,0.3,0.4
2024-05-22T1300,2590A,104.8811,25.0992,黔西南布依族苗族自治州,坪东大道,,41,15,15,3,6,129,,76,76,6,17,6,7,0.3,0.3
2024-05-22T1300,2502A,108.6236,21.9667,钦州市,市环保站,,31,31,31,9,12,95,,58,58,7,12,6,10,0.7,1.2
2024-05-22T1300,2503A,108.6549,21.9481,钦州市,沙埠小学,,30,29,35,15,16,95,,60,60,7,15,6,6,0.7,0.9
2024-05-22T1300,2504A,108.5989,21.7431,钦州市,港区一小,,36,36,54,14,16,90,,54,54,11,23,8,8,0.6,0.7
2024-05-22T1300,3404A,108.5959,21.9633,钦州市,北职校,,27,19,30,15,17,86,,52,52,6,10,8,8,0.7,0.9
2024-05-22T1300,1042A,119.5134,39.8207,秦皇岛市,北戴河环保局,,48,48,58,26,28,82,,90,72,19,16,4,2,0.3,0.4
2024-05-22T1300,1043A,119.7493,40.0116,秦皇岛市,第一关,细颗粒物(PM2.5),100,109,64,75,52,103,,75,70,20,17,4,3,0.7,0.4
2024-05-22T1300,1044A,119.5897,39.9499,秦皇岛市,监测站,细颗粒物(PM2.5),70,81,77,51,55,111,,102,102,23,16,6,4,0.7,0.4
2024-05-22T1300,1046A,119.5251,39.9041,秦皇岛市,建设大厦,颗粒物(PM10),65,79,61,43,37,160,,100,100,12,10,2,2,0.9,0.3
2024-05-22T1300,3132A,119.610547,39.943889,秦皇岛市,文明里,细颗粒物(PM2.5),78,86,75,57,48,93,,89,75,33,23,7,6,0.6,0.5
2024-05-22T1300,1307A,120.6659,36.2403,青岛市,仰口,,18,14,22,12,19,51,,37,37,7,9,4,4,0.2,0.2
2024-05-22T1300,1310A,120.4134,36.0658,青岛市,市南区东部子站,,21,17,20,12,13,65,,58,58,1,7,6,5,0.4,0.4
2024-05-22T1300,1311A,120.3664,36.1032,青岛市,四方区子站,,23,6,21,3,16,71,,61,61,8,13,4,3,0.4,0.4
2024-05-22T1300,1312A,120.2994,36.054,青岛市,市南区西部子站,,22,7,18,7,12,68,,63,63,9,14,6,6,0.3,0.4
2024-05-22T1300,1313A,120.4581,36.0858,青岛市,崂山区子站,,22,7,17,3,12,68,,62,62,7,12,7,7,0.4,0.4
2024-05-22T1300,1314A,120.1983,35.9608,青岛市,黄岛区子站,,23,9,19,3,16,73,,66,66,6,8,5,6,0.3,0.3
2024-05-22T1300,1315A,120.3999,36.3083,青岛市,城阳区子站,,23,19,18,10,12,71,,59,59,12,15,6,6,0.4,0.4
2024-05-22T1300,1966A,120.0405,35.8735,青岛市,黄岛区4号,,22,9,16,3,8,68,,62,62,5,6,7,7,0.4,0.4
2024-05-22T1300,3362A,120.5014,36.4034,青岛市,即墨2号,,27,27,25,11,13,85,,64,64,7,8,5,5,0.4,0.4
2024-05-22T1300,3642A,120.3503,36.0736,青岛市,市北区南部,,22,9,19,3,9,69,,61,61,8,13,5,5,0.5,0.5
2024-05-22T1300,3643A,120.3948,36.1805,青岛市,李沧区北部,,21,17,21,3,17,67,,56,56,10,11,8,8,0.4,0.4
2024-05-22T1300,1702A,113.0426,23.691,清远市,环保大楼,,23,8,10,3,8,72,,33,33,6,13,5,6,0.6,0.7
2024-05-22T1300,1703A,113.0208,23.7106,清远市,凤城街办,,26,11,16,8,11,82,,33,33,8,22,6,6,0.5,0.7
2024-05-22T1300,3025A,113.0477,23.6344,清远市,技师学院,,,8,12,3,7,75,,40,40,8,13,6,6,,0.5
2024-05-22T1300,3318A,112.9903,23.7403,清远市,清新太和,,27,20,13,12,7,86,,37,37,17,19,7,7,0.6,0.7
2024-05-22T1300,3455A,113.076,23.7198,清远市,清城东城,,26,15,9,11,12,81,,41,41,9,11,6,6,0.7,0.8
2024-05-22T1300,2661A,107.6325,35.7357,庆阳市,庆阳五中,,50,50,55,21,24,154,,134,134,7,10,6,7,0.4,0.4
2024-05-22T1300,2662A,107.6364,35.7067,庆阳市,市环保局,,48,41,52,18,21,151,,133,133,6,8,6,7,0.4,0.4
2024-05-22T1300,1916A,103.7897,25.5035,曲靖市,环境监测站,,46,26,35,13,15,146,,92,92,6,12,2,4,0.7,0.7
2024-05-22T1300,1917A,103.8,25.5364,曲靖市,烟厂办公区,,46,36,31,21,15,147,,86,86,7,12,4,4,0.6,0.7
2024-05-22T1300,3376A,103.7947,25.462,曲靖市,南苑二区,,45,32,31,21,15,142,,90,90,7,12,4,7,0.5,0.5
2024-05-22T1300,3377A,103.7444,25.5261,曲靖市,曲靖师范学院,,47,26,29,26,19,148,,86,86,11,17,8,8,0.6,0.5
2024-05-22T1300,1264A,118.8692,28.9398,衢州市,环保大楼,,32,27,31,21,22,100,,65,65,14,20,4,3,0.3,0.3
2024-05-22T1300,1265A,118.8709,28.9666,衢州市,实验学校,,,30,30,20,21,102,,69,69,,16,2,5,0.3,0.3
2024-05-22T1300,1266A,118.8621,28.9808,衢州市,衢州学院,,32,25,28,20,22,102,,65,65,9,18,6,5,0.3,0.3
2024-05-22T1300,1611A,118.5819,24.9117,泉州市,涂山街,,25,12,9,10,6,77,,66,66,12,11,2,2,0.6,0.5
2024-05-22T1300,1612A,118.5972,24.8978,泉州市,津头埔,,24,13,8,11,7,75,,65,65,18,18,1,2,0.7,0.6
2024-05-22T1300,1613A,118.6663,24.9424,泉州市,万安,,25,13,10,9,5,79,,68,68,11,13,2,2,0.5,0.3
2024-05-22T1300,3529A,118.6333,24.9264,泉州市,城华南路,,,15,13,,8,67,,61,61,20,16,3,3,0.4,0.3
2024-05-22T1300,2626A,88.8876,29.2718,日喀则市,日喀则监测站,,39,7,12,3,8,124,,133,122,4,5,5,5,0.5,0.5
2024-05-22T1300,3726A,88.8781,29.2426,日喀则市,林业技术推广中心,,38,,18,16,9,121,,126,114,8,7,7,7,0.4,0.4
2024-05-22T1300,1659A,119.471,35.4209,日照市,监测站,,45,39,18,31,15,69,,66,60,22,15,9,8,0.8,0.4
2024-05-22T1300,1660A,119.523,35.4216,日照市,市政府广场,,36,36,20,22,12,83,,70,65,9,9,8,7,0.7,0.4
2024-05-22T1300,1661A,119.5587,35.4044,日照市,港务局,,24,22,20,13,11,75,,74,69,4,5,5,6,0.4,0.4
2024-05-22T1300,3507A,119.5328,35.4625,日照市,职业技术学院,,32,31,17,22,11,71,,69,65,10,8,7,7,0.5,0.4
2024-05-22T1300,3604A,119.3266,35.1044,日照市,岚山环保分局,颗粒物(PM10),51,51,30,29,20,95,,65,65,8,10,7,6,0.5,0.4
2024-05-22T1300,1835A,111.1922,34.7752,三门峡市,市政府,颗粒物(PM10),52,54,64,22,29,158,,122,122,9,25,7,9,0.4,0.6
2024-05-22T1300,1836A,111.1587,34.7942,三门峡市,开发区,,,39,71,21,33,185,,142,142,,23,10,12,,0.6
2024-05-22T1300,3039A,111.1911,34.7829,三门峡市,三门峡市第一小学,"颗粒物(PM10),臭氧1小时",62,74,70,16,22,169,,137,137,11,21,8,11,0.4,0.5
2024-05-22T1300,3598A,111.1,34.7167,三门峡市,富达温泉假日酒店,颗粒物(PM10),60,70,70,20,25,166,,133,133,14,20,10,10,0.3,0.4
2024-05-22T1300,2324A,117.6211,26.2625,三明市,三钢,,18,17,9,3,3,55,,46,46,11,12,5,6,0.6,0.4
2024-05-22T1300,2325A,117.635,26.2714,三明市,三明二中,,18,,7,3,6,55,,51,51,11,9,6,6,0.7,0.6
2024-05-22T1300,2326A,117.6028,26.2378,三明市,三元区政府,,18,18,7,6,4,54,,50,50,14,12,7,7,0.6,0.5
2024-05-22T1300,1876A,109.5078,18.2489,三亚市,河东子站,,27,8,12,3,7,84,,77,77,5,7,4,4,0.5,0.5
2024-05-22T1300,1877A,109.4964,18.2681,三亚市,河西子站,,25,6,13,3,7,79,,71,71,2,6,2,1,0.3,0.4
2024-05-22T1300,3540A,109.7348,18.3443,三亚市,君悦子站,,,7,11,3,6,,,74,74,,6,2,2,,0.4
2024-05-22T1300,2624A,91.7608,29.2313,山南市,山南监测站,,42,,20,12,8,134,,116,109,4,6,7,7,0.2,0.2
2024-05-22T1300,2625A,91.7706,29.2436,山南市,山南人民医院,,40,22,32,7,14,128,,109,103,11,11,7,7,0.3,0.3
2024-05-22T1300,1674A,116.6794,23.3667,汕头市,金平子站,,25,19,13,3,9,80,,68,68,13,16,3,2,0.5,0.6
2024-05-22T1300,1675A,116.7244,23.3633,汕头市,龙湖子站,,,40,12,3,7,71,,66,66,,11,5,5,0.5,0.6
2024-05-22T1300,1676A,116.7258,23.2775,汕头市,濠江子站,,24,17,9,8,8,76,,67,67,6,7,4,4,0.6,0.6
2024-05-22T1300,1677A,116.7519,23.4714,汕头市,澄海子站,,27,11,12,7,9,84,,72,72,7,11,7,6,0.7,0.8
2024-05-22T1300,1678A,116.6092,23.2539,汕头市,潮阳子站,,26,17,9,3,8,82,,72,72,3,4,3,3,0.6,0.6
2024-05-22T1300,3444A,116.454,23.2684,汕头市,潮南峡山,,20,9,12,3,7,63,,55,55,11,11,4,4,0.6,0.6
2024-05-22T1300,3624A,116.4069,23.2533,汕头市,潮南子站,,23,23,24,12,11,48,,48,47,16,11,6,6,0.8,0.8
2024-05-22T1300,1693A,115.3653,22.775,汕尾市,市环保局,,27,9,12,6,6,84,,55,55,4,5,9,9,0.6,0.6
2024-05-22T1300,1694A,115.3706,22.7898,汕尾市,市政府,,29,7,11,3,12,91,,58,58,4,7,4,5,0.5,0.5
2024-05-22T1300,1695A,115.3622,22.7925,汕尾市,新城中学,,28,6,13,6,5,89,,58,58,5,7,6,6,0.5,0.5
2024-05-22T1300,2645A,109.9154,33.8715,商洛市,监测站,,48,29,45,21,25,152,,90,90,6,15,11,9,0.5,0.6
2024-05-22T1300,3045A,109.9643,33.8471,商洛市,商州区中学,,49,47,50,16,24,155,,92,92,6,18,16,10,0.6,0.6
2024-05-22T1300,2408A,115.6702,34.4285,商丘市,环境监测站,,46,33,52,17,21,145,,99,99,2,11,7,8,0.2,0.3
2024-05-22T1300,2409A,115.6458,34.4045,商丘市,粮食局,,,36,44,16,18,138,,91,91,3,10,4,10,,0.5
2024-05-22T1300,2410A,115.6293,34.3948,商丘市,睢阳区环保局,,47,47,53,7,21,142,,95,95,3,8,6,5,0.2,0.2
2024-05-22T1300,3171A,115.6071,34.4465,商丘市,梁园区档案局,,44,38,50,12,17,139,,98,98,4,10,8,8,0.3,0.4
2024-05-22T1300,1141A,121.4,31.238,上海市,普陀,,38,38,32,22,17,114,,84,84,17,23,8,8,0.4,0.4
2024-05-22T1300,1142A,121.478,31.2036,上海市,十五厂,,39,36,29,20,18,122,,92,92,12,24,9,9,0.4,0.4
2024-05-22T1300,1143A,121.467,31.3008,上海市,虹口,,39,39,31,18,20,105,,84,84,24,27,12,12,0.5,0.5
2024-05-22T1300,1144A,121.412,31.1654,上海市,徐汇上师大,颗粒物(PM10),58,65,41,29,23,122,,91,91,19,27,10,10,0.5,0.5
2024-05-22T1300,1145A,121.536,31.2659,上海市,杨浦四漂,,,,23,,18,,,84,84,,29,,9,,0.7
2024-05-22T1300,1147A,121.425,31.2261,上海市,静安监测站,,40,40,30,23,20,114,,87,87,22,27,11,11,0.5,0.4
2024-05-22T1300,1148A,121.703,31.1907,上海市,浦东川沙,,38,38,28,25,19,107,,101,101,21,24,7,8,0.5,0.4
2024-05-22T1300,1149A,121.533,31.2284,上海市,浦东新区监测站,,39,35,27,27,20,117,,91,91,15,25,9,10,0.3,0.2
2024-05-22T1300,1150A,121.577,31.2071,上海市,浦东张江,,41,34,28,17,19,130,,102,102,13,26,6,7,0.5,0.5
2024-05-22T1300,3265A,121.4316,31.3322,上海市,宝山庙行,,50,45,32,35,29,95,,72,72,42,29,15,11,0.6,0.5
2024-05-22T1300,3266A,121.8791,31.4662,上海市,崇明上实东滩,,36,33,23,24,15,113,,108,108,4,6,8,8,0.6,0.5
2024-05-22T1300,3268A,121.3162,31.2838,上海市,嘉定南翔,,41,41,29,21,17,102,,75,75,25,28,11,11,0.4,0.3
2024-05-22T1300,3269A,121.3359,30.7456,上海市,金山新城,,39,38,28,25,16,124,,70,70,7,15,8,9,0.5,0.5
2024-05-22T1300,3270A,121.4996,31.0739,上海市,闵行浦江,,,38,27,25,22,118,,91,91,18,19,,8,0.4,0.4
2024-05-22T1300,3271A,121.2886,31.1663,上海市,青浦徐泾,,40,38,30,22,17,128,,86,86,17,23,8,8,0.5,0.5
2024-05-22T1300,3272A,121.2186,31.0378,上海市,松江图书馆,,41,36,29,22,19,129,,80,80,21,26,10,9,0.6,0.5
2024-05-22T1300,3273A,121.3902,31.2059,上海市,长宁仙霞,,41,41,31,22,17,122,,84,84,17,26,10,11,0.6,0.7
2024-05-22T1300,3274A,121.7965,31.0507,上海市,浦东惠南,,38,33,25,26,21,112,,96,96,14,23,7,9,0.5,0.5
2024-05-22T1300,3544A,121.4891,30.925,上海市,奉贤南桥新城,,40,39,28,25,20,128,,87,87,12,21,11,11,0.5,0.4
2024-05-22T1300,2381A,118.005,28.4572,上饶市,百草园,,46,,25,32,14,72,,40,40,5,11,4,4,0.6,0.6
2024-05-22T1300,2382A,117.9756,28.4436,上饶市,市监测站,,29,26,26,20,14,92,,52,52,7,13,6,6,0.4,0.4
2024-05-22T1300,2383A,117.9519,28.4628,上饶市,凤凰光学,,28,28,23,17,14,80,,46,46,2,15,3,11,0.5,0.5
2024-05-22T1300,3413A,118.1953,28.4401,上饶市,广丰区教体局,,,46,30,22,19,91,,54,54,8,10,9,16,,0.8
2024-05-22T1300,3685A,117.897,28.4315,上饶市,双创科技城,,30,30,24,16,14,86,,49,49,5,14,4,9,0.6,0.6
2024-05-22T1300,1669A,113.5824,24.7733,韶关市,市八中,,22,17,23,9,12,70,,39,39,1,6,10,10,0.6,0.7
2024-05-22T1300,1671A,113.5917,24.7972,韶关市,园林处,,21,7,14,3,11,65,,31,31,2,5,13,9,0.5,0.7
2024-05-22T1300,1672A,113.6735,24.7791,韶关市,韶关学院,,,6,11,3,6,68,,40,40,1,5,10,10,,0.2
2024-05-22T1300,1673A,113.5971,24.6863,韶关市,曲江监测站,,24,13,19,8,10,76,,38,38,3,13,7,8,0.5,0.6
