timepoint,stationcode,longitude,latitude,area,positionname,primarypollutant,aqi,pm10,pm10_24h,pm2_5,pm2_5_24h,o3,o3_24h,o3_8h,o3_8h_24h,no2,no2_24h,so2,so2_24h,co,co_24h
2025-11-29T1300,2566A,102.1879,31.914,阿坝藏族羌族自治州,州农科所,,,,,,,,,,,,,,,,
2025-11-29T1300,2568A,102.2502,31.8896,阿坝藏族羌族自治州,马师校,,19,11,21,6,14,58,58,31,31,10,23,6,5,0.6,0.6
2025-11-29T1300,3994A,102.2165,31.9024,阿坝藏族羌族自治州,马尔康中学西区,,20,9,14,6,9,62,62,39,39,6,18,5,5,0.5,0.6
2025-11-29T1300,2695A,80.292,41.1694,阿克苏地区,电视台,颗粒物(PM10),90,129,205,37,103,27,27,13,13,41,59,3,6,0.9,2.1
2025-11-29T1300,2696A,80.2613,41.1551,阿克苏地区,艺术中心,颗粒物(PM10),87,124,150,63,80,34,34,18,18,41,61,7,8,1.1,1.3
2025-11-29T1300,2204A,105.6467,38.8363,阿拉善盟,西城区西花园,,,,,,,,,,,,,,,,
2025-11-29T1300,2205A,105.6985,38.8411,阿拉善盟,蒙二幼,颗粒物(PM10),95,139,210,36,67,79,79,75,69,9,15,9,9,0.6,0.8
2025-11-29T1300,2206A,105.724,38.8516,阿拉善盟,环保局新楼,颗粒物(PM10),62,73,190,28,62,82,82,84,80,5,4,8,8,0.6,0.6
2025-11-29T1300,2708A,88.1264,47.8517,阿勒泰地区,市站,,26,26,20,13,11,28,28,34,24,40,30,29,4,0.3,0.5
2025-11-29T1300,2630A,80.1161,32.5,阿里地区,阿里监测站,,20,6,2,3,3,64,64,70,66,7,10,6,7,0.3,0.4
2025-11-29T1300,3192A,80.0903,32.5028,阿里地区,阿里藏医院,,23,15,14,8,9,71,71,55,55,7,12,15,12,0.5,0.5
2025-11-29T1300,2642A,109.0318,32.6537,安康市,香溪洞,,,,,,,,,,,,,,,,
2025-11-29T1300,2644A,109.0072,32.6975,安康市,汉滨区检察院,颗粒物(PM10),57,63,79,36,38,56,56,19,19,16,22,5,5,0.4,0.3
2025-11-29T1300,4054A,109.0325,32.6913,安康市,市邮政管理局,颗粒物(PM10),62,74,89,39,45,50,50,15,15,21,33,5,4,0.7,0.8
2025-11-29T1300,2291A,117.0809,30.5177,安庆市,环科院,颗粒物(PM10),71,92,128,32,48,102,102,56,56,9,33,8,6,0.4,0.4
2025-11-29T1300,2292A,117.0331,30.5119,安庆市,马山宾馆,,,129,130,36,46,92,92,65,65,22,35,,6,,0.4
2025-11-29T1300,2294A,116.9896,30.6145,安庆市,安庆大学,颗粒物(PM10),79,107,132,40,45,104,104,87,82,9,17,11,11,0.5,0.5
2025-11-29T1300,3173A,117.0598,30.5351,安庆市,市人大,颗粒物(PM10),77,104,138,34,50,108,108,76,76,11,24,9,10,0.3,0.3
2025-11-29T1300,3122A,105.9606,26.2611,安顺市,伍家关,,31,21,36,18,24,99,99,55,55,7,17,13,37,0.3,0.3
2025-11-29T1300,3123A,105.9408,26.2431,安顺市,凤凰山,,32,32,48,15,32,97,97,44,44,10,39,10,49,0.5,0.9
2025-11-29T1300,3124A,105.9439,26.2564,安顺市,金钟山,,34,30,38,17,21,106,106,72,72,7,14,14,26,0.5,0.6
2025-11-29T1300,3125A,105.8983,26.2481,安顺市,娄家坡,,30,27,32,19,21,95,95,74,74,7,12,12,19,0.4,0.5
2025-11-29T1300,1818A,114.4839,36.0621,安阳市,棉研所,,,,,,,,,,,,,,,,
2025-11-29T1300,1819A,114.3551,36.1017,安阳市,红庙街,细颗粒物(PM2.5),149,226,248,114,100,44,44,17,17,69,65,13,10,1.4,1.2
2025-11-29T1300,1820A,114.361,36.0681,安阳市,银杏小区,细颗粒物(PM2.5),170,246,248,129,115,49,49,17,17,64,62,12,7,1.5,1.2
2025-11-29T1300,3141A,114.3922,36.0878,安阳市,信访局,细颗粒物(PM2.5),210,227,240,160,122,49,49,19,19,59,63,10,8,1.2,0.9
2025-11-29T1300,3669A,114.4705,36.0637,安阳市,左辅环卫站,颗粒物(PM10),155,259,269,116,104,55,55,25,25,50,57,11,10,1.3,1.2
2025-11-29T1300,3703A,114.2917,36.0949,安阳市,安钢职工学校,细颗粒物(PM2.5),185,276,283,139,122,56,56,19,19,66,58,17,10,2.6,2
2025-11-29T1300,1748A,123.044,41.1196,鞍山市,深沟寺,颗粒物(PM10),104,157,64,62,31,64,64,68,61,28,17,16,10,1.0,0.6
2025-11-29T1300,1749A,123.011,41.0931,鞍山市,太阳城,颗粒物(PM10),100,150,62,55,26,64,64,68,60,24,13,16,10,1.0,0.7
2025-11-29T1300,1750A,123.0485,41.1442,鞍山市,太平,颗粒物(PM10),113,176,77,62,30,69,69,78,68,30,17,15,9,1.2,0.8
2025-11-29T1300,1751A,122.9642,41.0971,鞍山市,铁西三道街,颗粒物(PM10),116,182,87,58,33,64,64,61,56,29,23,16,16,1.0,0.7
2025-11-29T1300,1753A,123.022,41.0821,鞍山市,明达新区,颗粒物(PM10),103,155,66,58,29,65,65,71,62,23,15,16,11,0.8,0.5
2025-11-29T1300,1754A,123.1289,41.0228,鞍山市,千山,,,,23,,25,,,56,,,14,,3,,0.3
2025-11-29T1300,4201A,122.9446,41.0826,鞍山市,兴盛南路290号,颗粒物(PM10),110,169,79,62,32,66,66,58,55,32,30,14,11,0.8,0.5
2025-11-29T1300,2195A,107.4212,40.761,巴彦淖尔市,附二中,,,98,247,21,65,76,76,68,68,3,5,4,4,,0.3
2025-11-29T1300,2196A,107.37,40.7372,巴彦淖尔市,市环保大楼,颗粒物(PM10),85,120,224,19,61,83,83,72,72,3,7,7,7,0.4,0.4
2025-11-29T1300,1956A,86.1472,41.7538,巴音郭楞蒙古自治州,孔雀公园,颗粒物(PM10),113,176,173,51,59,76,76,56,56,28,47,19,12,0.6,0.8
2025-11-29T1300,1957A,86.1972,41.7166,巴音郭楞蒙古自治州,棉纺厂,颗粒物(PM10),128,206,200,54,57,71,71,42,42,28,50,11,10,0.8,0.9
2025-11-29T1300,1958A,86.2357,41.7173,巴音郭楞蒙古自治州,经济开发区,颗粒物(PM10),106,161,143,51,45,73,73,62,55,19,27,10,8,0.9,0.7
2025-11-29T1300,2914A,106.7677,31.8794,巴中市,苏山坪,,,,,,,,,,,,,,,,
2025-11-29T1300,3181A,106.7768,31.8526,巴中市,市五中,细颗粒物(PM2.5),60,65,78,43,47,43,43,14,14,22,26,10,8,0.8,0.8
2025-11-29T1300,3183A,106.7418,31.8654,巴中市,圣泉水务公司,颗粒物(PM10),53,56,64,35,37,52,52,26,26,23,26,6,4,0.9,0.8
2025-11-29T1300,3616A,106.7616,31.8344,巴中市,市中心医院,"颗粒物(PM10),细颗粒物(PM2.5)",52,54,71,36,50,45,45,13,13,16,29,7,5,0.9,1
2025-11-29T1300,2235A,122.7911,45.6077,白城市,洮北区环保局,颗粒物(PM10),120,190,67,43,46,56,56,29,29,6,19,3,5,0.2,0.5
2025-11-29T1300,2236A,122.8738,45.5725,白城市,市环保局,颗粒物(PM10),133,215,72,17,48,57,57,32,32,5,20,6,6,0.4,0.6
2025-11-29T1300,2231A,126.4219,41.9171,白山市,喜丰,颗粒物(PM10),61,72,54,28,28,56,56,49,42,23,39,10,11,0.8,0.9
2025-11-29T1300,2232A,126.4077,41.9419,白山市,环保局,,47,47,38,24,31,57,57,32,26,23,32,9,10,0.9,1
2025-11-29T1300,2647A,104.1724,36.5446,白银市,第三小学,细颗粒物(PM2.5),75,65,90,55,49,66,66,28,28,38,54,29,38,0.9,1.1
2025-11-29T1300,2648A,104.1465,36.5482,白银市,动力公司,细颗粒物(PM2.5),68,67,72,49,44,74,74,46,46,31,42,28,25,1.0,1.3
2025-11-29T1300,2512A,106.6103,23.9011,百色市,市监测站,细颗粒物(PM2.5),64,57,37,46,23,94,94,32,32,15,20,9,7,0.8,0.5
2025-11-29T1300,2513A,106.6538,23.8859,百色市,市中心血站,细颗粒物(PM2.5),63,67,62,45,39,67,67,27,27,22,36,8,7,0.7,0.7
2025-11-29T1300,3406A,106.6085,23.8798,百色市,祈福高中,颗粒物(PM10),58,65,59,36,25,86,86,32,32,17,24,8,5,0.7,0.5
2025-11-29T1300,2270A,117.396,32.939,蚌埠市,工人疗养院,颗粒物(PM10),78,106,141,35,40,98,98,64,64,22,27,8,8,0.4,0.4
2025-11-29T1300,2271A,117.3605,32.9427,蚌埠市,百货大楼,颗粒物(PM10),75,99,130,36,38,103,103,67,67,18,27,8,7,0.4,0.4
2025-11-29T1300,2273A,117.4185,32.8911,蚌埠市,蚌埠学院,颗粒物(PM10),78,105,138,36,41,94,94,54,54,22,26,8,6,0.3,0.3
2025-11-29T1300,2274A,117.3533,32.9673,蚌埠市,淮上区政府,颗粒物(PM10),81,112,138,36,42,105,105,72,72,21,27,9,8,0.3,0.4
2025-11-29T1300,2275A,117.3145,32.8977,蚌埠市,高新区,颗粒物(PM10),78,105,149,38,48,84,84,45,45,16,28,9,8,0.4,0.5
2025-11-29T1300,3715A,117.3092,32.9314,蚌埠市,蚌埠田家炳中学,颗粒物(PM10),83,116,154,47,49,97,97,56,56,25,32,7,10,0.4,0.4
2025-11-29T1300,1585A,109.8756,40.6532,包头市,市环境监测站,颗粒物(PM10),156,262,315,81,86,60,60,21,21,37,55,32,19,2.3,1.7
2025-11-29T1300,1587A,109.9991,40.5842,包头市,包头八中,颗粒物(PM10),143,235,284,66,98,70,70,26,26,23,56,27,11,0.8,1
2025-11-29T1300,1588A,109.8538,40.6821,包头市,青山宾馆,颗粒物(PM10),127,203,281,78,99,60,60,34,34,34,47,26,16,1.7,1.2
2025-11-29T1300,1589A,109.8642,40.6288,包头市,惠龙物流,颗粒物(PM10),137,224,282,66,84,74,74,32,32,29,59,22,24,1.2,1.6
2025-11-29T1300,1590A,110.0377,40.5546,包头市,东河鸿龙湾,颗粒物(PM10),120,190,280,36,81,77,77,26,26,9,65,9,16,0.4,1.5
2025-11-29T1300,3283A,109.9154,40.5685,包头市,滨河大厦,颗粒物(PM10),120,190,263,54,81,78,78,30,30,11,50,12,22,0.5,1.1
2025-11-29T1300,3419A,109.9447,40.6261,包头市,包头市委党校,颗粒物(PM10),125,200,258,65,82,71,71,31,31,30,56,33,16,1.4,1
2025-11-29T1300,3683A,109.8331,40.6576,包头市,昆区政府,颗粒物(PM10),141,231,291,76,96,64,64,38,38,40,60,30,22,1.8,1.3
2025-11-29T1300,1930A,107.185,34.3063,宝鸡市,庙沟村,,,,,,,,,,,,,,,,
2025-11-29T1300,1931A,107.0708,34.3017,宝鸡市,竹园沟,颗粒物(PM10),61,72,50,26,28,78,78,44,40,10,12,7,6,0.3,0.3
2025-11-29T1300,1932A,107.1906,34.3672,宝鸡市,三陆医院,颗粒物(PM10),74,97,71,35,36,71,71,28,28,22,40,6,6,0.5,0.6
2025-11-29T1300,1933A,107.1431,34.3547,宝鸡市,监测站,颗粒物(PM10),69,87,64,32,36,67,67,34,34,12,23,4,4,0.4,0.4
2025-11-29T1300,1934A,107.1186,34.3739,宝鸡市,技工学校,颗粒物(PM10),68,86,69,37,33,83,83,48,48,8,21,4,8,0.4,0.5
2025-11-29T1300,1936A,107.2058,34.3497,宝鸡市,文理学院,颗粒物(PM10),54,58,66,35,40,78,78,37,37,12,31,5,5,0.5,0.5
2025-11-29T1300,1937A,107.2386,34.3622,宝鸡市,三迪小学,颗粒物(PM10),88,125,79,42,41,69,69,25,25,24,47,6,5,0.5,0.6
2025-11-29T1300,4308A,107.3898,34.3601,宝鸡市,陈仓区北开路21号,颗粒物(PM10),62,74,78,29,48,63,63,43,43,27,36,8,53,0.3,0.5
2025-11-29T1300,1051A,115.493,38.8632,保定市,游泳馆,细颗粒物(PM2.5),125,155,125,95,81,25,25,10,10,67,65,9,7,0.7,0.5
2025-11-29T1300,1052A,115.5213,38.8959,保定市,华电二区,细颗粒物(PM2.5),98,140,121,73,78,16,16,6,6,77,64,9,6,1.0,0.8
2025-11-29T1300,1053A,115.4713,38.9108,保定市,接待中心,细颗粒物(PM2.5),135,147,125,103,78,23,23,9,9,75,62,8,4,1.2,0.8
2025-11-29T1300,1054A,115.4612,38.8416,保定市,地表水厂,细颗粒物(PM2.5),98,141,147,73,80,35,35,13,13,49,63,10,7,0.7,0.6
2025-11-29T1300,3581A,115.31981,38.95208,保定市,满城区生态环境分局,细颗粒物(PM2.5),107,158,139,80,73,34,34,11,11,55,69,7,4,0.6,0.6
2025-11-29T1300,3582A,115.47694,38.76408,保定市,清苑区第二中学,颗粒物(PM10),113,176,180,76,80,34,34,12,12,50,66,12,10,0.8,0.7
2025-11-29T1300,3583A,115.62909,39.02311,保定市,徐水物探局,颗粒物(PM10),117,183,173,82,82,34,34,12,12,44,53,10,9,0.7,0.8
2025-11-29T1300,4004A,115.4202,38.8656,保定市,双鹰农机,颗粒物(PM10),117,183,156,59,68,40,40,19,19,47,62,10,7,0.9,0.7
2025-11-29T1300,4034A,115.5150,38.8590,保定市,植保所站,细颗粒物(PM2.5),114,165,141,86,79,17,17,3,3,66,70,6,4,0.7,0.6
2025-11-29T1300,2594A,99.1678,25.1081,保山市,市环境监测站,,41,41,30,22,19,96,96,49,49,11,10,6,6,0.3,0.3
2025-11-29T1300,2595A,99.1711,25.1328,保山市,市环保局,,39,33,31,27,21,94,94,53,53,12,8,5,5,0.5,0.5
2025-11-29T1300,1866A,109.2262,21.588,北海市,牛尾岭水库,颗粒物(PM10),51,51,60,27,38,104,104,54,54,6,8,5,6,0.6,0.2
2025-11-29T1300,1867A,109.1436,21.4086,北海市,海滩公园,颗粒物(PM10),66,82,80,37,37,119,119,77,77,13,21,10,14,0.5,0.5
2025-11-29T1300,1868A,109.0981,21.4661,北海市,新市环保局,颗粒物(PM10),60,70,79,36,45,126,126,75,75,16,23,8,10,0.5,0.5
2025-11-29T1300,1869A,109.1778,21.5233,北海市,北海工业园,颗粒物(PM10),59,68,79,32,43,127,127,73,73,15,25,10,14,0.6,0.6
2025-11-29T1300,3400A,109.1911,21.4415,北海市,龙潭自来水厂,颗粒物(PM10),55,60,83,34,51,114,114,60,60,10,22,14,15,0.4,0.4
2025-11-29T1300,1001A,116.3621,39.8784,北京市,万寿西宫,颗粒物(PM10),94,138,129,60,54,14,14,7,7,72,69,4,5,0.7,0.7
2025-11-29T1300,1002A,116.2202,40.2915,北京市,定陵,,,,,,,,,,,,,,,,
2025-11-29T1300,1003A,116.4174,39.9289,北京市,东四,颗粒物(PM10),72,94,135,29,50,61,61,23,23,18,56,3,7,0.6,1
2025-11-29T1300,1004A,116.4072,39.8863,北京市,天坛,颗粒物(PM10),96,141,111,56,50,12,12,10,10,77,53,4,3,1.0,0.8
2025-11-29T1300,1005A,116.462,39.9365,北京市,农展馆,颗粒物(PM10),71,91,131,29,54,61,61,18,18,15,54,4,6,0.4,0.8
2025-11-29T1300,1006A,116.3392,39.9295,北京市,官园,颗粒物(PM10),87,124,121,46,48,40,40,18,18,40,59,5,6,0.6,0.8
2025-11-29T1300,1007A,116.2878,39.9611,北京市,海淀万柳,颗粒物(PM10),66,82,101,28,44,53,53,13,13,23,55,4,5,0.4,0.8
2025-11-29T1300,1008A,116.6636,40.135,北京市,顺义新城,颗粒物(PM10),97,144,145,53,61,43,43,16,16,32,50,7,6,0.5,0.7
2025-11-29T1300,1009A,116.6275,40.3275,北京市,怀柔镇,颗粒物(PM10),101,152,114,63,48,40,40,27,27,36,31,7,7,0.7,0.6
2025-11-29T1300,1010A,116.2296,40.217,北京市,昌平镇,颗粒物(PM10),56,62,93,21,42,65,65,17,17,12,37,4,6,0.4,0.5
2025-11-29T1300,1011A,116.3966,39.9821,北京市,奥体中心,颗粒物(PM10),63,76,108,28,47,61,61,17,17,22,66,4,6,0.4,0.9
2025-11-29T1300,3281A,115.9718,40.4529,北京市,延庆夏都,,36,36,77,11,35,78,78,30,30,4,31,1,2,0.3,0.6
2025-11-29T1300,3418A,116.8336,40.4095,北京市,密云新城,颗粒物(PM10),88,125,128,47,48,45,45,27,27,29,38,4,4,0.7,0.7
2025-11-29T1300,3671A,116.088,39.9726,北京市,门头沟三家店,颗粒物(PM10),97,143,93,41,41,71,71,24,24,7,42,2,2,0.5,0.7
2025-11-29T1300,3672A,116.1541,39.8204,北京市,丰台云岗,颗粒物(PM10),98,146,120,67,58,38,38,16,16,46,59,5,5,0.4,0.4
2025-11-29T1300,3673A,116.6804,39.9081,北京市,通州东关,颗粒物(PM10),71,91,151,28,59,58,58,18,18,21,62,5,8,0.4,0.8
2025-11-29T1300,3674A,115.9577,39.7603,北京市,房山燕山,颗粒物(PM10),95,140,106,65,47,42,42,19,19,45,49,5,4,0.7,0.7
2025-11-29T1300,3675A,116.4672,39.7733,北京市,大兴旧宫,颗粒物(PM10),95,140,138,51,52,25,25,9,9,50,54,6,5,0.6,0.7
2025-11-29T1300,3694A,115.986,40.4563,北京市,延庆石河营,,33,33,77,10,34,71,71,27,27,4,32,3,3,0.4,0.7
2025-11-29T1300,3695A,116.6151,40.3053,北京市,怀柔新城,颗粒物(PM10),101,152,116,58,49,37,37,29,29,32,25,5,4,0.6,0.5
2025-11-29T1300,3696A,116.2545,39.8768,北京市,丰台小屯,颗粒物(PM10),101,152,121,70,50,21,21,6,6,58,62,5,4,0.7,0.8
2025-11-29T1300,3697A,116.84,40.3844,北京市,密云镇,颗粒物(PM10),91,132,135,50,53,40,40,16,16,28,47,3,3,0.6,0.8
2025-11-29T1300,4182A,116.1942,39.9158,北京市,八角北路9号,颗粒物(PM10),102,154,120,60,45,24,24,27,10,46,50,4,2,0.6,0.6
2025-11-29T1300,4194A,117.0790,40.1518,北京市,洳河巡河路,颗粒物(PM10),108,166,155,54,59,39,39,15,15,48,31,4,3,0.7,0.9
2025-11-29T1300,1761A,123.8275,41.3064,本溪市,大峪,颗粒物(PM10),87,123,49,46,20,63,63,70,68,22,16,9,9,0.7,0.5
2025-11-29T1300,1762A,123.7567,41.3325,本溪市,溪湖,细颗粒物(PM2.5),72,90,68,52,31,60,60,53,53,26,23,15,14,1.2,1.5
2025-11-29T1300,1763A,123.7169,41.3094,本溪市,彩屯,颗粒物(PM10),78,106,52,49,25,61,61,38,38,22,28,14,13,1.4,2.5
2025-11-29T1300,1764A,123.7669,41.2864,本溪市,东明,颗粒物(PM10),78,106,44,44,19,61,61,61,59,19,14,11,10,0.6,0.4
2025-11-29T1300,1765A,123.7992,41.2664,本溪市,新立屯,颗粒物(PM10),83,116,45,44,22,60,60,70,64,28,15,6,6,0.4,0.4
2025-11-29T1300,1766A,123.8142,41.3472,本溪市,威宁,颗粒物(PM10),86,122,53,47,21,60,60,62,62,16,13,11,8,0.8,0.5
2025-11-29T1300,2587A,105.2864,27.3125,毕节市,八中,细颗粒物(PM2.5),112,114,142,84,104,88,88,37,37,24,26,15,13,0.8,0.9
2025-11-29T1300,2588A,105.31,27.2944,毕节市,师专,细颗粒物(PM2.5),97,94,133,72,95,96,96,40,38,19,35,15,13,0.9,1.1
2025-11-29T1300,4263A,105.3688,27.3598,毕节市,工业大道,细颗粒物(PM2.5),128,118,136,97,97,95,95,49,39,14,23,16,13,1.1,1.2
2025-11-29T1300,1629A,118.0018,37.3617,滨州市,第二水厂,颗粒物(PM10),152,254,214,103,85,58,58,23,23,44,66,24,18,0.9,0.9
2025-11-29T1300,1630A,117.9776,37.393,滨州市,北中新校,细颗粒物(PM2.5),140,224,185,107,83,54,54,16,16,48,69,20,13,0.6,1
2025-11-29T1300,3514A,117.9378,37.3956,滨州市,中海酒店,细颗粒物(PM2.5),149,244,193,114,79,78,78,33,33,32,52,25,15,0.6,1.3
2025-11-29T1300,3515A,117.9378,37.3553,滨州市,开发区一中,颗粒物(PM10),156,261,225,110,87,59,59,24,24,41,61,34,23,1.1,1
2025-11-29T1300,3516A,118.0917,37.694,滨州市,金海六路,颗粒物(PM10),164,278,252,83,83,53,53,17,17,42,72,14,25,0.7,0.9
2025-11-29T1300,4028A,117.9956,37.3753,滨州市,滨州市西街道办事处,颗粒物(PM10),152,254,212,107,86,57,57,19,19,35,54,23,14,0.9,1.2
2025-11-29T1300,2311A,115.8072,33.8399,亳州市,污水处理厂,颗粒物(PM10),81,112,106,40,44,89,89,64,64,20,24,6,6,0.7,0.7
2025-11-29T1300,2312A,115.7789,33.8518,亳州市,三国揽胜宫,颗粒物(PM10),76,101,108,45,44,86,86,63,63,19,21,8,7,0.5,0.5
2025-11-29T1300,3332A,115.7633,33.8034,亳州市,亳州学院,细颗粒物(PM2.5),73,85,99,53,39,92,92,63,63,16,22,5,6,0.6,0.4
2025-11-29T1300,2693A,82.0485,44.8556,博尔塔拉蒙古自治州,市党校,,34,34,36,10,15,38,38,31,31,14,15,2,2,0.3,0.3
2025-11-29T1300,2694A,82.0806,44.8969,博尔塔拉蒙古自治州,市环保局,,48,48,47,21,22,37,37,35,35,16,15,6,6,0.5,0.5
2025-11-29T1300,1071A,116.8842,38.2991,沧州市,沧县城建局,细颗粒物(PM2.5),160,212,237,122,109,41,41,18,18,60,64,17,15,1.0,0.9
2025-11-29T1300,1072A,116.8584,38.3254,沧州市,电视转播站,细颗粒物(PM2.5),132,175,224,100,102,39,39,11,11,52,61,12,10,0.9,1
2025-11-29T1300,1073A,116.8709,38.3228,沧州市,市环保局,颗粒物(PM10),123,195,242,86,104,47,47,19,19,44,58,12,13,0.8,0.9
2025-11-29T1300,3324A,116.8136,38.3004,沧州市,河北水利电力学院,颗粒物(PM10),140,229,268,82,87,38,38,13,13,47,60,14,19,0.6,0.9
2025-11-29T1300,2622A,97.1806,31.1273,昌都市,昌都监测站,,23,23,56,12,15,57,57,37,37,12,21,2,3,0.4,1
2025-11-29T1300,3719A,97.1714,31.1406,昌都市,昌都会议中心,,20,20,26,8,12,62,62,43,43,6,9,3,3,0.2,0.3
2025-11-29T1300,2690A,88.1236,43.8886,昌吉回族自治州,天山天池,,,,,,,,,,,,,,,,
2025-11-29T1300,2692A,87.2717,44.0297,昌吉回族自治州,新区政务中心,,40,40,64,27,48,13,13,15,15,28,34,2,2,1.1,1.2
2025-11-29T1300,3613A,87.3095,44.0142,昌吉回族自治州,亚心广场,,44,44,69,29,49,16,16,19,19,19,26,6,6,0.7,0.9
2025-11-29T1300,1120A,125.2863,43.9027,长春市,客车厂,颗粒物(PM10),107,164,53,43,30,71,71,62,61,13,16,8,9,0.5,0.5
2025-11-29T1300,1121A,125.2841,43.8463,长春市,邮电学院,颗粒物(PM10),107,163,53,27,27,70,70,60,58,16,18,10,11,0.5,0.5
2025-11-29T1300,1122A,125.3716,43.8772,长春市,劳动公园,颗粒物(PM10),105,160,50,33,22,66,66,60,60,17,17,10,12,0.3,0.5
2025-11-29T1300,1123A,125.3297,43.8805,长春市,园林处,颗粒物(PM10),131,212,62,70,37,66,66,,,14,17,6,8,,0.7
2025-11-29T1300,1124A,125.4605,43.79,长春市,净月潭,颗粒物(PM10),104,157,40,31,19,74,74,67,67,12,10,7,8,0.5,0.4
2025-11-29T1300,1125A,125.7194,43.515,长春市,甩湾子,颗粒物(PM10),59,67,31,28,19,67,67,65,64,12,10,7,6,0.1,0.1
2025-11-29T1300,1126A,125.3863,43.8447,长春市,经开区环卫处,颗粒物(PM10),101,152,45,26,20,64,64,56,56,16,18,7,9,0.5,0.4
2025-11-29T1300,1127A,125.245,43.7783,长春市,高新区管委会,颗粒物(PM10),97,143,51,33,30,72,72,60,60,11,14,6,7,0.4,0.4
2025-11-29T1300,1128A,125.1761,43.8325,长春市,岱山公园,颗粒物(PM10),95,139,58,34,31,66,66,53,53,12,19,7,8,0.4,0.4
2025-11-29T1300,4281A,125.3346,43.9164,长春市,北亚泰大街1068号,颗粒物(PM10),106,161,54,41,29,61,61,48,47,16,22,7,9,0.6,0.6
2025-11-29T1300,1335A,113.0833,28.2325,长沙市,经开区环保局,颗粒物(PM10),68,86,98,30,43,98,98,56,56,16,24,11,7,0.7,0.5
2025-11-29T1300,1336A,112.8872,28.2189,长沙市,高开区环保局,颗粒物(PM10),68,86,96,39,40,89,89,58,58,14,18,16,12,0.9,0.7
2025-11-29T1300,1337A,113.0792,28.2053,长沙市,马坡岭,颗粒物(PM10),68,85,101,30,42,103,103,57,57,17,30,13,8,0.7,0.6
2025-11-29T1300,1338A,112.9394,28.19,长沙市,湖南师范大学,颗粒物(PM10),71,91,97,33,39,99,99,55,55,16,28,14,8,0.6,0.6
2025-11-29T1300,1339A,113.0178,28.1322,长沙市,雨花区环保局,颗粒物(PM10),67,83,96,20,37,97,97,57,57,14,33,18,13,0.5,0.5
2025-11-29T1300,1340A,112.9792,28.2597,长沙市,伍家岭,颗粒物(PM10),71,91,117,30,51,93,93,30,30,19,43,14,7,0.7,0.7
2025-11-29T1300,1341A,113.0014,28.1944,长沙市,火车新站,颗粒物(PM10),66,82,107,34,42,102,102,51,51,17,49,13,10,0.5,0.6
2025-11-29T1300,1342A,112.9844,28.1178,长沙市,天心区环保局,颗粒物(PM10),64,77,93,30,39,102,102,56,56,15,32,14,11,0.5,0.5
2025-11-29T1300,1343A,112.8908,28.1308,长沙市,湖南中医药大学,颗粒物(PM10),70,90,106,34,44,102,102,37,37,13,40,17,10,0.9,0.7
2025-11-29T1300,1344A,112.9581,28.3611,长沙市,沙坪,,,,,,,,,,,,,,,,
2025-11-29T1300,1727A,113.1147,36.1547,长治市,清华站,颗粒物(PM10),57,63,104,14,25,86,86,38,38,11,36,11,12,0.3,0.5
2025-11-29T1300,1730A,113.0886,36.2125,长治市,审计局,颗粒物(PM10),57,63,72,24,29,80,80,30,30,14,42,9,11,0.4,0.6
2025-11-29T1300,1731A,113.0844,36.1856,长治市,长治八中,颗粒物(PM10),63,75,99,39,41,83,83,30,30,8,31,10,12,0.4,0.7
2025-11-29T1300,2845A,113.1569,36.1911,长治市,德盛苑,颗粒物(PM10),57,63,60,24,26,86,86,71,71,10,13,9,10,0.4,0.4
2025-11-29T1300,3568A,113.06,36.0464,长治市,向阳小学,颗粒物(PM10),57,64,88,15,29,95,95,66,66,10,22,14,21,0.4,0.5
2025-11-29T1300,3569A,112.8792,36.3144,长治市,屯留一中,颗粒物(PM10),51,52,90,27,43,84,84,47,47,13,33,11,14,0.5,0.8
2025-11-29T1300,4189A,113.1131,36.19948,长治市,英华南巷50号,颗粒物(PM10),61,72,79,22,32,88,88,41,41,9,32,6,11,0.5,0.6
2025-11-29T1300,4190A,113.2367,36.3344,长治市,学府街1号,颗粒物(PM10),74,98,104,42,65,80,80,33,33,16,44,10,13,0.9,1.4
2025-11-29T1300,1854A,111.6975,28.9703,常德市,市二中,,36,36,50,19,28,84,84,54,54,6,11,5,6,0.2,0.3
2025-11-29T1300,1857A,111.7158,29.1456,常德市,白鹤山,,,,,,,,,,,,,,,,
2025-11-29T1300,3138A,111.7153,29.0289,常德市,武陵区永安,颗粒物(PM10),53,56,59,22,28,79,79,53,53,6,12,8,8,0.3,0.3
2025-11-29T1300,3139A,111.6892,28.9881,常德市,鼎城区玉霞,,48,48,62,20,33,80,80,46,46,7,17,7,7,0.3,0.4
2025-11-29T1300,3140A,111.6625,29.0531,常德市,武陵区长庚,,45,45,62,22,32,84,84,65,65,6,19,4,5,0.2,0.3
2025-11-29T1300,1196A,119.9633,31.762,常州市,市监测站,颗粒物(PM10),60,69,213,27,62,88,88,35,35,25,52,3,4,0.4,0.6
2025-11-29T1300,1200A,119.9468,31.7069,常州市,武进监测站,颗粒物(PM10),73,95,212,39,64,81,81,35,35,35,49,5,10,0.3,0.3
2025-11-29T1300,1201A,119.9255,31.9087,常州市,安家,颗粒物(PM10),90,129,194,47,63,73,73,29,29,37,48,11,10,0.4,0.6
2025-11-29T1300,3002A,119.9805,31.8174,常州市,行政中心,颗粒物(PM10),59,67,214,20,55,88,88,34,34,19,48,6,8,0.4,0.8
2025-11-29T1300,3003A,120.0522,31.7748,常州市,经开区,颗粒物(PM10),78,105,235,34,60,84,84,35,35,29,51,15,14,0.4,1.2
2025-11-29T1300,3010A,119.9025,31.7964,常州市,钟楼,颗粒物(PM10),79,107,206,32,63,82,82,34,34,30,46,10,12,0.5,0.6
2025-11-29T1300,3429A,119.8598,31.7066,常州市,武进经发区,颗粒物(PM10),77,104,226,38,70,81,81,31,31,35,55,11,14,0.5,0.6
2025-11-29T1300,3430A,119.5826,31.7245,常州市,金坛城区,颗粒物(PM10),81,112,216,43,70,54,54,30,30,46,43,24,10,0.8,0.8
2025-11-29T1300,2220A,120.4318,41.5881,朝阳市,西梁,颗粒物(PM10),72,94,132,9,42,78,78,46,46,10,27,6,13,0.5,1
2025-11-29T1300,2221A,120.4521,41.5646,朝阳市,河畔小区,颗粒物(PM10),72,94,129,15,35,77,77,48,48,13,23,6,11,0.4,0.8
2025-11-29T1300,2222A,120.4176,41.5648,朝阳市,八里堡,颗粒物(PM10),77,103,132,27,38,77,77,41,41,13,34,8,14,0.4,1.1
2025-11-29T1300,2223A,120.3806,41.5969,朝阳市,农业园区,,,47,117,13,46,83,83,57,57,7,30,,14,0.3,0.9
2025-11-29T1300,1705A,116.6367,23.6719,潮州市,西园路,,,,,,,,,,,,,,,,
2025-11-29T1300,3026A,116.6183,23.6608,潮州市,市政府,颗粒物(PM10),67,84,76,27,30,89,89,51,51,10,13,5,4,0.4,0.4
2025-11-29T1300,4036A,116.6461,23.6761,潮州市,金山,颗粒物(PM10),65,80,68,25,34,111,111,61,61,7,12,3,3,0.4,0.5
2025-11-29T1300,2472A,113.0073,25.9061,郴州市,马头岭,,,,,,,,,,,,,,,,
2025-11-29T1300,2473A,113.0116,25.8226,郴州市,市职中,颗粒物(PM10),52,53,65,34,34,74,74,24,24,17,30,7,5,0.5,0.5
2025-11-29T1300,2475A,113.0383,25.8071,郴州市,市审计局,颗粒物(PM10),54,58,70,31,38,75,75,26,26,17,33,6,5,0.4,0.6
2025-11-29T1300,2476A,113.0348,25.7759,郴州市,市环保局,颗粒物(PM10),62,74,82,28,38,68,68,29,29,18,40,5,5,0.4,0.5
2025-11-29T1300,4252A,113.0138,25.8011,郴州市,好美居路49号,颗粒物(PM10),54,58,64,32,39,78,78,30,30,19,38,8,6,0.4,0.5
2025-11-29T1300,1431A,103.9728,30.7236,成都市,金泉两河,细颗粒物(PM2.5),155,147,123,118,98,81,81,18,18,40,51,6,3,0.8,1
2025-11-29T1300,1432A,104.176,30.6872,成都市,十里店,细颗粒物(PM2.5),148,150,128,113,93,59,59,17,17,62,57,4,4,1.0,0.8
2025-11-29T1300,1433A,104.079,30.5706,成都市,三瓦窑,细颗粒物(PM2.5),128,130,130,97,89,92,92,19,19,37,64,5,4,0.9,1
2025-11-29T1300,1434A,104.1114,30.63,成都市,沙河铺,细颗粒物(PM2.5),179,157,134,135,116,50,50,13,13,75,61,6,5,1.0,0.8
2025-11-29T1300,1437A,104.0786,30.6531,成都市,君平街,细颗粒物(PM2.5),180,146,145,136,122,67,67,15,15,46,63,4,5,1.1,1.2
2025-11-29T1300,1438A,103.613,31.0283,成都市,灵岩寺,,,,,,,,,,,,,,,,
2025-11-29T1300,2880A,104.0239,30.65639,成都市,大石西路,细颗粒物(PM2.5),170,133,115,129,108,65,65,16,16,61,60,4,3,1.2,1.2
2025-11-29T1300,3136A,104.2725,30.5589,成都市,龙泉驿区区政府,细颗粒物(PM2.5),138,132,96,105,70,72,72,53,51,34,17,7,6,0.8,0.7
2025-11-29T1300,3357A,104.0106,30.6931,成都市,金博路,细颗粒物(PM2.5),155,158,131,118,96,56,56,12,12,63,68,6,5,1.2,1.2
2025-11-29T1300,3359A,104.0578,30.5225,成都市,华阳,细颗粒物(PM2.5),125,146,119,95,85,83,83,21,21,38,57,5,4,0.8,0.9
2025-11-29T1300,3488A,104.3880,30.7467,成都市,青石路225号,细颗粒物(PM2.5),135,137,108,103,86,94,94,31,31,26,37,7,6,0.9,0.8
2025-11-29T1300,3489A,104.0789,30.4072,成都市,科学城,细颗粒物(PM2.5),127,124,104,96,77,72,72,25,25,31,32,6,6,0.6,0.5
2025-11-29T1300,4011A,103.8506,30.6947,成都市,光华大道三段,细颗粒物(PM2.5),149,135,141,114,109,91,91,18,18,,50,,3,0.9,1.1
2025-11-29T1300,4224A,104.2433,30.5353,成都市,鲸龙路1057号,细颗粒物(PM2.5),148,126,106,113,84,90,90,30,30,35,44,6,6,0.9,0.8
2025-11-29T1300,1062A,117.9531,40.9081,承德市,铁路,颗粒物(PM10),84,118,101,46,45,29,29,12,12,37,39,31,8,1.4,1
2025-11-29T1300,1063A,117.9392,40.9763,承德市,中国银行,,,138,92,66,39,25,25,15,15,41,36,,4,1.3,0.8
2025-11-29T1300,1064A,117.9503,40.928,承德市,开发区,颗粒物(PM10),84,118,93,46,37,27,27,12,12,38,35,21,9,1.2,0.8
2025-11-29T1300,1066A,117.9268,41.0026,承德市,离宫,,,,,,,,,,,,,,,,
2025-11-29T1300,4274A,117.7994,40.9605,承德市,滨河大街98号,颗粒物(PM10),73,96,97,41,39,38,38,13,13,35,36,31,6,2.1,1
2025-11-29T1300,2314A,117.47,30.6618,池州市,池州学院,颗粒物(PM10),69,88,125,30,42,94,94,67,67,16,23,11,16,0.4,0.6
2025-11-29T1300,3237A,117.4918,30.6617,池州市,展览馆,颗粒物(PM10),68,86,114,27,34,90,90,62,62,17,23,10,10,0.4,0.5
2025-11-29T1300,3333A,117.5627,30.695,池州市,第八中学,颗粒物(PM10),70,90,115,26,32,91,91,59,59,23,26,10,8,0.6,0.6
2025-11-29T1300,3334A,117.5038,30.6243,池州市,第十二中学,颗粒物(PM10),71,92,104,29,30,90,90,54,54,20,25,9,8,0.6,1
2025-11-29T1300,1744A,118.9233,42.2816,赤峰市,松山一中,颗粒物(PM10),55,60,87,3,24,67,67,64,64,19,30,6,9,0.4,0.7
2025-11-29T1300,1745A,118.9576,42.2728,赤峰市,哈达街,颗粒物(PM10),51,52,89,3,24,68,68,63,63,9,23,10,12,0.5,0.7
2025-11-29T1300,1746A,118.8788,42.2554,赤峰市,天义路,,37,37,74,3,32,71,71,68,68,7,18,5,7,0.6,0.7
2025-11-29T1300,3058A,119.2658,42.0353,赤峰市,银河街,颗粒物(PM10),59,68,136,17,42,79,79,57,57,5,23,7,21,0.3,0.7
2025-11-29T1300,3286A,118.9359,42.3147,赤峰市,桥北物流园区,颗粒物(PM10),56,61,95,16,38,68,68,63,63,4,21,8,11,0.3,0.5
2025-11-29T1300,2521A,107.3476,22.4136,崇左市,市环保局江州分局,颗粒物(PM10),59,67,66,23,32,87,87,34,34,12,18,5,3,0.5,0.6
2025-11-29T1300,4256A,107.3750,22.3736,崇左市,石景林东路7号,颗粒物(PM10),63,75,50,42,27,112,112,45,45,17,19,9,8,0.8,0.6
2025-11-29T1300,2298A,118.3093,32.3153,滁州市,老年大学,颗粒物(PM10),67,83,135,30,45,110,110,68,68,9,32,13,13,0.4,0.6
2025-11-29T1300,2299A,118.3244,32.2786,滁州市,人大宾馆,颗粒物(PM10),76,102,138,46,52,105,105,60,60,15,39,10,9,0.4,0.5
2025-11-29T1300,3207A,118.3118,32.3038,滁州市,市政府原办公楼,颗粒物(PM10),70,90,116,38,48,112,112,75,75,13,39,8,9,0.5,0.7
2025-11-29T1300,3331A,118.3267,32.2634,滁州市,图书馆,颗粒物(PM10),77,104,132,32,48,108,108,62,62,13,39,12,12,0.4,0.5
2025-11-29T1300,2605A,101.5482,25.0441,楚雄彝族自治州,州环境监测站,,,37,33,19,21,66,66,21,21,,29,6,12,0.6,0.7
2025-11-29T1300,2606A,101.538,25.0492,楚雄彝族自治州,市经济开发区,,30,29,37,21,21,70,70,22,22,13,23,7,13,0.6,0.6
2025-11-29T1300,2548A,107.5277,31.2827,达州市,达州职业技术学院,,,,,,,,,,,,,,,,
2025-11-29T1300,2549A,107.5086,31.2186,达州市,市环境监测站,细颗粒物(PM2.5),67,74,74,48,46,42,42,13,13,29,40,12,7,0.6,0.7
2025-11-29T1300,2550A,107.4988,31.2132,达州市,凤凰小区,细颗粒物(PM2.5),70,78,80,51,50,47,47,17,17,26,39,12,6,0.5,0.6
2025-11-29T1300,2551A,107.5082,31.1986,达州市,达县机关宾馆,,,88,83,39,47,,,5,5,27,40,8,5,0.5,0.8
2025-11-29T1300,2552A,107.4644,31.2124,达州市,市政中心,颗粒物(PM10),65,79,91,46,47,33,33,10,10,32,42,14,7,0.6,0.8
2025-11-29T1300,2614A,100.1542,25.7054,大理白族自治州,大理市环境监测站,,27,27,21,18,23,69,69,54,51,10,10,6,6,0.8,0.7
2025-11-29T1300,2615A,100.2171,25.5811,大理白族自治州,大理古城,,28,28,40,10,17,83,83,51,51,7,17,7,7,0.6,0.7
2025-11-29T1300,1109A,121.612,38.9741,大连市,甘井子,颗粒物(PM10),114,178,108,73,38,68,68,55,47,34,31,15,9,0.6,0.4
2025-11-29T1300,1110A,121.565,38.9511,大连市,周水子,颗粒物(PM10),110,170,109,70,38,69,69,55,48,30,24,8,7,0.6,0.4
2025-11-29T1300,1111A,121.5637,38.8845,大连市,星海三站,颗粒物(PM10),103,155,90,74,36,68,68,55,48,26,21,10,7,0.5,0.3
2025-11-29T1300,1112A,121.6302,38.9117,大连市,青泥洼桥,颗粒物(PM10),111,172,118,65,36,70,70,61,53,29,20,16,12,0.7,0.6
2025-11-29T1300,1113A,121.6251,38.8638,大连市,傅家庄,颗粒物(PM10),114,177,105,73,35,64,64,58,50,26,17,13,10,0.8,0.6
2025-11-29T1300,1114A,121.5213,38.8661,大连市,七贤岭,颗粒物(PM10),116,182,108,69,38,67,67,52,43,30,23,12,9,0.7,0.5
2025-11-29T1300,1115A,121.2529,38.8061,大连市,旅顺,颗粒物(PM10),128,205,113,84,40,55,55,51,35,31,17,11,8,0.6,0.4
2025-11-29T1300,1116A,121.7485,39.1311,大连市,金州,颗粒物(PM10),116,182,102,78,36,54,54,55,34,34,19,13,9,0.6,0.4
2025-11-29T1300,1117A,121.7811,39.0496,大连市,开发区,颗粒物(PM10),111,172,92,77,36,60,60,57,39,34,21,12,9,,0.4
2025-11-29T1300,1118A,121.9762,39.0631,大连市,双D港,颗粒物(PM10),121,191,111,68,33,78,78,67,56,30,20,17,12,0.9,0.7
2025-11-29T1300,1789A,124.81117,46.03138,大庆市,大同区,颗粒物(PM10),123,195,99,47,60,49,49,35,35,19,26,9,9,0.8,0.8
2025-11-29T1300,1790A,125.129,46.533,大庆市,龙凤区,颗粒物(PM10),79,108,75,42,51,38,38,33,33,19,24,8,6,0.7,0.6
2025-11-29T1300,1791A,124.902,46.408,大庆市,红岗区,颗粒物(PM10),83,115,72,50,45,40,40,31,31,20,22,7,6,1.0,0.7
2025-11-29T1300,1792A,125.153,46.586,大庆市,萨尔图区,颗粒物(PM10),81,112,86,49,54,35,35,34,33,25,28,10,10,0.9,0.8
2025-11-29T1300,1793A,124.9042,46.6215,大庆市,让胡路区,颗粒物(PM10),77,103,75,51,53,37,37,28,28,18,26,9,11,0.8,0.8
2025-11-29T1300,3481A,125.141,46.634,大庆市,萨区政府监测点,颗粒物(PM10),75,100,76,41,42,35,35,30,30,17,19,12,10,0.6,0.5
2025-11-29T1300,1721A,113.3819,40.1097,大同市,果树场,颗粒物(PM10),120,190,209,40,62,72,72,39,39,16,42,8,13,0.7,1.1
2025-11-29T1300,1723A,113.2994,40.0758,大同市,云冈宾馆,颗粒物(PM10),118,186,259,30,57,65,65,47,41,13,33,6,8,0.4,0.6
2025-11-29T1300,1724A,113.3444,40.0917,大同市,大同大学,颗粒物(PM10),144,237,242,50,65,74,74,56,48,14,33,3,6,0.4,0.6
2025-11-29T1300,1725A,113.2661,40.1269,大同市,安家小村,颗粒物(PM10),147,244,269,50,67,75,75,48,38,9,28,8,14,0.4,1
2025-11-29T1300,1726A,113.2711,40.0844,大同市,教育学院,颗粒物(PM10),134,217,259,42,65,70,70,48,44,12,33,4,7,0.4,0.6
2025-11-29T1300,3282A,113.3397,40.0597,大同市,大同市卫生学校,,,,245,,63,,,50,,,38,,8,,0.8
2025-11-29T1300,3565A,113.1367,40.1122,大同市,云冈站,颗粒物(PM10),137,223,246,71,65,77,77,39,39,6,20,4,7,0.3,0.4
2025-11-29T1300,3566A,113.1186,40.2556,大同市,图书馆,颗粒物(PM10),187,324,273,78,81,79,79,60,52,6,16,4,7,0.4,0.5
2025-11-29T1300,3567A,113.5931,40.0461,大同市,区一中,颗粒物(PM10),169,287,268,46,64,68,68,46,46,16,34,24,24,0.6,0.8
2025-11-29T1300,4199A,113.2798,40.0997,大同市,魏都大道141号,颗粒物(PM10),145,240,276,49,64,72,72,44,40,11,34,4,7,0.5,0.7
2025-11-29T1300,2269A,124.1069,50.4097,大兴安岭地区,科技局,细颗粒物(PM2.5),75,98,46,55,31,48,48,42,42,9,14,4,6,0.3,0.3
2025-11-29T1300,3663A,124.1164,50.4278,大兴安岭地区,红旗社区,细颗粒物(PM2.5),72,66,39,52,27,54,54,48,48,7,14,6,8,0.4,0.4
2025-11-29T1300,1600A,124.3303,40.0625,丹东市,江湾东路,,35,35,35,17,20,54,54,62,57,18,17,9,11,0.7,0.9
2025-11-29T1300,1601A,124.4256,40.1503,丹东市,临江后街,,41,41,42,16,19,56,56,64,59,14,15,8,9,0.5,0.5
2025-11-29T1300,1602A,124.3933,40.1461,丹东市,元宝山,,38,38,33,20,21,50,50,65,57,19,12,11,9,1.0,0.7
2025-11-29T1300,1603A,124.3633,40.1092,丹东市,民主桥,颗粒物(PM10),60,70,47,40,24,51,51,65,56,21,24,8,9,0.7,1.1
2025-11-29T1300,3541A,109.5726,19.5167,儋州市,第一中学子站,颗粒物(PM10),65,80,68,31,26,102,102,94,92,10,8,4,4,0.5,0.5
2025-11-29T1300,3542A,109.5567,19.5187,儋州市,东坡学校子站,颗粒物(PM10),60,70,64,32,32,113,113,99,99,12,9,5,4,0.4,0.4
2025-11-29T1300,2616A,98.5842,24.428,德宏傣族景颇族自治州,德宏州监测站,细颗粒物(PM2.5),53,52,51,37,37,79,79,26,26,14,25,13,9,0.6,0.7
2025-11-29T1300,3677A,98.5881,24.4368,德宏傣族景颇族自治州,芒市人民政府综合楼,颗粒物(PM10),61,71,50,40,27,76,76,29,29,14,18,10,8,0.7,0.7
2025-11-29T1300,1901A,104.4239,31.1208,德阳市,东山公园,细颗粒物(PM2.5),114,107,113,86,90,79,79,48,48,34,30,4,5,1.0,1
2025-11-29T1300,1902A,104.3826,31.1317,德阳市,西小区,细颗粒物(PM2.5),108,130,134,81,95,59,59,17,17,39,43,7,7,0.7,0.8
2025-11-29T1300,1904A,104.3553,31.1091,德阳市,耐火材料厂,细颗粒物(PM2.5),132,150,129,100,106,53,53,13,13,54,46,4,5,1.1,1.2
2025-11-29T1300,3639A,104.4019,31.1244,德阳市,市教育局,细颗粒物(PM2.5),120,110,110,91,92,70,70,24,24,26,45,2,2,0.9,0.9
2025-11-29T1300,1622A,116.3032,37.4674,德州市,儿童乐园,颗粒物(PM10),179,307,295,112,96,37,37,16,16,52,58,23,17,1.2,1.1
2025-11-29T1300,1624A,116.2991,37.4451,德州市,监理站,颗粒物(PM10),179,307,283,129,98,41,41,22,22,58,60,30,18,1.0,0.9
2025-11-29T1300,3066A,116.2721,37.4379,德州市,九衢泉纯净水厂,颗粒物(PM10),175,300,275,112,94,36,36,14,14,72,66,50,22,1.4,1.2
2025-11-29T1300,3371A,116.3728,37.4403,德州市,开发区人民医院,颗粒物(PM10),175,300,284,124,100,41,41,19,19,66,70,40,24,1.1,1
2025-11-29T1300,3511A,116.5652,37.3319,德州市,陵城艺术中心,颗粒物(PM10),185,320,296,117,105,43,43,12,12,87,73,22,17,1.1,1.2
2025-11-29T1300,4292A,116.3525,37.4209,德州市,新河东路,颗粒物(PM10),176,302,272,107,94,34,34,13,13,92,91,22,20,1.2,1.1
2025-11-29T1300,2621A,99.7056,27.8317,迪庆藏族自治州,迪庆州站,,28,25,32,19,21,71,71,46,46,6,11,6,6,0.6,0.8
2025-11-29T1300,3180A,99.7136,27.8094,迪庆藏族自治州,质量技术监督局,,36,36,35,3,21,76,76,44,44,9,13,8,8,0.6,0.6
2025-11-29T1300,4257A,104.6092,35.5962,定西市,将台街,,48,48,73,14,41,73,73,23,23,13,30,12,16,0.6,0.9
2025-11-29T1300,4309A,104.6159,35.5701,定西市,正龙路62号,,,,72,,38,76,76,34,34,8,19,10,9,0.8,0.8
2025-11-29T1300,1389A,113.7547,23.0494,东莞市,莞城梨川,颗粒物(PM10),56,62,70,32,29,111,111,62,62,24,40,6,6,0.6,0.6
2025-11-29T1300,1390A,113.7944,23.0128,东莞市,东城石井,颗粒物(PM10),65,80,64,39,28,142,142,58,58,36,37,11,10,0.4,0.4
2025-11-29T1300,1391A,113.7383,22.9658,东莞市,南城西平,颗粒物(PM10),60,70,79,39,36,139,139,52,52,36,64,13,11,0.6,0.6
2025-11-29T1300,3319A,113.7338,23.0381,东莞市,万江金泰,颗粒物(PM10),58,66,68,31,28,104,104,60,60,26,34,7,7,0.7,0.7
2025-11-29T1300,3626A,113.7533,23.0202,东莞市,南城元岭,颗粒物(PM10),60,70,70,35,28,132,132,66,66,26,38,9,9,0.3,0.3
2025-11-29T1300,3627A,113.7875,23.0457,东莞市,东城主山,颗粒物(PM10),52,53,73,23,28,128,128,60,60,38,45,4,6,0.3,0.3
2025-11-29T1300,1666A,118.6614,37.4309,东营市,市环保局,颗粒物(PM10),142,234,197,97,64,63,63,22,22,42,50,24,25,0.9,0.9
2025-11-29T1300,3036A,118.6904,37.4338,东营市,开发区管委会,颗粒物(PM10),152,253,212,100,67,71,71,28,28,40,47,29,22,0.5,0.5
2025-11-29T1300,3365A,118.5719,37.565,东营市,垦利区民丰路,颗粒物(PM10),155,259,208,97,67,56,56,22,22,47,60,14,11,0.7,0.9
2025-11-29T1300,3498A,118.5055,37.8612,东营市,河口城区,颗粒物(PM10),152,254,227,85,69,63,63,32,32,47,59,7,6,1.1,0.8
2025-11-29T1300,3646A,118.4978,37.4623,东营市,胜利站,颗粒物(PM10),134,217,188,90,72,68,68,24,24,48,62,20,22,0.9,1
2025-11-29T1300,3734A,118.35,37.26,东营市,理想之城,颗粒物(PM10),155,259,207,107,69,60,60,20,20,51,53,18,21,0.8,0.8
2025-11-29T1300,1591A,110.0023,39.8129,鄂尔多斯市,综合楼,,44,44,116,7,36,84,84,80,79,6,8,6,6,0.2,0.2
2025-11-29T1300,1592A,109.9486,39.8261,鄂尔多斯市,巴音孟克林场办事处,颗粒物(PM10),57,63,147,14,44,87,87,81,81,4,6,5,5,0.3,0.2
2025-11-29T1300,1593A,109.7736,39.5986,鄂尔多斯市,康泽苑,颗粒物(PM10),57,63,133,12,38,96,96,92,92,2,3,4,4,0.2,0.4
2025-11-29T1300,1594A,109.8119,39.5989,鄂尔多斯市,华泰汽车城,颗粒物(PM10),54,58,134,14,37,93,93,88,88,5,7,6,6,0.2,0.2
2025-11-29T1300,1595A,109.9734,39.7884,鄂尔多斯市,奥林花园,颗粒物(PM10),63,75,156,12,37,79,79,68,68,12,16,11,14,0.3,0.3
2025-11-29T1300,2436A,114.8938,30.3994,鄂州市,市政府,颗粒物(PM10),75,99,104,44,40,63,63,50,48,38,33,17,15,0.5,0.5
2025-11-29T1300,2437A,114.8989,30.3714,鄂州市,赵家坝,颗粒物(PM10),78,106,119,32,38,78,78,52,52,19,20,13,13,0.9,0.9
2025-11-29T1300,3654A,114.8094,30.4089,鄂州市,精准医疗中心,颗粒物(PM10),74,98,111,23,48,96,96,40,40,23,48,4,4,0.8,1.7
2025-11-29T1300,2454A,109.4978,30.2981,恩施土家族苗族自治州,湖北民院,细颗粒物(PM2.5),94,,88,70,82,60,60,19,19,17,18,7,7,0.8,0.9
2025-11-29T1300,2455A,109.4707,30.2798,恩施土家族苗族自治州,州电力总公司,细颗粒物(PM2.5),89,75,103,66,82,51,51,16,16,18,28,6,6,0.7,0.9
2025-11-29T1300,3549A,109.5061,30.3772,恩施土家族苗族自治州,龙凤新区,细颗粒物(PM2.5),84,92,86,62,55,59,59,14,14,28,23,7,7,0.4,0.4
2025-11-29T1300,2499A,108.3411,21.6158,防城港市,沙万,颗粒物(PM10),57,64,64,28,28,106,106,61,61,12,18,8,8,0.5,0.4
2025-11-29T1300,2500A,108.3514,21.7731,防城港市,防城档案局,颗粒物(PM10),56,61,82,35,39,104,104,62,62,9,25,7,5,0.4,0.5
2025-11-29T1300,2501A,108.3506,21.6414,防城港市,大海花园,颗粒物(PM10),59,68,61,22,29,115,115,65,65,12,18,8,8,0.6,0.6
2025-11-29T1300,1371A,113.1294,23.0067,佛山市,湾梁,颗粒物(PM10),64,78,94,31,48,78,78,31,31,48,66,9,9,0.7,0.8
2025-11-29T1300,1372A,113.1083,23.0478,佛山市,华材职中,颗粒物(PM10),62,73,107,38,45,80,80,33,33,34,68,7,8,0.4,0.7
2025-11-29T1300,1373A,113.144,23.0453,佛山市,南海气象局,颗粒物(PM10),68,85,95,44,40,79,79,28,28,42,62,8,9,0.5,0.7
2025-11-29T1300,1374A,113.2881,22.8094,佛山市,顺德苏岗,颗粒物(PM10),53,56,65,24,27,69,69,27,27,42,58,8,8,0.3,0.4
2025-11-29T1300,1376A,112.8383,22.8678,佛山市,高明孔堂,颗粒物(PM10),60,70,78,33,35,96,96,40,40,21,34,9,8,0.3,0.4
2025-11-29T1300,1377A,112.8836,23.1588,佛山市,三水监测站,颗粒物(PM10),59,68,99,29,45,89,89,42,42,25,59,12,14,0.6,0.8
2025-11-29T1300,1378A,112.867,23.185,佛山市,三水云东海,颗粒物(PM10),58,65,84,36,41,99,99,42,42,31,51,10,8,0.5,0.6
2025-11-29T1300,3625A,113.2544,22.7642,佛山市,容桂街道办,颗粒物(PM10),59,68,85,24,35,71,71,27,27,48,65,6,7,0.7,0.7
2025-11-29T1300,1280A,119.3903,26.0543,福州市,鼓山,,,,129,,24,,,98,,,9,,2,,0.5
2025-11-29T1300,1282A,119.2681,26.0504,福州市,师大,颗粒物(PM10),91,131,123,27,40,93,93,63,63,12,21,7,8,0.3,0.3
2025-11-29T1300,1283A,119.2984,26.1028,福州市,五四北路,颗粒物(PM10),79,107,118,30,33,101,101,71,71,14,21,5,5,0.4,0.4
2025-11-29T1300,1284A,119.2648,26.0768,福州市,杨桥西路,颗粒物(PM10),82,113,124,29,33,99,99,66,66,14,20,5,5,0.4,0.5
2025-11-29T1300,1285A,119.317,26.0746,福州市,紫阳,颗粒物(PM10),82,113,122,33,35,90,90,69,65,26,22,7,8,0.5,0.5
2025-11-29T1300,3048A,119.5799,26.0936,福州市,九龙,颗粒物(PM10),71,91,118,16,26,99,99,70,70,4,12,3,4,0.2,0.4
2025-11-29T1300,3526A,119.5189,25.9664,福州市,吴航,颗粒物(PM10),73,95,127,28,34,87,87,59,59,25,27,10,8,0.5,0.4
2025-11-29T1300,1755A,123.7977,41.8491,抚顺市,望花区,颗粒物(PM10),116,181,66,55,29,57,57,56,53,29,26,17,17,0.9,0.8
2025-11-29T1300,1756A,123.9161,41.8822,抚顺市,顺城区,颗粒物(PM10),90,129,49,54,25,55,55,54,54,30,29,12,8,1.0,0.8
2025-11-29T1300,1757A,124.0436,41.8611,抚顺市,东洲区,颗粒物(PM10),90,130,49,54,21,56,56,60,58,26,14,12,10,1.0,0.6
2025-11-29T1300,1758A,123.9247,41.8642,抚顺市,新抚区,颗粒物(PM10),96,141,50,46,23,56,56,52,52,25,23,12,9,1.0,0.8
2025-11-29T1300,1759A,124.0972,41.8961,抚顺市,大伙房水库,颗粒物(PM10),83,116,41,54,19,68,68,76,75,24,10,13,11,1.0,0.6
2025-11-29T1300,1760A,123.7086,41.8391,抚顺市,沈抚新城,颗粒物(PM10),108,166,57,58,30,68,68,60,57,25,22,10,10,0.8,0.7
2025-11-29T1300,2376A,116.2127,28.0814,抚州市,桐源党溪,,,,,,,,,,,,,,,,
2025-11-29T1300,2377A,116.3544,27.9831,抚州市,市站,颗粒物(PM10),52,54,94,18,31,85,85,50,50,9,28,6,6,0.7,0.9
2025-11-29T1300,2378A,116.3565,27.963,抚州市,血防站,颗粒物(PM10),53,56,81,15,30,86,86,39,39,10,34,4,4,1.2,1.3
2025-11-29T1300,2379A,116.3564,28.0007,抚州市,采茶剧团,颗粒物(PM10),56,62,88,11,31,89,89,45,45,8,25,4,4,0.5,0.6
2025-11-29T1300,2380A,116.385,27.9647,抚州市,医学分院,颗粒物(PM10),54,57,92,16,30,86,86,47,47,12,28,4,5,1.1,1.2
2025-11-29T1300,2207A,121.6094,41.998,阜新市,工业园区,颗粒物(PM10),77,104,106,9,39,73,73,41,41,9,26,9,16,0.2,0.6
2025-11-29T1300,2208A,121.6697,42.0279,阜新市,长青街,颗粒物(PM10),61,72,96,8,36,72,72,42,42,8,28,7,16,0.3,0.7
2025-11-29T1300,2209A,121.6673,42.0705,阜新市,农业园区,颗粒物(PM10),77,103,102,7,37,70,70,42,42,6,24,5,13,0.3,0.6
2025-11-29T1300,2210A,121.6717,42.0224,阜新市,东苑,颗粒物(PM10),76,101,112,18,38,75,75,42,42,8,31,8,21,0.5,0.8
2025-11-29T1300,2211A,121.6506,42.0498,阜新市,玉龙新城,颗粒物(PM10),78,105,101,7,35,75,75,42,42,8,28,10,16,0.3,0.7
2025-11-29T1300,2301A,115.8277,32.8929,阜阳市,市监测站,颗粒物(PM10),71,91,96,13,36,95,95,,,10,14,7,6,0.5,0.4
2025-11-29T1300,2303A,115.8554,32.8605,阜阳市,开发区,,,,126,,31,87,87,58,58,13,21,7,6,,0.4
2025-11-29T1300,2875A,115.784,32.8892,阜阳市,阜阳职业技术学院,颗粒物(PM10),59,68,85,24,26,100,100,75,75,11,16,8,7,0.3,0.4
2025-11-29T1300,3468A,115.7901,32.8613,阜阳市,市规划展馆,颗粒物(PM10),77,104,102,42,42,102,102,76,76,11,15,8,7,0.6,0.6
2025-11-29T1300,3469A,115.836,32.9183,阜阳市,枣园社区,颗粒物(PM10),75,99,108,43,40,98,98,78,78,15,20,4,3,0.4,0.4
2025-11-29T1300,2669A,102.9099,34.9841,甘南藏族自治州,州政府,,36,27,64,25,38,60,60,21,21,13,39,10,10,0.4,0.8
2025-11-29T1300,3380A,102.8914,34.9617,甘南藏族自治州,甘肃民族师范学院,,27,27,91,3,20,47,47,13,13,14,33,13,11,0.6,0.6
2025-11-29T1300,2570A,101.9603,30.0475,甘孜藏族自治州,水桥子,,19,14,21,3,6,60,60,32,32,12,28,8,8,0.3,0.3
2025-11-29T1300,3065A,101.9533,29.9972,甘孜藏族自治州,州环保局,,22,6,19,3,6,68,68,50,50,10,15,6,6,0.3,0.6
2025-11-29T1300,3414A,115.8347,28.932,赣江新区,桑海产业园,颗粒物(PM10),71,92,132,26,35,93,93,36,36,26,44,18,15,0.7,0.6
2025-11-29T1300,2362A,114.9017,25.9149,赣州市,通天岩,颗粒物(PM10),56,61,55,21,17,119,119,67,67,10,7,22,19,1.3,1.3
2025-11-29T1300,2363A,114.9367,25.8664,赣州市,地委,,43,43,66,26,26,92,92,33,33,24,34,9,11,0.7,0.6
2025-11-29T1300,2364A,114.9461,25.8481,赣州市,气象台,颗粒物(PM10),62,74,84,29,24,89,89,32,32,41,49,7,15,0.9,0.8
2025-11-29T1300,2365A,114.9322,25.8333,赣州市,市图书馆,颗粒物(PM10),66,82,83,35,28,91,91,29,29,32,50,4,7,0.5,0.5
2025-11-29T1300,2366A,114.8905,25.8471,赣州市,华坚鞋城,颗粒物(PM10),68,86,103,31,34,81,81,34,34,43,51,9,8,0.7,0.6
2025-11-29T1300,3109A,115.0093,25.8613,赣州市,赣县区卫计委,颗粒物(PM10),66,82,65,30,27,107,107,39,39,20,27,8,9,0.6,0.6
2025-11-29T1300,2683A,106.2319,36.1417,固原市,马园,,,,,,,,,,,,,,,,
2025-11-29T1300,2684A,106.2792,36.0022,固原市,监测站,,43,43,64,15,32,83,83,50,50,11,34,5,9,0.5,1.1
2025-11-29T1300,2685A,106.2375,36.0211,固原市,新区,颗粒物(PM10),51,52,62,12,30,87,87,41,41,8,37,5,5,0.3,0.6
2025-11-29T1300,3522A,106.2177,35.9959,固原市,原州区十五小,,,53,48,13,17,78,78,63,59,6,14,,9,,0.6
2025-11-29T1300,2543A,106.6308,30.5278,广安市,小平旧居,,,,,,,,,,,,,,,,
2025-11-29T1300,2544A,106.6303,30.4576,广安市,市委,细颗粒物(PM2.5),114,109,94,86,70,53,53,20,20,35,41,5,4,0.9,0.9
2025-11-29T1300,2545A,106.6271,30.4663,广安市,友谊中学,细颗粒物(PM2.5),100,101,79,75,59,51,51,21,21,33,28,8,7,0.9,0.7
2025-11-29T1300,2547A,106.6388,30.4551,广安市,广电花园,细颗粒物(PM2.5),99,94,81,74,63,40,40,17,17,32,30,3,2,0.9,0.9
2025-11-29T1300,2902A,106.6351,30.4865,广安市,北辰小学,细颗粒物(PM2.5),108,125,83,81,60,58,58,21,21,27,18,16,15,1.0,1
2025-11-29T1300,2523A,105.8945,32.4535,广元市,黑石坡,,,,,,,,,,,,,,,,
2025-11-29T1300,2524A,105.821,32.4444,广元市,老城,细颗粒物(PM2.5),115,94,88,87,65,31,31,15,15,44,46,32,8,1.4,1
2025-11-29T1300,2526A,105.8628,32.4287,广元市,监测站,细颗粒物(PM2.5),92,,75,68,68,34,34,13,13,38,34,16,8,1.2,1.1
2025-11-29T1300,3617A,105.8047,32.4166,广元市,经开区,细颗粒物(PM2.5),108,109,110,81,72,29,29,9,9,35,46,44,17,1.5,1.1
2025-11-29T1300,1345A,113.2347,23.1423,广州市,广雅中学,颗粒物(PM10),67,84,107,34,45,89,89,35,35,32,67,10,8,0.8,0.7
2025-11-29T1300,1346A,113.2612,23.105,广州市,市五中,颗粒物(PM10),61,71,81,30,35,100,100,54,54,34,60,12,10,0.5,0.6
2025-11-29T1300,1348A,113.3478,23.0916,广州市,广东商学院,颗粒物(PM10),53,56,69,24,27,89,89,42,42,24,43,7,7,0.4,0.4
2025-11-29T1300,1349A,113.4332,23.1047,广州市,市八十六中,,42,42,59,15,29,94,94,37,37,15,57,8,8,0.3,0.4
2025-11-29T1300,1350A,113.3505,22.9483,广州市,番禺中学,颗粒物(PM10),56,62,89,24,32,87,87,40,40,24,48,5,6,0.2,0.3
2025-11-29T1300,1351A,113.2146,23.3916,广州市,花都师范,颗粒物(PM10),54,58,88,24,35,104,104,39,39,19,59,8,7,0.3,0.5
2025-11-29T1300,1352A,113.2597,23.1331,广州市,市监测站,颗粒物(PM10),67,84,109,28,35,102,102,46,46,32,59,10,9,0.4,0.5
2025-11-29T1300,1353A,113.5618,23.312,广州市,九龙镇镇龙,颗粒物(PM10),58,66,89,25,34,72,72,33,33,23,46,6,6,0.3,0.4
2025-11-29T1300,1354A,113.2765,23.1544,广州市,麓湖,颗粒物(PM10),55,60,66,27,28,91,91,39,39,27,54,10,9,0.5,0.6
2025-11-29T1300,1355A,113.443,23.3035,广州市,帽峰山森林公园,,,,,,,,,,,,,,,,
2025-11-29T1300,2846A,113.3221,23.1322,广州市,体育西,颗粒物(PM10),52,54,72,22,32,90,90,55,55,22,55,11,10,0.6,0.7
2025-11-29T1300,3298A,113.5717,23.5491,广州市,从化街口,颗粒物(PM10),59,68,79,36,35,87,87,33,33,26,41,9,7,0.6,0.7
2025-11-29T1300,3299A,113.3472,23.3692,广州市,白云竹料,颗粒物(PM10),57,63,87,26,36,101,101,45,45,22,43,8,7,0.5,0.6
2025-11-29T1300,3300A,113.2981,23.237,广州市,白云嘉禾,颗粒物(PM10),64,77,87,30,31,104,104,43,43,25,51,10,8,0.3,0.4
2025-11-29T1300,3301A,113.4256,23.1716,广州市,黄埔科学城,颗粒物(PM10),52,53,61,21,24,89,89,63,63,21,31,8,7,0.5,0.6
2025-11-29T1300,3302A,113.3942,23.0483,广州市,番禺大学城,颗粒物(PM10),54,58,71,22,32,95,95,39,39,20,62,11,11,0.3,0.4
2025-11-29T1300,3303A,113.4922,22.8168,广州市,南沙黄阁,颗粒物(PM10),64,78,88,40,26,142,142,70,70,36,62,18,17,0.4,0.5
2025-11-29T1300,3304A,113.5342,22.7896,广州市,南沙街,颗粒物(PM10),69,88,78,36,33,123,123,50,50,36,53,8,11,0.5,0.5
2025-11-29T1300,3443A,113.2902,23.5544,广州市,花都梯面,,46,46,58,19,24,104,104,51,51,8,41,11,7,0.3,0.4
2025-11-29T1300,3445A,113.7858,23.7478,广州市,从化良口,,36,36,43,21,19,89,89,43,43,8,22,7,7,0.4,0.4
2025-11-29T1300,3446A,113.8051,23.2614,广州市,增城荔城,,49,49,54,23,23,104,104,62,62,8,15,6,6,0.4,0.4
2025-11-29T1300,2505A,109.568,23.1478,贵港市,德智高中,,,,,,,,,,,,,,,,
2025-11-29T1300,2506A,109.6047,23.0666,贵港市,江南子站,颗粒物(PM10),58,66,135,25,74,103,103,34,34,16,44,13,13,0.7,0.9
2025-11-29T1300,2508A,109.5669,23.1065,贵港市,荷城子站,颗粒物(PM10),58,66,100,22,44,97,97,38,38,18,35,12,9,0.5,0.8
2025-11-29T1300,3405A,109.5886,23.1172,贵港市,新世纪学校,颗粒物(PM10),59,68,89,26,42,106,106,42,42,12,33,11,9,0.3,0.5
2025-11-29T1300,4260A,109.5933,23.0951,贵港市,中山路155-3号,颗粒物(PM10),58,65,92,35,51,103,103,39,39,14,37,9,10,0.4,0.6
2025-11-29T1300,1439A,106.6899,26.5998,贵阳市,马鞍山,,39,39,40,17,22,86,86,30,30,13,22,11,7,0.3,0.5
2025-11-29T1300,1441A,106.6243,26.6266,贵阳市,鉴湖路,颗粒物(PM10),53,56,50,22,16,91,91,69,69,19,23,8,11,0.5,0.4
2025-11-29T1300,1442A,106.7487,26.6343,贵阳市,燕子冲,,39,39,42,27,31,96,96,30,30,14,26,12,10,0.2,0.4
2025-11-29T1300,1443A,106.6555,26.4365,贵阳市,碧云窝,颗粒物(PM10),52,53,49,19,20,91,91,38,38,9,14,13,12,0.5,0.9
2025-11-29T1300,1445A,106.7109,26.6027,贵阳市,红边门,,41,41,53,22,31,94,94,31,31,12,37,12,24,0.2,0.6
2025-11-29T1300,1446A,106.7164,26.5699,贵阳市,新华路,,46,46,62,19,29,105,105,39,39,13,36,16,25,0.5,0.7
2025-11-29T1300,1447A,106.674,26.5424,贵阳市,太慈桥,,46,46,46,14,23,89,89,35,35,13,26,10,9,0.1,0.3
2025-11-29T1300,1552A,106.805,26.3003,贵阳市,桐木岭,,48,48,41,22,20,96,96,95,95,1,2,8,6,0.5,0.6
2025-11-29T1300,4230A,106.6882,26.5695,贵阳市,花果园大街66号,,31,31,44,21,32,89,89,30,30,13,39,8,16,0.4,0.7
2025-11-29T1300,4231A,106.6873,26.5169,贵阳市,漓江路57号,,34,34,47,17,31,92,92,29,29,11,35,17,25,0.3,0.6
2025-11-29T1300,1862A,110.4144,25.3167,桂林市,电子科大尧山校区,,,,,,,,,,,,,,,,
2025-11-29T1300,1864A,110.3089,25.2708,桂林市,龙隐路小学,,,,67,,43,90,90,32,32,19,35,13,13,,0.6
2025-11-29T1300,1865A,110.2869,25.2178,桂林市,八中,颗粒物(PM10),72,93,83,32,49,94,94,37,37,20,36,15,13,0.4,0.6
2025-11-29T1300,3531A,110.296,25.1253,桂林市,旅游学院,细颗粒物(PM2.5),62,70,78,44,40,95,95,36,36,20,32,13,7,0.3,0.4
2025-11-29T1300,4222A,110.1835,25.2444,桂林市,环湖路276号,颗粒物(PM10),65,80,90,44,44,66,66,22,22,35,50,14,12,0.3,0.4
2025-11-29T1300,4301A,110.2803,25.2773,桂林市,信义路13号,颗粒物(PM10),65,80,73,37,38,95,95,37,37,19,38,13,15,0.5,0.6
2025-11-29T1300,2674A,100.2561,34.4714,果洛藏族自治州,玛沁县大武镇,,34,34,40,6,12,77,77,42,42,5,7,13,12,0.6,0.4
2025-11-29T1300,1129A,126.5422,45.755,哈尔滨市,岭北,,,,,,,,,,,,,,,,
2025-11-29T1300,1130A,126.561,45.8167,哈尔滨市,松北商大,颗粒物(PM10),55,59,41,27,26,41,41,48,48,21,25,8,8,0.6,0.6
2025-11-29T1300,1131A,126.979,45.5419,哈尔滨市,阿城会宁,,46,46,36,20,21,51,51,57,57,12,17,8,6,0.4,0.4
2025-11-29T1300,1132A,126.599,45.7222,哈尔滨市,南岗学府路,颗粒物(PM10),55,59,48,25,23,37,37,45,43,20,22,10,10,0.7,0.6
2025-11-29T1300,1133A,126.689,45.7733,哈尔滨市,太平宏伟公园,颗粒物(PM10),57,64,43,27,27,42,42,56,51,18,11,10,10,0.6,0.5
2025-11-29T1300,1134A,126.635,45.7667,哈尔滨市,道外承德广场,颗粒物(PM10),57,63,56,30,28,37,37,51,44,26,26,12,15,1.3,1.1
2025-11-29T1300,1135A,126.685,45.7319,哈尔滨市,香坊红旗大街,颗粒物(PM10),57,63,49,28,26,38,38,52,48,24,18,10,10,0.6,0.6
2025-11-29T1300,1136A,126.6411,45.7258,哈尔滨市,动力和平路,颗粒物(PM10),51,52,46,35,29,34,34,50,43,28,20,6,8,0.8,0.7
2025-11-29T1300,1137A,126.593,45.7478,哈尔滨市,道里建国路,颗粒物(PM10),52,54,48,32,32,34,34,41,38,26,32,7,9,0.7,1.3
2025-11-29T1300,1138A,126.615,45.61,哈尔滨市,平房东轻厂,,50,50,38,26,29,40,40,49,46,15,16,12,11,0.4,0.5
2025-11-29T1300,1139A,126.595,45.9855,哈尔滨市,呼兰师专,,,,48,,39,,,36,,,32,,11,,0.7
2025-11-29T1300,1140A,126.6206,45.6842,哈尔滨市,省农科院,,,65,44,34,29,39,39,39,38,28,34,,6,0.6,0.6
2025-11-29T1300,2688A,93.5128,42.8172,哈密市,地区监测站,颗粒物(PM10),116,182,320,76,92,51,51,43,41,27,31,11,8,0.5,0.3
2025-11-29T1300,2689A,93.4961,42.8328,哈密市,哈密师范学校,颗粒物(PM10),97,143,253,55,76,53,53,30,30,28,45,18,12,0.9,0.9
2025-11-29T1300,2671A,100.9048,36.9639,海北藏族自治州,海晏县西海镇,,28,16,16,10,11,88,88,62,60,1,3,9,9,0.3,0.3
2025-11-29T1300,3867A,102.0738,36.5056,海东市,平安区公安北苑,颗粒物(PM10),93,135,51,25,21,56,56,31,31,32,26,34,14,1.4,0.9
2025-11-29T1300,1409A,110.576,19.9507,海口市,东寨港,,,,,,,,,,,,,,,,
2025-11-29T1300,1410A,110.3232,20.0574,海口市,海南大学,颗粒物(PM10),59,68,64,24,24,118,118,34,17,12,11,8,8,0.4,0.3
2025-11-29T1300,1411A,110.283,20.0053,海口市,秀英海南医院,颗粒物(PM10),61,71,64,23,23,110,110,112,98,14,12,10,9,0.3,0.2
2025-11-29T1300,1412A,110.338,19.9969,海口市,海南师范大学,颗粒物(PM10),60,70,64,24,23,118,118,119,104,15,13,8,8,0.4,0.4
2025-11-29T1300,1413A,110.33,20.0356,海口市,龙华路环保局宿舍,颗粒物(PM10),60,70,64,25,24,116,116,118,101,15,13,10,9,0.5,0.5
2025-11-29T1300,3539A,110.5111,19.9736,海口市,桂林洋子站,颗粒物(PM10),58,66,69,24,25,117,117,115,101,14,13,10,9,0.3,0.3
2025-11-29T1300,2673A,100.6188,36.2866,海南藏族自治州,共和县恰卜恰镇,,32,,28,22,18,83,83,45,45,6,25,15,12,0.6,0.6
2025-11-29T1300,2676A,97.3731,37.3753,海西蒙古族藏族自治州,德令哈市,,25,13,17,7,7,80,80,68,68,4,6,18,15,0.4,0.4
2025-11-29T1300,1048A,114.5302,36.6116,邯郸市,东污水处理厂,细颗粒物(PM2.5),190,216,196,143,104,49,49,21,21,56,61,18,12,1.1,1.1
2025-11-29T1300,1049A,114.4918,36.5713,邯郸市,矿院,细颗粒物(PM2.5),185,181,169,139,108,58,58,22,22,58,65,17,10,1.0,1.1
2025-11-29T1300,1050A,114.484,36.6133,邯郸市,丛台公园,细颗粒物(PM2.5),170,219,180,129,99,53,53,22,22,,58,17,13,1.1,1.1
2025-11-29T1300,3458A,114.7895,36.5593,邯郸市,香泉濮院小区,细颗粒物(PM2.5),168,264,261,127,109,55,55,23,23,52,57,16,15,1.1,0.9
2025-11-29T1300,3579A,114.50634,36.77178,邯郸市,永年区实验高中,颗粒物(PM10),133,216,176,94,74,54,54,24,24,57,60,14,10,0.9,1
2025-11-29T1300,3580A,114.20016,36.44293,邯郸市,峰峰矿区临水派出所,细颗粒物(PM2.5),170,155,170,129,114,43,43,27,27,65,59,16,22,1.1,1.3
2025-11-29T1300,2634A,106.9893,33.1842,汉中市,汉川机床厂子校,,,,,,,,,,,,,,,,
2025-11-29T1300,2635A,107.0154,33.0706,汉中市,市监测站,细颗粒物(PM2.5),87,83,106,64,82,64,64,26,26,22,35,8,6,1.1,1.1
2025-11-29T1300,2636A,107.0089,33.1138,汉中市,鑫源开发区,细颗粒物(PM2.5),82,93,104,60,66,87,87,34,34,25,36,10,7,1.1,1
2025-11-29T1300,2637A,107.007,33.0323,汉中市,南郑大河坎水厂,细颗粒物(PM2.5),74,82,120,54,74,63,63,19,19,17,27,10,9,0.9,1
2025-11-29T1300,1223A,120.2072,30.2111,杭州市,滨江,颗粒物(PM10),78,106,149,41,51,81,81,44,44,35,50,9,8,0.5,0.5
2025-11-29T1300,1224A,120.0633,30.2747,杭州市,西溪,颗粒物(PM10),61,72,115,27,38,95,95,28,28,12,33,10,8,0.1,0.3
2025-11-29T1300,1226A,120.3417,30.3150,杭州市,下沙,颗粒物(PM10),80,109,191,56,68,84,84,47,47,34,61,10,9,0.4,0.6
2025-11-29T1300,1227A,120.1269,30.2456,杭州市,卧龙桥,颗粒物(PM10),67,84,105,36,36,75,75,28,28,27,34,10,9,0.4,0.4
2025-11-29T1300,1228A,120.1903,30.2692,杭州市,浙江农大,颗粒物(PM10),70,90,148,41,58,85,85,41,41,44,64,9,8,0.6,0.7
2025-11-29T1300,1230A,120.1197,30.3119,杭州市,和睦小学,颗粒物(PM10),76,101,157,50,65,72,72,29,29,32,56,11,10,0.6,0.7
2025-11-29T1300,1231A,120.3019,30.4183,杭州市,临平镇,颗粒物(PM10),79,107,194,41,59,76,76,40,40,30,60,8,8,0.6,0.7
2025-11-29T1300,1232A,120.2753,30.1839,杭州市,城厢镇,颗粒物(PM10),89,127,170,53,55,87,87,38,38,40,55,9,8,0.4,0.4
2025-11-29T1300,1233A,120.0883,30.1808,杭州市,云栖,细颗粒物(PM2.5),78,100,132,57,48,85,85,33,33,27,38,6,4,0.6,0.6
2025-11-29T1300,3557A,119.9464,30.0494,杭州市,镇二中,颗粒物(PM10),68,86,139,42,52,80,80,32,32,30,45,8,6,0.7,0.7
2025-11-29T1300,3558A,119.7183,30.2367,杭州市,市府大楼,颗粒物(PM10),54,58,129,25,46,88,88,46,46,13,28,10,10,0.5,0.5
2025-11-29T1300,3656A,120.1556,30.2864,杭州市,消防大队,颗粒物(PM10),77,103,165,38,55,76,76,35,35,29,58,7,6,0.4,0.4
2025-11-29T1300,1270A,117.1959,31.7848,合肥市,明珠广场,,,122,129,44,38,74,74,40,40,35,38,9,10,,0.7
2025-11-29T1300,1271A,117.3072,31.8764,合肥市,三里街,颗粒物(PM10),82,114,131,41,39,62,62,32,32,46,55,8,7,0.7,0.8
2025-11-29T1300,1272A,117.2588,31.8707,合肥市,琥珀山庄,颗粒物(PM10),85,119,131,50,48,69,69,38,38,37,40,8,7,0.6,0.6
2025-11-29T1300,1273A,117.1604,31.9052,合肥市,董铺水库,,,,,,,,,,,,,,,,
2025-11-29T1300,1274A,117.25,31.8571,合肥市,长江中路,细颗粒物(PM2.5),128,114,135,97,44,65,65,40,40,40,36,9,8,0.7,0.6
2025-11-29T1300,1275A,117.266,31.9436,合肥市,庐阳区,颗粒物(PM10),85,119,137,39,43,69,69,44,44,46,44,12,8,0.7,0.7
2025-11-29T1300,1276A,117.3453,31.8616,合肥市,瑶海区,颗粒物(PM10),86,122,133,56,55,82,82,60,60,38,43,8,7,0.6,0.6
2025-11-29T1300,1277A,117.3027,31.7964,合肥市,包河区,颗粒物(PM10),85,119,134,46,43,86,86,37,37,20,52,11,11,0.7,0.7
2025-11-29T1300,1278A,117.2776,31.7385,合肥市,滨湖新区,颗粒物(PM10),89,127,136,53,45,88,88,54,54,25,32,10,8,0.6,0.6
2025-11-29T1300,1279A,117.1318,31.8403,合肥市,高新区,颗粒物(PM10),69,88,126,31,34,76,76,60,60,38,37,7,7,0.6,0.6
2025-11-29T1300,3464A,117.3803,31.9147,合肥市,高教基地,颗粒物(PM10),84,117,131,52,44,86,86,64,64,28,25,10,8,0.5,0.5
2025-11-29T1300,3614A,79.924,37.0877,和田地区,地区环保局,颗粒物(PM10),112,173,170,78,55,55,55,52,50,50,37,19,12,1.9,1.2
2025-11-29T1300,3615A,79.9131,37.113,和田地区,市环保局,颗粒物(PM10),102,153,189,72,87,63,63,24,24,29,71,7,12,0.8,2.5
2025-11-29T1300,2516A,108.2011,24.715,河池市,东仁乐园,,,,,,,,,,,,,,,,
2025-11-29T1300,2517A,108.0497,24.6947,河池市,市环保站,颗粒物(PM10),66,81,46,24,23,85,85,30,30,14,27,5,4,0.5,0.5
2025-11-29T1300,2518A,108.0983,24.6989,河池市,市疾控中心,颗粒物(PM10),54,57,77,30,37,72,72,22,22,17,32,7,6,0.6,0.6
2025-11-29T1300,1696A,114.6778,23.7569,河源市,源西,,,,,,,,,,,,,,,,
2025-11-29T1300,1697A,114.6944,23.7586,河源市,东埔,颗粒物(PM10),56,62,67,25,26,98,98,56,56,14,27,8,8,0.4,0.4
2025-11-29T1300,1698A,114.6892,23.7233,河源市,老城,颗粒物(PM10),59,68,61,35,22,93,93,43,43,14,24,8,7,0.5,0.5
2025-11-29T1300,1718A,115.4208,35.2464,菏泽市,气象局,细颗粒物(PM2.5),124,166,164,94,86,73,73,38,38,41,35,18,7,0.6,0.5
2025-11-29T1300,3374A,115.5564,35.0891,菏泽市,定陶老年大学,细颗粒物(PM2.5),110,161,135,83,53,67,67,41,41,49,38,10,6,0.6,0.4
2025-11-29T1300,4184A,115.4797,35.24401,菏泽市,永昌路1号,细颗粒物(PM2.5),110,162,151,83,64,64,64,35,35,40,38,17,5,0.7,0.4
2025-11-29T1300,4193A,115.4715,35.2800,菏泽市,长城路999号,,,167,154,,79,67,67,38,38,41,36,8,3,0.8,0.6
2025-11-29T1300,2514A,111.5264,24.4172,贺州市,环保小区,细颗粒物(PM2.5),54,49,68,38,41,96,96,37,37,16,26,6,6,0.6,0.7
2025-11-29T1300,2515A,111.5608,24.4078,贺州市,政协大楼,颗粒物(PM10),56,61,66,30,37,77,77,28,28,22,35,8,9,0.4,0.7
2025-11-29T1300,3534A,111.4744,24.4553,贺州市,西湾,颗粒物(PM10),60,70,77,35,36,94,94,36,36,16,27,9,7,0.7,0.7
2025-11-29T1300,2385A,114.17,35.9019,鹤壁市,市监测站,细颗粒物(PM2.5),142,172,202,108,112,66,66,27,27,39,48,26,16,1.1,1
2025-11-29T1300,2386A,114.2956,35.7511,鹤壁市,市交警支队,颗粒物(PM10),140,230,216,106,92,40,40,14,14,64,59,12,8,1.3,1.1
2025-11-29T1300,2387A,114.2878,35.7306,鹤壁市,迎宾馆,颗粒物(PM10),147,244,227,91,85,45,45,18,18,59,53,17,12,1.3,1.1
2025-11-29T1300,3474A,114.2617,35.6822,鹤壁市,大新区,颗粒物(PM10),159,267,219,108,93,57,57,21,21,54,52,14,8,1.2,1
2025-11-29T1300,3596A,114.1572,35.9603,鹤壁市,南山宾馆,颗粒物(PM10),116,182,236,78,86,90,90,38,38,31,47,20,17,1.1,1.1
2025-11-29T1300,2244A,130.2537,47.3416,鹤岗市,哈啤分公司,细颗粒物(PM2.5),55,48,57,39,61,58,58,51,51,14,27,16,15,0.6,0.8
2025-11-29T1300,2245A,130.2684,47.3086,鹤岗市,斯达机电,,48,48,78,30,50,54,54,45,45,20,33,16,17,0.8,0.9
2025-11-29T1300,2246A,130.3114,47.3388,鹤岗市,东山纸板厂,,33,,54,23,60,57,57,46,46,19,39,18,19,0.4,1.2
2025-11-29T1300,2247A,130.1097,47.3382,鹤岗市,五号水库,,,,,,,,,,,,,,,,
2025-11-29T1300,2263A,127.4833,50.2524,黑河市,交通局,,36,36,36,22,24,52,52,37,37,16,24,5,4,0.4,0.5
2025-11-29T1300,2264A,127.5144,50.2341,黑河市,环保局,,,43,33,20,22,53,53,35,,,15,6,9,,0.5
2025-11-29T1300,2265A,127.5291,50.2472,黑河市,大黑河岛,,,,,,,,,,,,,,,,
2025-11-29T1300,1074A,115.6838,37.7541,衡水市,电机北厂,颗粒物(PM10),165,280,261,118,96,24,24,9,9,67,57,14,11,0.9,0.7
2025-11-29T1300,1075A,115.6303,37.7316,衡水市,市监测站,细颗粒物(PM2.5),173,218,229,131,96,40,40,14,14,50,59,15,13,0.8,0.7
2025-11-29T1300,3188A,115.6683,37.7217,衡水市,市城管局,颗粒物(PM10),150,250,258,100,91,20,20,,,67,60,9,8,0.8,0.8
2025-11-29T1300,3459A,115.5989,37.5491,衡水市,地表水厂,颗粒物(PM10),139,227,249,105,104,46,46,24,24,51,52,15,14,0.7,0.7
2025-11-29T1300,2456A,112.5003,26.9167,衡阳市,原169医院,,,,,,,,,,,,,,,,
2025-11-29T1300,2457A,112.6194,26.9258,衡阳市,衡阳化工总厂,,,,113,,60,,,2,,,43,,9,,1
2025-11-29T1300,2458A,112.6211,26.8956,衡阳市,珠晖区环保局,颗粒物(PM10),72,94,100,48,51,80,80,30,30,19,38,9,7,1.1,1.1
2025-11-29T1300,2459A,112.6197,26.8733,衡阳市,市委党校,颗粒物(PM10),68,85,104,41,57,88,88,34,34,14,34,21,22,0.8,1
2025-11-29T1300,2460A,112.6006,26.8919,衡阳市,市监测站,颗粒物(PM10),75,100,121,49,59,79,79,37,37,28,45,16,16,1.2,1.1
2025-11-29T1300,2461A,112.5664,26.9056,衡阳市,真空机电公司,,,,120,,60,,,6,,,49,,17,,1.1
2025-11-29T1300,3399A,112.6703,26.882,衡阳市,师范学院,,,87,103,31,45,,,37,37,17,28,13,13,0.7,0.9
2025-11-29T1300,2608A,103.3772,23.3993,红河哈尼族彝族自治州,污水处理厂,细颗粒物(PM2.5),70,54,76,51,59,99,99,46,46,13,22,39,67,0.2,0.3
2025-11-29T1300,2609A,103.3861,23.35,红河哈尼族彝族自治州,监测站,细颗粒物(PM2.5),58,58,56,41,43,105,105,50,50,15,18,48,27,0.4,0.3
2025-11-29T1300,3038A,103.3758,23.368,红河哈尼族彝族自治州,州图书馆,细颗粒物(PM2.5),85,73,59,63,38,100,100,48,48,12,15,46,48,0.6,0.6
2025-11-29T1300,1090A,111.6507,40.7517,呼和浩特市,呼市一监,,,,224,,67,,,21,,,46,,9,,1.0
2025-11-29T1300,1091A,111.6572,40.8033,呼和浩特市,小召,颗粒物(PM10),174,298,227,88,71,47,47,18,18,28,58,9,10,0.5,1
2025-11-29T1300,1094A,111.7516,40.8369,呼和浩特市,如意水处理厂,颗粒物(PM10),167,283,211,86,67,49,49,15,15,21,51,10,11,0.4,0.7
2025-11-29T1300,1095A,111.7276,40.8062,呼和浩特市,二十九中,颗粒物(PM10),168,285,214,91,68,51,51,17,17,22,49,14,13,0.3,0.6
2025-11-29T1300,1096A,111.5512,40.7866,呼和浩特市,工大金川校区,颗粒物(PM10),171,291,224,95,64,32,32,12,12,45,57,16,13,0.6,0.7
2025-11-29T1300,1097A,111.717,40.7612,呼和浩特市,化肥厂生活区,颗粒物(PM10),163,275,221,83,70,54,54,19,19,21,49,8,9,0.6,1
2025-11-29T1300,3698A,111.5968,40.8178,呼和浩特市,红旗小学,颗粒物(PM10),176,302,217,91,63,35,35,11,11,35,52,16,16,0.7,0.7
2025-11-29T1300,3699A,111.6518,40.8389,呼和浩特市,海东办,颗粒物(PM10),168,285,211,81,62,40,40,10,10,29,52,9,10,0.4,0.6
2025-11-29T1300,3061A,119.7512,49.1577,呼伦贝尔市,国华电力东,颗粒物(PM10),51,51,38,25,13,58,58,55,52,11,14,8,11,0.5,0.4
2025-11-29T1300,4279A,119.7569,49.2222,呼伦贝尔市,伊敏大街东7号,细颗粒物(PM2.5),53,51,36,37,22,54,54,51,47,4,12,6,14,0.5,0.5
2025-11-29T1300,1250A,120.0751,30.8669,湖州市,城西水厂,颗粒物(PM10),73,95,201,39,65,72,72,28,28,43,58,11,10,0.4,0.6
2025-11-29T1300,2873A,120.0830,30.8929,湖州市,仁皇山新区,颗粒物(PM10),76,101,190,41,62,71,71,29,29,41,60,10,9,0.4,0.5
2025-11-29T1300,2907A,120.1844,30.8596,湖州市,吴兴区站,颗粒物(PM10),74,98,197,36,61,76,76,32,32,28,57,9,8,0.7,0.8
2025-11-29T1300,3562A,120.4148,30.8538,湖州市,南浔区站,颗粒物(PM10),77,103,219,43,64,83,83,31,31,24,51,6,8,0.5,0.6
2025-11-29T1300,1607A,120.9049,40.7211,葫芦岛市,龙港区,颗粒物(PM10),85,119,137,38,32,76,76,46,46,12,22,10,11,0.5,0.7
2025-11-29T1300,1608A,120.8392,40.7514,葫芦岛市,化工街,颗粒物(PM10),60,70,153,19,39,71,71,36,36,12,31,14,18,0.3,0.6
2025-11-29T1300,1609A,120.8341,40.7073,葫芦岛市,新区,颗粒物(PM10),63,76,131,17,34,75,75,39,39,11,27,8,10,0.5,0.7
2025-11-29T1300,1610A,120.8695,40.7677,葫芦岛市,东城区,颗粒物(PM10),72,94,143,18,36,77,77,33,33,13,34,8,11,0.7,0.9
2025-11-29T1300,2482A,109.5981,27.5721,怀化市,林科所,,,,,,,,,,,,,,,,
2025-11-29T1300,2483A,109.9453,27.5444,怀化市,河西地税局,细颗粒物(PM2.5),62,70,57,44,31,75,75,25,25,13,16,8,6,0.4,0.3
2025-11-29T1300,2484A,109.9781,27.5342,怀化市,市四医院,颗粒物(PM10),56,62,80,32,35,79,79,28,28,11,29,11,9,0.4,0.3
2025-11-29T1300,2485A,109.9972,27.5578,怀化市,监测楼,颗粒物(PM10),56,62,75,27,36,81,81,32,32,13,26,5,4,0.2,0.3
2025-11-29T1300,2486A,110.0394,27.583,怀化市,市委党校,,48,48,74,25,38,82,82,30,30,9,26,12,11,0.4,0.5
2025-11-29T1300,1210A,119.036,33.5981,淮安市,钵池山,细颗粒物(PM2.5),83,90,158,61,58,90,90,40,40,23,38,17,11,1.1,0.7
2025-11-29T1300,1211A,119.007,33.575,淮安市,北京南路,颗粒物(PM10),76,102,164,48,50,80,80,34,34,25,39,21,11,1.5,0.7
2025-11-29T1300,1212A,118.989,33.6067,淮安市,市监测站,颗粒物(PM10),74,97,164,34,48,95,95,41,41,21,40,10,12,0.8,1
2025-11-29T1300,1213A,119.135,33.5039,淮安市,楚州区监测站,颗粒物(PM10),73,95,183,32,55,100,100,36,36,12,48,10,10,0.9,1.1
2025-11-29T1300,3426A,118.8755,33.2894,淮安市,新华书店,颗粒物(PM10),72,93,154,42,56,96,96,40,40,18,42,10,12,0.5,0.6
2025-11-29T1300,4206A,119.0288,33.6319,淮安市,承德北路606号,颗粒物(PM10),78,105,169,46,48,88,88,40,40,19,35,10,11,0.6,0.8
2025-11-29T1300,2282A,116.8004,33.975,淮北市,监测站,"颗粒物(PM10),细颗粒物(PM2.5)",87,123,136,64,62,90,90,58,58,29,35,10,9,0.5,0.6
2025-11-29T1300,2283A,116.8091,33.9007,淮北市,烈山区政府,颗粒物(PM10),79,107,147,48,55,94,94,45,45,27,41,14,11,0.4,0.4
2025-11-29T1300,3330A,116.8873,33.9836,淮北市,杜集区检察院,细颗粒物(PM2.5),147,118,133,112,71,99,99,57,57,19,29,9,7,0.5,0.5
2025-11-29T1300,4017A,116.7923,33.9535,淮北市,市博物馆,细颗粒物(PM2.5),108,115,139,81,69,91,91,55,55,23,33,13,12,0.5,0.5
2025-11-29T1300,2277A,116.8305,32.7727,淮南市,潘集区政府,颗粒物(PM10),81,111,153,36,64,93,93,47,47,16,31,6,6,0.6,0.6
2025-11-29T1300,2279A,116.8569,32.5951,淮南市,谢家集区政府,颗粒物(PM10),64,77,122,25,39,93,93,46,46,19,35,8,8,0.6,0.6
2025-11-29T1300,2280A,116.8281,32.633,淮南市,八公山区政府,颗粒物(PM10),64,78,134,26,50,93,93,52,52,16,24,6,6,0.4,0.5
2025-11-29T1300,2281A,116.6325,32.6201,淮南市,焦岗湖风景区管理处,,,,,,,,,,,,,,,,
2025-11-29T1300,2894A,117.0566,32.6531,淮南市,经济技术开发区消防队,颗粒物(PM10),77,103,142,33,44,86,86,48,48,22,39,8,7,0.4,0.4
2025-11-29T1300,3329A,117.0108,32.5893,淮南市,山南新区,颗粒物(PM10),87,123,174,37,55,87,87,55,55,25,37,4,5,0.4,0.4
2025-11-29T1300,4209A,117.0031,32.6445,淮南市,国庆中路369号,颗粒物(PM10),66,81,103,42,48,81,81,55,55,21,28,6,5,0.5,0.6
2025-11-29T1300,2446A,114.9028,30.4742,黄冈市,职工中心,颗粒物(PM10),64,78,79,39,38,93,93,53,53,28,26,20,11,0.6,0.5
2025-11-29T1300,2929A,114.8858,30.4519,黄冈市,红卫路,细颗粒物(PM2.5),93,79,78,69,46,84,84,48,48,30,28,19,8,1.1,0.6
2025-11-29T1300,3398A,114.9136,30.4445,黄冈市,市林业局,颗粒物(PM10),69,87,97,45,40,86,86,54,54,35,33,18,8,1.1,0.6
2025-11-29T1300,2672A,102.0199,35.5102,黄南藏族自治州,同仁县隆务镇,,35,28,30,24,10,69,69,62,62,7,4,10,10,0.3,0.2
2025-11-29T1300,2295A,118.2903,29.6963,黄山市,延安路89号,颗粒物(PM10),62,73,85,31,41,90,90,35,35,9,17,5,4,0.4,0.4
2025-11-29T1300,2297A,118.1371,30.2756,黄山市,黄山区政府5号楼,,45,45,72,13,38,84,84,38,38,4,8,6,6,0.6,0.6
2025-11-29T1300,4210A,118.3354,29.7203,黄山市,滨江东路7-2号,颗粒物(PM10),70,90,90,40,45,76,76,26,26,16,22,5,4,0.3,0.3
2025-11-29T1300,2423A,115.0601,30.2313,黄石市,沈家营,颗粒物(PM10),92,133,117,57,42,62,62,30,30,44,39,24,12,1.8,1.4
2025-11-29T1300,2426A,114.8988,30.2019,黄石市,铁山,颗粒物(PM10),62,74,91,36,45,81,81,46,46,27,45,17,12,0.5,0.4
2025-11-29T1300,2427A,115.0307,30.2092,黄石市,团城山,细颗粒物(PM2.5),88,112,113,65,41,58,58,33,33,59,46,15,10,1.1,0.9
2025-11-29T1300,3149A,115.0235,30.1578,黄石市,笔架山北路,颗粒物(PM10),99,148,162,40,41,78,78,38,38,29,34,14,14,1.0,1.1
2025-11-29T1300,4185A,115.0780,30.21118,黄石市,磁湖东路29号,细颗粒物(PM2.5),107,141,114,80,53,58,58,24,24,50,44,42,17,1.6,1
2025-11-29T1300,1392A,114.4183,23.0528,惠州市,河南岸金山湖子站,颗粒物(PM10),59,67,80,34,33,95,95,49,49,19,33,9,5,0.5,0.6
2025-11-29T1300,1393A,114.4053,23.0822,惠州市,下埔横江三路子站,颗粒物(PM10),57,63,76,26,31,107,107,64,64,11,22,9,10,0.6,0.6
2025-11-29T1300,1394A,114.4103,23.1142,惠州市,江北云山西路子站,,,57,73,27,28,110,110,61,61,14,26,,7,0.5,0.5
2025-11-29T1300,1395A,114.4645,22.7833,惠州市,惠阳区承修路船湖子站,颗粒物(PM10),52,53,75,23,32,106,106,68,68,16,32,8,7,0.4,0.5
2025-11-29T1300,1396A,114.5317,22.7422,惠州市,大亚湾管委会子站,颗粒物(PM10),53,56,70,25,28,107,107,62,62,16,41,8,6,0.6,0.7
2025-11-29T1300,3314A,114.4338,22.8134,惠州市,惠阳秋长,颗粒物(PM10),56,61,80,30,35,105,105,69,69,20,35,15,13,0.4,0.5
2025-11-29T1300,3452A,114.6517,22.775,惠州市,大亚湾霞涌,,,,64,,28,,,90,,,17,,7,,0.6
2025-11-29T1300,2240A,130.9762,45.3001,鸡西市,环保局,细颗粒物(PM2.5),79,94,66,58,51,33,33,20,20,22,33,9,10,0.8,0.9
2025-11-29T1300,2243A,130.9429,45.3039,鸡西市,第一中学,细颗粒物(PM2.5),73,61,48,53,39,31,31,27,23,25,26,9,7,0.6,0.5
2025-11-29T1300,3707A,131.0207,45.3073,鸡西市,欧美日汽修厂,颗粒物(PM10),86,122,88,62,64,34,34,20,20,23,37,12,13,0.6,0.7
2025-11-29T1300,3709A,130.9967,45.3106,鸡西市,市政设施管理处,颗粒物(PM10),69,88,75,49,56,32,32,18,18,22,40,11,12,0.7,0.9
2025-11-29T1300,2367A,114.9754,27.0803,吉安市,红声器材厂,颗粒物(PM10),56,62,86,19,31,97,97,44,44,15,28,10,10,0.6,0.6
2025-11-29T1300,2368A,114.9658,27.0999,吉安市,市森林工业局,颗粒物(PM10),65,79,93,26,34,78,78,33,33,22,38,10,10,0.4,0.4
2025-11-29T1300,2369A,114.99,27.1312,吉安市,市环境监测站,颗粒物(PM10),60,69,84,25,32,95,95,35,35,15,34,15,14,0.4,0.5
2025-11-29T1300,2370A,115.0093,27.0968,吉安市,青原区法院,颗粒物(PM10),59,68,83,21,31,80,80,30,30,21,34,12,10,0.5,0.6
2025-11-29T1300,1772A,126.54,43.8622,吉林市,哈达湾,,49,49,38,23,22,68,68,65,65,10,14,8,9,0.7,0.7
2025-11-29T1300,1773A,126.5844,43.8358,吉林市,东局子,,43,43,31,25,20,54,54,56,56,11,9,10,9,0.6,0.6
2025-11-29T1300,1774A,126.5052,43.8245,吉林市,电力学院,,50,50,42,24,29,64,64,62,62,12,21,9,10,0.7,0.9
2025-11-29T1300,1775A,126.6133,43.8972,吉林市,江北,,47,47,37,30,25,55,55,59,58,12,10,5,5,0.7,0.8
2025-11-29T1300,1776A,126.555,43.8306,吉林市,江南公园,颗粒物(PM10),52,53,36,28,27,65,65,62,62,10,16,7,7,0.5,0.4
2025-11-29T1300,1778A,126.7061,43.7133,吉林市,丰满,,40,40,27,26,22,54,54,52,52,9,8,9,9,0.7,0.6
2025-11-29T1300,2868A,126.4739,43.953,吉林市,九站,颗粒物(PM10),59,68,39,24,23,68,68,64,64,14,18,4,6,0.9,0.9
2025-11-29T1300,1299A,116.9862,36.6114,济南市,科干所,颗粒物(PM10),103,156,135,68,50,66,66,56,46,39,23,18,12,0.8,0.6
2025-11-29T1300,1300A,116.9376,36.665,济南市,农科所,细颗粒物(PM2.5),125,159,158,95,54,59,59,46,27,42,38,16,12,0.7,0.6
2025-11-29T1300,1301A,117.1265,36.6734,济南市,开发区,颗粒物(PM10),130,210,154,88,57,22,22,39,14,83,50,14,7,1.1,0.9
2025-11-29T1300,1303A,117.0624,36.6868,济南市,省种子仓库,颗粒物(PM10),128,205,179,88,65,24,24,25,11,70,54,18,12,0.8,0.9
2025-11-29T1300,1304A,116.9489,36.6447,济南市,机床二厂,细颗粒物(PM2.5),108,164,168,81,57,60,60,42,33,40,37,19,16,0.6,0.5
2025-11-29T1300,1305A,117.0495,36.663,济南市,市监测站,颗粒物(PM10),123,195,160,83,58,23,23,34,11,75,46,13,7,0.8,0.6
2025-11-29T1300,1306A,116.7675,36.5484,济南市,长清党校,颗粒物(PM10),101,151,158,71,51,73,73,50,50,34,31,16,12,0.8,0.7
2025-11-29T1300,1616A,117.6795,36.229,济南市,技术学院,细颗粒物(PM2.5),149,171,176,114,75,74,74,29,29,,61,28,22,2.2,1
2025-11-29T1300,1961A,117.532,36.6868,济南市,东山小学,颗粒物(PM10),125,200,174,88,58,47,47,50,33,54,32,18,13,0.8,0.7
2025-11-29T1300,3059A,117.7161,36.2049,济南市,泰兴公司,细颗粒物(PM2.5),113,163,171,85,69,72,72,26,26,41,58,20,15,1.2,0.8
2025-11-29T1300,3064A,117.6867,36.2171,济南市,莱芜战役纪念馆,细颗粒物(PM2.5),109,153,169,82,70,77,77,29,29,39,57,24,18,1.6,0.9
2025-11-29T1300,3494A,117.1673,36.9782,济南市,济阳区政府,颗粒物(PM10),118,186,207,83,81,57,57,26,26,42,58,21,17,0.9,0.8
2025-11-29T1300,3495A,117.1171,36.63,济南市,锦屏中学,颗粒物(PM10),113,176,136,63,41,41,41,58,35,71,30,12,7,1.1,0.7
2025-11-29T1300,3682A,116.9814,36.6819,济南市,济南四建,颗粒物(PM10),103,156,169,68,56,54,54,38,18,42,43,14,11,0.7,0.7
2025-11-29T1300,1653A,116.6251,35.4302,济宁市,火炬城,细颗粒物(PM2.5),100,121,150,75,69,69,69,40,40,30,32,10,9,0.3,0.2
2025-11-29T1300,1655A,116.5491,35.4042,济宁市,电化厂,细颗粒物(PM2.5),128,138,140,97,67,69,69,43,43,39,37,10,9,0.5,0.4
2025-11-29T1300,3500A,116.5814,35.3707,济宁市,北湖一中,细颗粒物(PM2.5),92,115,128,68,62,68,68,46,46,30,30,10,9,0.6,0.5
2025-11-29T1300,3501A,116.8249,35.5593,济宁市,服务中心,细颗粒物(PM2.5),103,154,181,77,72,66,66,37,37,37,34,9,8,0.4,0.3
2025-11-29T1300,3678A,116.5907,35.4054,济宁市,市第七中学,颗粒物(PM10),95,140,148,63,57,75,75,46,46,32,37,10,9,0.5,0.5
2025-11-29T1300,2255A,130.2751,46.8028,佳木斯市,佳纺,细颗粒物(PM2.5),55,56,71,39,57,31,31,20,20,18,39,3,4,0.6,0.7
2025-11-29T1300,2256A,130.3995,46.8307,佳木斯市,发电厂,,49,46,57,34,51,37,37,27,27,13,28,3,4,0.5,0.6
2025-11-29T1300,2257A,130.3258,46.7975,佳木斯市,环保局,细颗粒物(PM2.5),60,52,61,43,53,31,31,22,22,18,29,2,4,0.4,0.6
2025-11-29T1300,2258A,130.3648,46.8032,佳木斯市,十一中,细颗粒物(PM2.5),55,49,60,39,54,38,38,28,27,14,30,3,5,0.5,0.7
2025-11-29T1300,2259A,130.3794,46.7588,佳木斯市,四丰,,,,,,,,,,,,,,,,
2025-11-29T1300,1252A,120.7436,30.778,嘉兴市,清河小学,,,119,214,46,57,91,91,43,43,31,45,,7,,0.8
2025-11-29T1300,1253A,120.726,30.7478,嘉兴市,嘉兴学院,颗粒物(PM10),88,126,202,52,58,88,88,48,48,34,37,8,8,0.6,0.6
2025-11-29T1300,2872A,120.7846,30.7525,嘉兴市,南湖区残联,颗粒物(PM10),85,119,217,54,74,105,105,57,57,27,35,5,6,0.5,0.6
2025-11-29T1300,3407A,120.6916,30.7739,嘉兴市,秀洲住建,颗粒物(PM10),87,123,199,54,62,89,89,47,47,42,46,8,8,0.9,0.6
2025-11-29T1300,1945A,98.2908,39.7711,嘉峪关市,气象局,,31,31,43,7,13,85,85,73,56,6,13,20,26,0.5,0.6
2025-11-29T1300,2884A,98.2672,39.7978,嘉峪关市,酒钢宾馆,,34,34,59,3,11,84,84,74,59,3,9,16,36,0.5,0.5
2025-11-29T1300,3248A,98.2643,39.7724,嘉峪关市,雄关区,,,34,41,14,16,67,67,68,48,,17,13,21,,0.7
2025-11-29T1300,1383A,113.1064,22.6058,江门市,北街,,,,90,,42,,,69,,,73,,11,,0.7
2025-11-29T1300,1384A,113.0731,22.5835,江门市,西区,细颗粒物(PM2.5),77,102,104,56,45,110,110,44,44,54,67,12,11,0.6,0.6
2025-11-29T1300,1385A,113.0219,22.5311,江门市,圭峰西,颗粒物(PM10),66,81,91,42,39,116,116,52,52,38,51,9,7,0.5,0.5
2025-11-29T1300,1386A,113.0828,22.5947,江门市,东湖,,,113,96,51,39,105,105,52,52,61,63,,13,0.5,0.5
2025-11-29T1300,3311A,113.1075,22.5647,江门市,江海富民,颗粒物(PM10),75,100,86,35,31,108,108,44,44,65,64,16,15,0.5,0.5
2025-11-29T1300,3449A,113.05,22.4667,江门市,新会银湖,细颗粒物(PM2.5),77,90,85,56,45,104,104,37,37,45,55,11,8,0.5,0.6
2025-11-29T1300,1830A,113.1992,35.2590,焦作市,影视城,,,,110,,41,,,52,,,36,,27,,1.1
2025-11-29T1300,3335A,113.3137,35.2641,焦作市,马村街道办,颗粒物(PM10),67,83,139,42,71,83,83,57,57,16,42,10,17,0.4,0.8
2025-11-29T1300,3336A,113.2465,35.2373,焦作市,焦作技师学院,颗粒物(PM10),67,83,141,29,62,77,77,51,51,19,50,12,19,0.7,1
2025-11-29T1300,3477A,113.1656,35.2539,焦作市,中站许衡医院,颗粒物(PM10),60,69,118,26,49,87,87,63,63,12,36,8,19,0.6,0.8
2025-11-29T1300,3981A,113.2449,35.1803,焦作市,原李万街道办,颗粒物(PM10),84,118,141,29,53,75,75,49,49,17,40,8,17,0.5,0.7
2025-11-29T1300,4264A,113.2340,35.2190,焦作市,新安路1731号,颗粒物(PM10),76,102,150,39,69,76,76,50,50,20,52,15,22,0.7,1.1
2025-11-29T1300,4295A,113.2722,35.2121,焦作市,人民路3066号,,,,137,32,50,70,70,48,48,18,48,,16,0.5,1
2025-11-29T1300,1708A,116.3701,23.5345,揭阳市,新兴,颗粒物(PM10),67,84,106,38,48,112,112,46,46,27,41,15,13,0.5,0.7
2025-11-29T1300,1709A,116.3264,23.5443,揭阳市,西马,颗粒物(PM10),81,111,103,44,49,114,114,46,46,34,41,11,7,0.7,0.7
2025-11-29T1300,1710A,116.3611,23.5626,揭阳市,东兴,颗粒物(PM10),74,98,109,42,45,116,116,47,47,27,44,13,12,0.6,0.7
2025-11-29T1300,1711A,116.4151,23.5294,揭阳市,渔湖,颗粒物(PM10),61,72,107,32,48,119,119,48,48,19,41,12,12,0.6,0.7
2025-11-29T1300,3320A,116.403,23.5699,揭阳市,曲溪,细颗粒物(PM2.5),69,78,108,50,48,123,123,57,57,20,33,14,9,0.5,0.6
2025-11-29T1300,1944A,102.1692,38.5167,金昌市,天庆家园,颗粒物(PM10),90,129,116,41,42,72,72,43,43,22,23,250,44,0.5,0.7
2025-11-29T1300,4022A,102.1647,38.5371,金昌市,金川区人防中心,颗粒物(PM10),83,115,115,35,46,73,73,42,42,16,19,190,33,0.5,0.6
2025-11-29T1300,4239A,102.1930,38.5319,金昌市,长春路96号,颗粒物(PM10),58,65,117,22,42,78,78,44,44,9,20,79,47,0.5,0.7
2025-11-29T1300,1262A,119.647,29.077,金华市,十五中,细颗粒物(PM2.5),77,101,114,56,43,88,88,40,40,38,45,4,4,0.5,0.5
2025-11-29T1300,1263A,119.686,29.1029,金华市,监测站,颗粒物(PM10),72,93,122,42,40,85,85,31,31,39,59,4,4,0.5,0.4
2025-11-29T1300,3659A,119.656,29.1131,金华市,气象局,颗粒物(PM10),75,99,131,45,49,62,62,27,27,52,60,6,5,0.5,0.5
2025-11-29T1300,1767A,121.1115,41.0879,锦州市,南山,颗粒物(PM10),82,114,123,29,46,84,84,43,43,14,36,8,16,0.4,0.7
2025-11-29T1300,1768A,121.0604,40.8428,锦州市,开发区,颗粒物(PM10),84,117,143,26,38,76,76,29,29,12,42,9,15,0.4,0.6
2025-11-29T1300,1769A,121.1836,41.1119,锦州市,百股街道,颗粒物(PM10),82,114,126,24,39,81,81,44,44,10,28,10,16,0.6,0.8
2025-11-29T1300,1770A,121.1178,41.1222,锦州市,天安街道,颗粒物(PM10),73,96,125,16,33,85,85,44,44,7,28,12,14,0.6,0.9
2025-11-29T1300,1771A,121.1303,41.1386,锦州市,北湖公园,,,95,123,18,37,79,79,41,41,10,30,,13,0.6,0.8
2025-11-29T1300,2160A,112.85,35.5051,晋城市,自来水公司,,,71,100,22,38,74,74,40,40,13,40,4,10,,1.1
2025-11-29T1300,2161A,112.8318,35.4936,晋城市,白云商贸,,47,47,106,31,45,69,69,31,31,11,42,4,6,0.6,1.3
2025-11-29T1300,2162A,112.8508,35.4887,晋城市,市环保局,颗粒物(PM10),73,96,106,24,38,75,75,35,35,8,42,5,10,0.3,0.9
2025-11-29T1300,2163A,112.8676,35.4897,晋城市,技术学院,颗粒物(PM10),65,79,103,22,40,66,66,36,36,18,54,7,11,0.4,1
2025-11-29T1300,2165A,112.8453,35.546,晋城市,白马寺,细颗粒物(PM2.5),74,68,73,54,60,83,83,78,74,8,13,8,9,0.6,0.8
2025-11-29T1300,3620A,112.8271,35.4828,晋城市,泽州一中,颗粒物(PM10),72,93,104,24,38,81,81,54,54,14,30,5,7,0.5,0.9
2025-11-29T1300,2173A,112.7249,37.7067,晋中市,南都小区,颗粒物(PM10),101,151,200,47,74,72,72,27,27,31,58,23,33,0.7,1.6
2025-11-29T1300,2174A,112.6991,37.6982,晋中市,榆次区政府,细颗粒物(PM2.5),163,161,208,124,90,69,69,24,24,27,58,24,33,1.0,1.6
2025-11-29T1300,2865A,112.7195,37.6828,晋中市,榆次三中,颗粒物(PM10),96,141,209,44,71,72,72,28,28,24,56,19,32,0.9,1.6
2025-11-29T1300,4200A,112.7478,37.6954,晋中市,迎宾街26号,颗粒物(PM10),98,146,206,48,75,73,73,31,31,23,53,21,33,0.6,1.2
2025-11-29T1300,2439A,112.2014,31.0481,荆门市,竹园小学,细颗粒物(PM2.5),94,128,98,70,55,70,70,32,32,37,38,13,6,0.4,0.7
2025-11-29T1300,2440A,112.1969,30.9891,荆门市,掇刀,颗粒物(PM10),96,141,105,70,57,100,100,45,45,38,29,7,5,0.6,0.5
2025-11-29T1300,2441A,112.2213,31.0386,荆门市,石化一小,细颗粒物(PM2.5),103,143,122,77,59,72,72,32,32,36,42,7,9,0.6,1.2
2025-11-29T1300,3012A,112.1849,31.0362,荆门市,西山林语,"颗粒物(PM10),细颗粒物(PM2.5)",89,128,85,66,47,71,71,40,40,36,21,13,6,0.6,0.5
2025-11-29T1300,3547A,112.1632,31.0138,荆门市,龙泉中学南校,细颗粒物(PM2.5),112,142,104,84,54,93,93,44,44,39,27,18,10,1.0,0.7
2025-11-29T1300,1844A,112.2494,30.3197,荆州市,市图书馆,细颗粒物(PM2.5),84,77,80,62,47,82,82,48,47,26,22,8,8,0.8,0.7
2025-11-29T1300,1845A,112.2008,30.3544,荆州市,市委党校,细颗粒物(PM2.5),84,85,82,62,48,59,59,39,36,42,27,7,6,0.8,0.7
2025-11-29T1300,3194A,112.2747,30.3122,荆州市,管委会,细颗粒物(PM2.5),82,66,76,60,49,78,78,46,46,21,22,9,10,0.7,0.7
2025-11-29T1300,4268A,112.1722,30.3366,荆州市,学苑路85号,细颗粒物(PM2.5),82,84,79,60,49,76,76,42,40,27,21,188,70,0.6,0.6
2025-11-29T1300,2342A,117.3102,29.3867,景德镇市,王港中学,,,,,,,,,,,,,,,,
2025-11-29T1300,2343A,117.2117,29.2933,景德镇市,老干部活动中心,颗粒物(PM10),66,81,97,33,39,67,67,23,23,19,29,15,11,0.8,0.8
2025-11-29T1300,2344A,117.1894,29.2789,景德镇市,兽医站,颗粒物(PM10),70,89,110,25,33,73,73,28,28,32,35,21,12,0.5,0.4
2025-11-29T1300,2346A,117.2461,29.2956,景德镇市,陶研所,颗粒物(PM10),56,62,82,29,38,76,76,24,24,2,21,4,5,0.6,0.7
2025-11-29T1300,4289A,117.1542,29.2566,景德镇市,青少年活动中心,颗粒物(PM10),67,83,106,32,34,76,76,31,31,28,38,28,17,0.6,0.8
2025-11-29T1300,1803A,115.9872,29.6815,九江市,十里,颗粒物(PM10),76,102,106,43,46,64,64,26,26,43,49,11,6,1.0,1
2025-11-29T1300,1804A,115.9584,29.7046,九江市,茅山头,颗粒物(PM10),67,83,111,36,44,78,78,45,45,27,48,10,6,0.6,1
2025-11-29T1300,1805A,115.9877,29.7295,九江市,西园,,,63,103,,42,56,56,40,40,66,51,10,6,0.5,0.6
2025-11-29T1300,1808A,115.9114,29.6038,九江市,综合工业园,颗粒物(PM10),65,80,119,40,49,95,95,57,57,23,38,8,6,0.8,0.5
2025-11-29T1300,1809A,116.0721,29.7535,九江市,石化总厂,颗粒物(PM10),81,111,130,30,39,82,82,60,51,18,18,10,8,0.6,0.5
2025-11-29T1300,1810A,115.9773,29.5698,九江市,庐山气象台,,,,,,,,,,,,,,,,
2025-11-29T1300,3190A,116.0254,29.6994,九江市,外国语学校,,,86,108,35,38,70,70,40,38,28,28,,7,0.7,0.7
2025-11-29T1300,4253A,116.0102,29.6594,九江市,莲花大道8号,颗粒物(PM10),71,92,91,42,34,65,65,41,41,38,26,9,5,0.4,0.4
2025-11-29T1300,4240A,98.4958,39.7339,酒泉市,玉门东路5号,颗粒物(PM10),51,51,82,9,17,83,83,62,57,11,9,25,11,0.8,0.3
2025-11-29T1300,4241A,98.5099,39.7506,酒泉市,北大街108号,颗粒物(PM10),59,68,88,7,17,74,74,46,45,17,13,36,12,1.0,0.4
2025-11-29T1300,2698A,76.0072,39.4467,喀什地区,巡警大队,颗粒物(PM10),193,336,280,143,104,7,7,3,3,106,71,17,12,3.5,2.4
2025-11-29T1300,2699A,75.9755,39.4694,喀什地区,吾办,细颗粒物(PM2.5),245,364,250,195,114,10,10,2,2,95,74,9,4,2.9,2.5
2025-11-29T1300,4027A,75.9483,39.4689,喀什地区,老干局,颗粒物(PM10),362,469,287,161,119,7,7,4,4,101,73,18,9,3.5,3.8
2025-11-29T1300,1824A,114.3389,34.7781,开封市,肿瘤医院,颗粒物(PM10),85,119,139,29,45,81,81,37,37,17,34,12,11,0.5,0.6
2025-11-29T1300,1826A,114.2885,34.7965,开封市,世纪星幼儿园,颗粒物(PM10),78,105,134,38,60,78,78,40,40,21,37,12,11,0.6,0.6
2025-11-29T1300,3147A,114.3438,34.8106,开封市,龙亭公园,颗粒物(PM10),158,266,138,36,50,78,78,39,39,20,36,12,11,0.6,0.6
2025-11-29T1300,3210A,114.3644,34.7964,开封市,汴京公园,颗粒物(PM10),102,153,150,43,55,79,79,34,34,28,42,12,11,0.4,0.5
2025-11-29T1300,3473A,114.2485,34.8306,开封市,技师学院,颗粒物(PM10),75,100,132,34,52,73,73,41,41,27,41,10,10,0.7,0.8
2025-11-29T1300,3592A,114.4644,34.7556,开封市,祥符区生态环境局,颗粒物(PM10),75,99,143,40,55,80,80,38,38,27,40,9,8,0.4,0.4
2025-11-29T1300,1951A,84.895,45.6094,克拉玛依市,长征新村,,47,47,55,15,31,37,37,36,24,15,16,7,7,0.6,0.7
2025-11-29T1300,1952A,84.8988,45.5893,克拉玛依市,南林小区,,44,44,54,24,27,30,30,35,22,17,13,3,2,0.3,0.4
2025-11-29T1300,1954A,84.905,44.3396,克拉玛依市,独山子区,,30,30,40,13,23,45,45,49,46,14,12,5,5,0.5,0.4
2025-11-29T1300,1955A,85.6979,46.098,克拉玛依市,乌尔禾区商贸楼,,35,35,51,16,23,44,44,40,40,12,12,6,6,0.2,0.2
2025-11-29T1300,3612A,85.1045,45.6899,克拉玛依市,白碱滩区新站,,26,26,45,15,30,56,56,38,37,8,14,6,6,0.4,0.5
2025-11-29T1300,2697A,76.1454,39.7142,克孜勒苏柯尔克孜自治州,市人民政府,颗粒物(PM10),79,107,100,50,38,57,57,55,52,18,21,48,19,0.3,0.5
2025-11-29T1300,3665A,76.1658,39.7157,克孜勒苏柯尔克孜自治州,克州文化中心,颗粒物(PM10),94,138,119,63,42,51,51,49,43,33,30,67,25,1.3,0.6
2025-11-29T1300,1450A,102.8204,24.8886,昆明市,呈贡新区,,30,22,60,21,70,94,94,30,30,11,42,4,7,0.6,1
2025-11-29T1300,1451A,102.6251,24.9608,昆明市,西山森林公园,,,,,,,,,,,,,,,,
2025-11-29T1300,1452A,102.7252,25.0902,昆明市,龙泉镇,,37,37,56,25,32,76,76,25,25,23,47,6,4,0.8,0.8
2025-11-29T1300,1453A,102.7266,25.0375,昆明市,东风东路,颗粒物(PM10),51,51,71,29,43,81,81,25,25,29,42,6,5,0.7,0.7
2025-11-29T1300,1454A,102.6742,25.0669,昆明市,金鼎山,颗粒物(PM10),55,59,82,30,39,88,88,32,32,24,49,8,6,0.9,0.9
2025-11-29T1300,1455A,102.6644,25.0401,昆明市,碧鸡广场,颗粒物(PM10),51,52,64,30,36,85,85,30,30,26,55,8,6,0.8,0.8
2025-11-29T1300,3179A,102.7494,25.0119,昆明市,官渡区博物馆,"颗粒物(PM10),细颗粒物(PM2.5)",52,54,85,36,46,77,77,22,22,30,52,7,6,0.6,0.9
2025-11-29T1300,3375A,102.8017,24.8336,昆明市,青年创业园,,33,32,45,23,26,100,100,41,41,6,25,5,14,0.5,0.6
2025-11-29T1300,3550A,102.7997,24.9786,昆明市,昆明学院,,47,47,88,27,45,84,84,26,26,21,43,6,6,0.5,0.6
2025-11-29T1300,3551A,102.5967,24.6736,昆明市,晋宁区生态环境分局,,31,18,57,17,41,99,99,43,43,10,34,2,2,0.3,0.6
2025-11-29T1300,3552A,102.6678,24.9856,昆明市,云天化总部,,48,48,55,26,29,84,84,31,31,24,46,11,8,0.8,0.7
2025-11-29T1300,1456A,91.1319,29.6514,拉萨市,八廓街,,30,22,27,11,19,94,94,74,74,11,25,27,15,0.4,0.6
2025-11-29T1300,1457A,91.1221,29.6747,拉萨市,市环保局,,26,17,39,9,24,81,81,40,40,15,30,20,10,0.6,1.2
2025-11-29T1300,1458A,91.0874,29.6475,拉萨市,区监测站,,29,19,21,12,13,92,92,67,67,14,38,25,11,0.1,0.3
2025-11-29T1300,1459A,91.1774,29.6541,拉萨市,西藏大学,,27,19,21,6,11,86,86,71,71,14,21,23,12,0.2,0.3
2025-11-29T1300,1460A,90.9798,29.6588,拉萨市,区辐射站,,33,33,34,16,20,77,77,52,43,26,37,16,8,0.5,0.6
2025-11-29T1300,1461A,91.0834,29.6292,拉萨市,拉萨火车站,,30,30,29,11,16,88,88,49,49,13,32,21,9,0.5,0.9
2025-11-29T1300,2520A,109.2203,23.7256,来宾市,来宾技工学校,细颗粒物(PM2.5),83,112,83,61,45,96,96,35,35,21,31,11,10,0.7,0.7
2025-11-29T1300,3535A,109.1781,23.7297,来宾市,兴宾区政府,细颗粒物(PM2.5),75,88,68,55,35,108,108,46,46,19,15,16,9,0.7,0.5
2025-11-29T1300,4002A,109.2416,23.7461,来宾市,中南小学,颗粒物(PM10),77,104,82,55,43,107,107,34,34,18,38,14,10,0.8,0.7
2025-11-29T1300,1477A,104.1373,35.9454,兰州市,榆中兰大校区,,,,,,,,,,,,,,,,
2025-11-29T1300,1479A,103.831,36.0464,兰州市,铁路设计院,,,,,,,,,,,,,,,,
2025-11-29T1300,3241A,103.7439,36.0842,兰州市,百合公园,细颗粒物(PM2.5),74,79,85,54,51,53,53,14,14,51,70,38,21,1.0,1.3
2025-11-29T1300,3242A,103.9611,35.998,兰州市,和平,细颗粒物(PM2.5),83,101,70,61,39,46,46,17,17,40,44,30,13,2.2,1.3
2025-11-29T1300,4236A,103.6293,36.0938,兰州市,庄浪东路808号,颗粒物(PM10),78,106,81,56,47,75,75,21,21,89,76,32,19,1.4,1.1
2025-11-29T1300,4237A,103.7251,36.1043,兰州市,安宁西路88号,颗粒物(PM10),71,91,99,49,54,69,69,22,22,46,68,39,18,1.1,1.3
2025-11-29T1300,4238A,103.8470,36.0676,兰州市,北滨河东路1号,颗粒物(PM10),61,72,95,40,53,41,41,11,11,71,76,33,17,1.8,1.5
2025-11-29T1300,3245A,103.6633,36.533,兰州新区,新区管委会,颗粒物(PM10),51,52,64,32,34,73,73,33,33,14,25,28,17,0.5,0.6
2025-11-29T1300,3246A,103.6975,36.4789,兰州新区,舟曲中学,,40,40,64,25,30,89,89,42,42,14,40,22,18,0.4,0.7
2025-11-29T1300,1067A,116.6708,39.5111,廊坊市,药材公司,颗粒物(PM10),93,135,160,65,75,25,25,7,7,55,60,8,8,0.7,1.1
2025-11-29T1300,1068A,116.7214,39.5589,廊坊市,开发区,颗粒物(PM10),101,151,172,63,71,22,22,6,6,63,75,6,7,0.6,0.8
2025-11-29T1300,1070A,116.7244,39.5269,廊坊市,北华航天学院,颗粒物(PM10),103,155,165,68,71,26,26,9,9,57,69,8,8,0.7,0.9
2025-11-29T1300,2919A,116.7022,39.5453,廊坊市,河北工业大学,颗粒物(PM10),100,149,167,64,69,23,23,8,8,50,64,6,9,0.6,0.8
2025-11-29T1300,2535A,103.7723,29.5462,乐山市,花湖湾,,,,,,,,,,,,,,,,
2025-11-29T1300,2536A,103.7627,29.5844,乐山市,牛耳桥,细颗粒物(PM2.5),158,129,106,120,87,23,23,7,7,46,37,10,7,1.1,1
2025-11-29T1300,2537A,103.7508,29.6006,乐山市,市第三水厂,细颗粒物(PM2.5),152,144,110,116,84,27,27,8,8,49,42,11,7,1.2,1.1
2025-11-29T1300,2538A,103.7571,29.5664,乐山市,市监测站,细颗粒物(PM2.5),132,130,108,100,81,13,13,6,6,46,34,7,6,1.3,1
2025-11-29T1300,3361A,103.7311,29.5628,乐山市,理工大学,细颗粒物(PM2.5),144,133,105,110,85,37,37,9,9,34,33,13,8,1.0,0.9
2025-11-29T1300,2598A,100.2143,26.8576,丽江市,西南郊,,,,,,,,,,,,,,,,
2025-11-29T1300,2599A,100.2497,26.8802,丽江市,丽江古城,,23,21,31,14,15,73,73,63,58,10,13,8,10,0.5,0.6
2025-11-29T1300,2600A,100.2203,26.8906,丽江市,市中心,,22,13,24,6,14,70,70,52,43,10,16,8,8,0.5,0.5
2025-11-29T1300,1267A,119.914,28.4514,丽水市,监测站大楼,颗粒物(PM10),68,85,64,27,28,83,83,36,36,27,34,7,6,0.5,0.5
2025-11-29T1300,1268A,119.93,28.4586,丽水市,莲都小学,颗粒物(PM10),66,81,78,31,25,92,92,2,,23,36,6,5,0.6,0.6
2025-11-29T1300,1269A,119.879,28.4231,丽水市,余庄前,颗粒物(PM10),62,74,59,38,29,84,84,28,28,29,23,5,4,0.4,0.3
2025-11-29T1300,1173A,119.176,34.5885,连云港市,市环境监测站,颗粒物(PM10),79,107,183,48,56,83,83,44,44,23,41,12,11,0.4,0.5
2025-11-29T1300,3000A,119.3581,34.6972,连云港市,德源药业,颗粒物(PM10),80,110,183,44,56,82,82,42,42,24,38,8,8,0.7,0.8
2025-11-29T1300,3007A,119.178,34.844,连云港市,新城一中,颗粒物(PM10),104,158,177,73,70,83,83,34,34,24,39,16,11,0.8,0.7
2025-11-29T1300,3008A,119.3608,34.7519,连云港市,胡沟管理处,颗粒物(PM10),84,117,154,46,42,78,78,57,57,30,30,10,9,0.7,0.7
2025-11-29T1300,3009A,119.1478,34.5911,连云港市,矿山设计院,颗粒物(PM10),84,117,178,46,50,89,89,49,49,25,44,10,10,0.8,0.9
2025-11-29T1300,3434A,119.2413,34.6539,连云港市,工贸学校,颗粒物(PM10),102,154,194,68,59,89,89,56,56,21,25,12,13,0.5,0.9
2025-11-29T1300,3664A,119.4172,34.7341,连云港市,连云街道,颗粒物(PM10),90,130,176,57,52,95,95,82,82,19,20,8,8,0.6,0.6
2025-11-29T1300,2571A,102.3431,27.8099,凉山彝族自治州,青龙寺,,,,,,,,,,,,,,,,
2025-11-29T1300,2572A,102.2721,27.8415,凉山彝族自治州,邛海宾馆,,48,48,42,30,28,76,76,40,40,16,17,12,9,1.1,0.8
2025-11-29T1300,2573A,102.2625,27.898,凉山彝族自治州,西昌市政府,细颗粒物(PM2.5),68,55,41,49,31,63,63,37,34,26,16,10,8,0.8,0.7
2025-11-29T1300,2574A,102.2685,27.8851,凉山彝族自治州,凉山州政府,,,69,50,33,28,71,71,31,31,21,20,,10,0.8,0.7
2025-11-29T1300,4229A,102.2342,27.8859,凉山彝族自治州,凯乐南路30号,"颗粒物(PM10),细颗粒物(PM2.5)",59,68,67,42,38,66,66,19,19,38,45,12,9,1.0,1.1
2025-11-29T1300,2212A,123.2,41.1953,辽阳市,宏伟区,颗粒物(PM10),116,182,67,50,25,62,62,64,60,24,16,9,5,0.9,0.5
2025-11-29T1300,2213A,123.1683,41.2495,辽阳市,新华园,颗粒物(PM10),119,188,72,56,28,57,57,57,53,29,16,10,4,0.7,0.4
2025-11-29T1300,2214A,123.2354,41.2639,辽阳市,滨河路,颗粒物(PM10),130,210,72,51,24,60,60,55,54,28,17,12,6,0.9,0.4
2025-11-29T1300,2215A,123.149,41.2991,辽阳市,铁西工业园,颗粒物(PM10),120,190,74,40,24,60,60,58,53,24,13,14,9,0.9,0.6
2025-11-29T1300,2227A,125.1358,42.8845,辽源市,环保局,颗粒物(PM10),78,106,60,35,15,72,72,67,67,14,14,4,6,0.5,0.5
2025-11-29T1300,3239A,125.0764,42.9078,辽源市,银鹰制药,颗粒物(PM10),68,86,37,37,22,76,76,66,66,14,19,4,7,0.5,0.5
2025-11-29T1300,1625A,115.9848,36.4372,聊城市,区政府,细颗粒物(PM2.5),139,195,181,106,71,55,55,31,31,50,44,15,14,0.9,0.7
2025-11-29T1300,2878A,116.0072,36.4343,聊城市,聊大东校,颗粒物(PM10),123,195,194,91,78,51,51,26,26,48,43,16,12,0.9,0.8
2025-11-29T1300,3200A,115.9819,36.4978,聊城市,监控中心,细颗粒物(PM2.5),128,195,189,97,77,68,68,31,31,42,43,16,13,1.0,0.9
2025-11-29T1300,3513A,116.0445,36.4361,聊城市,九州社区,颗粒物(PM10),123,195,183,83,67,70,70,36,36,36,36,7,5,0.8,0.7
2025-11-29T1300,4018A,116.0567,36.4608,聊城市,星美广场,颗粒物(PM10),119,188,186,78,64,65,65,38,38,38,33,5,5,0.7,0.5
2025-11-29T1300,2632A,94.3681,29.6376,林芝市,林芝监测站,,20,20,15,6,8,54,54,41,39,14,10,8,8,0.3,0.3
2025-11-29T1300,2633A,94.3616,29.6616,林芝市,林芝人民医院,,15,15,22,3,11,47,47,38,33,14,10,8,7,0.3,0.3
2025-11-29T1300,2603A,100.0781,23.8982,临沧市,市环保局,,36,36,37,25,32,85,85,40,40,10,9,4,5,0.7,0.7
2025-11-29T1300,2604A,100.0894,23.8822,临沧市,市气象局,,29,28,34,19,21,92,92,41,41,9,12,5,5,0.4,0.5
2025-11-29T1300,1733A,111.5531,36.0783,临汾市,临钢医院,颗粒物(PM10),154,257,234,101,78,49,49,18,18,48,45,17,8,1.9,1.5
2025-11-29T1300,1734A,111.5028,36.0714,临汾市,技工学校,细颗粒物(PM2.5),133,212,238,101,95,50,50,14,14,47,57,20,13,1.8,1.4
2025-11-29T1300,1736A,111.5018,36.0855,临汾市,市委,细颗粒物(PM2.5),159,229,268,121,94,49,49,14,14,46,58,22,16,1.9,1.5
2025-11-29T1300,3018A,111.505,36.1014,临汾市,唐尧大酒店,颗粒物(PM10),128,205,240,89,89,54,54,16,16,43,53,15,9,2.0,1.6
2025-11-29T1300,4244A,111.4879,36.0530,临汾市,启星学校,颗粒物(PM10),138,226,246,83,88,54,54,12,12,52,59,22,11,1.8,1.6
2025-11-29T1300,4271A,103.2464,35.6123,临夏回族自治州,滨河东路1号,颗粒物(PM10),70,89,92,26,45,54,54,16,16,20,30,12,8,0.5,1
2025-11-29T1300,4310A,103.2093,35.5995,临夏回族自治州,新华街21号,颗粒物(PM10),69,88,107,46,67,49,49,17,17,23,31,11,10,0.7,1.5
2025-11-29T1300,1618A,118.3429,35.0532,临沂市,沂河小区,细颗粒物(PM2.5),104,144,177,78,68,83,83,36,36,40,47,21,21,0.8,0.7
2025-11-29T1300,1619A,118.295,35.0583,临沂市,鲁南制药厂,细颗粒物(PM2.5),113,141,182,85,74,82,82,38,38,38,50,21,23,0.9,0.7
2025-11-29T1300,1620A,118.2794,34.9976,临沂市,新光毛纺厂,细颗粒物(PM2.5),110,156,177,83,66,78,78,34,34,39,49,22,24,0.9,0.8
2025-11-29T1300,1621A,118.3956,35.0888,临沂市,河东保险公司,细颗粒物(PM2.5),99,132,163,74,59,92,92,43,43,37,45,18,17,0.6,0.5
2025-11-29T1300,3370A,118.3564,35.0215,临沂市,十里堡居委,颗粒物(PM10),93,136,180,56,53,80,80,30,30,40,50,22,24,1.0,0.8
2025-11-29T1300,3496A,118.3604,35.1084,临沂市,南坊新区,颗粒物(PM10),101,151,171,75,57,86,86,45,45,42,44,19,20,0.9,0.7
2025-11-29T1300,3860A,118.3920,35.0300,临沂市,皇山花园小区,颗粒物(PM10),90,129,177,64,58,88,88,37,37,36,46,22,24,0.9,0.7
2025-11-29T1300,1870A,109.4856,24.3895,柳州市,柳东小学,细颗粒物(PM2.5),63,67,79,45,46,121,121,54,54,10,26,12,19,0.4,0.4
2025-11-29T1300,1871A,109.4157,24.3277,柳州市,环保监测站,颗粒物(PM10),64,77,93,44,50,107,107,42,42,20,38,16,16,0.7,0.6
2025-11-29T1300,1872A,109.389,24.341,柳州市,河西水厂,颗粒物(PM10),78,105,104,32,46,116,116,38,38,33,39,23,17,1.4,0.6
2025-11-29T1300,1873A,109.4311,24.2921,柳州市,市四中,颗粒物(PM10),71,91,86,46,44,111,111,40,40,25,50,16,16,0.7,1
2025-11-29T1300,1874A,109.4006,24.3631,柳州市,市九中,颗粒物(PM10),91,132,108,57,56,80,80,36,36,53,44,38,21,2.3,0.8
2025-11-29T1300,1875A,109.4958,24.3134,柳州市,古亭山,"颗粒物(PM10),细颗粒物(PM2.5)",62,73,62,44,40,104,104,34,34,22,48,17,12,0.5,0.5
2025-11-29T1300,3402A,109.5422,24.3996,柳州市,市二中,颗粒物(PM10),64,77,82,37,52,118,118,42,42,16,33,13,21,1.1,1.2
2025-11-29T1300,2307A,116.5079,31.737,六安市,监测大楼,,47,47,82,20,33,97,97,51,51,9,26,4,4,0.3,0.4
2025-11-29T1300,2308A,116.4738,31.7643,六安市,皖西学院,,50,50,87,17,30,101,101,60,60,6,18,3,3,0.3,0.4
2025-11-29T1300,2309A,116.4996,31.7905,六安市,朝阳厂,,44,44,73,21,31,91,91,59,59,12,25,5,4,0.3,0.4
2025-11-29T1300,2310A,116.5567,31.7886,六安市,开发区,,46,46,114,25,45,98,98,53,53,11,32,3,4,0.3,0.4
2025-11-29T1300,2576A,104.8,26.5892,六盘水市,窑上,,49,49,49,22,31,106,106,63,63,6,8,7,4,0.4,0.5
2025-11-29T1300,2577A,104.83,26.5917,六盘水市,黄土坡,,49,43,52,34,34,94,94,49,49,23,23,13,10,0.6,0.6
2025-11-29T1300,2578A,104.89,26.5939,六盘水市,水钢,,,,69,50,40,102,102,51,40,,24,10,17,0.5,0.8
2025-11-29T1300,2579A,104.8475,26.5894,六盘水市,民中,,48,48,57,29,37,98,98,37,37,21,36,11,13,0.6,0.9
2025-11-29T1300,2580A,104.9544,26.5506,六盘水市,双水,,46,44,53,32,33,101,101,53,53,13,18,7,8,0.4,0.5
2025-11-29T1300,2335A,117.0189,25.1181,龙岩市,龙岩师专,,,,,,,,,,,,,,,,
2025-11-29T1300,2336A,117.0217,25.1033,龙岩市,龙岩市监测站,颗粒物(PM10),52,53,43,21,25,100,100,54,54,11,23,14,13,0.4,0.4
2025-11-29T1300,2337A,117.0258,25.0661,龙岩市,闽西职业技术学院,颗粒物(PM10),55,60,58,27,25,101,101,47,47,12,28,13,11,0.5,0.5
2025-11-29T1300,2338A,117.0196,25.0306,龙岩市,龙岩学院,颗粒物(PM10),55,60,49,25,26,93,93,41,41,15,21,10,7,0.6,0.5
2025-11-29T1300,2665A,105.0822,33.3261,陇南市,汉王镇固水子,,,,,,,,,,,,,,,,
2025-11-29T1300,2885A,104.9339,33.3826,陇南市,滨江中学,,35,29,109,24,51,50,50,16,16,15,46,7,18,0.7,2.6
2025-11-29T1300,3247A,104.955,33.371,陇南市,市总工会,细颗粒物(PM2.5),58,47,86,41,43,46,46,18,18,22,35,7,7,0.8,1.1
2025-11-29T1300,2487A,111.9589,27.8901,娄底市,电视发射台,,,,,,,,,,,,,,,,
2025-11-29T1300,2488A,111.9975,27.725,娄底市,市监测站,颗粒物(PM10),73,96,117,43,65,105,105,35,35,18,40,20,19,0.7,1
2025-11-29T1300,2489A,112.0194,27.7314,娄底市,市委党校,颗粒物(PM10),76,102,113,54,62,92,92,31,31,19,39,17,12,0.7,1
2025-11-29T1300,2490A,111.9561,27.7569,娄底市,涟钢,细颗粒物(PM2.5),80,107,119,59,69,93,93,33,33,34,32,31,18,2.9,1.6
2025-11-29T1300,2491A,111.9892,27.7044,娄底市,市政府,细颗粒物(PM2.5),107,129,109,80,62,94,94,37,37,20,28,19,14,0.3,0.4
2025-11-29T1300,1893A,105.4324,28.9634,泸州市,九狮山,,,,,,,,,,,,,,,,
2025-11-29T1300,1894A,105.4427,28.9063,泸州市,小市上码头,细颗粒物(PM2.5),125,108,134,95,104,76,76,26,26,19,40,14,13,0.8,1
2025-11-29T1300,1895A,105.4241,28.8573,泸州市,兰田宪桥,细颗粒物(PM2.5),134,137,149,102,115,78,78,28,28,28,33,10,9,1.0,1
2025-11-29T1300,1896A,105.4379,28.8833,泸州市,市环监站,细颗粒物(PM2.5),129,129,140,98,103,64,64,26,26,40,39,10,9,0.9,0.9
2025-11-29T1300,4272A,105.3689,28.7783,泸州市,纳溪中医医院,细颗粒物(PM2.5),125,107,117,95,98,74,74,21,21,30,33,11,9,0.8,0.9
2025-11-29T1300,2183A,111.1406,37.5211,吕梁市,环保局,颗粒物(PM10),99,147,157,49,41,41,41,15,15,36,47,15,9,0.5,0.5
2025-11-29T1300,2185A,111.1297,37.5136,吕梁市,自来水公司,颗粒物(PM10),103,156,191,64,57,41,41,12,12,32,44,15,12,0.7,0.7
2025-11-29T1300,2867A,111.1283,37.51,吕梁市,马茂庄小学,颗粒物(PM10),105,160,175,41,45,38,38,13,13,36,48,14,9,0.6,0.7
2025-11-29T1300,1812A,112.3931,34.6516,洛阳市,市委党校,颗粒物(PM10),72,94,89,44,51,66,66,32,32,29,38,10,10,0.5,0.6
2025-11-29T1300,1815A,112.494,34.6886,洛阳市,河南林校,颗粒物(PM10),79,108,113,45,52,62,62,24,24,33,45,11,9,0.6,0.7
2025-11-29T1300,1816A,112.3844,34.623,洛阳市,开发区管委会,颗粒物(PM10),70,89,96,49,50,82,82,40,40,16,35,14,12,0.4,0.5
2025-11-29T1300,1817A,112.4267,34.6258,洛阳市,市委新办公区,颗粒物(PM10),65,80,101,39,46,69,69,40,40,23,32,11,11,0.5,0.5
2025-11-29T1300,3340A,112.6005,34.6326,洛阳市,伊滨,细颗粒物(PM2.5),94,82,137,70,76,66,66,32,32,23,35,11,15,0.4,0.5
2025-11-29T1300,3341A,112.4951,34.6332,洛阳市,中移产业园,颗粒物(PM10),69,87,110,44,53,72,72,40,40,30,41,11,12,0.5,0.5
2025-11-29T1300,3593A,112.5736,34.8993,洛阳市,吉利监测站,颗粒物(PM10),73,95,107,36,46,81,81,36,36,14,48,10,9,0.5,0.5
2025-11-29T1300,3635A,112.3677,34.662,洛阳市,河科大西苑校区,颗粒物(PM10),74,97,103,35,41,76,76,34,34,21,40,10,10,0.6,0.7
2025-11-29T1300,3636A,112.4388,34.6781,洛阳市,英才小学,颗粒物(PM10),82,113,108,54,54,49,49,16,16,46,56,13,13,0.9,0.9
2025-11-29T1300,4214A,112.4600,34.6949,洛阳市,春都路1号院,颗粒物(PM10),89,127,127,40,46,55,55,18,18,36,51,13,12,0.7,0.8
2025-11-29T1300,2399A,114.051,33.5699,漯河市,三五一五工厂,颗粒物(PM10),76,102,101,40,44,85,85,63,63,11,17,8,7,0.6,0.6
2025-11-29T1300,2400A,114.0055,33.5698,漯河市,漯河大学,,,91,98,39,45,88,88,60,60,16,24,,7,0.5,0.5
2025-11-29T1300,2401A,114.0138,33.5828,漯河市,市水利局,细颗粒物(PM2.5),83,92,88,61,44,86,86,66,66,17,20,9,8,0.4,0.5
2025-11-29T1300,2402A,114.0261,33.5698,漯河市,市广电局,颗粒物(PM10),73,95,97,37,48,88,88,65,65,12,18,8,7,0.4,0.4
2025-11-29T1300,3478A,113.9749,33.5664,漯河市,市图书馆,颗粒物(PM10),72,94,104,36,47,78,78,57,57,15,18,6,5,0.5,0.5
2025-11-29T1300,4250A,114.0892,33.5882,漯河市,韶山路11号,颗粒物(PM10),67,84,97,30,46,83,83,64,64,15,22,10,9,0.5,0.4
2025-11-29T1300,1798A,118.5092,31.6837,马鞍山市,湖东路四小,颗粒物(PM10),82,113,135,37,48,94,94,43,43,21,39,9,6,0.6,0.8
2025-11-29T1300,1799A,118.5024,31.6449,马鞍山市,开发区,颗粒物(PM10),79,108,138,43,54,93,93,39,39,22,42,10,7,0.5,0.7
2025-11-29T1300,1802A,118.6245,31.7241,马鞍山市,濮塘,,,,,,,,,,,,,,,,
2025-11-29T1300,3633A,118.4918,31.6809,马鞍山市,雨山,颗粒物(PM10),81,112,134,42,47,99,99,42,42,18,38,11,8,0.5,0.7
2025-11-29T1300,4191A,118.5274,31.72227,马鞍山市,慈湖高新区,颗粒物(PM10),80,110,149,50,54,90,90,39,39,25,41,9,6,0.6,0.8
2025-11-29T1300,1686A,111.0286,21.4688,茂名市,电白南海,颗粒物(PM10),64,78,78,29,27,96,96,63,63,17,23,12,20,0.4,0.5
2025-11-29T1300,1687A,110.9294,21.6533,茂名市,茂石化七小,颗粒物(PM10),54,58,71,29,29,110,110,53,53,16,23,12,20,0.5,0.6
2025-11-29T1300,1688A,110.9107,21.6687,茂名市,健康路,颗粒物(PM10),60,70,68,29,30,115,115,52,52,22,30,12,33,0.5,0.6
2025-11-29T1300,1689A,110.8592,21.6828,茂名市,高岭,颗粒物(PM10),74,97,95,36,36,119,119,51,51,31,37,17,26,0.7,0.7
2025-11-29T1300,3450A,111.01,21.5165,茂名市,电白水东,颗粒物(PM10),60,70,64,34,26,94,94,64,64,16,18,16,19,0.7,0.6
2025-11-29T1300,2539A,104.0308,30.0478,眉山市,黑龙滩水库,,,,,,,,,,,,,,,,
2025-11-29T1300,2540A,103.8416,30.0874,眉山市,气象局,细颗粒物(PM2.5),192,151,122,144,104,40,40,12,12,43,41,44,16,1.1,1
2025-11-29T1300,3137A,103.8578,30.0744,眉山市,市委党校,细颗粒物(PM2.5),153,149,112,117,88,12,12,9,6,64,44,11,8,1.0,0.9
2025-11-29T1300,3148A,103.8291,30.0564,眉山市,区人社局,细颗粒物(PM2.5),206,169,123,156,101,26,26,10,6,54,41,30,9,1.2,1.1
2025-11-29T1300,1690A,116.1231,24.3284,梅州市,梅江月梅,颗粒物(PM10),52,53,55,33,27,92,92,38,38,15,29,8,6,0.6,0.6
2025-11-29T1300,1691A,116.0797,24.2719,梅州市,梅县新城,颗粒物(PM10),57,64,61,28,30,92,92,41,41,19,31,10,8,0.6,0.5
2025-11-29T1300,1692A,116.1248,24.2654,梅州市,环境监控中心,颗粒物(PM10),57,64,59,30,33,92,92,40,40,18,36,8,20,0.5,0.5
2025-11-29T1300,3315A,116.1233,24.2991,梅州市,梅龙,颗粒物(PM10),54,58,58,28,29,84,84,40,40,16,23,10,9,0.6,0.5
2025-11-29T1300,1878A,104.7778,31.4741,绵阳市,富乐山,细颗粒物(PM2.5),90,92,102,67,76,62,62,13,13,24,32,10,10,0.6,0.7
2025-11-29T1300,1880A,104.6697,31.4668,绵阳市,高新区自来水公司,细颗粒物(PM2.5),98,113,116,73,78,63,63,15,15,26,41,10,10,0.6,0.7
2025-11-29T1300,1881A,104.7287,31.5075,绵阳市,三水厂,细颗粒物(PM2.5),102,90,111,76,86,41,41,9,9,35,40,12,13,0.8,1
2025-11-29T1300,3491A,104.69,31.5322,绵阳市,西科大附属小学,细颗粒物(PM2.5),104,115,124,78,80,59,59,15,15,30,40,8,8,0.5,0.7
2025-11-29T1300,3492A,104.5648,31.5343,绵阳市,安州区旅游局,细颗粒物(PM2.5),117,,93,88,81,78,78,24,24,20,29,5,8,0.7,0.8
2025-11-29T1300,4226A,104.7651,31.4531,绵阳市,绵阳市气象局,颗粒物(PM10),72,93,118,42,75,42,42,8,8,35,42,11,13,0.7,0.8
2025-11-29T1300,1784A,129.61,44.561,牡丹江市,环保大楼,,50,50,45,29,33,20,20,13,13,41,42,20,13,0.7,0.8
2025-11-29T1300,1785A,129.6115,44.5782,牡丹江市,文化广场,细颗粒物(PM2.5),60,59,64,43,44,20,20,16,16,44,42,20,16,1.0,0.9
2025-11-29T1300,1786A,129.5904,44.5963,牡丹江市,第一医院,细颗粒物(PM2.5),69,62,50,50,42,25,25,16,13,40,35,23,12,0.8,0.8
2025-11-29T1300,1787A,129.6364,44.6075,牡丹江市,机车工厂,颗粒物(PM10),55,59,52,34,34,25,25,18,18,40,39,27,19,0.7,0.6
2025-11-29T1300,1788A,129.6386,44.5462,牡丹江市,第一中学,,37,37,31,23,27,26,26,19,19,34,34,9,6,0.6,0.5
2025-11-29T1300,2531A,105.0703,29.61,内江市,市监测站,细颗粒物(PM2.5),83,66,85,61,73,102,102,38,38,17,28,4,4,0.7,0.8
2025-11-29T1300,2532A,105.0717,29.5947,内江市,东兴区政府,细颗粒物(PM2.5),95,88,79,71,68,67,67,20,20,38,35,4,4,0.7,0.7
2025-11-29T1300,2533A,105.0653,29.5817,内江市,内江二中,细颗粒物(PM2.5),109,88,96,82,75,69,69,22,22,37,34,5,5,0.9,0.9
2025-11-29T1300,2534A,105.0406,29.5822,内江市,内江日报社,细颗粒物(PM2.5),97,84,88,72,69,89,89,26,26,27,41,4,4,0.5,0.6
2025-11-29T1300,2628A,92.0657,31.4846,那曲市,那曲监测站,,41,41,53,22,34,77,77,46,46,9,33,6,11,0.5,1.5
2025-11-29T1300,4243A,92.0515,31.4787,那曲市,那曲市委宣传部,,26,11,26,3,15,81,81,39,39,3,22,4,8,0.4,1.1
2025-11-29T1300,1290A,115.8931,28.6843,南昌市,省外办,颗粒物(PM10),78,105,120,53,63,72,72,25,25,38,64,24,11,1.1,1.5
2025-11-29T1300,1291A,115.8886,28.7003,南昌市,省林业公司,颗粒物(PM10),79,107,134,48,50,74,74,23,23,32,58,22,9,1.0,1.1
2025-11-29T1300,1292A,115.8126,28.7442,南昌市,林科所,颗粒物(PM10),67,83,117,29,37,93,93,42,42,22,52,12,10,0.5,0.5
2025-11-29T1300,1294A,115.8518,28.687,南昌市,建工学校,,,,167,,56,,,56,,,53,,16,,1.0
2025-11-29T1300,1295A,115.8921,28.6424,南昌市,象湖,颗粒物(PM10),82,113,116,56,51,72,72,27,27,36,60,37,16,0.8,1
2025-11-29T1300,1296A,115.7423,28.7996,南昌市,武术学校,,,,,,,,,,,,,,,,
2025-11-29T1300,3046A,115.9084,28.6062,南昌市,机电学校,颗粒物(PM10),86,121,148,48,61,85,85,32,32,29,49,33,16,0.6,0.7
2025-11-29T1300,3690A,115.9721,28.7031,南昌市,外国语学校,颗粒物(PM10),79,108,139,55,55,91,91,34,34,31,49,21,17,0.5,0.7
2025-11-29T1300,4192A,115.9316,28.68677,南昌市,南京东路235号,颗粒物(PM10),159,268,163,43,63,96,96,37,37,30,65,23,13,0.6,1.1
2025-11-29T1300,1905A,106.056,30.8064,南充市,西山风景区,,,,,,,,,,,,,,,,
2025-11-29T1300,1906A,106.0789,30.8023,南充市,南充市委,细颗粒物(PM2.5),107,104,88,80,62,46,46,14,14,31,31,6,5,0.7,0.7
2025-11-29T1300,1907A,106.1031,30.8217,南充市,南充炼油厂,细颗粒物(PM2.5),94,104,98,70,68,37,37,12,12,20,37,6,7,0.8,0.8
2025-11-29T1300,4227A,106.1083,30.7884,南充市,梨树横街98号,细颗粒物(PM2.5),84,105,95,62,65,44,44,13,13,24,38,6,6,0.6,0.9
2025-11-29T1300,4304A,106.1172,30.843,南充市,清泉寺北路188号,细颗粒物(PM2.5),85,68,80,63,56,39,39,14,14,16,28,5,6,0.5,0.5
2025-11-29T1300,4305A,106.067,30.7616,南充市,同庆路1号,,,102,89,70,57,36,36,16,16,,40,8,7,0.8,0.8
2025-11-29T1300,1151A,118.8086,32.1065,南京市,迈皋桥,颗粒物(PM10),70,90,107,31,39,92,92,46,46,26,32,12,5,1.3,0.6
2025-11-29T1300,1152A,118.7538,32.0551,南京市,草场门,细颗粒物(PM2.5),107,124,143,80,44,77,77,34,34,35,50,18,6,1.4,0.6
2025-11-29T1300,1153A,118.7794,32.0745,南京市,山西路,颗粒物(PM10),87,124,143,36,38,90,90,39,39,35,41,9,5,1.5,0.7
2025-11-29T1300,1154A,118.7752,32.0023,南京市,中华门,颗粒物(PM10),76,102,126,34,46,76,76,28,28,32,41,5,4,1.2,0.6
2025-11-29T1300,1155A,118.8109,32.0309,南京市,瑞金路,颗粒物(PM10),81,112,129,34,44,77,77,31,31,42,46,4,4,0.8,0.4
2025-11-29T1300,1156A,118.7997,32.0754,南京市,玄武湖,颗粒物(PM10),80,110,124,33,35,83,83,38,38,26,24,4,4,1.3,0.5
2025-11-29T1300,1157A,118.6414,32.0931,南京市,浦口,颗粒物(PM10),88,126,142,41,41,86,86,41,41,28,48,14,13,0.4,0.6
2025-11-29T1300,1158A,118.7356,31.9996,南京市,奥体中心,颗粒物(PM10),82,113,132,34,41,100,100,40,40,33,54,21,8,1.2,0.6
2025-11-29T1300,1159A,118.9125,32.1028,南京市,仙林大学城,颗粒物(PM10),89,127,145,39,41,66,66,38,38,38,39,18,9,1.2,0.7
2025-11-29T1300,3422A,118.8436,31.9198,南京市,江宁彩虹桥,颗粒物(PM10),83,115,133,36,44,107,107,40,40,21,47,7,4,0.4,0.4
2025-11-29T1300,3427A,118.8554,32.3578,南京市,六合雄州,颗粒物(PM10),83,115,148,41,46,69,69,29,29,44,54,19,11,0.6,0.6
2025-11-29T1300,4249A,118.8708,31.3402,南京市,汶溪路181号,细颗粒物(PM2.5),73,,114,53,59,85,85,47,47,23,39,7,10,0.4,0.5
2025-11-29T1300,4312A,119.019,31.6512,南京市,中山西路1号,颗粒物(PM10),56,61,108,26,48,87,87,40,40,15,40,4,4,0.6,0.7
2025-11-29T1300,1401A,108.3103,22.7881,南宁市,二十一中,颗粒物(PM10),78,106,86,50,52,76,76,22,22,36,51,7,7,0.5,0.6
2025-11-29T1300,1402A,108.3141,22.8528,南宁市,北湖,颗粒物(PM10),59,68,84,37,51,84,84,23,23,26,55,8,11,0.5,0.7
2025-11-29T1300,1403A,108.3206,22.8225,南宁市,市监测站,颗粒物(PM10),58,65,84,35,43,89,89,23,23,27,60,9,12,0.5,0.7
2025-11-29T1300,1404A,108.3829,22.8037,南宁市,大自然花园,"颗粒物(PM10),细颗粒物(PM2.5)",53,55,78,37,39,95,95,30,30,21,44,8,8,0.4,0.5
2025-11-29T1300,1405A,108.4394,22.7904,南宁市,仙葫,,,,,,,,,,,,,,,,
2025-11-29T1300,1406A,108.2397,22.8467,南宁市,区农职院,颗粒物(PM10),76,101,71,50,39,76,76,27,27,35,33,20,13,0.8,0.8
2025-11-29T1300,1407A,108.3275,22.735,南宁市,英华嘉园,颗粒物(PM10),68,86,91,40,52,78,78,30,30,30,57,6,7,0.3,0.4
2025-11-29T1300,3401A,108.4834,22.7618,南宁市,红星社区,颗粒物(PM10),51,52,66,24,32,113,113,40,40,14,34,9,9,0.4,0.5
2025-11-29T1300,4221A,108.2177,22.7774,南宁市,乐贤路16号,颗粒物(PM10),65,80,85,41,40,92,92,31,31,28,45,10,6,0.4,0.5
2025-11-29T1300,2331A,118.0966,26.6761,南平市,茫荡山,,,,49,,19,,,126,,,,,2,,0.3
2025-11-29T1300,2332A,118.1681,26.6369,南平市,南平市监测站,颗粒物(PM10),51,52,54,25,30,85,85,40,40,11,25,4,4,0.5,0.6
2025-11-29T1300,2333A,118.1825,26.6489,南平市,南平铝业有限公司,颗粒物(PM10),58,66,57,25,32,85,85,40,40,11,29,6,5,0.4,0.5
2025-11-29T1300,2334A,118.1756,26.6272,南平市,南平七中,颗粒物(PM10),66,82,54,22,28,92,92,40,40,11,20,5,5,0.4,0.4
2025-11-29T1300,1168A,120.9098,31.9663,南通市,狼山街道,颗粒物(PM10),92,134,180,48,52,67,67,31,31,54,66,9,6,0.8,0.7
2025-11-29T1300,1169A,120.86,32.0005,南通市,虹桥,颗粒物(PM10),76,101,170,47,53,70,70,40,40,60,65,8,8,0.5,0.4
2025-11-29T1300,1170A,120.87,32.02,南通市,城中,颗粒物(PM10),89,127,206,47,53,69,69,38,38,58,66,10,9,0.8,0.7
2025-11-29T1300,1171A,120.94,31.93,南通市,星湖花园,颗粒物(PM10),87,124,205,47,54,74,74,38,38,48,64,11,8,0.7,0.6
2025-11-29T1300,1172A,120.81,32.0417,南通市,紫琅学院,颗粒物(PM10),92,133,216,52,52,65,65,34,34,58,68,9,7,0.9,0.7
2025-11-29T1300,3291A,121.067,32.062,南通市,通州监测站,颗粒物(PM10),74,97,177,31,52,79,79,45,45,48,61,11,7,0.4,0.6
2025-11-29T1300,3432A,120.9348,31.9883,南通市,环境教育馆,颗粒物(PM10),84,117,179,45,48,70,70,33,33,53,57,10,8,0.6,0.5
2025-11-29T1300,2404A,112.5224,33.0122,南阳市,瓦房庄,颗粒物(PM10),69,88,108,40,56,64,64,31,31,17,26,9,10,0.4,0.6
2025-11-29T1300,2405A,112.5003,32.9735,南阳市,汉画馆,颗粒物(PM10),65,79,119,41,59,66,66,27,27,15,31,10,8,0.5,0.7
2025-11-29T1300,2406A,112.5573,33.027,南阳市,气象站,颗粒物(PM10),72,94,123,39,51,69,69,36,36,14,24,8,9,0.5,0.7
2025-11-29T1300,2407A,112.5481,32.9689,南阳市,理工学院,颗粒物(PM10),64,78,112,35,48,68,68,30,30,14,25,9,8,0.7,0.8
2025-11-29T1300,4008A,112.5234,32.9922,南阳市,卧龙区政府,颗粒物(PM10),64,78,131,45,60,63,63,27,27,15,32,10,8,0.6,0.7
2025-11-29T1300,1234A,121.8358,29.911,宁波市,区环保大楼,颗粒物(PM10),64,78,205,25,52,92,92,42,42,13,49,6,7,0.5,0.9
2025-11-29T1300,1235A,121.56,29.82,宁波市,万里学院,颗粒物(PM10),75,100,192,32,49,102,102,49,49,17,39,6,7,0.5,0.5
2025-11-29T1300,1236A,121.713,29.9572,宁波市,龙赛医院,颗粒物(PM10),73,96,219,27,52,93,93,40,40,14,54,3,5,0.4,0.6
2025-11-29T1300,1239A,121.633,29.7733,宁波市,钱湖水厂,颗粒物(PM10),61,71,185,25,41,96,96,65,65,10,17,6,6,0.4,0.5
2025-11-29T1300,1240A,121.5856,29.8635,宁波市,太古小学,颗粒物(PM10),73,95,186,35,53,103,103,63,63,13,30,3,4,0.4,0.5
2025-11-29T1300,1241A,121.524,29.8674,宁波市,市环境监测中心,颗粒物(PM10),74,97,177,28,48,93,93,45,45,15,39,9,9,0.6,0.7
2025-11-29T1300,2871A,121.6147,29.9017,宁波市,万里国际学校,颗粒物(PM10),74,98,176,51,49,103,103,64,64,16,28,5,5,0.5,0.5
2025-11-29T1300,3710A,121.5594,29.8975,宁波市,白沙活动中心,,,112,181,34,43,98,98,47,47,12,39,,6,0.6,0.7
2025-11-29T1300,2339A,119.5001,26.6946,宁德市,金涵水库,,,,83,,25,,,63,,,11,,2,,0.3
2025-11-29T1300,2341A,119.5388,26.6612,宁德市,宁德市监测站,颗粒物(PM10),67,83,84,25,23,78,78,55,55,22,17,7,7,0.5,0.5
2025-11-29T1300,3209A,119.5231,26.6562,宁德市,宁德一中,颗粒物(PM10),70,89,82,37,24,76,76,56,56,22,13,7,7,0.5,0.5
2025-11-29T1300,2618A,98.8601,25.8567,怒江傈僳族自治州,州监测站,,29,26,35,20,23,57,57,29,29,7,13,6,6,0.3,0.4
2025-11-29T1300,2619A,98.8546,25.8417,怒江傈僳族自治州,泸水一中,,39,30,29,27,21,51,51,19,19,8,18,4,5,0.4,0.5
2025-11-29T1300,1888A,101.6891,26.571,攀枝花市,弄弄坪,细颗粒物(PM2.5),70,75,59,51,41,55,55,25,23,40,29,42,18,2.5,1.3
2025-11-29T1300,1889A,101.5769,26.5928,攀枝花市,河门口,细颗粒物(PM2.5),65,74,57,47,39,58,58,22,22,36,25,45,21,3.8,1.4
2025-11-29T1300,1890A,101.7169,26.585,攀枝花市,炳草岗,颗粒物(PM10),56,61,74,30,48,73,73,18,18,24,43,18,13,1.4,1.2
2025-11-29T1300,1891A,101.7369,26.5008,攀枝花市,仁和,,,52,61,35,40,82,82,31,31,,21,26,15,2.1,1.1
2025-11-29T1300,2835A,101.7227,26.567,攀枝花市,四十中小,细颗粒物(PM2.5),64,70,68,46,42,52,52,14,14,35,47,25,16,1.8,1.4
2025-11-29T1300,1604A,122.0303,41.1489,盘锦市,开发区,颗粒物(PM10),96,142,77,47,30,66,66,56,51,21,21,10,6,0.7,0.6
2025-11-29T1300,1605A,122.0485,41.0883,盘锦市,兴隆台,颗粒物(PM10),93,135,86,39,29,63,63,55,50,27,27,13,11,0.6,0.5
2025-11-29T1300,1606A,121.8297,41.1028,盘锦市,新生街道,颗粒物(PM10),104,157,81,46,26,67,67,59,52,32,26,17,10,0.6,0.4
2025-11-29T1300,1832A,113.3257,33.742,平顶山市,新华旅馆,颗粒物(PM10),89,127,113,44,48,86,86,50,50,20,24,9,9,0.6,0.5
2025-11-29T1300,1833A,113.2919,33.737,平顶山市,规划设计院,颗粒物(PM10),79,108,118,52,53,88,88,42,42,23,34,8,7,0.5,0.5
2025-11-29T1300,1834A,113.182,33.774,平顶山市,平顶山工学院,颗粒物(PM10),73,96,103,48,49,86,86,55,52,18,22,8,8,0.5,0.5
2025-11-29T1300,3204A,113.3025,33.73,平顶山市,规划局,颗粒物(PM10),90,129,115,46,51,86,86,45,45,22,29,8,8,0.5,0.5
2025-11-29T1300,3594A,112.8867,33.9116,平顶山市,石龙区,,,,134,22,44,94,94,40,40,8,46,6,7,0.3,0.6
2025-11-29T1300,2656A,106.6692,35.5461,平凉市,聚贤嘉苑,,35,35,47,13,18,82,82,52,52,10,23,6,4,0.4,0.4
2025-11-29T1300,2657A,106.7021,35.5307,平凉市,博物馆,,43,43,46,11,21,84,84,54,54,11,21,12,12,0.3,0.5
2025-11-29T1300,2347A,114.0997,27.5002,萍乡市,武功山,,,,,,,,,,,,,,,,
2025-11-29T1300,2348A,113.8385,27.6434,萍乡市,中医院,,,79,93,18,34,,,13,13,35,42,16,12,1.6,1.2
2025-11-29T1300,2349A,113.8493,27.6253,萍乡市,市政府车库,颗粒物(PM10),61,71,80,35,42,80,80,30,30,32,36,22,13,1.8,1.2
2025-11-29T1300,2350A,113.8676,27.6435,萍乡市,市环保局,颗粒物(PM10),69,87,86,33,38,97,97,34,34,24,36,24,21,1.4,1
2025-11-29T1300,2351A,113.866,27.6198,萍乡市,安源区政府,颗粒物(PM10),64,78,84,45,48,65,65,20,20,37,34,25,17,1.9,1.6
2025-11-29T1300,2319A,119.0141,25.4325,莆田市,荔城区仓后路,颗粒物(PM10),68,85,104,27,35,108,108,69,69,11,17,4,4,0.4,0.4
2025-11-29T1300,2320A,119.0015,25.4553,莆田市,莆田市监测站,颗粒物(PM10),70,89,92,24,27,106,106,90,86,10,12,4,4,0.4,0.4
2025-11-29T1300,2321A,119.1119,25.4561,莆田市,涵江区六中,颗粒物(PM10),74,97,105,21,30,98,98,77,77,9,13,3,4,0.2,0.3
2025-11-29T1300,2322A,119.1013,25.3215,莆田市,秀屿区政府,颗粒物(PM10),76,101,113,32,34,105,105,84,84,12,13,7,5,0.4,0.5
2025-11-29T1300,2323A,118.981,25.4792,莆田市,东圳水库,,,,80,,29,,,114,,,15,,6,,1.0
2025-11-29T1300,2392A,115.0312,35.7636,濮阳市,环保局,颗粒物(PM10),145,239,187,105,80,39,39,23,23,55,48,13,9,1.6,1.2
2025-11-29T1300,2394A,115.0574,35.7609,濮阳市,油田运输公司,细颗粒物(PM2.5),190,242,184,143,83,66,66,24,24,71,54,14,10,1.4,1.1
2025-11-29T1300,3021A,115,35.7668,濮阳市,濮水河管理处,细颗粒物(PM2.5),158,248,193,120,98,53,53,20,20,48,42,13,8,1.2,0.9
2025-11-29T1300,4216A,115.0924,35.7686,濮阳市,任丘路479号,颗粒物(PM10),162,274,207,113,86,65,65,23,23,63,46,12,8,1.5,1.1
2025-11-29T1300,2601A,100.98,22.7633,普洱市,市环保局,颗粒物(PM10),51,51,50,7,20,84,84,41,41,9,11,6,6,0.2,0.3
2025-11-29T1300,2602A,100.9817,22.8322,普洱市,普洱第二中学,,40,40,44,9,28,81,81,38,38,6,18,5,5,0.2,0.3
2025-11-29T1300,2262A,131.0518,45.8751,七台河市,新一中,,,,,,,,,,,,,,,,
2025-11-29T1300,3345A,131.0577,45.7879,七台河市,中波台,,38,36,78,26,69,45,45,36,36,17,24,7,7,0.4,0.6
2025-11-29T1300,3637A,131.0176,45.7761,七台河市,人民广场,,47,47,97,27,78,48,48,33,32,16,31,8,7,0.5,0.7
2025-11-29T1300,3684A,130.8781,45.8222,七台河市,新建矿广场,,44,44,90,23,66,45,45,29,29,17,33,6,11,0.4,0.6
2025-11-29T1300,1779A,123.9305,47.3636,齐齐哈尔市,安居小区,细颗粒物(PM2.5),77,80,70,56,41,29,29,29,22,16,24,14,13,0.6,0.7
2025-11-29T1300,1780A,123.9488,47.3386,齐齐哈尔市,中心广场,细颗粒物(PM2.5),70,88,70,51,44,28,28,29,21,19,26,9,10,0.6,0.7
2025-11-29T1300,1781A,123.9483,47.3227,齐齐哈尔市,农牧车辆厂,颗粒物(PM10),68,85,88,47,42,22,22,25,19,16,22,5,6,0.6,0.6
2025-11-29T1300,1783A,123.945,47.2988,齐齐哈尔市,市环境监测站,细颗粒物(PM2.5),77,92,72,56,41,26,26,28,21,17,23,6,7,0.8,0.8
2025-11-29T1300,3662A,123.6333,47.2075,齐齐哈尔市,富区青少年活动中心,细颗粒物(PM2.5),94,105,78,70,52,20,20,23,15,19,22,4,6,0.9,0.8
2025-11-29T1300,2591A,107.9783,26.5747,黔东南苗族侗族自治州,市环境监测站,,39,39,38,23,26,67,67,24,24,20,29,6,5,0.5,0.5
2025-11-29T1300,2881A,107.8908,26.5311,黔东南苗族侗族自治州,凯里学院,,46,46,39,25,23,82,82,28,28,15,21,7,6,0.5,0.5
