timepoint,stationcode,longitude,latitude,area,positionname,primarypollutant,aqi,pm10,pm10_24h,pm2_5,pm2_5_24h,o3,o3_24h,o3_8h,o3_8h_24h,no2,no2_24h,so2,so2_24h,co,co_24h
2023-03-06T20:00:00,1001A,116.3621,39.8784,北京市,万寿西宫,细颗粒物(PM2.5),172,192,189,130,151,116,116,108,107,40,52,2,2,1.0,1.3
2023-03-06T20:00:00,1002A,116.2202,40.2915,北京市,定陵,,43,43,138,28,108,98,64,90,88,13,14,2,2,0.4,0.9
2023-03-06T20:00:00,1003A,116.4174,39.9289,北京市,东四,细颗粒物(PM2.5),158,194,205,120,146,123,123,113,113,33,52,2,3,0.9,1.2
2023-03-06T20:00:00,1004A,116.4072,39.8863,北京市,天坛,细颗粒物(PM2.5),145,156,185,111,145,107,99,103,101,41,45,2,2,0.9,1.2
2023-03-06T20:00:00,1005A,116.462,39.9365,北京市,农展馆,细颗粒物(PM2.5),143,170,196,109,144,113,113,103,103,43,53,3,3,0.8,1.1
2023-03-06T20:00:00,1006A,116.3392,39.9295,北京市,官园,细颗粒物(PM2.5),160,179,208,122,154,133,133,122,122,48,59,5,4,0.8,1.2
2023-03-06T20:00:00,1007A,116.2878,39.9611,北京市,海淀万柳,细颗粒物(PM2.5),176,193,215,133,162,98,94,86,86,49,61,1,2,1.0,1.3
2023-03-06T20:00:00,1008A,116.6636,40.135,北京市,顺义新城,细颗粒物(PM2.5),83,106,182,61,136,125,67,118,107,65,39,2,2,0.7,1
2023-03-06T20:00:00,1009A,116.6275,40.3275,北京市,怀柔镇,颗粒物(PM10),73,95,202,47,129,108,24,98,78,63,32,3,3,0.9,1.2
2023-03-06T20:00:00,1010A,116.2296,40.217,北京市,昌平镇,细颗粒物(PM2.5),87,105,184,64,137,101,73,93,93,52,37,3,3,0.7,1.1
2023-03-06T20:00:00,1011A,116.3966,39.9821,北京市,奥体中心,细颗粒物(PM2.5),137,160,197,104,151,102,102,93,93,40,60,4,3,0.8,1.2
2023-03-06T20:00:00,1012A,116.184,39.9136,北京市,古城,细颗粒物(PM2.5),172,200,231,130,162,150,117,123,123,41,50,2,2,1.2,1.6
2023-03-06T20:00:00,1015A,117.1444,39.1661,天津市,勤俭道,细颗粒物(PM2.5),84,108,203,62,145,113,8,99,82,114,71,6,10,1.1,1.4
2023-03-06T20:00:00,1017A,117.237,39.1082,天津市,大直沽八号路,细颗粒物(PM2.5),83,108,197,61,134,103,30,92,85,80,74,6,10,0.9,1.5
2023-03-06T20:00:00,1018A,117.202,39.0927,天津市,前进道,细颗粒物(PM2.5),79,98,193,58,136,115,23,104,91,98,72,4,9,1.1,1.6
2023-03-06T20:00:00,1019A,117.1837,39.2133,天津市,淮河道,颗粒物(PM10),76,101,230,49,139,115,12,99,90,121,72,6,11,0.8,1.5
2023-03-06T20:00:00,1021A,117.307,39.0877,天津市,跃进路,细颗粒物(PM2.5),79,103,198,58,140,112,13,101,87,99,71,8,11,0.4,1
2023-03-06T20:00:00,1023A,117.707,39.0343,天津市,第四大街,细颗粒物(PM2.5),214,256,218,164,150,116,21,89,78,147,93,10,10,1.7,1.5
2023-03-06T20:00:00,1024A,117.457,38.8394,天津市,永明路,细颗粒物(PM2.5),208,242,204,158,146,124,18,98,86,154,94,10,11,1.6,1.4
2023-03-06T20:00:00,1026A,117.764,39.1587,天津市,汉北路,细颗粒物(PM2.5),190,198,199,143,146,126,1,94,81,140,79,12,10,1.3,1.7
2023-03-06T20:00:00,1027A,117.157,38.9194,天津市,团泊洼,"颗粒物(PM10),细颗粒物(PM2.5)",64,78,186,46,128,105,79,93,93,32,78,4,8,0.7,1.7
2023-03-06T20:00:00,1029A,114.4422,38.0444,石家庄市,职工医院,颗粒物(PM10),141,231,221,83,135,149,148,137,137,40,59,12,11,0.8,1
2023-03-06T20:00:00,1030A,114.6063,38.0266,石家庄市,高新区,细颗粒物(PM2.5),144,173,225,110,147,156,,138,138,,48,,11,,1.2
2023-03-06T20:00:00,1031A,114.4898,38.1328,石家庄市,西北水源,细颗粒物(PM2.5),134,183,229,102,148,164,141,137,137,35,61,6,8,0.8,1.1
2023-03-06T20:00:00,1032A,114.4586,38.0058,石家庄市,西南高教,细颗粒物(PM2.5),210,261,253,160,157,149,129,134,134,50,54,15,13,1.0,1.3
2023-03-06T20:00:00,1033A,114.5331,38.0178,石家庄市,世纪公园,细颗粒物(PM2.5),160,189,207,122,143,140,120,127,127,43,45,9,12,1.0,1.2
2023-03-06T20:00:00,1034A,114.509,38.0457,石家庄市,人民会堂,颗粒物(PM10),127,204,218,80,148,161,150,139,139,35,45,13,13,1.0,1.1
2023-03-06T20:00:00,1035A,114.3524,37.8911,石家庄市,封龙山,细颗粒物(PM2.5),182,231,114,137,61,184,178,150,150,40,38,17,17,1.0,0.7
2023-03-06T20:00:00,1037A,118.131,39.6363,唐山市,雷达站,细颗粒物(PM2.5),153,201,211,117,151,166,29,136,126,123,73,6,17,1.5,2.4
2023-03-06T20:00:00,1038A,118.1725,39.6334,唐山市,物资局,细颗粒物(PM2.5),147,212,200,112,137,152,54,118,110,114,84,9,20,1.5,2.5
2023-03-06T20:00:00,1040A,118.1705,39.6506,唐山市,十二中,细颗粒物(PM2.5),183,220,207,138,150,168,49,134,126,124,79,11,22,1.5,2.3
2023-03-06T20:00:00,1041A,118.1869,39.622,唐山市,小山,细颗粒物(PM2.5),185,250,209,139,149,169,49,131,121,125,84,10,16,1.5,2.3
2023-03-06T20:00:00,1042A,119.5134,39.8207,秦皇岛市,北戴河环保局,细颗粒物(PM2.5),132,141,122,100,87,137,94,104,104,40,42,11,6,0.7,0.9
2023-03-06T20:00:00,1043A,119.7493,40.0116,秦皇岛市,第一关,细颗粒物(PM2.5),135,129,153,103,115,82,66,67,67,66,72,11,7,0.7,1
2023-03-06T20:00:00,1044A,119.5897,39.9499,秦皇岛市,监测站,细颗粒物(PM2.5),195,184,146,146,109,91,38,71,71,100,77,10,9,1.1,1.2
2023-03-06T20:00:00,1046A,119.5251,39.9041,秦皇岛市,建设大厦,细颗粒物(PM2.5),125,149,159,95,83,117,78,90,90,64,74,13,9,0.8,1.2
2023-03-06T20:00:00,1048A,114.5302,36.6116,邯郸市,东污水处理厂,细颗粒物(PM2.5),99,129,138,74,88,166,69,137,133,74,47,13,15,0.4,0.9
2023-03-06T20:00:00,1049A,114.4918,36.5713,邯郸市,矿院,细颗粒物(PM2.5),119,154,153,90,94,165,,150,150,61,49,12,15,1.0,1.1
2023-03-06T20:00:00,1050A,114.484,36.6133,邯郸市,丛台公园,细颗粒物(PM2.5),104,130,142,78,92,168,89,142,139,43,34,15,20,0.8,1
2023-03-06T20:00:00,1051A,115.493,38.8632,保定市,游泳馆,细颗粒物(PM2.5),179,208,223,135,183,155,62,130,125,81,48,13,14,1.3,1.2
2023-03-06T20:00:00,1052A,115.5213,38.8959,保定市,华电二区,细颗粒物(PM2.5),179,169,213,135,192,145,70,124,120,68,51,4,7,0.8,1.6
2023-03-06T20:00:00,1053A,115.4713,38.9108,保定市,接待中心,细颗粒物(PM2.5),166,184,224,126,187,136,65,118,113,63,45,8,9,1.2,1.4
2023-03-06T20:00:00,1054A,115.4612,38.8416,保定市,地表水厂,细颗粒物(PM2.5),139,216,246,106,161,132,37,111,105,115,58,9,11,1.0,1.2
2023-03-06T20:00:00,1056A,115.5086,38.8639,保定市,监测站,细颗粒物(PM2.5),189,210,225,142,195,156,48,125,118,100,56,8,9,1.0,0.8
2023-03-06T20:00:00,1057A,114.8883,40.8336,张家口市,人民公园,,,66,67,27,27,98,,93,93,29,21,11,9,,0.5
2023-03-06T20:00:00,1059A,114.8687,40.8042,张家口市,五金库,颗粒物(PM10),67,83,64,41,32,90,22,80,72,71,34,10,9,0.8,0.5
2023-03-06T20:00:00,1060A,114.8902,40.762,张家口市,世纪豪园,颗粒物(PM10),56,62,68,25,33,99,69,88,87,31,26,10,9,0.9,0.8
2023-03-06T20:00:00,1061A,114.8916,40.8661,张家口市,北泵房,细颗粒物(PM2.5),72,90,69,52,33,107,41,94,84,45,21,23,13,0.8,0.3
2023-03-06T20:00:00,1062A,117.9531,40.9081,承德市,铁路,颗粒物(PM10),61,71,112,23,64,94,17,86,72,65,50,11,12,0.8,1
2023-03-06T20:00:00,1063A,117.9392,40.9763,承德市,中国银行,颗粒物(PM10),56,62,117,20,74,90,24,82,70,47,48,7,8,0.6,0.9
2023-03-06T20:00:00,1064A,117.9503,40.928,承德市,开发区,颗粒物(PM10),74,98,118,22,73,99,10,91,76,74,59,10,11,0.6,1
2023-03-06T20:00:00,1065A,117.8051,40.9655,承德市,文化中心,颗粒物(PM10),62,73,142,32,87,94,15,84,72,62,48,12,11,0.8,1.1
2023-03-06T20:00:00,1066A,117.9268,41.0026,承德市,离宫,,23,23,98,15,62,104,63,92,82,7,27,9,12,0.2,0.6
2023-03-06T20:00:00,1067A,116.6708,39.5111,廊坊市,药材公司,细颗粒物(PM2.5),115,152,199,87,131,106,62,98,92,68,57,4,4,1.0,1.3
2023-03-06T20:00:00,1068A,116.7214,39.5589,廊坊市,开发区,颗粒物(PM10),90,130,181,66,123,115,42,107,92,126,78,10,11,1.1,1.2
2023-03-06T20:00:00,1070A,116.7244,39.5269,廊坊市,北华航天学院,细颗粒物(PM2.5),112,154,196,84,140,108,55,102,89,101,73,6,6,1.0,1.2
2023-03-06T20:00:00,1071A,116.8842,38.2991,沧州市,沧县城建局,细颗粒物(PM2.5),188,193,176,141,108,167,121,136,136,61,49,11,12,1.2,1
2023-03-06T20:00:00,1072A,116.8584,38.3254,沧州市,电视转播站,细颗粒物(PM2.5),214,228,165,164,102,172,79,145,145,96,50,12,14,1.6,0.9
2023-03-06T20:00:00,1073A,116.8709,38.3228,沧州市,市环保局,细颗粒物(PM2.5),168,194,162,127,102,165,49,130,127,121,58,8,10,1.3,0.9
2023-03-06T20:00:00,1074A,115.6838,37.7541,衡水市,电机北厂,细颗粒物(PM2.5),115,166,187,87,106,176,118,147,147,40,38,5,7,0.6,0.7
2023-03-06T20:00:00,1075A,115.6303,37.7316,衡水市,市监测站,细颗粒物(PM2.5),120,178,195,91,106,167,121,146,146,34,36,7,9,0.7,0.7
2023-03-06T20:00:00,1077A,114.4704,37.0886,邢台市,达活泉,细颗粒物(PM2.5),159,190,204,121,136,178,60,160,146,79,35,11,21,1.4,1.4
2023-03-06T20:00:00,1078A,114.5062,37.0349,邢台市,邢师高专,细颗粒物(PM2.5),140,168,174,107,124,174,76,151,144,75,44,9,12,1.0,1.2
2023-03-06T20:00:00,1079A,114.5237,37.0851,邢台市,路桥公司,细颗粒物(PM2.5),165,184,188,125,129,174,117,158,157,38,37,10,15,0.6,1
2023-03-06T20:00:00,1080A,114.4725,37.0719,邢台市,市环保局,细颗粒物(PM2.5),144,192,212,110,133,180,91,159,154,61,35,10,15,1.2,1.3
2023-03-06T20:00:00,1081A,112.522,37.8873,太原市,尖草坪,颗粒物(PM10),55,60,126,23,51,112,81,89,89,29,68,5,19,0.3,0.9
2023-03-06T20:00:00,1083A,112.434,38.0108,太原市,上兰,,,,,,,,,,,,,,,,
2023-03-06T20:00:00,1084A,112.469,37.7124,太原市,晋源,,41,41,126,15,57,123,94,100,100,20,72,5,17,0.3,0.9
2023-03-06T20:00:00,1085A,112.5583,37.7394,太原市,小店,,45,45,175,16,70,122,59,100,100,53,78,6,18,0.2,1
2023-03-06T20:00:00,1086A,112.5369,37.8692,太原市,桃园,颗粒物(PM10),51,51,124,23,55,117,78,92,92,31,76,4,18,0.4,1
2023-03-06T20:00:00,1087A,112.57,37.8195,太原市,坞城,,45,45,141,18,63,120,83,99,99,32,75,6,16,0.5,0.9
2023-03-06T20:00:00,1088A,112.549,37.9854,太原市,南寨,颗粒物(PM10),66,82,126,24,47,105,79,86,86,37,66,6,14,0.2,0.7
2023-03-06T20:00:00,1090A,111.6507,40.7517,呼和浩特市,呼市一监,颗粒物(PM10),85,119,153,61,98,107,62,91,90,33,52,15,17,0.8,1
2023-03-06T20:00:00,1091A,111.6572,40.8033,呼和浩特市,小召,颗粒物(PM10),87,124,124,49,60,100,66,87,87,50,61,25,20,0.9,0.9
2023-03-06T20:00:00,1094A,111.7516,40.8369,呼和浩特市,如意水处理厂,颗粒物(PM10),98,146,132,66,59,103,19,94,87,101,59,22,18,1.3,0.9
2023-03-06T20:00:00,1095A,111.7276,40.8062,呼和浩特市,二十九中,颗粒物(PM10),90,129,131,44,61,104,78,92,92,37,52,17,16,0.8,0.8
2023-03-06T20:00:00,1096A,111.5512,40.7866,呼和浩特市,工大金川校区,颗粒物(PM10),122,193,132,69,59,105,21,86,82,82,52,20,17,1.1,0.9
2023-03-06T20:00:00,1097A,111.717,40.7612,呼和浩特市,化肥厂生活区,颗粒物(PM10),88,126,161,50,79,97,70,88,88,40,50,16,22,0.8,0.9
2023-03-06T20:00:00,1098A,123.6836,41.9339,沈阳市,森林路,,,,,,,,,,,,,,,,
2023-03-06T20:00:00,1099A,123.505,41.7406,沈阳市,浑南东路,细颗粒物(PM2.5),129,136,94,98,63,112,29,100,89,92,41,20,18,1.2,0.9
2023-03-06T20:00:00,1100A,123.4231,41.6989,沈阳市,新秀街,细颗粒物(PM2.5),105,140,106,79,57,118,48,107,88,66,27,16,26,1.1,1.1
2023-03-06T20:00:00,1102A,123.5903,41.8411,沈阳市,东陵路,细颗粒物(PM2.5),119,120,84,90,63,126,72,110,103,40,34,16,21,1.1,1.1
2023-03-06T20:00:00,1103A,123.4264,41.8467,沈阳市,陵东街,细颗粒物(PM2.5),180,202,104,136,66,132,24,122,112,120,32,13,18,1.4,0.9
2023-03-06T20:00:00,1104A,123.4114,41.7653,沈阳市,文化路,细颗粒物(PM2.5),122,132,111,92,74,134,70,118,111,44,26,16,21,0.9,0.9
2023-03-06T20:00:00,1105A,123.4678,41.7867,沈阳市,小河沿,细颗粒物(PM2.5),100,120,99,75,62,133,71,116,110,48,29,15,16,0.9,0.9
2023-03-06T20:00:00,1106A,123.4017,41.7972,沈阳市,太原街,细颗粒物(PM2.5),188,202,117,141,81,131,30,111,101,100,35,15,17,1.0,0.9
2023-03-06T20:00:00,1108A,123.3783,41.9228,沈阳市,京沈街,细颗粒物(PM2.5),178,145,91,134,84,133,75,117,113,54,29,15,17,1.1,1
2023-03-06T20:00:00,1109A,121.612,38.9741,大连市,甘井子,细颗粒物(PM2.5),99,142,109,74,62,127,46,117,78,69,40,12,8,0.7,0.6
2023-03-06T20:00:00,1110A,121.565,38.9511,大连市,周水子,颗粒物(PM10),107,164,134,72,61,135,58,110,88,61,48,,12,0.7,1
2023-03-06T20:00:00,1111A,121.5637,38.8845,大连市,星海三站,细颗粒物(PM2.5),93,115,90,69,54,124,43,113,87,72,34,8,6,1.0,0.8
2023-03-06T20:00:00,1112A,121.6302,38.9117,大连市,青泥洼桥,细颗粒物(PM2.5),104,141,96,78,57,151,58,130,86,72,35,10,12,1.3,0.9
2023-03-06T20:00:00,1113A,121.6251,38.8638,大连市,傅家庄,颗粒物(PM10),95,139,99,69,53,132,66,122,104,48,21,48,15,0.9,0.7
2023-03-06T20:00:00,1114A,121.5213,38.8661,大连市,七贤岭,细颗粒物(PM2.5),100,119,91,75,61,137,65,125,105,54,34,16,10,0.7,0.5
2023-03-06T20:00:00,1115A,121.2529,38.8061,大连市,旅顺,细颗粒物(PM2.5),99,116,92,74,68,130,73,119,105,41,23,8,9,0.6,0.7
2023-03-06T20:00:00,1116A,121.7485,39.1311,大连市,金州,细颗粒物(PM2.5),80,90,79,59,53,128,102,115,106,19,25,9,12,0.7,0.8
2023-03-06T20:00:00,1117A,121.7811,39.0496,大连市,开发区,细颗粒物(PM2.5),84,84,60,62,45,107,107,100,94,20,29,8,8,0.8,0.5
2023-03-06T20:00:00,1118A,121.9762,39.0631,大连市,双D港,细颗粒物(PM2.5),69,70,41,50,32,110,97,102,101,21,22,6,7,0.8,0.6
2023-03-06T20:00:00,1119A,125.3325,43.9166,长春市,食品厂,细颗粒物(PM2.5),113,133,102,85,83,122,62,120,79,55,34,14,12,0.9,0.8
2023-03-06T20:00:00,1120A,125.2863,43.9027,长春市,客车厂,细颗粒物(PM2.5),133,127,91,101,90,114,58,114,82,59,32,10,14,0.9,0.8
2023-03-06T20:00:00,1121A,125.2841,43.8463,长春市,邮电学院,细颗粒物(PM2.5),149,156,100,114,86,129,32,129,90,100,40,20,16,1.0,0.8
2023-03-06T20:00:00,1122A,125.3716,43.8772,长春市,劳动公园,细颗粒物(PM2.5),123,108,91,93,78,134,49,134,97,78,33,18,16,0.9,0.8
2023-03-06T20:00:00,1123A,125.3297,43.8805,长春市,园林处,细颗粒物(PM2.5),130,118,94,99,80,122,55,119,85,71,36,22,15,0.9,0.8
2023-03-06T20:00:00,1124A,125.4605,43.79,长春市,净月潭,,,,,,,,,,,,,,,,
2023-03-06T20:00:00,1125A,125.7194,43.515,长春市,甩湾子,,,,,,,,,,,,,,,,
2023-03-06T20:00:00,1126A,125.3863,43.8447,长春市,经开区环卫处,细颗粒物(PM2.5),140,140,102,107,80,132,41,132,89,82,34,36,14,1.1,0.8
2023-03-06T20:00:00,1127A,125.245,43.7783,长春市,高新区管委会,细颗粒物(PM2.5),166,134,95,126,94,132,34,132,87,76,27,13,14,0.9,0.7
2023-03-06T20:00:00,1128A,125.1761,43.8325,长春市,岱山公园,细颗粒物(PM2.5),170,146,96,129,84,116,61,116,88,60,32,5,7,1.0,0.9
2023-03-06T20:00:00,1129A,126.5422,45.755,哈尔滨市,岭北,,39,39,115,20,58,142,66,128,88,34,24,13,21,1.1,0.8
2023-03-06T20:00:00,1130A,126.561,45.8167,哈尔滨市,松北商大,,44,44,99,20,49,116,14,108,69,88,37,6,8,0.8,0.7
2023-03-06T20:00:00,1131A,126.979,45.5419,哈尔滨市,阿城会宁,颗粒物(PM10),54,57,110,35,72,123,47,115,78,42,24,10,11,0.7,0.8
2023-03-06T20:00:00,1132A,126.599,45.7222,哈尔滨市,南岗学府路,颗粒物(PM10),51,51,134,26,72,137,49,116,76,47,27,18,16,0.6,0.6
2023-03-06T20:00:00,1133A,126.689,45.7733,哈尔滨市,太平宏伟公园,,,35,118,56,57,144,,128,94,51,31,4,12,0.7,0.7
2023-03-06T20:00:00,1134A,126.635,45.7667,哈尔滨市,道外承德广场,,32,25,118,22,56,119,53,115,78,53,36,7,12,0.5,0.7
2023-03-06T20:00:00,1135A,126.685,45.7319,哈尔滨市,香坊红旗大街,,48,48,111,30,65,133,53,124,81,53,34,20,22,0.9,0.8
2023-03-06T20:00:00,1136A,126.6411,45.7258,哈尔滨市,动力和平路,,35,35,115,24,62,135,60,122,79,46,31,13,13,0.8,0.7
2023-03-06T20:00:00,1137A,126.593,45.7478,哈尔滨市,道里建国路,颗粒物(PM10),51,51,107,31,62,125,29,114,73,73,35,13,21,0.8,0.6
2023-03-06T20:00:00,1138A,126.615,45.61,哈尔滨市,平房东轻厂,,43,32,111,30,61,136,46,118,76,53,28,14,13,0.9,0.8
2023-03-06T20:00:00,1139A,126.595,45.9855,哈尔滨市,呼兰师专,细颗粒物(PM2.5),72,57,104,52,56,132,48,104,75,41,31,22,14,0.8,0.5
2023-03-06T20:00:00,1140A,126.6206,45.6842,哈尔滨市,省农科院,细颗粒物(PM2.5),68,79,125,49,61,134,22,120,78,75,31,30,16,1.0,0.7
2023-03-06T20:00:00,1141A,121.4,31.238,上海市,普陀,颗粒物(PM10),82,113,75,50,39,174,132,156,156,62,48,8,8,0.9,0.7
2023-03-06T20:00:00,1142A,121.478,31.2036,上海市,十五厂,颗粒物(PM10),86,121,69,56,40,155,98,133,133,79,57,8,8,0.8,0.5
2023-03-06T20:00:00,1143A,121.467,31.3008,上海市,虹口,颗粒物(PM10),80,110,72,56,41,161,129,146,146,58,45,9,8,0.9,0.8
2023-03-06T20:00:00,1144A,121.412,31.1654,上海市,徐汇上师大,"颗粒物(PM10),细颗粒物(PM2.5)",75,100,60,55,38,171,132,154,154,57,52,12,12,0.4,0.5
2023-03-06T20:00:00,1145A,121.536,31.2659,上海市,杨浦四漂,颗粒物(PM10),87,124,80,54,42,159,109,140,140,76,59,9,8,0.7,0.7
2023-03-06T20:00:00,1147A,121.425,31.2261,上海市,静安监测站,颗粒物(PM10),84,118,76,52,38,166,134,148,148,65,53,11,11,0.8,0.6
2023-03-06T20:00:00,1148A,121.703,31.1907,上海市,浦东川沙,颗粒物(PM10),113,176,71,56,43,146,36,132,116,94,43,5,5,0.5,0.5
2023-03-06T20:00:00,1149A,121.533,31.2284,上海市,浦东新区监测站,颗粒物(PM10),82,114,80,59,42,131,99,116,116,52,44,7,7,0.8,0.7
2023-03-06T20:00:00,1150A,121.577,31.2071,上海市,浦东张江,颗粒物(PM10),83,115,60,48,36,166,91,145,143,81,47,6,5,0.8,0.7
2023-03-06T20:00:00,1151A,118.8086,32.1065,南京市,迈皋桥,颗粒物(PM10),70,90,124,36,60,164,76,141,133,58,42,4,10,0.6,0.7
2023-03-06T20:00:00,1152A,118.7538,32.0551,南京市,草场门,颗粒物(PM10),66,82,120,34,58,147,76,130,125,81,71,10,13,0.7,0.8
2023-03-06T20:00:00,1153A,118.7794,32.0745,南京市,山西路,颗粒物(PM10),65,80,120,39,61,160,101,144,140,40,39,5,9,0.6,0.7
2023-03-06T20:00:00,1154A,118.7752,32.0023,南京市,中华门,颗粒物(PM10),62,73,114,29,61,144,99,128,124,48,54,10,12,0.9,1
2023-03-06T20:00:00,1155A,118.8109,32.0309,南京市,瑞金路,,,,105,48,63,145,24,121,112,113,61,8,11,1.1,0.8
2023-03-06T20:00:00,1156A,118.7997,32.0754,南京市,玄武湖,颗粒物(PM10),62,73,118,36,69,149,84,131,127,50,48,3,8,0.3,0.6
2023-03-06T20:00:00,1157A,118.6414,32.0931,南京市,浦口,颗粒物(PM10),59,67,114,27,54,153,90,138,136,44,55,4,9,0.4,0.7
2023-03-06T20:00:00,1158A,118.7356,31.9996,南京市,奥体中心,颗粒物(PM10),79,108,128,31,63,144,72,127,120,88,65,7,10,0.6,0.7
2023-03-06T20:00:00,1159A,118.9125,32.1028,南京市,仙林大学城,颗粒物(PM10),68,85,117,39,60,151,110,138,137,41,42,7,10,0.6,0.8
2023-03-06T20:00:00,1160A,120.561,31.2472,苏州市,上方山,细颗粒物(PM2.5),67,68,76,48,53,151,73,135,130,52,51,7,8,0.7,0.6
2023-03-06T20:00:00,1162A,120.591,31.3019,苏州市,彩香,"颗粒物(PM10),细颗粒物(PM2.5)",77,104,80,56,44,169,80,146,138,82,50,7,8,0.7,0.5
2023-03-06T20:00:00,1163A,120.596,31.3264,苏州市,轧钢厂,颗粒物(PM10),79,107,86,48,43,165,38,147,131,110,51,7,9,1.0,0.6
2023-03-06T20:00:00,1164A,120.613,31.2703,苏州市,吴中区,颗粒物(PM10),80,110,80,54,44,160,76,139,133,101,58,9,9,0.7,0.6
2023-03-06T20:00:00,1165A,120.543,31.2994,苏州市,苏州新区,细颗粒物(PM2.5),68,83,80,49,48,153,64,138,126,79,54,6,7,0.8,0.7
2023-03-06T20:00:00,1166A,120.669,31.3097,苏州市,苏州工业园区,颗粒物(PM10),74,98,77,50,41,157,106,140,139,66,47,10,10,0.7,0.5
2023-03-06T20:00:00,1167A,120.641,31.3708,苏州市,相城区,颗粒物(PM10),78,105,85,45,46,161,27,136,122,135,49,7,8,0.9,0.7
2023-03-06T20:00:00,1168A,120.9098,31.9663,南通市,狼山街道,细颗粒物(PM2.5),83,80,76,61,48,164,40,141,133,100,51,6,7,0.5,0.5
2023-03-06T20:00:00,1169A,120.86,32.0005,南通市,虹桥,细颗粒物(PM2.5),92,94,90,68,51,168,120,146,146,67,65,9,10,0.6,0.6
2023-03-06T20:00:00,1170A,120.87,32.02,南通市,城中,细颗粒物(PM2.5),87,95,86,64,48,154,112,136,136,62,61,9,10,0.5,0.3
2023-03-06T20:00:00,1171A,120.94,31.93,南通市,星湖花园,细颗粒物(PM2.5),79,102,81,58,45,156,15,134,121,137,61,8,8,0.7,0.6
2023-03-06T20:00:00,1172A,120.81,32.0417,南通市,紫琅学院,细颗粒物(PM2.5),83,98,95,61,46,145,31,113,102,156,81,10,10,0.4,0.5
2023-03-06T20:00:00,1173A,119.176,34.5885,连云港市,市环境监测站,颗粒物(PM10),71,92,112,51,67,170,133,152,152,21,29,12,12,0.3,0.3
2023-03-06T20:00:00,1177A,117.179,34.2761,徐州市,黄河新村,颗粒物(PM10),78,105,133,52,71,158,104,145,142,44,34,18,14,1.0,0.9
2023-03-06T20:00:00,1178A,117.1918,34.2384,徐州市,淮塔,颗粒物(PM10),78,106,140,44,72,169,101,157,152,41,40,11,12,0.6,0.5
2023-03-06T20:00:00,1180A,117.256,34.2153,徐州市,新城区,颗粒物(PM10),83,115,133,44,75,161,79,144,139,59,30,12,13,0.8,0.8
2023-03-06T20:00:00,1181A,117.244,34.2911,徐州市,桃园路,颗粒物(PM10),78,105,140,39,68,148,101,137,135,37,27,10,12,0.8,0.8
2023-03-06T20:00:00,1182A,117.2933,34.2778,徐州市,农科院,颗粒物(PM10),67,83,134,36,68,167,122,150,150,21,27,11,11,0.9,0.9
2023-03-06T20:00:00,1186A,119.389,32.3761,扬州市,邗江监测站,,,90,126,33,74,174,78,163,152,67,48,4,10,,0.7
2023-03-06T20:00:00,1188A,120.269,31.4867,无锡市,雪浪,颗粒物(PM10),58,66,77,29,39,168,99,151,144,29,42,7,9,0.9,0.9
2023-03-06T20:00:00,1189A,120.275,31.6219,无锡市,黄巷,颗粒物(PM10),69,88,91,34,39,164,42,138,128,112,73,7,10,0.9,0.7
2023-03-06T20:00:00,1190A,120.294,31.56,无锡市,曹张,颗粒物(PM10),61,72,87,29,40,158,71,139,128,74,61,6,8,1.0,1
2023-03-06T20:00:00,1191A,120.242,31.5031,无锡市,漆塘,颗粒物(PM10),56,61,74,29,38,157,88,137,133,27,37,8,10,0.7,0.7
2023-03-06T20:00:00,1192A,120.3489,31.5863,无锡市,东亭,颗粒物(PM10),58,66,83,29,39,157,66,135,128,72,67,8,10,0.7,0.7
2023-03-06T20:00:00,1193A,120.354,31.5475,无锡市,旺庄,颗粒物(PM10),63,75,86,34,42,152,39,132,122,102,55,7,10,0.6,0.7
2023-03-06T20:00:00,1194A,120.245,31.5631,无锡市,荣巷,颗粒物(PM10),52,53,78,27,39,161,73,138,133,33,42,9,12,0.7,0.7
2023-03-06T20:00:00,1195A,120.299,31.6817,无锡市,堰桥,颗粒物(PM10),67,83,87,36,39,164,80,142,138,69,56,7,9,0.9,0.9
2023-03-06T20:00:00,1196A,119.9633,31.762,常州市,市监测站,颗粒物(PM10),55,60,88,38,54,177,109,152,150,42,42,6,8,0.3,0.4
2023-03-06T20:00:00,1200A,119.9468,31.7069,常州市,武进监测站,细颗粒物(PM2.5),55,54,86,39,50,172,125,150,150,23,33,8,10,0.6,0.7
2023-03-06T20:00:00,1201A,119.9255,31.9087,常州市,安家,细颗粒物(PM2.5),65,66,99,47,66,164,90,144,140,58,57,8,10,0.6,0.7
2023-03-06T20:00:00,1203A,119.6707,32.1875,镇江市,新区办事处,颗粒物(PM10),73,96,126,45,70,182,131,159,159,39,67,3,5,0.9,1
2023-03-06T20:00:00,1204A,119.4974,32.1968,镇江市,职教中心,颗粒物(PM10),68,85,106,42,61,170,118,150,149,34,38,7,12,0.5,0.8
2023-03-06T20:00:00,1205A,119.4303,32.1328,镇江市,丹徒区监测站,颗粒物(PM10),75,99,111,50,65,164,87,144,140,52,37,10,9,0.6,0.6
2023-03-06T20:00:00,1206A,119.905,32.4878,泰州市,公园路,细颗粒物(PM2.5),79,92,111,58,62,184,121,162,161,35,60,10,12,0.8,1.1
2023-03-06T20:00:00,1207A,119.9189,32.4625,泰州市,莲花,细颗粒物(PM2.5),83,100,108,61,61,181,116,161,159,44,65,11,13,0.8,1.1
2023-03-06T20:00:00,1209A,119.888,32.4639,泰州市,留学生创业园,颗粒物(PM10),85,120,127,57,54,172,102,150,147,57,66,10,12,0.7,0.8
2023-03-06T20:00:00,1210A,119.036,33.5981,淮安市,钵池山,颗粒物(PM10),65,80,130,40,88,171,123,154,153,35,45,11,12,0.7,0.9
2023-03-06T20:00:00,1211A,119.007,33.575,淮安市,北京南路,细颗粒物(PM2.5),73,92,129,53,92,163,93,141,137,56,54,12,15,0.7,1
2023-03-06T20:00:00,1212A,118.989,33.6067,淮安市,市监测站,颗粒物(PM10),70,90,147,46,94,174,121,161,158,40,50,17,15,0.7,1.2
2023-03-06T20:00:00,1213A,119.135,33.5039,淮安市,楚州区监测站,颗粒物(PM10),86,122,134,60,92,163,71,141,132,72,57,10,13,0.8,1
2023-03-06T20:00:00,1214A,119.0186,33.6297,淮安市,淮阴区监测站,颗粒物(PM10),70,90,157,35,91,163,93,146,138,54,47,10,15,0.7,1
2023-03-06T20:00:00,1215A,120.118,33.4022,盐城市,盐城电厂,颗粒物(PM10),82,114,93,54,42,191,140,165,165,49,38,18,14,0.7,0.8
2023-03-06T20:00:00,1216A,120.156,33.3942,盐城市,市监测站,颗粒物(PM10),80,109,87,56,35,180,146,163,163,34,35,23,15,0.8,0.8
2023-03-06T20:00:00,1218A,120.2144,33.38,盐城市,开发区管委会,细颗粒物(PM2.5),90,121,105,67,58,185,137,163,163,31,31,11,8,0.8,0.7
2023-03-06T20:00:00,1220A,118.293,33.9528,宿迁市,宿迁学院,颗粒物(PM10),51,51,168,33,127,160,112,160,135,37,55,7,20,0.6,1
2023-03-06T20:00:00,1221A,118.2442,33.9592,宿迁市,宿迁中学,颗粒物(PM10),68,85,149,41,94,157,116,143,142,24,29,6,10,0.5,0.7
2023-03-06T20:00:00,1223A,120.2072,30.2111,杭州市,滨江,颗粒物(PM10),69,87,85,36,41,161,95,140,138,52,61,8,9,0.6,0.7
2023-03-06T20:00:00,1224A,120.0633,30.2747,杭州市,西溪,,47,47,86,31,52,169,76,142,136,33,42,6,7,0.7,0.8
2023-03-06T20:00:00,1226A,120.3461,30.3153,杭州市,下沙,,,129,84,58,43,162,84,138,120,87,65,12,8,,0.8
2023-03-06T20:00:00,1227A,120.1269,30.2456,杭州市,卧龙桥,颗粒物(PM10),51,51,78,28,51,167,52,131,122,55,48,7,7,0.5,0.6
2023-03-06T20:00:00,1228A,120.1903,30.2692,杭州市,浙江农大,颗粒物(PM10),61,72,82,42,47,183,56,152,144,80,57,7,8,1.1,0.7
2023-03-06T20:00:00,1230A,120.1197,30.3119,杭州市,和睦小学,颗粒物(PM10),65,79,103,45,61,163,59,133,130,100,77,8,7,0.6,0.6
2023-03-06T20:00:00,1231A,120.3019,30.4183,杭州市,临平镇,颗粒物(PM10),82,113,90,50,41,160,105,136,135,56,50,10,9,0.7,0.7
2023-03-06T20:00:00,1232A,120.2697,30.1819,杭州市,城厢镇,颗粒物(PM10),67,83,100,39,49,156,61,138,130,109,81,7,7,0.7,0.8
2023-03-06T20:00:00,1233A,120.0883,30.1808,杭州市,云栖,,42,42,83,17,42,163,76,132,128,36,41,5,6,0.5,0.7
2023-03-06T20:00:00,1234A,121.8358,29.911,宁波市,区环保大楼,,48,48,41,23,23,140,45,95,94,77,52,6,8,0.4,0.6
2023-03-06T20:00:00,1235A,121.56,29.82,宁波市,万里学院,颗粒物(PM10),55,59,58,30,30,160,90,144,138,44,35,7,8,0.5,0.5
2023-03-06T20:00:00,1236A,121.713,29.9572,宁波市,龙赛医院,颗粒物(PM10),59,67,64,27,30,136,73,116,114,53,53,8,9,0.6,0.4
2023-03-06T20:00:00,1239A,121.633,29.7733,宁波市,钱湖水厂,,40,40,34,22,22,142,94,123,118,20,13,6,6,0.5,0.5
2023-03-06T20:00:00,1240A,121.5856,29.8635,宁波市,太古小学,颗粒物(PM10),57,63,54,32,26,151,98,136,134,35,26,9,9,0.6,0.6
2023-03-06T20:00:00,1241A,121.524,29.8674,宁波市,市环境监测中心,颗粒物(PM10),58,65,56,28,20,148,85,130,126,50,39,6,8,0.5,0.3
2023-03-06T20:00:00,1242A,120.634,28.0089,温州市,瓯海,颗粒物(PM10),57,63,96,25,51,164,108,144,142,36,54,8,8,0.4,0.5
2023-03-06T20:00:00,1243A,120.6748,27.9939,温州市,南浦,颗粒物(PM10),55,60,89,27,53,157,98,140,135,40,47,8,7,0.4,0.6
2023-03-06T20:00:00,1244A,120.76,27.9747,温州市,龙湾,颗粒物(PM10),57,63,95,26,47,138,68,117,113,72,72,10,9,0.5,0.6
2023-03-06T20:00:00,1245A,120.6709,28.0167,温州市,市站,颗粒物(PM10),69,88,98,37,53,154,67,132,120,66,57,7,8,0.5,0.5
2023-03-06T20:00:00,1247A,120.6053,29.9928,绍兴市,城东开发委,颗粒物(PM10),79,108,88,53,45,161,99,153,141,61,51,8,6,0.7,0.8
2023-03-06T20:00:00,1250A,120.0751,30.8669,湖州市,城西水厂,,,,75,,52,140,58,122,118,,53,8,9,0.6,0.6
2023-03-06T20:00:00,1252A,120.7436,30.778,嘉兴市,清河小学,颗粒物(PM10),78,106,84,51,42,139,101,131,130,76,62,19,10,0.8,0.7
2023-03-06T20:00:00,1253A,120.726,30.7478,嘉兴市,嘉兴学院,细颗粒物(PM2.5),75,94,80,55,45,155,113,147,145,52,42,12,9,0.7,0.6
2023-03-06T20:00:00,1255A,121.273,28.6459,台州市,黄岩环保大楼,颗粒物(PM10),58,66,63,24,30,158,135,146,146,18,30,12,9,0.3,0.4
2023-03-06T20:00:00,1256A,121.419,28.6542,台州市,台州环保大楼,颗粒物(PM10),65,80,68,34,32,118,78,102,100,32,36,5,5,0.4,0.4
2023-03-06T20:00:00,1257A,121.377,28.5773,台州市,路桥田洋王,颗粒物(PM10),77,104,71,48,37,164,75,145,136,51,39,19,14,0.8,0.5
2023-03-06T20:00:00,1258A,122.122,30.0203,舟山市,定海檀枫,,39,39,40,16,18,105,61,91,88,49,35,5,6,0.3,0.4
2023-03-06T20:00:00,1259A,122.3094,29.9558,舟山市,普陀东港,,37,37,35,19,18,87,57,71,68,35,23,5,6,0.3,0.3
2023-03-06T20:00:00,1260A,122.19,29.9944,舟山市,临城新区,颗粒物(PM10),54,58,37,31,20,122,41,98,89,57,35,5,6,0.6,0.5
2023-03-06T20:00:00,1262A,119.647,29.077,金华市,十五中,颗粒物(PM10),93,135,88,54,49,153,42,137,127,100,53,10,13,1.2,0.7
2023-03-06T20:00:00,1263A,119.686,29.1029,金华市,监测站,颗粒物(PM10),65,80,87,34,45,163,60,147,136,73,65,7,8,0.6,1
2023-03-06T20:00:00,1264A,118.8692,28.9398,衢州市,环保大楼,颗粒物(PM10),71,92,79,51,44,125,70,113,111,60,51,9,10,0.9,0.8
2023-03-06T20:00:00,1265A,118.8709,28.9666,衢州市,实验学校,颗粒物(PM10),63,76,70,39,36,140,86,126,124,53,60,10,8,0.5,0.5
2023-03-06T20:00:00,1266A,118.8621,28.9808,衢州市,衢州学院,颗粒物(PM10),62,73,76,34,39,124,34,116,108,91,66,7,8,0.5,0.5
2023-03-06T20:00:00,1267A,119.914,28.4514,丽水市,监测站大楼,颗粒物(PM10),68,85,67,41,36,142,117,129,126,27,32,9,10,0.5,0.4
2023-03-06T20:00:00,1268A,119.93,28.4586,丽水市,莲都小学,颗粒物(PM10),64,78,67,38,31,151,149,139,139,18,28,9,8,0.3,0.3
2023-03-06T20:00:00,1269A,119.879,28.4231,丽水市,余庄前,颗粒物(PM10),58,66,63,31,36,149,124,131,130,17,28,10,9,0.3,0.4
2023-03-06T20:00:00,1270A,117.1959,31.7848,合肥市,明珠广场,颗粒物(PM10),60,70,84,29,40,139,109,125,125,39,46,13,11,0.5,0.6
2023-03-06T20:00:00,1271A,117.3072,31.8764,合肥市,三里街,颗粒物(PM10),63,75,101,27,37,135,77,118,115,62,61,6,7,0.8,0.9
2023-03-06T20:00:00,1272A,117.2588,31.8707,合肥市,琥珀山庄,颗粒物(PM10),59,68,89,29,42,137,112,126,126,42,59,5,5,0.4,0.6
2023-03-06T20:00:00,1273A,117.1604,31.9052,合肥市,董铺水库,颗粒物(PM10),60,70,90,24,33,129,115,120,120,17,36,6,5,0.3,0.4
2023-03-06T20:00:00,1274A,117.25,31.8571,合肥市,长江中路,颗粒物(PM10),68,85,89,36,42,134,100,119,119,40,48,10,10,0.9,0.9
2023-03-06T20:00:00,1275A,117.266,31.9436,合肥市,庐阳区,颗粒物(PM10),68,85,93,24,37,131,112,118,118,25,50,9,9,0.5,0.6
2023-03-06T20:00:00,1276A,117.336,31.8586,合肥市,瑶海区,颗粒物(PM10),70,90,116,31,40,141,67,124,118,64,48,7,8,0.5,0.6
2023-03-06T20:00:00,1277A,117.3027,31.7964,合肥市,包河区,颗粒物(PM10),59,68,87,27,40,149,109,134,133,26,39,8,8,0.8,0.9
2023-03-06T20:00:00,1278A,117.2776,31.7385,合肥市,滨湖新区,颗粒物(PM10),54,58,77,31,33,146,125,135,135,15,19,9,8,0.5,0.5
2023-03-06T20:00:00,1279A,117.1318,31.8403,合肥市,高新区,颗粒物(PM10),57,63,77,29,35,135,111,126,126,30,33,9,8,0.6,0.7
2023-03-06T20:00:00,1280A,119.3903,26.0543,福州市,鼓山,,,,,,,,,,,,,,,,
2023-03-06T20:00:00,1282A,119.2681,26.0504,福州市,师大,颗粒物(PM10),64,78,67,21,32,150,106,138,136,26,29,5,7,0.5,0.5
2023-03-06T20:00:00,1283A,119.2984,26.1028,福州市,五四北路,颗粒物(PM10),61,71,63,26,32,149,104,137,135,32,30,3,4,0.5,0.5
2023-03-06T20:00:00,1284A,119.2648,26.0768,福州市,杨桥西路,颗粒物(PM10),56,62,66,22,29,147,114,137,136,17,25,4,6,0.5,0.5
2023-03-06T20:00:00,1285A,119.317,26.0746,福州市,紫阳,颗粒物(PM10),58,65,75,21,36,142,107,131,130,22,32,3,5,0.5,0.5
2023-03-06T20:00:00,1286A,118.1608,24.8169,厦门市,溪东,,,,,,,,,,,,,,,,
2023-03-06T20:00:00,1287A,118.1514,24.4767,厦门市,洪文,颗粒物(PM10),52,53,64,21,25,149,101,129,128,37,40,5,5,0.4,0.4
2023-03-06T20:00:00,1288A,118.0661,24.4444,厦门市,鼓浪屿,,43,43,71,19,30,173,132,140,140,24,48,10,9,0.3,0.3
2023-03-06T20:00:00,1290A,115.8931,28.6843,南昌市,省外办,颗粒物(PM10),86,122,113,61,54,155,18,131,119,103,70,10,11,0.9,1
2023-03-06T20:00:00,1291A,115.8886,28.7003,南昌市,省林业公司,"颗粒物(PM10),细颗粒物(PM2.5)",67,83,100,48,54,158,85,137,137,51,86,8,9,0.6,0.7
2023-03-06T20:00:00,1292A,115.8126,28.7442,南昌市,林科所,颗粒物(PM10),57,63,75,34,40,158,86,144,137,35,76,9,12,0.4,0.5
2023-03-06T20:00:00,1294A,115.8518,28.687,南昌市,建工学校,颗粒物(PM10),56,62,106,30,50,155,88,133,132,51,66,9,8,0.9,1
2023-03-06T20:00:00,1295A,115.8921,28.6424,南昌市,象湖,细颗粒物(PM2.5),83,86,115,61,56,147,14,131,120,117,72,9,9,1.4,1.3
2023-03-06T20:00:00,1296A,115.7423,28.7996,南昌市,武术学校,,49,35,46,34,35,158,99,142,134,14,12,8,7,0.2,0.3
2023-03-06T20:00:00,1298A,115.9314,28.6842,南昌市,省站,细颗粒物(PM2.5),78,86,121,57,59,170,71,149,140,57,60,10,11,1.0,1.1
2023-03-06T20:00:00,1299A,116.9862,36.6114,济南市,科干所,细颗粒物(PM2.5),113,163,128,85,55,173,104,163,158,58,25,15,13,1.3,0.8
2023-03-06T20:00:00,1300A,116.9376,36.665,济南市,农科所,细颗粒物(PM2.5),160,225,145,122,62,172,113,158,150,64,25,11,10,1.4,0.7
2023-03-06T20:00:00,1301A,117.1265,36.6734,济南市,开发区,细颗粒物(PM2.5),149,208,116,114,56,165,121,151,147,53,16,18,15,1.1,0.6
2023-03-06T20:00:00,1303A,117.0624,36.6868,济南市,省种子仓库,细颗粒物(PM2.5),175,217,127,132,64,177,132,162,159,60,19,17,14,0.9,0.5
2023-03-06T20:00:00,1304A,116.9489,36.6447,济南市,机床二厂,细颗粒物(PM2.5),168,222,139,127,65,174,125,159,157,59,20,15,13,1.2,0.8
2023-03-06T20:00:00,1305A,117.0495,36.663,济南市,市监测站,细颗粒物(PM2.5),170,208,123,129,69,177,139,165,160,58,23,15,13,1.0,0.7
2023-03-06T20:00:00,1306A,116.7675,36.5484,济南市,长清党校,细颗粒物(PM2.5),110,151,142,83,65,187,125,168,166,69,35,16,16,0.8,0.6
2023-03-06T20:00:00,1307A,120.6659,36.2403,青岛市,仰口,细颗粒物(PM2.5),113,129,109,85,61,156,152,146,146,29,25,9,5,0.8,0.5
2023-03-06T20:00:00,1310A,120.4134,36.0658,青岛市,市南区东部子站,颗粒物(PM10),87,124,58,63,27,123,110,117,117,47,28,9,9,0.9,0.6
2023-03-06T20:00:00,1311A,120.3664,36.1032,青岛市,四方区子站,细颗粒物(PM2.5),94,132,77,70,36,103,79,97,95,74,37,10,8,1.0,0.7
2023-03-06T20:00:00,1312A,120.2994,36.054,青岛市,市南区西部子站,细颗粒物(PM2.5),77,95,51,56,23,123,123,119,119,36,26,9,8,0.7,0.5
2023-03-06T20:00:00,1313A,120.4581,36.0858,青岛市,崂山区子站,细颗粒物(PM2.5),98,119,63,73,28,126,124,124,124,20,17,8,8,0.5,0.3
2023-03-06T20:00:00,1314A,120.1983,35.9608,青岛市,黄岛区子站,细颗粒物(PM2.5),92,114,72,68,37,115,115,106,106,36,28,6,6,0.6,0.5
2023-03-06T20:00:00,1315A,120.3999,36.3083,青岛市,城阳区子站,颗粒物(PM10),109,168,115,78,48,132,89,120,116,92,42,10,8,1.0,0.7
2023-03-06T20:00:00,1316A,113.69031,34.76122,郑州市,烟厂,颗粒物(PM10),74,97,129,53,79,160,103,137,137,39,47,10,11,0.8,0.8
2023-03-06T20:00:00,1317A,113.65724,34.77134,郑州市,郑纺机,颗粒物(PM10),72,94,127,51,79,154,94,128,128,39,56,10,10,0.8,0.9
2023-03-06T20:00:00,1318A,113.67526,34.80246,郑州市,银行学校,颗粒物(PM10),75,99,125,53,84,162,119,143,143,31,44,11,13,0.6,0.7
2023-03-06T20:00:00,1319A,113.56746,34.81334,郑州市,供水公司,颗粒物(PM10),75,99,121,48,75,154,89,132,130,42,36,7,14,0.5,0.6
2023-03-06T20:00:00,1320A,113.7329,34.7178,郑州市,经开区管委,颗粒物(PM10),77,104,116,55,71,159,114,139,139,30,53,13,12,0.5,0.6
2023-03-06T20:00:00,1321A,113.73961,34.77172,郑州市,四十七中,细颗粒物(PM2.5),78,92,118,57,77,143,105,125,125,28,41,8,9,0.6,0.7
2023-03-06T20:00:00,1322A,113.60532,34.74838,郑州市,市监测站,细颗粒物(PM2.5),79,100,137,58,81,161,94,131,131,46,54,11,13,0.7,0.8
2023-03-06T20:00:00,1323A,113.64164,34.7525,郑州市,河医大,细颗粒物(PM2.5),77,102,124,56,80,153,100,126,126,33,43,9,10,0.7,0.8
2023-03-06T20:00:00,1324A,113.51488,34.91089,郑州市,岗李水库,,,,,,,,,,,,,,,,
2023-03-06T20:00:00,1325A,114.3677,30.5584,武汉市,东湖梨园,颗粒物(PM10),55,59,74,24,42,175,127,153,153,35,52,9,10,0.5,0.8
2023-03-06T20:00:00,1326A,114.2529,30.558,武汉市,汉阳月湖,二氧化氮,68,70,96,34,46,138,8,114,98,136,86,8,11,1.1,1.1
2023-03-06T20:00:00,1327A,114.282,30.6189,武汉市,汉口花桥,颗粒物(PM10),61,71,90,42,47,154,21,122,110,107,76,8,13,1.2,1.1
2023-03-06T20:00:00,1328A,114.3025,30.5332,武汉市,武昌紫阳,细颗粒物(PM2.5),67,73,86,48,49,149,22,124,110,127,84,12,17,1.2,1.3
2023-03-06T20:00:00,1329A,114.3646,30.6217,武汉市,青山钢花,细颗粒物(PM2.5),104,124,109,78,64,167,24,131,115,112,72,13,15,1.4,1.2
2023-03-06T20:00:00,1330A,114.1566,30.4825,武汉市,沌口新区,细颗粒物(PM2.5),99,72,85,74,49,140,47,120,111,140,83,21,13,0.9,0.8
2023-03-06T20:00:00,1331A,114.3014,30.5944,武汉市,汉口江滩,颗粒物(PM10),55,59,94,32,44,153,42,109,102,107,109,9,14,0.8,1
2023-03-06T20:00:00,1333A,114.135,30.6319,武汉市,吴家山,颗粒物(PM10),66,81,98,37,50,139,12,122,106,128,88,10,10,2.0,1.1
2023-03-06T20:00:00,1334A,113.8454,30.2917,武汉市,沉湖七壕,,47,47,63,32,30,144,121,135,135,19,59,12,12,0.7,0.7
2023-03-06T20:00:00,1335A,113.0833,28.2325,长沙市,经开区环保局,细颗粒物(PM2.5),55,57,70,39,40,158,111,138,137,26,35,4,6,0.5,0.5
2023-03-06T20:00:00,1336A,112.8872,28.2189,长沙市,高开区环保局,颗粒物(PM10),68,85,83,43,38,159,112,141,141,29,40,10,11,0.7,0.8
2023-03-06T20:00:00,1337A,113.0792,28.2053,长沙市,马坡岭,颗粒物(PM10),53,55,75,29,42,166,64,147,139,70,48,8,10,0.6,0.5
2023-03-06T20:00:00,1338A,112.9394,28.19,长沙市,湖南师范大学,颗粒物(PM10),62,73,69,42,38,138,84,118,118,24,33,5,7,0.4,0.4
2023-03-06T20:00:00,1339A,113.0178,28.1322,长沙市,雨花区环保局,颗粒物(PM10),54,58,64,36,37,153,109,140,139,34,29,6,9,0.5,0.6
2023-03-06T20:00:00,1340A,112.9792,28.2597,长沙市,伍家岭,细颗粒物(PM2.5),84,106,98,62,47,154,21,130,114,107,58,7,8,1.6,0.9
2023-03-06T20:00:00,1341A,113.0014,28.1944,长沙市,火车新站,细颗粒物(PM2.5),100,98,71,75,46,137,51,124,118,79,47,8,10,1.0,0.7
2023-03-06T20:00:00,1342A,112.9844,28.1178,长沙市,天心区环保局,细颗粒物(PM2.5),79,65,65,58,34,138,74,128,122,48,37,5,7,0.9,0.5
2023-03-06T20:00:00,1343A,112.8908,28.1308,长沙市,湖南中医药大学,细颗粒物(PM2.5),72,82,94,52,39,154,6,129,118,105,55,6,9,1.2,0.7
2023-03-06T20:00:00,1344A,112.9581,28.3611,长沙市,沙坪,,,52,51,,31,148,93,126,125,26,26,8,8,0.8,0.8
2023-03-06T20:00:00,1345A,113.2347,23.1423,广州市,广雅中学,颗粒物(PM10),67,84,76,36,34,209,155,189,189,44,42,7,7,0.6,0.6
2023-03-06T20:00:00,1346A,113.2612,23.105,广州市,市五中,颗粒物(PM10),65,79,70,39,37,216,154,196,196,39,36,9,10,0.7,0.6
2023-03-06T20:00:00,1348A,113.3478,23.0916,广州市,广东商学院,颗粒物(PM10),60,69,78,28,36,227,135,205,202,42,58,6,8,0.5,0.6
2023-03-06T20:00:00,1349A,113.4332,23.1047,广州市,市八十六中,颗粒物(PM10),61,72,91,29,38,261,108,214,211,55,62,6,10,0.5,0.6
2023-03-06T20:00:00,1350A,113.3505,22.9483,广州市,番禺中学,,,44,53,18,25,211,,186,186,44,40,7,8,0.6,0.7
2023-03-06T20:00:00,1351A,113.2146,23.3916,广州市,花都师范,颗粒物(PM10),72,93,89,42,44,231,140,195,195,58,53,8,9,1.0,0.9
2023-03-06T20:00:00,1352A,113.2597,23.1331,广州市,市监测站,颗粒物(PM10),63,76,68,38,34,216,152,190,190,37,40,8,9,0.7,0.6
2023-03-06T20:00:00,1353A,113.5618,23.312,广州市,九龙镇镇龙,颗粒物(PM10),86,121,105,56,51,229,120,184,184,86,64,6,6,0.7,0.7
2023-03-06T20:00:00,1354A,113.2765,23.1544,广州市,麓湖,颗粒物(PM10),61,72,68,33,33,234,160,205,205,36,48,7,8,0.6,0.6
2023-03-06T20:00:00,1355A,113.443,23.3035,广州市,帽峰山森林公园,臭氧1小时,102,89,74,37,34,265,204,227,227,48,39,9,9,0.7,0.6
2023-03-06T20:00:00,1356A,114.1063,22.5545,深圳市,通心岭子站,,37,37,42,17,19,125,109,119,118,12,15,4,4,0.6,0.6
2023-03-06T20:00:00,1357A,114.117,22.5625,深圳市,洪湖,,46,46,61,19,23,166,143,152,152,16,29,8,9,0.4,0.5
2023-03-06T20:00:00,1358A,113.987,22.5417,深圳市,华侨城,颗粒物(PM10),52,54,48,21,21,158,131,147,146,21,20,4,5,0.6,0.6
2023-03-06T20:00:00,1359A,113.9181,22.5171,深圳市,南海子站,,50,50,54,26,22,153,129,142,142,20,19,5,6,0.6,0.6
2023-03-06T20:00:00,1360A,114.2458,22.5689,深圳市,盐田,,36,36,41,14,18,140,103,131,129,32,27,7,8,0.6,0.6
2023-03-06T20:00:00,1361A,114.2283,22.7244,深圳市,龙岗,,46,46,53,17,22,170,131,152,150,12,17,4,5,0.4,0.6
2023-03-06T20:00:00,1363A,114.494,22.5422,深圳市,南澳,,43,39,42,19,19,142,135,134,134,13,13,4,5,0.3,0.3
2023-03-06T20:00:00,1364A,114.41,22.6342,深圳市,葵涌,,41,41,43,20,19,142,128,133,132,18,17,5,6,0.5,0.5
2023-03-06T20:00:00,1365A,114.297,22.5978,深圳市,梅沙,,48,48,44,16,18,149,133,144,143,12,12,5,6,0.8,0.7
2023-03-06T20:00:00,1366A,114.0678,22.738,深圳市,观澜,颗粒物(PM10),54,58,71,21,28,152,102,137,132,43,34,6,7,0.6,0.6
2023-03-06T20:00:00,1367A,113.5814,22.2618,珠海市,吉大,,48,48,50,21,18,162,145,151,151,20,21,6,5,0.3,0.3
2023-03-06T20:00:00,1368A,113.4881,22.2335,珠海市,前山,,50,50,43,21,19,151,122,141,139,39,29,5,5,0.4,0.5
2023-03-06T20:00:00,1369A,113.628,22.4251,珠海市,唐家,,46,46,46,19,21,165,123,148,145,24,23,5,5,0.3,0.5
2023-03-06T20:00:00,1370A,113.299,22.2281,珠海市,斗门,,44,44,46,17,18,168,129,153,153,30,25,5,5,0.3,0.3
2023-03-06T20:00:00,1371A,113.1294,23.0067,佛山市,湾梁,颗粒物(PM10),70,90,72,21,25,193,142,178,178,50,37,5,5,0.7,0.6
2023-03-06T20:00:00,1372A,113.1083,23.0478,佛山市,华材职中,颗粒物(PM10),64,78,65,37,29,197,158,185,185,39,30,7,7,0.4,0.4
2023-03-06T20:00:00,1373A,113.144,23.0453,佛山市,南海气象局,颗粒物(PM10),64,77,68,38,31,173,130,158,157,53,40,4,4,0.6,0.7
2023-03-06T20:00:00,1374A,113.2881,22.8094,佛山市,顺德苏岗,颗粒物(PM10),55,59,58,22,29,176,122,154,154,34,40,9,9,0.6,0.6
2023-03-06T20:00:00,1376A,112.8383,22.8678,佛山市,高明孔堂,颗粒物(PM10),62,73,64,24,26,222,161,194,194,21,22,7,6,0.5,0.5
2023-03-06T20:00:00,1377A,112.8836,23.1588,佛山市,三水监测站,颗粒物(PM10),70,90,92,35,43,212,130,176,174,52,65,6,8,0.6,0.6
2023-03-06T20:00:00,1378A,112.867,23.185,佛山市,三水云东海,颗粒物(PM10),57,63,70,30,40,217,112,180,176,49,46,3,6,0.6,0.6
2023-03-06T20:00:00,1379A,113.3769,22.5211,中山市,华柏园,,47,38,52,26,26,180,150,163,163,22,22,8,8,0.5,0.5
2023-03-06T20:00:00,1380A,113.3881,22.5497,中山市,张溪,,44,20,64,24,29,173,138,157,157,32,32,6,6,0.4,0.4
2023-03-06T20:00:00,1381A,113.4075,22.5111,中山市,紫马岭,颗粒物(PM10),52,53,47,19,21,180,133,160,160,20,18,6,6,0.4,0.4
2023-03-06T20:00:00,1382A,113.4411,22.4853,中山市,长江旅游区,,36,23,39,21,23,173,114,155,152,17,16,11,11,0.3,0.4
2023-03-06T20:00:00,1383A,113.1064,22.6058,江门市,北街,,45,45,55,22,25,207,131,176,176,27,27,9,8,0.5,0.5
2023-03-06T20:00:00,1384A,113.0731,22.5835,江门市,西区,颗粒物(PM10),60,69,68,15,25,212,135,187,186,31,33,7,7,0.4,0.5
2023-03-06T20:00:00,1385A,113.0219,22.5311,江门市,圭峰西,颗粒物(PM10),54,57,57,21,23,196,137,178,177,33,30,6,6,0.4,0.5
2023-03-06T20:00:00,1386A,113.0828,22.5947,江门市,东湖,颗粒物(PM10),53,56,59,12,23,220,141,192,190,26,27,7,6,0.4,0.5
2023-03-06T20:00:00,1389A,113.7547,23.0494,东莞市,莞城梨川,颗粒物(PM10),52,54,70,22,33,253,108,209,200,49,38,11,11,0.8,0.8
2023-03-06T20:00:00,1390A,113.7944,23.0128,东莞市,东城石井,,49,49,62,20,30,254,102,206,198,36,30,10,11,0.6,0.7
2023-03-06T20:00:00,1391A,113.7383,22.9658,东莞市,南城西平,颗粒物(PM10),58,65,73,26,33,216,103,175,167,42,50,10,11,0.3,0.4
2023-03-06T20:00:00,1392A,114.4183,23.0528,惠州市,河南岸金山湖子站,颗粒物(PM10),62,73,69,26,31,172,117,157,154,29,28,6,7,0.4,0.5
2023-03-06T20:00:00,1393A,114.4053,23.0822,惠州市,下埔横江三路子站,颗粒物(PM10),55,60,74,23,32,194,127,170,167,30,26,6,7,0.5,0.5
2023-03-06T20:00:00,1394A,114.4103,23.1142,惠州市,江北云山西路子站,,48,48,73,24,38,200,127,179,176,30,26,8,9,0.4,0.5
2023-03-06T20:00:00,1395A,114.4645,22.7833,惠州市,惠阳区承修路船湖子站,,47,47,59,23,27,154,126,144,143,23,25,5,7,0.6,0.7
2023-03-06T20:00:00,1396A,114.5317,22.7422,惠州市,大亚湾管委会子站,颗粒物(PM10),65,80,77,26,26,147,96,133,128,48,32,6,6,0.6,0.6
2023-03-06T20:00:00,1397A,112.4267,23.0706,肇庆市,睦岗子站,臭氧1小时,101,86,74,40,41,218,202,202,202,43,63,13,14,0.7,0.7
2023-03-06T20:00:00,1398A,112.4645,23.0475,肇庆市,城中子站,臭氧1小时,92,75,74,38,41,215,193,198,198,42,45,10,16,0.5,0.6
2023-03-06T20:00:00,1399A,112.5544,23.1522,肇庆市,坑口子站,颗粒物(PM10),55,60,60,32,39,228,160,192,192,36,32,8,11,0.5,0.5
2023-03-06T20:00:00,1400A,112.4753,23.1,肇庆市,七星岩子站,,,,,,,,,,,,,,,,
2023-03-06T20:00:00,1401A,108.3103,22.7881,南宁市,二十一中,颗粒物(PM10),52,53,81,28,48,170,151,160,158,15,14,10,10,0.8,0.9
2023-03-06T20:00:00,1402A,108.3141,22.8528,南宁市,北湖,颗粒物(PM10),59,67,79,28,48,153,140,151,145,16,14,9,10,0.7,0.8
2023-03-06T20:00:00,1403A,108.3206,22.8225,南宁市,市监测站,颗粒物(PM10),56,62,80,29,52,155,133,152,139,30,25,9,11,0.7,0.8
2023-03-06T20:00:00,1404A,108.3829,22.8037,南宁市,大自然花园,颗粒物(PM10),56,62,75,29,50,146,136,146,136,14,16,7,8,0.8,0.9
2023-03-06T20:00:00,1405A,108.4394,22.7904,南宁市,仙葫,,,66,72,33,49,158,143,158,142,14,14,9,9,,0.8
2023-03-06T20:00:00,1406A,108.2397,22.8467,南宁市,区农职院,颗粒物(PM10),54,58,76,28,49,160,145,152,152,25,24,10,10,0.8,0.9
2023-03-06T20:00:00,1407A,108.3275,22.735,南宁市,英华嘉园,颗粒物(PM10),57,63,78,30,51,149,122,135,135,28,22,9,9,0.8,0.9
2023-03-06T20:00:00,1408A,108.2257,22.7757,南宁市,沙井镇街道办,颗粒物(PM10),58,65,88,26,51,156,142,149,149,20,31,7,9,0.8,1
2023-03-06T20:00:00,1409A,110.576,19.9507,海口市,东寨港,,,33,37,19,23,89,74,86,84,,,3,4,0.6,0.7
2023-03-06T20:00:00,1410A,110.3232,20.0574,海口市,海南大学,,44,44,42,23,23,143,131,135,134,7,11,6,6,0.5,0.6
2023-03-06T20:00:00,1411A,110.283,20.0053,海口市,秀英海南医院,颗粒物(PM10),52,53,50,21,23,132,120,127,125,11,15,7,4,0.7,0.7
2023-03-06T20:00:00,1412A,110.338,19.9969,海口市,海南师范大学,颗粒物(PM10),51,52,52,20,22,139,124,132,131,10,11,5,4,0.6,0.6
2023-03-06T20:00:00,1413A,110.33,20.0356,海口市,龙华路环保局宿舍,,48,48,47,18,20,133,122,130,128,9,10,6,6,0.6,0.7
2023-03-06T20:00:00,1414A,106.3787,29.8279,重庆市,缙云山,细颗粒物(PM2.5),55,47,64,39,39,117,67,117,62,21,24,5,12,0.7,0.9
2023-03-06T20:00:00,1416A,106.4213,29.8253,重庆市,天生,细颗粒物(PM2.5),73,51,111,53,77,59,55,41,41,27,61,8,23,0.8,0.9
2023-03-06T20:00:00,1417A,106.6263,29.7228,重庆市,两路,细颗粒物(PM2.5),69,59,89,50,55,64,30,36,24,44,70,8,15,1.0,1.1
2023-03-06T20:00:00,1418A,106.2953,29.5983,重庆市,虎溪,细颗粒物(PM2.5),77,65,91,56,76,61,39,46,41,46,61,7,14,1.0,1.1
2023-03-06T20:00:00,1419A,106.5777,29.5102,重庆市,南坪,细颗粒物(PM2.5),78,85,111,57,75,61,20,21,21,55,77,12,19,1.1,1
2023-03-06T20:00:00,1420A,106.6556,29.6277,重庆市,唐家沱,细颗粒物(PM2.5),74,65,101,54,57,52,35,27,27,49,84,8,10,1.1,1.1
2023-03-06T20:00:00,1421A,106.6349,29.4906,重庆市,茶园,细颗粒物(PM2.5),75,86,124,55,71,29,13,17,17,66,83,8,13,1.0,1
2023-03-06T20:00:00,1422A,106.3754,29.4572,重庆市,白市驿,细颗粒物(PM2.5),74,80,116,54,75,65,28,26,26,68,75,11,17,0.9,1
2023-03-06T20:00:00,1425A,106.6205,29.7166,重庆市,空港,细颗粒物(PM2.5),69,37,87,50,60,78,46,51,32,37,68,7,16,0.8,1
2023-03-06T20:00:00,1426A,106.4782,29.4875,重庆市,新山村,,,82,136,56,79,30,,12,12,89,103,10,18,0.9,1.2
2023-03-06T20:00:00,1427A,106.5616,29.6453,重庆市,礼嘉,颗粒物(PM10),59,68,118,40,62,51,40,33,33,50,86,10,17,1.0,1.2
2023-03-06T20:00:00,1428A,106.4522,29.7091,重庆市,蔡家,,,74,98,49,59,70,,36,36,28,49,7,9,0.9,1.1
2023-03-06T20:00:00,1429A,106.5093,29.3917,重庆市,鱼新街,细颗粒物(PM2.5),99,84,128,74,82,15,15,12,12,63,79,13,21,1.0,1.4
2023-03-06T20:00:00,1431A,103.9728,30.7236,成都市,金泉两河,细颗粒物(PM2.5),78,83,80,57,56,140,90,122,122,38,38,1,2,0.7,0.8
2023-03-06T20:00:00,1432A,104.176,30.6872,成都市,十里店,细颗粒物(PM2.5),69,74,82,50,53,132,100,122,119,21,33,3,4,0.6,0.7
2023-03-06T20:00:00,1433A,104.079,30.5706,成都市,三瓦窑,颗粒物(PM10),60,70,70,39,43,135,106,114,114,25,48,1,2,0.6,0.6
2023-03-06T20:00:00,1434A,104.1114,30.63,成都市,沙河铺,细颗粒物(PM2.5),77,73,73,56,54,134,96,115,115,25,32,4,5,0.7,0.7
2023-03-06T20:00:00,1437A,104.0786,30.6531,成都市,君平街,细颗粒物(PM2.5),82,71,75,60,55,144,112,125,125,26,34,4,5,0.5,0.5
2023-03-06T20:00:00,1438A,103.613,31.0283,成都市,灵岩寺,细颗粒物(PM2.5),84,80,85,62,60,169,151,153,153,24,20,11,10,0.7,0.6
2023-03-06T20:00:00,1439A,106.6899,26.5998,贵阳市,马鞍山,细颗粒物(PM2.5),73,73,50,53,39,104,44,96,81,34,24,6,7,1.1,1
2023-03-06T20:00:00,1440A,106.6971,26.5694,贵阳市,市环保站,细颗粒物(PM2.5),84,73,69,62,54,95,33,79,64,59,46,6,12,0.8,0.9
2023-03-06T20:00:00,1441A,106.6243,26.6266,贵阳市,鉴湖路,细颗粒物(PM2.5),83,88,63,61,42,105,79,101,90,22,22,7,8,0.6,0.5
2023-03-06T20:00:00,1442A,106.7487,26.6343,贵阳市,燕子冲,细颗粒物(PM2.5),62,56,56,44,48,95,67,82,80,26,29,8,8,0.7,0.7
2023-03-06T20:00:00,1443A,106.6555,26.4365,贵阳市,碧云窝,细颗粒物(PM2.5),83,68,64,61,43,106,66,100,80,24,26,7,10,0.7,0.6
2023-03-06T20:00:00,1444A,106.694,26.5161,贵阳市,中院村,细颗粒物(PM2.5),67,78,80,48,50,88,45,75,70,43,39,16,21,0.9,1
2023-03-06T20:00:00,1445A,106.7109,26.6027,贵阳市,红边门,细颗粒物(PM2.5),79,70,73,58,58,87,32,74,67,64,53,15,29,1.1,1.1
2023-03-06T20:00:00,1446A,106.7164,26.5699,贵阳市,新华路,细颗粒物(PM2.5),77,68,74,56,52,90,42,78,73,46,40,16,15,1.0,1
2023-03-06T20:00:00,1447A,106.674,26.5424,贵阳市,太慈桥,细颗粒物(PM2.5),67,75,68,48,40,104,72,95,89,26,28,9,6,0.8,0.7
2023-03-06T20:00:00,1450A,102.8204,24.8886,昆明市,呈贡新区,,,55,67,42,58,139,,132,132,11,16,5,5,0.6,0.8
2023-03-06T20:00:00,1451A,102.6251,24.9608,昆明市,西山森林公园,细颗粒物(PM2.5),55,52,56,39,44,139,123,132,132,10,10,5,6,0.9,1
2023-03-06T20:00:00,1452A,102.7252,25.0902,昆明市,龙泉镇,颗粒物(PM10),64,77,67,41,51,138,96,130,126,32,19,6,6,0.7,0.8
2023-03-06T20:00:00,1453A,102.7266,25.0375,昆明市,东风东路,细颗粒物(PM2.5),60,58,68,43,54,130,100,117,116,23,22,6,6,0.9,1.1
2023-03-06T20:00:00,1454A,102.6742,25.0669,昆明市,金鼎山,细颗粒物(PM2.5),67,71,70,48,50,134,98,124,120,27,19,4,4,0.7,0.8
2023-03-06T20:00:00,1455A,102.6644,25.0401,昆明市,碧鸡广场,"颗粒物(PM10),细颗粒物(PM2.5)",57,63,68,40,52,134,101,123,121,24,24,5,5,0.7,0.8
2023-03-06T20:00:00,1456A,91.1319,29.6514,拉萨市,八廓街,,34,17,23,9,12,120,107,112,112,19,18,9,8,0.2,0.3
2023-03-06T20:00:00,1457A,91.1221,29.6747,拉萨市,市环保局,,35,5,18,5,9,128,112,121,121,19,18,6,5,0.6,0.5
2023-03-06T20:00:00,1458A,91.0874,29.6475,拉萨市,区监测站,,35,20,19,6,9,128,112,119,119,15,15,6,6,0.1,0.2
2023-03-06T20:00:00,1459A,91.1774,29.6541,拉萨市,西藏大学,,37,14,16,5,7,129,116,120,120,10,13,5,4,0.4,0.5
2023-03-06T20:00:00,1460A,90.9798,29.6588,拉萨市,区辐射站,,34,20,24,6,12,134,106,120,120,24,22,7,7,0.7,0.6
2023-03-06T20:00:00,1461A,91.0834,29.6292,拉萨市,拉萨火车站,,37,19,19,2,7,117,117,105,105,7,17,5,5,0.3,0.5
2023-03-06T20:00:00,1462A,108.882,34.2749,西安市,高压开关厂,"颗粒物(PM10),细颗粒物(PM2.5)",70,90,176,51,96,158,89,133,133,65,82,37,15,0.9,1.1
2023-03-06T20:00:00,1463A,108.993,34.2629,西安市,兴庆小区,颗粒物(PM10),68,86,137,46,92,149,84,123,123,64,68,9,10,0.6,0.8
2023-03-06T20:00:00,1464A,109.06,34.2572,西安市,纺织城,颗粒物(PM10),70,90,164,49,92,142,97,124,124,44,67,7,8,0.8,1
2023-03-06T20:00:00,1465A,108.9356,34.2173,西安市,小寨,颗粒物(PM10),80,109,159,53,86,150,38,121,118,113,80,10,12,1.1,0.9
2023-03-06T20:00:00,1466A,108.954,34.2713,西安市,市人民体育场,颗粒物(PM10),72,94,140,50,88,144,41,120,117,110,79,8,9,0.7,0.9
2023-03-06T20:00:00,1467A,108.8922,34.2322,西安市,高新西区,"颗粒物(PM10),细颗粒物(PM2.5)",75,100,150,55,95,161,29,127,123,124,87,10,13,1.0,1.2
2023-03-06T20:00:00,1468A,108.935,34.3474,西安市,经开区,细颗粒物(PM2.5),79,90,159,58,102,146,36,123,118,114,89,8,11,1.0,1.1
2023-03-06T20:00:00,1469A,108.906,34.1546,西安市,长安区,颗粒物(PM10),80,109,148,47,84,152,86,131,131,57,66,10,10,0.6,0.7
2023-03-06T20:00:00,1471A,109.2186,34.3731,西安市,临潼区,颗粒物(PM10),83,116,128,49,76,147,90,132,132,60,56,13,13,0.8,0.9
2023-03-06T20:00:00,1472A,108.869,34.378,西安市,草滩,颗粒物(PM10),72,94,177,39,67,128,85,107,107,44,86,1,12,0.0,0.6
2023-03-06T20:00:00,1473A,108.985,34.1978,西安市,曲江文化产业集团,颗粒物(PM10),68,86,170,48,96,150,88,131,131,64,78,8,10,0.8,1
2023-03-06T20:00:00,1474A,109.051,34.3213,西安市,广运潭,颗粒物(PM10),72,93,144,48,89,148,66,123,122,71,68,9,10,0.6,0.7
2023-03-06T20:00:00,1476A,103.631,36.1031,兰州市,兰炼宾馆,颗粒物(PM10),68,85,92,41,41,172,44,106,105,85,58,10,35,0.9,0.8
2023-03-06T20:00:00,1477A,104.1373,35.9454,兰州市,榆中兰大校区,,,,,,,,,,,,,,,,
2023-03-06T20:00:00,1478A,103.8412,36.0726,兰州市,生物制品所,,,98,86,38,38,107,69,91,91,46,58,,11,0.7,1.1
2023-03-06T20:00:00,1479A,103.831,36.0464,兰州市,铁路设计院,细颗粒物(PM2.5),82,93,82,60,46,111,10,85,80,130,67,18,21,1.5,1.1
2023-03-06T20:00:00,1483A,101.524,36.6867,西宁市,第五水厂,,,,,,,,,,,,,,,,
2023-03-06T20:00:00,1484A,105.9512,38.6016,银川市,贺兰山马莲口,,32,32,34,13,13,123,102,112,112,12,14,11,14,0.1,0.2
2023-03-06T20:00:00,1488A,106.2328,38.4975,银川市,贺兰山东路,颗粒物(PM10),53,55,76,13,31,109,77,97,97,30,50,1,12,0.5,0.8
2023-03-06T20:00:00,1489A,106.1358,38.5036,银川市,学院路,,44,44,70,15,24,110,64,99,98,44,52,5,14,0.6,0.8
2023-03-06T20:00:00,1490A,87.5801,43.8303,乌鲁木齐市,监测站,颗粒物(PM10),78,105,209,39,171,108,26,93,83,98,84,8,8,0.9,2
2023-03-06T20:00:00,1491A,87.6046,43.768,乌鲁木齐市,收费所,颗粒物(PM10),88,125,291,0,151,113,34,87,83,123,96,8,6,1.0,1.6
2023-03-06T20:00:00,1492A,87.4754,43.9469,乌鲁木齐市,新疆农科院农场,细颗粒物(PM2.5),109,86,177,82,195,147,84,95,90,57,84,18,14,1.5,2
2023-03-06T20:00:00,1493A,87.5525,43.8711,乌鲁木齐市,铁路局,颗粒物(PM10),94,137,237,56,180,135,15,97,83,118,84,9,7,0.8,1.6
2023-03-06T20:00:00,1494A,87.6432,43.831,乌鲁木齐市,三十一中学,,,94,253,45,177,121,50,110,97,,46,10,10,0.8,1.7
2023-03-06T20:00:00,1496A,87.7216,44.1747,乌鲁木齐市,米东区环保局,细颗粒物(PM2.5),240,217,235,190,153,205,205,149,149,34,61,14,11,1.5,2.1
2023-03-06T20:00:00,1508A,112.9433,27.8614,湘潭市,板塘,颗粒物(PM10),65,80,72,46,37,136,80,116,113,41,48,13,14,0.9,0.7
2023-03-06T20:00:00,1511A,112.9118,27.8403,湘潭市,市监测站,颗粒物(PM10),66,81,72,47,34,141,67,121,117,69,51,12,13,0.8,0.8
2023-03-06T20:00:00,1512A,112.8937,27.8728,湘潭市,江麓,细颗粒物(PM2.5),58,61,73,41,38,153,118,140,140,25,47,17,15,0.9,1
2023-03-06T20:00:00,1513A,112.9227,27.8159,湘潭市,岳塘,细颗粒物(PM2.5),64,72,85,46,42,140,97,127,126,26,45,3,10,0.7,0.7
2023-03-06T20:00:00,1514A,112.9074,27.9119,湘潭市,科大,细颗粒物(PM2.5),58,61,76,41,38,150,115,137,137,28,58,8,10,0.9,1
2023-03-06T20:00:00,1515A,113.135,27.8244,株洲市,天台山庄,细颗粒物(PM2.5),119,,80,90,45,148,11,135,116,,53,7,11,2.2,1.3
2023-03-06T20:00:00,1518A,113.095,27.8867,株洲市,株冶医院,细颗粒物(PM2.5),98,124,70,73,36,144,56,132,124,59,50,5,9,0.7,0.7
2023-03-06T20:00:00,1519A,113.167,27.8667,株洲市,市四中,颗粒物(PM10),95,140,69,65,41,147,10,132,118,102,51,9,12,1.3,0.8
2023-03-06T20:00:00,1520A,113.143,27.8381,株洲市,火车站,细颗粒物(PM2.5),104,119,76,78,45,144,53,133,124,67,45,7,10,1.6,1.1
2023-03-06T20:00:00,1524A,113.13,27.8528,株洲市,市监测站,细颗粒物(PM2.5),82,80,79,60,47,145,78,136,130,61,53,6,10,1.0,1.1
2023-03-06T20:00:00,1552A,106.805,26.3003,贵阳市,桐木岭,,,,,,,,,,,,,,,,
2023-03-06T20:00:00,1559A,113.251,27.8336,株洲市,大京风景区,,,,,,,,,,,,,,,,
2023-03-06T20:00:00,1562A,113.0048,27.9153,湘潭市,昭山,颗粒物(PM10),52,53,74,32,37,137,111,126,126,27,55,4,6,0.2,0.4
2023-03-06T20:00:00,1564A,112.4876,27.9164,湘潭市,韶山,颗粒物(PM10),51,52,55,21,23,142,80,130,125,19,18,6,8,0.6,0.7
2023-03-06T20:00:00,1585A,109.8756,40.6532,包头市,市环境监测站,颗粒物(PM10),61,72,107,17,35,119,40,94,91,71,53,29,20,1.6,0.9
2023-03-06T20:00:00,1587A,109.9991,40.5842,包头市,包头八中,颗粒物(PM10),63,76,129,35,47,112,29,98,92,85,63,7,23,0.7,1.1
2023-03-06T20:00:00,1588A,109.8538,40.6821,包头市,青山宾馆,颗粒物(PM10),59,67,105,40,40,118,60,93,93,48,45,16,17,1.7,1.1
2023-03-06T20:00:00,1589A,109.8642,40.6288,包头市,惠龙物流,颗粒物(PM10),54,57,110,25,41,106,59,93,92,52,61,16,21,1.0,1.2
2023-03-06T20:00:00,1590A,110.0377,40.5546,包头市,东河鸿龙湾,颗粒物(PM10),54,57,116,20,40,122,74,106,103,27,46,7,19,0.5,1
2023-03-06T20:00:00,1591A,110.0023,39.8129,鄂尔多斯市,综合楼,,46,46,71,12,17,100,75,96,93,33,16,7,6,0.5,0.4
2023-03-06T20:00:00,1592A,109.9486,39.8261,鄂尔多斯市,巴音孟克林场办事处,颗粒物(PM10),51,51,61,14,17,103,59,101,91,30,14,7,6,0.4,0.4
2023-03-06T20:00:00,1593A,109.7736,39.5986,鄂尔多斯市,康泽苑,,39,39,50,9,12,100,39,96,88,61,19,10,10,0.5,0.4
2023-03-06T20:00:00,1594A,109.8119,39.5989,鄂尔多斯市,华泰汽车城,,39,39,54,19,21,103,41,99,91,62,24,8,8,0.7,0.5
2023-03-06T20:00:00,1595A,109.9734,39.7884,鄂尔多斯市,奥林花园,颗粒物(PM10),62,73,70,19,19,104,24,101,89,84,18,6,6,0.4,0.3
2023-03-06T20:00:00,1597A,122.2703,40.7094,营口市,大庆路,细颗粒物(PM2.5),192,170,95,144,68,120,43,109,94,68,31,8,10,1.4,0.9
2023-03-06T20:00:00,1598A,122.2150,40.6511,营口市,镜湖西路,细颗粒物(PM2.5),173,224,116,131,67,123,24,115,94,106,36,11,10,1.7,0.9
2023-03-06T20:00:00,1599A,122.1658,40.6789,营口市,西炮台,细颗粒物(PM2.5),176,177,99,133,71,126,16,114,83,106,39,10,11,1.2,0.8
2023-03-06T20:00:00,1600A,124.3303,40.0625,丹东市,江湾东路,颗粒物(PM10),60,70,50,42,35,128,106,122,117,11,12,12,15,0.6,0.8
2023-03-06T20:00:00,1601A,124.4256,40.1503,丹东市,临江后街,颗粒物(PM10),59,68,46,34,28,127,106,123,119,9,12,10,11,0.8,0.6
2023-03-06T20:00:00,1602A,124.3933,40.1461,丹东市,元宝山,颗粒物(PM10),59,68,47,40,32,122,102,115,110,15,16,16,15,1.2,0.9
2023-03-06T20:00:00,1603A,124.3633,40.1092,丹东市,民主桥,颗粒物(PM10),63,75,46,40,28,124,100,118,113,12,12,10,13,0.8,0.8
2023-03-06T20:00:00,1604A,122.0303,41.1489,盘锦市,开发区,细颗粒物(PM2.5),168,198,89,127,68,127,63,110,101,63,24,11,8,1.2,0.8
2023-03-06T20:00:00,1605A,122.0485,41.0883,盘锦市,兴隆台,细颗粒物(PM2.5),183,164,101,138,73,104,38,100,87,89,28,12,11,1.2,0.7
2023-03-06T20:00:00,1606A,121.8297,41.1028,盘锦市,新生街道,细颗粒物(PM2.5),142,121,78,108,64,123,33,110,102,90,33,9,10,0.8,0.6
2023-03-06T20:00:00,1607A,120.9092,40.7136,葫芦岛市,龙港区,细颗粒物(PM2.5),202,172,132,152,93,96,37,85,79,48,30,27,40,1.3,1.1
2023-03-06T20:00:00,1608A,120.8392,40.7514,葫芦岛市,化工街,细颗粒物(PM2.5),149,183,151,114,97,100,57,83,83,60,52,12,16,1.3,1.2
2023-03-06T20:00:00,1609A,120.8341,40.7073,葫芦岛市,新区,细颗粒物(PM2.5),138,131,114,105,84,84,49,81,78,53,30,14,19,1.1,0.9
2023-03-06T20:00:00,1610A,120.8695,40.7677,葫芦岛市,东城区,细颗粒物(PM2.5),156,147,132,119,94,101,60,85,85,57,46,17,20,1.1,1.1
2023-03-06T20:00:00,1611A,118.5819,24.9117,泉州市,涂山街,颗粒物(PM10),56,62,72,22,34,163,108,149,145,26,27,9,12,0.5,0.6
2023-03-06T20:00:00,1612A,118.5972,24.8978,泉州市,津头埔,颗粒物(PM10),59,68,67,19,30,158,111,145,141,27,32,8,11,0.5,0.5
2023-03-06T20:00:00,1613A,118.6663,24.9424,泉州市,万安,颗粒物(PM10),60,69,59,27,30,168,120,156,152,20,25,7,11,0.6,0.6
2023-03-06T20:00:00,1614A,118.6117,24.9604,泉州市,清源山,,,,,,,,,,,,,,,,
2023-03-06T20:00:00,1616A,117.6795,36.229,济南市,技术学院,细颗粒物(PM2.5),129,180,165,98,87,181,120,168,163,55,46,25,18,1.4,1.3
2023-03-06T20:00:00,1618A,118.3429,35.0532,临沂市,沂河小区,"颗粒物(PM10),细颗粒物(PM2.5)",87,124,163,64,105,153,74,128,123,65,44,12,18,0.6,0.5
2023-03-06T20:00:00,1619A,118.295,35.0583,临沂市,鲁南制药厂,颗粒物(PM10),84,117,161,49,106,168,106,146,145,52,50,14,24,0.6,0.7
2023-03-06T20:00:00,1620A,118.2794,34.9976,临沂市,新光毛纺厂,颗粒物(PM10),76,102,151,43,92,163,115,144,144,34,45,12,17,0.5,0.6
2023-03-06T20:00:00,1621A,118.3956,35.0888,临沂市,河东保险公司,颗粒物(PM10),74,97,144,45,99,170,127,152,152,41,47,13,17,0.8,0.8
2023-03-06T20:00:00,1622A,116.3032,37.4674,德州市,儿童乐园,细颗粒物(PM2.5),122,158,155,92,87,197,93,169,166,74,36,8,13,0.9,0.8
2023-03-06T20:00:00,1624A,116.2991,37.4451,德州市,监理站,细颗粒物(PM2.5),128,188,171,97,98,190,96,166,164,115,54,6,13,1.1,0.8
2023-03-06T20:00:00,1625A,115.9848,36.4372,聊城市,区政府,细颗粒物(PM2.5),132,210,165,100,86,160,42,136,128,90,33,11,16,1.1,0.8
2023-03-06T20:00:00,1628A,118.0062,37.3803,滨州市,市环保局,细颗粒物(PM2.5),155,215,180,118,92,162,74,139,134,66,46,18,17,0.9,0.9
2023-03-06T20:00:00,1629A,118.0018,37.3617,滨州市,第二水厂,细颗粒物(PM2.5),135,202,181,103,88,168,76,145,140,72,55,14,14,1.0,0.9
2023-03-06T20:00:00,1630A,117.9776,37.393,滨州市,北中新校,细颗粒物(PM2.5),134,186,166,102,80,168,78,144,138,72,53,12,13,0.9,0.9
2023-03-06T20:00:00,1631A,118.0414,36.8103,淄博市,人民公园,细颗粒物(PM2.5),196,202,155,147,94,182,125,163,161,56,29,18,16,1.0,0.7
2023-03-06T20:00:00,1633A,117.8525,36.4847,淄博市,双山,细颗粒物(PM2.5),127,182,136,96,79,178,91,159,152,62,32,21,18,1.1,0.9
2023-03-06T20:00:00,1634A,117.9592,36.6331,淄博市,气象站,细颗粒物(PM2.5),153,215,147,117,66,173,156,166,166,47,28,26,18,0.9,0.6
2023-03-06T20:00:00,1635A,118.3092,36.8194,淄博市,莆田园,细颗粒物(PM2.5),156,215,165,119,73,145,108,132,94,88,48,45,20,1.2,1.5
2023-03-06T20:00:00,1637A,117.558,34.8438,枣庄市,市中区政府,细颗粒物(PM2.5),89,119,184,66,106,178,136,160,160,48,58,12,18,0.9,1
2023-03-06T20:00:00,1638A,117.2852,34.7837,枣庄市,薛城环保局,,,117,131,70,78,171,,164,164,31,44,13,16,0.7,0.9
2023-03-06T20:00:00,1639A,117.5852,34.7745,枣庄市,峄城区政府,颗粒物(PM10),101,151,181,68,101,170,108,151,150,45,42,14,16,0.7,0.7
2023-03-06T20:00:00,1640A,117.7276,34.5578,枣庄市,台儿庄区环保局,颗粒物(PM10),92,134,168,53,96,163,80,141,137,70,61,11,13,0.9,1.1
2023-03-06T20:00:00,1641A,117.4518,35.0992,枣庄市,山亭区环保局,细颗粒物(PM2.5),89,124,125,66,64,169,107,156,149,53,35,9,14,1.0,0.8
2023-03-06T20:00:00,1642A,121.2514,37.5639,烟台市,开发区,细颗粒物(PM2.5),128,127,91,97,54,146,124,134,134,37,28,15,13,0.7,0.4
2023-03-06T20:00:00,1643A,121.3719,37.5433,烟台市,轴承厂,细颗粒物(PM2.5),129,149,87,98,53,189,105,167,162,68,20,12,7,1.0,0.5
2023-03-06T20:00:00,1644A,121.3181,37.5436,烟台市,西郊化工站,颗粒物(PM10),109,168,102,77,48,185,154,174,174,40,19,12,9,0.8,0.5
2023-03-06T20:00:00,1645A,121.4478,37.4822,烟台市,莱山环保局,细颗粒物(PM2.5),122,144,86,92,49,180,146,164,164,44,24,13,11,1.3,1
2023-03-06T20:00:00,1646A,121.2611,37.4967,烟台市,福山环保局,细颗粒物(PM2.5),140,158,97,107,48,179,148,164,164,45,31,14,10,1.2,0.9
2023-03-06T20:00:00,1650A,119.1437,36.7023,潍坊市,环保局,细颗粒物(PM2.5),153,190,147,117,93,178,152,162,162,45,39,16,12,1.0,0.9
2023-03-06T20:00:00,1653A,116.6251,35.4302,济宁市,火炬城,细颗粒物(PM2.5),77,87,107,56,69,164,125,151,151,31,28,10,11,0.9,0.9
2023-03-06T20:00:00,1655A,116.5491,35.4042,济宁市,电化厂,细颗粒物(PM2.5),83,111,119,61,74,162,107,149,146,34,18,8,10,0.8,0.8
2023-03-06T20:00:00,1656A,117.1437,36.1937,泰安市,监测站,细颗粒物(PM2.5),122,141,137,92,84,171,127,155,152,31,30,6,8,0.9,0.8
2023-03-06T20:00:00,1657A,117.0885,36.2017,泰安市,人口学校,细颗粒物(PM2.5),115,141,132,87,76,194,138,176,174,42,23,11,15,0.6,0.5
2023-03-06T20:00:00,1658A,117.1089,36.1758,泰安市,电力学校,细颗粒物(PM2.5),114,146,133,86,75,179,121,160,158,48,27,15,17,0.9,0.7
2023-03-06T20:00:00,1659A,119.471,35.4209,日照市,监测站,细颗粒物(PM2.5),129,180,109,98,56,118,19,86,77,135,69,22,15,1.9,1.2
2023-03-06T20:00:00,1660A,119.523,35.4216,日照市,市政府广场,细颗粒物(PM2.5),94,124,108,70,50,88,88,68,62,63,45,14,9,1.2,0.9
2023-03-06T20:00:00,1661A,119.5587,35.4044,日照市,港务局,细颗粒物(PM2.5),107,144,84,80,43,107,82,88,87,47,42,8,9,0.8,0.6
2023-03-06T20:00:00,1662A,122.1214,37.4236,威海市,华夏技校,细颗粒物(PM2.5),64,73,69,46,41,183,97,152,145,31,19,4,4,0.5,0.4
2023-03-06T20:00:00,1663A,122.0508,37.5236,威海市,山大分校,颗粒物(PM10),67,83,80,42,37,176,121,160,156,28,19,5,5,0.4,0.3
2023-03-06T20:00:00,1664A,122.1067,37.5072,威海市,市监测站,颗粒物(PM10),69,88,98,49,47,201,117,178,166,39,16,7,7,0.8,0.6
2023-03-06T20:00:00,1666A,118.6614,37.4309,东营市,市环保局,细颗粒物(PM2.5),185,212,160,139,95,176,125,159,156,49,37,15,27,1.1,1.3
2023-03-06T20:00:00,1669A,113.5824,24.7733,韶关市,市八中,,49,49,60,33,32,201,125,169,169,32,32,12,19,0.6,0.6
2023-03-06T20:00:00,1671A,113.5917,24.7972,韶关市,园林处,颗粒物(PM10),53,55,63,35,40,187,115,155,155,25,35,13,24,0.8,0.8
2023-03-06T20:00:00,1672A,113.6735,24.7791,韶关市,韶关学院,细颗粒物(PM2.5),83,78,96,61,48,201,139,176,176,39,37,20,26,1.1,0.8
2023-03-06T20:00:00,1673A,113.5971,24.6863,韶关市,曲江监测站,颗粒物(PM10),60,70,70,35,39,202,138,176,176,31,39,13,16,0.8,1
2023-03-06T20:00:00,1674A,116.6794,23.3667,汕头市,金平子站,,35,26,54,14,27,148,112,127,126,16,29,12,23,0.6,0.7
2023-03-06T20:00:00,1675A,116.7244,23.3633,汕头市,龙湖子站,,37,30,52,17,19,146,116,129,128,16,26,3,11,0.4,0.6
2023-03-06T20:00:00,1676A,116.7258,23.2775,汕头市,濠江子站,,37,20,46,14,20,140,116,126,126,13,20,9,18,0.5,0.6
2023-03-06T20:00:00,1677A,116.7519,23.4714,汕头市,澄海子站,,42,42,49,16,23,153,109,137,134,19,25,5,15,0.5,0.6
2023-03-06T20:00:00,1678A,116.6092,23.2539,汕头市,潮阳子站,,38,38,54,17,19,122,103,108,108,13,21,6,10,0.5,0.6
2023-03-06T20:00:00,1680A,110.3539,21.2706,湛江市,湛江影剧院,,49,49,48,24,22,149,129,139,138,10,13,6,6,0.5,0.6
2023-03-06T20:00:00,1681A,110.3928,21.2228,湛江市,市环境监测站,颗粒物(PM10),51,52,47,22,20,154,131,140,139,10,14,7,7,0.5,0.5
2023-03-06T20:00:00,1682A,110.4019,21.1997,湛江市,环保局宿舍,,48,48,45,27,23,160,137,143,143,8,10,5,5,0.4,0.5
2023-03-06T20:00:00,1683A,110.4111,21.2028,湛江市,霞山游泳场,颗粒物(PM10),51,52,44,23,22,171,145,149,148,7,12,4,4,0.4,0.5
2023-03-06T20:00:00,1684A,110.3316,21.2679,湛江市,麻章区环保局,颗粒物(PM10),54,58,49,23,24,154,137,147,146,13,14,6,6,0.4,0.5
2023-03-06T20:00:00,1685A,110.4558,21.2567,湛江市,坡头区环保局,颗粒物(PM10),51,52,45,22,24,157,137,148,146,9,10,7,7,0.5,0.6
2023-03-06T20:00:00,1686A,111.0286,21.4688,茂名市,电白南海,颗粒物(PM10),56,61,62,22,25,158,145,154,153,16,17,6,7,0.4,0.5
2023-03-06T20:00:00,1687A,110.9294,21.6533,茂名市,茂石化七小,颗粒物(PM10),58,66,60,31,33,154,136,144,143,16,15,7,10,0.5,0.5
2023-03-06T20:00:00,1688A,110.9107,21.6687,茂名市,健康路,,,,55,23,28,158,136,144,142,15,13,7,10,0.6,0.6
2023-03-06T20:00:00,1689A,110.8592,21.6828,茂名市,高岭,颗粒物(PM10),58,66,66,31,35,152,139,143,142,18,21,9,15,0.6,0.7
2023-03-06T20:00:00,1690A,116.1231,24.3284,梅州市,梅江月梅,细颗粒物(PM2.5),90,85,61,67,30,166,150,156,156,21,26,17,12,0.7,0.5
2023-03-06T20:00:00,1691A,116.0797,24.2719,梅州市,梅县新城,颗粒物(PM10),64,77,64,42,34,158,120,144,144,34,34,10,9,0.7,0.7
2023-03-06T20:00:00,1692A,116.1248,24.2654,梅州市,环境监控中心,颗粒物(PM10),56,61,61,36,32,170,110,155,151,45,44,10,11,0.7,0.6
2023-03-06T20:00:00,1693A,115.3653,22.775,汕尾市,市环保局,,41,28,48,23,22,142,131,134,134,9,12,10,11,0.3,0.4
2023-03-06T20:00:00,1694A,115.3706,22.7898,汕尾市,市政府,,44,36,52,25,26,144,139,140,140,10,16,10,11,0.2,0.3
2023-03-06T20:00:00,1695A,115.3622,22.7925,汕尾市,新城中学,,42,42,59,27,27,136,131,133,133,11,13,8,9,0.3,0.4
2023-03-06T20:00:00,1696A,114.6778,23.7569,河源市,源西,颗粒物(PM10),81,111,70,36,31,175,102,160,154,51,38,7,8,0.7,0.6
2023-03-06T20:00:00,1697A,114.6944,23.7586,河源市,东埔,颗粒物(PM10),83,116,77,46,34,178,109,164,160,40,26,6,7,1.0,0.7
2023-03-06T20:00:00,1698A,114.6892,23.7233,河源市,老城,颗粒物(PM10),73,96,84,48,32,177,111,160,155,34,26,5,7,0.7,0.7
2023-03-06T20:00:00,1699A,111.9797,21.8593,阳江市,鸳鸯湖,,49,26,46,19,23,163,155,154,154,10,17,8,8,0.6,0.7
2023-03-06T20:00:00,1701A,111.9491,21.8658,阳江市,马南垌,颗粒物(PM10),53,55,58,20,23,159,157,150,150,11,23,6,7,0.5,0.6
2023-03-06T20:00:00,1702A,113.0426,23.691,清远市,环保大楼,细颗粒物(PM2.5),90,104,72,67,50,258,181,218,218,60,41,8,8,1.1,0.8
2023-03-06T20:00:00,1703A,113.0208,23.7106,清远市,凤城街办,"颗粒物(PM10),细颗粒物(PM2.5)",85,119,79,63,45,211,124,176,176,64,31,8,8,0.9,0.7
2023-03-06T20:00:00,1705A,116.6367,23.6719,潮州市,西园路,颗粒物(PM10),53,55,49,32,28,154,105,132,132,22,16,5,5,0.3,0.3
2023-03-06T20:00:00,1706A,116.6447,23.6706,潮州市,档案局,细颗粒物(PM2.5),52,38,51,36,25,160,98,143,140,23,17,9,11,0.5,0.3
2023-03-06T20:00:00,1708A,116.3701,23.5345,揭阳市,新兴,,47,47,64,23,30,159,88,134,129,18,23,8,13,0.6,0.6
2023-03-06T20:00:00,1709A,116.3264,23.5443,揭阳市,西马,颗粒物(PM10),55,60,68,22,29,167,99,140,138,15,25,9,13,0.5,0.6
2023-03-06T20:00:00,1710A,116.3611,23.5626,揭阳市,东兴,颗粒物(PM10),51,52,69,19,29,177,102,150,147,27,40,8,11,0.7,0.6
2023-03-06T20:00:00,1711A,116.4151,23.5294,揭阳市,渔湖,,45,45,69,23,37,162,88,137,132,26,34,13,14,0.5,0.6
2023-03-06T20:00:00,1712A,112.0392,22.9169,云浮市,新市府,,49,48,49,34,37,161,118,152,149,15,16,3,4,0.7,0.7
2023-03-06T20:00:00,1714A,112.0539,22.9539,云浮市,牧羊,,50,50,81,28,42,156,139,147,147,19,33,9,10,0.6,0.8
2023-03-06T20:00:00,1715A,102.575,24.3711,玉溪市,东风水库,细颗粒物(PM2.5),74,80,67,54,54,122,109,116,116,16,13,10,10,1.0,1
2023-03-06T20:00:00,1718A,115.4208,35.2464,菏泽市,气象局,颗粒物(PM10),85,120,118,59,63,162,117,146,146,30,29,13,14,0.6,0.6
2023-03-06T20:00:00,1719A,115.4747,35.2375,菏泽市,市政协,颗粒物(PM10),77,103,110,51,57,168,132,155,155,22,21,8,11,0.6,0.6
2023-03-06T20:00:00,1721A,113.3819,40.1097,大同市,果树场,,,,,,,,,,,,,,,,
2023-03-06T20:00:00,1723A,113.2994,40.0758,大同市,云冈宾馆,颗粒物(PM10),59,68,120,22,38,110,65,96,94,50,49,15,22,0.4,1.1
2023-03-06T20:00:00,1724A,113.3444,40.0917,大同市,大同大学,颗粒物(PM10),58,65,80,32,33,109,52,102,93,62,34,11,26,0.7,1.1
2023-03-06T20:00:00,1725A,113.2661,40.1269,大同市,安家小村,颗粒物(PM10),59,67,119,31,55,104,90,95,95,9,37,6,21,0.2,2.2
2023-03-06T20:00:00,1726A,113.2711,40.0844,大同市,教育学院,颗粒物(PM10),61,71,108,36,42,97,52,88,86,49,45,16,23,0.3,1.2
2023-03-06T20:00:00,1727A,113.1147,36.1547,长治市,清华站,细颗粒物(PM2.5),79,96,88,58,50,153,69,127,126,66,44,11,12,0.6,0.8
2023-03-06T20:00:00,1728A,113.1031,36.1989,长治市,监测站,细颗粒物(PM2.5),94,92,82,70,50,141,51,122,119,74,40,8,9,0.9,0.7
2023-03-06T20:00:00,1730A,113.0886,36.2125,长治市,审计局,颗粒物(PM10),61,72,78,36,49,144,90,126,126,39,44,10,13,0.5,0.7
2023-03-06T20:00:00,1731A,113.0844,36.1856,长治市,长治八中,颗粒物(PM10),88,126,101,63,45,136,76,118,117,32,31,10,11,0.6,0.7
2023-03-06T20:00:00,1733A,111.5531,36.0783,临汾市,临钢医院,细颗粒物(PM2.5),134,204,133,102,60,146,88,119,119,67,44,34,13,1.5,1.1
2023-03-06T20:00:00,1734A,111.5028,36.0714,临汾市,技工学校,细颗粒物(PM2.5),137,183,124,104,63,147,107,120,120,54,56,35,17,1.5,1.1
2023-03-06T20:00:00,1736A,111.5018,36.0855,临汾市,市委,细颗粒物(PM2.5),129,160,132,98,63,166,127,137,137,48,53,34,14,1.6,1.4
2023-03-06T20:00:00,1738A,113.5758,37.8572,阳泉市,市中心,颗粒物(PM10),99,148,104,44,40,101,51,93,88,70,64,14,19,1.1,0.8
2023-03-06T20:00:00,1739A,113.4894,37.8731,阳泉市,赛鱼,颗粒物(PM10),81,111,100,24,46,102,13,94,77,93,69,11,19,0.7,0.8
2023-03-06T20:00:00,1740A,113.5819,37.8486,阳泉市,南庄,颗粒物(PM10),107,163,121,68,46,103,65,96,93,58,57,14,24,1.0,1.2
2023-03-06T20:00:00,1742A,113.5614,37.8703,阳泉市,平坦,颗粒物(PM10),93,136,105,62,46,104,51,97,92,74,66,15,21,1.0,0.8
2023-03-06T20:00:00,1743A,113.5158,37.8392,阳泉市,大阳泉,颗粒物(PM10),65,80,77,41,36,106,94,102,102,35,30,14,18,0.5,0.7
2023-03-06T20:00:00,1744A,118.9233,42.2816,赤峰市,松山一中,颗粒物(PM10),81,111,94,47,50,116,16,93,66,86,45,46,19,1.1,0.8
2023-03-06T20:00:00,1745A,118.9576,42.2728,赤峰市,哈达街,颗粒物(PM10),82,113,93,42,47,104,23,96,66,85,43,32,19,1.0,0.7
2023-03-06T20:00:00,1746A,118.8788,42.2554,赤峰市,天义路,颗粒物(PM10),61,72,84,34,42,118,20,106,70,83,42,18,16,0.9,0.8
2023-03-06T20:00:00,1748A,123.044,41.1196,鞍山市,深沟寺,细颗粒物(PM2.5),74,82,78,54,51,148,98,119,113,18,16,10,10,0.7,0.7
2023-03-06T20:00:00,1749A,123.011,41.0931,鞍山市,太阳城,细颗粒物(PM2.5),83,103,100,61,62,150,81,130,112,28,20,10,13,0.8,0.8
2023-03-06T20:00:00,1750A,123.0485,41.1442,鞍山市,太平,细颗粒物(PM2.5),84,105,88,62,52,121,80,107,98,38,27,10,12,0.6,0.6
2023-03-06T20:00:00,1751A,122.9642,41.0971,鞍山市,铁西三道街,细颗粒物(PM2.5),109,136,117,82,68,129,45,115,102,69,47,12,26,1.3,1.1
2023-03-06T20:00:00,1752A,122.9341,41.0833,鞍山市,铁西工业园区,,,,113,,69,133,19,120,98,116,38,18,18,2.7,1.4
2023-03-06T20:00:00,1753A,123.022,41.0821,鞍山市,明达新区,细颗粒物(PM2.5),83,99,94,61,60,155,101,135,119,21,20,8,10,0.7,0.7
2023-03-06T20:00:00,1754A,123.1289,41.0228,鞍山市,千山,,,,,,,,,,,,,,,,
2023-03-06T20:00:00,1755A,123.7977,41.8491,抚顺市,望花区,细颗粒物(PM2.5),150,155,92,115,68,121,45,106,93,67,24,30,18,1.5,0.7
2023-03-06T20:00:00,1756A,123.9161,41.8822,抚顺市,顺城区,细颗粒物(PM2.5),140,157,96,107,58,155,37,131,114,82,35,18,12,2.2,0.8
2023-03-06T20:00:00,1757A,124.0436,41.8611,抚顺市,东洲区,细颗粒物(PM2.5),123,138,93,93,60,148,85,138,121,28,17,8,16,0.8,0.8
2023-03-06T20:00:00,1758A,123.9247,41.8642,抚顺市,新抚区,细颗粒物(PM2.5),138,141,106,105,80,119,71,112,105,50,32,18,15,1.2,0.8
2023-03-06T20:00:00,1759A,124.0972,41.8961,抚顺市,大伙房水库,细颗粒物(PM2.5),118,122,88,89,59,159,118,144,140,23,16,9,10,0.8,0.7
2023-03-06T20:00:00,1760A,123.7086,41.8391,抚顺市,沈抚新城,细颗粒物(PM2.5),128,146,97,97,63,127,41,113,102,76,25,24,18,1.5,0.9
2023-03-06T20:00:00,1761A,123.8275,41.3064,本溪市,大峪,细颗粒物(PM2.5),73,91,80,53,43,122,84,109,106,27,21,5,6,0.7,0.7
2023-03-06T20:00:00,1762A,123.7567,41.3325,本溪市,溪湖,细颗粒物(PM2.5),87,94,82,64,48,117,76,111,103,34,28,16,22,0.9,1
2023-03-06T20:00:00,1763A,123.7169,41.3094,本溪市,彩屯,细颗粒物(PM2.5),172,199,112,130,65,90,24,73,61,76,62,16,62,1.9,3.1
2023-03-06T20:00:00,1764A,123.7669,41.2864,本溪市,东明,细颗粒物(PM2.5),84,73,57,62,44,110,69,106,100,54,26,10,11,1.0,0.7
2023-03-06T20:00:00,1765A,123.7992,41.2664,本溪市,新立屯,细颗粒物(PM2.5),87,97,70,64,47,121,35,111,88,80,25,8,9,0.9,0.7
2023-03-06T20:00:00,1766A,123.8142,41.3472,本溪市,威宁,细颗粒物(PM2.5),93,121,86,69,49,115,47,104,89,53,36,6,9,1.1,0.8
2023-03-06T20:00:00,1767A,121.1115,41.0879,锦州市,南山,细颗粒物(PM2.5),199,167,130,149,104,126,43,112,106,94,51,16,21,0.9,0.6
2023-03-06T20:00:00,1768A,121.0533,40.8434,锦州市,开发区,细颗粒物(PM2.5),156,171,119,119,89,110,18,94,87,105,42,12,25,1.0,0.8
2023-03-06T20:00:00,1769A,121.1836,41.1119,锦州市,百股街道,细颗粒物(PM2.5),214,158,102,164,101,116,29,104,95,102,47,49,29,1.6,0.8
2023-03-06T20:00:00,1770A,121.1178,41.1222,锦州市,天安街道,细颗粒物(PM2.5),186,175,141,140,106,121,28,103,96,117,51,34,22,1.7,1.3
2023-03-06T20:00:00,1771A,121.1303,41.1386,锦州市,北湖公园,细颗粒物(PM2.5),239,194,134,189,114,127,58,107,102,73,46,22,22,1.8,1.2
2023-03-06T20:00:00,1772A,126.54,43.8622,吉林市,哈达湾,细颗粒物(PM2.5),145,180,108,111,66,156,115,156,131,31,21,11,10,1.1,0.7
2023-03-06T20:00:00,1773A,126.5844,43.8358,吉林市,东局子,细颗粒物(PM2.5),150,184,118,115,74,154,59,154,113,70,33,12,11,1.3,0.9
2023-03-06T20:00:00,1774A,126.5052,43.8245,吉林市,电力学院,细颗粒物(PM2.5),221,261,117,171,77,158,50,158,119,80,24,24,12,1.9,0.9
2023-03-06T20:00:00,1775A,126.6133,43.8972,吉林市,江北,细颗粒物(PM2.5),176,201,119,133,77,153,57,152,109,57,30,20,14,1.8,0.9
2023-03-06T20:00:00,1776A,126.555,43.8306,吉林市,江南公园,细颗粒物(PM2.5),158,176,117,120,80,153,86,153,122,52,22,13,10,1.2,1.1
2023-03-06T20:00:00,1778A,126.7061,43.7133,吉林市,丰满,,,,,,,,,,,,,,,,
2023-03-06T20:00:00,1779A,123.9305,47.3636,齐齐哈尔市,安居小区,,30,30,31,19,25,101,85,96,91,8,11,4,5,0.2,0.3
2023-03-06T20:00:00,1780A,123.9488,47.3386,齐齐哈尔市,中心广场,,28,28,28,10,8,92,83,86,85,7,11,3,4,0.1,0.2
2023-03-06T20:00:00,1781A,123.9483,47.3227,齐齐哈尔市,农牧车辆厂,,25,22,35,11,13,86,78,82,82,7,13,4,4,0.3,0.3
2023-03-06T20:00:00,1783A,123.945,47.2988,齐齐哈尔市,市环境监测站,,29,29,30,2,12,96,83,90,88,9,14,6,7,0.3,0.3
2023-03-06T20:00:00,1784A,129.61,44.561,牡丹江市,环保大楼,细颗粒物(PM2.5),123,110,81,93,53,149,94,140,124,38,25,7,7,0.8,0.5
2023-03-06T20:00:00,1785A,129.6115,44.5782,牡丹江市,文化广场,细颗粒物(PM2.5),90,110,90,67,55,144,85,133,120,45,35,10,9,0.8,0.7
2023-03-06T20:00:00,1786A,129.5904,44.5963,牡丹江市,第一医院,细颗粒物(PM2.5),124,119,92,94,64,148,76,142,124,42,30,7,6,0.9,0.6
2023-03-06T20:00:00,1787A,129.6364,44.6075,牡丹江市,机车工厂,细颗粒物(PM2.5),107,128,95,80,53,147,82,135,124,37,35,2,2,1.3,0.8
2023-03-06T20:00:00,1788A,129.6386,44.5462,牡丹江市,第一中学,细颗粒物(PM2.5),115,131,86,87,50,152,68,144,127,42,23,7,6,0.9,0.6
2023-03-06T20:00:00,1789A,124.81117,46.03138,大庆市,大同区,细颗粒物(PM2.5),118,139,77,89,41,114,32,82,72,62,23,27,7,1.8,0.7
2023-03-06T20:00:00,1790A,125.129,46.533,大庆市,龙凤区,颗粒物(PM10),69,87,52,44,28,87,31,82,73,64,25,8,7,0.7,0.6
2023-03-06T20:00:00,1791A,124.902,46.408,大庆市,红岗区,,35,35,51,10,31,118,57,87,81,37,20,10,9,0.5,0.4
2023-03-06T20:00:00,1792A,125.153,46.586,大庆市,萨尔图区,,20,20,61,11,35,100,59,76,74,28,24,6,9,0.5,0.5
2023-03-06T20:00:00,1793A,124.9042,46.6215,大庆市,让胡路区,,39,32,43,27,32,98,59,94,87,42,17,5,5,0.7,0.2
2023-03-06T20:00:00,1794A,118.3606,31.3519,芜湖市,监测站,颗粒物(PM10),63,75,82,38,41,155,55,135,127,114,70,7,9,0.8,0.7
2023-03-06T20:00:00,1795A,118.3714,31.4134,芜湖市,科创中心,颗粒物(PM10),74,97,96,47,49,135,38,120,106,124,83,7,8,0.8,0.8
2023-03-06T20:00:00,1796A,118.3673,31.3131,芜湖市,四水厂,颗粒物(PM10),63,76,87,42,42,152,52,120,111,111,66,8,9,0.7,0.6
2023-03-06T20:00:00,1798A,118.5092,31.6837,马鞍山市,湖东路四小,颗粒物(PM10),74,97,88,39,54,157,81,139,132,73,54,9,11,1.1,1.1
2023-03-06T20:00:00,1799A,118.5024,31.6449,马鞍山市,开发区,颗粒物(PM10),96,142,110,45,57,153,50,132,122,101,67,11,13,0.8,1
2023-03-06T20:00:00,1800A,118.5228,31.7231,马鞍山市,慈湖,颗粒物(PM10),82,113,112,43,58,150,86,134,127,72,53,10,13,0.8,0.9
2023-03-06T20:00:00,1802A,118.6245,31.7241,马鞍山市,濮塘,,,,,,,,,,,,,,,,
2023-03-06T20:00:00,1803A,115.9872,29.6815,九江市,十里,颗粒物(PM10),53,55,75,26,35,166,93,144,140,41,54,9,10,0.7,0.8
2023-03-06T20:00:00,1804A,115.9584,29.7046,九江市,茅山头,颗粒物(PM10),57,64,80,37,40,165,96,149,141,31,55,9,10,0.8,0.8
2023-03-06T20:00:00,1805A,115.9877,29.7295,九江市,西园,,50,50,75,34,42,149,117,133,133,28,63,9,10,0.7,0.8
2023-03-06T20:00:00,1806A,116.0172,29.6547,九江市,五七二七厂,,46,46,51,15,22,145,134,138,138,13,22,8,10,0.4,0.4
2023-03-06T20:00:00,1808A,115.9114,29.6038,九江市,综合工业园,细颗粒物(PM2.5),70,86,69,51,40,147,80,131,125,76,37,11,12,0.9,0.9
2023-03-06T20:00:00,1809A,116.0721,29.7535,九江市,石化总厂,颗粒物(PM10),56,61,75,30,34,146,92,134,129,54,42,48,18,0.6,0.7
2023-03-06T20:00:00,1810A,115.9773,29.5698,九江市,庐山气象台,,34,28,29,14,17,128,107,115,112,13,12,8,8,0.7,0.6
2023-03-06T20:00:00,1812A,112.3931,34.6516,洛阳市,市委党校,颗粒物(PM10),82,113,125,52,62,147,112,131,131,47,61,13,12,0.9,0.9
2023-03-06T20:00:00,1814A,112.4657,34.6871,洛阳市,豫西宾馆,细颗粒物(PM2.5),89,99,135,66,70,163,76,138,136,79,66,10,11,1.1,0.8
2023-03-06T20:00:00,1815A,112.494,34.6886,洛阳市,河南林校,颗粒物(PM10),76,101,128,54,71,156,83,132,131,58,58,8,9,1.1,0.8
2023-03-06T20:00:00,1816A,112.3844,34.623,洛阳市,开发区管委会,颗粒物(PM10),73,95,88,52,55,154,110,136,136,37,30,9,8,0.6,0.5
2023-03-06T20:00:00,1817A,112.4267,34.6258,洛阳市,市委新办公区,细颗粒物(PM2.5),94,86,93,70,65,153,111,135,135,40,43,8,8,0.5,0.5
2023-03-06T20:00:00,1818A,114.4839,36.0621,安阳市,棉研所,,,,,,,,,,,,,,,,
2023-03-06T20:00:00,1819A,114.3551,36.1017,安阳市,红庙街,细颗粒物(PM2.5),152,164,139,116,90,160,54,130,127,91,55,12,17,1.6,1
2023-03-06T20:00:00,1820A,114.361,36.0681,安阳市,银杏小区,细颗粒物(PM2.5),145,190,135,111,99,165,40,133,128,111,53,13,16,1.8,1
2023-03-06T20:00:00,1824A,114.3389,34.7781,开封市,肿瘤医院,细颗粒物(PM2.5),83,107,116,61,68,170,98,147,144,27,36,8,8,0.6,0.6
2023-03-06T20:00:00,1826A,114.2885,34.7965,开封市,世纪星幼儿园,颗粒物(PM10),80,109,117,57,74,168,100,148,144,29,35,12,11,0.6,0.6
2023-03-06T20:00:00,1828A,113.227,35.2125,焦作市,市环保局,细颗粒物(PM2.5),110,158,131,83,66,148,137,135,135,31,40,14,10,1.3,0.9
2023-03-06T20:00:00,1830A,113.1992,35.2590,焦作市,影视城,,,,,,,,,,,,,,,,
2023-03-06T20:00:00,1832A,113.3257,33.742,平顶山市,新华旅馆,颗粒物(PM10),75,99,95,53,51,158,125,144,144,24,36,9,9,0.9,0.9
2023-03-06T20:00:00,1833A,113.2919,33.737,平顶山市,规划设计院,细颗粒物(PM2.5),87,95,90,64,54,160,119,147,145,26,36,7,7,0.8,0.7
2023-03-06T20:00:00,1834A,113.182,33.774,平顶山市,平顶山工学院,颗粒物(PM10),78,105,93,51,49,150,116,139,137,13,13,7,7,0.6,0.6
2023-03-06T20:00:00,1835A,111.1922,34.7752,三门峡市,市政府,细颗粒物(PM2.5),156,134,101,119,66,161,61,128,127,108,64,13,16,1.6,0.8
2023-03-06T20:00:00,1836A,111.1587,34.7942,三门峡市,开发区,细颗粒物(PM2.5),123,158,131,93,63,173,114,138,138,53,44,8,15,0.9,0.8
2023-03-06T20:00:00,1838A,111.143,34.7955,三门峡市,风景区,,,,,,,,,,,,,,,,
2023-03-06T20:00:00,1840A,111.2992,30.6981,宜昌市,白龙岗,颗粒物(PM10),58,66,69,34,42,147,76,115,115,69,38,15,12,0.8,0.7
2023-03-06T20:00:00,1841A,111.3549,30.6465,宜昌市,伍家岗,颗粒物(PM10),63,76,85,41,47,157,66,129,127,64,39,12,10,0.9,0.7
2023-03-06T20:00:00,1842A,111.2628,30.6961,宜昌市,点军区,颗粒物(PM10),64,77,79,41,48,124,97,111,111,41,33,10,7,0.7,0.7
2023-03-06T20:00:00,1843A,111.3275,30.7819,宜昌市,夷陵区,颗粒物(PM10),62,74,68,41,41,148,100,122,122,33,30,10,8,0.6,0.6
2023-03-06T20:00:00,1844A,112.2494,30.3197,荆州市,市图书馆,细颗粒物(PM2.5),69,80,67,50,47,158,97,142,138,44,29,13,11,0.9,0.7
2023-03-06T20:00:00,1845A,112.2008,30.3544,荆州市,市委党校,细颗粒物(PM2.5),79,77,65,58,49,152,82,136,133,56,27,14,12,0.9,0.7
2023-03-06T20:00:00,1847A,113.1094,29.3578,岳阳市,南湖风景区,颗粒物(PM10),60,70,62,35,40,159,73,147,141,84,49,11,13,0.8,0.3
2023-03-06T20:00:00,1848A,113.1493,29.4251,岳阳市,城陵矶,颗粒物(PM10),53,56,74,32,34,157,133,145,145,28,48,7,9,0.7,0.6
2023-03-06T20:00:00,1849A,113.1497,29.3575,岳阳市,开发区,细颗粒物(PM2.5),59,57,56,42,39,162,115,149,148,33,30,9,12,0.6,0.6
2023-03-06T20:00:00,1850A,113.2621,29.4758,岳阳市,云溪区,细颗粒物(PM2.5),84,81,57,62,35,158,63,143,135,58,25,7,6,0.9,0.5
2023-03-06T20:00:00,1851A,112.9943,29.4402,岳阳市,君山区,细颗粒物(PM2.5),67,54,55,48,38,156,97,148,138,42,31,8,10,0.6,0.6
2023-03-06T20:00:00,1852A,113.2117,29.355,岳阳市,金凤水库,颗粒物(PM10),55,60,66,28,31,154,126,147,142,24,26,8,6,0.6,0.7
2023-03-06T20:00:00,1854A,111.6975,28.9703,常德市,市二中,细颗粒物(PM2.5),75,77,56,55,42,147,108,126,126,26,23,11,14,0.7,0.5
2023-03-06T20:00:00,1857A,111.7158,29.1456,常德市,白鹤山,细颗粒物(PM2.5),58,56,53,41,33,146,126,130,130,14,18,8,8,0.7,0.7
2023-03-06T20:00:00,1858A,110.5319,29.1217,张家界市,永定新区,细颗粒物(PM2.5),82,105,64,60,36,109,36,86,79,48,30,5,4,0.7,0.5
2023-03-06T20:00:00,1859A,110.4697,29.1242,张家界市,电业局,颗粒物(PM10),90,130,61,64,34,118,7,76,66,98,41,8,6,1.7,0.7
2023-03-06T20:00:00,1860A,110.5594,29.3547,张家界市,未央路,颗粒物(PM10),56,62,45,36,25,129,40,108,99,33,19,6,6,0.6,0.5
2023-03-06T20:00:00,1861A,110.4417,29.315,张家界市,袁家界,,41,41,49,26,33,219,115,219,116,12,13,9,8,0.6,1.7
2023-03-06T20:00:00,1862A,110.4144,25.3167,桂林市,电子科大尧山校区,细颗粒物(PM2.5),60,58,49,43,36,141,80,126,118,14,11,3,4,0.6,0.7
2023-03-06T20:00:00,1863A,110.2819,25.2697,桂林市,监测站,细颗粒物(PM2.5),102,92,86,76,61,136,67,108,106,44,39,8,20,1.0,0.9
2023-03-06T20:00:00,1864A,110.3089,25.2708,桂林市,龙隐路小学,细颗粒物(PM2.5),87,83,68,64,51,135,62,111,107,40,36,8,28,0.9,0.7
2023-03-06T20:00:00,1865A,110.2869,25.2178,桂林市,八中,细颗粒物(PM2.5),99,95,68,74,51,138,39,106,100,53,34,6,10,0.7,0.5
2023-03-06T20:00:00,1866A,109.2262,21.588,北海市,牛尾岭水库,,44,44,51,25,37,161,133,148,147,7,10,7,13,0.5,0.6
2023-03-06T20:00:00,1867A,109.1436,21.4086,北海市,海滩公园,,50,50,55,22,27,177,140,151,147,5,8,5,8,0.6,0.6
2023-03-06T20:00:00,1868A,109.0981,21.4661,北海市,新市环保局,,44,44,47,27,30,178,139,150,144,10,12,3,4,0.5,0.6
2023-03-06T20:00:00,1869A,109.1778,21.5233,北海市,北海工业园,,43,43,65,29,41,173,137,145,144,8,13,5,11,0.7,0.8
2023-03-06T20:00:00,1870A,109.4856,24.3895,柳州市,柳东小学,细颗粒物(PM2.5),196,134,98,147,88,146,77,76,76,24,35,11,16,1.6,1.3
2023-03-06T20:00:00,1871A,109.4157,24.3277,柳州市,环保监测站,细颗粒物(PM2.5),127,163,96,96,64,108,30,89,86,61,46,14,7,1.7,1.2
2023-03-06T20:00:00,1872A,109.389,24.341,柳州市,河西水厂,细颗粒物(PM2.5),198,184,127,148,84,114,31,84,80,48,51,14,10,1.6,1.6
2023-03-06T20:00:00,1873A,109.4311,24.2921,柳州市,市四中,颗粒物(PM10),103,156,99,68,60,133,,111,111,29,47,11,10,1.1,1.1
2023-03-06T20:00:00,1874A,109.4006,24.3631,柳州市,市九中,细颗粒物(PM2.5),165,208,122,125,69,88,30,64,64,52,53,18,12,1.6,1.3
2023-03-06T20:00:00,1875A,109.4958,24.3134,柳州市,古亭山,细颗粒物(PM2.5),125,113,80,95,60,111,82,86,86,21,51,6,6,0.9,0.8
2023-03-06T20:00:00,1876A,109.5078,18.2489,三亚市,河东子站,,44,44,42,18,22,138,112,131,111,7,7,3,3,0.5,0.5
2023-03-06T20:00:00,1877A,109.4964,18.2681,三亚市,河西子站,,46,46,41,20,22,138,110,131,115,5,6,3,3,0.4,0.5
2023-03-06T20:00:00,1878A,104.7778,31.4741,绵阳市,富乐山,"颗粒物(PM10),细颗粒物(PM2.5)",55,59,63,39,47,139,100,116,116,12,27,6,5,0.5,0.6
2023-03-06T20:00:00,1879A,104.7563,31.4535,绵阳市,市人大,细颗粒物(PM2.5),74,59,81,54,54,129,93,100,100,18,44,7,9,0.6,0.7
2023-03-06T20:00:00,1880A,104.6697,31.4668,绵阳市,高新区自来水公司,细颗粒物(PM2.5),57,48,80,40,56,142,98,113,113,15,34,7,7,0.5,0.6
2023-03-06T20:00:00,1881A,104.7287,31.5075,绵阳市,三水厂,颗粒物(PM10),55,60,87,38,53,134,89,111,111,22,43,5,6,0.5,0.7
2023-03-06T20:00:00,1882A,104.563,28.793,宜宾市,石马中学,细颗粒物(PM2.5),107,107,84,80,58,124,86,108,108,40,40,14,14,0.8,0.9
2023-03-06T20:00:00,1883A,104.6201,28.7728,宜宾市,市委,细颗粒物(PM2.5),97,107,96,72,66,125,104,112,112,27,46,17,16,0.8,0.8
2023-03-06T20:00:00,1884A,104.6055,28.793,宜宾市,宜宾四中,细颗粒物(PM2.5),102,106,94,76,70,124,92,111,111,40,46,12,18,0.8,0.8
2023-03-06T20:00:00,1885A,104.639,28.7562,宜宾市,市政府,细颗粒物(PM2.5),104,101,95,78,69,128,84,106,106,50,57,14,15,0.8,0.8
2023-03-06T20:00:00,1886A,104.5742,28.7199,宜宾市,黄金嘴,细颗粒物(PM2.5),94,94,91,70,63,133,104,119,119,31,50,14,19,0.7,0.8
2023-03-06T20:00:00,1888A,101.6891,26.571,攀枝花市,弄弄坪,细颗粒物(PM2.5),57,59,87,40,56,128,102,120,120,27,38,17,22,1.8,1.7
2023-03-06T20:00:00,1889A,101.5769,26.5928,攀枝花市,河门口,,46,46,62,31,42,130,121,126,126,11,25,7,14,0.5,1.1
2023-03-06T20:00:00,1890A,101.7169,26.585,攀枝花市,炳草岗,颗粒物(PM10),55,60,106,34,60,134,78,117,116,54,59,11,18,1.1,1.6
2023-03-06T20:00:00,1891A,101.7369,26.5008,攀枝花市,仁和,细颗粒物(PM2.5),73,85,59,53,42,135,76,128,124,36,19,8,10,1.0,0.8
2023-03-06T20:00:00,1893A,105.4324,28.9634,泸州市,九狮山,细颗粒物(PM2.5),82,102,78,60,53,86,50,62,62,29,26,14,16,0.5,0.5
2023-03-06T20:00:00,1894A,105.4427,28.9063,泸州市,小市上码头,细颗粒物(PM2.5),113,123,110,85,78,89,70,60,60,31,50,20,19,0.9,1.1
2023-03-06T20:00:00,1895A,105.4241,28.8573,泸州市,兰田宪桥,细颗粒物(PM2.5),132,129,105,100,82,69,30,53,53,63,44,16,16,0.9,0.8
2023-03-06T20:00:00,1896A,105.4379,28.8833,泸州市,市环监站,细颗粒物(PM2.5),107,124,107,80,74,84,40,49,49,52,48,13,20,0.8,0.8
2023-03-06T20:00:00,1901A,104.4239,31.1208,德阳市,东山公园,细颗粒物(PM2.5),72,55,76,52,58,135,103,122,122,18,24,3,4,0.6,0.6
2023-03-06T20:00:00,1902A,104.3826,31.1317,德阳市,西小区,细颗粒物(PM2.5),72,61,79,52,66,135,102,120,120,22,29,4,6,0.7,0.7
2023-03-06T20:00:00,1904A,104.3553,31.1091,德阳市,耐火材料厂,"颗粒物(PM10),细颗粒物(PM2.5)",58,66,77,41,63,139,107,124,124,20,31,3,5,0.6,0.6
2023-03-06T20:00:00,1905A,106.056,30.8064,南充市,西山风景区,,,,,,,,,,,,,,,,
2023-03-06T20:00:00,1906A,106.0789,30.8023,南充市,南充市委,细颗粒物(PM2.5),58,58,71,41,45,80,37,71,55,41,34,8,11,0.9,0.7
2023-03-06T20:00:00,1907A,106.1031,30.8217,南充市,南充炼油厂,细颗粒物(PM2.5),52,43,74,36,48,88,63,81,66,19,35,7,12,0.5,0.6
2023-03-06T20:00:00,1908A,106.1064,30.7856,南充市,高坪区监测站,细颗粒物(PM2.5),60,65,74,43,56,86,39,76,56,37,40,6,11,0.9,0.8
2023-03-06T20:00:00,1909A,106.0642,30.7636,南充市,嘉陵区环保局,细颗粒物(PM2.5),70,78,78,51,50,92,17,79,53,62,49,7,11,0.9,0.8
2023-03-06T20:00:00,1910A,106.1087,30.8388,南充市,市环境监测站,细颗粒物(PM2.5),63,51,73,45,52,88,58,84,70,25,32,9,20,0.7,0.7
2023-03-06T20:00:00,1911A,106.9222,27.6869,遵义市,丁字口,细颗粒物(PM2.5),65,65,47,47,36,49,17,38,38,56,46,36,31,1.2,1.1
2023-03-06T20:00:00,1912A,106.9242,27.7019,遵义市,凤凰山,细颗粒物(PM2.5),54,53,45,38,24,71,38,54,54,38,31,7,11,1.0,0.8
2023-03-06T20:00:00,1913A,106.8906,27.6486,遵义市,忠庄,颗粒物(PM10),60,69,64,42,35,56,30,42,42,34,36,9,10,1.1,1.1
2023-03-06T20:00:00,1914A,106.9231,27.6506,遵义市,舟水桥,细颗粒物(PM2.5),75,65,75,55,47,78,17,41,41,51,30,48,20,1.2,1.1
2023-03-06T20:00:00,1915A,106.9178,27.72,遵义市,干田坝,细颗粒物(PM2.5),55,54,41,39,30,68,28,54,54,43,37,8,13,1.0,0.9
2023-03-06T20:00:00,1916A,103.7897,25.5035,曲靖市,环境监测站,"颗粒物(PM10),细颗粒物(PM2.5)",60,70,68,43,47,144,104,127,126,18,14,7,8,0.9,1
2023-03-06T20:00:00,1917A,103.8,25.5364,曲靖市,烟厂办公区,颗粒物(PM10),53,55,67,30,43,143,119,132,132,16,14,4,4,0.7,0.9
2023-03-06T20:00:00,1918A,108.7197,34.3956,咸阳市,气象站,细颗粒物(PM2.5),79,85,137,58,102,138,74,107,107,88,87,12,13,0.5,0.6
2023-03-06T20:00:00,1919A,108.673,34.3155,咸阳市,实验中学,细颗粒物(PM2.5),112,160,166,84,107,158,34,124,122,113,75,7,9,1.3,1.1
2023-03-06T20:00:00,1920A,108.7233,34.3617,咸阳市,师范学院,细颗粒物(PM2.5),102,141,159,76,102,150,94,122,122,46,72,7,9,1.0,0.9
2023-03-06T20:00:00,1922A,109.0656,35.0994,铜川市,党校,颗粒物(PM10),120,190,118,57,42,137,47,125,114,85,66,19,17,1.0,0.9
2023-03-06T20:00:00,1923A,109.0697,35.0697,铜川市,王益区政府,细颗粒物(PM2.5),124,168,113,94,62,139,48,121,114,70,49,9,8,1.0,0.8
2023-03-06T20:00:00,1924A,108.9344,34.9058,铜川市,新区管委会,细颗粒物(PM2.5),102,114,93,76,58,147,66,130,126,84,38,14,12,1.0,0.7
2023-03-06T20:00:00,1926A,109.4131,36.6275,延安市,枣园,,,101,62,56,28,128,,110,110,,38,,6,,0.8
2023-03-06T20:00:00,1927A,109.4761,36.6028,延安市,延大医附院,细颗粒物(PM2.5),105,88,58,79,31,116,8,92,83,93,46,10,8,1.7,1.1
2023-03-06T20:00:00,1929A,109.5056,36.6106,延安市,百米大道,颗粒物(PM10),68,86,78,36,36,113,11,87,81,94,56,7,5,1.0,0.9
2023-03-06T20:00:00,1930A,107.185,34.3063,宝鸡市,庙沟村,,39,39,62,20,41,121,101,112,112,12,23,4,6,0.6,0.7
2023-03-06T20:00:00,1931A,107.0708,34.3017,宝鸡市,竹园沟,颗粒物(PM10),52,54,63,31,41,135,70,116,114,39,28,7,6,0.6,0.6
2023-03-06T20:00:00,1932A,107.1906,34.3672,宝鸡市,三陆医院,颗粒物(PM10),67,84,105,29,55,126,19,106,103,99,51,8,13,0.9,0.6
2023-03-06T20:00:00,1933A,107.1431,34.3547,宝鸡市,监测站,颗粒物(PM10),56,62,84,37,51,127,67,102,102,37,42,4,5,0.4,0.6
2023-03-06T20:00:00,1934A,107.1186,34.3739,宝鸡市,技工学校,颗粒物(PM10),58,66,95,30,57,125,67,106,106,47,39,9,10,0.6,0.6
2023-03-06T20:00:00,1935A,107.3906,34.3528,宝鸡市,陈仓区环保局家属楼,颗粒物(PM10),82,114,120,55,72,123,34,99,98,92,54,13,40,1.0,0.9
2023-03-06T20:00:00,1936A,107.2058,34.3497,宝鸡市,文理学院,颗粒物(PM10),83,116,97,43,52,127,9,106,99,102,48,9,11,1.0,0.6
2023-03-06T20:00:00,1937A,107.2386,34.3622,宝鸡市,三迪小学,颗粒物(PM10),75,99,105,40,55,120,19,102,98,111,61,10,13,1.1,0.7
2023-03-06T20:00:00,1938A,109.5293,34.5101,渭南市,农科所,颗粒物(PM10),93,136,154,66,81,140,11,93,90,137,63,11,13,1.0,1
2023-03-06T20:00:00,1939A,109.4974,34.4877,渭南市,日报社,细颗粒物(PM2.5),125,188,159,95,92,134,0,100,95,157,80,11,12,1.1,1
2023-03-06T20:00:00,1940A,109.4636,34.493,渭南市,体育馆,细颗粒物(PM2.5),109,127,151,82,96,150,13,106,103,146,82,10,15,0.8,0.9
2023-03-06T20:00:00,1941A,109.4259,34.5023,渭南市,高新一小,细颗粒物(PM2.5),119,147,164,90,103,138,48,98,98,87,72,11,13,0.9,0.9
2023-03-06T20:00:00,1943A,102.1725,38.5339,金昌市,新川苑,颗粒物(PM10),52,54,79,15,21,109,50,103,96,56,25,12,31,0.8,0.7
2023-03-06T20:00:00,1944A,102.1692,38.5167,金昌市,天庆家园,,39,39,78,14,28,109,59,104,100,45,32,8,40,0.7,0.8
2023-03-06T20:00:00,1945A,98.2908,39.7711,嘉峪关市,气象局,颗粒物(PM10),59,68,68,19,23,113,83,100,100,27,28,13,10,0.2,0.2
2023-03-06T20:00:00,1947A,106.3394,38.817,石嘴山市,沙湖旅游区,颗粒物(PM10),55,60,94,27,42,121,85,108,107,21,32,10,20,0.3,0.6
2023-03-06T20:00:00,1948A,106.3668,39.0145,石嘴山市,大武口朝阳西街,颗粒物(PM10),58,66,70,26,27,112,60,101,98,62,24,15,20,0.6,0.6
2023-03-06T20:00:00,1949A,106.7704,39.2282,石嘴山市,惠农南大街,"二氧化硫,颗粒物(PM10)",61,71,100,34,34,108,61,92,92,50,49,225,47,0.9,1.1
2023-03-06T20:00:00,1950A,106.7099,39.1325,石嘴山市,红果子镇惠新街,细颗粒物(PM2.5),64,69,86,46,43,109,38,93,91,66,36,15,38,0.6,1
2023-03-06T20:00:00,1951A,84.895,45.6094,克拉玛依市,长征新村,细颗粒物(PM2.5),82,110,76,60,38,119,113,90,90,27,32,8,6,0.7,0.5
2023-03-06T20:00:00,1952A,84.8988,45.5893,克拉玛依市,南林小区,颗粒物(PM10),77,103,78,50,42,120,119,94,94,20,34,4,3,0.5,0.5
2023-03-06T20:00:00,1954A,84.905,44.3396,克拉玛依市,独山子区,颗粒物(PM10),70,89,95,32,50,107,86,93,93,37,23,9,10,0.9,0.8
2023-03-06T20:00:00,1955A,85.6979,46.098,克拉玛依市,乌尔禾区商贸楼,细颗粒物(PM2.5),82,86,74,60,51,136,118,126,126,22,24,9,9,0.7,1.3
2023-03-06T20:00:00,1956A,86.1472,41.7538,巴音郭楞州,孔雀公园,颗粒物(PM10),136,222,238,44,63,127,104,108,108,7,38,3,5,0.3,0.6
2023-03-06T20:00:00,1957A,86.1972,41.7166,巴音郭楞州,棉纺厂,颗粒物(PM10),160,269,283,44,68,108,92,95,95,19,33,3,4,0.5,0.6
2023-03-06T20:00:00,1958A,86.2357,41.7173,巴音郭楞州,经济开发区,颗粒物(PM10),143,236,231,46,55,115,103,102,102,16,22,5,6,0.4,0.5
2023-03-06T20:00:00,1961A,117.532,36.6868,济南市,东山小学,细颗粒物(PM2.5),160,212,149,122,67,178,116,167,163,62,29,13,13,1.2,0.8
2023-03-06T20:00:00,1966A,120.0405,35.8735,青岛市,黄岛区4号,细颗粒物(PM2.5),92,102,53,68,32,111,103,102,99,53,33,7,6,0.8,0.6
2023-03-06T20:00:00,1982A,122.0693,37.2174,威海市,文登开发区,颗粒物(PM10),62,73,64,39,33,140,95,123,121,28,23,5,5,0.5,0.4
2023-03-06T20:00:00,2031A,113.1817,27.9958,株洲市,云田中学,"颗粒物(PM10),细颗粒物(PM2.5)",70,90,64,51,38,157,111,142,141,25,25,11,11,0.8,0.7
2023-03-06T20:00:00,2054A,114.1099,32.1059,信阳市,平桥分局,颗粒物(PM10),61,72,62,37,34,149,117,142,139,32,26,12,12,0.7,0.7
2023-03-06T20:00:00,2064A,113.9956,32.1271,信阳市,南湾水厂,颗粒物(PM10),53,56,67,29,35,162,146,154,154,11,12,11,11,0.5,0.6
2023-03-06T20:00:00,2065A,114.0775,32.1195,信阳市,市酿酒公司,颗粒物(PM10),66,81,57,44,43,152,122,144,140,26,24,11,11,0.5,0.5
2023-03-06T20:00:00,2066A,114.0609,32.1399,信阳市,审计局,细颗粒物(PM2.5),53,50,64,37,42,157,135,149,148,22,20,11,11,0.5,0.6
2023-03-06T20:00:00,2067A,114.6613,33.6128,周口市,市环境监测站,颗粒物(PM10),115,179,96,47,46,151,72,130,120,56,25,11,9,0.9,0.6
2023-03-06T20:00:00,2068A,114.6758,33.6347,周口市,周口师范,颗粒物(PM10),67,84,87,43,44,151,116,139,138,32,25,11,9,0.6,0.5
2023-03-06T20:00:00,2069A,114.6546,33.5979,周口市,市运管处,颗粒物(PM10),74,97,86,51,48,151,101,136,133,52,27,14,9,0.6,0.5
2023-03-06T20:00:00,2070A,114.6369,33.6406,周口市,川汇区环保局,"颗粒物(PM10),细颗粒物(PM2.5)",70,90,85,51,49,146,111,132,132,29,21,7,6,0.8,0.6
2023-03-06T20:00:00,2075A,117.6336,24.4674,漳州市,九湖,,,,,,,,,,,,,,,,
2023-03-06T20:00:00,2160A,112.85,35.5051,晋城市,自来水公司,颗粒物(PM10),60,69,103,22,46,142,111,130,130,37,59,13,20,0.7,1.8
2023-03-06T20:00:00,2161A,112.8318,35.4936,晋城市,白云商贸,颗粒物(PM10),64,78,108,22,46,136,110,126,126,28,39,9,13,0.9,1.9
2023-03-06T20:00:00,2162A,112.8508,35.4887,晋城市,市环保局,颗粒物(PM10),64,78,108,27,48,139,102,130,129,37,51,12,18,1.0,1.8
2023-03-06T20:00:00,2163A,112.8676,35.4897,晋城市,技术学院,颗粒物(PM10),60,69,95,31,53,135,106,126,126,33,57,8,14,0.8,1.7
2023-03-06T20:00:00,2165A,112.8453,35.546,晋城市,白马寺,,,,,,,,,,,,,,,,
2023-03-06T20:00:00,2166A,112.4397,39.3522,朔州市,平朔,颗粒物(PM10),78,105,136,50,44,97,48,88,84,38,45,9,18,0.5,0.5
2023-03-06T20:00:00,2167A,112.4575,39.3617,朔州市,朔唯,颗粒物(PM10),81,112,154,53,55,106,51,95,91,44,56,10,27,0.6,0.6
2023-03-06T20:00:00,2168A,112.4258,39.3197,朔州市,区政府,颗粒物(PM10),67,84,114,42,38,108,49,99,93,42,31,5,11,0.5,0.5
2023-03-06T20:00:00,2169A,112.4072,39.3278,朔州市,市环保局,颗粒物(PM10),86,121,110,36,42,98,36,89,82,50,34,8,10,0.7,0.6
2023-03-06T20:00:00,2170A,112.4272,39.3681,朔州市,市二中,细颗粒物(PM2.5),110,100,157,83,55,101,55,92,89,47,50,14,18,0.6,0.5
2023-03-06T20:00:00,2171A,112.7532,37.6945,晋中市,锦纶小区,颗粒物(PM10),76,102,116,34,53,126,66,108,106,52,50,9,17,0.5,0.6
2023-03-06T20:00:00,2173A,112.7249,37.7067,晋中市,南都小区,颗粒物(PM10),73,96,143,42,50,121,56,107,104,56,56,12,19,0.5,0.7
2023-03-06T20:00:00,2174A,112.6991,37.6982,晋中市,榆次区政府,颗粒物(PM10),63,76,132,30,42,122,69,107,105,46,57,13,20,0.4,0.7
2023-03-06T20:00:00,2175A,110.9956,35.0147,运城市,运城中学,颗粒物(PM10),89,127,133,63,79,165,124,148,148,36,32,13,24,0.8,1
2023-03-06T20:00:00,2178A,110.9686,35.0303,运城市,地区技校,细颗粒物(PM2.5),92,124,151,68,79,187,120,163,163,55,41,14,20,0.8,0.9
2023-03-06T20:00:00,2179A,111.0414,35.1147,运城市,空港新区,细颗粒物(PM2.5),105,150,163,79,87,189,90,163,160,81,55,16,32,1.0,1.2
2023-03-06T20:00:00,2181A,112.7383,38.4519,忻州市,开发区,颗粒物(PM10),87,123,85,41,38,117,13,93,89,93,52,6,8,0.5,0.5
2023-03-06T20:00:00,2182A,112.7003,38.4928,忻州市,会展中心,颗粒物(PM10),105,160,103,40,44,110,10,84,80,90,47,5,8,0.7,0.7
2023-03-06T20:00:00,2183A,111.1406,37.5211,吕梁市,环保局,颗粒物(PM10),117,183,108,24,28,104,7,62,58,90,63,9,9,0.8,0.7
2023-03-06T20:00:00,2185A,111.1297,37.5136,吕梁市,自来水公司,颗粒物(PM10),80,109,119,27,28,104,35,76,74,57,50,8,13,0.8,0.6
2023-03-06T20:00:00,2187A,106.8174,39.6973,乌海市,市林业局,,36,36,55,17,23,116,102,111,110,8,21,7,9,0.6,0.7
2023-03-06T20:00:00,2188A,106.7907,39.6667,乌海市,中海勃湾学校,,46,46,60,21,25,116,90,112,110,22,28,8,10,0.4,0.5
2023-03-06T20:00:00,2191A,122.2532,43.6801,通辽市,艺术职业学校,,50,50,101,18,47,110,56,93,87,55,32,40,15,0.3,0.4
2023-03-06T20:00:00,2192A,119.7594,49.2261,呼伦贝尔市,区环保局,,28,28,27,17,16,93,85,88,88,4,5,5,5,0.3,0.2
2023-03-06T20:00:00,2195A,107.4212,40.761,巴彦淖尔市,附二中,颗粒物(PM10),68,85,91,22,24,98,69,91,90,25,17,3,3,0.6,0.5
2023-03-06T20:00:00,2196A,107.37,40.7372,巴彦淖尔市,市环保大楼,颗粒物(PM10),70,89,94,32,26,108,70,100,98,22,20,4,4,0.5,0.5
2023-03-06T20:00:00,2197A,113.1306,40.9923,乌兰察布市,集宁新区,颗粒物(PM10),70,90,64,26,29,101,85,96,96,23,21,12,12,0.6,0.6
2023-03-06T20:00:00,2200A,122.0392,46.0656,兴安盟,胜华新制药厂,,30,30,36,13,18,95,83,92,90,14,15,4,4,0.5,0.6
2023-03-06T20:00:00,2201A,121.9504,46.0741,兴安盟,科右前旗环保局,,35,29,31,24,19,95,81,93,90,17,15,2,2,0.5,0.4
2023-03-06T20:00:00,2202A,116.1042,43.9317,锡林郭勒盟,市环保监测站,,39,39,51,8,12,87,46,78,76,22,13,5,9,0.3,0.3
2023-03-06T20:00:00,2203A,116.0781,43.9311,锡林郭勒盟,市政府,,42,42,57,5,10,89,58,80,80,19,19,8,8,0.3,0.3
2023-03-06T20:00:00,2204A,105.6467,38.8363,阿拉善盟,西城区西花园,颗粒物(PM10),59,68,50,18,16,106,78,101,100,33,19,9,9,0.5,0.6
2023-03-06T20:00:00,2205A,105.6985,38.8411,阿拉善盟,蒙二幼,,,,,,,,,,,,,,,,
2023-03-06T20:00:00,2206A,105.724,38.8516,阿拉善盟,环保局新楼,,31,31,34,18,20,106,92,103,102,10,6,9,10,0.3,0.2
2023-03-06T20:00:00,2207A,121.6094,41.998,阜新市,工业园区,细颗粒物(PM2.5),117,134,146,88,96,123,34,97,89,80,41,30,16,1.5,1.1
2023-03-06T20:00:00,2208A,121.6697,42.0279,阜新市,长青街,颗粒物(PM10),75,100,136,53,80,134,32,96,84,57,32,14,16,1.1,1.1
2023-03-06T20:00:00,2209A,121.6673,42.0705,阜新市,农业园区,细颗粒物(PM2.5),69,75,106,50,86,112,65,86,84,31,25,41,17,1.0,1
2023-03-06T20:00:00,2210A,121.6717,42.0224,阜新市,东苑,,,,143,66,80,133,41,93,87,55,36,18,19,1.0,1.2
2023-03-06T20:00:00,2211A,121.6506,42.0498,阜新市,玉龙新城,细颗粒物(PM2.5),83,89,113,61,85,115,24,89,78,56,30,14,16,0.9,0.8
2023-03-06T20:00:00,2212A,123.2,41.1953,辽阳市,宏伟区,细颗粒物(PM2.5),67,65,52,48,39,114,93,110,107,25,16,10,10,0.8,0.8
2023-03-06T20:00:00,2213A,123.1683,41.2495,辽阳市,新华园,细颗粒物(PM2.5),97,112,65,72,48,123,90,113,105,22,12,15,10,0.9,0.8
2023-03-06T20:00:00,2214A,123.2354,41.2639,辽阳市,滨河路,细颗粒物(PM2.5),88,63,51,65,48,105,81,99,91,29,24,5,7,0.6,0.5
2023-03-06T20:00:00,2215A,123.149,41.2991,辽阳市,铁西工业园,细颗粒物(PM2.5),119,110,78,90,60,106,64,98,89,43,24,11,12,0.7,0.5
2023-03-06T20:00:00,2216A,123.8139,42.3022,铁岭市,汇工街西,细颗粒物(PM2.5),211,164,108,161,82,141,92,132,124,38,26,15,19,1.2,0.9
2023-03-06T20:00:00,2217A,123.8649,42.2923,铁岭市,水上乐园,细颗粒物(PM2.5),175,154,93,132,68,140,52,133,117,85,32,13,14,1.3,1
2023-03-06T20:00:00,2218A,123.8486,42.2867,铁岭市,银州路东段,,,,,,,,,,,,,,,,
2023-03-06T20:00:00,2219A,123.7153,42.2217,铁岭市,金沙江路北,细颗粒物(PM2.5),198,170,97,148,79,128,41,115,105,93,36,7,12,1.1,1
2023-03-06T20:00:00,2220A,120.4318,41.5881,朝阳市,西梁,,46,46,132,27,92,136,69,126,92,27,24,13,19,0.7,1
2023-03-06T20:00:00,2221A,120.4521,41.5646,朝阳市,河畔小区,,38,38,124,13,76,162,104,162,112,14,23,7,14,0.6,0.9
2023-03-06T20:00:00,2222A,120.4176,41.5648,朝阳市,八里堡,,33,22,132,23,89,145,71,144,104,35,41,14,22,1.1,1.2
2023-03-06T20:00:00,2223A,120.3806,41.5969,朝阳市,农业园区,颗粒物(PM10),63,76,140,31,84,147,49,140,86,57,33,17,21,0.9,1.1
2023-03-06T20:00:00,2225A,124.4002,43.1713,四平市,一商场,细颗粒物(PM2.5),135,189,124,103,69,131,48,131,107,81,29,11,11,1.3,0.7
2023-03-06T20:00:00,2226A,124.388,43.193,四平市,境园,细颗粒物(PM2.5),132,168,111,100,65,134,43,134,107,84,24,4,8,1.2,0.8
2023-03-06T20:00:00,2227A,125.1358,42.8845,辽源市,环保局,细颗粒物(PM2.5),115,106,64,87,49,167,86,167,131,50,17,13,13,1.6,0.8
2023-03-06T20:00:00,2229A,125.9358,41.7173,通化市,光明,颗粒物(PM10),60,69,46,33,19,152,104,138,134,35,16,21,13,0.6,0.3
2023-03-06T20:00:00,2230A,125.9446,41.7325,通化市,铁路,颗粒物(PM10),59,67,45,37,21,154,94,142,135,41,19,13,9,0.6,0.3
2023-03-06T20:00:00,2231A,126.4219,41.9171,白山市,喜丰,颗粒物(PM10),68,86,84,37,34,149,133,140,138,17,23,15,15,0.8,0.8
2023-03-06T20:00:00,2232A,126.4077,41.9419,白山市,环保局,细颗粒物(PM2.5),79,101,90,58,47,132,100,130,125,27,33,19,18,1.4,1.3
2023-03-06T20:00:00,2233A,124.8006,45.1214,松原市,江南,颗粒物(PM10),59,67,106,22,62,103,50,93,69,18,20,6,7,0.4,0.6
2023-03-06T20:00:00,2234A,124.7965,45.1722,松原市,江北,,43,42,101,30,46,116,67,99,85,22,17,6,4,0.5,0.6
2023-03-06T20:00:00,2235A,122.7911,45.6077,白城市,洮北区环保局,颗粒物(PM10),66,82,51,31,29,102,66,96,90,27,18,5,5,0.6,0.5
2023-03-06T20:00:00,2236A,122.8738,45.5725,白城市,市环保局,颗粒物(PM10),57,63,53,34,22,97,80,92,89,20,22,5,4,0.5,0.4
2023-03-06T20:00:00,2237A,129.47,42.8883,延边朝鲜族自治州,妇幼医院,细颗粒物(PM2.5),90,83,89,67,57,153,117,121,121,29,39,24,15,0.8,1
2023-03-06T20:00:00,2238A,129.5055,42.9108,延边朝鲜族自治州,延边医院,细颗粒物(PM2.5),89,77,84,66,58,158,135,125,125,15,37,10,12,0.8,1
2023-03-06T20:00:00,2239A,129.3964,42.8881,延边朝鲜族自治州,朝阳川镇医院,细颗粒物(PM2.5),92,82,93,68,52,162,125,136,136,19,31,10,13,0.7,0.8
2023-03-06T20:00:00,2240A,130.9762,45.3001,鸡西市,环保局,细颗粒物(PM2.5),85,101,91,63,57,129,92,124,110,26,20,6,8,0.6,0.5
2023-03-06T20:00:00,2243A,130.9429,45.3039,鸡西市,第一中学,细颗粒物(PM2.5),88,92,95,65,55,135,103,129,117,12,11,4,7,0.5,0.5
2023-03-06T20:00:00,2244A,130.2537,47.3416,鹤岗市,哈啤分公司,,29,23,85,20,43,136,89,135,98,8,19,10,14,0.2,0.6
2023-03-06T20:00:00,2245A,130.2684,47.3086,鹤岗市,斯达机电,,33,33,112,20,55,137,83,131,94,13,23,12,14,0.2,0.6
2023-03-06T20:00:00,2246A,130.3114,47.3388,鹤岗市,东山纸板厂,,39,39,114,18,58,127,86,127,95,4,18,9,14,0.2,0.6
2023-03-06T20:00:00,2247A,130.1097,47.3382,鹤岗市,五号水库,,32,20,87,22,49,138,91,138,102,5,11,8,10,0.2,0.4
2023-03-06T20:00:00,2248A,131.1511,46.6937,双鸭山市,双合村,细颗粒物(PM2.5),78,62,131,57,70,146,94,146,113,10,17,11,16,0.4,0.7
2023-03-06T20:00:00,2249A,131.1652,46.6191,双鸭山市,南小市,细颗粒物(PM2.5),74,85,121,54,69,150,91,140,116,16,18,9,9,0.6,0.7
2023-03-06T20:00:00,2250A,131.1524,46.6554,双鸭山市,环保局,细颗粒物(PM2.5),78,77,122,57,77,145,97,144,110,18,23,12,18,0.3,0.6
2023-03-06T20:00:00,2251A,131.12,46.5656,双鸭山市,苗圃,细颗粒物(PM2.5),109,92,88,82,78,148,113,146,128,16,15,5,7,0.4,0.4
2023-03-06T20:00:00,2252A,128.5159,47.4311,伊春市,环保局,,,17,101,,87,152,77,120,87,19,26,3,6,0.5,0.8
2023-03-06T20:00:00,2253A,128.9102,47.7412,伊春市,电力嘉园,,34,34,115,21,63,157,86,123,91,9,19,3,8,0.2,0.7
2023-03-06T20:00:00,2254A,129.5029,48.471,伊春市,汤旺河国家公园,,25,19,88,15,58,136,80,113,84,2,8,5,7,0.0,0.4
2023-03-06T20:00:00,2255A,130.2751,46.8028,佳木斯市,佳纺,颗粒物(PM10),54,58,124,26,79,127,64,121,86,25,22,5,6,0.5,0.8
2023-03-06T20:00:00,2256A,130.3995,46.8307,佳木斯市,发电厂,,34,34,104,19,73,134,82,127,98,15,24,2,4,0.4,0.7
2023-03-06T20:00:00,2257A,130.3258,46.7975,佳木斯市,环保局,,40,40,118,25,75,129,67,125,87,20,21,5,6,0.4,0.8
2023-03-06T20:00:00,2258A,130.3648,46.8032,佳木斯市,十一中,,48,48,122,19,75,128,68,124,87,28,24,10,10,0.5,0.8
2023-03-06T20:00:00,2259A,130.3794,46.7588,佳木斯市,四丰,,36,28,87,20,59,194,115,188,144,15,17,1,1,0.3,0.6
2023-03-06T20:00:00,2262A,131.0518,45.8751,七台河市,新一中,细颗粒物(PM2.5),78,77,96,57,64,141,109,135,124,16,20,6,9,0.7,0.8
2023-03-06T20:00:00,2263A,127.4833,50.2524,黑河市,交通局,,25,13,21,12,16,92,77,82,81,7,12,7,8,0.4,0.5
2023-03-06T20:00:00,2264A,127.5144,50.2341,黑河市,环保局,,24,19,21,14,17,103,74,90,86,12,11,7,5,0.3,0.3
2023-03-06T20:00:00,2265A,127.5291,50.2472,黑河市,大黑河岛,,25,25,17,8,14,102,68,90,83,6,4,3,6,0.3,0.3
2023-03-06T20:00:00,2266A,126.9785,46.6365,绥化市,人和东街,,39,39,93,18,39,136,70,102,90,22,16,4,5,0.5,0.6
2023-03-06T20:00:00,2267A,126.964,46.6528,绥化市,党政办公中心,,26,21,86,14,44,133,83,97,90,11,15,3,4,0.2,0.4
2023-03-06T20:00:00,2269A,124.1069,50.4097,大兴安岭地区,科技局,,36,35,14,25,12,94,61,91,84,17,8,8,7,0.4,0.2
2023-03-06T20:00:00,2270A,117.396,32.939,蚌埠市,工人疗养院,颗粒物(PM10),57,63,88,30,46,155,122,147,145,34,32,9,12,0.4,0.5
2023-03-06T20:00:00,2271A,117.3605,32.9427,蚌埠市,百货大楼,颗粒物(PM10),64,78,102,30,43,152,133,143,143,24,32,3,5,0.4,0.5
2023-03-06T20:00:00,2273A,117.4185,32.8911,蚌埠市,蚌埠学院,颗粒物(PM10),70,90,96,36,46,152,102,146,139,40,29,6,11,0.5,0.6
2023-03-06T20:00:00,2274A,117.3533,32.9673,蚌埠市,淮上区政府,颗粒物(PM10),60,70,100,36,44,156,125,144,140,21,28,4,7,0.5,0.5
2023-03-06T20:00:00,2275A,117.3145,32.8977,蚌埠市,高新区,颗粒物(PM10),63,75,99,41,48,147,116,135,134,28,31,18,8,0.7,0.6
2023-03-06T20:00:00,2277A,116.8305,32.7727,淮南市,潘集区政府,颗粒物(PM10),66,82,96,41,54,142,83,127,122,41,27,16,10,0.5,0.4
2023-03-06T20:00:00,2278A,117.0067,32.6524,淮南市,师范学院,颗粒物(PM10),72,94,78,22,36,135,113,127,125,20,20,12,11,0.5,0.4
2023-03-06T20:00:00,2279A,116.8569,32.5951,淮南市,谢家集区政府,,,,82,,41,147,108,130,130,22,26,,11,0.5,0.5
2023-03-06T20:00:00,2280A,116.8281,32.633,淮南市,八公山区政府,颗粒物(PM10),59,68,75,27,32,143,112,128,128,24,22,9,8,0.3,0.3
2023-03-06T20:00:00,2281A,116.6325,32.6201,淮南市,焦岗湖风景区管理处,颗粒物(PM10),56,62,77,29,41,372,57,152,144,58,36,6,5,0.8,0.5
2023-03-06T20:00:00,2282A,116.8004,33.975,淮北市,监测站,颗粒物(PM10),72,93,121,44,61,171,112,160,152,34,26,9,11,0.7,0.7
2023-03-06T20:00:00,2283A,116.8091,33.9007,淮北市,烈山区政府,颗粒物(PM10),82,113,121,56,64,164,83,145,136,51,39,9,13,0.7,0.7
2023-03-06T20:00:00,2284A,116.7856,33.9477,淮北市,职业技术学院,颗粒物(PM10),74,98,122,45,65,166,111,151,147,33,30,11,12,0.8,0.8
2023-03-06T20:00:00,2285A,117.8177,30.9412,铜陵市,市第四中学,细颗粒物(PM2.5),77,78,84,56,40,139,16,120,99,90,57,14,15,0.9,0.9
2023-03-06T20:00:00,2286A,117.8059,30.9273,铜陵市,市公路局,颗粒物(PM10),66,82,77,33,40,134,68,117,109,39,34,13,12,0.8,1
2023-03-06T20:00:00,2287A,117.7807,30.9413,铜陵市,市新民污水厂,颗粒物(PM10),68,86,82,43,35,151,27,125,115,82,62,10,10,1.1,0.8
2023-03-06T20:00:00,2288A,117.7439,30.8792,铜陵市,市第九中学,颗粒物(PM10),66,81,111,36,40,139,104,108,104,63,77,11,11,0.4,0.8
2023-03-06T20:00:00,2289A,117.846,30.9413,铜陵市,车站新区,颗粒物(PM10),56,61,68,25,33,130,93,117,114,49,38,10,10,0.4,0.6
2023-03-06T20:00:00,2290A,117.8483,30.97,铜陵市,市职教基地,颗粒物(PM10),64,78,76,45,38,146,65,129,122,48,41,7,7,0.4,0.4
2023-03-06T20:00:00,2291A,117.0809,30.5177,安庆市,环科院,细颗粒物(PM2.5),62,65,80,44,49,154,91,137,132,57,73,11,10,0.6,0.6
2023-03-06T20:00:00,2292A,117.0331,30.5119,安庆市,马山宾馆,颗粒物(PM10),60,70,84,40,47,159,86,140,137,61,61,10,9,0.6,0.6
2023-03-06T20:00:00,2294A,116.9896,30.6145,安庆市,安庆大学,颗粒物(PM10),59,67,80,32,40,157,101,144,136,53,54,12,14,0.7,0.8
2023-03-06T20:00:00,2295A,118.2903,29.6963,黄山市,延安路89号,细颗粒物(PM2.5),52,40,39,36,28,149,87,132,130,20,17,6,5,0.4,0.3
2023-03-06T20:00:00,2296A,118.327,29.7178,黄山市,黄山东路89号,细颗粒物(PM2.5),64,69,51,46,32,142,55,117,112,34,22,6,5,1.1,0.5
2023-03-06T20:00:00,2297A,118.1371,30.2756,黄山市,黄山区政府5号楼,颗粒物(PM10),73,95,69,51,43,136,68,124,118,19,13,8,7,0.5,0.6
2023-03-06T20:00:00,2298A,118.3093,32.3153,滁州市,老年大学,颗粒物(PM10),69,87,103,43,67,155,92,143,139,55,41,10,11,0.9,0.9
2023-03-06T20:00:00,2299A,118.3244,32.2786,滁州市,人大宾馆,颗粒物(PM10),72,94,122,44,71,150,81,138,133,62,61,10,10,0.6,0.7
2023-03-06T20:00:00,2301A,115.8277,32.8929,阜阳市,市监测站,颗粒物(PM10),73,95,85,49,46,151,22,137,120,109,33,6,7,1.0,0.6
2023-03-06T20:00:00,2303A,115.8554,32.8605,阜阳市,开发区,颗粒物(PM10),103,155,110,44,46,152,45,136,124,99,41,8,9,1.0,0.5
2023-03-06T20:00:00,2307A,116.5079,31.737,六安市,监测大楼,颗粒物(PM10),60,70,63,39,35,136,122,128,128,27,28,10,7,0.4,0.3
2023-03-06T20:00:00,2308A,116.4738,31.7643,六安市,皖西学院,颗粒物(PM10),63,75,64,35,31,143,125,140,138,21,19,8,5,0.4,0.4
2023-03-06T20:00:00,2309A,116.4996,31.7905,六安市,朝阳厂,颗粒物(PM10),58,66,56,35,31,146,122,138,137,26,21,10,7,0.5,0.5
2023-03-06T20:00:00,2310A,116.5567,31.7886,六安市,开发区,颗粒物(PM10),75,100,88,44,43,138,94,131,126,36,25,16,15,0.4,0.4
2023-03-06T20:00:00,2311A,115.8072,33.8399,亳州市,污水处理厂,颗粒物(PM10),77,103,95,35,47,142,86,122,118,41,25,12,13,0.7,0.7
2023-03-06T20:00:00,2312A,115.7789,33.8518,亳州市,三国揽胜宫,颗粒物(PM10),70,90,93,39,50,152,105,145,141,32,12,9,12,0.8,0.6
2023-03-06T20:00:00,2314A,117.47,30.6618,池州市,池州学院,颗粒物(PM10),63,76,70,39,40,154,125,138,138,29,31,10,8,0.5,0.8
2023-03-06T20:00:00,2316A,118.7581,30.9454,宣城市,鳌峰子站,颗粒物(PM10),68,85,73,47,36,123,81,113,110,54,25,6,7,0.6,0.5
2023-03-06T20:00:00,2317A,118.7385,30.9743,宣城市,敬亭山子站,颗粒物(PM10),56,62,68,37,32,137,116,126,126,18,19,9,12,0.4,0.5
2023-03-06T20:00:00,2318A,118.7173,30.9427,宣城市,开发区子站,颗粒物(PM10),65,80,68,43,36,124,86,114,113,43,47,7,8,0.7,0.6
2023-03-06T20:00:00,2319A,119.0141,25.4325,莆田市,荔城区仓后路,,47,47,64,16,25,145,110,135,130,14,23,8,9,0.7,0.9
2023-03-06T20:00:00,2320A,119.0015,25.4553,莆田市,莆田市监测站,颗粒物(PM10),51,52,48,23,22,149,104,140,133,14,13,7,7,0.6,0.6
2023-03-06T20:00:00,2321A,119.1119,25.4561,莆田市,涵江区六中,颗粒物(PM10),52,53,63,20,28,145,110,137,131,14,25,8,8,0.5,0.5
2023-03-06T20:00:00,2322A,119.1013,25.3215,莆田市,秀屿区政府,,44,44,62,21,26,141,108,135,131,18,24,6,8,0.5,0.6
2023-03-06T20:00:00,2323A,118.981,25.4792,莆田市,东圳水库,,,,,,,,,,,,,,,,
2023-03-06T20:00:00,2324A,117.6211,26.2625,三明市,三钢,颗粒物(PM10),57,63,48,27,29,157,53,143,128,54,30,7,8,0.5,0.4
2023-03-06T20:00:00,2325A,117.635,26.2714,三明市,三明二中,,34,34,43,22,25,147,88,134,128,28,31,3,5,0.5,0.5
2023-03-06T20:00:00,2326A,117.6028,26.2378,三明市,三元区政府,颗粒物(PM10),68,86,59,46,32,150,29,133,119,78,37,8,10,1.0,0.8
2023-03-06T20:00:00,2327A,117.7275,26.3108,三明市,洋溪,,,,,,,,,,,,,,,,
2023-03-06T20:00:00,2331A,118.0966,26.6761,南平市,茫荡山,,,,,,,,,,,,,,,,
2023-03-06T20:00:00,2332A,118.1681,26.6369,南平市,南平市监测站,细颗粒物(PM2.5),60,64,47,43,26,145,56,141,114,42,20,4,4,1.4,0.7
2023-03-06T20:00:00,2333A,118.1825,26.6489,南平市,南平铝业有限公司,颗粒物(PM10),52,53,47,34,28,141,66,127,115,38,24,11,8,0.8,0.5
2023-03-06T20:00:00,2334A,118.1756,26.6272,南平市,南平七中,颗粒物(PM10),56,62,48,38,26,145,54,128,111,42,20,6,6,0.9,0.6
2023-03-06T20:00:00,2335A,117.0189,25.1181,龙岩市,龙岩师专,,,,,,,,,,,,,,,,
2023-03-06T20:00:00,2336A,117.0217,25.1033,龙岩市,龙岩市监测站,颗粒物(PM10),53,56,62,24,32,177,133,160,159,24,33,10,13,0.5,0.6
2023-03-06T20:00:00,2337A,117.0258,25.0661,龙岩市,闽西职业技术学院,颗粒物(PM10),53,55,67,23,28,168,121,151,149,27,33,18,17,0.4,0.5
2023-03-06T20:00:00,2338A,117.0196,25.0306,龙岩市,龙岩学院,,46,46,55,23,28,167,118,153,150,14,19,9,8,0.3,0.4
2023-03-06T20:00:00,2339A,119.5001,26.6946,宁德市,金涵水库,,,,,,,,,,,,,,,,
2023-03-06T20:00:00,2341A,119.5388,26.6612,宁德市,宁德市监测站,颗粒物(PM10),60,69,53,34,27,153,93,137,133,23,18,3,4,0.8,0.6
2023-03-06T20:00:00,2342A,117.3102,29.3867,景德镇市,王港中学,细颗粒物(PM2.5),67,44,46,48,25,141,68,125,117,15,5,4,4,0,0
2023-03-06T20:00:00,2343A,117.2117,29.2933,景德镇市,老干部活动中心,颗粒物(PM10),72,93,87,42,43,132,90,122,118,17,34,10,9,0.6,0.6
2023-03-06T20:00:00,2344A,117.1894,29.2789,景德镇市,兽医站,颗粒物(PM10),57,63,72,27,39,142,90,130,126,20,36,11,13,0.6,0.5
2023-03-06T20:00:00,2345A,117.1547,29.2617,景德镇市,台达陶瓷,,,89,81,55,41,132,20,116,104,96,51,,26,,1.1
2023-03-06T20:00:00,2346A,117.2461,29.2956,景德镇市,陶研所,颗粒物(PM10),59,67,64,30,30,129,72,120,112,21,26,5,6,0.8,0.8
2023-03-06T20:00:00,2347A,114.0997,27.5002,萍乡市,武功山,,40,29,31,28,20,114,86,103,101,11,12,14,19,0.5,0.4
2023-03-06T20:00:00,2348A,113.8385,27.6434,萍乡市,中医院,,,82,74,47,38,123,,107,107,40,42,12,21,1.1,1
2023-03-06T20:00:00,2349A,113.8493,27.6253,萍乡市,市政府车库,细颗粒物(PM2.5),57,40,77,40,45,150,76,125,124,36,32,9,21,0.9,1.2
2023-03-06T20:00:00,2350A,113.8676,27.6435,萍乡市,市环保局,颗粒物(PM10),57,64,70,38,41,146,85,125,125,40,34,17,27,0.6,0.7
2023-03-06T20:00:00,2351A,113.866,27.6198,萍乡市,安源区政府,颗粒物(PM10),63,76,81,16,41,141,91,118,118,28,33,15,24,0.7,1.1
2023-03-06T20:00:00,2352A,115.0861,27.9317,新余市,北岗,,32,29,48,22,32,126,89,118,116,16,21,7,16,0.4,0.4
2023-03-06T20:00:00,2353A,114.9886,27.8431,新余市,飞宇,颗粒物(PM10),52,53,84,27,40,122,74,116,112,40,39,11,20,0.4,0.6
2023-03-06T20:00:00,2354A,114.9231,27.8246,新余市,第二水厂,颗粒物(PM10),55,60,86,26,39,134,49,121,113,52,47,12,18,0.7,0.5
