timepoint,stationcode,longitude,latitude,area,positionname,primarypollutant,aqi,pm10,pm10_24h,pm2_5,pm2_5_24h,o3,o3_24h,o3_8h,o3_8h_24h,no2,no2_24h,so2,so2_24h,co,co_24h
2026-01-27T1700,2568A,102.2503,31.8896,阿坝藏族羌族自治州,马师校,,28,16,26,12,20,87,,76,76,5,11,4,4,0.4,0.5
2026-01-27T1700,3994A,102.2174,31.9016,阿坝藏族羌族自治州,马尔康中学西区,,23,23,18,16,16,60,,50,50,3,8,6,6,0.6,0.8
2026-01-27T1700,2695A,80.2899,41.1684,阿克苏地区,电视台,颗粒物(PM10),180,309,320,92,100,53,,29,29,30,38,12,12,1.3,2.2
2026-01-27T1700,2696A,80.2592,41.1541,阿克苏地区,艺术中心,颗粒物(PM10),151,251,297,72,105,63,,28,28,28,40,8,7,0.7,1.4
2026-01-27T1700,2205A,105.699,38.8409,阿拉善盟,蒙二幼,颗粒物(PM10),111,171,136,53,45,85,,81,81,8,12,10,11,0.6,0.7
2026-01-27T1700,2206A,105.7198,38.8508,阿拉善盟,环保局新楼,颗粒物(PM10),106,161,128,56,47,73,,73,73,7,8,7,9,0.5,0.6
2026-01-27T1700,2708A,88.1266,47.8515,阿勒泰地区,市站,,27,24,23,18,13,37,,43,33,54,50,11,4,0.6,0.5
2026-01-27T1700,4166A,88.1198,47.7931,阿勒泰地区,阿勒泰路33号,,19,16,24,3,11,60,,42,42,29,45,8,5,0.4,0.5
2026-01-27T1700,2630A,80.1171,32.4999,阿里地区,阿里监测站,,30,,3,3,3,94,,86,86,2,3,7,7,0.5,0.5
2026-01-27T1700,3192A,80.0906,32.5029,阿里地区,阿里藏医院,,30,10,13,3,6,94,,77,77,1,6,8,10,0.5,0.7
2026-01-27T1700,2644A,109.0088,32.6974,安康市,汉滨区检察院,颗粒物(PM10),59,68,115,22,37,73,,46,46,8,21,5,5,0.8,0.7
2026-01-27T1700,4054A,109.0324,32.6913,安康市,市邮政管理局,颗粒物(PM10),72,94,141,24,42,70,,48,48,8,20,5,7,0.7,0.8
2026-01-27T1700,2291A,117.0806,30.5181,安庆市,环科院,细颗粒物(PM2.5),55,54,48,39,42,56,,57,57,16,12,5,5,0.6,0.6
2026-01-27T1700,2292A,117.0331,30.5118,安庆市,马山宾馆,细颗粒物(PM2.5),54,49,45,38,41,56,,56,56,20,17,4,4,0.7,0.7
2026-01-27T1700,2294A,116.9897,30.6146,安庆市,安庆大学,,48,41,43,33,39,59,,54,54,16,18,4,3,0.6,0.6
2026-01-27T1700,3173A,117.0598,30.5351,安庆市,市人大,细颗粒物(PM2.5),57,46,48,40,45,52,,54,54,21,14,4,4,0.6,0.6
2026-01-27T1700,3123A,105.9408,26.2431,安顺市,凤凰山,细颗粒物(PM2.5),82,,50,60,38,62,,53,49,18,17,21,23,0.8,0.7
2026-01-27T1700,3124A,105.9443,26.2567,安顺市,金钟山,细颗粒物(PM2.5),69,50,46,50,48,66,,50,49,17,15,22,24,0.9,0.8
2026-01-27T1700,3125A,105.8983,26.248,安顺市,娄家坡,细颗粒物(PM2.5),73,59,50,53,41,61,,51,48,23,18,31,28,0.8,0.7
2026-01-27T1700,1819A,114.3552,36.1017,安阳市,红庙街,细颗粒物(PM2.5),182,225,193,137,145,87,,73,73,26,50,5,6,1.0,1.4
2026-01-27T1700,1820A,114.361,36.0681,安阳市,银杏小区,细颗粒物(PM2.5),204,211,192,154,162,92,,69,69,24,46,6,6,1.0,1.3
2026-01-27T1700,3141A,114.3921,36.0879,安阳市,信访局,细颗粒物(PM2.5),192,209,196,144,155,99,,74,74,15,40,7,8,0.9,1.3
2026-01-27T1700,3669A,114.4706,36.0634,安阳市,左辅环卫站,细颗粒物(PM2.5),201,236,221,151,171,96,,74,74,21,45,6,7,1.0,1.3
2026-01-27T1700,4117A,114.2918,36.0769,安阳市,钢三路198号,细颗粒物(PM2.5),214,252,237,164,161,81,,64,64,23,35,9,7,1.0,1.3
2026-01-27T1700,1748A,123.0441,41.1201,鞍山市,深沟寺,,39,39,66,14,43,59,,69,69,22,29,12,10,0.5,1
2026-01-27T1700,1749A,123.011,41.0931,鞍山市,太阳城,,34,34,57,17,38,54,,65,65,22,26,15,16,0.5,1
2026-01-27T1700,1750A,123.0483,41.1445,鞍山市,太平,,43,43,89,19,54,56,,65,65,24,36,13,14,0.5,1.1
2026-01-27T1700,1751A,122.964,41.0968,鞍山市,铁西三道街,,37,37,85,18,53,53,,60,60,27,45,12,28,0.4,2.1
2026-01-27T1700,1753A,123.0219,41.0822,鞍山市,明达新区,,36,36,58,17,39,61,,69,69,22,29,13,14,0.5,1
2026-01-27T1700,4201A,122.944647,41.082639,鞍山市,兴盛南路290号,颗粒物(PM10),67,84,106,26,68,46,,65,64,42,47,14,26,0.3,2
2026-01-27T1700,2195A,107.4206,40.7609,巴彦淖尔市,附二中,颗粒物(PM10),93,136,146,52,55,69,,51,51,12,40,8,12,0.5,0.9
2026-01-27T1700,2196A,107.37,40.7372,巴彦淖尔市,市环保大楼,颗粒物(PM10),98,145,140,48,51,72,,54,54,12,42,8,6,0.5,0.8
2026-01-27T1700,1956A,86.1476,41.7529,巴音郭楞蒙古自治州,孔雀公园,颗粒物(PM10),117,184,235,58,52,69,,56,56,20,23,10,9,0.6,0.7
2026-01-27T1700,1957A,86.1971,41.7166,巴音郭楞蒙古自治州,棉纺厂,颗粒物(PM10),139,228,284,36,49,72,,51,51,11,32,/,/,/,/
2026-01-27T1700,1958A,86.236,41.7172,巴音郭楞蒙古自治州,经济开发区,颗粒物(PM10),105,159,238,36,42,64,,54,54,17,22,8,6,0.6,0.7
2026-01-27T1700,3181A,106.776805,31.852614,巴中市,市五中,,48,48,76,24,38,64,,47,47,20,21,6,5,0.9,1
2026-01-27T1700,3183A,106.7419,31.8654,巴中市,圣泉水务公司,,49,49,89,27,42,78,,57,57,16,35,5,5,0.5,0.6
2026-01-27T1700,3616A,106.7617,31.8343,巴中市,市中心医院,,38,38,77,22,42,78,,53,53,11,29,5,7,0.7,0.9
2026-01-27T1700,2235A,122.7909,45.608,白城市,洮北区环保局,,,41,35,28,31,60,,66,65,,13,6,6,,0.3
2026-01-27T1700,2236A,122.8741,45.5725,白城市,市环保局,,36,36,33,12,21,63,,70,70,14,19,6,5,0.2,0.4
2026-01-27T1700,2231A,126.4219,41.9172,白山市,喜丰,,41,41,76,24,49,64,,60,60,20,37,20,22,0.7,1.2
2026-01-27T1700,2232A,126.4082,41.9416,白山市,环保局,,33,33,61,18,47,64,,57,57,17,31,12,15,0.7,1.1
2026-01-27T1700,2647A,104.1727,36.5448,白银市,第三小学,颗粒物(PM10),203,352,394,111,107,100,,69,69,32,30,93,32,0.7,0.7
2026-01-27T1700,2648A,104.1467,36.5482,白银市,动力公司,颗粒物(PM10),212,358,377,118,112,109,,77,77,33,22,103,22,1.0,1
2026-01-27T1700,2512A,106.6102,23.901,百色市,市监测站,,40,40,37,27,22,30,,25,25,20,26,8,13,0.9,1
2026-01-27T1700,2513A,106.6524,23.8842,百色市,市中心血站,,35,33,37,24,23,32,,27,27,10,23,8,14,1.0,1.2
2026-01-27T1700,4133A,106.6273,23.8798,百色市,龙景西路,,49,49,48,21,28,32,,19,19,11,26,8,15,0.8,0.9
2026-01-27T1700,2270A,117.396,32.9389,蚌埠市,工人疗养院,细颗粒物(PM2.5),104,125,79,78,52,95,,70,70,21,23,3,3,0.6,0.5
2026-01-27T1700,2271A,117.3606,32.9428,蚌埠市,百货大楼,细颗粒物(PM2.5),100,132,75,75,51,93,,72,72,17,20,5,4,0.6,0.6
2026-01-27T1700,2273A,117.4183,32.8909,蚌埠市,蚌埠学院,细颗粒物(PM2.5),108,122,65,81,53,93,,66,66,24,23,4,3,0.7,0.6
2026-01-27T1700,2274A,117.3534,32.9672,蚌埠市,淮上区政府,细颗粒物(PM2.5),100,122,71,75,55,102,,76,76,16,23,1,2,0.6,0.5
2026-01-27T1700,2275A,117.3143,32.8977,蚌埠市,高新区,细颗粒物(PM2.5),100,114,66,75,56,94,,71,71,17,20,5,5,0.6,0.5
2026-01-27T1700,3715A,117.3091,32.9314,蚌埠市,蚌埠田家炳中学,细颗粒物(PM2.5),104,129,77,78,56,95,,71,71,19,24,3,3,0.7,0.6
2026-01-27T1700,1585A,109.8761,40.6533,包头市,市环境监测站,颗粒物(PM10),97,144,121,54,49,36,,36,36,60,59,55,21,2.5,1.7
2026-01-27T1700,1587A,109.9992,40.5843,包头市,包头八中,颗粒物(PM10),78,105,132,47,62,45,,40,40,46,55,18,18,1.0,1.8
2026-01-27T1700,1589A,109.8641,40.6288,包头市,惠龙物流,颗粒物(PM10),88,125,107,59,46,49,,42,42,46,59,40,24,1.5,1.6
2026-01-27T1700,1590A,110.0376,40.5546,包头市,东河鸿龙湾,颗粒物(PM10),75,99,111,33,42,58,,6,,39,65,18,15,0.8,1.3
2026-01-27T1700,3283A,109.9154,40.5684,包头市,滨河大厦,细颗粒物(PM2.5),102,,102,76,54,50,,47,47,45,66,17,13,1.0,1.5
2026-01-27T1700,3419A,109.9449,40.6259,包头市,包头市委党校,,,114,96,,37,41,,38,38,57,55,40,16,2.4,1.9
2026-01-27T1700,3683A,109.8332,40.6577,包头市,昆区政府,颗粒物(PM10),101,152,115,54,52,48,,34,34,63,67,48,25,2.5,1.9
2026-01-27T1700,1931A,107.0802,34.3129,宝鸡市,竹园沟,颗粒物(PM10),148,246,183,79,70,86,,62,62,21,21,8,6,0.4,0.4
2026-01-27T1700,1933A,107.1429,34.3549,宝鸡市,监测站,颗粒物(PM10),153,256,205,86,72,87,,66,66,23,30,6,5,0.6,0.7
2026-01-27T1700,1934A,107.1172,34.3759,宝鸡市,技工学校,颗粒物(PM10),139,228,208,84,79,90,,66,66,26,25,6,6,,0.7
2026-01-27T1700,1936A,107.2025,34.3518,宝鸡市,文理学院,颗粒物(PM10),136,222,210,80,71,94,,66,66,22,28,6,5,0.6,0.6
2026-01-27T1700,1937A,107.2396,34.3626,宝鸡市,三迪小学,颗粒物(PM10),143,236,217,90,91,93,,62,62,30,36,5,5,0.7,0.8
2026-01-27T1700,4155A,107.1721,34.3558,宝鸡市,滨河北路,颗粒物(PM10),139,228,217,75,77,88,,62,62,19,22,6,6,0.7,0.7
2026-01-27T1700,4308A,107.3898,34.3601,宝鸡市,陈仓区北开路21号,颗粒物(PM10),166,282,242,77,98,93,,67,67,35,42,8,16,0.3,0.7
2026-01-27T1700,1051A,115.4803,38.8568,保定市,游泳馆,细颗粒物(PM2.5),129,123,151,98,127,52,,49,49,54,66,7,7,0.7,1
2026-01-27T1700,1052A,115.509,38.8895,保定市,华电二区,细颗粒物(PM2.5),129,121,141,98,120,47,,43,43,50,55,4,4,0.7,1.1
2026-01-27T1700,1053A,115.4588,38.9037,保定市,接待中心,细颗粒物(PM2.5),127,116,146,96,115,50,,46,46,47,54,4,4,0.6,1
2026-01-27T1700,1054A,115.4484,38.8344,保定市,地表水厂,细颗粒物(PM2.5),109,139,179,82,116,49,,49,49,52,66,7,7,0.6,1
2026-01-27T1700,3581A,115.3136,38.9511,保定市,满城区生态环境分局,颗粒物(PM10),71,92,169,50,107,51,,56,56,34,49,3,4,0.6,1.2
2026-01-27T1700,3582A,115.4709,38.7628,保定市,清苑区第二中学,细颗粒物(PM2.5),117,148,209,88,122,50,,46,46,51,61,9,10,0.8,1.1
2026-01-27T1700,3583A,115.6231,39.0223,保定市,徐水物探局,细颗粒物(PM2.5),143,175,202,109,125,71,,66,66,45,52,10,9,1.0,1.2
2026-01-27T1700,4004A,115.4199,38.8665,保定市,双鹰农机,细颗粒物(PM2.5),112,127,197,84,120,60,,57,57,47,57,9,9,0.8,1.1
2026-01-27T1700,4034A,115.515,38.8589,保定市,植保所站,细颗粒物(PM2.5),135,137,162,103,120,47,,43,43,48,68,3,3,0.8,1.1
2026-01-27T1700,2594A,99.1589,25.1137,保山市,市环境监测站,,30,27,25,12,16,96,,81,81,8,9,5,4,0.3,0.3
2026-01-27T1700,2595A,99.1616,25.1381,保山市,市环保局,,37,37,26,17,23,96,,83,83,7,6,4,3,0.6,0.5
2026-01-27T1700,1867A,109.1435,21.4085,北海市,海滩公园,,,60,67,39,45,132,,95,95,,20,10,8,1.0,1
2026-01-27T1700,1868A,109.0983,21.466,北海市,新市环保局,细颗粒物(PM2.5),63,60,50,45,39,134,,94,94,16,19,8,7,0.9,0.9
2026-01-27T1700,1869A,109.1775,21.5232,北海市,北海工业园,颗粒物(PM10),57,64,60,39,43,129,,92,92,15,18,8,7,0.7,0.7
2026-01-27T1700,3400A,109.1844,21.4396,北海市,龙潭自来水厂,细颗粒物(PM2.5),54,53,57,38,45,133,,101,101,9,16,4,7,0.8,1.1
2026-01-27T1700,1001A,116.3611,39.8786,北京市,万寿西宫,,49,49,62,26,36,62,,57,57,23,39,2,2,0.4,0.6
2026-01-27T1700,1003A,116.4174,39.9289,北京市,东四,颗粒物(PM10),53,56,60,27,31,59,,54,54,19,31,5,5,0.3,0.5
2026-01-27T1700,1004A,116.4073,39.8858,北京市,天坛,,49,49,60,26,35,65,,56,56,17,33,3,2,0.4,0.5
2026-01-27T1700,1005A,116.4622,39.9364,北京市,农展馆,颗粒物(PM10),57,64,57,31,29,68,,60,60,15,29,3,3,0.6,0.7
2026-01-27T1700,1006A,116.3399,39.9293,北京市,官园,颗粒物(PM10),52,54,57,27,32,60,,53,53,18,33,3,5,0.4,0.6
2026-01-27T1700,1007A,116.2879,39.9613,北京市,海淀万柳,颗粒物(PM10),57,64,52,29,27,55,,47,47,25,47,4,3,0.5,0.6
2026-01-27T1700,1008A,116.6635,40.1349,北京市,顺义新城,颗粒物(PM10),60,70,34,18,11,59,,66,64,26,15,5,5,0.5,0.3
2026-01-27T1700,1009A,116.6275,40.327,北京市,怀柔镇,,40,40,23,20,13,49,,61,61,33,17,5,5,0.4,0.5
2026-01-27T1700,1010A,116.2295,40.217,北京市,昌平镇,颗粒物(PM10),56,62,31,26,11,51,,49,49,28,23,2,2,0.4,0.4
2026-01-27T1700,1011A,116.3968,39.982,北京市,奥体中心,颗粒物(PM10),58,66,56,32,28,65,,59,59,26,48,5,4,0.6,0.7
2026-01-27T1700,3418A,116.8336,40.4095,北京市,密云新城,,44,44,23,20,10,58,,68,67,21,5,3,2,0.4,0.3
2026-01-27T1700,3671A,116.0879,39.9725,北京市,门头沟三家店,颗粒物(PM10),52,53,32,22,11,55,,50,50,21,21,3,3,0.4,0.4
2026-01-27T1700,3672A,116.1507,39.8246,北京市,丰台云岗,,42,42,56,19,31,61,,59,59,21,32,3,3,0.4,0.5
2026-01-27T1700,3674A,115.9578,39.7602,北京市,房山燕山,,33,33,65,17,37,58,,34,,20,25,5,6,0.4,0.5
2026-01-27T1700,3675A,116.4669,39.7734,北京市,大兴旧宫,,46,46,64,20,32,63,,56,56,19,40,4,3,0.4,0.6
2026-01-27T1700,3694A,115.9859,40.4562,北京市,延庆石河营,,29,29,24,11,9,51,,54,54,24,16,4,3,0.4,0.4
2026-01-27T1700,3695A,116.6151,40.3052,北京市,怀柔新城,,40,40,24,16,11,44,,60,60,35,12,5,5,0.3,0.2
2026-01-27T1700,3696A,116.2542,39.8764,北京市,丰台小屯,,48,48,62,25,31,52,,41,41,22,40,4,3,0.4,0.6
2026-01-27T1700,3697A,116.8399,40.3843,北京市,密云镇,,45,45,25,18,10,58,,68,67,23,14,3,2,0.4,0.3
2026-01-27T1700,4057A,115.9423,40.4431,北京市,延庆百泉,,27,27,22,10,9,53,,55,55,21,11,3,3,0.5,0.4
2026-01-27T1700,4058A,116.6598,39.9164,北京市,通州新华,颗粒物(PM10),64,77,60,27,23,53,,48,48,26,39,3,3,0.4,0.5
2026-01-27T1700,4182A,116.1942,39.9158,北京市,石景山八角,颗粒物(PM10),54,58,51,23,24,54,,50,50,21,38,3,2,0.2,0.3
2026-01-27T1700,4194A,117.078628,40.151726,北京市,平谷新城,颗粒物(PM10),51,52,41,24,20,58,,57,57,25,23,5,4,0.5,0.6
2026-01-27T1700,1761A,123.8274146,41.31234549,本溪市,大峪,,26,26,63,10,41,69,,65,65,13,38,12,9,0.6,1.2
2026-01-27T1700,1763A,123.7169,41.3094,本溪市,彩屯,,34,34,75,12,40,60,,69,69,24,35,14,10,0.6,1.1
2026-01-27T1700,1764A,123.7672166,41.28649327,本溪市,东明,,45,45,69,18,53,66,,69,69,18,40,11,12,0.5,1.2
2026-01-27T1700,1765A,123.799345,41.266614,本溪市,新立屯,,28,28,52,11,32,60,,66,66,16,37,13,11,0.6,1
2026-01-27T1700,1766A,123.829144,41.336777,本溪市,威宁,,20,18,107,11,70,62,,56,56,16,46,9,8,0.6,1.7
2026-01-27T1700,2587A,105.287,27.3133,毕节市,八中,颗粒物(PM10),79,108,81,3,40,73,,54,54,18,15,13,10,0.9,0.9
2026-01-27T1700,2588A,105.3079,27.2987,毕节市,师专,细颗粒物(PM2.5),73,90,79,53,37,82,,55,54,16,15,12,9,0.7,0.7
2026-01-27T1700,4263A,105.3688,27.3598,毕节市,工业大道,颗粒物(PM10),75,100,80,54,40,85,,61,61,18,14,12,11,/,/
2026-01-27T1700,1629A,117.9961,37.3604,滨州市,第二水厂,细颗粒物(PM2.5),110,134,117,83,73,59,,48,48,41,47,15,17,0.9,1.1
2026-01-27T1700,1630A,117.9789,37.3931,滨州市,北中新校,细颗粒物(PM2.5),113,129,110,85,74,63,,55,55,38,38,12,16,0.7,0.8
2026-01-27T1700,3514A,117.9379,37.3959,滨州市,中海酒店,,,,115,,79,71,,59,59,,47,13,19,,0.9
2026-01-27T1700,3515A,117.9381509,37.35547456,滨州市,开发区一中,细颗粒物(PM2.5),113,149,131,85,89,69,,50,50,32,49,15,19,0.8,0.9
2026-01-27T1700,3516A,118.0914,37.6938,滨州市,金海六路,颗粒物(PM10),53,56,114,31,72,83,,73,73,37,56,8,10,0.7,0.9
2026-01-27T1700,4028A,117.9955,37.3752,滨州市,滨州市西街道办事处,,,,113,,77,61,,57,57,36,39,14,16,,0.9
2026-01-27T1700,2311A,115.8071,33.8399,亳州市,污水处理厂,颗粒物(PM10),99,147,133,67,101,97,,69,69,15,35,4,5,0.4,0.7
2026-01-27T1700,2312A,115.7789,33.8519,亳州市,三国揽胜宫,细颗粒物(PM2.5),105,,149,79,104,94,,68,68,17,40,4,4,0.6,0.9
2026-01-27T1700,3332A,115.7631,33.803,亳州市,亳州学院,细颗粒物(PM2.5),110,144,133,83,106,97,,77,77,14,29,3,3,0.7,0.9
2026-01-27T1700,2693A,82.0482,44.8553,博尔塔拉蒙古自治州,市党校,细颗粒物(PM2.5),92,94,87,68,40,55,,52,52,39,23,20,5,1.1,0.9
2026-01-27T1700,2694A,82.0805,44.8966,博尔塔拉蒙古自治州,市环保局,颗粒物(PM10),87,123,116,56,56,77,,47,47,26,36,10,7,0.8,0.8
2026-01-27T1700,1071A,116.8733,38.2922,沧州市,沧县城建局,细颗粒物(PM2.5),117,121,133,88,87,62,,48,48,39,60,7,9,0.5,1
2026-01-27T1700,1072A,116.8462,38.3189,沧州市,电视转播站,细颗粒物(PM2.5),117,114,130,88,102,67,,46,46,35,56,3,3,0.8,0.9
2026-01-27T1700,1073A,116.8588,38.3161,沧州市,市环保局,细颗粒物(PM2.5),104,132,136,78,85,56,,39,39,32,49,8,9,0.8,0.9
2026-01-27T1700,3324A,116.8011,38.294,沧州市,河北水利电力学院,细颗粒物(PM2.5),130,158,150,99,101,62,,44,44,37,78,8,7,0.7,0.9
2026-01-27T1700,2622A,97.1813,31.1289,昌都市,昌都监测站,,30,18,34,3,15,93,,69,69,4,19,3,3,0.4,0.7
2026-01-27T1700,3719A,97.1707,31.1428,昌都市,昌都会议中心,,27,14,17,3,11,86,,65,65,1,8,4,5,0.2,0.4
2026-01-27T1700,2692A,87.2722,44.0298,昌吉回族自治州,新区政务中心,细颗粒物(PM2.5),114,143,161,86,110,86,,56,56,24,49,9,8,1.2,1.4
2026-01-27T1700,3613A,87.3069,44.0093,昌吉回族自治州,亚心广场,细颗粒物(PM2.5),147,161,186,112,129,87,,61,61,18,42,8,7,1.2,1.5
2026-01-27T1700,4164A,87.2057,43.9289,昌吉回族自治州,财政所,细颗粒物(PM2.5),115,117,104,87,68,87,,67,67,15,19,6,5,,0.8
2026-01-27T1700,1120A,125.2874,43.9024,长春市,客车厂,,34,34,63,17,53,49,,54,54,28,42,10,13,0.5,0.7
2026-01-27T1700,1121A,125.2943,43.8508,长春市,邮电学院,,39,39,61,14,50,50,,53,53,27,39,10,10,0.3,0.6
2026-01-27T1700,1122A,125.3648,43.8745,长春市,劳动公园,,36,36,69,15,50,59,,59,59,22,39,5,6,0.0,0.2
2026-01-27T1700,1123A,125.3233,43.8781,长春市,园林处,,29,29,59,15,53,57,,57,57,19,32,9,10,0.6,0.7
2026-01-27T1700,1124A,125.4604,43.7904,长春市,净月潭,,28,28,64,15,51,66,,60,60,12,28,6,6,0.3,0.6
2026-01-27T1700,1126A,125.38,43.8422,长春市,经开区环卫处,,36,36,67,15,50,61,,59,59,19,45,6,7,0.4,0.7
2026-01-27T1700,1127A,125.234,43.7761,长春市,高新区管委会,,39,39,64,15,51,71,,70,70,15,43,6,7,0.2,0.7
2026-01-27T1700,1128A,125.1695,43.83,长春市,岱山公园,,35,35,73,19,63,61,,63,63,15,40,5,6,0.4,0.8
2026-01-27T1700,4281A,125.334645,43.916281,长春市,北亚泰大街1068号,,39,39,62,21,55,50,,54,54,28,38,9,12,0.5,0.7
2026-01-27T1700,1335A,113.082,28.2421,长沙市,经开区环保局,细颗粒物(PM2.5),94,75,128,70,116,38,,28,28,25,25,4,3,0.7,0.8
2026-01-27T1700,1336A,112.8873,28.2202,长沙市,高开区环保局,细颗粒物(PM2.5),108,85,131,81,119,44,,38,38,25,21,4,4,0.7,0.9
2026-01-27T1700,1337A,113.0785,28.2012,长沙市,马坡岭,细颗粒物(PM2.5),99,84,131,74,117,38,,34,34,27,23,4,4,0.8,0.9
2026-01-27T1700,1338A,112.9448,28.1894,长沙市,湖南师范大学,细颗粒物(PM2.5),87,83,133,64,107,56,,44,44,20,20,3,4,0.8,0.9
2026-01-27T1700,1339A,113.0177,28.1322,长沙市,雨花区环保局,,,76,121,,123,43,,29,29,25,24,7,7,0.7,1.2
2026-01-27T1700,1340A,112.9795,28.2593,长沙市,伍家岭,细颗粒物(PM2.5),83,81,136,61,106,50,,38,38,26,24,4,4,0.8,0.9
2026-01-27T1700,1341A,113.002,28.1944,长沙市,火车新站,细颗粒物(PM2.5),92,85,132,68,116,52,,40,40,22,22,1,2,1.0,1.1
2026-01-27T1700,1342A,112.9846,28.1177,长沙市,天心区环保局,细颗粒物(PM2.5),103,85,128,77,124,49,,37,37,29,26,5,5,0.7,0.9
2026-01-27T1700,1343A,112.8906,28.1307,长沙市,湖南中医药大学,细颗粒物(PM2.5),112,87,137,84,122,49,,44,44,28,24,6,6,0.8,1
2026-01-27T1700,1727A,113.1146,36.1547,长治市,清华站,颗粒物(PM10),84,117,152,61,86,83,,60,60,18,41,11,12,0.9,1.1
2026-01-27T1700,1730A,113.0887,36.2126,长治市,审计局,细颗粒物(PM2.5),99,129,148,74,87,81,,55,55,26,48,9,12,0.8,0.8
2026-01-27T1700,1731A,113.0845,36.1856,长治市,长治八中,细颗粒物(PM2.5),104,154,183,78,99,77,,56,56,17,35,10,12,1.0,1.1
2026-01-27T1700,2845A,113.1561,36.1912,长治市,德盛苑,细颗粒物(PM2.5),97,113,140,72,92,90,,65,65,13,25,9,10,0.9,1.3
2026-01-27T1700,3568A,113.0603,36.0464,长治市,向阳小学,颗粒物(PM10),119,187,190,73,91,81,,74,74,30,37,9,13,1.1,1.1
2026-01-27T1700,3569A,112.8788,36.315,长治市,屯留一中,细颗粒物(PM2.5),104,146,153,78,86,86,,69,69,12,38,6,8,1.2,1.4
2026-01-27T1700,4189A,113.113092,36.199482,长治市,英华南巷50号,细颗粒物(PM2.5),103,134,166,77,93,83,,59,59,17,34,8,11,1.1,1.3
2026-01-27T1700,4190A,113.23666,36.33435,长治市,学府街1号,颗粒物(PM10),90,129,182,58,100,91,,60,60,16,49,8,14,0.7,1.6
2026-01-27T1700,1854A,111.696,28.9725,常德市,市二中,细颗粒物(PM2.5),183,161,135,138,124,63,,58,58,21,23,9,6,1.2,1.2
2026-01-27T1700,3138A,111.7152,29.0288,常德市,武陵区永安,细颗粒物(PM2.5),180,175,136,136,120,60,,57,57,24,25,9,6,1.3,1.2
2026-01-27T1700,3139A,111.6891,28.9881,常德市,鼎城区玉霞,细颗粒物(PM2.5),185,160,128,139,119,62,,60,60,27,29,12,8,1.1,1.1
2026-01-27T1700,3140A,111.6651,29.0526,常德市,武陵区长庚,细颗粒物(PM2.5),199,178,132,149,120,54,,54,54,23,23,13,8,1.0,0.9
2026-01-27T1700,1196A,119.9524,31.7586,常州市,市监测站,细颗粒物(PM2.5),98,113,58,73,40,91,,69,69,23,21,5,5,0.5,0.4
2026-01-27T1700,1200A,119.9351,31.703,常州市,武进监测站,细颗粒物(PM2.5),99,108,49,74,39,87,,66,66,23,22,10,10,0.7,0.6
2026-01-27T1700,3002A,119.9701,31.813,常州市,行政中心,细颗粒物(PM2.5),89,113,63,66,41,93,,69,69,21,22,4,4,0.7,0.6
2026-01-27T1700,3003A,120.0434,31.7726,常州市,经开区,颗粒物(PM10),93,136,68,68,32,93,,72,72,15,20,9,9,1.0,0.5
2026-01-27T1700,3010A,119.8919,31.7892,常州市,钟楼,细颗粒物(PM2.5),99,109,59,74,41,85,,66,66,22,22,8,7,0.7,0.6
2026-01-27T1700,3429A,119.8595,31.706,常州市,武进经发区,细颗粒物(PM2.5),114,126,59,86,45,79,,60,60,29,31,6,5,0.8,0.7
2026-01-27T1700,3430A,119.5812,31.7256,常州市,金坛城区,细颗粒物(PM2.5),98,112,52,73,43,100,,74,74,13,16,6,6,0.9,0.8
2026-01-27T1700,4089A,119.9551,31.863,常州市,崇义南街5-H号,细颗粒物(PM2.5),77,101,61,56,38,93,,72,72,20,21,5,5,0.8,0.7
2026-01-27T1700,2220A,120.4318,41.588,朝阳市,西梁,,29,29,32,17,8,72,,75,75,17,15,7,5,0.3,0.3
2026-01-27T1700,2221A,120.452,41.565,朝阳市,河畔小区,,24,23,28,10,9,74,,76,75,14,14,8,6,0.4,0.5
2026-01-27T1700,2222A,120.4176,41.5648,朝阳市,八里堡,,33,33,35,20,14,71,,72,72,14,15,8,7,0.4,0.4
2026-01-27T1700,3026A,116.6179,23.6608,潮州市,市政府,细颗粒物(PM2.5),57,52,63,40,51,74,,70,70,16,27,3,8,0.5,0.7
2026-01-27T1700,4036A,116.646,23.676,潮州市,金山,,,,48,,41,80,,72,72,17,23,,3,,0.7
2026-01-27T1700,2473A,113.0116,25.8228,郴州市,市职中,细颗粒物(PM2.5),137,109,58,104,55,17,,18,14,25,18,4,3,0.9,0.8
2026-01-27T1700,2475A,113.0381,25.8074,郴州市,市审计局,细颗粒物(PM2.5),130,112,60,99,55,19,,16,12,20,17,1,2,/,/
2026-01-27T1700,2476A,113.0348,25.7757,郴州市,市环保局,细颗粒物(PM2.5),134,112,59,102,54,17,,23,19,22,19,3,3,0.9,0.8
2026-01-27T1700,4252A,113.0138,25.8011,郴州市,好美居路49号,细颗粒物(PM2.5),150,125,62,115,62,30,,29,24,29,23,4,3,/,/
2026-01-27T1700,1431A,103.9727,30.7242,成都市,金泉两河,细颗粒物(PM2.5),105,150,207,79,71,83,,58,58,39,60,2,3,0.8,1.1
2026-01-27T1700,1432A,104.1423,30.6765,成都市,十里店,颗粒物(PM10),98,146,185,65,65,94,,66,66,30,44,4,4,0.6,0.7
2026-01-27T1700,1433A,104.0594,30.5765,成都市,三瓦窑,颗粒物(PM10),92,134,147,60,58,106,,67,67,17,44,3,4,0.7,0.8
2026-01-27T1700,1434A,104.1122,30.6306,成都市,沙河铺,颗粒物(PM10),86,122,152,63,62,88,,57,57,30,56,4,4,0.7,0.8
2026-01-27T1700,2880A,104.0219,30.6561,成都市,大石西路,颗粒物(PM10),105,159,176,66,65,98,,55,55,18,49,4,5,0.7,0.9
2026-01-27T1700,3136A,104.2724,30.559,成都市,龙泉驿区区政府,颗粒物(PM10),102,153,127,48,45,98,,70,70,20,22,6,6,0.5,0.6
2026-01-27T1700,3357A,104.0028,30.6891,成都市,金博路,颗粒物(PM10),88,125,181,62,63,96,,53,53,23,58,5,5,0.7,1.1
2026-01-27T1700,3359A,104.056,30.5228,成都市,华阳,颗粒物(PM10),85,119,122,48,52,96,,66,66,18,54,3,3,0.6,0.8
2026-01-27T1700,3488A,104.387954,30.746684,成都市,青石路225号,颗粒物(PM10),96,142,148,64,63,99,,70,70,16,33,4,5,0.7,0.7
2026-01-27T1700,3489A,104.0788,30.4054,成都市,科学城,细颗粒物(PM2.5),83,113,123,61,47,70,,47,47,9,24,6,6,0.6,0.7
2026-01-27T1700,4011A,103.8505,30.6946,成都市,光华大道三段,颗粒物(PM10),104,158,211,77,81,97,,60,60,32,55,3,4,0.7,1.1
2026-01-27T1700,4144A,104.3257,30.6406,成都市,八角井街185号,颗粒物(PM10),101,151,146,51,54,90,,58,58,19,25,3,3,,0.7
2026-01-27T1700,4224A,104.2433276,30.53529463,成都市,鲸龙路1057号,,,113,148,49,53,93,,68,68,17,35,5,5,,0.7
2026-01-27T1700,1062A,117.9531,40.908,承德市,铁路,,35,35,32,23,13,60,,56,56,16,17,13,5,0.4,0.4
2026-01-27T1700,1063A,117.9397,40.9763,承德市,中国银行,,23,23,30,3,9,63,,65,65,10,14,6,2,0.4,0.3
2026-01-27T1700,4073A,117.9462,40.95,承德市,杏林街1号,,23,20,24,16,13,69,,65,65,8,9,9,4,0.4,0.4
2026-01-27T1700,4274A,117.7994,40.9605,承德市,滨河大街98号,细颗粒物(PM2.5),55,39,33,39,16,59,,59,59,13,13,27,6,0.9,0.3
2026-01-27T1700,2314A,117.4698,30.6617,池州市,池州学院,细颗粒物(PM2.5),55,47,37,39,34,51,,64,64,29,23,3,3,0.9,0.8
2026-01-27T1700,3237A,117.4918,30.6617,池州市,展览馆,,50,48,40,35,35,58,,68,68,25,21,2,1,0.7,0.6
2026-01-27T1700,3333A,117.5626,30.695,池州市,第八中学,,,39,37,34,32,67,,67,67,,24,2,2,,0.6
2026-01-27T1700,3334A,117.5037,30.6242,池州市,第十二中学,,48,38,31,33,30,63,,65,65,25,25,2,3,0.8,0.9
2026-01-27T1700,1744A,118.9229,42.2816,赤峰市,松山一中,,,,29,,9,65,,58,58,11,22,,7,0.6,0.8
2026-01-27T1700,1745A,118.9588,42.2733,赤峰市,哈达街,,20,20,31,11,14,61,,56,56,12,18,6,8,0.5,0.6
2026-01-27T1700,1746A,118.8792,42.2551,赤峰市,天义路,,20,16,21,8,10,64,,60,60,6,17,5,8,0.5,0.6
2026-01-27T1700,3058A,119.2656,42.0356,赤峰市,银河街,,30,30,44,13,23,74,,63,63,5,13,12,17,0.5,0.8
2026-01-27T1700,3286A,118.9359,42.3146,赤峰市,桥北物流园区,,24,18,25,15,15,75,,62,62,9,21,5,6,0.4,0.6
2026-01-27T1700,2521A,107.3473,22.4137,崇左市,市环保局江州分局,,43,43,46,25,28,110,,69,69,13,14,5,5,0.9,0.9
2026-01-27T1700,4256A,107.375,22.3736,崇左市,石景林东路7号,,,44,41,28,31,125,,77,77,16,18,,2,0.7,0.8
2026-01-27T1700,3207A,118.31131,32.3033,滁州市,市政府原办公楼,细颗粒物(PM2.5),97,111,52,72,36,96,,74,74,18,16,4,4,0.5,0.3
2026-01-27T1700,3331A,118.3268,32.2633,滁州市,图书馆,细颗粒物(PM2.5),82,109,40,60,33,91,,71,71,17,17,6,6,0.6,0.4
2026-01-27T1700,4101A,118.3196,32.3335,滁州市,银山路666号,细颗粒物(PM2.5),107,97,44,80,48,94,,78,78,20,13,8,5,0.6,0.4
2026-01-27T1700,4102A,118.3426,32.2979,滁州市,黄山路555号,细颗粒物(PM2.5),102,116,55,76,44,103,,80,80,17,14,14,14,1.0,0.7
2026-01-27T1700,2606A,101.5379,25.0492,楚雄彝族自治州,市经济开发区,,29,21,28,15,18,90,,78,78,7,17,3,4,0.6,0.6
2026-01-27T1700,4153A,101.5536,25.0343,楚雄彝族自治州,团结路562号,,28,21,28,3,16,87,,71,71,6,15,4,6,0.3,0.4
2026-01-27T1700,2549A,107.5087,31.2186,达州市,市环境监测站,,40,40,64,19,42,67,,37,37,20,27,6,7,0.7,0.8
2026-01-27T1700,2550A,107.4988,31.2132,达州市,凤凰小区,,,41,64,22,44,65,,35,35,19,29,4,5,,0.5
2026-01-27T1700,2551A,107.5081,31.1987,达州市,达县机关宾馆,颗粒物(PM10),52,53,72,29,47,51,,32,32,41,35,2,3,1.0,1.1
2026-01-27T1700,2552A,107.4644,31.2124,达州市,市政中心,,43,43,74,17,43,66,,34,34,16,33,5,6,0.5,0.7
2026-01-27T1700,2614A,100.2168,25.5818,大理白族自治州,大理市环境监测站,,,40,22,23,21,81,,67,67,9,10,6,6,,0.6
2026-01-27T1700,2615A,100.1542,25.7055,大理白族自治州,大理古城,,28,18,22,6,14,88,,76,76,5,8,7,8,0.8,0.9
2026-01-27T1700,1109A,121.6119,38.974,大连市,甘井子,,27,27,54,11,36,84,,82,82,14,24,5,7,0.3,0.6
2026-01-27T1700,1110A,121.565,38.9509,大连市,周水子,,34,34,58,12,38,72,,68,68,14,31,4,7,0.4,0.7
2026-01-27T1700,1111A,121.5637,38.8849,大连市,星海三站,,30,30,48,10,34,73,,70,70,15,23,9,9,0.6,0.8
2026-01-27T1700,1112A,121.6301,38.9117,大连市,青泥洼桥,,23,21,56,11,36,72,,71,71,15,25,8,11,0.3,0.7
2026-01-27T1700,1113A,121.6248,38.8643,大连市,傅家庄,,,31,49,9,29,60,,60,60,,27,7,9,0.6,0.8
2026-01-27T1700,1114A,121.5117,38.8636,大连市,七贤岭,,32,32,47,10,27,72,,67,67,5,13,7,8,0.6,0.8
2026-01-27T1700,1116A,121.7507,39.1339,大连市,金州,,26,23,46,13,34,83,,78,78,13,21,8,12,0.2,0.5
2026-01-27T1700,1117A,121.7811,39.0495,大连市,开发区,,28,28,52,10,33,80,,78,78,11,18,4,5,0.1,0.4
2026-01-27T1700,1118A,121.9762,39.0631,大连市,双D港,,26,21,49,8,28,83,,81,81,9,17,7,10,0.4,0.6
2026-01-27T1700,4082A,121.2548,38.8188,大连市,旅顺,,26,26,55,14,39,71,,68,68,12,18,8,9,0.4,0.7
2026-01-27T1700,1789A,124.8085,46.0381,大庆市,大同区,,26,19,43,18,25,68,,71,71,10,18,6,6,0.8,0.9
2026-01-27T1700,1790A,125.1166,46.5255,大庆市,龙凤区,,21,21,43,14,29,55,,59,59,22,27,8,9,0.4,0.5
2026-01-27T1700,1791A,124.8894,46.4007,大庆市,红岗区,颗粒物(PM10),87,123,38,26,23,67,,57,57,20,20,4,4,0.6,0.6
2026-01-27T1700,1792A,125.1391,46.578,大庆市,萨尔图区,,29,29,40,3,22,53,,56,56,21,25,8,8,0.6,0.6
2026-01-27T1700,1793A,124.9026,46.6217,大庆市,让胡路区,,23,23,32,15,23,71,,73,73,14,17,6,7,0.4,0.4
2026-01-27T1700,3481A,125.127,46.6277,大庆市,萨区政府监测点,,22,21,37,3,21,69,,64,64,8,21,8,8,0.4,0.6
2026-01-27T1700,1723A,113.2926,40.0759,大同市,云冈宾馆,,,,76,,31,41,,34,34,41,34,18,20,,1.1
2026-01-27T1700,1724A,113.3437,40.0921,大同市,大同大学,颗粒物(PM10),84,117,69,50,24,47,,42,42,38,24,20,20,0.7,0.7
2026-01-27T1700,1725A,113.2637,40.129,大同市,安家小村,颗粒物(PM10),87,124,93,52,35,35,,33,33,45,38,28,23,0.7,1.1
2026-01-27T1700,3282A,113.3399,40.0586,大同市,大同市卫生学校,颗粒物(PM10),84,118,67,41,25,58,,45,45,36,30,12,18,0.6,0.8
2026-01-27T1700,3565A,113.1371,40.1122,大同市,云冈站,颗粒物(PM10),91,132,96,41,29,45,,37,37,41,40,18,21,0.8,0.8
2026-01-27T1700,3566A,113.1186,40.2556,大同市,图书馆,颗粒物(PM10),74,97,81,46,36,48,,44,44,38,21,29,12,1.1,1.3
2026-01-27T1700,3567A,113.5931,40.0459,大同市,区一中,颗粒物(PM10),79,107,75,39,33,57,,49,49,28,22,28,19,0.6,1.6
2026-01-27T1700,4199A,113.2798248,40.09972476,大同市,魏都大道141号,颗粒物(PM10),93,135,93,46,33,41,,35,35,47,42,19,21,0.7,1.1
2026-01-27T1700,2269A,124.1068,50.4091,大兴安岭地区,科技局,,22,19,20,7,9,68,,68,68,3,5,4,4,0.2,0.2
2026-01-27T1700,3663A,124.117,50.4279,大兴安岭地区,红旗社区,,25,,23,8,22,79,,80,80,4,22,4,7,0.2,0.5
2026-01-27T1700,1600A,124.33,40.0625,丹东市,江湾东路,,27,27,42,9,22,67,,71,71,16,19,6,9,0.4,0.6
2026-01-27T1700,1601A,124.4242,40.1513,丹东市,临江后街,,30,30,47,11,24,70,,73,73,13,19,10,14,0.4,0.7
2026-01-27T1700,1602A,124.3935,40.1461,丹东市,元宝山,,23,22,35,8,18,72,,72,72,7,15,9,11,0.3,0.4
2026-01-27T1700,1603A,124.3634,40.1093,丹东市,民主桥,,28,28,49,9,25,66,,71,71,17,23,9,11,0.5,0.8
2026-01-27T1700,3541A,109.5726195,19.51688767,儋州市,第一中学子站,,24,10,31,3,15,75,,68,68,4,6,4,5,0.4,0.5
2026-01-27T1700,3542A,109.5567,19.5187,儋州市,东坡学校子站,,28,13,26,3,14,88,,82,82,3,6,3,4,0.4,0.5
2026-01-27T1700,2616A,98.5611,24.4273,德宏傣族景颇族自治州,德宏州监测站,,28,28,49,16,38,82,,59,59,8,23,7,7,0.5,0.8
2026-01-27T1700,3677A,98.5887,24.4366,德宏傣族景颇族自治州,芒市人民政府综合楼,,33,33,41,15,24,80,,56,56,7,14,5,4,0.4,0.6
2026-01-27T1700,1901A,104.424,31.1209,德阳市,东山公园,颗粒物(PM10),82,114,225,53,72,86,,65,65,12,21,2,1,0.8,0.8
2026-01-27T1700,1902A,104.3827,31.1318,德阳市,西小区,,,,260,,79,99,,69,69,21,45,3,3,0.7,0.9
2026-01-27T1700,1904A,104.3553,31.1091,德阳市,耐火材料厂,颗粒物(PM10),105,159,240,61,81,92,,57,57,20,43,2,2,0.7,0.8
2026-01-27T1700,4145A,104.4144,31.1495,德阳市,市林业局,"颗粒物(PM10),细颗粒物(PM2.5)",85,119,204,63,80,87,,68,68,20,43,3,3,0.8,0.8
2026-01-27T1700,1622A,116.3034,37.4675,德州市,儿童乐园,颗粒物(PM10),97,144,161,68,98,89,,70,70,30,47,14,15,1.0,1.2
2026-01-27T1700,1624A,116.2992,37.4449,德州市,监理站,颗粒物(PM10),95,139,164,68,100,93,,72,72,35,58,12,14,0.8,1
2026-01-27T1700,3066A,116.2722,37.438,德州市,九衢泉纯净水厂,细颗粒物(PM2.5),92,132,172,68,131,85,,63,63,32,64,9,12,1.0,1.3
2026-01-27T1700,3371A,116.3693,37.44,德州市,开发区人民医院,颗粒物(PM10),96,141,162,61,93,98,,78,78,31,52,14,14,0.7,0.9
2026-01-27T1700,3511A,116.5687,37.3331,德州市,陵城艺术中心,颗粒物(PM10),90,129,157,62,108,79,,62,62,31,51,15,16,0.6,1
2026-01-27T1700,4292A,116.352738,37.420875,德州市,新河东路,颗粒物(PM10),81,112,144,58,100,86,,64,64,39,57,15,16,0.9,1
2026-01-27T1700,2621A,99.7054,27.8319,迪庆藏族自治州,迪庆州站,,26,10,25,8,17,83,,75,75,5,10,4,4,0.2,0.4
2026-01-27T1700,3180A,99.7122,27.8129,迪庆藏族自治州,质量技术监督局,,29,21,24,7,14,90,,78,78,5,10,5,4,0.4,0.5
2026-01-27T1700,4257A,104.6092,35.5962,定西市,将台街,颗粒物(PM10),163,276,327,79,101,102,,71,71,11,32,12,18,0.5,1
2026-01-27T1700,4309A,104.6159,35.5701,定西市,正龙路62号,颗粒物(PM10),175,299,345,76,88,98,,71,71,9,16,9,12,0.5,0.9
2026-01-27T1700,1390A,113.7943,23.0132,东莞市,东城石井,臭氧1小时(O3_1h),82,55,72,31,34,185,,155,155,26,50,7,7,0.6,0.7
2026-01-27T1700,1391A,113.7384,22.9659,东莞市,南城西平,,,42,62,37,40,181,,148,148,,57,9,8,0.7,0.8
2026-01-27T1700,3319A,113.7283,23.041,东莞市,万江金泰,臭氧1小时(O3_1h),67,53,85,40,52,173,,130,130,22,52,9,8,0.9,1
2026-01-27T1700,4129A,113.8666,23.1062,东莞市,裕兴路,臭氧1小时(O3_1h),60,49,86,20,42,168,,139,139,21,62,6,7,0.8,1
2026-01-27T1700,4130A,114.0076,22.9739,东莞市,教育路1号,臭氧1小时(O3_1h),85,47,82,28,44,188,,,,22,29,6,8,0.6,0.6
2026-01-27T1700,4131A,113.7981,22.8124,东莞市,长怡路1号,臭氧1小时(O3_1h),102,63,73,29,38,204,,148,148,28,64,8,8,0.8,0.8
2026-01-27T1700,1666A,118.6612,37.4313,东营市,市环保局,颗粒物(PM10),53,56,95,22,51,86,,73,73,24,41,9,15,0.6,0.9
2026-01-27T1700,3036A,118.6903,37.4337,东营市,开发区管委会,,,55,100,24,55,85,,73,73,18,39,,6,0.4,0.7
2026-01-27T1700,3365A,118.5721,37.5654,东营市,垦利区民丰路,,44,44,107,17,60,82,,71,71,24,50,10,13,0.4,0.8
2026-01-27T1700,3498A,118.5063,37.8606,东营市,河口城区,,29,29,98,6,51,76,,75,75,21,50,6,6,0.5,0.9
2026-01-27T1700,3646A,118.4979,37.4623,东营市,胜利站,"颗粒物(PM10),细颗粒物(PM2.5)",55,60,99,39,65,72,,62,62,37,52,12,17,0.6,0.8
2026-01-27T1700,3734A,118.5753,37.4405,东营市,理想之城,颗粒物(PM10),53,56,98,27,56,79,,68,68,28,44,7,10,0.5,0.9
2026-01-27T1700,1591A,110.0024,39.8127,鄂尔多斯市,综合楼,颗粒物(PM10),95,139,136,29,34,67,,70,70,26,50,10,15,0.6,0.8
2026-01-27T1700,1592A,109.9485,39.8259,鄂尔多斯市,巴音孟克林场办事处,颗粒物(PM10),87,124,110,34,30,72,,77,77,21,36,10,12,0.5,0.6
2026-01-27T1700,1593A,109.7734,39.5987,鄂尔多斯市,康泽苑,颗粒物(PM10),75,100,84,35,23,93,,67,67,12,26,12,9,0.5,0.5
2026-01-27T1700,1594A,109.8121,39.5987,鄂尔多斯市,华泰汽车城,颗粒物(PM10),79,107,81,28,20,95,,64,64,14,35,10,6,0.6,0.6
2026-01-27T1700,1595A,109.9734,39.7884,鄂尔多斯市,奥林花园,颗粒物(PM10),90,129,132,34,33,79,,68,68,20,53,14,13,0.5,0.7
2026-01-27T1700,2436A,114.894,30.3989,鄂州市,市政府,细颗粒物(PM2.5),55,41,66,39,66,44,,42,42,22,27,5,4,0.6,0.6
2026-01-27T1700,2437A,114.8986,30.3714,鄂州市,赵家坝,细颗粒物(PM2.5),59,48,75,42,68,46,,45,45,16,19,8,8,0.9,1
2026-01-27T1700,3654A,114.8093,30.4091,鄂州市,精准医疗中心,细颗粒物(PM2.5),62,47,77,44,70,53,,58,58,21,19,4,6,0.5,0.6
2026-01-27T1700,2454A,109.4978,30.2979,恩施土家族苗族自治州,湖北民院,细颗粒物(PM2.5),55,55,59,39,59,37,,24,24,19,19,6,6,1.1,1.3
2026-01-27T1700,3549A,109.5061,30.3771,恩施土家族苗族自治州,龙凤新区,,,,59,,51,42,,22,22,,21,7,7,0.8,1
2026-01-27T1700,2499A,108.3411,21.6159,防城港市,沙万,颗粒物(PM10),51,52,48,31,33,94,,74,74,14,22,7,8,0.8,0.8
2026-01-27T1700,2500A,108.3515,21.7733,防城港市,防城档案局,"颗粒物(PM10),细颗粒物(PM2.5)",55,59,52,39,28,86,,66,66,13,14,5,5,0.7,0.8
2026-01-27T1700,2501A,108.3506,21.6414,防城港市,大海花园,,44,44,39,25,28,98,,76,76,12,17,7,10,0.8,0.8
2026-01-27T1700,1371A,113.1293,23.0065,佛山市,湾梁,颗粒物(PM10),63,75,97,32,44,147,,105,105,24,60,/,/,/,/
2026-01-27T1700,1372A,113.1082,23.0477,佛山市,华材职中,细颗粒物(PM2.5),72,73,122,52,85,145,,106,106,19,73,8,7,0.8,1.1
2026-01-27T1700,1373A,113.1439,23.045,佛山市,南海气象局,细颗粒物(PM2.5),54,55,88,38,53,147,,105,105,23,72,/,/,/,/
2026-01-27T1700,1374A,113.2879,22.8094,佛山市,顺德苏岗,细颗粒物(PM2.5),64,72,84,46,49,169,,102,102,34,66,/,/,1.2,1.3
2026-01-27T1700,1376A,112.8384,22.8678,佛山市,高明孔堂,颗粒物(PM10),63,75,69,38,44,155,,107,107,22,28,/,/,/,/
2026-01-27T1700,1377A,112.8835,23.1584,佛山市,三水监测站,颗粒物(PM10),57,63,94,36,47,118,,88,88,33,62,5,5,1.0,1.1
2026-01-27T1700,1378A,112.8668,23.185,佛山市,三水云东海,颗粒物(PM10),57,63,74,34,44,136,,97,97,22,45,/,/,/,/
2026-01-27T1700,3625A,113.2568,22.7629,佛山市,容桂街道办,,,,97,,68,162,,91,91,,68,/,/,/,/
2026-01-27T1700,1282A,119.2681,26.0506,福州市,师大,,19,19,28,3,19,55,,56,46,26,29,2,3,0.6,0.7
2026-01-27T1700,1283A,119.2983,26.1028,福州市,五四北路,,19,16,25,3,19,58,,47,45,19,27,4,4,0.5,0.7
2026-01-27T1700,1284A,119.2648,26.0769,福州市,杨桥西路,,17,12,26,3,18,54,,53,44,21,24,3,5,/,/
2026-01-27T1700,3048A,119.5799,26.0937,福州市,九龙,,23,11,18,3,12,73,,64,64,12,15,4,4,0.3,0.4
2026-01-27T1700,3526A,119.5188,25.9666,福州市,吴航,,24,7,20,3,12,74,,66,66,11,19,3,4,0.4,0.4
2026-01-27T1700,4104A,119.3106,26.0648,福州市,路通桥巷6号,,16,10,33,3,23,50,,54,42,22,25,/,/,/,/
2026-01-27T1700,1755A,123.7974,41.8494,抚顺市,望花区,,34,34,102,8,76,69,,68,68,16,53,10,11,0.5,1.2
2026-01-27T1700,1756A,123.9161,41.8827,抚顺市,顺城区,,29,29,114,10,94,65,,64,64,20,56,12,11,0.5,1.5
2026-01-27T1700,1757A,124.0437,41.8615,抚顺市,东洲区,,,31,142,12,82,,,58,58,13,51,12,20,0.6,1.4
2026-01-27T1700,1758A,123.9246,41.8638,抚顺市,新抚区,,44,44,135,9,92,67,,65,65,19,53,10,8,0.3,1.2
2026-01-27T1700,1759A,124.0972,41.8961,抚顺市,大伙房水库,,35,35,91,11,67,68,,62,62,11,46,14,12,0.4,1.2
2026-01-27T1700,1760A,123.708,41.8386,抚顺市,沈抚新城,,31,31,97,8,68,70,,67,67,18,58,9,10,0.3,1.1
2026-01-27T1700,2377A,116.3544,27.9833,抚州市,市站,,36,31,39,25,31,36,,36,36,18,19,8,6,1.1,1.3
2026-01-27T1700,2378A,116.3562,27.9631,抚州市,血防站,,35,35,45,22,32,28,,30,30,28,26,4,5,1.3,1.5
2026-01-27T1700,2379A,116.3561,28.0007,抚州市,采茶剧团,,39,28,41,27,34,30,,31,31,12,15,3,3,0.9,1.1
2026-01-27T1700,2380A,116.3854,27.9648,抚州市,医学分院,,45,45,49,31,32,36,,36,36,16,17,4,7,1.0,1.1
2026-01-27T1700,2207A,121.6095,41.9978,阜新市,工业园区,,49,49,42,3,7,75,,76,76,7,11,7,8,0.3,0.3
2026-01-27T1700,2208A,121.6567,42.0188,阜新市,长青街,,32,32,22,6,5,81,,79,79,6,6,8,6,0.3,0.3
2026-01-27T1700,2209A,121.6672,42.07,阜新市,农业园区,,39,39,34,3,7,69,,68,68,6,7,6,11,0.3,0.3
2026-01-27T1700,2211A,121.6343,42.0455,阜新市,玉龙新城,颗粒物(PM10),51,52,38,3,6,69,,70,70,8,13,6,6,0.4,0.4
2026-01-27T1700,2301A,115.8276,32.8929,阜阳市,市监测站,细颗粒物(PM2.5),79,80,108,58,87,76,,55,55,16,32,4,4,0.6,0.8
2026-01-27T1700,2303A,115.8551,32.8606,阜阳市,开发区,细颗粒物(PM2.5),77,82,97,56,84,73,,51,51,27,37,5,5,0.4,0.6
2026-01-27T1700,2875A,115.783962,32.889217,阜阳市,阜阳职业技术学院,细颗粒物(PM2.5),79,70,92,58,79,82,,58,58,15,22,7,7,0.8,0.9
2026-01-27T1700,3468A,115.79,32.8614,阜阳市,市规划展馆,细颗粒物(PM2.5),80,71,103,59,90,80,,56,56,18,25,5,5,0.6,0.8
2026-01-27T1700,3469A,115.835101,32.918568,阜阳市,枣园社区,细颗粒物(PM2.5),88,84,114,65,95,64,,52,52,24,28,5,5,0.8,1
2026-01-27T1700,2669A,102.9097,34.9841,甘南藏族自治州,州政府,,41,41,147,13,52,102,,72,72,4,24,6,8,0.3,0.8
2026-01-27T1700,3380A,102.8915,34.9618,甘南藏族自治州,甘肃民族师范学院,,37,37,170,9,52,99,,73,73,3,29,6,10,0.2,0.4
2026-01-27T1700,2570A,101.96,30.048,甘孜藏族自治州,水桥子,,46,46,57,9,18,85,,55,55,5,18,7,6,0.6,0.6
2026-01-27T1700,3065A,101.9534,29.9976,甘孜藏族自治州,州环保局,,41,41,45,6,13,94,,81,81,8,12,5,5,0.6,0.6
2026-01-27T1700,2363A,114.9368,25.8663,赣州市,地委,,,,48,29,31,44,,37,37,16,18,6,7,0.8,1.3
2026-01-27T1700,2364A,114.946,25.8483,赣州市,气象台,,18,13,56,12,27,37,,32,32,23,22,6,6,0.6,0.7
2026-01-27T1700,2365A,114.932,25.8332,赣州市,市图书馆,,32,32,38,22,27,41,,30,30,19,20,4,5,1.0,1.2
2026-01-27T1700,2366A,114.8905,25.8472,赣州市,华坚鞋城,,30,29,42,21,25,41,,32,32,17,18,5,6,0.8,0.9
2026-01-27T1700,3109A,115.0094,25.8614,赣州市,赣县区卫计委,,29,,32,20,35,44,,29,29,14,16,7,7,0.9,1
2026-01-27T1700,2684A,106.2753,36.0057,固原市,监测站,颗粒物(PM10),116,181,218,48,70,91,,68,68,11,24,8,10,0.6,1
2026-01-27T1700,2685A,106.2384,36.0189,固原市,新区,颗粒物(PM10),114,178,216,43,59,93,,71,71,12,27,9,8,0.4,0.9
2026-01-27T1700,2544A,106.6307,30.4577,广安市,市委,"颗粒物(PM10),细颗粒物(PM2.5)",63,76,72,45,55,84,,55,55,18,23,6,8,0.8,1
2026-01-27T1700,2545A,106.6266,30.4662,广安市,友谊中学,细颗粒物(PM2.5),60,61,62,43,52,88,,55,55,19,23,7,7,0.9,1
2026-01-27T1700,2547A,106.6386,30.4551,广安市,广电花园,细颗粒物(PM2.5),67,61,73,48,56,84,,53,53,16,20,6,6,0.8,0.8
2026-01-27T1700,2902A,106.6347,30.4868,广安市,北辰小学,细颗粒物(PM2.5),62,72,66,44,52,90,,57,57,16,19,5,4,1.1,1.2
2026-01-27T1700,2524A,105.8211,32.4444,广元市,老城,颗粒物(PM10),124,198,277,66,88,81,,49,49,19,46,1,2,0.8,0.9
2026-01-27T1700,2526A,105.8629,32.429,广元市,监测站,颗粒物(PM10),117,184,256,63,88,73,,52,52,21,32,5,8,0.9,1
2026-01-27T1700,3617A,105.8047,32.4167,广元市,经开区,颗粒物(PM10),134,218,291,65,89,67,,40,40,21,39,3,4,0.9,1
2026-01-27T1700,1345A,113.2346,23.1423,广州市,广雅中学,颗粒物(PM10),61,71,115,39,62,139,,90,90,24,90,6,4,0.9,1.2
2026-01-27T1700,1346A,113.2611,23.105,广州市,市五中,臭氧1小时(O3_1h),74,64,96,36,63,179,,114,114,23,77,10,8,/,/
2026-01-27T1700,1348A,113.3477,23.0916,广州市,广东商学院,"颗粒物(PM10),细颗粒物(PM2.5)",59,67,95,42,56,166,,112,112,32,76,9,8,1.0,1.1
2026-01-27T1700,1349A,113.4332,23.105,广州市,市八十六中,,,64,79,,46,163,,114,114,29,79,10,10,/,/
2026-01-27T1700,1350A,113.3506,22.9488,广州市,番禺中学,"颗粒物(PM10),细颗粒物(PM2.5)",65,79,116,47,45,164,,112,112,32,65,6,4,0.9,1
2026-01-27T1700,1351A,113.2147,23.3918,广州市,花都师范,,46,46,73,32,48,133,,96,96,18,50,7,7,0.8,0.9
2026-01-27T1700,1352A,113.2599,23.1329,广州市,市监测站,颗粒物(PM10),62,74,108,42,59,153,,102,102,28,86,8,5,/,/
2026-01-27T1700,1353A,113.5618,23.3119,广州市,九龙镇镇龙,细颗粒物(PM2.5),55,56,77,39,46,139,,106,106,18,48,8,8,0.7,0.7
2026-01-27T1700,1354A,113.2764,23.1544,广州市,麓湖,,,67,75,54,49,148,,101,101,24,73,13,9,,0.9
2026-01-27T1700,2846A,113.3209,23.1323,广州市,体育西,细颗粒物(PM2.5),62,69,92,44,58,160,,108,108,27,78,10,8,0.9,1.3
2026-01-27T1700,3298A,113.5718,23.5493,广州市,从化街口,细颗粒物(PM2.5),55,56,75,39,50,131,,101,101,16,45,14,12,0.7,0.8
2026-01-27T1700,3299A,113.3463,23.369,广州市,白云竹料,颗粒物(PM10),51,51,97,32,52,138,,107,107,21,64,7,5,0.9,1.1
2026-01-27T1700,3300A,113.2981,23.2365,广州市,白云嘉禾,细颗粒物(PM2.5),64,61,98,46,56,169,,118,118,27,85,8,7,/,/
2026-01-27T1700,3301A,113.4256,23.1716,广州市,黄埔科学城,细颗粒物(PM2.5),59,57,69,42,47,161,,121,121,36,55,6,5,0.6,0.7
2026-01-27T1700,3302A,113.3942,23.0485,广州市,番禺大学城,臭氧1小时(O3_1h),78,74,111,40,44,182,,127,127,27,68,11,10,0.8,0.8
2026-01-27T1700,3303A,113.4923,22.8169,广州市,南沙黄阁,,,,36,50,36,166,,125,125,36,55,7,7,/,/
2026-01-27T1700,3304A,113.534,22.7893,广州市,南沙街,臭氧1小时(O3_1h),62,69,64,41,33,169,,126,126,29,53,8,8,0.9,0.8
2026-01-27T1700,3443A,113.2905,23.5541,广州市,花都梯面,,50,50,61,35,38,112,,83,83,16,31,7,6,/,/
2026-01-27T1700,3445A,113.786,23.7479,广州市,从化良口,细颗粒物(PM2.5),63,51,44,45,37,116,,97,97,9,16,10,8,/,/
2026-01-27T1700,3446A,113.805,23.2614,广州市,增城荔城,细颗粒物(PM2.5),60,54,60,43,40,156,,112,112,16,32,8,7,0.8,0.8
2026-01-27T1700,2506A,109.604387,23.066791,贵港市,江南子站,,39,39,40,24,30,90,,59,59,12,16,5,4,0.9,1
2026-01-27T1700,2508A,109.5669,23.1065,贵港市,荷城子站,,36,36,37,17,28,76,,20,,14,18,5,5,1.0,1.1
2026-01-27T1700,3405A,109.5886,23.1172,贵港市,新世纪学校,,44,44,41,28,29,84,,61,61,15,18,/,/,0.8,0.7
2026-01-27T1700,4260A,109.5933,23.095,贵港市,中山路155-3号,细颗粒物(PM2.5),54,41,38,38,34,93,,63,63,14,18,/,/,0.8,0.9
2026-01-27T1700,1439A,106.6863,26.6035,贵阳市,马鞍山,细颗粒物(PM2.5),92,78,43,68,32,15,,28,16,20,18,7,6,/,/
2026-01-27T1700,1441A,106.6241,26.6266,贵阳市,鉴湖路,细颗粒物(PM2.5),110,95,58,83,41,22,,30,19,22,22,4,5,1.0,0.8
2026-01-27T1700,1442A,106.7468,26.6344,贵阳市,燕子冲,,,,30,,35,28,,36,24,15,17,10,11,0.9,0.8
2026-01-27T1700,1443A,106.6556,26.4362,贵阳市,碧云窝,细颗粒物(PM2.5),100,102,60,75,36,23,,35,22,23,22,2,8,/,/
2026-01-27T1700,1445A,106.6963,26.6063,贵阳市,红边门,细颗粒物(PM2.5),89,78,47,66,34,20,,34,19,21,26,11,17,/,/
2026-01-27T1700,1446A,106.7162383,26.56964667,贵阳市,新华路,细颗粒物(PM2.5),92,88,51,68,29,23,,38,25,22,26,6,10,1.0,0.8
2026-01-27T1700,1447A,106.6742,26.542,贵阳市,太慈桥,细颗粒物(PM2.5),94,80,42,70,29,27,,43,23,23,23,4,4,/,/
2026-01-27T1700,4230A,106.688212,26.56952,贵阳市,花果园大街66号,细颗粒物(PM2.5),90,78,40,67,26,16,,30,14,23,24,4,6,/,/
2026-01-27T1700,4231A,106.687268,26.516892,贵阳市,漓江路57号,细颗粒物(PM2.5),89,83,48,66,33,20,,33,18,24,26,8,11,1.1,0.8
2026-01-27T1700,1864A,110.3091,25.2705,桂林市,龙隐路小学,细颗粒物(PM2.5),54,42,21,38,23,62,,55,55,11,12,6,6,0.6,0.7
2026-01-27T1700,1865A,110.2849361,25.22909545,桂林市,八中,细颗粒物(PM2.5),60,,25,43,22,56,,49,49,19,18,7,7,0.4,0.5
2026-01-27T1700,3531A,110.296,25.1254,桂林市,旅游学院,,49,46,27,34,15,68,,66,66,13,13,4,4,0.5,0.5
2026-01-27T1700,4222A,110.1835,25.2444,桂林市,环湖路276号,,42,36,20,29,17,44,,41,41,8,9,8,8,0.8,0.9
2026-01-27T1700,4301A,110.2803,25.2773,桂林市,信义路13号,,45,45,20,31,13,48,,51,51,16,15,4,4,0.9,1
2026-01-27T1700,2674A,100.2262,34.4854,果洛藏族自治州,玛沁县大武镇,,31,31,51,7,14,99,,82,82,2,5,10,17,0.3,0.4
2026-01-27T1700,1130A,126.5557,45.8109,哈尔滨市,松北商大,,45,,73,31,65,35,,50,50,41,41,24,11,0.6,0.8
2026-01-27T1700,1132A,126.6162,45.719,哈尔滨市,南岗学府路,,50,50,62,30,44,67,,57,57,13,22,6,10,0.6,0.7
2026-01-27T1700,1133A,126.6894,45.7733,哈尔滨市,太平宏伟公园,细颗粒物(PM2.5),63,,71,45,59,62,,62,62,17,31,15,18,0.5,0.7
2026-01-27T1700,1134A,126.6361,45.7672,哈尔滨市,道外承德广场,细颗粒物(PM2.5),62,63,73,44,44,65,,65,65,22,32,8,12,0.8,0.3
2026-01-27T1700,1136A,126.644,45.7261,哈尔滨市,动力和平路,,,41,58,35,45,58,,56,56,,30,10,17,,0.8
2026-01-27T1700,1137A,126.5933,45.7479,哈尔滨市,道里建国路,,49,41,57,34,45,47,,52,52,31,29,6,8,0.6,0.7
2026-01-27T1700,1138A,126.6127,45.6119,哈尔滨市,平房东轻厂,细颗粒物(PM2.5),74,70,72,54,61,26,,50,50,53,47,12,14,0.9,1
2026-01-27T1700,1139A,126.5875,45.9827,哈尔滨市,呼兰师专,细颗粒物(PM2.5),64,51,80,46,66,38,,52,52,36,38,9,13,0.7,0.9
2026-01-27T1700,1140A,126.6299,45.6799,哈尔滨市,省农科院,细颗粒物(PM2.5),77,62,78,56,66,45,,50,50,25,39,16,17,0.8,0.9
2026-01-27T1700,4282A,126.6769,45.7379,哈尔滨市,华山路1号,,48,36,62,33,48,59,,54,54,22,36,14,23,0.5,0.6
2026-01-27T1700,4283A,126.9717,45.5356,哈尔滨市,解放大街52号,细颗粒物(PM2.5),62,62,80,44,62,56,,59,59,23,26,3,3,0.7,0.8
2026-01-27T1700,2688A,93.5124,42.8176,哈密市,地区监测站,颗粒物(PM10),110,169,119,71,52,48,,48,48,23,29,29,10,0.4,0.6
2026-01-27T1700,2689A,93.5014,42.8312,哈密市,哈密师范学校,颗粒物(PM10),110,170,138,52,43,53,,42,42,31,47,31,8,,1.2
2026-01-27T1700,2671A,100.9016,36.9464,海北藏族自治州,海晏县西海镇,,39,39,79,13,24,96,,79,79,1,4,6,8,0.3,0.4
2026-01-27T1700,3867A,102.074,36.5056,海东市,平安区公安局北苑,颗粒物(PM10),67,83,252,22,82,90,,58,58,6,24,13,28,0.7,1.2
2026-01-27T1700,4163A,102.0984,36.5119,海东市,滨河路,,,,299,,105,102,,74,74,11,42,9,30,0.4,1
2026-01-27T1700,1410A,110.3189,20.0596,海口市,海南大学,,41,23,33,13,16,129,,106,106,9,10,7,6,0.4,0.4
2026-01-27T1700,1411A,110.2827,20.0051,海口市,秀英海南医院,,40,28,30,12,15,126,,106,106,10,12,8,7,0.3,0.3
2026-01-27T1700,1412A,110.3391,19.9979,海口市,海南师范大学,,43,28,35,12,17,136,,111,111,8,10,6,6,0.3,0.4
2026-01-27T1700,1413A,110.3303,20.0359,海口市,龙华路环保局宿舍,,41,28,31,13,16,129,,107,107,10,12,/,/,0.6,0.7
2026-01-27T1700,3539A,110.5111,19.9737,海口市,桂林洋子站,,41,29,31,16,16,130,,112,112,10,11,/,/,/,/
2026-01-27T1700,4134A,110.1952,20.0451,海口市,长滨二路9号,,39,23,26,15,18,123,,102,102,8,10,/,/,/,/
2026-01-27T1700,2673A,100.6158,36.2985,海南藏族自治州,共和县恰卜恰镇,颗粒物(PM10),61,72,92,32,36,101,,84,84,2,19,12,13,0.8,0.9
2026-01-27T1700,2676A,97.373,37.376,海西蒙古族藏族自治州,德令哈市,颗粒物(PM10),72,94,149,19,30,105,,95,95,3,5,13,16,0.4,0.4
2026-01-27T1700,1049A,114.492,36.5712,邯郸市,矿院,细颗粒物(PM2.5),183,182,193,138,157,100,,76,76,17,48,,9,0.9,1.6
2026-01-27T1700,1050A,114.4839,36.6136,邯郸市,丛台公园,细颗粒物(PM2.5),178,191,192,134,146,101,,79,79,22,52,7,10,0.9,1.5
2026-01-27T1700,3458A,114.7893,36.5592,邯郸市,香泉濮院小区,细颗粒物(PM2.5),139,209,218,106,140,109,,84,84,24,47,5,12,0.8,1.6
2026-01-27T1700,3580A,114.1998,36.4439,邯郸市,峰峰矿区临水派出所,细颗粒物(PM2.5),145,159,155,111,102,104,,87,87,12,21,13,15,1.1,1.5
2026-01-27T1700,4068A,114.5209,36.7697,邯郸市,建安街268号,细颗粒物(PM2.5),158,167,197,120,150,94,,68,68,27,68,6,8,0.6,1.5
2026-01-27T1700,4069A,114.5488,36.6177,邯郸市,丛台东路558号,细颗粒物(PM2.5),180,171,204,136,169,104,,80,80,15,58,4,10,1.0,1.8
2026-01-27T1700,2635A,107.0155,33.0707,汉中市,市监测站,颗粒物(PM10),104,157,202,36,75,76,,53,53,14,35,5,6,0.7,1.3
2026-01-27T1700,2636A,107.0083,33.114,汉中市,鑫源开发区,颗粒物(PM10),108,166,197,36,74,79,,54,54,13,38,4,7,0.5,1.1
2026-01-27T1700,2637A,107.0072,33.0323,汉中市,南郑大河坎水厂,颗粒物(PM10),106,162,198,42,72,77,,49,49,16,27,5,7,0.7,1
2026-01-27T1700,1223A,120.2073,30.2111,杭州市,滨江,细颗粒物(PM2.5),58,51,32,41,31,64,,61,61,29,25,6,6,0.6,0.6
2026-01-27T1700,1224A,120.0625,30.2737,杭州市,西溪,颗粒物(PM10),51,51,37,30,23,72,,66,66,27,28,8,8,0.9,1
2026-01-27T1700,1226A,120.3417,30.315,杭州市,下沙,细颗粒物(PM2.5),57,50,43,40,32,66,,64,64,25,25,7,7,0.9,0.9
2026-01-27T1700,1227A,120.1252,30.2465,杭州市,卧龙桥,颗粒物(PM10),51,51,32,34,22,63,,63,63,26,26,9,8,0.5,0.4
2026-01-27T1700,1228A,120.1902,30.2691,杭州市,浙江农大,颗粒物(PM10),61,71,40,30,29,73,,65,65,30,31,5,5,0.8,0.7
2026-01-27T1700,1230A,120.1195,30.3121,杭州市,和睦小学,细颗粒物(PM2.5),54,54,37,38,27,67,,66,66,26,23,4,4,0.8,0.8
2026-01-27T1700,1231A,120.3076,30.4146,杭州市,临平镇,"颗粒物(PM10),细颗粒物(PM2.5)",55,59,40,39,30,73,,70,70,14,15,6,6,0.8,0.7
2026-01-27T1700,1232A,120.2753,30.1839,杭州市,城厢镇,细颗粒物(PM2.5),52,52,41,36,27,65,,64,64,32,26,7,7,0.6,0.6
2026-01-27T1700,1233A,120.0883,30.1808,杭州市,云栖,,50,50,32,34,22,59,,59,59,34,27,4,4,0.8,0.7
2026-01-27T1700,3557A,119.9463,30.0496,杭州市,镇二中,细颗粒物(PM2.5),53,41,19,37,19,60,,54,54,32,27,4,4,0.9,0.8
2026-01-27T1700,3558A,119.7184,30.2367,杭州市,市府大楼,细颗粒物(PM2.5),63,49,24,45,21,57,,60,60,21,18,9,10,1.2,1.1
2026-01-27T1700,3656A,120.1554,30.2863,杭州市,消防大队,细颗粒物(PM2.5),59,49,35,42,31,64,,63,63,24,20,5,5,0.4,0.4
2026-01-27T1700,1270A,117.1957,31.7845,合肥市,明珠广场,细颗粒物(PM2.5),55,58,35,39,28,56,,52,52,29,19,5,5,0.6,0.6
2026-01-27T1700,1271A,117.307,31.8765,合肥市,三里街,细颗粒物(PM2.5),58,53,31,41,26,70,,54,54,22,20,5,5,0.7,0.6
2026-01-27T1700,1272A,117.2587,31.8703,合肥市,琥珀山庄,细颗粒物(PM2.5),58,63,39,41,29,72,,65,65,21,17,7,7,0.7,0.7
2026-01-27T1700,1275A,117.2593,31.9376,合肥市,庐阳区,颗粒物(PM10),59,68,38,40,28,76,,60,60,29,25,2,2,0.7,0.6
2026-01-27T1700,1276A,117.345251,31.861615,合肥市,瑶海区,细颗粒物(PM2.5),55,56,30,39,26,75,,60,60,24,22,4,4,0.6,0.5
2026-01-27T1700,1277A,117.3033,31.7967,合肥市,包河区,细颗粒物(PM2.5),58,58,35,41,30,51,,46,46,46,39,6,5,0.7,0.6
2026-01-27T1700,1278A,117.278,31.7392,合肥市,滨湖新区,细颗粒物(PM2.5),58,51,33,41,33,69,,56,56,22,22,2,2,0.7,0.6
2026-01-27T1700,1279A,117.1324,31.8395,合肥市,高新区,细颗粒物(PM2.5),59,61,41,42,31,74,,55,55,30,28,3,3,0.7,0.7
2026-01-27T1700,3464A,117.3802,31.9148,合肥市,高教基地,细颗粒物(PM2.5),57,61,30,40,31,77,,60,60,18,19,7,7,0.6,0.5
2026-01-27T1700,4098A,117.2518,31.8404,合肥市,中国科学技术大学,颗粒物(PM10),56,61,31,32,25,79,,64,64,19,15,8,7,0.8,0.6
2026-01-27T1700,3614A,79.9241,37.0878,和田地区,地区环保局,颗粒物(PM10),362,469,599,200,133,62,,46,46,8,30,1,3,,1.6
2026-01-27T1700,3615A,79.9132,37.1137,和田地区,市环保局,颗粒物(PM10),385,488,619,105,113,65,,46,46,2,20,1,3,0.3,0.9
2026-01-27T1700,2517A,108.0496,24.6957,河池市,市环保站,,23,23,23,10,14,36,,23,23,11,13,3,5,0.9,1
2026-01-27T1700,4302A,108.0901,24.6945,河池市,上任中路54号,,26,26,28,10,16,36,,21,21,10,17,4,4,0.8,0.9
2026-01-27T1700,1697A,114.6962,23.7538,河源市,东埔,细颗粒物(PM2.5),59,49,58,42,44,119,,104,104,18,44,6,6,0.7,0.7
2026-01-27T1700,1698A,114.6895,23.7232,河源市,老城,颗粒物(PM10),59,68,51,40,44,117,,100,100,14,25,7,6,1.0,0.9
2026-01-27T1700,3374A,115.5562,35.089,菏泽市,定陶老年大学,细颗粒物(PM2.5),235,251,219,185,173,94,,69,69,22,52,6,7,1.3,1.5
2026-01-27T1700,4114A,115.4239,35.2593,菏泽市,黄河路600号,细颗粒物(PM2.5),242,262,239,192,190,99,,77,77,29,54,5,5,1.0,1.4
2026-01-27T1700,4115A,115.5025,35.2727,菏泽市,菏泽市人社局,细颗粒物(PM2.5),241,259,225,191,179,91,,71,71,25,44,10,14,1.1,1.3
2026-01-27T1700,4184A,115.479691,35.244011,菏泽市,永昌路1号,细颗粒物(PM2.5),234,262,219,184,165,96,,76,76,28,45,5,7,0.8,0.9
2026-01-27T1700,4193A,115.471542,35.280012,菏泽市,长城路999号,细颗粒物(PM2.5),229,267,221,179,171,96,,76,76,30,49,15,14,1.2,1.4
2026-01-27T1700,2514A,111.5264,24.4178,贺州市,环保小区,,31,31,35,16,28,64,,54,54,16,17,3,4,0.7,0.7
2026-01-27T1700,2515A,111.561,24.4074,贺州市,政协大楼,,44,44,35,29,27,50,,52,52,15,12,14,11,0.9,0.8
2026-01-27T1700,3534A,111.4744,24.455,贺州市,西湾,,34,34,36,16,24,60,,50,50,12,12,8,9,1.0,1
2026-01-27T1700,2385A,114.17,35.9019,鹤壁市,市监测站,细颗粒物(PM2.5),218,229,197,168,149,76,,62,62,34,32,10,6,1.3,1.4
2026-01-27T1700,2386A,114.2953,35.7512,鹤壁市,市交警支队,细颗粒物(PM2.5),195,235,214,146,164,72,,57,57,31,52,9,7,1.0,1.4
2026-01-27T1700,2387A,114.2877,35.7302,鹤壁市,迎宾馆,细颗粒物(PM2.5),192,236,208,144,149,82,,59,59,28,40,9,7,1.1,1.4
2026-01-27T1700,3474A,114.2616,35.6824,鹤壁市,大新区,细颗粒物(PM2.5),201,231,201,151,154,79,,55,55,32,43,10,8,1.0,1.3
2026-01-27T1700,3596A,114.1573,35.9607,鹤壁市,南山宾馆,细颗粒物(PM2.5),223,250,218,173,138,79,,70,70,39,30,10,12,1.2,1.1
2026-01-27T1700,2244A,130.2537,47.3416,鹤岗市,哈啤分公司,,30,27,22,21,15,70,,87,85,21,6,9,6,0.3,0.2
2026-01-27T1700,2245A,130.2683,47.3087,鹤岗市,斯达机电,,40,40,31,18,12,71,,77,77,15,7,11,6,0.5,1.1
2026-01-27T1700,2246A,130.3114,47.3388,鹤岗市,东山纸板厂,颗粒物(PM10),51,52,29,31,13,57,,76,74,30,7,8,7,0.6,0.5
2026-01-27T1700,2263A,127.4832,50.2524,黑河市,交通局,,26,22,17,18,14,68,,76,76,16,9,7,4,0.4,0.2
2026-01-27T1700,2264A,127.5146,50.2339,黑河市,环保局,,28,22,14,19,10,63,,74,72,21,11,4,3,0.6,0.5
2026-01-27T1700,1074A,115.6839,37.754,衡水市,电机北厂,细颗粒物(PM2.5),119,147,187,90,120,85,,67,67,27,48,10,13,0.8,1.1
2026-01-27T1700,1075A,115.6303,37.7318,衡水市,市监测站,细颗粒物(PM2.5),120,148,178,91,115,85,,68,68,29,52,10,13,0.9,1.1
2026-01-27T1700,3188A,115.6684,37.7216,衡水市,市城管局,细颗粒物(PM2.5),107,148,184,80,108,87,,67,67,33,59,12,13,0.8,1.1
2026-01-27T1700,3459A,115.599,37.5491,衡水市,地表水厂,细颗粒物(PM2.5),107,119,169,80,128,81,,73,73,25,61,7,12,0.6,1.1
2026-01-27T1700,2457A,112.6209,26.9268,衡阳市,衡阳化工总厂,细颗粒物(PM2.5),148,,92,113,110,28,,36,33,24,17,6,7,1.2,1.2
2026-01-27T1700,2458A,112.621,26.8957,衡阳市,珠晖区环保局,细颗粒物(PM2.5),144,114,106,110,106,27,,31,28,25,23,4,4,1.3,1.3
2026-01-27T1700,2459A,112.628,26.8654,衡阳市,市委党校,细颗粒物(PM2.5),138,,92,105,109,30,,36,34,15,12,11,8,1.4,1.4
2026-01-27T1700,2460A,112.6007,26.8977,衡阳市,市监测站,细颗粒物(PM2.5),113,132,134,85,88,24,,36,34,26,18,6,6,1.3,1.3
2026-01-27T1700,2461A,112.5658,26.9013,衡阳市,真空机电公司,细颗粒物(PM2.5),125,108,122,95,115,44,,43,43,17,18,5,6,1.1,1.3
2026-01-27T1700,3399A,112.6703,26.8817,衡阳市,师范学院,细颗粒物(PM2.5),115,107,115,87,101,33,,37,36,22,19,7,2,1.0,1.1
2026-01-27T1700,3038A,103.3757,23.3679,红河哈尼族彝族自治州,州图书馆,,28,27,26,18,17,87,,81,81,5,7,7,6,0.6,0.6
2026-01-27T1700,4154A,103.401,23.3561,红河哈尼族彝族自治州,蒙自市朝阳路,,,,19,,18,87,,81,81,4,4,6,6,0.3,0.6
2026-01-27T1700,1090A,111.6506,40.7517,呼和浩特市,呼市一监,颗粒物(PM10),82,114,83,40,30,47,,46,46,35,40,26,10,0.8,0.7
2026-01-27T1700,1094A,111.7516,40.8369,呼和浩特市,如意水处理厂,颗粒物(PM10),73,95,73,38,29,50,,45,45,36,54,20,11,0.8,0.7
2026-01-27T1700,1095A,111.727798,40.806187,呼和浩特市,二十九中,颗粒物(PM10),77,103,74,43,28,50,,52,52,29,38,19,12,0.6,0.5
2026-01-27T1700,1097A,111.717,40.7617,呼和浩特市,化肥厂生活区,颗粒物(PM10),82,114,98,41,35,52,,47,47,35,42,14,7,0.7,0.7
2026-01-27T1700,3699A,111.6519,40.8389,呼和浩特市,海东办,颗粒物(PM10),76,102,67,36,27,45,,41,41,37,44,12,6,0.7,0.6
2026-01-27T1700,4275A,111.591512,40.827312,呼和浩特市,成吉思汗西街8号,颗粒物(PM10),84,117,67,43,23,43,,47,47,41,45,18,8,0.8,0.6
2026-01-27T1700,4276A,111.6597,40.8077,呼和浩特市,公园东路75号,颗粒物(PM10),82,114,75,38,26,50,,46,46,35,46,16,7,0.8,0.7
2026-01-27T1700,4277A,111.5427,40.7846,呼和浩特市,金海路35号,颗粒物(PM10),82,113,71,45,25,59,,44,44,32,46,16,11,0.8,0.6
2026-01-27T1700,3061A,119.7511,49.1576,呼伦贝尔市,国华电力东,,39,,30,27,16,62,,65,65,17,15,7,7,0.5,0.5
2026-01-27T1700,4279A,119.7569,49.2222,呼伦贝尔市,伊敏大街东7号,,41,41,28,17,14,61,,58,58,14,15,7,7,0.2,0.2
2026-01-27T1700,1250A,120.075,30.867,湖州市,城西水厂,细颗粒物(PM2.5),65,72,39,47,29,80,,76,76,27,22,5,5,0.6,0.5
2026-01-27T1700,2873A,120.083,30.8929,湖州市,仁皇山新区,细颗粒物(PM2.5),83,77,42,61,34,79,,70,70,24,24,5,5,0.8,0.7
2026-01-27T1700,2907A,120.1846,30.8592,湖州市,吴兴区站,细颗粒物(PM2.5),77,79,44,56,29,75,,68,68,35,27,5,4,0.8,0.6
2026-01-27T1700,3562A,120.4146,30.8538,湖州市,南浔区站,细颗粒物(PM2.5),82,92,45,60,32,64,,69,69,32,22,6,6,0.8,0.7
2026-01-27T1700,1607A,120.904878,40.721091,葫芦岛市,龙港区,,38,,94,26,63,72,,64,64,12,47,13,30,0.5,1.7
2026-01-27T1700,1608A,120.8382,40.7521,葫芦岛市,化工街,,42,29,120,29,77,62,,54,54,18,53,13,22,0.4,1.5
2026-01-27T1700,1609A,120.8339,40.7078,葫芦岛市,新区,,24,24,83,10,66,68,,58,58,14,54,11,19,0.4,1.6
2026-01-27T1700,1610A,120.8697,40.7679,葫芦岛市,东城区,,33,,101,23,74,63,,59,59,21,53,15,31,0.6,1.7
2026-01-27T1700,2483A,109.9297,27.5383,怀化市,河西地税局,细颗粒物(PM2.5),69,69,63,50,48,66,,56,56,18,18,2,2,/,/
2026-01-27T1700,2484A,109.9783,27.5342,怀化市,市四医院,颗粒物(PM10),67,84,67,43,49,52,,37,37,14,16,7,6,0.7,0.9
2026-01-27T1700,2485A,109.9971,27.5579,怀化市,监测楼,细颗粒物(PM2.5),59,63,64,42,50,60,,49,49,25,27,3,3,0.4,0.4
2026-01-27T1700,1210A,119.0566,33.5991,淮安市,钵池山,细颗粒物(PM2.5),78,80,71,57,49,76,,68,68,18,26,9,8,0.5,0.5
2026-01-27T1700,1211A,119.0083,33.578,淮安市,北京南路,细颗粒物(PM2.5),68,83,71,49,47,73,,70,70,21,27,10,8,0.6,0.6
2026-01-27T1700,1212A,118.9938,33.6083,淮安市,市监测站,细颗粒物(PM2.5),74,61,56,54,51,76,,69,69,21,33,10,9,0.6,0.6
2026-01-27T1700,1213A,119.135,33.5038,淮安市,楚州区监测站,细颗粒物(PM2.5),72,83,66,52,48,84,,72,72,14,31,10,9,0.3,0.3
2026-01-27T1700,3426A,118.8757,33.2897,淮安市,新华书店,"颗粒物(PM10),细颗粒物(PM2.5)",62,74,71,44,54,77,,65,65,15,22,10,9,0.8,1
2026-01-27T1700,4092A,119.119691,33.550006,淮安市,枚皋中路89号,细颗粒物(PM2.5),72,80,73,52,50,92,,79,79,11,27,10,9,0.6,0.3
2026-01-27T1700,4206A,119.028838,33.631911,淮安市,承德北路606号,颗粒物(PM10),76,102,81,55,52,76,,68,68,18,30,9,7,0.6,0.6
2026-01-27T1700,2282A,116.8005,33.9749,淮北市,监测站,细颗粒物(PM2.5),124,144,123,94,91,99,,74,74,14,22,4,4,0.7,0.8
2026-01-27T1700,2283A,116.8094,33.9008,淮北市,烈山区政府,细颗粒物(PM2.5),135,,105,103,95,106,,74,74,14,23,4,3,0.6,0.7
2026-01-27T1700,4017A,116.7926,33.9534,淮北市,市博物馆,细颗粒物(PM2.5),114,132,127,86,96,101,,78,78,10,21,4,5,0.8,0.9
2026-01-27T1700,4100A,116.8322,33.9884,淮北市,杜集区第一实验学校,细颗粒物(PM2.5),132,140,123,100,96,103,,80,80,12,23,4,6,0.7,1
2026-01-27T1700,2277A,116.8304,32.7726,淮南市,潘集区政府,细颗粒物(PM2.5),113,150,79,85,62,86,,72,72,24,21,4,4,0.6,0.5
2026-01-27T1700,2279A,116.8569,32.5949,淮南市,谢家集区政府,颗粒物(PM10),82,114,58,56,44,90,,64,64,16,17,6,6,0.7,0.6
2026-01-27T1700,2280A,116.8279,32.6333,淮南市,八公山区政府,颗粒物(PM10),87,124,63,63,49,92,,71,71,18,18,6,5,0.7,0.6
2026-01-27T1700,2894A,117.0561,32.6536,淮南市,经济技术开发区消防队,细颗粒物(PM2.5),92,124,70,68,44,83,,68,68,24,25,4,4,0.8,0.7
2026-01-27T1700,3329A,117.011,32.5891,淮南市,山南新区,颗粒物(PM10),89,127,65,58,39,92,,73,73,21,22,6,6,0.5,0.5
2026-01-27T1700,4209A,117.003137,32.644456,淮南市,国庆中路369号,细颗粒物(PM2.5),90,115,66,67,51,81,,60,60,20,22,8,7,0.6,0.4
2026-01-27T1700,2446A,114.9021,30.474,黄冈市,职工中心,细颗粒物(PM2.5),53,45,74,37,64,54,,50,50,18,22,6,6,0.8,0.8
2026-01-27T1700,2929A,114.8858,30.4519,黄冈市,红卫路,,48,34,63,33,66,56,,52,52,17,20,7,7,0.4,0.4
2026-01-27T1700,3398A,114.9134,30.4446,黄冈市,市林业局,,50,41,64,35,63,53,,49,49,20,22,3,4,0.7,0.8
2026-01-27T1700,2672A,102.02,35.5101,黄南藏族自治州,同仁县隆务镇,颗粒物(PM10),66,81,99,37,48,86,,78,78,5,4,8,9,0.3,0.5
2026-01-27T1700,2295A,118.2905,29.6965,黄山市,延安路89号,,15,13,9,10,11,37,,42,42,15,14,4,4,0.7,0.7
2026-01-27T1700,2297A,118.1369,30.2755,黄山市,黄山区政府5号楼,,49,37,17,34,14,62,,55,55,15,18,2,2,0.6,0.7
2026-01-27T1700,4210A,118.335445,29.720283,黄山市,滨江东路7-2号,,35,,23,24,21,39,,42,42,15,14,/,/,/,/
2026-01-27T1700,2423A,115.0547,30.2332,黄石市,沈家营,细颗粒物(PM2.5),57,60,92,40,67,32,,27,27,15,18,7,7,1.3,1.5
2026-01-27T1700,2426A,114.899,30.211,黄石市,铁山,,,62,69,58,82,44,,37,37,,23,8,6,0.6,0.8
2026-01-27T1700,2427A,115.0259,30.2108,黄石市,团城山,,,62,94,50,77,,,28,28,22,21,6,6,0.8,0.9
2026-01-27T1700,3149A,115.0174,30.1591,黄石市,笔架山北路,细颗粒物(PM2.5),79,98,116,58,85,29,,24,24,31,26,7,7,0.9,1
2026-01-27T1700,4185A,115.078022,30.21118,黄石市,磁湖东路29号,细颗粒物(PM2.5),70,61,87,51,84,33,,24,24,25,27,7,6,1.1,1.3
2026-01-27T1700,1392A,114.4181,23.0528,惠州市,河南岸金山湖子站,,50,50,54,35,33,123,,103,103,22,28,5,5,0.7,0.8
2026-01-27T1700,1393A,114.4055,23.0824,惠州市,下埔横江三路子站,颗粒物(PM10),52,53,77,31,38,143,,116,116,15,29,8,7,0.7,0.7
2026-01-27T1700,1395A,114.4645,22.7832,惠州市,惠阳区承修路船湖子站,,45,35,47,23,29,142,,116,116,13,24,7,7,0.6,0.6
2026-01-27T1700,1396A,114.5316,22.7423,惠州市,大亚湾管委会子站,臭氧1小时(O3_1h),58,60,49,34,26,166,,121,121,26,20,8,6,0.6,0.5
2026-01-27T1700,3314A,114.4334,22.8134,惠州市,惠阳秋长,臭氧1小时(O3_1h),60,46,48,26,30,168,,138,138,14,29,/,/,/,/
2026-01-27T1700,3452A,114.6521,22.7755,惠州市,大亚湾霞涌,臭氧1小时(O3_1h),63,47,33,25,19,170,,145,145,26,19,/,/,/,/
2026-01-27T1700,4300A,114.4089,23.1147,惠州市,文华一路1号,颗粒物(PM10),51,52,57,34,34,152,,124,124,17,33,/,/,/,/
2026-01-27T1700,2240A,130.9618,45.2926,鸡西市,环保局,,44,44,28,22,19,69,,68,68,11,10,9,7,0.3,0.4
2026-01-27T1700,2243A,130.9294,45.2959,鸡西市,第一中学,颗粒物(PM10),60,69,30,25,20,66,,68,68,14,10,7,4,0.3,0.4
2026-01-27T1700,3707A,131.0069,45.2988,鸡西市,欧美日汽修厂,,35,,35,24,24,74,,70,66,2,11,5,10,0.3,0.3
2026-01-27T1700,2367A,114.9753,27.0803,吉安市,红声器材厂,,49,44,39,34,26,29,,24,24,26,25,8,8,0.9,1.2
2026-01-27T1700,2369A,114.9903,27.1313,吉安市,市环境监测站,,,46,36,42,27,31,,26,26,,21,6,7,/,/
2026-01-27T1700,2370A,115.009527,27.096792,吉安市,青原区法院,,48,40,38,33,27,30,,23,22,25,21,10,10,1.0,1.2
2026-01-27T1700,1772A,126.54,43.8622,吉林市,哈达湾,,41,41,61,28,51,70,,69,69,16,21,11,9,0.9,0.9
2026-01-27T1700,1773A,126.5843,43.8358,吉林市,东局子,,36,35,57,25,49,62,,57,57,16,23,4,7,0.8,1
2026-01-27T1700,1774A,126.5051,43.8243,吉林市,电力学院,,48,41,63,33,55,70,,68,68,15,24,7,7,0.7,0.9
2026-01-27T1700,1775A,126.6133,43.8971,吉林市,江北,,42,39,73,29,63,60,,58,58,8,19,6,8,0.8,1.1
2026-01-27T1700,1776A,126.5549,43.8304,吉林市,江南公园,,39,35,57,27,50,66,,65,65,15,20,7,13,0.4,0.6
2026-01-27T1700,2868A,126.4737,43.953,吉林市,九站,,45,36,63,31,56,63,,61,61,18,37,6,6,0.5,0.8
2026-01-27T1700,1299A,116.9866,36.6118,济南市,科干所,颗粒物(PM10),73,95,113,42,68,87,,65,65,16,43,7,12,0.6,0.9
2026-01-27T1700,1300A,116.9379,36.6652,济南市,农科所,颗粒物(PM10),74,98,130,42,98,75,,52,52,24,55,8,13,0.7,1.2
2026-01-27T1700,1301A,117.1265,36.6736,济南市,开发区,细颗粒物(PM2.5),115,164,126,87,81,45,,50,50,73,54,10,5,1.0,1
2026-01-27T1700,1303A,117.0616,36.6865,济南市,省种子仓库,颗粒物(PM10),107,163,130,68,77,46,,38,38,60,60,11,9,0.8,1
2026-01-27T1700,1304A,116.9495185,36.644937,济南市,机床二厂,颗粒物(PM10),74,98,136,46,98,81,,57,57,21,49,10,26,0.6,1.2
2026-01-27T1700,1305A,117.0496,36.6629,济南市,市监测站,颗粒物(PM10),101,151,119,68,74,48,,46,46,51,50,10,7,0.9,1
2026-01-27T1700,1306A,116.7674,36.5458,济南市,长清党校,细颗粒物(PM2.5),74,85,108,54,71,85,,71,71,19,42,10,9,0.8,0.9
2026-01-27T1700,1961A,117.5323,36.6865,济南市,东山小学,颗粒物(PM10),89,127,122,49,70,86,,75,75,22,39,8,6,0.4,0.6
2026-01-27T1700,3059A,117.7181,36.205,济南市,泰兴公司,颗粒物(PM10),74,97,152,51,115,85,,70,70,25,50,10,9,0.8,1.3
2026-01-27T1700,3064A,117.6861,36.2172,济南市,莱芜战役纪念馆,颗粒物(PM10),76,102,152,47,116,80,,70,70,19,55,10,10,0.9,1.3
2026-01-27T1700,3494A,117.1673,36.9782,济南市,济阳区政府,颗粒物(PM10),99,147,127,52,71,77,,70,70,26,48,8,10,0.7,0.9
2026-01-27T1700,3495A,117.1168,36.6299,济南市,锦屏中学,颗粒物(PM10),91,132,107,54,66,62,,62,62,47,36,8,4,1.1,1.1
2026-01-27T1700,4108A,117.7107,36.2385,济南市,山财大街5号,颗粒物(PM10),81,112,124,32,80,84,,72,72,39,58,13,12,0.7,1.2
2026-01-27T1700,4109A,116.9744,36.6889,济南市,无影山路12号,细颗粒物(PM2.5),110,134,126,83,94,52,,46,46,51,61,12,19,0.9,1.4
2026-01-27T1700,1653A,116.6229,35.4288,济宁市,火炬城,细颗粒物(PM2.5),238,,146,188,134,82,,68,68,29,34,5,6,1.1,1.1
2026-01-27T1700,3500A,116.5808,35.3703,济宁市,北湖一中,细颗粒物(PM2.5),228,184,144,178,131,83,,73,73,34,38,6,9,1.1,1.1
2026-01-27T1700,3501A,116.8251,35.5592,济宁市,服务中心,细颗粒物(PM2.5),175,199,181,132,134,101,,70,70,14,34,6,9,0.8,1.1
2026-01-27T1700,3678A,116.5907,35.4054,济宁市,市第七中学,细颗粒物(PM2.5),280,,143,230,136,86,,88,88,36,37,10,16,,1.3
2026-01-27T1700,4111A,116.6075,35.4566,济宁市,任和路,细颗粒物(PM2.5),210,204,176,160,125,88,,76,76,35,44,9,12,1.2,1.2
2026-01-27T1700,4112A,116.5648,35.3921,济宁市,文体南路1号,细颗粒物(PM2.5),222,206,179,172,130,83,,78,78,38,42,7,10,1.1,1.1
2026-01-27T1700,2255A,130.2749,46.8028,佳木斯市,佳纺,细颗粒物(PM2.5),52,40,39,36,31,56,,67,67,20,17,5,10,0.6,0.6
2026-01-27T1700,2257A,130.3258,46.7975,佳木斯市,环保局,,46,,33,32,27,61,,69,69,23,18,8,8,0.6,0.6
2026-01-27T1700,4285A,130.363,46.806,佳木斯市,顺和街,,38,32,33,26,29,51,,62,62,29,20,9,10,0.5,0.5
2026-01-27T1700,4286A,130.3952,46.8268,佳木斯市,长安路196号,,36,,30,25,23,68,,79,79,20,13,4,6,0.6,0.5
2026-01-27T1700,1252A,120.7439,30.778,嘉兴市,清河小学,细颗粒物(PM2.5),85,111,45,63,30,72,,72,72,27,21,4,5,0.6,0.3
2026-01-27T1700,1253A,120.7261,30.7477,嘉兴市,嘉兴学院,细颗粒物(PM2.5),83,103,46,61,29,73,,70,70,27,22,4,4,1.4,1.1
2026-01-27T1700,2872A,120.7845,30.7524,嘉兴市,南湖区残联,细颗粒物(PM2.5),92,117,48,68,28,67,,70,70,31,21,4,4,1.0,0.8
2026-01-27T1700,3407A,120.6915,30.7741,嘉兴市,秀洲住建,细颗粒物(PM2.5),100,122,48,75,33,59,,69,69,37,22,6,6,0.8,0.5
2026-01-27T1700,1945A,98.291,39.7705,嘉峪关市,气象局,颗粒物(PM10),209,356,289,88,66,81,,62,62,10,24,24,29,0.8,0.8
2026-01-27T1700,2884A,98.2672,39.7978,嘉峪关市,酒钢宾馆,颗粒物(PM10),202,351,303,85,72,75,,50,50,13,24,29,39,1.1,1.3
2026-01-27T1700,3248A,98.2644,39.7723,嘉峪关市,雄关区,颗粒物(PM10),164,277,238,73,54,79,,54,54,14,28,22,30,0.7,0.8
2026-01-27T1700,1383A,113.1063,22.6058,江门市,北街,臭氧1小时(O3_1h),78,86,71,54,50,182,,113,113,38,48,/,/,/,/
2026-01-27T1700,1384A,113.073,22.5835,江门市,西区,颗粒物(PM10),70,89,77,35,36,173,,116,116,42,49,/,/,/,/
2026-01-27T1700,1385A,113.0218,22.531,江门市,圭峰西,臭氧1小时(O3_1h),87,86,64,51,42,189,,141,141,36,30,/,/,/,/
2026-01-27T1700,1386A,113.0826,22.5947,江门市,东湖,臭氧1小时(O3_1h),75,80,69,43,49,180,,122,122,33,40,9,9,0.7,0.7
2026-01-27T1700,3311A,113.1077,22.5647,江门市,江海富民,颗粒物(PM10),74,97,97,51,53,177,,119,119,46,48,/,/,0.9,0.7
2026-01-27T1700,3449A,113.0496,22.4669,江门市,新会银湖,细颗粒物(PM2.5),89,87,70,66,47,188,,143,143,39,44,8,8,0.7,0.6
2026-01-27T1700,3335A,113.3137,35.2643,焦作市,马村街道办,细颗粒物(PM2.5),237,277,205,187,152,60,,46,46,,31,,9,1.2,1.3
2026-01-27T1700,3336A,113.2464,35.2374,焦作市,焦作技师学院,细颗粒物(PM2.5),221,256,199,171,133,61,,42,42,36,37,8,8,1.4,1.4
2026-01-27T1700,3477A,113.1656,35.2536,焦作市,中站许衡医院,细颗粒物(PM2.5),211,233,197,161,138,53,,47,45,38,36,10,8,1.5,1.3
2026-01-27T1700,3981A,113.2456,35.18,焦作市,原李万街道办,细颗粒物(PM2.5),221,255,205,171,161,65,,39,39,31,37,8,8,1.0,1.3
2026-01-27T1700,4264A,113.234,35.219,焦作市,新安路1731号,细颗粒物(PM2.5),229,263,206,179,151,67,,42,42,31,39,9,9,1.3,1.4
2026-01-27T1700,4295A,113.2722,35.2121,焦作市,人民路3066号,细颗粒物(PM2.5),216,255,206,166,145,58,,44,44,40,39,8,7,1.2,1.7
2026-01-27T1700,1708A,116.3701,23.5345,揭阳市,新兴,颗粒物(PM10),52,54,78,34,54,98,,85,85,28,52,8,11,0.6,1.2
2026-01-27T1700,1709A,116.3261,23.5442,揭阳市,西马,,,63,81,,60,,,77,77,16,40,4,7,,1
2026-01-27T1700,1710A,116.361,23.5627,揭阳市,东兴,"颗粒物(PM10),细颗粒物(PM2.5)",55,60,81,39,54,99,,83,83,21,46,11,11,/,/
2026-01-27T1700,1711A,116.4151,23.5295,揭阳市,渔湖,颗粒物(PM10),57,63,74,19,36,94,,89,89,20,36,5,8,/,/
2026-01-27T1700,3320A,116.4028,23.5699,揭阳市,曲溪,颗粒物(PM10),52,54,74,32,42,97,,85,85,16,41,5,9,0.6,1
2026-01-27T1700,1944A,102.1691,38.5166,金昌市,天庆家园,颗粒物(PM10),102,153,266,,79,91,,75,75,10,19,23,25,0.7,0.9
2026-01-27T1700,4022A,102.1648,38.5369,金昌市,金川区人防中心,颗粒物(PM10),108,165,266,63,66,88,,70,70,11,14,20,22,0.5,0.6
2026-01-27T1700,4239A,102.193042,38.531887,金昌市,长春路96号,颗粒物(PM10),108,166,264,56,67,84,,64,64,11,19,23,28,0.8,0.8
2026-01-27T1700,1262A,119.6478,29.0773,金华市,十五中,细颗粒物(PM2.5),59,57,35,42,26,39,,27,,37,34,3,3,0.7,0.5
2026-01-27T1700,1263A,119.6859,29.1032,金华市,监测站,,49,49,33,24,19,31,,29,29,52,44,2,2,0.5,0.5
2026-01-27T1700,3659A,119.656,29.1132,金华市,气象局,,,,29,62,22,33,,28,28,43,39,3,3,,0.1
2026-01-27T1700,1767A,121.1114,41.0879,锦州市,南山,颗粒物(PM10),59,67,64,17,48,55,,68,68,30,34,14,18,0.6,1.1
2026-01-27T1700,1768A,121.060361,40.842794,锦州市,开发区,,30,30,86,17,54,57,,64,64,29,45,13,38,0.5,1.2
2026-01-27T1700,1769A,121.1836,41.1118,锦州市,百股街道,,48,48,61,24,48,65,,74,74,22,35,12,15,0.6,1.1
2026-01-27T1700,1770A,121.1176,41.1224,锦州市,天安街道,颗粒物(PM10),59,68,56,20,38,59,,76,76,31,29,10,15,0.7,1
2026-01-27T1700,1771A,121.1303,41.1385,锦州市,北湖公园,颗粒物(PM10),56,62,48,20,32,54,,73,73,28,18,12,14,0.5,0.8
2026-01-27T1700,2160A,112.8496,35.5051,晋城市,自来水公司,颗粒物(PM10),92,133,187,43,87,91,,59,59,12,38,5,7,0.5,1.2
2026-01-27T1700,2162A,112.8509,35.4886,晋城市,市环保局,颗粒物(PM10),81,111,181,51,86,90,,8,,11,40,6,6,0.5,1.4
2026-01-27T1700,3620A,112.8258,35.4804,晋城市,泽州一中,颗粒物(PM10),109,168,198,49,87,96,,58,58,13,33,4,4,0.6,1.2
2026-01-27T1700,4078A,112.8246,35.5152,晋城市,前书院路,颗粒物(PM10),104,157,198,49,74,91,,54,54,10,30,5,5,0.5,1.1
2026-01-27T1700,4079A,112.8864,35.4773,晋城市,祥云街666号,细颗粒物(PM2.5),108,155,199,81,103,90,,50,50,15,37,6,7,0.4,1
2026-01-27T1700,2174A,112.6992,37.6984,晋中市,榆次区政府,细颗粒物(PM2.5),147,202,214,112,118,74,,54,54,38,44,20,17,0.9,1
2026-01-27T1700,2865A,112.7195,37.683,晋中市,榆次三中,细颗粒物(PM2.5),145,212,200,111,100,69,,53,53,37,46,21,16,1.1,1.1
2026-01-27T1700,4080A,112.7375,37.7215,晋中市,广安街188号,细颗粒物(PM2.5),147,207,263,112,143,79,,53,53,42,59,23,15,0.8,1.2
2026-01-27T1700,4200A,112.7478,37.6954,晋中市,迎宾街26号,细颗粒物(PM2.5),163,215,211,124,122,75,,62,62,38,42,22,17,1.1,1.2
2026-01-27T1700,2439A,112.2012,31.048,荆门市,竹园小学,细颗粒物(PM2.5),138,222,170,105,103,76,,66,66,22,33,1,1,0.4,0.6
2026-01-27T1700,2440A,112.1968,30.9892,荆门市,掇刀,颗粒物(PM10),137,223,178,103,106,85,,78,78,21,29,4,3,0.8,0.9
2026-01-27T1700,3012A,112.1849,31.0361,荆门市,西山林语,颗粒物(PM10),129,207,166,96,96,80,,72,72,23,24,1,28,1.0,1.1
2026-01-27T1700,3547A,112.1631,31.0134,荆门市,龙泉中学南校,颗粒物(PM10),145,239,180,107,107,83,,78,78,17,17,4,3,0.5,0.8
2026-01-27T1700,4124A,112.2213,31.0654,荆门市,新台西路6号,细颗粒物(PM2.5),163,212,166,124,109,81,,66,66,19,33,8,7,0.9,1.1
2026-01-27T1700,1844A,112.2493,30.3198,荆州市,市图书馆,细颗粒物(PM2.5),149,120,112,114,128,88,,59,59,18,35,6,6,1.1,1.2
2026-01-27T1700,1845A,112.2009,30.3543,荆州市,市委党校,细颗粒物(PM2.5),139,135,133,106,121,77,,57,57,29,41,5,5,1.0,1.2
2026-01-27T1700,3194A,112.2749,30.3124,荆州市,管委会,细颗粒物(PM2.5),147,115,117,112,127,82,,59,59,24,37,6,6,1.2,1.3
2026-01-27T1700,4268A,112.1722,30.3366,荆州市,学苑路85号,细颗粒物(PM2.5),140,124,121,107,113,89,,66,66,20,30,8,7,1.2,1.2
2026-01-27T1700,2343A,117.2114,29.2931,景德镇市,老干部活动中心,,14,14,10,6,13,24,,21,21,15,13,5,5,0.5,0.5
2026-01-27T1700,2344A,117.1893,29.2789,景德镇市,兽医站,,25,25,22,3,8,31,,28,28,14,15,3,3,0.6,0.6
2026-01-27T1700,2346A,117.246,29.2958,景德镇市,陶研所,,15,13,11,10,14,28,,24,24,14,12,3,3,0.7,0.8
2026-01-27T1700,4289A,117.154766,29.256967,景德镇市,青少年活动中心,,16,15,15,11,12,27,,25,25,17,16,4,7,/,/
2026-01-27T1700,1803A,115.9873,29.6816,九江市,十里,,38,,70,26,61,58,,60,60,20,32,5,5,0.7,1.1
2026-01-27T1700,1804A,115.9583,29.7047,九江市,茅山头,,33,28,76,23,58,44,,46,46,17,29,4,4,0.6,1
2026-01-27T1700,1805A,115.9877,29.7295,九江市,西园,,,,88,21,60,45,,48,48,25,37,4,4,0.4,0.8
2026-01-27T1700,1808A,115.9112,29.6038,九江市,综合工业园,,,,78,32,76,45,,43,43,22,40,,2,0.6,0.7
2026-01-27T1700,3190A,116.0254,29.6995,九江市,外国语学校,,20,,64,14,55,39,,42,42,20,33,3,4,0.5,1
2026-01-27T1700,4253A,116.010205,29.659402,九江市,莲花大道8号,,23,20,72,16,62,34,,36,36,10,24,2,2,0.5,0.8
2026-01-27T1700,4240A,98.495752,39.733935,酒泉市,玉门东路5号,颗粒物(PM10),303,422,325,91,60,80,,59,59,8,17,25,22,0.6,0.7
2026-01-27T1700,4241A,98.5099,39.7506,酒泉市,北大街108号,颗粒物(PM10),220,364,330,86,67,76,,57,57,11,20,26,22,0.6,0.7
2026-01-27T1700,2698A,76.0071,39.466,喀什地区,巡警大队,颗粒物(PM10),442,542,562,155,162,53,,16,16,21,48,,6,1.0,2.2
2026-01-27T1700,2699A,75.9756,39.4693,喀什地区,吾办,颗粒物(PM10),385,488,527,152,162,60,,26,26,19,50,11,10,0.9,2
2026-01-27T1700,4027A,75.9485,39.4688,喀什地区,老干局,颗粒物(PM10),441,541,582,128,152,61,,25,25,10,43,6,5,0.6,2.3
2026-01-27T1700,1824A,114.3389,34.778,开封市,肿瘤医院,细颗粒物(PM2.5),134,154,195,102,158,97,,79,79,18,48,10,10,1.0,1.4
2026-01-27T1700,1826A,114.2884,34.7966,开封市,世纪星幼儿园,细颗粒物(PM2.5),170,146,178,129,181,95,,78,78,16,45,5,5,0.9,1.3
2026-01-27T1700,3147A,114.3434,34.8101,开封市,龙亭公园,细颗粒物(PM2.5),142,169,203,108,186,98,,77,77,23,58,8,8,0.9,1.7
2026-01-27T1700,3210A,114.3645,34.7955,开封市,汴京公园,细颗粒物(PM2.5),140,184,199,107,174,94,,79,79,20,60,5,5,0.7,1.3
2026-01-27T1700,3473A,114.2485,34.8306,开封市,技师学院,细颗粒物(PM2.5),156,151,178,119,165,101,,84,84,23,49,6,7,0.9,1.2
2026-01-27T1700,3592A,114.4518,34.7503,开封市,祥符区生态环境局,细颗粒物(PM2.5),133,170,224,101,175,89,,80,80,25,55,5,11,0.8,1.2
2026-01-27T1700,1951A,84.886,45.6029,克拉玛依市,长征新村,颗粒物(PM10),78,105,92,54,56,61,,51,51,28,30,7,6,0.6,0.7
2026-01-27T1700,1952A,84.8894,45.5827,克拉玛依市,南林小区,颗粒物(PM10),70,90,92,43,47,63,,47,47,16,24,3,3,0.7,0.9
2026-01-27T1700,1954A,84.896,44.3328,克拉玛依市,独山子区,颗粒物(PM10),173,295,138,125,79,84,,60,60,80,64,2,2,0.8,0.8
2026-01-27T1700,1955A,85.6888,46.0909,克拉玛依市,乌尔禾区商贸楼,颗粒物(PM10),68,86,74,43,46,71,,53,53,24,29,8,7,0.6,0.6
2026-01-27T1700,3612A,85.1045,45.6895,克拉玛依市,白碱滩区新站,颗粒物(PM10),73,95,92,42,50,52,,29,29,31,34,9,8,0.7,0.7
2026-01-27T1700,2697A,76.1457,39.7143,克孜勒苏柯尔克孜自治州,市人民政府,颗粒物(PM10),408,508,522,163,135,70,,44,44,17,17,5,4,0.6,0.5
2026-01-27T1700,3665A,76.1654,39.7157,克孜勒苏柯尔克孜自治州,克州文化中心,颗粒物(PM10),394,495,530,148,122,59,,40,40,22,19,6,4,1.0,0.9
2026-01-27T1700,1450A,102.8203,24.889,昆明市,呈贡新区,,29,29,30,15,22,91,,78,78,9,14,6,6,0.5,0.6
2026-01-27T1700,1452A,102.7253,25.0904,昆明市,龙泉镇,,36,36,34,16,20,106,,86,86,15,22,5,3,0.4,0.4
2026-01-27T1700,1453A,102.7267,25.0378,昆明市,东风东路,,33,32,33,16,16,103,,88,88,18,16,8,7,0.3,0.4
2026-01-27T1700,1454A,102.6744,25.0671,昆明市,金鼎山,,,,36,,21,,,93,81,,18,,4,,0.4
2026-01-27T1700,1455A,102.6643,25.0401,昆明市,碧鸡广场,,34,28,38,19,19,108,,86,86,13,22,6,5,0.3,0.4
2026-01-27T1700,3179A,102.7491,25.012,昆明市,官渡区博物馆,,,38,32,14,18,112,,93,93,,17,6,4,6.4,0.8
2026-01-27T1700,3375A,102.8016,24.8336,昆明市,青年创业园,,35,16,28,13,19,110,,92,92,3,11,7,6,0.3,0.4
2026-01-27T1700,3550A,102.8,24.9787,昆明市,昆明学院,,35,26,36,15,23,110,,89,89,10,14,6,5,0.5,0.5
2026-01-27T1700,3551A,102.5969,24.6738,昆明市,晋宁区生态环境分局,,33,18,30,17,20,104,,89,89,6,12,4,3,0.5,0.7
2026-01-27T1700,3552A,102.6673,24.9861,昆明市,云天化总部,,36,20,29,12,19,113,,92,92,10,15,10,8,0.3,0.4
2026-01-27T1700,1456A,91.132,29.6515,拉萨市,八廓街,,31,15,16,7,10,99,,83,83,6,10,7,6,0.4,0.4
2026-01-27T1700,1457A,91.1221,29.6748,拉萨市,市环保局,,29,,21,13,15,90,,76,76,12,20,6,7,0.5,0.8
2026-01-27T1700,1458A,91.0874,29.6476,拉萨市,区监测站,,30,,12,6,7,93,,77,77,8,16,4,4,0.7,0.7
2026-01-27T1700,1459A,91.1774,29.6541,拉萨市,西藏大学,,31,9,14,3,8,99,,81,81,10,12,4,4,0.4,0.5
2026-01-27T1700,1460A,90.9798,29.6586,拉萨市,区辐射站,,28,10,25,6,15,88,,68,68,12,29,3,4,0.4,0.6
2026-01-27T1700,1461A,91.0831,29.6292,拉萨市,拉萨火车站,,29,6,15,3,8,92,,71,71,8,18,4,4,0.3,0.5
2026-01-27T1700,2520A,109.2203,23.7252,来宾市,来宾技工学校,,43,43,23,17,9,46,,44,44,12,13,10,9,0.9,0.9
2026-01-27T1700,3535A,109.1781,23.7293,来宾市,兴宾区政府,,29,29,20,16,13,50,,46,46,13,13,5,5,0.9,0.9
2026-01-27T1700,4002A,109.2312,23.7428,来宾市,中南小学,,34,34,23,21,11,46,,44,44,13,15,8,6,1.1,1.1
2026-01-27T1700,1479A,103.8309,36.0467,兰州市,铁路设计院,,,,,,,,,,,,,,,,
2026-01-27T1700,3241A,103.7439,36.0841,兰州市,百合公园,颗粒物(PM10),193,336,360,84,88,72,,45,45,34,57,11,16,0.7,1
2026-01-27T1700,3242A,103.9613,35.9985,兰州市,和平,颗粒物(PM10),235,374,454,85,112,100,,68,68,17,24,17,16,1.0,1.1
2026-01-27T1700,4236A,103.629272,36.093822,兰州市,庄浪东路808号,颗粒物(PM10),252,386,393,119,110,70,,58,58,46,42,21,21,1.1,1
2026-01-27T1700,4237A,103.7251,36.104344,兰州市,安宁西路88号,颗粒物(PM10),258,390,407,79,82,76,,55,55,44,48,16,17,1.0,0.8
2026-01-27T1700,4238A,103.846982,36.067567,兰州市,北滨河东路1号,颗粒物(PM10),194,338,403,74,94,95,,55,55,30,56,13,13,1.0,1.2
2026-01-27T1700,1067A,116.6712,39.5109,廊坊市,药材公司,颗粒物(PM10),53,56,89,35,61,57,,18,,28,44,3,2,0.5,0.7
2026-01-27T1700,1068A,116.7215,39.5592,廊坊市,开发区,颗粒物(PM10),51,52,76,30,47,59,,60,60,32,42,3,2,0.5,0.6
2026-01-27T1700,1070A,116.7246,39.5273,廊坊市,北华航天学院,颗粒物(PM10),52,54,80,28,50,62,,63,63,29,37,4,3,0.5,0.6
2026-01-27T1700,2919A,116.7022,39.5454,廊坊市,河北工业大学,颗粒物(PM10),53,56,80,30,46,60,,61,61,25,32,2,2,0.6,0.6
2026-01-27T1700,2536A,103.7629,29.5844,乐山市,牛耳桥,颗粒物(PM10),74,97,122,44,56,92,,62,62,19,34,6,5,0.8,0.9
2026-01-27T1700,2537A,103.7501,29.6002,乐山市,市第三水厂,,,,132,44,57,101,,71,71,16,44,6,6,0.9,1
2026-01-27T1700,2538A,103.7571,29.5664,乐山市,市监测站,颗粒物(PM10),76,102,123,43,53,95,,63,63,12,28,5,6,0.8,0.9
2026-01-27T1700,3361A,103.7313,29.563,乐山市,理工大学,颗粒物(PM10),78,105,131,45,55,96,,61,61,10,26,6,6,0.8,0.9
2026-01-27T1700,2599A,100.2497,26.8802,丽江市,丽江古城,,28,18,23,12,11,89,,80,80,10,9,10,10,0.4,0.4
2026-01-27T1700,2600A,100.2203,26.8906,丽江市,市中心,,30,30,17,3,8,88,,76,76,11,11,6,5,0.4,0.4
2026-01-27T1700,1267A,119.9141,28.4513,丽水市,监测站大楼,,17,17,20,9,24,36,,27,26,20,23,4,4,0.4,0.5
2026-01-27T1700,1268A,119.93,28.4589,丽水市,莲都小学,,16,16,31,9,20,39,,50,50,21,22,/,/,/,/
2026-01-27T1700,1269A,119.8794,28.4232,丽水市,余庄前,,16,13,26,11,20,19,,20,20,24,22,4,4,0.5,0.6
2026-01-27T1700,1173A,119.1759,34.5885,连云港市,市环境监测站,,46,46,88,22,62,80,,68,68,15,37,14,16,0.6,0.8
2026-01-27T1700,3000A,119.3577,34.6971,连云港市,德源药业,颗粒物(PM10),63,75,94,36,57,70,,63,63,39,46,11,8,0.7,0.8
2026-01-27T1700,3007A,119.178,34.8442,连云港市,新城一中,颗粒物(PM10),62,73,86,25,72,75,,68,68,30,48,11,21,0.5,1.1
2026-01-27T1700,3008A,119.3607,34.7519,连云港市,胡沟管理处,,,51,84,29,55,74,,79,79,24,36,,12,0.8,0.9
2026-01-27T1700,3009A,119.1478,34.5913,连云港市,矿山设计院,,39,39,91,14,60,79,,66,66,15,39,9,12,0.6,1
2026-01-27T1700,3434A,119.2414,34.6539,连云港市,工贸学校,颗粒物(PM10),54,58,77,35,58,82,,70,70,21,32,17,15,0.5,0.8
2026-01-27T1700,3664A,119.4171,34.734,连云港市,连云街道,,,,81,,54,59,,63,63,32,40,14,8,,0.8
2026-01-27T1700,2573A,102.2629,27.8981,凉山彝族自治州,西昌市政府,细颗粒物(PM2.5),98,102,77,73,56,138,,95,95,21,18,12,8,0.9,0.8
2026-01-27T1700,2574A,102.2686,27.885,凉山彝族自治州,凉山州政府,,,,89,,47,114,,82,82,20,20,13,9,1.0,0.8
2026-01-27T1700,4229A,102.2342,27.8859,凉山彝族自治州,凯乐南路30号,细颗粒物(PM2.5),93,113,101,69,53,124,,78,78,13,22,14,9,0.9,0.8
2026-01-27T1700,2212A,123.1978,41.2036,辽阳市,宏伟区,,44,44,60,13,39,65,,66,66,9,20,11,10,0.3,0.7
2026-01-27T1700,2213A,123.1684,41.2497,辽阳市,新华园,,42,42,68,16,46,65,,70,70,17,29,12,11,0.4,1
2026-01-27T1700,2214A,123.2355,41.2663,辽阳市,滨河路,,37,37,64,12,41,67,,68,68,12,30,9,11,0.4,0.9
2026-01-27T1700,4083A,123.153,41.2874,辽阳市,铁西路150号,,42,42,71,9,54,70,,73,73,13,35,10,12,0.7,1.5
2026-01-27T1700,2227A,125.1359,42.8845,辽源市,环保局,,42,42,59,9,43,74,,71,71,10,33,5,6,0.5,1
2026-01-27T1700,4085A,125.0998,42.9134,辽源市,安宁大街333号,,34,34,63,9,49,69,,69,69,7,18,7,7,0.6,0.9
2026-01-27T1700,1625A,115.9789,36.4372,聊城市,区政府,细颗粒物(PM2.5),128,149,140,97,106,95,,73,73,25,45,13,15,0.8,1.1
2026-01-27T1700,3200A,115.9772,36.4986,聊城市,监控中心,细颗粒物(PM2.5),128,135,150,97,105,94,,73,73,30,59,9,10,0.8,1.2
2026-01-27T1700,3513A,116.0443,36.436,聊城市,九州社区,细颗粒物(PM2.5),114,141,137,86,94,104,,78,78,16,34,5,10,0.8,0.9
2026-01-27T1700,4018A,116.0564,36.4609,聊城市,星美广场,细颗粒物(PM2.5),119,148,149,90,94,91,,70,70,19,37,6,6,0.9,1
2026-01-27T1700,4113A,116.0091,36.4495,聊城市,利民路,细颗粒物(PM2.5),134,143,133,102,94,87,,66,66,25,44,11,13,0.9,1.1
2026-01-27T1700,2632A,94.3683,29.6373,林芝市,林芝监测站,,,6,12,3,8,96,,80,80,,6,2,2,,0.3
2026-01-27T1700,2633A,94.3616,29.6634,林芝市,林芝人民医院,,31,16,15,3,9,98,,80,80,3,5,6,5,0.2,0.3
2026-01-27T1700,2603A,100.0779,23.8981,临沧市,市环保局,,38,38,29,24,39,87,,70,70,5,10,7,7,0.4,0.6
2026-01-27T1700,2604A,100.0894,23.882,临沧市,市气象局,,50,50,45,18,22,80,,67,67,13,11,10,9,0.3,0.4
2026-01-27T1700,1733A,111.5552,36.0791,临汾市,临钢医院,颗粒物(PM10),145,239,222,72,84,81,,52,52,24,31,7,5,1.3,1.2
2026-01-27T1700,1734A,111.4984,36.0734,临汾市,技工学校,颗粒物(PM10),136,221,214,100,100,75,,47,47,27,36,7,5,1.3,1.2
2026-01-27T1700,1736A,111.5017,36.0857,临汾市,市委,颗粒物(PM10),152,254,227,91,86,77,,52,52,25,37,9,7,1.2,1.3
2026-01-27T1700,3018A,111.5048,36.1015,临汾市,唐尧大酒店,颗粒物(PM10),132,214,211,75,86,82,,50,50,24,38,6,4,1.4,1.4
2026-01-27T1700,4244A,111.4879,36.053,临汾市,启星学校,颗粒物(PM10),130,210,202,73,78,79,,46,46,33,55,9,6,1.3,1.3
2026-01-27T1700,4271A,103.2464,35.6123,临夏回族自治州,滨河东路1号,颗粒物(PM10),180,309,374,73,122,95,,58,58,16,39,12,9,0.8,1.6
2026-01-27T1700,4310A,103.207136,35.599807,临夏回族自治州,新华街21号,颗粒物(PM10),172,293,360,70,117,80,,60,60,11,35,11,12,0.5,1.5
2026-01-27T1700,1618A,118.3429,35.0532,临沂市,沂河小区,颗粒物(PM10),67,83,118,35,85,71,,63,63,26,44,13,14,0.7,1.1
2026-01-27T1700,1619A,118.2962,35.0568,临沂市,鲁南制药厂,颗粒物(PM10),65,80,127,46,97,70,,61,61,34,56,16,17,0.6,1.2
2026-01-27T1700,1620A,118.2793,34.9976,临沂市,新光毛纺厂,细颗粒物(PM2.5),69,78,116,50,90,74,,70,70,27,50,13,12,0.5,1.2
2026-01-27T1700,1621A,118.3955,35.0889,临沂市,河东保险公司,颗粒物(PM10),64,78,117,33,86,78,,67,67,28,51,10,11,0.7,1.2
2026-01-27T1700,3370A,118.3563,35.0215,临沂市,十里堡居委,颗粒物(PM10),57,63,107,29,74,75,,67,67,22,44,12,13,0.6,1.1
2026-01-27T1700,3496A,118.359,35.1067,临沂市,南坊新区,颗粒物(PM10),59,68,116,39,88,78,,68,68,28,52,10,13,0.8,1.3
2026-01-27T1700,3860A,118.3915,35.0297,临沂市,皇山花园小区,颗粒物(PM10),56,61,117,32,76,78,,67,67,30,54,12,15,0.7,1.3
2026-01-27T1700,1870A,109.4854,24.3898,柳州市,柳东小学,,,21,15,,12,37,,32,32,6,9,8,7,0.9,0.9
2026-01-27T1700,1871A,109.4109,24.3304,柳州市,环保监测站,,28,28,19,18,12,38,,31,31,15,17,4,6,0.9,1
2026-01-27T1700,1872A,109.3886,24.3408,柳州市,河西水厂,,29,26,18,20,14,41,,32,32,11,17,5,8,0.8,1.1
2026-01-27T1700,1873A,109.4263,24.2951,柳州市,市四中,,25,25,19,12,9,38,,32,32,9,13,9,10,0.8,0.9
2026-01-27T1700,1874A,109.396,24.3658,柳州市,市九中,,27,27,20,13,13,35,,28,28,13,17,9,10,0.8,1
2026-01-27T1700,1875A,109.4912,24.3164,柳州市,古亭山,,29,25,16,20,8,37,,35,35,10,11,6,6,0.7,0.7
2026-01-27T1700,3402A,109.5422,24.3994,柳州市,市二中,,,19,14,,8,32,,33,33,15,17,8,8,0.8,0.9
2026-01-27T1700,2307A,116.5078,31.7369,六安市,监测大楼,,40,40,76,27,71,44,,40,40,26,25,2,2,0.4,0.6
2026-01-27T1700,2308A,116.4738,31.7642,六安市,皖西学院,,45,45,91,24,72,60,,51,51,22,26,4,4,0.4,0.6
2026-01-27T1700,2309A,116.4997,31.7904,六安市,朝阳厂,,40,40,83,25,67,65,,51,51,15,25,2,5,0.4,0.8
2026-01-27T1700,2310A,116.5566,31.7885,六安市,开发区,,,32,71,27,64,60,,51,51,,24,4,3,0.4,0.7
2026-01-27T1700,2577A,104.8293,26.592,六盘水市,黄土坡,细颗粒物(PM2.5),80,67,56,59,44,63,,43,43,22,24,8,10,1.1,1.1
2026-01-27T1700,2579A,104.8481,26.5898,六盘水市,民中,细颗粒物(PM2.5),77,58,58,56,46,65,,40,40,21,23,6,6,1.0,1
2026-01-27T1700,2580A,104.9541,26.5506,六盘水市,双水,细颗粒物(PM2.5),78,68,55,57,38,74,,49,49,17,17,8,6,0.8,0.7
2026-01-27T1700,4151A,104.8899,26.5685,六盘水市,钟山大道中段564号,细颗粒物(PM2.5),69,72,62,50,38,66,,43,43,16,16,8,7,1.2,1.2
2026-01-27T1700,2336A,117.022,25.1031,龙岩市,龙岩市监测站,,38,,33,26,23,92,,83,83,16,28,8,14,0.7,0.6
2026-01-27T1700,2337A,117.0257,25.0662,龙岩市,闽西职业技术学院,,32,32,36,21,20,99,,85,85,11,23,5,11,0.8,0.7
2026-01-27T1700,2338A,117.0195,25.0306,龙岩市,龙岩学院,,39,39,31,26,20,92,,79,79,14,16,6,9,/,/
2026-01-27T1700,2885A,104.9344,33.3827,陇南市,滨江中学,颗粒物(PM10),155,259,317,55,85,76,,56,56,16,38,7,14,1.1,2
2026-01-27T1700,3247A,104.9551,33.3709,陇南市,市总工会,颗粒物(PM10),149,248,268,79,85,74,,54,54,13,18,9,9,0.8,0.9
2026-01-27T1700,2488A,111.9984,27.7346,娄底市,市监测站,,,67,89,,81,74,,69,69,14,24,,6,,0.8
2026-01-27T1700,2491A,111.9888,27.7035,娄底市,市政府,细颗粒物(PM2.5),85,78,98,63,93,70,,60,60,22,21,4,3,0.9,1
2026-01-27T1700,4127A,111.9812,27.7591,娄底市,涟钢职大,细颗粒物(PM2.5),85,68,92,63,80,73,,65,65,15,18,4,4,0.7,0.8
2026-01-27T1700,4128A,112.0303,27.7457,娄底市,娄底体校,细颗粒物(PM2.5),95,80,87,71,81,85,,83,83,11,11,2,2,0.4,0.6
2026-01-27T1700,1894A,105.4427,28.9063,泸州市,小市上码头,细颗粒物(PM2.5),69,83,85,50,60,102,,63,63,18,26,6,6,1.0,1.1
2026-01-27T1700,1895A,105.4241,28.8573,泸州市,兰田宪桥,细颗粒物(PM2.5),67,73,83,48,57,92,,57,57,15,22,8,8,0.7,0.9
2026-01-27T1700,1896A,105.4378,28.8833,泸州市,市环监站,细颗粒物(PM2.5),65,71,81,47,56,95,,56,56,19,26,10,10,0.9,1
2026-01-27T1700,4272A,105.3689,28.7783,泸州市,纳溪中医医院,颗粒物(PM10),87,124,80,62,59,57,,47,47,28,26,8,8,0.8,1
2026-01-27T1700,2183A,111.1447,37.5212,吕梁市,环保局,颗粒物(PM10),74,98,152,32,43,75,,41,41,17,40,4,6,0.3,0.4
2026-01-27T1700,2185A,111.1285,37.5338,吕梁市,自来水公司,颗粒物(PM10),82,113,173,31,41,52,,35,35,24,34,4,6,0.5,0.6
2026-01-27T1700,2867A,111.1225,37.5093,吕梁市,马茂庄小学,颗粒物(PM10),81,111,171,26,44,76,,42,42,19,39,4,8,0.6,0.8
2026-01-27T1700,1812A,112.3934,34.6517,洛阳市,市委党校,细颗粒物(PM2.5),185,239,202,139,124,58,,42,42,43,47,13,11,1.4,1.4
2026-01-27T1700,1815A,112.494,34.6883,洛阳市,河南林校,细颗粒物(PM2.5),228,240,208,178,144,58,,39,39,45,50,11,10,1.3,1.5
2026-01-27T1700,1816A,112.3843,34.623,洛阳市,开发区管委会,细颗粒物(PM2.5),216,287,231,166,129,62,,42,42,40,39,15,9,1.3,1.3
2026-01-27T1700,1817A,112.4263,34.6249,洛阳市,市委新办公区,细颗粒物(PM2.5),201,272,223,151,109,63,,41,41,38,42,10,9,1.2,1.2
2026-01-27T1700,3340A,112.6005,34.6323,洛阳市,伊滨,细颗粒物(PM2.5),179,279,238,135,111,69,,46,46,37,47,11,8,1.0,1.1
2026-01-27T1700,3341A,112.495,34.6338,洛阳市,中移产业园,细颗粒物(PM2.5),202,244,204,152,118,66,,40,40,,54,10,10,1.2,1.3
2026-01-27T1700,3593A,112.5736,34.8993,洛阳市,吉利监测站,细颗粒物(PM2.5),246,261,219,196,155,60,,45,45,43,42,12,10,1.6,1.6
2026-01-27T1700,3635A,112.3678,34.6623,洛阳市,河科大西苑校区,细颗粒物(PM2.5),178,260,223,134,114,60,,45,45,46,49,14,9,1.2,1.2
2026-01-27T1700,3636A,112.4387,34.678,洛阳市,英才小学,细颗粒物(PM2.5),220,251,226,170,135,59,,40,40,49,56,11,11,1.4,1.5
2026-01-27T1700,4214A,112.460027,34.694929,洛阳市,春都路1号院,细颗粒物(PM2.5),209,286,238,159,123,49,,33,33,45,45,9,8,1.3,1.3
2026-01-27T1700,2399A,114.051,33.5721,漯河市,三五一五工厂,细颗粒物(PM2.5),160,174,196,122,152,88,,63,63,17,44,7,8,1.3,1.6
2026-01-27T1700,2400A,114.0055,33.5698,漯河市,漯河大学,细颗粒物(PM2.5),149,131,162,114,150,98,,75,75,15,43,5,6,0.8,1.1
2026-01-27T1700,2401A,114.0134,33.5826,漯河市,市水利局,细颗粒物(PM2.5),156,129,173,119,152,80,,58,58,14,38,4,5,1.0,1.3
2026-01-27T1700,2402A,114.0261,33.5697,漯河市,市广电局,细颗粒物(PM2.5),150,134,171,115,152,88,,66,66,9,36,6,7,1.0,1.2
2026-01-27T1700,3478A,113.9691,33.568,漯河市,市图书馆,细颗粒物(PM2.5),180,180,194,136,153,88,,62,62,24,39,7,7,0.9,1.2
2026-01-27T1700,4250A,114.089259,33.588274,漯河市,韶山路11号,细颗粒物(PM2.5),163,170,185,124,152,81,,44,44,17,47,7,8,0.7,1
2026-01-27T1700,1798A,118.5084,31.6838,马鞍山市,湖东路四小,,,108,46,68,38,64,,55,55,29,25,,3,0.8,0.6
2026-01-27T1700,1799A,118.5019,31.6449,马鞍山市,开发区,细颗粒物(PM2.5),100,113,45,75,37,63,,61,61,30,22,4,3,0.8,0.5
2026-01-27T1700,3633A,118.4914,31.681,马鞍山市,雨山,细颗粒物(PM2.5),95,111,49,71,38,63,,58,58,32,24,3,3,1.0,0.7
2026-01-27T1700,4191A,118.527362,31.722269,马鞍山市,慈湖高新区,细颗粒物(PM2.5),112,109,45,84,51,70,,58,58,28,26,4,4,0.8,0.5
2026-01-27T1700,1686A,111.0285,21.469,茂名市,电白南海,颗粒物(PM10),59,68,54,38,28,152,,118,118,18,20,12,16,1.2,1.2
2026-01-27T1700,1687A,110.9294,21.6533,茂名市,茂石化七小,颗粒物(PM10),64,78,61,35,31,160,,123,123,21,21,11,14,0.7,0.7
2026-01-27T1700,1688A,110.9108,21.6688,茂名市,健康路,臭氧1小时(O3_1h),65,73,52,35,30,172,,137,137,22,20,13,20,0.8,0.8
2026-01-27T1700,1689A,110.8592,21.6826,茂名市,高岭,颗粒物(PM10),73,95,70,41,28,164,,130,130,17,18,15,15,/,/
2026-01-27T1700,3450A,111.0101,21.5165,茂名市,电白水东,颗粒物(PM10),62,73,50,41,28,148,,114,114,16,16,12,16,/,/
2026-01-27T1700,2540A,103.8414,30.0871,眉山市,气象局,颗粒物(PM10),97,144,118,56,62,106,,68,68,13,35,12,14,0.8,1
2026-01-27T1700,3148A,103.829,30.0563,眉山市,区人社局,颗粒物(PM10),91,131,117,48,57,89,,58,58,17,39,8,8,0.7,1
2026-01-27T1700,4148A,103.8836,30.0695,眉山市,眉职院,颗粒物(PM10),80,110,112,41,46,102,,66,66,10,25,1,2,0.7,0.8
2026-01-27T1700,1690A,116.1248,24.3307,梅州市,梅江月梅,,48,40,43,33,29,107,,84,84,16,30,/,/,/,/
2026-01-27T1700,1691A,116.0798,24.2719,梅州市,梅县新城,,43,37,44,30,31,110,,90,90,14,31,8,8,0.5,0.6
2026-01-27T1700,3315A,116.1234,24.2994,梅州市,梅龙,,,,42,,37,95,,80,80,12,13,8,8,,0.9
2026-01-27T1700,1878A,104.7775,31.4741,绵阳市,富乐山,颗粒物(PM10),86,121,209,52,65,88,,58,58,13,22,8,8,0.6,0.6
2026-01-27T1700,1880A,104.6698,31.4668,绵阳市,高新区自来水公司,颗粒物(PM10),98,145,251,53,66,85,,49,49,14,48,8,9,0.8,1.1
2026-01-27T1700,3491A,104.6899,31.5324,绵阳市,西科大附属小学,颗粒物(PM10),106,162,255,78,75,80,,49,49,27,51,8,9,0.3,0.7
2026-01-27T1700,3492A,104.5647,31.5343,绵阳市,安州区旅游局,颗粒物(PM10),99,148,243,66,69,74,,51,51,15,38,12,11,1.0,0.8
2026-01-27T1700,4146A,104.7092,31.4972,绵阳市,科技城新区公安局,颗粒物(PM10),93,136,264,53,70,90,,58,58,26,53,6,6,0.7,0.8
2026-01-27T1700,4226A,104.765114,31.453094,绵阳市,绵阳市气象局,颗粒物(PM10),90,129,220,48,64,71,,43,43,18,39,11,10,0.7,0.8
2026-01-27T1700,1784A,129.61,44.561,牡丹江市,环保大楼,颗粒物(PM10),59,67,54,32,30,64,,63,63,17,20,4,5,0.4,0.4
2026-01-27T1700,1787A,129.6364,44.6075,牡丹江市,机车工厂,,45,45,47,26,34,68,,62,62,10,22,6,10,0.4,0.5
2026-01-27T1700,1788A,129.6386,44.5462,牡丹江市,第一中学,,40,32,37,28,32,69,,67,67,13,24,3,6,0.3,0.4
2026-01-27T1700,4287A,129.5992,44.5964,牡丹江市,东晓云街98号,,41,41,49,24,30,71,,65,65,12,22,3,4,0.5,0.6
2026-01-27T1700,2531A,105.0703,29.61,内江市,市监测站,颗粒物(PM10),81,111,75,49,55,100,,66,66,14,29,4,4,0.5,0.7
2026-01-27T1700,2533A,105.0657,29.5807,内江市,内江二中,颗粒物(PM10),90,130,85,36,53,89,,57,57,16,31,5,5,0.5,0.6
2026-01-27T1700,2534A,105.0407,29.5828,内江市,内江日报社,颗粒物(PM10),80,109,71,36,49,97,,59,59,18,44,5,5,0.8,0.9
2026-01-27T1700,4147A,105.0433,29.6105,内江市,玉峰路西段888号,颗粒物(PM10),79,107,74,31,49,92,,59,59,16,32,3,3,0.6,0.7
2026-01-27T1700,2628A,92.0653,31.4846,那曲市,那曲监测站,,,21,40,,27,79,,60,60,5,24,4,7,0.6,1.3
2026-01-27T1700,4243A,92.0515,31.4787,那曲市,那曲市委宣传部,,27,8,29,3,17,85,,63,63,2,17,3,6,0.3,0.9
2026-01-27T1700,1291A,115.8887,28.7006,南昌市,省林业公司,,,,47,24,54,48,,44,44,,19,4,3,0.5,0.8
2026-01-27T1700,1292A,115.813,28.7443,南昌市,林科所,,18,14,45,12,45,51,,47,47,17,17,3,3,0.3,0.6
2026-01-27T1700,1294A,115.8518,28.687,南昌市,建工学校,,,,59,,55,42,,49,49,22,36,7,6,0.9,1
2026-01-27T1700,1295A,115.8926,28.6425,南昌市,象湖,,39,,47,27,52,40,,37,37,24,21,7,7,0.7,0.9
2026-01-27T1700,3046A,115.9084,28.6062,南昌市,机电学校,,45,41,62,31,54,41,,41,41,27,23,4,4,0.5,0.7
2026-01-27T1700,3690A,115.9718,28.7032,南昌市,外国语学校,,48,37,60,33,54,38,,39,39,29,28,11,11,0.6,0.8
2026-01-27T1700,4106A,115.7923,28.6873,南昌市,工业二路,,26,23,54,18,48,62,,54,54,11,16,3,3,0.7,0.8
2026-01-27T1700,4192A,115.931587,28.686774,南昌市,南京东路235号,,38,,50,26,56,44,,41,41,23,23,4,5,0.4,0.7
2026-01-27T1700,1906A,106.0791,30.8022,南充市,南充市委,颗粒物(PM10),60,69,115,36,54,68,,44,44,13,35,4,4,0.6,0.8
2026-01-27T1700,1907A,106.1038,30.8215,南充市,南充炼油厂,颗粒物(PM10),68,85,95,42,53,71,,48,48,18,20,7,6,0.7,0.7
2026-01-27T1700,4227A,106.108336,30.788436,南充市,梨树横街98号,颗粒物(PM10),58,65,101,36,45,81,,57,57,18,28,6,6,0.7,0.8
2026-01-27T1700,4304A,106.1172,30.843,南充市,清泉寺北路188号,颗粒物(PM10),64,78,80,25,44,89,,61,61,10,14,7,7,0.5,0.5
2026-01-27T1700,4305A,106.067,30.7616,南充市,同庆路1号,颗粒物(PM10),71,91,82,29,45,78,,52,52,16,38,7,7,0.5,0.8
2026-01-27T1700,1151A,118.8033,32.1085,南京市,迈皋桥,细颗粒物(PM2.5),73,83,42,53,25,90,,70,70,26,32,6,5,0.6,0.5
2026-01-27T1700,1152A,118.7487,32.057,南京市,草场门,颗粒物(PM10),79,107,49,56,31,67,,52,52,24,26,1,2,0.8,0.7
2026-01-27T1700,1154A,118.770105,32.004342,南京市,中华门,颗粒物(PM10),86,122,53,63,38,96,,77,77,15,16,4,4,0.5,0.5
2026-01-27T1700,1155A,118.8059,32.0329,南京市,瑞金路,细颗粒物(PM2.5),94,114,46,70,35,86,,66,66,9,13,4,4,1.3,1.1
2026-01-27T1700,1156A,118.7946,32.0774,南京市,玄武湖,细颗粒物(PM2.5),84,103,47,62,32,90,,66,66,22,20,4,4,0.6,0.9
2026-01-27T1700,1157A,118.6415,32.0964,南京市,浦口,细颗粒物(PM2.5),120,130,53,91,35,84,,62,62,21,20,9,7,0.7,0.5
2026-01-27T1700,1158A,118.730129,32.000956,南京市,奥体中心,细颗粒物(PM2.5),94,126,50,70,35,101,,76,76,19,21,11,10,0.7,0.6
2026-01-27T1700,1159A,118.9072,32.1047,南京市,仙林大学城,颗粒物(PM10),85,119,54,60,33,98,,73,73,16,23,5,4,0.6,0.5
2026-01-27T1700,3422A,118.8443,31.919,南京市,江宁彩虹桥,细颗粒物(PM2.5),98,136,52,73,33,101,,79,79,22,24,4,3,0.8,0.6
2026-01-27T1700,3427A,118.8497,32.3599,南京市,六合雄州,细颗粒物(PM2.5),63,64,49,45,18,95,,73,73,17,20,9,9,0.5,0.6
2026-01-27T1700,4086A,118.7641,32.0841,南京市,新模范马路66号,颗粒物(PM10),78,105,52,40,34,121,,91,91,2,6,5,4,0.3,0.4
2026-01-27T1700,4249A,118.8707617,31.34017673,南京市,汶溪路181号,细颗粒物(PM2.5),70,88,35,51,32,77,,74,74,20,20,6,5,0.8,0.8
2026-01-27T1700,4312A,119.019,31.6512,南京市,中山西路1号,细颗粒物(PM2.5),103,102,37,77,33,71,,65,65,23,19,4,4,1.0,0.8
2026-01-27T1700,1401A,108.3098,22.788,南宁市,二十一中,,,55,35,,23,79,,57,57,,24,7,5,0.8,0.8
2026-01-27T1700,1402A,108.3135,22.8529,南宁市,北湖,,50,50,33,27,23,66,,47,47,29,28,9,11,0.9,0.9
2026-01-27T1700,1403A,108.3205,22.8222,南宁市,市监测站,,50,50,32,23,25,74,,48,48,22,30,12,10,1.0,1.1
2026-01-27T1700,1404A,108.3828,22.8038,南宁市,大自然花园,,50,50,31,26,24,95,,62,62,9,11,6,6,0.8,0.9
2026-01-27T1700,1406A,108.2397,22.8462,南宁市,区农职院,,38,38,27,21,14,86,,59,59,15,18,8,8,0.8,0.8
2026-01-27T1700,1407A,108.3285,22.7356,南宁市,英华嘉园,,42,39,30,29,17,93,,58,58,20,18,7,4,0.6,0.6
2026-01-27T1700,3401A,108.4829,22.762,南宁市,红星社区,,42,42,23,25,16,108,,66,66,12,15,5,5,0.8,0.8
2026-01-27T1700,4132A,108.2927,23.1477,南宁市,起凤路9号,,33,27,16,23,13,71,,51,51,10,11,1,2,0.9,0.9
2026-01-27T1700,4221A,108.2177,22.7774,南宁市,乐贤路16号,,45,42,36,31,16,80,,53,53,18,22,2,5,0.9,0.9
2026-01-27T1700,2332A,118.1682,26.6371,南平市,南平市监测站,细颗粒物(PM2.5),52,42,48,36,42,56,,56,56,13,25,4,4,0.8,0.8
2026-01-27T1700,2334A,118.1757,26.6276,南平市,南平七中,,49,46,42,34,40,61,,63,63,15,21,11,3,0.9,0.6
2026-01-27T1700,1168A,120.9056,31.9669,南通市,狼山街道,颗粒物(PM10),52,54,48,32,32,84,,73,73,13,17,3,3,0.4,0.4
2026-01-27T1700,1170A,120.8635,32.0231,南通市,城中,颗粒物(PM10),54,58,50,31,31,86,,76,76,16,18,4,3,0.5,0.6
2026-01-27T1700,1171A,120.9376,31.9301,南通市,星湖花园,,,,48,21,30,87,,77,77,12,19,4,4,0.4,0.4
2026-01-27T1700,1172A,120.8053,32.046,南通市,紫琅学院,颗粒物(PM10),53,56,49,30,31,87,,78,78,13,15,4,4,0.5,0.5
2026-01-27T1700,3291A,121.0631,32.0644,南通市,通州监测站,,46,46,38,31,27,95,,82,82,16,18,3,2,0.4,0.4
2026-01-27T1700,3432A,120.9348,31.9874,南通市,环境教育馆,,46,46,47,28,35,87,,76,76,12,13,4,4,0.6,0.5
2026-01-27T1700,4091A,120.8692,31.9885,南通市,洪江路,,46,46,43,21,32,83,,71,71,13,15,4,3,0.1,0.4
2026-01-27T1700,2404A,112.5338,33.0086,南阳市,瓦房庄,细颗粒物(PM2.5),179,182,164,135,129,88,,67,67,17,27,6,6,1.1,1.2
2026-01-27T1700,2405A,112.5002,32.9734,南阳市,汉画馆,细颗粒物(PM2.5),201,196,166,151,128,86,,64,64,23,31,7,6,1.0,1.2
2026-01-27T1700,2406A,112.5778,33.0144,南阳市,气象站,细颗粒物(PM2.5),163,220,195,124,122,95,,72,72,17,22,4,5,1.1,1.1
2026-01-27T1700,2407A,112.548,32.9687,南阳市,理工学院,细颗粒物(PM2.5),139,184,167,106,107,91,,66,66,14,28,5,5,1.1,1.3
2026-01-27T1700,4008A,112.5233,32.9921,南阳市,卧龙区政府,细颗粒物(PM2.5),176,203,188,133,124,83,,65,65,18,31,6,5,1.2,1.3
2026-01-27T1700,1234A,121.8352,29.9111,宁波市,区环保大楼,颗粒物(PM10),71,91,31,33,20,51,,66,66,44,29,5,5,0.5,0.3
2026-01-27T1700,1235A,121.5595,29.8208,宁波市,万里学院,颗粒物(PM10),51,51,26,31,15,74,,73,72,26,22,3,3,0.8,0.6
2026-01-27T1700,1236A,121.713,29.9564,宁波市,龙赛医院,颗粒物(PM10),69,88,30,40,14,74,,77,77,31,23,2,3,0.7,0.4
2026-01-27T1700,1240A,121.5855,29.8635,宁波市,太古小学,颗粒物(PM10),54,57,26,31,19,83,,80,80,22,20,3,2,0.7,0.6
2026-01-27T1700,1241A,121.5239,29.8673,宁波市,市环境监测中心,,43,43,25,27,13,75,,75,75,23,20,6,6,0.8,0.7
2026-01-27T1700,2871A,121.6156,29.9015,宁波市,万里国际学校,颗粒物(PM10),54,57,30,28,14,82,,82,82,22,22,3,3,0.4,0.5
2026-01-27T1700,3710A,121.5593,29.8976,宁波市,白沙活动中心,,40,35,23,28,17,76,,74,74,22,21,4,3,0.3,0.2
2026-01-27T1700,4095A,121.8962,29.7529,宁波市,中科路88号,,48,48,21,32,13,75,,74,74,29,22,5,4,0.5,0.4
2026-01-27T1700,2341A,119.5387,26.6611,宁德市,宁德市监测站,,13,13,18,6,18,39,,65,40,23,21,3,3,0.5,0.6
2026-01-27T1700,3209A,119.5231,26.6562,宁德市,宁德一中,,18,18,21,9,18,42,,68,43,17,18,2,3,0.5,0.6
2026-01-27T1700,2618A,98.859,25.8541,怒江傈僳族自治州,州监测站,,27,25,34,14,21,84,,68,68,6,11,6,6,0.4,0.4
2026-01-27T1700,2619A,98.8607,25.8168,怒江傈僳族自治州,泸水一中,,43,30,32,30,23,76,,58,58,7,20,4,4,0.6,0.7
2026-01-27T1700,1888A,101.6891,26.571,攀枝花市,弄弄坪,细颗粒物(PM2.5),52,44,82,36,53,135,,86,86,15,46,14,42,0.9,2.6
2026-01-27T1700,1889A,101.577,26.5914,攀枝花市,河门口,细颗粒物(PM2.5),63,69,69,45,42,139,,83,83,20,29,29,25,2.0,1.5
2026-01-27T1700,1891A,101.7365,26.4986,攀枝花市,仁和,,50,49,56,35,44,113,,89,89,14,30,16,14,0.6,1
2026-01-27T1700,2835A,101.7222,26.567,攀枝花市,四十中小,颗粒物(PM10),61,72,77,40,44,141,,96,96,28,48,25,24,1.0,1.8
2026-01-27T1700,1604A,122.0303,41.1489,盘锦市,开发区,,50,50,62,24,44,75,,53,,14,28,6,8,0.6,1
2026-01-27T1700,1605A,122.0486,41.0883,盘锦市,兴隆台,细颗粒物(PM2.5),78,57,55,57,36,72,,70,70,22,30,10,7,0.4,0.7
2026-01-27T1700,1606A,121.8297,41.1026,盘锦市,新生街道,,45,45,34,17,17,74,,83,83,15,26,6,7,0.2,0.4
2026-01-27T1700,1832A,113.3257,33.7423,平顶山市,新华旅馆,细颗粒物(PM2.5),179,222,206,135,151,90,,73,73,26,44,6,6,1.2,1.2
2026-01-27T1700,1833A,113.2917,33.737,平顶山市,规划设计院,细颗粒物(PM2.5),185,244,237,139,153,89,,72,72,22,38,7,7,0.9,1.2
2026-01-27T1700,1834A,113.182,33.7738,平顶山市,平顶山工学院,细颗粒物(PM2.5),188,216,217,141,158,96,,75,75,19,32,7,8,0.9,1.1
2026-01-27T1700,3594A,112.8736,33.9068,平顶山市,石龙区,细颗粒物(PM2.5),160,226,230,122,123,100,,72,72,14,33,6,7,1.0,1.1
2026-01-27T1700,4116A,113.284,33.7139,平顶山市,姚电大道23号,细颗粒物(PM2.5),198,234,251,148,165,90,,69,69,28,41,6,7,0.8,1.1
2026-01-27T1700,2656A,106.6633,35.5338,平凉市,聚贤嘉苑,颗粒物(PM10),132,213,216,52,51,88,,67,67,13,27,25,21,0.7,0.7
2026-01-27T1700,2657A,106.7021,35.5307,平凉市,博物馆,颗粒物(PM10),129,207,213,63,55,83,,64,64,21,29,17,13,0.9,1
2026-01-27T1700,2348A,113.8384,27.6436,萍乡市,中医院,细颗粒物(PM2.5),115,136,164,87,110,8,,14,9,32,29,5,4,1.4,1.2
2026-01-27T1700,2350A,113.8677,27.6438,萍乡市,市环保局,,,,113,,93,,,22,,,25,,14,,1.3
2026-01-27T1700,2351A,113.8663,27.6202,萍乡市,安源区政府,细颗粒物(PM2.5),150,136,160,115,131,9,,12,8,31,30,9,7,1.3,1.4
2026-01-27T1700,4107A,113.8686,27.6668,萍乡市,联洪村委会,细颗粒物(PM2.5),144,139,154,110,121,10,,15,12,35,29,2,2,1.3,1.2
2026-01-27T1700,2319A,119.0142,25.4324,莆田市,荔城区仓后路,,22,22,38,3,24,58,,59,49,18,25,/,/,/,/
2026-01-27T1700,2320A,119.0016,25.4553,莆田市,莆田市监测站,,22,22,36,3,28,61,,57,53,16,22,3,4,0.5,0.7
2026-01-27T1700,2321A,119.112,25.4561,莆田市,涵江区六中,,23,23,30,3,17,64,,57,55,15,23,/,/,0.5,0.6
2026-01-27T1700,2322A,119.1014,25.3215,莆田市,秀屿区政府,,21,10,24,3,16,67,,69,56,12,14,2,3,0.5,0.6
2026-01-27T1700,2392A,115.0312,35.7636,濮阳市,环保局,细颗粒物(PM2.5),176,169,163,133,137,82,,73,73,48,71,6,7,0.7,1.1
2026-01-27T1700,3021A,115,35.7667,濮阳市,濮水河管理处,细颗粒物(PM2.5),166,206,202,126,142,90,,81,81,25,51,7,6,,1.5
2026-01-27T1700,4118A,115.0552,35.7816,濮阳市,中原东路68号,细颗粒物(PM2.5),188,208,198,141,146,92,,80,80,26,49,7,7,0.9,1.3
2026-01-27T1700,4216A,115.0923632,35.76857718,濮阳市,任丘路479号,细颗粒物(PM2.5),195,211,196,146,148,87,,76,76,31,50,7,7,1.0,1.3
2026-01-27T1700,2601A,100.9801,22.7634,普洱市,市环保局,,32,,56,22,19,84,,72,72,6,10,5,5,0.3,0.4
2026-01-27T1700,2602A,100.9763,22.8237,普洱市,普洱第二中学,,38,38,45,20,22,84,,69,69,5,23,5,5,0.2,0.3
2026-01-27T1700,3345A,131.0413,45.7795,七台河市,中波台,,45,32,39,31,29,73,,67,67,11,15,6,9,0.5,0.5
2026-01-27T1700,3637A,131.0136,45.7688,七台河市,人民广场,,,40,52,32,33,69,,70,70,17,26,5,12,,0.7
2026-01-27T1700,3684A,130.8639,45.8144,七台河市,新建矿广场,细颗粒物(PM2.5),57,61,44,40,34,50,,57,57,25,16,5,8,0.5,0.3
2026-01-27T1700,1779A,123.9307,47.3641,齐齐哈尔市,安居小区,,21,13,32,3,18,66,,67,67,10,14,8,9,0.3,0.4
2026-01-27T1700,1780A,123.9497,47.3389,齐齐哈尔市,中心广场,,17,14,23,7,15,54,,62,62,21,14,24,6,0.5,0.5
2026-01-27T1700,1781A,123.9483,47.3229,齐齐哈尔市,农牧车辆厂,,22,22,27,3,14,60,,65,65,14,11,14,5,0.3,0.3
2026-01-27T1700,1783A,123.9442,47.2994,齐齐哈尔市,市环境监测站,,21,21,28,8,13,60,,67,67,18,12,4,4,0.3,0.5
2026-01-27T1700,3662A,123.6341,47.2079,齐齐哈尔市,富区青少年活动中心,,39,39,36,17,16,62,,70,70,15,10,4,4,0.4,0.4
2026-01-27T1700,2591A,107.9765,26.5724,黔东南苗族侗族自治州,市环境监测站,,35,29,25,24,22,51,,42,42,8,9,4,5,0.7,0.8
2026-01-27T1700,2881A,107.8909,26.531,黔东南苗族侗族自治州,凯里学院,,34,34,21,21,18,53,,45,45,15,14,2,3,0.8,0.8
2026-01-27T1700,2593A,107.5223,26.2371,黔南布依族苗族自治州,小围寨,,28,24,15,19,13,32,,31,31,11,8,5,6,1.0,1
2026-01-27T1700,3538A,107.5175,26.2977,黔南布依族苗族自治州,沙坝,,42,34,23,29,17,38,,36,36,10,9,3,5,0.9,0.9
2026-01-27T1700,2589A,104.9022,25.0943,黔西南布依族苗族自治州,场坝街,,46,46,49,30,31,43,,34,34,17,14,4,5,0.9,0.9
2026-01-27T1700,2590A,104.8812,25.0994,黔西南布依族苗族自治州,坪东大道,,50,43,44,35,33,45,,37,37,15,13,6,6,1.1,1
2026-01-27T1700,2502A,108.6238,21.9667,钦州市,市环保站,,,53,51,39,27,102,,76,76,14,19,,3,,1.1
2026-01-27T1700,2503A,108.655,21.9481,钦州市,沙埠小学,颗粒物(PM10),57,63,50,33,24,98,,74,74,25,21,4,5,0.7,0.6
2026-01-27T1700,2504A,108.5989,21.7435,钦州市,港区一小,颗粒物(PM10),58,66,56,9,27,100,,71,71,19,25,4,3,0.7,0.7
2026-01-27T1700,3404A,108.5959,21.9634,钦州市,北职校,,47,47,40,28,26,99,,75,75,13,17,2,3,0.8,0.8
2026-01-27T1700,1046A,119.5247,39.9346,秦皇岛市,建设大厦,,,62,83,23,46,75,,56,56,4,36,,10,0.4,0.8
2026-01-27T1700,3132A,119.5979,39.938,秦皇岛市,文明里,颗粒物(PM10),51,52,78,27,44,72,,61,61,10,41,10,14,0.2,0.7
2026-01-27T1700,4066A,119.7458,39.9952,秦皇岛市,南园路157号,颗粒物(PM10),51,52,66,30,45,73,,62,62,15,45,8,12,0.4,0.8
2026-01-27T1700,4067A,119.5131,39.8858,秦皇岛市,翠岛大街1号,颗粒物(PM10),51,51,74,3,40,75,,54,54,12,47,8,12,0.3,0.7
2026-01-27T1700,4198A,119.509013,39.825305,秦皇岛市,北戴河轮滑馆,,49,49,80,21,40,79,,57,57,10,41,7,8,0.3,0.8
2026-01-27T1700,1310A,120.404,36.0625,青岛市,市南区东部子站,细颗粒物(PM2.5),73,90,107,53,62,74,,62,62,30,39,12,15,0.7,0.8
2026-01-27T1700,1311A,120.362344,36.10282,青岛市,四方区子站,细颗粒物(PM2.5),79,97,100,58,73,74,,65,65,29,37,7,10,0.9,1.1
2026-01-27T1700,1312A,120.294373,36.054183,青岛市,市南区西部子站,细颗粒物(PM2.5),80,95,117,59,63,52,,64,62,53,43,10,9,0.7,0.9
2026-01-27T1700,1313A,120.4581,36.0858,青岛市,崂山区子站,颗粒物(PM10),70,90,100,46,56,83,,63,63,27,37,13,15,0.7,0.8
2026-01-27T1700,1315A,120.3945,36.3083,青岛市,城阳区子站,颗粒物(PM10),70,90,113,39,60,70,,59,59,35,48,9,13,0.8,1
2026-01-27T1700,3642A,120.3454,36.0735,青岛市,市北区南部,细颗粒物(PM2.5),84,112,123,62,65,66,,54,54,32,44,5,10,0.7,1
2026-01-27T1700,3643A,120.3897,36.18,青岛市,李沧区北部,细颗粒物(PM2.5),73,88,109,53,77,66,,53,53,35,44,10,14,0.8,0.9
2026-01-27T1700,4110A,120.5222,36.4089,青岛市,盟旺路653号,颗粒物(PM10),69,87,113,48,65,81,,64,64,21,41,5,8,0.8,1.2
2026-01-27T1700,4290A,120.196923,35.954556,青岛市,珠江路669号,颗粒物(PM10),69,88,114,44,71,56,,54,54,55,61,10,10,0.9,1.1
2026-01-27T1700,4291A,120.0424,35.8656,青岛市,黄岛区人民政府广场,颗粒物(PM10),67,83,115,36,67,79,,73,73,32,42,12,14,0.9,1.1
2026-01-27T1700,1703A,113.0218,23.7086,清远市,凤城街办,,,45,53,,37,126,,90,90,,36,/,/,/,/
2026-01-27T1700,3025A,113.0479,23.6343,清远市,技师学院,,43,43,65,26,37,123,,89,89,18,50,6,5,1.2,1.3
2026-01-27T1700,3318A,112.9898,23.7403,清远市,清新太和,,38,35,49,26,33,117,,88,88,12,30,10,10,0.6,0.7
2026-01-27T1700,3455A,113.076,23.72,清远市,清城东城,,43,40,51,30,33,126,,93,93,15,24,/,/,/,/
2026-01-27T1700,2661A,107.6325,35.7357,庆阳市,庆阳五中,颗粒物(PM10),131,212,234,75,81,96,,83,83,15,24,6,7,0.5,0.7
2026-01-27T1700,2662A,107.6361,35.7067,庆阳市,市环保局,颗粒物(PM10),123,196,221,78,74,98,,73,73,13,19,8,10,0.7,0.7
2026-01-27T1700,1916A,103.7897,25.5036,曲靖市,环境监测站,,40,40,42,20,24,115,,90,90,13,14,5,3,0.7,0.8
2026-01-27T1700,1917A,103.8013,25.5357,曲靖市,烟厂办公区,,39,39,45,20,24,112,,76,76,10,18,3,4,0.4,0.5
2026-01-27T1700,3376A,103.7926,25.4651,曲靖市,南苑二区,,36,36,42,23,28,104,,84,84,8,8,4,4,0.3,0.4
2026-01-27T1700,3377A,103.7442,25.5259,曲靖市,曲靖师范学院,,,,46,22,33,118,,26,,9,25,5,4,0.6,0.6
2026-01-27T1700,1264A,118.8694,28.94,衢州市,环保大楼,,,20,39,17,32,23,,27,27,,27,/,/,/,/
2026-01-27T1700,1266A,118.8622,28.9809,衢州市,衢州学院,,20,19,28,14,22,26,,25,25,24,23,3,4,0.7,0.8
2026-01-27T1700,4097A,118.9646,28.9832,衢州市,衢州三中,,20,18,35,14,26,25,,24,24,26,26,4,5,0.7,0.8
2026-01-27T1700,1611A,118.5818,24.9116,泉州市,涂山街,,31,31,34,10,26,59,,54,51,18,25,3,3,0.5,0.6
2026-01-27T1700,1612A,118.597,24.8976,泉州市,津头埔,,28,28,30,9,27,59,,55,51,17,23,4,4,0.5,0.6
2026-01-27T1700,1613A,118.6669,24.9422,泉州市,万安,,29,29,29,11,26,58,,52,50,17,19,3,3,0.6,0.8
2026-01-27T1700,4105A,118.6355,24.9148,泉州市,霞新路6号,,,17,28,9,25,57,,54,50,,25,/,/,0.6,0.7
2026-01-27T1700,2626A,88.8873,29.2723,日喀则市,日喀则监测站,,19,12,29,3,14,60,,60,60,2,15,7,8,0.3,0.5
2026-01-27T1700,3726A,88.8775,29.2425,日喀则市,林业技术推广中心,,31,12,21,3,9,98,,70,70,5,9,9,9,0.3,0.5
2026-01-27T1700,1659A,119.4711,35.421,日照市,监测站,颗粒物(PM10),62,73,97,31,58,60,,64,64,39,41,12,13,0.8,1
2026-01-27T1700,1660A,119.523,35.4216,日照市,市政府广场,,,,97,,62,46,,70,70,,34,13,13,0.5,0.7
2026-01-27T1700,1661A,119.5511,35.4113,日照市,港务局,颗粒物(PM10),68,85,99,44,65,60,,71,71,41,34,12,12,0.7,0.8
2026-01-27T1700,3507A,119.5326,35.4627,日照市,职业技术学院,颗粒物(PM10),62,73,97,29,51,67,,75,75,39,39,11,12,0.9,1
2026-01-27T1700,3604A,119.3267,35.1043,日照市,岚山环保分局,颗粒物(PM10),52,53,104,29,63,81,,69,69,19,46,12,22,0.7,1.7
2026-01-27T1700,1835A,111.1922,34.7752,三门峡市,市政府,颗粒物(PM10),124,197,172,79,70,83,,55,55,12,35,,10,0.8,0.9
2026-01-27T1700,1836A,111.1588,34.794,三门峡市,开发区,颗粒物(PM10),137,223,199,77,75,76,,48,48,13,25,7,6,0.6,0.8
2026-01-27T1700,3039A,111.1911,34.7829,三门峡市,三门峡市第一小学,颗粒物(PM10),139,228,195,75,66,79,,51,51,17,30,9,7,0.6,0.7
2026-01-27T1700,3598A,111.1031,34.719,三门峡市,富达温泉假日酒店,颗粒物(PM10),133,215,214,79,88,70,,45,45,26,36,8,8,0.7,1.1
2026-01-27T1700,2324A,117.621,26.2626,三明市,三钢,细颗粒物(PM2.5),78,59,47,57,44,64,,37,,21,30,7,7,1.2,1.2
2026-01-27T1700,2325A,117.6352,26.2714,三明市,三明二中,细颗粒物(PM2.5),59,58,47,42,39,74,,66,66,16,27,3,3,1.1,1.2
2026-01-27T1700,2326A,117.6028,26.2377,三明市,三元区政府,,,65,46,46,36,70,,63,63,17,26,,5,1.2,1
2026-01-27T1700,1877A,109.4962,18.2682,三亚市,河西子站,,30,18,31,10,13,96,,80,80,7,15,1,1,0.3,0.5
2026-01-27T1700,3540A,109.7348,18.3443,三亚市,君悦子站,,27,23,28,10,11,86,,78,78,6,14,4,4,0.4,0.4
2026-01-27T1700,4135A,109.1714,18.3739,三亚市,城东小学站,,24,21,24,7,11,74,,62,62,6,9,/,/,/,/
2026-01-27T1700,2624A,91.7592,29.234,山南市,山南监测站,,30,6,20,3,8,94,,72,72,2,8,4,4,0.4,0.5
2026-01-27T1700,2625A,91.7701,29.2436,山南市,山南人民医院,,28,6,20,3,9,88,,70,70,2,7,8,7,0.5,0.5
2026-01-27T1700,1674A,116.6795,23.3666,汕头市,金平子站,,32,32,44,21,37,95,,72,72,13,35,4,5,0.7,1
2026-01-27T1700,1675A,116.7248,23.3632,汕头市,龙湖子站,,,28,49,22,35,94,,72,72,10,37,,11,/,/
2026-01-27T1700,1676A,116.7257,23.2774,汕头市,濠江子站,,28,28,45,15,34,86,,74,74,14,35,7,9,/,/
2026-01-27T1700,1677A,116.7518,23.4712,汕头市,澄海子站,,38,38,58,25,49,82,,76,76,13,31,7,10,0.7,0.9
2026-01-27T1700,1678A,116.6088,23.2539,汕头市,潮阳子站,,30,25,44,19,33,93,,81,81,12,24,5,7,0.7,0.9
2026-01-27T1700,3444A,116.4539,23.2684,汕头市,潮南峡山,,34,34,61,23,41,97,,84,84,10,23,5,6,0.8,0.9
2026-01-27T1700,3624A,116.4069,23.2533,汕头市,潮南子站,,42,42,69,23,41,89,,77,77,15,29,6,7,/,/
2026-01-27T1700,1693A,115.3653,22.7751,汕尾市,市环保局,,45,45,31,21,21,103,,96,96,14,17,7,7,0.6,0.7
2026-01-27T1700,1695A,115.362,22.7926,汕尾市,新城中学,,39,37,34,27,23,105,,95,95,12,17,5,5,0.5,0.6
2026-01-27T1700,2645A,109.9155,33.8714,商洛市,监测站,颗粒物(PM10),104,158,182,52,56,45,,52,52,23,26,5,8,0.6,0.6
2026-01-27T1700,3045A,109.9647,33.8486,商洛市,商州区中学,颗粒物(PM10),113,175,167,47,57,43,,47,47,19,31,5,10,0.8,0.8
2026-01-27T1700,2408A,115.6701,34.4283,商丘市,环境监测站,细颗粒物(PM2.5),130,135,148,99,139,101,,70,70,12,45,2,4,0.9,1.4
2026-01-27T1700,2409A,115.6458,34.4047,商丘市,粮食局,细颗粒物(PM2.5),113,120,146,85,125,96,,68,68,13,45,3,4,0.7,1.2
2026-01-27T1700,3171A,115.6069,34.4465,商丘市,梁园区档案局,细颗粒物(PM2.5),114,108,141,86,132,97,,67,67,13,46,3,3,0.8,1.2
2026-01-27T1700,4119A,115.6701,34.3767,商丘市,北海东路185号,细颗粒物(PM2.5),128,129,162,97,126,101,,64,64,13,46,2,3,0.7,1
2026-01-27T1700,4120A,115.6172,34.3704,商丘市,中山大街3号,细颗粒物(PM2.5),144,141,157,110,120,96,,58,58,16,47,5,6,0.6,0.9
2026-01-27T1700,1141A,121.401,31.2382,上海市,普陀,细颗粒物(PM2.5),94,97,46,70,34,81,,72,72,24,22,6,5,0.6,0.6
2026-01-27T1700,1142A,121.4774,31.2043,上海市,十五厂,细颗粒物(PM2.5),87,96,47,64,32,85,,78,64,29,28,7,7,0.8,0.7
2026-01-27T1700,1143A,121.4673,31.3011,上海市,虹口,颗粒物(PM10),60,70,47,14,30,76,,64,60,23,21,7,7,0.4,0.5
2026-01-27T1700,1147A,121.4253,31.226,上海市,静安监测站,细颗粒物(PM2.5),92,90,39,68,33,81,,71,71,30,25,7,6,0.4,0.4
2026-01-27T1700,1148A,121.7029,31.1905,上海市,浦东川沙,细颗粒物(PM2.5),73,70,44,53,30,81,,69,69,22,23,7,7,0.8,0.8
2026-01-27T1700,1149A,121.5339,31.229,上海市,浦东新区监测站,"颗粒物(PM10),细颗粒物(PM2.5)",65,80,48,47,40,82,,70,70,15,14,5,5,0.7,0.6
2026-01-27T1700,1150A,121.5776,31.2038,上海市,浦东张江,颗粒物(PM10),66,81,44,45,27,92,,77,77,18,19,7,6,0.6,0.5
2026-01-27T1700,3265A,121.4242,31.3303,上海市,宝山庙行,细颗粒物(PM2.5),79,77,47,58,33,76,,64,64,19,18,8,7,0.5,0.5
2026-01-27T1700,3266A,121.8789,31.4662,上海市,崇明上实东滩,颗粒物(PM10),53,56,36,36,28,96,,84,84,6,7,4,4,0.3,0.3
2026-01-27T1700,3268A,121.316,31.2839,上海市,嘉定南翔,细颗粒物(PM2.5),75,92,47,55,32,88,,72,72,15,20,2,2,0.6,0.5
2026-01-27T1700,3269A,121.3357,30.7455,上海市,金山新城,细颗粒物(PM2.5),104,116,39,78,36,66,,64,64,34,27,8,8,0.7,0.6
2026-01-27T1700,3270A,121.4996,31.0741,上海市,闵行浦江,细颗粒物(PM2.5),95,107,45,71,31,79,,73,63,19,16,6,6,0.8,0.7
2026-01-27T1700,3271A,121.2886,31.1663,上海市,青浦徐泾,细颗粒物(PM2.5),93,108,48,69,33,87,,72,72,22,23,4,4,0.5,0.4
2026-01-27T1700,3272A,121.2193,31.0382,上海市,松江图书馆,细颗粒物(PM2.5),100,133,49,75,32,76,,67,63,30,29,6,5,0.8,0.7
2026-01-27T1700,3273A,121.3904,31.206,上海市,长宁仙霞,细颗粒物(PM2.5),84,99,46,62,30,82,,73,73,18,14,6,6,0.1,0.1
2026-01-27T1700,3274A,121.7964,31.0507,上海市,浦东惠南,细颗粒物(PM2.5),79,79,41,58,29,89,,74,74,25,28,4,4,0.7,0.6
2026-01-27T1700,3544A,121.4891,30.925,上海市,奉贤南桥新城,细颗粒物(PM2.5),94,130,45,70,44,73,,70,60,31,25,2,2,0.8,0.6
2026-01-27T1700,4183A,121.417401,31.16637,上海市,冠生园路458号,细颗粒物(PM2.5),94,102,46,70,32,78,,74,74,29,22,5,5,0.9,0.8
2026-01-27T1700,4205A,121.541914,31.268301,上海市,宁武路151号,细颗粒物(PM2.5),70,75,45,51,29,75,,71,71,34,24,6,5,0.5,0.5
2026-01-27T1700,2382A,117.9758,28.4439,上饶市,市监测站,,32,32,37,18,24,19,,24,23,33,28,11,11,/,/
2026-01-27T1700,2383A,117.9521,28.4637,上饶市,凤凰光学,,,30,37,15,21,5,,10,8,33,26,,11,1.0,1.1
