timepoint,stationcode,longitude,latitude,area,positionname,primarypollutant,aqi,pm10,pm10_24h,pm2_5,pm2_5_24h,o3,o3_24h,o3_8h,o3_8h_24h,no2,no2_24h,so2,so2_24h,co,co_24h
2026-01-27T0900,2568A,102.2503,31.8896,阿坝藏族羌族自治州,马师校,,36,28,32,25,22,36,,45,44,15,12,4,4,0.6,0.6
2026-01-27T0900,3994A,102.2174,31.9016,阿坝藏族羌族自治州,马尔康中学西区,,15,,26,10,18,30,,33,33,11,9,6,6,0.8,0.7
2026-01-27T0900,2695A,80.2899,41.1684,阿克苏地区,电视台,颗粒物(PM10),135,219,355,51,104,13,,7,7,23,35,11,12,1.1,2.2
2026-01-27T0900,2696A,80.2592,41.1541,阿克苏地区,艺术中心,颗粒物(PM10),130,210,328,70,109,25,,15,15,24,36,4,7,0.8,1.3
2026-01-27T0900,2205A,105.699,38.8409,阿拉善盟,蒙二幼,颗粒物(PM10),93,136,127,39,45,52,,64,64,30,13,12,11,1.0,0.7
2026-01-27T0900,2206A,105.7198,38.8508,阿拉善盟,环保局新楼,颗粒物(PM10),79,108,116,27,33,64,,68,68,12,8,9,9,0.7,0.6
2026-01-27T0900,2708A,88.1266,47.8515,阿勒泰地区,市站,,36,24,22,15,11,1,,43,37,72,44,2,4,0.6,0.5
2026-01-27T0900,4166A,88.1198,47.7931,阿勒泰地区,阿勒泰路33号,,32,20,23,17,11,0,,30,30,64,39,5,7,0.5,0.5
2026-01-27T0900,2630A,80.1171,32.4999,阿里地区,阿里监测站,,25,6,3,3,3,78,,73,73,1,3,6,7,0.5,0.5
2026-01-27T0900,3192A,80.0906,32.5029,阿里地区,阿里藏医院,,21,14,13,11,7,66,,62,61,6,5,14,10,0.7,0.7
2026-01-27T0900,2644A,109.0088,32.6974,安康市,汉滨区检察院,颗粒物(PM10),78,105,103,40,37,4,,14,12,23,21,4,5,0.7,0.7
2026-01-27T0900,4054A,109.0324,32.6913,安康市,市邮政管理局,颗粒物(PM10),89,127,133,40,45,11,,16,15,16,22,6,7,0.7,0.8
2026-01-27T0900,2291A,117.0806,30.5181,安庆市,环科院,细颗粒物(PM2.5),53,48,44,37,39,36,,30,30,10,12,4,5,0.5,0.6
2026-01-27T0900,2292A,117.0331,30.5118,安庆市,马山宾馆,细颗粒物(PM2.5),53,40,44,37,40,35,,33,33,14,16,5,4,0.6,0.7
2026-01-27T0900,2294A,116.9897,30.6146,安庆市,安庆大学,细颗粒物(PM2.5),54,47,39,38,36,39,,36,36,16,19,3,3,0.5,0.6
2026-01-27T0900,3173A,117.0598,30.5351,安庆市,市人大,细颗粒物(PM2.5),57,45,46,40,42,31,,32,32,14,14,4,4,0.6,0.6
2026-01-27T0900,3123A,105.9408,26.2431,安顺市,凤凰山,细颗粒物(PM2.5),53,52,44,37,31,29,,53,48,18,16,14,24,0.7,0.6
2026-01-27T0900,3124A,105.9443,26.2567,安顺市,金钟山,细颗粒物(PM2.5),63,48,41,45,52,27,,50,45,15,14,14,25,0.8,0.8
2026-01-27T0900,3125A,105.8983,26.248,安顺市,娄家坡,细颗粒物(PM2.5),62,55,42,44,33,29,,51,47,19,16,20,21,0.7,0.5
2026-01-27T0900,1819A,114.3552,36.1017,安阳市,红庙街,细颗粒物(PM2.5),201,208,167,151,136,10,,7,7,50,54,4,8,1.6,1.5
2026-01-27T0900,1820A,114.361,36.0681,安阳市,银杏小区,细颗粒物(PM2.5),223,204,164,173,148,8,,6,6,46,47,4,7,1.8,1.3
2026-01-27T0900,3141A,114.3921,36.0879,安阳市,信访局,细颗粒物(PM2.5),214,200,169,164,141,13,,10,10,44,42,6,10,1.5,1.3
2026-01-27T0900,3669A,114.4706,36.0634,安阳市,左辅环卫站,细颗粒物(PM2.5),239,234,188,189,153,9,,7,7,41,46,4,9,1.5,1.2
2026-01-27T0900,4117A,114.2918,36.0769,安阳市,钢三路198号,细颗粒物(PM2.5),202,231,215,152,153,8,,13,13,36,40,8,10,1.6,1.4
2026-01-27T0900,1748A,123.0441,41.1201,鞍山市,深沟寺,,35,35,79,13,55,60,,46,46,15,38,8,14,0.8,1.5
2026-01-27T0900,1749A,123.011,41.0931,鞍山市,太阳城,,32,32,72,11,52,53,,48,48,18,36,13,20,0.7,1.4
2026-01-27T0900,1750A,123.0483,41.1445,鞍山市,太平,,30,30,108,14,66,56,,37,37,18,46,11,19,0.5,1.7
2026-01-27T0900,1751A,122.964,41.0968,鞍山市,铁西三道街,,32,32,106,19,66,40,,32,32,36,54,47,30,3.2,2.4
2026-01-27T0900,1753A,123.0219,41.0822,鞍山市,明达新区,,26,26,76,12,52,59,,47,47,19,34,12,18,0.7,1.4
2026-01-27T0900,4201A,122.944647,41.082639,鞍山市,兴盛南路290号,,40,40,129,20,84,48,,42,42,32,54,36,29,2.0,2.4
2026-01-27T0900,2195A,107.4206,40.7609,巴彦淖尔市,附二中,颗粒物(PM10),98,146,144,58,57,3,,5,5,49,40,9,13,1.2,0.9
2026-01-27T0900,2196A,107.37,40.7372,巴彦淖尔市,市环保大楼,,,,136,,51,6,,4,4,,45,5,7,0.7,0.8
2026-01-27T0900,1956A,86.1476,41.7529,巴音郭楞蒙古自治州,孔雀公园,颗粒物(PM10),135,219,260,54,55,51,,49,49,15,23,9,9,0.7,0.6
2026-01-27T0900,1957A,86.1971,41.7166,巴音郭楞蒙古自治州,棉纺厂,颗粒物(PM10),148,245,306,52,52,44,,30,30,22,28,/,/,/,/
2026-01-27T0900,1958A,86.236,41.7172,巴音郭楞蒙古自治州,经济开发区,颗粒物(PM10),137,223,260,49,44,44,,46,46,19,22,6,6,0.9,0.7
2026-01-27T0900,3181A,106.776805,31.852614,巴中市,市五中,颗粒物(PM10),60,70,81,38,45,1,,7,6,17,21,6,5,1.4,1
2026-01-27T0900,3183A,106.7419,31.8654,巴中市,圣泉水务公司,颗粒物(PM10),67,84,92,42,46,4,,4,4,35,35,5,5,0.6,0.7
2026-01-27T0900,3616A,106.7617,31.8343,巴中市,市中心医院,细颗粒物(PM2.5),60,67,82,43,48,2,,1,1,24,27,7,7,0.9,0.9
2026-01-27T0900,2235A,122.7909,45.608,白城市,洮北区环保局,,,,36,38,31,,,62,62,22,14,6,6,0.4,0.3
2026-01-27T0900,2236A,122.8741,45.5725,白城市,市环保局,,24,24,32,15,20,55,,62,62,15,19,7,6,0.5,0.4
2026-01-27T0900,2231A,126.4219,41.9172,白山市,喜丰,细颗粒物(PM2.5),117,112,66,88,40,17,,21,21,55,37,20,20,1.8,1.1
2026-01-27T0900,2232A,126.4082,41.9416,白山市,环保局,细颗粒物(PM2.5),89,84,53,66,39,20,,22,20,38,32,16,15,1.4,1.1
2026-01-27T0900,2647A,104.1727,36.5448,白银市,第三小学,颗粒物(PM10),164,278,558,86,141,7,,49,44,51,30,10,22,1.2,0.7
2026-01-27T0900,2648A,104.1467,36.5482,白银市,动力公司,颗粒物(PM10),152,253,545,76,147,21,,47,41,30,23,3,13,1.0,1
2026-01-27T0900,2512A,106.6102,23.901,百色市,市监测站,,39,39,37,23,22,3,,11,9,28,25,11,13,1.1,1
2026-01-27T0900,2513A,106.6524,23.8842,百色市,市中心血站,,49,49,40,30,25,6,,12,12,29,24,15,13,1.4,1.2
2026-01-27T0900,4133A,106.6273,23.8798,百色市,龙景西路,,42,39,48,29,29,0,,4,4,28,27,14,14,1.0,0.9
2026-01-27T0900,2270A,117.396,32.9389,蚌埠市,工人疗养院,细颗粒物(PM2.5),88,87,43,65,31,30,,36,34,28,21,3,3,0.7,0.4
2026-01-27T0900,2271A,117.3606,32.9428,蚌埠市,百货大楼,细颗粒物(PM2.5),89,83,39,66,30,31,,36,34,27,18,5,4,0.7,0.5
2026-01-27T0900,2273A,117.4183,32.8909,蚌埠市,蚌埠学院,细颗粒物(PM2.5),92,70,29,68,31,31,,36,34,21,21,3,3,0.7,0.5
2026-01-27T0900,2274A,117.3534,32.9672,蚌埠市,淮上区政府,细颗粒物(PM2.5),99,80,35,74,34,32,,29,29,28,22,3,3,0.6,0.4
2026-01-27T0900,2275A,117.3143,32.8977,蚌埠市,高新区,细颗粒物(PM2.5),94,75,31,70,35,37,,36,35,26,18,5,5,0.7,0.4
2026-01-27T0900,3715A,117.3091,32.9314,蚌埠市,蚌埠田家炳中学,,,103,41,,35,,,24,21,28,23,3,3,0.7,0.5
2026-01-27T0900,1585A,109.8761,40.6533,包头市,市环境监测站,颗粒物(PM10),77,104,139,51,46,4,,2,2,52,51,10,13,1.8,1.5
2026-01-27T0900,1587A,109.9992,40.5843,包头市,包头八中,细颗粒物(PM2.5),139,170,132,106,54,6,,5,5,68,47,27,13,3.5,1.6
2026-01-27T0900,1589A,109.8641,40.6288,包头市,惠龙物流,颗粒物(PM10),80,110,118,55,42,4,,3,2,57,50,16,15,2.5,1.4
2026-01-27T0900,1590A,110.0376,40.5546,包头市,东河鸿龙湾,,,129,122,67,41,,,6,6,75,59,20,12,1.9,1.4
2026-01-27T0900,3283A,109.9154,40.5684,包头市,滨河大厦,细颗粒物(PM2.5),80,107,116,59,46,3,,2,2,70,59,14,11,2.9,1.5
2026-01-27T0900,3419A,109.9449,40.6259,包头市,包头市委党校,细颗粒物(PM2.5),77,98,101,56,36,4,,6,6,67,47,14,12,3.2,1.6
2026-01-27T0900,3683A,109.8332,40.6577,包头市,昆区政府,颗粒物(PM10),71,92,128,44,47,4,,9,6,58,56,15,18,1.8,1.5
2026-01-27T0900,1931A,107.0802,34.3129,宝鸡市,竹园沟,颗粒物(PM10),106,162,204,73,81,18,,21,20,26,22,5,6,0.5,0.5
2026-01-27T0900,1933A,107.1429,34.3549,宝鸡市,监测站,颗粒物(PM10),115,180,218,65,85,12,,17,16,36,32,4,4,0.8,0.8
2026-01-27T0900,1934A,107.1172,34.3759,宝鸡市,技工学校,颗粒物(PM10),124,198,221,70,93,27,,28,28,22,26,10,5,0.7,0.8
2026-01-27T0900,1936A,107.2025,34.3518,宝鸡市,文理学院,颗粒物(PM10),122,194,217,66,86,10,,21,19,35,29,5,4,0.7,0.7
2026-01-27T0900,1937A,107.2396,34.3626,宝鸡市,三迪小学,颗粒物(PM10),121,192,223,82,106,11,,20,18,39,36,5,4,0.9,0.9
2026-01-27T0900,4155A,107.1721,34.3558,宝鸡市,滨河北路,颗粒物(PM10),120,190,224,68,90,16,,21,20,21,23,6,5,0.8,0.8
2026-01-27T0900,4308A,107.3898,34.3601,宝鸡市,陈仓区北开路21号,颗粒物(PM10),137,223,242,99,109,20,,16,16,36,42,36,13,1.1,0.8
2026-01-27T0900,1051A,115.4803,38.8568,保定市,游泳馆,细颗粒物(PM2.5),165,137,168,125,147,15,,6,6,62,66,5,8,1.1,1.2
2026-01-27T0900,1052A,115.509,38.8895,保定市,华电二区,细颗粒物(PM2.5),147,131,155,112,138,7,,1,1,50,54,2,4,1.2,1.3
2026-01-27T0900,1053A,115.4588,38.9037,保定市,接待中心,细颗粒物(PM2.5),140,148,168,107,135,10,,4,2,57,54,4,5,1.2,1.2
2026-01-27T0900,1054A,115.4484,38.8344,保定市,地表水厂,细颗粒物(PM2.5),155,182,197,118,136,10,,4,4,64,64,6,8,1.2,1.2
2026-01-27T0900,3581A,115.3136,38.9511,保定市,满城区生态环境分局,细颗粒物(PM2.5),103,129,193,77,127,18,,3,3,52,51,4,5,1.2,1.4
2026-01-27T0900,3582A,115.4709,38.7628,保定市,清苑区第二中学,细颗粒物(PM2.5),169,223,225,128,139,8,,7,6,64,59,9,11,1.3,1.2
2026-01-27T0900,3583A,115.6231,39.0223,保定市,徐水物探局,细颗粒物(PM2.5),140,162,214,107,134,16,,10,10,45,52,8,9,1.4,1.3
2026-01-27T0900,4004A,115.4199,38.8665,保定市,双鹰农机,细颗粒物(PM2.5),162,214,221,123,142,19,,11,11,56,58,8,10,1.3,1.3
2026-01-27T0900,4034A,115.515,38.8589,保定市,植保所站,细颗粒物(PM2.5),129,150,178,98,136,8,,1,1,64,66,3,4,1.2,1.3
2026-01-27T0900,2594A,99.1589,25.1137,保山市,市环境监测站,,23,21,25,16,18,43,,54,52,13,9,4,4,0.5,0.3
2026-01-27T0900,2595A,99.1616,25.1381,保山市,市环保局,,29,,26,20,24,55,,63,62,6,6,3,3,0.4,0.5
2026-01-27T0900,1867A,109.1435,21.4085,北海市,海滩公园,细颗粒物(PM2.5),62,47,59,44,40,34,,38,35,20,20,8,9,1.0,0.9
2026-01-27T0900,1868A,109.0983,21.466,北海市,新市环保局,,36,34,47,25,37,27,,30,28,18,19,6,8,1.0,0.9
2026-01-27T0900,1869A,109.1775,21.5232,北海市,北海工业园,"颗粒物(PM10),细颗粒物(PM2.5)",53,55,57,37,39,20,,24,22,21,19,6,8,0.7,0.6
2026-01-27T0900,3400A,109.1844,21.4396,北海市,龙潭自来水厂,细颗粒物(PM2.5),52,46,50,36,40,21,,25,23,18,16,10,8,1.3,1.1
2026-01-27T0900,1001A,116.3611,39.8786,北京市,万寿西宫,,18,11,81,3,49,57,,46,46,18,42,2,2,0.5,0.7
2026-01-27T0900,1003A,116.4174,39.9289,北京市,东四,,13,12,76,3,40,40,,46,46,23,33,4,5,0.3,0.6
2026-01-27T0900,1004A,116.4073,39.8858,北京市,天坛,,13,13,78,3,44,41,,45,45,24,36,2,2,0.3,0.7
2026-01-27T0900,1005A,116.4622,39.9364,北京市,农展馆,,17,13,72,3,36,36,,45,45,33,31,3,3,0.6,0.7
2026-01-27T0900,1006A,116.3399,39.9293,北京市,官园,,16,12,73,3,42,49,,50,50,21,39,4,5,0.4,0.6
2026-01-27T0900,1007A,116.2879,39.9613,北京市,海淀万柳,,27,17,67,6,37,19,,24,24,53,51,2,3,0.6,0.6
2026-01-27T0900,1008A,116.6635,40.1349,北京市,顺义新城,,20,18,46,6,19,61,,66,66,9,17,4,5,0.3,0.3
2026-01-27T0900,1009A,116.6275,40.327,北京市,怀柔镇,,19,19,36,8,22,37,,54,51,27,20,4,5,0.6,0.5
2026-01-27T0900,1010A,116.2295,40.217,北京市,昌平镇,,32,32,39,11,13,15,,48,41,58,21,3,2,0.6,0.4
2026-01-27T0900,1011A,116.3968,39.982,北京市,奥体中心,,17,15,71,3,35,47,,45,45,33,54,4,4,0.5,0.8
2026-01-27T0900,3418A,116.8336,40.4095,北京市,密云新城,,20,11,36,3,18,61,,65,64,1,8,2,2,0.3,0.4
2026-01-27T0900,3671A,116.0879,39.9725,北京市,门头沟三家店,,42,42,36,14,15,16,,31,28,30,19,3,3,0.5,0.4
2026-01-27T0900,3672A,116.1507,39.8246,北京市,丰台云岗,,16,11,80,3,48,42,,39,39,32,33,3,3,0.4,0.6
2026-01-27T0900,3674A,115.9578,39.7602,北京市,房山燕山,,43,43,82,25,50,16,,34,30,46,27,5,5,0.5,0.5
2026-01-27T0900,3675A,116.4669,39.7734,北京市,大兴旧宫,,19,12,84,3,43,22,,23,23,38,42,2,4,0.4,0.6
2026-01-27T0900,3694A,115.9859,40.4562,北京市,延庆石河营,,44,44,33,19,14,10,,38,32,37,15,3,3,1.1,0.4
2026-01-27T0900,3695A,116.6151,40.3052,北京市,怀柔新城,,18,18,39,10,20,43,,57,54,8,15,4,5,0.3,0.3
2026-01-27T0900,3696A,116.2542,39.8764,北京市,丰台小屯,,28,22,79,7,44,11,,33,31,55,42,3,4,0.7,0.7
2026-01-27T0900,3697A,116.8399,40.3843,北京市,密云镇,,20,11,37,3,18,63,,66,65,4,17,2,3,0.2,0.4
2026-01-27T0900,4057A,115.9423,40.4431,北京市,延庆百泉,,30,30,29,14,13,17,,54,48,25,10,2,2,0.5,0.4
2026-01-27T0900,4058A,116.6598,39.9164,北京市,通州新华,,23,23,74,6,30,29,,35,35,37,43,4,3,0.5,0.5
2026-01-27T0900,4182A,116.1942,39.9158,北京市,石景山八角,,18,14,72,3,36,36,,27,25,35,42,2,3,0.2,0.4
2026-01-27T0900,4194A,117.078628,40.151726,北京市,平谷新城,,31,31,50,14,26,24,,47,47,46,22,3,3,0.6,0.6
2026-01-27T0900,1761A,123.8274146,41.31234549,本溪市,大峪,颗粒物(PM10),52,53,89,34,58,18,,18,18,52,46,7,13,1.6,1.7
2026-01-27T0900,1763A,123.7169,41.3094,本溪市,彩屯,颗粒物(PM10),55,60,96,30,56,30,,48,47,53,44,12,14,1.6,1.6
2026-01-27T0900,1764A,123.7672166,41.28649327,本溪市,东明,颗粒物(PM10),71,92,84,46,70,47,,47,47,53,48,16,16,1.3,1.8
2026-01-27T0900,1765A,123.799345,41.266614,本溪市,新立屯,,50,50,65,23,44,36,,36,36,38,44,13,14,1.7,1.4
2026-01-27T0900,1766A,123.829144,41.336777,本溪市,威宁,细颗粒物(PM2.5),125,122,120,95,80,7,,4,4,49,50,8,10,2.2,2
2026-01-27T0900,2587A,105.287,27.3133,毕节市,八中,颗粒物(PM10),68,86,69,45,35,37,,52,49,17,14,10,11,0.9,0.9
2026-01-27T0900,2588A,105.3079,27.2987,毕节市,师专,颗粒物(PM10),61,71,69,34,30,43,,55,52,16,13,9,10,0.7,0.7
2026-01-27T0900,4263A,105.3688,27.3598,毕节市,工业大道,颗粒物(PM10),69,87,72,47,33,39,,50,47,17,14,13,11,/,/
2026-01-27T0900,1629A,117.9961,37.3604,滨州市,第二水厂,细颗粒物(PM2.5),128,149,95,97,58,5,,2,2,58,41,18,15,1.6,1
2026-01-27T0900,1630A,117.9789,37.3931,滨州市,北中新校,细颗粒物(PM2.5),125,136,89,95,58,5,,17,15,51,33,14,12,1.2,0.7
2026-01-27T0900,3514A,117.9379,37.3959,滨州市,中海酒店,细颗粒物(PM2.5),140,163,95,107,64,14,,20,19,59,41,16,16,1.4,0.9
2026-01-27T0900,3515A,117.9381509,37.35547456,滨州市,开发区一中,细颗粒物(PM2.5),130,149,106,99,76,5,,2,2,53,44,19,18,1.1,0.8
2026-01-27T0900,3516A,118.0914,37.6938,滨州市,金海六路,细颗粒物(PM2.5),147,163,110,112,64,8,,6,6,55,52,15,9,1.2,0.8
2026-01-27T0900,4028A,117.9955,37.3752,滨州市,滨州市西街道办事处,细颗粒物(PM2.5),140,153,92,107,64,5,,13,12,51,33,15,13,1.4,0.8
2026-01-27T0900,2311A,115.8071,33.8399,亳州市,污水处理厂,细颗粒物(PM2.5),144,129,125,110,101,7,,3,3,36,40,4,4,0.8,0.7
2026-01-27T0900,2312A,115.7789,33.8519,亳州市,三国揽胜宫,细颗粒物(PM2.5),144,151,142,110,102,9,,2,2,38,43,4,4,1.0,1
2026-01-27T0900,3332A,115.7631,33.803,亳州市,亳州学院,细颗粒物(PM2.5),152,143,124,116,103,27,,20,20,25,33,4,3,1.0,1
2026-01-27T0900,2693A,82.0482,44.8553,博尔塔拉蒙古自治州,市党校,颗粒物(PM10),62,73,85,24,35,42,,50,49,15,22,2,4,0.8,0.8
2026-01-27T0900,2694A,82.0805,44.8966,博尔塔拉蒙古自治州,市环保局,颗粒物(PM10),76,101,102,48,49,29,,31,31,32,34,3,7,0.8,0.8
2026-01-27T0900,1071A,116.8733,38.2922,沧州市,沧县城建局,细颗粒物(PM2.5),145,171,121,111,80,9,,9,7,81,54,12,9,1.9,1
2026-01-27T0900,1072A,116.8462,38.3189,沧州市,电视转播站,细颗粒物(PM2.5),165,166,121,125,93,2,,2,1,76,51,4,3,1.2,0.9
2026-01-27T0900,1073A,116.8588,38.3161,沧州市,市环保局,细颗粒物(PM2.5),139,170,126,106,80,3,,4,2,68,43,10,9,1.4,0.9
2026-01-27T0900,3324A,116.8011,38.294,沧州市,河北水利电力学院,细颗粒物(PM2.5),147,173,135,112,90,4,,6,5,,86,7,7,1.5,0.8
2026-01-27T0900,2622A,97.1813,31.1289,昌都市,昌都监测站,,22,22,37,8,15,45,,38,38,13,18,2,3,0.6,0.7
2026-01-27T0900,3719A,97.1707,31.1428,昌都市,昌都会议中心,,15,12,17,7,11,48,,44,44,1,7,5,5,0.3,0.4
2026-01-27T0900,2692A,87.2722,44.0298,昌吉回族自治州,新区政务中心,细颗粒物(PM2.5),108,118,158,81,106,30,,19,19,44,50,8,8,1.1,1.4
2026-01-27T0900,3613A,87.3069,44.0093,昌吉回族自治州,亚心广场,细颗粒物(PM2.5),132,149,186,100,128,43,,24,24,27,42,6,7,1.2,1.5
2026-01-27T0900,4164A,87.2057,43.9289,昌吉回族自治州,财政所,细颗粒物(PM2.5),62,66,101,44,65,58,,61,60,9,20,4,5,0.7,0.9
2026-01-27T0900,1120A,125.2874,43.9024,长春市,客车厂,,47,47,73,29,63,33,,20,20,33,52,11,15,0.6,0.8
2026-01-27T0900,1121A,125.2943,43.8508,长春市,邮电学院,,33,27,64,23,53,29,,18,18,39,43,12,11,0.5,0.6
2026-01-27T0900,1122A,125.3648,43.8745,长春市,劳动公园,,50,50,79,22,55,30,,22,22,40,44,9,7,0.1,0.3
2026-01-27T0900,1123A,125.3233,43.8781,长春市,园林处,,32,29,68,22,59,32,,23,23,33,39,11,12,0.6,0.7
2026-01-27T0900,1124A,125.4604,43.7904,长春市,净月潭,细颗粒物(PM2.5),58,52,64,41,52,44,,32,32,21,28,7,6,0.6,0.6
2026-01-27T0900,1126A,125.38,43.8422,长春市,经开区环卫处,,46,46,70,29,52,30,,12,12,38,47,6,7,0.7,0.8
2026-01-27T0900,1127A,125.234,43.7761,长春市,高新区管委会,,,46,67,33,53,,,21,21,27,42,8,7,0.5,0.7
2026-01-27T0900,1128A,125.1695,43.83,长春市,岱山公园,,50,36,74,35,65,43,,20,20,20,45,5,7,0.6,0.8
2026-01-27T0900,4281A,125.334645,43.916281,长春市,北亚泰大街1068号,细颗粒物(PM2.5),52,41,73,36,66,33,,18,18,31,46,14,13,0.6,0.8
2026-01-27T0900,1335A,113.082,28.2421,长沙市,经开区环保局,细颗粒物(PM2.5),128,118,145,97,136,20,,18,18,20,25,3,3,0.8,0.9
2026-01-27T0900,1336A,112.8873,28.2202,长沙市,高开区环保局,细颗粒物(PM2.5),127,108,149,96,143,23,,30,29,24,22,4,4,0.9,1
2026-01-27T0900,1337A,113.0785,28.2012,长沙市,马坡岭,细颗粒物(PM2.5),133,114,146,101,130,26,,24,24,19,22,4,4,0.9,1
2026-01-27T0900,1338A,112.9448,28.1894,长沙市,湖南师范大学,细颗粒物(PM2.5),122,118,149,92,123,28,,32,32,21,20,3,4,0.9,1
2026-01-27T0900,1339A,113.0177,28.1322,长沙市,雨花区环保局,细颗粒物(PM2.5),147,,134,112,139,15,,22,21,24,23,7,7,1.2,1.3
2026-01-27T0900,1340A,112.9795,28.2593,长沙市,伍家岭,细颗粒物(PM2.5),117,116,156,88,126,23,,24,24,21,23,4,4,0.9,1
2026-01-27T0900,1341A,113.002,28.1944,长沙市,火车新站,细颗粒物(PM2.5),140,124,150,107,135,19,,27,26,25,21,3,2,1.1,1.2
2026-01-27T0900,1342A,112.9846,28.1177,长沙市,天心区环保局,细颗粒物(PM2.5),158,,141,120,130,21,,30,30,28,25,5,5,0.8,0.9
2026-01-27T0900,1343A,112.8906,28.1307,长沙市,湖南中医药大学,细颗粒物(PM2.5),128,112,147,97,129,32,,34,34,21,23,5,5,0.9,1
2026-01-27T0900,1727A,113.1146,36.1547,长治市,清华站,细颗粒物(PM2.5),134,145,156,102,95,7,,6,6,46,38,16,11,1.4,1.1
2026-01-27T0900,1730A,113.0887,36.2126,长治市,审计局,细颗粒物(PM2.5),120,144,149,91,91,6,,4,2,48,44,14,12,1.1,0.8
2026-01-27T0900,1731A,113.0845,36.1856,长治市,长治八中,细颗粒物(PM2.5),135,182,183,103,106,4,,3,2,38,33,13,11,1.4,1.2
2026-01-27T0900,2845A,113.1561,36.1912,长治市,德盛苑,细颗粒物(PM2.5),115,136,148,87,102,31,,38,35,26,24,8,10,2.2,1.3
2026-01-27T0900,3568A,113.0603,36.0464,长治市,向阳小学,"颗粒物(PM10),细颗粒物(PM2.5)",107,163,194,80,99,20,,32,30,37,38,12,12,1.2,1.1
2026-01-27T0900,3569A,112.8788,36.315,长治市,屯留一中,细颗粒物(PM2.5),115,132,154,87,85,6,,10,10,39,35,8,8,1.6,1.3
2026-01-27T0900,4189A,113.113092,36.199482,长治市,英华南巷50号,细颗粒物(PM2.5),132,169,169,100,100,7,,,,45,31,16,11,1.7,1.3
2026-01-27T0900,4190A,113.23666,36.33435,长治市,学府街1号,细颗粒物(PM2.5),135,192,173,103,100,10,,6,6,56,45,14,13,3.1,1.4
2026-01-27T0900,1854A,111.696,28.9725,常德市,市二中,细颗粒物(PM2.5),159,136,132,121,123,42,,40,40,18,24,6,5,1.1,1.2
2026-01-27T0900,3138A,111.7152,29.0288,常德市,武陵区永安,细颗粒物(PM2.5),152,134,134,116,120,44,,44,44,22,26,9,5,1.2,1.3
2026-01-27T0900,3139A,111.6891,28.9881,常德市,鼎城区玉霞,细颗粒物(PM2.5),153,124,126,117,119,48,,45,44,24,30,8,7,0.9,1.1
2026-01-27T0900,3140A,111.6651,29.0526,常德市,武陵区长庚,细颗粒物(PM2.5),155,128,127,118,116,48,,52,51,23,23,10,5,0.9,0.9
2026-01-27T0900,1196A,119.9524,31.7586,常州市,市监测站,,50,50,28,32,19,55,,68,66,26,22,6,5,0.4,0.3
2026-01-27T0900,1200A,119.9351,31.703,常州市,武进监测站,,49,39,26,34,21,46,,66,64,32,23,10,10,0.6,0.6
2026-01-27T0900,3002A,119.9701,31.813,常州市,行政中心,细颗粒物(PM2.5),57,48,26,40,20,58,,64,63,23,22,5,4,0.6,0.5
2026-01-27T0900,3003A,120.0434,31.7726,常州市,经开区,颗粒物(PM10),53,56,35,29,17,48,,55,53,27,25,8,9,0.4,0.4
2026-01-27T0900,3010A,119.8919,31.7892,常州市,钟楼,细颗粒物(PM2.5),57,47,36,40,19,36,,56,54,37,21,8,7,0.6,0.6
2026-01-27T0900,3429A,119.8595,31.706,常州市,武进经发区,细颗粒物(PM2.5),57,48,30,40,24,12,,45,41,61,32,7,5,0.7,0.6
2026-01-27T0900,3430A,119.5812,31.7256,常州市,金坛城区,细颗粒物(PM2.5),64,50,28,46,24,35,,57,53,29,14,7,6,0.9,0.7
2026-01-27T0900,4089A,119.9551,31.863,常州市,崇义南街5-H号,细颗粒物(PM2.5),52,43,25,36,14,34,,57,52,34,20,4,4,0.7,0.6
2026-01-27T0900,2220A,120.4318,41.588,朝阳市,西梁,,30,30,53,9,27,65,,64,64,17,21,5,9,0.3,0.5
2026-01-27T0900,2221A,120.452,41.565,朝阳市,河畔小区,,,27,42,12,23,,,62,61,32,18,7,9,0.9,0.7
2026-01-27T0900,2222A,120.4176,41.5648,朝阳市,八里堡,细颗粒物(PM2.5),67,59,46,48,28,22,,61,55,53,20,10,10,1.1,0.6
2026-01-27T0900,3026A,116.6179,23.6608,潮州市,市政府,细颗粒物(PM2.5),58,55,66,41,57,35,,20,20,23,30,5,9,0.8,0.8
2026-01-27T0900,4036A,116.646,23.676,潮州市,金山,细颗粒物(PM2.5),52,44,50,36,44,24,,23,23,25,25,3,4,0.8,0.7
2026-01-27T0900,2473A,113.0116,25.8228,郴州市,市职中,细颗粒物(PM2.5),72,54,37,52,33,13,,18,17,16,17,3,3,0.9,0.7
2026-01-27T0900,2475A,113.0381,25.8074,郴州市,市审计局,细颗粒物(PM2.5),80,,40,59,34,13,,16,16,17,16,3,2,/,/
2026-01-27T0900,2476A,113.0348,25.7757,郴州市,市环保局,细颗粒物(PM2.5),75,,45,55,35,14,,18,18,21,19,2,3,0.9,0.7
2026-01-27T0900,4252A,113.0138,25.8011,郴州市,好美居路49号,细颗粒物(PM2.5),87,,38,64,38,23,,29,28,24,22,3,3,/,/
2026-01-27T0900,1431A,103.9727,30.7242,成都市,金泉两河,颗粒物(PM10),165,280,197,70,66,7,,5,5,55,57,6,3,0.8,1.1
2026-01-27T0900,1432A,104.1423,30.6765,成都市,十里店,颗粒物(PM10),144,237,193,78,62,7,,21,16,56,42,5,4,0.9,0.6
2026-01-27T0900,1433A,104.0594,30.5765,成都市,三瓦窑,"颗粒物(PM10),细颗粒物(PM2.5)",85,120,165,63,54,1,,36,30,63,42,5,4,1.1,0.8
2026-01-27T0900,1434A,104.1122,30.6306,成都市,沙河铺,颗粒物(PM10),103,156,163,63,59,3,,10,10,71,56,3,4,0.9,0.8
2026-01-27T0900,2880A,104.0219,30.6561,成都市,大石西路,颗粒物(PM10),147,243,175,81,61,2,,14,14,56,45,5,5,1.0,1.1
2026-01-27T0900,3136A,104.2724,30.559,成都市,龙泉驿区区政府,颗粒物(PM10),65,80,152,41,44,24,,55,47,33,22,6,6,0.7,0.6
2026-01-27T0900,3357A,104.0028,30.6891,成都市,金博路,颗粒物(PM10),144,238,180,67,58,2,,2,2,53,54,6,4,1.2,1
2026-01-27T0900,3359A,104.056,30.5228,成都市,华阳,颗粒物(PM10),71,92,134,46,50,1,,12,11,67,53,3,3,1.1,0.8
2026-01-27T0900,3488A,104.387954,30.746684,成都市,青石路225号,颗粒物(PM10),108,165,184,69,64,2,,32,21,51,33,5,5,0.9,0.7
2026-01-27T0900,3489A,104.0788,30.4054,成都市,科学城,颗粒物(PM10),72,94,118,35,43,1,,14,9,29,24,6,6,0.9,0.7
2026-01-27T0900,4011A,103.8505,30.6946,成都市,光华大道三段,颗粒物(PM10),158,265,208,85,75,5,,2,2,59,52,5,3,1.0,1
2026-01-27T0900,4144A,104.3257,30.6406,成都市,八角井街185号,,,109,168,58,54,,,48,45,40,25,,3,0.8,0.7
2026-01-27T0900,4224A,104.2433276,30.53529463,成都市,鲸龙路1057号,颗粒物(PM10),91,131,148,60,49,2,,37,28,56,32,6,5,1.2,0.6
2026-01-27T0900,1062A,117.9531,40.908,承德市,铁路,颗粒物(PM10),56,62,35,23,14,14,,36,31,42,15,6,5,0.8,0.4
2026-01-27T0900,1063A,117.9397,40.9763,承德市,中国银行,,45,45,36,3,11,23,,40,37,33,14,2,2,0.5,0.3
2026-01-27T0900,4073A,117.9462,40.95,承德市,杏林街1号,,49,37,27,34,14,20,,48,45,30,8,4,3,0.8,0.3
2026-01-27T0900,4274A,117.7994,40.9605,承德市,滨河大街98号,,34,34,41,3,23,32,,37,37,21,11,2,2,0.3,0.3
2026-01-27T0900,2314A,117.4698,30.6617,池州市,池州学院,,35,26,33,24,33,34,,24,24,22,22,2,3,0.8,0.7
2026-01-27T0900,3237A,117.4918,30.6617,池州市,展览馆,,40,33,37,28,34,34,,25,25,22,21,2,1,0.6,0.7
2026-01-27T0900,3333A,117.5626,30.695,池州市,第八中学,,42,34,36,29,31,48,,30,30,21,25,3,2,0.5,0.6
2026-01-27T0900,3334A,117.5037,30.6242,池州市,第十二中学,,35,25,29,24,29,30,,25,25,26,25,3,3,0.8,0.9
2026-01-27T0900,1744A,118.9229,42.2816,赤峰市,松山一中,颗粒物(PM10),51,51,35,21,7,8,,36,30,58,20,15,5,1.5,0.7
2026-01-27T0900,1745A,118.9588,42.2733,赤峰市,哈达街,,40,40,35,20,12,27,,41,38,34,17,15,7,0.9,0.6
2026-01-27T0900,1746A,118.8792,42.2551,赤峰市,天义路,,36,36,26,25,11,26,,40,37,33,16,19,8,1.0,0.6
2026-01-27T0900,3058A,119.2656,42.0356,赤峰市,银河街,细颗粒物(PM2.5),64,59,45,46,18,32,,54,49,31,10,21,16,1.4,0.7
2026-01-27T0900,3286A,118.9359,42.3146,赤峰市,桥北物流园区,,44,44,24,16,12,22,,43,39,43,17,9,5,0.9,0.5
2026-01-27T0900,2521A,107.3473,22.4137,崇左市,市环保局江州分局,,40,40,73,24,48,14,,24,22,20,17,5,5,1.0,1
2026-01-27T0900,4256A,107.375,22.3736,崇左市,石景林东路7号,,40,31,71,28,57,15,,22,21,25,22,1,3,0.9,0.8
2026-01-27T0900,3207A,118.31131,32.3033,滁州市,市政府原办公楼,细颗粒物(PM2.5),52,47,27,36,18,33,,44,42,21,17,4,4,0.3,0.3
2026-01-27T0900,3331A,118.3268,32.2633,滁州市,图书馆,,48,,15,33,16,32,,40,37,20,16,6,6,0.5,0.4
2026-01-27T0900,4101A,118.3196,32.3335,滁州市,银山路666号,细颗粒物(PM2.5),67,,19,48,28,34,,46,44,17,13,4,4,0.4,0.4
2026-01-27T0900,4102A,118.3426,32.2979,滁州市,黄山路555号,细颗粒物(PM2.5),64,51,26,46,25,36,,46,42,18,12,13,14,0.7,0.6
2026-01-27T0900,2606A,101.5379,25.0492,楚雄彝族自治州,市经济开发区,,35,32,27,24,18,9,,24,20,28,17,3,4,0.6,0.5
2026-01-27T0900,4153A,101.5536,25.0343,楚雄彝族自治州,团结路562号,,31,31,27,17,19,8,,28,21,31,15,10,5,0.7,0.4
2026-01-27T0900,2549A,107.5087,31.2186,达州市,市环境监测站,颗粒物(PM10),58,66,71,36,48,5,,5,5,22,28,8,6,1.1,0.8
2026-01-27T0900,2550A,107.4988,31.2132,达州市,凤凰小区,,,58,70,41,51,4,,3,3,25,30,6,4,,0.5
2026-01-27T0900,2551A,107.5081,31.1987,达州市,达县机关宾馆,细颗粒物(PM2.5),63,68,77,45,54,3,,3,2,31,34,5,2,1.3,1
2026-01-27T0900,2552A,107.4644,31.2124,达州市,市政中心,细颗粒物(PM2.5),64,71,81,46,51,5,,5,5,27,34,7,5,0.8,0.7
2026-01-27T0900,2614A,100.2168,25.5818,大理白族自治州,大理市环境监测站,,29,20,21,20,22,55,,63,61,9,9,6,6,0.6,0.5
2026-01-27T0900,2615A,100.1542,25.7055,大理白族自治州,大理古城,,30,30,24,14,16,27,,57,52,32,8,9,8,1.0,0.9
2026-01-27T0900,1109A,121.6119,38.974,大连市,甘井子,,38,38,55,20,39,65,,49,49,22,26,10,8,0.4,0.7
2026-01-27T0900,1110A,121.565,38.9509,大连市,周水子,,50,50,55,23,40,44,,34,34,32,32,11,8,0.4,0.7
2026-01-27T0900,1111A,121.5637,38.8849,大连市,星海三站,,39,39,45,17,38,47,,43,42,25,22,9,9,0.7,0.8
2026-01-27T0900,1112A,121.6301,38.9117,大连市,青泥洼桥,,36,36,59,19,39,52,,48,48,24,26,11,12,0.5,0.8
2026-01-27T0900,1113A,121.6248,38.8643,大连市,傅家庄,,40,40,46,16,32,49,,44,44,23,26,9,9,0.6,0.8
2026-01-27T0900,1114A,121.5117,38.8636,大连市,七贤岭,,46,46,43,26,29,50,,54,52,20,14,8,8,0.6,0.8
2026-01-27T0900,1116A,121.7507,39.1339,大连市,金州,,49,46,51,34,37,53,,60,58,31,24,15,13,0.5,0.6
2026-01-27T0900,1117A,121.7811,39.0495,大连市,开发区,,36,36,58,12,39,71,,62,62,12,24,4,5,0.2,0.4
2026-01-27T0900,1118A,121.9762,39.0631,大连市,双D港,,40,40,55,20,32,66,,59,59,18,21,8,10,0.5,0.7
2026-01-27T0900,4082A,121.2548,38.8188,大连市,旅顺,,31,31,55,16,43,57,,44,44,14,20,8,10,0.4,0.8
2026-01-27T0900,1789A,124.8085,46.0381,大庆市,大同区,颗粒物(PM10),58,66,55,36,33,46,,27,27,18,23,7,7,1.0,0.9
2026-01-27T0900,1790A,125.1166,46.5255,大庆市,龙凤区,,46,46,50,26,37,28,,41,38,40,29,10,10,0.7,0.6
2026-01-27T0900,1791A,124.8894,46.4007,大庆市,红岗区,,28,28,44,16,31,35,,26,26,19,24,4,5,0.1,0.6
2026-01-27T0900,1792A,125.1391,46.578,大庆市,萨尔图区,,37,37,53,13,30,39,,41,40,30,28,7,8,0.7,0.7
2026-01-27T0900,1793A,124.9026,46.6217,大庆市,让胡路区,,33,33,41,21,30,59,,56,55,21,23,8,8,0.6,0.5
2026-01-27T0900,3481A,125.127,46.6277,大庆市,萨区政府监测点,,37,37,51,24,32,36,,37,35,30,27,8,10,0.7,0.7
2026-01-27T0900,1723A,113.2926,40.0759,大同市,云冈宾馆,颗粒物(PM10),61,71,90,32,28,14,,17,14,39,28,28,10,1.7,0.9
2026-01-27T0900,1724A,113.3437,40.0921,大同市,大同大学,颗粒物(PM10),64,77,81,24,21,28,,40,37,31,19,15,12,0.9,0.6
2026-01-27T0900,1725A,113.2637,40.129,大同市,安家小村,颗粒物(PM10),76,101,103,43,34,6,,8,7,38,33,17,12,1.4,0.9
2026-01-27T0900,3282A,113.3399,40.0586,大同市,大同市卫生学校,颗粒物(PM10),62,73,84,24,23,20,,41,36,41,24,23,10,1.3,0.7
2026-01-27T0900,3565A,113.1371,40.1122,大同市,云冈站,颗粒物(PM10),78,106,97,20,25,4,,1,1,37,32,21,9,1.1,0.7
2026-01-27T0900,3566A,113.1186,40.2556,大同市,图书馆,细颗粒物(PM2.5),67,64,95,48,31,19,,19,18,17,16,5,6,1.5,1
2026-01-27T0900,3567A,113.5931,40.0459,大同市,区一中,,,121,86,,29,24,,31,30,31,19,20,10,2.7,1.8
2026-01-27T0900,4199A,113.2798248,40.09972476,大同市,魏都大道141号,颗粒物(PM10),73,96,107,37,30,11,,11,10,47,34,24,9,1.8,0.9
2026-01-27T0900,2269A,124.1068,50.4091,大兴安岭地区,科技局,,21,21,21,6,9,56,,56,56,5,5,3,4,0.2,0.2
2026-01-27T0900,3663A,124.117,50.4279,大兴安岭地区,红旗社区,,41,41,25,22,21,38,,42,42,31,22,8,7,0.8,0.5
2026-01-27T0900,1600A,124.33,40.0625,丹东市,江湾东路,,38,38,47,20,28,63,,64,64,16,21,9,11,0.6,0.8
2026-01-27T0900,1601A,124.4242,40.1513,丹东市,临江后街,,24,24,54,7,32,68,,62,62,9,22,7,17,0.4,0.8
2026-01-27T0900,1602A,124.3935,40.1461,丹东市,元宝山,,22,22,42,8,25,62,,63,63,11,20,11,13,0.2,0.5
2026-01-27T0900,1603A,124.3634,40.1093,丹东市,民主桥,,20,17,57,6,32,62,,64,64,16,27,11,14,0.6,0.9
2026-01-27T0900,3541A,109.5726195,19.51688767,儋州市,第一中学子站,颗粒物(PM10),60,69,32,33,15,39,,45,43,9,6,4,5,0.6,0.5
2026-01-27T0900,3542A,109.5567,19.5187,儋州市,东坡学校子站,,48,35,26,33,14,50,,54,51,10,5,3,4,0.6,0.5
2026-01-27T0900,2616A,98.5611,24.4273,德宏傣族景颇族自治州,德宏州监测站,细颗粒物(PM2.5),63,53,50,45,40,7,,11,8,27,24,7,7,0.9,0.8
2026-01-27T0900,3677A,98.5887,24.4366,德宏傣族景颇族自治州,芒市人民政府综合楼,,40,38,36,28,26,7,,23,20,22,13,4,5,0.8,0.6
2026-01-27T0900,1901A,104.424,31.1209,德阳市,东山公园,颗粒物(PM10),126,202,244,73,74,25,,28,28,24,24,1,2,0.8,0.8
2026-01-27T0900,1902A,104.3827,31.1318,德阳市,西小区,颗粒物(PM10),147,244,262,73,79,2,,0,0,55,44,3,3,1.1,0.9
2026-01-27T0900,1904A,104.3553,31.1091,德阳市,耐火材料厂,颗粒物(PM10),146,242,262,88,82,2,,2,2,51,44,2,2,1.0,0.8
2026-01-27T0900,4145A,104.4144,31.1495,德阳市,市林业局,颗粒物(PM10),120,189,229,81,80,6,,8,8,56,46,3,3,1.0,0.8
2026-01-27T0900,1622A,116.3034,37.4675,德州市,儿童乐园,细颗粒物(PM2.5),160,197,130,122,83,11,,36,31,69,44,14,14,1.6,1.1
2026-01-27T0900,1624A,116.2992,37.4449,德州市,监理站,细颗粒物(PM2.5),160,195,137,122,84,,,33,33,72,55,13,14,1.3,0.9
2026-01-27T0900,3066A,116.2722,37.438,德州市,九衢泉纯净水厂,细颗粒物(PM2.5),193,227,146,145,128,7,,9,9,73,62,14,11,1.9,1.2
2026-01-27T0900,3371A,116.3693,37.44,德州市,开发区人民医院,细颗粒物(PM2.5),160,190,133,122,79,23,,34,32,70,50,15,14,1.1,0.8
2026-01-27T0900,3511A,116.5687,37.3331,德州市,陵城艺术中心,细颗粒物(PM2.5),189,207,136,142,96,1,,14,10,69,49,24,16,1.6,1.1
2026-01-27T0900,4292A,116.352738,37.420875,德州市,新河东路,细颗粒物(PM2.5),188,175,122,141,86,6,,18,17,75,54,14,16,1.5,1
2026-01-27T0900,2621A,99.7054,27.8319,迪庆藏族自治州,迪庆州站,,32,32,27,18,18,41,,50,48,15,9,5,4,0.5,0.4
2026-01-27T0900,3180A,99.7122,27.8129,迪庆藏族自治州,质量技术监督局,,31,31,27,21,15,38,,56,52,24,11,4,5,0.7,0.5
2026-01-27T0900,4257A,104.6092,35.5962,定西市,将台街,颗粒物(PM10),190,330,356,103,104,8,,7,7,37,33,17,17,1.5,1
2026-01-27T0900,4309A,104.6159,35.5701,定西市,正龙路62号,颗粒物(PM10),220,364,379,81,93,17,,17,16,20,15,12,11,1.3,0.8
2026-01-27T0900,1390A,113.7943,23.0132,东莞市,东城石井,颗粒物(PM10),62,74,81,36,52,41,,15,15,50,65,9,7,0.8,0.8
2026-01-27T0900,1391A,113.7384,22.9659,东莞市,南城西平,细颗粒物(PM2.5),62,72,72,44,46,22,,5,5,76,65,9,8,1.0,0.8
2026-01-27T0900,3319A,113.7283,23.041,东莞市,万江金泰,细颗粒物(PM2.5),80,90,96,59,57,32,,17,17,51,60,12,9,1.1,1
2026-01-27T0900,4129A,113.8666,23.1062,东莞市,裕兴路,颗粒物(PM10),61,71,95,42,44,40,,23,23,40,68,7,7,1.0,1
2026-01-27T0900,4130A,114.0076,22.9739,东莞市,教育路1号,,,96,94,49,49,,,,,,42,9,8,0.7,0.7
2026-01-27T0900,4131A,113.7981,22.8124,东莞市,长怡路1号,细颗粒物(PM2.5),83,97,78,61,40,26,,5,5,70,68,9,7,1.0,0.8
2026-01-27T0900,1666A,118.6612,37.4313,东营市,市环保局,细颗粒物(PM2.5),107,141,99,80,52,18,,27,26,62,41,18,15,1.2,0.9
2026-01-27T0900,3036A,118.6903,37.4337,东营市,开发区管委会,细颗粒物(PM2.5),125,153,105,95,57,16,,24,23,68,39,7,6,1.1,0.8
2026-01-27T0900,3365A,118.5721,37.5654,东营市,垦利区民丰路,细颗粒物(PM2.5),134,163,106,102,59,11,,8,8,71,48,14,12,1.2,0.8
2026-01-27T0900,3498A,118.5063,37.8606,东营市,河口城区,颗粒物(PM10),76,102,104,51,52,18,,8,8,61,47,7,7,1.2,0.9
2026-01-27T0900,3646A,118.4979,37.4623,东营市,胜利站,细颗粒物(PM2.5),144,140,91,110,60,8,,10,10,69,48,20,15,1.3,0.8
2026-01-27T0900,3734A,118.5753,37.4405,东营市,理想之城,细颗粒物(PM2.5),125,149,100,95,56,8,,18,16,62,42,11,10,1.2,0.9
2026-01-27T0900,1591A,110.0024,39.8127,鄂尔多斯市,综合楼,颗粒物(PM10),89,127,144,39,33,21,,17,16,60,49,20,13,1.1,0.7
2026-01-27T0900,1592A,109.9485,39.8259,鄂尔多斯市,巴音孟克林场办事处,颗粒物(PM10),73,95,107,29,25,42,,32,32,41,33,11,10,0.8,0.6
2026-01-27T0900,1593A,109.7734,39.5987,鄂尔多斯市,康泽苑,颗粒物(PM10),67,83,80,26,21,14,,27,23,35,23,8,8,0.7,0.5
2026-01-27T0900,1594A,109.8121,39.5987,鄂尔多斯市,华泰汽车城,颗粒物(PM10),75,100,79,17,18,5,,10,10,33,33,7,5,0.7,0.6
2026-01-27T0900,1595A,109.9734,39.7884,鄂尔多斯市,奥林花园,颗粒物(PM10),108,166,144,51,30,2,,3,3,71,54,17,10,1.3,0.7
2026-01-27T0900,2436A,114.894,30.3989,鄂州市,市政府,细颗粒物(PM2.5),74,54,85,54,85,30,,18,18,25,30,4,4,0.5,0.8
2026-01-27T0900,2437A,114.8986,30.3714,鄂州市,赵家坝,细颗粒物(PM2.5),84,66,93,62,87,32,,22,21,21,22,7,12,0.8,1.2
2026-01-27T0900,3654A,114.8093,30.4091,鄂州市,精准医疗中心,细颗粒物(PM2.5),90,73,98,67,91,44,,29,29,13,23,6,7,0.5,0.7
2026-01-27T0900,2454A,109.4978,30.2979,恩施土家族苗族自治州,湖北民院,细颗粒物(PM2.5),82,,58,60,60,2,,2,2,11,20,6,6,1.5,1.3
2026-01-27T0900,3549A,109.5061,30.3771,恩施土家族苗族自治州,龙凤新区,细颗粒物(PM2.5),65,51,61,47,52,0,,0,0,17,22,8,7,1.0,1
2026-01-27T0900,2499A,108.3411,21.6159,防城港市,沙万,,24,24,50,16,31,30,,37,35,17,24,6,9,0.7,0.8
2026-01-27T0900,2500A,108.3515,21.7733,防城港市,防城档案局,,35,35,49,12,27,21,,32,30,15,16,4,5,0.8,0.8
2026-01-27T0900,2501A,108.3506,21.6414,防城港市,大海花园,,23,21,39,16,28,31,,38,36,14,19,6,11,0.8,0.8
2026-01-27T0900,1371A,113.1293,23.0065,佛山市,湾梁,颗粒物(PM10),56,61,116,29,52,34,,14,14,31,72,/,/,/,/
2026-01-27T0900,1372A,113.1082,23.0477,佛山市,华材职中,细颗粒物(PM2.5),79,66,143,58,99,31,,12,12,32,82,8,8,0.9,1.2
2026-01-27T0900,1373A,113.1439,23.045,佛山市,南海气象局,细颗粒物(PM2.5),67,74,102,48,59,28,,15,15,41,82,/,/,/,/
2026-01-27T0900,1374A,113.2879,22.8094,佛山市,顺德苏岗,细颗粒物(PM2.5),72,62,91,52,54,25,,7,7,50,75,/,/,1.2,1.2
2026-01-27T0900,1376A,112.8384,22.8678,佛山市,高明孔堂,细颗粒物(PM2.5),54,,80,38,54,43,,68,62,29,35,/,/,/,/
2026-01-27T0900,1377A,112.8835,23.1584,佛山市,三水监测站,,48,48,105,26,54,42,,40,40,23,64,4,6,1.0,1
2026-01-27T0900,1378A,112.8668,23.185,佛山市,三水云东海,,35,35,87,24,54,40,,27,27,30,49,/,/,/,/
2026-01-27T0900,3625A,113.2568,22.7629,佛山市,容桂街道办,细颗粒物(PM2.5),79,80,111,58,78,31,,18,18,47,77,/,/,/,/
2026-01-27T0900,1282A,119.2681,26.0506,福州市,师大,,24,24,35,15,24,29,,56,52,33,29,2,4,0.7,0.7
2026-01-27T0900,1283A,119.2983,26.1028,福州市,五四北路,,16,16,32,9,24,42,,47,46,21,28,4,5,0.7,0.8
2026-01-27T0900,1284A,119.2648,26.0769,福州市,杨桥西路,,23,20,32,16,21,34,,53,50,26,23,4,5,/,/
2026-01-27T0900,3048A,119.5799,26.0937,福州市,九龙,,18,18,24,8,17,38,,62,56,19,17,4,4,0.5,0.5
2026-01-27T0900,3526A,119.5188,25.9666,福州市,吴航,,12,12,26,8,16,38,,55,54,22,23,4,4,0.5,0.5
2026-01-27T0900,4104A,119.3106,26.0648,福州市,路通桥巷6号,,22,20,42,15,27,32,,54,51,24,26,/,/,/,/
2026-01-27T0900,1755A,123.7974,41.8494,抚顺市,望花区,细颗粒物(PM2.5),108,101,123,81,94,16,,10,10,57,64,11,14,1.9,1.6
2026-01-27T0900,1756A,123.9161,41.8827,抚顺市,顺城区,细颗粒物(PM2.5),185,143,124,139,108,13,,7,7,60,65,13,13,2.4,1.8
2026-01-27T0900,1757A,124.0437,41.8615,抚顺市,东洲区,细颗粒物(PM2.5),155,176,145,118,90,18,,10,10,55,58,17,19,2.2,1.7
2026-01-27T0900,1758A,123.9246,41.8638,抚顺市,新抚区,细颗粒物(PM2.5),188,164,145,141,104,13,,8,8,55,60,8,10,1.8,1.5
2026-01-27T0900,1759A,124.0972,41.8961,抚顺市,大伙房水库,细颗粒物(PM2.5),103,100,100,77,75,29,,13,13,31,53,10,13,1.3,1.4
2026-01-27T0900,1760A,123.708,41.8386,抚顺市,沈抚新城,细颗粒物(PM2.5),92,89,121,68,89,15,,22,22,60,70,8,12,1.4,1.4
2026-01-27T0900,2377A,116.3544,27.9833,抚州市,市站,,49,42,49,34,42,34,,30,30,17,21,8,6,1.2,1.3
2026-01-27T0900,2378A,116.3562,27.9631,抚州市,血防站,细颗粒物(PM2.5),53,49,55,37,43,29,,25,25,24,27,4,5,1.3,1.7
2026-01-27T0900,2379A,116.3561,28.0007,抚州市,采茶剧团,细颗粒物(PM2.5),57,45,52,40,45,29,,24,24,10,15,4,3,0.9,1.3
2026-01-27T0900,2380A,116.3854,27.9648,抚州市,医学分院,,46,39,63,32,41,34,,27,27,12,19,7,8,1.0,1.3
2026-01-27T0900,2207A,121.6095,41.9978,阜新市,工业园区,颗粒物(PM10),57,64,61,17,15,41,,59,56,33,14,12,11,0.5,0.4
2026-01-27T0900,2208A,121.6567,42.0188,阜新市,长青街,,19,13,39,9,14,60,,68,67,13,10,7,10,0.4,0.4
2026-01-27T0900,2209A,121.6672,42.07,阜新市,农业园区,,,62,52,9,15,,,62,62,12,10,,14,0.4,0.3
2026-01-27T0900,2211A,121.6343,42.0455,阜新市,玉龙新城,,40,34,51,28,13,35,,52,49,33,17,10,9,0.7,0.5
2026-01-27T0900,2301A,115.8276,32.8929,阜阳市,市监测站,细颗粒物(PM2.5),123,117,123,93,101,9,,9,8,37,36,4,4,0.9,0.9
2026-01-27T0900,2303A,115.8551,32.8606,阜阳市,开发区,细颗粒物(PM2.5),128,114,108,97,94,6,,5,5,38,41,5,5,0.8,0.7
2026-01-27T0900,2875A,115.783962,32.889217,阜阳市,阜阳职业技术学院,细颗粒物(PM2.5),115,93,108,87,89,12,,24,21,37,25,7,7,1.1,1
2026-01-27T0900,3468A,115.79,32.8614,阜阳市,市规划展馆,细颗粒物(PM2.5),123,108,121,93,103,15,,17,16,30,28,5,5,0.9,0.9
2026-01-27T0900,3469A,115.835101,32.918568,阜阳市,枣园社区,细颗粒物(PM2.5),142,133,128,108,109,4,,6,5,34,31,5,5,1.2,1
2026-01-27T0900,2669A,102.9097,34.9841,甘南藏族自治州,州政府,颗粒物(PM10),111,172,178,76,55,12,,32,29,46,23,5,8,1.1,0.8
2026-01-27T0900,3380A,102.8915,34.9618,甘南藏族自治州,甘肃民族师范学院,颗粒物(PM10),127,204,193,64,60,16,,32,30,48,28,10,12,0.7,0.4
2026-01-27T0900,2570A,101.96,30.048,甘孜藏族自治州,水桥子,,39,39,66,17,20,19,,46,42,34,15,6,6,0.7,0.6
2026-01-27T0900,3065A,101.9534,29.9976,甘孜藏族自治州,州环保局,,22,22,56,7,15,48,,67,64,19,11,5,5,0.5,0.6
2026-01-27T0900,2363A,114.9368,25.8663,赣州市,地委,,42,42,50,19,40,20,,28,25,21,22,7,8,1.4,1.3
2026-01-27T0900,2364A,114.946,25.8483,赣州市,气象台,,39,39,76,16,41,11,,21,17,30,30,6,7,0.8,0.7
2026-01-27T0900,2365A,114.932,25.8332,赣州市,市图书馆,,30,30,58,21,39,14,,22,19,25,26,5,6,1.3,1.2
2026-01-27T0900,2366A,114.8905,25.8472,赣州市,华坚鞋城,,30,30,59,12,36,15,,21,19,21,25,5,8,1.0,0.9
2026-01-27T0900,3109A,115.0094,25.8614,赣州市,赣县区卫计委,,39,,52,27,49,12,,19,18,19,21,7,7,1.1,1
2026-01-27T0900,2684A,106.2753,36.0057,固原市,监测站,颗粒物(PM10),129,207,249,69,75,13,,25,24,44,21,10,9,1.2,0.9
2026-01-27T0900,2685A,106.2384,36.0189,固原市,新区,颗粒物(PM10),136,221,240,61,64,5,,30,29,54,25,7,7,1.5,0.9
2026-01-27T0900,2544A,106.6307,30.4577,广安市,市委,细颗粒物(PM2.5),67,71,75,48,58,13,,22,20,31,22,9,9,1.1,1
2026-01-27T0900,2545A,106.6266,30.4662,广安市,友谊中学,细颗粒物(PM2.5),64,58,67,46,57,11,,26,25,28,21,7,7,1.1,0.9
2026-01-27T0900,2547A,106.6386,30.4551,广安市,广电花园,细颗粒物(PM2.5),72,56,78,52,60,11,,21,19,26,20,5,6,0.9,0.8
2026-01-27T0900,2902A,106.6347,30.4868,广安市,北辰小学,细颗粒物(PM2.5),69,64,71,50,58,16,,27,26,22,19,4,4,1.2,1.1
2026-01-27T0900,2524A,105.8211,32.4444,广元市,老城,颗粒物(PM10),138,226,326,75,93,8,,9,9,46,45,2,2,1.1,0.9
2026-01-27T0900,2526A,105.8629,32.429,广元市,监测站,颗粒物(PM10),134,218,315,84,94,5,,14,13,39,33,8,7,1.3,1
2026-01-27T0900,3617A,105.8047,32.4167,广元市,经开区,颗粒物(PM10),179,307,328,87,91,1,,3,3,38,39,5,3,1.2,0.9
2026-01-27T0900,1345A,113.2346,23.1423,广州市,广雅中学,细颗粒物(PM2.5),72,92,123,52,65,22,,6,6,38,102,4,4,0.8,1.4
2026-01-27T0900,1346A,113.2611,23.105,广州市,市五中,细颗粒物(PM2.5),65,68,110,47,70,34,,12,12,32,93,9,8,/,/
2026-01-27T0900,1348A,113.3477,23.0916,广州市,广东商学院,细颗粒物(PM2.5),62,71,107,44,64,33,,19,19,37,93,9,8,1.0,1.2
2026-01-27T0900,1349A,113.4332,23.105,广州市,市八十六中,颗粒物(PM10),60,69,88,42,49,43,,17,17,31,96,12,10,/,/
2026-01-27T0900,1350A,113.3506,22.9488,广州市,番禺中学,颗粒物(PM10),68,86,139,42,51,38,,12,12,37,82,6,4,1.0,1
2026-01-27T0900,1351A,113.2147,23.3918,广州市,花都师范,"颗粒物(PM10),细颗粒物(PM2.5)",53,55,82,37,53,30,,51,51,36,56,7,7,0.9,0.9
2026-01-27T0900,1352A,113.2599,23.1329,广州市,市监测站,颗粒物(PM10),64,77,127,45,68,30,,11,11,31,101,5,5,/,/
2026-01-27T0900,1353A,113.5618,23.3119,广州市,九龙镇镇龙,细颗粒物(PM2.5),62,68,81,44,48,36,,31,31,28,53,11,7,0.9,0.7
2026-01-27T0900,1354A,113.2764,23.1544,广州市,麓湖,细颗粒物(PM2.5),60,64,88,43,54,32,,11,11,32,86,10,9,0.9,0.9
2026-01-27T0900,2846A,113.3209,23.1323,广州市,体育西,细颗粒物(PM2.5),69,74,106,50,64,30,,15,15,36,95,10,8,1.1,1.3
2026-01-27T0900,3298A,113.5718,23.5493,广州市,从化街口,细颗粒物(PM2.5),57,57,80,40,51,17,,13,13,36,48,14,13,0.9,0.8
2026-01-27T0900,3299A,113.3463,23.369,广州市,白云竹料,"颗粒物(PM10),细颗粒物(PM2.5)",57,63,101,40,54,26,,14,14,37,70,5,5,1.1,1.1
2026-01-27T0900,3300A,113.2981,23.2365,广州市,白云嘉禾,颗粒物(PM10),59,67,109,40,57,22,,9,9,47,92,8,8,/,/
2026-01-27T0900,3301A,113.4256,23.1716,广州市,黄埔科学城,细颗粒物(PM2.5),64,58,77,46,51,54,,38,38,29,65,8,4,0.8,0.6
2026-01-27T0900,3302A,113.3942,23.0485,广州市,番禺大学城,颗粒物(PM10),70,89,130,39,52,37,,16,16,42,87,11,10,0.8,0.8
2026-01-27T0900,3303A,113.4923,22.8169,广州市,南沙黄阁,细颗粒物(PM2.5),75,,40,55,38,24,,14,11,76,63,9,7,/,/
2026-01-27T0900,3304A,113.534,22.7893,广州市,南沙街,细颗粒物(PM2.5),64,76,65,46,33,21,,14,12,78,59,10,7,1.0,0.8
2026-01-27T0900,3443A,113.2905,23.5541,广州市,花都梯面,,42,42,64,29,39,34,,41,41,15,32,6,6,/,/
2026-01-27T0900,3445A,113.786,23.7479,广州市,从化良口,,50,42,40,35,32,33,,45,44,18,18,8,8,/,/
2026-01-27T0900,3446A,113.805,23.2614,广州市,增城荔城,细颗粒物(PM2.5),55,54,61,39,40,61,,39,39,22,34,10,7,0.8,0.8
2026-01-27T0900,2506A,109.604387,23.066791,贵港市,江南子站,,36,36,64,22,45,17,,22,20,19,19,4,5,1.0,1
2026-01-27T0900,2508A,109.5669,23.1065,贵港市,荷城子站,,,,53,,42,,,64,19,,22,,6,,1.1
2026-01-27T0900,3405A,109.5886,23.1172,贵港市,新世纪学校,,34,34,61,21,42,17,,20,19,23,19,/,/,0.7,0.7
2026-01-27T0900,4260A,109.5933,23.095,贵港市,中山路155-3号,,39,,56,27,44,21,,26,25,21,21,/,/,0.9,0.9
2026-01-27T0900,1439A,106.6863,26.6035,贵阳市,马鞍山,,22,22,38,9,23,12,,28,24,16,19,3,8,/,/
2026-01-27T0900,1441A,106.6241,26.6266,贵阳市,鉴湖路,,29,29,48,17,26,15,,30,27,17,22,1,6,0.7,0.7
2026-01-27T0900,1442A,106.7468,26.6344,贵阳市,燕子冲,,20,14,29,14,32,20,,36,32,15,19,8,12,0.8,0.7
2026-01-27T0900,1443A,106.6556,26.4362,贵阳市,碧云窝,,39,39,56,14,29,16,,35,32,21,20,1,8,/,/
2026-01-27T0900,1445A,106.6963,26.6063,贵阳市,红边门,,24,24,47,14,28,15,,34,31,24,28,5,17,/,/
2026-01-27T0900,1446A,106.7162383,26.56964667,贵阳市,新华路,,29,29,51,12,25,20,,38,34,22,28,5,13,0.8,0.8
2026-01-27T0900,1447A,106.6742,26.542,贵阳市,太慈桥,,22,22,40,9,22,19,,43,39,20,22,3,5,/,/
2026-01-27T0900,4230A,106.688212,26.56952,贵阳市,花果园大街66号,,20,14,38,14,20,10,,30,27,22,24,2,8,/,/
2026-01-27T0900,4231A,106.687268,26.516892,贵阳市,漓江路57号,,29,29,46,17,28,12,,33,29,24,27,6,12,0.8,0.8
2026-01-27T0900,1864A,110.3091,25.2705,桂林市,龙隐路小学,,49,,17,34,14,43,,45,45,13,13,7,6,0.6,0.8
2026-01-27T0900,1865A,110.2849361,25.22909545,桂林市,八中,,40,35,19,28,14,38,,40,40,19,18,7,7,0.5,0.5
2026-01-27T0900,3531A,110.296,25.1254,桂林市,旅游学院,,32,32,24,17,11,41,,49,49,16,16,4,4,0.5,0.6
2026-01-27T0900,4222A,110.1835,25.2444,桂林市,环湖路276号,,29,29,13,17,12,32,,31,31,11,11,8,8,0.9,0.9
2026-01-27T0900,4301A,110.2803,25.2773,桂林市,信义路13号,,26,24,15,18,7,42,,44,44,15,16,5,4,1.0,1.1
2026-01-27T0900,2674A,100.2262,34.4854,果洛藏族自治州,玛沁县大武镇,,45,45,51,7,15,43,,68,62,6,4,20,18,0.4,0.4
2026-01-27T0900,1130A,126.5557,45.8109,哈尔滨市,松北商大,细颗粒物(PM2.5),68,54,76,49,66,19,,24,22,37,44,8,10,0.8,0.8
2026-01-27T0900,1132A,126.6162,45.719,哈尔滨市,南岗学府路,细颗粒物(PM2.5),62,57,65,44,44,30,,34,34,26,26,8,13,0.8,0.8
2026-01-27T0900,1133A,126.6894,45.7733,哈尔滨市,太平宏伟公园,,50,41,100,35,78,40,,36,36,25,45,21,19,0.7,1
2026-01-27T0900,1134A,126.6361,45.7672,哈尔滨市,道外承德广场,颗粒物(PM10),62,73,76,37,45,40,,38,36,36,38,11,15,0.4,0.3
2026-01-27T0900,1136A,126.644,45.7261,哈尔滨市,动力和平路,细颗粒物(PM2.5),60,49,64,43,46,29,,24,24,34,34,26,20,0.9,0.8
2026-01-27T0900,1137A,126.5933,45.7479,哈尔滨市,道里建国路,细颗粒物(PM2.5),63,49,61,45,45,29,,29,28,30,33,7,13,0.6,0.6
2026-01-27T0900,1138A,126.6127,45.6119,哈尔滨市,平房东轻厂,细颗粒物(PM2.5),77,75,71,56,60,24,,17,17,38,48,14,14,1.1,1
2026-01-27T0900,1139A,126.5875,45.9827,哈尔滨市,呼兰师专,细颗粒物(PM2.5),113,,82,85,65,26,,25,25,31,45,8,16,1.0,0.9
2026-01-27T0900,1140A,126.6299,45.6799,哈尔滨市,省农科院,细颗粒物(PM2.5),110,107,80,83,63,18,,15,15,38,42,16,18,1.1,0.9
2026-01-27T0900,4282A,126.6769,45.7379,哈尔滨市,华山路1号,细颗粒物(PM2.5),58,56,87,41,62,31,,29,29,39,47,33,29,0.6,0.7
2026-01-27T0900,4283A,126.9717,45.5356,哈尔滨市,解放大街52号,细颗粒物(PM2.5),72,82,78,52,60,29,,32,29,26,26,2,7,0.8,0.8
2026-01-27T0900,2688A,93.5124,42.8176,哈密市,地区监测站,颗粒物(PM10),79,107,112,36,48,35,,16,16,19,28,8,9,0.2,0.6
2026-01-27T0900,2689A,93.5014,42.8312,哈密市,哈密师范学校,颗粒物(PM10),84,117,130,39,41,28,,5,5,35,45,4,6,0.9,1.1
2026-01-27T0900,2671A,100.9016,36.9464,海北藏族自治州,海晏县西海镇,颗粒物(PM10),57,64,97,21,27,49,,57,56,2,4,8,7,0.4,0.4
2026-01-27T0900,3867A,102.074,36.5056,海东市,平安区公安局北苑,颗粒物(PM10),145,240,266,95,88,26,,43,39,24,24,13,28,1.2,1.2
2026-01-27T0900,4163A,102.0984,36.5119,海东市,滨河路,颗粒物(PM10),159,267,306,95,107,10,,31,26,50,42,11,30,1.0,1.1
2026-01-27T0900,1410A,110.3189,20.0596,海口市,海南大学,,44,44,35,22,17,88,,78,78,11,10,5,6,0.4,0.4
2026-01-27T0900,1411A,110.2827,20.0051,海口市,秀英海南医院,,37,37,30,22,16,82,,73,73,13,12,7,7,0.4,0.3
2026-01-27T0900,1412A,110.3391,19.9979,海口市,海南师范大学,,,36,31,20,17,,,82,82,10,12,6,6,0.4,0.4
2026-01-27T0900,1413A,110.3303,20.0359,海口市,龙华路环保局宿舍,,33,33,31,19,17,89,,79,79,13,12,/,/,0.7,0.7
2026-01-27T0900,3539A,110.5111,19.9737,海口市,桂林洋子站,,34,34,32,17,16,96,,81,81,10,11,/,/,/,/
2026-01-27T0900,4134A,110.1952,20.0451,海口市,长滨二路9号,,50,40,27,35,18,71,,70,69,8,10,/,/,/,/
2026-01-27T0900,2673A,100.6158,36.2985,海南藏族自治州,共和县恰卜恰镇,颗粒物(PM10),76,102,99,26,41,27,,36,33,37,21,15,11,1.1,0.9
2026-01-27T0900,2676A,97.373,37.376,海西蒙古族藏族自治州,德令哈市,颗粒物(PM10),95,140,153,19,33,80,,81,81,2,5,16,16,0.4,0.4
2026-01-27T0900,1049A,114.492,36.5712,邯郸市,矿院,细颗粒物(PM2.5),216,224,179,166,155,4,,3,3,55,55,5,12,2.2,1.7
2026-01-27T0900,1050A,114.4839,36.6136,邯郸市,丛台公园,细颗粒物(PM2.5),212,219,184,162,147,9,,8,7,61,61,7,13,2.1,1.7
2026-01-27T0900,3458A,114.7893,36.5592,邯郸市,香泉濮院小区,细颗粒物(PM2.5),211,256,203,161,133,15,,8,8,55,51,13,13,2.4,1.7
2026-01-27T0900,3580A,114.1998,36.4439,邯郸市,峰峰矿区临水派出所,细颗粒物(PM2.5),129,154,148,98,106,40,,63,61,25,27,12,17,1.6,1.5
2026-01-27T0900,4068A,114.5209,36.7697,邯郸市,建安街268号,细颗粒物(PM2.5),192,201,187,144,148,5,,3,3,68,75,8,11,2.2,1.6
2026-01-27T0900,4069A,114.5488,36.6177,邯郸市,丛台东路558号,细颗粒物(PM2.5),259,268,193,209,167,3,,2,2,60,66,7,12,2.3,1.9
2026-01-27T0900,2635A,107.0155,33.0707,汉中市,市监测站,颗粒物(PM10),116,182,195,75,81,7,,5,4,39,37,8,5,1.7,1.4
2026-01-27T0900,2636A,107.0083,33.114,汉中市,鑫源开发区,颗粒物(PM10),113,175,189,74,80,7,,8,8,31,39,5,7,1.1,1.2
2026-01-27T0900,2637A,107.0072,33.0323,汉中市,南郑大河坎水厂,颗粒物(PM10),102,154,187,62,76,3,,9,7,26,26,7,6,1.0,1.1
2026-01-27T0900,1223A,120.2073,30.2111,杭州市,滨江,细颗粒物(PM2.5),63,,36,45,32,38,,41,41,29,29,6,6,0.8,0.5
2026-01-27T0900,1224A,120.0625,30.2737,杭州市,西溪,,50,42,45,35,26,47,,42,42,28,31,8,8,1.0,0.9
2026-01-27T0900,1226A,120.3417,30.315,杭州市,下沙,细颗粒物(PM2.5),59,48,47,42,32,41,,40,40,26,28,7,7,1.0,0.8
2026-01-27T0900,1227A,120.1252,30.2465,杭州市,卧龙桥,,,40,39,32,26,42,,41,41,,30,,8,0.6,0.4
2026-01-27T0900,1228A,120.1902,30.2691,杭州市,浙江农大,,,47,36,45,29,,,41,41,31,34,,5,0.9,0.7
2026-01-27T0900,1230A,120.1195,30.3121,杭州市,和睦小学,,49,49,42,32,28,51,,43,43,22,24,4,4,0.9,0.8
2026-01-27T0900,1231A,120.3076,30.4146,杭州市,临平镇,细颗粒物(PM2.5),54,47,38,38,28,51,,48,48,14,20,6,6,0.9,0.7
2026-01-27T0900,1232A,120.2753,30.1839,杭州市,城厢镇,细颗粒物(PM2.5),53,40,53,37,31,39,,41,41,28,29,7,7,0.7,0.5
2026-01-27T0900,1233A,120.0883,30.1808,杭州市,云栖,,39,34,42,27,27,37,,37,37,27,28,3,4,0.8,0.7
2026-01-27T0900,3557A,119.9463,30.0496,杭州市,镇二中,,29,,32,20,30,24,,29,29,32,33,4,5,1.0,0.9
2026-01-27T0900,3558A,119.7184,30.2367,杭州市,市府大楼,,33,25,40,23,30,29,,29,29,21,23,10,10,1.1,1.1
2026-01-27T0900,3656A,120.1554,30.2863,杭州市,消防大队,细颗粒物(PM2.5),60,,42,43,33,48,,41,41,20,24,5,5,0.5,0.4
2026-01-27T0900,1270A,117.1957,31.7845,合肥市,明珠广场,,25,24,26,17,21,36,,42,41,24,17,5,5,0.6,0.5
2026-01-27T0900,1271A,117.307,31.8765,合肥市,三里街,,39,27,21,27,17,31,,44,42,23,20,4,4,0.6,0.5
2026-01-27T0900,1272A,117.2587,31.8703,合肥市,琥珀山庄,,33,24,30,23,26,44,,48,48,17,17,7,7,0.7,0.8
2026-01-27T0900,1275A,117.2593,31.9376,合肥市,庐阳区,,34,34,26,23,21,32,,48,46,30,24,2,2,0.6,0.6
2026-01-27T0900,1276A,117.345251,31.861615,合肥市,瑶海区,,29,29,20,20,19,38,,49,47,23,23,4,4,0.5,0.4
2026-01-27T0900,1277A,117.3033,31.7967,合肥市,包河区,,45,,23,31,23,24,,30,28,45,37,5,5,0.6,0.6
2026-01-27T0900,1278A,117.278,31.7392,合肥市,滨湖新区,,42,29,22,29,27,43,,46,46,19,23,2,2,0.6,0.5
2026-01-27T0900,1279A,117.1324,31.8395,合肥市,高新区,,43,39,33,30,26,36,,45,45,29,25,3,3,0.7,0.7
2026-01-27T0900,3464A,117.3802,31.9148,合肥市,高教基地,,43,,20,30,24,36,,46,44,22,21,6,7,0.5,0.5
2026-01-27T0900,4098A,117.2518,31.8404,合肥市,中国科学技术大学,,25,17,22,17,21,48,,51,51,14,14,7,7,0.6,0.6
2026-01-27T0900,3614A,79.9241,37.0878,和田地区,地区环保局,颗粒物(PM10),500,669,682,118,143,33,,21,21,20,34,1,6,1.5,1.9
2026-01-27T0900,3615A,79.9132,37.1137,和田地区,市环保局,颗粒物(PM10),500,660,700,107,119,30,,25,24,22,27,3,4,1.1,1.6
2026-01-27T0900,2517A,108.0496,24.6957,河池市,市环保站,,22,20,21,15,15,5,,6,5,14,13,3,4,1.0,1
2026-01-27T0900,4302A,108.0901,24.6945,河池市,上任中路54号,,34,34,24,20,14,2,,3,3,19,17,4,4,0.9,0.9
2026-01-27T0900,1697A,114.6962,23.7538,河源市,东埔,细颗粒物(PM2.5),84,75,50,62,34,45,,30,30,35,44,8,6,0.7,0.6
2026-01-27T0900,1698A,114.6895,23.7232,河源市,老城,细颗粒物(PM2.5),93,,43,69,31,50,,26,26,26,28,8,6,1.1,0.7
2026-01-27T0900,3374A,115.5562,35.089,菏泽市,定陶老年大学,细颗粒物(PM2.5),233,224,196,183,154,15,,9,9,56,57,7,8,1.9,1.4
2026-01-27T0900,4114A,115.4239,35.2593,菏泽市,黄河路600号,细颗粒物(PM2.5),237,234,214,187,173,12,,9,9,55,54,6,5,2.1,1.4
2026-01-27T0900,4115A,115.5025,35.2727,菏泽市,菏泽市人社局,细颗粒物(PM2.5),235,223,196,185,162,9,,21,17,56,42,12,14,1.8,1.2
2026-01-27T0900,4184A,115.479691,35.244011,菏泽市,永昌路1号,细颗粒物(PM2.5),200,235,193,150,152,18,,21,20,49,45,8,8,1.1,0.9
2026-01-27T0900,4193A,115.471542,35.280012,菏泽市,长城路999号,细颗粒物(PM2.5),229,221,194,179,158,10,,15,13,57,49,15,14,2.0,1.3
2026-01-27T0900,2514A,111.5264,24.4178,贺州市,环保小区,,20,20,57,9,47,32,,39,39,22,20,3,7,0.7,0.8
2026-01-27T0900,2515A,111.561,24.4074,贺州市,政协大楼,,24,24,57,13,45,38,,42,42,13,16,10,14,0.7,0.9
2026-01-27T0900,3534A,111.4744,24.455,贺州市,西湾,,19,19,59,13,41,37,,41,41,12,15,9,12,1.0,1
2026-01-27T0900,2385A,114.17,35.9019,鹤壁市,市监测站,细颗粒物(PM2.5),180,190,177,136,138,34,,33,33,25,32,6,7,1.3,1.4
2026-01-27T0900,2386A,114.2953,35.7512,鹤壁市,市交警支队,细颗粒物(PM2.5),172,204,191,130,150,0,,9,8,56,54,2,7,1.7,1.4
2026-01-27T0900,2387A,114.2877,35.7302,鹤壁市,迎宾馆,细颗粒物(PM2.5),185,193,181,139,134,3,,20,18,46,41,4,7,1.5,1.4
2026-01-27T0900,3474A,114.2616,35.6824,鹤壁市,大新区,细颗粒物(PM2.5),199,192,175,149,139,3,,14,12,49,41,6,7,1.4,1.4
2026-01-27T0900,3596A,114.1573,35.9607,鹤壁市,南山宾馆,颗粒物(PM10),129,207,198,91,130,68,,63,63,13,31,8,14,0.9,1.2
2026-01-27T0900,2244A,130.2537,47.3416,鹤岗市,哈啤分公司,,35,32,21,24,17,83,,86,85,8,5,6,6,0.3,0.2
2026-01-27T0900,2245A,130.2683,47.3087,鹤岗市,斯达机电,,37,37,26,21,8,67,,77,76,15,7,6,5,2.0,1
2026-01-27T0900,2246A,130.3114,47.3388,鹤岗市,东山纸板厂,,44,44,32,15,13,70,,76,75,14,8,9,7,0.6,0.6
2026-01-27T0900,2263A,127.4832,50.2524,黑河市,交通局,,26,24,17,18,13,66,,72,72,17,11,4,4,0.3,0.2
2026-01-27T0900,2264A,127.5146,50.2339,黑河市,环保局,,22,14,15,7,9,70,,74,73,12,11,3,3,0.4,0.4
2026-01-27T0900,1074A,115.6839,37.754,衡水市,电机北厂,细颗粒物(PM2.5),180,223,160,136,106,0,,14,9,71,45,12,13,1.5,1
2026-01-27T0900,1075A,115.6303,37.7318,衡水市,市监测站,细颗粒物(PM2.5),168,197,155,127,103,9,,9,7,61,50,13,13,1.8,1
2026-01-27T0900,3188A,115.6684,37.7216,衡水市,市城管局,细颗粒物(PM2.5),163,207,159,124,97,7,,5,3,64,57,14,13,1.4,1
2026-01-27T0900,3459A,115.599,37.5491,衡水市,地表水厂,细颗粒物(PM2.5),190,155,145,143,115,6,,4,4,74,61,12,12,1.2,1
2026-01-27T0900,2457A,112.6209,26.9268,衡阳市,衡阳化工总厂,细颗粒物(PM2.5),134,,73,102,86,35,,35,35,19,15,8,7,1.1,1.2
2026-01-27T0900,2458A,112.621,26.8957,衡阳市,珠晖区环保局,细颗粒物(PM2.5),138,,82,105,82,32,,29,29,24,21,4,3,1.2,1.2
2026-01-27T0900,2459A,112.628,26.8654,衡阳市,市委党校,细颗粒物(PM2.5),139,,72,106,85,40,,33,33,10,12,9,8,1.3,1.4
2026-01-27T0900,2460A,112.6007,26.8977,衡阳市,市监测站,细颗粒物(PM2.5),128,139,102,97,68,39,,32,32,16,18,6,5,1.2,1.3
2026-01-27T0900,2461A,112.5658,26.9013,衡阳市,真空机电公司,细颗粒物(PM2.5),143,122,93,109,91,38,,33,33,19,18,6,5,1.4,1.3
2026-01-27T0900,3399A,112.6703,26.8817,衡阳市,师范学院,细颗粒物(PM2.5),140,123,89,107,79,39,,32,32,16,19,2,2,1.1,1.1
2026-01-27T0900,3038A,103.3757,23.3679,红河哈尼族彝族自治州,州图书馆,,38,35,31,26,19,39,,64,61,16,8,8,7,0.8,0.6
2026-01-27T0900,4154A,103.401,23.3561,红河哈尼族彝族自治州,蒙自市朝阳路,,25,,22,17,18,55,,62,61,9,6,5,6,0.7,0.6
2026-01-27T0900,1090A,111.6506,40.7517,呼和浩特市,呼市一监,,44,44,116,15,35,15,,10,10,41,36,9,8,0.8,0.6
2026-01-27T0900,1094A,111.7516,40.8369,呼和浩特市,如意水处理厂,颗粒物(PM10),55,60,103,30,32,8,,3,3,65,47,11,9,1.0,0.6
2026-01-27T0900,1095A,111.727798,40.806187,呼和浩特市,二十九中,颗粒物(PM10),51,52,111,18,31,15,,18,18,46,33,11,11,0.8,0.4
2026-01-27T0900,1097A,111.717,40.7617,呼和浩特市,化肥厂生活区,颗粒物(PM10),53,56,133,21,40,18,,20,20,42,37,7,6,1.0,0.7
2026-01-27T0900,3699A,111.6519,40.8389,呼和浩特市,海东办,,,,108,24,33,7,,6,4,50,41,4,5,0.8,0.6
2026-01-27T0900,4275A,111.591512,40.827312,呼和浩特市,成吉思汗西街8号,,,68,100,27,28,,,14,14,59,38,11,7,1.0,0.6
2026-01-27T0900,4276A,111.6597,40.8077,呼和浩特市,公园东路75号,颗粒物(PM10),52,53,112,18,31,18,,13,12,53,41,6,6,1.0,0.7
2026-01-27T0900,4277A,111.5427,40.7846,呼和浩特市,金海路35号,颗粒物(PM10),54,57,113,21,31,5,,14,14,60,41,9,10,0.7,0.6
2026-01-27T0900,3061A,119.7511,49.1576,呼伦贝尔市,国华电力东,,28,28,32,19,20,59,,61,60,15,20,16,7,0.5,0.5
2026-01-27T0900,4279A,119.7569,49.2222,呼伦贝尔市,伊敏大街东7号,,29,29,29,9,16,39,,56,53,27,16,7,6,0.3,0.2
2026-01-27T0900,1250A,120.075,30.867,湖州市,城西水厂,,49,40,34,34,25,60,,56,56,23,25,5,5,0.4,0.5
2026-01-27T0900,2873A,120.083,30.8929,湖州市,仁皇山新区,细颗粒物(PM2.5),54,43,35,38,27,69,,61,61,22,30,5,5,0.6,0.7
2026-01-27T0900,2907A,120.1846,30.8592,湖州市,吴兴区站,,46,44,39,32,22,66,,55,55,23,29,5,4,0.6,0.6
2026-01-27T0900,3562A,120.4146,30.8538,湖州市,南浔区站,细颗粒物(PM2.5),54,51,38,38,26,59,,56,56,23,25,7,6,1.0,0.6
2026-01-27T0900,1607A,120.904878,40.721091,葫芦岛市,龙港区,细颗粒物(PM2.5),176,179,108,133,73,20,,14,14,58,54,64,46,3.9,1.8
2026-01-27T0900,1608A,120.8382,40.7521,葫芦岛市,化工街,细颗粒物(PM2.5),147,178,134,112,87,11,,9,9,68,58,22,25,2.2,1.6
2026-01-27T0900,1609A,120.8339,40.7078,葫芦岛市,新区,细颗粒物(PM2.5),88,90,99,65,79,7,,5,5,75,62,19,27,2.4,1.8
2026-01-27T0900,1610A,120.8697,40.7679,葫芦岛市,东城区,细颗粒物(PM2.5),92,123,104,68,80,10,,7,7,65,57,31,31,2.5,1.8
2026-01-27T0900,2483A,109.9297,27.5383,怀化市,河西地税局,"颗粒物(PM10),细颗粒物(PM2.5)",59,67,50,42,39,39,,40,40,21,17,2,2,/,/
2026-01-27T0900,2484A,109.9783,27.5342,怀化市,市四医院,细颗粒物(PM2.5),73,71,51,53,40,22,,31,29,22,15,6,6,0.9,0.9
2026-01-27T0900,2485A,109.9971,27.5579,怀化市,监测楼,"颗粒物(PM10),细颗粒物(PM2.5)",62,74,54,44,45,34,,35,34,44,21,3,3,0.5,0.4
2026-01-27T0900,1210A,119.0566,33.5991,淮安市,钵池山,细颗粒物(PM2.5),97,110,47,72,39,15,,17,15,37,24,8,6,0.7,0.5
2026-01-27T0900,1211A,119.0083,33.578,淮安市,北京南路,细颗粒物(PM2.5),87,107,49,64,37,27,,14,14,28,25,11,6,0.8,0.6
2026-01-27T0900,1212A,118.9938,33.6083,淮安市,市监测站,细颗粒物(PM2.5),94,88,39,70,40,22,,10,10,36,33,11,8,0.8,0.7
2026-01-27T0900,1213A,119.135,33.5038,淮安市,楚州区监测站,细颗粒物(PM2.5),83,103,39,61,36,32,,13,13,29,30,8,8,0.4,0.3
2026-01-27T0900,3426A,118.8757,33.2897,淮安市,新华书店,细颗粒物(PM2.5),139,138,46,106,41,12,,20,18,34,21,10,8,1.4,0.9
2026-01-27T0900,4092A,119.119691,33.550006,淮安市,枚皋中路89号,细颗粒物(PM2.5),99,128,47,74,36,27,,16,16,29,25,9,8,0.4,0.1
2026-01-27T0900,4206A,119.028838,33.631911,淮安市,承德北路606号,细颗粒物(PM2.5),94,117,54,70,43,19,,12,12,36,32,10,6,0.7,0.5
2026-01-27T0900,2282A,116.8005,33.9749,淮北市,监测站,细颗粒物(PM2.5),156,162,87,119,70,13,,29,26,33,22,5,4,1.3,0.8
2026-01-27T0900,2283A,116.8094,33.9008,淮北市,烈山区政府,细颗粒物(PM2.5),108,93,81,81,72,21,,28,26,26,23,3,3,0.8,0.6
2026-01-27T0900,4017A,116.7926,33.9534,淮北市,市博物馆,细颗粒物(PM2.5),150,150,93,115,77,14,,23,22,31,23,4,5,1.1,0.8
2026-01-27T0900,4100A,116.8322,33.9884,淮北市,杜集区第一实验学校,细颗粒物(PM2.5),105,113,95,79,73,12,,19,18,24,24,7,6,1.4,0.9
2026-01-27T0900,2277A,116.8304,32.7726,淮南市,潘集区政府,细颗粒物(PM2.5),92,75,52,68,50,24,,21,21,24,19,4,4,0.5,0.4
2026-01-27T0900,2279A,116.8569,32.5949,淮南市,谢家集区政府,,,,38,,34,23,,31,31,23,17,7,6,0.6,0.6
2026-01-27T0900,2280A,116.8279,32.6333,淮南市,八公山区政府,细颗粒物(PM2.5),85,70,43,63,40,28,,32,32,21,17,5,5,0.6,0.6
2026-01-27T0900,2894A,117.0561,32.6536,淮南市,经济技术开发区消防队,细颗粒物(PM2.5),75,76,48,55,30,14,,33,30,43,24,4,3,0.7,0.6
2026-01-27T0900,3329A,117.011,32.5891,淮南市,山南新区,细颗粒物(PM2.5),73,75,41,53,25,34,,40,39,26,21,6,6,0.4,0.6
2026-01-27T0900,4209A,117.003137,32.644456,淮南市,国庆中路369号,细颗粒物(PM2.5),90,79,45,67,39,19,,22,21,26,20,7,7,0.5,0.3
2026-01-27T0900,2446A,114.9021,30.474,黄冈市,职工中心,细颗粒物(PM2.5),92,80,91,68,79,37,,27,27,16,24,20,6,0.7,1
2026-01-27T0900,2929A,114.8858,30.4519,黄冈市,红卫路,细颗粒物(PM2.5),84,,80,62,84,39,,29,29,18,23,7,7,0.3,0.5
2026-01-27T0900,3398A,114.9134,30.4446,黄冈市,市林业局,细颗粒物(PM2.5),77,57,79,56,80,39,,27,27,19,23,3,4,0.8,0.9
2026-01-27T0900,2672A,102.02,35.5101,黄南藏族自治州,同仁县隆务镇,颗粒物(PM10),56,61,121,24,55,61,,62,61,1,4,8,9,0.4,0.6
2026-01-27T0900,2295A,118.2905,29.6965,黄山市,延安路89号,,35,,24,24,21,28,,35,35,15,18,4,4,0.7,0.8
2026-01-27T0900,2297A,118.1369,30.2755,黄山市,黄山区政府5号楼,,18,,13,12,10,23,,25,24,17,21,2,2,0.7,0.8
2026-01-27T0900,4210A,118.335445,29.720283,黄山市,滨江东路7-2号,,35,,38,24,36,26,,34,34,15,19,/,/,/,/
2026-01-27T0900,2423A,115.0547,30.2332,黄石市,沈家营,细颗粒物(PM2.5),97,107,102,72,82,18,,21,21,17,19,7,7,1.6,1.6
2026-01-27T0900,2426A,114.899,30.211,黄石市,铁山,细颗粒物(PM2.5),113,,79,85,100,9,,16,14,27,25,6,5,0.9,0.9
2026-01-27T0900,2427A,115.0259,30.2108,黄石市,团城山,细颗粒物(PM2.5),107,83,96,80,90,10,,17,16,23,22,7,6,1.2,1
2026-01-27T0900,3149A,115.0174,30.1591,黄石市,笔架山北路,细颗粒物(PM2.5),112,119,122,84,95,11,,17,16,27,26,6,7,1.0,1.1
2026-01-27T0900,4185A,115.078022,30.21118,黄石市,磁湖东路29号,细颗粒物(PM2.5),119,,100,90,99,10,,18,17,28,28,6,6,1.9,1.4
2026-01-27T0900,1392A,114.4181,23.0528,惠州市,河南岸金山湖子站,颗粒物(PM10),53,55,52,35,29,55,,28,28,31,29,7,5,0.8,0.7
2026-01-27T0900,1393A,114.4055,23.0824,惠州市,下埔横江三路子站,颗粒物(PM10),59,68,73,41,34,63,,28,28,22,33,8,6,0.7,0.8
2026-01-27T0900,1395A,114.4645,22.7832,惠州市,惠阳区承修路船湖子站,颗粒物(PM10),52,53,49,32,28,49,,50,45,29,26,9,6,0.6,0.6
2026-01-27T0900,1396A,114.5316,22.7423,惠州市,大亚湾管委会子站,颗粒物(PM10),53,55,48,32,23,60,,56,53,23,19,8,6,0.6,0.5
2026-01-27T0900,3314A,114.4334,22.8134,惠州市,惠阳秋长,"颗粒物(PM10),细颗粒物(PM2.5)",57,63,47,40,29,54,,57,50,36,30,/,/,/,/
2026-01-27T0900,3452A,114.6521,22.7755,惠州市,大亚湾霞涌,,38,30,28,26,18,74,,63,63,17,17,/,/,/,/
2026-01-27T0900,4300A,114.4089,23.1147,惠州市,文华一路1号,"颗粒物(PM10),细颗粒物(PM2.5)",54,58,55,38,30,72,,28,28,22,35,/,/,/,/
2026-01-27T0900,2240A,130.9618,45.2926,鸡西市,环保局,,25,24,23,17,17,58,,67,66,14,10,6,7,0.5,0.4
2026-01-27T0900,2243A,130.9294,45.2959,鸡西市,第一中学,,30,30,23,17,18,63,,68,68,8,9,3,4,0.4,0.4
2026-01-27T0900,3707A,131.0069,45.2988,鸡西市,欧美日汽修厂,,39,39,35,19,21,60,,70,69,12,12,8,11,0.3,0.3
2026-01-27T0900,2367A,114.9753,27.0803,吉安市,红声器材厂,,44,44,47,30,32,15,,22,22,27,25,8,10,1.3,1.2
2026-01-27T0900,2369A,114.9903,27.1313,吉安市,市环境监测站,,46,41,44,32,32,18,,25,25,21,22,7,8,/,/
2026-01-27T0900,2370A,115.009527,27.096792,吉安市,青原区法院,,43,43,46,30,31,10,,23,22,26,22,12,11,1.2,1.2
2026-01-27T0900,1772A,126.54,43.8622,吉林市,哈达湾,细颗粒物(PM2.5),89,73,67,66,55,55,,58,57,26,25,7,8,1.2,1
2026-01-27T0900,1773A,126.5843,43.8358,吉林市,东局子,细颗粒物(PM2.5),88,73,61,65,53,42,,34,33,27,27,5,7,1.2,1
2026-01-27T0900,1774A,126.5051,43.8243,吉林市,电力学院,细颗粒物(PM2.5),102,85,66,76,58,50,,47,46,30,27,7,10,1.1,0.9
2026-01-27T0900,1775A,126.6133,43.8971,吉林市,江北,,,86,82,75,70,39,,46,45,,29,8,10,1.3,1.2
2026-01-27T0900,1776A,126.5549,43.8304,吉林市,江南公园,细颗粒物(PM2.5),93,78,61,69,53,54,,53,52,20,24,8,15,0.8,0.7
2026-01-27T0900,2868A,126.4737,43.953,吉林市,九站,细颗粒物(PM2.5),117,98,84,88,69,34,,33,31,42,43,6,8,1.2,1
2026-01-27T0900,1299A,116.9866,36.6118,济南市,科干所,细颗粒物(PM2.5),117,134,108,88,66,11,,15,14,56,46,19,13,1.3,0.9
2026-01-27T0900,1300A,116.9379,36.6652,济南市,农科所,细颗粒物(PM2.5),148,144,117,113,95,4,,2,2,54,54,11,13,1.7,1.1
2026-01-27T0900,1301A,117.1265,36.6736,济南市,开发区,细颗粒物(PM2.5),104,129,109,78,72,9,,13,12,57,50,5,5,1.2,0.9
2026-01-27T0900,1303A,117.0616,36.6865,济南市,省种子仓库,细颗粒物(PM2.5),100,134,108,75,67,6,,4,4,53,52,7,9,1.2,0.9
2026-01-27T0900,1304A,116.9495185,36.644937,济南市,机床二厂,细颗粒物(PM2.5),160,171,125,122,93,4,,1,1,53,49,47,25,1.7,1.1
2026-01-27T0900,1305A,117.0496,36.6629,济南市,市监测站,细颗粒物(PM2.5),119,129,105,90,70,8,,8,8,58,48,7,7,1.5,1
2026-01-27T0900,1306A,116.7674,36.5458,济南市,长清党校,细颗粒物(PM2.5),123,127,104,93,70,7,,3,3,54,46,7,10,1.2,0.9
2026-01-27T0900,1961A,117.5323,36.6865,济南市,东山小学,细颗粒物(PM2.5),89,110,109,66,71,27,,28,28,45,40,6,6,0.7,0.6
2026-01-27T0900,3059A,117.7181,36.205,济南市,泰兴公司,细颗粒物(PM2.5),168,171,148,127,122,9,,7,7,59,52,13,9,1.5,1.3
2026-01-27T0900,3064A,117.6861,36.2172,济南市,莱芜战役纪念馆,细颗粒物(PM2.5),160,180,148,122,116,7,,4,4,60,56,12,12,1.4,1.2
2026-01-27T0900,3494A,117.1673,36.9782,济南市,济阳区政府,细颗粒物(PM2.5),119,127,97,90,61,16,,9,9,55,47,12,11,1.1,0.8
2026-01-27T0900,3495A,117.1168,36.6299,济南市,锦屏中学,细颗粒物(PM2.5),98,103,95,73,63,26,,32,30,38,36,3,5,1.3,1.1
2026-01-27T0900,4108A,117.7107,36.2385,济南市,山财大街5号,细颗粒物(PM2.5),120,124,126,91,92,15,,6,6,59,59,9,10,1.2,1.2
2026-01-27T0900,4109A,116.9744,36.6889,济南市,无影山路12号,细颗粒物(PM2.5),169,166,108,128,81,7,,6,6,68,54,36,20,2.8,1.3
2026-01-27T0900,1653A,116.6229,35.4288,济宁市,火炬城,细颗粒物(PM2.5),153,130,128,117,113,6,,19,16,47,35,5,6,1.1,1
2026-01-27T0900,3500A,116.5808,35.3703,济宁市,北湖一中,细颗粒物(PM2.5),152,131,127,116,112,8,,18,15,43,38,7,9,1.3,1
2026-01-27T0900,3501A,116.8251,35.5592,济宁市,服务中心,细颗粒物(PM2.5),210,182,160,160,119,5,,3,2,37,35,6,9,1.4,1
2026-01-27T0900,3678A,116.5907,35.4054,济宁市,市第七中学,细颗粒物(PM2.5),140,126,123,107,103,16,,29,27,45,37,14,15,1.3,1.2
2026-01-27T0900,4111A,116.6075,35.4566,济宁市,任和路,细颗粒物(PM2.5),150,149,157,115,107,5,,10,8,54,45,10,12,1.2,1.1
2026-01-27T0900,4112A,116.5648,35.3921,济宁市,文体南路1号,细颗粒物(PM2.5),163,144,161,124,114,9,,18,15,51,44,9,10,1.4,1
2026-01-27T0900,2255A,130.2749,46.8028,佳木斯市,佳纺,细颗粒物(PM2.5),64,53,37,46,25,48,,54,52,28,17,25,11,0.8,0.6
2026-01-27T0900,2257A,130.3258,46.7975,佳木斯市,环保局,细颗粒物(PM2.5),77,,28,56,21,44,,58,56,33,18,10,7,0.8,0.5
2026-01-27T0900,4285A,130.363,46.806,佳木斯市,顺和街,细颗粒物(PM2.5),69,,27,50,22,43,,55,53,32,20,13,10,0.7,0.5
2026-01-27T0900,4286A,130.3952,46.8268,佳木斯市,长安路196号,细颗粒物(PM2.5),59,,26,42,20,61,,68,67,20,14,9,6,0.7,0.5
2026-01-27T0900,1252A,120.7439,30.778,嘉兴市,清河小学,,48,48,38,33,25,58,,58,58,26,29,6,5,0.4,0.3
2026-01-27T0900,1253A,120.7261,30.7477,嘉兴市,嘉兴学院,,48,46,42,33,23,60,,59,59,24,28,5,4,1.1,1
2026-01-27T0900,2872A,120.7845,30.7524,嘉兴市,南湖区残联,颗粒物(PM10),52,53,37,33,23,58,,56,56,25,28,5,4,0.8,0.8
2026-01-27T0900,3407A,120.6915,30.7741,嘉兴市,秀洲住建,细颗粒物(PM2.5),53,48,37,37,27,62,,59,59,23,27,6,6,0.4,0.5
2026-01-27T0900,1945A,98.291,39.7705,嘉峪关市,气象局,颗粒物(PM10),101,151,292,53,59,34,,49,46,31,19,11,19,0.8,0.6
2026-01-27T0900,2884A,98.2672,39.7978,嘉峪关市,酒钢宾馆,颗粒物(PM10),107,163,305,44,66,25,,50,47,36,18,16,24,0.5,0.7
2026-01-27T0900,3248A,98.2644,39.7723,嘉峪关市,雄关区,颗粒物(PM10),94,137,244,30,47,33,,39,37,31,23,16,20,0.6,0.4
2026-01-27T0900,1383A,113.1063,22.6058,江门市,北街,细颗粒物(PM2.5),67,65,85,48,61,39,,38,36,44,51,/,/,/,/
2026-01-27T0900,1384A,113.073,22.5835,江门市,西区,颗粒物(PM10),62,74,80,38,41,36,,37,33,48,50,/,/,/,/
2026-01-27T0900,1385A,113.0218,22.531,江门市,圭峰西,细颗粒物(PM2.5),72,,63,52,46,56,,55,53,30,30,/,/,/,/
2026-01-27T0900,1386A,113.0826,22.5947,江门市,东湖,细颗粒物(PM2.5),68,66,74,49,56,47,,40,38,34,42,9,9,0.8,0.6
2026-01-27T0900,3311A,113.1077,22.5647,江门市,江海富民,细颗粒物(PM2.5),83,103,111,61,64,43,,41,39,45,52,/,/,0.9,0.7
2026-01-27T0900,3449A,113.0496,22.4669,江门市,新会银湖,,,,66,,50,,,188,,,40,,8,,0.5
2026-01-27T0900,3335A,113.3137,35.2643,焦作市,马村街道办,细颗粒物(PM2.5),179,200,186,135,148,14,,32,30,33,30,8,9,1.6,1.2
2026-01-27T0900,3336A,113.2464,35.2374,焦作市,焦作技师学院,细颗粒物(PM2.5),140,174,185,107,133,16,,35,32,41,34,7,7,1.7,1.3
2026-01-27T0900,3477A,113.1656,35.2536,焦作市,中站许衡医院,细颗粒物(PM2.5),214,217,184,164,139,26,,47,43,44,34,7,7,1.3,1.3
2026-01-27T0900,3981A,113.2456,35.18,焦作市,原李万街道办,细颗粒物(PM2.5),175,174,192,132,158,6,,21,19,41,35,8,9,1.6,1.3
2026-01-27T0900,4264A,113.234,35.219,焦作市,新安路1731号,细颗粒物(PM2.5),185,194,195,139,151,12,,29,27,42,36,8,9,1.6,1.4
2026-01-27T0900,4295A,113.2722,35.2121,焦作市,人民路3066号,细颗粒物(PM2.5),158,168,194,120,145,6,,18,16,39,36,6,8,1.8,1.7
2026-01-27T0900,1708A,116.3701,23.5345,揭阳市,新兴,细颗粒物(PM2.5),88,74,76,65,55,20,,8,8,44,52,13,11,1.0,1.2
2026-01-27T0900,1709A,116.3261,23.5442,揭阳市,西马,细颗粒物(PM2.5),97,78,75,72,58,10,,8,8,45,38,10,7,1.0,1
2026-01-27T0900,1710A,116.361,23.5627,揭阳市,东兴,细颗粒物(PM2.5),94,81,79,70,57,16,,7,7,44,46,12,11,/,/
2026-01-27T0900,1711A,116.4151,23.5295,揭阳市,渔湖,颗粒物(PM10),72,94,71,51,36,14,,4,4,40,35,11,8,/,/
2026-01-27T0900,3320A,116.4028,23.5699,揭阳市,曲溪,细颗粒物(PM2.5),85,73,71,63,41,19,,12,12,41,42,9,7,1.0,1
2026-01-27T0900,1944A,102.1691,38.5166,金昌市,天庆家园,颗粒物(PM10),134,217,331,74,82,10,,39,34,46,15,12,17,1.7,0.9
2026-01-27T0900,4022A,102.1648,38.5369,金昌市,金川区人防中心,颗粒物(PM10),129,208,351,69,78,35,,44,41,23,11,9,11,1.0,0.6
2026-01-27T0900,4239A,102.193042,38.531887,金昌市,长春路96号,颗粒物(PM10),148,246,341,62,75,9,,40,33,50,14,12,12,1.4,0.8
2026-01-27T0900,1262A,119.6478,29.0773,金华市,十五中,,23,21,71,16,51,27,,22,22,28,44,3,4,0.4,0.6
2026-01-27T0900,1263A,119.6859,29.1032,金华市,监测站,,23,23,71,13,45,20,,11,11,35,52,2,3,0.4,0.6
2026-01-27T0900,3659A,119.656,29.1132,金华市,气象局,,19,19,72,13,49,14,,12,12,34,53,3,4,0.1,0.2
2026-01-27T0900,1767A,121.1114,41.0879,锦州市,南山,颗粒物(PM10),53,56,73,34,60,26,,57,51,44,43,17,25,1.1,1.3
2026-01-27T0900,1768A,121.060361,40.842794,锦州市,开发区,细颗粒物(PM2.5),90,105,94,67,62,27,,29,29,55,49,39,34,1.2,1.3
2026-01-27T0900,1769A,121.1836,41.1118,锦州市,百股街道,,50,50,76,34,62,36,,48,45,41,45,12,53,1.1,1.2
2026-01-27T0900,1770A,121.1176,41.1224,锦州市,天安街道,细颗粒物(PM2.5),64,59,67,46,51,26,,69,62,44,36,15,30,1.3,1.1
2026-01-27T0900,1771A,121.1303,41.1385,锦州市,北湖公园,细颗粒物(PM2.5),67,,63,48,47,52,,67,65,22,27,12,34,0.9,0.9
2026-01-27T0900,2160A,112.8496,35.5051,晋城市,自来水公司,细颗粒物(PM2.5),128,187,189,97,86,17,,17,17,44,35,8,6,2.0,1.1
2026-01-27T0900,2162A,112.8509,35.4886,晋城市,市环保局,细颗粒物(PM2.5),119,167,189,90,90,8,,8,8,40,35,5,5,2.0,1.4
2026-01-27T0900,3620A,112.8258,35.4804,晋城市,泽州一中,颗粒物(PM10),133,215,196,79,88,22,,23,23,35,31,3,3,1.5,1.1
2026-01-27T0900,4078A,112.8246,35.5152,晋城市,前书院路,颗粒物(PM10),142,234,197,87,76,9,,15,14,36,27,4,4,2.1,1
2026-01-27T0900,4079A,112.8864,35.4773,晋城市,祥云街666号,"颗粒物(PM10),细颗粒物(PM2.5)",130,209,203,99,104,5,,20,16,55,33,7,6,1.7,1.1
2026-01-27T0900,2174A,112.6992,37.6984,晋中市,榆次区政府,细颗粒物(PM2.5),149,229,217,114,122,5,,17,17,47,44,8,15,1.3,1
2026-01-27T0900,2865A,112.7195,37.683,晋中市,榆次三中,细颗粒物(PM2.5),112,158,207,84,104,8,,7,7,40,46,8,11,1.0,1.1
2026-01-27T0900,4080A,112.7375,37.7215,晋中市,广安街188号,细颗粒物(PM2.5),175,268,264,132,144,3,,2,2,58,58,8,11,1.4,1.2
2026-01-27T0900,4200A,112.7478,37.6954,晋中市,迎宾街26号,细颗粒物(PM2.5),152,193,217,116,129,,,18,18,34,43,8,12,1.2,1.2
2026-01-27T0900,2439A,112.2012,31.048,荆门市,竹园小学,细颗粒物(PM2.5),117,146,155,88,108,12,,24,22,42,34,2,1,0.6,0.7
2026-01-27T0900,2440A,112.1968,30.9892,荆门市,掇刀,细颗粒物(PM2.5),125,162,162,95,110,41,,44,44,22,30,3,3,0.8,0.9
2026-01-27T0900,3012A,112.1849,31.0361,荆门市,西山林语,细颗粒物(PM2.5),118,173,152,89,99,42,,48,47,23,27,3,6,1.0,1.1
2026-01-27T0900,3547A,112.1631,31.0134,荆门市,龙泉中学南校,细颗粒物(PM2.5),128,179,160,97,107,52,,44,44,13,17,3,3,0.8,0.8
2026-01-27T0900,4124A,112.2213,31.0654,荆门市,新台西路6号,细颗粒物(PM2.5),104,114,151,78,112,13,,12,11,32,34,7,8,1.1,1.1
2026-01-27T0900,1844A,112.2493,30.3198,荆州市,市图书馆,细颗粒物(PM2.5),169,136,112,128,138,24,,14,14,27,36,6,5,1.2,1.2
2026-01-27T0900,1845A,112.2009,30.3543,荆州市,市委党校,细颗粒物(PM2.5),158,159,136,120,131,24,,11,11,30,42,5,5,1.1,1.2
2026-01-27T0900,3194A,112.2749,30.3124,荆州市,管委会,细颗粒物(PM2.5),158,121,122,120,138,19,,6,6,30,38,6,6,1.2,1.3
2026-01-27T0900,4268A,112.1722,30.3366,荆州市,学苑路85号,细颗粒物(PM2.5),144,133,124,110,122,31,,22,22,25,33,7,8,1.2,1.2
2026-01-27T0900,2343A,117.2114,29.2931,景德镇市,老干部活动中心,,18,18,24,11,29,17,,19,19,12,18,5,5,0.5,0.7
2026-01-27T0900,2344A,117.1893,29.2789,景德镇市,兽医站,,27,27,34,3,18,23,,24,24,14,20,3,4,0.6,0.7
2026-01-27T0900,2346A,117.246,29.2958,景德镇市,陶研所,,18,,23,12,32,20,,21,21,8,20,3,4,0.8,0.9
2026-01-27T0900,4289A,117.154766,29.256967,景德镇市,青少年活动中心,,15,15,30,8,24,22,,22,22,14,21,3,12,/,/
2026-01-27T0900,1803A,115.9873,29.6816,九江市,十里,细颗粒物(PM2.5),80,62,88,59,76,23,,21,21,29,37,4,4,1.0,1.3
2026-01-27T0900,1804A,115.9583,29.7047,九江市,茅山头,细颗粒物(PM2.5),88,88,97,65,73,8,,6,6,28,35,3,4,0.9,1.2
2026-01-27T0900,1805A,115.9877,29.7295,九江市,西园,细颗粒物(PM2.5),93,86,105,69,76,15,,13,13,36,42,5,4,0.8,1
2026-01-27T0900,1808A,115.9112,29.6038,九江市,综合工业园,细颗粒物(PM2.5),108,,94,81,93,10,,10,10,41,45,,2,1.0,0.7
2026-01-27T0900,3190A,116.0254,29.6995,九江市,外国语学校,细颗粒物(PM2.5),58,44,79,41,70,16,,16,16,37,39,4,4,1.0,1.2
2026-01-27T0900,4253A,116.010205,29.659402,九江市,莲花大道8号,细颗粒物(PM2.5),55,55,95,39,81,16,,17,17,22,30,2,2,0.7,1.1
2026-01-27T0900,4240A,98.495752,39.733935,酒泉市,玉门东路5号,颗粒物(PM10),422,522,328,77,54,23,,49,47,30,14,26,16,0.9,0.5
2026-01-27T0900,4241A,98.5099,39.7506,酒泉市,北大街108号,颗粒物(PM10),439,539,317,85,59,26,,42,41,29,17,26,16,0.9,0.6
2026-01-27T0900,2698A,76.0071,39.466,喀什地区,巡警大队,颗粒物(PM10),412,512,584,123,167,1,,3,2,48,49,4,6,2.7,2.5
2026-01-27T0900,2699A,75.9756,39.4693,喀什地区,吾办,颗粒物(PM10),368,474,517,130,164,11,,4,4,39,50,8,9,1.5,2.1
2026-01-27T0900,4027A,75.9485,39.4688,喀什地区,老干局,颗粒物(PM10),418,518,605,119,161,3,,3,3,36,43,3,5,2.7,2.6
2026-01-27T0900,1824A,114.3389,34.778,开封市,肿瘤医院,细颗粒物(PM2.5),236,219,183,186,151,8,,14,10,71,49,10,11,1.7,1.5
2026-01-27T0900,1826A,114.2884,34.7966,开封市,世纪星幼儿园,细颗粒物(PM2.5),255,206,164,205,172,11,,18,17,64,47,4,7,1.7,1.3
2026-01-27T0900,3147A,114.3434,34.8101,开封市,龙亭公园,细颗粒物(PM2.5),255,216,188,205,182,6,,4,4,67,59,8,9,2.1,1.7
2026-01-27T0900,3210A,114.3645,34.7955,开封市,汴京公园,细颗粒物(PM2.5),262,,187,212,166,4,,2,2,75,60,5,6,1.9,1.3
2026-01-27T0900,3473A,114.2485,34.8306,开封市,技师学院,细颗粒物(PM2.5),220,173,164,170,159,6,,21,18,60,50,7,8,1.5,1.2
2026-01-27T0900,3592A,114.4518,34.7503,开封市,祥符区生态环境局,细颗粒物(PM2.5),251,277,211,201,171,6,,8,8,72,57,7,12,1.4,1.3
2026-01-27T0900,1951A,84.886,45.6029,克拉玛依市,长征新村,细颗粒物(PM2.5),78,88,90,57,54,35,,37,37,29,31,5,5,0.9,0.7
2026-01-27T0900,1952A,84.8894,45.5827,克拉玛依市,南林小区,"颗粒物(PM10),细颗粒物(PM2.5)",67,84,90,48,44,33,,36,36,23,25,2,2,0.9,0.8
2026-01-27T0900,1954A,84.896,44.3328,克拉玛依市,独山子区,细颗粒物(PM2.5),67,79,137,48,81,53,,46,46,45,61,1,2,0.6,0.8
2026-01-27T0900,1955A,85.6888,46.0909,克拉玛依市,乌尔禾区商贸楼,颗粒物(PM10),58,66,75,34,44,28,,42,38,39,28,6,7,0.6,0.6
2026-01-27T0900,3612A,85.1045,45.6895,克拉玛依市,白碱滩区新站,细颗粒物(PM2.5),79,86,92,58,48,9,,28,24,44,32,8,8,0.8,0.7
2026-01-27T0900,2697A,76.1457,39.7143,克孜勒苏柯尔克孜自治州,市人民政府,颗粒物(PM10),382,485,542,117,137,38,,37,37,10,14,3,4,0.5,0.4
2026-01-27T0900,3665A,76.1654,39.7157,克孜勒苏柯尔克孜自治州,克州文化中心,颗粒物(PM10),406,506,544,120,122,36,,39,39,15,17,3,4,0.9,0.9
2026-01-27T0900,1450A,102.8203,24.889,昆明市,呈贡新区,,39,29,34,27,21,54,,56,55,18,19,5,6,0.6,0.6
2026-01-27T0900,1452A,102.7253,25.0904,昆明市,龙泉镇,颗粒物(PM10),56,62,33,36,19,5,,44,34,56,22,2,3,0.7,0.4
2026-01-27T0900,1453A,102.7267,25.0378,昆明市,东风东路,,35,35,36,24,20,45,,62,59,31,19,8,7,0.5,0.4
2026-01-27T0900,1454A,102.6744,25.0671,昆明市,金鼎山,,41,41,40,21,20,46,,47,46,31,19,4,4,0.5,0.4
2026-01-27T0900,1455A,102.6643,25.0401,昆明市,碧鸡广场,颗粒物(PM10),53,56,39,26,19,15,,44,39,55,24,5,5,0.7,0.5
2026-01-27T0900,3179A,102.7491,25.012,昆明市,官渡区博物馆,,36,36,34,23,19,44,,54,52,32,19,6,5,0.8,0.6
2026-01-27T0900,3375A,102.8016,24.8336,昆明市,青年创业园,,36,36,33,23,21,52,,62,62,16,13,6,6,0.5,0.4
2026-01-27T0900,3550A,102.8,24.9787,昆明市,昆明学院,颗粒物(PM10),56,61,37,39,23,23,,60,55,43,15,4,5,1.1,0.5
2026-01-27T0900,3551A,102.5969,24.6738,昆明市,晋宁区生态环境分局,,35,35,32,19,21,59,,56,56,14,14,2,3,0.7,0.7
2026-01-27T0900,3552A,102.6673,24.9861,昆明市,云天化总部,,41,41,30,28,18,32,,60,54,42,15,10,7,0.8,0.4
2026-01-27T0900,1456A,91.132,29.6515,拉萨市,八廓街,,19,14,20,6,12,59,,72,70,13,13,6,7,0.4,0.5
2026-01-27T0900,1457A,91.1221,29.6748,拉萨市,市环保局,,16,16,27,11,17,40,,61,59,30,21,7,7,0.8,0.8
2026-01-27T0900,1458A,91.0874,29.6476,拉萨市,区监测站,,16,11,16,6,9,44,,67,64,31,19,4,4,0.8,0.7
2026-01-27T0900,1459A,91.1774,29.6541,拉萨市,西藏大学,,19,12,18,7,10,58,,70,68,14,15,3,4,0.5,0.5
2026-01-27T0900,1460A,90.9798,29.6586,拉萨市,区辐射站,,29,29,28,11,15,10,,44,42,55,27,4,4,0.8,0.6
2026-01-27T0900,1461A,91.0831,29.6292,拉萨市,拉萨火车站,,15,14,18,7,9,47,,50,49,21,20,4,4,0.6,0.5
2026-01-27T0900,2520A,109.2203,23.7252,来宾市,来宾技工学校,,32,32,36,9,20,21,,21,21,13,14,9,9,1.0,0.9
2026-01-27T0900,3535A,109.1781,23.7293,来宾市,兴宾区政府,,25,24,22,17,31,23,,26,26,15,14,5,5,1.0,1
2026-01-27T0900,4002A,109.2312,23.7428,来宾市,中南小学,,20,19,38,14,21,18,,18,18,15,17,6,6,1.1,1.1
2026-01-27T0900,1479A,103.8309,36.0467,兰州市,铁路设计院,,,,,,,,,,,,,,,,
2026-01-27T0900,3241A,103.7439,36.0841,兰州市,百合公园,颗粒物(PM10),169,287,465,74,107,5,,14,14,51,61,11,14,1.0,1.2
2026-01-27T0900,3242A,103.9613,35.9985,兰州市,和平,颗粒物(PM10),283,408,543,96,129,27,,39,36,32,26,12,16,1.2,1.2
2026-01-27T0900,4236A,103.629272,36.093822,兰州市,庄浪东路808号,颗粒物(PM10),198,345,500,95,129,17,,36,32,49,44,14,16,0.9,1
2026-01-27T0900,4237A,103.7251,36.104344,兰州市,安宁西路88号,颗粒物(PM10),194,337,528,70,98,5,,34,29,60,52,10,13,0.7,0.9
2026-01-27T0900,4238A,103.846982,36.067567,兰州市,北滨河东路1号,颗粒物(PM10),179,308,512,72,113,3,,20,19,65,56,9,11,1.2,1.3
2026-01-27T0900,1067A,116.6712,39.5109,廊坊市,药材公司,颗粒物(PM10),57,63,101,36,69,5,,18,16,54,42,1,3,1.3,0.7
2026-01-27T0900,1068A,116.7215,39.5592,廊坊市,开发区,,26,26,96,8,59,16,,28,28,52,43,2,2,0.6,0.6
2026-01-27T0900,1070A,116.7246,39.5273,廊坊市,北华航天学院,,29,28,95,18,62,16,,34,33,57,38,2,3,0.9,0.6
2026-01-27T0900,2919A,116.7022,39.5454,廊坊市,河北工业大学,,21,21,98,12,57,32,,36,36,38,33,4,3,0.4,0.6
2026-01-27T0900,2536A,103.7629,29.5844,乐山市,牛耳桥,"颗粒物(PM10),细颗粒物(PM2.5)",74,97,113,54,50,2,,5,5,32,33,5,5,1.3,0.9
2026-01-27T0900,2537A,103.7501,29.6002,乐山市,市第三水厂,颗粒物(PM10),71,92,119,51,51,2,,2,2,42,44,6,6,1.2,1
2026-01-27T0900,2538A,103.7571,29.5664,乐山市,市监测站,颗粒物(PM10),74,98,114,52,49,1,,13,11,30,28,5,6,1.0,0.9
2026-01-27T0900,3361A,103.7313,29.563,乐山市,理工大学,颗粒物(PM10),84,118,121,60,48,1,,1,1,25,26,6,6,1.0,0.9
2026-01-27T0900,2599A,100.2497,26.8802,丽江市,丽江古城,,25,25,25,14,12,62,,71,69,13,10,9,10,0.5,0.4
2026-01-27T0900,2600A,100.2203,26.8906,丽江市,市中心,,18,18,19,9,8,50,,73,69,22,11,6,5,0.5,0.4
2026-01-27T0900,1267A,119.9141,28.4513,丽水市,监测站大楼,,15,11,27,10,28,22,,27,26,21,22,4,6,0.5,0.5
2026-01-27T0900,1268A,119.93,28.4589,丽水市,莲都小学,,15,15,36,9,21,21,,28,26,23,22,/,/,/,/
2026-01-27T0900,1269A,119.8794,28.4232,丽水市,余庄前,,18,15,32,12,22,7,,18,15,30,23,4,5,0.6,0.6
2026-01-27T0900,1173A,119.1759,34.5885,连云港市,市环境监测站,细颗粒物(PM2.5),113,127,68,85,52,14,,20,20,55,39,25,12,0.9,0.6
2026-01-27T0900,3000A,119.3577,34.6971,连云港市,德源药业,细颗粒物(PM2.5),113,153,70,85,46,10,,28,28,64,45,9,6,1.1,0.7
2026-01-27T0900,3007A,119.178,34.8442,连云港市,新城一中,细颗粒物(PM2.5),113,108,66,85,61,30,,23,23,45,45,20,16,1.0,0.8
2026-01-27T0900,3008A,119.3607,34.7519,连云港市,胡沟管理处,细颗粒物(PM2.5),92,112,59,68,41,38,,48,48,42,37,16,9,1.4,0.6
2026-01-27T0900,3009A,119.1478,34.5913,连云港市,矿山设计院,细颗粒物(PM2.5),110,134,72,83,51,10,,13,13,52,40,18,9,1.2,0.9
2026-01-27T0900,3434A,119.2414,34.6539,连云港市,工贸学校,细颗粒物(PM2.5),93,97,64,69,52,16,,28,28,45,33,16,11,0.9,0.7
2026-01-27T0900,3664A,119.4171,34.734,连云港市,连云街道,细颗粒物(PM2.5),82,102,60,60,42,26,,31,31,49,46,11,7,0.8,0.7
2026-01-27T0900,2573A,102.2629,27.8981,凉山彝族自治州,西昌市政府,细颗粒物(PM2.5),67,69,68,48,44,33,,60,56,38,13,6,6,0.7,0.7
2026-01-27T0900,2574A,102.2686,27.885,凉山彝族自治州,凉山州政府,细颗粒物(PM2.5),63,72,78,45,37,28,,46,43,29,16,8,7,0.8,0.7
2026-01-27T0900,4229A,102.2342,27.8859,凉山彝族自治州,凯乐南路30号,颗粒物(PM10),72,93,86,40,41,15,,28,25,31,18,8,8,0.8,0.7
2026-01-27T0900,2212A,123.1978,41.2036,辽阳市,宏伟区,,23,20,76,16,50,57,,57,57,11,26,7,12,0.4,1.1
2026-01-27T0900,2213A,123.1684,41.2497,辽阳市,新华园,,32,32,87,16,62,58,,56,56,16,39,9,16,0.5,1.4
2026-01-27T0900,2214A,123.2355,41.2663,辽阳市,滨河路,,22,22,82,10,53,56,,55,55,15,39,7,14,0.5,1.3
2026-01-27T0900,4083A,123.153,41.2874,辽阳市,铁西路150号,颗粒物(PM10),55,60,98,34,74,40,,45,45,30,46,11,17,1.1,2
2026-01-27T0900,2227A,125.1359,42.8845,辽源市,环保局,细颗粒物(PM2.5),79,63,69,58,52,48,,24,24,26,37,6,8,0.8,1.1
2026-01-27T0900,4085A,125.0998,42.9134,辽源市,安宁大街333号,,38,37,73,26,60,54,,22,22,11,20,8,11,0.7,1
2026-01-27T0900,1625A,115.9789,36.4372,聊城市,区政府,细颗粒物(PM2.5),139,153,128,106,102,14,,5,5,53,46,15,16,1.2,1.1
2026-01-27T0900,3200A,115.9772,36.4986,聊城市,监控中心,细颗粒物(PM2.5),160,160,133,122,96,7,,6,6,76,58,12,10,1.6,1.1
2026-01-27T0900,3513A,116.0443,36.436,聊城市,九州社区,细颗粒物(PM2.5),135,146,125,103,86,23,,23,21,38,33,11,12,1.0,0.9
2026-01-27T0900,4018A,116.0564,36.4609,聊城市,星美广场,细颗粒物(PM2.5),128,149,136,97,87,22,,20,16,32,35,7,9,1.0,0.9
2026-01-27T0900,4113A,116.0091,36.4495,聊城市,利民路,细颗粒物(PM2.5),129,130,118,98,83,13,,5,5,47,44,14,14,1.3,1.1
2026-01-27T0900,2632A,94.3683,29.6373,林芝市,林芝监测站,,18,10,14,7,10,57,,52,52,6,6,1,2,0.2,0.3
2026-01-27T0900,2633A,94.3616,29.6634,林芝市,林芝人民医院,,19,13,18,9,11,60,,58,58,4,5,5,5,0.3,0.3
2026-01-27T0900,2603A,100.0779,23.8981,临沧市,市环保局,,48,,28,33,39,19,,32,29,14,10,5,7,0.7,0.6
2026-01-27T0900,2604A,100.0894,23.882,临沧市,市气象局,,47,47,45,22,21,18,,34,31,18,10,7,9,0.6,0.4
2026-01-27T0900,1733A,111.5552,36.0791,临汾市,临钢医院,颗粒物(PM10),125,199,222,78,92,11,,23,20,31,29,4,4,1.2,1.2
2026-01-27T0900,1734A,111.4984,36.0734,临汾市,技工学校,颗粒物(PM10),119,187,214,88,113,13,,10,8,35,35,4,4,1.2,1.2
2026-01-27T0900,1736A,111.5017,36.0857,临汾市,市委,颗粒物(PM10),121,192,222,73,91,12,,8,6,36,34,6,7,1.3,1.3
2026-01-27T0900,3018A,111.5048,36.1015,临汾市,唐尧大酒店,颗粒物(PM10),116,181,210,80,95,6,,4,3,38,35,2,2,1.4,1.4
2026-01-27T0900,4244A,111.4879,36.053,临汾市,启星学校,颗粒物(PM10),119,188,202,72,87,3,,5,5,49,51,4,5,1.3,1.3
2026-01-27T0900,4271A,103.2464,35.6123,临夏回族自治州,滨河东路1号,颗粒物(PM10),192,333,440,109,135,9,,8,8,37,38,6,8,1.9,1.5
2026-01-27T0900,4310A,103.207136,35.599807,临夏回族自治州,新华街21号,颗粒物(PM10),212,358,418,108,127,8,,5,5,37,36,10,11,1.8,1.5
2026-01-27T0900,1618A,118.3429,35.0532,临沂市,沂河小区,细颗粒物(PM2.5),165,175,108,125,88,14,,8,8,52,47,14,13,1.5,1.1
2026-01-27T0900,1619A,118.2962,35.0568,临沂市,鲁南制药厂,细颗粒物(PM2.5),240,251,116,190,94,6,,6,6,76,60,24,17,2.6,1.2
2026-01-27T0900,1620A,118.2793,34.9976,临沂市,新光毛纺厂,细颗粒物(PM2.5),211,219,100,161,81,7,,7,7,77,53,16,12,2.2,1.3
2026-01-27T0900,1621A,118.3955,35.0889,临沂市,河东保险公司,细颗粒物(PM2.5),209,207,110,159,83,7,,4,4,66,54,13,10,2.4,1.2
2026-01-27T0900,3370A,118.3563,35.0215,临沂市,十里堡居委,细颗粒物(PM2.5),175,178,95,132,69,15,,10,10,57,46,16,14,1.9,1.2
2026-01-27T0900,3496A,118.359,35.1067,临沂市,南坊新区,细颗粒物(PM2.5),201,175,106,151,85,10,,6,6,59,57,14,13,1.8,1.4
2026-01-27T0900,3860A,118.3915,35.0297,临沂市,皇山花园小区,细颗粒物(PM2.5),196,219,107,147,72,15,,8,8,71,57,17,15,2.0,1.4
2026-01-27T0900,1870A,109.4854,24.3898,柳州市,柳东小学,,18,12,24,12,20,16,,16,16,8,9,8,8,0.9,0.9
2026-01-27T0900,1871A,109.4109,24.3304,柳州市,环保监测站,,15,14,23,10,13,18,,21,21,20,19,5,8,1.0,1.2
2026-01-27T0900,1872A,109.3886,24.3408,柳州市,河西水厂,,,23,25,16,14,12,,21,20,22,18,15,8,,1.3
2026-01-27T0900,1873A,109.4263,24.2951,柳州市,市四中,,16,12,20,11,11,20,,20,20,13,15,10,11,0.9,1.1
2026-01-27T0900,1874A,109.396,24.3658,柳州市,市九中,,25,25,18,12,15,12,,18,18,21,19,9,11,1.0,1.1
2026-01-27T0900,1875A,109.4912,24.3164,柳州市,古亭山,,15,15,16,8,11,18,,23,23,11,12,6,6,0.8,0.8
2026-01-27T0900,3402A,109.5422,24.3994,柳州市,市二中,,12,12,16,7,9,20,,22,22,16,17,8,9,0.9,0.9
2026-01-27T0900,2307A,116.5078,31.7369,六安市,监测大楼,,,,90,50,83,,,20,20,18,26,3,2,0.5,0.7
2026-01-27T0900,2308A,116.4738,31.7642,六安市,皖西学院,细颗粒物(PM2.5),83,64,110,61,89,24,,16,16,20,30,4,4,0.5,0.7
2026-01-27T0900,2309A,116.4997,31.7904,六安市,朝阳厂,细颗粒物(PM2.5),70,53,100,51,79,28,,17,17,18,28,4,5,0.6,0.9
2026-01-27T0900,2310A,116.5566,31.7885,六安市,开发区,细颗粒物(PM2.5),67,49,90,48,76,29,,19,19,20,28,3,3,0.5,0.8
2026-01-27T0900,2577A,104.8293,26.592,六盘水市,黄土坡,细颗粒物(PM2.5),54,41,56,38,40,28,,30,29,23,24,10,10,1.0,1.1
2026-01-27T0900,2579A,104.8481,26.5898,六盘水市,民中,细颗粒物(PM2.5),55,43,58,39,43,27,,31,31,22,23,5,6,0.9,1
2026-01-27T0900,2580A,104.9541,26.5506,六盘水市,双水,,45,31,56,31,34,41,,44,43,14,15,7,6,0.6,0.7
2026-01-27T0900,4151A,104.8899,26.5685,六盘水市,钟山大道中段564号,,45,45,64,29,36,30,,34,34,17,19,7,8,1.0,1.2
2026-01-27T0900,2336A,117.022,25.1031,龙岩市,龙岩市监测站,细颗粒物(PM2.5),52,39,31,36,20,29,,17,17,30,28,26,13,0.9,0.6
2026-01-27T0900,2337A,117.0257,25.0662,龙岩市,闽西职业技术学院,,38,38,33,23,16,14,,15,13,28,24,13,10,0.8,0.6
2026-01-27T0900,2338A,117.0195,25.0306,龙岩市,龙岩学院,,,29,24,,16,,,26,25,22,14,,10,/,/
2026-01-27T0900,2885A,104.9344,33.3827,陇南市,滨江中学,颗粒物(PM10),177,304,376,82,96,13,,22,22,41,40,17,12,1.3,2
2026-01-27T0900,3247A,104.9551,33.3709,陇南市,市总工会,颗粒物(PM10),156,262,332,79,99,22,,37,34,29,17,8,7,1.0,0.9
2026-01-27T0900,2488A,111.9984,27.7346,娄底市,市监测站,细颗粒物(PM2.5),117,98,74,88,66,38,,36,36,28,26,6,6,0.8,0.8
2026-01-27T0900,2491A,111.9888,27.7035,娄底市,市政府,细颗粒物(PM2.5),144,,82,110,78,31,,32,32,26,21,3,3,1.1,1
2026-01-27T0900,4127A,111.9812,27.7591,娄底市,涟钢职大,细颗粒物(PM2.5),102,95,85,76,71,35,,32,32,21,18,4,4,0.9,0.8
2026-01-27T0900,4128A,112.0303,27.7457,娄底市,娄底体校,,,,67,,66,,,63,,,12,,1,,0.8
2026-01-27T0900,1894A,105.4427,28.9063,泸州市,小市上码头,细颗粒物(PM2.5),99,94,72,74,52,15,,23,19,32,24,6,6,1.2,1
2026-01-27T0900,1895A,105.4241,28.8573,泸州市,兰田宪桥,细颗粒物(PM2.5),92,98,70,68,48,9,,18,15,28,20,8,8,1.0,0.8
2026-01-27T0900,1896A,105.4378,28.8833,泸州市,市环监站,细颗粒物(PM2.5),89,93,73,66,49,6,,19,15,35,25,9,9,1.2,0.9
2026-01-27T0900,4272A,105.3689,28.7783,泸州市,纳溪中医医院,细颗粒物(PM2.5),93,83,69,69,45,1,,2,1,24,23,8,8,1.1,0.9
2026-01-27T0900,2183A,111.1447,37.5212,吕梁市,环保局,颗粒物(PM10),92,134,178,35,50,8,,3,3,33,39,17,5,0.4,0.4
2026-01-27T0900,2185A,111.1285,37.5338,吕梁市,自来水公司,颗粒物(PM10),97,144,192,35,44,4,,2,2,31,31,11,5,0.7,0.6
2026-01-27T0900,2867A,111.1225,37.5093,吕梁市,马茂庄小学,颗粒物(PM10),111,171,199,38,49,6,,2,2,34,38,15,6,0.8,0.7
2026-01-27T0900,1812A,112.3934,34.6517,洛阳市,市委党校,细颗粒物(PM2.5),175,188,183,132,112,6,,4,4,44,43,10,11,1.7,1.3
2026-01-27T0900,1815A,112.494,34.6883,洛阳市,河南林校,细颗粒物(PM2.5),173,191,194,131,133,5,,2,2,41,45,9,10,1.6,1.4
2026-01-27T0900,1816A,112.3843,34.623,洛阳市,开发区管委会,细颗粒物(PM2.5),169,219,208,128,121,9,,4,4,33,34,9,8,1.4,1.2
2026-01-27T0900,1817A,112.4263,34.6249,洛阳市,市委新办公区,颗粒物(PM10),123,195,203,85,102,9,,4,4,32,37,7,9,1.0,1.1
2026-01-27T0900,3340A,112.6005,34.6323,洛阳市,伊滨,颗粒物(PM10),133,215,214,79,108,8,,4,4,37,44,7,8,1.0,1.1
2026-01-27T0900,3341A,112.495,34.6338,洛阳市,中移产业园,颗粒物(PM10),114,177,188,79,113,0,,0,0,43,50,9,10,1.2,1.3
2026-01-27T0900,3593A,112.5736,34.8993,洛阳市,吉利监测站,细颗粒物(PM2.5),214,214,197,164,149,11,,6,6,38,36,8,9,2.0,1.4
2026-01-27T0900,3635A,112.3678,34.6623,洛阳市,河科大西苑校区,细颗粒物(PM2.5),149,211,203,114,101,,,2,2,42,44,,9,1.5,1.1
2026-01-27T0900,3636A,112.4387,34.678,洛阳市,英才小学,细颗粒物(PM2.5),166,212,209,126,123,5,,3,3,47,51,12,11,1.6,1.4
2026-01-27T0900,4214A,112.460027,34.694929,洛阳市,春都路1号院,细颗粒物(PM2.5),156,216,221,119,113,4,,2,2,35,40,7,9,1.5,1.2
2026-01-27T0900,2399A,114.051,33.5721,漯河市,三五一五工厂,细颗粒物(PM2.5),188,208,190,141,148,9,,10,8,42,42,7,9,1.8,1.6
2026-01-27T0900,2400A,114.0055,33.5698,漯河市,漯河大学,细颗粒物(PM2.5),192,159,157,144,145,7,,12,9,48,42,5,8,1.3,1.1
2026-01-27T0900,2401A,114.0134,33.5826,漯河市,市水利局,细颗粒物(PM2.5),199,178,171,149,147,9,,7,6,39,36,4,6,1.5,1.3
2026-01-27T0900,2402A,114.0261,33.5697,漯河市,市广电局,细颗粒物(PM2.5),202,178,166,152,148,8,,16,13,47,35,6,9,1.4,1.2
2026-01-27T0900,3478A,113.9691,33.568,漯河市,市图书馆,细颗粒物(PM2.5),193,188,187,145,148,9,,22,19,39,38,6,9,1.3,1.2
2026-01-27T0900,4250A,114.089259,33.588274,漯河市,韶山路11号,细颗粒物(PM2.5),200,179,181,150,147,3,,8,7,50,43,8,10,1.6,1
2026-01-27T0900,1798A,118.5084,31.6838,马鞍山市,湖东路四小,,49,36,30,34,27,37,,44,44,28,25,3,3,0.5,0.6
2026-01-27T0900,1799A,118.5019,31.6449,马鞍山市,开发区,细颗粒物(PM2.5),53,39,29,37,26,38,,51,49,27,22,3,3,0.5,0.6
2026-01-27T0900,3633A,118.4914,31.681,马鞍山市,雨山,,49,46,34,34,28,40,,46,46,30,25,3,5,0.7,0.8
2026-01-27T0900,4191A,118.527362,31.722269,马鞍山市,慈湖高新区,细颗粒物(PM2.5),70,,31,51,34,25,,46,44,40,26,4,3,0.4,0.5
2026-01-27T0900,1686A,111.0285,21.469,茂名市,电白南海,,,63,45,35,21,,,,,21,18,28,13,1.2,1.1
2026-01-27T0900,1687A,110.9294,21.6533,茂名市,茂石化七小,颗粒物(PM10),62,73,48,37,25,42,,53,50,26,18,10,13,0.8,0.6
2026-01-27T0900,1688A,110.9108,21.6688,茂名市,健康路,细颗粒物(PM2.5),69,75,41,50,23,53,,55,52,20,19,34,19,1.1,0.7
2026-01-27T0900,1689A,110.8592,21.6826,茂名市,高岭,颗粒物(PM10),78,105,60,48,21,25,,34,32,24,17,37,14,/,/
2026-01-27T0900,3450A,111.0101,21.5165,茂名市,电白水东,颗粒物(PM10),59,68,36,41,20,43,,53,50,23,14,21,14,/,/
2026-01-27T0900,2540A,103.8414,30.0871,眉山市,气象局,细颗粒物(PM2.5),94,122,117,70,60,5,,12,12,31,34,16,14,1.2,1
2026-01-27T0900,3148A,103.829,30.0563,眉山市,区人社局,细颗粒物(PM2.5),92,132,118,68,54,2,,18,18,42,38,8,8,1.2,1
2026-01-27T0900,4148A,103.8836,30.0695,眉山市,眉职院,颗粒物(PM10),78,106,106,53,43,1,,29,27,31,24,2,2,1.1,0.9
2026-01-27T0900,1690A,116.1248,24.3307,梅州市,梅江月梅,,45,38,37,31,22,9,,3,3,33,30,/,/,/,/
2026-01-27T0900,1691A,116.0798,24.2719,梅州市,梅县新城,细颗粒物(PM2.5),53,43,40,37,23,21,,14,14,27,33,8,8,0.7,0.5
2026-01-27T0900,3315A,116.1234,24.2994,梅州市,梅龙,,,,61,,32,,,76,,,40,,8,,0.8
2026-01-27T0900,1878A,104.7775,31.4741,绵阳市,富乐山,颗粒物(PM10),127,203,211,63,68,25,,38,35,18,26,8,9,0.6,0.6
2026-01-27T0900,1880A,104.6698,31.4668,绵阳市,高新区自来水公司,颗粒物(PM10),154,257,252,61,67,2,,1,1,52,49,8,9,1.3,1.1
2026-01-27T0900,3491A,104.6899,31.5324,绵阳市,西科大附属小学,颗粒物(PM10),147,244,258,60,76,3,,2,2,48,53,9,9,1.0,0.7
2026-01-27T0900,3492A,104.5647,31.5343,绵阳市,安州区旅游局,颗粒物(PM10),151,252,257,63,70,15,,12,12,35,38,8,10,0.8,0.8
2026-01-27T0900,4146A,104.7092,31.4972,绵阳市,科技城新区公安局,颗粒物(PM10),159,268,262,66,70,4,,2,2,50,56,6,7,0.9,0.9
2026-01-27T0900,4226A,104.765114,31.453094,绵阳市,绵阳市气象局,颗粒物(PM10),138,225,230,65,66,1,,13,13,43,42,9,10,1.0,0.8
2026-01-27T0900,1784A,129.61,44.561,牡丹江市,环保大楼,,,47,49,28,30,,,47,47,27,21,9,5,0.4,0.4
2026-01-27T0900,1787A,129.6364,44.6075,牡丹江市,机车工厂,颗粒物(PM10),51,52,48,30,36,39,,45,42,28,25,9,10,0.5,0.5
2026-01-27T0900,1788A,129.6386,44.5462,牡丹江市,第一中学,细颗粒物(PM2.5),57,,37,40,34,43,,42,42,25,25,8,7,0.5,0.4
2026-01-27T0900,4287A,129.5992,44.5964,牡丹江市,东晓云街98号,细颗粒物(PM2.5),53,53,49,37,33,32,,40,35,39,26,6,5,0.7,0.6
2026-01-27T0900,2531A,105.0703,29.61,内江市,市监测站,细颗粒物(PM2.5),85,80,71,63,54,14,,27,25,33,27,6,4,0.9,0.8
2026-01-27T0900,2533A,105.0657,29.5807,内江市,内江二中,细颗粒物(PM2.5),83,75,75,61,49,3,,12,10,40,30,5,5,0.9,0.5
2026-01-27T0900,2534A,105.0407,29.5828,内江市,内江日报社,细颗粒物(PM2.5),77,99,67,56,47,12,,17,17,34,41,4,5,0.9,0.9
2026-01-27T0900,4147A,105.0433,29.6105,内江市,玉峰路西段888号,细颗粒物(PM2.5),83,79,68,61,47,8,,18,18,28,34,3,3,0.8,0.8
2026-01-27T0900,2628A,92.0653,31.4846,那曲市,那曲监测站,,33,33,43,22,25,27,,37,37,28,24,8,7,1.2,1.3
2026-01-27T0900,4243A,92.0515,31.4787,那曲市,那曲市委宣传部,,30,30,29,20,15,28,,31,31,21,16,6,5,1.0,0.8
2026-01-27T0900,1291A,115.8887,28.7006,南昌市,省林业公司,细颗粒物(PM2.5),62,,51,44,57,31,,23,23,17,21,4,3,0.6,1
2026-01-27T0900,1292A,115.813,28.7443,南昌市,林科所,,43,34,50,30,49,31,,25,25,17,19,3,3,0.3,0.8
2026-01-27T0900,1294A,115.8518,28.687,南昌市,建工学校,细颗粒物(PM2.5),64,62,60,46,56,24,,22,22,39,40,6,6,0.9,1.2
2026-01-27T0900,1295A,115.8926,28.6425,南昌市,象湖,细颗粒物(PM2.5),58,,50,41,56,25,,20,20,19,21,7,7,0.7,1.1
2026-01-27T0900,3046A,115.9084,28.6062,南昌市,机电学校,细颗粒物(PM2.5),64,53,66,46,58,29,,23,23,20,24,4,4,0.5,0.8
2026-01-27T0900,3690A,115.9718,28.7032,南昌市,外国语学校,细颗粒物(PM2.5),73,,64,53,59,26,,20,20,24,29,11,11,0.6,0.9
2026-01-27T0900,4106A,115.7923,28.6873,南昌市,工业二路,细颗粒物(PM2.5),53,44,62,37,52,36,,31,31,16,19,3,3,0.7,1
2026-01-27T0900,4192A,115.931587,28.686774,南昌市,南京东路235号,细颗粒物(PM2.5),64,,56,46,58,31,,23,23,18,23,5,5,0.5,0.8
2026-01-27T0900,1906A,106.0791,30.8022,南充市,南充市委,细颗粒物(PM2.5),69,82,130,50,61,14,,8,8,25,35,4,4,0.7,0.8
2026-01-27T0900,1907A,106.1038,30.8215,南充市,南充炼油厂,细颗粒物(PM2.5),73,86,132,53,64,11,,23,21,24,20,5,6,0.7,0.7
2026-01-27T0900,4227A,106.108336,30.788436,南充市,梨树横街98号,细颗粒物(PM2.5),67,75,123,48,56,18,,20,20,25,29,5,6,0.9,0.8
2026-01-27T0900,4304A,106.1172,30.843,南充市,清泉寺北路188号,,,63,113,44,49,,,33,31,16,16,6,7,0.6,0.6
2026-01-27T0900,4305A,106.067,30.7616,南充市,同庆路1号,细颗粒物(PM2.5),67,66,119,48,50,11,,12,12,38,40,6,7,0.8,0.8
2026-01-27T0900,1151A,118.8033,32.1085,南京市,迈皋桥,,35,34,15,24,12,25,,43,40,40,31,5,4,0.5,0.4
2026-01-27T0900,1152A,118.7487,32.057,南京市,草场门,细颗粒物(PM2.5),58,46,17,41,14,22,,36,35,40,27,2,2,0.9,0.6
2026-01-27T0900,1154A,118.770105,32.004342,南京市,中华门,细颗粒物(PM2.5),53,44,19,37,19,41,,51,49,22,18,4,4,0.4,0.6
2026-01-27T0900,1155A,118.8059,32.0329,南京市,瑞金路,,49,34,15,34,18,24,,40,38,20,15,4,4,1.1,0.9
2026-01-27T0900,1156A,118.7946,32.0774,南京市,玄武湖,,42,40,21,29,12,26,,43,42,20,20,4,4,0.8,0.8
2026-01-27T0900,1157A,118.6415,32.0964,南京市,浦口,,44,44,24,28,17,34,,38,37,19,20,7,7,0.4,0.4
2026-01-27T0900,1158A,118.730129,32.000956,南京市,奥体中心,细颗粒物(PM2.5),55,43,20,39,18,38,,56,54,31,21,10,10,0.6,0.5
2026-01-27T0900,1159A,118.9072,32.1047,南京市,仙林大学城,,48,36,21,33,15,22,,39,37,34,25,4,5,0.5,0.5
2026-01-27T0900,3422A,118.8443,31.919,南京市,江宁彩虹桥,,44,44,24,29,17,34,,54,52,49,26,4,3,0.7,0.6
2026-01-27T0900,3427A,118.8497,32.3599,南京市,六合雄州,颗粒物(PM10),56,61,21,3,9,32,,38,36,26,18,8,8,0.7,0.5
2026-01-27T0900,4086A,118.7641,32.0841,南京市,新模范马路66号,细颗粒物(PM2.5),65,53,18,47,14,34,,65,61,16,5,4,4,0.5,0.3
2026-01-27T0900,4249A,118.8707617,31.34017673,南京市,汶溪路181号,细颗粒物(PM2.5),57,,29,40,26,46,,52,52,24,24,4,5,0.9,0.9
2026-01-27T0900,4312A,119.019,31.6512,南京市,中山西路1号,细颗粒物(PM2.5),60,,18,43,21,42,,48,47,22,20,4,4,0.8,0.8
2026-01-27T0900,1401A,108.3098,22.788,南宁市,二十一中,,22,,41,15,34,16,,13,13,23,29,4,4,0.9,0.9
2026-01-27T0900,1402A,108.3135,22.8529,南宁市,北湖,,28,,50,19,36,2,,0,0,30,34,8,8,1.0,1.1
2026-01-27T0900,1403A,108.3205,22.8222,南宁市,市监测站,,26,,44,18,36,9,,4,4,29,36,8,8,1.1,1.1
2026-01-27T0900,1404A,108.3828,22.8038,南宁市,大自然花园,,26,20,41,18,34,18,,23,22,12,13,6,6,0.9,0.9
2026-01-27T0900,1406A,108.2397,22.8462,南宁市,区农职院,,19,19,41,11,24,12,,11,11,18,25,8,8,0.8,0.8
2026-01-27T0900,1407A,108.3285,22.7356,南宁市,英华嘉园,,16,16,43,8,28,21,,21,20,17,21,3,3,0.6,0.7
2026-01-27T0900,3401A,108.4829,22.762,南宁市,红星社区,,10,10,35,7,26,23,,31,29,18,16,6,5,0.9,0.9
2026-01-27T0900,4132A,108.2927,23.1477,南宁市,起凤路9号,,20,18,23,14,21,16,,21,20,14,13,2,3,0.9,0.9
2026-01-27T0900,4221A,108.2177,22.7774,南宁市,乐贤路16号,,35,35,47,10,29,3,,6,6,27,29,12,4,0.9,1
2026-01-27T0900,2332A,118.1682,26.6371,南平市,南平市监测站,细颗粒物(PM2.5),73,58,35,53,29,10,,12,12,32,23,4,4,1.1,0.7
2026-01-27T0900,2334A,118.1757,26.6276,南平市,南平七中,细颗粒物(PM2.5),74,,33,54,30,26,,24,24,26,20,2,3,0.8,0.5
2026-01-27T0900,1168A,120.9056,31.9669,南通市,狼山街道,细颗粒物(PM2.5),80,84,17,59,14,40,,64,61,27,15,3,2,0.6,0.4
2026-01-27T0900,1170A,120.8635,32.0231,南通市,城中,细颗粒物(PM2.5),78,82,20,57,15,40,,64,61,26,16,4,3,0.8,0.5
2026-01-27T0900,1171A,120.9376,31.9301,南通市,星湖花园,细颗粒物(PM2.5),75,75,18,55,15,46,,71,67,27,18,4,3,0.6,0.4
2026-01-27T0900,1172A,120.8053,32.046,南通市,紫琅学院,细颗粒物(PM2.5),74,79,18,54,13,40,,64,61,24,14,4,3,0.7,0.4
2026-01-27T0900,3291A,121.0631,32.0644,南通市,通州监测站,细颗粒物(PM2.5),79,66,12,58,13,47,,69,65,25,17,3,2,0.6,0.3
2026-01-27T0900,3432A,120.9348,31.9874,南通市,环境教育馆,细颗粒物(PM2.5),88,78,19,65,18,40,,66,62,22,13,5,4,0.7,0.4
2026-01-27T0900,4091A,120.8692,31.9885,南通市,洪江路,细颗粒物(PM2.5),84,70,17,62,13,37,,64,60,27,13,3,3,0.5,0.5
2026-01-27T0900,2404A,112.5338,33.0086,南阳市,瓦房庄,细颗粒物(PM2.5),140,158,154,107,125,10,,17,13,29,29,6,6,1.4,1.2
2026-01-27T0900,2405A,112.5002,32.9734,南阳市,汉画馆,细颗粒物(PM2.5),122,141,155,92,123,5,,8,7,32,32,6,6,1.2,1.2
2026-01-27T0900,2406A,112.5778,33.0144,南阳市,气象站,细颗粒物(PM2.5),147,191,182,112,120,17,,30,27,28,25,4,5,1.2,1.1
2026-01-27T0900,2407A,112.548,32.9687,南阳市,理工学院,细颗粒物(PM2.5),117,152,155,88,104,8,,16,13,31,29,5,5,1.5,1.2
2026-01-27T0900,4008A,112.5233,32.9921,南阳市,卧龙区政府,细颗粒物(PM2.5),125,164,175,95,122,7,,17,15,34,34,5,5,1.5,1.2
2026-01-27T0900,1234A,121.8352,29.9111,宁波市,区环保大楼,,34,34,27,19,20,54,,57,56,30,32,5,5,0.3,0.3
2026-01-27T0900,1235A,121.5595,29.8208,宁波市,万里学院,,21,19,29,14,18,66,,65,65,17,24,3,3,0.6,0.6
2026-01-27T0900,1236A,121.713,29.9564,宁波市,龙赛医院,,33,33,22,18,11,69,,69,69,20,24,2,3,0.4,0.4
2026-01-27T0900,1240A,121.5855,29.8635,宁波市,太古小学,,29,27,31,20,24,69,,69,69,18,23,2,3,0.7,0.6
2026-01-27T0900,1241A,121.5239,29.8673,宁波市,市环境监测中心,,22,17,32,11,21,70,,65,65,13,23,5,6,0.6,0.7
2026-01-27T0900,2871A,121.6156,29.9015,宁波市,万里国际学校,,,22,33,14,20,,,68,68,19,26,,3,,0.7
2026-01-27T0900,3710A,121.5593,29.8976,宁波市,白沙活动中心,,26,,29,18,21,65,,65,65,18,25,3,3,0.2,0.2
2026-01-27T0900,4095A,121.8962,29.7529,宁波市,中科路88号,,28,25,19,19,11,68,,69,69,23,22,4,4,0.4,0.3
2026-01-27T0900,2341A,119.5387,26.6611,宁德市,宁德市监测站,,36,28,21,25,19,23,,65,61,22,21,3,4,0.7,0.7
2026-01-27T0900,3209A,119.5231,26.6562,宁德市,宁德一中,,32,28,22,22,20,28,,68,64,21,19,3,3,0.6,0.6
2026-01-27T0900,2618A,98.859,25.8541,怒江傈僳族自治州,州监测站,,28,23,35,19,23,46,,44,44,7,12,6,5,0.4,0.5
2026-01-27T0900,2619A,98.8607,25.8168,怒江傈僳族自治州,泸水一中,,22,18,34,15,26,21,,28,28,19,21,4,4,0.6,0.7
2026-01-27T0900,1888A,101.6891,26.571,攀枝花市,弄弄坪,颗粒物(PM10),63,76,85,37,56,12,,4,4,45,45,15,44,1.4,2.3
2026-01-27T0900,1889A,101.577,26.5914,攀枝花市,河门口,颗粒物(PM10),59,68,66,37,42,7,,18,15,42,27,19,22,1.4,1.3
2026-01-27T0900,1891A,101.7365,26.4986,攀枝花市,仁和,细颗粒物(PM2.5),60,60,41,43,34,14,,25,25,34,30,9,11,0.9,1
2026-01-27T0900,2835A,101.7222,26.567,攀枝花市,四十中小,细颗粒物(PM2.5),77,97,72,56,46,7,,15,12,59,47,22,23,2.6,1.7
2026-01-27T0900,1604A,122.0303,41.1489,盘锦市,开发区,,,,69,,51,,,53,51,,32,,10,,1.2
2026-01-27T0900,1605A,122.0486,41.0883,盘锦市,兴隆台,,17,16,67,8,49,54,,43,42,20,38,5,11,0.4,1
2026-01-27T0900,1606A,121.8297,41.1026,盘锦市,新生街道,,19,,48,8,30,58,,55,53,16,35,5,11,0.3,0.8
2026-01-27T0900,1832A,113.3257,33.7423,平顶山市,新华旅馆,细颗粒物(PM2.5),209,207,201,159,139,5,,13,8,61,41,7,7,1.4,1.2
2026-01-27T0900,1833A,113.2917,33.737,平顶山市,规划设计院,细颗粒物(PM2.5),206,253,229,156,145,6,,8,4,48,36,7,7,1.6,1.1
2026-01-27T0900,1834A,113.182,33.7738,平顶山市,平顶山工学院,细颗粒物(PM2.5),208,208,212,158,149,11,,12,10,37,31,7,8,1.2,1.1
2026-01-27T0900,3594A,112.8736,33.9068,平顶山市,石龙区,细颗粒物(PM2.5),132,201,219,100,109,18,,20,20,23,30,5,6,1.0,1
2026-01-27T0900,4116A,113.284,33.7139,平顶山市,姚电大道23号,细颗粒物(PM2.5),242,272,236,192,157,11,,4,3,51,39,7,8,1.4,1
2026-01-27T0900,2656A,106.6633,35.5338,平凉市,聚贤嘉苑,颗粒物(PM10),133,216,232,50,53,19,,28,27,34,26,21,19,0.9,0.6
2026-01-27T0900,2657A,106.7021,35.5307,平凉市,博物馆,颗粒物(PM10),129,208,230,53,55,22,,31,31,34,28,10,12,1.0,1
2026-01-27T0900,2348A,113.8384,27.6436,萍乡市,中医院,细颗粒物(PM2.5),147,166,126,112,92,13,,14,14,27,29,3,3,1.1,1.1
2026-01-27T0900,2350A,113.8677,27.6438,萍乡市,市环保局,,,,88,,75,,,22,16,,25,,14,,1.2
2026-01-27T0900,2351A,113.8663,27.6202,萍乡市,安源区政府,细颗粒物(PM2.5),186,173,122,140,103,9,,12,11,28,28,7,7,1.3,1.3
2026-01-27T0900,4107A,113.8686,27.6668,萍乡市,联洪村委会,细颗粒物(PM2.5),176,153,121,133,95,15,,15,14,25,29,1,2,1.1,1.1
2026-01-27T0900,2319A,119.0142,25.4324,莆田市,荔城区仓后路,,12,10,48,3,32,38,,59,57,19,26,/,/,/,/
2026-01-27T0900,2320A,119.0016,25.4553,莆田市,莆田市监测站,,15,9,42,3,34,46,,54,54,17,22,3,4,0.7,0.8
2026-01-27T0900,2321A,119.112,25.4561,莆田市,涵江区六中,,18,18,38,3,25,38,,57,55,18,25,/,/,0.6,0.6
2026-01-27T0900,2322A,119.1014,25.3215,莆田市,秀屿区政府,,18,18,30,3,25,38,,69,67,19,15,2,3,0.8,0.6
2026-01-27T0900,2392A,115.0312,35.7636,濮阳市,环保局,细颗粒物(PM2.5),188,188,148,141,130,22,,10,10,72,75,7,7,1.3,1.1
2026-01-27T0900,3021A,115,35.7667,濮阳市,濮水河管理处,细颗粒物(PM2.5),213,243,183,163,132,6,,7,7,60,54,5,7,1.9,1.4
2026-01-27T0900,4118A,115.0552,35.7816,濮阳市,中原东路68号,细颗粒物(PM2.5),198,226,179,148,137,14,,3,3,54,53,6,7,1.5,1.3
2026-01-27T0900,4216A,115.0923632,35.76857718,濮阳市,任丘路479号,细颗粒物(PM2.5),204,197,178,154,139,31,,8,8,46,53,9,7,1.3,1.4
2026-01-27T0900,2601A,100.9801,22.7634,普洱市,市环保局,颗粒物(PM10),52,53,56,10,20,19,,34,31,19,10,5,5,0.4,0.4
2026-01-27T0900,2602A,100.9763,22.8237,普洱市,普洱第二中学,颗粒物(PM10),52,54,46,28,21,7,,9,9,32,25,5,5,0.5,0.3
2026-01-27T0900,3345A,131.0413,45.7795,七台河市,中波台,细颗粒物(PM2.5),67,55,35,48,24,47,,57,56,27,14,9,9,0.6,0.5
2026-01-27T0900,3637A,131.0136,45.7688,七台河市,人民广场,,,45,45,32,26,,,49,49,34,24,10,12,0.7,0.6
2026-01-27T0900,3684A,130.8639,45.8144,七台河市,新建矿广场,,48,48,38,33,29,39,,44,42,23,15,14,7,0.3,0.4
2026-01-27T0900,1779A,123.9307,47.3641,齐齐哈尔市,安居小区,,41,41,40,17,24,53,,53,53,19,19,11,11,0.4,0.6
2026-01-27T0900,1780A,123.9497,47.3389,齐齐哈尔市,中心广场,,32,,40,22,25,53,,56,56,18,21,6,8,0.6,0.6
2026-01-27T0900,1781A,123.9483,47.3229,齐齐哈尔市,农牧车辆厂,,24,24,44,6,25,57,,57,57,14,19,4,7,0.3,0.4
2026-01-27T0900,1783A,123.9442,47.2994,齐齐哈尔市,市环境监测站,,19,13,45,6,22,59,,60,60,13,21,4,7,0.6,0.6
2026-01-27T0900,3662A,123.6341,47.2079,齐齐哈尔市,富区青少年活动中心,,33,33,43,11,24,60,,63,63,14,13,5,5,0.4,0.5
2026-01-27T0900,2591A,107.9765,26.5724,黔东南苗族侗族自治州,市环境监测站,,43,32,25,30,22,29,,32,31,10,10,6,5,0.8,0.8
2026-01-27T0900,2881A,107.8909,26.531,黔东南苗族侗族自治州,凯里学院,,38,,22,26,19,35,,34,34,11,14,3,3,0.8,0.8
2026-01-27T0900,2593A,107.5223,26.2371,黔南布依族苗族自治州,小围寨,,17,17,15,9,11,23,,27,26,7,8,6,7,1.0,1
2026-01-27T0900,3538A,107.5175,26.2977,黔南布依族苗族自治州,沙坝,,32,29,22,22,15,28,,32,31,9,9,4,6,0.9,0.9
2026-01-27T0900,2589A,104.9022,25.0943,黔西南布依族苗族自治州,场坝街,颗粒物(PM10),51,51,45,29,31,26,,32,30,14,14,4,4,0.8,0.9
2026-01-27T0900,2590A,104.8812,25.0994,黔西南布依族苗族自治州,坪东大道,,48,37,43,33,32,26,,31,31,14,13,5,6,1.0,1.1
2026-01-27T0900,2502A,108.6238,21.9667,钦州市,市环保站,颗粒物(PM10),51,51,50,22,26,16,,24,22,24,22,4,4,1.5,1
2026-01-27T0900,2503A,108.655,21.9481,钦州市,沙埠小学,,25,25,44,13,21,18,,28,26,22,19,4,5,0.6,0.4
2026-01-27T0900,2504A,108.5989,21.7435,钦州市,港区一小,,39,39,53,27,24,11,,17,17,26,26,5,4,0.9,0.6
2026-01-27T0900,3404A,108.5959,21.9634,钦州市,北职校,,27,27,39,16,24,20,,24,23,16,18,3,3,0.9,0.7
2026-01-27T0900,1046A,119.5247,39.9346,秦皇岛市,建设大厦,颗粒物(PM10),74,98,83,46,44,12,,14,14,49,35,16,11,1.2,0.9
2026-01-27T0900,3132A,119.5979,39.938,秦皇岛市,文明里,颗粒物(PM10),77,103,82,42,43,20,,22,22,49,40,25,15,0.8,0.8
2026-01-27T0900,4066A,119.7458,39.9952,秦皇岛市,南园路157号,颗粒物(PM10),63,75,69,35,46,23,,7,7,49,46,21,13,0.8,0.9
2026-01-27T0900,4067A,119.5131,39.8858,秦皇岛市,翠岛大街1号,细颗粒物(PM2.5),82,93,78,60,42,24,,17,17,53,47,20,12,0.9,0.8
2026-01-27T0900,4198A,119.509013,39.825305,秦皇岛市,北戴河轮滑馆,细颗粒物(PM2.5),78,88,81,57,40,24,,11,11,43,40,11,8,0.9,0.8
2026-01-27T0900,1310A,120.404,36.0625,青岛市,市南区东部子站,细颗粒物(PM2.5),117,144,89,88,52,16,,35,32,60,39,30,13,1.1,0.7
2026-01-27T0900,1311A,120.362344,36.10282,青岛市,四方区子站,细颗粒物(PM2.5),132,127,84,100,64,19,,24,21,55,43,14,12,1.4,1.1
2026-01-27T0900,1312A,120.294373,36.054183,青岛市,市南区西部子站,细颗粒物(PM2.5),123,158,99,93,55,,,34,32,60,45,16,6,1.2,0.9
2026-01-27T0900,1313A,120.4581,36.0858,青岛市,崂山区子站,细颗粒物(PM2.5),110,136,81,83,47,22,,45,40,56,35,22,14,1.1,0.7
2026-01-27T0900,1315A,120.3945,36.3083,青岛市,城阳区子站,细颗粒物(PM2.5),108,146,112,81,60,13,,19,16,68,54,17,13,1.5,1.1
2026-01-27T0900,3642A,120.3454,36.0735,青岛市,市北区南部,细颗粒物(PM2.5),119,122,86,90,54,14,,24,22,57,47,12,6,1.3,1
2026-01-27T0900,3643A,120.3897,36.18,青岛市,李沧区北部,细颗粒物(PM2.5),122,136,93,92,68,14,,23,20,57,48,18,13,1.2,0.9
2026-01-27T0900,4110A,120.5222,36.4089,青岛市,盟旺路653号,细颗粒物(PM2.5),144,156,102,110,62,14,,35,32,67,46,8,8,1.8,1.2
2026-01-27T0900,4290A,120.196923,35.954556,青岛市,珠江路669号,细颗粒物(PM2.5),129,134,92,98,62,22,,18,15,59,54,14,7,1.4,1
2026-01-27T0900,4291A,120.0424,35.8656,青岛市,黄岛区人民政府广场,细颗粒物(PM2.5),119,149,99,90,61,25,,31,30,54,43,22,12,1.4,1.1
2026-01-27T0900,1703A,113.0218,23.7086,清远市,凤城街办,,36,36,60,25,42,48,,50,50,18,40,/,/,/,/
2026-01-27T0900,3025A,113.0479,23.6343,清远市,技师学院,,45,45,70,28,39,28,,31,31,34,54,4,6,1.4,1.3
2026-01-27T0900,3318A,112.9898,23.7403,清远市,清新太和,,40,40,60,26,41,39,,46,46,34,34,9,10,0.8,0.7
2026-01-27T0900,3455A,113.076,23.72,清远市,清城东城,,38,38,56,26,36,42,,55,54,20,28,/,/,/,/
2026-01-27T0900,2661A,107.6325,35.7357,庆阳市,庆阳五中,颗粒物(PM10),145,240,261,82,79,44,,53,50,33,22,6,7,0.9,0.7
2026-01-27T0900,2662A,107.6361,35.7067,庆阳市,市环保局,颗粒物(PM10),141,231,249,79,67,55,,62,59,24,15,8,7,0.9,0.6
2026-01-27T0900,1916A,103.7897,25.5036,曲靖市,环境监测站,,36,36,44,23,25,36,,44,42,17,14,3,3,0.9,0.8
2026-01-27T0900,1917A,103.8013,25.5357,曲靖市,烟厂办公区,,37,37,45,22,26,7,,40,34,48,16,4,5,0.7,0.5
2026-01-27T0900,3376A,103.7926,25.4651,曲靖市,南苑二区,,30,30,43,18,29,38,,45,43,9,8,4,5,0.4,0.5
2026-01-27T0900,3377A,103.7442,25.5259,曲靖市,曲靖师范学院,细颗粒物(PM2.5),59,61,47,42,37,15,,26,22,32,22,5,6,0.8,0.6
2026-01-27T0900,1264A,118.8694,28.94,衢州市,环保大楼,,22,,76,15,60,16,,14,14,22,36,/,/,/,/
2026-01-27T0900,1266A,118.8622,28.9809,衢州市,衢州学院,,16,13,67,11,50,19,,11,11,17,34,3,5,0.8,0.9
2026-01-27T0900,4097A,118.9646,28.9832,衢州市,衢州三中,,22,16,73,15,54,13,,12,12,22,35,5,7,0.7,0.9
2026-01-27T0900,1611A,118.5818,24.9116,泉州市,涂山街,,29,28,42,20,34,57,,45,45,15,27,3,4,0.6,0.6
2026-01-27T0900,1612A,118.597,24.8976,泉州市,津头埔,,33,30,39,23,34,55,,49,49,15,25,4,5,0.6,0.6
2026-01-27T0900,1613A,118.6669,24.9422,泉州市,万安,,35,29,35,24,32,50,,50,50,17,22,3,3,0.8,0.8
2026-01-27T0900,4105A,118.6355,24.9148,泉州市,霞新路6号,,33,26,36,23,32,51,,46,46,19,26,/,/,0.7,0.7
2026-01-27T0900,2626A,88.8873,29.2723,日喀则市,日喀则监测站,,22,22,25,9,12,15,,36,31,22,14,6,8,0.5,0.5
2026-01-27T0900,3726A,88.8775,29.2425,日喀则市,林业技术推广中心,,22,22,17,12,7,30,,43,39,10,8,8,8,0.6,0.4
2026-01-27T0900,1659A,119.4711,35.421,日照市,监测站,细颗粒物(PM2.5),122,153,89,92,56,6,,16,12,62,43,22,12,2.0,1
2026-01-27T0900,1660A,119.523,35.4216,日照市,市政府广场,细颗粒物(PM2.5),112,129,88,84,58,36,,40,39,41,37,17,12,0.9,0.6
2026-01-27T0900,1661A,119.5511,35.4113,日照市,港务局,细颗粒物(PM2.5),112,129,90,84,62,43,,37,37,32,38,16,11,0.9,0.8
2026-01-27T0900,3507A,119.5326,35.4627,日照市,职业技术学院,细颗粒物(PM2.5),94,127,87,70,49,45,,35,35,36,42,16,10,1.1,1
2026-01-27T0900,3604A,119.3267,35.1043,日照市,岚山环保分局,细颗粒物(PM2.5),100,136,89,75,57,22,,24,23,51,49,17,19,1.2,1.5
2026-01-27T0900,1835A,111.1922,34.7752,三门峡市,市政府,颗粒物(PM10),99,147,167,64,86,15,,14,12,35,39,11,10,1.1,1
2026-01-27T0900,1836A,111.1588,34.794,三门峡市,开发区,颗粒物(PM10),119,187,190,69,93,13,,18,17,25,27,6,5,0.7,0.8
2026-01-27T0900,3039A,111.1911,34.7829,三门峡市,三门峡市第一小学,颗粒物(PM10),104,158,188,61,82,18,,23,22,23,34,6,7,0.6,0.8
2026-01-27T0900,3598A,111.1031,34.719,三门峡市,富达温泉假日酒店,颗粒物(PM10),132,213,216,94,104,10,,9,9,40,35,6,8,1.2,1.1
2026-01-27T0900,2324A,117.621,26.2626,三明市,三钢,,,,41,,35,,,89,,,27,,8,,1.2
2026-01-27T0900,2325A,117.6352,26.2714,三明市,三明二中,细颗粒物(PM2.5),57,45,41,40,34,42,,41,41,24,28,5,5,1.1,1.2
2026-01-27T0900,2326A,117.6028,26.2377,三明市,三元区政府,细颗粒物(PM2.5),54,40,40,38,31,33,,40,40,29,26,4,7,1.1,1
2026-01-27T0900,1877A,109.4962,18.2682,三亚市,河西子站,,36,36,28,17,11,23,,36,31,27,14,1,1,0.7,0.5
2026-01-27T0900,3540A,109.7348,18.3443,三亚市,君悦子站,,24,24,30,11,10,25,,38,34,22,14,4,4,0.5,0.4
2026-01-27T0900,4135A,109.1714,18.3739,三亚市,城东小学站,,22,20,23,15,11,22,,27,26,13,10,/,/,/,/
2026-01-27T0900,2624A,91.7592,29.234,山南市,山南监测站,,12,12,23,8,10,37,,48,45,9,8,3,4,0.5,0.5
2026-01-27T0900,2625A,91.7701,29.2436,山南市,山南人民医院,,16,15,26,8,11,49,,64,61,9,6,7,6,0.5,0.5
2026-01-27T0900,1674A,116.6795,23.3666,汕头市,金平子站,细颗粒物(PM2.5),98,89,36,73,34,9,,2,2,55,35,9,5,1.9,1
2026-01-27T0900,1675A,116.7248,23.3632,汕头市,龙湖子站,细颗粒物(PM2.5),83,79,42,61,32,10,,5,5,67,36,16,10,/,/
2026-01-27T0900,1676A,116.7257,23.2774,汕头市,濠江子站,细颗粒物(PM2.5),90,86,43,67,35,13,,10,9,60,35,16,8,/,/
2026-01-27T0900,1677A,116.7518,23.4712,汕头市,澄海子站,细颗粒物(PM2.5),103,77,56,77,49,16,,9,9,49,32,23,10,1.1,0.9
2026-01-27T0900,1678A,116.6088,23.2539,汕头市,潮阳子站,细颗粒物(PM2.5),79,73,42,58,32,13,,18,18,45,25,9,7,1.6,0.9
2026-01-27T0900,3444A,116.4539,23.2684,汕头市,潮南峡山,细颗粒物(PM2.5),104,111,56,78,38,12,,6,6,36,24,8,6,1.2,0.9
2026-01-27T0900,3624A,116.4069,23.2533,汕头市,潮南子站,细颗粒物(PM2.5),94,112,61,70,37,11,,8,7,45,28,11,7,/,/
2026-01-27T0900,1693A,115.3653,22.7751,汕尾市,市环保局,,38,38,29,25,23,59,,49,49,18,16,7,7,0.8,0.7
2026-01-27T0900,1695A,115.362,22.7926,汕尾市,新城中学,,25,22,32,17,24,65,,49,49,15,17,5,5,0.6,0.6
2026-01-27T0900,2645A,109.9155,33.8714,商洛市,监测站,颗粒物(PM10),109,168,214,51,58,15,,24,22,32,23,8,5,0.7,0.5
2026-01-27T0900,3045A,109.9647,33.8486,商洛市,商州区中学,颗粒物(PM10),100,149,200,56,61,9,,11,11,37,29,13,6,0.9,0.7
2026-01-27T0900,2408A,115.6701,34.4283,商丘市,环境监测站,细颗粒物(PM2.5),214,,132,164,125,3,,2,2,57,45,6,4,1.5,1.4
2026-01-27T0900,2409A,115.6458,34.4047,商丘市,粮食局,细颗粒物(PM2.5),200,167,136,150,118,6,,4,4,47,46,4,5,2.0,1.1
2026-01-27T0900,3171A,115.6069,34.4465,商丘市,梁园区档案局,细颗粒物(PM2.5),217,,134,167,128,3,,3,3,48,46,2,2,1.9,1.1
2026-01-27T0900,4119A,115.6701,34.3767,商丘市,北海东路185号,细颗粒物(PM2.5),137,137,155,104,115,0,,0,0,49,46,3,3,1.2,1
2026-01-27T0900,4120A,115.6172,34.3704,商丘市,中山大街3号,细颗粒物(PM2.5),170,166,155,129,115,2,,3,3,49,46,8,6,1.2,0.9
2026-01-27T0900,1141A,121.401,31.2382,上海市,普陀,细颗粒物(PM2.5),54,40,25,38,18,57,,65,65,29,32,5,5,0.6,0.6
2026-01-27T0900,1142A,121.4774,31.2043,上海市,十五厂,,45,41,25,31,15,59,,78,76,36,35,8,7,0.9,0.6
2026-01-27T0900,1143A,121.4673,31.3011,上海市,虹口,,50,44,24,35,16,49,,64,62,27,28,7,7,0.6,0.4
2026-01-27T0900,1147A,121.4253,31.226,上海市,静安监测站,,50,,16,35,18,60,,69,68,31,33,7,6,0.4,0.4
2026-01-27T0900,1148A,121.7029,31.1905,上海市,浦东川沙,,49,40,23,34,15,47,,62,60,37,26,8,7,1.0,0.7
2026-01-27T0900,1149A,121.5339,31.229,上海市,浦东新区监测站,,40,34,26,28,21,59,,69,68,16,22,5,5,0.6,0.6
2026-01-27T0900,1150A,121.5776,31.2038,上海市,浦东张江,,38,37,26,26,13,63,,74,73,24,28,6,6,0.5,0.4
2026-01-27T0900,3265A,121.4242,31.3303,上海市,宝山庙行,,46,43,23,32,16,54,,58,57,19,25,8,7,0.5,0.4
2026-01-27T0900,3266A,121.8789,31.4662,上海市,崇明上实东滩,,43,35,16,30,13,64,,81,78,12,6,4,3,0.4,0.3
2026-01-27T0900,3268A,121.316,31.2839,上海市,嘉定南翔,细颗粒物(PM2.5),53,40,24,37,17,48,,63,62,33,30,3,2,0.6,0.5
2026-01-27T0900,3269A,121.3357,30.7455,上海市,金山新城,细颗粒物(PM2.5),60,,28,43,28,55,,58,58,33,32,8,8,0.8,0.5
2026-01-27T0900,3270A,121.4996,31.0741,上海市,闵行浦江,,50,42,25,35,16,61,,73,73,23,22,6,6,0.7,0.6
2026-01-27T0900,3271A,121.2886,31.1663,上海市,青浦徐泾,细颗粒物(PM2.5),52,39,28,36,18,57,,70,69,29,33,5,4,0.4,0.4
2026-01-27T0900,3272A,121.2193,31.0382,上海市,松江图书馆,细颗粒物(PM2.5),53,43,27,37,20,53,,67,66,35,37,6,5,0.7,0.7
2026-01-27T0900,3273A,121.3904,31.206,上海市,长宁仙霞,,46,36,24,32,16,58,,66,66,22,23,6,6,0.1,0
2026-01-27T0900,3274A,121.7964,31.0507,上海市,浦东惠南,,50,39,22,35,15,43,,63,61,48,37,4,4,0.7,0.5
2026-01-27T0900,3544A,121.4891,30.925,上海市,奉贤南桥新城,细颗粒物(PM2.5),92,,23,68,29,50,,70,70,44,26,2,2,0.7,0.5
2026-01-27T0900,4183A,121.417401,31.16637,上海市,冠生园路458号,细颗粒物(PM2.5),52,39,25,36,18,60,,69,68,32,32,4,5,0.9,0.7
2026-01-27T0900,4205A,121.541914,31.268301,上海市,宁武路151号,,42,37,27,29,15,60,,71,69,25,34,5,5,0.5,0.4
2026-01-27T0900,2382A,117.9758,28.4439,上饶市,市监测站,,34,34,60,23,37,22,,24,23,27,31,18,13,/,/
2026-01-27T0900,2383A,117.9521,28.4637,上饶市,凤凰光学,,40,40,57,19,33,4,,10,9,26,28,14,13,1.2,1.1
