timepoint,stationcode,longitude,latitude,area,positionname,primarypollutant,aqi,pm10,pm10_24h,pm2_5,pm2_5_24h,o3,o3_24h,o3_8h,o3_8h_24h,no2,no2_24h,so2,so2_24h,co,co_24h
2024-11-09T0000,2566A,102.1879,31.914,阿坝藏族羌族自治州,州农科所,,28,28,23,7,8,31,,51,38,10,11,8,9,0.0,0
2024-11-09T0000,2568A,102.2502,31.8896,阿坝藏族羌族自治州,马师校,,22,16,15,15,13,21,,44,22,12,16,4,4,0.3,0.4
2024-11-09T0000,3994A,102.2165,31.9024,阿坝藏族羌族自治州,马尔康中学西区,,23,19,16,16,15,20,,59,32,19,15,5,5,0.4,0.4
2024-11-09T0000,2695A,80.292,41.1694,阿克苏地区,电视台,颗粒物(PM10),69,88,90,36,32,81,,94,91,20,30,4,5,0.5,0.6
2024-11-09T0000,2696A,80.2613,41.1551,阿克苏地区,艺术中心,颗粒物(PM10),62,74,89,31,27,88,,98,96,13,26,4,4,0.7,0.8
2024-11-09T0000,2204A,105.6467,38.8363,阿拉善盟,西城区西花园,细颗粒物(PM2.5),65,72,55,47,38,55,,94,80,28,20,11,11,0.9,0.9
2024-11-09T0000,2205A,105.6985,38.8411,阿拉善盟,蒙二幼,,42,40,50,29,27,58,,81,62,32,24,8,9,0.8,0.7
2024-11-09T0000,2206A,105.724,38.8516,阿拉善盟,环保局新楼,,39,39,35,22,18,97,,92,80,13,15,10,9,0.6,0.6
2024-11-09T0000,2708A,88.1264,47.8517,阿勒泰地区,市站,,27,27,16,3,6,44,,47,47,10,13,8,8,0.1,0.3
2024-11-09T0000,2630A,80.1161,32.5,阿里地区,阿里监测站,,25,20,13,12,5,53,,113,100,50,11,12,7,1.0,0.6
2024-11-09T0000,3192A,80.0903,32.5028,阿里地区,阿里藏医院,,36,10,16,6,8,114,,122,114,2,13,5,7,0.4,0.6
2024-11-09T0000,2642A,109.0318,32.6537,安康市,香溪洞,细颗粒物(PM2.5),62,57,63,44,38,53,,70,64,20,22,10,10,0.5,0.5
2024-11-09T0000,2644A,109.0072,32.6975,安康市,汉滨区检察院,颗粒物(PM10),62,73,84,42,48,16,,53,36,39,33,6,7,0.6,0.6
2024-11-09T0000,4054A,109.0325,32.6913,安康市,市邮政管理局,颗粒物(PM10),68,86,84,47,47,11,,54,32,45,34,7,10,0.8,0.8
2024-11-09T0000,2291A,117.0809,30.5177,安庆市,环科院,细颗粒物(PM2.5),52,48,50,36,32,80,,110,97,22,25,12,11,0.6,0.6
2024-11-09T0000,2292A,117.0331,30.5119,安庆市,马山宾馆,,46,44,47,32,30,86,,117,101,26,29,10,10,0.5,0.5
2024-11-09T0000,2294A,116.9896,30.6145,安庆市,安庆大学,细颗粒物(PM2.5),55,54,54,39,34,78,,110,96,18,18,8,9,0.6,0.5
2024-11-09T0000,3173A,117.0598,30.5351,安庆市,市人大,,49,46,51,34,31,80,,108,91,24,30,14,13,0.4,0.4
2024-11-09T0000,3122A,105.9606,26.2611,安顺市,伍家关,细颗粒物(PM2.5),65,53,54,47,43,45,,99,63,20,16,8,15,0.9,0.8
2024-11-09T0000,3123A,105.9408,26.2431,安顺市,凤凰山,细颗粒物(PM2.5),64,54,54,46,41,76,,109,87,18,16,10,15,0.6,0.6
2024-11-09T0000,3124A,105.9439,26.2564,安顺市,金钟山,细颗粒物(PM2.5),63,52,56,45,45,73,,112,85,12,13,10,18,0.7,0.7
2024-11-09T0000,3125A,105.8983,26.2481,安顺市,娄家坡,细颗粒物(PM2.5),63,54,55,45,45,73,,111,89,12,14,8,18,0.5,0.5
2024-11-09T0000,1818A,114.4839,36.0621,安阳市,棉研所,细颗粒物(PM2.5),82,103,77,60,56,38,,100,68,46,36,7,8,0.3,0.3
2024-11-09T0000,1819A,114.3551,36.1017,安阳市,红庙街,细颗粒物(PM2.5),72,68,64,52,46,64,,95,77,26,25,3,3,0.5,0.4
2024-11-09T0000,1820A,114.361,36.0681,安阳市,银杏小区,细颗粒物(PM2.5),69,80,70,50,45,64,,99,81,27,27,4,3,0.4,0.5
2024-11-09T0000,3141A,114.3922,36.0878,安阳市,信访局,细颗粒物(PM2.5),69,72,71,50,47,63,,98,78,23,23,3,3,0.5,0.5
2024-11-09T0000,3669A,114.4705,36.0637,安阳市,左辅环卫站,细颗粒物(PM2.5),87,103,89,64,49,47,,97,66,33,26,2,3,0.6,0.6
2024-11-09T0000,3703A,114.2917,36.0949,安阳市,安钢职工学校,细颗粒物(PM2.5),79,88,73,58,51,45,,92,67,41,33,3,4,0.5,0.4
2024-11-09T0000,1748A,123.044,41.1196,鞍山市,深沟寺,,50,50,53,30,31,89,,97,73,9,14,4,5,0.7,0.8
2024-11-09T0000,1749A,123.011,41.0931,鞍山市,太阳城,,44,44,48,30,32,98,,101,82,12,18,4,6,0.4,0.5
2024-11-09T0000,1750A,123.0485,41.1442,鞍山市,太平,,49,49,51,32,32,82,,91,70,16,23,9,11,0.5,0.6
2024-11-09T0000,1751A,122.9642,41.0971,鞍山市,铁西三道街,颗粒物(PM10),54,57,67,31,37,62,,89,46,42,44,114,88,0.5,0.6
2024-11-09T0000,1752A,122.9341,41.0833,鞍山市,铁西工业园区,颗粒物(PM10),54,58,78,32,44,63,,96,55,35,33,10,11,1.5,1.4
2024-11-09T0000,1753A,123.022,41.0821,鞍山市,明达新区,,40,40,47,26,31,99,,100,86,9,12,7,8,0.5,0.6
2024-11-09T0000,1754A,123.1289,41.0228,鞍山市,千山,,,,39,,29,,,95,40,,8,,4,,0.4
2024-11-09T0000,2195A,107.4212,40.761,巴彦淖尔市,附二中,颗粒物(PM10),68,86,109,45,58,58,,80,64,18,30,37,21,0.7,0.8
2024-11-09T0000,2196A,107.37,40.7372,巴彦淖尔市,市环保大楼,,,63,91,49,48,69,,81,70,18,28,4,5,,0.5
2024-11-09T0000,1956A,86.1472,41.7538,巴音郭楞蒙古自治州,孔雀公园,颗粒物(PM10),58,66,94,22,31,26,,85,40,62,35,4,5,0.5,0.5
2024-11-09T0000,1957A,86.1972,41.7166,巴音郭楞蒙古自治州,棉纺厂,颗粒物(PM10),68,86,102,25,31,53,,78,55,29,31,1,4,0.4,0.5
2024-11-09T0000,1958A,86.2357,41.7173,巴音郭楞蒙古自治州,经济开发区,颗粒物(PM10),53,56,78,21,31,82,,88,63,7,18,1,3,0.4,0.5
2024-11-09T0000,2914A,106.7677,31.8794,巴中市,苏山坪,细颗粒物(PM2.5),53,49,49,37,36,69,,64,64,8,12,6,5,0.4,0.5
2024-11-09T0000,3182A,106.7656,31.8545,巴中市,丽阳花园,细颗粒物(PM2.5),65,61,59,47,54,3,,7,5,35,34,4,4,0.8,0.8
2024-11-09T0000,3183A,106.7418,31.8654,巴中市,圣泉水务公司,细颗粒物(PM2.5),58,50,46,41,35,3,,15,11,34,29,4,4,0.7,0.6
2024-11-09T0000,3616A,106.7616,31.8344,巴中市,市中心医院,细颗粒物(PM2.5),72,72,68,52,47,2,,5,3,32,30,4,4,0.9,1
2024-11-09T0000,2235A,122.7911,45.6077,白城市,洮北区环保局,细颗粒物(PM2.5),247,,141,197,133,12,,66,20,61,44,8,8,1.0,0.6
2024-11-09T0000,2236A,122.8738,45.5725,白城市,市环保局,细颗粒物(PM2.5),193,173,130,145,113,13,,64,33,63,38,3,4,1.0,0.7
2024-11-09T0000,2231A,126.4219,41.9171,白山市,喜丰,颗粒物(PM10),73,95,88,36,30,7,,35,12,45,45,24,31,0.7,0.7
2024-11-09T0000,2232A,126.4077,41.9419,白山市,环保局,颗粒物(PM10),63,75,76,30,30,23,,29,15,21,41,6,13,0.7,0.8
2024-11-09T0000,2647A,104.1724,36.5446,白银市,第三小学,颗粒物(PM10),55,60,66,18,43,39,,62,35,18,37,33,37,1.0,1.3
2024-11-09T0000,2648A,104.1465,36.5482,白银市,动力公司,"颗粒物(PM10),细颗粒物(PM2.5)",52,53,61,36,39,12,,75,32,40,30,6,19,1.4,1.2
2024-11-09T0000,2512A,106.6103,23.9011,百色市,市监测站,,37,37,44,25,30,32,,106,62,20,17,5,5,0.6,0.7
2024-11-09T0000,2513A,106.6538,23.8859,百色市,市中心血站,颗粒物(PM10),65,80,69,44,39,8,,111,54,58,30,10,8,0.9,0.8
2024-11-09T0000,3406A,106.6085,23.8798,百色市,祈福高中,颗粒物(PM10),62,73,59,29,30,14,,102,51,44,24,4,4,0.6,0.7
2024-11-09T0000,2270A,117.396,32.939,蚌埠市,工人疗养院,颗粒物(PM10),52,54,44,27,22,43,,88,60,32,30,4,6,0.3,0.3
2024-11-09T0000,2271A,117.3605,32.9427,蚌埠市,百货大楼,颗粒物(PM10),52,53,43,28,18,36,,84,55,43,30,5,5,0.3,0.3
2024-11-09T0000,2273A,117.4185,32.8911,蚌埠市,蚌埠学院,,31,31,35,15,18,63,,93,73,24,22,5,6,0.2,0.2
2024-11-09T0000,2274A,117.3533,32.9673,蚌埠市,淮上区政府,,46,44,47,32,24,53,,83,60,21,28,7,7,0.3,0.3
2024-11-09T0000,2275A,117.3145,32.8977,蚌埠市,高新区,,29,29,34,14,16,71,,89,66,18,24,6,6,0.2,0.3
2024-11-09T0000,3715A,117.3092,32.9314,蚌埠市,蚌埠田家炳中学,,43,43,39,27,18,44,,90,62,39,21,7,5,0.3,0.3
2024-11-09T0000,1585A,109.8756,40.6532,包头市,市环境监测站,"颗粒物(PM10),细颗粒物(PM2.5)",59,68,81,42,44,43,,64,30,43,59,31,20,1.5,1.6
2024-11-09T0000,1587A,109.9991,40.5842,包头市,包头八中,细颗粒物(PM2.5),75,93,95,55,63,31,,61,37,54,55,38,34,1.6,1.3
2024-11-09T0000,1588A,109.8538,40.6821,包头市,青山宾馆,细颗粒物(PM2.5),65,73,80,47,59,43,,64,27,44,56,42,20,1.7,1.4
2024-11-09T0000,1589A,109.8642,40.6288,包头市,惠龙物流,颗粒物(PM10),57,64,83,36,43,40,,66,36,46,60,19,24,1.0,1.3
2024-11-09T0000,1590A,110.0377,40.5546,包头市,东河鸿龙湾,细颗粒物(PM2.5),69,63,74,50,49,22,,66,33,49,48,12,16,0.9,0.9
2024-11-09T0000,3283A,109.9154,40.5685,包头市,滨河大厦,"颗粒物(PM10),细颗粒物(PM2.5)",57,63,71,40,43,39,,70,44,38,48,14,17,0.8,0.9
2024-11-09T0000,3419A,109.9447,40.6261,包头市,包头市委党校,细颗粒物(PM2.5),70,79,78,51,44,47,,65,36,43,56,98,32,2.1,1.5
2024-11-09T0000,3683A,109.8331,40.6576,包头市,昆区政府,细颗粒物(PM2.5),57,59,84,40,63,50,,63,38,38,55,17,20,1.0,1.5
2024-11-09T0000,1930A,107.185,34.3063,宝鸡市,庙沟村,细颗粒物(PM2.5),127,133,124,96,91,76,,104,89,32,26,9,10,0.9,0.8
2024-11-09T0000,1931A,107.0708,34.3017,宝鸡市,竹园沟,细颗粒物(PM2.5),162,136,127,123,114,45,,107,73,18,21,7,8,0.8,0.8
2024-11-09T0000,1932A,107.1906,34.3672,宝鸡市,三陆医院,细颗粒物(PM2.5),207,166,145,157,133,11,,110,60,66,44,7,9,1.1,1
2024-11-09T0000,1933A,107.1431,34.3547,宝鸡市,监测站,细颗粒物(PM2.5),178,,135,134,120,32,,102,62,33,32,7,9,0.9,0.9
2024-11-09T0000,1934A,107.1186,34.3739,宝鸡市,技工学校,细颗粒物(PM2.5),179,135,125,135,122,42,,107,70,43,39,7,10,1.1,1.1
2024-11-09T0000,1935A,107.3906,34.3528,宝鸡市,陈仓区环保局家属楼,细颗粒物(PM2.5),223,195,152,173,136,4,,112,66,84,46,7,8,1.0,0.9
2024-11-09T0000,1936A,107.2058,34.3497,宝鸡市,文理学院,细颗粒物(PM2.5),176,138,133,133,121,30,,108,61,45,38,8,11,1.0,0.9
2024-11-09T0000,1937A,107.2386,34.3622,宝鸡市,三迪小学,细颗粒物(PM2.5),198,181,142,148,129,6,,113,63,85,52,8,10,1.1,1
2024-11-09T0000,1051A,115.493,38.8632,保定市,游泳馆,细颗粒物(PM2.5),205,186,157,155,123,12,,67,32,82,76,4,6,0.7,0.7
2024-11-09T0000,1052A,115.5213,38.8959,保定市,华电二区,细颗粒物(PM2.5),227,184,144,177,126,3,,64,29,88,70,4,7,0.9,0.9
2024-11-09T0000,1053A,115.4713,38.9108,保定市,接待中心,细颗粒物(PM2.5),201,198,159,151,120,3,,55,25,81,69,4,6,0.8,0.7
2024-11-09T0000,1054A,115.4612,38.8416,保定市,地表水厂,细颗粒物(PM2.5),208,190,168,158,128,4,,59,20,86,77,2,4,0.7,0.6
2024-11-09T0000,3581A,115.31981,38.95208,保定市,满城区生态环境分局,细颗粒物(PM2.5),203,195,180,153,129,3,,64,16,66,77,4,5,1.0,0.8
2024-11-09T0000,3582A,115.47694,38.76408,保定市,清苑区第二中学,细颗粒物(PM2.5),186,185,163,140,112,11,,69,30,76,70,7,7,0.8,0.8
2024-11-09T0000,3583A,115.62909,39.02311,保定市,徐水物探局,细颗粒物(PM2.5),211,185,149,161,115,3,,59,26,77,66,6,7,0.7,0.6
2024-11-09T0000,4004A,115.4202,38.8656,保定市,双鹰农机,细颗粒物(PM2.5),205,200,164,155,121,6,,62,31,79,67,3,5,0.8,0.7
2024-11-09T0000,4034A,115.5150,38.8590,保定市,植保所站,细颗粒物(PM2.5),224,197,162,174,127,14,,59,29,70,66,9,9,0.7,0.7
2024-11-09T0000,2594A,99.1678,25.1081,保山市,市环境监测站,,14,14,14,3,4,29,,58,41,5,7,5,4,0.5,0.5
2024-11-09T0000,2595A,99.1711,25.1328,保山市,市环保局,,20,14,14,14,11,42,,63,50,2,4,4,5,0.5,0.5
2024-11-09T0000,1866A,109.2262,21.588,北海市,牛尾岭水库,,,,44,54,38,58,,126,99,,5,4,7,0.7,0.7
2024-11-09T0000,1867A,109.1436,21.4086,北海市,海滩公园,颗粒物(PM10),65,80,50,46,31,122,,166,152,19,15,12,14,0.9,0.8
2024-11-09T0000,1868A,109.0981,21.4661,北海市,新市环保局,细颗粒物(PM2.5),67,66,55,48,40,120,,165,150,22,20,13,12,0.8,0.7
2024-11-09T0000,1869A,109.1778,21.5233,北海市,北海工业园,细颗粒物(PM2.5),59,51,53,42,38,108,,149,142,15,18,9,13,0.6,0.6
2024-11-09T0000,3400A,109.1911,21.4415,北海市,龙潭自来水厂,细颗粒物(PM2.5),113,95,55,85,44,57,,150,102,22,19,8,11,1.0,0.7
2024-11-09T0000,1001A,116.3621,39.8784,北京市,万寿西宫,细颗粒物(PM2.5),178,186,164,134,114,0,,49,24,111,79,3,4,1.8,1.1
2024-11-09T0000,1002A,116.2202,40.2915,北京市,定陵,细颗粒物(PM2.5),193,189,169,145,129,12,,53,29,28,34,1,3,0.8,0.8
2024-11-09T0000,1003A,116.4174,39.9289,北京市,东四,细颗粒物(PM2.5),182,201,174,137,116,1,,48,24,108,81,7,8,1.7,1.2
2024-11-09T0000,1004A,116.4072,39.8863,北京市,天坛,细颗粒物(PM2.5),155,139,141,118,111,0,,41,15,39,53,3,2,1.5,1
2024-11-09T0000,1005A,116.462,39.9365,北京市,农展馆,细颗粒物(PM2.5),185,195,164,139,114,0,,46,22,112,80,3,2,1.2,0.9
2024-11-09T0000,1006A,116.3392,39.9295,北京市,官园,细颗粒物(PM2.5),195,215,177,146,117,0,,43,14,100,81,6,8,2.2,1.3
2024-11-09T0000,1007A,116.2878,39.9611,北京市,海淀万柳,细颗粒物(PM2.5),179,199,172,135,114,7,,34,11,52,56,4,4,1.4,1.1
2024-11-09T0000,1008A,116.6636,40.135,北京市,顺义新城,细颗粒物(PM2.5),166,169,163,126,114,0,,48,14,75,64,3,2,0.9,0.8
2024-11-09T0000,1009A,116.6275,40.3275,北京市,怀柔镇,细颗粒物(PM2.5),188,178,149,141,113,35,,67,45,31,40,2,3,0.6,0.5
2024-11-09T0000,1010A,116.2296,40.217,北京市,昌平镇,细颗粒物(PM2.5),183,204,179,138,115,0,,62,33,77,62,4,6,1.1,0.8
2024-11-09T0000,1011A,116.3966,39.9821,北京市,奥体中心,细颗粒物(PM2.5),180,200,173,136,114,2,,34,13,100,84,3,4,1.7,1.2
2024-11-09T0000,1012A,116.184,39.9136,北京市,古城,细颗粒物(PM2.5),206,231,194,156,127,0,,32,7,43,45,4,5,1.4,1.1
2024-11-09T0000,3281A,115.9718,40.4529,北京市,延庆夏都,细颗粒物(PM2.5),183,181,152,138,116,33,,99,63,35,28,3,3,0.7,0.6
2024-11-09T0000,3417A,117.0709,40.1465,北京市,平谷新城,细颗粒物(PM2.5),125,132,133,95,99,12,,64,38,25,30,3,3,0.6,0.6
2024-11-09T0000,3418A,116.8336,40.4095,北京市,密云新城,细颗粒物(PM2.5),156,186,157,119,106,4,,71,24,49,46,3,3,0.7,0.7
2024-11-09T0000,3671A,116.088,39.9726,北京市,门头沟三家店,细颗粒物(PM2.5),195,203,179,146,120,5,,50,13,46,56,6,7,0.7,0.7
2024-11-09T0000,3672A,116.1541,39.8204,北京市,丰台云岗,细颗粒物(PM2.5),216,221,179,166,131,12,,51,25,72,68,4,5,0.9,0.7
2024-11-09T0000,3673A,116.6804,39.9081,北京市,通州东关,细颗粒物(PM2.5),153,189,176,117,116,2,,45,21,88,78,4,4,1.1,1
2024-11-09T0000,3674A,115.9577,39.7603,北京市,房山燕山,细颗粒物(PM2.5),178,157,164,134,127,32,,66,45,24,41,3,3,0.6,0.7
2024-11-09T0000,3675A,116.4672,39.7733,北京市,大兴旧宫,细颗粒物(PM2.5),110,,163,83,98,0,,56,32,36,54,3,2,0.7,0.8
2024-11-09T0000,3694A,115.986,40.4563,北京市,延庆石河营,细颗粒物(PM2.5),169,165,143,128,110,22,,101,58,38,29,3,2,0.7,0.6
2024-11-09T0000,3695A,116.6151,40.3053,北京市,怀柔新城,细颗粒物(PM2.5),188,181,162,141,118,38,,60,45,30,38,1,3,0.7,0.7
2024-11-09T0000,3696A,116.2545,39.8768,北京市,丰台小屯,细颗粒物(PM2.5),190,213,174,143,117,2,,46,18,71,70,2,3,1.6,1.1
2024-11-09T0000,3697A,116.84,40.3844,北京市,密云镇,细颗粒物(PM2.5),130,148,160,99,108,0,,62,14,62,52,3,3,0.6,0.7
2024-11-09T0000,1761A,123.8275,41.3064,本溪市,大峪,颗粒物(PM10),54,58,52,36,33,55,,91,62,25,27,10,11,0.8,0.8
2024-11-09T0000,1762A,123.7567,41.3325,本溪市,溪湖,颗粒物(PM10),61,72,68,43,40,40,,84,69,42,28,9,11,0.8,0.9
2024-11-09T0000,1763A,123.7169,41.3094,本溪市,彩屯,细颗粒物(PM2.5),93,97,79,69,54,37,,69,53,32,34,10,14,1.5,1.5
2024-11-09T0000,1764A,123.7669,41.2864,本溪市,东明,细颗粒物(PM2.5),58,,47,41,35,70,,89,82,29,27,8,9,0.8,0.8
2024-11-09T0000,1765A,123.7992,41.2664,本溪市,新立屯,,37,37,36,21,20,96,,89,89,18,21,6,7,0.6,0.6
2024-11-09T0000,1766A,123.8142,41.3472,本溪市,威宁,颗粒物(PM10),64,78,73,43,34,23,,77,45,38,31,8,9,1.0,0.9
2024-11-09T0000,2587A,105.2864,27.3125,毕节市,八中,细颗粒物(PM2.5),67,58,63,48,53,40,,59,47,17,20,7,8,0.7,0.7
2024-11-09T0000,2588A,105.31,27.2944,毕节市,师专,,,,55,48,51,41,,63,47,,21,6,7,0.7,0.7
2024-11-09T0000,3537A,105.3631,27.3533,毕节市,长征村,细颗粒物(PM2.5),52,45,55,36,46,66,,71,70,8,12,7,9,0.6,0.6
2024-11-09T0000,1629A,118.0018,37.3617,滨州市,第二水厂,细颗粒物(PM2.5),85,114,96,63,50,5,,103,57,96,58,12,12,0.6,0.7
2024-11-09T0000,1630A,117.9776,37.393,滨州市,北中新校,细颗粒物(PM2.5),89,107,96,66,46,14,,95,22,86,70,10,8,0.7,0.9
2024-11-09T0000,3514A,117.9378,37.3956,滨州市,中海酒店,细颗粒物(PM2.5),85,100,86,63,48,37,,113,62,63,51,9,8,0.9,0.8
2024-11-09T0000,3515A,117.9378,37.3553,滨州市,开发区一中,细颗粒物(PM2.5),83,110,97,61,48,25,,102,65,98,62,12,12,0.7,0.7
2024-11-09T0000,3516A,118.0917,37.694,滨州市,金海六路,颗粒物(PM10),68,85,96,48,48,32,,124,64,37,46,6,10,0.6,0.7
2024-11-09T0000,4028A,117.9956,37.3753,滨州市,滨州市西街道办事处,细颗粒物(PM2.5),104,110,95,78,58,8,,108,45,89,57,13,11,0.7,0.8
2024-11-09T0000,2311A,115.8072,33.8399,亳州市,污水处理厂,细颗粒物(PM2.5),54,54,53,38,30,53,,94,64,21,23,10,8,0.4,0.4
2024-11-09T0000,2312A,115.7789,33.8518,亳州市,三国揽胜宫,颗粒物(PM10),58,66,59,36,33,59,,98,68,22,24,8,5,0.3,0.4
2024-11-09T0000,3332A,115.7633,33.8034,亳州市,亳州学院,,50,50,56,33,24,58,,95,67,21,24,4,4,0.3,0.4
2024-11-09T0000,2693A,82.0485,44.8556,博尔塔拉蒙古自治州,市党校,,28,28,25,16,15,31,,43,37,12,12,5,4,0.2,0.2
2024-11-09T0000,2694A,82.0806,44.8969,博尔塔拉蒙古自治州,市环保局,,39,39,33,9,11,35,,37,32,9,11,2,2,0.3,0.2
2024-11-09T0000,1071A,116.8842,38.2991,沧州市,沧县城建局,颗粒物(PM10),83,115,72,58,42,3,,93,47,90,40,7,6,0.9,0.6
2024-11-09T0000,1072A,116.8584,38.3254,沧州市,电视转播站,细颗粒物(PM2.5),77,81,70,56,40,7,,105,60,61,32,3,5,0.7,0.5
2024-11-09T0000,1073A,116.8709,38.3228,沧州市,市环保局,"颗粒物(PM10),细颗粒物(PM2.5)",80,109,72,59,45,1,,93,49,73,34,5,5,0.7,0.6
2024-11-09T0000,3324A,116.8136,38.3004,沧州市,河北水利电力学院,细颗粒物(PM2.5),70,68,72,51,46,48,,94,68,44,30,3,5,0.4,0.4
2024-11-09T0000,2622A,97.1806,31.1273,昌都市,昌都监测站,,41,41,22,15,13,15,,75,33,36,20,7,7,1.0,0.9
2024-11-09T0000,3719A,97.1714,31.1406,昌都市,昌都会议中心,,22,22,14,11,7,35,,88,57,16,8,6,6,0.6,0.5
2024-11-09T0000,2690A,88.1236,43.8886,昌吉回族自治州,天山天池,,15,6,5,3,3,45,,60,50,2,4,7,8,0.5,0.5
2024-11-09T0000,2692A,87.2717,44.0297,昌吉回族自治州,新区政务中心,,15,15,13,8,7,40,,56,42,16,15,6,6,0.2,0.2
2024-11-09T0000,3613A,87.3095,44.0142,昌吉回族自治州,亚心广场,,15,9,10,3,3,47,,56,49,15,16,3,2,0.3,0.3
2024-11-09T0000,1119A,125.3325,43.9166,长春市,食品厂,细颗粒物(PM2.5),103,96,85,77,66,25,,43,12,45,57,10,13,0.8,0.9
2024-11-09T0000,1120A,125.2863,43.9027,长春市,客车厂,细颗粒物(PM2.5),110,89,80,83,74,22,,51,17,55,58,13,21,0.6,0.8
2024-11-09T0000,1121A,125.2841,43.8463,长春市,邮电学院,细颗粒物(PM2.5),105,88,77,79,67,47,,59,24,35,52,13,13,0.6,0.7
2024-11-09T0000,1122A,125.3716,43.8772,长春市,劳动公园,细颗粒物(PM2.5),110,114,86,83,68,16,,65,22,59,51,9,11,1.1,1
2024-11-09T0000,1123A,125.3297,43.8805,长春市,园林处,细颗粒物(PM2.5),103,95,78,77,64,36,,60,32,36,44,13,11,0.8,0.8
2024-11-09T0000,1124A,125.4605,43.79,长春市,净月潭,细颗粒物(PM2.5),107,90,59,80,54,44,,83,61,15,14,7,8,0.8,0.6
2024-11-09T0000,1125A,125.7194,43.515,长春市,甩湾子,,,,,,,,,,,,,,,,
2024-11-09T0000,1126A,125.3863,43.8447,长春市,经开区环卫处,细颗粒物(PM2.5),108,104,80,81,60,15,,58,15,51,52,10,12,0.8,0.8
2024-11-09T0000,1127A,125.245,43.7783,长春市,高新区管委会,细颗粒物(PM2.5),94,90,81,70,80,31,,66,22,27,42,8,10,0.7,0.8
2024-11-09T0000,1128A,125.1761,43.8325,长春市,岱山公园,细颗粒物(PM2.5),82,,81,60,73,36,,63,24,37,50,7,10,0.6,0.7
2024-11-09T0000,1335A,113.0833,28.2325,长沙市,经开区环保局,细颗粒物(PM2.5),102,112,75,76,41,58,,121,99,60,42,3,4,0.7,0.5
2024-11-09T0000,1336A,112.8872,28.2189,长沙市,高开区环保局,细颗粒物(PM2.5),152,,80,116,53,44,,129,108,88,48,7,7,0.7,0.5
2024-11-09T0000,1337A,113.0792,28.2053,长沙市,马坡岭,细颗粒物(PM2.5),108,100,70,81,46,42,,122,89,66,44,6,7,0.8,0.6
2024-11-09T0000,1338A,112.9394,28.19,长沙市,湖南师范大学,细颗粒物(PM2.5),95,97,71,71,39,90,,126,114,30,33,7,7,0.7,0.5
2024-11-09T0000,1339A,113.0178,28.1322,长沙市,雨花区环保局,细颗粒物(PM2.5),97,101,63,72,33,77,,129,106,52,36,8,8,0.7,0.5
2024-11-09T0000,1340A,112.9792,28.2597,长沙市,伍家岭,细颗粒物(PM2.5),127,130,89,96,51,10,,124,86,89,49,3,4,1.0,0.8
2024-11-09T0000,1341A,113.0014,28.1944,长沙市,火车新站,细颗粒物(PM2.5),94,112,72,70,39,81,,123,108,44,36,5,5,0.7,0.5
2024-11-09T0000,1342A,112.9844,28.1178,长沙市,天心区环保局,细颗粒物(PM2.5),100,116,67,75,37,55,,126,94,75,52,8,7,1.0,0.5
2024-11-09T0000,1343A,112.8908,28.1308,长沙市,湖南中医药大学,细颗粒物(PM2.5),172,,79,130,52,29,,137,79,90,56,10,10,1.0,0.8
2024-11-09T0000,1344A,112.9581,28.3611,长沙市,沙坪,细颗粒物(PM2.5),65,58,51,47,40,84,,127,118,12,17,8,9,0.4,0.3
2024-11-09T0000,1727A,113.1147,36.1547,长治市,清华站,细颗粒物(PM2.5),73,65,94,53,74,66,,67,67,26,46,10,10,0.9,0.8
2024-11-09T0000,1728A,113.1031,36.1989,长治市,监测站,细颗粒物(PM2.5),73,78,91,53,77,50,,51,48,30,43,12,17,1.3,1.2
2024-11-09T0000,1730A,113.0886,36.2125,长治市,审计局,细颗粒物(PM2.5),79,72,90,58,80,70,,67,67,23,36,8,13,1.1,1.1
2024-11-09T0000,1731A,113.0844,36.1856,长治市,长治八中,细颗粒物(PM2.5),85,84,110,63,70,63,,63,63,29,46,8,10,1.2,1.1
2024-11-09T0000,2845A,113.1569,36.1911,长治市,德盛苑,细颗粒物(PM2.5),64,68,100,46,78,90,,75,71,22,36,7,16,1.3,1.3
2024-11-09T0000,3568A,113.06,36.0464,长治市,向阳小学,细颗粒物(PM2.5),63,71,92,45,63,113,,124,124,26,35,10,10,0.5,0.7
2024-11-09T0000,3569A,112.8792,36.3144,长治市,屯留一中,细颗粒物(PM2.5),68,72,79,49,63,87,,95,79,26,36,8,9,0.7,0.8
2024-11-09T0000,3570A,113.235,36.3489,长治市,潞城四中,细颗粒物(PM2.5),93,80,114,69,79,37,,77,61,52,54,8,12,1.0,1.3
2024-11-09T0000,1854A,111.6975,28.9703,常德市,市二中,细颗粒物(PM2.5),120,135,94,91,60,88,,130,104,27,33,10,9,0.8,0.7
2024-11-09T0000,1857A,111.7158,29.1456,常德市,白鹤山,,,,,,,,,,,,,,,,
2024-11-09T0000,3138A,111.7153,29.0289,常德市,武陵区永安,细颗粒物(PM2.5),94,92,86,70,55,85,,138,114,30,36,11,8,0.9,0.9
2024-11-09T0000,3139A,111.6892,28.9881,常德市,鼎城区玉霞,细颗粒物(PM2.5),103,115,98,77,56,42,,131,100,50,34,8,9,1.0,0.8
2024-11-09T0000,3140A,111.6625,29.0531,常德市,武陵区长庚,细颗粒物(PM2.5),113,123,91,85,58,64,,141,107,34,31,6,6,0.9,0.8
2024-11-09T0000,1196A,119.9633,31.762,常州市,市监测站,颗粒物(PM10),56,62,46,21,20,38,,88,44,41,41,10,10,0.8,0.7
2024-11-09T0000,1200A,119.9468,31.7069,常州市,武进监测站,,46,46,36,17,18,53,,87,58,22,29,6,8,0.7,0.7
2024-11-09T0000,1201A,119.9255,31.9087,常州市,安家,颗粒物(PM10),61,72,42,20,19,12,,87,17,62,44,9,8,0.7,0.5
2024-11-09T0000,3002A,119.9805,31.8174,常州市,行政中心,,34,34,37,15,17,52,,76,48,28,41,8,11,0.4,0.6
2024-11-09T0000,3003A,120.0522,31.7748,常州市,经开区,,50,50,47,19,22,25,,87,33,64,59,8,10,0.5,0.6
2024-11-09T0000,3010A,119.9025,31.7964,常州市,钟楼,,48,48,43,14,19,43,,80,50,36,42,8,9,0.7,0.6
2024-11-09T0000,3429A,119.8598,31.7066,常州市,武进经发区,,44,44,43,19,20,56,,87,48,24,41,8,10,0.6,0.7
2024-11-09T0000,3430A,119.5826,31.7245,常州市,金坛城区,,44,44,44,21,22,40,,88,45,37,40,6,9,0.5,0.6
2024-11-09T0000,2220A,120.4318,41.5881,朝阳市,西梁,细颗粒物(PM2.5),108,111,175,81,124,46,,39,22,44,60,16,22,1.3,1.8
2024-11-09T0000,2221A,120.4521,41.5646,朝阳市,河畔小区,细颗粒物(PM2.5),97,88,120,72,105,74,,52,28,32,60,13,17,1.2,1.7
2024-11-09T0000,2222A,120.4176,41.5648,朝阳市,八里堡,细颗粒物(PM2.5),117,98,138,88,104,37,,33,20,48,62,12,18,1.3,1.8
2024-11-09T0000,2223A,120.3806,41.5969,朝阳市,农业园区,细颗粒物(PM2.5),123,,120,93,122,51,,41,24,45,67,12,16,1.2,1.5
2024-11-09T0000,1705A,116.6367,23.6719,潮州市,西园路,,41,41,31,19,19,77,,90,89,17,11,5,5,0.3,0.2
2024-11-09T0000,3026A,116.6183,23.6608,潮州市,市政府,,33,33,34,18,17,81,,87,84,16,15,8,8,0.6,0.5
2024-11-09T0000,4036A,116.6461,23.6761,潮州市,金山,,33,33,30,17,17,77,,93,91,16,10,10,9,0.6,0.6
2024-11-09T0000,2472A,113.0073,25.9061,郴州市,马头岭,颗粒物(PM10),62,73,58,38,26,42,,122,82,27,22,10,24,0.9,0.8
2024-11-09T0000,2473A,113.0116,25.8226,郴州市,市职中,细颗粒物(PM2.5),65,74,55,47,40,11,,130,55,40,20,6,19,0.8,0.8
2024-11-09T0000,2474A,113.0161,25.8001,郴州市,兴隆步行街,细颗粒物(PM2.5),69,85,61,50,38,19,,128,67,44,25,6,19,0.8,0.7
2024-11-09T0000,2475A,113.0383,25.8071,郴州市,市审计局,细颗粒物(PM2.5),65,64,52,47,39,30,,132,79,44,25,7,21,0.7,0.6
2024-11-09T0000,2476A,113.0348,25.7759,郴州市,市环保局,细颗粒物(PM2.5),74,84,66,54,40,24,,121,,50,31,9,19,0.7,0.7
2024-11-09T0000,1431A,103.9728,30.7236,成都市,金泉两河,细颗粒物(PM2.5),114,96,88,86,69,8,,19,15,39,37,2,3,0.6,0.6
2024-11-09T0000,1432A,104.176,30.6872,成都市,十里店,细颗粒物(PM2.5),77,77,87,56,69,30,,16,16,22,44,2,2,0.7,0.7
2024-11-09T0000,1433A,104.079,30.5706,成都市,三瓦窑,细颗粒物(PM2.5),92,,83,68,73,5,,18,11,42,40,1,2,0.7,0.6
2024-11-09T0000,1434A,104.1114,30.63,成都市,沙河铺,细颗粒物(PM2.5),77,65,86,56,69,22,,11,11,21,37,3,4,0.7,0.7
2024-11-09T0000,1437A,104.0786,30.6531,成都市,君平街,细颗粒物(PM2.5),122,102,81,92,63,10,,23,19,48,41,4,5,0.9,0.8
2024-11-09T0000,1438A,103.613,31.0283,成都市,灵岩寺,,,,,,,,,,,,,,,,
2024-11-09T0000,2880A,104.0239,30.65639,成都市,大石西路,细颗粒物(PM2.5),93,88,83,69,62,8,,13,11,37,37,3,3,0.8,0.8
2024-11-09T0000,3136A,104.2725,30.5589,成都市,龙泉驿区区政府,,49,,48,34,41,38,,52,48,13,17,2,2,0.5,0.6
2024-11-09T0000,3357A,104.0106,30.6931,成都市,金博路,细颗粒物(PM2.5),102,96,91,76,64,3,,16,14,33,36,1,2,0.7,0.7
2024-11-09T0000,3359A,104.0578,30.5225,成都市,华阳,细颗粒物(PM2.5),58,58,68,41,51,4,,35,8,36,24,1,2,0.9,0.7
2024-11-09T0000,3487A,104.2394,30.5319,成都市,车城东七路,,48,41,62,33,47,27,,47,42,23,20,1,2,0.6,0.6
2024-11-09T0000,3488A,104.3853,30.7453,成都市,青白江技师分院,细颗粒物(PM2.5),74,66,77,54,56,45,,46,36,14,21,2,2,0.7,0.7
2024-11-09T0000,3489A,104.0789,30.4072,成都市,科学城,细颗粒物(PM2.5),63,50,60,45,52,37,,56,43,15,18,3,4,0.6,0.6
2024-11-09T0000,4011A,103.8506,30.6947,成都市,光华大道三段,细颗粒物(PM2.5),92,95,88,68,66,12,,15,12,40,37,4,4,0.7,0.7
2024-11-09T0000,1062A,117.9531,40.9081,承德市,铁路,细颗粒物(PM2.5),114,133,126,86,77,2,,33,6,64,60,4,5,1.1,0.9
2024-11-09T0000,1063A,117.9392,40.9763,承德市,中国银行,细颗粒物(PM2.5),122,136,117,92,72,2,,52,17,56,46,1,2,1.0,0.8
2024-11-09T0000,1064A,117.9503,40.928,承德市,开发区,细颗粒物(PM2.5),99,128,127,74,72,5,,44,11,61,61,4,4,1.1,0.9
2024-11-09T0000,1065A,117.8051,40.9655,承德市,文化中心,细颗粒物(PM2.5),118,158,156,89,86,0,,40,11,68,56,3,6,0.9,1.2
2024-11-09T0000,1066A,117.9268,41.0026,承德市,离宫,细颗粒物(PM2.5),127,136,117,96,83,12,,62,40,56,41,2,3,0.6,0.7
2024-11-09T0000,2314A,117.47,30.6618,池州市,池州学院,颗粒物(PM10),55,60,49,32,26,54,,98,72,30,29,7,8,0.6,0.6
2024-11-09T0000,3237A,117.4918,30.6617,池州市,展览馆,颗粒物(PM10),56,61,49,33,27,51,,95,69,27,27,5,6,0.6,0.5
2024-11-09T0000,3333A,117.5627,30.695,池州市,第八中学,颗粒物(PM10),53,56,48,32,26,48,,95,68,23,27,5,6,0.7,0.6
2024-11-09T0000,3334A,117.5038,30.6243,池州市,第十二中学,细颗粒物(PM2.5),60,64,47,43,28,58,,106,84,24,22,4,4,0.6,0.5
2024-11-09T0000,1744A,118.9233,42.2816,赤峰市,松山一中,细颗粒物(PM2.5),144,200,155,110,81,5,,23,8,61,64,37,67,1.7,1.8
2024-11-09T0000,1745A,118.9576,42.2728,赤峰市,哈达街,细颗粒物(PM2.5),130,190,166,99,90,6,,17,7,50,53,40,106,1.5,1.7
2024-11-09T0000,1746A,118.8788,42.2554,赤峰市,天义路,细颗粒物(PM2.5),129,158,131,98,84,25,,25,10,60,63,27,36,1.4,1.3
2024-11-09T0000,3058A,119.2658,42.0353,赤峰市,银河街,细颗粒物(PM2.5),156,183,147,119,110,18,,52,20,41,43,19,23,1.5,1.5
2024-11-09T0000,3286A,118.9359,42.3147,赤峰市,桥北物流园区,细颗粒物(PM2.5),133,132,126,101,96,6,,38,11,66,56,24,40,1.6,1.6
2024-11-09T0000,2521A,107.3476,22.4136,崇左市,市环保局江州分局,颗粒物(PM10),67,84,69,45,36,51,,140,90,22,18,4,5,0.6,0.7
2024-11-09T0000,2522A,107.3702,22.3707,崇左市,城南新区,细颗粒物(PM2.5),54,54,49,38,32,30,,146,83,40,18,5,7,0.6,0.5
2024-11-09T0000,2298A,118.3093,32.3153,滁州市,老年大学,,43,43,42,22,21,39,,88,63,32,31,3,3,0.3,0.3
2024-11-09T0000,2299A,118.3244,32.2786,滁州市,人大宾馆,颗粒物(PM10),51,51,45,26,22,40,,91,58,36,40,7,8,0.3,0.4
2024-11-09T0000,3207A,118.3118,32.3038,滁州市,市政府原办公楼,,45,44,39,31,24,43,,88,60,29,33,5,7,0.5,0.5
2024-11-09T0000,3331A,118.3267,32.2634,滁州市,图书馆,,50,50,46,28,21,39,,93,64,30,30,4,6,0.3,0.3
2024-11-09T0000,2605A,101.5482,25.0441,楚雄彝族自治州,州环境监测站,,40,,8,28,7,16,,57,30,23,15,16,10,0.9,0.8
2024-11-09T0000,2606A,101.538,25.0492,楚雄彝族自治州,市经济开发区,,38,,9,26,7,15,,56,32,25,17,16,13,0.9,0.7
2024-11-09T0000,2548A,107.5277,31.2827,达州市,达州职业技术学院,细颗粒物(PM2.5),69,58,63,50,44,3,,16,6,31,33,5,6,0.7,0.7
2024-11-09T0000,2549A,107.5086,31.2186,达州市,市环境监测站,细颗粒物(PM2.5),64,64,63,46,33,2,,11,6,42,43,5,6,0.6,0.6
2024-11-09T0000,2550A,107.4988,31.2132,达州市,凤凰小区,颗粒物(PM10),56,61,60,39,37,3,,17,8,44,43,7,8,0.7,0.7
2024-11-09T0000,2551A,107.5082,31.1986,达州市,达县机关宾馆,细颗粒物(PM2.5),72,58,60,52,43,3,,19,6,44,42,6,7,0.7,0.7
2024-11-09T0000,2552A,107.4644,31.2124,达州市,市政中心,"颗粒物(PM10),细颗粒物(PM2.5)",62,74,68,44,38,4,,16,7,52,47,6,7,1.0,0.8
2024-11-09T0000,2614A,100.1542,25.7054,大理白族自治州,大理市环境监测站,,19,13,12,13,14,35,,66,37,12,10,6,7,0.6,0.6
2024-11-09T0000,2615A,100.2171,25.5811,大理白族自治州,大理古城,,20,20,14,3,6,33,,52,35,10,11,6,6,0.5,0.5
2024-11-09T0000,1109A,121.612,38.9741,大连市,甘井子,,38,38,38,20,18,102,,103,99,21,27,8,11,0.4,0.4
2024-11-09T0000,1110A,121.565,38.9511,大连市,周水子,,48,48,45,23,22,92,,94,78,20,30,16,8,0.5,0.7
2024-11-09T0000,1111A,121.5637,38.8845,大连市,星海三站,,41,41,35,20,17,109,,115,114,10,14,8,10,0.5,0.5
2024-11-09T0000,1112A,121.6302,38.9117,大连市,青泥洼桥,,36,36,31,20,16,99,,104,99,14,13,10,9,0.7,0.5
2024-11-09T0000,1113A,121.6251,38.8638,大连市,傅家庄,,38,38,30,17,13,107,,118,115,16,14,10,10,0.4,0.4
2024-11-09T0000,1114A,121.5213,38.8661,大连市,七贤岭,,44,44,35,20,16,99,,105,102,15,15,9,9,0.5,0.5
2024-11-09T0000,1115A,121.2529,38.8061,大连市,旅顺,,38,28,30,21,18,119,,119,119,19,21,8,9,0.6,0.6
2024-11-09T0000,1116A,121.7485,39.1311,大连市,金州,,31,31,35,20,25,99,,106,104,21,21,10,8,0.6,0.6
2024-11-09T0000,1117A,121.7811,39.0496,大连市,开发区,,34,34,38,17,18,105,,107,106,13,14,5,5,0.2,0.3
2024-11-09T0000,1118A,121.9762,39.0631,大连市,双D港,,39,34,28,23,14,122,,122,120,14,16,8,9,0.6,0.6
2024-11-09T0000,1789A,124.81117,46.03138,大庆市,大同区,细颗粒物(PM2.5),288,272,252,238,221,14,,47,21,59,58,14,11,0.6,0.6
2024-11-09T0000,1790A,125.129,46.533,大庆市,龙凤区,细颗粒物(PM2.5),482,500,171,473,147,68,,54,50,100,44,19,10,2.3,0.9
2024-11-09T0000,1791A,124.902,46.408,大庆市,红岗区,细颗粒物(PM2.5),266,252,144,216,117,14,,58,29,61,39,16,17,1.2,0.7
2024-11-09T0000,1792A,125.153,46.586,大庆市,萨尔图区,细颗粒物(PM2.5),371,357,161,321,137,42,,60,45,77,44,14,12,1.3,0.7
2024-11-09T0000,1793A,124.9042,46.6215,大庆市,让胡路区,细颗粒物(PM2.5),436,438,148,404,121,44,,45,31,92,49,15,11,1.7,0.8
2024-11-09T0000,3481A,125.141,46.634,大庆市,萨区政府监测点,细颗粒物(PM2.5),289,272,146,239,129,37,,48,32,54,40,13,10,1.1,0.7
2024-11-09T0000,1721A,113.3819,40.1097,大同市,果树场,细颗粒物(PM2.5),125,121,120,95,80,1,,57,22,53,48,9,11,1.5,1.3
2024-11-09T0000,1723A,113.2994,40.0758,大同市,云冈宾馆,细颗粒物(PM2.5),170,167,136,129,83,10,,72,50,78,55,10,14,1.7,1.6
2024-11-09T0000,1724A,113.3444,40.0917,大同市,大同大学,细颗粒物(PM2.5),133,154,111,101,69,22,,73,48,62,53,12,16,1.1,1.2
2024-11-09T0000,1725A,113.2661,40.1269,大同市,安家小村,细颗粒物(PM2.5),142,143,133,108,78,68,,82,75,34,50,18,24,0.8,2.3
2024-11-09T0000,1726A,113.2711,40.0844,大同市,教育学院,细颗粒物(PM2.5),139,185,154,106,82,9,,68,42,88,73,16,18,1.2,1.7
2024-11-09T0000,3282A,113.3397,40.0597,大同市,大同市卫生学校,细颗粒物(PM2.5),148,177,132,113,74,9,,75,46,74,58,13,15,0.9,0.9
2024-11-09T0000,3565A,113.1367,40.1122,大同市,云冈站,细颗粒物(PM2.5),137,172,145,104,84,7,,85,51,66,49,13,17,0.9,1
2024-11-09T0000,3566A,113.1186,40.2556,大同市,图书馆,颗粒物(PM10),119,187,134,89,77,6,,75,39,54,37,10,25,0.9,0.9
2024-11-09T0000,3567A,113.5931,40.0461,大同市,区一中,颗粒物(PM10),106,162,120,54,45,34,,86,57,46,42,18,23,1.2,1.1
2024-11-09T0000,3676A,113.2802,40.0995,大同市,第二人民医院,细颗粒物(PM2.5),128,163,146,97,74,37,,81,63,63,57,16,20,1.2,1.8
2024-11-09T0000,2269A,124.1069,50.4097,大兴安岭地区,科技局,细颗粒物(PM2.5),68,72,32,49,23,30,,49,42,20,8,7,5,0.5,0.3
2024-11-09T0000,3663A,124.1164,50.4278,大兴安岭地区,红旗社区,细颗粒物(PM2.5),75,68,40,55,27,16,,44,28,26,19,11,6,0.5,0.5
2024-11-09T0000,1600A,124.3303,40.0625,丹东市,江湾东路,细颗粒物(PM2.5),87,96,83,64,48,9,,63,30,57,37,12,16,1.7,1.1
2024-11-09T0000,1601A,124.4256,40.1503,丹东市,临江后街,细颗粒物(PM2.5),87,115,91,64,49,12,,51,17,44,42,9,18,1.3,1.1
2024-11-09T0000,1602A,124.3933,40.1461,丹东市,元宝山,"颗粒物(PM10),细颗粒物(PM2.5)",73,95,88,53,49,34,,65,34,22,38,8,11,0.9,1.2
2024-11-09T0000,1603A,124.3633,40.1092,丹东市,民主桥,颗粒物(PM10),66,81,63,44,35,10,,69,31,58,38,8,11,1.2,0.8
2024-11-09T0000,3541A,109.5726,19.5167,儋州市,第一中学子站,颗粒物(PM10),56,61,44,35,26,84,,166,141,16,11,8,8,0.6,0.4
2024-11-09T0000,3542A,109.5567,19.5187,儋州市,东坡学校子站,颗粒物(PM10),53,56,49,36,27,90,,178,148,15,12,10,9,0.7,0.6
2024-11-09T0000,2616A,98.5842,24.428,德宏傣族景颇族自治州,德宏州监测站,,29,29,28,18,16,10,,39,26,19,21,4,15,0.8,0.7
2024-11-09T0000,3677A,98.5881,24.4368,德宏傣族景颇族自治州,芒市人民政府综合楼,,20,20,25,13,16,16,,42,28,11,17,4,9,0.8,0.8
2024-11-09T0000,1901A,104.4239,31.1208,德阳市,东山公园,颗粒物(PM10),58,66,81,34,44,32,,48,41,10,16,1,1,0.8,0.7
2024-11-09T0000,1902A,104.3826,31.1317,德阳市,西小区,颗粒物(PM10),56,61,73,38,53,30,,41,33,15,26,1,2,0.8,0.8
2024-11-09T0000,1904A,104.3553,31.1091,德阳市,耐火材料厂,细颗粒物(PM2.5),68,65,76,49,53,4,,38,26,33,29,3,3,0.7,0.7
2024-11-09T0000,3639A,104.4019,31.1244,德阳市,市教育局,细颗粒物(PM2.5),55,57,67,39,47,22,,43,34,20,24,2,2,0.8,0.7
2024-11-09T0000,1622A,116.3032,37.4674,德州市,儿童乐园,颗粒物(PM10),74,97,74,53,38,12,,94,48,76,36,12,13,0.8,0.6
2024-11-09T0000,1624A,116.2991,37.4451,德州市,监理站,细颗粒物(PM2.5),77,90,65,56,36,23,,99,57,66,34,14,13,0.7,0.7
2024-11-09T0000,3066A,116.2721,37.4379,德州市,九衢泉纯净水厂,颗粒物(PM10),75,100,76,51,35,6,,95,45,84,40,13,12,0.8,0.6
2024-11-09T0000,3371A,116.3728,37.4403,德州市,开发区人民医院,颗粒物(PM10),65,80,67,44,33,14,,93,42,81,43,11,11,0.7,0.6
2024-11-09T0000,3372A,116.3572,37.4094,德州市,太阳城中学,细颗粒物(PM2.5),94,110,77,70,39,11,,102,38,86,46,7,9,0.8,0.6
2024-11-09T0000,3511A,116.5652,37.3319,德州市,陵城艺术中心,细颗粒物(PM2.5),77,90,68,56,36,20,,95,36,70,38,11,11,0.7,0.6
2024-11-09T0000,2621A,99.7056,27.8317,迪庆藏族自治州,迪庆州站,,30,21,22,21,17,39,,73,45,14,16,7,7,0.6,0.6
2024-11-09T0000,3180A,99.7136,27.8094,迪庆藏族自治州,质量技术监督局,,37,37,24,18,14,34,,64,41,16,18,7,7,0.8,0.7
2024-11-09T0000,2663A,104.6241,35.5734,定西市,东关小学,,39,39,41,22,21,50,,60,50,7,8,2,3,0.3,0.3
2024-11-09T0000,2664A,104.6194,35.5934,定西市,供电公司,,34,34,34,23,23,48,,62,52,9,8,6,6,0.3,0.3
2024-11-09T0000,1389A,113.7547,23.0494,东莞市,莞城梨川,,44,44,40,20,21,74,,125,86,28,23,10,9,0.6,0.6
2024-11-09T0000,1390A,113.7944,23.0128,东莞市,东城石井,,41,41,35,26,19,55,,130,82,35,20,9,11,0.7,0.6
2024-11-09T0000,1391A,113.7383,22.9658,东莞市,南城西平,,44,44,41,23,20,48,,131,67,55,45,8,9,0.6,0.6
2024-11-09T0000,3319A,113.7338,23.0381,东莞市,万江金泰,,40,40,36,24,20,77,,121,84,19,19,10,8,0.6,0.6
2024-11-09T0000,3626A,113.7533,23.0202,东莞市,南城元岭,,42,42,38,21,19,72,,119,86,20,16,10,10,0.6,0.6
2024-11-09T0000,3627A,113.7875,23.0457,东莞市,东城主山,,41,41,40,23,22,69,,131,86,30,24,9,10,0.6,0.6
2024-11-09T0000,1666A,118.6614,37.4309,东营市,市环保局,,44,44,67,22,32,68,,98,80,25,38,6,8,0.4,0.6
2024-11-09T0000,3036A,118.6904,37.4338,东营市,开发区管委会,,43,43,72,29,36,71,,102,87,23,28,12,12,0.4,0.6
2024-11-09T0000,3365A,118.5719,37.565,东营市,垦利区民丰路,,46,46,63,22,33,61,,92,64,32,40,10,10,0.4,0.5
2024-11-09T0000,3498A,118.5055,37.8612,东营市,河口城区,颗粒物(PM10),56,61,88,32,44,66,,115,84,23,34,5,7,0.7,0.7
2024-11-09T0000,3646A,118.4978,37.4623,东营市,胜利站,,42,41,72,29,33,70,,89,70,21,42,6,8,0.6,0.6
2024-11-09T0000,3734A,118.35,37.26,东营市,理想之城,,48,48,66,27,36,67,,96,69,28,43,5,6,0.6,0.6
2024-11-09T0000,1591A,110.0023,39.8129,鄂尔多斯市,综合楼,颗粒物(PM10),60,70,72,27,34,64,,102,82,33,29,10,10,0.7,0.7
2024-11-09T0000,1592A,109.9486,39.8261,鄂尔多斯市,巴音孟克林场办事处,颗粒物(PM10),54,58,66,29,35,64,,93,82,31,30,10,11,0.8,0.8
2024-11-09T0000,1593A,109.7736,39.5986,鄂尔多斯市,康泽苑,颗粒物(PM10),51,51,56,29,32,62,,102,84,26,32,8,8,0.5,0.7
2024-11-09T0000,1594A,109.8119,39.5989,鄂尔多斯市,华泰汽车城,,45,44,54,31,32,50,,101,79,30,34,6,7,0.6,0.7
2024-11-09T0000,1595A,109.9734,39.7884,鄂尔多斯市,奥林花园,颗粒物(PM10),60,70,73,27,34,42,,84,62,38,33,8,8,0.9,1
2024-11-09T0000,2436A,114.8938,30.3994,鄂州市,市政府,细颗粒物(PM2.5),68,70,62,49,38,70,,104,78,37,38,7,10,0.8,0.9
2024-11-09T0000,2437A,114.8989,30.3714,鄂州市,赵家坝,颗粒物(PM10),64,78,61,44,39,71,,98,69,34,39,9,10,0.7,0.7
2024-11-09T0000,3654A,114.8094,30.4089,鄂州市,精准医疗中心,颗粒物(PM10),63,75,63,42,37,74,,100,80,40,41,30,26,2.6,2
2024-11-09T0000,2454A,109.4978,30.2981,恩施土家族苗族自治州,湖北民院,细颗粒物(PM2.5),82,74,61,60,46,2,,29,11,30,28,7,6,0.6,0.5
2024-11-09T0000,2455A,109.4707,30.2798,恩施土家族苗族自治州,州电力总公司,细颗粒物(PM2.5),68,57,62,49,48,18,,27,22,26,35,7,7,0.7,0.7
2024-11-09T0000,3549A,109.5061,30.3772,恩施土家族苗族自治州,龙凤新区,细颗粒物(PM2.5),60,55,60,43,43,19,,32,20,16,24,5,6,0.7,0.8
2024-11-09T0000,2499A,108.3411,21.6158,防城港市,沙万,,48,46,55,33,32,91,,139,117,21,18,6,7,0.5,0.5
2024-11-09T0000,2500A,108.3514,21.7731,防城港市,防城档案局,颗粒物(PM10),90,129,91,47,37,14,,131,60,52,32,5,7,0.7,0.5
2024-11-09T0000,2501A,108.3506,21.6414,防城港市,大海花园,颗粒物(PM10),53,56,53,32,33,92,,144,123,19,15,7,7,0.6,0.6
2024-11-09T0000,1371A,113.1294,23.0067,佛山市,湾梁,,48,48,46,30,22,68,,136,102,50,38,10,9,0.7,0.6
2024-11-09T0000,1372A,113.1083,23.0478,佛山市,华材职中,颗粒物(PM10),68,85,54,32,26,25,,130,78,94,48,12,10,0.7,0.5
2024-11-09T0000,1373A,113.144,23.0453,佛山市,南海气象局,,48,48,46,27,22,50,,136,97,57,34,10,9,0.5,0.4
2024-11-09T0000,1374A,113.2881,22.8094,佛山市,顺德苏岗,颗粒物(PM10),56,62,45,27,19,57,,135,90,48,35,11,9,0.7,0.6
2024-11-09T0000,1376A,112.8383,22.8678,佛山市,高明孔堂,颗粒物(PM10),52,54,50,32,27,45,,146,93,49,29,10,10,0.7,0.5
2024-11-09T0000,1377A,112.8836,23.1588,佛山市,三水监测站,颗粒物(PM10),65,80,49,41,29,26,,132,79,95,39,14,11,0.7,0.5
2024-11-09T0000,1378A,112.867,23.185,佛山市,三水云东海,颗粒物(PM10),61,71,40,43,25,2,,130,75,117,34,15,12,0.8,0.6
2024-11-09T0000,3625A,113.2544,22.7642,佛山市,容桂街道办,颗粒物(PM10),53,56,41,31,23,59,,143,102,48,33,10,9,0.7,0.5
2024-11-09T0000,1280A,119.3903,26.0543,福州市,鼓山,,,,21,,9,,,97,96,,8,,2,,0.3
2024-11-09T0000,1282A,119.2681,26.0504,福州市,师大,,44,44,30,20,10,68,,99,90,19,12,5,3,0.7,0.4
2024-11-09T0000,1283A,119.2984,26.1028,福州市,五四北路,,32,32,25,18,10,62,,92,84,22,11,2,2,0.7,0.4
2024-11-09T0000,1284A,119.2648,26.0768,福州市,杨桥西路,,47,47,32,16,9,60,,96,82,22,12,3,2,0.7,0.4
2024-11-09T0000,1285A,119.317,26.0746,福州市,紫阳,,39,39,42,20,11,59,,88,74,30,18,5,4,0.9,0.5
2024-11-09T0000,3048A,119.5799,26.0936,福州市,九龙,,,,,,,,,,,,,,,,
2024-11-09T0000,3526A,119.5189,25.9664,福州市,吴航,,33,33,25,19,12,69,,102,94,17,9,4,4,0.2,0.2
2024-11-09T0000,1755A,123.7977,41.8491,抚顺市,望花区,细颗粒物(PM2.5),74,76,77,54,45,11,,73,47,60,40,8,11,1.1,1
2024-11-09T0000,1756A,123.9161,41.8822,抚顺市,顺城区,细颗粒物(PM2.5),83,84,74,61,46,8,,39,25,54,47,6,7,0.7,0.6
2024-11-09T0000,1757A,124.0436,41.8611,抚顺市,东洲区,细颗粒物(PM2.5),68,75,54,49,37,21,,74,59,35,18,8,9,0.7,0.5
2024-11-09T0000,1758A,123.9247,41.8642,抚顺市,新抚区,细颗粒物(PM2.5),72,86,70,52,42,5,,36,23,50,46,5,6,0.6,0.6
2024-11-09T0000,1759A,124.0972,41.8961,抚顺市,大伙房水库,细颗粒物(PM2.5),53,43,41,37,32,70,,82,78,15,13,7,7,0.6,0.6
2024-11-09T0000,1760A,123.7086,41.8391,抚顺市,沈抚新城,细颗粒物(PM2.5),63,67,76,45,46,61,,82,60,15,30,8,12,0.5,0.8
2024-11-09T0000,2376A,116.2127,28.0814,抚州市,桐源党溪,细颗粒物(PM2.5),60,60,59,43,31,25,,110,64,20,12,6,7,0.5,0.5
2024-11-09T0000,2377A,116.3544,27.9831,抚州市,市站,细颗粒物(PM2.5),75,80,49,55,26,64,,104,88,23,19,8,11,0.9,0.7
2024-11-09T0000,2378A,116.3565,27.963,抚州市,血防站,颗粒物(PM10),65,80,49,43,26,67,,124,100,20,17,8,10,0.7,0.5
2024-11-09T0000,2379A,116.3564,28.0007,抚州市,采茶剧团,细颗粒物(PM2.5),79,80,49,58,29,50,,113,87,24,15,6,11,0.8,0.7
2024-11-09T0000,2380A,116.385,27.9647,抚州市,医学分院,颗粒物(PM10),65,80,50,45,24,55,,105,80,19,14,9,11,0.8,0.7
2024-11-09T0000,2207A,121.6094,41.998,阜新市,工业园区,细颗粒物(PM2.5),158,228,161,120,111,4,,37,5,48,53,14,29,2.2,1.8
2024-11-09T0000,2208A,121.6697,42.0279,阜新市,长青街,细颗粒物(PM2.5),135,170,159,103,114,4,,33,6,39,42,15,28,2.7,2.8
2024-11-09T0000,2209A,121.6673,42.0705,阜新市,农业园区,细颗粒物(PM2.5),122,122,140,92,110,51,,49,41,37,42,26,47,1.1,1.2
2024-11-09T0000,2210A,121.6717,42.0224,阜新市,东苑,细颗粒物(PM2.5),134,163,154,102,111,5,,38,8,42,44,23,37,3.2,3.1
2024-11-09T0000,2211A,121.6506,42.0498,阜新市,玉龙新城,细颗粒物(PM2.5),120,146,143,91,106,6,,41,9,42,48,12,31,1.7,1.6
2024-11-09T0000,2301A,115.8277,32.8929,阜阳市,市监测站,细颗粒物(PM2.5),73,82,55,53,35,33,,93,60,28,24,6,6,0.7,0.6
2024-11-09T0000,2303A,115.8554,32.8605,阜阳市,开发区,颗粒物(PM10),82,113,77,58,34,29,,92,57,32,28,7,8,0.6,0.6
2024-11-09T0000,2875A,115.784,32.8892,阜阳市,阜阳职业技术学院,细颗粒物(PM2.5),74,82,49,54,29,35,,95,68,27,20,6,6,0.5,0.5
2024-11-09T0000,3468A,115.7901,32.8613,阜阳市,市规划展馆,细颗粒物(PM2.5),78,84,50,57,29,39,,100,73,30,24,8,8,0.4,0.4
2024-11-09T0000,3469A,115.836,32.9183,阜阳市,枣园社区,细颗粒物(PM2.5),65,73,53,47,31,42,,94,55,28,25,7,8,0.4,0.5
2024-11-09T0000,2669A,102.9099,34.9841,甘南藏族自治州,州政府,,40,40,32,11,14,2,,72,25,57,38,6,9,0.9,0.8
2024-11-09T0000,3380A,102.8914,34.9617,甘南藏族自治州,甘肃民族师范学院,颗粒物(PM10),52,54,36,15,14,1,,78,31,54,37,8,8,0.4,0.4
2024-11-09T0000,2570A,101.9603,30.0475,甘孜藏族自治州,水桥子,,32,27,25,22,14,4,,10,6,23,18,6,7,0.3,0.4
2024-11-09T0000,3065A,101.9533,29.9972,甘孜藏族自治州,州环保局,,20,16,30,3,6,11,,18,12,40,24,4,4,0.2,0.2
2024-11-09T0000,3414A,115.8347,28.932,赣江新区,桑海产业园,细颗粒物(PM2.5),73,90,68,53,39,3,,104,60,96,48,14,13,0.9,0.7
2024-11-09T0000,2362A,114.9017,25.9149,赣州市,通天岩,,46,,38,32,29,72,,131,92,8,10,2,1,0.3,0.2
2024-11-09T0000,2363A,114.9367,25.8664,赣州市,地委,颗粒物(PM10),58,66,46,37,29,60,,131,111,37,17,2,2,0.7,0.6
2024-11-09T0000,2364A,114.9461,25.8481,赣州市,气象台,,49,49,39,34,31,59,,126,111,51,21,19,9,0.6,0.6
2024-11-09T0000,2365A,114.9322,25.8333,赣州市,市图书馆,,48,48,42,27,21,76,,135,118,30,18,13,10,0.6,0.5
2024-11-09T0000,2366A,114.8905,25.8471,赣州市,华坚鞋城,,49,49,42,30,22,111,,124,121,14,13,8,7,0.6,0.6
2024-11-09T0000,3109A,115.0093,25.8613,赣州市,赣县区卫计委,颗粒物(PM10),58,66,48,38,28,26,,117,75,58,29,4,6,0.6,0.5
2024-11-09T0000,2683A,106.2319,36.1417,固原市,马园,细颗粒物(PM2.5),90,95,62,67,44,13,,50,39,57,31,6,6,1.0,0.9
2024-11-09T0000,2684A,106.2792,36.0022,固原市,监测站,细颗粒物(PM2.5),102,,33,76,46,63,,65,65,16,16,4,4,0.7,0.6
2024-11-09T0000,2685A,106.2375,36.0211,固原市,新区,细颗粒物(PM2.5),85,,37,63,38,62,,60,60,12,16,4,4,0.7,0.7
2024-11-09T0000,3522A,106.2177,35.9959,固原市,原州区十五小,细颗粒物(PM2.5),72,73,43,52,30,72,,77,68,14,13,6,5,0.8,0.7
2024-11-09T0000,2543A,106.6308,30.5278,广安市,小平旧居,,,,,,,,,,,,,,,,
2024-11-09T0000,2544A,106.6303,30.4576,广安市,市委,颗粒物(PM10),55,59,78,34,54,64,,56,48,23,23,4,8,0.5,0.6
2024-11-09T0000,2545A,106.6271,30.4663,广安市,友谊中学,细颗粒物(PM2.5),64,57,71,46,51,61,,53,43,23,24,3,3,0.6,0.8
2024-11-09T0000,2547A,106.6388,30.4551,广安市,广电花园,细颗粒物(PM2.5),59,56,75,42,49,59,,52,41,23,24,5,5,0.6,0.7
2024-11-09T0000,2902A,106.6351,30.4865,广安市,北辰小学,细颗粒物(PM2.5),84,87,77,62,50,38,,61,46,18,17,4,4,0.7,0.7
2024-11-09T0000,2523A,105.8945,32.4535,广元市,黑石坡,细颗粒物(PM2.5),55,,41,39,31,34,,46,34,10,11,5,5,0.6,0.6
2024-11-09T0000,2524A,105.821,32.4444,广元市,老城,细颗粒物(PM2.5),58,45,54,41,32,9,,44,35,44,25,3,3,1.0,1
2024-11-09T0000,2526A,105.8628,32.4287,广元市,监测站,细颗粒物(PM2.5),68,,42,49,36,36,,58,49,25,23,4,4,0.8,0.8
2024-11-09T0000,3617A,105.8047,32.4166,广元市,经开区,细颗粒物(PM2.5),54,54,58,38,36,18,,45,34,40,29,3,4,0.8,0.8
2024-11-09T0000,1345A,113.2347,23.1423,广州市,广雅中学,,,86,58,37,26,,,126,83,69,37,11,9,0.6,0.8
2024-11-09T0000,1346A,113.2612,23.105,广州市,市五中,颗粒物(PM10),54,58,45,34,26,66,,141,102,46,25,9,8,0.6,0.5
2024-11-09T0000,1348A,113.3478,23.0916,广州市,广东商学院,,39,39,39,22,20,82,,136,97,27,25,8,8,0.4,0.4
2024-11-09T0000,1349A,113.4332,23.1047,广州市,市八十六中,,41,41,45,22,21,70,,122,90,31,30,5,6,0.5,0.5
2024-11-09T0000,1350A,113.3505,22.9483,广州市,番禺中学,,49,49,44,27,22,71,,140,103,44,34,9,8,0.5,0.4
2024-11-09T0000,1351A,113.2146,23.3916,广州市,花都师范,,48,48,40,24,20,96,,127,112,23,20,9,9,0.7,0.7
2024-11-09T0000,1352A,113.2597,23.1331,广州市,市监测站,颗粒物(PM10),57,64,46,33,24,30,,130,79,78,32,10,8,0.5,0.4
2024-11-09T0000,1353A,113.5618,23.312,广州市,九龙镇镇龙,颗粒物(PM10),51,51,43,25,24,50,,116,73,38,27,6,6,0.6,0.5
2024-11-09T0000,1354A,113.2765,23.1544,广州市,麓湖,,47,47,40,31,24,47,,133,82,54,30,8,6,0.6,0.5
2024-11-09T0000,1355A,113.443,23.3035,广州市,帽峰山森林公园,,25,25,27,17,15,71,,134,101,21,15,9,9,0.5,0.5
2024-11-09T0000,2846A,113.3221,23.1322,广州市,体育西,,47,47,42,28,24,60,,127,87,36,22,6,6,0.5,0.6
2024-11-09T0000,3298A,113.5717,23.5491,广州市,从化街口,,48,48,37,26,21,51,,117,77,48,21,8,9,0.6,0.5
2024-11-09T0000,3299A,113.3472,23.3692,广州市,白云竹料,颗粒物(PM10),57,64,45,32,23,67,,131,95,37,21,10,9,0.7,0.6
2024-11-09T0000,3300A,113.2981,23.237,广州市,白云嘉禾,颗粒物(PM10),67,83,57,40,25,25,,128,71,91,45,11,9,0.8,0.6
2024-11-09T0000,3301A,113.4256,23.1716,广州市,黄埔科学城,,41,41,39,24,22,61,,130,92,34,23,7,8,0.6,0.6
2024-11-09T0000,3302A,113.3942,23.0483,广州市,番禺大学城,,41,41,40,24,20,39,,132,90,65,36,8,8,0.0,0.1
2024-11-09T0000,3303A,113.4922,22.8168,广州市,南沙黄阁,颗粒物(PM10),55,60,51,33,24,35,,133,84,73,39,9,12,0.7,0.6
2024-11-09T0000,3304A,113.5342,22.7896,广州市,南沙街,颗粒物(PM10),58,65,50,29,23,30,,137,78,67,32,9,9,0.5,0.5
2024-11-09T0000,3443A,113.2902,23.5544,广州市,花都梯面,,37,31,32,20,19,116,,131,122,12,12,9,11,0.3,0.4
2024-11-09T0000,3445A,113.7858,23.7478,广州市,从化良口,,26,22,25,14,16,81,,116,91,11,9,6,6,0.5,0.5
2024-11-09T0000,3446A,113.8051,23.2614,广州市,增城荔城,,32,30,32,22,20,100,,115,92,16,19,10,9,0.5,0.6
2024-11-09T0000,2505A,109.568,23.1478,贵港市,德智高中,,,,,,,,,,,,,,,,
2024-11-09T0000,2506A,109.6047,23.0666,贵港市,江南子站,颗粒物(PM10),84,117,95,57,46,26,,147,96,68,38,9,11,0.8,0.9
2024-11-09T0000,2507A,109.6014,23.0948,贵港市,贵城子站,颗粒物(PM10),81,111,70,55,39,7,,135,100,78,30,9,10,0.9,0.9
2024-11-09T0000,2508A,109.5669,23.1065,贵港市,荷城子站,颗粒物(PM10),73,95,67,46,35,16,,132,91,94,34,12,13,0.8,0.6
2024-11-09T0000,3405A,109.5886,23.1172,贵港市,新世纪学校,颗粒物(PM10),54,58,57,35,33,98,,136,119,21,19,9,11,0.7,0.7
2024-11-09T0000,1439A,106.6899,26.5998,贵阳市,马鞍山,,36,36,36,24,24,59,,98,71,16,17,4,4,0.7,0.7
2024-11-09T0000,1440A,106.6971,26.5694,贵阳市,市环保站,细颗粒物(PM2.5),58,61,46,41,31,74,,113,88,21,17,8,7,0.6,0.5
2024-11-09T0000,1441A,106.6243,26.6266,贵阳市,鉴湖路,细颗粒物(PM2.5),52,46,44,36,27,74,,102,85,18,19,6,6,0.5,0.5
2024-11-09T0000,1442A,106.7487,26.6343,贵阳市,燕子冲,细颗粒物(PM2.5),52,39,36,36,30,85,,108,89,10,13,8,7,0.4,0.4
2024-11-09T0000,1443A,106.6555,26.4365,贵阳市,碧云窝,"颗粒物(PM10),细颗粒物(PM2.5)",58,66,53,41,28,27,,105,61,36,23,8,8,0.6,0.5
2024-11-09T0000,1444A,106.694,26.5161,贵阳市,中院村,颗粒物(PM10),54,58,50,34,30,42,,104,60,53,30,10,7,0.7,0.7
2024-11-09T0000,1445A,106.7109,26.6027,贵阳市,红边门,细颗粒物(PM2.5),62,51,42,44,32,79,,112,92,19,21,7,6,0.7,0.6
2024-11-09T0000,1446A,106.7164,26.5699,贵阳市,新华路,细颗粒物(PM2.5),55,58,46,39,30,60,,113,80,28,19,6,5,0.6,0.5
2024-11-09T0000,1447A,106.674,26.5424,贵阳市,太慈桥,细颗粒物(PM2.5),55,53,42,39,25,23,,100,52,53,28,6,5,0.5,0.5
2024-11-09T0000,1552A,106.805,26.3003,贵阳市,桐木岭,"颗粒物(PM10),细颗粒物(PM2.5)",52,53,53,36,33,98,,117,98,6,6,17,15,0.6,0.5
2024-11-09T0000,1862A,110.4144,25.3167,桂林市,电子科大尧山校区,,46,46,44,19,22,107,,138,119,14,12,8,12,0.5,0.5
2024-11-09T0000,1863A,110.2819,25.2697,桂林市,监测站,,38,36,45,24,29,119,,140,108,16,18,11,14,0.6,0.6
2024-11-09T0000,1864A,110.3089,25.2708,桂林市,龙隐路小学,,39,32,42,24,30,124,,148,121,15,14,15,21,0.6,0.6
2024-11-09T0000,1865A,110.2869,25.2178,桂林市,八中,,39,39,45,25,29,110,,138,102,20,20,10,16,0.8,0.8
2024-11-09T0000,3403A,110.1764,25.2381,桂林市,创业大厦,,44,44,47,27,30,131,,140,119,10,16,10,18,0.4,0.4
2024-11-09T0000,3531A,110.296,25.1253,桂林市,旅游学院,,36,36,42,22,26,112,,146,117,14,19,14,13,0.5,0.5
2024-11-09T0000,2674A,100.2561,34.4714,果洛藏族自治州,玛沁县大武镇,,39,39,34,27,20,26,,88,49,24,12,16,15,0.5,0.5
2024-11-09T0000,1129A,126.5422,45.755,哈尔滨市,岭北,细颗粒物(PM2.5),158,177,119,120,86,29,,56,39,69,58,16,17,0.3,0.5
2024-11-09T0000,1130A,126.561,45.8167,哈尔滨市,松北商大,细颗粒物(PM2.5),173,149,123,131,88,15,,28,24,75,57,13,12,1.2,0.9
2024-11-09T0000,1131A,126.979,45.5419,哈尔滨市,阿城会宁,细颗粒物(PM2.5),180,158,160,136,113,38,,58,28,33,42,7,12,0.8,1.2
2024-11-09T0000,1132A,126.599,45.7222,哈尔滨市,南岗学府路,细颗粒物(PM2.5),168,174,133,127,86,21,,38,20,66,59,14,13,1.2,1.1
2024-11-09T0000,1133A,126.689,45.7733,哈尔滨市,太平宏伟公园,细颗粒物(PM2.5),186,189,146,140,101,16,,26,14,68,62,12,12,1.1,0.9
2024-11-09T0000,1134A,126.635,45.7667,哈尔滨市,道外承德广场,细颗粒物(PM2.5),169,176,153,128,94,17,,23,23,78,71,12,13,1.5,1.3
2024-11-09T0000,1135A,126.685,45.7319,哈尔滨市,香坊红旗大街,细颗粒物(PM2.5),205,166,157,155,111,49,,45,35,49,59,14,20,0.8,0.9
2024-11-09T0000,1136A,126.6411,45.7258,哈尔滨市,动力和平路,细颗粒物(PM2.5),212,180,135,162,99,27,,32,16,58,62,20,20,0.9,1
2024-11-09T0000,1137A,126.593,45.7478,哈尔滨市,道里建国路,细颗粒物(PM2.5),175,135,128,132,98,17,,19,19,71,67,22,21,2.2,1.4
2024-11-09T0000,1138A,126.615,45.61,哈尔滨市,平房东轻厂,细颗粒物(PM2.5),193,,131,145,94,38,,60,35,33,42,11,12,1.0,0.9
2024-11-09T0000,1139A,126.595,45.9855,哈尔滨市,呼兰师专,细颗粒物(PM2.5),252,211,111,202,92,11,,43,27,78,49,8,7,1.5,0.7
2024-11-09T0000,1140A,126.6206,45.6842,哈尔滨市,省农科院,细颗粒物(PM2.5),216,196,137,166,98,8,,40,19,79,57,9,14,1.2,1
2024-11-09T0000,2688A,93.5128,42.8172,哈密市,地区监测站,颗粒物(PM10),62,73,118,29,33,38,,55,43,26,31,4,8,0.4,0.6
2024-11-09T0000,2689A,93.4961,42.8328,哈密市,哈密师范学校,颗粒物(PM10),62,73,108,32,36,44,,59,46,25,30,5,8,0.6,0.7
2024-11-09T0000,2671A,100.9048,36.9639,海北藏族自治州,海晏县西海镇,,13,12,11,7,7,40,,46,46,10,9,12,8,0.2,0.3
2024-11-09T0000,3867A,102.0738,36.5056,海东市,平安区公安北苑,,42,42,50,23,25,40,,75,56,18,28,8,19,0.6,0.9
2024-11-09T0000,1409A,110.576,19.9507,海口市,东寨港,,,,,,,,,,,,,,,,
2024-11-09T0000,1410A,110.3232,20.0574,海口市,海南大学,,48,48,44,24,22,112,,162,137,26,14,6,7,0.5,0.5
2024-11-09T0000,1411A,110.283,20.0053,海口市,秀英海南医院,细颗粒物(PM2.5),64,58,49,46,25,37,,160,123,80,19,8,8,0.6,0.4
2024-11-09T0000,1412A,110.338,19.9969,海口市,海南师范大学,细颗粒物(PM2.5),52,40,46,36,23,68,,163,136,59,16,8,9,0.6,0.4
2024-11-09T0000,1413A,110.33,20.0356,海口市,龙华路环保局宿舍,,42,42,46,24,22,109,,158,137,23,14,7,7,0.5,0.5
2024-11-09T0000,3539A,110.5111,19.9736,海口市,桂林洋子站,,49,49,45,28,26,101,,169,134,15,12,7,8,0.4,0.3
2024-11-09T0000,2673A,100.6188,36.2866,海南藏族自治州,共和县恰卜恰镇,,37,37,35,10,15,21,,76,43,37,26,13,10,0.7,0.6
2024-11-09T0000,2676A,97.3731,37.3753,海西蒙古族藏族自治州,德令哈市,,27,27,30,14,14,69,,87,54,2,10,15,13,0.4,0.5
2024-11-09T0000,1048A,114.5302,36.6116,邯郸市,东污水处理厂,"颗粒物(PM10),细颗粒物(PM2.5)",67,83,71,48,47,42,,93,65,31,27,4,4,0.5,0.5
2024-11-09T0000,1049A,114.4918,36.5713,邯郸市,矿院,细颗粒物(PM2.5),73,94,76,53,48,34,,92,62,47,33,2,3,0.5,0.4
2024-11-09T0000,1050A,114.484,36.6133,邯郸市,丛台公园,细颗粒物(PM2.5),73,74,73,53,50,47,,90,73,38,35,4,5,0.4,0.5
2024-11-09T0000,3458A,114.7895,36.5593,邯郸市,香泉濮院小区,颗粒物(PM10),74,98,69,53,35,36,,109,76,36,22,6,8,0.5,0.5
2024-11-09T0000,3579A,114.50634,36.77178,邯郸市,永年区实验高中,颗粒物(PM10),75,99,110,52,63,26,,96,61,66,50,5,5,0.3,0.4
2024-11-09T0000,3580A,114.20016,36.44293,邯郸市,峰峰矿区临水派出所,细颗粒物(PM2.5),70,67,72,51,49,64,,87,78,20,27,6,7,0.5,0.7
2024-11-09T0000,2634A,106.9893,33.1842,汉中市,汉川机床厂子校,,43,43,51,30,30,19,,37,24,14,18,5,6,0.6,0.7
2024-11-09T0000,2635A,107.0154,33.0706,汉中市,市监测站,"颗粒物(PM10),细颗粒物(PM2.5)",69,87,74,50,44,7,,34,20,39,25,10,9,1.0,0.9
2024-11-09T0000,2636A,107.0089,33.1138,汉中市,鑫源开发区,细颗粒物(PM2.5),79,103,74,58,45,86,,29,29,52,40,11,11,0.9,0.8
2024-11-09T0000,2637A,107.007,33.0323,汉中市,南郑大河坎水厂,细颗粒物(PM2.5),85,90,71,63,46,10,,30,19,31,28,9,9,1.1,0.9
2024-11-09T0000,1223A,120.2072,30.2111,杭州市,滨江,,42,42,45,14,22,47,,81,58,33,42,7,7,0.4,0.4
2024-11-09T0000,1224A,120.0633,30.2747,杭州市,西溪,,45,31,26,31,24,3,,81,35,55,40,7,7,0.6,0.6
2024-11-09T0000,1226A,120.3461,30.3153,杭州市,下沙,,46,46,42,24,21,9,,98,51,78,52,8,8,0.6,0.6
2024-11-09T0000,1227A,120.1269,30.2456,杭州市,卧龙桥,,30,30,33,13,17,16,,88,42,32,30,7,7,0.4,0.4
2024-11-09T0000,1228A,120.1903,30.2692,杭州市,浙江农大,,36,36,40,19,25,38,,84,61,34,41,5,5,0.5,0.5
2024-11-09T0000,1230A,120.1197,30.3119,杭州市,和睦小学,颗粒物(PM10),54,57,44,30,25,3,,102,55,82,46,9,9,0.3,0.4
2024-11-09T0000,1231A,120.3019,30.4183,杭州市,临平镇,颗粒物(PM10),54,57,47,24,19,34,,100,58,47,47,7,6,0.5,0.4
2024-11-09T0000,1232A,120.2697,30.1819,杭州市,城厢镇,,43,43,49,19,23,51,,94,63,31,40,6,6,0.5,0.5
2024-11-09T0000,1233A,120.0883,30.1808,杭州市,云栖,,22,22,30,10,14,15,,82,41,42,39,7,7,0.5,0.5
2024-11-09T0000,3557A,119.9464,30.0494,杭州市,镇二中,颗粒物(PM10),52,54,41,34,28,26,,82,53,34,33,6,7,0.8,0.7
2024-11-09T0000,3558A,119.7183,30.2367,杭州市,市府大楼,"颗粒物(PM10),细颗粒物(PM2.5)",75,99,49,55,34,7,,87,40,64,44,7,7,0.7,0.6
2024-11-09T0000,3656A,120.1556,30.2864,杭州市,消防大队,颗粒物(PM10),54,58,51,29,26,6,,96,62,84,46,8,8,0.4,0.3
2024-11-09T0000,1270A,117.1959,31.7848,合肥市,明珠广场,颗粒物(PM10),52,53,43,22,19,40,,94,63,54,42,8,9,0.4,0.5
2024-11-09T0000,1271A,117.3072,31.8764,合肥市,三里街,,48,48,50,27,23,26,,85,35,52,49,6,6,0.5,0.7
2024-11-09T0000,1272A,117.2588,31.8707,合肥市,琥珀山庄,,46,46,40,28,20,45,,100,71,46,33,9,10,0.7,0.9
2024-11-09T0000,1273A,117.1604,31.9052,合肥市,董铺水库,,48,48,44,17,16,39,,92,66,41,35,5,5,0.3,0.5
2024-11-09T0000,1274A,117.25,31.8571,合肥市,长江中路,颗粒物(PM10),53,56,50,29,24,41,,96,67,47,39,8,9,0.6,0.8
2024-11-09T0000,1275A,117.266,31.9436,合肥市,庐阳区,颗粒物(PM10),51,51,52,17,21,44,,97,60,39,39,3,3,0.7,0.8
2024-11-09T0000,1276A,117.336,31.8586,合肥市,瑶海区,颗粒物(PM10),52,53,45,28,19,31,,94,53,61,48,6,7,0.5,0.6
2024-11-09T0000,1277A,117.3027,31.7964,合肥市,包河区,颗粒物(PM10),54,58,52,29,23,3,,88,31,88,58,6,6,0.6,0.7
2024-11-09T0000,1278A,117.2776,31.7385,合肥市,滨湖新区,,48,48,43,19,18,60,,96,75,32,27,6,6,0.5,0.6
2024-11-09T0000,1279A,117.1318,31.8403,合肥市,高新区,颗粒物(PM10),52,53,41,28,19,35,,94,72,52,32,1,2,0.7,0.7
2024-11-09T0000,3464A,117.3803,31.9147,合肥市,高教基地,,47,47,43,22,20,41,,98,57,31,30,6,6,0.4,0.5
2024-11-09T0000,3614A,79.924,37.0877,和田地区,地区环保局,颗粒物(PM10),84,117,141,41,38,60,,96,79,22,17,9,10,0.7,0.8
2024-11-09T0000,3615A,79.9131,37.113,和田地区,市环保局,颗粒物(PM10),66,82,127,36,43,55,,92,72,28,27,8,11,0.8,1.5
2024-11-09T0000,2516A,108.2011,24.715,河池市,东仁乐园,,40,35,61,28,28,46,,106,67,14,12,4,5,0.6,0.6
2024-11-09T0000,2517A,108.0497,24.6947,河池市,市环保站,,46,46,49,32,33,38,,120,75,36,24,11,13,0.6,0.6
2024-11-09T0000,2518A,108.0983,24.6989,河池市,市疾控中心,颗粒物(PM10),66,81,65,33,36,10,,111,53,50,34,8,10,0.7,0.6
2024-11-09T0000,1696A,114.6778,23.7569,河源市,源西,,33,31,32,20,21,103,,103,99,14,16,10,12,0.5,0.5
2024-11-09T0000,1697A,114.6944,23.7586,河源市,东埔,,35,29,36,21,20,110,,114,108,14,15,7,9,0.5,0.5
2024-11-09T0000,1698A,114.6892,23.7233,河源市,老城,,34,29,33,16,18,106,,113,104,14,14,6,8,0.4,0.4
2024-11-09T0000,1718A,115.4208,35.2464,菏泽市,气象局,颗粒物(PM10),59,68,63,38,31,70,,106,86,27,23,5,4,0.4,0.4
2024-11-09T0000,1719A,115.4747,35.2375,菏泽市,市政协,颗粒物(PM10),57,64,62,38,32,60,,102,80,27,24,6,5,0.3,0.3
2024-11-09T0000,3374A,115.5564,35.0891,菏泽市,定陶老年大学,颗粒物(PM10),58,66,57,31,25,46,,92,64,42,28,10,6,0.2,0.2
2024-11-09T0000,3647A,115.4702,35.2706,菏泽市,菏泽医专,颗粒物(PM10),60,69,65,34,26,60,,99,76,37,31,10,8,0.4,0.4
2024-11-09T0000,2514A,111.5264,24.4172,贺州市,环保小区,细颗粒物(PM2.5),52,37,44,36,29,68,,133,88,18,20,6,7,0.5,0.5
2024-11-09T0000,2515A,111.5608,24.4078,贺州市,政协大楼,颗粒物(PM10),57,63,52,30,27,18,,138,71,56,25,7,7,0.6,0.6
2024-11-09T0000,3534A,111.4744,24.4553,贺州市,西湾,颗粒物(PM10),51,51,50,34,32,60,,129,89,26,22,8,8,0.6,0.6
2024-11-09T0000,2385A,114.17,35.9019,鹤壁市,市监测站,细颗粒物(PM2.5),65,68,75,47,43,21,,93,48,53,35,2,4,0.4,0.6
2024-11-09T0000,2386A,114.2956,35.7511,鹤壁市,市交警支队,颗粒物(PM10),73,96,81,49,39,25,,92,46,60,40,3,3,0.7,0.6
2024-11-09T0000,2387A,114.2878,35.7306,鹤壁市,迎宾馆,颗粒物(PM10),80,109,88,58,44,35,,97,58,56,45,2,3,0.6,0.6
2024-11-09T0000,3474A,114.2617,35.6822,鹤壁市,大新区,细颗粒物(PM2.5),77,71,73,56,51,1,,88,38,82,44,2,4,0.5,0.5
2024-11-09T0000,3596A,114.1572,35.9603,鹤壁市,南山宾馆,细颗粒物(PM2.5),68,84,73,49,51,48,,90,69,30,25,1,3,0.3,0.3
2024-11-09T0000,2244A,130.2537,47.3416,鹤岗市,哈啤分公司,,46,39,43,32,28,45,,35,26,8,20,12,15,0.6,0.7
2024-11-09T0000,2245A,130.2684,47.3086,鹤岗市,斯达机电,,40,36,38,28,25,44,,39,30,16,23,12,15,0.4,0.4
2024-11-09T0000,2246A,130.3114,47.3388,鹤岗市,东山纸板厂,颗粒物(PM10),76,101,170,38,39,9,,30,6,37,35,14,14,3.0,1.6
2024-11-09T0000,2247A,130.1097,47.3382,鹤岗市,五号水库,,20,20,19,6,9,43,,67,45,9,7,8,8,0.5,0.5
2024-11-09T0000,2263A,127.4833,50.2524,黑河市,交通局,细颗粒物(PM2.5),205,179,146,155,119,56,,60,48,17,31,7,8,0.8,0.8
2024-11-09T0000,2264A,127.5144,50.2341,黑河市,环保局,细颗粒物(PM2.5),200,177,130,150,111,54,,70,64,18,25,5,8,0.7,0.6
2024-11-09T0000,2265A,127.5291,50.2472,黑河市,大黑河岛,细颗粒物(PM2.5),221,194,149,171,132,32,,58,41,15,25,2,1,0.9,0.9
2024-11-09T0000,1074A,115.6838,37.7541,衡水市,电机北厂,颗粒物(PM10),61,71,62,41,37,51,,97,77,33,22,4,4,0.4,0.4
2024-11-09T0000,1075A,115.6303,37.7316,衡水市,市监测站,颗粒物(PM10),62,74,69,29,31,37,,92,66,52,33,3,4,0.4,0.4
2024-11-09T0000,3188A,115.6683,37.7217,衡水市,市城管局,颗粒物(PM10),54,57,62,37,35,45,,92,66,44,30,8,8,0.4,0.5
2024-11-09T0000,3459A,115.5989,37.5491,衡水市,地表水厂,颗粒物(PM10),64,77,71,43,40,6,,85,42,75,38,4,5,0.4,0.4
2024-11-09T0000,2456A,112.5003,26.9167,衡阳市,原169医院,颗粒物(PM10),61,71,53,41,32,63,,100,73,23,26,15,10,0.8,0.5
2024-11-09T0000,2457A,112.6194,26.9258,衡阳市,衡阳化工总厂,细颗粒物(PM2.5),65,65,53,47,36,75,,130,105,39,20,11,13,0.7,0.6
2024-11-09T0000,2458A,112.6211,26.8956,衡阳市,珠晖区环保局,细颗粒物(PM2.5),53,54,53,37,35,87,,130,109,27,23,16,14,0.8,0.7
2024-11-09T0000,2459A,112.6197,26.8733,衡阳市,市委党校,细颗粒物(PM2.5),65,64,47,47,29,55,,139,120,51,22,19,15,0.9,0.7
2024-11-09T0000,2460A,112.6006,26.8919,衡阳市,市监测站,细颗粒物(PM2.5),70,73,57,51,37,56,,140,111,56,25,12,15,0.9,0.7
2024-11-09T0000,2461A,112.5664,26.9056,衡阳市,真空机电公司,"颗粒物(PM10),细颗粒物(PM2.5)",63,76,49,45,36,64,,137,105,42,26,16,11,0.9,0.7
2024-11-09T0000,3399A,112.6703,26.882,衡阳市,师范学院,细颗粒物(PM2.5),63,68,54,45,32,88,,141,122,25,22,24,14,0.8,0.7
2024-11-09T0000,2608A,103.3772,23.3993,红河哈尼族彝族自治州,污水处理厂,细颗粒物(PM2.5),72,67,46,52,41,43,,94,55,17,11,25,12,0.7,0.6
2024-11-09T0000,2609A,103.3861,23.35,红河哈尼族彝族自治州,监测站,细颗粒物(PM2.5),74,64,55,54,43,42,,95,68,27,12,46,31,0.6,0.5
2024-11-09T0000,3038A,103.3758,23.368,红河哈尼族彝族自治州,州图书馆,"颗粒物(PM10),细颗粒物(PM2.5)",60,69,47,43,37,49,,89,64,17,10,46,35,0.7,0.6
2024-11-09T0000,1090A,111.6507,40.7517,呼和浩特市,呼市一监,细颗粒物(PM2.5),67,73,72,48,48,8,,81,26,79,59,9,10,0.9,1
2024-11-09T0000,1091A,111.6572,40.8033,呼和浩特市,小召,细颗粒物(PM2.5),67,68,73,48,50,12,,78,36,75,59,11,11,0.9,1
2024-11-09T0000,1094A,111.7516,40.8369,呼和浩特市,如意水处理厂,颗粒物(PM10),72,94,87,45,47,1,,63,16,68,60,8,9,0.9,0.9
2024-11-09T0000,1095A,111.7276,40.8062,呼和浩特市,二十九中,细颗粒物(PM2.5),67,67,78,48,50,8,,70,22,70,55,9,9,1.0,1.1
2024-11-09T0000,1096A,111.5512,40.7866,呼和浩特市,工大金川校区,颗粒物(PM10),73,96,89,50,54,17,,76,23,67,63,8,8,0.8,0.9
2024-11-09T0000,1097A,111.717,40.7612,呼和浩特市,化肥厂生活区,细颗粒物(PM2.5),78,90,85,57,52,38,,74,34,45,48,12,11,0.7,1
2024-11-09T0000,3698A,111.5968,40.8178,呼和浩特市,红旗小学,细颗粒物(PM2.5),74,78,92,54,58,2,,68,23,74,64,9,10,0.8,0.9
2024-11-09T0000,3699A,111.6518,40.8389,呼和浩特市,海东办,细颗粒物(PM2.5),92,102,89,68,59,4,,74,22,75,61,12,10,1.4,1.2
2024-11-09T0000,2192A,119.7594,49.2261,呼伦贝尔市,区环保局,,36,36,38,23,17,13,,32,14,35,28,6,6,0.4,0.4
2024-11-09T0000,3061A,119.7512,49.1577,呼伦贝尔市,国华电力东,,29,29,24,15,16,31,,41,22,11,16,3,4,0.2,0.2
2024-11-09T0000,1250A,120.0751,30.8669,湖州市,城西水厂,,41,41,36,20,18,60,,86,72,31,36,6,6,0.3,0.4
2024-11-09T0000,2873A,120.0875,30.8955,湖州市,仁皇山新区,,38,38,31,20,16,70,,92,71,25,37,5,6,0.5,0.4
2024-11-09T0000,2907A,120.1844,30.8596,湖州市,吴兴区站,,46,46,34,25,18,52,,78,63,29,33,8,7,0.6,0.5
2024-11-09T0000,3562A,120.4148,30.8538,湖州市,南浔区站,,50,50,36,22,18,51,,77,55,29,40,4,5,0.5,0.4
2024-11-09T0000,1607A,120.9092,40.7136,葫芦岛市,龙港区,细颗粒物(PM2.5),68,74,75,49,59,99,,106,101,14,24,12,14,0.7,0.8
2024-11-09T0000,1608A,120.8392,40.7514,葫芦岛市,化工街,颗粒物(PM10),64,78,114,44,63,81,,95,78,29,49,18,28,0.8,1
2024-11-09T0000,1609A,120.8341,40.7073,葫芦岛市,新区,细颗粒物(PM2.5),75,55,72,55,62,99,,106,99,20,45,13,16,0.8,1
2024-11-09T0000,1610A,120.8695,40.7677,葫芦岛市,东城区,细颗粒物(PM2.5),77,59,78,56,67,87,,96,80,28,53,13,18,0.8,1.1
2024-11-09T0000,2482A,109.5981,27.5721,怀化市,林科所,细颗粒物(PM2.5),54,48,42,38,30,76,,107,96,20,20,61,30,1.0,0.9
2024-11-09T0000,2483A,109.9453,27.5444,怀化市,河西地税局,颗粒物(PM10),53,56,57,36,36,35,,104,58,20,23,10,14,0.6,0.6
2024-11-09T0000,2484A,109.9781,27.5342,怀化市,市四医院,细颗粒物(PM2.5),58,64,72,41,41,53,,101,72,29,25,18,17,0.7,0.7
2024-11-09T0000,2485A,109.9972,27.5578,怀化市,监测楼,颗粒物(PM10),63,76,96,39,39,32,,102,55,45,32,8,14,0.6,0.6
2024-11-09T0000,2486A,110.0394,27.583,怀化市,市委党校,细颗粒物(PM2.5),62,60,70,44,41,34,,103,57,26,26,8,24,0.6,0.6
2024-11-09T0000,1210A,119.036,33.5981,淮安市,钵池山,,41,41,42,23,24,24,,87,48,51,37,5,5,0.6,0.5
2024-11-09T0000,1211A,119.007,33.575,淮安市,北京南路,颗粒物(PM10),51,51,45,26,23,26,,85,52,50,35,6,7,0.4,0.4
2024-11-09T0000,1212A,118.989,33.6067,淮安市,市监测站,,41,41,34,19,23,31,,86,61,52,31,8,8,0.7,0.6
2024-11-09T0000,1213A,119.135,33.5039,淮安市,楚州区监测站,细颗粒物(PM2.5),58,46,45,41,25,45,,80,47,38,37,6,7,0.5,0.5
2024-11-09T0000,1214A,119.0186,33.6297,淮安市,淮阴区监测站,,48,48,55,23,24,4,,81,40,84,50,5,5,0.6,0.7
2024-11-09T0000,3426A,118.8755,33.2894,淮安市,新华书店,,36,36,34,20,18,47,,84,54,39,37,5,5,0.4,0.5
2024-11-09T0000,2282A,116.8004,33.975,淮北市,监测站,,39,39,38,17,19,71,,84,67,15,19,2,2,0.5,0.5
2024-11-09T0000,2283A,116.8091,33.9007,淮北市,烈山区政府,,41,41,42,20,20,65,,90,77,24,21,2,2,0.3,0.2
2024-11-09T0000,3330A,116.8873,33.9836,淮北市,杜集区检察院,,48,48,41,20,16,74,,94,82,15,14,2,2,0.4,0.4
2024-11-09T0000,4017A,116.7923,33.9535,淮北市,市博物馆,,35,35,40,17,22,77,,94,80,17,18,5,5,0.4,0.5
2024-11-09T0000,2277A,116.8305,32.7727,淮南市,潘集区政府,,,,64,,36,61,,93,48,43,31,10,11,0.5,0.5
2024-11-09T0000,2278A,117.0067,32.6524,淮南市,师范学院,,44,44,56,19,27,63,,100,72,25,24,11,13,0.2,0.4
2024-11-09T0000,2279A,116.8569,32.5951,淮南市,谢家集区政府,,36,35,42,25,23,65,,90,68,19,24,9,10,0.4,0.4
2024-11-09T0000,2280A,116.8281,32.633,淮南市,八公山区政府,,48,48,49,25,24,60,,99,71,24,23,10,10,0.3,0.4
2024-11-09T0000,2281A,116.6325,32.6201,淮南市,焦岗湖风景区管理处,,48,48,34,22,19,54,,88,61,27,26,4,4,0.3,0.2
2024-11-09T0000,2894A,117.0566,32.6531,淮南市,经济技术开发区消防队,,48,48,53,19,24,47,,92,57,30,23,4,6,0.3,0.5
2024-11-09T0000,3329A,117.0108,32.5893,淮南市,山南新区,细颗粒物(PM2.5),57,59,48,40,25,70,,100,77,16,20,3,3,0.4,0.4
2024-11-09T0000,2446A,114.9028,30.4742,黄冈市,职工中心,细颗粒物(PM2.5),97,98,71,72,44,68,,102,75,30,30,14,13,0.7,0.6
2024-11-09T0000,2929A,114.8858,30.4519,黄冈市,红卫路,细颗粒物(PM2.5),74,75,63,54,42,76,,105,79,30,33,8,10,0.5,0.6
2024-11-09T0000,3398A,114.9136,30.4445,黄冈市,市林业局,细颗粒物(PM2.5),80,102,83,59,43,82,,111,86,32,34,10,12,0.6,0.6
2024-11-09T0000,2672A,102.0199,35.5102,黄南藏族自治州,同仁县隆务镇,,30,30,31,9,14,60,,78,67,2,7,5,8,0.4,0.4
2024-11-09T0000,2295A,118.2903,29.6963,黄山市,延安路89号,,29,29,36,10,16,17,,86,41,17,12,7,7,0.3,0.2
2024-11-09T0000,2296A,118.327,29.7178,黄山市,黄山东路89号,,38,38,35,13,15,38,,87,56,12,12,6,6,0.3,0.2
2024-11-09T0000,2297A,118.1371,30.2756,黄山市,黄山区政府5号楼,,36,34,34,25,21,20,,92,47,9,10,7,7,0.4,0.4
2024-11-09T0000,2423A,115.0601,30.2313,黄石市,沈家营,,47,47,48,25,28,97,,107,100,16,26,14,13,0.6,0.8
2024-11-09T0000,2424A,115.0817,30.2006,黄石市,陈家湾,颗粒物(PM10),52,53,39,29,25,102,,118,111,17,18,12,9,0.6,0.5
2024-11-09T0000,2426A,114.8988,30.2019,黄石市,铁山,颗粒物(PM10),52,53,44,30,28,113,,115,104,14,20,6,7,0.5,0.7
2024-11-09T0000,2427A,115.0307,30.2092,黄石市,团城山,颗粒物(PM10),51,52,40,34,18,101,,117,110,20,18,10,7,0.6,0.5
2024-11-09T0000,3149A,115.0235,30.1578,黄石市,笔架山北路,颗粒物(PM10),51,52,43,28,24,96,,114,99,24,25,7,9,0.6,0.6
2024-11-09T0000,1392A,114.4183,23.0528,惠州市,河南岸金山湖子站,,37,37,37,21,21,89,,112,94,15,11,11,10,0.6,0.7
2024-11-09T0000,1393A,114.4053,23.0822,惠州市,下埔横江三路子站,,37,37,36,21,20,91,,114,96,15,13,10,9,0.5,0.4
2024-11-09T0000,1394A,114.4103,23.1142,惠州市,江北云山西路子站,,35,35,35,18,20,100,,122,105,12,12,11,10,0.5,0.5
2024-11-09T0000,1395A,114.4645,22.7833,惠州市,惠阳区承修路船湖子站,颗粒物(PM10),51,52,42,26,19,69,,110,87,16,14,13,11,0.5,0.4
2024-11-09T0000,1396A,114.5317,22.7422,惠州市,大亚湾管委会子站,,32,32,35,19,17,92,,113,96,10,15,6,5,0.5,0.4
2024-11-09T0000,3314A,114.4338,22.8134,惠州市,惠阳秋长,,29,27,28,20,17,88,,115,99,14,13,9,9,0.5,0.4
2024-11-09T0000,3452A,114.6517,22.775,惠州市,大亚湾霞涌,,33,33,33,18,20,76,,105,89,11,10,9,9,0.3,0.4
2024-11-09T0000,2240A,130.9762,45.3001,鸡西市,环保局,细颗粒物(PM2.5),185,216,103,139,59,2,,33,5,61,39,11,10,1.6,0.9
2024-11-09T0000,2243A,130.9429,45.3039,鸡西市,第一中学,细颗粒物(PM2.5),104,138,88,78,48,2,,39,5,73,43,16,10,0.9,0.6
2024-11-09T0000,3707A,131.0207,45.3073,鸡西市,欧美日汽修厂,细颗粒物(PM2.5),169,180,132,128,81,4,,30,8,46,41,21,21,1.4,1.1
2024-11-09T0000,3709A,130.9967,45.3106,鸡西市,市政设施管理处,细颗粒物(PM2.5),130,208,117,99,67,2,,26,4,49,45,14,14,1.4,0.9
2024-11-09T0000,2367A,114.9754,27.0803,吉安市,红声器材厂,颗粒物(PM10),51,52,52,27,27,60,,124,106,43,30,14,16,0.5,0.5
2024-11-09T0000,2368A,114.9658,27.0999,吉安市,市森林工业局,,47,47,46,25,25,77,,124,109,28,22,16,18,0.6,0.5
2024-11-09T0000,2369A,114.99,27.1312,吉安市,市环境监测站,颗粒物(PM10),51,51,45,25,25,74,,127,110,40,30,15,18,0.4,0.4
2024-11-09T0000,2370A,115.0093,27.0968,吉安市,青原区法院,,48,48,50,28,27,52,,127,100,53,31,14,15,0.5,0.5
2024-11-09T0000,1772A,126.54,43.8622,吉林市,哈达湾,细颗粒物(PM2.5),97,100,61,72,48,29,,76,40,49,35,7,8,1.1,0.8
2024-11-09T0000,1773A,126.5844,43.8358,吉林市,东局子,细颗粒物(PM2.5),58,60,50,41,33,51,,73,49,22,24,5,6,0.7,0.7
2024-11-09T0000,1774A,126.5052,43.8245,吉林市,电力学院,细颗粒物(PM2.5),139,138,91,106,70,6,,65,17,49,42,8,10,1.7,1.2
2024-11-09T0000,1775A,126.6133,43.8972,吉林市,江北,细颗粒物(PM2.5),72,78,71,52,43,38,,69,39,21,27,9,11,1.0,0.9
2024-11-09T0000,1776A,126.555,43.8306,吉林市,江南公园,细颗粒物(PM2.5),67,67,63,48,47,45,,71,44,23,26,8,10,0.8,0.7
2024-11-09T0000,1778A,126.7061,43.7133,吉林市,丰满,细颗粒物(PM2.5),57,49,32,40,30,49,,71,59,10,8,7,8,0.9,0.6
2024-11-09T0000,2868A,126.4739,43.953,吉林市,九站,细颗粒物(PM2.5),92,90,80,68,56,38,,61,36,32,42,13,12,0.8,0.9
2024-11-09T0000,1299A,116.9862,36.6114,济南市,科干所,颗粒物(PM10),57,63,50,29,24,78,,104,81,34,30,8,8,0.7,0.7
2024-11-09T0000,1300A,116.9376,36.665,济南市,农科所,颗粒物(PM10),72,93,69,44,25,11,,92,29,94,54,6,6,0.9,0.8
2024-11-09T0000,1301A,117.1265,36.6734,济南市,开发区,颗粒物(PM10),67,83,53,42,28,13,,106,41,84,49,5,6,0.8,0.6
2024-11-09T0000,1303A,117.0624,36.6868,济南市,省种子仓库,颗粒物(PM10),70,90,77,46,32,6,,97,33,88,57,5,5,0.9,0.7
2024-11-09T0000,1304A,116.9489,36.6447,济南市,机床二厂,颗粒物(PM10),74,98,87,44,33,10,,95,29,94,55,7,6,0.9,0.7
2024-11-09T0000,1305A,117.0495,36.663,济南市,市监测站,颗粒物(PM10),64,78,59,42,28,12,,108,38,96,63,5,5,0.6,0.6
2024-11-09T0000,1306A,116.7675,36.5484,济南市,长清党校,颗粒物(PM10),63,76,48,39,28,61,,104,73,60,37,7,8,0.8,0.7
2024-11-09T0000,1616A,117.6795,36.229,济南市,技术学院,颗粒物(PM10),56,61,59,39,35,62,,91,59,34,45,9,8,1.0,0.9
2024-11-09T0000,1961A,117.532,36.6868,济南市,东山小学,颗粒物(PM10),59,68,60,34,29,65,,94,62,34,36,7,8,0.8,0.9
2024-11-09T0000,3059A,117.7161,36.2049,济南市,泰兴公司,细颗粒物(PM2.5),64,70,66,46,37,40,,92,33,52,59,10,10,0.5,0.5
2024-11-09T0000,3064A,117.6867,36.2171,济南市,莱芜战役纪念馆,颗粒物(PM10),56,61,65,31,33,79,,92,59,26,53,8,6,0.7,0.7
2024-11-09T0000,3494A,117.1673,36.9782,济南市,济阳区政府,颗粒物(PM10),80,110,81,56,39,15,,69,39,84,53,7,8,0.6,0.5
2024-11-09T0000,3495A,117.1171,36.63,济南市,锦屏中学,,49,46,36,34,23,68,,110,69,33,30,5,5,0.5,0.5
2024-11-09T0000,3682A,116.9814,36.6819,济南市,济南四建,颗粒物(PM10),73,95,72,49,32,6,,92,25,92,63,5,5,1.0,0.7
2024-11-09T0000,1653A,116.6251,35.4302,济宁市,火炬城,细颗粒物(PM2.5),67,63,47,48,32,64,,93,81,32,27,12,10,0.8,0.7
2024-11-09T0000,1655A,116.5491,35.4042,济宁市,电化厂,颗粒物(PM10),64,77,57,36,24,63,,92,84,32,27,12,8,0.8,0.7
2024-11-09T0000,3500A,116.5814,35.3707,济宁市,北湖一中,细颗粒物(PM2.5),67,57,43,48,27,65,,95,85,30,25,11,5,0.5,0.6
2024-11-09T0000,3501A,116.8249,35.5593,济宁市,服务中心,颗粒物(PM10),64,77,62,36,27,34,,91,60,56,34,13,10,0.7,0.7
2024-11-09T0000,3678A,116.5907,35.4054,济宁市,市第七中学,细颗粒物(PM2.5),67,81,53,48,28,58,,95,82,40,28,12,5,0.7,0.6
2024-11-09T0000,2255A,130.2751,46.8028,佳木斯市,佳纺,细颗粒物(PM2.5),139,125,68,106,47,11,,44,15,49,40,8,8,1.4,1
2024-11-09T0000,2256A,130.3995,46.8307,佳木斯市,发电厂,细颗粒物(PM2.5),98,77,42,73,35,4,,40,13,65,37,8,6,1.1,0.6
2024-11-09T0000,2257A,130.3258,46.7975,佳木斯市,环保局,细颗粒物(PM2.5),102,102,57,76,38,6,,41,10,60,44,14,11,1.2,0.8
2024-11-09T0000,2258A,130.3648,46.8032,佳木斯市,十一中,细颗粒物(PM2.5),153,126,55,117,43,13,,41,13,56,45,8,7,1.3,0.8
2024-11-09T0000,2259A,130.3794,46.7588,佳木斯市,四丰,,,,,,,58,,66,60,,,1,1,0.2,0.2
2024-11-09T0000,1252A,120.7436,30.778,嘉兴市,清河小学,,30,30,31,13,12,58,,71,58,30,39,8,8,0.1,0.2
2024-11-09T0000,1253A,120.726,30.7478,嘉兴市,嘉兴学院,,34,34,31,16,14,56,,71,60,29,36,5,5,0.5,0.5
2024-11-09T0000,2872A,120.7846,30.7525,嘉兴市,南湖区残联,,36,36,32,20,15,42,,78,54,44,40,6,6,0.4,0.3
2024-11-09T0000,3407A,120.6916,30.7739,嘉兴市,秀洲住建,,37,37,29,16,14,43,,73,53,30,34,8,8,0.4,0.3
2024-11-09T0000,1945A,98.2908,39.7711,嘉峪关市,气象局,颗粒物(PM10),119,188,92,41,24,88,,109,94,9,22,5,9,0.2,0.3
2024-11-09T0000,2884A,98.2672,39.7978,嘉峪关市,酒钢宾馆,颗粒物(PM10),120,190,99,46,24,88,,105,97,11,23,12,21,0.4,0.7
2024-11-09T0000,3248A,98.2643,39.7724,嘉峪关市,雄关区,颗粒物(PM10),104,158,83,33,23,83,,110,92,17,31,8,9,0.4,0.4
2024-11-09T0000,1383A,113.1064,22.6058,江门市,北街,颗粒物(PM10),52,53,50,29,25,69,,158,114,50,37,13,9,0.7,0.6
2024-11-09T0000,1384A,113.0731,22.5835,江门市,西区,,50,50,55,32,23,75,,157,118,36,33,14,10,0.5,0.4
2024-11-09T0000,1385A,113.0219,22.5311,江门市,圭峰西,,36,36,44,25,24,92,,164,137,30,30,9,6,0.4,0.4
2024-11-09T0000,1386A,113.0828,22.5947,江门市,东湖,,50,50,47,26,24,79,,157,120,34,32,12,9,0.6,0.5
2024-11-09T0000,3311A,113.1075,22.5647,江门市,江海富民,颗粒物(PM10),54,58,54,23,24,72,,160,118,46,38,13,9,0.6,0.5
2024-11-09T0000,3449A,113.05,22.4667,江门市,新会银湖,,44,44,49,27,26,85,,160,120,37,42,13,8,0.5,0.4
2024-11-09T0000,1828A,113.227,35.2125,焦作市,市环保局,颗粒物(PM10),70,89,93,47,57,78,,86,82,27,31,5,5,0.3,0.4
2024-11-09T0000,1830A,113.1992,35.2590,焦作市,影视城,细颗粒物(PM2.5),58,57,70,41,54,105,,105,105,11,16,8,9,0.5,0.7
2024-11-09T0000,3169A,113.2725,35.2067,焦作市,太极体育中心,颗粒物(PM10),62,74,89,42,55,69,,80,74,26,31,7,6,0.5,0.6
2024-11-09T0000,3335A,113.3137,35.2641,焦作市,马村街道办,细颗粒物(PM2.5),69,82,84,50,55,70,,83,73,28,28,7,6,0.3,0.4
2024-11-09T0000,3336A,113.2465,35.2373,焦作市,焦作技师学院,颗粒物(PM10),65,80,88,36,49,79,,86,82,25,27,6,6,0.6,0.6
2024-11-09T0000,3477A,113.1656,35.2539,焦作市,中站许衡医院,颗粒物(PM10),56,62,80,38,48,94,,93,93,15,19,5,7,0.4,0.5
2024-11-09T0000,3981A,113.2449,35.1803,焦作市,原李万街道办,颗粒物(PM10),66,82,106,46,51,71,,86,78,25,31,14,12,0.6,0.6
2024-11-09T0000,1708A,116.3701,23.5345,揭阳市,新兴,,33,33,39,21,22,79,,106,93,22,22,9,9,0.5,0.5
2024-11-09T0000,1709A,116.3264,23.5443,揭阳市,西马,,37,37,39,20,19,86,,107,99,16,18,9,9,0.6,0.6
2024-11-09T0000,1710A,116.3611,23.5626,揭阳市,东兴,,37,37,44,18,19,78,,102,94,22,24,14,10,0.7,0.7
2024-11-09T0000,1711A,116.4151,23.5294,揭阳市,渔湖,,36,36,45,15,23,75,,110,95,23,27,9,10,0.5,0.6
2024-11-09T0000,3320A,116.403,23.5699,揭阳市,曲溪,,33,33,38,20,20,77,,108,97,24,22,12,10,0.6,0.6
2024-11-09T0000,1944A,102.1692,38.5167,金昌市,天庆家园,颗粒物(PM10),125,200,115,39,64,103,,86,84,7,25,10,12,0.5,0.8
2024-11-09T0000,3170A,102.1864,38.5253,金昌市,市委党校,颗粒物(PM10),71,92,132,33,71,107,,91,91,8,24,9,10,0.5,0.8
2024-11-09T0000,4022A,102.1647,38.5371,金昌市,金川区人防中心,颗粒物(PM10),157,263,138,38,73,103,,88,88,6,18,11,14,0.7,0.8
2024-11-09T0000,1262A,119.647,29.077,金华市,十五中,颗粒物(PM10),55,59,49,30,23,29,,99,59,55,40,4,4,0.6,0.5
2024-11-09T0000,1263A,119.686,29.1029,金华市,监测站,颗粒物(PM10),56,61,49,30,24,25,,96,50,54,40,4,4,0.4,0.3
2024-11-09T0000,3659A,119.656,29.1131,金华市,气象局,,50,50,54,25,26,28,,97,57,57,45,4,5,0.4,0.5
2024-11-09T0000,1767A,121.1115,41.0879,锦州市,南山,细颗粒物(PM2.5),98,,79,73,76,55,,92,63,43,55,14,17,0.7,1
2024-11-09T0000,1768A,121.0533,40.8434,锦州市,开发区,细颗粒物(PM2.5),94,,100,70,77,47,,72,57,67,83,23,21,0.9,1.1
2024-11-09T0000,1769A,121.1836,41.1119,锦州市,百股街道,细颗粒物(PM2.5),64,47,61,46,56,73,,96,80,30,45,15,17,0.9,1.1
2024-11-09T0000,1770A,121.1178,41.1222,锦州市,天安街道,细颗粒物(PM2.5),102,,97,76,81,54,,89,66,40,51,12,18,1.0,1.3
2024-11-09T0000,1771A,121.1303,41.1386,锦州市,北湖公园,细颗粒物(PM2.5),97,,86,72,77,54,,90,68,41,48,12,17,0.9,1.2
2024-11-09T0000,2160A,112.85,35.5051,晋城市,自来水公司,颗粒物(PM10),52,53,77,31,47,109,,124,115,24,39,6,7,0.5,0.7
2024-11-09T0000,2161A,112.8318,35.4936,晋城市,白云商贸,颗粒物(PM10),62,73,86,29,47,113,,127,119,21,37,5,5,0.6,0.7
2024-11-09T0000,2162A,112.8508,35.4887,晋城市,市环保局,颗粒物(PM10),61,71,84,27,46,106,,122,113,18,38,6,6,0.6,0.8
2024-11-09T0000,2163A,112.8676,35.4897,晋城市,技术学院,颗粒物(PM10),54,58,79,22,39,107,,119,111,24,47,5,6,0.7,0.9
2024-11-09T0000,2165A,112.8453,35.546,晋城市,白马寺,颗粒物(PM10),54,57,70,27,42,106,,122,114,19,22,10,11,0.6,0.7
2024-11-09T0000,3620A,112.8271,35.4828,晋城市,泽州一中,细颗粒物(PM2.5),55,53,87,39,50,100,,115,105,19,34,5,6,0.7,0.9
2024-11-09T0000,2171A,112.7532,37.6945,晋中市,锦纶小区,细颗粒物(PM2.5),185,185,125,139,85,57,,119,92,43,39,10,9,1.0,0.7
2024-11-09T0000,2173A,112.7249,37.7067,晋中市,南都小区,细颗粒物(PM2.5),145,171,131,111,81,56,,118,89,37,41,8,7,0.9,0.8
2024-11-09T0000,2174A,112.6991,37.6982,晋中市,榆次区政府,细颗粒物(PM2.5),135,171,130,103,70,55,,120,92,43,43,10,10,0.9,0.8
2024-11-09T0000,2865A,112.7195,37.6828,晋中市,榆次三中,细颗粒物(PM2.5),185,188,134,139,84,56,,114,89,37,40,11,11,1.1,1
2024-11-09T0000,2439A,112.2014,31.0481,荆门市,竹园小学,细颗粒物(PM2.5),137,145,98,104,63,67,,104,75,33,40,14,18,0.9,0.9
2024-11-09T0000,2440A,112.1969,30.9891,荆门市,掇刀,细颗粒物(PM2.5),144,157,102,110,68,30,,105,66,72,46,11,16,0.8,0.7
2024-11-09T0000,2441A,112.2213,31.0386,荆门市,石化一小,细颗粒物(PM2.5),134,155,112,102,67,58,,103,68,43,50,15,18,0.7,0.8
2024-11-09T0000,3012A,112.1849,31.0362,荆门市,西山林语,细颗粒物(PM2.5),118,128,78,89,54,63,,105,74,33,36,9,11,0.6,0.6
2024-11-09T0000,3547A,112.1632,31.0138,荆门市,龙泉中学南校,细颗粒物(PM2.5),139,146,97,106,60,52,,107,60,44,41,16,15,0.7,0.6
2024-11-09T0000,1844A,112.2494,30.3197,荆州市,市图书馆,"颗粒物(PM10),细颗粒物(PM2.5)",73,95,77,53,55,10,,91,48,92,56,6,12,1.1,0.9
2024-11-09T0000,1845A,112.2008,30.3544,荆州市,市委党校,细颗粒物(PM2.5),75,80,73,55,55,5,,90,42,88,53,7,10,1.2,0.9
2024-11-09T0000,3194A,112.2747,30.3122,荆州市,管委会,细颗粒物(PM2.5),89,116,75,66,57,5,,97,46,102,57,12,15,1.2,0.9
2024-11-09T0000,3548A,112.1655,30.3364,荆州市,学苑路,细颗粒物(PM2.5),95,110,89,71,63,25,,98,60,73,46,11,13,1.1,0.9
2024-11-09T0000,2342A,117.3102,29.3867,景德镇市,王港中学,,,,,,,,,,,,,,,,
2024-11-09T0000,2343A,117.2117,29.2933,景德镇市,老干部活动中心,,42,42,32,25,19,18,,91,45,27,19,6,6,0.3,0.2
2024-11-09T0000,2344A,117.1894,29.2789,景德镇市,兽医站,,41,41,40,20,16,28,,90,50,23,14,6,6,0.3,0.3
2024-11-09T0000,2345A,117.1547,29.2617,景德镇市,台达陶瓷,,40,40,33,20,17,26,,83,41,25,18,10,9,0.4,0.4
2024-11-09T0000,2346A,117.2461,29.2956,景德镇市,陶研所,,32,32,29,18,15,14,,84,41,26,19,6,6,0.3,0.2
2024-11-09T0000,1803A,115.9872,29.6815,九江市,十里,细颗粒物(PM2.5),60,68,56,43,37,77,,103,86,25,30,8,9,0.6,0.6
2024-11-09T0000,1804A,115.9584,29.7046,九江市,茅山头,,45,45,46,25,28,86,,99,89,18,24,10,9,0.6,0.6
2024-11-09T0000,1805A,115.9877,29.7295,九江市,西园,颗粒物(PM10),51,51,47,23,28,89,,111,96,21,23,8,9,0.5,0.4
2024-11-09T0000,1806A,116.0172,29.6547,九江市,五七二七厂,颗粒物(PM10),52,54,53,34,33,89,,100,92,19,23,10,12,0.7,0.7
2024-11-09T0000,1808A,115.9114,29.6038,九江市,综合工业园,细颗粒物(PM2.5),62,61,52,44,42,84,,100,83,31,41,13,15,0.5,0.6
2024-11-09T0000,1809A,116.0721,29.7535,九江市,石化总厂,颗粒物(PM10),57,64,56,37,34,78,,101,85,27,32,9,10,0.7,0.7
2024-11-09T0000,1810A,115.9773,29.5698,九江市,庐山气象台,,33,,4,7,5,103,,112,105,2,2,6,7,0.8,0.8
2024-11-09T0000,3190A,116.0254,29.6994,九江市,外国语学校,颗粒物(PM10),55,60,58,38,35,67,,96,78,27,30,14,13,0.5,0.5
2024-11-09T0000,2658A,98.5061,39.7443,酒泉市,仓门街子站,颗粒物(PM10),130,210,85,39,29,74,,102,89,15,21,5,7,0.3,0.4
2024-11-09T0000,2659A,98.4989,39.7256,酒泉市,油田生活基地,颗粒物(PM10),124,197,91,40,35,71,,98,82,15,24,4,6,0.4,0.4
2024-11-09T0000,2698A,76.0072,39.4467,喀什地区,巡警大队,颗粒物(PM10),133,216,178,48,49,15,,70,50,93,59,9,8,2.0,1.7
2024-11-09T0000,2699A,75.9755,39.4694,喀什地区,吾办,细颗粒物(PM2.5),158,249,172,120,63,0,,65,39,97,59,5,5,2.9,1.9
2024-11-09T0000,4027A,75.9483,39.4689,喀什地区,老干局,颗粒物(PM10),184,317,189,64,42,7,,79,51,96,58,4,4,2.5,1.8
2024-11-09T0000,1824A,114.3389,34.7781,开封市,肿瘤医院,细颗粒物(PM2.5),62,59,66,44,48,52,,99,77,29,26,5,6,0.4,0.5
2024-11-09T0000,1826A,114.2885,34.7965,开封市,世纪星幼儿园,细颗粒物(PM2.5),62,59,64,44,41,62,,110,87,27,25,2,2,0.4,0.4
2024-11-09T0000,3147A,114.3438,34.8106,开封市,龙亭公园,细颗粒物(PM2.5),52,51,61,36,40,61,,106,83,22,23,3,3,0.7,0.7
2024-11-09T0000,3210A,114.3644,34.7964,开封市,汴京公园,细颗粒物(PM2.5),57,62,67,40,42,60,,100,79,22,24,4,5,0.4,0.4
2024-11-09T0000,3473A,114.2485,34.8306,开封市,技师学院,细颗粒物(PM2.5),54,56,64,38,39,66,,105,88,20,21,5,4,0.5,0.5
2024-11-09T0000,3592A,114.4644,34.7556,开封市,祥符区生态环境局,颗粒物(PM10),61,71,77,36,42,40,,98,62,37,32,3,4,0.5,0.5
2024-11-09T0000,1951A,84.895,45.6094,克拉玛依市,长征新村,,15,6,7,3,5,48,,54,47,6,7,5,5,0.2,0.2
2024-11-09T0000,1952A,84.8988,45.5893,克拉玛依市,南林小区,,19,,7,13,7,50,,55,46,8,9,3,3,0.2,0.2
2024-11-09T0000,1954A,84.905,44.3396,克拉玛依市,独山子区,,25,18,13,17,7,41,,55,40,10,10,8,8,0.3,0.3
2024-11-09T0000,1955A,85.6979,46.098,克拉玛依市,乌尔禾区商贸楼,,15,15,19,7,7,30,,63,48,21,8,3,3,0.3,0.4
2024-11-09T0000,3612A,85.1045,45.6899,克拉玛依市,白碱滩区新站,,20,10,8,3,6,61,,52,48,6,19,8,8,0,0
2024-11-09T0000,2697A,76.1454,39.7142,克孜勒苏柯尔克孜自治州,市人民政府,颗粒物(PM10),59,68,79,30,29,72,,97,73,18,16,42,14,0.5,0.4
2024-11-09T0000,3665A,76.1658,39.7157,克孜勒苏柯尔克孜自治州,克州文化中心,,50,50,77,23,30,73,,98,76,28,27,33,20,0.5,0.6
2024-11-09T0000,1450A,102.8204,24.8886,昆明市,呈贡新区,,17,17,21,10,13,42,,61,43,22,21,8,5,0.8,0.8
2024-11-09T0000,1451A,102.6251,24.9608,昆明市,西山森林公园,,,,,,,,,,,,,,,,
2024-11-09T0000,1452A,102.7252,25.0902,昆明市,龙泉镇,,22,15,17,14,12,8,,50,30,44,24,6,6,0.9,0.9
2024-11-09T0000,1453A,102.7266,25.0375,昆明市,东风东路,,19,,14,13,13,41,,53,40,20,23,7,7,0.8,0.8
2024-11-09T0000,1454A,102.6742,25.0669,昆明市,金鼎山,,26,,20,18,10,31,,56,48,30,24,2,2,0.8,0.8
2024-11-09T0000,1455A,102.6644,25.0401,昆明市,碧鸡广场,,19,18,13,13,11,19,,59,43,38,26,5,4,0.7,0.7
2024-11-09T0000,3179A,102.7494,25.0119,昆明市,官渡区博物馆,,19,,17,13,12,24,,56,36,22,31,6,6,0.7,0.7
2024-11-09T0000,3375A,102.8017,24.8336,昆明市,青年创业园,,18,16,14,12,13,9,,73,40,36,15,5,4,0.7,0.6
2024-11-09T0000,3550A,102.7997,24.9786,昆明市,昆明学院,,22,17,21,15,17,20,,58,28,37,33,6,6,0.8,0.7
2024-11-09T0000,3551A,102.5967,24.6736,昆明市,晋宁区生态环境分局,,25,20,21,17,19,38,,64,51,18,16,2,1,0.4,0.4
2024-11-09T0000,3552A,102.6678,24.9856,昆明市,云天化总部,,17,13,14,10,12,24,,70,54,34,19,5,4,0.5,0.6
2024-11-09T0000,1456A,91.1319,29.6514,拉萨市,八廓街,,50,50,21,31,13,23,,96,48,68,28,9,10,0.9,0.4
2024-11-09T0000,1457A,91.1221,29.6747,拉萨市,市环保局,颗粒物(PM10),65,79,38,46,16,15,,96,61,50,24,10,10,1.4,0.4
2024-11-09T0000,1458A,91.0874,29.6475,拉萨市,区监测站,,38,37,18,21,10,8,,88,48,76,33,6,8,1.1,0.6
2024-11-09T0000,1459A,91.1774,29.6541,拉萨市,西藏大学,,32,32,20,11,7,43,,90,66,35,13,6,8,0.2,0.4
2024-11-09T0000,1460A,90.9798,29.6588,拉萨市,区辐射站,,20,16,21,14,11,46,,84,67,35,28,9,9,0.5,0.4
2024-11-09T0000,1461A,91.0834,29.6292,拉萨市,拉萨火车站,,24,24,15,10,9,43,,84,64,35,28,6,7,0.8,0.6
2024-11-09T0000,2520A,109.2203,23.7256,来宾市,来宾技工学校,颗粒物(PM10),61,72,66,40,35,70,,163,110,24,28,6,16,1.0,0.9
2024-11-09T0000,3535A,109.1781,23.7297,来宾市,兴宾区政府,颗粒物(PM10),58,66,51,40,33,92,,158,119,13,13,7,7,0.8,0.9
2024-11-09T0000,4002A,109.2416,23.7461,来宾市,中南小学,颗粒物(PM10),64,78,65,31,32,7,,157,75,86,36,12,8,0.9,0.8
2024-11-09T0000,1476A,103.631,36.1031,兰州市,兰炼宾馆,细颗粒物(PM2.5),107,125,113,80,69,9,,80,28,92,69,12,16,1.3,1.1
2024-11-09T0000,1477A,104.1373,35.9454,兰州市,榆中兰大校区,,,,,,,,,,,,,,,,
2024-11-09T0000,1478A,103.8412,36.0726,兰州市,生物制品所,细颗粒物(PM2.5),54,51,74,38,43,12,,43,15,46,61,9,12,0.6,0.9
2024-11-09T0000,1479A,103.831,36.0464,兰州市,铁路设计院,细颗粒物(PM2.5),75,79,77,55,54,3,,35,11,80,72,9,10,1.5,1.3
2024-11-09T0000,3186A,103.7158,36.1058,兰州市,教育港,颗粒物(PM10),86,121,107,63,61,1,,63,18,78,66,12,13,1.5,1.1
2024-11-09T0000,3241A,103.7439,36.0842,兰州市,百合公园,细颗粒物(PM2.5),103,136,83,77,34,4,,50,18,70,57,14,9,2.0,1.2
2024-11-09T0000,3242A,103.9611,35.998,兰州市,和平,,40,40,48,27,28,31,,65,28,22,34,10,10,0.6,0.6
2024-11-09T0000,3245A,103.6633,36.533,兰州新区,新区管委会,颗粒物(PM10),75,100,91,47,57,5,,85,37,63,46,11,15,1.0,1
2024-11-09T0000,3246A,103.6975,36.4789,兰州新区,舟曲中学,细颗粒物(PM2.5),92,126,92,68,58,5,,82,38,82,53,29,17,1.1,0.9
2024-11-09T0000,1067A,116.6708,39.5111,廊坊市,药材公司,细颗粒物(PM2.5),134,128,141,102,106,6,,76,46,64,51,3,6,1.1,1.2
2024-11-09T0000,1068A,116.7214,39.5589,廊坊市,开发区,细颗粒物(PM2.5),100,106,138,75,93,0,,67,21,63,66,2,4,0.8,0.9
2024-11-09T0000,1070A,116.7244,39.5269,廊坊市,北华航天学院,细颗粒物(PM2.5),150,152,155,115,105,2,,67,21,51,58,5,7,1.3,1
2024-11-09T0000,2919A,116.7022,39.5453,廊坊市,河北工业大学,细颗粒物(PM2.5),110,123,152,83,108,2,,72,31,79,67,4,7,1.1,1
2024-11-09T0000,2535A,103.7723,29.5462,乐山市,花湖湾,细颗粒物(PM2.5),67,59,56,48,44,5,,44,27,22,16,5,4,0.9,0.8
2024-11-09T0000,2536A,103.7627,29.5844,乐山市,牛耳桥,细颗粒物(PM2.5),64,55,54,46,47,14,,39,22,20,23,4,4,0.7,0.7
2024-11-09T0000,2537A,103.7508,29.6006,乐山市,市第三水厂,细颗粒物(PM2.5),67,56,53,48,45,14,,46,28,26,26,4,4,1.0,0.9
2024-11-09T0000,2538A,103.7571,29.5664,乐山市,市监测站,细颗粒物(PM2.5),64,55,54,46,45,16,,42,28,19,19,4,4,0.7,0.7
2024-11-09T0000,3361A,103.7311,29.5628,乐山市,理工大学,细颗粒物(PM2.5),68,55,52,49,48,16,,44,25,23,20,4,4,0.9,0.8
2024-11-09T0000,2598A,100.2143,26.8576,丽江市,西南郊,,20,20,7,6,4,35,,63,47,18,14,5,5,1.2,1.1
2024-11-09T0000,2599A,100.2497,26.8802,丽江市,丽江古城,,22,22,13,13,10,44,,60,49,10,9,9,9,0.5,0.6
2024-11-09T0000,2600A,100.2203,26.8906,丽江市,市中心,,22,,8,15,9,40,,57,49,13,9,7,7,0.6,0.6
2024-11-09T0000,1267A,119.914,28.4514,丽水市,监测站大楼,细颗粒物(PM2.5),60,,33,43,24,39,,95,71,30,21,8,8,0.3,0.3
2024-11-09T0000,1268A,119.93,28.4586,丽水市,莲都小学,颗粒物(PM10),51,51,40,27,18,38,,96,77,32,25,7,5,0.4,0.3
2024-11-09T0000,1269A,119.879,28.4231,丽水市,余庄前,,30,30,29,18,18,14,,87,39,20,16,5,5,0.2,0.2
2024-11-09T0000,1173A,119.176,34.5885,连云港市,市环境监测站,,29,17,37,12,17,92,,106,92,12,20,8,8,0.5,0.1
2024-11-09T0000,3000A,119.3581,34.6972,连云港市,德源药业,颗粒物(PM10),80,110,55,19,18,1,,96,42,90,39,5,6,0.2,0.2
2024-11-09T0000,3007A,119.178,34.844,连云港市,新城一中,,45,31,41,10,19,9,,94,54,89,39,6,7,0.4,0.5
2024-11-09T0000,3008A,119.3608,34.7519,连云港市,胡沟管理处,,30,17,23,7,9,94,,88,88,11,14,8,10,0.2,0.3
2024-11-09T0000,3009A,119.1478,34.5911,连云港市,矿山设计院,,25,24,36,9,19,77,,105,82,21,22,6,7,0.5,0.5
2024-11-09T0000,3434A,119.2413,34.6539,连云港市,工贸学校,,30,14,25,7,13,94,,108,92,10,12,7,8,0.4,0.4
2024-11-09T0000,3664A,119.4172,34.7341,连云港市,连云街道,,33,11,21,6,11,103,,104,100,7,9,6,6,0.4,0.4
2024-11-09T0000,2571A,102.3431,27.8099,凉山彝族自治州,青龙寺,,8,8,8,3,4,18,,50,28,5,5,3,3,0.6,0.6
2024-11-09T0000,2572A,102.2721,27.8415,凉山彝族自治州,邛海宾馆,,15,15,14,10,12,22,,52,33,16,13,7,8,0.8,0.9
2024-11-09T0000,2573A,102.2625,27.898,凉山彝族自治州,西昌市政府,,17,17,19,10,16,29,,44,32,10,19,8,10,0.8,1
2024-11-09T0000,2574A,102.2685,27.8851,凉山彝族自治州,凉山州政府,,15,13,18,10,15,31,,48,37,15,19,11,11,1.0,1.2
2024-11-09T0000,2575A,102.237,27.8914,凉山彝族自治州,长安,,29,29,28,14,14,16,,39,25,26,28,9,12,0.8,0.8
2024-11-09T0000,2212A,123.2,41.1953,辽阳市,宏伟区,,45,,36,31,30,88,,88,81,10,13,7,8,0.4,0.5
2024-11-09T0000,2213A,123.1683,41.2495,辽阳市,新华园,细颗粒物(PM2.5),54,,38,38,34,78,,82,71,16,19,8,7,0.5,0.5
2024-11-09T0000,2214A,123.2354,41.2639,辽阳市,滨河路,,43,,34,30,33,83,,80,70,12,17,10,11,0.5,0.5
2024-11-09T0000,2215A,123.149,41.2991,辽阳市,铁西工业园,,40,40,50,28,26,74,,80,70,9,13,10,12,0.9,0.9
2024-11-09T0000,2227A,125.1358,42.8845,辽源市,环保局,细颗粒物(PM2.5),60,63,54,43,33,12,,76,27,46,39,9,10,1.1,1
2024-11-09T0000,3239A,125.0764,42.9078,辽源市,银鹰制药,细颗粒物(PM2.5),60,54,55,43,38,9,,74,31,53,42,4,11,1.0,0.9
2024-11-09T0000,1625A,115.9848,36.4372,聊城市,区政府,颗粒物(PM10),53,56,55,23,25,61,,87,66,31,25,9,10,0.7,0.7
2024-11-09T0000,2878A,116.0072,36.4343,聊城市,聊大东校,颗粒物(PM10),56,61,62,33,32,66,,92,64,29,26,8,9,0.6,0.6
2024-11-09T0000,3200A,115.9819,36.4978,聊城市,监控中心,颗粒物(PM10),55,59,51,29,28,75,,89,74,31,29,8,9,0.5,0.5
2024-11-09T0000,3513A,116.0445,36.4361,聊城市,九州社区,颗粒物(PM10),57,64,57,30,24,50,,89,57,39,29,8,8,0.6,0.5
2024-11-09T0000,4018A,116.0567,36.4608,聊城市,星美广场,颗粒物(PM10),63,75,66,28,28,62,,110,66,34,28,8,8,0.5,0.5
2024-11-09T0000,2632A,94.3681,29.6376,林芝市,林芝监测站,,24,24,16,10,8,35,,77,46,19,15,6,6,0.5,0.3
2024-11-09T0000,2633A,94.3616,29.6616,林芝市,林芝人民医院,,,25,14,11,9,,,78,,7,12,6,6,0.4,0.5
2024-11-09T0000,2603A,100.0781,23.8982,临沧市,市环保局,,22,16,12,15,14,24,,65,42,10,9,6,7,0.7,0.6
2024-11-09T0000,2604A,100.0894,23.8822,临沧市,市气象局,,28,22,13,19,10,24,,64,44,13,9,7,8,0.7,0.5
2024-11-09T0000,1733A,111.5531,36.0783,临汾市,临钢医院,细颗粒物(PM2.5),79,98,103,58,64,57,,77,59,42,49,5,6,0.6,0.7
2024-11-09T0000,1734A,111.5028,36.0714,临汾市,技工学校,细颗粒物(PM2.5),88,83,93,65,71,66,,104,73,33,37,6,7,0.6,0.7
2024-11-09T0000,1736A,111.5018,36.0855,临汾市,市委,细颗粒物(PM2.5),79,98,104,58,64,75,,112,82,28,33,7,7,0.7,0.7
2024-11-09T0000,3018A,111.505,36.1014,临汾市,唐尧大酒店,细颗粒物(PM2.5),77,92,98,56,66,72,,105,76,30,36,5,6,0.7,0.8
2024-11-09T0000,3668A,111.5036,36.0414,临汾市,城南,细颗粒物(PM2.5),93,86,93,69,65,64,,104,64,33,39,6,6,0.6,0.7
2024-11-09T0000,2667A,103.2069,35.5993,临夏回族自治州,环保局,颗粒物(PM10),89,127,77,25,19,5,,67,26,58,43,8,8,1.6,1.3
2024-11-09T0000,2668A,103.2417,35.6057,临夏回族自治州,建设大厦,颗粒物(PM10),54,57,46,19,20,13,,79,39,39,27,6,7,1.0,0.7
2024-11-09T0000,1618A,118.3429,35.0532,临沂市,沂河小区,,39,39,54,23,34,68,,105,80,20,26,7,8,0.3,0.4
2024-11-09T0000,1619A,118.295,35.0583,临沂市,鲁南制药厂,,29,29,43,20,28,72,,94,72,21,34,5,6,0.6,0.7
2024-11-09T0000,1620A,118.2794,34.9976,临沂市,新光毛纺厂,,36,36,48,24,31,56,,108,76,33,38,7,8,0.6,0.7
2024-11-09T0000,1621A,118.3956,35.0888,临沂市,河东保险公司,,48,48,53,27,29,27,,108,57,47,36,2,3,0.5,0.6
2024-11-09T0000,3370A,118.3564,35.0215,临沂市,十里堡居委,,24,24,38,14,24,66,,108,79,27,28,6,7,0.3,0.4
2024-11-09T0000,3496A,118.3604,35.1084,临沂市,南坊新区,,44,44,50,27,29,58,,112,75,37,37,4,5,0.6,0.6
2024-11-09T0000,3860A,118.3920,35.0300,临沂市,皇山花园小区,,41,41,52,28,31,44,,105,67,43,38,2,4,0.5,0.6
2024-11-09T0000,1870A,109.4856,24.3895,柳州市,柳东小学,"颗粒物(PM10),细颗粒物(PM2.5)",69,87,56,50,33,113,,134,118,13,13,12,12,0.4,0.5
2024-11-09T0000,1871A,109.4157,24.3277,柳州市,环保监测站,"颗粒物(PM10),细颗粒物(PM2.5)",84,118,69,62,38,12,,135,70,78,30,12,14,0.9,0.7
2024-11-09T0000,1872A,109.389,24.341,柳州市,河西水厂,颗粒物(PM10),81,111,88,51,47,18,,129,62,61,37,13,21,1.0,0.9
2024-11-09T0000,1873A,109.4311,24.2921,柳州市,市四中,颗粒物(PM10),79,107,60,54,30,13,,144,74,74,25,10,12,1.2,0.7
2024-11-09T0000,1874A,109.4006,24.3631,柳州市,市九中,颗粒物(PM10),92,134,84,64,44,9,,137,71,76,35,14,14,1.0,0.8
2024-11-09T0000,1875A,109.4958,24.3134,柳州市,古亭山,,46,42,49,32,28,19,,138,67,88,32,10,12,0.6,0.7
2024-11-09T0000,3402A,109.5422,24.3996,柳州市,市二中,细颗粒物(PM2.5),65,68,50,47,32,32,,136,74,43,27,9,10,0.8,0.7
2024-11-09T0000,2307A,116.5079,31.737,六安市,监测大楼,,45,43,51,31,29,67,,104,88,24,23,6,6,0.6,0.6
2024-11-09T0000,2308A,116.4738,31.7643,六安市,皖西学院,,46,46,56,23,26,73,,105,90,25,25,6,6,0.5,0.6
2024-11-09T0000,2309A,116.4996,31.7905,六安市,朝阳厂,,48,48,46,21,24,61,,101,87,31,26,3,3,0.6,0.6
2024-11-09T0000,2310A,116.5567,31.7886,六安市,开发区,颗粒物(PM10),55,59,61,25,28,48,,99,80,34,30,5,6,0.5,0.4
2024-11-09T0000,2576A,104.8,26.5892,六盘水市,窑上,,33,33,44,18,40,43,,57,49,14,14,5,5,0.7,0.7
2024-11-09T0000,2577A,104.83,26.5917,六盘水市,黄土坡,,28,,39,19,33,53,,58,56,18,24,6,7,0.8,0.9
2024-11-09T0000,2578A,104.89,26.5939,六盘水市,水钢,,42,,62,29,51,62,,72,68,12,16,4,5,0.5,0.5
2024-11-09T0000,2579A,104.8475,26.5894,六盘水市,民中,,39,,41,27,37,55,,61,54,17,24,7,8,0.7,0.8
2024-11-09T0000,2580A,104.9544,26.5506,六盘水市,双水,,35,,46,24,38,74,,82,76,8,13,6,6,0.4,0.4
2024-11-09T0000,2335A,117.0189,25.1181,龙岩市,龙岩师专,,,,,,,,,,,,,,,,
2024-11-09T0000,2336A,117.0217,25.1033,龙岩市,龙岩市监测站,,25,21,22,16,16,80,,99,80,12,13,10,6,0.4,0.4
2024-11-09T0000,2337A,117.0258,25.0661,龙岩市,闽西职业技术学院,,39,39,29,17,14,56,,100,55,24,15,7,5,0.5,0.5
2024-11-09T0000,2338A,117.0196,25.0306,龙岩市,龙岩学院,,25,23,21,17,13,38,,100,60,26,13,13,11,0.6,0.5
2024-11-09T0000,2665A,105.0822,33.3261,陇南市,汉王镇固水子,,,,,,,,,,,,,,,,
2024-11-09T0000,2885A,104.9339,33.3826,陇南市,滨江中学,,43,43,38,24,15,11,,51,28,29,18,5,6,0.5,0.6
2024-11-09T0000,3247A,104.955,33.371,陇南市,市总工会,,32,32,29,13,14,34,,57,48,13,9,4,5,0.4,0.3
2024-11-09T0000,2487A,111.9589,27.8901,娄底市,电视发射台,,47,47,46,30,38,95,,133,106,14,13,7,8,1.0,0.9
2024-11-09T0000,2488A,111.9975,27.725,娄底市,市监测站,细颗粒物(PM2.5),75,78,81,55,57,81,,150,115,46,37,14,15,0.7,1
2024-11-09T0000,2489A,112.0194,27.7314,娄底市,市委党校,细颗粒物(PM2.5),78,90,75,57,51,83,,143,116,30,24,4,6,0.8,0.7
2024-11-09T0000,2490A,111.9561,27.7569,娄底市,涟钢,细颗粒物(PM2.5),70,79,82,51,53,66,,145,104,22,26,4,8,0.3,0.6
2024-11-09T0000,2491A,111.9892,27.7044,娄底市,市政府,细颗粒物(PM2.5),114,118,81,86,58,25,,142,84,41,26,7,10,0.8,0.7
2024-11-09T0000,1893A,105.4324,28.9634,泸州市,九狮山,颗粒物(PM10),55,59,55,36,36,11,,46,29,18,18,4,4,0.6,0.5
2024-11-09T0000,1894A,105.4427,28.9063,泸州市,小市上码头,细颗粒物(PM2.5),74,73,69,54,51,14,,56,46,37,19,6,5,0.7,0.6
2024-11-09T0000,1895A,105.4241,28.8573,泸州市,兰田宪桥,细颗粒物(PM2.5),73,54,49,53,52,18,,48,35,26,20,4,4,0.7,0.7
2024-11-09T0000,1896A,105.4379,28.8833,泸州市,市环监站,细颗粒物(PM2.5),83,78,72,61,53,17,,46,33,32,22,6,6,0.8,0.7
2024-11-09T0000,3490A,105.3617,28.7703,泸州市,纳溪区环保局,细颗粒物(PM2.5),65,,43,47,37,20,,44,30,29,21,3,4,0.7,0.7
2024-11-09T0000,2183A,111.1406,37.5211,吕梁市,环保局,细颗粒物(PM2.5),127,148,101,96,55,42,,107,84,51,37,2,5,0.9,0.8
2024-11-09T0000,2185A,111.1297,37.5136,吕梁市,自来水公司,细颗粒物(PM2.5),129,133,111,98,54,61,,112,101,34,31,4,8,1.0,0.8
2024-11-09T0000,2867A,111.1283,37.51,吕梁市,马茂庄小学,细颗粒物(PM2.5),142,168,116,108,58,30,,119,93,76,40,7,9,1.0,0.8
2024-11-09T0000,1812A,112.3931,34.6516,洛阳市,市委党校,细颗粒物(PM2.5),79,94,112,58,77,55,,79,68,35,48,5,5,0.6,0.7
2024-11-09T0000,1814A,112.4657,34.6871,洛阳市,豫西宾馆,颗粒物(PM10),73,96,115,51,62,52,,82,68,32,43,6,5,0.6,0.6
2024-11-09T0000,1815A,112.494,34.6886,洛阳市,河南林校,细颗粒物(PM2.5),87,94,101,64,74,47,,75,60,35,42,7,6,0.5,0.5
2024-11-09T0000,1816A,112.3844,34.623,洛阳市,开发区管委会,细颗粒物(PM2.5),80,104,125,59,82,55,,84,71,28,38,10,9,0.4,0.5
2024-11-09T0000,1817A,112.4267,34.6258,洛阳市,市委新办公区,"颗粒物(PM10),细颗粒物(PM2.5)",79,108,130,58,79,50,,79,63,32,41,5,5,0.4,0.5
2024-11-09T0000,3340A,112.6005,34.6326,洛阳市,伊滨,颗粒物(PM10),73,96,123,50,69,47,,81,66,29,42,5,6,0.5,0.6
2024-11-09T0000,3341A,112.4951,34.6332,洛阳市,中移产业园,细颗粒物(PM2.5),75,92,105,55,75,45,,86,66,42,47,8,6,0.6,0.7
2024-11-09T0000,3593A,112.5736,34.8993,洛阳市,吉利监测站,细颗粒物(PM2.5),74,75,92,54,66,67,,82,76,30,42,7,5,0.4,0.5
2024-11-09T0000,3635A,112.3677,34.662,洛阳市,河科大西苑校区,细颗粒物(PM2.5),75,96,111,55,72,59,,86,74,33,44,6,5,0.6,0.7
2024-11-09T0000,3636A,112.4388,34.6781,洛阳市,英才小学,颗粒物(PM10),75,100,129,49,67,52,,77,65,33,45,6,5,0.5,0.6
2024-11-09T0000,2399A,114.051,33.5699,漯河市,三五一五工厂,细颗粒物(PM2.5),90,90,80,67,48,61,,97,76,29,28,11,7,0.6,0.6
2024-11-09T0000,2400A,114.0055,33.5698,漯河市,漯河大学,细颗粒物(PM2.5),92,100,85,68,45,60,,104,80,30,27,9,7,0.6,0.6
2024-11-09T0000,2401A,114.0138,33.5828,漯河市,市水利局,细颗粒物(PM2.5),83,97,75,61,43,68,,101,84,19,20,10,8,0.7,0.6
2024-11-09T0000,2402A,114.0261,33.5698,漯河市,市广电局,细颗粒物(PM2.5),104,100,73,78,49,56,,102,79,31,23,10,8,0.7,0.6
2024-11-09T0000,3478A,113.9749,33.5664,漯河市,市图书馆,细颗粒物(PM2.5),67,76,74,48,40,74,,100,82,20,22,6,5,0.5,0.5
2024-11-09T0000,3479A,114.0967,33.5906,漯河市,召陵区卫健委,细颗粒物(PM2.5),75,84,81,55,47,62,,97,72,28,27,16,12,0.6,0.6
2024-11-09T0000,1798A,118.5092,31.6837,马鞍山市,湖东路四小,颗粒物(PM10),51,52,41,25,16,42,,102,67,35,25,5,4,0.6,0.6
2024-11-09T0000,1799A,118.5024,31.6449,马鞍山市,开发区,颗粒物(PM10),52,54,47,35,27,38,,93,64,46,41,8,7,0.7,0.7
2024-11-09T0000,1800A,118.5228,31.7231,马鞍山市,慈湖,,46,43,28,32,22,45,,101,76,36,27,8,8,0.7,0.7
2024-11-09T0000,1802A,118.6245,31.7241,马鞍山市,濮塘,颗粒物(PM10),55,60,35,37,22,34,,101,69,33,21,8,8,0.8,0.8
2024-11-09T0000,3633A,118.4918,31.6809,马鞍山市,雨山,,50,50,39,30,19,45,,92,70,32,24,6,6,0.7,0.7
2024-11-09T0000,1686A,111.0286,21.4688,茂名市,电白南海,细颗粒物(PM2.5),67,80,62,48,27,77,,147,112,30,24,12,11,0.7,0.5
2024-11-09T0000,1687A,110.9294,21.6533,茂名市,茂石化七小,细颗粒物(PM2.5),64,75,55,46,34,97,,142,122,30,17,31,19,0.9,0.7
2024-11-09T0000,1688A,110.9107,21.6687,茂名市,健康路,细颗粒物(PM2.5),92,114,60,68,38,54,,146,107,45,21,61,33,0.9,0.7
2024-11-09T0000,1689A,110.8592,21.6828,茂名市,高岭,颗粒物(PM10),104,158,85,70,46,10,,131,62,64,33,15,19,0.8,0.7
2024-11-09T0000,3450A,111.01,21.5165,茂名市,电白水东,细颗粒物(PM2.5),79,92,48,58,28,64,,147,126,43,18,55,16,0.9,0.6
2024-11-09T0000,2539A,104.0308,30.0478,眉山市,黑龙滩水库,细颗粒物(PM2.5),59,49,50,42,48,39,,52,46,4,4,4,4,0.7,0.6
2024-11-09T0000,2540A,103.8416,30.0874,眉山市,气象局,细颗粒物(PM2.5),83,,50,61,46,16,,42,25,31,22,7,7,0.8,0.7
2024-11-09T0000,3137A,103.8578,30.0744,眉山市,市委党校,细颗粒物(PM2.5),55,48,53,39,37,25,,46,34,25,24,7,7,0.8,0.7
2024-11-09T0000,3148A,103.8291,30.0564,眉山市,区人社局,细颗粒物(PM2.5),77,74,47,56,42,11,,49,30,39,27,4,4,0.7,0.7
2024-11-09T0000,1690A,116.1231,24.3284,梅州市,梅江月梅,,46,46,32,19,19,23,,104,52,50,27,9,9,0.5,0.5
2024-11-09T0000,1691A,116.0797,24.2719,梅州市,梅县新城,,40,40,34,18,19,64,,103,74,16,21,8,5,0.5,0.5
2024-11-09T0000,1692A,116.1248,24.2654,梅州市,环境监控中心,颗粒物(PM10),54,58,50,26,23,3,,97,36,59,35,26,16,0.6,0.5
2024-11-09T0000,3315A,116.1233,24.2991,梅州市,梅龙,,48,48,35,33,19,20,,96,53,44,21,9,7,0.6,0.5
2024-11-09T0000,1878A,104.7778,31.4741,绵阳市,富乐山,细颗粒物(PM2.5),93,75,72,69,59,53,,50,46,10,14,2,2,0.7,0.7
2024-11-09T0000,1879A,104.7563,31.4535,绵阳市,市人大,细颗粒物(PM2.5),95,75,84,71,58,49,,50,43,17,19,6,6,0.6,0.6
2024-11-09T0000,1880A,104.6697,31.4668,绵阳市,高新区自来水公司,细颗粒物(PM2.5),62,51,61,44,42,50,,53,37,12,21,3,4,0.8,0.8
2024-11-09T0000,1881A,104.7287,31.5075,绵阳市,三水厂,细颗粒物(PM2.5),107,,70,80,65,53,,53,41,17,21,6,6,0.7,0.7
2024-11-09T0000,3491A,104.69,31.5322,绵阳市,西科大附属小学,颗粒物(PM10),60,70,71,39,46,45,,42,29,17,27,5,5,0.7,0.7
2024-11-09T0000,3492A,104.5648,31.5343,绵阳市,安州区旅游局,细颗粒物(PM2.5),77,,64,56,63,23,,42,25,19,23,7,7,0.8,0.8
2024-11-09T0000,1784A,129.61,44.561,牡丹江市,环保大楼,细颗粒物(PM2.5),72,85,99,52,61,5,,30,6,50,46,10,14,0.7,0.8
2024-11-09T0000,1785A,129.6115,44.5782,牡丹江市,文化广场,细颗粒物(PM2.5),87,79,116,64,76,3,,26,5,49,49,14,30,0.8,0.9
2024-11-09T0000,1786A,129.5904,44.5963,牡丹江市,第一医院,细颗粒物(PM2.5),93,102,96,69,74,11,,34,13,50,41,11,12,0.9,0.8
2024-11-09T0000,1787A,129.6364,44.6075,牡丹江市,机车工厂,颗粒物(PM10),82,113,109,58,62,4,,23,7,47,43,11,30,1.0,0.8
2024-11-09T0000,1788A,129.6386,44.5462,牡丹江市,第一中学,细颗粒物(PM2.5),87,77,78,64,54,4,,32,4,37,36,6,7,0.9,0.6
2024-11-09T0000,2531A,105.0703,29.61,内江市,市监测站,细颗粒物(PM2.5),77,,38,56,47,46,,29,28,18,28,10,10,0.7,0.8
2024-11-09T0000,2532A,105.0717,29.5947,内江市,东兴区政府,细颗粒物(PM2.5),58,,41,41,37,62,,33,33,12,26,7,7,0.6,0.7
2024-11-09T0000,2533A,105.0653,29.5817,内江市,内江二中,细颗粒物(PM2.5),62,49,50,44,47,62,,34,34,17,29,7,7,0.6,0.7
2024-11-09T0000,2534A,105.0406,29.5822,内江市,内江日报社,细颗粒物(PM2.5),58,48,47,41,41,54,,28,23,27,31,6,7,0.6,0.6
2024-11-09T0000,2628A,92.0657,31.4846,那曲市,那曲监测站,细颗粒物(PM2.5),160,183,63,122,35,23,,86,54,36,25,14,12,1.6,1
2024-11-09T0000,3128A,92.0506,31.4797,那曲市,那曲会议中心,颗粒物(PM10),72,94,72,47,28,14,,84,63,37,18,8,6,1.6,0.9
2024-11-09T0000,1290A,115.8931,28.6843,南昌市,省外办,细颗粒物(PM2.5),73,73,63,53,42,63,,107,81,35,30,8,9,0.7,0.6
2024-11-09T0000,1291A,115.8886,28.7003,南昌市,省林业公司,细颗粒物(PM2.5),64,75,61,46,38,47,,109,75,48,33,9,10,0.6,0.5
2024-11-09T0000,1292A,115.8126,28.7442,南昌市,林科所,颗粒物(PM10),52,53,45,31,27,75,,115,86,29,26,12,12,0.4,0.5
2024-11-09T0000,1294A,115.8518,28.687,南昌市,建工学校,颗粒物(PM10),63,75,55,44,33,72,,112,86,33,26,12,12,0.5,0.5
2024-11-09T0000,1295A,115.8921,28.6424,南昌市,象湖,细颗粒物(PM2.5),65,66,50,47,35,68,,123,93,40,30,12,12,0.6,0.5
2024-11-09T0000,1296A,115.7423,28.7996,南昌市,武术学校,,28,28,27,14,12,18,,84,40,12,12,1,1,0.5,0.5
2024-11-09T0000,1298A,115.9314,28.6842,南昌市,省站,"颗粒物(PM10),细颗粒物(PM2.5)",73,95,77,53,41,60,,106,81,35,28,13,11,0.6,0.6
2024-11-09T0000,3046A,115.9084,28.6062,南昌市,机电学校,颗粒物(PM10),68,85,67,48,35,67,,113,84,36,32,12,10,0.5,0.4
2024-11-09T0000,3690A,115.9721,28.7031,南昌市,外国语学校,细颗粒物(PM2.5),75,86,62,55,37,57,,110,82,48,32,10,10,0.8,0.7
2024-11-09T0000,1905A,106.056,30.8064,南充市,西山风景区,细颗粒物(PM2.5),74,,58,54,52,18,,61,46,18,20,1,2,0.8,0.7
2024-11-09T0000,1906A,106.0789,30.8023,南充市,南充市委,细颗粒物(PM2.5),87,82,71,64,56,17,,50,28,32,27,4,3,0.7,0.7
2024-11-09T0000,1907A,106.1031,30.8217,南充市,南充炼油厂,细颗粒物(PM2.5),83,82,80,61,58,10,,47,27,25,25,3,3,0.7,0.7
2024-11-09T0000,1908A,106.1064,30.7856,南充市,高坪区监测站,细颗粒物(PM2.5),99,92,81,74,62,23,,56,41,45,32,4,3,0.6,0.6
2024-11-09T0000,1909A,106.0642,30.7636,南充市,嘉陵区环保局,细颗粒物(PM2.5),98,90,77,73,52,24,,66,42,37,32,3,4,0.8,0.8
2024-11-09T0000,1910A,106.1087,30.8388,南充市,市环境监测站,细颗粒物(PM2.5),82,72,73,60,54,10,,52,30,22,20,3,3,0.6,0.6
2024-11-09T0000,1151A,118.8086,32.1065,南京市,迈皋桥,,35,35,22,17,10,18,,91,36,57,30,4,4,0.6,0.5
2024-11-09T0000,1152A,118.7538,32.0551,南京市,草场门,,39,39,25,14,8,40,,91,50,44,34,5,4,0.4,0.3
2024-11-09T0000,1153A,118.7794,32.0745,南京市,山西路,,36,36,26,17,10,64,,116,79,46,17,5,4,0.5,0.4
2024-11-09T0000,1154A,118.7752,32.0023,南京市,中华门,,39,39,28,17,11,32,,99,49,47,36,4,4,0.5,0.4
2024-11-09T0000,1155A,118.8109,32.0309,南京市,瑞金路,,34,34,27,19,12,36,,95,52,27,18,6,5,0.6,0.4
2024-11-09T0000,1156A,118.7997,32.0754,南京市,玄武湖,,50,50,26,10,5,25,,77,27,71,45,6,5,0.6,0.5
2024-11-09T0000,1157A,118.6414,32.0931,南京市,浦口,,38,38,30,22,15,20,,74,49,44,29,6,6,0.7,0.7
2024-11-09T0000,1158A,118.7356,31.9996,南京市,奥体中心,,40,40,31,22,14,40,,100,66,43,29,7,7,0.3,0.3
2024-11-09T0000,1159A,118.9125,32.1028,南京市,仙林大学城,,34,34,26,14,9,46,,94,46,31,27,5,5,0.4,0.4
2024-11-09T0000,3422A,118.8436,31.9198,南京市,江宁彩虹桥,,45,45,37,17,14,36,,96,45,38,33,4,5,0.6,0.6
2024-11-09T0000,3423A,119.0138,31.6494,南京市,溧水永阳,颗粒物(PM10),54,58,40,25,20,17,,94,49,64,40,4,4,0.6,0.6
2024-11-09T0000,3424A,118.879,31.3302,南京市,高淳老职中,,39,29,34,27,20,40,,98,71,40,28,6,6,0.4,0.8
2024-11-09T0000,3427A,118.8554,32.3578,南京市,六合雄州,,42,42,40,12,18,30,,78,44,18,24,5,6,0.4,0.4
2024-11-09T0000,1401A,108.3103,22.7881,南宁市,二十一中,细颗粒物(PM2.5),85,99,75,63,47,9,,166,84,96,54,5,11,1.2,1
2024-11-09T0000,1402A,108.3141,22.8528,南宁市,北湖,细颗粒物(PM2.5),94,118,73,70,45,5,,154,73,86,54,8,12,1.3,0.9
2024-11-09T0000,1403A,108.3206,22.8225,南宁市,市监测站,细颗粒物(PM2.5),89,104,72,66,46,26,,148,86,72,46,24,18,0.9,0.7
2024-11-09T0000,1404A,108.3829,22.8037,南宁市,大自然花园,细颗粒物(PM2.5),57,50,49,40,32,77,,152,107,34,24,12,11,0.7,0.7
2024-11-09T0000,1405A,108.4394,22.7904,南宁市,仙葫,细颗粒物(PM2.5),99,95,60,74,44,4,,130,66,87,42,11,11,1.0,0.7
2024-11-09T0000,1406A,108.2397,22.8467,南宁市,区农职院,细颗粒物(PM2.5),73,66,62,53,38,58,,150,99,24,26,8,11,0.8,0.8
2024-11-09T0000,1407A,108.3275,22.735,南宁市,英华嘉园,颗粒物(PM10),68,85,80,46,47,8,,158,59,98,55,8,14,0.9,0.8
2024-11-09T0000,1408A,108.2257,22.7757,南宁市,沙井镇街道办,细颗粒物(PM2.5),85,112,95,63,53,5,,146,56,74,50,26,14,0.8,0.8
2024-11-09T0000,3401A,108.4834,22.7618,南宁市,红星社区,细颗粒物(PM2.5),67,78,53,48,35,30,,139,89,57,31,7,9,0.8,0.7
2024-11-09T0000,2331A,118.0966,26.6761,南平市,茫荡山,,,,,,,,,,,,,,,,
2024-11-09T0000,2332A,118.1681,26.6369,南平市,南平市监测站,,28,24,24,19,18,6,,90,41,45,23,3,3,0.4,0.4
2024-11-09T0000,2333A,118.1825,26.6489,南平市,南平铝业有限公司,,34,34,27,20,19,4,,88,34,42,22,4,3,0.4,0.4
2024-11-09T0000,2334A,118.1756,26.6272,南平市,南平七中,,20,14,24,14,16,25,,91,52,24,19,2,3,0.4,0.4
2024-11-09T0000,1168A,120.9098,31.9663,南通市,狼山街道,,32,32,25,16,11,45,,96,68,31,16,7,7,0.5,0.4
2024-11-09T0000,1169A,120.86,32.0005,南通市,虹桥,,31,31,30,19,17,57,,91,64,26,22,6,6,0.3,0.3
2024-11-09T0000,1170A,120.87,32.02,南通市,城中,,41,41,36,16,15,51,,88,62,34,25,6,6,0.4,0.4
2024-11-09T0000,1171A,120.94,31.93,南通市,星湖花园,,30,30,26,20,15,52,,91,69,32,22,5,5,0.5,0.5
2024-11-09T0000,1172A,120.81,32.0417,南通市,紫琅学院,颗粒物(PM10),51,51,27,27,13,20,,87,43,51,31,4,3,0.5,0.3
2024-11-09T0000,3291A,121.067,32.062,南通市,通州监测站,,31,31,27,14,13,68,,99,78,15,13,2,2,0.5,0.4
2024-11-09T0000,3432A,120.9348,31.9883,南通市,环境教育馆,,27,27,29,14,13,42,,97,65,36,24,3,4,0.4,0.4
2024-11-09T0000,2404A,112.5224,33.0122,南阳市,瓦房庄,细颗粒物(PM2.5),72,69,67,52,48,84,,126,81,18,28,5,5,0.6,0.6
2024-11-09T0000,2405A,112.5003,32.9735,南阳市,汉画馆,颗粒物(PM10),64,78,72,44,38,77,,122,67,26,32,8,8,0.5,0.5
2024-11-09T0000,2406A,112.5573,33.027,南阳市,气象站,"颗粒物(PM10),细颗粒物(PM2.5)",62,74,68,44,40,81,,131,90,26,32,6,6,0.6,0.7
2024-11-09T0000,2407A,112.5481,32.9689,南阳市,理工学院,细颗粒物(PM2.5),70,68,63,51,42,72,,122,80,22,26,5,6,0.6,0.5
2024-11-09T0000,4008A,112.5234,32.9922,南阳市,卧龙区政府,细颗粒物(PM2.5),72,77,73,52,45,78,,120,72,22,31,4,5,0.6,0.6
2024-11-09T0000,1234A,121.8358,29.911,宁波市,区环保大楼,,42,42,34,11,10,42,,69,44,35,35,11,7,0.5,0.5
2024-11-09T0000,1235A,121.56,29.82,宁波市,万里学院,,41,41,34,25,18,48,,82,48,31,31,6,7,0.6,0.6
2024-11-09T0000,1236A,121.713,29.9572,宁波市,龙赛医院,,25,25,23,7,6,59,,85,76,25,21,10,8,0.6,0.5
2024-11-09T0000,1239A,121.633,29.7733,宁波市,钱湖水厂,颗粒物(PM10),54,58,44,31,19,33,,68,35,34,35,9,9,0.7,0.6
2024-11-09T0000,1240A,121.5856,29.8635,宁波市,太古小学,,47,47,35,23,17,41,,77,62,31,28,8,8,0.8,0.7
2024-11-09T0000,1241A,121.524,29.8674,宁波市,市环境监测中心,,35,35,36,17,13,60,,81,58,22,28,10,10,0.6,0.5
2024-11-09T0000,2871A,121.6147,29.9017,宁波市,万里国际学校,,28,28,24,14,11,34,,79,65,53,38,8,8,0.6,0.6
2024-11-09T0000,3710A,121.5594,29.8975,宁波市,白沙活动中心,,31,31,25,15,10,44,,81,74,32,26,9,9,0.7,0.6
2024-11-09T0000,2339A,119.5001,26.6946,宁德市,金涵水库,,,,,,,,,,,,,,,,
2024-11-09T0000,2341A,119.5388,26.6612,宁德市,宁德市监测站,,31,31,34,20,16,49,,88,70,17,18,3,3,0.6,0.4
2024-11-09T0000,3209A,119.5231,26.6562,宁德市,宁德一中,,29,29,27,20,17,55,,94,76,14,12,3,2,0.5,0.3
2024-11-09T0000,2618A,98.8601,25.8567,怒江傈僳族自治州,州监测站,,38,38,22,22,12,6,,33,17,21,12,6,6,0.7,0.6
2024-11-09T0000,2619A,98.8546,25.8417,怒江傈僳族自治州,泸水一中,,21,21,15,11,8,1,,26,10,16,12,8,7,0.7,0.5
2024-11-09T0000,1888A,101.6891,26.571,攀枝花市,弄弄坪,,34,34,14,13,4,6,,60,19,32,16,15,10,1.4,0.7
2024-11-09T0000,1889A,101.5769,26.5928,攀枝花市,河门口,,17,17,8,9,4,15,,53,25,18,15,5,6,0.6,0.7
2024-11-09T0000,1890A,101.7169,26.585,攀枝花市,炳草岗,,37,37,16,18,5,5,,41,11,31,26,9,7,1.7,1
2024-11-09T0000,1891A,101.7369,26.5008,攀枝花市,仁和,,21,21,18,14,12,13,,42,17,14,28,3,18,1.6,2.5
2024-11-09T0000,2835A,101.7227,26.567,攀枝花市,四十中小,,26,26,14,11,8,4,,61,17,35,17,6,5,1.7,0.9
2024-11-09T0000,1604A,122.0303,41.1489,盘锦市,开发区,,39,,36,27,40,81,,97,90,17,21,7,10,0.4,0.5
2024-11-09T0000,1605A,122.0485,41.0883,盘锦市,兴隆台,,40,,35,28,38,78,,99,90,20,24,14,20,0.5,0.6
2024-11-09T0000,1606A,121.8297,41.1028,盘锦市,新生街道,,39,,32,27,37,86,,110,104,18,19,10,10,0.5,0.6
2024-11-09T0000,1832A,113.3257,33.742,平顶山市,新华旅馆,颗粒物(PM10),80,110,101,48,49,41,,99,70,49,35,7,8,0.4,0.4
2024-11-09T0000,1833A,113.2919,33.737,平顶山市,规划设计院,颗粒物(PM10),73,96,96,52,53,49,,98,72,41,32,7,9,0.6,0.7
2024-11-09T0000,1834A,113.182,33.774,平顶山市,平顶山工学院,,,91,86,44,46,,,104,83,30,24,10,9,0.6,0.7
2024-11-09T0000,3204A,113.3025,33.73,平顶山市,规划局,颗粒物(PM10),73,95,93,52,53,54,,105,80,40,33,7,9,0.6,0.6
2024-11-09T0000,3594A,112.8867,33.9116,平顶山市,石龙区,细颗粒物(PM2.5),104,121,104,78,57,36,,104,72,36,27,9,12,0.9,0.9
2024-11-09T0000,2656A,106.6692,35.5461,平凉市,聚贤嘉苑,细颗粒物(PM2.5),110,117,94,83,67,41,,84,67,66,41,10,9,1.4,0.8
2024-11-09T0000,2657A,106.7021,35.5307,平凉市,博物馆,,,,,,,,,,,,,,,,
2024-11-09T0000,2347A,114.0997,27.5002,萍乡市,武功山,,18,18,18,3,4,57,,104,81,8,8,7,8,0.2,0.2
2024-11-09T0000,2348A,113.8385,27.6434,萍乡市,中医院,颗粒物(PM10),55,60,58,26,29,85,,118,98,20,23,48,26,0.5,0.7
2024-11-09T0000,2349A,113.8493,27.6253,萍乡市,市政府车库,细颗粒物(PM2.5),59,55,54,42,36,72,,114,87,28,26,51,22,0.5,1.1
2024-11-09T0000,2350A,113.8676,27.6435,萍乡市,市环保局,颗粒物(PM10),58,65,58,36,34,83,,112,93,17,25,56,28,0.5,0.6
2024-11-09T0000,2351A,113.866,27.6198,萍乡市,安源区政府,细颗粒物(PM2.5),67,78,58,48,31,34,,117,79,44,25,28,24,1.1,0.9
2024-11-09T0000,2319A,119.0141,25.4325,莆田市,荔城区仓后路,,28,22,23,11,9,88,,96,89,9,8,2,2,0.3,0.3
2024-11-09T0000,2320A,119.0015,25.4553,莆田市,莆田市监测站,,29,21,18,9,6,90,,98,93,6,5,3,2,0.3,0.3
2024-11-09T0000,2321A,119.1119,25.4561,莆田市,涵江区六中,,,37,23,16,8,76,,98,88,13,8,3,2,,0.4
2024-11-09T0000,2322A,119.1013,25.3215,莆田市,秀屿区政府,,28,22,27,13,9,87,,98,95,10,8,2,2,0.3,0.2
2024-11-09T0000,2323A,118.981,25.4792,莆田市,东圳水库,,,,,,,,,,,,,,,,
2024-11-09T0000,2392A,115.0312,35.7636,濮阳市,环保局,颗粒物(PM10),54,57,47,32,34,64,,102,79,18,20,3,3,0.3,0.4
2024-11-09T0000,2394A,115.0574,35.7609,濮阳市,油田运输公司,颗粒物(PM10),51,51,54,35,34,60,,101,76,19,20,5,4,0.4,0.4
2024-11-09T0000,2395A,115.0866,35.7754,濮阳市,油田物探公司,颗粒物(PM10),52,54,58,35,36,58,,101,74,21,25,2,5,0.3,0.3
2024-11-09T0000,3021A,115,35.7668,濮阳市,濮水河管理处,颗粒物(PM10),56,62,63,35,33,51,,89,64,22,23,2,4,0.4,0.4
2024-11-09T0000,2601A,100.98,22.7633,普洱市,市环保局,,26,23,17,18,17,36,,64,43,12,10,5,6,0.6,0.5
2024-11-09T0000,2602A,100.9817,22.8322,普洱市,普洱第二中学,,14,14,17,7,14,18,,63,36,20,14,7,7,0.4,0.4
2024-11-09T0000,2262A,131.0518,45.8751,七台河市,新一中,,49,46,45,34,31,27,,58,28,21,24,11,13,1.0,1
2024-11-09T0000,3345A,131.0577,45.7879,七台河市,中波台,颗粒物(PM10),61,72,60,43,34,6,,38,12,45,33,13,14,1.2,1.1
2024-11-09T0000,3637A,131.0176,45.7761,七台河市,人民广场,细颗粒物(PM2.5),80,97,80,59,47,8,,33,9,42,39,8,12,1.2,1
2024-11-09T0000,3684A,130.8781,45.8222,七台河市,新建矿广场,颗粒物(PM10),130,210,130,57,45,3,,38,4,61,54,15,21,1.0,0.9
2024-11-09T0000,1779A,123.9305,47.3636,齐齐哈尔市,安居小区,细颗粒物(PM2.5),178,139,180,134,178,55,,58,44,36,46,16,10,0.7,0.9
2024-11-09T0000,1780A,123.9488,47.3386,齐齐哈尔市,中心广场,细颗粒物(PM2.5),159,152,186,121,166,48,,55,43,36,41,7,7,0.7,0.9
2024-11-09T0000,1781A,123.9483,47.3227,齐齐哈尔市,农牧车辆厂,细颗粒物(PM2.5),108,134,178,81,138,53,,62,,,40,8,8,0.6,0.9
2024-11-09T0000,1783A,123.945,47.2988,齐齐哈尔市,市环境监测站,细颗粒物(PM2.5),152,152,184,116,154,50,,71,62,37,36,6,7,0.6,0.7
2024-11-09T0000,3662A,123.6333,47.2075,齐齐哈尔市,富区青少年活动中心,细颗粒物(PM2.5),206,284,192,156,134,48,,74,61,30,30,10,10,0.8,0.7
2024-11-09T0000,2591A,107.9783,26.5747,黔东南苗族侗族自治州,市环境监测站,,48,45,40,33,30,71,,109,90,26,23,8,7,0.5,0.4
2024-11-09T0000,2881A,107.8908,26.5311,黔东南苗族侗族自治州,凯里学院,,41,41,31,27,24,88,,117,94,12,17,6,6,0.4,0.4
2024-11-09T0000,2593A,107.5228,26.2403,黔南布依族苗族自治州,小围寨,,49,44,34,34,27,55,,118,88,19,12,6,7,0.2,0.2
2024-11-09T0000,3538A,107.5175,26.2978,黔南布依族苗族自治州,沙坝,颗粒物(PM10),51,51,41,34,26,51,,120,81,18,16,4,6,0.5,0.5
2024-11-09T0000,2589A,104.9022,25.0925,黔西南布依族苗族自治州,场坝街,细颗粒物(PM2.5),82,68,58,60,49,28,,84,49,32,24,39,27,0.6,0.6
2024-11-09T0000,2590A,104.8811,25.0992,黔西南布依族苗族自治州,坪东大道,细颗粒物(PM2.5),78,69,53,57,49,16,,79,31,25,25,3,7,0.6,0.6
2024-11-09T0000,2502A,108.6236,21.9667,钦州市,市环保站,细颗粒物(PM2.5),83,112,92,61,47,69,,135,94,43,35,32,15,1.3,1.5
2024-11-09T0000,2503A,108.6549,21.9481,钦州市,沙埠小学,细颗粒物(PM2.5),202,,88,152,48,30,,134,79,81,41,18,11,1.6,0.8
2024-11-09T0000,2504A,108.5989,21.7431,钦州市,港区一小,颗粒物(PM10),105,160,102,52,44,48,,140,76,70,45,11,11,1.1,0.9
2024-11-09T0000,3404A,108.5959,21.9633,钦州市,北职校,颗粒物(PM10),68,86,79,48,54,63,,129,81,30,31,8,11,0.8,1.2
2024-11-09T0000,1042A,119.5134,39.8207,秦皇岛市,北戴河环保局,细颗粒物(PM2.5),78,91,82,57,52,49,,89,79,50,30,5,7,0.7,0.8
2024-11-09T0000,1043A,119.7493,40.0116,秦皇岛市,第一关,细颗粒物(PM2.5),108,88,94,81,75,14,,82,42,95,67,6,8,0.6,0.8
2024-11-09T0000,1044A,119.5897,39.9499,秦皇岛市,监测站,颗粒物(PM10),84,117,98,56,52,56,,82,65,56,59,8,9,0.7,0.9
2024-11-09T0000,1046A,119.5251,39.9041,秦皇岛市,建设大厦,细颗粒物(PM2.5),110,106,98,83,58,48,,85,56,58,46,8,10,0.7,0.9
2024-11-09T0000,3132A,119.610547,39.943889,秦皇岛市,文明里,细颗粒物(PM2.5),108,108,108,81,64,51,,84,66,56,53,6,7,0.6,0.8
2024-11-09T0000,1307A,120.6659,36.2403,青岛市,仰口,,35,28,18,14,15,109,,110,110,6,6,8,7,0.7,0.6
2024-11-09T0000,1310A,120.4134,36.0658,青岛市,市南区东部子站,,39,39,27,12,8,121,,116,116,8,10,10,9,0.5,0.5
2024-11-09T0000,1311A,120.3664,36.1032,青岛市,四方区子站,,39,39,31,22,16,115,,112,103,15,31,10,9,0.6,0.7
