timepoint,stationcode,longitude,latitude,area,positionname,primarypollutant,aqi,pm10,pm10_24h,pm2_5,pm2_5_24h,o3,o3_24h,o3_8h,o3_8h_24h,no2,no2_24h,so2,so2_24h,co,co_24h
2023-05-21T21:00:00,1001A,116.3621,39.8784,北京市,万寿西宫,颗粒物(PM10),56,62,138,19,36,97,68,92,89,22,9,1,3,0.2,0.2
2023-05-21T21:00:00,1002A,116.2202,40.2915,北京市,定陵,颗粒物(PM10),54,58,146,15,41,100,76,95,93,16,5,3,3,0.2,0.1
2023-05-21T21:00:00,1003A,116.4174,39.9289,北京市,东四,颗粒物(PM10),59,68,159,17,45,116,86,108,107,16,9,3,2,0.3,0.2
2023-05-21T21:00:00,1004A,116.4072,39.8863,北京市,天坛,颗粒物(PM10),56,61,147,16,34,106,75,101,99,21,11,3,3,0.2,0.1
2023-05-21T21:00:00,1005A,116.462,39.9365,北京市,农展馆,颗粒物(PM10),57,64,148,14,32,104,76,97,96,22,13,2,1,0.2,0.1
2023-05-21T21:00:00,1006A,116.3392,39.9295,北京市,官园,颗粒物(PM10),56,61,139,20,42,94,72,90,88,22,12,5,5,0.2,0.2
2023-05-21T21:00:00,1007A,116.2878,39.9611,北京市,海淀万柳,细颗粒物(PM2.5),59,60,133,42,37,101,78,96,94,19,8,3,3,0.3,0.2
2023-05-21T21:00:00,1008A,116.6636,40.135,北京市,顺义新城,颗粒物(PM10),63,75,173,16,42,104,78,99,97,30,10,1,2,0.3,0.2
2023-05-21T21:00:00,1009A,116.6275,40.3275,北京市,怀柔镇,颗粒物(PM10),54,57,173,15,53,104,86,100,99,21,7,1,3,0.3,0.2
2023-05-21T21:00:00,1010A,116.2296,40.217,北京市,昌平镇,颗粒物(PM10),56,61,140,15,33,91,64,86,84,10,4,1,1,0.2,0.2
2023-05-21T21:00:00,1011A,116.3966,39.9821,北京市,奥体中心,颗粒物(PM10),55,60,150,14,32,96,77,92,90,22,17,3,3,0.2,0.2
2023-05-21T21:00:00,1012A,116.184,39.9136,北京市,古城,颗粒物(PM10),66,82,135,18,27,101,70,95,92,23,8,3,3,0.2,0.1
2023-05-21T21:00:00,1015A,117.1444,39.1661,天津市,勤俭道,颗粒物(PM10),73,95,214,25,45,107,75,99,97,32,15,8,6,0.3,0.2
2023-05-21T21:00:00,1017A,117.237,39.1082,天津市,大直沽八号路,颗粒物(PM10),68,85,202,19,42,104,68,93,91,36,15,3,2,0.3,0.2
2023-05-21T21:00:00,1018A,117.202,39.0927,天津市,前进道,颗粒物(PM10),65,79,200,23,43,106,71,95,93,34,16,5,4,0.4,0.2
2023-05-21T21:00:00,1019A,117.1837,39.2133,天津市,淮河道,颗粒物(PM10),69,88,207,20,47,112,76,104,102,39,17,5,4,0.3,0.2
2023-05-21T21:00:00,1021A,117.307,39.0877,天津市,跃进路,颗粒物(PM10),67,83,201,44,51,116,74,104,102,30,12,6,5,0.4,0.3
2023-05-21T21:00:00,1023A,117.707,39.0343,天津市,第四大街,颗粒物(PM10),71,91,255,22,62,104,72,104,87,34,23,4,4,0.3,0.3
2023-05-21T21:00:00,1024A,117.457,38.8394,天津市,永明路,颗粒物(PM10),69,87,177,25,50,104,62,95,91,36,20,6,5,0.5,0.4
2023-05-21T21:00:00,1026A,117.764,39.1587,天津市,汉北路,颗粒物(PM10),68,86,228,24,54,109,66,98,94,34,15,4,3,0.6,0.4
2023-05-21T21:00:00,1027A,117.157,38.9194,天津市,团泊洼,颗粒物(PM10),67,84,175,18,20,114,65,105,99,30,19,4,2,0.4,0.3
2023-05-21T21:00:00,1029A,114.4422,38.0444,石家庄市,职工医院,,40,40,94,22,27,81,59,75,68,24,14,5,4,0.0,0
2023-05-21T21:00:00,1030A,114.6063,38.0266,石家庄市,高新区,颗粒物(PM10),54,57,92,16,25,78,57,73,66,24,18,6,5,0.2,0.1
2023-05-21T21:00:00,1031A,114.4898,38.1328,石家庄市,西北水源,颗粒物(PM10),67,84,91,9,17,83,47,77,64,39,19,8,6,0.4,0.3
2023-05-21T21:00:00,1032A,114.4586,38.0058,石家庄市,西南高教,,43,43,89,27,32,88,59,82,75,24,8,3,2,0.3,0.2
2023-05-21T21:00:00,1033A,114.5331,38.0178,石家庄市,世纪公园,,44,44,70,19,23,86,53,75,67,30,16,6,6,0.3,0.2
2023-05-21T21:00:00,1034A,114.509,38.0457,石家庄市,人民会堂,颗粒物(PM10),52,54,79,7,12,84,63,81,74,28,17,5,3,0.5,0.4
2023-05-21T21:00:00,1035A,114.3524,37.8911,石家庄市,封龙山,颗粒物(PM10),51,51,98,18,25,93,93,85,85,2,7,3,3,0.2,0.2
2023-05-21T21:00:00,1037A,118.131,39.6363,唐山市,雷达站,颗粒物(PM10),61,71,305,20,89,115,67,105,100,33,14,3,3,0.3,0.2
2023-05-21T21:00:00,1038A,118.1725,39.6334,唐山市,物资局,颗粒物(PM10),67,84,308,27,69,111,63,102,97,38,13,3,3,0.5,0.3
2023-05-21T21:00:00,1040A,118.1705,39.6506,唐山市,十二中,颗粒物(PM10),60,70,303,28,100,112,84,103,101,21,14,2,2,0.4,0.3
2023-05-21T21:00:00,1041A,118.1869,39.622,唐山市,小山,颗粒物(PM10),71,91,341,22,88,116,53,107,99,34,6,3,3,0.5,0.3
2023-05-21T21:00:00,1042A,119.5134,39.8207,秦皇岛市,北戴河环保局,颗粒物(PM10),140,230,391,48,95,92,87,88,88,5,14,2,2,0.3,0.2
2023-05-21T21:00:00,1043A,119.7493,40.0116,秦皇岛市,第一关,颗粒物(PM10),152,254,376,71,81,85,56,78,75,29,30,3,3,0.5,0.4
2023-05-21T21:00:00,1044A,119.5897,39.9499,秦皇岛市,监测站,颗粒物(PM10),128,206,313,47,77,91,82,86,86,8,16,2,3,0.4,0.4
2023-05-21T21:00:00,1046A,119.5251,39.9041,秦皇岛市,建设大厦,颗粒物(PM10),135,220,328,59,71,97,81,94,92,8,15,2,2,0.4,0.3
2023-05-21T21:00:00,1048A,114.5302,36.6116,邯郸市,东污水处理厂,颗粒物(PM10),54,57,112,13,35,78,60,65,65,24,29,3,3,1.3,0.4
2023-05-21T21:00:00,1049A,114.4918,36.5713,邯郸市,矿院,,40,40,108,14,36,78,47,70,66,30,24,9,5,1.3,0.4
2023-05-21T21:00:00,1050A,114.484,36.6133,邯郸市,丛台公园,,38,38,132,22,34,76,54,70,69,22,22,7,6,1.2,0.5
2023-05-21T21:00:00,1051A,115.493,38.8632,保定市,游泳馆,颗粒物(PM10),55,59,97,22,26,98,38,86,67,31,14,3,2,0.2,0.1
2023-05-21T21:00:00,1052A,115.5213,38.8959,保定市,华电二区,颗粒物(PM10),61,71,94,27,25,92,38,84,69,30,14,6,5,0.5,0.2
2023-05-21T21:00:00,1053A,115.4713,38.9108,保定市,接待中心,颗粒物(PM10),64,78,105,23,34,88,36,78,64,23,18,8,6,0.4,0.2
2023-05-21T21:00:00,1054A,115.4612,38.8416,保定市,地表水厂,颗粒物(PM10),63,76,124,20,26,92,38,76,55,32,29,10,8,0.5,0.3
2023-05-21T21:00:00,1056A,115.5086,38.8639,保定市,监测站,颗粒物(PM10),68,85,112,28,34,98,28,85,66,40,16,8,5,0.2,0
2023-05-21T21:00:00,1057A,114.8883,40.8336,张家口市,人民公园,,34,34,97,2,40,102,83,98,96,9,3,2,2,0.3,0.3
2023-05-21T21:00:00,1059A,114.8687,40.8042,张家口市,五金库,,29,29,82,11,20,95,79,91,90,14,9,1,1,0.4,0.5
2023-05-21T21:00:00,1060A,114.8902,40.762,张家口市,世纪豪园,,36,36,95,20,31,99,83,95,94,9,10,2,2,0.2,0.2
2023-05-21T21:00:00,1061A,114.8916,40.8661,张家口市,北泵房,细颗粒物(PM2.5),53,30,74,37,34,108,91,103,101,9,6,8,8,0.3,0.3
2023-05-21T21:00:00,1062A,117.9531,40.9081,承德市,铁路,颗粒物(PM10),51,51,139,9,35,100,80,98,94,15,5,9,8,0.3,0.2
2023-05-21T21:00:00,1063A,117.9392,40.9763,承德市,中国银行,,44,44,123,17,49,106,90,102,101,12,4,7,7,0.4,0.3
2023-05-21T21:00:00,1064A,117.9503,40.928,承德市,开发区,,35,35,133,21,34,108,86,105,102,14,6,6,6,0.3,0.2
2023-05-21T21:00:00,1065A,117.8051,40.9655,承德市,文化中心,,48,48,136,15,38,100,95,97,97,7,6,6,6,0.3,0.3
2023-05-21T21:00:00,1066A,117.9268,41.0026,承德市,离宫,,32,29,98,22,28,102,69,99,94,5,3,4,4,0.3,0.2
2023-05-21T21:00:00,1067A,116.6708,39.5111,廊坊市,药材公司,颗粒物(PM10),62,74,160,8,28,108,83,100,99,22,13,2,1,0.3,0.2
2023-05-21T21:00:00,1068A,116.7214,39.5589,廊坊市,开发区,颗粒物(PM10),55,60,150,30,43,112,92,106,105,25,17,5,4,0.6,0.4
2023-05-21T21:00:00,1070A,116.7244,39.5269,廊坊市,北华航天学院,颗粒物(PM10),66,82,179,13,39,115,85,106,104,28,15,3,2,0.4,0.2
2023-05-21T21:00:00,1071A,116.8842,38.2991,沧州市,沧县城建局,,,102,193,20,49,100,38,92,80,58,31,7,6,,0.1
2023-05-21T21:00:00,1072A,116.8584,38.3254,沧州市,电视转播站,颗粒物(PM10),68,85,151,19,31,98,54,94,84,38,24,6,7,0.2,0.2
2023-05-21T21:00:00,1073A,116.8709,38.3228,沧州市,市环保局,颗粒物(PM10),77,104,163,35,53,102,44,98,87,56,32,10,9,0.1,0
2023-05-21T21:00:00,1074A,115.6838,37.7541,衡水市,电机北厂,颗粒物(PM10),59,68,193,9,42,84,56,70,66,20,26,4,3,0.5,0.2
2023-05-21T21:00:00,1075A,115.6303,37.7316,衡水市,市监测站,颗粒物(PM10),61,71,189,29,45,81,41,71,60,25,29,4,3,0.6,0.4
2023-05-21T21:00:00,1077A,114.4704,37.0886,邢台市,达活泉,颗粒物(PM10),52,54,122,14,22,79,58,70,65,16,19,5,5,0.2,0.2
2023-05-21T21:00:00,1078A,114.5062,37.0349,邢台市,邢师高专,,36,36,108,14,28,77,48,68,62,17,19,3,4,0.1,0.2
2023-05-21T21:00:00,1079A,114.5237,37.0851,邢台市,路桥公司,颗粒物(PM10),57,63,110,15,23,80,51,72,66,25,20,5,5,0.4,0.2
2023-05-21T21:00:00,1080A,114.4725,37.0719,邢台市,市环保局,,47,47,127,17,28,86,56,75,70,17,14,5,6,0.3,0.3
2023-05-21T21:00:00,1081A,112.522,37.8873,太原市,尖草坪,颗粒物(PM10),54,58,81,22,23,97,62,86,81,38,17,10,8,0.7,0.3
2023-05-21T21:00:00,1083A,112.434,38.0108,太原市,上兰,,35,35,62,12,20,90,66,81,74,11,9,5,6,0.3,0.3
2023-05-21T21:00:00,1084A,112.469,37.7124,太原市,晋源,颗粒物(PM10),51,52,78,17,21,95,71,88,82,26,18,9,4,0.6,0.3
2023-05-21T21:00:00,1085A,112.5583,37.7394,太原市,小店,,46,46,91,19,24,87,71,82,77,24,20,7,6,0.4,0.3
2023-05-21T21:00:00,1086A,112.5369,37.8692,太原市,桃园,颗粒物(PM10),55,59,79,26,25,91,59,78,74,38,27,10,15,0.7,0.8
2023-05-21T21:00:00,1087A,112.57,37.8195,太原市,坞城,,50,50,81,20,26,90,70,83,78,28,18,7,6,0.6,0.3
2023-05-21T21:00:00,1088A,112.549,37.9854,太原市,南寨,,47,47,88,24,24,90,45,78,65,53,19,9,7,0.7,0.3
2023-05-21T21:00:00,1090A,111.6507,40.7517,呼和浩特市,呼市一监,,28,22,61,10,20,94,87,88,88,7,7,5,6,0.4,0.3
2023-05-21T21:00:00,1091A,111.6572,40.8033,呼和浩特市,小召,,36,36,67,8,17,83,80,78,78,10,12,7,7,0.3,0.3
2023-05-21T21:00:00,1094A,111.7516,40.8369,呼和浩特市,如意水处理厂,,26,25,60,6,25,91,82,82,82,6,3,6,6,0.3,0.2
2023-05-21T21:00:00,1095A,111.7276,40.8062,呼和浩特市,二十九中,,48,48,69,6,35,94,86,87,87,7,6,5,5,0.3,0.3
2023-05-21T21:00:00,1096A,111.5512,40.7866,呼和浩特市,工大金川校区,,27,27,51,6,17,86,75,81,80,14,8,5,5,0.3,0.2
2023-05-21T21:00:00,1097A,111.717,40.7612,呼和浩特市,化肥厂生活区,,,,87,,27,83,83,73,73,6,17,,6,,0.3
2023-05-21T21:00:00,1098A,123.6836,41.9339,沈阳市,森林路,,,,,,,,,,,,,,,,
2023-05-21T21:00:00,1099A,123.505,41.7406,沈阳市,浑南东路,颗粒物(PM10),71,92,224,28,50,100,44,91,86,44,16,9,9,0.6,0.5
2023-05-21T21:00:00,1100A,123.4231,41.6989,沈阳市,新秀街,,50,50,215,10,28,105,62,96,93,33,12,5,5,0.4,0.4
2023-05-21T21:00:00,1102A,123.5903,41.8411,沈阳市,东陵路,颗粒物(PM10),51,51,224,22,48,96,44,87,81,29,17,6,6,0.4,0.4
2023-05-21T21:00:00,1103A,123.4264,41.8467,沈阳市,陵东街,颗粒物(PM10),59,67,204,13,34,102,28,94,84,51,15,7,6,0.6,0.3
2023-05-21T21:00:00,1104A,123.4114,41.7653,沈阳市,文化路,颗粒物(PM10),58,66,215,15,41,103,66,95,92,24,11,6,6,0.4,0.4
2023-05-21T21:00:00,1105A,123.4678,41.7867,沈阳市,小河沿,颗粒物(PM10),59,68,208,16,36,102,54,92,87,43,19,5,6,0.4,0.3
2023-05-21T21:00:00,1106A,123.4017,41.7972,沈阳市,太原街,颗粒物(PM10),66,81,209,25,38,98,32,89,78,60,23,7,7,0.5,0.3
2023-05-21T21:00:00,1108A,123.3783,41.9228,沈阳市,京沈街,颗粒物(PM10),55,60,232,22,51,102,60,96,91,31,11,9,8,0.4,0.4
2023-05-21T21:00:00,1109A,121.612,38.9741,大连市,甘井子,颗粒物(PM10),132,213,322,45,64,97,84,90,90,21,17,5,4,0.1,0.1
2023-05-21T21:00:00,1110A,121.565,38.9511,大连市,周水子,颗粒物(PM10),127,203,312,92,96,100,83,89,89,,22,,2,0.5,0.5
2023-05-21T21:00:00,1111A,121.5637,38.8845,大连市,星海三站,颗粒物(PM10),118,186,362,47,76,97,82,90,90,27,15,2,2,0.4,0.4
2023-05-21T21:00:00,1112A,121.6302,38.9117,大连市,青泥洼桥,颗粒物(PM10),124,197,327,56,85,95,79,88,87,24,18,6,6,0.4,0.4
2023-05-21T21:00:00,1113A,121.6251,38.8638,大连市,傅家庄,颗粒物(PM10),131,212,468,42,75,101,88,94,94,21,15,8,7,0.6,0.6
2023-05-21T21:00:00,1114A,121.5213,38.8661,大连市,七贤岭,颗粒物(PM10),135,220,356,57,99,111,99,103,103,17,10,6,6,0.3,0.3
2023-05-21T21:00:00,1115A,121.2529,38.8061,大连市,旅顺,颗粒物(PM10),122,193,301,58,94,95,72,89,88,21,17,8,7,0.4,0.4
2023-05-21T21:00:00,1116A,121.7485,39.1311,大连市,金州,颗粒物(PM10),116,182,245,45,57,103,85,96,96,19,18,7,8,0.5,0.5
2023-05-21T21:00:00,1117A,121.7811,39.0496,大连市,开发区,颗粒物(PM10),120,190,219,44,58,97,92,92,92,18,23,4,5,0.4,0.4
2023-05-21T21:00:00,1118A,121.9762,39.0631,大连市,双D港,颗粒物(PM10),116,182,294,48,65,103,84,97,95,21,17,7,7,0.3,0.3
2023-05-21T21:00:00,1119A,125.3325,43.9166,长春市,食品厂,颗粒物(PM10),59,67,213,35,44,80,9,76,64,75,21,8,6,0.8,0.3
2023-05-21T21:00:00,1120A,125.2863,43.9027,长春市,客车厂,颗粒物(PM10),55,59,209,19,36,84,24,79,69,77,17,5,4,0.9,0.3
2023-05-21T21:00:00,1121A,125.2841,43.8463,长春市,邮电学院,,46,36,209,32,52,83,36,80,73,38,11,5,5,0.6,0.3
2023-05-21T21:00:00,1122A,125.3716,43.8772,长春市,劳动公园,颗粒物(PM10),83,116,208,52,56,89,25,85,76,53,14,6,6,0.8,0.4
2023-05-21T21:00:00,1123A,125.3297,43.8805,长春市,园林处,,30,30,183,14,30,84,29,79,71,42,13,6,6,0.4,0.2
2023-05-21T21:00:00,1124A,125.4605,43.79,长春市,净月潭,,19,19,190,9,35,91,55,84,79,8,7,3,4,0.2,0.2
2023-05-21T21:00:00,1125A,125.7194,43.515,长春市,甩湾子,,,,,,,,,,,,,,,,
2023-05-21T21:00:00,1126A,125.3863,43.8447,长春市,经开区环卫处,,32,32,191,18,41,88,28,83,74,40,14,6,6,0.6,0.4
2023-05-21T21:00:00,1127A,125.245,43.7783,长春市,高新区管委会,颗粒物(PM10),74,98,214,31,44,90,13,85,72,55,12,5,5,0.5,0.3
2023-05-21T21:00:00,1128A,125.1761,43.8325,长春市,岱山公园,,43,43,201,30,78,91,40,86,78,46,11,5,5,0.4,0.3
2023-05-21T21:00:00,1129A,126.5422,45.755,哈尔滨市,岭北,,26,26,272,11,79,90,72,81,80,13,12,6,6,0.4,0.1
2023-05-21T21:00:00,1130A,126.561,45.8167,哈尔滨市,松北商大,,19,0,277,13,79,81,54,75,69,14,16,5,5,0.4,0.4
2023-05-21T21:00:00,1131A,126.979,45.5419,哈尔滨市,阿城会宁,,25,15,287,17,90,80,57,71,68,16,22,8,11,0.5,0.5
2023-05-21T21:00:00,1132A,126.599,45.7222,哈尔滨市,南岗学府路,,26,26,296,11,84,83,54,76,70,22,15,4,4,0.7,0.6
2023-05-21T21:00:00,1133A,126.689,45.7733,哈尔滨市,太平宏伟公园,,27,27,321,16,73,80,43,74,65,34,16,5,5,0.6,0.4
2023-05-21T21:00:00,1134A,126.635,45.7667,哈尔滨市,道外承德广场,,18,16,266,12,74,81,56,75,69,30,18,6,6,0.6,0.5
2023-05-21T21:00:00,1135A,126.685,45.7319,哈尔滨市,香坊红旗大街,,28,24,308,19,78,86,43,79,69,43,20,8,8,0.5,0.4
2023-05-21T21:00:00,1136A,126.6411,45.7258,哈尔滨市,动力和平路,,24,24,300,15,79,83,61,77,72,28,21,7,7,0.4,0.4
2023-05-21T21:00:00,1137A,126.593,45.7478,哈尔滨市,道里建国路,,40,13,283,28,92,84,52,78,72,38,20,6,6,0.9,0.5
2023-05-21T21:00:00,1138A,126.615,45.61,哈尔滨市,平房东轻厂,,30,7,285,21,98,79,68,70,70,16,23,5,5,0.4,0.4
2023-05-21T21:00:00,1139A,126.595,45.9855,哈尔滨市,呼兰师专,,29,21,270,20,67,86,55,78,74,25,12,9,8,0.5,0.4
2023-05-21T21:00:00,1140A,126.6206,45.6842,哈尔滨市,省农科院,,32,13,305,22,117,87,74,80,74,20,24,8,9,0.4,0.4
2023-05-21T21:00:00,1141A,121.4,31.238,上海市,普陀,,38,26,40,26,32,191,80,133,123,29,25,4,4,0.5,0.5
2023-05-21T21:00:00,1142A,121.478,31.2036,上海市,十五厂,,48,24,41,33,33,167,66,126,109,28,27,6,7,0.4,0.5
2023-05-21T21:00:00,1143A,121.467,31.3008,上海市,虹口,,35,27,42,24,32,145,63,120,104,26,22,8,8,0.5,0.4
2023-05-21T21:00:00,1144A,121.412,31.1654,上海市,徐汇上师大,,45,45,41,24,28,147,60,114,101,26,26,7,7,0.7,0.7
2023-05-21T21:00:00,1145A,121.536,31.2659,上海市,杨浦四漂,,40,27,39,28,32,125,63,110,89,29,29,6,6,0.6,0.6
2023-05-21T21:00:00,1147A,121.425,31.2261,上海市,静安监测站,,35,35,40,21,28,183,70,130,118,26,24,5,5,0.6,0.6
2023-05-21T21:00:00,1148A,121.703,31.1907,上海市,浦东川沙,,42,33,35,29,26,101,82,94,82,17,20,5,6,0.6,0.5
2023-05-21T21:00:00,1149A,121.533,31.2284,上海市,浦东新区监测站,,38,38,37,20,25,169,78,128,105,25,20,6,6,0.4,0.4
2023-05-21T21:00:00,1150A,121.577,31.2071,上海市,浦东张江,,39,39,39,23,29,139,85,122,105,17,19,5,5,0.6,0.5
2023-05-21T21:00:00,1151A,118.8086,32.1065,南京市,迈皋桥,颗粒物(PM10),65,80,75,19,39,233,108,175,158,14,25,5,5,0.3,0.4
2023-05-21T21:00:00,1152A,118.7538,32.0551,南京市,草场门,颗粒物(PM10),63,75,68,22,42,237,111,187,164,11,20,2,2,0.3,0.5
2023-05-21T21:00:00,1153A,118.7794,32.0745,南京市,山西路,颗粒物(PM10),68,85,73,22,41,237,110,182,162,9,16,4,5,0.2,0.4
2023-05-21T21:00:00,1154A,118.7752,32.0023,南京市,中华门,,41,41,66,12,37,225,103,184,162,13,22,3,4,0.6,0.8
2023-05-21T21:00:00,1155A,118.8109,32.0309,南京市,瑞金路,,42,42,63,19,44,234,105,187,163,5,10,4,4,0.4,0.6
2023-05-21T21:00:00,1156A,118.7997,32.0754,南京市,玄武湖,颗粒物(PM10),54,57,68,23,47,225,105,176,155,10,16,6,6,0.6,0.8
2023-05-21T21:00:00,1157A,118.6414,32.0931,南京市,浦口,颗粒物(PM10),58,66,61,31,43,214,115,180,158,14,23,12,8,0.8,0.5
2023-05-21T21:00:00,1158A,118.7356,31.9996,南京市,奥体中心,,49,49,78,27,47,235,106,194,170,12,21,4,5,0.4,0.6
2023-05-21T21:00:00,1159A,118.9125,32.1028,南京市,仙林大学城,,46,46,67,17,41,217,106,167,151,12,21,9,10,0.5,0.7
2023-05-21T21:00:00,1160A,120.561,31.2472,苏州市,上方山,颗粒物(PM10),66,82,56,37,27,157,61,137,128,34,17,8,7,0.6,0.4
2023-05-21T21:00:00,1162A,120.591,31.3019,苏州市,彩香,细颗粒物(PM2.5),67,73,51,48,37,203,86,170,161,21,12,7,5,1.1,0.7
2023-05-21T21:00:00,1163A,120.596,31.3264,苏州市,轧钢厂,颗粒物(PM10),56,61,50,34,30,191,88,162,154,23,17,7,6,0.8,0.7
2023-05-21T21:00:00,1164A,120.613,31.2703,苏州市,吴中区,颗粒物(PM10),62,74,49,40,28,196,71,166,154,37,21,10,8,1.2,0.7
2023-05-21T21:00:00,1165A,120.543,31.2994,苏州市,苏州新区,细颗粒物(PM2.5),60,63,49,43,32,192,84,161,154,18,11,5,4,0.8,0.7
2023-05-21T21:00:00,1166A,120.669,31.3097,苏州市,苏州工业园区,细颗粒物(PM2.5),83,95,54,61,32,192,70,162,151,27,12,13,9,1.2,0.5
2023-05-21T21:00:00,1167A,120.641,31.3708,苏州市,相城区,,46,41,44,32,32,196,93,161,155,14,14,7,7,0.8,0.6
2023-05-21T21:00:00,1168A,120.9098,31.9663,南通市,狼山街道,细颗粒物(PM2.5),54,39,38,38,24,169,98,150,134,12,13,6,7,0.6,0.5
2023-05-21T21:00:00,1169A,120.86,32.0005,南通市,虹桥,,50,35,38,35,28,169,98,146,130,16,20,7,8,0.7,0.5
2023-05-21T21:00:00,1170A,120.87,32.02,南通市,城中,,48,30,38,33,29,151,94,132,120,6,11,6,6,0.5,0.4
2023-05-21T21:00:00,1171A,120.94,31.93,南通市,星湖花园,,49,42,35,34,27,153,87,135,119,13,15,4,4,0.4,0.5
2023-05-21T21:00:00,1172A,120.81,32.0417,南通市,紫琅学院,,35,34,43,24,26,151,100,133,121,11,18,6,7,0.5,0.6
2023-05-21T21:00:00,1173A,119.176,34.5885,连云港市,市环境监测站,颗粒物(PM10),500,630,423,151,87,128,67,106,93,11,12,6,8,0.4,0.4
2023-05-21T21:00:00,1177A,117.179,34.2761,徐州市,黄河新村,颗粒物(PM10),200,349,208,85,52,162,44,158,94,28,19,13,10,0.6,0.5
2023-05-21T21:00:00,1178A,117.1918,34.2384,徐州市,淮塔,颗粒物(PM10),192,333,197,90,54,164,50,159,103,25,18,14,12,0.7,0.6
2023-05-21T21:00:00,1180A,117.256,34.2153,徐州市,新城区,颗粒物(PM10),197,344,194,82,46,163,55,161,107,24,16,10,8,0.9,0.7
2023-05-21T21:00:00,1181A,117.244,34.2911,徐州市,桃园路,颗粒物(PM10),213,359,203,92,58,150,42,141,94,28,17,13,10,0.8,0.6
2023-05-21T21:00:00,1182A,117.2933,34.2778,徐州市,农科院,颗粒物(PM10),230,371,216,78,42,162,45,143,101,37,21,11,10,0.7,0.6
2023-05-21T21:00:00,1186A,119.389,32.3761,扬州市,邗江监测站,,41,41,73,14,36,165,112,140,128,9,29,10,12,0.6,0.8
2023-05-21T21:00:00,1188A,120.269,31.4867,无锡市,雪浪,颗粒物(PM10),54,58,53,29,32,208,90,178,171,21,19,8,9,0.6,0.6
2023-05-21T21:00:00,1189A,120.275,31.6219,无锡市,黄巷,颗粒物(PM10),51,52,58,27,31,213,90,180,168,16,23,5,4,0.8,0.8
2023-05-21T21:00:00,1190A,120.294,31.56,无锡市,曹张,,40,40,41,24,26,204,92,169,162,12,16,4,4,0.4,0.4
2023-05-21T21:00:00,1191A,120.242,31.5031,无锡市,漆塘,,49,48,52,34,34,195,88,170,164,16,19,5,6,0.4,0.5
2023-05-21T21:00:00,1192A,120.3489,31.5863,无锡市,东亭,,36,36,47,19,31,221,98,184,175,11,15,9,9,0.7,0.8
2023-05-21T21:00:00,1193A,120.354,31.5475,无锡市,旺庄,,46,46,49,29,28,210,93,173,163,21,24,7,6,0.5,0.5
2023-05-21T21:00:00,1194A,120.245,31.5631,无锡市,荣巷,,44,44,49,24,33,209,90,177,169,17,21,8,7,0.6,0.5
2023-05-21T21:00:00,1195A,120.299,31.6817,无锡市,堰桥,,36,36,53,22,31,220,94,185,170,17,25,5,6,0.7,0.7
2023-05-21T21:00:00,1196A,119.9633,31.762,常州市,市监测站,,47,47,83,29,41,246,92,193,177,21,34,6,8,0.4,0.7
2023-05-21T21:00:00,1200A,119.9468,31.7069,常州市,武进监测站,颗粒物(PM10),51,52,82,26,38,248,88,200,182,20,24,18,17,0.7,0.7
2023-05-21T21:00:00,1201A,119.9255,31.9087,常州市,安家,,,,112,18,38,220,100,186,150,11,25,6,7,0.5,0.8
2023-05-21T21:00:00,1203A,119.6707,32.1875,镇江市,新区办事处,,27,19,59,10,43,184,85,157,130,4,27,3,3,0.7,1
2023-05-21T21:00:00,1204A,119.4974,32.1968,镇江市,职教中心,,35,24,59,24,60,198,85,159,132,9,23,2,5,0.5,0.9
2023-05-21T21:00:00,1205A,119.4303,32.1328,镇江市,丹徒区监测站,,28,28,73,14,59,220,88,173,144,9,23,3,6,0.5,0.8
2023-05-21T21:00:00,1206A,119.905,32.4878,泰州市,公园路,,29,22,64,19,50,133,91,117,103,5,22,6,9,0.3,0.9
2023-05-21T21:00:00,1207A,119.9189,32.4625,泰州市,莲花,,31,24,70,19,48,142,97,126,109,6,24,8,10,0.5,0.9
2023-05-21T21:00:00,1209A,119.888,32.4639,泰州市,留学生创业园,,30,28,57,10,37,140,93,123,108,7,23,6,9,0.2,0.7
2023-05-21T21:00:00,1210A,119.036,33.5981,淮安市,钵池山,颗粒物(PM10),500,769,191,148,56,146,75,117,101,16,15,7,8,0.9,0.9
2023-05-21T21:00:00,1211A,119.007,33.575,淮安市,北京南路,颗粒物(PM10),500,820,196,132,55,156,75,112,103,24,25,9,9,0.6,0.7
2023-05-21T21:00:00,1212A,118.989,33.6067,淮安市,市监测站,颗粒物(PM10),500,889,207,188,55,167,78,134,108,24,20,12,9,0.7,0.7
2023-05-21T21:00:00,1213A,119.135,33.5039,淮安市,楚州区监测站,颗粒物(PM10),500,794,197,115,52,129,87,117,111,22,23,9,10,0.5,0.6
2023-05-21T21:00:00,1214A,119.0186,33.6297,淮安市,淮阴区监测站,颗粒物(PM10),500,874,215,163,56,146,71,122,100,25,24,14,10,0.5,0.5
2023-05-21T21:00:00,1215A,120.118,33.4022,盐城市,盐城电厂,颗粒物(PM10),97,144,96,24,25,143,133,135,135,6,9,7,7,0.4,0.5
2023-05-21T21:00:00,1216A,120.156,33.3942,盐城市,市监测站,颗粒物(PM10),85,120,88,18,24,135,124,128,128,9,10,12,11,0.2,0.2
2023-05-21T21:00:00,1218A,120.2144,33.38,盐城市,开发区管委会,颗粒物(PM10),60,70,70,16,29,133,110,124,124,8,10,5,4,0.3,0.4
2023-05-21T21:00:00,1220A,118.293,33.9528,宿迁市,宿迁学院,颗粒物(PM10),500,748,196,191,88,143,77,123,109,18,21,8,11,0.5,0.5
2023-05-21T21:00:00,1221A,118.2442,33.9592,宿迁市,宿迁中学,颗粒物(PM10),500,719,190,198,46,187,82,163,114,18,17,5,7,0.5,0.5
2023-05-21T21:00:00,1223A,120.2072,30.2111,杭州市,滨江,颗粒物(PM10),51,52,78,30,40,245,100,178,177,19,36,8,9,0.7,0.7
2023-05-21T21:00:00,1224A,120.0633,30.2747,杭州市,西溪,颗粒物(PM10),59,68,77,40,44,209,75,147,139,25,31,8,8,0.7,0.8
2023-05-21T21:00:00,1226A,120.3461,30.3153,杭州市,下沙,,45,45,65,26,37,229,92,169,162,36,41,5,6,0.6,0.7
2023-05-21T21:00:00,1227A,120.1269,30.2456,杭州市,卧龙桥,细颗粒物(PM2.5),67,54,62,48,49,237,108,168,159,19,29,10,10,0.7,0.8
2023-05-21T21:00:00,1228A,120.1903,30.2692,杭州市,浙江农大,细颗粒物(PM2.5),52,45,58,36,42,229,106,179,176,24,34,6,7,0.5,0.5
2023-05-21T21:00:00,1230A,120.1197,30.3119,杭州市,和睦小学,细颗粒物(PM2.5),55,57,69,39,41,186,98,157,152,28,40,5,6,0.7,0.7
2023-05-21T21:00:00,1231A,120.3019,30.4183,杭州市,临平镇,颗粒物(PM10),58,66,83,32,40,210,113,176,167,19,23,4,5,0.7,0.7
2023-05-21T21:00:00,1232A,120.2697,30.1819,杭州市,城厢镇,,49,42,81,34,61,255,107,186,175,22,37,4,4,0.5,0.6
2023-05-21T21:00:00,1233A,120.0883,30.1808,杭州市,云栖,细颗粒物(PM2.5),65,59,64,47,54,230,108,165,135,19,27,6,7,0.6,0.6
2023-05-21T21:00:00,1234A,121.8358,29.911,宁波市,区环保大楼,,28,28,17,13,12,87,37,82,72,34,12,3,4,0.5,0.5
2023-05-21T21:00:00,1235A,121.56,29.82,宁波市,万里学院,,30,25,27,21,19,108,68,99,90,11,11,3,4,0.7,0.7
2023-05-21T21:00:00,1236A,121.713,29.9572,宁波市,龙赛医院,,31,31,25,19,15,107,63,92,85,20,15,6,6,0.1,0.2
2023-05-21T21:00:00,1239A,121.633,29.7733,宁波市,钱湖水厂,,20,20,22,13,14,67,54,66,57,11,10,4,4,0.4,0.4
2023-05-21T21:00:00,1240A,121.5856,29.8635,宁波市,太古小学,,30,21,21,21,20,108,57,95,87,23,12,5,6,0.7,0.7
2023-05-21T21:00:00,1241A,121.524,29.8674,宁波市,市环境监测中心,,30,29,29,21,14,104,56,88,80,19,15,3,3,0.5,0.5
2023-05-21T21:00:00,1242A,120.634,28.0089,温州市,瓯海,细颗粒物(PM2.5),53,50,41,37,28,78,40,66,53,35,30,7,7,0.7,0.6
2023-05-21T21:00:00,1243A,120.6748,27.9939,温州市,南浦,"颗粒物(PM10),细颗粒物(PM2.5)",52,53,46,36,28,75,42,69,52,36,26,4,4,0.6,0.5
2023-05-21T21:00:00,1244A,120.76,27.9747,温州市,龙湾,颗粒物(PM10),54,58,40,30,24,69,30,62,44,54,37,6,6,0.7,0.6
2023-05-21T21:00:00,1245A,120.6709,28.0167,温州市,市站,细颗粒物(PM2.5),74,66,54,54,37,80,31,62,52,51,39,4,5,0.7,0.6
2023-05-21T21:00:00,1247A,120.6053,29.9928,绍兴市,城东开发委,颗粒物(PM10),54,58,80,35,50,146,74,120,112,27,34,5,7,0.9,1
2023-05-21T21:00:00,1250A,120.0751,30.8669,湖州市,城西水厂,颗粒物(PM10),52,53,52,34,34,195,113,174,168,28,25,4,6,0.6,0.6
2023-05-21T21:00:00,1252A,120.7436,30.778,嘉兴市,清河小学,,46,46,40,23,21,166,97,141,137,16,20,5,5,0.6,0.6
2023-05-21T21:00:00,1253A,120.726,30.7478,嘉兴市,嘉兴学院,,50,42,38,35,29,168,97,150,144,20,22,4,5,0.4,0.5
2023-05-21T21:00:00,1255A,121.273,28.6459,台州市,黄岩环保大楼,细颗粒物(PM2.5),62,52,37,44,25,94,22,92,54,29,18,4,5,0.7,0.6
2023-05-21T21:00:00,1256A,121.419,28.6542,台州市,台州环保大楼,细颗粒物(PM2.5),52,52,32,36,25,93,45,78,65,19,13,4,4,0.6,0.5
2023-05-21T21:00:00,1257A,121.377,28.5773,台州市,路桥田洋王,细颗粒物(PM2.5),65,62,42,47,27,90,54,72,68,27,24,10,9,0.6,0.5
2023-05-21T21:00:00,1258A,122.122,30.0203,舟山市,定海檀枫,,19,13,17,8,10,78,60,74,58,11,18,5,5,0.5,0.4
2023-05-21T21:00:00,1259A,122.3094,29.9558,舟山市,普陀东港,,25,12,17,8,15,86,79,80,71,5,11,5,5,0.3,0.3
2023-05-21T21:00:00,1260A,122.19,29.9944,舟山市,临城新区,,23,14,20,7,10,84,72,79,70,9,17,4,5,0.3,0.3
2023-05-21T21:00:00,1262A,119.647,29.077,金华市,十五中,细颗粒物(PM2.5),90,50,44,67,41,107,52,87,81,27,18,5,6,0.7,0.6
2023-05-21T21:00:00,1263A,119.686,29.1029,金华市,监测站,,29,27,33,20,26,111,27,89,76,32,19,4,4,0.7,0.6
2023-05-21T21:00:00,1264A,118.8692,28.9398,衢州市,环保大楼,,43,33,91,30,66,117,28,76,60,24,37,11,8,0.8,0.9
2023-05-21T21:00:00,1265A,118.8709,28.9666,衢州市,实验学校,,30,28,90,21,56,119,38,86,70,22,32,9,5,0.6,0.8
2023-05-21T21:00:00,1266A,118.8621,28.9808,衢州市,衢州学院,,42,35,86,29,75,125,43,92,70,24,36,5,6,0.5,0.7
2023-05-21T21:00:00,1267A,119.914,28.4514,丽水市,监测站大楼,,29,26,25,20,16,71,22,52,48,28,15,4,4,0.8,0.6
2023-05-21T21:00:00,1268A,119.93,28.4586,丽水市,莲都小学,,34,34,28,22,16,76,13,57,50,37,18,5,4,0.6,0.5
2023-05-21T21:00:00,1269A,119.879,28.4231,丽水市,余庄前,,32,32,28,22,18,61,6,41,29,15,17,4,4,0.7,0.6
2023-05-21T21:00:00,1270A,117.1959,31.7848,合肥市,明珠广场,颗粒物(PM10),60,70,87,36,56,192,109,159,159,15,26,5,7,0.4,0.8
2023-05-21T21:00:00,1271A,117.3072,31.8764,合肥市,三里街,颗粒物(PM10),71,92,108,27,64,182,100,152,147,16,33,4,7,0.5,1
2023-05-21T21:00:00,1272A,117.2588,31.8707,合肥市,琥珀山庄,颗粒物(PM10),73,96,95,34,58,187,109,158,155,16,27,5,6,0.4,0.8
2023-05-21T21:00:00,1273A,117.1604,31.9052,合肥市,董铺水库,颗粒物(PM10),80,110,92,22,52,170,105,148,145,8,23,3,5,0.2,0.6
2023-05-21T21:00:00,1274A,117.25,31.8571,合肥市,长江中路,颗粒物(PM10),87,124,108,46,70,191,105,160,157,8,23,10,12,0.5,0.9
2023-05-21T21:00:00,1275A,117.266,31.9436,合肥市,庐阳区,颗粒物(PM10),85,119,92,31,63,160,104,142,137,13,40,5,8,0.3,0.7
2023-05-21T21:00:00,1276A,117.336,31.8586,合肥市,瑶海区,颗粒物(PM10),70,90,119,33,63,193,103,158,152,18,32,7,9,0.5,1
2023-05-21T21:00:00,1277A,117.3027,31.7964,合肥市,包河区,颗粒物(PM10),64,78,94,42,63,177,96,138,135,23,32,6,9,0.4,0.8
2023-05-21T21:00:00,1278A,117.2776,31.7385,合肥市,滨湖新区,细颗粒物(PM2.5),62,68,88,44,60,194,107,161,159,16,22,6,8,0.4,0.7
2023-05-21T21:00:00,1279A,117.1318,31.8403,合肥市,高新区,颗粒物(PM10),74,97,85,37,50,174,111,152,152,13,27,8,10,0.4,0.7
2023-05-21T21:00:00,1280A,119.3903,26.0543,福州市,鼓山,,,,,,,,,,,,,,,,
2023-05-21T21:00:00,1282A,119.2681,26.0504,福州市,师大,,47,47,45,21,26,109,43,91,83,24,18,5,5,0.4,0.4
2023-05-21T21:00:00,1283A,119.2984,26.1028,福州市,五四北路,,49,49,42,27,27,112,46,98,89,32,20,3,3,0.4,0.4
2023-05-21T21:00:00,1284A,119.2648,26.0768,福州市,杨桥西路,,48,45,41,33,28,106,44,87,78,24,19,3,3,0.5,0.5
2023-05-21T21:00:00,1285A,119.317,26.0746,福州市,紫阳,,40,40,42,28,27,98,48,87,81,18,20,2,3,0.4,0.4
2023-05-21T21:00:00,1286A,118.1608,24.8169,厦门市,溪东,,,,,,,,,,,,,,,,
2023-05-21T21:00:00,1287A,118.1514,24.4767,厦门市,洪文,,11,11,22,7,14,85,31,72,44,3,6,3,2,0.1,0.2
2023-05-21T21:00:00,1288A,118.0661,24.4444,厦门市,鼓浪屿,,13,13,21,9,15,70,32,52,43,4,21,1,4,0.2,0.3
2023-05-21T21:00:00,1290A,115.8931,28.6843,南昌市,省外办,,18,15,26,12,20,78,51,67,62,18,16,4,5,0.5,0.5
2023-05-21T21:00:00,1291A,115.8886,28.7003,南昌市,省林业公司,,20,5,18,9,20,78,61,68,64,25,29,4,4,0.2,0.3
2023-05-21T21:00:00,1292A,115.8126,28.7442,南昌市,林科所,,25,5,18,7,15,73,29,57,52,49,29,6,6,0.7,0.8
2023-05-21T21:00:00,1294A,115.8518,28.687,南昌市,建工学校,,18,14,36,2,17,81,57,64,60,16,17,5,6,0.5,0.5
2023-05-21T21:00:00,1295A,115.8921,28.6424,南昌市,象湖,,20,17,23,14,18,84,47,70,63,26,22,5,4,0.7,0.5
2023-05-21T21:00:00,1296A,115.7423,28.7996,南昌市,武术学校,,16,2,16,10,19,85,51,57,55,4,6,13,12,0.2,0.3
2023-05-21T21:00:00,1298A,115.9314,28.6842,南昌市,省站,,24,24,31,11,20,76,53,67,63,17,16,6,6,0.9,0.8
2023-05-21T21:00:00,1299A,116.9862,36.6114,济南市,科干所,颗粒物(PM10),68,85,199,22,43,80,68,69,69,26,32,8,9,0.3,0.3
2023-05-21T21:00:00,1300A,116.9376,36.665,济南市,农科所,颗粒物(PM10),63,76,209,17,45,74,46,57,52,34,38,3,5,0.1,0.2
2023-05-21T21:00:00,1301A,117.1265,36.6734,济南市,开发区,颗粒物(PM10),74,98,205,20,47,77,57,66,64,35,36,5,7,0.4,0.4
2023-05-21T21:00:00,1303A,117.0624,36.6868,济南市,省种子仓库,颗粒物(PM10),67,83,217,19,52,76,58,67,66,24,30,2,5,0.1,0.2
2023-05-21T21:00:00,1304A,116.9489,36.6447,济南市,机床二厂,颗粒物(PM10),72,93,224,17,70,75,54,66,64,36,40,5,6,0.2,0.3
2023-05-21T21:00:00,1305A,117.0495,36.663,济南市,市监测站,颗粒物(PM10),66,81,209,20,53,84,66,72,71,32,35,8,10,0.2,0.2
2023-05-21T21:00:00,1306A,116.7675,36.5484,济南市,长清党校,颗粒物(PM10),68,85,235,17,51,87,49,72,59,38,43,7,8,0.4,0.4
2023-05-21T21:00:00,1307A,120.6659,36.2403,青岛市,仰口,颗粒物(PM10),120,190,625,41,107,96,67,90,57,13,12,4,4,0.2,0.3
2023-05-21T21:00:00,1310A,120.4134,36.0658,青岛市,市南区东部子站,颗粒物(PM10),156,261,476,61,92,104,68,81,38,32,40,8,7,0.5,0.6
2023-05-21T21:00:00,1311A,120.3664,36.1032,青岛市,四方区子站,颗粒物(PM10),191,332,430,80,110,82,59,76,39,40,46,9,9,0.5,0.6
2023-05-21T21:00:00,1312A,120.2994,36.054,青岛市,市南区西部子站,颗粒物(PM10),155,259,446,39,82,92,68,62,38,30,45,6,7,0.5,0.6
2023-05-21T21:00:00,1313A,120.4581,36.0858,青岛市,崂山区子站,颗粒物(PM10),163,276,345,66,98,118,73,100,42,20,30,8,8,0.3,0.5
2023-05-21T21:00:00,1314A,120.1983,35.9608,青岛市,黄岛区子站,颗粒物(PM10),373,478,522,134,123,64,17,49,33,62,51,6,7,0.4,0.4
2023-05-21T21:00:00,1315A,120.3999,36.3083,青岛市,城阳区子站,颗粒物(PM10),139,228,407,39,66,95,66,80,54,17,27,5,6,0.4,0.4
2023-05-21T21:00:00,1316A,113.69031,34.76122,郑州市,烟厂,颗粒物(PM10),53,56,103,24,25,112,48,102,62,22,14,5,5,0.5,0.4
2023-05-21T21:00:00,1317A,113.65724,34.77134,郑州市,郑纺机,颗粒物(PM10),53,56,108,22,26,106,48,98,62,23,14,3,3,0.5,0.4
2023-05-21T21:00:00,1318A,113.67526,34.80246,郑州市,银行学校,颗粒物(PM10),53,56,105,22,22,96,46,90,61,16,10,4,5,0.7,0.5
2023-05-21T21:00:00,1319A,113.56746,34.81334,郑州市,供水公司,颗粒物(PM10),53,55,101,23,24,103,48,97,62,22,16,6,6,0.4,0.2
2023-05-21T21:00:00,1320A,113.7329,34.7178,郑州市,经开区管委,颗粒物(PM10),58,66,106,25,31,104,51,98,63,24,16,1,1,0.6,0.4
2023-05-21T21:00:00,1321A,113.73961,34.77172,郑州市,四十七中,,,,,,,,,,,,,,,,
2023-05-21T21:00:00,1322A,113.60532,34.74838,郑州市,市监测站,颗粒物(PM10),54,57,107,31,31,111,39,102,55,26,12,3,3,0.5,0.6
2023-05-21T21:00:00,1323A,113.64164,34.7525,郑州市,河医大,颗粒物(PM10),57,63,119,23,25,100,42,92,56,24,15,5,5,0.5,0.4
2023-05-21T21:00:00,1324A,113.51488,34.91089,郑州市,岗李水库,,30,30,88,20,17,104,44,98,54,22,13,6,6,0.7,0.6
2023-05-21T21:00:00,1325A,114.3677,30.5584,武汉市,东湖梨园,颗粒物(PM10),56,62,67,29,37,108,68,85,76,13,19,6,8,0.2,0.6
2023-05-21T21:00:00,1326A,114.2529,30.558,武汉市,汉阳月湖,颗粒物(PM10),57,64,73,31,38,106,70,86,78,16,30,7,8,0.4,0.8
2023-05-21T21:00:00,1327A,114.282,30.6189,武汉市,汉口花桥,颗粒物(PM10),61,72,80,27,43,93,69,82,76,12,25,6,8,0.4,0.8
2023-05-21T21:00:00,1328A,114.3025,30.5332,武汉市,武昌紫阳,颗粒物(PM10),57,63,68,22,38,104,69,84,75,12,25,4,7,0.4,0.8
2023-05-21T21:00:00,1329A,114.3646,30.6217,武汉市,青山钢花,颗粒物(PM10),62,74,78,36,48,99,73,87,78,12,23,6,11,0.5,1
2023-05-21T21:00:00,1330A,114.1566,30.4825,武汉市,沌口新区,颗粒物(PM10),56,62,72,19,43,89,58,71,65,15,27,9,8,0.4,0.7
2023-05-21T21:00:00,1331A,114.3014,30.5944,武汉市,汉口江滩,颗粒物(PM10),59,68,70,18,38,93,68,83,79,14,31,6,8,0.3,0.7
2023-05-21T21:00:00,1333A,114.135,30.6319,武汉市,吴家山,颗粒物(PM10),57,64,72,24,41,88,66,78,73,11,30,6,7,0.6,1.1
2023-05-21T21:00:00,1334A,113.8454,30.2917,武汉市,沉湖七壕,颗粒物(PM10),55,59,63,19,33,107,76,86,83,10,26,5,6,0.4,0.7
2023-05-21T21:00:00,1335A,113.0833,28.2325,长沙市,经开区环保局,,18,14,35,4,24,99,57,78,71,12,11,2,3,0.6,0.6
2023-05-21T21:00:00,1336A,112.8872,28.2189,长沙市,高开区环保局,,25,7,30,17,30,118,53,93,80,6,9,6,9,0.2,0.5
2023-05-21T21:00:00,1337A,113.0792,28.2053,长沙市,马坡岭,,17,12,31,6,26,106,54,86,75,10,10,3,3,0.4,0.4
2023-05-21T21:00:00,1338A,112.9394,28.19,长沙市,湖南师范大学,,15,14,34,1,25,100,45,81,66,5,7,1,2,0.6,0.7
2023-05-21T21:00:00,1339A,113.0178,28.1322,长沙市,雨花区环保局,,25,16,32,17,25,123,39,90,69,11,11,5,6,0.4,0.5
2023-05-21T21:00:00,1340A,112.9792,28.2597,长沙市,伍家岭,,22,22,38,6,20,115,48,87,72,10,19,3,3,0.4,0.6
2023-05-21T21:00:00,1341A,113.0014,28.1944,长沙市,火车新站,,15,9,28,0,20,102,48,83,70,8,12,6,7,0.5,0.6
2023-05-21T21:00:00,1342A,112.9844,28.1178,长沙市,天心区环保局,,21,21,41,3,22,122,54,98,80,3,5,1,3,0.4,0.6
2023-05-21T21:00:00,1343A,112.8908,28.1308,长沙市,湖南中医药大学,,18,12,36,5,30,140,57,105,89,8,12,2,4,0.6,0.8
2023-05-21T21:00:00,1344A,112.9581,28.3611,长沙市,沙坪,,46,46,37,7,36,104,54,76,65,6,7,4,4,0.3,0.4
2023-05-21T21:00:00,1345A,113.2347,23.1423,广州市,广雅中学,,34,34,32,19,18,104,41,90,77,17,14,3,3,0.9,0.8
2023-05-21T21:00:00,1346A,113.2612,23.105,广州市,市五中,,37,37,35,20,20,106,42,91,78,12,11,5,5,0.4,0.4
2023-05-21T21:00:00,1348A,113.3478,23.0916,广州市,广东商学院,,45,45,50,19,20,93,44,83,74,12,16,3,3,0.5,0.6
2023-05-21T21:00:00,1349A,113.4332,23.1047,广州市,市八十六中,,44,44,37,19,19,85,29,78,65,23,20,3,3,0.8,0.7
2023-05-21T21:00:00,1350A,113.3505,22.9483,广州市,番禺中学,,32,32,34,15,17,100,45,90,76,10,14,5,5,0.7,0.6
2023-05-21T21:00:00,1351A,113.2146,23.3916,广州市,花都师范,,44,44,37,21,20,123,52,109,96,18,15,6,5,0.8,0.8
2023-05-21T21:00:00,1352A,113.2597,23.1331,广州市,市监测站,,28,28,36,17,21,115,48,99,85,15,15,5,5,0.7,0.6
2023-05-21T21:00:00,1353A,113.5618,23.312,广州市,九龙镇镇龙,,37,37,37,16,18,112,33,93,80,26,18,6,6,0.5,0.5
2023-05-21T21:00:00,1354A,113.2765,23.1544,广州市,麓湖,,33,33,33,18,19,116,49,101,87,14,13,4,4,0.5,0.5
2023-05-21T21:00:00,1355A,113.443,23.3035,广州市,帽峰山森林公园,,27,27,32,14,16,146,40,116,84,24,16,2,3,0.4,0.4
2023-05-21T21:00:00,1356A,114.1063,22.5545,深圳市,通心岭子站,,20,20,20,10,12,65,36,55,47,10,6,3,3,0.6,0.6
2023-05-21T21:00:00,1357A,114.117,22.5625,深圳市,洪湖,,25,25,25,9,12,59,39,54,52,11,9,5,5,0.5,0.5
2023-05-21T21:00:00,1358A,113.987,22.5417,深圳市,华侨城,,28,28,23,7,10,62,30,56,47,22,12,6,5,0.6,0.6
2023-05-21T21:00:00,1359A,113.9181,22.5171,深圳市,南海子站,,40,40,29,14,11,54,19,50,40,32,17,5,4,0.5,0.5
2023-05-21T21:00:00,1360A,114.2458,22.5689,深圳市,盐田,,26,26,23,15,12,61,33,51,45,9,13,4,4,0.4,0.6
2023-05-21T21:00:00,1361A,114.2283,22.7244,深圳市,龙岗,,24,24,24,13,12,72,42,63,56,15,15,3,2,0.6,0.5
2023-05-21T21:00:00,1363A,114.494,22.5422,深圳市,南澳,,21,21,18,7,10,54,45,52,50,6,7,3,3,0.6,0.6
2023-05-21T21:00:00,1364A,114.41,22.6342,深圳市,葵涌,,17,17,16,7,8,56,36,52,46,5,4,6,5,0.5,0.5
2023-05-21T21:00:00,1365A,114.297,22.5978,深圳市,梅沙,,30,30,28,14,15,60,26,48,43,16,14,4,4,0.6,0.6
2023-05-21T21:00:00,1366A,114.0678,22.738,深圳市,观澜,,29,29,31,10,12,70,30,57,46,20,15,6,5,0.5,0.5
2023-05-21T21:00:00,1367A,113.5814,22.2618,珠海市,吉大,,21,21,22,2,10,55,43,53,50,6,3,6,7,0.2,0.2
2023-05-21T21:00:00,1368A,113.4881,22.2335,珠海市,前山,,21,21,19,12,11,58,40,56,49,9,5,4,4,0.2,0.2
2023-05-21T21:00:00,1369A,113.628,22.4251,珠海市,唐家,,17,17,20,8,12,60,38,58,51,5,3,4,4,0.2,0.2
2023-05-21T21:00:00,1370A,113.299,22.2281,珠海市,斗门,,25,24,23,17,12,59,31,54,45,16,8,11,7,0.6,0.4
2023-05-21T21:00:00,1371A,113.1294,23.0067,佛山市,湾梁,,34,34,33,18,17,105,50,96,82,5,5,5,5,0.5,0.5
2023-05-21T21:00:00,1372A,113.1083,23.0478,佛山市,华材职中,,31,31,28,17,17,106,48,95,82,10,9,8,8,0.5,0.5
2023-05-21T21:00:00,1373A,113.144,23.0453,佛山市,南海气象局,,41,41,32,17,17,83,36,75,64,13,12,4,4,0.4,0.4
2023-05-21T21:00:00,1374A,113.2881,22.8094,佛山市,顺德苏岗,,20,12,22,14,16,69,36,64,56,8,7,4,4,0.5,0.5
2023-05-21T21:00:00,1376A,112.8383,22.8678,佛山市,高明孔堂,,38,38,29,13,13,73,49,70,66,5,4,4,4,0.6,0.6
2023-05-21T21:00:00,1377A,112.8836,23.1588,佛山市,三水监测站,,34,34,35,19,23,94,40,82,71,19,18,3,3,0.5,0.6
2023-05-21T21:00:00,1378A,112.867,23.185,佛山市,三水云东海,,41,41,36,20,19,102,43,86,76,20,16,6,5,0.5,0.6
2023-05-21T21:00:00,1379A,113.3769,22.5211,中山市,华柏园,,30,24,29,21,16,96,44,61,52,5,5,8,6,0.4,0.5
2023-05-21T21:00:00,1380A,113.3881,22.5497,中山市,张溪,,19,19,30,12,13,75,46,70,64,7,4,5,4,0.4,0.3
2023-05-21T21:00:00,1381A,113.4075,22.5111,中山市,紫马岭,,24,24,26,15,15,76,49,70,64,6,4,7,6,0.5,0.5
2023-05-21T21:00:00,1382A,113.4411,22.4853,中山市,长江旅游区,,22,22,23,12,15,79,49,72,64,5,4,8,8,0.3,0.3
2023-05-21T21:00:00,1383A,113.1064,22.6058,江门市,北街,,24,24,28,11,13,70,40,66,57,7,6,4,5,0.2,0.2
2023-05-21T21:00:00,1384A,113.0731,22.5835,江门市,西区,,35,35,28,15,15,75,38,70,57,10,9,7,7,0.4,0.3
2023-05-21T21:00:00,1385A,113.0219,22.5311,江门市,圭峰西,,30,30,33,15,14,70,36,65,53,10,10,4,4,0.4,0.4
2023-05-21T21:00:00,1386A,113.0828,22.5947,江门市,东湖,,,31,27,17,17,75,,70,61,10,8,5,5,0.5,0.4
2023-05-21T21:00:00,1389A,113.7547,23.0494,东莞市,莞城梨川,,28,28,26,10,13,89,46,81,71,10,7,7,7,0.6,0.6
2023-05-21T21:00:00,1390A,113.7944,23.0128,东莞市,东城石井,,26,26,23,10,12,88,46,80,70,10,7,8,8,0.5,0.5
2023-05-21T21:00:00,1391A,113.7383,22.9658,东莞市,南城西平,,26,26,25,12,14,86,45,77,67,10,7,14,7,0.6,0.6
2023-05-21T21:00:00,1392A,114.4183,23.0528,惠州市,河南岸金山湖子站,,26,26,31,11,15,85,38,76,65,10,10,3,3,0.4,0.5
2023-05-21T21:00:00,1393A,114.4053,23.0822,惠州市,下埔横江三路子站,,,23,28,10,13,88,27,80,66,,9,4,4,0.6,0.6
2023-05-21T21:00:00,1394A,114.4103,23.1142,惠州市,江北云山西路子站,,20,20,29,12,15,95,40,87,73,7,6,6,5,0.5,0.5
2023-05-21T21:00:00,1395A,114.4645,22.7833,惠州市,惠阳区承修路船湖子站,,22,22,26,11,14,60,34,55,47,11,9,4,4,0.4,0.4
2023-05-21T21:00:00,1396A,114.5317,22.7422,惠州市,大亚湾管委会子站,,16,3,23,11,14,59,44,56,52,11,10,10,11,0.5,0.5
2023-05-21T21:00:00,1397A,112.4267,23.0706,肇庆市,睦岗子站,,46,46,38,18,20,80,61,75,72,8,12,6,8,0.2,0.2
2023-05-21T21:00:00,1398A,112.4645,23.0475,肇庆市,城中子站,,42,42,34,21,19,84,55,78,75,10,11,12,14,0.3,0.3
2023-05-21T21:00:00,1399A,112.5544,23.1522,肇庆市,坑口子站,,38,38,32,23,20,95,56,89,84,14,11,9,7,0.4,0.3
2023-05-21T21:00:00,1400A,112.4753,23.1,肇庆市,七星岩子站,,35,35,32,17,17,75,48,68,61,11,12,6,9,0.5,0.4
2023-05-21T21:00:00,1401A,108.3103,22.7881,南宁市,二十一中,,43,42,51,30,30,119,92,112,108,10,10,5,5,0.7,0.7
2023-05-21T21:00:00,1402A,108.3141,22.8528,南宁市,北湖,颗粒物(PM10),59,68,52,33,30,114,89,110,105,8,8,6,7,0.5,0.5
2023-05-21T21:00:00,1403A,108.3206,22.8225,南宁市,市监测站,,49,49,55,27,27,111,76,108,98,29,18,6,7,0.9,0.9
2023-05-21T21:00:00,1404A,108.3829,22.8037,南宁市,大自然花园,,49,49,49,31,31,104,88,101,98,11,8,5,5,0.8,0.9
2023-05-21T21:00:00,1405A,108.4394,22.7904,南宁市,仙葫,颗粒物(PM10),53,55,52,29,28,106,89,100,99,12,11,5,5,0.4,0.4
2023-05-21T21:00:00,1406A,108.2397,22.8467,南宁市,区农职院,颗粒物(PM10),63,75,57,37,28,120,85,114,106,16,15,7,8,0.8,0.8
2023-05-21T21:00:00,1407A,108.3275,22.735,南宁市,英华嘉园,细颗粒物(PM2.5),54,54,55,38,32,100,81,95,93,14,14,8,7,0.4,0.6
2023-05-21T21:00:00,1408A,108.2257,22.7757,南宁市,沙井镇街道办,颗粒物(PM10),53,56,54,30,29,102,74,99,94,21,19,4,5,0.7,0.8
2023-05-21T21:00:00,1409A,110.576,19.9507,海口市,东寨港,,,,,,,,,,,,,,,,
2023-05-21T21:00:00,1410A,110.3232,20.0574,海口市,海南大学,,42,42,39,22,23,105,53,95,83,7,6,6,6,0.4,0.4
2023-05-21T21:00:00,1411A,110.283,20.0053,海口市,秀英海南医院,,35,23,37,24,23,91,21,84,68,37,13,4,4,0.5,0.4
2023-05-21T21:00:00,1412A,110.338,19.9969,海口市,海南师范大学,,32,29,39,22,21,82,37,74,63,12,7,5,5,0.4,0.4
2023-05-21T21:00:00,1413A,110.33,20.0356,海口市,龙华路环保局宿舍,,32,28,37,22,22,92,47,87,76,11,8,6,6,0.3,0.3
2023-05-21T21:00:00,1414A,106.3787,29.8279,重庆市,缙云山,,19,9,22,5,11,84,58,84,60,7,9,7,8,0.1,0.2
2023-05-21T21:00:00,1416A,106.4213,29.8253,重庆市,天生,,29,20,37,20,28,61,54,57,57,7,24,5,6,0.7,0.9
2023-05-21T21:00:00,1417A,106.6263,29.7228,重庆市,两路,,21,21,32,9,20,64,46,64,51,16,25,6,6,0.7,0.8
2023-05-21T21:00:00,1418A,106.2953,29.5983,重庆市,虎溪,,30,30,40,14,29,77,55,64,64,12,30,4,5,0.5,0.7
2023-05-21T21:00:00,1419A,106.5777,29.5102,重庆市,南坪,,32,30,44,22,35,62,35,52,46,33,33,6,9,0.4,0.7
2023-05-21T21:00:00,1420A,106.6556,29.6277,重庆市,唐家沱,,30,28,39,21,27,69,40,62,50,28,30,6,7,0.6,0.8
2023-05-21T21:00:00,1421A,106.6349,29.4906,重庆市,茶园,,40,40,52,23,33,84,41,67,58,30,37,4,6,0.5,0.7
2023-05-21T21:00:00,1422A,106.3754,29.4572,重庆市,白市驿,,26,24,41,18,24,64,47,53,53,14,24,6,8,0.5,0.8
2023-05-21T21:00:00,1425A,106.6205,29.7166,重庆市,空港,,29,24,35,20,28,70,46,70,50,17,24,6,7,0.7,0.8
2023-05-21T21:00:00,1426A,106.4782,29.4875,重庆市,新山村,,36,36,49,20,29,72,48,60,60,20,36,6,8,0.6,0.8
2023-05-21T21:00:00,1427A,106.5616,29.6453,重庆市,礼嘉,,45,41,41,31,24,56,42,55,53,26,36,7,8,0.8,1
2023-05-21T21:00:00,1428A,106.4522,29.7091,重庆市,蔡家,,32,32,46,20,24,67,53,61,61,13,24,5,6,0.4,0.6
2023-05-21T21:00:00,1429A,106.5093,29.3917,重庆市,鱼新街,,22,18,38,15,29,78,55,69,67,18,26,4,6,0.8,1
2023-05-21T21:00:00,1431A,103.9728,30.7236,成都市,金泉两河,颗粒物(PM10),57,63,61,24,38,62,42,51,50,30,20,2,2,0.2,0.4
2023-05-21T21:00:00,1432A,104.176,30.6872,成都市,十里店,颗粒物(PM10),53,56,65,22,43,74,72,69,69,12,23,2,2,0.3,0.6
2023-05-21T21:00:00,1433A,104.079,30.5706,成都市,三瓦窑,颗粒物(PM10),56,62,63,26,40,78,72,67,67,9,23,3,3,0.3,0.5
2023-05-21T21:00:00,1434A,104.1114,30.63,成都市,沙河铺,颗粒物(PM10),51,51,66,22,42,68,68,60,60,8,19,3,2,0.3,0.5
2023-05-21T21:00:00,1437A,104.0786,30.6531,成都市,君平街,颗粒物(PM10),55,60,61,20,43,76,73,70,70,15,24,2,3,0.3,0.6
2023-05-21T21:00:00,1438A,103.613,31.0283,成都市,灵岩寺,,25,17,20,9,16,102,77,96,66,13,10,3,6,0.3,0.5
2023-05-21T21:00:00,1439A,106.6899,26.5998,贵阳市,马鞍山,细颗粒物(PM2.5),62,53,48,44,32,132,105,122,120,9,10,4,4,0.4,0.4
2023-05-21T21:00:00,1440A,106.6971,26.5694,贵阳市,市环保站,细颗粒物(PM2.5),59,53,58,42,40,141,114,130,129,16,17,6,5,0.3,0.3
2023-05-21T21:00:00,1441A,106.6243,26.6266,贵阳市,鉴湖路,颗粒物(PM10),53,56,57,36,30,142,92,129,125,14,9,5,5,0.6,0.5
2023-05-21T21:00:00,1442A,106.7487,26.6343,贵阳市,燕子冲,细颗粒物(PM2.5),64,58,55,46,40,154,118,142,139,14,15,7,6,0.6,0.7
2023-05-21T21:00:00,1443A,106.6555,26.4365,贵阳市,碧云窝,颗粒物(PM10),67,83,65,41,30,136,114,127,126,15,10,6,5,0.6,0.5
2023-05-21T21:00:00,1444A,106.694,26.5161,贵阳市,中院村,颗粒物(PM10),63,75,61,41,34,138,111,128,127,15,13,9,7,0.6,0.5
2023-05-21T21:00:00,1445A,106.7109,26.6027,贵阳市,红边门,细颗粒物(PM2.5),52,48,58,36,40,150,116,135,133,11,15,7,6,0.6,0.6
2023-05-21T21:00:00,1446A,106.7164,26.5699,贵阳市,新华路,细颗粒物(PM2.5),67,63,57,48,36,147,112,136,134,14,15,5,4,0.3,0.4
2023-05-21T21:00:00,1447A,106.674,26.5424,贵阳市,太慈桥,颗粒物(PM10),52,53,60,31,29,144,120,134,133,13,12,7,5,0.6,0.5
2023-05-21T21:00:00,1450A,102.8204,24.8886,昆明市,呈贡新区,,36,32,34,15,17,148,114,141,134,13,9,6,6,0.4,0.5
2023-05-21T21:00:00,1451A,102.6251,24.9608,昆明市,西山森林公园,,40,25,28,7,15,148,127,138,132,10,11,6,9,0.8,0.9
2023-05-21T21:00:00,1452A,102.7252,25.0902,昆明市,龙泉镇,,35,35,36,14,16,123,100,120,116,20,24,7,9,0.3,0.5
2023-05-21T21:00:00,1453A,102.7266,25.0375,昆明市,东风东路,,34,34,35,8,13,118,100,114,111,14,12,6,9,0.5,0.6
2023-05-21T21:00:00,1454A,102.6742,25.0669,昆明市,金鼎山,,36,28,35,15,18,131,113,126,123,14,12,3,5,0.4,0.5
2023-05-21T21:00:00,1455A,102.6644,25.0401,昆明市,碧鸡广场,,33,33,37,19,19,143,103,127,121,23,14,5,9,0.4,0.5
2023-05-21T21:00:00,1456A,91.1319,29.6514,拉萨市,八廓街,臭氧1小时,54,15,18,6,6,170,163,168,151,8,10,6,5,0.4,0.4
2023-05-21T21:00:00,1457A,91.1221,29.6747,拉萨市,市环保局,,49,6,21,0,8,174,154,164,154,20,14,4,5,0.6,0.6
2023-05-21T21:00:00,1458A,91.0874,29.6475,拉萨市,区监测站,,49,12,24,9,9,174,155,159,149,16,14,7,7,0.2,0.2
2023-05-21T21:00:00,1459A,91.1774,29.6541,拉萨市,西藏大学,臭氧1小时,62,12,15,5,5,178,169,176,157,6,9,7,8,0.2,0.2
2023-05-21T21:00:00,1460A,90.9798,29.6588,拉萨市,区辐射站,,42,6,20,5,7,150,132,134,134,22,13,8,8,0.2,0.2
2023-05-21T21:00:00,1461A,91.0834,29.6292,拉萨市,拉萨火车站,,50,9,21,0,4,174,160,157,149,7,8,8,8,0.4,0.4
2023-05-21T21:00:00,1462A,108.882,34.2749,西安市,高压开关厂,,25,25,62,2,16,128,77,100,74,18,16,6,6,0.1,0.1
2023-05-21T21:00:00,1463A,108.993,34.2629,西安市,兴庆小区,,20,16,53,12,19,120,62,94,66,13,11,4,5,0.4,0.5
2023-05-21T21:00:00,1464A,109.06,34.2572,西安市,纺织城,,20,20,61,8,23,125,63,103,67,19,15,4,5,0.4,0.4
2023-05-21T21:00:00,1465A,108.9356,34.2173,西安市,小寨,,28,28,64,6,14,122,69,90,67,10,10,6,7,0.5,0.4
2023-05-21T21:00:00,1466A,108.954,34.2713,西安市,市人民体育场,,19,18,59,4,17,118,58,92,62,12,13,6,6,0.3,0.3
2023-05-21T21:00:00,1467A,108.8922,34.2322,西安市,高新西区,,25,12,56,8,18,125,78,99,70,8,10,6,7,0.4,0.4
2023-05-21T21:00:00,1468A,108.935,34.3474,西安市,经开区,,21,17,57,2,14,124,66,96,69,11,10,2,2,0.1,0.1
2023-05-21T21:00:00,1469A,108.906,34.1546,西安市,长安区,,24,18,56,7,18,127,74,103,74,13,14,7,6,0.2,0.3
2023-05-21T21:00:00,1471A,109.2186,34.3731,西安市,临潼区,,23,13,51,13,22,123,73,103,74,12,14,10,11,0.5,0.5
2023-05-21T21:00:00,1472A,108.869,34.378,西安市,草滩,,22,19,61,15,19,114,47,91,62,22,9,5,6,0.0,0
2023-05-21T21:00:00,1473A,108.985,34.1978,西安市,曲江文化产业集团,,24,18,56,6,16,130,76,107,70,14,13,4,4,0.3,0.4
2023-05-21T21:00:00,1474A,109.051,34.3213,西安市,广运潭,,20,20,58,5,16,112,54,85,64,16,12,5,6,0.3,0.3
2023-05-21T21:00:00,1476A,103.631,36.1031,兰州市,兰炼宾馆,颗粒物(PM10),58,66,162,40,59,112,82,102,97,17,11,8,8,0.5,0.4
2023-05-21T21:00:00,1477A,104.1373,35.9454,兰州市,榆中兰大校区,,,,,,,,,,,,,,,,
2023-05-21T21:00:00,1478A,103.8412,36.0726,兰州市,生物制品所,,50,50,154,31,47,107,85,100,100,16,10,7,11,0.6,0.6
2023-05-21T21:00:00,1479A,103.831,36.0464,兰州市,铁路设计院,颗粒物(PM10),55,59,145,36,49,106,82,99,98,24,14,3,7,0.6,0.6
2023-05-21T21:00:00,1483A,101.524,36.6867,西宁市,第五水厂,,,,,,,,,,,,,,,,
2023-05-21T21:00:00,1484A,105.9512,38.6016,银川市,贺兰山马莲口,,27,26,39,12,12,113,84,108,105,6,7,9,11,0.5,0.5
2023-05-21T21:00:00,1488A,106.2328,38.4975,银川市,贺兰山东路,,46,46,48,18,18,116,89,105,104,17,10,8,6,0.2,0.1
2023-05-21T21:00:00,1489A,106.1358,38.5036,银川市,学院路,,46,46,45,23,20,109,88,101,100,16,13,11,10,0.4,0.4
2023-05-21T21:00:00,1490A,87.5801,43.8303,乌鲁木齐市,监测站,,43,43,62,8,17,150,95,114,114,29,40,8,9,0.5,0.5
2023-05-21T21:00:00,1491A,87.6046,43.768,乌鲁木齐市,收费所,颗粒物(PM10),52,54,79,16,25,131,91,104,104,27,36,6,6,0.4,0.5
2023-05-21T21:00:00,1492A,87.4754,43.9469,乌鲁木齐市,新疆农科院农场,颗粒物(PM10),56,61,78,15,22,131,98,114,114,27,38,10,11,0.9,1
2023-05-21T21:00:00,1493A,87.5525,43.8711,乌鲁木齐市,铁路局,,48,48,49,15,18,150,99,118,118,26,36,8,8,0.6,0.7
2023-05-21T21:00:00,1494A,87.6432,43.831,乌鲁木齐市,三十一中学,颗粒物(PM10),65,79,58,12,21,134,106,117,117,17,26,12,13,0.5,0.5
2023-05-21T21:00:00,1496A,87.7216,44.1747,乌鲁木齐市,米东区环保局,,38,30,48,10,20,126,121,123,123,2,16,4,6,0.3,0.4
2023-05-21T21:00:00,1508A,112.9433,27.8614,湘潭市,板塘,,17,2,41,10,29,100,52,83,70,12,19,4,4,0.1,0.3
2023-05-21T21:00:00,1511A,112.9118,27.8403,湘潭市,市监测站,,16,7,36,10,28,116,51,97,83,13,20,2,4,0.6,0.7
2023-05-21T21:00:00,1512A,112.8937,27.8728,湘潭市,江麓,,,,48,,35,99,,80,80,,16,,11,,0.4
2023-05-21T21:00:00,1513A,112.9227,27.8159,湘潭市,岳塘,,20,12,43,12,29,108,63,90,82,10,11,4,7,0.2,0.2
2023-05-21T21:00:00,1514A,112.9074,27.9119,湘潭市,科大,,,,45,2,29,98,60,84,72,11,17,3,4,0.4,0.5
2023-05-21T21:00:00,1515A,113.135,27.8244,株洲市,天台山庄,,27,14,33,8,29,94,84,84,76,5,7,6,7,0.5,0.6
2023-05-21T21:00:00,1518A,113.095,27.8867,株洲市,株冶医院,,28,9,37,7,27,97,88,86,78,5,14,3,2,0.5,0.6
2023-05-21T21:00:00,1519A,113.167,27.8667,株洲市,市四中,,,,27,,29,96,,82,73,,10,,7,,0.8
2023-05-21T21:00:00,1520A,113.143,27.8381,株洲市,火车站,,26,7,36,5,28,94,82,84,77,9,11,2,4,0.4,0.6
2023-05-21T21:00:00,1524A,113.13,27.8528,株洲市,市监测站,,,,38,,31,94,,82,72,,9,,7,,0.7
2023-05-21T21:00:00,1552A,106.805,26.3003,贵阳市,桐木岭,细颗粒物(PM2.5),140,94,61,107,44,123,81,114,108,11,8,3,4,0.4,0.3
2023-05-21T21:00:00,1559A,113.251,27.8336,株洲市,大京风景区,,27,27,37,5,20,81,76,64,60,4,6,2,2,0.4,0.6
2023-05-21T21:00:00,1562A,113.0048,27.9153,湘潭市,昭山,,23,22,42,16,29,94,61,82,71,10,18,2,4,0.4,0.5
2023-05-21T21:00:00,1564A,112.4876,27.9164,湘潭市,韶山,,,,44,8,21,92,74,80,80,10,10,4,5,0.4,0.5
2023-05-21T21:00:00,1585A,109.8756,40.6532,包头市,市环境监测站,,50,50,60,21,20,100,80,93,92,10,6,9,9,0.4,0.4
2023-05-21T21:00:00,1587A,109.9991,40.5842,包头市,包头八中,颗粒物(PM10),55,59,63,9,19,103,84,96,95,10,10,9,9,0.3,0.3
2023-05-21T21:00:00,1588A,109.8538,40.6821,包头市,青山宾馆,,42,42,50,11,20,99,78,93,92,12,8,7,7,0.3,0.3
2023-05-21T21:00:00,1589A,109.8642,40.6288,包头市,惠龙物流,,49,49,56,17,17,98,82,93,92,8,7,5,6,0.3,0.3
2023-05-21T21:00:00,1590A,110.0377,40.5546,包头市,东河鸿龙湾,,50,50,58,15,18,98,76,92,90,14,9,11,11,0.4,0.3
2023-05-21T21:00:00,1591A,110.0023,39.8129,鄂尔多斯市,综合楼,颗粒物(PM10),89,127,89,14,14,95,70,88,87,35,18,7,10,0.5,0.5
2023-05-21T21:00:00,1592A,109.9486,39.8261,鄂尔多斯市,巴音孟克林场办事处,颗粒物(PM10),71,92,88,29,19,104,90,99,99,17,19,7,8,0.7,0.6
2023-05-21T21:00:00,1593A,109.7736,39.5986,鄂尔多斯市,康泽苑,颗粒物(PM10),56,61,67,8,17,98,79,93,92,18,11,7,9,0.2,0.2
2023-05-21T21:00:00,1594A,109.8119,39.5989,鄂尔多斯市,华泰汽车城,,34,34,61,19,29,97,72,92,90,24,12,7,8,0.4,0.4
2023-05-21T21:00:00,1595A,109.9734,39.7884,鄂尔多斯市,奥林花园,颗粒物(PM10),67,83,86,14,18,102,94,98,98,12,15,6,8,0.2,0.3
2023-05-21T21:00:00,1597A,122.2703,40.7094,营口市,大庆路,颗粒物(PM10),87,123,211,21,49,115,79,103,101,20,14,5,7,0.5,0.5
2023-05-21T21:00:00,1598A,122.2150,40.6511,营口市,镜湖西路,颗粒物(PM10),108,165,220,29,40,113,90,104,104,14,13,6,8,0.3,0.3
2023-05-21T21:00:00,1599A,122.1658,40.6789,营口市,西炮台,颗粒物(PM10),87,123,188,34,52,112,76,101,100,29,17,3,9,0.4,0.3
2023-05-21T21:00:00,1600A,124.3303,40.0625,丹东市,江湾东路,颗粒物(PM10),99,147,107,33,31,92,84,88,88,14,9,7,7,0.3,0.4
2023-05-21T21:00:00,1601A,124.4256,40.1503,丹东市,临江后街,颗粒物(PM10),94,138,97,28,25,92,82,87,87,11,8,4,6,0.4,0.6
2023-05-21T21:00:00,1602A,124.3933,40.1461,丹东市,元宝山,颗粒物(PM10),93,135,99,27,31,81,81,73,73,11,14,7,8,0.2,0.3
2023-05-21T21:00:00,1603A,124.3633,40.1092,丹东市,民主桥,颗粒物(PM10),114,177,117,31,30,84,78,81,80,17,13,6,6,0.4,0.5
2023-05-21T21:00:00,1604A,122.0303,41.1489,盘锦市,开发区,颗粒物(PM10),54,58,200,29,44,112,58,105,100,48,15,9,9,0.6,0.4
2023-05-21T21:00:00,1605A,122.0485,41.0883,盘锦市,兴隆台,颗粒物(PM10),63,75,193,32,34,106,19,99,86,80,23,6,7,0.8,0.5
2023-05-21T21:00:00,1606A,121.8297,41.1028,盘锦市,新生街道,颗粒物(PM10),56,61,185,21,27,105,58,100,96,37,29,68,13,0.6,0.5
2023-05-21T21:00:00,1607A,120.9092,40.7136,葫芦岛市,龙港区,颗粒物(PM10),118,186,333,38,65,103,73,96,92,29,16,9,12,0.4,0.4
2023-05-21T21:00:00,1608A,120.8392,40.7514,葫芦岛市,化工街,颗粒物(PM10),122,193,375,61,79,109,32,102,87,69,18,7,8,0.5,0.3
2023-05-21T21:00:00,1609A,120.8341,40.7073,葫芦岛市,新区,颗粒物(PM10),126,202,350,45,72,107,49,100,88,52,15,10,11,0.4,0.3
2023-05-21T21:00:00,1610A,120.8695,40.7677,葫芦岛市,东城区,颗粒物(PM10),129,207,323,76,77,111,38,103,90,64,23,9,10,0.7,0.5
2023-05-21T21:00:00,1611A,118.5819,24.9117,泉州市,涂山街,,22,22,29,6,22,102,36,86,67,14,21,7,8,0.6,0.7
2023-05-21T21:00:00,1612A,118.5972,24.8978,泉州市,津头埔,,,20,29,8,20,93,,91,66,18,27,6,8,0.4,0.6
2023-05-21T21:00:00,1613A,118.6663,24.9424,泉州市,万安,,20,20,29,7,21,107,37,81,68,4,16,7,7,0.5,0.6
2023-05-21T21:00:00,1614A,118.6117,24.9604,泉州市,清源山,,,,,,,,,,,,,,,,
2023-05-21T21:00:00,1616A,117.6795,36.229,济南市,技术学院,颗粒物(PM10),96,141,188,44,54,86,28,69,54,56,35,9,11,0.6,0.9
2023-05-21T21:00:00,1618A,118.3429,35.0532,临沂市,沂河小区,颗粒物(PM10),233,373,316,122,100,100,60,89,78,22,19,9,7,0.3,0.2
2023-05-21T21:00:00,1619A,118.295,35.0583,临沂市,鲁南制药厂,颗粒物(PM10),265,395,326,135,62,110,65,100,87,21,12,13,10,0.2,0.1
2023-05-21T21:00:00,1620A,118.2794,34.9976,临沂市,新光毛纺厂,颗粒物(PM10),258,390,317,93,62,102,60,91,79,20,17,8,5,0.4,0.3
2023-05-21T21:00:00,1621A,118.3956,35.0888,临沂市,河东保险公司,颗粒物(PM10),206,354,308,121,91,96,60,87,75,21,16,10,9,,0.2
2023-05-21T21:00:00,1622A,116.3032,37.4674,德州市,儿童乐园,颗粒物(PM10),74,97,215,19,54,99,52,90,81,39,26,5,7,0.4,0.4
2023-05-21T21:00:00,1624A,116.2991,37.4451,德州市,监理站,颗粒物(PM10),78,105,232,14,49,101,55,96,90,40,27,4,4,0.3,0.3
2023-05-21T21:00:00,1625A,115.9848,36.4372,聊城市,区政府,颗粒物(PM10),53,55,205,14,46,88,84,83,83,11,19,7,9,0.1,0.1
2023-05-21T21:00:00,1628A,118.0062,37.3803,滨州市,市环保局,颗粒物(PM10),173,296,344,86,82,100,53,82,78,18,24,7,8,0.5,0.5
2023-05-21T21:00:00,1629A,118.0018,37.3617,滨州市,第二水厂,颗粒物(PM10),176,302,346,53,67,104,47,82,76,30,34,5,7,0.6,0.6
2023-05-21T21:00:00,1630A,117.9776,37.393,滨州市,北中新校,颗粒物(PM10),157,263,274,57,61,102,51,83,78,28,33,10,9,0.4,0.4
2023-05-21T21:00:00,1631A,118.0414,36.8103,淄博市,人民公园,颗粒物(PM10),153,256,290,61,74,101,68,80,80,23,27,8,13,0.4,0.4
2023-05-21T21:00:00,1633A,117.8525,36.4847,淄博市,双山,颗粒物(PM10),101,151,222,44,68,69,7,65,48,61,34,6,9,0.4,0.4
2023-05-21T21:00:00,1634A,117.9592,36.6331,淄博市,气象站,颗粒物(PM10),199,348,300,107,78,75,45,63,62,37,33,10,11,0.8,0.5
2023-05-21T21:00:00,1635A,118.3092,36.8194,淄博市,莆田园,颗粒物(PM10),133,215,287,70,86,95,55,73,71,34,37,9,12,0.2,0.3
2023-05-21T21:00:00,1637A,117.558,34.8438,枣庄市,市中区政府,颗粒物(PM10),233,373,231,95,56,139,67,130,106,25,18,14,7,0.4,0.4
2023-05-21T21:00:00,1638A,117.2852,34.7837,枣庄市,薛城环保局,颗粒物(PM10),175,300,208,80,56,152,55,128,92,30,22,12,10,0.6,0.5
2023-05-21T21:00:00,1639A,117.5852,34.7745,枣庄市,峄城区政府,颗粒物(PM10),248,383,227,90,47,144,71,128,107,24,20,12,12,0.2,0.2
2023-05-21T21:00:00,1640A,117.7276,34.5578,枣庄市,台儿庄区环保局,颗粒物(PM10),206,354,238,95,58,143,68,126,110,24,25,10,11,0.6,0.5
2023-05-21T21:00:00,1641A,117.4518,35.0992,枣庄市,山亭区环保局,颗粒物(PM10),158,266,218,83,61,141,50,108,78,30,19,14,9,0.4,0.3
2023-05-21T21:00:00,1642A,121.2514,37.5639,烟台市,开发区,颗粒物(PM10),140,229,418,44,88,85,78,77,77,22,19,8,8,0.4,0.4
2023-05-21T21:00:00,1643A,121.3719,37.5433,烟台市,轴承厂,颗粒物(PM10),147,244,338,53,87,85,,79,79,17,17,3,3,0.4,0.5
2023-05-21T21:00:00,1644A,121.3181,37.5436,烟台市,西郊化工站,颗粒物(PM10),136,222,422,58,78,84,,75,75,22,22,5,4,0.2,0.3
2023-05-21T21:00:00,1645A,121.4478,37.4822,烟台市,莱山环保局,颗粒物(PM10),133,215,423,52,99,92,77,82,82,15,9,4,4,0.2,0.3
2023-05-21T21:00:00,1646A,121.2611,37.4967,烟台市,福山环保局,颗粒物(PM10),130,210,283,88,145,138,85,90,90,17,18,5,5,0.2,0.3
2023-05-21T21:00:00,1650A,119.1437,36.7023,潍坊市,环保局,颗粒物(PM10),133,215,334,63,82,82,76,76,76,13,19,8,10,0.3,0.4
2023-05-21T21:00:00,1653A,116.6251,35.4302,济宁市,火炬城,颗粒物(PM10),66,82,151,19,41,105,52,87,46,18,16,13,13,0.5,0.7
2023-05-21T21:00:00,1655A,116.5491,35.4042,济宁市,电化厂,颗粒物(PM10),69,88,150,19,48,96,53,87,47,20,14,9,8,0.4,0.6
2023-05-21T21:00:00,1656A,117.1437,36.1937,泰安市,监测站,颗粒物(PM10),84,117,164,31,57,98,49,98,59,30,17,5,6,0.5,0.6
2023-05-21T21:00:00,1657A,117.0885,36.2017,泰安市,人口学校,颗粒物(PM10),85,119,165,29,43,113,34,113,48,38,22,4,5,0.3,0.4
2023-05-21T21:00:00,1658A,117.1089,36.1758,泰安市,电力学校,颗粒物(PM10),81,112,157,33,46,93,46,91,52,32,20,8,9,0.4,0.5
2023-05-21T21:00:00,1659A,119.471,35.4209,日照市,监测站,颗粒物(PM10),315,432,425,111,110,93,72,83,71,22,26,4,4,0.2,0.2
2023-05-21T21:00:00,1660A,119.523,35.4216,日照市,市政府广场,颗粒物(PM10),352,461,398,116,97,99,63,98,71,13,9,4,5,0.4,0.3
2023-05-21T21:00:00,1661A,119.5587,35.4044,日照市,港务局,颗粒物(PM10),328,442,426,166,95,98,63,97,72,17,12,5,6,0.4,0.3
2023-05-21T21:00:00,1662A,122.1214,37.4236,威海市,华夏技校,颗粒物(PM10),109,168,353,46,84,88,70,74,72,23,18,4,5,0.2,0.3
2023-05-21T21:00:00,1663A,122.0508,37.5236,威海市,山大分校,颗粒物(PM10),131,212,374,37,60,85,62,74,61,26,24,6,6,0.2,0.3
2023-05-21T21:00:00,1664A,122.1067,37.5072,威海市,市监测站,颗粒物(PM10),129,208,385,39,70,81,53,68,58,32,23,8,8,0.4,0.4
2023-05-21T21:00:00,1666A,118.6614,37.4309,东营市,市环保局,颗粒物(PM10),150,249,341,58,82,96,63,80,78,21,29,14,15,0.2,0.3
2023-05-21T21:00:00,1669A,113.5824,24.7733,韶关市,市八中,,36,26,28,25,17,114,76,105,102,16,10,5,8,0.5,0.4
2023-05-21T21:00:00,1671A,113.5917,24.7972,韶关市,园林处,,27,27,31,15,19,111,72,103,100,14,7,7,9,0.4,0.4
2023-05-21T21:00:00,1672A,113.6735,24.7791,韶关市,韶关学院,细颗粒物(PM2.5),54,48,39,38,23,139,108,127,127,16,16,8,28,0.5,0.7
2023-05-21T21:00:00,1673A,113.5971,24.6863,韶关市,曲江监测站,,40,40,41,23,19,129,110,120,120,10,11,9,10,0.6,0.5
2023-05-21T21:00:00,1674A,116.6794,23.3667,汕头市,金平子站,,16,16,21,10,15,109,34,88,50,10,10,4,6,0.6,0.7
2023-05-21T21:00:00,1675A,116.7244,23.3633,汕头市,龙湖子站,,24,24,20,10,12,119,41,97,58,12,10,2,5,0.5,0.6
2023-05-21T21:00:00,1676A,116.7258,23.2775,汕头市,濠江子站,,13,13,21,8,13,106,35,88,56,13,11,8,8,0.6,0.6
2023-05-21T21:00:00,1677A,116.7519,23.4714,汕头市,澄海子站,,24,24,26,11,17,108,35,98,59,14,12,5,5,0.6,0.6
2023-05-21T21:00:00,1678A,116.6092,23.2539,汕头市,潮阳子站,,15,13,20,10,12,110,38,88,51,6,7,8,8,0.5,0.6
2023-05-21T21:00:00,1680A,110.3539,21.2706,湛江市,湛江影剧院,,37,37,42,20,20,111,55,90,76,10,7,6,6,0.6,0.6
2023-05-21T21:00:00,1681A,110.3928,21.2228,湛江市,市环境监测站,,40,32,36,28,24,96,58,89,73,8,6,6,6,0.4,0.5
2023-05-21T21:00:00,1682A,110.4019,21.1997,湛江市,环保局宿舍,,44,44,40,21,20,102,60,84,75,6,9,4,5,0.4,0.4
2023-05-21T21:00:00,1683A,110.4111,21.2028,湛江市,霞山游泳场,,41,41,38,22,23,94,62,79,71,4,7,6,7,0.6,0.6
2023-05-21T21:00:00,1684A,110.3316,21.2679,湛江市,麻章区环保局,,42,42,46,21,23,125,52,96,80,12,9,3,4,0.7,0.6
2023-05-21T21:00:00,1685A,110.4558,21.2567,湛江市,坡头区环保局,,33,33,34,18,19,104,64,85,74,5,5,6,6,0.5,0.5
2023-05-21T21:00:00,1686A,111.0286,21.4688,茂名市,电白南海,,31,31,33,19,21,60,60,56,56,4,3,4,4,0.5,0.5
2023-05-21T21:00:00,1687A,110.9294,21.6533,茂名市,茂石化七小,,35,35,39,13,18,72,60,65,62,6,6,7,8,0.4,0.4
2023-05-21T21:00:00,1688A,110.9107,21.6687,茂名市,健康路,,31,31,31,13,14,75,61,70,65,5,5,4,4,0.5,0.4
2023-05-21T21:00:00,1689A,110.8592,21.6828,茂名市,高岭,,39,39,40,24,23,78,61,71,67,7,6,3,3,0.3,0.3
2023-05-21T21:00:00,1690A,116.1231,24.3284,梅州市,梅江月梅,,22,22,26,12,13,76,20,69,58,17,17,2,3,0.7,0.7
2023-05-21T21:00:00,1691A,116.0797,24.2719,梅州市,梅县新城,,25,25,24,15,14,80,18,69,59,38,14,4,5,0.7,0.5
2023-05-21T21:00:00,1692A,116.1248,24.2654,梅州市,环境监控中心,,32,32,29,15,16,77,14,70,55,26,21,2,2,0.6,0.5
2023-05-21T21:00:00,1693A,115.3653,22.775,汕尾市,市环保局,,25,4,24,17,10,51,36,42,42,4,3,6,6,0.5,0.5
2023-05-21T21:00:00,1694A,115.3706,22.7898,汕尾市,市政府,,15,12,16,10,11,56,40,48,47,5,4,4,4,0.3,0.2
2023-05-21T21:00:00,1695A,115.3622,22.7925,汕尾市,新城中学,,,,22,6,8,62,42,51,50,6,4,6,6,0.5,0.5
2023-05-21T21:00:00,1696A,114.6778,23.7569,河源市,源西,,18,7,24,8,14,110,56,90,84,12,9,4,4,0.7,0.7
2023-05-21T21:00:00,1697A,114.6944,23.7586,河源市,东埔,,31,31,27,16,14,107,48,85,77,15,10,5,5,0.5,0.5
2023-05-21T21:00:00,1698A,114.6892,23.7233,河源市,老城,,49,49,38,18,16,105,42,87,79,20,8,4,4,0.5,0.5
2023-05-21T21:00:00,1699A,111.9797,21.8593,阳江市,鸳鸯湖,,17,17,25,9,12,59,53,55,54,2,3,7,9,0.6,0.5
2023-05-21T21:00:00,1701A,111.9491,21.8658,阳江市,马南垌,,30,30,32,10,16,58,50,55,53,3,3,4,4,0.5,0.5
2023-05-21T21:00:00,1702A,113.0426,23.691,清远市,环保大楼,,38,38,35,21,20,123,60,108,100,10,8,5,5,0.5,0.5
2023-05-21T21:00:00,1703A,113.0208,23.7106,清远市,凤城街办,,,,38,,20,114,,98,97,12,10,7,6,0.4,0.4
2023-05-21T21:00:00,1705A,116.6367,23.6719,潮州市,西园路,,30,30,34,8,18,101,28,82,57,13,10,5,5,0.5,0.3
2023-05-21T21:00:00,1706A,116.6447,23.6706,潮州市,档案局,,21,21,35,14,20,124,28,96,64,9,6,4,7,0.7,0.5
2023-05-21T21:00:00,1708A,116.3701,23.5345,揭阳市,新兴,,27,27,42,12,20,84,24,72,50,13,10,6,7,0.6,0.6
2023-05-21T21:00:00,1709A,116.3264,23.5443,揭阳市,西马,,29,29,41,7,18,83,26,72,48,14,11,5,6,0.7,0.7
2023-05-21T21:00:00,1710A,116.3611,23.5626,揭阳市,东兴,,35,35,40,12,17,96,34,80,56,8,11,2,4,0.6,0.6
2023-05-21T21:00:00,1711A,116.4151,23.5294,揭阳市,渔湖,,25,25,41,9,19,90,31,71,54,5,8,4,5,0.5,0.5
2023-05-21T21:00:00,1712A,112.0392,22.9169,云浮市,新市府,,37,37,29,19,19,90,70,85,84,3,3,3,3,0.6,0.6
2023-05-21T21:00:00,1714A,112.0539,22.9539,云浮市,牧羊,,33,33,39,19,18,85,65,80,78,9,12,11,10,0.5,0.4
2023-05-21T21:00:00,1715A,102.575,24.3711,玉溪市,东风水库,颗粒物(PM10),61,71,41,23,20,125,112,122,120,13,13,8,8,0.5,0.5
2023-05-21T21:00:00,1718A,115.4208,35.2464,菏泽市,气象局,颗粒物(PM10),83,116,149,29,39,108,42,86,54,30,23,7,5,0.5,0.4
2023-05-21T21:00:00,1719A,115.4747,35.2375,菏泽市,市政协,颗粒物(PM10),84,118,151,42,48,92,54,75,57,20,18,4,4,0.3,0.2
2023-05-21T21:00:00,1721A,113.3819,40.1097,大同市,果树场,,33,33,63,20,45,112,77,104,100,11,7,12,10,0.5,0.6
2023-05-21T21:00:00,1723A,113.2994,40.0758,大同市,云冈宾馆,,,42,86,9,25,113,86,104,101,12,10,,8,0.3,0.4
2023-05-21T21:00:00,1724A,113.3444,40.0917,大同市,大同大学,,37,37,90,16,26,106,69,97,93,21,12,8,10,0.4,0.4
2023-05-21T21:00:00,1725A,113.2661,40.1269,大同市,安家小村,,26,26,89,4,17,113,83,105,100,9,7,6,8,0.2,0.3
2023-05-21T21:00:00,1726A,113.2711,40.0844,大同市,教育学院,,29,29,92,10,21,106,78,95,91,19,13,6,9,0.3,0.4
2023-05-21T21:00:00,1727A,113.1147,36.1547,长治市,清华站,,27,27,67,7,23,105,78,88,82,16,11,11,9,0.6,0.7
2023-05-21T21:00:00,1728A,113.1031,36.1989,长治市,监测站,,28,28,89,9,25,96,68,87,74,20,13,8,8,0.8,0.6
2023-05-21T21:00:00,1730A,113.0886,36.2125,长治市,审计局,,29,29,75,14,24,99,75,92,76,18,12,10,10,0.4,0.4
2023-05-21T21:00:00,1731A,113.0844,36.1856,长治市,长治八中,,25,25,90,2,22,102,77,89,80,18,12,10,8,0.3,0.5
2023-05-21T21:00:00,1733A,111.5531,36.0783,临汾市,临钢医院,,23,23,96,7,24,87,50,60,60,20,23,3,6,0.3,0.5
2023-05-21T21:00:00,1734A,111.5028,36.0714,临汾市,技工学校,,,29,89,8,27,94,61,61,61,15,17,1,7,,0.9
2023-05-21T21:00:00,1736A,111.5018,36.0855,临汾市,市委,,22,18,106,15,25,100,63,64,64,17,20,3,6,0.6,0.6
2023-05-21T21:00:00,1738A,113.5758,37.8572,阳泉市,市中心,颗粒物(PM10),51,52,85,21,20,92,60,82,73,31,43,9,9,0.5,0.5
2023-05-21T21:00:00,1739A,113.4894,37.8731,阳泉市,赛鱼,颗粒物(PM10),67,84,77,13,20,86,66,78,64,27,40,7,7,0.5,0.5
2023-05-21T21:00:00,1740A,113.5819,37.8486,阳泉市,南庄,颗粒物(PM10),54,58,94,27,33,96,73,84,80,25,39,8,10,0.5,0.5
2023-05-21T21:00:00,1742A,113.5614,37.8703,阳泉市,平坦,颗粒物(PM10),51,51,95,14,18,88,60,80,70,31,50,9,10,0.5,0.5
2023-05-21T21:00:00,1743A,113.5158,37.8392,阳泉市,大阳泉,,44,44,58,14,22,103,72,87,77,25,20,9,10,0.5,0.5
2023-05-21T21:00:00,1744A,118.9233,42.2816,赤峰市,松山一中,颗粒物(PM10),52,54,63,11,11,90,59,89,82,40,19,11,10,0.5,0.4
2023-05-21T21:00:00,1745A,118.9576,42.2728,赤峰市,哈达街,,34,34,58,13,12,102,77,98,93,25,12,13,12,0.4,0.3
2023-05-21T21:00:00,1746A,118.8788,42.2554,赤峰市,天义路,,28,17,41,11,16,101,39,97,84,56,15,13,12,0.6,0.4
2023-05-21T21:00:00,1748A,123.044,41.1196,鞍山市,深沟寺,颗粒物(PM10),69,88,257,21,58,108,47,94,89,28,13,7,13,0.4,0.6
2023-05-21T21:00:00,1749A,123.011,41.0931,鞍山市,太阳城,颗粒物(PM10),52,53,224,10,44,108,60,95,92,23,20,7,12,0.6,0.9
2023-05-21T21:00:00,1750A,123.0485,41.1442,鞍山市,太平,颗粒物(PM10),80,109,261,40,68,105,35,94,84,57,22,10,16,0.8,0.7
2023-05-21T21:00:00,1751A,122.9642,41.0971,鞍山市,铁西三道街,颗粒物(PM10),96,142,265,47,68,97,10,85,70,80,29,5,15,1.0,1.2
2023-05-21T21:00:00,1752A,122.9341,41.0833,鞍山市,铁西工业园区,颗粒物(PM10),121,192,259,65,62,104,13,90,78,76,26,9,12,0.9,0.8
2023-05-21T21:00:00,1753A,123.022,41.0821,鞍山市,明达新区,颗粒物(PM10),81,111,262,19,51,107,53,94,88,28,20,6,11,0.5,0.7
2023-05-21T21:00:00,1754A,123.1289,41.0228,鞍山市,千山,,,,,,,,,,,,,,,,
2023-05-21T21:00:00,1755A,123.7977,41.8491,抚顺市,望花区,颗粒物(PM10),54,57,260,33,72,120,55,108,102,38,19,4,9,0.4,0.4
2023-05-21T21:00:00,1756A,123.9161,41.8822,抚顺市,顺城区,颗粒物(PM10),73,95,262,38,52,108,5,98,80,70,20,4,6,0.5,0.3
2023-05-21T21:00:00,1757A,124.0436,41.8611,抚顺市,东洲区,颗粒物(PM10),53,56,275,21,65,118,40,107,98,42,17,10,15,0.3,0.5
2023-05-21T21:00:00,1758A,123.9247,41.8642,抚顺市,新抚区,颗粒物(PM10),69,87,270,24,65,114,23,103,90,56,18,7,10,0.5,0.4
2023-05-21T21:00:00,1759A,124.0972,41.8961,抚顺市,大伙房水库,颗粒物(PM10),76,102,251,42,67,119,64,107,99,16,17,5,8,0.0,0.2
2023-05-21T21:00:00,1760A,123.7086,41.8391,抚顺市,沈抚新城,颗粒物(PM10),56,62,274,24,61,124,52,112,104,38,14,6,8,0.5,0.4
2023-05-21T21:00:00,1761A,123.8275,41.3064,本溪市,大峪,,46,46,249,12,52,94,58,84,81,14,16,5,8,0.5,0.6
2023-05-21T21:00:00,1762A,123.7567,41.3325,本溪市,溪湖,颗粒物(PM10),99,148,259,16,44,107,49,94,89,29,19,9,12,0.4,0.6
2023-05-21T21:00:00,1763A,123.7169,41.3094,本溪市,彩屯,颗粒物(PM10),59,67,227,26,72,99,36,86,77,29,20,10,12,0.4,0.4
2023-05-21T21:00:00,1764A,123.7669,41.2864,本溪市,东明,颗粒物(PM10),61,71,255,34,49,101,36,90,83,54,24,7,10,0.7,0.5
2023-05-21T21:00:00,1765A,123.7992,41.2664,本溪市,新立屯,,47,47,233,14,36,97,37,84,74,48,25,6,8,0.6,0.7
2023-05-21T21:00:00,1766A,123.8142,41.3472,本溪市,威宁,颗粒物(PM10),55,60,249,15,51,98,34,87,78,32,23,5,7,0.3,0.6
2023-05-21T21:00:00,1767A,121.1115,41.0879,锦州市,南山,颗粒物(PM10),94,138,214,69,64,112,68,106,99,31,7,20,8,0.6,0.3
2023-05-21T21:00:00,1768A,121.0533,40.8434,锦州市,开发区,颗粒物(PM10),136,222,269,57,59,109,18,97,80,82,21,13,15,0.3,0.3
2023-05-21T21:00:00,1769A,121.1836,41.1119,锦州市,百股街道,颗粒物(PM10),100,150,229,39,49,112,58,106,98,40,13,15,8,0.5,0.4
2023-05-21T21:00:00,1770A,121.1178,41.1222,锦州市,天安街道,颗粒物(PM10),117,184,219,58,45,106,63,100,93,37,14,19,9,0.7,0.4
2023-05-21T21:00:00,1771A,121.1303,41.1386,锦州市,北湖公园,颗粒物(PM10),90,129,184,45,47,114,72,108,102,31,8,17,6,0.6,0.4
2023-05-21T21:00:00,1772A,126.54,43.8622,吉林市,哈达湾,,32,32,155,14,41,89,74,79,79,13,9,4,3,0.5,0.5
2023-05-21T21:00:00,1773A,126.5844,43.8358,吉林市,东局子,颗粒物(PM10),57,64,184,24,56,85,45,76,70,32,14,6,6,0.7,0.5
2023-05-21T21:00:00,1774A,126.5052,43.8245,吉林市,电力学院,颗粒物(PM10),93,136,202,65,52,95,39,86,78,30,10,8,7,0.7,0.4
2023-05-21T21:00:00,1775A,126.6133,43.8972,吉林市,江北,颗粒物(PM10),58,66,179,26,41,87,48,74,68,43,18,7,7,0.6,0.5
2023-05-21T21:00:00,1776A,126.555,43.8306,吉林市,江南公园,,46,46,174,22,48,85,60,75,74,24,14,5,5,0.6,0.5
2023-05-21T21:00:00,1778A,126.7061,43.7133,吉林市,丰满,,,,,,,,,,,,,,,,
2023-05-21T21:00:00,1779A,123.9305,47.3636,齐齐哈尔市,安居小区,,27,27,56,13,26,93,58,87,78,28,8,4,3,0.5,0.3
2023-05-21T21:00:00,1780A,123.9488,47.3386,齐齐哈尔市,中心广场,,28,28,56,2,13,86,62,80,69,25,11,6,5,0.3,0.2
2023-05-21T21:00:00,1781A,123.9483,47.3227,齐齐哈尔市,农牧车辆厂,,34,34,63,12,12,89,67,84,78,19,9,5,5,0.3,0.2
2023-05-21T21:00:00,1783A,123.945,47.2988,齐齐哈尔市,市环境监测站,,22,22,57,8,20,96,70,89,82,17,7,7,5,0.5,0.4
2023-05-21T21:00:00,1784A,129.61,44.561,牡丹江市,环保大楼,颗粒物(PM10),57,64,198,27,43,74,62,68,68,8,10,4,4,0.3,0.3
2023-05-21T21:00:00,1785A,129.6115,44.5782,牡丹江市,文化广场,颗粒物(PM10),54,58,209,36,49,73,60,66,66,11,12,4,4,0.4,0.4
2023-05-21T21:00:00,1786A,129.5904,44.5963,牡丹江市,第一医院,颗粒物(PM10),54,57,209,21,47,76,65,71,71,8,9,2,2,0.3,0.3
2023-05-21T21:00:00,1787A,129.6364,44.6075,牡丹江市,机车工厂,颗粒物(PM10),55,60,205,17,42,74,62,68,68,6,8,8,3,0.2,0.2
2023-05-21T21:00:00,1788A,129.6386,44.5462,牡丹江市,第一中学,颗粒物(PM10),61,71,203,23,45,76,63,70,70,6,7,2,2,0.3,0.3
2023-05-21T21:00:00,1789A,124.81117,46.03138,大庆市,大同区,颗粒物(PM10),80,109,147,30,30,100,81,92,91,5,6,3,4,0.3,0.3
2023-05-21T21:00:00,1790A,125.129,46.533,大庆市,龙凤区,,45,45,124,13,30,101,59,91,86,20,10,2,1,0.3,0.1
2023-05-21T21:00:00,1791A,124.902,46.408,大庆市,红岗区,,32,32,104,18,30,98,77,91,90,9,9,3,3,0.3,0.3
2023-05-21T21:00:00,1792A,125.153,46.586,大庆市,萨尔图区,,46,46,129,15,39,85,56,79,74,18,10,3,4,0.3,0.2
2023-05-21T21:00:00,1793A,124.9042,46.6215,大庆市,让胡路区,,,,,,,,,,,,,,,,
2023-05-21T21:00:00,1794A,118.3606,31.3519,芜湖市,监测站,颗粒物(PM10),62,74,67,37,47,198,131,169,166,34,31,8,8,1.1,0.9
2023-05-21T21:00:00,1795A,118.3714,31.4134,芜湖市,科创中心,颗粒物(PM10),62,74,74,35,50,178,109,170,163,30,28,6,7,0.9,0.9
2023-05-21T21:00:00,1796A,118.3673,31.3131,芜湖市,四水厂,"颗粒物(PM10),细颗粒物(PM2.5)",62,74,72,44,47,181,147,172,170,28,27,10,10,1.0,0.9
2023-05-21T21:00:00,1798A,118.5092,31.6837,马鞍山市,湖东路四小,,42,42,61,17,52,251,87,198,186,21,22,8,7,0.5,0.7
2023-05-21T21:00:00,1799A,118.5024,31.6449,马鞍山市,开发区,颗粒物(PM10),51,51,84,12,38,246,86,195,183,18,20,6,6,0.4,0.7
2023-05-21T21:00:00,1800A,118.5228,31.7231,马鞍山市,慈湖,,37,37,77,18,51,248,78,198,181,24,25,7,11,0.7,0.8
2023-05-21T21:00:00,1802A,118.6245,31.7241,马鞍山市,濮塘,,47,47,57,32,43,245,83,194,180,10,14,5,5,1.0,1.2
2023-05-21T21:00:00,1803A,115.9872,29.6815,九江市,十里,,38,29,32,26,24,78,49,64,57,16,26,11,11,0.7,0.6
2023-05-21T21:00:00,1804A,115.9584,29.7046,九江市,茅山头,,46,32,34,32,25,87,18,66,57,40,32,9,9,0.7,0.6
2023-05-21T21:00:00,1805A,115.9877,29.7295,九江市,西园,,,,,,,,,,,,,,,,
2023-05-21T21:00:00,1806A,116.0172,29.6547,九江市,五七二七厂,,20,3,27,14,19,62,55,56,48,7,13,7,7,0.4,0.5
2023-05-21T21:00:00,1808A,115.9114,29.6038,九江市,综合工业园,,26,22,31,18,22,69,16,62,49,36,30,9,9,1.0,1.1
2023-05-21T21:00:00,1809A,116.0721,29.7535,九江市,石化总厂,,49,44,40,34,23,65,6,61,33,53,26,8,9,0.7,0.6
2023-05-21T21:00:00,1810A,115.9773,29.5698,九江市,庐山气象台,,31,8,14,14,13,117,97,110,89,5,3,7,6,0.8,0.8
2023-05-21T21:00:00,1812A,112.3931,34.6516,洛阳市,市委党校,,40,31,69,28,42,93,39,86,46,13,12,3,2,0.5,0.6
2023-05-21T21:00:00,1814A,112.4657,34.6871,洛阳市,豫西宾馆,,32,32,80,21,29,92,37,86,52,17,12,3,2,0.6,0.6
2023-05-21T21:00:00,1815A,112.494,34.6886,洛阳市,河南林校,,33,33,69,19,26,95,32,86,48,21,15,7,8,0.5,0.5
2023-05-21T21:00:00,1816A,112.3844,34.623,洛阳市,开发区管委会,,29,29,70,17,26,106,43,99,49,12,9,2,4,0.2,0.3
2023-05-21T21:00:00,1817A,112.4267,34.6258,洛阳市,市委新办公区,,29,29,70,19,27,100,44,92,52,15,14,5,6,0.3,0.4
2023-05-21T21:00:00,1818A,114.4839,36.0621,安阳市,棉研所,颗粒物(PM10),77,104,139,16,30,85,68,76,60,10,13,7,7,0.4,0.4
2023-05-21T21:00:00,1819A,114.3551,36.1017,安阳市,红庙街,颗粒物(PM10),82,114,153,20,39,84,62,76,59,12,15,4,4,1.0,0.8
2023-05-21T21:00:00,1820A,114.361,36.0681,安阳市,银杏小区,,,,146,,36,92,65,88,61,12,14,7,8,0.7,0.5
2023-05-21T21:00:00,1824A,114.3389,34.7781,开封市,肿瘤医院,颗粒物(PM10),61,72,136,27,39,96,56,90,61,12,10,5,6,0.6,0.5
2023-05-21T21:00:00,1826A,114.2885,34.7965,开封市,世纪星幼儿园,颗粒物(PM10),57,64,131,24,29,92,50,87,57,17,12,3,4,0.4,0.3
2023-05-21T21:00:00,1828A,113.227,35.2125,焦作市,市环保局,,42,42,76,18,24,90,46,84,48,20,15,4,5,0.5,0.5
2023-05-21T21:00:00,1830A,113.1992,35.2590,焦作市,影视城,,42,26,59,29,29,95,58,75,62,19,14,11,10,1.0,1
2023-05-21T21:00:00,1832A,113.3257,33.742,平顶山市,新华旅馆,,33,33,130,21,39,102,45,95,74,14,11,3,3,0.5,0.4
2023-05-21T21:00:00,1833A,113.2919,33.737,平顶山市,规划设计院,,39,39,128,20,36,102,45,97,74,15,11,6,6,0.4,0.3
2023-05-21T21:00:00,1834A,113.182,33.774,平顶山市,平顶山工学院,,38,38,120,14,31,102,48,96,68,14,11,3,4,0.3,0.3
2023-05-21T21:00:00,1835A,111.1922,34.7752,三门峡市,市政府,,26,26,57,12,25,114,66,90,53,16,14,7,7,0.5,0.6
2023-05-21T21:00:00,1836A,111.1587,34.7942,三门峡市,开发区,,,26,53,,26,113,74,95,58,8,13,5,5,0.7,0.6
2023-05-21T21:00:00,1838A,111.143,34.7955,三门峡市,风景区,,26,23,45,17,24,120,83,97,66,9,12,7,8,0.5,0.6
2023-05-21T21:00:00,1840A,111.2992,30.6981,宜昌市,白龙岗,,,9,54,,45,94,68,90,67,18,26,7,8,0.5,0.7
2023-05-21T21:00:00,1841A,111.3549,30.6465,宜昌市,伍家岗,,23,23,58,0,44,108,65,91,73,24,22,6,7,0.6,0.8
2023-05-21T21:00:00,1842A,111.2628,30.6961,宜昌市,点军区,,24,20,59,7,40,90,74,72,72,13,27,6,6,0.5,0.7
2023-05-21T21:00:00,1843A,111.3275,30.7819,宜昌市,夷陵区,,,,53,0,36,98,74,97,76,13,21,6,6,0.5,0.6
2023-05-21T21:00:00,1844A,112.2494,30.3197,荆州市,市图书馆,,30,28,50,19,33,104,94,97,78,7,17,5,13,0.5,0.7
2023-05-21T21:00:00,1845A,112.2008,30.3544,荆州市,市委党校,,30,21,48,14,35,103,96,98,80,7,16,6,9,0.4,0.6
2023-05-21T21:00:00,1847A,113.1094,29.3578,岳阳市,南湖风景区,,33,26,22,23,19,100,72,88,76,8,10,5,6,0.2,0.3
2023-05-21T21:00:00,1848A,113.1493,29.4251,岳阳市,城陵矶,,34,34,23,16,16,76,66,67,66,17,22,5,5,0.7,0.7
2023-05-21T21:00:00,1849A,113.1497,29.3575,岳阳市,开发区,,22,20,24,13,14,90,68,76,72,14,14,7,7,0.6,0.6
2023-05-21T21:00:00,1850A,113.2621,29.4758,岳阳市,云溪区,,32,32,25,18,20,90,77,81,81,10,14,6,7,0.6,0.7
2023-05-21T21:00:00,1851A,112.9943,29.4402,岳阳市,君山区,,26,13,19,18,22,105,70,83,71,13,13,6,6,0.5,0.6
2023-05-21T21:00:00,1852A,113.2117,29.355,岳阳市,金凤水库,,43,43,21,25,17,87,70,74,74,5,7,3,3,0.8,0.8
2023-05-21T21:00:00,1854A,111.6975,28.9703,常德市,市二中,,34,10,40,4,31,107,107,74,74,1,9,5,6,0.3,0.6
2023-05-21T21:00:00,1857A,111.7158,29.1456,常德市,白鹤山,,,,39,5,27,104,104,74,74,2,4,3,3,0.4,0.6
2023-05-21T21:00:00,1858A,110.5319,29.1217,张家界市,永定新区,,23,19,35,9,24,79,71,72,72,8,18,3,3,0.1,0.2
2023-05-21T21:00:00,1859A,110.4697,29.1242,张家界市,电业局,,28,28,36,14,24,68,68,61,61,8,15,3,3,0.3,0.4
2023-05-21T21:00:00,1860A,110.5594,29.3547,张家界市,未央路,,22,15,30,8,22,85,69,72,72,11,11,3,3,0.3,0.3
2023-05-21T21:00:00,1861A,110.4417,29.315,张家界市,袁家界,,22,0,19,0,17,84,69,80,77,6,6,7,6,0.7,0.7
2023-05-21T21:00:00,1862A,110.4144,25.3167,桂林市,电子科大尧山校区,颗粒物(PM10),52,53,44,29,27,121,77,111,106,7,9,4,4,0.8,0.7
2023-05-21T21:00:00,1863A,110.2819,25.2697,桂林市,监测站,细颗粒物(PM2.5),57,62,56,40,34,113,86,106,105,16,12,4,12,0.6,0.6
2023-05-21T21:00:00,1864A,110.3089,25.2708,桂林市,龙隐路小学,颗粒物(PM10),58,66,51,36,32,107,71,97,94,17,14,5,13,0.7,0.7
2023-05-21T21:00:00,1865A,110.2869,25.2178,桂林市,八中,细颗粒物(PM2.5),53,46,48,37,30,100,71,93,92,15,12,3,7,0.4,0.4
2023-05-21T21:00:00,1866A,109.2262,21.588,北海市,牛尾岭水库,,49,42,36,34,21,104,63,92,90,13,8,7,7,0.7,0.6
2023-05-21T21:00:00,1867A,109.1436,21.4086,北海市,海滩公园,颗粒物(PM10),59,68,46,17,19,103,96,99,99,4,6,3,3,0.5,0.6
2023-05-21T21:00:00,1868A,109.0981,21.4661,北海市,新市环保局,,36,36,39,24,23,114,106,109,109,6,6,2,2,0.5,0.5
2023-05-21T21:00:00,1869A,109.1778,21.5233,北海市,北海工业园,,50,50,48,27,26,116,97,108,108,8,7,4,4,0.6,0.6
2023-05-21T21:00:00,1870A,109.4856,24.3895,柳州市,柳东小学,颗粒物(PM10),57,63,45,22,30,137,115,128,128,10,6,5,6,0.5,0.4
2023-05-21T21:00:00,1871A,109.4157,24.3277,柳州市,环保监测站,颗粒物(PM10),53,56,53,24,29,127,97,117,116,15,11,4,4,0.6,0.5
2023-05-21T21:00:00,1872A,109.389,24.341,柳州市,河西水厂,细颗粒物(PM2.5),53,53,51,37,30,113,89,105,104,14,12,5,5,0.8,0.7
2023-05-21T21:00:00,1873A,109.4311,24.2921,柳州市,市四中,颗粒物(PM10),56,61,51,33,30,122,91,114,112,14,9,6,6,0.8,0.7
2023-05-21T21:00:00,1874A,109.4006,24.3631,柳州市,市九中,,,,55,,31,129,,118,118,13,10,8,8,0.6,0.6
2023-05-21T21:00:00,1875A,109.4958,24.3134,柳州市,古亭山,细颗粒物(PM2.5),64,57,48,46,37,126,96,116,115,14,7,1,1,0.5,0.4
2023-05-21T21:00:00,1876A,109.5078,18.2489,三亚市,河东子站,,44,44,37,21,23,89,69,75,68,4,3,3,2,0.3,0.3
2023-05-21T21:00:00,1877A,109.4964,18.2681,三亚市,河西子站,,38,38,38,19,19,90,70,76,69,6,6,3,2,0.3,0.4
2023-05-21T21:00:00,1878A,104.7778,31.4741,绵阳市,富乐山,颗粒物(PM10),54,57,44,26,29,101,89,90,90,6,12,3,3,0.2,0.3
2023-05-21T21:00:00,1879A,104.7563,31.4535,绵阳市,市人大,,48,48,45,24,29,87,82,85,85,11,16,5,4,0.4,0.5
2023-05-21T21:00:00,1880A,104.6697,31.4668,绵阳市,高新区自来水公司,颗粒物(PM10),51,51,39,23,28,90,88,88,88,7,13,5,5,0.2,0.4
2023-05-21T21:00:00,1881A,104.7287,31.5075,绵阳市,三水厂,,,,43,,27,91,,89,89,,18,,4,,0.5
2023-05-21T21:00:00,1882A,104.563,28.793,宜宾市,石马中学,,26,24,39,18,28,114,71,91,90,10,12,2,2,0.4,0.6
2023-05-21T21:00:00,1883A,104.6201,28.7728,宜宾市,市委,,28,28,49,18,34,109,61,83,83,17,18,7,6,0.5,0.7
2023-05-21T21:00:00,1884A,104.6055,28.793,宜宾市,宜宾四中,,28,28,48,17,40,112,63,87,86,18,17,7,7,0.4,0.6
2023-05-21T21:00:00,1885A,104.639,28.7562,宜宾市,市政府,,26,26,49,16,40,124,68,91,90,15,19,6,6,0.5,0.7
2023-05-21T21:00:00,1886A,104.5742,28.7199,宜宾市,黄金嘴,,27,27,40,16,32,119,71,93,92,11,16,6,7,0.4,0.6
2023-05-21T21:00:00,1888A,101.6891,26.571,攀枝花市,弄弄坪,颗粒物(PM10),76,102,46,28,18,126,70,119,106,48,18,90,22,5.1,1.5
2023-05-21T21:00:00,1889A,101.5769,26.5928,攀枝花市,河门口,,40,19,29,8,15,135,126,129,129,7,13,5,8,0.4,0.6
2023-05-21T21:00:00,1890A,101.7169,26.585,攀枝花市,炳草岗,,30,30,32,11,16,137,91,128,121,36,21,22,11,2.2,1.2
2023-05-21T21:00:00,1891A,101.7369,26.5008,攀枝花市,仁和,,38,22,27,9,15,142,121,132,131,10,10,6,7,0.5,0.5
2023-05-21T21:00:00,1893A,105.4324,28.9634,泸州市,九狮山,,40,29,43,28,34,96,61,80,77,15,21,5,7,0.1,0.3
2023-05-21T21:00:00,1894A,105.4427,28.9063,泸州市,小市上码头,,23,15,69,16,49,91,64,70,70,7,17,6,9,0.6,0.8
2023-05-21T21:00:00,1895A,105.4241,28.8573,泸州市,兰田宪桥,,20,14,65,12,51,107,62,81,80,11,16,6,9,0.7,0.9
2023-05-21T21:00:00,1896A,105.4379,28.8833,泸州市,市环监站,,17,12,60,7,41,98,54,74,72,16,23,2,5,0.5,0.7
2023-05-21T21:00:00,1901A,104.4239,31.1208,德阳市,东山公园,颗粒物(PM10),53,55,43,26,27,88,85,86,86,6,13,1,2,0.2,0.5
2023-05-21T21:00:00,1902A,104.3826,31.1317,德阳市,西小区,颗粒物(PM10),57,64,52,29,28,86,77,82,82,9,14,1,2,0.1,0.3
2023-05-21T21:00:00,1904A,104.3553,31.1091,德阳市,耐火材料厂,颗粒物(PM10),53,55,46,30,32,88,77,83,82,7,12,1,3,0.2,0.4
2023-05-21T21:00:00,1905A,106.056,30.8064,南充市,西山风景区,,23,23,42,8,31,79,73,77,77,9,10,3,5,0.2,0.4
2023-05-21T21:00:00,1906A,106.0789,30.8023,南充市,南充市委,,22,15,54,8,29,77,68,74,74,15,23,8,9,0.3,0.6
2023-05-21T21:00:00,1907A,106.1031,30.8217,南充市,南充炼油厂,,25,25,57,2,31,82,68,77,76,13,23,8,9,0.5,0.6
2023-05-21T21:00:00,1908A,106.1064,30.7856,南充市,高坪区监测站,,28,28,55,4,35,83,68,76,76,13,31,10,9,0.3,0.6
2023-05-21T21:00:00,1909A,106.0642,30.7636,南充市,嘉陵区环保局,,22,16,51,5,34,83,70,80,79,16,29,7,9,0.4,0.6
2023-05-21T21:00:00,1910A,106.1087,30.8388,南充市,市环境监测站,,22,18,56,11,35,82,70,76,76,14,26,8,9,0.4,0.6
2023-05-21T21:00:00,1911A,106.9222,27.6869,遵义市,丁字口,,26,26,26,15,15,101,70,89,87,13,15,10,7,0.6,0.7
2023-05-21T21:00:00,1912A,106.9242,27.7019,遵义市,凤凰山,,27,24,26,18,17,119,84,100,100,13,11,10,7,0.4,0.4
2023-05-21T21:00:00,1913A,106.8906,27.6486,遵义市,忠庄,,29,18,27,20,16,109,66,95,93,12,12,1,2,0.4,0.5
2023-05-21T21:00:00,1914A,106.9231,27.6506,遵义市,舟水桥,,29,19,21,20,16,119,78,102,100,15,10,5,2,0.4,0.4
2023-05-21T21:00:00,1915A,106.9178,27.72,遵义市,干田坝,,29,29,25,16,10,118,79,100,98,12,11,8,9,0.5,0.5
2023-05-21T21:00:00,1916A,103.7897,25.5035,曲靖市,环境监测站,,44,44,36,5,12,138,120,134,133,13,11,4,4,0.3,0.4
2023-05-21T21:00:00,1917A,103.8,25.5364,曲靖市,烟厂办公区,,,37,36,16,14,154,,151,151,9,9,4,7,0.3,0.2
2023-05-21T21:00:00,1918A,108.7197,34.3956,咸阳市,气象站,,15,9,60,8,18,106,46,68,60,24,14,4,4,0.3,0.2
2023-05-21T21:00:00,1919A,108.673,34.3155,咸阳市,实验中学,,23,10,67,8,22,123,73,82,72,14,9,4,4,0.4,0.4
2023-05-21T21:00:00,1920A,108.7233,34.3617,咸阳市,师范学院,,22,22,79,9,15,114,64,79,68,19,14,6,6,0.5,0.5
2023-05-21T21:00:00,1922A,109.0656,35.0994,铜川市,党校,,14,14,89,0,14,101,38,86,68,10,14,10,10,0.5,0.5
2023-05-21T21:00:00,1923A,109.0697,35.0697,铜川市,王益区政府,,21,16,61,13,19,103,65,88,78,7,6,5,5,0.3,0.3
2023-05-21T21:00:00,1924A,108.9344,34.9058,铜川市,新区管委会,,22,16,71,14,26,98,68,92,76,18,12,7,8,0.3,0.3
2023-05-21T21:00:00,1926A,109.4131,36.6275,延安市,枣园,,30,30,69,13,20,100,47,88,75,23,14,5,6,0.3,0.3
2023-05-21T21:00:00,1927A,109.4761,36.6028,延安市,延大医附院,,42,42,68,14,18,89,50,80,70,20,13,4,5,0.3,0.4
2023-05-21T21:00:00,1929A,109.5056,36.6106,延安市,百米大道,,35,35,79,17,23,90,52,78,69,22,19,6,7,0.4,0.3
2023-05-21T21:00:00,1930A,107.185,34.3063,宝鸡市,庙沟村,,20,20,34,6,19,109,32,106,60,10,4,6,7,0.1,0.2
2023-05-21T21:00:00,1931A,107.0708,34.3017,宝鸡市,竹园沟,,14,14,31,3,16,121,32,105,66,12,11,7,7,0.4,0.4
2023-05-21T21:00:00,1932A,107.1906,34.3672,宝鸡市,三陆医院,,19,18,35,13,17,95,59,93,76,22,15,6,6,0.4,0.4
2023-05-21T21:00:00,1933A,107.1431,34.3547,宝鸡市,监测站,,24,24,38,9,17,101,48,101,74,19,13,6,6,0.2,0.2
2023-05-21T21:00:00,1934A,107.1186,34.3739,宝鸡市,技工学校,,20,12,32,10,19,105,63,103,74,9,9,4,4,0.3,0.3
2023-05-21T21:00:00,1935A,107.3906,34.3528,宝鸡市,陈仓区环保局家属楼,,,12,35,,,100,45,88,69,22,11,5,5,0.4,0.4
2023-05-21T21:00:00,1936A,107.2058,34.3497,宝鸡市,文理学院,,20,17,37,1,18,113,61,107,79,16,10,5,5,0.4,0.4
2023-05-21T21:00:00,1937A,107.2386,34.3622,宝鸡市,三迪小学,,,15,35,,22,111,67,102,79,16,12,5,5,0.3,0.3
2023-05-21T21:00:00,1938A,109.5293,34.5101,渭南市,农科所,,25,19,63,17,27,126,62,78,63,17,14,7,8,0.4,0.5
2023-05-21T21:00:00,1939A,109.4974,34.4877,渭南市,日报社,,19,19,50,12,23,134,52,95,60,33,21,5,6,0.4,0.4
2023-05-21T21:00:00,1940A,109.4636,34.493,渭南市,体育馆,,22,19,53,15,24,136,32,90,59,38,17,5,7,0.3,0.3
2023-05-21T21:00:00,1941A,109.4259,34.5023,渭南市,高新一小,,19,19,64,9,17,138,54,86,62,26,14,3,3,0.2,0.3
2023-05-21T21:00:00,1943A,102.1725,38.5339,金昌市,新川苑,颗粒物(PM10),54,57,138,15,31,110,97,105,105,11,8,24,20,0.6,0.5
2023-05-21T21:00:00,1944A,102.1692,38.5167,金昌市,天庆家园,二氧化硫,62,53,112,23,35,116,92,111,110,21,7,234,48,0.8,0.6
2023-05-21T21:00:00,1945A,98.2908,39.7711,嘉峪关市,气象局,颗粒物(PM10),80,110,103,39,39,119,103,115,114,11,10,3,4,0.0,0
2023-05-21T21:00:00,1947A,106.3394,38.817,石嘴山市,沙湖旅游区,颗粒物(PM10),58,66,52,18,20,125,94,118,116,10,5,6,6,0.4,0.3
2023-05-21T21:00:00,1948A,106.3668,39.0145,石嘴山市,大武口朝阳西街,,,48,50,,22,125,88,112,112,23,9,14,11,0.3,0.3
2023-05-21T21:00:00,1949A,106.7704,39.2282,石嘴山市,惠农南大街,颗粒物(PM10),68,86,62,27,25,123,100,107,107,19,22,17,56,0.4,0.5
2023-05-21T21:00:00,1950A,106.7099,39.1325,石嘴山市,红果子镇惠新街,细颗粒物(PM2.5),62,62,57,44,30,130,99,113,113,12,14,8,22,0.3,0.5
2023-05-21T21:00:00,1951A,84.895,45.6094,克拉玛依市,长征新村,,36,12,15,2,5,114,114,85,85,4,10,7,7,0.2,0.2
2023-05-21T21:00:00,1952A,84.8988,45.5893,克拉玛依市,南林小区,,37,3,16,6,7,116,116,92,92,10,16,3,3,0.2,0.2
2023-05-21T21:00:00,1954A,84.905,44.3396,克拉玛依市,独山子区,,39,23,22,10,14,133,124,127,127,8,10,7,8,0.3,0.4
2023-05-21T21:00:00,1955A,85.6979,46.098,克拉玛依市,乌尔禾区商贸楼,,,,14,36,7,117,112,112,112,1,4,9,9,0.2,0.2
2023-05-21T21:00:00,1956A,86.1472,41.7538,巴音郭楞州,孔雀公园,颗粒物(PM10),95,140,78,37,29,107,65,94,79,20,13,3,3,0.2,0.2
2023-05-21T21:00:00,1957A,86.1972,41.7166,巴音郭楞州,棉纺厂,颗粒物(PM10),103,156,70,65,28,107,88,96,86,11,12,3,3,0.2,0.2
2023-05-21T21:00:00,1958A,86.2357,41.7173,巴音郭楞州,经济开发区,颗粒物(PM10),104,157,58,52,22,118,102,111,106,7,5,2,2,0.2,0.2
2023-05-21T21:00:00,1961A,117.532,36.6868,济南市,东山小学,颗粒物(PM10),102,154,284,34,65,76,16,66,52,57,38,5,10,0.4,0.4
2023-05-21T21:00:00,1966A,120.0405,35.8735,青岛市,黄岛区4号,颗粒物(PM10),474,574,498,144,111,94,30,81,49,34,24,7,7,0.7,0.5
2023-05-21T21:00:00,1982A,122.0693,37.2174,威海市,文登开发区,,,,317,,72,107,,86,64,25,15,6,6,0.3,0.4
2023-05-21T21:00:00,2031A,113.1817,27.9958,株洲市,云田中学,,28,14,36,9,27,136,87,98,81,11,9,4,5,0.3,0.4
2023-05-21T21:00:00,2054A,114.1099,32.1059,信阳市,平桥分局,,,103,89,,46,111,67,72,66,16,20,6,7,0.6,0.5
2023-05-21T21:00:00,2064A,113.9956,32.1271,信阳市,南湾水厂,颗粒物(PM10),74,98,92,24,33,112,67,70,67,8,10,6,6,0.3,0.5
2023-05-21T21:00:00,2065A,114.0775,32.1195,信阳市,市酿酒公司,颗粒物(PM10),75,100,86,36,42,124,64,72,66,15,17,7,8,0.4,0.5
2023-05-21T21:00:00,2066A,114.0609,32.1399,信阳市,审计局,颗粒物(PM10),69,87,99,36,44,106,68,88,68,17,18,8,8,0.4,0.5
2023-05-21T21:00:00,2067A,114.6613,33.6128,周口市,市环境监测站,颗粒物(PM10),63,75,117,39,48,112,73,94,79,9,9,4,6,0.4,0.5
2023-05-21T21:00:00,2068A,114.6758,33.6347,周口市,周口师范,颗粒物(PM10),83,115,148,39,44,104,65,88,74,16,13,4,6,0.4,0.4
2023-05-21T21:00:00,2069A,114.6546,33.5979,周口市,市运管处,颗粒物(PM10),88,125,147,31,41,110,74,92,80,12,12,6,9,0.4,0.6
2023-05-21T21:00:00,2070A,114.6369,33.6406,周口市,川汇区环保局,颗粒物(PM10),83,115,145,34,41,108,71,92,78,15,13,8,10,0.4,0.5
2023-05-21T21:00:00,2075A,117.6336,24.4674,漳州市,九湖,,,,,,,,,,,,,,,,
2023-05-21T21:00:00,2160A,112.85,35.5051,晋城市,自来水公司,,32,27,48,9,14,107,101,100,69,12,14,3,6,0.1,0.5
2023-05-21T21:00:00,2161A,112.8318,35.4936,晋城市,白云商贸,,48,48,56,5,15,105,99,96,67,14,20,3,4,0.4,0.7
2023-05-21T21:00:00,2162A,112.8508,35.4887,晋城市,市环保局,,31,30,52,9,21,104,99,99,68,12,14,6,7,0.4,0.6
2023-05-21T21:00:00,2163A,112.8676,35.4897,晋城市,技术学院,,45,45,59,7,20,105,99,100,67,10,13,6,6,0.2,0.4
2023-05-21T21:00:00,2165A,112.8453,35.546,晋城市,白马寺,,29,24,45,8,20,109,91,90,61,11,14,4,5,0.5,0.9
2023-05-21T21:00:00,2166A,112.4397,39.3522,朔州市,平朔,颗粒物(PM10),129,207,113,24,29,91,67,86,84,10,26,5,8,0.4,0.3
2023-05-21T21:00:00,2167A,112.4575,39.3617,朔州市,朔唯,,48,48,107,20,33,93,67,87,85,16,34,4,10,0.4,0.4
2023-05-21T21:00:00,2168A,112.4258,39.3197,朔州市,区政府,,41,41,92,12,27,96,70,90,88,15,20,3,6,0.9,0.3
2023-05-21T21:00:00,2169A,112.4072,39.3278,朔州市,市环保局,,47,47,91,27,21,93,64,88,86,15,20,3,8,0.5,0.5
2023-05-21T21:00:00,2170A,112.4272,39.3681,朔州市,市二中,细颗粒物(PM2.5),52,47,108,36,32,96,62,90,87,16,27,4,8,0.3,0.3
2023-05-21T21:00:00,2171A,112.7532,37.6945,晋中市,锦纶小区,,39,39,89,16,22,101,75,91,86,24,23,11,9,0.3,0.2
2023-05-21T21:00:00,2173A,112.7249,37.7067,晋中市,南都小区,颗粒物(PM10),51,51,85,27,23,93,75,90,77,20,17,12,9,0.5,0.3
2023-05-21T21:00:00,2174A,112.6991,37.6982,晋中市,榆次区政府,颗粒物(PM10),53,55,83,14,18,94,76,86,83,23,18,12,9,0.4,0.3
2023-05-21T21:00:00,2175A,110.9956,35.0147,运城市,运城中学,,24,20,36,4,21,125,74,105,66,6,6,6,5,0.6,0.6
2023-05-21T21:00:00,2178A,110.9686,35.0303,运城市,地区技校,,36,36,44,11,18,127,73,108,65,7,8,6,4,0.4,0.6
2023-05-21T21:00:00,2179A,111.0414,35.1147,运城市,空港新区,,28,28,42,15,22,121,68,107,62,13,12,7,6,0.5,0.7
2023-05-21T21:00:00,2181A,112.7383,38.4519,忻州市,开发区,颗粒物(PM10),57,63,71,9,11,85,26,83,66,50,15,8,9,0.4,0.2
2023-05-21T21:00:00,2182A,112.7003,38.4928,忻州市,会展中心,颗粒物(PM10),70,89,73,34,16,74,10,69,58,59,17,8,7,0.7,0.4
2023-05-21T21:00:00,2183A,111.1406,37.5211,吕梁市,环保局,,30,30,90,3,16,83,47,75,68,44,32,12,9,0.4,0.4
2023-05-21T21:00:00,2185A,111.1297,37.5136,吕梁市,自来水公司,,24,24,81,9,19,86,66,78,75,25,25,6,6,0.4,0.3
2023-05-21T21:00:00,2187A,106.8174,39.6973,乌海市,市林业局,,39,39,44,15,12,103,78,94,94,7,11,12,15,0.4,0.5
2023-05-21T21:00:00,2188A,106.7907,39.6667,乌海市,中海勃湾学校,,34,34,44,17,14,104,94,98,98,5,11,7,10,0.2,0.3
2023-05-21T21:00:00,2191A,122.2532,43.6801,通辽市,艺术职业学校,颗粒物(PM10),108,165,164,28,45,99,21,94,82,64,13,5,5,0.5,0.3
2023-05-21T21:00:00,2192A,119.7594,49.2261,呼伦贝尔市,区环保局,颗粒物(PM10),52,53,34,25,18,96,38,89,79,44,14,5,5,0.4,0.3
2023-05-21T21:00:00,2195A,107.4212,40.761,巴彦淖尔市,附二中,,37,37,53,10,12,103,73,96,94,14,13,3,5,0.4,0.4
2023-05-21T21:00:00,2196A,107.37,40.7372,巴彦淖尔市,市环保大楼,,41,41,59,12,21,104,76,97,95,15,11,2,4,0.5,0.4
2023-05-21T21:00:00,2197A,113.1306,40.9923,乌兰察布市,集宁新区,,42,42,53,15,22,98,85,95,91,5,3,10,10,0.4,0.4
2023-05-21T21:00:00,2200A,122.0392,46.0656,兴安盟,胜华新制药厂,颗粒物(PM10),66,82,63,33,27,95,48,89,81,34,12,5,3,0.7,0.3
2023-05-21T21:00:00,2201A,121.9504,46.0741,兴安盟,科右前旗环保局,,43,43,53,23,22,93,49,89,82,27,6,4,3,0.7,0.4
2023-05-21T21:00:00,2202A,116.1042,43.9317,锡林郭勒盟,市环保监测站,颗粒物(PM10),51,52,28,11,9,101,86,96,94,4,8,5,5,0.2,0.2
2023-05-21T21:00:00,2203A,116.0781,43.9311,锡林郭勒盟,市政府,颗粒物(PM10),54,58,30,12,17,101,82,93,90,12,14,6,6,0.2,0.2
2023-05-21T21:00:00,2204A,105.6467,38.8363,阿拉善盟,西城区西花园,,46,46,59,31,26,104,91,99,98,18,9,8,8,0.5,0.5
2023-05-21T21:00:00,2205A,105.6985,38.8411,阿拉善盟,蒙二幼,,45,40,53,31,31,107,94,107,101,15,7,7,6,0.4,0.3
2023-05-21T21:00:00,2206A,105.724,38.8516,阿拉善盟,环保局新楼,,38,28,49,26,32,110,100,109,100,12,7,8,8,0.4,0.4
2023-05-21T21:00:00,2207A,121.6094,41.998,阜新市,工业园区,细颗粒物(PM2.5),142,129,216,108,49,107,23,101,86,65,15,16,6,1.1,0.5
2023-05-21T21:00:00,2208A,121.6697,42.0279,阜新市,长青街,颗粒物(PM10),56,61,178,18,58,105,50,99,91,22,7,6,6,0.6,0.4
2023-05-21T21:00:00,2209A,121.6673,42.0705,阜新市,农业园区,,43,22,177,30,55,97,75,92,90,10,5,8,7,0.7,0.5
2023-05-21T21:00:00,2210A,121.6717,42.0224,阜新市,东苑,细颗粒物(PM2.5),74,88,201,54,70,104,21,99,87,74,9,13,8,1.2,0.5
2023-05-21T21:00:00,2211A,121.6506,42.0498,阜新市,玉龙新城,细颗粒物(PM2.5),110,69,182,83,80,104,11,99,81,48,10,5,5,0.7,0.5
2023-05-21T21:00:00,2212A,123.2,41.1953,辽阳市,宏伟区,颗粒物(PM10),53,55,239,32,58,92,47,82,78,39,18,13,14,0.6,0.6
2023-05-21T21:00:00,2213A,123.1683,41.2495,辽阳市,新华园,颗粒物(PM10),61,72,251,32,53,94,41,84,79,37,18,21,17,0.5,0.7
2023-05-21T21:00:00,2214A,123.2354,41.2639,辽阳市,滨河路,细颗粒物(PM2.5),79,72,264,58,74,94,20,83,71,62,22,9,10,0.4,0.4
2023-05-21T21:00:00,2215A,123.149,41.2991,辽阳市,铁西工业园,颗粒物(PM10),62,74,245,38,75,100,36,89,81,42,21,7,10,0.3,0.5
2023-05-21T21:00:00,2216A,123.8139,42.3022,铁岭市,汇工街西,细颗粒物(PM2.5),83,44,271,61,100,102,52,94,87,26,10,15,6,0.4,0.4
2023-05-21T21:00:00,2217A,123.8649,42.2923,铁岭市,水上乐园,,36,36,228,12,63,97,21,91,82,60,10,7,5,0.3,0.3
2023-05-21T21:00:00,2218A,123.8486,42.2867,铁岭市,银州路东段,细颗粒物(PM2.5),98,50,289,73,118,85,49,80,74,28,11,8,7,0.4,0.4
2023-05-21T21:00:00,2219A,123.7153,42.2217,铁岭市,金沙江路北,,35,33,234,24,60,98,72,91,88,12,11,8,9,0.4,0.3
2023-05-21T21:00:00,2220A,120.4318,41.5881,朝阳市,西梁,细颗粒物(PM2.5),52,49,116,36,16,105,58,100,95,28,10,8,8,0.7,0.5
2023-05-21T21:00:00,2221A,120.4521,41.5646,朝阳市,河畔小区,,30,28,140,12,27,111,94,106,104,8,6,8,8,0.5,0.5
2023-05-21T21:00:00,2222A,120.4176,41.5648,朝阳市,八里堡,细颗粒物(PM2.5),70,62,158,51,41,112,43,107,98,57,13,6,5,1.1,0.6
2023-05-21T21:00:00,2223A,120.3806,41.5969,朝阳市,农业园区,颗粒物(PM10),56,61,133,19,20,110,27,104,91,59,9,4,3,0.5,0.4
2023-05-21T21:00:00,2225A,124.4002,43.1713,四平市,一商场,,40,40,180,19,33,93,42,89,81,41,11,6,6,0.3,0.2
2023-05-21T21:00:00,2226A,124.388,43.193,四平市,境园,,33,33,157,14,32,92,43,88,82,18,6,6,7,0.2,0.3
2023-05-21T21:00:00,2227A,125.1358,42.8845,辽源市,环保局,,22,22,105,11,40,98,46,93,88,28,7,7,7,0.6,0.4
2023-05-21T21:00:00,2229A,125.9358,41.7173,通化市,光明,颗粒物(PM10),79,107,122,32,26,83,40,80,73,26,9,7,7,0.4,0.3
2023-05-21T21:00:00,2230A,125.9446,41.7325,通化市,铁路,颗粒物(PM10),78,105,135,23,28,83,43,77,70,16,11,10,7,0.4,0.2
2023-05-21T21:00:00,2231A,126.4219,41.9171,白山市,喜丰,颗粒物(PM10),95,139,185,22,29,80,33,76,71,35,13,9,9,0.5,0.4
2023-05-21T21:00:00,2232A,126.4077,41.9419,白山市,环保局,颗粒物(PM10),80,109,162,25,30,83,56,79,75,13,8,9,10,0.6,0.6
2023-05-21T21:00:00,2233A,124.8006,45.1214,松原市,江南,,32,32,95,19,41,100,63,92,89,28,9,5,5,0.4,0.3
2023-05-21T21:00:00,2234A,124.7965,45.1722,松原市,江北,,23,23,130,14,32,101,73,93,91,14,8,4,3,0.4,0.4
2023-05-21T21:00:00,2235A,122.7911,45.6077,白城市,洮北区环保局,,22,21,114,10,31,108,45,103,94,44,9,6,6,0.2,0
2023-05-21T21:00:00,2236A,122.8738,45.5725,白城市,市环保局,,50,50,143,18,31,105,68,101,95,26,9,4,4,0.3,0.3
2023-05-21T21:00:00,2237A,129.47,42.8883,延边朝鲜族自治州,妇幼医院,颗粒物(PM10),86,122,90,29,29,75,66,72,70,11,10,8,8,0.5,0.5
2023-05-21T21:00:00,2238A,129.5055,42.9108,延边朝鲜族自治州,延边医院,颗粒物(PM10),83,116,105,21,17,75,67,71,70,9,12,5,6,0.4,0.4
2023-05-21T21:00:00,2239A,129.3964,42.8881,延边朝鲜族自治州,朝阳川镇医院,颗粒物(PM10),79,107,93,27,19,78,63,75,71,7,7,7,7,0.4,0.4
2023-05-21T21:00:00,2240A,130.9762,45.3001,鸡西市,环保局,颗粒物(PM10),91,132,310,45,76,62,48,57,53,11,10,4,4,0.4,0.4
2023-05-21T21:00:00,2243A,130.9429,45.3039,鸡西市,第一中学,,41,41,316,16,80,64,52,60,58,2,3,4,4,0.2,0.2
2023-05-21T21:00:00,2244A,130.2537,47.3416,鹤岗市,哈啤分公司,,20,17,149,14,36,70,49,64,50,4,6,10,11,0.2,0.3
2023-05-21T21:00:00,2245A,130.2684,47.3086,鹤岗市,斯达机电,,26,26,179,8,45,70,40,64,50,9,7,8,8,0.3,0.3
2023-05-21T21:00:00,2246A,130.3114,47.3388,鹤岗市,东山纸板厂,,14,11,173,8,44,72,43,68,54,9,8,9,9,0.2,0.4
2023-05-21T21:00:00,2247A,130.1097,47.3382,鹤岗市,五号水库,,19,7,160,13,40,76,37,70,50,6,4,7,7,0.2,0.2
2023-05-21T21:00:00,2248A,131.1511,46.6937,双鸭山市,双合村,,22,22,263,12,91,76,56,67,66,5,7,5,6,0.0,0.1
2023-05-21T21:00:00,2249A,131.1652,46.6191,双鸭山市,南小市,,24,24,235,8,63,72,40,63,60,8,5,3,3,0.0,0
2023-05-21T21:00:00,2250A,131.1524,46.6554,双鸭山市,环保局,,32,32,194,15,50,72,50,62,60,3,5,7,7,0.2,0.2
2023-05-21T21:00:00,2251A,131.12,46.5656,双鸭山市,苗圃,,30,30,116,7,57,79,39,66,61,8,7,4,4,0.1,0.2
2023-05-21T21:00:00,2252A,128.5159,47.4311,伊春市,环保局,,18,18,148,11,55,79,28,67,58,14,7,6,5,0.4,0.4
2023-05-21T21:00:00,2253A,128.9102,47.7412,伊春市,电力嘉园,,25,25,173,17,45,82,36,70,64,10,4,5,5,0.6,0.6
2023-05-21T21:00:00,2254A,129.5029,48.471,伊春市,汤旺河国家公园,,20,12,75,14,37,65,17,63,49,2,2,4,4,0.5,0.5
2023-05-21T21:00:00,2255A,130.2751,46.8028,佳木斯市,佳纺,,15,13,222,8,67,62,48,60,58,10,7,4,4,0.4,0.3
2023-05-21T21:00:00,2256A,130.3995,46.8307,佳木斯市,发电厂,,16,10,232,11,73,70,46,66,63,4,7,6,6,0.4,0.4
2023-05-21T21:00:00,2257A,130.3258,46.7975,佳木斯市,环保局,,24,24,218,14,69,61,42,59,50,20,13,3,4,0.5,0.4
2023-05-21T21:00:00,2258A,130.3648,46.8032,佳木斯市,十一中,,16,16,256,9,71,64,49,60,59,18,11,6,6,0.5,0.4
2023-05-21T21:00:00,2259A,130.3794,46.7588,佳木斯市,四丰,,16,12,203,8,84,88,50,84,76,19,6,1,1,0.6,0.6
2023-05-21T21:00:00,2262A,131.0518,45.8751,七台河市,新一中,,20,8,249,7,78,76,61,72,70,6,8,7,7,0.5,0.5
2023-05-21T21:00:00,2263A,127.4833,50.2524,黑河市,交通局,,22,20,13,15,8,81,53,76,72,28,11,3,4,0.4,0.4
2023-05-21T21:00:00,2264A,127.5144,50.2341,黑河市,环保局,,28,28,22,17,10,92,72,84,82,17,10,3,7,0.4,0.3
2023-05-21T21:00:00,2265A,127.5291,50.2472,黑河市,大黑河岛,,26,21,10,6,8,101,81,97,95,5,3,18,19,0.3,0.3
2023-05-21T21:00:00,2266A,126.9785,46.6365,绥化市,人和东街,,43,43,232,18,57,82,47,76,67,22,9,9,9,0.6,0.5
2023-05-21T21:00:00,2267A,126.964,46.6528,绥化市,党政办公中心,,44,44,227,22,72,93,61,86,78,19,10,7,6,0.5,0.4
2023-05-21T21:00:00,2269A,124.1069,50.4097,大兴安岭地区,科技局,,25,12,12,10,10,102,80,94,90,6,4,7,6,0.3,0.3
2023-05-21T21:00:00,2270A,117.396,32.939,蚌埠市,工人疗养院,颗粒物(PM10),161,271,112,60,44,176,93,159,129,11,17,8,9,0.3,0.6
2023-05-21T21:00:00,2271A,117.3605,32.9427,蚌埠市,百货大楼,颗粒物(PM10),165,280,115,65,40,170,93,153,129,12,16,5,5,0.3,0.5
2023-05-21T21:00:00,2273A,117.4185,32.8911,蚌埠市,蚌埠学院,颗粒物(PM10),165,280,110,61,44,167,87,149,124,16,22,6,9,0.3,0.5
2023-05-21T21:00:00,2274A,117.3533,32.9673,蚌埠市,淮上区政府,颗粒物(PM10),157,263,110,60,43,164,87,150,124,12,16,8,8,0.2,0.5
2023-05-21T21:00:00,2275A,117.3145,32.8977,蚌埠市,高新区,颗粒物(PM10),168,285,108,62,42,180,96,163,136,10,16,6,7,0.1,0.5
2023-05-21T21:00:00,2277A,116.8305,32.7727,淮南市,潘集区政府,颗粒物(PM10),130,210,103,65,47,183,91,158,122,17,17,10,9,0.2,0.4
2023-05-21T21:00:00,2278A,117.0067,32.6524,淮南市,师范学院,颗粒物(PM10),149,248,114,61,52,203,98,175,138,14,17,6,11,0.2,0.5
2023-05-21T21:00:00,2279A,116.8569,32.5951,淮南市,谢家集区政府,颗粒物(PM10),144,237,114,58,46,214,104,183,147,17,22,7,11,0.2,0.5
2023-05-21T21:00:00,2280A,116.8281,32.633,淮南市,八公山区政府,颗粒物(PM10),139,228,120,52,58,205,99,169,136,12,18,11,14,0.2,0.5
2023-05-21T21:00:00,2281A,116.6325,32.6201,淮南市,焦岗湖风景区管理处,,,,,,,,,,,,,,,,
2023-05-21T21:00:00,2282A,116.8004,33.975,淮北市,监测站,颗粒物(PM10),168,285,122,65,40,156,49,150,102,22,15,5,6,0.5,0.5
2023-05-21T21:00:00,2283A,116.8091,33.9007,淮北市,烈山区政府,颗粒物(PM10),158,265,164,69,44,147,54,147,106,22,17,6,7,0.4,0.6
2023-05-21T21:00:00,2284A,116.7856,33.9477,淮北市,职业技术学院,颗粒物(PM10),176,302,142,71,43,164,56,148,114,19,14,7,7,0.7,0.8
2023-05-21T21:00:00,2285A,117.8177,30.9412,铜陵市,市第四中学,细颗粒物(PM2.5),114,173,165,86,77,158,158,114,114,32,43,6,13,1.2,1
2023-05-21T21:00:00,2286A,117.8059,30.9273,铜陵市,市公路局,细颗粒物(PM2.5),94,87,109,70,79,151,151,108,108,24,43,6,11,1.5,1.3
2023-05-21T21:00:00,2287A,117.7807,30.9413,铜陵市,市新民污水厂,颗粒物(PM10),91,132,144,60,60,159,159,91,91,27,54,6,11,1.0,1
2023-05-21T21:00:00,2288A,117.7439,30.8792,铜陵市,市第九中学,颗粒物(PM10),90,129,144,60,72,97,97,55,55,45,87,4,7,1.0,1.1
2023-05-21T21:00:00,2289A,117.846,30.9413,铜陵市,车站新区,细颗粒物(PM2.5),123,118,119,93,75,165,165,104,104,23,42,6,9,1.3,1
2023-05-21T21:00:00,2290A,117.8483,30.97,铜陵市,市职教基地,细颗粒物(PM2.5),92,100,95,68,63,155,155,105,105,20,26,3,4,1.1,0.9
2023-05-21T21:00:00,2291A,117.0809,30.5177,安庆市,环科院,细颗粒物(PM2.5),54,42,49,38,40,108,84,96,96,19,28,6,8,0.8,0.7
2023-05-21T21:00:00,2292A,117.0331,30.5119,安庆市,马山宾馆,,50,42,50,35,40,94,90,86,86,16,39,8,11,1.0,0.9
2023-05-21T21:00:00,2294A,116.9896,30.6145,安庆市,安庆大学,细颗粒物(PM2.5),65,40,51,47,40,111,111,80,80,7,19,7,8,0.8,0.6
2023-05-21T21:00:00,2295A,118.2903,29.6963,黄山市,延安路89号,,32,32,51,1,25,92,39,78,63,9,9,4,5,0.3,0.3
2023-05-21T21:00:00,2296A,118.327,29.7178,黄山市,黄山东路89号,,15,15,43,9,27,97,38,80,60,9,11,4,4,0.4,0.5
2023-05-21T21:00:00,2297A,118.1371,30.2756,黄山市,黄山区政府5号楼,,27,27,44,8,22,93,69,76,67,7,9,6,6,0.4,0.5
2023-05-21T21:00:00,2298A,118.3093,32.3153,滁州市,老年大学,颗粒物(PM10),104,157,76,34,43,181,126,158,146,18,24,9,9,0.2,0.4
2023-05-21T21:00:00,2299A,118.3244,32.2786,滁州市,人大宾馆,颗粒物(PM10),108,165,82,35,58,179,123,160,146,13,22,7,7,0.3,0.6
2023-05-21T21:00:00,2301A,115.8277,32.8929,阜阳市,市监测站,颗粒物(PM10),98,145,102,48,38,164,52,132,100,20,20,6,10,0.3,0.5
2023-05-21T21:00:00,2303A,115.8554,32.8605,阜阳市,开发区,颗粒物(PM10),118,185,115,46,38,164,57,144,110,18,18,7,10,0.3,0.5
2023-05-21T21:00:00,2307A,116.5079,31.737,六安市,监测大楼,颗粒物(PM10),78,106,69,35,41,172,104,147,144,9,11,4,6,0.3,0.6
2023-05-21T21:00:00,2308A,116.4738,31.7643,六安市,皖西学院,颗粒物(PM10),75,100,77,36,39,166,105,150,146,14,15,4,6,0.2,0.5
2023-05-21T21:00:00,2309A,116.4996,31.7905,六安市,朝阳厂,颗粒物(PM10),70,90,67,40,49,162,104,148,144,11,14,5,6,0.5,0.8
2023-05-21T21:00:00,2310A,116.5567,31.7886,六安市,开发区,颗粒物(PM10),84,118,91,33,55,175,95,151,148,17,15,5,9,0.5,0.8
2023-05-21T21:00:00,2311A,115.8072,33.8399,亳州市,污水处理厂,颗粒物(PM10),66,81,131,32,37,123,85,109,90,8,10,5,7,0.2,0.4
2023-05-21T21:00:00,2312A,115.7789,33.8518,亳州市,三国揽胜宫,,,128,140,,39,124,,110,92,8,11,5,6,0.2,0.5
2023-05-21T21:00:00,2314A,117.47,30.6618,池州市,池州学院,细颗粒物(PM2.5),84,73,67,62,51,118,118,108,108,17,20,5,14,0.9,0.8
2023-05-21T21:00:00,2316A,118.7581,30.9454,宣城市,鳌峰子站,细颗粒物(PM2.5),73,69,64,53,43,132,104,116,116,20,19,4,5,0.7,0.7
2023-05-21T21:00:00,2317A,118.7385,30.9743,宣城市,敬亭山子站,细颗粒物(PM2.5),59,54,63,42,43,148,90,122,119,19,23,6,7,0.6,0.6
2023-05-21T21:00:00,2318A,118.7173,30.9427,宣城市,开发区子站,细颗粒物(PM2.5),64,54,61,46,44,143,110,127,127,18,21,5,6,0.6,0.6
2023-05-21T21:00:00,2319A,119.0141,25.4325,莆田市,荔城区仓后路,,26,26,41,7,24,108,41,79,64,12,17,6,6,0.6,0.6
2023-05-21T21:00:00,2320A,119.0015,25.4553,莆田市,莆田市监测站,,33,33,44,10,24,100,31,75,68,12,12,6,6,0.7,0.7
2023-05-21T21:00:00,2321A,119.1119,25.4561,莆田市,涵江区六中,,,40,39,9,24,138,26,81,68,18,17,,10,0.5,0.6
2023-05-21T21:00:00,2322A,119.1013,25.3215,莆田市,秀屿区政府,,23,23,28,4,22,115,36,80,65,5,11,6,8,0.7,0.8
2023-05-21T21:00:00,2323A,118.981,25.4792,莆田市,东圳水库,,,,,,,,,,,,,,,,
2023-05-21T21:00:00,2324A,117.6211,26.2625,三明市,三钢,,35,35,27,19,18,93,46,85,75,11,18,8,15,0.5,1.1
2023-05-21T21:00:00,2325A,117.635,26.2714,三明市,三明二中,,28,26,23,19,17,96,36,87,75,22,18,5,9,0.8,1
2023-05-21T21:00:00,2326A,117.6028,26.2378,三明市,三元区政府,,35,26,27,24,20,97,45,87,78,9,15,6,13,0.5,0.8
2023-05-21T21:00:00,2327A,117.7275,26.3108,三明市,洋溪,,,,,,,,,,,,,,,,
2023-05-21T21:00:00,2331A,118.0966,26.6761,南平市,茫荡山,,,,,,,,,,,,,,,,
2023-05-21T21:00:00,2332A,118.1681,26.6369,南平市,南平市监测站,,24,24,20,12,17,82,42,74,69,14,11,4,3,0.8,0.7
2023-05-21T21:00:00,2333A,118.1825,26.6489,南平市,南平铝业有限公司,,40,40,23,9,14,85,48,77,73,13,13,6,5,0.9,0.9
2023-05-21T21:00:00,2334A,118.1756,26.6272,南平市,南平七中,,27,27,22,14,17,75,38,68,63,10,9,4,3,0.6,0.6
2023-05-21T21:00:00,2335A,117.0189,25.1181,龙岩市,龙岩师专,,,,,,,,,,,,,,,,
2023-05-21T21:00:00,2336A,117.0217,25.1033,龙岩市,龙岩市监测站,,18,18,18,12,10,88,43,85,58,16,10,7,5,0.5,0.4
2023-05-21T21:00:00,2337A,117.0258,25.0661,龙岩市,闽西职业技术学院,,23,23,16,15,11,90,32,86,57,19,11,7,6,0.3,0.4
2023-05-21T21:00:00,2338A,117.0196,25.0306,龙岩市,龙岩学院,,24,24,14,13,8,86,38,82,58,6,5,2,4,0.4,0.4
2023-05-21T21:00:00,2339A,119.5001,26.6946,宁德市,金涵水库,,,,,,,,,,,,,,,,
2023-05-21T21:00:00,2341A,119.5388,26.6612,宁德市,宁德市监测站,,48,48,45,31,28,136,61,122,114,22,14,8,8,0.9,0.7
2023-05-21T21:00:00,2342A,117.3102,29.3867,景德镇市,王港中学,,48,26,30,33,21,73,43,68,61,5,6,14,14,0.5,0.5
2023-05-21T21:00:00,2343A,117.2117,29.2933,景德镇市,老干部活动中心,,44,44,67,30,32,53,31,48,47,14,11,3,4,0.4,0.5
2023-05-21T21:00:00,2344A,117.1894,29.2789,景德镇市,兽医站,,48,32,34,33,28,61,29,55,52,12,11,6,7,0.5,0.5
2023-05-21T21:00:00,2345A,117.1547,29.2617,景德镇市,台达陶瓷,,21,21,42,13,29,50,22,47,44,30,20,17,9,0.5,0.5
2023-05-21T21:00:00,2346A,117.2461,29.2956,景德镇市,陶研所,,24,24,40,11,20,57,33,52,50,6,8,4,5,0.3,0.3
2023-05-21T21:00:00,2347A,114.0997,27.5002,萍乡市,武功山,,24,1,12,1,9,87,76,66,66,6,6,12,14,0.6,0.6
2023-05-21T21:00:00,2348A,113.8385,27.6434,萍乡市,中医院,,23,4,52,16,42,104,61,91,85,3,5,5,12,0.8,1.1
2023-05-21T21:00:00,2349A,113.8493,27.6253,萍乡市,市政府车库,,18,9,56,9,38,97,55,81,76,6,11,13,20,1.3,1.5
2023-05-21T21:00:00,2350A,113.8676,27.6435,萍乡市,市环保局,,21,17,46,10,35,94,65,85,81,6,8,9,17,0.4,0.9
2023-05-21T21:00:00,2351A,113.866,27.6198,萍乡市,安源区政府,,18,5,45,8,35,90,56,77,74,15,13,14,16,1.1,0.7
2023-05-21T21:00:00,2352A,115.0861,27.9317,新余市,北岗,,23,18,35,11,26,72,72,64,64,11,12,3,12,0.6,0.8
2023-05-21T21:00:00,2353A,114.9886,27.8431,新余市,飞宇,,32,32,55,16,34,90,85,82,82,11,13,5,11,0.6,0.6
2023-05-21T21:00:00,2354A,114.9231,27.8246,新余市,第二水厂,,30,30,62,14,32,95,77,80,80,12,10,5,8,0.4,0.6
2023-05-21T21:00:00,2355A,114.9308,27.8036,新余市,市气象局,,28,20,54,13,36,96,87,84,84,7,10,7,10,0.8,1
2023-05-21T21:00:00,2357A,116.9822,28.1136,鹰潭市,龙虎山,,29,17,25,20,15,84,70,72,72,8,3,4,2,0.9,0.9
2023-05-21T21:00:00,2358A,117.0564,28.2642,鹰潭市,新监测站,,24,17,29,14,18,89,75,76,76,2,8,13,20,0.4,0.5
2023-05-21T21:00:00,2359A,117.0311,28.2475,鹰潭市,财苑宾馆,,25,17,30,2,16,93,78,79,79,5,11,6,12,0.6,0.6
2023-05-21T21:00:00,2360A,117.0222,28.2264,鹰潭市,体育馆,,23,15,28,9,16,92,72,77,77,8,10,1,9,0.5,0.5
2023-05-21T21:00:00,2361A,117.0017,28.2131,鹰潭市,三川水表,,19,19,29,13,8,87,52,69,68,16,20,5,5,0.1,0.4
2023-05-21T21:00:00,2362A,114.9017,25.9149,赣州市,通天岩,,,,,,,,,,,,,,,,
2023-05-21T21:00:00,2363A,114.9367,25.8664,赣州市,地委,,46,43,34,32,21,104,82,96,96,8,8,4,6,1.3,1.2
2023-05-21T21:00:00,2364A,114.9461,25.8481,赣州市,气象台,,40,40,30,23,16,108,86,96,96,5,6,5,5,0.8,0.7
2023-05-21T21:00:00,2365A,114.9322,25.8333,赣州市,市图书馆,,45,45,31,23,17,97,74,86,86,9,9,6,5,1.1,1.1
2023-05-21T21:00:00,2366A,114.8905,25.8471,赣州市,华坚鞋城,颗粒物(PM10),55,59,40,29,17,93,78,86,86,5,5,5,6,1.1,1.1
2023-05-21T21:00:00,2367A,114.9754,27.0803,吉安市,红声器材厂,,42,42,40,22,22,86,73,82,80,8,7,10,13,0.7,0.6
2023-05-21T21:00:00,2368A,114.9658,27.0999,吉安市,市森林工业局,,32,32,58,20,21,86,70,81,77,8,9,5,9,0.6,0.5
2023-05-21T21:00:00,2369A,114.99,27.1312,吉安市,市环境监测站,,30,30,30,18,18,90,62,82,78,13,8,7,11,0.6,0.6
2023-05-21T21:00:00,2370A,115.0093,27.0968,吉安市,青原区法院,,35,28,35,24,23,90,72,85,82,13,11,10,16,0.7,0.6
2023-05-21T21:00:00,2371A,114.3408,27.8064,宜春市,槟榔水业,,24,19,30,15,22,70,53,56,56,3,3,72,63,0.5,0.6
2023-05-21T21:00:00,2373A,114.3956,27.7844,宜春市,市石油公司,,27,27,54,17,36,90,66,74,74,9,12,2,4,0.6,0.8
2023-05-21T21:00:00,2374A,114.3703,27.7914,宜春市,市气象局,,38,36,54,26,36,90,62,72,72,13,13,4,5,0.6,0.5
2023-05-21T21:00:00,2375A,114.4013,27.8074,宜春市,市广电局,,35,30,51,24,33,85,64,69,69,10,10,3,2,0.7,0.8
2023-05-21T21:00:00,2376A,116.2127,28.0814,抚州市,桐源党溪,,26,19,25,6,12,107,81,95,95,3,4,6,9,0.7,0.8
2023-05-21T21:00:00,2377A,116.3544,27.9831,抚州市,市站,,27,27,25,14,14,91,78,83,83,7,7,5,6,0.7,0.7
2023-05-21T21:00:00,2378A,116.3565,27.963,抚州市,血防站,,26,26,30,11,13,86,76,80,80,6,7,5,5,0.7,0.8
2023-05-21T21:00:00,2379A,116.3564,28.0007,抚州市,采茶剧团,,22,19,22,13,14,80,69,73,73,8,9,5,4,0.7,0.8
2023-05-21T21:00:00,2380A,116.385,27.9647,抚州市,医学分院,,24,16,22,10,12,88,74,80,80,8,9,4,5,0.6,0.7
2023-05-21T21:00:00,2381A,118.005,28.4572,上饶市,百草园,,15,15,28,2,16,61,39,52,47,3,3,1,1,0.0,0.1
2023-05-21T21:00:00,2382A,117.9756,28.4436,上饶市,市监测站,,22,22,29,11,19,70,36,63,52,17,14,5,6,0.7,0.6
2023-05-21T21:00:00,2383A,117.9519,28.4628,上饶市,凤凰光学,,32,32,34,11,21,78,35,71,55,20,15,5,4,0.8,0.7
2023-05-21T21:00:00,2385A,114.17,35.9019,鹤壁市,市监测站,颗粒物(PM10),68,85,131,42,45,87,51,84,52,23,27,1,3,0.5,0.5
2023-05-21T21:00:00,2386A,114.2956,35.7511,鹤壁市,市交警支队,颗粒物(PM10),76,102,121,30,35,93,46,84,37,26,22,4,4,0.6,0.5
2023-05-21T21:00:00,2387A,114.2878,35.7306,鹤壁市,迎宾馆,颗粒物(PM10),75,99,125,30,40,99,43,87,43,32,24,10,8,0.9,0.9
2023-05-21T21:00:00,2389A,113.836,35.311,新乡市,环保西院,,45,45,83,28,34,94,35,89,40,16,16,2,3,0.6,0.5
2023-05-21T21:00:00,2390A,113.884,35.272,新乡市,开发区,颗粒物(PM10),57,63,89,17,28,105,34,99,46,19,15,1,2,0.6,0.5
2023-05-21T21:00:00,2391A,113.883,35.303,新乡市,环保东院,,47,47,80,24,30,102,29,98,41,23,19,3,4,0.4,0.2
2023-05-21T21:00:00,2392A,115.0312,35.7636,濮阳市,环保局,颗粒物(PM10),84,117,163,27,48,97,35,71,37,33,23,8,9,0.6,0.6
2023-05-21T21:00:00,2394A,115.0574,35.7609,濮阳市,油田运输公司,颗粒物(PM10),106,161,185,28,49,96,36,70,37,35,24,7,7,0.3,0.3
2023-05-21T21:00:00,2395A,115.0866,35.7754,濮阳市,油田物探公司,颗粒物(PM10),82,113,165,27,48,95,43,69,48,26,19,4,5,0.3,0.3
2023-05-21T21:00:00,2396A,113.8276,34.0159,许昌市,监测站,颗粒物(PM10),71,91,163,28,34,97,65,92,70,14,12,4,4,0.6,0.5
2023-05-21T21:00:00,2398A,113.7906,33.9953,许昌市,开发区,颗粒物(PM10),65,79,181,32,32,100,60,91,62,25,16,14,5,0.5,0.4
2023-05-21T21:00:00,2399A,114.051,33.5699,漯河市,三五一五工厂,颗粒物(PM10),73,95,177,27,42,96,69,86,73,13,10,8,9,0.3,0.3
2023-05-21T21:00:00,2400A,114.0055,33.5698,漯河市,漯河大学,颗粒物(PM10),70,89,152,31,44,98,68,89,74,12,10,5,6,0.3,0.2
2023-05-21T21:00:00,2401A,114.0138,33.5828,漯河市,市水利局,颗粒物(PM10),63,75,157,27,43,94,62,84,71,14,10,7,9,0.3,0.3
2023-05-21T21:00:00,2402A,114.0261,33.5698,漯河市,市广电局,颗粒物(PM10),69,88,157,34,48,98,65,88,75,12,9,5,9,0.3,0.3
2023-05-21T21:00:00,2404A,112.5224,33.0122,南阳市,瓦房庄,,28,28,86,13,32,109,54,82,70,15,13,5,6,0.6,0.6
2023-05-21T21:00:00,2405A,112.5003,32.9735,南阳市,汉画馆,,23,23,74,15,37,105,57,86,72,10,10,3,4,0.6,0.6
2023-05-21T21:00:00,2406A,112.5573,33.027,南阳市,气象站,,20,16,77,14,29,101,52,82,68,11,11,4,4,0.2,0.2
2023-05-21T21:00:00,2407A,112.5481,32.9689,南阳市,理工学院,,26,25,82,18,35,112,59,87,74,12,11,3,4,0.6,0.5
2023-05-21T21:00:00,2408A,115.6702,34.4285,商丘市,环境监测站,颗粒物(PM10),79,108,183,35,47,94,64,86,76,14,12,7,9,0.3,0.3
2023-05-21T21:00:00,2409A,115.6458,34.4045,商丘市,粮食局,颗粒物(PM10),72,93,159,38,46,108,70,98,83,10,9,6,7,0.1,0.1
2023-05-21T21:00:00,2410A,115.6293,34.3948,商丘市,睢阳区环保局,颗粒物(PM10),77,104,184,29,57,109,70,98,84,14,13,4,5,0.3,0.4
2023-05-21T21:00:00,2420A,114.0189,32.9656,驻马店市,市一纸厂,颗粒物(PM10),68,86,120,38,36,104,70,78,69,4,7,2,2,0.2,0.2
2023-05-21T21:00:00,2421A,114.0114,33.015,驻马店市,市彩印厂,颗粒物(PM10),67,83,125,43,41,119,67,76,66,6,8,4,4,0.2,0.3
2023-05-21T21:00:00,2422A,113.9976,32.9771,驻马店市,天方二分厂,颗粒物(PM10),64,78,129,39,44,109,70,79,68,4,6,6,6,0.6,0.5
2023-05-21T21:00:00,2423A,115.0601,30.2313,黄石市,沈家营,颗粒物(PM10),77,104,84,25,43,86,60,73,63,16,28,7,19,0.5,1.2
2023-05-21T21:00:00,2424A,115.0817,30.2006,黄石市,陈家湾,颗粒物(PM10),72,94,81,33,41,86,60,80,65,12,15,4,9,0.6,0.6
2023-05-21T21:00:00,2426A,114.8988,30.2019,黄石市,铁山,颗粒物(PM10),58,66,63,23,41,90,75,83,73,14,13,4,6,0.8,1
2023-05-21T21:00:00,2427A,115.0307,30.2092,黄石市,团城山,颗粒物(PM10),72,93,68,23,35,87,56,77,67,13,16,6,13,0.6,0.8
2023-05-21T21:00:00,2428A,111.0419,32.395,十堰市,武当山,,20,2,21,4,14,121,61,76,71,7,8,8,9,0.5,0.6
2023-05-21T21:00:00,2429A,110.78,32.6494,十堰市,滨河新村,,27,27,46,11,31,118,45,76,58,9,6,4,4,0.6,0.7
2023-05-21T21:00:00,2430A,110.7258,32.6389,十堰市,刘家沟,,17,11,36,7,29,134,54,80,65,7,7,8,8,0.6,0.8
2023-05-21T21:00:00,2431A,110.8839,32.5714,十堰市,铁二处,,18,14,42,11,23,133,55,84,72,6,8,6,6,0.4,0.5
2023-05-21T21:00:00,2432A,112.155,32.0197,襄阳市,襄城运动路,,26,18,73,4,27,123,81,105,86,14,14,8,8,0.7,0.7
2023-05-21T21:00:00,2433A,112.1392,32.0564,襄阳市,樊城新华路,,29,29,61,16,30,136,77,102,83,16,14,6,6,0.6,0.7
2023-05-21T21:00:00,2434A,112.1825,32.1142,襄阳市,高新管委会,,,37,64,14,37,140,,105,79,11,11,6,17,0.7,0.7
2023-05-21T21:00:00,2435A,112.2106,32.0903,襄阳市,襄州航空路,,35,35,69,8,29,130,71,94,78,9,10,5,5,0.7,0.7
2023-05-21T21:00:00,2436A,114.8938,30.3994,鄂州市,市政府,颗粒物(PM10),57,64,61,33,35,95,72,84,73,10,12,8,11,0.5,0.6
2023-05-21T21:00:00,2437A,114.8989,30.3714,鄂州市,赵家坝,颗粒物(PM10),79,108,60,29,34,86,77,81,74,10,13,7,9,0.4,0.5
