timepoint,stationcode,longitude,latitude,area,positionname,primarypollutant,aqi,pm10,pm10_24h,pm2_5,pm2_5_24h,o3,o3_24h,o3_8h,o3_8h_24h,no2,no2_24h,so2,so2_24h,co,co_24h
2022-06-22T20:00:00,1001A,116.3621,39.8784,北京市,万寿西宫,,,106,95,,73,162,44,131,68,29,24,3,2,1.3,1.2
2022-06-22T20:00:00,1002A,116.2202,40.2915,北京市,定陵(对照点),颗粒物(PM10),55,60,51,38,29,176,66,88,72,14,20,3,3,0.9,0.6
2022-06-22T20:00:00,1003A,116.4174,39.9289,北京市,东四,细颗粒物(PM2.5),95,79,75,71,52,162,64,144,75,29,24,3,3,1.1,1.1
2022-06-22T20:00:00,1004A,116.4072,39.8863,北京市,天坛,细颗粒物(PM2.5),113,101,95,85,64,151,43,114,58,27,21,3,2,1.1,1.1
2022-06-22T20:00:00,1005A,116.462,39.9365,北京市,农展馆,细颗粒物(PM2.5),112,108,93,84,58,159,41,136,51,34,24,3,2,1.1,1.1
2022-06-22T20:00:00,1006A,116.3392,39.9295,北京市,官园,细颗粒物(PM2.5),84,66,70,62,57,153,51,143,58,33,22,2,4,1.1,1.2
2022-06-22T20:00:00,1007A,116.2878,39.9611,北京市,海淀万柳,细颗粒物(PM2.5),80,84,79,59,51,145,50,120,52,28,24,2,3,0.9,1
2022-06-22T20:00:00,1008A,116.6636,40.135,北京市,顺义新城,细颗粒物(PM2.5),100,89,58,75,34,127,52,101,55,17,14,3,2,1.0,0.6
2022-06-22T20:00:00,1009A,116.6275,40.3275,北京市,怀柔镇,细颗粒物(PM2.5),100,90,44,75,24,127,87,110,79,11,14,3,2,1.1,0.6
2022-06-22T20:00:00,1010A,116.2296,40.217,北京市,昌平镇,,,69,47,,0,155,47,100,54,13,17,3,3,1.0,0.7
2022-06-22T20:00:00,1011A,116.3966,39.9821,北京市,奥体中心,细颗粒物(PM2.5),104,103,77,78,49,144,59,144,61,25,24,3,3,1.0,0.9
2022-06-22T20:00:00,1012A,116.184,39.9136,北京市,古城,细颗粒物(PM2.5),98,85,79,73,56,163,55,124,69,31,24,3,3,0.8,0.8
2022-06-22T20:00:00,1015A,117.1444,39.1661,天津市,勤俭道,细颗粒物(PM2.5),133,134,106,101,60,204,83,111,111,44,31,6,9,1.1,1
2022-06-22T20:00:00,1017A,117.237,39.1082,天津市,大直沽八号路,颗粒物(PM10),61,72,96,39,40,203,99,129,129,30,31,8,8,0.9,0.8
2022-06-22T20:00:00,1018A,117.202,39.0927,天津市,前进道,细颗粒物(PM2.5),58,49,73,41,47,174,111,122,122,27,34,5,10,1.0,1
2022-06-22T20:00:00,1019A,117.1837,39.2133,天津市,淮河道,细颗粒物(PM2.5),88,98,110,65,61,202,130,124,124,35,31,6,10,1.1,1
2022-06-22T20:00:00,1021A,117.307,39.0877,天津市,跃进路,颗粒物(PM10),66,82,114,29,32,206,96,128,128,41,34,6,6,1.0,0.8
2022-06-22T20:00:00,1023A,117.707,39.0343,天津市,第四大街,,,93,81,60,43,185,,134,134,101,40,6,8,1.1,0.8
2022-06-22T20:00:00,1024A,117.457,38.8394,天津市,永明路,细颗粒物(PM2.5),80,90,77,59,43,239,158,200,196,18,20,7,12,0.9,0.8
2022-06-22T20:00:00,1026A,117.764,39.1587,天津市,汉北路,细颗粒物(PM2.5),82,69,67,60,44,216,129,167,164,24,18,5,5,0.7,0.9
2022-06-22T20:00:00,1027A,117.157,38.9194,天津市,团泊洼(对照点),颗粒物(PM10),65,80,98,32,43,215,137,149,148,19,35,5,10,1.8,1.3
2022-06-22T20:00:00,1029A,114.4422,38.0444,石家庄市,职工医院,细颗粒物(PM2.5),68,75,87,49,38,208,120,190,172,18,23,2,8,0.9,0.6
2022-06-22T20:00:00,1030A,114.6063,38.0266,石家庄市,高新区,细颗粒物(PM2.5),72,82,84,52,35,200,86,179,156,28,22,5,10,0.8,0.7
2022-06-22T20:00:00,1031A,114.4898,38.1328,石家庄市,西北水源,颗粒物(PM10),53,55,79,36,43,193,81,159,141,14,20,3,8,0.6,0.6
2022-06-22T20:00:00,1032A,114.4586,38.0058,石家庄市,西南高教,,,55,81,36,40,204,,180,180,15,21,8,13,0.8,0.7
2022-06-22T20:00:00,1033A,114.5331,38.0178,石家庄市,世纪公园,细颗粒物(PM2.5),78,86,94,57,41,197,86,173,152,19,21,7,11,0.7,0.6
2022-06-22T20:00:00,1034A,114.509,38.0457,石家庄市,人民会堂,细颗粒物(PM2.5),62,53,78,44,42,202,105,179,163,17,19,8,13,0.7,0.7
2022-06-22T20:00:00,1035A,114.3524,37.8911,石家庄市,封龙山(对照点),细颗粒物(PM2.5),74,64,75,54,38,209,142,181,176,18,19,3,7,0.8,0.8
2022-06-22T20:00:00,1037A,118.131,39.6363,唐山市,雷达站,颗粒物(PM10),51,52,75,27,34,131,49,104,81,27,18,4,7,1.1,1.4
2022-06-22T20:00:00,1038A,118.1725,39.6334,唐山市,物资局,颗粒物(PM10),52,54,73,32,37,134,45,105,80,34,21,7,10,1.2,1.4
2022-06-22T20:00:00,1040A,118.1705,39.6506,唐山市,十二中,细颗粒物(PM2.5),67,45,65,48,48,121,46,96,75,30,19,5,8,1.3,1.4
2022-06-22T20:00:00,1041A,118.1869,39.622,唐山市,小山,颗粒物(PM10),53,56,72,30,37,128,43,103,80,35,20,4,5,1.1,1.2
2022-06-22T20:00:00,1042A,119.5134,39.8207,秦皇岛市,北戴河环保局,颗粒物(PM10),51,52,65,4,18,134,116,128,98,12,8,6,6,0.2,0.2
2022-06-22T20:00:00,1043A,119.7493,40.0116,秦皇岛市,第一关,,48,48,48,14,25,94,49,90,77,56,25,12,12,0.2,0.2
2022-06-22T20:00:00,1044A,119.5897,39.9499,秦皇岛市,监测站,,34,34,46,23,31,108,61,102,77,42,19,7,11,0.2,0.2
2022-06-22T20:00:00,1046A,119.5251,39.9041,秦皇岛市,建设大厦,,49,49,48,13,22,114,86,106,86,30,17,2,2,0.6,0.5
2022-06-22T20:00:00,1048A,114.5302,36.6116,邯郸市,东污水处理厂,细颗粒物(PM2.5),93,118,50,69,27,182,150,171,170,11,11,4,10,1.0,0.7
2022-06-22T20:00:00,1049A,114.4918,36.5713,邯郸市,矿院,细颗粒物(PM2.5),87,102,59,64,32,173,138,160,159,14,14,3,16,1.5,1
2022-06-22T20:00:00,1050A,114.484,36.6133,邯郸市,丛台公园,细颗粒物(PM2.5),97,30,35,72,30,180,148,171,170,16,13,2,8,1.1,0.6
2022-06-22T20:00:00,1051A,115.493,38.8632,保定市,游泳馆,细颗粒物(PM2.5),102,84,70,76,50,161,91,147,99,16,20,10,11,0.7,0.6
2022-06-22T20:00:00,1052A,115.5213,38.8959,保定市,华电二区,细颗粒物(PM2.5),97,129,124,72,53,141,87,136,110,17,19,6,5,1.1,1
2022-06-22T20:00:00,1053A,115.4713,38.9108,保定市,接待中心,细颗粒物(PM2.5),89,74,91,66,66,167,120,124,116,20,24,4,4,1.2,1.1
2022-06-22T20:00:00,1054A,115.4612,38.8416,保定市,地表水厂,颗粒物(PM10),84,118,102,60,46,144,97,128,101,14,20,5,5,1.0,0.9
2022-06-22T20:00:00,1055A,115.4323,38.8697,保定市,胶片厂,细颗粒物(PM2.5),74,64,72,54,38,163,117,160,111,11,16,1,8,1.1,1
2022-06-22T20:00:00,1056A,115.5086,38.8639,保定市,监测站,细颗粒物(PM2.5),93,76,85,69,53,145,106,135,114,20,23,10,9,1.0,0.8
2022-06-22T20:00:00,1057A,114.8883,40.8336,张家口市,人民公园,,36,36,37,15,33,130,84,111,110,20,16,5,5,0.4,0.4
2022-06-22T20:00:00,1059A,114.8687,40.8042,张家口市,五金库,,26,17,31,15,23,124,81,111,103,29,22,6,6,0.4,0.5
2022-06-22T20:00:00,1060A,114.8902,40.762,张家口市,世纪豪园,,33,27,43,23,39,127,86,107,106,23,24,3,3,0.5,0.5
2022-06-22T20:00:00,1061A,114.8916,40.8661,张家口市,北泵房(对照点),细颗粒物(PM2.5),65,42,42,47,38,127,77,113,108,14,11,7,7,0.6,0.7
2022-06-22T20:00:00,1062A,117.9531,40.9081,承德市,铁路,细颗粒物(PM2.5),80,56,48,59,34,87,67,61,48,28,26,2,2,0.7,0.5
2022-06-22T20:00:00,1063A,117.9392,40.9763,承德市,中国银行,细颗粒物(PM2.5),78,39,34,57,28,89,79,57,57,26,16,3,3,0.7,0.4
2022-06-22T20:00:00,1064A,117.9503,40.928,承德市,开发区,细颗粒物(PM2.5),65,61,45,47,27,106,86,69,69,17,22,5,5,0.7,0.5
2022-06-22T20:00:00,1065A,117.8051,40.9655,承德市,文化中心,细颗粒物(PM2.5),67,31,34,48,31,92,55,82,65,18,12,4,4,0.8,0.5
2022-06-22T20:00:00,1066A,117.9268,41.0026,承德市,离宫(对照点),细颗粒物(PM2.5),52,39,40,36,23,42,35,35,35,15,12,6,6,0.7,0.4
2022-06-22T20:00:00,1067A,116.6708,39.5111,廊坊市,药材公司,细颗粒物(PM2.5),67,75,97,48,55,189,59,89,76,37,26,3,5,1.1,0.9
2022-06-22T20:00:00,1068A,116.7214,39.5589,廊坊市,开发区,细颗粒物(PM2.5),73,68,84,53,55,163,64,85,78,35,35,7,8,1.1,0.9
2022-06-22T20:00:00,1070A,116.7244,39.5269,廊坊市,北华航天学院,细颗粒物(PM2.5),78,91,110,57,67,176,60,86,79,36,26,8,10,1.1,0.9
2022-06-22T20:00:00,1071A,116.8842,38.2991,沧州市,沧县城建局,细颗粒物(PM2.5),58,57,68,41,28,195,143,164,161,17,25,7,9,0.4,0.3
2022-06-22T20:00:00,1072A,116.8584,38.3254,沧州市,电视转播站,,43,33,60,30,27,209,137,175,166,17,20,7,9,0.5,0.5
2022-06-22T20:00:00,1073A,116.8709,38.3228,沧州市,市环保局,颗粒物(PM10),60,69,68,33,27,209,144,169,164,14,23,5,7,0.3,0.4
2022-06-22T20:00:00,1074A,115.6838,37.7541,衡水市,电机北厂,,,,48,,19,200,94,152,133,16,12,8,11,,0.5
2022-06-22T20:00:00,1075A,115.6303,37.7316,衡水市,市监测站,颗粒物(PM10),60,69,63,32,21,179,107,142,134,14,11,14,18,0.6,0.4
2022-06-22T20:00:00,1077A,114.4704,37.0886,邢台市,达活泉,细颗粒物(PM2.5),75,87,69,55,27,190,119,170,160,12,14,7,11,0.8,0.7
2022-06-22T20:00:00,1078A,114.5062,37.0349,邢台市,邢师高专,细颗粒物(PM2.5),92,80,63,68,32,194,134,172,162,18,18,6,9,1.1,0.8
2022-06-22T20:00:00,1079A,114.5237,37.0851,邢台市,路桥公司,,,113,72,63,30,191,,170,165,19,17,4,11,0.9,0.6
2022-06-22T20:00:00,1080A,114.4725,37.0719,邢台市,市环保局,细颗粒物(PM2.5),104,110,79,78,38,199,117,171,157,22,23,4,6,1.0,0.8
2022-06-22T20:00:00,1081A,112.5139,37.8873,太原市,尖草坪,"颗粒物(PM10),细颗粒物(PM2.5)",57,64,82,40,44,190,51,146,110,32,27,5,10,0.9,0.8
2022-06-22T20:00:00,1083A,112.434,38.0108,太原市,上兰(对照点),,50,49,64,35,32,182,82,122,106,16,15,2,7,0.8,0.6
2022-06-22T20:00:00,1084A,112.469,37.7124,太原市,晋源,颗粒物(PM10),76,101,92,49,40,178,107,146,128,37,37,10,14,1.0,0.7
2022-06-22T20:00:00,1085A,112.5583,37.7394,太原市,小店,细颗粒物(PM2.5),93,95,94,69,51,194,105,166,144,40,29,9,11,1.9,0.9
2022-06-22T20:00:00,1086A,112.5369,37.8692,太原市,桃园,细颗粒物(PM2.5),59,57,79,42,44,181,79,147,116,26,29,2,8,1.2,0.9
2022-06-22T20:00:00,1087A,112.57,37.8195,太原市,坞城,细颗粒物(PM2.5),60,59,80,43,44,191,97,154,133,26,26,6,12,0.9,0.8
2022-06-22T20:00:00,1088A,112.549,37.9854,太原市,南寨,细颗粒物(PM2.5),65,73,79,47,39,158,50,102,95,39,37,5,8,1.1,0.8
2022-06-22T20:00:00,1090A,111.6507,40.7517,呼和浩特市,呼市一监,,44,9,29,2,26,139,139,133,133,10,18,4,5,0.4,0.5
2022-06-22T20:00:00,1091A,111.6572,40.8033,呼和浩特市,小召,,45,9,19,4,20,145,144,135,135,14,21,10,10,0.3,0.5
2022-06-22T20:00:00,1094A,111.7516,40.8369,呼和浩特市,如意水处理厂,,45,5,26,3,19,144,144,139,139,11,17,5,5,0.4,0.6
2022-06-22T20:00:00,1095A,111.7276,40.8062,呼和浩特市,二十九中,,43,8,20,3,24,142,137,134,134,11,19,8,8,0.5,0.6
2022-06-22T20:00:00,1096A,111.5512,40.7866,呼和浩特市,工大金川校区,,41,6,39,3,28,143,130,132,132,16,25,5,5,0.5,0.7
2022-06-22T20:00:00,1097A,111.717,40.7612,呼和浩特市,化肥厂生活区,,44,9,27,4,36,140,139,134,134,11,18,9,10,0.5,0.6
2022-06-22T20:00:00,1098A,123.6836,41.9339,沈阳市,森林路(对照点),,25,25,38,16,25,46,40,37,37,19,30,6,8,0.5,1
2022-06-22T20:00:00,1099A,123.505,41.7406,沈阳市,浑南东路,,30,30,55,20,30,76,12,37,31,42,31,1,7,0.8,1.2
2022-06-22T20:00:00,1100A,123.4231,41.6989,沈阳市,新秀街,,25,25,48,17,29,57,27,34,33,35,38,1,13,1.0,1.3
2022-06-22T20:00:00,1102A,123.5903,41.8411,沈阳市,东陵路,,,,47,74,29,65,30,46,46,22,26,6,10,1.2,1.3
2022-06-22T20:00:00,1103A,123.4264,41.8467,沈阳市,陵东街,,25,25,47,17,31,70,22,34,34,40,37,3,8,0.9,1
2022-06-22T20:00:00,1104A,123.4114,41.7653,沈阳市,文化路,,26,25,57,18,36,70,37,44,44,23,34,3,10,0.6,0.9
2022-06-22T20:00:00,1105A,123.4678,41.7867,沈阳市,小河沿,,27,27,56,18,29,46,13,23,22,42,34,3,10,0.8,1.1
2022-06-22T20:00:00,1106A,123.4017,41.7972,沈阳市,太原街,,36,36,61,18,35,71,32,37,37,34,42,4,11,0.5,0.8
2022-06-22T20:00:00,1108A,123.3783,41.9228,沈阳市,京沈街,,40,36,48,28,32,90,33,52,52,52,38,8,10,1.3,1.1
2022-06-22T20:00:00,1109A,121.612,38.9741,大连市,甘井子,,27,27,20,12,10,85,73,73,73,27,21,8,7,0.4,0.4
2022-06-22T20:00:00,1110A,121.565,38.9511,大连市,周水子,,23,21,16,13,8,75,72,69,69,18,13,6,7,0.7,0.8
2022-06-22T20:00:00,1111A,121.5637,38.8845,大连市,星海三站,,,30,23,15,12,151,,130,130,,16,6,6,0.3,0.3
2022-06-22T20:00:00,1112A,121.6302,38.9117,大连市,青泥洼桥,,24,18,14,8,7,105,74,89,89,22,11,6,6,0.3,0.3
2022-06-22T20:00:00,1113A,121.6251,38.8638,大连市,傅家庄,,29,16,12,8,8,117,90,94,94,12,6,8,6,0.8,0.8
2022-06-22T20:00:00,1115A,121.2529,38.8061,大连市,旅顺,,31,14,14,9,9,116,99,104,101,13,8,6,6,0.6,0.5
2022-06-22T20:00:00,1116A,121.7485,39.1311,大连市,金州,,31,31,27,21,20,106,87,88,88,22,15,5,6,0.5,0.5
2022-06-22T20:00:00,1117A,121.7811,39.0496,大连市,开发区,,,20,18,,11,97,94,87,87,15,14,6,4,0.6,0.7
2022-06-22T20:00:00,1118A,121.9762,39.0631,大连市,双D港,,45,18,10,9,5,146,144,117,117,10,7,7,6,0.5,0.5
2022-06-22T20:00:00,1119A,125.3325,43.9166,长春市,食品厂,,29,20,83,9,29,98,92,91,91,30,43,4,4,0.7,0.8
2022-06-22T20:00:00,1120A,125.2863,43.9027,长春市,客车厂,,34,17,103,6,28,106,106,96,96,20,42,4,4,0.7,0.8
2022-06-22T20:00:00,1121A,125.2841,43.8463,长春市,邮电学院,,27,5,52,9,26,114,85,101,101,15,32,4,4,0.8,0.8
2022-06-22T20:00:00,1122A,125.3716,43.8772,长春市,劳动公园,,32,18,90,9,26,119,102,102,102,18,28,4,5,0.5,0.6
2022-06-22T20:00:00,1123A,125.3297,43.8805,长春市,园林处,,30,22,81,15,26,104,94,99,99,24,35,3,4,0.7,0.7
2022-06-22T20:00:00,1124A,125.4605,43.79,长春市,净月潭,,22,16,80,6,23,86,70,76,76,7,23,3,3,0.4,0.6
2022-06-22T20:00:00,1125A,125.7194,43.515,长春市,甩湾子(对照点),,30,16,96,20,35,94,94,93,93,11,52,4,5,0.7,0.6
2022-06-22T20:00:00,1126A,125.3863,43.8447,长春市,经开区环卫处,,,,154,8,26,78,78,48,48,21,30,4,4,0.5,0.6
2022-06-22T20:00:00,1127A,125.245,43.7783,长春市,高新区管委会,,29,12,98,4,30,117,92,95,95,18,31,4,4,0.5,0.6
2022-06-22T20:00:00,1128A,125.1761,43.8325,长春市,岱山公园,,21,11,94,12,26,96,60,80,80,42,41,5,6,0.6,0.7
2022-06-22T20:00:00,1129A,126.5422,45.755,哈尔滨市,岭北(对照点),细颗粒物(PM2.5),53,44,31,37,23,134,115,131,130,25,16,11,11,0.6,0.5
2022-06-22T20:00:00,1130A,126.561,45.8167,哈尔滨市,松北商大,,50,50,41,26,15,139,126,134,134,18,15,5,5,1.0,0.8
2022-06-22T20:00:00,1131A,126.979,45.5419,哈尔滨市,阿城会宁,颗粒物(PM10),57,63,74,23,18,139,72,128,114,29,29,9,10,0.9,0.9
2022-06-22T20:00:00,1132A,126.599,45.7222,哈尔滨市,南岗学府路,,40,40,34,27,17,139,110,133,131,25,20,6,8,0.7,0.7
2022-06-22T20:00:00,1133A,126.689,45.7733,哈尔滨市,太平宏伟公园,颗粒物(PM10),69,88,58,24,18,143,106,139,134,27,21,8,11,0.6,0.5
2022-06-22T20:00:00,1134A,126.635,45.7667,哈尔滨市,道外承德广场,颗粒物(PM10),59,67,50,27,11,131,110,125,124,29,25,15,15,0.6,0.5
2022-06-22T20:00:00,1135A,126.685,45.7319,哈尔滨市,香坊红旗大街,颗粒物(PM10),59,68,65,33,18,128,85,123,118,40,32,10,10,0.8,0.6
2022-06-22T20:00:00,1136A,126.6411,45.7258,哈尔滨市,动力和平路,,,67,55,,11,132,105,128,126,24,21,6,7,0.6,0.5
2022-06-22T20:00:00,1137A,126.593,45.7478,哈尔滨市,道里建国路,颗粒物(PM10),58,65,52,19,16,112,98,106,106,24,22,19,19,1.3,0.9
2022-06-22T20:00:00,1138A,126.615,45.61,哈尔滨市,平房东轻厂,颗粒物(PM10),60,70,55,20,16,125,85,120,115,21,18,4,4,1.0,0.8
2022-06-22T20:00:00,1139A,126.595,45.9855,哈尔滨市,呼兰师专,颗粒物(PM10),51,51,44,19,13,121,120,118,118,17,12,12,11,0.6,0.5
2022-06-22T20:00:00,1140A,126.6206,45.6842,哈尔滨市,省农科院,颗粒物(PM10),52,53,46,26,18,136,107,132,130,23,26,10,10,0.6,0.5
2022-06-22T20:00:00,1141A,121.4,31.238,上海市,普陀,,,,32,14,23,139,,124,124,24,19,2,4,0.7,0.6
2022-06-22T20:00:00,1142A,121.478,31.2036,上海市,十五厂,,33,31,32,22,27,131,103,116,115,28,17,3,3,0.6,0.5
2022-06-22T20:00:00,1143A,121.467,31.3008,上海市,虹口,,35,27,28,24,23,134,80,120,109,32,24,2,3,0.4,0.3
2022-06-22T20:00:00,1144A,121.412,31.1654,上海市,徐汇上师大,,42,42,41,24,27,137,125,125,125,27,24,3,3,0.7,0.8
2022-06-22T20:00:00,1145A,121.536,31.2659,上海市,杨浦四漂,,36,24,30,18,26,149,113,133,130,19,17,4,4,0.5,0.4
2022-06-22T20:00:00,1147A,121.425,31.2261,上海市,静安监测站,,32,32,37,17,24,131,91,115,114,18,11,2,2,0.4,0.3
2022-06-22T20:00:00,1148A,121.703,31.1907,上海市,浦东川沙,,50,50,33,23,27,142,134,125,125,17,23,5,6,0.6,0.6
2022-06-22T20:00:00,1149A,121.533,31.2284,上海市,浦东新区监测站,,43,42,40,25,25,138,136,128,128,23,19,8,7,0.4,0.5
2022-06-22T20:00:00,1150A,121.577,31.2071,上海市,浦东张江,,44,36,32,19,25,138,138,128,128,24,23,4,4,0.9,0.9
2022-06-22T20:00:00,1151A,118.8086,32.1065,南京市,迈皋桥,,28,28,31,14,5,127,70,83,83,16,16,6,4,0.4,0.3
2022-06-22T20:00:00,1152A,118.7538,32.0551,南京市,草场门,,,24,19,7,4,127,,84,84,23,15,8,5,0.6,0.4
2022-06-22T20:00:00,1153A,118.7794,32.0745,南京市,山西路,,34,34,26,17,12,122,63,78,78,12,8,3,3,0.5,0.3
2022-06-22T20:00:00,1154A,118.7752,32.0023,南京市,中华门,,27,27,15,2,1,104,67,83,83,5,4,4,4,0.4,0.3
2022-06-22T20:00:00,1155A,118.8109,32.0309,南京市,瑞金路,,30,30,25,14,9,110,72,86,86,4,10,3,4,0.1,0
2022-06-22T20:00:00,1156A,118.7997,32.0754,南京市,玄武湖,,29,29,21,14,11,124,76,90,90,10,8,3,4,1.0,0.8
2022-06-22T20:00:00,1157A,118.6414,32.0931,南京市,浦口,,29,29,26,6,6,126,68,80,80,7,14,4,4,0.1,0.2
2022-06-22T20:00:00,1158A,118.7356,31.9996,南京市,奥体中心,,36,36,20,14,8,92,64,78,78,20,14,8,3,0.7,0.2
2022-06-22T20:00:00,1159A,118.9125,32.1028,南京市,仙林大学城,,25,22,24,9,10,149,78,96,96,6,5,3,3,0.6,0.5
2022-06-22T20:00:00,1162A,120.591,31.3019,苏州市,彩香,,22,22,30,8,15,147,46,103,91,16,16,5,5,0.5,0.6
2022-06-22T20:00:00,1163A,120.596,31.3264,苏州市,轧钢厂,,17,11,34,7,15,136,52,99,89,8,13,7,6,0.5,0.6
2022-06-22T20:00:00,1164A,120.613,31.2703,苏州市,吴中区,,17,11,32,6,19,139,52,100,91,8,15,6,6,0.4,0.5
2022-06-22T20:00:00,1165A,120.543,31.2994,苏州市,苏州新区,,17,13,26,9,23,133,53,105,99,11,15,6,6,0.6,0.7
2022-06-22T20:00:00,1166A,120.669,31.3097,苏州市,苏州工业园区,,18,17,26,12,16,143,50,91,85,8,15,5,6,0.6,0.6
2022-06-22T20:00:00,1167A,120.641,31.3708,苏州市,相城区,,20,20,31,13,28,127,52,96,87,9,13,6,7,0.4,0.5
2022-06-22T20:00:00,1168A,120.9098,31.9663,南通市,狼山街道,,,29,27,5,17,186,,140,131,31,16,12,12,0.3,0.4
2022-06-22T20:00:00,1169A,120.86,32.0005,南通市,虹桥,,24,22,29,4,23,127,76,116,103,17,16,9,9,0.6,0.4
2022-06-22T20:00:00,1170A,120.87,32.02,南通市,城中,,25,23,27,6,20,154,78,125,112,16,16,4,4,0.5,0.4
2022-06-22T20:00:00,1171A,120.94,31.93,南通市,星湖花园,,23,18,27,5,14,184,72,138,116,21,17,4,7,0.5,0.5
2022-06-22T20:00:00,1172A,120.81,32.0417,南通市,紫琅学院,,26,26,30,2,14,164,74,129,112,26,23,5,5,0.6,0.7
2022-06-22T20:00:00,1173A,119.176,34.5885,连云港市,市环境监测站,,41,41,44,14,19,158,122,141,139,8,7,1,1,0.5,0.4
2022-06-22T20:00:00,1177A,117.179,34.2761,徐州市,黄河新村,,31,31,43,11,16,132,90,129,120,20,13,6,7,0.5,0.6
2022-06-22T20:00:00,1178A,117.1918,34.2384,徐州市,淮塔,,30,23,30,17,21,140,94,136,122,20,13,10,11,0.5,0.6
2022-06-22T20:00:00,1180A,117.256,34.2153,徐州市,新城区,,44,44,50,12,24,139,101,125,124,17,15,7,8,0.6,0.7
2022-06-22T20:00:00,1181A,117.244,34.2911,徐州市,桃园路,,32,29,47,12,11,139,101,125,124,10,9,11,12,0.6,0.7
2022-06-22T20:00:00,1182A,117.2933,34.2778,徐州市,农科院,,31,31,40,2,10,141,90,134,117,12,12,5,7,0.6,0.6
2022-06-22T20:00:00,1186A,119.389,32.3761,扬州市,邗江监测站,,27,27,34,1,9,152,63,108,86,7,12,4,10,0.5,0.6
2022-06-22T20:00:00,1188A,120.269,31.4867,无锡市,雪浪,,24,14,30,0,15,145,76,103,95,1,10,9,11,0.5,0.6
2022-06-22T20:00:00,1189A,120.275,31.6219,无锡市,黄巷,,20,19,33,2,19,143,62,104,96,5,13,6,8,0.2,0.3
2022-06-22T20:00:00,1190A,120.294,31.56,无锡市,曹张,,19,14,31,5,13,139,58,98,90,4,10,5,7,0.7,0.8
2022-06-22T20:00:00,1191A,120.242,31.5031,无锡市,漆塘,,,14,28,7,14,150,70,105,93,,7,4,6,0.2,0.3
2022-06-22T20:00:00,1192A,120.3489,31.5863,无锡市,东亭,,20,14,32,5,18,126,64,104,96,2,15,6,8,0.4,0.5
2022-06-22T20:00:00,1193A,120.354,31.5475,无锡市,旺庄,,20,14,33,2,18,134,62,105,98,12,17,8,10,0.4,0.5
2022-06-22T20:00:00,1194A,120.245,31.5631,无锡市,荣巷,,20,14,29,9,20,145,64,104,95,2,9,10,12,0.3,0.4
2022-06-22T20:00:00,1195A,120.299,31.6817,无锡市,堰桥,,17,17,35,5,17,129,53,108,96,11,17,6,7,0.7,0.8
2022-06-22T20:00:00,1196A,119.9633,31.762,常州市,市监测站,,19,10,29,2,10,145,58,83,78,11,16,7,7,0.4,0.5
2022-06-22T20:00:00,1200A,119.9468,31.7069,常州市,武进监测站,,21,10,24,3,18,168,65,94,86,1,6,6,6,0.6,0.6
2022-06-22T20:00:00,1201A,119.9255,31.9087,常州市,安家,,18,12,22,12,18,146,50,80,75,13,11,3,3,1.0,1
2022-06-22T20:00:00,1203A,119.6707,32.1875,镇江市,新区办事处,,22,14,32,2,18,172,69,123,84,11,18,6,6,0.4,0.6
2022-06-22T20:00:00,1204A,119.4974,32.1968,镇江市,职教中心,,19,13,26,8,14,161,58,99,73,8,14,4,6,0.4,0.5
2022-06-22T20:00:00,1205A,119.4303,32.1328,镇江市,丹徒区监测站,,19,12,21,9,12,167,59,94,76,6,12,5,6,0.5,0.6
2022-06-22T20:00:00,1206A,119.905,32.4878,泰州市,公园路,,19,19,43,7,26,156,58,93,80,13,25,4,8,0.6,1.1
2022-06-22T20:00:00,1207A,119.9189,32.4625,泰州市,莲花,,20,12,41,9,28,156,63,93,80,13,21,6,9,0.7,1.2
2022-06-22T20:00:00,1209A,119.888,32.4639,泰州市,留学生创业园,,20,10,38,4,24,176,63,103,87,14,21,8,11,0.6,1.1
2022-06-22T20:00:00,1210A,119.036,33.5981,淮安市,钵池山,,35,24,34,15,18,157,111,139,132,7,11,7,7,0.6,0.7
2022-06-22T20:00:00,1211A,119.007,33.575,淮安市,北京南路,,34,34,41,11,21,146,98,129,120,15,14,7,6,0.5,0.6
2022-06-22T20:00:00,1212A,118.989,33.6067,淮安市,市监测站,,36,36,51,10,19,146,102,131,124,15,15,8,8,0.6,0.7
2022-06-22T20:00:00,1213A,119.135,33.5039,淮安市,楚州区监测站,,34,29,45,9,20,143,106,130,124,10,13,9,10,0.9,1
2022-06-22T20:00:00,1214A,119.0186,33.6297,淮安市,淮阴区监测站,,37,37,40,12,21,151,105,133,125,11,12,10,10,0.7,0.8
2022-06-22T20:00:00,1215A,120.118,33.4022,盐城市,盐城电厂,,35,27,36,10,16,184,112,145,141,11,11,6,5,0.4,0.4
2022-06-22T20:00:00,1216A,120.156,33.3942,盐城市,市监测站,,35,26,27,6,9,177,112,141,138,10,11,8,7,0.3,0.3
2022-06-22T20:00:00,1218A,120.2144,33.38,盐城市,开发区管委会,,34,32,34,9,17,166,108,137,133,9,11,1,2,0.5,0.5
2022-06-22T20:00:00,1220A,118.293,33.9528,宿迁市,宿迁学院,,33,33,53,17,20,125,78,107,103,15,15,7,8,0.4,0.6
2022-06-22T20:00:00,1221A,118.2442,33.9592,宿迁市,宿迁中学,,28,19,36,6,19,130,89,111,108,13,15,5,7,0.5,0.6
2022-06-22T20:00:00,1223A,120.2072,30.2111,杭州市,滨江,,29,29,31,12,12,106,54,92,88,14,20,2,2,0.5,0.6
2022-06-22T20:00:00,1224A,120.0633,30.2747,杭州市,西溪,,20,20,24,8,9,83,46,71,68,10,13,8,8,0.4,0.5
2022-06-22T20:00:00,1226A,120.3461,30.3153,杭州市,下沙,,29,29,33,12,15,125,64,107,102,14,31,5,5,0.4,0.5
2022-06-22T20:00:00,1227A,120.1269,30.2456,杭州市,卧龙桥,,23,23,23,10,11,87,12,72,62,11,11,5,5,0.7,0.7
2022-06-22T20:00:00,1228A,120.1903,30.2692,杭州市,浙江农大,,18,18,23,12,12,104,53,90,85,12,19,5,4,0.6,0.7
2022-06-22T20:00:00,1230A,120.1197,30.3119,杭州市,和睦小学,,25,25,24,13,15,95,47,79,75,13,18,6,6,0.5,0.7
2022-06-22T20:00:00,1231A,120.3019,30.4183,杭州市,临平镇,,29,29,38,10,12,122,49,89,85,12,22,3,3,0.6,0.7
2022-06-22T20:00:00,1232A,120.2697,30.1819,杭州市,城厢镇,,28,28,28,12,13,118,55,98,93,14,21,6,5,0.4,0.5
2022-06-22T20:00:00,1233A,120.0883,30.1808,杭州市,云栖,,21,21,25,9,10,99,42,84,78,12,12,8,8,0.7,0.8
2022-06-22T20:00:00,1234A,121.8358,29.911,宁波市,区环保大楼,,31,31,47,20,23,98,16,66,60,40,60,5,6,0.5,0.5
2022-06-22T20:00:00,1236A,121.713,29.9572,宁波市,龙赛医院,,,,32,,16,119,23,99,83,,28,6,7,,0.6
2022-06-22T20:00:00,1239A,121.633,29.7733,宁波市,钱湖水厂,,13,10,18,7,12,101,39,79,73,10,7,6,7,0.6,0.6
2022-06-22T20:00:00,1240A,121.5856,29.8635,宁波市,太古小学,,22,22,20,12,13,116,24,91,77,34,17,9,7,0.7,0.6
2022-06-22T20:00:00,1241A,121.524,29.8674,宁波市,市环境监测中心,,27,27,28,16,15,109,16,83,69,41,21,11,13,0.5,0.4
2022-06-22T20:00:00,1242A,120.634,28.0089,温州市,瓯海,颗粒物(PM10),52,53,62,34,46,201,55,143,128,45,38,5,6,0.9,0.9
2022-06-22T20:00:00,1243A,120.6748,27.9939,温州市,南浦,颗粒物(PM10),51,51,57,29,37,142,42,120,109,49,36,6,6,0.7,0.8
2022-06-22T20:00:00,1244A,120.76,27.9747,温州市,龙湾,,39,39,72,13,28,151,39,106,96,42,41,5,5,0.5,0.7
2022-06-22T20:00:00,1245A,120.6709,28.0167,温州市,市站,,49,49,66,23,41,182,47,132,121,44,40,4,5,0.8,0.9
2022-06-22T20:00:00,1247A,120.6053,29.9928,绍兴市,城东开发委,,26,26,21,14,12,103,64,82,81,8,12,6,6,0.5,0.6
2022-06-22T20:00:00,1250A,120.0751,30.8669,湖州市,城西水厂,,14,14,21,6,10,78,30,59,52,15,14,4,4,0.3,0.4
2022-06-22T20:00:00,1252A,120.7436,30.778,嘉兴市,清河小学,,19,19,28,10,16,146,51,99,92,19,22,6,9,0.3,0.5
2022-06-22T20:00:00,1253A,120.726,30.7478,嘉兴市,嘉兴学院,,25,25,27,11,16,139,53,101,95,19,22,3,4,0.5,0.6
2022-06-22T20:00:00,1255A,121.273,28.6459,台州市,黄岩环保大楼,,43,43,38,29,16,130,107,115,115,12,18,5,5,0.5,0.6
2022-06-22T20:00:00,1256A,121.419,28.6542,台州市,台州环保大楼,,48,48,43,22,24,140,78,119,109,21,16,3,3,0.6,0.6
2022-06-22T20:00:00,1257A,121.377,28.5773,台州市,路桥田洋王,,37,37,34,24,27,116,77,103,98,21,17,4,4,0.7,0.5
2022-06-22T20:00:00,1258A,122.122,30.0203,舟山市,定海檀枫,,22,22,31,11,17,131,47,104,96,30,26,2,2,0.4,0.4
2022-06-22T20:00:00,1259A,122.3094,29.9558,舟山市,普陀东港,,35,35,27,20,17,100,57,73,62,27,15,3,2,0.4,0.4
2022-06-22T20:00:00,1260A,122.19,29.9944,舟山市,临城新区,,33,32,30,19,18,125,23,102,88,65,21,4,2,0.4,0.2
2022-06-22T20:00:00,1262A,119.647,29.077,金华市,十五中,,29,29,32,20,16,140,32,95,82,20,24,6,5,0.6,0.6
2022-06-22T20:00:00,1263A,119.686,29.1029,金华市,监测站,,29,29,31,10,23,146,40,107,92,19,26,4,3,0.5,0.6
2022-06-22T20:00:00,1264A,118.8692,28.9398,衢州市,环保大楼,,17,17,31,8,12,96,40,67,60,12,22,2,9,0.4,0.6
2022-06-22T20:00:00,1265A,118.8709,28.9666,衢州市,实验学校,,18,18,23,8,12,92,41,64,60,11,21,2,3,0.3,0.5
2022-06-22T20:00:00,1266A,118.8621,28.9808,衢州市,衢州学院,,13,12,21,7,10,81,39,63,59,9,19,7,9,0.4,0.5
2022-06-22T20:00:00,1267A,119.914,28.4514,丽水市,监测站大楼,颗粒物(PM10),59,68,32,19,12,70,6,50,39,28,15,5,5,0.4,0.3
2022-06-22T20:00:00,1268A,119.93,28.4586,丽水市,莲都小学,,48,48,38,18,13,75,10,55,44,28,14,5,6,0.5,0.5
2022-06-22T20:00:00,1269A,119.879,28.4231,丽水市,余庄前,,27,27,25,8,8,70,6,48,31,12,9,5,5,0.4,0.5
2022-06-22T20:00:00,1270A,117.1959,31.7848,合肥市,明珠广场,,36,36,24,17,6,111,70,96,93,11,13,5,5,0.4,0.4
2022-06-22T20:00:00,1271A,117.3072,31.8764,合肥市,三里街,,36,36,21,14,6,96,60,86,84,15,11,8,8,0.4,0.4
2022-06-22T20:00:00,1272A,117.2588,31.8707,合肥市,琥珀山庄,,41,41,21,14,6,117,72,103,99,15,12,7,6,0.5,0.5
2022-06-22T20:00:00,1273A,117.1604,31.9052,合肥市,董铺水库(对照点),,39,39,20,22,12,104,63,88,85,7,7,6,6,0.5,0.5
2022-06-22T20:00:00,1274A,117.25,31.8571,合肥市,长江中路,颗粒物(PM10),57,63,29,22,10,119,73,107,100,7,6,4,4,0.4,0.4
2022-06-22T20:00:00,1275A,117.266,31.9436,合肥市,庐阳区,,40,40,24,22,10,115,66,102,96,13,8,10,10,0.5,0.5
2022-06-22T20:00:00,1276A,117.336,31.8586,合肥市,瑶海区,颗粒物(PM10),51,51,29,15,8,103,69,93,91,13,12,8,7,0.5,0.5
2022-06-22T20:00:00,1277A,117.3027,31.7964,合肥市,包河区,,,51,26,22,8,103,,92,92,14,12,6,6,0.5,0.4
2022-06-22T20:00:00,1278A,117.2776,31.7385,合肥市,滨湖新区,,29,29,21,19,6,103,77,95,93,6,6,11,11,0.4,0.3
2022-06-22T20:00:00,1279A,117.1318,31.8403,合肥市,高新区,,39,39,23,24,9,107,69,93,91,7,8,8,8,0.7,0.7
2022-06-22T20:00:00,1282A,119.2681,26.0504,福州市,师大,,46,46,39,12,17,123,52,94,85,19,15,2,2,0.3,0.3
2022-06-22T20:00:00,1283A,119.2984,26.1028,福州市,五四北路,,37,37,36,11,15,118,58,95,89,19,18,4,3,0.4,0.4
2022-06-22T20:00:00,1284A,119.2648,26.0768,福州市,杨桥西路,,48,48,40,13,17,120,51,91,83,23,19,2,2,0.3,0.3
2022-06-22T20:00:00,1285A,119.317,26.0746,福州市,紫阳,,43,43,39,16,17,122,54,100,91,17,17,4,4,0.4,0.4
2022-06-22T20:00:00,1287A,118.1514,24.4767,厦门市,洪文,,16,16,16,6,6,48,37,34,34,3,4,4,5,0.5,0.5
2022-06-22T20:00:00,1288A,118.0661,24.4444,厦门市,鼓浪屿,,15,15,15,6,8,48,35,40,40,9,13,5,5,0.2,0.2
2022-06-22T20:00:00,1290A,115.8931,28.6843,南昌市,省外办,,14,14,18,5,6,50,41,45,45,10,10,3,5,0.7,0.7
2022-06-22T20:00:00,1291A,115.8886,28.7003,南昌市,省林业公司,,14,0,5,0,1,54,44,49,49,9,9,3,6,0.6,0.6
2022-06-22T20:00:00,1292A,115.8126,28.7442,南昌市,林科所,,13,7,8,2,4,49,39,41,41,7,8,4,4,0.5,0.5
2022-06-22T20:00:00,1294A,115.8518,28.687,南昌市,建工学校,,22,22,16,10,11,47,40,43,43,11,11,6,7,0.6,0.7
2022-06-22T20:00:00,1295A,115.8921,28.6424,南昌市,象湖,,13,2,11,0,0,48,41,43,43,5,7,3,3,0.5,0.5
2022-06-22T20:00:00,1296A,115.7423,28.7996,南昌市,武术学校(对照点),,15,11,15,8,11,48,45,43,43,1,3,2,3,0.2,0.2
2022-06-22T20:00:00,1298A,115.9314,28.6842,南昌市,省站,,15,12,17,7,6,53,48,48,48,10,13,8,10,0.5,0.5
2022-06-22T20:00:00,1299A,116.9862,36.6114,济南市,科干所,臭氧1小时,53,44,40,12,19,204,162,162,160,13,10,9,10,0.5,0.5
2022-06-22T20:00:00,1301A,117.1265,36.6734,济南市,开发区,臭氧1小时,58,34,37,14,20,205,166,168,166,10,8,10,11,0.4,0.4
2022-06-22T20:00:00,1303A,117.0624,36.6868,济南市,省种子仓库,,50,44,43,10,26,190,157,156,156,14,8,2,5,0.1,0.1
2022-06-22T20:00:00,1304A,116.9489,36.6447,济南市,机床二厂,颗粒物(PM10),55,59,51,15,18,175,151,150,150,8,8,6,7,0.4,0.4
2022-06-22T20:00:00,1306A,116.7675,36.5484,济南市,长清党校,,49,44,43,20,20,193,155,160,160,13,10,10,12,0.4,0.4
2022-06-22T20:00:00,1307A,120.6659,36.2403,青岛市,仰口(对照点),,24,9,19,14,12,90,76,82,77,10,9,4,5,0.3,0.3
2022-06-22T20:00:00,1310A,120.4134,36.0658,青岛市,市南区东部子站,,24,14,7,7,3,86,75,80,78,10,4,5,6,0.2,0.1
2022-06-22T20:00:00,1311A,120.3664,36.1032,青岛市,四方区子站,,24,17,10,14,9,89,75,79,74,14,10,2,4,0.4,0.5
2022-06-22T20:00:00,1312A,120.2994,36.054,青岛市,市南区西部子站,,19,17,8,7,3,82,58,73,69,37,23,5,6,0.4,0.4
2022-06-22T20:00:00,1313A,120.4581,36.0858,青岛市,崂山区子站,,30,9,8,5,2,95,95,89,88,8,10,7,7,0.4,0.4
2022-06-22T20:00:00,1314A,120.1983,35.9608,青岛市,黄岛区子站,,28,5,4,12,6,94,87,90,87,12,12,4,4,0.1,0.1
2022-06-22T20:00:00,1315A,120.3999,36.3083,青岛市,城阳区子站,,32,22,14,15,8,105,101,95,92,14,10,5,4,0.5,0.4
2022-06-22T20:00:00,1316A,113.69031,34.76122,郑州市,烟厂,,38,33,49,15,17,175,121,140,138,11,15,5,5,0.5,0.6
2022-06-22T20:00:00,1317A,113.65724,34.77134,郑州市,郑纺机,,,31,44,21,25,165,116,140,137,,13,6,8,0.5,0.6
2022-06-22T20:00:00,1318A,113.67526,34.80246,郑州市,银行学校,,40,29,37,19,18,177,128,148,146,16,15,5,4,0.6,0.6
2022-06-22T20:00:00,1319A,113.56746,34.81334,郑州市,供水公司,,41,41,46,14,15,170,118,142,138,17,16,5,6,0.4,0.4
2022-06-22T20:00:00,1320A,113.7329,34.7178,郑州市,经开区管委,,40,39,44,18,17,158,125,140,139,16,18,4,5,0.2,0.4
2022-06-22T20:00:00,1322A,113.60532,34.74838,郑州市,市监测站,,33,29,41,14,13,152,103,132,129,23,16,4,4,0.7,0.7
2022-06-22T20:00:00,1323A,113.64164,34.7525,郑州市,河医大,,37,33,43,11,15,161,118,140,138,11,12,3,4,0.5,0.5
2022-06-22T20:00:00,1324A,113.51488,34.91089,郑州市,岗李水库(对照点),,40,32,45,22,27,173,126,153,148,19,16,4,4,0.5,0.7
2022-06-22T20:00:00,1325A,114.3677,30.5584,武汉市,东湖梨园,,21,21,21,5,9,82,64,76,75,8,12,6,6,0.8,0.8
2022-06-22T20:00:00,1326A,114.2529,30.558,武汉市,汉阳月湖,,20,20,19,5,2,95,63,83,81,11,16,6,6,0.7,0.7
2022-06-22T20:00:00,1327A,114.282,30.6189,武汉市,汉口花桥,,25,25,22,15,10,90,58,80,77,15,20,8,8,0.6,0.7
2022-06-22T20:00:00,1328A,114.3025,30.5332,武汉市,武昌紫阳,,20,20,18,9,7,80,55,74,72,13,15,2,2,0.8,0.8
2022-06-22T20:00:00,1329A,114.3646,30.6217,武汉市,青山钢花,,24,24,27,14,15,92,62,81,80,8,16,4,4,0.8,0.9
2022-06-22T20:00:00,1330A,114.1566,30.4825,武汉市,沌口新区,,23,23,28,14,14,86,56,76,72,17,24,6,7,0.6,0.7
2022-06-22T20:00:00,1331A,114.3014,30.5944,武汉市,汉口江滩,,24,24,20,13,9,90,46,75,70,21,27,6,6,0.7,0.7
2022-06-22T20:00:00,1333A,114.135,30.6319,武汉市,吴家山,,27,27,25,7,8,90,60,79,76,17,19,6,6,0.7,0.8
2022-06-22T20:00:00,1334A,113.8454,30.2917,武汉市,沉湖七壕(对照点),,20,12,15,14,10,77,63,67,67,4,7,6,6,0.6,0.6
2022-06-22T20:00:00,1336A,112.8872,28.2189,长沙市,高开区环保局,,15,7,7,10,7,64,44,56,54,10,9,7,9,0.3,0.4
2022-06-22T20:00:00,1337A,113.0792,28.2053,长沙市,马坡岭,,,16,10,9,3,68,,57,56,9,8,4,4,0.7,0.6
2022-06-22T20:00:00,1338A,112.9394,28.19,长沙市,湖南师范大学,颗粒物(PM10),52,53,19,7,4,64,41,53,51,11,9,5,6,0.8,0.8
2022-06-22T20:00:00,1339A,113.0178,28.1322,长沙市,雨花区环保局,,13,7,6,9,8,56,29,43,40,17,6,5,4,0.3,0.6
2022-06-22T20:00:00,1340A,112.9792,28.2597,长沙市,伍家岭,,15,8,6,10,10,66,26,54,50,18,13,2,3,0.6,0.5
2022-06-22T20:00:00,1341A,113.0014,28.1944,长沙市,火车新站,,30,5,10,21,11,57,18,46,40,23,12,6,6,0.5,0.4
2022-06-22T20:00:00,1342A,112.9844,28.1178,长沙市,天心区环保局,,22,17,10,15,9,61,30,46,43,13,6,3,4,0.6,0.5
2022-06-22T20:00:00,1343A,112.8908,28.1308,长沙市,湖南中医药大学,,16,16,12,10,9,61,31,49,46,20,12,4,6,0.6,0.6
2022-06-22T20:00:00,1345A,113.2347,23.1423,广州市,广雅中学,,34,34,27,14,12,129,51,102,95,20,20,4,4,0.8,0.7
2022-06-22T20:00:00,1346A,113.2612,23.105,广州市,市五中,,31,31,24,16,11,129,49,102,94,17,18,5,4,0.7,0.6
2022-06-22T20:00:00,1348A,113.3478,23.0916,广州市,广东商学院,,31,31,22,10,9,115,40,91,82,18,20,2,3,0.6,0.5
2022-06-22T20:00:00,1349A,113.4332,23.1047,广州市,市八十六中,,21,21,22,8,8,107,18,78,66,34,27,6,6,0.4,0.3
2022-06-22T20:00:00,1350A,113.3505,22.9483,广州市,番禺中学,,26,26,22,10,7,105,30,88,77,11,13,5,5,0.4,0.4
2022-06-22T20:00:00,1351A,113.2146,23.3916,广州市,花都师范,,,32,30,17,13,158,56,128,122,,22,5,5,,0.4
2022-06-22T20:00:00,1352A,113.2597,23.1331,广州市,市监测站,,37,37,26,15,11,135,48,104,96,21,19,6,6,0.7,0.6
2022-06-22T20:00:00,1353A,113.5618,23.312,广州市,九龙镇镇龙,,34,34,29,13,11,129,31,103,97,30,21,6,6,0.6,0.5
2022-06-22T20:00:00,1354A,113.2765,23.1544,广州市,麓湖,,30,30,24,13,10,134,50,107,98,16,16,3,3,0.6,0.6
2022-06-22T20:00:00,1355A,113.443,23.3035,广州市,帽峰山森林公园(对照点),,28,28,25,11,9,154,36,119,112,27,15,4,4,0.3,0.2
2022-06-22T20:00:00,1356A,114.1063,22.5545,深圳市,通心岭子站,,15,15,15,6,4,55,36,44,44,10,9,3,3,0.4,0.5
2022-06-22T20:00:00,1357A,114.117,22.5625,深圳市,洪湖,,,,17,,6,61,,50,50,,14,,7,,0.5
2022-06-22T20:00:00,1358A,113.987,22.5417,深圳市,华侨城,,17,17,17,5,6,42,36,39,38,6,8,5,5,0.7,0.5
2022-06-22T20:00:00,1359A,113.9181,22.5171,深圳市,南海子站,,22,22,18,9,6,49,37,44,43,18,12,3,3,0.5,0.4
2022-06-22T20:00:00,1360A,114.2458,22.5689,深圳市,盐田,,12,12,11,3,2,56,34,49,48,14,11,2,2,0.5,0.5
2022-06-22T20:00:00,1361A,114.2283,22.7244,深圳市,龙岗,,20,20,18,5,4,83,31,68,63,37,22,9,9,0.4,0.4
2022-06-22T20:00:00,1363A,114.494,22.5422,深圳市,南澳,,15,14,14,1,2,56,47,54,53,7,5,7,7,0.6,0.6
2022-06-22T20:00:00,1364A,114.41,22.6342,深圳市,葵涌,,17,17,15,2,3,48,41,46,45,8,7,6,6,0.4,0.4
2022-06-22T20:00:00,1365A,114.297,22.5978,深圳市,梅沙,,,21,19,5,4,54,,46,46,9,9,6,5,0.4,0.5
2022-06-22T20:00:00,1366A,114.0678,22.738,深圳市,观澜,,25,25,22,8,6,45,21,40,39,23,19,5,5,0.4,0.4
2022-06-22T20:00:00,1367A,113.5814,22.2618,珠海市,吉大,,23,17,13,16,10,50,37,47,46,6,4,8,8,0.3,0.3
2022-06-22T20:00:00,1368A,113.4881,22.2335,珠海市,前山,,19,19,20,6,11,58,38,48,46,6,6,9,9,0.3,0.3
2022-06-22T20:00:00,1369A,113.628,22.4251,珠海市,唐家,,15,7,12,5,7,60,47,58,57,5,6,9,9,0.2,0.2
2022-06-22T20:00:00,1370A,113.299,22.2281,珠海市,斗门,,25,19,18,17,9,63,30,54,48,6,5,9,9,0.4,0.4
2022-06-22T20:00:00,1371A,113.1294,23.0067,佛山市,湾梁,,,48,25,11,10,105,52,92,83,10,13,6,5,,0.3
2022-06-22T20:00:00,1372A,113.1083,23.0478,佛山市,华材职中,,31,31,23,10,9,102,53,92,86,11,10,5,5,0.6,0.5
2022-06-22T20:00:00,1373A,113.144,23.0453,佛山市,南海气象局,,42,42,26,12,10,107,53,94,88,17,18,5,5,0.6,0.6
2022-06-22T20:00:00,1374A,113.2881,22.8094,佛山市,顺德苏岗,,20,20,11,7,6,87,43,74,69,12,14,4,4,0.5,0.5
2022-06-22T20:00:00,1376A,112.8383,22.8678,佛山市,高明孔堂,,23,23,21,13,10,72,42,66,64,10,6,5,5,0.6,0.5
2022-06-22T20:00:00,1377A,112.8836,23.1588,佛山市,三水监测站,,36,36,26,6,8,106,56,95,91,16,16,3,3,0.6,0.5
2022-06-22T20:00:00,1378A,112.867,23.185,佛山市,三水云东海,,36,36,27,13,11,116,64,102,99,21,18,4,5,0.5,0.5
2022-06-22T20:00:00,1379A,113.3769,22.5211,中山市,华柏园,,13,11,19,9,8,76,36,64,60,5,5,3,3,0.5,0.4
2022-06-22T20:00:00,1380A,113.3881,22.5497,中山市,张溪,,17,17,21,7,6,79,41,71,65,3,3,3,3,0.4,0.4
2022-06-22T20:00:00,1381A,113.4075,22.5111,中山市,紫马岭,,20,20,17,10,7,78,37,69,63,6,5,4,4,0.5,0.6
2022-06-22T20:00:00,1382A,113.4411,22.4853,中山市,长江旅游区(对照点),,28,12,15,19,9,80,34,68,60,4,4,3,4,0.3,0.3
2022-06-22T20:00:00,1383A,113.1064,22.6058,江门市,北街,,18,18,20,8,7,70,36,66,61,11,7,4,4,0.4,0.3
2022-06-22T20:00:00,1384A,113.0731,22.5835,江门市,西区,,27,27,23,16,10,72,34,66,59,12,9,6,6,0.3,0.4
2022-06-22T20:00:00,1385A,113.0219,22.5311,江门市,圭峰西,,26,26,22,4,5,68,30,59,52,13,10,4,4,0.3,0.3
2022-06-22T20:00:00,1386A,113.0828,22.5947,江门市,东湖,,28,28,21,10,7,77,35,73,65,12,8,6,6,0.3,0.3
2022-06-22T20:00:00,1389A,113.7547,23.0494,东莞市,莞城梨川,,23,23,22,8,8,93,33,81,73,18,15,7,7,0.6,0.6
2022-06-22T20:00:00,1390A,113.7944,23.0128,东莞市,东城石井,,18,18,19,6,7,107,39,90,83,17,15,6,6,0.3,0.3
2022-06-22T20:00:00,1391A,113.7383,22.9658,东莞市,南城西平,,18,18,16,4,6,92,39,80,71,15,11,2,1,0.5,0.5
2022-06-22T20:00:00,1392A,114.4183,23.0528,惠州市,河南岸金山湖子站,,27,27,26,6,6,103,46,87,84,9,9,2,1,0.4,0.6
2022-06-22T20:00:00,1393A,114.4053,23.0822,惠州市,下埔横江三路子站,,15,14,25,5,7,115,45,92,88,17,14,2,2,0.3,0.3
2022-06-22T20:00:00,1394A,114.4103,23.1142,惠州市,江北云山西路子站,,16,7,25,8,6,131,50,104,100,12,10,3,3,0.3,0.3
2022-06-22T20:00:00,1395A,114.4645,22.7833,惠州市,惠阳区承修路船湖子站,,16,16,17,5,4,72,35,59,57,17,10,3,3,0.5,0.4
2022-06-22T20:00:00,1396A,114.5317,22.7422,惠州市,大亚湾管委会子站,,19,19,22,8,7,173,44,75,59,9,10,5,5,0.3,0.3
2022-06-22T20:00:00,1397A,112.4267,23.0706,肇庆市,睦岗子站,,26,26,22,13,11,80,53,74,72,12,11,11,9,0.5,0.5
2022-06-22T20:00:00,1398A,112.4645,23.0475,肇庆市,城中子站,,25,25,21,9,9,81,60,73,72,8,9,9,9,0.6,0.6
2022-06-22T20:00:00,1399A,112.5544,23.1522,肇庆市,坑口子站,,24,24,24,15,12,87,62,81,80,3,3,9,10,0.5,0.5
2022-06-22T20:00:00,1400A,112.4753,23.1,肇庆市,七星岩子站(对照点),,21,21,22,10,10,80,55,73,71,8,7,9,10,0.8,0.8
2022-06-22T20:00:00,1401A,108.3103,22.7881,南宁市,二十一中,,34,34,33,15,13,94,77,82,82,12,11,5,5,0.8,0.7
2022-06-22T20:00:00,1402A,108.3141,22.8528,南宁市,北湖,,42,41,34,29,17,93,70,86,84,12,10,4,4,0.6,0.6
2022-06-22T20:00:00,1403A,108.3206,22.8225,南宁市,市监测站,,40,40,32,24,15,91,72,83,82,12,12,8,8,0.6,0.5
2022-06-22T20:00:00,1404A,108.3829,22.8037,南宁市,大自然花园,,38,38,28,18,15,96,78,87,87,8,8,6,7,0.7,0.7
2022-06-22T20:00:00,1405A,108.4394,22.7904,南宁市,仙葫(对照点),,36,36,30,20,17,98,78,87,87,11,11,4,4,0.6,0.5
2022-06-22T20:00:00,1406A,108.2397,22.8467,南宁市,区农职院,,42,42,29,20,14,92,73,85,83,19,16,6,6,0.7,0.6
2022-06-22T20:00:00,1407A,108.3275,22.735,南宁市,英华嘉园,颗粒物(PM10),53,56,43,35,19,84,60,74,73,25,21,6,7,0.7,0.6
2022-06-22T20:00:00,1408A,108.2257,22.7757,南宁市,沙井镇街道办,,35,35,35,13,12,80,68,72,72,11,19,4,5,0.6,0.6
2022-06-22T20:00:00,1409A,110.576,19.9507,海口市,东寨港(对照点),,16,0,25,11,9,32,22,29,27,3,2,5,6,0,0.1
2022-06-22T20:00:00,1410A,110.3232,20.0574,海口市,海南大学,颗粒物(PM10),97,143,58,15,10,73,32,64,58,2,3,6,5,0.4,0.5
2022-06-22T20:00:00,1411A,110.283,20.0053,海口市,秀英海南医院,,16,15,21,11,12,61,30,57,50,17,5,2,2,0.4,0.4
2022-06-22T20:00:00,1412A,110.338,19.9969,海口市,海南师范大学,,26,26,26,13,11,60,36,57,51,7,6,4,4,0.3,0.4
2022-06-22T20:00:00,1413A,110.33,20.0356,海口市,龙华路环保局宿舍,,15,13,22,10,9,72,41,66,58,4,5,4,4,0.3,0.3
2022-06-22T20:00:00,1414A,106.3787,29.8279,重庆市,缙云山(对照点),,36,36,20,18,9,111,111,89,89,13,15,7,7,0.4,0.3
2022-06-22T20:00:00,1416A,106.4213,29.8253,重庆市,天生,,49,49,38,20,9,136,104,110,110,23,30,5,6,0.7,0.7
2022-06-22T20:00:00,1417A,106.6263,29.7228,重庆市,两路,,26,26,18,8,8,113,58,86,86,47,38,6,8,0.5,0.5
2022-06-22T20:00:00,1418A,106.2953,29.5983,重庆市,虎溪,颗粒物(PM10),60,70,46,42,25,190,130,142,142,26,48,6,6,0.4,0.8
2022-06-22T20:00:00,1419A,106.5777,29.5102,重庆市,南坪,颗粒物(PM10),52,53,39,18,9,161,119,129,129,24,27,13,14,0.9,0.8
2022-06-22T20:00:00,1420A,106.6556,29.6277,重庆市,唐家沱,,,,22,,10,138,77,106,106,27,38,9,7,0.5,0.7
2022-06-22T20:00:00,1421A,106.6349,29.4906,重庆市,茶园,,35,34,36,24,18,165,97,120,120,37,44,10,7,0.6,0.7
2022-06-22T20:00:00,1422A,106.3754,29.4572,重庆市,白市驿,颗粒物(PM10),90,129,45,16,18,167,147,140,140,28,33,5,6,0.7,0.8
2022-06-22T20:00:00,1425A,106.6205,29.7166,重庆市,空港,,25,25,19,14,9,124,75,94,94,26,23,9,11,0.3,0.4
2022-06-22T20:00:00,1426A,106.4782,29.4875,重庆市,新山村,,49,49,33,11,7,140,100,112,112,64,54,5,5,0.6,0.6
2022-06-22T20:00:00,1427A,106.5616,29.6453,重庆市,礼嘉,,45,45,36,18,12,142,93,104,104,41,54,10,8,0.4,0.4
2022-06-22T20:00:00,1428A,106.4522,29.7091,重庆市,蔡家,,25,21,34,11,15,130,77,99,99,34,34,4,4,0.4,0.4
2022-06-22T20:00:00,1429A,106.5093,29.3917,重庆市,鱼新街,,36,36,28,17,13,154,102,116,116,30,45,4,4,0.8,1
2022-06-22T20:00:00,1431A,103.9728,30.7236,成都市,金泉两河,,23,21,34,16,30,116,51,84,79,19,13,3,3,0.5,0.5
2022-06-22T20:00:00,1432A,104.1419,30.6764,成都市,十里店,,19,19,37,12,26,123,34,84,67,35,20,4,4,0.6,0.6
2022-06-22T20:00:00,1433A,104.0594,30.5767,成都市,三瓦窑,,26,26,39,18,31,114,31,72,60,48,39,2,2,0.7,0.6
2022-06-22T20:00:00,1434A,104.1122,30.6306,成都市,沙河铺,,23,22,38,16,24,152,34,70,63,31,23,2,2,0.7,0.7
2022-06-22T20:00:00,1437A,104.0431,30.6556,成都市,君平街,,22,22,39,15,30,142,53,91,77,29,20,2,2,0.6,0.6
2022-06-22T20:00:00,1438A,103.6202,31.0201,成都市,灵岩寺(对照点),,30,27,40,21,27,146,71,117,88,5,6,4,13,0.9,1
2022-06-22T20:00:00,1439A,106.6899,26.5998,贵阳市,马鞍山,,17,12,19,9,11,65,53,60,60,8,8,5,5,0.8,0.8
2022-06-22T20:00:00,1440A,106.6971,26.5694,贵阳市,市环保站,,14,14,20,9,14,53,35,48,47,18,17,13,8,0.4,0.4
2022-06-22T20:00:00,1441A,106.6243,26.6266,贵阳市,鉴湖路,,,31,24,2,10,59,47,54,54,,5,3,4,0.2,0.5
2022-06-22T20:00:00,1442A,106.7487,26.6343,贵阳市,燕子冲,,31,31,25,12,20,56,41,50,50,6,10,8,7,0.5,0.6
2022-06-22T20:00:00,1443A,106.6555,26.4365,贵阳市,碧云窝,,30,30,44,9,13,63,50,58,50,18,16,5,5,0.6,0.6
2022-06-22T20:00:00,1444A,106.694,26.5161,贵阳市,中院村,,17,17,24,9,11,52,39,47,47,12,12,3,2,0.3,0.5
2022-06-22T20:00:00,1445A,106.7109,26.6027,贵阳市,红边门,,25,19,25,17,21,58,41,52,51,14,17,2,2,0.6,0.5
2022-06-22T20:00:00,1446A,106.7164,26.5699,贵阳市,新华路,,20,17,18,14,16,60,41,54,53,12,11,4,4,0.4,0.4
2022-06-22T20:00:00,1447A,106.674,26.5424,贵阳市,太慈桥,,27,27,29,5,9,56,48,52,52,5,10,5,8,0.6,0.6
2022-06-22T20:00:00,1450A,102.8204,24.8886,昆明市,呈贡新区,,19,19,19,9,9,73,59,67,67,7,9,9,8,0.4,0.4
2022-06-22T20:00:00,1451A,102.6251,24.9608,昆明市,西山森林公园(对照点),,19,10,16,2,8,67,58,59,59,6,9,7,8,0.4,0.4
2022-06-22T20:00:00,1452A,102.7252,25.0902,昆明市,龙泉镇,,13,4,24,9,8,68,34,56,54,13,8,9,10,0.3,0.3
2022-06-22T20:00:00,1453A,102.7266,25.0375,昆明市,东风东路,,26,26,21,3,5,65,44,55,54,15,12,5,5,0.4,0.4
2022-06-22T20:00:00,1454A,102.6742,25.0669,昆明市,金鼎山,,25,25,21,12,11,67,37,56,54,16,11,8,9,0.4,0.5
2022-06-22T20:00:00,1455A,102.6644,25.0401,昆明市,碧鸡广场,,29,29,26,9,11,69,37,57,55,22,16,9,9,0.4,0.3
2022-06-22T20:00:00,1456A,91.1319,29.6514,拉萨市,八廓街,,35,6,13,0,7,125,109,111,111,18,14,6,6,0.2,0.2
2022-06-22T20:00:00,1457A,91.1221,29.6747,拉萨市,市环保局,,38,11,14,3,11,129,121,121,121,9,10,8,8,0.1,0.2
2022-06-22T20:00:00,1458A,91.0874,29.6475,拉萨市,区监测站,,39,7,10,1,2,131,124,121,121,10,9,7,7,0.3,0.3
2022-06-22T20:00:00,1459A,91.1774,29.6541,拉萨市,西藏大学,,,,10,6,4,142,118,122,122,6,4,7,6,0.3,0.2
2022-06-22T20:00:00,1460A,90.9798,29.6588,拉萨市,区辐射站,,36,12,11,6,5,124,115,112,112,14,13,8,8,0.2,0.2
2022-06-22T20:00:00,1461A,91.0834,29.6292,拉萨市,拉萨火车站,,38,12,11,0,3,132,119,114,114,10,8,9,8,0.2,0.3
2022-06-22T20:00:00,1462A,108.882,34.2749,西安市,高压开关厂,,22,20,65,7,28,190,70,130,100,17,25,8,7,0.4,0.5
2022-06-22T20:00:00,1463A,108.993,34.2629,西安市,兴庆小区,,30,16,44,12,16,169,66,123,96,18,18,4,4,3.0,0.8
2022-06-22T20:00:00,1464A,109.06,34.2572,西安市,纺织城,,22,16,43,11,20,179,68,133,104,19,18,6,7,0.5,0.5
2022-06-22T20:00:00,1465A,108.9356,34.2173,西安市,小寨,,28,28,37,8,14,173,74,123,96,16,23,4,5,0.3,0.4
2022-06-22T20:00:00,1466A,108.954,34.2713,西安市,市人民体育场,,22,15,45,9,17,190,69,129,100,16,18,4,4,0.3,0.4
2022-06-22T20:00:00,1467A,108.8922,34.2322,西安市,高新西区,,23,15,40,13,16,178,73,124,97,12,19,5,5,0.7,0.8
2022-06-22T20:00:00,1468A,108.935,34.3474,西安市,经开区,,22,18,48,9,17,187,69,130,99,11,15,2,4,0.2,0.3
2022-06-22T20:00:00,1469A,108.906,34.1546,西安市,长安区,,27,22,40,9,14,176,85,125,100,7,22,5,6,0.4,0.5
2022-06-22T20:00:00,1471A,109.2186,34.3731,西安市,临潼区,,23,15,46,16,15,197,66,135,112,18,18,4,4,0.5,0.5
2022-06-22T20:00:00,1472A,108.869,34.378,西安市,草滩(对照点),,,5,47,4,20,189,61,112,84,,31,4,7,0.7,0.8
2022-06-22T20:00:00,1473A,108.985,34.1978,西安市,曲江文化产业集团,,23,9,40,9,15,179,71,116,98,16,22,4,4,0.4,0.5
2022-06-22T20:00:00,1474A,109.051,34.3213,西安市,广运潭,,22,21,50,10,20,178,68,129,104,15,19,6,8,0.4,0.4
2022-06-22T20:00:00,1476A,103.631,36.1031,兰州市,兰炼宾馆,,43,36,30,14,11,149,135,131,131,18,14,8,9,0.4,0.3
2022-06-22T20:00:00,1478A,103.8412,36.0726,兰州市,生物制品所,,44,28,35,17,19,152,138,136,136,18,16,10,8,0.7,0.8
2022-06-22T20:00:00,1479A,103.831,36.0464,兰州市,铁路设计院,,45,37,33,31,17,144,124,123,123,32,24,10,9,0.3,0.4
2022-06-22T20:00:00,1483A,101.524,36.6867,西宁市,第五水厂(对照点),,44,35,27,12,12,159,140,148,148,15,14,12,12,0.4,0.6
2022-06-22T20:00:00,1484A,105.9512,38.6016,银川市,贺兰山马莲口(对照点),,36,14,21,7,19,133,113,128,126,11,6,7,7,0.4,0.5
2022-06-22T20:00:00,1488A,106.2328,38.4975,银川市,贺兰山东路,,44,16,22,7,20,150,138,142,142,15,12,6,5,0.4,0.5
2022-06-22T20:00:00,1489A,106.1358,38.5036,银川市,学院路,,43,30,38,7,16,156,136,147,147,13,12,6,7,0.1,0.3
2022-06-22T20:00:00,1490A,87.5801,43.8303,乌鲁木齐市,监测站,,40,24,50,16,14,156,128,142,142,19,33,10,10,0.2,0.4
2022-06-22T20:00:00,1491A,87.6046,43.768,乌鲁木齐市,收费所,,40,34,47,11,15,161,127,145,145,39,45,8,7,0.4,0.3
2022-06-22T20:00:00,1492A,87.4754,43.9469,乌鲁木齐市,新疆农科院农场(对照点),,41,18,84,14,26,156,130,143,143,12,34,8,10,0.2,0.4
2022-06-22T20:00:00,1493A,87.5525,43.8711,乌鲁木齐市,铁路局,,43,27,49,7,16,165,136,150,150,12,29,8,9,0.2,0.3
2022-06-22T20:00:00,1494A,87.6432,43.831,乌鲁木齐市,三十一中学,,41,26,47,4,9,147,130,137,137,8,33,5,5,0.3,0.4
2022-06-22T20:00:00,1496A,87.7216,44.1747,乌鲁木齐市,米东区环保局,,41,11,42,22,22,132,129,128,128,2,20,10,12,0.3,0.3
2022-06-22T20:00:00,1508A,112.9433,27.8614,湘潭市,板塘,,30,30,20,15,10,51,33,42,41,12,11,3,4,0.6,0.5
2022-06-22T20:00:00,1511A,112.9118,27.8403,湘潭市,市监测站,,29,22,10,20,10,61,43,50,49,11,10,9,9,0.5,0.5
2022-06-22T20:00:00,1512A,112.8937,27.8728,湘潭市,江麓,,25,25,25,17,8,52,45,49,49,6,9,5,17,0.3,0.7
2022-06-22T20:00:00,1513A,112.9227,27.8159,湘潭市,岳塘,,22,17,16,15,8,59,47,53,53,8,8,4,4,0.4,0.4
2022-06-22T20:00:00,1514A,112.9074,27.9119,湘潭市,科大,,,27,20,,5,50,32,42,40,14,13,3,5,0.5,0.6
2022-06-22T20:00:00,1515A,113.135,27.8244,株洲市,天台山庄,,30,22,5,21,8,48,37,42,42,8,9,5,5,0.5,0.4
2022-06-22T20:00:00,1518A,113.095,27.8867,株洲市,株冶医院,,29,29,7,13,7,51,37,45,45,11,9,10,9,0.6,0.5
2022-06-22T20:00:00,1519A,113.167,27.8667,株洲市,市四中,,,12,6,10,6,53,44,48,48,9,9,,6,0.6,0.7
2022-06-22T20:00:00,1520A,113.143,27.8381,株洲市,火车站,,27,27,14,17,8,48,37,40,40,6,8,4,4,0.4,0.3
2022-06-22T20:00:00,1524A,113.13,27.8528,株洲市,市监测站,,32,22,12,22,12,59,46,52,52,8,9,3,5,0.3,0.3
2022-06-22T20:00:00,1559A,113.251,27.8336,株洲市,大京风景区(对照点),,18,13,6,12,26,46,40,41,41,10,4,6,3,0.9,0.7
2022-06-22T20:00:00,1562A,113.0048,27.9153,湘潭市,昭山,,,14,3,,5,52,24,44,41,7,6,4,5,0.4,0.4
2022-06-22T20:00:00,1564A,112.4876,27.9164,湘潭市,韶山(对照点),,24,24,16,4,7,54,21,49,41,9,8,5,7,0.7,0.7
2022-06-22T20:00:00,1585A,109.8756,40.6532,包头市,市环境监测站,,35,8,26,2,20,159,112,136,136,13,18,4,5,0.3,0.6
2022-06-22T20:00:00,1587A,109.9991,40.5842,包头市,包头八中,,36,13,32,4,30,159,113,142,141,19,17,9,11,0.5,0.8
2022-06-22T20:00:00,1588A,109.8538,40.6821,包头市,青山宾馆,,35,8,26,9,24,155,109,134,133,13,16,6,8,0.4,0.7
2022-06-22T20:00:00,1589A,109.8642,40.6288,包头市,惠龙物流,,38,7,31,7,23,167,119,145,145,15,17,7,8,0.4,1
2022-06-22T20:00:00,1590A,110.0377,40.5546,包头市,东河鸿龙湾,,37,28,30,6,22,154,118,138,138,14,17,6,5,0.4,0.6
2022-06-22T20:00:00,1591A,110.0023,39.8129,鄂尔多斯市,综合楼,,50,15,27,5,21,174,158,158,158,25,18,5,18,0.4,0.6
2022-06-22T20:00:00,1592A,109.9486,39.8261,鄂尔多斯市,巴音孟克林场办事处,,47,27,36,17,26,174,148,156,156,24,17,8,7,0.5,0.5
2022-06-22T20:00:00,1593A,109.7736,39.5986,鄂尔多斯市,康泽苑,臭氧1小时,53,22,22,2,13,172,162,159,159,7,7,4,4,0.5,0.5
2022-06-22T20:00:00,1594A,109.8119,39.5989,鄂尔多斯市,华泰汽车城,,47,14,24,9,17,170,148,157,157,20,9,6,6,0.5,0.7
2022-06-22T20:00:00,1595A,109.9734,39.7884,鄂尔多斯市,奥林花园,,48,24,31,12,22,171,153,154,154,17,16,7,6,0.7,0.9
2022-06-22T20:00:00,1597A,122.2703,40.7094,营口市,大庆路,,34,34,47,11,32,131,63,84,80,17,20,4,5,0.9,1
2022-06-22T20:00:00,1598A,122.215,40.6511,营口市,镜湖西路,,25,25,38,7,25,146,79,102,94,18,20,2,3,0.2,0.6
2022-06-22T20:00:00,1599A,122.167,40.6655,营口市,西炮台,,21,14,38,8,23,134,67,94,88,19,19,4,6,0.1,0.9
2022-06-22T20:00:00,1600A,124.3303,40.0625,丹东市,江湾东路,,21,15,12,7,7,66,66,57,57,3,6,5,7,0.3,0.3
2022-06-22T20:00:00,1601A,124.4256,40.1503,丹东市,临江后街,,,,,8,7,82,82,75,75,2,2,11,11,1.1,1.1
2022-06-22T20:00:00,1602A,124.3933,40.1461,丹东市,元宝山,,26,15,12,10,8,81,81,73,73,3,4,8,8,0.5,0.4
2022-06-22T20:00:00,1603A,124.3633,40.1092,丹东市,民主桥,,24,11,8,7,6,75,75,68,68,2,2,9,9,0.7,0.7
2022-06-22T20:00:00,1604A,122.0303,41.1489,盘锦市,开发区,细颗粒物(PM2.5),58,47,36,41,30,94,53,67,58,29,22,4,3,1.0,0.8
2022-06-22T20:00:00,1605A,122.0485,41.0883,盘锦市,兴隆台,颗粒物(PM10),62,74,48,30,24,97,54,81,78,30,23,4,4,0.8,0.7
2022-06-22T20:00:00,1606A,121.8297,41.1028,盘锦市,新生街道,细颗粒物(PM2.5),73,27,22,53,28,96,63,71,71,16,21,1,2,0.5,0.6
2022-06-22T20:00:00,1607A,120.9092,40.7136,葫芦岛市,龙港区,细颗粒物(PM2.5),62,36,34,44,50,110,80,98,96,22,12,4,12,0.5,0.6
2022-06-22T20:00:00,1608A,120.8392,40.7514,葫芦岛市,化工街,,46,46,42,31,35,116,83,98,96,29,23,5,6,0.3,0.3
2022-06-22T20:00:00,1609A,120.8341,40.7073,葫芦岛市,新区,,39,35,35,27,29,123,80,100,97,18,15,5,6,0.6,0.6
2022-06-22T20:00:00,1610A,120.8695,40.7677,葫芦岛市,东城区,细颗粒物(PM2.5),58,51,34,41,35,110,71,90,87,27,25,5,11,0.3,0.4
2022-06-22T20:00:00,1611A,118.5819,24.9117,泉州市,涂山街,,22,22,24,6,8,66,32,53,48,20,16,6,7,0.3,0.2
2022-06-22T20:00:00,1612A,118.5972,24.8978,泉州市,津头埔,,28,28,32,9,10,60,28,49,43,20,17,4,5,0.3,0.3
2022-06-22T20:00:00,1613A,118.6663,24.9424,泉州市,万安,,25,25,23,9,8,72,31,54,46,14,14,5,5,0.5,0.4
2022-06-22T20:00:00,1616A,117.6795,36.229,济南市,技术学院,,44,41,46,20,23,198,140,179,173,12,16,9,10,0.5,0.7
2022-06-22T20:00:00,1618A,118.3429,35.0532,临沂市,沂河小区,,39,39,51,4,16,150,107,140,134,5,11,7,10,0.2,0.3
2022-06-22T20:00:00,1619A,118.295,35.0583,临沂市,鲁南制药厂,,37,22,38,10,16,145,116,140,132,14,20,7,9,0.5,0.5
2022-06-22T20:00:00,1620A,118.2794,34.9976,临沂市,新光毛纺厂,,46,46,45,18,19,144,117,137,130,23,21,8,8,0.6,0.6
2022-06-22T20:00:00,1621A,118.3956,35.0888,临沂市,河东保险公司,,48,48,39,28,19,154,122,144,141,20,16,4,6,0.4,0.4
2022-06-22T20:00:00,1622A,116.3032,37.4674,德州市,儿童乐园,,42,39,60,29,25,202,126,188,175,9,10,6,11,0.6,0.6
2022-06-22T20:00:00,1624A,116.2991,37.4451,德州市,监理站,细颗粒物(PM2.5),54,34,55,38,31,189,124,179,168,8,13,12,17,0.5,0.6
2022-06-22T20:00:00,1625A,115.9848,36.4372,聊城市,区政府,颗粒物(PM10),51,52,56,20,23,190,155,178,176,14,14,16,18,0.6,0.6
2022-06-22T20:00:00,1628A,118.0062,37.3803,滨州市,市环保局,,,61,68,29,35,270,175,258,243,,17,20,18,0.5,0.6
2022-06-22T20:00:00,1629A,118.0018,37.3617,滨州市,第二水厂,颗粒物(PM10),59,68,61,25,28,231,133,220,202,26,18,9,11,0.7,0.7
2022-06-22T20:00:00,1630A,117.9776,37.393,滨州市,北中新校,颗粒物(PM10),57,64,59,23,27,248,103,228,205,46,18,6,9,0.7,0.6
2022-06-22T20:00:00,1631A,118.0414,36.8103,淄博市,人民公园,细颗粒物(PM2.5),63,58,58,45,34,207,163,196,191,21,19,11,11,0.3,0.4
2022-06-22T20:00:00,1633A,117.8525,36.4847,淄博市,双山,,,,49,,27,203,145,188,181,,13,16,13,,0.3
2022-06-22T20:00:00,1634A,117.9592,36.6331,淄博市,气象站,颗粒物(PM10),56,61,55,29,26,201,162,194,188,14,15,10,12,0.3,0.3
2022-06-22T20:00:00,1635A,118.3092,36.8194,淄博市,莆田园,臭氧1小时,63,51,55,31,30,211,170,194,192,13,17,7,12,0.2,0.5
2022-06-22T20:00:00,1637A,117.558,34.8438,枣庄市,市中区政府,,39,39,48,12,17,148,97,133,123,19,18,9,12,0.4,0.4
2022-06-22T20:00:00,1638A,117.2852,34.7837,枣庄市,薛城环保局,,46,46,56,14,22,136,103,125,122,19,20,11,12,0.6,0.7
2022-06-22T20:00:00,1639A,117.5852,34.7745,枣庄市,峄城区政府,,44,44,59,24,24,127,85,122,112,22,19,7,8,0.3,0.4
2022-06-22T20:00:00,1640A,117.7276,34.5578,枣庄市,台儿庄区环保局,,32,22,45,7,18,125,100,120,113,14,22,10,13,0.7,0.7
2022-06-22T20:00:00,1641A,117.4518,35.0992,枣庄市,山亭区环保局,,37,19,42,10,25,177,116,148,140,13,13,12,13,0.5,0.5
2022-06-22T20:00:00,1642A,121.2514,37.5639,烟台市,开发区,,36,24,33,9,8,129,114,122,120,3,10,4,7,0.4,0.3
2022-06-22T20:00:00,1643A,121.3719,37.5433,烟台市,轴承厂,,32,22,23,14,13,114,102,111,110,3,5,4,4,0.1,0.1
2022-06-22T20:00:00,1644A,121.3181,37.5436,烟台市,西郊化工站,,28,24,30,9,6,110,88,104,102,4,6,4,6,0.2,0.2
2022-06-22T20:00:00,1645A,121.4478,37.4822,烟台市,莱山环保局,,35,9,21,9,7,112,112,105,105,3,7,5,6,0.3,0.2
2022-06-22T20:00:00,1646A,121.2611,37.4967,烟台市,福山环保局,,31,24,29,9,7,110,97,104,104,8,14,2,3,0.3,0.3
2022-06-22T20:00:00,1650A,119.1437,36.7023,潍坊市,环保局,,44,44,47,30,24,208,109,182,173,13,14,7,8,0.6,0.6
2022-06-22T20:00:00,1653A,116.6251,35.4302,济宁市,火炬城,,46,41,38,17,19,170,145,162,158,15,16,7,11,0.6,0.6
2022-06-22T20:00:00,1655A,116.5491,35.4042,济宁市,电化厂,,43,43,41,12,19,166,125,138,136,5,9,4,7,0.4,0.5
2022-06-22T20:00:00,1656A,117.1437,36.1937,泰安市,监测站,,41,34,58,15,21,170,130,158,156,9,14,10,13,0.3,0.4
2022-06-22T20:00:00,1657A,117.0885,36.2017,泰安市,人口学校,,41,34,52,12,23,171,130,160,154,15,16,6,9,0.5,0.6
2022-06-22T20:00:00,1658A,117.1089,36.1758,泰安市,电力学校,,39,39,53,24,27,161,118,151,146,8,11,5,7,0.5,0.6
2022-06-22T20:00:00,1659A,119.471,35.4209,日照市,监测站,,25,24,22,17,18,103,69,90,88,10,8,4,4,0.3,0.3
2022-06-22T20:00:00,1660A,119.523,35.4216,日照市,市政府广场,,,41,19,20,12,94,,86,86,5,3,,6,0.4,0.4
2022-06-22T20:00:00,1661A,119.5587,35.4044,日照市,港务局,,25,24,16,8,8,122,77,85,77,5,4,5,3,0.4,0.3
2022-06-22T20:00:00,1662A,122.1214,37.4236,威海市,华夏技校,,28,12,12,9,8,102,87,95,95,5,5,3,3,0.3,0.3
2022-06-22T20:00:00,1663A,122.0508,37.5236,威海市,山大分校,,,15,13,5,3,118,91,105,104,,3,1,5,0.3,0.3
2022-06-22T20:00:00,1664A,122.1067,37.5072,威海市,市监测站,,27,20,20,10,9,108,86,102,98,9,10,4,4,0.3,0.2
2022-06-22T20:00:00,1666A,118.6614,37.4309,东营市,市环保局,颗粒物(PM10),53,56,56,31,26,215,156,201,195,14,20,9,21,0.9,0.9
2022-06-22T20:00:00,1669A,113.5824,24.7733,韶关市,市八中,细颗粒物(PM2.5),64,70,58,46,36,105,76,98,95,26,12,4,3,0.5,0.6
2022-06-22T20:00:00,1673A,113.5971,24.6863,韶关市,曲江监测站,,44,44,24,3,14,84,76,77,77,22,14,4,4,0.7,0.3
2022-06-22T20:00:00,1674A,116.6794,23.3667,汕头市,金平子站,,14,14,18,3,9,58,40,50,50,9,8,7,7,0.4,0.4
2022-06-22T20:00:00,1675A,116.7244,23.3633,汕头市,龙湖子站,,24,24,18,11,7,72,35,61,57,20,11,7,8,0.5,0.4
2022-06-22T20:00:00,1676A,116.7258,23.2775,汕头市,濠江子站,,23,23,19,3,5,63,48,51,51,11,10,10,10,0.5,0.4
2022-06-22T20:00:00,1677A,116.7519,23.4714,汕头市,澄海子站,,50,50,31,9,9,70,38,57,56,15,11,5,5,0.6,0.5
2022-06-22T20:00:00,1678A,116.6092,23.2539,汕头市,潮阳子站,,21,21,18,7,8,48,43,46,46,5,6,7,7,0.5,0.5
2022-06-22T20:00:00,1680A,110.3539,21.2706,湛江市,湛江影剧院,,25,25,30,9,12,111,43,80,69,7,8,5,5,0.3,0.4
2022-06-22T20:00:00,1681A,110.3928,21.2228,湛江市,市环境监测站,,23,23,25,10,14,105,50,80,73,4,7,5,5,0.4,0.4
2022-06-22T20:00:00,1682A,110.4019,21.1997,湛江市,环保局宿舍,,25,25,26,9,12,102,47,76,69,4,9,3,4,0.4,0.5
2022-06-22T20:00:00,1683A,110.4111,21.2028,湛江市,霞山游泳场,,22,22,26,12,12,96,51,76,68,4,7,5,6,0.3,0.4
2022-06-22T20:00:00,1684A,110.3316,21.2679,湛江市,麻章区环保局,,28,28,32,10,14,122,39,85,76,7,8,3,3,0.6,0.5
2022-06-22T20:00:00,1685A,110.4558,21.2567,湛江市,坡头区环保局,,36,36,26,16,14,94,48,78,67,6,7,5,6,0.3,0.6
2022-06-22T20:00:00,1686A,111.0286,21.4688,茂名市,电白南海,,,24,28,7,9,57,,54,51,4,4,3,2,0.4,0.4
2022-06-22T20:00:00,1687A,110.9294,21.6533,茂名市,茂石化七小,,24,24,28,9,13,67,42,61,55,7,6,3,3,0.4,0.4
2022-06-22T20:00:00,1688A,110.9107,21.6687,茂名市,健康路,,22,22,22,6,8,69,43,63,58,5,5,5,4,0.5,0.5
2022-06-22T20:00:00,1689A,110.8592,21.6828,茂名市,高岭,,,56,14,12,3,80,,61,57,,4,4,5,0.5,0.5
2022-06-22T20:00:00,1690A,116.1231,24.3284,梅州市,梅江月梅,,20,20,20,2,6,54,38,50,49,8,7,2,3,0.6,0.5
2022-06-22T20:00:00,1691A,116.0797,24.2719,梅州市,梅县新城,,11,11,23,4,9,54,33,48,46,14,14,3,4,0.5,0.5
2022-06-22T20:00:00,1692A,116.1248,24.2654,梅州市,环境监控中心,,22,22,21,5,6,55,20,47,44,20,13,5,5,0.5,0.5
2022-06-22T20:00:00,1693A,115.3653,22.775,汕尾市,市环保局,,19,15,17,5,5,60,58,51,51,4,5,4,4,0.4,0.4
2022-06-22T20:00:00,1694A,115.3706,22.7898,汕尾市,市政府,,20,16,11,4,4,62,61,54,54,5,4,6,6,0.5,0.5
2022-06-22T20:00:00,1695A,115.3622,22.7925,汕尾市,新城中学,,24,24,25,4,5,66,66,57,57,2,3,5,5,0.5,0.5
2022-06-22T20:00:00,1696A,114.6778,23.7569,河源市,源西(对照点),,27,27,23,5,8,119,65,94,94,6,9,4,4,0.3,0.4
2022-06-22T20:00:00,1697A,114.6944,23.7586,河源市,东埔,,32,32,22,10,10,121,62,95,95,11,11,4,4,0.5,0.5
2022-06-22T20:00:00,1698A,114.6892,23.7233,河源市,老城,,24,24,21,3,7,122,66,101,101,8,9,2,2,0.5,0.5
2022-06-22T20:00:00,1701A,111.9491,21.8658,阳江市,马南垌,,14,11,18,6,8,60,42,54,50,1,3,1,1,0.5,0.5
2022-06-22T20:00:00,1702A,113.0426,23.691,清远市,环保大楼(对照点),,36,32,23,14,12,187,114,158,157,19,19,4,4,0.4,0.4
2022-06-22T20:00:00,1703A,113.0208,23.7106,清远市,凤城街办,,35,35,26,19,15,147,94,121,121,13,13,5,5,0.4,0.4
2022-06-22T20:00:00,1705A,116.6367,23.6719,潮州市,西园路(对照点),,34,34,21,20,12,79,44,72,69,15,10,5,5,1.0,0.8
2022-06-22T20:00:00,1706A,116.6447,23.6706,潮州市,档案局,,39,39,25,12,12,80,39,73,70,14,11,7,8,0.7,0.6
2022-06-22T20:00:00,1708A,116.3701,23.5345,揭阳市,新兴,,33,21,31,23,14,65,40,60,56,8,9,5,5,0.5,0.4
2022-06-22T20:00:00,1709A,116.3264,23.5443,揭阳市,西马,颗粒物(PM10),62,73,47,27,15,90,31,63,53,16,10,6,7,0.6,0.6
2022-06-22T20:00:00,1710A,116.3611,23.5626,揭阳市,东兴,颗粒物(PM10),51,52,29,11,9,83,41,67,60,11,9,6,5,0.7,0.6
2022-06-22T20:00:00,1711A,116.4151,23.5294,揭阳市,渔湖,,36,36,31,5,14,67,44,58,56,4,6,4,4,0.5,0.5
2022-06-22T20:00:00,1714A,112.0539,22.9539,云浮市,牧羊,,29,29,27,6,10,65,45,63,61,10,11,5,6,0.5,0.5
2022-06-22T20:00:00,1715A,102.575,24.3711,玉溪市,东风水库,,19,19,17,5,7,55,42,52,51,12,10,5,6,0.6,0.7
2022-06-22T20:00:00,1718A,115.4208,35.2464,菏泽市,气象局,颗粒物(PM10),51,51,56,13,23,163,140,150,150,10,14,6,7,0.3,0.4
2022-06-22T20:00:00,1719A,115.4747,35.2375,菏泽市,市政协,,45,45,52,11,17,162,138,148,148,9,13,11,8,0.1,0.2
2022-06-22T20:00:00,1723A,113.2994,40.0758,大同市,云冈宾馆,,50,50,76,34,39,110,98,100,100,30,28,25,18,0.7,1
2022-06-22T20:00:00,1724A,113.3444,40.0917,大同市,大同大学,,48,46,49,33,33,120,95,107,104,26,18,33,15,0.7,0.8
2022-06-22T20:00:00,1725A,113.2661,40.1269,大同市,安家小村,颗粒物(PM10),54,58,68,22,32,131,106,110,110,22,23,15,17,0.7,1.1
2022-06-22T20:00:00,1726A,113.2711,40.0844,大同市,教育学院,颗粒物(PM10),51,52,60,29,36,121,93,101,101,33,23,8,28,0.5,0.7
2022-06-22T20:00:00,1727A,113.1147,36.1547,长治市,清华站,,37,37,39,7,19,184,103,165,150,18,14,9,9,0.6,0.6
2022-06-22T20:00:00,1728A,113.1031,36.1989,长治市,监测站,,37,37,40,14,21,183,96,176,154,8,5,9,9,0.6,0.5
2022-06-22T20:00:00,1730A,113.0886,36.2125,长治市,审计局,,34,34,38,17,21,181,78,172,141,7,5,8,9,0.6,0.6
2022-06-22T20:00:00,1731A,113.0844,36.1856,长治市,长治八中,,47,47,44,14,20,188,113,178,159,13,11,10,10,0.4,0.4
2022-06-22T20:00:00,1733A,111.5531,36.0783,临汾市,临钢医院,,,3,45,,23,204,66,182,145,24,21,3,4,0.7,0.8
2022-06-22T20:00:00,1734A,111.5028,36.0714,临汾市,技工学校,,21,13,34,10,24,180,66,172,118,16,13,6,9,0.6,0.6
2022-06-22T20:00:00,1736A,111.5018,36.0855,临汾市,市委,,26,26,42,18,23,199,68,178,132,17,13,4,3,0.7,0.6
2022-06-22T20:00:00,1738A,113.5758,37.8572,阳泉市,市中心,细颗粒物(PM2.5),95,80,88,71,36,216,158,200,188,29,46,15,19,1.1,0.9
2022-06-22T20:00:00,1739A,113.4894,37.8731,阳泉市,赛鱼,细颗粒物(PM2.5),54,55,47,38,24,216,60,168,144,43,58,8,12,1.0,0.9
2022-06-22T20:00:00,1740A,113.5819,37.8486,阳泉市,南庄,颗粒物(PM10),90,129,94,54,38,208,107,180,168,26,29,6,16,1.2,1.1
2022-06-22T20:00:00,1742A,113.5614,37.8703,阳泉市,平坦,颗粒物(PM10),74,97,83,45,29,204,143,184,175,28,48,8,17,1.3,1.1
2022-06-22T20:00:00,1743A,113.5158,37.8392,阳泉市,大阳泉,颗粒物(PM10),64,78,62,42,35,221,107,180,164,24,17,6,10,0.8,0.8
2022-06-22T20:00:00,1744A,118.9233,42.2816,赤峰市,松山一中,,35,9,13,8,9,111,111,90,90,16,19,9,10,0.7,0.8
2022-06-22T20:00:00,1745A,118.9576,42.2728,赤峰市,哈达街,,32,7,15,6,6,102,102,77,77,19,22,5,11,0.7,0.7
2022-06-22T20:00:00,1746A,118.8788,42.2554,赤峰市,天义路,,29,7,10,7,5,102,92,81,79,25,20,9,10,0.6,0.6
2022-06-22T20:00:00,1748A,123.044,41.1196,鞍山市,深沟寺,,21,18,36,12,26,78,66,59,55,6,18,6,8,0.4,0.9
2022-06-22T20:00:00,1749A,123.011,41.0931,鞍山市,太阳城,,18,18,38,12,22,87,19,64,50,14,18,7,8,0.7,1.1
2022-06-22T20:00:00,1750A,123.0485,41.1442,鞍山市,太平,,23,17,46,10,25,92,73,67,64,8,26,7,10,0.6,1.3
2022-06-22T20:00:00,1751A,122.9642,41.0971,鞍山市,铁西三道街,,29,29,52,18,32,92,40,63,54,25,28,5,6,0.7,1.2
2022-06-22T20:00:00,1752A,122.9341,41.0833,鞍山市,铁西工业园区,,28,28,48,16,29,81,48,61,56,22,28,5,6,0.6,1.4
2022-06-22T20:00:00,1753A,123.022,41.0821,鞍山市,明达新区,,24,24,37,14,22,88,51,73,66,10,17,3,4,0.3,0.7
2022-06-22T20:00:00,1755A,123.7977,41.8491,抚顺市,望花区,,,32,43,20,29,37,30,24,24,,32,4,3,1.0,1.2
2022-06-22T20:00:00,1756A,123.9161,41.8822,抚顺市,顺城区,,42,42,43,24,27,21,19,14,14,36,37,7,9,0.8,0.9
2022-06-22T20:00:00,1757A,124.0436,41.8611,抚顺市,东洲区,,23,23,34,14,23,49,49,35,35,7,18,4,8,0.2,0.5
2022-06-22T20:00:00,1758A,123.9247,41.8642,抚顺市,新抚区,,31,31,40,20,26,27,18,22,21,33,33,3,6,1.0,1
2022-06-22T20:00:00,1759A,124.0972,41.8961,抚顺市,大伙房水库,,26,26,33,18,27,50,48,44,44,5,15,5,7,0.2,0.4
2022-06-22T20:00:00,1760A,123.7086,41.8391,抚顺市,沈抚新城,,47,47,41,20,28,44,32,32,32,22,30,4,4,0.7,1
2022-06-22T20:00:00,1761A,123.8275,41.3064,本溪市,大峪,,16,15,50,10,20,60,23,50,48,31,28,5,5,0.4,0.7
2022-06-22T20:00:00,1762A,123.7567,41.3325,本溪市,溪湖,,30,30,41,15,24,37,17,28,28,22,25,4,5,1.1,1.4
2022-06-22T20:00:00,1763A,123.7169,41.3094,本溪市,彩屯,,35,35,46,20,34,33,20,24,24,39,30,4,4,2.9,1.8
2022-06-22T20:00:00,1764A,123.7669,41.2864,本溪市,东明,,18,14,33,12,18,85,55,62,54,13,24,5,6,0.6,0.8
2022-06-22T20:00:00,1765A,123.7992,41.2664,本溪市,新立屯,,20,0,50,10,17,62,61,57,57,5,13,3,4,0.6,1
2022-06-22T20:00:00,1766A,123.8142,41.3472,本溪市,威宁,,37,37,44,12,19,74,32,54,54,16,20,9,9,0.4,0.7
2022-06-22T20:00:00,1767A,121.1115,41.0879,锦州市,南山,"颗粒物(PM10),细颗粒物(PM2.5)",65,79,48,47,30,86,24,67,32,27,19,8,8,0.9,0.9
2022-06-22T20:00:00,1768A,121.0533,40.8434,锦州市,开发区,,35,33,50,24,24,95,88,82,82,6,24,7,9,0.7,0.8
2022-06-22T20:00:00,1769A,121.1836,41.1119,锦州市,百股街道,细颗粒物(PM2.5),72,48,34,52,30,95,38,78,46,34,22,62,26,0.7,0.7
2022-06-22T20:00:00,1770A,121.1178,41.1222,锦州市,天安街道,细颗粒物(PM2.5),79,45,40,58,35,91,34,80,32,43,30,9,10,1.0,1
2022-06-22T20:00:00,1771A,121.1303,41.1386,锦州市,北湖公园,细颗粒物(PM2.5),80,57,35,59,38,94,30,80,37,50,25,6,7,0.7,0.6
2022-06-22T20:00:00,1772A,126.54,43.8622,吉林市,哈达湾,,27,19,47,11,35,97,85,80,80,14,24,4,5,0.7,0.7
2022-06-22T20:00:00,1773A,126.5844,43.8358,吉林市,东局子,,31,31,47,20,32,88,67,71,71,23,26,5,5,0.8,0.8
2022-06-22T20:00:00,1774A,126.5052,43.8245,吉林市,电力学院,,27,15,40,11,34,86,86,68,68,15,32,5,5,0.7,0.8
2022-06-22T20:00:00,1775A,126.6133,43.8972,吉林市,江北,,29,29,44,20,32,75,38,61,58,22,21,9,9,0.8,0.8
2022-06-22T20:00:00,1776A,126.555,43.8306,吉林市,江南公园,,25,20,47,12,33,85,80,77,77,14,24,3,4,0.7,0.7
2022-06-22T20:00:00,1778A,126.7061,43.7133,吉林市,丰满(对照点),,27,11,44,9,33,85,85,54,54,8,11,4,4,0.8,0.8
2022-06-22T20:00:00,1779A,123.9305,47.3636,齐齐哈尔市,安居小区,,,,31,13,12,134,102,119,119,31,25,5,5,0.6,0.4
2022-06-22T20:00:00,1780A,123.9488,47.3386,齐齐哈尔市,中心广场,,37,37,27,12,12,129,102,119,119,20,24,6,6,0.6,0.5
2022-06-22T20:00:00,1781A,123.9483,47.3227,齐齐哈尔市,农牧车辆厂,颗粒物(PM10),51,51,51,9,11,129,108,121,121,13,30,4,5,0.3,0.4
2022-06-22T20:00:00,1783A,123.945,47.2988,齐齐哈尔市,市环境监测站,,41,41,40,7,17,135,109,126,126,11,25,5,6,0.5,0.4
2022-06-22T20:00:00,1784A,129.61,44.561,牡丹江市,环保大楼,,19,11,21,10,10,110,58,93,86,9,12,4,4,0.5,0.6
2022-06-22T20:00:00,1785A,129.6115,44.5782,牡丹江市,文化广场,,17,11,20,4,12,106,54,87,81,12,15,2,3,0.5,0.5
2022-06-22T20:00:00,1786A,129.5904,44.5963,牡丹江市,第一医院,,17,17,20,7,9,95,47,80,74,16,16,3,3,0.7,0.8
2022-06-22T20:00:00,1787A,129.6364,44.6075,牡丹江市,机车工厂,,22,22,26,9,11,97,56,83,78,10,15,13,11,0.4,0.5
2022-06-22T20:00:00,1788A,129.6386,44.5462,牡丹江市,第一中学,,16,15,19,5,8,102,51,82,76,19,19,2,3,0.5,0.5
2022-06-22T20:00:00,1789A,124.81117,46.03138,大庆市,大同区,,35,23,30,8,9,134,111,126,126,8,9,5,5,0.4,0.3
2022-06-22T20:00:00,1790A,125.129,46.533,大庆市,龙凤区,,31,31,23,6,6,132,99,116,116,14,15,6,7,0.4,0.4
2022-06-22T20:00:00,1791A,124.902,46.408,大庆市,红岗区,,31,18,21,6,8,126,98,115,115,11,11,2,2,0.3,0.3
2022-06-22T20:00:00,1792A,125.153,46.586,大庆市,萨尔图区,,32,28,34,22,14,124,99,111,111,9,14,4,4,0.2,0.4
2022-06-22T20:00:00,1793A,124.9042,46.6215,大庆市,让胡路区,,35,22,27,12,17,130,112,119,119,9,15,2,2,0.5,0.5
2022-06-22T20:00:00,1794A,118.3606,31.3519,芜湖市,监测站,,32,26,16,22,6,74,24,56,54,46,17,12,8,0.9,0.5
2022-06-22T20:00:00,1795A,118.3714,31.4134,芜湖市,科创中心,,32,32,18,12,6,87,42,68,67,23,13,9,6,0.9,0.7
2022-06-22T20:00:00,1796A,118.3673,31.3131,芜湖市,四水厂,,17,15,18,11,5,76,36,64,61,33,13,8,7,0.7,0.6
2022-06-22T20:00:00,1798A,118.5092,31.6837,马鞍山市,湖东路四小,,32,32,24,18,14,109,71,91,91,10,13,5,5,0.5,0.7
2022-06-22T20:00:00,1799A,118.5024,31.6449,马鞍山市,开发区,,33,33,26,16,11,104,62,83,83,15,15,8,7,0.8,0.9
2022-06-22T20:00:00,1800A,118.5228,31.7231,马鞍山市,慈湖,,36,36,26,15,12,104,70,90,90,8,10,5,4,0.4,0.6
2022-06-22T20:00:00,1802A,118.6245,31.7241,马鞍山市,濮塘(对照点),,,,17,,7,119,,92,92,10,4,10,9,0.8,0.5
2022-06-22T20:00:00,1803A,115.9872,29.6815,九江市,十里,,16,16,14,5,7,57,18,51,46,28,14,7,7,0.9,0.6
2022-06-22T20:00:00,1804A,115.9584,29.7046,九江市,茅山头,,13,9,11,5,8,63,40,59,54,9,10,5,4,0.5,0.5
2022-06-22T20:00:00,1805A,115.9877,29.7295,九江市,西园,,25,25,22,7,7,62,27,56,50,16,19,6,8,0.8,0.8
2022-06-22T20:00:00,1806A,116.0172,29.6547,九江市,五七二七厂,,14,14,10,8,10,70,35,57,53,5,5,4,5,0.5,0.6
2022-06-22T20:00:00,1808A,115.9114,29.6038,九江市,综合工业园,,16,7,11,2,4,62,49,57,54,4,5,5,6,0.7,0.5
2022-06-22T20:00:00,1809A,116.0721,29.7535,九江市,石化总厂,,15,15,21,4,10,60,33,54,48,20,16,4,7,0.5,0.5
2022-06-22T20:00:00,1810A,115.9773,29.5698,九江市,庐山气象台(对照点),,19,10,5,13,7,58,11,58,17,7,6,14,16,0.5,0.5
2022-06-22T20:00:00,1812A,112.3931,34.6516,洛阳市,市委党校,颗粒物(PM10),64,78,47,15,20,172,105,142,136,7,7,4,9,0.4,0.5
2022-06-22T20:00:00,1814A,112.4657,34.6871,洛阳市,豫西宾馆,,,84,51,21,21,166,75,145,127,11,9,,3,,0.6
2022-06-22T20:00:00,1815A,112.494,34.6886,洛阳市,河南林校,颗粒物(PM10),65,80,46,10,15,169,89,146,132,14,15,5,7,0.2,0.3
2022-06-22T20:00:00,1816A,112.3844,34.623,洛阳市,开发区管委会,,45,45,43,12,21,168,59,146,129,4,7,5,10,0.3,0.4
2022-06-22T20:00:00,1817A,112.4267,34.6258,洛阳市,市委新办公区,,49,49,40,14,19,167,60,137,117,5,7,3,10,0.3,0.4
2022-06-22T20:00:00,1818A,114.4839,36.0621,安阳市,棉研所(对照点),,,148,56,,,157,142,149,149,12,17,4,5,1.2,1.1
2022-06-22T20:00:00,1819A,114.3551,36.1017,安阳市,红庙街,臭氧1小时,65,66,65,35,22,190,172,180,180,22,23,6,10,0.6,0.4
2022-06-22T20:00:00,1820A,114.361,36.0681,安阳市,银杏小区,,,,75,,29,179,,177,177,,22,,7,,0.5
2022-06-22T20:00:00,1824A,114.3389,34.7781,开封市,肿瘤医院,颗粒物(PM10),52,54,49,6,14,166,117,142,140,13,11,4,5,0.3,0.4
2022-06-22T20:00:00,1826A,114.2885,34.7965,开封市,世纪星幼儿园,,,63,48,40,19,172,,145,145,,12,3,3,0.1,0.5
2022-06-22T20:00:00,1828A,113.2269,35.2127,焦作市,市环保局,,40,36,45,5,17,210,125,182,171,14,13,2,6,0.5,0.6
2022-06-22T20:00:00,1829A,113.2467,35.176,焦作市,高新区政府,,47,47,50,9,24,176,106,157,146,20,19,2,13,0.3,0.5
2022-06-22T20:00:00,1830A,113.1987,35.2703,焦作市,影视城(对照点),,39,36,36,24,25,197,124,172,164,36,17,6,9,0.2,0.6
2022-06-22T20:00:00,1832A,113.3257,33.742,平顶山市,新华旅馆,,48,48,47,6,13,123,86,109,106,6,6,3,2,0.1,0.2
2022-06-22T20:00:00,1833A,113.2919,33.737,平顶山市,规划设计院,,28,28,29,7,9,108,79,102,99,8,10,5,5,0.4,0.4
2022-06-22T20:00:00,1834A,113.182,33.774,平顶山市,平顶山工学院,,25,23,21,13,17,124,77,92,90,8,9,3,3,0.4,0.4
2022-06-22T20:00:00,1835A,111.1922,34.7752,三门峡市,市政府,,20,20,46,6,18,186,54,158,122,26,29,5,7,0.6,0.5
2022-06-22T20:00:00,1836A,111.1587,34.7942,三门峡市,开发区,,36,36,53,19,21,166,55,138,110,14,12,1,3,0.5,0.5
2022-06-22T20:00:00,1838A,111.143,34.7955,三门峡市,风景区(对照点),,23,11,49,12,18,173,71,147,124,12,13,1,3,0.5,0.5
2022-06-22T20:00:00,1840A,111.2992,30.6981,宜昌市,白龙岗,,29,29,42,14,26,142,40,108,101,35,22,8,7,0.5,0.6
2022-06-22T20:00:00,1841A,111.3549,30.6465,宜昌市,伍家岗,,39,39,49,17,32,126,49,99,94,18,22,6,6,0.5,0.6
2022-06-22T20:00:00,1842A,111.2628,30.6961,宜昌市,点军区,,46,46,48,22,36,160,48,124,117,41,19,5,5,0.4,0.5
2022-06-22T20:00:00,1843A,111.3275,30.7819,宜昌市,夷陵区,,34,34,37,14,23,129,58,106,101,22,16,5,4,0.4,0.5
2022-06-22T20:00:00,1844A,112.2494,30.3197,荆州市,市图书馆,,26,22,36,15,18,96,82,88,88,12,10,8,8,0.5,0.6
2022-06-22T20:00:00,1845A,112.2008,30.3544,荆州市,市委党校,,27,27,33,16,21,96,80,87,86,11,9,7,6,0.5,0.6
2022-06-22T20:00:00,1847A,113.1094,29.3578,岳阳市,南湖风景区,,23,23,17,14,11,88,57,79,77,6,6,9,9,0.5,0.6
2022-06-22T20:00:00,1848A,113.1493,29.4251,岳阳市,城陵矶,,19,19,14,13,10,90,60,84,80,6,7,11,14,0.4,0.5
2022-06-22T20:00:00,1849A,113.1497,29.3575,岳阳市,开发区,,19,19,19,7,3,82,54,74,72,2,6,7,9,0.4,0.5
2022-06-22T20:00:00,1850A,113.2621,29.4758,岳阳市,云溪区,,19,11,12,7,9,86,59,80,77,4,5,8,10,0.5,0.7
2022-06-22T20:00:00,1851A,112.9943,29.4402,岳阳市,君山区,,20,12,12,14,10,90,56,79,76,5,5,6,7,0.6,0.6
2022-06-22T20:00:00,1852A,113.2117,29.355,岳阳市,金凤水库(对照点),,28,23,14,19,9,82,51,75,72,10,8,2,2,0.4,0.5
2022-06-22T20:00:00,1854A,111.6975,28.9703,常德市,市二中,,18,18,22,12,13,61,45,55,54,9,8,5,5,0.4,0.5
2022-06-22T20:00:00,1857A,111.7158,29.1456,常德市,白鹤山(对照点),,17,17,23,8,11,63,52,59,58,2,4,5,5,0.3,0.4
2022-06-22T20:00:00,1858A,110.5319,29.1217,张家界市,永定新区,,21,21,15,12,13,63,55,59,59,7,7,1,2,0.3,0.4
2022-06-22T20:00:00,1859A,110.4697,29.1242,张家界市,电业局,,,13,13,9,7,56,,50,50,,9,3,3,0.2,0.2
2022-06-22T20:00:00,1860A,110.5594,29.3547,张家界市,未央路,,15,15,18,6,5,56,20,46,45,12,5,2,2,0.2,0.2
2022-06-22T20:00:00,1861A,110.4417,29.315,张家界市,袁家界(对照点),,30,16,20,7,6,127,95,101,101,6,5,6,6,0.6,0.6
2022-06-22T20:00:00,1862A,110.4144,25.3167,桂林市,电子科大尧山校区(对照点),,25,25,18,12,9,144,41,84,62,4,4,7,7,0.5,0.5
2022-06-22T20:00:00,1863A,110.2819,25.2697,桂林市,监测站,,31,31,19,16,11,70,34,60,54,20,18,5,6,0.6,0.6
2022-06-22T20:00:00,1864A,110.3089,25.2708,桂林市,龙隐路小学,,,22,18,13,8,71,42,63,57,14,14,,7,0.4,0.4
2022-06-22T20:00:00,1865A,110.2869,25.2178,桂林市,八中,,33,31,24,23,12,65,26,53,46,24,16,6,6,0.8,0.7
2022-06-22T20:00:00,1866A,109.2262,21.588,北海市,牛尾岭水库(对照点),细颗粒物(PM2.5),55,47,29,39,18,76,60,73,72,9,8,8,7,0.5,0.4
2022-06-22T20:00:00,1867A,109.1436,21.4086,北海市,海滩公园,,34,34,43,7,8,93,83,87,87,2,3,3,3,0.4,0.7
2022-06-22T20:00:00,1868A,109.0981,21.4661,北海市,新市环保局,,25,17,22,9,10,85,80,83,82,6,4,3,3,0.4,0.4
2022-06-22T20:00:00,1869A,109.1778,21.5233,北海市,北海工业园,,39,39,31,12,13,82,75,80,80,7,4,5,4,0.4,0.5
2022-06-22T20:00:00,1870A,109.4856,24.3895,柳州市,柳东小学,,35,35,23,20,16,104,91,98,98,7,10,4,4,0.6,0.6
2022-06-22T20:00:00,1871A,109.4157,24.3277,柳州市,环保监测站,,24,24,23,11,13,95,75,89,88,13,19,5,5,0.6,0.6
2022-06-22T20:00:00,1872A,109.389,24.341,柳州市,河西水厂,,34,34,26,22,16,97,77,89,89,12,16,9,8,0.7,0.9
2022-06-22T20:00:00,1873A,109.4311,24.2921,柳州市,市四中,,44,44,33,22,13,91,73,86,86,12,15,5,5,0.6,0.6
2022-06-22T20:00:00,1874A,109.4006,24.3631,柳州市,市九中,,42,42,31,23,14,92,69,84,84,11,14,4,5,0.8,0.7
2022-06-22T20:00:00,1875A,109.4958,24.3134,柳州市,古亭山,,33,33,25,20,14,87,75,80,80,8,13,2,2,0.6,0.6
2022-06-22T20:00:00,1876A,109.5078,18.2489,三亚市,河东子站,,15,13,22,9,10,86,48,80,55,5,5,3,2,0.4,0.4
2022-06-22T20:00:00,1877A,109.4964,18.2681,三亚市,河西子站,,25,25,23,9,12,86,52,82,59,4,3,2,2,0.4,0.4
2022-06-22T20:00:00,1878A,104.7778,31.4741,绵阳市,富乐山,,22,14,19,13,16,101,69,68,68,5,7,5,5,0.6,0.6
2022-06-22T20:00:00,1879A,104.7563,31.4535,绵阳市,市人大,,37,37,40,17,16,88,58,62,60,14,13,6,5,0.6,0.6
2022-06-22T20:00:00,1880A,104.6697,31.4668,绵阳市,高新区自来水公司,,28,28,30,7,19,96,57,72,71,10,13,5,5,0.6,0.7
2022-06-22T20:00:00,1881A,104.7287,31.5075,绵阳市,三水厂,,26,23,26,18,26,83,66,72,71,6,12,6,6,0.6,0.7
2022-06-22T20:00:00,1882A,104.563,28.793,宜宾市,石马中学(对照点),细颗粒物(PM2.5),79,58,74,58,55,111,92,92,92,9,14,7,6,0.8,0.9
2022-06-22T20:00:00,1883A,104.6201,28.7728,宜宾市,市委,细颗粒物(PM2.5),85,82,84,63,60,112,85,90,90,20,30,9,9,0.9,0.9
2022-06-22T20:00:00,1884A,104.6055,28.793,宜宾市,宜宾四中,细颗粒物(PM2.5),84,65,79,62,63,110,88,97,97,18,25,5,6,0.8,0.9
2022-06-22T20:00:00,1885A,104.639,28.7562,宜宾市,市政府,细颗粒物(PM2.5),78,72,82,57,63,130,92,102,102,17,37,6,6,0.9,1
2022-06-22T20:00:00,1886A,104.5742,28.7199,宜宾市,黄金嘴,细颗粒物(PM2.5),79,84,76,58,54,123,97,102,102,18,32,7,9,0.8,0.8
2022-06-22T20:00:00,1888A,101.6891,26.571,攀枝花市,弄弄坪,,20,15,15,6,9,91,63,82,79,16,15,5,6,0.5,0.6
2022-06-22T20:00:00,1889A,101.5769,26.5928,攀枝花市,河门口,,41,41,28,15,9,96,61,86,84,18,19,9,17,0.9,1.2
2022-06-22T20:00:00,1890A,101.7169,26.585,攀枝花市,炳草岗,,20,19,20,6,10,90,61,80,78,16,14,16,18,0.6,0.6
2022-06-22T20:00:00,1891A,101.7369,26.5008,攀枝花市,仁和,,20,17,15,9,9,79,63,73,72,11,9,8,9,0.7,0.6
2022-06-22T20:00:00,1893A,105.4324,28.9634,泸州市,九狮山(对照点),,49,47,46,34,38,97,67,86,86,12,16,5,9,0.6,0.6
2022-06-22T20:00:00,1894A,105.4427,28.9063,泸州市,小市上码头,颗粒物(PM10),72,94,71,37,33,133,98,115,115,12,18,7,7,0.8,0.8
2022-06-22T20:00:00,1895A,105.4241,28.8573,泸州市,兰田宪桥,颗粒物(PM10),62,74,61,31,22,240,49,142,137,14,15,5,10,0.6,0.6
2022-06-22T20:00:00,1896A,105.4379,28.8833,泸州市,市环监站,颗粒物(PM10),67,84,64,23,23,135,90,114,114,20,20,3,4,0.7,0.6
2022-06-22T20:00:00,1901A,104.4239,31.1208,德阳市,东山公园,,19,19,24,9,15,128,60,92,90,21,10,5,6,0.6,0.6
2022-06-22T20:00:00,1902A,104.3826,31.1317,德阳市,西小区,,26,26,34,8,10,100,46,82,79,26,14,6,6,0.7,0.6
2022-06-22T20:00:00,1904A,104.3553,31.1091,德阳市,耐火材料厂,,18,10,28,10,13,103,56,78,76,17,16,5,6,0.6,0.6
2022-06-22T20:00:00,1905A,106.056,30.8064,南充市,西山风景区(对照点),,25,23,33,17,18,75,68,66,66,11,10,4,3,0.7,0.8
2022-06-22T20:00:00,1906A,106.0789,30.8023,南充市,南充市委,,36,36,30,12,19,73,58,62,62,6,13,4,4,0.6,0.6
2022-06-22T20:00:00,1907A,106.1031,30.8217,南充市,南充炼油厂,,31,31,32,13,18,81,55,64,64,15,15,12,9,0.5,0.6
2022-06-22T20:00:00,1908A,106.1064,30.7856,南充市,高坪区监测站,,25,16,27,17,18,90,67,74,74,8,17,6,7,0.6,0.6
2022-06-22T20:00:00,1909A,106.0642,30.7636,南充市,嘉陵区环保局,,31,31,33,15,21,90,57,65,65,7,9,3,6,0.7,0.7
2022-06-22T20:00:00,1910A,106.1087,30.8388,南充市,市环境监测站,,27,27,33,16,19,80,71,69,69,8,17,2,4,0.3,0.7
2022-06-22T20:00:00,1911A,106.9222,27.6869,遵义市,丁字口,,30,25,24,21,18,84,68,70,70,17,15,6,6,0.7,0.8
2022-06-22T20:00:00,1912A,106.9242,27.7019,遵义市,凤凰山,,35,16,21,24,15,82,72,78,78,8,10,7,6,0.5,0.6
2022-06-22T20:00:00,1913A,106.8906,27.6486,遵义市,忠庄,,,,23,,11,79,59,73,73,10,14,1,2,,0.6
2022-06-22T20:00:00,1914A,106.9231,27.6506,遵义市,舟水桥,,26,26,24,10,7,76,59,74,71,13,11,2,2,0.5,0.5
2022-06-22T20:00:00,1915A,106.9178,27.72,遵义市,干田坝,,23,17,17,16,13,82,56,72,72,13,13,5,5,0.6,0.6
2022-06-22T20:00:00,1916A,103.7897,25.5035,曲靖市,环境监测站,,35,35,18,12,10,79,67,73,73,11,11,6,7,0.4,0.4
2022-06-22T20:00:00,1917A,103.8,25.5364,曲靖市,烟厂办公区,,22,21,17,11,8,82,68,74,74,6,6,4,4,0.4,0.4
2022-06-22T20:00:00,1918A,108.7197,34.3956,咸阳市,气象站(对照点),,,,90,8,21,188,68,123,92,11,36,5,7,0.7,0.8
2022-06-22T20:00:00,1919A,108.673,34.3155,咸阳市,实验中学,颗粒物(PM10),116,182,72,9,20,186,65,106,78,13,28,3,3,0.2,0.4
2022-06-22T20:00:00,1920A,108.7233,34.3617,咸阳市,师范学院,,25,25,68,10,22,212,75,129,96,12,36,4,6,0.4,0.4
2022-06-22T20:00:00,1922A,109.0656,35.0994,铜川市,党校(对照点),,16,14,34,11,14,129,41,93,62,10,23,9,10,0.8,0.9
2022-06-22T20:00:00,1923A,109.0697,35.0697,铜川市,王益区政府,,23,15,36,7,16,153,73,113,90,9,20,3,5,0.5,0.6
2022-06-22T20:00:00,1924A,108.9344,34.9058,铜川市,新区管委会,,17,17,35,11,14,130,44,104,78,21,16,14,12,0.6,0.5
2022-06-22T20:00:00,1926A,109.4131,36.6275,延安市,枣园(对照点),,22,21,23,11,13,108,68,87,87,11,18,3,4,0.6,0.6
2022-06-22T20:00:00,1927A,109.4761,36.6028,延安市,延大医附院,,,33,28,11,15,95,,86,86,6,21,3,3,0.2,0.3
2022-06-22T20:00:00,1929A,109.5056,36.6106,延安市,百米大道,,,,32,12,16,85,59,76,74,25,25,4,4,0.7,0.7
2022-06-22T20:00:00,1930A,107.185,34.3063,宝鸡市,庙沟村(对照点),,26,11,15,7,7,84,81,77,77,3,10,4,4,0.5,0.5
2022-06-22T20:00:00,1931A,107.0708,34.3017,宝鸡市,竹园沟,,24,8,15,5,9,74,74,65,65,8,11,4,4,0.4,0.5
2022-06-22T20:00:00,1932A,107.1906,34.3672,宝鸡市,三陆医院,,28,17,38,19,17,68,27,56,50,32,26,5,6,0.5,0.5
2022-06-22T20:00:00,1933A,107.1431,34.3547,宝鸡市,监测站,,,,23,,11,70,,60,59,,23,,4,,0.4
2022-06-22T20:00:00,1934A,107.1186,34.3739,宝鸡市,技工学校,,19,19,25,9,17,72,44,65,60,22,18,3,4,0.4,0.5
2022-06-22T20:00:00,1935A,107.3906,34.3528,宝鸡市,陈仓区环保局家属楼,,16,14,34,11,14,64,51,60,59,24,25,5,6,0.6,0.6
2022-06-22T20:00:00,1936A,107.2058,34.3497,宝鸡市,文理学院,,23,19,23,3,10,78,35,67,58,46,25,6,6,0.4,0.3
2022-06-22T20:00:00,1937A,107.2386,34.3622,宝鸡市,三迪小学,,24,22,27,11,13,68,29,62,54,47,27,5,5,0.4,0.3
2022-06-22T20:00:00,1938A,109.5293,34.5101,渭南市,农科所(对照点),颗粒物(PM10),58,66,53,17,25,176,58,139,112,16,23,7,11,0.5,0.5
2022-06-22T20:00:00,1939A,109.4974,34.4877,渭南市,日报社,,46,46,43,12,17,178,46,138,108,26,30,5,10,0.5,0.6
2022-06-22T20:00:00,1940A,109.4636,34.493,渭南市,体育馆,颗粒物(PM10),52,53,44,0,14,213,56,152,121,20,28,7,9,0.4,0.5
2022-06-22T20:00:00,1941A,109.4259,34.5023,渭南市,高新一小,,42,42,54,7,15,216,57,148,120,17,18,3,4,0.5,0.6
2022-06-22T20:00:00,1943A,102.1725,38.5339,金昌市,新川苑,,35,21,34,1,14,122,112,120,120,13,19,7,16,0.6,0.6
2022-06-22T20:00:00,1944A,102.1692,38.5167,金昌市,天庆家园,,36,19,28,6,12,126,114,123,122,9,18,14,33,0.6,0.8
2022-06-22T20:00:00,1945A,98.2908,39.7711,嘉峪关市,气象局,,40,14,20,5,8,140,127,135,135,5,14,3,5,0.2,0.3
2022-06-22T20:00:00,1947A,106.3394,38.817,石嘴山市,沙湖旅游区(对照点),,43,28,24,4,16,147,136,140,140,14,13,8,15,0.3,0.7
2022-06-22T20:00:00,1948A,106.3668,39.0145,石嘴山市,大武口朝阳西街,,37,14,17,9,14,126,116,123,123,16,11,2,11,0.6,0.7
2022-06-22T20:00:00,1949A,106.7704,39.2282,石嘴山市,惠农南大街,,40,23,25,5,11,142,126,136,136,13,20,14,21,0.4,0.7
2022-06-22T20:00:00,1950A,106.7099,39.1325,石嘴山市,红果子镇惠新街,,37,25,25,4,14,140,118,133,133,20,19,14,18,0.3,0.5
2022-06-22T20:00:00,1951A,84.895,45.6094,克拉玛依市,长征新村,,41,22,30,0,8,152,130,140,140,8,18,7,7,0.3,0.3
2022-06-22T20:00:00,1952A,84.8988,45.5893,克拉玛依市,南林小区,,30,30,32,9,15,152,73,135,130,56,39,9,9,0.4,0.4
2022-06-22T20:00:00,1954A,84.905,44.3396,克拉玛依市,独山子区,,45,14,22,11,11,151,143,142,142,10,11,8,8,0.2,0.3
2022-06-22T20:00:00,1955A,85.6979,46.098,克拉玛依市,乌尔禾区商贸楼,,28,6,30,1,10,119,87,113,111,16,15,10,10,0.4,0.4
2022-06-22T20:00:00,1956A,86.1472,41.7538,巴音郭楞州,孔雀公园,,39,28,77,17,22,132,124,128,128,12,18,5,6,0.2,0.3
2022-06-22T20:00:00,1957A,86.1972,41.7166,巴音郭楞州,棉纺厂,,38,34,87,5,25,121,119,119,119,12,15,3,3,0.2,0.2
2022-06-22T20:00:00,1958A,86.2357,41.7173,巴音郭楞州,经济开发区,,40,26,77,12,25,132,128,128,128,7,7,2,3,0.2,0.2
2022-06-22T20:00:00,1961A,117.532,36.6868,济南市,东山小学,,46,46,53,15,22,199,138,167,164,17,15,9,11,0.1,0.3
2022-06-22T20:00:00,1966A,120.0405,35.8735,青岛市,黄岛区4号,,28,5,4,0,3,96,87,91,89,5,5,5,5,0.4,0.4
2022-06-22T20:00:00,1982A,122.0693,37.2174,威海市,文登开发区,,27,9,12,5,6,95,86,90,90,5,7,2,2,0.3,0.3
2022-06-22T20:00:00,2031A,113.1817,27.9958,株洲市,云田中学,,22,22,12,14,6,60,48,48,48,6,8,2,2,0.6,0.5
2022-06-22T20:00:00,2054A,114.1099,32.1059,信阳市,平桥分局,,,,18,,17,95,93,88,88,4,6,,7,0.4,0.5
2022-06-22T20:00:00,2064A,113.9956,32.1271,信阳市,南湾水厂,,32,32,21,14,13,103,98,95,94,1,3,5,5,0.4,0.5
2022-06-22T20:00:00,2065A,114.0775,32.1195,信阳市,市酿酒公司,,30,28,21,15,17,97,94,93,91,3,5,6,7,0.4,0.5
2022-06-22T20:00:00,2066A,114.0609,32.1399,信阳市,审计局,,30,15,27,15,23,100,93,100,90,3,4,5,5,0.5,0.6
2022-06-22T20:00:00,2067A,114.6613,33.6128,周口市,市环境监测站,,42,42,37,14,10,135,97,126,119,10,16,4,4,0.4,0.4
2022-06-22T20:00:00,2068A,114.6758,33.6347,周口市,周口师范,,32,32,32,13,12,130,93,123,116,8,12,2,3,0.5,0.4
2022-06-22T20:00:00,2069A,114.6546,33.5979,周口市,市运管处,,35,35,32,12,12,128,91,118,112,10,17,2,3,0.6,0.6
2022-06-22T20:00:00,2070A,114.6369,33.6406,周口市,川汇区环保局,,37,37,31,11,11,134,96,126,119,9,12,4,4,0.5,0.5
2022-06-22T20:00:00,2075A,117.6336,24.4674,漳州市,九湖(对照点),,,,,,,82,41,68,60,5,4,5,6,0.2,0.2
2022-06-22T20:00:00,2160A,112.85,35.5051,晋城市,自来水公司,,46,40,39,17,21,229,145,200,197,14,17,7,7,0.6,0.6
2022-06-22T20:00:00,2161A,112.8318,35.4936,晋城市,白云商贸,,43,42,44,24,21,204,136,171,169,13,13,6,6,0.6,0.6
2022-06-22T20:00:00,2162A,112.8508,35.4887,晋城市,市环保局,细颗粒物(PM2.5),77,32,50,56,28,211,112,178,171,13,21,6,7,0.6,0.5
2022-06-22T20:00:00,2163A,112.8676,35.4897,晋城市,技术学院,,44,44,46,24,20,204,123,181,177,13,19,1,3,0.5,0.4
2022-06-22T20:00:00,2165A,112.8453,35.546,晋城市,白马寺 (对照点),,46,45,53,12,15,207,147,184,183,7,11,10,10,0.6,0.6
2022-06-22T20:00:00,2166A,112.4397,39.3522,朔州市,平朔,,32,31,34,22,30,150,98,128,96,16,15,7,7,0.9,0.8
2022-06-22T20:00:00,2167A,112.4575,39.3617,朔州市,朔唯,,41,41,35,24,31,138,97,121,101,23,18,4,3,0.8,0.7
2022-06-22T20:00:00,2168A,112.4258,39.3197,朔州市,区政府,,37,27,39,14,23,153,116,129,101,16,16,9,9,0.8,0.7
2022-06-22T20:00:00,2169A,112.4072,39.3278,朔州市,市环保局,,39,25,36,17,21,149,122,135,111,15,16,6,6,0.8,0.8
2022-06-22T20:00:00,2170A,112.4272,39.3681,朔州市,市二中,,39,33,40,27,35,144,90,109,97,16,16,9,8,1.0,0.9
2022-06-22T20:00:00,2171A,112.7532,37.6945,晋中市,锦纶小区,细颗粒物(PM2.5),67,64,73,48,41,199,110,179,156,22,21,6,10,0.9,0.6
2022-06-22T20:00:00,2173A,112.7249,37.7067,晋中市,南都小区,细颗粒物(PM2.5),72,70,75,52,41,188,113,176,154,26,23,5,9,1.4,0.8
2022-06-22T20:00:00,2174A,112.6991,37.6982,晋中市,榆次区政府,,,86,80,47,43,168,,168,140,18,18,6,9,1.4,1
2022-06-22T20:00:00,2175A,110.9956,35.0147,运城市,运城中学,颗粒物(PM10),52,53,35,27,22,162,91,159,125,8,8,4,7,0.7,0.6
2022-06-22T20:00:00,2178A,110.9686,35.0303,运城市,地区技校,颗粒物(PM10),63,76,33,21,16,152,82,142,114,9,9,3,5,0.7,0.6
2022-06-22T20:00:00,2179A,111.0414,35.1147,运城市,空港新区,,29,23,53,20,24,152,80,152,117,12,12,6,9,0.7,0.5
2022-06-22T20:00:00,2181A,112.7383,38.4519,忻州市,开发区,细颗粒物(PM2.5),57,45,46,40,31,175,120,134,115,3,7,11,14,0.8,0.8
2022-06-22T20:00:00,2182A,112.7003,38.4928,忻州市,会展中心,,47,47,46,30,29,159,121,131,114,16,17,10,12,0.7,0.6
2022-06-22T20:00:00,2183A,111.1406,37.5211,吕梁市,环保局,,37,37,77,11,22,113,65,89,87,37,51,4,5,0.7,0.7
2022-06-22T20:00:00,2185A,111.1297,37.5136,吕梁市,自来水公司,,27,27,74,11,23,113,57,90,85,37,35,3,3,0.7,0.7
2022-06-22T20:00:00,2187A,106.8174,39.6973,乌海市,市林业局,,42,23,23,8,15,137,132,130,130,4,5,5,5,0.5,0.6
2022-06-22T20:00:00,2188A,106.7907,39.6667,乌海市,中海勃湾学校,,42,16,18,16,11,143,134,137,137,6,6,6,6,0.3,0.4
2022-06-22T20:00:00,2191A,122.2532,43.6801,通辽市,艺术职业学校,,35,35,38,12,11,114,95,99,96,25,23,5,5,0.5,0.5
2022-06-22T20:00:00,2192A,119.7594,49.2261,呼伦贝尔市,区环保局,,30,30,31,20,18,103,81,96,94,11,11,7,4,0.3,0.3
2022-06-22T20:00:00,2195A,107.4212,40.761,巴彦淖尔市,附二中,,38,38,31,18,21,146,110,140,138,11,10,5,4,0.6,0.7
2022-06-22T20:00:00,2196A,107.37,40.7372,巴彦淖尔市,市环保大楼,,41,41,48,9,17,144,110,136,134,13,11,4,4,0.5,0.6
2022-06-22T20:00:00,2197A,113.1306,40.9923,乌兰察布市,集宁新区,,39,21,32,13,23,122,122,108,108,11,15,8,10,0.4,0.5
2022-06-22T20:00:00,2200A,122.0392,46.0656,兴安盟,胜华新制药厂,,34,34,39,14,18,115,87,104,103,4,12,4,3,0.2,0.1
2022-06-22T20:00:00,2201A,121.9504,46.0741,兴安盟,科右前旗环保局,,,,25,,17,123,,113,113,10,19,4,4,0.2,0.2
2022-06-22T20:00:00,2202A,116.1042,43.9317,锡林郭勒盟,市环保监测站,,29,10,14,7,8,110,92,106,102,6,9,11,13,0.5,0.4
2022-06-22T20:00:00,2203A,116.0781,43.9311,锡林郭勒盟,市政府,,32,4,10,2,3,121,101,116,112,7,8,7,8,0.6,0.6
2022-06-22T20:00:00,2204A,105.6467,38.8363,阿拉善盟,西城区西花园(对照点),,44,15,21,10,18,141,138,138,138,9,7,16,14,0.4,0.4
2022-06-22T20:00:00,2205A,105.6985,38.8411,阿拉善盟,蒙二幼,,42,20,16,19,15,135,132,132,132,9,7,8,10,0.4,0.4
2022-06-22T20:00:00,2206A,105.724,38.8516,阿拉善盟,环保局新楼,,42,19,22,13,19,135,134,132,132,7,8,7,7,0.3,0.3
2022-06-22T20:00:00,2207A,121.6094,41.998,阜新市,工业园区,,44,44,26,11,11,82,66,70,68,46,20,7,8,0.8,0.7
2022-06-22T20:00:00,2208A,121.6697,42.0279,阜新市,长青街,,48,44,27,33,20,84,49,67,57,24,16,8,11,1.0,0.7
2022-06-22T20:00:00,2209A,121.6673,42.0705,阜新市,农业园区,,38,30,29,26,23,96,67,74,74,8,13,16,12,0.8,0.7
2022-06-22T20:00:00,2210A,121.6717,42.0224,阜新市,东苑,细颗粒物(PM2.5),57,53,39,40,22,89,52,73,66,30,20,15,13,1.0,0.7
2022-06-22T20:00:00,2211A,121.6506,42.0498,阜新市,玉龙新城,细颗粒物(PM2.5),53,46,30,37,19,86,49,63,59,21,15,16,8,0.9,0.7
2022-06-22T20:00:00,2212A,123.2,41.1953,辽阳市,宏伟区,,25,17,33,6,21,91,77,70,68,5,13,6,7,0.3,0.6
2022-06-22T20:00:00,2213A,123.1683,41.2495,辽阳市,新华园,,23,12,42,9,23,99,72,73,68,9,21,8,11,0.5,0.9
2022-06-22T20:00:00,2214A,123.2354,41.2639,辽阳市,滨河路,,18,7,46,12,23,72,57,54,54,7,17,8,6,0.5,0.9
2022-06-22T20:00:00,2215A,123.149,41.2991,辽阳市,铁西工业园,,30,30,53,18,28,54,38,42,41,11,18,2,2,0.6,1
2022-06-22T20:00:00,2216A,123.8139,42.3022,铁岭市,汇工街西,,48,48,72,12,25,107,55,88,86,36,40,5,8,0.9,0.8
2022-06-22T20:00:00,2217A,123.8649,42.2923,铁岭市,水上乐园,,25,18,48,14,29,89,78,71,71,29,41,6,8,0.6,0.7
2022-06-22T20:00:00,2218A,123.8486,42.2867,铁岭市,银州路东段,,36,36,60,7,26,92,52,76,72,39,42,6,7,0.6,0.7
2022-06-22T20:00:00,2219A,123.7153,42.2217,铁岭市,金沙江路北,,20,18,43,9,21,86,41,70,65,40,44,5,7,0.9,0.9
2022-06-22T20:00:00,2220A,120.4318,41.5881,朝阳市,西梁,颗粒物(PM10),62,73,52,32,26,91,34,79,33,20,15,5,6,0.8,0.8
2022-06-22T20:00:00,2221A,120.4521,41.5646,朝阳市,河畔小区,颗粒物(PM10),65,80,52,30,25,109,48,92,61,20,14,6,7,0.8,0.7
2022-06-22T20:00:00,2222A,120.4176,41.5648,朝阳市,八里堡,,,44,40,31,23,98,,82,63,24,20,4,6,0.9,0.8
2022-06-22T20:00:00,2223A,120.3806,41.5969,朝阳市,农业园区,,36,25,48,25,27,67,38,67,52,17,18,5,6,0.9,0.8
2022-06-22T20:00:00,2225A,124.4002,43.1713,四平市,一商场,,39,24,58,21,28,124,124,101,101,17,43,1,2,0.6,0.7
2022-06-22T20:00:00,2226A,124.388,43.193,四平市,境园,,36,20,45,17,25,113,113,77,77,14,32,4,5,0.7,0.7
2022-06-22T20:00:00,2227A,125.1358,42.8845,辽源市,环保局,,36,24,44,21,32,136,114,100,100,9,18,4,9,0.7,0.7
2022-06-22T20:00:00,2229A,125.9358,41.7173,通化市,光明,,32,32,21,13,12,79,48,63,56,13,9,8,8,0.6,0.5
2022-06-22T20:00:00,2230A,125.9446,41.7325,通化市,铁路,,31,31,22,18,13,68,26,52,40,24,13,6,8,0.8,0.6
2022-06-22T20:00:00,2231A,126.4219,41.9171,白山市,喜丰,,49,49,54,18,20,58,18,50,42,46,22,10,11,1.1,1
2022-06-22T20:00:00,2232A,126.4077,41.9419,白山市,环保局,,38,30,41,26,23,75,38,64,53,19,18,6,11,0.7,0.8
2022-06-22T20:00:00,2233A,124.8006,45.1214,松原市,江南,,39,11,16,14,9,124,123,121,121,14,12,2,3,0.6,0.4
2022-06-22T20:00:00,2234A,124.7965,45.1722,松原市,江北,,42,30,22,15,12,134,133,131,131,10,9,3,2,0.2,0.3
2022-06-22T20:00:00,2235A,122.7911,45.6077,白城市,洮北区环保局,,32,32,23,5,2,118,100,111,110,15,17,3,8,0.1,0.2
2022-06-22T20:00:00,2236A,122.8738,45.5725,白城市,市环保局,,36,29,38,22,17,132,115,122,122,11,15,5,5,0.2,0.1
2022-06-22T20:00:00,2237A,129.47,42.8883,延边朝鲜族自治州,妇幼医院,,35,18,21,24,14,61,26,60,36,21,13,6,6,0.8,0.6
2022-06-22T20:00:00,2238A,129.5055,42.9108,延边朝鲜族自治州,延边医院,,,23,17,26,22,31,25,30,28,22,17,10,11,,0
2022-06-22T20:00:00,2239A,129.3964,42.8881,延边朝鲜族自治州,朝阳川镇医院,,17,17,16,8,6,59,30,56,42,14,12,5,5,0.5,0.4
2022-06-22T20:00:00,2240A,130.9762,45.3001,鸡西市,环保局,,32,32,39,11,17,110,74,86,86,24,33,5,7,0.3,0.4
2022-06-22T20:00:00,2243A,130.9429,45.3039,鸡西市,第一中学,,30,30,41,7,14,121,84,98,97,16,22,6,8,0.3,0.3
2022-06-22T20:00:00,2244A,130.2537,47.3416,鹤岗市,哈啤分公司,,26,20,17,9,8,118,82,105,97,9,14,6,8,0.4,0.4
2022-06-22T20:00:00,2245A,130.2684,47.3086,鹤岗市,斯达机电,,33,33,25,19,13,116,86,109,102,9,13,8,9,0.3,0.4
2022-06-22T20:00:00,2246A,130.3114,47.3388,鹤岗市,东山纸板厂,,30,30,29,13,12,115,82,103,95,8,16,8,10,0.2,0.3
2022-06-22T20:00:00,2247A,130.1097,47.3382,鹤岗市,五号水库(对照点),,25,8,10,12,9,107,80,99,90,8,13,9,10,0.3,0.3
2022-06-22T20:00:00,2248A,131.1511,46.6937,双鸭山市,双合村,,,12,29,18,15,133,,124,124,15,15,11,14,0.3,0.4
2022-06-22T20:00:00,2249A,131.1652,46.6191,双鸭山市,南小市,,,31,35,,15,124,108,99,99,11,9,6,5,0.3,0.1
2022-06-22T20:00:00,2250A,131.1524,46.6554,双鸭山市,环保局,,35,35,22,11,9,131,82,124,120,14,11,5,5,0.6,0.5
2022-06-22T20:00:00,2251A,131.12,46.5656,双鸭山市,苗圃(对照点),,,18,14,15,17,139,,133,133,,6,1,2,0.5,0.4
2022-06-22T20:00:00,2252A,128.5159,47.4311,伊春市,环保局,,19,15,19,13,14,110,55,102,91,16,7,6,5,0.1,0.1
2022-06-22T20:00:00,2253A,128.9102,47.7412,伊春市,电力嘉园,,19,19,16,11,9,116,60,108,98,16,8,6,6,0.6,0.5
2022-06-22T20:00:00,2254A,129.5029,48.471,伊春市,汤旺河国家公园(对照点),,15,9,11,8,8,108,46,90,78,4,4,6,5,0.4,0.3
2022-06-22T20:00:00,2255A,130.2751,46.8028,佳木斯市,佳纺,,,34,35,25,28,114,,109,109,15,14,2,4,0.4,0.4
2022-06-22T20:00:00,2256A,130.3995,46.8307,佳木斯市,发电厂,,42,40,37,24,26,138,132,132,132,13,11,1,2,0.5,0.4
2022-06-22T20:00:00,2257A,130.3258,46.7975,佳木斯市,环保局,,48,37,47,33,29,134,107,128,126,22,10,1,2,0.5,0.5
2022-06-22T20:00:00,2258A,130.3648,46.8032,佳木斯市,十一中,,40,19,42,28,29,124,112,121,120,24,17,6,6,0.5,0.4
2022-06-22T20:00:00,2259A,130.3794,46.7588,佳木斯市,四丰(对照点),,40,29,27,22,23,135,128,129,129,11,10,5,5,0.5,0.5
2022-06-22T20:00:00,2262A,131.0518,45.8751,七台河市,新一中(对照点),,26,21,21,15,14,126,82,111,107,18,25,7,8,0.8,0.7
2022-06-22T20:00:00,2263A,127.4833,50.2524,黑河市,交通局,,,,11,,9,80,46,63,61,19,10,6,7,0.6,0.4
2022-06-22T20:00:00,2264A,127.5144,50.2341,黑河市,环保局,,28,28,16,8,8,89,63,74,74,14,8,4,3,0.4,0.3
2022-06-22T20:00:00,2265A,127.5291,50.2472,黑河市,大黑河岛(对照点),,30,17,9,21,7,88,47,69,68,15,6,6,6,0.5,0.4
2022-06-22T20:00:00,2266A,126.9785,46.6365,绥化市,人和东街,,38,28,27,16,18,140,120,129,129,16,14,6,7,0.5,0.4
2022-06-22T20:00:00,2267A,126.964,46.6528,绥化市,党政办公中心,,36,23,22,12,14,131,115,122,122,15,14,9,9,0.3,0.3
2022-06-22T20:00:00,2269A,124.1069,50.4097,大兴安岭地区,科技局,,17,11,13,10,11,61,53,57,57,8,7,5,4,0.4,0.4
2022-06-22T20:00:00,2270A,117.396,32.939,蚌埠市,工人疗养院,,34,15,13,15,7,127,108,119,119,2,3,6,7,0.3,0.2
2022-06-22T20:00:00,2271A,117.3605,32.9427,蚌埠市,百货大楼,,33,19,18,12,7,129,105,117,117,7,6,6,6,0.4,0.4
2022-06-22T20:00:00,2273A,117.4185,32.8911,蚌埠市,蚌埠学院,,30,24,16,7,5,121,96,109,109,5,5,6,8,0.3,0.3
2022-06-22T20:00:00,2274A,117.3533,32.9673,蚌埠市,淮上区政府,,34,29,23,7,6,130,108,119,119,5,4,8,9,0.4,0.4
2022-06-22T20:00:00,2275A,117.3145,32.8977,蚌埠市,高新区,颗粒物(PM10),51,51,27,14,8,128,104,117,117,9,9,7,8,0.4,0.4
2022-06-22T20:00:00,2277A,116.8305,32.7727,淮南市,潘集区政府,,28,25,22,13,11,103,88,100,99,7,10,5,9,0.2,0.2
2022-06-22T20:00:00,2278A,117.0067,32.6524,淮南市,师范学院,,27,13,28,12,6,102,84,92,92,9,8,4,5,0.4,0.3
2022-06-22T20:00:00,2279A,116.8569,32.5951,淮南市,谢家集区政府,,25,17,15,4,5,102,79,92,92,5,6,4,5,0.3,0.2
2022-06-22T20:00:00,2280A,116.8281,32.633,淮南市,八公山区政府,,28,28,22,8,6,89,71,85,84,6,6,3,3,0.2,0.1
2022-06-22T20:00:00,2281A,116.6325,32.6201,淮南市,焦岗湖风景区管理处(对照点),,26,19,21,7,7,99,82,90,90,5,10,5,5,0.2,0.2
2022-06-22T20:00:00,2282A,116.8004,33.975,淮北市,监测站,,35,35,36,15,16,173,100,127,124,14,11,7,7,0.5,0.5
2022-06-22T20:00:00,2283A,116.8091,33.9007,淮北市,烈山区政府,,33,24,28,15,20,171,103,128,126,8,11,6,7,0.6,0.6
2022-06-22T20:00:00,2284A,116.7856,33.9477,淮北市,职业技术学院,,36,36,37,13,16,168,98,122,120,9,10,6,6,0.6,0.6
2022-06-22T20:00:00,2285A,117.8177,30.9412,铜陵市,市第四中学,,21,21,12,1,6,66,39,60,58,20,11,14,7,1.2,0.4
2022-06-22T20:00:00,2286A,117.8059,30.9273,铜陵市,市公路局,,31,31,18,8,9,61,39,58,55,18,11,17,8,1.4,0.7
2022-06-22T20:00:00,2287A,117.7807,30.9413,铜陵市,市新民污水厂,,21,21,36,9,15,58,41,54,53,15,23,9,17,0.3,0.4
2022-06-22T20:00:00,2288A,117.7439,30.8792,铜陵市,市第九中学,,28,28,33,8,8,52,30,49,47,27,19,4,4,0.4,0.4
2022-06-22T20:00:00,2289A,117.846,30.9413,铜陵市,车站新区,,27,27,26,1,6,63,40,58,55,15,12,8,8,0.4,0.5
2022-06-22T20:00:00,2290A,117.8483,30.97,铜陵市,市职教基地,,13,7,17,8,6,65,40,60,58,16,12,13,7,0.8,0.3
2022-06-22T20:00:00,2291A,117.0809,30.5177,安庆市,环科院,,13,12,13,4,9,66,40,60,56,14,10,4,5,0.4,0.4
2022-06-22T20:00:00,2292A,117.0331,30.5119,安庆市,马山宾馆,,11,8,12,5,10,64,35,58,52,13,12,3,2,0.4,0.4
2022-06-22T20:00:00,2294A,116.9896,30.6145,安庆市,安庆大学,,14,11,14,6,8,70,44,61,59,13,12,3,4,0.3,0.3
2022-06-22T20:00:00,2295A,118.2903,29.6963,黄山市,延安路89号,,19,7,20,7,5,58,58,50,50,2,3,7,8,0.3,0.3
2022-06-22T20:00:00,2296A,118.327,29.7178,黄山市,黄山东路89号,,17,6,12,5,5,54,54,45,45,3,5,7,7,0.4,0.4
2022-06-22T20:00:00,2297A,118.1371,30.2756,黄山市,黄山区政府5号楼,,16,16,13,7,4,52,51,51,51,2,3,7,7,0.4,0.3
2022-06-22T20:00:00,2298A,118.3093,32.3153,滁州市,老年大学,,26,20,25,12,11,134,83,92,92,10,15,9,12,0.2,0.3
2022-06-22T20:00:00,2299A,118.3244,32.2786,滁州市,人大宾馆,,,,15,,7,118,,91,91,,13,,10,,0.5
2022-06-22T20:00:00,2301A,115.8277,32.8929,阜阳市,市监测站,,29,12,15,4,7,116,92,106,99,7,8,5,6,0.5,0.5
2022-06-22T20:00:00,2303A,115.8554,32.8605,阜阳市,开发区,,28,4,15,8,6,105,88,96,92,7,12,6,6,0.4,0.4
2022-06-22T20:00:00,2307A,116.5079,31.737,六安市,监测大楼,,21,15,14,8,6,91,66,86,81,6,8,5,6,0.2,0.2
2022-06-22T20:00:00,2308A,116.4738,31.7643,六安市,皖西学院,,22,22,13,6,7,114,68,99,90,7,7,8,9,0.3,0.3
2022-06-22T20:00:00,2309A,116.4996,31.7905,六安市,朝阳厂,,,23,10,13,7,100,,88,84,9,3,7,7,0.5,0.3
2022-06-22T20:00:00,2310A,116.5567,31.7886,六安市,开发区,,22,22,13,10,9,98,70,86,80,1,4,6,7,0.4,0.4
2022-06-22T20:00:00,2311A,115.8072,33.8399,亳州市,污水处理厂,,32,22,31,8,17,162,101,118,112,4,7,6,7,0.3,0.4
2022-06-22T20:00:00,2312A,115.7789,33.8518,亳州市,三国揽胜宫,,31,26,33,1,9,156,98,115,112,2,6,4,4,0.7,0.7
2022-06-22T20:00:00,2314A,117.47,30.6618,池州市,池州学院,,16,7,13,3,7,61,49,58,57,2,4,3,4,0.4,0.4
2022-06-22T20:00:00,2316A,118.7581,30.9454,宣城市,鳌峰子站,,14,5,13,2,6,52,43,49,48,7,12,4,5,0.4,0.4
2022-06-22T20:00:00,2317A,118.7385,30.9743,宣城市,敬亭山子站,,10,8,13,2,5,45,30,42,40,16,12,6,7,0.3,0.3
2022-06-22T20:00:00,2318A,118.7173,30.9427,宣城市,开发区子站,,16,8,15,3,7,55,49,53,52,12,15,5,10,0.3,0.3
2022-06-22T20:00:00,2319A,119.0141,25.4325,莆田市,荔城区仓后路,,31,31,30,11,12,106,36,80,75,16,16,2,2,0.5,0.5
2022-06-22T20:00:00,2320A,119.0015,25.4553,莆田市,莆田市监测站,,,35,31,,14,118,47,90,86,13,11,5,5,0.6,0.5
2022-06-22T20:00:00,2321A,119.1119,25.4561,莆田市,涵江区六中,,35,35,31,9,11,122,26,86,74,24,19,4,4,0.3,0.4
2022-06-22T20:00:00,2322A,119.1013,25.3215,莆田市,秀屿区政府,,20,20,21,6,8,92,27,62,54,11,10,5,4,0.4,0.5
2022-06-22T20:00:00,2324A,117.6211,26.2625,三明市,三钢,,29,28,36,20,18,60,15,48,42,23,18,4,7,0.3,1.3
2022-06-22T20:00:00,2325A,117.635,26.2714,三明市,三明二中,,37,37,32,12,12,66,6,55,45,31,18,3,5,1.0,1.1
2022-06-22T20:00:00,2326A,117.6028,26.2378,三明市,三元区政府,,46,46,32,21,18,68,11,54,46,27,13,4,6,0.8,0.7
2022-06-22T20:00:00,2327A,117.7275,26.3108,三明市,洋溪(对照点),,22,17,31,15,15,70,32,57,55,7,9,6,8,0.5,0.9
2022-06-22T20:00:00,2331A,118.0966,26.6761,南平市,茫荡山(对照点),,13,9,11,8,9,62,39,48,48,1,2,5,5,0.6,0.6
2022-06-22T20:00:00,2332A,118.1681,26.6369,南平市,南平市监测站,,,39,30,18,14,88,32,76,70,,10,5,6,1.1,0.7
2022-06-22T20:00:00,2333A,118.1825,26.6489,南平市,南平铝业有限公司,,41,41,30,12,14,88,31,73,70,21,9,6,7,1.2,0.8
2022-06-22T20:00:00,2334A,118.1756,26.6272,南平市,南平七中,,34,34,29,17,16,92,38,74,72,14,8,5,5,1.4,1.3
2022-06-22T20:00:00,2335A,117.0189,25.1181,龙岩市,龙岩师专(对照点),,13,7,19,9,9,46,32,44,43,13,11,4,4,0.6,0.6
2022-06-22T20:00:00,2336A,117.0217,25.1033,龙岩市,龙岩市监测站,,12,5,18,3,8,48,38,46,45,9,13,5,6,0.4,0.5
2022-06-22T20:00:00,2337A,117.0258,25.0661,龙岩市,闽西职业技术学院,,17,17,24,2,8,50,39,46,46,6,13,5,8,0.4,0.4
2022-06-22T20:00:00,2338A,117.0196,25.0306,龙岩市,龙岩学院,,14,14,15,4,5,48,30,45,43,7,6,3,2,0.4,0.4
2022-06-22T20:00:00,2339A,119.5001,26.6946,宁德市,金涵水库(对照点),,38,38,39,21,19,108,32,81,81,13,14,7,7,0.7,0.6
2022-06-22T20:00:00,2341A,119.5388,26.6612,宁德市,宁德市监测站,,43,43,49,16,22,96,55,80,80,27,20,5,6,0.7,0.8
2022-06-22T20:00:00,2342A,117.3102,29.3867,景德镇市,王港中学(对照点),,15,2,10,5,6,82,47,75,65,4,3,4,4,0.3,0.3
2022-06-22T20:00:00,2343A,117.2117,29.2933,景德镇市,老干部活动中心,,35,35,33,10,13,48,30,40,39,25,15,19,8,0.6,0.4
2022-06-22T20:00:00,2344A,117.1894,29.2789,景德镇市,兽医站,,14,14,23,2,15,37,33,30,25,19,17,25,18,0.5,0.6
2022-06-22T20:00:00,2345A,117.1547,29.2617,景德镇市,台达陶瓷,颗粒物(PM10),68,85,44,14,12,41,36,38,38,23,20,58,44,0.4,0.5
2022-06-22T20:00:00,2346A,117.2461,29.2956,景德镇市,陶研所,,17,12,16,4,8,53,52,49,49,5,5,4,33,0.3,0.3
2022-06-22T20:00:00,2347A,114.0997,27.5002,萍乡市,武功山(对照点),,10,1,3,3,3,49,30,41,35,5,3,12,25,0.2,0.1
2022-06-22T20:00:00,2348A,113.8385,27.6434,萍乡市,中医院,,29,17,17,20,17,41,18,26,26,24,21,8,8,1.0,1
2022-06-22T20:00:00,2349A,113.8493,27.6253,萍乡市,市政府车库,,36,36,23,22,14,30,12,23,23,29,21,8,10,1.0,1
2022-06-22T20:00:00,2350A,113.8676,27.6435,萍乡市,市环保局,,23,20,20,16,14,37,24,28,28,17,17,12,15,0.4,0.5
2022-06-22T20:00:00,2351A,113.866,27.6198,萍乡市,安源区政府,,30,30,19,20,15,39,9,27,27,20,15,9,10,0.7,0.6
2022-06-22T20:00:00,2352A,115.0861,27.9317,新余市,北岗(对照点),,12,8,10,8,6,39,24,32,32,15,8,3,5,0.5,0.5
2022-06-22T20:00:00,2353A,114.9886,27.8431,新余市,飞宇,,29,29,29,10,11,36,21,31,29,18,13,5,6,0.8,0.7
2022-06-22T20:00:00,2354A,114.9231,27.8246,新余市,第二水厂,,25,16,25,17,13,29,10,26,20,39,23,8,13,1.6,1.5
2022-06-22T20:00:00,2355A,114.9308,27.8036,新余市,市气象局,,32,32,45,17,32,34,23,17,15,16,27,5,40,1.0,2.7
2022-06-22T20:00:00,2357A,116.9822,28.1136,鹰潭市,龙虎山(对照点),,,,15,5,4,54,41,52,40,2,2,2,2,0.2,0.2
2022-06-22T20:00:00,2358A,117.0564,28.2642,鹰潭市,新监测站,颗粒物(PM10),57,64,29,5,6,44,12,42,30,22,11,3,12,0.5,0.4
2022-06-22T20:00:00,2359A,117.0311,28.2475,鹰潭市,财苑宾馆,,22,22,22,5,3,44,23,36,32,10,7,4,3,0.4,0.4
2022-06-22T20:00:00,2360A,117.0222,28.2264,鹰潭市,体育馆,,33,33,26,2,4,48,20,40,35,15,7,2,9,0.5,0.4
2022-06-22T20:00:00,2361A,117.0017,28.2131,鹰潭市,三川水表,,22,22,24,7,6,48,23,43,34,14,4,5,5,0.4,0.4
2022-06-22T20:00:00,2362A,114.9017,25.9149,赣州市,通天岩(对照点),,44,44,24,29,14,78,46,59,59,12,10,7,5,0.5,0.4
2022-06-22T20:00:00,2363A,114.9367,25.8664,赣州市,地委,颗粒物(PM10),56,61,29,28,12,82,33,52,52,39,16,8,8,0.9,0.6
2022-06-22T20:00:00,2364A,114.9461,25.8481,赣州市,气象台,,50,50,24,28,12,66,27,46,44,44,16,7,6,1.1,0.6
2022-06-22T20:00:00,2365A,114.9322,25.8333,赣州市,市图书馆,,45,45,21,31,12,70,22,45,45,49,17,4,5,1.5,0.9
2022-06-22T20:00:00,2366A,114.8905,25.8471,赣州市,华坚鞋城,颗粒物(PM10),71,92,33,42,15,104,23,64,64,80,24,3,2,1.3,0.7
2022-06-22T20:00:00,2367A,114.9754,27.0803,吉安市,红声器材厂,,25,25,26,10,12,42,19,36,33,14,7,11,5,0.5,0.4
2022-06-22T20:00:00,2368A,114.9658,27.0999,吉安市,市森林工业局,,25,25,21,16,16,50,19,41,38,15,8,5,5,0.7,0.4
2022-06-22T20:00:00,2369A,114.99,27.1312,吉安市,市环境监测站,,34,34,24,16,12,51,19,40,35,12,9,17,7,0.6,0.4
2022-06-22T20:00:00,2370A,115.0093,27.0968,吉安市,青原区法院,,23,23,22,13,10,47,6,40,30,21,7,7,9,0.7,0.4
2022-06-22T20:00:00,2371A,114.3408,27.8064,宜春市,槟榔水业(对照点),,20,20,19,12,10,44,32,36,35,7,8,8,7,0.6,0.5
2022-06-22T20:00:00,2373A,114.3956,27.7844,宜春市,市石油公司,,18,18,19,9,9,37,27,32,31,12,9,5,6,0.5,0.7
2022-06-22T20:00:00,2374A,114.3703,27.7914,宜春市,市气象局,,18,18,20,10,8,40,31,34,34,12,11,5,4,0.6,0.6
2022-06-22T20:00:00,2375A,114.4013,27.8074,宜春市,市广电局,,16,13,18,11,11,44,34,39,38,9,8,2,3,0.7,0.8
2022-06-22T20:00:00,2376A,116.2127,28.0814,抚州市,桐源党溪(对照点),,14,14,16,5,6,51,15,41,38,10,5,3,3,0.6,0.6
2022-06-22T20:00:00,2377A,116.3544,27.9831,抚州市,市站,,20,20,21,9,10,52,17,37,36,16,9,4,4,0.7,0.6
2022-06-22T20:00:00,2378A,116.3565,27.963,抚州市,血防站,,18,18,22,8,9,54,18,41,39,17,9,1,2,0.6,0.5
2022-06-22T20:00:00,2379A,116.3564,28.0007,抚州市,采茶剧团,,19,19,19,6,8,57,16,39,38,18,7,3,5,0.7,0.6
2022-06-22T20:00:00,2380A,116.385,27.9647,抚州市,医学分院,,26,26,21,10,9,53,14,38,36,17,9,4,6,0.5,0.5
2022-06-22T20:00:00,2381A,118.005,28.4572,上饶市,百草园(对照点),,18,16,23,12,12,68,26,47,46,12,12,8,19,0.6,0.7
2022-06-22T20:00:00,2382A,117.9756,28.4436,上饶市,市监测站,,21,21,31,7,15,68,18,48,45,12,13,6,19,0.5,0.5
2022-06-22T20:00:00,2383A,117.9519,28.4628,上饶市,凤凰光学,,20,20,29,7,16,77,33,58,58,15,13,15,18,0.9,0.9
2022-06-22T20:00:00,2385A,114.17,35.9019,鹤壁市,市监测站,,47,47,62,12,23,180,145,164,163,14,20,4,9,0.7,0.8
2022-06-22T20:00:00,2386A,114.2956,35.7511,鹤壁市,市交警支队,,44,44,65,16,31,159,127,146,145,9,17,7,24,0.8,0.9
2022-06-22T20:00:00,2387A,114.2878,35.7306,鹤壁市,迎宾馆,,42,34,67,26,32,166,132,152,151,12,21,5,19,0.7,0.8
2022-06-22T20:00:00,2389A,113.836,35.311,新乡市,环保西院,,41,33,42,12,15,192,130,168,163,9,9,5,6,0.5,0.6
2022-06-22T20:00:00,2390A,113.884,35.272,新乡市,开发区,,,,38,,14,178,134,153,148,16,15,5,5,0.5,0.6
2022-06-22T20:00:00,2391A,113.883,35.303,新乡市,环保东院,,42,42,44,16,17,181,127,165,158,14,15,3,4,0.5,0.7
2022-06-22T20:00:00,2392A,115.0312,35.7636,濮阳市,环保局,,,34,49,,36,160,136,146,145,11,16,5,6,0.4,0.4
2022-06-22T20:00:00,2394A,115.0574,35.7609,濮阳市,油田运输公司,,,39,55,11,24,162,117,144,140,,21,4,6,0.3,0.3
2022-06-22T20:00:00,2395A,115.0866,35.7754,濮阳市,油田物探公司,,,40,57,16,20,161,141,158,156,,17,4,6,0.2,0.1
2022-06-22T20:00:00,2396A,113.8276,34.0159,许昌市,监测站,细颗粒物(PM2.5),55,40,37,39,26,138,99,130,126,13,12,2,2,0.5,0.5
2022-06-22T20:00:00,2398A,113.7906,33.9953,许昌市,开发区,,30,27,36,15,14,136,95,130,124,12,11,2,3,0.6,0.7
2022-06-22T20:00:00,2399A,114.051,33.5699,漯河市,三五一五工厂,,37,37,28,12,12,126,84,118,108,6,9,5,6,0.4,0.4
2022-06-22T20:00:00,2400A,114.0055,33.5698,漯河市,漯河大学,,38,38,36,12,8,121,82,114,106,9,10,7,6,0.3,0.3
2022-06-22T20:00:00,2401A,114.0138,33.5828,漯河市,市水利局,,39,39,26,14,10,128,84,120,110,5,8,6,6,0.4,0.5
2022-06-22T20:00:00,2402A,114.0261,33.5698,漯河市,市广电局,,34,34,26,7,5,129,86,120,110,4,8,8,7,0.6,0.6
2022-06-22T20:00:00,2403A,112.5192,32.9917,南阳市,环保局,,,,24,12,17,109,87,102,101,4,5,3,3,0.5,0.4
2022-06-22T20:00:00,2404A,112.5339,33.0086,南阳市,瓦房庄,,35,34,27,24,17,107,90,96,94,10,8,2,2,0.4,0.3
2022-06-22T20:00:00,2405A,112.5003,32.9735,南阳市,汉画馆,,31,30,23,17,17,118,98,112,110,3,6,5,5,0.5,0.4
2022-06-22T20:00:00,2406A,112.5779,33.0144,南阳市,气象站,,,27,26,14,15,109,,105,105,11,9,5,6,,0.3
2022-06-22T20:00:00,2407A,112.548,32.9692,南阳市,理工学院,,39,26,23,27,20,104,87,98,96,6,10,3,3,0.5,0.4
2022-06-22T20:00:00,2408A,115.6702,34.4285,商丘市,环境监测站,,36,36,38,16,17,159,114,128,127,14,15,8,7,0.3,0.4
2022-06-22T20:00:00,2409A,115.6458,34.4045,商丘市,粮食局,,39,39,43,18,16,164,111,125,124,10,10,5,6,0.6,0.6
2022-06-22T20:00:00,2410A,115.6293,34.3948,商丘市,睢阳区环保局,,45,45,42,13,15,158,104,123,121,13,12,4,4,0.8,0.8
2022-06-22T20:00:00,2420A,114.0189,32.9656,驻马店市,市一纸厂,,32,32,21,18,12,109,85,100,93,7,11,6,7,0.2,0.3
2022-06-22T20:00:00,2421A,114.0114,33.015,驻马店市,市彩印厂,,26,26,22,9,9,100,77,89,85,6,7,2,2,0.2,0.2
2022-06-22T20:00:00,2422A,113.9976,32.9771,驻马店市,天方二分厂,,,17,19,12,10,95,82,91,88,6,8,3,3,,0.3
2022-06-22T20:00:00,2423A,115.0601,30.2313,黄石市,沈家营,,,24,34,,6,77,41,54,46,9,19,8,15,0.5,0.9
2022-06-22T20:00:00,2424A,115.0817,30.2006,黄石市,陈家湾,,18,18,31,6,7,79,47,54,47,8,17,5,5,0.3,0.5
2022-06-22T20:00:00,2426A,114.8988,30.2019,黄石市,铁山,,,12,29,27,9,84,,68,63,,21,21,10,0.5,0.6
2022-06-22T20:00:00,2427A,115.0307,30.2092,黄石市,团城山,,,12,33,0,4,87,54,66,59,,16,6,10,0.5,0.8
2022-06-22T20:00:00,2428A,111.0419,32.395,十堰市,武当山(对照点),,46,33,22,32,17,121,91,114,110,5,5,6,6,0.5,0.5
2022-06-22T20:00:00,2429A,110.78,32.6494,十堰市,滨河新村,,39,39,42,20,22,109,74,104,100,15,15,6,6,0.7,0.8
2022-06-22T20:00:00,2430A,110.7258,32.6389,十堰市,刘家沟,,43,33,34,30,23,129,108,122,120,10,10,7,8,0.7,0.9
2022-06-22T20:00:00,2431A,110.8839,32.5714,十堰市,铁二处,,39,34,29,24,20,131,123,119,119,13,8,8,8,0.6,0.6
2022-06-22T20:00:00,2432A,112.155,32.0197,襄阳市,襄城运动路,,36,36,33,11,20,129,103,120,119,17,12,4,4,0.7,0.6
2022-06-22T20:00:00,2433A,112.1392,32.0564,襄阳市,樊城新华路,,,32,36,22,23,117,,112,112,12,9,5,5,0.7,0.7
2022-06-22T20:00:00,2434A,112.1825,32.1142,襄阳市,高新管委会,,42,42,30,22,16,122,104,116,115,9,9,6,9,0.8,0.8
2022-06-22T20:00:00,2435A,112.2106,32.0903,襄阳市,襄州航空路,,49,49,33,12,20,123,109,115,115,6,7,4,4,0.6,0.6
2022-06-22T20:00:00,2436A,114.8938,30.3994,鄂州市,市政府,,19,19,21,3,4,83,47,69,62,8,8,5,5,0.6,0.6
2022-06-22T20:00:00,2437A,114.8989,30.3714,鄂州市,赵家坝,,21,21,25,5,4,76,40,62,54,9,11,4,5,0.6,0.6
2022-06-22T20:00:00,2439A,112.2014,31.0481,荆门市,竹园小学,,36,36,34,13,22,96,79,86,86,6,6,7,6,0.7,0.7
2022-06-22T20:00:00,2440A,112.1969,30.9891,荆门市,掇刀,,30,29,32,16,19,124,95,107,107,12,10,7,9,0.6,0.6
2022-06-22T20:00:00,2441A,112.2213,31.0386,荆门市,石化一小,,39,39,32,1,16,234,74,109,109,23,9,31,7,0.5,0.4
2022-06-22T20:00:00,2443A,113.9153,30.9285,孝感市,文化路,,24,21,26,12,10,86,76,80,79,5,12,4,4,0.4,0.4
2022-06-22T20:00:00,2444A,113.942,30.9075,孝感市,东城区,,37,37,31,11,10,87,73,78,78,6,13,5,5,0.5,0.5
2022-06-22T20:00:00,2446A,114.9028,30.4742,黄冈市,职工中心,,20,20,47,3,5,86,47,73,68,9,10,7,12,0.5,0.6
2022-06-22T20:00:00,2447A,114.3175,29.8142,咸宁市,森林公园(对照点),,21,3,15,4,7,70,65,59,59,2,2,5,5,0.6,0.6
2022-06-22T20:00:00,2448A,114.3107,29.8454,咸宁市,市发改委,,21,21,20,7,6,64,59,61,61,2,4,7,7,0.4,0.4
2022-06-22T20:00:00,2449A,114.2936,29.8566,咸宁市,咸安区政府,,18,13,18,10,8,66,55,61,61,9,6,5,5,0.5,0.5
2022-06-22T20:00:00,2451A,113.3583,31.7275,随州市,市委党校,,27,20,23,10,9,91,85,85,85,2,4,6,7,0.7,0.7
2022-06-22T20:00:00,2452A,113.3833,31.6908,随州市,市林业局,,33,33,25,10,10,92,89,88,88,3,5,2,3,0.6,0.6
2022-06-22T20:00:00,2453A,113.3983,31.7308,随州市,市立交桥水厂,,28,28,38,11,11,90,88,85,85,3,8,8,10,0.5,0.5
2022-06-22T20:00:00,2454A,109.4978,30.2981,恩施土家族苗族自治州,湖北民院,,33,28,34,23,17,75,56,68,68,5,6,6,8,0.6,0.7
2022-06-22T20:00:00,2455A,109.4707,30.2798,恩施土家族苗族自治州,州电力总公司,,36,36,22,14,11,82,61,74,74,2,6,6,8,0.7,0.8
2022-06-22T20:00:00,2456A,112.5003,26.9167,衡阳市,原169医院(对照点),,24,24,18,11,7,30,21,26,25,12,12,6,4,0.6,0.6
2022-06-22T20:00:00,2457A,112.6194,26.9258,衡阳市,衡阳化工总厂,,18,18,22,10,9,64,39,52,51,9,9,3,3,0.4,0.5
2022-06-22T20:00:00,2458A,112.6211,26.8956,衡阳市,珠晖区环保局,,,15,17,,,60,41,51,50,9,11,3,3,0.5,0.6
2022-06-22T20:00:00,2459A,112.6197,26.8733,衡阳市,市委党校,,16,16,19,7,6,61,42,52,51,10,8,4,6,0.3,0.4
2022-06-22T20:00:00,2460A,112.6006,26.8919,衡阳市,市监测站,,17,17,16,9,9,62,44,53,53,6,8,6,8,0.4,0.5
2022-06-22T20:00:00,2461A,112.5664,26.9056,衡阳市,真空机电公司,,25,25,26,10,9,59,39,47,47,9,13,12,18,0.5,0.9
2022-06-22T20:00:00,2462A,111.5239,27.3033,邵阳市,市水土所(对照点),,28,26,21,19,16,69,42,58,56,5,5,7,7,0.4,0.4
2022-06-22T20:00:00,2463A,111.4733,27.2317,邵阳市,市一中,,25,19,19,17,11,68,50,59,59,9,7,6,6,0.4,0.5
2022-06-22T20:00:00,2464A,111.5283,27.2442,邵阳市,市化工厂,,31,31,23,14,11,68,52,59,59,5,6,7,6,0.3,0.3
2022-06-22T20:00:00,2465A,111.4503,27.2537,邵阳市,市罐头厂,,34,34,27,21,15,69,38,58,56,20,12,11,9,0.3,0.3
2022-06-22T20:00:00,2466A,111.4328,27.2272,邵阳市,市环保局,,32,32,30,12,11,71,38,58,57,17,8,8,8,0.3,0.3
2022-06-22T20:00:00,2467A,112.4067,28.6428,益阳市,甘溪港(对照点),,22,22,23,7,6,79,58,73,72,14,12,11,8,0.3,0.4
2022-06-22T20:00:00,2468A,112.3458,28.5808,益阳市,市环保局,,23,23,16,14,8,90,61,82,81,7,7,4,4,0.5,0.5
2022-06-22T20:00:00,2469A,112.3437,28.5531,益阳市,市特殊教育学校,,40,40,20,11,8,85,58,78,76,9,9,2,2,0.4,0.4
2022-06-22T20:00:00,2470A,112.3347,28.6047,益阳市,资阳区政务中心,,38,38,26,18,10,95,64,87,84,5,6,4,4,0.7,0.7
2022-06-22T20:00:00,2471A,112.3744,28.5819,益阳市,赫山环保分局,,37,37,22,6,6,81,54,75,73,7,7,1,1,0.4,0.5
2022-06-22T20:00:00,2472A,113.0073,25.9061,郴州市,马头岭(对照点),,22,22,16,8,6,68,47,58,58,7,7,10,9,0.5,0.5
2022-06-22T20:00:00,2473A,113.0116,25.8226,郴州市,市职中,,25,25,15,15,9,73,56,64,64,14,7,18,11,0.5,0.5
2022-06-22T20:00:00,2474A,113.0161,25.8001,郴州市,兴隆步行街,,28,28,14,13,14,69,58,62,61,10,7,19,12,0.5,0.5
2022-06-22T20:00:00,2475A,113.0383,25.8071,郴州市,市审计局,,23,23,14,14,9,67,60,61,61,8,7,14,6,0.4,0.4
2022-06-22T20:00:00,2476A,113.0348,25.7759,郴州市,市环保局,,25,25,16,14,8,67,57,62,62,12,8,19,8,0.5,0.4
2022-06-22T20:00:00,2477A,111.6217,26.2081,永州市,零陵南津渡(对照点),,20,20,16,10,6,67,60,58,56,2,2,7,6,0.5,0.5
2022-06-22T20:00:00,2478A,111.6156,26.4214,永州市,市环境监测站,,,17,12,6,6,62,,56,56,2,2,6,6,0.3,0.4
2022-06-22T20:00:00,2479A,111.6236,26.2331,永州市,零陵区环保局,,19,19,16,10,9,62,53,53,51,9,12,10,9,0.4,0.3
2022-06-22T20:00:00,2480A,111.5992,26.4364,永州市,永州市环保局,,20,20,14,9,8,54,53,50,50,4,3,3,4,0.5,0.5
2022-06-22T20:00:00,2481A,111.5989,26.4519,永州市,冷水滩区环保局,,21,21,15,13,7,56,48,52,51,6,6,5,6,0.5,0.5
