timepoint,stationcode,longitude,latitude,area,positionname,primarypollutant,aqi,pm10,pm10_24h,pm2_5,pm2_5_24h,o3,o3_24h,o3_8h,o3_8h_24h,no2,no2_24h,so2,so2_24h,co,co_24h
2025-03-31T0500,2566A,102.1879,31.914,阿坝藏族羌族自治州,州农科所,,39,39,62,17,17,48,,,,11,11,12,12,0.3,0.3
2025-03-31T0500,2568A,102.2502,31.8896,阿坝藏族羌族自治州,马师校,,37,37,64,23,27,51,,,,8,14,5,5,0.4,0.4
2025-03-31T0500,3994A,102.2165,31.9024,阿坝藏族羌族自治州,马尔康中学西区,,36,36,52,16,19,58,,,,8,8,5,6,0.4,0.4
2025-03-31T0500,2695A,80.292,41.1694,阿克苏地区,电视台,颗粒物(PM10),500,620,720,150,175,47,,,,15,25,5,4,0.7,0.7
2025-03-31T0500,2696A,80.2613,41.1551,阿克苏地区,艺术中心,颗粒物(PM10),500,716,783,176,189,47,,,,14,23,4,4,0.5,0.8
2025-03-31T0500,2204A,105.6467,38.8363,阿拉善盟,西城区西花园,,26,26,27,12,11,83,,,,7,9,8,11,0.5,0.6
2025-03-31T0500,2205A,105.6985,38.8411,阿拉善盟,蒙二幼,,24,6,18,3,6,76,,,,7,9,5,6,0.7,0.7
2025-03-31T0500,2206A,105.724,38.8516,阿拉善盟,环保局新楼,,28,9,15,3,6,87,,,,2,4,8,9,0.7,0.7
2025-03-31T0500,2708A,88.1264,47.8517,阿勒泰地区,市站,,25,10,13,3,4,78,,,,1,6,2,3,0.5,0.5
2025-03-31T0500,2630A,80.1161,32.5,阿里地区,阿里监测站,,32,12,18,3,8,102,,,,1,2,5,6,0.4,0.5
2025-03-31T0500,3192A,80.0903,32.5028,阿里地区,阿里藏医院,,32,13,25,3,11,101,,,,2,1,6,6,0.5,0.5
2025-03-31T0500,2642A,109.0318,32.6537,安康市,香溪洞,,46,46,58,26,26,42,,,,15,10,11,8,1.2,1.2
2025-03-31T0500,2644A,109.0072,32.6975,安康市,汉滨区检察院,颗粒物(PM10),53,56,70,23,22,29,,,,15,15,8,9,0.3,0.4
2025-03-31T0500,4054A,109.0325,32.6913,安康市,市邮政管理局,,,58,73,26,27,36,,,,,16,12,10,0.3,0.4
2025-03-31T0500,2291A,117.0809,30.5177,安庆市,环科院,颗粒物(PM10),66,82,97,32,43,36,,,,22,21,8,9,0.5,0.5
2025-03-31T0500,2292A,117.0331,30.5119,安庆市,马山宾馆,颗粒物(PM10),60,70,98,25,37,27,,,,27,20,5,6,0.4,0.4
2025-03-31T0500,2294A,116.9896,30.6145,安庆市,安庆大学,颗粒物(PM10),68,85,101,47,46,32,,,,39,20,4,4,0.6,0.5
2025-03-31T0500,3173A,117.0598,30.5351,安庆市,市人大,颗粒物(PM10),66,82,102,34,46,34,,,,21,17,7,7,0.8,0.8
2025-03-31T0500,3122A,105.9606,26.2611,安顺市,伍家关,,40,40,27,21,11,66,,,,5,8,11,9,0.5,0.4
2025-03-31T0500,3123A,105.9408,26.2431,安顺市,凤凰山,细颗粒物(PM2.5),53,37,22,37,23,64,,,,5,8,13,11,0.4,0.3
2025-03-31T0500,3124A,105.9439,26.2564,安顺市,金钟山,细颗粒物(PM2.5),52,,19,36,21,64,,,,6,9,10,9,0.5,0.5
2025-03-31T0500,3125A,105.8983,26.2481,安顺市,娄家坡,细颗粒物(PM2.5),53,39,22,37,22,63,,,,8,10,14,13,0.5,0.5
2025-03-31T0500,1818A,114.4839,36.0621,安阳市,棉研所,,,,,,,,,,,,,,,,
2025-03-31T0500,1819A,114.3551,36.1017,安阳市,红庙街,颗粒物(PM10),62,74,76,30,36,51,,,,18,21,6,12,0.2,0.6
2025-03-31T0500,1820A,114.361,36.0681,安阳市,银杏小区,颗粒物(PM10),62,74,79,36,40,55,,,,23,25,4,9,0.4,0.7
2025-03-31T0500,3141A,114.3922,36.0878,安阳市,信访局,颗粒物(PM10),60,70,77,36,38,50,,,,24,25,6,8,0.5,0.7
2025-03-31T0500,3669A,114.4705,36.0637,安阳市,左辅环卫站,颗粒物(PM10),72,94,85,37,41,55,,,,16,19,3,7,0.5,0.7
2025-03-31T0500,3703A,114.2917,36.0949,安阳市,安钢职工学校,颗粒物(PM10),66,81,93,40,50,48,,,,26,25,5,12,0.9,1.3
2025-03-31T0500,1748A,123.044,41.1196,鞍山市,深沟寺,,42,42,30,17,15,84,,,,8,7,13,12,1.0,0.7
2025-03-31T0500,1749A,123.011,41.0931,鞍山市,太阳城,颗粒物(PM10),51,51,30,21,15,78,,,,14,9,12,8,1.2,0.5
2025-03-31T0500,1750A,123.0485,41.1442,鞍山市,太平,,48,48,38,20,17,79,,,,11,11,14,13,1.5,1.2
2025-03-31T0500,1751A,122.9642,41.0971,鞍山市,铁西三道街,,43,43,40,18,20,79,,,,15,19,6,9,0.8,0.6
2025-03-31T0500,1753A,123.022,41.0821,鞍山市,明达新区,,,,36,,20,,,66,,,12,,10,,0.4
2025-03-31T0500,1754A,123.1289,41.0228,鞍山市,千山,,,,22,,9,,,75,,,9,,5,,0.7
2025-03-31T0500,4201A,122.9446,41.0826,鞍山市,兴盛南路290号,,35,35,41,17,21,78,,,,15,22,12,13,0.8,0.6
2025-03-31T0500,2195A,107.4212,40.761,巴彦淖尔市,附二中,,26,23,34,18,15,65,,,,6,17,6,6,0.3,0.4
2025-03-31T0500,2196A,107.37,40.7372,巴彦淖尔市,市环保大楼,,40,40,46,16,20,52,,,,9,15,4,4,0.2,0.3
2025-03-31T0500,1956A,86.1472,41.7538,巴音郭楞蒙古自治州,孔雀公园,颗粒物(PM10),500,690,651,160,148,2,,,,72,29,5,5,0.6,0.4
2025-03-31T0500,1957A,86.1972,41.7166,巴音郭楞蒙古自治州,棉纺厂,颗粒物(PM10),500,766,796,153,161,15,,,,41,29,2,2,0.5,0.4
2025-03-31T0500,1958A,86.2357,41.7173,巴音郭楞蒙古自治州,经济开发区,颗粒物(PM10),500,665,667,137,134,48,,,,12,20,4,4,0.3,0.3
2025-03-31T0500,2914A,106.7677,31.8794,巴中市,苏山坪,,28,28,22,18,14,29,,,,16,11,3,3,0.5,0.4
2025-03-31T0500,3181A,106.7768,31.8526,巴中市,市五中,,26,26,25,16,14,13,,,,15,13,4,4,0.5,0.5
2025-03-31T0500,3183A,106.7418,31.8654,巴中市,圣泉水务公司,,,19,21,12,12,20,,,,,17,7,7,0.5,0.5
2025-03-31T0500,3616A,106.7616,31.8344,巴中市,市中心医院,,33,27,24,23,16,10,,,,14,11,7,8,0.6,0.5
2025-03-31T0500,2235A,122.7911,45.6077,白城市,洮北区环保局,细颗粒物(PM2.5),74,,30,54,24,50,,,,13,9,6,4,0.6,0.5
2025-03-31T0500,2236A,122.8738,45.5725,白城市,市环保局,,42,31,28,29,21,39,,,,15,7,6,6,0.5,0.4
2025-03-31T0500,2231A,126.4219,41.9171,白山市,喜丰,颗粒物(PM10),67,84,42,22,13,26,,,,33,18,13,8,1.0,0.8
2025-03-31T0500,2232A,126.4077,41.9419,白山市,环保局,,45,45,45,20,11,43,,,,20,14,21,4,0.6,0.5
2025-03-31T0500,2647A,104.1724,36.5446,白银市,第三小学,颗粒物(PM10),54,57,108,20,36,61,,,,23,22,10,57,0.8,0.8
2025-03-31T0500,2648A,104.1465,36.5482,白银市,动力公司,,28,28,93,18,34,69,,,,13,18,4,30,0.6,0.6
2025-03-31T0500,2512A,106.6103,23.9011,百色市,市监测站,,22,20,23,15,11,38,,,,15,12,13,14,0.5,0.5
2025-03-31T0500,2513A,106.6538,23.8859,百色市,市中心血站,,22,22,25,13,9,46,,,,11,12,17,13,0.6,0.6
2025-03-31T0500,3406A,106.6085,23.8798,百色市,祈福高中,,20,19,26,14,11,36,,,,20,14,9,9,0.6,0.5
2025-03-31T0500,2270A,117.396,32.939,蚌埠市,工人疗养院,颗粒物(PM10),59,68,100,36,40,80,,,,13,20,5,5,0.5,0.5
2025-03-31T0500,2271A,117.3605,32.9427,蚌埠市,百货大楼,颗粒物(PM10),61,71,104,36,40,78,,,,20,27,6,6,0.5,0.5
2025-03-31T0500,2273A,117.4185,32.8911,蚌埠市,蚌埠学院,颗粒物(PM10),62,73,99,37,40,69,,,,20,19,4,4,0.6,0.5
2025-03-31T0500,2274A,117.3533,32.9673,蚌埠市,淮上区政府,颗粒物(PM10),58,66,101,40,45,82,,,,14,20,6,6,0.4,0.3
2025-03-31T0500,2275A,117.3145,32.8977,蚌埠市,高新区,"颗粒物(PM10),细颗粒物(PM2.5)",54,58,103,38,45,73,,,,19,22,6,6,0.5,0.5
2025-03-31T0500,3715A,117.3092,32.9314,蚌埠市,蚌埠田家炳中学,颗粒物(PM10),60,70,114,37,47,77,,,,23,28,6,8,0.5,0.4
2025-03-31T0500,1585A,109.8756,40.6532,包头市,市环境监测站,,47,47,45,16,17,5,,,,66,42,10,14,0.4,0.5
2025-03-31T0500,1587A,109.9991,40.5842,包头市,包头八中,颗粒物(PM10),53,56,47,32,22,6,,,,63,44,15,10,0.9,0.6
2025-03-31T0500,1588A,109.8538,40.6821,包头市,青山宾馆,,43,36,43,30,23,13,,,,45,41,8,11,0.6,0.7
2025-03-31T0500,1589A,109.8642,40.6288,包头市,惠龙物流,,36,36,35,18,18,6,,,,69,38,8,13,0.7,0.7
2025-03-31T0500,1590A,110.0377,40.5546,包头市,东河鸿龙湾,,21,21,31,11,12,33,,,,35,28,8,9,0.6,0.6
2025-03-31T0500,3283A,109.9154,40.5685,包头市,滨河大厦,,32,32,28,15,22,15,,,,54,22,13,12,0.8,0.6
2025-03-31T0500,3419A,109.9447,40.6261,包头市,包头市委党校,,44,44,34,15,13,25,,,,42,34,8,11,0.8,0.8
2025-03-31T0500,3683A,109.8331,40.6576,包头市,昆区政府,颗粒物(PM10),54,58,36,30,24,8,,,,58,39,8,11,0.9,0.8
2025-03-31T0500,1930A,107.185,34.3063,宝鸡市,庙沟村,颗粒物(PM10),73,96,117,45,47,73,,,,15,21,6,7,0.4,0.4
2025-03-31T0500,1931A,107.0708,34.3017,宝鸡市,竹园沟,,,,,,,,,,,,,,,,
2025-03-31T0500,1932A,107.1906,34.3672,宝鸡市,三陆医院,颗粒物(PM10),76,102,132,50,64,35,,,,40,27,9,7,0.7,0.6
2025-03-31T0500,1933A,107.1431,34.3547,宝鸡市,监测站,颗粒物(PM10),81,112,138,46,50,44,,,,28,22,9,8,0.7,0.7
2025-03-31T0500,1934A,107.1186,34.3739,宝鸡市,技工学校,颗粒物(PM10),72,93,132,47,47,60,,,,14,19,6,6,0.5,0.5
2025-03-31T0500,1935A,107.3906,34.3528,宝鸡市,陈仓区环保局家属楼,颗粒物(PM10),82,114,129,57,51,49,,,,27,28,48,17,0.9,0.6
2025-03-31T0500,1936A,107.2058,34.3497,宝鸡市,文理学院,颗粒物(PM10),75,99,134,44,54,51,,,,24,23,7,7,0.5,0.5
2025-03-31T0500,1937A,107.2386,34.3622,宝鸡市,三迪小学,"颗粒物(PM10),细颗粒物(PM2.5)",74,97,141,54,62,42,,,,35,30,8,8,0.7,0.6
2025-03-31T0500,1051A,115.493,38.8632,保定市,游泳馆,"颗粒物(PM10),细颗粒物(PM2.5)",68,86,68,49,34,46,,,,40,33,5,3,0.5,0.4
2025-03-31T0500,1052A,115.5213,38.8959,保定市,华电二区,颗粒物(PM10),71,91,53,46,30,54,,,,21,18,5,3,0.6,0.4
2025-03-31T0500,1053A,115.4713,38.9108,保定市,接待中心,细颗粒物(PM2.5),79,94,61,58,37,40,,,,31,20,9,5,0.4,0.3
2025-03-31T0500,1054A,115.4612,38.8416,保定市,地表水厂,颗粒物(PM10),69,88,76,49,35,45,,,,38,32,9,4,0.5,0.4
2025-03-31T0500,3581A,115.31981,38.95208,保定市,满城区生态环境分局,细颗粒物(PM2.5),77,92,65,56,32,32,,,,44,30,4,3,0.4,0.3
2025-03-31T0500,3582A,115.47694,38.76408,保定市,清苑区第二中学,颗粒物(PM10),73,95,82,44,33,45,,,,33,28,8,4,0.4,0.4
2025-03-31T0500,3583A,115.62909,39.02311,保定市,徐水物探局,颗粒物(PM10),64,77,71,41,29,32,,,,47,30,6,4,0.2,0.3
2025-03-31T0500,4004A,115.4202,38.8656,保定市,双鹰农机,颗粒物(PM10),73,95,62,47,29,31,,,,52,30,12,5,0.5,0.4
2025-03-31T0500,4034A,115.5150,38.8590,保定市,植保所站,细颗粒物(PM2.5),75,82,68,55,39,49,,,,25,22,5,3,0.4,0.2
2025-03-31T0500,2594A,99.1678,25.1081,保山市,市环境监测站,细颗粒物(PM2.5),85,82,87,63,57,119,,,,8,13,5,4,0.5,0.6
2025-03-31T0500,2595A,99.1711,25.1328,保山市,市环保局,细颗粒物(PM2.5),98,85,91,73,59,139,,,,7,9,5,5,0.8,0.7
2025-03-31T0500,1866A,109.2262,21.588,北海市,牛尾岭水库,,,,10,11,9,26,,,,,8,6,6,0.7,0.7
2025-03-31T0500,1867A,109.1436,21.4086,北海市,海滩公园,,13,11,14,7,10,39,,,,9,10,5,5,0.5,0.5
2025-03-31T0500,1868A,109.0981,21.4661,北海市,新市环保局,,14,,14,9,14,42,,,,9,11,3,3,0.9,0.8
2025-03-31T0500,1869A,109.1778,21.5233,北海市,北海工业园,,18,,17,12,15,39,,,,9,11,7,9,0.6,0.6
2025-03-31T0500,3400A,109.1911,21.4415,北海市,龙潭自来水厂,,16,,15,11,12,37,,,,9,10,6,6,0.4,0.4
2025-03-31T0500,1001A,116.3621,39.8784,北京市,万寿西宫,颗粒物(PM10),65,79,60,31,25,6,,,,87,31,3,3,0.5,0.4
2025-03-31T0500,1002A,116.2202,40.2915,北京市,定陵,,,,,,,,,,,,,,,,
2025-03-31T0500,1003A,116.4174,39.9289,北京市,东四,颗粒物(PM10),71,91,56,44,26,4,,,,89,26,6,6,0.5,0.4
2025-03-31T0500,1004A,116.4072,39.8863,北京市,天坛,颗粒物(PM10),62,73,52,42,25,16,,,,53,26,3,2,0.6,0.6
2025-03-31T0500,1005A,116.462,39.9365,北京市,农展馆,颗粒物(PM10),73,95,57,44,25,2,,,,81,31,7,8,0.5,0.5
2025-03-31T0500,1006A,116.3392,39.9295,北京市,官园,颗粒物(PM10),74,98,58,49,25,2,,,,79,28,7,8,0.7,0.6
2025-03-31T0500,1007A,116.2878,39.9611,北京市,海淀万柳,颗粒物(PM10),71,92,57,37,21,3,,,,72,34,4,5,0.6,0.5
2025-03-31T0500,1008A,116.6636,40.135,北京市,顺义新城,颗粒物(PM10),65,80,55,34,22,12,,,,61,30,7,6,0.6,0.4
2025-03-31T0500,1009A,116.6275,40.3275,北京市,怀柔镇,,50,50,41,23,17,46,,,,12,16,3,4,0.4,0.4
2025-03-31T0500,1010A,116.2296,40.217,北京市,昌平镇,颗粒物(PM10),55,60,46,28,17,9,,,,64,26,1,2,0.6,0.6
2025-03-31T0500,1011A,116.3966,39.9821,北京市,奥体中心,颗粒物(PM10),113,175,75,42,21,2,,,,86,34,5,5,0.8,0.6
2025-03-31T0500,3281A,115.9718,40.4529,北京市,延庆夏都,,44,44,35,20,13,14,,,,42,24,5,6,0.5,0.5
2025-03-31T0500,3418A,116.8336,40.4095,北京市,密云新城,颗粒物(PM10),55,59,45,31,19,26,,,,37,22,3,4,0.6,0.6
2025-03-31T0500,3671A,116.088,39.9726,北京市,门头沟三家店,颗粒物(PM10),61,72,94,25,22,6,,,,62,44,5,5,0.4,0.4
2025-03-31T0500,3672A,116.1541,39.8204,北京市,丰台云岗,颗粒物(PM10),64,78,66,26,27,9,,,,75,36,4,5,0.4,0.4
2025-03-31T0500,3673A,116.6804,39.9081,北京市,通州东关,颗粒物(PM10),67,83,59,43,25,7,,,,72,38,5,6,0.7,0.5
2025-03-31T0500,3674A,115.9577,39.7603,北京市,房山燕山,,41,41,44,19,17,56,,,,14,21,4,5,0.3,0.3
2025-03-31T0500,3675A,116.4672,39.7733,北京市,大兴旧宫,颗粒物(PM10),71,92,59,42,24,21,,,,44,25,3,2,0.3,0.4
2025-03-31T0500,3694A,115.986,40.4563,北京市,延庆石河营,,43,43,35,19,14,9,,,,41,25,4,5,0.4,0.4
2025-03-31T0500,3695A,116.6151,40.3053,北京市,怀柔新城,颗粒物(PM10),54,57,41,26,16,45,,,,15,13,6,5,0.6,0.5
2025-03-31T0500,3696A,116.2545,39.8768,北京市,丰台小屯,颗粒物(PM10),68,86,61,39,27,2,,,,83,41,2,3,0.6,0.5
2025-03-31T0500,3697A,116.84,40.3844,北京市,密云镇,颗粒物(PM10),65,80,48,32,18,4,,,,59,29,5,5,0.6,0.5
2025-03-31T0500,4182A,116.1942,39.9158,北京市,八角北路9号,颗粒物(PM10),75,99,66,35,22,6,,,,66,29,1,2,0.3,0.2
2025-03-31T0500,4194A,117.0790,40.1518,北京市,洳河巡河路,颗粒物(PM10),54,57,40,35,19,54,,,,21,18,5,4,0.6,0.5
2025-03-31T0500,1761A,123.8275,41.3064,本溪市,大峪,,31,31,33,16,21,80,,,,8,12,9,11,0.6,0.8
2025-03-31T0500,1762A,123.7567,41.3325,本溪市,溪湖,,34,34,37,17,21,82,,,,17,21,7,10,0.6,0.7
2025-03-31T0500,1763A,123.7169,41.3094,本溪市,彩屯,,50,50,42,23,23,56,,,,41,28,25,13,3.1,1.2
2025-03-31T0500,1764A,123.7669,41.2864,本溪市,东明,,46,46,39,17,18,82,,,,12,16,8,11,0.5,0.7
2025-03-31T0500,1765A,123.7992,41.2664,本溪市,新立屯,,35,35,31,15,16,88,,,,11,19,7,9,0.5,0.6
2025-03-31T0500,1766A,123.8142,41.3472,本溪市,威宁,颗粒物(PM10),60,70,49,22,21,52,,,,20,18,5,6,0.6,0.6
2025-03-31T0500,2587A,105.2864,27.3125,毕节市,八中,,19,11,18,11,14,59,,,,4,7,7,8,0.5,0.5
2025-03-31T0500,2588A,105.31,27.2944,毕节市,师专,,20,15,15,14,12,61,,,,6,10,5,5,0.5,0.5
2025-03-31T0500,4263A,105.3688,27.3598,毕节市,工业大道,,18,14,13,11,9,57,,,,7,9,7,7,0.2,0.3
2025-03-31T0500,1629A,118.0018,37.3617,滨州市,第二水厂,颗粒物(PM10),86,122,81,58,35,4,,,,81,35,17,12,0.9,0.6
2025-03-31T0500,1630A,117.9776,37.393,滨州市,北中新校,,,,,,,,,,,,,,,,
2025-03-31T0500,3514A,117.9378,37.3956,滨州市,中海酒店,细颗粒物(PM2.5),62,70,72,44,41,80,,,,22,27,14,11,0.5,0.5
2025-03-31T0500,3515A,117.9378,37.3553,滨州市,开发区一中,颗粒物(PM10),80,110,81,56,35,30,,,,73,38,19,12,0.5,0.4
2025-03-31T0500,3516A,118.0917,37.694,滨州市,金海六路,颗粒物(PM10),76,102,71,48,37,22,,,,73,35,13,14,1.1,0.8
2025-03-31T0500,4028A,117.9956,37.3753,滨州市,滨州市西街道办事处,细颗粒物(PM2.5),98,110,74,73,43,20,,,,64,31,14,10,0.8,0.6
2025-03-31T0500,2311A,115.8072,33.8399,亳州市,污水处理厂,颗粒物(PM10),82,114,93,52,33,86,,,,17,19,4,4,0.4,0.3
2025-03-31T0500,2312A,115.7789,33.8518,亳州市,三国揽胜宫,颗粒物(PM10),86,122,93,46,33,79,,,,15,13,5,5,0.4,0.3
2025-03-31T0500,3332A,115.7633,33.8034,亳州市,亳州学院,颗粒物(PM10),83,116,95,44,34,73,,,,15,12,6,6,0.5,0.4
2025-03-31T0500,2693A,82.0485,44.8556,博尔塔拉蒙古自治州,市党校,颗粒物(PM10),60,70,70,19,26,60,,,,18,27,1,2,0.1,0.2
2025-03-31T0500,2694A,82.0806,44.8969,博尔塔拉蒙古自治州,市环保局,,,,69,,16,,,54,,,20,,4,,0.9
2025-03-31T0500,1071A,116.8842,38.2991,沧州市,沧县城建局,细颗粒物(PM2.5),73,94,70,53,38,50,,,,22,22,4,4,0.4,0.3
2025-03-31T0500,1072A,116.8584,38.3254,沧州市,电视转播站,细颗粒物(PM2.5),67,73,61,48,37,65,,,,22,22,7,7,0.4,0.4
2025-03-31T0500,1073A,116.8709,38.3228,沧州市,市环保局,颗粒物(PM10),70,89,67,49,37,51,,,,22,22,11,11,0.4,0.4
2025-03-31T0500,3324A,116.8136,38.3004,沧州市,河北水利电力学院,细颗粒物(PM2.5),82,97,81,60,42,43,,,,30,27,5,5,0.4,0.3
2025-03-31T0500,2622A,97.1806,31.1273,昌都市,昌都监测站,,47,6,16,3,8,150,,,,1,6,7,7,0.2,0.2
2025-03-31T0500,3719A,97.1714,31.1406,昌都市,昌都会议中心,,41,6,17,3,9,130,,,,5,7,3,3,0.3,0.3
2025-03-31T0500,2690A,88.1236,43.8886,昌吉回族自治州,天山天池,,44,44,54,12,15,77,,,,9,12,3,4,0.5,0.6
2025-03-31T0500,2692A,87.2717,44.0297,昌吉回族自治州,新区政务中心,颗粒物(PM10),57,63,82,20,25,59,,,,11,20,6,10,0.7,0.7
2025-03-31T0500,3613A,87.3095,44.0142,昌吉回族自治州,亚心广场,颗粒物(PM10),68,85,98,31,34,51,,,,18,18,7,8,0.6,0.6
2025-03-31T0500,1119A,125.3325,43.9166,长春市,食品厂,,42,42,41,25,28,62,,,,26,15,14,8,0.4,0.3
2025-03-31T0500,1120A,125.2863,43.9027,长春市,客车厂,,48,46,41,33,29,62,,,,24,16,12,7,0.6,0.5
2025-03-31T0500,1121A,125.2841,43.8463,长春市,邮电学院,细颗粒物(PM2.5),69,51,43,50,26,68,,,,16,10,13,10,0.5,0.3
2025-03-31T0500,1122A,125.3716,43.8772,长春市,劳动公园,,47,47,49,26,29,65,,,,16,9,9,8,0.2,0.2
2025-03-31T0500,1123A,125.3297,43.8805,长春市,园林处,,44,44,39,30,23,69,,,,19,10,14,8,0.3,0.2
2025-03-31T0500,1124A,125.4605,43.79,长春市,净月潭,,45,45,41,28,24,70,,,,9,8,8,7,0.6,0.4
2025-03-31T0500,1125A,125.7194,43.515,长春市,甩湾子,,32,24,41,22,26,78,,,,6,6,4,3,0.5,0.4
2025-03-31T0500,1126A,125.3863,43.8447,长春市,经开区环卫处,,44,44,43,26,23,60,,,,16,12,6,6,0.3,0.3
2025-03-31T0500,1127A,125.245,43.7783,长春市,高新区管委会,,38,32,39,26,30,61,,,,19,11,11,8,0.5,0.3
2025-03-31T0500,1128A,125.1761,43.8325,长春市,岱山公园,,47,47,37,28,26,68,,,,17,17,11,7,0.6,0.4
2025-03-31T0500,1335A,113.0833,28.2325,长沙市,经开区环保局,颗粒物(PM10),65,80,45,43,26,48,,,,21,18,5,3,0.4,0.3
2025-03-31T0500,1336A,112.8872,28.2189,长沙市,高开区环保局,,,76,46,44,27,,,,,22,14,7,4,0.5,0.4
2025-03-31T0500,1337A,113.0792,28.2053,长沙市,马坡岭,"颗粒物(PM10),细颗粒物(PM2.5)",67,84,44,48,26,40,,,,20,13,8,5,0.5,0.5
2025-03-31T0500,1338A,112.9394,28.19,长沙市,湖南师范大学,颗粒物(PM10),65,79,43,39,25,52,,,,16,15,7,4,0.5,0.4
2025-03-31T0500,1339A,113.0178,28.1322,长沙市,雨花区环保局,细颗粒物(PM2.5),65,73,40,47,26,31,,,,27,19,6,5,0.5,0.4
2025-03-31T0500,1340A,112.9792,28.2597,长沙市,伍家岭,颗粒物(PM10),68,86,50,48,26,35,,,,25,16,5,3,0.5,0.4
2025-03-31T0500,1341A,113.0014,28.1944,长沙市,火车新站,"颗粒物(PM10),细颗粒物(PM2.5)",64,78,44,46,26,48,,,,23,20,8,6,0.5,0.4
2025-03-31T0500,1342A,112.9844,28.1178,长沙市,天心区环保局,颗粒物(PM10),65,80,40,43,26,47,,,,21,18,4,2,0.8,0.7
2025-03-31T0500,1343A,112.8908,28.1308,长沙市,湖南中医药大学,颗粒物(PM10),63,75,43,35,24,42,,,,14,16,5,3,0.5,0.5
2025-03-31T0500,1344A,112.9581,28.3611,长沙市,沙坪,"颗粒物(PM10),细颗粒物(PM2.5)",57,64,45,40,27,53,,,,10,9,5,5,0.3,0.3
2025-03-31T0500,1727A,113.1147,36.1547,长治市,清华站,,41,41,39,22,15,55,,,,29,17,8,8,0.7,0.6
2025-03-31T0500,1730A,113.0886,36.2125,长治市,审计局,,44,44,36,22,16,79,,,,17,18,11,10,0.4,0.4
2025-03-31T0500,1731A,113.0844,36.1856,长治市,长治八中,颗粒物(PM10),52,54,49,27,23,87,,,,16,19,11,11,0.6,0.5
2025-03-31T0500,2845A,113.1569,36.1911,长治市,德盛苑,,46,46,34,24,17,88,,,,13,12,9,7,0.7,0.6
2025-03-31T0500,3568A,113.06,36.0464,长治市,向阳小学,颗粒物(PM10),53,56,54,23,15,75,,,,13,16,9,11,0.4,0.4
2025-03-31T0500,3569A,112.8792,36.3144,长治市,屯留一中,,48,48,37,17,15,21,,,,60,26,6,7,0.5,0.5
2025-03-31T0500,4189A,113.1131,36.19948,长治市,英华南巷50号,颗粒物(PM10),51,52,41,31,18,75,,,,19,18,16,13,1.1,0.8
2025-03-31T0500,4190A,113.2367,36.3344,长治市,学府街1号,颗粒物(PM10),53,55,50,31,22,39,,,,37,25,6,10,0.8,0.8
2025-03-31T0500,1854A,111.6975,28.9703,常德市,市二中,,46,46,52,30,27,24,,,,12,13,4,4,0.4,0.3
2025-03-31T0500,1857A,111.7158,29.1456,常德市,白鹤山,,,,,,,,,,,,,,,,
2025-03-31T0500,3138A,111.7153,29.0289,常德市,武陵区永安,颗粒物(PM10),54,58,58,35,30,47,,,,19,16,3,3,0.6,0.5
2025-03-31T0500,3139A,111.6892,28.9881,常德市,鼎城区玉霞,细颗粒物(PM2.5),52,47,53,36,29,33,,,,18,15,4,5,0.4,0.3
2025-03-31T0500,3140A,111.6625,29.0531,常德市,武陵区长庚,颗粒物(PM10),54,58,58,33,28,40,,,,19,12,5,4,0.5,0.4
2025-03-31T0500,1196A,119.9633,31.762,常州市,市监测站,,32,31,54,22,25,78,,,,7,15,6,7,0.8,0.6
2025-03-31T0500,1200A,119.9468,31.7069,常州市,武进监测站,,30,30,49,12,21,74,,,,24,26,15,15,0.3,0.4
2025-03-31T0500,1201A,119.9255,31.9087,常州市,安家,,35,35,45,17,23,44,,,,31,22,6,7,0.5,2.6
2025-03-31T0500,3002A,119.9805,31.8174,常州市,行政中心,,29,29,40,11,19,73,,,,26,27,7,7,0.4,0.5
2025-03-31T0500,3003A,120.0522,31.7748,常州市,经开区,,45,45,53,15,19,48,,,,48,28,11,10,0.4,0.5
2025-03-31T0500,3010A,119.9025,31.7964,常州市,钟楼,,30,30,52,10,21,78,,,,19,23,6,8,0.7,0.8
2025-03-31T0500,3429A,119.8598,31.7066,常州市,武进经发区,,25,25,52,10,25,72,,,,26,27,7,7,0.5,0.6
2025-03-31T0500,3430A,119.5826,31.7245,常州市,金坛城区,,33,33,57,17,30,64,,,,25,20,8,8,0.6,0.7
2025-03-31T0500,2220A,120.4318,41.5881,朝阳市,西梁,颗粒物(PM10),54,57,41,30,17,18,,,,32,14,10,11,1.1,0.8
2025-03-31T0500,2221A,120.4521,41.5646,朝阳市,河畔小区,,47,47,36,24,15,31,,,,28,10,6,8,1.0,0.8
2025-03-31T0500,2222A,120.4176,41.5648,朝阳市,八里堡,,46,46,41,31,16,17,,,,38,15,7,8,1.1,0.7
2025-03-31T0500,2223A,120.3806,41.5969,朝阳市,农业园区,,43,43,45,24,22,50,,,,18,17,9,10,0.8,0.6
2025-03-31T0500,1705A,116.6367,23.6719,潮州市,西园路,,,,,,,,,,,,,,,,
2025-03-31T0500,3026A,116.6183,23.6608,潮州市,市政府,,7,,5,3,3,21,,,,9,12,3,3,0.5,0.6
2025-03-31T0500,4036A,116.6461,23.6761,潮州市,金山,,,,5,,3,,,21,,,12,,6,,0.5
2025-03-31T0500,2472A,113.0073,25.9061,郴州市,马头岭,,31,31,17,18,9,42,,,,6,7,8,7,0.6,0.6
2025-03-31T0500,2473A,113.0116,25.8226,郴州市,市职中,,23,16,11,16,8,46,,,,9,9,4,4,0.5,0.5
2025-03-31T0500,2475A,113.0383,25.8071,郴州市,市审计局,,19,15,12,13,9,53,,,,8,10,4,4,0.6,0.7
2025-03-31T0500,2476A,113.0348,25.7759,郴州市,市环保局,,26,18,15,18,12,50,,,,5,9,5,5,0.4,0.4
2025-03-31T0500,4252A,113.0138,25.8011,郴州市,好美居路49号,,23,18,13,16,11,56,,,,8,10,6,6,0.4,0.5
2025-03-31T0500,1431A,103.9728,30.7236,成都市,金泉两河,,40,40,61,24,24,42,,,,11,21,1,2,0.6,0.6
2025-03-31T0500,1432A,104.176,30.6872,成都市,十里店,,28,28,36,19,16,44,,,,18,19,2,3,0.5,0.5
2025-03-31T0500,1433A,104.079,30.5706,成都市,三瓦窑,,35,35,44,18,20,39,,,,28,29,3,3,0.7,0.7
2025-03-31T0500,1434A,104.1114,30.63,成都市,沙河铺,,30,30,44,21,22,36,,,,14,20,4,5,0.5,0.5
2025-03-31T0500,1437A,104.0786,30.6531,成都市,君平街,,28,28,45,19,23,48,,,,18,26,6,6,0.8,0.7
2025-03-31T0500,1438A,103.613,31.0283,成都市,灵岩寺,,,,,,,,,,,,,,,,
2025-03-31T0500,2880A,104.0239,30.65639,成都市,大石西路,,50,40,50,35,25,44,,,,18,26,3,4,0.7,0.8
2025-03-31T0500,3136A,104.2725,30.5589,成都市,龙泉驿区区政府,,20,17,20,14,13,39,,,,13,13,4,4,0.7,0.7
2025-03-31T0500,3357A,104.0106,30.6931,成都市,金博路,,19,19,42,10,17,32,,,,18,22,5,5,0.5,0.5
2025-03-31T0500,3359A,104.0578,30.5225,成都市,华阳,,35,24,38,24,28,36,,,,22,24,4,5,0.4,0.6
2025-03-31T0500,3488A,104.3853,30.7453,成都市,青白江技师分院,,32,32,29,13,14,34,,,,20,19,5,5,0.8,0.7
2025-03-31T0500,3489A,104.0789,30.4072,成都市,科学城,,35,32,39,24,21,37,,,,18,16,4,4,0.5,0.5
2025-03-31T0500,4011A,103.8506,30.6947,成都市,光华大道三段,,27,27,55,10,27,55,,,,14,23,4,4,0.7,0.7
2025-03-31T0500,4224A,104.2433,30.5353,成都市,鲸龙路1057号,,23,22,33,16,18,47,,,,15,19,3,4,0.7,0.6
2025-03-31T0500,1062A,117.9531,40.9081,承德市,铁路,,45,45,30,19,11,23,,,,37,26,6,6,0.5,0.4
2025-03-31T0500,1063A,117.9392,40.9763,承德市,中国银行,颗粒物(PM10),54,58,33,16,13,29,,,,25,17,3,5,0.5,0.5
2025-03-31T0500,1064A,117.9503,40.928,承德市,开发区,,44,44,34,27,16,22,,,,36,17,5,5,0.6,0.4
2025-03-31T0500,1065A,117.8051,40.9655,承德市,文化中心,颗粒物(PM10),63,76,49,20,13,31,,,,36,24,7,7,0.3,0.6
2025-03-31T0500,1066A,117.9268,41.0026,承德市,离宫,,48,48,28,21,16,35,,,,17,10,13,13,0.4,0.4
2025-03-31T0500,2314A,117.47,30.6618,池州市,池州学院,颗粒物(PM10),58,65,103,37,44,33,,,,24,14,5,5,0.6,0.4
2025-03-31T0500,3237A,117.4918,30.6617,池州市,展览馆,颗粒物(PM10),55,60,93,37,43,30,,,,25,15,4,5,0.8,0.5
2025-03-31T0500,3333A,117.5627,30.695,池州市,第八中学,颗粒物(PM10),59,68,99,39,43,34,,,,19,13,4,5,1.3,0.7
2025-03-31T0500,3334A,117.5038,30.6243,池州市,第十二中学,颗粒物(PM10),55,59,93,36,40,18,,,,27,18,4,6,1.1,0.7
2025-03-31T0500,1744A,118.9233,42.2816,赤峰市,松山一中,,37,37,25,13,8,17,,,,40,26,8,10,0.7,0.6
2025-03-31T0500,1745A,118.9576,42.2728,赤峰市,哈达街,,29,29,21,18,12,26,,,,30,19,6,7,0.8,0.5
2025-03-31T0500,1746A,118.8788,42.2554,赤峰市,天义路,,32,32,29,14,10,22,,,,36,19,7,8,0.5,0.4
2025-03-31T0500,3058A,119.2658,42.0353,赤峰市,银河街,细颗粒物(PM2.5),54,48,41,38,20,25,,,,29,21,18,20,0.7,0.4
2025-03-31T0500,3286A,118.9359,42.3147,赤峰市,桥北物流园区,,30,23,18,21,14,12,,,,47,26,8,8,0.7,0.6
2025-03-31T0500,2521A,107.3476,22.4136,崇左市,市环保局江州分局,,20,20,19,10,9,44,,,,8,11,5,5,0.4,0.4
2025-03-31T0500,4256A,107.3750,22.3736,崇左市,石景林东路7号,,18,18,20,6,6,50,,,,9,11,4,5,0.4,0.4
2025-03-31T0500,2298A,118.3093,32.3153,滁州市,老年大学,颗粒物(PM10),52,53,80,25,37,72,,,,19,21,6,4,1.0,0.6
2025-03-31T0500,2299A,118.3244,32.2786,滁州市,人大宾馆,,42,42,81,18,40,72,,,,20,21,12,9,1.0,0.6
2025-03-31T0500,3207A,118.3118,32.3038,滁州市,市政府原办公楼,,39,39,73,23,36,76,,,,22,22,11,5,0.8,0.4
2025-03-31T0500,3331A,118.3267,32.2634,滁州市,图书馆,,47,47,84,27,42,76,,,,26,27,11,7,1.0,0.5
2025-03-31T0500,2605A,101.5482,25.0441,楚雄彝族自治州,州环境监测站,细颗粒物(PM2.5),69,54,76,50,61,77,,,,34,17,10,10,0.6,0.7
2025-03-31T0500,2606A,101.538,25.0492,楚雄彝族自治州,市经济开发区,细颗粒物(PM2.5),65,59,80,47,60,94,,,,20,15,10,8,0.6,0.8
2025-03-31T0500,2548A,107.5277,31.2827,达州市,达州职业技术学院,,28,28,41,12,16,3,,,,22,21,5,5,0.3,0.3
2025-03-31T0500,2549A,107.5086,31.2186,达州市,市环境监测站,,29,29,39,7,12,5,,,,30,26,4,4,0.4,0.5
2025-03-31T0500,2550A,107.4988,31.2132,达州市,凤凰小区,,31,31,39,19,18,12,,,,28,25,5,6,0.3,0.4
2025-03-31T0500,2551A,107.5082,31.1986,达州市,达县机关宾馆,,34,34,39,19,15,4,,,,30,27,4,4,0.3,0.3
2025-03-31T0500,2552A,107.4644,31.2124,达州市,市政中心,,47,47,41,12,13,10,,,,35,24,3,2,0.5,0.4
2025-03-31T0500,2614A,100.1542,25.7054,大理白族自治州,大理市环境监测站,细颗粒物(PM2.5),58,57,78,41,51,121,,,,6,10,8,8,0.7,0.8
2025-03-31T0500,2615A,100.2171,25.5811,大理白族自治州,大理古城,,,49,73,44,51,121,,,,,9,8,8,0.5,0.6
2025-03-31T0500,1109A,121.612,38.9741,大连市,甘井子,,35,35,36,24,17,78,,,,27,22,9,7,0.2,0.2
2025-03-31T0500,1110A,121.565,38.9511,大连市,周水子,,40,37,37,28,21,72,,,,28,26,9,9,0.6,0.4
2025-03-31T0500,1111A,121.5637,38.8845,大连市,星海三站,,34,34,33,20,17,81,,,,13,14,7,8,0.5,0.5
2025-03-31T0500,1112A,121.6302,38.9117,大连市,青泥洼桥,颗粒物(PM10),53,55,36,30,17,76,,,,25,18,10,9,0.7,0.5
2025-03-31T0500,1113A,121.6251,38.8638,大连市,傅家庄,,37,37,30,24,16,73,,,,26,19,10,10,0.3,0.3
2025-03-31T0500,1114A,121.5213,38.8661,大连市,七贤岭,,44,44,36,25,17,70,,,,22,18,7,7,0.4,0.4
2025-03-31T0500,1115A,121.2529,38.8061,大连市,旅顺,细颗粒物(PM2.5),53,45,28,37,18,74,,,,18,14,8,9,0.6,0.5
2025-03-31T0500,1116A,121.7485,39.1311,大连市,金州,,36,36,34,19,15,82,,,,26,19,11,9,0.4,0.4
2025-03-31T0500,1117A,121.7811,39.0496,大连市,开发区,,35,35,37,22,17,70,,,,27,20,7,7,0.5,0.5
2025-03-31T0500,1118A,121.9762,39.0631,大连市,双D港,,41,41,33,22,15,72,,,,25,17,8,8,0.6,0.5
2025-03-31T0500,1789A,124.81117,46.03138,大庆市,大同区,,43,42,31,30,24,56,,,,13,7,6,4,0.4,0.4
2025-03-31T0500,1790A,125.129,46.533,大庆市,龙凤区,,32,30,35,22,18,41,,,,12,9,6,6,0.5,0.4
2025-03-31T0500,1791A,124.902,46.408,大庆市,红岗区,,29,29,23,18,17,42,,,,14,7,4,4,0.4,0.3
2025-03-31T0500,1792A,125.153,46.586,大庆市,萨尔图区,,40,40,33,23,16,44,,,,16,11,6,7,0.6,0.4
2025-03-31T0500,1793A,124.9042,46.6215,大庆市,让胡路区,,40,30,24,28,20,48,,,,9,7,5,5,0.2,0.2
2025-03-31T0500,3481A,125.141,46.634,大庆市,萨区政府监测点,,35,35,27,14,9,42,,,,19,7,13,6,0.4,0.3
2025-03-31T0500,1721A,113.3819,40.1097,大同市,果树场,,49,49,43,24,22,23,,,,23,30,9,11,1.0,0.8
2025-03-31T0500,1723A,113.2994,40.0758,大同市,云冈宾馆,颗粒物(PM10),59,67,36,24,12,13,,,,48,23,10,12,1.0,0.8
2025-03-31T0500,1724A,113.3444,40.0917,大同市,大同大学,颗粒物(PM10),59,68,38,26,17,14,,,,41,27,18,18,0.7,0.6
2025-03-31T0500,1725A,113.2661,40.1269,大同市,安家小村,,,,42,28,13,29,,,,35,17,22,12,6.4,1.3
2025-03-31T0500,1726A,113.2711,40.0844,大同市,教育学院,颗粒物(PM10),51,52,33,22,13,55,,,,23,21,41,12,0.7,0.6
2025-03-31T0500,3282A,113.3397,40.0597,大同市,大同市卫生学校,颗粒物(PM10),63,75,46,32,17,3,,,,65,28,10,10,0.7,0.5
2025-03-31T0500,3565A,113.1367,40.1122,大同市,云冈站,颗粒物(PM10),60,70,37,29,13,30,,,,30,21,37,18,0.5,0.4
2025-03-31T0500,3566A,113.1186,40.2556,大同市,图书馆,颗粒物(PM10),58,65,40,16,15,37,,,,10,11,8,9,0.3,0.3
2025-03-31T0500,3567A,113.5931,40.0461,大同市,区一中,颗粒物(PM10),56,61,48,33,17,21,,,,28,17,22,22,0.9,0.7
2025-03-31T0500,4199A,113.2798,40.0997,大同市,魏都大道141号,颗粒物(PM10),62,74,44,22,16,20,,,,51,30,15,14,1.4,0.6
2025-03-31T0500,2269A,124.1069,50.4097,大兴安岭地区,科技局,,29,25,22,20,17,56,,,,3,4,6,7,0.4,0.3
2025-03-31T0500,3663A,124.1164,50.4278,大兴安岭地区,红旗社区,,22,,15,15,11,15,,,,36,12,4,5,0.5,0.4
2025-03-31T0500,1600A,124.3303,40.0625,丹东市,江湾东路,,32,32,38,11,18,81,,,,5,12,8,11,0.5,0.6
2025-03-31T0500,1601A,124.4256,40.1503,丹东市,临江后街,,43,43,42,21,19,57,,,,14,16,9,11,1.0,0.9
2025-03-31T0500,1602A,124.3933,40.1461,丹东市,元宝山,,32,32,31,15,15,69,,,,12,14,10,8,0.9,0.6
2025-03-31T0500,1603A,124.3633,40.1092,丹东市,民主桥,,33,33,39,10,15,73,,,,8,15,8,12,0.6,0.7
2025-03-31T0500,3541A,109.5726,19.5167,儋州市,第一中学子站,,9,6,8,3,3,26,,,,8,9,4,4,0.7,0.7
2025-03-31T0500,3542A,109.5567,19.5187,儋州市,东坡学校子站,,9,6,11,3,6,27,,,,9,10,5,5,0.7,0.7
2025-03-31T0500,2616A,98.5842,24.428,德宏傣族景颇族自治州,德宏州监测站,细颗粒物(PM2.5),122,111,130,92,97,35,,,,46,35,8,10,1.0,1.1
2025-03-31T0500,3677A,98.5881,24.4368,德宏傣族景颇族自治州,芒市人民政府综合楼,细颗粒物(PM2.5),119,125,152,90,97,77,,,,17,22,9,10,1.0,1
2025-03-31T0500,1901A,104.4239,31.1208,德阳市,东山公园,,46,35,31,32,21,43,,,,20,14,2,2,0.5,0.4
2025-03-31T0500,1902A,104.3826,31.1317,德阳市,西小区,细颗粒物(PM2.5),62,48,38,44,25,49,,,,16,17,3,3,0.5,0.4
2025-03-31T0500,1904A,104.3553,31.1091,德阳市,耐火材料厂,,48,44,37,33,24,47,,,,16,18,4,4,0.4,0.3
2025-03-31T0500,3639A,104.4019,31.1244,德阳市,市教育局,细颗粒物(PM2.5),55,43,31,39,24,51,,,,17,18,3,3,0.4,0.4
2025-03-31T0500,1622A,116.3032,37.4674,德州市,儿童乐园,,,,74,41,30,60,,,,29,21,8,7,0.7,0.6
2025-03-31T0500,1624A,116.2991,37.4451,德州市,监理站,颗粒物(PM10),69,88,69,46,33,62,,,,24,20,10,8,0.4,0.3
2025-03-31T0500,3066A,116.2721,37.4379,德州市,九衢泉纯净水厂,颗粒物(PM10),70,90,71,41,32,50,,,,34,32,7,9,0.5,0.4
2025-03-31T0500,3371A,116.3728,37.4403,德州市,开发区人民医院,颗粒物(PM10),70,90,77,39,31,62,,,,20,22,9,7,0.6,0.5
2025-03-31T0500,3372A,116.3572,37.4094,德州市,太阳城中学,颗粒物(PM10),69,88,79,46,38,59,,,,21,22,8,6,0.5,0.5
2025-03-31T0500,3511A,116.5652,37.3319,德州市,陵城艺术中心,颗粒物(PM10),69,88,72,39,33,55,,,,29,26,14,14,0.8,0.6
2025-03-31T0500,2621A,99.7056,27.8317,迪庆藏族自治州,迪庆州站,,49,49,78,24,44,117,,,,7,11,9,8,0.5,0.7
2025-03-31T0500,3180A,99.7136,27.8094,迪庆藏族自治州,质量技术监督局,,39,39,61,25,43,120,,,,7,12,9,9,0.7,0.9
2025-03-31T0500,4257A,104.6092,35.5962,定西市,将台街,颗粒物(PM10),81,112,116,42,33,46,,,,24,17,5,7,0.3,0.4
2025-03-31T0500,4309A,104.6159,35.5701,定西市,正龙路62号,颗粒物(PM10),90,130,121,43,39,52,,,,20,10,13,10,0.6,0.7
2025-03-31T0500,1389A,113.7547,23.0494,东莞市,莞城梨川,,9,6,8,3,5,28,,,,10,13,3,3,0.5,0.5
2025-03-31T0500,1390A,113.7944,23.0128,东莞市,东城石井,,9,6,7,3,3,27,,,,13,14,5,5,0.5,0.5
2025-03-31T0500,1391A,113.7383,22.9658,东莞市,南城西平,,10,7,8,3,3,21,,,,20,21,6,6,0.7,0.7
2025-03-31T0500,3319A,113.7338,23.0381,东莞市,万江金泰,,9,6,6,3,3,26,,,,8,7,3,2,0.9,0.9
2025-03-31T0500,3626A,113.7533,23.0202,东莞市,南城元岭,,9,6,6,3,4,28,,,,8,10,5,5,0.6,0.6
2025-03-31T0500,3627A,113.7875,23.0457,东莞市,东城主山,,9,6,5,3,3,26,,,,14,15,6,6,0.6,0.6
2025-03-31T0500,1666A,118.6614,37.4309,东营市,市环保局,颗粒物(PM10),79,107,73,44,31,45,,,,47,35,16,11,0.8,0.6
2025-03-31T0500,3036A,118.6904,37.4338,东营市,开发区管委会,颗粒物(PM10),81,112,80,58,38,31,,,,58,40,10,10,0.9,0.7
2025-03-31T0500,3365A,118.5719,37.565,东营市,垦利区民丰路,颗粒物(PM10),76,102,68,51,34,37,,,,31,24,13,13,0.9,0.7
2025-03-31T0500,3498A,118.5055,37.8612,东营市,河口城区,颗粒物(PM10),81,112,69,54,27,41,,,,36,26,9,8,1.2,0.8
2025-03-31T0500,3646A,118.4978,37.4623,东营市,胜利站,颗粒物(PM10),87,123,79,53,36,28,,,,68,39,14,13,0.8,0.6
2025-03-31T0500,3734A,118.35,37.26,东营市,理想之城,细颗粒物(PM2.5),85,117,79,63,34,24,,,,58,41,8,9,0.7,0.5
2025-03-31T0500,1591A,110.0023,39.8129,鄂尔多斯市,综合楼,,27,9,24,3,7,86,,,,8,21,7,13,0.2,0.4
2025-03-31T0500,1592A,109.9486,39.8261,鄂尔多斯市,巴音孟克林场办事处,,28,12,19,3,8,88,,,,7,18,6,9,0.2,0.4
2025-03-31T0500,1593A,109.7736,39.5986,鄂尔多斯市,康泽苑,,22,22,20,9,8,63,,,,12,12,3,3,0.3,0.3
2025-03-31T0500,1594A,109.8119,39.5989,鄂尔多斯市,华泰汽车城,,27,27,23,9,11,29,,,,24,20,3,4,0.3,0.3
2025-03-31T0500,1595A,109.9734,39.7884,鄂尔多斯市,奥林花园,,28,22,28,12,10,69,,,,25,31,82,15,1.3,0.6
2025-03-31T0500,2436A,114.8938,30.3994,鄂州市,市政府,颗粒物(PM10),73,95,90,45,40,43,,,,25,14,23,6,1.0,0.6
2025-03-31T0500,2437A,114.8989,30.3714,鄂州市,赵家坝,颗粒物(PM10),68,86,99,45,39,31,,,,35,24,7,4,0.7,0.4
2025-03-31T0500,3654A,114.8094,30.4089,鄂州市,精准医疗中心,颗粒物(PM10),70,90,99,39,42,59,,,,29,25,5,6,0.8,0.6
2025-03-31T0500,2454A,109.4978,30.2981,恩施土家族苗族自治州,湖北民院,,40,40,51,25,24,37,,,,15,8,2,2,0.2,0.3
2025-03-31T0500,2455A,109.4707,30.2798,恩施土家族苗族自治州,州电力总公司,,41,41,45,26,23,18,,,,17,18,5,5,0.1,0.2
2025-03-31T0500,3549A,109.5061,30.3772,恩施土家族苗族自治州,龙凤新区,,33,33,42,17,18,17,,,,8,10,7,6,0.3,0.3
2025-03-31T0500,2499A,108.3411,21.6158,防城港市,沙万,,16,,13,11,8,48,,,,10,12,7,7,0.3,0.3
2025-03-31T0500,2500A,108.3514,21.7731,防城港市,防城档案局,,32,32,21,11,7,40,,,,12,11,1,1,0.4,0.4
2025-03-31T0500,2501A,108.3506,21.6414,防城港市,大海花园,,20,14,15,14,10,49,,,,7,9,5,5,0.7,0.7
2025-03-31T0500,1371A,113.1294,23.0067,佛山市,湾梁,,10,7,13,3,4,28,,,,20,22,6,6,0.9,0.8
2025-03-31T0500,1372A,113.1083,23.0478,佛山市,华材职中,,19,19,17,13,10,25,,,,23,27,5,5,0.5,0.5
2025-03-31T0500,1373A,113.144,23.0453,佛山市,南海气象局,,10,7,10,3,6,24,,,,19,22,4,4,0.6,0.6
2025-03-31T0500,1374A,113.2881,22.8094,佛山市,顺德苏岗,,8,6,11,3,3,24,,,,16,21,5,5,0.6,0.6
2025-03-31T0500,1376A,112.8383,22.8678,佛山市,高明孔堂,,15,14,18,10,8,29,,,,13,16,6,7,0.7,0.6
2025-03-31T0500,1377A,112.8836,23.1588,佛山市,三水监测站,,16,,13,11,8,20,,,,20,21,3,2,0.5,0.5
2025-03-31T0500,1378A,112.867,23.185,佛山市,三水云东海,,9,,13,6,10,19,,,,17,20,3,2,0.6,0.5
2025-03-31T0500,3625A,113.2544,22.7642,佛山市,容桂街道办,,10,,9,3,6,28,,,,19,23,6,6,0.6,0.6
2025-03-31T0500,1280A,119.3903,26.0543,福州市,鼓山,,,,3,,1,,,76,,,3,,3,,0.4
2025-03-31T0500,1282A,119.2681,26.0504,福州市,师大,,25,6,7,3,3,77,,,,3,8,3,3,0.3,0.4
2025-03-31T0500,1283A,119.2984,26.1028,福州市,五四北路,,21,6,6,3,4,65,,,,5,8,3,3,0.4,0.6
2025-03-31T0500,1284A,119.2648,26.0768,福州市,杨桥西路,,23,7,8,3,3,73,,,,7,11,3,3,0.4,0.5
2025-03-31T0500,1285A,119.317,26.0746,福州市,紫阳,,22,7,7,3,2,69,,,,9,13,4,4,0.2,0.3
2025-03-31T0500,3048A,119.5799,26.0936,福州市,九龙,,24,10,8,3,2,74,,,,2,6,3,3,0.3,0.3
2025-03-31T0500,3526A,119.5189,25.9664,福州市,吴航,,25,11,8,11,7,79,,,,3,5,4,4,0.6,0.5
2025-03-31T0500,1755A,123.7977,41.8491,抚顺市,望花区,,46,46,43,23,24,72,,,,21,17,11,9,1.1,0.8
2025-03-31T0500,1756A,123.9161,41.8822,抚顺市,顺城区,细颗粒物(PM2.5),89,96,48,66,25,14,,,,57,24,10,9,1.2,0.8
2025-03-31T0500,1757A,124.0436,41.8611,抚顺市,东洲区,,50,50,41,25,21,63,,,,19,14,8,9,0.7,0.6
2025-03-31T0500,1758A,123.9247,41.8642,抚顺市,新抚区,细颗粒物(PM2.5),72,75,49,52,29,14,,,,56,25,4,6,0.9,0.6
2025-03-31T0500,1759A,124.0972,41.8961,抚顺市,大伙房水库,,48,48,38,30,24,85,,,,8,12,8,9,0.7,0.6
2025-03-31T0500,1760A,123.7086,41.8391,抚顺市,沈抚新城,,50,50,45,19,22,54,,,,33,17,15,9,1.5,0.7
2025-03-31T0500,2376A,116.2127,28.0814,抚州市,桐源党溪,,39,39,41,20,19,28,,,,2,3,3,5,0.6,0.6
2025-03-31T0500,2377A,116.3544,27.9831,抚州市,市站,,43,43,34,20,15,46,,,,11,10,39,12,0.6,0.6
2025-03-31T0500,2378A,116.3565,27.963,抚州市,血防站,,48,48,41,22,16,42,,,,10,9,8,3,0.8,0.8
2025-03-31T0500,2379A,116.3564,28.0007,抚州市,采茶剧团,,38,38,32,22,16,41,,,,4,7,14,4,0.8,1.1
2025-03-31T0500,2380A,116.385,27.9647,抚州市,医学分院,,41,41,33,23,15,36,,,,12,9,28,6,0.7,0.5
2025-03-31T0500,2207A,121.6094,41.998,阜新市,工业园区,细颗粒物(PM2.5),57,42,41,40,17,36,,,,25,10,11,10,0.5,0.3
2025-03-31T0500,2208A,121.6697,42.0279,阜新市,长青街,细颗粒物(PM2.5),52,50,33,36,19,47,,,,20,10,14,10,0.5,0.3
2025-03-31T0500,2209A,121.6673,42.0705,阜新市,农业园区,,35,35,42,22,13,56,,,,16,7,14,10,0.8,0.6
2025-03-31T0500,2210A,121.6717,42.0224,阜新市,东苑,细颗粒物(PM2.5),52,41,39,36,20,50,,,,20,11,23,12,0.7,0.5
2025-03-31T0500,2211A,121.6506,42.0498,阜新市,玉龙新城,,46,46,36,29,16,19,,,,40,12,7,7,0.6,0.4
2025-03-31T0500,2301A,115.8277,32.8929,阜阳市,市监测站,细颗粒物(PM2.5),74,80,101,54,52,77,,,,14,18,7,7,0.4,0.3
2025-03-31T0500,2303A,115.8554,32.8605,阜阳市,开发区,颗粒物(PM10),83,115,123,51,46,81,,,,15,19,6,7,0.5,0.5
2025-03-31T0500,2875A,115.784,32.8892,阜阳市,阜阳职业技术学院,细颗粒物(PM2.5),72,90,104,52,46,82,,,,15,16,8,7,0.5,0.5
2025-03-31T0500,3468A,115.7901,32.8613,阜阳市,市规划展馆,颗粒物(PM10),76,102,110,55,49,74,,,,15,14,7,7,0.4,0.4
2025-03-31T0500,3469A,115.836,32.9183,阜阳市,枣园社区,细颗粒物(PM2.5),77,94,110,56,49,84,,,,14,15,6,6,0.5,0.4
2025-03-31T0500,2669A,102.9099,34.9841,甘南藏族自治州,州政府,颗粒物(PM10),92,133,118,46,40,71,,,,11,12,9,9,0.5,0.4
2025-03-31T0500,3380A,102.8914,34.9617,甘南藏族自治州,甘肃民族师范学院,颗粒物(PM10),90,130,118,40,41,82,,,,18,14,10,9,0.8,0.6
2025-03-31T0500,2570A,101.9603,30.0475,甘孜藏族自治州,水桥子,,15,9,13,3,8,48,,,,8,18,3,3,0.4,0.5
2025-03-31T0500,3065A,101.9533,29.9972,甘孜藏族自治州,州环保局,,18,6,15,3,7,56,,,,6,16,4,4,0.3,0.4
2025-03-31T0500,3414A,115.8347,28.932,赣江新区,桑海产业园,,48,48,80,24,31,4,,,,29,24,4,5,0.3,0.3
2025-03-31T0500,2362A,114.9017,25.9149,赣州市,通天岩,,21,13,13,3,4,67,,,,3,3,13,11,1.4,1.3
2025-03-31T0500,2363A,114.9367,25.8664,赣州市,地委,,22,22,19,9,6,46,,,,6,7,7,6,0.7,0.7
2025-03-31T0500,2364A,114.9461,25.8481,赣州市,气象台,,27,27,25,8,5,54,,,,10,13,7,6,0.3,0.3
2025-03-31T0500,2365A,114.9322,25.8333,赣州市,市图书馆,,17,14,10,8,8,53,,,,9,12,4,4,0.5,0.4
2025-03-31T0500,2366A,114.8905,25.8471,赣州市,华坚鞋城,,16,16,14,11,8,51,,,,10,13,7,7,0.3,0.3
2025-03-31T0500,3109A,115.0093,25.8613,赣州市,赣县区卫计委,,18,12,9,12,8,50,,,,3,6,2,2,0.3,0.3
2025-03-31T0500,2683A,106.2319,36.1417,固原市,马园,颗粒物(PM10),79,107,102,50,39,20,,,,40,31,5,6,1.0,0.8
2025-03-31T0500,2684A,106.2792,36.0022,固原市,监测站,颗粒物(PM10),62,73,90,28,38,63,,,,15,25,9,9,1.0,0.8
2025-03-31T0500,2685A,106.2375,36.0211,固原市,新区,颗粒物(PM10),57,64,85,28,30,57,,,,25,22,8,8,0.6,0.5
2025-03-31T0500,3522A,106.2177,35.9959,固原市,原州区十五小,颗粒物(PM10),65,80,88,32,30,74,,,,14,18,7,7,0.6,0.5
2025-03-31T0500,2543A,106.6308,30.5278,广安市,小平旧居,,,,,,,,,,,,,,,,
2025-03-31T0500,2544A,106.6303,30.4576,广安市,市委,,22,20,22,15,13,28,,,,12,12,3,3,0.3,0.3
2025-03-31T0500,2545A,106.6271,30.4663,广安市,友谊中学,,20,19,18,14,12,28,,,,10,11,1,1,0.4,0.4
2025-03-31T0500,2547A,106.6388,30.4551,广安市,广电花园,,22,15,21,15,14,23,,,,11,15,4,4,0.4,0.4
2025-03-31T0500,2902A,106.6351,30.4865,广安市,北辰小学,,17,17,15,11,13,29,,,,10,11,3,3,0.4,0.4
2025-03-31T0500,2523A,105.8945,32.4535,广元市,黑石坡,,37,37,40,21,22,13,,,,14,11,6,5,0.4,0.3
2025-03-31T0500,2524A,105.821,32.4444,广元市,老城,,,37,47,20,21,6,,,,,18,3,2,0.7,0.5
2025-03-31T0500,2526A,105.8628,32.4287,广元市,监测站,,,38,46,12,25,11,,,,,12,4,4,0.4,0.4
2025-03-31T0500,3617A,105.8047,32.4166,广元市,经开区,,43,43,52,28,29,10,,,,25,23,3,5,0.6,0.5
2025-03-31T0500,1345A,113.2347,23.1423,广州市,广雅中学,,18,18,17,9,10,28,,,,21,24,3,3,0.4,0.4
2025-03-31T0500,1346A,113.2612,23.105,广州市,市五中,,11,10,11,6,7,34,,,,9,11,1,1,0.7,0.7
2025-03-31T0500,1348A,113.3478,23.0916,广州市,广东商学院,,12,8,9,3,3,36,,,,12,16,4,4,0.4,0.4
2025-03-31T0500,1349A,113.4332,23.1047,广州市,市八十六中,,12,6,10,3,6,24,,,,23,19,3,3,0.8,0.8
2025-03-31T0500,1350A,113.3505,22.9483,广州市,番禺中学,,11,8,12,3,4,33,,,,18,22,3,3,0.4,0.4
2025-03-31T0500,1351A,113.2146,23.3916,广州市,花都师范,,13,10,11,9,6,37,,,,10,12,4,4,0.6,0.5
2025-03-31T0500,1352A,113.2597,23.1331,广州市,市监测站,,11,10,12,3,5,34,,,,19,21,4,4,0.4,0.4
2025-03-31T0500,1353A,113.5618,23.312,广州市,九龙镇镇龙,,12,6,4,3,2,38,,,,9,11,4,4,0.4,0.4
2025-03-31T0500,1354A,113.2765,23.1544,广州市,麓湖,,10,10,11,6,6,30,,,,17,17,3,3,0.4,0.4
2025-03-31T0500,1355A,113.443,23.3035,广州市,帽峰山森林公园,,11,,3,3,12,34,,,,7,9,5,5,0.6,0.6
2025-03-31T0500,2846A,113.3221,23.1322,广州市,体育西,,11,11,13,6,6,34,,,,11,14,4,4,0.4,0.4
2025-03-31T0500,3298A,113.5717,23.5491,广州市,从化街口,,14,6,5,3,2,44,,,,6,8,7,7,0.5,0.5
2025-03-31T0500,3299A,113.3472,23.3692,广州市,白云竹料,,16,7,6,3,5,49,,,,10,12,6,6,0.4,0.4
2025-03-31T0500,3300A,113.2981,23.237,广州市,白云嘉禾,,13,10,11,9,7,34,,,,14,19,3,3,0.3,0.4
2025-03-31T0500,3301A,113.4256,23.1716,广州市,黄埔科学城,,10,7,9,3,6,32,,,,10,10,7,7,0.4,0.4
2025-03-31T0500,3302A,113.3942,23.0483,广州市,番禺大学城,,11,7,8,3,4,30,,,,22,23,5,5,0.4,0.3
2025-03-31T0500,3303A,113.4922,22.8168,广州市,南沙黄阁,,12,6,11,3,7,20,,,,24,27,4,4,0.7,0.7
2025-03-31T0500,3304A,113.5342,22.7896,广州市,南沙街,,12,12,12,6,8,22,,,,21,26,3,4,0.6,0.7
2025-03-31T0500,3443A,113.2902,23.5544,广州市,花都梯面,,10,7,8,7,6,32,,,,11,10,4,4,0.5,0.5
2025-03-31T0500,3445A,113.7858,23.7478,广州市,从化良口,,13,6,2,3,1,41,,,,8,8,6,6,0.4,0.4
2025-03-31T0500,3446A,113.8051,23.2614,广州市,增城荔城,,10,6,4,3,2,30,,,,8,9,7,7,0.3,0.3
2025-03-31T0500,2505A,109.568,23.1478,贵港市,德智高中,,,,,,,,,,,,,,,,
2025-03-31T0500,2506A,109.6047,23.0666,贵港市,江南子站,,15,12,17,10,9,44,,,,7,8,1,1,0.7,0.7
2025-03-31T0500,2507A,109.6014,23.0948,贵港市,贵城子站,,,,,,,,,,,,,,,,
2025-03-31T0500,2508A,109.5669,23.1065,贵港市,荷城子站,,20,17,16,14,7,43,,,,10,12,2,2,0.4,0.5
2025-03-31T0500,3405A,109.5886,23.1172,贵港市,新世纪学校,,20,14,20,14,12,40,,,,7,8,1,1,0.7,0.7
2025-03-31T0500,1439A,106.6899,26.5998,贵阳市,马鞍山,,21,,20,9,12,67,,,,9,13,3,5,0.3,0.3
2025-03-31T0500,1441A,106.6243,26.6266,贵阳市,鉴湖路,,36,36,32,22,13,64,,,,8,6,9,7,0.3,0.3
2025-03-31T0500,1442A,106.7487,26.6343,贵阳市,燕子冲,,23,19,20,12,18,72,,,,7,10,6,6,0.2,0.2
2025-03-31T0500,1443A,106.6555,26.4365,贵阳市,碧云窝,,27,27,34,14,14,76,,,,5,10,9,10,0.3,0.4
2025-03-31T0500,1445A,106.7109,26.6027,贵阳市,红边门,,25,22,29,9,18,78,,,,12,17,4,6,0.1,0.1
2025-03-31T0500,1446A,106.7164,26.5699,贵阳市,新华路,,23,22,27,7,16,72,,,,3,7,5,6,0.2,0.3
2025-03-31T0500,1447A,106.674,26.5424,贵阳市,太慈桥,,25,19,25,9,14,78,,,,8,12,7,6,0.3,0.3
2025-03-31T0500,1552A,106.805,26.3003,贵阳市,桐木岭,,48,48,34,27,19,60,,,,3,5,1,1,0.7,0.7
2025-03-31T0500,4230A,106.6882,26.5695,贵阳市,花果园大街66号,,25,14,19,10,20,77,,,,6,10,5,6,0.3,0.3
2025-03-31T0500,4231A,106.6873,26.5169,贵阳市,漓江路57号,,24,22,28,9,15,75,,,,7,12,10,11,0.2,0.4
2025-03-31T0500,1862A,110.4144,25.3167,桂林市,电子科大尧山校区,,,,,,,,,,,,,,,,
2025-03-31T0500,1864A,110.3089,25.2708,桂林市,龙隐路小学,,29,,12,20,13,69,,,,4,7,8,9,0.5,0.5
2025-03-31T0500,1865A,110.2869,25.2178,桂林市,八中,,,,13,,12,,,56,,,13,,8,,0.5
2025-03-31T0500,3531A,110.296,25.1253,桂林市,旅游学院,,20,14,9,12,12,64,,,,6,7,10,8,0.4,0.5
2025-03-31T0500,4222A,110.1835,25.2444,桂林市,环湖路276号,,25,22,15,17,12,58,,,,14,16,5,7,0.4,0.4
2025-03-31T0500,4301A,110.2803,25.2773,桂林市,信义路13号,,28,,15,19,13,66,,,,6,10,9,12,0.6,0.6
2025-03-31T0500,2674A,100.2561,34.4714,果洛藏族自治州,玛沁县大武镇,颗粒物(PM10),142,234,171,63,43,85,,,,1,3,14,7,0.4,0.4
2025-03-31T0500,1129A,126.5422,45.755,哈尔滨市,岭北,细颗粒物(PM2.5),67,67,31,48,17,61,,,,18,13,11,11,0.7,0.9
2025-03-31T0500,1130A,126.561,45.8167,哈尔滨市,松北商大,颗粒物(PM10),59,68,31,40,18,60,,,,16,9,8,7,0.8,0.7
2025-03-31T0500,1131A,126.979,45.5419,哈尔滨市,阿城会宁,细颗粒物(PM2.5),54,51,36,38,23,71,,,,10,9,11,9,0.5,0.4
2025-03-31T0500,1132A,126.599,45.7222,哈尔滨市,南岗学府路,细颗粒物(PM2.5),67,73,38,48,18,57,,,,17,11,8,7,0.8,0.7
2025-03-31T0500,1133A,126.689,45.7733,哈尔滨市,太平宏伟公园,细颗粒物(PM2.5),68,71,35,49,21,61,,,,14,11,6,7,0.8,0.7
2025-03-31T0500,1134A,126.635,45.7667,哈尔滨市,道外承德广场,细颗粒物(PM2.5),77,87,42,56,27,62,,,,18,15,8,7,0.7,0.6
2025-03-31T0500,1135A,126.685,45.7319,哈尔滨市,香坊红旗大街,颗粒物(PM10),62,73,40,41,21,58,,,,19,15,11,10,0.7,0.6
2025-03-31T0500,1136A,126.6411,45.7258,哈尔滨市,动力和平路,细颗粒物(PM2.5),79,64,33,58,29,58,,,,16,13,10,9,0.6,0.5
2025-03-31T0500,1137A,126.593,45.7478,哈尔滨市,道里建国路,细颗粒物(PM2.5),67,63,37,48,23,61,,,,12,9,5,5,0.6,0.4
2025-03-31T0500,1138A,126.615,45.61,哈尔滨市,平房东轻厂,颗粒物(PM10),59,67,34,36,16,58,,,,7,7,8,8,0.7,0.6
2025-03-31T0500,1139A,126.595,45.9855,哈尔滨市,呼兰师专,细颗粒物(PM2.5),65,68,34,47,23,57,,,,22,12,11,9,0.5,0.4
2025-03-31T0500,1140A,126.6206,45.6842,哈尔滨市,省农科院,细颗粒物(PM2.5),62,71,44,44,24,53,,,,19,12,8,8,0.6,0.5
2025-03-31T0500,2688A,93.5128,42.8172,哈密市,地区监测站,颗粒物(PM10),67,84,82,18,56,26,,,,52,28,4,7,0.4,0.3
2025-03-31T0500,2689A,93.4961,42.8328,哈密市,哈密师范学校,颗粒物(PM10),60,69,69,26,24,25,,,,53,36,5,5,0.4,0.4
2025-03-31T0500,2671A,100.9048,36.9639,海北藏族自治州,海晏县西海镇,颗粒物(PM10),72,94,153,36,50,61,,,,10,5,19,12,0.7,0.6
2025-03-31T0500,3867A,102.0738,36.5056,海东市,平安区公安北苑,颗粒物(PM10),73,95,160,38,44,56,,,,6,14,11,13,1.0,1.1
2025-03-31T0500,1409A,110.576,19.9507,海口市,东寨港,,11,8,4,7,6,35,,,,6,7,5,6,0.6,0.6
2025-03-31T0500,1410A,110.3232,20.0574,海口市,海南大学,,14,13,13,6,5,42,,,,5,8,1,2,0.4,0.5
2025-03-31T0500,1411A,110.283,20.0053,海口市,秀英海南医院,,13,7,7,3,4,41,,,,8,12,4,4,0.4,0.4
2025-03-31T0500,1412A,110.338,19.9969,海口市,海南师范大学,,14,8,7,8,5,43,,,,4,5,2,3,0.4,0.4
2025-03-31T0500,1413A,110.33,20.0356,海口市,龙华路环保局宿舍,,14,8,8,8,5,43,,,,4,6,4,4,0.4,0.4
2025-03-31T0500,3539A,110.5111,19.9736,海口市,桂林洋子站,,13,13,8,6,4,41,,,,6,7,2,3,0.3,0.4
2025-03-31T0500,2673A,100.6188,36.2866,海南藏族自治州,共和县恰卜恰镇,细颗粒物(PM2.5),175,216,166,132,126,85,,,,7,23,15,12,0.4,0.5
2025-03-31T0500,2676A,97.3731,37.3753,海西蒙古族藏族自治州,德令哈市,颗粒物(PM10),138,226,260,58,67,75,,,,2,6,7,12,0.5,0.5
2025-03-31T0500,1048A,114.5302,36.6116,邯郸市,东污水处理厂,颗粒物(PM10),53,56,57,31,27,55,,,,20,28,2,6,0.3,0.7
2025-03-31T0500,1049A,114.4918,36.5713,邯郸市,矿院,颗粒物(PM10),57,63,71,27,25,44,,,,20,24,2,6,0.3,0.5
2025-03-31T0500,1050A,114.484,36.6133,邯郸市,丛台公园,颗粒物(PM10),59,68,65,27,30,49,,,,22,24,6,9,0.3,0.7
2025-03-31T0500,3458A,114.7895,36.5593,邯郸市,香泉濮院小区,颗粒物(PM10),66,82,67,22,23,68,,,,12,15,4,6,0.2,0.4
2025-03-31T0500,3579A,114.50634,36.77178,邯郸市,永年区实验高中,颗粒物(PM10),73,96,77,32,30,40,,,,31,21,13,8,1.2,0.8
2025-03-31T0500,3580A,114.20016,36.44293,邯郸市,峰峰矿区临水派出所,颗粒物(PM10),56,61,66,28,32,70,,,,15,26,13,20,0.8,1.2
2025-03-31T0500,2634A,106.9893,33.1842,汉中市,汉川机床厂子校,,30,26,54,21,24,54,,,,5,4,7,8,0.9,1
2025-03-31T0500,2635A,107.0154,33.0706,汉中市,市监测站,,29,26,52,20,25,40,,,,13,16,6,6,0.8,0.8
2025-03-31T0500,2636A,107.0089,33.1138,汉中市,鑫源开发区,,32,30,53,22,27,49,,,,14,13,7,9,0.4,0.5
2025-03-31T0500,2637A,107.007,33.0323,汉中市,南郑大河坎水厂,,22,19,47,15,22,35,,,,9,13,3,3,0.6,0.6
2025-03-31T0500,1223A,120.2072,30.2111,杭州市,滨江,,34,34,53,15,25,63,,,,22,23,8,8,0.2,0.2
2025-03-31T0500,1224A,120.0633,30.2747,杭州市,西溪,,27,27,55,13,24,20,,,,18,19,6,6,0.3,0.3
2025-03-31T0500,1226A,120.3417,30.3150,杭州市,下沙,,40,40,54,16,21,65,,,,31,32,8,6,0.3,0.3
2025-03-31T0500,1227A,120.1269,30.2456,杭州市,卧龙桥,,28,28,50,12,23,30,,,,15,18,6,6,0.8,0.7
2025-03-31T0500,1228A,120.1903,30.2692,杭州市,浙江农大,,27,27,51,8,21,70,,,,13,21,5,3,0.5,0.5
2025-03-31T0500,1230A,120.1197,30.3119,杭州市,和睦小学,,24,22,53,14,26,74,,,,15,19,8,7,0.4,0.4
2025-03-31T0500,1231A,120.3019,30.4183,杭州市,临平镇,,32,32,48,11,18,45,,,,39,25,6,6,0.4,0.4
2025-03-31T0500,1232A,120.2753,30.1839,杭州市,城厢镇,,40,40,57,19,26,47,,,,34,28,8,8,0.3,0.3
2025-03-31T0500,1233A,120.0883,30.1808,杭州市,云栖,,24,24,49,10,22,16,,,,19,21,7,8,0.5,0.5
2025-03-31T0500,3557A,119.9464,30.0494,杭州市,镇二中,,29,29,51,16,25,5,,,,44,27,6,6,0.6,0.5
2025-03-31T0500,3558A,119.7183,30.2367,杭州市,市府大楼,,40,40,66,22,30,18,,,,26,22,7,7,0.8,0.8
2025-03-31T0500,3656A,120.1556,30.2864,杭州市,消防大队,,25,25,56,9,26,78,,,,23,29,4,4,0.3,0.4
2025-03-31T0500,1270A,117.1959,31.7848,合肥市,明珠广场,颗粒物(PM10),59,68,105,36,42,54,,,,28,23,6,6,0.4,0.5
2025-03-31T0500,1271A,117.3072,31.8764,合肥市,三里街,颗粒物(PM10),59,68,109,41,43,47,,,,33,25,6,7,0.7,0.6
2025-03-31T0500,1272A,117.2588,31.8707,合肥市,琥珀山庄,细颗粒物(PM2.5),67,66,110,48,56,65,,,,23,24,3,4,0.6,0.6
2025-03-31T0500,1273A,117.1604,31.9052,合肥市,董铺水库,颗粒物(PM10),63,75,114,27,34,71,,,,26,25,5,4,0.4,0.4
2025-03-31T0500,1274A,117.25,31.8571,合肥市,长江中路,颗粒物(PM10),63,75,110,38,45,61,,,,22,22,9,10,0.6,0.6
2025-03-31T0500,1275A,117.266,31.9436,合肥市,庐阳区,颗粒物(PM10),63,75,118,39,48,44,,,,43,30,5,5,0.6,0.6
2025-03-31T0500,1276A,117.3453,31.8616,合肥市,瑶海区,颗粒物(PM10),62,73,116,37,42,33,,,,48,31,7,7,0.6,0.6
2025-03-31T0500,1277A,117.3027,31.7964,合肥市,包河区,颗粒物(PM10),62,73,108,41,44,42,,,,44,25,5,6,0.6,0.7
2025-03-31T0500,1278A,117.2776,31.7385,合肥市,滨湖新区,颗粒物(PM10),62,73,110,39,44,56,,,,22,21,4,3,0.6,0.6
2025-03-31T0500,1279A,117.1318,31.8403,合肥市,高新区,颗粒物(PM10),60,70,109,33,41,60,,,,25,28,4,3,0.4,0.3
2025-03-31T0500,3464A,117.3803,31.9147,合肥市,高教基地,细颗粒物(PM2.5),60,62,110,43,48,46,,,,30,28,3,3,0.4,0.5
2025-03-31T0500,3614A,79.924,37.0877,和田地区,地区环保局,颗粒物(PM10),500,1086,2125,233,525,40,,,,10,19,1,1,0.3,0.3
2025-03-31T0500,3615A,79.9131,37.113,和田地区,市环保局,颗粒物(PM10),500,880,1975,194,497,51,,,,9,19,1,1,0.2,0.4
2025-03-31T0500,2516A,108.2011,24.715,河池市,东仁乐园,,22,10,10,6,6,68,,,,6,7,6,6,0.7,0.7
2025-03-31T0500,2517A,108.0497,24.6947,河池市,市环保站,,22,,8,12,8,68,,,,2,4,5,5,0.4,0.4
2025-03-31T0500,2518A,108.0983,24.6989,河池市,市疾控中心,,22,,9,11,6,70,,,,1,2,6,6,0.4,0.4
2025-03-31T0500,1696A,114.6778,23.7569,河源市,源西,,11,,4,6,4,34,,,,10,11,4,4,0.6,0.6
2025-03-31T0500,1697A,114.6944,23.7586,河源市,东埔,,11,,5,3,4,34,,,,11,12,4,4,0.5,0.5
2025-03-31T0500,1698A,114.6892,23.7233,河源市,老城,,13,,6,9,3,33,,,,12,13,4,4,0.5,0.5
2025-03-31T0500,1718A,115.4208,35.2464,菏泽市,气象局,颗粒物(PM10),94,137,98,48,37,69,,,,18,17,8,8,0.4,0.4
2025-03-31T0500,3374A,115.5564,35.0891,菏泽市,定陶老年大学,颗粒物(PM10),81,112,83,44,29,79,,,,22,21,6,7,0.5,0.5
2025-03-31T0500,4184A,115.4797,35.24401,菏泽市,永昌路1号,颗粒物(PM10),90,130,91,48,37,85,,,,14,16,7,8,0.2,0.2
2025-03-31T0500,4193A,115.4715,35.2800,菏泽市,长城路999号,颗粒物(PM10),91,132,89,45,30,88,,,,15,17,9,8,0.6,0.5
2025-03-31T0500,2514A,111.5264,24.4172,贺州市,环保小区,,17,16,15,11,9,52,,,,12,10,5,5,0.3,0.4
2025-03-31T0500,2515A,111.5608,24.4078,贺州市,政协大楼,,28,28,25,8,9,46,,,,9,11,5,6,0.3,0.4
2025-03-31T0500,3534A,111.4744,24.4553,贺州市,西湾,,16,14,14,10,7,51,,,,8,11,6,7,0.4,0.5
2025-03-31T0500,2385A,114.17,35.9019,鹤壁市,市监测站,颗粒物(PM10),65,80,78,33,32,37,,,,22,21,2,12,0.8,1
2025-03-31T0500,2386A,114.2956,35.7511,鹤壁市,市交警支队,颗粒物(PM10),74,97,78,27,29,63,,,,18,23,8,10,1.1,1.2
2025-03-31T0500,2387A,114.2878,35.7306,鹤壁市,迎宾馆,颗粒物(PM10),72,93,83,30,26,63,,,,21,23,4,8,0.5,0.7
2025-03-31T0500,3474A,114.2617,35.6822,鹤壁市,大新区,颗粒物(PM10),67,83,76,42,33,39,,,,30,30,7,9,0.6,0.8
2025-03-31T0500,3596A,114.1572,35.9603,鹤壁市,南山宾馆,颗粒物(PM10),76,101,83,48,43,48,,,,31,26,4,12,0.5,0.9
2025-03-31T0500,2244A,130.2537,47.3416,鹤岗市,哈啤分公司,,33,33,21,19,15,48,,,,11,4,14,14,0.5,0.4
2025-03-31T0500,2245A,130.2684,47.3086,鹤岗市,斯达机电,,33,28,25,23,15,56,,,,10,6,13,14,0.2,0.2
2025-03-31T0500,2246A,130.3114,47.3388,鹤岗市,东山纸板厂,,49,46,30,34,21,47,,,,20,9,16,13,0.3,0.5
2025-03-31T0500,2247A,130.1097,47.3382,鹤岗市,五号水库,,,,,,,,,,,,,,,,
2025-03-31T0500,2263A,127.4833,50.2524,黑河市,交通局,,33,26,24,23,13,53,,,,7,7,7,6,0.4,0.4
2025-03-31T0500,2264A,127.5144,50.2341,黑河市,环保局,,33,,17,23,15,64,,,,9,6,5,5,0.3,0.3
2025-03-31T0500,2265A,127.5291,50.2472,黑河市,大黑河岛,,21,21,16,13,6,39,,,,6,7,3,2,0.3,0.3
2025-03-31T0500,1074A,115.6838,37.7541,衡水市,电机北厂,颗粒物(PM10),67,84,70,39,34,75,,,,16,20,6,8,0.3,0.3
2025-03-31T0500,1075A,115.6303,37.7316,衡水市,市监测站,颗粒物(PM10),59,68,62,24,26,76,,,,15,23,8,13,0.3,0.3
2025-03-31T0500,3188A,115.6683,37.7217,衡水市,市城管局,颗粒物(PM10),59,68,65,30,34,67,,,,19,24,8,11,0.3,0.4
2025-03-31T0500,3459A,115.5989,37.5491,衡水市,地表水厂,颗粒物(PM10),57,63,68,30,32,58,,,,24,34,9,9,0.3,0.4
2025-03-31T0500,2456A,112.5003,26.9167,衡阳市,原169医院,,39,39,18,14,11,34,,,,9,11,6,6,0.5,0.4
2025-03-31T0500,2457A,112.6194,26.9258,衡阳市,衡阳化工总厂,,43,33,18,30,16,37,,,,15,11,4,4,0.6,0.5
2025-03-31T0500,2458A,112.6211,26.8956,衡阳市,珠晖区环保局,,38,38,19,23,15,45,,,,18,13,7,6,0.6,0.5
2025-03-31T0500,2459A,112.6197,26.8733,衡阳市,市委党校,,37,37,18,23,14,60,,,,13,13,9,8,0.6,0.5
2025-03-31T0500,2460A,112.6006,26.8919,衡阳市,市监测站,,38,38,23,26,17,43,,,,18,14,8,7,0.6,0.6
2025-03-31T0500,2461A,112.5664,26.9056,衡阳市,真空机电公司,,34,34,20,19,13,40,,,,16,14,4,5,0.5,0.5
2025-03-31T0500,3399A,112.6703,26.882,衡阳市,师范学院,,39,39,19,24,14,45,,,,17,13,9,8,0.5,0.5
2025-03-31T0500,2608A,103.3772,23.3993,红河哈尼族彝族自治州,污水处理厂,,16,11,27,11,21,40,,,,5,10,8,9,0.4,0.5
2025-03-31T0500,2609A,103.3861,23.35,红河哈尼族彝族自治州,监测站,,25,23,33,17,17,42,,,,6,9,10,10,0.4,0.5
2025-03-31T0500,3038A,103.3758,23.368,红河哈尼族彝族自治州,州图书馆,,32,,15,22,21,39,,,,8,10,6,6,0.3,0.4
2025-03-31T0500,1090A,111.6507,40.7517,呼和浩特市,呼市一监,颗粒物(PM10),58,66,46,40,22,16,,,,39,20,10,12,1.0,0.7
2025-03-31T0500,1091A,111.6572,40.8033,呼和浩特市,小召,颗粒物(PM10),57,63,46,36,19,30,,,,38,29,7,7,0.8,0.5
2025-03-31T0500,1094A,111.7516,40.8369,呼和浩特市,如意水处理厂,,50,50,41,22,18,6,,,,68,32,7,8,0.7,0.6
2025-03-31T0500,1095A,111.7276,40.8062,呼和浩特市,二十九中,颗粒物(PM10),57,63,44,34,23,31,,,,34,25,5,6,1.0,0.9
2025-03-31T0500,1096A,111.5512,40.7866,呼和浩特市,工大金川校区,颗粒物(PM10),54,58,34,22,15,15,,,,58,26,7,8,0.8,0.6
2025-03-31T0500,1097A,111.717,40.7612,呼和浩特市,化肥厂生活区,颗粒物(PM10),65,80,53,44,23,27,,,,35,27,8,10,0.8,0.6
2025-03-31T0500,3698A,111.5968,40.8178,呼和浩特市,红旗小学,,41,41,36,18,15,16,,,,59,34,5,6,0.6,0.6
2025-03-31T0500,3699A,111.6518,40.8389,呼和浩特市,海东办,颗粒物(PM10),51,51,32,27,15,12,,,,52,23,8,7,0.7,0.6
2025-03-31T0500,2192A,119.7594,49.2261,呼伦贝尔市,区环保局,,38,37,32,26,23,20,,,,28,13,6,5,0.4,0.3
2025-03-31T0500,3061A,119.7512,49.1577,呼伦贝尔市,国华电力东,,21,21,26,9,15,54,,,,4,4,4,5,0.3,0.3
2025-03-31T0500,1250A,120.0751,30.8669,湖州市,城西水厂,,35,35,50,12,21,64,,,,26,24,8,7,0.3,0.3
2025-03-31T0500,2873A,120.0830,30.8929,湖州市,仁皇山新区,,31,31,50,13,23,73,,,,21,23,5,5,0.3,0.4
2025-03-31T0500,2907A,120.1844,30.8596,湖州市,吴兴区站,,30,30,48,13,22,67,,,,21,19,6,6,0.2,0.3
2025-03-31T0500,3562A,120.4148,30.8538,湖州市,南浔区站,,31,31,42,15,19,71,,,,20,19,3,4,0.3,0.4
2025-03-31T0500,1607A,120.9049,40.7211,葫芦岛市,龙港区,细颗粒物(PM2.5),54,51,31,38,16,64,,,,22,16,10,9,0.8,0.6
2025-03-31T0500,1608A,120.8392,40.7514,葫芦岛市,化工街,颗粒物(PM10),54,58,34,36,16,13,,,,73,28,12,13,0.7,0.5
2025-03-31T0500,1609A,120.8341,40.7073,葫芦岛市,新区,颗粒物(PM10),53,56,26,35,17,46,,,,47,23,26,14,0.6,0.4
2025-03-31T0500,1610A,120.8695,40.7677,葫芦岛市,东城区,细颗粒物(PM2.5),54,42,32,38,20,20,,,,69,28,10,11,0.8,0.6
2025-03-31T0500,2482A,109.5981,27.5721,怀化市,林科所,,27,27,18,14,10,40,,,,9,7,20,5,0.2,0.3
2025-03-31T0500,2483A,109.9453,27.5444,怀化市,河西地税局,,28,28,22,17,16,36,,,,8,15,9,9,0.3,0.3
2025-03-31T0500,2484A,109.9781,27.5342,怀化市,市四医院,,25,24,20,17,15,43,,,,9,9,8,6,0.1,0.2
2025-03-31T0500,2485A,109.9972,27.5578,怀化市,监测楼,,26,24,19,18,14,29,,,,12,10,13,10,0.4,0.3
2025-03-31T0500,2486A,110.0394,27.583,怀化市,市委党校,,42,35,22,29,17,19,,,,15,11,10,7,0.5,0.4
2025-03-31T0500,1210A,119.036,33.5981,淮安市,钵池山,"颗粒物(PM10),细颗粒物(PM2.5)",62,73,57,44,36,54,,,,22,20,10,11,0.8,0.7
2025-03-31T0500,1211A,119.007,33.575,淮安市,北京南路,细颗粒物(PM2.5),59,58,56,42,31,48,,,,31,26,11,10,0.8,0.7
2025-03-31T0500,1212A,118.989,33.6067,淮安市,市监测站,细颗粒物(PM2.5),58,58,54,41,36,60,,,,25,26,12,12,0.5,0.8
2025-03-31T0500,1213A,119.135,33.5039,淮安市,楚州区监测站,颗粒物(PM10),64,78,61,38,32,22,,,,41,31,11,11,0.9,0.8
2025-03-31T0500,3426A,118.8755,33.2894,淮安市,新华书店,细颗粒物(PM2.5),75,69,62,55,40,42,,,,33,22,9,10,0.7,0.6
2025-03-31T0500,4206A,119.0288,33.6319,淮安市,承德北路606号,颗粒物(PM10),64,78,67,40,33,58,,,,24,24,13,10,0.7,0.7
2025-03-31T0500,2282A,116.8004,33.975,淮北市,监测站,颗粒物(PM10),93,136,80,64,38,47,,,,37,22,9,9,0.8,0.7
2025-03-31T0500,2283A,116.8091,33.9007,淮北市,烈山区政府,颗粒物(PM10),98,146,89,62,41,58,,,,42,32,9,8,0.8,0.7
2025-03-31T0500,3330A,116.8873,33.9836,淮北市,杜集区检察院,颗粒物(PM10),101,152,87,73,40,57,,,,34,24,13,8,1.0,0.7
2025-03-31T0500,4017A,116.7923,33.9535,淮北市,市博物馆,颗粒物(PM10),97,143,85,68,37,45,,,,40,25,12,11,0.9,0.8
2025-03-31T0500,2277A,116.8305,32.7727,淮南市,潘集区政府,细颗粒物(PM2.5),70,76,131,51,59,67,,,,20,25,6,7,0.5,0.5
2025-03-31T0500,2279A,116.8569,32.5951,淮南市,谢家集区政府,颗粒物(PM10),70,90,134,48,53,57,,,,30,28,8,8,0.3,0.3
2025-03-31T0500,2280A,116.8281,32.633,淮南市,八公山区政府,颗粒物(PM10),64,78,123,43,47,61,,,,18,17,8,7,0.4,0.3
2025-03-31T0500,2281A,116.6325,32.6201,淮南市,焦岗湖风景区管理处,颗粒物(PM10),62,74,98,40,38,46,,,,15,15,6,5,0.5,0.5
2025-03-31T0500,2894A,117.0566,32.6531,淮南市,经济技术开发区消防队,细颗粒物(PM2.5),74,66,112,54,50,56,,,,23,17,8,6,0.5,0.4
2025-03-31T0500,3329A,117.0108,32.5893,淮南市,山南新区,颗粒物(PM10),65,80,137,42,48,64,,,,30,28,8,8,0.6,0.5
2025-03-31T0500,4209A,117.0031,32.6445,淮南市,国庆中路369号,颗粒物(PM10),66,82,113,44,52,66,,,,20,18,8,7,0.5,0.4
2025-03-31T0500,2446A,114.9028,30.4742,黄冈市,职工中心,颗粒物(PM10),66,81,77,39,38,41,,,,42,26,9,6,0.6,0.5
2025-03-31T0500,2929A,114.8858,30.4519,黄冈市,红卫路,颗粒物(PM10),72,94,87,36,34,54,,,,25,17,10,6,0.8,0.7
2025-03-31T0500,3398A,114.9136,30.4445,黄冈市,市林业局,颗粒物(PM10),64,77,83,38,33,52,,,,25,18,11,8,0.9,0.7
2025-03-31T0500,2672A,102.0199,35.5102,黄南藏族自治州,同仁县隆务镇,颗粒物(PM10),83,116,134,38,40,78,,,,4,8,21,19,0.4,0.5
2025-03-31T0500,2295A,118.2903,29.6963,黄山市,延安路89号,,39,37,58,27,35,16,,,,8,8,4,4,0.3,0.3
2025-03-31T0500,2297A,118.1371,30.2756,黄山市,黄山区政府5号楼,,45,45,76,28,31,15,,,,4,5,7,7,0.3,0.4
2025-03-31T0500,4210A,118.3354,29.7203,黄山市,滨江东路7-2号,,49,49,67,20,30,18,,,,8,7,4,4,0.4,0.4
2025-03-31T0500,2423A,115.0601,30.2313,黄石市,沈家营,颗粒物(PM10),61,72,86,31,34,60,,,,11,12,6,7,0.4,0.6
2025-03-31T0500,2426A,114.8988,30.2019,黄石市,铁山,颗粒物(PM10),66,81,88,47,44,14,,,,44,27,11,8,1.1,1.3
2025-03-31T0500,2427A,115.0307,30.2092,黄石市,团城山,颗粒物(PM10),61,71,83,22,31,56,,,,15,18,6,7,0.5,0.7
2025-03-31T0500,3149A,115.0235,30.1578,黄石市,笔架山北路,颗粒物(PM10),59,68,67,33,33,23,,,,35,20,8,9,0.6,0.7
2025-03-31T0500,4185A,115.0780,30.21118,黄石市,磁湖东路29号,颗粒物(PM10),63,75,93,34,38,69,,,,7,16,6,7,0.5,0.6
2025-03-31T0500,1392A,114.4183,23.0528,惠州市,河南岸金山湖子站,,11,6,6,3,3,34,,,,12,15,8,8,0.5,0.5
2025-03-31T0500,1393A,114.4053,23.0822,惠州市,下埔横江三路子站,,11,7,6,3,3,33,,,,10,12,8,8,0.4,0.5
2025-03-31T0500,1394A,114.4103,23.1142,惠州市,江北云山西路子站,,10,6,5,3,3,31,,,,13,16,8,8,0.4,0.4
2025-03-31T0500,1395A,114.4645,22.7833,惠州市,惠阳区承修路船湖子站,,9,6,7,3,5,28,,,,9,12,8,8,0.4,0.4
2025-03-31T0500,1396A,114.5317,22.7422,惠州市,大亚湾管委会子站,,8,6,5,3,2,25,,,,11,11,6,6,0.8,0.7
2025-03-31T0500,3314A,114.4338,22.8134,惠州市,惠阳秋长,,11,6,5,3,3,33,,,,4,7,3,2,0.6,0.6
2025-03-31T0500,3452A,114.6517,22.775,惠州市,大亚湾霞涌,,8,6,4,3,2,25,,,,11,12,5,6,0.3,0.8
2025-03-31T0500,2240A,130.9762,45.3001,鸡西市,环保局,颗粒物(PM10),55,59,37,36,20,74,,,,9,16,6,6,0.6,0.6
2025-03-31T0500,2243A,130.9429,45.3039,鸡西市,第一中学,,32,29,19,22,13,76,,,,8,4,6,6,0.5,0.4
2025-03-31T0500,3707A,131.0207,45.3073,鸡西市,欧美日汽修厂,颗粒物(PM10),107,164,60,67,29,6,,,,39,14,38,10,1.3,0.6
2025-03-31T0500,3709A,130.9967,45.3106,鸡西市,市政设施管理处,颗粒物(PM10),75,100,45,42,23,25,,,,35,16,7,5,0.6,0.5
2025-03-31T0500,2367A,114.9754,27.0803,吉安市,红声器材厂,,41,41,32,18,14,44,,,,19,13,19,12,0.5,0.4
2025-03-31T0500,2368A,114.9658,27.0999,吉安市,市森林工业局,,34,34,27,21,15,52,,,,9,11,14,9,0.6,0.3
2025-03-31T0500,2369A,114.99,27.1312,吉安市,市环境监测站,,39,39,30,17,20,52,,,,7,8,25,17,0.4,0.4
2025-03-31T0500,2370A,115.0093,27.0968,吉安市,青原区法院,,38,38,30,26,17,57,,,,20,17,16,11,0.5,0.4
2025-03-31T0500,1772A,126.54,43.8622,吉林市,哈达湾,,42,42,42,23,24,2,,,,10,9,9,7,0.6,0.5
2025-03-31T0500,1773A,126.5844,43.8358,吉林市,东局子,,38,37,40,26,27,88,,,,9,9,8,6,0.5,0.4
2025-03-31T0500,1774A,126.5052,43.8245,吉林市,电力学院,,33,32,38,23,27,81,,,,10,9,8,6,0.4,0.4
2025-03-31T0500,1775A,126.6133,43.8972,吉林市,江北,,41,41,45,22,28,85,,,,9,11,4,4,0.1,0.1
2025-03-31T0500,1776A,126.555,43.8306,吉林市,江南公园,,43,41,43,30,31,80,,,,10,8,8,6,0.2,0.2
2025-03-31T0500,1778A,126.7061,43.7133,吉林市,丰满,,50,42,40,35,30,96,,,,7,6,7,6,0.3,0.3
2025-03-31T0500,2868A,126.4739,43.953,吉林市,九站,,37,37,43,18,21,83,,,,7,6,11,9,0.7,0.6
2025-03-31T0500,1299A,116.9862,36.6114,济南市,科干所,颗粒物(PM10),65,80,59,29,22,99,,,,11,12,7,7,0.5,0.5
2025-03-31T0500,1300A,116.9376,36.665,济南市,农科所,颗粒物(PM10),69,88,68,24,19,87,,,,20,20,8,8,0.4,0.4
2025-03-31T0500,1301A,117.1265,36.6734,济南市,开发区,颗粒物(PM10),63,76,56,39,25,102,,,,12,13,7,7,0.5,0.5
2025-03-31T0500,1303A,117.0624,36.6868,济南市,省种子仓库,颗粒物(PM10),69,88,68,29,24,101,,,,8,12,5,5,0.6,0.6
2025-03-31T0500,1304A,116.9489,36.6447,济南市,机床二厂,颗粒物(PM10),73,95,83,34,29,81,,,,14,18,8,9,0.4,0.4
2025-03-31T0500,1305A,117.0495,36.663,济南市,市监测站,颗粒物(PM10),67,83,64,27,25,97,,,,11,14,8,8,0.4,0.4
2025-03-31T0500,1306A,116.7675,36.5484,济南市,长清党校,颗粒物(PM10),70,90,70,32,26,89,,,,20,18,7,7,0.7,0.6
2025-03-31T0500,1616A,117.6795,36.229,济南市,技术学院,颗粒物(PM10),63,75,67,39,31,53,,,,36,25,9,12,0.6,0.7
2025-03-31T0500,1961A,117.532,36.6868,济南市,东山小学,颗粒物(PM10),70,90,59,29,21,97,,,,12,12,8,7,0.7,0.7
2025-03-31T0500,3059A,117.7161,36.2049,济南市,泰兴公司,颗粒物(PM10),62,73,69,41,34,8,,,,76,32,8,10,0.6,0.5
2025-03-31T0500,3064A,117.6867,36.2171,济南市,莱芜战役纪念馆,颗粒物(PM10),64,78,69,34,29,29,,,,60,29,5,7,0.5,0.5
2025-03-31T0500,3494A,117.1673,36.9782,济南市,济阳区政府,颗粒物(PM10),69,88,74,27,25,84,,,,16,24,9,9,0.3,0.4
2025-03-31T0500,3495A,117.1171,36.63,济南市,锦屏中学,颗粒物(PM10),63,76,54,27,19,96,,,,12,13,9,9,0.3,0.3
2025-03-31T0500,3682A,116.9814,36.6819,济南市,济南四建,颗粒物(PM10),68,85,64,29,32,93,,,,10,12,6,6,0.3,0.3
2025-03-31T0500,1653A,116.6251,35.4302,济宁市,火炬城,颗粒物(PM10),67,83,60,46,34,63,,,,20,14,10,10,0.4,0.4
2025-03-31T0500,1655A,116.5491,35.4042,济宁市,电化厂,颗粒物(PM10),84,118,88,53,38,61,,,,29,21,14,9,0.6,0.5
2025-03-31T0500,3500A,116.5814,35.3707,济宁市,北湖一中,颗粒物(PM10),67,84,60,46,28,80,,,,20,18,20,14,0.4,0.3
2025-03-31T0500,3501A,116.8249,35.5593,济宁市,服务中心,颗粒物(PM10),76,101,79,37,30,53,,,,34,28,10,8,0.9,0.8
2025-03-31T0500,3678A,116.5907,35.4054,济宁市,市第七中学,颗粒物(PM10),68,86,68,34,25,65,,,,21,15,10,8,0.3,0.3
2025-03-31T0500,2255A,130.2751,46.8028,佳木斯市,佳纺,,21,17,23,12,12,66,,,,4,7,2,4,0.3,0.3
2025-03-31T0500,2256A,130.3995,46.8307,佳木斯市,发电厂,,23,21,18,13,11,71,,,,10,8,2,3,0.5,0.5
2025-03-31T0500,2257A,130.3258,46.7975,佳木斯市,环保局,,25,20,19,13,10,78,,,,5,8,2,2,0.3,0.3
2025-03-31T0500,2258A,130.3648,46.8032,佳木斯市,十一中,,23,23,22,16,14,68,,,,10,11,4,4,0.3,0.4
2025-03-31T0500,2259A,130.3794,46.7588,佳木斯市,四丰,,22,17,17,9,7,70,,,,2,2,1,1,0.7,0.7
2025-03-31T0500,1252A,120.7436,30.778,嘉兴市,清河小学,,28,28,35,9,12,68,,,,22,18,8,8,0.3,0.5
2025-03-31T0500,1253A,120.726,30.7478,嘉兴市,嘉兴学院,,28,28,41,8,15,39,,,,20,18,7,8,0.6,0.7
2025-03-31T0500,2872A,120.7846,30.7525,嘉兴市,南湖区残联,,35,35,53,10,13,70,,,,22,18,8,8,0.6,0.6
2025-03-31T0500,3407A,120.6916,30.7739,嘉兴市,秀洲住建,,26,26,28,11,16,82,,,,18,17,6,6,0.6,0.6
2025-03-31T0500,1945A,98.2908,39.7711,嘉峪关市,气象局,颗粒物(PM10),120,190,116,46,30,73,,,,7,15,14,18,0.4,0.6
2025-03-31T0500,2884A,98.2672,39.7978,嘉峪关市,酒钢宾馆,颗粒物(PM10),129,207,130,56,31,62,,,,10,16,7,21,0.3,0.4
2025-03-31T0500,3248A,98.2643,39.7724,嘉峪关市,雄关区,颗粒物(PM10),106,162,95,41,27,59,,,,16,19,6,8,0.5,0.5
2025-03-31T0500,1383A,113.1064,22.6058,江门市,北街,,10,6,15,6,8,31,,,,14,23,2,2,0.5,0.6
2025-03-31T0500,1384A,113.0731,22.5835,江门市,西区,,10,7,15,7,7,26,,,,15,21,6,6,0.5,0.6
2025-03-31T0500,1385A,113.0219,22.5311,江门市,圭峰西,,9,6,12,3,6,23,,,,17,21,3,4,0.6,0.6
2025-03-31T0500,1386A,113.0828,22.5947,江门市,东湖,,10,7,16,6,10,32,,,,14,21,7,7,0.5,0.5
2025-03-31T0500,3311A,113.1075,22.5647,江门市,江海富民,,15,,18,10,8,32,,,,14,22,6,6,0.5,0.6
2025-03-31T0500,3449A,113.05,22.4667,江门市,新会银湖,,9,,13,6,10,23,,,,17,25,3,1,0.7,0.7
2025-03-31T0500,1830A,113.1992,35.2590,焦作市,影视城,,,,,,,,,,,,,,,,
2025-03-31T0500,3169A,113.2725,35.2067,焦作市,太极体育中心,颗粒物(PM10),60,70,66,36,34,24,,,,37,21,6,9,0.7,0.7
2025-03-31T0500,3335A,113.3137,35.2641,焦作市,马村街道办,颗粒物(PM10),88,126,76,49,36,46,,,,32,27,9,10,0.7,0.6
2025-03-31T0500,3336A,113.2465,35.2373,焦作市,焦作技师学院,颗粒物(PM10),63,75,70,24,25,66,,,,18,21,6,9,0.5,0.5
2025-03-31T0500,3477A,113.1656,35.2539,焦作市,中站许衡医院,颗粒物(PM10),53,56,60,29,30,83,,,,17,20,8,10,0.6,0.7
2025-03-31T0500,3981A,113.2449,35.1803,焦作市,原李万街道办,颗粒物(PM10),62,73,70,27,24,20,,,,49,26,7,10,0.5,0.5
2025-03-31T0500,4264A,113.2340,35.2190,焦作市,新安路1731号,颗粒物(PM10),63,76,71,30,34,35,,,,28,23,6,9,0.6,0.6
2025-03-31T0500,1708A,116.3701,23.5345,揭阳市,新兴,,10,,10,7,7,16,,,,14,19,6,6,0.5,0.6
2025-03-31T0500,1709A,116.3264,23.5443,揭阳市,西马,,6,6,9,3,4,17,,,,12,15,7,6,0.5,0.6
2025-03-31T0500,1710A,116.3611,23.5626,揭阳市,东兴,,8,6,12,3,8,12,,,,16,20,6,6,0.6,0.7
2025-03-31T0500,1711A,116.4151,23.5294,揭阳市,渔湖,,9,7,11,3,5,20,,,,17,23,5,5,0.6,0.6
2025-03-31T0500,3320A,116.403,23.5699,揭阳市,曲溪,,14,9,9,3,4,8,,,,28,22,3,4,0.5,0.5
2025-03-31T0500,1944A,102.1692,38.5167,金昌市,天庆家园,,38,38,41,15,21,75,,,,13,10,8,14,0.7,0.8
2025-03-31T0500,4022A,102.1647,38.5371,金昌市,金川区人防中心,颗粒物(PM10),51,51,60,22,23,73,,,,12,17,9,10,0.8,0.5
2025-03-31T0500,4239A,102.1930,38.5319,金昌市,长春路96号,颗粒物(PM10),63,75,73,20,20,75,,,,8,8,13,27,0.8,0.7
2025-03-31T0500,1262A,119.647,29.077,金华市,十五中,细颗粒物(PM2.5),55,58,49,39,32,25,,,,28,24,5,5,0.6,0.5
2025-03-31T0500,1263A,119.686,29.1029,金华市,监测站,细颗粒物(PM2.5),64,62,52,46,34,14,,,,33,22,4,4,0.6,0.5
2025-03-31T0500,3659A,119.656,29.1131,金华市,气象局,细颗粒物(PM2.5),60,64,54,43,34,12,,,,35,26,5,5,0.4,0.3
2025-03-31T0500,1767A,121.1115,41.0879,锦州市,南山,细颗粒物(PM2.5),62,45,31,44,22,45,,,,38,19,13,11,0.6,0.5
2025-03-31T0500,1768A,121.0604,40.8428,锦州市,开发区,细颗粒物(PM2.5),68,51,37,49,20,40,,,,46,21,59,23,1.2,0.5
2025-03-31T0500,1769A,121.1836,41.1119,锦州市,百股街道,,45,40,30,31,14,49,,,,33,17,11,10,0.7,0.6
2025-03-31T0500,1770A,121.1178,41.1222,锦州市,天安街道,细颗粒物(PM2.5),58,44,31,41,17,32,,,,45,20,11,14,0.7,0.5
2025-03-31T0500,1771A,121.1303,41.1386,锦州市,北湖公园,,46,40,28,32,15,37,,,,39,14,10,10,0.6,0.4
2025-03-31T0500,2160A,112.85,35.5051,晋城市,自来水公司,颗粒物(PM10),59,68,57,31,19,23,,,,51,26,8,13,0.6,0.9
2025-03-31T0500,2161A,112.8318,35.4936,晋城市,白云商贸,颗粒物(PM10),63,75,55,19,12,38,,,,35,25,4,8,0.5,0.7
2025-03-31T0500,2162A,112.8508,35.4887,晋城市,市环保局,颗粒物(PM10),74,97,59,29,18,22,,,,59,28,4,9,0.4,0.7
2025-03-31T0500,2163A,112.8676,35.4897,晋城市,技术学院,颗粒物(PM10),55,60,58,24,16,24,,,,51,28,6,11,0.5,0.8
2025-03-31T0500,2165A,112.8453,35.546,晋城市,白马寺,颗粒物(PM10),59,67,48,32,26,99,,,,10,16,10,14,0.5,1.2
2025-03-31T0500,3620A,112.8271,35.4828,晋城市,泽州一中,颗粒物(PM10),52,53,43,22,16,50,,,,25,20,10,11,0.5,0.7
2025-03-31T0500,2173A,112.7249,37.7067,晋中市,南都小区,颗粒物(PM10),77,103,65,32,25,31,,,,28,30,10,13,0.5,0.5
2025-03-31T0500,2174A,112.6991,37.6982,晋中市,榆次区政府,颗粒物(PM10),58,66,65,24,19,43,,,,20,29,10,13,0.5,0.5
2025-03-31T0500,2865A,112.7195,37.6828,晋中市,榆次三中,颗粒物(PM10),53,56,64,19,18,36,,,,22,29,7,12,0.3,0.4
2025-03-31T0500,4200A,112.7478,37.6954,晋中市,迎宾街26号,颗粒物(PM10),60,70,72,19,20,41,,,,16,23,8,12,0.1,0.4
2025-03-31T0500,2439A,112.2014,31.0481,荆门市,竹园小学,颗粒物(PM10),71,92,97,39,39,64,,,,15,15,5,5,0.1,0.1
2025-03-31T0500,2440A,112.1969,30.9891,荆门市,掇刀,颗粒物(PM10),71,92,93,35,34,56,,,,13,14,4,5,0.3,0.3
2025-03-31T0500,2441A,112.2213,31.0386,荆门市,石化一小,颗粒物(PM10),73,96,91,35,39,62,,,,13,16,9,9,0.1,0.2
2025-03-31T0500,3012A,112.1849,31.0362,荆门市,西山林语,颗粒物(PM10),67,83,82,34,35,57,,,,12,12,5,5,0.1,0.2
2025-03-31T0500,3547A,112.1632,31.0138,荆门市,龙泉中学南校,颗粒物(PM10),70,89,96,34,39,45,,,,21,19,6,7,0.6,0.6
2025-03-31T0500,1844A,112.2494,30.3197,荆州市,市图书馆,颗粒物(PM10),59,68,71,38,36,68,,,,14,16,4,4,0.4,0.4
2025-03-31T0500,1845A,112.2008,30.3544,荆州市,市委党校,颗粒物(PM10),66,81,75,38,34,68,,,,16,15,6,6,0.3,0.3
2025-03-31T0500,3194A,112.2747,30.3122,荆州市,管委会,颗粒物(PM10),60,70,71,34,35,72,,,,11,13,6,6,0.4,0.3
2025-03-31T0500,4268A,112.1722,30.3366,荆州市,学苑路85号,颗粒物(PM10),59,67,63,36,31,65,,,,19,20,8,7,0.5,0.4
2025-03-31T0500,2342A,117.3102,29.3867,景德镇市,王港中学,,,,,,,,,,,,,,,,
2025-03-31T0500,2343A,117.2117,29.2933,景德镇市,老干部活动中心,,36,36,45,23,20,12,,,,14,12,5,5,0.2,0.2
2025-03-31T0500,2344A,117.1894,29.2789,景德镇市,兽医站,,33,33,62,17,17,20,,,,6,8,4,4,0.5,0.3
2025-03-31T0500,2345A,117.1547,29.2617,景德镇市,台达陶瓷,,38,35,58,26,20,26,,,,16,16,16,20,0.5,0.9
2025-03-31T0500,2346A,117.2461,29.2956,景德镇市,陶研所,细颗粒物(PM2.5),57,,42,40,28,13,,,,14,10,4,5,0.6,0.5
2025-03-31T0500,1803A,115.9872,29.6815,九江市,十里,颗粒物(PM10),53,55,78,27,30,26,,,,14,17,1,3,0.5,0.5
2025-03-31T0500,1804A,115.9584,29.7046,九江市,茅山头,颗粒物(PM10),57,64,84,28,30,42,,,,15,15,5,5,0.4,0.4
2025-03-31T0500,1805A,115.9877,29.7295,九江市,西园,颗粒物(PM10),59,67,69,24,27,55,,,,18,19,8,9,0.8,0.8
2025-03-31T0500,1808A,115.9114,29.6038,九江市,综合工业园,颗粒物(PM10),57,64,83,27,35,23,,,,28,28,6,9,0.6,0.6
2025-03-31T0500,1809A,116.0721,29.7535,九江市,石化总厂,细颗粒物(PM2.5),60,67,78,43,39,18,,,,44,20,5,4,0.5,0.5
2025-03-31T0500,1810A,115.9773,29.5698,九江市,庐山气象台,颗粒物(PM10),63,75,79,41,40,82,,,,10,10,7,7,0.5,0.7
2025-03-31T0500,3190A,116.0254,29.6994,九江市,外国语学校,颗粒物(PM10),53,56,74,33,29,34,,,,24,22,6,10,0.7,0.7
2025-03-31T0500,4253A,116.0102,29.6594,九江市,莲花大道8号,颗粒物(PM10),55,59,85,34,36,38,,,,7,11,6,7,0.4,0.4
2025-03-31T0500,4240A,98.4958,39.7339,酒泉市,玉门东路5号,颗粒物(PM10),136,222,127,51,33,64,,,,8,14,10,12,0.2,0.4
2025-03-31T0500,4241A,98.5099,39.7506,酒泉市,北大街108号,颗粒物(PM10),150,249,124,50,31,60,,,,13,14,19,13,0.5,0.4
2025-03-31T0500,2698A,76.0072,39.4467,喀什地区,巡警大队,颗粒物(PM10),500,843,1152,216,288,3,,,,62,42,4,4,1.6,1
2025-03-31T0500,2699A,75.9755,39.4694,喀什地区,吾办,颗粒物(PM10),500,764,1127,256,345,12,,,,41,33,2,2,1.2,1
2025-03-31T0500,4027A,75.9483,39.4689,喀什地区,老干局,颗粒物(PM10),500,831,1198,213,276,5,,,,46,29,2,2,2.0,0.9
2025-03-31T0500,1824A,114.3389,34.7781,开封市,肿瘤医院,颗粒物(PM10),79,107,75,42,29,61,,,,22,22,7,7,0.6,0.5
2025-03-31T0500,1826A,114.2885,34.7965,开封市,世纪星幼儿园,颗粒物(PM10),80,110,76,55,40,65,,,,26,24,7,9,0.7,0.7
2025-03-31T0500,3147A,114.3438,34.8106,开封市,龙亭公园,颗粒物(PM10),78,105,79,44,31,69,,,,26,25,2,4,0.3,0.3
2025-03-31T0500,3210A,114.3644,34.7964,开封市,汴京公园,颗粒物(PM10),78,106,89,45,33,62,,,,30,29,5,6,0.6,0.5
2025-03-31T0500,3473A,114.2485,34.8306,开封市,技师学院,细颗粒物(PM2.5),84,113,77,62,44,71,,,,27,27,12,13,0.6,0.6
2025-03-31T0500,3592A,114.4644,34.7556,开封市,祥符区生态环境局,颗粒物(PM10),91,132,93,48,35,42,,,,46,28,6,6,0.8,0.7
2025-03-31T0500,1951A,84.895,45.6094,克拉玛依市,长征新村,,34,34,28,3,9,71,,,,10,13,6,6,0.2,0.2
2025-03-31T0500,1952A,84.8988,45.5893,克拉玛依市,南林小区,,28,28,29,9,10,71,,,,5,9,3,4,0.5,0.5
2025-03-31T0500,1954A,84.905,44.3396,克拉玛依市,独山子区,,49,49,48,16,17,85,,,,6,8,5,5,0.4,0.4
2025-03-31T0500,1955A,85.6979,46.098,克拉玛依市,乌尔禾区商贸楼,,18,14,28,3,8,57,,,,7,11,5,6,0.5,0.6
2025-03-31T0500,3612A,85.1045,45.6899,克拉玛依市,白碱滩区新站,,25,22,25,9,6,77,,,,3,13,7,8,0,0.1
2025-03-31T0500,2697A,76.1454,39.7142,克孜勒苏柯尔克孜自治州,市人民政府,颗粒物(PM10),500,1170,1304,330,361,40,,,,13,14,9,4,0.6,0.5
2025-03-31T0500,3665A,76.1658,39.7157,克孜勒苏柯尔克孜自治州,克州文化中心,颗粒物(PM10),500,1102,1228,328,333,24,,,,34,16,4,4,0.5,0.5
2025-03-31T0500,1450A,102.8204,24.8886,昆明市,呈贡新区,细颗粒物(PM2.5),80,63,63,59,49,27,,,,22,25,6,7,0.7,0.8
2025-03-31T0500,1451A,102.6251,24.9608,昆明市,西山森林公园,,,,,,,,,,,,,,,,
2025-03-31T0500,1452A,102.7252,25.0902,昆明市,龙泉镇,细颗粒物(PM2.5),83,84,76,61,55,21,,,,22,25,6,7,0.7,0.7
2025-03-31T0500,1453A,102.7266,25.0375,昆明市,东风东路,细颗粒物(PM2.5),83,82,87,61,57,20,,,,30,39,7,8,0.6,0.7
2025-03-31T0500,1454A,102.6742,25.0669,昆明市,金鼎山,细颗粒物(PM2.5),89,76,79,66,57,18,,,,26,29,3,2,0.7,0.8
2025-03-31T0500,1455A,102.6644,25.0401,昆明市,碧鸡广场,细颗粒物(PM2.5),80,83,82,59,57,18,,,,34,35,6,6,0.7,0.8
2025-03-31T0500,3179A,102.7494,25.0119,昆明市,官渡区博物馆,,,,89,,60,,,,,,,,7,,
2025-03-31T0500,3375A,102.8017,24.8336,昆明市,青年创业园,细颗粒物(PM2.5),74,92,82,54,54,21,,,,25,23,6,8,0.7,0.8
2025-03-31T0500,3550A,102.7997,24.9786,昆明市,昆明学院,细颗粒物(PM2.5),79,90,93,58,55,24,,,,25,34,4,4,0.6,0.7
2025-03-31T0500,3551A,102.5967,24.6736,昆明市,晋宁区生态环境分局,细颗粒物(PM2.5),64,63,72,46,60,25,,,,25,17,8,8,0.8,0.8
2025-03-31T0500,3552A,102.6678,24.9856,昆明市,云天化总部,细颗粒物(PM2.5),80,89,88,59,57,24,,,,29,40,6,6,0.6,0.9
2025-03-31T0500,1456A,91.1319,29.6514,拉萨市,八廓街,,35,17,31,7,12,111,,,,6,12,6,9,0.3,0.5
2025-03-31T0500,1457A,91.1221,29.6747,拉萨市,市环保局,,31,16,40,14,15,97,,,,8,11,4,5,0.2,0.2
2025-03-31T0500,1458A,91.0874,29.6475,拉萨市,区监测站,,33,23,34,10,13,103,,,,4,11,6,8,0.4,0.4
2025-03-31T0500,1459A,91.1774,29.6541,拉萨市,西藏大学,,32,13,33,12,12,101,,,,6,9,7,10,0.4,0.4
2025-03-31T0500,1460A,90.9798,29.6588,拉萨市,区辐射站,,33,15,43,14,16,103,,,,4,13,7,8,0.5,0.5
2025-03-31T0500,1461A,91.0834,29.6292,拉萨市,拉萨火车站,,32,21,35,11,13,102,,,,2,5,3,4,0.6,0.5
2025-03-31T0500,2520A,109.2203,23.7256,来宾市,来宾技工学校,,19,19,16,10,8,48,,,,8,8,4,4,0.4,0.4
2025-03-31T0500,3535A,109.1781,23.7297,来宾市,兴宾区政府,,18,16,15,12,10,53,,,,3,6,6,7,0.5,0.6
2025-03-31T0500,4002A,109.2416,23.7461,来宾市,中南小学,,22,,16,15,11,46,,,,5,6,6,6,0.5,0.6
2025-03-31T0500,1477A,104.1373,35.9454,兰州市,榆中兰大校区,,,,,,,,,,,,,,,,
2025-03-31T0500,1479A,103.831,36.0464,兰州市,铁路设计院,颗粒物(PM10),67,83,119,31,36,30,,,,53,39,10,13,1.0,1
2025-03-31T0500,3241A,103.7439,36.0842,兰州市,百合公园,颗粒物(PM10),71,92,114,31,38,30,,,,39,29,5,10,0.6,0.7
2025-03-31T0500,3242A,103.9611,35.998,兰州市,和平,颗粒物(PM10),82,113,158,43,49,58,,,,21,27,8,12,0.4,0.6
2025-03-31T0500,4236A,103.6293,36.0938,兰州市,庄浪东路808号,颗粒物(PM10),68,85,128,38,51,56,,,,29,34,12,16,0.4,0.8
2025-03-31T0500,4237A,103.7251,36.1043,兰州市,安宁西路88号,颗粒物(PM10),67,84,141,35,47,49,,,,29,30,7,10,0.3,0.6
2025-03-31T0500,4238A,103.8470,36.0676,兰州市,北滨河东路1号,细颗粒物(PM2.5),67,77,119,48,44,37,,,,46,34,10,15,0.6,0.9
2025-03-31T0500,3245A,103.6633,36.533,兰州新区,新区管委会,,49,49,91,29,42,59,,,,19,16,12,21,0.6,0.6
2025-03-31T0500,3246A,103.6975,36.4789,兰州新区,舟曲中学,颗粒物(PM10),64,77,132,30,37,65,,,,25,23,15,16,0.7,0.7
2025-03-31T0500,1067A,116.6708,39.5111,廊坊市,药材公司,细颗粒物(PM2.5),77,87,56,56,34,38,,,,34,27,15,6,0.4,0.5
2025-03-31T0500,1068A,116.7214,39.5589,廊坊市,开发区,细颗粒物(PM2.5),74,80,59,54,31,47,,,,34,27,8,6,0.4,0.4
2025-03-31T0500,1070A,116.7244,39.5269,廊坊市,北华航天学院,细颗粒物(PM2.5),67,79,53,48,31,44,,,,32,28,14,8,0.4,0.4
2025-03-31T0500,2919A,116.7022,39.5453,廊坊市,河北工业大学,"颗粒物(PM10),细颗粒物(PM2.5)",68,86,54,49,35,46,,,,32,25,16,10,0.4,0.5
2025-03-31T0500,2535A,103.7723,29.5462,乐山市,花湖湾,,22,20,32,15,20,45,,,,6,10,3,3,0.5,0.4
2025-03-31T0500,2536A,103.7627,29.5844,乐山市,牛耳桥,,23,23,36,16,22,52,,,,16,19,6,8,0.4,0.4
2025-03-31T0500,2537A,103.7508,29.6006,乐山市,市第三水厂,,28,22,35,19,22,50,,,,8,11,6,5,0.4,0.4
2025-03-31T0500,2538A,103.7571,29.5664,乐山市,市监测站,,25,19,32,17,22,55,,,,7,11,6,6,0.6,0.6
2025-03-31T0500,3361A,103.7311,29.5628,乐山市,理工大学,,23,23,35,16,21,39,,,,12,12,4,4,0.4,0.4
2025-03-31T0500,2598A,100.2143,26.8576,丽江市,西南郊,细颗粒物(PM2.5),62,55,80,44,56,121,,,,4,9,4,5,0.9,1.1
2025-03-31T0500,2599A,100.2497,26.8802,丽江市,丽江古城,"颗粒物(PM10),细颗粒物(PM2.5)",57,63,75,40,48,99,,,,9,14,8,8,0.7,0.8
2025-03-31T0500,2600A,100.2203,26.8906,丽江市,市中心,细颗粒物(PM2.5),62,51,65,44,50,108,,,,12,17,10,11,0.9,0.9
2025-03-31T0500,1267A,119.914,28.4514,丽水市,监测站大楼,,33,,16,23,12,30,,,,18,17,2,2,0.3,0.3
2025-03-31T0500,1268A,119.93,28.4586,丽水市,莲都小学,,33,29,20,23,14,25,,,,21,20,4,3,0.3,0.3
2025-03-31T0500,1269A,119.879,28.4231,丽水市,余庄前,,39,37,23,27,17,18,,,,16,19,3,3,0.5,0.5
2025-03-31T0500,1173A,119.176,34.5885,连云港市,市环境监测站,细颗粒物(PM2.5),67,75,67,48,38,48,,,,30,21,12,11,0.8,0.6
2025-03-31T0500,3000A,119.3581,34.6972,连云港市,德源药业,颗粒物(PM10),60,70,62,41,33,62,,,,24,23,11,10,0.7,0.5
2025-03-31T0500,3007A,119.178,34.844,连云港市,新城一中,细颗粒物(PM2.5),83,78,62,61,40,36,,,,53,31,10,10,0.8,0.6
2025-03-31T0500,3008A,119.3608,34.7519,连云港市,胡沟管理处,细颗粒物(PM2.5),55,58,46,39,28,82,,,,20,20,8,9,0.9,0.8
2025-03-31T0500,3009A,119.1478,34.5911,连云港市,矿山设计院,"颗粒物(PM10),细颗粒物(PM2.5)",64,78,66,46,34,55,,,,30,21,10,11,0.7,0.5
2025-03-31T0500,3434A,119.2413,34.6539,连云港市,工贸学校,细颗粒物(PM2.5),69,,10,50,40,55,,,,31,21,12,10,1.2,0.9
2025-03-31T0500,3664A,119.4172,34.7341,连云港市,连云街道,颗粒物(PM10),68,85,61,47,31,87,,,,20,20,8,9,0.5,0.4
2025-03-31T0500,2571A,102.3431,27.8099,凉山彝族自治州,青龙寺,,41,41,43,11,12,48,,,,12,6,6,9,0.6,0.6
2025-03-31T0500,2572A,102.2721,27.8415,凉山彝族自治州,邛海宾馆,,34,34,46,18,22,66,,,,8,11,4,9,0.4,0.5
2025-03-31T0500,2573A,102.2625,27.898,凉山彝族自治州,西昌市政府,,27,27,41,16,25,58,,,,4,9,5,8,0.2,0.4
2025-03-31T0500,2574A,102.2685,27.8851,凉山彝族自治州,凉山州政府,,31,31,43,19,26,66,,,,8,12,4,8,0.5,0.5
2025-03-31T0500,4229A,102.2342,27.8859,凉山彝族自治州,凯乐南路30号,,35,35,47,17,21,54,,,,17,14,71,24,0.7,0.5
2025-03-31T0500,2212A,123.2,41.1953,辽阳市,宏伟区,,36,36,31,17,16,90,,,,8,9,12,13,0.8,0.9
2025-03-31T0500,2213A,123.1683,41.2495,辽阳市,新华园,,46,46,36,17,19,81,,,,16,18,15,15,1.2,1.1
2025-03-31T0500,2214A,123.2354,41.2639,辽阳市,滨河路,,36,36,28,16,18,85,,,,10,13,9,20,0.4,0.5
2025-03-31T0500,2215A,123.149,41.2991,辽阳市,铁西工业园,颗粒物(PM10),56,61,41,23,22,73,,,,23,18,20,11,1.3,0.8
2025-03-31T0500,2227A,125.1358,42.8845,辽源市,环保局,颗粒物(PM10),58,65,58,18,23,86,,,,10,13,7,6,0.7,0.6
2025-03-31T0500,3239A,125.0764,42.9078,辽源市,银鹰制药,,29,22,37,18,25,90,,,,9,12,8,8,1.0,1
2025-03-31T0500,1625A,115.9848,36.4372,聊城市,区政府,颗粒物(PM10),71,92,75,41,31,67,,,,26,25,9,9,0.5,0.5
2025-03-31T0500,2878A,116.0072,36.4343,聊城市,聊大东校,颗粒物(PM10),82,114,84,42,37,67,,,,22,22,9,10,0.5,0.5
2025-03-31T0500,3200A,115.9819,36.4978,聊城市,监控中心,颗粒物(PM10),80,110,78,39,32,74,,,,20,19,13,13,0.6,0.6
2025-03-31T0500,3513A,116.0445,36.4361,聊城市,九州社区,颗粒物(PM10),73,96,80,41,30,62,,,,26,23,12,12,0.6,0.5
2025-03-31T0500,4018A,116.0567,36.4608,聊城市,星美广场,颗粒物(PM10),75,100,81,35,29,68,,,,19,18,10,10,0.7,0.6
2025-03-31T0500,2632A,94.3681,29.6376,林芝市,林芝监测站,,45,,13,3,8,143,,,,3,6,5,5,0.3,0.4
2025-03-31T0500,2633A,94.3616,29.6616,林芝市,林芝人民医院,,42,6,13,3,5,132,,,,1,2,7,8,0.3,0.4
2025-03-31T0500,2603A,100.0781,23.8982,临沧市,市环保局,细颗粒物(PM2.5),129,137,121,98,84,92,,,,16,17,10,11,1.2,0.9
2025-03-31T0500,2604A,100.0894,23.8822,临沧市,市气象局,细颗粒物(PM2.5),150,115,104,115,90,88,,,,16,19,7,8,1.0,0.8
2025-03-31T0500,1733A,111.5531,36.0783,临汾市,临钢医院,,46,46,59,23,21,40,,,,19,25,3,6,0.8,0.7
2025-03-31T0500,1734A,111.5028,36.0714,临汾市,技工学校,,49,,53,34,28,39,,,,24,26,8,9,0.7,0.7
2025-03-31T0500,1736A,111.5018,36.0855,临汾市,市委,颗粒物(PM10),58,66,59,25,21,33,,,,34,28,3,5,1.1,1
2025-03-31T0500,3018A,111.505,36.1014,临汾市,唐尧大酒店,颗粒物(PM10),75,100,65,25,23,9,,,,50,26,6,8,0.7,0.7
2025-03-31T0500,4244A,111.4879,36.0530,临汾市,启星学校,颗粒物(PM10),54,57,56,35,27,17,,,,37,27,3,6,0.8,0.7
2025-03-31T0500,4271A,103.2464,35.6123,临夏回族自治州,滨河东路1号,颗粒物(PM10),85,120,159,55,52,20,,,,16,12,4,8,0.7,0.7
2025-03-31T0500,4310A,103.2093,35.5995,临夏回族自治州,新华街21号,颗粒物(PM10),75,100,148,39,54,52,,,,14,17,14,14,0.5,0.6
2025-03-31T0500,1618A,118.3429,35.0532,临沂市,沂河小区,细颗粒物(PM2.5),99,110,76,74,43,50,,,,39,27,31,14,0.7,0.7
2025-03-31T0500,1619A,118.295,35.0583,临沂市,鲁南制药厂,细颗粒物(PM2.5),78,85,79,57,40,62,,,,36,37,29,18,0.6,0.6
2025-03-31T0500,1620A,118.2794,34.9976,临沂市,新光毛纺厂,细颗粒物(PM2.5),94,107,78,70,40,48,,,,47,39,41,20,0.7,0.7
2025-03-31T0500,1621A,118.3956,35.0888,临沂市,河东保险公司,细颗粒物(PM2.5),69,85,68,50,35,63,,,,40,37,24,10,0.5,0.4
2025-03-31T0500,3370A,118.3564,35.0215,临沂市,十里堡居委,细颗粒物(PM2.5),89,119,74,66,37,27,,,,63,35,26,11,0.9,0.7
2025-03-31T0500,3496A,118.3604,35.1084,临沂市,南坊新区,细颗粒物(PM2.5),77,90,71,56,35,65,,,,31,28,24,12,0.6,0.6
2025-03-31T0500,3860A,118.3920,35.0300,临沂市,皇山花园小区,"颗粒物(PM10),细颗粒物(PM2.5)",70,90,73,51,37,45,,,,47,30,19,12,0.6,0.5
2025-03-31T0500,1870A,109.4856,24.3895,柳州市,柳东小学,,15,13,13,10,9,41,,,,9,10,10,10,0.5,0.5
2025-03-31T0500,1871A,109.4157,24.3277,柳州市,环保监测站,,17,11,14,10,9,53,,,,4,7,10,10,0.6,0.7
2025-03-31T0500,1872A,109.389,24.341,柳州市,河西水厂,,16,10,15,10,9,50,,,,10,11,6,8,0.7,0.8
2025-03-31T0500,1873A,109.4311,24.2921,柳州市,市四中,,16,10,14,9,11,50,,,,3,6,8,8,0.5,0.5
2025-03-31T0500,1874A,109.4006,24.3631,柳州市,市九中,,17,12,16,10,9,54,,,,6,8,8,7,0.3,0.4
2025-03-31T0500,1875A,109.4958,24.3134,柳州市,古亭山,,15,,11,7,6,46,,,,4,5,6,6,0.5,0.6
2025-03-31T0500,3402A,109.5422,24.3996,柳州市,市二中,,18,12,13,12,11,31,,,,8,8,10,9,0.3,0.3
2025-03-31T0500,2307A,116.5079,31.737,六安市,监测大楼,颗粒物(PM10),64,78,100,40,40,66,,,,17,12,5,5,0.5,0.5
2025-03-31T0500,2308A,116.4738,31.7643,六安市,皖西学院,颗粒物(PM10),70,89,112,44,41,70,,,,21,16,5,4,0.5,0.5
2025-03-31T0500,2309A,116.4996,31.7905,六安市,朝阳厂,颗粒物(PM10),62,73,97,40,38,65,,,,25,20,4,4,0.7,0.6
2025-03-31T0500,2310A,116.5567,31.7886,六安市,开发区,颗粒物(PM10),72,93,123,42,46,38,,,,47,18,4,4,0.7,0.6
2025-03-31T0500,2576A,104.8,26.5892,六盘水市,窑上,,26,23,36,18,23,40,,,,7,11,4,5,0.5,0.6
2025-03-31T0500,2577A,104.83,26.5917,六盘水市,黄土坡,,13,11,26,3,14,39,,,,11,14,7,10,0.4,0.6
2025-03-31T0500,2578A,104.89,26.5939,六盘水市,水钢,,14,7,33,3,19,44,,,,11,15,6,10,0.3,0.5
2025-03-31T0500,2579A,104.8475,26.5894,六盘水市,民中,,14,7,27,3,13,42,,,,6,16,7,8,0.4,0.5
2025-03-31T0500,2580A,104.9544,26.5506,六盘水市,双水,,17,17,20,3,14,50,,,,8,11,8,10,0.4,0.5
2025-03-31T0500,2335A,117.0189,25.1181,龙岩市,龙岩师专,,,,,,,,,,,,,,,,
2025-03-31T0500,2336A,117.0217,25.1033,龙岩市,龙岩市监测站,,19,6,2,3,1,58,,,,8,10,4,5,0.2,0.2
2025-03-31T0500,2337A,117.0258,25.0661,龙岩市,闽西职业技术学院,,18,12,5,3,3,56,,,,8,10,3,3,0.5,0.5
2025-03-31T0500,2338A,117.0196,25.0306,龙岩市,龙岩学院,,17,7,6,6,4,52,,,,6,10,3,3,0.4,0.5
2025-03-31T0500,2665A,105.0822,33.3261,陇南市,汉王镇固水子,,,,,,,,,,,,,,,,
2025-03-31T0500,2885A,104.9339,33.3826,陇南市,滨江中学,颗粒物(PM10),52,53,82,29,28,48,,,,4,5,8,6,0.4,0.4
2025-03-31T0500,3247A,104.955,33.371,陇南市,市总工会,颗粒物(PM10),53,56,76,20,29,51,,,,6,5,8,7,0.5,0.5
2025-03-31T0500,2487A,111.9589,27.8901,娄底市,电视发射台,,26,26,21,9,10,39,,,,4,5,6,6,0.5,0.6
2025-03-31T0500,2488A,111.9975,27.725,娄底市,市监测站,,46,39,25,32,19,35,,,,25,14,12,9,1.0,0.6
2025-03-31T0500,2489A,112.0194,27.7314,娄底市,市委党校,,45,39,25,31,18,47,,,,11,7,3,4,0.8,0.5
2025-03-31T0500,2490A,111.9561,27.7569,娄底市,涟钢,,39,39,26,26,18,42,,,,7,10,7,6,0.7,0.7
2025-03-31T0500,2491A,111.9892,27.7044,娄底市,市政府,,34,34,24,23,18,37,,,,5,8,7,5,0.7,0.6
2025-03-31T0500,1893A,105.4324,28.9634,泸州市,九狮山,,,,,,,,,,,,,,,,
2025-03-31T0500,1894A,105.4427,28.9063,泸州市,小市上码头,,39,37,22,27,14,15,,,,27,17,5,5,0.5,0.4
2025-03-31T0500,1895A,105.4241,28.8573,泸州市,兰田宪桥,,35,29,21,24,14,7,,,,15,12,4,5,0.4,0.4
2025-03-31T0500,1896A,105.4379,28.8833,泸州市,市环监站,,,,,,,,,,,,,,,,
2025-03-31T0500,4272A,105.3689,28.7783,泸州市,纳溪中医医院,,18,,20,12,10,7,,,,15,14,4,4,0.5,0.5
2025-03-31T0500,2183A,111.1406,37.5211,吕梁市,环保局,颗粒物(PM10),58,66,48,18,15,25,,,,37,31,1,2,0.4,0.4
2025-03-31T0500,2185A,111.1297,37.5136,吕梁市,自来水公司,颗粒物(PM10),136,222,95,39,19,3,,,,55,31,2,3,0.4,0.4
2025-03-31T0500,2867A,111.1283,37.51,吕梁市,马茂庄小学,颗粒物(PM10),95,140,60,31,14,5,,,,57,36,5,3,0.3,0.4
2025-03-31T0500,1812A,112.3931,34.6516,洛阳市,市委党校,颗粒物(PM10),68,86,62,45,27,9,,,,55,20,8,7,0.6,0.5
2025-03-31T0500,1815A,112.494,34.6886,洛阳市,河南林校,颗粒物(PM10),71,92,65,40,27,10,,,,60,24,4,5,0.7,0.6
2025-03-31T0500,1816A,112.3844,34.623,洛阳市,开发区管委会,颗粒物(PM10),65,79,59,40,28,49,,,,25,18,6,7,0.4,0.3
2025-03-31T0500,1817A,112.4267,34.6258,洛阳市,市委新办公区,颗粒物(PM10),65,80,58,34,24,56,,,,23,17,6,6,0.4,0.3
2025-03-31T0500,3340A,112.6005,34.6326,洛阳市,伊滨,颗粒物(PM10),64,78,59,42,34,38,,,,33,16,5,6,0.7,0.6
2025-03-31T0500,3341A,112.4951,34.6332,洛阳市,中移产业园,细颗粒物(PM2.5),74,92,74,54,30,49,,,,23,15,9,7,0.4,0.3
2025-03-31T0500,3593A,112.5736,34.8993,洛阳市,吉利监测站,颗粒物(PM10),51,51,51,28,26,60,,,,15,28,8,8,0.4,0.4
2025-03-31T0500,3635A,112.3677,34.662,洛阳市,河科大西苑校区,颗粒物(PM10),69,87,68,37,26,30,,,,33,21,19,11,0.5,0.4
2025-03-31T0500,3636A,112.4388,34.6781,洛阳市,英才小学,颗粒物(PM10),73,96,64,42,28,17,,,,54,25,9,8,0.6,0.4
2025-03-31T0500,4214A,112.4600,34.6949,洛阳市,春都路1号院,颗粒物(PM10),77,104,78,37,27,18,,,,52,24,8,8,0.7,0.6
2025-03-31T0500,2399A,114.051,33.5699,漯河市,三五一五工厂,颗粒物(PM10),86,122,98,49,42,66,,,,18,20,4,6,0.5,0.5
2025-03-31T0500,2400A,114.0055,33.5698,漯河市,漯河大学,颗粒物(PM10),83,116,94,48,36,71,,,,17,15,12,8,0.5,0.4
2025-03-31T0500,2401A,114.0138,33.5828,漯河市,市水利局,颗粒物(PM10),90,129,97,58,39,75,,,,16,16,5,6,0.5,0.5
2025-03-31T0500,2402A,114.0261,33.5698,漯河市,市广电局,颗粒物(PM10),86,122,94,51,38,70,,,,16,16,6,6,0.5,0.5
2025-03-31T0500,3478A,113.9749,33.5664,漯河市,市图书馆,颗粒物(PM10),88,125,93,54,36,63,,,,23,17,7,6,0.5,0.5
2025-03-31T0500,4250A,114.0892,33.5882,漯河市,韶山路11号,颗粒物(PM10),90,130,97,58,41,75,,,,15,17,6,6,0.5,0.4
2025-03-31T0500,1798A,118.5092,31.6837,马鞍山市,湖东路四小,,37,37,85,13,37,78,,,,18,23,8,7,0.5,0.6
2025-03-31T0500,1799A,118.5024,31.6449,马鞍山市,开发区,颗粒物(PM10),52,53,96,18,41,67,,,,23,29,5,5,0.6,0.7
2025-03-31T0500,1802A,118.6245,31.7241,马鞍山市,濮塘,,33,33,77,15,38,84,,,,7,13,8,9,0.2,0.4
2025-03-31T0500,3633A,118.4918,31.6809,马鞍山市,雨山,,38,38,90,14,41,75,,,,14,22,7,8,0.7,0.8
2025-03-31T0500,4191A,118.5274,31.72227,马鞍山市,慈湖高新区,,,35,99,20,44,69,,,,,27,8,7,0.6,0.7
2025-03-31T0500,1686A,111.0286,21.4688,茂名市,电白南海,,17,17,23,9,15,23,,,,11,12,5,3,0.9,0.9
2025-03-31T0500,1687A,110.9294,21.6533,茂名市,茂石化七小,,10,7,13,7,6,17,,,,2,5,1,1,0.8,0.8
2025-03-31T0500,1688A,110.9107,21.6687,茂名市,健康路,,10,,11,7,7,22,,,,7,9,8,5,0.6,0.7
2025-03-31T0500,1689A,110.8592,21.6828,茂名市,高岭,,17,17,19,3,6,15,,,,8,9,16,16,0.6,0.6
2025-03-31T0500,3450A,111.01,21.5165,茂名市,电白水东,,18,,19,12,14,20,,,,13,14,24,14,0.6,0.7
2025-03-31T0500,2539A,104.0308,30.0478,眉山市,黑龙滩水库,,22,22,22,15,13,39,,,,2,3,3,3,0.5,0.5
2025-03-31T0500,2540A,103.8416,30.0874,眉山市,气象局,细颗粒物(PM2.5),55,57,53,39,22,30,,,,24,21,5,5,0.5,0.4
2025-03-31T0500,3137A,103.8578,30.0744,眉山市,市委党校,细颗粒物(PM2.5),52,39,32,36,19,37,,,,13,14,3,3,0.5,0.4
2025-03-31T0500,3148A,103.8291,30.0564,眉山市,区人社局,,42,38,39,29,20,39,,,,21,23,1,2,0.5,0.4
2025-03-31T0500,1690A,116.1231,24.3284,梅州市,梅江月梅,,8,7,8,3,5,14,,,,15,15,3,3,0.5,0.5
2025-03-31T0500,1691A,116.0797,24.2719,梅州市,梅县新城,,,6,4,3,3,23,,,,,11,4,4,0.5,0.5
2025-03-31T0500,1692A,116.1248,24.2654,梅州市,环境监控中心,,7,,3,3,4,19,,,,14,14,6,5,0.5,0.5
2025-03-31T0500,3315A,116.1233,24.2991,梅州市,梅龙,,7,6,5,3,3,17,,,,13,11,5,6,0.6,0.6
2025-03-31T0500,1878A,104.7778,31.4741,绵阳市,富乐山,,29,28,28,20,16,18,,,,19,10,2,2,0.4,0.3
2025-03-31T0500,1880A,104.6697,31.4668,绵阳市,高新区自来水公司,颗粒物(PM10),55,59,42,34,21,23,,,,24,18,2,3,0.5,0.5
2025-03-31T0500,1881A,104.7287,31.5075,绵阳市,三水厂,,35,32,32,24,19,23,,,,21,12,4,5,0.6,0.5
2025-03-31T0500,3491A,104.69,31.5322,绵阳市,西科大附属小学,颗粒物(PM10),54,58,39,37,22,29,,,,25,22,7,6,0.6,0.5
2025-03-31T0500,3492A,104.5648,31.5343,绵阳市,安州区旅游局,,45,,37,31,16,25,,,,19,18,10,9,0.1,0
2025-03-31T0500,4226A,104.7651,31.4531,绵阳市,绵阳市气象局,,48,39,30,33,20,19,,,,18,10,4,4,0.5,0.4
2025-03-31T0500,1784A,129.61,44.561,牡丹江市,环保大楼,颗粒物(PM10),53,56,37,33,25,82,,,,12,11,7,6,0.3,0.3
2025-03-31T0500,1785A,129.6115,44.5782,牡丹江市,文化广场,细颗粒物(PM2.5),57,51,37,40,27,87,,,,8,9,11,9,0.3,0.3
2025-03-31T0500,1786A,129.5904,44.5963,牡丹江市,第一医院,颗粒物(PM10),52,53,36,32,26,58,,,,18,12,9,9,0.3,0.3
2025-03-31T0500,1787A,129.6364,44.6075,牡丹江市,机车工厂,,49,49,37,34,22,64,,,,16,11,10,15,0.5,0.4
2025-03-31T0500,1788A,129.6386,44.5462,牡丹江市,第一中学,细颗粒物(PM2.5),58,54,35,41,22,78,,,,12,9,7,7,0.4,0.4
2025-03-31T0500,2531A,105.0703,29.61,内江市,市监测站,,29,20,24,20,18,26,,,,8,14,3,2,0.5,0.6
2025-03-31T0500,2532A,105.0717,29.5947,内江市,东兴区政府,,16,15,21,11,12,26,,,,10,15,3,3,0.5,0.5
2025-03-31T0500,2533A,105.0653,29.5817,内江市,内江二中,,29,20,26,20,18,29,,,,8,13,7,7,0.3,0.3
2025-03-31T0500,2534A,105.0406,29.5822,内江市,内江日报社,,31,31,25,18,16,28,,,,10,15,2,2,0.4,0.4
2025-03-31T0500,2628A,92.0657,31.4846,那曲市,那曲监测站,,35,35,43,14,20,79,,,,15,15,9,11,0.7,0.9
2025-03-31T0500,4243A,92.0515,31.4787,那曲市,那曲市委宣传部,颗粒物(PM10),54,58,47,24,23,96,,,,3,14,4,6,0.2,0.5
2025-03-31T0500,1290A,115.8931,28.6843,南昌市,省外办,细颗粒物(PM2.5),52,40,62,36,36,46,,,,26,25,5,5,0.5,0.5
2025-03-31T0500,1291A,115.8886,28.7003,南昌市,省林业公司,,42,31,63,29,33,53,,,,11,14,7,7,0.1,0.1
2025-03-31T0500,1292A,115.8126,28.7442,南昌市,林科所,,35,31,66,24,30,49,,,,16,19,1,2,0.3,0.3
2025-03-31T0500,1294A,115.8518,28.687,南昌市,建工学校,,39,30,72,27,36,51,,,,20,19,3,3,0.3,0.3
2025-03-31T0500,1295A,115.8921,28.6424,南昌市,象湖,,39,28,59,27,30,60,,,,11,12,7,7,0.6,0.6
2025-03-31T0500,1296A,115.7423,28.7996,南昌市,武术学校,,25,17,51,17,23,4,,,,4,7,4,5,0.4,0.5
2025-03-31T0500,3046A,115.9084,28.6062,南昌市,机电学校,,49,49,64,27,30,38,,,,29,22,2,3,0.6,0.5
2025-03-31T0500,3690A,115.9721,28.7031,南昌市,外国语学校,,40,40,61,26,27,66,,,,10,14,5,7,0.0,0
2025-03-31T0500,4192A,115.9316,28.68677,南昌市,南京东路235号,,43,34,62,30,32,66,,,,11,16,8,8,0.3,0.3
2025-03-31T0500,1905A,106.056,30.8064,南充市,西山风景区,,16,,13,11,11,29,,,,5,8,3,3,0.4,0.4
2025-03-31T0500,1906A,106.0789,30.8023,南充市,南充市委,,18,18,22,12,16,12,,,,13,16,2,3,0.5,0.5
2025-03-31T0500,1907A,106.1031,30.8217,南充市,南充炼油厂,,32,27,26,22,17,16,,,,10,13,3,3,0.3,0.3
2025-03-31T0500,1909A,106.0642,30.7636,南充市,嘉陵区环保局,,22,22,24,12,16,9,,,,17,15,3,2,0.1,0.1
2025-03-31T0500,4227A,106.1083,30.7884,南充市,梨树横街98号,,22,22,23,3,15,25,,,,14,15,4,4,0.2,0.3
2025-03-31T0500,4304A,106.1172,30.843,南充市,清泉寺北路188号,,29,24,27,20,19,16,,,,16,13,7,6,0.3,0.3
2025-03-31T0500,1151A,118.8086,32.1065,南京市,迈皋桥,,28,24,59,9,28,88,,,,8,25,4,4,0.2,0.4
2025-03-31T0500,1152A,118.7538,32.0551,南京市,草场门,,27,27,65,12,29,77,,,,24,28,5,6,0.5,0.6
2025-03-31T0500,1153A,118.7794,32.0745,南京市,山西路,,,,80,12,36,77,,,,7,9,4,4,0.1,0.2
2025-03-31T0500,1154A,118.7752,32.0023,南京市,中华门,,31,31,65,17,29,65,,,,16,21,10,8,0.4,0.4
2025-03-31T0500,1155A,118.8109,32.0309,南京市,瑞金路,,27,27,70,14,30,76,,,,12,19,7,6,0.7,0.8
2025-03-31T0500,1156A,118.7997,32.0754,南京市,玄武湖,,33,33,72,3,29,81,,,,11,16,4,5,0.6,0.6
2025-03-31T0500,1157A,118.6414,32.0931,南京市,浦口,,38,38,89,13,30,82,,,,22,22,8,6,0.1,0.2
2025-03-31T0500,1158A,118.7356,31.9996,南京市,奥体中心,,34,34,72,14,30,76,,,,21,24,11,7,0.3,0.4
2025-03-31T0500,1159A,118.9125,32.1028,南京市,仙林大学城,,34,34,61,17,32,68,,,,14,18,7,8,0.6,0.7
2025-03-31T0500,3422A,118.8436,31.9198,南京市,江宁彩虹桥,,42,42,73,17,30,67,,,,13,16,4,4,0.4,0.5
2025-03-31T0500,3427A,118.8554,32.3578,南京市,六合雄州,,34,34,61,21,29,69,,,,15,20,7,6,0.3,0.3
2025-03-31T0500,4249A,118.8708,31.3402,南京市,汶溪路181号,细颗粒物(PM2.5),60,,76,43,43,61,,,,27,20,7,3,0.9,0.8
2025-03-31T0500,4312A,119.019,31.6512,南京市,中山西路1号,,36,31,56,25,34,54,,,,4,8,6,6,0.4,0.5
2025-03-31T0500,1401A,108.3103,22.7881,南宁市,二十一中,,17,14,15,8,8,54,,,,10,14,5,6,0.6,0.6
2025-03-31T0500,1402A,108.3141,22.8528,南宁市,北湖,,18,15,16,9,7,55,,,,10,13,7,9,0.5,0.5
2025-03-31T0500,1403A,108.3206,22.8225,南宁市,市监测站,,16,11,16,3,8,50,,,,11,15,6,8,0.5,0.5
2025-03-31T0500,1404A,108.3829,22.8037,南宁市,大自然花园,,17,12,13,8,7,54,,,,8,9,7,5,0.5,0.5
2025-03-31T0500,1405A,108.4394,22.7904,南宁市,仙葫,,18,,12,8,9,57,,,,6,9,5,6,0.4,0.4
2025-03-31T0500,1406A,108.2397,22.8467,南宁市,区农职院,,15,14,17,3,4,46,,,,8,10,3,4,0.5,0.5
2025-03-31T0500,1407A,108.3275,22.735,南宁市,英华嘉园,,17,15,14,7,3,52,,,,12,10,6,7,0.5,0.5
2025-03-31T0500,3401A,108.4834,22.7618,南宁市,红星社区,,21,12,12,6,8,66,,,,5,6,8,8,0.5,0.5
2025-03-31T0500,4221A,108.2177,22.7774,南宁市,乐贤路16号,,18,18,20,12,13,43,,,,10,12,9,9,0.6,0.6
2025-03-31T0500,2331A,118.0966,26.6761,南平市,茫荡山,,,,,,,,,,,,,,,,
2025-03-31T0500,2332A,118.1681,26.6369,南平市,南平市监测站,,18,11,7,7,5,55,,,,7,9,4,4,0.5,0.5
2025-03-31T0500,2333A,118.1825,26.6489,南平市,南平铝业有限公司,,20,20,7,10,2,57,,,,5,8,4,4,0.6,0.6
2025-03-31T0500,2334A,118.1756,26.6272,南平市,南平七中,,19,10,5,10,5,59,,,,6,9,4,5,0.7,0.7
2025-03-31T0500,1168A,120.9098,31.9663,南通市,狼山街道,,30,30,35,14,14,52,,,,24,17,6,7,0.3,0.3
2025-03-31T0500,1169A,120.86,32.0005,南通市,虹桥,,24,24,35,16,16,49,,,,42,24,8,6,0.7,0.6
2025-03-31T0500,1170A,120.87,32.02,南通市,城中,,35,35,37,14,14,56,,,,37,23,8,7,0.5,0.5
2025-03-31T0500,1171A,120.94,31.93,南通市,星湖花园,,32,32,30,13,15,58,,,,28,19,6,7,0.5,0.5
2025-03-31T0500,1172A,120.81,32.0417,南通市,紫琅学院,,35,35,31,16,13,31,,,,52,24,5,4,0.4,0.3
2025-03-31T0500,3291A,121.067,32.062,南通市,通州监测站,,28,24,32,9,15,87,,,,15,14,3,4,0.5,0.5
2025-03-31T0500,3432A,120.9348,31.9883,南通市,环境教育馆,,31,31,33,12,15,53,,,,25,19,5,6,0.3,0.3
2025-03-31T0500,2404A,112.5224,33.0122,南阳市,瓦房庄,颗粒物(PM10),69,88,92,45,39,63,,,,12,16,5,6,0.4,0.4
2025-03-31T0500,2405A,112.5003,32.9735,南阳市,汉画馆,颗粒物(PM10),65,79,82,38,36,56,,,,18,21,5,5,0.4,0.4
2025-03-31T0500,2406A,112.5573,33.027,南阳市,气象站,颗粒物(PM10),75,99,102,41,34,63,,,,12,18,6,5,0.5,0.5
2025-03-31T0500,2407A,112.5481,32.9689,南阳市,理工学院,颗粒物(PM10),65,80,86,30,33,60,,,,12,21,5,4,0.2,0.3
2025-03-31T0500,4008A,112.5234,32.9922,南阳市,卧龙区政府,颗粒物(PM10),70,89,97,38,38,63,,,,11,16,5,5,0.5,0.5
2025-03-31T0500,1234A,121.8358,29.911,宁波市,区环保大楼,,30,30,32,13,15,77,,,,22,21,8,8,0.4,0.4
2025-03-31T0500,1235A,121.56,29.82,宁波市,万里学院,颗粒物(PM10),65,79,46,38,18,21,,,,39,23,6,7,0.5,0.5
2025-03-31T0500,1236A,121.713,29.9572,宁波市,龙赛医院,,33,33,31,11,19,78,,,,20,19,8,7,0.5,0.4
2025-03-31T0500,1239A,121.633,29.7733,宁波市,钱湖水厂,,21,21,35,8,15,49,,,,12,18,6,7,0.5,0.5
2025-03-31T0500,1240A,121.5856,29.8635,宁波市,太古小学,,25,25,39,10,15,74,,,,17,20,9,9,0.3,0.3
2025-03-31T0500,1241A,121.524,29.8674,宁波市,市环境监测中心,,32,32,44,9,15,29,,,,36,24,7,8,0.6,0.6
2025-03-31T0500,2871A,121.6147,29.9017,宁波市,万里国际学校,,29,29,45,7,12,52,,,,32,21,8,7,0.4,0.4
2025-03-31T0500,3710A,121.5594,29.8975,宁波市,白沙活动中心,,31,31,47,8,19,57,,,,29,20,6,6,0.3,0.3
2025-03-31T0500,2339A,119.5001,26.6946,宁德市,金涵水库,,,,,,,,,,,,,,,,
2025-03-31T0500,2341A,119.5388,26.6612,宁德市,宁德市监测站,,25,,6,9,9,77,,,,4,12,4,4,0.4,0.4
2025-03-31T0500,3209A,119.5231,26.6562,宁德市,宁德一中,,26,7,7,3,4,82,,,,3,8,4,5,0.2,0.2
2025-03-31T0500,2618A,98.8601,25.8567,怒江傈僳族自治州,州监测站,细颗粒物(PM2.5),69,57,82,50,62,80,,,,6,8,5,6,0.5,0.6
2025-03-31T0500,2619A,98.8546,25.8417,怒江傈僳族自治州,泸水一中,细颗粒物(PM2.5),63,60,79,45,66,52,,,,11,16,6,7,0.7,0.8
2025-03-31T0500,1888A,101.6891,26.571,攀枝花市,弄弄坪,细颗粒物(PM2.5),64,74,97,46,59,94,,,,13,28,10,28,0.7,1.9
2025-03-31T0500,1889A,101.5769,26.5928,攀枝花市,河门口,细颗粒物(PM2.5),70,78,93,51,61,77,,,,18,24,10,16,0.7,1.1
2025-03-31T0500,1890A,101.7169,26.585,攀枝花市,炳草岗,细颗粒物(PM2.5),83,84,81,61,47,31,,,,53,29,20,19,1.4,1.1
2025-03-31T0500,1891A,101.7369,26.5008,攀枝花市,仁和,细颗粒物(PM2.5),69,72,83,50,49,77,,,,13,22,8,9,0.7,0.8
2025-03-31T0500,2835A,101.7227,26.567,攀枝花市,四十中小,颗粒物(PM10),65,79,88,45,47,113,,,,11,18,10,16,0.4,0.8
2025-03-31T0500,1604A,122.0303,41.1489,盘锦市,开发区,,29,,23,20,17,84,,,,12,14,5,7,0.4,0.4
2025-03-31T0500,1605A,122.0485,41.0883,盘锦市,兴隆台,,28,28,28,15,18,78,,,,17,17,3,7,0.5,0.5
2025-03-31T0500,1606A,121.8297,41.1028,盘锦市,新生街道,,43,33,19,30,14,83,,,,16,15,7,10,0.6,0.5
2025-03-31T0500,1832A,113.3257,33.742,平顶山市,新华旅馆,颗粒物(PM10),71,92,78,40,30,67,,,,20,22,5,5,0.4,0.4
2025-03-31T0500,1833A,113.2919,33.737,平顶山市,规划设计院,颗粒物(PM10),69,87,72,35,33,68,,,,18,20,5,6,0.4,0.4
2025-03-31T0500,1834A,113.182,33.774,平顶山市,平顶山工学院,颗粒物(PM10),63,75,63,34,25,72,,,,13,14,1,1,0.3,0.3
2025-03-31T0500,3204A,113.3025,33.73,平顶山市,规划局,颗粒物(PM10),64,78,76,42,32,60,,,,23,21,4,5,0.5,0.6
2025-03-31T0500,3594A,112.8867,33.9116,平顶山市,石龙区,颗粒物(PM10),89,127,97,40,30,8,,,,69,30,6,6,0.3,0.3
2025-03-31T0500,2656A,106.6692,35.5461,平凉市,聚贤嘉苑,颗粒物(PM10),68,85,103,27,34,61,,,,25,30,7,10,0.4,0.5
2025-03-31T0500,2657A,106.7021,35.5307,平凉市,博物馆,颗粒物(PM10),69,88,109,33,38,58,,,,26,30,14,21,0.6,0.8
2025-03-31T0500,2347A,114.0997,27.5002,萍乡市,武功山,,48,47,21,33,16,40,,,,9,7,6,4,1.0,0.9
2025-03-31T0500,2348A,113.8385,27.6434,萍乡市,中医院,颗粒物(PM10),63,75,48,32,25,37,,,,10,8,7,7,0.6,0.5
2025-03-31T0500,2349A,113.8493,27.6253,萍乡市,市政府车库,细颗粒物(PM2.5),62,62,46,44,26,34,,,,15,12,6,6,0.4,0.7
2025-03-31T0500,2350A,113.8676,27.6435,萍乡市,市环保局,颗粒物(PM10),64,78,48,39,27,40,,,,7,6,4,3,0.5,0.4
2025-03-31T0500,2351A,113.866,27.6198,萍乡市,安源区政府,颗粒物(PM10),64,78,50,43,26,28,,,,14,11,4,3,0.6,0.6
2025-03-31T0500,2319A,119.0141,25.4325,莆田市,荔城区仓后路,,25,6,9,3,0,77,,,,7,13,2,2,0.4,0.5
2025-03-31T0500,2320A,119.0015,25.4553,莆田市,莆田市监测站,,25,6,3,3,0,80,,,,5,8,2,3,0.6,0.5
2025-03-31T0500,2321A,119.1119,25.4561,莆田市,涵江区六中,,,,6,0,0,77,,,,9,12,2,2,0.5,0.4
2025-03-31T0500,2322A,119.1013,25.3215,莆田市,秀屿区政府,,23,,5,3,1,71,,,,12,13,3,3,0.5,0.4
2025-03-31T0500,2323A,118.981,25.4792,莆田市,东圳水库,,,,,,,,,,,,,,,,
2025-03-31T0500,2392A,115.0312,35.7636,濮阳市,环保局,颗粒物(PM10),70,89,56,39,29,85,,,,16,18,4,6,0.8,0.9
2025-03-31T0500,2394A,115.0574,35.7609,濮阳市,油田运输公司,颗粒物(PM10),75,100,74,34,30,83,,,,15,19,5,6,0.5,0.5
2025-03-31T0500,3021A,115,35.7668,濮阳市,濮水河管理处,颗粒物(PM10),76,101,76,38,25,68,,,,22,22,5,7,0.8,0.8
2025-03-31T0500,4216A,115.0924,35.7686,濮阳市,任丘路479号,颗粒物(PM10),77,104,82,42,34,82,,,,16,20,5,6,0.6,0.7
2025-03-31T0500,2601A,100.98,22.7633,普洱市,市环保局,细颗粒物(PM2.5),97,116,157,72,78,80,,,,12,19,4,6,1.1,1.2
2025-03-31T0500,2602A,100.9817,22.8322,普洱市,普洱第二中学,细颗粒物(PM2.5),75,97,115,55,76,42,,,,33,31,6,7,0.8,1
2025-03-31T0500,2262A,131.0518,45.8751,七台河市,新一中,,24,24,18,13,10,54,,,,6,7,11,11,0.7,0.7
2025-03-31T0500,3345A,131.0577,45.7879,七台河市,中波台,,30,30,21,21,10,77,,,,11,10,5,5,0.6,0.6
2025-03-31T0500,3637A,131.0176,45.7761,七台河市,人民广场,,38,,29,26,18,88,,,,6,9,5,5,0.9,0.8
2025-03-31T0500,3684A,130.8781,45.8222,七台河市,新建矿广场,,46,39,26,32,22,71,,,,11,10,7,8,0.5,0.5
2025-03-31T0500,1779A,123.9305,47.3636,齐齐哈尔市,安居小区,,46,46,36,25,8,50,,,,15,12,3,2,0.4,0.3
2025-03-31T0500,1780A,123.9488,47.3386,齐齐哈尔市,中心广场,,32,32,33,16,14,59,,,,11,10,6,5,0.4,0.4
2025-03-31T0500,1781A,123.9483,47.3227,齐齐哈尔市,农牧车辆厂,,36,36,31,16,16,65,,,,8,8,5,5,0.4,0.4
2025-03-31T0500,1783A,123.945,47.2988,齐齐哈尔市,市环境监测站,,50,50,30,26,17,51,,,,14,8,4,4,0.4,0.4
2025-03-31T0500,3662A,123.6333,47.2075,齐齐哈尔市,富区青少年活动中心,,42,42,50,24,25,41,,,,19,12,8,8,0.5,0.5
2025-03-31T0500,2591A,107.9783,26.5747,黔东南苗族侗族自治州,市环境监测站,,24,22,17,16,12,74,,,,6,8,4,3,0.3,0.3
2025-03-31T0500,2881A,107.8908,26.5311,黔东南苗族侗族自治州,凯里学院,,24,24,15,16,11,65,,,,2,4,2,2,0.4,0.3
2025-03-31T0500,2593A,107.5228,26.2403,黔南布依族苗族自治州,小围寨,,19,19,13,12,9,56,,,,6,6,2,2,0.2,0.2
2025-03-31T0500,3538A,107.5175,26.2978,黔南布依族苗族自治州,沙坝,,25,22,18,17,11,63,,,,6,7,4,4,0.4,0.5
2025-03-31T0500,2589A,104.9022,25.0925,黔西南布依族苗族自治州,场坝街,,35,35,35,20,22,50,,,,9,12,4,5,0.2,0.2
2025-03-31T0500,2590A,104.8811,25.0992,黔西南布依族苗族自治州,坪东大道,,33,33,32,15,26,48,,,,13,14,1,3,0.3,0.3
2025-03-31T0500,2502A,108.6236,21.9667,钦州市,市环保站,,19,19,17,7,6,42,,,,13,14,7,7,0.8,0.6
2025-03-31T0500,2503A,108.6549,21.9481,钦州市,沙埠小学,,22,15,15,15,4,41,,,,14,15,5,5,0.4,0.4
2025-03-31T0500,2504A,108.5989,21.7431,钦州市,港区一小,,16,16,22,10,7,35,,,,20,18,8,8,0.6,0.6
2025-03-31T0500,3404A,108.5959,21.9633,钦州市,北职校,,19,17,15,13,11,46,,,,8,10,6,7,0.6,0.5
2025-03-31T0500,1043A,119.7493,40.0116,秦皇岛市,第一关,颗粒物(PM10),53,56,39,30,24,46,,,,44,33,11,5,0.9,0.4
2025-03-31T0500,1044A,119.5897,39.9499,秦皇岛市,监测站,颗粒物(PM10),53,55,41,22,15,72,,,,19,15,14,5,0.9,0.4
2025-03-31T0500,1046A,119.5251,39.9041,秦皇岛市,建设大厦,颗粒物(PM10),53,56,43,31,22,70,,,,27,21,15,8,0.8,0.4
2025-03-31T0500,3132A,119.610547,39.943889,秦皇岛市,文明里,颗粒物(PM10),52,53,41,21,17,59,,,,25,19,11,6,0.8,0.4
2025-03-31T0500,4198A,119.5090,39.8253,秦皇岛市,北戴河轮滑馆,,42,42,38,21,17,68,,,,20,17,12,7,0.8,0.4
2025-03-31T0500,1307A,120.6659,36.2403,青岛市,仰口,颗粒物(PM10),60,70,53,36,28,96,,,,12,11,6,6,0.6,0.6
2025-03-31T0500,1310A,120.4134,36.0658,青岛市,市南区东部子站,颗粒物(PM10),62,73,67,31,31,58,,,,24,23,7,9,0.6,0.7
2025-03-31T0500,1311A,120.3664,36.1032,青岛市,四方区子站,颗粒物(PM10),62,73,62,36,33,60,,,,28,23,7,8,0.6,0.7
2025-03-31T0500,1312A,120.2994,36.054,青岛市,市南区西部子站,颗粒物(PM10),62,73,63,29,26,72,,,,27,31,9,9,0.7,0.8
2025-03-31T0500,1313A,120.4581,36.0858,青岛市,崂山区子站,颗粒物(PM10),60,70,62,34,32,40,,,,27,18,7,10,0.6,0.8
2025-03-31T0500,1315A,120.3999,36.3083,青岛市,城阳区子站,颗粒物(PM10),60,70,60,37,27,57,,,,33,23,10,10,0.6,0.6
2025-03-31T0500,1966A,120.0405,35.8735,青岛市,黄岛区4号,颗粒物(PM10),63,75,59,31,25,82,,,,26,24,15,11,0.9,0.8
2025-03-31T0500,3362A,120.5014,36.4034,青岛市,即墨2号,颗粒物(PM10),61,72,68,42,32,57,,,,29,20,9,9,0.7,0.6
2025-03-31T0500,3642A,120.3503,36.0736,青岛市,市北区南部,颗粒物(PM10),61,71,63,36,30,55,,,,21,19,7,8,0.7,0.8
2025-03-31T0500,3643A,120.3948,36.1805,青岛市,李沧区北部,,,,62,,33,,,75,,,28,,9,,0.7
2025-03-31T0500,4290A,120.1969,35.9546,青岛市,珠江路669号,颗粒物(PM10),56,61,61,32,34,78,,,,23,23,11,10,0.8,0.9
2025-03-31T0500,1702A,113.0426,23.691,清远市,环保大楼,,12,6,6,3,4,36,,,,5,7,12,10,0.7,0.6
2025-03-31T0500,1703A,113.0208,23.7106,清远市,凤城街办,,11,6,6,3,3,34,,,,11,14,7,7,0.4,0.4
2025-03-31T0500,3025A,113.0477,23.6344,清远市,技师学院,,11,11,9,7,5,35,,,,13,15,6,6,0.5,0.5
2025-03-31T0500,3318A,112.9903,23.7403,清远市,清新太和,,12,6,4,3,2,38,,,,11,12,6,6,0.5,0.5
2025-03-31T0500,3455A,113.076,23.7198,清远市,清城东城,,10,6,9,3,7,32,,,,12,14,7,7,0.6,0.6
2025-03-31T0500,2661A,107.6325,35.7357,庆阳市,庆阳五中,颗粒物(PM10),60,70,81,22,39,89,,,,8,15,2,7,0.2,0.4
2025-03-31T0500,2662A,107.6364,35.7067,庆阳市,市环保局,颗粒物(PM10),64,77,80,23,31,89,,,,8,15,4,8,0.3,0.4
2025-03-31T0500,1916A,103.7897,25.5035,曲靖市,环境监测站,,23,22,33,16,17,18,,,,15,21,3,4,0.4,0.5
2025-03-31T0500,1917A,103.8,25.5364,曲靖市,烟厂办公区,,12,12,26,6,13,26,,,,11,18,4,4,0.5,0.6
2025-03-31T0500,3376A,103.7947,25.462,曲靖市,南苑二区,,38,,31,26,21,27,,,,13,19,6,6,0.5,0.6
2025-03-31T0500,3377A,103.7444,25.5261,曲靖市,曲靖师范学院,,29,29,34,10,23,17,,,,16,19,6,7,0.6,0.6
2025-03-31T0500,1264A,118.8692,28.9398,衢州市,环保大楼,细颗粒物(PM2.5),69,72,57,50,35,28,,,,28,20,3,3,0.4,0.3
2025-03-31T0500,1265A,118.8709,28.9666,衢州市,实验学校,细颗粒物(PM2.5),69,67,57,50,35,33,,,,24,20,4,4,0.5,0.4
2025-03-31T0500,1266A,118.8621,28.9808,衢州市,衢州学院,细颗粒物(PM2.5),67,64,61,48,39,29,,,,23,20,4,4,0.7,0.6
2025-03-31T0500,1611A,118.5819,24.9117,泉州市,涂山街,,20,6,5,3,4,61,,,,6,8,2,2,0.5,0.5
2025-03-31T0500,1612A,118.5972,24.8978,泉州市,津头埔,,21,6,4,3,4,65,,,,8,12,2,2,0.6,0.6
2025-03-31T0500,1613A,118.6663,24.9424,泉州市,万安,,23,6,6,3,3,73,,,,5,7,2,2,0.5,0.5
2025-03-31T0500,1614A,118.6117,24.9604,泉州市,清源山,,,,,,,,,,,,,,,,
2025-03-31T0500,3529A,118.6333,24.9264,泉州市,城华南路,,24,6,4,3,2,76,,,,1,6,2,2,0.5,0.5
2025-03-31T0500,2626A,88.8876,29.2718,日喀则市,日喀则监测站,,,,30,,9,,,103,,,5,,5,,0.4
2025-03-31T0500,3726A,88.8781,29.2426,日喀则市,林业技术推广中心,,36,14,35,8,10,115,,,,2,2,5,5,0.3,0.3
2025-03-31T0500,1659A,119.471,35.4209,日照市,监测站,颗粒物(PM10),70,90,71,43,32,56,,,,37,34,12,9,0.8,0.7
2025-03-31T0500,1660A,119.523,35.4216,日照市,市政府广场,细颗粒物(PM2.5),69,83,73,50,34,56,,,,33,34,10,11,0.9,0.9
2025-03-31T0500,1661A,119.5587,35.4044,日照市,港务局,细颗粒物(PM2.5),78,92,92,57,41,56,,,,39,40,10,11,1.0,0.9
2025-03-31T0500,3507A,119.5328,35.4625,日照市,职业技术学院,颗粒物(PM10),69,88,73,41,29,62,,,,30,27,11,10,0.8,0.8
2025-03-31T0500,3604A,119.3266,35.1044,日照市,岚山环保分局,细颗粒物(PM2.5),73,88,72,53,39,48,,,,40,32,7,9,0.8,0.6
2025-03-31T0500,1835A,111.1922,34.7752,三门峡市,市政府,,40,40,49,22,25,22,,,,52,36,4,5,0.4,0.5
2025-03-31T0500,1836A,111.1587,34.7942,三门峡市,开发区,,48,48,51,21,22,43,,,,24,25,2,3,0.6,0.5
2025-03-31T0500,1838A,111.143,34.7955,三门峡市,风景区,,50,50,47,20,20,52,,,,15,22,13,11,0.4,0.4
2025-03-31T0500,3039A,111.1911,34.7829,三门峡市,三门峡市第一小学,,,63,53,,21,52,,,,26,29,6,6,0.5,0.5
2025-03-31T0500,3598A,111.1,34.7167,三门峡市,富达温泉假日酒店,细颗粒物(PM2.5),63,62,54,45,28,12,,,,67,30,10,11,0.6,0.6
2025-03-31T0500,2324A,117.6211,26.2625,三明市,三钢,,20,,4,3,6,63,,,,5,8,3,3,0.4,0.5
2025-03-31T0500,2325A,117.635,26.2714,三明市,三明二中,,,1,2,,3,62,,,,5,9,1,1,0.4,0.4
2025-03-31T0500,2326A,117.6028,26.2378,三明市,三元区政府,,22,,4,3,2,68,,,,6,9,3,4,0.3,0.3
2025-03-31T0500,2327A,117.7275,26.3108,三明市,洋溪,,,,,,,,,,,,,,,,
2025-03-31T0500,1876A,109.5078,18.2489,三亚市,河东子站,,14,7,11,3,4,44,,,,8,8,3,4,0.7,0.6
2025-03-31T0500,1877A,109.4964,18.2681,三亚市,河西子站,,15,7,11,3,3,46,,,,6,7,3,3,0.5,0.5
2025-03-31T0500,3540A,109.7348,18.3443,三亚市,君悦子站,,14,12,22,3,5,44,,,,8,8,4,4,0.4,0.3
2025-03-31T0500,2624A,91.7608,29.2313,山南市,山南监测站,,33,,76,12,23,104,,,,1,4,6,6,0.3,0.3
2025-03-31T0500,2625A,91.7706,29.2436,山南市,山南人民医院,,33,14,103,9,33,104,,,,1,5,4,4,0.4,0.4
2025-03-31T0500,1674A,116.6794,23.3667,汕头市,金平子站,,20,,8,14,7,36,,,,19,22,6,5,0.7,0.7
2025-03-31T0500,1675A,116.7244,23.3633,汕头市,龙湖子站,,15,,8,10,5,46,,,,12,15,5,4,0.6,0.6
2025-03-31T0500,1676A,116.7258,23.2775,汕头市,濠江子站,,16,,7,8,6,51,,,,9,11,4,3,0.6,0.6
2025-03-31T0500,1677A,116.7519,23.4714,汕头市,澄海子站,,14,14,9,6,5,42,,,,12,19,4,3,0.6,0.6
2025-03-31T0500,1678A,116.6092,23.2539,汕头市,潮阳子站,,14,7,8,3,4,44,,,,10,12,6,6,0.6,0.5
2025-03-31T0500,3444A,116.454,23.2684,汕头市,潮南峡山,,9,6,9,3,7,27,,,,9,12,8,8,0.6,0.6
2025-03-31T0500,3624A,116.4069,23.2533,汕头市,潮南子站,,8,8,12,3,7,19,,,,14,18,7,7,0.7,0.7
2025-03-31T0500,1693A,115.3653,22.775,汕尾市,市环保局,,9,,4,3,5,28,,,,5,7,6,6,0.5,0.5
2025-03-31T0500,1694A,115.3706,22.7898,汕尾市,市政府,,8,6,4,3,2,24,,,,7,9,4,4,0.6,0.6
2025-03-31T0500,1695A,115.3622,22.7925,汕尾市,新城中学,,9,6,4,3,2,27,,,,4,5,8,8,0.6,0.6
2025-03-31T0500,2645A,109.9154,33.8715,商洛市,监测站,颗粒物(PM10),68,85,97,35,33,40,,,,23,23,10,7,0.3,0.3
2025-03-31T0500,3045A,109.9643,33.8471,商洛市,商州区中学,颗粒物(PM10),63,75,114,33,39,24,,,,43,27,4,9,0.4,0.4
2025-03-31T0500,2408A,115.6702,34.4285,商丘市,环境监测站,颗粒物(PM10),83,116,81,48,35,88,,,,17,16,5,5,0.4,0.3
2025-03-31T0500,2409A,115.6458,34.4045,商丘市,粮食局,颗粒物(PM10),79,108,78,51,37,80,,,,15,13,5,5,0.3,0.3
2025-03-31T0500,2410A,115.6293,34.3948,商丘市,睢阳区环保局,颗粒物(PM10),82,113,78,44,36,81,,,,15,16,4,4,0.3,0.3
2025-03-31T0500,3171A,115.6071,34.4465,商丘市,梁园区档案局,颗粒物(PM10),81,112,78,48,34,79,,,,17,15,4,4,0.3,0.3
2025-03-31T0500,1141A,121.4,31.238,上海市,普陀,,30,30,31,15,13,84,,,,20,19,6,6,0.5,0.5
2025-03-31T0500,1142A,121.478,31.2036,上海市,十五厂,,30,30,33,13,16,84,,,,21,21,7,7,0.6,0.6
2025-03-31T0500,1143A,121.467,31.3008,上海市,虹口,,28,28,28,10,14,85,,,,28,23,10,10,0.6,0.5
2025-03-31T0500,1147A,121.425,31.2261,上海市,静安监测站,,28,28,29,13,11,85,,,,26,25,8,8,0.5,0.3
2025-03-31T0500,1148A,121.703,31.1907,上海市,浦东川沙,,41,41,30,12,14,70,,,,29,23,8,8,0.6,0.6
2025-03-31T0500,1149A,121.533,31.2284,上海市,浦东新区监测站,,28,28,29,8,13,79,,,,29,24,7,6,0.5,0.5
2025-03-31T0500,1150A,121.577,31.2071,上海市,浦东张江,,30,30,30,12,14,78,,,,23,23,6,6,0.3,0.4
2025-03-31T0500,3265A,121.4316,31.3322,上海市,宝山庙行,,29,29,30,15,16,74,,,,29,22,9,9,0.5,0.5
2025-03-31T0500,3266A,121.8791,31.4662,上海市,崇明上实东滩,,25,25,24,11,8,80,,,,9,9,4,4,0.4,0.4
2025-03-31T0500,3268A,121.3162,31.2838,上海市,嘉定南翔,,30,30,31,16,15,60,,,,32,27,7,7,0.5,0.5
2025-03-31T0500,3269A,121.3359,30.7456,上海市,金山新城,,30,30,27,10,9,79,,,,18,14,6,6,0.4,0.4
2025-03-31T0500,3270A,121.4996,31.0739,上海市,闵行浦江,,36,36,32,21,16,56,,,,37,24,5,5,0.4,0.4
2025-03-31T0500,3271A,121.2886,31.1663,上海市,青浦徐泾,,31,31,31,15,14,61,,,,34,25,6,6,0.5,0.5
2025-03-31T0500,3272A,121.2186,31.0378,上海市,松江图书馆,,33,33,35,15,14,59,,,,34,26,7,7,0.6,0.6
2025-03-31T0500,3273A,121.3902,31.2059,上海市,长宁仙霞,,28,27,29,12,14,89,,,,22,22,8,7,0.6,0.6
2025-03-31T0500,3274A,121.7965,31.0507,上海市,浦东惠南,,37,37,31,15,13,62,,,,24,22,7,8,0.6,0.6
2025-03-31T0500,3544A,121.4891,30.925,上海市,奉贤南桥新城,,35,35,29,20,15,56,,,,30,21,8,7,0.5,0.5
2025-03-31T0500,4183A,121.4174,31.16637,上海市,冠生园路458号,,26,26,29,13,17,79,,,,20,21,9,9,0.7,0.7
2025-03-31T0500,4205A,121.5419,31.2683,上海市,宁武路151号,,29,29,38,15,15,81,,,,21,28,7,8,0.3,0.3
2025-03-31T0500,2381A,118.005,28.4572,上饶市,百草园,,,,,,,,,,,,,,,,
2025-03-31T0500,2382A,117.9756,28.4436,上饶市,市监测站,,46,46,41,21,20,46,,,,13,10,7,4,0.5,0.4
2025-03-31T0500,2383A,117.9519,28.4628,上饶市,凤凰光学,,42,42,40,19,20,35,,,,22,17,12,7,0.8,0.8
2025-03-31T0500,3685A,117.897,28.4315,上饶市,双创科技城,,42,42,40,29,24,44,,,,22,18,13,7,0.5,0.5
2025-03-31T0500,4211A,118.1904,28.4448,上饶市,裕丰大道,细颗粒物(PM2.5),57,46,37,40,24,42,,,,17,14,7,5,0.5,0.4
2025-03-31T0500,1669A,113.5824,24.7733,韶关市,市八中,,12,6,4,3,1,37,,,,11,7,6,7,0.5,0.5
2025-03-31T0500,1671A,113.5917,24.7972,韶关市,园林处,,14,6,7,3,4,44,,,,8,10,6,7,0.5,0.5
2025-03-31T0500,1672A,113.6735,24.7791,韶关市,韶关学院,,,,3,3,3,41,,,,,9,8,8,0.4,0.4
2025-03-31T0500,1673A,113.5971,24.6863,韶关市,曲江监测站,,15,6,5,3,2,46,,,,10,12,6,7,0.5,0.5
2025-03-31T0500,3622A,113.5556,24.8082,韶关市,碧湖山庄,,18,13,6,12,4,33,,,,6,7,9,9,0.6,0.6
2025-03-31T0500,2462A,111.5239,27.3033,邵阳市,市水土所,,,,,,,,,,,,,,,,
