timepoint,stationcode,longitude,latitude,area,positionname,primarypollutant,aqi,pm10,pm10_24h,pm2_5,pm2_5_24h,o3,o3_24h,o3_8h,o3_8h_24h,no2,no2_24h,so2,so2_24h,co,co_24h
2025-03-31T2200,2566A,102.1879,31.914,阿坝藏族羌族自治州,州农科所,,43,43,54,17,17,34,,63,56,12,14,12,13,0.4,0.4
2025-03-31T2200,2568A,102.2502,31.8896,阿坝藏族羌族自治州,马师校,,41,41,43,28,24,18,,69,56,21,15,5,5,0.6,0.5
2025-03-31T2200,3994A,102.2165,31.9024,阿坝藏族羌族自治州,马尔康中学西区,,31,31,34,12,16,35,,78,67,10,9,6,6,0.4,0.4
2025-03-31T2200,2695A,80.292,41.1694,阿克苏地区,电视台,颗粒物(PM10),500,816,740,220,190,61,,82,81,22,17,5,6,0.6,0.6
2025-03-31T2200,2696A,80.2613,41.1551,阿克苏地区,艺术中心,颗粒物(PM10),500,922,810,240,205,51,,81,79,22,17,4,4,0.5,0.5
2025-03-31T2200,2204A,105.6467,38.8363,阿拉善盟,西城区西花园,,35,28,32,24,11,100,,109,107,10,10,10,9,0.5,0.6
2025-03-31T2200,2205A,105.6985,38.8411,阿拉善盟,蒙二幼,,47,47,26,15,8,93,,98,96,9,9,5,5,0.7,0.7
2025-03-31T2200,2206A,105.724,38.8516,阿拉善盟,环保局新楼,,43,43,21,14,6,106,,101,101,4,3,8,8,0.8,0.7
2025-03-31T2200,2708A,88.1264,47.8517,阿勒泰地区,市站,,25,25,15,3,4,73,,81,81,10,7,2,3,0.6,0.5
2025-03-31T2200,2630A,80.1161,32.5,阿里地区,阿里监测站,,34,13,12,6,6,106,,104,104,2,2,6,5,0.5,0.4
2025-03-31T2200,3192A,80.0903,32.5028,阿里地区,阿里藏医院,,33,17,17,3,6,104,,102,102,1,1,7,6,0.5,0.5
2025-03-31T2200,2642A,109.0318,32.6537,安康市,香溪洞,,48,48,47,27,24,63,,83,81,18,11,8,8,0.5,0.9
2025-03-31T2200,2644A,109.0072,32.6975,安康市,汉滨区检察院,颗粒物(PM10),55,59,57,20,21,43,,84,76,27,15,7,8,0.4,0.4
2025-03-31T2200,4054A,109.0325,32.6913,安康市,市邮政管理局,颗粒物(PM10),60,70,62,30,25,38,,84,72,32,17,8,10,0.6,0.5
2025-03-31T2200,2291A,117.0809,30.5177,安庆市,环科院,,43,43,69,24,36,86,,103,99,24,24,8,8,0.5,0.5
2025-03-31T2200,2292A,117.0331,30.5119,安庆市,马山宾馆,,45,45,70,20,35,79,,102,97,29,24,6,6,0.3,0.4
2025-03-31T2200,2294A,116.9896,30.6145,安庆市,安庆大学,,46,46,74,25,40,70,,108,102,28,26,4,5,0.4,0.5
2025-03-31T2200,3173A,117.0598,30.5351,安庆市,市人大,颗粒物(PM10),51,52,72,27,38,71,,101,92,30,22,8,8,0.7,0.7
2025-03-31T2200,3122A,105.9606,26.2611,安顺市,伍家关,,25,18,32,17,20,62,,80,75,7,7,10,9,0.4,0.4
2025-03-31T2200,3123A,105.9408,26.2431,安顺市,凤凰山,,24,24,32,14,26,64,,78,74,7,8,10,11,0.4,0.4
2025-03-31T2200,3124A,105.9439,26.2564,安顺市,金钟山,,23,23,27,14,25,62,,78,74,8,8,12,10,0.5,0.5
2025-03-31T2200,3125A,105.8983,26.2481,安顺市,娄家坡,,29,23,29,20,26,61,,77,73,9,10,7,13,0.5,0.5
2025-03-31T2200,1818A,114.4839,36.0621,安阳市,棉研所,,,,,,,,,,,,,,,,
2025-03-31T2200,1819A,114.3551,36.1017,安阳市,红庙街,颗粒物(PM10),63,76,82,38,40,84,,107,104,14,18,4,6,0.2,0.3
2025-03-31T2200,1820A,114.361,36.0681,安阳市,银杏小区,颗粒物(PM10),64,78,84,42,43,88,,114,110,16,21,4,5,0.4,0.4
2025-03-31T2200,3141A,114.3922,36.0878,安阳市,信访局,细颗粒物(PM2.5),84,84,88,62,58,80,,115,110,23,22,5,6,0.6,0.6
2025-03-31T2200,3669A,114.4705,36.0637,安阳市,左辅环卫站,颗粒物(PM10),72,93,102,40,43,80,,114,107,15,15,4,5,0.5,0.5
2025-03-31T2200,3703A,114.2917,36.0949,安阳市,安钢职工学校,颗粒物(PM10),74,97,104,41,51,81,,109,105,20,23,2,5,0.3,0.6
2025-03-31T2200,1748A,123.044,41.1196,鞍山市,深沟寺,细颗粒物(PM2.5),84,115,83,62,42,114,,124,121,11,13,13,15,0.8,0.9
2025-03-31T2200,1749A,123.011,41.0931,鞍山市,太阳城,细颗粒物(PM2.5),83,112,84,61,43,109,,119,116,16,18,9,12,0.7,0.8
2025-03-31T2200,1750A,123.0485,41.1442,鞍山市,太平,颗粒物(PM10),85,120,92,60,45,112,,117,116,14,16,12,14,0.6,1.1
2025-03-31T2200,1751A,122.9642,41.0971,鞍山市,铁西三道街,颗粒物(PM10),86,121,89,63,46,100,,122,116,32,25,9,11,0.8,0.8
2025-03-31T2200,1753A,123.022,41.0821,鞍山市,明达新区,细颗粒物(PM2.5),83,105,126,61,73,113,,118,117,12,21,9,15,0.5,0.8
2025-03-31T2200,1754A,123.1289,41.0228,鞍山市,千山,,,,42,,17,,,115,,,13,,8,,0.8
2025-03-31T2200,4201A,122.9446,41.0826,鞍山市,兴盛南路290号,颗粒物(PM10),94,138,99,64,47,93,,120,112,41,26,19,16,1.4,0.8
2025-03-31T2200,2195A,107.4212,40.761,巴彦淖尔市,附二中,颗粒物(PM10),59,68,44,24,16,74,,99,92,13,10,6,6,0.4,0.4
2025-03-31T2200,2196A,107.37,40.7372,巴彦淖尔市,市环保大楼,颗粒物(PM10),55,60,53,16,21,72,,101,90,14,13,4,4,0.2,0.3
2025-03-31T2200,1956A,86.1472,41.7538,巴音郭楞蒙古自治州,孔雀公园,颗粒物(PM10),500,657,671,153,154,46,,77,74,27,37,5,6,0.4,0.4
2025-03-31T2200,1957A,86.1972,41.7166,巴音郭楞蒙古自治州,棉纺厂,颗粒物(PM10),500,788,826,166,162,55,,74,73,20,31,2,2,0.3,0.4
2025-03-31T2200,1958A,86.2357,41.7173,巴音郭楞蒙古自治州,经济开发区,颗粒物(PM10),500,719,703,149,139,62,,53,,14,20,4,4,0.2,0.3
2025-03-31T2200,2914A,106.7677,31.8794,巴中市,苏山坪,,40,40,26,26,17,50,,64,62,16,15,3,3,0.4,0.4
2025-03-31T2200,3181A,106.7768,31.8526,巴中市,市五中,,35,34,28,24,16,44,,64,60,17,15,5,5,0.5,0.5
2025-03-31T2200,3183A,106.7418,31.8654,巴中市,圣泉水务公司,,36,34,24,25,15,46,,64,60,22,25,8,7,0.6,0.6
2025-03-31T2200,3616A,106.7616,31.8344,巴中市,市中心医院,,33,33,26,23,18,41,,64,61,16,14,6,7,0.5,0.5
2025-03-31T2200,2235A,122.7911,45.6077,白城市,洮北区环保局,,34,34,39,18,35,77,,85,82,9,12,6,6,0.6,0.6
2025-03-31T2200,2236A,122.8738,45.5725,白城市,市环保局,,23,22,29,16,21,58,,86,77,18,11,6,6,0.5,0.5
2025-03-31T2200,2231A,126.4219,41.9171,白山市,喜丰,,50,50,60,24,20,99,,100,99,17,21,8,8,1.0,0.9
2025-03-31T2200,2232A,126.4077,41.9419,白山市,环保局,,,71,53,29,17,82,,102,97,,19,25,18,0.8,0.6
2025-03-31T2200,2647A,104.1724,36.5446,白银市,第三小学,颗粒物(PM10),126,202,88,47,26,96,,110,106,13,14,10,12,0.4,0.6
2025-03-31T2200,2648A,104.1465,36.5482,白银市,动力公司,颗粒物(PM10),100,149,84,44,28,90,,109,105,11,12,6,5,0.3,0.4
2025-03-31T2200,2512A,106.6103,23.9011,百色市,市监测站,,37,37,26,21,14,49,,75,68,17,12,8,12,0.6,0.5
2025-03-31T2200,2513A,106.6538,23.8859,百色市,市中心血站,,48,46,30,33,19,49,,77,70,26,12,11,11,0.6,0.6
2025-03-31T2200,3406A,106.6085,23.8798,百色市,祈福高中,,47,47,30,21,13,30,,77,69,39,14,6,8,0.6,0.5
2025-03-31T2200,2270A,117.396,32.939,蚌埠市,工人疗养院,细颗粒物(PM2.5),69,78,68,50,33,79,,124,113,43,15,9,5,0.8,0.5
2025-03-31T2200,2271A,117.3605,32.9427,蚌埠市,百货大楼,,48,48,68,20,31,100,,116,112,26,22,6,6,0.4,0.5
2025-03-31T2200,2273A,117.4185,32.8911,蚌埠市,蚌埠学院,,48,48,62,25,30,89,,121,112,24,18,3,4,0.4,0.5
2025-03-31T2200,2274A,117.3533,32.9673,蚌埠市,淮上区政府,,48,48,67,30,35,100,,122,115,22,15,5,5,0.3,0.3
2025-03-31T2200,2275A,117.3145,32.8977,蚌埠市,高新区,颗粒物(PM10),57,63,69,30,36,92,,118,111,22,19,6,6,0.5,0.5
2025-03-31T2200,3715A,117.3092,32.9314,蚌埠市,蚌埠田家炳中学,颗粒物(PM10),62,74,79,25,35,86,,118,110,36,25,61,10,0.3,0.4
2025-03-31T2200,1585A,109.8756,40.6532,包头市,市环境监测站,,30,30,63,13,19,59,,101,92,38,42,10,13,0.5,0.6
2025-03-31T2200,1587A,109.9991,40.5842,包头市,包头八中,,30,30,59,9,26,78,,100,94,21,41,8,15,0.3,0.9
2025-03-31T2200,1588A,109.8538,40.6821,包头市,青山宾馆,,21,20,52,7,22,66,,100,93,22,36,11,11,0.4,0.7
2025-03-31T2200,1589A,109.8642,40.6288,包头市,惠龙物流,,24,24,49,11,22,76,,103,97,24,40,7,14,0.5,0.8
2025-03-31T2200,1590A,110.0377,40.5546,包头市,东河鸿龙湾,,31,31,48,3,17,84,,103,98,16,31,8,12,0.4,0.8
2025-03-31T2200,3283A,109.9154,40.5685,包头市,滨河大厦,,28,22,43,3,20,87,,103,99,10,25,9,16,0.4,0.7
2025-03-31T2200,3419A,109.9447,40.6261,包头市,包头市委党校,,36,36,50,3,14,88,,102,98,10,33,8,12,0.5,0.8
2025-03-31T2200,3683A,109.8331,40.6576,包头市,昆区政府,,26,26,52,8,23,72,,98,92,27,39,6,12,0.4,0.8
2025-03-31T2200,1930A,107.185,34.3063,宝鸡市,庙沟村,颗粒物(PM10),65,79,85,33,33,88,,115,108,19,15,7,7,0.3,0.4
2025-03-31T2200,1931A,107.0708,34.3017,宝鸡市,竹园沟,,,,,,,,,,,,,,,,
2025-03-31T2200,1932A,107.1906,34.3672,宝鸡市,三陆医院,细颗粒物(PM2.5),79,74,96,58,43,48,,112,98,50,29,5,7,0.5,0.6
2025-03-31T2200,1933A,107.1431,34.3547,宝鸡市,监测站,颗粒物(PM10),75,100,106,46,41,58,,111,93,24,25,7,8,0.5,0.7
2025-03-31T2200,1934A,107.1186,34.3739,宝鸡市,技工学校,,,,97,47,40,56,,112,93,29,19,11,8,0.6,0.5
2025-03-31T2200,1935A,107.3906,34.3528,宝鸡市,陈仓区环保局家属楼,颗粒物(PM10),69,88,98,48,44,42,,106,90,48,28,7,39,0.6,0.6
2025-03-31T2200,1936A,107.2058,34.3497,宝鸡市,文理学院,颗粒物(PM10),67,84,96,36,40,38,,112,97,45,24,6,7,0.5,0.5
2025-03-31T2200,1937A,107.2386,34.3622,宝鸡市,三迪小学,细颗粒物(PM2.5),79,83,102,58,52,51,,110,96,52,32,6,7,0.6,0.6
2025-03-31T2200,1051A,115.493,38.8632,保定市,游泳馆,颗粒物(PM10),55,60,78,33,38,71,,104,98,30,37,3,4,0.5,0.5
2025-03-31T2200,1052A,115.5213,38.8959,保定市,华电二区,颗粒物(PM10),54,57,59,30,32,78,,110,104,17,19,5,4,0.4,0.4
2025-03-31T2200,1053A,115.4713,38.9108,保定市,接待中心,颗粒物(PM10),57,63,70,35,42,82,,103,99,16,23,7,6,0.4,0.5
2025-03-31T2200,1054A,115.4612,38.8416,保定市,地表水厂,颗粒物(PM10),65,79,86,34,41,68,,107,100,33,32,4,5,0.4,0.5
2025-03-31T2200,3581A,115.31981,38.95208,保定市,满城区生态环境分局,颗粒物(PM10),64,78,77,39,39,58,,102,92,34,30,5,4,0.4,0.4
2025-03-31T2200,3582A,115.47694,38.76408,保定市,清苑区第二中学,颗粒物(PM10),61,71,84,28,33,69,,107,99,28,28,4,6,0.3,0.4
2025-03-31T2200,3583A,115.62909,39.02311,保定市,徐水物探局,颗粒物(PM10),63,75,84,24,33,54,,107,96,43,34,6,7,0.1,0.2
2025-03-31T2200,4004A,115.4202,38.8656,保定市,双鹰农机,,50,50,72,19,34,78,,106,100,28,33,8,7,0.4,0.4
2025-03-31T2200,4034A,115.5150,38.8590,保定市,植保所站,细颗粒物(PM2.5),64,60,73,46,42,68,,106,99,28,23,5,4,0.4,0.4
2025-03-31T2200,2594A,99.1678,25.1081,保山市,市环境监测站,细颗粒物(PM2.5),85,93,98,63,67,146,,154,151,9,14,7,5,0.6,0.6
2025-03-31T2200,2595A,99.1711,25.1328,保山市,市环保局,细颗粒物(PM2.5),105,103,106,79,67,125,,162,156,15,11,6,6,0.8,0.8
2025-03-31T2200,1866A,109.2262,21.588,北海市,牛尾岭水库,,,23,14,21,15,29,,34,33,,5,6,6,0.8,0.7
2025-03-31T2200,1867A,109.1436,21.4086,北海市,海滩公园,,34,34,22,20,14,45,,50,50,12,11,5,5,0.5,0.5
2025-03-31T2200,1868A,109.0981,21.4661,北海市,新市环保局,,32,31,22,22,19,52,,56,55,12,11,3,3,0.6,0.7
2025-03-31T2200,1869A,109.1778,21.5233,北海市,北海工业园,,46,35,25,32,20,44,,52,51,14,11,10,9,0.7,0.6
2025-03-31T2200,3400A,109.1911,21.4415,北海市,龙潭自来水厂,,33,32,22,23,20,39,,49,48,12,10,6,6,0.5,0.4
2025-03-31T2200,1001A,116.3621,39.8784,北京市,万寿西宫,颗粒物(PM10),69,87,86,36,41,96,,101,101,29,46,1,3,0.5,0.5
2025-03-31T2200,1002A,116.2202,40.2915,北京市,定陵,,,,,,,,,,,,,,,,
2025-03-31T2200,1003A,116.4174,39.9289,北京市,东四,颗粒物(PM10),67,84,84,40,43,96,,96,96,21,42,9,7,0.5,0.5
2025-03-31T2200,1004A,116.4072,39.8863,北京市,天坛,颗粒物(PM10),60,69,75,33,38,87,,90,90,24,41,3,2,0.7,0.7
2025-03-31T2200,1005A,116.462,39.9365,北京市,农展馆,颗粒物(PM10),64,77,81,36,40,96,,95,95,25,44,9,8,0.3,0.4
2025-03-31T2200,1006A,116.3392,39.9295,北京市,官园,颗粒物(PM10),72,93,84,44,42,81,,86,86,26,41,9,8,0.5,0.6
2025-03-31T2200,1007A,116.2878,39.9611,北京市,海淀万柳,颗粒物(PM10),67,84,81,36,36,67,,75,75,38,46,6,5,0.6,0.7
2025-03-31T2200,1008A,116.6636,40.135,北京市,顺义新城,颗粒物(PM10),62,73,70,32,33,70,,93,86,56,44,9,8,0.5,0.5
2025-03-31T2200,1009A,116.6275,40.3275,北京市,怀柔镇,,30,30,53,18,28,55,,79,68,16,24,3,4,0.4,0.4
2025-03-31T2200,1010A,116.2296,40.217,北京市,昌平镇,,28,28,50,11,22,54,,90,79,32,32,1,2,0.6,0.6
2025-03-31T2200,1011A,116.3966,39.9821,北京市,奥体中心,颗粒物(PM10),120,190,167,33,37,94,,94,94,27,49,7,6,0.7,0.7
2025-03-31T2200,3281A,115.9718,40.4529,北京市,延庆夏都,,43,43,38,17,19,21,,98,84,53,26,5,6,0.5,0.5
2025-03-31T2200,3418A,116.8336,40.4095,北京市,密云新城,,47,47,57,21,29,52,,84,75,23,27,3,4,0.4,0.5
2025-03-31T2200,3671A,116.088,39.9726,北京市,门头沟三家店,颗粒物(PM10),68,86,93,22,30,1,,65,46,77,54,5,5,0.4,0.4
2025-03-31T2200,3672A,116.1541,39.8204,北京市,丰台云岗,颗粒物(PM10),87,123,87,44,37,13,,91,80,101,50,7,6,0.5,0.4
2025-03-31T2200,3673A,116.6804,39.9081,北京市,通州东关,颗粒物(PM10),61,71,89,33,45,83,,80,,5,49,10,6,0.6,0.5
2025-03-31T2200,3674A,115.9577,39.7603,北京市,房山燕山,颗粒物(PM10),55,59,63,30,29,56,,79,76,39,32,5,6,0.3,0.4
2025-03-31T2200,3675A,116.4672,39.7733,北京市,大兴旧宫,颗粒物(PM10),68,85,85,35,37,74,,86,86,25,38,2,2,0.4,0.4
2025-03-31T2200,3694A,115.986,40.4563,北京市,延庆石河营,颗粒物(PM10),52,53,40,15,15,10,,98,77,63,27,4,5,0.5,0.4
2025-03-31T2200,3695A,116.6151,40.3053,北京市,怀柔新城,,21,21,50,9,25,57,,82,79,11,20,4,7,0.5,0.6
2025-03-31T2200,3696A,116.2545,39.8768,北京市,丰台小屯,颗粒物(PM10),68,85,83,36,40,77,,82,82,36,56,4,3,0.5,0.6
2025-03-31T2200,3697A,116.84,40.3844,北京市,密云镇,颗粒物(PM10),52,53,65,21,30,22,,90,67,59,43,5,6,0.6,0.6
2025-03-31T2200,4182A,116.1942,39.9158,北京市,八角北路9号,颗粒物(PM10),82,113,91,37,36,35,,87,80,65,44,3,2,0.3,0.3
2025-03-31T2200,4194A,117.0790,40.1518,北京市,洳河巡河路,颗粒物(PM10),58,66,63,35,36,54,,97,87,33,28,2,5,0.6,0.6
2025-03-31T2200,1761A,123.8275,41.3064,本溪市,大峪,细颗粒物(PM2.5),75,87,64,55,33,89,,115,106,21,14,8,10,0.6,0.6
2025-03-31T2200,1762A,123.7567,41.3325,本溪市,溪湖,细颗粒物(PM2.5),87,82,49,64,32,93,,110,105,25,20,8,8,0.8,0.7
2025-03-31T2200,1763A,123.7169,41.3094,本溪市,彩屯,细颗粒物(PM2.5),94,126,75,70,39,76,,101,89,40,33,21,20,3.0,2.3
2025-03-31T2200,1764A,123.7669,41.2864,本溪市,东明,细颗粒物(PM2.5),70,67,59,51,26,96,,108,105,18,14,6,8,0.7,0.6
2025-03-31T2200,1765A,123.7992,41.2664,本溪市,新立屯,细颗粒物(PM2.5),89,70,49,66,29,105,,114,111,18,15,8,7,0.6,0.5
2025-03-31T2200,1766A,123.8142,41.3472,本溪市,威宁,细颗粒物(PM2.5),105,102,86,79,41,80,,105,94,15,22,4,6,0.9,0.8
2025-03-31T2200,2587A,105.2864,27.3125,毕节市,八中,,18,18,17,12,14,44,,58,55,11,7,8,8,0.7,0.6
2025-03-31T2200,2588A,105.31,27.2944,毕节市,师专,,39,32,18,27,16,51,,60,57,10,9,6,5,0.6,0.5
2025-03-31T2200,4263A,105.3688,27.3598,毕节市,工业大道,,19,11,17,8,12,59,,62,60,9,8,7,7,0.2,0.2
2025-03-31T2200,1629A,118.0018,37.3617,滨州市,第二水厂,颗粒物(PM10),81,112,112,44,43,68,,121,111,39,37,11,12,0.7,0.7
2025-03-31T2200,1630A,117.9776,37.393,滨州市,北中新校,,,,,,,,,,,,,,,,
2025-03-31T2200,3514A,117.9378,37.3956,滨州市,中海酒店,颗粒物(PM10),75,100,92,48,45,104,,132,127,26,23,12,13,0.5,0.5
2025-03-31T2200,3515A,117.9378,37.3553,滨州市,开发区一中,颗粒物(PM10),91,132,110,51,44,86,,128,121,42,40,12,13,0.4,0.4
2025-03-31T2200,3516A,118.0917,37.694,滨州市,金海六路,颗粒物(PM10),79,107,100,44,40,73,,124,112,55,37,8,10,0.8,0.8
2025-03-31T2200,4028A,117.9956,37.3753,滨州市,滨州市西街道办事处,颗粒物(PM10),79,107,105,53,51,90,,133,126,29,32,9,10,0.6,0.6
2025-03-31T2200,2311A,115.8072,33.8399,亳州市,污水处理厂,颗粒物(PM10),74,97,99,41,40,113,,125,123,17,17,3,4,0.3,0.3
2025-03-31T2200,2312A,115.7789,33.8518,亳州市,三国揽胜宫,颗粒物(PM10),74,98,104,41,40,108,,119,118,14,13,4,5,0.4,0.4
2025-03-31T2200,3332A,115.7633,33.8034,亳州市,亳州学院,颗粒物(PM10),75,100,101,43,41,97,,112,110,14,12,6,6,0.4,0.4
2025-03-31T2200,2693A,82.0485,44.8556,博尔塔拉蒙古自治州,市党校,颗粒物(PM10),57,64,66,23,24,107,,126,125,43,24,1,2,0.2,0.2
2025-03-31T2200,2694A,82.0806,44.8969,博尔塔拉蒙古自治州,市环保局,,,,66,,30,,,,,,21,,2,,0.3
2025-03-31T2200,1071A,116.8842,38.2991,沧州市,沧县城建局,颗粒物(PM10),71,91,96,51,46,90,,113,110,25,21,6,6,0.4,0.4
2025-03-31T2200,1072A,116.8584,38.3254,沧州市,电视转播站,细颗粒物(PM2.5),73,93,90,53,47,109,,123,123,22,20,8,7,0.4,0.4
2025-03-31T2200,1073A,116.8709,38.3228,沧州市,市环保局,颗粒物(PM10),70,89,84,49,46,90,,121,114,25,22,7,11,0.4,0.4
2025-03-31T2200,3324A,116.8136,38.3004,沧州市,河北水利电力学院,颗粒物(PM10),86,122,115,61,51,74,,102,97,35,26,6,7,0.4,0.4
2025-03-31T2200,2622A,97.1806,31.1273,昌都市,昌都监测站,,33,22,14,12,7,103,,135,114,5,5,8,7,0.1,0.1
2025-03-31T2200,3719A,97.1714,31.1406,昌都市,昌都会议中心,,33,23,16,14,8,103,,133,118,10,6,3,3,0.2,0.2
2025-03-31T2200,2690A,88.1236,43.8886,昌吉回族自治州,天山天池,,36,36,39,8,11,73,,104,98,12,11,5,5,0.6,0.6
2025-03-31T2200,2692A,87.2717,44.0297,昌吉回族自治州,新区政务中心,,38,38,63,13,19,89,,110,109,18,19,11,9,0.6,0.7
2025-03-31T2200,3613A,87.3095,44.0142,昌吉回族自治州,亚心广场,,48,48,79,17,25,89,,112,110,19,19,6,8,0.5,0.6
2025-03-31T2200,1119A,125.3325,43.9166,长春市,食品厂,细颗粒物(PM2.5),110,116,67,83,53,40,,103,74,61,27,12,10,0.8,0.5
2025-03-31T2200,1120A,125.2863,43.9027,长春市,客车厂,细颗粒物(PM2.5),119,99,64,90,54,54,,102,71,52,28,10,9,0.9,0.6
2025-03-31T2200,1121A,125.2841,43.8463,长春市,邮电学院,细颗粒物(PM2.5),115,114,74,87,52,30,,112,79,66,20,9,11,0.8,0.5
2025-03-31T2200,1122A,125.3716,43.8772,长春市,劳动公园,细颗粒物(PM2.5),142,,68,108,53,55,,111,85,47,19,11,10,0.9,0.3
2025-03-31T2200,1123A,125.3297,43.8805,长春市,园林处,细颗粒物(PM2.5),149,,65,114,49,55,,109,88,50,20,11,11,0.8,0.4
2025-03-31T2200,1124A,125.4605,43.79,长春市,净月潭,细颗粒物(PM2.5),114,,64,86,48,73,,107,90,18,14,8,9,0.7,0.6
2025-03-31T2200,1125A,125.7194,43.515,长春市,甩湾子,细颗粒物(PM2.5),188,167,75,141,59,45,,119,92,26,14,3,5,1.2,0.7
2025-03-31T2200,1126A,125.3863,43.8447,长春市,经开区环卫处,细颗粒物(PM2.5),110,111,69,83,46,8,,104,60,90,27,9,8,0.8,0.5
2025-03-31T2200,1127A,125.245,43.7783,长春市,高新区管委会,细颗粒物(PM2.5),228,,72,178,64,46,,110,74,60,24,13,11,1.0,0.6
2025-03-31T2200,1128A,125.1761,43.8325,长春市,岱山公园,细颗粒物(PM2.5),130,,64,99,56,22,,115,80,88,29,9,8,0.8,0.6
2025-03-31T2200,1335A,113.0833,28.2325,长沙市,经开区环保局,颗粒物(PM10),72,94,76,36,37,76,,99,95,30,23,4,4,0.5,0.4
2025-03-31T2200,1336A,112.8872,28.2189,长沙市,高开区环保局,颗粒物(PM10),65,79,71,34,37,65,,96,91,31,18,4,5,0.5,0.4
2025-03-31T2200,1337A,113.0792,28.2053,长沙市,马坡岭,颗粒物(PM10),72,93,80,37,38,68,,92,87,33,18,4,5,0.6,0.5
2025-03-31T2200,1338A,112.9394,28.19,长沙市,湖南师范大学,颗粒物(PM10),66,82,73,32,34,74,,97,92,24,17,5,5,0.5,0.5
2025-03-31T2200,1339A,113.0178,28.1322,长沙市,雨花区环保局,颗粒物(PM10),70,89,76,39,40,68,,92,88,30,26,5,6,0.5,0.5
2025-03-31T2200,1340A,112.9792,28.2597,长沙市,伍家岭,颗粒物(PM10),74,98,82,35,38,67,,94,91,30,22,3,4,0.6,0.5
2025-03-31T2200,1341A,113.0014,28.1944,长沙市,火车新站,颗粒物(PM10),70,90,79,44,40,73,,98,94,30,22,6,6,0.6,0.5
2025-03-31T2200,1342A,112.9844,28.1178,长沙市,天心区环保局,颗粒物(PM10),65,80,77,38,39,72,,97,92,30,23,3,3,0.9,0.8
2025-03-31T2200,1343A,112.8908,28.1308,长沙市,湖南中医药大学,颗粒物(PM10),64,78,72,38,36,61,,94,86,27,18,3,4,0.4,0.4
2025-03-31T2200,1344A,112.9581,28.3611,长沙市,沙坪,颗粒物(PM10),57,64,59,35,34,69,,92,90,15,12,5,6,0.4,0.3
2025-03-31T2200,1727A,113.1147,36.1547,长治市,清华站,颗粒物(PM10),51,52,43,29,21,93,,128,122,21,19,8,8,0.6,0.6
2025-03-31T2200,1730A,113.0886,36.2125,长治市,审计局,,47,47,44,31,24,92,,130,120,26,22,9,10,0.4,0.4
2025-03-31T2200,1731A,113.0844,36.1856,长治市,长治八中,颗粒物(PM10),53,56,59,30,29,100,,130,124,20,22,10,11,0.5,0.6
2025-03-31T2200,2845A,113.1569,36.1911,长治市,德盛苑,,48,48,41,31,21,101,,128,121,16,13,7,7,0.7,0.6
2025-03-31T2200,3568A,113.06,36.0464,长治市,向阳小学,颗粒物(PM10),54,58,57,27,24,94,,125,117,20,17,12,11,0.5,0.5
2025-03-31T2200,3569A,112.8792,36.3144,长治市,屯留一中,颗粒物(PM10),52,53,46,17,17,106,,127,121,28,30,9,8,0.6,0.5
2025-03-31T2200,4189A,113.1131,36.19948,长治市,英华南巷50号,颗粒物(PM10),54,57,46,31,23,94,,132,123,21,20,12,13,0.8,0.9
2025-03-31T2200,4190A,113.2367,36.3344,长治市,学府街1号,颗粒物(PM10),51,51,55,33,29,53,,140,108,48,28,23,10,0.9,0.8
2025-03-31T2200,1854A,111.6975,28.9703,常德市,市二中,,,61,51,34,29,61,,94,89,24,15,4,4,,0.4
2025-03-31T2200,1857A,111.7158,29.1456,常德市,白鹤山,,,,,,,,,,,,,,,,
2025-03-31T2200,3138A,111.7153,29.0289,常德市,武陵区永安,颗粒物(PM10),57,64,59,30,30,78,,100,96,22,17,3,3,0.6,0.6
2025-03-31T2200,3139A,111.6892,28.9881,常德市,鼎城区玉霞,颗粒物(PM10),55,60,52,33,29,68,,112,104,34,16,5,5,0.4,0.4
2025-03-31T2200,3140A,111.6625,29.0531,常德市,武陵区长庚,颗粒物(PM10),55,60,60,29,29,82,,109,104,20,14,4,4,0.5,0.5
2025-03-31T2200,1196A,119.9633,31.762,常州市,市监测站,颗粒物(PM10),64,77,43,35,19,77,,115,109,39,15,6,6,0.6,0.5
2025-03-31T2200,1200A,119.9468,31.7069,常州市,武进监测站,,46,46,34,23,14,96,,115,112,30,24,12,13,0.4,0.3
2025-03-31T2200,1201A,119.9255,31.9087,常州市,安家,颗粒物(PM10),55,59,40,28,18,81,,99,96,30,25,7,7,0.5,0.5
2025-03-31T2200,3002A,119.9805,31.8174,常州市,行政中心,颗粒物(PM10),52,54,35,24,14,78,,106,103,37,30,10,7,0.4,0.5
2025-03-31T2200,3003A,120.0522,31.7748,常州市,经开区,颗粒物(PM10),53,55,45,29,15,76,,108,102,44,32,9,10,0.6,0.5
2025-03-31T2200,3010A,119.9025,31.7964,常州市,钟楼,颗粒物(PM10),53,56,37,23,14,96,,108,106,26,20,7,7,0.7,0.7
2025-03-31T2200,3429A,119.8598,31.7066,常州市,武进经发区,颗粒物(PM10),56,61,36,29,15,90,,115,107,36,25,7,7,0.6,0.5
2025-03-31T2200,3430A,119.5826,31.7245,常州市,金坛城区,颗粒物(PM10),52,53,37,28,17,104,,122,117,21,18,8,8,0.6,0.6
2025-03-31T2200,2220A,120.4318,41.5881,朝阳市,西梁,细颗粒物(PM2.5),104,91,50,78,25,46,,99,85,56,23,16,11,1.1,0.9
2025-03-31T2200,2221A,120.4521,41.5646,朝阳市,河畔小区,细颗粒物(PM2.5),93,73,43,69,25,35,,97,86,58,19,16,8,1.3,1
2025-03-31T2200,2222A,120.4176,41.5648,朝阳市,八里堡,细颗粒物(PM2.5),82,78,48,60,25,77,,94,86,33,23,15,8,1.0,0.8
2025-03-31T2200,2223A,120.3806,41.5969,朝阳市,农业园区,细颗粒物(PM2.5),93,79,44,69,27,38,,99,76,58,21,13,9,0.9,0.7
2025-03-31T2200,1705A,116.6367,23.6719,潮州市,西园路,,,,,,,,,,,,,,,,
2025-03-31T2200,3026A,116.6183,23.6608,潮州市,市政府,,,,5,3,3,22,,27,26,12,11,3,3,0.6,0.6
2025-03-31T2200,4036A,116.6461,23.6761,潮州市,金山,,8,6,7,3,4,18,,22,22,14,12,6,6,0.5,0.6
2025-03-31T2200,2472A,113.0073,25.9061,郴州市,马头岭,,46,46,40,11,15,11,,40,31,16,10,8,8,0.7,0.6
2025-03-31T2200,2473A,113.0116,25.8226,郴州市,市职中,颗粒物(PM10),52,53,32,33,22,22,,47,37,16,12,4,4,0.7,0.6
2025-03-31T2200,2475A,113.0383,25.8071,郴州市,市审计局,颗粒物(PM10),55,60,33,38,22,30,,52,42,19,11,7,5,0.9,0.7
2025-03-31T2200,2476A,113.0348,25.7759,郴州市,市环保局,颗粒物(PM10),61,72,35,43,27,32,,47,39,16,10,8,6,0.6,0.4
2025-03-31T2200,4252A,113.0138,25.8011,郴州市,好美居路49号,颗粒物(PM10),59,67,39,39,27,23,,55,33,17,13,6,7,0.6,0.5
2025-03-31T2200,1431A,103.9728,30.7236,成都市,金泉两河,,45,45,44,21,21,13,,35,24,30,23,2,1,0.8,0.7
2025-03-31T2200,1432A,104.176,30.6872,成都市,十里店,,42,42,38,24,23,19,,42,36,40,30,3,3,0.8,0.6
2025-03-31T2200,1433A,104.079,30.5706,成都市,三瓦窑,,40,40,37,28,24,10,,36,28,51,39,4,4,0.9,0.8
2025-03-31T2200,1434A,104.1114,30.63,成都市,沙河铺,细颗粒物(PM2.5),52,39,41,36,30,19,,37,33,31,25,5,5,0.7,0.6
2025-03-31T2200,1437A,104.0786,30.6531,成都市,君平街,,49,49,37,33,26,21,,45,38,42,30,5,5,1.0,0.8
2025-03-31T2200,1438A,103.613,31.0283,成都市,灵岩寺,,,,,,,,,,,,,,,,
2025-03-31T2200,2880A,104.0239,30.65639,成都市,大石西路,,48,48,41,28,27,15,,38,31,40,29,4,4,0.9,0.8
2025-03-31T2200,3136A,104.2725,30.5589,成都市,龙泉驿区区政府,,49,34,26,34,22,28,,39,31,28,26,4,4,0.8,0.8
2025-03-31T2200,3357A,104.0106,30.6931,成都市,金博路,,41,41,29,20,18,9,,32,24,40,27,6,5,0.7,0.6
2025-03-31T2200,3359A,104.0578,30.5225,成都市,华阳,细颗粒物(PM2.5),52,,33,36,30,26,,44,39,35,30,4,4,0.5,0.5
2025-03-31T2200,3488A,104.3853,30.7453,成都市,青白江技师分院,细颗粒物(PM2.5),60,44,31,43,22,5,,26,18,44,30,5,5,0.9,0.8
2025-03-31T2200,3489A,104.0789,30.4072,成都市,科学城,,50,45,35,35,25,26,,49,44,30,23,4,4,0.6,0.5
2025-03-31T2200,4011A,103.8506,30.6947,成都市,光华大道三段,,43,37,35,30,22,19,,50,32,33,25,4,4,0.8,0.8
2025-03-31T2200,4224A,104.2433,30.5353,成都市,鲸龙路1057号,,50,45,34,35,25,29,,42,31,26,30,3,3,0.8,0.8
2025-03-31T2200,1062A,117.9531,40.9081,承德市,铁路,,29,29,39,15,14,54,,94,76,17,28,7,8,0.4,0.4
2025-03-31T2200,1063A,117.9392,40.9763,承德市,中国银行,颗粒物(PM10),54,58,43,21,15,40,,96,78,29,20,4,6,0.5,0.5
2025-03-31T2200,1064A,117.9503,40.928,承德市,开发区,,39,39,42,17,19,42,,98,82,29,23,5,6,0.4,0.4
2025-03-31T2200,1065A,117.8051,40.9655,承德市,文化中心,颗粒物(PM10),63,75,57,25,20,22,,94,73,50,27,8,11,0.5,0.6
2025-03-31T2200,1066A,117.9268,41.0026,承德市,离宫,,42,42,36,29,22,55,,65,60,10,12,21,15,0.4,0.4
2025-03-31T2200,2314A,117.47,30.6618,池州市,池州学院,,35,35,64,19,36,90,,98,96,17,18,6,7,0.3,0.4
2025-03-31T2200,3237A,117.4918,30.6617,池州市,展览馆,,32,32,61,16,35,81,,99,94,17,20,4,6,0.4,0.6
2025-03-31T2200,3333A,117.5627,30.695,池州市,第八中学,,31,31,62,16,33,89,,99,98,14,16,4,5,0.4,0.8
2025-03-31T2200,3334A,117.5038,30.6243,池州市,第十二中学,,33,33,60,17,33,80,,102,97,22,22,5,5,0.4,0.8
2025-03-31T2200,1744A,118.9233,42.2816,赤峰市,松山一中,颗粒物(PM10),64,77,33,40,12,20,,80,55,63,37,22,11,1.4,0.8
2025-03-31T2200,1745A,118.9576,42.2728,赤峰市,哈达街,,44,44,27,19,16,25,,87,66,50,25,16,8,1.0,0.6
2025-03-31T2200,1746A,118.8788,42.2554,赤峰市,天义路,,46,46,32,16,10,64,,89,72,19,25,7,8,0.4,0.4
2025-03-31T2200,3058A,119.2658,42.0353,赤峰市,银河街,颗粒物(PM10),57,64,47,33,26,26,,75,56,48,29,17,20,0.8,0.6
2025-03-31T2200,3286A,118.9359,42.3147,赤峰市,桥北物流园区,颗粒物(PM10),58,65,27,37,17,4,,81,51,64,35,14,9,1.1,0.6
2025-03-31T2200,2521A,107.3476,22.4136,崇左市,市环保局江州分局,,42,42,29,25,15,59,,72,70,13,11,8,6,0.5,0.4
2025-03-31T2200,4256A,107.3750,22.3736,崇左市,石景林东路7号,,27,27,27,14,12,62,,77,74,12,10,6,6,0.4,0.5
2025-03-31T2200,2298A,118.3093,32.3153,滁州市,老年大学,,42,42,44,19,22,86,,120,112,22,19,3,4,0.5,0.6
2025-03-31T2200,2299A,118.3244,32.2786,滁州市,人大宾馆,,40,40,42,15,18,94,,116,110,19,17,8,9,0.4,0.6
2025-03-31T2200,3207A,118.3118,32.3038,滁州市,市政府原办公楼,,,36,38,22,22,91,,120,114,,20,4,6,0.2,0.3
2025-03-31T2200,3331A,118.3267,32.2634,滁州市,图书馆,,38,38,41,22,26,94,,120,114,30,25,6,7,0.3,0.4
2025-03-31T2200,2605A,101.5482,25.0441,楚雄彝族自治州,州环境监测站,细颗粒物(PM2.5),67,58,66,48,53,137,,150,148,9,16,8,9,0.6,0.7
2025-03-31T2200,2606A,101.538,25.0492,楚雄彝族自治州,市经济开发区,细颗粒物(PM2.5),72,86,68,52,53,128,,149,144,12,14,6,8,0.8,0.8
2025-03-31T2200,2548A,107.5277,31.2827,达州市,达州职业技术学院,,37,37,40,18,17,18,,60,53,39,21,5,6,0.3,0.3
2025-03-31T2200,2549A,107.5086,31.2186,达州市,市环境监测站,,28,28,36,14,11,54,,67,64,20,26,4,4,0.6,0.5
2025-03-31T2200,2550A,107.4988,31.2132,达州市,凤凰小区,,29,29,35,19,16,54,,67,63,18,24,6,6,0.4,0.4
2025-03-31T2200,2551A,107.5082,31.1986,达州市,达县机关宾馆,,27,27,37,11,17,46,,60,56,25,28,4,5,0.3,0.3
2025-03-31T2200,2552A,107.4644,31.2124,达州市,市政中心,,32,32,41,9,13,51,,63,60,20,26,2,2,0.4,0.5
2025-03-31T2200,2614A,100.1542,25.7054,大理白族自治州,大理市环境监测站,细颗粒物(PM2.5),90,95,74,67,49,149,,158,152,8,10,8,8,1.2,0.9
2025-03-31T2200,2615A,100.2171,25.5811,大理白族自治州,大理古城,细颗粒物(PM2.5),110,86,65,83,52,146,,146,144,,7,8,8,0.7,0.6
2025-03-31T2200,1109A,121.612,38.9741,大连市,甘井子,细颗粒物(PM2.5),72,84,57,52,34,116,,141,135,27,27,6,8,0.1,0.2
2025-03-31T2200,1110A,121.565,38.9511,大连市,周水子,细颗粒物(PM2.5),73,75,54,53,37,108,,129,126,26,26,13,11,0.5,0.5
2025-03-31T2200,1111A,121.5637,38.8845,大连市,星海三站,细颗粒物(PM2.5),72,81,57,52,38,113,,132,129,16,18,8,9,0.6,0.6
2025-03-31T2200,1112A,121.6302,38.9117,大连市,青泥洼桥,细颗粒物(PM2.5),70,86,62,51,36,118,,139,137,21,22,10,11,0.8,0.7
2025-03-31T2200,1113A,121.6251,38.8638,大连市,傅家庄,细颗粒物(PM2.5),72,82,58,52,39,111,,112,112,25,28,10,10,0.3,0.4
2025-03-31T2200,1114A,121.5213,38.8661,大连市,七贤岭,颗粒物(PM10),68,85,63,45,34,111,,132,129,17,20,7,8,0.5,0.4
2025-03-31T2200,1115A,121.2529,38.8061,大连市,旅顺,细颗粒物(PM2.5),68,79,62,49,40,112,,125,124,28,28,9,9,0.5,0.6
2025-03-31T2200,1116A,121.7485,39.1311,大连市,金州,颗粒物(PM10),70,90,68,46,35,121,,134,133,25,27,11,12,0.6,0.5
2025-03-31T2200,1117A,121.7811,39.0496,大连市,开发区,细颗粒物(PM2.5),72,80,53,52,35,100,,117,116,29,28,7,8,0.7,0.6
2025-03-31T2200,1118A,121.9762,39.0631,大连市,双D港,细颗粒物(PM2.5),72,84,67,52,38,118,,122,120,24,27,8,10,0.7,0.6
2025-03-31T2200,1789A,124.81117,46.03138,大庆市,大同区,细颗粒物(PM2.5),70,64,39,51,30,53,,90,76,18,10,8,5,0.7,0.5
2025-03-31T2200,1790A,125.129,46.533,大庆市,龙凤区,颗粒物(PM10),51,52,44,35,24,62,,83,74,11,13,17,8,0.4,0.5
2025-03-31T2200,1791A,124.902,46.408,大庆市,红岗区,,36,31,30,25,20,66,,90,79,10,9,6,5,0.6,0.4
2025-03-31T2200,1792A,125.153,46.586,大庆市,萨尔图区,,47,47,43,32,24,63,,77,70,14,16,12,9,0.5,0.5
2025-03-31T2200,1793A,124.9042,46.6215,大庆市,让胡路区,,32,31,30,22,24,63,,80,73,13,11,6,5,0.3,0.2
2025-03-31T2200,3481A,125.141,46.634,大庆市,萨区政府监测点,,40,40,36,12,14,75,,85,80,7,12,7,7,0.4,0.4
2025-03-31T2200,1721A,113.3819,40.1097,大同市,果树场,细颗粒物(PM2.5),69,81,53,50,25,12,,97,72,69,34,10,13,1.0,0.8
2025-03-31T2200,1723A,113.2994,40.0758,大同市,云冈宾馆,,44,44,47,12,14,75,,108,101,29,25,15,12,0.4,0.7
2025-03-31T2200,1724A,113.3444,40.0917,大同市,大同大学,,38,38,50,24,20,58,,104,93,31,28,17,19,0.5,0.6
2025-03-31T2200,1725A,113.2661,40.1269,大同市,安家小村,颗粒物(PM10),56,61,39,14,18,88,,103,98,10,22,10,14,0.2,1.6
2025-03-31T2200,1726A,113.2711,40.0844,大同市,教育学院,,47,47,45,26,18,62,,105,94,33,25,13,14,0.6,0.9
2025-03-31T2200,3282A,113.3397,40.0597,大同市,大同市卫生学校,,,,58,,21,,,101,97,46,35,9,12,0.5,0.6
2025-03-31T2200,3565A,113.1367,40.1122,大同市,云冈站,颗粒物(PM10),52,53,50,24,19,19,,101,82,60,24,20,23,0.4,0.4
2025-03-31T2200,3566A,113.1186,40.2556,大同市,图书馆,,27,27,49,18,18,53,,96,86,9,12,8,11,0.3,0.3
2025-03-31T2200,3567A,113.5931,40.0461,大同市,区一中,颗粒物(PM10),54,58,56,34,19,55,,104,92,20,19,19,25,1.0,0.7
2025-03-31T2200,4199A,113.2798,40.0997,大同市,魏都大道141号,颗粒物(PM10),66,81,57,33,22,41,,108,91,58,34,17,15,0.6,0.9
2025-03-31T2200,2269A,124.1069,50.4097,大兴安岭地区,科技局,,42,31,25,29,19,79,,82,82,5,5,7,7,0.4,0.4
2025-03-31T2200,3663A,124.1164,50.4278,大兴安岭地区,红旗社区,,24,17,19,12,11,74,,82,79,11,15,11,6,0.4,0.5
2025-03-31T2200,1600A,124.3303,40.0625,丹东市,江湾东路,细颗粒物(PM2.5),67,71,45,48,24,82,,106,98,10,9,7,8,0.7,0.6
2025-03-31T2200,1601A,124.4256,40.1503,丹东市,临江后街,颗粒物(PM10),79,108,81,47,30,82,,102,92,18,16,7,9,0.6,0.8
2025-03-31T2200,1602A,124.3933,40.1461,丹东市,元宝山,颗粒物(PM10),65,79,47,41,21,89,,100,95,16,14,8,9,0.8,0.6
2025-03-31T2200,1603A,124.3633,40.1092,丹东市,民主桥,细颗粒物(PM2.5),69,75,44,50,23,84,,104,96,18,12,10,9,1.0,0.6
2025-03-31T2200,3541A,109.5726,19.5167,儋州市,第一中学子站,,27,27,10,18,7,50,,47,47,8,9,4,4,0.8,0.7
2025-03-31T2200,3542A,109.5567,19.5187,儋州市,东坡学校子站,,29,24,12,20,8,51,,50,50,10,9,4,5,0.8,0.7
2025-03-31T2200,2616A,98.5842,24.428,德宏傣族景颇族自治州,德宏州监测站,细颗粒物(PM2.5),124,128,125,94,94,84,,149,135,33,34,9,10,1.1,1.1
2025-03-31T2200,3677A,98.5881,24.4368,德宏傣族景颇族自治州,芒市人民政府综合楼,细颗粒物(PM2.5),123,157,146,93,93,114,,155,145,17,21,10,11,1.0,1
2025-03-31T2200,1901A,104.4239,31.1208,德阳市,东山公园,,50,,32,35,29,9,,42,30,44,27,2,2,0.7,0.6
2025-03-31T2200,1902A,104.3826,31.1317,德阳市,西小区,细颗粒物(PM2.5),52,49,42,36,32,10,,45,34,51,28,4,3,0.7,0.6
2025-03-31T2200,1904A,104.3553,31.1091,德阳市,耐火材料厂,,48,40,34,33,31,10,,45,34,49,26,5,4,0.5,0.4
2025-03-31T2200,3639A,104.4019,31.1244,德阳市,市教育局,细颗粒物(PM2.5),52,,34,36,32,8,,49,36,52,26,4,3,0.6,0.5
2025-03-31T2200,1622A,116.3032,37.4674,德州市,儿童乐园,颗粒物(PM10),86,122,121,46,42,101,,132,128,20,20,7,8,0.7,0.7
2025-03-31T2200,1624A,116.2991,37.4451,德州市,监理站,颗粒物(PM10),78,105,113,46,44,101,,131,128,18,18,9,10,0.4,0.4
2025-03-31T2200,3066A,116.2721,37.4379,德州市,九衢泉纯净水厂,颗粒物(PM10),80,110,110,41,40,90,,126,121,32,28,10,10,0.5,0.5
2025-03-31T2200,3371A,116.3728,37.4403,德州市,开发区人民医院,颗粒物(PM10),81,112,121,39,39,101,,131,128,19,20,7,8,0.5,0.6
2025-03-31T2200,3372A,116.3572,37.4094,德州市,太阳城中学,细颗粒物(PM2.5),92,119,120,68,51,99,,134,130,18,19,5,7,0.2,0.5
2025-03-31T2200,3511A,116.5652,37.3319,德州市,陵城艺术中心,颗粒物(PM10),80,110,112,41,41,88,,127,122,29,23,10,13,0.6,0.7
2025-03-31T2200,2621A,99.7056,27.8317,迪庆藏族自治州,迪庆州站,颗粒物(PM10),56,61,61,31,31,111,,119,112,13,10,8,8,0.6,0.6
2025-03-31T2200,3180A,99.7136,27.8094,迪庆藏族自治州,质量技术监督局,,49,49,55,29,29,116,,124,118,13,11,9,9,0.8,0.8
2025-03-31T2200,4257A,104.6092,35.5962,定西市,将台街,颗粒物(PM10),113,176,113,62,36,54,,105,96,42,20,12,7,0.6,0.2
2025-03-31T2200,4309A,104.6159,35.5701,定西市,正龙路62号,颗粒物(PM10),101,151,123,71,46,87,,113,106,17,13,15,12,0.6,0.5
2025-03-31T2200,1389A,113.7547,23.0494,东莞市,莞城梨川,,10,10,11,7,6,23,,26,21,15,15,3,3,0.5,0.5
2025-03-31T2200,1390A,113.7944,23.0128,东莞市,东城石井,,10,10,9,3,4,23,,25,22,15,16,6,5,0.6,0.6
2025-03-31T2200,1391A,113.7383,22.9658,东莞市,南城西平,,15,12,9,7,4,11,,21,17,30,23,6,6,0.7,0.7
2025-03-31T2200,3319A,113.7338,23.0381,东莞市,万江金泰,,14,14,10,8,5,16,,25,22,17,12,5,3,0.6,0.8
2025-03-31T2200,3626A,113.7533,23.0202,东莞市,南城元岭,,10,9,8,7,6,19,,26,20,15,12,5,5,0.6,0.6
2025-03-31T2200,3627A,113.7875,23.0457,东莞市,东城主山,,10,10,8,3,4,21,,25,21,17,17,10,8,0.6,0.6
2025-03-31T2200,1666A,118.6614,37.4309,东营市,市环保局,颗粒物(PM10),71,92,93,34,36,94,,131,122,36,33,8,10,0.6,0.7
2025-03-31T2200,3036A,118.6904,37.4338,东营市,开发区管委会,颗粒物(PM10),73,95,101,41,44,96,,127,118,41,40,6,9,0.7,0.8
2025-03-31T2200,3365A,118.5719,37.565,东营市,垦利区民丰路,颗粒物(PM10),80,110,91,51,38,83,,132,121,29,25,13,13,0.7,0.7
2025-03-31T2200,3498A,118.5055,37.8612,东营市,河口城区,颗粒物(PM10),90,129,105,49,39,66,,124,107,27,26,27,11,0.8,0.9
2025-03-31T2200,3646A,118.4978,37.4623,东营市,胜利站,颗粒物(PM10),82,113,100,51,40,81,,123,115,46,41,11,13,0.7,0.7
2025-03-31T2200,3734A,118.35,37.26,东营市,理想之城,颗粒物(PM10),85,119,99,51,42,38,,133,108,74,43,7,9,0.6,0.6
2025-03-31T2200,1591A,110.0023,39.8129,鄂尔多斯市,综合楼,颗粒物(PM10),65,80,36,14,7,75,,96,92,23,16,8,7,0.3,0.3
2025-03-31T2200,1592A,109.9486,39.8261,鄂尔多斯市,巴音孟克林场办事处,颗粒物(PM10),63,75,32,14,9,69,,98,92,28,14,7,6,0.3,0.3
2025-03-31T2200,1593A,109.7736,39.5986,鄂尔多斯市,康泽苑,颗粒物(PM10),56,61,36,12,10,78,,98,94,9,10,3,3,0.3,0.3
2025-03-31T2200,1594A,109.8119,39.5989,鄂尔多斯市,华泰汽车城,颗粒物(PM10),54,58,37,22,13,77,,96,91,12,18,3,4,0.3,0.3
2025-03-31T2200,1595A,109.9734,39.7884,鄂尔多斯市,奥林花园,颗粒物(PM10),62,73,48,12,11,80,,98,92,17,26,6,15,0.2,0.5
2025-03-31T2200,2436A,114.8938,30.3994,鄂州市,市政府,细颗粒物(PM2.5),85,107,97,63,51,66,,91,86,26,19,6,9,0.9,0.8
2025-03-31T2200,2437A,114.8989,30.3714,鄂州市,赵家坝,细颗粒物(PM2.5),92,131,104,68,50,37,,77,67,48,30,5,6,1.0,0.7
2025-03-31T2200,3654A,114.8094,30.4089,鄂州市,精准医疗中心,细颗粒物(PM2.5),90,112,98,67,50,66,,123,112,46,27,4,6,0.9,0.7
2025-03-31T2200,2454A,109.4978,30.2981,恩施土家族苗族自治州,湖北民院,颗粒物(PM10),51,51,45,29,23,50,,99,90,20,14,2,2,0.2,0.2
2025-03-31T2200,2455A,109.4707,30.2798,恩施土家族苗族自治州,州电力总公司,颗粒物(PM10),58,65,44,28,23,35,,84,72,36,19,7,5,0.0,0.1
2025-03-31T2200,3549A,109.5061,30.3772,恩施土家族苗族自治州,龙凤新区,,49,49,38,16,17,42,,84,76,17,12,7,6,0.4,0.3
2025-03-31T2200,2499A,108.3411,21.6158,防城港市,沙万,,30,26,20,21,15,58,,60,60,15,12,3,6,0.3,0.3
2025-03-31T2200,2500A,108.3514,21.7731,防城港市,防城档案局,,30,30,32,15,15,60,,52,52,11,11,2,1,0.4,0.4
2025-03-31T2200,2501A,108.3506,21.6414,防城港市,大海花园,,29,25,23,20,18,63,,62,62,11,9,6,6,0.7,0.7
2025-03-31T2200,1371A,113.1294,23.0067,佛山市,湾梁,,27,27,17,10,6,24,,30,24,30,26,6,6,1.0,0.9
2025-03-31T2200,1372A,113.1083,23.0478,佛山市,华材职中,,29,29,21,14,14,22,,23,20,31,31,6,5,0.6,0.5
2025-03-31T2200,1373A,113.144,23.0453,佛山市,南海气象局,,19,19,14,12,8,17,,26,18,30,25,5,4,0.8,0.7
2025-03-31T2200,1374A,113.2881,22.8094,佛山市,顺德苏岗,,13,13,12,7,4,19,,22,18,25,24,5,5,0.5,0.6
2025-03-31T2200,1376A,112.8383,22.8678,佛山市,高明孔堂,,,23,19,20,13,,,28,22,25,18,18,9,0.7,0.7
2025-03-31T2200,1377A,112.8836,23.1588,佛山市,三水监测站,,23,,11,16,12,18,,25,21,25,22,2,2,0.5,0.5
2025-03-31T2200,1378A,112.867,23.185,佛山市,三水云东海,,16,,12,11,8,10,,25,20,28,22,3,3,0.6,0.6
2025-03-31T2200,3625A,113.2544,22.7642,佛山市,容桂街道办,,19,14,9,9,8,8,,23,12,38,29,6,6,0.7,0.7
2025-03-31T2200,1280A,119.3903,26.0543,福州市,鼓山,,,,4,,2,,,75,,,3,,3,,0.4
2025-03-31T2200,1282A,119.2681,26.0504,福州市,师大,,20,6,8,3,2,64,,73,65,8,9,3,3,0.3,0.3
2025-03-31T2200,1283A,119.2984,26.1028,福州市,五四北路,,20,6,7,3,3,62,,66,62,8,10,3,3,0.5,0.4
2025-03-31T2200,1284A,119.2648,26.0768,福州市,杨桥西路,,19,8,7,3,2,60,,70,65,12,12,3,3,0.4,0.4
2025-03-31T2200,1285A,119.317,26.0746,福州市,紫阳,,20,7,9,3,2,61,,69,65,12,14,4,4,0.3,0.3
2025-03-31T2200,3048A,119.5799,26.0936,福州市,九龙,,19,7,8,3,3,59,,74,62,6,5,3,3,0.3,0.4
2025-03-31T2200,3526A,119.5189,25.9664,福州市,吴航,,24,8,8,6,8,75,,79,73,6,6,4,4,0.5,0.6
2025-03-31T2200,1755A,123.7977,41.8491,抚顺市,望花区,细颗粒物(PM2.5),88,98,75,65,43,100,,118,111,18,22,10,16,0.7,1.1
2025-03-31T2200,1756A,123.9161,41.8822,抚顺市,顺城区,细颗粒物(PM2.5),70,83,78,51,40,100,,116,112,19,34,9,11,1.0,1
2025-03-31T2200,1757A,124.0436,41.8611,抚顺市,东洲区,细颗粒物(PM2.5),75,75,63,55,33,101,,114,109,14,17,9,10,0.7,0.7
2025-03-31T2200,1758A,123.9247,41.8642,抚顺市,新抚区,细颗粒物(PM2.5),82,86,81,60,48,78,,110,104,27,32,7,8,1.0,0.9
2025-03-31T2200,1759A,124.0972,41.8961,抚顺市,大伙房水库,细颗粒物(PM2.5),83,85,64,61,36,104,,111,109,12,13,7,9,0.6,0.7
2025-03-31T2200,1760A,123.7086,41.8391,抚顺市,沈抚新城,细颗粒物(PM2.5),88,96,78,65,46,78,,119,106,29,26,12,13,1.4,1
2025-03-31T2200,2376A,116.2127,28.0814,抚州市,桐源党溪,,50,50,43,15,21,30,,89,73,5,3,4,6,0.5,0.6
2025-03-31T2200,2377A,116.3544,27.9831,抚州市,市站,,42,42,43,20,21,65,,71,69,11,13,10,17,0.5,0.6
2025-03-31T2200,2378A,116.3565,27.963,抚州市,血防站,,44,44,49,23,24,66,,75,72,11,10,3,5,0.8,0.8
2025-03-31T2200,2379A,116.3564,28.0007,抚州市,采茶剧团,,39,39,39,25,22,55,,69,66,11,7,3,5,1.1,0.9
2025-03-31T2200,2380A,116.385,27.9647,抚州市,医学分院,,44,44,42,22,22,53,,61,58,14,10,4,12,0.4,0.6
2025-03-31T2200,2207A,121.6094,41.998,阜新市,工业园区,细颗粒物(PM2.5),118,107,60,89,44,66,,110,98,37,22,14,14,0.8,0.6
2025-03-31T2200,2208A,121.6697,42.0279,阜新市,长青街,细颗粒物(PM2.5),103,81,52,77,35,57,,112,100,36,20,17,14,0.8,0.6
2025-03-31T2200,2209A,121.6673,42.0705,阜新市,农业园区,细颗粒物(PM2.5),83,89,56,61,31,88,,110,106,23,14,16,14,1.0,0.9
2025-03-31T2200,2210A,121.6717,42.0224,阜新市,东苑,细颗粒物(PM2.5),114,97,56,86,37,62,,104,95,45,22,23,17,0.9,0.7
2025-03-31T2200,2211A,121.6506,42.0498,阜新市,玉龙新城,细颗粒物(PM2.5),124,111,54,94,36,19,,109,89,78,26,14,11,1.1,0.6
2025-03-31T2200,2301A,115.8277,32.8929,阜阳市,市监测站,细颗粒物(PM2.5),70,87,95,51,52,89,,116,112,24,17,7,8,0.3,0.4
2025-03-31T2200,2303A,115.8554,32.8605,阜阳市,开发区,颗粒物(PM10),75,100,114,38,47,103,,120,117,26,17,6,7,0.5,0.5
2025-03-31T2200,2875A,115.784,32.8892,阜阳市,阜阳职业技术学院,颗粒物(PM10),62,74,97,41,49,104,,113,111,16,16,6,7,0.5,0.5
2025-03-31T2200,3468A,115.7901,32.8613,阜阳市,市规划展馆,颗粒物(PM10),71,91,106,34,48,100,,120,115,19,15,7,7,0.4,0.4
2025-03-31T2200,3469A,115.836,32.9183,阜阳市,枣园社区,颗粒物(PM10),72,93,106,36,48,109,,125,122,18,15,6,6,0.4,0.5
2025-03-31T2200,2669A,102.9099,34.9841,甘南藏族自治州,州政府,,,99,111,39,39,,,86,,8,9,8,9,0.3,0.4
2025-03-31T2200,3380A,102.8914,34.9617,甘南藏族自治州,甘肃民族师范学院,颗粒物(PM10),72,93,116,35,37,87,,100,98,18,11,9,9,0.5,0.6
2025-03-31T2200,2570A,101.9603,30.0475,甘孜藏族自治州,水桥子,,19,7,10,3,8,60,,60,60,15,18,3,3,0.5,0.5
2025-03-31T2200,3065A,101.9533,29.9972,甘孜藏族自治州,州环保局,,23,8,16,3,6,72,,68,68,12,16,5,4,0.4,0.4
2025-03-31T2200,3414A,115.8347,28.932,赣江新区,桑海产业园,颗粒物(PM10),62,73,61,30,29,52,,90,82,45,23,6,5,0.5,0.4
2025-03-31T2200,2362A,114.9017,25.9149,赣州市,通天岩,,41,41,24,6,4,39,,68,53,2,3,15,14,1.3,1.3
2025-03-31T2200,2363A,114.9367,25.8664,赣州市,地委,,45,45,30,27,16,39,,49,44,10,8,9,7,0.8,0.7
2025-03-31T2200,2364A,114.9461,25.8481,赣州市,气象台,颗粒物(PM10),53,56,39,25,13,45,,55,47,16,15,7,7,0.4,0.4
2025-03-31T2200,2365A,114.9322,25.8333,赣州市,市图书馆,,45,44,25,31,18,47,,55,50,14,12,4,4,0.6,0.5
2025-03-31T2200,2366A,114.8905,25.8471,赣州市,华坚鞋城,,49,49,29,30,17,44,,52,49,18,14,8,7,0.3,0.3
2025-03-31T2200,3109A,115.0093,25.8613,赣州市,赣县区卫计委,,46,43,25,32,18,47,,52,47,8,6,3,3,0.4,0.4
2025-03-31T2200,2683A,106.2319,36.1417,固原市,马园,颗粒物(PM10),68,85,101,34,34,42,,99,82,39,32,5,6,0.7,0.8
2025-03-31T2200,2684A,106.2792,36.0022,固原市,监测站,细颗粒物(PM2.5),112,125,89,84,34,45,,109,96,49,23,18,10,1.4,0.9
2025-03-31T2200,2685A,106.2375,36.0211,固原市,新区,颗粒物(PM10),68,85,79,34,26,35,,108,94,63,21,8,8,0.6,0.4
2025-03-31T2200,3522A,106.2177,35.9959,固原市,原州区十五小,颗粒物(PM10),73,95,77,32,25,62,,102,91,33,15,6,6,0.5,0.4
2025-03-31T2200,2543A,106.6308,30.5278,广安市,小平旧居,,,,,,,,,,,,,,,,
2025-03-31T2200,2544A,106.6303,30.4576,广安市,市委,,48,35,26,33,19,43,,62,58,15,12,3,3,0.4,0.3
2025-03-31T2200,2545A,106.6271,30.4663,广安市,友谊中学,,42,41,26,29,16,41,,59,54,17,13,2,2,0.5,0.4
2025-03-31T2200,2547A,106.6388,30.4551,广安市,广电花园,,40,33,23,28,17,39,,56,53,17,15,4,5,0.5,0.4
2025-03-31T2200,2902A,106.6351,30.4865,广安市,北辰小学,,40,32,21,28,16,40,,60,56,17,13,3,3,0.5,0.4
2025-03-31T2200,2523A,105.8945,32.4535,广元市,黑石坡,,38,38,43,24,24,29,,38,38,10,17,4,9,0.3,0.4
2025-03-31T2200,2524A,105.821,32.4444,广元市,老城,,45,43,53,31,24,14,,43,41,33,23,1,7,0.6,0.8
2025-03-31T2200,2526A,105.8628,32.4287,广元市,监测站,,42,40,41,29,24,36,,50,49,14,18,5,13,0.4,0.6
2025-03-31T2200,3617A,105.8047,32.4166,广元市,经开区,细颗粒物(PM2.5),58,60,49,41,33,31,,47,46,17,25,4,10,0.5,0.7
2025-03-31T2200,1345A,113.2347,23.1423,广州市,广雅中学,,22,22,19,13,10,16,,26,18,31,28,3,3,0.5,0.5
2025-03-31T2200,1346A,113.2612,23.105,广州市,市五中,,18,18,14,12,9,18,,33,18,26,18,1,1,0.8,0.8
2025-03-31T2200,1348A,113.3478,23.0916,广州市,广东商学院,,18,17,10,12,6,22,,34,26,26,19,4,4,0.5,0.4
2025-03-31T2200,1349A,113.4332,23.1047,广州市,市八十六中,,15,15,10,9,5,21,,28,24,26,23,3,3,0.9,0.8
2025-03-31T2200,1350A,113.3505,22.9483,广州市,番禺中学,,17,17,13,8,5,26,,31,28,26,25,3,3,0.5,0.5
2025-03-31T2200,1351A,113.2146,23.3916,广州市,花都师范,,26,26,14,15,9,27,,36,34,20,15,4,4,0.7,0.6
2025-03-31T2200,1352A,113.2597,23.1331,广州市,市监测站,,19,16,14,10,7,15,,33,15,37,28,4,4,0.5,0.5
2025-03-31T2200,1353A,113.5618,23.312,广州市,九龙镇镇龙,,12,8,7,8,5,31,,38,35,13,11,4,4,0.5,0.5
2025-03-31T2200,1354A,113.2765,23.1544,广州市,麓湖,,18,16,12,12,7,11,,30,18,34,22,3,3,0.6,0.4
2025-03-31T2200,1355A,113.443,23.3035,广州市,帽峰山森林公园,,9,6,2,3,6,28,,35,32,11,10,4,5,0.7,0.6
2025-03-31T2200,2846A,113.3221,23.1322,广州市,体育西,,17,17,14,11,7,26,,33,28,18,16,4,4,0.5,0.5
2025-03-31T2200,3298A,113.5717,23.5491,广州市,从化街口,,14,6,8,3,4,44,,46,44,10,8,7,7,0.5,0.5
2025-03-31T2200,3299A,113.3472,23.3692,广州市,白云竹料,,16,7,8,3,5,51,,49,44,11,12,6,6,0.4,0.4
2025-03-31T2200,3300A,113.2981,23.237,广州市,白云嘉禾,,14,14,14,7,8,26,,33,20,23,22,4,4,0.4,0.4
2025-03-31T2200,3301A,113.4256,23.1716,广州市,黄埔科学城,,14,14,8,8,6,22,,32,28,19,14,5,5,0.5,0.5
2025-03-31T2200,3302A,113.3942,23.0483,广州市,番禺大学城,,14,13,10,8,5,25,,28,27,27,26,5,5,0.4,0.4
2025-03-31T2200,3303A,113.4922,22.8168,广州市,南沙黄阁,,18,15,12,11,8,15,,19,16,36,31,4,4,0.7,0.7
2025-03-31T2200,3304A,113.5342,22.7896,广州市,南沙街,,20,14,13,10,9,8,,18,10,39,31,3,3,0.8,0.7
2025-03-31T2200,3443A,113.2902,23.5544,广州市,花都梯面,,12,10,7,8,6,35,,36,36,9,11,4,4,0.5,0.5
2025-03-31T2200,3445A,113.7858,23.7478,广州市,从化良口,,14,6,2,3,0,43,,44,42,8,8,6,6,0.4,0.4
2025-03-31T2200,3446A,113.8051,23.2614,广州市,增城荔城,,10,6,5,3,3,29,,31,29,10,10,7,7,0.4,0.4
2025-03-31T2200,2505A,109.568,23.1478,贵港市,德智高中,,,,,,,,,,,,,,,,
2025-03-31T2200,2506A,109.6047,23.0666,贵港市,江南子站,,44,44,25,21,17,29,,62,48,17,10,2,1,0.8,0.7
2025-03-31T2200,2507A,109.6014,23.0948,贵港市,贵城子站,,,,,,,,,,,,,,,,
2025-03-31T2200,2508A,109.5669,23.1065,贵港市,荷城子站,颗粒物(PM10),51,51,24,22,13,28,,56,46,23,13,5,3,0.4,0.4
2025-03-31T2200,3405A,109.5886,23.1172,贵港市,新世纪学校,颗粒物(PM10),52,53,28,32,19,26,,61,47,19,8,3,1,0.8,0.7
2025-03-31T2200,1439A,106.6899,26.5998,贵阳市,马鞍山,,31,31,31,14,19,59,,77,67,22,16,7,6,0.4,0.3
2025-03-31T2200,1441A,106.6243,26.6266,贵阳市,鉴湖路,,39,39,41,19,22,57,,73,66,12,8,10,9,0.4,0.3
2025-03-31T2200,1442A,106.7487,26.6343,贵阳市,燕子冲,,46,46,33,24,24,50,,75,67,21,11,13,8,0.3,0.2
2025-03-31T2200,1443A,106.6555,26.4365,贵阳市,碧云窝,颗粒物(PM10),51,51,46,19,19,55,,80,69,17,11,12,9,0.4,0.4
2025-03-31T2200,1445A,106.7109,26.6027,贵阳市,红边门,,46,46,39,29,24,57,,74,66,15,16,13,7,0.2,0.2
2025-03-31T2200,1446A,106.7164,26.5699,贵阳市,新华路,,46,46,40,29,24,51,,75,64,16,8,13,8,0.4,0.3
2025-03-31T2200,1447A,106.674,26.5424,贵阳市,太慈桥,,34,34,37,19,20,59,,77,69,17,12,9,8,0.4,0.4
2025-03-31T2200,1552A,106.805,26.3003,贵阳市,桐木岭,细颗粒物(PM2.5),58,59,49,41,28,61,,87,79,10,5,2,1,0.8,0.7
2025-03-31T2200,4230A,106.6882,26.5695,贵阳市,花果园大街66号,,39,31,30,27,26,54,,71,62,15,11,8,7,0.2,0.3
2025-03-31T2200,4231A,106.6873,26.5169,贵阳市,漓江路57号,,39,39,36,24,21,61,,79,70,15,12,13,12,0.4,0.3
2025-03-31T2200,1862A,110.4144,25.3167,桂林市,电子科大尧山校区,,,,,,,,,,,,,,,,
2025-03-31T2200,1864A,110.3089,25.2708,桂林市,龙隐路小学,细颗粒物(PM2.5),64,,23,46,24,66,,83,79,9,6,16,11,0.5,0.5
2025-03-31T2200,1865A,110.2869,25.2178,桂林市,八中,,,,,,,,,,,,,,,,
2025-03-31T2200,3531A,110.296,25.1253,桂林市,旅游学院,,39,,14,27,14,74,,82,81,6,7,7,9,0.4,0.4
2025-03-31T2200,4222A,110.1835,25.2444,桂林市,环湖路276号,细颗粒物(PM2.5),52,48,25,36,20,56,,68,64,19,16,13,7,0.4,0.4
2025-03-31T2200,4301A,110.2803,25.2773,桂林市,信义路13号,,48,44,24,33,19,64,,77,72,14,10,22,13,0.6,0.6
2025-03-31T2200,2674A,100.2561,34.4714,果洛藏族自治州,玛沁县大武镇,颗粒物(PM10),134,218,175,63,46,101,,112,109,1,2,14,13,0.4,0.4
2025-03-31T2200,1129A,126.5422,45.755,哈尔滨市,岭北,细颗粒物(PM2.5),214,186,66,164,44,61,,104,92,61,20,16,11,1.4,0.6
2025-03-31T2200,1130A,126.561,45.8167,哈尔滨市,松北商大,细颗粒物(PM2.5),189,,53,142,39,69,,102,92,42,16,13,7,1.4,0.8
2025-03-31T2200,1131A,126.979,45.5419,哈尔滨市,阿城会宁,细颗粒物(PM2.5),139,122,68,106,53,83,,106,91,22,16,14,14,0.8,0.5
2025-03-31T2200,1132A,126.599,45.7222,哈尔滨市,南岗学府路,细颗粒物(PM2.5),220,185,69,170,46,62,,101,85,54,20,15,9,1.3,0.7
2025-03-31T2200,1133A,126.689,45.7733,哈尔滨市,太平宏伟公园,细颗粒物(PM2.5),262,,62,212,49,68,,104,91,49,18,15,8,1.4,0.7
2025-03-31T2200,1134A,126.635,45.7667,哈尔滨市,道外承德广场,细颗粒物(PM2.5),235,210,74,185,51,54,,100,84,61,24,17,9,1.2,0.6
2025-03-31T2200,1135A,126.685,45.7319,哈尔滨市,香坊红旗大街,细颗粒物(PM2.5),240,251,75,190,52,53,,101,84,59,24,21,12,1.5,0.7
2025-03-31T2200,1136A,126.6411,45.7258,哈尔滨市,动力和平路,细颗粒物(PM2.5),291,,62,241,60,61,,92,72,63,23,18,10,1.3,0.6
2025-03-31T2200,1137A,126.593,45.7478,哈尔滨市,道里建国路,细颗粒物(PM2.5),258,,61,208,51,57,,99,85,58,18,29,10,1.2,0.5
2025-03-31T2200,1138A,126.615,45.61,哈尔滨市,平房东轻厂,细颗粒物(PM2.5),250,261,68,200,47,42,,98,80,53,14,15,9,1.6,0.7
2025-03-31T2200,1139A,126.595,45.9855,哈尔滨市,呼兰师专,细颗粒物(PM2.5),113,,56,85,45,53,,93,84,49,21,12,11,0.7,0.5
2025-03-31T2200,1140A,126.6206,45.6842,哈尔滨市,省农科院,细颗粒物(PM2.5),246,245,79,196,51,37,,95,68,66,24,14,8,1.4,0.6
2025-03-31T2200,2688A,93.5128,42.8172,哈密市,地区监测站,,,,91,,44,,,64,,,21,,5,,0.3
2025-03-31T2200,2689A,93.4961,42.8328,哈密市,哈密师范学校,,,122,81,30,28,53,,105,98,46,31,4,6,,0.3
2025-03-31T2200,2671A,100.9048,36.9639,海北藏族自治州,海晏县西海镇,颗粒物(PM10),99,147,137,46,44,108,,117,116,10,9,18,18,0.7,0.7
2025-03-31T2200,3867A,102.0738,36.5056,海东市,平安区公安北苑,颗粒物(PM10),103,156,128,57,46,97,,108,108,18,12,10,12,1.6,1
2025-03-31T2200,1409A,110.576,19.9507,海口市,东寨港,,15,11,9,10,7,14,,31,16,7,6,3,4,0.7,0.6
2025-03-31T2200,1410A,110.3232,20.0574,海口市,海南大学,,35,30,17,24,13,40,,44,44,12,9,2,2,0.6,0.5
2025-03-31T2200,1411A,110.283,20.0053,海口市,秀英海南医院,,36,35,14,25,11,39,,43,43,15,13,5,4,0.6,0.5
2025-03-31T2200,1412A,110.338,19.9969,海口市,海南师范大学,,39,39,15,23,12,42,,45,45,11,7,3,3,0.6,0.5
2025-03-31T2200,1413A,110.33,20.0356,海口市,龙华路环保局宿舍,,41,41,16,23,13,40,,43,43,11,8,5,4,0.6,0.5
2025-03-31T2200,3539A,110.5111,19.9736,海口市,桂林洋子站,,16,16,14,9,7,46,,50,50,8,7,3,2,0.4,0.4
2025-03-31T2200,2673A,100.6188,36.2866,海南藏族自治州,共和县恰卜恰镇,细颗粒物(PM2.5),118,156,191,89,121,94,,116,111,19,21,16,15,0.4,0.6
2025-03-31T2200,2676A,97.3731,37.3753,海西蒙古族藏族自治州,德令哈市,颗粒物(PM10),117,184,240,38,62,105,,112,111,4,5,8,7,0.4,0.5
2025-03-31T2200,1048A,114.5302,36.6116,邯郸市,东污水处理厂,颗粒物(PM10),71,91,66,34,26,90,,108,106,22,23,3,4,0.4,0.5
2025-03-31T2200,1049A,114.4918,36.5713,邯郸市,矿院,颗粒物(PM10),72,93,79,27,28,86,,103,99,14,19,3,6,0.3,0.4
2025-03-31T2200,1050A,114.484,36.6133,邯郸市,丛台公园,颗粒物(PM10),62,74,72,36,34,95,,109,107,15,20,6,9,0.3,0.5
2025-03-31T2200,3458A,114.7895,36.5593,邯郸市,香泉濮院小区,颗粒物(PM10),69,87,80,30,25,92,,119,116,14,12,4,6,0.4,0.4
2025-03-31T2200,3579A,114.50634,36.77178,邯郸市,永年区实验高中,颗粒物(PM10),71,91,85,38,34,103,,116,115,14,23,6,12,0.5,0.9
2025-03-31T2200,3580A,114.20016,36.44293,邯郸市,峰峰矿区临水派出所,颗粒物(PM10),66,82,71,43,35,93,,120,112,16,20,11,14,1.3,0.9
2025-03-31T2200,2634A,106.9893,33.1842,汉中市,汉川机床厂子校,,33,32,33,23,20,49,,82,72,5,5,7,9,0.6,0.8
2025-03-31T2200,2635A,107.0154,33.0706,汉中市,市监测站,颗粒物(PM10),62,73,36,25,19,46,,72,69,25,15,5,6,1.0,0.8
2025-03-31T2200,2636A,107.0089,33.1138,汉中市,鑫源开发区,颗粒物(PM10),53,55,36,35,24,20,,71,62,51,18,5,9,0.6,0.5
2025-03-31T2200,2637A,107.007,33.0323,汉中市,南郑大河坎水厂,颗粒物(PM10),58,66,33,29,19,46,,76,67,19,14,10,7,0.7,0.6
2025-03-31T2200,1223A,120.2072,30.2111,杭州市,滨江,,50,50,40,28,18,97,,112,111,22,22,8,8,0.3,0.2
2025-03-31T2200,1224A,120.0633,30.2747,杭州市,西溪,,46,46,35,24,19,104,,114,114,19,18,7,6,0.2,0.3
2025-03-31T2200,1226A,120.3417,30.3150,杭州市,下沙,,36,36,37,13,13,89,,111,107,32,29,7,7,0.3,0.3
2025-03-31T2200,1227A,120.1269,30.2456,杭州市,卧龙桥,,43,43,32,22,15,96,,114,113,20,16,8,7,0.6,0.7
2025-03-31T2200,1228A,120.1903,30.2692,杭州市,浙江农大,,43,43,35,24,15,87,,108,106,23,18,3,4,0.4,0.5
2025-03-31T2200,1230A,120.1197,30.3119,杭州市,和睦小学,,38,38,33,18,17,98,,115,114,22,18,8,8,0.4,0.4
2025-03-31T2200,1231A,120.3019,30.4183,杭州市,临平镇,,39,39,36,18,13,91,,120,115,28,27,6,6,0.4,0.4
2025-03-31T2200,1232A,120.2753,30.1839,杭州市,城厢镇,颗粒物(PM10),52,53,42,21,18,96,,115,111,26,29,10,8,0.3,0.3
2025-03-31T2200,1233A,120.0883,30.1808,杭州市,云栖,,43,43,32,22,15,97,,117,114,22,20,9,8,0.4,0.5
2025-03-31T2200,3557A,119.9464,30.0494,杭州市,镇二中,,44,44,34,22,17,91,,100,100,26,29,7,6,0.5,0.5
2025-03-31T2200,3558A,119.7183,30.2367,杭州市,市府大楼,,44,44,39,19,19,95,,104,103,21,22,7,8,0.6,0.7
2025-03-31T2200,3656A,120.1556,30.2864,杭州市,消防大队,,44,44,36,22,16,104,,120,119,28,26,3,4,0.4,0.3
2025-03-31T2200,1270A,117.1959,31.7848,合肥市,明珠广场,,39,39,55,17,29,77,,108,102,36,23,4,6,0.3,0.4
2025-03-31T2200,1271A,117.3072,31.8764,合肥市,三里街,,46,46,61,22,31,68,,98,91,42,28,7,7,0.6,0.6
2025-03-31T2200,1272A,117.2588,31.8707,合肥市,琥珀山庄,,39,39,58,21,35,87,,110,106,34,25,3,4,0.4,0.5
2025-03-31T2200,1273A,117.1604,31.9052,合肥市,董铺水库,,44,44,65,9,25,105,,118,116,21,21,3,4,0.3,0.4
2025-03-31T2200,1274A,117.25,31.8571,合肥市,长江中路,,48,48,62,16,32,87,,107,103,29,22,8,10,0.5,0.5
2025-03-31T2200,1275A,117.266,31.9436,合肥市,庐阳区,,46,46,65,17,32,84,,105,101,31,30,5,5,0.3,0.5
2025-03-31T2200,1276A,117.3453,31.8616,合肥市,瑶海区,颗粒物(PM10),56,61,65,22,30,72,,99,92,40,32,8,7,0.5,0.5
2025-03-31T2200,1277A,117.3027,31.7964,合肥市,包河区,,39,39,58,19,28,96,,110,108,18,21,6,6,0.6,0.6
2025-03-31T2200,1278A,117.2776,31.7385,合肥市,滨湖新区,,36,36,56,22,30,99,,108,108,19,19,4,3,0.6,0.6
2025-03-31T2200,1279A,117.1318,31.8403,合肥市,高新区,,44,44,61,18,28,90,,106,102,28,25,2,3,0.2,0.3
2025-03-31T2200,3464A,117.3803,31.9147,合肥市,高教基地,,41,41,56,18,30,79,,110,102,30,26,5,5,0.4,0.4
2025-03-31T2200,3614A,79.924,37.0877,和田地区,地区环保局,颗粒物(PM10),500,996,1486,286,397,37,,58,57,26,19,2,2,0.3,0.3
2025-03-31T2200,3615A,79.9131,37.113,和田地区,市环保局,颗粒物(PM10),500,997,1430,267,334,53,,66,66,16,19,1,1,0.3,0.3
2025-03-31T2200,2516A,108.2011,24.715,河池市,东仁乐园,,35,29,23,24,12,77,,89,87,10,7,14,7,0.7,0.7
2025-03-31T2200,2517A,108.0497,24.6947,河池市,市环保站,,38,,23,26,15,80,,90,89,6,4,12,6,0.5,0.4
2025-03-31T2200,2518A,108.0983,24.6989,河池市,市疾控中心,,38,26,19,26,14,78,,90,89,7,3,16,7,0.5,0.4
2025-03-31T2200,1696A,114.6778,23.7569,河源市,源西,,13,6,4,3,4,40,,39,39,12,10,4,4,0.6,0.6
2025-03-31T2200,1697A,114.6944,23.7586,河源市,东埔,,13,8,7,3,5,39,,37,37,15,13,3,4,0.5,0.5
2025-03-31T2200,1698A,114.6892,23.7233,河源市,老城,,,9,5,,4,40,,38,38,13,12,4,3,0.5,0.5
2025-03-31T2200,1718A,115.4208,35.2464,菏泽市,气象局,颗粒物(PM10),77,104,119,45,45,95,,118,110,15,16,5,7,0.4,0.4
2025-03-31T2200,3374A,115.5564,35.0891,菏泽市,定陶老年大学,颗粒物(PM10),68,85,105,36,38,94,,110,107,21,19,10,6,0.6,0.5
2025-03-31T2200,4184A,115.4797,35.24401,菏泽市,永昌路1号,颗粒物(PM10),72,94,115,44,47,101,,111,110,16,16,5,7,0.2,0.3
2025-03-31T2200,4193A,115.4715,35.2800,菏泽市,长城路999号,颗粒物(PM10),70,89,111,29,37,105,,116,114,17,17,7,10,0.5,0.6
2025-03-31T2200,2514A,111.5264,24.4172,贺州市,环保小区,,42,40,24,29,13,48,,52,44,15,13,5,5,0.6,0.4
2025-03-31T2200,2515A,111.5608,24.4078,贺州市,政协大楼,,43,30,30,30,14,23,,44,35,21,13,6,6,0.5,0.4
2025-03-31T2200,3534A,111.4744,24.4553,贺州市,西湾,,32,31,20,22,14,51,,49,47,14,13,6,6,0.5,0.5
2025-03-31T2200,2385A,114.17,35.9019,鹤壁市,市监测站,颗粒物(PM10),68,86,88,36,37,99,,114,111,15,20,7,8,0.7,0.8
2025-03-31T2200,2386A,114.2956,35.7511,鹤壁市,市交警支队,颗粒物(PM10),73,96,76,32,35,77,,109,104,31,24,3,9,0.4,0.8
2025-03-31T2200,2387A,114.2878,35.7306,鹤壁市,迎宾馆,颗粒物(PM10),73,96,101,38,33,78,,111,106,23,22,2,6,0.5,0.5
2025-03-31T2200,3474A,114.2617,35.6822,鹤壁市,大新区,颗粒物(PM10),71,91,92,43,43,51,,104,94,42,29,6,8,0.4,0.6
2025-03-31T2200,3596A,114.1572,35.9603,鹤壁市,南山宾馆,细颗粒物(PM2.5),69,86,101,50,45,96,,115,111,20,26,4,6,0.5,0.5
2025-03-31T2200,2244A,130.2537,47.3416,鹤岗市,哈啤分公司,细颗粒物(PM2.5),59,50,37,42,25,60,,77,71,11,10,14,15,0.7,0.5
2025-03-31T2200,2245A,130.2684,47.3086,鹤岗市,斯达机电,细颗粒物(PM2.5),64,66,44,46,28,64,,77,72,18,14,18,15,0.9,0.3
2025-03-31T2200,2246A,130.3114,47.3388,鹤岗市,东山纸板厂,颗粒物(PM10),83,116,60,53,32,39,,83,69,31,17,15,16,1.9,0.5
2025-03-31T2200,2247A,130.1097,47.3382,鹤岗市,五号水库,,,,,,,,,,,,,,,,
2025-03-31T2200,2263A,127.4833,50.2524,黑河市,交通局,,31,31,31,20,17,62,,79,72,9,10,7,7,0.5,0.5
2025-03-31T2200,2264A,127.5144,50.2341,黑河市,环保局,,29,,18,20,18,69,,85,78,6,8,5,5,0.3,0.3
2025-03-31T2200,2265A,127.5291,50.2472,黑河市,大黑河岛,,23,21,21,14,10,73,,85,84,5,6,1,3,0.3,0.3
2025-03-31T2200,1074A,115.6838,37.7541,衡水市,电机北厂,颗粒物(PM10),83,115,87,55,42,107,,122,121,18,18,6,8,0.4,0.4
2025-03-31T2200,1075A,115.6303,37.7316,衡水市,市监测站,颗粒物(PM10),69,88,79,36,30,103,,117,116,18,20,10,10,0.4,0.4
2025-03-31T2200,3188A,115.6683,37.7217,衡水市,市城管局,颗粒物(PM10),78,106,81,49,35,100,,115,113,21,20,12,11,0.4,0.4
2025-03-31T2200,3459A,115.5989,37.5491,衡水市,地表水厂,颗粒物(PM10),75,100,88,44,38,97,,117,114,22,27,9,10,0.3,0.4
2025-03-31T2200,2456A,112.5003,26.9167,衡阳市,原169医院,颗粒物(PM10),54,58,40,26,17,39,,61,55,17,10,8,7,0.6,0.5
2025-03-31T2200,2457A,112.6194,26.9258,衡阳市,衡阳化工总厂,颗粒物(PM10),66,82,51,41,32,33,,70,57,32,17,5,5,0.8,0.7
2025-03-31T2200,2458A,112.6211,26.8956,衡阳市,珠晖区环保局,颗粒物(PM10),57,63,47,35,27,60,,74,70,19,17,8,8,4.1,0.8
2025-03-31T2200,2459A,112.6197,26.8733,衡阳市,市委党校,细颗粒物(PM2.5),68,71,47,49,30,17,,75,59,47,18,8,9,0.8,0.7
2025-03-31T2200,2460A,112.6006,26.8919,衡阳市,市监测站,颗粒物(PM10),67,83,54,45,33,31,,69,58,39,19,7,8,1.4,0.7
2025-03-31T2200,2461A,112.5664,26.9056,衡阳市,真空机电公司,颗粒物(PM10),63,76,52,34,25,49,,72,67,27,17,6,5,0.6,0.5
2025-03-31T2200,3399A,112.6703,26.882,衡阳市,师范学院,颗粒物(PM10),62,74,50,41,30,34,,76,66,29,16,8,10,0.7,0.6
2025-03-31T2200,2608A,103.3772,23.3993,红河哈尼族彝族自治州,污水处理厂,细颗粒物(PM2.5),63,46,34,45,28,45,,62,61,8,10,8,10,0.5,0.5
2025-03-31T2200,2609A,103.3861,23.35,红河哈尼族彝族自治州,监测站,,50,43,33,35,23,48,,61,61,8,9,12,10,0.5,0.5
2025-03-31T2200,3038A,103.3758,23.368,红河哈尼族彝族自治州,州图书馆,,45,,18,31,22,46,,61,60,10,10,6,6,0.4,0.4
2025-03-31T2200,1090A,111.6507,40.7517,呼和浩特市,呼市一监,,29,14,53,3,26,90,,100,98,5,22,9,12,0.4,0.7
2025-03-31T2200,1091A,111.6572,40.8033,呼和浩特市,小召,,24,19,50,7,23,74,,96,91,22,30,4,6,0.4,0.6
2025-03-31T2200,1094A,111.7516,40.8369,呼和浩特市,如意水处理厂,,25,17,44,6,21,78,,97,92,14,37,5,9,0.4,0.6
2025-03-31T2200,1095A,111.7276,40.8062,呼和浩特市,二十九中,,26,26,51,8,26,83,,99,97,10,27,3,5,0.8,1
2025-03-31T2200,1096A,111.5512,40.7866,呼和浩特市,工大金川校区,,29,25,40,3,19,91,,102,100,9,27,5,8,0.5,0.7
2025-03-31T2200,1097A,111.717,40.7612,呼和浩特市,化肥厂生活区,,28,17,57,3,27,89,,101,97,12,28,6,9,0.3,0.6
2025-03-31T2200,3698A,111.5968,40.8178,呼和浩特市,红旗小学,,29,19,38,3,16,90,,100,97,10,33,3,6,0.4,0.6
2025-03-31T2200,3699A,111.6518,40.8389,呼和浩特市,海东办,,24,19,39,6,21,75,,92,90,8,26,5,7,0.3,0.5
2025-03-31T2200,2192A,119.7594,49.2261,呼伦贝尔市,区环保局,,42,,31,29,24,80,,90,88,13,14,6,6,0.3,0.4
2025-03-31T2200,3061A,119.7512,49.1577,呼伦贝尔市,国华电力东,,30,28,27,21,14,71,,93,87,6,5,4,4,0.4,0.3
2025-03-31T2200,1250A,120.0751,30.8669,湖州市,城西水厂,,42,42,36,18,14,107,,112,111,18,22,8,7,0.2,0.3
2025-03-31T2200,2873A,120.0830,30.8929,湖州市,仁皇山新区,,46,46,35,21,15,103,,112,111,20,21,5,5,0.5,0.4
2025-03-31T2200,2907A,120.1844,30.8596,湖州市,吴兴区站,,49,49,35,22,15,89,,108,105,22,19,7,6,0.3,0.2
2025-03-31T2200,3562A,120.4148,30.8538,湖州市,南浔区站,,47,47,36,19,15,95,,112,108,22,19,6,4,0.4,0.3
2025-03-31T2200,1607A,120.9049,40.7211,葫芦岛市,龙港区,颗粒物(PM10),85,120,79,55,47,96,,95,94,21,30,10,13,0.8,0.9
2025-03-31T2200,1608A,120.8392,40.7514,葫芦岛市,化工街,颗粒物(PM10),96,141,88,63,43,76,,93,86,39,44,13,15,0.7,0.7
2025-03-31T2200,1609A,120.8341,40.7073,葫芦岛市,新区,颗粒物(PM10),84,118,73,57,45,94,,103,101,32,38,10,15,0.7,0.7
2025-03-31T2200,1610A,120.8695,40.7677,葫芦岛市,东城区,细颗粒物(PM2.5),100,123,78,75,59,62,,91,74,55,49,10,12,1.0,0.9
2025-03-31T2200,2482A,109.5981,27.5721,怀化市,林科所,,39,39,31,23,16,65,,82,78,18,10,4,7,0.2,0.2
2025-03-31T2200,2483A,109.9453,27.5444,怀化市,河西地税局,,50,50,39,30,21,30,,78,69,25,16,9,10,0.4,0.3
2025-03-31T2200,2484A,109.9781,27.5342,怀化市,市四医院,颗粒物(PM10),52,54,41,26,22,49,,85,80,22,11,5,9,0.2,0.1
2025-03-31T2200,2485A,109.9972,27.5578,怀化市,监测楼,颗粒物(PM10),54,57,41,31,21,48,,90,83,19,12,9,13,0.4,0.4
2025-03-31T2200,2486A,110.0394,27.583,怀化市,市委党校,颗粒物(PM10),55,60,40,32,22,29,,90,78,40,14,6,8,0.5,0.4
2025-03-31T2200,1210A,119.036,33.5981,淮安市,钵池山,颗粒物(PM10),51,51,52,28,33,80,,116,109,26,19,13,11,0.6,0.7
2025-03-31T2200,1211A,119.007,33.575,淮安市,北京南路,,46,46,50,25,32,85,,117,112,28,26,8,10,0.5,0.6
2025-03-31T2200,1212A,118.989,33.6067,淮安市,市监测站,,41,41,51,24,35,87,,114,108,26,25,10,12,0.3,0.6
2025-03-31T2200,1213A,119.135,33.5039,淮安市,楚州区监测站,颗粒物(PM10),51,51,55,26,32,21,,106,89,79,29,8,10,0.6,0.8
2025-03-31T2200,3426A,118.8755,33.2894,淮安市,新华书店,,49,49,56,23,34,68,,111,102,42,25,9,9,0.8,0.6
2025-03-31T2200,4206A,119.0288,33.6319,淮安市,承德北路606号,颗粒物(PM10),51,51,61,27,32,80,,112,107,30,24,8,10,0.4,0.6
2025-03-31T2200,2282A,116.8004,33.975,淮北市,监测站,颗粒物(PM10),63,75,95,41,47,105,,121,119,23,24,9,9,0.6,0.7
2025-03-31T2200,2283A,116.8091,33.9007,淮北市,烈山区政府,细颗粒物(PM2.5),64,69,92,46,49,110,,128,126,25,31,8,7,0.7,0.7
2025-03-31T2200,3330A,116.8873,33.9836,淮北市,杜集区检察院,颗粒物(PM10),69,88,94,39,48,97,,123,119,31,26,10,9,0.8,0.9
2025-03-31T2200,4017A,116.7923,33.9535,淮北市,市博物馆,颗粒物(PM10),62,73,95,39,48,104,,122,120,23,25,10,10,0.7,0.8
2025-03-31T2200,2277A,116.8305,32.7727,淮南市,潘集区政府,颗粒物(PM10),63,76,91,40,51,86,,119,107,27,24,8,7,0.4,0.5
2025-03-31T2200,2279A,116.8569,32.5951,淮南市,谢家集区政府,颗粒物(PM10),57,64,84,33,43,77,,122,108,30,28,6,7,0.2,0.3
2025-03-31T2200,2280A,116.8281,32.633,淮南市,八公山区政府,颗粒物(PM10),55,60,80,28,39,81,,121,107,20,17,8,7,0.2,0.3
2025-03-31T2200,2281A,116.6325,32.6201,淮南市,焦岗湖风景区管理处,颗粒物(PM10),53,55,76,25,36,74,,82,80,14,15,6,6,0.5,0.5
2025-03-31T2200,2894A,117.0566,32.6531,淮南市,经济技术开发区消防队,,42,42,71,27,41,104,,124,115,16,16,6,6,0.3,0.4
2025-03-31T2200,3329A,117.0108,32.5893,淮南市,山南新区,颗粒物(PM10),58,65,76,26,36,87,,122,115,34,28,8,8,0.4,0.5
2025-03-31T2200,4209A,117.0031,32.6445,淮南市,国庆中路369号,,48,48,72,33,42,98,,122,118,19,18,7,7,0.4,0.4
2025-03-31T2200,2446A,114.9028,30.4742,黄冈市,职工中心,细颗粒物(PM2.5),78,97,87,57,48,77,,119,112,35,29,10,8,1.1,0.7
2025-03-31T2200,2929A,114.8858,30.4519,黄冈市,红卫路,颗粒物(PM10),76,102,96,52,44,77,,114,108,28,22,8,8,1.1,0.9
2025-03-31T2200,3398A,114.9136,30.4445,黄冈市,市林业局,,,,91,,43,,,72,,,25,,10,,0.9
2025-03-31T2200,2672A,102.0199,35.5102,黄南藏族自治州,同仁县隆务镇,颗粒物(PM10),98,145,135,47,42,107,,107,107,8,9,19,20,0.4,0.4
2025-03-31T2200,2295A,118.2903,29.6963,黄山市,延安路89号,,28,19,31,19,22,47,,94,82,16,7,5,4,0.3,0.3
2025-03-31T2200,2297A,118.1371,30.2756,黄山市,黄山区政府5号楼,,34,34,47,22,26,48,,94,80,5,5,7,7,0.2,0.3
2025-03-31T2200,4210A,118.3354,29.7203,黄山市,滨江东路7-2号,,34,34,44,18,20,56,,92,81,7,6,5,4,0.3,0.3
2025-03-31T2200,2423A,115.0601,30.2313,黄石市,沈家营,颗粒物(PM10),81,111,88,58,40,62,,115,98,24,16,8,8,0.9,0.6
2025-03-31T2200,2426A,114.8988,30.2019,黄石市,铁山,细颗粒物(PM2.5),77,102,92,56,51,45,,100,81,38,37,12,9,1.0,1.2
2025-03-31T2200,2427A,115.0307,30.2092,黄石市,团城山,颗粒物(PM10),79,107,86,54,39,69,,101,91,31,24,8,9,1.0,0.7
2025-03-31T2200,3149A,115.0235,30.1578,黄石市,笔架山北路,细颗粒物(PM2.5),75,93,74,55,43,75,,100,88,28,28,10,10,1.0,0.8
2025-03-31T2200,4185A,115.0780,30.21118,黄石市,磁湖东路29号,颗粒物(PM10),82,114,96,59,46,68,,118,101,32,17,8,10,1.1,0.7
2025-03-31T2200,1392A,114.4183,23.0528,惠州市,河南岸金山湖子站,,12,9,7,6,4,36,,33,33,16,15,10,9,0.7,0.7
2025-03-31T2200,1393A,114.4053,23.0822,惠州市,下埔横江三路子站,,12,8,7,3,4,36,,33,32,14,13,8,8,0.5,0.5
2025-03-31T2200,1394A,114.4103,23.1142,惠州市,江北云山西路子站,,11,7,6,3,3,34,,31,30,17,16,10,8,0.4,0.4
2025-03-31T2200,1395A,114.4645,22.7833,惠州市,惠阳区承修路船湖子站,,8,8,8,3,5,25,,27,25,15,13,8,8,0.5,0.5
2025-03-31T2200,1396A,114.5317,22.7422,惠州市,大亚湾管委会子站,,9,7,6,3,3,28,,27,26,12,12,6,6,0.5,0.7
2025-03-31T2200,3314A,114.4338,22.8134,惠州市,惠阳秋长,,11,7,7,3,3,33,,32,30,8,8,3,3,0.6,0.6
2025-03-31T2200,3452A,114.6517,22.775,惠州市,大亚湾霞涌,,9,,4,3,2,28,,26,26,11,12,6,5,0.4,0.3
2025-03-31T2200,2240A,130.9762,45.3001,鸡西市,环保局,,39,39,50,23,30,90,,100,94,8,18,6,7,0.6,0.7
2025-03-31T2200,2243A,130.9429,45.3039,鸡西市,第一中学,,30,24,34,21,22,92,,100,98,6,6,6,6,0.5,0.5
2025-03-31T2200,3707A,131.0207,45.3073,鸡西市,欧美日汽修厂,,35,34,78,24,38,92,,104,100,9,17,9,12,0.5,0.6
2025-03-31T2200,3709A,130.9967,45.3106,鸡西市,市政设施管理处,,47,47,68,22,32,76,,94,88,16,20,6,7,0.6,0.6
2025-03-31T2200,2367A,114.9754,27.0803,吉安市,红声器材厂,颗粒物(PM10),53,55,44,31,21,38,,69,63,24,16,11,13,0.6,0.5
2025-03-31T2200,2368A,114.9658,27.0999,吉安市,市森林工业局,,43,43,38,30,23,44,,71,66,26,15,10,11,0.5,0.5
2025-03-31T2200,2369A,114.99,27.1312,吉安市,市环境监测站,,44,44,40,30,24,51,,77,72,16,11,17,19,0.4,0.4
2025-03-31T2200,2370A,115.0093,27.0968,吉安市,青原区法院,,46,44,42,32,26,54,,83,80,20,18,11,12,0.5,0.4
2025-03-31T2200,1772A,126.54,43.8622,吉林市,哈达湾,细颗粒物(PM2.5),63,62,61,45,42,92,,3,,18,15,8,9,0.8,0.7
2025-03-31T2200,1773A,126.5844,43.8358,吉林市,东局子,颗粒物(PM10),77,104,53,48,41,96,,106,105,11,13,7,8,0.8,0.6
2025-03-31T2200,1774A,126.5052,43.8245,吉林市,电力学院,细颗粒物(PM2.5),110,110,64,83,48,59,,108,96,41,17,7,8,1.0,0.6
2025-03-31T2200,1775A,126.6133,43.8972,吉林市,江北,细颗粒物(PM2.5),132,132,71,100,49,52,,99,82,37,20,4,9,1.0,0.4
2025-03-31T2200,1776A,126.555,43.8306,吉林市,江南公园,细颗粒物(PM2.5),67,64,61,48,47,91,,106,103,13,13,7,8,0.4,0.3
2025-03-31T2200,1778A,126.7061,43.7133,吉林市,丰满,细颗粒物(PM2.5),62,52,42,44,35,85,,108,101,9,9,6,7,0.7,0.4
2025-03-31T2200,2868A,126.4739,43.953,吉林市,九站,细颗粒物(PM2.5),119,117,84,90,54,52,,112,95,42,17,23,12,1.1,0.8
2025-03-31T2200,1299A,116.9862,36.6114,济南市,科干所,颗粒物(PM10),71,92,90,39,33,116,,130,129,14,13,6,7,0.5,0.5
2025-03-31T2200,1300A,116.9376,36.665,济南市,农科所,颗粒物(PM10),75,100,103,39,31,107,,127,125,20,19,8,8,0.4,0.4
2025-03-31T2200,1301A,117.1265,36.6734,济南市,开发区,颗粒物(PM10),68,85,83,42,35,117,,132,130,15,13,7,8,0.5,0.5
2025-03-31T2200,1303A,117.0624,36.6868,济南市,省种子仓库,颗粒物(PM10),76,102,98,41,33,117,,132,130,12,10,5,5,0.7,0.7
2025-03-31T2200,1304A,116.9489,36.6447,济南市,机床二厂,颗粒物(PM10),81,112,115,39,41,89,,119,113,19,17,8,9,0.4,0.4
2025-03-31T2200,1305A,117.0495,36.663,济南市,市监测站,颗粒物(PM10),72,93,94,39,32,112,,125,124,15,14,8,8,0.4,0.4
2025-03-31T2200,1306A,116.7675,36.5484,济南市,长清党校,颗粒物(PM10),77,103,103,37,36,110,,133,129,26,20,8,7,0.7,0.7
2025-03-31T2200,1616A,117.6795,36.229,济南市,技术学院,颗粒物(PM10),62,73,84,31,37,113,,131,128,20,22,9,10,0.6,0.6
2025-03-31T2200,1961A,117.532,36.6868,济南市,东山小学,颗粒物(PM10),73,95,92,32,31,119,,134,132,13,13,7,8,0.7,0.7
2025-03-31T2200,3059A,117.7161,36.2049,济南市,泰兴公司,颗粒物(PM10),68,85,87,36,47,113,,131,127,20,33,9,9,0.5,0.6
2025-03-31T2200,3064A,117.6867,36.2171,济南市,莱芜战役纪念馆,颗粒物(PM10),62,73,89,34,36,116,,131,130,22,27,5,6,0.5,0.5
2025-03-31T2200,3494A,117.1673,36.9782,济南市,济阳区政府,颗粒物(PM10),79,107,111,44,36,104,,123,120,17,20,10,10,0.4,0.4
2025-03-31T2200,3495A,117.1171,36.63,济南市,锦屏中学,颗粒物(PM10),68,85,81,24,27,111,,124,123,14,13,9,9,0.3,0.3
2025-03-31T2200,3682A,116.9814,36.6819,济南市,济南四建,细颗粒物(PM2.5),108,95,101,81,43,109,,127,124,16,13,5,6,0.3,0.3
2025-03-31T2200,1653A,116.6251,35.4302,济宁市,火炬城,颗粒物(PM10),68,86,82,46,47,96,,126,119,18,14,11,10,0.4,0.4
2025-03-31T2200,1655A,116.5491,35.4042,济宁市,电化厂,细颗粒物(PM2.5),83,109,112,61,52,92,,122,112,26,22,8,8,0.6,0.5
2025-03-31T2200,3500A,116.5814,35.3707,济宁市,北湖一中,颗粒物(PM10),66,81,84,29,38,102,,118,114,19,19,20,14,0.4,0.3
2025-03-31T2200,3501A,116.8249,35.5593,济宁市,服务中心,颗粒物(PM10),77,103,115,40,43,100,,127,116,22,26,6,8,0.6,0.8
2025-03-31T2200,3678A,116.5907,35.4054,济宁市,市第七中学,颗粒物(PM10),67,83,87,39,37,104,,123,118,15,13,14,8,0.4,0.3
2025-03-31T2200,2255A,130.2751,46.8028,佳木斯市,佳纺,细颗粒物(PM2.5),80,93,34,59,21,30,,96,70,41,10,7,4,0.7,0.4
2025-03-31T2200,2256A,130.3995,46.8307,佳木斯市,发电厂,细颗粒物(PM2.5),65,63,33,47,22,11,,98,73,76,16,5,3,1.1,0.6
2025-03-31T2200,2257A,130.3258,46.7975,佳木斯市,环保局,颗粒物(PM10),66,82,36,43,22,59,,101,76,41,15,4,3,0.6,0.4
2025-03-31T2200,2258A,130.3648,46.8032,佳木斯市,十一中,细颗粒物(PM2.5),70,85,39,51,26,21,,93,66,76,20,8,5,1.1,0.5
2025-03-31T2200,2259A,130.3794,46.7588,佳木斯市,四丰,,41,41,27,22,15,72,,92,87,13,3,1,1,1.7,0.8
2025-03-31T2200,1252A,120.7436,30.778,嘉兴市,清河小学,,,,35,,11,,,111,111,16,19,8,8,1.0,0.4
2025-03-31T2200,1253A,120.726,30.7478,嘉兴市,嘉兴学院,,40,40,33,18,12,97,,108,107,21,19,8,8,0.8,0.7
2025-03-31T2200,2872A,120.7846,30.7525,嘉兴市,南湖区残联,,38,38,35,18,14,98,,117,114,21,21,8,8,0.7,0.7
2025-03-31T2200,3407A,120.6916,30.7739,嘉兴市,秀洲住建,颗粒物(PM10),51,51,36,18,14,104,,117,115,20,18,6,6,0.5,0.5
2025-03-31T2200,1945A,98.2908,39.7711,嘉峪关市,气象局,颗粒物(PM10),456,556,433,134,101,69,,90,87,15,9,5,10,0.3,0.4
2025-03-31T2200,2884A,98.2672,39.7978,嘉峪关市,酒钢宾馆,颗粒物(PM10),461,561,457,134,99,66,,89,87,18,10,3,8,0.2,0.2
2025-03-31T2200,3248A,98.2643,39.7724,嘉峪关市,雄关区,颗粒物(PM10),382,485,361,102,83,62,,90,86,23,14,4,4,0.4,0.4
2025-03-31T2200,1383A,113.1064,22.6058,江门市,北街,,22,22,17,13,10,17,,28,18,31,26,2,2,0.6,0.6
2025-03-31T2200,1384A,113.0731,22.5835,江门市,西区,,24,24,18,15,9,13,,23,16,30,25,6,6,0.6,0.6
2025-03-31T2200,1385A,113.0219,22.5311,江门市,圭峰西,,18,13,13,12,8,21,,26,20,26,24,4,4,0.6,0.6
2025-03-31T2200,1386A,113.0828,22.5947,江门市,东湖,,24,24,17,15,11,17,,27,18,26,24,7,7,0.6,0.6
2025-03-31T2200,3311A,113.1075,22.5647,江门市,江海富民,,26,23,19,18,9,18,,27,18,29,25,6,6,0.6,0.6
2025-03-31T2200,3449A,113.05,22.4667,江门市,新会银湖,,22,19,15,15,12,14,,20,15,30,26,3,2,0.8,0.8
2025-03-31T2200,1830A,113.1992,35.2590,焦作市,影视城,,,,41,,32,,,,,,10,,4,,0.7
2025-03-31T2200,3169A,113.2725,35.2067,焦作市,太极体育中心,颗粒物(PM10),82,114,82,42,41,50,,111,99,49,25,8,9,0.7,0.7
2025-03-31T2200,3335A,113.3137,35.2641,焦作市,马村街道办,颗粒物(PM10),75,100,86,42,42,56,,108,96,50,29,9,10,0.7,0.6
2025-03-31T2200,3336A,113.2465,35.2373,焦作市,焦作技师学院,颗粒物(PM10),79,107,81,39,31,55,,115,102,42,22,10,8,1.0,0.5
2025-03-31T2200,3477A,113.1656,35.2539,焦作市,中站许衡医院,颗粒物(PM10),70,89,72,41,34,79,,110,100,37,26,11,11,0.6,0.7
2025-03-31T2200,3981A,113.2449,35.1803,焦作市,原李万街道办,颗粒物(PM10),92,133,87,34,29,65,,114,104,39,30,11,10,0.4,0.5
2025-03-31T2200,4264A,113.2340,35.2190,焦作市,新安路1731号,颗粒物(PM10),82,113,84,46,40,47,,110,95,54,27,14,10,0.6,0.6
2025-03-31T2200,1708A,116.3701,23.5345,揭阳市,新兴,,12,,9,8,8,9,,16,12,21,18,6,6,0.6,0.6
2025-03-31T2200,1709A,116.3264,23.5443,揭阳市,西马,,8,6,8,3,3,15,,18,15,15,14,7,6,0.6,0.6
2025-03-31T2200,1710A,116.3611,23.5626,揭阳市,东兴,,26,,10,18,6,6,,13,9,25,19,8,6,0.8,0.7
2025-03-31T2200,1711A,116.4151,23.5294,揭阳市,渔湖,,12,8,11,6,6,7,,14,8,24,21,4,4,0.7,0.7
2025-03-31T2200,3320A,116.403,23.5699,揭阳市,曲溪,,20,20,12,11,8,7,,12,9,32,29,4,4,0.6,0.6
2025-03-31T2200,1944A,102.1692,38.5167,金昌市,天庆家园,颗粒物(PM10),122,193,151,80,46,100,,102,100,2,6,7,8,0.6,0.7
2025-03-31T2200,4022A,102.1647,38.5371,金昌市,金川区人防中心,颗粒物(PM10),150,249,197,84,58,97,,96,96,3,17,6,7,0.2,0.5
2025-03-31T2200,4239A,102.1930,38.5319,金昌市,长春路96号,,,,185,,44,,,85,,,6,,12,,0.7
2025-03-31T2200,1262A,119.647,29.077,金华市,十五中,,39,39,44,16,26,43,,66,62,27,27,5,6,0.5,0.5
2025-03-31T2200,1263A,119.686,29.1029,金华市,监测站,,39,39,48,21,31,46,,68,63,24,26,4,4,0.5,0.5
2025-03-31T2200,3659A,119.656,29.1131,金华市,气象局,,40,40,48,18,29,48,,67,63,20,30,5,5,0.3,0.3
2025-03-31T2200,1767A,121.1115,41.0879,锦州市,南山,细颗粒物(PM2.5),137,122,66,104,65,46,,97,83,59,38,12,13,1.0,0.8
2025-03-31T2200,1768A,121.0604,40.8428,锦州市,开发区,颗粒物(PM10),140,229,90,80,55,26,,95,80,90,40,39,30,0.9,1
2025-03-31T2200,1769A,121.1836,41.1119,锦州市,百股街道,细颗粒物(PM2.5),100,124,76,75,44,48,,102,83,59,36,12,13,0.9,0.8
2025-03-31T2200,1770A,121.1178,41.1222,锦州市,天安街道,细颗粒物(PM2.5),150,128,67,115,57,44,,90,75,60,37,12,15,1.0,0.9
2025-03-31T2200,1771A,121.1303,41.1386,锦州市,北湖公园,细颗粒物(PM2.5),137,128,71,104,51,53,,97,82,48,35,10,14,1.0,0.8
2025-03-31T2200,2160A,112.85,35.5051,晋城市,自来水公司,二氧化氮,92,85,67,31,23,92,,122,117,183,42,10,10,0.7,0.7
2025-03-31T2200,2161A,112.8318,35.4936,晋城市,白云商贸,颗粒物(PM10),54,58,67,22,18,114,,127,126,28,29,10,7,0.6,0.7
2025-03-31T2200,2162A,112.8508,35.4887,晋城市,市环保局,颗粒物(PM10),68,86,68,29,22,112,,126,125,27,32,8,6,0.6,0.6
2025-03-31T2200,2163A,112.8676,35.4897,晋城市,技术学院,颗粒物(PM10),62,73,65,22,20,106,,119,118,27,30,10,8,0.6,0.6
2025-03-31T2200,2165A,112.8453,35.546,晋城市,白马寺,,,,61,,32,,,94,,,15,,9,,0.7
2025-03-31T2200,3620A,112.8271,35.4828,晋城市,泽州一中,颗粒物(PM10),53,56,58,27,23,116,,132,131,21,23,14,11,0.6,0.7
2025-03-31T2200,2173A,112.7249,37.7067,晋中市,南都小区,颗粒物(PM10),60,70,65,24,23,37,,105,90,65,33,7,13,0.5,0.5
2025-03-31T2200,2174A,112.6991,37.6982,晋中市,榆次区政府,颗粒物(PM10),74,97,67,16,20,48,,108,95,56,31,6,13,0.5,0.6
2025-03-31T2200,2865A,112.7195,37.6828,晋中市,榆次三中,颗粒物(PM10),59,68,66,19,18,63,,108,98,42,30,4,11,0.3,0.4
2025-03-31T2200,4200A,112.7478,37.6954,晋中市,迎宾街26号,颗粒物(PM10),62,73,76,24,21,64,,111,100,35,24,4,11,0.3,0.4
2025-03-31T2200,2439A,112.2014,31.0481,荆门市,竹园小学,颗粒物(PM10),79,107,100,43,37,82,,111,103,22,15,5,5,0.1,0.1
2025-03-31T2200,2440A,112.1969,30.9891,荆门市,掇刀,颗粒物(PM10),75,100,96,38,35,82,,98,92,20,14,7,6,0.4,0.3
2025-03-31T2200,2441A,112.2213,31.0386,荆门市,石化一小,颗粒物(PM10),72,94,95,42,38,80,,105,99,23,16,11,9,0.1,0.1
2025-03-31T2200,3012A,112.1849,31.0362,荆门市,西山林语,颗粒物(PM10),68,86,85,41,35,81,,108,99,19,13,6,5,0.2,0.2
2025-03-31T2200,3547A,112.1632,31.0138,荆门市,龙泉中学南校,颗粒物(PM10),77,104,97,52,40,71,,100,90,26,19,6,6,0.3,0.4
2025-03-31T2200,1844A,112.2494,30.3197,荆州市,市图书馆,颗粒物(PM10),61,72,76,38,39,61,,104,95,38,20,4,4,0.5,0.4
2025-03-31T2200,1845A,112.2008,30.3544,荆州市,市委党校,颗粒物(PM10),62,73,82,36,39,43,,102,89,56,21,5,6,0.4,0.3
2025-03-31T2200,3194A,112.2747,30.3122,荆州市,管委会,颗粒物(PM10),70,90,79,46,38,65,,111,101,36,16,7,7,0.5,0.4
2025-03-31T2200,4268A,112.1722,30.3366,荆州市,学苑路85号,颗粒物(PM10),59,68,68,39,35,53,,107,96,39,22,7,7,0.5,0.5
2025-03-31T2200,2342A,117.3102,29.3867,景德镇市,王港中学,,,,,,,,,,,,,,,,
2025-03-31T2200,2343A,117.2117,29.2933,景德镇市,老干部活动中心,,46,46,33,23,19,37,,84,71,20,13,5,5,0.4,0.2
2025-03-31T2200,2344A,117.1894,29.2789,景德镇市,兽医站,颗粒物(PM10),54,57,41,21,17,46,,87,72,16,10,3,4,0.5,0.5
2025-03-31T2200,2345A,117.1547,29.2617,景德镇市,台达陶瓷,颗粒物(PM10),54,57,42,29,22,28,,82,64,42,20,28,20,0.7,0.5
2025-03-31T2200,2346A,117.2461,29.2956,景德镇市,陶研所,,43,37,33,30,26,41,,84,69,18,12,5,5,0.6,0.5
2025-03-31T2200,1803A,115.9872,29.6815,九江市,十里,细颗粒物(PM2.5),63,69,67,45,33,47,,102,94,44,22,3,3,0.8,0.5
2025-03-31T2200,1804A,115.9584,29.7046,九江市,茅山头,颗粒物(PM10),72,93,74,51,35,85,,100,98,21,18,16,8,0.5,0.4
2025-03-31T2200,1805A,115.9877,29.7295,九江市,西园,颗粒物(PM10),61,72,64,34,29,87,,106,104,32,22,7,7,0.6,0.7
2025-03-31T2200,1808A,115.9114,29.6038,九江市,综合工业园,颗粒物(PM10),63,75,69,39,35,34,,103,92,64,30,8,7,0.8,0.6
2025-03-31T2200,1809A,116.0721,29.7535,九江市,石化总厂,颗粒物(PM10),68,86,73,48,44,75,,96,92,32,25,6,5,0.8,0.6
2025-03-31T2200,1810A,115.9773,29.5698,九江市,庐山气象台,,33,19,62,16,34,103,,100,100,4,10,6,7,0.6,0.7
2025-03-31T2200,3190A,116.0254,29.6994,九江市,外国语学校,细颗粒物(PM2.5),64,63,64,46,31,46,,90,80,49,30,12,11,0.9,0.8
2025-03-31T2200,4253A,116.0102,29.6594,九江市,莲花大道8号,颗粒物(PM10),63,75,72,43,37,71,,96,91,18,13,7,7,0.6,0.5
2025-03-31T2200,4240A,98.4958,39.7339,酒泉市,玉门东路5号,颗粒物(PM10),483,583,461,119,87,62,,88,83,17,8,8,9,0.3,0.2
2025-03-31T2200,4241A,98.5099,39.7506,酒泉市,北大街108号,颗粒物(PM10),461,561,452,112,85,58,,79,75,19,11,9,10,0.4,0.3
2025-03-31T2200,2698A,76.0072,39.4467,喀什地区,巡警大队,颗粒物(PM10),488,588,787,171,215,73,,88,88,27,38,5,4,0.7,1.1
2025-03-31T2200,2699A,75.9755,39.4694,喀什地区,吾办,颗粒物(PM10),462,562,774,179,255,71,,88,88,29,32,3,2,0.7,1
2025-03-31T2200,4027A,75.9483,39.4689,喀什地区,老干局,颗粒物(PM10),440,540,785,141,196,80,,92,92,19,25,2,2,0.5,0.9
2025-03-31T2200,1824A,114.3389,34.7781,开封市,肿瘤医院,颗粒物(PM10),68,86,95,38,36,83,,109,105,19,19,8,8,0.5,0.5
2025-03-31T2200,1826A,114.2885,34.7965,开封市,世纪星幼儿园,颗粒物(PM10),68,86,98,43,50,93,,119,116,22,22,7,8,0.7,0.7
2025-03-31T2200,3147A,114.3438,34.8106,开封市,龙亭公园,颗粒物(PM10),87,124,101,39,38,93,,119,116,25,23,3,4,0.4,0.3
2025-03-31T2200,3210A,114.3644,34.7964,开封市,汴京公园,颗粒物(PM10),69,88,101,41,40,89,,115,110,26,25,4,5,0.5,0.5
2025-03-31T2200,3473A,114.2485,34.8306,开封市,技师学院,颗粒物(PM10),67,83,97,41,49,100,,118,117,22,23,12,13,0.6,0.6
2025-03-31T2200,3592A,114.4644,34.7556,开封市,祥符区生态环境局,细颗粒物(PM2.5),83,97,112,61,46,64,,107,97,38,28,5,6,0.8,0.7
2025-03-31T2200,1951A,84.895,45.6094,克拉玛依市,长征新村,,48,48,34,15,9,65,,103,100,36,15,8,6,0.4,0.2
2025-03-31T2200,1952A,84.8988,45.5893,克拉玛依市,南林小区,颗粒物(PM10),52,53,35,16,10,58,,104,100,28,10,3,4,0.8,0.5
2025-03-31T2200,1954A,84.905,44.3396,克拉玛依市,独山子区,颗粒物(PM10),63,75,48,26,19,94,,115,113,20,9,10,6,0.6,0.4
2025-03-31T2200,1955A,85.6979,46.098,克拉玛依市,乌尔禾区商贸楼,,31,31,24,11,9,86,,106,105,13,10,5,6,0.6,0.6
2025-03-31T2200,3612A,85.1045,45.6899,克拉玛依市,白碱滩区新站,,50,50,33,14,8,83,,100,100,13,12,8,8,0.3,0
2025-03-31T2200,2697A,76.1454,39.7142,克孜勒苏柯尔克孜自治州,市人民政府,颗粒物(PM10),500,637,1085,196,317,82,,94,94,14,11,5,7,0.6,0.5
2025-03-31T2200,3665A,76.1658,39.7157,克孜勒苏柯尔克孜自治州,克州文化中心,颗粒物(PM10),500,630,1086,196,326,88,,93,93,13,16,5,8,0.4,0.4
2025-03-31T2200,1450A,102.8204,24.8886,昆明市,呈贡新区,细颗粒物(PM2.5),70,56,54,51,46,26,,54,50,22,24,6,7,0.7,0.8
2025-03-31T2200,1451A,102.6251,24.9608,昆明市,西山森林公园,,,,,,,,,,,,,,,,
2025-03-31T2200,1452A,102.7252,25.0902,昆明市,龙泉镇,颗粒物(PM10),52,53,70,26,49,30,,59,53,20,26,6,7,0.6,0.7
2025-03-31T2200,1453A,102.7266,25.0375,昆明市,东风东路,细颗粒物(PM2.5),58,60,77,41,53,22,,56,48,30,37,6,8,0.7,0.7
2025-03-31T2200,1454A,102.6742,25.0669,昆明市,金鼎山,,50,42,73,35,53,28,,66,57,24,29,3,3,0.7,0.8
2025-03-31T2200,1455A,102.6644,25.0401,昆明市,碧鸡广场,,,58,79,42,54,,,69,67,29,34,5,6,0.7,0.8
2025-03-31T2200,3179A,102.7494,25.0119,昆明市,官渡区博物馆,,,,52,47,48,,,,,,,5,5,,
2025-03-31T2200,3375A,102.8017,24.8336,昆明市,青年创业园,颗粒物(PM10),60,69,76,39,48,24,,77,68,22,23,6,7,0.7,0.8
2025-03-31T2200,3550A,102.7997,24.9786,昆明市,昆明学院,颗粒物(PM10),59,67,75,39,46,16,,51,39,32,30,4,4,0.8,0.7
2025-03-31T2200,3551A,102.5967,24.6736,昆明市,晋宁区生态环境分局,细颗粒物(PM2.5),62,58,70,44,56,31,,130,112,22,16,7,8,0.7,0.8
2025-03-31T2200,3552A,102.6678,24.9856,昆明市,云天化总部,细颗粒物(PM2.5),65,75,81,47,51,20,,66,55,34,36,5,6,0.7,0.7
2025-03-31T2200,1456A,91.1319,29.6514,拉萨市,八廓街,,36,20,24,8,9,113,,126,119,8,9,6,6,0.5,0.6
2025-03-31T2200,1457A,91.1221,29.6747,拉萨市,市环保局,,31,27,30,9,12,97,,120,114,12,9,3,3,0.2,0.2
2025-03-31T2200,1458A,91.0874,29.6475,拉萨市,区监测站,,33,21,25,10,11,104,,120,113,13,8,6,6,0.3,0.4
2025-03-31T2200,1459A,91.1774,29.6541,拉萨市,西藏大学,,34,21,26,13,10,106,,115,109,7,9,8,8,0.4,0.4
2025-03-31T2200,1460A,90.9798,29.6588,拉萨市,区辐射站,,39,39,37,13,14,95,,120,110,21,10,7,7,0.5,0.5
2025-03-31T2200,1461A,91.0834,29.6292,拉萨市,拉萨火车站,,34,22,25,11,10,106,,114,111,6,4,4,3,0.5,0.5
2025-03-31T2200,2520A,109.2203,23.7256,来宾市,来宾技工学校,细颗粒物(PM2.5),63,45,22,45,16,53,,70,66,18,9,35,7,0.5,0.5
2025-03-31T2200,3535A,109.1781,23.7297,来宾市,兴宾区政府,,36,35,20,25,14,47,,69,64,16,7,7,7,0.6,0.6
2025-03-31T2200,4002A,109.2416,23.7461,来宾市,中南小学,,43,40,25,30,16,51,,65,61,13,6,7,8,0.6,0.6
2025-03-31T2200,1477A,104.1373,35.9454,兰州市,榆中兰大校区,,,,,,,,,,,,,,,,
2025-03-31T2200,1479A,103.831,36.0464,兰州市,铁路设计院,颗粒物(PM10),101,151,102,43,30,90,,106,102,26,39,5,11,0.5,0.7
2025-03-31T2200,3241A,103.7439,36.0842,兰州市,百合公园,颗粒物(PM10),103,155,97,41,31,93,,105,104,7,23,9,8,0.5,0.6
2025-03-31T2200,3242A,103.9611,35.998,兰州市,和平,颗粒物(PM10),100,149,125,50,42,60,,108,100,34,24,10,14,0.4,0.5
2025-03-31T2200,4236A,103.6293,36.0938,兰州市,庄浪东路808号,颗粒物(PM10),103,156,112,50,45,85,,104,102,24,30,19,15,0.4,0.5
2025-03-31T2200,4237A,103.7251,36.1043,兰州市,安宁西路88号,颗粒物(PM10),116,181,118,60,41,104,,115,114,6,24,17,10,0.3,0.4
2025-03-31T2200,4238A,103.8470,36.0676,兰州市,北滨河东路1号,颗粒物(PM10),100,150,95,48,39,64,,116,108,50,35,8,13,0.6,0.7
2025-03-31T2200,3245A,103.6633,36.533,兰州新区,新区管委会,颗粒物(PM10),109,167,95,55,38,94,,117,111,10,15,11,16,0.3,0.5
2025-03-31T2200,3246A,103.6975,36.4789,兰州新区,舟曲中学,颗粒物(PM10),135,220,117,99,49,82,,116,108,26,20,2,10,0.5,0.6
2025-03-31T2200,1067A,116.6708,39.5111,廊坊市,药材公司,颗粒物(PM10),65,80,83,45,52,75,,105,99,27,28,7,8,0.4,0.4
2025-03-31T2200,1068A,116.7214,39.5589,廊坊市,开发区,颗粒物(PM10),71,92,86,37,45,91,,111,107,26,29,7,7,0.4,0.4
2025-03-31T2200,1070A,116.7244,39.5269,廊坊市,北华航天学院,颗粒物(PM10),65,80,80,38,45,85,,105,102,23,28,7,8,0.4,0.4
2025-03-31T2200,2919A,116.7022,39.5453,廊坊市,河北工业大学,细颗粒物(PM2.5),67,80,78,48,49,86,,110,106,25,27,12,10,0.5,0.4
2025-03-31T2200,2535A,103.7723,29.5462,乐山市,花湖湾,细颗粒物(PM2.5),69,58,35,50,27,25,,40,38,24,15,2,3,0.6,0.5
2025-03-31T2200,2536A,103.7627,29.5844,乐山市,牛耳桥,细颗粒物(PM2.5),77,74,37,56,27,21,,42,32,45,29,9,7,0.6,0.5
2025-03-31T2200,2537A,103.7508,29.6006,乐山市,市第三水厂,细颗粒物(PM2.5),57,54,34,40,24,27,,49,34,29,15,4,4,0.6,0.4
2025-03-31T2200,2538A,103.7571,29.5664,乐山市,市监测站,细颗粒物(PM2.5),60,51,31,43,27,17,,41,35,34,17,7,6,0.8,0.7
2025-03-31T2200,3361A,103.7311,29.5628,乐山市,理工大学,细颗粒物(PM2.5),62,56,37,44,26,20,,40,35,34,21,4,4,0.6,0.5
2025-03-31T2200,2598A,100.2143,26.8576,丽江市,西南郊,细颗粒物(PM2.5),58,58,68,41,46,122,,128,125,5,6,5,5,0.8,0.9
2025-03-31T2200,2599A,100.2497,26.8802,丽江市,丽江古城,细颗粒物(PM2.5),55,52,66,39,41,107,,121,114,13,13,8,8,0.6,0.7
2025-03-31T2200,2600A,100.2203,26.8906,丽江市,市中心,细颗粒物(PM2.5),55,42,54,39,44,108,,120,114,15,15,9,10,0.8,0.9
2025-03-31T2200,1267A,119.914,28.4514,丽水市,监测站大楼,,33,,22,23,18,31,,58,49,24,16,3,3,0.4,0.3
2025-03-31T2200,1268A,119.93,28.4586,丽水市,莲都小学,,33,33,26,19,18,33,,58,50,22,17,4,4,0.4,0.3
2025-03-31T2200,1269A,119.879,28.4231,丽水市,余庄前,,30,30,27,18,19,15,,60,42,23,18,3,3,0.5,0.5
2025-03-31T2200,1173A,119.176,34.5885,连云港市,市环境监测站,颗粒物(PM10),60,70,74,41,41,83,,124,117,30,20,12,11,0.6,0.7
2025-03-31T2200,3000A,119.3581,34.6972,连云港市,德源药业,颗粒物(PM10),54,58,72,34,39,86,,126,113,23,20,10,10,0.4,0.5
2025-03-31T2200,3007A,119.178,34.844,连云港市,新城一中,颗粒物(PM10),57,64,74,34,48,77,,123,109,42,33,9,9,0.5,0.6
2025-03-31T2200,3008A,119.3608,34.7519,连云港市,胡沟管理处,,45,41,56,31,34,108,,124,119,20,20,8,8,0.6,0.8
2025-03-31T2200,3009A,119.1478,34.5911,连云港市,矿山设计院,颗粒物(PM10),53,56,74,36,38,101,,124,122,24,22,11,11,0.4,0.5
2025-03-31T2200,3434A,119.2413,34.6539,连云港市,工贸学校,,49,,16,34,46,107,,125,122,18,22,11,10,0.5,1
2025-03-31T2200,3664A,119.4172,34.7341,连云港市,连云街道,颗粒物(PM10),54,57,71,30,38,106,,126,123,22,21,9,8,0.2,0.4
2025-03-31T2200,2571A,102.3431,27.8099,凉山彝族自治州,青龙寺,,32,32,35,10,11,57,,92,86,16,6,6,6,0.6,0.6
2025-03-31T2200,2572A,102.2721,27.8415,凉山彝族自治州,邛海宾馆,,25,25,35,13,19,76,,90,87,5,10,4,4,0.4,0.4
2025-03-31T2200,2573A,102.2625,27.898,凉山彝族自治州,西昌市政府,,25,25,33,11,20,75,,88,86,5,8,6,6,0.3,0.3
2025-03-31T2200,2574A,102.2685,27.8851,凉山彝族自治州,凉山州政府,,26,20,35,11,19,82,,95,92,8,11,4,5,0.4,0.5
2025-03-31T2200,4229A,102.2342,27.8859,凉山彝族自治州,凯乐南路30号,,26,26,38,8,17,78,,87,84,5,13,6,16,0.4,0.5
2025-03-31T2200,2212A,123.2,41.1953,辽阳市,宏伟区,细颗粒物(PM2.5),79,58,64,58,34,108,,129,124,12,14,12,14,0.8,0.9
2025-03-31T2200,2213A,123.1683,41.2495,辽阳市,新华园,细颗粒物(PM2.5),93,79,74,69,41,102,,126,121,22,25,13,17,1.0,1.2
2025-03-31T2200,2214A,123.2354,41.2639,辽阳市,滨河路,细颗粒物(PM2.5),85,,56,63,33,93,,123,116,18,18,24,21,0.6,0.7
2025-03-31T2200,2215A,123.149,41.2991,辽阳市,铁西工业园,细颗粒物(PM2.5),84,104,86,62,40,103,,123,120,21,25,12,18,0.8,1.2
2025-03-31T2200,2227A,125.1358,42.8845,辽源市,环保局,细颗粒物(PM2.5),122,119,69,92,34,69,,109,80,40,21,9,8,1.1,0.8
2025-03-31T2200,3239A,125.0764,42.9078,辽源市,银鹰制药,细颗粒物(PM2.5),83,87,44,61,28,63,,113,80,41,21,10,9,0.9,1
2025-03-31T2200,1625A,115.9848,36.4372,聊城市,区政府,颗粒物(PM10),78,106,108,41,39,89,,124,116,27,23,9,9,0.6,0.6
2025-03-31T2200,2878A,116.0072,36.4343,聊城市,聊大东校,颗粒物(PM10),79,107,119,45,45,88,,125,116,24,20,8,9,0.6,0.5
2025-03-31T2200,3200A,115.9819,36.4978,聊城市,监控中心,颗粒物(PM10),80,110,116,41,40,96,,127,121,18,17,12,13,0.6,0.6
2025-03-31T2200,3513A,116.0445,36.4361,聊城市,九州社区,颗粒物(PM10),73,95,111,42,39,94,,131,122,21,21,11,12,0.6,0.6
2025-03-31T2200,4018A,116.0567,36.4608,聊城市,星美广场,颗粒物(PM10),75,100,110,33,36,97,,130,122,15,16,9,10,0.7,0.7
2025-03-31T2200,2632A,94.3681,29.6376,林芝市,林芝监测站,,44,11,10,10,7,140,,139,133,5,6,5,5,0.4,0.4
2025-03-31T2200,2633A,94.3616,29.6616,林芝市,林芝人民医院,,41,18,13,11,6,131,,128,126,2,3,7,7,0.3,0.3
2025-03-31T2200,2603A,100.0781,23.8982,临沧市,市环保局,细颗粒物(PM2.5),109,100,116,82,89,103,,148,142,23,18,10,11,0.9,1
2025-03-31T2200,2604A,100.0894,23.8822,临沧市,市气象局,细颗粒物(PM2.5),97,87,103,72,92,126,,155,150,23,17,7,8,0.8,0.9
2025-03-31T2200,1733A,111.5531,36.0783,临汾市,临钢医院,颗粒物(PM10),81,111,81,44,28,76,,124,117,35,23,10,8,0.9,0.9
2025-03-31T2200,1734A,111.5028,36.0714,临汾市,技工学校,颗粒物(PM10),78,106,71,54,35,74,,128,119,36,27,12,11,0.7,0.8
2025-03-31T2200,1736A,111.5018,36.0855,临汾市,市委,颗粒物(PM10),82,114,83,47,30,80,,130,123,37,30,8,7,0.7,1.2
2025-03-31T2200,3018A,111.505,36.1014,临汾市,唐尧大酒店,颗粒物(PM10),79,108,89,42,32,80,,124,118,26,28,11,11,0.8,0.8
2025-03-31T2200,4244A,111.4879,36.0530,临汾市,启星学校,颗粒物(PM10),83,116,79,54,38,72,,123,114,32,31,9,8,0.8,0.9
2025-03-31T2200,4271A,103.2464,35.6123,临夏回族自治州,滨河东路1号,颗粒物(PM10),114,178,142,63,46,47,,107,92,38,14,9,7,0.7,0.6
2025-03-31T2200,4310A,103.2093,35.5995,临夏回族自治州,新华街21号,颗粒物(PM10),118,185,133,72,47,71,,95,90,25,15,15,14,0.5,0.5
2025-03-31T2200,1618A,118.3429,35.0532,临沂市,沂河小区,颗粒物(PM10),67,83,88,47,51,83,,119,112,26,22,14,14,0.6,0.6
2025-03-31T2200,1619A,118.295,35.0583,临沂市,鲁南制药厂,颗粒物(PM10),62,73,91,34,48,95,,134,125,32,30,21,18,0.5,0.5
2025-03-31T2200,1620A,118.2794,34.9976,临沂市,新光毛纺厂,颗粒物(PM10),60,70,86,42,49,84,,124,113,38,35,19,19,0.7,0.7
2025-03-31T2200,1621A,118.3956,35.0888,临沂市,河东保险公司,细颗粒物(PM2.5),65,73,76,47,40,94,,133,125,35,31,12,10,0.4,0.4
2025-03-31T2200,3370A,118.3564,35.0215,临沂市,十里堡居委,细颗粒物(PM2.5),67,73,82,48,42,82,,125,114,32,32,8,10,0.6,0.7
2025-03-31T2200,3496A,118.3604,35.1084,临沂市,南坊新区,颗粒物(PM10),63,75,85,36,43,94,,125,118,26,23,12,12,0.6,0.6
2025-03-31T2200,3860A,118.3920,35.0300,临沂市,皇山花园小区,颗粒物(PM10),58,66,85,36,42,88,,128,119,28,25,16,12,0.4,0.5
2025-03-31T2200,1870A,109.4856,24.3895,柳州市,柳东小学,,36,29,19,25,14,65,,64,64,14,11,12,10,0.5,0.5
2025-03-31T2200,1871A,109.4157,24.3277,柳州市,环保监测站,,,,15,,12,,,51,,,6,,10,,0.6
2025-03-31T2200,1872A,109.389,24.341,柳州市,河西水厂,,35,35,21,23,14,67,,64,64,13,10,10,7,0.6,0.7
2025-03-31T2200,1873A,109.4311,24.2921,柳州市,市四中,,32,29,20,22,12,56,,60,60,20,8,11,8,0.7,0.6
2025-03-31T2200,1874A,109.4006,24.3631,柳州市,市九中,,,,17,,10,,,50,,,7,,7,,0.4
2025-03-31T2200,1875A,109.4958,24.3134,柳州市,古亭山,,32,32,18,18,11,68,,69,69,14,6,14,8,0.6,0.6
2025-03-31T2200,3402A,109.5422,24.3996,柳州市,市二中,,33,23,19,23,17,67,,68,68,12,9,17,13,0.3,0.3
2025-03-31T2200,2307A,116.5079,31.737,六安市,监测大楼,,37,37,65,15,30,97,,120,114,11,13,5,6,0.3,0.4
2025-03-31T2200,2308A,116.4738,31.7643,六安市,皖西学院,,45,45,78,17,33,98,,124,115,17,17,4,5,0.4,0.5
2025-03-31T2200,2309A,116.4996,31.7905,六安市,朝阳厂,,43,43,68,13,33,96,,119,110,22,23,4,4,0.5,0.7
2025-03-31T2200,2310A,116.5567,31.7886,六安市,开发区,,47,47,88,22,40,75,,119,105,39,24,6,4,0.5,0.6
2025-03-31T2200,2576A,104.8,26.5892,六盘水市,窑上,细颗粒物(PM2.5),54,49,30,38,21,56,,63,62,9,7,5,5,0.6,0.5
2025-03-31T2200,2577A,104.83,26.5917,六盘水市,黄土坡,,36,29,21,25,14,51,,56,54,11,11,10,10,0.5,0.5
2025-03-31T2200,2578A,104.89,26.5939,六盘水市,水钢,细颗粒物(PM2.5),52,41,28,36,14,50,,57,52,13,12,10,9,0.3,0.4
2025-03-31T2200,2579A,104.8475,26.5894,六盘水市,民中,,37,37,23,22,12,50,,52,50,13,12,8,8,0.6,0.4
2025-03-31T2200,2580A,104.9544,26.5506,六盘水市,双水,,45,34,17,31,12,52,,61,58,10,9,12,9,0.5,0.4
2025-03-31T2200,2335A,117.0189,25.1181,龙岩市,龙岩师专,,,,,,,,,,,,,,,,
2025-03-31T2200,2336A,117.0217,25.1033,龙岩市,龙岩市监测站,,15,7,5,3,2,48,,60,52,13,11,5,4,0.3,0.3
2025-03-31T2200,2337A,117.0258,25.0661,龙岩市,闽西职业技术学院,,16,8,6,3,4,50,,58,51,11,11,5,4,0.6,0.5
2025-03-31T2200,2338A,117.0196,25.0306,龙岩市,龙岩学院,,14,,6,8,7,44,,54,46,10,11,3,3,0.5,0.5
2025-03-31T2200,2665A,105.0822,33.3261,陇南市,汉王镇固水子,,,,,,,,,,,,,,,,
2025-03-31T2200,2885A,104.9339,33.3826,陇南市,滨江中学,颗粒物(PM10),65,79,70,30,28,60,,68,67,14,9,7,7,0.6,0.5
2025-03-31T2200,3247A,104.955,33.371,陇南市,市总工会,颗粒物(PM10),62,73,61,29,25,70,,75,75,11,10,6,8,0.5,0.5
2025-03-31T2200,2487A,111.9589,27.8901,娄底市,电视发射台,颗粒物(PM10),51,52,45,21,17,56,,90,80,6,5,6,6,0.6,0.6
2025-03-31T2200,2488A,111.9975,27.725,娄底市,市监测站,颗粒物(PM10),58,65,48,36,28,71,,91,86,20,17,12,12,0.7,0.8
2025-03-31T2200,2489A,112.0194,27.7314,娄底市,市委党校,颗粒物(PM10),58,66,48,36,29,79,,94,90,9,10,3,4,0.6,0.7
2025-03-31T2200,2490A,111.9561,27.7569,娄底市,涟钢,颗粒物(PM10),66,82,47,38,27,68,,93,86,24,10,10,7,0.9,0.7
2025-03-31T2200,2491A,111.9892,27.7044,娄底市,市政府,颗粒物(PM10),54,58,45,31,26,78,,92,89,8,8,8,8,0.6,0.7
2025-03-31T2200,1893A,105.4324,28.9634,泸州市,九狮山,,,,,,,,,,,,,,,,
2025-03-31T2200,1894A,105.4427,28.9063,泸州市,小市上码头,,46,41,38,32,29,29,,44,41,26,23,5,6,0.5,0.5
2025-03-31T2200,1895A,105.4241,28.8573,泸州市,兰田宪桥,"颗粒物(PM10),细颗粒物(PM2.5)",58,65,46,41,31,11,,28,26,26,20,4,5,0.5,0.4
2025-03-31T2200,1896A,105.4379,28.8833,泸州市,市环监站,,,,,,,,,,,,,,,,
2025-03-31T2200,4272A,105.3689,28.7783,泸州市,纳溪中医医院,细颗粒物(PM2.5),58,61,38,41,22,19,,39,35,28,21,4,4,0.6,0.6
2025-03-31T2200,2183A,111.1406,37.5211,吕梁市,环保局,颗粒物(PM10),80,109,66,29,19,5,,97,73,79,35,5,4,0.4,0.3
2025-03-31T2200,2185A,111.1297,37.5136,吕梁市,自来水公司,颗粒物(PM10),63,75,104,26,20,18,,98,84,69,33,2,3,0.5,0.4
2025-03-31T2200,2867A,111.1283,37.51,吕梁市,马茂庄小学,颗粒物(PM10),81,112,76,18,17,24,,98,79,63,39,6,4,0.4,0.4
2025-03-31T2200,1812A,112.3931,34.6516,洛阳市,市委党校,颗粒物(PM10),66,82,79,35,36,77,,108,105,33,26,6,9,0.6,0.6
2025-03-31T2200,1815A,112.494,34.6886,洛阳市,河南林校,颗粒物(PM10),78,105,91,50,38,81,,111,108,34,31,8,8,0.7,0.7
2025-03-31T2200,1816A,112.3844,34.623,洛阳市,开发区管委会,颗粒物(PM10),67,84,75,41,34,63,,98,90,41,22,7,7,0.4,0.4
2025-03-31T2200,1817A,112.4267,34.6258,洛阳市,市委新办公区,颗粒物(PM10),69,87,68,38,29,78,,114,109,31,20,6,6,0.4,0.3
2025-03-31T2200,3340A,112.6005,34.6326,洛阳市,伊滨,颗粒物(PM10),63,75,77,44,48,91,,115,113,23,20,8,7,0.4,0.6
2025-03-31T2200,3341A,112.4951,34.6332,洛阳市,中移产业园,颗粒物(PM10),78,105,91,46,44,89,,108,106,23,17,9,8,0.3,0.3
2025-03-31T2200,3593A,112.5736,34.8993,洛阳市,吉利监测站,颗粒物(PM10),65,80,65,35,31,78,,110,106,30,23,8,9,0.5,0.4
2025-03-31T2200,3635A,112.3677,34.662,洛阳市,河科大西苑校区,颗粒物(PM10),71,91,85,38,34,79,,107,104,27,23,9,14,0.5,0.5
2025-03-31T2200,3636A,112.4388,34.6781,洛阳市,英才小学,颗粒物(PM10),75,100,90,41,38,85,,108,107,27,30,11,13,0.5,0.5
2025-03-31T2200,4214A,112.4600,34.6949,洛阳市,春都路1号院,颗粒物(PM10),83,116,104,34,33,88,,113,112,25,29,11,12,0.6,0.6
2025-03-31T2200,2399A,114.051,33.5699,漯河市,三五一五工厂,颗粒物(PM10),72,93,104,43,46,76,,114,106,24,18,5,6,0.5,0.5
2025-03-31T2200,2400A,114.0055,33.5698,漯河市,漯河大学,颗粒物(PM10),70,90,102,39,40,94,,115,111,16,14,10,8,0.4,0.4
2025-03-31T2200,2401A,114.0138,33.5828,漯河市,市水利局,颗粒物(PM10),67,83,101,44,46,96,,117,114,16,15,5,5,0.5,0.5
2025-03-31T2200,2402A,114.0261,33.5698,漯河市,市广电局,颗粒物(PM10),72,93,102,39,42,85,,111,105,17,15,6,5,0.5,0.5
2025-03-31T2200,3478A,113.9749,33.5664,漯河市,市图书馆,颗粒物(PM10),74,98,105,43,44,90,,114,108,20,17,4,6,0.5,0.5
2025-03-31T2200,4250A,114.0892,33.5882,漯河市,韶山路11号,颗粒物(PM10),77,104,108,43,47,84,,120,111,19,15,4,5,0.4,0.5
2025-03-31T2200,1798A,118.5092,31.6837,马鞍山市,湖东路四小,,48,48,41,27,15,84,,116,106,32,17,6,7,0.5,0.5
2025-03-31T2200,1799A,118.5024,31.6449,马鞍山市,开发区,颗粒物(PM10),58,66,49,25,17,78,,114,104,37,23,4,5,0.5,0.6
2025-03-31T2200,1802A,118.6245,31.7241,马鞍山市,濮塘,,39,39,36,22,18,100,,117,112,11,9,8,9,0.2,0.3
2025-03-31T2200,3633A,118.4918,31.6809,马鞍山市,雨山,,48,48,45,27,18,86,,114,105,25,15,7,8,0.4,0.6
2025-03-31T2200,4191A,118.5274,31.72227,马鞍山市,慈湖高新区,颗粒物(PM10),57,63,43,28,22,79,,112,103,37,24,5,6,0.6,0.6
2025-03-31T2200,1686A,111.0286,21.4688,茂名市,电白南海,,31,31,27,19,15,18,,30,28,17,13,6,6,1.0,0.9
2025-03-31T2200,1687A,110.9294,21.6533,茂名市,茂石化七小,,29,29,18,12,9,15,,20,20,9,6,2,2,1.1,1
2025-03-31T2200,1688A,110.9107,21.6687,茂名市,健康路,,41,41,18,24,9,19,,28,28,15,11,24,8,1.3,0.8
2025-03-31T2200,1689A,110.8592,21.6828,茂名市,高岭,,,24,22,3,6,,,26,25,14,9,21,14,0.6,0.6
2025-03-31T2200,3450A,111.01,21.5165,茂名市,电白水东,,24,24,21,9,12,15,,28,26,20,15,22,13,0.7,0.7
2025-03-31T2200,2539A,104.0308,30.0478,眉山市,黑龙滩水库,,41,41,29,26,19,19,,40,38,12,7,3,3,0.6,0.6
2025-03-31T2200,2540A,103.8416,30.0874,眉山市,气象局,细颗粒物(PM2.5),55,55,51,39,33,10,,50,41,43,25,5,5,0.7,0.5
2025-03-31T2200,3137A,103.8578,30.0744,眉山市,市委党校,细颗粒物(PM2.5),67,48,33,48,29,15,,44,38,34,18,3,3,0.7,0.5
2025-03-31T2200,3148A,103.8291,30.0564,眉山市,区人社局,,,,37,41,27,,,45,42,46,26,2,2,0.6,0.5
2025-03-31T2200,1690A,116.1231,24.3284,梅州市,梅江月梅,,8,6,5,3,4,19,,17,16,16,16,3,3,0.5,0.5
2025-03-31T2200,1691A,116.0797,24.2719,梅州市,梅县新城,,8,7,4,3,3,23,,25,25,10,11,4,4,0.5,0.5
2025-03-31T2200,1692A,116.1248,24.2654,梅州市,环境监控中心,,,4,3,,4,18,,19,18,22,16,5,5,0.5,0.5
2025-03-31T2200,3315A,116.1233,24.2991,梅州市,梅龙,,8,7,5,3,3,19,,20,17,16,13,5,6,0.5,0.6
2025-03-31T2200,1878A,104.7778,31.4741,绵阳市,富乐山,,23,19,35,16,27,33,,53,51,28,21,2,2,0.5,0.5
2025-03-31T2200,1880A,104.6697,31.4668,绵阳市,高新区自来水公司,,32,30,45,22,28,18,,56,50,42,25,2,3,0.5,0.5
2025-03-31T2200,1881A,104.7287,31.5075,绵阳市,三水厂,,30,30,46,21,34,28,,53,50,36,24,5,6,0.6,0.6
2025-03-31T2200,3491A,104.69,31.5322,绵阳市,西科大附属小学,,30,30,49,21,33,31,,54,52,39,28,7,7,0.6,0.6
2025-03-31T2200,3492A,104.5648,31.5343,绵阳市,安州区旅游局,,32,32,39,19,28,24,,43,40,23,21,11,11,0.7,0.3
2025-03-31T2200,4226A,104.7651,31.4531,绵阳市,绵阳市气象局,,31,31,36,20,29,27,,40,38,27,21,6,5,0.6,0.5
2025-03-31T2200,1784A,129.61,44.561,牡丹江市,环保大楼,细颗粒物(PM2.5),54,53,52,38,31,70,,93,82,19,14,5,6,0.4,0.3
2025-03-31T2200,1785A,129.6115,44.5782,牡丹江市,文化广场,细颗粒物(PM2.5),69,74,48,50,35,66,,96,81,22,12,11,10,0.6,0.4
2025-03-31T2200,1786A,129.5904,44.5963,牡丹江市,第一医院,细颗粒物(PM2.5),72,69,46,52,32,55,,98,82,37,15,11,10,0.5,0.3
2025-03-31T2200,1787A,129.6364,44.6075,牡丹江市,机车工厂,细颗粒物(PM2.5),57,62,47,40,25,66,,94,78,24,14,8,15,0.6,0.4
2025-03-31T2200,1788A,129.6386,44.5462,牡丹江市,第一中学,细颗粒物(PM2.5),54,50,48,38,32,83,,101,90,12,8,8,8,0.5,0.4
2025-03-31T2200,2531A,105.0703,29.61,内江市,市监测站,,39,,24,27,21,16,,47,42,39,15,2,2,0.4,0.4
2025-03-31T2200,2532A,105.0717,29.5947,内江市,东兴区政府,,25,25,22,15,14,24,,44,42,35,17,3,3,0.6,0.5
2025-03-31T2200,2533A,105.0653,29.5817,内江市,内江二中,,31,31,28,18,17,15,,42,38,44,18,5,6,0.5,0.4
2025-03-31T2200,2534A,105.0406,29.5822,内江市,内江日报社,,32,32,24,20,17,17,,46,41,39,16,2,2,0.5,0.5
2025-03-31T2200,2628A,92.0657,31.4846,那曲市,那曲监测站,,42,42,31,28,14,72,,110,100,27,12,10,9,1.1,0.8
2025-03-31T2200,4243A,92.0515,31.4787,那曲市,那曲市委宣传部,,32,29,39,13,15,101,,112,109,5,9,4,4,0.2,0.3
2025-03-31T2200,1290A,115.8931,28.6843,南昌市,省外办,细颗粒物(PM2.5),58,64,52,41,34,68,,87,82,24,23,5,6,0.6,0.5
2025-03-31T2200,1291A,115.8886,28.7003,南昌市,省林业公司,颗粒物(PM10),58,66,52,39,31,60,,84,78,19,16,7,7,0.2,0.1
2025-03-31T2200,1292A,115.8126,28.7442,南昌市,林科所,,,,46,24,26,70,,91,91,26,21,5,3,0.4,0.3
2025-03-31T2200,1294A,115.8518,28.687,南昌市,建工学校,,,82,62,68,40,66,,82,79,,20,3,3,0.5,0.4
2025-03-31T2200,1295A,115.8921,28.6424,南昌市,象湖,颗粒物(PM10),57,64,44,29,28,49,,104,92,43,13,7,7,0.7,0.6
2025-03-31T2200,1296A,115.7423,28.7996,南昌市,武术学校,,49,49,36,31,23,44,,97,81,8,7,5,5,0.6,0.5
2025-03-31T2200,3046A,115.9084,28.6062,南昌市,机电学校,颗粒物(PM10),54,58,55,34,28,52,,92,80,33,22,2,2,0.6,0.6
2025-03-31T2200,3690A,115.9721,28.7031,南昌市,外国语学校,颗粒物(PM10),59,67,51,32,28,58,,97,90,35,14,5,6,0.1,0
2025-03-31T2200,4192A,115.9316,28.68677,南昌市,南京东路235号,颗粒物(PM10),66,81,48,35,28,76,,97,92,26,16,8,8,0.4,0.3
2025-03-31T2200,1905A,106.056,30.8064,南充市,西山风景区,,27,27,15,14,14,38,,51,48,11,7,3,3,0.5,0.4
2025-03-31T2200,1906A,106.0789,30.8023,南充市,南充市委,,30,30,25,20,17,35,,51,48,20,15,8,3,0.5,0.5
2025-03-31T2200,1907A,106.1031,30.8217,南充市,南充炼油厂,,37,37,29,25,20,34,,50,46,19,14,5,3,0.4,0.4
2025-03-31T2200,1909A,106.0642,30.7636,南充市,嘉陵区环保局,,,,23,,16,,,23,,,17,,3,,0.1
2025-03-31T2200,4227A,106.1083,30.7884,南充市,梨树横街98号,,36,32,26,25,18,37,,50,48,21,17,7,5,0.3,0.3
2025-03-31T2200,4304A,106.1172,30.843,南充市,清泉寺北路188号,,37,37,33,22,21,33,,49,46,23,17,6,6,0.2,0.3
2025-03-31T2200,1151A,118.8086,32.1065,南京市,迈皋桥,,36,36,33,14,16,100,,112,110,25,14,4,4,0.2,0.2
2025-03-31T2200,1152A,118.7538,32.0551,南京市,草场门,,44,44,35,17,15,90,,107,104,33,24,5,5,0.4,0.4
2025-03-31T2200,1153A,118.7794,32.0745,南京市,山西路,,46,46,49,17,14,94,,107,106,8,6,3,3,0.2,0.1
2025-03-31T2200,1154A,118.7752,32.0023,南京市,中华门,,34,34,36,22,16,87,,101,98,25,17,7,7,0.4,0.3
2025-03-31T2200,1155A,118.8109,32.0309,南京市,瑞金路,,46,46,39,22,16,87,,107,104,25,15,7,7,0.7,0.7
2025-03-31T2200,1156A,118.7997,32.0754,南京市,玄武湖,,39,39,36,16,12,91,,106,103,14,11,5,4,0.6,0.6
2025-03-31T2200,1157A,118.6414,32.0931,南京市,浦口,,45,45,42,17,15,102,,113,110,27,24,7,7,0.1,0.1
2025-03-31T2200,1158A,118.7356,31.9996,南京市,奥体中心,,43,43,39,24,16,97,,112,109,24,18,6,6,0.3,0.3
2025-03-31T2200,1159A,118.9125,32.1028,南京市,仙林大学城,,44,44,40,27,22,86,,108,104,23,14,8,9,0.6,0.6
2025-03-31T2200,3422A,118.8436,31.9198,南京市,江宁彩虹桥,颗粒物(PM10),52,54,40,22,16,86,,109,104,21,12,4,4,0.4,0.4
2025-03-31T2200,3427A,118.8554,32.3578,南京市,六合雄州,细颗粒物(PM2.5),84,,34,62,22,88,,106,102,20,16,5,6,0.2,0.3
2025-03-31T2200,4249A,118.8708,31.3402,南京市,汶溪路181号,,46,46,37,23,34,96,,108,102,20,18,4,4,0.4,0.6
2025-03-31T2200,4312A,119.019,31.6512,南京市,中山西路1号,,39,39,32,27,18,83,,109,104,4,4,5,6,0.4,0.4
2025-03-31T2200,1401A,108.3103,22.7881,南宁市,二十一中,,35,27,21,24,13,59,,68,67,17,13,7,7,0.6,0.6
2025-03-31T2200,1402A,108.3141,22.8528,南宁市,北湖,,38,36,20,26,13,57,,72,68,19,13,9,10,0.6,0.5
2025-03-31T2200,1403A,108.3206,22.8225,南宁市,市监测站,,24,24,23,15,11,52,,63,61,21,15,8,9,0.6,0.5
2025-03-31T2200,1404A,108.3829,22.8037,南宁市,大自然花园,,32,32,20,16,10,60,,70,68,14,9,7,6,0.6,0.5
2025-03-31T2200,1405A,108.4394,22.7904,南宁市,仙葫,,35,32,19,24,11,53,,65,63,13,9,7,6,0.5,0.4
2025-03-31T2200,1406A,108.2397,22.8467,南宁市,区农职院,,31,31,23,20,10,51,,68,65,19,10,5,5,0.7,0.6
2025-03-31T2200,1407A,108.3275,22.735,南宁市,英华嘉园,,25,25,19,17,10,62,,72,71,14,10,8,7,0.5,0.5
2025-03-31T2200,3401A,108.4834,22.7618,南宁市,红星社区,,35,29,19,24,12,66,,79,75,10,6,10,9,0.6,0.5
2025-03-31T2200,4221A,108.2177,22.7774,南宁市,乐贤路16号,,35,35,26,13,14,53,,62,60,18,13,11,11,0.7,0.6
2025-03-31T2200,2331A,118.0966,26.6761,南平市,茫荡山,,,,,,,,,,,,,,,,
2025-03-31T2200,2332A,118.1681,26.6369,南平市,南平市监测站,,13,11,10,9,8,31,,57,44,16,10,4,4,0.6,0.5
2025-03-31T2200,2333A,118.1825,26.6489,南平市,南平铝业有限公司,,18,12,10,12,7,36,,57,45,10,9,4,4,0.7,0.6
2025-03-31T2200,2334A,118.1756,26.6272,南平市,南平七中,,18,,9,12,9,32,,58,41,12,9,4,5,0.7,0.7
2025-03-31T2200,1168A,120.9098,31.9663,南通市,狼山街道,,42,42,36,14,15,121,,123,123,17,20,6,7,0.2,0.3
2025-03-31T2200,1169A,120.86,32.0005,南通市,虹桥,,38,38,38,18,17,108,,111,110,25,30,5,7,0.7,0.7
2025-03-31T2200,1170A,120.87,32.02,南通市,城中,,41,41,39,15,15,120,,119,119,18,27,7,8,0.5,0.5
2025-03-31T2200,1171A,120.94,31.93,南通市,星湖花园,,35,31,33,19,16,110,,116,113,20,22,6,7,0.4,0.4
2025-03-31T2200,1172A,120.81,32.0417,南通市,紫琅学院,,39,39,34,15,13,110,,110,109,16,29,3,4,0.2,0.3
2025-03-31T2200,3291A,121.067,32.062,南通市,通州监测站,,48,48,34,27,14,111,,125,121,16,15,4,4,0.5,0.5
2025-03-31T2200,3432A,120.9348,31.9883,南通市,环境教育馆,,39,29,34,19,15,123,,128,126,12,18,5,6,0.3,0.3
2025-03-31T2200,2404A,112.5224,33.0122,南阳市,瓦房庄,颗粒物(PM10),75,100,95,45,42,76,,103,98,23,17,6,6,0.5,0.4
2025-03-31T2200,2405A,112.5003,32.9735,南阳市,汉画馆,颗粒物(PM10),74,97,84,46,39,48,,98,87,43,24,5,5,0.5,0.4
2025-03-31T2200,2406A,112.5573,33.027,南阳市,气象站,,,96,100,39,38,74,,98,92,22,20,6,7,,0.4
2025-03-31T2200,2407A,112.5481,32.9689,南阳市,理工学院,颗粒物(PM10),74,97,90,45,35,78,,103,96,23,21,4,5,0.4,0.3
2025-03-31T2200,4008A,112.5234,32.9922,南阳市,卧龙区政府,颗粒物(PM10),86,121,101,48,42,75,,104,98,27,17,5,5,0.6,0.5
2025-03-31T2200,1234A,121.8358,29.911,宁波市,区环保大楼,,45,45,37,20,12,91,,95,93,23,23,7,8,0.4,0.4
2025-03-31T2200,1235A,121.56,29.82,宁波市,万里学院,,47,47,37,19,14,72,,94,89,35,27,7,7,0.5,0.4
2025-03-31T2200,1236A,121.713,29.9572,宁波市,龙赛医院,,41,41,34,14,12,97,,100,100,18,18,7,8,0.5,0.5
2025-03-31T2200,1239A,121.633,29.7733,宁波市,钱湖水厂,,30,26,30,10,12,94,,97,94,10,17,6,6,0.5,0.5
2025-03-31T2200,1240A,121.5856,29.8635,宁波市,太古小学,,45,45,36,15,14,96,,98,97,18,25,8,9,0.4,0.4
2025-03-31T2200,1241A,121.524,29.8674,宁波市,市环境监测中心,,43,43,34,21,13,92,,93,92,21,29,8,8,0.6,0.6
2025-03-31T2200,2871A,121.6147,29.9017,宁波市,万里国际学校,,34,34,32,14,10,95,,96,95,15,22,8,8,0.4,0.4
2025-03-31T2200,3710A,121.5594,29.8975,宁波市,白沙活动中心,,36,36,32,18,13,86,,96,93,23,24,7,7,0.3,0.3
2025-03-31T2200,2339A,119.5001,26.6946,宁德市,金涵水库,,,,,,,,,,,,,,,,
2025-03-31T2200,2341A,119.5388,26.6612,宁德市,宁德市监测站,,14,,10,7,8,42,,72,43,24,16,4,4,0.4,0.4
2025-03-31T2200,3209A,119.5231,26.6562,宁德市,宁德一中,,18,,8,7,8,56,,80,57,6,8,5,5,0.3,0.3
2025-03-31T2200,2618A,98.8601,25.8567,怒江傈僳族自治州,州监测站,细颗粒物(PM2.5),97,113,76,72,54,142,,140,140,9,8,8,6,0.7,0.6
2025-03-31T2200,2619A,98.8546,25.8417,怒江傈僳族自治州,泸水一中,细颗粒物(PM2.5),97,91,74,72,60,126,,123,123,15,16,8,7,0.9,0.8
2025-03-31T2200,1888A,101.6891,26.571,攀枝花市,弄弄坪,细颗粒物(PM2.5),97,81,85,72,61,121,,127,125,17,27,8,37,0.8,1.7
2025-03-31T2200,1889A,101.5769,26.5928,攀枝花市,河门口,细颗粒物(PM2.5),77,82,83,56,53,102,,142,135,22,18,11,10,0.7,0.7
2025-03-31T2200,1890A,101.7169,26.585,攀枝花市,炳草岗,细颗粒物(PM2.5),68,81,80,49,47,116,,145,138,21,31,12,16,0.8,1.1
2025-03-31T2200,1891A,101.7369,26.5008,攀枝花市,仁和,细颗粒物(PM2.5),87,90,71,64,49,136,,146,142,14,18,7,8,0.8,0.7
2025-03-31T2200,2835A,101.7227,26.567,攀枝花市,四十中小,细颗粒物(PM2.5),80,88,84,59,48,144,,147,147,14,23,10,14,0.6,0.8
2025-03-31T2200,1604A,122.0303,41.1489,盘锦市,开发区,细颗粒物(PM2.5),93,88,51,69,45,126,,118,117,20,20,7,7,0.7,0.6
2025-03-31T2200,1605A,122.0485,41.0883,盘锦市,兴隆台,细颗粒物(PM2.5),94,105,57,70,46,113,,109,106,27,24,6,6,0.8,0.7
2025-03-31T2200,1606A,121.8297,41.1028,盘锦市,新生街道,细颗粒物(PM2.5),104,88,42,78,45,107,,117,112,24,20,6,8,0.8,0.7
2025-03-31T2200,1832A,113.3257,33.742,平顶山市,新华旅馆,颗粒物(PM10),72,93,95,41,33,96,,111,108,16,25,5,5,0.5,0.5
2025-03-31T2200,1833A,113.2919,33.737,平顶山市,规划设计院,颗粒物(PM10),74,97,89,37,39,93,,111,107,16,18,5,6,0.4,0.4
2025-03-31T2200,1834A,113.182,33.774,平顶山市,平顶山工学院,颗粒物(PM10),66,81,75,34,30,92,,112,107,13,15,1,1,0.3,0.3
2025-03-31T2200,3204A,113.3025,33.73,平顶山市,规划局,颗粒物(PM10),71,92,90,37,37,98,,110,108,15,20,5,5,0.6,0.6
2025-03-31T2200,3594A,112.8867,33.9116,平顶山市,石龙区,颗粒物(PM10),78,105,109,41,37,96,,115,111,13,32,5,7,0.2,0.3
2025-03-31T2200,2656A,106.6692,35.5461,平凉市,聚贤嘉苑,颗粒物(PM10),84,117,97,36,31,27,,114,94,65,28,6,8,0.5,0.4
2025-03-31T2200,2657A,106.7021,35.5307,平凉市,博物馆,颗粒物(PM10),76,101,95,36,31,49,,110,99,39,24,19,16,0.8,0.6
2025-03-31T2200,2347A,114.0997,27.5002,萍乡市,武功山,,25,25,41,17,26,46,,68,66,7,8,5,5,0.6,0.8
2025-03-31T2200,2348A,113.8385,27.6434,萍乡市,中医院,细颗粒物(PM2.5),59,63,70,42,34,64,,95,83,19,14,14,11,1.0,0.7
2025-03-31T2200,2349A,113.8493,27.6253,萍乡市,市政府车库,细颗粒物(PM2.5),59,59,64,42,37,60,,96,87,22,15,8,8,0.7,0.5
2025-03-31T2200,2350A,113.8676,27.6435,萍乡市,市环保局,细颗粒物(PM2.5),63,72,70,45,38,68,,96,86,17,11,10,7,0.7,0.6
2025-03-31T2200,2351A,113.866,27.6198,萍乡市,安源区政府,颗粒物(PM10),62,74,71,41,37,57,,93,85,20,14,6,5,0.7,0.6
2025-03-31T2200,2319A,119.0141,25.4325,莆田市,荔城区仓后路,,22,6,11,3,0,69,,78,69,9,11,2,2,0.5,0.4
2025-03-31T2200,2320A,119.0015,25.4553,莆田市,莆田市监测站,,24,9,6,3,0,75,,81,77,7,6,3,3,0.4,0.4
2025-03-31T2200,2321A,119.1119,25.4561,莆田市,涵江区六中,,20,9,7,3,2,61,,76,58,15,14,2,2,0.6,0.5
2025-03-31T2200,2322A,119.1013,25.3215,莆田市,秀屿区政府,,22,6,6,3,2,68,,74,68,14,14,2,3,0.5,0.5
2025-03-31T2200,2323A,118.981,25.4792,莆田市,东圳水库,,,,,,,,,,,,,,,,
2025-03-31T2200,2392A,115.0312,35.7636,濮阳市,环保局,颗粒物(PM10),63,75,82,34,35,102,,122,118,15,16,4,5,0.8,0.9
2025-03-31T2200,2394A,115.0574,35.7609,濮阳市,油田运输公司,颗粒物(PM10),64,77,91,31,36,100,,124,120,16,16,5,5,0.5,0.5
2025-03-31T2200,3021A,115,35.7668,濮阳市,濮水河管理处,颗粒物(PM10),65,79,96,31,34,102,,125,120,20,20,6,6,0.5,0.7
2025-03-31T2200,4216A,115.0924,35.7686,濮阳市,任丘路479号,颗粒物(PM10),74,98,99,38,38,84,,130,119,23,16,6,5,0.7,0.7
2025-03-31T2200,2601A,100.98,22.7633,普洱市,市环保局,颗粒物(PM10),88,126,124,49,68,104,,159,155,20,14,5,5,1.2,1.1
2025-03-31T2200,2602A,100.9817,22.8322,普洱市,普洱第二中学,细颗粒物(PM2.5),109,95,98,82,63,102,,140,136,25,27,8,7,0.9,0.9
2025-03-31T2200,2262A,131.0518,45.8751,七台河市,新一中,,48,48,32,28,19,75,,112,97,15,10,13,12,0.9,0.8
2025-03-31T2200,3345A,131.0577,45.7879,七台河市,中波台,颗粒物(PM10),54,57,38,35,22,80,,92,85,18,13,9,6,0.6,0.6
2025-03-31T2200,3637A,131.0176,45.7761,七台河市,人民广场,细颗粒物(PM2.5),62,64,44,44,30,85,,98,88,16,12,9,6,0.8,0.8
2025-03-31T2200,3684A,130.8781,45.8222,七台河市,新建矿广场,细颗粒物(PM2.5),54,46,47,38,28,74,,96,79,16,14,10,8,0.6,0.6
2025-03-31T2200,1779A,123.9305,47.3636,齐齐哈尔市,安居小区,颗粒物(PM10),56,61,49,38,22,50,,85,65,31,21,7,4,0.6,0.5
2025-03-31T2200,1780A,123.9488,47.3386,齐齐哈尔市,中心广场,颗粒物(PM10),62,74,51,39,24,49,,82,66,25,19,8,6,0.6,0.5
2025-03-31T2200,1781A,123.9483,47.3227,齐齐哈尔市,农牧车辆厂,,49,46,45,34,23,50,,88,72,25,15,7,6,0.4,0.4
2025-03-31T2200,1783A,123.945,47.2988,齐齐哈尔市,市环境监测站,,40,37,43,28,27,63,,88,78,10,13,3,4,0.4,0.5
2025-03-31T2200,3662A,123.6333,47.2075,齐齐哈尔市,富区青少年活动中心,,,142,68,,34,38,,74,59,28,18,12,12,1.0,0.7
2025-03-31T2200,2591A,107.9783,26.5747,黔东南苗族侗族自治州,市环境监测站,,31,31,24,20,16,84,,93,89,9,8,5,4,0.3,0.3
2025-03-31T2200,2881A,107.8908,26.5311,黔东南苗族侗族自治州,凯里学院,,27,27,26,16,15,80,,93,88,3,3,2,2,0.4,0.4
2025-03-31T2200,2593A,107.5228,26.2403,黔南布依族苗族自治州,小围寨,,31,31,26,19,15,72,,101,91,10,7,6,4,0.3,0.3
2025-03-31T2200,3538A,107.5175,26.2978,黔南布依族苗族自治州,沙坝,,39,39,32,22,17,72,,99,89,12,9,9,7,0.6,0.5
2025-03-31T2200,2589A,104.9022,25.0925,黔西南布依族苗族自治州,场坝街,颗粒物(PM10),54,58,37,35,23,54,,55,55,14,12,15,7,0.2,0.2
2025-03-31T2200,2590A,104.8811,25.0992,黔西南布依族苗族自治州,坪东大道,细颗粒物(PM2.5),63,,32,45,24,57,,54,54,13,14,4,3,0.3,0.3
2025-03-31T2200,2502A,108.6236,21.9667,钦州市,市环保站,,44,44,28,27,11,50,,66,64,16,13,7,7,0.5,0.6
2025-03-31T2200,2503A,108.6549,21.9481,钦州市,沙埠小学,,39,39,25,26,13,48,,67,64,18,15,8,6,0.5,0.4
2025-03-31T2200,2504A,108.5989,21.7431,钦州市,港区一小,,27,27,30,14,11,62,,63,63,14,17,8,8,0.6,0.6
2025-03-31T2200,3404A,108.5959,21.9633,钦州市,北职校,,32,31,24,22,15,56,,66,65,14,10,9,7,0.6,0.6
2025-03-31T2200,1043A,119.7493,40.0116,秦皇岛市,第一关,颗粒物(PM10),89,128,101,65,48,73,,97,95,32,40,5,9,0.4,0.7
2025-03-31T2200,1044A,119.5897,39.9499,秦皇岛市,监测站,颗粒物(PM10),91,131,85,56,38,51,,106,96,53,27,3,10,0.6,0.7
2025-03-31T2200,1046A,119.5251,39.9041,秦皇岛市,建设大厦,颗粒物(PM10),97,143,93,59,42,62,,107,100,51,31,5,11,0.7,0.7
2025-03-31T2200,3132A,119.610547,39.943889,秦皇岛市,文明里,颗粒物(PM10),103,155,90,50,35,64,,98,92,40,31,4,10,0.5,0.7
2025-03-31T2200,4198A,119.5090,39.8253,秦皇岛市,北戴河轮滑馆,颗粒物(PM10),76,101,85,40,36,88,,101,100,20,24,5,10,0.4,0.6
2025-03-31T2200,1307A,120.6659,36.2403,青岛市,仰口,颗粒物(PM10),60,70,74,40,39,133,,142,142,12,12,5,6,0.6,0.6
2025-03-31T2200,1310A,120.4134,36.0658,青岛市,市南区东部子站,颗粒物(PM10),53,56,88,31,42,104,,111,111,16,24,6,8,0.4,0.7
2025-03-31T2200,1311A,120.3664,36.1032,青岛市,四方区子站,颗粒物(PM10),54,58,83,34,48,107,,121,121,18,28,6,8,0.5,0.7
2025-03-31T2200,1312A,120.2994,36.054,青岛市,市南区西部子站,颗粒物(PM10),53,56,86,27,37,80,,86,86,33,36,7,9,0.6,0.7
2025-03-31T2200,1313A,120.4581,36.0858,青岛市,崂山区子站,颗粒物(PM10),57,63,84,24,39,108,,120,120,17,23,7,9,0.5,0.7
2025-03-31T2200,1315A,120.3999,36.3083,青岛市,城阳区子站,颗粒物(PM10),60,70,85,34,37,104,,120,117,25,29,9,11,0.6,0.6
2025-03-31T2200,1966A,120.0405,35.8735,青岛市,黄岛区4号,颗粒物(PM10),57,63,79,27,36,115,,124,124,21,28,8,11,0.6,0.8
2025-03-31T2200,3362A,120.5014,36.4034,青岛市,即墨2号,颗粒物(PM10),70,90,100,42,46,116,,129,127,20,26,8,9,0.6,0.7
2025-03-31T2200,3642A,120.3503,36.0736,青岛市,市北区南部,颗粒物(PM10),67,83,87,24,42,85,,95,95,13,22,5,8,0.7,0.8
2025-03-31T2200,3643A,120.3948,36.1805,青岛市,李沧区北部,细颗粒物(PM2.5),55,58,85,39,44,100,,117,,30,35,7,9,0.6,0.7
2025-03-31T2200,4290A,120.1969,35.9546,青岛市,珠江路669号,颗粒物(PM10),54,58,81,37,46,110,,123,123,17,26,6,9,0.7,0.9
2025-03-31T2200,1702A,113.0426,23.691,清远市,环保大楼,,13,11,6,6,4,39,,35,35,8,8,11,11,0.7,0.7
2025-03-31T2200,1703A,113.0208,23.7106,清远市,凤城街办,,14,14,6,9,3,36,,33,33,12,13,6,6,0.4,0.4
2025-03-31T2200,3025A,113.0477,23.6344,清远市,技师学院,,23,23,10,14,6,31,,34,31,17,15,6,6,0.6,0.5
2025-03-31T2200,3318A,112.9903,23.7403,清远市,清新太和,,18,18,6,10,3,31,,35,31,21,16,7,6,0.6,0.5
2025-03-31T2200,3455A,113.076,23.7198,清远市,清城东城,,15,14,6,10,4,36,,33,33,12,13,7,7,0.6,0.6
2025-03-31T2200,2661A,107.6325,35.7357,庆阳市,庆阳五中,颗粒物(PM10),55,59,72,22,26,89,,108,99,14,12,3,4,0.2,0.3
2025-03-31T2200,2662A,107.6364,35.7067,庆阳市,市环保局,颗粒物(PM10),54,57,72,14,22,90,,106,99,12,13,3,6,0.3,0.4
2025-03-31T2200,1916A,103.7897,25.5035,曲靖市,环境监测站,,37,37,31,19,17,28,,30,29,20,19,6,4,0.5,0.5
2025-03-31T2200,1917A,103.8,25.5364,曲靖市,烟厂办公区,,29,27,23,20,12,27,,32,32,20,17,8,4,0.7,0.6
2025-03-31T2200,3376A,103.7947,25.462,曲靖市,南苑二区,,31,31,30,14,20,30,,34,34,22,19,7,7,0.7,0.6
2025-03-31T2200,3377A,103.7444,25.5261,曲靖市,曲靖师范学院,,26,22,27,18,17,30,,33,32,19,18,4,5,0.5,0.5
2025-03-31T2200,1264A,118.8692,28.9398,衢州市,环保大楼,,37,37,47,21,31,38,,81,67,39,21,3,3,0.3,0.4
2025-03-31T2200,1265A,118.8709,28.9666,衢州市,实验学校,,40,40,47,23,33,44,,82,69,36,23,4,5,0.4,0.4
2025-03-31T2200,1266A,118.8621,28.9808,衢州市,衢州学院,,43,43,50,20,32,32,,74,61,43,25,4,4,0.2,0.5
