timepoint,stationcode,longitude,latitude,area,positionname,primarypollutant,aqi,pm10,pm10_24h,pm2_5,pm2_5_24h,o3,o3_24h,o3_8h,o3_8h_24h,no2,no2_24h,so2,so2_24h,co,co_24h
2023-07-24T20:00:00,1001A,116.3621,39.8784,北京市,万寿西宫,细颗粒物(PM2.5),64,61,50,46,32,206,151,194,190,20,30,3,3,0.7,0.6
2023-07-24T20:00:00,1002A,116.2202,40.2915,北京市,定陵,颗粒物(PM10),55,60,42,32,26,248,144,203,203,12,10,3,3,0.7,0.6
2023-07-24T20:00:00,1003A,116.4174,39.9289,北京市,东四,臭氧1小时,77,65,58,39,34,213,181,194,194,13,22,1,1,0.7,0.7
2023-07-24T20:00:00,1004A,116.4072,39.8863,北京市,天坛,"细颗粒物(PM2.5),臭氧1小时",54,56,54,38,31,199,163,184,183,17,25,1,2,0.6,0.6
2023-07-24T20:00:00,1005A,116.462,39.9365,北京市,农展馆,臭氧1小时,82,61,57,34,32,216,185,196,196,11,21,3,3,0.7,0.6
2023-07-24T20:00:00,1006A,116.3392,39.9295,北京市,官园,臭氧1小时,100,69,55,50,35,227,200,215,215,14,21,3,2,0.4,0.4
2023-07-24T20:00:00,1007A,116.2878,39.9611,北京市,海淀万柳,臭氧1小时,74,68,52,41,30,207,179,194,194,14,23,1,1,0.7,0.6
2023-07-24T20:00:00,1008A,116.6636,40.135,北京市,顺义新城,臭氧1小时,57,57,47,35,26,191,165,178,178,12,15,3,3,0.6,0.5
2023-07-24T20:00:00,1009A,116.6275,40.3275,北京市,怀柔镇,臭氧1小时,89,64,43,40,24,234,191,204,204,15,14,3,3,0.9,0.8
2023-07-24T20:00:00,1010A,116.2296,40.217,北京市,昌平镇,臭氧1小时,58,61,44,34,29,244,166,205,205,13,18,3,3,0.8,0.6
2023-07-24T20:00:00,1011A,116.3966,39.9821,北京市,奥体中心,臭氧1小时,77,62,47,38,27,201,181,185,185,19,30,3,3,0.6,0.6
2023-07-24T20:00:00,1012A,116.184,39.9136,北京市,古城,细颗粒物(PM2.5),63,69,49,45,31,196,160,181,180,13,20,3,3,0.8,0.6
2023-07-24T20:00:00,1015A,117.1444,39.1661,天津市,勤俭道,臭氧1小时,101,93,52,62,33,210,202,200,199,15,14,6,6,0.9,0.8
2023-07-24T20:00:00,1017A,117.237,39.1082,天津市,大直沽八号路,细颗粒物(PM2.5),104,111,67,78,51,188,172,180,179,24,21,2,2,0.8,0.7
2023-07-24T20:00:00,1018A,117.202,39.0927,天津市,前进道,细颗粒物(PM2.5),103,126,55,77,36,197,182,182,182,21,20,4,4,0.9,0.8
2023-07-24T20:00:00,1019A,117.1837,39.2133,天津市,淮河道,臭氧1小时,102,91,57,64,37,213,203,203,202,21,22,8,6,0.9,0.9
2023-07-24T20:00:00,1021A,117.307,39.0877,天津市,跃进路,细颗粒物(PM2.5),103,97,68,77,43,219,177,204,199,25,23,5,6,0.9,0.9
2023-07-24T20:00:00,1023A,117.707,39.0343,天津市,第四大街,颗粒物(PM10),59,68,61,35,33,176,105,161,152,52,38,4,5,0.9,1
2023-07-24T20:00:00,1024A,117.457,38.8394,天津市,永明路,颗粒物(PM10),57,64,57,35,35,224,147,208,204,11,15,4,4,0.7,0.9
2023-07-24T20:00:00,1026A,117.764,39.1587,天津市,汉北路,,43,40,53,30,41,206,123,183,178,24,14,3,3,0.7,0.8
2023-07-24T20:00:00,1027A,117.157,38.9194,天津市,团泊洼,颗粒物(PM10),73,95,61,52,37,184,167,166,166,18,22,2,2,0.7,0.7
2023-07-24T20:00:00,1029A,114.4422,38.0444,石家庄市,职工医院,颗粒物(PM10),58,66,49,18,23,248,148,226,222,2,17,3,4,0.4,0.7
2023-07-24T20:00:00,1030A,114.6063,38.0266,石家庄市,高新区,,49,0,54,0,25,236,156,214,209,6,20,1,2,0.4,0.5
2023-07-24T20:00:00,1031A,114.4898,38.1328,石家庄市,西北水源,颗粒物(PM10),79,108,50,35,24,258,152,225,220,6,18,1,2,0.4,0.5
2023-07-24T20:00:00,1032A,114.4586,38.0058,石家庄市,西南高教,细颗粒物(PM2.5),64,73,46,46,22,240,152,220,217,2,17,3,3,0.4,0.7
2023-07-24T20:00:00,1033A,114.5331,38.0178,石家庄市,世纪公园,,50,0,49,35,21,226,158,211,208,8,18,2,4,0.4,0.6
2023-07-24T20:00:00,1034A,114.509,38.0457,石家庄市,人民会堂,细颗粒物(PM2.5),77,95,56,56,22,241,142,224,219,6,20,1,2,0.3,0.5
2023-07-24T20:00:00,1035A,114.3524,37.8911,石家庄市,封龙山,,,107,60,,26,239,159,212,212,10,11,6,8,0.9,1.1
2023-07-24T20:00:00,1037A,118.131,39.6363,唐山市,雷达站,"颗粒物(PM10),细颗粒物(PM2.5)",52,54,60,36,33,201,149,188,184,16,17,2,6,0.6,1
2023-07-24T20:00:00,1038A,118.1725,39.6334,唐山市,物资局,细颗粒物(PM2.5),59,54,58,42,34,188,143,179,176,14,17,2,7,0.8,1.2
2023-07-24T20:00:00,1040A,118.1705,39.6506,唐山市,十二中,细颗粒物(PM2.5),62,52,57,44,43,188,137,180,175,16,16,1,5,0.7,1.2
2023-07-24T20:00:00,1041A,118.1869,39.622,唐山市,小山,,45,42,52,30,30,196,141,184,180,10,13,3,7,0.7,1.2
2023-07-24T20:00:00,1042A,119.5134,39.8207,秦皇岛市,北戴河环保局,,43,30,26,23,12,144,135,131,131,11,18,4,5,0.6,0.6
2023-07-24T20:00:00,1043A,119.7493,40.0116,秦皇岛市,第一关,细颗粒物(PM2.5),58,44,42,41,20,142,126,137,133,5,36,2,2,0.4,0.5
2023-07-24T20:00:00,1044A,119.5897,39.9499,秦皇岛市,监测站,,43,39,32,30,16,141,131,133,133,12,25,5,6,0.4,0.5
2023-07-24T20:00:00,1046A,119.5251,39.9041,秦皇岛市,建设大厦,,45,37,36,28,16,170,144,151,150,13,29,5,5,0.6,0.6
2023-07-24T20:00:00,1048A,114.5302,36.6116,邯郸市,东污水处理厂,,38,29,48,9,35,166,120,149,140,9,15,3,4,0.4,0.5
2023-07-24T20:00:00,1049A,114.4918,36.5713,邯郸市,矿院,,40,19,51,7,37,170,128,149,138,7,15,4,8,0.5,0.7
2023-07-24T20:00:00,1050A,114.484,36.6133,邯郸市,丛台公园,,37,34,58,10,32,173,117,151,137,12,12,5,5,0.6,0.7
2023-07-24T20:00:00,1051A,115.493,38.8632,保定市,游泳馆,,46,46,38,20,22,180,118,160,157,4,12,9,8,0.2,0.3
2023-07-24T20:00:00,1052A,115.5213,38.8959,保定市,华电二区,,47,47,45,30,17,210,124,180,165,6,11,2,5,0.4,0.3
2023-07-24T20:00:00,1053A,115.4713,38.9108,保定市,接待中心,颗粒物(PM10),51,51,46,30,18,183,142,169,168,3,12,3,3,0.5,0.5
2023-07-24T20:00:00,1054A,115.4612,38.8416,保定市,地表水厂,颗粒物(PM10),66,81,57,34,23,184,136,166,164,11,25,8,8,0.5,0.5
2023-07-24T20:00:00,1056A,115.5086,38.8639,保定市,监测站,颗粒物(PM10),66,82,43,47,30,210,140,189,185,20,17,8,7,0.4,0.5
2023-07-24T20:00:00,1057A,114.8883,40.8336,张家口市,人民公园,,38,37,23,11,7,170,119,158,156,20,8,1,3,0.4,0.3
2023-07-24T20:00:00,1059A,114.8687,40.8042,张家口市,五金库,颗粒物(PM10),78,106,32,25,15,166,123,152,150,25,13,3,8,0.5,0.4
2023-07-24T20:00:00,1060A,114.8902,40.762,张家口市,世纪豪园,,47,43,30,14,18,169,150,159,159,18,14,5,5,0.3,0.2
2023-07-24T20:00:00,1061A,114.8916,40.8661,张家口市,北泵房,,49,49,30,26,14,177,102,160,155,21,10,10,9,0.8,0.7
2023-07-24T20:00:00,1062A,117.9531,40.9081,承德市,铁路,颗粒物(PM10),63,76,33,34,16,149,148,136,136,18,16,6,6,0.7,0.4
2023-07-24T20:00:00,1063A,117.9392,40.9763,承德市,中国银行,颗粒物(PM10),57,64,34,31,14,164,158,150,150,16,14,7,6,0.7,0.4
2023-07-24T20:00:00,1064A,117.9503,40.928,承德市,开发区,,48,46,28,31,14,158,153,138,138,22,17,5,5,0.8,0.4
2023-07-24T20:00:00,1065A,117.8051,40.9655,承德市,文化中心,颗粒物(PM10),51,51,28,22,12,149,101,137,135,18,13,9,8,0.6,0.4
2023-07-24T20:00:00,1066A,117.9268,41.0026,承德市,离宫,颗粒物(PM10),52,54,35,25,14,123,41,107,94,9,10,4,4,0.6,0.4
2023-07-24T20:00:00,1067A,116.6708,39.5111,廊坊市,药材公司,颗粒物(PM10),71,92,72,42,39,194,161,184,184,12,18,1,2,0.6,0.6
2023-07-24T20:00:00,1068A,116.7214,39.5589,廊坊市,开发区,细颗粒物(PM2.5),72,61,51,52,37,188,169,183,183,9,14,1,2,0.7,0.6
2023-07-24T20:00:00,1070A,116.7244,39.5269,廊坊市,北华航天学院,细颗粒物(PM2.5),65,74,64,47,42,198,164,191,189,13,19,4,5,0.5,0.5
2023-07-24T20:00:00,1071A,116.8842,38.2991,沧州市,沧县城建局,,46,46,56,24,31,159,133,155,151,18,24,5,5,0.5,0.6
2023-07-24T20:00:00,1072A,116.8584,38.3254,沧州市,电视转播站,,44,38,49,19,32,156,138,152,150,12,19,7,7,0.4,0.5
2023-07-24T20:00:00,1073A,116.8709,38.3228,沧州市,市环保局,,48,48,53,28,31,143,131,140,139,14,25,3,4,0.3,0.3
2023-07-24T20:00:00,1074A,115.6838,37.7541,衡水市,电机北厂,细颗粒物(PM2.5),64,58,56,46,33,185,169,171,171,6,11,5,5,0.7,0.6
2023-07-24T20:00:00,1075A,115.6303,37.7316,衡水市,市监测站,颗粒物(PM10),54,57,58,33,31,171,149,164,162,13,16,8,7,0.8,0.7
2023-07-24T20:00:00,1077A,114.4704,37.0886,邢台市,达活泉,,44,44,66,8,30,223,112,187,169,16,22,11,9,0.9,0.9
2023-07-24T20:00:00,1078A,114.5062,37.0349,邢台市,邢师高专,,50,50,64,16,33,193,109,163,154,22,36,11,6,0.8,0.6
2023-07-24T20:00:00,1079A,114.5237,37.0851,邢台市,路桥公司,,49,49,66,14,36,205,118,169,161,17,23,8,4,0.7,0.7
2023-07-24T20:00:00,1080A,114.4725,37.0719,邢台市,市环保局,,36,34,70,12,36,231,113,181,170,23,27,9,6,0.7,0.8
2023-07-24T20:00:00,1081A,112.522,37.8873,太原市,尖草坪,颗粒物(PM10),57,64,46,20,17,251,160,203,196,14,23,5,8,0.5,0.6
2023-07-24T20:00:00,1083A,112.434,38.0108,太原市,上兰,,41,41,29,22,11,240,123,188,180,12,7,5,6,0.5,0.5
2023-07-24T20:00:00,1084A,112.469,37.7124,太原市,晋源,颗粒物(PM10),54,57,44,20,18,250,140,204,194,13,25,4,9,0.5,0.7
2023-07-24T20:00:00,1085A,112.5583,37.7394,太原市,小店,,48,39,52,22,22,234,151,203,194,11,28,3,7,0.4,0.6
2023-07-24T20:00:00,1086A,112.5369,37.8692,太原市,桃园,颗粒物(PM10),54,57,42,19,17,250,153,206,198,14,26,4,9,0.5,0.8
2023-07-24T20:00:00,1087A,112.57,37.8195,太原市,坞城,,49,49,45,22,21,242,147,210,198,14,24,3,7,0.5,0.7
2023-07-24T20:00:00,1088A,112.549,37.9854,太原市,南寨,,45,34,56,16,21,249,144,195,189,23,31,6,7,0.5,0.7
2023-07-24T20:00:00,1090A,111.6507,40.7517,呼和浩特市,呼市一监,,42,39,28,17,13,196,134,170,167,23,20,6,8,0.6,0.5
2023-07-24T20:00:00,1091A,111.6572,40.8033,呼和浩特市,小召,,44,44,32,21,12,182,114,158,153,43,28,11,11,1.0,0.7
2023-07-24T20:00:00,1094A,111.7516,40.8369,呼和浩特市,如意水处理厂,颗粒物(PM10),51,51,30,19,7,198,136,170,160,30,29,9,9,0.6,0.5
2023-07-24T20:00:00,1095A,111.7276,40.8062,呼和浩特市,二十九中,,48,48,31,21,14,195,140,168,165,26,26,8,7,0.7,0.6
2023-07-24T20:00:00,1096A,111.5512,40.7866,呼和浩特市,工大金川校区,颗粒物(PM10),57,64,39,20,12,178,96,152,142,46,30,6,8,0.7,0.5
2023-07-24T20:00:00,1097A,111.717,40.7612,呼和浩特市,化肥厂生活区,颗粒物(PM10),54,57,34,18,11,176,125,160,158,32,24,5,6,0.7,0.6
2023-07-24T20:00:00,1098A,123.6836,41.9339,沈阳市,森林路,,21,21,28,12,18,143,48,123,110,7,11,3,4,0.8,0.9
2023-07-24T20:00:00,1099A,123.505,41.7406,沈阳市,浑南东路,,38,25,35,16,18,201,119,168,162,20,31,3,7,0.8,1
2023-07-24T20:00:00,1100A,123.4231,41.6989,沈阳市,新秀街,,34,18,31,14,13,180,106,156,148,21,29,5,10,0.6,1
2023-07-24T20:00:00,1102A,123.5903,41.8411,沈阳市,东陵路,,39,26,33,16,16,185,123,165,161,16,18,4,6,0.6,0.8
2023-07-24T20:00:00,1103A,123.4264,41.8467,沈阳市,陵东街,,31,22,24,14,17,152,97,137,133,15,16,5,5,0.7,0.9
2023-07-24T20:00:00,1104A,123.4114,41.7653,沈阳市,文化路,,34,23,36,14,19,182,108,158,152,24,23,6,9,0.7,1
2023-07-24T20:00:00,1105A,123.4678,41.7867,沈阳市,小河沿,,37,28,30,19,18,170,117,150,146,20,19,5,6,0.8,1
2023-07-24T20:00:00,1106A,123.4017,41.7972,沈阳市,太原街,,,17,28,14,21,178,112,158,153,,22,4,5,0.6,0.9
2023-07-24T20:00:00,1108A,123.3783,41.9228,沈阳市,京沈街,,43,43,31,15,17,171,108,151,143,16,15,7,8,0.6,0.7
2023-07-24T20:00:00,1109A,121.612,38.9741,大连市,甘井子,,38,30,33,26,30,120,84,113,104,27,23,4,5,0.6,0.6
2023-07-24T20:00:00,1110A,121.565,38.9511,大连市,周水子,细颗粒物(PM2.5),52,38,39,36,28,139,86,118,109,24,18,4,4,0.5,0.4
2023-07-24T20:00:00,1111A,121.5637,38.8845,大连市,星海三站,,,30,25,40,26,120,107,109,106,6,11,3,3,,0.6
2023-07-24T20:00:00,1112A,121.6302,38.9117,大连市,青泥洼桥,细颗粒物(PM2.5),53,41,28,37,24,122,106,112,109,9,10,4,5,0.9,0.9
2023-07-24T20:00:00,1113A,121.6251,38.8638,大连市,傅家庄,细颗粒物(PM2.5),55,34,30,39,27,129,107,111,104,8,7,7,7,0.6,0.6
2023-07-24T20:00:00,1114A,121.5213,38.8661,大连市,七贤岭,,48,31,24,33,25,139,112,127,120,7,7,5,5,0.4,0.4
2023-07-24T20:00:00,1115A,121.2529,38.8061,大连市,旅顺,,34,24,23,19,20,126,108,116,112,12,14,4,4,0.5,0.5
2023-07-24T20:00:00,1116A,121.7485,39.1311,大连市,金州,,49,35,28,34,23,135,100,130,123,7,11,8,9,0.7,0.8
2023-07-24T20:00:00,1117A,121.7811,39.0496,大连市,开发区,,45,32,30,31,27,123,98,108,102,10,20,6,5,0.7,0.8
2023-07-24T20:00:00,1118A,121.9762,39.0631,大连市,双D港,,36,34,32,25,24,120,90,112,106,12,14,6,6,0.5,0.6
2023-07-24T20:00:00,1119A,125.3325,43.9166,长春市,食品厂,,35,30,14,24,8,92,59,84,80,45,16,4,4,0.7,0.4
2023-07-24T20:00:00,1120A,125.2863,43.9027,长春市,客车厂,,26,24,11,18,8,97,67,90,87,35,12,4,4,0.7,0.5
2023-07-24T20:00:00,1121A,125.2841,43.8463,长春市,邮电学院,,26,26,12,13,4,106,30,97,86,18,9,4,4,0.5,0.4
2023-07-24T20:00:00,1122A,125.3716,43.8772,长春市,劳动公园,,24,20,10,9,3,107,74,99,96,22,9,5,5,0.5,0.4
2023-07-24T20:00:00,1123A,125.3297,43.8805,长春市,园林处,,26,21,17,12,4,107,82,96,94,23,14,3,3,0.6,0.4
2023-07-24T20:00:00,1124A,125.4605,43.79,长春市,净月潭,,22,18,9,10,4,104,69,94,88,7,5,3,3,0.4,0.3
2023-07-24T20:00:00,1125A,125.7194,43.515,长春市,甩湾子,,22,22,11,5,4,90,57,86,78,16,9,4,4,0.4,0.3
2023-07-24T20:00:00,1126A,125.3863,43.8447,长春市,经开区环卫处,,23,21,11,12,4,102,72,94,90,23,10,5,5,0.5,0.3
2023-07-24T20:00:00,1127A,125.245,43.7783,长春市,高新区管委会,,21,17,10,10,4,103,66,94,89,21,8,4,4,0.5,0.4
2023-07-24T20:00:00,1128A,125.1761,43.8325,长春市,岱山公园,细颗粒物(PM2.5),53,21,10,37,8,100,45,90,85,50,10,3,3,0.6,0.5
2023-07-24T20:00:00,1129A,126.5422,45.755,哈尔滨市,岭北,,20,10,5,4,3,87,62,74,74,9,6,7,8,0.6,0.6
2023-07-24T20:00:00,1130A,126.561,45.8167,哈尔滨市,松北商大,,18,18,9,6,3,66,36,49,48,16,6,5,5,0.6,0.4
2023-07-24T20:00:00,1131A,126.979,45.5419,哈尔滨市,阿城会宁,,29,29,10,14,4,77,46,67,65,17,7,7,7,0.7,0.5
2023-07-24T20:00:00,1132A,126.599,45.7222,哈尔滨市,南岗学府路,,27,27,16,11,5,74,52,62,62,7,3,3,4,0.6,0.7
2023-07-24T20:00:00,1133A,126.689,45.7733,哈尔滨市,太平宏伟公园,,,18,12,6,4,74,52,59,59,10,7,5,5,,0.2
2023-07-24T20:00:00,1134A,126.635,45.7667,哈尔滨市,道外承德广场,,25,25,9,4,3,79,51,60,60,15,13,5,5,0.6,0.5
2023-07-24T20:00:00,1135A,126.685,45.7319,哈尔滨市,香坊红旗大街,,36,24,10,25,6,72,59,66,66,12,10,5,5,0.6,0.5
2023-07-24T20:00:00,1136A,126.6411,45.7258,哈尔滨市,动力和平路,,,33,11,,,75,52,65,64,20,10,5,6,0.5,0.4
2023-07-24T20:00:00,1137A,126.593,45.7478,哈尔滨市,道里建国路,,15,15,11,6,5,78,42,56,55,25,15,5,5,0.7,0.7
2023-07-24T20:00:00,1138A,126.615,45.61,哈尔滨市,平房东轻厂,,17,17,8,5,3,77,39,62,60,28,7,5,4,0.3,0.3
2023-07-24T20:00:00,1139A,126.595,45.9855,哈尔滨市,呼兰师专,,12,8,9,4,2,71,37,51,50,11,8,9,10,0.4,0.4
2023-07-24T20:00:00,1140A,126.6206,45.6842,哈尔滨市,省农科院,,26,25,9,18,4,78,50,71,69,23,10,12,12,0.4,0.4
2023-07-24T20:00:00,1141A,121.4,31.238,上海市,普陀,,20,18,34,12,20,122,61,109,106,23,22,8,6,0.5,0.6
2023-07-24T20:00:00,1142A,121.478,31.2036,上海市,十五厂,,22,22,35,14,21,108,63,97,95,15,20,8,9,0.5,0.5
2023-07-24T20:00:00,1143A,121.467,31.3008,上海市,虹口,,22,17,33,12,20,140,69,112,110,16,18,6,8,0.5,0.6
2023-07-24T20:00:00,1144A,121.412,31.1654,上海市,徐汇上师大,,19,19,35,9,20,128,60,112,106,24,21,7,5,0.7,0.8
2023-07-24T20:00:00,1145A,121.536,31.2659,上海市,杨浦四漂,,23,16,34,13,21,122,73,106,105,9,15,5,6,0.6,0.7
2023-07-24T20:00:00,1147A,121.425,31.2261,上海市,静安监测站,,20,18,34,14,20,140,58,113,110,30,21,3,3,0.5,0.5
2023-07-24T20:00:00,1148A,121.703,31.1907,上海市,浦东川沙,,25,21,34,17,24,113,67,100,96,28,23,6,6,0.5,0.6
2023-07-24T20:00:00,1149A,121.533,31.2284,上海市,浦东新区监测站,,20,16,32,7,18,112,64,95,94,16,19,7,7,0.4,0.5
2023-07-24T20:00:00,1150A,121.577,31.2071,上海市,浦东张江,,21,16,33,14,23,114,66,97,94,21,25,5,5,0.5,0.6
2023-07-24T20:00:00,1151A,118.8086,32.1065,南京市,迈皋桥,,41,28,25,19,12,212,129,172,170,14,14,4,4,0.6,0.6
2023-07-24T20:00:00,1152A,118.7538,32.0551,南京市,草场门,,44,41,26,19,12,218,138,170,170,27,21,7,7,1.2,0.8
2023-07-24T20:00:00,1153A,118.7794,32.0745,南京市,山西路,颗粒物(PM10),54,58,34,27,12,235,134,190,188,29,15,7,5,1.8,0.5
2023-07-24T20:00:00,1154A,118.7752,32.0023,南京市,中华门,,44,44,31,22,14,193,70,152,144,54,17,6,8,1.5,1.2
2023-07-24T20:00:00,1155A,118.8109,32.0309,南京市,瑞金路,,48,48,34,29,16,206,109,159,157,31,20,5,4,1.5,1
2023-07-24T20:00:00,1156A,118.7997,32.0754,南京市,玄武湖,,39,34,29,23,13,209,124,171,169,24,14,14,10,1.3,0.8
2023-07-24T20:00:00,1157A,118.6414,32.0931,南京市,浦口,,49,3,30,12,13,189,156,162,162,9,13,4,5,0.4,0.3
2023-07-24T20:00:00,1158A,118.7356,31.9996,南京市,奥体中心,,42,36,32,29,19,202,115,159,157,21,20,6,11,0.7,0.8
2023-07-24T20:00:00,1159A,118.9125,32.1028,南京市,仙林大学城,,48,48,32,24,16,217,112,182,176,27,15,7,10,0.5,0.7
2023-07-24T20:00:00,1160A,120.561,31.2472,苏州市,上方山,,44,44,30,23,19,137,124,112,112,17,11,6,6,0.3,0.3
2023-07-24T20:00:00,1162A,120.591,31.3019,苏州市,彩香,颗粒物(PM10),51,52,32,35,21,167,131,139,139,13,12,8,7,0.6,0.6
2023-07-24T20:00:00,1163A,120.596,31.3264,苏州市,轧钢厂,,48,48,34,32,21,168,130,145,145,13,12,8,8,0.6,0.6
2023-07-24T20:00:00,1164A,120.613,31.2703,苏州市,吴中区,,47,47,34,27,21,176,122,147,147,18,22,8,8,0.5,0.5
2023-07-24T20:00:00,1165A,120.543,31.2994,苏州市,苏州新区,,46,46,30,21,19,141,128,125,125,18,10,7,8,0.6,0.7
2023-07-24T20:00:00,1166A,120.669,31.3097,苏州市,苏州工业园区,,46,46,35,28,22,168,116,140,140,12,15,8,8,0.6,0.6
2023-07-24T20:00:00,1167A,120.641,31.3708,苏州市,相城区,,43,38,28,30,23,168,122,148,148,18,22,5,4,0.6,0.6
2023-07-24T20:00:00,1168A,120.9098,31.9663,南通市,狼山街道,,35,35,34,5,24,219,111,177,170,29,26,8,8,0.6,0.7
2023-07-24T20:00:00,1169A,120.86,32.0005,南通市,虹桥,,42,37,30,27,29,188,133,173,170,23,30,9,9,0.8,0.9
2023-07-24T20:00:00,1170A,120.87,32.02,南通市,城中,,44,30,35,19,26,184,139,172,169,15,21,6,7,0.6,0.7
2023-07-24T20:00:00,1171A,120.94,31.93,南通市,星湖花园,,31,31,35,19,23,211,94,175,163,36,25,6,6,0.6,0.8
2023-07-24T20:00:00,1172A,120.81,32.0417,南通市,紫琅学院,,50,34,36,20,20,198,159,170,170,21,32,6,6,0.6,0.7
2023-07-24T20:00:00,1173A,119.176,34.5885,连云港市,市环境监测站,,45,39,30,19,15,181,143,171,170,14,11,4,5,0.3,0.2
2023-07-24T20:00:00,1177A,117.179,34.2761,徐州市,黄河新村,颗粒物(PM10),51,51,38,33,21,186,134,160,159,12,12,6,6,0.7,0.7
2023-07-24T20:00:00,1178A,117.1918,34.2384,徐州市,淮塔,,50,48,36,35,20,174,120,160,156,10,13,7,7,0.7,0.5
2023-07-24T20:00:00,1180A,117.256,34.2153,徐州市,新城区,颗粒物(PM10),55,59,45,25,19,182,129,166,157,15,12,6,6,0.5,0.4
2023-07-24T20:00:00,1181A,117.244,34.2911,徐州市,桃园路,,44,44,31,25,19,204,128,157,150,11,19,8,8,0.5,0.4
2023-07-24T20:00:00,1182A,117.2933,34.2778,徐州市,农科院,,42,41,31,29,20,174,118,162,150,22,20,4,5,0.5,0.5
2023-07-24T20:00:00,1186A,119.389,32.3761,扬州市,邗江监测站,,44,44,41,26,22,187,86,158,151,38,20,5,5,0.7,0.5
2023-07-24T20:00:00,1188A,120.269,31.4867,无锡市,雪浪,,35,12,20,5,10,135,112,121,120,8,12,3,4,0.6,0.7
2023-07-24T20:00:00,1189A,120.275,31.6219,无锡市,黄巷,,29,20,29,7,16,152,91,140,135,19,20,5,5,0.7,0.8
2023-07-24T20:00:00,1190A,120.294,31.56,无锡市,曹张,,,,30,,18,46,,60,,,14,,4,,0.7
2023-07-24T20:00:00,1191A,120.242,31.5031,无锡市,漆塘,,29,9,18,9,13,145,92,128,121,7,10,4,6,0.5,0.6
2023-07-24T20:00:00,1192A,120.3489,31.5863,无锡市,东亭,,29,22,29,12,18,152,92,137,130,18,18,10,10,0.5,0.6
2023-07-24T20:00:00,1193A,120.354,31.5475,无锡市,旺庄,,28,22,23,12,13,137,88,122,116,15,13,5,6,0.5,0.6
2023-07-24T20:00:00,1194A,120.245,31.5631,无锡市,荣巷,,30,17,22,7,16,140,94,124,119,9,9,8,9,0.4,0.5
2023-07-24T20:00:00,1195A,120.299,31.6817,无锡市,堰桥,,32,29,26,9,14,176,102,145,142,27,18,6,7,0.7,0.8
2023-07-24T20:00:00,1196A,119.9633,31.762,常州市,市监测站,,42,22,24,18,12,139,134,125,125,12,12,6,6,0.6,0.7
2023-07-24T20:00:00,1200A,119.9468,31.7069,常州市,武进监测站,,40,23,25,17,14,149,126,128,128,7,8,5,7,0.5,0.6
2023-07-24T20:00:00,1201A,119.9255,31.9087,常州市,安家,,30,22,21,21,16,132,73,124,119,28,13,4,4,0.7,0.7
2023-07-24T20:00:00,1203A,119.6707,32.1875,镇江市,新区办事处,颗粒物(PM10),56,61,31,23,19,141,45,125,117,104,17,2,3,0.8,0.7
2023-07-24T20:00:00,1204A,119.4974,32.1968,镇江市,职教中心,,47,36,30,22,18,160,149,151,151,13,10,1,3,0.6,0.6
2023-07-24T20:00:00,1205A,119.4303,32.1328,镇江市,丹徒区监测站,,46,46,37,22,22,158,114,144,142,21,13,4,5,0.7,0.7
2023-07-24T20:00:00,1206A,119.905,32.4878,泰州市,公园路,,32,24,32,22,23,195,94,169,164,17,18,7,8,0.5,0.6
2023-07-24T20:00:00,1207A,119.9189,32.4625,泰州市,莲花,,47,15,31,24,22,187,148,168,168,11,15,6,7,0.6,0.6
2023-07-24T20:00:00,1209A,119.888,32.4639,泰州市,留学生创业园,,44,44,37,24,23,181,100,168,163,16,17,8,8,0.8,0.8
2023-07-24T20:00:00,1210A,119.036,33.5981,淮安市,钵池山,,37,36,29,23,18,164,116,145,143,11,12,5,6,0.7,0.7
2023-07-24T20:00:00,1211A,119.007,33.575,淮安市,北京南路,,39,39,31,22,18,168,123,147,146,15,17,7,8,0.9,0.9
2023-07-24T20:00:00,1212A,118.989,33.6067,淮安市,市监测站,,40,39,34,22,15,168,126,150,150,14,14,4,7,0.8,0.9
2023-07-24T20:00:00,1213A,119.135,33.5039,淮安市,楚州区监测站,,44,44,33,20,15,142,103,130,128,10,12,6,6,0.9,0.8
2023-07-24T20:00:00,1214A,119.0186,33.6297,淮安市,淮阴区监测站,,43,39,32,30,21,171,123,153,151,12,16,7,8,0.6,0.7
2023-07-24T20:00:00,1215A,120.118,33.4022,盐城市,盐城电厂,,,17,40,,23,142,131,131,131,7,7,4,5,0.5,0.6
2023-07-24T20:00:00,1216A,120.156,33.3942,盐城市,市监测站,,38,22,32,10,17,154,119,130,128,15,8,2,3,0.4,0.5
2023-07-24T20:00:00,1218A,120.2144,33.38,盐城市,开发区管委会,,36,23,34,15,23,136,114,112,112,10,9,3,4,0.5,0.6
2023-07-24T20:00:00,1220A,118.293,33.9528,宿迁市,宿迁学院,,,,23,,18,144,,144,144,,11,,6,,0.6
2023-07-24T20:00:00,1221A,118.2442,33.9592,宿迁市,宿迁中学,,43,43,26,27,17,153,133,145,144,17,12,6,6,0.6,0.5
2023-07-24T20:00:00,1223A,120.2072,30.2111,杭州市,滨江,,37,37,31,19,15,150,91,123,123,14,16,6,6,0.8,0.8
2023-07-24T20:00:00,1224A,120.0633,30.2747,杭州市,西溪,,46,46,29,29,13,160,82,124,123,12,12,4,4,0.7,0.7
2023-07-24T20:00:00,1226A,120.3461,30.3153,杭州市,下沙,,39,39,35,25,20,192,72,141,140,34,20,4,4,0.5,0.5
2023-07-24T20:00:00,1227A,120.1269,30.2456,杭州市,卧龙桥,,34,34,27,22,16,177,48,143,136,20,12,5,5,0.8,0.6
2023-07-24T20:00:00,1228A,120.1903,30.2692,杭州市,浙江农大,,35,31,22,21,15,191,112,145,145,18,15,6,7,0.8,0.7
2023-07-24T20:00:00,1230A,120.1197,30.3119,杭州市,和睦小学,,36,36,24,25,15,178,95,139,139,23,15,6,6,0.7,0.7
2023-07-24T20:00:00,1231A,120.3019,30.4183,杭州市,临平镇,,41,41,34,27,17,202,75,152,150,24,17,5,4,0.5,0.5
2023-07-24T20:00:00,1232A,120.2697,30.1819,杭州市,城厢镇,,43,40,36,30,23,148,84,124,123,16,18,5,6,0.6,0.6
2023-07-24T20:00:00,1233A,120.0883,30.1808,杭州市,云栖,,40,40,34,18,13,147,52,127,120,13,11,4,4,0.7,0.6
2023-07-24T20:00:00,1234A,121.8358,29.911,宁波市,区环保大楼,,22,19,25,15,18,74,30,53,33,32,28,3,3,0.6,0.6
2023-07-24T20:00:00,1235A,121.56,29.82,宁波市,万里学院,,25,25,38,12,22,64,35,45,39,28,24,4,4,0.6,0.7
2023-07-24T20:00:00,1236A,121.713,29.9572,宁波市,龙赛医院,,23,23,28,15,17,65,18,58,35,43,28,7,7,0.5,0.5
2023-07-24T20:00:00,1239A,121.633,29.7733,宁波市,钱湖水厂,,18,18,32,7,16,75,24,58,44,8,7,2,3,0.5,0.5
2023-07-24T20:00:00,1240A,121.5856,29.8635,宁波市,太古小学,,18,18,28,10,19,51,31,41,35,27,24,4,4,0.7,0.7
2023-07-24T20:00:00,1241A,121.524,29.8674,宁波市,市环境监测中心,,23,23,34,12,17,67,34,48,43,24,20,5,4,0.5,0.5
2023-07-24T20:00:00,1242A,120.634,28.0089,温州市,瓯海,,25,25,35,9,18,105,50,76,67,17,25,5,5,0.5,0.6
2023-07-24T20:00:00,1243A,120.6748,27.9939,温州市,南浦,,27,27,32,14,18,116,64,75,68,10,15,7,6,0.3,0.4
2023-07-24T20:00:00,1244A,120.76,27.9747,温州市,龙湾,,22,19,32,6,15,90,70,62,60,7,22,6,6,0.5,0.5
2023-07-24T20:00:00,1245A,120.6709,28.0167,温州市,市站,,24,24,36,6,18,93,47,56,52,21,22,5,5,0.4,0.5
2023-07-24T20:00:00,1247A,120.6053,29.9928,绍兴市,城东开发委,,23,23,28,11,16,99,61,79,76,9,15,5,5,0.5,0.6
2023-07-24T20:00:00,1250A,120.0751,30.8669,湖州市,城西水厂,,48,38,24,33,16,160,141,143,143,25,22,2,4,0.6,0.6
2023-07-24T20:00:00,1252A,120.7436,30.778,嘉兴市,清河小学,颗粒物(PM10),53,55,41,28,19,145,114,120,120,15,20,6,7,0.5,0.6
2023-07-24T20:00:00,1253A,120.726,30.7478,嘉兴市,嘉兴学院,,40,36,32,28,23,149,108,122,122,15,22,2,3,0.5,0.6
2023-07-24T20:00:00,1255A,121.273,28.6459,台州市,黄岩环保大楼,,18,18,23,8,13,109,40,98,58,12,10,3,3,0.4,0.7
2023-07-24T20:00:00,1256A,121.419,28.6542,台州市,台州环保大楼,,25,25,27,12,14,104,38,85,52,6,9,4,3,0.4,0.4
2023-07-24T20:00:00,1257A,121.377,28.5773,台州市,路桥田洋王,,20,17,42,14,14,118,37,92,50,15,12,2,3,0.5,0.5
2023-07-24T20:00:00,1258A,122.122,30.0203,舟山市,定海檀枫,,14,14,24,8,13,62,21,49,25,22,22,6,6,0.2,0.3
2023-07-24T20:00:00,1259A,122.3094,29.9558,舟山市,普陀东港,,14,14,19,5,8,80,20,58,22,21,14,4,4,0.3,0.3
2023-07-24T20:00:00,1260A,122.19,29.9944,舟山市,临城新区,,15,15,22,5,9,79,30,63,25,12,18,2,2,0.2,0.3
2023-07-24T20:00:00,1262A,119.647,29.077,金华市,十五中,,24,24,32,9,13,135,49,88,82,17,17,2,3,0.4,0.4
2023-07-24T20:00:00,1263A,119.686,29.1029,金华市,监测站,,18,18,29,10,16,115,50,87,81,18,16,5,5,0.4,0.5
2023-07-24T20:00:00,1264A,118.8692,28.9398,衢州市,环保大楼,,32,32,29,20,14,114,78,95,95,15,16,4,6,0.5,0.5
2023-07-24T20:00:00,1265A,118.8709,28.9666,衢州市,实验学校,,41,41,29,17,15,105,72,94,92,15,16,8,7,0.4,0.3
2023-07-24T20:00:00,1266A,118.8621,28.9808,衢州市,衢州学院,,37,37,28,20,15,116,65,100,97,18,16,3,4,0.3,0.3
2023-07-24T20:00:00,1267A,119.914,28.4514,丽水市,监测站大楼,,15,4,27,7,7,103,46,77,70,18,19,5,6,0.6,0.6
2023-07-24T20:00:00,1268A,119.93,28.4586,丽水市,莲都小学,,21,21,30,10,11,94,51,74,69,13,19,5,5,0.6,0.5
2023-07-24T20:00:00,1269A,119.879,28.4231,丽水市,余庄前,,26,26,33,11,12,102,22,68,60,18,14,4,4,0.6,0.6
2023-07-24T20:00:00,1270A,117.1959,31.7848,合肥市,明珠广场,,36,36,28,22,16,137,69,107,94,30,20,5,5,0.4,0.4
2023-07-24T20:00:00,1271A,117.3072,31.8764,合肥市,三里街,,32,29,30,22,17,115,86,98,92,17,17,3,4,0.4,0.4
2023-07-24T20:00:00,1272A,117.2588,31.8707,合肥市,琥珀山庄,,34,34,29,19,18,128,91,115,108,11,9,4,4,0.5,0.5
2023-07-24T20:00:00,1273A,117.1604,31.9052,合肥市,董铺水库,,30,27,22,12,11,135,93,114,110,9,9,4,4,0.4,0.3
2023-07-24T20:00:00,1274A,117.25,31.8571,合肥市,长江中路,,36,36,31,20,17,130,78,111,101,20,12,5,5,0.5,0.4
2023-07-24T20:00:00,1275A,117.266,31.9436,合肥市,庐阳区,,41,41,33,24,20,141,80,118,105,21,17,5,5,0.4,0.5
2023-07-24T20:00:00,1276A,117.336,31.8586,合肥市,瑶海区,,41,41,36,17,13,110,75,93,86,16,12,7,8,0.5,0.5
2023-07-24T20:00:00,1277A,117.3027,31.7964,合肥市,包河区,,41,41,29,17,14,115,82,97,89,19,16,5,6,0.4,0.4
2023-07-24T20:00:00,1278A,117.2776,31.7385,合肥市,滨湖新区,,32,32,24,14,11,126,100,102,101,5,8,6,5,0.4,0.4
2023-07-24T20:00:00,1279A,117.1318,31.8403,合肥市,高新区,,39,39,28,23,16,129,68,108,101,26,13,6,8,0.4,0.3
2023-07-24T20:00:00,1280A,119.3903,26.0543,福州市,鼓山,,,17,22,13,13,,,,,2,9,2,3,,
2023-07-24T20:00:00,1282A,119.2681,26.0504,福州市,师大,,36,36,36,16,13,161,91,134,129,12,13,5,5,0.4,0.4
2023-07-24T20:00:00,1283A,119.2984,26.1028,福州市,五四北路,,43,32,36,30,17,174,101,134,132,9,13,3,3,0.5,0.4
2023-07-24T20:00:00,1284A,119.2648,26.0768,福州市,杨桥西路,,33,33,40,22,18,163,97,132,128,9,14,3,3,0.5,0.4
2023-07-24T20:00:00,1285A,119.317,26.0746,福州市,紫阳,,36,36,37,25,15,150,94,125,122,8,14,3,4,0.5,0.4
2023-07-24T20:00:00,1286A,118.1608,24.8169,厦门市,溪东,,,9,25,18,17,,,,,12,10,2,1,,
2023-07-24T20:00:00,1287A,118.1514,24.4767,厦门市,洪文,,23,23,17,14,5,92,23,62,56,13,12,2,3,0.2,0.2
2023-07-24T20:00:00,1288A,118.0661,24.4444,厦门市,鼓浪屿,,22,22,18,7,6,58,26,47,43,7,8,1,3,0.6,0.6
2023-07-24T20:00:00,1290A,115.8931,28.6843,南昌市,省外办,,44,44,28,22,17,160,116,134,134,16,14,8,9,0.6,0.6
2023-07-24T20:00:00,1291A,115.8886,28.7003,南昌市,省林业公司,,36,36,20,22,17,164,111,138,138,21,19,5,7,0.6,0.5
2023-07-24T20:00:00,1292A,115.8126,28.7442,南昌市,林科所,,34,29,22,22,14,154,108,136,134,27,24,8,8,0.7,0.7
2023-07-24T20:00:00,1294A,115.8518,28.687,南昌市,建工学校,,38,38,30,25,13,162,112,138,138,23,15,4,5,0.6,0.6
2023-07-24T20:00:00,1295A,115.8921,28.6424,南昌市,象湖,,33,17,20,16,17,156,105,138,137,19,16,4,7,0.6,0.6
2023-07-24T20:00:00,1296A,115.7423,28.7996,南昌市,武术学校,,28,28,19,9,14,139,57,100,97,2,2,4,5,0.3,0.3
2023-07-24T20:00:00,1298A,115.9314,28.6842,南昌市,省站,颗粒物(PM10),54,57,31,26,19,144,106,136,134,11,10,7,11,0.6,0.5
2023-07-24T20:00:00,1299A,116.9862,36.6114,济南市,科干所,臭氧1小时,58,51,34,29,21,208,166,189,188,12,14,5,6,0.5,0.4
2023-07-24T20:00:00,1300A,116.9376,36.665,济南市,农科所,,48,46,36,27,14,254,151,200,194,18,15,6,6,0.3,0.3
2023-07-24T20:00:00,1301A,117.1265,36.6734,济南市,开发区,颗粒物(PM10),53,56,40,29,19,226,157,196,193,12,30,4,4,0.7,0.5
2023-07-24T20:00:00,1303A,117.0624,36.6868,济南市,省种子仓库,臭氧1小时,64,51,44,27,19,244,171,220,218,9,30,4,5,0.8,0.6
2023-07-24T20:00:00,1304A,116.9489,36.6447,济南市,机床二厂,臭氧1小时,58,49,42,32,18,264,166,219,213,15,21,7,7,0.6,0.6
2023-07-24T20:00:00,1305A,117.0495,36.663,济南市,市监测站,臭氧1小时,73,54,37,34,20,241,178,199,199,12,27,5,5,0.6,0.5
2023-07-24T20:00:00,1306A,116.7675,36.5484,济南市,长清党校,,49,49,34,27,21,189,155,175,173,13,14,7,6,0.6,0.5
2023-07-24T20:00:00,1307A,120.6659,36.2403,青岛市,仰口,,,29,38,27,34,112,52,97,89,,9,5,5,0.6,0.6
2023-07-24T20:00:00,1310A,120.4134,36.0658,青岛市,市南区东部子站,,44,22,36,17,24,160,138,144,143,15,12,4,6,0.8,0.7
2023-07-24T20:00:00,1311A,120.3664,36.1032,青岛市,四方区子站,,44,34,42,17,28,153,140,147,146,18,16,5,5,1.0,0.8
2023-07-24T20:00:00,1312A,120.2994,36.054,青岛市,市南区西部子站,,40,34,51,27,30,133,126,118,118,17,28,7,8,1.1,0.9
2023-07-24T20:00:00,1313A,120.4581,36.0858,青岛市,崂山区子站,,45,34,39,22,28,166,141,143,143,14,12,7,7,1.1,0.7
2023-07-24T20:00:00,1314A,120.1983,35.9608,青岛市,黄岛区子站,臭氧1小时,72,19,31,24,25,189,177,169,169,15,16,7,7,1.0,1
2023-07-24T20:00:00,1315A,120.3999,36.3083,青岛市,城阳区子站,,42,39,57,15,31,231,133,199,189,24,25,5,5,0.6,0.8
2023-07-24T20:00:00,1316A,113.69031,34.76122,郑州市,烟厂,,46,31,56,20,23,203,145,183,182,16,18,1,3,0.6,0.6
2023-07-24T20:00:00,1317A,113.65724,34.77134,郑州市,郑纺机,,,47,53,,20,184,137,172,172,8,14,1,1,0.5,0.5
2023-07-24T20:00:00,1318A,113.67526,34.80246,郑州市,银行学校,,46,43,47,22,26,206,145,187,187,14,17,3,3,0.6,0.6
2023-07-24T20:00:00,1319A,113.56746,34.81334,郑州市,供水公司,颗粒物(PM10),69,87,56,19,22,192,142,176,174,22,20,2,2,0.5,0.5
2023-07-24T20:00:00,1320A,113.7329,34.7178,郑州市,经开区管委,,40,38,54,18,25,199,127,160,160,13,14,1,1,0.6,0.6
2023-07-24T20:00:00,1321A,113.73961,34.77172,郑州市,四十七中,,40,40,54,20,29,169,119,153,151,18,14,1,1,0.6,0.6
2023-07-24T20:00:00,1322A,113.60532,34.74838,郑州市,市监测站,,42,42,58,20,22,185,133,169,168,17,17,3,2,0.5,0.5
2023-07-24T20:00:00,1323A,113.64164,34.7525,郑州市,河医大,,47,47,55,19,22,175,135,163,163,10,13,3,3,0.4,0.5
2023-07-24T20:00:00,1324A,113.51488,34.91089,郑州市,岗李水库,颗粒物(PM10),60,69,62,17,26,201,92,173,165,21,20,3,3,1.4,0.8
2023-07-24T20:00:00,1325A,114.3677,30.5584,武汉市,东湖梨园,,39,39,34,22,16,145,112,129,129,15,14,6,6,0.7,0.8
2023-07-24T20:00:00,1326A,114.2529,30.558,武汉市,汉阳月湖,,45,45,33,14,13,118,105,113,113,24,20,6,8,0.6,0.7
2023-07-24T20:00:00,1327A,114.282,30.6189,武汉市,汉口花桥,颗粒物(PM10),51,51,40,24,18,150,128,142,142,20,20,7,7,0.7,0.8
2023-07-24T20:00:00,1328A,114.3025,30.5332,武汉市,武昌紫阳,,42,42,32,18,14,132,121,126,126,22,16,5,5,0.8,0.8
2023-07-24T20:00:00,1329A,114.3646,30.6217,武汉市,青山钢花,,50,50,43,29,21,162,137,152,152,16,14,8,9,0.6,0.6
2023-07-24T20:00:00,1330A,114.1566,30.4825,武汉市,沌口新区,,33,32,34,23,22,134,84,123,118,27,18,7,7,0.8,1
2023-07-24T20:00:00,1331A,114.3014,30.5944,武汉市,汉口江滩,,45,45,35,24,19,152,108,142,141,37,22,5,5,0.7,0.8
2023-07-24T20:00:00,1333A,114.135,30.6319,武汉市,吴家山,,47,47,33,24,16,159,107,137,137,24,18,5,6,0.7,0.7
2023-07-24T20:00:00,1334A,113.8454,30.2917,武汉市,沉湖七壕,,36,36,26,18,11,117,60,101,97,20,22,6,5,0.8,0.7
2023-07-24T20:00:00,1335A,113.0833,28.2325,长沙市,经开区环保局,,33,33,28,22,22,158,59,124,112,27,11,5,5,0.6,0.5
2023-07-24T20:00:00,1336A,112.8872,28.2189,长沙市,高开区环保局,,42,42,28,20,19,114,46,96,81,24,10,5,4,0.7,0.6
2023-07-24T20:00:00,1337A,113.0792,28.2053,长沙市,马坡岭,颗粒物(PM10),52,54,32,32,25,142,37,117,94,48,16,4,5,0.8,0.5
2023-07-24T20:00:00,1338A,112.9394,28.19,长沙市,湖南师范大学,,38,34,32,26,26,119,51,98,77,9,14,2,2,0.7,0.8
2023-07-24T20:00:00,1339A,113.0178,28.1322,长沙市,雨花区环保局,,36,36,35,22,21,130,64,111,99,13,9,4,4,0.4,0.5
2023-07-24T20:00:00,1340A,112.9792,28.2597,长沙市,伍家岭,颗粒物(PM10),51,51,31,26,20,141,50,113,95,25,15,3,4,0.2,0.2
2023-07-24T20:00:00,1341A,113.0014,28.1944,长沙市,火车新站,,28,25,22,19,20,119,53,96,84,15,10,4,4,0.8,0.8
2023-07-24T20:00:00,1342A,112.9844,28.1178,长沙市,天心区环保局,,36,31,22,25,19,126,61,113,96,19,9,1,3,0.5,0.6
2023-07-24T20:00:00,1343A,112.8908,28.1308,长沙市,湖南中医药大学,,30,29,28,21,18,126,51,108,86,15,8,2,3,0.7,0.8
2023-07-24T20:00:00,1344A,112.9581,28.3611,长沙市,沙坪,颗粒物(PM10),51,51,34,17,20,140,61,112,95,9,8,5,5,0.4,0.5
2023-07-24T20:00:00,1345A,113.2347,23.1423,广州市,广雅中学,,,,,,,,,,,,,,,,
2023-07-24T20:00:00,1346A,113.2612,23.105,广州市,市五中,,37,37,21,18,10,208,96,161,161,18,10,7,7,0.6,0.5
2023-07-24T20:00:00,1348A,113.3478,23.0916,广州市,广东商学院,,37,37,20,14,8,137,66,102,101,21,17,4,4,0.5,0.5
2023-07-24T20:00:00,1349A,113.4332,23.1047,广州市,市八十六中,,25,25,20,7,6,137,28,95,90,30,17,4,4,0.4,0.4
2023-07-24T20:00:00,1350A,113.3505,22.9483,广州市,番禺中学,,28,28,16,10,7,148,50,112,108,26,15,8,8,0.6,0.5
2023-07-24T20:00:00,1351A,113.2146,23.3916,广州市,花都师范,,44,44,27,19,13,230,80,182,180,40,20,7,6,0.6,0.5
2023-07-24T20:00:00,1352A,113.2597,23.1331,广州市,市监测站,,30,30,18,15,9,164,84,137,137,26,18,6,6,0.7,0.7
2023-07-24T20:00:00,1353A,113.5618,23.312,广州市,九龙镇镇龙,颗粒物(PM10),61,72,32,30,13,181,62,132,132,49,28,7,6,0.6,0.5
2023-07-24T20:00:00,1354A,113.2765,23.1544,广州市,麓湖,,29,29,18,16,6,155,88,120,120,18,15,6,6,0.6,0.6
2023-07-24T20:00:00,1355A,113.443,23.3035,广州市,帽峰山森林公园,,30,30,19,8,7,155,55,121,120,39,18,9,7,0.3,0.3
2023-07-24T20:00:00,1356A,114.1063,22.5545,深圳市,通心岭子站,,15,15,11,8,4,67,41,53,53,15,10,4,4,0.6,0.5
2023-07-24T20:00:00,1357A,114.117,22.5625,深圳市,洪湖,,19,19,12,8,5,66,48,57,57,16,10,5,5,0.6,0.6
2023-07-24T20:00:00,1358A,113.987,22.5417,深圳市,华侨城,,13,13,12,0,0,53,35,47,46,20,14,6,6,0.6,0.6
2023-07-24T20:00:00,1359A,113.9181,22.5171,深圳市,南海子站,,34,34,31,17,9,48,31,37,36,29,24,5,5,0.6,0.6
2023-07-24T20:00:00,1360A,114.2458,22.5689,深圳市,盐田,,12,8,10,2,1,55,38,49,48,9,11,4,4,0.5,0.5
2023-07-24T20:00:00,1361A,114.2283,22.7244,深圳市,龙岗,,18,18,15,5,4,113,44,75,71,13,11,6,6,0.7,0.8
2023-07-24T20:00:00,1363A,114.494,22.5422,深圳市,南澳,,11,11,10,1,3,50,33,43,41,11,7,5,5,0.6,0.6
2023-07-24T20:00:00,1364A,114.41,22.6342,深圳市,葵涌,,13,13,13,5,2,48,30,42,41,13,9,7,6,0.5,0.5
2023-07-24T20:00:00,1365A,114.297,22.5978,深圳市,梅沙,,17,17,13,5,3,51,34,48,47,12,9,5,5,0.7,0.6
2023-07-24T20:00:00,1366A,114.0678,22.738,深圳市,观澜,,28,28,25,12,9,113,33,70,65,31,24,6,7,0.6,0.6
2023-07-24T20:00:00,1367A,113.5814,22.2618,珠海市,吉大,,16,7,9,3,4,62,49,54,54,10,8,4,4,0.3,0.3
2023-07-24T20:00:00,1368A,113.4881,22.2335,珠海市,前山,,14,11,9,9,5,62,43,51,51,7,10,6,6,0.3,0.3
2023-07-24T20:00:00,1369A,113.628,22.4251,珠海市,唐家,,17,8,9,2,4,60,52,55,55,6,5,4,4,0.2,0.2
2023-07-24T20:00:00,1370A,113.299,22.2281,珠海市,斗门,,13,5,8,7,5,70,41,60,54,7,6,4,4,0.5,0.5
2023-07-24T20:00:00,1371A,113.1294,23.0067,佛山市,湾梁,,37,31,20,14,10,180,116,150,150,11,10,8,8,0.4,0.4
2023-07-24T20:00:00,1372A,113.1083,23.0478,佛山市,华材职中,,42,36,17,20,10,186,134,162,162,15,12,6,7,0.6,0.5
2023-07-24T20:00:00,1373A,113.144,23.0453,佛山市,南海气象局,,37,37,22,17,11,144,96,121,121,21,16,4,7,0.5,0.5
2023-07-24T20:00:00,1374A,113.2881,22.8094,佛山市,顺德苏岗,,18,9,14,12,10,138,54,113,110,16,12,6,6,0.6,0.6
2023-07-24T20:00:00,1376A,112.8383,22.8678,佛山市,高明孔堂,,,,17,10,8,104,92,94,94,12,8,5,5,0.6,0.5
2023-07-24T20:00:00,1377A,112.8836,23.1588,佛山市,三水监测站,,30,19,22,16,13,158,96,130,130,18,21,5,6,0.4,0.5
2023-07-24T20:00:00,1378A,112.867,23.185,佛山市,三水云东海,,28,28,24,13,13,161,83,130,129,18,17,4,7,0.5,0.5
2023-07-24T20:00:00,1379A,113.3769,22.5211,中山市,华柏园,,14,14,11,5,4,105,43,71,69,15,9,4,5,0.5,0.4
2023-07-24T20:00:00,1380A,113.3881,22.5497,中山市,张溪,,21,21,15,3,7,101,37,77,74,12,7,6,6,0.4,0.4
2023-07-24T20:00:00,1381A,113.4075,22.5111,中山市,紫马岭,,16,11,12,11,6,94,34,69,67,14,7,6,6,0.3,0.3
2023-07-24T20:00:00,1382A,113.4411,22.4853,中山市,长江旅游区,,13,13,12,8,4,82,35,68,65,10,4,10,10,0.3,0.3
2023-07-24T20:00:00,1383A,113.1064,22.6058,江门市,北街,,17,12,17,10,8,108,54,91,89,12,9,5,6,0.5,0.5
2023-07-24T20:00:00,1384A,113.0731,22.5835,江门市,西区,,26,26,21,12,9,121,56,100,97,16,14,7,7,0.5,0.5
2023-07-24T20:00:00,1385A,113.0219,22.5311,江门市,圭峰西,,15,13,18,8,7,108,45,92,88,15,12,5,4,0.6,0.6
2023-07-24T20:00:00,1386A,113.0828,22.5947,江门市,东湖,,21,21,19,9,5,118,62,103,100,11,10,5,7,0.4,0.5
2023-07-24T20:00:00,1389A,113.7547,23.0494,东莞市,莞城梨川,,17,17,19,7,9,182,46,128,122,15,18,9,9,0.7,0.7
2023-07-24T20:00:00,1390A,113.7944,23.0128,东莞市,东城石井,,19,19,16,7,7,174,40,132,123,19,17,8,8,0.6,0.6
2023-07-24T20:00:00,1391A,113.7383,22.9658,东莞市,南城西平,,16,16,18,2,7,149,40,112,106,16,21,4,5,0.5,0.5
2023-07-24T20:00:00,1392A,114.4183,23.0528,惠州市,河南岸金山湖子站,,,,21,,7,126,49,93,91,15,11,2,4,,0.6
2023-07-24T20:00:00,1393A,114.4053,23.0822,惠州市,下埔横江三路子站,,16,10,17,5,5,127,51,97,94,11,9,4,5,0.6,0.6
2023-07-24T20:00:00,1394A,114.4103,23.1142,惠州市,江北云山西路子站,,18,17,17,10,8,137,55,104,101,12,7,4,4,0.5,0.4
2023-07-24T20:00:00,1395A,114.4645,22.7833,惠州市,惠阳区承修路船湖子站,,12,11,15,8,8,63,22,54,50,15,10,5,5,0.7,0.6
2023-07-24T20:00:00,1396A,114.5317,22.7422,惠州市,大亚湾管委会子站,,35,35,16,8,8,40,14,35,30,25,15,2,2,0.4,0.4
2023-07-24T20:00:00,1397A,112.4267,23.0706,肇庆市,睦岗子站,,36,36,22,18,12,107,80,100,100,21,11,10,12,0.6,0.5
2023-07-24T20:00:00,1398A,112.4645,23.0475,肇庆市,城中子站,,31,11,19,11,13,97,97,95,95,10,16,14,15,0.4,0.4
2023-07-24T20:00:00,1399A,112.5544,23.1522,肇庆市,坑口子站,细颗粒物(PM2.5),52,45,14,36,9,106,72,94,94,14,14,7,8,0.4,0.3
2023-07-24T20:00:00,1400A,112.4753,23.1,肇庆市,七星岩子站,,28,18,18,8,10,99,87,92,92,11,14,11,13,0.4,0.4
2023-07-24T20:00:00,1401A,108.3103,22.7881,南宁市,二十一中,,28,15,22,12,10,107,88,96,96,9,8,5,6,0.7,0.7
2023-07-24T20:00:00,1402A,108.3141,22.8528,南宁市,北湖,,26,25,22,18,13,116,73,106,105,10,8,5,6,0.7,0.6
2023-07-24T20:00:00,1403A,108.3206,22.8225,南宁市,市监测站,,23,13,24,14,11,114,73,106,103,22,12,6,7,0.6,0.6
2023-07-24T20:00:00,1404A,108.3829,22.8037,南宁市,大自然花园,,22,18,19,11,10,101,68,89,88,10,10,5,6,0.6,0.7
2023-07-24T20:00:00,1405A,108.4394,22.7904,南宁市,仙葫,,29,25,22,20,14,95,74,84,82,10,12,5,6,0.5,0.6
2023-07-24T20:00:00,1406A,108.2397,22.8467,南宁市,区农职院,,28,28,25,10,12,117,86,105,104,16,16,6,8,0.6,0.7
2023-07-24T20:00:00,1407A,108.3275,22.735,南宁市,英华嘉园,,29,29,24,18,11,83,63,77,77,25,14,5,6,0.7,0.6
2023-07-24T20:00:00,1408A,108.2257,22.7757,南宁市,沙井镇街道办,,36,36,28,18,13,103,68,89,87,19,18,4,5,0.6,0.6
2023-07-24T20:00:00,1409A,110.576,19.9507,海口市,东寨港,,,,,,,,,,,,,,,,
2023-07-24T20:00:00,1410A,110.3232,20.0574,海口市,海南大学,,15,15,13,9,6,66,35,54,50,5,8,5,5,0.4,0.4
2023-07-24T20:00:00,1411A,110.283,20.0053,海口市,秀英海南医院,,13,13,15,8,7,74,31,61,56,12,14,5,5,0.4,0.4
2023-07-24T20:00:00,1412A,110.338,19.9969,海口市,海南师范大学,,12,12,14,8,7,69,33,59,54,6,7,6,7,0.4,0.4
2023-07-24T20:00:00,1413A,110.33,20.0356,海口市,龙华路环保局宿舍,,12,12,12,8,6,64,32,54,49,8,7,6,6,0.3,0.3
2023-07-24T20:00:00,1414A,106.3787,29.8279,重庆市,缙云山,,30,15,15,6,11,116,96,108,88,5,9,8,10,0.2,0.3
2023-07-24T20:00:00,1416A,106.4213,29.8253,重庆市,天生,,20,20,28,14,18,83,51,65,59,18,21,5,6,1.1,1
2023-07-24T20:00:00,1417A,106.6263,29.7228,重庆市,两路,,28,16,22,14,18,110,41,90,80,56,32,8,10,1.2,1
2023-07-24T20:00:00,1418A,106.2953,29.5983,重庆市,虎溪,,20,17,30,5,19,114,44,82,70,40,33,4,5,0.4,0.5
2023-07-24T20:00:00,1419A,106.5777,29.5102,重庆市,南坪,,31,31,34,16,16,110,45,75,65,40,25,6,11,0.5,0.5
2023-07-24T20:00:00,1420A,106.6556,29.6277,重庆市,唐家沱,,23,19,29,11,17,119,40,78,63,46,42,6,8,0.6,0.7
2023-07-24T20:00:00,1421A,106.6349,29.4906,重庆市,茶园,,28,25,38,10,14,153,64,113,104,56,41,5,8,0.8,0.8
2023-07-24T20:00:00,1422A,106.3754,29.4572,重庆市,白市驿,,13,9,24,9,15,118,40,66,60,21,21,5,8,0.7,0.8
2023-07-24T20:00:00,1425A,106.6205,29.7166,重庆市,空港,,24,24,29,7,12,131,55,103,93,45,26,5,9,0.8,0.8
2023-07-24T20:00:00,1426A,106.4782,29.4875,重庆市,新山村,,30,29,36,17,22,102,23,70,59,60,32,6,9,0.8,0.7
2023-07-24T20:00:00,1427A,106.5616,29.6453,重庆市,礼嘉,,31,20,33,20,17,126,36,90,79,62,42,6,11,0.8,0.8
2023-07-24T20:00:00,1428A,106.4522,29.7091,重庆市,蔡家,,26,26,39,7,19,115,67,90,82,30,26,4,6,0.7,0.8
2023-07-24T20:00:00,1429A,106.5093,29.3917,重庆市,鱼新街,,46,40,38,32,20,119,16,55,47,56,43,4,6,1.1,1.1
2023-07-24T20:00:00,1431A,103.9728,30.7236,成都市,金泉两河,,38,37,36,26,20,138,90,115,109,6,6,3,3,0.3,0.3
2023-07-24T20:00:00,1432A,104.176,30.6872,成都市,十里店,,35,20,25,24,17,117,102,101,101,7,9,3,4,0.7,0.6
2023-07-24T20:00:00,1433A,104.079,30.5706,成都市,三瓦窑,,36,23,29,14,17,133,113,111,100,14,15,1,1,0.4,0.4
2023-07-24T20:00:00,1434A,104.1114,30.63,成都市,沙河铺,,34,34,32,11,17,104,82,102,84,8,11,1,1,0.5,0.6
2023-07-24T20:00:00,1437A,104.0786,30.6531,成都市,君平街,,35,35,32,20,25,143,111,114,114,13,12,2,2,0.6,0.7
2023-07-24T20:00:00,1438A,103.613,31.0283,成都市,灵岩寺,,41,19,18,13,13,194,130,138,120,3,5,1,6,0.5,0.5
2023-07-24T20:00:00,1439A,106.6899,26.5998,贵阳市,马鞍山,,22,22,21,7,7,84,25,67,50,11,9,1,3,0.6,0.6
2023-07-24T20:00:00,1440A,106.6971,26.5694,贵阳市,市环保站,,34,34,24,23,20,75,32,62,50,36,22,4,4,0.4,0.3
2023-07-24T20:00:00,1441A,106.6243,26.6266,贵阳市,鉴湖路,,33,31,24,23,14,70,47,65,62,19,10,4,4,0.4,0.4
2023-07-24T20:00:00,1442A,106.7487,26.6343,贵阳市,燕子冲,,25,19,17,17,18,82,36,71,58,19,17,6,6,0.7,0.6
2023-07-24T20:00:00,1443A,106.6555,26.4365,贵阳市,碧云窝,,31,31,26,17,11,72,53,67,65,10,7,8,5,0.4,0.3
2023-07-24T20:00:00,1444A,106.694,26.5161,贵阳市,中院村,,27,27,30,12,14,68,45,61,57,16,16,6,6,0.4,0.5
2023-07-24T20:00:00,1445A,106.7109,26.6027,贵阳市,红边门,,41,41,33,24,21,74,32,61,53,35,21,8,7,0.6,0.5
2023-07-24T20:00:00,1446A,106.7164,26.5699,贵阳市,新华路,,32,31,26,22,16,82,45,71,63,24,18,6,5,0.3,0.3
2023-07-24T20:00:00,1447A,106.674,26.5424,贵阳市,太慈桥,,36,36,33,9,11,77,38,62,54,20,15,4,4,0.4,0.4
2023-07-24T20:00:00,1450A,102.8204,24.8886,昆明市,呈贡新区,,20,20,23,13,10,73,52,66,64,16,17,3,6,0.6,0.6
2023-07-24T20:00:00,1451A,102.6251,24.9608,昆明市,西山森林公园,,21,9,10,3,8,86,67,73,73,7,9,8,8,0.4,0.5
2023-07-24T20:00:00,1452A,102.7252,25.0902,昆明市,龙泉镇,,,,22,10,10,76,39,64,62,26,17,8,8,0.5,0.6
2023-07-24T20:00:00,1453A,102.7266,25.0375,昆明市,东风东路,,15,14,18,9,15,77,46,64,62,22,17,3,4,0.4,0.6
2023-07-24T20:00:00,1454A,102.6742,25.0669,昆明市,金鼎山,,25,25,23,12,13,74,37,63,61,26,14,3,3,0.7,0.7
2023-07-24T20:00:00,1455A,102.6644,25.0401,昆明市,碧鸡广场,,16,16,20,7,12,75,34,63,60,29,16,6,7,0.6,0.7
2023-07-24T20:00:00,1456A,91.1319,29.6514,拉萨市,八廓街,,,26,11,11,8,98,,90,90,14,12,7,6,0.2,0.2
2023-07-24T20:00:00,1457A,91.1221,29.6747,拉萨市,市环保局,,,14,8,4,6,84,53,74,72,14,13,6,6,,0.3
2023-07-24T20:00:00,1458A,91.0874,29.6475,拉萨市,区监测站,,16,10,8,6,6,90,50,86,76,15,16,8,8,0.3,0.3
2023-07-24T20:00:00,1459A,91.1774,29.6541,拉萨市,西藏大学,,21,8,8,6,6,87,66,82,80,7,9,10,10,0.2,0.2
2023-07-24T20:00:00,1460A,90.9798,29.6588,拉萨市,区辐射站,,18,18,11,6,6,98,52,98,73,14,13,8,9,0.2,0.2
2023-07-24T20:00:00,1461A,91.0834,29.6292,拉萨市,拉萨火车站,,19,9,11,5,6,88,59,81,76,6,11,10,10,0.2,0.3
2023-07-24T20:00:00,1462A,108.882,34.2749,西安市,高压开关厂,,33,29,54,12,23,218,103,157,155,20,31,7,9,0.4,0.6
2023-07-24T20:00:00,1463A,108.993,34.2629,西安市,兴庆小区,,30,23,48,11,19,202,96,142,138,8,21,5,6,0.4,0.6
2023-07-24T20:00:00,1464A,109.06,34.2572,西安市,纺织城,,31,29,54,13,22,202,99,137,131,11,33,3,5,0.3,0.5
2023-07-24T20:00:00,1465A,108.9356,34.2173,西安市,小寨,,39,39,52,9,18,221,90,146,144,8,18,6,7,0.3,0.5
2023-07-24T20:00:00,1466A,108.954,34.2713,西安市,市人民体育场,,30,23,51,14,21,206,94,148,146,13,26,6,7,0.4,0.6
2023-07-24T20:00:00,1467A,108.8922,34.2322,西安市,高新西区,,35,28,49,18,23,229,112,167,167,13,22,7,8,0.4,0.6
2023-07-24T20:00:00,1468A,108.935,34.3474,西安市,经开区,,33,33,50,9,20,186,96,138,136,10,33,2,4,0.2,0.4
2023-07-24T20:00:00,1469A,108.906,34.1546,西安市,长安区,,41,41,55,16,19,223,114,171,170,15,19,4,3,0.5,0.6
2023-07-24T20:00:00,1471A,109.2186,34.3731,西安市,临潼区,,42,42,44,15,21,164,120,139,138,13,21,6,7,0.5,0.6
2023-07-24T20:00:00,1472A,108.869,34.378,西安市,草滩,,42,42,53,6,13,176,106,148,143,27,37,9,11,0.4,0.5
2023-07-24T20:00:00,1473A,108.985,34.1978,西安市,曲江文化产业集团,,30,24,56,8,21,223,93,144,142,12,24,4,5,0.3,0.5
2023-07-24T20:00:00,1474A,109.051,34.3213,西安市,广运潭,,30,21,47,10,18,155,96,122,121,8,28,6,8,0.4,0.5
2023-07-24T20:00:00,1476A,103.631,36.1031,兰州市,兰炼宾馆,,47,42,33,26,15,187,150,175,175,14,18,8,9,0.1,0.3
2023-07-24T20:00:00,1477A,104.1373,35.9454,兰州市,榆中兰大校区,,,,,,,,,,,,,,,,
2023-07-24T20:00:00,1478A,103.8412,36.0726,兰州市,生物制品所,,40,23,45,19,21,174,125,152,151,30,29,6,9,0.3,0.7
2023-07-24T20:00:00,1479A,103.831,36.0464,兰州市,铁路设计院,,,30,39,22,20,174,125,151,149,,43,6,10,0.4,0.7
2023-07-24T20:00:00,1483A,101.524,36.6867,西宁市,第五水厂,,,,,,,,,,,,,,,,
2023-07-24T20:00:00,1484A,105.9512,38.6016,银川市,贺兰山马莲口,,50,30,20,11,8,195,160,170,170,13,11,5,5,0.5,0.5
2023-07-24T20:00:00,1488A,106.2328,38.4975,银川市,贺兰山东路,颗粒物(PM10),54,58,35,22,14,244,132,191,187,22,16,13,12,0.3,0.4
2023-07-24T20:00:00,1489A,106.1358,38.5036,银川市,学院路,,,36,33,14,14,197,134,176,173,18,18,14,17,,0.4
2023-07-24T20:00:00,1490A,87.5801,43.8303,乌鲁木齐市,监测站,,41,24,51,0,13,158,129,130,130,10,31,4,6,0.5,0.6
2023-07-24T20:00:00,1491A,87.6046,43.768,乌鲁木齐市,收费所,,40,29,46,12,18,147,127,132,132,14,36,15,12,0.3,0.4
2023-07-24T20:00:00,1492A,87.4754,43.9469,乌鲁木齐市,新疆农科院农场,,40,18,81,22,32,142,126,125,125,13,42,3,5,0.5,0.6
2023-07-24T20:00:00,1493A,87.5525,43.8711,乌鲁木齐市,铁路局,,41,28,52,9,15,155,130,131,131,9,33,2,5,0.1,0.3
2023-07-24T20:00:00,1494A,87.6432,43.831,乌鲁木齐市,三十一中学,,41,22,47,16,15,151,130,134,134,30,38,2,5,0.3,0.5
2023-07-24T20:00:00,1496A,87.7216,44.1747,乌鲁木齐市,米东区环保局,,43,22,57,5,20,145,137,133,133,3,24,6,7,0.2,0.3
2023-07-24T20:00:00,1508A,112.9433,27.8614,湘潭市,板塘,,47,47,37,27,22,100,56,91,82,18,13,9,8,0.8,0.8
2023-07-24T20:00:00,1511A,112.9118,27.8403,湘潭市,市监测站,,37,37,30,22,20,107,40,95,82,37,13,4,8,0.8,0.7
2023-07-24T20:00:00,1512A,112.8937,27.8728,湘潭市,江麓,颗粒物(PM10),54,57,34,21,20,110,49,98,88,22,13,11,13,0.3,0.4
2023-07-24T20:00:00,1513A,112.9227,27.8159,湘潭市,岳塘,,39,39,34,21,20,109,72,99,92,12,12,8,10,0.5,0.4
2023-07-24T20:00:00,1514A,112.9074,27.9119,湘潭市,科大,,36,36,36,23,25,126,58,104,92,27,10,5,6,0.4,0.4
2023-07-24T20:00:00,1515A,113.135,27.8244,株洲市,天台山庄,,38,38,33,26,24,107,71,96,91,7,6,3,4,0.5,0.6
2023-07-24T20:00:00,1518A,113.095,27.8867,株洲市,株冶医院,颗粒物(PM10),55,60,41,30,23,110,40,98,88,28,17,4,4,0.7,0.6
2023-07-24T20:00:00,1519A,113.167,27.8667,株洲市,市四中,,38,35,32,26,26,108,63,100,92,8,8,4,6,0.4,0.5
2023-07-24T20:00:00,1520A,113.143,27.8381,株洲市,火车站,,38,38,34,17,22,101,72,95,91,6,6,5,5,0.6,0.6
2023-07-24T20:00:00,1524A,113.13,27.8528,株洲市,市监测站,,41,41,36,22,24,111,73,100,95,9,9,2,6,0.7,0.8
2023-07-24T20:00:00,1552A,106.805,26.3003,贵阳市,桐木岭,,26,24,29,18,20,74,47,70,61,1,1,1,1,0.4,0.4
2023-07-24T20:00:00,1559A,113.251,27.8336,株洲市,大京风景区,,28,28,34,17,16,94,58,80,71,4,5,3,3,0.4,0.5
2023-07-24T20:00:00,1562A,113.0048,27.9153,湘潭市,昭山,,48,48,34,24,19,116,15,102,81,51,16,4,4,0.7,0.7
2023-07-24T20:00:00,1564A,112.4876,27.9164,湘潭市,韶山,颗粒物(PM10),52,54,33,15,14,87,15,66,47,7,7,7,7,0.5,0.5
2023-07-24T20:00:00,1585A,109.8756,40.6532,包头市,市环境监测站,颗粒物(PM10),70,90,43,13,15,206,142,178,177,15,27,9,23,0.4,0.6
2023-07-24T20:00:00,1587A,109.9991,40.5842,包头市,包头八中,颗粒物(PM10),81,112,51,20,14,207,146,174,174,15,25,8,22,0.4,0.6
2023-07-24T20:00:00,1588A,109.8538,40.6821,包头市,青山宾馆,颗粒物(PM10),65,80,40,27,14,217,138,179,177,14,25,8,19,0.6,1
2023-07-24T20:00:00,1589A,109.8642,40.6288,包头市,惠龙物流,颗粒物(PM10),66,82,53,21,16,196,145,168,168,13,23,7,21,0.3,0.5
2023-07-24T20:00:00,1590A,110.0377,40.5546,包头市,东河鸿龙湾,颗粒物(PM10),57,64,38,7,12,180,136,162,160,6,17,4,10,0.7,0.8
2023-07-24T20:00:00,1591A,110.0023,39.8129,鄂尔多斯市,综合楼,,37,14,47,7,11,146,118,140,138,26,31,5,16,0.6,0.7
2023-07-24T20:00:00,1592A,109.9486,39.8261,鄂尔多斯市,巴音孟克林场办事处,,35,24,43,12,15,155,111,148,144,32,24,6,18,0.6,0.5
2023-07-24T20:00:00,1593A,109.7736,39.5986,鄂尔多斯市,康泽苑,,42,19,30,2,5,144,133,140,140,12,18,8,9,0.4,0.5
2023-07-24T20:00:00,1594A,109.8119,39.5989,鄂尔多斯市,华泰汽车城,,40,22,35,5,10,138,128,135,134,14,23,5,6,0.4,0.5
2023-07-24T20:00:00,1595A,109.9734,39.7884,鄂尔多斯市,奥林花园,,33,27,41,9,14,144,105,138,134,23,26,6,9,0.8,0.9
2023-07-24T20:00:00,1597A,122.2703,40.7094,营口市,大庆路,,41,17,28,9,18,156,129,149,134,9,13,4,6,0.7,0.8
2023-07-24T20:00:00,1598A,122.2150,40.6511,营口市,镜湖西路,,41,22,27,10,19,149,129,140,131,10,11,4,5,0.6,0.7
2023-07-24T20:00:00,1599A,122.1658,40.6789,营口市,西炮台,,45,23,26,14,14,172,142,164,134,10,10,8,8,0.6,0.7
2023-07-24T20:00:00,1600A,124.3303,40.0625,丹东市,江湾东路,,39,32,19,27,16,109,109,105,105,8,8,3,5,0.7,0.8
2023-07-24T20:00:00,1601A,124.4256,40.1503,丹东市,临江后街,,44,44,23,19,12,110,105,105,104,5,5,5,6,0.8,0.7
2023-07-24T20:00:00,1602A,124.3933,40.1461,丹东市,元宝山,,38,38,20,22,12,107,98,102,100,7,8,6,6,0.6,0.6
2023-07-24T20:00:00,1603A,124.3633,40.1092,丹东市,民主桥,,32,28,19,15,9,106,101,102,100,5,5,4,5,0.7,0.7
2023-07-24T20:00:00,1604A,122.0303,41.1489,盘锦市,开发区,,30,19,25,10,14,141,96,135,127,24,24,2,3,0.9,1
2023-07-24T20:00:00,1605A,122.0485,41.0883,盘锦市,兴隆台,,29,20,22,10,14,145,90,130,123,26,20,4,4,0.6,0.7
2023-07-24T20:00:00,1606A,121.8297,41.1028,盘锦市,新生街道,,30,14,20,10,11,166,93,155,131,19,19,5,5,0.4,0.6
2023-07-24T20:00:00,1607A,120.9092,40.7136,葫芦岛市,龙港区,,41,36,38,18,32,136,131,131,129,5,19,5,10,0.3,0.5
2023-07-24T20:00:00,1608A,120.8392,40.7514,葫芦岛市,化工街,,37,24,46,24,27,146,116,135,130,5,30,5,13,0.6,0.8
2023-07-24T20:00:00,1609A,120.8341,40.7073,葫芦岛市,新区,,41,37,43,17,34,146,129,134,132,7,33,4,5,0.4,0.8
2023-07-24T20:00:00,1610A,120.8695,40.7677,葫芦岛市,东城区,,,,51,24,26,152,121,139,131,9,35,4,9,0.4,0.6
2023-07-24T20:00:00,1611A,118.5819,24.9117,泉州市,涂山街,,20,20,34,8,12,186,40,136,116,13,17,10,12,0.6,0.6
2023-07-24T20:00:00,1612A,118.5972,24.8978,泉州市,津头埔,,23,23,32,10,14,182,34,133,110,19,21,8,12,0.5,0.6
2023-07-24T20:00:00,1613A,118.6663,24.9424,泉州市,万安,,22,22,33,7,14,182,48,122,107,11,18,8,9,0.5,0.5
2023-07-24T20:00:00,1614A,118.6117,24.9604,泉州市,清源山,,,17,24,9,9,,,,,12,15,4,4,,
2023-07-24T20:00:00,1616A,117.6795,36.229,济南市,技术学院,臭氧1小时,57,41,35,25,17,219,165,202,198,10,25,6,9,0.7,1.1
2023-07-24T20:00:00,1618A,118.3429,35.0532,临沂市,沂河小区,颗粒物(PM10),53,56,49,31,30,206,131,192,184,19,19,4,7,0.4,0.4
2023-07-24T20:00:00,1619A,118.295,35.0583,临沂市,鲁南制药厂,颗粒物(PM10),52,53,50,25,25,259,152,227,215,13,19,3,5,0.9,1
2023-07-24T20:00:00,1620A,118.2794,34.9976,临沂市,新光毛纺厂,臭氧1小时,93,48,41,21,22,230,194,202,197,9,17,7,7,0.4,0.5
2023-07-24T20:00:00,1621A,118.3956,35.0888,临沂市,河东保险公司,,44,44,41,24,26,216,121,199,190,22,19,2,3,0.6,0.6
2023-07-24T20:00:00,1622A,116.3032,37.4674,德州市,儿童乐园,臭氧1小时,58,46,47,29,28,203,166,185,183,12,13,7,8,0.8,0.7
2023-07-24T20:00:00,1624A,116.2991,37.4451,德州市,监理站,颗粒物(PM10),54,57,47,29,30,186,153,169,168,19,18,8,10,0.6,0.6
2023-07-24T20:00:00,1625A,115.9848,36.4372,聊城市,区政府,臭氧1小时,60,55,38,28,21,187,168,180,180,11,12,8,10,0.8,0.6
2023-07-24T20:00:00,1628A,118.0062,37.3803,滨州市,市环保局,臭氧1小时,82,45,58,38,40,229,185,211,210,7,17,4,6,0.3,0.5
2023-07-24T20:00:00,1629A,118.0018,37.3617,滨州市,第二水厂,臭氧1小时,75,53,55,23,35,223,180,206,204,12,23,2,3,0.5,0.6
2023-07-24T20:00:00,1630A,117.9776,37.393,滨州市,北中新校,臭氧1小时,70,52,57,29,35,225,176,208,206,13,18,2,3,0.5,0.6
2023-07-24T20:00:00,1631A,118.0414,36.8103,淄博市,人民公园,臭氧1小时,87,51,49,36,28,323,189,279,275,28,33,14,13,0.4,0.6
2023-07-24T20:00:00,1633A,117.8525,36.4847,淄博市,双山,,47,38,28,24,15,208,148,183,180,18,15,8,8,0.8,0.8
2023-07-24T20:00:00,1634A,117.9592,36.6331,淄博市,气象站,臭氧1小时,64,39,30,29,21,225,171,197,194,15,15,13,10,0.5,0.3
2023-07-24T20:00:00,1635A,118.3092,36.8194,淄博市,莆田园,臭氧1小时,78,51,46,34,27,234,182,205,204,30,21,8,15,0.7,1.3
2023-07-24T20:00:00,1637A,117.558,34.8438,枣庄市,市中区政府,颗粒物(PM10),62,73,41,34,19,185,155,171,168,28,21,8,13,0.6,0.5
2023-07-24T20:00:00,1638A,117.2852,34.7837,枣庄市,薛城环保局,颗粒物(PM10),55,59,40,22,13,176,117,165,158,35,23,8,10,0.5,0.6
2023-07-24T20:00:00,1639A,117.5852,34.7745,枣庄市,峄城区政府,颗粒物(PM10),56,61,42,24,15,178,138,175,171,19,18,7,10,0.7,0.7
2023-07-24T20:00:00,1640A,117.7276,34.5578,枣庄市,台儿庄区环保局,颗粒物(PM10),53,56,35,27,15,164,83,147,138,50,16,9,9,0.8,0.6
2023-07-24T20:00:00,1641A,117.4518,35.0992,枣庄市,山亭区环保局,细颗粒物(PM2.5),102,97,41,76,24,184,144,173,171,17,14,11,8,0.4,0.3
2023-07-24T20:00:00,1642A,121.2514,37.5639,烟台市,开发区,,30,22,35,9,25,163,96,144,129,18,14,7,8,0.8,0.9
2023-07-24T20:00:00,1643A,121.3719,37.5433,烟台市,轴承厂,,31,29,43,15,27,170,99,151,139,2,7,2,4,0.3,0.4
2023-07-24T20:00:00,1644A,121.3181,37.5436,烟台市,西郊化工站,,31,31,43,17,31,162,90,152,136,17,17,32,6,0.5,0.5
2023-07-24T20:00:00,1645A,121.4478,37.4822,烟台市,莱山环保局,,30,24,33,18,24,173,93,152,140,11,12,3,5,0.6,0.6
2023-07-24T20:00:00,1646A,121.2611,37.4967,烟台市,福山环保局,,32,29,42,5,20,158,101,142,133,15,17,6,7,0.3,0.4
2023-07-24T20:00:00,1650A,119.1437,36.7023,潍坊市,环保局,臭氧1小时,68,34,37,24,27,275,174,238,219,11,17,10,10,0.5,0.7
2023-07-24T20:00:00,1653A,116.6251,35.4302,济宁市,火炬城,颗粒物(PM10),58,65,44,27,22,164,143,157,157,4,8,4,7,0.8,0.8
2023-07-24T20:00:00,1655A,116.5491,35.4042,济宁市,电化厂,,,,38,34,26,172,132,162,160,11,9,3,5,0.6,0.7
2023-07-24T20:00:00,1656A,117.1437,36.1937,泰安市,监测站,颗粒物(PM10),56,61,42,28,20,196,153,188,184,14,11,7,8,0.4,0.5
2023-07-24T20:00:00,1657A,117.0885,36.2017,泰安市,人口学校,,47,44,33,30,38,206,148,192,188,14,11,6,8,0.5,0.5
2023-07-24T20:00:00,1658A,117.1089,36.1758,泰安市,电力学校,颗粒物(PM10),53,56,43,28,20,209,146,194,188,12,12,7,9,0.5,0.8
2023-07-24T20:00:00,1659A,119.471,35.4209,日照市,监测站,,47,44,33,23,21,198,150,181,180,35,38,6,6,1.2,1.1
2023-07-24T20:00:00,1660A,119.523,35.4216,日照市,市政府广场,,50,24,36,20,19,197,158,177,177,16,20,9,10,1.0,1
2023-07-24T20:00:00,1661A,119.5587,35.4044,日照市,港务局,臭氧1小时,63,19,39,12,19,221,170,195,193,12,22,8,10,0.9,1.1
2023-07-24T20:00:00,1662A,122.1214,37.4236,威海市,华夏技校,,39,24,31,27,28,130,106,120,114,11,12,5,5,0.4,0.5
2023-07-24T20:00:00,1663A,122.0508,37.5236,威海市,山大分校,,35,24,35,17,24,185,111,149,136,4,6,4,4,0.4,0.5
2023-07-24T20:00:00,1664A,122.1067,37.5072,威海市,市监测站,,35,29,35,24,32,142,93,125,107,11,14,8,8,0.6,0.7
2023-07-24T20:00:00,1666A,118.6614,37.4309,东营市,市环保局,,46,34,41,31,34,215,145,190,187,7,10,8,15,0.3,0.4
2023-07-24T20:00:00,1669A,113.5824,24.7733,韶关市,市八中,,24,23,36,2,6,140,74,123,118,14,17,8,14,0.5,0.5
2023-07-24T20:00:00,1671A,113.5917,24.7972,韶关市,园林处,,26,7,31,0,17,136,83,124,120,10,14,10,16,0.6,0.6
2023-07-24T20:00:00,1672A,113.6735,24.7791,韶关市,韶关学院,,43,34,37,30,25,130,84,117,116,13,11,11,11,0.5,0.5
2023-07-24T20:00:00,1673A,113.5971,24.6863,韶关市,曲江监测站,,42,42,33,24,16,129,107,115,115,9,14,8,10,0.5,0.5
2023-07-24T20:00:00,1674A,116.6794,23.3667,汕头市,金平子站,,18,18,13,10,5,88,38,58,51,9,7,5,4,0.6,0.7
2023-07-24T20:00:00,1675A,116.7244,23.3633,汕头市,龙湖子站,,17,17,13,4,3,94,45,64,58,14,9,5,4,0.4,0.4
2023-07-24T20:00:00,1676A,116.7258,23.2775,汕头市,濠江子站,,16,10,16,9,4,61,50,48,47,8,8,8,8,0.6,0.6
2023-07-24T20:00:00,1677A,116.7519,23.4714,汕头市,澄海子站,,23,23,20,4,6,124,21,82,63,26,13,6,6,0.9,0.7
2023-07-24T20:00:00,1678A,116.6092,23.2539,汕头市,潮阳子站,,28,28,17,6,5,66,49,53,51,7,6,9,8,0.6,0.6
2023-07-24T20:00:00,1680A,110.3539,21.2706,湛江市,湛江影剧院,,23,18,20,16,9,104,47,87,82,10,8,6,9,0.5,0.6
2023-07-24T20:00:00,1681A,110.3928,21.2228,湛江市,市环境监测站,,14,13,15,8,8,75,43,65,60,6,8,6,8,0.5,0.6
2023-07-24T20:00:00,1682A,110.4019,21.1997,湛江市,环保局宿舍,,13,12,15,4,8,73,40,61,56,6,9,4,5,0.5,0.6
2023-07-24T20:00:00,1683A,110.4111,21.2028,湛江市,霞山游泳场,,14,9,12,6,6,63,44,56,53,5,9,5,7,0.5,0.8
2023-07-24T20:00:00,1684A,110.3316,21.2679,湛江市,麻章区环保局,,28,28,22,15,11,108,34,86,77,17,12,5,5,0.5,0.6
2023-07-24T20:00:00,1685A,110.4558,21.2567,湛江市,坡头区环保局,,15,15,14,9,7,64,43,60,57,6,6,5,6,0.4,0.5
2023-07-24T20:00:00,1686A,111.0286,21.4688,茂名市,电白南海,,19,19,13,9,8,48,42,45,41,7,4,5,4,0.6,0.6
2023-07-24T20:00:00,1687A,110.9294,21.6533,茂名市,茂石化七小,,20,17,17,14,10,95,30,79,65,10,7,5,6,0.5,0.5
2023-07-24T20:00:00,1688A,110.9107,21.6687,茂名市,健康路,,14,14,12,7,4,117,34,87,78,7,6,4,6,0.4,0.4
2023-07-24T20:00:00,1689A,110.8592,21.6828,茂名市,高岭,,29,29,23,12,12,99,35,79,75,11,7,5,5,0.5,0.5
2023-07-24T20:00:00,1690A,116.1231,24.3284,梅州市,梅江月梅,,40,40,19,4,11,79,37,67,59,17,12,2,2,0.4,0.4
2023-07-24T20:00:00,1691A,116.0797,24.2719,梅州市,梅县新城,,29,11,21,20,10,67,26,58,53,26,10,6,6,0.8,0.6
2023-07-24T20:00:00,1692A,116.1248,24.2654,梅州市,环境监控中心,,35,29,21,24,10,72,21,60,52,29,12,1,3,0.7,0.6
2023-07-24T20:00:00,1693A,115.3653,22.775,汕尾市,市环保局,,,49,13,5,3,51,51,41,41,,4,7,7,0.5,0.5
2023-07-24T20:00:00,1694A,115.3706,22.7898,汕尾市,市政府,,16,7,12,2,7,50,50,42,42,4,4,4,5,0.5,0.5
2023-07-24T20:00:00,1695A,115.3622,22.7925,汕尾市,新城中学,,32,32,16,4,6,49,49,40,40,2,3,6,6,0.5,0.5
2023-07-24T20:00:00,1696A,114.6778,23.7569,河源市,源西,细颗粒物(PM2.5),58,38,19,41,11,83,40,73,69,18,9,4,5,0.7,0.6
2023-07-24T20:00:00,1697A,114.6944,23.7586,河源市,东埔,,32,25,25,22,7,83,43,71,68,16,11,5,5,0.8,0.6
2023-07-24T20:00:00,1698A,114.6892,23.7233,河源市,老城,,,,32,,7,26,,34,,,8,,5,,0.6
2023-07-24T20:00:00,1699A,111.9797,21.8593,阳江市,鸳鸯湖,,15,3,18,6,8,67,45,56,52,3,5,5,6,0.5,0.6
2023-07-24T20:00:00,1701A,111.9491,21.8658,阳江市,马南垌,,13,9,12,4,7,70,40,59,53,3,4,5,7,0.4,0.4
2023-07-24T20:00:00,1702A,113.0426,23.691,清远市,环保大楼,臭氧1小时,52,33,29,23,17,170,161,165,165,12,15,6,8,0.5,0.4
2023-07-24T20:00:00,1703A,113.0208,23.7106,清远市,凤城街办,颗粒物(PM10),52,54,32,29,16,162,147,142,142,10,12,6,8,0.4,0.4
2023-07-24T20:00:00,1705A,116.6367,23.6719,潮州市,西园路,,44,44,28,11,10,116,30,97,86,19,9,7,5,0.8,0.5
2023-07-24T20:00:00,1706A,116.6447,23.6706,潮州市,档案局,,43,43,23,19,7,124,27,110,95,21,10,10,7,1.0,0.5
2023-07-24T20:00:00,1708A,116.3701,23.5345,揭阳市,新兴,,25,24,25,17,11,84,49,77,73,8,7,7,7,0.5,0.5
2023-07-24T20:00:00,1709A,116.3264,23.5443,揭阳市,西马,,42,42,25,14,11,86,54,76,75,7,6,7,6,0.6,0.7
2023-07-24T20:00:00,1710A,116.3611,23.5626,揭阳市,东兴,,50,50,29,12,10,91,57,79,77,8,10,3,3,0.6,0.5
2023-07-24T20:00:00,1711A,116.4151,23.5294,揭阳市,渔湖,,22,22,23,9,9,93,54,79,73,4,6,4,4,0.5,0.5
2023-07-24T20:00:00,1712A,112.0392,22.9169,云浮市,新市府,,20,16,15,10,7,70,62,61,61,3,3,4,4,0.7,0.7
2023-07-24T20:00:00,1714A,112.0539,22.9539,云浮市,牧羊,,,,19,7,10,79,66,68,68,8,12,8,18,0.5,0.5
2023-07-24T20:00:00,1715A,102.575,24.3711,玉溪市,东风水库,,20,19,17,4,10,74,62,68,68,16,11,4,5,0.7,0.7
2023-07-24T20:00:00,1718A,115.4208,35.2464,菏泽市,气象局,颗粒物(PM10),119,188,50,23,21,179,147,166,166,8,8,3,4,0.4,0.4
2023-07-24T20:00:00,1719A,115.4747,35.2375,菏泽市,市政协,颗粒物(PM10),89,128,42,27,24,177,146,164,164,9,9,4,5,0.3,0.3
2023-07-24T20:00:00,1721A,113.3819,40.1097,大同市,果树场,,35,28,23,24,19,169,89,151,145,39,21,5,5,0.6,0.6
2023-07-24T20:00:00,1723A,113.2994,40.0758,大同市,云冈宾馆,,41,39,28,13,14,200,130,172,168,30,21,8,9,0.4,0.7
2023-07-24T20:00:00,1724A,113.3444,40.0917,大同市,大同大学,,42,30,29,14,14,192,133,169,164,23,16,7,11,0.6,0.7
2023-07-24T20:00:00,1725A,113.2661,40.1269,大同市,安家小村,,41,40,33,11,10,192,130,170,167,18,15,10,10,0.4,0.7
2023-07-24T20:00:00,1726A,113.2711,40.0844,大同市,教育学院,,41,39,35,22,14,191,129,168,164,26,22,9,11,0.4,0.7
2023-07-24T20:00:00,1727A,113.1147,36.1547,长治市,清华站,,41,20,42,5,20,190,130,172,159,8,12,8,9,0.6,0.9
2023-07-24T20:00:00,1728A,113.1031,36.1989,长治市,监测站,,41,15,43,5,20,192,131,177,162,16,18,10,12,0.5,0.9
2023-07-24T20:00:00,1730A,113.0886,36.2125,长治市,审计局,,41,12,40,5,23,179,131,166,156,9,13,11,13,0.4,0.8
2023-07-24T20:00:00,1731A,113.0844,36.1856,长治市,长治八中,,40,6,43,6,22,189,128,175,161,10,10,8,10,0.5,0.8
2023-07-24T20:00:00,1733A,111.5531,36.0783,临汾市,临钢医院,,,87,69,,42,187,147,169,169,23,29,12,10,1.9,1.3
2023-07-24T20:00:00,1734A,111.5028,36.0714,临汾市,技工学校,颗粒物(PM10),68,85,79,34,24,177,137,161,161,27,33,16,12,1.6,1.2
2023-07-24T20:00:00,1736A,111.5018,36.0855,临汾市,市委,颗粒物(PM10),68,86,81,40,36,166,130,152,152,27,37,14,12,1.5,1.1
2023-07-24T20:00:00,1738A,113.5758,37.8572,阳泉市,市中心,,49,49,49,17,21,233,71,188,164,55,24,11,15,0.9,0.9
2023-07-24T20:00:00,1739A,113.4894,37.8731,阳泉市,赛鱼,颗粒物(PM10),59,68,51,27,25,230,22,181,140,67,31,9,12,0.7,0.8
2023-07-24T20:00:00,1740A,113.5819,37.8486,阳泉市,南庄,颗粒物(PM10),66,82,61,22,25,236,115,192,175,32,20,12,14,0.8,0.9
2023-07-24T20:00:00,1742A,113.5614,37.8703,阳泉市,平坦,颗粒物(PM10),57,64,59,11,27,234,75,188,166,60,26,11,12,0.8,0.8
2023-07-24T20:00:00,1743A,113.5158,37.8392,阳泉市,大阳泉,,45,23,43,24,28,236,144,187,177,21,15,12,14,0.6,0.8
2023-07-24T20:00:00,1744A,118.9233,42.2816,赤峰市,松山一中,,28,11,18,5,6,134,89,122,118,40,30,12,14,0.5,0.4
2023-07-24T20:00:00,1745A,118.9576,42.2728,赤峰市,哈达街,,27,13,15,7,7,132,86,120,117,27,20,13,17,0.4,0.3
2023-07-24T20:00:00,1746A,118.8788,42.2554,赤峰市,天义路,,29,11,9,9,5,150,91,131,126,15,16,12,14,0.6,0.4
2023-07-24T20:00:00,1748A,123.044,41.1196,鞍山市,深沟寺,,28,25,31,10,20,200,89,166,157,10,11,7,9,0.6,1.1
2023-07-24T20:00:00,1749A,123.011,41.0931,鞍山市,太阳城,,27,14,37,8,21,201,85,162,154,11,11,6,7,0.9,1.3
2023-07-24T20:00:00,1750A,123.0485,41.1442,鞍山市,太平,,31,23,61,12,24,195,99,165,157,15,17,5,8,0.8,1.4
2023-07-24T20:00:00,1751A,122.9642,41.0971,鞍山市,铁西三道街,,29,29,47,12,29,207,86,173,160,26,21,8,7,1.8,1.5
2023-07-24T20:00:00,1752A,122.9341,41.0833,鞍山市,铁西工业园区,,27,27,44,15,25,187,76,158,145,25,19,5,4,1.4,1.7
2023-07-24T20:00:00,1753A,123.022,41.0821,鞍山市,明达新区,,33,26,34,11,19,201,103,166,160,9,15,4,5,0.5,1
2023-07-24T20:00:00,1754A,123.1289,41.0228,鞍山市,千山,,27,21,25,11,10,132,84,126,119,3,4,4,4,0.7,0.9
2023-07-24T20:00:00,1755A,123.7977,41.8491,抚顺市,望花区,,47,47,34,18,25,198,113,164,159,26,20,5,7,0.6,0.7
2023-07-24T20:00:00,1756A,123.9161,41.8822,抚顺市,顺城区,颗粒物(PM10),52,53,36,18,21,177,106,156,150,25,24,3,3,0.8,0.9
2023-07-24T20:00:00,1757A,124.0436,41.8611,抚顺市,东洲区,,50,50,30,19,20,168,131,156,153,21,15,13,10,0.8,0.9
2023-07-24T20:00:00,1758A,123.9247,41.8642,抚顺市,新抚区,,40,36,30,18,20,174,128,155,152,15,14,7,6,0.7,0.9
2023-07-24T20:00:00,1759A,124.0972,41.8961,抚顺市,大伙房水库,,49,49,29,20,19,158,129,150,148,18,15,5,5,0.8,0.8
2023-07-24T20:00:00,1760A,123.7086,41.8391,抚顺市,沈抚新城,,35,35,31,16,22,194,111,164,159,21,17,5,8,0.6,0.8
2023-07-24T20:00:00,1761A,123.8275,41.3064,本溪市,大峪,,38,38,37,10,13,124,72,114,103,26,16,6,4,1.0,0.8
2023-07-24T20:00:00,1762A,123.7567,41.3325,本溪市,溪湖,,24,24,27,12,17,110,61,98,87,12,18,4,5,0.9,1.2
2023-07-24T20:00:00,1763A,123.7169,41.3094,本溪市,彩屯,,26,26,30,15,18,112,63,103,90,13,21,6,6,1.0,1.3
2023-07-24T20:00:00,1764A,123.7669,41.2864,本溪市,东明,,47,47,27,15,13,118,58,107,93,39,21,6,4,2.3,1.2
2023-07-24T20:00:00,1765A,123.7992,41.2664,本溪市,新立屯,,35,35,23,10,11,116,59,108,90,15,21,6,6,0.8,1.1
2023-07-24T20:00:00,1766A,123.8142,41.3472,本溪市,威宁,,27,27,33,10,16,117,65,100,82,18,17,6,6,0.8,0.7
2023-07-24T20:00:00,1767A,121.1115,41.0879,锦州市,南山,,31,25,38,16,30,161,97,140,129,16,17,19,10,0.5,1.1
2023-07-24T20:00:00,1768A,121.0533,40.8434,锦州市,开发区,,45,45,54,23,27,138,118,132,125,9,30,5,9,0.8,1
2023-07-24T20:00:00,1769A,121.1836,41.1119,锦州市,百股街道,,30,18,35,7,24,156,95,145,130,14,18,5,10,0.6,0.9
2023-07-24T20:00:00,1770A,121.1178,41.1222,锦州市,天安街道,,30,9,50,18,24,157,96,139,128,15,21,17,13,0.9,1.4
2023-07-24T20:00:00,1771A,121.1303,41.1386,锦州市,北湖公园,,32,14,46,13,28,160,101,138,129,16,17,15,8,0.7,1.1
2023-07-24T20:00:00,1772A,126.54,43.8622,吉林市,哈达湾,,25,19,8,13,4,99,80,95,93,12,3,5,5,0.6,0.5
2023-07-24T20:00:00,1773A,126.5844,43.8358,吉林市,东局子,,24,18,11,5,4,98,76,96,90,18,9,5,5,0.7,0.7
2023-07-24T20:00:00,1774A,126.5052,43.8245,吉林市,电力学院,,20,20,10,11,4,96,58,89,83,25,9,6,6,0.6,0.5
2023-07-24T20:00:00,1775A,126.6133,43.8972,吉林市,江北,,30,30,13,10,4,102,70,95,91,14,7,6,6,0.7,0.6
2023-07-24T20:00:00,1776A,126.555,43.8306,吉林市,江南公园,,27,14,9,8,4,98,85,95,92,9,6,4,4,0.6,0.6
2023-07-24T20:00:00,1778A,126.7061,43.7133,吉林市,丰满,,,,,,,,,,,,,,,,
2023-07-24T20:00:00,1779A,123.9305,47.3636,齐齐哈尔市,安居小区,,,,15,,17,64,39,62,45,10,4,5,5,0.8,0.4
2023-07-24T20:00:00,1780A,123.9488,47.3386,齐齐哈尔市,中心广场,颗粒物(PM10),51,52,13,28,8,66,35,63,41,23,7,3,3,0.8,0.4
2023-07-24T20:00:00,1781A,123.9483,47.3227,齐齐哈尔市,农牧车辆厂,颗粒物(PM10),56,61,24,30,6,65,39,61,45,17,6,7,6,0.6,0.4
2023-07-24T20:00:00,1783A,123.945,47.2988,齐齐哈尔市,市环境监测站,细颗粒物(PM2.5),57,49,15,40,12,64,24,61,41,31,7,7,7,0.4,0.2
2023-07-24T20:00:00,1784A,129.61,44.561,牡丹江市,环保大楼,,22,19,9,12,7,94,70,89,81,13,8,5,5,0.4,0.4
2023-07-24T20:00:00,1785A,129.6115,44.5782,牡丹江市,文化广场,,21,19,7,14,10,91,66,86,80,17,10,5,5,0.5,0.4
2023-07-24T20:00:00,1786A,129.5904,44.5963,牡丹江市,第一医院,,22,18,12,15,9,87,52,82,75,16,8,4,4,0.4,0.4
2023-07-24T20:00:00,1787A,129.6364,44.6075,牡丹江市,机车工厂,,29,29,10,18,8,90,52,84,76,13,8,3,2,2.1,0.5
2023-07-24T20:00:00,1788A,129.6386,44.5462,牡丹江市,第一中学,,21,21,16,9,5,93,60,88,79,21,13,4,4,0.4,0.3
2023-07-24T20:00:00,1789A,124.81117,46.03138,大庆市,大同区,,15,10,6,10,5,56,40,54,50,12,5,4,4,0.3,0.2
2023-07-24T20:00:00,1790A,125.129,46.533,大庆市,龙凤区,,24,24,9,14,8,59,38,52,49,16,8,6,5,0.4,0.3
2023-07-24T20:00:00,1791A,124.902,46.408,大庆市,红岗区,,26,20,9,18,9,59,38,56,50,13,6,2,2,0.5,0.3
2023-07-24T20:00:00,1792A,125.153,46.586,大庆市,萨尔图区,,31,31,8,18,4,55,38,50,43,20,11,4,4,0.6,0.4
2023-07-24T20:00:00,1793A,124.9042,46.6215,大庆市,让胡路区,,33,16,8,23,6,59,34,55,44,17,7,3,2,0.5,0.3
2023-07-24T20:00:00,1794A,118.3606,31.3519,芜湖市,监测站,,35,35,29,17,14,163,82,140,135,23,24,3,6,0.6,0.7
2023-07-24T20:00:00,1795A,118.3714,31.4134,芜湖市,科创中心,,34,34,35,22,17,163,69,137,131,38,27,5,9,0.8,0.8
2023-07-24T20:00:00,1796A,118.3673,31.3131,芜湖市,四水厂,,30,28,27,16,13,173,93,153,145,19,16,2,5,0.8,0.8
2023-07-24T20:00:00,1798A,118.5092,31.6837,马鞍山市,湖东路四小,,37,37,29,16,18,187,95,150,148,7,17,6,8,0.8,0.9
2023-07-24T20:00:00,1799A,118.5024,31.6449,马鞍山市,开发区,,50,50,40,17,17,182,82,145,141,20,24,8,9,0.7,0.8
2023-07-24T20:00:00,1800A,118.5228,31.7231,马鞍山市,慈湖,颗粒物(PM10),58,65,36,23,18,184,63,149,143,38,21,6,8,0.6,0.7
2023-07-24T20:00:00,1802A,118.6245,31.7241,马鞍山市,濮塘,,25,23,22,14,19,173,78,140,136,4,13,4,4,0.6,0.8
2023-07-24T20:00:00,1803A,115.9872,29.6815,九江市,十里,,43,42,27,30,16,134,74,116,111,16,17,9,10,0.6,0.6
2023-07-24T20:00:00,1804A,115.9584,29.7046,九江市,茅山头,,45,37,23,31,15,152,80,129,125,27,23,10,9,1.0,0.9
2023-07-24T20:00:00,1805A,115.9877,29.7295,九江市,西园,,,41,26,17,12,143,71,126,119,40,30,,11,0.5,0.7
2023-07-24T20:00:00,1806A,116.0172,29.6547,九江市,五七二七厂,,,40,17,19,12,113,70,97,94,,5,8,8,0.7,0.7
2023-07-24T20:00:00,1808A,115.9114,29.6038,九江市,综合工业园,,48,47,27,33,15,167,90,132,130,22,18,10,11,0.9,0.8
2023-07-24T20:00:00,1809A,116.0721,29.7535,九江市,石化总厂,,38,38,26,22,13,122,54,107,101,36,17,10,12,0.6,0.6
2023-07-24T20:00:00,1810A,115.9773,29.5698,九江市,庐山气象台,,32,32,18,15,12,123,92,109,109,9,3,7,8,1.0,0.9
2023-07-24T20:00:00,1812A,112.3931,34.6516,洛阳市,市委党校,颗粒物(PM10),51,51,57,23,32,203,133,172,170,5,18,2,5,0.7,0.9
2023-07-24T20:00:00,1814A,112.4657,34.6871,洛阳市,豫西宾馆,颗粒物(PM10),85,120,72,24,34,212,126,185,181,11,15,1,3,0.6,0.8
2023-07-24T20:00:00,1815A,112.494,34.6886,洛阳市,河南林校,,47,47,54,22,27,206,126,177,174,11,18,4,5,0.5,0.7
2023-07-24T20:00:00,1816A,112.3844,34.623,洛阳市,开发区管委会,,46,46,53,20,25,199,129,176,173,12,20,5,10,0.6,0.7
2023-07-24T20:00:00,1817A,112.4267,34.6258,洛阳市,市委新办公区,,47,47,57,19,32,192,129,174,170,8,16,3,3,0.1,0.3
2023-07-24T20:00:00,1818A,114.4839,36.0621,安阳市,棉研所,,45,24,64,13,22,165,143,159,151,8,7,6,6,0.5,0.7
2023-07-24T20:00:00,1819A,114.3551,36.1017,安阳市,红庙街,,40,20,58,8,30,180,128,165,158,4,7,1,2,0.4,0.4
2023-07-24T20:00:00,1820A,114.361,36.0681,安阳市,银杏小区,,41,16,56,10,12,189,131,168,164,8,16,5,4,0.5,0.5
2023-07-24T20:00:00,1824A,114.3389,34.7781,开封市,肿瘤医院,颗粒物(PM10),53,55,56,22,22,152,116,141,138,10,10,3,2,0.6,0.6
2023-07-24T20:00:00,1826A,114.2885,34.7965,开封市,世纪星幼儿园,,,,56,,,167,143,156,156,9,12,3,3,0.7,0.7
2023-07-24T20:00:00,1828A,113.227,35.2125,焦作市,市环保局,颗粒物(PM10),52,53,60,18,31,207,126,187,180,17,12,4,4,0.6,0.9
2023-07-24T20:00:00,1830A,113.1992,35.2590,焦作市,影视城,,50,32,32,10,18,200,158,190,188,5,6,4,4,0.7,0.8
2023-07-24T20:00:00,1832A,113.3257,33.742,平顶山市,新华旅馆,,43,43,35,19,17,157,121,139,139,18,12,2,2,0.5,0.5
2023-07-24T20:00:00,1833A,113.2919,33.737,平顶山市,规划设计院,,44,44,38,22,19,156,126,138,138,12,8,6,5,0.7,0.7
2023-07-24T20:00:00,1834A,113.182,33.774,平顶山市,平顶山工学院,,43,43,44,17,18,156,123,138,138,6,8,4,4,0.5,0.5
2023-07-24T20:00:00,1835A,111.1922,34.7752,三门峡市,市政府,,32,8,54,9,20,184,100,148,137,13,22,6,7,0.4,0.6
2023-07-24T20:00:00,1836A,111.1587,34.7942,三门峡市,开发区,,32,12,52,17,22,184,102,147,136,11,23,4,7,0.4,0.6
2023-07-24T20:00:00,1838A,111.143,34.7955,三门峡市,风景区,,,,,,,,,,,,,,,,
2023-07-24T20:00:00,1840A,111.2992,30.6981,宜昌市,白龙岗,,31,31,43,12,21,148,97,133,130,16,18,4,4,0.6,0.6
2023-07-24T20:00:00,1841A,111.3549,30.6465,宜昌市,伍家岗,,30,23,36,14,23,166,95,143,139,18,19,2,2,0.5,0.6
2023-07-24T20:00:00,1842A,111.2628,30.6961,宜昌市,点军区,,47,47,38,14,18,161,108,140,139,8,16,4,4,0.7,0.7
2023-07-24T20:00:00,1843A,111.3275,30.7819,宜昌市,夷陵区,,42,41,36,29,20,145,102,136,132,16,14,2,2,0.5,0.5
2023-07-24T20:00:00,1844A,112.2494,30.3197,荆州市,市图书馆,,48,48,35,27,22,130,106,119,117,7,10,7,9,0.4,0.6
2023-07-24T20:00:00,1845A,112.2008,30.3544,荆州市,市委党校,,46,46,37,18,20,120,95,111,110,11,11,6,8,0.5,0.6
2023-07-24T20:00:00,1847A,113.1094,29.3578,岳阳市,南湖风景区,,35,31,26,24,19,129,86,117,114,5,6,7,9,0.5,0.6
2023-07-24T20:00:00,1848A,113.1493,29.4251,岳阳市,城陵矶,,43,37,29,30,20,123,91,113,111,12,14,8,8,0.7,0.9
2023-07-24T20:00:00,1849A,113.1497,29.3575,岳阳市,开发区,颗粒物(PM10),62,74,32,25,16,122,91,113,108,4,8,7,9,0.7,0.7
2023-07-24T20:00:00,1850A,113.2621,29.4758,岳阳市,云溪区,,43,34,23,30,17,123,71,116,107,7,3,8,6,0.6,0.6
2023-07-24T20:00:00,1851A,112.9943,29.4402,岳阳市,君山区,,36,30,26,21,20,126,115,116,116,7,9,6,9,0.5,0.5
2023-07-24T20:00:00,1852A,113.2117,29.355,岳阳市,金凤水库,,,37,25,17,17,126,105,118,112,,8,,5,0.4,0.4
2023-07-24T20:00:00,1854A,111.6975,28.9703,常德市,市二中,,16,6,24,8,14,98,50,89,79,18,10,4,4,0.6,0.6
2023-07-24T20:00:00,1857A,111.7158,29.1456,常德市,白鹤山,,15,10,15,8,8,85,45,81,73,10,5,6,6,0.4,0.5
2023-07-24T20:00:00,1858A,110.5319,29.1217,张家界市,永定新区,,33,33,25,14,16,78,44,66,59,14,10,4,4,0.3,0.2
2023-07-24T20:00:00,1859A,110.4697,29.1242,张家界市,电业局,,19,16,21,13,16,89,47,66,57,10,11,3,2,0.3,0.3
2023-07-24T20:00:00,1860A,110.5594,29.3547,张家界市,未央路,,18,18,18,12,13,65,6,54,40,23,12,3,3,0.2,0.2
2023-07-24T20:00:00,1861A,110.4417,29.315,张家界市,袁家界,,23,4,17,16,10,58,14,47,29,6,5,6,6,0.5,0.5
2023-07-24T20:00:00,1862A,110.4144,25.3167,桂林市,电子科大尧山校区,,34,34,34,21,19,99,73,95,92,5,6,4,7,0.5,0.5
2023-07-24T20:00:00,1863A,110.2819,25.2697,桂林市,监测站,,33,33,30,14,15,93,81,85,85,9,8,4,4,0.5,0.5
2023-07-24T20:00:00,1864A,110.3089,25.2708,桂林市,龙隐路小学,,32,32,30,20,18,87,70,83,82,16,10,8,8,0.4,0.4
2023-07-24T20:00:00,1865A,110.2869,25.2178,桂林市,八中,,28,24,27,19,16,89,75,83,83,11,11,4,4,0.4,0.4
2023-07-24T20:00:00,1866A,109.2262,21.588,北海市,牛尾岭水库,,13,9,14,2,7,68,41,55,54,7,8,5,6,0.4,0.4
2023-07-24T20:00:00,1867A,109.1436,21.4086,北海市,海滩公园,,17,17,15,2,3,70,50,64,63,7,4,4,4,0.6,0.6
2023-07-24T20:00:00,1868A,109.0981,21.4661,北海市,新市环保局,,17,14,11,5,7,69,52,62,62,4,4,2,2,0.5,0.5
2023-07-24T20:00:00,1869A,109.1778,21.5233,北海市,北海工业园,,22,21,21,15,10,81,45,65,64,9,7,4,5,0.6,0.7
2023-07-24T20:00:00,1870A,109.4856,24.3895,柳州市,柳东小学,,27,21,28,16,21,98,86,92,91,5,9,5,7,0.2,0.2
2023-07-24T20:00:00,1871A,109.4157,24.3277,柳州市,环保监测站,,27,18,28,15,14,95,85,87,86,9,10,4,5,0.4,0.4
2023-07-24T20:00:00,1872A,109.389,24.341,柳州市,河西水厂,,29,28,29,16,18,99,91,92,91,10,12,5,5,0.4,0.4
2023-07-24T20:00:00,1873A,109.4311,24.2921,柳州市,市四中,,30,30,31,19,19,97,86,90,89,8,10,7,7,0.5,0.5
2023-07-24T20:00:00,1874A,109.4006,24.3631,柳州市,市九中,,30,30,32,10,17,99,88,92,91,9,9,6,7,0.6,0.6
2023-07-24T20:00:00,1875A,109.4958,24.3134,柳州市,古亭山,,33,25,27,23,16,95,77,87,86,12,15,5,7,0.4,0.6
2023-07-24T20:00:00,1876A,109.5078,18.2489,三亚市,河东子站,,14,14,16,8,8,59,32,49,43,5,8,2,2,0.4,0.4
2023-07-24T20:00:00,1877A,109.4964,18.2681,三亚市,河西子站,,11,6,15,3,3,65,35,53,47,5,8,1,2,0.5,0.3
2023-07-24T20:00:00,1878A,104.7778,31.4741,绵阳市,富乐山,,25,18,26,14,18,98,80,87,87,14,12,3,3,0.5,0.6
2023-07-24T20:00:00,1879A,104.7563,31.4535,绵阳市,市人大,,29,27,30,20,16,96,72,81,81,34,19,6,5,0.6,0.6
2023-07-24T20:00:00,1880A,104.6697,31.4668,绵阳市,高新区自来水公司,,39,39,29,15,18,107,80,97,97,28,14,8,6,0.5,0.5
2023-07-24T20:00:00,1881A,104.7287,31.5075,绵阳市,三水厂,,22,22,31,14,17,102,69,89,88,40,16,6,6,0.7,0.6
2023-07-24T20:00:00,1882A,104.563,28.793,宜宾市,石马中学,,33,12,34,8,22,166,105,119,111,13,16,4,7,0.5,0.6
2023-07-24T20:00:00,1883A,104.6201,28.7728,宜宾市,市委,,27,19,37,12,23,158,85,101,98,22,20,7,10,0.6,0.6
2023-07-24T20:00:00,1884A,104.6055,28.793,宜宾市,宜宾四中,,31,22,41,14,24,152,97,104,104,23,22,6,9,0.7,0.7
2023-07-24T20:00:00,1885A,104.639,28.7562,宜宾市,市政府,,28,25,32,16,21,153,89,102,100,23,18,8,8,0.8,0.8
2023-07-24T20:00:00,1886A,104.5742,28.7199,宜宾市,黄金嘴,,35,20,31,12,20,166,111,116,115,15,18,5,6,0.7,0.7
2023-07-24T20:00:00,1888A,101.6891,26.571,攀枝花市,弄弄坪,,22,22,49,7,16,84,69,75,75,10,23,9,21,0.6,1.2
2023-07-24T20:00:00,1889A,101.5769,26.5928,攀枝花市,河门口,,23,14,25,7,11,98,71,81,81,8,20,6,15,0.6,1.1
2023-07-24T20:00:00,1890A,101.7169,26.585,攀枝花市,炳草岗,,20,20,38,7,17,83,64,74,73,17,25,15,29,0.7,1.2
2023-07-24T20:00:00,1891A,101.7369,26.5008,攀枝花市,仁和,,24,18,14,7,9,79,74,74,74,9,12,7,8,0.5,0.5
2023-07-24T20:00:00,1893A,105.4324,28.9634,泸州市,九狮山,,15,14,27,7,10,71,46,52,46,16,23,5,6,0.5,0.5
2023-07-24T20:00:00,1894A,105.4427,28.9063,泸州市,小市上码头,,28,28,39,13,25,135,64,100,67,17,18,8,8,0.8,0.9
2023-07-24T20:00:00,1895A,105.4241,28.8573,泸州市,兰田宪桥,,30,30,39,15,26,112,63,66,64,18,16,8,8,0.9,0.8
2023-07-24T20:00:00,1896A,105.4379,28.8833,泸州市,市环监站,,27,27,37,9,20,123,62,81,66,15,16,3,6,0.6,0.7
2023-07-24T20:00:00,1901A,104.4239,31.1208,德阳市,东山公园,,35,18,26,11,19,136,109,120,120,9,9,2,3,0.5,0.5
2023-07-24T20:00:00,1902A,104.3826,31.1317,德阳市,西小区,,41,33,40,19,23,138,129,128,128,12,13,1,4,0.5,0.5
2023-07-24T20:00:00,1904A,104.3553,31.1091,德阳市,耐火材料厂,,39,24,33,21,24,138,122,124,124,6,9,3,4,0.6,0.6
2023-07-24T20:00:00,1905A,106.056,30.8064,南充市,西山风景区,,33,31,30,23,21,119,84,102,101,6,8,2,4,0.5,0.5
2023-07-24T20:00:00,1906A,106.0789,30.8023,南充市,南充市委,,33,30,43,23,19,111,80,99,98,18,22,8,9,0.5,0.5
2023-07-24T20:00:00,1907A,106.1031,30.8217,南充市,南充炼油厂,,42,42,52,20,23,124,94,107,107,17,17,8,10,0.4,0.4
2023-07-24T20:00:00,1908A,106.1064,30.7856,南充市,高坪区监测站,,31,31,39,17,20,116,81,104,103,19,20,8,10,0.5,0.5
2023-07-24T20:00:00,1909A,106.0642,30.7636,南充市,嘉陵区环保局,,41,41,48,27,24,121,78,103,101,17,25,5,12,0.4,0.4
2023-07-24T20:00:00,1910A,106.1087,30.8388,南充市,市环境监测站,,32,22,56,22,32,117,86,97,97,23,24,6,8,0.4,0.4
2023-07-24T20:00:00,1911A,106.9222,27.6869,遵义市,丁字口,,28,28,23,11,10,102,73,89,89,14,23,4,5,0.4,0.5
2023-07-24T20:00:00,1912A,106.9242,27.7019,遵义市,凤凰山,,33,33,26,20,21,109,74,93,92,8,8,7,8,0.3,0.3
2023-07-24T20:00:00,1913A,106.8906,27.6486,遵义市,忠庄,,35,35,24,8,13,113,71,99,96,12,11,2,2,0.5,0.5
2023-07-24T20:00:00,1914A,106.9231,27.6506,遵义市,舟水桥,,29,21,26,20,16,107,69,96,93,6,10,1,2,0.5,0.6
2023-07-24T20:00:00,1915A,106.9178,27.72,遵义市,干田坝,,23,22,17,7,10,112,73,99,96,10,10,5,6,0.4,0.4
2023-07-24T20:00:00,1916A,103.7897,25.5035,曲靖市,环境监测站,,28,28,21,10,8,93,84,81,81,12,13,4,4,0.6,0.5
2023-07-24T20:00:00,1917A,103.8,25.5364,曲靖市,烟厂办公区,,26,19,17,13,9,92,82,81,81,10,9,11,5,0.5,0.5
2023-07-24T20:00:00,1918A,108.7197,34.3956,咸阳市,气象站,,,,,,,,,,,,,,,,
2023-07-24T20:00:00,1919A,108.673,34.3155,咸阳市,实验中学,,42,32,51,16,21,224,134,179,179,18,27,5,6,0.5,0.6
2023-07-24T20:00:00,1920A,108.7233,34.3617,咸阳市,师范学院,,37,26,50,11,19,197,116,168,168,32,34,6,7,0.4,0.6
2023-07-24T20:00:00,1922A,109.0656,35.0994,铜川市,党校,,40,40,30,10,11,119,78,91,91,12,19,7,7,0.8,0.8
2023-07-24T20:00:00,1923A,109.0697,35.0697,铜川市,王益区政府,,34,30,24,14,14,133,108,106,106,10,15,9,4,0.6,0.5
2023-07-24T20:00:00,1924A,108.9344,34.9058,铜川市,新区管委会,颗粒物(PM10),53,55,31,16,15,154,139,127,127,15,16,7,7,0.6,0.5
2023-07-24T20:00:00,1926A,109.4131,36.6275,延安市,枣园,,38,20,30,9,10,135,121,132,130,7,26,6,6,0.5,0.5
2023-07-24T20:00:00,1927A,109.4761,36.6028,延安市,延大医附院,,38,25,32,10,11,134,120,130,129,6,30,5,4,0.1,0.2
2023-07-24T20:00:00,1929A,109.5056,36.6106,延安市,百米大道,颗粒物(PM10),58,65,39,10,11,129,105,124,120,20,35,5,6,0.4,0.4
2023-07-24T20:00:00,1930A,107.185,34.3063,宝鸡市,庙沟村,,37,37,24,14,13,131,104,98,98,9,8,8,8,0.4,0.3
2023-07-24T20:00:00,1931A,107.0708,34.3017,宝鸡市,竹园沟,,43,43,25,19,17,172,110,126,126,13,11,6,5,0.6,0.5
2023-07-24T20:00:00,1932A,107.1906,34.3672,宝鸡市,三陆医院,臭氧1小时,57,34,35,22,17,172,165,146,146,17,19,7,7,0.5,0.4
2023-07-24T20:00:00,1933A,107.1431,34.3547,宝鸡市,监测站,臭氧1小时,63,46,29,19,16,171,170,144,144,18,18,10,9,0.5,0.4
2023-07-24T20:00:00,1934A,107.1186,34.3739,宝鸡市,技工学校,臭氧1小时,60,39,26,19,16,171,168,143,143,17,13,5,4,0.5,0.4
2023-07-24T20:00:00,1935A,107.3906,34.3528,宝鸡市,陈仓区环保局家属楼,臭氧1小时,60,46,39,23,23,174,168,146,146,21,18,6,7,0.5,0.5
2023-07-24T20:00:00,1936A,107.2058,34.3497,宝鸡市,文理学院,臭氧1小时,67,46,33,19,26,177,173,149,149,11,13,12,11,0.4,0.4
2023-07-24T20:00:00,1937A,107.2386,34.3622,宝鸡市,三迪小学,,48,45,33,26,20,169,152,142,142,27,17,5,5,0.4,0.4
2023-07-24T20:00:00,1938A,109.5293,34.5101,渭南市,农科所,,23,19,50,12,24,149,72,115,111,19,26,4,6,0.6,0.7
2023-07-24T20:00:00,1939A,109.4974,34.4877,渭南市,日报社,,34,34,58,11,26,168,77,130,122,29,31,6,8,0.4,0.5
2023-07-24T20:00:00,1940A,109.4636,34.493,渭南市,体育馆,,23,19,50,7,18,167,73,129,122,29,40,4,8,0.3,0.5
2023-07-24T20:00:00,1941A,109.4259,34.5023,渭南市,高新一小,,,,57,,18,166,93,127,123,18,28,10,12,,0.5
2023-07-24T20:00:00,1943A,102.1725,38.5339,金昌市,新川苑,,45,39,102,5,22,149,144,146,146,14,22,27,17,0.4,0.6
2023-07-24T20:00:00,1944A,102.1692,38.5167,金昌市,天庆家园,,45,16,73,12,26,158,144,155,153,18,27,6,25,0.5,0.8
2023-07-24T20:00:00,1945A,98.2908,39.7711,嘉峪关市,气象局,,42,27,36,24,15,146,133,139,138,8,26,1,8,0.1,0.2
2023-07-24T20:00:00,1947A,106.3394,38.817,石嘴山市,沙湖旅游区,,45,43,40,9,13,205,144,182,179,6,16,16,19,0.4,0.5
2023-07-24T20:00:00,1948A,106.3668,39.0145,石嘴山市,大武口朝阳西街,臭氧1小时,62,66,43,20,16,192,169,167,167,22,18,16,16,0.8,0.5
2023-07-24T20:00:00,1949A,106.7704,39.2282,石嘴山市,惠农南大街,颗粒物(PM10),60,70,49,13,13,198,121,178,172,22,21,10,20,0.3,0.6
2023-07-24T20:00:00,1950A,106.7099,39.1325,石嘴山市,红果子镇惠新街,颗粒物(PM10),60,70,52,15,17,210,126,193,185,17,20,6,21,0.3,0.7
2023-07-24T20:00:00,1951A,84.895,45.6094,克拉玛依市,长征新村,,35,29,29,8,5,130,112,121,121,11,13,9,9,0.2,0.2
2023-07-24T20:00:00,1952A,84.8988,45.5893,克拉玛依市,南林小区,,32,27,31,17,11,123,101,115,115,11,24,2,3,0.2,0.2
2023-07-24T20:00:00,1954A,84.905,44.3396,克拉玛依市,独山子区,,40,30,31,12,12,136,126,129,129,6,9,10,8,0.3,0.4
2023-07-24T20:00:00,1955A,85.6979,46.098,克拉玛依市,乌尔禾区商贸楼,,37,12,20,9,7,124,116,116,116,4,5,8,7,0.3,0.3
2023-07-24T20:00:00,1956A,86.1472,41.7538,巴音郭楞州,孔雀公园,,40,40,65,12,17,132,122,125,125,20,25,6,5,0.3,0.3
2023-07-24T20:00:00,1957A,86.1972,41.7166,巴音郭楞州,棉纺厂,,42,42,70,17,25,128,128,123,123,6,14,4,4,0.2,0.2
2023-07-24T20:00:00,1958A,86.2357,41.7173,巴音郭楞州,经济开发区,,43,37,68,20,23,137,137,130,130,5,9,5,5,0.2,0.2
2023-07-24T20:00:00,1961A,117.532,36.6868,济南市,东山小学,,43,39,34,20,15,207,136,179,172,20,21,5,4,0.7,0.4
2023-07-24T20:00:00,1966A,120.0405,35.8735,青岛市,黄岛区4号,,,,33,24,22,194,185,178,178,12,20,3,10,0.8,0.7
2023-07-24T20:00:00,1982A,122.0693,37.2174,威海市,文登开发区,,39,36,38,27,25,146,122,143,120,5,6,4,5,0.5,0.6
2023-07-24T20:00:00,2031A,113.1817,27.9958,株洲市,云田中学,,45,45,35,26,27,128,58,115,106,17,8,8,8,0.6,0.5
2023-07-24T20:00:00,2054A,114.1099,32.1059,信阳市,平桥分局,,45,45,28,17,15,124,100,118,115,6,8,1,1,0.7,0.6
2023-07-24T20:00:00,2064A,113.9956,32.1271,信阳市,南湾水厂,,39,39,33,19,17,117,111,114,112,4,4,1,1,0.6,0.6
2023-07-24T20:00:00,2065A,114.0775,32.1195,信阳市,市酿酒公司,,42,41,23,29,21,122,95,117,114,11,9,3,3,0.8,0.7
2023-07-24T20:00:00,2066A,114.0609,32.1399,信阳市,审计局,,42,42,33,29,23,132,109,124,121,5,5,1,1,0.7,0.7
2023-07-24T20:00:00,2067A,114.6613,33.6128,周口市,市环境监测站,,43,42,38,21,20,151,135,143,143,10,11,2,2,0.5,0.6
2023-07-24T20:00:00,2068A,114.6758,33.6347,周口市,周口师范,,48,48,39,17,14,159,137,150,150,6,8,4,4,0.5,0.5
2023-07-24T20:00:00,2069A,114.6546,33.5979,周口市,市运管处,,39,37,40,19,17,141,124,132,132,11,11,3,2,0.8,0.8
2023-07-24T20:00:00,2070A,114.6369,33.6406,周口市,川汇区环保局,,43,39,39,14,11,157,137,147,147,5,7,1,1,0.5,0.5
2023-07-24T20:00:00,2075A,117.6336,24.4674,漳州市,九湖,,,33,25,19,13,,,,,9,10,4,5,,
2023-07-24T20:00:00,2160A,112.85,35.5051,晋城市,自来水公司,颗粒物(PM10),58,66,58,7,23,203,151,187,183,12,16,10,10,0.9,0.9
2023-07-24T20:00:00,2161A,112.8318,35.4936,晋城市,白云商贸,,45,32,47,2,22,194,144,178,174,16,18,10,11,0.9,0.9
2023-07-24T20:00:00,2162A,112.8508,35.4887,晋城市,市环保局,,47,47,54,17,25,174,124,163,159,15,18,10,10,0.9,0.9
2023-07-24T20:00:00,2163A,112.8676,35.4897,晋城市,技术学院,颗粒物(PM10),56,62,54,9,20,192,138,172,170,14,17,11,10,0.9,0.9
2023-07-24T20:00:00,2165A,112.8453,35.546,晋城市,白马寺,,42,28,33,16,25,192,134,171,164,13,13,8,7,0.9,0.8
2023-07-24T20:00:00,2166A,112.4397,39.3522,朔州市,平朔,,43,38,39,14,16,155,135,146,143,10,15,6,8,0.6,0.6
2023-07-24T20:00:00,2167A,112.4575,39.3617,朔州市,朔唯,,50,3,37,16,19,180,158,167,165,10,16,7,10,0.5,0.6
2023-07-24T20:00:00,2168A,112.4258,39.3197,朔州市,区政府,,43,26,35,16,11,149,137,146,145,15,18,5,7,0.5,0.5
2023-07-24T20:00:00,2169A,112.4072,39.3278,朔州市,市环保局,,48,48,46,18,14,157,142,154,151,11,12,4,8,0.5,0.5
2023-07-24T20:00:00,2170A,112.4272,39.3681,朔州市,市二中,,44,41,47,20,17,167,139,154,151,15,17,6,9,0.5,0.5
2023-07-24T20:00:00,2171A,112.7532,37.6945,晋中市,锦纶小区,,48,46,62,18,19,230,152,209,199,15,20,11,14,0.4,0.6
2023-07-24T20:00:00,2173A,112.7249,37.7067,晋中市,南都小区,颗粒物(PM10),54,58,66,18,26,233,151,213,202,16,19,11,10,0.4,0.6
2023-07-24T20:00:00,2174A,112.6991,37.6982,晋中市,榆次区政府,,47,33,60,20,25,232,150,206,197,15,21,10,13,0.6,0.7
2023-07-24T20:00:00,2175A,110.9956,35.0147,运城市,运城中学,,47,47,57,13,24,180,115,155,150,10,20,5,8,0.1,0.6
2023-07-24T20:00:00,2178A,110.9686,35.0303,运城市,地区技校,,48,48,62,10,25,181,106,158,153,12,19,2,6,0.0,0.6
2023-07-24T20:00:00,2179A,111.0414,35.1147,运城市,空港新区,,,47,77,21,33,179,108,151,148,8,22,,7,,1.1
2023-07-24T20:00:00,2181A,112.7383,38.4519,忻州市,开发区,,38,36,42,24,20,186,120,162,156,19,19,11,15,0.4,0.5
2023-07-24T20:00:00,2182A,112.7003,38.4928,忻州市,会展中心,,43,43,41,24,23,184,91,155,145,29,22,8,10,0.4,0.5
2023-07-24T20:00:00,2183A,111.1406,37.5211,吕梁市,环保局,,43,43,68,12,14,145,109,141,137,28,40,8,10,0.6,0.6
2023-07-24T20:00:00,2185A,111.1297,37.5136,吕梁市,自来水公司,,36,36,54,16,16,147,115,141,137,27,34,5,7,0.5,0.5
2023-07-24T20:00:00,2187A,106.8174,39.6973,乌海市,市林业局,,45,43,66,13,20,193,143,167,166,14,23,10,41,0.6,1
2023-07-24T20:00:00,2188A,106.7907,39.6667,乌海市,中海勃湾学校,,46,46,56,22,17,174,142,159,159,17,23,10,32,0.4,0.7
2023-07-24T20:00:00,2191A,122.2532,43.6801,通辽市,艺术职业学校,,25,18,13,13,6,91,80,88,87,14,11,5,4,0.4,0.5
2023-07-24T20:00:00,2192A,119.7594,49.2261,呼伦贝尔市,区环保局,,32,30,31,22,17,85,62,75,75,14,15,5,5,0.4,0.4
2023-07-24T20:00:00,2195A,107.4212,40.761,巴彦淖尔市,附二中,颗粒物(PM10),52,53,80,15,22,201,144,174,174,14,14,4,6,0.5,0.6
2023-07-24T20:00:00,2196A,107.37,40.7372,巴彦淖尔市,市环保大楼,颗粒物(PM10),52,53,78,15,23,188,136,166,166,15,16,14,6,0.4,0.5
2023-07-24T20:00:00,2197A,113.1306,40.9923,乌兰察布市,集宁新区,,41,37,33,24,20,171,131,154,152,20,25,10,12,0.5,0.4
2023-07-24T20:00:00,2200A,122.0392,46.0656,兴安盟,胜华新制药厂,,29,29,14,14,9,71,37,64,60,19,9,3,3,0.4,0.3
2023-07-24T20:00:00,2201A,121.9504,46.0741,兴安盟,科右前旗环保局,,31,31,18,7,10,66,56,62,61,12,6,2,3,0.6,0.5
2023-07-24T20:00:00,2202A,116.1042,43.9317,锡林郭勒盟,市环保监测站,,29,16,17,8,7,116,92,103,103,7,10,10,8,0.3,0.2
2023-07-24T20:00:00,2203A,116.0781,43.9311,锡林郭勒盟,市政府,,30,19,16,2,4,119,94,107,107,15,12,11,11,0.3,0.2
2023-07-24T20:00:00,2204A,105.6467,38.8363,阿拉善盟,西城区西花园,,45,24,32,12,16,156,144,150,149,12,16,9,10,0.4,0.5
2023-07-24T20:00:00,2205A,105.6985,38.8411,阿拉善盟,蒙二幼,,46,28,33,11,11,156,146,149,149,6,8,9,9,0.4,0.5
2023-07-24T20:00:00,2206A,105.724,38.8516,阿拉善盟,环保局新楼,,48,8,21,12,14,154,153,151,151,5,7,10,11,0.4,0.4
2023-07-24T20:00:00,2207A,121.6094,41.998,阜新市,工业园区,颗粒物(PM10),55,60,37,30,19,135,113,118,118,15,19,4,8,1.0,0.9
2023-07-24T20:00:00,2208A,121.6697,42.0279,阜新市,长青街,,37,37,40,19,18,123,72,105,102,16,14,4,8,1.0,0.8
2023-07-24T20:00:00,2209A,121.6673,42.0705,阜新市,农业园区,细颗粒物(PM2.5),59,34,29,42,36,119,106,108,108,9,9,6,11,0.9,0.9
2023-07-24T20:00:00,2210A,121.6717,42.0224,阜新市,东苑,,50,50,43,34,25,138,99,117,117,25,18,9,12,1.0,0.8
2023-07-24T20:00:00,2211A,121.6506,42.0498,阜新市,玉龙新城,,48,48,32,28,12,120,116,109,109,15,15,4,6,0.9,0.7
2023-07-24T20:00:00,2212A,123.2,41.1953,辽阳市,宏伟区,,31,22,32,10,14,179,97,147,140,8,12,4,5,0.4,0.7
2023-07-24T20:00:00,2213A,123.1683,41.2495,辽阳市,新华园,,34,34,48,11,18,172,92,144,136,14,17,2,6,0.4,0.8
2023-07-24T20:00:00,2214A,123.2354,41.2639,辽阳市,滨河路,,29,15,36,11,15,175,90,152,143,12,17,8,8,0.5,0.4
2023-07-24T20:00:00,2215A,123.149,41.2991,辽阳市,铁西工业园,,,,48,14,20,181,96,159,147,22,22,7,9,0.7,1.2
2023-07-24T20:00:00,2216A,123.8139,42.3022,铁岭市,汇工街西,,32,10,27,8,13,178,100,154,148,19,17,5,7,0.5,0.6
2023-07-24T20:00:00,2217A,123.8649,42.2923,铁岭市,水上乐园,,37,12,28,7,13,184,118,153,151,26,19,1,3,0.6,0.6
2023-07-24T20:00:00,2218A,123.8486,42.2867,铁岭市,银州路东段,,30,21,27,11,14,185,93,151,145,30,18,5,5,0.7,0.7
2023-07-24T20:00:00,2219A,123.7153,42.2217,铁岭市,金沙江路北,,24,16,27,7,15,169,62,142,131,48,21,5,6,0.7,0.8
2023-07-24T20:00:00,2220A,120.4318,41.5881,朝阳市,西梁,,,76,36,12,12,135,99,124,119,,19,6,7,0.7,0.8
2023-07-24T20:00:00,2221A,120.4521,41.5646,朝阳市,河畔小区,,35,13,26,13,11,141,111,131,128,13,11,5,6,0.7,0.7
2023-07-24T20:00:00,2222A,120.4176,41.5648,朝阳市,八里堡,,32,25,30,16,12,134,102,125,122,17,21,4,4,0.7,0.8
2023-07-24T20:00:00,2223A,120.3806,41.5969,朝阳市,农业园区,,30,19,29,12,16,139,96,126,123,11,18,4,5,0.6,0.7
2023-07-24T20:00:00,2225A,124.4002,43.1713,四平市,一商场,,42,42,14,25,9,139,102,116,116,17,12,8,9,0.7,0.4
2023-07-24T20:00:00,2226A,124.388,43.193,四平市,境园,,32,30,14,14,10,142,101,113,113,6,8,4,5,0.4,0.3
2023-07-24T20:00:00,2227A,125.1358,42.8845,辽源市,环保局,,30,27,10,21,6,117,85,107,105,18,6,5,5,1.0,0.6
2023-07-24T20:00:00,2229A,125.9358,41.7173,通化市,光明,,19,19,12,9,5,104,59,101,92,13,6,8,7,0.5,0.5
2023-07-24T20:00:00,2230A,125.9446,41.7325,通化市,铁路,,17,9,8,6,2,102,53,97,89,11,5,6,5,0.4,0.3
2023-07-24T20:00:00,2231A,126.4219,41.9171,白山市,喜丰,,24,24,38,13,10,113,46,103,96,23,10,7,7,0.6,0.6
2023-07-24T20:00:00,2232A,126.4077,41.9419,白山市,环保局,,37,37,21,13,8,116,44,109,98,2,9,2,6,0.7,0.7
2023-07-24T20:00:00,2233A,124.8006,45.1214,松原市,江南,,20,11,7,5,4,76,63,73,72,15,6,4,4,0.6,0.5
2023-07-24T20:00:00,2234A,124.7965,45.1722,松原市,江北,,16,7,4,7,3,70,49,66,65,6,4,3,3,0.4,0.3
2023-07-24T20:00:00,2235A,122.7911,45.6077,白城市,洮北区环保局,,15,8,5,5,11,78,48,72,69,23,8,3,3,0.2,0.1
2023-07-24T20:00:00,2236A,122.8738,45.5725,白城市,市环保局,,21,21,10,4,3,84,25,78,68,41,8,7,4,0.4,0.2
2023-07-24T20:00:00,2237A,129.47,42.8883,延边朝鲜族自治州,妇幼医院,,24,24,14,11,7,86,35,84,72,24,11,8,8,0.7,0.6
2023-07-24T20:00:00,2238A,129.5055,42.9108,延边朝鲜族自治州,延边医院,,45,31,16,31,8,90,39,88,78,34,12,5,6,1.0,0.5
2023-07-24T20:00:00,2239A,129.3964,42.8881,延边朝鲜族自治州,朝阳川镇医院,,26,26,12,13,5,90,31,88,76,19,8,5,6,0.6,0.5
2023-07-24T20:00:00,2240A,130.9762,45.3001,鸡西市,环保局,,20,17,14,8,5,75,61,73,71,16,12,4,5,0.3,0.2
2023-07-24T20:00:00,2243A,130.9429,45.3039,鸡西市,第一中学,,25,16,13,9,6,90,77,88,84,5,6,6,6,0.1,0.1
2023-07-24T20:00:00,2244A,130.2537,47.3416,鹤岗市,哈啤分公司,,16,10,7,11,6,59,34,51,44,12,10,10,11,0.4,0.4
2023-07-24T20:00:00,2245A,130.2684,47.3086,鹤岗市,斯达机电,,12,8,6,7,5,53,36,45,41,9,8,11,11,0.4,0.3
2023-07-24T20:00:00,2246A,130.3114,47.3388,鹤岗市,东山纸板厂,,28,9,9,19,11,56,29,48,42,14,9,8,8,0.3,0.3
2023-07-24T20:00:00,2247A,130.1097,47.3382,鹤岗市,五号水库,,8,8,9,5,7,56,23,51,45,5,8,9,9,0.2,0.2
2023-07-24T20:00:00,2248A,131.1511,46.6937,双鸭山市,双合村,,19,11,13,5,4,70,60,66,65,8,8,10,10,0.2,0.2
2023-07-24T20:00:00,2249A,131.1652,46.6191,双鸭山市,南小市,,15,9,13,2,4,60,47,57,55,7,5,6,6,0.2,0.2
2023-07-24T20:00:00,2250A,131.1524,46.6554,双鸭山市,环保局,,15,12,7,5,5,59,45,42,41,11,11,8,8,0.3,0.5
2023-07-24T20:00:00,2251A,131.12,46.5656,双鸭山市,苗圃,,20,15,9,14,5,84,59,80,75,4,4,3,3,0.4,0.4
2023-07-24T20:00:00,2252A,128.5159,47.4311,伊春市,环保局,,12,9,11,0,2,52,37,44,40,8,8,4,5,0.4,0.4
2023-07-24T20:00:00,2253A,128.9102,47.7412,伊春市,电力嘉园,,15,8,9,5,9,61,47,55,50,5,7,6,6,0.6,0.6
2023-07-24T20:00:00,2254A,129.5029,48.471,伊春市,汤旺河国家公园,,23,23,24,8,9,62,36,58,55,2,2,17,13,0.8,0.6
2023-07-24T20:00:00,2255A,130.2751,46.8028,佳木斯市,佳纺,,18,10,8,5,3,73,56,73,59,9,5,3,4,0.4,0.5
2023-07-24T20:00:00,2256A,130.3995,46.8307,佳木斯市,发电厂,,19,11,12,5,6,70,59,61,60,8,8,2,3,0.6,0.6
2023-07-24T20:00:00,2257A,130.3258,46.7975,佳木斯市,环保局,,18,15,12,6,5,71,57,71,57,8,6,2,2,0.4,0.4
2023-07-24T20:00:00,2258A,130.3648,46.8032,佳木斯市,十一中,,23,23,13,8,5,69,55,63,57,12,8,3,4,0.4,0.4
2023-07-24T20:00:00,2259A,130.3794,46.7588,佳木斯市,四丰,,27,2,5,6,2,116,86,112,96,4,3,1,1,0.3,0.4
2023-07-24T20:00:00,2262A,131.0518,45.8751,七台河市,新一中,,31,31,16,15,6,99,68,94,88,20,8,21,9,0.9,0.8
2023-07-24T20:00:00,2263A,127.4833,50.2524,黑河市,交通局,,35,29,6,24,6,70,45,64,44,6,10,2,2,1.0,0.5
2023-07-24T20:00:00,2264A,127.5144,50.2341,黑河市,环保局,颗粒物(PM10),52,54,17,29,10,69,44,64,46,9,7,2,2,1.0,0.5
2023-07-24T20:00:00,2265A,127.5291,50.2472,黑河市,大黑河岛,,42,25,7,29,10,79,35,71,41,1,1,1,2,0.9,0.5
2023-07-24T20:00:00,2266A,126.9785,46.6365,绥化市,人和东街,,15,9,7,5,3,75,46,70,48,8,6,5,6,0.3,0.3
2023-07-24T20:00:00,2267A,126.964,46.6528,绥化市,党政办公中心,,14,7,4,7,3,70,44,65,46,6,5,4,4,0.4,0.4
2023-07-24T20:00:00,2269A,124.1069,50.4097,大兴安岭地区,科技局,细颗粒物(PM2.5),82,93,39,60,28,89,81,76,76,5,5,6,6,0.7,0.3
2023-07-24T20:00:00,2270A,117.396,32.939,蚌埠市,工人疗养院,,40,40,39,17,16,150,90,133,130,9,6,9,10,0.2,0.2
2023-07-24T20:00:00,2271A,117.3605,32.9427,蚌埠市,百货大楼,,38,38,40,15,16,149,99,135,133,6,8,3,5,0.4,0.4
2023-07-24T20:00:00,2273A,117.4185,32.8911,蚌埠市,蚌埠学院,,31,31,38,13,20,144,91,135,131,7,9,1,10,0.5,0.5
2023-07-24T20:00:00,2274A,117.3533,32.9673,蚌埠市,淮上区政府,,44,44,42,19,21,144,97,135,132,14,11,5,5,0.2,0.2
2023-07-24T20:00:00,2275A,117.3145,32.8977,蚌埠市,高新区,,39,39,40,16,17,141,104,131,130,10,9,13,7,0.5,0.4
2023-07-24T20:00:00,2277A,116.8305,32.7727,淮南市,潘集区政府,,45,45,41,19,21,152,107,146,141,13,11,3,4,0.4,0.4
2023-07-24T20:00:00,2278A,117.0067,32.6524,淮南市,师范学院,,34,33,40,13,22,149,108,133,128,5,5,8,9,0.3,0.3
2023-07-24T20:00:00,2279A,116.8569,32.5951,淮南市,谢家集区政府,,35,19,29,6,6,137,111,122,114,15,11,5,5,0.2,0.2
2023-07-24T20:00:00,2280A,116.8281,32.633,淮南市,八公山区政府,,39,39,36,20,19,130,108,122,120,14,8,7,7,0.3,0.3
2023-07-24T20:00:00,2281A,116.6325,32.6201,淮南市,焦岗湖风景区管理处,,31,31,29,14,8,97,72,80,75,6,6,5,5,0.3,0.3
2023-07-24T20:00:00,2282A,116.8004,33.975,淮北市,监测站,颗粒物(PM10),56,61,30,16,13,162,140,152,152,11,12,3,3,0.5,0.4
2023-07-24T20:00:00,2283A,116.8091,33.9007,淮北市,烈山区政府,,50,42,23,23,20,174,160,166,166,6,10,3,4,0.5,0.5
2023-07-24T20:00:00,2285A,117.8177,30.9412,铜陵市,市第四中学,,29,28,36,15,13,109,90,94,94,6,19,2,13,0.4,0.8
2023-07-24T20:00:00,2286A,117.8059,30.9273,铜陵市,市公路局,,38,38,30,23,15,120,84,110,108,16,17,5,9,0.7,0.8
2023-07-24T20:00:00,2287A,117.7807,30.9413,铜陵市,市新民污水厂,,44,44,34,14,13,116,22,101,89,41,18,7,18,0.4,0.4
2023-07-24T20:00:00,2288A,117.7439,30.8792,铜陵市,市第九中学,,43,43,43,18,9,110,33,95,83,51,29,6,6,0.5,0.5
2023-07-24T20:00:00,2289A,117.846,30.9413,铜陵市,车站新区,,40,40,25,22,13,155,103,127,126,18,15,3,6,0.5,0.5
2023-07-24T20:00:00,2290A,117.8483,30.97,铜陵市,市职教基地,,33,29,25,9,8,123,103,99,99,7,17,5,7,0.6,1.1
2023-07-24T20:00:00,2291A,117.0809,30.5177,安庆市,环科院,,32,31,18,20,12,102,35,93,87,64,18,5,4,0.5,0.4
2023-07-24T20:00:00,2292A,117.0331,30.5119,安庆市,马山宾馆,,25,23,16,17,12,103,73,93,91,21,14,3,4,0.4,0.4
2023-07-24T20:00:00,2294A,116.9896,30.6145,安庆市,安庆大学,,34,34,20,21,15,104,61,92,89,17,12,5,5,0.5,0.4
2023-07-24T20:00:00,2295A,118.2903,29.6963,黄山市,延安路89号,,,34,28,,8,88,57,84,79,6,4,5,5,0.4,0.3
2023-07-24T20:00:00,2296A,118.327,29.7178,黄山市,黄山东路89号,,18,14,17,7,5,84,57,80,75,4,5,6,6,0.4,0.4
2023-07-24T20:00:00,2297A,118.1371,30.2756,黄山市,黄山区政府5号楼,,25,25,21,15,7,73,42,68,63,9,5,7,6,0.3,0.2
2023-07-24T20:00:00,2298A,118.3093,32.3153,滁州市,老年大学,,40,20,27,12,14,149,128,132,132,17,8,7,8,0.3,0.3
2023-07-24T20:00:00,2299A,118.3244,32.2786,滁州市,人大宾馆,,45,15,22,18,14,144,141,137,137,14,14,5,7,0.4,0.3
2023-07-24T20:00:00,2301A,115.8277,32.8929,阜阳市,市监测站,,31,31,25,15,11,134,80,124,116,26,15,5,5,0.6,0.6
2023-07-24T20:00:00,2303A,115.8554,32.8605,阜阳市,开发区,,35,35,26,12,12,128,96,120,117,12,15,5,5,0.6,0.6
2023-07-24T20:00:00,2307A,116.5079,31.737,六安市,监测大楼,,27,26,24,3,8,135,86,115,105,1,2,1,1,0.3,0.3
2023-07-24T20:00:00,2308A,116.4738,31.7643,六安市,皖西学院,,34,34,30,11,9,147,96,123,117,4,5,5,6,0.2,0.2
2023-07-24T20:00:00,2309A,116.4996,31.7905,六安市,朝阳厂,,29,23,19,1,11,142,92,126,117,4,4,7,7,0.4,0.3
2023-07-24T20:00:00,2310A,116.5567,31.7886,六安市,开发区,,36,36,31,18,18,118,89,107,100,5,6,6,7,0.3,0.3
2023-07-24T20:00:00,2311A,115.8072,33.8399,亳州市,污水处理厂,,38,38,28,15,10,149,118,137,137,7,6,4,4,0.7,0.6
2023-07-24T20:00:00,2312A,115.7789,33.8518,亳州市,三国揽胜宫,,41,41,30,16,13,150,126,140,139,8,5,4,4,0.7,0.6
2023-07-24T20:00:00,2314A,117.47,30.6618,池州市,池州学院,,35,25,20,17,12,119,109,111,111,7,4,5,6,0.6,0.6
2023-07-24T20:00:00,2316A,118.7581,30.9454,宣城市,鳌峰子站,,27,17,33,12,11,102,85,88,88,16,16,12,7,0.4,0.4
2023-07-24T20:00:00,2317A,118.7385,30.9743,宣城市,敬亭山子站,,19,17,22,13,9,96,58,87,84,12,13,6,7,0.3,0.4
2023-07-24T20:00:00,2318A,118.7173,30.9427,宣城市,开发区子站,,29,22,19,14,9,108,92,97,97,14,13,5,6,0.5,0.4
2023-07-24T20:00:00,2319A,119.0141,25.4325,莆田市,荔城区仓后路,,20,18,35,7,14,170,61,135,120,9,15,7,7,0.6,0.6
2023-07-24T20:00:00,2320A,119.0015,25.4553,莆田市,莆田市监测站,,21,20,32,8,12,182,65,147,131,7,10,8,8,0.7,0.6
2023-07-24T20:00:00,2321A,119.1119,25.4561,莆田市,涵江区六中,,20,17,29,4,11,183,62,140,118,5,12,8,8,0.5,0.5
2023-07-24T20:00:00,2322A,119.1013,25.3215,莆田市,秀屿区政府,,30,24,27,21,12,137,60,118,108,3,9,7,8,0.6,0.6
2023-07-24T20:00:00,2323A,118.981,25.4792,莆田市,东圳水库,,,17,28,14,13,,,,,2,7,1,1,,
2023-07-24T20:00:00,2324A,117.6211,26.2625,三明市,三钢,,35,35,35,18,21,95,63,82,77,15,14,9,11,0.4,0.4
2023-07-24T20:00:00,2325A,117.635,26.2714,三明市,三明二中,,21,21,30,14,18,96,55,84,76,12,16,5,8,0.7,0.8
2023-07-24T20:00:00,2326A,117.6028,26.2378,三明市,三元区政府,,23,23,30,10,15,103,48,88,72,11,13,7,11,0.8,0.8
2023-07-24T20:00:00,2327A,117.7275,26.3108,三明市,洋溪,,,38,42,22,24,,,,,14,10,12,11,,
2023-07-24T20:00:00,2331A,118.0966,26.6761,南平市,茫荡山,,,,,13,11,,,,,,,5,5,,
2023-07-24T20:00:00,2332A,118.1681,26.6369,南平市,南平市监测站,,23,23,26,12,13,73,32,66,58,12,6,4,5,0.7,0.6
2023-07-24T20:00:00,2333A,118.1825,26.6489,南平市,南平铝业有限公司,,27,27,28,13,15,70,38,65,60,15,9,6,6,0.7,0.6
2023-07-24T20:00:00,2334A,118.1756,26.6272,南平市,南平七中,,25,25,26,14,14,79,41,69,62,11,6,3,3,0.7,0.7
2023-07-24T20:00:00,2335A,117.0189,25.1181,龙岩市,龙岩师专,,,17,27,13,13,,,,,22,13,3,5,,
2023-07-24T20:00:00,2336A,117.0217,25.1033,龙岩市,龙岩市监测站,,30,30,21,18,11,82,23,73,60,27,14,3,4,0.8,0.6
2023-07-24T20:00:00,2337A,117.0258,25.0661,龙岩市,闽西职业技术学院,,30,30,30,14,12,76,12,64,47,26,18,4,8,0.5,0.4
2023-07-24T20:00:00,2338A,117.0196,25.0306,龙岩市,龙岩学院,,26,20,17,18,9,73,29,64,53,8,6,4,4,0.3,0.3
2023-07-24T20:00:00,2339A,119.5001,26.6946,宁德市,金涵水库,,,4,32,32,12,,,,,8,8,3,3,,
2023-07-24T20:00:00,2341A,119.5388,26.6612,宁德市,宁德市监测站,,27,25,30,7,15,175,84,133,133,7,8,9,8,0.6,0.7
2023-07-24T20:00:00,2342A,117.3102,29.3867,景德镇市,王港中学,,36,30,28,25,12,159,46,130,124,6,5,2,3,0.4,0.7
2023-07-24T20:00:00,2343A,117.2117,29.2933,景德镇市,老干部活动中心,,38,38,26,19,17,116,53,97,90,12,11,5,6,0.2,0.2
2023-07-24T20:00:00,2344A,117.1894,29.2789,景德镇市,兽医站,细颗粒物(PM2.5),57,33,27,40,21,104,60,97,92,14,12,7,8,0.4,0.3
2023-07-24T20:00:00,2345A,117.1547,29.2617,景德镇市,台达陶瓷,,38,38,28,23,15,96,68,92,89,9,17,13,14,0.4,0.4
2023-07-24T20:00:00,2346A,117.2461,29.2956,景德镇市,陶研所,,,19,39,23,11,144,46,99,94,9,22,6,9,,0.3
2023-07-24T20:00:00,2347A,114.0997,27.5002,萍乡市,武功山,,16,11,12,11,7,68,23,56,50,4,4,21,23,0.4,0.7
2023-07-24T20:00:00,2348A,113.8385,27.6434,萍乡市,中医院,,49,37,30,34,30,84,63,74,72,15,8,15,13,0.6,0.6
2023-07-24T20:00:00,2349A,113.8493,27.6253,萍乡市,市政府车库,,31,31,30,15,21,84,66,79,76,7,13,8,16,0.3,0.9
2023-07-24T20:00:00,2350A,113.8676,27.6435,萍乡市,市环保局,,26,21,27,18,20,83,76,74,73,6,9,10,17,0.4,0.5
2023-07-24T20:00:00,2351A,113.866,27.6198,萍乡市,安源区政府,,34,34,28,23,19,79,67,75,72,8,12,6,8,0.4,0.7
2023-07-24T20:00:00,2352A,115.0861,27.9317,新余市,北岗,,23,23,15,13,10,105,52,87,83,4,7,6,7,0.6,0.6
2023-07-24T20:00:00,2353A,114.9886,27.8431,新余市,飞宇,,,40,32,22,16,96,45,76,72,6,10,5,5,,0.5
2023-07-24T20:00:00,2354A,114.9231,27.8246,新余市,第二水厂,,32,32,39,11,14,110,54,86,79,13,13,7,10,0.3,0.4
2023-07-24T20:00:00,2355A,114.9308,27.8036,新余市,市气象局,,25,25,32,13,18,96,53,75,69,9,9,7,6,0.9,1.2
2023-07-24T20:00:00,2357A,116.9822,28.1136,鹰潭市,龙虎山,,22,6,26,4,11,84,70,76,76,2,2,3,3,0.8,0.9
2023-07-24T20:00:00,2358A,117.0564,28.2642,鹰潭市,新监测站,,,,38,,19,114,78,98,97,,11,1,4,0.2,0.4
2023-07-24T20:00:00,2359A,117.0311,28.2475,鹰潭市,财苑宾馆,,,,38,7,13,114,73,95,93,4,7,6,8,0.2,0.3
2023-07-24T20:00:00,2360A,117.0222,28.2264,鹰潭市,体育馆,,33,33,31,11,12,110,67,94,93,15,9,2,3,0.2,0.3
2023-07-24T20:00:00,2361A,117.0017,28.2131,鹰潭市,三川水表,,37,37,30,9,13,109,82,98,98,1,8,1,3,0.2,0.4
2023-07-24T20:00:00,2362A,114.9017,25.9149,赣州市,通天岩,,,,,,,,,,,,,,,,
2023-07-24T20:00:00,2363A,114.9367,25.8664,赣州市,地委,,44,44,35,14,15,139,70,106,97,3,10,2,4,1.1,1.1
2023-07-24T20:00:00,2364A,114.9461,25.8481,赣州市,气象台,,33,28,26,23,13,131,77,108,100,8,12,3,8,0.9,0.9
2023-07-24T20:00:00,2365A,114.9322,25.8333,赣州市,市图书馆,,37,37,33,20,13,143,87,118,109,8,13,12,13,0.8,0.8
2023-07-24T20:00:00,2366A,114.8905,25.8471,赣州市,华坚鞋城,颗粒物(PM10),51,52,36,24,16,149,76,122,112,23,14,7,7,0.8,0.8
2023-07-24T20:00:00,2367A,114.9754,27.0803,吉安市,红声器材厂,,30,30,31,16,16,114,75,87,87,5,10,6,8,0.7,0.8
2023-07-24T20:00:00,2368A,114.9658,27.0999,吉安市,市森林工业局,,23,23,27,14,17,118,72,86,85,4,11,5,6,0.7,0.6
2023-07-24T20:00:00,2369A,114.99,27.1312,吉安市,市环境监测站,,25,25,26,11,13,125,67,86,85,9,9,8,9,0.9,0.7
2023-07-24T20:00:00,2370A,115.0093,27.0968,吉安市,青原区法院,,30,30,26,16,14,122,80,91,90,9,11,13,14,0.8,0.8
2023-07-24T20:00:00,2371A,114.3408,27.8064,宜春市,槟榔水业,,24,24,29,11,16,90,26,65,49,12,5,1,1,0,0
2023-07-24T20:00:00,2373A,114.3956,27.7844,宜春市,市石油公司,,18,18,29,9,17,111,40,81,68,8,8,2,4,0.6,0.6
2023-07-24T20:00:00,2374A,114.3703,27.7914,宜春市,市气象局,,29,29,33,15,20,97,39,76,66,12,12,1,3,1.0,1
2023-07-24T20:00:00,2375A,114.4013,27.8074,宜春市,市广电局,,24,24,33,16,19,109,53,83,75,10,7,5,7,0.6,0.6
2023-07-24T20:00:00,2376A,116.2127,28.0814,抚州市,桐源党溪,,36,36,25,20,10,96,86,88,88,2,3,1,2,0.9,1.1
2023-07-24T20:00:00,2377A,116.3544,27.9831,抚州市,市站,,28,28,30,12,16,99,71,90,89,5,8,4,6,0.9,0.9
2023-07-24T20:00:00,2378A,116.3565,27.963,抚州市,血防站,,32,32,31,16,13,96,66,82,81,4,10,4,4,0.7,0.9
2023-07-24T20:00:00,2379A,116.3564,28.0007,抚州市,采茶剧团,,23,23,32,14,17,89,67,84,83,2,10,6,7,0.7,0.8
2023-07-24T20:00:00,2380A,116.385,27.9647,抚州市,医学分院,,25,25,26,9,14,101,62,89,87,10,11,4,6,1.1,1.2
2023-07-24T20:00:00,2381A,118.005,28.4572,上饶市,百草园,,32,24,29,22,14,85,61,76,72,4,8,2,9,0.6,0.6
2023-07-24T20:00:00,2382A,117.9756,28.4436,上饶市,市监测站,,31,31,31,15,16,101,81,85,82,9,11,4,12,0.6,0.6
2023-07-24T20:00:00,2383A,117.9519,28.4628,上饶市,凤凰光学,,28,28,31,11,15,110,82,91,88,8,12,6,21,0.7,0.8
2023-07-24T20:00:00,2385A,114.17,35.9019,鹤壁市,市监测站,,38,37,63,22,38,204,121,174,160,24,29,4,5,0.8,0.9
2023-07-24T20:00:00,2386A,114.2956,35.7511,鹤壁市,市交警支队,,47,25,60,13,30,189,148,165,165,11,27,11,10,0.5,0.6
2023-07-24T20:00:00,2387A,114.2878,35.7306,鹤壁市,迎宾馆,,47,18,54,20,40,194,150,168,168,10,20,6,8,0.7,0.8
2023-07-24T20:00:00,2389A,113.836,35.311,新乡市,环保西院,颗粒物(PM10),54,57,64,18,37,216,116,176,171,20,21,8,7,0.7,0.8
2023-07-24T20:00:00,2390A,113.884,35.272,新乡市,开发区,,42,41,51,14,32,235,132,202,196,10,14,2,3,0.6,0.7
2023-07-24T20:00:00,2391A,113.883,35.303,新乡市,环保东院,颗粒物(PM10),51,51,68,23,27,225,124,196,190,15,22,5,6,0.6,0.7
2023-07-24T20:00:00,2392A,115.0312,35.7636,濮阳市,环保局,,38,27,39,11,23,171,121,161,158,16,11,3,3,0.5,0.6
2023-07-24T20:00:00,2394A,115.0574,35.7609,濮阳市,油田运输公司,,40,22,47,11,25,178,126,163,160,18,12,4,4,0.5,0.6
2023-07-24T20:00:00,2395A,115.0866,35.7754,濮阳市,油田物探公司,,43,12,46,10,24,177,136,160,160,6,8,3,3,0.4,0.5
2023-07-24T20:00:00,2396A,113.8276,34.0159,许昌市,监测站,,42,38,43,16,20,160,133,144,144,13,13,3,3,0.7,0.7
2023-07-24T20:00:00,2398A,113.7906,33.9953,许昌市,开发区,,,43,42,15,20,145,,134,134,19,16,1,1,0.6,0.6
2023-07-24T20:00:00,2399A,114.051,33.5699,漯河市,三五一五工厂,,44,44,41,22,20,172,116,158,155,15,16,9,9,0.5,0.5
2023-07-24T20:00:00,2400A,114.0055,33.5698,漯河市,漯河大学,,50,50,39,22,24,176,126,163,161,10,13,8,13,0.4,0.4
2023-07-24T20:00:00,2401A,114.0138,33.5828,漯河市,市水利局,,41,41,40,17,15,174,129,159,158,9,12,7,8,0.5,0.5
2023-07-24T20:00:00,2402A,114.0261,33.5698,漯河市,市广电局,,38,34,37,20,20,177,120,162,159,11,11,5,6,0.6,0.6
2023-07-24T20:00:00,2404A,112.5224,33.0122,南阳市,瓦房庄,,37,37,37,23,26,121,96,113,111,16,13,6,6,0.6,0.5
2023-07-24T20:00:00,2405A,112.5003,32.9735,南阳市,汉画馆,,36,33,34,25,30,117,106,112,112,7,6,5,4,0.5,0.4
2023-07-24T20:00:00,2406A,112.5573,33.027,南阳市,气象站,,46,46,46,23,27,124,104,118,116,12,11,6,4,0.4,0.4
2023-07-24T20:00:00,2407A,112.5481,32.9689,南阳市,理工学院,,40,39,37,28,26,115,91,109,108,16,13,7,6,0.5,0.5
2023-07-24T20:00:00,2408A,115.6702,34.4285,商丘市,环境监测站,,48,48,35,20,18,149,136,142,142,10,9,9,10,0.7,0.6
2023-07-24T20:00:00,2409A,115.6458,34.4045,商丘市,粮食局,颗粒物(PM10),51,51,32,21,16,152,140,145,145,8,9,3,5,0.5,0.5
2023-07-24T20:00:00,2410A,115.6293,34.3948,商丘市,睢阳区环保局,,50,50,34,22,18,148,135,144,144,11,10,3,4,0.6,0.6
2023-07-24T20:00:00,2420A,114.0189,32.9656,驻马店市,市一纸厂,,48,48,38,12,13,149,107,133,131,11,16,4,4,0.5,0.8
2023-07-24T20:00:00,2421A,114.0114,33.015,驻马店市,市彩印厂,,40,40,37,15,12,146,118,135,134,3,6,6,6,0.5,0.4
2023-07-24T20:00:00,2422A,113.9976,32.9771,驻马店市,天方二分厂,,45,45,36,18,16,146,113,130,128,8,10,4,4,0.6,0.5
2023-07-24T20:00:00,2423A,115.0601,30.2313,黄石市,沈家营,颗粒物(PM10),52,54,56,19,16,112,62,104,100,29,19,15,15,0.5,0.8
2023-07-24T20:00:00,2424A,115.0817,30.2006,黄石市,陈家湾,颗粒物(PM10),68,85,57,24,17,148,106,124,124,6,8,6,8,0.7,0.6
2023-07-24T20:00:00,2426A,114.8988,30.2019,黄石市,铁山,颗粒物(PM10),51,52,30,27,14,141,126,128,128,11,14,7,12,0.6,0.7
2023-07-24T20:00:00,2427A,115.0307,30.2092,黄石市,团城山,颗粒物(PM10),55,60,46,32,15,128,105,119,119,8,11,8,11,0.5,0.6
2023-07-24T20:00:00,2428A,111.0419,32.395,十堰市,武当山,,39,34,32,27,24,96,60,92,88,5,5,7,7,0.6,0.6
2023-07-24T20:00:00,2429A,110.78,32.6494,十堰市,滨河新村,,50,50,43,27,22,109,107,102,102,4,12,5,8,0.6,0.6
2023-07-24T20:00:00,2430A,110.7258,32.6389,十堰市,刘家沟,,49,40,42,34,24,124,109,109,109,7,11,4,6,0.5,0.5
2023-07-24T20:00:00,2431A,110.8839,32.5714,十堰市,铁二处,,,,,,,,,,,,,,,,
2023-07-24T20:00:00,2432A,112.155,32.0197,襄阳市,襄城运动路,,,38,37,23,22,134,104,123,122,,9,,6,0.7,0.8
2023-07-24T20:00:00,2433A,112.1392,32.0564,襄阳市,樊城新华路,,40,40,42,26,23,130,108,122,122,7,7,5,6,0.7,0.7
2023-07-24T20:00:00,2434A,112.1825,32.1142,襄阳市,高新管委会,,41,41,36,27,26,125,106,119,118,8,7,6,6,0.8,0.8
2023-07-24T20:00:00,2435A,112.2106,32.0903,襄阳市,襄州航空路,,46,46,40,26,28,118,93,110,108,6,4,5,5,0.7,0.7
2023-07-24T20:00:00,2436A,114.8938,30.3994,鄂州市,市政府,,31,31,35,17,11,133,97,121,118,14,9,6,6,0.4,0.4
2023-07-24T20:00:00,2437A,114.8989,30.3714,鄂州市,赵家坝,,49,49,35,16,10,123,90,114,112,12,8,4,5,0.6,0.6
2023-07-24T20:00:00,2439A,112.2014,31.0481,荆门市,竹园小学,,38,38,39,22,23,129,102,115,114,18,12,8,10,0.6,0.7
2023-07-24T20:00:00,2440A,112.1969,30.9891,荆门市,掇刀,,42,42,37,22,21,131,102,118,116,13,11,8,8,0.6,0.6
2023-07-24T20:00:00,2441A,112.2213,31.0386,荆门市,石化一小,,40,40,45,22,22,118,108,110,110,11,18,8,6,0.5,0.5
2023-07-24T20:00:00,2443A,113.9153,30.9285,孝感市,文化路,臭氧1小时,69,36,28,28,20,200,175,176,176,12,13,7,6,1.2,0.9
2023-07-24T20:00:00,2444A,113.942,30.9075,孝感市,东城区,臭氧1小时,85,44,30,22,17,209,188,184,184,17,16,10,7,1.0,0.7
2023-07-24T20:00:00,2446A,114.9028,30.4742,黄冈市,职工中心,,43,43,35,18,17,138,85,119,116,10,6,15,14,0.6,0.5
2023-07-24T20:00:00,2447A,114.3175,29.8142,咸宁市,森林公园,,35,35,24,11,9,96,77,80,80,4,4,5,5,0.6,0.5
2023-07-24T20:00:00,2448A,114.3107,29.8454,咸宁市,市发改委,,31,15,13,13,10,125,97,106,105,4,5,4,5,0.8,0.6
2023-07-24T20:00:00,2449A,114.2936,29.8566,咸宁市,咸安区政府,,,,19,,13,37,,45,,,7,,3,,0.6
2023-07-24T20:00:00,2451A,113.3583,31.7275,随州市,市委党校,,43,43,33,29,24,107,104,102,102,3,4,5,6,0.7,0.6
2023-07-24T20:00:00,2452A,113.3833,31.6908,随州市,市林业局,,44,44,35,28,22,108,97,104,104,6,6,4,4,0.7,0.7
2023-07-24T20:00:00,2453A,113.3983,31.7308,随州市,市立交桥水厂,,41,41,37,28,26,112,93,102,101,8,9,6,6,0.7,0.7
2023-07-24T20:00:00,2454A,109.4978,30.2981,恩施土家族苗族自治州,湖北民院,,24,24,58,12,17,146,45,101,92,10,14,9,10,0.6,0.7
2023-07-24T20:00:00,2455A,109.4707,30.2798,恩施土家族苗族自治州,州电力总公司,,19,19,31,12,15,136,43,87,83,19,22,9,10,0.8,0.9
2023-07-24T20:00:00,2456A,112.5003,26.9167,衡阳市,原169医院,,36,25,30,25,18,108,41,91,86,17,10,6,4,0.3,0.4
2023-07-24T20:00:00,2457A,112.6194,26.9258,衡阳市,衡阳化工总厂,,42,42,38,25,21,135,62,106,102,14,10,8,8,0.6,0.6
2023-07-24T20:00:00,2458A,112.6211,26.8956,衡阳市,珠晖区环保局,,,31,35,,,128,63,101,98,13,11,5,8,0.6,0.7
2023-07-24T20:00:00,2459A,112.6197,26.8733,衡阳市,市委党校,,30,30,31,21,22,118,59,101,96,16,10,8,10,0.6,0.6
2023-07-24T20:00:00,2460A,112.6006,26.8919,衡阳市,市监测站,,35,35,33,17,22,124,65,98,94,14,13,6,10,0.6,0.7
2023-07-24T20:00:00,2461A,112.5664,26.9056,衡阳市,真空机电公司,,,50,36,,21,115,53,95,90,27,14,12,13,1.8,0.9
2023-07-24T20:00:00,2462A,111.5239,27.3033,邵阳市,市水土所,细颗粒物(PM2.5),53,42,35,37,23,113,33,94,80,9,7,3,8,0.5,0.4
