timepoint,stationcode,longitude,latitude,area,positionname,primarypollutant,aqi,pm10,pm10_24h,pm2_5,pm2_5_24h,o3,o3_24h,o3_8h,o3_8h_24h,no2,no2_24h,so2,so2_24h,co,co_24h
2023-07-24T15:00:00,1001A,116.3621,39.8784,北京市,万寿西宫,臭氧1小时,90,36,44,18,27,206,192,153,153,16,30,3,3,0.6,0.5
2023-07-24T15:00:00,1002A,116.2202,40.2915,北京市,定陵,臭氧1小时,113,40,36,31,22,225,225,142,142,12,9,3,3,0.7,0.5
2023-07-24T15:00:00,1003A,116.4174,39.9289,北京市,东四,臭氧1小时,100,47,51,27,30,213,200,141,141,10,22,1,1,0.7,0.6
2023-07-24T15:00:00,1004A,116.4072,39.8863,北京市,天坛,臭氧1小时,80,39,48,23,28,199,184,142,142,12,25,1,2,0.5,0.5
2023-07-24T15:00:00,1005A,116.462,39.9365,北京市,农展馆,臭氧1小时,102,46,51,25,28,216,203,148,148,7,21,3,3,0.6,0.6
2023-07-24T15:00:00,1006A,116.3392,39.9295,北京市,官园,臭氧1小时,112,46,49,27,31,227,224,166,166,11,22,3,2,0.3,0.4
2023-07-24T15:00:00,1007A,116.2878,39.9611,北京市,海淀万柳,臭氧1小时,104,40,46,24,26,207,207,150,150,11,23,1,1,0.5,0.5
2023-07-24T15:00:00,1008A,116.6636,40.135,北京市,顺义新城,臭氧1小时,78,42,41,25,24,185,182,128,128,9,16,3,3,0.6,0.4
2023-07-24T15:00:00,1009A,116.6275,40.3275,北京市,怀柔镇,臭氧1小时,108,59,35,33,19,216,216,144,144,12,13,3,3,0.9,0.7
2023-07-24T15:00:00,1010A,116.2296,40.217,北京市,昌平镇,臭氧1小时,119,43,38,32,26,238,238,152,152,2,17,3,3,0.6,0.5
2023-07-24T15:00:00,1011A,116.3966,39.9821,北京市,奥体中心,臭氧1小时,83,45,41,21,23,201,186,139,139,15,30,3,3,0.5,0.5
2023-07-24T15:00:00,1012A,116.184,39.9136,北京市,古城,臭氧1小时,93,42,43,22,27,196,194,146,146,11,20,3,3,0.6,0.5
2023-07-24T15:00:00,1015A,117.1444,39.1661,天津市,勤俭道,臭氧1小时,93,40,44,22,28,210,194,173,173,4,13,6,6,0.8,0.8
2023-07-24T15:00:00,1017A,117.237,39.1082,天津市,大直沽八号路,臭氧1小时,70,40,52,29,41,183,176,159,159,9,19,2,2,0.6,0.7
2023-07-24T15:00:00,1018A,117.202,39.0927,天津市,前进道,臭氧1小时,73,37,44,22,29,179,178,154,154,10,19,4,4,0.7,0.8
2023-07-24T15:00:00,1019A,117.1837,39.2133,天津市,淮河道,臭氧1小时,97,41,49,26,31,212,197,169,169,7,22,6,6,0.8,0.9
2023-07-24T15:00:00,1021A,117.307,39.0877,天津市,跃进路,臭氧1小时,94,48,54,27,34,212,195,167,167,6,22,6,6,0.7,0.8
2023-07-24T15:00:00,1023A,117.707,39.0343,天津市,第四大街,臭氧1小时,68,54,56,21,30,182,174,135,135,17,34,7,5,1.0,1
2023-07-24T15:00:00,1024A,117.457,38.8394,天津市,永明路,臭氧1小时,112,47,47,33,29,224,223,171,171,8,14,5,4,0.9,0.8
2023-07-24T15:00:00,1026A,117.764,39.1587,天津市,汉北路,臭氧1小时,74,51,46,39,34,208,179,144,144,4,14,3,3,0.8,0.7
2023-07-24T15:00:00,1027A,117.157,38.9194,天津市,团泊洼,臭氧1小时,57,22,51,12,32,165,165,136,136,10,21,2,2,0.6,0.6
2023-07-24T15:00:00,1029A,114.4422,38.0444,石家庄市,职工医院,臭氧1小时,124,69,41,24,18,248,248,167,167,9,17,6,4,1.1,0.5
2023-07-24T15:00:00,1030A,114.6063,38.0266,石家庄市,高新区,臭氧1小时,118,82,48,37,22,236,236,162,162,9,20,1,2,1.0,0.5
2023-07-24T15:00:00,1031A,114.4898,38.1328,石家庄市,西北水源,臭氧1小时,126,65,37,21,19,258,252,169,169,12,18,3,2,0.8,0.5
2023-07-24T15:00:00,1032A,114.4586,38.0058,石家庄市,西南高教,臭氧1小时,120,67,39,32,17,240,240,162,162,8,17,4,2,1.1,0.6
2023-07-24T15:00:00,1033A,114.5331,38.0178,石家庄市,世纪公园,臭氧1小时,113,72,43,31,17,226,226,164,164,9,18,8,4,1.1,0.5
2023-07-24T15:00:00,1034A,114.509,38.0457,石家庄市,人民会堂,臭氧1小时,120,63,47,31,15,239,239,183,183,10,20,3,2,1.0,0.4
2023-07-24T15:00:00,1035A,114.3524,37.8911,石家庄市,封龙山,臭氧1小时,112,73,48,26,24,225,224,166,166,13,11,10,8,1.4,0.9
2023-07-24T15:00:00,1037A,118.131,39.6363,唐山市,雷达站,臭氧1小时,95,53,57,34,30,196,196,150,150,9,16,1,5,0.6,1
2023-07-24T15:00:00,1038A,118.1725,39.6334,唐山市,物资局,臭氧1小时,85,46,54,29,31,188,188,141,141,6,16,3,6,0.7,1.1
2023-07-24T15:00:00,1040A,118.1705,39.6506,唐山市,十二中,臭氧1小时,84,47,55,30,40,188,187,140,140,2,15,1,5,0.6,1.2
2023-07-24T15:00:00,1041A,118.1869,39.622,唐山市,小山,臭氧1小时,95,34,48,30,28,196,196,143,143,2,13,4,7,0.7,1.2
2023-07-24T15:00:00,1042A,119.5134,39.8207,秦皇岛市,北戴河环保局,,39,32,25,14,10,193,124,117,117,10,20,5,5,0.6,0.6
2023-07-24T15:00:00,1043A,119.7493,40.0116,秦皇岛市,第一关,,43,38,43,19,17,176,137,115,115,5,38,2,2,0.4,0.5
2023-07-24T15:00:00,1044A,119.5897,39.9499,秦皇岛市,监测站,,41,38,36,21,16,177,131,110,110,13,27,5,6,0.4,0.5
2023-07-24T15:00:00,1046A,119.5251,39.9041,秦皇岛市,建设大厦,,47,43,36,29,15,194,149,125,125,10,30,5,5,0.6,0.6
2023-07-24T15:00:00,1048A,114.5302,36.6116,邯郸市,东污水处理厂,颗粒物(PM10),52,53,45,27,36,175,158,131,131,4,14,3,4,0.5,0.5
2023-07-24T15:00:00,1049A,114.4918,36.5713,邯郸市,矿院,,49,38,52,31,39,178,156,127,127,2,15,3,7,0.5,0.6
2023-07-24T15:00:00,1050A,114.484,36.6133,邯郸市,丛台公园,颗粒物(PM10),52,53,55,24,33,179,152,131,131,3,11,3,5,0.5,0.6
2023-07-24T15:00:00,1051A,115.493,38.8632,保定市,游泳馆,臭氧1小时,75,43,35,39,19,180,180,122,122,4,13,8,8,0.6,0.3
2023-07-24T15:00:00,1052A,115.5213,38.8959,保定市,华电二区,,,57,39,29,13,210,,139,139,4,11,7,5,0.6,0.3
2023-07-24T15:00:00,1053A,115.4713,38.9108,保定市,接待中心,臭氧1小时,70,51,41,27,14,176,176,126,126,4,12,3,3,0.8,0.5
2023-07-24T15:00:00,1054A,115.4612,38.8416,保定市,地表水厂,臭氧1小时,80,63,51,28,20,184,184,129,129,8,26,8,8,0.9,0.5
2023-07-24T15:00:00,1056A,115.5086,38.8639,保定市,监测站,臭氧1小时,105,65,39,44,25,210,210,141,141,8,17,11,6,0.7,0.4
2023-07-24T15:00:00,1057A,114.8883,40.8336,张家口市,人民公园,,50,34,22,4,8,158,158,111,111,5,9,3,3,0.2,0.3
2023-07-24T15:00:00,1059A,114.8687,40.8042,张家口市,五金库,,49,34,27,13,14,154,154,114,114,7,13,2,8,0.2,0.4
2023-07-24T15:00:00,1060A,114.8902,40.762,张家口市,世纪豪园,,50,26,31,16,19,160,160,110,110,9,16,6,5,0.2,0.2
2023-07-24T15:00:00,1061A,114.8916,40.8661,张家口市,北泵房,臭氧1小时,58,28,24,15,12,166,166,128,128,6,8,10,9,0.7,0.6
2023-07-24T15:00:00,1062A,117.9531,40.9081,承德市,铁路,,41,41,29,11,13,137,131,82,82,10,16,6,7,0.5,0.3
2023-07-24T15:00:00,1063A,117.9392,40.9763,承德市,中国银行,,45,26,30,16,11,146,141,88,88,7,14,6,6,0.5,0.4
2023-07-24T15:00:00,1064A,117.9503,40.928,承德市,开发区,,40,25,24,12,12,139,127,84,84,21,15,5,5,0.6,0.4
2023-07-24T15:00:00,1065A,117.8051,40.9655,承德市,文化中心,,43,32,25,14,10,138,137,94,94,6,12,7,7,0.4,0.3
2023-07-24T15:00:00,1066A,117.9268,41.0026,承德市,离宫,,38,15,32,6,14,128,121,78,78,4,9,4,5,0.5,0.3
2023-07-24T15:00:00,1067A,116.6708,39.5111,廊坊市,药材公司,臭氧1小时,84,60,63,37,36,187,187,145,145,7,18,1,2,0.6,0.5
2023-07-24T15:00:00,1068A,116.7214,39.5589,廊坊市,开发区,臭氧1小时,79,40,47,35,32,183,183,138,138,1,14,1,2,0.7,0.6
2023-07-24T15:00:00,1070A,116.7244,39.5269,廊坊市,北华航天学院,臭氧1小时,88,69,56,46,37,192,190,157,157,4,18,4,5,0.6,0.5
2023-07-24T15:00:00,1071A,116.8842,38.2991,沧州市,沧县城建局,,49,41,54,24,30,172,155,129,129,8,24,5,5,0.5,0.5
2023-07-24T15:00:00,1072A,116.8584,38.3254,沧州市,电视转播站,,47,40,48,27,31,158,149,129,129,6,19,6,7,0.4,0.5
2023-07-24T15:00:00,1073A,116.8709,38.3228,沧州市,市环保局,,44,32,52,27,31,165,140,116,116,9,25,3,4,0.3,0.3
2023-07-24T15:00:00,1074A,115.6838,37.7541,衡水市,电机北厂,臭氧1小时,60,39,56,24,34,192,168,135,135,1,12,4,5,0.5,0.6
2023-07-24T15:00:00,1075A,115.6303,37.7316,衡水市,市监测站,颗粒物(PM10),52,53,60,21,31,184,159,130,130,5,16,7,7,0.6,0.7
2023-07-24T15:00:00,1077A,114.4704,37.0886,邢台市,达活泉,臭氧1小时,104,87,62,46,29,223,208,150,150,5,21,6,9,0.9,0.9
2023-07-24T15:00:00,1078A,114.5062,37.0349,邢台市,邢师高专,臭氧1小时,84,55,61,42,34,193,187,133,133,4,35,4,6,0.5,0.6
2023-07-24T15:00:00,1079A,114.5237,37.0851,邢台市,路桥公司,臭氧1小时,73,69,61,44,35,205,178,127,127,7,21,3,4,0.6,0.6
2023-07-24T15:00:00,1080A,114.4725,37.0719,邢台市,市环保局,臭氧1小时,103,78,68,54,35,231,206,145,145,12,26,4,6,0.7,0.7
2023-07-24T15:00:00,1081A,112.522,37.8873,太原市,尖草坪,臭氧1小时,110,62,46,25,17,251,219,174,174,14,23,10,8,0.7,0.6
2023-07-24T15:00:00,1083A,112.434,38.0108,太原市,上兰,,,,28,,11,133,,128,,,7,,6,,0.5
2023-07-24T15:00:00,1084A,112.469,37.7124,太原市,晋源,臭氧1小时,125,81,40,23,18,250,250,177,177,15,25,14,9,0.9,0.7
2023-07-24T15:00:00,1085A,112.5583,37.7394,太原市,小店,臭氧1小时,114,,50,22,19,234,227,177,177,15,29,8,8,0.6,0.6
2023-07-24T15:00:00,1086A,112.5369,37.8692,太原市,桃园,臭氧1小时,107,50,42,22,18,250,213,169,169,14,27,7,9,0.7,0.8
2023-07-24T15:00:00,1087A,112.57,37.8195,太原市,坞城,臭氧1小时,110,51,45,19,20,242,220,184,184,12,24,7,8,,0.7
2023-07-24T15:00:00,1088A,112.549,37.9854,太原市,南寨,臭氧1小时,109,56,55,24,22,249,218,159,159,22,32,12,7,0.9,0.7
2023-07-24T15:00:00,1090A,111.6507,40.7517,呼和浩特市,呼市一监,臭氧1小时,88,41,26,12,11,190,190,139,139,10,18,9,7,0.5,0.5
2023-07-24T15:00:00,1091A,111.6572,40.8033,呼和浩特市,小召,臭氧1小时,78,44,30,14,11,182,182,136,136,19,26,16,11,0.6,0.7
2023-07-24T15:00:00,1094A,111.7516,40.8369,呼和浩特市,如意水处理厂,臭氧1小时,98,30,25,8,5,198,198,152,152,10,25,12,9,0.5,0.5
2023-07-24T15:00:00,1095A,111.7276,40.8062,呼和浩特市,二十九中,臭氧1小时,88,37,28,11,12,190,190,141,141,13,24,10,7,0.6,0.6
2023-07-24T15:00:00,1096A,111.5512,40.7866,呼和浩特市,工大金川校区,臭氧1小时,64,35,35,11,11,171,171,126,126,14,26,10,8,0.5,0.5
2023-07-24T15:00:00,1097A,111.717,40.7612,呼和浩特市,化肥厂生活区,臭氧1小时,70,46,30,13,9,176,176,130,130,19,22,7,5,0.6,0.6
2023-07-24T15:00:00,1098A,123.6836,41.9339,沈阳市,森林路,,,,26,,16,49,,40,,,11,,3,,0.8
2023-07-24T15:00:00,1099A,123.505,41.7406,沈阳市,浑南东路,臭氧1小时,101,41,32,23,17,201,201,139,139,14,32,4,7,1.5,0.9
2023-07-24T15:00:00,1100A,123.4231,41.6989,沈阳市,新秀街,臭氧1小时,75,34,28,17,11,180,180,134,134,12,30,6,10,1.3,0.9
2023-07-24T15:00:00,1102A,123.5903,41.8411,沈阳市,东陵路,臭氧1小时,82,45,29,24,13,185,185,128,128,7,19,6,5,1.1,0.7
2023-07-24T15:00:00,1103A,123.4264,41.8467,沈阳市,陵东街,,48,23,22,17,15,152,152,116,116,9,16,7,5,1.1,0.9
2023-07-24T15:00:00,1104A,123.4114,41.7653,沈阳市,文化路,臭氧1小时,78,30,34,16,17,182,182,135,135,11,24,8,9,1.2,0.9
2023-07-24T15:00:00,1105A,123.4678,41.7867,沈阳市,小河沿,臭氧1小时,55,32,28,18,15,164,164,125,125,11,20,7,6,1.3,1
2023-07-24T15:00:00,1106A,123.4017,41.7972,沈阳市,太原街,臭氧1小时,73,24,26,18,20,178,178,135,135,11,26,5,5,1.1,0.9
2023-07-24T15:00:00,1108A,123.3783,41.9228,沈阳市,京沈街,,48,22,26,16,15,171,153,138,138,6,15,7,8,0.7,0.7
2023-07-24T15:00:00,1109A,121.612,38.9741,大连市,甘井子,,38,17,37,12,32,132,119,109,109,17,24,3,5,0.5,0.6
2023-07-24T15:00:00,1110A,121.565,38.9511,大连市,周水子,,44,20,53,14,29,139,139,108,108,8,18,5,4,0.4,0.4
2023-07-24T15:00:00,1111A,121.5637,38.8845,大连市,星海三站,,35,23,25,19,27,132,110,100,100,6,13,3,3,0.6,0.7
2023-07-24T15:00:00,1112A,121.6302,38.9117,大连市,青泥洼桥,,39,17,28,12,25,126,122,107,107,6,11,4,5,0.8,1
2023-07-24T15:00:00,1113A,121.6251,38.8638,大连市,傅家庄,,34,26,32,23,27,142,108,111,102,5,8,7,7,0.6,0.6
2023-07-24T15:00:00,1114A,121.5213,38.8661,大连市,七贤岭,,41,26,24,22,24,150,130,120,120,4,8,5,6,0.4,0.5
2023-07-24T15:00:00,1115A,121.2529,38.8061,大连市,旅顺,,38,21,23,19,20,150,120,108,108,9,15,4,4,0.5,0.6
2023-07-24T15:00:00,1116A,121.7485,39.1311,大连市,金州,,42,14,27,11,22,141,133,121,121,12,11,9,9,0.7,0.8
2023-07-24T15:00:00,1117A,121.7811,39.0496,大连市,开发区,,35,26,29,14,28,143,111,102,102,16,21,4,5,0.7,0.8
2023-07-24T15:00:00,1118A,121.9762,39.0631,大连市,双D港,,,24,33,16,27,158,112,111,111,10,15,6,7,,0.6
2023-07-24T15:00:00,1119A,125.3325,43.9166,长春市,食品厂,,27,17,10,6,6,86,86,82,82,15,13,4,4,0.4,0.4
2023-07-24T15:00:00,1120A,125.2863,43.9027,长春市,客车厂,,30,17,9,7,6,94,94,85,85,8,10,4,4,0.4,0.4
2023-07-24T15:00:00,1121A,125.2841,43.8463,长春市,邮电学院,,32,13,9,4,4,102,102,90,90,5,8,4,4,0.4,0.3
2023-07-24T15:00:00,1122A,125.3716,43.8772,长春市,劳动公园,,33,11,8,4,3,104,104,92,92,6,8,5,5,0.4,0.3
2023-07-24T15:00:00,1123A,125.3297,43.8805,长春市,园林处,,31,31,14,5,3,99,99,86,86,10,12,3,3,0.4,0.4
2023-07-24T15:00:00,1124A,125.4605,43.79,长春市,净月潭,,33,11,7,4,3,104,104,87,87,5,5,3,3,0.3,0.3
2023-07-24T15:00:00,1125A,125.7194,43.515,长春市,甩湾子,,27,10,9,5,4,95,86,83,83,8,9,4,4,0.3,0.3
2023-07-24T15:00:00,1126A,125.3863,43.8447,长春市,经开区环卫处,,32,8,9,4,3,100,100,87,87,8,9,5,5,0.4,0.3
2023-07-24T15:00:00,1127A,125.245,43.7783,长春市,高新区管委会,,33,13,7,5,4,103,103,88,88,6,7,4,4,0.5,0.3
2023-07-24T15:00:00,1128A,125.1761,43.8325,长春市,岱山公园,,30,4,8,5,4,94,94,87,87,5,8,3,3,0.5,0.4
2023-07-24T15:00:00,1129A,126.5422,45.755,哈尔滨市,岭北,,25,5,6,2,3,100,78,67,67,4,7,9,8,0.7,0.6
2023-07-24T15:00:00,1130A,126.561,45.8167,哈尔滨市,松北商大,,17,15,8,3,3,77,53,46,46,6,6,5,5,0.4,0.5
2023-07-24T15:00:00,1131A,126.979,45.5419,哈尔滨市,阿城会宁,,23,13,9,2,4,93,72,61,61,6,6,7,7,0.5,0.5
2023-07-24T15:00:00,1132A,126.599,45.7222,哈尔滨市,南岗学府路,,,,16,,6,82,63,54,54,3,4,4,5,0.5,0.7
2023-07-24T15:00:00,1133A,126.689,45.7733,哈尔滨市,太平宏伟公园,,,10,11,3,4,79,63,51,51,6,8,5,5,,0.4
2023-07-24T15:00:00,1134A,126.635,45.7667,哈尔滨市,道外承德广场,,20,8,8,2,4,84,62,47,47,12,14,5,5,0.6,0.4
2023-07-24T15:00:00,1135A,126.685,45.7319,哈尔滨市,香坊红旗大街,,21,8,9,6,4,84,67,55,55,7,11,5,5,0.5,0.5
2023-07-24T15:00:00,1136A,126.6411,45.7258,哈尔滨市,动力和平路,,,15,9,,,83,65,54,54,11,11,6,6,0.4,0.4
2023-07-24T15:00:00,1137A,126.593,45.7478,哈尔滨市,道里建国路,,19,13,10,4,6,81,60,48,48,15,15,4,5,0.6,0.9
2023-07-24T15:00:00,1138A,126.615,45.61,哈尔滨市,平房东轻厂,,21,21,7,3,3,83,60,54,54,7,6,4,4,0.3,0.3
2023-07-24T15:00:00,1139A,126.595,45.9855,哈尔滨市,呼兰师专,,18,7,9,2,3,78,55,49,49,7,8,10,10,0.4,0.4
2023-07-24T15:00:00,1140A,126.6206,45.6842,哈尔滨市,省农科院,,22,6,10,3,3,86,70,61,61,7,11,12,12,0.4,0.4
2023-07-24T15:00:00,1141A,121.4,31.238,上海市,普陀,,39,39,34,24,22,142,121,79,79,18,21,6,6,0.6,0.6
2023-07-24T15:00:00,1142A,121.478,31.2036,上海市,十五厂,,35,32,35,24,22,125,100,71,71,10,21,8,9,0.5,0.5
2023-07-24T15:00:00,1143A,121.467,31.3008,上海市,虹口,,42,40,35,29,20,145,128,85,85,13,18,7,8,0.6,0.6
2023-07-24T15:00:00,1144A,121.412,31.1654,上海市,徐汇上师大,,36,36,36,22,20,128,115,84,84,16,20,7,4,0.8,0.8
2023-07-24T15:00:00,1145A,121.536,31.2659,上海市,杨浦四漂,,38,37,38,24,22,147,120,79,79,9,18,5,6,0.7,0.8
2023-07-24T15:00:00,1147A,121.425,31.2261,上海市,静安监测站,,42,42,35,24,21,140,127,85,85,17,20,3,3,0.6,0.5
2023-07-24T15:00:00,1148A,121.703,31.1907,上海市,浦东川沙,,40,33,35,28,24,125,104,73,73,15,22,6,6,0.5,0.6
2023-07-24T15:00:00,1149A,121.533,31.2284,上海市,浦东新区监测站,,38,38,34,15,19,135,107,65,65,12,20,7,7,0.5,0.5
2023-07-24T15:00:00,1150A,121.577,31.2071,上海市,浦东张江,,42,28,35,29,22,118,100,66,66,14,26,5,6,0.6,0.6
2023-07-24T15:00:00,1151A,118.8086,32.1065,南京市,迈皋桥,臭氧1小时,100,37,22,19,10,200,200,122,122,6,13,5,4,0.6,0.5
2023-07-24T15:00:00,1152A,118.7538,32.0551,南京市,草场门,臭氧1小时,106,39,25,19,11,211,211,122,122,13,19,5,7,0.8,0.7
2023-07-24T15:00:00,1153A,118.7794,32.0745,南京市,山西路,臭氧1小时,114,58,30,24,11,228,228,135,135,8,14,4,5,0.5,0.4
2023-07-24T15:00:00,1154A,118.7752,32.0023,南京市,中华门,臭氧1小时,92,41,29,19,13,193,193,111,111,4,13,7,8,1.2,1.2
2023-07-24T15:00:00,1155A,118.8109,32.0309,南京市,瑞金路,臭氧1小时,103,48,30,27,15,206,206,119,119,14,17,4,4,1.0,0.9
2023-07-24T15:00:00,1156A,118.7997,32.0754,南京市,玄武湖,臭氧1小时,103,39,28,20,12,206,206,122,122,5,13,7,9,0.6,0.7
2023-07-24T15:00:00,1157A,118.6414,32.0931,南京市,浦口,臭氧1小时,87,40,30,22,12,189,189,114,114,13,12,4,5,0.4,0.3
2023-07-24T15:00:00,1158A,118.7356,31.9996,南京市,奥体中心,臭氧1小时,101,52,31,29,18,202,202,112,112,8,19,9,11,0.8,0.7
2023-07-24T15:00:00,1159A,118.9125,32.1028,南京市,仙林大学城,臭氧1小时,109,44,30,27,16,217,217,132,132,6,14,8,10,0.7,0.7
2023-07-24T15:00:00,1160A,120.561,31.2472,苏州市,上方山,,33,16,29,19,19,134,105,73,73,6,11,6,6,0.3,0.3
2023-07-24T15:00:00,1162A,120.591,31.3019,苏州市,彩香,,40,15,33,12,21,144,126,95,95,4,11,6,7,0.5,0.6
2023-07-24T15:00:00,1163A,120.596,31.3264,苏州市,轧钢厂,,44,23,32,12,21,139,139,100,100,6,12,8,8,0.5,0.6
2023-07-24T15:00:00,1164A,120.613,31.2703,苏州市,吴中区,,46,19,32,11,20,153,145,106,106,12,21,8,8,0.5,0.5
2023-07-24T15:00:00,1165A,120.543,31.2994,苏州市,苏州新区,,38,15,30,5,20,139,121,90,90,2,10,7,8,0.5,0.7
2023-07-24T15:00:00,1166A,120.669,31.3097,苏州市,苏州工业园区,,44,12,34,10,22,138,138,92,92,1,14,8,8,0.6,0.6
2023-07-24T15:00:00,1167A,120.641,31.3708,苏州市,相城区,,48,27,27,12,22,151,151,97,97,12,21,4,5,0.6,0.6
2023-07-24T15:00:00,1168A,120.9098,31.9663,南通市,狼山街道,臭氧1小时,57,33,32,22,23,219,165,136,136,11,27,7,8,0.6,0.7
2023-07-24T15:00:00,1169A,120.86,32.0005,南通市,虹桥,,,,26,29,27,188,183,124,124,14,34,8,9,0.9,0.9
2023-07-24T15:00:00,1170A,120.87,32.02,南通市,城中,臭氧1小时,67,37,33,31,24,184,173,128,128,5,22,5,7,0.7,0.7
2023-07-24T15:00:00,1171A,120.94,31.93,南通市,星湖花园,,50,21,33,21,21,211,160,141,141,13,23,4,6,0.7,0.8
2023-07-24T15:00:00,1172A,120.81,32.0417,南通市,紫琅学院,臭氧1小时,94,52,34,29,18,198,195,132,132,25,35,6,7,0.9,0.8
2023-07-24T15:00:00,1173A,119.176,34.5885,连云港市,市环境监测站,臭氧1小时,77,44,26,22,12,181,181,138,138,10,11,5,5,0.2,0.2
2023-07-24T15:00:00,1177A,117.179,34.2761,徐州市,黄河新村,臭氧1小时,83,63,35,31,20,186,186,125,125,10,12,6,6,0.7,0.6
2023-07-24T15:00:00,1178A,117.1918,34.2384,徐州市,淮塔,臭氧1小时,68,51,33,32,19,174,174,134,134,7,14,7,8,0.6,0.4
2023-07-24T15:00:00,1180A,117.256,34.2153,徐州市,新城区,,,56,42,19,18,182,,129,129,6,12,7,6,0.3,0.3
2023-07-24T15:00:00,1181A,117.244,34.2911,徐州市,桃园路,臭氧1小时,72,46,28,31,17,204,177,142,142,20,13,8,8,0.5,0.4
2023-07-24T15:00:00,1182A,117.2933,34.2778,徐州市,农科院,,,41,28,24,18,174,158,146,146,10,19,5,5,,0.5
2023-07-24T15:00:00,1186A,119.389,32.3761,扬州市,邗江监测站,臭氧1小时,73,48,43,23,22,178,178,117,117,14,17,4,5,0.4,0.4
2023-07-24T15:00:00,1188A,120.269,31.4867,无锡市,雪浪,,41,19,20,7,11,146,130,102,102,6,11,3,4,0.6,0.7
2023-07-24T15:00:00,1189A,120.275,31.6219,无锡市,黄巷,,48,26,27,17,15,152,152,107,107,12,19,5,5,0.7,0.8
2023-07-24T15:00:00,1190A,120.294,31.56,无锡市,曹张,,,,28,,16,66,,74,,,11,,3,,0.6
2023-07-24T15:00:00,1191A,120.242,31.5031,无锡市,漆塘,,46,14,19,14,13,145,145,106,106,6,11,5,6,0.5,0.6
2023-07-24T15:00:00,1192A,120.3489,31.5863,无锡市,东亭,,45,27,28,19,18,152,141,110,110,12,17,10,10,0.5,0.7
2023-07-24T15:00:00,1193A,120.354,31.5475,无锡市,旺庄,,43,19,24,7,14,137,137,98,98,3,12,6,7,0.5,0.6
2023-07-24T15:00:00,1194A,120.245,31.5631,无锡市,荣巷,,41,19,23,14,15,131,131,100,100,4,8,8,9,0.4,0.5
2023-07-24T15:00:00,1195A,120.299,31.6817,无锡市,堰桥,臭氧1小时,63,29,23,17,13,170,170,116,116,9,16,8,6,1.1,0.8
2023-07-24T15:00:00,1196A,119.9633,31.762,常州市,市监测站,,36,16,22,11,11,115,115,91,91,4,12,6,6,0.6,0.7
2023-07-24T15:00:00,1200A,119.9468,31.7069,常州市,武进监测站,,36,22,24,7,13,130,115,100,100,2,7,6,7,0.5,0.6
2023-07-24T15:00:00,1201A,119.9255,31.9087,常州市,安家,,40,20,20,16,15,126,126,99,99,1,12,4,4,0.5,0.7
2023-07-24T15:00:00,1203A,119.6707,32.1875,镇江市,新区办事处,,41,31,28,13,18,130,130,96,96,6,13,3,4,0.5,0.7
2023-07-24T15:00:00,1204A,119.4974,32.1968,镇江市,职教中心,,47,33,28,19,18,158,149,132,132,5,9,2,3,0.5,0.6
2023-07-24T15:00:00,1205A,119.4303,32.1328,镇江市,丹徒区监测站,,50,44,36,14,22,158,158,110,110,5,13,7,5,0.7,0.7
2023-07-24T15:00:00,1206A,119.905,32.4878,泰州市,公园路,臭氧1小时,87,39,30,24,22,189,189,122,122,10,18,8,8,0.6,0.6
2023-07-24T15:00:00,1207A,119.9189,32.4625,泰州市,莲花,,,44,30,22,20,184,184,125,125,8,15,7,7,,0.5
2023-07-24T15:00:00,1209A,119.888,32.4639,泰州市,留学生创业园,臭氧1小时,75,34,33,16,22,180,180,119,119,6,17,8,8,0.8,0.8
2023-07-24T15:00:00,1210A,119.036,33.5981,淮安市,钵池山,臭氧1小时,55,34,27,18,17,164,164,111,111,9,11,6,6,0.7,0.7
2023-07-24T15:00:00,1211A,119.007,33.575,淮安市,北京南路,臭氧1小时,53,34,30,18,16,162,162,108,108,10,17,7,8,0.9,0.9
2023-07-24T15:00:00,1212A,118.989,33.6067,淮安市,市监测站,臭氧1小时,55,41,32,17,12,164,164,121,121,8,13,4,8,0.7,0.9
2023-07-24T15:00:00,1213A,119.135,33.5039,淮安市,楚州区监测站,,45,27,31,10,14,142,142,104,104,6,11,6,6,0.9,0.8
2023-07-24T15:00:00,1214A,119.0186,33.6297,淮安市,淮阴区监测站,臭氧1小时,57,34,32,22,18,165,165,119,119,7,15,7,9,0.6,0.6
2023-07-24T15:00:00,1215A,120.118,33.4022,盐城市,盐城电厂,,43,36,40,12,23,143,137,110,110,3,7,5,5,0.6,0.6
2023-07-24T15:00:00,1216A,120.156,33.3942,盐城市,市监测站,,44,31,33,9,19,154,139,117,117,5,6,2,4,0.4,0.5
2023-07-24T15:00:00,1218A,120.2144,33.38,盐城市,开发区管委会,,42,33,34,11,24,143,134,100,100,5,8,4,4,0.4,0.6
2023-07-24T15:00:00,1220A,118.293,33.9528,宿迁市,宿迁学院,,,,19,,14,109,,116,,,10,,6,,0.6
2023-07-24T15:00:00,1221A,118.2442,33.9592,宿迁市,宿迁中学,,44,26,24,11,14,148,138,117,117,10,12,6,6,0.5,0.5
2023-07-24T15:00:00,1223A,120.2072,30.2111,杭州市,滨江,,38,21,29,11,14,126,120,72,72,4,16,6,6,0.7,0.8
2023-07-24T15:00:00,1224A,120.0633,30.2747,杭州市,西溪,,39,27,25,14,10,122,122,76,76,4,11,3,4,0.7,0.7
2023-07-24T15:00:00,1226A,120.3461,30.3153,杭州市,下沙,臭氧1小时,62,38,32,27,17,169,169,87,87,12,20,4,4,0.5,0.5
2023-07-24T15:00:00,1227A,120.1269,30.2456,杭州市,卧龙桥,,45,26,25,16,14,146,143,84,84,6,11,6,4,0.6,0.6
2023-07-24T15:00:00,1228A,120.1903,30.2692,杭州市,浙江农大,,45,23,19,15,13,142,142,92,92,8,14,7,7,0.7,0.7
2023-07-24T15:00:00,1230A,120.1197,30.3119,杭州市,和睦小学,,45,24,21,15,13,142,142,82,82,11,14,6,6,0.6,0.7
2023-07-24T15:00:00,1231A,120.3019,30.4183,杭州市,临平镇,臭氧1小时,73,36,29,25,13,178,178,95,95,10,17,4,4,0.5,0.5
2023-07-24T15:00:00,1232A,120.2697,30.1819,杭州市,城厢镇,,47,38,37,23,23,148,148,80,80,9,18,6,5,0.6,0.7
2023-07-24T15:00:00,1233A,120.0883,30.1808,杭州市,云栖,,45,28,34,15,12,147,144,85,85,6,11,5,4,0.7,0.6
2023-07-24T15:00:00,1234A,121.8358,29.911,宁波市,区环保大楼,,20,18,26,14,18,84,56,53,46,16,25,2,3,0.5,0.6
2023-07-24T15:00:00,1235A,121.56,29.82,宁波市,万里学院,,21,21,40,11,24,65,23,45,44,41,23,4,4,0.6,0.7
2023-07-24T15:00:00,1236A,121.713,29.9572,宁波市,龙赛医院,,19,12,30,13,17,77,36,58,40,30,26,7,7,0.5,0.6
2023-07-24T15:00:00,1239A,121.633,29.7733,宁波市,钱湖水厂,,16,7,36,6,19,75,51,56,56,1,7,2,3,0.4,0.5
2023-07-24T15:00:00,1240A,121.5856,29.8635,宁波市,太古小学,,21,14,30,7,22,72,23,41,34,41,23,4,4,0.6,0.7
2023-07-24T15:00:00,1241A,121.524,29.8674,宁波市,市环境监测中心,,16,16,36,10,18,72,34,41,41,27,19,4,4,0.4,0.5
2023-07-24T15:00:00,1242A,120.634,28.0089,温州市,瓯海,,25,25,43,13,24,132,78,64,64,11,27,5,5,0.5,0.6
2023-07-24T15:00:00,1243A,120.6748,27.9939,温州市,南浦,,28,28,40,14,22,146,68,69,69,6,16,6,6,0.2,0.4
2023-07-24T15:00:00,1244A,120.76,27.9747,温州市,龙湾,,17,16,40,8,19,121,54,54,54,9,25,5,6,0.4,0.5
2023-07-24T15:00:00,1245A,120.6709,28.0167,温州市,市站,,39,39,45,10,24,108,52,50,50,21,24,5,5,0.3,0.6
2023-07-24T15:00:00,1247A,120.6053,29.9928,绍兴市,城东开发委,,29,29,28,19,17,99,76,55,55,7,16,5,5,0.5,0.6
2023-07-24T15:00:00,1250A,120.0751,30.8669,湖州市,城西水厂,,45,25,23,12,15,142,142,84,84,11,21,2,4,0.5,0.5
2023-07-24T15:00:00,1252A,120.7436,30.778,嘉兴市,清河小学,,35,31,38,10,18,115,112,71,71,6,20,6,7,0.4,0.6
2023-07-24T15:00:00,1253A,120.726,30.7478,嘉兴市,嘉兴学院,,40,28,30,13,23,126,126,71,71,8,23,3,3,0.4,0.6
2023-07-24T15:00:00,1255A,121.273,28.6459,台州市,黄岩环保大楼,,22,22,28,9,16,109,62,98,54,15,10,4,3,0.7,0.7
2023-07-24T15:00:00,1256A,121.419,28.6542,台州市,台州环保大楼,,24,24,31,11,18,104,62,85,48,9,10,3,3,0.4,0.5
2023-07-24T15:00:00,1257A,121.377,28.5773,台州市,路桥田洋王,,,,49,14,16,118,58,92,49,12,14,4,3,0.4,0.5
2023-07-24T15:00:00,1258A,122.122,30.0203,舟山市,定海檀枫,,20,20,26,13,15,62,24,49,27,29,25,6,6,0.3,0.3
2023-07-24T15:00:00,1259A,122.3094,29.9558,舟山市,普陀东港,,21,21,22,8,10,82,18,58,21,19,13,5,4,0.3,0.4
2023-07-24T15:00:00,1260A,122.19,29.9944,舟山市,临城新区,,20,20,23,7,10,79,24,63,24,27,20,2,2,0.3,0.3
2023-07-24T15:00:00,1262A,119.647,29.077,金华市,十五中,,27,27,34,14,14,135,83,74,74,10,17,2,4,0.4,0.5
2023-07-24T15:00:00,1263A,119.686,29.1029,金华市,监测站,,40,40,30,23,17,115,106,74,74,13,16,4,6,0.5,0.5
2023-07-24T15:00:00,1264A,118.8692,28.9398,衢州市,环保大楼,,36,27,27,14,13,114,114,69,69,8,16,15,6,0.5,0.5
2023-07-24T15:00:00,1265A,118.8709,28.9666,衢州市,实验学校,,33,22,28,17,14,105,105,67,67,8,17,8,6,0.3,0.3
2023-07-24T15:00:00,1266A,118.8621,28.9808,衢州市,衢州学院,,37,20,28,11,14,116,116,72,72,5,16,3,4,0.2,0.3
2023-07-24T15:00:00,1267A,119.914,28.4514,丽水市,监测站大楼,,23,23,30,11,7,103,70,65,65,8,19,5,6,0.5,0.6
2023-07-24T15:00:00,1268A,119.93,28.4586,丽水市,莲都小学,,25,25,33,11,11,94,73,62,62,6,20,5,5,0.5,0.5
2023-07-24T15:00:00,1269A,119.879,28.4231,丽水市,余庄前,,18,14,34,6,12,102,57,54,54,6,14,3,4,0.5,0.6
2023-07-24T15:00:00,1270A,117.1959,31.7848,合肥市,明珠广场,,33,27,28,19,16,137,105,97,97,23,16,5,5,0.3,0.4
2023-07-24T15:00:00,1271A,117.3072,31.8764,合肥市,三里街,,31,31,29,14,16,115,87,85,85,11,17,3,4,0.4,0.4
2023-07-24T15:00:00,1272A,117.2588,31.8707,合肥市,琥珀山庄,,38,36,28,24,18,128,120,102,102,5,8,4,4,0.5,0.5
2023-07-24T15:00:00,1273A,117.1604,31.9052,合肥市,董铺水库,,41,39,22,12,11,135,129,99,99,5,9,4,4,0.3,0.3
2023-07-24T15:00:00,1274A,117.25,31.8571,合肥市,长江中路,,39,39,31,16,17,130,122,98,98,8,11,5,5,0.3,0.4
2023-07-24T15:00:00,1275A,117.266,31.9436,合肥市,庐阳区,,41,41,31,27,19,141,117,103,103,11,16,5,5,0.4,0.6
2023-07-24T15:00:00,1276A,117.336,31.8586,合肥市,瑶海区,,29,29,34,13,12,110,86,79,79,4,11,7,8,0.5,0.5
2023-07-24T15:00:00,1277A,117.3027,31.7964,合肥市,包河区,,29,27,27,17,14,115,91,86,86,19,15,6,6,0.4,0.4
2023-07-24T15:00:00,1278A,117.2776,31.7385,合肥市,滨湖新区,,30,30,23,12,11,126,96,88,88,14,7,6,5,0.4,0.4
2023-07-24T15:00:00,1279A,117.1318,31.8403,合肥市,高新区,,39,31,28,22,16,129,124,95,95,8,12,6,8,0.3,0.3
2023-07-24T15:00:00,1280A,119.3903,26.0543,福州市,鼓山,,,26,23,24,13,,,,,3,9,3,3,,
2023-07-24T15:00:00,1282A,119.2681,26.0504,福州市,师大,,48,48,34,18,11,161,149,97,97,7,14,5,5,0.4,0.4
2023-07-24T15:00:00,1283A,119.2984,26.1028,福州市,五四北路,,50,32,32,20,14,174,160,96,96,10,12,3,3,0.4,0.4
2023-07-24T15:00:00,1284A,119.2648,26.0768,福州市,杨桥西路,颗粒物(PM10),56,62,37,26,15,163,148,95,95,7,14,3,3,0.4,0.4
2023-07-24T15:00:00,1285A,119.317,26.0746,福州市,紫阳,颗粒物(PM10),52,54,36,17,13,150,137,85,85,7,14,4,4,0.4,0.4
2023-07-24T15:00:00,1286A,118.1608,24.8169,厦门市,溪东,,,,23,,16,,,,,,10,,1,,
2023-07-24T15:00:00,1287A,118.1514,24.4767,厦门市,洪文,,26,23,16,4,5,82,82,47,47,5,12,2,3,0.2,0.2
2023-07-24T15:00:00,1288A,118.0661,24.4444,厦门市,鼓浪屿,,18,18,15,6,6,53,43,37,37,19,7,8,3,0.8,0.6
2023-07-24T15:00:00,1290A,115.8931,28.6843,南昌市,省外办,,45,38,22,31,14,129,128,90,90,6,15,8,9,0.6,0.6
2023-07-24T15:00:00,1291A,115.8886,28.7003,南昌市,省林业公司,,43,24,14,24,14,135,135,97,97,6,19,7,7,0.5,0.5
2023-07-24T15:00:00,1292A,115.8126,28.7442,南昌市,林科所,,42,29,17,29,10,134,132,97,97,4,23,9,8,0.6,0.7
2023-07-24T15:00:00,1294A,115.8518,28.687,南昌市,建工学校,,42,39,23,13,9,133,133,94,94,2,15,5,5,0.6,0.6
2023-07-24T15:00:00,1295A,115.8921,28.6424,南昌市,象湖,,45,30,13,28,14,143,143,95,95,6,15,4,7,0.6,0.6
2023-07-24T15:00:00,1296A,115.7423,28.7996,南昌市,武术学校,,30,18,18,12,14,94,93,68,68,2,2,4,5,0.3,0.2
2023-07-24T15:00:00,1298A,115.9314,28.6842,南昌市,省站,,43,38,23,27,14,137,137,98,98,4,8,7,11,0.4,0.5
2023-07-24T15:00:00,1299A,116.9862,36.6114,济南市,科干所,臭氧1小时,83,39,29,24,18,208,186,162,162,7,14,6,5,0.4,0.4
2023-07-24T15:00:00,1300A,116.9376,36.665,济南市,农科所,臭氧1小时,102,46,34,17,11,254,204,162,162,11,15,7,6,0.2,0.3
2023-07-24T15:00:00,1301A,117.1265,36.6734,济南市,开发区,臭氧1小时,113,51,36,27,17,226,226,184,184,15,31,5,4,0.5,0.5
2023-07-24T15:00:00,1303A,117.0624,36.6868,济南市,省种子仓库,臭氧1小时,122,48,40,24,18,244,244,169,169,11,30,6,4,0.6,0.6
2023-07-24T15:00:00,1304A,116.9489,36.6447,济南市,机床二厂,臭氧1小时,108,46,38,17,15,264,215,187,187,13,20,8,7,0.5,0.6
2023-07-24T15:00:00,1305A,117.0495,36.663,济南市,市监测站,臭氧1小时,112,44,34,22,19,241,224,169,169,13,28,5,5,0.5,0.5
2023-07-24T15:00:00,1306A,116.7675,36.5484,济南市,长清党校,臭氧1小时,72,39,30,24,18,177,177,152,152,7,14,7,6,0.6,0.5
2023-07-24T15:00:00,1307A,120.6659,36.2403,青岛市,仰口,,,,42,,37,111,,81,81,9,8,,5,0.7,0.5
2023-07-24T15:00:00,1310A,120.4134,36.0658,青岛市,市南区东部子站,,41,19,43,9,29,180,129,126,126,6,13,6,5,0.6,0.7
2023-07-24T15:00:00,1311A,120.3664,36.1032,青岛市,四方区子站,,45,27,46,19,33,171,144,133,120,11,17,5,5,0.7,0.8
2023-07-24T15:00:00,1312A,120.2994,36.054,青岛市,市南区西部子站,,35,34,59,24,36,163,104,92,92,30,31,11,7,0.9,0.9
2023-07-24T15:00:00,1313A,120.4581,36.0858,青岛市,崂山区子站,,42,29,46,12,34,202,133,121,121,6,13,7,7,0.6,0.6
2023-07-24T15:00:00,1314A,120.1983,35.9608,青岛市,黄岛区子站,,46,14,37,15,29,216,147,129,129,9,18,8,7,0.9,1
2023-07-24T15:00:00,1315A,120.3999,36.3083,青岛市,城阳区子站,臭氧1小时,111,53,59,32,32,222,222,159,159,20,26,5,5,0.7,0.8
2023-07-24T15:00:00,1316A,113.69031,34.76122,郑州市,烟厂,臭氧1小时,102,55,56,27,22,238,203,145,145,9,18,3,3,0.5,0.6
2023-07-24T15:00:00,1317A,113.65724,34.77134,郑州市,郑纺机,,,44,53,,23,234,181,128,128,10,14,3,1,0.5,0.5
2023-07-24T15:00:00,1318A,113.67526,34.80246,郑州市,银行学校,臭氧1小时,85,45,48,26,27,249,188,137,137,11,17,1,2,0.5,0.7
2023-07-24T15:00:00,1319A,113.56746,34.81334,郑州市,供水公司,臭氧1小时,82,35,54,21,20,203,185,140,140,11,19,2,2,0.4,0.5
2023-07-24T15:00:00,1320A,113.7329,34.7178,郑州市,经开区管委,臭氧1小时,54,56,60,25,25,202,163,117,117,6,14,1,1,0.6,0.6
2023-07-24T15:00:00,1321A,113.73961,34.77172,郑州市,四十七中,臭氧1小时,62,58,56,30,27,209,169,119,119,11,14,1,1,0.6,0.6
2023-07-24T15:00:00,1322A,113.60532,34.74838,郑州市,市监测站,臭氧1小时,80,54,60,22,21,195,184,124,124,9,17,2,2,0.4,0.5
2023-07-24T15:00:00,1323A,113.64164,34.7525,郑州市,河医大,臭氧1小时,69,54,56,23,21,196,175,122,122,4,13,4,3,0.4,0.5
2023-07-24T15:00:00,1324A,113.51488,34.91089,郑州市,岗李水库,臭氧1小时,101,50,60,22,25,202,201,134,134,15,19,3,3,0.6,0.7
2023-07-24T15:00:00,1325A,114.3677,30.5584,武汉市,东湖梨园,,41,32,32,15,14,130,130,90,90,7,13,6,6,0.7,0.7
2023-07-24T15:00:00,1326A,114.2529,30.558,武汉市,汉阳月湖,,37,28,34,9,12,119,118,87,87,15,21,6,15,0.5,0.8
2023-07-24T15:00:00,1327A,114.282,30.6189,武汉市,汉口花桥,,47,30,37,17,18,150,150,100,100,11,19,7,7,0.7,0.7
2023-07-24T15:00:00,1328A,114.3025,30.5332,武汉市,武昌紫阳,,40,21,29,16,13,135,128,94,94,6,15,5,5,0.6,0.8
2023-07-24T15:00:00,1329A,114.3646,30.6217,武汉市,青山钢花,,49,35,40,17,20,155,155,106,106,7,14,9,9,0.5,0.6
2023-07-24T15:00:00,1330A,114.1566,30.4825,武汉市,沌口新区,,40,31,33,23,21,134,125,94,94,9,17,6,7,0.8,1.1
2023-07-24T15:00:00,1331A,114.3014,30.5944,武汉市,汉口江滩,,47,28,32,17,17,152,149,99,99,10,22,5,5,0.7,0.7
2023-07-24T15:00:00,1333A,114.135,30.6319,武汉市,吴家山,,44,29,30,17,15,140,140,90,90,23,17,5,6,0.6,0.7
2023-07-24T15:00:00,1334A,113.8454,30.2917,武汉市,沉湖七壕,,37,27,24,12,9,117,117,77,77,10,22,5,5,0.8,0.7
2023-07-24T15:00:00,1335A,113.0833,28.2325,长沙市,经开区环保局,,45,37,29,30,21,158,142,103,103,6,9,6,6,0.5,0.5
2023-07-24T15:00:00,1336A,112.8872,28.2189,长沙市,高开区环保局,,38,27,23,26,18,114,111,89,89,4,7,4,4,0.6,0.6
2023-07-24T15:00:00,1337A,113.0792,28.2053,长沙市,马坡岭,细颗粒物(PM2.5),52,37,26,36,24,142,140,100,100,6,10,7,6,0.5,0.5
2023-07-24T15:00:00,1338A,112.9394,28.19,长沙市,湖南师范大学,颗粒物(PM10),51,51,31,32,22,119,101,88,88,15,10,2,2,0.7,0.8
2023-07-24T15:00:00,1339A,113.0178,28.1322,长沙市,雨花区环保局,,45,45,31,20,18,130,130,92,92,3,7,4,4,0.4,0.5
2023-07-24T15:00:00,1340A,112.9792,28.2597,长沙市,伍家岭,,43,35,27,30,18,141,118,98,98,9,12,3,4,0.2,0.2
2023-07-24T15:00:00,1341A,113.0014,28.1944,长沙市,火车新站,颗粒物(PM10),54,57,21,22,19,119,107,83,83,2,7,4,4,0.7,0.8
2023-07-24T15:00:00,1342A,112.9844,28.1178,长沙市,天心区环保局,,40,16,19,26,18,126,126,96,96,2,8,2,3,0.5,0.6
2023-07-24T15:00:00,1343A,112.8908,28.1308,长沙市,湖南中医药大学,,37,25,24,22,16,126,118,98,98,2,6,1,3,0.7,0.8
2023-07-24T15:00:00,1344A,112.9581,28.3611,长沙市,沙坪,,,44,25,22,17,140,132,98,98,5,6,,5,0.5,0.5
2023-07-24T15:00:00,1345A,113.2347,23.1423,广州市,广雅中学,,,,,,,,,,,,,,,,
2023-07-24T15:00:00,1346A,113.2612,23.105,广州市,市五中,,50,20,21,12,11,211,158,85,85,6,10,7,7,0.5,0.5
2023-07-24T15:00:00,1348A,113.3478,23.0916,广州市,广东商学院,,38,34,18,17,8,145,120,67,67,11,15,4,4,0.4,0.5
2023-07-24T15:00:00,1349A,113.4332,23.1047,广州市,市八十六中,,40,21,21,8,7,142,126,64,64,8,16,4,4,0.4,0.4
2023-07-24T15:00:00,1350A,113.3505,22.9483,广州市,番禺中学,,40,17,16,5,7,133,128,74,74,9,14,8,8,0.5,0.5
2023-07-24T15:00:00,1351A,113.2146,23.3916,广州市,花都师范,臭氧1小时,82,35,27,18,13,188,185,93,93,14,19,8,6,0.6,0.5
2023-07-24T15:00:00,1352A,113.2597,23.1331,广州市,市监测站,,47,28,19,15,10,204,148,78,78,13,18,6,6,0.7,0.7
2023-07-24T15:00:00,1353A,113.5618,23.312,广州市,九龙镇镇龙,臭氧1小时,57,36,30,17,13,171,165,65,65,14,25,6,6,0.5,0.5
2023-07-24T15:00:00,1354A,113.2765,23.1544,广州市,麓湖,,36,18,22,10,4,190,114,68,68,9,15,6,6,0.6,0.6
2023-07-24T15:00:00,1355A,113.443,23.3035,广州市,帽峰山森林公园,,49,21,18,9,7,155,155,66,66,10,15,7,7,0.4,0.3
2023-07-24T15:00:00,1356A,114.1063,22.5545,深圳市,通心岭子站,,18,15,10,7,4,67,56,41,41,15,8,4,4,0.5,0.5
2023-07-24T15:00:00,1357A,114.117,22.5625,深圳市,洪湖,,19,9,11,6,4,66,59,43,43,7,9,5,5,0.6,0.6
2023-07-24T15:00:00,1358A,113.987,22.5417,深圳市,华侨城,,16,14,12,2,0,61,51,34,34,17,14,6,6,0.7,0.6
2023-07-24T15:00:00,1359A,113.9181,22.5171,深圳市,南海子站,,47,47,32,8,8,48,43,33,33,24,24,5,5,0.5,0.6
2023-07-24T15:00:00,1360A,114.2458,22.5689,深圳市,盐田,,15,7,9,1,1,55,46,37,37,3,11,4,4,0.5,0.5
2023-07-24T15:00:00,1361A,114.2283,22.7244,深圳市,龙岗,,19,14,13,2,3,77,59,50,50,3,9,7,6,0.7,0.8
2023-07-24T15:00:00,1363A,114.494,22.5422,深圳市,南澳,,15,6,10,0,4,50,46,38,38,6,7,5,5,0.7,0.6
2023-07-24T15:00:00,1364A,114.41,22.6342,深圳市,葵涌,,15,13,12,1,2,48,48,35,35,4,9,6,6,0.5,0.5
2023-07-24T15:00:00,1365A,114.297,22.5978,深圳市,梅沙,,16,11,12,3,2,51,51,39,39,5,8,5,5,0.6,0.6
2023-07-24T15:00:00,1366A,114.0678,22.738,深圳市,观澜,,36,35,26,18,9,113,113,55,55,21,22,7,7,0.5,0.6
2023-07-24T15:00:00,1367A,113.5814,22.2618,珠海市,吉大,,20,11,9,7,4,65,62,42,42,7,8,4,4,0.3,0.3
2023-07-24T15:00:00,1368A,113.4881,22.2335,珠海市,前山,,20,12,9,8,4,66,62,35,35,5,10,6,6,0.3,0.3
2023-07-24T15:00:00,1369A,113.628,22.4251,珠海市,唐家,,19,10,9,2,4,59,58,40,40,2,5,4,4,0.2,0.2
2023-07-24T15:00:00,1370A,113.299,22.2281,珠海市,斗门,,19,5,8,4,5,70,59,50,50,3,6,4,4,0.5,0.5
2023-07-24T15:00:00,1371A,113.1294,23.0067,佛山市,湾梁,,45,27,20,12,10,186,144,88,88,3,10,7,7,0.4,0.4
2023-07-24T15:00:00,1372A,113.1083,23.0478,佛山市,华材职中,臭氧1小时,55,24,17,9,10,207,164,97,97,8,12,7,8,0.6,0.5
2023-07-24T15:00:00,1373A,113.144,23.0453,佛山市,南海气象局,,40,18,24,12,11,148,127,70,70,11,16,7,7,0.5,0.4
2023-07-24T15:00:00,1374A,113.2881,22.8094,佛山市,顺德苏岗,,44,31,12,17,10,138,138,75,75,9,11,6,6,0.6,0.6
2023-07-24T15:00:00,1376A,112.8383,22.8678,佛山市,高明孔堂,,33,20,19,6,9,127,104,63,63,8,8,5,5,0.5,0.5
2023-07-24T15:00:00,1377A,112.8836,23.1588,佛山市,三水监测站,,49,27,22,22,13,155,155,85,85,10,21,5,6,0.4,0.5
2023-07-24T15:00:00,1378A,112.867,23.185,佛山市,三水云东海,,48,17,25,11,14,152,152,85,85,8,17,6,7,0.5,0.5
2023-07-24T15:00:00,1379A,113.3769,22.5211,中山市,华柏园,,27,14,11,6,4,105,86,58,58,8,9,6,5,0.4,0.4
2023-07-24T15:00:00,1380A,113.3881,22.5497,中山市,张溪,,,,16,2,7,101,96,58,58,4,7,6,6,0.5,0.4
2023-07-24T15:00:00,1381A,113.4075,22.5111,中山市,紫马岭,,30,12,12,10,5,94,94,51,51,5,6,6,6,0.3,0.3
2023-07-24T15:00:00,1382A,113.4411,22.4853,中山市,长江旅游区,,25,12,12,5,3,83,78,49,49,4,4,9,9,0.3,0.3
2023-07-24T15:00:00,1383A,113.1064,22.6058,江门市,北街,,31,29,19,10,8,134,98,68,68,6,9,6,6,0.5,0.5
2023-07-24T15:00:00,1384A,113.0731,22.5835,江门市,西区,,36,16,20,12,9,113,113,69,69,9,14,6,7,0.4,0.5
2023-07-24T15:00:00,1385A,113.0219,22.5311,江门市,圭峰西,,32,32,18,7,8,106,87,70,70,8,11,4,4,0.5,0.6
2023-07-24T15:00:00,1386A,113.0828,22.5947,江门市,东湖,,36,23,20,5,6,115,114,71,71,6,9,5,8,0.4,0.5
2023-07-24T15:00:00,1389A,113.7547,23.0494,东莞市,莞城梨川,臭氧1小时,78,26,22,15,11,206,182,96,96,14,19,9,9,0.7,0.7
2023-07-24T15:00:00,1390A,113.7944,23.0128,东莞市,东城石井,臭氧1小时,57,31,17,17,8,174,165,95,95,15,17,8,8,0.6,0.6
2023-07-24T15:00:00,1391A,113.7383,22.9658,东莞市,南城西平,,37,18,18,9,7,149,116,80,80,14,20,8,6,0.4,0.5
2023-07-24T15:00:00,1392A,114.4183,23.0528,惠州市,河南岸金山湖子站,,34,18,22,4,7,108,108,63,63,7,12,3,4,0.5,0.6
2023-07-24T15:00:00,1393A,114.4053,23.0822,惠州市,下埔横江三路子站,,32,22,17,7,6,107,102,65,65,5,9,4,5,0.6,0.6
2023-07-24T15:00:00,1394A,114.4103,23.1142,惠州市,江北云山西路子站,,32,21,17,9,8,110,101,66,66,2,6,4,4,0.4,0.4
2023-07-24T15:00:00,1395A,114.4645,22.7833,惠州市,惠阳区承修路船湖子站,,,16,16,7,8,59,58,44,44,6,10,,5,0.5,0.5
2023-07-24T15:00:00,1396A,114.5317,22.7422,惠州市,大亚湾管委会子站,,,8,17,,7,40,40,30,30,9,14,2,2,0.4,0.4
2023-07-24T15:00:00,1397A,112.4267,23.0706,肇庆市,睦岗子站,,34,18,23,15,12,119,107,66,66,5,12,8,13,0.5,0.5
2023-07-24T15:00:00,1398A,112.4645,23.0475,肇庆市,城中子站,,31,12,20,16,11,109,97,64,64,7,17,10,15,0.4,0.4
2023-07-24T15:00:00,1399A,112.5544,23.1522,肇庆市,坑口子站,,32,20,12,10,8,109,101,63,63,12,14,8,8,0.3,0.3
2023-07-24T15:00:00,1400A,112.4753,23.1,肇庆市,七星岩子站,,28,16,19,7,10,104,89,61,61,7,14,9,14,0.4,0.4
2023-07-24T15:00:00,1401A,108.3103,22.7881,南宁市,二十一中,,30,27,21,10,11,126,94,66,66,4,7,5,5,0.6,0.7
2023-07-24T15:00:00,1402A,108.3141,22.8528,南宁市,北湖,,37,26,21,16,13,128,116,72,72,5,8,5,6,0.5,0.6
2023-07-24T15:00:00,1403A,108.3206,22.8225,南宁市,市监测站,,34,12,24,13,11,121,107,71,71,7,11,6,7,0.6,0.6
2023-07-24T15:00:00,1404A,108.3829,22.8037,南宁市,大自然花园,,31,13,20,12,11,114,98,64,64,7,10,6,6,0.5,0.7
2023-07-24T15:00:00,1405A,108.4394,22.7904,南宁市,仙葫,,29,24,23,12,15,110,91,66,66,10,13,5,6,0.5,0.6
2023-07-24T15:00:00,1406A,108.2397,22.8467,南宁市,区农职院,,37,21,24,13,11,135,117,70,70,8,16,7,8,0.6,0.7
2023-07-24T15:00:00,1407A,108.3275,22.735,南宁市,英华嘉园,,25,11,23,8,11,109,77,55,55,8,13,5,6,0.5,0.6
2023-07-24T15:00:00,1408A,108.2257,22.7757,南宁市,沙井镇街道办,,33,25,28,12,13,103,103,66,66,6,17,5,5,0.5,0.6
2023-07-24T15:00:00,1409A,110.576,19.9507,海口市,东寨港,,,,,,,,,,,,,,,,
2023-07-24T15:00:00,1410A,110.3232,20.0574,海口市,海南大学,,,14,13,6,5,66,58,49,49,6,8,,5,0.3,0.3
2023-07-24T15:00:00,1411A,110.283,20.0053,海口市,秀英海南医院,,22,15,15,5,7,78,70,50,50,7,14,5,5,0.3,0.4
2023-07-24T15:00:00,1412A,110.338,19.9969,海口市,海南师范大学,,21,12,14,5,7,69,67,52,52,4,7,6,7,0.4,0.3
2023-07-24T15:00:00,1413A,110.33,20.0356,海口市,龙华路环保局宿舍,,18,10,13,4,6,64,57,49,49,5,7,6,6,0.3,0.3
2023-07-24T15:00:00,1414A,106.3787,29.8279,重庆市,缙云山,,25,22,17,12,12,162,80,108,80,10,9,8,10,0.3,0.3
2023-07-24T15:00:00,1416A,106.4213,29.8253,重庆市,天生,,30,22,29,21,18,136,63,59,59,14,20,5,6,0.9,0.9
2023-07-24T15:00:00,1417A,106.6263,29.7228,重庆市,两路,,37,37,22,18,17,148,86,73,73,33,31,10,10,1.1,1
2023-07-24T15:00:00,1418A,106.2953,29.5983,重庆市,虎溪,,28,25,33,19,23,185,78,70,70,11,31,4,5,0.4,0.6
2023-07-24T15:00:00,1419A,106.5777,29.5102,重庆市,南坪,,49,49,33,22,18,171,69,71,71,36,20,8,11,0.6,0.5
2023-07-24T15:00:00,1420A,106.6556,29.6277,重庆市,唐家沱,颗粒物(PM10),59,68,30,32,17,172,46,68,68,72,35,8,8,0.8,0.7
2023-07-24T15:00:00,1421A,106.6349,29.4906,重庆市,茶园,,37,37,40,12,13,209,115,99,99,25,38,7,8,0.8,0.8
2023-07-24T15:00:00,1422A,106.3754,29.4572,重庆市,白市驿,,38,38,30,24,14,178,61,65,63,23,20,7,8,0.8,0.8
2023-07-24T15:00:00,1425A,106.6205,29.7166,重庆市,空港,,49,49,30,21,13,166,98,91,91,29,24,8,9,0.8,0.8
2023-07-24T15:00:00,1426A,106.4782,29.4875,重庆市,新山村,颗粒物(PM10),51,52,39,26,22,195,62,62,62,27,27,8,9,0.6,0.6
2023-07-24T15:00:00,1427A,106.5616,29.6453,重庆市,礼嘉,,40,40,34,24,17,168,83,76,76,28,38,8,11,0.7,0.8
2023-07-24T15:00:00,1428A,106.4522,29.7091,重庆市,蔡家,,37,37,40,21,20,174,97,75,75,11,24,4,6,0.6,0.8
2023-07-24T15:00:00,1429A,106.5093,29.3917,重庆市,鱼新街,颗粒物(PM10),60,69,39,37,19,190,56,47,47,32,39,7,6,1.1,1.1
2023-07-24T15:00:00,1431A,103.9728,30.7236,成都市,金泉两河,细颗粒物(PM2.5),69,64,36,50,21,186,124,115,86,3,6,3,3,0.3,0.3
2023-07-24T15:00:00,1432A,104.176,30.6872,成都市,十里店,,35,14,29,18,18,169,111,98,81,2,9,3,4,0.5,0.6
2023-07-24T15:00:00,1433A,104.079,30.5706,成都市,三瓦窑,颗粒物(PM10),56,62,29,38,17,175,112,111,80,18,15,1,1,0.6,0.4
2023-07-24T15:00:00,1434A,104.1114,30.63,成都市,沙河铺,细颗粒物(PM2.5),67,58,31,48,18,161,90,102,61,9,10,1,2,0.5,0.6
2023-07-24T15:00:00,1437A,104.0786,30.6531,成都市,君平街,细颗粒物(PM2.5),57,49,33,40,26,190,143,108,91,9,12,1,2,0.6,0.6
2023-07-24T15:00:00,1438A,103.613,31.0283,成都市,灵岩寺,,39,25,21,17,15,194,124,138,91,5,5,2,6,0.5,0.5
2023-07-24T15:00:00,1439A,106.6899,26.5998,贵阳市,马鞍山,,22,22,20,7,7,84,60,67,67,5,9,4,4,0.5,0.6
2023-07-24T15:00:00,1440A,106.6971,26.5694,贵阳市,市环保站,,19,9,23,11,19,84,58,61,61,19,19,4,4,0.2,0.2
2023-07-24T15:00:00,1441A,106.6243,26.6266,贵阳市,鉴湖路,,20,12,25,13,14,76,63,61,61,7,9,3,3,0.4,0.4
2023-07-24T15:00:00,1442A,106.7487,26.6343,贵阳市,燕子冲,,22,9,17,14,18,82,70,70,70,7,15,5,6,0.5,0.6
2023-07-24T15:00:00,1443A,106.6555,26.4365,贵阳市,碧云窝,,21,19,26,9,11,72,65,64,64,4,7,4,5,0.3,0.3
2023-07-24T15:00:00,1444A,106.694,26.5161,贵阳市,中院村,,27,27,31,12,13,68,59,58,58,11,16,4,6,0.4,0.5
2023-07-24T15:00:00,1445A,106.7109,26.6027,贵阳市,红边门,,25,19,32,17,21,74,58,58,58,15,20,5,6,0.3,0.5
2023-07-24T15:00:00,1446A,106.7164,26.5699,贵阳市,新华路,,22,12,25,9,15,82,69,69,69,10,16,3,4,0.3,0.3
2023-07-24T15:00:00,1447A,106.674,26.5424,贵阳市,太慈桥,,27,27,32,7,10,77,57,62,62,9,14,3,4,0.3,0.4
2023-07-24T15:00:00,1450A,102.8204,24.8886,昆明市,呈贡新区,,23,12,21,8,9,73,73,57,57,5,16,7,6,0.5,0.6
2023-07-24T15:00:00,1451A,102.6251,24.9608,昆明市,西山森林公园,,25,9,10,3,8,79,79,58,58,8,9,8,8,0.5,0.5
2023-07-24T15:00:00,1452A,102.7252,25.0902,昆明市,龙泉镇,,24,6,20,6,9,76,76,52,52,9,15,8,8,0.3,0.6
2023-07-24T15:00:00,1453A,102.7266,25.0375,昆明市,东风东路,,23,11,17,8,15,77,72,50,50,11,16,3,4,0.3,0.5
2023-07-24T15:00:00,1454A,102.6742,25.0669,昆明市,金鼎山,,22,14,20,8,12,74,69,50,50,11,12,2,3,0.5,0.7
2023-07-24T15:00:00,1455A,102.6644,25.0401,昆明市,碧鸡广场,,22,9,19,8,12,75,70,50,50,7,14,6,7,0.4,0.7
2023-07-24T15:00:00,1456A,91.1319,29.6514,拉萨市,八廓街,,30,15,10,9,7,95,94,85,81,8,12,6,6,0.2,0.2
2023-07-24T15:00:00,1457A,91.1221,29.6747,拉萨市,市环保局,,25,6,9,5,6,86,77,74,68,8,13,5,6,0.2,0.3
2023-07-24T15:00:00,1458A,91.0874,29.6475,拉萨市,区监测站,,28,8,9,5,6,88,87,86,69,9,16,8,8,0.4,0.3
2023-07-24T15:00:00,1459A,91.1774,29.6541,拉萨市,西藏大学,,27,8,9,5,5,91,86,81,79,7,9,9,10,0.2,0.2
2023-07-24T15:00:00,1460A,90.9798,29.6588,拉萨市,区辐射站,,26,16,13,5,6,98,82,98,70,7,14,9,9,0.2,0.2
2023-07-24T15:00:00,1461A,91.0834,29.6292,拉萨市,拉萨火车站,,27,8,13,5,6,88,86,81,68,9,12,10,10,0.3,0.3
2023-07-24T15:00:00,1462A,108.882,34.2749,西安市,高压开关厂,臭氧1小时,109,54,56,26,25,239,218,125,125,18,32,10,9,0.6,0.6
2023-07-24T15:00:00,1463A,108.993,34.2629,西安市,兴庆小区,臭氧1小时,101,60,51,22,21,228,202,126,126,13,23,7,6,0.9,0.6
2023-07-24T15:00:00,1464A,109.06,34.2572,西安市,纺织城,臭氧1小时,101,61,60,23,25,254,202,124,124,16,34,6,5,0.5,0.5
2023-07-24T15:00:00,1465A,108.9356,34.2173,西安市,小寨,臭氧1小时,111,68,56,25,21,249,221,116,116,14,19,8,7,0.5,0.5
2023-07-24T15:00:00,1466A,108.954,34.2713,西安市,市人民体育场,臭氧1小时,103,65,55,26,23,237,206,123,123,14,28,8,7,0.6,0.6
2023-07-24T15:00:00,1467A,108.8922,34.2322,西安市,高新西区,臭氧1小时,115,56,54,28,24,309,229,129,129,19,24,9,8,0.7,0.6
2023-07-24T15:00:00,1468A,108.935,34.3474,西安市,经开区,臭氧1小时,83,58,53,24,22,208,186,114,114,8,34,5,4,0.4,0.4
2023-07-24T15:00:00,1469A,108.906,34.1546,西安市,长安区,臭氧1小时,108,68,64,24,23,325,216,129,129,17,20,4,3,0.7,0.6
2023-07-24T15:00:00,1471A,109.2186,34.3731,西安市,临潼区,臭氧1小时,55,32,46,19,21,202,164,119,119,11,22,9,7,0.6,0.6
2023-07-24T15:00:00,1472A,108.869,34.378,西安市,草滩,臭氧1小时,65,53,52,16,14,193,172,111,111,23,36,11,11,0.5,0.5
2023-07-24T15:00:00,1473A,108.985,34.1978,西安市,曲江文化产业集团,臭氧1小时,112,69,63,27,25,252,223,123,123,20,26,6,6,0.6,0.6
2023-07-24T15:00:00,1474A,109.051,34.3213,西安市,广运潭,,48,48,52,19,20,217,153,106,106,9,31,9,8,0.5,0.6
2023-07-24T15:00:00,1476A,103.631,36.1031,兰州市,兰炼宾馆,臭氧1小时,83,26,37,7,17,189,186,135,135,10,18,9,10,0,0.4
2023-07-24T15:00:00,1477A,104.1373,35.9454,兰州市,榆中兰大校区,,,,,,,,,,,,,,,,
2023-07-24T15:00:00,1478A,103.8412,36.0726,兰州市,生物制品所,,50,39,50,15,21,174,157,114,114,14,31,7,10,0.5,0.8
2023-07-24T15:00:00,1479A,103.831,36.0464,兰州市,铁路设计院,,50,29,45,18,21,157,157,85,85,23,45,6,10,0.4,0.7
2023-07-24T15:00:00,1483A,101.524,36.6867,西宁市,第五水厂,,,,,,,,,,,,,,,,
2023-07-24T15:00:00,1484A,105.9512,38.6016,银川市,贺兰山马莲口,臭氧1小时,55,14,22,11,8,170,164,127,127,5,10,4,5,0.4,0.5
2023-07-24T15:00:00,1488A,106.2328,38.4975,银川市,贺兰山东路,臭氧1小时,101,22,35,18,14,201,201,145,145,12,15,12,11,0.4,0.4
2023-07-24T15:00:00,1489A,106.1358,38.5036,银川市,学院路,臭氧1小时,60,26,40,9,14,172,168,136,136,7,19,10,16,0.4,0.4
2023-07-24T15:00:00,1490A,87.5801,43.8303,乌鲁木齐市,监测站,,42,35,51,7,14,164,134,98,98,8,32,5,6,0.5,0.6
2023-07-24T15:00:00,1491A,87.6046,43.768,乌鲁木齐市,收费所,,41,28,46,11,18,161,130,93,93,14,36,13,11,0.4,0.4
2023-07-24T15:00:00,1492A,87.4754,43.9469,乌鲁木齐市,新疆农科院农场,,,,84,17,33,159,127,91,91,11,42,4,5,0.4,0.6
2023-07-24T15:00:00,1493A,87.5525,43.8711,乌鲁木齐市,铁路局,,43,17,52,13,15,171,135,95,95,6,33,4,5,0.2,0.3
2023-07-24T15:00:00,1494A,87.6432,43.831,乌鲁木齐市,三十一中学,,,30,49,8,16,166,132,108,108,,37,4,5,0.4,0.5
2023-07-24T15:00:00,1496A,87.7216,44.1747,乌鲁木齐市,米东区环保局,,43,32,56,8,19,162,137,87,87,4,24,6,7,0.2,0.3
2023-07-24T15:00:00,1508A,112.9433,27.8614,湘潭市,板塘,,35,32,35,24,21,100,98,74,74,6,12,8,8,0.8,0.8
2023-07-24T15:00:00,1511A,112.9118,27.8403,湘潭市,市监测站,,33,24,29,21,20,121,103,80,80,11,10,10,8,0.8,0.7
2023-07-24T15:00:00,1512A,112.8937,27.8728,湘潭市,江麓,,36,28,34,25,19,110,101,80,80,6,13,10,15,0.2,0.5
2023-07-24T15:00:00,1513A,112.9227,27.8159,湘潭市,岳塘,,38,26,33,26,20,109,103,84,84,6,11,7,10,0.2,0.4
2023-07-24T15:00:00,1514A,112.9074,27.9119,湘潭市,科大,,37,36,37,22,24,126,117,91,91,2,8,5,7,0.3,0.4
2023-07-24T15:00:00,1515A,113.135,27.8244,株洲市,天台山庄,,38,27,34,26,23,107,104,87,87,1,5,4,5,0.5,0.7
2023-07-24T15:00:00,1518A,113.095,27.8867,株洲市,株冶医院,,34,32,38,20,21,110,107,82,82,4,15,4,4,0.4,0.5
2023-07-24T15:00:00,1519A,113.167,27.8667,株洲市,市四中,,34,29,32,22,26,108,106,81,81,2,7,5,6,0.3,0.4
2023-07-24T15:00:00,1520A,113.143,27.8381,株洲市,火车站,,33,28,33,23,23,101,99,79,79,2,6,4,4,0.5,0.6
2023-07-24T15:00:00,1524A,113.13,27.8528,株洲市,市监测站,,39,32,36,27,22,111,107,85,85,4,8,4,5,0.6,0.8
2023-07-24T15:00:00,1552A,106.805,26.3003,贵阳市,桐木岭,,30,29,30,21,21,74,68,70,70,2,2,1,1,0.4,0.4
2023-07-24T15:00:00,1559A,113.251,27.8336,株洲市,大京风景区,,31,31,34,19,15,94,94,68,68,2,5,3,3,0.4,0.5
2023-07-24T15:00:00,1562A,113.0048,27.9153,湘潭市,昭山,,,31,32,21,16,116,110,91,91,7,12,5,3,,0.6
2023-07-24T15:00:00,1564A,112.4876,27.9164,湘潭市,韶山,,31,31,32,12,13,87,60,61,61,7,7,6,7,0.4,0.5
2023-07-24T15:00:00,1585A,109.8756,40.6532,包头市,市环境监测站,臭氧1小时,101,46,38,12,14,201,201,144,144,17,28,21,23,0.8,0.7
2023-07-24T15:00:00,1587A,109.9991,40.5842,包头市,包头八中,臭氧1小时,78,44,40,10,12,182,182,140,140,15,25,13,22,0.5,0.7
2023-07-24T15:00:00,1588A,109.8538,40.6821,包头市,青山宾馆,臭氧1小时,105,38,34,14,12,210,210,143,143,21,26,22,19,1.4,1
2023-07-24T15:00:00,1589A,109.8642,40.6288,包头市,惠龙物流,颗粒物(PM10),82,113,44,17,14,180,180,136,136,15,23,22,20,0.6,0.5
2023-07-24T15:00:00,1590A,110.0377,40.5546,包头市,东河鸿龙湾,臭氧1小时,72,31,33,11,11,178,177,136,136,6,17,7,11,0.8,0.8
2023-07-24T15:00:00,1591A,110.0023,39.8129,鄂尔多斯市,综合楼,,45,22,48,7,11,146,144,111,111,12,32,4,16,0.7,0.7
2023-07-24T15:00:00,1592A,109.9486,39.8261,鄂尔多斯市,巴音孟克林场办事处,,49,24,38,7,15,155,155,125,125,10,24,5,17,0.4,0.5
2023-07-24T15:00:00,1593A,109.7736,39.5986,鄂尔多斯市,康泽苑,,45,17,25,2,5,144,142,118,118,8,19,8,9,0.4,0.5
2023-07-24T15:00:00,1594A,109.8119,39.5989,鄂尔多斯市,华泰汽车城,,43,17,27,9,10,138,137,111,111,11,23,5,6,0.4,0.5
2023-07-24T15:00:00,1595A,109.9734,39.7884,鄂尔多斯市,奥林花园,,45,19,40,12,14,144,144,113,113,7,26,6,9,0.6,0.9
2023-07-24T15:00:00,1597A,122.2703,40.7094,营口市,大庆路,,44,12,29,9,18,156,138,149,135,9,12,5,6,0.6,0.9
2023-07-24T15:00:00,1598A,122.2150,40.6511,营口市,镜湖西路,,42,15,26,6,20,149,133,140,137,7,10,4,5,0.6,0.7
2023-07-24T15:00:00,1599A,122.1658,40.6789,营口市,西炮台,,43,18,25,8,15,172,135,164,127,8,10,8,8,0.5,0.8
2023-07-24T15:00:00,1600A,124.3303,40.0625,丹东市,江湾东路,,32,15,17,12,13,109,102,101,101,8,7,3,5,0.6,0.8
2023-07-24T15:00:00,1601A,124.4256,40.1503,丹东市,临江后街,,32,22,20,7,10,108,100,98,98,4,5,6,6,0.6,0.7
2023-07-24T15:00:00,1602A,124.3933,40.1461,丹东市,元宝山,,32,14,17,12,11,107,102,94,94,6,8,6,6,0.5,0.7
2023-07-24T15:00:00,1603A,124.3633,40.1092,丹东市,民主桥,,31,16,18,9,9,106,98,96,96,4,5,4,5,0.6,0.7
2023-07-24T15:00:00,1604A,122.0303,41.1489,盘锦市,开发区,,42,25,23,8,13,141,132,135,135,13,24,3,3,0.9,1
2023-07-24T15:00:00,1605A,122.0485,41.0883,盘锦市,兴隆台,,38,12,21,11,12,138,120,129,129,10,21,5,4,0.5,0.7
2023-07-24T15:00:00,1606A,121.8297,41.1028,盘锦市,新生街道,,45,26,19,10,10,166,144,155,155,10,21,6,5,0.4,0.6
2023-07-24T15:00:00,1607A,120.9092,40.7136,葫芦岛市,龙港区,,46,28,40,32,33,170,134,130,130,5,20,6,10,0.4,0.6
2023-07-24T15:00:00,1608A,120.8392,40.7514,葫芦岛市,化工街,,46,41,46,27,25,146,146,116,116,5,31,5,13,1.0,0.9
2023-07-24T15:00:00,1609A,120.8341,40.7073,葫芦岛市,新区,,46,37,45,23,39,159,146,130,130,7,34,5,5,0.8,0.9
2023-07-24T15:00:00,1610A,120.8695,40.7677,葫芦岛市,东城区,,,,50,31,27,152,138,122,122,7,37,5,10,0.6,0.7
2023-07-24T15:00:00,1611A,118.5819,24.9117,泉州市,涂山街,臭氧1小时,83,55,33,21,11,186,186,114,114,11,16,12,12,0.5,0.6
2023-07-24T15:00:00,1612A,118.5972,24.8978,泉州市,津头埔,臭氧1小时,69,52,30,26,13,182,175,112,112,15,20,11,11,0.6,0.5
2023-07-24T15:00:00,1613A,118.6663,24.9424,泉州市,万安,,45,34,33,15,15,182,141,99,99,11,18,9,9,0.6,0.5
2023-07-24T15:00:00,1614A,118.6117,24.9604,泉州市,清源山,,,,22,,8,,,,,,15,,4,,
2023-07-24T15:00:00,1616A,117.6795,36.229,济南市,技术学院,臭氧1小时,106,36,30,23,15,214,212,161,161,8,27,14,9,1.3,1
2023-07-24T15:00:00,1618A,118.3429,35.0532,临沂市,沂河小区,臭氧1小时,103,68,42,40,26,206,206,154,154,11,18,4,7,0.4,0.4
2023-07-24T15:00:00,1619A,118.295,35.0583,临沂市,鲁南制药厂,臭氧1小时,122,58,43,27,22,259,243,188,188,9,19,4,5,0.8,0.9
2023-07-24T15:00:00,1620A,118.2794,34.9976,临沂市,新光毛纺厂,臭氧1小时,105,41,35,22,21,230,210,176,176,8,18,8,7,0.4,0.4
2023-07-24T15:00:00,1621A,118.3956,35.0888,临沂市,河东保险公司,臭氧1小时,103,48,34,33,22,206,205,148,148,16,17,3,3,0.6,0.6
2023-07-24T15:00:00,1622A,116.3032,37.4674,德州市,儿童乐园,臭氧1小时,102,56,47,31,29,203,203,157,157,7,12,8,8,0.7,0.7
2023-07-24T15:00:00,1624A,116.2991,37.4451,德州市,监理站,臭氧1小时,83,44,47,24,30,186,186,143,143,10,17,9,10,0.5,0.6
2023-07-24T15:00:00,1625A,115.9848,36.4372,聊城市,区政府,臭氧1小时,80,48,36,18,21,189,184,158,158,7,12,6,11,0.7,0.5
2023-07-24T15:00:00,1628A,118.0062,37.3803,滨州市,市环保局,臭氧1小时,113,47,57,39,39,225,225,166,166,4,17,4,6,0.4,0.5
2023-07-24T15:00:00,1629A,118.0018,37.3617,滨州市,第二水厂,臭氧1小时,109,48,54,30,35,223,218,162,162,6,24,2,3,0.5,0.6
2023-07-24T15:00:00,1630A,117.9776,37.393,滨州市,北中新校,臭氧1小时,113,48,57,35,35,225,225,168,168,4,18,1,3,0.5,0.6
2023-07-24T15:00:00,1631A,118.0414,36.8103,淄博市,人民公园,臭氧1小时,146,51,43,31,25,291,291,191,191,21,35,12,12,0.5,0.5
2023-07-24T15:00:00,1633A,117.8525,36.4847,淄博市,双山,,50,20,25,16,12,190,159,156,156,7,15,6,8,0.4,0.7
2023-07-24T15:00:00,1634A,117.9592,36.6331,淄博市,气象站,臭氧1小时,105,33,29,27,21,225,209,168,168,7,16,7,10,0.1,0.3
2023-07-24T15:00:00,1635A,118.3092,36.8194,淄博市,莆田园,臭氧1小时,99,34,48,24,29,201,199,176,176,10,22,9,15,0.6,1.5
2023-07-24T15:00:00,1637A,117.558,34.8438,枣庄市,市中区政府,臭氧1小时,75,39,36,22,16,180,180,142,142,11,20,9,13,0.5,0.5
2023-07-24T15:00:00,1638A,117.2852,34.7837,枣庄市,薛城环保局,臭氧1小时,68,49,37,14,11,176,174,144,144,9,22,8,10,0.5,0.5
2023-07-24T15:00:00,1639A,117.5852,34.7745,枣庄市,峄城区政府,臭氧1小时,70,44,37,17,11,178,176,140,140,9,18,7,11,0.7,0.6
2023-07-24T15:00:00,1640A,117.7276,34.5578,枣庄市,台儿庄区环保局,臭氧1小时,55,39,31,14,12,164,164,120,120,9,14,10,8,0.6,0.6
2023-07-24T15:00:00,1641A,117.4518,35.0992,枣庄市,山亭区环保局,臭氧1小时,75,46,33,34,18,180,180,141,141,11,13,9,7,0.3,0.3
2023-07-24T15:00:00,1642A,121.2514,37.5639,烟台市,开发区,细颗粒物(PM2.5),52,39,33,36,25,163,139,128,128,9,13,8,8,0.9,0.9
2023-07-24T15:00:00,1643A,121.3719,37.5433,烟台市,轴承厂,,49,41,41,29,26,157,154,137,137,3,7,4,4,0.4,0.4
2023-07-24T15:00:00,1644A,121.3181,37.5436,烟台市,西郊化工站,细颗粒物(PM2.5),60,48,42,43,32,159,147,137,137,10,16,5,5,0.6,0.5
2023-07-24T15:00:00,1645A,121.4478,37.4822,烟台市,莱山环保局,,49,36,31,29,22,156,156,137,137,17,9,6,5,0.7,0.6
2023-07-24T15:00:00,1646A,121.2611,37.4967,烟台市,福山环保局,颗粒物(PM10),52,53,42,31,20,158,146,124,124,16,17,8,7,0.5,0.4
2023-07-24T15:00:00,1650A,119.1437,36.7023,潍坊市,环保局,臭氧1小时,113,39,35,27,26,275,225,210,210,11,19,12,10,0.5,0.8
2023-07-24T15:00:00,1653A,116.6251,35.4302,济宁市,火炬城,臭氧1小时,55,52,39,24,20,164,164,121,121,2,8,4,7,0.7,0.7
2023-07-24T15:00:00,1655A,116.5491,35.4042,济宁市,电化厂,臭氧1小时,59,51,33,31,21,172,167,128,128,2,9,4,5,0.7,0.7
2023-07-24T15:00:00,1656A,117.1437,36.1937,泰安市,监测站,臭氧1小时,78,48,33,32,16,196,182,181,181,7,10,8,8,0.3,0.6
2023-07-24T15:00:00,1657A,117.0885,36.2017,泰安市,人口学校,臭氧1小时,90,46,28,49,35,206,192,155,155,11,11,8,8,0.6,0.5
2023-07-24T15:00:00,1658A,117.1089,36.1758,泰安市,电力学校,臭氧1小时,85,56,37,27,17,209,188,155,155,5,12,10,9,0.5,0.8
2023-07-24T15:00:00,1659A,119.471,35.4209,日照市,监测站,臭氧1小时,94,51,30,27,20,198,195,130,130,30,39,8,6,1.5,0.9
2023-07-24T15:00:00,1660A,119.523,35.4216,日照市,市政府广场,臭氧1小时,80,46,35,21,20,184,184,127,127,14,22,14,9,1.1,0.9
2023-07-24T15:00:00,1661A,119.5587,35.4044,日照市,港务局,臭氧1小时,95,41,39,20,19,196,196,134,134,8,25,12,9,1.2,1
2023-07-24T15:00:00,1662A,122.1214,37.4236,威海市,华夏技校,,39,24,31,17,28,130,124,119,119,15,13,5,5,0.4,0.5
2023-07-24T15:00:00,1663A,122.0508,37.5236,威海市,山大分校,,45,27,36,17,24,185,144,144,144,2,8,4,4,0.4,0.5
2023-07-24T15:00:00,1664A,122.1067,37.5072,威海市,市监测站,,40,17,34,22,33,142,125,121,121,6,15,8,8,0.6,0.7
2023-07-24T15:00:00,1666A,118.6614,37.4309,东营市,市环保局,臭氧1小时,84,39,35,24,31,190,187,149,149,4,10,6,14,0.2,0.4
2023-07-24T15:00:00,1669A,113.5824,24.7733,韶关市,市八中,,41,21,36,8,7,140,131,88,88,6,18,9,15,0.4,0.5
2023-07-24T15:00:00,1671A,113.5917,24.7972,韶关市,园林处,,42,30,32,15,17,136,133,91,91,3,14,11,16,0.5,0.6
2023-07-24T15:00:00,1672A,113.6735,24.7791,韶关市,韶关学院,,40,23,36,15,24,126,126,80,80,6,11,11,11,0.5,0.5
2023-07-24T15:00:00,1673A,113.5971,24.6863,韶关市,曲江监测站,,37,21,34,12,15,134,117,80,80,5,14,9,10,0.5,0.5
2023-07-24T15:00:00,1674A,116.6794,23.3667,汕头市,金平子站,,23,16,11,3,4,88,71,55,55,6,6,5,4,0.8,0.6
2023-07-24T15:00:00,1675A,116.7244,23.3633,汕头市,龙湖子站,,22,20,13,4,3,94,70,60,60,6,9,5,4,0.4,0.4
2023-07-24T15:00:00,1676A,116.7258,23.2775,汕头市,濠江子站,,15,15,14,5,4,61,41,40,40,4,8,8,8,0.5,0.6
2023-07-24T15:00:00,1677A,116.7519,23.4714,汕头市,澄海子站,,24,22,18,4,6,124,74,76,76,9,11,4,6,0.6,0.7
2023-07-24T15:00:00,1678A,116.6092,23.2539,汕头市,潮阳子站,,17,17,16,1,5,66,49,49,49,4,6,9,8,0.6,0.6
2023-07-24T15:00:00,1680A,110.3539,21.2706,湛江市,湛江影剧院,,32,23,18,15,7,104,102,75,75,6,8,8,9,0.6,0.6
2023-07-24T15:00:00,1681A,110.3928,21.2228,湛江市,市环境监测站,,32,32,14,6,5,75,60,55,55,5,8,7,8,0.6,0.6
2023-07-24T15:00:00,1682A,110.4019,21.1997,湛江市,环保局宿舍,,19,12,15,7,7,73,60,53,53,2,9,4,4,0.5,0.5
2023-07-24T15:00:00,1683A,110.4111,21.2028,湛江市,霞山游泳场,,,12,11,7,6,63,56,48,48,,9,7,8,,0.8
2023-07-24T15:00:00,1684A,110.3316,21.2679,湛江市,麻章区环保局,,30,30,22,10,9,108,84,68,68,7,11,5,5,0.5,0.6
2023-07-24T15:00:00,1685A,110.4558,21.2567,湛江市,坡头区环保局,,19,5,12,5,7,62,60,50,50,4,6,5,6,0.5,0.5
2023-07-24T15:00:00,1686A,111.0286,21.4688,茂名市,电白南海,,14,14,13,5,8,49,42,45,41,3,4,4,4,0.5,0.6
2023-07-24T15:00:00,1687A,110.9294,21.6533,茂名市,茂石化七小,,,,17,,10,95,88,69,69,5,7,6,6,0.4,0.5
2023-07-24T15:00:00,1688A,110.9107,21.6687,茂名市,健康路,,37,14,12,5,4,117,117,74,74,7,6,14,6,0.5,0.4
2023-07-24T15:00:00,1689A,110.8592,21.6828,茂名市,高岭,,31,17,23,14,13,100,97,64,64,4,7,6,5,0.5,0.5
2023-07-24T15:00:00,1690A,116.1231,24.3284,梅州市,梅江月梅,,21,8,20,2,12,79,65,57,57,8,11,2,2,0.3,0.4
2023-07-24T15:00:00,1691A,116.0797,24.2719,梅州市,梅县新城,,19,10,22,4,11,67,58,50,50,3,10,4,6,0.5,0.6
2023-07-24T15:00:00,1692A,116.1248,24.2654,梅州市,环境监控中心,,20,10,20,5,10,72,61,52,52,4,11,3,3,0.5,0.6
2023-07-24T15:00:00,1693A,115.3653,22.775,汕尾市,市环保局,,13,9,10,2,3,47,40,34,34,2,4,7,7,0.5,0.5
2023-07-24T15:00:00,1694A,115.3706,22.7898,汕尾市,市政府,,14,11,13,7,7,49,44,35,35,2,4,5,4,0.4,0.5
2023-07-24T15:00:00,1695A,115.3622,22.7925,汕尾市,新城中学,,13,10,15,4,6,44,39,32,32,1,3,6,6,0.5,0.5
2023-07-24T15:00:00,1696A,114.6778,23.7569,河源市,源西,,26,23,19,7,11,83,83,56,56,4,9,5,5,0.5,0.6
2023-07-24T15:00:00,1697A,114.6944,23.7586,河源市,东埔,,30,30,25,2,9,80,79,51,51,7,11,5,5,0.5,0.6
2023-07-24T15:00:00,1698A,114.6892,23.7233,河源市,老城,,,,33,,9,38,,44,,,8,,5,,0.6
2023-07-24T15:00:00,1699A,111.9797,21.8593,阳江市,鸳鸯湖,,29,29,19,10,8,90,56,51,51,3,5,6,6,0.5,0.6
2023-07-24T15:00:00,1701A,111.9491,21.8658,阳江市,马南垌,,20,9,14,3,7,96,61,53,53,2,4,6,7,0.3,0.4
2023-07-24T15:00:00,1702A,113.0426,23.691,清远市,环保大楼,,,,28,,16,159,,46,46,,14,,8,,0.4
2023-07-24T15:00:00,1703A,113.0208,23.7106,清远市,凤城街办,,44,31,30,17,15,145,138,76,76,6,11,7,8,0.3,0.4
2023-07-24T15:00:00,1705A,116.6367,23.6719,潮州市,西园路,,30,30,24,8,10,102,95,67,67,5,8,6,5,0.4,0.4
2023-07-24T15:00:00,1706A,116.6447,23.6706,潮州市,档案局,,35,19,19,4,7,116,112,78,78,5,9,6,6,0.5,0.5
2023-07-24T15:00:00,1708A,116.3701,23.5345,揭阳市,新兴,,32,32,20,14,10,84,81,60,60,2,6,6,6,0.4,0.5
2023-07-24T15:00:00,1709A,116.3264,23.5443,揭阳市,西马,,26,16,22,9,11,82,82,54,54,1,6,5,6,0.6,0.7
2023-07-24T15:00:00,1710A,116.3611,23.5626,揭阳市,东兴,,27,25,26,10,9,85,85,70,70,5,10,3,2,0.4,0.5
2023-07-24T15:00:00,1711A,116.4151,23.5294,揭阳市,渔湖,,23,20,22,12,10,84,72,77,77,2,5,3,4,0.4,0.5
2023-07-24T15:00:00,1712A,112.0392,22.9169,云浮市,新市府,,20,17,14,7,7,62,62,43,43,1,2,4,4,0.7,0.7
2023-07-24T15:00:00,1714A,112.0539,22.9539,云浮市,牧羊,,,,20,11,10,81,79,51,51,5,12,5,18,0.4,0.5
2023-07-24T15:00:00,1715A,102.575,24.3711,玉溪市,东风水库,,22,16,15,3,10,69,69,47,47,8,10,5,5,0.7,0.7
2023-07-24T15:00:00,1718A,115.4208,35.2464,菏泽市,气象局,,,,44,29,22,189,174,128,128,2,8,3,4,0.4,0.4
2023-07-24T15:00:00,1719A,115.4747,35.2375,菏泽市,市政协,臭氧1小时,67,46,38,23,24,193,173,127,127,3,10,6,5,0.3,0.3
2023-07-24T15:00:00,1721A,113.3819,40.1097,大同市,果树场,臭氧1小时,59,23,21,17,16,167,167,121,121,13,19,4,5,0.5,0.6
2023-07-24T15:00:00,1723A,113.2994,40.0758,大同市,云冈宾馆,,,27,27,20,15,200,200,139,139,,20,10,8,0.5,0.7
2023-07-24T15:00:00,1724A,113.3444,40.0917,大同市,大同大学,臭氧1小时,85,40,26,14,14,188,188,151,151,9,15,7,12,0.6,0.7
2023-07-24T15:00:00,1725A,113.2661,40.1269,大同市,安家小村,臭氧1小时,90,42,31,16,10,192,192,133,133,12,14,14,10,0.6,0.7
2023-07-24T15:00:00,1726A,113.2711,40.0844,大同市,教育学院,臭氧1小时,89,47,35,18,14,191,191,133,133,15,23,14,10,0.6,0.8
2023-07-24T15:00:00,1727A,113.1147,36.1547,长治市,清华站,臭氧1小时,88,30,41,9,20,199,190,164,164,5,12,9,9,0.8,0.8
2023-07-24T15:00:00,1728A,113.1031,36.1989,长治市,监测站,臭氧1小时,84,30,44,14,21,201,187,174,174,12,19,11,13,0.6,0.9
2023-07-24T15:00:00,1730A,113.0886,36.2125,长治市,审计局,臭氧1小时,70,25,41,12,23,190,176,154,154,5,14,12,14,0.5,0.8
2023-07-24T15:00:00,1731A,113.0844,36.1856,长治市,长治八中,臭氧1小时,87,27,43,16,22,191,189,170,170,4,11,10,10,0.6,0.7
2023-07-24T15:00:00,1733A,111.5531,36.0783,临汾市,临钢医院,臭氧1小时,79,40,61,43,37,209,183,117,117,13,27,12,10,1.2,1.1
2023-07-24T15:00:00,1734A,111.5028,36.0714,临汾市,技工学校,臭氧1小时,68,51,71,15,21,207,174,107,107,13,31,12,11,1.1,1.1
2023-07-24T15:00:00,1736A,111.5018,36.0855,临汾市,市委,颗粒物(PM10),63,75,75,32,33,205,166,102,102,15,35,12,12,1.1,1
2023-07-24T15:00:00,1738A,113.5758,37.8572,阳泉市,市中心,臭氧1小时,105,35,44,33,18,233,210,166,166,10,20,20,15,0.8,0.9
2023-07-24T15:00:00,1739A,113.4894,37.8731,阳泉市,赛鱼,臭氧1小时,101,59,46,30,22,230,202,170,170,23,28,19,12,0.8,0.8
2023-07-24T15:00:00,1740A,113.5819,37.8486,阳泉市,南庄,臭氧1小时,106,69,55,25,23,236,212,170,170,13,18,20,14,0.8,0.9
2023-07-24T15:00:00,1742A,113.5614,37.8703,阳泉市,平坦,臭氧1小时,105,44,52,12,27,234,209,167,167,12,23,15,12,0.7,0.8
2023-07-24T15:00:00,1743A,113.5158,37.8392,阳泉市,大阳泉,臭氧1小时,113,30,41,33,26,236,226,176,176,16,15,30,14,0.7,0.8
2023-07-24T15:00:00,1744A,118.9233,42.2816,赤峰市,松山一中,,42,12,17,4,6,133,132,100,100,34,27,32,13,0.7,0.4
2023-07-24T15:00:00,1745A,118.9576,42.2728,赤峰市,哈达街,,40,16,14,4,6,128,128,98,98,20,19,28,17,0.4,0.3
2023-07-24T15:00:00,1746A,118.8788,42.2554,赤峰市,天义路,,45,5,9,2,4,144,142,108,108,9,14,15,14,0.3,0.3
2023-07-24T15:00:00,1748A,123.044,41.1196,鞍山市,深沟寺,臭氧1小时,73,28,28,14,18,178,178,142,142,9,12,12,9,1.0,1.1
2023-07-24T15:00:00,1749A,123.011,41.0931,鞍山市,太阳城,臭氧1小时,82,21,37,12,20,185,185,142,142,8,11,8,7,1.2,1.3
2023-07-24T15:00:00,1750A,123.0485,41.1442,鞍山市,太平,臭氧1小时,74,34,59,16,23,179,179,150,150,12,17,9,8,1.1,1.3
2023-07-24T15:00:00,1751A,122.9642,41.0971,鞍山市,铁西三道街,臭氧1小时,102,31,44,16,28,203,203,155,155,10,21,8,7,1.3,1.4
2023-07-24T15:00:00,1752A,122.9341,41.0833,鞍山市,铁西工业园区,臭氧1小时,84,28,42,15,24,187,187,146,146,11,19,7,5,1.6,1.6
2023-07-24T15:00:00,1753A,123.022,41.0821,鞍山市,明达新区,臭氧1小时,79,27,32,14,18,183,183,147,147,11,15,6,5,0.9,1
2023-07-24T15:00:00,1754A,123.1289,41.0228,鞍山市,千山,,39,20,24,12,9,129,123,120,120,4,4,4,4,0.8,0.9
2023-07-24T15:00:00,1755A,123.7977,41.8491,抚顺市,望花区,臭氧1小时,53,31,28,18,22,162,162,128,128,10,20,7,7,0.5,0.6
2023-07-24T15:00:00,1756A,123.9161,41.8822,抚顺市,顺城区,,44,27,31,12,18,161,140,121,121,10,24,4,3,0.5,0.8
2023-07-24T15:00:00,1757A,124.0436,41.8611,抚顺市,东洲区,,48,28,25,11,19,168,153,128,128,8,14,13,9,0.6,0.8
2023-07-24T15:00:00,1758A,123.9247,41.8642,抚顺市,新抚区,,43,32,25,15,17,154,136,117,117,7,15,7,5,0.6,0.8
2023-07-24T15:00:00,1759A,124.0972,41.8961,抚顺市,大伙房水库,,48,41,24,9,17,158,151,122,122,7,14,5,5,0.6,0.7
2023-07-24T15:00:00,1760A,123.7086,41.8391,抚顺市,沈抚新城,臭氧1小时,77,41,25,24,19,181,181,128,128,9,17,9,8,0.9,0.7
2023-07-24T15:00:00,1761A,123.8275,41.3064,本溪市,大峪,,34,20,36,12,13,124,107,101,101,8,18,4,5,0.4,0.8
2023-07-24T15:00:00,1762A,123.7567,41.3325,本溪市,溪湖,,28,23,26,12,16,118,88,87,87,12,17,7,4,1.1,1.1
2023-07-24T15:00:00,1763A,123.7169,41.3094,本溪市,彩屯,,28,16,30,9,18,118,88,89,89,18,20,6,6,1.6,1.3
2023-07-24T15:00:00,1764A,123.7669,41.2864,本溪市,东明,,31,14,28,11,13,118,99,106,106,7,21,6,4,0.8,1.2
2023-07-24T15:00:00,1765A,123.7992,41.2664,本溪市,新立屯,,33,14,23,11,10,116,104,108,108,7,23,6,6,0.7,1.2
2023-07-24T15:00:00,1766A,123.8142,41.3472,本溪市,威宁,,28,28,35,8,16,117,89,90,90,8,18,7,7,0.5,0.7
2023-07-24T15:00:00,1767A,121.1115,41.0879,锦州市,南山,颗粒物(PM10),56,61,39,34,29,161,142,110,110,6,17,5,8,0.9,1.2
2023-07-24T15:00:00,1768A,121.0533,40.8434,锦州市,开发区,,44,43,55,23,29,148,138,111,111,4,32,6,10,1.0,1.1
2023-07-24T15:00:00,1769A,121.1836,41.1119,锦州市,百股街道,颗粒物(PM10),55,59,38,29,23,156,136,110,110,3,18,4,10,0.9,0.9
2023-07-24T15:00:00,1770A,121.1178,41.1222,锦州市,天安街道,颗粒物(PM10),67,83,51,24,22,157,140,109,109,10,22,5,11,1.2,1.4
2023-07-24T15:00:00,1771A,121.1303,41.1386,锦州市,北湖公园,,,,45,35,28,160,131,108,108,12,18,4,6,0.9,1.1
2023-07-24T15:00:00,1772A,126.54,43.8622,吉林市,哈达湾,,30,8,8,4,3,102,96,89,89,2,3,5,5,0.5,0.5
2023-07-24T15:00:00,1773A,126.5844,43.8358,吉林市,东局子,,30,11,10,6,5,102,95,95,95,7,8,5,5,0.6,0.7
2023-07-24T15:00:00,1774A,126.5052,43.8245,吉林市,电力学院,,29,14,9,8,3,92,90,83,83,11,8,6,6,0.5,0.6
2023-07-24T15:00:00,1775A,126.6133,43.8972,吉林市,江北,,,,11,,4,78,,74,,,6,,6,,0.7
2023-07-24T15:00:00,1776A,126.555,43.8306,吉林市,江南公园,,30,9,9,9,4,101,94,90,90,6,6,4,4,0.6,0.6
2023-07-24T15:00:00,1778A,126.7061,43.7133,吉林市,丰满,,,,,,,,,,,,,,,,
2023-07-24T15:00:00,1779A,123.9305,47.3636,齐齐哈尔市,安居小区,,45,22,10,31,14,64,47,62,47,5,4,4,5,0.5,0.3
2023-07-24T15:00:00,1780A,123.9488,47.3386,齐齐哈尔市,中心广场,,25,20,6,17,3,66,48,63,47,9,5,2,3,0.5,0.4
2023-07-24T15:00:00,1781A,123.9483,47.3227,齐齐哈尔市,农牧车辆厂,,31,31,16,10,4,65,51,61,48,6,5,6,6,0.4,0.3
2023-07-24T15:00:00,1783A,123.945,47.2988,齐齐哈尔市,市环境监测站,,36,30,7,25,5,64,50,61,47,5,4,7,7,0.3,0.2
2023-07-24T15:00:00,1784A,129.61,44.561,牡丹江市,环保大楼,,28,6,10,7,7,94,89,88,88,6,7,5,5,0.4,0.4
2023-07-24T15:00:00,1785A,129.6115,44.5782,牡丹江市,文化广场,,27,12,7,7,11,91,86,84,84,8,10,5,5,0.4,0.4
2023-07-24T15:00:00,1786A,129.5904,44.5963,牡丹江市,第一医院,,26,6,11,6,7,87,83,81,81,6,7,4,4,0.3,0.4
2023-07-24T15:00:00,1787A,129.6364,44.6075,牡丹江市,机车工厂,,26,13,11,6,7,90,81,82,82,7,7,2,2,0.4,0.4
2023-07-24T15:00:00,1788A,129.6386,44.5462,牡丹江市,第一中学,,29,10,14,5,5,93,91,87,87,5,12,4,4,0.3,0.3
2023-07-24T15:00:00,1789A,124.81117,46.03138,大庆市,大同区,,17,7,5,6,5,79,53,52,52,5,5,4,4,0.2,0.2
2023-07-24T15:00:00,1790A,125.129,46.533,大庆市,龙凤区,,16,9,7,5,6,73,51,51,50,8,9,5,5,0.3,0.3
2023-07-24T15:00:00,1791A,124.902,46.408,大庆市,红岗区,,17,6,7,8,9,59,52,56,52,6,6,2,2,0.3,0.3
2023-07-24T15:00:00,1792A,125.153,46.586,大庆市,萨尔图区,,15,12,6,0,3,68,45,50,46,10,10,3,4,0.4,0.4
2023-07-24T15:00:00,1793A,124.9042,46.6215,大庆市,让胡路区,,15,4,7,6,5,59,46,55,50,6,6,3,2,0.3,0.3
2023-07-24T15:00:00,1794A,118.3606,31.3519,芜湖市,监测站,臭氧1小时,54,37,27,18,14,163,163,104,104,17,27,5,6,0.9,0.8
2023-07-24T15:00:00,1795A,118.3714,31.4134,芜湖市,科创中心,,,34,32,21,16,151,151,117,117,10,28,,10,0.5,0.8
2023-07-24T15:00:00,1796A,118.3673,31.3131,芜湖市,四水厂,臭氧1小时,62,42,27,20,13,173,169,116,116,16,20,7,4,0.9,0.8
2023-07-24T15:00:00,1798A,118.5092,31.6837,马鞍山市,湖东路四小,臭氧1小时,84,38,25,22,16,187,187,106,106,14,17,6,8,0.9,0.8
2023-07-24T15:00:00,1799A,118.5024,31.6449,马鞍山市,开发区,臭氧1小时,78,51,34,24,16,182,182,100,100,12,24,9,9,0.8,0.8
2023-07-24T15:00:00,1800A,118.5228,31.7231,马鞍山市,慈湖,臭氧1小时,80,49,31,26,16,184,184,106,106,13,19,6,7,0.8,0.7
2023-07-24T15:00:00,1802A,118.6245,31.7241,马鞍山市,濮塘,臭氧1小时,67,35,18,24,17,173,173,101,101,6,15,4,4,0.9,0.8
2023-07-24T15:00:00,1803A,115.9872,29.6815,九江市,十里,,39,28,23,19,13,134,123,92,92,8,17,12,10,0.6,0.5
2023-07-24T15:00:00,1804A,115.9584,29.7046,九江市,茅山头,,48,29,19,16,12,152,152,99,99,13,22,9,9,0.8,0.9
2023-07-24T15:00:00,1805A,115.9877,29.7295,九江市,西园,,43,26,22,10,10,143,135,94,94,20,26,11,11,0.9,0.7
2023-07-24T15:00:00,1806A,116.0172,29.6547,九江市,五七二七厂,,36,17,15,24,9,113,113,81,81,2,5,9,8,0.9,0.7
2023-07-24T15:00:00,1808A,115.9114,29.6038,九江市,综合工业园,,50,30,25,24,12,158,158,92,92,14,18,10,11,0.9,0.8
2023-07-24T15:00:00,1809A,116.0721,29.7535,九江市,石化总厂,,34,26,22,20,9,109,107,79,79,14,16,10,13,0.6,0.6
2023-07-24T15:00:00,1810A,115.9773,29.5698,九江市,庐山气象台,,37,20,13,20,10,118,118,86,86,4,2,8,7,0.6,0.9
2023-07-24T15:00:00,1812A,112.3931,34.6516,洛阳市,市委党校,臭氧1小时,92,42,49,28,29,193,193,124,124,3,18,7,5,0.8,0.9
2023-07-24T15:00:00,1814A,112.4657,34.6871,洛阳市,豫西宾馆,臭氧1小时,106,67,64,28,32,212,212,142,142,5,15,2,4,0.8,0.8
2023-07-24T15:00:00,1815A,112.494,34.6886,洛阳市,河南林校,臭氧1小时,103,44,48,26,25,206,206,136,136,7,18,4,5,0.7,0.7
2023-07-24T15:00:00,1816A,112.3844,34.623,洛阳市,开发区管委会,臭氧1小时,99,41,47,25,23,199,199,132,132,9,20,12,9,0.7,0.7
2023-07-24T15:00:00,1817A,112.4267,34.6258,洛阳市,市委新办公区,臭氧1小时,87,42,51,27,30,192,189,133,133,5,17,4,3,0.3,0.3
2023-07-24T15:00:00,1818A,114.4839,36.0621,安阳市,棉研所,颗粒物(PM10),53,56,56,25,25,165,136,165,150,5,5,6,6,0.7,0.7
2023-07-24T15:00:00,1819A,114.3551,36.1017,安阳市,红庙街,臭氧1小时,75,50,57,30,31,180,180,138,138,2,7,3,2,0.3,0.4
2023-07-24T15:00:00,1820A,114.361,36.0681,安阳市,银杏小区,,,60,56,,,186,186,133,133,3,15,4,10,0.5,0.5
2023-07-24T15:00:00,1824A,114.3389,34.7781,开封市,肿瘤医院,颗粒物(PM10),52,54,59,22,24,200,152,113,113,2,10,2,2,0.5,0.6
2023-07-24T15:00:00,1826A,114.2885,34.7965,开封市,世纪星幼儿园,,,,60,,,212,167,128,128,5,13,3,3,0.7,0.7
2023-07-24T15:00:00,1828A,113.227,35.2125,焦作市,市环保局,臭氧1小时,83,41,58,19,29,210,186,162,159,5,12,4,4,0.6,0.9
2023-07-24T15:00:00,1830A,113.1992,35.2590,焦作市,影视城,,,,34,,18,173,,172,,,7,,4,,0.8
2023-07-24T15:00:00,1832A,113.3257,33.742,平顶山市,新华旅馆,,50,36,35,9,17,157,157,116,116,8,11,1,2,0.4,0.4
2023-07-24T15:00:00,1833A,113.2919,33.737,平顶山市,规划设计院,,47,36,38,15,19,150,148,111,111,3,7,6,5,0.6,0.7
2023-07-24T15:00:00,1834A,113.182,33.774,平顶山市,平顶山工学院,,47,33,44,17,18,150,148,112,112,5,8,4,4,0.5,0.5
2023-07-24T15:00:00,1835A,111.1922,34.7752,三门峡市,市政府,臭氧1小时,72,49,54,23,21,184,177,134,134,10,21,7,7,0.6,0.5
2023-07-24T15:00:00,1836A,111.1587,34.7942,三门峡市,开发区,臭氧1小时,58,46,52,25,22,184,166,138,138,9,25,5,7,0.6,0.6
2023-07-24T15:00:00,1838A,111.143,34.7955,三门峡市,风景区,,,,,,,,,,,,,,,,
2023-07-24T15:00:00,1840A,111.2992,30.6981,宜昌市,白龙岗,颗粒物(PM10),52,53,42,29,21,173,148,90,90,14,17,4,4,0.6,0.6
2023-07-24T15:00:00,1841A,111.3549,30.6465,宜昌市,伍家岗,,49,49,36,29,22,178,148,100,100,31,20,2,2,0.6,0.6
2023-07-24T15:00:00,1842A,111.2628,30.6961,宜昌市,点军区,,49,49,38,27,18,176,150,94,94,10,16,4,4,0.7,0.7
2023-07-24T15:00:00,1843A,111.3275,30.7819,宜昌市,夷陵区,细颗粒物(PM2.5),58,41,35,41,20,172,134,100,100,11,17,1,2,0.5,0.5
2023-07-24T15:00:00,1844A,112.2494,30.3197,荆州市,市图书馆,,41,25,32,17,20,130,130,99,99,7,10,8,9,0.6,0.6
2023-07-24T15:00:00,1845A,112.2008,30.3544,荆州市,市委党校,,36,36,36,25,21,122,115,90,90,5,11,6,8,0.6,0.6
2023-07-24T15:00:00,1847A,113.1094,29.3578,岳阳市,南湖风景区,,36,24,24,20,17,122,115,97,97,2,6,8,9,0.5,0.5
2023-07-24T15:00:00,1848A,113.1493,29.4251,岳阳市,城陵矶,,34,23,25,19,18,117,107,93,93,8,13,7,8,0.7,0.9
2023-07-24T15:00:00,1849A,113.1497,29.3575,岳阳市,开发区,,,26,29,,15,119,112,95,95,3,8,8,9,0.7,0.6
2023-07-24T15:00:00,1850A,113.2621,29.4758,岳阳市,云溪区,,36,27,21,23,14,123,113,100,100,2,3,6,6,0.6,0.6
2023-07-24T15:00:00,1851A,112.9943,29.4402,岳阳市,君山区,,40,27,25,17,18,126,126,98,98,6,9,7,9,0.5,0.5
2023-07-24T15:00:00,1852A,113.2117,29.355,岳阳市,金凤水库,,37,22,22,14,15,130,116,98,98,1,8,4,4,0.4,0.4
2023-07-24T15:00:00,1854A,111.6975,28.9703,常德市,市二中,,30,17,23,15,15,117,94,76,76,2,8,3,4,0.5,0.6
2023-07-24T15:00:00,1857A,111.7158,29.1456,常德市,白鹤山,,26,13,16,10,9,122,81,72,72,1,5,7,6,0.4,0.5
2023-07-24T15:00:00,1858A,110.5319,29.1217,张家界市,永定新区,,26,26,24,16,16,78,44,54,54,12,8,4,4,0.2,0.2
2023-07-24T15:00:00,1859A,110.4697,29.1242,张家界市,电业局,,25,14,22,17,16,89,54,54,54,11,10,3,2,0.3,0.3
2023-07-24T15:00:00,1860A,110.5594,29.3547,张家界市,未央路,,20,14,20,14,14,113,54,48,48,9,12,3,3,0.2,0.2
2023-07-24T15:00:00,1861A,110.4417,29.315,张家界市,袁家界,,,,18,1,12,101,41,47,47,9,5,6,6,0.5,0.5
2023-07-24T15:00:00,1862A,110.4144,25.3167,桂林市,电子科大尧山校区,,,35,31,16,19,107,,80,80,4,7,4,7,0.5,0.5
2023-07-24T15:00:00,1863A,110.2819,25.2697,桂林市,监测站,,27,24,31,13,15,93,86,74,74,4,8,4,4,0.4,0.5
2023-07-24T15:00:00,1864A,110.3089,25.2708,桂林市,龙隐路小学,,27,27,31,15,19,95,86,73,73,5,10,6,8,0.4,0.4
2023-07-24T15:00:00,1865A,110.2869,25.2178,桂林市,八中,,27,22,28,13,16,96,84,70,70,5,10,3,4,0.3,0.4
2023-07-24T15:00:00,1866A,109.2262,21.588,北海市,牛尾岭水库,,17,11,14,8,7,55,53,40,40,5,8,6,6,0.4,0.4
2023-07-24T15:00:00,1867A,109.1436,21.4086,北海市,海滩公园,,21,11,16,2,3,70,66,55,55,3,3,4,4,0.6,0.6
2023-07-24T15:00:00,1868A,109.0981,21.4661,北海市,新市环保局,,21,17,12,7,7,69,67,51,50,3,5,2,2,0.5,0.5
2023-07-24T15:00:00,1869A,109.1778,21.5233,北海市,北海工业园,,26,26,22,7,11,68,68,46,46,3,7,4,5,0.6,0.7
2023-07-24T15:00:00,1870A,109.4856,24.3895,柳州市,柳东小学,,27,25,27,13,20,99,84,79,79,4,9,5,7,0.1,0.2
2023-07-24T15:00:00,1871A,109.4157,24.3277,柳州市,环保监测站,,27,22,29,17,12,95,85,76,76,6,10,4,5,0.3,0.4
2023-07-24T15:00:00,1872A,109.389,24.341,柳州市,河西水厂,,28,25,29,17,18,99,89,78,78,6,12,5,5,0.2,0.4
2023-07-24T15:00:00,1873A,109.4311,24.2921,柳州市,市四中,,28,28,31,14,19,97,85,75,75,5,10,6,7,0.5,0.6
2023-07-24T15:00:00,1874A,109.4006,24.3631,柳州市,市九中,,29,23,33,15,17,99,92,78,78,5,9,6,7,0.5,0.6
2023-07-24T15:00:00,1875A,109.4958,24.3134,柳州市,古亭山,,32,32,28,18,16,90,82,74,74,6,14,5,7,0.4,0.6
2023-07-24T15:00:00,1876A,109.5078,18.2489,三亚市,河东子站,,15,9,16,5,8,59,48,45,45,4,8,2,2,0.4,0.4
2023-07-24T15:00:00,1877A,109.4964,18.2681,三亚市,河西子站,,16,9,14,3,3,65,50,45,45,4,8,1,2,0.4,0.2
2023-07-24T15:00:00,1878A,104.7778,31.4741,绵阳市,富乐山,,26,17,30,8,20,144,83,85,85,6,11,3,3,0.5,0.6
2023-07-24T15:00:00,1879A,104.7563,31.4535,绵阳市,市人大,,26,22,31,10,18,143,82,78,76,11,18,5,5,0.5,0.5
2023-07-24T15:00:00,1880A,104.6697,31.4668,绵阳市,高新区自来水公司,,32,21,30,19,18,157,101,90,90,11,13,6,6,0.4,0.5
2023-07-24T15:00:00,1881A,104.7287,31.5075,绵阳市,三水厂,,28,24,33,11,18,155,87,82,81,7,15,6,6,0.5,0.6
2023-07-24T15:00:00,1882A,104.563,28.793,宜宾市,石马中学,,,15,36,10,23,204,126,119,119,5,14,,8,0.5,0.6
2023-07-24T15:00:00,1883A,104.6201,28.7728,宜宾市,市委,,34,15,41,10,26,179,106,99,99,12,20,7,10,0.6,0.6
2023-07-24T15:00:00,1884A,104.6055,28.793,宜宾市,宜宾四中,,34,22,44,15,26,177,108,102,102,15,21,6,9,0.6,0.7
2023-07-24T15:00:00,1885A,104.639,28.7562,宜宾市,市政府,,33,16,38,12,23,178,104,102,102,15,17,7,8,0.7,0.7
2023-07-24T15:00:00,1886A,104.5742,28.7199,宜宾市,黄金嘴,,39,15,35,10,23,196,123,116,116,9,17,4,7,0.7,0.7
2023-07-24T15:00:00,1888A,101.6891,26.571,攀枝花市,弄弄坪,颗粒物(PM10),55,60,47,10,17,108,74,51,51,8,24,13,22,0.6,1.3
2023-07-24T15:00:00,1889A,101.5769,26.5928,攀枝花市,河门口,,27,16,25,8,11,98,86,55,55,10,20,12,14,1.0,1.1
2023-07-24T15:00:00,1890A,101.7169,26.585,攀枝花市,炳草岗,,24,17,41,6,18,114,74,51,51,8,26,19,31,0.7,1.3
2023-07-24T15:00:00,1891A,101.7369,26.5008,攀枝花市,仁和,,,4,15,5,10,118,75,52,52,,12,8,8,,0.6
2023-07-24T15:00:00,1893A,105.4324,28.9634,泸州市,九狮山,,15,15,28,6,11,139,33,45,45,22,22,5,6,0.4,0.6
2023-07-24T15:00:00,1894A,105.4427,28.9063,泸州市,小市上码头,,21,13,41,3,26,148,66,100,61,18,15,7,8,0.8,0.9
2023-07-24T15:00:00,1895A,105.4241,28.8573,泸州市,兰田宪桥,,20,20,40,7,27,163,53,60,60,16,15,6,8,0.8,0.8
2023-07-24T15:00:00,1896A,105.4379,28.8833,泸州市,市环监站,,21,17,37,5,21,148,65,81,65,16,14,4,6,0.8,0.7
2023-07-24T15:00:00,1901A,104.4239,31.1208,德阳市,东山公园,,43,22,27,16,20,146,136,112,90,12,9,4,4,0.6,0.5
2023-07-24T15:00:00,1902A,104.3826,31.1317,德阳市,西小区,,45,45,39,30,23,147,131,92,92,14,12,3,4,0.6,0.5
2023-07-24T15:00:00,1904A,104.3553,31.1091,德阳市,耐火材料厂,,39,32,34,25,23,163,124,86,86,5,8,2,3,0.6,0.6
2023-07-24T15:00:00,1905A,106.056,30.8064,南充市,西山风景区,,32,13,30,18,21,142,102,79,79,6,8,3,4,0.3,0.5
2023-07-24T15:00:00,1906A,106.0789,30.8023,南充市,南充市委,,39,39,43,20,19,150,98,78,78,14,21,8,10,0.4,0.5
2023-07-24T15:00:00,1907A,106.1031,30.8217,南充市,南充炼油厂,,45,45,51,17,22,160,103,78,78,10,17,8,10,0.3,0.4
2023-07-24T15:00:00,1908A,106.1064,30.7856,南充市,高坪区监测站,,34,29,40,18,21,152,106,79,79,13,20,8,10,0.4,0.5
2023-07-24T15:00:00,1909A,106.0642,30.7636,南充市,嘉陵区环保局,,40,40,48,19,23,140,100,79,79,20,24,6,12,0.3,0.4
2023-07-24T15:00:00,1910A,106.1087,30.8388,南充市,市环境监测站,,37,37,53,17,30,157,99,68,68,13,21,6,8,0.3,0.4
2023-07-24T15:00:00,1911A,106.9222,27.6869,遵义市,丁字口,,30,23,23,12,10,100,94,71,71,14,22,6,5,0.4,0.5
2023-07-24T15:00:00,1912A,106.9242,27.7019,遵义市,凤凰山,,32,18,24,22,22,106,99,71,71,6,7,9,8,0.3,0.3
2023-07-24T15:00:00,1913A,106.8906,27.6486,遵义市,忠庄,,32,19,23,13,13,113,102,77,77,9,11,4,2,0.5,0.5
2023-07-24T15:00:00,1914A,106.9231,27.6506,遵义市,舟水桥,,33,20,25,17,15,108,103,73,73,5,10,2,2,0.5,0.5
2023-07-24T15:00:00,1915A,106.9178,27.72,遵义市,干田坝,,33,15,17,11,10,111,103,78,78,6,10,8,6,0.4,0.4
2023-07-24T15:00:00,1916A,103.7897,25.5035,曲靖市,环境监测站,,25,19,22,2,9,78,78,53,53,7,14,2,4,0.4,0.5
2023-07-24T15:00:00,1917A,103.8,25.5364,曲靖市,烟厂办公区,,26,13,17,4,9,81,81,54,54,3,10,3,5,0.3,0.5
2023-07-24T15:00:00,1918A,108.7197,34.3956,咸阳市,气象站,,,,,,,,,,,,,,,,
2023-07-24T15:00:00,1919A,108.673,34.3155,咸阳市,实验中学,臭氧1小时,102,60,50,18,21,245,204,116,116,15,27,7,6,0.5,0.6
2023-07-24T15:00:00,1920A,108.7233,34.3617,咸阳市,师范学院,臭氧1小时,97,50,52,21,19,251,197,119,119,21,34,6,8,0.5,0.6
2023-07-24T15:00:00,1922A,109.0656,35.0994,铜川市,党校,,30,3,35,8,12,194,93,90,54,11,19,7,7,0.8,0.8
2023-07-24T15:00:00,1923A,109.0697,35.0697,铜川市,王益区政府,,32,15,26,11,15,186,102,80,70,5,16,4,4,0.5,0.5
2023-07-24T15:00:00,1924A,108.9344,34.9058,铜川市,新区管委会,,43,26,31,14,16,174,135,112,86,13,16,8,7,0.6,0.4
2023-07-24T15:00:00,1926A,109.4131,36.6275,延安市,枣园,,43,8,34,8,9,157,135,110,110,5,28,6,6,0.5,0.5
2023-07-24T15:00:00,1927A,109.4761,36.6028,延安市,延大医附院,,42,6,35,6,11,151,134,110,110,3,32,5,4,0.1,0.2
2023-07-24T15:00:00,1929A,109.5056,36.6106,延安市,百米大道,,40,21,40,10,12,146,125,111,111,10,37,4,6,0.3,0.4
2023-07-24T15:00:00,1930A,107.185,34.3063,宝鸡市,庙沟村,,29,4,25,12,14,146,92,95,34,1,8,7,8,0.4,0.3
2023-07-24T15:00:00,1931A,107.0708,34.3017,宝鸡市,竹园沟,,39,24,24,15,17,165,122,100,51,8,12,5,5,0.5,0.5
2023-07-24T15:00:00,1932A,107.1906,34.3672,宝鸡市,三陆医院,,45,38,37,14,19,218,142,98,68,9,19,6,7,0.4,0.4
2023-07-24T15:00:00,1933A,107.1431,34.3547,宝鸡市,监测站,,43,24,33,15,17,210,136,102,72,12,17,9,9,0.5,0.4
2023-07-24T15:00:00,1934A,107.1186,34.3739,宝鸡市,技工学校,,42,40,27,15,18,208,132,100,71,12,13,4,5,0.5,0.4
2023-07-24T15:00:00,1935A,107.3906,34.3528,宝鸡市,陈仓区环保局家属楼,,,,43,18,25,223,152,101,86,12,20,6,8,0.4,0.5
2023-07-24T15:00:00,1936A,107.2058,34.3497,宝鸡市,文理学院,,46,30,35,16,30,211,145,106,74,9,13,11,11,0.4,0.4
2023-07-24T15:00:00,1937A,107.2386,34.3622,宝鸡市,三迪小学,,45,35,36,18,21,206,144,102,68,9,18,5,5,0.3,0.4
2023-07-24T15:00:00,1938A,109.5293,34.5101,渭南市,农科所,,47,41,50,29,25,165,149,94,94,9,27,9,6,0.8,0.8
2023-07-24T15:00:00,1939A,109.4974,34.4877,渭南市,日报社,臭氧1小时,60,41,60,25,27,192,168,112,112,8,34,11,8,0.5,0.5
2023-07-24T15:00:00,1940A,109.4636,34.493,渭南市,体育馆,臭氧1小时,59,41,53,15,20,184,167,110,110,7,43,9,8,0.6,0.5
2023-07-24T15:00:00,1941A,109.4259,34.5023,渭南市,高新一小,臭氧1小时,58,48,55,17,18,182,166,106,106,8,26,8,6,0.6,0.5
2023-07-24T15:00:00,1943A,102.1725,38.5339,金昌市,新川苑,,47,36,99,5,22,149,148,121,121,8,22,13,16,0.4,0.6
2023-07-24T15:00:00,1944A,102.1692,38.5167,金昌市,天庆家园,,49,13,72,10,25,157,154,134,134,10,27,18,25,0.8,0.7
2023-07-24T15:00:00,1945A,98.2908,39.7711,嘉峪关市,气象局,,44,19,36,7,14,146,138,117,117,4,26,1,8,0.0,0.2
2023-07-24T15:00:00,1947A,106.3394,38.817,石嘴山市,沙湖旅游区,臭氧1小时,103,26,37,10,13,205,205,148,148,9,17,21,19,0.5,0.5
2023-07-24T15:00:00,1948A,106.3668,39.0145,石嘴山市,大武口朝阳西街,,49,16,44,6,16,173,156,126,126,8,18,10,14,0.3,0.4
2023-07-24T15:00:00,1949A,106.7704,39.2282,石嘴山市,惠农南大街,臭氧1小时,84,32,46,12,13,198,187,139,139,15,21,23,21,0.6,0.5
2023-07-24T15:00:00,1950A,106.7099,39.1325,石嘴山市,红果子镇惠新街,臭氧1小时,104,43,47,18,16,207,207,146,146,20,20,23,21,0.7,0.7
2023-07-24T15:00:00,1951A,84.895,45.6094,克拉玛依市,长征新村,,41,28,30,5,6,130,130,104,87,5,13,10,9,0.2,0.2
2023-07-24T15:00:00,1952A,84.8988,45.5893,克拉玛依市,南林小区,,39,30,31,2,11,122,122,97,74,9,24,3,3,0.2,0.2
2023-07-24T15:00:00,1954A,84.905,44.3396,克拉玛依市,独山子区,,43,19,33,6,13,139,136,105,105,5,9,12,8,0.3,0.4
2023-07-24T15:00:00,1955A,85.6979,46.098,克拉玛依市,乌尔禾区商贸楼,,37,4,19,7,7,124,116,99,86,1,5,6,7,0.3,0.2
2023-07-24T15:00:00,1956A,86.1472,41.7538,巴音郭楞州,孔雀公园,,41,41,72,8,19,128,125,120,120,8,23,5,5,0.2,0.3
2023-07-24T15:00:00,1957A,86.1972,41.7166,巴音郭楞州,棉纺厂,,39,39,76,10,25,131,122,115,115,2,13,4,4,0.2,0.2
2023-07-24T15:00:00,1958A,86.2357,41.7173,巴音郭楞州,经济开发区,,41,25,74,21,25,131,130,124,124,2,10,4,5,0.2,0.2
2023-07-24T15:00:00,1961A,117.532,36.6868,济南市,东山小学,臭氧1小时,72,24,31,12,14,207,177,160,160,8,22,5,4,0.3,0.4
2023-07-24T15:00:00,1966A,120.0405,35.8735,青岛市,黄岛区4号,臭氧1小时,70,29,37,14,26,215,176,134,134,8,22,10,12,0.7,0.7
2023-07-24T15:00:00,1982A,122.0693,37.2174,威海市,文登开发区,,38,17,36,12,24,146,120,143,121,4,8,5,5,0.5,0.6
2023-07-24T15:00:00,2031A,113.1817,27.9958,株洲市,云田中学,,49,33,32,34,27,128,126,93,93,5,7,8,8,0.4,0.5
2023-07-24T15:00:00,2054A,114.1099,32.1059,信阳市,平桥分局,,39,15,27,14,14,124,123,106,106,2,8,1,1,0.6,0.6
2023-07-24T15:00:00,2064A,113.9956,32.1271,信阳市,南湾水厂,,36,31,32,17,16,115,114,103,103,3,4,1,1,0.6,0.6
2023-07-24T15:00:00,2065A,114.0775,32.1195,信阳市,市酿酒公司,,39,19,23,19,20,122,122,104,104,5,9,3,3,0.7,0.7
2023-07-24T15:00:00,2066A,114.0609,32.1399,信阳市,审计局,,42,30,31,19,22,132,132,113,113,3,4,1,1,0.6,0.7
2023-07-24T15:00:00,2067A,114.6613,33.6128,周口市,市环境监测站,,47,35,38,20,20,149,148,107,107,4,12,2,2,0.5,0.6
2023-07-24T15:00:00,2068A,114.6758,33.6347,周口市,周口师范,,50,30,39,12,14,160,157,117,117,2,8,4,4,0.5,0.5
2023-07-24T15:00:00,2069A,114.6546,33.5979,周口市,市运管处,,43,35,42,14,17,144,137,100,100,4,11,3,2,0.8,0.8
2023-07-24T15:00:00,2070A,114.6369,33.6406,周口市,川汇区环保局,,48,43,40,9,11,152,152,114,114,2,7,1,1,0.4,0.6
2023-07-24T15:00:00,2075A,117.6336,24.4674,漳州市,九湖,,,,25,,13,,,,,,11,,5,,
2023-07-24T15:00:00,2160A,112.85,35.5051,晋城市,自来水公司,臭氧1小时,85,21,54,7,23,225,188,184,164,10,16,10,10,0.7,0.9
2023-07-24T15:00:00,2161A,112.8318,35.4936,晋城市,白云商贸,,,,44,,21,163,,159,,,19,,11,,0.9
2023-07-24T15:00:00,2162A,112.8508,35.4887,晋城市,市环保局,臭氧1小时,60,25,51,14,24,209,168,143,143,11,18,10,10,0.7,0.9
2023-07-24T15:00:00,2163A,112.8676,35.4897,晋城市,技术学院,臭氧1小时,70,41,49,7,20,214,176,159,153,10,18,11,10,0.7,1
2023-07-24T15:00:00,2165A,112.8453,35.546,晋城市,白马寺,,,,33,,26,171,,168,,,14,,7,,0.8
2023-07-24T15:00:00,2166A,112.4397,39.3522,朔州市,平朔,,46,26,39,7,17,155,146,124,124,2,15,3,8,0.5,0.6
2023-07-24T15:00:00,2167A,112.4575,39.3617,朔州市,朔唯,臭氧1小时,58,54,34,6,19,180,166,140,140,3,16,4,10,0.4,0.6
2023-07-24T15:00:00,2168A,112.4258,39.3197,朔州市,区政府,,47,20,35,4,11,149,148,124,124,8,18,4,7,0.4,0.6
2023-07-24T15:00:00,2169A,112.4072,39.3278,朔州市,市环保局,,49,34,44,5,15,157,155,132,132,2,13,4,8,0.3,0.5
2023-07-24T15:00:00,2170A,112.4272,39.3681,朔州市,市二中,,49,30,48,5,18,167,154,129,129,4,17,5,9,0.4,0.5
2023-07-24T15:00:00,2171A,112.7532,37.6945,晋中市,锦纶小区,臭氧1小时,114,78,58,15,18,230,227,179,179,13,20,16,13,0.6,0.6
2023-07-24T15:00:00,2173A,112.7249,37.7067,晋中市,南都小区,臭氧1小时,116,70,61,24,25,233,232,182,182,12,19,15,9,0.5,0.6
2023-07-24T15:00:00,2174A,112.6991,37.6982,晋中市,榆次区政府,臭氧1小时,116,38,58,29,23,232,232,174,174,12,21,16,13,0.6,0.7
2023-07-24T15:00:00,2175A,110.9956,35.0147,运城市,运城中学,臭氧1小时,75,80,49,33,20,180,180,126,126,19,18,7,8,1.2,0.5
2023-07-24T15:00:00,2178A,110.9686,35.0303,运城市,地区技校,臭氧1小时,77,86,54,39,22,181,181,122,122,13,19,9,6,1.1,0.5
2023-07-24T15:00:00,2179A,111.0414,35.1147,运城市,空港新区,颗粒物(PM10),78,106,68,56,29,176,176,119,119,18,21,9,7,1.6,1
2023-07-24T15:00:00,2181A,112.7383,38.4519,忻州市,开发区,臭氧1小时,79,42,42,26,20,183,183,138,138,14,20,18,15,0.5,0.5
2023-07-24T15:00:00,2182A,112.7003,38.4928,忻州市,会展中心,臭氧1小时,80,30,41,31,24,184,184,133,133,11,22,14,9,0.4,0.5
2023-07-24T15:00:00,2183A,111.1406,37.5211,吕梁市,环保局,,46,19,66,8,14,162,145,102,102,5,39,9,9,0.5,0.6
2023-07-24T15:00:00,2185A,111.1297,37.5136,吕梁市,自来水公司,,46,20,53,12,16,156,147,107,107,6,33,5,7,0.3,0.5
2023-07-24T15:00:00,2187A,106.8174,39.6973,乌海市,市林业局,臭氧1小时,92,35,70,8,22,208,193,127,127,6,24,15,42,0.7,1
2023-07-24T15:00:00,2188A,106.7907,39.6667,乌海市,中海勃湾学校,臭氧1小时,68,30,61,12,20,242,174,126,126,8,24,16,34,0.5,0.8
2023-07-24T15:00:00,2191A,122.2532,43.6801,通辽市,艺术职业学校,,28,6,13,0,5,89,87,78,78,9,11,5,4,0.5,0.5
2023-07-24T15:00:00,2192A,119.7594,49.2261,呼伦贝尔市,区环保局,,30,30,30,10,18,74,74,52,52,9,14,4,5,0.4,0.4
2023-07-24T15:00:00,2195A,107.4212,40.761,巴彦淖尔市,附二中,臭氧1小时,101,79,77,17,21,201,201,138,138,11,14,7,5,0.5,0.6
2023-07-24T15:00:00,2196A,107.37,40.7372,巴彦淖尔市,市环保大楼,,,93,79,29,21,187,187,142,142,9,16,5,4,,0.5
2023-07-24T15:00:00,2197A,113.1306,40.9923,乌兰察布市,集宁新区,臭氧1小时,60,27,31,10,19,168,168,135,135,6,26,15,12,0.3,0.4
2023-07-24T15:00:00,2200A,122.0392,46.0656,兴安盟,胜华新制药厂,,23,11,11,13,9,75,71,59,59,5,8,3,3,0.3,0.3
2023-07-24T15:00:00,2201A,121.9504,46.0741,兴安盟,科右前旗环保局,,21,14,17,11,10,80,65,61,61,5,4,3,3,0.5,0.4
2023-07-24T15:00:00,2202A,116.1042,43.9317,锡林郭勒盟,市环保监测站,,34,28,15,9,6,116,107,89,89,6,10,6,8,0.2,0.2
2023-07-24T15:00:00,2203A,116.0781,43.9311,锡林郭勒盟,市政府,,35,21,14,7,4,119,109,91,91,10,11,10,11,0.2,0.2
2023-07-24T15:00:00,2204A,105.6467,38.8363,阿拉善盟,西城区西花园,,49,27,31,10,16,161,155,136,136,12,16,9,10,0.4,0.5
2023-07-24T15:00:00,2205A,105.6985,38.8411,阿拉善盟,蒙二幼,,48,27,39,8,11,160,153,136,136,5,8,10,9,0.3,0.5
2023-07-24T15:00:00,2206A,105.724,38.8516,阿拉善盟,环保局新楼,,47,22,25,8,14,155,149,137,137,5,7,10,11,0.4,0.4
2023-07-24T15:00:00,2207A,121.6094,41.998,阜新市,工业园区,细颗粒物(PM2.5),52,45,28,36,12,121,121,85,85,7,18,6,8,1.0,0.8
2023-07-24T15:00:00,2208A,121.6697,42.0279,阜新市,长青街,,50,50,32,29,16,122,122,84,84,7,13,6,8,0.8,0.8
2023-07-24T15:00:00,2209A,121.6673,42.0705,阜新市,农业园区,,48,32,24,33,28,106,106,81,81,4,9,7,11,0.8,0.8
2023-07-24T15:00:00,2210A,121.6717,42.0224,阜新市,东苑,,,62,34,,18,132,132,90,90,5,16,9,12,0.8,0.7
2023-07-24T15:00:00,2211A,121.6506,42.0498,阜新市,玉龙新城,,36,36,24,18,8,106,106,79,79,5,14,4,5,0.7,0.7
2023-07-24T15:00:00,2212A,123.2,41.1953,辽阳市,宏伟区,,47,29,28,11,13,149,149,129,129,8,12,4,5,0.6,0.7
2023-07-24T15:00:00,2213A,123.1683,41.2495,辽阳市,新华园,,49,48,44,15,17,172,154,135,135,12,16,4,5,0.8,0.7
2023-07-24T15:00:00,2214A,123.2354,41.2639,辽阳市,滨河路,,48,28,32,9,13,153,153,130,130,9,17,7,8,0.7,0.2
2023-07-24T15:00:00,2215A,123.149,41.2991,辽阳市,铁西工业园,臭氧1小时,53,52,48,21,18,175,162,144,144,24,22,11,9,1.2,1.2
2023-07-24T15:00:00,2216A,123.8139,42.3022,铁岭市,汇工街西,臭氧1小时,73,42,25,22,11,178,178,130,130,11,16,7,7,0.9,0.6
2023-07-24T15:00:00,2217A,123.8649,42.2923,铁岭市,水上乐园,臭氧1小时,78,45,24,24,10,182,182,123,123,12,17,5,3,1.0,0.6
2023-07-24T15:00:00,2218A,123.8486,42.2867,铁岭市,银州路东段,臭氧1小时,82,47,23,30,11,185,185,126,126,18,17,6,5,1.0,0.6
2023-07-24T15:00:00,2219A,123.7153,42.2217,铁岭市,金沙江路北,臭氧1小时,62,35,24,20,14,169,169,124,124,13,18,4,6,1.2,0.7
2023-07-24T15:00:00,2220A,120.4318,41.5881,朝阳市,西梁,,39,29,30,14,10,135,124,95,95,5,17,7,7,0.8,0.8
2023-07-24T15:00:00,2221A,120.4521,41.5646,朝阳市,河畔小区,,48,48,23,15,8,135,128,106,106,5,10,6,6,0.8,0.7
2023-07-24T15:00:00,2222A,120.4176,41.5648,朝阳市,八里堡,,45,45,26,15,10,134,126,101,101,8,21,4,4,0.8,0.8
2023-07-24T15:00:00,2223A,120.3806,41.5969,朝阳市,农业园区,,40,34,26,19,14,139,125,96,96,6,18,5,5,0.8,0.7
2023-07-24T15:00:00,2225A,124.4002,43.1713,四平市,一商场,,36,13,9,6,6,113,113,98,98,10,11,9,9,0.6,0.4
2023-07-24T15:00:00,2226A,124.388,43.193,四平市,境园,,35,7,11,10,7,110,110,91,91,4,8,6,5,0.2,0.2
2023-07-24T15:00:00,2227A,125.1358,42.8845,辽源市,环保局,,32,7,7,1,4,103,101,96,96,3,5,5,5,0.6,0.6
2023-07-24T15:00:00,2229A,125.9358,41.7173,通化市,光明,,32,9,12,5,5,104,102,95,95,4,6,7,7,0.8,0.4
2023-07-24T15:00:00,2230A,125.9446,41.7325,通化市,铁路,,31,11,8,3,2,102,98,90,90,3,5,6,5,0.3,0.3
2023-07-24T15:00:00,2231A,126.4219,41.9171,白山市,喜丰,,40,40,40,8,10,113,109,89,89,7,9,8,8,0.6,0.6
2023-07-24T15:00:00,2232A,126.4077,41.9419,白山市,环保局,,35,17,20,6,5,114,112,94,94,6,8,8,5,0.6,0.7
2023-07-24T15:00:00,2233A,124.8006,45.1214,松原市,江南,,24,7,7,5,4,76,74,66,66,6,5,4,4,0.4,0.4
2023-07-24T15:00:00,2234A,124.7965,45.1722,松原市,江北,,22,7,4,3,2,69,69,62,62,4,5,4,3,0.3,0.3
2023-07-24T15:00:00,2235A,122.7911,45.6077,白城市,洮北区环保局,,23,2,4,4,12,72,72,62,62,7,7,2,4,0.1,0.1
2023-07-24T15:00:00,2236A,122.8738,45.5725,白城市,市环保局,,25,7,10,1,2,79,79,71,71,4,6,5,3,0.2,0.2
2023-07-24T15:00:00,2237A,129.47,42.8883,延边朝鲜族自治州,妇幼医院,,27,11,13,5,7,86,84,76,76,8,10,7,8,0.6,0.5
2023-07-24T15:00:00,2238A,129.5055,42.9108,延边朝鲜族自治州,延边医院,,28,18,14,4,6,90,89,88,88,9,10,6,6,0.6,0.5
2023-07-24T15:00:00,2239A,129.3964,42.8881,延边朝鲜族自治州,朝阳川镇医院,,28,6,11,2,4,88,87,80,80,4,8,5,6,0.5,0.5
2023-07-24T15:00:00,2240A,130.9762,45.3001,鸡西市,环保局,,23,15,13,4,4,75,73,71,71,9,11,5,5,0.2,0.2
2023-07-24T15:00:00,2243A,130.9429,45.3039,鸡西市,第一中学,,27,15,13,8,4,90,86,85,85,2,7,6,5,0.1,0.1
2023-07-24T15:00:00,2244A,130.2537,47.3416,鹤岗市,哈啤分公司,,15,9,8,5,6,59,48,49,49,6,10,10,11,0.3,0.4
2023-07-24T15:00:00,2245A,130.2684,47.3086,鹤岗市,斯达机电,,14,5,5,5,4,53,44,42,42,5,8,11,11,0.3,0.4
2023-07-24T15:00:00,2246A,130.3114,47.3388,鹤岗市,东山纸板厂,,,,6,,12,39,,37,,,9,,8,,0.3
2023-07-24T15:00:00,2247A,130.1097,47.3382,鹤岗市,五号水库,,19,19,7,4,7,56,54,48,48,4,9,10,9,0.2,0.2
2023-07-24T15:00:00,2248A,131.1511,46.6937,双鸭山市,双合村,,20,11,12,2,4,70,63,61,61,5,9,10,10,0.1,0.2
2023-07-24T15:00:00,2249A,131.1652,46.6191,双鸭山市,南小市,,17,17,13,9,5,60,53,52,52,6,4,6,6,0.2,0.2
2023-07-24T15:00:00,2250A,131.1524,46.6554,双鸭山市,环保局,,15,4,7,5,5,59,46,42,32,9,10,9,8,1.5,0.5
2023-07-24T15:00:00,2251A,131.12,46.5656,双鸭山市,苗圃,,25,5,9,4,5,84,79,76,76,3,4,2,3,0.4,0.4
2023-07-24T15:00:00,2252A,128.5159,47.4311,伊春市,环保局,,35,32,10,24,2,52,42,42,42,8,8,3,6,0.3,0.5
2023-07-24T15:00:00,2253A,128.9102,47.7412,伊春市,电力嘉园,,22,14,8,15,9,61,54,54,54,6,7,5,6,0.6,0.6
2023-07-24T15:00:00,2254A,129.5029,48.471,伊春市,汤旺河国家公园,,20,20,25,11,8,62,62,55,55,2,2,8,12,0.3,0.6
2023-07-24T15:00:00,2255A,130.2751,46.8028,佳木斯市,佳纺,,18,8,10,3,4,73,56,73,59,3,6,4,4,0.4,0.5
2023-07-24T15:00:00,2256A,130.3995,46.8307,佳木斯市,发电厂,,18,12,12,5,8,70,57,60,60,5,9,2,4,0.6,0.6
2023-07-24T15:00:00,2257A,130.3258,46.7975,佳木斯市,环保局,,17,8,13,7,6,71,54,71,57,5,8,2,2,0.4,0.5
2023-07-24T15:00:00,2258A,130.3648,46.8032,佳木斯市,十一中,,18,14,13,3,6,69,55,63,58,6,10,3,4,0.4,0.4
2023-07-24T15:00:00,2259A,130.3794,46.7588,佳木斯市,四丰,,28,7,5,2,2,116,89,112,97,2,4,1,1,0.3,0.4
2023-07-24T15:00:00,2262A,131.0518,45.8751,七台河市,新一中,,29,19,15,7,6,99,90,92,92,8,7,12,8,0.8,0.8
2023-07-24T15:00:00,2263A,127.4833,50.2524,黑河市,交通局,,14,5,4,4,6,71,44,64,49,15,10,2,3,0.6,0.5
2023-07-24T15:00:00,2264A,127.5144,50.2341,黑河市,环保局,,15,10,16,5,10,72,47,64,50,9,7,2,2,0.5,0.4
2023-07-24T15:00:00,2265A,127.5291,50.2472,黑河市,大黑河岛,,16,5,6,9,10,79,51,71,53,1,1,1,2,0.5,0.4
2023-07-24T15:00:00,2266A,126.9785,46.6365,绥化市,人和东街,,16,7,7,3,2,82,50,70,47,6,7,5,6,0.3,0.3
2023-07-24T15:00:00,2267A,126.964,46.6528,绥化市,党政办公中心,,15,5,5,4,3,80,48,65,44,5,6,4,4,0.4,0.5
2023-07-24T15:00:00,2269A,124.1069,50.4097,大兴安岭地区,科技局,细颗粒物(PM2.5),67,62,23,48,16,73,73,55,55,6,5,6,6,0.5,0.2
2023-07-24T15:00:00,2270A,117.396,32.939,蚌埠市,工人疗养院,,42,38,37,14,15,134,134,100,100,5,6,10,10,0.2,0.2
2023-07-24T15:00:00,2271A,117.3605,32.9427,蚌埠市,百货大楼,,44,32,38,11,14,138,138,101,101,6,7,4,5,0.4,0.4
2023-07-24T15:00:00,2273A,117.4185,32.8911,蚌埠市,蚌埠学院,,45,44,37,23,20,144,143,102,102,8,9,15,10,0.6,0.5
2023-07-24T15:00:00,2274A,117.3533,32.9673,蚌埠市,淮上区政府,,42,36,40,19,20,138,132,101,101,6,10,4,5,0.2,0.2
2023-07-24T15:00:00,2275A,117.3145,32.8977,蚌埠市,高新区,,42,34,39,14,15,134,134,100,100,5,8,4,7,0.5,0.3
2023-07-24T15:00:00,2277A,116.8305,32.7727,淮南市,潘集区政府,,49,49,38,21,20,152,146,118,118,6,11,4,4,0.4,0.4
2023-07-24T15:00:00,2278A,117.0067,32.6524,淮南市,师范学院,,48,48,37,25,21,149,149,113,113,1,4,10,9,0.3,0.3
2023-07-24T15:00:00,2279A,116.8569,32.5951,淮南市,谢家集区政府,,36,26,27,5,6,137,113,109,109,3,11,4,5,0.2,0.2
2023-07-24T15:00:00,2280A,116.8281,32.633,淮南市,八公山区政府,,41,41,34,19,17,130,122,109,109,6,7,7,7,0.4,0.3
2023-07-24T15:00:00,2281A,116.6325,32.6201,淮南市,焦岗湖风景区管理处,,31,31,27,9,7,97,80,69,69,1,6,5,5,0.3,0.3
2023-07-24T15:00:00,2282A,116.8004,33.975,淮北市,监测站,,48,31,27,14,12,152,152,130,130,6,12,3,3,0.4,0.4
2023-07-24T15:00:00,2283A,116.8091,33.9007,淮北市,烈山区政府,臭氧1小时,58,23,21,22,20,166,166,132,132,3,10,4,4,0.5,0.5
2023-07-24T15:00:00,2285A,117.8177,30.9412,铜陵市,市第四中学,,,,32,,13,95,87,72,72,4,21,10,16,0.3,0.8
2023-07-24T15:00:00,2286A,117.8059,30.9273,铜陵市,市公路局,,37,37,30,18,14,119,110,85,85,8,18,9,10,0.6,0.8
2023-07-24T15:00:00,2287A,117.7807,30.9413,铜陵市,市新民污水厂,,35,29,32,15,13,116,109,82,82,5,18,8,19,0.5,0.4
2023-07-24T15:00:00,2288A,117.7439,30.8792,铜陵市,市第九中学,,34,28,42,5,8,110,107,79,79,10,28,7,6,0.5,0.4
2023-07-24T15:00:00,2289A,117.846,30.9413,铜陵市,车站新区,,36,26,22,9,11,114,114,88,88,6,14,8,6,0.5,0.4
2023-07-24T15:00:00,2290A,117.8483,30.97,铜陵市,市职教基地,,25,8,24,4,8,91,77,64,64,5,18,5,8,0.5,1.1
2023-07-24T15:00:00,2291A,117.0809,30.5177,安庆市,环科院,,29,16,18,14,10,93,92,68,68,6,15,4,4,0.4,0.4
2023-07-24T15:00:00,2292A,117.0331,30.5119,安庆市,马山宾馆,,32,13,14,12,10,100,100,71,71,9,13,3,4,0.4,0.4
2023-07-24T15:00:00,2294A,116.9896,30.6145,安庆市,安庆大学,,39,27,16,27,12,103,103,80,80,8,12,9,4,0.4,0.4
2023-07-24T15:00:00,2295A,118.2903,29.6963,黄山市,延安路89号,,26,22,27,8,9,88,82,66,66,2,4,5,5,0.3,0.3
2023-07-24T15:00:00,2296A,118.327,29.7178,黄山市,黄山东路89号,,25,22,17,4,4,84,78,63,63,2,6,6,5,0.4,0.4
2023-07-24T15:00:00,2297A,118.1371,30.2756,黄山市,黄山区政府5号楼,,23,23,19,7,6,77,68,56,56,4,5,6,7,0.2,0.2
2023-07-24T15:00:00,2298A,118.3093,32.3153,滁州市,老年大学,,46,35,26,15,13,149,146,108,108,7,7,7,8,0.2,0.2
2023-07-24T15:00:00,2299A,118.3244,32.2786,滁州市,人大宾馆,,45,30,19,13,12,144,141,113,113,9,13,6,8,0.3,0.3
2023-07-24T15:00:00,2301A,115.8277,32.8929,阜阳市,市监测站,,41,24,23,10,10,134,130,116,116,5,13,5,5,0.6,0.6
2023-07-24T15:00:00,2303A,115.8554,32.8605,阜阳市,开发区,,40,19,24,10,12,126,126,104,104,5,15,5,5,0.5,0.6
2023-07-24T15:00:00,2307A,116.5079,31.737,六安市,监测大楼,,37,26,22,13,7,135,118,104,104,2,2,2,1,0.3,0.3
2023-07-24T15:00:00,2308A,116.4738,31.7643,六安市,皖西学院,,46,42,28,10,7,147,147,107,107,4,5,6,5,0.3,0.2
2023-07-24T15:00:00,2309A,116.4996,31.7905,六安市,朝阳厂,,45,31,17,17,11,142,142,112,112,2,3,7,7,0.3,0.3
2023-07-24T15:00:00,2310A,116.5567,31.7886,六安市,开发区,,39,39,30,19,18,118,111,98,98,1,6,6,7,0.3,0.3
2023-07-24T15:00:00,2311A,115.8072,33.8399,亳州市,污水处理厂,,43,30,28,15,10,137,137,113,113,5,6,3,4,0.6,0.6
2023-07-24T15:00:00,2312A,115.7789,33.8518,亳州市,三国揽胜宫,,45,43,30,15,13,141,141,120,120,3,5,3,4,0.6,0.6
2023-07-24T15:00:00,2314A,117.47,30.6618,池州市,池州学院,,36,26,18,17,10,114,114,82,82,2,4,5,6,0.6,0.5
2023-07-24T15:00:00,2316A,118.7581,30.9454,宣城市,鳌峰子站,,,,33,13,10,101,101,62,62,17,15,7,7,0.3,0.4
2023-07-24T15:00:00,2317A,118.7385,30.9743,宣城市,敬亭山子站,,29,17,20,11,8,90,90,70,70,7,13,6,7,0.3,0.4
2023-07-24T15:00:00,2318A,118.7173,30.9427,宣城市,开发区子站,,31,18,18,12,8,99,99,76,76,9,13,4,6,0.4,0.4
2023-07-24T15:00:00,2319A,119.0141,25.4325,莆田市,荔城区仓后路,,49,44,37,24,16,170,156,110,110,9,16,7,7,0.6,0.6
2023-07-24T15:00:00,2320A,119.0015,25.4553,莆田市,莆田市监测站,臭氧1小时,64,51,35,30,15,182,171,121,121,8,10,10,9,0.5,0.6
2023-07-24T15:00:00,2321A,119.1119,25.4561,莆田市,涵江区六中,,43,35,30,11,12,183,136,118,118,6,14,7,8,0.5,0.5
2023-07-24T15:00:00,2322A,119.1013,25.3215,莆田市,秀屿区政府,,43,33,26,16,10,136,135,92,92,4,10,8,8,0.6,0.6
2023-07-24T15:00:00,2323A,118.981,25.4792,莆田市,东圳水库,,,,29,,10,,,,,,8,,1,,
2023-07-24T15:00:00,2324A,117.6211,26.2625,三明市,三钢,,29,26,35,20,21,95,89,67,67,6,14,7,11,0.4,0.4
2023-07-24T15:00:00,2325A,117.635,26.2714,三明市,三明二中,,29,23,32,20,17,96,86,69,69,10,16,4,8,0.7,0.8
2023-07-24T15:00:00,2326A,117.6028,26.2378,三明市,三元区政府,,33,21,29,18,16,103,103,78,78,9,12,8,11,0.9,0.8
2023-07-24T15:00:00,2327A,117.7275,26.3108,三明市,洋溪,,,,43,,22,,,,,,9,,10,,
2023-07-24T15:00:00,2331A,118.0966,26.6761,南平市,茫荡山,,,,,,12,,,,,,,,5,,
2023-07-24T15:00:00,2332A,118.1681,26.6369,南平市,南平市监测站,,21,21,27,10,14,73,65,56,56,3,6,5,5,0.6,0.6
2023-07-24T15:00:00,2333A,118.1825,26.6489,南平市,南平铝业有限公司,,20,18,29,9,16,70,63,56,56,6,8,7,7,0.5,0.6
2023-07-24T15:00:00,2334A,118.1756,26.6272,南平市,南平七中,,23,9,25,9,14,79,71,60,60,4,5,3,3,0.7,0.7
2023-07-24T15:00:00,2335A,117.0189,25.1181,龙岩市,龙岩师专,,,,27,,13,,,,,,13,,5,,
2023-07-24T15:00:00,2336A,117.0217,25.1033,龙岩市,龙岩市监测站,,28,28,20,11,9,82,74,65,65,5,14,3,4,0.4,0.5
2023-07-24T15:00:00,2337A,117.0258,25.0661,龙岩市,闽西职业技术学院,,22,16,29,7,12,76,69,59,59,2,16,3,8,0.4,0.4
2023-07-24T15:00:00,2338A,117.0196,25.0306,龙岩市,龙岩学院,,21,11,17,4,9,73,67,59,59,2,5,6,5,0.4,0.3
2023-07-24T15:00:00,2339A,119.5001,26.6946,宁德市,金涵水库,,,,28,,6,,,,,,8,,2,,
2023-07-24T15:00:00,2341A,119.5388,26.6612,宁德市,宁德市监测站,臭氧1小时,69,62,24,39,13,175,175,85,85,4,8,12,8,1.6,0.7
2023-07-24T15:00:00,2342A,117.3102,29.3867,景德镇市,王港中学,颗粒物(PM10),67,83,23,13,9,159,159,89,89,4,5,5,3,1.3,0.6
2023-07-24T15:00:00,2343A,117.2117,29.2933,景德镇市,老干部活动中心,,31,20,23,12,15,116,97,75,75,5,11,5,6,0.2,0.2
2023-07-24T15:00:00,2344A,117.1894,29.2789,景德镇市,兽医站,细颗粒物(PM2.5),54,34,24,38,18,104,95,77,77,5,14,7,8,0.3,0.4
2023-07-24T15:00:00,2345A,117.1547,29.2617,景德镇市,台达陶瓷,,28,27,23,12,12,96,89,71,71,8,16,11,10,0.4,0.4
2023-07-24T15:00:00,2346A,117.2461,29.2956,景德镇市,陶研所,,,16,35,15,8,144,,71,71,199,18,10,7,0.5,0.2
2023-07-24T15:00:00,2347A,114.0997,27.5002,萍乡市,武功山,,,24,12,6,7,68,52,44,44,3,4,,23,0.8,0.8
2023-07-24T15:00:00,2348A,113.8385,27.6434,萍乡市,中医院,,24,11,30,16,30,75,75,56,56,2,7,8,13,0.4,0.6
2023-07-24T15:00:00,2349A,113.8493,27.6253,萍乡市,市政府车库,,25,24,29,13,21,83,79,56,56,3,14,8,16,0.2,0.9
2023-07-24T15:00:00,2350A,113.8676,27.6435,萍乡市,市环保局,,35,32,28,24,19,83,73,55,55,4,9,10,17,0.4,0.5
2023-07-24T15:00:00,2351A,113.866,27.6198,萍乡市,安源区政府,,25,20,27,17,18,79,75,55,55,3,12,5,8,0.3,0.7
2023-07-24T15:00:00,2352A,115.0861,27.9317,新余市,北岗,,28,19,18,13,9,105,88,68,68,2,8,6,8,0.6,0.6
2023-07-24T15:00:00,2353A,114.9886,27.8431,新余市,飞宇,,,32,30,21,15,96,78,64,64,,9,5,6,0.3,0.5
2023-07-24T15:00:00,2354A,114.9231,27.8246,新余市,第二水厂,,42,42,37,15,15,110,81,72,72,7,14,7,10,0.5,0.5
2023-07-24T15:00:00,2355A,114.9308,27.8036,新余市,市气象局,,34,34,30,19,17,96,69,64,64,9,8,5,6,2.0,1.1
2023-07-24T15:00:00,2357A,116.9822,28.1136,鹰潭市,龙虎山,,29,14,25,20,12,82,82,50,50,2,2,5,3,1.0,0.9
2023-07-24T15:00:00,2358A,117.0564,28.2642,鹰潭市,新监测站,,45,45,34,26,16,94,94,64,64,2,11,2,4,0.2,0.4
2023-07-24T15:00:00,2359A,117.0311,28.2475,鹰潭市,财苑宾馆,,41,41,37,20,11,92,92,66,66,1,8,9,8,0.3,0.4
2023-07-24T15:00:00,2360A,117.0222,28.2264,鹰潭市,体育馆,,32,31,29,22,9,95,95,64,64,5,8,6,2,0.5,0.3
2023-07-24T15:00:00,2361A,117.0017,28.2131,鹰潭市,三川水表,,38,38,29,18,11,95,95,66,66,2,9,4,3,0.4,0.5
2023-07-24T15:00:00,2362A,114.9017,25.9149,赣州市,通天岩,,,,,,,,,,,,,,,,
2023-07-24T15:00:00,2363A,114.9367,25.8664,赣州市,地委,,40,40,32,21,13,139,103,77,77,5,10,2,4,1.1,1.1
2023-07-24T15:00:00,2364A,114.9461,25.8481,赣州市,气象台,,34,10,25,18,11,131,107,79,79,3,12,5,8,0.7,0.9
2023-07-24T15:00:00,2365A,114.9322,25.8333,赣州市,市图书馆,,38,38,30,20,12,143,115,87,87,8,13,15,12,0.8,0.8
2023-07-24T15:00:00,2366A,114.8905,25.8471,赣州市,华坚鞋城,,40,40,33,25,13,149,122,88,88,5,15,5,7,0.8,0.8
2023-07-24T15:00:00,2367A,114.9754,27.0803,吉安市,红声器材厂,,36,36,30,20,15,114,107,75,75,5,11,13,9,0.8,0.7
2023-07-24T15:00:00,2368A,114.9658,27.0999,吉安市,市森林工业局,,33,33,26,18,15,118,90,74,74,6,12,6,6,0.8,0.6
2023-07-24T15:00:00,2369A,114.99,27.1312,吉安市,市环境监测站,,33,33,24,16,12,125,99,78,78,6,9,7,9,0.6,0.7
2023-07-24T15:00:00,2370A,115.0093,27.0968,吉安市,青原区法院,,36,34,24,21,12,122,113,81,81,9,11,13,14,0.8,0.8
2023-07-24T15:00:00,2371A,114.3408,27.8064,宜春市,槟榔水业,,29,29,28,18,15,90,53,62,62,3,4,1,1,0,0.1
2023-07-24T15:00:00,2373A,114.3956,27.7844,宜春市,市石油公司,,29,29,28,16,16,111,85,72,72,8,8,1,4,0.5,0.6
2023-07-24T15:00:00,2374A,114.3703,27.7914,宜春市,市气象局,,30,30,32,16,19,97,78,62,62,7,11,1,3,0.9,1
2023-07-24T15:00:00,2375A,114.4013,27.8074,宜春市,市广电局,,29,29,32,16,18,109,88,71,71,4,7,5,7,0.5,0.6
2023-07-24T15:00:00,2376A,116.2127,28.0814,抚州市,桐源党溪,,29,22,22,10,7,91,91,67,67,2,3,3,2,1.0,1.1
2023-07-24T15:00:00,2377A,116.3544,27.9831,抚州市,市站,,32,32,27,17,15,99,94,70,70,1,9,4,6,0.8,0.9
2023-07-24T15:00:00,2378A,116.3565,27.963,抚州市,血防站,,27,27,29,17,11,89,85,60,60,3,10,4,4,1.0,1
2023-07-24T15:00:00,2379A,116.3564,28.0007,抚州市,采茶剧团,,28,26,29,11,15,89,89,65,65,2,11,4,6,0.8,0.9
2023-07-24T15:00:00,2380A,116.385,27.9647,抚州市,医学分院,,30,27,23,13,12,101,93,68,68,3,11,4,6,1.2,1.2
2023-07-24T15:00:00,2381A,118.005,28.4572,上饶市,百草园,,26,22,27,2,13,85,82,57,57,2,8,4,9,0.6,0.6
2023-07-24T15:00:00,2382A,117.9756,28.4436,上饶市,市监测站,,28,24,30,12,15,101,87,71,71,3,12,8,12,0.5,0.6
2023-07-24T15:00:00,2383A,117.9519,28.4628,上饶市,凤凰光学,,28,28,30,13,14,110,87,75,75,2,14,8,21,0.7,0.8
2023-07-24T15:00:00,2385A,114.17,35.9019,鹤壁市,市监测站,臭氧1小时,102,44,62,32,37,204,204,156,156,16,28,4,5,0.9,0.9
2023-07-24T15:00:00,2386A,114.2956,35.7511,鹤壁市,市交警支队,臭氧1小时,78,52,59,18,30,189,182,118,118,7,26,14,12,0.6,0.6
2023-07-24T15:00:00,2387A,114.2878,35.7306,鹤壁市,迎宾馆,臭氧1小时,82,39,52,32,40,194,185,123,123,7,19,7,8,0.6,0.9
2023-07-24T15:00:00,2389A,113.836,35.311,新乡市,环保西院,臭氧1小时,95,42,63,27,38,205,196,125,125,8,20,7,7,0.6,0.8
2023-07-24T15:00:00,2390A,113.884,35.272,新乡市,开发区,臭氧1小时,118,30,51,22,34,235,235,150,150,5,14,2,3,0.7,0.8
2023-07-24T15:00:00,2391A,113.883,35.303,新乡市,环保东院,臭氧1小时,111,47,70,17,27,222,222,144,144,11,22,6,7,0.6,0.7
2023-07-24T15:00:00,2392A,115.0312,35.7636,濮阳市,环保局,臭氧1小时,64,35,39,17,26,206,171,134,134,3,11,2,3,0.6,0.6
2023-07-24T15:00:00,2394A,115.0574,35.7609,濮阳市,油田运输公司,臭氧1小时,69,37,48,18,28,201,175,124,124,5,11,4,4,0.5,0.6
2023-07-24T15:00:00,2395A,115.0866,35.7754,濮阳市,油田物探公司,臭氧1小时,64,40,45,16,26,198,171,121,121,4,9,3,3,0.5,0.5
2023-07-24T15:00:00,2396A,113.8276,34.0159,许昌市,监测站,,44,28,44,17,19,161,140,108,108,5,13,3,3,0.6,0.7
2023-07-24T15:00:00,2398A,113.7906,33.9953,许昌市,开发区,,44,35,43,17,19,148,138,104,104,4,15,1,1,0.6,0.6
2023-07-24T15:00:00,2399A,114.051,33.5699,漯河市,三五一五工厂,臭氧1小时,60,37,43,17,19,168,168,120,120,3,15,10,9,0.4,0.5
2023-07-24T15:00:00,2400A,114.0055,33.5698,漯河市,漯河大学,臭氧1小时,63,34,38,15,24,170,170,121,121,2,13,15,14,0.4,0.4
2023-07-24T15:00:00,2401A,114.0138,33.5828,漯河市,市水利局,臭氧1小时,58,29,41,9,15,166,166,119,119,3,12,7,7,0.4,0.5
2023-07-24T15:00:00,2402A,114.0261,33.5698,漯河市,市广电局,臭氧1小时,63,29,37,13,20,170,170,122,122,2,11,6,6,0.5,0.6
2023-07-24T15:00:00,2404A,112.5224,33.0122,南阳市,瓦房庄,,39,35,39,27,28,124,121,98,98,8,13,6,6,0.5,0.5
2023-07-24T15:00:00,2405A,112.5003,32.9735,南阳市,汉画馆,,48,32,34,33,30,128,117,95,95,1,6,5,5,0.4,0.4
2023-07-24T15:00:00,2406A,112.5573,33.027,南阳市,气象站,,40,40,47,21,28,128,124,103,103,8,11,5,5,0.4,0.5
2023-07-24T15:00:00,2407A,112.5481,32.9689,南阳市,理工学院,,40,24,39,28,27,116,115,92,92,3,13,7,6,0.5,0.5
2023-07-24T15:00:00,2408A,115.6702,34.4285,商丘市,环境监测站,,45,29,34,16,18,152,143,119,119,4,9,9,9,0.6,0.6
2023-07-24T15:00:00,2409A,115.6458,34.4045,商丘市,粮食局,,46,22,32,16,15,153,146,120,120,4,10,4,5,0.5,0.5
2023-07-24T15:00:00,2410A,115.6293,34.3948,商丘市,睢阳区环保局,,46,30,35,18,19,161,147,118,118,4,10,3,3,0.5,0.6
2023-07-24T15:00:00,2420A,114.0189,32.9656,驻马店市,市一纸厂,,46,24,38,8,12,145,145,110,110,7,15,4,4,0.9,0.9
2023-07-24T15:00:00,2421A,114.0114,33.015,驻马店市,市彩印厂,,45,44,37,9,11,143,143,115,115,1,6,5,6,0.4,0.4
2023-07-24T15:00:00,2422A,113.9976,32.9771,驻马店市,天方二分厂,,44,31,36,9,16,139,139,111,111,3,9,4,4,0.5,0.5
2023-07-24T15:00:00,2423A,115.0601,30.2313,黄石市,沈家营,,45,45,59,13,17,161,112,78,78,11,19,14,15,0.5,0.8
2023-07-24T15:00:00,2424A,115.0817,30.2006,黄石市,陈家湾,颗粒物(PM10),53,56,58,15,17,152,114,86,86,11,8,8,8,0.7,0.6
2023-07-24T15:00:00,2426A,114.8988,30.2019,黄石市,铁山,,40,35,29,11,14,164,127,93,93,7,14,9,12,0.6,0.7
2023-07-24T15:00:00,2427A,115.0307,30.2092,黄石市,团城山,,45,45,45,12,14,164,126,84,84,2,11,10,11,0.6,0.6
2023-07-24T15:00:00,2428A,111.0419,32.395,十堰市,武当山,,36,36,31,22,22,105,95,83,83,5,5,7,7,0.6,0.6
2023-07-24T15:00:00,2429A,110.78,32.6494,十堰市,滨河新村,,39,39,43,26,21,160,94,72,72,2,13,4,8,0.5,0.5
2023-07-24T15:00:00,2430A,110.7258,32.6389,十堰市,刘家沟,,42,42,40,23,23,159,100,74,74,2,12,4,7,0.5,0.5
2023-07-24T15:00:00,2431A,110.8839,32.5714,十堰市,铁二处,,,,,,,,,,,,,,,,
2023-07-24T15:00:00,2432A,112.155,32.0197,襄阳市,襄城运动路,,43,43,39,25,22,134,127,102,102,7,9,6,6,0.8,0.8
2023-07-24T15:00:00,2433A,112.1392,32.0564,襄阳市,樊城新华路,颗粒物(PM10),52,53,42,26,23,139,129,98,98,7,7,6,6,0.6,0.7
2023-07-24T15:00:00,2434A,112.1825,32.1142,襄阳市,高新管委会,,44,44,38,30,27,136,124,99,99,6,7,6,6,0.8,0.8
2023-07-24T15:00:00,2435A,112.2106,32.0903,襄阳市,襄州航空路,,,41,41,37,27,121,111,92,92,,3,5,5,0.8,0.7
2023-07-24T15:00:00,2436A,114.8938,30.3994,鄂州市,市政府,,38,30,38,11,12,170,120,96,96,2,9,5,6,0.3,0.4
2023-07-24T15:00:00,2437A,114.8989,30.3714,鄂州市,赵家坝,,36,30,36,7,11,152,113,88,88,2,8,4,5,0.5,0.6
2023-07-24T15:00:00,2439A,112.2014,31.0481,荆门市,竹园小学,,43,43,41,27,22,143,117,103,103,9,12,14,10,0.6,0.7
2023-07-24T15:00:00,2440A,112.1969,30.9891,荆门市,掇刀,,39,32,36,22,18,150,123,99,99,5,11,7,8,0.5,0.6
2023-07-24T15:00:00,2441A,112.2213,31.0386,荆门市,石化一小,,42,42,44,24,22,141,113,88,88,6,19,6,6,0.4,0.5
2023-07-24T15:00:00,2443A,113.9153,30.9285,孝感市,文化路,臭氧1小时,63,17,24,23,18,170,170,109,109,6,12,6,6,0.8,0.8
2023-07-24T15:00:00,2444A,113.942,30.9075,孝感市,东城区,臭氧1小时,69,19,26,14,15,175,175,115,115,10,15,6,7,0.6,0.7
2023-07-24T15:00:00,2446A,114.9028,30.4742,黄冈市,职工中心,,42,42,34,18,18,175,118,93,93,9,6,13,14,0.5,0.6
2023-07-24T15:00:00,2447A,114.3175,29.8142,咸宁市,森林公园,,27,27,21,15,8,87,74,64,64,4,4,5,5,0.4,0.5
2023-07-24T15:00:00,2448A,114.3107,29.8454,咸宁市,市发改委,,32,14,11,13,8,112,100,84,84,1,5,4,5,0.5,0.6
2023-07-24T15:00:00,2449A,114.2936,29.8566,咸宁市,咸安区政府,,,,19,,13,47,,52,,,7,,3,,0.6
2023-07-24T15:00:00,2451A,113.3583,31.7275,随州市,市委党校,,37,37,31,25,23,100,100,88,88,2,4,6,7,0.6,0.6
2023-07-24T15:00:00,2452A,113.3833,31.6908,随州市,市林业局,,34,34,32,20,21,108,108,90,90,2,6,4,4,0.7,0.7
2023-07-24T15:00:00,2453A,113.3983,31.7308,随州市,市立交桥水厂,,35,34,35,24,24,102,101,86,86,2,9,6,6,0.7,0.7
2023-07-24T15:00:00,2454A,109.4978,30.2981,恩施土家族苗族自治州,湖北民院,颗粒物(PM10),53,55,56,18,17,146,128,87,87,6,15,10,10,0.7,0.7
2023-07-24T15:00:00,2455A,109.4707,30.2798,恩施土家族苗族自治州,州电力总公司,,36,28,31,13,13,136,115,74,74,8,23,10,10,0.9,0.9
2023-07-24T15:00:00,2456A,112.5003,26.9167,衡阳市,原169医院,,36,36,31,18,17,108,108,70,70,1,10,5,4,0.2,0.4
2023-07-24T15:00:00,2457A,112.6194,26.9258,衡阳市,衡阳化工总厂,,43,43,39,24,21,133,130,82,82,5,10,8,8,0.6,0.6
2023-07-24T15:00:00,2458A,112.6211,26.8956,衡阳市,珠晖区环保局,,,42,35,,,128,128,79,79,6,10,8,7,0.8,0.7
2023-07-24T15:00:00,2459A,112.6197,26.8733,衡阳市,市委党校,,37,37,32,19,20,130,118,79,79,5,10,10,10,0.6,0.7
2023-07-24T15:00:00,2460A,112.6006,26.8919,衡阳市,市监测站,,39,33,32,25,22,124,124,78,78,8,12,10,10,0.7,0.7
2023-07-24T15:00:00,2461A,112.5664,26.9056,衡阳市,真空机电公司,,,31,36,,21,115,113,75,75,4,13,6,13,0.6,0.9
2023-07-24T15:00:00,2462A,111.5239,27.3033,邵阳市,市水土所,,43,43,32,27,20,113,94,80,80,4,6,8,8,0.4,0.4
2023-07-24T15:00:00,2463A,111.4733,27.2317,邵阳市,市一中,,27,23,32,12,17,103,86,73,73,3,8,7,12,0.3,0.4
2023-07-24T15:00:00,2464A,111.5283,27.2442,邵阳市,市化工厂,,,17,29,,19,116,90,72,72,7,11,5,8,0.3,0.4
2023-07-24T15:00:00,2465A,111.4503,27.2537,邵阳市,市罐头厂,,39,39,31,22,20,97,77,66,66,6,12,9,14,0.3,0.4
2023-07-24T15:00:00,2466A,111.4328,27.2272,邵阳市,市环保局,,35,35,32,15,19,96,82,68,68,6,10,6,18,0.3,0.3
2023-07-24T15:00:00,2467A,112.4067,28.6428,益阳市,甘溪港,,40,40,41,6,7,112,74,79,79,5,4,4,6,0.3,0.5
