timepoint,stationcode,longitude,latitude,area,positionname,primarypollutant,aqi,pm10,pm10_24h,pm2_5,pm2_5_24h,o3,o3_24h,o3_8h,o3_8h_24h,no2,no2_24h,so2,so2_24h,co,co_24h
2023-08-31T09:00:00,1001A,116.3621,39.8784,北京市,万寿西宫,颗粒物(PM10),52,53,40,29,20,150,42,38,28,21,20,3,3,0.6,0.6
2023-08-31T09:00:00,1002A,116.2202,40.2915,北京市,定陵,,17,17,17,10,9,120,36,39,33,5,6,3,3,0.3,0.3
2023-08-31T09:00:00,1003A,116.4174,39.9289,北京市,东四,,38,38,37,22,19,164,39,40,30,23,24,2,1,0.4,0.4
2023-08-31T09:00:00,1004A,116.4072,39.8863,北京市,天坛,,,,,,,,,,,,,,,,
2023-08-31T09:00:00,1005A,116.462,39.9365,北京市,农展馆,,42,42,38,21,18,175,36,29,18,26,29,3,3,0.4,0.5
2023-08-31T09:00:00,1006A,116.3392,39.9295,北京市,官园,,34,34,35,19,18,168,45,47,30,19,23,4,4,0.4,0.4
2023-08-31T09:00:00,1007A,116.2878,39.9611,北京市,海淀万柳,,26,26,33,11,15,144,50,32,32,18,27,1,1,0.3,0.3
2023-08-31T09:00:00,1008A,116.6636,40.135,北京市,顺义新城,,21,21,31,9,12,129,52,47,35,7,19,3,3,0.3,0.3
2023-08-31T09:00:00,1009A,116.6275,40.3275,北京市,怀柔镇,,14,14,18,7,9,95,36,50,42,13,10,3,3,0.3,0.3
2023-08-31T09:00:00,1010A,116.2296,40.217,北京市,昌平镇,,15,12,12,10,9,129,31,48,40,29,17,3,3,0.3,0.2
2023-08-31T09:00:00,1011A,116.3966,39.9821,北京市,奥体中心,,21,21,31,13,16,131,38,27,20,18,30,2,2,0.3,0.3
2023-08-31T09:00:00,1012A,116.184,39.9136,北京市,古城,,23,23,34,12,17,143,47,39,37,18,21,3,3,0.4,0.4
2023-08-31T09:00:00,1015A,117.1444,39.1661,天津市,勤俭道,颗粒物(PM10),60,69,51,39,23,196,103,106,106,22,19,8,9,0.6,0.6
2023-08-31T09:00:00,1017A,117.237,39.1082,天津市,大直沽八号路,颗粒物(PM10),62,73,50,40,23,168,96,97,93,26,19,5,5,0.7,0.6
2023-08-31T09:00:00,1018A,117.202,39.0927,天津市,前进道,颗粒物(PM10),59,68,47,39,23,162,91,92,88,26,19,6,6,0.6,0.5
2023-08-31T09:00:00,1019A,117.1837,39.2133,天津市,淮河道,颗粒物(PM10),60,70,51,39,24,196,109,100,100,21,20,7,7,0.7,0.6
2023-08-31T09:00:00,1021A,117.307,39.0877,天津市,跃进路,颗粒物(PM10),61,72,46,40,21,162,83,91,80,30,22,8,7,0.8,0.7
2023-08-31T09:00:00,1023A,117.707,39.0343,天津市,第四大街,颗粒物(PM10),52,53,40,28,17,161,94,91,86,28,24,5,6,0.6,0.5
2023-08-31T09:00:00,1024A,117.457,38.8394,天津市,永明路,,47,47,32,28,17,154,104,67,67,24,24,10,8,0.5,0.5
2023-08-31T09:00:00,1026A,117.764,39.1587,天津市,汉北路,颗粒物(PM10),52,53,39,26,18,193,109,88,88,24,24,8,8,0.6,0.8
2023-08-31T09:00:00,1027A,117.157,38.9194,天津市,团泊洼,,48,48,27,29,13,157,109,100,100,21,17,6,5,0.6,0.6
2023-08-31T09:00:00,1029A,114.4422,38.0444,石家庄市,职工医院,,42,26,46,29,29,176,34,76,26,41,26,6,5,0.8,0.6
2023-08-31T09:00:00,1030A,114.6063,38.0266,石家庄市,高新区,颗粒物(PM10),54,57,50,31,24,195,42,60,36,35,23,3,2,0.9,0.7
2023-08-31T09:00:00,1031A,114.4898,38.1328,石家庄市,西北水源,,,48,49,21,29,194,,28,28,35,16,8,4,1.0,0.8
2023-08-31T09:00:00,1032A,114.4586,38.0058,石家庄市,西南高教,颗粒物(PM10),53,56,44,26,24,178,24,56,23,43,24,5,3,0.7,0.6
2023-08-31T09:00:00,1033A,114.5331,38.0178,石家庄市,世纪公园,颗粒物(PM10),61,72,55,26,27,174,30,64,31,49,23,4,3,0.7,0.5
2023-08-31T09:00:00,1034A,114.509,38.0457,石家庄市,人民会堂,颗粒物(PM10),58,66,49,34,27,191,44,86,41,35,23,11,6,0.8,0.6
2023-08-31T09:00:00,1035A,114.3524,37.8911,石家庄市,封龙山,,43,41,38,30,23,172,124,148,124,8,6,8,5,1.1,0.9
2023-08-31T09:00:00,1037A,118.131,39.6363,唐山市,雷达站,颗粒物(PM10),68,85,49,30,21,170,49,69,54,48,34,5,4,1.0,0.8
2023-08-31T09:00:00,1038A,118.1725,39.6334,唐山市,物资局,颗粒物(PM10),63,75,52,39,22,174,22,62,38,52,33,10,8,1.2,0.7
2023-08-31T09:00:00,1040A,118.1705,39.6506,唐山市,十二中,颗粒物(PM10),62,73,46,31,23,163,20,51,36,50,31,6,6,1.4,0.8
2023-08-31T09:00:00,1041A,118.1869,39.622,唐山市,小山,颗粒物(PM10),65,80,53,36,17,179,23,56,30,54,36,7,5,1.2,0.7
2023-08-31T09:00:00,1042A,119.5134,39.8207,秦皇岛市,北戴河环保局,,34,19,20,4,6,168,107,104,104,17,16,8,9,0.2,0.2
2023-08-31T09:00:00,1043A,119.7493,40.0116,秦皇岛市,第一关,,32,3,21,10,11,116,44,42,42,63,36,8,8,0.3,0.3
2023-08-31T09:00:00,1044A,119.5897,39.9499,秦皇岛市,监测站,,26,19,23,10,13,118,82,66,66,25,22,5,6,0.4,0.3
2023-08-31T09:00:00,1046A,119.5251,39.9041,秦皇岛市,建设大厦,,25,20,27,12,9,125,80,58,58,21,22,3,2,0.4,0.4
2023-08-31T09:00:00,1048A,114.5302,36.6116,邯郸市,东污水处理厂,细颗粒物(PM2.5),73,63,37,53,30,170,53,66,47,39,21,12,8,1.6,0.9
2023-08-31T09:00:00,1049A,114.4918,36.5713,邯郸市,矿院,细颗粒物(PM2.5),83,45,35,61,28,167,60,38,27,35,28,12,4,2.0,0.9
2023-08-31T09:00:00,1050A,114.484,36.6133,邯郸市,丛台公园,颗粒物(PM10),51,51,36,32,21,171,72,83,60,25,17,9,6,1.3,0.7
2023-08-31T09:00:00,1051A,115.493,38.8632,保定市,游泳馆,颗粒物(PM10),74,98,45,47,30,182,67,100,62,19,19,12,7,0.5,0.3
2023-08-31T09:00:00,1052A,115.5213,38.8959,保定市,华电二区,颗粒物(PM10),52,54,44,31,22,169,76,110,73,14,11,10,5,0.7,0.5
2023-08-31T09:00:00,1053A,115.4713,38.9108,保定市,接待中心,,,66,47,38,25,166,,88,70,15,9,14,11,0.7,0.5
2023-08-31T09:00:00,1054A,115.4612,38.8416,保定市,地表水厂,颗粒物(PM10),67,84,57,30,26,172,59,79,45,20,20,13,9,0.6,0.4
2023-08-31T09:00:00,1056A,115.5086,38.8639,保定市,监测站,颗粒物(PM10),53,55,49,31,27,181,74,88,64,16,16,12,7,0.7,0.4
2023-08-31T09:00:00,1057A,114.8883,40.8336,张家口市,人民公园,,17,14,17,1,4,110,54,77,48,6,8,2,2,0.1,0.1
2023-08-31T09:00:00,1059A,114.8687,40.8042,张家口市,五金库,,29,29,23,6,7,111,53,70,54,9,8,2,4,0.3,0.3
2023-08-31T09:00:00,1060A,114.8902,40.762,张家口市,世纪豪园,,35,28,18,24,8,110,56,66,54,13,10,3,4,0.2,0.1
2023-08-31T09:00:00,1061A,114.8916,40.8661,张家口市,北泵房,,18,8,14,2,5,119,57,62,46,3,5,5,6,0.2,0.2
2023-08-31T09:00:00,1062A,117.9531,40.9081,承德市,铁路,,20,20,21,6,6,98,12,49,22,26,23,8,12,0.3,0.4
2023-08-31T09:00:00,1063A,117.9392,40.9763,承德市,中国银行,,10,10,23,2,6,100,26,33,18,12,16,8,12,0.3,0.4
2023-08-31T09:00:00,1064A,117.9503,40.928,承德市,开发区,,,20,26,13,13,111,25,50,29,,17,5,10,,0.3
2023-08-31T09:00:00,1065A,117.8051,40.9655,承德市,文化中心,,23,23,27,9,6,105,20,20,12,24,24,4,16,0.3,0.5
2023-08-31T09:00:00,1066A,117.9268,41.0026,承德市,离宫,,39,21,21,27,16,95,21,19,10,7,12,2,4,0.3,0.4
2023-08-31T09:00:00,1067A,116.6708,39.5111,廊坊市,药材公司,颗粒物(PM10),61,71,48,33,25,165,64,73,54,20,18,2,3,0.5,0.4
2023-08-31T09:00:00,1068A,116.7214,39.5589,廊坊市,开发区,细颗粒物(PM2.5),57,57,42,40,30,165,58,79,61,21,17,2,2,0.5,0.5
2023-08-31T09:00:00,1070A,116.7244,39.5269,廊坊市,北华航天学院,颗粒物(PM10),60,70,53,34,21,168,56,86,58,27,18,5,5,0.5,0.4
2023-08-31T09:00:00,1071A,116.8842,38.2991,沧州市,沧县城建局,,44,44,34,17,17,141,110,110,100,20,17,10,7,0.6,0.4
2023-08-31T09:00:00,1072A,116.8584,38.3254,沧州市,电视转播站,,49,44,34,34,17,144,118,126,102,18,16,10,7,0.5,0.4
2023-08-31T09:00:00,1073A,116.8709,38.3228,沧州市,市环保局,,50,50,41,24,20,147,102,117,96,17,20,8,4,0.4,0.2
2023-08-31T09:00:00,1074A,115.6838,37.7541,衡水市,电机北厂,颗粒物(PM10),64,78,54,31,26,194,115,122,97,9,11,10,6,0.5,0.4
2023-08-31T09:00:00,1075A,115.6303,37.7316,衡水市,市监测站,颗粒物(PM10),56,62,51,33,21,178,101,96,79,15,18,7,5,0.6,0.4
2023-08-31T09:00:00,1077A,114.4704,37.0886,邢台市,达活泉,颗粒物(PM10),64,77,59,32,25,187,77,104,62,21,13,17,9,2.7,1.4
2023-08-31T09:00:00,1078A,114.5062,37.0349,邢台市,邢师高专,颗粒物(PM10),76,102,68,49,37,179,43,26,26,32,27,11,8,2.8,1.3
2023-08-31T09:00:00,1079A,114.5237,37.0851,邢台市,路桥公司,细颗粒物(PM2.5),67,75,58,48,31,169,72,85,52,29,20,18,12,2.8,1.6
2023-08-31T09:00:00,1080A,114.4725,37.0719,邢台市,市环保局,颗粒物(PM10),74,98,69,38,29,182,64,93,49,26,16,17,11,3.2,1.9
2023-08-31T09:00:00,1081A,112.522,37.8873,太原市,尖草坪,颗粒物(PM10),56,61,61,27,31,189,57,14,14,26,49,11,7,0.7,0.8
2023-08-31T09:00:00,1083A,112.434,38.0108,太原市,上兰,,,,,,,,,,,,,,,,
2023-08-31T09:00:00,1084A,112.469,37.7124,太原市,晋源,细颗粒物(PM2.5),59,52,52,42,28,206,37,25,23,43,40,7,6,0.9,0.9
2023-08-31T09:00:00,1085A,112.5583,37.7394,太原市,小店,"颗粒物(PM10),细颗粒物(PM2.5)",77,104,70,56,28,212,48,13,13,40,52,14,7,1.0,0.8
2023-08-31T09:00:00,1086A,112.5369,37.8692,太原市,桃园,颗粒物(PM10),51,51,51,29,27,191,60,14,14,26,49,9,7,0.7,0.8
2023-08-31T09:00:00,1087A,112.57,37.8195,太原市,坞城,"颗粒物(PM10),细颗粒物(PM2.5)",64,77,58,46,30,204,66,26,26,31,46,17,10,1.0,0.9
2023-08-31T09:00:00,1088A,112.549,37.9854,太原市,南寨,颗粒物(PM10),65,79,50,30,28,174,37,10,10,29,28,7,7,0.7,0.9
2023-08-31T09:00:00,1090A,111.6507,40.7517,呼和浩特市,呼市一监,,22,22,30,8,12,132,56,55,39,16,15,6,6,0.6,0.5
2023-08-31T09:00:00,1091A,111.6572,40.8033,呼和浩特市,小召,,34,34,34,10,13,127,53,75,35,21,22,6,6,0.5,0.5
2023-08-31T09:00:00,1094A,111.7516,40.8369,呼和浩特市,如意水处理厂,,24,24,32,9,15,138,70,46,41,12,19,8,7,0.4,0.5
2023-08-31T09:00:00,1095A,111.7276,40.8062,呼和浩特市,二十九中,,29,29,31,8,13,139,68,46,42,13,18,7,7,0.5,0.5
2023-08-31T09:00:00,1096A,111.5512,40.7866,呼和浩特市,工大金川校区,,26,11,34,4,11,125,81,45,45,10,19,3,6,0.2,0.3
2023-08-31T09:00:00,1097A,111.717,40.7612,呼和浩特市,化肥厂生活区,,,18,36,6,11,140,,68,45,11,17,6,7,0.4,0.4
2023-08-31T09:00:00,1098A,123.6836,41.9339,沈阳市,森林路,,,,,,,,,,,,,,,,
2023-08-31T09:00:00,1099A,123.505,41.7406,沈阳市,浑南东路,颗粒物(PM10),52,53,30,23,12,104,31,9,9,32,33,24,13,1.9,0.7
2023-08-31T09:00:00,1100A,123.4231,41.6989,沈阳市,新秀街,,,54,32,18,12,96,37,10,10,,41,26,17,2.0,0.9
2023-08-31T09:00:00,1102A,123.5903,41.8411,沈阳市,东陵路,,,70,33,30,12,96,,5,5,,20,,7,,0.5
2023-08-31T09:00:00,1103A,123.4264,41.8467,沈阳市,陵东街,,50,50,29,31,18,92,29,10,10,49,29,22,7,1.9,0.8
2023-08-31T09:00:00,1104A,123.4114,41.7653,沈阳市,文化路,颗粒物(PM10),60,69,45,35,20,96,29,12,12,46,38,27,12,2.0,0.8
2023-08-31T09:00:00,1105A,123.4678,41.7867,沈阳市,小河沿,,50,50,36,26,18,94,22,8,8,44,32,19,6,1.9,0.9
2023-08-31T09:00:00,1106A,123.4017,41.7972,沈阳市,太原街,颗粒物(PM10),55,59,40,31,27,91,29,9,9,41,41,29,11,1.9,0.9
2023-08-31T09:00:00,1108A,123.3783,41.9228,沈阳市,京沈街,颗粒物(PM10),61,71,43,34,21,101,32,10,10,46,31,26,11,1.8,0.8
2023-08-31T09:00:00,1109A,121.612,38.9741,大连市,甘井子,,36,36,28,12,14,112,83,67,67,34,20,5,5,1.0,0.7
2023-08-31T09:00:00,1110A,121.565,38.9511,大连市,周水子,,32,26,24,13,14,112,101,59,45,25,27,14,12,0.6,0.5
2023-08-31T09:00:00,1111A,121.5637,38.8845,大连市,星海三站,,31,21,21,13,12,103,98,63,63,19,12,8,6,0.4,0.3
2023-08-31T09:00:00,1112A,121.6302,38.9117,大连市,青泥洼桥,,34,18,23,12,14,108,106,78,78,16,19,7,6,0.7,0.6
2023-08-31T09:00:00,1113A,121.6251,38.8638,大连市,傅家庄,,32,24,19,20,11,108,101,99,95,14,12,10,10,0.4,0.3
2023-08-31T09:00:00,1114A,121.5213,38.8661,大连市,七贤岭,,41,34,16,12,9,131,131,60,60,12,12,8,5,0.7,0.4
2023-08-31T09:00:00,1115A,121.2529,38.8061,大连市,旅顺,,36,27,19,17,9,119,114,78,78,45,15,7,5,1.1,0.5
2023-08-31T09:00:00,1116A,121.7485,39.1311,大连市,金州,,,27,20,18,12,110,89,57,57,,15,,8,0.9,0.7
2023-08-31T09:00:00,1117A,121.7811,39.0496,大连市,开发区,,28,26,22,12,15,113,88,67,50,32,23,9,8,0.6,0.5
2023-08-31T09:00:00,1118A,121.9762,39.0631,大连市,双D港,,35,22,17,10,9,111,111,68,68,22,15,9,8,0.5,0.4
2023-08-31T09:00:00,1119A,125.3325,43.9166,长春市,食品厂,,28,28,32,9,13,59,39,32,32,34,36,4,4,0.5,0.6
2023-08-31T09:00:00,1120A,125.2863,43.9027,长春市,客车厂,,,,30,,14,63,,32,32,35,32,,5,0.6,0.6
2023-08-31T09:00:00,1121A,125.2841,43.8463,长春市,邮电学院,,,17,21,5,7,66,,26,26,24,20,5,5,0.5,0.4
2023-08-31T09:00:00,1122A,125.3716,43.8772,长春市,劳动公园,,15,13,24,4,17,70,46,32,32,24,28,6,6,0.4,0.4
2023-08-31T09:00:00,1123A,125.3297,43.8805,长春市,园林处,,18,18,20,6,7,64,45,42,42,27,23,5,5,0.5,0.4
2023-08-31T09:00:00,1124A,125.4605,43.79,长春市,净月潭,,12,12,12,4,4,55,35,19,19,8,8,5,5,0.3,0.3
2023-08-31T09:00:00,1125A,125.7194,43.515,长春市,甩湾子,,,,,,,,,,,,,,,,
2023-08-31T09:00:00,1126A,125.3863,43.8447,长春市,经开区环卫处,,20,20,23,5,6,63,25,24,24,25,23,4,4,0.5,0.4
2023-08-31T09:00:00,1127A,125.245,43.7783,长春市,高新区管委会,,,9,18,5,6,71,37,30,30,22,23,,5,,0.5
2023-08-31T09:00:00,1128A,125.1761,43.8325,长春市,岱山公园,,19,11,24,6,6,69,22,22,22,38,29,4,3,0.6,0.5
2023-08-31T09:00:00,1129A,126.5422,45.755,哈尔滨市,岭北,,16,7,7,4,4,74,50,48,43,5,6,8,7,0.3,0.2
2023-08-31T09:00:00,1130A,126.561,45.8167,哈尔滨市,松北商大,,,19,9,3,4,47,,34,31,10,7,6,6,0.5,0.4
2023-08-31T09:00:00,1131A,126.979,45.5419,哈尔滨市,阿城会宁,,15,15,16,9,6,59,47,30,30,8,8,5,5,0.6,0.6
2023-08-31T09:00:00,1132A,126.599,45.7222,哈尔滨市,南岗学府路,,16,16,17,4,7,53,44,32,31,6,7,6,6,0.4,0.4
2023-08-31T09:00:00,1133A,126.689,45.7733,哈尔滨市,太平宏伟公园,,13,11,14,3,5,52,41,36,31,11,13,7,7,0.4,0.4
2023-08-31T09:00:00,1134A,126.635,45.7667,哈尔滨市,道外承德广场,,19,19,11,11,9,48,34,36,31,17,16,7,7,0.4,0.3
2023-08-31T09:00:00,1135A,126.685,45.7319,哈尔滨市,香坊红旗大街,,14,9,14,6,10,51,42,30,27,14,20,8,8,0.5,0.5
2023-08-31T09:00:00,1136A,126.6411,45.7258,哈尔滨市,动力和平路,,,16,13,,,50,42,28,27,12,16,6,6,0.6,0.4
2023-08-31T09:00:00,1137A,126.593,45.7478,哈尔滨市,道里建国路,,19,19,11,5,5,48,38,35,29,14,14,4,4,0.4,0.4
2023-08-31T09:00:00,1138A,126.615,45.61,哈尔滨市,平房东轻厂,,21,21,10,4,4,54,42,34,30,9,10,6,5,0.3,0.3
2023-08-31T09:00:00,1139A,126.595,45.9855,哈尔滨市,呼兰师专,,13,4,7,4,3,48,41,41,37,8,8,5,6,0.4,0.4
2023-08-31T09:00:00,1140A,126.6206,45.6842,哈尔滨市,省农科院,,18,18,17,2,3,56,48,30,27,8,17,5,5,0.4,0.4
2023-08-31T09:00:00,1141A,121.4,31.238,上海市,普陀,细颗粒物(PM2.5),79,36,24,58,20,95,45,27,15,41,32,6,4,1.1,0.8
2023-08-31T09:00:00,1142A,121.478,31.2036,上海市,十五厂,,40,38,23,28,20,92,51,65,29,49,35,14,10,1.0,0.5
2023-08-31T09:00:00,1143A,121.467,31.3008,上海市,虹口,,,43,25,,10,89,40,32,21,54,40,8,6,1.2,0.7
2023-08-31T09:00:00,1144A,121.412,31.1654,上海市,徐汇上师大,细颗粒物(PM2.5),89,45,26,66,24,90,46,43,25,46,31,6,5,1.1,0.8
2023-08-31T09:00:00,1145A,121.536,31.2659,上海市,杨浦四漂,细颗粒物(PM2.5),79,27,22,58,21,99,47,60,30,44,28,8,6,1.4,0.9
2023-08-31T09:00:00,1147A,121.425,31.2261,上海市,静安监测站,细颗粒物(PM2.5),84,39,25,62,23,99,50,33,22,45,34,4,2,1.1,0.6
2023-08-31T09:00:00,1148A,121.703,31.1907,上海市,浦东川沙,细颗粒物(PM2.5),75,26,21,55,20,102,48,47,32,37,26,8,6,0.9,0.7
2023-08-31T09:00:00,1149A,121.533,31.2284,上海市,浦东新区监测站,细颗粒物(PM2.5),72,42,24,52,18,90,42,67,30,42,28,9,6,1.1,0.6
2023-08-31T09:00:00,1150A,121.577,31.2071,上海市,浦东张江,细颗粒物(PM2.5),72,39,22,52,14,93,39,54,24,41,30,7,5,1.1,0.6
2023-08-31T09:00:00,1151A,118.8086,32.1065,南京市,迈皋桥,颗粒物(PM10),51,51,38,31,24,126,73,64,39,25,19,6,4,0.4,0.4
2023-08-31T09:00:00,1152A,118.7538,32.0551,南京市,草场门,颗粒物(PM10),52,53,41,27,26,111,85,65,47,26,25,5,3,0.7,0.7
2023-08-31T09:00:00,1153A,118.7794,32.0745,南京市,山西路,颗粒物(PM10),56,61,47,29,23,126,84,70,53,21,19,6,4,0.6,0.5
2023-08-31T09:00:00,1154A,118.7752,32.0023,南京市,中华门,,46,46,36,24,21,101,77,54,37,19,21,4,4,1.0,0.8
2023-08-31T09:00:00,1155A,118.8109,32.0309,南京市,瑞金路,,44,44,42,22,23,103,75,70,47,20,23,10,8,0.6,0.5
2023-08-31T09:00:00,1156A,118.7997,32.0754,南京市,玄武湖,,,,,,,,,,,,,,,,
2023-08-31T09:00:00,1157A,118.6414,32.0931,南京市,浦口,颗粒物(PM10),51,52,38,30,17,124,76,56,46,19,20,9,8,0.9,0.8
2023-08-31T09:00:00,1158A,118.7356,31.9996,南京市,奥体中心,,47,47,36,29,25,111,84,61,43,19,25,8,7,0.8,0.6
2023-08-31T09:00:00,1159A,118.9125,32.1028,南京市,仙林大学城,,39,39,38,22,21,129,77,57,31,20,24,11,8,0.8,0.7
2023-08-31T09:00:00,1160A,120.561,31.2472,苏州市,上方山,颗粒物(PM10),55,60,26,25,15,236,37,24,24,27,18,8,15,1.1,0.9
2023-08-31T09:00:00,1162A,120.591,31.3019,苏州市,彩香,细颗粒物(PM2.5),55,46,37,39,30,83,39,44,33,31,21,9,6,1.1,0.9
2023-08-31T09:00:00,1163A,120.596,31.3264,苏州市,轧钢厂,,,41,31,29,24,92,,35,23,29,29,14,9,1.2,0.9
2023-08-31T09:00:00,1164A,120.613,31.2703,苏州市,吴中区,,41,41,36,26,25,91,59,42,37,27,27,11,7,1.2,0.9
2023-08-31T09:00:00,1165A,120.543,31.2994,苏州市,苏州新区,,40,38,30,28,23,91,43,57,44,35,23,11,7,1.2,0.9
2023-08-31T09:00:00,1166A,120.669,31.3097,苏州市,苏州工业园区,,38,36,29,26,24,90,59,44,32,28,28,12,7,1.2,0.9
2023-08-31T09:00:00,1167A,120.641,31.3708,苏州市,相城区,,48,32,24,33,27,92,55,25,25,24,25,12,7,1.2,0.9
2023-08-31T09:00:00,1168A,120.9098,31.9663,南通市,狼山街道,,25,25,18,7,10,100,66,50,50,18,17,8,7,0.5,0.5
2023-08-31T09:00:00,1169A,120.86,32.0005,南通市,虹桥,,26,26,29,14,23,99,70,83,49,16,22,6,6,0.5,0.6
2023-08-31T09:00:00,1170A,120.87,32.02,南通市,城中,,21,21,25,12,19,94,65,54,48,10,13,7,6,0.6,0.5
2023-08-31T09:00:00,1171A,120.94,31.93,南通市,星湖花园,,24,24,19,14,14,91,62,49,49,19,25,5,5,0.6,0.6
2023-08-31T09:00:00,1172A,120.81,32.0417,南通市,紫琅学院,,,,28,,18,92,,53,35,20,20,9,6,0.9,0.8
2023-08-31T09:00:00,1173A,119.176,34.5885,连云港市,市环境监测站,,48,48,30,22,12,112,44,76,33,47,22,9,9,0.4,0.4
2023-08-31T09:00:00,1177A,117.179,34.2761,徐州市,黄河新村,颗粒物(PM10),59,68,56,30,30,172,122,111,88,16,19,12,10,0.4,0.4
2023-08-31T09:00:00,1178A,117.1918,34.2384,徐州市,淮塔,颗粒物(PM10),64,77,56,29,30,177,90,95,64,32,17,15,10,0.5,0.4
2023-08-31T09:00:00,1180A,117.256,34.2153,徐州市,新城区,颗粒物(PM10),62,73,60,40,29,180,97,97,64,24,23,7,7,0.8,0.6
2023-08-31T09:00:00,1181A,117.244,34.2911,徐州市,桃园路,颗粒物(PM10),57,63,58,30,31,169,100,97,72,23,17,11,10,0.6,0.6
2023-08-31T09:00:00,1182A,117.2933,34.2778,徐州市,农科院,颗粒物(PM10),57,63,47,38,31,168,98,88,69,27,26,8,9,0.9,0.5
2023-08-31T09:00:00,1186A,119.389,32.3761,扬州市,邗江监测站,,30,29,33,12,15,114,95,66,59,17,17,6,6,0.2,0.2
2023-08-31T09:00:00,1188A,120.269,31.4867,无锡市,雪浪,细颗粒物(PM2.5),52,51,30,36,24,92,45,49,47,20,17,6,4,0.9,0.9
2023-08-31T09:00:00,1189A,120.275,31.6219,无锡市,黄巷,颗粒物(PM10),56,62,40,39,29,70,24,26,26,47,46,6,6,1.2,1.2
2023-08-31T09:00:00,1190A,120.294,31.56,无锡市,曹张,颗粒物(PM10),56,61,31,34,30,75,32,32,31,37,37,9,7,1.0,1.1
2023-08-31T09:00:00,1191A,120.242,31.5031,无锡市,漆塘,颗粒物(PM10),51,51,31,34,25,88,41,46,44,28,23,6,6,0.9,0.8
2023-08-31T09:00:00,1192A,120.3489,31.5863,无锡市,东亭,颗粒物(PM10),53,56,37,36,34,67,28,31,30,46,42,7,5,1.0,1
2023-08-31T09:00:00,1193A,120.354,31.5475,无锡市,旺庄,颗粒物(PM10),52,53,36,34,31,76,39,31,31,33,35,12,9,1.2,1.2
2023-08-31T09:00:00,1194A,120.245,31.5631,无锡市,荣巷,细颗粒物(PM2.5),52,48,30,36,24,91,35,38,35,22,19,10,9,1.2,1.1
2023-08-31T09:00:00,1195A,120.299,31.6817,无锡市,堰桥,"颗粒物(PM10),细颗粒物(PM2.5)",52,53,35,36,29,79,28,28,28,33,38,8,7,1.2,1.3
2023-08-31T09:00:00,1196A,119.9633,31.762,常州市,市监测站,细颗粒物(PM2.5),52,41,40,36,25,83,33,55,46,35,28,9,6,0.7,0.6
2023-08-31T09:00:00,1200A,119.9468,31.7069,常州市,武进监测站,细颗粒物(PM2.5),54,56,40,38,22,78,29,54,46,28,19,6,5,0.8,0.6
2023-08-31T09:00:00,1201A,119.9255,31.9087,常州市,安家,细颗粒物(PM2.5),57,59,56,40,28,70,22,41,34,31,28,7,5,0.8,0.8
2023-08-31T09:00:00,1203A,119.6707,32.1875,镇江市,新区办事处,,27,27,43,14,36,86,86,35,29,26,26,6,5,0.4,0.9
2023-08-31T09:00:00,1204A,119.4974,32.1968,镇江市,职教中心,,29,17,37,11,29,95,92,43,39,20,21,7,4,0.5,0.6
2023-08-31T09:00:00,1205A,119.4303,32.1328,镇江市,丹徒区监测站,,26,26,37,14,36,86,82,45,35,18,17,8,3,0.6,0.7
2023-08-31T09:00:00,1206A,119.905,32.4878,泰州市,公园路,,29,29,27,19,20,103,89,63,63,14,14,20,12,0.7,0.7
2023-08-31T09:00:00,1207A,119.9189,32.4625,泰州市,莲花,,34,34,30,17,17,103,80,75,75,15,13,13,8,0.6,0.6
2023-08-31T09:00:00,1209A,119.888,32.4639,泰州市,留学生创业园,,28,28,30,14,16,104,83,51,51,16,18,20,12,0.6,0.6
2023-08-31T09:00:00,1210A,119.036,33.5981,淮安市,钵池山,,31,31,30,15,16,118,60,34,26,38,25,9,8,0.8,0.7
2023-08-31T09:00:00,1211A,119.007,33.575,淮安市,北京南路,颗粒物(PM10),56,61,33,20,17,123,61,38,19,38,25,11,8,0.7,0.5
2023-08-31T09:00:00,1212A,118.989,33.6067,淮安市,市监测站,颗粒物(PM10),59,68,38,27,14,131,47,24,11,53,26,10,7,0.8,0.7
2023-08-31T09:00:00,1213A,119.135,33.5039,淮安市,楚州区监测站,,,44,34,20,19,109,,29,3,33,28,9,8,0.9,0.8
2023-08-31T09:00:00,1214A,119.0186,33.6297,淮安市,淮阴区监测站,,44,44,37,18,18,124,72,28,18,26,26,11,7,0.7,0.7
2023-08-31T09:00:00,1215A,120.118,33.4022,盐城市,盐城电厂,,33,22,30,17,14,115,105,99,99,8,10,7,7,0.5,0.5
2023-08-31T09:00:00,1216A,120.156,33.3942,盐城市,市监测站,,30,27,25,12,13,108,96,96,93,11,10,6,6,0.4,0.4
2023-08-31T09:00:00,1218A,120.2144,33.38,盐城市,开发区管委会,,38,38,26,12,12,107,94,95,92,18,12,15,9,0.3,0.3
2023-08-31T09:00:00,1220A,118.293,33.9528,宿迁市,宿迁学院,,,,31,,18,161,,34,34,,25,9,10,0.4,0.5
2023-08-31T09:00:00,1221A,118.2442,33.9592,宿迁市,宿迁中学,,41,41,33,25,18,161,85,62,56,17,16,8,7,0.5,0.6
2023-08-31T09:00:00,1223A,120.2072,30.2111,杭州市,滨江,,17,17,12,9,8,93,53,82,72,18,12,8,6,0.6,0.5
2023-08-31T09:00:00,1224A,120.0633,30.2747,杭州市,西溪,,17,17,14,9,8,92,39,71,51,19,13,4,4,0.7,0.6
2023-08-31T09:00:00,1226A,120.3461,30.3153,杭州市,下沙,,20,20,17,12,11,90,34,44,40,37,24,3,4,0.8,0.7
2023-08-31T09:00:00,1227A,120.1269,30.2456,杭州市,卧龙桥,,16,12,12,11,11,94,39,75,52,15,12,4,3,0.6,0.6
2023-08-31T09:00:00,1228A,120.1903,30.2692,杭州市,浙江农大,,16,11,10,11,9,86,41,69,54,30,18,7,6,0.5,0.4
2023-08-31T09:00:00,1230A,120.1197,30.3119,杭州市,和睦小学,,18,18,15,11,9,99,46,82,61,32,21,6,6,1.0,0.9
2023-08-31T09:00:00,1231A,120.3019,30.4183,杭州市,临平镇,,26,26,17,13,12,98,50,67,55,26,16,6,4,0.6,0.5
2023-08-31T09:00:00,1232A,120.2697,30.1819,杭州市,城厢镇,,17,12,10,10,9,95,53,72,67,18,12,5,5,0.9,0.9
2023-08-31T09:00:00,1233A,120.0883,30.1808,杭州市,云栖,,13,10,15,5,5,91,39,72,56,8,6,6,6,0.9,0.8
2023-08-31T09:00:00,1234A,121.8358,29.911,宁波市,区环保大楼,,21,18,7,6,5,102,65,67,67,33,31,5,4,0.5,0.4
2023-08-31T09:00:00,1235A,121.56,29.82,宁波市,万里学院,,19,12,10,10,5,98,60,73,60,20,16,6,5,0.7,0.6
2023-08-31T09:00:00,1236A,121.713,29.9572,宁波市,龙赛医院,,24,23,13,9,5,109,76,80,71,21,14,9,7,0.6,0.5
2023-08-31T09:00:00,1239A,121.633,29.7733,宁波市,钱湖水厂,,25,25,12,10,5,100,43,58,43,30,21,6,5,0.7,0.6
2023-08-31T09:00:00,1240A,121.5856,29.8635,宁波市,太古小学,,,14,10,10,6,98,,67,52,26,18,6,5,1.0,0.9
2023-08-31T09:00:00,1241A,121.524,29.8674,宁波市,市环境监测中心,,,22,13,9,4,106,64,72,63,15,12,10,7,,0.4
2023-08-31T09:00:00,1242A,120.634,28.0089,温州市,瓯海,,,33,21,9,10,92,,74,44,21,19,8,6,0.5,0.6
2023-08-31T09:00:00,1243A,120.6748,27.9939,温州市,南浦,,24,24,19,6,8,87,41,84,57,25,14,6,5,0.6,0.5
2023-08-31T09:00:00,1244A,120.76,27.9747,温州市,龙湾,,16,6,16,4,6,89,42,69,61,32,18,6,6,0.6,0.5
2023-08-31T09:00:00,1245A,120.6709,28.0167,温州市,市站,,18,18,16,11,7,69,42,65,53,22,14,6,5,0.6,0.5
2023-08-31T09:00:00,1247A,120.6053,29.9928,绍兴市,城东开发委,,35,32,22,24,18,88,43,54,46,30,22,6,5,0.5,0.4
2023-08-31T09:00:00,1250A,120.0751,30.8669,湖州市,城西水厂,,45,45,18,31,13,111,35,64,46,40,28,10,3,0.8,0.6
2023-08-31T09:00:00,1252A,120.7436,30.778,嘉兴市,清河小学,,42,42,15,27,10,94,41,82,48,29,19,6,5,1.4,0.9
2023-08-31T09:00:00,1253A,120.726,30.7478,嘉兴市,嘉兴学院,细颗粒物(PM2.5),55,41,15,39,14,100,36,90,50,29,18,5,3,0.9,0.5
2023-08-31T09:00:00,1255A,121.273,28.6459,台州市,黄岩环保大楼,,24,24,15,11,8,93,72,77,71,11,11,5,5,0.5,0.5
2023-08-31T09:00:00,1256A,121.419,28.6542,台州市,台州环保大楼,,24,13,12,3,5,111,74,85,79,10,9,6,6,0.6,0.6
2023-08-31T09:00:00,1257A,121.377,28.5773,台州市,路桥田洋王,,21,6,13,5,7,104,66,77,67,12,11,4,4,0.4,0.4
2023-08-31T09:00:00,1258A,122.122,30.0203,舟山市,定海檀枫,,23,7,5,5,3,95,72,84,82,12,6,5,5,0.5,0.5
2023-08-31T09:00:00,1259A,122.3094,29.9558,舟山市,普陀东港,,,10,7,7,4,108,,97,97,,5,4,4,0.5,0.5
2023-08-31T09:00:00,1260A,122.19,29.9944,舟山市,临城新区,,26,13,7,3,2,95,81,87,86,13,7,6,6,0.4,0.4
2023-08-31T09:00:00,1262A,119.647,29.077,金华市,十五中,,22,20,21,6,5,100,70,72,60,19,18,3,2,0.5,0.4
2023-08-31T09:00:00,1263A,119.686,29.1029,金华市,监测站,,25,25,17,8,10,94,65,65,54,22,18,3,3,0.5,0.5
2023-08-31T09:00:00,1264A,118.8692,28.9398,衢州市,环保大楼,,20,17,11,10,7,88,62,66,62,12,10,3,3,0.6,0.6
2023-08-31T09:00:00,1265A,118.8709,28.9666,衢州市,实验学校,,20,12,13,9,8,94,62,67,53,14,13,7,5,0.5,0.4
2023-08-31T09:00:00,1266A,118.8621,28.9808,衢州市,衢州学院,,17,16,11,8,6,89,54,52,52,18,14,2,3,0.5,0.5
2023-08-31T09:00:00,1267A,119.914,28.4514,丽水市,监测站大楼,,15,12,12,4,5,82,48,59,46,13,13,6,5,0.4,0.5
2023-08-31T09:00:00,1268A,119.93,28.4586,丽水市,莲都小学,,18,9,15,1,6,91,57,70,58,9,10,5,5,0.4,0.5
2023-08-31T09:00:00,1269A,119.879,28.4231,丽水市,余庄前,,14,14,18,3,7,79,40,44,32,16,13,4,4,0.4,0.5
2023-08-31T09:00:00,1270A,117.1959,31.7848,合肥市,明珠广场,,45,44,40,31,24,130,84,89,79,22,19,7,7,0.8,0.8
2023-08-31T09:00:00,1271A,117.3072,31.8764,合肥市,三里街,,39,39,44,24,32,121,72,72,70,29,24,4,4,0.5,0.5
2023-08-31T09:00:00,1272A,117.2588,31.8707,合肥市,琥珀山庄,,34,34,46,17,27,135,88,88,86,26,16,6,5,0.7,0.7
2023-08-31T09:00:00,1273A,117.1604,31.9052,合肥市,董铺水库,,32,29,39,17,20,134,101,100,85,12,12,5,5,0.4,0.4
2023-08-31T09:00:00,1274A,117.25,31.8571,合肥市,长江中路,,41,41,48,25,28,132,93,88,87,20,17,8,7,0.6,0.6
2023-08-31T09:00:00,1275A,117.266,31.9436,合肥市,庐阳区,颗粒物(PM10),52,53,50,29,30,125,66,79,63,32,20,5,5,0.7,0.6
2023-08-31T09:00:00,1276A,117.336,31.8586,合肥市,瑶海区,颗粒物(PM10),52,53,48,28,25,121,78,86,62,22,18,4,4,0.7,0.7
2023-08-31T09:00:00,1277A,117.3027,31.7964,合肥市,包河区,,41,41,42,22,26,129,80,83,48,28,24,9,9,0.6,0.6
2023-08-31T09:00:00,1278A,117.2776,31.7385,合肥市,滨湖新区,,34,34,36,19,21,134,76,88,46,28,24,5,6,0.6,0.5
2023-08-31T09:00:00,1279A,117.1318,31.8403,合肥市,高新区,,36,34,42,25,28,142,100,99,90,20,17,8,8,0.7,0.6
2023-08-31T09:00:00,1280A,119.3903,26.0543,福州市,鼓山,,,,,,,,,,,,,,,,
2023-08-31T09:00:00,1282A,119.2681,26.0504,福州市,师大,,22,22,14,2,2,64,60,64,59,5,2,3,3,0.4,0.3
2023-08-31T09:00:00,1283A,119.2984,26.1028,福州市,五四北路,,27,27,13,6,5,63,57,62,60,10,5,3,2,0.5,0.3
2023-08-31T09:00:00,1284A,119.2648,26.0768,福州市,杨桥西路,,19,17,17,2,2,61,58,59,58,8,4,3,3,0.5,0.3
2023-08-31T09:00:00,1285A,119.317,26.0746,福州市,紫阳,,19,17,13,1,1,62,58,62,58,5,3,3,3,0.4,0.3
2023-08-31T09:00:00,1286A,118.1608,24.8169,厦门市,溪东,,,,,,,,,,,,,,,,
2023-08-31T09:00:00,1287A,118.1514,24.4767,厦门市,洪文,,23,23,23,6,8,51,34,31,31,2,3,1,2,0.2,0.2
2023-08-31T09:00:00,1288A,118.0661,24.4444,厦门市,鼓浪屿,,19,19,16,9,6,55,44,37,37,4,4,1,1,0.2,0.1
2023-08-31T09:00:00,1290A,115.8931,28.6843,南昌市,省外办,,31,31,27,17,17,107,74,76,71,13,10,7,4,0.7,0.6
2023-08-31T09:00:00,1291A,115.8886,28.7003,南昌市,省林业公司,,35,24,19,24,18,102,70,74,66,15,10,8,7,0.8,0.6
2023-08-31T09:00:00,1292A,115.8126,28.7442,南昌市,林科所,,30,12,15,12,12,120,93,93,90,6,7,7,7,0.6,0.7
2023-08-31T09:00:00,1294A,115.8518,28.687,南昌市,建工学校,,37,37,25,14,16,118,84,90,83,14,11,10,9,0.7,0.7
2023-08-31T09:00:00,1295A,115.8921,28.6424,南昌市,象湖,,,27,20,23,16,118,79,87,83,17,11,,6,,0.8
2023-08-31T09:00:00,1296A,115.7423,28.7996,南昌市,武术学校,,28,15,18,13,13,123,88,84,76,11,9,2,3,0.2,0.3
2023-08-31T09:00:00,1298A,115.9314,28.6842,南昌市,省站,,,28,22,15,14,111,,88,86,,11,,7,,0.6
2023-08-31T09:00:00,1299A,116.9862,36.6114,济南市,科干所,"颗粒物(PM10),细颗粒物(PM2.5)",53,56,46,37,24,195,147,146,146,8,23,7,6,0.5,0.5
2023-08-31T09:00:00,1300A,116.9376,36.665,济南市,农科所,颗粒物(PM10),55,59,44,32,20,199,125,79,79,18,28,7,6,0.5,0.5
2023-08-31T09:00:00,1301A,117.1265,36.6734,济南市,开发区,,49,44,39,22,18,190,154,127,127,10,26,7,6,0.6,0.6
2023-08-31T09:00:00,1303A,117.0624,36.6868,济南市,省种子仓库,,48,48,44,27,19,189,142,67,67,7,34,10,8,0.7,0.7
2023-08-31T09:00:00,1304A,116.9489,36.6447,济南市,机床二厂,颗粒物(PM10),53,56,50,27,20,198,137,99,99,14,28,9,7,0.7,0.7
2023-08-31T09:00:00,1305A,117.0495,36.663,济南市,市监测站,颗粒物(PM10),51,51,46,29,22,194,154,97,97,14,37,6,4,0.4,0.4
2023-08-31T09:00:00,1306A,116.7675,36.5484,济南市,长清党校,细颗粒物(PM2.5),59,59,47,42,26,192,137,102,102,17,25,12,7,0.5,0.4
2023-08-31T09:00:00,1307A,120.6659,36.2403,青岛市,仰口,,35,27,24,24,16,105,105,91,87,20,6,9,8,0.7,0.3
2023-08-31T09:00:00,1310A,120.4134,36.0658,青岛市,市南区东部子站,,39,39,42,7,16,200,93,61,56,31,28,13,8,0.6,0.6
2023-08-31T09:00:00,1311A,120.3664,36.1032,青岛市,四方区子站,,48,48,47,22,22,189,92,63,50,31,33,19,9,0.6,0.6
2023-08-31T09:00:00,1312A,120.2994,36.054,青岛市,市南区西部子站,,36,36,44,15,15,186,91,80,80,26,31,8,7,0.6,0.6
2023-08-31T09:00:00,1313A,120.4581,36.0858,青岛市,崂山区子站,,48,48,37,17,19,192,80,81,66,40,25,12,9,0.4,0.4
2023-08-31T09:00:00,1314A,120.1983,35.9608,青岛市,黄岛区子站,颗粒物(PM10),57,63,37,24,20,197,52,87,77,82,32,11,7,0.9,0.6
2023-08-31T09:00:00,1315A,120.3999,36.3083,青岛市,城阳区子站,颗粒物(PM10),52,53,36,17,16,142,82,106,61,40,23,10,7,0.6,0.6
2023-08-31T09:00:00,1316A,113.69031,34.76122,郑州市,烟厂,,,79,61,34,31,238,,115,98,36,21,7,5,0.8,0.7
2023-08-31T09:00:00,1317A,113.65724,34.77134,郑州市,郑纺机,,,73,60,,,242,95,104,94,29,21,9,5,1.0,0.9
2023-08-31T09:00:00,1318A,113.67526,34.80246,郑州市,银行学校,,,,,,,,,,,,,,,,
2023-08-31T09:00:00,1319A,113.56746,34.81334,郑州市,供水公司,颗粒物(PM10),74,97,58,42,29,203,86,106,67,30,26,6,4,0.8,0.7
2023-08-31T09:00:00,1320A,113.7329,34.7178,郑州市,经开区管委,颗粒物(PM10),57,63,62,30,35,250,99,105,87,18,17,7,6,0.8,0.7
2023-08-31T09:00:00,1321A,113.73961,34.77172,郑州市,四十七中,细颗粒物(PM2.5),57,54,54,40,43,209,94,102,93,35,21,6,4,0.7,0.6
2023-08-31T09:00:00,1322A,113.60532,34.74838,郑州市,市监测站,颗粒物(PM10),63,75,68,32,30,242,77,108,73,36,24,10,7,0.8,0.6
2023-08-31T09:00:00,1323A,113.64164,34.7525,郑州市,河医大,颗粒物(PM10),58,65,63,32,28,225,86,112,85,26,20,11,7,0.9,0.8
2023-08-31T09:00:00,1324A,113.51488,34.91089,郑州市,岗李水库,,,,,,,,,,,,,,,,
2023-08-31T09:00:00,1325A,114.3677,30.5584,武汉市,东湖梨园,细颗粒物(PM2.5),55,58,34,39,24,143,73,68,44,42,25,12,10,0.6,0.6
2023-08-31T09:00:00,1326A,114.2529,30.558,武汉市,汉阳月湖,,39,39,35,27,21,121,61,26,26,33,32,9,7,0.7,0.6
2023-08-31T09:00:00,1327A,114.282,30.6189,武汉市,汉口花桥,,39,39,36,22,24,124,94,70,62,24,20,6,6,0.6,0.5
2023-08-31T09:00:00,1328A,114.3025,30.5332,武汉市,武昌紫阳,颗粒物(PM10),54,57,33,34,22,138,62,66,31,47,28,22,11,1.9,0.7
2023-08-31T09:00:00,1329A,114.3646,30.6217,武汉市,青山钢花,,44,44,38,29,28,126,58,45,43,37,26,9,8,0.6,0.5
2023-08-31T09:00:00,1330A,114.1566,30.4825,武汉市,沌口新区,细颗粒物(PM2.5),58,52,35,41,27,142,54,61,28,47,33,12,9,0.9,0.7
2023-08-31T09:00:00,1331A,114.3014,30.5944,武汉市,汉口江滩,,42,42,32,23,19,130,86,78,71,20,15,8,6,0.7,0.5
2023-08-31T09:00:00,1333A,114.135,30.6319,武汉市,吴家山,,48,48,36,27,23,131,104,76,68,20,20,7,8,0.7,0.6
2023-08-31T09:00:00,1334A,113.8454,30.2917,武汉市,沉湖七壕,,40,32,36,28,18,151,59,50,42,24,20,4,4,0.9,0.7
2023-08-31T09:00:00,1335A,113.0833,28.2325,长沙市,经开区环保局,,35,26,29,24,22,128,64,79,73,18,12,10,7,0.5,0.4
2023-08-31T09:00:00,1336A,112.8872,28.2189,长沙市,高开区环保局,,40,39,31,28,25,130,75,93,79,11,7,8,7,0.7,0.6
2023-08-31T09:00:00,1337A,113.0792,28.2053,长沙市,马坡岭,,43,43,42,17,27,133,83,80,80,6,7,8,6,0.7,0.7
2023-08-31T09:00:00,1338A,112.9394,28.19,长沙市,湖南师范大学,细颗粒物(PM2.5),52,44,37,36,29,133,79,77,73,13,11,5,4,0.8,0.7
2023-08-31T09:00:00,1339A,113.0178,28.1322,长沙市,雨花区环保局,,35,35,32,22,21,126,74,76,74,17,14,8,6,0.5,0.5
2023-08-31T09:00:00,1340A,112.9792,28.2597,长沙市,伍家岭,,48,46,40,33,26,134,69,61,56,18,20,4,3,0.9,0.9
2023-08-31T09:00:00,1341A,113.0014,28.1944,长沙市,火车新站,,35,27,31,24,23,126,74,78,73,15,13,7,6,0.8,0.8
2023-08-31T09:00:00,1342A,112.9844,28.1178,长沙市,天心区环保局,,39,39,32,20,21,130,86,80,80,12,13,5,4,0.6,0.5
2023-08-31T09:00:00,1343A,112.8908,28.1308,长沙市,湖南中医药大学,颗粒物(PM10),53,56,45,30,25,134,76,69,63,11,10,6,3,0.9,0.8
2023-08-31T09:00:00,1344A,112.9581,28.3611,长沙市,沙坪,,42,42,40,22,22,131,74,81,72,8,9,8,7,0.8,0.7
2023-08-31T09:00:00,1345A,113.2347,23.1423,广州市,广雅中学,,27,27,26,12,16,90,50,40,40,24,26,7,6,1.0,1
2023-08-31T09:00:00,1346A,113.2612,23.105,广州市,市五中,,20,20,22,10,14,107,58,51,48,17,14,8,6,1.0,0.9
2023-08-31T09:00:00,1348A,113.3478,23.0916,广州市,广东商学院,,22,22,27,8,13,86,54,55,55,17,13,4,4,0.7,0.7
2023-08-31T09:00:00,1349A,113.4332,23.1047,广州市,市八十六中,,19,17,20,11,13,86,59,57,54,11,11,5,4,0.6,0.6
2023-08-31T09:00:00,1350A,113.3505,22.9483,广州市,番禺中学,,20,13,18,6,8,100,63,58,57,15,16,5,4,0.8,0.8
2023-08-31T09:00:00,1351A,113.2146,23.3916,广州市,花都师范,,21,16,22,8,13,92,66,58,58,13,13,9,8,0.9,0.8
2023-08-31T09:00:00,1352A,113.2597,23.1331,广州市,市监测站,,25,25,23,12,15,96,52,42,41,25,22,8,7,0.8,0.7
2023-08-31T09:00:00,1353A,113.5618,23.312,广州市,九龙镇镇龙,,19,16,16,10,11,76,58,63,59,8,6,7,6,0.6,0.6
2023-08-31T09:00:00,1354A,113.2765,23.1544,广州市,麓湖,,20,20,22,12,14,94,48,36,34,21,20,7,6,0.8,0.8
2023-08-31T09:00:00,1355A,113.443,23.3035,广州市,帽峰山森林公园,,20,13,17,9,12,86,61,63,63,11,9,8,7,0.5,0.5
2023-08-31T09:00:00,1356A,114.1063,22.5545,深圳市,通心岭子站,,16,16,22,7,12,117,39,34,30,18,20,4,4,0.7,0.7
2023-08-31T09:00:00,1357A,114.117,22.5625,深圳市,洪湖,,15,15,32,4,14,112,42,36,28,15,19,5,5,0.7,0.8
2023-08-31T09:00:00,1358A,113.987,22.5417,深圳市,华侨城,,16,16,23,5,13,114,37,41,35,17,16,6,6,0.9,0.8
2023-08-31T09:00:00,1359A,113.9181,22.5171,深圳市,南海子站,,18,18,32,6,20,106,38,42,36,17,16,4,4,1.0,1
2023-08-31T09:00:00,1360A,114.2458,22.5689,深圳市,盐田,,17,12,20,5,11,94,54,55,53,8,18,5,5,0.7,0.8
2023-08-31T09:00:00,1361A,114.2283,22.7244,深圳市,龙岗,,17,13,20,7,11,114,54,51,50,11,10,8,8,0.8,0.8
2023-08-31T09:00:00,1363A,114.494,22.5422,深圳市,南澳,,16,12,18,9,15,99,51,54,50,8,9,4,5,0.7,0.7
2023-08-31T09:00:00,1364A,114.41,22.6342,深圳市,葵涌,,16,15,30,3,10,92,51,53,49,8,8,5,5,0.6,0.6
2023-08-31T09:00:00,1365A,114.297,22.5978,深圳市,梅沙,,16,15,22,10,12,99,51,50,50,8,9,5,5,0.7,0.7
2023-08-31T09:00:00,1366A,114.0678,22.738,深圳市,观澜,,16,16,23,7,12,109,51,48,43,14,16,9,8,0.7,0.7
2023-08-31T09:00:00,1367A,113.5814,22.2618,珠海市,吉大,,21,21,26,5,15,145,53,45,45,18,19,5,4,0.7,0.7
2023-08-31T09:00:00,1368A,113.4881,22.2335,珠海市,前山,,16,16,21,3,17,146,44,37,37,17,20,8,8,0.5,0.5
2023-08-31T09:00:00,1369A,113.628,22.4251,珠海市,唐家,,20,20,24,4,5,150,46,50,44,19,16,7,6,0.5,0.5
2023-08-31T09:00:00,1370A,113.299,22.2281,珠海市,斗门,,16,8,12,7,12,140,51,51,47,16,14,7,7,0.8,0.7
2023-08-31T09:00:00,1371A,113.1294,23.0067,佛山市,湾梁,,18,12,15,11,13,107,56,47,44,18,13,14,9,0.8,0.7
2023-08-31T09:00:00,1372A,113.1083,23.0478,佛山市,华材职中,,19,19,22,13,15,97,53,34,34,21,21,14,10,0.6,0.6
2023-08-31T09:00:00,1373A,113.144,23.0453,佛山市,南海气象局,,15,10,23,8,14,89,46,39,36,21,18,8,6,0.8,0.7
2023-08-31T09:00:00,1374A,113.2881,22.8094,佛山市,顺德苏岗,,,14,17,,10,102,47,52,47,16,12,7,6,0.8,0.8
2023-08-31T09:00:00,1376A,112.8383,22.8678,佛山市,高明孔堂,,39,39,30,18,14,124,56,44,44,21,20,9,8,0.7,0.7
2023-08-31T09:00:00,1377A,112.8836,23.1588,佛山市,三水监测站,,24,24,19,16,14,107,62,48,47,14,15,4,4,0.8,0.8
2023-08-31T09:00:00,1378A,112.867,23.185,佛山市,三水云东海,,32,32,22,18,15,108,60,42,42,12,13,7,6,0.7,0.7
2023-08-31T09:00:00,1379A,113.3769,22.5211,中山市,华柏园,,18,18,22,6,7,129,55,56,54,18,17,5,5,0.6,0.6
2023-08-31T09:00:00,1380A,113.3881,22.5497,中山市,张溪,,17,14,23,10,8,124,52,52,50,18,14,4,4,0.7,0.6
2023-08-31T09:00:00,1381A,113.4075,22.5111,中山市,紫马岭,,19,19,22,9,13,123,49,54,51,18,14,6,5,0.6,0.5
2023-08-31T09:00:00,1382A,113.4411,22.4853,中山市,长江旅游区,,,,,,,,,,,,,,,,
2023-08-31T09:00:00,1383A,113.1064,22.6058,江门市,北街,,20,20,26,9,14,132,55,49,42,20,19,10,7,0.6,0.6
2023-08-31T09:00:00,1384A,113.0731,22.5835,江门市,西区,,28,19,27,19,20,130,57,53,44,19,18,9,8,0.8,0.6
2023-08-31T09:00:00,1385A,113.0219,22.5311,江门市,圭峰西,,20,18,24,8,13,145,63,59,52,14,15,7,6,0.6,0.6
2023-08-31T09:00:00,1386A,113.0828,22.5947,江门市,东湖,,20,16,25,6,14,147,63,58,49,16,15,10,8,0.7,0.6
2023-08-31T09:00:00,1389A,113.7547,23.0494,东莞市,莞城梨川,,18,14,19,7,12,78,55,54,50,11,11,9,9,0.7,0.7
2023-08-31T09:00:00,1390A,113.7944,23.0128,东莞市,东城石井,,17,11,14,7,10,84,52,55,46,10,10,8,7,0.8,0.8
2023-08-31T09:00:00,1391A,113.7383,22.9658,东莞市,南城西平,,15,12,17,6,10,73,47,38,36,12,17,3,4,1.0,1
2023-08-31T09:00:00,1392A,114.4183,23.0528,惠州市,河南岸金山湖子站,,29,16,19,20,57,91,46,50,49,17,13,6,5,0.6,0.6
2023-08-31T09:00:00,1393A,114.4053,23.0822,惠州市,下埔横江三路子站,,17,14,20,8,12,103,54,53,53,9,8,6,5,0.6,0.5
2023-08-31T09:00:00,1394A,114.4103,23.1142,惠州市,江北云山西路子站,,17,14,19,8,13,99,53,52,51,5,5,4,6,0.6,0.5
2023-08-31T09:00:00,1395A,114.4645,22.7833,惠州市,惠阳区承修路船湖子站,,20,20,23,9,14,83,45,43,43,11,10,4,4,0.8,0.8
2023-08-31T09:00:00,1396A,114.5317,22.7422,惠州市,大亚湾管委会子站,,17,14,20,9,12,76,52,51,49,8,9,5,5,0.5,0.6
2023-08-31T09:00:00,1397A,112.4267,23.0706,肇庆市,睦岗子站,,,,21,,13,94,,70,66,12,7,9,9,0.5,0.4
2023-08-31T09:00:00,1398A,112.4645,23.0475,肇庆市,城中子站,,26,26,20,13,11,102,60,68,64,14,9,9,9,0.8,0.7
2023-08-31T09:00:00,1399A,112.5544,23.1522,肇庆市,坑口子站,,23,18,19,16,13,90,69,63,63,8,10,3,4,0.5,0.5
2023-08-31T09:00:00,1400A,112.4753,23.1,肇庆市,七星岩子站,,,,,,,,,,,,,,,,
2023-08-31T09:00:00,1401A,108.3103,22.7881,南宁市,二十一中,颗粒物(PM10),54,58,33,21,18,119,61,73,44,30,19,7,7,1.0,0.9
2023-08-31T09:00:00,1402A,108.3141,22.8528,南宁市,北湖,,40,40,31,24,21,116,68,59,54,18,15,11,8,0.7,0.7
2023-08-31T09:00:00,1403A,108.3206,22.8225,南宁市,市监测站,颗粒物(PM10),54,57,32,21,24,104,61,71,55,36,26,13,9,0.9,0.8
2023-08-31T09:00:00,1404A,108.3829,22.8037,南宁市,大自然花园,,45,45,31,25,23,96,58,52,50,26,20,21,14,0.8,0.8
2023-08-31T09:00:00,1405A,108.4394,22.7904,南宁市,仙葫,,49,49,34,20,22,100,50,80,27,36,25,9,7,0.9,0.9
2023-08-31T09:00:00,1406A,108.2397,22.8467,南宁市,区农职院,,44,44,34,23,22,114,69,58,58,19,16,10,12,0.8,0.7
2023-08-31T09:00:00,1407A,108.3275,22.735,南宁市,英华嘉园,颗粒物(PM10),52,53,34,27,24,98,38,59,19,39,23,8,8,0.9,0.7
2023-08-31T09:00:00,1408A,108.2257,22.7757,南宁市,沙井镇街道办,,43,43,37,28,22,108,45,24,24,23,24,17,11,0.9,0.8
2023-08-31T09:00:00,1409A,110.576,19.9507,海口市,东寨港,,,,,,,,,,,,,,,,
2023-08-31T09:00:00,1410A,110.3232,20.0574,海口市,海南大学,,28,28,25,18,18,111,63,68,56,9,9,9,13,0.7,0.7
2023-08-31T09:00:00,1411A,110.283,20.0053,海口市,秀英海南医院,,30,30,25,21,16,107,61,63,56,14,13,10,8,0.6,0.6
2023-08-31T09:00:00,1412A,110.338,19.9969,海口市,海南师范大学,,,32,25,21,17,113,,66,54,10,10,11,9,0.6,0.6
2023-08-31T09:00:00,1413A,110.33,20.0356,海口市,龙华路环保局宿舍,,30,30,25,21,16,106,57,63,52,11,10,10,8,0.6,0.6
2023-08-31T09:00:00,1414A,106.3787,29.8279,重庆市,缙云山,,23,23,22,8,10,134,70,126,113,11,8,8,8,0.4,0.3
2023-08-31T09:00:00,1416A,106.4213,29.8253,重庆市,天生,颗粒物(PM10),53,55,37,35,25,137,17,38,13,30,24,6,5,0.9,0.7
2023-08-31T09:00:00,1417A,106.6263,29.7228,重庆市,两路,颗粒物(PM10),61,71,40,40,32,185,31,59,37,49,35,9,8,1.2,1
2023-08-31T09:00:00,1418A,106.2953,29.5983,重庆市,虎溪,细颗粒物(PM2.5),52,50,37,36,28,137,31,41,20,36,26,6,6,1.0,0.8
2023-08-31T09:00:00,1419A,106.5777,29.5102,重庆市,南坪,,45,36,45,31,27,200,52,64,55,23,18,8,10,0.9,0.9
2023-08-31T09:00:00,1420A,106.6556,29.6277,重庆市,唐家沱,,42,42,48,20,31,239,16,4,4,31,39,7,8,0.9,0.8
2023-08-31T09:00:00,1421A,106.6349,29.4906,重庆市,茶园,颗粒物(PM10),64,78,45,23,23,210,16,49,34,60,27,5,6,1.2,0.9
2023-08-31T09:00:00,1422A,106.3754,29.4572,重庆市,白市驿,,,,,,,,,,,,,,,,
2023-08-31T09:00:00,1425A,106.6205,29.7166,重庆市,空港,细颗粒物(PM2.5),59,54,48,42,27,198,44,73,44,50,32,7,6,1.0,0.8
2023-08-31T09:00:00,1426A,106.4782,29.4875,重庆市,新山村,"颗粒物(PM10),细颗粒物(PM2.5)",53,55,45,37,27,172,39,50,36,44,32,17,13,0.8,0.7
2023-08-31T09:00:00,1427A,106.5616,29.6453,重庆市,礼嘉,颗粒物(PM10),54,58,46,29,29,161,21,26,19,51,36,13,10,1.2,1
2023-08-31T09:00:00,1428A,106.4522,29.7091,重庆市,蔡家,颗粒物(PM10),61,72,50,31,26,144,27,40,33,43,23,7,6,1.1,0.9
2023-08-31T09:00:00,1429A,106.5093,29.3917,重庆市,鱼新街,颗粒物(PM10),53,55,43,35,28,155,21,44,21,44,29,19,11,1.4,1.1
2023-08-31T09:00:00,1431A,103.9728,30.7236,成都市,金泉两河,细颗粒物(PM2.5),62,51,34,44,18,178,20,4,3,27,24,5,4,0.7,0.6
2023-08-31T09:00:00,1432A,104.176,30.6872,成都市,十里店,,46,33,32,32,21,160,30,27,21,41,30,4,3,0.9,0.6
2023-08-31T09:00:00,1433A,104.079,30.5706,成都市,三瓦窑,,48,48,37,31,18,167,14,2,2,68,49,4,2,0.7,0.5
2023-08-31T09:00:00,1434A,104.1114,30.63,成都市,沙河铺,,16,16,33,2,19,149,24,23,15,27,23,3,3,0.7,0.5
2023-08-31T09:00:00,1437A,104.0786,30.6531,成都市,君平街,,43,43,36,29,23,180,32,50,18,52,39,7,4,0.9,0.6
2023-08-31T09:00:00,1438A,103.613,31.0283,成都市,灵岩寺,,16,14,14,9,9,113,49,76,60,5,6,19,17,0.6,0.6
2023-08-31T09:00:00,1439A,106.6899,26.5998,贵阳市,马鞍山,,35,31,24,24,14,112,61,29,25,14,12,5,5,0.5,0.4
2023-08-31T09:00:00,1440A,106.6971,26.5694,贵阳市,市环保站,,29,29,19,14,19,119,82,62,62,21,14,6,4,0.3,0.3
2023-08-31T09:00:00,1441A,106.6243,26.6266,贵阳市,鉴湖路,,29,27,26,17,12,113,90,66,66,10,9,7,4,0.5,0.5
2023-08-31T09:00:00,1442A,106.7487,26.6343,贵阳市,燕子冲,,,29,18,24,15,109,29,55,29,22,10,,5,0.7,0.5
2023-08-31T09:00:00,1443A,106.6555,26.4365,贵阳市,碧云窝,,44,44,28,24,14,119,85,32,26,10,10,5,5,0.4,0.5
2023-08-31T09:00:00,1444A,106.694,26.5161,贵阳市,中院村,,29,29,28,14,14,111,78,56,52,14,14,6,6,0.3,0.4
2023-08-31T09:00:00,1445A,106.7109,26.6027,贵阳市,红边门,,29,29,26,14,18,114,68,56,53,19,11,6,5,0.6,0.5
2023-08-31T09:00:00,1446A,106.7164,26.5699,贵阳市,新华路,,29,29,26,14,16,117,81,73,60,8,6,6,7,0.3,0.3
2023-08-31T09:00:00,1447A,106.674,26.5424,贵阳市,太慈桥,,26,22,18,12,11,108,83,51,51,13,13,4,4,0.4,0.5
2023-08-31T09:00:00,1450A,102.8204,24.8886,昆明市,呈贡新区,,29,29,27,11,14,102,70,85,75,17,14,10,7,0.9,0.8
2023-08-31T09:00:00,1451A,102.6251,24.9608,昆明市,西山森林公园,,26,13,16,14,11,117,83,94,92,14,10,10,8,0.8,0.8
2023-08-31T09:00:00,1452A,102.7252,25.0902,昆明市,龙泉镇,,28,12,21,19,14,95,54,72,65,18,12,11,9,0.7,0.6
2023-08-31T09:00:00,1453A,102.7266,25.0375,昆明市,东风东路,,21,19,19,10,13,105,67,79,74,19,16,9,7,0.5,0.5
2023-08-31T09:00:00,1454A,102.6742,25.0669,昆明市,金鼎山,,20,17,22,8,8,103,62,77,71,17,12,8,6,0.5,0.5
2023-08-31T09:00:00,1455A,102.6644,25.0401,昆明市,碧鸡广场,,22,21,20,9,15,106,68,82,77,13,8,8,7,0.6,0.5
2023-08-31T09:00:00,1456A,91.1319,29.6514,拉萨市,八廓街,,28,24,20,19,12,114,79,68,62,22,19,8,8,0.2,0.2
2023-08-31T09:00:00,1457A,91.1221,29.6747,拉萨市,市环保局,,22,18,20,12,9,113,70,56,56,27,20,6,7,0.3,0.2
2023-08-31T09:00:00,1458A,91.0874,29.6475,拉萨市,区监测站,,23,13,20,9,9,106,72,47,47,29,27,9,10,0.3,0.3
2023-08-31T09:00:00,1459A,91.1774,29.6541,拉萨市,西藏大学,,25,9,12,6,7,111,79,60,60,9,12,10,10,0.2,0.2
2023-08-31T09:00:00,1460A,90.9798,29.6588,拉萨市,区辐射站,,27,27,22,13,10,112,72,48,43,34,21,10,11,0.2,0.2
2023-08-31T09:00:00,1461A,91.0834,29.6292,拉萨市,拉萨火车站,,28,12,24,7,9,104,88,76,56,13,17,6,7,0.2,0.2
2023-08-31T09:00:00,1462A,108.882,34.2749,西安市,高压开关厂,颗粒物(PM10),70,90,49,27,26,214,38,29,22,58,43,11,8,1.0,0.7
2023-08-31T09:00:00,1463A,108.993,34.2629,西安市,兴庆小区,,45,45,37,15,16,214,28,49,18,37,26,9,7,0.6,0.5
2023-08-31T09:00:00,1464A,109.06,34.2572,西安市,纺织城,颗粒物(PM10),52,53,42,18,18,215,19,9,9,41,36,6,5,0.7,0.7
2023-08-31T09:00:00,1465A,108.9356,34.2173,西安市,小寨,,37,37,39,15,16,226,29,32,14,41,28,7,7,0.7,0.7
2023-08-31T09:00:00,1466A,108.954,34.2713,西安市,市人民体育场,,34,34,39,15,20,211,34,43,16,39,29,10,7,0.5,0.5
2023-08-31T09:00:00,1467A,108.8922,34.2322,西安市,高新西区,,42,42,43,26,21,222,28,18,16,53,41,6,6,0.7,0.7
2023-08-31T09:00:00,1468A,108.935,34.3474,西安市,经开区,颗粒物(PM10),51,51,47,20,21,201,26,5,5,43,43,5,4,0.7,0.7
2023-08-31T09:00:00,1469A,108.906,34.1546,西安市,长安区,,46,46,40,18,18,241,56,17,17,28,29,8,7,0.5,0.5
2023-08-31T09:00:00,1471A,109.2186,34.3731,西安市,临潼区,颗粒物(PM10),63,76,50,32,25,204,28,34,29,53,29,7,5,0.8,0.6
2023-08-31T09:00:00,1472A,108.869,34.378,西安市,草滩,颗粒物(PM10),55,60,49,12,15,207,60,44,29,30,40,19,14,0.8,0.8
2023-08-31T09:00:00,1473A,108.985,34.1978,西安市,曲江文化产业集团,,39,39,36,17,15,219,40,30,23,43,38,6,6,0.7,0.7
2023-08-31T09:00:00,1474A,109.051,34.3213,西安市,广运潭,,36,36,36,17,16,206,20,14,6,40,28,8,7,0.7,0.6
2023-08-31T09:00:00,1476A,103.631,36.1031,兰州市,兰炼宾馆,颗粒物(PM10),60,69,52,26,25,194,37,52,42,51,43,79,16,1.0,0.7
2023-08-31T09:00:00,1477A,104.1373,35.9454,兰州市,榆中兰大校区,,,,,,,,,,,,,,,,
2023-08-31T09:00:00,1478A,103.8412,36.0726,兰州市,生物制品所,,39,39,40,25,22,158,46,79,44,36,30,11,6,1.1,0.7
2023-08-31T09:00:00,1479A,103.831,36.0464,兰州市,铁路设计院,,36,36,33,21,20,157,40,67,49,48,38,12,10,0.9,0.7
2023-08-31T09:00:00,1483A,101.524,36.6867,西宁市,第五水厂,,,,,,,,,,,,,,,,
2023-08-31T09:00:00,1484A,105.9512,38.6016,银川市,贺兰山马莲口,,27,24,17,11,12,184,85,169,119,18,10,21,11,0.4,0.3
2023-08-31T09:00:00,1488A,106.2328,38.4975,银川市,贺兰山东路,颗粒物(PM10),57,64,43,27,21,208,20,54,30,68,44,10,11,0.8,0.7
2023-08-31T09:00:00,1489A,106.1358,38.5036,银川市,学院路,颗粒物(PM10),59,68,49,31,18,180,27,59,26,42,39,25,14,1.5,0.7
2023-08-31T09:00:00,1490A,87.5801,43.8303,乌鲁木齐市,监测站,颗粒物(PM10),65,80,72,24,22,176,13,18,18,67,45,5,7,1.2,0.9
2023-08-31T09:00:00,1491A,87.6046,43.768,乌鲁木齐市,收费所,颗粒物(PM10),73,95,71,26,26,196,12,21,21,58,44,1,4,0.7,0.6
2023-08-31T09:00:00,1492A,87.4754,43.9469,乌鲁木齐市,新疆农科院农场,颗粒物(PM10),149,247,136,46,37,136,0,0,0,39,32,5,5,1.3,1.2
2023-08-31T09:00:00,1493A,87.5525,43.8711,乌鲁木齐市,铁路局,颗粒物(PM10),73,96,80,24,24,171,24,25,25,59,41,5,7,0.8,0.8
2023-08-31T09:00:00,1494A,87.6432,43.831,乌鲁木齐市,三十一中学,颗粒物(PM10),71,92,71,25,21,177,42,47,36,40,33,5,7,0.6,0.7
2023-08-31T09:00:00,1496A,87.7216,44.1747,乌鲁木齐市,米东区环保局,颗粒物(PM10),66,82,76,13,11,90,7,49,15,40,39,8,9,1.3,0.7
2023-08-31T09:00:00,1508A,112.9433,27.8614,湘潭市,板塘,颗粒物(PM10),51,51,44,23,25,139,70,65,52,16,16,6,6,0.6,0.6
2023-08-31T09:00:00,1511A,112.9118,27.8403,湘潭市,市监测站,颗粒物(PM10),55,59,40,37,25,135,53,72,60,18,14,5,4,0.8,0.8
2023-08-31T09:00:00,1512A,112.8937,27.8728,湘潭市,江麓,,49,43,49,34,27,127,54,65,55,18,17,9,8,0.2,0.3
2023-08-31T09:00:00,1513A,112.9227,27.8159,湘潭市,岳塘,,40,39,43,28,25,132,54,64,53,20,17,8,6,0.4,0.3
2023-08-31T09:00:00,1514A,112.9074,27.9119,湘潭市,科大,,39,39,45,27,25,124,55,63,51,13,12,6,4,0.4,0.3
2023-08-31T09:00:00,1515A,113.135,27.8244,株洲市,天台山庄,,46,46,43,24,25,133,63,61,60,25,17,7,6,0.7,0.6
2023-08-31T09:00:00,1518A,113.095,27.8867,株洲市,株冶医院,,34,34,40,18,21,131,87,70,70,7,13,4,4,0.6,0.7
2023-08-31T09:00:00,1519A,113.167,27.8667,株洲市,市四中,,37,37,43,21,25,118,72,58,58,11,14,7,7,0.5,0.6
2023-08-31T09:00:00,1520A,113.143,27.8381,株洲市,火车站,,39,39,42,22,29,121,77,65,65,14,17,6,6,0.5,0.4
2023-08-31T09:00:00,1524A,113.13,27.8528,株洲市,市监测站,,46,46,46,28,28,130,62,59,57,25,17,9,6,0.9,0.9
2023-08-31T09:00:00,1552A,106.805,26.3003,贵阳市,桐木岭,,,,,,,,,,,,,,,,
2023-08-31T09:00:00,1559A,113.251,27.8336,株洲市,大京风景区,,39,34,37,27,25,108,56,44,44,7,6,6,6,0.5,0.5
2023-08-31T09:00:00,1562A,113.0048,27.9153,湘潭市,昭山,,44,44,43,22,24,138,70,45,31,18,25,5,5,0.6,0.7
2023-08-31T09:00:00,1564A,112.4876,27.9164,湘潭市,韶山,,47,47,38,16,16,118,86,113,96,9,8,10,9,0.3,0.3
2023-08-31T09:00:00,1585A,109.8756,40.6532,包头市,市环境监测站,,42,42,45,15,19,176,59,37,37,22,37,8,14,0.6,0.9
2023-08-31T09:00:00,1587A,109.9991,40.5842,包头市,包头八中,颗粒物(PM10),65,79,52,21,20,154,43,33,26,49,41,14,17,0.8,0.8
2023-08-31T09:00:00,1588A,109.8538,40.6821,包头市,青山宾馆,,32,32,34,10,17,165,62,42,42,16,33,8,12,0.6,0.8
2023-08-31T09:00:00,1589A,109.8642,40.6288,包头市,惠龙物流,,36,36,46,9,18,180,66,37,37,22,38,9,20,0.6,1
2023-08-31T09:00:00,1590A,110.0377,40.5546,包头市,东河鸿龙湾,颗粒物(PM10),53,55,34,25,14,157,35,66,28,56,31,17,18,0.8,1
2023-08-31T09:00:00,1591A,110.0023,39.8129,鄂尔多斯市,综合楼,颗粒物(PM10),80,110,51,31,12,121,53,83,80,68,33,163,20,0.7,0.5
2023-08-31T09:00:00,1592A,109.9486,39.8261,鄂尔多斯市,巴音孟克林场办事处,颗粒物(PM10),60,70,43,19,12,133,90,118,113,37,24,32,19,0.5,0.5
2023-08-31T09:00:00,1593A,109.7736,39.5986,鄂尔多斯市,康泽苑,,34,34,25,17,10,125,74,48,48,23,18,11,10,0.5,0.5
2023-08-31T09:00:00,1594A,109.8119,39.5989,鄂尔多斯市,华泰汽车城,,46,46,30,17,14,121,52,18,18,30,30,10,8,0.5,0.4
2023-08-31T09:00:00,1595A,109.9734,39.7884,鄂尔多斯市,奥林花园,颗粒物(PM10),76,102,55,24,14,124,54,39,39,60,43,59,13,0.8,0.6
2023-08-31T09:00:00,1597A,122.2703,40.7094,营口市,大庆路,,31,31,32,21,22,114,62,43,43,24,18,20,9,0.9,0.8
2023-08-31T09:00:00,1598A,122.2150,40.6511,营口市,镜湖西路,,27,27,28,9,19,114,68,32,32,23,21,12,7,0.6,0.5
2023-08-31T09:00:00,1599A,122.1658,40.6789,营口市,西炮台,,30,30,31,10,15,126,66,33,33,22,25,10,7,0.6,0.5
2023-08-31T09:00:00,1600A,124.3303,40.0625,丹东市,江湾东路,,32,32,17,19,8,95,41,35,35,16,14,7,6,0.7,0.8
2023-08-31T09:00:00,1601A,124.4256,40.1503,丹东市,临江后街,,19,19,13,9,7,91,41,52,31,13,17,8,7,0.4,0.5
2023-08-31T09:00:00,1602A,124.3933,40.1461,丹东市,元宝山,,20,20,15,11,7,83,40,49,31,14,12,9,8,0.7,0.7
2023-08-31T09:00:00,1603A,124.3633,40.1092,丹东市,民主桥,,24,24,16,11,7,91,36,82,54,11,10,5,5,0.7,0.6
2023-08-31T09:00:00,1604A,122.0303,41.1489,盘锦市,开发区,,21,15,25,11,15,105,55,55,47,41,29,6,4,0.7,0.5
2023-08-31T09:00:00,1605A,122.0485,41.0883,盘锦市,兴隆台,,42,42,26,18,12,106,54,52,38,32,28,7,6,0.7,0.6
2023-08-31T09:00:00,1606A,121.8297,41.1028,盘锦市,新生街道,,24,24,20,8,8,106,56,44,40,17,21,6,6,0.6,0.5
2023-08-31T09:00:00,1607A,120.9092,40.7136,葫芦岛市,龙港区,颗粒物(PM10),57,63,23,24,7,104,45,67,34,41,15,8,10,0.6,0.4
2023-08-31T09:00:00,1608A,120.8392,40.7514,葫芦岛市,化工街,,44,44,28,13,10,94,39,22,12,37,23,11,13,0.6,0.4
2023-08-31T09:00:00,1609A,120.8341,40.7073,葫芦岛市,新区,,37,37,26,16,13,90,38,23,23,42,26,6,6,0.8,0.6
2023-08-31T09:00:00,1610A,120.8695,40.7677,葫芦岛市,东城区,颗粒物(PM10),51,51,31,25,13,97,43,14,14,31,27,38,23,0.5,0.4
2023-08-31T09:00:00,1611A,118.5819,24.9117,泉州市,涂山街,,22,22,17,5,5,61,61,53,53,5,5,4,4,0.7,0.6
2023-08-31T09:00:00,1612A,118.5972,24.8978,泉州市,津头埔,,24,24,20,7,5,60,60,52,52,9,8,4,4,0.5,0.5
2023-08-31T09:00:00,1613A,118.6663,24.9424,泉州市,万安,,24,24,25,10,6,63,63,56,56,8,6,2,3,0.6,0.5
2023-08-31T09:00:00,1614A,118.6117,24.9604,泉州市,清源山,,,,,,,,,,,,,,,,
2023-08-31T09:00:00,1616A,117.6795,36.229,济南市,技术学院,,,,,,,,,,,,,,,,
2023-08-31T09:00:00,1618A,118.3429,35.0532,临沂市,沂河小区,颗粒物(PM10),52,53,39,22,18,141,81,64,51,24,20,9,9,0.4,0.3
2023-08-31T09:00:00,1619A,118.295,35.0583,临沂市,鲁南制药厂,,46,46,36,20,16,154,88,74,38,22,21,7,8,0.3,0.3
2023-08-31T09:00:00,1620A,118.2794,34.9976,临沂市,新光毛纺厂,,44,44,32,21,17,139,79,58,38,22,23,9,10,0.5,0.5
2023-08-31T09:00:00,1621A,118.3956,35.0888,临沂市,河东保险公司,,,,25,,13,130,,77,41,13,17,7,4,0.2,0.3
2023-08-31T09:00:00,1622A,116.3032,37.4674,德州市,儿童乐园,颗粒物(PM10),65,80,51,39,22,185,120,136,121,17,14,14,10,0.9,0.7
2023-08-31T09:00:00,1624A,116.2991,37.4451,德州市,监理站,颗粒物(PM10),66,81,48,39,23,190,108,132,110,26,19,11,8,0.7,0.5
2023-08-31T09:00:00,1625A,115.9848,36.4372,聊城市,区政府,细颗粒物(PM2.5),63,64,52,45,34,171,108,104,98,10,13,6,5,0.5,0.4
2023-08-31T09:00:00,1628A,118.0062,37.3803,滨州市,市环保局,颗粒物(PM10),62,73,42,34,19,161,90,52,52,45,29,12,7,1.1,0.6
2023-08-31T09:00:00,1629A,118.0018,37.3617,滨州市,第二水厂,颗粒物(PM10),58,66,43,34,22,170,77,30,30,48,39,8,4,1.0,0.5
2023-08-31T09:00:00,1630A,117.9776,37.393,滨州市,北中新校,颗粒物(PM10),65,79,42,36,19,159,90,35,35,45,28,19,7,0.8,0.5
2023-08-31T09:00:00,1631A,118.0414,36.8103,淄博市,人民公园,颗粒物(PM10),63,75,67,41,33,214,109,48,48,24,36,12,10,0.9,0.6
2023-08-31T09:00:00,1633A,117.8525,36.4847,淄博市,双山,颗粒物(PM10),53,56,41,32,22,192,111,85,57,20,21,14,8,0.8,0.5
2023-08-31T09:00:00,1634A,117.9592,36.6331,淄博市,气象站,颗粒物(PM10),56,61,53,36,28,187,118,63,63,17,25,12,15,0.7,0.5
2023-08-31T09:00:00,1635A,118.3092,36.8194,淄博市,莆田园,颗粒物(PM10),62,73,49,34,22,164,120,75,75,28,32,17,12,1.9,1.3
2023-08-31T09:00:00,1637A,117.558,34.8438,枣庄市,市中区政府,颗粒物(PM10),62,73,58,34,26,157,96,55,46,31,32,11,11,0.5,0.4
2023-08-31T09:00:00,1638A,117.2852,34.7837,枣庄市,薛城环保局,颗粒物(PM10),57,63,62,33,32,169,110,101,88,18,27,14,11,0.7,0.6
2023-08-31T09:00:00,1639A,117.5852,34.7745,枣庄市,峄城区政府,颗粒物(PM10),62,73,54,29,19,176,80,75,37,33,26,14,10,0.7,0.5
2023-08-31T09:00:00,1640A,117.7276,34.5578,枣庄市,台儿庄区环保局,,48,48,40,19,17,172,81,54,39,20,27,10,8,0.5,0.5
2023-08-31T09:00:00,1641A,117.4518,35.0992,枣庄市,山亭区环保局,,,46,34,32,21,156,,111,82,15,14,14,8,0.5,0.3
2023-08-31T09:00:00,1642A,121.2514,37.5639,烟台市,开发区,颗粒物(PM10),57,63,22,17,10,105,58,23,23,45,26,5,3,0.9,0.6
2023-08-31T09:00:00,1643A,121.3719,37.5433,烟台市,轴承厂,,36,36,30,14,20,106,94,58,58,19,22,7,6,0.5,0.4
2023-08-31T09:00:00,1644A,121.3181,37.5436,烟台市,西郊化工站,,31,31,25,10,11,101,94,59,59,15,21,11,9,0.6,0.5
2023-08-31T09:00:00,1645A,121.4478,37.4822,烟台市,莱山环保局,,30,22,14,5,7,114,94,38,38,8,14,7,5,0.4,0.4
2023-08-31T09:00:00,1646A,121.2611,37.4967,烟台市,福山环保局,,46,46,30,5,7,98,46,20,17,27,26,7,7,0.7,0.7
2023-08-31T09:00:00,1650A,119.1437,36.7023,潍坊市,环保局,颗粒物(PM10),56,61,39,25,21,154,94,49,49,27,33,9,9,0.7,0.6
2023-08-31T09:00:00,1653A,116.6251,35.4302,济宁市,火炬城,,,85,56,29,22,167,,76,61,26,20,12,8,0.7,0.6
2023-08-31T09:00:00,1655A,116.5491,35.4042,济宁市,电化厂,颗粒物(PM10),60,69,69,27,22,156,94,65,63,13,19,14,9,0.7,0.6
2023-08-31T09:00:00,1656A,117.1437,36.1937,泰安市,监测站,颗粒物(PM10),65,80,55,46,30,183,90,72,62,26,16,14,9,0.9,0.6
2023-08-31T09:00:00,1657A,117.0885,36.2017,泰安市,人口学校,,,63,45,38,23,181,,101,74,20,17,10,6,0.6,0.5
2023-08-31T09:00:00,1658A,117.1089,36.1758,泰安市,电力学校,颗粒物(PM10),63,75,58,39,30,190,94,40,32,23,30,14,8,0.6,0.5
2023-08-31T09:00:00,1659A,119.471,35.4209,日照市,监测站,,29,29,24,12,10,130,87,23,23,27,32,7,6,0.6,0.7
2023-08-31T09:00:00,1660A,119.523,35.4216,日照市,市政府广场,,28,27,25,10,10,140,88,54,54,25,22,6,6,0.5,0.5
2023-08-31T09:00:00,1661A,119.5587,35.4044,日照市,港务局,,34,34,32,11,11,149,89,33,33,28,37,5,9,0.5,0.5
2023-08-31T09:00:00,1662A,122.1214,37.4236,威海市,华夏技校,,32,22,11,5,7,108,100,92,76,10,9,7,5,0.4,0.3
2023-08-31T09:00:00,1663A,122.0508,37.5236,威海市,山大分校,,35,20,14,10,8,134,110,79,79,6,7,9,9,0.4,0.4
2023-08-31T09:00:00,1664A,122.1067,37.5072,威海市,市监测站,,,37,21,5,6,117,,66,57,14,11,9,8,0.5,0.5
2023-08-31T09:00:00,1666A,118.6614,37.4309,东营市,市环保局,颗粒物(PM10),68,85,41,39,19,182,97,111,47,54,29,25,11,0.8,0.4
2023-08-31T09:00:00,1669A,113.5824,24.7733,韶关市,市八中,,18,9,20,8,13,74,56,59,59,10,8,10,11,0.7,0.6
2023-08-31T09:00:00,1671A,113.5917,24.7972,韶关市,园林处,,20,12,19,10,13,74,62,61,61,4,4,8,10,0.6,0.7
2023-08-31T09:00:00,1672A,113.6735,24.7791,韶关市,韶关学院,,18,12,20,9,14,71,55,52,52,6,9,8,9,0.5,0.6
2023-08-31T09:00:00,1673A,113.5971,24.6863,韶关市,曲江监测站,,20,8,22,8,12,76,62,64,64,6,9,10,10,0.6,0.6
2023-08-31T09:00:00,1674A,116.6794,23.3667,汕头市,金平子站,,34,34,23,15,12,86,16,25,21,24,16,9,9,0.8,0.7
2023-08-31T09:00:00,1675A,116.7244,23.3633,汕头市,龙湖子站,,28,28,24,8,8,100,22,32,24,19,13,6,7,0.8,0.8
2023-08-31T09:00:00,1676A,116.7258,23.2775,汕头市,濠江子站,,24,24,33,8,17,110,27,29,19,10,14,9,10,0.5,0.8
2023-08-31T09:00:00,1677A,116.7519,23.4714,汕头市,澄海子站,,24,24,22,5,9,85,25,30,26,18,11,9,7,0.6,0.6
2023-08-31T09:00:00,1678A,116.6092,23.2539,汕头市,潮阳子站,,31,31,30,19,20,112,19,27,19,16,11,10,9,0.7,0.8
2023-08-31T09:00:00,1680A,110.3539,21.2706,湛江市,湛江影剧院,,,42,31,17,15,87,,59,43,,9,13,19,0.9,0.8
2023-08-31T09:00:00,1681A,110.3928,21.2228,湛江市,市环境监测站,,28,28,25,19,17,87,60,62,55,12,10,10,10,0.7,0.7
2023-08-31T09:00:00,1682A,110.4019,21.1997,湛江市,环保局宿舍,,35,35,27,14,12,92,61,60,54,12,10,9,8,0.7,0.7
2023-08-31T09:00:00,1683A,110.4111,21.2028,湛江市,霞山游泳场,,31,31,27,17,14,93,61,59,56,12,10,11,11,0.8,0.8
2023-08-31T09:00:00,1684A,110.3316,21.2679,湛江市,麻章区环保局,,45,45,31,15,11,81,59,46,42,12,14,11,9,0.8,0.8
2023-08-31T09:00:00,1685A,110.4558,21.2567,湛江市,坡头区环保局,,36,31,24,25,15,90,62,62,54,11,9,16,11,0.7,0.7
2023-08-31T09:00:00,1686A,111.0286,21.4688,茂名市,电白南海,,48,48,34,27,22,104,62,53,40,12,12,12,10,0.9,0.8
2023-08-31T09:00:00,1687A,110.9294,21.6533,茂名市,茂石化七小,,32,31,27,22,19,94,59,54,50,9,8,17,10,0.8,0.7
2023-08-31T09:00:00,1688A,110.9107,21.6687,茂名市,健康路,,36,36,26,24,14,102,60,60,50,8,7,20,12,0.7,0.7
2023-08-31T09:00:00,1689A,110.8592,21.6828,茂名市,高岭,,44,44,27,29,21,96,58,51,45,12,13,16,9,0.8,0.7
2023-08-31T09:00:00,1690A,116.1231,24.3284,梅州市,梅江月梅,,13,11,14,6,9,68,39,46,38,10,12,3,3,0.7,0.7
2023-08-31T09:00:00,1691A,116.0797,24.2719,梅州市,梅县新城,,19,19,16,6,9,63,42,49,44,10,6,6,5,0.8,0.7
2023-08-31T09:00:00,1692A,116.1248,24.2654,梅州市,环境监控中心,,,12,16,6,9,82,,50,47,12,10,8,7,,0.6
2023-08-31T09:00:00,1693A,115.3653,22.775,汕尾市,市环保局,,14,5,16,8,12,72,42,46,45,6,6,6,5,0.6,0.7
2023-08-31T09:00:00,1694A,115.3706,22.7898,汕尾市,市政府,,15,10,15,3,7,72,45,49,48,5,4,5,5,0.7,0.7
2023-08-31T09:00:00,1695A,115.3622,22.7925,汕尾市,新城中学,,22,22,18,8,11,60,38,43,41,4,4,6,6,0.8,0.8
2023-08-31T09:00:00,1696A,114.6778,23.7569,河源市,源西,,18,18,21,9,12,73,45,48,47,14,9,4,5,0.8,0.8
2023-08-31T09:00:00,1697A,114.6944,23.7586,河源市,东埔,,18,18,22,10,15,71,52,50,50,9,8,5,5,0.7,0.7
2023-08-31T09:00:00,1698A,114.6892,23.7233,河源市,老城,,25,25,24,9,11,74,50,50,50,11,9,4,4,0.7,0.7
2023-08-31T09:00:00,1699A,111.9797,21.8593,阳江市,鸳鸯湖,,29,29,22,12,8,83,54,48,46,9,8,5,5,0.9,0.8
2023-08-31T09:00:00,1701A,111.9491,21.8658,阳江市,马南垌,,24,24,25,14,14,87,52,49,46,10,7,6,5,0.7,0.5
2023-08-31T09:00:00,1702A,113.0426,23.691,清远市,环保大楼,,21,15,15,7,11,85,65,56,56,4,5,6,6,0.9,0.9
2023-08-31T09:00:00,1703A,113.0208,23.7106,清远市,凤城街办,,20,20,20,12,13,71,61,56,56,6,7,6,6,0.6,0.6
2023-08-31T09:00:00,1705A,116.6367,23.6719,潮州市,西园路,,18,14,16,12,11,57,28,30,29,7,6,4,4,0.5,0.4
2023-08-31T09:00:00,1706A,116.6447,23.6706,潮州市,档案局,,20,20,17,5,8,62,29,31,30,8,5,5,5,0.6,0.5
2023-08-31T09:00:00,1708A,116.3701,23.5345,揭阳市,新兴,,,,23,,14,87,,32,25,13,6,,7,0.9,0.8
2023-08-31T09:00:00,1709A,116.3264,23.5443,揭阳市,西马,,26,26,23,10,11,71,29,38,32,10,5,7,6,0.8,0.7
2023-08-31T09:00:00,1710A,116.3611,23.5626,揭阳市,东兴,,15,10,24,10,11,84,25,25,22,17,13,3,4,1.0,0.9
2023-08-31T09:00:00,1711A,116.4151,23.5294,揭阳市,渔湖,,13,13,22,8,8,96,29,36,33,13,8,8,4,0.6,0.6
2023-08-31T09:00:00,1712A,112.0392,22.9169,云浮市,新市府,,31,31,25,17,12,82,53,36,36,19,15,40,14,1.0,0.9
2023-08-31T09:00:00,1714A,112.0539,22.9539,云浮市,牧羊,,40,40,27,14,10,79,44,34,16,26,24,41,12,0.7,0.7
2023-08-31T09:00:00,1715A,102.575,24.3711,玉溪市,东风水库,,24,22,21,14,15,122,74,78,78,8,8,7,6,0.8,0.8
2023-08-31T09:00:00,1718A,115.4208,35.2464,菏泽市,气象局,颗粒物(PM10),62,73,59,39,27,190,115,112,100,16,14,12,11,0.5,0.5
2023-08-31T09:00:00,1719A,115.4747,35.2375,菏泽市,市政协,,,,,,,,,,,,,,,,
2023-08-31T09:00:00,1721A,113.3819,40.1097,大同市,果树场,,,,,,,,,,,,,,,,
2023-08-31T09:00:00,1723A,113.2994,40.0758,大同市,云冈宾馆,,34,34,47,10,21,144,70,76,56,20,23,15,14,0.8,0.5
2023-08-31T09:00:00,1724A,113.3444,40.0917,大同市,大同大学,,,,,,,,,,,,,,,,
2023-08-31T09:00:00,1725A,113.2661,40.1269,大同市,安家小村,,,,48,,17,140,,77,42,12,19,,15,0.6,0.6
2023-08-31T09:00:00,1726A,113.2711,40.0844,大同市,教育学院,,49,49,55,13,20,140,67,79,52,26,26,13,13,0.8,0.6
2023-08-31T09:00:00,1727A,113.1147,36.1547,长治市,清华站,细颗粒物(PM2.5),64,56,42,46,31,201,130,143,130,10,13,8,11,0.8,0.8
2023-08-31T09:00:00,1728A,113.1031,36.1989,长治市,监测站,细颗粒物(PM2.5),67,59,44,48,33,226,115,152,134,22,17,5,8,1.0,1
2023-08-31T09:00:00,1730A,113.0886,36.2125,长治市,审计局,细颗粒物(PM2.5),83,56,41,61,35,232,99,138,123,21,14,7,11,1.2,1.2
2023-08-31T09:00:00,1731A,113.0844,36.1856,长治市,长治八中,颗粒物(PM10),63,75,48,42,30,222,103,140,123,23,17,10,13,1.2,1.2
2023-08-31T09:00:00,1733A,111.5531,36.0783,临汾市,临钢医院,颗粒物(PM10),57,64,70,36,32,200,41,40,27,18,22,11,16,0.9,1.1
2023-08-31T09:00:00,1734A,111.5028,36.0714,临汾市,技工学校,颗粒物(PM10),59,68,71,37,30,206,51,43,42,18,26,8,16,0.9,1.3
2023-08-31T09:00:00,1736A,111.5018,36.0855,临汾市,市委,,,78,78,32,40,179,,44,41,25,26,8,15,0.9,1.1
2023-08-31T09:00:00,1738A,113.5758,37.8572,阳泉市,市中心,颗粒物(PM10),52,53,40,22,19,143,48,11,11,40,40,80,14,1.4,0.8
2023-08-31T09:00:00,1739A,113.4894,37.8731,阳泉市,赛鱼,,,50,43,33,23,147,,33,33,32,36,16,9,1.2,0.8
2023-08-31T09:00:00,1740A,113.5819,37.8486,阳泉市,南庄,颗粒物(PM10),68,86,56,32,22,146,54,17,17,43,31,111,17,1.3,0.8
2023-08-31T09:00:00,1742A,113.5614,37.8703,阳泉市,平坦,细颗粒物(PM2.5),65,62,44,47,20,148,70,21,21,37,45,30,12,1.3,0.8
2023-08-31T09:00:00,1743A,113.5158,37.8392,阳泉市,大阳泉,细颗粒物(PM2.5),57,54,30,40,26,147,105,82,82,21,22,16,13,1.0,0.7
2023-08-31T09:00:00,1744A,118.9233,42.2816,赤峰市,松山一中,,15,11,12,10,6,98,41,59,53,26,22,9,9,0.4,0.3
2023-08-31T09:00:00,1745A,118.9576,42.2728,赤峰市,哈达街,,,8,14,9,9,98,,58,56,30,21,15,14,0.2,0.1
2023-08-31T09:00:00,1746A,118.8788,42.2554,赤峰市,天义路,,15,8,10,3,7,104,32,72,58,30,18,8,10,0.3,0.2
2023-08-31T09:00:00,1748A,123.044,41.1196,鞍山市,深沟寺,,24,24,23,11,11,83,67,36,36,14,14,4,3,0.8,0.6
2023-08-31T09:00:00,1749A,123.011,41.0931,鞍山市,太阳城,,28,28,26,16,15,84,77,42,42,20,18,9,6,2.1,0.8
2023-08-31T09:00:00,1750A,123.0485,41.1442,鞍山市,太平,,26,26,38,12,18,99,74,44,44,18,21,8,6,0.9,0.6
2023-08-31T09:00:00,1751A,122.9642,41.0971,鞍山市,铁西三道街,,32,32,45,14,19,83,76,22,22,21,36,12,10,1.2,1.3
2023-08-31T09:00:00,1752A,122.9341,41.0833,鞍山市,铁西工业园区,,,49,46,21,21,87,70,16,16,,32,12,9,,1.3
2023-08-31T09:00:00,1753A,123.022,41.0821,鞍山市,明达新区,,34,34,28,14,14,91,74,34,34,16,20,6,4,1.0,0.9
2023-08-31T09:00:00,1754A,123.1289,41.0228,鞍山市,千山,,,,,,,,,,,,,,,,
2023-08-31T09:00:00,1755A,123.7977,41.8491,抚顺市,望花区,,42,42,34,27,18,102,32,12,12,27,24,14,10,0.8,0.5
2023-08-31T09:00:00,1756A,123.9161,41.8822,抚顺市,顺城区,,31,31,29,11,15,98,27,11,11,13,21,6,5,0.5,0.4
2023-08-31T09:00:00,1757A,124.0436,41.8611,抚顺市,东洲区,,13,12,16,6,8,103,40,23,23,5,12,4,5,0.3,0.3
2023-08-31T09:00:00,1758A,123.9247,41.8642,抚顺市,新抚区,,21,21,23,8,10,105,29,10,10,13,17,8,6,0.6,0.5
2023-08-31T09:00:00,1759A,124.0972,41.8961,抚顺市,大伙房水库,,11,2,14,4,7,95,34,21,21,6,11,5,5,0.3,0.3
2023-08-31T09:00:00,1760A,123.7086,41.8391,抚顺市,沈抚新城,颗粒物(PM10),70,90,31,43,16,98,40,9,9,38,20,29,10,2.2,0.8
2023-08-31T09:00:00,1761A,123.8275,41.3064,本溪市,大峪,颗粒物(PM10),55,60,34,22,12,108,32,14,14,20,16,6,5,1.0,0.8
2023-08-31T09:00:00,1762A,123.7567,41.3325,本溪市,溪湖,,48,48,29,29,16,111,28,11,11,21,16,9,8,1.3,0.8
2023-08-31T09:00:00,1763A,123.7169,41.3094,本溪市,彩屯,细颗粒物(PM2.5),70,88,47,51,28,107,22,9,9,32,23,8,8,2.4,1.1
2023-08-31T09:00:00,1764A,123.7669,41.2864,本溪市,东明,颗粒物(PM10),56,61,43,31,23,108,28,10,10,26,26,8,7,1.3,0.9
2023-08-31T09:00:00,1765A,123.7992,41.2664,本溪市,新立屯,,30,23,44,21,15,100,24,9,9,24,27,10,9,1.3,1.5
2023-08-31T09:00:00,1766A,123.8142,41.3472,本溪市,威宁,,40,40,28,27,20,94,24,11,11,14,14,6,6,0.9,0.8
2023-08-31T09:00:00,1767A,121.1115,41.0879,锦州市,南山,,,,38,,29,106,52,33,22,16,26,,9,0.8,0.7
2023-08-31T09:00:00,1768A,121.0533,40.8434,锦州市,开发区,颗粒物(PM10),59,67,39,19,15,97,26,9,9,42,32,27,13,1.2,0.9
2023-08-31T09:00:00,1769A,121.1836,41.1119,锦州市,百股街道,,44,44,28,27,12,105,20,9,9,36,25,15,12,1.1,0.6
2023-08-31T09:00:00,1770A,121.1178,41.1222,锦州市,天安街道,,22,19,39,15,15,105,44,34,18,14,23,14,12,0.8,1
2023-08-31T09:00:00,1771A,121.1303,41.1386,锦州市,北湖公园,,30,24,33,21,20,107,44,38,18,18,22,16,12,0.7,0.7
2023-08-31T09:00:00,1772A,126.54,43.8622,吉林市,哈达湾,,19,12,17,5,6,67,60,36,36,12,15,7,6,0.5,0.5
2023-08-31T09:00:00,1773A,126.5844,43.8358,吉林市,东局子,,18,16,13,6,5,67,57,36,36,16,15,7,6,0.6,0.6
2023-08-31T09:00:00,1774A,126.5052,43.8245,吉林市,电力学院,,17,12,19,6,7,71,53,32,32,19,16,9,8,0.6,0.6
2023-08-31T09:00:00,1775A,126.6133,43.8972,吉林市,江北,,18,18,18,6,9,68,54,32,32,16,11,8,8,0.6,0.6
2023-08-31T09:00:00,1776A,126.555,43.8306,吉林市,江南公园,,20,13,9,9,6,67,61,32,32,13,15,6,6,0.5,0.5
2023-08-31T09:00:00,1778A,126.7061,43.7133,吉林市,丰满,,,,,,,,,,,,,,,,
2023-08-31T09:00:00,1779A,123.9305,47.3636,齐齐哈尔市,安居小区,,19,5,11,13,12,62,46,60,56,3,3,5,5,0.3,0.3
2023-08-31T09:00:00,1780A,123.9488,47.3386,齐齐哈尔市,中心广场,,,5,13,5,8,60,,58,56,7,4,1,1,0.4,0.3
2023-08-31T09:00:00,1781A,123.9483,47.3227,齐齐哈尔市,农牧车辆厂,,14,12,11,2,3,60,43,58,55,6,3,6,6,0.3,0.3
2023-08-31T09:00:00,1783A,123.945,47.2988,齐齐哈尔市,市环境监测站,,13,6,6,7,5,60,41,58,54,8,3,3,2,0.2,0.2
2023-08-31T09:00:00,1784A,129.61,44.561,牡丹江市,环保大楼,,14,14,13,6,8,63,36,40,28,8,9,5,5,0.4,0.4
2023-08-31T09:00:00,1785A,129.6115,44.5782,牡丹江市,文化广场,,28,28,15,10,11,57,31,37,26,10,11,6,6,0.4,0.4
2023-08-31T09:00:00,1786A,129.5904,44.5963,牡丹江市,第一医院,,22,22,16,10,11,55,28,27,19,9,11,5,5,0.3,0.4
2023-08-31T09:00:00,1787A,129.6364,44.6075,牡丹江市,机车工厂,,10,6,11,5,6,56,31,31,22,10,11,3,3,0.5,0.5
2023-08-31T09:00:00,1788A,129.6386,44.5462,牡丹江市,第一中学,,,16,11,5,6,60,,33,24,7,9,5,5,0.2,0.2
2023-08-31T09:00:00,1789A,124.81117,46.03138,大庆市,大同区,,15,11,6,8,7,52,47,46,46,9,5,6,5,0.3,0.3
2023-08-31T09:00:00,1790A,125.129,46.533,大庆市,龙凤区,,,10,10,6,10,48,,46,46,10,8,3,2,0.1,0.2
2023-08-31T09:00:00,1791A,124.902,46.408,大庆市,红岗区,,16,8,9,11,10,51,49,47,47,8,5,3,3,0.3,0.3
2023-08-31T09:00:00,1792A,125.153,46.586,大庆市,萨尔图区,,15,7,8,5,4,52,46,46,46,12,9,5,5,0,0.1
2023-08-31T09:00:00,1793A,124.9042,46.6215,大庆市,让胡路区,,14,7,8,5,7,51,44,48,48,14,6,4,4,0.5,0.4
2023-08-31T09:00:00,1794A,118.3606,31.3519,芜湖市,监测站,细颗粒物(PM2.5),54,43,21,38,18,104,37,74,59,49,17,7,5,0.8,0.5
2023-08-31T09:00:00,1795A,118.3714,31.4134,芜湖市,科创中心,,45,42,26,31,19,101,47,74,52,53,31,10,6,0.8,0.5
2023-08-31T09:00:00,1796A,118.3673,31.3131,芜湖市,四水厂,,,34,22,27,15,105,,89,80,,15,7,4,0.9,0.5
2023-08-31T09:00:00,1798A,118.5092,31.6837,马鞍山市,湖东路四小,,45,42,30,31,28,102,61,56,40,28,20,12,9,0.8,0.6
2023-08-31T09:00:00,1799A,118.5024,31.6449,马鞍山市,开发区,,50,50,32,27,23,101,39,48,29,30,20,10,7,1.1,0.9
2023-08-31T09:00:00,1800A,118.5228,31.7231,马鞍山市,慈湖,,,38,40,34,23,98,,56,15,23,26,11,10,1.1,1
2023-08-31T09:00:00,1802A,118.6245,31.7241,马鞍山市,濮塘,,39,31,21,27,19,88,47,34,20,11,11,5,4,1.1,0.9
2023-08-31T09:00:00,1803A,115.9872,29.6815,九江市,十里,,33,33,26,22,17,130,81,100,84,14,11,8,8,0.5,0.6
2023-08-31T09:00:00,1804A,115.9584,29.7046,九江市,茅山头,,32,32,27,19,19,129,81,97,84,18,15,8,7,0.6,0.6
2023-08-31T09:00:00,1805A,115.9877,29.7295,九江市,西园,,32,30,25,22,19,142,91,103,90,16,14,9,9,0.3,0.5
2023-08-31T09:00:00,1806A,116.0172,29.6547,九江市,五七二七厂,,25,23,23,14,14,129,78,80,74,10,8,9,9,0.5,0.5
2023-08-31T09:00:00,1808A,115.9114,29.6038,九江市,综合工业园,,33,33,25,18,18,138,73,79,72,24,17,11,11,0.6,0.6
2023-08-31T09:00:00,1809A,116.0721,29.7535,九江市,石化总厂,,33,33,27,22,16,133,83,98,80,11,12,8,8,0.7,0.7
2023-08-31T09:00:00,1810A,115.9773,29.5698,九江市,庐山气象台,,45,18,24,12,25,114,15,49,32,90,69,6,9,0.5,0.6
2023-08-31T09:00:00,1812A,112.3931,34.6516,洛阳市,市委党校,细颗粒物(PM2.5),69,71,54,50,40,159,67,101,56,15,13,9,8,0.6,0.5
2023-08-31T09:00:00,1814A,112.4657,34.6871,洛阳市,豫西宾馆,细颗粒物(PM2.5),73,73,58,53,40,168,67,102,51,25,18,10,5,1.2,0.8
2023-08-31T09:00:00,1815A,112.494,34.6886,洛阳市,河南林校,颗粒物(PM10),55,59,48,36,32,165,48,105,58,22,17,6,6,0.7,0.5
2023-08-31T09:00:00,1816A,112.3844,34.623,洛阳市,开发区管委会,颗粒物(PM10),52,54,49,31,28,156,50,66,51,12,12,1,2,0.5,0.4
2023-08-31T09:00:00,1817A,112.4267,34.6258,洛阳市,市委新办公区,细颗粒物(PM2.5),58,53,51,41,37,149,53,93,51,6,7,5,5,0.5,0.5
2023-08-31T09:00:00,1818A,114.4839,36.0621,安阳市,棉研所,,,,,,,,,,,,,,,,
2023-08-31T09:00:00,1819A,114.3551,36.1017,安阳市,红庙街,,,62,45,37,22,181,,58,43,,18,,13,,1.1
2023-08-31T09:00:00,1820A,114.361,36.0681,安阳市,银杏小区,,,76,45,,19,191,,42,34,34,21,30,13,1.0,1
2023-08-31T09:00:00,1824A,114.3389,34.7781,开封市,肿瘤医院,颗粒物(PM10),55,59,65,35,38,190,91,66,54,13,17,5,7,0.6,0.6
2023-08-31T09:00:00,1826A,114.2885,34.7965,开封市,世纪星幼儿园,颗粒物(PM10),53,55,59,32,36,174,92,71,62,20,20,13,11,1.0,1
2023-08-31T09:00:00,1828A,113.227,35.2125,焦作市,市环保局,细颗粒物(PM2.5),64,61,57,46,41,186,85,129,76,16,16,32,12,0.7,0.7
2023-08-31T09:00:00,1830A,113.1992,35.2590,焦作市,影视城,,,,,,,,,,,,,,,,
2023-08-31T09:00:00,1832A,113.3257,33.742,平顶山市,新华旅馆,颗粒物(PM10),55,59,57,21,29,196,70,80,42,30,29,4,6,0.7,0.6
2023-08-31T09:00:00,1833A,113.2919,33.737,平顶山市,规划设计院,颗粒物(PM10),54,58,52,31,27,182,84,100,61,23,19,7,7,0.7,0.6
2023-08-31T09:00:00,1834A,113.182,33.774,平顶山市,平顶山工学院,,49,49,49,22,20,189,105,124,79,12,13,5,7,0.5,0.5
2023-08-31T09:00:00,1835A,111.1922,34.7752,三门峡市,市政府,,46,46,49,30,23,160,63,102,38,16,30,8,8,0.8,0.7
2023-08-31T09:00:00,1836A,111.1587,34.7942,三门峡市,开发区,颗粒物(PM10),57,64,54,30,27,162,73,62,62,11,15,9,10,0.7,0.6
2023-08-31T09:00:00,1838A,111.143,34.7955,三门峡市,风景区,,,,,,,,,,,,,,,,
2023-08-31T09:00:00,1840A,111.2992,30.6981,宜昌市,白龙岗,,36,36,31,12,11,152,38,64,51,31,19,2,2,0.5,0.5
2023-08-31T09:00:00,1841A,111.3549,30.6465,宜昌市,伍家岗,,27,27,30,17,18,155,49,74,56,32,23,4,4,0.5,0.4
2023-08-31T09:00:00,1842A,111.2628,30.6961,宜昌市,点军区,,27,27,28,9,13,157,50,45,41,15,15,7,7,0.4,0.5
2023-08-31T09:00:00,1843A,111.3275,30.7819,宜昌市,夷陵区,,23,23,27,14,15,159,47,69,48,23,20,5,5,0.5,0.4
2023-08-31T09:00:00,1844A,112.2494,30.3197,荆州市,市图书馆,颗粒物(PM10),54,58,43,36,23,145,71,28,28,40,62,14,11,0.8,0.8
2023-08-31T09:00:00,1845A,112.2008,30.3544,荆州市,市委党校,颗粒物(PM10),53,56,42,31,25,140,60,41,38,24,24,11,10,0.9,0.8
2023-08-31T09:00:00,1847A,113.1094,29.3578,岳阳市,南湖风景区,,43,41,39,30,28,130,97,98,69,13,17,11,11,0.7,0.8
2023-08-31T09:00:00,1848A,113.1493,29.4251,岳阳市,城陵矶,,48,48,41,27,26,129,79,65,59,20,22,11,12,0.9,0.8
2023-08-31T09:00:00,1849A,113.1497,29.3575,岳阳市,开发区,,45,40,41,31,29,131,93,96,74,15,14,15,13,0.8,0.7
2023-08-31T09:00:00,1850A,113.2621,29.4758,岳阳市,云溪区,,36,36,34,22,23,132,83,93,61,14,13,12,9,0.7,0.6
2023-08-31T09:00:00,1851A,112.9943,29.4402,岳阳市,君山区,细颗粒物(PM2.5),57,49,43,40,33,128,54,56,46,14,13,9,8,0.8,0.6
2023-08-31T09:00:00,1852A,113.2117,29.355,岳阳市,金凤水库,,37,37,35,24,24,139,87,94,78,9,10,5,5,0.8,0.7
2023-08-31T09:00:00,1854A,111.6975,28.9703,常德市,市二中,,45,36,39,31,28,138,48,39,39,11,12,14,8,0.7,0.7
2023-08-31T09:00:00,1857A,111.7158,29.1456,常德市,白鹤山,,,,,,,,,,,,,,,,
2023-08-31T09:00:00,1858A,110.5319,29.1217,张家界市,永定新区,,32,32,35,20,25,106,34,48,33,12,12,5,5,0.4,0.4
2023-08-31T09:00:00,1859A,110.4697,29.1242,张家界市,电业局,,38,33,38,26,25,120,26,46,30,14,13,3,4,0.5,0.5
2023-08-31T09:00:00,1860A,110.5594,29.3547,张家界市,未央路,,27,27,33,18,21,119,58,34,33,12,5,4,3,0.3,0.3
2023-08-31T09:00:00,1861A,110.4417,29.315,张家界市,袁家界,,29,22,21,16,13,110,90,74,68,13,5,8,8,0.6,0.6
2023-08-31T09:00:00,1862A,110.4144,25.3167,桂林市,电子科大尧山校区,,33,33,44,23,25,115,97,96,93,8,8,4,4,0.7,0.7
2023-08-31T09:00:00,1863A,110.2819,25.2697,桂林市,监测站,,39,39,43,24,27,107,88,93,88,10,10,9,8,0.7,0.7
2023-08-31T09:00:00,1864A,110.3089,25.2708,桂林市,龙隐路小学,,38,32,39,26,23,106,88,86,84,7,7,8,9,0.6,0.6
2023-08-31T09:00:00,1865A,110.2869,25.2178,桂林市,八中,,32,32,40,21,26,113,95,94,91,8,9,6,6,0.7,0.7
2023-08-31T09:00:00,1866A,109.2262,21.588,北海市,牛尾岭水库,,36,35,26,25,16,82,50,59,46,9,7,4,4,0.6,0.6
2023-08-31T09:00:00,1867A,109.1436,21.4086,北海市,海滩公园,,39,39,34,22,17,101,72,77,69,8,7,5,4,0.4,0.5
2023-08-31T09:00:00,1868A,109.0981,21.4661,北海市,新市环保局,,39,34,32,27,21,107,76,79,72,8,6,8,6,0.7,0.7
2023-08-31T09:00:00,1869A,109.1778,21.5233,北海市,北海工业园,,39,39,35,27,23,102,66,77,65,17,9,15,9,0.7,0.7
2023-08-31T09:00:00,1870A,109.4856,24.3895,柳州市,柳东小学,,24,21,29,13,26,88,76,78,71,5,5,12,9,0.5,0.5
2023-08-31T09:00:00,1871A,109.4157,24.3277,柳州市,环保监测站,,29,28,39,20,25,92,75,59,59,12,10,7,9,0.4,0.5
2023-08-31T09:00:00,1872A,109.389,24.341,柳州市,河西水厂,,46,46,48,26,27,89,36,48,38,47,21,30,14,2.4,1.1
2023-08-31T09:00:00,1873A,109.4311,24.2921,柳州市,市四中,,32,32,34,21,21,94,77,68,66,12,10,9,10,0.7,0.7
2023-08-31T09:00:00,1874A,109.4006,24.3631,柳州市,市九中,,46,46,46,27,26,94,65,54,50,16,11,11,12,0.7,0.7
2023-08-31T09:00:00,1875A,109.4958,24.3134,柳州市,古亭山,,33,33,33,17,22,95,74,79,76,8,8,6,6,0.5,0.6
2023-08-31T09:00:00,1876A,109.5078,18.2489,三亚市,河东子站,,,16,16,7,7,80,,42,42,6,7,2,3,0.5,0.4
2023-08-31T09:00:00,1877A,109.4964,18.2681,三亚市,河西子站,,17,13,13,7,6,78,52,39,39,6,7,1,2,0.3,0.3
2023-08-31T09:00:00,1878A,104.7778,31.4741,绵阳市,富乐山,,36,36,34,24,23,170,42,55,37,20,19,4,5,0.7,0.7
2023-08-31T09:00:00,1879A,104.7563,31.4535,绵阳市,市人大,颗粒物(PM10),57,63,40,33,27,170,32,24,19,42,34,9,10,0.8,0.6
2023-08-31T09:00:00,1880A,104.6697,31.4668,绵阳市,高新区自来水公司,颗粒物(PM10),66,82,48,30,26,169,35,15,15,43,39,9,9,0.6,0.4
2023-08-31T09:00:00,1881A,104.7287,31.5075,绵阳市,三水厂,"颗粒物(PM10),细颗粒物(PM2.5)",65,79,51,47,32,156,21,4,4,42,38,8,8,0.9,0.8
2023-08-31T09:00:00,1882A,104.563,28.793,宜宾市,石马中学,,,,,,,,,,,,,,,,
2023-08-31T09:00:00,1883A,104.6201,28.7728,宜宾市,市委,,27,27,31,15,18,141,34,36,32,18,22,7,9,0.6,0.7
2023-08-31T09:00:00,1884A,104.6055,28.793,宜宾市,宜宾四中,,24,24,29,16,18,150,42,50,45,13,18,4,6,0.6,0.7
2023-08-31T09:00:00,1885A,104.639,28.7562,宜宾市,市政府,,36,36,35,20,21,141,33,42,37,23,27,8,8,0.6,0.6
2023-08-31T09:00:00,1886A,104.5742,28.7199,宜宾市,黄金嘴,,21,21,26,11,16,152,41,44,40,11,18,7,7,0.5,0.5
2023-08-31T09:00:00,1888A,101.6891,26.571,攀枝花市,弄弄坪,颗粒物(PM10),53,56,39,33,21,75,8,68,19,26,21,12,10,1.9,1.1
2023-08-31T09:00:00,1889A,101.5769,26.5928,攀枝花市,河门口,,,39,34,20,18,63,,38,26,16,25,11,14,1.2,1.5
2023-08-31T09:00:00,1890A,101.7169,26.585,攀枝花市,炳草岗,颗粒物(PM10),54,58,45,32,26,77,11,12,8,30,33,18,15,1.8,1.3
2023-08-31T09:00:00,1891A,101.7369,26.5008,攀枝花市,仁和,,40,40,34,28,25,78,8,15,8,20,17,6,6,1.0,0.6
2023-08-31T09:00:00,1893A,105.4324,28.9634,泸州市,九狮山,,28,28,29,7,13,94,11,8,7,19,18,7,5,0.5,0.5
2023-08-31T09:00:00,1894A,105.4427,28.9063,泸州市,小市上码头,,45,45,41,20,24,120,25,40,24,20,16,9,9,0.6,0.6
2023-08-31T09:00:00,1895A,105.4241,28.8573,泸州市,兰田宪桥,,40,40,37,28,23,128,30,44,20,13,8,12,6,0.6,0.6
2023-08-31T09:00:00,1896A,105.4379,28.8833,泸州市,市环监站,,46,46,36,24,18,120,15,56,22,27,14,12,9,1.0,0.8
2023-08-31T09:00:00,1901A,104.4239,31.1208,德阳市,东山公园,,45,45,40,8,15,167,35,100,86,14,15,2,2,0.7,0.6
2023-08-31T09:00:00,1902A,104.3826,31.1317,德阳市,西小区,颗粒物(PM10),56,61,50,26,24,198,26,67,17,49,38,8,2,1.0,0.7
2023-08-31T09:00:00,1904A,104.3553,31.1091,德阳市,耐火材料厂,颗粒物(PM10),65,79,52,22,23,212,44,48,26,35,31,7,3,0.8,0.7
2023-08-31T09:00:00,1905A,106.056,30.8064,南充市,西山风景区,细颗粒物(PM2.5),54,52,30,38,25,133,58,74,51,13,9,5,10,0.7,0.6
2023-08-31T09:00:00,1906A,106.0789,30.8023,南充市,南充市委,细颗粒物(PM2.5),58,51,45,41,24,151,68,56,56,18,21,13,12,0.6,0.5
2023-08-31T09:00:00,1907A,106.1031,30.8217,南充市,南充炼油厂,颗粒物(PM10),57,63,46,33,26,165,66,57,57,19,20,14,11,0.7,0.6
2023-08-31T09:00:00,1908A,106.1064,30.7856,南充市,高坪区监测站,颗粒物(PM10),58,65,45,37,32,152,54,49,45,26,21,14,10,0.6,0.5
2023-08-31T09:00:00,1909A,106.0642,30.7636,南充市,嘉陵区环保局,细颗粒物(PM2.5),62,58,47,44,33,152,63,51,51,17,20,10,10,0.5,0.5
2023-08-31T09:00:00,1910A,106.1087,30.8388,南充市,市环境监测站,颗粒物(PM10),59,67,43,39,30,150,61,53,53,28,24,11,9,0.6,0.5
2023-08-31T09:00:00,1911A,106.9222,27.6869,遵义市,丁字口,,21,21,20,11,11,120,38,37,33,24,17,6,5,0.7,0.6
2023-08-31T09:00:00,1912A,106.9242,27.7019,遵义市,凤凰山,,24,24,26,16,17,126,45,42,38,15,10,7,7,0.5,0.5
2023-08-31T09:00:00,1913A,106.8906,27.6486,遵义市,忠庄,,36,36,25,7,15,132,22,24,24,23,16,2,2,0.6,0.5
2023-08-31T09:00:00,1914A,106.9231,27.6506,遵义市,舟水桥,,19,19,26,10,13,131,20,16,12,8,14,1,2,0.6,0.6
2023-08-31T09:00:00,1915A,106.9178,27.72,遵义市,干田坝,,19,19,20,8,13,121,35,26,24,18,13,5,5,0.7,0.6
2023-08-31T09:00:00,1916A,103.7897,25.5035,曲靖市,环境监测站,,27,27,25,16,16,90,48,48,45,18,17,14,8,0.9,0.7
2023-08-31T09:00:00,1917A,103.8,25.5364,曲靖市,烟厂办公区,,33,33,25,15,13,88,46,49,42,16,13,11,6,0.9,0.7
2023-08-31T09:00:00,1918A,108.7197,34.3956,咸阳市,气象站,,,,,,,,,,,,,,,,
2023-08-31T09:00:00,1919A,108.673,34.3155,咸阳市,实验中学,颗粒物(PM10),54,57,49,28,24,215,62,37,21,22,30,9,7,0.7,0.7
2023-08-31T09:00:00,1920A,108.7233,34.3617,咸阳市,师范学院,,,45,46,25,22,206,,41,41,32,33,6,4,0.8,0.7
2023-08-31T09:00:00,1922A,109.0656,35.0994,铜川市,党校,,28,28,40,14,14,153,25,16,10,27,32,8,9,0.7,0.8
2023-08-31T09:00:00,1923A,109.0697,35.0697,铜川市,王益区政府,,33,33,35,15,17,168,38,17,15,24,28,11,8,0.7,0.6
2023-08-31T09:00:00,1924A,108.9344,34.9058,铜川市,新区管委会,,36,36,37,15,17,178,65,77,61,18,19,6,6,0.6,0.6
2023-08-31T09:00:00,1926A,109.4131,36.6275,延安市,枣园,,28,28,27,12,10,151,18,6,6,16,25,6,6,0.6,0.5
2023-08-31T09:00:00,1927A,109.4761,36.6028,延安市,延大医附院,,40,30,25,28,21,149,15,6,6,23,30,4,5,0.4,0.4
2023-08-31T09:00:00,1929A,109.5056,36.6106,延安市,百米大道,细颗粒物(PM2.5),152,28,33,116,43,151,18,16,8,23,29,6,6,0.7,0.7
2023-08-31T09:00:00,1930A,107.185,34.3063,宝鸡市,庙沟村,,17,15,20,6,9,130,52,73,60,15,16,5,5,0.3,0.3
2023-08-31T09:00:00,1931A,107.0708,34.3017,宝鸡市,竹园沟,,18,7,18,8,10,158,57,50,48,12,14,5,5,0.5,0.5
2023-08-31T09:00:00,1932A,107.1906,34.3672,宝鸡市,三陆医院,,26,26,35,12,17,160,46,56,36,25,26,11,11,0.6,0.6
2023-08-31T09:00:00,1933A,107.1431,34.3547,宝鸡市,监测站,,18,17,25,12,12,157,44,73,48,24,23,8,7,0.5,0.4
2023-08-31T09:00:00,1934A,107.1186,34.3739,宝鸡市,技工学校,,26,11,29,18,17,145,49,60,48,15,18,6,6,0.5,0.5
2023-08-31T09:00:00,1935A,107.3906,34.3528,宝鸡市,陈仓区环保局家属楼,,31,31,34,19,15,159,40,54,48,27,27,9,7,0.6,0.5
2023-08-31T09:00:00,1936A,107.2058,34.3497,宝鸡市,文理学院,,29,29,29,17,10,159,47,66,50,21,19,6,6,0.6,0.5
2023-08-31T09:00:00,1937A,107.2386,34.3622,宝鸡市,三迪小学,,37,37,35,20,16,153,36,63,40,25,23,10,8,0.6,0.5
2023-08-31T09:00:00,1938A,109.5293,34.5101,渭南市,农科所,,41,41,38,24,22,188,39,28,28,25,24,5,5,0.5,0.4
2023-08-31T09:00:00,1939A,109.4974,34.4877,渭南市,日报社,颗粒物(PM10),56,61,45,30,24,206,30,21,12,33,39,6,5,0.5,0.5
2023-08-31T09:00:00,1940A,109.4636,34.493,渭南市,体育馆,颗粒物(PM10),62,73,43,34,21,204,34,10,10,41,39,6,5,0.7,0.6
2023-08-31T09:00:00,1941A,109.4259,34.5023,渭南市,高新一小,颗粒物(PM10),59,68,53,34,26,183,22,38,20,33,27,6,5,0.6,0.6
2023-08-31T09:00:00,1943A,102.1725,38.5339,金昌市,新川苑,,,,52,,9,149,,112,112,,15,,9,,0.5
2023-08-31T09:00:00,1944A,102.1692,38.5167,金昌市,天庆家园,颗粒物(PM10),80,110,37,26,13,167,97,110,110,28,20,9,13,0.7,0.7
2023-08-31T09:00:00,1945A,98.2908,39.7711,嘉峪关市,气象局,颗粒物(PM10),137,224,282,92,99,115,66,110,92,28,13,15,34,0.4,0.5
2023-08-31T09:00:00,1947A,106.3394,38.817,石嘴山市,沙湖旅游区,细颗粒物(PM2.5),77,86,57,56,22,181,15,32,15,51,29,42,36,4.0,1.2
2023-08-31T09:00:00,1948A,106.3668,39.0145,石嘴山市,大武口朝阳西街,颗粒物(PM10),68,86,41,39,19,177,22,78,38,65,40,127,30,2.2,0.7
2023-08-31T09:00:00,1949A,106.7704,39.2282,石嘴山市,惠农南大街,颗粒物(PM10),53,56,37,19,16,174,47,69,58,36,31,9,11,0.9,0.6
2023-08-31T09:00:00,1950A,106.7099,39.1325,石嘴山市,红果子镇惠新街,,28,28,28,13,10,172,32,64,46,26,24,17,9,0.5,0.3
2023-08-31T09:00:00,1951A,84.895,45.6094,克拉玛依市,长征新村,,24,24,23,0,5,102,35,88,68,33,14,10,10,0.4,0.3
2023-08-31T09:00:00,1952A,84.8988,45.5893,克拉玛依市,南林小区,,29,29,31,13,13,104,18,76,53,30,20,6,7,0.8,0.4
2023-08-31T09:00:00,1954A,84.905,44.3396,克拉玛依市,独山子区,,26,26,24,10,14,135,38,114,81,23,9,7,11,0.7,0.5
2023-08-31T09:00:00,1955A,85.6979,46.098,克拉玛依市,乌尔禾区商贸楼,,36,36,33,18,6,93,15,43,31,26,10,8,8,0.5,0.3
2023-08-31T09:00:00,1956A,86.1472,41.7538,巴音郭楞州,孔雀公园,颗粒物(PM10),89,128,153,23,43,105,4,67,13,69,27,8,7,1.3,0.4
2023-08-31T09:00:00,1957A,86.1972,41.7166,巴音郭楞州,棉纺厂,颗粒物(PM10),114,177,195,47,63,109,14,68,22,49,25,6,5,0.6,0.4
2023-08-31T09:00:00,1958A,86.2357,41.7173,巴音郭楞州,经济开发区,颗粒物(PM10),103,155,190,27,52,111,28,52,31,36,24,8,7,0.4,0.3
2023-08-31T09:00:00,1961A,117.532,36.6868,济南市,东山小学,颗粒物(PM10),51,51,31,27,13,174,137,115,115,13,19,8,6,0.7,0.5
2023-08-31T09:00:00,1966A,120.0405,35.8735,青岛市,黄岛区4号,颗粒物(PM10),59,68,40,14,16,188,75,82,82,51,26,9,8,0.6,0.5
2023-08-31T09:00:00,1982A,122.0693,37.2174,威海市,文登开发区,,41,41,26,14,9,103,58,18,18,34,16,10,7,1.0,0.8
2023-08-31T09:00:00,2031A,113.1817,27.9958,株洲市,云田中学,,38,38,41,17,23,119,64,60,54,13,13,6,6,0.9,0.9
2023-08-31T09:00:00,2054A,114.1099,32.1059,信阳市,平桥分局,,36,24,29,25,21,148,56,30,27,12,16,2,3,0.7,0.6
2023-08-31T09:00:00,2064A,113.9956,32.1271,信阳市,南湾水厂,,31,31,40,20,20,146,82,86,77,4,7,3,4,0.7,0.7
2023-08-31T09:00:00,2065A,114.0775,32.1195,信阳市,市酿酒公司,,45,41,40,31,27,148,46,25,23,20,20,2,3,0.7,0.6
2023-08-31T09:00:00,2066A,114.0609,32.1399,信阳市,审计局,,36,36,48,18,27,156,42,36,35,26,19,3,4,0.9,0.7
2023-08-31T09:00:00,2067A,114.6613,33.6128,周口市,市环境监测站,细颗粒物(PM2.5),63,53,56,45,37,184,113,68,68,35,34,14,9,0.6,0.6
2023-08-31T09:00:00,2068A,114.6758,33.6347,周口市,周口师范,细颗粒物(PM2.5),64,67,58,46,31,174,119,67,67,14,19,16,6,0.7,0.6
2023-08-31T09:00:00,2069A,114.6546,33.5979,周口市,市运管处,颗粒物(PM10),54,57,64,36,31,174,109,75,75,22,36,13,8,0.6,0.6
2023-08-31T09:00:00,2070A,114.6369,33.6406,周口市,川汇区环保局,,46,46,60,29,29,167,130,57,57,18,25,9,6,0.6,0.7
2023-08-31T09:00:00,2075A,117.6336,24.4674,漳州市,九湖,,,,,,,,,,,,,,,,
2023-08-31T09:00:00,2160A,112.85,35.5051,晋城市,自来水公司,细颗粒物(PM2.5),77,94,74,56,39,204,100,142,61,26,25,10,13,1.3,1.2
2023-08-31T09:00:00,2161A,112.8318,35.4936,晋城市,白云商贸,颗粒物(PM10),63,75,74,44,36,196,108,136,69,22,22,8,12,1.3,1.2
2023-08-31T09:00:00,2162A,112.8508,35.4887,晋城市,市环保局,颗粒物(PM10),78,106,80,56,42,188,93,136,46,28,29,8,11,1.2,1.1
2023-08-31T09:00:00,2163A,112.8676,35.4897,晋城市,技术学院,细颗粒物(PM2.5),79,64,57,58,36,194,113,126,56,22,26,8,11,1.4,1.2
2023-08-31T09:00:00,2165A,112.8453,35.546,晋城市,白马寺,,,,,,,,,,,,,,,,
2023-08-31T09:00:00,2166A,112.4397,39.3522,朔州市,平朔,颗粒物(PM10),66,82,48,27,20,145,64,28,28,50,27,12,9,0.7,0.6
2023-08-31T09:00:00,2167A,112.4575,39.3617,朔州市,朔唯,颗粒物(PM10),76,101,69,27,21,144,57,25,25,50,33,18,13,0.6,0.4
2023-08-31T09:00:00,2168A,112.4258,39.3197,朔州市,区政府,颗粒物(PM10),68,85,48,30,15,136,81,88,53,43,23,31,9,0.9,0.6
2023-08-31T09:00:00,2169A,112.4072,39.3278,朔州市,市环保局,,,,48,,18,150,,94,28,35,26,,11,0.9,0.6
2023-08-31T09:00:00,2170A,112.4272,39.3681,朔州市,市二中,颗粒物(PM10),68,86,58,26,23,145,68,30,30,46,31,15,12,0.7,0.6
2023-08-31T09:00:00,2171A,112.7532,37.6945,晋中市,锦纶小区,,,,40,,13,180,,29,16,30,28,,10,0.7,0.5
2023-08-31T09:00:00,2173A,112.7249,37.7067,晋中市,南都小区,颗粒物(PM10),69,88,49,34,21,180,80,42,34,26,28,17,8,1.2,0.7
2023-08-31T09:00:00,2174A,112.6991,37.6982,晋中市,榆次区政府,颗粒物(PM10),70,89,44,30,19,182,75,51,42,25,25,19,10,1.0,0.5
2023-08-31T09:00:00,2175A,110.9956,35.0147,运城市,运城中学,颗粒物(PM10),52,54,42,28,21,152,71,129,81,15,11,9,6,1.0,0.8
2023-08-31T09:00:00,2178A,110.9686,35.0303,运城市,地区技校,,42,42,48,28,24,148,74,112,71,13,13,6,5,0.6,0.7
2023-08-31T09:00:00,2179A,111.0414,35.1147,运城市,空港新区,细颗粒物(PM2.5),90,102,56,67,32,152,74,78,54,20,22,8,5,1.3,0.8
2023-08-31T09:00:00,2181A,112.7383,38.4519,忻州市,开发区,,48,48,48,28,28,133,36,42,31,24,27,22,14,0.7,0.7
2023-08-31T09:00:00,2182A,112.7003,38.4928,忻州市,会展中心,细颗粒物(PM2.5),53,53,46,37,30,136,41,17,12,28,34,20,13,0.5,0.5
2023-08-31T09:00:00,2183A,111.1406,37.5211,吕梁市,环保局,颗粒物(PM10),64,77,54,22,18,149,42,40,22,26,35,4,3,0.5,0.5
2023-08-31T09:00:00,2185A,111.1297,37.5136,吕梁市,自来水公司,颗粒物(PM10),62,74,49,26,17,145,36,34,25,27,24,6,4,0.5,0.5
2023-08-31T09:00:00,2187A,106.8174,39.6973,乌海市,市林业局,颗粒物(PM10),62,74,50,17,19,172,36,113,69,48,21,28,18,2.2,0.9
2023-08-31T09:00:00,2188A,106.7907,39.6667,乌海市,中海勃湾学校,颗粒物(PM10),57,63,44,21,17,168,51,87,70,40,27,36,25,2.2,0.8
2023-08-31T09:00:00,2191A,122.2532,43.6801,通辽市,艺术职业学校,,18,8,23,12,9,89,50,44,35,10,16,4,5,0.3,0.3
2023-08-31T09:00:00,2192A,119.7594,49.2261,呼伦贝尔市,区环保局,,33,33,27,11,17,61,30,38,18,15,21,4,9,0.5,0.5
2023-08-31T09:00:00,2195A,107.4212,40.761,巴彦淖尔市,附二中,颗粒物(PM10),72,94,54,16,20,126,70,59,45,19,24,14,9,0.5,0.5
2023-08-31T09:00:00,2196A,107.37,40.7372,巴彦淖尔市,市环保大楼,,41,41,41,12,18,122,71,46,42,19,21,4,9,0.5,0.5
2023-08-31T09:00:00,2197A,113.1306,40.9923,乌兰察布市,集宁新区,,,,21,,10,120,,90,76,6,10,11,13,0.3,0.3
2023-08-31T09:00:00,2200A,122.0392,46.0656,兴安盟,胜华新制药厂,,16,11,23,10,11,68,51,56,49,7,7,2,2,0.3,0.3
2023-08-31T09:00:00,2201A,121.9504,46.0741,兴安盟,科右前旗环保局,,19,6,14,13,15,73,54,59,55,5,4,2,3,0.4,0.4
2023-08-31T09:00:00,2202A,116.1042,43.9317,锡林郭勒盟,市环保监测站,,,,12,,5,98,47,51,28,,11,,10,0.3,0.2
2023-08-31T09:00:00,2203A,116.0781,43.9311,锡林郭勒盟,市政府,,19,11,12,2,3,101,60,57,44,10,12,12,12,0.2,0.3
2023-08-31T09:00:00,2204A,105.6467,38.8363,阿拉善盟,西城区西花园,,35,27,28,17,15,192,74,182,117,70,26,8,10,0.7,0.6
2023-08-31T09:00:00,2205A,105.6985,38.8411,阿拉善盟,蒙二幼,,,26,27,9,9,179,,158,120,20,10,7,8,0.3,0.2
2023-08-31T09:00:00,2206A,105.724,38.8516,阿拉善盟,环保局新楼,,35,12,24,8,10,176,111,151,125,10,7,9,10,0.3,0.4
2023-08-31T09:00:00,2207A,121.6094,41.998,阜新市,工业园区,颗粒物(PM10),55,60,44,22,16,108,46,15,15,18,22,9,14,0.8,0.6
2023-08-31T09:00:00,2208A,121.6697,42.0279,阜新市,长青街,颗粒物(PM10),57,63,42,26,19,80,52,15,15,20,23,16,14,0.7,0.6
2023-08-31T09:00:00,2209A,121.6673,42.0705,阜新市,农业园区,,48,48,34,23,27,70,48,42,42,18,16,13,14,1.0,0.9
2023-08-31T09:00:00,2210A,121.6717,42.0224,阜新市,东苑,颗粒物(PM10),60,69,40,25,20,79,53,18,18,15,20,17,24,0.7,0.6
2023-08-31T09:00:00,2211A,121.6506,42.0498,阜新市,玉龙新城,颗粒物(PM10),55,60,38,22,12,73,35,10,10,23,22,10,7,0.8,0.6
2023-08-31T09:00:00,2212A,123.2,41.1953,辽阳市,宏伟区,,23,14,28,10,11,94,71,39,39,8,16,10,7,0.6,0.5
2023-08-31T09:00:00,2213A,123.1683,41.2495,辽阳市,新华园,,31,31,38,11,14,84,49,17,17,23,24,15,11,0.8,0.6
2023-08-31T09:00:00,2214A,123.2354,41.2639,辽阳市,滨河路,,40,40,26,16,12,92,46,32,32,16,18,7,8,0.9,0.7
2023-08-31T09:00:00,2215A,123.149,41.2991,辽阳市,铁西工业园,,32,32,36,17,19,99,55,19,19,28,26,10,8,1.0,0.6
2023-08-31T09:00:00,2216A,123.8139,42.3022,铁岭市,汇工街西,,37,37,22,13,11,94,66,25,25,17,15,17,14,0.7,0.5
2023-08-31T09:00:00,2217A,123.8649,42.2923,铁岭市,水上乐园,,37,37,18,12,7,92,58,30,25,20,16,4,2,0.8,0.5
2023-08-31T09:00:00,2218A,123.8486,42.2867,铁岭市,银州路东段,,25,25,22,8,9,82,63,28,22,17,17,9,7,0.7,0.5
2023-08-31T09:00:00,2219A,123.7153,42.2217,铁岭市,金沙江路北,,26,26,19,12,7,93,60,29,29,24,20,8,7,0.8,0.5
2023-08-31T09:00:00,2220A,120.4318,41.5881,朝阳市,西梁,,46,46,32,25,17,101,18,37,29,28,16,9,8,1.0,0.6
2023-08-31T09:00:00,2221A,120.4521,41.5646,朝阳市,河畔小区,,41,41,29,22,14,106,26,58,37,25,13,9,10,0.9,0.6
2023-08-31T09:00:00,2222A,120.4176,41.5648,朝阳市,八里堡,,30,30,35,21,16,95,25,27,24,22,21,10,10,1.0,0.7
2023-08-31T09:00:00,2223A,120.3806,41.5969,朝阳市,农业园区,,45,45,32,24,17,90,12,25,10,25,22,6,6,1.0,0.7
2023-08-31T09:00:00,2225A,124.4002,43.1713,四平市,一商场,,29,29,21,7,12,77,64,63,50,11,16,9,7,0.2,0.4
2023-08-31T09:00:00,2226A,124.388,43.193,四平市,境园,,22,22,20,4,4,77,56,42,42,15,18,5,3,0.3,0.5
2023-08-31T09:00:00,2227A,125.1358,42.8845,辽源市,环保局,,18,18,16,8,9,88,55,18,18,15,13,7,9,0.5,0.6
2023-08-31T09:00:00,2229A,125.9358,41.7173,通化市,光明,,50,50,26,34,14,79,16,11,7,26,18,64,29,1.8,1.1
2023-08-31T09:00:00,2230A,125.9446,41.7325,通化市,铁路,细颗粒物(PM2.5),53,41,24,37,13,81,11,16,8,40,16,73,23,1.8,1.1
2023-08-31T09:00:00,2231A,126.4219,41.9171,白山市,喜丰,,33,33,23,10,8,73,14,12,12,21,13,8,8,0.6,0.6
2023-08-31T09:00:00,2232A,126.4077,41.9419,白山市,环保局,,40,40,26,21,10,77,12,13,11,23,11,8,7,0.9,0.8
2023-08-31T09:00:00,2233A,124.8006,45.1214,松原市,江南,,17,5,12,7,6,65,53,28,28,5,10,6,6,0.5,0.5
2023-08-31T09:00:00,2234A,124.7965,45.1722,松原市,江北,,18,4,8,2,4,67,55,34,34,4,7,3,3,0.3,0.4
2023-08-31T09:00:00,2235A,122.7911,45.6077,白城市,洮北区环保局,,20,10,8,5,6,77,64,51,51,9,10,4,5,0.1,0.1
2023-08-31T09:00:00,2236A,122.8738,45.5725,白城市,市环保局,,23,11,13,5,3,80,72,72,69,7,7,8,7,0.2,0.2
2023-08-31T09:00:00,2237A,129.47,42.8883,延边朝鲜族自治州,妇幼医院,,16,16,11,6,3,58,30,34,31,8,11,8,8,0.5,0.5
2023-08-31T09:00:00,2238A,129.5055,42.9108,延边朝鲜族自治州,延边医院,颗粒物(PM10),53,56,25,9,7,62,28,51,37,14,11,10,10,0.6,0.6
2023-08-31T09:00:00,2239A,129.3964,42.8881,延边朝鲜族自治州,朝阳川镇医院,,11,11,10,2,3,63,32,34,33,5,6,8,8,0.5,0.5
2023-08-31T09:00:00,2240A,130.9762,45.3001,鸡西市,环保局,,16,16,15,6,7,43,24,23,23,20,13,5,5,0.5,0.4
2023-08-31T09:00:00,2243A,130.9429,45.3039,鸡西市,第一中学,,13,8,14,8,8,57,39,30,30,10,9,6,6,0.2,0.2
2023-08-31T09:00:00,2244A,130.2537,47.3416,鹤岗市,哈啤分公司,,11,11,10,6,8,48,35,39,32,10,8,13,11,0.2,0.2
2023-08-31T09:00:00,2245A,130.2684,47.3086,鹤岗市,斯达机电,,9,9,6,6,6,41,26,34,28,14,6,9,8,0.4,0.4
2023-08-31T09:00:00,2246A,130.3114,47.3388,鹤岗市,东山纸板厂,,13,13,11,6,7,47,29,36,22,12,7,10,10,0.4,0.3
2023-08-31T09:00:00,2247A,130.1097,47.3382,鹤岗市,五号水库,,12,7,9,8,6,52,33,34,26,4,7,12,11,0.2,0.2
2023-08-31T09:00:00,2248A,131.1511,46.6937,双鸭山市,双合村,,26,26,15,10,4,47,27,27,12,9,6,7,6,0.2,0.1
2023-08-31T09:00:00,2249A,131.1652,46.6191,双鸭山市,南小市,,48,48,16,11,7,44,30,25,14,8,6,5,5,0.2,0.3
2023-08-31T09:00:00,2250A,131.1524,46.6554,双鸭山市,环保局,,,23,13,6,8,46,23,23,18,,9,,8,0.4,0.3
2023-08-31T09:00:00,2251A,131.12,46.5656,双鸭山市,苗圃,,,5,7,,8,50,44,23,23,3,5,4,3,0.4,0.4
2023-08-31T09:00:00,2252A,128.5159,47.4311,伊春市,环保局,,14,14,12,5,6,46,30,23,20,8,7,6,6,0.3,0.4
2023-08-31T09:00:00,2253A,128.9102,47.7412,伊春市,电力嘉园,,15,15,11,7,8,49,38,25,24,7,7,6,6,0.5,0.6
2023-08-31T09:00:00,2254A,129.5029,48.471,伊春市,汤旺河国家公园,,25,19,18,17,11,54,44,38,32,1,1,15,15,0.2,0
2023-08-31T09:00:00,2255A,130.2751,46.8028,佳木斯市,佳纺,,18,8,10,4,5,56,56,38,38,5,8,4,3,0.4,0.5
2023-08-31T09:00:00,2256A,130.3995,46.8307,佳木斯市,发电厂,,,7,10,7,6,44,,28,28,,7,,5,0.4,0.5
2023-08-31T09:00:00,2257A,130.3258,46.7975,佳木斯市,环保局,,18,17,14,4,7,57,57,42,42,6,13,4,4,0.3,0.4
2023-08-31T09:00:00,2258A,130.3648,46.8032,佳木斯市,十一中,,,10,12,0,8,54,54,33,33,,14,,6,0.5,0.5
2023-08-31T09:00:00,2259A,130.3794,46.7588,佳木斯市,四丰,,23,7,19,7,13,73,73,42,42,3,4,1,1,0.3,0.3
2023-08-31T09:00:00,2262A,131.0518,45.8751,七台河市,新一中,,18,4,9,7,6,81,56,36,31,4,4,8,7,0.5,0.6
2023-08-31T09:00:00,2263A,127.4833,50.2524,黑河市,交通局,,8,5,5,5,6,59,18,37,27,8,7,4,4,0.5,0.4
2023-08-31T09:00:00,2264A,127.5144,50.2341,黑河市,环保局,,8,7,11,5,6,60,22,37,27,4,4,3,2,0.3,0.3
2023-08-31T09:00:00,2265A,127.5291,50.2472,黑河市,大黑河岛,,,3,8,3,8,,,,,2,2,1,3,0.4,0.4
2023-08-31T09:00:00,2266A,126.9785,46.6365,绥化市,人和东街,,12,8,8,5,4,50,38,42,40,7,7,3,3,0.3,0.3
2023-08-31T09:00:00,2267A,126.964,46.6528,绥化市,党政办公中心,,11,7,7,5,4,50,33,38,36,6,6,7,7,0.3,0.3
2023-08-31T09:00:00,2269A,124.1069,50.4097,大兴安岭地区,科技局,,,10,19,9,10,55,,42,42,4,4,3,3,0.4,0.3
2023-08-31T09:00:00,2270A,117.396,32.939,蚌埠市,工人疗养院,,34,34,54,11,24,159,106,92,64,6,20,4,6,0.4,0.5
2023-08-31T09:00:00,2271A,117.3605,32.9427,蚌埠市,百货大楼,颗粒物(PM10),51,52,57,21,25,169,108,107,81,10,13,5,5,0.4,0.4
2023-08-31T09:00:00,2273A,117.4185,32.8911,蚌埠市,蚌埠学院,,36,36,45,19,26,160,93,75,64,8,14,5,4,0.3,0.4
2023-08-31T09:00:00,2274A,117.3533,32.9673,蚌埠市,淮上区政府,,,,52,,32,155,,84,60,15,23,7,8,0.4,0.4
2023-08-31T09:00:00,2275A,117.3145,32.8977,蚌埠市,高新区,,34,34,44,22,27,166,101,88,71,12,13,6,4,0.5,0.5
2023-08-31T09:00:00,2277A,116.8305,32.7727,淮南市,潘集区政府,颗粒物(PM10),62,73,63,31,33,158,82,62,58,18,17,10,9,0.4,0.5
2023-08-31T09:00:00,2278A,117.0067,32.6524,淮南市,师范学院,颗粒物(PM10),57,64,58,20,28,159,96,99,68,15,12,9,8,0.5,0.5
2023-08-31T09:00:00,2279A,116.8569,32.5951,淮南市,谢家集区政府,,,27,38,16,15,168,93,84,64,,20,,12,0.3,0.3
2023-08-31T09:00:00,2280A,116.8281,32.633,淮南市,八公山区政府,颗粒物(PM10),54,58,54,34,34,162,99,96,68,14,14,7,9,0.4,0.4
2023-08-31T09:00:00,2281A,116.6325,32.6201,淮南市,焦岗湖风景区管理处,,27,27,37,18,23,143,66,61,40,7,15,3,4,0.5,0.4
2023-08-31T09:00:00,2282A,116.8004,33.975,淮北市,监测站,颗粒物(PM10),51,52,48,26,25,166,114,89,76,16,18,6,6,0.7,0.7
2023-08-31T09:00:00,2283A,116.8091,33.9007,淮北市,烈山区政府,颗粒物(PM10),67,83,63,36,33,186,106,67,67,19,21,6,5,0.6,0.6
2023-08-31T09:00:00,2285A,117.8177,30.9412,铜陵市,市第四中学,,32,30,23,22,16,94,67,72,64,14,6,8,5,0.3,0.2
2023-08-31T09:00:00,2286A,117.8059,30.9273,铜陵市,市公路局,,39,37,27,27,18,105,75,74,67,13,9,11,9,0.4,0.4
2023-08-31T09:00:00,2287A,117.7807,30.9413,铜陵市,市新民污水厂,,,39,30,21,14,108,,82,67,19,14,9,4,0.6,0.4
2023-08-31T09:00:00,2288A,117.7439,30.8792,铜陵市,市第九中学,颗粒物(PM10),57,64,43,21,18,112,64,55,55,28,21,16,6,1.7,1.2
2023-08-31T09:00:00,2289A,117.846,30.9413,铜陵市,车站新区,,35,30,25,24,17,103,69,75,59,11,10,5,3,0.3,0.3
2023-08-31T09:00:00,2290A,117.8483,30.97,铜陵市,市职教基地,,33,33,23,11,10,101,68,78,59,10,7,4,3,0.5,0.4
2023-08-31T09:00:00,2291A,117.0809,30.5177,安庆市,环科院,,,31,19,21,15,117,,96,87,17,12,,6,,0.8
2023-08-31T09:00:00,2292A,117.0331,30.5119,安庆市,马山宾馆,,29,28,21,18,15,116,92,102,96,16,14,8,4,0.6,0.5
2023-08-31T09:00:00,2294A,116.9896,30.6145,安庆市,安庆大学,,28,25,22,18,16,121,87,99,86,9,10,5,4,0.6,0.5
2023-08-31T09:00:00,2295A,118.2903,29.6963,黄山市,延安路89号,,26,26,20,7,4,101,69,83,70,4,4,4,4,0.4,0.4
2023-08-31T09:00:00,2296A,118.327,29.7178,黄山市,黄山东路89号,,20,11,10,8,4,95,62,78,64,5,4,3,4,0.5,0.4
2023-08-31T09:00:00,2297A,118.1371,30.2756,黄山市,黄山区政府5号楼,,36,36,20,6,5,105,42,49,42,9,6,6,6,0.4,0.3
2023-08-31T09:00:00,2298A,118.3093,32.3153,滁州市,老年大学,,44,44,37,29,21,136,71,72,52,13,15,5,6,0.4,0.4
2023-08-31T09:00:00,2299A,118.3244,32.2786,滁州市,人大宾馆,,50,42,38,35,26,135,82,54,52,18,17,8,7,0.5,0.5
2023-08-31T09:00:00,2301A,115.8277,32.8929,阜阳市,市监测站,颗粒物(PM10),51,51,43,35,29,162,86,85,49,24,23,10,7,0.6,0.5
2023-08-31T09:00:00,2303A,115.8554,32.8605,阜阳市,开发区,颗粒物(PM10),63,76,51,41,35,158,80,66,45,31,25,10,8,0.6,0.6
2023-08-31T09:00:00,2307A,116.5079,31.737,六安市,监测大楼,,37,37,36,18,15,132,35,56,43,17,9,4,4,0.5,0.4
2023-08-31T09:00:00,2308A,116.4738,31.7643,六安市,皖西学院,,50,50,41,11,15,138,66,68,51,18,11,6,6,0.4,0.3
2023-08-31T09:00:00,2309A,116.4996,31.7905,六安市,朝阳厂,,40,40,30,17,18,138,91,67,59,11,8,8,7,0.6,0.5
2023-08-31T09:00:00,2310A,116.5567,31.7886,六安市,开发区,,40,36,47,28,24,125,43,60,46,12,8,11,7,0.6,0.6
2023-08-31T09:00:00,2311A,115.8072,33.8399,亳州市,污水处理厂,细颗粒物(PM2.5),64,67,51,46,33,170,72,49,49,18,14,10,12,0.8,0.7
2023-08-31T09:00:00,2312A,115.7789,33.8518,亳州市,三国揽胜宫,细颗粒物(PM2.5),58,54,48,41,31,165,98,91,70,17,16,9,10,0.6,0.5
2023-08-31T09:00:00,2314A,117.47,30.6618,池州市,池州学院,,,38,22,25,16,113,,72,51,18,8,22,6,0.6,0.5
2023-08-31T09:00:00,2316A,118.7581,30.9454,宣城市,鳌峰子站,,30,30,21,20,17,92,48,67,54,19,14,4,4,0.7,0.6
2023-08-31T09:00:00,2317A,118.7385,30.9743,宣城市,敬亭山子站,,33,33,21,20,17,91,45,46,43,28,18,8,8,0.4,0.4
2023-08-31T09:00:00,2318A,118.7173,30.9427,宣城市,开发区子站,,31,31,21,20,18,95,54,70,52,17,13,5,5,0.5,0.4
2023-08-31T09:00:00,2319A,119.0141,25.4325,莆田市,荔城区仓后路,,,,15,1,2,58,58,56,56,5,4,8,8,0.9,0.8
2023-08-31T09:00:00,2320A,119.0015,25.4553,莆田市,莆田市监测站,,19,7,15,0,1,58,58,56,56,4,4,6,7,0.5,0.4
2023-08-31T09:00:00,2321A,119.1119,25.4561,莆田市,涵江区六中,,21,5,17,0,2,66,66,62,62,4,4,6,7,0.5,0.5
2023-08-31T09:00:00,2322A,119.1013,25.3215,莆田市,秀屿区政府,,20,14,26,3,6,64,61,61,61,6,4,7,7,0.6,0.6
2023-08-31T09:00:00,2323A,118.981,25.4792,莆田市,东圳水库,,,,,,,,,,,,,,,,
2023-08-31T09:00:00,2324A,117.6211,26.2625,三明市,三钢,,18,18,15,10,11,52,34,30,30,8,8,6,6,0.5,0.4
2023-08-31T09:00:00,2325A,117.635,26.2714,三明市,三明二中,,,1,13,,10,52,39,33,33,8,10,2,2,0.7,0.6
2023-08-31T09:00:00,2326A,117.6028,26.2378,三明市,三元区政府,,11,10,15,2,5,48,33,31,31,10,9,6,7,0.8,0.7
2023-08-31T09:00:00,2327A,117.7275,26.3108,三明市,洋溪,,,,,,,,,,,,,,,,
2023-08-31T09:00:00,2331A,118.0966,26.6761,南平市,茫荡山,,,,,,,,,,,,,,,,
2023-08-31T09:00:00,2332A,118.1681,26.6369,南平市,南平市监测站,,16,13,14,6,5,56,49,31,31,4,5,5,5,0.6,0.5
2023-08-31T09:00:00,2333A,118.1825,26.6489,南平市,南平铝业有限公司,,16,12,13,3,5,56,50,35,35,6,6,3,3,0.6,0.6
2023-08-31T09:00:00,2334A,118.1756,26.6272,南平市,南平七中,,14,6,15,7,6,59,43,23,23,4,4,5,4,0.8,0.6
2023-08-31T09:00:00,2335A,117.0189,25.1181,龙岩市,龙岩师专,,,,,,,,,,,,,,,,
2023-08-31T09:00:00,2336A,117.0217,25.1033,龙岩市,龙岩市监测站,,14,14,13,6,5,49,40,32,32,6,7,3,5,0.4,0.4
2023-08-31T09:00:00,2337A,117.0258,25.0661,龙岩市,闽西职业技术学院,,13,6,13,4,5,46,41,34,34,4,4,4,5,0.4,0.4
2023-08-31T09:00:00,2338A,117.0196,25.0306,龙岩市,龙岩学院,,13,7,11,3,3,44,41,34,34,4,4,6,5,0.3,0.3
2023-08-31T09:00:00,2339A,119.5001,26.6946,宁德市,金涵水库,,,,,,,,,,,,,,,,
2023-08-31T09:00:00,2341A,119.5388,26.6612,宁德市,宁德市监测站,,27,27,17,8,9,78,35,70,46,19,10,6,5,0.7,0.5
2023-08-31T09:00:00,2342A,117.3102,29.3867,景德镇市,王港中学,,15,15,9,2,5,74,48,37,37,3,2,3,3,0.5,0.5
2023-08-31T09:00:00,2343A,117.2117,29.2933,景德镇市,老干部活动中心,,23,14,15,16,11,78,53,58,57,8,6,4,3,0.3,0.3
2023-08-31T09:00:00,2344A,117.1894,29.2789,景德镇市,兽医站,,,,25,,24,79,,59,58,10,6,,5,0.3,0.4
2023-08-31T09:00:00,2345A,117.1547,29.2617,景德镇市,台达陶瓷,,19,13,12,12,7,82,58,63,62,8,6,4,4,0.5,0.4
2023-08-31T09:00:00,2346A,117.2461,29.2956,景德镇市,陶研所,,19,19,27,5,6,76,54,54,54,5,4,8,6,0.3,0.3
2023-08-31T09:00:00,2347A,114.0997,27.5002,萍乡市,武功山,,20,3,11,12,7,99,64,41,41,4,4,11,10,0.5,0.4
2023-08-31T09:00:00,2348A,113.8385,27.6434,萍乡市,中医院,,45,34,32,31,23,95,80,48,48,13,20,22,17,0.6,0.7
2023-08-31T09:00:00,2349A,113.8493,27.6253,萍乡市,市政府车库,,48,38,36,33,22,98,83,67,67,12,13,19,17,0.5,0.7
2023-08-31T09:00:00,2350A,113.8676,27.6435,萍乡市,市环保局,,32,32,32,19,21,111,84,69,69,11,10,17,13,0.5,0.5
2023-08-31T09:00:00,2351A,113.866,27.6198,萍乡市,安源区政府,,,,34,,21,104,86,63,63,,17,11,14,0.9,0.8
2023-08-31T09:00:00,2352A,115.0861,27.9317,新余市,北岗,,22,19,21,14,16,102,69,74,68,6,7,9,11,0.9,0.7
2023-08-31T09:00:00,2353A,114.9886,27.8431,新余市,飞宇,,38,38,37,21,19,104,77,83,68,7,12,6,10,0.3,0.4
2023-08-31T09:00:00,2354A,114.9231,27.8246,新余市,第二水厂,,34,34,34,23,19,110,83,103,87,16,13,12,11,0.6,0.4
2023-08-31T09:00:00,2355A,114.9308,27.8036,新余市,市气象局,,,48,37,24,21,105,77,100,82,,8,11,10,0.6,0.7
2023-08-31T09:00:00,2357A,116.9822,28.1136,鹰潭市,龙虎山,,22,13,15,9,9,79,68,57,57,4,5,8,10,0.3,0.5
2023-08-31T09:00:00,2358A,117.0564,28.2642,鹰潭市,新监测站,,22,22,14,6,5,82,56,54,52,7,4,22,10,0.6,0.5
2023-08-31T09:00:00,2359A,117.0311,28.2475,鹰潭市,财苑宾馆,,20,18,13,11,5,83,63,59,57,7,4,16,11,0.4,0.3
2023-08-31T09:00:00,2360A,117.0222,28.2264,鹰潭市,体育馆,,20,17,18,12,7,82,62,54,52,9,6,11,10,0.4,0.5
2023-08-31T09:00:00,2361A,117.0017,28.2131,鹰潭市,三川水表,,27,27,18,13,8,84,60,56,53,10,8,12,10,0.6,0.6
2023-08-31T09:00:00,2362A,114.9017,25.9149,赣州市,通天岩,,,,,,,,,,,,,,,,
2023-08-31T09:00:00,2363A,114.9367,25.8664,赣州市,地委,,30,27,29,21,18,87,72,84,80,4,4,13,13,0.9,1
2023-08-31T09:00:00,2364A,114.9461,25.8481,赣州市,气象台,,25,16,24,17,19,88,68,87,81,12,9,6,6,0.8,0.8
2023-08-31T09:00:00,2365A,114.9322,25.8333,赣州市,市图书馆,,27,27,35,14,23,82,67,81,76,9,8,5,9,0.9,1
2023-08-31T09:00:00,2366A,114.8905,25.8471,赣州市,华坚鞋城,,28,22,29,19,17,78,63,76,72,8,5,4,2,0.7,0.7
2023-08-31T09:00:00,2367A,114.9754,27.0803,吉安市,红声器材厂,,40,40,34,22,18,96,61,80,72,14,11,6,7,0.7,0.7
2023-08-31T09:00:00,2368A,114.9658,27.0999,吉安市,市森林工业局,,32,32,31,20,18,93,64,83,74,8,6,7,8,0.6,0.4
2023-08-31T09:00:00,2369A,114.99,27.1312,吉安市,市环境监测站,,36,36,30,16,16,93,56,80,70,15,12,13,12,0.6,0.6
2023-08-31T09:00:00,2370A,115.0093,27.0968,吉安市,青原区法院,,34,34,29,21,18,91,55,78,69,18,13,15,15,0.8,0.8
2023-08-31T09:00:00,2371A,114.3408,27.8064,宜春市,槟榔水业,,39,39,35,19,18,91,91,78,78,13,15,1,2,0.6,0.7
2023-08-31T09:00:00,2373A,114.3956,27.7844,宜春市,市石油公司,,39,38,42,27,24,94,77,66,66,14,14,12,5,0.8,0.8
2023-08-31T09:00:00,2374A,114.3703,27.7914,宜春市,市气象局,,45,45,42,30,25,96,88,87,87,18,17,24,7,0.8,0.8
2023-08-31T09:00:00,2375A,114.4013,27.8074,宜春市,市广电局,,,33,38,28,24,98,,89,86,16,14,32,9,,0.8
2023-08-31T09:00:00,2376A,116.2127,28.0814,抚州市,桐源党溪,,21,16,17,8,7,76,65,68,64,3,3,3,3,0.8,0.8
2023-08-31T09:00:00,2377A,116.3544,27.9831,抚州市,市站,,24,24,22,11,12,81,60,62,60,7,6,4,2,0.8,0.8
2023-08-31T09:00:00,2378A,116.3565,27.963,抚州市,血防站,,26,26,29,6,9,82,60,64,62,2,2,1,1,0.8,0.9
2023-08-31T09:00:00,2379A,116.3564,28.0007,抚州市,采茶剧团,,19,18,20,9,10,80,59,61,59,4,3,3,2,0.8,0.9
2023-08-31T09:00:00,2380A,116.385,27.9647,抚州市,医学分院,,20,20,18,5,8,80,60,62,60,2,2,11,8,0.8,0.8
2023-08-31T09:00:00,2381A,118.005,28.4572,上饶市,百草园,,,,,,,,,,,,,,,,
2023-08-31T09:00:00,2382A,117.9756,28.4436,上饶市,市监测站,,24,24,18,8,7,74,71,68,64,10,10,5,11,0.5,0.6
2023-08-31T09:00:00,2383A,117.9519,28.4628,上饶市,凤凰光学,,23,23,16,8,9,72,72,64,64,5,6,13,15,0.4,0.4
2023-08-31T09:00:00,2385A,114.17,35.9019,鹤壁市,市监测站,颗粒物(PM10),57,63,46,39,30,228,76,126,53,36,22,26,8,0.7,0.8
2023-08-31T09:00:00,2386A,114.2956,35.7511,鹤壁市,市交警支队,颗粒物(PM10),63,76,43,42,23,205,75,71,42,25,29,12,9,0.8,1
2023-08-31T09:00:00,2387A,114.2878,35.7306,鹤壁市,迎宾馆,细颗粒物(PM2.5),73,69,47,53,28,203,77,101,37,26,29,14,11,0.9,1.1
2023-08-31T09:00:00,2389A,113.836,35.311,新乡市,环保西院,,,79,52,47,32,162,,45,41,,25,,10,,0.9
2023-08-31T09:00:00,2390A,113.884,35.272,新乡市,开发区,细颗粒物(PM2.5),77,69,38,56,32,170,76,43,43,22,27,8,7,0.8,0.7
2023-08-31T09:00:00,2391A,113.883,35.303,新乡市,环保东院,"颗粒物(PM10),细颗粒物(PM2.5)",65,80,58,47,30,162,82,49,49,22,26,15,9,0.9,1
2023-08-31T09:00:00,2392A,115.0312,35.7636,濮阳市,环保局,细颗粒物(PM2.5),53,51,44,37,34,167,99,79,79,14,18,7,7,0.7,0.7
2023-08-31T09:00:00,2394A,115.0574,35.7609,濮阳市,油田运输公司,,,70,54,41,37,166,99,75,75,16,18,,9,0.7,0.8
2023-08-31T09:00:00,2395A,115.0866,35.7754,濮阳市,油田物探公司,"颗粒物(PM10),细颗粒物(PM2.5)",64,78,57,46,36,166,94,78,66,14,16,6,7,0.6,0.6
2023-08-31T09:00:00,2396A,113.8276,34.0159,许昌市,监测站,,49,43,59,34,34,206,105,112,90,17,20,4,6,0.6,0.6
2023-08-31T09:00:00,2398A,113.7906,33.9953,许昌市,开发区,,46,40,53,32,37,198,79,76,48,17,25,4,4,0.6,0.6
2023-08-31T09:00:00,2399A,114.051,33.5699,漯河市,三五一五工厂,颗粒物(PM10),51,51,51,31,30,188,108,84,71,20,21,10,10,0.6,0.6
2023-08-31T09:00:00,2400A,114.0055,33.5698,漯河市,漯河大学,颗粒物(PM10),54,58,49,36,28,203,115,84,84,20,18,12,6,0.6,0.5
2023-08-31T09:00:00,2401A,114.0138,33.5828,漯河市,市水利局,颗粒物(PM10),54,58,50,31,28,196,119,87,87,16,16,10,9,0.6,0.6
2023-08-31T09:00:00,2402A,114.0261,33.5698,漯河市,市广电局,颗粒物(PM10),56,61,52,35,30,199,112,97,75,18,20,8,7,0.5,0.5
2023-08-31T09:00:00,2404A,112.5224,33.0122,南阳市,瓦房庄,"颗粒物(PM10),细颗粒物(PM2.5)",55,60,42,39,25,161,71,99,58,34,21,6,5,0.7,0.6
2023-08-31T09:00:00,2405A,112.5003,32.9735,南阳市,汉画馆,颗粒物(PM10),56,61,40,38,24,158,70,54,34,46,26,9,8,0.7,0.7
2023-08-31T09:00:00,2406A,112.5573,33.027,南阳市,气象站,颗粒物(PM10),53,56,41,29,21,169,52,90,47,31,22,7,7,0.8,0.7
2023-08-31T09:00:00,2407A,112.5481,32.9689,南阳市,理工学院,颗粒物(PM10),57,63,41,35,24,162,58,86,57,39,22,10,8,0.6,0.5
2023-08-31T09:00:00,2408A,115.6702,34.4285,商丘市,环境监测站,细颗粒物(PM2.5),57,57,53,40,34,166,98,77,77,15,22,8,8,0.9,0.8
2023-08-31T09:00:00,2409A,115.6458,34.4045,商丘市,粮食局,细颗粒物(PM2.5),57,46,42,40,29,162,104,94,93,17,18,8,4,0.7,0.7
2023-08-31T09:00:00,2410A,115.6293,34.3948,商丘市,睢阳区环保局,颗粒物(PM10),59,67,66,34,31,174,93,42,42,21,32,9,8,0.6,0.6
2023-08-31T09:00:00,2420A,114.0189,32.9656,驻马店市,市一纸厂,,42,42,37,22,21,154,98,55,34,26,25,7,6,0.4,0.4
2023-08-31T09:00:00,2421A,114.0114,33.015,驻马店市,市彩印厂,,,46,44,19,20,162,,56,56,11,17,9,7,0.4,0.4
2023-08-31T09:00:00,2422A,113.9976,32.9771,驻马店市,天方二分厂,,41,41,37,16,21,155,116,66,66,13,14,7,5,0.3,0.3
2023-08-31T09:00:00,2423A,115.0601,30.2313,黄石市,沈家营,,,71,45,29,20,130,,79,56,15,13,9,7,0.6,0.6
2023-08-31T09:00:00,2424A,115.0817,30.2006,黄石市,陈家湾,颗粒物(PM10),59,68,41,30,22,122,70,93,55,17,7,8,7,0.6,0.7
2023-08-31T09:00:00,2426A,114.8988,30.2019,黄石市,铁山,,45,44,32,31,21,145,93,88,64,12,10,11,7,0.8,0.7
2023-08-31T09:00:00,2427A,115.0307,30.2092,黄石市,团城山,颗粒物(PM10),57,63,40,25,14,140,78,112,81,18,8,10,7,0.7,0.6
2023-08-31T09:00:00,2428A,111.0419,32.395,十堰市,武当山,,22,16,17,11,9,120,68,84,78,6,6,9,9,0.7,0.7
2023-08-31T09:00:00,2429A,110.78,32.6494,十堰市,滨河新村,,33,33,37,21,21,139,35,37,27,8,17,7,7,0.6,0.6
2023-08-31T09:00:00,2430A,110.7258,32.6389,十堰市,刘家沟,,,25,29,17,17,144,,42,29,5,6,7,7,0.7,0.7
2023-08-31T09:00:00,2431A,110.8839,32.5714,十堰市,铁二处,,31,31,28,12,14,148,56,42,36,8,6,6,5,0.8,0.6
2023-08-31T09:00:00,2432A,112.155,32.0197,襄阳市,襄城运动路,,44,44,48,29,23,155,41,56,44,26,20,13,10,0.7,0.7
2023-08-31T09:00:00,2433A,112.1392,32.0564,襄阳市,樊城新华路,,46,37,47,32,31,155,41,78,43,26,20,12,11,0.6,0.5
2023-08-31T09:00:00,2434A,112.1825,32.1142,襄阳市,高新管委会,,48,47,48,33,34,152,45,68,34,20,23,19,10,0.8,0.8
2023-08-31T09:00:00,2435A,112.2106,32.0903,襄阳市,襄州航空路,,48,48,54,29,28,155,54,48,38,19,20,17,9,0.9,0.9
2023-08-31T09:00:00,2436A,114.8938,30.3994,鄂州市,市政府,颗粒物(PM10),54,58,51,29,23,118,73,46,38,22,22,7,6,0.8,1
2023-08-31T09:00:00,2437A,114.8989,30.3714,鄂州市,赵家坝,颗粒物(PM10),55,60,53,34,23,127,58,56,41,29,25,12,6,0.7,0.7
2023-08-31T09:00:00,2439A,112.2014,31.0481,荆门市,竹园小学,细颗粒物(PM2.5),89,95,50,66,31,171,53,60,54,41,19,21,11,1.1,0.7
2023-08-31T09:00:00,2440A,112.1969,30.9891,荆门市,掇刀,细颗粒物(PM2.5),62,60,48,44,30,157,100,56,56,34,23,15,10,0.8,0.6
2023-08-31T09:00:00,2441A,112.2213,31.0386,荆门市,石化一小,颗粒物(PM10),74,97,52,38,27,172,60,48,47,37,26,21,8,0.8,0.6
2023-08-31T09:00:00,2443A,113.9153,30.9285,孝感市,文化路,颗粒物(PM10),56,61,36,31,27,125,66,75,56,23,13,7,7,0.9,0.8
2023-08-31T09:00:00,2444A,113.942,30.9075,孝感市,东城区,颗粒物(PM10),54,58,40,28,21,132,76,77,40,18,14,10,8,0.8,0.8
2023-08-31T09:00:00,2446A,114.9028,30.4742,黄冈市,职工中心,,50,50,46,30,29,128,77,72,55,4,6,11,11,0.7,0.7
2023-08-31T09:00:00,2447A,114.3175,29.8142,咸宁市,森林公园,,34,34,31,16,18,137,88,92,85,4,4,5,6,0.7,0.7
2023-08-31T09:00:00,2448A,114.3107,29.8454,咸宁市,市发改委,细颗粒物(PM2.5),52,38,32,36,23,152,104,85,85,6,5,10,9,0.5,0.5
2023-08-31T09:00:00,2449A,114.2936,29.8566,咸宁市,咸安区政府,,37,37,31,25,22,136,104,88,88,12,10,10,9,0.6,0.6
2023-08-31T09:00:00,2451A,113.3583,31.7275,随州市,市委党校,颗粒物(PM10),56,61,46,37,31,141,37,54,17,27,14,9,7,1.1,0.8
2023-08-31T09:00:00,2452A,113.3833,31.6908,随州市,市林业局,细颗粒物(PM2.5),52,50,36,36,26,146,40,81,30,24,12,6,5,1.0,0.8
2023-08-31T09:00:00,2453A,113.3983,31.7308,随州市,市立交桥水厂,颗粒物(PM10),52,53,36,34,25,138,62,57,36,32,17,9,9,0.8,0.7
2023-08-31T09:00:00,2454A,109.4978,30.2981,恩施土家族苗族自治州,湖北民院,,34,34,33,15,17,163,28,35,29,8,6,10,10,0.9,0.7
2023-08-31T09:00:00,2455A,109.4707,30.2798,恩施土家族苗族自治州,州电力总公司,,,23,24,28,25,102,,33,18,17,14,,8,0.8,0.8
2023-08-31T09:00:00,2456A,112.5003,26.9167,衡阳市,原169医院,,32,32,30,18,33,104,80,84,69,12,15,4,5,0.6,0.6
2023-08-31T09:00:00,2457A,112.6194,26.9258,衡阳市,衡阳化工总厂,,42,42,46,18,26,120,91,76,74,9,11,13,10,0.8,0.8
2023-08-31T09:00:00,2458A,112.6211,26.8956,衡阳市,珠晖区环保局,,,39,45,,,120,82,78,67,14,16,11,8,0.9,0.8
2023-08-31T09:00:00,2459A,112.6197,26.8733,衡阳市,市委党校,,34,34,43,19,26,133,92,88,74,9,11,11,10,0.9,0.8
2023-08-31T09:00:00,2460A,112.6006,26.8919,衡阳市,市监测站,,50,36,41,35,31,123,93,84,79,12,12,14,9,1.0,1
2023-08-31T09:00:00,2461A,112.5664,26.9056,衡阳市,真空机电公司,,37,37,41,21,25,122,90,90,78,11,10,8,6,0.9,0.8
2023-08-31T09:00:00,2462A,111.5239,27.3033,邵阳市,市水土所,,48,22,26,33,29,113,90,104,83,7,6,9,7,1.0,0.8
2023-08-31T09:00:00,2463A,111.4733,27.2317,邵阳市,市一中,,49,49,37,30,20,133,108,119,113,12,9,7,4,0.5,0.4
2023-08-31T09:00:00,2464A,111.5283,27.2442,邵阳市,市化工厂,,38,38,31,23,21,129,104,116,111,8,6,7,5,0.6,0.4
2023-08-31T09:00:00,2465A,111.4503,27.2537,邵阳市,市罐头厂,细颗粒物(PM2.5),58,53,36,41,24,126,89,115,100,14,8,7,6,0.7,0.5
2023-08-31T09:00:00,2466A,111.4328,27.2272,邵阳市,市环保局,,43,31,32,30,21,130,98,120,102,12,7,8,6,0.6,0.5
2023-08-31T09:00:00,2467A,112.4067,28.6428,益阳市,甘溪港,颗粒物(PM10),51,51,38,7,7,105,57,52,39,12,9,8,5,0.6,0.5
2023-08-31T09:00:00,2468A,112.3458,28.5808,益阳市,市环保局,细颗粒物(PM2.5),74,53,36,54,25,132,65,90,65,15,12,11,8,0.8,0.7
2023-08-31T09:00:00,2469A,112.3437,28.5531,益阳市,市特殊教育学校,细颗粒物(PM2.5),62,52,40,44,28,132,69,84,68,15,12,8,5,0.9,0.8
2023-08-31T09:00:00,2470A,112.3347,28.6047,益阳市,资阳区政务中心,,39,39,35,26,24,128,61,71,56,12,11,8,5,1.1,1
