timepoint,stationcode,longitude,latitude,area,positionname,primarypollutant,aqi,pm10,pm10_24h,pm2_5,pm2_5_24h,o3,o3_24h,o3_8h,o3_8h_24h,no2,no2_24h,so2,so2_24h,co,co_24h
2023-02-17T15:00:00,1001A,116.3621,39.8784,北京市,万寿西宫,细颗粒物(PM2.5),208,203,157,158,116,37,26,16,16,83,81,7,3,1.5,1.2
2023-02-17T15:00:00,1002A,116.2202,40.2915,北京市,定陵,细颗粒物(PM2.5),214,206,142,164,110,51,50,30,30,43,33,4,2,0.9,0.7
2023-02-17T15:00:00,1003A,116.4174,39.9289,北京市,东四,细颗粒物(PM2.5),201,206,160,151,115,41,33,23,23,66,70,7,5,1.1,1
2023-02-17T15:00:00,1004A,116.4072,39.8863,北京市,天坛,细颗粒物(PM2.5),228,215,150,178,124,45,26,19,19,75,65,6,4,1.3,1
2023-02-17T15:00:00,1005A,116.462,39.9365,北京市,农展馆,细颗粒物(PM2.5),202,200,162,152,119,39,25,22,22,70,71,5,4,0.9,0.9
2023-02-17T15:00:00,1006A,116.3392,39.9295,北京市,官园,细颗粒物(PM2.5),217,221,160,167,115,53,53,25,25,54,71,9,6,1.1,1
2023-02-17T15:00:00,1007A,116.2878,39.9611,北京市,海淀万柳,细颗粒物(PM2.5),190,221,152,143,106,196,28,49,14,70,70,5,3,1.1,0.9
2023-02-17T15:00:00,1008A,116.6636,40.135,北京市,顺义新城,细颗粒物(PM2.5),205,190,145,155,107,71,69,38,38,33,55,5,2,0.9,0.8
2023-02-17T15:00:00,1009A,116.6275,40.3275,北京市,怀柔镇,细颗粒物(PM2.5),206,236,154,156,98,71,71,36,36,55,50,6,3,0.9,0.6
2023-02-17T15:00:00,1010A,116.2296,40.217,北京市,昌平镇,细颗粒物(PM2.5),206,205,141,156,102,49,36,22,22,60,45,7,3,1.0,0.8
2023-02-17T15:00:00,1011A,116.3966,39.9821,北京市,奥体中心,细颗粒物(PM2.5),208,201,153,158,113,40,33,21,21,61,67,4,3,1.0,1
2023-02-17T15:00:00,1012A,116.184,39.9136,北京市,古城,细颗粒物(PM2.5),214,220,158,164,112,40,38,22,22,64,64,5,2,1.2,1
2023-02-17T15:00:00,1015A,117.1444,39.1661,天津市,勤俭道,细颗粒物(PM2.5),175,168,183,132,139,82,55,36,36,48,70,11,10,0.9,1.2
2023-02-17T15:00:00,1017A,117.237,39.1082,天津市,大直沽八号路,细颗粒物(PM2.5),160,165,187,122,135,80,60,37,37,44,71,12,11,0.9,1.3
2023-02-17T15:00:00,1018A,117.202,39.0927,天津市,前进道,细颗粒物(PM2.5),160,157,173,122,131,84,65,40,40,42,71,8,8,0.9,1.2
2023-02-17T15:00:00,1019A,117.1837,39.2133,天津市,淮河道,细颗粒物(PM2.5),169,202,223,128,138,87,59,40,40,50,74,11,11,0.8,1.2
2023-02-17T15:00:00,1021A,117.307,39.0877,天津市,跃进路,细颗粒物(PM2.5),152,154,174,116,131,87,61,35,35,42,71,13,12,0.9,1.2
2023-02-17T15:00:00,1023A,117.707,39.0343,天津市,第四大街,细颗粒物(PM2.5),163,165,165,124,114,75,33,32,32,79,86,13,11,0.9,1
2023-02-17T15:00:00,1024A,117.457,38.8394,天津市,永明路,细颗粒物(PM2.5),153,149,136,117,110,86,48,37,37,57,69,16,20,0.8,0.8
2023-02-17T15:00:00,1026A,117.764,39.1587,天津市,汉北路,细颗粒物(PM2.5),170,155,148,129,110,55,7,9,9,95,87,14,11,1.2,1
2023-02-17T15:00:00,1027A,117.157,38.9194,天津市,团泊洼,细颗粒物(PM2.5),152,161,170,116,127,76,56,21,21,38,66,13,9,1.0,1.1
2023-02-17T15:00:00,1029A,114.4422,38.0444,石家庄市,职工医院,细颗粒物(PM2.5),226,194,176,176,132,84,84,36,36,53,70,8,10,1.5,1.6
2023-02-17T15:00:00,1030A,114.6063,38.0266,石家庄市,高新区,细颗粒物(PM2.5),203,231,185,153,124,79,56,32,32,66,60,6,7,1.3,1.3
2023-02-17T15:00:00,1031A,114.4898,38.1328,石家庄市,西北水源,细颗粒物(PM2.5),205,220,200,155,133,77,52,26,26,63,67,4,4,1.2,1.5
2023-02-17T15:00:00,1032A,114.4586,38.0058,石家庄市,西南高教,细颗粒物(PM2.5),241,221,191,191,146,79,78,31,31,42,65,8,10,1.6,1.6
2023-02-17T15:00:00,1033A,114.5331,38.0178,石家庄市,世纪公园,细颗粒物(PM2.5),237,239,187,187,150,83,60,28,28,51,53,6,7,1.8,1.7
2023-02-17T15:00:00,1034A,114.509,38.0457,石家庄市,人民会堂,细颗粒物(PM2.5),238,224,188,188,144,90,65,34,34,51,52,6,8,1.2,1.3
2023-02-17T15:00:00,1035A,114.3524,37.8911,石家庄市,封龙山,细颗粒物(PM2.5),257,253,150,207,110,99,78,74,65,37,48,8,11,,1.5
2023-02-17T15:00:00,1037A,118.131,39.6363,唐山市,雷达站,细颗粒物(PM2.5),163,156,176,124,138,58,58,28,28,58,83,11,13,1.0,1.5
2023-02-17T15:00:00,1038A,118.1725,39.6334,唐山市,物资局,细颗粒物(PM2.5),144,148,183,110,128,71,46,26,26,78,88,17,21,1.1,1.6
2023-02-17T15:00:00,1040A,118.1705,39.6506,唐山市,十二中,细颗粒物(PM2.5),163,156,187,124,146,74,51,24,24,85,84,12,15,1.0,1.6
2023-02-17T15:00:00,1041A,118.1869,39.622,唐山市,小山,细颗粒物(PM2.5),162,147,189,123,137,77,60,31,31,69,94,13,18,1.0,1.5
2023-02-17T15:00:00,1042A,119.5134,39.8207,秦皇岛市,北戴河环保局,细颗粒物(PM2.5),135,126,127,103,104,67,38,32,32,75,71,14,17,1.3,1.6
2023-02-17T15:00:00,1043A,119.7493,40.0116,秦皇岛市,第一关,细颗粒物(PM2.5),183,181,156,138,123,45,45,26,26,64,77,12,13,1.4,1.7
2023-02-17T15:00:00,1044A,119.5897,39.9499,秦皇岛市,监测站,细颗粒物(PM2.5),176,151,157,133,118,67,58,31,31,62,74,16,14,1.3,1.7
2023-02-17T15:00:00,1046A,119.5251,39.9041,秦皇岛市,建设大厦,细颗粒物(PM2.5),124,140,144,94,94,80,80,45,45,52,68,17,17,1.5,1.7
2023-02-17T15:00:00,1048A,114.5302,36.6116,邯郸市,东污水处理厂,细颗粒物(PM2.5),104,98,116,78,86,96,82,43,43,17,37,12,13,0.9,1
2023-02-17T15:00:00,1049A,114.4918,36.5713,邯郸市,矿院,细颗粒物(PM2.5),119,105,112,90,93,96,79,39,39,17,38,10,15,0.8,0.8
2023-02-17T15:00:00,1050A,114.484,36.6133,邯郸市,丛台公园,细颗粒物(PM2.5),108,94,98,81,79,96,80,41,41,15,29,10,9,0.6,0.7
2023-02-17T15:00:00,1051A,115.493,38.8632,保定市,游泳馆,细颗粒物(PM2.5),207,155,167,157,139,69,34,19,19,72,69,16,15,0.9,1
2023-02-17T15:00:00,1052A,115.5213,38.8959,保定市,华电二区,细颗粒物(PM2.5),203,174,157,153,136,63,27,13,13,95,81,10,8,1.5,1.6
2023-02-17T15:00:00,1053A,115.4713,38.9108,保定市,接待中心,细颗粒物(PM2.5),196,162,159,147,126,60,,10,10,72,63,9,7,1.3,1.4
2023-02-17T15:00:00,1054A,115.4612,38.8416,保定市,地表水厂,细颗粒物(PM2.5),159,199,195,121,121,64,30,18,18,74,73,11,11,0.9,1
2023-02-17T15:00:00,1056A,115.5086,38.8639,保定市,监测站,细颗粒物(PM2.5),216,178,172,166,140,66,33,17,17,75,72,7,10,1.3,1.5
2023-02-17T15:00:00,1057A,114.8883,40.8336,张家口市,人民公园,细颗粒物(PM2.5),125,133,94,95,65,85,62,65,62,50,30,12,11,0.9,0.8
2023-02-17T15:00:00,1059A,114.8687,40.8042,张家口市,五金库,细颗粒物(PM2.5),125,98,76,95,70,87,60,56,51,57,48,12,8,0.7,0.7
2023-02-17T15:00:00,1060A,114.8902,40.762,张家口市,世纪豪园,细颗粒物(PM2.5),129,137,113,98,83,94,63,55,47,39,44,10,8,1.0,1.1
2023-02-17T15:00:00,1061A,114.8916,40.8661,张家口市,北泵房,细颗粒物(PM2.5),134,143,102,102,82,92,62,65,64,59,39,14,18,1.3,1.2
2023-02-17T15:00:00,1062A,117.9531,40.9081,承德市,铁路,细颗粒物(PM2.5),156,179,121,119,80,65,65,32,32,51,53,18,13,1.0,1.2
2023-02-17T15:00:00,1063A,117.9392,40.9763,承德市,中国银行,细颗粒物(PM2.5),144,167,116,110,82,90,90,43,43,31,50,12,10,1.0,1.2
2023-02-17T15:00:00,1064A,117.9503,40.928,承德市,开发区,细颗粒物(PM2.5),162,146,128,123,89,81,81,39,39,47,56,13,12,1.1,1.2
2023-02-17T15:00:00,1065A,117.8051,40.9655,承德市,文化中心,细颗粒物(PM2.5),156,156,132,119,90,74,74,36,36,32,52,17,15,1.0,1.2
2023-02-17T15:00:00,1066A,117.9268,41.0026,承德市,离宫,细颗粒物(PM2.5),150,142,106,115,80,92,92,44,44,19,29,15,13,1.0,0.9
2023-02-17T15:00:00,1067A,116.6708,39.5111,廊坊市,药材公司,细颗粒物(PM2.5),199,211,189,149,127,80,26,15,15,86,58,9,9,1.2,1.4
2023-02-17T15:00:00,1068A,116.7214,39.5589,廊坊市,开发区,细颗粒物(PM2.5),216,221,182,166,132,79,20,14,14,115,91,11,11,1.4,1.3
2023-02-17T15:00:00,1070A,116.7244,39.5269,廊坊市,北华航天学院,细颗粒物(PM2.5),220,208,201,170,143,78,27,14,14,97,92,15,15,1.1,1.3
2023-02-17T15:00:00,1071A,116.8842,38.2991,沧州市,沧县城建局,细颗粒物(PM2.5),90,97,132,67,92,104,104,63,63,30,46,14,16,0.8,0.9
2023-02-17T15:00:00,1072A,116.8584,38.3254,沧州市,电视转播站,细颗粒物(PM2.5),83,83,117,61,92,104,104,59,59,24,42,10,13,0.6,0.9
2023-02-17T15:00:00,1073A,116.8709,38.3228,沧州市,市环保局,细颗粒物(PM2.5),102,101,123,76,93,101,101,58,58,31,52,9,10,0.5,0.7
2023-02-17T15:00:00,1074A,115.6838,37.7541,衡水市,电机北厂,细颗粒物(PM2.5),112,102,120,84,89,95,93,58,56,14,27,7,8,0.6,0.7
2023-02-17T15:00:00,1075A,115.6303,37.7316,衡水市,市监测站,细颗粒物(PM2.5),110,119,133,83,93,93,91,55,52,15,30,19,17,0.3,0.4
2023-02-17T15:00:00,1077A,114.4704,37.0886,邢台市,达活泉,细颗粒物(PM2.5),214,194,139,164,113,86,43,33,28,65,46,16,11,1.7,1.2
2023-02-17T15:00:00,1078A,114.5062,37.0349,邢台市,邢师高专,细颗粒物(PM2.5),183,153,123,138,100,88,53,26,26,45,54,12,7,1.3,0.9
2023-02-17T15:00:00,1079A,114.5237,37.0851,邢台市,路桥公司,细颗粒物(PM2.5),192,175,139,144,106,90,54,25,25,53,55,13,11,1.6,1.2
2023-02-17T15:00:00,1080A,114.4725,37.0719,邢台市,市环保局,细颗粒物(PM2.5),216,198,144,166,112,89,45,30,30,65,47,15,10,1.5,1.2
2023-02-17T15:00:00,1081A,112.522,37.8873,太原市,尖草坪,细颗粒物(PM2.5),180,178,169,136,126,87,86,42,42,45,65,19,9,1.5,1.4
2023-02-17T15:00:00,1083A,112.434,38.0108,太原市,上兰,,,,,,,,,,,,,,,,
2023-02-17T15:00:00,1084A,112.469,37.7124,太原市,晋源,细颗粒物(PM2.5),142,133,184,108,149,92,90,50,50,32,62,12,11,1.2,1.6
2023-02-17T15:00:00,1085A,112.5583,37.7394,太原市,小店,细颗粒物(PM2.5),190,194,184,143,135,94,69,37,37,55,67,19,16,1.7,1.7
2023-02-17T15:00:00,1086A,112.5369,37.8692,太原市,桃园,细颗粒物(PM2.5),180,171,170,136,133,90,87,38,38,44,67,18,10,1.5,1.6
2023-02-17T15:00:00,1087A,112.57,37.8195,太原市,坞城,细颗粒物(PM2.5),186,186,167,140,126,91,86,45,45,49,67,20,15,1.8,1.7
2023-02-17T15:00:00,1088A,112.549,37.9854,太原市,南寨,细颗粒物(PM2.5),211,183,156,161,122,102,102,50,50,43,59,12,7,1.3,1.3
2023-02-17T15:00:00,1090A,111.6507,40.7517,呼和浩特市,呼市一监,细颗粒物(PM2.5),119,102,111,90,83,106,76,41,41,27,52,18,13,0.8,0.9
2023-02-17T15:00:00,1091A,111.6572,40.8033,呼和浩特市,小召,细颗粒物(PM2.5),119,122,118,90,72,98,69,34,34,42,66,25,24,1.0,1
2023-02-17T15:00:00,1094A,111.7516,40.8369,呼和浩特市,如意水处理厂,细颗粒物(PM2.5),113,134,119,85,72,113,88,43,43,30,60,23,16,0.9,0.9
2023-02-17T15:00:00,1095A,111.7276,40.8062,呼和浩特市,二十九中,细颗粒物(PM2.5),119,120,122,90,78,103,77,38,38,29,54,19,14,0.9,0.9
2023-02-17T15:00:00,1096A,111.5512,40.7866,呼和浩特市,工大金川校区,细颗粒物(PM2.5),143,154,113,109,70,108,68,36,36,33,54,22,16,1.0,0.9
2023-02-17T15:00:00,1097A,111.717,40.7612,呼和浩特市,化肥厂生活区,细颗粒物(PM2.5),112,127,126,84,78,111,79,50,50,32,54,19,15,0.8,1
2023-02-17T15:00:00,1098A,123.6836,41.9339,沈阳市,森林路,,,,,,,,,,,,,,,,
2023-02-17T15:00:00,1099A,123.505,41.7406,沈阳市,浑南东路,细颗粒物(PM2.5),183,173,120,138,82,65,60,57,48,44,43,20,18,1.5,1.3
2023-02-17T15:00:00,1100A,123.4231,41.6989,沈阳市,新秀街,细颗粒物(PM2.5),206,208,144,156,87,69,68,66,54,42,36,15,19,1.3,1.2
2023-02-17T15:00:00,1102A,123.5903,41.8411,沈阳市,东陵路,细颗粒物(PM2.5),173,158,111,131,82,73,73,52,52,39,43,20,20,1.2,1.3
2023-02-17T15:00:00,1103A,123.4264,41.8467,沈阳市,陵东街,细颗粒物(PM2.5),203,196,130,153,84,72,60,70,55,56,41,22,21,1.4,1.1
2023-02-17T15:00:00,1104A,123.4114,41.7653,沈阳市,文化路,细颗粒物(PM2.5),210,208,139,160,91,75,74,66,62,39,32,15,19,1.3,1.2
2023-02-17T15:00:00,1105A,123.4678,41.7867,沈阳市,小河沿,细颗粒物(PM2.5),192,196,126,144,78,77,77,65,56,42,44,15,19,1.2,1.2
2023-02-17T15:00:00,1106A,123.4017,41.7972,沈阳市,太原街,细颗粒物(PM2.5),218,197,135,168,102,68,51,66,43,61,44,20,21,1.5,1.2
2023-02-17T15:00:00,1108A,123.3783,41.9228,沈阳市,京沈街,细颗粒物(PM2.5),199,139,107,149,87,73,65,69,50,43,41,17,21,1.3,1.1
2023-02-17T15:00:00,1109A,121.612,38.9741,大连市,甘井子,细颗粒物(PM2.5),112,126,106,84,64,72,64,55,52,51,47,13,11,0.8,0.8
2023-02-17T15:00:00,1110A,121.565,38.9511,大连市,周水子,细颗粒物(PM2.5),99,129,120,74,66,71,63,49,49,47,52,17,21,1.0,0.9
2023-02-17T15:00:00,1111A,121.5637,38.8845,大连市,星海三站,细颗粒物(PM2.5),78,74,75,57,52,67,67,56,56,33,33,4,5,0.7,0.7
2023-02-17T15:00:00,1112A,121.6302,38.9117,大连市,青泥洼桥,细颗粒物(PM2.5),88,94,70,65,57,89,87,71,71,30,34,15,17,0.8,0.9
2023-02-17T15:00:00,1113A,121.6251,38.8638,大连市,傅家庄,细颗粒物(PM2.5),74,79,73,54,49,86,86,77,77,26,26,7,8,0.8,0.8
2023-02-17T15:00:00,1114A,121.5213,38.8661,大连市,七贤岭,细颗粒物(PM2.5),90,83,73,67,61,84,84,56,56,30,42,11,9,0.7,0.9
2023-02-17T15:00:00,1115A,121.2529,38.8061,大连市,旅顺,细颗粒物(PM2.5),89,76,69,66,62,85,85,66,66,20,28,9,9,0.8,0.8
2023-02-17T15:00:00,1116A,121.7485,39.1311,大连市,金州,细颗粒物(PM2.5),128,129,85,97,63,79,67,56,51,60,55,18,18,1.0,1
2023-02-17T15:00:00,1117A,121.7811,39.0496,大连市,开发区,细颗粒物(PM2.5),83,73,56,61,50,72,67,57,57,40,42,11,11,0.5,0.7
2023-02-17T15:00:00,1118A,121.9762,39.0631,大连市,双D港,细颗粒物(PM2.5),82,69,56,60,50,86,69,70,70,46,36,11,11,0.7,0.7
2023-02-17T15:00:00,1119A,125.3325,43.9166,长春市,食品厂,,35,34,96,24,67,75,75,58,58,18,38,5,15,0.3,0.9
2023-02-17T15:00:00,1120A,125.2863,43.9027,长春市,客车厂,,43,43,90,23,69,77,77,62,59,16,40,6,18,0.3,0.8
2023-02-17T15:00:00,1121A,125.2841,43.8463,长春市,邮电学院,,30,30,94,20,68,82,82,68,60,17,42,10,20,0.3,0.9
2023-02-17T15:00:00,1122A,125.3716,43.8772,长春市,劳动公园,,42,42,83,19,59,81,80,77,77,18,40,11,21,0.3,0.8
2023-02-17T15:00:00,1123A,125.3297,43.8805,长春市,园林处,,42,42,85,22,60,71,66,64,51,28,43,8,21,0.3,0.9
2023-02-17T15:00:00,1124A,125.4605,43.79,长春市,净月潭,,40,40,82,15,41,83,83,63,59,10,20,5,8,0.4,1
2023-02-17T15:00:00,1125A,125.7194,43.515,长春市,甩湾子,,,,,,,,,,,,,,,,
2023-02-17T15:00:00,1126A,125.3863,43.8447,长春市,经开区环卫处,,35,27,88,24,63,77,75,56,55,19,35,10,14,0.4,1
2023-02-17T15:00:00,1127A,125.245,43.7783,长春市,高新区管委会,,41,41,86,27,80,86,86,65,60,12,33,6,12,0.3,0.9
2023-02-17T15:00:00,1128A,125.1761,43.8325,长春市,岱山公园,,30,30,89,20,67,78,78,61,58,10,38,5,11,0.3,1
2023-02-17T15:00:00,1129A,126.5422,45.755,哈尔滨市,岭北,细颗粒物(PM2.5),55,43,122,39,84,104,102,84,84,13,26,6,20,0.5,1
2023-02-17T15:00:00,1130A,126.561,45.8167,哈尔滨市,松北商大,细颗粒物(PM2.5),57,59,108,40,78,109,109,84,84,21,36,6,12,0.5,0.9
2023-02-17T15:00:00,1131A,126.979,45.5419,哈尔滨市,阿城会宁,细颗粒物(PM2.5),67,71,81,48,58,107,102,77,77,19,23,12,16,0.4,0.8
2023-02-17T15:00:00,1132A,126.599,45.7222,哈尔滨市,南岗学府路,颗粒物(PM10),66,82,124,34,76,100,99,78,78,18,41,15,24,0.8,0.8
2023-02-17T15:00:00,1133A,126.689,45.7733,哈尔滨市,太平宏伟公园,颗粒物(PM10),54,57,118,33,71,104,102,79,79,20,43,5,13,0.2,1
2023-02-17T15:00:00,1134A,126.635,45.7667,哈尔滨市,道外承德广场,颗粒物(PM10),62,73,112,31,77,99,95,76,76,22,40,10,16,0.5,1
2023-02-17T15:00:00,1135A,126.685,45.7319,哈尔滨市,香坊红旗大街,细颗粒物(PM2.5),64,69,116,46,91,89,88,67,67,23,48,20,29,0.6,1.1
2023-02-17T15:00:00,1136A,126.6411,45.7258,哈尔滨市,动力和平路,颗粒物(PM10),55,59,112,34,81,92,92,69,69,20,45,11,20,0.5,1
2023-02-17T15:00:00,1137A,126.593,45.7478,哈尔滨市,道里建国路,细颗粒物(PM2.5),65,67,116,47,88,92,92,72,72,23,44,11,19,0.4,0.9
2023-02-17T15:00:00,1138A,126.615,45.61,哈尔滨市,平房东轻厂,细颗粒物(PM2.5),54,48,102,38,69,106,94,75,75,17,27,11,14,0.4,0.9
2023-02-17T15:00:00,1139A,126.595,45.9855,哈尔滨市,呼兰师专,细颗粒物(PM2.5),74,73,119,54,88,101,98,74,74,26,40,14,20,0.5,0.9
2023-02-17T15:00:00,1140A,126.6206,45.6842,哈尔滨市,省农科院,细颗粒物(PM2.5),59,58,125,42,76,104,102,78,78,14,41,14,22,0.4,1
2023-02-17T15:00:00,1141A,121.4,31.238,上海市,普陀,,49,49,42,33,26,80,72,80,58,41,36,12,6,0.7,0.7
2023-02-17T15:00:00,1142A,121.478,31.2036,上海市,十五厂,,37,37,39,25,26,74,66,64,50,40,39,8,6,0.7,0.7
2023-02-17T15:00:00,1143A,121.467,31.3008,上海市,虹口,颗粒物(PM10),54,58,45,33,27,82,71,79,54,36,30,6,6,0.6,0.6
2023-02-17T15:00:00,1144A,121.412,31.1654,上海市,徐汇上师大,,,48,40,20,23,72,67,61,44,39,40,14,9,,0.7
2023-02-17T15:00:00,1145A,121.536,31.2659,上海市,杨浦四漂,,46,46,43,28,27,80,74,70,52,34,38,8,7,0.5,0.5
2023-02-17T15:00:00,1147A,121.425,31.2261,上海市,静安监测站,颗粒物(PM10),53,56,48,29,26,79,70,79,54,45,39,12,8,0.8,0.7
2023-02-17T15:00:00,1148A,121.703,31.1907,上海市,浦东川沙,,47,47,35,25,23,83,75,64,54,25,25,6,5,0.5,0.5
2023-02-17T15:00:00,1149A,121.533,31.2284,上海市,浦东新区监测站,,,,44,,28,76,66,71,50,23,28,6,6,,0.7
2023-02-17T15:00:00,1150A,121.577,31.2071,上海市,浦东张江,,,,34,19,19,74,74,69,53,25,29,5,4,,0.7
2023-02-17T15:00:00,1151A,118.8086,32.1065,南京市,迈皋桥,颗粒物(PM10),70,90,73,46,40,118,57,58,44,36,30,5,5,0.4,0.4
2023-02-17T15:00:00,1152A,118.7538,32.0551,南京市,草场门,颗粒物(PM10),65,80,72,36,34,99,50,55,42,43,38,5,5,0.5,0.5
2023-02-17T15:00:00,1153A,118.7794,32.0745,南京市,山西路,细颗粒物(PM2.5),64,75,66,46,40,118,54,63,49,37,29,4,4,0.4,0.5
2023-02-17T15:00:00,1154A,118.7752,32.0023,南京市,中华门,细颗粒物(PM2.5),62,70,63,44,36,107,50,47,44,43,36,7,8,0.8,0.8
2023-02-17T15:00:00,1155A,118.8109,32.0309,南京市,瑞金路,,,,68,,36,105,47,52,42,36,37,7,5,0.3,0.6
2023-02-17T15:00:00,1156A,118.7997,32.0754,南京市,玄武湖,细颗粒物(PM2.5),80,83,69,59,47,108,51,58,47,36,26,5,4,0.4,0.4
2023-02-17T15:00:00,1157A,118.6414,32.0931,南京市,浦口,颗粒物(PM10),66,81,77,44,39,104,50,56,36,50,47,5,4,0.7,0.6
2023-02-17T15:00:00,1158A,118.7356,31.9996,南京市,奥体中心,颗粒物(PM10),68,86,78,36,36,105,47,49,42,55,49,6,6,0.7,0.8
2023-02-17T15:00:00,1159A,118.9125,32.1028,南京市,仙林大学城,细颗粒物(PM2.5),62,66,63,44,40,113,64,48,48,33,38,6,6,0.5,0.5
2023-02-17T15:00:00,1160A,120.561,31.2472,苏州市,上方山,细颗粒物(PM2.5),77,81,53,56,39,75,70,62,46,38,33,9,7,0.6,0.5
2023-02-17T15:00:00,1162A,120.591,31.3019,苏州市,彩香,,,,59,,38,78,78,70,59,40,32,8,6,0.7,0.6
2023-02-17T15:00:00,1163A,120.596,31.3264,苏州市,轧钢厂,,,124,67,58,34,72,72,66,57,38,28,,6,,0.7
2023-02-17T15:00:00,1164A,120.613,31.2703,苏州市,吴中区,细颗粒物(PM2.5),69,80,58,50,34,75,75,66,58,52,39,9,7,0.6,0.5
2023-02-17T15:00:00,1165A,120.543,31.2994,苏州市,苏州新区,细颗粒物(PM2.5),70,73,53,51,36,78,67,72,50,42,28,10,8,0.7,0.6
2023-02-17T15:00:00,1166A,120.669,31.3097,苏州市,苏州工业园区,细颗粒物(PM2.5),79,84,61,58,42,75,75,69,61,37,32,10,8,0.5,0.5
2023-02-17T15:00:00,1167A,120.641,31.3708,苏州市,相城区,"颗粒物(PM10),细颗粒物(PM2.5)",67,84,62,48,34,72,68,64,52,44,37,9,7,0.6,0.5
2023-02-17T15:00:00,1168A,120.9098,31.9663,南通市,狼山街道,颗粒物(PM10),52,54,45,35,26,100,34,93,40,66,33,9,6,0.6,0.4
2023-02-17T15:00:00,1169A,120.86,32.0005,南通市,虹桥,颗粒物(PM10),58,65,56,35,31,100,36,94,35,62,38,8,6,0.6,0.4
2023-02-17T15:00:00,1170A,120.87,32.02,南通市,城中,颗粒物(PM10),56,61,51,39,33,92,36,88,38,62,35,10,7,0.5,0.4
2023-02-17T15:00:00,1171A,120.94,31.93,南通市,星湖花园,颗粒物(PM10),56,61,46,31,26,99,27,86,34,64,28,8,5,0.4,0.3
2023-02-17T15:00:00,1172A,120.81,32.0417,南通市,紫琅学院,颗粒物(PM10),65,79,63,39,30,90,26,87,28,66,37,10,6,0.4,0.3
2023-02-17T15:00:00,1173A,119.176,34.5885,连云港市,市环境监测站,颗粒物(PM10),62,73,59,41,38,94,86,54,52,18,22,9,9,0.3,0.3
2023-02-17T15:00:00,1177A,117.179,34.2761,徐州市,黄河新村,细颗粒物(PM2.5),77,83,81,56,60,112,93,82,58,22,28,12,11,0.8,0.8
2023-02-17T15:00:00,1178A,117.1918,34.2384,徐州市,淮塔,细颗粒物(PM2.5),67,76,96,48,63,110,104,83,58,26,32,9,9,0.7,0.8
2023-02-17T15:00:00,1180A,117.256,34.2153,徐州市,新城区,细颗粒物(PM2.5),84,68,85,62,72,115,103,81,65,20,26,11,10,0.8,0.8
2023-02-17T15:00:00,1181A,117.244,34.2911,徐州市,桃园路,细颗粒物(PM2.5),79,85,93,58,63,108,93,68,58,20,28,9,9,0.8,0.8
2023-02-17T15:00:00,1182A,117.2933,34.2778,徐州市,农科院,细颗粒物(PM2.5),67,80,89,48,59,115,100,66,62,14,28,9,10,0.7,0.7
2023-02-17T15:00:00,1186A,119.389,32.3761,扬州市,邗江监测站,细颗粒物(PM2.5),105,102,80,79,56,99,29,22,20,70,57,7,7,0.7,0.8
2023-02-17T15:00:00,1188A,120.269,31.4867,无锡市,雪浪,细颗粒物(PM2.5),62,63,60,44,33,92,92,51,51,25,38,10,9,0.4,0.5
2023-02-17T15:00:00,1189A,120.275,31.6219,无锡市,黄巷,颗粒物(PM10),63,75,70,39,32,61,58,30,30,47,61,7,7,0.8,0.7
2023-02-17T15:00:00,1190A,120.294,31.56,无锡市,曹张,颗粒物(PM10),65,79,60,44,32,78,78,46,40,34,40,7,7,0.5,0.5
2023-02-17T15:00:00,1191A,120.242,31.5031,无锡市,漆塘,"颗粒物(PM10),细颗粒物(PM2.5)",58,66,56,41,33,108,93,55,55,20,30,10,9,0.6,0.6
2023-02-17T15:00:00,1192A,120.3489,31.5863,无锡市,东亭,颗粒物(PM10),63,75,60,41,33,79,72,38,35,38,46,11,10,0.8,0.8
2023-02-17T15:00:00,1193A,120.354,31.5475,无锡市,旺庄,颗粒物(PM10),59,68,56,39,32,79,78,44,37,40,47,5,5,0.5,0.5
2023-02-17T15:00:00,1194A,120.245,31.5631,无锡市,荣巷,细颗粒物(PM2.5),58,61,59,41,32,101,90,46,46,27,37,12,11,0.5,0.6
2023-02-17T15:00:00,1195A,120.299,31.6817,无锡市,堰桥,颗粒物(PM10),63,75,60,41,31,65,38,32,26,54,38,8,7,0.8,0.8
2023-02-17T15:00:00,1196A,119.9633,31.762,常州市,市监测站,细颗粒物(PM2.5),78,93,85,57,50,75,75,44,44,43,59,7,7,0.5,0.7
2023-02-17T15:00:00,1200A,119.9468,31.7069,常州市,武进监测站,"颗粒物(PM10),细颗粒物(PM2.5)",73,95,79,53,44,81,72,51,51,37,47,10,8,0.6,0.6
2023-02-17T15:00:00,1201A,119.9255,31.9087,常州市,安家,细颗粒物(PM2.5),79,98,77,58,48,97,52,36,36,52,45,9,9,0.7,0.7
2023-02-17T15:00:00,1203A,119.6707,32.1875,镇江市,新区办事处,细颗粒物(PM2.5),100,119,88,75,54,101,34,27,25,62,56,5,5,0.8,0.8
2023-02-17T15:00:00,1204A,119.4974,32.1968,镇江市,职教中心,细颗粒物(PM2.5),105,100,75,79,54,109,40,37,31,61,53,11,9,1.0,0.8
2023-02-17T15:00:00,1205A,119.4303,32.1328,镇江市,丹徒区监测站,细颗粒物(PM2.5),95,107,91,71,59,105,53,30,28,35,52,4,7,0.5,0.8
2023-02-17T15:00:00,1206A,119.905,32.4878,泰州市,公园路,细颗粒物(PM2.5),89,92,61,66,44,108,40,56,36,46,25,10,7,1.0,0.8
2023-02-17T15:00:00,1207A,119.9189,32.4625,泰州市,莲花,细颗粒物(PM2.5),92,95,62,68,48,107,40,57,37,49,26,11,8,1.0,0.8
2023-02-17T15:00:00,1209A,119.888,32.4639,泰州市,留学生创业园,,,109,74,64,44,105,38,55,36,53,29,,8,0.8,0.6
2023-02-17T15:00:00,1210A,119.036,33.5981,淮安市,钵池山,细颗粒物(PM2.5),102,73,54,76,51,104,79,68,49,24,24,8,7,0.8,0.7
2023-02-17T15:00:00,1211A,119.007,33.575,淮安市,北京南路,细颗粒物(PM2.5),80,78,61,59,42,103,70,59,38,32,32,10,10,0.9,0.8
2023-02-17T15:00:00,1212A,118.989,33.6067,淮安市,市监测站,细颗粒物(PM2.5),85,78,61,63,44,106,77,67,45,32,31,9,9,1.0,0.9
2023-02-17T15:00:00,1213A,119.135,33.5039,淮安市,楚州区监测站,细颗粒物(PM2.5),89,81,58,66,46,105,68,63,43,26,30,9,7,0.9,0.7
2023-02-17T15:00:00,1214A,119.0186,33.6297,淮安市,淮阴区监测站,细颗粒物(PM2.5),105,89,67,79,53,101,79,66,46,27,29,12,10,0.8,0.7
2023-02-17T15:00:00,1215A,120.118,33.4022,盐城市,盐城电厂,"颗粒物(PM10),细颗粒物(PM2.5)",52,53,45,36,29,132,94,92,67,21,17,9,8,0.6,0.5
2023-02-17T15:00:00,1216A,120.156,33.3942,盐城市,市监测站,,49,46,42,34,27,125,91,87,65,19,17,9,7,0.5,0.5
2023-02-17T15:00:00,1218A,120.2144,33.38,盐城市,开发区管委会,,48,48,53,29,29,129,91,82,61,18,20,4,5,0.6,0.6
2023-02-17T15:00:00,1220A,118.293,33.9528,宿迁市,宿迁学院,细颗粒物(PM2.5),108,106,89,81,63,109,95,65,56,27,31,11,9,0.6,0.6
2023-02-17T15:00:00,1221A,118.2442,33.9592,宿迁市,宿迁中学,细颗粒物(PM2.5),100,116,90,75,59,118,96,66,57,29,26,11,10,0.6,0.5
2023-02-17T15:00:00,1223A,120.2072,30.2111,杭州市,滨江,细颗粒物(PM2.5),58,60,67,41,38,92,64,60,39,44,46,10,9,0.7,0.7
2023-02-17T15:00:00,1224A,120.0633,30.2747,杭州市,西溪,细颗粒物(PM2.5),68,78,77,49,47,94,72,69,43,41,38,7,5,0.6,0.5
2023-02-17T15:00:00,1226A,120.3461,30.3153,杭州市,下沙,细颗粒物(PM2.5),77,90,83,56,52,107,79,66,41,40,45,8,8,0.6,0.5
2023-02-17T15:00:00,1227A,120.1269,30.2456,杭州市,卧龙桥,细颗粒物(PM2.5),68,72,65,49,45,92,65,63,38,43,37,8,7,0.7,0.6
2023-02-17T15:00:00,1228A,120.1903,30.2692,杭州市,浙江农大,细颗粒物(PM2.5),68,69,78,49,52,93,69,64,36,45,45,8,7,0.7,0.6
2023-02-17T15:00:00,1230A,120.1197,30.3119,杭州市,和睦小学,细颗粒物(PM2.5),80,86,79,59,53,93,63,60,42,47,42,6,6,0.6,0.5
2023-02-17T15:00:00,1231A,120.3019,30.4183,杭州市,临平镇,细颗粒物(PM2.5),79,99,78,58,48,106,56,74,30,52,36,9,8,0.6,0.5
2023-02-17T15:00:00,1232A,120.2697,30.1819,杭州市,城厢镇,颗粒物(PM10),70,90,85,50,53,92,58,56,38,44,41,10,9,0.6,0.5
2023-02-17T15:00:00,1233A,120.0883,30.1808,杭州市,云栖,细颗粒物(PM2.5),68,82,68,49,42,97,62,41,36,56,41,7,6,0.7,0.6
2023-02-17T15:00:00,1234A,121.8358,29.911,宁波市,区环保大楼,,29,28,33,17,22,113,90,84,70,24,37,5,5,0.4,0.6
2023-02-17T15:00:00,1235A,121.56,29.82,宁波市,万里学院,,40,37,49,28,26,129,95,85,71,28,31,6,7,0.4,0.6
2023-02-17T15:00:00,1236A,121.713,29.9572,宁波市,龙赛医院,颗粒物(PM10),54,57,48,28,26,107,66,77,51,63,41,11,6,0.6,0.5
2023-02-17T15:00:00,1239A,121.633,29.7733,宁波市,钱湖水厂,,31,27,28,16,19,151,99,86,86,13,13,6,6,0.6,0.6
2023-02-17T15:00:00,1240A,121.5856,29.8635,宁波市,太古小学,,29,29,47,18,28,98,85,77,71,20,25,8,9,0.4,0.5
2023-02-17T15:00:00,1241A,121.524,29.8674,宁波市,市环境监测中心,,,36,43,18,23,99,84,82,64,29,33,6,6,,0.3
2023-02-17T15:00:00,1242A,120.634,28.0089,温州市,瓯海,颗粒物(PM10),56,62,71,36,42,113,55,48,48,45,42,8,7,0.4,0.4
2023-02-17T15:00:00,1243A,120.6748,27.9939,温州市,南浦,颗粒物(PM10),56,61,65,35,45,120,54,44,44,44,39,7,6,0.5,0.4
2023-02-17T15:00:00,1244A,120.76,27.9747,温州市,龙湾,颗粒物(PM10),59,67,68,33,36,119,54,38,38,61,48,12,8,0.4,0.4
2023-02-17T15:00:00,1245A,120.6709,28.0167,温州市,市站,颗粒物(PM10),61,72,69,36,37,112,53,49,45,55,42,7,6,0.4,0.4
2023-02-17T15:00:00,1247A,120.6053,29.9928,绍兴市,城东开发委,颗粒物(PM10),62,73,49,40,28,113,96,67,67,51,41,6,5,0.4,0.5
2023-02-17T15:00:00,1250A,120.0751,30.8669,湖州市,城西水厂,细颗粒物(PM2.5),103,78,53,77,52,100,51,70,35,59,39,14,9,0.5,0.4
2023-02-17T15:00:00,1252A,120.7436,30.778,嘉兴市,清河小学,,,66,49,46,34,97,66,71,56,42,33,,7,0.5,0.5
2023-02-17T15:00:00,1253A,120.726,30.7478,嘉兴市,嘉兴学院,细颗粒物(PM2.5),63,68,56,45,35,115,71,79,61,43,36,7,6,0.5,0.4
2023-02-17T15:00:00,1255A,121.273,28.6459,台州市,黄岩环保大楼,颗粒物(PM10),60,69,48,41,30,123,67,62,44,51,33,10,8,0.5,0.4
2023-02-17T15:00:00,1256A,121.419,28.6542,台州市,台州环保大楼,,,62,56,45,33,127,105,70,47,,32,10,8,,0.4
2023-02-17T15:00:00,1257A,121.377,28.5773,台州市,路桥田洋王,细颗粒物(PM2.5),69,72,56,50,34,120,89,49,49,38,36,12,10,0.4,0.3
2023-02-17T15:00:00,1258A,122.122,30.0203,舟山市,定海檀枫,,27,20,36,10,19,101,85,66,66,23,24,5,5,0.2,0.3
2023-02-17T15:00:00,1259A,122.3094,29.9558,舟山市,普陀东港,,29,19,29,11,17,102,91,67,65,11,19,5,5,0.4,0.4
2023-02-17T15:00:00,1260A,122.19,29.9944,舟山市,临城新区,,27,17,35,13,20,109,84,61,61,26,25,6,6,0.2,0.4
2023-02-17T15:00:00,1262A,119.647,29.077,金华市,十五中,颗粒物(PM10),55,60,72,30,55,115,94,68,68,36,55,7,6,0.3,0.5
2023-02-17T15:00:00,1263A,119.686,29.1029,金华市,监测站,,44,44,68,27,50,121,99,71,71,32,60,6,6,0.5,0.5
2023-02-17T15:00:00,1264A,118.8692,28.9398,衢州市,环保大楼,颗粒物(PM10),55,59,64,34,47,95,83,53,53,26,46,5,5,0.7,0.7
2023-02-17T15:00:00,1265A,118.8709,28.9666,衢州市,实验学校,颗粒物(PM10),51,52,61,32,42,106,92,57,57,22,46,7,5,0.5,0.5
2023-02-17T15:00:00,1266A,118.8621,28.9808,衢州市,衢州学院,细颗粒物(PM2.5),59,58,63,42,47,100,83,51,51,25,42,9,7,0.5,0.5
2023-02-17T15:00:00,1267A,119.914,28.4514,丽水市,监测站大楼,,,41,51,,34,96,90,88,68,17,24,8,8,,0.3
2023-02-17T15:00:00,1268A,119.93,28.4586,丽水市,莲都小学,,34,24,49,13,29,106,106,97,77,15,27,7,7,0.3,0.3
2023-02-17T15:00:00,1269A,119.879,28.4231,丽水市,余庄前,,32,24,47,12,34,101,101,80,66,17,19,9,9,0.3,0.3
2023-02-17T15:00:00,1270A,117.1959,31.7848,合肥市,明珠广场,颗粒物(PM10),75,100,96,53,57,80,62,66,63,39,59,10,11,0.9,0.8
2023-02-17T15:00:00,1271A,117.3072,31.8764,合肥市,三里街,细颗粒物(PM2.5),99,95,100,74,72,83,69,25,25,40,66,7,7,0.6,0.8
2023-02-17T15:00:00,1272A,117.2588,31.8707,合肥市,琥珀山庄,颗粒物(PM10),68,86,91,48,54,92,80,43,43,34,58,6,7,0.7,0.8
2023-02-17T15:00:00,1273A,117.1604,31.9052,合肥市,董铺水库,细颗粒物(PM2.5),85,100,101,63,57,87,72,40,40,28,45,6,6,0.6,0.6
2023-02-17T15:00:00,1274A,117.25,31.8571,合肥市,长江中路,细颗粒物(PM2.5),104,92,95,78,75,85,68,39,39,30,49,12,13,0.9,0.9
2023-02-17T15:00:00,1275A,117.266,31.9436,合肥市,庐阳区,细颗粒物(PM2.5),77,95,105,56,59,77,71,35,35,30,59,7,10,0.6,0.7
2023-02-17T15:00:00,1276A,117.336,31.8586,合肥市,瑶海区,细颗粒物(PM2.5),99,100,100,74,68,92,75,36,36,32,58,7,7,0.8,1
2023-02-17T15:00:00,1277A,117.3027,31.7964,合肥市,包河区,细颗粒物(PM2.5),94,102,100,70,67,78,67,40,40,30,60,10,11,0.8,0.8
2023-02-17T15:00:00,1278A,117.2776,31.7385,合肥市,滨湖新区,细颗粒物(PM2.5),79,102,93,58,55,88,71,48,45,27,47,8,8,0.6,0.6
2023-02-17T15:00:00,1279A,117.1318,31.8403,合肥市,高新区,细颗粒物(PM2.5),73,90,94,53,63,88,72,42,42,33,55,6,9,0.8,0.8
2023-02-17T15:00:00,1280A,119.3903,26.0543,福州市,鼓山,,,,,,,,,,,,,,,,
2023-02-17T15:00:00,1282A,119.2681,26.0504,福州市,师大,,33,30,36,9,16,112,103,71,71,12,22,4,5,0.3,0.4
2023-02-17T15:00:00,1283A,119.2984,26.1028,福州市,五四北路,,33,25,33,13,15,107,103,64,64,10,22,2,3,0.3,0.4
2023-02-17T15:00:00,1284A,119.2648,26.0768,福州市,杨桥西路,,32,26,34,9,14,110,101,70,70,6,18,3,4,0.4,0.5
2023-02-17T15:00:00,1285A,119.317,26.0746,福州市,紫阳,,31,30,34,9,15,104,99,62,62,10,21,3,4,0.4,0.5
2023-02-17T15:00:00,1286A,118.1608,24.8169,厦门市,溪东,,,,,,,,,,,,,,,,
2023-02-17T15:00:00,1287A,118.1514,24.4767,厦门市,洪文,颗粒物(PM10),54,57,49,22,19,106,106,60,54,26,33,3,3,0.1,0.1
2023-02-17T15:00:00,1288A,118.0661,24.4444,厦门市,鼓浪屿,,36,36,43,18,22,119,76,69,56,51,37,7,7,0.2,0.2
2023-02-17T15:00:00,1290A,115.8931,28.6843,南昌市,省外办,细颗粒物(PM2.5),83,103,86,61,51,108,72,52,29,40,46,10,10,0.6,0.5
2023-02-17T15:00:00,1291A,115.8886,28.7003,南昌市,省林业公司,细颗粒物(PM2.5),77,95,75,56,53,103,67,42,37,64,57,10,8,1.0,0.9
2023-02-17T15:00:00,1292A,115.8126,28.7442,南昌市,林科所,细颗粒物(PM2.5),79,85,71,58,45,101,74,41,41,31,40,10,9,0.9,0.7
2023-02-17T15:00:00,1294A,115.8518,28.687,南昌市,建工学校,颗粒物(PM10),70,90,79,40,46,103,72,44,44,38,40,7,6,0.7,0.6
2023-02-17T15:00:00,1295A,115.8921,28.6424,南昌市,象湖,细颗粒物(PM2.5),70,71,60,51,51,94,80,45,42,32,40,9,8,0.8,0.7
2023-02-17T15:00:00,1296A,115.7423,28.7996,南昌市,武术学校,颗粒物(PM10),51,51,34,30,31,102,89,58,58,17,11,9,6,0.4,0.3
2023-02-17T15:00:00,1298A,115.9314,28.6842,南昌市,省站,细颗粒物(PM2.5),79,96,79,58,51,112,82,54,47,27,31,7,6,0.6,0.3
2023-02-17T15:00:00,1299A,116.9862,36.6114,济南市,科干所,"颗粒物(PM10),细颗粒物(PM2.5)",64,78,91,46,60,110,110,101,97,21,22,10,10,0.7,0.7
2023-02-17T15:00:00,1300A,116.9376,36.665,济南市,农科所,颗粒物(PM10),57,63,92,37,57,105,105,84,84,26,36,7,9,0.6,0.7
2023-02-17T15:00:00,1301A,117.1265,36.6734,济南市,开发区,细颗粒物(PM2.5),55,56,80,39,59,111,111,89,89,9,21,12,12,0.5,0.6
2023-02-17T15:00:00,1303A,117.0624,36.6868,济南市,省种子仓库,细颗粒物(PM2.5),70,63,88,51,66,118,118,102,97,6,14,10,11,0.4,0.5
2023-02-17T15:00:00,1304A,116.9489,36.6447,济南市,机床二厂,细颗粒物(PM2.5),62,68,94,44,66,108,108,91,91,16,25,11,15,0.6,0.8
2023-02-17T15:00:00,1305A,117.0495,36.663,济南市,市监测站,,,0,80,,64,114,114,106,97,25,29,9,10,0.6,0.7
2023-02-17T15:00:00,1306A,116.7675,36.5484,济南市,长清党校,细颗粒物(PM2.5),85,88,100,63,71,118,118,97,97,27,30,14,14,0.7,0.8
2023-02-17T15:00:00,1307A,120.6659,36.2403,青岛市,仰口,,,,,,,,,,,,,,,,
2023-02-17T15:00:00,1310A,120.4134,36.0658,青岛市,市南区东部子站,,32,31,45,17,27,110,101,110,94,16,23,9,9,0.5,0.6
2023-02-17T15:00:00,1311A,120.3664,36.1032,青岛市,四方区子站,,44,44,47,22,29,96,90,96,81,24,26,7,8,0.5,0.5
2023-02-17T15:00:00,1312A,120.2994,36.054,青岛市,市南区西部子站,,31,29,43,12,23,116,98,112,97,21,22,8,9,0.4,0.4
2023-02-17T15:00:00,1313A,120.4581,36.0858,青岛市,崂山区子站,,34,31,44,19,23,110,106,109,100,12,19,7,8,0.5,0.5
2023-02-17T15:00:00,1314A,120.1983,35.9608,青岛市,黄岛区子站,,46,46,46,29,28,116,108,116,102,18,18,6,6,0.6,0.6
2023-02-17T15:00:00,1315A,120.3999,36.3083,青岛市,城阳区子站,颗粒物(PM10),53,56,58,27,28,114,114,95,81,23,31,8,7,0.4,0.5
2023-02-17T15:00:00,1316A,113.69031,34.76122,郑州市,烟厂,细颗粒物(PM2.5),90,76,83,67,84,101,101,62,62,15,38,6,8,0.4,0.5
2023-02-17T15:00:00,1317A,113.65724,34.77134,郑州市,郑纺机,细颗粒物(PM2.5),92,79,84,68,80,98,98,62,62,18,43,5,6,0.6,0.7
2023-02-17T15:00:00,1318A,113.67526,34.80246,郑州市,银行学校,细颗粒物(PM2.5),94,69,82,70,87,103,103,62,62,11,32,7,8,0.8,0.9
2023-02-17T15:00:00,1319A,113.56746,34.81334,郑州市,供水公司,细颗粒物(PM2.5),93,80,85,69,77,99,99,58,58,18,38,6,7,0.6,0.7
2023-02-17T15:00:00,1320A,113.7329,34.7178,郑州市,经开区管委,细颗粒物(PM2.5),99,67,84,74,84,100,100,62,62,11,39,9,11,0.6,0.7
2023-02-17T15:00:00,1321A,113.73961,34.77172,郑州市,四十七中,细颗粒物(PM2.5),87,49,85,64,83,95,95,60,60,12,33,5,6,0.6,0.7
2023-02-17T15:00:00,1322A,113.60532,34.74838,郑州市,市监测站,细颗粒物(PM2.5),95,65,89,71,82,99,99,59,59,11,32,8,10,0.8,0.8
2023-02-17T15:00:00,1323A,113.64164,34.7525,郑州市,河医大,细颗粒物(PM2.5),97,70,90,72,81,95,95,57,57,13,31,6,7,0.7,0.8
2023-02-17T15:00:00,1324A,113.51488,34.91089,郑州市,岗李水库,,,,,,,,,,,,,,,,
2023-02-17T15:00:00,1325A,114.3677,30.5584,武汉市,东湖梨园,细颗粒物(PM2.5),77,49,74,56,68,83,83,45,45,22,52,12,10,1.0,1.1
2023-02-17T15:00:00,1326A,114.2529,30.558,武汉市,汉阳月湖,细颗粒物(PM2.5),107,92,82,80,72,62,62,39,39,37,68,12,10,1.0,1.2
2023-02-17T15:00:00,1327A,114.282,30.6189,武汉市,汉口花桥,细颗粒物(PM2.5),74,83,82,54,58,63,63,36,36,34,67,13,9,1.1,1.2
2023-02-17T15:00:00,1328A,114.3025,30.5332,武汉市,武昌紫阳,细颗粒物(PM2.5),87,79,83,64,81,65,65,36,36,33,61,13,13,1.2,1.4
2023-02-17T15:00:00,1329A,114.3646,30.6217,武汉市,青山钢花,细颗粒物(PM2.5),83,74,89,61,72,76,76,40,40,31,63,16,16,1.0,1.1
2023-02-17T15:00:00,1330A,114.1566,30.4825,武汉市,沌口新区,细颗粒物(PM2.5),60,60,82,43,71,67,67,38,38,30,68,11,13,0.8,1.1
2023-02-17T15:00:00,1331A,114.3014,30.5944,武汉市,汉口江滩,细颗粒物(PM2.5),94,84,82,70,67,70,70,40,40,34,62,14,10,1.1,1.1
2023-02-17T15:00:00,1333A,114.135,30.6319,武汉市,吴家山,细颗粒物(PM2.5),62,65,83,44,58,72,72,36,36,32,79,9,8,0.6,1.1
2023-02-17T15:00:00,1334A,113.8454,30.2917,武汉市,沉湖七壕,,,,56,38,32,71,69,45,45,20,45,12,9,0.8,1.1
2023-02-17T15:00:00,1335A,113.0833,28.2325,长沙市,经开区环保局,细颗粒物(PM2.5),77,73,86,56,68,83,56,24,24,30,46,6,9,0.7,0.7
2023-02-17T15:00:00,1336A,112.8872,28.2189,长沙市,高开区环保局,细颗粒物(PM2.5),79,105,115,58,68,44,44,24,24,45,55,12,10,1.0,0.9
2023-02-17T15:00:00,1337A,113.0792,28.2053,长沙市,马坡岭,细颗粒物(PM2.5),79,83,88,58,64,84,54,23,23,28,45,11,8,0.6,0.6
2023-02-17T15:00:00,1338A,112.9394,28.19,长沙市,湖南师范大学,细颗粒物(PM2.5),87,93,79,64,69,41,22,10,10,54,54,9,5,0.8,0.8
2023-02-17T15:00:00,1339A,113.0178,28.1322,长沙市,雨花区环保局,细颗粒物(PM2.5),83,84,92,61,67,42,42,16,16,39,58,8,5,0.8,0.7
2023-02-17T15:00:00,1340A,112.9792,28.2597,长沙市,伍家岭,颗粒物(PM10),78,106,105,56,69,68,23,16,16,63,56,10,9,1.1,0.9
2023-02-17T15:00:00,1341A,113.0014,28.1944,长沙市,火车新站,细颗粒物(PM2.5),95,90,92,71,73,51,32,16,16,51,61,11,8,0.9,0.8
2023-02-17T15:00:00,1342A,112.9844,28.1178,长沙市,天心区环保局,细颗粒物(PM2.5),85,89,96,63,65,37,36,14,14,48,61,8,5,0.6,0.7
2023-02-17T15:00:00,1343A,112.8908,28.1308,长沙市,湖南中医药大学,细颗粒物(PM2.5),84,92,97,62,71,53,30,12,12,52,58,8,6,1.0,0.8
2023-02-17T15:00:00,1344A,112.9581,28.3611,长沙市,沙坪,细颗粒物(PM2.5),75,77,80,55,58,77,43,26,26,50,45,17,12,0.9,0.8
2023-02-17T15:00:00,1345A,113.2347,23.1423,广州市,广雅中学,颗粒物(PM10),79,108,92,55,52,118,118,56,56,51,75,6,6,0.7,0.9
2023-02-17T15:00:00,1346A,113.2612,23.105,广州市,市五中,细颗粒物(PM2.5),82,86,85,60,57,133,133,65,65,44,74,8,7,0.8,1.1
2023-02-17T15:00:00,1348A,113.3478,23.0916,广州市,广东商学院,颗粒物(PM10),58,65,86,34,46,130,130,61,61,29,77,6,6,0.7,1
2023-02-17T15:00:00,1349A,113.4332,23.1047,广州市,市八十六中,颗粒物(PM10),52,53,89,28,49,127,127,60,60,20,67,4,4,0.6,0.9
2023-02-17T15:00:00,1350A,113.3505,22.9483,广州市,番禺中学,颗粒物(PM10),53,55,71,31,42,150,150,73,73,24,55,9,7,0.8,0.9
2023-02-17T15:00:00,1351A,113.2146,23.3916,广州市,花都师范,"颗粒物(PM10),细颗粒物(PM2.5)",64,77,63,46,40,166,166,87,87,33,48,8,7,0.6,0.8
2023-02-17T15:00:00,1352A,113.2597,23.1331,广州市,市监测站,"颗粒物(PM10),细颗粒物(PM2.5)",64,78,85,46,47,121,121,59,59,52,81,8,8,0.9,1
2023-02-17T15:00:00,1353A,113.5618,23.312,广州市,九龙镇镇龙,,37,37,64,18,36,112,112,66,66,18,46,5,5,0.6,0.8
2023-02-17T15:00:00,1354A,113.2765,23.1544,广州市,麓湖,"颗粒物(PM10),细颗粒物(PM2.5)",67,84,74,48,42,136,136,71,71,43,66,5,4,0.8,0.9
2023-02-17T15:00:00,1355A,113.443,23.3035,广州市,帽峰山森林公园,,41,35,45,23,31,133,131,81,81,13,16,5,5,0.8,1.2
2023-02-17T15:00:00,1356A,114.1063,22.5545,深圳市,通心岭子站,,38,34,43,16,21,121,121,102,88,10,16,3,4,0.6,0.6
2023-02-17T15:00:00,1357A,114.117,22.5625,深圳市,洪湖,,47,43,51,22,24,148,148,118,102,14,22,8,9,0.4,0.5
2023-02-17T15:00:00,1358A,113.987,22.5417,深圳市,华侨城,颗粒物(PM10),68,85,52,47,27,135,123,113,83,46,30,7,7,0.7,0.8
2023-02-17T15:00:00,1359A,113.9181,22.5171,深圳市,南海子站,颗粒物(PM10),80,110,60,46,26,128,128,106,78,53,28,6,6,0.8,0.8
2023-02-17T15:00:00,1360A,114.2458,22.5689,深圳市,盐田,,40,40,39,24,20,122,122,102,82,42,26,11,8,0.7,0.7
2023-02-17T15:00:00,1361A,114.2283,22.7244,深圳市,龙岗,,45,40,53,19,25,144,142,120,110,2,13,3,5,0.5,0.7
2023-02-17T15:00:00,1363A,114.494,22.5422,深圳市,南澳,,49,49,39,25,19,136,129,117,110,38,14,9,6,0.6,0.5
2023-02-17T15:00:00,1364A,114.41,22.6342,深圳市,葵涌,,41,41,41,22,21,121,120,113,94,18,14,5,6,0.5,0.5
2023-02-17T15:00:00,1365A,114.297,22.5978,深圳市,梅沙,颗粒物(PM10),56,62,47,31,21,138,119,124,112,38,11,5,5,0.8,0.8
2023-02-17T15:00:00,1366A,114.0678,22.738,深圳市,观澜,臭氧1小时,59,55,63,30,30,168,167,115,115,22,27,8,8,0.6,0.7
2023-02-17T15:00:00,1367A,113.5814,22.2618,珠海市,吉大,臭氧1小时,55,54,48,29,24,164,164,116,116,18,18,4,5,0.5,0.5
2023-02-17T15:00:00,1368A,113.4881,22.2335,珠海市,前山,,42,28,44,15,20,132,132,101,101,13,25,4,4,0.4,0.5
2023-02-17T15:00:00,1369A,113.628,22.4251,珠海市,唐家,臭氧1小时,77,50,43,45,26,181,181,116,116,25,19,7,7,0.5,0.5
2023-02-17T15:00:00,1370A,113.299,22.2281,珠海市,斗门,,48,47,52,22,30,152,152,98,98,19,29,4,4,0.3,0.4
2023-02-17T15:00:00,1371A,113.1294,23.0067,佛山市,湾梁,颗粒物(PM10),64,78,88,40,46,130,118,48,48,57,71,10,13,0.7,0.9
2023-02-17T15:00:00,1372A,113.1083,23.0478,佛山市,华材职中,细颗粒物(PM2.5),69,83,91,50,57,132,124,51,51,57,79,8,13,0.6,0.7
2023-02-17T15:00:00,1373A,113.144,23.0453,佛山市,南海气象局,,,93,81,46,50,118,105,47,47,59,74,9,12,,0.9
2023-02-17T15:00:00,1374A,113.2881,22.8094,佛山市,顺德苏岗,臭氧1小时,74,37,53,27,35,189,179,79,79,24,56,9,9,0.5,0.7
2023-02-17T15:00:00,1376A,112.8383,22.8678,佛山市,高明孔堂,细颗粒物(PM2.5),62,63,69,44,46,137,137,65,65,32,41,10,10,0.5,0.7
2023-02-17T15:00:00,1377A,112.8836,23.1588,佛山市,三水监测站,细颗粒物(PM2.5),67,58,74,48,50,154,154,77,77,27,59,6,8,0.6,0.8
2023-02-17T15:00:00,1378A,112.867,23.185,佛山市,三水云东海,细颗粒物(PM2.5),82,72,64,60,49,157,157,81,81,40,45,10,8,0.7,0.7
2023-02-17T15:00:00,1379A,113.3769,22.5211,中山市,华柏园,颗粒物(PM10),55,60,55,28,32,140,140,92,92,26,31,8,7,0.4,0.5
2023-02-17T15:00:00,1380A,113.3881,22.5497,中山市,张溪,颗粒物(PM10),65,79,65,32,35,149,149,98,96,19,30,5,6,0.5,0.6
2023-02-17T15:00:00,1381A,113.4075,22.5111,中山市,紫马岭,颗粒物(PM10),55,60,51,26,28,143,143,93,93,20,24,6,6,0.5,0.6
2023-02-17T15:00:00,1382A,113.4411,22.4853,中山市,长江旅游区,颗粒物(PM10),55,60,44,36,32,112,112,73,73,26,22,11,11,0.5,0.5
2023-02-17T15:00:00,1383A,113.1064,22.6058,江门市,北街,臭氧1小时,75,83,75,52,52,180,180,76,76,52,67,11,11,0.8,0.9
2023-02-17T15:00:00,1384A,113.0731,22.5835,江门市,西区,细颗粒物(PM2.5),87,89,90,64,56,187,187,78,78,45,65,9,8,0.7,0.8
2023-02-17T15:00:00,1385A,113.0219,22.5311,江门市,圭峰西,细颗粒物(PM2.5),87,89,65,64,51,185,185,83,83,54,55,8,6,0.9,0.9
2023-02-17T15:00:00,1386A,113.0828,22.5947,江门市,东湖,臭氧1小时,87,93,82,55,56,189,189,79,79,47,59,8,8,0.7,0.8
2023-02-17T15:00:00,1389A,113.7547,23.0494,东莞市,莞城梨川,,49,28,51,15,29,165,154,117,117,15,30,9,10,0.4,0.6
2023-02-17T15:00:00,1390A,113.7944,23.0128,东莞市,东城石井,,49,29,48,14,27,156,154,113,113,12,26,8,9,0.5,0.6
2023-02-17T15:00:00,1391A,113.7383,22.9658,东莞市,南城西平,,46,32,57,17,31,147,147,99,99,18,39,7,8,0.4,0.5
2023-02-17T15:00:00,1392A,114.4183,23.0528,惠州市,河南岸金山湖子站,,32,26,55,20,31,105,101,92,84,9,19,5,5,0.4,0.6
2023-02-17T15:00:00,1393A,114.4053,23.0822,惠州市,下埔横江三路子站,,35,33,49,13,26,116,112,98,96,9,19,5,6,0.6,0.7
2023-02-17T15:00:00,1394A,114.4103,23.1142,惠州市,江北云山西路子站,,,37,51,24,31,120,120,102,96,,16,4,6,0.5,0.5
2023-02-17T15:00:00,1395A,114.4645,22.7833,惠州市,惠阳区承修路船湖子站,,40,38,50,22,26,129,126,106,97,10,16,5,6,0.7,0.8
2023-02-17T15:00:00,1396A,114.5317,22.7422,惠州市,大亚湾管委会子站,颗粒物(PM10),52,54,52,23,29,115,92,110,83,26,26,5,6,0.5,0.6
2023-02-17T15:00:00,1397A,112.4267,23.0706,肇庆市,睦岗子站,,49,49,52,28,31,143,143,74,74,22,49,12,10,0.5,0.6
2023-02-17T15:00:00,1398A,112.4645,23.0475,肇庆市,城中子站,颗粒物(PM10),54,57,58,36,38,152,151,72,72,21,51,12,9,0.6,0.7
2023-02-17T15:00:00,1399A,112.5544,23.1522,肇庆市,坑口子站,,,68,43,47,32,127,127,76,76,30,27,,5,,0.6
2023-02-17T15:00:00,1400A,112.4753,23.1,肇庆市,七星岩子站,,47,47,44,28,27,138,138,85,85,17,28,16,12,0.5,0.9
2023-02-17T15:00:00,1401A,108.3103,22.7881,南宁市,二十一中,颗粒物(PM10),60,69,71,39,53,112,112,69,69,16,38,7,9,0.9,1
2023-02-17T15:00:00,1402A,108.3141,22.8528,南宁市,北湖,细颗粒物(PM2.5),68,68,74,49,60,110,110,72,72,16,28,8,14,0.8,0.9
2023-02-17T15:00:00,1403A,108.3206,22.8225,南宁市,市监测站,颗粒物(PM10),61,72,73,43,48,107,107,70,70,31,55,8,12,0.7,0.9
2023-02-17T15:00:00,1404A,108.3829,22.8037,南宁市,大自然花园,细颗粒物(PM2.5),63,61,68,45,52,113,113,61,61,13,40,6,8,0.8,0.9
2023-02-17T15:00:00,1405A,108.4394,22.7904,南宁市,仙葫,,,71,75,49,52,111,111,60,60,16,38,,9,0.8,0.9
2023-02-17T15:00:00,1406A,108.2397,22.8467,南宁市,区农职院,颗粒物(PM10),54,57,67,31,44,113,113,69,69,18,42,8,11,0.7,0.9
2023-02-17T15:00:00,1407A,108.3275,22.735,南宁市,英华嘉园,颗粒物(PM10),54,57,78,35,64,103,101,58,58,18,46,7,8,0.7,0.8
2023-02-17T15:00:00,1408A,108.2257,22.7757,南宁市,沙井镇街道办,,,60,104,38,58,111,111,49,49,15,56,9,14,,0.8
2023-02-17T15:00:00,1409A,110.576,19.9507,海口市,东寨港,,,15,29,12,17,78,59,56,56,,,6,6,0.6,0.7
2023-02-17T15:00:00,1410A,110.3232,20.0574,海口市,海南大学,,45,37,37,31,23,111,97,92,92,10,10,6,5,0.7,0.7
2023-02-17T15:00:00,1411A,110.283,20.0053,海口市,秀英海南医院,,32,31,40,22,18,118,95,94,94,16,13,3,4,0.7,0.6
2023-02-17T15:00:00,1412A,110.338,19.9969,海口市,海南师范大学,,37,37,41,23,20,120,103,98,98,10,10,3,3,0.7,0.7
2023-02-17T15:00:00,1413A,110.33,20.0356,海口市,龙华路环保局宿舍,,44,44,40,22,21,121,100,96,96,13,12,6,5,0.7,0.7
2023-02-17T15:00:00,1414A,106.3787,29.8279,重庆市,缙云山,,38,38,39,22,26,59,58,47,38,22,23,6,6,0.7,0.8
2023-02-17T15:00:00,1416A,106.4213,29.8253,重庆市,天生,,,,56,29,36,61,61,38,38,24,31,7,8,0.9,1
2023-02-17T15:00:00,1417A,106.6263,29.7228,重庆市,两路,,48,42,49,33,36,51,51,28,28,25,34,4,4,0.9,0.9
2023-02-17T15:00:00,1418A,106.2953,29.5983,重庆市,虎溪,细颗粒物(PM2.5),62,52,51,44,42,57,57,27,27,26,43,6,6,0.7,0.8
2023-02-17T15:00:00,1419A,106.5777,29.5102,重庆市,南坪,细颗粒物(PM2.5),58,57,59,41,39,47,44,24,22,26,28,11,11,1.0,1
2023-02-17T15:00:00,1420A,106.6556,29.6277,重庆市,唐家沱,,,,53,,42,66,66,35,35,22,36,10,11,1.0,1.1
2023-02-17T15:00:00,1421A,106.6349,29.4906,重庆市,茶园,颗粒物(PM10),56,61,64,37,40,49,49,26,26,32,43,11,9,1.1,1
2023-02-17T15:00:00,1422A,106.3754,29.4572,重庆市,白市驿,颗粒物(PM10),56,62,57,27,35,58,52,25,25,41,46,9,9,0.9,0.9
2023-02-17T15:00:00,1425A,106.6205,29.7166,重庆市,空港,,50,44,49,35,40,65,65,38,38,25,32,6,7,1.0,1
2023-02-17T15:00:00,1426A,106.4782,29.4875,重庆市,新山村,颗粒物(PM10),59,67,65,41,43,50,46,20,20,39,50,9,9,0.8,0.7
2023-02-17T15:00:00,1427A,106.5616,29.6453,重庆市,礼嘉,颗粒物(PM10),55,60,63,37,36,56,56,29,29,29,40,9,10,0.8,0.8
2023-02-17T15:00:00,1428A,106.4522,29.7091,重庆市,蔡家,,48,48,58,29,35,64,64,34,34,23,34,6,7,0.8,0.9
2023-02-17T15:00:00,1429A,106.5093,29.3917,重庆市,鱼新街,细颗粒物(PM2.5),69,55,64,50,42,41,41,23,23,36,38,14,13,1.2,1.1
2023-02-17T15:00:00,1431A,103.9728,30.7236,成都市,金泉两河,细颗粒物(PM2.5),70,73,73,51,53,58,58,20,20,23,40,2,3,0.7,0.8
2023-02-17T15:00:00,1432A,104.176,30.6872,成都市,十里店,细颗粒物(PM2.5),92,76,69,68,53,54,54,29,19,20,28,1,2,1.0,1
2023-02-17T15:00:00,1433A,104.079,30.5706,成都市,三瓦窑,细颗粒物(PM2.5),74,66,76,54,58,64,64,28,28,17,35,2,3,0.8,0.8
2023-02-17T15:00:00,1434A,104.1114,30.63,成都市,沙河铺,细颗粒物(PM2.5),67,77,67,48,52,63,63,23,23,25,39,4,3,0.8,1
2023-02-17T15:00:00,1437A,104.0786,30.6531,成都市,君平街,细颗粒物(PM2.5),90,70,77,67,68,64,64,31,31,28,50,3,3,0.8,0.9
2023-02-17T15:00:00,1438A,103.613,31.0283,成都市,灵岩寺,细颗粒物(PM2.5),74,60,58,54,43,38,24,12,10,18,18,4,4,0.8,0.8
2023-02-17T15:00:00,1439A,106.6899,26.5998,贵阳市,马鞍山,,49,41,44,34,38,61,49,48,46,21,22,6,5,0.9,0.9
2023-02-17T15:00:00,1440A,106.6971,26.5694,贵阳市,市环保站,细颗粒物(PM2.5),58,39,51,41,46,45,38,33,31,29,33,6,5,0.6,0.7
2023-02-17T15:00:00,1441A,106.6243,26.6266,贵阳市,鉴湖路,,45,41,50,31,33,67,50,60,54,18,22,5,4,0.7,0.7
2023-02-17T15:00:00,1442A,106.7487,26.6343,贵阳市,燕子冲,细颗粒物(PM2.5),73,48,53,53,50,50,41,38,37,23,22,8,6,0.8,0.8
2023-02-17T15:00:00,1443A,106.6555,26.4365,贵阳市,碧云窝,细颗粒物(PM2.5),52,46,59,36,39,64,60,60,59,14,20,6,10,0.6,0.7
2023-02-17T15:00:00,1444A,106.694,26.5161,贵阳市,中院村,,49,46,63,34,44,53,42,43,42,26,32,12,14,0.7,0.8
2023-02-17T15:00:00,1445A,106.7109,26.6027,贵阳市,红边门,细颗粒物(PM2.5),64,48,54,46,49,54,38,38,36,33,34,12,11,1.0,0.9
2023-02-17T15:00:00,1446A,106.7164,26.5699,贵阳市,新华路,细颗粒物(PM2.5),52,44,56,36,41,56,47,44,43,20,24,9,6,0.7,0.7
2023-02-17T15:00:00,1447A,106.674,26.5424,贵阳市,太慈桥,,48,48,59,27,36,62,55,52,50,19,27,5,4,0.7,0.8
2023-02-17T15:00:00,1450A,102.8204,24.8886,昆明市,呈贡新区,,34,33,52,18,47,123,107,82,80,10,16,6,8,0.5,0.7
2023-02-17T15:00:00,1451A,102.6251,24.9608,昆明市,西山森林公园,,35,31,52,10,38,123,110,94,86,9,15,6,8,0.8,1
2023-02-17T15:00:00,1452A,102.7252,25.0902,昆明市,龙泉镇,,33,15,55,16,41,119,103,78,77,8,24,6,7,0.6,0.8
2023-02-17T15:00:00,1453A,102.7266,25.0375,昆明市,东风东路,,32,26,56,18,45,113,102,75,73,13,21,5,7,0.5,0.9
2023-02-17T15:00:00,1454A,102.6742,25.0669,昆明市,金鼎山,,35,35,60,20,47,118,103,80,80,13,18,5,7,0.5,0.8
2023-02-17T15:00:00,1455A,102.6644,25.0401,昆明市,碧鸡广场,,33,23,58,16,47,119,104,76,76,11,24,4,6,0.4,0.7
2023-02-17T15:00:00,1456A,91.1319,29.6514,拉萨市,八廓街,,,17,25,,9,87,86,60,60,13,19,5,6,0.2,0.6
2023-02-17T15:00:00,1457A,91.1221,29.6747,拉萨市,市环保局,,27,23,27,13,13,90,84,52,52,15,28,5,5,0.5,0.8
2023-02-17T15:00:00,1458A,91.0874,29.6475,拉萨市,区监测站,,29,14,19,6,9,94,91,61,61,14,19,6,6,0.7,0.7
2023-02-17T15:00:00,1459A,91.1774,29.6541,拉萨市,西藏大学,,27,21,20,16,9,88,84,59,59,12,20,4,4,0.4,0.3
2023-02-17T15:00:00,1460A,90.9798,29.6588,拉萨市,区辐射站,,25,21,26,10,13,88,79,60,52,17,26,6,7,0.6,0.7
2023-02-17T15:00:00,1461A,91.0834,29.6292,拉萨市,拉萨火车站,,27,18,20,9,5,89,85,69,49,11,20,8,8,0.3,0.5
2023-02-17T15:00:00,1462A,108.882,34.2749,西安市,高压开关厂,细颗粒物(PM2.5),182,173,159,137,124,49,49,28,28,48,61,10,9,1.2,1.2
2023-02-17T15:00:00,1463A,108.993,34.2629,西安市,兴庆小区,细颗粒物(PM2.5),189,130,123,142,127,50,,29,24,,57,7,8,1.4,1.6
2023-02-17T15:00:00,1464A,109.06,34.2572,西安市,纺织城,细颗粒物(PM2.5),186,159,145,140,125,43,26,19,19,68,57,10,10,1.2,1.2
2023-02-17T15:00:00,1465A,108.9356,34.2173,西安市,小寨,细颗粒物(PM2.5),179,169,152,135,123,42,40,40,22,47,58,9,10,1.2,1.3
2023-02-17T15:00:00,1466A,108.954,34.2713,西安市,市人民体育场,细颗粒物(PM2.5),185,134,133,139,128,45,38,34,26,47,52,9,10,1.1,1.1
2023-02-17T15:00:00,1467A,108.8922,34.2322,西安市,高新西区,细颗粒物(PM2.5),175,142,133,132,122,51,51,35,31,45,56,8,8,1.2,1.2
2023-02-17T15:00:00,1468A,108.935,34.3474,西安市,经开区,细颗粒物(PM2.5),159,120,123,121,124,73,73,38,38,34,53,10,9,1.1,1
2023-02-17T15:00:00,1469A,108.906,34.1546,西安市,长安区,细颗粒物(PM2.5),189,176,178,142,135,36,36,15,15,47,68,6,6,1.2,1.5
2023-02-17T15:00:00,1471A,109.2186,34.3731,西安市,临潼区,细颗粒物(PM2.5),180,160,140,136,119,56,56,34,26,32,40,11,11,1.2,1.3
2023-02-17T15:00:00,1472A,108.869,34.378,西安市,草滩,细颗粒物(PM2.5),82,104,130,60,76,68,68,34,34,27,46,8,11,0.0,0.2
2023-02-17T15:00:00,1473A,108.985,34.1978,西安市,曲江文化产业集团,细颗粒物(PM2.5),175,178,157,132,119,41,34,34,18,51,57,6,7,1.4,1.5
2023-02-17T15:00:00,1474A,109.051,34.3213,西安市,广运潭,细颗粒物(PM2.5),179,147,145,135,122,56,56,25,25,32,46,10,9,1.2,1.2
2023-02-17T15:00:00,1476A,103.631,36.1031,兰州市,兰炼宾馆,细颗粒物(PM2.5),144,143,135,110,103,90,51,28,28,54,66,43,24,1.6,1.5
2023-02-17T15:00:00,1477A,104.1373,35.9454,兰州市,榆中兰大校区,,,,,,,,,,,,,,,,
2023-02-17T15:00:00,1478A,103.8412,36.0726,兰州市,生物制品所,细颗粒物(PM2.5),114,116,111,86,83,102,40,20,20,72,71,37,14,1.6,1.3
2023-02-17T15:00:00,1479A,103.831,36.0464,兰州市,铁路设计院,细颗粒物(PM2.5),168,171,126,127,96,102,35,20,20,95,83,37,16,2.4,1.8
2023-02-17T15:00:00,1483A,101.524,36.6867,西宁市,第五水厂,,,,,,,,,,,,,,,,
2023-02-17T15:00:00,1484A,105.9512,38.6016,银川市,贺兰山马莲口,细颗粒物(PM2.5),64,62,70,46,54,106,94,83,72,27,28,31,28,1.2,1.1
2023-02-17T15:00:00,1488A,106.2328,38.4975,银川市,贺兰山东路,细颗粒物(PM2.5),107,113,148,80,100,108,92,42,42,33,54,18,16,1.2,1.5
2023-02-17T15:00:00,1489A,106.1358,38.5036,银川市,学院路,细颗粒物(PM2.5),93,92,145,69,88,107,85,42,42,27,50,22,24,1.3,1.8
2023-02-17T15:00:00,1490A,87.5801,43.8303,乌鲁木齐市,监测站,颗粒物(PM10),61,72,141,42,100,101,75,56,30,45,83,3,4,0.6,1.5
2023-02-17T15:00:00,1491A,87.6046,43.768,乌鲁木齐市,收费所,颗粒物(PM10),57,63,163,22,101,94,72,52,33,42,76,4,5,0.6,1.3
2023-02-17T15:00:00,1492A,87.4754,43.9469,乌鲁木齐市,新疆农科院农场,细颗粒物(PM2.5),169,85,155,128,187,103,103,94,36,45,65,20,10,1.4,2.1
2023-02-17T15:00:00,1493A,87.5525,43.8711,乌鲁木齐市,铁路局,细颗粒物(PM2.5),102,92,145,76,128,103,74,50,35,78,104,4,4,1.0,1.6
2023-02-17T15:00:00,1494A,87.6432,43.831,乌鲁木齐市,三十一中学,细颗粒物(PM2.5),57,57,136,40,101,92,82,61,61,27,51,7,7,0.7,1.2
2023-02-17T15:00:00,1496A,87.7216,44.1747,乌鲁木齐市,米东区环保局,细颗粒物(PM2.5),142,132,226,108,189,121,116,93,58,20,44,10,13,0.9,1.7
2023-02-17T15:00:00,1508A,112.9433,27.8614,湘潭市,板塘,细颗粒物(PM2.5),83,86,83,61,70,47,47,17,17,37,57,13,8,0.7,0.8
2023-02-17T15:00:00,1511A,112.9118,27.8403,湘潭市,市监测站,,,76,94,62,71,44,,15,15,39,51,15,11,0.9,0.8
2023-02-17T15:00:00,1512A,112.8937,27.8728,湘潭市,江麓,,,81,90,66,74,67,48,20,20,32,43,,7,1.1,1.1
2023-02-17T15:00:00,1513A,112.9227,27.8159,湘潭市,岳塘,细颗粒物(PM2.5),75,76,94,55,74,63,63,27,27,35,54,7,6,1.1,1.3
2023-02-17T15:00:00,1514A,112.9074,27.9119,湘潭市,科大,细颗粒物(PM2.5),80,84,87,59,68,65,51,15,15,40,60,14,8,0.4,0.4
2023-02-17T15:00:00,1515A,113.135,27.8244,株洲市,天台山庄,细颗粒物(PM2.5),65,66,77,47,59,82,82,36,36,22,51,15,8,0.9,0.9
2023-02-17T15:00:00,1518A,113.095,27.8867,株洲市,株冶医院,"颗粒物(PM10),细颗粒物(PM2.5)",63,75,94,45,57,74,74,29,29,29,60,13,7,0.9,0.9
2023-02-17T15:00:00,1519A,113.167,27.8667,株洲市,市四中,细颗粒物(PM2.5),69,63,64,50,58,77,77,32,32,21,42,16,10,0.9,0.8
2023-02-17T15:00:00,1520A,113.143,27.8381,株洲市,火车站,细颗粒物(PM2.5),65,66,80,47,58,80,80,34,34,24,47,16,9,1.0,1
2023-02-17T15:00:00,1524A,113.13,27.8528,株洲市,市监测站,细颗粒物(PM2.5),84,78,83,62,70,81,81,36,36,25,54,18,10,0.9,0.8
2023-02-17T15:00:00,1552A,106.805,26.3003,贵阳市,桐木岭,,,,,,,,,,,,,,,,
2023-02-17T15:00:00,1559A,113.251,27.8336,株洲市,大京风景区,,,,56,39,40,78,78,52,52,19,19,15,9,0.8,0.6
2023-02-17T15:00:00,1562A,113.0048,27.9153,湘潭市,昭山,细颗粒物(PM2.5),75,83,90,55,66,60,60,24,24,32,61,10,5,0.8,0.8
2023-02-17T15:00:00,1564A,112.4876,27.9164,湘潭市,韶山,细颗粒物(PM2.5),53,53,58,37,45,68,49,27,27,22,20,13,9,1.0,1
2023-02-17T15:00:00,1585A,109.8756,40.6532,包头市,市环境监测站,颗粒物(PM10),73,96,107,52,52,101,94,41,41,23,60,24,25,0.8,1.3
2023-02-17T15:00:00,1587A,109.9991,40.5842,包头市,包头八中,细颗粒物(PM2.5),97,103,129,72,74,110,96,48,48,26,68,23,47,0.9,1.8
2023-02-17T15:00:00,1588A,109.8538,40.6821,包头市,青山宾馆,细颗粒物(PM2.5),98,107,98,73,61,96,94,40,40,31,61,33,19,1.0,1.2
2023-02-17T15:00:00,1589A,109.8642,40.6288,包头市,惠龙物流,细颗粒物(PM2.5),89,118,104,66,55,98,93,43,43,26,67,14,27,1.0,1.5
2023-02-17T15:00:00,1590A,110.0377,40.5546,包头市,东河鸿龙湾,,,,114,,56,107,89,46,46,21,55,16,19,0.8,1.4
2023-02-17T15:00:00,1591A,110.0023,39.8129,鄂尔多斯市,综合楼,细颗粒物(PM2.5),79,83,85,58,54,107,74,104,56,37,41,12,12,1.1,0.9
2023-02-17T15:00:00,1592A,109.9486,39.8261,鄂尔多斯市,巴音孟克林场办事处,细颗粒物(PM2.5),64,63,73,46,50,121,71,119,62,34,32,13,13,1.2,0.9
2023-02-17T15:00:00,1593A,109.7736,39.5986,鄂尔多斯市,康泽苑,细颗粒物(PM2.5),89,100,91,66,60,106,65,46,41,37,43,12,7,1.4,1
2023-02-17T15:00:00,1594A,109.8119,39.5989,鄂尔多斯市,华泰汽车城,细颗粒物(PM2.5),94,100,85,70,59,112,64,36,36,40,52,14,10,1.1,0.8
2023-02-17T15:00:00,1595A,109.9734,39.7884,鄂尔多斯市,奥林花园,,,,56,53,57,116,69,51,51,36,65,11,8,1.4,1
2023-02-17T15:00:00,1597A,122.2703,40.7094,营口市,大庆路,细颗粒物(PM2.5),139,133,90,106,82,88,86,67,67,38,35,17,15,1.2,1.1
2023-02-17T15:00:00,1598A,122.2150,40.6511,营口市,镜湖西路,细颗粒物(PM2.5),147,146,98,112,65,91,91,70,70,30,27,15,14,1.2,1
2023-02-17T15:00:00,1599A,122.1658,40.6789,营口市,西炮台,细颗粒物(PM2.5),138,130,93,105,70,99,78,70,68,42,36,12,13,1.0,0.9
2023-02-17T15:00:00,1600A,124.3303,40.0625,丹东市,江湾东路,细颗粒物(PM2.5),72,76,80,52,57,91,88,76,76,14,23,12,16,0.7,1.2
2023-02-17T15:00:00,1601A,124.4256,40.1503,丹东市,临江后街,细颗粒物(PM2.5),72,79,86,52,58,94,94,56,56,17,40,13,20,0.8,1.5
2023-02-17T15:00:00,1602A,124.3933,40.1461,丹东市,元宝山,细颗粒物(PM2.5),77,82,72,56,51,81,80,61,56,22,24,17,18,0.8,1.1
2023-02-17T15:00:00,1603A,124.3633,40.1092,丹东市,民主桥,细颗粒物(PM2.5),72,78,87,52,58,84,83,55,55,14,31,13,14,0.8,1.3
2023-02-17T15:00:00,1604A,122.0303,41.1489,盘锦市,开发区,细颗粒物(PM2.5),145,129,74,111,69,71,53,52,43,41,29,11,9,1.1,0.8
2023-02-17T15:00:00,1605A,122.0485,41.0883,盘锦市,兴隆台,细颗粒物(PM2.5),152,131,82,116,70,65,48,50,43,44,32,13,11,1.2,1
2023-02-17T15:00:00,1606A,121.8297,41.1028,盘锦市,新生街道,细颗粒物(PM2.5),137,123,69,104,67,74,52,48,45,46,34,10,8,1.2,0.8
2023-02-17T15:00:00,1607A,120.9092,40.7136,葫芦岛市,龙港区,细颗粒物(PM2.5),173,138,124,131,105,75,58,48,48,38,42,15,21,1.6,1.4
2023-02-17T15:00:00,1608A,120.8392,40.7514,葫芦岛市,化工街,细颗粒物(PM2.5),149,156,152,114,105,60,54,35,35,47,67,29,20,1.2,1
2023-02-17T15:00:00,1609A,120.8341,40.7073,葫芦岛市,新区,细颗粒物(PM2.5),166,138,125,126,111,63,41,31,31,47,65,24,27,1.5,1.5
2023-02-17T15:00:00,1610A,120.8695,40.7677,葫芦岛市,东城区,细颗粒物(PM2.5),168,143,130,127,112,68,62,38,38,43,67,30,25,1.3,1.5
2023-02-17T15:00:00,1611A,118.5819,24.9117,泉州市,涂山街,,46,46,42,19,19,125,125,77,77,15,19,9,9,0.5,0.4
2023-02-17T15:00:00,1612A,118.5972,24.8978,泉州市,津头埔,,,56,43,27,20,122,122,74,74,,25,9,9,0.5,0.5
2023-02-17T15:00:00,1613A,118.6663,24.9424,泉州市,万安,,46,46,39,30,19,133,133,78,78,15,20,9,8,0.5,0.4
2023-02-17T15:00:00,1614A,118.6117,24.9604,泉州市,清源山,,,,,,,,,,,,,,,,
2023-02-17T15:00:00,1616A,117.6795,36.229,济南市,技术学院,细颗粒物(PM2.5),89,90,102,66,72,121,118,84,84,30,44,12,14,0.6,0.8
2023-02-17T15:00:00,1618A,118.3429,35.0532,临沂市,沂河小区,细颗粒物(PM2.5),94,78,89,70,70,102,92,69,69,20,27,12,18,0.7,0.8
2023-02-17T15:00:00,1619A,118.295,35.0583,临沂市,鲁南制药厂,细颗粒物(PM2.5),80,75,92,59,67,102,98,72,72,30,38,20,27,0.5,0.6
2023-02-17T15:00:00,1620A,118.2794,34.9976,临沂市,新光毛纺厂,细颗粒物(PM2.5),94,90,94,70,68,101,90,66,66,23,37,16,19,0.8,0.8
2023-02-17T15:00:00,1621A,118.3956,35.0888,临沂市,河东保险公司,细颗粒物(PM2.5),92,75,94,68,70,110,100,68,68,25,42,15,18,0.9,0.9
2023-02-17T15:00:00,1622A,116.3032,37.4674,德州市,儿童乐园,细颗粒物(PM2.5),73,75,107,53,77,117,105,68,68,17,30,10,12,0.6,0.7
2023-02-17T15:00:00,1624A,116.2991,37.4451,德州市,监理站,细颗粒物(PM2.5),94,90,118,70,90,110,101,67,67,20,32,13,14,0.7,0.8
2023-02-17T15:00:00,1625A,115.9848,36.4372,聊城市,区政府,"颗粒物(PM10),细颗粒物(PM2.5)",67,83,117,48,80,117,117,74,74,14,29,10,16,0.5,0.7
2023-02-17T15:00:00,1628A,118.0062,37.3803,滨州市,市环保局,细颗粒物(PM2.5),112,128,127,84,91,113,113,63,63,24,62,12,16,0.7,1.1
2023-02-17T15:00:00,1629A,118.0018,37.3617,滨州市,第二水厂,细颗粒物(PM2.5),97,110,130,72,85,117,117,58,58,27,69,12,16,0.7,1
2023-02-17T15:00:00,1630A,117.9776,37.393,滨州市,北中新校,细颗粒物(PM2.5),100,119,129,75,83,118,118,63,63,28,66,14,16,0.7,1
2023-02-17T15:00:00,1631A,118.0414,36.8103,淄博市,人民公园,细颗粒物(PM2.5),77,66,111,56,83,117,117,66,66,17,48,10,18,0.6,1
2023-02-17T15:00:00,1633A,117.8525,36.4847,淄博市,双山,细颗粒物(PM2.5),64,64,91,46,71,116,116,90,90,22,30,13,14,0.8,0.8
2023-02-17T15:00:00,1634A,117.9592,36.6331,淄博市,气象站,颗粒物(PM10),60,69,96,41,64,115,115,99,99,21,29,15,18,0.8,0.9
2023-02-17T15:00:00,1635A,118.3092,36.8194,淄博市,莆田园,细颗粒物(PM2.5),70,75,109,51,77,125,125,79,79,15,40,9,17,0.6,1.4
2023-02-17T15:00:00,1637A,117.558,34.8438,枣庄市,市中区政府,细颗粒物(PM2.5),83,88,105,61,68,118,118,92,75,28,39,14,21,0.6,0.6
2023-02-17T15:00:00,1638A,117.2852,34.7837,枣庄市,薛城环保局,细颗粒物(PM2.5),83,85,86,61,62,115,105,83,83,27,36,15,14,0.8,0.6
2023-02-17T15:00:00,1639A,117.5852,34.7745,枣庄市,峄城区政府,细颗粒物(PM2.5),79,97,102,58,59,118,105,82,82,43,39,16,12,0.6,0.5
2023-02-17T15:00:00,1640A,117.7276,34.5578,枣庄市,台儿庄区环保局,细颗粒物(PM2.5),89,95,87,66,61,110,96,74,69,41,41,16,11,0.9,0.9
2023-02-17T15:00:00,1641A,117.4518,35.0992,枣庄市,山亭区环保局,细颗粒物(PM2.5),59,66,79,42,56,124,124,99,92,34,32,19,16,0.8,0.8
2023-02-17T15:00:00,1642A,121.2514,37.5639,烟台市,开发区,细颗粒物(PM2.5),58,53,68,41,49,89,89,74,66,26,41,11,12,0.5,0.7
2023-02-17T15:00:00,1643A,121.3719,37.5433,烟台市,轴承厂,细颗粒物(PM2.5),60,53,64,43,49,112,112,98,94,11,22,6,7,0.4,0.6
2023-02-17T15:00:00,1644A,121.3181,37.5436,烟台市,西郊化工站,细颗粒物(PM2.5),59,63,70,42,42,109,109,94,91,16,27,7,9,0.8,1
2023-02-17T15:00:00,1645A,121.4478,37.4822,烟台市,莱山环保局,细颗粒物(PM2.5),62,63,70,44,50,107,107,85,85,15,23,10,11,0.9,1
2023-02-17T15:00:00,1646A,121.2611,37.4967,烟台市,福山环保局,颗粒物(PM10),57,63,87,39,55,149,97,76,67,22,38,8,10,0.6,0.8
2023-02-17T15:00:00,1650A,119.1437,36.7023,潍坊市,环保局,细颗粒物(PM2.5),87,88,101,64,72,106,106,51,51,27,45,6,6,0.8,1
2023-02-17T15:00:00,1653A,116.6251,35.4302,济宁市,火炬城,细颗粒物(PM2.5),52,29,77,36,72,111,109,80,80,12,26,7,11,0.5,0.7
2023-02-17T15:00:00,1655A,116.5491,35.4042,济宁市,电化厂,细颗粒物(PM2.5),55,49,87,39,72,106,105,81,81,18,26,7,10,0.5,0.6
2023-02-17T15:00:00,1656A,117.1437,36.1937,泰安市,监测站,细颗粒物(PM2.5),110,95,96,83,83,116,116,80,79,19,26,19,12,0.8,0.9
2023-02-17T15:00:00,1657A,117.0885,36.2017,泰安市,人口学校,细颗粒物(PM2.5),88,85,91,65,67,131,131,106,106,25,17,24,17,1.0,0.9
2023-02-17T15:00:00,1658A,117.1089,36.1758,泰安市,电力学校,细颗粒物(PM2.5),94,85,96,70,78,121,121,79,79,22,33,22,16,0.8,0.9
2023-02-17T15:00:00,1659A,119.471,35.4209,日照市,监测站,颗粒物(PM10),57,63,63,34,35,91,91,83,54,25,33,10,13,0.6,1
2023-02-17T15:00:00,1660A,119.523,35.4216,日照市,市政府广场,颗粒物(PM10),54,58,72,37,33,91,91,72,53,13,40,8,9,0.7,0.9
2023-02-17T15:00:00,1661A,119.5587,35.4044,日照市,港务局,,48,41,61,33,32,88,81,71,70,25,40,8,9,0.6,0.8
2023-02-17T15:00:00,1662A,122.1214,37.4236,威海市,华夏技校,,,46,48,27,35,106,106,95,95,14,24,3,3,,0.4
2023-02-17T15:00:00,1663A,122.0508,37.5236,威海市,山大分校,颗粒物(PM10),53,56,58,34,34,113,113,101,101,14,20,4,4,0.6,0.7
2023-02-17T15:00:00,1664A,122.1067,37.5072,威海市,市监测站,,44,44,54,27,36,112,111,108,95,14,23,7,8,0.4,0.5
2023-02-17T15:00:00,1666A,118.6614,37.4309,东营市,市环保局,细颗粒物(PM2.5),125,136,124,95,90,124,104,57,57,32,54,30,20,1.2,1.1
2023-02-17T15:00:00,1669A,113.5824,24.7733,韶关市,市八中,细颗粒物(PM2.5),64,60,50,46,32,121,121,57,57,28,29,28,18,1.1,0.9
2023-02-17T15:00:00,1671A,113.5917,24.7972,韶关市,园林处,细颗粒物(PM2.5),53,51,46,37,34,123,123,55,55,20,27,22,17,1.1,0.8
2023-02-17T15:00:00,1672A,113.6735,24.7791,韶关市,韶关学院,细颗粒物(PM2.5),73,82,46,53,38,101,92,39,39,53,26,47,15,2.4,0.8
2023-02-17T15:00:00,1673A,113.5971,24.6863,韶关市,曲江监测站,细颗粒物(PM2.5),62,59,57,44,38,117,117,57,57,27,32,22,20,0.8,1.1
2023-02-17T15:00:00,1674A,116.6794,23.3667,汕头市,金平子站,颗粒物(PM10),52,54,38,24,18,127,116,90,85,17,19,12,14,0.6,0.7
2023-02-17T15:00:00,1675A,116.7244,23.3633,汕头市,龙湖子站,颗粒物(PM10),52,54,37,24,14,128,114,92,92,19,17,13,12,0.5,0.5
2023-02-17T15:00:00,1676A,116.7258,23.2775,汕头市,濠江子站,颗粒物(PM10),54,58,35,26,15,123,109,90,87,17,13,10,10,0.4,0.5
2023-02-17T15:00:00,1677A,116.7519,23.4714,汕头市,澄海子站,颗粒物(PM10),51,52,38,28,18,131,131,93,93,19,20,8,8,0.6,0.5
2023-02-17T15:00:00,1678A,116.6092,23.2539,汕头市,潮阳子站,颗粒物(PM10),51,52,39,24,13,123,117,89,89,13,14,8,8,0.9,0.9
2023-02-17T15:00:00,1680A,110.3539,21.2706,湛江市,湛江影剧院,,50,50,46,22,30,131,126,102,101,14,17,7,11,0.5,0.6
2023-02-17T15:00:00,1681A,110.3928,21.2228,湛江市,市环境监测站,,45,45,43,17,32,127,125,100,99,8,14,7,10,0.6,0.7
2023-02-17T15:00:00,1682A,110.4019,21.1997,湛江市,环保局宿舍,,44,44,42,23,34,127,127,99,98,10,15,6,7,0.5,0.6
2023-02-17T15:00:00,1683A,110.4111,21.2028,湛江市,霞山游泳场,,41,33,45,21,33,130,129,102,101,9,13,7,10,0.6,0.8
2023-02-17T15:00:00,1684A,110.3316,21.2679,湛江市,麻章区环保局,颗粒物(PM10),51,51,49,26,36,131,128,103,94,13,20,7,11,0.6,0.7
2023-02-17T15:00:00,1685A,110.4558,21.2567,湛江市,坡头区环保局,,44,44,41,20,33,122,122,96,95,10,14,7,12,0.6,0.7
2023-02-17T15:00:00,1686A,111.0286,21.4688,茂名市,电白南海,颗粒物(PM10),54,58,54,29,29,138,138,99,99,15,17,7,7,0.5,0.7
2023-02-17T15:00:00,1687A,110.9294,21.6533,茂名市,茂石化七小,,44,44,52,27,35,135,135,110,110,7,13,5,8,0.4,0.5
2023-02-17T15:00:00,1688A,110.9107,21.6687,茂名市,健康路,,41,41,52,20,29,126,126,102,94,9,16,11,23,0.5,0.7
2023-02-17T15:00:00,1689A,110.8592,21.6828,茂名市,高岭,,49,48,61,34,38,131,131,99,92,12,20,10,20,0.4,0.6
2023-02-17T15:00:00,1690A,116.1231,24.3284,梅州市,梅江月梅,,38,30,43,21,27,120,120,86,86,10,23,8,8,0.6,0.7
2023-02-17T15:00:00,1691A,116.0797,24.2719,梅州市,梅县新城,,40,40,48,21,28,123,123,88,88,10,31,7,8,0.5,0.7
2023-02-17T15:00:00,1692A,116.1248,24.2654,梅州市,环境监控中心,,40,38,42,22,26,128,128,90,90,9,32,8,9,0.6,0.7
2023-02-17T15:00:00,1693A,115.3653,22.775,汕尾市,市环保局,,38,38,38,17,18,124,109,95,87,7,8,9,9,0.6,0.6
2023-02-17T15:00:00,1694A,115.3706,22.7898,汕尾市,市政府,,,25,44,45,23,130,116,98,88,,12,9,10,0.3,0.4
2023-02-17T15:00:00,1695A,115.3622,22.7925,汕尾市,新城中学,,45,45,47,20,19,121,106,95,85,7,9,7,7,0.4,0.4
2023-02-17T15:00:00,1696A,114.6778,23.7569,河源市,源西,,39,19,42,12,23,123,123,70,70,7,31,5,6,0.7,0.8
2023-02-17T15:00:00,1697A,114.6944,23.7586,河源市,东埔,,35,22,48,9,25,109,109,72,72,8,20,5,5,0.6,0.8
2023-02-17T15:00:00,1698A,114.6892,23.7233,河源市,老城,,36,16,51,11,27,114,114,74,74,5,19,5,5,0.6,0.8
2023-02-17T15:00:00,1699A,111.9797,21.8593,阳江市,鸳鸯湖,颗粒物(PM10),58,65,56,30,46,147,147,99,99,13,23,10,9,0.7,0.8
2023-02-17T15:00:00,1701A,111.9491,21.8658,阳江市,马南垌,,50,50,64,28,35,151,149,97,97,16,27,8,7,0.5,0.6
2023-02-17T15:00:00,1702A,113.0426,23.691,清远市,环保大楼,细颗粒物(PM2.5),72,72,41,52,33,176,161,84,84,39,35,6,5,0.7,0.6
2023-02-17T15:00:00,1703A,113.0208,23.7106,清远市,凤城街办,颗粒物(PM10),64,77,48,43,31,138,129,62,62,27,26,8,7,0.6,0.7
2023-02-17T15:00:00,1705A,116.6367,23.6719,潮州市,西园路,,39,39,41,21,25,128,106,91,71,9,11,4,5,0.6,0.5
2023-02-17T15:00:00,1706A,116.6447,23.6706,潮州市,档案局,,45,45,40,30,23,123,122,81,77,14,17,8,8,0.6,0.6
2023-02-17T15:00:00,1708A,116.3701,23.5345,揭阳市,新兴,颗粒物(PM10),57,63,46,28,23,144,144,94,94,15,14,12,11,0.6,0.5
2023-02-17T15:00:00,1709A,116.3264,23.5443,揭阳市,西马,,44,44,49,24,23,136,134,89,89,6,15,8,12,0.6,0.5
2023-02-17T15:00:00,1710A,116.3611,23.5626,揭阳市,东兴,颗粒物(PM10),57,63,49,32,22,159,159,99,99,15,19,7,10,0.6,0.5
2023-02-17T15:00:00,1711A,116.4151,23.5294,揭阳市,渔湖,颗粒物(PM10),53,55,45,30,26,138,132,91,91,11,17,10,12,0.5,0.5
2023-02-17T15:00:00,1712A,112.0392,22.9169,云浮市,新市府,细颗粒物(PM2.5),62,56,42,44,34,144,144,83,83,24,17,5,4,0.8,0.8
2023-02-17T15:00:00,1714A,112.0539,22.9539,云浮市,牧羊,颗粒物(PM10),63,76,63,42,35,121,121,62,62,31,32,15,13,0.5,0.6
2023-02-17T15:00:00,1715A,102.575,24.3711,玉溪市,东风水库,,32,26,49,19,36,111,102,77,77,8,15,5,6,0.7,1
2023-02-17T15:00:00,1718A,115.4208,35.2464,菏泽市,气象局,颗粒物(PM10),57,63,94,38,67,118,113,82,82,28,41,8,12,0.5,0.6
2023-02-17T15:00:00,1719A,115.4747,35.2375,菏泽市,市政协,"颗粒物(PM10),细颗粒物(PM2.5)",62,73,91,44,61,116,112,82,82,25,29,8,8,0.5,0.6
2023-02-17T15:00:00,1721A,113.3819,40.1097,大同市,果树场,,,,,,,,,,,,,,,,
2023-02-17T15:00:00,1723A,113.2994,40.0758,大同市,云冈宾馆,颗粒物(PM10),65,79,134,39,74,107,75,30,30,36,60,18,21,0.6,1.2
2023-02-17T15:00:00,1724A,113.3444,40.0917,大同市,大同大学,颗粒物(PM10),67,84,119,24,68,109,88,36,36,26,51,13,18,0.4,0.9
2023-02-17T15:00:00,1725A,113.2661,40.1269,大同市,安家小村,细颗粒物(PM2.5),89,101,136,66,75,109,75,31,31,31,42,20,23,0.6,1.9
2023-02-17T15:00:00,1726A,113.2711,40.0844,大同市,教育学院,颗粒物(PM10),79,107,133,42,70,98,66,29,29,35,56,16,27,0.4,1.1
2023-02-17T15:00:00,1727A,113.1147,36.1547,长治市,清华站,细颗粒物(PM2.5),70,63,83,51,70,74,68,59,38,22,30,8,9,1.2,1.3
2023-02-17T15:00:00,1728A,113.1031,36.1989,长治市,监测站,细颗粒物(PM2.5),77,62,82,56,74,77,60,53,35,24,31,7,7,1.3,1.6
2023-02-17T15:00:00,1730A,113.0886,36.2125,长治市,审计局,细颗粒物(PM2.5),85,70,84,63,82,82,63,51,36,21,32,10,11,1.1,1.4
2023-02-17T15:00:00,1731A,113.0844,36.1856,长治市,长治八中,细颗粒物(PM2.5),73,68,92,53,66,87,67,57,43,21,30,6,7,1.0,1.3
2023-02-17T15:00:00,1733A,111.5531,36.0783,临汾市,临钢医院,细颗粒物(PM2.5),113,102,115,85,86,79,55,29,29,25,36,3,3,1.2,1.5
2023-02-17T15:00:00,1734A,111.5028,36.0714,临汾市,技工学校,细颗粒物(PM2.5),110,99,120,83,90,75,51,31,31,24,35,7,6,0.9,1.1
2023-02-17T15:00:00,1736A,111.5018,36.0855,临汾市,市委,细颗粒物(PM2.5),107,76,115,80,88,83,62,38,38,22,36,3,3,1.2,1.4
2023-02-17T15:00:00,1738A,113.5758,37.8572,阳泉市,市中心,细颗粒物(PM2.5),149,159,148,114,93,80,80,34,34,34,60,19,24,1.4,1.5
2023-02-17T15:00:00,1739A,113.4894,37.8731,阳泉市,赛鱼,细颗粒物(PM2.5),142,142,125,108,97,87,87,42,42,38,58,17,16,1.2,1.1
2023-02-17T15:00:00,1740A,113.5819,37.8486,阳泉市,南庄,细颗粒物(PM2.5),158,169,148,120,93,80,80,36,36,37,55,18,23,1.3,1.5
2023-02-17T15:00:00,1742A,113.5614,37.8703,阳泉市,平坦,细颗粒物(PM2.5),160,153,153,122,103,85,85,40,40,36,67,16,22,1.3,1.5
2023-02-17T15:00:00,1743A,113.5158,37.8392,阳泉市,大阳泉,细颗粒物(PM2.5),139,197,119,106,89,87,87,77,65,34,37,15,15,1.2,1.2
2023-02-17T15:00:00,1744A,118.9233,42.2816,赤峰市,松山一中,细颗粒物(PM2.5),109,140,81,82,46,85,56,36,36,51,41,43,22,1.6,1.1
2023-02-17T15:00:00,1745A,118.9576,42.2728,赤峰市,哈达街,细颗粒物(PM2.5),109,126,73,82,43,82,72,58,49,46,35,35,23,1.1,0.8
2023-02-17T15:00:00,1746A,118.8788,42.2554,赤峰市,天义路,细颗粒物(PM2.5),85,108,66,63,36,88,59,60,41,48,34,28,16,1.1,0.9
2023-02-17T15:00:00,1748A,123.044,41.1196,鞍山市,深沟寺,细颗粒物(PM2.5),175,174,114,132,77,101,76,101,76,50,27,28,17,1.7,0.9
2023-02-17T15:00:00,1749A,123.011,41.0931,鞍山市,太阳城,细颗粒物(PM2.5),175,178,117,132,76,101,73,101,72,51,28,30,15,1.8,0.9
2023-02-17T15:00:00,1750A,123.0485,41.1442,鞍山市,太平,细颗粒物(PM2.5),186,190,126,140,83,96,65,95,68,62,34,35,20,2.3,1.1
2023-02-17T15:00:00,1751A,122.9642,41.0971,鞍山市,铁西三道街,细颗粒物(PM2.5),186,200,137,140,81,87,75,74,67,45,40,24,21,2.1,1.4
2023-02-17T15:00:00,1752A,122.9341,41.0833,鞍山市,铁西工业园区,细颗粒物(PM2.5),183,182,135,138,83,92,81,91,74,41,32,27,19,1.8,1.2
2023-02-17T15:00:00,1753A,123.022,41.0821,鞍山市,明达新区,细颗粒物(PM2.5),176,168,113,133,77,101,77,101,77,51,27,24,15,1.9,1.1
2023-02-17T15:00:00,1754A,123.1289,41.0228,鞍山市,千山,,,,,,,,,,,,,,,,
2023-02-17T15:00:00,1755A,123.7977,41.8491,抚顺市,望花区,细颗粒物(PM2.5),152,149,123,116,82,76,68,61,48,38,35,24,19,1.4,1.4
2023-02-17T15:00:00,1756A,123.9161,41.8822,抚顺市,顺城区,细颗粒物(PM2.5),138,134,117,105,78,81,80,48,48,46,58,19,16,1.1,1.2
2023-02-17T15:00:00,1757A,124.0436,41.8611,抚顺市,东洲区,细颗粒物(PM2.5),139,140,109,106,73,94,69,80,63,44,31,18,14,1.4,1
2023-02-17T15:00:00,1758A,123.9247,41.8642,抚顺市,新抚区,细颗粒物(PM2.5),169,160,146,128,99,74,72,48,48,42,49,18,11,1.2,1.2
2023-02-17T15:00:00,1759A,124.0972,41.8961,抚顺市,大伙房水库,细颗粒物(PM2.5),118,126,102,89,72,104,94,89,89,28,25,12,10,1.0,1
2023-02-17T15:00:00,1760A,123.7086,41.8391,抚顺市,沈抚新城,细颗粒物(PM2.5),156,157,132,119,85,87,80,67,67,53,44,22,25,1.4,1.2
2023-02-17T15:00:00,1761A,123.8275,41.3064,本溪市,大峪,细颗粒物(PM2.5),118,107,90,89,65,97,96,82,80,37,43,14,14,1.0,0.9
2023-02-17T15:00:00,1762A,123.7567,41.3325,本溪市,溪湖,细颗粒物(PM2.5),117,105,94,88,64,82,77,67,67,24,34,15,25,1.0,1.1
2023-02-17T15:00:00,1763A,123.7169,41.3094,本溪市,彩屯,细颗粒物(PM2.5),130,147,122,99,81,82,33,41,41,64,61,103,60,3.6,3.3
2023-02-17T15:00:00,1764A,123.7669,41.2864,本溪市,东明,细颗粒物(PM2.5),110,78,66,83,60,76,56,62,62,50,45,35,54,1.0,0.9
2023-02-17T15:00:00,1765A,123.7992,41.2664,本溪市,新立屯,细颗粒物(PM2.5),115,101,73,87,64,85,76,77,77,32,25,10,11,0.7,0.6
2023-02-17T15:00:00,1766A,123.8142,41.3472,本溪市,威宁,细颗粒物(PM2.5),112,104,86,84,67,77,70,59,59,33,32,13,9,0.8,0.8
2023-02-17T15:00:00,1767A,121.1115,41.0879,锦州市,南山,细颗粒物(PM2.5),216,138,117,166,126,62,56,32,32,60,81,24,33,1.2,1.4
2023-02-17T15:00:00,1768A,121.0533,40.8434,锦州市,开发区,细颗粒物(PM2.5),178,129,123,134,119,60,26,23,23,70,71,15,41,1.2,1.3
2023-02-17T15:00:00,1769A,121.1836,41.1119,锦州市,百股街道,细颗粒物(PM2.5),201,200,168,151,119,61,55,32,32,53,80,27,35,1.5,1.8
2023-02-17T15:00:00,1770A,121.1178,41.1222,锦州市,天安街道,细颗粒物(PM2.5),215,156,146,165,132,59,59,32,32,51,76,31,35,1.5,1.8
2023-02-17T15:00:00,1771A,121.1303,41.1386,锦州市,北湖公园,细颗粒物(PM2.5),220,123,128,170,132,60,55,37,37,53,78,37,34,1.5,1.7
2023-02-17T15:00:00,1772A,126.54,43.8622,吉林市,哈达湾,细颗粒物(PM2.5),117,116,74,88,55,101,86,82,72,24,23,11,14,1.0,0.8
2023-02-17T15:00:00,1773A,126.5844,43.8358,吉林市,东局子,细颗粒物(PM2.5),137,135,76,104,56,95,76,78,68,26,22,12,13,1.1,0.8
2023-02-17T15:00:00,1774A,126.5052,43.8245,吉林市,电力学院,细颗粒物(PM2.5),123,120,74,93,58,99,86,78,76,21,23,12,13,1.0,0.9
2023-02-17T15:00:00,1775A,126.6133,43.8972,吉林市,江北,细颗粒物(PM2.5),124,125,76,94,52,95,85,81,70,27,22,13,20,1.0,0.8
2023-02-17T15:00:00,1776A,126.555,43.8306,吉林市,江南公园,细颗粒物(PM2.5),147,134,77,112,63,100,80,80,74,28,24,11,13,1.0,0.8
2023-02-17T15:00:00,1778A,126.7061,43.7133,吉林市,丰满,,,,,,,,,,,,,,,,
2023-02-17T15:00:00,1779A,123.9305,47.3636,齐齐哈尔市,安居小区,,38,22,85,26,66,94,91,85,79,10,25,6,7,0.3,0.6
2023-02-17T15:00:00,1780A,123.9488,47.3386,齐齐哈尔市,中心广场,,42,42,93,14,51,86,84,76,69,9,32,6,8,0.3,0.7
2023-02-17T15:00:00,1781A,123.9483,47.3227,齐齐哈尔市,农牧车辆厂,,,48,86,44,60,79,,74,63,7,33,3,5,0.3,0.6
2023-02-17T15:00:00,1783A,123.945,47.2988,齐齐哈尔市,市环境监测站,,36,18,89,25,71,92,89,81,68,10,39,7,11,0.3,0.7
2023-02-17T15:00:00,1784A,129.61,44.561,牡丹江市,环保大楼,细颗粒物(PM2.5),72,60,54,52,42,91,91,62,62,17,36,6,9,0.6,0.8
2023-02-17T15:00:00,1785A,129.6115,44.5782,牡丹江市,文化广场,细颗粒物(PM2.5),74,76,73,54,56,84,84,50,50,16,44,9,13,0.7,1.2
2023-02-17T15:00:00,1786A,129.5904,44.5963,牡丹江市,第一医院,细颗粒物(PM2.5),72,66,70,52,55,93,90,56,56,16,38,4,10,0.9,1.3
2023-02-17T15:00:00,1787A,129.6364,44.6075,牡丹江市,机车工厂,细颗粒物(PM2.5),70,66,85,51,45,89,89,58,58,11,35,3,2,0.7,1
2023-02-17T15:00:00,1788A,129.6386,44.5462,牡丹江市,第一中学,细颗粒物(PM2.5),57,60,65,40,47,92,91,61,61,17,36,4,6,0.8,1
2023-02-17T15:00:00,1789A,124.81117,46.03138,大庆市,大同区,,39,33,108,27,76,88,86,70,70,10,27,6,9,0.5,0.9
2023-02-17T15:00:00,1790A,125.129,46.533,大庆市,龙凤区,,36,32,104,25,72,78,74,60,60,16,37,13,12,0.7,1
2023-02-17T15:00:00,1791A,124.902,46.408,大庆市,红岗区,,33,19,79,23,61,93,93,78,78,11,30,9,10,0.3,0.7
2023-02-17T15:00:00,1792A,125.153,46.586,大庆市,萨尔图区,,43,27,104,30,81,82,75,66,66,18,36,10,11,0.2,0.5
2023-02-17T15:00:00,1793A,124.9042,46.6215,大庆市,让胡路区,,48,48,90,32,66,98,98,79,79,12,36,7,8,0.1,0.7
2023-02-17T15:00:00,1794A,118.3606,31.3519,芜湖市,监测站,细颗粒物(PM2.5),90,92,80,67,67,97,47,52,36,52,48,10,7,0.7,0.6
2023-02-17T15:00:00,1795A,118.3714,31.4134,芜湖市,科创中心,细颗粒物(PM2.5),90,96,82,67,64,98,48,45,33,46,45,10,7,0.6,0.5
2023-02-17T15:00:00,1796A,118.3673,31.3131,芜湖市,四水厂,细颗粒物(PM2.5),90,98,85,67,60,101,52,52,41,39,19,12,9,0.5,0.5
2023-02-17T15:00:00,1798A,118.5092,31.6837,马鞍山市,湖东路四小,细颗粒物(PM2.5),83,57,49,61,53,102,60,50,40,37,41,10,8,1.0,0.9
2023-02-17T15:00:00,1799A,118.5024,31.6449,马鞍山市,开发区,,,,57,,59,100,60,36,36,30,40,11,9,1.2,1
2023-02-17T15:00:00,1800A,118.5228,31.7231,马鞍山市,慈湖,细颗粒物(PM2.5),88,74,64,65,66,103,51,60,36,43,38,11,14,1.1,0.9
2023-02-17T15:00:00,1802A,118.6245,31.7241,马鞍山市,濮塘,颗粒物(PM10),61,71,66,36,39,104,61,57,50,26,25,6,6,0.9,0.8
2023-02-17T15:00:00,1803A,115.9872,29.6815,九江市,十里,颗粒物(PM10),64,77,80,42,51,83,47,26,26,49,59,12,12,1.2,1.2
2023-02-17T15:00:00,1804A,115.9584,29.7046,九江市,茅山头,细颗粒物(PM2.5),64,68,77,46,53,83,44,20,20,56,56,14,14,1.2,1.2
2023-02-17T15:00:00,1805A,115.9877,29.7295,九江市,西园,细颗粒物(PM2.5),82,79,74,60,58,77,21,20,20,65,59,14,11,1.0,0.9
2023-02-17T15:00:00,1806A,116.0172,29.6547,九江市,五七二七厂,细颗粒物(PM2.5),67,67,61,48,51,73,61,46,38,42,37,10,9,1.2,1.3
2023-02-17T15:00:00,1808A,115.9114,29.6038,九江市,综合工业园,细颗粒物(PM2.5),62,49,76,44,68,65,63,30,30,50,69,11,11,1.4,1.2
2023-02-17T15:00:00,1809A,116.0721,29.7535,九江市,石化总厂,颗粒物(PM10),57,64,73,36,46,95,70,48,42,35,44,14,12,0.8,0.9
2023-02-17T15:00:00,1810A,115.9773,29.5698,九江市,庐山气象台,,29,28,27,20,21,87,74,85,77,15,15,7,7,0.3,0.4
2023-02-17T15:00:00,1812A,112.3931,34.6516,洛阳市,市委党校,细颗粒物(PM2.5),105,111,114,79,75,93,93,45,45,25,46,11,10,0.8,0.9
2023-02-17T15:00:00,1814A,112.4657,34.6871,洛阳市,豫西宾馆,细颗粒物(PM2.5),129,136,102,98,83,87,87,48,48,24,42,8,11,0.8,1.2
2023-02-17T15:00:00,1815A,112.494,34.6886,洛阳市,河南林校,细颗粒物(PM2.5),125,119,99,95,81,92,90,48,48,32,46,10,6,0.9,0.9
2023-02-17T15:00:00,1816A,112.3844,34.623,洛阳市,开发区管委会,细颗粒物(PM2.5),115,105,101,87,80,105,105,60,60,29,41,10,8,0.6,0.7
2023-02-17T15:00:00,1817A,112.4267,34.6258,洛阳市,市委新办公区,细颗粒物(PM2.5),147,111,105,112,99,100,100,52,52,30,46,9,7,0.7,0.8
2023-02-17T15:00:00,1818A,114.4839,36.0621,安阳市,棉研所,,,,,,,,,,,,,,,,
2023-02-17T15:00:00,1819A,114.3551,36.1017,安阳市,红庙街,细颗粒物(PM2.5),87,64,102,64,88,93,93,50,50,20,53,7,11,0.6,0.9
2023-02-17T15:00:00,1820A,114.361,36.0681,安阳市,银杏小区,细颗粒物(PM2.5),99,51,89,74,93,95,95,52,52,14,42,6,11,0.5,0.7
2023-02-17T15:00:00,1824A,114.3389,34.7781,开封市,肿瘤医院,细颗粒物(PM2.5),83,82,100,61,68,104,104,64,64,10,21,5,6,0.5,0.5
2023-02-17T15:00:00,1826A,114.2885,34.7965,开封市,世纪星幼儿园,,,60,75,64,70,103,103,66,66,,27,6,7,0.6,0.6
2023-02-17T15:00:00,1828A,113.227,35.2125,焦作市,市环保局,细颗粒物(PM2.5),117,153,122,88,86,82,82,39,39,26,41,12,11,1.0,1.1
2023-02-17T15:00:00,1830A,113.1992,35.2590,焦作市,影视城,,,,,,,,,,,,,,,,
2023-02-17T15:00:00,1832A,113.3257,33.742,平顶山市,新华旅馆,细颗粒物(PM2.5),107,106,103,80,76,97,97,61,61,14,32,7,10,0.8,0.7
2023-02-17T15:00:00,1833A,113.2919,33.737,平顶山市,规划设计院,细颗粒物(PM2.5),113,104,93,85,74,102,101,66,66,21,31,5,6,0.8,0.8
2023-02-17T15:00:00,1834A,113.182,33.774,平顶山市,平顶山工学院,细颗粒物(PM2.5),113,115,99,85,69,102,99,70,70,,17,3,5,,0.6
2023-02-17T15:00:00,1835A,111.1922,34.7752,三门峡市,市政府,细颗粒物(PM2.5),130,81,71,99,84,80,78,60,60,25,28,13,12,0.7,0.8
2023-02-17T15:00:00,1836A,111.1587,34.7942,三门峡市,开发区,细颗粒物(PM2.5),134,123,105,102,83,81,81,60,60,23,25,,15,0.8,0.8
2023-02-17T15:00:00,1838A,111.143,34.7955,三门峡市,风景区,,,,,,,,,,,,,,,,
2023-02-17T15:00:00,1840A,111.2992,30.6981,宜昌市,白龙岗,细颗粒物(PM2.5),170,158,142,129,123,48,48,21,21,38,43,5,5,1.0,0.9
2023-02-17T15:00:00,1841A,111.3549,30.6465,宜昌市,伍家岗,细颗粒物(PM2.5),199,172,142,149,121,59,59,26,26,39,39,10,9,0.9,0.9
2023-02-17T15:00:00,1842A,111.2628,30.6961,宜昌市,点军区,细颗粒物(PM2.5),160,152,124,122,107,49,49,21,21,42,39,5,5,1.0,1.1
2023-02-17T15:00:00,1843A,111.3275,30.7819,宜昌市,夷陵区,细颗粒物(PM2.5),168,106,109,127,125,52,45,28,28,41,42,6,7,0.9,1
2023-02-17T15:00:00,1844A,112.2494,30.3197,荆州市,市图书馆,,,82,95,,102,78,78,50,50,16,39,6,12,,0.8
2023-02-17T15:00:00,1845A,112.2008,30.3544,荆州市,市委党校,细颗粒物(PM2.5),114,75,98,86,98,75,75,51,51,15,40,7,8,0.7,0.8
2023-02-17T15:00:00,1847A,113.1094,29.3578,岳阳市,南湖风景区,细颗粒物(PM2.5),65,53,69,47,57,61,59,38,38,25,40,11,8,0.9,1
2023-02-17T15:00:00,1848A,113.1493,29.4251,岳阳市,城陵矶,细颗粒物(PM2.5),54,56,77,38,52,66,62,37,37,26,55,12,6,0.8,0.8
2023-02-17T15:00:00,1849A,113.1497,29.3575,岳阳市,开发区,细颗粒物(PM2.5),77,63,78,56,75,63,63,34,34,18,40,14,9,0.8,0.7
2023-02-17T15:00:00,1850A,113.2621,29.4758,岳阳市,云溪区,颗粒物(PM10),53,56,62,34,42,60,58,46,46,20,31,11,8,0.7,0.9
2023-02-17T15:00:00,1851A,112.9943,29.4402,岳阳市,君山区,,,77,74,66,65,58,,34,34,,38,,8,,0.6
2023-02-17T15:00:00,1852A,113.2117,29.355,岳阳市,金凤水库,细颗粒物(PM2.5),59,59,64,42,47,54,54,29,29,22,34,14,9,0.7,0.7
2023-02-17T15:00:00,1854A,111.6975,28.9703,常德市,市二中,细颗粒物(PM2.5),82,69,89,60,78,71,64,32,32,16,29,8,7,0.9,0.9
2023-02-17T15:00:00,1857A,111.7158,29.1456,常德市,白鹤山,颗粒物(PM10),69,87,84,48,54,78,64,48,44,23,17,6,6,0.7,0.6
2023-02-17T15:00:00,1858A,110.5319,29.1217,张家界市,永定新区,颗粒物(PM10),71,92,84,50,62,77,63,38,38,16,24,4,4,0.7,0.7
2023-02-17T15:00:00,1859A,110.4697,29.1242,张家界市,电业局,细颗粒物(PM2.5),78,82,83,57,62,68,61,39,31,19,28,4,6,0.7,0.8
2023-02-17T15:00:00,1860A,110.5594,29.3547,张家界市,未央路,,,52,77,,60,72,,46,46,,17,,2,,1
2023-02-17T15:00:00,1861A,110.4417,29.315,张家界市,袁家界,,31,31,46,16,39,81,69,75,64,11,10,7,7,0.9,0.9
2023-02-17T15:00:00,1862A,110.4144,25.3167,桂林市,电子科大尧山校区,细颗粒物(PM2.5),53,46,42,37,32,107,84,83,65,14,14,6,5,0.8,0.7
2023-02-17T15:00:00,1863A,110.2819,25.2697,桂林市,监测站,细颗粒物(PM2.5),78,83,64,57,47,110,58,61,38,28,31,8,10,0.9,0.9
2023-02-17T15:00:00,1864A,110.3089,25.2708,桂林市,龙隐路小学,细颗粒物(PM2.5),78,74,55,57,47,107,69,66,52,27,24,9,15,0.7,0.6
2023-02-17T15:00:00,1865A,110.2869,25.2178,桂林市,八中,细颗粒物(PM2.5),87,80,60,64,52,101,51,56,36,38,37,8,8,0.7,0.7
2023-02-17T15:00:00,1866A,109.2262,21.588,北海市,牛尾岭水库,,50,50,52,33,41,173,101,96,96,18,16,15,21,0.7,0.9
2023-02-17T15:00:00,1867A,109.1436,21.4086,北海市,海滩公园,,45,38,52,17,28,154,142,123,98,9,12,8,7,0.7,0.7
2023-02-17T15:00:00,1868A,109.0981,21.4661,北海市,新市环保局,,38,33,51,19,37,142,120,115,92,13,19,4,6,0.5,0.7
2023-02-17T15:00:00,1869A,109.1778,21.5233,北海市,北海工业园,,49,49,64,24,47,141,112,90,82,10,18,6,10,0.5,0.8
2023-02-17T15:00:00,1870A,109.4856,24.3895,柳州市,柳东小学,细颗粒物(PM2.5),92,68,68,68,65,121,98,60,48,19,28,7,8,0.9,0.9
2023-02-17T15:00:00,1871A,109.4157,24.3277,柳州市,环保监测站,细颗粒物(PM2.5),93,67,82,69,58,112,107,46,46,20,48,6,6,0.9,1.1
2023-02-17T15:00:00,1872A,109.389,24.341,柳州市,河西水厂,细颗粒物(PM2.5),89,77,104,66,74,108,108,44,44,17,44,7,7,1.0,1.2
2023-02-17T15:00:00,1873A,109.4311,24.2921,柳州市,市四中,细颗粒物(PM2.5),82,86,84,60,51,112,110,50,50,20,48,10,9,1.2,1.4
2023-02-17T15:00:00,1874A,109.4006,24.3631,柳州市,市九中,细颗粒物(PM2.5),100,97,112,75,64,103,103,46,46,28,49,10,8,0.7,0.9
2023-02-17T15:00:00,1875A,109.4958,24.3134,柳州市,古亭山,,,91,58,61,47,108,95,52,50,,35,10,9,0.7,0.8
2023-02-17T15:00:00,1876A,109.5078,18.2489,三亚市,河东子站,,31,20,34,8,17,112,97,106,98,6,6,3,3,0.3,0.5
2023-02-17T15:00:00,1877A,109.4964,18.2681,三亚市,河西子站,,32,20,31,7,18,118,102,109,100,4,5,3,3,0.4,0.5
2023-02-17T15:00:00,1878A,104.7778,31.4741,绵阳市,富乐山,细颗粒物(PM2.5),97,88,59,72,49,69,47,23,22,19,15,5,4,0.9,0.9
2023-02-17T15:00:00,1879A,104.7563,31.4535,绵阳市,市人大,细颗粒物(PM2.5),97,84,62,72,52,54,41,21,17,20,22,12,9,0.8,0.8
2023-02-17T15:00:00,1880A,104.6697,31.4668,绵阳市,高新区自来水公司,细颗粒物(PM2.5),107,85,61,80,55,45,45,25,18,17,22,7,6,0.9,0.9
2023-02-17T15:00:00,1881A,104.7287,31.5075,绵阳市,三水厂,细颗粒物(PM2.5),94,91,66,70,51,62,40,22,14,22,23,4,4,0.9,0.8
2023-02-17T15:00:00,1882A,104.563,28.793,宜宾市,石马中学,细颗粒物(PM2.5),90,75,68,67,55,59,55,28,28,36,33,11,7,1.0,1
2023-02-17T15:00:00,1883A,104.6201,28.7728,宜宾市,市委,细颗粒物(PM2.5),77,74,76,56,58,70,70,27,27,27,40,17,10,0.9,1.1
2023-02-17T15:00:00,1884A,104.6055,28.793,宜宾市,宜宾四中,细颗粒物(PM2.5),88,81,83,65,62,64,63,26,26,32,44,11,6,0.8,1
2023-02-17T15:00:00,1885A,104.639,28.7562,宜宾市,市政府,细颗粒物(PM2.5),82,72,68,60,55,73,71,24,24,28,44,14,9,0.7,0.8
2023-02-17T15:00:00,1886A,104.5742,28.7199,宜宾市,黄金嘴,细颗粒物(PM2.5),90,83,70,67,56,61,56,29,29,38,41,18,9,1.0,1
2023-02-17T15:00:00,1888A,101.6891,26.571,攀枝花市,弄弄坪,,32,28,62,18,36,127,102,66,43,10,37,11,34,1.0,2.5
2023-02-17T15:00:00,1889A,101.5769,26.5928,攀枝花市,河门口,,32,26,47,14,25,127,102,73,73,8,26,6,11,0.3,0.7
2023-02-17T15:00:00,1890A,101.7169,26.585,攀枝花市,炳草岗,,31,25,91,7,48,125,98,52,52,10,65,6,20,0.7,1.7
2023-02-17T15:00:00,1891A,101.7369,26.5008,攀枝花市,仁和,,35,20,47,17,30,129,109,58,58,17,30,25,17,1.6,1.4
2023-02-17T15:00:00,1893A,105.4324,28.9634,泸州市,九狮山,细颗粒物(PM2.5),57,59,61,40,43,71,71,28,28,17,28,10,11,0.5,0.6
2023-02-17T15:00:00,1894A,105.4427,28.9063,泸州市,小市上码头,细颗粒物(PM2.5),74,86,79,54,54,69,68,33,33,24,38,8,12,1.0,1
2023-02-17T15:00:00,1895A,105.4241,28.8573,泸州市,兰田宪桥,细颗粒物(PM2.5),69,79,74,50,57,74,74,32,32,24,39,12,11,0.8,0.9
2023-02-17T15:00:00,1896A,105.4379,28.8833,泸州市,市环监站,细颗粒物(PM2.5),70,80,74,51,52,68,68,28,28,18,36,7,10,0.7,0.8
2023-02-17T15:00:00,1901A,104.4239,31.1208,德阳市,东山公园,细颗粒物(PM2.5),103,91,63,77,53,66,55,33,30,25,19,3,2,1.0,0.9
2023-02-17T15:00:00,1902A,104.3826,31.1317,德阳市,西小区,细颗粒物(PM2.5),117,104,69,88,63,60,39,44,19,39,30,5,3,1.0,1
2023-02-17T15:00:00,1904A,104.3553,31.1091,德阳市,耐火材料厂,细颗粒物(PM2.5),115,109,70,87,65,56,38,44,17,33,28,4,3,1.0,0.9
2023-02-17T15:00:00,1905A,106.056,30.8064,南充市,西山风景区,,,,,,,,,,,,,,,,
2023-02-17T15:00:00,1906A,106.0789,30.8023,南充市,南充市委,,50,41,57,35,35,72,72,20,20,23,29,11,9,0.8,0.8
2023-02-17T15:00:00,1907A,106.1031,30.8217,南充市,南充炼油厂,,46,46,54,29,36,74,74,23,23,21,26,10,9,0.8,0.8
2023-02-17T15:00:00,1908A,106.1064,30.7856,南充市,高坪区监测站,细颗粒物(PM2.5),63,58,57,45,43,74,74,22,22,27,30,10,9,0.8,0.8
2023-02-17T15:00:00,1909A,106.0642,30.7636,南充市,嘉陵区环保局,细颗粒物(PM2.5),55,43,57,39,41,77,77,23,23,22,36,10,10,0.8,0.9
2023-02-17T15:00:00,1910A,106.1087,30.8388,南充市,市环境监测站,颗粒物(PM10),53,56,58,35,40,71,71,20,20,21,26,8,8,0.8,0.8
2023-02-17T15:00:00,1911A,106.9222,27.6869,遵义市,丁字口,,45,29,45,31,36,59,47,44,40,21,22,14,13,0.8,0.9
2023-02-17T15:00:00,1912A,106.9242,27.7019,遵义市,凤凰山,,29,29,36,7,25,60,45,41,40,17,18,4,4,0.9,0.9
2023-02-17T15:00:00,1913A,106.8906,27.6486,遵义市,忠庄,,49,40,54,34,35,57,38,42,40,18,16,2,3,0.7,0.7
2023-02-17T15:00:00,1914A,106.9231,27.6506,遵义市,舟水桥,,33,30,49,23,35,66,52,47,47,10,12,5,7,0.7,0.7
2023-02-17T15:00:00,1915A,106.9178,27.72,遵义市,干田坝,,42,25,41,29,31,62,42,40,35,26,22,16,7,1.0,0.9
2023-02-17T15:00:00,1916A,103.7897,25.5035,曲靖市,环境监测站,,,31,53,13,34,132,104,84,84,8,13,,7,0.6,0.8
2023-02-17T15:00:00,1917A,103.8,25.5364,曲靖市,烟厂办公区,,35,31,54,9,35,142,112,92,92,6,11,7,5,0.5,0.7
2023-02-17T15:00:00,1918A,108.7197,34.3956,咸阳市,气象站,细颗粒物(PM2.5),149,88,112,114,132,72,72,36,36,34,61,13,10,1.5,1.7
2023-02-17T15:00:00,1919A,108.673,34.3155,咸阳市,实验中学,细颗粒物(PM2.5),175,159,145,132,129,60,54,41,41,47,51,8,7,1.2,1.2
2023-02-17T15:00:00,1920A,108.7233,34.3617,咸阳市,师范学院,细颗粒物(PM2.5),156,117,140,119,123,73,72,41,41,24,46,,6,1.1,1.1
2023-02-17T15:00:00,1922A,109.0656,35.0994,铜川市,党校,颗粒物(PM10),57,63,105,39,55,74,60,37,37,34,42,14,13,1.2,1.2
2023-02-17T15:00:00,1923A,109.0697,35.0697,铜川市,王益区政府,细颗粒物(PM2.5),98,81,113,73,102,68,57,35,35,31,38,6,6,1.1,1.3
2023-02-17T15:00:00,1924A,108.9344,34.9058,铜川市,新区管委会,细颗粒物(PM2.5),115,96,129,87,113,76,75,45,45,22,36,11,14,1.0,1.2
2023-02-17T15:00:00,1926A,109.4131,36.6275,延安市,枣园,细颗粒物(PM2.5),79,32,67,58,67,104,81,42,42,15,41,6,6,0.8,0.9
2023-02-17T15:00:00,1927A,109.4761,36.6028,延安市,延大医附院,,,62,78,48,68,100,,34,34,17,48,8,8,0.8,1.5
2023-02-17T15:00:00,1929A,109.5056,36.6106,延安市,百米大道,细颗粒物(PM2.5),93,68,81,69,71,97,56,39,39,34,44,10,10,1.1,1.2
2023-02-17T15:00:00,1930A,107.185,34.3063,宝鸡市,庙沟村,细颗粒物(PM2.5),147,120,127,112,125,81,56,37,37,21,38,4,4,1.0,1.1
2023-02-17T15:00:00,1931A,107.0708,34.3017,宝鸡市,竹园沟,细颗粒物(PM2.5),155,129,131,118,130,90,58,34,34,28,38,6,7,1.1,1.2
2023-02-17T15:00:00,1932A,107.1906,34.3672,宝鸡市,三陆医院,细颗粒物(PM2.5),139,125,144,106,133,89,62,39,39,25,45,6,7,1.0,1.1
2023-02-17T15:00:00,1933A,107.1431,34.3547,宝鸡市,监测站,细颗粒物(PM2.5),145,126,142,111,134,87,59,37,37,30,48,5,4,1.1,1.2
2023-02-17T15:00:00,1934A,107.1186,34.3739,宝鸡市,技工学校,细颗粒物(PM2.5),159,120,130,121,129,83,57,36,36,30,49,5,5,1.0,1.1
2023-02-17T15:00:00,1935A,107.3906,34.3528,宝鸡市,陈仓区环保局家属楼,细颗粒物(PM2.5),170,138,149,129,140,91,57,34,34,28,48,6,5,1.1,1.3
2023-02-17T15:00:00,1936A,107.2058,34.3497,宝鸡市,文理学院,细颗粒物(PM2.5),147,131,150,112,133,92,58,37,37,26,46,8,9,1.2,1.4
2023-02-17T15:00:00,1937A,107.2386,34.3622,宝鸡市,三迪小学,细颗粒物(PM2.5),144,145,150,110,132,85,57,37,37,31,51,9,9,1.1,1.2
2023-02-17T15:00:00,1938A,109.5293,34.5101,渭南市,农科所,细颗粒物(PM2.5),138,122,138,105,109,88,88,39,39,22,42,15,11,1.2,1
2023-02-17T15:00:00,1939A,109.4974,34.4877,渭南市,日报社,细颗粒物(PM2.5),144,129,142,110,118,89,89,42,42,22,44,14,18,1.5,1.3
2023-02-17T15:00:00,1940A,109.4636,34.493,渭南市,体育馆,细颗粒物(PM2.5),135,112,135,103,117,96,96,48,48,24,49,10,13,1.1,1.1
2023-02-17T15:00:00,1941A,109.4259,34.5023,渭南市,高新一小,细颗粒物(PM2.5),156,125,130,119,118,86,86,43,43,24,43,15,13,1.4,1.2
2023-02-17T15:00:00,1943A,102.1725,38.5339,金昌市,新川苑,,37,37,94,10,30,111,80,66,64,11,24,14,30,0.6,0.8
2023-02-17T15:00:00,1944A,102.1692,38.5167,金昌市,天庆家园,,31,31,73,19,32,106,79,62,59,12,26,20,39,0.6,0.8
2023-02-17T15:00:00,1945A,98.2908,39.7711,嘉峪关市,气象局,颗粒物(PM10),52,53,50,19,22,102,91,84,76,8,19,2,4,0,0.1
2023-02-17T15:00:00,1947A,106.3394,38.817,石嘴山市,沙湖旅游区,,,,168,,111,94,94,47,47,29,48,25,25,,1.3
2023-02-17T15:00:00,1948A,106.3668,39.0145,石嘴山市,大武口朝阳西街,细颗粒物(PM2.5),79,80,88,58,68,98,73,43,43,28,48,26,41,0.8,1
2023-02-17T15:00:00,1949A,106.7704,39.2282,石嘴山市,惠农南大街,,,,69,,61,103,92,54,50,24,40,17,22,0.7,0.7
2023-02-17T15:00:00,1950A,106.7099,39.1325,石嘴山市,红果子镇惠新街,细颗粒物(PM2.5),159,83,75,121,68,93,87,54,54,18,35,40,15,0.4,0.7
2023-02-17T15:00:00,1951A,84.895,45.6094,克拉玛依市,长征新村,细颗粒物(PM2.5),72,82,71,52,46,113,66,113,57,41,28,7,7,0.7,0.6
2023-02-17T15:00:00,1952A,84.8988,45.5893,克拉玛依市,南林小区,"颗粒物(PM10),细颗粒物(PM2.5)",69,87,73,50,57,112,66,111,51,40,31,4,3,0.7,0.7
2023-02-17T15:00:00,1954A,84.905,44.3396,克拉玛依市,独山子区,"颗粒物(PM10),细颗粒物(PM2.5)",103,155,68,77,41,111,80,69,55,44,33,6,5,1.3,0.6
2023-02-17T15:00:00,1955A,85.6979,46.098,克拉玛依市,乌尔禾区商贸楼,,45,45,69,28,58,115,100,60,50,15,34,1,2,0.6,0.8
2023-02-17T15:00:00,1956A,86.1472,41.7538,巴音郭楞州,孔雀公园,颗粒物(PM10),115,179,163,30,33,89,82,58,58,11,38,5,6,0.3,0.5
2023-02-17T15:00:00,1957A,86.1972,41.7166,巴音郭楞州,棉纺厂,颗粒物(PM10),132,214,200,31,39,92,85,60,60,4,30,2,4,0.3,0.3
2023-02-17T15:00:00,1958A,86.2357,41.7173,巴音郭楞州,经济开发区,颗粒物(PM10),110,169,171,19,32,92,85,77,77,6,14,5,5,0.3,0.4
2023-02-17T15:00:00,1961A,117.532,36.6868,济南市,东山小学,颗粒物(PM10),53,56,94,32,61,116,116,92,92,20,30,6,4,0.7,0.8
2023-02-17T15:00:00,1966A,120.0405,35.8735,青岛市,黄岛区4号,,39,39,41,27,25,108,95,108,90,19,21,6,7,0.8,0.7
2023-02-17T15:00:00,1982A,122.0693,37.2174,威海市,文登开发区,,32,27,51,9,33,104,100,91,91,16,21,4,5,0.2,0.4
2023-02-17T15:00:00,2031A,113.1817,27.9958,株洲市,云田中学,细颗粒物(PM2.5),68,70,69,49,54,70,70,28,28,26,42,12,7,0.9,0.9
2023-02-17T15:00:00,2054A,114.1099,32.1059,信阳市,平桥分局,细颗粒物(PM2.5),59,66,88,42,67,98,98,66,66,20,31,10,9,0.7,1
2023-02-17T15:00:00,2064A,113.9956,32.1271,信阳市,南湾水厂,细颗粒物(PM2.5),67,60,85,48,61,105,105,76,76,15,18,9,8,0.7,0.9
2023-02-17T15:00:00,2065A,114.0775,32.1195,信阳市,市酿酒公司,细颗粒物(PM2.5),67,43,76,48,68,106,106,70,70,16,38,10,9,0.7,1.1
2023-02-17T15:00:00,2066A,114.0609,32.1399,信阳市,审计局,细颗粒物(PM2.5),57,49,80,40,64,101,101,67,67,18,39,9,8,0.7,1
2023-02-17T15:00:00,2067A,114.6613,33.6128,周口市,市环境监测站,细颗粒物(PM2.5),68,55,66,49,63,95,95,62,62,14,23,7,7,0.4,0.5
2023-02-17T15:00:00,2068A,114.6758,33.6347,周口市,周口师范,细颗粒物(PM2.5),69,65,67,50,65,103,103,70,70,16,21,7,7,0.3,0.4
2023-02-17T15:00:00,2069A,114.6546,33.5979,周口市,市运管处,细颗粒物(PM2.5),73,51,70,53,64,103,103,68,68,16,26,9,9,0.2,0.2
2023-02-17T15:00:00,2070A,114.6369,33.6406,周口市,川汇区环保局,细颗粒物(PM2.5),64,64,64,46,83,98,98,67,67,12,20,6,5,0.4,0.4
2023-02-17T15:00:00,2075A,117.6336,24.4674,漳州市,九湖,,,,,,,,,,,,,,,,
2023-02-17T15:00:00,2160A,112.85,35.5051,晋城市,自来水公司,细颗粒物(PM2.5),55,51,91,39,66,99,99,57,57,16,34,10,10,0.6,1.1
2023-02-17T15:00:00,2161A,112.8318,35.4936,晋城市,白云商贸,,49,48,99,34,65,93,93,56,56,16,32,8,8,0.9,1.3
2023-02-17T15:00:00,2162A,112.8508,35.4887,晋城市,市环保局,细颗粒物(PM2.5),62,46,93,44,69,100,100,59,59,19,40,10,11,0.8,1.2
2023-02-17T15:00:00,2163A,112.8676,35.4897,晋城市,技术学院,细颗粒物(PM2.5),64,56,94,46,71,95,95,56,56,16,39,7,8,1.0,1.4
2023-02-17T15:00:00,2165A,112.8453,35.546,晋城市,白马寺 ,,,,,,,,,,,,,,,,
2023-02-17T15:00:00,2166A,112.4397,39.3522,朔州市,平朔,细颗粒物(PM2.5),102,100,100,76,68,101,63,32,32,32,46,16,18,0.8,0.8
2023-02-17T15:00:00,2167A,112.4575,39.3617,朔州市,朔唯,细颗粒物(PM2.5),95,102,126,71,70,111,61,36,28,42,55,15,20,0.8,0.8
2023-02-17T15:00:00,2168A,112.4258,39.3197,朔州市,区政府,颗粒物(PM10),82,114,94,58,60,110,74,62,38,32,40,16,17,0.8,0.9
2023-02-17T15:00:00,2169A,112.4072,39.3278,朔州市,市环保局,细颗粒物(PM2.5),105,107,97,79,62,99,66,63,32,36,41,20,18,0.8,0.8
2023-02-17T15:00:00,2170A,112.4272,39.3681,朔州市,市二中,细颗粒物(PM2.5),100,116,118,75,63,111,62,27,27,34,45,16,17,0.9,0.9
2023-02-17T15:00:00,2171A,112.7532,37.6945,晋中市,锦纶小区,细颗粒物(PM2.5),130,101,133,99,120,102,75,39,39,36,46,12,10,1.2,1.2
2023-02-17T15:00:00,2173A,112.7249,37.7067,晋中市,南都小区,细颗粒物(PM2.5),115,135,161,87,109,104,,32,32,32,49,10,11,,1.3
2023-02-17T15:00:00,2174A,112.6991,37.6982,晋中市,榆次区政府,细颗粒物(PM2.5),133,146,163,101,100,104,79,37,37,37,50,11,9,1.1,1.4
2023-02-17T15:00:00,2175A,110.9956,35.0147,运城市,运城中学,颗粒物(PM10),75,99,98,52,70,89,89,52,52,14,23,11,8,0.9,1.1
2023-02-17T15:00:00,2178A,110.9686,35.0303,运城市,地区技校,细颗粒物(PM2.5),82,105,106,60,77,89,89,55,55,14,26,11,8,0.8,1.2
2023-02-17T15:00:00,2179A,111.0414,35.1147,运城市,空港新区,细颗粒物(PM2.5),80,85,113,59,88,103,103,62,62,11,27,8,16,0.7,1.5
2023-02-17T15:00:00,2181A,112.7383,38.4519,忻州市,开发区,细颗粒物(PM2.5),222,212,189,172,163,104,96,45,45,44,66,13,7,1.3,1.4
2023-02-17T15:00:00,2182A,112.7003,38.4928,忻州市,会展中心,细颗粒物(PM2.5),224,204,188,174,160,71,71,37,37,60,76,25,13,1.1,1.2
2023-02-17T15:00:00,2183A,111.1406,37.5211,吕梁市,环保局,颗粒物(PM10),54,58,106,34,47,82,75,39,39,32,57,14,13,0.6,0.8
2023-02-17T15:00:00,2185A,111.1297,37.5136,吕梁市,自来水公司,颗粒物(PM10),55,60,108,35,44,81,81,42,42,24,50,13,14,0.7,0.9
2023-02-17T15:00:00,2187A,106.8174,39.6973,乌海市,市林业局,细颗粒物(PM2.5),79,93,111,58,58,116,66,70,30,44,54,40,38,1.6,1.4
2023-02-17T15:00:00,2188A,106.7907,39.6667,乌海市,中海勃湾学校,细颗粒物(PM2.5),89,87,120,66,68,118,68,38,38,50,61,48,43,1.5,1.5
2023-02-17T15:00:00,2191A,122.2532,43.6801,通辽市,艺术职业学校,,26,25,70,14,30,82,81,74,74,17,24,10,17,0.4,0.5
2023-02-17T15:00:00,2192A,119.7594,49.2261,呼伦贝尔市,区环保局,,30,26,37,21,26,82,81,57,57,5,23,6,5,0.3,0.5
2023-02-17T15:00:00,2195A,107.4212,40.761,巴彦淖尔市,附二中,颗粒物(PM10),100,149,91,72,36,114,114,68,68,21,31,10,11,1.0,0.8
2023-02-17T15:00:00,2196A,107.37,40.7372,巴彦淖尔市,市环保大楼,细颗粒物(PM2.5),124,140,76,94,40,126,126,73,73,23,35,16,13,1.0,0.7
2023-02-17T15:00:00,2197A,113.1306,40.9923,乌兰察布市,集宁新区,细颗粒物(PM2.5),70,65,88,51,52,100,100,53,48,19,38,12,15,0.4,0.7
2023-02-17T15:00:00,2200A,122.0392,46.0656,兴安盟,胜华新制药厂,,26,19,24,9,15,81,81,73,73,8,11,4,4,0.4,0.5
2023-02-17T15:00:00,2201A,121.9504,46.0741,兴安盟,科右前旗环保局,,,18,23,9,14,84,84,78,78,,10,2,3,0.4,0.4
2023-02-17T15:00:00,2202A,116.1042,43.9317,锡林郭勒盟,市环保监测站,,24,22,25,5,8,77,75,64,64,8,17,8,9,0.3,0.3
2023-02-17T15:00:00,2203A,116.0781,43.9311,锡林郭勒盟,市政府,,24,15,29,5,5,78,75,64,64,9,22,9,8,0.2,0.2
2023-02-17T15:00:00,2204A,105.6467,38.8363,阿拉善盟,西城区西花园,细颗粒物(PM2.5),60,59,66,43,41,105,104,81,81,15,23,13,11,0.9,0.9
2023-02-17T15:00:00,2205A,105.6985,38.8411,阿拉善盟,蒙二幼,细颗粒物(PM2.5),64,49,45,46,42,109,109,88,86,14,18,14,12,0.6,0.6
2023-02-17T15:00:00,2206A,105.724,38.8516,阿拉善盟,环保局新楼,细颗粒物(PM2.5),53,42,39,37,35,110,110,98,94,12,11,11,9,0.7,0.6
2023-02-17T15:00:00,2207A,121.6094,41.998,阜新市,工业园区,细颗粒物(PM2.5),107,135,166,80,102,71,71,38,38,32,45,27,22,1.2,1.6
2023-02-17T15:00:00,2208A,121.6697,42.0279,阜新市,长青街,细颗粒物(PM2.5),80,108,133,59,87,88,88,53,53,34,47,31,28,1.1,1.4
2023-02-17T15:00:00,2209A,121.6673,42.0705,阜新市,农业园区,细颗粒物(PM2.5),122,87,101,92,92,81,80,60,60,19,31,29,28,0.8,1.1
2023-02-17T15:00:00,2210A,121.6717,42.0224,阜新市,东苑,颗粒物(PM10),85,119,147,61,101,78,78,48,48,27,43,32,32,1.0,1.4
2023-02-17T15:00:00,2211A,121.6506,42.0498,阜新市,玉龙新城,细颗粒物(PM2.5),83,111,118,61,87,88,88,55,55,33,48,31,26,0.9,1.2
2023-02-17T15:00:00,2212A,123.2,41.1953,辽阳市,宏伟区,细颗粒物(PM2.5),100,70,75,75,54,80,69,76,69,25,24,13,14,1.0,1
2023-02-17T15:00:00,2213A,123.1683,41.2495,辽阳市,新华园,细颗粒物(PM2.5),110,93,86,83,69,90,63,79,66,42,33,16,16,1.1,1
2023-02-17T15:00:00,2214A,123.2354,41.2639,辽阳市,滨河路,细颗粒物(PM2.5),134,72,70,102,72,78,59,64,64,37,27,9,11,1.0,0.9
2023-02-17T15:00:00,2215A,123.149,41.2991,辽阳市,铁西工业园,细颗粒物(PM2.5),202,160,106,152,83,78,62,72,51,48,36,24,17,1.4,1
2023-02-17T15:00:00,2216A,123.8139,42.3022,铁岭市,汇工街西,细颗粒物(PM2.5),211,165,125,161,95,70,70,67,53,39,40,22,22,0.9,1
2023-02-17T15:00:00,2217A,123.8649,42.2923,铁岭市,水上乐园,细颗粒物(PM2.5),193,150,110,145,82,72,66,67,51,60,52,20,20,1.3,1.3
2023-02-17T15:00:00,2218A,123.8486,42.2867,铁岭市,银州路东段,细颗粒物(PM2.5),198,195,142,148,88,71,60,70,43,54,44,15,16,1.3,1.3
2023-02-17T15:00:00,2219A,123.7153,42.2217,铁岭市,金沙江路北,细颗粒物(PM2.5),211,169,119,161,89,65,60,59,48,51,49,21,23,1.1,1.1
2023-02-17T15:00:00,2220A,120.4318,41.5881,朝阳市,西梁,细颗粒物(PM2.5),94,116,119,70,90,104,104,66,66,22,36,14,16,1.0,1.2
2023-02-17T15:00:00,2221A,120.4521,41.5646,朝阳市,河畔小区,细颗粒物(PM2.5),128,121,110,97,89,108,108,76,76,34,40,14,15,1.1,1.2
2023-02-17T15:00:00,2222A,120.4176,41.5648,朝阳市,八里堡,细颗粒物(PM2.5),92,101,114,68,83,110,110,64,64,16,41,12,16,0.8,1.2
2023-02-17T15:00:00,2223A,120.3806,41.5969,朝阳市,农业园区,细颗粒物(PM2.5),107,118,101,80,82,102,102,78,78,25,27,15,15,1.1,1.1
2023-02-17T15:00:00,2225A,124.4002,43.1713,四平市,一商场,细颗粒物(PM2.5),89,110,130,66,67,83,83,55,55,17,36,8,14,0.4,0.9
2023-02-17T15:00:00,2226A,124.388,43.193,四平市,境园,细颗粒物(PM2.5),79,104,116,58,61,85,85,59,59,14,31,2,9,0.1,0.9
2023-02-17T15:00:00,2227A,125.1358,42.8845,辽源市,环保局,细颗粒物(PM2.5),95,79,74,71,61,102,92,90,90,25,29,18,16,0.9,0.9
2023-02-17T15:00:00,2229A,125.9358,41.7173,通化市,光明,,48,46,39,33,24,92,87,85,85,17,14,12,16,0.5,0.3
2023-02-17T15:00:00,2230A,125.9446,41.7325,通化市,铁路,,46,46,40,30,25,95,93,89,89,18,18,10,12,0.4,0.3
2023-02-17T15:00:00,2231A,126.4219,41.9171,白山市,喜丰,颗粒物(PM10),66,81,68,39,35,93,88,65,65,22,31,13,18,1.0,1
2023-02-17T15:00:00,2232A,126.4077,41.9419,白山市,环保局,细颗粒物(PM2.5),74,84,86,54,44,85,85,51,51,12,42,12,19,1.1,1.3
2023-02-17T15:00:00,2233A,124.8006,45.1214,松原市,江南,,26,26,86,10,62,80,76,62,62,9,27,5,9,0.2,0.6
2023-02-17T15:00:00,2234A,124.7965,45.1722,松原市,江北,,23,13,100,9,53,72,72,62,62,8,21,4,7,0.3,0.8
2023-02-17T15:00:00,2235A,122.7911,45.6077,白城市,洮北区环保局,,31,31,51,13,27,97,97,81,81,11,17,6,7,0.4,0.4
2023-02-17T15:00:00,2236A,122.8738,45.5725,白城市,市环保局,,30,26,53,16,14,93,93,70,70,10,28,4,6,0.2,0.3
2023-02-17T15:00:00,2237A,129.47,42.8883,延边朝鲜族自治州,妇幼医院,细颗粒物(PM2.5),87,68,47,64,33,80,80,34,34,28,36,18,30,0.8,0.7
2023-02-17T15:00:00,2238A,129.5055,42.9108,延边朝鲜族自治州,延边医院,细颗粒物(PM2.5),88,76,54,65,39,75,75,34,34,36,43,17,26,0.8,0.8
2023-02-17T15:00:00,2239A,129.3964,42.8881,延边朝鲜族自治州,朝阳川镇医院,细颗粒物(PM2.5),82,80,44,60,30,97,97,51,51,22,23,10,13,0.7,0.7
2023-02-17T15:00:00,2240A,130.9762,45.3001,鸡西市,环保局,细颗粒物(PM2.5),69,73,91,50,66,91,89,66,66,16,50,10,18,0.5,1
2023-02-17T15:00:00,2243A,130.9429,45.3039,鸡西市,第一中学,细颗粒物(PM2.5),64,67,71,46,46,93,92,80,80,9,35,6,17,0.6,0.7
2023-02-17T15:00:00,2244A,130.2537,47.3416,鹤岗市,哈啤分公司,颗粒物(PM10),68,85,72,48,38,61,44,56,36,56,41,24,20,1.0,0.7
2023-02-17T15:00:00,2245A,130.2684,47.3086,鹤岗市,斯达机电,细颗粒物(PM2.5),75,84,80,55,45,73,72,60,60,35,38,16,16,0.6,0.6
2023-02-17T15:00:00,2246A,130.3114,47.3388,鹤岗市,东山纸板厂,颗粒物(PM10),67,84,120,42,42,73,66,59,59,27,34,19,17,0.4,0.6
2023-02-17T15:00:00,2247A,130.1097,47.3382,鹤岗市,五号水库,细颗粒物(PM2.5),69,76,38,50,25,84,82,66,66,14,13,11,8,0.6,0.5
2023-02-17T15:00:00,2248A,131.1511,46.6937,双鸭山市,双合村,细颗粒物(PM2.5),103,76,92,77,50,106,106,69,58,10,28,11,18,0.8,1
2023-02-17T15:00:00,2249A,131.1652,46.6191,双鸭山市,南小市,"颗粒物(PM10),细颗粒物(PM2.5)",74,97,56,54,26,109,109,84,84,10,17,7,15,0.8,0.8
2023-02-17T15:00:00,2250A,131.1524,46.6554,双鸭山市,环保局,细颗粒物(PM2.5),84,71,47,62,37,116,116,86,81,13,28,3,6,0.7,0.7
2023-02-17T15:00:00,2251A,131.12,46.5656,双鸭山市,苗圃,细颗粒物(PM2.5),77,61,33,56,32,109,109,90,90,11,9,6,7,0.4,0.2
2023-02-17T15:00:00,2252A,128.5159,47.4311,伊春市,环保局,细颗粒物(PM2.5),94,105,40,70,29,65,65,46,32,20,30,9,13,1.0,1
2023-02-17T15:00:00,2253A,128.9102,47.7412,伊春市,电力嘉园,细颗粒物(PM2.5),135,147,44,103,23,76,76,55,38,13,30,8,15,1.0,1
2023-02-17T15:00:00,2254A,129.5029,48.471,伊春市,汤旺河国家公园,细颗粒物(PM2.5),97,104,47,72,27,82,48,48,47,11,7,9,6,0.5,0.3
2023-02-17T15:00:00,2255A,130.2751,46.8028,佳木斯市,佳纺,细颗粒物(PM2.5),112,113,91,84,74,99,99,62,62,16,47,3,13,0.6,0.9
2023-02-17T15:00:00,2256A,130.3995,46.8307,佳木斯市,发电厂,细颗粒物(PM2.5),97,73,64,72,59,100,100,75,75,19,32,5,9,0.6,0.7
2023-02-17T15:00:00,2257A,130.3258,46.7975,佳木斯市,环保局,细颗粒物(PM2.5),107,101,80,80,69,94,94,49,49,16,54,8,13,0.6,0.9
2023-02-17T15:00:00,2258A,130.3648,46.8032,佳木斯市,十一中,细颗粒物(PM2.5),117,111,77,88,71,95,95,54,54,20,65,7,11,0.7,1.1
2023-02-17T15:00:00,2259A,130.3794,46.7588,佳木斯市,四丰,细颗粒物(PM2.5),89,80,57,66,48,182,179,144,104,22,29,1,2,0.8,0.8
2023-02-17T15:00:00,2262A,131.0518,45.8751,七台河市,新一中,细颗粒物(PM2.5),74,68,48,54,36,113,113,78,78,19,24,11,13,0.8,0.6
2023-02-17T15:00:00,2263A,127.4833,50.2524,黑河市,交通局,,39,32,60,27,46,90,90,79,78,11,26,9,13,0.6,0.8
2023-02-17T15:00:00,2264A,127.5144,50.2341,黑河市,环保局,颗粒物(PM10),53,55,84,31,48,87,87,82,81,15,22,10,10,0.4,0.6
2023-02-17T15:00:00,2265A,127.5291,50.2472,黑河市,大黑河岛,,30,30,52,21,50,86,84,79,79,5,9,12,8,0.4,0.6
2023-02-17T15:00:00,2266A,126.9785,46.6365,绥化市,人和东街,细颗粒物(PM2.5),78,80,104,57,73,130,115,94,94,19,30,5,14,0.8,1.1
2023-02-17T15:00:00,2267A,126.964,46.6528,绥化市,党政办公中心,细颗粒物(PM2.5),77,71,112,56,88,140,124,88,88,17,27,5,13,0.6,1
2023-02-17T15:00:00,2269A,124.1069,50.4097,大兴安岭地区,科技局,,39,38,61,27,43,87,80,70,69,12,15,5,7,0.4,0.5
2023-02-17T15:00:00,2270A,117.396,32.939,蚌埠市,工人疗养院,细颗粒物(PM2.5),84,87,67,62,53,120,52,90,42,56,34,16,10,0.9,0.6
2023-02-17T15:00:00,2271A,117.3605,32.9427,蚌埠市,百货大楼,细颗粒物(PM2.5),88,92,75,65,55,117,56,84,42,43,33,7,4,0.7,0.5
2023-02-17T15:00:00,2273A,117.4185,32.8911,蚌埠市,蚌埠学院,细颗粒物(PM2.5),70,78,64,51,45,117,62,77,41,40,30,9,7,0.8,0.6
2023-02-17T15:00:00,2274A,117.3533,32.9673,蚌埠市,淮上区政府,细颗粒物(PM2.5),79,102,74,58,49,120,49,90,44,49,31,16,11,0.8,0.6
2023-02-17T15:00:00,2275A,117.3145,32.8977,蚌埠市,高新区,细颗粒物(PM2.5),73,78,63,53,47,118,64,74,47,33,30,13,9,0.8,0.6
2023-02-17T15:00:00,2277A,116.8305,32.7727,淮南市,潘集区政府,细颗粒物(PM2.5),119,111,94,90,73,101,54,57,38,32,31,12,8,0.5,0.6
2023-02-17T15:00:00,2278A,117.0067,32.6524,淮南市,师范学院,细颗粒物(PM2.5),93,113,94,69,65,109,62,44,38,32,32,14,12,0.6,0.6
2023-02-17T15:00:00,2279A,116.8569,32.5951,淮南市,谢家集区政府,细颗粒物(PM2.5),100,102,95,75,71,91,70,69,42,41,38,14,13,0.6,0.7
2023-02-17T15:00:00,2280A,116.8281,32.633,淮南市,八公山区政府,细颗粒物(PM2.5),120,96,91,91,82,93,68,48,43,26,27,14,10,0.5,0.6
2023-02-17T15:00:00,2281A,116.6325,32.6201,淮南市,焦岗湖风景区管理处,细颗粒物(PM2.5),100,104,93,75,72,83,56,34,34,24,37,8,5,0.8,0.8
2023-02-17T15:00:00,2282A,116.8004,33.975,淮北市,监测站,细颗粒物(PM2.5),69,76,96,50,67,118,99,64,64,19,30,9,8,0.7,0.8
2023-02-17T15:00:00,2283A,116.8091,33.9007,淮北市,烈山区政府,细颗粒物(PM2.5),65,62,93,47,64,114,106,69,69,30,37,11,8,0.6,0.6
2023-02-17T15:00:00,2284A,116.7856,33.9477,淮北市,职业技术学院,细颗粒物(PM2.5),70,73,92,51,71,115,100,62,60,26,35,9,8,0.7,0.7
2023-02-17T15:00:00,2285A,117.8177,30.9412,铜陵市,市第四中学,细颗粒物(PM2.5),72,87,76,52,55,96,52,63,24,48,48,16,6,0.9,0.5
2023-02-17T15:00:00,2286A,117.8059,30.9273,铜陵市,市公路局,细颗粒物(PM2.5),69,65,76,50,61,90,54,53,24,34,41,12,6,1.1,0.8
2023-02-17T15:00:00,2287A,117.7807,30.9413,铜陵市,市新民污水厂,颗粒物(PM10),74,98,82,50,45,88,27,70,19,60,51,8,8,1.0,0.7
2023-02-17T15:00:00,2288A,117.7439,30.8792,铜陵市,市第九中学,颗粒物(PM10),72,93,92,50,62,83,31,38,21,55,55,11,11,1.1,0.8
2023-02-17T15:00:00,2289A,117.846,30.9413,铜陵市,车站新区,颗粒物(PM10),70,89,74,43,53,92,36,64,26,52,36,12,9,0.8,0.6
2023-02-17T15:00:00,2290A,117.8483,30.97,铜陵市,市职教基地,颗粒物(PM10),68,85,70,47,41,97,28,72,23,44,30,9,7,0.7,0.4
2023-02-17T15:00:00,2291A,117.0809,30.5177,安庆市,环科院,细颗粒物(PM2.5),84,82,94,62,74,96,55,61,34,39,36,10,11,0.6,0.7
2023-02-17T15:00:00,2292A,117.0331,30.5119,安庆市,马山宾馆,细颗粒物(PM2.5),80,81,95,59,66,94,56,55,32,41,40,10,10,0.6,0.7
2023-02-17T15:00:00,2294A,116.9896,30.6145,安庆市,安庆大学,细颗粒物(PM2.5),73,84,101,53,86,97,72,50,40,38,35,12,8,0.7,0.8
2023-02-17T15:00:00,2295A,118.2903,29.6963,黄山市,延安路89号,,,47,43,,22,111,96,53,53,18,20,7,7,0.5,0.4
2023-02-17T15:00:00,2296A,118.327,29.7178,黄山市,黄山东路89号,,45,45,47,25,32,112,96,54,54,16,25,6,6,0.5,0.7
2023-02-17T15:00:00,2297A,118.1371,30.2756,黄山市,黄山区政府5号楼,,49,49,54,24,34,100,83,55,55,19,18,8,7,0.5,0.6
2023-02-17T15:00:00,2298A,118.3093,32.3153,滁州市,老年大学,细颗粒物(PM2.5),92,81,80,68,62,110,52,56,28,47,53,11,8,1.1,0.9
2023-02-17T15:00:00,2299A,118.3244,32.2786,滁州市,人大宾馆,细颗粒物(PM2.5),87,90,87,64,61,103,51,53,26,60,62,13,8,1.1,0.8
2023-02-17T15:00:00,2301A,115.8277,32.8929,阜阳市,市监测站,细颗粒物(PM2.5),100,90,100,75,86,81,76,62,58,23,28,8,6,0.6,0.6
2023-02-17T15:00:00,2303A,115.8554,32.8605,阜阳市,开发区,细颗粒物(PM2.5),97,98,119,72,77,80,73,71,56,27,31,9,9,0.7,0.7
2023-02-17T15:00:00,2307A,116.5079,31.737,六安市,监测大楼,细颗粒物(PM2.5),75,61,89,55,77,87,80,54,49,18,28,7,7,0.5,0.5
2023-02-17T15:00:00,2308A,116.4738,31.7643,六安市,皖西学院,,,74,97,57,69,91,,59,48,15,32,4,5,0.5,0.5
2023-02-17T15:00:00,2309A,116.4996,31.7905,六安市,朝阳厂,细颗粒物(PM2.5),77,63,84,56,74,82,79,53,47,21,40,6,6,0.6,0.7
2023-02-17T15:00:00,2310A,116.5567,31.7886,六安市,开发区,细颗粒物(PM2.5),73,79,112,53,75,88,82,47,47,18,36,9,9,0.5,0.6
2023-02-17T15:00:00,2311A,115.8072,33.8399,亳州市,污水处理厂,细颗粒物(PM2.5),53,47,72,37,55,95,95,69,64,11,15,7,7,0.6,0.6
2023-02-17T15:00:00,2312A,115.7789,33.8518,亳州市,三国揽胜宫,颗粒物(PM10),61,71,89,36,49,107,107,74,74,15,22,6,6,0.4,0.5
2023-02-17T15:00:00,2314A,117.47,30.6618,池州市,池州学院,细颗粒物(PM2.5),85,84,96,63,75,89,62,68,33,26,31,12,10,0.7,0.7
2023-02-17T15:00:00,2316A,118.7581,30.9454,宣城市,鳌峰子站,细颗粒物(PM2.5),87,81,76,64,54,100,55,47,47,37,30,5,8,0.7,0.6
2023-02-17T15:00:00,2317A,118.7385,30.9743,宣城市,敬亭山子站,细颗粒物(PM2.5),79,90,79,58,55,102,39,44,42,44,39,9,9,0.6,0.5
2023-02-17T15:00:00,2318A,118.7173,30.9427,宣城市,开发区子站,细颗粒物(PM2.5),79,85,76,58,55,101,47,50,44,38,35,5,6,0.6,0.6
2023-02-17T15:00:00,2319A,119.0141,25.4325,莆田市,荔城区仓后路,颗粒物(PM10),51,52,41,26,17,111,111,66,65,16,19,8,8,0.6,0.6
2023-02-17T15:00:00,2320A,119.0015,25.4553,莆田市,莆田市监测站,颗粒物(PM10),55,59,32,20,15,114,114,79,64,23,16,8,7,0.5,0.4
2023-02-17T15:00:00,2321A,119.1119,25.4561,莆田市,涵江区六中,细颗粒物(PM2.5),53,53,42,37,20,108,108,59,59,19,30,8,7,0.8,0.6
2023-02-17T15:00:00,2322A,119.1013,25.3215,莆田市,秀屿区政府,,39,39,40,22,22,105,105,75,63,13,23,6,6,0.5,0.4
2023-02-17T15:00:00,2323A,118.981,25.4792,莆田市,东圳水库,,,,,,,,,,,,,,,,
2023-02-17T15:00:00,2324A,117.6211,26.2625,三明市,三钢,,41,41,35,22,27,115,101,66,66,24,27,24,10,2.3,0.9
2023-02-17T15:00:00,2325A,117.635,26.2714,三明市,三明二中,,45,45,32,23,22,109,105,66,66,26,29,19,7,1.7,0.6
2023-02-17T15:00:00,2326A,117.6028,26.2378,三明市,三元区政府,,47,47,52,15,28,109,105,56,56,17,31,8,9,0.7,0.9
2023-02-17T15:00:00,2327A,117.7275,26.3108,三明市,洋溪,,,,,,,,,,,,,,,,
2023-02-17T15:00:00,2331A,118.0966,26.6761,南平市,茫荡山,,,,,,,,,,,,,,,,
2023-02-17T15:00:00,2332A,118.1681,26.6369,南平市,南平市监测站,,32,22,29,16,21,103,102,71,71,6,18,3,4,0.5,0.7
2023-02-17T15:00:00,2333A,118.1825,26.6489,南平市,南平铝业有限公司,,32,32,32,10,19,91,91,65,65,6,19,8,12,0.4,0.5
2023-02-17T15:00:00,2334A,118.1756,26.6272,南平市,南平七中,,34,33,32,13,17,107,107,72,72,6,17,4,4,0.5,0.6
2023-02-17T15:00:00,2335A,117.0189,25.1181,龙岩市,龙岩师专,,,,,,,,,,,,,,,,
2023-02-17T15:00:00,2336A,117.0217,25.1033,龙岩市,龙岩市监测站,,43,43,47,22,27,134,134,80,80,14,27,9,7,0.6,0.7
2023-02-17T15:00:00,2337A,117.0258,25.0661,龙岩市,闽西职业技术学院,,45,45,50,20,25,125,125,75,75,16,27,9,16,0.5,0.6
2023-02-17T15:00:00,2338A,117.0196,25.0306,龙岩市,龙岩学院,颗粒物(PM10),53,55,41,20,23,127,127,69,69,17,20,6,6,0.6,0.6
2023-02-17T15:00:00,2339A,119.5001,26.6946,宁德市,金涵水库,,,,,,,,,,,,,,,,
2023-02-17T15:00:00,2341A,119.5388,26.6612,宁德市,宁德市监测站,颗粒物(PM10),52,53,37,19,27,121,78,69,58,18,18,3,3,0.5,0.6
2023-02-17T15:00:00,2342A,117.3102,29.3867,景德镇市,王港中学,,32,28,35,22,19,53,53,26,26,7,10,4,4,0.3,0.3
2023-02-17T15:00:00,2343A,117.2117,29.2933,景德镇市,老干部活动中心,颗粒物(PM10),52,53,86,20,36,97,67,39,39,27,33,22,14,0.7,0.8
2023-02-17T15:00:00,2344A,117.1894,29.2789,景德镇市,兽医站,颗粒物(PM10),56,61,59,31,39,104,74,38,38,40,34,33,17,1.0,0.8
2023-02-17T15:00:00,2345A,117.1547,29.2617,景德镇市,台达陶瓷,"颗粒物(PM10),细颗粒物(PM2.5)",58,66,65,41,39,85,81,32,32,31,46,49,46,0.9,1
2023-02-17T15:00:00,2346A,117.2461,29.2956,景德镇市,陶研所,,28,28,56,11,26,104,83,47,47,16,29,5,6,0.7,0.7
2023-02-17T15:00:00,2347A,114.0997,27.5002,萍乡市,武功山,,33,32,32,23,30,76,72,46,46,11,13,14,12,0.7,0.8
2023-02-17T15:00:00,2348A,113.8385,27.6434,萍乡市,中医院,,,89,99,52,62,86,74,33,33,,35,30,30,,1.2
2023-02-17T15:00:00,2349A,113.8493,27.6253,萍乡市,市政府车库,颗粒物(PM10),68,85,89,42,58,88,76,35,35,20,30,30,25,1.8,1.5
2023-02-17T15:00:00,2350A,113.8676,27.6435,萍乡市,市环保局,颗粒物(PM10),61,72,84,40,56,87,74,38,38,27,35,34,33,1.5,1.1
2023-02-17T15:00:00,2351A,113.866,27.6198,萍乡市,安源区政府,,,69,82,,54,85,,32,32,30,30,28,26,1.4,1
2023-02-17T15:00:00,2352A,115.0861,27.9317,新余市,北岗,,46,37,43,32,33,84,84,48,48,16,22,13,14,0.6,0.6
2023-02-17T15:00:00,2353A,114.9886,27.8431,新余市,飞宇,颗粒物(PM10),52,53,62,26,35,76,73,47,44,10,22,10,20,0.3,0.3
2023-02-17T15:00:00,2354A,114.9231,27.8246,新余市,第二水厂,细颗粒物(PM2.5),97,111,73,72,46,70,58,47,34,36,28,38,23,1.7,0.7
2023-02-17T15:00:00,2355A,114.9308,27.8036,新余市,市气象局,细颗粒物(PM2.5),95,104,83,71,44,79,65,55,37,26,27,24,16,1.1,0.5
2023-02-17T15:00:00,2357A,116.9822,28.1136,鹰潭市,龙虎山,,43,40,34,30,22,104,103,66,66,2,2,6,5,0.8,0.6
2023-02-17T15:00:00,2358A,117.0564,28.2642,鹰潭市,新监测站,,38,38,43,23,28,111,100,78,78,14,26,10,8,0.4,0.6
2023-02-17T15:00:00,2359A,117.0311,28.2475,鹰潭市,财苑宾馆,颗粒物(PM10),51,51,49,26,29,104,103,65,65,17,27,13,10,0.8,0.6
2023-02-17T15:00:00,2360A,117.0222,28.2264,鹰潭市,体育馆,,43,43,48,25,29,110,104,62,62,13,26,14,9,0.4,0.4
2023-02-17T15:00:00,2361A,117.0017,28.2131,鹰潭市,三川水表,,50,50,49,29,32,102,94,57,57,23,24,5,4,0.3,0.5
2023-02-17T15:00:00,2362A,114.9017,25.9149,赣州市,通天岩,颗粒物(PM10),57,64,45,30,22,136,126,65,65,6,13,9,9,1.0,0.9
2023-02-17T15:00:00,2363A,114.9367,25.8664,赣州市,地委,颗粒物(PM10),57,63,64,36,30,118,118,69,69,22,33,16,14,1.0,1
2023-02-17T15:00:00,2364A,114.9461,25.8481,赣州市,气象台,颗粒物(PM10),63,75,71,40,36,116,116,59,59,14,34,13,12,0.8,1
2023-02-17T15:00:00,2365A,114.9322,25.8333,赣州市,市图书馆,颗粒物(PM10),57,63,66,37,36,116,116,57,57,20,42,8,10,1.1,1.1
2023-02-17T15:00:00,2366A,114.8905,25.8471,赣州市,华坚鞋城,,,70,79,38,41,117,90,57,57,,50,7,17,1.0,1.1
2023-02-17T15:00:00,2367A,114.9754,27.0803,吉安市,红声器材厂,颗粒物(PM10),55,59,56,30,32,101,101,59,59,19,23,10,8,0.6,0.8
2023-02-17T15:00:00,2368A,114.9658,27.0999,吉安市,市森林工业局,颗粒物(PM10),52,54,53,33,36,104,104,58,58,18,25,10,8,0.3,0.3
2023-02-17T15:00:00,2369A,114.99,27.1312,吉安市,市环境监测站,颗粒物(PM10),53,55,52,31,34,106,105,62,62,17,24,11,14,0.6,0.6
2023-02-17T15:00:00,2370A,115.0093,27.0968,吉安市,青原区法院,,,,54,,33,99,99,55,55,21,29,,10,0.5,0.6
2023-02-17T15:00:00,2371A,114.3408,27.8064,宜春市,槟榔水业,颗粒物(PM10),54,58,60,30,36,76,71,47,47,16,20,15,15,0.7,0.6
2023-02-17T15:00:00,2373A,114.3956,27.7844,宜春市,市石油公司,颗粒物(PM10),60,70,69,40,41,98,89,48,48,19,24,10,9,0.6,0.7
2023-02-17T15:00:00,2374A,114.3703,27.7914,宜春市,市气象局,颗粒物(PM10),59,67,71,39,43,96,90,48,48,20,31,14,14,0.7,0.8
2023-02-17T15:00:00,2375A,114.4013,27.8074,宜春市,市广电局,颗粒物(PM10),64,77,65,40,45,97,92,55,55,23,29,10,17,0.8,0.9
2023-02-17T15:00:00,2376A,116.2127,28.0814,抚州市,桐源党溪,颗粒物(PM10),52,53,49,34,30,105,91,50,50,3,3,38,32,0.8,0.8
