timepoint,stationcode,longitude,latitude,area,positionname,primarypollutant,aqi,pm10,pm10_24h,pm2_5,pm2_5_24h,o3,o3_24h,o3_8h,o3_8h_24h,no2,no2_24h,so2,so2_24h,co,co_24h
2025-01-12T1000,2566A,102.1879,31.914,阿坝藏族羌族自治州,州农科所,,17,12,19,7,9,52,,59,57,8,8,6,6,0.9,0.7
2025-01-12T1000,2568A,102.2502,31.8896,阿坝藏族羌族自治州,马师校,,18,,13,12,12,45,,52,48,14,9,4,4,0.3,0.3
2025-01-12T1000,3994A,102.2165,31.9024,阿坝藏族羌族自治州,马尔康中学西区,,17,7,16,7,13,52,,62,58,12,7,4,4,0.4,0.4
2025-01-12T1000,2695A,80.292,41.1694,阿克苏地区,电视台,细颗粒物(PM2.5),72,63,77,52,62,55,,57,57,17,29,6,5,0.6,0.8
2025-01-12T1000,2696A,80.2613,41.1551,阿克苏地区,艺术中心,细颗粒物(PM2.5),79,73,82,58,58,48,,49,49,19,27,3,3,0.9,1
2025-01-12T1000,2204A,105.6467,38.8363,阿拉善盟,西城区西花园,颗粒物(PM10),55,60,56,22,20,88,,84,84,14,14,7,8,0.6,0.6
2025-01-12T1000,2205A,105.6985,38.8411,阿拉善盟,蒙二幼,颗粒物(PM10),58,65,53,17,11,82,,82,82,12,10,7,4,0.7,0.6
2025-01-12T1000,2206A,105.724,38.8516,阿拉善盟,环保局新楼,颗粒物(PM10),52,53,48,12,9,92,,92,92,6,4,8,7,0.6,0.5
2025-01-12T1000,2708A,88.1264,47.8517,阿勒泰地区,市站,,18,,20,10,13,28,,32,32,35,34,7,11,0.6,0.5
2025-01-12T1000,2630A,80.1161,32.5,阿里地区,阿里监测站,,21,11,9,6,5,66,,77,74,12,6,15,9,0.5,0.5
2025-01-12T1000,3192A,80.0903,32.5028,阿里地区,阿里藏医院,,21,13,12,7,6,66,,75,74,14,6,14,11,0.6,0.6
2025-01-12T1000,2642A,109.0318,32.6537,安康市,香溪洞,细颗粒物(PM2.5),57,49,53,40,39,44,,55,48,14,16,10,10,0.6,0.6
2025-01-12T1000,2644A,109.0072,32.6975,安康市,汉滨区检察院,细颗粒物(PM2.5),63,67,63,45,42,22,,30,27,29,27,6,6,0.7,0.6
2025-01-12T1000,4054A,109.0325,32.6913,安康市,市邮政管理局,细颗粒物(PM2.5),72,77,76,52,51,18,,21,19,33,37,6,6,0.9,0.9
2025-01-12T1000,2291A,117.0809,30.5177,安庆市,环科院,细颗粒物(PM2.5),85,99,78,63,50,43,,35,33,53,44,13,9,0.7,0.6
2025-01-12T1000,2292A,117.0331,30.5119,安庆市,马山宾馆,细颗粒物(PM2.5),77,81,76,56,51,58,,36,36,29,44,15,11,0.8,0.8
2025-01-12T1000,2294A,116.9896,30.6145,安庆市,安庆大学,细颗粒物(PM2.5),87,93,90,64,56,41,,42,41,40,38,12,10,0.9,0.8
2025-01-12T1000,3173A,117.0598,30.5351,安庆市,市人大,细颗粒物(PM2.5),82,85,77,60,52,49,,41,41,39,33,15,10,0.9,0.9
2025-01-12T1000,3122A,105.9606,26.2611,安顺市,伍家关,细颗粒物(PM2.5),75,70,63,55,58,20,,8,8,33,31,64,111,1.8,1.4
2025-01-12T1000,3123A,105.9408,26.2431,安顺市,凤凰山,细颗粒物(PM2.5),122,,52,92,64,12,,7,7,47,33,113,88,2.2,1.5
2025-01-12T1000,3124A,105.9439,26.2564,安顺市,金钟山,细颗粒物(PM2.5),78,66,67,57,57,27,,10,10,33,28,64,71,1.5,1.3
2025-01-12T1000,3125A,105.8983,26.2481,安顺市,娄家坡,细颗粒物(PM2.5),73,64,50,53,43,34,,29,29,33,29,65,32,1.3,0.8
2025-01-12T1000,1818A,114.4839,36.0621,安阳市,棉研所,颗粒物(PM10),60,70,73,30,31,27,,28,25,32,27,11,12,0.9,0.8
2025-01-12T1000,1819A,114.3551,36.1017,安阳市,红庙街,颗粒物(PM10),63,76,70,33,34,45,,32,29,17,13,22,11,2.1,1.1
2025-01-12T1000,1820A,114.361,36.0681,安阳市,银杏小区,颗粒物(PM10),62,74,71,26,29,44,,39,35,23,17,10,6,1.4,0.9
2025-01-12T1000,3141A,114.3922,36.0878,安阳市,信访局,颗粒物(PM10),55,60,70,29,35,46,,37,34,26,19,18,9,1.6,0.7
2025-01-12T1000,3669A,114.4705,36.0637,安阳市,左辅环卫站,颗粒物(PM10),67,84,74,37,32,26,,33,28,30,20,7,9,0.7,0.7
2025-01-12T1000,3703A,114.2917,36.0949,安阳市,安钢职工学校,颗粒物(PM10),73,96,87,39,37,34,,34,32,30,24,11,11,1.1,1
2025-01-12T1000,1748A,123.044,41.1196,鞍山市,深沟寺,细颗粒物(PM2.5),90,99,74,67,51,27,,27,26,45,38,19,15,2.0,1.2
2025-01-12T1000,1749A,123.011,41.0931,鞍山市,太阳城,细颗粒物(PM2.5),98,100,82,73,56,18,,23,19,65,48,25,19,2.4,1.3
2025-01-12T1000,1750A,123.0485,41.1442,鞍山市,太平,细颗粒物(PM2.5),105,127,98,79,58,18,,12,12,57,51,20,15,2.1,1.4
2025-01-12T1000,1751A,122.9642,41.0971,鞍山市,铁西三道街,细颗粒物(PM2.5),236,300,146,186,89,10,,7,7,65,58,21,19,5.4,2.1
2025-01-12T1000,1752A,122.9341,41.0833,鞍山市,铁西工业园区,细颗粒物(PM2.5),199,227,232,149,141,14,,14,14,79,70,23,22,4.6,3.1
2025-01-12T1000,1753A,123.022,41.0821,鞍山市,明达新区,细颗粒物(PM2.5),105,110,80,79,53,23,,19,19,36,31,28,18,2.6,1.6
2025-01-12T1000,1754A,123.1289,41.0228,鞍山市,千山,,,,62,,35,,,37,,,35,,7,,1.2
2025-01-12T1000,2195A,107.4212,40.761,巴彦淖尔市,附二中,颗粒物(PM10),62,73,39,19,22,22,,37,31,32,19,8,4,0.9,0.5
2025-01-12T1000,2196A,107.37,40.7372,巴彦淖尔市,市环保大楼,,31,31,31,10,12,19,,42,36,31,13,4,4,0.7,0.4
2025-01-12T1000,1956A,86.1472,41.7538,巴音郭楞蒙古自治州,孔雀公园,,32,24,32,22,27,62,,67,65,6,8,2,2,0.5,0.5
2025-01-12T1000,1957A,86.1972,41.7166,巴音郭楞蒙古自治州,棉纺厂,,42,42,36,18,15,63,,68,66,10,10,1,1,0.4,0.5
2025-01-12T1000,1958A,86.2357,41.7173,巴音郭楞蒙古自治州,经济开发区,,28,21,25,19,17,65,,66,66,10,15,2,2,0.4,0.4
2025-01-12T1000,2914A,106.7677,31.8794,巴中市,苏山坪,细颗粒物(PM2.5),68,60,51,49,35,43,,70,65,18,15,3,3,0.6,0.4
2025-01-12T1000,3182A,106.7656,31.8545,巴中市,丽阳花园,细颗粒物(PM2.5),70,75,69,51,44,8,,7,7,34,38,4,3,0.9,0.7
2025-01-12T1000,3183A,106.7418,31.8654,巴中市,圣泉水务公司,细颗粒物(PM2.5),52,48,57,36,40,22,,18,18,28,35,2,3,0.5,0.5
2025-01-12T1000,3616A,106.7616,31.8344,巴中市,市中心医院,细颗粒物(PM2.5),83,69,69,61,52,7,,3,3,30,36,4,3,0.9,0.7
2025-01-12T1000,2235A,122.7911,45.6077,白城市,洮北区环保局,细颗粒物(PM2.5),165,,100,125,108,34,,29,29,35,39,12,8,1.4,1.2
2025-01-12T1000,2236A,122.8738,45.5725,白城市,市环保局,细颗粒物(PM2.5),286,254,93,236,79,16,,11,11,56,50,6,4,1.7,0.8
2025-01-12T1000,2231A,126.4219,41.9171,白山市,喜丰,细颗粒物(PM2.5),69,82,78,50,33,28,,22,22,37,43,31,31,1.1,0.9
2025-01-12T1000,2232A,126.4077,41.9419,白山市,环保局,颗粒物(PM10),64,78,72,45,31,23,,19,18,23,22,26,24,1.1,1
2025-01-12T1000,2647A,104.1724,36.5446,白银市,第三小学,"颗粒物(PM10),细颗粒物(PM2.5)",58,65,54,41,30,26,,38,33,37,26,30,21,1.4,1.1
2025-01-12T1000,2648A,104.1465,36.5482,白银市,动力公司,颗粒物(PM10),52,53,49,30,25,32,,36,31,39,25,15,11,1.2,0.8
2025-01-12T1000,2512A,106.6103,23.9011,百色市,市监测站,,46,46,35,29,24,24,,23,19,28,22,11,9,1.0,0.9
2025-01-12T1000,2513A,106.6538,23.8859,百色市,市中心血站,,48,47,57,33,31,34,,21,21,25,35,10,9,0.6,0.7
2025-01-12T1000,3406A,106.6085,23.8798,百色市,祈福高中,,39,29,60,27,24,23,,11,11,22,32,6,6,0.7,0.6
2025-01-12T1000,2270A,117.396,32.939,蚌埠市,工人疗养院,颗粒物(PM10),71,92,85,39,40,48,,64,59,33,31,10,7,0.6,0.6
2025-01-12T1000,2271A,117.3605,32.9427,蚌埠市,百货大楼,颗粒物(PM10),75,99,86,39,42,48,,62,57,25,28,10,8,0.7,0.7
2025-01-12T1000,2273A,117.4185,32.8911,蚌埠市,蚌埠学院,,,97,94,,44,61,,65,64,16,22,10,10,0.5,0.5
2025-01-12T1000,2274A,117.3533,32.9673,蚌埠市,淮上区政府,颗粒物(PM10),78,105,90,47,44,47,,59,53,27,27,12,10,0.6,0.6
2025-01-12T1000,2275A,117.3145,32.8977,蚌埠市,高新区,颗粒物(PM10),76,102,95,41,45,57,,62,59,23,32,11,10,0.5,0.5
2025-01-12T1000,3715A,117.3092,32.9314,蚌埠市,蚌埠田家炳中学,颗粒物(PM10),78,105,98,39,45,54,,58,57,18,30,8,10,0.6,0.6
2025-01-12T1000,1585A,109.8756,40.6532,包头市,市环境监测站,,50,50,40,21,13,13,,19,12,56,31,28,11,1.7,0.7
2025-01-12T1000,1587A,109.9991,40.5842,包头市,包头八中,颗粒物(PM10),52,54,63,28,14,19,,25,20,45,26,26,6,1.2,0.6
2025-01-12T1000,1588A,109.8538,40.6821,包头市,青山宾馆,细颗粒物(PM2.5),59,59,33,42,17,10,,21,15,58,26,30,12,2.0,0.7
2025-01-12T1000,1589A,109.8642,40.6288,包头市,惠龙物流,,35,35,34,16,10,19,,21,16,49,31,21,10,1.2,0.7
2025-01-12T1000,1590A,110.0377,40.5546,包头市,东河鸿龙湾,,36,36,45,25,13,23,,20,14,38,28,19,10,1.0,0.6
2025-01-12T1000,3283A,109.9154,40.5685,包头市,滨河大厦,,30,30,36,11,12,27,,23,20,37,28,9,7,0.5,0.4
2025-01-12T1000,3419A,109.9447,40.6261,包头市,包头市委党校,"颗粒物(PM10),细颗粒物(PM2.5)",64,77,42,46,16,18,,28,26,55,27,25,7,1.7,0.6
2025-01-12T1000,3683A,109.8331,40.6576,包头市,昆区政府,,41,41,36,20,15,16,,27,17,52,27,23,11,1.3,0.6
2025-01-12T1000,1930A,107.185,34.3063,宝鸡市,庙沟村,颗粒物(PM10),72,94,55,36,22,36,,46,35,29,20,12,10,0.7,0.5
2025-01-12T1000,1931A,107.0708,34.3017,宝鸡市,竹园沟,细颗粒物(PM2.5),70,70,46,51,23,27,,34,28,28,16,8,6,0.6,0.4
2025-01-12T1000,1932A,107.1906,34.3672,宝鸡市,三陆医院,颗粒物(PM10),86,122,73,38,36,17,,12,12,46,42,8,5,0.7,0.5
2025-01-12T1000,1933A,107.1431,34.3547,宝鸡市,监测站,颗粒物(PM10),69,88,69,39,32,22,,24,21,35,31,9,8,0.9,0.6
2025-01-12T1000,1934A,107.1186,34.3739,宝鸡市,技工学校,颗粒物(PM10),68,86,72,37,32,23,,32,29,30,25,18,10,0.8,0.6
2025-01-12T1000,1935A,107.3906,34.3528,宝鸡市,陈仓区环保局家属楼,颗粒物(PM10),85,120,95,49,43,12,,9,9,51,49,11,14,1.2,0.9
2025-01-12T1000,1936A,107.2058,34.3497,宝鸡市,文理学院,颗粒物(PM10),70,90,72,46,42,23,,24,22,18,23,9,7,0.7,0.5
2025-01-12T1000,1937A,107.2386,34.3622,宝鸡市,三迪小学,颗粒物(PM10),63,75,73,38,37,15,,11,11,45,50,10,8,0.8,0.6
2025-01-12T1000,1051A,115.493,38.8632,保定市,游泳馆,颗粒物(PM10),61,71,86,43,60,23,,8,8,52,65,7,9,0.8,0.9
2025-01-12T1000,1052A,115.5213,38.8959,保定市,华电二区,细颗粒物(PM2.5),73,73,75,53,60,21,,5,5,52,65,3,5,0.6,0.7
2025-01-12T1000,1053A,115.4713,38.9108,保定市,接待中心,细颗粒物(PM2.5),87,93,86,64,61,17,,8,8,54,58,3,3,1.2,1.1
2025-01-12T1000,1054A,115.4612,38.8416,保定市,地表水厂,细颗粒物(PM2.5),62,71,109,44,71,19,,5,5,52,65,3,5,0.6,0.7
2025-01-12T1000,3581A,115.31981,38.95208,保定市,满城区生态环境分局,细颗粒物(PM2.5),77,90,94,56,58,29,,10,10,52,70,5,6,0.7,0.9
2025-01-12T1000,3582A,115.47694,38.76408,保定市,清苑区第二中学,颗粒物(PM10),74,98,111,53,69,22,,8,8,60,73,7,9,0.7,0.8
2025-01-12T1000,3583A,115.62909,39.02311,保定市,徐水物探局,细颗粒物(PM2.5),98,90,69,73,53,8,,3,3,55,56,9,9,0.7,0.7
2025-01-12T1000,4004A,115.4202,38.8656,保定市,双鹰农机,颗粒物(PM10),60,70,86,36,59,27,,13,13,46,52,6,6,0.6,0.7
2025-01-12T1000,4034A,115.5150,38.8590,保定市,植保所站,细颗粒物(PM2.5),90,78,83,67,61,14,,5,5,57,61,5,7,0.5,0.5
2025-01-12T1000,2594A,99.1678,25.1081,保山市,市环境监测站,细颗粒物(PM2.5),64,,34,46,27,14,,25,17,26,14,5,4,0.8,0.6
2025-01-12T1000,2595A,99.1711,25.1328,保山市,市环保局,,36,36,33,23,22,20,,38,29,19,9,6,6,0.6,0.5
2025-01-12T1000,1866A,109.2262,21.588,北海市,牛尾岭水库,,,,47,68,38,37,,42,38,,10,7,7,0.8,0.6
2025-01-12T1000,1867A,109.1436,21.4086,北海市,海滩公园,颗粒物(PM10),55,59,57,37,36,84,,87,84,22,15,11,10,0.7,0.6
2025-01-12T1000,1868A,109.0981,21.4661,北海市,新市环保局,细颗粒物(PM2.5),73,60,55,53,39,78,,84,79,23,18,12,11,1.0,0.9
2025-01-12T1000,1869A,109.1778,21.5233,北海市,北海工业园,细颗粒物(PM2.5),92,92,67,68,45,67,,74,67,32,18,13,13,0.8,0.6
2025-01-12T1000,3400A,109.1911,21.4415,北海市,龙潭自来水厂,细颗粒物(PM2.5),94,92,65,70,48,73,,67,61,25,19,17,12,0.7,0.6
2025-01-12T1000,1001A,116.3621,39.8784,北京市,万寿西宫,,20,20,39,9,22,52,,50,50,12,34,4,4,0.3,0.3
2025-01-12T1000,1002A,116.2202,40.2915,北京市,定陵,,,,,,,,,,,,,,,,
2025-01-12T1000,1003A,116.4174,39.9289,北京市,东四,,19,19,38,9,19,56,,50,50,8,27,3,3,0.2,0.4
2025-01-12T1000,1004A,116.4072,39.8863,北京市,天坛,,23,23,40,10,21,58,,49,49,13,32,2,2,0.4,0.4
2025-01-12T1000,1005A,116.462,39.9365,北京市,农展馆,,20,20,38,9,19,60,,57,57,11,31,3,3,0.5,0.5
2025-01-12T1000,1006A,116.3392,39.9295,北京市,官园,,20,20,40,10,21,43,,45,44,18,32,4,5,0.5,0.6
2025-01-12T1000,1007A,116.2878,39.9611,北京市,海淀万柳,,22,22,41,11,20,44,,46,43,20,32,3,3,0.5,0.6
2025-01-12T1000,1008A,116.6636,40.135,北京市,顺义新城,,17,17,27,10,13,48,,45,45,8,19,3,3,0.2,0.3
2025-01-12T1000,1009A,116.6275,40.3275,北京市,怀柔镇,,20,14,27,8,15,62,,31,27,3,20,2,1,0.4,0.5
2025-01-12T1000,1010A,116.2296,40.217,北京市,昌平镇,,20,20,42,8,19,61,,49,49,6,28,3,3,0.6,0.7
2025-01-12T1000,1011A,116.3966,39.9821,北京市,奥体中心,,19,19,37,9,19,54,,47,47,13,34,5,5,0.2,0.4
2025-01-12T1000,3281A,115.9718,40.4529,北京市,延庆夏都,,24,24,44,12,25,47,,47,46,12,22,2,3,0.3,0.4
2025-01-12T1000,3417A,117.0709,40.1465,北京市,平谷新城,,20,20,32,11,18,48,,49,49,12,15,1,1,0.2,0.4
2025-01-12T1000,3418A,116.8336,40.4095,北京市,密云新城,,17,16,23,8,12,53,,54,54,7,11,1,2,0.2,0.2
2025-01-12T1000,3671A,116.088,39.9726,北京市,门头沟三家店,,18,15,46,6,20,55,,45,43,6,25,3,3,0.2,0.4
2025-01-12T1000,3672A,116.1541,39.8204,北京市,丰台云岗,,19,19,41,6,21,51,,57,55,13,26,2,3,0.2,0.3
2025-01-12T1000,3673A,116.6804,39.9081,北京市,通州东关,颗粒物(PM10),51,51,46,14,21,47,,41,41,8,28,2,3,0.2,0.3
2025-01-12T1000,3674A,115.9577,39.7603,北京市,房山燕山,,24,24,38,15,24,54,,69,66,18,23,2,4,0.3,0.4
2025-01-12T1000,3675A,116.4672,39.7733,北京市,大兴旧宫,,17,17,36,7,19,52,,49,49,9,28,2,2,0.2,0.3
2025-01-12T1000,3694A,115.986,40.4563,北京市,延庆石河营,,25,25,44,15,26,43,,44,44,13,24,1,3,0.5,0.6
2025-01-12T1000,3695A,116.6151,40.3053,北京市,怀柔新城,,19,14,23,8,14,60,,52,50,2,10,2,2,0.1,0.2
2025-01-12T1000,3696A,116.2545,39.8768,北京市,丰台小屯,,20,20,45,8,20,48,,48,45,19,40,4,5,0.3,0.4
2025-01-12T1000,3697A,116.84,40.3844,北京市,密云镇,,22,22,31,10,16,43,,31,31,18,31,1,3,0.4,0.3
2025-01-12T1000,4182A,116.1942,39.91583,北京市,八角,,24,24,42,10,20,34,,51,45,20,23,1,2,0.4,0.4
2025-01-12T1000,1761A,123.8275,41.3064,本溪市,大峪,细颗粒物(PM2.5),135,156,129,103,91,14,,9,9,54,62,6,7,3.9,3
2025-01-12T1000,1762A,123.7567,41.3325,本溪市,溪湖,颗粒物(PM10),133,216,175,98,83,10,,7,7,49,51,12,12,3.1,1.9
2025-01-12T1000,1763A,123.7169,41.3094,本溪市,彩屯,细颗粒物(PM2.5),195,184,118,146,93,11,,10,8,54,50,11,8,4.2,2.6
2025-01-12T1000,1764A,123.7669,41.2864,本溪市,东明,细颗粒物(PM2.5),148,140,129,113,89,11,,8,8,54,63,16,19,3.7,2.8
2025-01-12T1000,1765A,123.7992,41.2664,本溪市,新立屯,细颗粒物(PM2.5),160,,106,122,73,30,,15,15,62,67,5,7,6.3,3.1
2025-01-12T1000,1766A,123.8142,41.3472,本溪市,威宁,颗粒物(PM10),134,218,138,95,76,20,,13,13,41,50,5,5,2.8,2.1
2025-01-12T1000,2587A,105.2864,27.3125,毕节市,八中,细颗粒物(PM2.5),98,89,38,73,35,12,,17,16,21,14,7,8,1.3,0.8
2025-01-12T1000,2588A,105.31,27.2944,毕节市,师专,细颗粒物(PM2.5),79,61,46,58,36,12,,7,7,21,24,4,6,1.0,0.9
2025-01-12T1000,3537A,105.3631,27.3533,毕节市,长征村,细颗粒物(PM2.5),80,70,31,59,26,20,,8,8,16,13,7,7,1.1,0.7
2025-01-12T1000,1629A,118.0018,37.3617,滨州市,第二水厂,细颗粒物(PM2.5),85,105,74,63,43,25,,8,8,54,50,25,15,0.8,0.5
2025-01-12T1000,1630A,117.9776,37.393,滨州市,北中新校,细颗粒物(PM2.5),107,117,75,80,45,15,,5,5,64,55,23,12,0.9,0.7
2025-01-12T1000,3514A,117.9378,37.3956,滨州市,中海酒店,细颗粒物(PM2.5),117,114,75,88,53,21,,12,12,52,44,26,19,1.1,0.8
2025-01-12T1000,3515A,117.9378,37.3553,滨州市,开发区一中,细颗粒物(PM2.5),117,107,78,88,50,22,,9,9,61,52,33,18,0.9,0.6
2025-01-12T1000,3516A,118.0917,37.694,滨州市,金海六路,细颗粒物(PM2.5),100,112,73,75,47,11,,7,7,64,56,21,15,1.3,0.9
2025-01-12T1000,4028A,117.9956,37.3753,滨州市,滨州市西街道办事处,细颗粒物(PM2.5),104,107,73,78,53,20,,6,6,49,45,22,13,1.1,0.8
2025-01-12T1000,2311A,115.8072,33.8399,亳州市,污水处理厂,颗粒物(PM10),69,88,88,39,33,42,,48,43,26,25,5,4,0.5,0.4
2025-01-12T1000,2312A,115.7789,33.8518,亳州市,三国揽胜宫,颗粒物(PM10),71,91,92,43,36,42,,50,44,30,24,6,5,0.6,0.5
2025-01-12T1000,3332A,115.7633,33.8034,亳州市,亳州学院,颗粒物(PM10),72,93,83,35,31,38,,47,40,27,19,4,3,0.6,0.4
2025-01-12T1000,2693A,82.0485,44.8556,博尔塔拉蒙古自治州,市党校,细颗粒物(PM2.5),63,61,38,45,33,32,,59,52,26,18,10,8,0.8,0.8
2025-01-12T1000,2694A,82.0806,44.8969,博尔塔拉蒙古自治州,市环保局,颗粒物(PM10),66,82,51,42,29,42,,51,50,35,26,8,7,0.8,0.9
2025-01-12T1000,1071A,116.8842,38.2991,沧州市,沧县城建局,颗粒物(PM10),53,55,83,25,56,41,,16,16,28,56,6,15,0.3,0.8
2025-01-12T1000,1072A,116.8584,38.3254,沧州市,电视转播站,颗粒物(PM10),51,51,83,22,58,34,,8,8,39,63,7,13,0.4,0.9
2025-01-12T1000,1073A,116.8709,38.3228,沧州市,市环保局,细颗粒物(PM2.5),53,49,79,37,56,34,,8,8,32,54,4,12,0.3,0.7
2025-01-12T1000,3324A,116.8136,38.3004,沧州市,河北水利电力学院,,29,29,78,18,52,51,,18,18,13,49,8,17,0.3,0.8
2025-01-12T1000,2622A,97.1806,31.1273,昌都市,昌都监测站,,20,20,40,10,17,48,,55,53,6,13,6,6,0.4,0.5
2025-01-12T1000,3719A,97.1714,31.1406,昌都市,昌都会议中心,,17,17,26,9,12,45,,51,49,2,3,4,4,0.5,0.5
2025-01-12T1000,2690A,88.1236,43.8886,昌吉回族自治州,天山天池,,22,,1,3,1,70,,76,75,1,2,7,6,0.4,0.5
2025-01-12T1000,2692A,87.2717,44.0297,昌吉回族自治州,新区政务中心,颗粒物(PM10),54,57,64,32,39,2,,6,6,57,43,1,2,1.4,1.2
2025-01-12T1000,3613A,87.3095,44.0142,昌吉回族自治州,亚心广场,细颗粒物(PM2.5),77,70,68,56,55,14,,21,20,62,45,7,7,1.2,1.1
2025-01-12T1000,1119A,125.3325,43.9166,长春市,食品厂,细颗粒物(PM2.5),129,115,132,98,97,,,7,7,63,61,,14,1.8,1.6
2025-01-12T1000,1120A,125.2863,43.9027,长春市,客车厂,细颗粒物(PM2.5),109,85,103,82,87,22,,15,15,59,67,23,12,1.3,1.3
2025-01-12T1000,1121A,125.2841,43.8463,长春市,邮电学院,细颗粒物(PM2.5),119,99,87,90,71,22,,11,11,49,54,13,15,1.2,0.9
2025-01-12T1000,1122A,125.3716,43.8772,长春市,劳动公园,细颗粒物(PM2.5),122,114,107,92,84,16,,11,11,63,64,18,19,1.0,0.8
2025-01-12T1000,1123A,125.3297,43.8805,长春市,园林处,细颗粒物(PM2.5),109,89,89,82,72,21,,13,13,50,54,11,13,1.3,1.1
2025-01-12T1000,1124A,125.4605,43.79,长春市,净月潭,细颗粒物(PM2.5),107,86,62,80,52,41,,38,38,27,20,8,8,0.9,0.6
2025-01-12T1000,1125A,125.7194,43.515,长春市,甩湾子,,,,,,,,,,,,,,,,
2025-01-12T1000,1126A,125.3863,43.8447,长春市,经开区环卫处,细颗粒物(PM2.5),134,121,101,102,67,8,,5,5,64,59,11,13,1.6,1.1
2025-01-12T1000,1127A,125.245,43.7783,长春市,高新区管委会,细颗粒物(PM2.5),143,,114,109,105,23,,15,15,42,50,8,8,1.5,1.2
2025-01-12T1000,1128A,125.1761,43.8325,长春市,岱山公园,细颗粒物(PM2.5),142,140,102,108,90,16,,11,11,64,65,13,10,1.5,1.2
2025-01-12T1000,1335A,113.0833,28.2325,长沙市,经开区环保局,细颗粒物(PM2.5),72,86,88,52,52,43,,24,24,41,49,7,5,0.7,0.7
2025-01-12T1000,1336A,112.8872,28.2189,长沙市,高开区环保局,细颗粒物(PM2.5),75,77,74,55,48,57,,50,46,30,33,18,9,0.8,0.7
2025-01-12T1000,1337A,113.0792,28.2053,长沙市,马坡岭,细颗粒物(PM2.5),78,76,94,57,61,52,,25,25,32,50,8,7,0.7,0.8
2025-01-12T1000,1338A,112.9394,28.19,长沙市,湖南师范大学,细颗粒物(PM2.5),84,97,83,62,53,46,,24,24,38,46,15,8,0.8,0.7
2025-01-12T1000,1339A,113.0178,28.1322,长沙市,雨花区环保局,细颗粒物(PM2.5),70,75,78,51,51,59,,35,35,35,48,16,11,0.9,0.7
2025-01-12T1000,1340A,112.9792,28.2597,长沙市,伍家岭,细颗粒物(PM2.5),92,107,104,68,68,11,,2,2,56,56,6,6,0.7,0.7
2025-01-12T1000,1341A,113.0014,28.1944,长沙市,火车新站,细颗粒物(PM2.5),92,96,90,68,64,28,,9,9,60,57,11,7,0.9,0.8
2025-01-12T1000,1342A,112.9844,28.1178,长沙市,天心区环保局,细颗粒物(PM2.5),82,83,80,60,54,45,,15,15,42,59,16,8,1.0,0.7
2025-01-12T1000,1343A,112.8908,28.1308,长沙市,湖南中医药大学,"颗粒物(PM10),细颗粒物(PM2.5)",73,96,88,53,54,36,,22,22,49,57,18,9,0.9,0.7
2025-01-12T1000,1344A,112.9581,28.3611,长沙市,沙坪,细颗粒物(PM2.5),92,69,59,68,56,48,,26,26,31,34,15,10,1.1,0.8
2025-01-12T1000,1727A,113.1147,36.1547,长治市,清华站,,39,39,49,12,12,44,,49,47,23,21,11,10,0.7,0.6
2025-01-12T1000,1728A,113.1031,36.1989,长治市,监测站,,,36,49,22,20,50,,53,52,22,18,,7,0.5,0.4
2025-01-12T1000,1730A,113.0886,36.2125,长治市,审计局,,48,48,53,22,17,34,,52,48,28,16,14,8,0.7,0.5
2025-01-12T1000,1731A,113.0844,36.1856,长治市,长治八中,颗粒物(PM10),56,62,73,23,24,28,,49,46,35,15,9,8,0.8,0.6
2025-01-12T1000,2845A,113.1569,36.1911,长治市,德盛苑,,34,34,51,14,16,52,,54,53,13,13,12,6,0.8,0.7
2025-01-12T1000,3568A,113.06,36.0464,长治市,向阳小学,,,145,74,38,21,,,45,45,18,16,17,12,,0.4
2025-01-12T1000,3569A,112.8792,36.3144,长治市,屯留一中,,36,36,46,17,14,38,,45,42,32,26,12,8,1.0,0.8
2025-01-12T1000,3570A,113.235,36.3489,长治市,潞城四中,,,,,,,,,,,,,,,,
2025-01-12T1000,1854A,111.6975,28.9703,常德市,市二中,细颗粒物(PM2.5),69,,64,50,54,62,,62,62,20,17,4,4,0.7,0.7
2025-01-12T1000,1857A,111.7158,29.1456,常德市,白鹤山,,,,,,,,,,,,,,,,
2025-01-12T1000,3138A,111.7153,29.0289,常德市,武陵区永安,细颗粒物(PM2.5),64,57,74,46,55,69,,73,72,16,15,4,5,0.7,0.7
2025-01-12T1000,3139A,111.6892,28.9881,常德市,鼎城区玉霞,"颗粒物(PM10),细颗粒物(PM2.5)",69,88,90,50,65,43,,38,38,28,22,5,5,0.7,0.8
2025-01-12T1000,3140A,111.6625,29.0531,常德市,武陵区长庚,细颗粒物(PM2.5),78,64,75,57,54,60,,70,68,22,14,2,3,0.7,0.6
2025-01-12T1000,1196A,119.9633,31.762,常州市,市监测站,细颗粒物(PM2.5),77,88,86,56,57,33,,22,22,50,58,12,15,0.7,0.7
2025-01-12T1000,1200A,119.9468,31.7069,常州市,武进监测站,细颗粒物(PM2.5),80,82,74,59,53,35,,22,22,45,48,19,19,0.9,0.7
2025-01-12T1000,1201A,119.9255,31.9087,常州市,安家,细颗粒物(PM2.5),79,97,91,58,60,38,,12,12,49,68,13,15,0.9,0.8
2025-01-12T1000,3002A,119.9805,31.8174,常州市,行政中心,细颗粒物(PM2.5),70,77,72,51,55,37,,31,31,40,46,13,16,0.7,0.7
2025-01-12T1000,3003A,120.0522,31.7748,常州市,经开区,颗粒物(PM10),66,81,80,45,53,51,,35,35,40,57,12,14,0.6,0.6
2025-01-12T1000,3010A,119.9025,31.7964,常州市,钟楼,细颗粒物(PM2.5),78,88,78,57,53,35,,24,24,42,52,11,13,0.8,0.7
2025-01-12T1000,3429A,119.8598,31.7066,常州市,武进经发区,细颗粒物(PM2.5),89,104,90,66,61,39,,31,31,45,52,10,11,0.9,0.8
2025-01-12T1000,3430A,119.5826,31.7245,常州市,金坛城区,细颗粒物(PM2.5),89,89,85,66,61,41,,34,34,30,36,12,11,0.9,0.8
2025-01-12T1000,2220A,120.4318,41.5881,朝阳市,西梁,细颗粒物(PM2.5),84,110,85,62,54,17,,11,11,50,52,22,22,1.9,1.9
2025-01-12T1000,2221A,120.4521,41.5646,朝阳市,河畔小区,细颗粒物(PM2.5),83,93,69,61,45,24,,16,16,31,36,19,17,1.6,1.2
2025-01-12T1000,2222A,120.4176,41.5648,朝阳市,八里堡,,,100,80,71,55,,,,,34,40,19,19,,1.3
2025-01-12T1000,2223A,120.3806,41.5969,朝阳市,农业园区,细颗粒物(PM2.5),158,122,70,120,53,19,,12,12,48,42,23,18,2.4,1.4
2025-01-12T1000,1705A,116.6367,23.6719,潮州市,西园路,,42,42,39,13,25,71,,64,64,12,16,5,5,0.2,0.3
2025-01-12T1000,3026A,116.6183,23.6608,潮州市,市政府,,30,30,38,13,19,67,,66,65,14,14,4,5,0.2,0.2
2025-01-12T1000,4036A,116.6461,23.6761,潮州市,金山,,43,43,40,10,26,64,,59,59,11,17,6,6,0.4,0.5
2025-01-12T1000,2472A,113.0073,25.9061,郴州市,马头岭,颗粒物(PM10),70,89,65,37,32,48,,45,44,35,23,16,11,0.9,0.6
2025-01-12T1000,2473A,113.0116,25.8226,郴州市,市职中,细颗粒物(PM2.5),65,68,69,47,44,25,,7,7,35,38,29,7,1.1,0.8
2025-01-12T1000,2474A,113.0161,25.8001,郴州市,兴隆步行街,细颗粒物(PM2.5),79,83,71,58,47,18,,4,4,50,43,21,7,1.0,0.7
2025-01-12T1000,2475A,113.0383,25.8071,郴州市,市审计局,细颗粒物(PM2.5),72,77,62,52,44,20,,6,6,45,37,22,7,1.0,0.7
2025-01-12T1000,2476A,113.0348,25.7759,郴州市,市环保局,细颗粒物(PM2.5),82,72,66,60,49,19,,4,4,49,43,49,10,0.8,0.6
2025-01-12T1000,1431A,103.9728,30.7236,成都市,金泉两河,细颗粒物(PM2.5),92,92,63,68,44,21,,6,6,41,52,9,3,0.8,1.2
2025-01-12T1000,1432A,104.176,30.6872,成都市,十里店,细颗粒物(PM2.5),67,75,59,48,36,9,,7,6,57,50,3,2,0.7,0.5
2025-01-12T1000,1433A,104.079,30.5706,成都市,三瓦窑,颗粒物(PM10),58,66,53,38,30,5,,15,7,55,42,2,2,0.8,0.5
2025-01-12T1000,1434A,104.1114,30.63,成都市,沙河铺,颗粒物(PM10),58,66,53,38,33,10,,20,14,50,34,1,2,0.7,0.5
2025-01-12T1000,1437A,104.0786,30.6531,成都市,君平街,颗粒物(PM10),64,78,48,43,32,6,,23,12,58,40,8,5,1.1,0.8
2025-01-12T1000,1438A,103.613,31.0283,成都市,灵岩寺,,,,,,,,,,,,,,,,
2025-01-12T1000,2880A,104.0239,30.65639,成都市,大石西路,细颗粒物(PM2.5),72,86,54,52,31,7,,10,7,53,44,5,4,1.0,0.8
2025-01-12T1000,3136A,104.2725,30.5589,成都市,龙泉驿区区政府,细颗粒物(PM2.5),62,58,42,44,30,24,,52,41,33,19,3,4,0.8,0.5
2025-01-12T1000,3357A,104.0106,30.6931,成都市,金博路,细颗粒物(PM2.5),75,68,64,55,44,5,,3,2,48,46,3,3,0.8,0.7
2025-01-12T1000,3359A,104.0578,30.5225,成都市,华阳,细颗粒物(PM2.5),64,66,48,46,36,10,,13,11,48,41,3,3,0.8,0.7
2025-01-12T1000,3487A,104.2394,30.5319,成都市,车城东七路,细颗粒物(PM2.5),67,70,49,48,34,6,,22,8,46,24,2,2,1.0,0.5
2025-01-12T1000,3488A,104.3853,30.7453,成都市,青白江技师分院,细颗粒物(PM2.5),59,54,44,42,31,7,,36,22,39,24,3,3,0.7,0.5
2025-01-12T1000,3489A,104.0789,30.4072,成都市,科学城,颗粒物(PM10),51,52,43,35,30,8,,7,7,23,21,5,4,0.7,0.5
2025-01-12T1000,4011A,103.8506,30.6947,成都市,光华大道三段,颗粒物(PM10),69,88,64,47,40,16,,5,5,44,44,4,2,0.8,0.8
2025-01-12T1000,1062A,117.9531,40.9081,承德市,铁路,颗粒物(PM10),51,52,50,27,28,18,,22,22,42,33,7,8,0.7,0.6
2025-01-12T1000,1063A,117.9392,40.9763,承德市,中国银行,,46,46,55,18,28,16,,5,5,31,33,2,2,0.8,0.6
2025-01-12T1000,1064A,117.9503,40.928,承德市,开发区,细颗粒物(PM2.5),62,62,54,44,34,20,,10,10,41,38,6,5,0.8,0.6
2025-01-12T1000,1065A,117.8051,40.9655,承德市,文化中心,,47,47,66,9,31,32,,15,15,29,38,4,6,0.4,0.6
2025-01-12T1000,1066A,117.9268,41.0026,承德市,离宫,,50,,39,35,30,26,,40,38,28,24,5,6,0.5,0.4
2025-01-12T1000,2314A,117.47,30.6618,池州市,池州学院,细颗粒物(PM2.5),89,104,75,66,49,25,,61,50,48,24,11,10,0.9,0.6
2025-01-12T1000,3237A,117.4918,30.6617,池州市,展览馆,细颗粒物(PM2.5),79,94,92,58,51,28,,36,35,46,29,13,9,0.8,0.6
2025-01-12T1000,3333A,117.5627,30.695,池州市,第八中学,细颗粒物(PM2.5),84,98,74,62,48,38,,56,47,42,25,16,11,0.8,0.6
2025-01-12T1000,3334A,117.5038,30.6243,池州市,第十二中学,细颗粒物(PM2.5),92,100,71,68,48,23,,55,43,56,28,12,7,1.0,0.8
2025-01-12T1000,1744A,118.9233,42.2816,赤峰市,松山一中,细颗粒物(PM2.5),75,82,58,55,33,20,,11,11,42,47,22,32,1.2,1.3
2025-01-12T1000,1745A,118.9576,42.2728,赤峰市,哈达街,,46,46,46,26,32,25,,16,16,40,50,9,17,1.2,1.2
2025-01-12T1000,1746A,118.8788,42.2554,赤峰市,天义路,,42,42,46,25,27,33,,19,19,26,40,14,16,0.8,0.8
2025-01-12T1000,3058A,119.2658,42.0353,赤峰市,银河街,细颗粒物(PM2.5),175,199,112,132,73,15,,9,9,51,47,50,30,2.9,2.2
2025-01-12T1000,3286A,118.9359,42.3147,赤峰市,桥北物流园区,细颗粒物(PM2.5),73,66,39,53,35,15,,8,8,40,46,14,13,1.2,1
2025-01-12T1000,2521A,107.3476,22.4136,崇左市,市环保局江州分局,细颗粒物(PM2.5),63,66,48,45,26,38,,23,23,25,19,6,5,0.6,0.5
2025-01-12T1000,2522A,107.3702,22.3707,崇左市,城南新区,细颗粒物(PM2.5),84,70,51,62,38,26,,25,21,42,24,7,6,0.9,0.7
2025-01-12T1000,2298A,118.3093,32.3153,滁州市,老年大学,颗粒物(PM10),53,56,68,24,37,70,,76,74,17,22,4,5,0.4,0.5
2025-01-12T1000,2299A,118.3244,32.2786,滁州市,人大宾馆,颗粒物(PM10),60,70,72,26,44,71,,75,74,14,28,10,11,0.5,0.5
2025-01-12T1000,3207A,118.3118,32.3038,滁州市,市政府原办公楼,颗粒物(PM10),52,54,61,28,39,66,,76,73,20,23,7,7,0.3,0.4
2025-01-12T1000,3331A,118.3267,32.2634,滁州市,图书馆,颗粒物(PM10),55,60,68,22,33,70,,71,70,11,19,9,8,0.3,0.4
2025-01-12T1000,2605A,101.5482,25.0441,楚雄彝族自治州,州环境监测站,,36,27,26,25,19,30,,37,35,9,14,4,14,0.8,0.8
2025-01-12T1000,2606A,101.538,25.0492,楚雄彝族自治州,市经济开发区,,40,,31,28,23,29,,35,32,12,15,5,16,0.8,0.8
2025-01-12T1000,2548A,107.5277,31.2827,达州市,达州职业技术学院,细颗粒物(PM2.5),104,92,87,78,68,26,,19,19,26,33,7,5,0.7,0.7
2025-01-12T1000,2549A,107.5086,31.2186,达州市,市环境监测站,细颗粒物(PM2.5),92,98,84,68,57,8,,6,6,39,42,8,5,0.8,0.8
2025-01-12T1000,2550A,107.4988,31.2132,达州市,凤凰小区,细颗粒物(PM2.5),83,92,83,61,60,13,,7,7,37,41,12,10,0.6,0.7
2025-01-12T1000,2551A,107.5082,31.1986,达州市,达县机关宾馆,细颗粒物(PM2.5),77,92,87,56,60,11,,8,8,42,46,9,6,0.9,0.8
2025-01-12T1000,2552A,107.4644,31.2124,达州市,市政中心,细颗粒物(PM2.5),83,89,89,61,57,7,,3,3,44,47,6,4,0.8,0.8
2025-01-12T1000,2614A,100.1542,25.7054,大理白族自治州,大理市环境监测站,,30,,28,21,20,24,,26,25,13,15,7,7,0.8,0.7
2025-01-12T1000,2615A,100.2171,25.5811,大理白族自治州,大理古城,,35,31,30,24,25,20,,28,26,18,14,8,7,0.9,0.8
2025-01-12T1000,1109A,121.612,38.9741,大连市,甘井子,,43,43,44,25,32,49,,39,39,41,36,20,11,0.7,0.7
2025-01-12T1000,1110A,121.565,38.9511,大连市,周水子,细颗粒物(PM2.5),60,55,56,43,46,24,,21,21,69,47,22,14,1.0,0.9
2025-01-12T1000,1111A,121.5637,38.8845,大连市,星海三站,,43,43,41,30,33,36,,39,39,41,28,26,13,1.1,0.8
2025-01-12T1000,1112A,121.6302,38.9117,大连市,青泥洼桥,,,40,47,31,36,,,18,18,40,33,18,14,0.8,0.9
2025-01-12T1000,1113A,121.6251,38.8638,大连市,傅家庄,,32,32,36,19,29,48,,27,27,22,18,17,12,0.9,0.8
2025-01-12T1000,1114A,121.5213,38.8661,大连市,七贤岭,,22,22,41,14,31,62,,48,48,23,26,19,10,0.7,0.8
2025-01-12T1000,1115A,121.2529,38.8061,大连市,旅顺,,40,32,40,28,30,58,,56,56,26,27,13,11,0.7,0.8
2025-01-12T1000,1116A,121.7485,39.1311,大连市,金州,,50,48,50,35,40,52,,35,35,26,30,11,9,0.9,1
2025-01-12T1000,1117A,121.7811,39.0496,大连市,开发区,,44,44,45,30,34,39,,27,23,45,38,20,14,0.7,0.6
2025-01-12T1000,1118A,121.9762,39.0631,大连市,双D港,,38,38,35,20,24,71,,69,69,15,13,17,12,1.4,0.8
2025-01-12T1000,1789A,124.81117,46.03138,大庆市,大同区,细颗粒物(PM2.5),227,204,175,177,157,20,,8,8,40,51,15,16,1.5,1.6
2025-01-12T1000,1790A,125.129,46.533,大庆市,龙凤区,细颗粒物(PM2.5),211,188,174,161,145,28,,20,20,41,59,12,9,1.2,1.5
2025-01-12T1000,1791A,124.902,46.408,大庆市,红岗区,细颗粒物(PM2.5),220,202,122,170,93,10,,4,4,57,57,10,9,1.7,1.2
2025-01-12T1000,1792A,125.153,46.586,大庆市,萨尔图区,细颗粒物(PM2.5),261,238,153,211,130,21,,20,20,68,70,8,7,1.7,1.1
2025-01-12T1000,1793A,124.9042,46.6215,大庆市,让胡路区,细颗粒物(PM2.5),180,141,101,136,91,17,,15,15,80,63,11,8,1.6,1.1
2025-01-12T1000,3481A,125.141,46.634,大庆市,萨区政府监测点,细颗粒物(PM2.5),238,232,139,188,110,11,,8,8,68,71,6,7,1.7,1.1
2025-01-12T1000,1721A,113.3819,40.1097,大同市,果树场,细颗粒物(PM2.5),108,87,56,81,29,11,,26,15,55,29,19,10,1.3,0.8
2025-01-12T1000,1723A,113.2994,40.0758,大同市,云冈宾馆,颗粒物(PM10),59,67,50,33,21,21,,36,28,36,20,18,11,1.8,0.7
2025-01-12T1000,1724A,113.3444,40.0917,大同市,大同大学,,47,47,53,26,23,32,,28,25,21,20,26,19,1.0,0.7
2025-01-12T1000,1725A,113.2661,40.1269,大同市,安家小村,颗粒物(PM10),62,74,65,28,22,29,,27,22,29,19,37,18,1.7,1.1
2025-01-12T1000,1726A,113.2711,40.0844,大同市,教育学院,颗粒物(PM10),69,87,66,31,24,25,,30,24,38,27,21,12,2.6,0.9
2025-01-12T1000,3282A,113.3397,40.0597,大同市,大同市卫生学校,,39,39,57,24,24,31,,35,30,29,22,15,11,1.1,0.7
2025-01-12T1000,3565A,113.1367,40.1122,大同市,云冈站,颗粒物(PM10),62,74,57,19,23,24,,25,21,28,21,30,18,0.6,0.5
2025-01-12T1000,3566A,113.1186,40.2556,大同市,图书馆,,,,53,57,28,33,,32,30,18,15,52,15,1.0,0.6
2025-01-12T1000,3567A,113.5931,40.0461,大同市,区一中,颗粒物(PM10),91,132,69,48,22,25,,33,30,35,21,24,16,1.7,0.7
2025-01-12T1000,3676A,113.2802,40.0995,大同市,第二人民医院,颗粒物(PM10),78,106,66,44,25,29,,29,23,37,25,26,14,2.2,1
2025-01-12T1000,2269A,124.1069,50.4097,大兴安岭地区,科技局,,22,,26,15,21,56,,57,57,7,9,8,7,0.3,0.3
2025-01-12T1000,3663A,124.1164,50.4278,大兴安岭地区,红旗社区,,27,27,28,11,16,45,,45,44,19,24,4,6,0.5,0.4
2025-01-12T1000,1600A,124.3303,40.0625,丹东市,江湾东路,,,77,100,53,80,,,10,10,,41,29,23,1.5,1.9
2025-01-12T1000,1601A,124.4256,40.1503,丹东市,临江后街,细颗粒物(PM2.5),83,88,93,61,64,28,,14,14,36,32,25,17,1.4,1.5
2025-01-12T1000,1602A,124.3933,40.1461,丹东市,元宝山,细颗粒物(PM2.5),78,76,81,57,58,23,,13,12,34,30,16,11,1.4,1.5
2025-01-12T1000,1603A,124.3633,40.1092,丹东市,民主桥,细颗粒物(PM2.5),70,80,86,51,79,29,,14,14,35,39,20,15,1.4,1.4
2025-01-12T1000,3541A,109.5726,19.5167,儋州市,第一中学子站,颗粒物(PM10),56,61,58,37,35,77,,92,84,20,14,12,7,0.5,0.5
2025-01-12T1000,3542A,109.5567,19.5187,儋州市,东坡学校子站,颗粒物(PM10),57,64,57,35,34,84,,91,84,17,14,13,9,0.7,0.7
2025-01-12T1000,2616A,98.5842,24.428,德宏傣族景颇族自治州,德宏州监测站,颗粒物(PM10),65,79,60,40,38,13,,17,13,28,24,8,8,1.0,0.8
2025-01-12T1000,3677A,98.5881,24.4368,德宏傣族景颇族自治州,芒市人民政府综合楼,细颗粒物(PM2.5),64,55,52,46,37,16,,24,18,23,18,5,6,0.8,0.7
2025-01-12T1000,1901A,104.4239,31.1208,德阳市,东山公园,细颗粒物(PM2.5),74,70,52,54,37,28,,50,37,31,25,2,2,0.6,0.4
2025-01-12T1000,1902A,104.3826,31.1317,德阳市,西小区,细颗粒物(PM2.5),74,82,74,54,47,11,,4,4,52,50,3,3,0.9,0.7
2025-01-12T1000,1904A,104.3553,31.1091,德阳市,耐火材料厂,细颗粒物(PM2.5),78,99,72,57,50,7,,5,5,50,47,8,5,1.0,0.8
2025-01-12T1000,3639A,104.4019,31.1244,德阳市,市教育局,细颗粒物(PM2.5),74,73,57,54,39,22,,6,6,44,51,5,4,1.0,0.8
2025-01-12T1000,1622A,116.3032,37.4674,德州市,儿童乐园,细颗粒物(PM2.5),110,132,109,83,64,12,,7,7,74,64,18,17,1.4,1.2
2025-01-12T1000,1624A,116.2991,37.4451,德州市,监理站,细颗粒物(PM2.5),98,107,101,73,63,20,,11,11,67,64,21,21,1.1,1.1
2025-01-12T1000,3066A,116.2721,37.4379,德州市,九衢泉纯净水厂,细颗粒物(PM2.5),107,127,118,80,76,15,,10,10,64,60,21,21,1.2,1.2
2025-01-12T1000,3371A,116.3728,37.4403,德州市,开发区人民医院,细颗粒物(PM2.5),89,114,102,66,60,23,,14,13,67,58,20,18,1.1,1
2025-01-12T1000,3372A,116.3572,37.4094,德州市,太阳城中学,细颗粒物(PM2.5),92,114,104,68,65,23,,13,13,70,67,19,17,1.1,1
2025-01-12T1000,3511A,116.5652,37.3319,德州市,陵城艺术中心,细颗粒物(PM2.5),110,129,121,83,76,14,,5,5,57,55,18,19,1.4,1.3
2025-01-12T1000,2621A,99.7056,27.8317,迪庆藏族自治州,迪庆州站,,47,47,25,25,17,46,,51,47,15,11,9,9,0.6,0.3
2025-01-12T1000,3180A,99.7136,27.8094,迪庆藏族自治州,质量技术监督局,,38,38,24,22,19,36,,45,42,27,12,7,7,0.9,0.6
2025-01-12T1000,2663A,104.6241,35.5734,定西市,东关小学,细颗粒物(PM2.5),82,106,84,60,44,11,,9,9,24,29,24,17,1.4,1
2025-01-12T1000,2664A,104.6194,35.5934,定西市,供电公司,细颗粒物(PM2.5),85,106,79,63,38,10,,7,7,28,34,36,13,1.9,1.4
2025-01-12T1000,1389A,113.7547,23.0494,东莞市,莞城梨川,,35,35,33,20,18,69,,66,65,28,23,6,6,0.6,0.6
2025-01-12T1000,1390A,113.7944,23.0128,东莞市,东城石井,,44,44,29,24,16,68,,54,53,29,23,7,6,0.6,0.5
2025-01-12T1000,1391A,113.7383,22.9658,东莞市,南城西平,,44,44,32,21,16,65,,26,26,38,44,4,4,0.4,0.4
2025-01-12T1000,3319A,113.7338,23.0381,东莞市,万江金泰,,38,38,32,18,15,63,,64,61,27,19,8,8,0.6,0.6
2025-01-12T1000,3626A,113.7533,23.0202,东莞市,南城元岭,,33,33,29,19,15,72,,65,64,22,21,7,7,0.4,0.4
2025-01-12T1000,3627A,113.7875,23.0457,东莞市,东城主山,,38,38,28,18,14,52,,51,48,32,21,9,8,0.6,0.6
2025-01-12T1000,1666A,118.6614,37.4309,东营市,市环保局,细颗粒物(PM2.5),67,73,60,48,44,20,,28,22,67,44,24,13,0.9,0.7
2025-01-12T1000,3036A,118.6904,37.4338,东营市,开发区管委会,细颗粒物(PM2.5),62,65,65,44,42,25,,30,25,66,47,20,10,1.0,0.8
2025-01-12T1000,3365A,118.5719,37.565,东营市,垦利区民丰路,,,61,56,34,36,,,8,5,47,51,26,15,0.6,0.6
2025-01-12T1000,3498A,118.5055,37.8612,东营市,河口城区,颗粒物(PM10),67,83,56,46,34,25,,18,18,51,42,18,11,1.0,0.9
2025-01-12T1000,3646A,118.4978,37.4623,东营市,胜利站,细颗粒物(PM2.5),77,88,61,56,42,15,,15,12,69,49,28,13,1.1,0.8
2025-01-12T1000,3734A,118.35,37.26,东营市,理想之城,细颗粒物(PM2.5),67,75,71,48,45,27,,12,12,67,57,28,15,1.0,0.7
2025-01-12T1000,1591A,110.0023,39.8129,鄂尔多斯市,综合楼,,39,39,47,9,7,46,,56,51,25,16,12,8,0.5,0.5
2025-01-12T1000,1592A,109.9486,39.8261,鄂尔多斯市,巴音孟克林场办事处,,34,34,45,12,11,50,,59,57,21,12,12,7,0.3,0.3
2025-01-12T1000,1593A,109.7736,39.5986,鄂尔多斯市,康泽苑,,36,36,33,12,11,24,,49,40,29,10,6,6,0.7,0.4
2025-01-12T1000,1594A,109.8119,39.5989,鄂尔多斯市,华泰汽车城,颗粒物(PM10),51,51,38,12,12,24,,38,29,29,14,9,7,0.7,0.4
2025-01-12T1000,1595A,109.9734,39.7884,鄂尔多斯市,奥林花园,,36,36,50,14,11,45,,18,16,23,26,9,7,0.5,0.5
2025-01-12T1000,2436A,114.8938,30.3994,鄂州市,市政府,细颗粒物(PM2.5),122,122,91,92,66,34,,26,26,55,54,20,12,0.8,0.8
2025-01-12T1000,2437A,114.8989,30.3714,鄂州市,赵家坝,细颗粒物(PM2.5),117,119,88,88,62,21,,30,22,57,45,8,10,1.3,0.8
2025-01-12T1000,3654A,114.8094,30.4089,鄂州市,精准医疗中心,细颗粒物(PM2.5),107,102,86,80,63,33,,30,29,54,42,16,14,0.8,0.7
2025-01-12T1000,2454A,109.4978,30.2981,恩施土家族苗族自治州,湖北民院,细颗粒物(PM2.5),103,,65,77,65,15,,22,17,26,13,8,8,0.9,0.8
2025-01-12T1000,2455A,109.4707,30.2798,恩施土家族苗族自治州,州电力总公司,细颗粒物(PM2.5),93,80,75,69,62,17,,9,9,22,29,8,8,1.0,0.9
2025-01-12T1000,3549A,109.5061,30.3772,恩施土家族苗族自治州,龙凤新区,细颗粒物(PM2.5),59,53,65,42,50,26,,17,16,16,16,6,6,0.7,0.7
2025-01-12T1000,2499A,108.3411,21.6158,防城港市,沙万,,48,42,46,33,29,82,,84,82,19,16,10,8,0.5,0.5
2025-01-12T1000,2500A,108.3514,21.7731,防城港市,防城档案局,颗粒物(PM10),62,73,100,37,36,71,,58,58,27,34,9,8,1.6,1.4
2025-01-12T1000,2501A,108.3506,21.6414,防城港市,大海花园,,46,41,47,32,29,86,,88,86,15,12,10,8,0.6,0.5
2025-01-12T1000,1371A,113.1294,23.0067,佛山市,湾梁,,,,36,,16,,,51,51,,35,10,9,0.5,0.4
2025-01-12T1000,1372A,113.1083,23.0478,佛山市,华材职中,,46,46,53,27,25,51,,31,31,46,49,12,10,0.7,0.7
2025-01-12T1000,1373A,113.144,23.0453,佛山市,南海气象局,,30,30,31,18,19,51,,46,46,38,33,10,8,0.5,0.4
2025-01-12T1000,1374A,113.2881,22.8094,佛山市,顺德苏岗,,30,30,29,17,15,55,,45,45,30,29,9,9,0.4,0.4
2025-01-12T1000,1376A,112.8383,22.8678,佛山市,高明孔堂,颗粒物(PM10),57,63,55,34,32,70,,48,48,28,29,14,14,0.6,0.6
2025-01-12T1000,1377A,112.8836,23.1588,佛山市,三水监测站,细颗粒物(PM2.5),67,78,60,48,38,63,,48,48,40,38,25,18,0.6,0.5
2025-01-12T1000,1378A,112.867,23.185,佛山市,三水云东海,细颗粒物(PM2.5),54,46,49,38,31,67,,43,43,34,35,21,14,0.6,0.6
2025-01-12T1000,3625A,113.2544,22.7642,佛山市,容桂街道办,,29,29,35,19,19,65,,50,50,30,31,8,8,0.4,0.4
2025-01-12T1000,1280A,119.3903,26.0543,福州市,鼓山,,,,26,,13,,,77,,,12,,2,,0.4
2025-01-12T1000,1282A,119.2681,26.0504,福州市,师大,,38,38,30,24,18,57,,45,45,20,25,5,4,0.5,0.4
2025-01-12T1000,1283A,119.2984,26.1028,福州市,五四北路,,33,27,29,23,19,46,,32,32,26,30,1,1,0.3,0.3
2025-01-12T1000,1284A,119.2648,26.0768,福州市,杨桥西路,,41,41,35,21,18,59,,38,38,19,28,3,2,0.5,0.4
2025-01-12T1000,1285A,119.317,26.0746,福州市,紫阳,颗粒物(PM10),51,52,39,31,19,38,,27,27,37,39,4,4,0.5,0.4
2025-01-12T1000,3048A,119.5799,26.0936,福州市,九龙,,46,41,23,32,17,51,,39,39,23,17,3,2,0.4,0.4
2025-01-12T1000,3526A,119.5189,25.9664,福州市,吴航,,47,47,33,30,21,41,,26,26,34,27,4,3,0.5,0.4
2025-01-12T1000,1755A,123.7977,41.8491,抚顺市,望花区,,,,130,,89,,,33,,,50,,5,,1.3
2025-01-12T1000,1756A,123.9161,41.8822,抚顺市,顺城区,细颗粒物(PM2.5),74,81,86,54,58,27,,15,15,42,47,14,10,1.2,1.2
2025-01-12T1000,1757A,124.0436,41.8611,抚顺市,东洲区,"颗粒物(PM10),细颗粒物(PM2.5)",59,67,59,42,44,45,,21,21,14,24,4,5,0.9,1
2025-01-12T1000,1758A,123.9247,41.8642,抚顺市,新抚区,,,98,92,69,62,33,,15,15,,49,,6,1.0,1
2025-01-12T1000,1759A,124.0972,41.8961,抚顺市,大伙房水库,细颗粒物(PM2.5),53,47,52,37,43,43,,22,22,17,29,18,12,0.7,0.8
2025-01-12T1000,1760A,123.7086,41.8391,抚顺市,沈抚新城,细颗粒物(PM2.5),105,125,103,79,74,23,,15,15,49,52,12,8,2.2,1.9
2025-01-12T1000,2376A,116.2127,28.0814,抚州市,桐源党溪,颗粒物(PM10),59,68,58,38,32,52,,18,18,6,14,5,3,0.6,0.6
2025-01-12T1000,2377A,116.3544,27.9831,抚州市,市站,,44,44,56,26,34,70,,60,60,19,26,10,13,1.3,0.9
2025-01-12T1000,2378A,116.3565,27.963,抚州市,血防站,颗粒物(PM10),52,54,59,28,32,60,,58,58,23,23,7,8,0.9,0.7
2025-01-12T1000,2379A,116.3564,28.0007,抚州市,采茶剧团,,41,41,50,26,32,60,,52,52,13,18,6,7,1.1,1.2
2025-01-12T1000,2380A,116.385,27.9647,抚州市,医学分院,颗粒物(PM10),51,52,55,20,27,44,,44,44,25,24,8,8,0.4,0.4
2025-01-12T1000,2207A,121.6094,41.998,阜新市,工业园区,颗粒物(PM10),154,258,119,82,58,,,8,8,48,36,33,20,2.0,1.4
2025-01-12T1000,2208A,121.6697,42.0279,阜新市,长青街,颗粒物(PM10),95,139,91,58,54,15,,7,7,46,36,23,20,1.7,2
2025-01-12T1000,2209A,121.6673,42.0705,阜新市,农业园区,颗粒物(PM10),81,111,73,44,45,37,,42,38,24,18,26,28,1.2,1.1
2025-01-12T1000,2210A,121.6717,42.0224,阜新市,东苑,颗粒物(PM10),124,198,101,61,56,,,10,9,40,33,35,32,2.2,2
2025-01-12T1000,2211A,121.6506,42.0498,阜新市,玉龙新城,颗粒物(PM10),106,162,112,73,58,19,,12,12,42,37,18,12,1.4,1.3
2025-01-12T1000,2301A,115.8277,32.8929,阜阳市,市监测站,颗粒物(PM10),69,88,72,32,39,49,,60,54,23,26,8,8,0.5,0.5
2025-01-12T1000,2303A,115.8554,32.8605,阜阳市,开发区,颗粒物(PM10),77,104,100,29,38,53,,66,59,19,23,10,9,0.5,0.5
2025-01-12T1000,2875A,115.784,32.8892,阜阳市,阜阳职业技术学院,颗粒物(PM10),75,100,79,35,36,52,,58,54,18,24,10,9,0.4,0.4
2025-01-12T1000,3468A,115.7901,32.8613,阜阳市,市规划展馆,颗粒物(PM10),69,88,80,27,34,55,,64,58,15,19,13,8,0.5,0.4
2025-01-12T1000,3469A,115.836,32.9183,阜阳市,枣园社区,颗粒物(PM10),70,90,73,30,30,53,,67,59,20,21,5,5,0.5,0.4
2025-01-12T1000,2669A,102.9099,34.9841,甘南藏族自治州,州政府,颗粒物(PM10),66,81,45,36,22,16,,5,5,35,29,15,11,1.3,0.8
2025-01-12T1000,3380A,102.8914,34.9617,甘南藏族自治州,甘肃民族师范学院,颗粒物(PM10),57,63,53,23,14,18,,5,5,38,32,7,4,0.8,0.5
2025-01-12T1000,2570A,101.9603,30.0475,甘孜藏族自治州,水桥子,,33,33,22,11,9,16,,30,26,40,25,2,2,0.4,0.4
2025-01-12T1000,3065A,101.9533,29.9972,甘孜藏族自治州,州环保局,,31,31,23,3,6,41,,60,55,25,12,4,4,0.3,0.2
2025-01-12T1000,3414A,115.8347,28.932,赣江新区,桑海产业园,细颗粒物(PM2.5),72,80,70,52,39,21,,20,15,53,46,15,12,0.8,0.6
2025-01-12T1000,2362A,114.9017,25.9149,赣州市,通天岩,,41,41,34,20,21,65,,43,43,27,6,2,3,0.9,0.5
2025-01-12T1000,2363A,114.9367,25.8664,赣州市,地委,,45,45,48,25,21,26,,26,26,27,23,2,9,0.9,0.8
2025-01-12T1000,2364A,114.9461,25.8481,赣州市,气象台,颗粒物(PM10),53,56,55,22,17,35,,22,22,40,36,10,10,0.8,0.7
2025-01-12T1000,2365A,114.9322,25.8333,赣州市,市图书馆,,45,45,39,30,19,25,,9,9,45,40,4,4,0.7,0.6
2025-01-12T1000,2366A,114.8905,25.8471,赣州市,华坚鞋城,,,46,44,21,21,,,15,15,,13,11,7,0.5,0.4
2025-01-12T1000,3109A,115.0093,25.8613,赣州市,赣县区卫计委,颗粒物(PM10),53,55,39,32,26,28,,23,23,32,28,5,4,0.4,0.4
2025-01-12T1000,2683A,106.2319,36.1417,固原市,马园,细颗粒物(PM2.5),69,73,161,50,58,18,,16,16,50,32,13,7,1.0,0.6
2025-01-12T1000,2684A,106.2792,36.0022,固原市,监测站,颗粒物(PM10),78,106,139,53,31,37,,40,40,47,26,14,7,1.8,0.9
2025-01-12T1000,2685A,106.2375,36.0211,固原市,新区,颗粒物(PM10),89,127,126,38,24,33,,41,34,52,24,10,6,1.1,0.5
2025-01-12T1000,3522A,106.2177,35.9959,固原市,原州区十五小,颗粒物(PM10),53,56,106,18,18,71,,80,76,18,10,8,7,0.6,0.5
2025-01-12T1000,2543A,106.6308,30.5278,广安市,小平旧居,,,,,,,,,,,,,,,,
2025-01-12T1000,2544A,106.6303,30.4576,广安市,市委,细颗粒物(PM2.5),65,53,79,47,66,17,,18,18,21,28,1,2,0.8,0.9
2025-01-12T1000,2545A,106.6271,30.4663,广安市,友谊中学,细颗粒物(PM2.5),54,54,78,38,63,12,,13,13,19,26,3,3,0.8,0.8
2025-01-12T1000,2547A,106.6388,30.4551,广安市,广电花园,,46,45,71,32,56,9,,10,10,25,28,2,2,0.9,0.9
2025-01-12T1000,2902A,106.6351,30.4865,广安市,北辰小学,细颗粒物(PM2.5),64,60,74,46,60,12,,14,14,19,22,3,3,1.0,0.9
2025-01-12T1000,2523A,105.8945,32.4535,广元市,黑石坡,颗粒物(PM10),56,62,59,35,25,18,,43,33,26,11,5,4,0.6,0.5
2025-01-12T1000,2524A,105.821,32.4444,广元市,老城,颗粒物(PM10),58,66,57,36,30,5,,3,3,50,48,4,5,1.0,0.8
2025-01-12T1000,2526A,105.8628,32.4287,广元市,监测站,"颗粒物(PM10),细颗粒物(PM2.5)",57,63,61,40,29,14,,25,23,44,32,7,5,0.9,0.8
2025-01-12T1000,3617A,105.8047,32.4166,广元市,经开区,,,101,57,68,36,,,6,4,39,37,,6,1.2,0.8
2025-01-12T1000,1345A,113.2347,23.1423,广州市,广雅中学,颗粒物(PM10),52,53,53,25,22,59,,49,49,43,43,12,10,0.6,0.4
2025-01-12T1000,1346A,113.2612,23.105,广州市,市五中,,44,44,41,27,24,65,,52,52,26,25,5,5,0.6,0.5
2025-01-12T1000,1348A,113.3478,23.0916,广州市,广东商学院,,35,35,32,20,15,77,,69,69,22,22,5,5,0.3,0.3
2025-01-12T1000,1349A,113.4332,23.1047,广州市,市八十六中,颗粒物(PM10),55,60,39,20,16,74,,53,53,28,28,7,6,0.6,0.6
2025-01-12T1000,1350A,113.3505,22.9483,广州市,番禺中学,,37,37,36,19,18,78,,63,63,26,27,3,3,0.6,0.6
2025-01-12T1000,1351A,113.2146,23.3916,广州市,花都师范,,38,38,36,21,20,69,,64,61,26,24,10,10,0.6,0.5
2025-01-12T1000,1352A,113.2597,23.1331,广州市,市监测站,,42,42,42,24,20,66,,42,42,40,34,8,7,0.5,0.5
2025-01-12T1000,1353A,113.5618,23.312,广州市,九龙镇镇龙,,38,38,32,22,16,48,,31,29,40,28,5,5,0.5,0.5
2025-01-12T1000,1354A,113.2765,23.1544,广州市,麓湖,,40,40,39,25,21,60,,34,34,34,36,6,5,0.6,0.6
2025-01-12T1000,1355A,113.443,23.3035,广州市,帽峰山森林公园,,25,23,22,11,9,79,,68,68,9,9,8,7,0.4,0.4
2025-01-12T1000,2846A,113.3221,23.1322,广州市,体育西,,36,36,40,21,23,69,,56,56,17,22,8,7,0.5,0.4
2025-01-12T1000,3298A,113.5717,23.5491,广州市,从化街口,,46,46,34,25,19,47,,28,28,38,30,8,7,0.6,0.4
2025-01-12T1000,3299A,113.3472,23.3692,广州市,白云竹料,,44,44,38,27,21,54,,50,48,34,24,9,8,0.5,0.4
2025-01-12T1000,3300A,113.2981,23.237,广州市,白云嘉禾,颗粒物(PM10),59,68,64,31,22,47,,27,27,51,51,9,8,0.5,0.4
2025-01-12T1000,3301A,113.4256,23.1716,广州市,黄埔科学城,,33,33,27,20,15,74,,58,58,21,17,8,8,0.6,0.6
2025-01-12T1000,3302A,113.3942,23.0483,广州市,番禺大学城,,,30,33,18,15,,,57,57,24,30,7,8,0.3,0.3
2025-01-12T1000,3303A,113.4922,22.8168,广州市,南沙黄阁,颗粒物(PM10),52,54,43,23,19,67,,35,35,42,39,14,7,0.5,0.5
2025-01-12T1000,3304A,113.5342,22.7896,广州市,南沙街,,38,38,37,20,16,64,,56,52,36,30,9,7,0.6,0.5
2025-01-12T1000,3443A,113.2902,23.5544,广州市,花都梯面,,31,31,29,20,17,72,,42,39,17,20,12,8,0.5,0.4
2025-01-12T1000,3445A,113.7858,23.7478,广州市,从化良口,,25,21,18,12,10,77,,69,69,14,12,6,6,0.4,0.3
2025-01-12T1000,3446A,113.8051,23.2614,广州市,增城荔城,,30,30,24,17,15,69,,62,62,17,14,6,5,0.4,0.4
2025-01-12T1000,2505A,109.568,23.1478,贵港市,德智高中,,,,,,,,,,,,,,,,
2025-01-12T1000,2506A,109.6047,23.0666,贵港市,江南子站,细颗粒物(PM2.5),137,200,89,104,50,31,,29,17,54,35,14,6,1.4,0.8
2025-01-12T1000,2507A,109.6014,23.0948,贵港市,贵城子站,细颗粒物(PM2.5),145,,57,111,42,27,,57,48,56,22,16,10,1.3,0.8
2025-01-12T1000,2508A,109.5669,23.1065,贵港市,荷城子站,细颗粒物(PM2.5),113,124,61,85,31,57,,78,72,40,19,14,11,0.8,0.6
2025-01-12T1000,3405A,109.5886,23.1172,贵港市,新世纪学校,细颗粒物(PM2.5),60,68,62,43,34,73,,81,77,27,16,9,9,0.6,0.6
2025-01-12T1000,1439A,106.6899,26.5998,贵阳市,马鞍山,颗粒物(PM10),65,80,52,46,30,8,,6,6,31,29,5,5,1.2,0.6
2025-01-12T1000,1440A,106.6971,26.5694,贵阳市,市环保站,,,,,,,,,,,,,,,,
2025-01-12T1000,1441A,106.6243,26.6266,贵阳市,鉴湖路,细颗粒物(PM2.5),92,102,51,68,36,19,,6,6,37,32,13,7,1.1,0.7
2025-01-12T1000,1442A,106.7487,26.6343,贵阳市,燕子冲,细颗粒物(PM2.5),94,83,41,70,36,10,,6,5,45,29,24,9,1.4,0.7
2025-01-12T1000,1443A,106.6555,26.4365,贵阳市,碧云窝,细颗粒物(PM2.5),104,102,78,78,53,19,,6,6,24,27,39,19,1.0,0.9
2025-01-12T1000,1444A,106.694,26.5161,贵阳市,中院村,细颗粒物(PM2.5),132,134,73,100,55,11,,8,8,38,34,64,32,1.4,0.9
2025-01-12T1000,1445A,106.7109,26.6027,贵阳市,红边门,细颗粒物(PM2.5),107,102,59,80,44,7,,3,3,52,41,46,36,1.7,1.1
2025-01-12T1000,1446A,106.7164,26.5699,贵阳市,新华路,细颗粒物(PM2.5),122,117,68,92,44,11,,6,6,44,38,48,22,1.4,0.9
2025-01-12T1000,1447A,106.674,26.5424,贵阳市,太慈桥,细颗粒物(PM2.5),85,75,46,63,34,14,,8,8,28,26,12,10,1.1,0.7
2025-01-12T1000,1552A,106.805,26.3003,贵阳市,桐木岭,细颗粒物(PM2.5),84,85,59,62,43,50,,30,30,11,9,42,22,0.7,0.4
2025-01-12T1000,1862A,110.4144,25.3167,桂林市,电子科大尧山校区,,50,46,49,35,33,54,,35,34,10,11,6,6,0.8,0.8
2025-01-12T1000,1863A,110.2819,25.2697,桂林市,监测站,细颗粒物(PM2.5),69,74,64,50,47,40,,26,26,36,43,17,13,1.1,1
2025-01-12T1000,1864A,110.3089,25.2708,桂林市,龙隐路小学,细颗粒物(PM2.5),59,52,50,42,40,42,,37,37,37,32,22,15,0.8,0.6
2025-01-12T1000,1865A,110.2869,25.2178,桂林市,八中,细颗粒物(PM2.5),75,81,65,55,49,42,,23,23,34,36,17,12,0.7,0.8
2025-01-12T1000,3403A,110.1764,25.2381,桂林市,创业大厦,细颗粒物(PM2.5),83,80,65,61,49,18,,11,10,50,43,21,22,1.1,0.9
2025-01-12T1000,3531A,110.296,25.1253,桂林市,旅游学院,细颗粒物(PM2.5),79,80,67,58,51,35,,18,18,38,38,10,8,1.2,1.1
2025-01-12T1000,2674A,100.2561,34.4714,果洛藏族自治州,玛沁县大武镇,,25,25,21,9,16,38,,40,39,14,7,15,17,0.8,0.5
2025-01-12T1000,1129A,126.5422,45.755,哈尔滨市,岭北,细颗粒物(PM2.5),195,171,151,146,132,34,,23,23,55,63,26,23,1.9,2.2
2025-01-12T1000,1130A,126.561,45.8167,哈尔滨市,松北商大,细颗粒物(PM2.5),180,,134,136,128,26,,16,16,54,61,8,7,1.5,1.4
2025-01-12T1000,1131A,126.979,45.5419,哈尔滨市,阿城会宁,细颗粒物(PM2.5),134,,110,102,107,53,,37,37,24,36,13,13,1.1,1.3
2025-01-12T1000,1132A,126.599,45.7222,哈尔滨市,南岗学府路,细颗粒物(PM2.5),175,158,169,132,136,27,,16,16,48,64,21,14,1.0,1.1
2025-01-12T1000,1133A,126.689,45.7733,哈尔滨市,太平宏伟公园,细颗粒物(PM2.5),271,265,182,221,149,7,,3,3,79,75,21,10,2.3,1.2
2025-01-12T1000,1134A,126.635,45.7667,哈尔滨市,道外承德广场,细颗粒物(PM2.5),188,174,151,141,123,21,,14,14,55,63,22,21,1.3,1
2025-01-12T1000,1135A,126.685,45.7319,哈尔滨市,香坊红旗大街,细颗粒物(PM2.5),228,197,173,178,155,19,,11,11,65,71,50,36,1.7,1.4
2025-01-12T1000,1136A,126.6411,45.7258,哈尔滨市,动力和平路,细颗粒物(PM2.5),238,196,162,188,152,10,,5,5,66,67,29,29,1.9,1.4
2025-01-12T1000,1137A,126.593,45.7478,哈尔滨市,道里建国路,细颗粒物(PM2.5),193,156,141,145,131,18,,12,12,62,68,24,24,1.4,1.1
2025-01-12T1000,1138A,126.615,45.61,哈尔滨市,平房东轻厂,细颗粒物(PM2.5),144,122,139,110,127,37,,35,33,31,43,11,9,1.0,1
2025-01-12T1000,1139A,126.595,45.9855,哈尔滨市,呼兰师专,细颗粒物(PM2.5),306,257,225,256,218,10,,10,10,67,73,,22,2.8,2.4
2025-01-12T1000,1140A,126.6206,45.6842,哈尔滨市,省农科院,细颗粒物(PM2.5),195,184,195,146,166,18,,9,9,64,82,20,18,1.5,1.5
2025-01-12T1000,2688A,93.5128,42.8172,哈密市,地区监测站,,30,30,82,19,24,60,,60,59,8,14,4,5,0.3,0.4
2025-01-12T1000,2689A,93.4961,42.8328,哈密市,哈密师范学校,,41,41,68,21,27,59,,64,62,15,19,5,7,0.5,0.5
2025-01-12T1000,2671A,100.9048,36.9639,海北藏族自治州,海晏县西海镇,,20,17,21,14,10,61,,69,67,5,3,7,9,0.7,0.7
2025-01-12T1000,3867A,102.0738,36.5056,海东市,平安区公安北苑,,50,49,46,35,13,22,,40,35,44,18,28,11,1.5,0.7
2025-01-12T1000,1409A,110.576,19.9507,海口市,东寨港,,29,29,37,20,21,82,,84,82,8,6,14,12,0.7,0.7
2025-01-12T1000,1410A,110.3232,20.0574,海口市,海南大学,,43,43,55,25,30,94,,89,88,16,15,8,9,0.4,0.5
2025-01-12T1000,1411A,110.283,20.0053,海口市,秀英海南医院,,45,45,53,25,30,93,,88,87,15,15,7,7,0.4,0.4
2025-01-12T1000,1412A,110.338,19.9969,海口市,海南师范大学,,42,42,52,24,28,98,,91,91,13,13,9,9,0.4,0.5
2025-01-12T1000,1413A,110.33,20.0356,海口市,龙华路环保局宿舍,,44,44,52,25,31,95,,87,87,13,14,9,9,0.4,0.5
2025-01-12T1000,3539A,110.5111,19.9736,海口市,桂林洋子站,,36,36,44,24,26,98,,102,98,11,10,9,8,0.4,0.4
2025-01-12T1000,2673A,100.6188,36.2866,海南藏族自治州,共和县恰卜恰镇,颗粒物(PM10),57,63,33,16,12,17,,38,36,44,21,10,10,1.2,0.9
2025-01-12T1000,2676A,97.3731,37.3753,海西蒙古族藏族自治州,德令哈市,,22,15,32,3,8,70,,76,74,9,11,12,15,0.4,0.5
2025-01-12T1000,1048A,114.5302,36.6116,邯郸市,东污水处理厂,,43,43,54,17,32,28,,36,33,35,31,15,9,1.1,0.8
2025-01-12T1000,1049A,114.4918,36.5713,邯郸市,矿院,,42,35,58,29,25,21,,20,20,47,41,10,8,0.9,0.8
2025-01-12T1000,1050A,114.484,36.6133,邯郸市,丛台公园,,27,27,65,17,27,36,,23,23,23,32,12,8,0.8,0.7
2025-01-12T1000,3458A,114.7895,36.5593,邯郸市,香泉濮院小区,颗粒物(PM10),59,67,76,26,28,53,,37,37,25,29,6,9,0.5,0.6
2025-01-12T1000,3579A,114.50634,36.77178,邯郸市,永年区实验高中,颗粒物(PM10),71,92,76,31,31,23,,19,17,44,38,6,10,0.9,0.8
2025-01-12T1000,3580A,114.20016,36.44293,邯郸市,峰峰矿区临水派出所,,35,35,49,10,19,56,,56,56,17,15,14,12,0.4,0.4
2025-01-12T1000,2634A,106.9893,33.1842,汉中市,汉川机床厂子校,细颗粒物(PM2.5),74,,46,54,32,42,,45,41,11,13,7,8,0.7,0.6
2025-01-12T1000,2635A,107.0154,33.0706,汉中市,市监测站,细颗粒物(PM2.5),74,75,82,54,60,31,,17,15,37,45,8,8,1.2,1.2
2025-01-12T1000,2636A,107.0089,33.1138,汉中市,鑫源开发区,细颗粒物(PM2.5),77,64,66,56,52,27,,24,22,32,29,7,8,0.9,0.9
2025-01-12T1000,2637A,107.007,33.0323,汉中市,南郑大河坎水厂,细颗粒物(PM2.5),97,97,95,72,65,24,,33,26,43,37,11,11,1.1,1
2025-01-12T1000,1223A,120.2072,30.2111,杭州市,滨江,颗粒物(PM10),61,71,69,41,41,36,,10,10,42,55,9,8,0.6,0.6
2025-01-12T1000,1224A,120.0633,30.2747,杭州市,西溪,细颗粒物(PM2.5),58,59,55,41,38,29,,11,11,57,45,9,9,1.0,0.9
2025-01-12T1000,1226A,120.3461,30.3153,杭州市,下沙,颗粒物(PM10),59,67,83,39,46,47,,18,18,36,58,9,9,0.8,0.8
2025-01-12T1000,1227A,120.1269,30.2456,杭州市,卧龙桥,细颗粒物(PM2.5),52,51,49,36,36,29,,9,9,45,44,8,7,0.5,0.4
2025-01-12T1000,1228A,120.1903,30.2692,杭州市,浙江农大,细颗粒物(PM2.5),68,75,70,49,49,18,,4,4,58,62,9,9,0.8,0.7
2025-01-12T1000,1230A,120.1197,30.3119,杭州市,和睦小学,细颗粒物(PM2.5),55,53,61,39,42,25,,7,7,51,54,9,9,0.9,1
2025-01-12T1000,1231A,120.3019,30.4183,杭州市,临平镇,颗粒物(PM10),57,64,80,34,45,38,,10,10,42,63,9,8,0.6,0.7
2025-01-12T1000,1232A,120.2697,30.1819,杭州市,城厢镇,细颗粒物(PM2.5),72,78,73,52,45,26,,9,9,49,57,7,6,0.9,0.8
2025-01-12T1000,1233A,120.0883,30.1808,杭州市,云栖,颗粒物(PM10),56,62,54,37,32,30,,17,17,54,41,7,6,0.7,0.6
2025-01-12T1000,3557A,119.9464,30.0494,杭州市,镇二中,细颗粒物(PM2.5),63,51,59,45,46,21,,6,6,50,50,10,8,0.9,0.8
2025-01-12T1000,3558A,119.7183,30.2367,杭州市,市府大楼,细颗粒物(PM2.5),65,54,61,47,47,48,,31,31,37,43,8,8,0.8,0.7
2025-01-12T1000,3656A,120.1556,30.2864,杭州市,消防大队,颗粒物(PM10),55,60,66,37,42,36,,14,14,43,56,11,10,0.5,0.5
2025-01-12T1000,1270A,117.1959,31.7848,合肥市,明珠广场,细颗粒物(PM2.5),94,124,83,70,49,19,,20,16,60,48,11,12,0.9,0.8
2025-01-12T1000,1271A,117.3072,31.8764,合肥市,三里街,细颗粒物(PM2.5),83,112,88,61,50,45,,,,41,54,7,7,0.7,0.7
2025-01-12T1000,1272A,117.2588,31.8707,合肥市,琥珀山庄,细颗粒物(PM2.5),88,114,85,65,52,44,,13,13,39,55,8,7,0.9,1
2025-01-12T1000,1273A,117.1604,31.9052,合肥市,董铺水库,颗粒物(PM10),81,112,86,56,41,42,,21,21,38,42,5,5,0.5,0.4
2025-01-12T1000,1274A,117.25,31.8571,合肥市,长江中路,颗粒物(PM10),84,117,85,60,52,43,,17,17,40,51,8,8,0.7,0.7
2025-01-12T1000,1275A,117.266,31.9436,合肥市,庐阳区,颗粒物(PM10),82,114,92,53,51,47,,27,27,36,40,5,6,0.9,0.9
2025-01-12T1000,1276A,117.336,31.8586,合肥市,瑶海区,颗粒物(PM10),85,119,97,55,50,51,,13,13,38,58,8,7,0.6,0.6
2025-01-12T1000,1277A,117.3027,31.7964,合肥市,包河区,颗粒物(PM10),84,117,86,51,51,37,,9,9,60,60,6,6,0.5,0.5
2025-01-12T1000,1278A,117.2776,31.7385,合肥市,滨湖新区,颗粒物(PM10),86,122,89,63,44,27,,8,8,62,57,12,11,0.5,0.4
2025-01-12T1000,1279A,117.1318,31.8403,合肥市,高新区,颗粒物(PM10),80,110,83,52,48,50,,36,36,2,13,8,8,0.5,0.4
2025-01-12T1000,3464A,117.3803,31.9147,合肥市,高教基地,颗粒物(PM10),85,119,91,50,53,45,,12,12,40,46,10,9,0.5,0.6
2025-01-12T1000,3614A,79.924,37.0877,和田地区,地区环保局,颗粒物(PM10),123,196,185,29,42,34,,52,48,37,24,17,17,0.5,0.3
2025-01-12T1000,3615A,79.9131,37.113,和田地区,市环保局,颗粒物(PM10),90,130,124,32,38,13,,36,28,60,39,14,16,4.7,1.9
2025-01-12T1000,2516A,108.2011,24.715,河池市,东仁乐园,,,78,68,55,45,29,,17,17,,38,15,11,1.0,0.8
2025-01-12T1000,2517A,108.0497,24.6947,河池市,市环保站,,42,35,38,29,28,28,,20,20,21,24,24,12,0.7,0.6
2025-01-12T1000,2518A,108.0983,24.6989,河池市,市疾控中心,细颗粒物(PM2.5),80,108,58,59,35,15,,8,8,37,32,11,7,0.7,0.6
2025-01-12T1000,1696A,114.6778,23.7569,河源市,源西,,35,35,31,24,24,53,,48,46,23,17,8,6,0.4,0.4
2025-01-12T1000,1697A,114.6944,23.7586,河源市,东埔,,41,41,39,26,27,65,,68,63,26,22,6,6,0.6,0.5
2025-01-12T1000,1698A,114.6892,23.7233,河源市,老城,,33,31,35,23,25,65,,56,52,21,21,6,5,0.6,0.6
2025-01-12T1000,1718A,115.4208,35.2464,菏泽市,气象局,颗粒物(PM10),75,99,114,50,57,41,,33,32,31,41,9,8,0.7,0.8
2025-01-12T1000,3374A,115.5564,35.0891,菏泽市,定陶老年大学,细颗粒物(PM2.5),77,102,100,56,53,31,,26,23,44,46,12,11,0.7,0.7
2025-01-12T1000,4184A,115.4797,35.24401,菏泽市,永昌路1号,颗粒物(PM10),70,90,106,45,57,48,,38,38,35,47,13,11,1.2,1.2
2025-01-12T1000,4193A,115.4715,35.2800,菏泽市,长城路999号,颗粒物(PM10),76,102,107,44,50,39,,27,26,41,50,8,6,0.7,0.7
2025-01-12T1000,2514A,111.5264,24.4172,贺州市,环保小区,细颗粒物(PM2.5),79,92,73,58,45,44,,39,36,26,26,9,8,0.8,0.7
2025-01-12T1000,2515A,111.5608,24.4078,贺州市,政协大楼,细颗粒物(PM2.5),64,65,71,46,39,40,,20,18,28,31,9,7,0.8,0.6
2025-01-12T1000,3534A,111.4744,24.4553,贺州市,西湾,细颗粒物(PM2.5),80,70,65,59,45,51,,34,32,32,26,12,9,0.9,0.7
2025-01-12T1000,2385A,114.17,35.9019,鹤壁市,市监测站,颗粒物(PM10),57,64,82,20,25,44,,36,32,24,21,4,4,0.5,0.4
2025-01-12T1000,2386A,114.2956,35.7511,鹤壁市,市交警支队,颗粒物(PM10),54,58,66,13,19,48,,38,38,17,25,3,4,0.4,0.4
2025-01-12T1000,2387A,114.2878,35.7306,鹤壁市,迎宾馆,颗粒物(PM10),55,59,68,9,18,48,,48,48,21,26,4,5,0.5,0.4
2025-01-12T1000,3474A,114.2617,35.6822,鹤壁市,大新区,颗粒物(PM10),65,80,64,27,20,16,,40,30,48,24,6,6,0.6,0.5
2025-01-12T1000,3596A,114.1572,35.9603,鹤壁市,南山宾馆,,47,47,63,26,32,63,,58,58,4,5,5,3,0.7,0.6
2025-01-12T1000,2244A,130.2537,47.3416,鹤岗市,哈啤分公司,细颗粒物(PM2.5),84,82,53,62,37,37,,54,48,33,24,18,16,1.3,0.8
2025-01-12T1000,2245A,130.2684,47.3086,鹤岗市,斯达机电,,35,29,39,24,29,60,,70,69,19,17,14,15,0.5,0.3
2025-01-12T1000,2246A,130.3114,47.3388,鹤岗市,东山纸板厂,,,,79,,74,15,,15,15,63,56,,18,,2.5
2025-01-12T1000,2247A,130.1097,47.3382,鹤岗市,五号水库,,23,15,36,7,24,71,,74,73,14,14,7,7,0.5,0.6
2025-01-12T1000,2263A,127.4833,50.2524,黑河市,交通局,细颗粒物(PM2.5),65,68,47,47,31,32,,42,42,36,32,7,7,1.3,0.8
2025-01-12T1000,2264A,127.5144,50.2341,黑河市,环保局,细颗粒物(PM2.5),109,100,53,82,44,24,,20,20,40,37,8,8,1.5,1.1
2025-01-12T1000,2265A,127.5291,50.2472,黑河市,大黑河岛,,,49,36,30,33,18,,13,13,19,20,2,2,,
2025-01-12T1000,1074A,115.6838,37.7541,衡水市,电机北厂,颗粒物(PM10),64,77,113,32,70,30,,6,6,38,60,7,17,0.5,0.9
2025-01-12T1000,1075A,115.6303,37.7316,衡水市,市监测站,颗粒物(PM10),59,67,97,23,65,37,,10,10,34,56,10,14,0.5,0.9
2025-01-12T1000,3188A,115.6683,37.7217,衡水市,市城管局,颗粒物(PM10),55,60,98,25,61,36,,8,8,35,61,12,13,0.6,0.9
2025-01-12T1000,3459A,115.5989,37.5491,衡水市,地表水厂,细颗粒物(PM2.5),87,82,75,64,56,29,,16,16,34,50,9,13,0.8,0.9
2025-01-12T1000,2456A,112.5003,26.9167,衡阳市,原169医院,细颗粒物(PM2.5),73,67,60,53,50,20,,3,3,30,42,5,22,0.6,0.6
2025-01-12T1000,2457A,112.6194,26.9258,衡阳市,衡阳化工总厂,细颗粒物(PM2.5),94,83,80,70,65,22,,8,8,40,40,17,9,1.1,0.9
2025-01-12T1000,2458A,112.6211,26.8956,衡阳市,珠晖区环保局,细颗粒物(PM2.5),77,78,80,56,65,42,,17,17,28,41,26,14,0.9,1
2025-01-12T1000,2459A,112.6197,26.8733,衡阳市,市委党校,细颗粒物(PM2.5),77,74,73,56,70,39,,14,14,30,38,18,11,0.7,0.8
2025-01-12T1000,2460A,112.6006,26.8919,衡阳市,市监测站,细颗粒物(PM2.5),115,111,93,87,73,37,,15,15,42,40,39,14,1.1,0.9
2025-01-12T1000,2461A,112.5664,26.9056,衡阳市,真空机电公司,细颗粒物(PM2.5),89,125,86,66,55,52,,16,16,32,44,19,12,1.2,1.1
2025-01-12T1000,3399A,112.6703,26.882,衡阳市,师范学院,细颗粒物(PM2.5),89,97,85,66,64,36,,22,22,31,33,14,11,0.8,0.7
2025-01-12T1000,2608A,103.3772,23.3993,红河哈尼族彝族自治州,污水处理厂,细颗粒物(PM2.5),68,,45,49,42,47,,40,38,16,13,19,10,0.5,0.5
2025-01-12T1000,2609A,103.3861,23.35,红河哈尼族彝族自治州,监测站,细颗粒物(PM2.5),74,55,45,54,44,36,,34,32,20,11,17,7,0.6,0.4
2025-01-12T1000,3038A,103.3758,23.368,红河哈尼族彝族自治州,州图书馆,细颗粒物(PM2.5),74,64,40,54,37,36,,39,35,18,13,16,12,0.6,0.5
2025-01-12T1000,1090A,111.6507,40.7517,呼和浩特市,呼市一监,,44,44,46,25,23,45,,40,37,22,17,12,9,0.7,0.5
2025-01-12T1000,1091A,111.6572,40.8033,呼和浩特市,小召,,44,44,46,18,22,42,,44,38,24,25,9,8,0.6,0.5
2025-01-12T1000,1094A,111.7516,40.8369,呼和浩特市,如意水处理厂,,24,24,38,12,18,40,,36,32,22,22,10,8,0.3,0.3
2025-01-12T1000,1095A,111.7276,40.8062,呼和浩特市,二十九中,,44,44,44,20,21,26,,41,32,32,19,9,8,0.7,0.5
2025-01-12T1000,1096A,111.5512,40.7866,呼和浩特市,工大金川校区,,32,32,51,18,25,24,,30,23,36,29,7,11,0.6,0.6
2025-01-12T1000,1097A,111.717,40.7612,呼和浩特市,化肥厂生活区,颗粒物(PM10),55,60,46,33,21,22,,37,28,38,22,7,6,1.0,0.5
2025-01-12T1000,3698A,111.5968,40.8178,呼和浩特市,红旗小学,,34,34,39,18,20,24,,15,13,35,35,7,7,0.7,0.5
2025-01-12T1000,3699A,111.6518,40.8389,呼和浩特市,海东办,,29,29,37,18,20,37,,37,32,25,24,4,4,0.8,0.7
2025-01-12T1000,2192A,119.7594,49.2261,呼伦贝尔市,区环保局,细颗粒物(PM2.5),68,66,53,49,42,11,,5,5,56,54,9,9,1.1,0.8
2025-01-12T1000,3061A,119.7512,49.1577,呼伦贝尔市,国华电力东,,31,31,29,20,21,57,,56,56,9,10,4,4,0.5,0.4
2025-01-12T1000,1250A,120.0751,30.8669,湖州市,城西水厂,细颗粒物(PM2.5),67,80,76,48,50,22,,11,11,62,58,11,10,0.7,0.7
2025-01-12T1000,2873A,120.0875,30.8955,湖州市,仁皇山新区,细颗粒物(PM2.5),62,67,73,44,50,58,,27,27,35,53,29,11,0.6,0.7
2025-01-12T1000,2907A,120.1844,30.8596,湖州市,吴兴区站,细颗粒物(PM2.5),62,65,68,44,45,24,,7,7,57,56,8,9,0.8,0.8
2025-01-12T1000,3562A,120.4148,30.8538,湖州市,南浔区站,细颗粒物(PM2.5),70,66,69,51,49,28,,8,8,54,58,11,12,0.6,0.6
2025-01-12T1000,1607A,120.9092,40.7136,葫芦岛市,龙港区,细颗粒物(PM2.5),234,222,94,184,59,48,,32,32,78,47,161,71,5.1,1.2
2025-01-12T1000,1608A,120.8392,40.7514,葫芦岛市,化工街,细颗粒物(PM2.5),144,168,106,110,63,12,,8,8,57,46,102,54,1.9,1.3
2025-01-12T1000,1609A,120.8341,40.7073,葫芦岛市,新区,细颗粒物(PM2.5),113,111,77,85,58,17,,7,7,72,57,49,23,1.7,1.1
2025-01-12T1000,1610A,120.8695,40.7677,葫芦岛市,东城区,细颗粒物(PM2.5),282,235,102,232,71,14,,8,8,81,47,85,49,2.5,0.9
2025-01-12T1000,2482A,109.5981,27.5721,怀化市,林科所,细颗粒物(PM2.5),80,65,52,59,45,40,,34,31,22,26,19,13,1.2,1.1
2025-01-12T1000,2483A,109.9453,27.5444,怀化市,河西地税局,细颗粒物(PM2.5),105,93,78,79,59,28,,13,13,19,23,20,6,0.7,0.7
2025-01-12T1000,2484A,109.9781,27.5342,怀化市,市四医院,细颗粒物(PM2.5),107,98,85,80,60,31,,22,22,27,31,2,3,0.8,0.8
2025-01-12T1000,2485A,109.9972,27.5578,怀化市,监测楼,细颗粒物(PM2.5),89,94,77,66,57,31,,18,18,27,29,1,4,0.7,0.7
2025-01-12T1000,2486A,110.0394,27.583,怀化市,市委党校,细颗粒物(PM2.5),109,105,88,82,64,28,,11,11,29,31,8,6,0.8,0.8
2025-01-12T1000,1210A,119.036,33.5981,淮安市,钵池山,细颗粒物(PM2.5),127,144,103,96,68,32,,15,15,58,48,19,12,1.0,1
2025-01-12T1000,1211A,119.007,33.575,淮安市,北京南路,细颗粒物(PM2.5),110,136,104,83,62,41,,10,10,47,54,29,13,0.9,1
2025-01-12T1000,1212A,118.989,33.6067,淮安市,市监测站,细颗粒物(PM2.5),156,146,103,119,78,42,,13,13,50,50,28,11,1.1,0.8
2025-01-12T1000,1213A,119.135,33.5039,淮安市,楚州区监测站,细颗粒物(PM2.5),113,156,109,85,59,36,,9,9,56,55,14,9,1.0,0.7
2025-01-12T1000,1214A,119.0186,33.6297,淮安市,淮阴区监测站,细颗粒物(PM2.5),128,168,120,97,66,38,,12,12,54,54,30,12,1.2,1
2025-01-12T1000,3426A,118.8755,33.2894,淮安市,新华书店,细颗粒物(PM2.5),109,147,97,82,61,17,,27,21,66,38,12,10,1.1,0.7
2025-01-12T1000,2282A,116.8004,33.975,淮北市,监测站,细颗粒物(PM2.5),139,130,108,106,60,24,,34,34,50,41,13,10,0.9,0.5
2025-01-12T1000,2283A,116.8091,33.9007,淮北市,烈山区政府,细颗粒物(PM2.5),108,130,102,81,56,30,,32,32,43,45,9,8,0.9,0.7
2025-01-12T1000,3330A,116.8873,33.9836,淮北市,杜集区检察院,细颗粒物(PM2.5),122,151,117,92,67,22,,30,30,31,32,7,6,0.8,0.6
2025-01-12T1000,4017A,116.7923,33.9535,淮北市,市博物馆,细颗粒物(PM2.5),132,140,116,100,64,24,,28,28,44,50,13,10,,0.7
2025-01-12T1000,2277A,116.8305,32.7727,淮南市,潘集区政府,颗粒物(PM10),87,123,104,52,52,54,,66,59,22,22,10,10,0.5,0.5
2025-01-12T1000,2278A,117.0067,32.6524,淮南市,师范学院,,,,,,,,,,,,,,,,
2025-01-12T1000,2279A,116.8569,32.5951,淮南市,谢家集区政府,颗粒物(PM10),72,94,94,30,43,53,,62,62,18,22,8,7,0.5,0.5
2025-01-12T1000,2280A,116.8281,32.633,淮南市,八公山区政府,颗粒物(PM10),70,90,83,31,36,54,,68,65,18,14,7,5,0.4,0.4
2025-01-12T1000,2281A,116.6325,32.6201,淮南市,焦岗湖风景区管理处,,,,75,,42,,,46,,,13,,3,,0.3
2025-01-12T1000,2894A,117.0566,32.6531,淮南市,经济技术开发区消防队,颗粒物(PM10),83,116,102,46,42,60,,71,67,18,20,8,7,0.5,0.5
2025-01-12T1000,3329A,117.0108,32.5893,淮南市,山南新区,颗粒物(PM10),77,103,109,36,55,59,,70,65,21,24,11,9,0.5,0.6
2025-01-12T1000,2446A,114.9028,30.4742,黄冈市,职工中心,细颗粒物(PM2.5),109,120,90,82,60,27,,39,39,48,36,9,9,1.0,0.8
2025-01-12T1000,2929A,114.8858,30.4519,黄冈市,红卫路,细颗粒物(PM2.5),92,96,86,68,60,49,,42,42,40,40,7,8,1.1,1
2025-01-12T1000,3398A,114.9136,30.4445,黄冈市,市林业局,细颗粒物(PM2.5),95,88,85,71,61,39,,34,34,40,38,11,12,0.9,0.8
2025-01-12T1000,2672A,102.0199,35.5102,黄南藏族自治州,同仁县隆务镇,,,29,28,,6,61,,65,63,2,2,12,9,0.5,0.4
2025-01-12T1000,2295A,118.2903,29.6963,黄山市,延安路89号,细颗粒物(PM2.5),59,64,35,42,26,22,,22,20,27,18,5,5,0.5,0.3
2025-01-12T1000,2296A,118.327,29.7178,黄山市,黄山东路89号,细颗粒物(PM2.5),62,66,52,44,27,20,,12,12,26,24,6,7,0.5,0.4
2025-01-12T1000,2297A,118.1371,30.2756,黄山市,黄山区政府5号楼,,,60,60,48,43,37,,25,25,14,14,8,8,,0.5
2025-01-12T1000,2423A,115.0601,30.2313,黄石市,沈家营,细颗粒物(PM2.5),98,92,88,73,54,27,,21,21,56,42,15,10,0.8,0.8
2025-01-12T1000,2426A,114.8988,30.2019,黄石市,铁山,细颗粒物(PM2.5),145,145,84,111,55,28,,23,23,59,37,62,14,3.6,1.1
2025-01-12T1000,2427A,115.0307,30.2092,黄石市,团城山,细颗粒物(PM2.5),84,92,79,62,51,26,,15,15,46,39,12,11,1.0,0.8
2025-01-12T1000,3149A,115.0235,30.1578,黄石市,笔架山北路,细颗粒物(PM2.5),122,111,73,92,56,36,,28,23,46,32,15,14,1.2,0.9
2025-01-12T1000,4185A,115.0780,30.21118,黄石市,磁湖东路29号,细颗粒物(PM2.5),110,105,81,83,58,32,,21,21,47,44,19,17,1.2,1
2025-01-12T1000,1392A,114.4183,23.0528,惠州市,河南岸金山湖子站,,38,38,40,24,24,72,,75,71,18,16,10,9,0.6,0.6
2025-01-12T1000,1393A,114.4053,23.0822,惠州市,下埔横江三路子站,,34,34,39,22,24,76,,76,72,18,16,9,9,0.4,0.4
2025-01-12T1000,1394A,114.4103,23.1142,惠州市,江北云山西路子站,,34,34,34,22,22,77,,77,74,18,19,9,9,0.6,0.6
2025-01-12T1000,1395A,114.4645,22.7833,惠州市,惠阳区承修路船湖子站,,45,45,50,19,22,63,,64,61,19,15,10,9,0.4,0.4
2025-01-12T1000,1396A,114.5317,22.7422,惠州市,大亚湾管委会子站,,32,32,37,15,20,70,,76,73,24,19,12,12,0.4,0.4
2025-01-12T1000,3314A,114.4338,22.8134,惠州市,惠阳秋长,,31,31,43,19,21,80,,78,75,16,15,10,11,0.4,0.4
2025-01-12T1000,3452A,114.6517,22.775,惠州市,大亚湾霞涌,,29,28,41,20,25,78,,76,76,12,13,9,9,0.7,0.7
2025-01-12T1000,2240A,130.9762,45.3001,鸡西市,环保局,细颗粒物(PM2.5),72,60,68,52,56,37,,28,28,20,32,9,9,0.6,0.7
2025-01-12T1000,2243A,130.9429,45.3039,鸡西市,第一中学,细颗粒物(PM2.5),80,71,52,59,44,47,,31,31,18,25,11,9,0.5,0.4
2025-01-12T1000,3707A,131.0207,45.3073,鸡西市,欧美日汽修厂,细颗粒物(PM2.5),127,145,99,96,76,31,,20,20,38,43,19,22,0.8,1
2025-01-12T1000,3709A,130.9967,45.3106,鸡西市,市政设施管理处,细颗粒物(PM2.5),84,86,75,62,55,29,,16,16,42,44,9,10,0.6,0.6
2025-01-12T1000,2367A,114.9754,27.0803,吉安市,红声器材厂,,47,47,50,28,29,47,,43,42,24,25,15,12,0.5,0.5
2025-01-12T1000,2368A,114.9658,27.0999,吉安市,市森林工业局,颗粒物(PM10),54,57,52,32,31,52,,42,42,28,27,16,15,0.4,0.6
2025-01-12T1000,2369A,114.99,27.1312,吉安市,市环境监测站,颗粒物(PM10),51,51,53,31,37,60,,27,27,15,25,18,16,0.5,0.6
2025-01-12T1000,2370A,115.0093,27.0968,吉安市,青原区法院,颗粒物(PM10),52,53,57,33,33,58,,32,32,23,40,17,9,0.4,0.5
2025-01-12T1000,1772A,126.54,43.8622,吉林市,哈达湾,细颗粒物(PM2.5),78,80,92,57,73,30,,18,18,40,49,15,12,1.1,1.1
2025-01-12T1000,1773A,126.5844,43.8358,吉林市,东局子,细颗粒物(PM2.5),85,75,70,63,57,36,,36,35,32,36,8,9,1.0,1
2025-01-12T1000,1774A,126.5052,43.8245,吉林市,电力学院,细颗粒物(PM2.5),104,93,109,78,93,23,,12,12,39,44,20,14,1.4,1.5
2025-01-12T1000,1775A,126.6133,43.8972,吉林市,江北,细颗粒物(PM2.5),88,80,104,65,84,36,,36,36,40,45,10,19,1.1,1.2
2025-01-12T1000,1776A,126.555,43.8306,吉林市,江南公园,细颗粒物(PM2.5),132,116,93,100,78,20,,17,17,48,49,11,11,1.5,2
2025-01-12T1000,1778A,126.7061,43.7133,吉林市,丰满,,,,,,,,,,,,,,,,
2025-01-12T1000,2868A,126.4739,43.953,吉林市,九站,细颗粒物(PM2.5),276,263,129,226,106,21,,14,14,64,56,10,11,2.2,1.4
2025-01-12T1000,1299A,116.9862,36.6114,济南市,科干所,,,,84,,50,,,51,,,48,,16,,1.0
2025-01-12T1000,1300A,116.9376,36.665,济南市,农科所,颗粒物(PM10),94,137,131,68,67,12,,9,9,60,62,20,25,1.2,1.3
2025-01-12T1000,1301A,117.1265,36.6734,济南市,开发区,细颗粒物(PM2.5),83,107,85,61,55,17,,12,12,58,55,12,12,1.0,0.9
2025-01-12T1000,1303A,117.0624,36.6868,济南市,省种子仓库,颗粒物(PM10),90,129,109,66,56,14,,7,7,53,50,22,14,1.3,1.1
2025-01-12T1000,1304A,116.9489,36.6447,济南市,机床二厂,"颗粒物(PM10),细颗粒物(PM2.5)",92,134,139,68,76,19,,10,10,50,56,34,48,1.4,1.5
2025-01-12T1000,1305A,117.0495,36.663,济南市,市监测站,"颗粒物(PM10),细颗粒物(PM2.5)",80,110,87,59,48,18,,10,10,57,56,17,13,1.3,1
2025-01-12T1000,1306A,116.7675,36.5484,济南市,长清党校,细颗粒物(PM2.5),123,144,109,93,70,19,,10,10,68,59,18,14,1.2,1
2025-01-12T1000,1616A,117.6795,36.229,济南市,技术学院,细颗粒物(PM2.5),113,122,123,85,89,13,,6,6,53,66,18,19,1.8,1.4
2025-01-12T1000,1961A,117.532,36.6868,济南市,东山小学,"颗粒物(PM10),细颗粒物(PM2.5)",83,115,84,61,46,22,,14,14,56,50,13,11,1.2,0.9
2025-01-12T1000,3059A,117.7161,36.2049,济南市,泰兴公司,细颗粒物(PM2.5),122,141,128,92,83,12,,9,9,64,60,23,21,,1.2
2025-01-12T1000,3064A,117.6867,36.2171,济南市,莱芜战役纪念馆,细颗粒物(PM2.5),110,151,131,83,81,14,,10,10,66,66,15,18,1.5,1.3
2025-01-12T1000,3494A,117.1673,36.9782,济南市,济阳区政府,细颗粒物(PM2.5),135,164,112,103,73,15,,10,10,58,52,43,28,1.2,1
2025-01-12T1000,3495A,117.1171,36.63,济南市,锦屏中学,细颗粒物(PM2.5),59,66,66,42,44,34,,30,30,37,38,9,10,0.7,0.6
2025-01-12T1000,3682A,116.9814,36.6819,济南市,济南四建,细颗粒物(PM2.5),92,105,109,68,65,11,,5,5,57,66,21,24,0.9,1
2025-01-12T1000,1653A,116.6251,35.4302,济宁市,火炬城,细颗粒物(PM2.5),122,141,120,92,84,20,,8,8,61,60,19,16,1.3,1.2
2025-01-12T1000,1655A,116.5491,35.4042,济宁市,电化厂,细颗粒物(PM2.5),122,164,151,92,87,20,,7,7,66,67,21,17,1.2,1.1
2025-01-12T1000,3500A,116.5814,35.3707,济宁市,北湖一中,细颗粒物(PM2.5),117,142,125,88,85,29,,13,13,65,66,16,14,1.1,1
2025-01-12T1000,3501A,116.8249,35.5593,济宁市,服务中心,细颗粒物(PM2.5),178,230,166,134,97,14,,8,8,80,69,24,21,2.0,1.4
2025-01-12T1000,3678A,116.5907,35.4054,济宁市,市第七中学,细颗粒物(PM2.5),122,127,126,92,88,32,,12,12,52,64,13,11,1.3,1.2
2025-01-12T1000,2255A,130.2751,46.8028,佳木斯市,佳纺,细颗粒物(PM2.5),148,123,76,113,73,31,,19,18,55,39,12,7,1.6,1
2025-01-12T1000,2256A,130.3995,46.8307,佳木斯市,发电厂,细颗粒物(PM2.5),69,52,71,50,73,42,,27,27,32,44,10,7,1.1,1
2025-01-12T1000,2257A,130.3258,46.7975,佳木斯市,环保局,细颗粒物(PM2.5),144,133,82,110,71,11,,12,8,83,55,16,12,1.8,1.1
2025-01-12T1000,2258A,130.3648,46.8032,佳木斯市,十一中,细颗粒物(PM2.5),130,,76,99,77,21,,20,20,66,53,8,7,1.6,1
2025-01-12T1000,2259A,130.3794,46.7588,佳木斯市,四丰,细颗粒物(PM2.5),89,89,83,66,54,53,,58,55,18,15,1,1,1.0,0.9
2025-01-12T1000,1252A,120.7436,30.778,嘉兴市,清河小学,细颗粒物(PM2.5),58,62,69,41,48,12,,3,3,68,62,16,13,1.2,1.2
2025-01-12T1000,1253A,120.726,30.7478,嘉兴市,嘉兴学院,细颗粒物(PM2.5),69,82,82,50,52,11,,3,3,66,62,10,10,0.8,0.8
2025-01-12T1000,2872A,120.7846,30.7525,嘉兴市,南湖区残联,细颗粒物(PM2.5),69,80,81,50,50,22,,10,10,62,62,12,11,0.9,0.9
2025-01-12T1000,3407A,120.6916,30.7739,嘉兴市,秀洲住建,细颗粒物(PM2.5),67,69,76,48,54,20,,6,6,58,64,8,9,0.8,0.8
2025-01-12T1000,1945A,98.2908,39.7711,嘉峪关市,气象局,颗粒物(PM10),59,68,97,14,16,86,,86,86,8,13,13,13,0,0.1
2025-01-12T1000,2884A,98.2672,39.7978,嘉峪关市,酒钢宾馆,颗粒物(PM10),71,92,108,17,20,81,,87,86,11,17,27,54,0.5,0.9
2025-01-12T1000,3248A,98.2643,39.7724,嘉峪关市,雄关区,颗粒物(PM10),59,68,75,15,14,81,,84,83,16,18,16,14,0.4,0.5
2025-01-12T1000,1383A,113.1064,22.6058,江门市,北街,颗粒物(PM10),52,53,39,20,21,62,,50,50,38,34,6,6,0.6,0.5
2025-01-12T1000,1384A,113.0731,22.5835,江门市,西区,,44,44,46,20,21,57,,46,46,32,28,11,10,0.6,0.5
2025-01-12T1000,1385A,113.0219,22.5311,江门市,圭峰西,,44,44,37,22,21,60,,55,55,36,30,8,7,0.6,0.6
2025-01-12T1000,1386A,113.0828,22.5947,江门市,东湖,,,40,40,22,22,59,,48,48,,27,9,8,0.5,0.5
2025-01-12T1000,3311A,113.1075,22.5647,江门市,江海富民,,45,45,44,23,18,61,,53,53,36,32,9,9,0.5,0.5
2025-01-12T1000,3449A,113.05,22.4667,江门市,新会银湖,,50,50,39,20,22,62,,38,38,34,38,7,7,0.4,0.4
2025-01-12T1000,1828A,113.227,35.2125,焦作市,市环保局,颗粒物(PM10),57,64,79,10,17,61,,65,62,8,10,6,5,0.8,0.6
2025-01-12T1000,1830A,113.1992,35.2590,焦作市,影视城,颗粒物(PM10),51,52,70,25,27,69,,71,69,8,10,7,7,0.5,0.5
2025-01-12T1000,3169A,113.2725,35.2067,焦作市,太极体育中心,颗粒物(PM10),60,69,80,10,18,59,,65,62,14,17,9,7,0.4,0.2
2025-01-12T1000,3335A,113.3137,35.2641,焦作市,马村街道办,颗粒物(PM10),55,60,73,16,24,60,,65,62,10,10,6,5,0.6,0.5
2025-01-12T1000,3336A,113.2465,35.2373,焦作市,焦作技师学院,,40,40,73,9,16,68,,67,65,17,21,5,5,0.0,0.1
2025-01-12T1000,3477A,113.1656,35.2539,焦作市,中站许衡医院,颗粒物(PM10),52,54,71,21,25,66,,66,65,4,9,15,15,0.6,0.6
2025-01-12T1000,3981A,113.2449,35.1803,焦作市,原李万街道办,颗粒物(PM10),63,76,86,19,19,60,,65,63,8,10,10,6,0.9,0.6
2025-01-12T1000,1708A,116.3701,23.5345,揭阳市,新兴,,50,50,46,25,29,64,,54,54,22,22,7,7,0.6,0.6
2025-01-12T1000,1709A,116.3264,23.5443,揭阳市,西马,,50,50,47,19,24,67,,62,61,22,20,8,9,0.5,0.5
2025-01-12T1000,1710A,116.3611,23.5626,揭阳市,东兴,颗粒物(PM10),69,87,57,23,27,52,,39,39,35,32,12,11,0.6,0.6
2025-01-12T1000,1711A,116.4151,23.5294,揭阳市,渔湖,颗粒物(PM10),57,64,54,30,30,63,,40,38,29,40,16,15,0.7,0.7
2025-01-12T1000,3320A,116.403,23.5699,揭阳市,曲溪,颗粒物(PM10),54,58,49,23,32,59,,47,44,40,36,2,2,0.8,0.7
2025-01-12T1000,1944A,102.1692,38.5167,金昌市,天庆家园,细颗粒物(PM2.5),69,74,97,50,37,42,,45,45,41,23,84,38,1.2,1
2025-01-12T1000,3170A,102.1864,38.5253,金昌市,市委党校,颗粒物(PM10),69,87,132,39,35,37,,41,41,46,28,68,38,1.3,1
2025-01-12T1000,4022A,102.1647,38.5371,金昌市,金川区人防中心,颗粒物(PM10),59,67,118,39,31,61,,54,54,22,17,75,34,0.9,0.7
2025-01-12T1000,1262A,119.647,29.077,金华市,十五中,细颗粒物(PM2.5),62,68,62,44,35,34,,29,29,44,46,8,4,0.9,0.6
2025-01-12T1000,1263A,119.686,29.1029,金华市,监测站,细颗粒物(PM2.5),63,67,61,45,36,35,,24,24,41,44,9,6,0.7,0.6
2025-01-12T1000,3659A,119.656,29.1131,金华市,气象局,细颗粒物(PM2.5),60,68,72,43,42,42,,18,18,38,52,12,6,1.1,0.7
2025-01-12T1000,1767A,121.1115,41.0879,锦州市,南山,细颗粒物(PM2.5),159,123,92,121,93,22,,14,14,46,49,21,18,1.6,1.4
2025-01-12T1000,1768A,121.0533,40.8434,锦州市,开发区,细颗粒物(PM2.5),166,156,114,126,81,26,,10,10,60,57,77,44,2.6,1.4
2025-01-12T1000,1769A,121.1836,41.1119,锦州市,百股街道,细颗粒物(PM2.5),144,121,96,110,79,20,,10,10,50,54,33,30,1.3,1.2
2025-01-12T1000,1770A,121.1178,41.1222,锦州市,天安街道,细颗粒物(PM2.5),142,123,102,108,79,18,,12,12,53,49,28,23,1.7,1.4
2025-01-12T1000,1771A,121.1303,41.1386,锦州市,北湖公园,细颗粒物(PM2.5),148,146,90,113,62,30,,20,20,39,46,19,20,1.4,1.1
2025-01-12T1000,2160A,112.85,35.5051,晋城市,自来水公司,,46,46,72,12,17,55,,65,61,22,18,8,7,0.6,0.5
2025-01-12T1000,2161A,112.8318,35.4936,晋城市,白云商贸,,46,46,80,9,13,62,,66,63,15,17,8,6,0.5,0.5
2025-01-12T1000,2162A,112.8508,35.4887,晋城市,市环保局,颗粒物(PM10),53,56,80,19,19,58,,64,61,21,18,7,6,0.6,0.5
2025-01-12T1000,2163A,112.8676,35.4897,晋城市,技术学院,颗粒物(PM10),53,56,76,19,14,52,,68,63,28,20,8,6,0.7,0.6
2025-01-12T1000,2165A,112.8453,35.546,晋城市,白马寺,,35,35,61,11,17,47,,49,48,7,7,12,13,0.5,0.4
2025-01-12T1000,3620A,112.8271,35.4828,晋城市,泽州一中,,39,39,65,12,14,64,,67,65,12,13,4,5,0.4,0.5
2025-01-12T1000,2171A,112.7532,37.6945,晋中市,锦纶小区,,,,66,,19,,,49,,,20,,7,,0.4
2025-01-12T1000,2173A,112.7249,37.7067,晋中市,南都小区,颗粒物(PM10),57,63,60,22,23,36,,53,48,28,20,24,10,0.7,0.3
2025-01-12T1000,2174A,112.6991,37.6982,晋中市,榆次区政府,颗粒物(PM10),81,112,61,21,21,24,,58,52,36,18,26,10,1.0,0.5
2025-01-12T1000,2865A,112.7195,37.6828,晋中市,榆次三中,颗粒物(PM10),90,129,70,48,19,20,,58,48,38,17,63,12,1.5,0.6
2025-01-12T1000,2439A,112.2014,31.0481,荆门市,竹园小学,细颗粒物(PM2.5),127,141,111,96,79,38,,50,39,39,25,13,13,0.8,0.7
2025-01-12T1000,2440A,112.1969,30.9891,荆门市,掇刀,细颗粒物(PM2.5),102,117,116,76,77,70,,64,62,27,26,13,12,0.7,0.7
2025-01-12T1000,2441A,112.2213,31.0386,荆门市,石化一小,细颗粒物(PM2.5),134,156,115,102,80,47,,51,41,36,29,12,11,0.7,0.6
2025-01-12T1000,3012A,112.1849,31.0362,荆门市,西山林语,细颗粒物(PM2.5),115,109,100,87,75,50,,67,60,35,20,11,10,0.5,0.6
2025-01-12T1000,3547A,112.1632,31.0138,荆门市,龙泉中学南校,细颗粒物(PM2.5),103,112,109,77,78,56,,65,61,22,20,12,12,0.8,0.7
2025-01-12T1000,1844A,112.2494,30.3197,荆州市,市图书馆,细颗粒物(PM2.5),114,91,75,86,70,40,,46,39,32,28,8,6,0.8,0.7
2025-01-12T1000,1845A,112.2008,30.3544,荆州市,市委党校,细颗粒物(PM2.5),114,107,86,86,72,44,,45,39,31,26,10,7,0.7,0.6
2025-01-12T1000,3194A,112.2747,30.3122,荆州市,管委会,细颗粒物(PM2.5),113,92,86,85,69,42,,51,43,21,20,6,8,0.8,0.7
2025-01-12T1000,3548A,112.1655,30.3364,荆州市,学苑路,细颗粒物(PM2.5),122,99,84,92,76,51,,53,45,42,36,14,10,0.9,0.8
2025-01-12T1000,2342A,117.3102,29.3867,景德镇市,王港中学,,,,,,,,,,,,,,,,
2025-01-12T1000,2343A,117.2117,29.2933,景德镇市,老干部活动中心,细颗粒物(PM2.5),68,61,57,49,46,24,,17,17,28,34,7,9,0.8,0.9
2025-01-12T1000,2344A,117.1894,29.2789,景德镇市,兽医站,,,48,66,38,34,36,,23,23,31,35,,9,0.7,0.7
2025-01-12T1000,2345A,117.1547,29.2617,景德镇市,台达陶瓷,颗粒物(PM10),52,54,80,30,45,41,,19,19,22,45,10,51,0.6,0.8
2025-01-12T1000,2346A,117.2461,29.2956,景德镇市,陶研所,颗粒物(PM10),57,64,56,34,34,20,,13,13,28,30,4,4,0.7,0.7
2025-01-12T1000,1803A,115.9872,29.6815,九江市,十里,细颗粒物(PM2.5),60,66,64,43,42,19,,6,6,49,43,10,10,0.8,0.8
2025-01-12T1000,1804A,115.9584,29.7046,九江市,茅山头,颗粒物(PM10),62,74,72,38,42,26,,28,28,56,58,13,10,0.8,0.9
2025-01-12T1000,1805A,115.9877,29.7295,九江市,西园,细颗粒物(PM2.5),73,72,65,53,39,18,,18,18,77,64,12,10,0.8,0.7
2025-01-12T1000,1806A,116.0172,29.6547,九江市,五七二七厂,颗粒物(PM10),56,62,56,31,32,53,,57,54,34,23,9,8,0.7,0.6
2025-01-12T1000,1808A,115.9114,29.6038,九江市,综合工业园,颗粒物(PM10),61,72,61,40,43,52,,33,33,41,44,8,9,0.3,0.5
2025-01-12T1000,1809A,116.0721,29.7535,九江市,石化总厂,细颗粒物(PM2.5),93,76,70,69,50,37,,38,35,23,23,15,13,0.7,0.7
2025-01-12T1000,1810A,115.9773,29.5698,九江市,庐山气象台,,50,46,40,35,28,89,,94,92,9,10,6,11,1.2,0.9
2025-01-12T1000,3190A,116.0254,29.6994,九江市,外国语学校,细颗粒物(PM2.5),72,72,67,52,40,28,,43,39,36,27,14,12,0.6,0.6
2025-01-12T1000,2658A,98.5061,39.7443,酒泉市,仓门街子站,颗粒物(PM10),95,139,114,31,25,38,,82,71,29,15,70,16,0.7,0.5
2025-01-12T1000,2659A,98.4989,39.7256,酒泉市,油田生活基地,颗粒物(PM10),97,144,119,31,21,30,,78,66,31,16,19,15,0.7,0.4
2025-01-12T1000,2698A,76.0072,39.4467,喀什地区,巡警大队,颗粒物(PM10),94,138,160,60,69,14,,18,18,55,60,3,7,2.7,2.3
2025-01-12T1000,2699A,75.9755,39.4694,喀什地区,吾办,细颗粒物(PM2.5),102,109,142,76,91,9,,18,17,68,63,3,3,2.8,2.3
2025-01-12T1000,4027A,75.9483,39.4689,喀什地区,老干局,细颗粒物(PM2.5),109,133,210,82,109,7,,6,6,58,67,4,7,3.6,4.1
2025-01-12T1000,1824A,114.3389,34.7781,开封市,肿瘤医院,颗粒物(PM10),61,71,76,18,22,50,,54,53,16,14,3,3,0.4,0.4
2025-01-12T1000,1826A,114.2885,34.7965,开封市,世纪星幼儿园,颗粒物(PM10),57,63,74,22,25,49,,54,53,20,17,4,3,0.3,0.3
2025-01-12T1000,3147A,114.3438,34.8106,开封市,龙亭公园,颗粒物(PM10),62,74,77,18,21,49,,51,51,23,20,3,3,0.4,0.4
2025-01-12T1000,3210A,114.3644,34.7964,开封市,汴京公园,,,71,83,20,22,48,,52,52,26,21,,4,0.5,0.3
2025-01-12T1000,3473A,114.2485,34.8306,开封市,技师学院,颗粒物(PM10),58,66,76,22,21,44,,39,38,26,30,3,2,0.4,0.4
2025-01-12T1000,3592A,114.4644,34.7556,开封市,祥符区生态环境局,颗粒物(PM10),74,98,83,29,28,44,,47,46,27,23,4,3,0.4,0.4
2025-01-12T1000,1951A,84.895,45.6094,克拉玛依市,长征新村,,33,33,49,20,34,36,,44,42,27,26,6,6,0.8,0.8
2025-01-12T1000,1952A,84.8988,45.5893,克拉玛依市,南林小区,细颗粒物(PM2.5),54,46,47,38,33,22,,42,39,30,22,5,5,1.0,0.9
2025-01-12T1000,1954A,84.905,44.3396,克拉玛依市,独山子区,细颗粒物(PM2.5),54,,39,38,36,28,,65,60,60,27,4,4,0.7,0.5
2025-01-12T1000,1955A,85.6979,46.098,克拉玛依市,乌尔禾区商贸楼,,42,,23,29,23,26,,18,18,38,42,3,4,1.0,0.9
2025-01-12T1000,3612A,85.1045,45.6899,克拉玛依市,白碱滩区新站,,38,,45,26,28,35,,44,43,25,23,4,5,1.0,1.2
2025-01-12T1000,2697A,76.1454,39.7142,克孜勒苏柯尔克孜自治州,市人民政府,颗粒物(PM10),58,66,81,38,41,50,,57,56,12,15,3,4,0.8,0.8
2025-01-12T1000,3665A,76.1658,39.7157,克孜勒苏柯尔克孜自治州,克州文化中心,颗粒物(PM10),64,77,80,38,43,51,,59,59,17,20,7,8,0.7,0.7
2025-01-12T1000,1450A,102.8204,24.8886,昆明市,呈贡新区,细颗粒物(PM2.5),57,53,29,40,28,21,,31,24,29,18,6,6,0.8,0.7
2025-01-12T1000,1451A,102.6251,24.9608,昆明市,西山森林公园,,,,,,,,,,,,,,,,
2025-01-12T1000,1452A,102.7252,25.0902,昆明市,龙泉镇,,40,29,20,28,17,28,,37,32,23,16,7,7,0.7,0.6
2025-01-12T1000,1453A,102.7266,25.0375,昆明市,东风东路,,49,46,25,34,21,14,,30,22,37,22,7,6,0.9,0.7
2025-01-12T1000,1454A,102.6742,25.0669,昆明市,金鼎山,细颗粒物(PM2.5),59,,24,42,22,25,,41,35,28,17,9,8,1.0,0.8
2025-01-12T1000,1455A,102.6644,25.0401,昆明市,碧鸡广场,细颗粒物(PM2.5),57,44,22,40,21,23,,42,35,31,19,6,6,0.7,0.6
2025-01-12T1000,3179A,102.7494,25.0119,昆明市,官渡区博物馆,细颗粒物(PM2.5),59,47,28,42,23,18,,12,8,38,32,8,7,0.7,0.6
2025-01-12T1000,3375A,102.8017,24.8336,昆明市,青年创业园,,42,39,25,29,20,38,,31,27,15,15,10,7,0.8,0.7
2025-01-12T1000,3550A,102.7997,24.9786,昆明市,昆明学院,"颗粒物(PM10),细颗粒物(PM2.5)",67,83,35,48,22,16,,7,6,40,30,11,10,0.8,0.6
2025-01-12T1000,3551A,102.5967,24.6736,昆明市,晋宁区生态环境分局,细颗粒物(PM2.5),73,83,37,53,26,30,,40,34,22,15,6,3,1.0,0.6
2025-01-12T1000,3552A,102.6678,24.9856,昆明市,云天化总部,,50,44,29,35,20,30,,38,35,28,22,7,7,0.6,0.6
2025-01-12T1000,1456A,91.1319,29.6514,拉萨市,八廓街,,18,12,27,8,17,56,,58,58,18,26,5,6,0.3,0.5
2025-01-12T1000,1457A,91.1221,29.6747,拉萨市,市环保局,,21,21,48,13,31,40,,38,38,28,32,5,6,0.7,1.2
2025-01-12T1000,1458A,91.0874,29.6475,拉萨市,区监测站,,16,15,23,7,15,46,,50,50,31,37,6,7,0.4,0.6
2025-01-12T1000,1459A,91.1774,29.6541,拉萨市,西藏大学,,19,17,27,3,11,58,,64,63,10,18,5,6,0.4,0.4
2025-01-12T1000,1460A,90.9798,29.6588,拉萨市,区辐射站,细颗粒物(PM2.5),70,70,44,51,31,16,,22,22,63,45,13,10,1.4,1
2025-01-12T1000,1461A,91.0834,29.6292,拉萨市,拉萨火车站,,30,22,23,15,16,17,,19,19,60,44,5,5,1.2,0.9
2025-01-12T1000,2520A,109.2203,23.7256,来宾市,来宾技工学校,细颗粒物(PM2.5),170,164,102,129,87,32,,14,14,52,37,45,13,1.2,0.8
2025-01-12T1000,3535A,109.1781,23.7297,来宾市,兴宾区政府,细颗粒物(PM2.5),153,141,88,117,66,58,,44,42,23,23,9,7,1.0,0.8
2025-01-12T1000,4002A,109.2416,23.7461,来宾市,中南小学,细颗粒物(PM2.5),231,233,162,181,134,22,,15,14,60,41,16,9,1.7,1.3
2025-01-12T1000,1476A,103.631,36.1031,兰州市,兰炼宾馆,颗粒物(PM10),71,92,81,49,49,19,,20,15,41,44,76,38,1.3,0.8
2025-01-12T1000,1477A,104.1373,35.9454,兰州市,榆中兰大校区,,,,,,,,,,,,,,,,
2025-01-12T1000,1478A,103.8412,36.0726,兰州市,生物制品所,细颗粒物(PM2.5),78,101,81,57,49,7,,3,3,58,58,13,12,1.7,0.9
2025-01-12T1000,1479A,103.831,36.0464,兰州市,铁路设计院,细颗粒物(PM2.5),79,96,94,58,56,11,,5,5,58,70,29,13,1.3,1.4
2025-01-12T1000,3186A,103.7158,36.1058,兰州市,教育港,细颗粒物(PM2.5),74,94,95,54,54,14,,8,8,45,51,51,21,1.1,0.8
2025-01-12T1000,3241A,103.7439,36.0842,兰州市,百合公园,细颗粒物(PM2.5),82,96,84,60,52,11,,9,8,47,50,43,13,1.4,1.1
2025-01-12T1000,3242A,103.9611,35.998,兰州市,和平,颗粒物(PM10),70,90,80,44,42,21,,23,20,58,45,23,14,1.9,1
2025-01-12T1000,3245A,103.6633,36.533,兰州新区,新区管委会,颗粒物(PM10),57,63,57,30,36,33,,40,39,30,23,18,17,0.8,0.6
2025-01-12T1000,3246A,103.6975,36.4789,兰州新区,舟曲中学,,38,38,63,18,34,45,,30,30,22,32,44,14,0.5,0.5
2025-01-12T1000,1067A,116.6708,39.5111,廊坊市,药材公司,,25,25,36,3,19,53,,52,52,19,41,3,4,0.3,0.5
2025-01-12T1000,1068A,116.7214,39.5589,廊坊市,开发区,,22,22,34,8,18,60,,52,52,12,38,4,5,0.3,0.4
2025-01-12T1000,1070A,116.7244,39.5269,廊坊市,北华航天学院,,21,21,37,8,17,58,,54,54,10,31,4,5,0.3,0.5
2025-01-12T1000,2919A,116.7022,39.5453,廊坊市,河北工业大学,,17,,30,11,20,54,,49,49,17,38,6,6,0.3,0.4
2025-01-12T1000,2535A,103.7723,29.5462,乐山市,花湖湾,细颗粒物(PM2.5),65,53,41,47,33,7,,38,27,27,18,4,5,0.6,0.4
2025-01-12T1000,2536A,103.7627,29.5844,乐山市,牛耳桥,细颗粒物(PM2.5),65,55,45,47,35,3,,12,9,33,31,5,5,0.6,0.5
2025-01-12T1000,2537A,103.7508,29.6006,乐山市,市第三水厂,细颗粒物(PM2.5),63,58,45,45,36,5,,8,4,32,30,4,4,0.8,0.6
2025-01-12T1000,2538A,103.7571,29.5664,乐山市,市监测站,细颗粒物(PM2.5),55,51,38,39,31,4,,24,14,30,17,4,4,0.8,0.6
2025-01-12T1000,3361A,103.7311,29.5628,乐山市,理工大学,细颗粒物(PM2.5),72,57,41,52,35,10,,26,17,30,21,7,7,0.5,0.4
2025-01-12T1000,2598A,100.2143,26.8576,丽江市,西南郊,,46,42,30,32,22,38,,51,47,22,11,3,4,0.8,0.9
2025-01-12T1000,2599A,100.2497,26.8802,丽江市,丽江古城,,46,46,38,32,28,39,,48,42,12,12,9,9,1.1,0.8
2025-01-12T1000,2600A,100.2203,26.8906,丽江市,市中心,,41,41,22,20,19,42,,49,45,14,11,9,9,0.7,0.7
2025-01-12T1000,1267A,119.914,28.4514,丽水市,监测站大楼,,46,44,43,32,34,28,,12,12,27,40,6,8,0.5,0.6
2025-01-12T1000,1268A,119.93,28.4586,丽水市,莲都小学,,47,47,49,30,27,24,,13,13,30,37,7,7,0.8,0.6
2025-01-12T1000,1269A,119.879,28.4231,丽水市,余庄前,细颗粒物(PM2.5),53,50,44,37,32,26,,10,10,36,30,4,4,0.4,0.3
2025-01-12T1000,1173A,119.176,34.5885,连云港市,市环境监测站,细颗粒物(PM2.5),125,136,115,95,81,27,,9,9,60,57,27,17,1.4,1.1
2025-01-12T1000,3000A,119.3581,34.6972,连云港市,德源药业,细颗粒物(PM2.5),138,163,125,105,77,11,,4,4,77,64,25,13,1.0,0.5
2025-01-12T1000,3007A,119.178,34.844,连云港市,新城一中,细颗粒物(PM2.5),149,141,113,114,88,22,,9,9,71,66,29,18,1.3,0.8
2025-01-12T1000,3008A,119.3608,34.7519,连云港市,胡沟管理处,细颗粒物(PM2.5),94,102,84,70,60,29,,28,26,48,37,22,13,1.5,0.8
2025-01-12T1000,3009A,119.1478,34.5911,连云港市,矿山设计院,细颗粒物(PM2.5),140,156,126,107,87,22,,7,7,59,52,22,16,1.1,0.9
2025-01-12T1000,3434A,119.2413,34.6539,连云港市,工贸学校,细颗粒物(PM2.5),115,122,110,87,79,29,,26,22,57,39,25,16,1.4,0.8
2025-01-12T1000,3664A,119.4172,34.7341,连云港市,连云街道,细颗粒物(PM2.5),110,124,99,83,61,20,,38,30,64,34,40,18,1.6,0.9
2025-01-12T1000,2571A,102.3431,27.8099,凉山彝族自治州,青龙寺,,23,23,14,8,5,50,,44,44,9,8,6,5,0.7,0.6
2025-01-12T1000,2572A,102.2721,27.8415,凉山彝族自治州,邛海宾馆,,23,23,17,16,10,49,,45,44,17,12,8,8,0.8,0.7
2025-01-12T1000,2573A,102.2625,27.898,凉山彝族自治州,西昌市政府,,23,23,15,16,16,50,,43,43,15,12,11,8,0.8,0.7
2025-01-12T1000,2574A,102.2685,27.8851,凉山彝族自治州,凉山州政府,,23,22,18,16,14,51,,45,45,13,11,9,7,0.7,0.6
2025-01-12T1000,2575A,102.237,27.8914,凉山彝族自治州,长安,,46,46,27,27,16,28,,41,31,32,15,15,7,0.8,0.5
2025-01-12T1000,2212A,123.2,41.1953,辽阳市,宏伟区,细颗粒物(PM2.5),122,114,85,92,71,14,,8,8,46,38,49,30,1.6,1.1
2025-01-12T1000,2213A,123.1683,41.2495,辽阳市,新华园,细颗粒物(PM2.5),114,131,97,86,71,13,,7,7,59,53,48,32,2.1,1.8
2025-01-12T1000,2214A,123.2354,41.2639,辽阳市,滨河路,细颗粒物(PM2.5),77,64,68,56,53,26,,14,14,34,40,15,8,1.2,1
2025-01-12T1000,2215A,123.149,41.2991,辽阳市,铁西工业园,细颗粒物(PM2.5),153,212,134,117,110,5,,4,4,54,48,16,7,2.7,2.2
2025-01-12T1000,2227A,125.1358,42.8845,辽源市,环保局,细颗粒物(PM2.5),127,121,91,96,67,24,,10,10,46,44,14,15,1.7,1.5
2025-01-12T1000,3239A,125.0764,42.9078,辽源市,银鹰制药,细颗粒物(PM2.5),133,124,84,101,70,32,,18,18,39,45,17,12,1.7,1.5
2025-01-12T1000,1625A,115.9848,36.4372,聊城市,区政府,细颗粒物(PM2.5),85,110,107,63,68,31,,16,16,49,56,20,19,1.3,1.2
2025-01-12T1000,2878A,116.0072,36.4343,聊城市,聊大东校,细颗粒物(PM2.5),93,117,119,69,73,28,,12,12,52,59,18,17,1.1,1.1
2025-01-12T1000,3200A,115.9819,36.4978,聊城市,监控中心,细颗粒物(PM2.5),113,133,123,85,77,27,,18,16,54,64,21,22,1.3,1.3
2025-01-12T1000,3513A,116.0445,36.4361,聊城市,九州社区,细颗粒物(PM2.5),94,96,103,70,69,35,,16,16,44,53,20,19,0.8,0.8
2025-01-12T1000,4018A,116.0567,36.4608,聊城市,星美广场,细颗粒物(PM2.5),100,119,115,75,73,27,,14,14,45,48,20,22,0.8,0.8
2025-01-12T1000,2632A,94.3681,29.6376,林芝市,林芝监测站,,25,16,14,9,9,77,,87,85,5,2,6,6,0.5,0.4
2025-01-12T1000,2633A,94.3616,29.6616,林芝市,林芝人民医院,,40,40,18,16,5,51,,82,76,22,5,6,6,0.7,0.5
2025-01-12T1000,2603A,100.0781,23.8982,临沧市,市环保局,,20,14,35,14,26,40,,48,44,10,12,8,9,0.6,0.5
2025-01-12T1000,2604A,100.0894,23.8822,临沧市,市气象局,,22,,32,15,25,38,,47,42,10,12,8,9,0.8,0.7
2025-01-12T1000,1733A,111.5531,36.0783,临汾市,临钢医院,颗粒物(PM10),57,64,75,16,22,24,,52,39,33,23,2,6,0.4,0.6
2025-01-12T1000,1734A,111.5028,36.0714,临汾市,技工学校,颗粒物(PM10),52,53,73,30,30,31,,56,47,30,22,6,9,0.5,0.6
2025-01-12T1000,1736A,111.5018,36.0855,临汾市,市委,颗粒物(PM10),63,75,83,15,22,32,,59,50,29,22,4,8,0.5,0.6
2025-01-12T1000,3018A,111.505,36.1014,临汾市,唐尧大酒店,颗粒物(PM10),60,70,83,19,24,25,,52,42,31,23,4,9,0.5,0.6
2025-01-12T1000,3668A,111.5036,36.0414,临汾市,城南,颗粒物(PM10),52,54,80,10,29,23,,56,42,31,26,2,7,0.6,0.7
2025-01-12T1000,2667A,103.2069,35.5993,临夏回族自治州,环保局,细颗粒物(PM2.5),88,121,124,65,60,11,,7,6,29,33,14,12,2.1,1.7
2025-01-12T1000,2668A,103.2417,35.6057,临夏回族自治州,建设大厦,细颗粒物(PM2.5),64,76,91,46,46,23,,27,27,28,23,14,13,1.0,1
2025-01-12T1000,1618A,118.3429,35.0532,临沂市,沂河小区,细颗粒物(PM2.5),123,132,139,93,91,25,,12,12,62,69,28,27,1.1,1.2
2025-01-12T1000,1619A,118.295,35.0583,临沂市,鲁南制药厂,细颗粒物(PM2.5),150,185,167,115,101,14,,7,7,69,70,30,34,1.2,1.1
2025-01-12T1000,1620A,118.2794,34.9976,临沂市,新光毛纺厂,细颗粒物(PM2.5),178,190,139,134,93,4,,10,8,72,62,28,23,1.5,1.1
2025-01-12T1000,1621A,118.3956,35.0888,临沂市,河东保险公司,细颗粒物(PM2.5),129,153,138,98,87,16,,7,7,65,63,27,18,1.4,1.2
2025-01-12T1000,3370A,118.3564,35.0215,临沂市,十里堡居委,细颗粒物(PM2.5),128,134,141,97,93,22,,9,9,56,60,21,28,1.2,1.2
2025-01-12T1000,3496A,118.3604,35.1084,临沂市,南坊新区,细颗粒物(PM2.5),128,139,127,97,86,20,,8,8,66,68,24,17,1.1,0.9
2025-01-12T1000,3860A,118.3920,35.0300,临沂市,皇山花园小区,细颗粒物(PM2.5),172,224,141,130,86,12,,6,6,88,70,24,22,1.8,1.1
2025-01-12T1000,1870A,109.4856,24.3895,柳州市,柳东小学,细颗粒物(PM2.5),99,90,63,74,48,49,,65,56,30,19,29,16,0.9,0.7
2025-01-12T1000,1871A,109.4157,24.3277,柳州市,环保监测站,细颗粒物(PM2.5),103,126,92,77,60,38,,30,30,40,37,38,19,1.4,0.8
2025-01-12T1000,1872A,109.389,24.341,柳州市,河西水厂,细颗粒物(PM2.5),133,153,104,101,62,29,,15,15,50,44,94,25,1.5,1.1
2025-01-12T1000,1873A,109.4311,24.2921,柳州市,市四中,细颗粒物(PM2.5),120,125,85,91,70,32,,33,33,51,37,55,17,2.6,0.9
2025-01-12T1000,1874A,109.4006,24.3631,柳州市,市九中,细颗粒物(PM2.5),124,128,96,94,67,35,,14,14,39,39,31,15,1.2,0.9
2025-01-12T1000,1875A,109.4958,24.3134,柳州市,古亭山,细颗粒物(PM2.5),62,64,51,44,34,38,,10,10,39,48,28,22,0.9,0.7
2025-01-12T1000,3402A,109.5422,24.3996,柳州市,市二中,细颗粒物(PM2.5),122,104,60,92,51,38,,16,16,39,37,12,10,0.9,0.7
2025-01-12T1000,2307A,116.5079,31.737,六安市,监测大楼,"颗粒物(PM10),细颗粒物(PM2.5)",80,110,81,59,45,52,,60,56,32,32,8,7,0.7,0.6
2025-01-12T1000,2308A,116.4738,31.7643,六安市,皖西学院,颗粒物(PM10),82,114,78,52,42,52,,50,44,35,36,8,6,0.7,0.6
2025-01-12T1000,2309A,116.4996,31.7905,六安市,朝阳厂,细颗粒物(PM2.5),70,86,71,51,43,56,,56,51,26,32,4,4,0.5,0.5
2025-01-12T1000,2310A,116.5567,31.7886,六安市,开发区,颗粒物(PM10),92,133,100,55,52,57,,32,32,30,39,7,5,0.8,0.7
2025-01-12T1000,2576A,104.8,26.5892,六盘水市,窑上,,44,44,33,21,16,29,,37,32,11,7,9,8,0.8,0.7
2025-01-12T1000,2577A,104.83,26.5917,六盘水市,黄土坡,细颗粒物(PM2.5),95,103,43,71,28,16,,16,16,41,24,46,16,2.2,1.1
2025-01-12T1000,2578A,104.89,26.5939,六盘水市,水钢,细颗粒物(PM2.5),83,73,51,61,37,39,,15,15,20,29,70,26,1.2,1.2
2025-01-12T1000,2579A,104.8475,26.5894,六盘水市,民中,细颗粒物(PM2.5),92,97,44,68,32,16,,12,11,39,30,38,21,2.1,1.3
2025-01-12T1000,2580A,104.9544,26.5506,六盘水市,双水,颗粒物(PM10),52,53,36,24,24,36,,25,25,26,19,20,11,1.1,1
2025-01-12T1000,2335A,117.0189,25.1181,龙岩市,龙岩师专,,,,,,,,,,,,,,,,
2025-01-12T1000,2336A,117.0217,25.1033,龙岩市,龙岩市监测站,,49,49,33,22,23,58,,50,49,25,22,13,7,0.8,0.5
2025-01-12T1000,2337A,117.0258,25.0661,龙岩市,闽西职业技术学院,,46,46,42,19,23,56,,13,13,22,34,10,6,0.9,0.6
2025-01-12T1000,2338A,117.0196,25.0306,龙岩市,龙岩学院,颗粒物(PM10),51,51,32,21,23,41,,39,38,32,19,12,6,0.6,0.4
2025-01-12T1000,2665A,105.0822,33.3261,陇南市,汉王镇固水子,,,,,,,,,,,,,,,,
2025-01-12T1000,2885A,104.9339,33.3826,陇南市,滨江中学,细颗粒物(PM2.5),54,55,58,38,31,25,,22,22,28,33,161,80,0.7,1
2025-01-12T1000,3247A,104.955,33.371,陇南市,市总工会,颗粒物(PM10),62,74,46,36,24,20,,33,29,36,21,73,27,1.0,0.7
2025-01-12T1000,2487A,111.9589,27.8901,娄底市,电视发射台,细颗粒物(PM2.5),59,44,38,42,33,74,,62,62,16,15,18,8,0.8,0.7
2025-01-12T1000,2488A,111.9975,27.725,娄底市,市监测站,细颗粒物(PM2.5),107,108,83,80,58,16,,7,7,42,42,22,12,1.6,0.9
2025-01-12T1000,2489A,112.0194,27.7314,娄底市,市委党校,细颗粒物(PM2.5),100,107,78,75,51,20,,16,15,45,40,11,8,1.0,0.7
2025-01-12T1000,2490A,111.9561,27.7569,娄底市,涟钢,细颗粒物(PM2.5),117,118,86,88,56,18,,20,18,42,28,10,9,1.4,1.1
2025-01-12T1000,2491A,111.9892,27.7044,娄底市,市政府,细颗粒物(PM2.5),79,71,71,58,51,32,,20,20,23,25,8,7,1.1,1
2025-01-12T1000,1893A,105.4324,28.9634,泸州市,九狮山,,,,,,,,,,,,,,,,
2025-01-12T1000,1894A,105.4427,28.9063,泸州市,小市上码头,,49,40,38,34,32,6,,30,22,30,20,2,2,0.7,0.5
2025-01-12T1000,1895A,105.4241,28.8573,泸州市,兰田宪桥,,43,43,38,29,31,12,,16,12,28,23,2,2,0.7,0.7
2025-01-12T1000,1896A,105.4379,28.8833,泸州市,市环监站,,35,35,36,22,28,7,,16,12,27,27,4,4,0.6,0.5
2025-01-12T1000,3490A,105.3617,28.7703,泸州市,纳溪区环保局,,,47,41,42,32,8,,5,5,,23,4,4,0.6,0.6
2025-01-12T1000,2183A,111.1406,37.5211,吕梁市,环保局,颗粒物(PM10),52,53,67,12,23,27,,25,24,19,20,2,3,0.5,0.4
2025-01-12T1000,2185A,111.1297,37.5136,吕梁市,自来水公司,,48,48,72,30,25,28,,22,19,20,24,16,8,0.5,0.4
2025-01-12T1000,2867A,111.1283,37.51,吕梁市,马茂庄小学,颗粒物(PM10),57,63,78,20,22,25,,22,15,25,25,5,5,0.6,0.5
2025-01-12T1000,1812A,112.3931,34.6516,洛阳市,市委党校,颗粒物(PM10),68,86,89,24,24,46,,52,50,22,21,10,5,0.6,0.5
2025-01-12T1000,1814A,112.4657,34.6871,洛阳市,豫西宾馆,颗粒物(PM10),78,105,101,33,29,43,,52,45,28,22,11,6,1.0,0.8
2025-01-12T1000,1815A,112.494,34.6886,洛阳市,河南林校,颗粒物(PM10),66,81,89,33,32,32,,49,42,33,16,11,4,0.8,0.5
2025-01-12T1000,1816A,112.3844,34.623,洛阳市,开发区管委会,颗粒物(PM10),57,63,84,20,31,46,,42,41,15,15,5,5,0.5,0.5
2025-01-12T1000,1817A,112.4267,34.6258,洛阳市,市委新办公区,颗粒物(PM10),57,63,90,26,33,53,,46,46,14,18,4,4,0.3,0.3
2025-01-12T1000,3340A,112.6005,34.6326,洛阳市,伊滨,颗粒物(PM10),68,85,85,20,23,43,,52,45,26,19,6,3,0.6,0.5
2025-01-12T1000,3341A,112.4951,34.6332,洛阳市,中移产业园,颗粒物(PM10),58,66,83,19,22,45,,56,51,22,17,7,3,0.5,0.5
2025-01-12T1000,3593A,112.5736,34.8993,洛阳市,吉利监测站,颗粒物(PM10),64,78,93,26,27,33,,45,37,35,22,6,5,0.5,0.4
2025-01-12T1000,3635A,112.3677,34.662,洛阳市,河科大西苑校区,颗粒物(PM10),70,90,99,32,28,47,,55,50,18,16,10,3,0.7,0.6
2025-01-12T1000,3636A,112.4388,34.6781,洛阳市,英才小学,颗粒物(PM10),68,86,91,32,30,40,,52,46,35,27,21,6,0.8,0.6
2025-01-12T1000,2399A,114.051,33.5699,漯河市,三五一五工厂,颗粒物(PM10),66,81,88,21,34,57,,53,53,18,18,8,8,0.6,0.6
2025-01-12T1000,2400A,114.0055,33.5698,漯河市,漯河大学,颗粒物(PM10),71,92,90,22,33,55,,50,50,24,23,7,6,0.3,0.4
2025-01-12T1000,2401A,114.0138,33.5828,漯河市,市水利局,颗粒物(PM10),68,85,89,22,34,55,,46,46,20,20,8,8,0.5,0.5
2025-01-12T1000,2402A,114.0261,33.5698,漯河市,市广电局,颗粒物(PM10),68,85,86,24,31,58,,51,51,16,15,7,7,0.3,0.4
2025-01-12T1000,3478A,113.9749,33.5664,漯河市,市图书馆,颗粒物(PM10),72,94,92,31,36,54,,46,46,25,26,8,7,0.2,0.3
2025-01-12T1000,3479A,114.0967,33.5906,漯河市,召陵区卫健委,颗粒物(PM10),68,86,88,34,37,44,,41,40,30,29,8,8,0.4,0.4
2025-01-12T1000,1798A,118.5092,31.6837,马鞍山市,湖东路四小,颗粒物(PM10),77,104,86,45,46,51,,28,28,40,46,11,8,1.3,0.8
2025-01-12T1000,1799A,118.5024,31.6449,马鞍山市,开发区,细颗粒物(PM2.5),85,109,91,63,58,38,,16,16,43,53,11,10,0.9,0.9
2025-01-12T1000,1802A,118.6245,31.7241,马鞍山市,濮塘,颗粒物(PM10),74,98,85,50,58,56,,34,34,36,44,15,14,0.6,0.6
2025-01-12T1000,3633A,118.4918,31.6809,马鞍山市,雨山,细颗粒物(PM2.5),77,100,88,56,58,50,,20,20,34,48,12,10,1.0,0.9
2025-01-12T1000,4191A,118.5274,31.72227,马鞍山市,慈湖高新区,颗粒物(PM10),62,73,66,38,52,49,,22,21,36,47,16,14,1.2,0.7
2025-01-12T1000,1686A,111.0286,21.4688,茂名市,电白南海,颗粒物(PM10),59,68,63,31,31,78,,72,68,18,18,11,11,0.7,0.6
2025-01-12T1000,1687A,110.9294,21.6533,茂名市,茂石化七小,颗粒物(PM10),56,61,56,24,25,77,,82,80,19,14,17,11,0.8,0.7
2025-01-12T1000,1688A,110.9107,21.6687,茂名市,健康路,颗粒物(PM10),57,63,53,34,33,79,,84,82,23,17,22,14,0.6,0.6
2025-01-12T1000,1689A,110.8592,21.6828,茂名市,高岭,颗粒物(PM10),62,73,76,41,37,72,,64,64,25,21,28,28,0.7,0.9
2025-01-12T1000,3450A,111.01,21.5165,茂名市,电白水东,颗粒物(PM10),60,70,58,34,32,80,,79,76,19,15,13,21,0.6,0.6
2025-01-12T1000,2539A,104.0308,30.0478,眉山市,黑龙滩水库,,43,39,41,30,34,20,,35,27,3,5,2,3,0.8,0.7
2025-01-12T1000,2540A,103.8416,30.0874,眉山市,气象局,细颗粒物(PM2.5),77,89,82,56,53,6,,5,5,33,33,5,5,0.7,0.7
2025-01-12T1000,3137A,103.8578,30.0744,眉山市,市委党校,细颗粒物(PM2.5),70,63,57,51,39,8,,4,4,40,38,5,4,0.6,0.6
2025-01-12T1000,3148A,103.8291,30.0564,眉山市,区人社局,细颗粒物(PM2.5),79,,56,58,50,4,,4,4,38,39,10,6,1.3,0.9
2025-01-12T1000,1690A,116.1231,24.3284,梅州市,梅江月梅,颗粒物(PM10),51,52,37,21,23,38,,26,23,29,24,11,10,0.5,0.4
2025-01-12T1000,1691A,116.0797,24.2719,梅州市,梅县新城,,50,50,36,17,25,37,,27,27,31,24,6,6,0.6,0.4
2025-01-12T1000,1692A,116.1248,24.2654,梅州市,环境监控中心,颗粒物(PM10),55,59,37,27,26,48,,24,24,32,28,8,8,0.6,0.5
2025-01-12T1000,3315A,116.1233,24.2991,梅州市,梅龙,,36,36,40,24,26,42,,28,28,24,23,8,8,0.6,0.6
2025-01-12T1000,1878A,104.7778,31.4741,绵阳市,富乐山,颗粒物(PM10),53,55,46,36,31,32,,37,30,31,22,2,2,0.7,0.7
2025-01-12T1000,1879A,104.7563,31.4535,绵阳市,市人大,,,,79,,42,,,,,,8,,5,,1.2
2025-01-12T1000,1880A,104.6697,31.4668,绵阳市,高新区自来水公司,颗粒物(PM10),81,112,69,51,39,3,,2,2,36,38,8,5,1.2,0.7
2025-01-12T1000,1881A,104.7287,31.5075,绵阳市,三水厂,颗粒物(PM10),79,107,76,49,43,6,,3,3,41,42,7,5,1.3,0.9
2025-01-12T1000,3491A,104.69,31.5322,绵阳市,西科大附属小学,颗粒物(PM10),75,100,65,54,40,11,,8,8,33,37,7,6,1.1,0.9
2025-01-12T1000,3492A,104.5648,31.5343,绵阳市,安州区旅游局,细颗粒物(PM2.5),70,65,62,51,45,31,,25,25,27,32,4,6,0.7,0.7
2025-01-12T1000,1784A,129.61,44.561,牡丹江市,环保大楼,细颗粒物(PM2.5),69,67,70,50,50,35,,21,21,30,41,20,15,0.8,0.8
2025-01-12T1000,1785A,129.6115,44.5782,牡丹江市,文化广场,细颗粒物(PM2.5),90,71,77,67,60,35,,20,20,34,44,20,13,1.1,1.2
2025-01-12T1000,1786A,129.5904,44.5963,牡丹江市,第一医院,细颗粒物(PM2.5),97,101,92,72,81,30,,17,17,34,44,19,11,0.8,0.9
2025-01-12T1000,1787A,129.6364,44.6075,牡丹江市,机车工厂,颗粒物(PM10),62,74,106,43,71,27,,14,14,38,44,19,12,1.1,1.2
2025-01-12T1000,1788A,129.6386,44.5462,牡丹江市,第一中学,,50,50,55,21,40,39,,24,24,23,32,13,11,0.7,0.7
2025-01-12T1000,2531A,105.0703,29.61,内江市,市监测站,细颗粒物(PM2.5),55,,34,39,39,11,,15,12,21,23,6,5,0.9,0.7
2025-01-12T1000,2532A,105.0717,29.5947,内江市,东兴区政府,细颗粒物(PM2.5),53,,34,37,33,19,,24,19,27,20,4,3,1.0,0.8
2025-01-12T1000,2533A,105.0653,29.5817,内江市,内江二中,,50,35,45,35,34,10,,22,13,26,20,9,8,1.0,0.7
2025-01-12T1000,2534A,105.0406,29.5822,内江市,内江日报社,,42,32,42,29,32,8,,10,7,25,28,8,8,0.9,0.8
2025-01-12T1000,2628A,92.0657,31.4846,那曲市,那曲监测站,细颗粒物(PM2.5),52,46,45,36,40,28,,36,35,22,23,10,10,1.0,1.3
2025-01-12T1000,3128A,92.0506,31.4797,那曲市,那曲会议中心,细颗粒物(PM2.5),69,78,35,50,23,22,,37,35,26,13,9,5,1.2,0.9
2025-01-12T1000,1290A,115.8931,28.6843,南昌市,省外办,细颗粒物(PM2.5),79,72,78,58,55,57,,45,45,35,44,14,11,0.6,0.7
2025-01-12T1000,1291A,115.8886,28.7003,南昌市,省林业公司,,,80,77,58,49,,,43,43,,49,,13,,0.8
2025-01-12T1000,1292A,115.8126,28.7442,南昌市,林科所,细颗粒物(PM2.5),83,92,83,61,53,47,,20,20,48,61,20,15,0.6,0.6
2025-01-12T1000,1294A,115.8518,28.687,南昌市,建工学校,细颗粒物(PM2.5),85,94,78,63,48,52,,38,38,36,45,24,17,0.9,0.8
2025-01-12T1000,1295A,115.8921,28.6424,南昌市,象湖,细颗粒物(PM2.5),64,64,66,46,50,59,,37,37,32,47,14,12,0.6,0.6
2025-01-12T1000,1296A,115.7423,28.7996,南昌市,武术学校,,49,,32,34,27,23,,25,23,19,15,3,2,0.7,0.7
2025-01-12T1000,1298A,115.9314,28.6842,南昌市,省站,颗粒物(PM10),75,99,84,48,49,54,,39,39,26,32,14,13,0.7,0.6
2025-01-12T1000,3046A,115.9084,28.6062,南昌市,机电学校,细颗粒物(PM2.5),70,78,83,51,52,55,,35,35,24,35,20,17,0.6,0.6
2025-01-12T1000,3690A,115.9721,28.7031,南昌市,外国语学校,细颗粒物(PM2.5),68,83,81,49,43,54,,46,44,30,35,13,11,0.6,0.5
2025-01-12T1000,1905A,106.056,30.8064,南充市,西山风景区,细颗粒物(PM2.5),65,52,48,47,41,31,,33,33,11,22,1,2,0.5,0.6
2025-01-12T1000,1906A,106.0789,30.8023,南充市,南充市委,细颗粒物(PM2.5),70,67,65,51,47,8,,4,4,29,32,3,3,0.7,0.6
2025-01-12T1000,1907A,106.1031,30.8217,南充市,南充炼油厂,细颗粒物(PM2.5),77,76,68,56,50,16,,7,7,22,35,3,4,0.6,0.5
2025-01-12T1000,1908A,106.1064,30.7856,南充市,高坪区监测站,,,70,73,54,53,11,,6,6,,38,,3,,0.6
2025-01-12T1000,1909A,106.0642,30.7636,南充市,嘉陵区环保局,细颗粒物(PM2.5),77,73,69,56,48,14,,5,5,28,36,5,4,0.6,0.6
2025-01-12T1000,1910A,106.1087,30.8388,南充市,市环境监测站,细颗粒物(PM2.5),68,74,69,49,47,17,,10,10,17,32,5,6,0.5,0.5
2025-01-12T1000,1151A,118.8086,32.1065,南京市,迈皋桥,颗粒物(PM10),56,62,68,27,44,62,,43,43,25,49,8,13,0.3,0.5
2025-01-12T1000,1152A,118.7538,32.0551,南京市,草场门,颗粒物(PM10),58,66,74,22,45,60,,42,42,23,47,8,11,0.3,0.4
2025-01-12T1000,1153A,118.7794,32.0745,南京市,山西路,颗粒物(PM10),65,80,83,27,46,67,,59,59,32,51,5,8,0.3,0.4
2025-01-12T1000,1154A,118.7752,32.0023,南京市,中华门,颗粒物(PM10),62,73,75,39,47,43,,27,27,37,56,7,14,0.6,1
2025-01-12T1000,1155A,118.8109,32.0309,南京市,瑞金路,颗粒物(PM10),64,78,80,27,47,53,,31,31,30,56,5,7,0.7,1
2025-01-12T1000,1156A,118.7997,32.0754,南京市,玄武湖,颗粒物(PM10),64,77,76,26,41,57,,44,44,18,25,9,10,0.6,0.8
2025-01-12T1000,1157A,118.6414,32.0931,南京市,浦口,颗粒物(PM10),60,70,70,23,37,64,,62,62,10,22,9,9,0.5,0.5
2025-01-12T1000,1158A,118.7356,31.9996,南京市,奥体中心,颗粒物(PM10),64,77,83,41,49,52,,33,33,41,57,11,14,0.5,0.7
2025-01-12T1000,1159A,118.9125,32.1028,南京市,仙林大学城,颗粒物(PM10),67,83,80,29,44,53,,38,38,27,48,12,9,0.9,0.7
2025-01-12T1000,3422A,118.8436,31.9198,南京市,江宁彩虹桥,颗粒物(PM10),73,96,86,41,47,51,,31,31,36,51,12,11,0.6,0.6
2025-01-12T1000,3423A,119.0138,31.6494,南京市,溧水永阳,细颗粒物(PM2.5),88,73,71,65,59,38,,35,33,29,22,4,5,0.7,0.6
2025-01-12T1000,3424A,118.879,31.3302,南京市,高淳老职中,细颗粒物(PM2.5),83,,60,61,52,50,,45,43,34,31,7,8,0.7,0.6
2025-01-12T1000,3427A,118.8554,32.3578,南京市,六合雄州,颗粒物(PM10),51,52,63,26,37,49,,41,41,18,16,5,6,0.7,0.8
2025-01-12T1000,1401A,108.3103,22.7881,南宁市,二十一中,细颗粒物(PM2.5),79,80,55,58,42,20,,13,7,61,43,18,6,1.0,0.8
2025-01-12T1000,1402A,108.3141,22.8528,南宁市,北湖,细颗粒物(PM2.5),59,54,56,42,35,34,,13,11,44,42,9,9,0.9,0.8
2025-01-12T1000,1403A,108.3206,22.8225,南宁市,市监测站,颗粒物(PM10),64,78,55,44,37,25,,20,14,57,44,14,12,0.9,0.8
2025-01-12T1000,1404A,108.3829,22.8037,南宁市,大自然花园,细颗粒物(PM2.5),65,72,43,47,32,19,,31,24,56,31,10,8,1.2,0.9
2025-01-12T1000,1405A,108.4394,22.7904,南宁市,仙葫,细颗粒物(PM2.5),73,69,51,53,34,17,,14,14,52,34,10,8,0.9,0.7
2025-01-12T1000,1406A,108.2397,22.8467,南宁市,区农职院,颗粒物(PM10),78,105,51,55,32,17,,32,22,46,22,26,8,1.1,0.7
2025-01-12T1000,1407A,108.3275,22.735,南宁市,英华嘉园,细颗粒物(PM2.5),73,81,59,53,40,35,,13,13,34,37,32,11,0.9,0.8
2025-01-12T1000,1408A,108.2257,22.7757,南宁市,沙井镇街道办,,,,,,,,,,,,,,,,
2025-01-12T1000,3401A,108.4834,22.7618,南宁市,红星社区,细颗粒物(PM2.5),77,73,44,56,35,15,,26,18,49,33,12,12,1.0,0.7
2025-01-12T1000,2331A,118.0966,26.6761,南平市,茫荡山,,,,,,,,,,,,,,,,
2025-01-12T1000,2332A,118.1681,26.6369,南平市,南平市监测站,,45,45,28,20,19,29,,11,11,26,33,6,4,0.6,0.4
2025-01-12T1000,2333A,118.1825,26.6489,南平市,南平铝业有限公司,,34,34,25,21,16,40,,13,13,22,31,8,6,0.5,0.4
2025-01-12T1000,2334A,118.1756,26.6272,南平市,南平七中,颗粒物(PM10),53,55,25,29,20,31,,14,14,23,22,4,3,0.8,0.5
2025-01-12T1000,1168A,120.9098,31.9663,南通市,狼山街道,细颗粒物(PM2.5),97,99,74,72,52,21,,8,8,66,62,12,9,1.4,1.1
2025-01-12T1000,1169A,120.86,32.0005,南通市,虹桥,细颗粒物(PM2.5),103,98,73,77,53,19,,6,6,61,57,17,11,1.6,1
2025-01-12T1000,1170A,120.87,32.02,南通市,城中,细颗粒物(PM2.5),92,121,92,68,52,21,,8,8,72,66,20,13,2.0,1.3
2025-01-12T1000,1171A,120.94,31.93,南通市,星湖花园,细颗粒物(PM2.5),90,102,80,67,53,26,,9,9,59,67,14,11,1.1,0.9
2025-01-12T1000,1172A,120.81,32.0417,南通市,紫琅学院,细颗粒物(PM2.5),89,114,78,66,50,25,,7,7,67,65,15,9,1.3,1
2025-01-12T1000,3291A,121.067,32.062,南通市,通州监测站,细颗粒物(PM2.5),100,114,80,75,52,19,,9,9,74,67,15,7,1.5,0.9
2025-01-12T1000,3432A,120.9348,31.9883,南通市,环境教育馆,细颗粒物(PM2.5),90,124,78,67,48,22,,10,10,68,67,8,6,1.3,1
2025-01-12T1000,2404A,112.5224,33.0122,南阳市,瓦房庄,颗粒物(PM10),84,118,93,44,46,25,,54,42,44,26,9,8,0.7,0.5
2025-01-12T1000,2405A,112.5003,32.9735,南阳市,汉画馆,颗粒物(PM10),82,114,90,43,45,33,,40,31,40,30,7,7,0.6,0.6
2025-01-12T1000,2406A,112.5573,33.027,南阳市,气象站,颗粒物(PM10),83,116,104,24,34,56,,57,51,22,23,6,6,0.5,0.5
2025-01-12T1000,2407A,112.5481,32.9689,南阳市,理工学院,颗粒物(PM10),78,105,86,44,44,34,,46,38,40,28,11,7,0.7,0.6
2025-01-12T1000,4008A,112.5234,32.9922,南阳市,卧龙区政府,颗粒物(PM10),81,111,94,38,41,42,,47,38,28,27,7,6,0.6,0.6
2025-01-12T1000,1234A,121.8358,29.911,宁波市,区环保大楼,颗粒物(PM10),53,55,72,33,48,46,,12,12,34,57,10,10,0.7,0.7
2025-01-12T1000,1235A,121.56,29.82,宁波市,万里学院,细颗粒物(PM2.5),55,55,88,39,57,39,,8,8,40,54,10,6,0.8,0.7
2025-01-12T1000,1236A,121.713,29.9572,宁波市,龙赛医院,细颗粒物(PM2.5),75,94,96,55,51,17,,9,9,59,61,12,11,0.8,0.7
2025-01-12T1000,1239A,121.633,29.7733,宁波市,钱湖水厂,细颗粒物(PM2.5),77,76,75,56,48,26,,24,24,34,41,6,6,0.7,0.6
2025-01-12T1000,1240A,121.5856,29.8635,宁波市,太古小学,颗粒物(PM10),58,66,89,40,57,33,,7,7,44,61,14,10,0.9,0.8
2025-01-12T1000,1241A,121.524,29.8674,宁波市,市环境监测中心,颗粒物(PM10),58,66,78,40,51,17,,3,3,57,50,11,8,0.7,0.7
2025-01-12T1000,2871A,121.6147,29.9017,宁波市,万里国际学校,细颗粒物(PM2.5),59,59,73,42,53,27,,8,8,48,59,11,9,0.8,0.7
2025-01-12T1000,3710A,121.5594,29.8975,宁波市,白沙活动中心,颗粒物(PM10),53,56,71,34,50,30,,9,9,46,57,12,10,0.7,0.8
2025-01-12T1000,2339A,119.5001,26.6946,宁德市,金涵水库,,,,,,,,,,,,,,,,
2025-01-12T1000,2341A,119.5388,26.6612,宁德市,宁德市监测站,,39,39,27,17,20,50,,47,46,10,8,3,3,0.6,0.5
2025-01-12T1000,3209A,119.5231,26.6562,宁德市,宁德一中,,23,22,27,16,19,61,,50,50,13,11,2,2,0.5,0.4
2025-01-12T1000,2618A,98.8601,25.8567,怒江傈僳族自治州,州监测站,,31,31,32,20,18,38,,43,41,14,10,3,3,0.5,0.5
2025-01-12T1000,2619A,98.8546,25.8417,怒江傈僳族自治州,泸水一中,,38,28,32,26,21,7,,17,14,23,18,7,7,0.5,0.5
2025-01-12T1000,1888A,101.6891,26.571,攀枝花市,弄弄坪,颗粒物(PM10),68,86,38,37,19,14,,18,13,36,23,83,17,1.1,0.7
2025-01-12T1000,1889A,101.5769,26.5928,攀枝花市,河门口,,40,40,29,22,14,12,,23,19,29,22,10,12,1.1,1
2025-01-12T1000,1890A,101.7169,26.585,攀枝花市,炳草岗,颗粒物(PM10),62,74,44,35,20,12,,13,12,36,28,50,18,1.0,0.6
2025-01-12T1000,1891A,101.7369,26.5008,攀枝花市,仁和,,34,34,23,21,15,13,,17,13,22,17,6,6,0.7,0.6
2025-01-12T1000,2835A,101.7227,26.567,攀枝花市,四十中小,颗粒物(PM10),61,71,36,41,19,26,,18,18,34,29,99,27,1.3,0.8
2025-01-12T1000,1604A,122.0303,41.1489,盘锦市,开发区,细颗粒物(PM2.5),178,199,134,134,109,14,,10,10,56,56,19,20,1.6,1.6
2025-01-12T1000,1605A,122.0485,41.0883,盘锦市,兴隆台,细颗粒物(PM2.5),289,382,147,239,126,11,,9,9,86,58,21,25,3.8,2.1
2025-01-12T1000,1606A,121.8297,41.1028,盘锦市,新生街道,细颗粒物(PM2.5),132,106,101,100,83,14,,12,12,59,62,16,15,1.6,1.3
2025-01-12T1000,1832A,113.3257,33.742,平顶山市,新华旅馆,颗粒物(PM10),65,80,96,27,37,68,,65,64,10,20,11,8,0.5,0.5
2025-01-12T1000,1833A,113.2919,33.737,平顶山市,规划设计院,颗粒物(PM10),61,72,102,21,41,70,,59,58,12,24,8,7,0.2,0.3
2025-01-12T1000,1834A,113.182,33.774,平顶山市,平顶山工学院,颗粒物(PM10),59,68,94,22,31,66,,61,61,10,16,8,5,0.7,0.7
2025-01-12T1000,3204A,113.3025,33.73,平顶山市,规划局,颗粒物(PM10),62,73,94,26,42,65,,57,56,7,22,9,7,0.4,0.5
2025-01-12T1000,3594A,112.8867,33.9116,平顶山市,石龙区,颗粒物(PM10),73,96,101,31,30,61,,54,51,2,9,8,7,0.7,0.7
2025-01-12T1000,2656A,106.6692,35.5461,平凉市,聚贤嘉苑,颗粒物(PM10),73,96,105,30,22,24,,15,15,52,37,34,13,0.9,0.6
2025-01-12T1000,2657A,106.7021,35.5307,平凉市,博物馆,颗粒物(PM10),82,114,118,44,28,29,,22,22,51,33,29,18,1.3,0.9
2025-01-12T1000,2347A,114.0997,27.5002,萍乡市,武功山,细颗粒物(PM2.5),63,58,38,45,32,56,,46,44,11,13,13,10,0.7,0.7
2025-01-12T1000,2348A,113.8385,27.6434,萍乡市,中医院,细颗粒物(PM2.5),93,127,78,69,49,39,,26,26,44,31,29,10,2.1,1.1
2025-01-12T1000,2349A,113.8493,27.6253,萍乡市,市政府车库,细颗粒物(PM2.5),90,89,68,67,59,34,,30,29,38,29,15,11,1.5,1.1
2025-01-12T1000,2350A,113.8676,27.6435,萍乡市,市环保局,细颗粒物(PM2.5),115,108,77,87,57,26,,35,31,53,29,20,11,2.0,1
2025-01-12T1000,2351A,113.866,27.6198,萍乡市,安源区政府,细颗粒物(PM2.5),79,98,76,58,54,35,,31,30,29,21,17,9,1.2,0.9
2025-01-12T1000,2319A,119.0141,25.4325,莆田市,荔城区仓后路,颗粒物(PM10),59,67,41,38,23,37,,25,25,31,26,4,3,0.9,0.7
2025-01-12T1000,2320A,119.0015,25.4553,莆田市,莆田市监测站,颗粒物(PM10),52,53,35,23,12,37,,45,44,32,19,4,3,0.7,0.4
2025-01-12T1000,2321A,119.1119,25.4561,莆田市,涵江区六中,颗粒物(PM10),55,59,51,29,29,30,,8,8,47,38,2,2,0.3,0.4
2025-01-12T1000,2322A,119.1013,25.3215,莆田市,秀屿区政府,,46,35,33,32,20,59,,41,40,27,23,4,3,0.4,0.3
2025-01-12T1000,2323A,118.981,25.4792,莆田市,东圳水库,,,,,,,,,,,,,,,,
2025-01-12T1000,2392A,115.0312,35.7636,濮阳市,环保局,,50,50,68,26,34,43,,31,31,22,31,6,6,0.6,0.6
2025-01-12T1000,2394A,115.0574,35.7609,濮阳市,油田运输公司,,,65,78,27,35,,,26,26,22,35,4,5,0.6,0.7
2025-01-12T1000,2395A,115.0866,35.7754,濮阳市,油田物探公司,颗粒物(PM10),64,78,98,33,42,40,,29,29,28,30,6,7,0.7,0.7
2025-01-12T1000,3021A,115,35.7668,濮阳市,濮水河管理处,颗粒物(PM10),62,74,80,31,34,30,,17,16,39,36,7,7,0.7,0.7
2025-01-12T1000,2601A,100.98,22.7633,普洱市,市环保局,,42,42,46,6,15,30,,43,37,12,7,4,4,0.7,0.7
2025-01-12T1000,2602A,100.9817,22.8322,普洱市,普洱第二中学,,39,39,39,20,23,31,,41,38,9,7,4,4,0.7,0.7
2025-01-12T1000,2262A,131.0518,45.8751,七台河市,新一中,细颗粒物(PM2.5),57,59,73,40,58,71,,62,62,14,21,10,11,2.1,2.1
2025-01-12T1000,3345A,131.0577,45.7879,七台河市,中波台,细颗粒物(PM2.5),124,150,102,94,80,30,,16,16,46,57,15,18,1.7,1.3
2025-01-12T1000,3637A,131.0176,45.7761,七台河市,人民广场,细颗粒物(PM2.5),163,177,124,124,89,21,,14,14,57,59,7,8,2.3,1.4
2025-01-12T1000,3684A,130.8781,45.8222,七台河市,新建矿广场,细颗粒物(PM2.5),165,246,81,125,66,17,,34,27,67,44,13,10,1.4,0.7
2025-01-12T1000,1779A,123.9305,47.3636,齐齐哈尔市,安居小区,细颗粒物(PM2.5),242,206,102,192,82,10,,20,13,60,48,12,16,2.1,1
2025-01-12T1000,1780A,123.9488,47.3386,齐齐哈尔市,中心广场,细颗粒物(PM2.5),190,185,88,143,68,9,,20,15,71,45,8,6,2.5,1.1
2025-01-12T1000,1781A,123.9483,47.3227,齐齐哈尔市,农牧车辆厂,细颗粒物(PM2.5),173,,48,131,59,9,,15,10,64,47,13,9,1.8,1
2025-01-12T1000,1783A,123.945,47.2988,齐齐哈尔市,市环境监测站,细颗粒物(PM2.5),169,187,112,128,82,11,,10,10,57,53,4,5,1.9,1.1
2025-01-12T1000,3662A,123.6333,47.2075,齐齐哈尔市,富区青少年活动中心,细颗粒物(PM2.5),207,252,104,157,59,28,,19,18,43,34,26,14,2.0,1.2
2025-01-12T1000,2591A,107.9783,26.5747,黔东南苗族侗族自治州,市环境监测站,细颗粒物(PM2.5),63,59,48,45,37,18,,28,23,27,27,6,5,0.7,0.5
2025-01-12T1000,2881A,107.8908,26.5311,黔东南苗族侗族自治州,凯里学院,细颗粒物(PM2.5),55,46,41,39,33,17,,7,5,16,20,4,4,0.6,0.5
2025-01-12T1000,2593A,107.5228,26.2403,黔南布依族苗族自治州,小围寨,,39,34,38,27,31,15,,18,13,22,23,6,10,0.8,0.7
2025-01-12T1000,3538A,107.5175,26.2978,黔南布依族苗族自治州,沙坝,,42,41,43,29,31,18,,18,15,17,17,5,9,0.5,0.5
2025-01-12T1000,2589A,104.9022,25.0925,黔西南布依族苗族自治州,场坝街,细颗粒物(PM2.5),84,80,56,62,42,12,,12,10,26,25,94,36,0.8,0.6
2025-01-12T1000,2590A,104.8811,25.0992,黔西南布依族苗族自治州,坪东大道,"颗粒物(PM10),细颗粒物(PM2.5)",57,64,42,40,36,18,,12,11,20,23,9,6,0.7,0.6
2025-01-12T1000,2502A,108.6236,21.9667,钦州市,市环保站,颗粒物(PM10),82,114,78,46,35,44,,59,51,46,27,14,12,1.0,0.9
2025-01-12T1000,2503A,108.6549,21.9481,钦州市,沙埠小学,细颗粒物(PM2.5),79,75,74,58,36,60,,55,54,32,27,15,10,0.9,0.7
2025-01-12T1000,2504A,108.5989,21.7431,钦州市,港区一小,细颗粒物(PM2.5),69,80,87,50,36,51,,48,48,45,34,14,11,0.8,0.7
2025-01-12T1000,3404A,108.5959,21.9633,钦州市,北职校,细颗粒物(PM2.5),68,68,48,49,37,66,,70,65,21,19,12,9,0.8,0.7
2025-01-12T1000,1042A,119.5134,39.8207,秦皇岛市,北戴河环保局,颗粒物(PM10),54,57,43,34,25,18,,9,9,47,41,3,2,0.7,0.8
2025-01-12T1000,1043A,119.7493,40.0116,秦皇岛市,第一关,颗粒物(PM10),74,97,45,41,34,9,,4,4,69,59,12,9,0.8,0.6
2025-01-12T1000,1044A,119.5897,39.9499,秦皇岛市,监测站,颗粒物(PM10),55,59,53,32,30,15,,5,4,74,64,8,8,0.9,0.7
2025-01-12T1000,1046A,119.5251,39.9041,秦皇岛市,建设大厦,细颗粒物(PM2.5),65,73,56,47,38,11,,7,7,58,45,6,6,1.1,0.7
2025-01-12T1000,3132A,119.610547,39.943889,秦皇岛市,文明里,颗粒物(PM10),92,133,108,22,31,20,,6,6,46,43,8,8,0.8,0.7
2025-01-12T1000,1307A,120.6659,36.2403,青岛市,仰口,,42,38,50,29,38,66,,53,53,11,27,5,7,0.6,0.6
2025-01-12T1000,1310A,120.4134,36.0658,青岛市,市南区东部子站,细颗粒物(PM2.5),85,105,94,63,55,32,,14,14,57,52,20,19,1.3,1.1
2025-01-12T1000,1311A,120.3664,36.1032,青岛市,四方区子站,细颗粒物(PM2.5),107,107,88,80,63,29,,13,13,64,63,22,21,1.5,1.3
2025-01-12T1000,1312A,120.2994,36.054,青岛市,市南区西部子站,细颗粒物(PM2.5),102,114,86,76,52,25,,13,13,62,56,19,17,1.6,1.3
2025-01-12T1000,1313A,120.4581,36.0858,青岛市,崂山区子站,细颗粒物(PM2.5),73,88,77,53,50,39,,20,20,46,48,17,17,1.4,1.2
