timepoint,stationcode,longitude,latitude,area,positionname,primarypollutant,aqi,pm10,pm10_24h,pm2_5,pm2_5_24h,o3,o3_24h,o3_8h,o3_8h_24h,no2,no2_24h,so2,so2_24h,co,co_24h
2025-07-31T2200,2566A,102.1879,31.914,阿坝藏族羌族自治州,州农科所,,28,28,14,8,10,50,,84,78,6,5,14,13,0.9,1
2025-07-31T2200,2568A,102.2502,31.8896,阿坝藏族羌族自治州,马师校,,33,27,14,23,15,27,,89,77,30,9,7,7,0.6,0.6
2025-07-31T2200,3994A,102.2165,31.9024,阿坝藏族羌族自治州,马尔康中学西区,,,,13,,13,56,,105,99,7,4,7,7,0.7,0.7
2025-07-31T2200,2695A,80.292,41.1694,阿克苏地区,电视台,,46,46,32,23,15,88,,110,108,12,9,3,3,0.7,0.7
2025-07-31T2200,2696A,80.2613,41.1551,阿克苏地区,艺术中心,,40,39,27,28,17,96,,119,118,5,4,3,3,0.5,0.5
2025-07-31T2200,2204A,105.6467,38.8363,阿拉善盟,西城区西花园,,36,15,40,8,15,114,,139,132,11,9,8,9,0.6,0.5
2025-07-31T2200,2205A,105.6985,38.8411,阿拉善盟,蒙二幼,,31,16,66,9,23,98,,121,110,2,9,9,9,0.5,0.5
2025-07-31T2200,2206A,105.724,38.8516,阿拉善盟,环保局新楼,,28,17,51,8,22,89,,117,105,9,6,9,9,0.5,0.5
2025-07-31T2200,2708A,88.1264,47.8517,阿勒泰地区,市站,,30,30,34,15,9,67,,113,107,43,16,2,2,0.4,0.5
2025-07-31T2200,2630A,80.1161,32.5,阿里地区,阿里监测站,,21,,3,3,1,67,,87,72,8,5,9,6,0.1,0.1
2025-07-31T2200,3192A,80.0903,32.5028,阿里地区,阿里藏医院,,25,7,4,3,1,78,,90,78,1,2,7,7,0.1,0.1
2025-07-31T2200,2642A,109.0318,32.6537,安康市,香溪洞,,38,21,22,11,11,120,,128,125,5,4,8,7,0.4,0.4
2025-07-31T2200,2644A,109.0072,32.6975,安康市,汉滨区检察院,,35,30,24,11,13,110,,127,121,6,7,5,8,0.5,0.4
2025-07-31T2200,4054A,109.0325,32.6913,安康市,市邮政管理局,,31,25,26,15,14,99,,123,115,9,7,4,4,0.5,0.5
2025-07-31T2200,2291A,117.0809,30.5177,安庆市,环科院,,17,17,16,6,8,22,,40,35,18,10,4,4,0.4,0.4
2025-07-31T2200,2292A,117.0331,30.5119,安庆市,马山宾馆,,19,19,18,13,12,14,,40,33,26,8,3,3,0.2,0.2
2025-07-31T2200,2294A,116.9896,30.6145,安庆市,安庆大学,,19,17,14,13,11,29,,35,31,15,10,5,4,0.2,0.3
2025-07-31T2200,3173A,117.0598,30.5351,安庆市,市人大,,19,17,15,13,10,28,,42,39,19,11,4,4,0.3,0.3
2025-07-31T2200,3122A,105.9606,26.2611,安顺市,伍家关,,15,14,17,10,9,47,,113,99,18,10,3,3,0.7,0.5
2025-07-31T2200,3123A,105.9408,26.2431,安顺市,凤凰山,,23,19,25,14,19,73,,109,100,15,12,3,6,0.5,0.4
2025-07-31T2200,3124A,105.9439,26.2564,安顺市,金钟山,,27,17,20,13,16,85,,111,102,6,7,4,7,0.5,0.5
2025-07-31T2200,3125A,105.8983,26.2481,安顺市,娄家坡,,26,11,21,10,18,83,,107,99,8,8,6,9,0.5,0.4
2025-07-31T2200,1818A,114.4839,36.0621,安阳市,棉研所,,,,,,,,,,,,,,,,
2025-07-31T2200,1819A,114.3551,36.1017,安阳市,红庙街,,35,18,30,10,15,110,,129,123,11,9,3,4,0.4,0.4
2025-07-31T2200,1820A,114.361,36.0681,安阳市,银杏小区,,37,27,32,8,16,116,,132,128,12,8,4,4,0.4,0.4
2025-07-31T2200,3141A,114.3922,36.0878,安阳市,信访局,,39,23,28,3,13,122,,135,132,8,8,5,5,0.5,0.5
2025-07-31T2200,3669A,114.4705,36.0637,安阳市,左辅环卫站,,37,37,38,9,19,104,,127,120,12,10,5,6,0.3,0.4
2025-07-31T2200,3703A,114.2917,36.0949,安阳市,安钢职工学校,,35,32,36,8,20,109,,131,124,9,6,4,4,0.3,0.4
2025-07-31T2200,1748A,123.044,41.1196,鞍山市,深沟寺,,47,47,32,31,20,78,,118,97,11,15,6,7,1.9,1.4
2025-07-31T2200,1749A,123.011,41.0931,鞍山市,太阳城,,41,41,30,27,20,74,,125,104,16,17,6,8,1.7,1.4
2025-07-31T2200,1750A,123.0485,41.1442,鞍山市,太平,颗粒物(PM10),57,63,55,32,28,111,,151,132,16,24,7,9,2.0,1.4
2025-07-31T2200,1751A,122.9642,41.0971,鞍山市,铁西三道街,颗粒物(PM10),58,65,42,35,23,111,,139,126,21,26,7,8,1.8,1.2
2025-07-31T2200,1753A,123.022,41.0821,鞍山市,明达新区,,48,48,30,33,19,73,,133,114,18,15,8,10,1.7,1.2
2025-07-31T2200,1754A,123.1289,41.0228,鞍山市,千山,,,,,,,,,,,,,,,,
2025-07-31T2200,4201A,122.9446,41.0826,鞍山市,兴盛南路290号,颗粒物(PM10),61,71,49,29,21,76,,144,114,36,34,6,7,1.5,1
2025-07-31T2200,2195A,107.4212,40.761,巴彦淖尔市,附二中,,38,24,26,17,15,119,,142,139,10,7,6,6,0.7,0.6
2025-07-31T2200,2196A,107.37,40.7372,巴彦淖尔市,市环保大楼,,32,31,34,13,17,102,,135,128,11,8,6,6,0.5,0.5
2025-07-31T2200,1956A,86.1472,41.7538,巴音郭楞蒙古自治州,孔雀公园,,41,41,66,26,25,93,,84,84,9,11,3,3,0.3,0.3
2025-07-31T2200,1957A,86.1972,41.7166,巴音郭楞蒙古自治州,棉纺厂,,48,48,112,21,23,69,,84,81,19,11,4,4,0.2,0.2
2025-07-31T2200,1958A,86.2357,41.7173,巴音郭楞蒙古自治州,经济开发区,,38,38,53,16,16,90,,97,94,6,5,3,3,0.2,0.3
2025-07-31T2200,2914A,106.7677,31.8794,巴中市,苏山坪,,35,28,26,21,19,109,,118,118,5,7,2,3,0.6,0.6
2025-07-31T2200,3181A,106.7768,31.8526,巴中市,市五中,,33,33,28,23,19,80,,123,114,8,12,9,10,0.6,0.6
2025-07-31T2200,3183A,106.7418,31.8654,巴中市,圣泉水务公司,,37,37,32,20,17,106,,136,132,7,8,8,7,0.7,0.6
2025-07-31T2200,3616A,106.7616,31.8344,巴中市,市中心医院,,33,33,31,19,15,82,,125,119,15,15,9,9,0.5,0.5
2025-07-31T2200,2235A,122.7911,45.6077,白城市,洮北区环保局,,19,14,10,7,7,60,,81,75,12,5,3,5,0.5,0.4
2025-07-31T2200,2236A,122.8738,45.5725,白城市,市环保局,,19,17,10,11,6,60,,74,68,8,5,4,4,0.3,0.3
2025-07-31T2200,2231A,126.4219,41.9171,白山市,喜丰,颗粒物(PM10),79,107,42,25,14,4,,79,54,29,14,6,6,0.6,0.7
2025-07-31T2200,2232A,126.4077,41.9419,白山市,环保局,,11,11,27,3,10,24,,86,64,10,9,7,7,0.6,0.9
2025-07-31T2200,2647A,104.1724,36.5446,白银市,第三小学,,40,40,135,24,47,103,,114,112,6,5,6,9,0.6,0.7
2025-07-31T2200,2648A,104.1465,36.5482,白银市,动力公司,,43,43,123,22,49,91,,105,103,10,7,6,8,0.4,0.4
2025-07-31T2200,2512A,106.6103,23.9011,百色市,市监测站,,,11,23,9,11,67,,101,93,12,10,4,7,,0.6
2025-07-31T2200,2513A,106.6538,23.8859,百色市,市中心血站,,22,,34,11,18,69,,104,88,16,18,2,9,0.6,0.6
2025-07-31T2200,3406A,106.6085,23.8798,百色市,祈福高中,,23,,34,12,17,73,,92,81,11,15,4,6,0.5,0.6
2025-07-31T2200,2270A,117.396,32.939,蚌埠市,工人疗养院,,20,11,17,3,6,62,,65,65,2,5,3,4,0.3,0.3
2025-07-31T2200,2271A,117.3605,32.9427,蚌埠市,百货大楼,,18,6,15,3,8,57,,60,60,4,6,6,6,0.3,0.3
2025-07-31T2200,2273A,117.4185,32.8911,蚌埠市,蚌埠学院,,,,11,3,8,64,,64,64,3,5,5,6,0.3,0.3
2025-07-31T2200,2274A,117.3533,32.9673,蚌埠市,淮上区政府,,20,6,14,3,9,61,,61,61,5,8,5,6,0.4,0.4
2025-07-31T2200,2275A,117.3145,32.8977,蚌埠市,高新区,,18,6,15,3,7,56,,58,58,5,10,6,6,0.4,0.4
2025-07-31T2200,3715A,117.3092,32.9314,蚌埠市,蚌埠田家炳中学,,18,9,20,3,10,56,,58,57,4,9,6,6,0.2,0.2
2025-07-31T2200,1585A,109.8756,40.6532,包头市,市环境监测站,,24,15,24,14,17,74,,152,135,39,23,4,11,0.6,0.6
2025-07-31T2200,1587A,109.9991,40.5842,包头市,包头八中,,30,30,32,12,16,94,,132,125,23,22,8,13,0.6,0.6
2025-07-31T2200,1588A,109.8538,40.6821,包头市,青山宾馆,,34,,20,15,14,35,,151,134,67,26,4,8,0.7,0.7
2025-07-31T2200,1589A,109.8642,40.6288,包头市,惠龙物流,,27,14,26,10,15,86,,143,131,20,17,4,11,0.6,0.6
2025-07-31T2200,1590A,110.0377,40.5546,包头市,东河鸿龙湾,,26,26,18,11,11,77,,138,126,25,15,3,4,0.6,0.6
2025-07-31T2200,3283A,109.9154,40.5685,包头市,滨河大厦,,27,19,17,7,12,84,,145,132,27,17,2,5,0.5,0.5
2025-07-31T2200,3419A,109.9447,40.6261,包头市,包头市委党校,,25,21,21,8,12,77,,145,132,41,25,6,12,0.6,0.6
2025-07-31T2200,3683A,109.8331,40.6576,包头市,昆区政府,,34,20,27,12,19,106,,153,144,16,20,3,12,0.6,0.7
2025-07-31T2200,1930A,107.185,34.3063,宝鸡市,庙沟村,,38,32,34,15,17,121,,181,172,9,12,4,3,0.4,0.4
2025-07-31T2200,1931A,107.0708,34.3017,宝鸡市,竹园沟,,45,38,33,31,33,118,,185,173,16,12,8,9,0.4,0.5
2025-07-31T2200,1932A,107.1906,34.3672,宝鸡市,三陆医院,,47,32,43,19,25,149,,186,181,14,16,8,8,0.6,0.6
2025-07-31T2200,1933A,107.1431,34.3547,宝鸡市,监测站,,45,45,41,23,23,126,,184,178,16,13,8,9,0.5,0.5
2025-07-31T2200,1934A,107.1186,34.3739,宝鸡市,技工学校,,48,35,41,20,24,152,,186,182,14,12,7,7,0.6,0.6
2025-07-31T2200,1936A,107.2058,34.3497,宝鸡市,文理学院,,50,43,41,18,21,159,,194,190,13,12,8,8,0.5,0.5
2025-07-31T2200,1937A,107.2386,34.3622,宝鸡市,三迪小学,,45,30,41,18,24,144,,187,181,19,16,8,9,0.6,0.6
2025-07-31T2200,4308A,107.3898,34.3601,宝鸡市,陈仓区北开路21号,,39,36,36,22,19,124,,194,182,21,11,8,8,0.5,0.4
2025-07-31T2200,1051A,115.493,38.8632,保定市,游泳馆,,,34,32,,12,,,124,114,5,12,2,3,0.2,0.2
2025-07-31T2200,1052A,115.5213,38.8959,保定市,华电二区,,33,33,30,15,11,75,,119,100,14,16,3,3,0.3,0.3
2025-07-31T2200,1053A,115.4713,38.9108,保定市,接待中心,,35,35,30,10,9,83,,116,99,10,12,3,2,0.3,0.3
2025-07-31T2200,1054A,115.4612,38.8416,保定市,地表水厂,,32,32,40,6,10,102,,122,116,6,11,3,4,0.2,0.3
2025-07-31T2200,3581A,115.31981,38.95208,保定市,满城区生态环境分局,,48,48,35,14,9,50,,113,88,30,21,4,3,0.2,0.1
2025-07-31T2200,3582A,115.47694,38.76408,保定市,清苑区第二中学,,42,42,42,14,23,102,,131,119,9,10,6,5,0.4,0.4
2025-07-31T2200,3583A,115.62909,39.02311,保定市,徐水物探局,,33,33,33,3,4,78,,109,98,10,14,4,4,0.4,0.4
2025-07-31T2200,4004A,115.4202,38.8656,保定市,双鹰农机,,36,36,38,19,12,93,,121,108,8,18,3,3,0.2,0.2
2025-07-31T2200,4034A,115.5150,38.8590,保定市,植保所站,,34,31,31,15,11,107,,138,123,8,15,3,2,0.3,0.3
2025-07-31T2200,2594A,99.1678,25.1081,保山市,市环境监测站,,28,,11,19,13,26,,43,37,12,6,4,6,0.3,0.3
2025-07-31T2200,2595A,99.1711,25.1328,保山市,市环保局,,15,12,11,10,9,28,,43,37,6,4,4,4,0.4,0.4
2025-07-31T2200,1866A,109.2262,21.588,北海市,牛尾岭水库,,30,27,14,21,8,58,,95,91,11,6,2,2,0.5,0.5
2025-07-31T2200,1867A,109.1436,21.4086,北海市,海滩公园,颗粒物(PM10),52,53,42,3,6,62,,108,102,3,3,2,2,0.4,0.6
2025-07-31T2200,1868A,109.0981,21.4661,北海市,新市环保局,,20,16,20,3,10,61,,109,105,4,6,2,3,0.4,0.4
2025-07-31T2200,1869A,109.1778,21.5233,北海市,北海工业园,,23,23,25,7,11,68,,109,107,8,7,3,4,0.5,0.5
2025-07-31T2200,3400A,109.1911,21.4415,北海市,龙潭自来水厂,,20,15,21,9,9,62,,103,98,3,4,6,6,0.5,0.5
2025-07-31T2200,1001A,116.3621,39.8784,北京市,万寿西宫,颗粒物(PM10),51,52,38,28,16,102,,132,123,34,38,3,3,0.6,0.6
2025-07-31T2200,1002A,116.2202,40.2915,北京市,定陵,,27,27,23,17,14,46,,95,68,2,3,11,11,0.5,0.4
2025-07-31T2200,1003A,116.4174,39.9289,北京市,东四,,50,50,36,24,17,95,,143,129,34,32,5,4,0.7,0.5
2025-07-31T2200,1004A,116.4072,39.8863,北京市,天坛,,39,39,31,22,15,38,,119,92,19,23,1,2,0.7,0.6
2025-07-31T2200,1005A,116.462,39.9365,北京市,农展馆,,47,47,37,23,18,72,,129,108,35,30,4,4,0.6,0.5
2025-07-31T2200,1006A,116.3392,39.9295,北京市,官园,颗粒物(PM10),53,55,35,29,18,70,,128,116,39,33,4,5,0.5,0.3
2025-07-31T2200,1007A,116.2878,39.9611,北京市,海淀万柳,,49,49,33,24,14,49,,88,78,36,37,3,3,0.7,0.5
2025-07-31T2200,1008A,116.6636,40.135,北京市,顺义新城,,,,,,,,,,,,,,,,
2025-07-31T2200,1009A,116.6275,40.3275,北京市,怀柔镇,,30,30,21,18,12,66,,104,79,12,12,3,2,0.4,0.3
2025-07-31T2200,1010A,116.2296,40.217,北京市,昌平镇,,30,30,26,18,15,58,,97,76,13,18,3,4,0.6,0.5
2025-07-31T2200,1011A,116.3966,39.9821,北京市,奥体中心,,42,42,34,22,15,84,,116,108,30,30,4,4,0.6,0.5
2025-07-31T2200,3281A,115.9718,40.4529,北京市,延庆夏都,,34,34,28,20,12,85,,112,98,10,8,3,3,0.7,0.6
2025-07-31T2200,3418A,116.8336,40.4095,北京市,密云新城,,38,38,23,24,12,21,,82,57,6,5,1,1,0.5,0.4
2025-07-31T2200,3671A,116.088,39.9726,北京市,门头沟三家店,,45,45,30,21,12,21,,76,50,20,15,2,3,0.5,0.4
2025-07-31T2200,3672A,116.1541,39.8204,北京市,丰台云岗,,42,42,31,17,13,28,,79,59,38,24,3,3,0.6,0.5
2025-07-31T2200,3673A,116.6804,39.9081,北京市,通州东关,颗粒物(PM10),51,52,46,26,21,40,,132,102,60,37,6,7,0.7,0.6
2025-07-31T2200,3674A,115.9577,39.7603,北京市,房山燕山,,35,35,28,22,17,67,,89,76,11,13,10,5,0.5,0.4
2025-07-31T2200,3675A,116.4672,39.7733,北京市,大兴旧宫,,38,38,34,21,18,62,,128,103,22,21,2,2,0.8,0.7
2025-07-31T2200,3694A,115.986,40.4563,北京市,延庆石河营,,33,32,23,23,15,63,,101,87,8,8,2,3,0.5,0.4
2025-07-31T2200,3695A,116.6151,40.3053,北京市,怀柔新城,,31,31,24,21,13,67,,92,72,3,3,2,2,0.7,0.6
2025-07-31T2200,3696A,116.2545,39.8768,北京市,丰台小屯,,47,47,34,23,15,38,,93,84,41,29,2,2,0.8,0.6
2025-07-31T2200,3697A,116.84,40.3844,北京市,密云镇,,40,40,23,24,11,41,,99,78,27,16,4,4,0.7,0.6
2025-07-31T2200,4182A,116.1942,39.9158,北京市,八角北路9号,颗粒物(PM10),56,62,44,24,14,34,,112,92,49,27,3,4,0.7,0.5
2025-07-31T2200,4194A,117.0790,40.1518,北京市,洳河巡河路,,50,50,32,28,16,62,,123,101,11,8,3,4,0.7,0.5
2025-07-31T2200,1761A,123.8275,41.3064,本溪市,大峪,,24,24,30,8,13,34,,135,100,15,16,4,5,0.5,0.7
2025-07-31T2200,1762A,123.7567,41.3325,本溪市,溪湖,,31,31,37,14,18,40,,116,92,11,16,6,7,0.9,1.4
2025-07-31T2200,1763A,123.7169,41.3094,本溪市,彩屯,,34,34,36,18,20,14,,108,82,19,23,8,11,1.4,1.6
2025-07-31T2200,1764A,123.7669,41.2864,本溪市,东明,,33,33,40,17,17,38,,124,97,21,21,4,4,0.9,0.9
2025-07-31T2200,1765A,123.7992,41.2664,本溪市,新立屯,,27,27,30,13,15,32,,123,89,38,24,3,4,1.0,1.1
2025-07-31T2200,1766A,123.8142,41.3472,本溪市,威宁,,19,16,32,13,18,20,,104,70,25,13,7,8,0.6,0.8
2025-07-31T2200,2587A,105.2864,27.3125,毕节市,八中,,33,33,28,22,22,65,,99,89,16,14,6,5,0.4,0.4
2025-07-31T2200,2588A,105.31,27.2944,毕节市,师专,,38,38,35,23,20,77,,104,98,13,15,6,6,0.4,0.5
2025-07-31T2200,4263A,105.3688,27.3598,毕节市,工业大道,,46,46,31,32,21,52,,110,90,22,17,6,6,0.7,0.7
2025-07-31T2200,1629A,118.0018,37.3617,滨州市,第二水厂,,32,22,24,22,18,77,,116,97,6,8,3,3,0.4,0.5
2025-07-31T2200,1630A,117.9776,37.393,滨州市,北中新校,,27,27,25,17,15,76,,119,100,13,12,3,3,0.3,0.3
2025-07-31T2200,3514A,117.9378,37.3956,滨州市,中海酒店,,28,24,24,19,20,76,,124,106,8,6,8,8,0.4,0.4
2025-07-31T2200,3515A,117.9378,37.3553,滨州市,开发区一中,,28,19,23,17,15,88,,125,108,9,9,4,4,0.4,0.4
2025-07-31T2200,3516A,118.0917,37.694,滨州市,金海六路,,27,19,17,9,9,86,,125,115,7,9,8,9,0.2,0.2
2025-07-31T2200,4028A,117.9956,37.3753,滨州市,滨州市西街道办事处,,26,17,17,17,16,83,,125,106,7,7,1,1,0.2,0.2
2025-07-31T2200,2311A,115.8072,33.8399,亳州市,污水处理厂,,20,18,20,12,15,62,,104,90,8,7,3,4,0.4,0.4
2025-07-31T2200,2312A,115.7789,33.8518,亳州市,三国揽胜宫,,26,26,26,13,12,69,,107,98,5,7,5,5,0.5,0.6
2025-07-31T2200,3332A,115.7633,33.8034,亳州市,亳州学院,,20,,16,10,16,63,,101,91,7,8,3,3,0.4,0.5
2025-07-31T2200,2693A,82.0485,44.8556,博尔塔拉蒙古自治州,市党校,,32,22,20,22,19,95,,115,112,9,10,3,3,0.2,0.3
2025-07-31T2200,2694A,82.0806,44.8969,博尔塔拉蒙古自治州,市环保局,,,43,27,11,11,,,108,107,9,6,2,6,0.5,0.4
2025-07-31T2200,1071A,116.8842,38.2991,沧州市,沧县城建局,,36,36,32,12,11,96,,142,127,18,17,3,2,0.3,0.3
2025-07-31T2200,1072A,116.8584,38.3254,沧州市,电视转播站,,29,24,30,9,12,91,,132,121,22,20,1,2,0.3,0.3
2025-07-31T2200,1073A,116.8709,38.3228,沧州市,市环保局,,36,36,34,10,14,82,,139,123,21,13,2,2,0.2,0.3
2025-07-31T2200,3324A,116.8136,38.3004,沧州市,河北水利电力学院,,35,19,15,3,13,109,,150,140,12,9,3,3,0.3,0.3
2025-07-31T2200,2622A,97.1806,31.1273,昌都市,昌都监测站,,33,27,17,23,7,90,,98,98,3,6,4,4,0.1,0.2
2025-07-31T2200,3719A,97.1714,31.1406,昌都市,昌都会议中心,,,50,16,16,8,,,99,98,,9,4,5,0.2,0.1
2025-07-31T2200,2690A,88.1236,43.8886,昌吉回族自治州,天山天池,,16,16,18,6,7,37,,104,94,8,7,4,4,0.6,0.6
2025-07-31T2200,2692A,87.2717,44.0297,昌吉回族自治州,新区政务中心,,30,16,22,11,9,95,,145,140,40,12,8,7,0.3,0.2
2025-07-31T2200,3613A,87.3095,44.0142,昌吉回族自治州,亚心广场,,,22,23,9,8,110,,146,142,,10,5,7,,0.2
2025-07-31T2200,1120A,125.2863,43.9027,长春市,客车厂,,27,27,20,17,9,55,,97,82,28,18,3,4,0.4,0.3
2025-07-31T2200,1121A,125.2841,43.8463,长春市,邮电学院,,22,22,17,10,5,29,,96,72,29,13,4,4,0.4,0.3
2025-07-31T2200,1122A,125.3716,43.8772,长春市,劳动公园,,44,44,23,20,8,49,,96,77,29,17,6,6,0.6,0.5
2025-07-31T2200,1123A,125.3297,43.8805,长春市,园林处,,25,25,17,10,4,40,,93,75,34,13,4,4,0.5,0.4
2025-07-31T2200,1124A,125.4605,43.79,长春市,净月潭,,16,16,14,6,3,32,,78,59,4,4,4,4,0.3,0.2
2025-07-31T2200,1125A,125.7194,43.515,长春市,甩湾子,,19,19,14,9,7,18,,74,56,14,11,4,3,0.6,0.5
2025-07-31T2200,1126A,125.3863,43.8447,长春市,经开区环卫处,,25,25,17,8,5,36,,86,65,33,18,2,2,0.3,0.3
2025-07-31T2200,1127A,125.245,43.7783,长春市,高新区管委会,,27,27,17,11,5,22,,87,63,33,12,3,3,0.5,0.4
2025-07-31T2200,1128A,125.1761,43.8325,长春市,岱山公园,颗粒物(PM10),54,57,28,10,5,6,,90,54,67,26,3,3,0.4,0.3
2025-07-31T2200,4281A,125.3346,43.9164,长春市,北亚泰大街1068号,,36,36,25,17,10,40,,93,76,36,20,6,6,0.5,0.4
2025-07-31T2200,1335A,113.0833,28.2325,长沙市,经开区环保局,,34,33,33,14,22,108,,143,136,15,15,5,4,0.4,0.4
2025-07-31T2200,1336A,112.8872,28.2189,长沙市,高开区环保局,,34,32,34,14,17,106,,133,128,10,9,4,4,0.3,0.3
2025-07-31T2200,1337A,113.0792,28.2053,长沙市,马坡岭,,33,31,33,19,19,104,,152,141,17,14,5,4,0.3,0.4
2025-07-31T2200,1338A,112.9394,28.19,长沙市,湖南师范大学,,33,30,32,16,18,103,,132,125,4,5,3,2,0.5,0.5
2025-07-31T2200,1339A,113.0178,28.1322,长沙市,雨花区环保局,,38,28,31,15,13,119,,142,137,8,8,5,5,0.5,0.5
2025-07-31T2200,1340A,112.9792,28.2597,长沙市,伍家岭,,,30,32,14,13,104,,132,127,,15,1,1,0.3,0.3
2025-07-31T2200,1341A,113.0014,28.1944,长沙市,火车新站,,33,28,32,19,14,103,,131,126,10,10,5,5,0.6,0.6
2025-07-31T2200,1342A,112.9844,28.1178,长沙市,天心区环保局,,34,28,30,16,16,108,,142,134,18,12,2,2,0.3,0.3
2025-07-31T2200,1343A,112.8908,28.1308,长沙市,湖南中医药大学,,33,27,32,23,18,69,,129,113,30,10,3,2,0.5,0.5
2025-07-31T2200,1344A,112.9581,28.3611,长沙市,沙坪,,36,36,33,21,18,93,,132,128,9,13,5,5,0.4,0.5
2025-07-31T2200,1727A,113.1147,36.1547,长治市,清华站,,45,40,30,19,16,141,,152,148,7,9,6,7,0.5,0.7
2025-07-31T2200,1730A,113.0886,36.2125,长治市,审计局,,45,34,28,19,18,142,,160,157,7,10,4,5,0.7,0.7
2025-07-31T2200,1731A,113.0844,36.1856,长治市,长治八中,,46,36,34,32,24,147,,160,157,3,7,7,8,0.6,0.8
2025-07-31T2200,2845A,113.1569,36.1911,长治市,德盛苑,,44,40,30,22,18,140,,150,148,6,8,5,5,0.7,0.8
2025-07-31T2200,3568A,113.06,36.0464,长治市,向阳小学,颗粒物(PM10),62,74,62,24,22,142,,153,149,4,6,6,7,0.8,0.8
2025-07-31T2200,3569A,112.8792,36.3144,长治市,屯留一中,,45,42,54,31,30,141,,165,162,7,10,8,10,0.2,0.3
2025-07-31T2200,4189A,113.1131,36.19948,长治市,英华南巷50号,,43,38,33,17,19,136,,150,146,5,8,6,6,0.8,1
2025-07-31T2200,4190A,113.2367,36.3344,长治市,学府街1号,,40,33,35,15,22,126,,157,151,12,12,4,4,0.5,0.7
2025-07-31T2200,1854A,111.6975,28.9703,常德市,市二中,,38,31,24,26,16,86,,129,123,12,7,3,4,0.6,0.5
2025-07-31T2200,1857A,111.7158,29.1456,常德市,白鹤山,,,,,,,,,,,,,,,,
2025-07-31T2200,3138A,111.7153,29.0289,常德市,武陵区永安,,50,45,26,35,15,110,,124,123,5,6,3,4,0.4,0.3
2025-07-31T2200,3139A,111.6892,28.9881,常德市,鼎城区玉霞,,50,42,25,35,16,97,,125,122,9,6,6,5,0.4,0.4
2025-07-31T2200,3140A,111.6625,29.0531,常德市,武陵区长庚,,42,42,21,23,12,123,,131,131,4,5,3,4,0.4,0.3
2025-07-31T2200,1196A,119.9633,31.762,常州市,市监测站,,34,34,12,18,6,27,,47,46,39,14,10,8,1.0,0.6
2025-07-31T2200,1200A,119.9468,31.7069,常州市,武进监测站,,25,,6,17,4,45,,55,55,19,8,10,11,0.9,0.9
2025-07-31T2200,1201A,119.9255,31.9087,常州市,安家,,25,25,22,17,4,52,,53,53,21,11,7,7,0.8,0.8
2025-07-31T2200,3002A,119.9805,31.8174,常州市,行政中心,,25,25,9,16,4,36,,49,49,35,15,11,11,0.5,0.5
2025-07-31T2200,3003A,120.0522,31.7748,常州市,经开区,,,41,14,24,5,,,53,53,42,16,2,2,0.4,0.3
2025-07-31T2200,3010A,119.9025,31.7964,常州市,钟楼,,26,,7,18,2,33,,56,55,36,11,6,5,1.2,0.8
2025-07-31T2200,3429A,119.8598,31.7066,常州市,武进经发区,,32,32,10,15,5,37,,46,46,19,8,6,5,0.8,0.7
2025-07-31T2200,3430A,119.5826,31.7245,常州市,金坛城区,,14,6,5,3,3,42,,46,46,11,11,6,6,0.4,0.4
2025-07-31T2200,2220A,120.4318,41.5881,朝阳市,西梁,,33,33,32,14,12,85,,93,92,16,18,7,7,0.3,0.4
2025-07-31T2200,2221A,120.4521,41.5646,朝阳市,河畔小区,,31,23,24,8,8,97,,97,97,13,17,6,7,0.5,0.5
2025-07-31T2200,2222A,120.4176,41.5648,朝阳市,八里堡,,44,44,31,14,11,83,,104,100,17,17,5,5,0.6,0.6
2025-07-31T2200,2223A,120.3806,41.5969,朝阳市,农业园区,细颗粒物(PM2.5),70,55,28,51,15,14,,96,66,41,20,6,8,0.6,0.6
2025-07-31T2200,1705A,116.6367,23.6719,潮州市,西园路,,50,,20,35,10,49,,108,88,5,10,3,3,0.2,0.4
2025-07-31T2200,3026A,116.6183,23.6608,潮州市,市政府,,22,22,36,13,15,70,,115,99,12,21,8,14,0.5,0.5
2025-07-31T2200,4036A,116.6461,23.6761,潮州市,金山,颗粒物(PM10),64,78,28,16,16,55,,123,102,7,8,4,5,0.6,0.6
2025-07-31T2200,2472A,113.0073,25.9061,郴州市,马头岭,,27,27,28,15,11,37,,88,65,12,10,7,6,0.4,0.5
2025-07-31T2200,2473A,113.0116,25.8226,郴州市,市职中,,,27,24,19,16,,,84,72,11,7,10,6,0.3,0.6
2025-07-31T2200,2475A,113.0383,25.8071,郴州市,市审计局,,26,24,23,18,16,40,,88,68,11,6,11,7,0.3,0.3
2025-07-31T2200,2476A,113.0348,25.7759,郴州市,市环保局,,28,25,29,19,19,36,,84,65,11,9,7,4,0.3,0.3
2025-07-31T2200,4252A,113.0138,25.8011,郴州市,好美居路49号,,28,24,22,19,16,47,,88,71,1,6,22,8,0.2,0.3
2025-07-31T2200,1431A,103.9728,30.7236,成都市,金泉两河,颗粒物(PM10),51,52,42,34,21,157,,178,160,15,18,2,4,0.7,0.6
2025-07-31T2200,1432A,104.176,30.6872,成都市,十里店,细颗粒物(PM2.5),54,56,37,38,20,144,,174,161,19,12,5,5,0.7,0.6
2025-07-31T2200,1433A,104.079,30.5706,成都市,三瓦窑,颗粒物(PM10),53,56,38,36,24,118,,164,142,22,22,3,4,0.5,0.5
2025-07-31T2200,1434A,104.1114,30.63,成都市,沙河铺,,44,44,37,25,20,107,,132,122,17,12,6,6,0.6,0.6
2025-07-31T2200,1437A,104.0786,30.6531,成都市,君平街,细颗粒物(PM2.5),64,66,45,46,26,156,,173,161,19,14,6,6,0.6,0.5
2025-07-31T2200,1438A,103.613,31.0283,成都市,灵岩寺,,,,,,,,,,,,,,,,
2025-07-31T2200,2880A,104.0239,30.65639,成都市,大石西路,颗粒物(PM10),51,52,36,34,27,132,,155,141,18,15,4,4,0.7,0.7
2025-07-31T2200,3136A,104.2725,30.5589,成都市,龙泉驿区区政府,,,,23,,14,,,126,,,12,,4,,0.6
2025-07-31T2200,3357A,104.0106,30.6931,成都市,金博路,细颗粒物(PM2.5),55,52,35,39,20,151,,156,152,18,18,5,5,0.8,0.8
2025-07-31T2200,3359A,104.0578,30.5225,成都市,华阳,,38,24,30,17,22,119,,152,135,14,10,4,4,0.5,0.6
2025-07-31T2200,3488A,104.3853,30.7453,成都市,青白江技师分院,,32,32,32,13,17,79,,152,126,21,13,4,4,0.6,0.7
2025-07-31T2200,3489A,104.0789,30.4072,成都市,科学城,,39,22,30,16,22,123,,133,128,7,8,3,3,0.4,0.5
2025-07-31T2200,4011A,103.8506,30.6947,成都市,光华大道三段,,,23,39,8,21,139,,185,162,21,20,5,8,,0.7
2025-07-31T2200,4224A,104.2433,30.5353,成都市,鲸龙路1057号,,38,26,36,18,26,119,,151,146,10,14,3,7,0.6,0.7
2025-07-31T2200,1062A,117.9531,40.9081,承德市,铁路,,45,45,28,29,10,25,,90,60,11,10,3,3,0.7,0.3
2025-07-31T2200,1063A,117.9392,40.9763,承德市,中国银行,,45,44,30,31,14,15,,92,50,16,11,3,2,0.7,0.4
2025-07-31T2200,1064A,117.9503,40.928,承德市,开发区,,37,37,38,12,13,41,,99,80,13,12,5,5,1.0,0.5
2025-07-31T2200,1066A,117.9268,41.0026,承德市,离宫,颗粒物(PM10),54,58,30,21,13,14,,68,30,10,7,2,2,0.7,0.3
2025-07-31T2200,4274A,117.7994,40.9605,承德市,滨河大街98号,,,,,,,,,,,,,,,,
2025-07-31T2200,2314A,117.47,30.6618,池州市,池州学院,,16,10,13,9,10,49,,44,44,6,9,4,5,0.3,0.4
2025-07-31T2200,3237A,117.4918,30.6617,池州市,展览馆,,15,13,15,8,8,46,,42,42,10,9,4,4,0.5,0.5
2025-07-31T2200,3333A,117.5627,30.695,池州市,第八中学,,18,13,13,8,7,56,,44,44,4,7,4,5,0.4,0.4
2025-07-31T2200,3334A,117.5038,30.6243,池州市,第十二中学,,16,12,12,8,8,50,,41,41,9,10,2,2,0.6,0.6
2025-07-31T2200,1744A,118.9233,42.2816,赤峰市,松山一中,,20,18,13,8,5,61,,78,72,14,14,5,7,0.6,0.6
2025-07-31T2200,1745A,118.9576,42.2728,赤峰市,哈达街,,33,33,20,15,8,55,,72,65,19,13,20,14,0.5,0.5
2025-07-31T2200,1746A,118.8788,42.2554,赤峰市,天义路,,29,24,12,20,10,56,,73,64,14,13,17,16,0.4,0.3
2025-07-31T2200,3058A,119.2658,42.0353,赤峰市,银河街,,31,31,30,17,11,36,,77,61,16,14,36,25,0.6,0.6
2025-07-31T2200,3286A,118.9359,42.3147,赤峰市,桥北物流园区,,22,22,18,12,9,37,,65,50,24,19,9,11,0.6,0.5
2025-07-31T2200,2521A,107.3476,22.4136,崇左市,市环保局江州分局,,30,12,30,12,17,93,,126,122,4,8,6,7,0.5,0.4
2025-07-31T2200,4256A,107.3750,22.3736,崇左市,石景林东路7号,,32,19,25,12,18,100,,133,128,6,8,4,4,0.5,0.5
2025-07-31T2200,2298A,118.3093,32.3153,滁州市,老年大学,,16,12,11,3,4,50,,51,51,9,7,8,8,0.3,0.4
2025-07-31T2200,2299A,118.3244,32.2786,滁州市,人大宾馆,,16,,6,11,8,48,,51,51,6,5,4,4,0.3,0.3
2025-07-31T2200,3207A,118.3118,32.3038,滁州市,市政府原办公楼,,16,,10,11,12,49,,47,47,6,4,5,5,0.3,0.3
2025-07-31T2200,3331A,118.3267,32.2634,滁州市,图书馆,,,9,8,,10,54,,55,55,9,9,11,10,0.3,0.3
2025-07-31T2200,2605A,101.5482,25.0441,楚雄彝族自治州,州环境监测站,,13,7,19,3,13,39,,70,59,5,16,7,9,0.5,0.6
2025-07-31T2200,2606A,101.538,25.0492,楚雄彝族自治州,市经济开发区,,22,22,22,11,14,37,,68,57,8,18,6,7,0.6,0.6
2025-07-31T2200,2548A,107.5277,31.2827,达州市,达州职业技术学院,,34,34,32,14,9,46,,103,91,30,18,8,9,0.5,0.5
2025-07-31T2200,2549A,107.5086,31.2186,达州市,市环境监测站,,,36,29,19,10,,,111,111,26,22,8,7,0.4,0.3
2025-07-31T2200,2550A,107.4988,31.2132,达州市,凤凰小区,,29,29,26,17,13,68,,112,108,26,19,7,7,0.4,0.3
2025-07-31T2200,2551A,107.5082,31.1986,达州市,达县机关宾馆,,46,46,30,17,9,33,,114,104,59,25,7,5,0.5,0.3
2025-07-31T2200,2552A,107.4644,31.2124,达州市,市政中心,,45,45,33,12,10,77,,103,101,15,18,5,4,0.2,0.3
2025-07-31T2200,2614A,100.1542,25.7054,大理白族自治州,大理市环境监测站,,29,,8,20,17,34,,48,36,11,9,5,4,0.5,0.5
2025-07-31T2200,2615A,100.2171,25.5811,大理白族自治州,大理古城,,32,,13,22,9,23,,47,40,15,9,4,4,0.8,0.7
2025-07-31T2200,1109A,121.612,38.9741,大连市,甘井子,,17,12,12,9,9,54,,95,64,13,11,9,7,0.1,0.1
2025-07-31T2200,1110A,121.565,38.9511,大连市,周水子,,19,17,21,10,9,58,,80,70,4,7,7,7,0.3,0.3
2025-07-31T2200,1111A,121.5637,38.8845,大连市,星海三站,,18,17,18,8,7,57,,78,64,1,4,3,4,0.3,0.3
2025-07-31T2200,1112A,121.6302,38.9117,大连市,青泥洼桥,,19,,12,10,8,59,,86,73,6,6,5,6,0.6,0.6
2025-07-31T2200,1113A,121.6251,38.8638,大连市,傅家庄,,19,19,20,8,10,50,,57,52,4,4,8,7,0.1,0.2
2025-07-31T2200,1114A,121.5213,38.8661,大连市,七贤岭,,18,16,17,12,8,55,,88,69,3,2,8,8,0.3,0.3
2025-07-31T2200,1115A,121.2529,38.8061,大连市,旅顺,,15,11,17,10,10,34,,86,57,11,5,5,5,0.2,0.2
2025-07-31T2200,1116A,121.7485,39.1311,大连市,金州,,17,17,14,8,6,48,,100,69,14,11,7,7,0.2,0.2
2025-07-31T2200,1117A,121.7811,39.0496,大连市,开发区,,17,17,20,10,6,53,,74,58,15,11,8,7,0.3,0.3
2025-07-31T2200,1118A,121.9762,39.0631,大连市,双D港,,16,16,18,6,11,36,,95,62,2,3,7,7,0.4,0.4
2025-07-31T2200,1789A,124.81117,46.03138,大庆市,大同区,,21,21,17,10,6,44,,72,61,13,10,8,8,0.7,0.6
2025-07-31T2200,1790A,125.129,46.533,大庆市,龙凤区,,,22,20,8,8,,,80,70,18,13,6,6,0.6,0.5
2025-07-31T2200,1791A,124.902,46.408,大庆市,红岗区,,22,22,22,11,8,50,,82,66,16,14,8,8,0.6,0.5
2025-07-31T2200,1792A,125.153,46.586,大庆市,萨尔图区,,41,41,29,14,8,39,,75,56,26,16,7,7,0.6,0.5
2025-07-31T2200,1793A,124.9042,46.6215,大庆市,让胡路区,,35,35,24,18,12,25,,73,60,34,12,8,6,0.5,0.3
2025-07-31T2200,3481A,125.141,46.634,大庆市,萨区政府监测点,,,42,23,7,2,,,85,74,23,12,8,7,0.4,0.3
2025-07-31T2200,1721A,113.3819,40.1097,大同市,果树场,颗粒物(PM10),55,60,28,24,13,51,,81,81,18,26,7,7,0.7,0.6
2025-07-31T2200,1723A,113.2994,40.0758,大同市,云冈宾馆,细颗粒物(PM2.5),77,85,41,56,20,78,,101,101,26,22,8,7,1.1,0.9
2025-07-31T2200,1724A,113.3444,40.0917,大同市,大同大学,,48,48,30,30,15,61,,108,104,30,17,6,6,0.7,0.5
2025-07-31T2200,1725A,113.2661,40.1269,大同市,安家小村,颗粒物(PM10),73,96,53,46,18,62,,95,90,27,26,7,7,0.8,0.7
2025-07-31T2200,1726A,113.2711,40.0844,大同市,教育学院,颗粒物(PM10),61,71,37,41,18,63,,102,99,35,20,8,9,0.9,0.5
2025-07-31T2200,3282A,113.3397,40.0597,大同市,大同市卫生学校,细颗粒物(PM2.5),74,77,32,54,17,61,,102,99,34,19,8,7,0.7,0.4
2025-07-31T2200,3565A,113.1367,40.1122,大同市,云冈站,颗粒物(PM10),63,76,62,33,26,50,,89,87,24,24,3,5,0.5,0.5
2025-07-31T2200,3566A,113.1186,40.2556,大同市,图书馆,,,91,46,38,20,,,97,97,16,14,7,8,0.8,0.8
2025-07-31T2200,3567A,113.5931,40.0461,大同市,区一中,,40,36,24,28,14,57,,105,101,11,11,7,9,0.6,0.4
2025-07-31T2200,4199A,113.2798,40.0997,大同市,魏都大道141号,细颗粒物(PM2.5),72,77,40,52,20,53,,100,96,34,23,5,6,1.0,0.7
2025-07-31T2200,2269A,124.1069,50.4097,大兴安岭地区,科技局,,20,20,18,9,10,19,,47,37,4,4,3,3,0.4,0.4
2025-07-31T2200,3663A,124.1164,50.4278,大兴安岭地区,红旗社区,,9,6,4,3,2,26,,48,38,2,3,4,4,0.3,0.3
2025-07-31T2200,1600A,124.3303,40.0625,丹东市,江湾东路,,29,26,25,20,15,60,,88,76,15,14,48,11,0.5,0.6
2025-07-31T2200,1601A,124.4256,40.1503,丹东市,临江后街,颗粒物(PM10),78,105,54,24,16,54,,86,72,17,13,7,6,0.9,0.7
2025-07-31T2200,1602A,124.3933,40.1461,丹东市,元宝山,,25,25,20,13,11,54,,75,67,16,15,4,3,0.6,0.5
2025-07-31T2200,1603A,124.3633,40.1092,丹东市,民主桥,,33,33,24,17,12,57,,83,74,11,14,4,3,0.5,0.5
2025-07-31T2200,3541A,109.5726,19.5167,儋州市,第一中学子站,,23,23,16,12,8,40,,47,45,4,3,5,5,0.3,0.4
2025-07-31T2200,3542A,109.5567,19.5187,儋州市,东坡学校子站,,19,19,14,12,9,37,,51,48,7,4,6,6,0.5,0.5
2025-07-31T2200,2616A,98.5842,24.428,德宏傣族景颇族自治州,德宏州监测站,,24,24,20,15,9,9,,33,31,16,9,8,11,0.6,0.7
2025-07-31T2200,3677A,98.5881,24.4368,德宏傣族景颇族自治州,芒市人民政府综合楼,,29,29,22,13,10,11,,34,27,7,8,7,12,0.7,0.6
2025-07-31T2200,1901A,104.4239,31.1208,德阳市,东山公园,,32,32,30,19,18,96,,155,137,21,10,2,2,0.9,0.8
2025-07-31T2200,1902A,104.3826,31.1317,德阳市,西小区,细颗粒物(PM2.5),53,46,33,37,23,110,,163,140,19,17,9,8,1.2,0.9
2025-07-31T2200,1904A,104.3553,31.1091,德阳市,耐火材料厂,细颗粒物(PM2.5),58,51,37,41,23,116,,167,144,15,26,3,3,0.7,0.6
2025-07-31T2200,3639A,104.4019,31.1244,德阳市,市教育局,,46,46,32,32,20,96,,150,124,23,17,1,2,1.0,0.8
2025-07-31T2200,1622A,116.3032,37.4674,德州市,儿童乐园,,41,41,24,14,12,128,,144,142,13,9,9,10,0.5,0.5
2025-07-31T2200,1624A,116.2991,37.4451,德州市,监理站,,44,31,15,14,8,139,,145,145,8,6,12,13,0.3,0.3
2025-07-31T2200,3066A,116.2721,37.4379,德州市,九衢泉纯净水厂,,43,31,20,19,13,135,,139,139,10,8,16,17,0.6,0.5
2025-07-31T2200,3371A,116.3728,37.4403,德州市,开发区人民医院,,39,34,19,14,10,122,,135,134,16,12,9,10,0.8,0.8
2025-07-31T2200,3511A,116.5652,37.3319,德州市,陵城艺术中心,,44,44,24,19,12,106,,141,137,11,8,2,6,0.6,0.5
2025-07-31T2200,4292A,116.3525,37.4209,德州市,新河东路,,45,34,20,17,13,141,,144,144,11,9,9,10,0.7,0.7
2025-07-31T2200,2621A,99.7056,27.8317,迪庆藏族自治州,迪庆州站,,29,29,19,12,13,41,,82,72,15,9,6,7,0.6,0.5
2025-07-31T2200,3180A,99.7136,27.8094,迪庆藏族自治州,质量技术监督局,,,20,19,12,9,,,82,79,15,13,7,7,0.5,0.5
2025-07-31T2200,4257A,104.6092,35.5962,定西市,将台街,,,58,36,26,14,,,107,107,21,8,8,8,0.6,0.5
2025-07-31T2200,4309A,104.6159,35.5701,定西市,正龙路62号,颗粒物(PM10),53,56,28,25,17,77,,96,94,15,9,5,4,0.4,0.3
2025-07-31T2200,1389A,113.7547,23.0494,东莞市,莞城梨川,,28,28,23,17,18,56,,144,103,31,19,8,7,0.6,0.6
2025-07-31T2200,1390A,113.7944,23.0128,东莞市,东城石井,,21,21,23,12,14,43,,116,65,36,26,3,3,0.6,0.6
2025-07-31T2200,1391A,113.7383,22.9658,东莞市,南城西平,,25,25,21,13,12,64,,126,88,30,24,6,5,0.6,0.6
2025-07-31T2200,3319A,113.7338,23.0381,东莞市,万江金泰,,18,15,22,10,14,40,,130,88,36,22,3,4,0.9,0.8
2025-07-31T2200,3626A,113.7533,23.0202,东莞市,南城元岭,,22,21,19,15,15,54,,128,92,34,22,6,6,0.6,0.6
2025-07-31T2200,3627A,113.7875,23.0457,东莞市,东城主山,,28,28,29,15,17,65,,127,81,24,29,4,4,0.5,0.6
2025-07-31T2200,1666A,118.6614,37.4309,东营市,市环保局,,22,7,11,3,6,70,,88,81,8,10,6,6,0.1,0.2
2025-07-31T2200,3036A,118.6904,37.4338,东营市,开发区管委会,,25,10,15,3,5,79,,98,90,6,7,5,6,0.2,0.2
2025-07-31T2200,3365A,118.5719,37.565,东营市,垦利区民丰路,,17,7,12,3,7,54,,86,81,10,8,3,2,0.5,0.5
2025-07-31T2200,3498A,118.5055,37.8612,东营市,河口城区,,28,12,14,7,6,88,,139,134,8,13,5,4,0.7,0.8
2025-07-31T2200,3646A,118.4978,37.4623,东营市,胜利站,,21,15,19,7,6,66,,95,86,10,11,2,3,0.4,0.4
2025-07-31T2200,3734A,118.35,37.26,东营市,理想之城,,22,12,12,7,8,70,,94,86,6,7,2,4,0.3,0.3
2025-07-31T2200,1591A,110.0023,39.8129,鄂尔多斯市,综合楼,,36,36,25,19,12,100,,130,125,21,16,2,4,0.8,0.6
2025-07-31T2200,1592A,109.9486,39.8261,鄂尔多斯市,巴音孟克林场办事处,,48,48,31,29,15,88,,136,127,28,15,3,4,0.9,0.6
2025-07-31T2200,1593A,109.7736,39.5986,鄂尔多斯市,康泽苑,,46,46,42,24,14,66,,118,106,16,18,7,7,0.7,0.5
2025-07-31T2200,1594A,109.8119,39.5989,鄂尔多斯市,华泰汽车城,颗粒物(PM10),54,58,39,29,17,37,,106,87,35,19,4,4,1.0,0.7
2025-07-31T2200,1595A,109.9734,39.7884,鄂尔多斯市,奥林花园,,41,41,29,27,20,63,,120,108,22,17,6,8,0.9,0.8
2025-07-31T2200,2436A,114.8938,30.3994,鄂州市,市政府,,30,22,19,15,7,93,,94,94,14,16,5,6,0.6,0.5
2025-07-31T2200,2437A,114.8989,30.3714,鄂州市,赵家坝,,30,27,22,6,6,95,,101,101,8,10,5,5,0.8,0.8
2025-07-31T2200,3654A,114.8094,30.4089,鄂州市,精准医疗中心,,,29,24,9,6,88,,105,105,,12,4,4,0.8,0.7
2025-07-31T2200,2454A,109.4978,30.2981,恩施土家族苗族自治州,湖北民院,,43,30,20,30,17,89,,155,141,10,6,6,5,0.5,0.4
2025-07-31T2200,2455A,109.4707,30.2798,恩施土家族苗族自治州,州电力总公司,,,,20,,19,,,143,136,28,12,8,8,0.2,0.3
2025-07-31T2200,3549A,109.5061,30.3772,恩施土家族苗族自治州,龙凤新区,,33,29,18,23,14,77,,160,136,8,4,4,4,0.6,0.5
2025-07-31T2200,2499A,108.3411,21.6158,防城港市,沙万,,33,,31,23,20,48,,84,67,13,14,3,4,0.6,0.5
2025-07-31T2200,2500A,108.3514,21.7731,防城港市,防城档案局,颗粒物(PM10),63,75,32,18,18,18,,80,52,22,11,3,3,0.8,0.7
2025-07-31T2200,2501A,108.3506,21.6414,防城港市,大海花园,,28,,27,19,16,57,,99,80,9,9,8,5,0.5,0.6
2025-07-31T2200,1371A,113.1294,23.0067,佛山市,湾梁,,28,27,28,19,18,56,,100,86,21,21,6,6,0.8,0.8
2025-07-31T2200,1372A,113.1083,23.0478,佛山市,华材职中,,24,24,23,15,17,72,,125,104,17,21,8,8,0.6,0.6
2025-07-31T2200,1373A,113.144,23.0453,佛山市,南海气象局,,29,25,31,20,17,58,,91,77,16,23,3,3,0.6,0.6
2025-07-31T2200,1374A,113.2881,22.8094,佛山市,顺德苏岗,,26,26,28,12,16,47,,70,64,24,31,6,7,0.9,0.9
2025-07-31T2200,1376A,112.8383,22.8678,佛山市,高明孔堂,,23,21,27,11,15,73,,96,90,10,11,6,7,0.7,0.7
2025-07-31T2200,1377A,112.8836,23.1588,佛山市,三水监测站,,,,20,14,16,94,,104,104,11,22,2,3,0.4,0.7
2025-07-31T2200,1378A,112.867,23.185,佛山市,三水云东海,,29,24,32,3,20,92,,108,103,15,23,1,2,0.5,0.7
2025-07-31T2200,3625A,113.2544,22.7642,佛山市,容桂街道办,,15,14,25,9,19,45,,71,57,30,32,6,6,0.7,0.7
2025-07-31T2200,1280A,119.3903,26.0543,福州市,鼓山,,,,,,,,,,,,,,,,
2025-07-31T2200,1282A,119.2681,26.0504,福州市,师大,,31,31,32,13,14,78,,91,76,12,13,5,5,0.2,0.2
2025-07-31T2200,1283A,119.2984,26.1028,福州市,五四北路,,44,44,36,19,17,89,,95,92,16,15,5,4,0.3,0.4
2025-07-31T2200,1284A,119.2648,26.0768,福州市,杨桥西路,,31,31,31,13,14,86,,90,80,12,13,4,4,0.3,0.3
2025-07-31T2200,1285A,119.317,26.0746,福州市,紫阳,,35,35,36,24,18,80,,88,84,15,13,6,6,0.3,0.3
2025-07-31T2200,3048A,119.5799,26.0936,福州市,九龙,,33,33,40,21,21,105,,124,100,10,12,5,5,0.3,0.4
2025-07-31T2200,3526A,119.5189,25.9664,福州市,吴航,,43,43,37,25,22,100,,116,110,9,11,6,5,0.5,0.6
2025-07-31T2200,1755A,123.7977,41.8491,抚顺市,望花区,,35,35,30,22,16,71,,167,142,33,19,4,6,0.8,0.8
2025-07-31T2200,1756A,123.9161,41.8822,抚顺市,顺城区,,48,48,41,24,16,19,,151,112,50,23,7,5,1.1,0.8
2025-07-31T2200,1757A,124.0436,41.8611,抚顺市,东洲区,,38,,36,26,15,47,,144,124,26,16,8,7,0.9,0.7
2025-07-31T2200,1758A,123.9247,41.8642,抚顺市,新抚区,,41,41,33,23,13,32,,133,92,30,17,4,6,1.2,0.9
2025-07-31T2200,1759A,124.0972,41.8961,抚顺市,大伙房水库,,18,18,23,12,9,29,,140,119,29,10,6,6,0.7,0.7
2025-07-31T2200,1760A,123.7086,41.8391,抚顺市,沈抚新城,,39,39,36,19,19,25,,166,129,37,20,4,7,0.7,0.8
2025-07-31T2200,2376A,116.2127,28.0814,抚州市,桐源党溪,,29,28,29,20,13,48,,88,83,4,6,3,7,0.4,0.5
2025-07-31T2200,2377A,116.3544,27.9831,抚州市,市站,,35,35,25,17,11,67,,102,99,3,3,3,7,0,0.2
2025-07-31T2200,2378A,116.3565,27.963,抚州市,血防站,,29,29,25,16,12,67,,106,103,4,6,5,7,0.3,0.5
2025-07-31T2200,2379A,116.3564,28.0007,抚州市,采茶剧团,,29,29,24,15,12,60,,98,93,2,2,8,7,0.4,0.4
2025-07-31T2200,2380A,116.385,27.9647,抚州市,医学分院,,30,30,30,18,12,67,,101,96,2,2,4,5,0.4,0.5
2025-07-31T2200,2207A,121.6094,41.998,阜新市,工业园区,,33,33,32,12,13,56,,114,104,34,26,12,8,0.4,0.4
2025-07-31T2200,2208A,121.6697,42.0279,阜新市,长青街,,38,34,30,26,17,41,,100,87,27,24,8,11,0.6,0.8
2025-07-31T2200,2209A,121.6673,42.0705,阜新市,农业园区,,32,32,32,12,9,41,,86,62,17,14,5,8,0.6,0.8
2025-07-31T2200,2210A,121.6717,42.0224,阜新市,东苑,细颗粒物(PM2.5),64,61,45,46,18,16,,109,92,51,30,5,10,0.6,1.5
2025-07-31T2200,2211A,121.6506,42.0498,阜新市,玉龙新城,,46,46,37,14,11,5,,94,57,41,21,9,10,1.1,0.8
2025-07-31T2200,2301A,115.8277,32.8929,阜阳市,市监测站,,25,25,30,14,17,74,,100,92,13,16,4,5,0.1,0.3
2025-07-31T2200,2303A,115.8554,32.8605,阜阳市,开发区,,,,31,,13,,,106,103,12,15,6,7,0.3,0.3
2025-07-31T2200,2875A,115.784,32.8892,阜阳市,阜阳职业技术学院,,25,15,20,13,15,80,,104,98,7,11,5,5,0.4,0.4
2025-07-31T2200,3468A,115.7901,32.8613,阜阳市,市规划展馆,,35,35,29,11,17,68,,98,91,10,12,4,5,0.5,0.4
2025-07-31T2200,3469A,115.836,32.9183,阜阳市,枣园社区,,32,32,32,14,17,72,,101,92,13,15,4,4,0.4,0.4
2025-07-31T2200,2669A,102.9099,34.9841,甘南藏族自治州,州政府,,,,38,,17,71,,81,77,14,21,3,4,0.4,0.3
2025-07-31T2200,3380A,102.8914,34.9617,甘南藏族自治州,甘肃民族师范学院,,29,29,48,20,17,72,,92,88,2,20,9,9,0.4,0.6
2025-07-31T2200,2570A,101.9603,30.0475,甘孜藏族自治州,水桥子,,33,25,15,11,8,104,,106,106,9,14,6,6,0.3,0.4
2025-07-31T2200,3065A,101.9533,29.9972,甘孜藏族自治州,州环保局,,32,26,20,10,6,102,,108,106,13,13,6,6,0.6,0.4
2025-07-31T2200,3414A,115.8347,28.932,赣江新区,桑海产业园,,17,17,14,3,5,54,,94,82,8,10,5,6,0.3,0.3
2025-07-31T2200,2362A,114.9017,25.9149,赣州市,通天岩,,32,31,23,22,14,32,,94,58,6,4,15,15,0.7,0.7
2025-07-31T2200,2363A,114.9367,25.8664,赣州市,地委,,32,32,21,17,11,52,,88,73,15,8,4,5,1.0,0.9
2025-07-31T2200,2364A,114.9461,25.8481,赣州市,气象台,,36,36,21,17,8,52,,99,78,12,6,8,8,0.8,0.7
2025-07-31T2200,2365A,114.9322,25.8333,赣州市,市图书馆,,44,44,19,24,12,46,,99,78,14,7,4,4,0.5,0.5
2025-07-31T2200,2366A,114.8905,25.8471,赣州市,华坚鞋城,,36,36,22,15,10,50,,89,68,12,10,6,5,0.5,0.5
2025-07-31T2200,3109A,115.0093,25.8613,赣州市,赣县区卫计委,,32,28,21,22,12,52,,93,71,13,7,4,4,0.5,0.4
2025-07-31T2200,2683A,106.2319,36.1417,固原市,马园,,36,36,69,18,22,110,,112,106,15,20,7,10,0.7,0.6
2025-07-31T2200,2684A,106.2792,36.0022,固原市,监测站,,40,40,45,17,19,73,,122,106,23,9,5,5,0.4,0.4
2025-07-31T2200,2685A,106.2375,36.0211,固原市,新区,,30,23,49,18,20,93,,113,106,12,8,6,6,0.5,0.4
2025-07-31T2200,3522A,106.2177,35.9959,固原市,原州区十五小,,33,33,47,14,22,91,,114,107,13,8,8,8,0.5,0.5
2025-07-31T2200,2543A,106.6308,30.5278,广安市,小平旧居,,,,,,,,,,,,,,,,
2025-07-31T2200,2544A,106.6303,30.4576,广安市,市委,,49,49,35,24,20,104,,133,129,13,13,8,9,0.5,0.4
2025-07-31T2200,2545A,106.6271,30.4663,广安市,友谊中学,,31,31,26,19,17,99,,137,132,15,14,6,8,0.6,0.7
2025-07-31T2200,2547A,106.6388,30.4551,广安市,广电花园,颗粒物(PM10),60,69,40,14,18,97,,131,128,16,13,2,4,0.6,0.6
2025-07-31T2200,2902A,106.6351,30.4865,广安市,北辰小学,,32,32,31,17,16,92,,137,130,14,11,3,5,0.7,0.6
2025-07-31T2200,2523A,105.8945,32.4535,广元市,黑石坡,,38,29,30,26,18,101,,126,118,8,9,7,8,0.4,0.4
2025-07-31T2200,2524A,105.821,32.4444,广元市,老城,,34,12,15,8,6,106,,147,139,19,23,3,8,0.7,0.6
2025-07-31T2200,2526A,105.8628,32.4287,广元市,监测站,,40,40,24,13,12,96,,132,120,10,12,9,11,0.8,0.8
2025-07-31T2200,3617A,105.8047,32.4166,广元市,经开区,,49,38,36,34,21,112,,131,126,10,19,4,6,0.6,0.6
2025-07-31T2200,1345A,113.2347,23.1423,广州市,广雅中学,,36,36,35,20,20,51,,138,103,35,30,4,3,0.4,0.4
2025-07-31T2200,1346A,113.2612,23.105,广州市,市五中,,32,32,28,19,18,45,,123,89,39,26,9,5,0.7,0.6
2025-07-31T2200,1348A,113.3478,23.0916,广州市,广东商学院,,42,42,30,20,20,43,,100,71,46,33,6,3,0.9,0.8
2025-07-31T2200,1349A,113.4332,23.1047,广州市,市八十六中,,39,39,28,24,18,27,,90,60,60,43,3,3,0.5,0.6
2025-07-31T2200,1350A,113.3505,22.9483,广州市,番禺中学,,42,42,28,23,17,37,,86,63,35,25,6,7,0.7,0.5
2025-07-31T2200,1351A,113.2146,23.3916,广州市,花都师范,,35,35,37,13,15,103,,144,136,15,17,4,4,0.6,0.6
2025-07-31T2200,1352A,113.2597,23.1331,广州市,市监测站,,,32,32,16,17,,,132,115,37,28,8,5,0.6,0.5
2025-07-31T2200,1353A,113.5618,23.312,广州市,九龙镇镇龙,,41,41,28,24,18,37,,131,107,59,22,9,6,0.8,0.6
2025-07-31T2200,1354A,113.2765,23.1544,广州市,麓湖,,36,36,27,21,18,41,,128,96,37,28,5,3,0.7,0.6
2025-07-31T2200,1355A,113.443,23.3035,广州市,帽峰山森林公园,,35,35,23,14,10,49,,150,122,45,28,9,6,0.9,0.9
2025-07-31T2200,2846A,113.3221,23.1322,广州市,体育西,颗粒物(PM10),56,62,41,24,18,51,,124,91,46,32,7,4,0.7,0.7
2025-07-31T2200,3298A,113.5717,23.5491,广州市,从化街口,,32,6,17,3,11,102,,117,110,7,10,5,5,0.7,0.7
2025-07-31T2200,3299A,113.3472,23.3692,广州市,白云竹料,,,9,28,9,21,,,148,144,19,14,3,3,0.5,0.5
2025-07-31T2200,3300A,113.2981,23.237,广州市,白云嘉禾,,47,47,32,27,21,51,,141,112,52,31,5,3,0.7,0.6
2025-07-31T2200,3301A,113.4256,23.1716,广州市,黄埔科学城,,40,40,34,21,22,30,,116,87,44,28,3,3,0.6,0.6
2025-07-31T2200,3302A,113.3942,23.0483,广州市,番禺大学城,,35,35,32,19,17,45,,92,68,40,30,9,9,0.7,0.6
2025-07-31T2200,3303A,113.4922,22.8168,广州市,南沙黄阁,,45,45,36,21,16,21,,87,64,52,28,5,5,0.7,0.6
2025-07-31T2200,3304A,113.5342,22.7896,广州市,南沙街,,31,31,25,14,14,30,,99,69,15,15,4,4,0.6,0.5
2025-07-31T2200,3443A,113.2902,23.5544,广州市,花都梯面,,21,12,17,7,11,65,,119,108,20,12,5,5,0.6,0.6
2025-07-31T2200,3445A,113.7858,23.7478,广州市,从化良口,,23,8,9,3,7,72,,91,87,16,8,4,4,0.5,0.6
2025-07-31T2200,3446A,113.8051,23.2614,广州市,增城荔城,,36,,25,25,21,42,,116,103,39,17,8,7,0.8,0.3
2025-07-31T2200,2505A,109.568,23.1478,贵港市,德智高中,,,,,,,,,,,,,,,,
2025-07-31T2200,2506A,109.6047,23.0666,贵港市,江南子站,,42,,38,29,31,63,,126,110,6,15,6,7,0.5,0.8
2025-07-31T2200,2508A,109.5669,23.1065,贵港市,荷城子站,,29,29,28,17,16,59,,118,104,10,10,8,8,0.4,0.5
2025-07-31T2200,3405A,109.5886,23.1172,贵港市,新世纪学校,,31,31,27,20,19,62,,124,112,11,10,2,2,0.5,0.5
2025-07-31T2200,4260A,109.5933,23.0951,贵港市,中山路155-3号,,32,25,33,22,23,59,,137,119,15,11,4,5,0.6,0.6
2025-07-31T2200,1439A,106.6899,26.5998,贵阳市,马鞍山,,22,22,15,9,4,47,,88,80,14,9,2,2,0.7,0.6
2025-07-31T2200,1441A,106.6243,26.6266,贵阳市,鉴湖路,,39,39,29,12,5,91,,85,85,19,12,6,6,0.0,0.2
2025-07-31T2200,1442A,106.7487,26.6343,贵阳市,燕子冲,,42,,16,29,18,72,,100,97,15,13,9,9,0.3,0.3
2025-07-31T2200,1443A,106.6555,26.4365,贵阳市,碧云窝,,31,31,31,9,9,53,,106,92,15,17,7,5,0.2,0.1
2025-07-31T2200,1445A,106.7109,26.6027,贵阳市,红边门,,32,27,19,22,11,78,,98,94,18,14,7,7,0.2,0.2
2025-07-31T2200,1446A,106.7164,26.5699,贵阳市,新华路,,36,36,27,17,13,61,,100,94,25,13,8,18,0.2,0.4
2025-07-31T2200,1447A,106.674,26.5424,贵阳市,太慈桥,,20,19,16,14,7,43,,110,93,25,14,3,3,0.2,0.2
2025-07-31T2200,1552A,106.805,26.3003,贵阳市,桐木岭,,32,27,30,22,18,68,,93,90,6,6,7,7,0.7,0.8
2025-07-31T2200,4230A,106.6882,26.5695,贵阳市,花果园大街66号,,29,29,12,19,14,59,,101,94,29,13,4,4,0.5,0.4
2025-07-31T2200,4231A,106.6873,26.5169,贵阳市,漓江路57号,,25,22,21,17,11,54,,109,97,17,12,5,3,0.4,0.4
2025-07-31T2200,1862A,110.4144,25.3167,桂林市,电子科大尧山校区,,,,,,,,,,,,,,,,
2025-07-31T2200,1864A,110.3089,25.2708,桂林市,龙隐路小学,,28,13,18,9,11,88,,101,96,8,8,9,10,0.2,0.2
2025-07-31T2200,1865A,110.2869,25.2178,桂林市,八中,,28,15,20,7,10,88,,110,102,8,9,6,7,0.4,0.4
2025-07-31T2200,3531A,110.296,25.1253,桂林市,旅游学院,,,,16,7,12,,,126,126,4,7,5,6,0.2,0.3
2025-07-31T2200,4222A,110.1835,25.2444,桂林市,环湖路276号,,26,9,28,7,18,81,,110,96,7,10,5,33,0.3,0.4
2025-07-31T2200,4301A,110.2803,25.2773,桂林市,信义路13号,,28,14,22,3,11,87,,111,103,8,9,5,5,0.4,0.5
2025-07-31T2200,2674A,100.2561,34.4714,果洛藏族自治州,玛沁县大武镇,,30,30,31,8,14,96,,104,99,2,8,14,11,0.2,0.2
2025-07-31T2200,1129A,126.5422,45.755,哈尔滨市,岭北,,24,24,14,14,8,70,,97,91,32,14,12,9,0.6,0.4
2025-07-31T2200,1130A,126.561,45.8167,哈尔滨市,松北商大,,19,19,18,7,5,40,,71,60,25,12,7,6,0.5,0.4
2025-07-31T2200,1131A,126.979,45.5419,哈尔滨市,阿城会宁,颗粒物(PM10),51,52,18,25,9,14,,92,73,43,12,4,6,0.6,0.5
2025-07-31T2200,1132A,126.599,45.7222,哈尔滨市,南岗学府路,,48,48,22,10,4,18,,76,65,51,17,7,9,0.8,0.6
2025-07-31T2200,1133A,126.689,45.7733,哈尔滨市,太平宏伟公园,,27,27,17,10,7,50,,74,68,28,14,7,7,0.5,0.6
2025-07-31T2200,1134A,126.635,45.7667,哈尔滨市,道外承德广场,,41,41,29,11,10,33,,62,55,40,19,8,8,0.8,0.8
2025-07-31T2200,1135A,126.685,45.7319,哈尔滨市,香坊红旗大街,颗粒物(PM10),51,51,22,25,10,38,,74,63,46,25,11,10,0.8,0.6
2025-07-31T2200,1136A,126.6411,45.7258,哈尔滨市,动力和平路,,,47,20,,7,27,,79,67,56,21,6,7,0.6,0.5
2025-07-31T2200,1137A,126.593,45.7478,哈尔滨市,道里建国路,颗粒物(PM10),98,145,30,10,17,40,,75,67,39,18,6,6,2.0,1
2025-07-31T2200,1138A,126.615,45.61,哈尔滨市,平房东轻厂,,20,18,18,8,7,61,,76,71,20,16,6,6,0.5,0.4
2025-07-31T2200,1139A,126.595,45.9855,哈尔滨市,呼兰师专,,38,38,35,3,4,44,,76,63,31,12,8,8,0.7,0.9
2025-07-31T2200,1140A,126.6206,45.6842,哈尔滨市,省农科院,颗粒物(PM10),97,143,41,28,12,4,,63,43,129,36,13,11,0.6,0.4
2025-07-31T2200,2688A,93.5128,42.8172,哈密市,地区监测站,细颗粒物(PM2.5),107,,49,80,33,97,,132,127,13,16,4,4,0.7,0.2
2025-07-31T2200,2689A,93.4961,42.8328,哈密市,哈密师范学校,,43,43,52,19,27,96,,125,111,15,26,4,6,0.3,0.4
2025-07-31T2200,2671A,100.9048,36.9639,海北藏族自治州,海晏县西海镇,,43,43,73,30,34,98,,112,110,3,5,6,11,0.5,0.6
2025-07-31T2200,3867A,102.0738,36.5056,海东市,平安区公安北苑,细颗粒物(PM2.5),53,49,131,37,59,96,,102,100,2,3,11,16,0.6,0.6
2025-07-31T2200,1409A,110.576,19.9507,海口市,东寨港,,11,8,18,7,9,33,,72,64,8,5,9,8,0.4,0.4
2025-07-31T2200,1410A,110.3232,20.0574,海口市,海南大学,,21,21,19,10,9,48,,80,72,11,8,3,3,0.3,0.4
2025-07-31T2200,1411A,110.283,20.0053,海口市,秀英海南医院,,22,22,21,14,9,28,,78,62,35,12,5,6,0.3,0.3
2025-07-31T2200,1412A,110.338,19.9969,海口市,海南师范大学,,19,19,20,11,7,43,,87,76,19,8,3,4,0.5,0.5
2025-07-31T2200,1413A,110.33,20.0356,海口市,龙华路环保局宿舍,,20,20,18,9,8,52,,81,74,11,8,6,6,0.2,0.2
2025-07-31T2200,3539A,110.5111,19.9736,海口市,桂林洋子站,,21,21,24,7,11,31,,82,70,18,10,4,4,0.3,0.3
2025-07-31T2200,2673A,100.6188,36.2866,海南藏族自治州,共和县恰卜恰镇,颗粒物(PM10),66,82,36,40,19,83,,122,111,13,10,15,11,0.7,0.6
2025-07-31T2200,2676A,97.3731,37.3753,海西蒙古族藏族自治州,德令哈市,颗粒物(PM10),56,61,166,31,62,68,,118,113,30,4,22,20,0.6,0.6
2025-07-31T2200,1048A,114.5302,36.6116,邯郸市,东污水处理厂,,38,38,34,3,4,114,,140,135,11,7,5,5,0.3,0.4
2025-07-31T2200,1049A,114.4918,36.5713,邯郸市,矿院,,41,22,22,3,7,129,,146,143,7,6,5,5,0.3,0.4
2025-07-31T2200,1050A,114.484,36.6133,邯郸市,丛台公园,,42,23,23,6,8,132,,150,147,10,8,5,5,0.3,0.4
2025-07-31T2200,3458A,114.7895,36.5593,邯郸市,香泉濮院小区,,35,20,41,3,4,110,,130,125,10,8,2,3,0.2,0.3
2025-07-31T2200,3579A,114.50634,36.77178,邯郸市,永年区实验高中,,45,45,42,18,20,114,,139,133,18,13,5,4,0.4,0.3
2025-07-31T2200,3580A,114.20016,36.44293,邯郸市,峰峰矿区临水派出所,,42,34,38,3,3,134,,152,144,8,8,3,4,0.2,0.3
2025-07-31T2200,2634A,106.9893,33.1842,汉中市,汉川机床厂子校,,27,27,22,13,13,84,,118,104,10,7,3,3,0.4,0.4
2025-07-31T2200,2635A,107.0154,33.0706,汉中市,市监测站,,29,25,28,20,16,82,,116,102,7,6,6,6,0.4,0.4
2025-07-31T2200,2636A,107.0089,33.1138,汉中市,鑫源开发区,,26,,25,18,14,54,,107,91,15,7,6,6,0.5,0.4
2025-07-31T2200,2637A,107.007,33.0323,汉中市,南郑大河坎水厂,,29,28,25,20,17,62,,114,94,11,11,8,8,0.5,0.5
2025-07-31T2200,1223A,120.2072,30.2111,杭州市,滨江,,16,16,12,3,5,43,,63,55,17,13,6,6,0.6,0.5
2025-07-31T2200,1224A,120.0633,30.2747,杭州市,西溪,,12,12,6,8,3,21,,44,38,13,10,4,4,0.4,0.4
2025-07-31T2200,1226A,120.3417,30.3150,杭州市,下沙,,13,12,9,7,4,40,,68,54,18,14,4,4,0.4,0.4
2025-07-31T2200,1227A,120.1269,30.2456,杭州市,卧龙桥,,12,12,8,8,4,14,,48,35,8,4,7,7,0.4,0.3
2025-07-31T2200,1228A,120.1903,30.2692,杭州市,浙江农大,,19,19,13,10,5,41,,54,48,16,15,4,4,0.3,0.3
2025-07-31T2200,1230A,120.1197,30.3119,杭州市,和睦小学,,13,13,8,8,7,36,,50,47,13,8,4,4,0.5,0.4
2025-07-31T2200,1231A,120.3019,30.4183,杭州市,临平镇,,19,19,16,9,4,44,,59,52,12,10,5,5,0.3,0.3
2025-07-31T2200,1232A,120.2753,30.1839,杭州市,城厢镇,,15,15,13,10,8,36,,65,51,9,6,5,5,0.5,0.5
2025-07-31T2200,1233A,120.0883,30.1808,杭州市,云栖,,19,19,11,3,3,38,,47,38,9,9,8,8,0.5,0.4
2025-07-31T2200,3557A,119.9464,30.0494,杭州市,镇二中,,23,19,11,16,10,44,,54,51,11,7,4,4,0.3,0.5
2025-07-31T2200,3558A,119.7183,30.2367,杭州市,市府大楼,,13,13,7,7,5,36,,42,42,7,7,6,6,0.3,0.3
2025-07-31T2200,3656A,120.1556,30.2864,杭州市,消防大队,,13,11,7,7,4,39,,50,46,13,12,6,6,0.4,0.4
2025-07-31T2200,1270A,117.1959,31.7848,合肥市,明珠广场,,17,,11,7,11,53,,67,66,9,11,5,5,0.4,0.4
2025-07-31T2200,1271A,117.3072,31.8764,合肥市,三里街,,17,,13,3,9,54,,61,61,7,9,5,5,0.4,0.4
2025-07-31T2200,1272A,117.2588,31.8707,合肥市,琥珀山庄,,18,6,16,3,15,55,,64,63,8,10,7,7,0.6,0.5
2025-07-31T2200,1273A,117.1604,31.9052,合肥市,董铺水库,,17,7,17,3,11,52,,63,62,4,7,3,3,0.3,0.3
2025-07-31T2200,1274A,117.25,31.8571,合肥市,长江中路,,18,6,16,3,9,56,,66,65,6,9,5,6,0.5,0.4
2025-07-31T2200,1275A,117.266,31.9436,合肥市,庐阳区,,20,,14,7,9,62,,68,68,3,5,8,8,0.5,0.5
2025-07-31T2200,1276A,117.3453,31.8616,合肥市,瑶海区,,16,,11,3,8,49,,60,60,11,10,6,6,0.5,0.4
2025-07-31T2200,1277A,117.3027,31.7964,合肥市,包河区,,15,,13,7,10,48,,59,58,17,16,6,6,0.6,0.5
2025-07-31T2200,1278A,117.2776,31.7385,合肥市,滨湖新区,,16,,15,9,15,49,,65,64,13,12,8,8,0.4,0.4
2025-07-31T2200,1279A,117.1318,31.8403,合肥市,高新区,,19,7,16,3,11,60,,71,70,8,13,5,5,0.4,0.4
2025-07-31T2200,3464A,117.3803,31.9147,合肥市,高教基地,,26,,17,18,13,52,,57,57,7,9,6,6,0.4,0.4
2025-07-31T2200,3614A,79.924,37.0877,和田地区,地区环保局,颗粒物(PM10),139,227,646,85,163,64,,96,89,14,11,2,3,,0.4
2025-07-31T2200,3615A,79.9131,37.113,和田地区,市环保局,颗粒物(PM10),134,218,555,71,139,45,,96,82,29,13,1,3,0.1,0
2025-07-31T2200,2516A,108.2011,24.715,河池市,东仁乐园,,,,,,,,,,,,,,,,
2025-07-31T2200,2517A,108.0497,24.6947,河池市,市环保站,,20,12,20,11,11,62,,96,83,10,7,3,4,0.5,0.5
2025-07-31T2200,2518A,108.0983,24.6989,河池市,市疾控中心,,28,28,23,15,15,44,,106,86,20,13,4,5,0.6,0.6
2025-07-31T2200,1696A,114.6778,23.7569,河源市,源西,,26,18,18,7,11,82,,101,95,4,5,9,8,0.5,0.5
2025-07-31T2200,1697A,114.6944,23.7586,河源市,东埔,,,,18,11,14,85,,99,95,,10,4,4,0.5,0.5
2025-07-31T2200,1698A,114.6892,23.7233,河源市,老城,,27,16,19,15,21,86,,99,94,5,8,4,4,0.5,0.5
2025-07-31T2200,1718A,115.4208,35.2464,菏泽市,气象局,,49,49,40,29,24,143,,163,161,11,10,4,4,0.4,0.4
2025-07-31T2200,3374A,115.5564,35.0891,菏泽市,定陶老年大学,颗粒物(PM10),51,51,40,27,19,117,,153,141,16,14,1,2,0.4,0.4
2025-07-31T2200,4184A,115.4797,35.24401,菏泽市,永昌路1号,颗粒物(PM10),51,51,38,35,25,131,,162,159,13,13,6,6,0.1,0.2
2025-07-31T2200,4193A,115.4715,35.2800,菏泽市,长城路999号,,44,44,37,29,20,138,,163,159,14,13,4,4,0.4,0.4
2025-07-31T2200,2514A,111.5264,24.4172,贺州市,环保小区,,,,17,,13,,,88,84,18,9,11,10,0.8,1
2025-07-31T2200,2515A,111.5608,24.4078,贺州市,政协大楼,,29,29,13,8,8,50,,97,83,16,6,12,10,0.7,0.6
2025-07-31T2200,3534A,111.4744,24.4553,贺州市,西湾,,31,31,15,19,11,29,,83,67,22,8,9,8,0.6,0.6
2025-07-31T2200,2385A,114.17,35.9019,鹤壁市,市监测站,,35,35,38,11,29,102,,136,125,12,9,8,7,0.5,0.6
2025-07-31T2200,2386A,114.2956,35.7511,鹤壁市,市交警支队,,39,37,30,27,22,89,,127,116,14,12,6,5,0.8,0.5
2025-07-31T2200,2387A,114.2878,35.7306,鹤壁市,迎宾馆,,32,32,35,21,22,93,,125,118,15,12,6,4,0.6,0.7
2025-07-31T2200,3474A,114.2617,35.6822,鹤壁市,大新区,,33,21,34,11,17,104,,131,126,7,6,7,7,0.5,0.6
2025-07-31T2200,3596A,114.1572,35.9603,鹤壁市,南山宾馆,,41,41,43,17,21,114,,154,140,10,8,4,5,0.6,0.7
2025-07-31T2200,2244A,130.2537,47.3416,鹤岗市,哈啤分公司,,28,28,19,9,9,38,,94,72,12,13,12,12,0.7,0.7
2025-07-31T2200,2245A,130.2684,47.3086,鹤岗市,斯达机电,,24,24,24,12,10,48,,84,70,12,12,12,12,0.5,0.5
2025-07-31T2200,2246A,130.3114,47.3388,鹤岗市,东山纸板厂,,17,12,18,11,9,13,,96,68,33,20,13,13,0.6,0.9
2025-07-31T2200,2247A,130.1097,47.3382,鹤岗市,五号水库,,12,8,7,3,5,36,,82,58,9,16,10,10,0.1,0.2
2025-07-31T2200,2263A,127.4833,50.2524,黑河市,交通局,,22,22,16,3,7,36,,46,40,6,8,6,7,0.4,0.4
2025-07-31T2200,2264A,127.5144,50.2341,黑河市,环保局,,19,17,16,13,8,34,,48,40,7,9,4,6,0.3,0.2
2025-07-31T2200,2265A,127.5291,50.2472,黑河市,大黑河岛,,,,3,9,6,38,,43,39,3,5,26,27,,
2025-07-31T2200,1074A,115.6838,37.7541,衡水市,电机北厂,,38,36,30,19,14,120,,146,141,14,9,6,7,0.3,0.4
2025-07-31T2200,1075A,115.6303,37.7316,衡水市,市监测站,,49,49,28,13,8,114,,150,144,17,6,6,6,0.4,0.4
2025-07-31T2200,3188A,115.6683,37.7217,衡水市,市城管局,,40,35,29,12,15,127,,147,145,11,8,7,8,0.3,0.4
2025-07-31T2200,3459A,115.5989,37.5491,衡水市,地表水厂,,44,44,33,3,5,112,,141,136,21,12,9,9,0.2,0.3
2025-07-31T2200,2456A,112.5003,26.9167,衡阳市,原169医院,,25,24,23,12,9,78,,112,98,7,7,4,6,0.5,0.5
2025-07-31T2200,2457A,112.6194,26.9258,衡阳市,衡阳化工总厂,,30,,25,21,14,95,,109,99,11,8,3,3,0.8,0.8
2025-07-31T2200,2458A,112.6211,26.8956,衡阳市,珠晖区环保局,,31,18,24,14,12,99,,116,106,22,11,5,7,0.5,0.5
2025-07-31T2200,2459A,112.6197,26.8733,衡阳市,市委党校,,33,19,19,14,14,104,,112,106,11,11,7,8,0.4,0.7
2025-07-31T2200,2460A,112.6006,26.8919,衡阳市,市监测站,,31,,23,14,14,99,,111,103,10,9,3,3,0.6,0.6
2025-07-31T2200,2461A,112.5664,26.9056,衡阳市,真空机电公司,,,,27,16,12,87,,110,100,11,6,7,5,0.9,0.8
2025-07-31T2200,3399A,112.6703,26.882,衡阳市,师范学院,,35,15,25,12,11,112,,113,110,8,9,6,7,0.7,0.8
2025-07-31T2200,2608A,103.3772,23.3993,红河哈尼族彝族自治州,污水处理厂,,,19,19,3,18,,,104,,8,8,18,14,0.1,0.2
2025-07-31T2200,2609A,103.3861,23.35,红河哈尼族彝族自治州,监测站,,26,26,24,9,13,65,,98,88,8,5,27,18,0.1,0.2
2025-07-31T2200,3038A,103.3758,23.368,红河哈尼族彝族自治州,州图书馆,,21,14,15,13,18,67,,98,89,8,7,16,7,0.3,0.3
2025-07-31T2200,1090A,111.6507,40.7517,呼和浩特市,呼市一监,,34,34,28,21,13,92,,114,114,15,18,8,8,0.6,0.6
2025-07-31T2200,1091A,111.6572,40.8033,呼和浩特市,小召,,33,31,33,22,16,105,,123,123,24,27,8,9,0.6,0.6
2025-07-31T2200,1094A,111.7516,40.8369,呼和浩特市,如意水处理厂,,46,46,38,22,17,92,,134,130,27,25,5,6,0.6,0.4
2025-07-31T2200,1095A,111.7276,40.8062,呼和浩特市,二十九中,,39,29,35,19,18,123,,138,138,12,19,6,6,0.6,0.6
2025-07-31T2200,1096A,111.5512,40.7866,呼和浩特市,工大金川校区,颗粒物(PM10),51,52,39,23,15,67,,123,117,35,26,5,6,0.7,0.6
2025-07-31T2200,1097A,111.717,40.7612,呼和浩特市,化肥厂生活区,颗粒物(PM10),54,57,35,29,14,92,,129,128,25,20,8,8,0.6,0.6
2025-07-31T2200,3698A,111.5968,40.8178,呼和浩特市,红旗小学,颗粒物(PM10),52,53,38,26,15,67,,136,129,44,25,4,5,0.6,0.6
2025-07-31T2200,3699A,111.6518,40.8389,呼和浩特市,海东办,,48,48,37,23,16,74,,142,136,46,30,5,6,0.7,0.7
2025-07-31T2200,2192A,119.7594,49.2261,呼伦贝尔市,区环保局,,44,44,24,26,13,18,,52,38,32,16,7,6,0.4,0.3
2025-07-31T2200,3061A,119.7512,49.1577,呼伦贝尔市,国华电力东,,33,33,18,16,9,33,,56,49,12,6,4,5,0.3,0.3
2025-07-31T2200,1250A,120.0751,30.8669,湖州市,城西水厂,,14,14,10,9,5,42,,52,52,10,9,6,6,0.4,0.4
2025-07-31T2200,2873A,120.0830,30.8929,湖州市,仁皇山新区,,13,13,9,8,5,36,,44,43,8,9,4,3,0.5,0.5
2025-07-31T2200,2907A,120.1844,30.8596,湖州市,吴兴区站,,,25,10,13,6,,,44,44,17,8,6,6,0.5,0.5
2025-07-31T2200,3562A,120.4148,30.8538,湖州市,南浔区站,,29,24,12,20,9,24,,54,45,25,11,6,6,0.5,0.5
2025-07-31T2200,1607A,120.9049,40.7211,葫芦岛市,龙港区,,28,28,43,10,18,63,,151,95,29,28,4,16,0.6,0.8
2025-07-31T2200,1608A,120.8392,40.7514,葫芦岛市,化工街,,39,34,37,9,17,26,,120,90,77,38,8,31,0.4,0.5
2025-07-31T2200,1609A,120.8341,40.7073,葫芦岛市,新区,,36,36,34,12,16,37,,133,101,61,34,4,9,0.7,0.9
2025-07-31T2200,1610A,120.8695,40.7677,葫芦岛市,东城区,,42,35,42,16,18,23,,121,83,83,38,5,19,0.7,0.8
2025-07-31T2200,2482A,109.5981,27.5721,怀化市,林科所,,26,24,24,18,9,55,,87,82,8,8,4,5,0.2,0.3
2025-07-31T2200,2483A,109.9453,27.5444,怀化市,河西地税局,,41,41,26,19,16,37,,85,75,14,9,3,3,0.3,0.3
2025-07-31T2200,2484A,109.9781,27.5342,怀化市,市四医院,,26,26,37,14,20,52,,83,77,11,11,5,7,0.0,0.2
2025-07-31T2200,2485A,109.9972,27.5578,怀化市,监测楼,,27,27,29,16,17,67,,84,80,5,9,3,4,0.1,0.2
2025-07-31T2200,2486A,110.0394,27.583,怀化市,市委党校,,35,34,27,24,20,38,,92,79,24,11,13,10,0.2,0.2
2025-07-31T2200,1210A,119.036,33.5981,淮安市,钵池山,,19,,9,9,10,60,,72,69,6,6,6,7,0.6,0.6
2025-07-31T2200,1211A,119.007,33.575,淮安市,北京南路,,18,,11,8,10,57,,71,68,7,6,6,7,0.5,0.4
2025-07-31T2200,1212A,118.989,33.6067,淮安市,市监测站,,21,,11,9,10,66,,77,74,4,4,7,8,0.6,0.6
2025-07-31T2200,1213A,119.135,33.5039,淮安市,楚州区监测站,,18,12,17,7,9,55,,69,66,4,2,7,7,0.4,0.4
2025-07-31T2200,3426A,118.8755,33.2894,淮安市,新华书店,,20,8,9,8,11,62,,70,70,8,10,7,8,0.4,0.4
2025-07-31T2200,4206A,119.0288,33.6319,淮安市,承德北路606号,,19,6,12,3,8,60,,68,65,5,6,5,5,0.5,0.5
2025-07-31T2200,2282A,116.8004,33.975,淮北市,监测站,,18,15,25,12,12,57,,93,86,9,9,8,8,0.7,0.7
2025-07-31T2200,2283A,116.8091,33.9007,淮北市,烈山区政府,,37,37,33,10,9,50,,80,74,8,8,7,8,0.5,0.5
2025-07-31T2200,3330A,116.8873,33.9836,淮北市,杜集区检察院,,23,21,28,16,16,52,,89,82,12,10,7,8,0.7,0.7
2025-07-31T2200,4017A,116.7923,33.9535,淮北市,市博物馆,,23,21,25,16,14,59,,95,88,9,9,9,10,0.5,0.5
2025-07-31T2200,2277A,116.8305,32.7727,淮南市,潘集区政府,,17,16,24,8,13,53,,74,70,13,11,2,3,0.3,0.4
2025-07-31T2200,2279A,116.8569,32.5951,淮南市,谢家集区政府,,17,16,20,3,9,54,,74,71,8,8,10,8,0.2,0.2
2025-07-31T2200,2280A,116.8281,32.633,淮南市,八公山区政府,,17,12,21,3,11,53,,72,69,8,10,3,6,0.2,0.2
2025-07-31T2200,2281A,116.6325,32.6201,淮南市,焦岗湖风景区管理处,,,,,,,,,,,,,,,,
2025-07-31T2200,2894A,117.0566,32.6531,淮南市,经济技术开发区消防队,,16,,15,7,5,50,,67,65,10,10,8,8,0.1,0.2
2025-07-31T2200,3329A,117.0108,32.5893,淮南市,山南新区,,17,7,6,6,5,53,,69,67,8,8,9,10,0.5,0.5
2025-07-31T2200,4209A,117.0031,32.6445,淮南市,国庆中路369号,,19,19,23,10,17,48,,68,66,9,8,13,14,0.2,0.3
2025-07-31T2200,2446A,114.9028,30.4742,黄冈市,职工中心,,33,33,25,23,14,102,,119,119,9,4,7,8,0.6,0.5
2025-07-31T2200,2929A,114.8858,30.4519,黄冈市,红卫路,,32,26,22,17,16,102,,115,115,5,5,8,8,0.5,0.4
2025-07-31T2200,3398A,114.9136,30.4445,黄冈市,市林业局,,37,26,25,16,13,116,,123,123,8,8,6,7,0.5,0.5
2025-07-31T2200,2672A,102.0199,35.5102,黄南藏族自治州,同仁县隆务镇,,,81,54,32,17,,,80,79,11,13,7,8,0.2,0.2
2025-07-31T2200,2295A,118.2903,29.6963,黄山市,延安路89号,,24,24,11,3,5,6,,33,26,10,5,3,3,0.5,0.4
2025-07-31T2200,2297A,118.1371,30.2756,黄山市,黄山区政府5号楼,,20,14,7,8,5,64,,49,49,2,3,4,4,0.3,0.3
2025-07-31T2200,4210A,118.3354,29.7203,黄山市,滨江东路7-2号,,30,30,16,16,7,15,,33,28,7,5,2,2,0.4,0.4
2025-07-31T2200,2423A,115.0601,30.2313,黄石市,沈家营,,26,18,30,6,6,81,,94,88,1,6,6,8,0.4,0.5
2025-07-31T2200,2426A,114.8988,30.2019,黄石市,铁山,,27,27,29,9,8,52,,92,87,11,8,6,8,0.3,0.3
2025-07-31T2200,2427A,115.0307,30.2092,黄石市,团城山,,26,26,23,3,3,82,,98,95,5,5,7,7,0.4,0.3
2025-07-31T2200,3149A,115.0235,30.1578,黄石市,笔架山北路,,30,30,22,13,5,53,,96,87,15,9,7,8,0.4,0.4
2025-07-31T2200,4185A,115.0780,30.21118,黄石市,磁湖东路29号,,28,28,26,10,9,67,,94,81,3,4,6,8,0.2,0.3
2025-07-31T2200,1392A,114.4183,23.0528,惠州市,河南岸金山湖子站,,38,38,21,26,14,66,,114,106,20,13,7,7,0.8,0.7
2025-07-31T2200,1393A,114.4053,23.0822,惠州市,下埔横江三路子站,,45,42,20,31,15,81,,121,115,20,10,4,4,0.5,0.5
2025-07-31T2200,1394A,114.4103,23.1142,惠州市,江北云山西路子站,,38,38,18,26,13,83,,130,124,24,14,8,7,0.7,0.6
2025-07-31T2200,1395A,114.4645,22.7833,惠州市,惠阳区承修路船湖子站,,22,22,23,12,15,61,,124,112,16,14,7,6,0.5,0.5
2025-07-31T2200,1396A,114.5317,22.7422,惠州市,大亚湾管委会子站,,20,20,20,11,13,64,,110,101,10,12,7,7,0.5,0.5
2025-07-31T2200,3314A,114.4338,22.8134,惠州市,惠阳秋长,,29,29,22,15,16,59,,121,109,21,16,6,10,0.5,0.5
2025-07-31T2200,3452A,114.6517,22.775,惠州市,大亚湾霞涌,,21,17,19,10,10,66,,106,97,16,12,6,5,0.6,0.7
2025-07-31T2200,2240A,130.9762,45.3001,鸡西市,环保局,,22,22,16,10,6,43,,94,76,23,10,2,3,0.3,0.2
2025-07-31T2200,2243A,130.9429,45.3039,鸡西市,第一中学,,23,23,13,11,8,51,,92,80,27,11,11,10,0.3,0.2
2025-07-31T2200,3707A,131.0207,45.3073,鸡西市,欧美日汽修厂,,49,49,22,13,12,13,,91,62,35,16,8,9,0.5,0.4
2025-07-31T2200,3709A,130.9967,45.3106,鸡西市,市政设施管理处,,42,42,16,23,7,30,,97,73,34,17,6,6,0.4,0.3
2025-07-31T2200,2367A,114.9754,27.0803,吉安市,红声器材厂,,28,28,31,11,13,54,,120,86,5,6,8,8,0.5,0.5
2025-07-31T2200,2368A,114.9658,27.0999,吉安市,市森林工业局,,22,22,26,11,12,63,,113,90,3,4,8,9,0.8,0.5
2025-07-31T2200,2369A,114.99,27.1312,吉安市,市环境监测站,,29,29,24,16,11,63,,117,91,3,3,11,12,0.4,0.5
2025-07-31T2200,2370A,115.0093,27.0968,吉安市,青原区法院,,25,25,31,11,14,60,,115,90,6,9,6,7,0.6,0.7
2025-07-31T2200,1772A,126.54,43.8622,吉林市,哈达湾,,23,23,15,9,7,23,,85,68,25,12,7,6,0.5,0.4
2025-07-31T2200,1773A,126.5844,43.8358,吉林市,东局子,,,,16,,5,,,80,65,13,8,5,6,0.6,0.3
2025-07-31T2200,1774A,126.5052,43.8245,吉林市,电力学院,,50,50,19,21,8,10,,83,58,28,12,5,5,0.4,0.3
2025-07-31T2200,1775A,126.6133,43.8972,吉林市,江北,,36,27,19,25,7,19,,95,71,18,7,4,4,0.9,0.7
2025-07-31T2200,1776A,126.555,43.8306,吉林市,江南公园,,22,22,15,6,8,30,,86,67,16,12,2,2,0.3,0.4
2025-07-31T2200,1778A,126.7061,43.7133,吉林市,丰满,,15,12,10,9,7,47,,75,61,4,4,4,4,0.5,0.5
2025-07-31T2200,2868A,126.4739,43.953,吉林市,九站,,34,34,15,12,7,6,,88,68,53,14,10,3,0.5,0.4
2025-07-31T2200,1299A,116.9862,36.6114,济南市,科干所,,46,36,36,32,29,92,,151,137,22,15,8,6,0.5,0.5
2025-07-31T2200,1300A,116.9376,36.665,济南市,农科所,,42,42,41,20,24,88,,148,133,26,19,9,9,0.3,0.4
2025-07-31T2200,1301A,117.1265,36.6734,济南市,开发区,,46,46,40,27,26,72,,142,124,32,20,10,8,0.7,0.7
2025-07-31T2200,1303A,117.0624,36.6868,济南市,省种子仓库,颗粒物(PM10),51,51,48,27,23,93,,161,145,24,20,10,8,0.6,0.6
2025-07-31T2200,1304A,116.9489,36.6447,济南市,机床二厂,,49,49,43,17,22,89,,156,141,23,19,13,10,0.4,0.4
2025-07-31T2200,1305A,117.0495,36.663,济南市,市监测站,,46,46,43,29,25,79,,145,128,24,21,11,10,0.6,0.6
2025-07-31T2200,1306A,116.7675,36.5484,济南市,长清党校,,49,49,43,29,27,88,,153,138,29,19,7,6,0.5,0.5
2025-07-31T2200,1616A,117.6795,36.229,济南市,技术学院,,23,9,24,9,16,73,,82,77,13,13,6,7,0.4,0.6
2025-07-31T2200,1961A,117.532,36.6868,济南市,东山小学,,44,44,40,12,21,56,,140,112,32,17,8,6,0.3,0.3
2025-07-31T2200,3059A,117.7161,36.2049,济南市,泰兴公司,,20,12,24,12,16,62,,73,67,10,10,8,8,0.4,0.4
2025-07-31T2200,3064A,117.6867,36.2171,济南市,莱芜战役纪念馆,,20,17,28,12,20,63,,74,69,12,12,3,4,0.7,0.7
2025-07-31T2200,3494A,117.1673,36.9782,济南市,济阳区政府,,39,39,36,20,19,82,,129,123,14,9,8,7,0.3,0.3
2025-07-31T2200,3495A,117.1171,36.63,济南市,锦屏中学,,34,34,37,12,20,99,,160,147,18,12,7,6,0.8,0.8
2025-07-31T2200,3682A,116.9814,36.6819,济南市,济南四建,,,44,41,29,27,,,149,142,22,19,9,7,,0.6
2025-07-31T2200,1653A,116.6251,35.4302,济宁市,火炬城,,25,25,36,3,18,55,,110,91,9,13,5,5,0.4,0.6
2025-07-31T2200,1655A,116.5491,35.4042,济宁市,电化厂,,23,23,36,9,17,66,,116,96,7,10,2,4,0.5,0.6
2025-07-31T2200,3500A,116.5814,35.3707,济宁市,北湖一中,,23,23,34,11,18,66,,119,93,7,10,2,3,0.2,0.3
2025-07-31T2200,3501A,116.8249,35.5593,济宁市,服务中心,,25,25,34,3,14,54,,107,86,13,14,3,2,0.3,0.4
2025-07-31T2200,3678A,116.5907,35.4054,济宁市,市第七中学,,19,17,34,3,12,59,,109,88,9,10,4,4,0.3,0.4
2025-07-31T2200,2255A,130.2751,46.8028,佳木斯市,佳纺,,24,24,16,11,8,35,,83,60,28,13,8,8,0.5,0.5
2025-07-31T2200,2256A,130.3995,46.8307,佳木斯市,发电厂,,20,20,14,10,7,64,,88,77,16,12,6,6,0.3,0.4
2025-07-31T2200,2257A,130.3258,46.7975,佳木斯市,环保局,,20,20,15,11,8,40,,85,69,30,12,10,10,0.5,0.4
2025-07-31T2200,2258A,130.3648,46.8032,佳木斯市,十一中,,24,24,19,12,10,57,,83,69,17,13,9,6,0.5,0.4
2025-07-31T2200,2259A,130.3794,46.7588,佳木斯市,四丰,,,,,,,,,,,18,10,,9,0.4,0.4
2025-07-31T2200,1252A,120.7436,30.778,嘉兴市,清河小学,,38,38,18,14,7,51,,72,64,20,12,5,4,1.1,1
2025-07-31T2200,1253A,120.726,30.7478,嘉兴市,嘉兴学院,,23,20,8,16,8,50,,75,64,20,14,4,4,0.5,0.5
2025-07-31T2200,2872A,120.7846,30.7525,嘉兴市,南湖区残联,,28,28,17,18,10,56,,77,68,18,11,6,5,0.6,0.6
2025-07-31T2200,3407A,120.6916,30.7739,嘉兴市,秀洲住建,,30,30,11,20,8,44,,72,61,25,15,5,4,0.7,0.7
2025-07-31T2200,1945A,98.2908,39.7711,嘉峪关市,气象局,,41,41,33,14,20,103,,118,117,13,9,5,6,0.8,0.7
2025-07-31T2200,2884A,98.2672,39.7978,嘉峪关市,酒钢宾馆,颗粒物(PM10),51,51,37,27,22,108,,124,122,18,11,8,12,1.3,0.9
2025-07-31T2200,3248A,98.2643,39.7724,嘉峪关市,雄关区,,,,36,,16,100,,113,112,12,14,6,8,0.5,0.5
2025-07-31T2200,1383A,113.1064,22.6058,江门市,北街,,20,19,32,14,19,42,,79,59,17,15,3,3,0.6,0.6
2025-07-31T2200,1384A,113.0731,22.5835,江门市,西区,,29,29,27,10,15,51,,84,71,21,16,6,6,0.4,0.4
2025-07-31T2200,1385A,113.0219,22.5311,江门市,圭峰西,,27,27,32,13,19,39,,78,66,21,13,4,5,0.5,0.5
2025-07-31T2200,1386A,113.0828,22.5947,江门市,东湖,,22,19,25,15,17,47,,72,64,19,14,6,6,0.5,0.5
2025-07-31T2200,3311A,113.1075,22.5647,江门市,江海富民,,33,,36,23,19,52,,85,70,17,16,8,8,0.3,0.3
2025-07-31T2200,3449A,113.05,22.4667,江门市,新会银湖,,24,24,26,14,18,14,,70,57,34,17,4,4,0.5,0.5
2025-07-31T2200,1830A,113.1992,35.2590,焦作市,影视城,,,,18,,10,,,,,,2,,9,,0.5
2025-07-31T2200,3335A,113.3137,35.2641,焦作市,马村街道办,,44,44,41,23,23,111,,162,143,12,13,4,6,0.6,0.7
2025-07-31T2200,3336A,113.2465,35.2373,焦作市,焦作技师学院,,44,44,39,12,14,117,,158,143,11,12,3,2,0.8,0.9
2025-07-31T2200,3477A,113.1656,35.2539,焦作市,中站许衡医院,,36,32,35,23,23,115,,168,154,16,12,7,7,0.5,0.6
2025-07-31T2200,3981A,113.2449,35.1803,焦作市,原李万街道办,,37,31,43,9,16,116,,158,142,13,16,9,9,0.8,0.8
2025-07-31T2200,4264A,113.2340,35.2190,焦作市,新安路1731号,,44,44,40,13,16,119,,168,150,10,8,4,4,0.4,0.5
2025-07-31T2200,4295A,113.2722,35.2121,焦作市,人民路3066号,,44,44,43,21,22,111,,159,139,9,9,10,5,0.8,0.6
2025-07-31T2200,1708A,116.3701,23.5345,揭阳市,新兴,,32,32,23,16,16,61,,102,83,11,9,4,4,0.6,0.5
2025-07-31T2200,1709A,116.3264,23.5443,揭阳市,西马,,44,44,27,18,14,54,,95,77,16,10,2,3,0.5,0.4
2025-07-31T2200,1710A,116.3611,23.5626,揭阳市,东兴,,25,,26,17,13,54,,90,72,12,10,2,3,0.4,0.3
2025-07-31T2200,1711A,116.4151,23.5294,揭阳市,渔湖,,42,42,27,13,9,67,,95,86,8,5,7,8,0.5,0.7
2025-07-31T2200,3320A,116.403,23.5699,揭阳市,曲溪,,23,19,21,16,13,63,,103,83,14,10,8,4,0.5,0.5
2025-07-31T2200,1944A,102.1692,38.5167,金昌市,天庆家园,,31,31,39,21,34,81,,88,84,8,7,10,4,0.7,0.9
2025-07-31T2200,4022A,102.1647,38.5371,金昌市,金川区人防中心,,49,49,54,25,34,68,,94,86,18,8,7,6,0.6,0.6
2025-07-31T2200,4239A,102.1930,38.5319,金昌市,长春路96号,,46,46,46,25,31,75,,88,85,9,6,16,7,0.8,0.7
2025-07-31T2200,1262A,119.647,29.077,金华市,十五中,,30,30,23,15,9,36,,81,61,25,15,3,4,0.2,0.2
2025-07-31T2200,1263A,119.686,29.1029,金华市,监测站,,36,36,23,18,11,34,,77,58,22,14,4,5,0.4,0.4
2025-07-31T2200,3659A,119.656,29.1131,金华市,气象局,,25,25,23,12,9,40,,69,52,15,14,4,5,0.5,0.5
2025-07-31T2200,1767A,121.1115,41.0879,锦州市,南山,,24,24,26,16,13,43,,112,90,41,19,4,4,0.6,0.6
2025-07-31T2200,1768A,121.0604,40.8428,锦州市,开发区,颗粒物(PM10),83,115,45,22,18,14,,128,94,88,32,10,26,0.8,1
2025-07-31T2200,1769A,121.1836,41.1119,锦州市,百股街道,,,28,24,9,9,,,107,81,33,19,4,9,0.7,0.6
2025-07-31T2200,1770A,121.1178,41.1222,锦州市,天安街道,,35,35,32,18,17,67,,126,99,36,28,8,8,0.6,0.6
2025-07-31T2200,1771A,121.1303,41.1386,锦州市,北湖公园,,24,20,25,13,12,74,,109,98,25,16,6,6,0.5,0.6
2025-07-31T2200,2160A,112.85,35.5051,晋城市,自来水公司,颗粒物(PM10),58,65,49,17,19,146,,168,167,11,12,1,1,0.5,0.5
2025-07-31T2200,2161A,112.8318,35.4936,晋城市,白云商贸,,44,43,36,14,13,140,,160,159,10,10,3,3,0.5,0.5
2025-07-31T2200,2162A,112.8508,35.4887,晋城市,市环保局,,45,45,46,19,17,130,,153,150,6,7,2,1,0.4,0.5
2025-07-31T2200,2163A,112.8676,35.4897,晋城市,技术学院,,43,43,35,14,14,129,,149,148,8,11,3,3,0.6,0.6
2025-07-31T2200,2165A,112.8453,35.546,晋城市,白马寺,,46,33,24,30,20,147,,167,165,3,3,6,6,0.6,0.6
2025-07-31T2200,3620A,112.8271,35.4828,晋城市,泽州一中,,46,27,35,14,16,145,,168,166,7,7,5,4,0.5,0.4
2025-07-31T2200,2173A,112.7249,37.7067,晋中市,南都小区,颗粒物(PM10),53,55,41,23,23,117,,150,140,7,7,2,3,0.6,0.5
2025-07-31T2200,2174A,112.6991,37.6982,晋中市,榆次区政府,颗粒物(PM10),53,56,42,26,20,122,,152,143,4,4,7,8,0.9,0.8
2025-07-31T2200,2865A,112.7195,37.6828,晋中市,榆次三中,,42,39,37,29,19,119,,152,142,4,4,7,8,0.7,0.6
2025-07-31T2200,4200A,112.7478,37.6954,晋中市,迎宾街26号,,46,46,38,24,18,122,,157,145,5,6,5,6,0.7,0.6
2025-07-31T2200,2439A,112.2014,31.0481,荆门市,竹园小学,,,,40,,20,,,148,141,,11,,2,,0.4
2025-07-31T2200,2440A,112.1969,30.9891,荆门市,掇刀,,43,29,33,19,19,137,,158,154,5,8,10,8,0.6,0.7
2025-07-31T2200,2441A,112.2213,31.0386,荆门市,石化一小,,,33,40,12,19,,,156,154,,10,,6,,0.8
2025-07-31T2200,3012A,112.1849,31.0362,荆门市,西山林语,,45,,32,25,21,143,,153,148,6,6,8,9,0.5,0.5
2025-07-31T2200,3547A,112.1632,31.0138,荆门市,龙泉中学南校,,47,26,23,21,19,150,,155,151,10,8,5,4,0.7,0.7
2025-07-31T2200,1844A,112.2494,30.3197,荆州市,市图书馆,,,34,24,20,14,,,140,133,9,8,2,3,0.5,0.5
2025-07-31T2200,1845A,112.2008,30.3544,荆州市,市委党校,,36,34,27,25,18,115,,140,133,14,13,7,10,0.5,0.6
2025-07-31T2200,3194A,112.2747,30.3122,荆州市,管委会,,34,31,23,21,12,108,,136,128,11,12,6,6,0.6,0.6
2025-07-31T2200,4268A,112.1722,30.3366,荆州市,学苑路85号,,42,32,21,29,19,87,,144,129,24,12,3,5,0.3,0.3
2025-07-31T2200,2342A,117.3102,29.3867,景德镇市,王港中学,,,,,,,,,,,,,,,,
2025-07-31T2200,2343A,117.2117,29.2933,景德镇市,老干部活动中心,,18,18,19,10,10,45,,70,62,12,10,6,8,0.5,0.4
2025-07-31T2200,2344A,117.1894,29.2789,景德镇市,兽医站,,25,25,25,11,8,42,,76,66,11,12,5,9,0.5,0.4
2025-07-31T2200,2346A,117.2461,29.2956,景德镇市,陶研所,,24,24,23,12,12,50,,68,57,7,13,4,6,0.6,0.6
2025-07-31T2200,4289A,117.1542,29.2566,景德镇市,青少年活动中心,,26,24,24,18,12,18,,74,58,40,19,27,17,0.8,0.5
2025-07-31T2200,1803A,115.9872,29.6815,九江市,十里,,28,,14,19,14,57,,67,57,20,12,6,6,0.5,0.5
2025-07-31T2200,1804A,115.9584,29.7046,九江市,茅山头,,34,34,16,20,8,38,,62,54,26,10,4,4,0.4,0.3
2025-07-31T2200,1805A,115.9877,29.7295,九江市,西园,,23,23,17,11,9,69,,68,68,21,16,8,8,0.6,0.6
2025-07-31T2200,1808A,115.9114,29.6038,九江市,综合工业园,,38,38,15,21,6,25,,74,61,52,19,7,8,0.5,0.5
2025-07-31T2200,1809A,116.0721,29.7535,九江市,石化总厂,,32,25,17,22,20,34,,56,48,28,18,10,8,0.5,0.5
2025-07-31T2200,1810A,115.9773,29.5698,九江市,庐山气象台,,25,18,11,3,5,78,,71,71,5,4,6,6,1.2,0.8
2025-07-31T2200,3190A,116.0254,29.6994,九江市,外国语学校,,29,29,16,15,11,64,,66,55,20,14,2,11,0.5,0.4
2025-07-31T2200,4253A,116.0102,29.6594,九江市,莲花大道8号,,37,37,12,19,10,58,,67,54,2,4,4,5,0.6,0.5
2025-07-31T2200,4240A,98.4958,39.7339,酒泉市,玉门东路5号,,48,,36,33,31,106,,116,116,6,8,6,8,0.2,0.2
2025-07-31T2200,4241A,98.5099,39.7506,酒泉市,北大街108号,,40,39,36,28,21,95,,111,111,8,6,7,14,0.1,0.2
2025-07-31T2200,2698A,76.0072,39.4467,喀什地区,巡警大队,颗粒物(PM10),67,84,90,17,21,83,,106,104,40,23,4,3,0.5,0.5
2025-07-31T2200,2699A,75.9755,39.4694,喀什地区,吾办,颗粒物(PM10),106,161,98,36,32,80,,109,106,35,21,7,6,0.5,0.4
2025-07-31T2200,4027A,75.9483,39.4689,喀什地区,老干局,颗粒物(PM10),62,73,86,16,26,80,,106,102,28,18,4,5,0.8,0.7
2025-07-31T2200,1824A,114.3389,34.7781,开封市,肿瘤医院,,,,38,18,20,129,,169,159,17,13,4,8,0.4,0.5
2025-07-31T2200,1826A,114.2885,34.7965,开封市,世纪星幼儿园,,,,51,,37,,,125,,,13,,5,,0.7
2025-07-31T2200,3147A,114.3438,34.8106,开封市,龙亭公园,颗粒物(PM10),54,58,40,26,31,106,,160,144,19,11,8,5,0.5,0.5
2025-07-31T2200,3210A,114.3644,34.7964,开封市,汴京公园,,,39,41,21,25,,,159,151,12,9,4,5,0.5,0.6
2025-07-31T2200,3473A,114.2485,34.8306,开封市,技师学院,,34,28,36,14,35,106,,154,136,13,11,5,5,0.7,0.8
2025-07-31T2200,3592A,114.4644,34.7556,开封市,祥符区生态环境局,,,,41,,26,,,122,,,19,,7,,0.6
2025-07-31T2200,1951A,84.895,45.6094,克拉玛依市,长征新村,,47,47,22,12,9,86,,117,110,4,5,4,4,0.3,0.3
2025-07-31T2200,1952A,84.8988,45.5893,克拉玛依市,南林小区,,47,47,22,6,9,90,,120,110,3,6,1,1,0.1,0.2
2025-07-31T2200,1954A,84.905,44.3396,克拉玛依市,独山子区,,34,34,32,8,11,65,,121,108,34,10,8,10,0.7,0.6
2025-07-31T2200,1955A,85.6979,46.098,克拉玛依市,乌尔禾区商贸楼,,,,24,,8,79,,113,108,3,5,7,6,,0.4
2025-07-31T2200,3612A,85.1045,45.6899,克拉玛依市,白碱滩区新站,颗粒物(PM10),60,70,34,19,18,94,,112,109,2,3,10,9,0.0,0.4
2025-07-31T2200,2697A,76.1454,39.7142,克孜勒苏柯尔克孜自治州,市人民政府,,38,38,76,14,23,108,,116,116,17,13,4,3,0.1,0.1
2025-07-31T2200,3665A,76.1658,39.7157,克孜勒苏柯尔克孜自治州,克州文化中心,,49,49,77,16,30,109,,117,116,11,8,5,5,0.4,0.4
2025-07-31T2200,1450A,102.8204,24.8886,昆明市,呈贡新区,,20,17,11,14,14,53,,112,106,32,13,6,5,0.5,0.4
2025-07-31T2200,1451A,102.6251,24.9608,昆明市,西山森林公园,,,,,,,,,,,,,,,,
2025-07-31T2200,1452A,102.7252,25.0902,昆明市,龙泉镇,,25,25,18,8,8,52,,108,96,19,15,2,2,0.5,0.5
2025-07-31T2200,1453A,102.7266,25.0375,昆明市,东风东路,,,14,21,10,14,58,,109,99,,16,9,4,0.6,0.5
2025-07-31T2200,1454A,102.6742,25.0669,昆明市,金鼎山,,20,9,22,3,8,62,,101,90,6,11,2,2,0.3,0.4
2025-07-31T2200,1455A,102.6644,25.0401,昆明市,碧鸡广场,,18,12,21,6,10,55,,94,83,16,14,7,7,0.4,0.5
2025-07-31T2200,3179A,102.7494,25.0119,昆明市,官渡区博物馆,,26,26,20,12,10,58,,112,102,22,19,6,3,0.7,0.5
2025-07-31T2200,3375A,102.8017,24.8336,昆明市,青年创业园,,21,21,14,13,11,32,,105,92,35,12,1,4,0.5,0.5
2025-07-31T2200,3550A,102.7997,24.9786,昆明市,昆明学院,,28,23,23,19,17,50,,111,100,34,20,7,6,0.4,0.4
2025-07-31T2200,3551A,102.5967,24.6736,昆明市,晋宁区生态环境分局,,20,14,14,7,7,61,,89,78,5,7,2,2,0.5,0.5
2025-07-31T2200,3552A,102.6678,24.9856,昆明市,云天化总部,,21,13,20,6,14,65,,99,91,16,16,9,6,0.4,0.5
2025-07-31T2200,1456A,91.1319,29.6514,拉萨市,八廓街,,23,17,12,3,8,71,,104,100,21,13,6,6,0.4,0.4
2025-07-31T2200,1457A,91.1221,29.6747,拉萨市,市环保局,,26,17,12,11,8,81,,106,103,13,12,8,7,0.3,0.3
2025-07-31T2200,1458A,91.0874,29.6475,拉萨市,区监测站,,23,7,9,6,6,72,,94,92,20,15,6,4,0.3,0.3
2025-07-31T2200,1459A,91.1774,29.6541,拉萨市,西藏大学,,21,19,10,6,7,67,,98,95,23,14,6,5,0.2,0.3
2025-07-31T2200,1460A,90.9798,29.6588,拉萨市,区辐射站,,23,17,16,7,8,71,,89,86,12,14,4,5,0.4,0.4
2025-07-31T2200,1461A,91.0834,29.6292,拉萨市,拉萨火车站,,25,7,9,6,6,80,,93,92,11,12,6,5,0.2,0.2
2025-07-31T2200,2520A,109.2203,23.7256,来宾市,来宾技工学校,,17,17,17,7,8,44,,91,80,10,7,11,9,0.7,0.6
2025-07-31T2200,3535A,109.1781,23.7297,来宾市,兴宾区政府,,13,12,14,3,9,41,,95,80,6,6,4,6,0.9,0.9
2025-07-31T2200,4002A,109.2416,23.7461,来宾市,中南小学,,20,20,16,3,9,58,,98,86,7,8,1,4,0.6,0.6
2025-07-31T2200,1477A,104.1373,35.9454,兰州市,榆中兰大校区,,,,,,,,,,,,,,,,
2025-07-31T2200,1479A,103.831,36.0464,兰州市,铁路设计院,颗粒物(PM10),55,59,79,25,32,88,,100,96,26,20,11,10,0.5,0.4
2025-07-31T2200,3241A,103.7439,36.0842,兰州市,百合公园,,46,46,82,27,33,99,,103,102,8,9,4,4,0.2,0.4
2025-07-31T2200,3242A,103.9611,35.998,兰州市,和平,颗粒物(PM10),58,65,52,33,23,96,,99,98,8,8,12,12,0.6,0.5
2025-07-31T2200,4236A,103.6293,36.0938,兰州市,庄浪东路808号,颗粒物(PM10),65,80,93,37,35,80,,103,95,19,21,14,13,0.4,0.4
2025-07-31T2200,4237A,103.7251,36.1043,兰州市,安宁西路88号,,45,39,92,31,35,111,,117,116,1,2,6,8,0.3,0.3
2025-07-31T2200,4238A,103.8470,36.0676,兰州市,北滨河东路1号,颗粒物(PM10),54,58,81,37,37,100,,109,108,14,14,10,9,0.5,0.5
2025-07-31T2200,3245A,103.6633,36.533,兰州新区,新区管委会,,34,34,98,21,48,65,,123,109,15,8,6,13,0.4,0.3
2025-07-31T2200,3246A,103.6975,36.4789,兰州新区,舟曲中学,,,,,,,,,,,,,,,,
2025-07-31T2200,1067A,116.6708,39.5111,廊坊市,药材公司,颗粒物(PM10),52,53,36,27,18,126,,157,150,10,17,7,7,0.8,0.5
2025-07-31T2200,1068A,116.7214,39.5589,廊坊市,开发区,,48,48,42,19,18,90,,143,128,19,20,1,4,0.7,0.6
2025-07-31T2200,1070A,116.7244,39.5269,廊坊市,北华航天学院,颗粒物(PM10),60,70,56,30,22,101,,154,139,19,19,6,8,0.9,0.6
2025-07-31T2200,2919A,116.7022,39.5453,廊坊市,河北工业大学,颗粒物(PM10),58,66,51,26,18,120,,152,144,17,19,8,9,0.8,0.6
2025-07-31T2200,2535A,103.7723,29.5462,乐山市,花湖湾,,,,32,,23,,,114,,,11,,5,,0.9
2025-07-31T2200,2536A,103.7627,29.5844,乐山市,牛耳桥,,32,32,29,21,22,84,,142,132,21,13,5,5,0.9,0.8
2025-07-31T2200,2537A,103.7508,29.6006,乐山市,市第三水厂,,33,33,34,17,23,103,,136,130,13,12,3,4,0.8,0.7
2025-07-31T2200,2538A,103.7571,29.5664,乐山市,市监测站,,48,48,36,29,23,84,,123,117,18,11,6,7,0.8,0.8
2025-07-31T2200,3361A,103.7311,29.5628,乐山市,理工大学,,45,42,33,31,26,66,,136,123,30,12,7,8,0.9,0.8
2025-07-31T2200,2598A,100.2143,26.8576,丽江市,西南郊,,18,17,10,10,7,57,,83,73,14,7,6,6,0.7,0.7
2025-07-31T2200,2599A,100.2497,26.8802,丽江市,丽江古城,,25,20,16,17,7,62,,81,76,14,11,10,9,0.5,0.5
2025-07-31T2200,2600A,100.2203,26.8906,丽江市,市中心,,17,9,10,8,9,53,,79,69,16,13,8,8,0.5,0.5
2025-07-31T2200,1267A,119.914,28.4514,丽水市,监测站大楼,,28,28,19,10,6,74,,73,73,14,12,3,4,0.5,0.3
2025-07-31T2200,1268A,119.93,28.4586,丽水市,莲都小学,,34,34,22,14,6,75,,74,74,16,13,4,4,0.4,0.3
2025-07-31T2200,1269A,119.879,28.4231,丽水市,余庄前,,33,31,18,23,9,21,,68,45,10,7,4,4,0.4,0.3
2025-07-31T2200,1173A,119.176,34.5885,连云港市,市环境监测站,,21,12,16,7,8,66,,73,69,4,4,3,3,0.4,0.4
2025-07-31T2200,3000A,119.3581,34.6972,连云港市,德源药业,,19,19,17,3,3,54,,66,58,7,7,2,2,0.6,0.6
2025-07-31T2200,3007A,119.178,34.844,连云港市,新城一中,,20,20,17,8,10,51,,69,58,3,3,3,4,0.6,0.6
2025-07-31T2200,3008A,119.3608,34.7519,连云港市,胡沟管理处,,18,14,16,3,3,55,,69,57,5,6,4,5,0.6,0.6
2025-07-31T2200,3009A,119.1478,34.5911,连云港市,矿山设计院,,20,19,17,9,8,64,,75,68,5,6,1,2,0.5,0.5
2025-07-31T2200,3434A,119.2413,34.6539,连云港市,工贸学校,,22,20,19,13,13,68,,70,70,4,5,5,6,0.6,0.6
2025-07-31T2200,3664A,119.4172,34.7341,连云港市,连云街道,,27,27,27,10,12,49,,72,56,12,8,2,3,0.5,0.5
2025-07-31T2200,2571A,102.3431,27.8099,凉山彝族自治州,青龙寺,,21,18,11,7,7,67,,112,104,6,4,5,6,0.3,1.7
2025-07-31T2200,2572A,102.2721,27.8415,凉山彝族自治州,邛海宾馆,,23,22,15,12,10,72,,124,111,17,10,10,9,0.5,0.6
2025-07-31T2200,2573A,102.2625,27.898,凉山彝族自治州,西昌市政府,,36,25,16,25,10,82,,127,120,10,7,8,8,0.6,0.5
2025-07-31T2200,2574A,102.2685,27.8851,凉山彝族自治州,凉山州政府,,27,24,16,16,12,86,,130,123,19,17,10,11,0.8,0.8
2025-07-31T2200,4229A,102.2342,27.8859,凉山彝族自治州,凯乐南路30号,,27,25,21,14,9,84,,130,117,18,14,9,11,0.8,0.7
2025-07-31T2200,2212A,123.2,41.1953,辽阳市,宏伟区,,42,42,36,25,20,113,,152,139,8,15,2,3,1.1,1.1
2025-07-31T2200,2213A,123.1683,41.2495,辽阳市,新华园,颗粒物(PM10),62,73,52,32,20,94,,167,134,23,20,7,10,1.3,1.1
2025-07-31T2200,2214A,123.2354,41.2639,辽阳市,滨河路,,36,36,58,19,19,80,,135,101,15,26,2,3,1.0,1.1
2025-07-31T2200,2215A,123.149,41.2991,辽阳市,铁西工业园,,50,50,46,24,19,30,,118,87,43,25,3,5,1.1,1.4
2025-07-31T2200,2227A,125.1358,42.8845,辽源市,环保局,,36,36,30,11,5,45,,98,80,22,13,6,6,0.4,0.4
2025-07-31T2200,3239A,125.0764,42.9078,辽源市,银鹰制药,,28,28,15,17,10,30,,97,69,33,14,8,9,0.5,0.4
2025-07-31T2200,1625A,115.9848,36.4372,聊城市,区政府,,35,35,35,22,23,100,,132,120,15,13,6,10,0.6,0.8
2025-07-31T2200,2878A,116.0072,36.4343,聊城市,聊大东校,,36,36,40,20,23,102,,138,125,16,14,6,9,0.6,0.8
2025-07-31T2200,3200A,115.9819,36.4978,聊城市,监控中心,,32,24,19,22,17,83,,129,111,24,13,7,8,0.8,0.9
2025-07-31T2200,3513A,116.0445,36.4361,聊城市,九州社区,,40,40,43,19,23,94,,132,120,18,15,5,6,0.3,0.4
2025-07-31T2200,4018A,116.0567,36.4608,聊城市,星美广场,,45,45,43,23,23,78,,122,105,22,17,2,5,0.5,0.7
2025-07-31T2200,2632A,94.3681,29.6376,林芝市,林芝监测站,,,10,8,6,4,,,61,60,2,6,6,5,0.3,0.3
2025-07-31T2200,2633A,94.3616,29.6616,林芝市,林芝人民医院,,14,10,10,3,4,42,,63,58,1,3,4,4,0.3,0.4
2025-07-31T2200,2603A,100.0781,23.8982,临沧市,市环保局,,30,,15,21,15,17,,38,30,9,6,6,7,0.5,0.4
2025-07-31T2200,2604A,100.0894,23.8822,临沧市,市气象局,,18,,14,12,10,20,,36,30,8,7,8,10,0.5,0.3
2025-07-31T2200,1733A,111.5531,36.0783,临汾市,临钢医院,,45,45,34,14,9,118,,157,146,12,11,4,4,0.8,0.7
2025-07-31T2200,1734A,111.5028,36.0714,临汾市,技工学校,,50,50,38,25,22,110,,157,146,15,9,6,6,0.6,0.5
2025-07-31T2200,1736A,111.5018,36.0855,临汾市,市委,颗粒物(PM10),55,59,42,18,10,121,,181,165,18,10,6,6,0.6,0.5
2025-07-31T2200,3018A,111.505,36.1014,临汾市,唐尧大酒店,颗粒物(PM10),60,69,47,13,11,103,,161,147,22,12,4,5,0.7,0.6
2025-07-31T2200,4244A,111.4879,36.0530,临汾市,启星学校,细颗粒物(PM2.5),55,51,33,39,24,116,,166,152,16,10,6,7,0.7,0.7
2025-07-31T2200,4271A,103.2464,35.6123,临夏回族自治州,滨河东路1号,颗粒物(PM10),84,117,91,61,34,30,,78,69,25,20,6,7,0.6,0.4
2025-07-31T2200,4310A,103.2093,35.5995,临夏回族自治州,新华街21号,细颗粒物(PM2.5),80,105,96,59,41,60,,96,88,23,17,6,8,0.5,0.4
2025-07-31T2200,1618A,118.3429,35.0532,临沂市,沂河小区,,19,19,24,13,17,34,,62,49,14,15,8,8,0.3,0.3
2025-07-31T2200,1619A,118.295,35.0583,临沂市,鲁南制药厂,,18,14,17,12,15,42,,68,54,10,12,8,9,0.5,0.5
2025-07-31T2200,1620A,118.2794,34.9976,临沂市,新光毛纺厂,,19,17,12,13,13,47,,70,58,10,12,7,8,0.6,0.5
2025-07-31T2200,1621A,118.3956,35.0888,临沂市,河东保险公司,,14,14,20,3,8,36,,60,46,11,15,5,6,0.5,0.5
2025-07-31T2200,3370A,118.3564,35.0215,临沂市,十里堡居委,,13,12,17,7,11,40,,66,51,10,13,9,10,0.4,0.4
2025-07-31T2200,3496A,118.3604,35.1084,临沂市,南坊新区,,14,14,22,3,8,30,,61,47,14,15,9,10,0.3,0.4
2025-07-31T2200,3860A,118.3920,35.0300,临沂市,皇山花园小区,,13,9,19,8,13,39,,61,50,12,16,8,10,0.5,0.4
2025-07-31T2200,1870A,109.4856,24.3895,柳州市,柳东小学,,36,32,26,25,14,88,,102,101,5,7,3,3,0.5,0.5
2025-07-31T2200,1871A,109.4157,24.3277,柳州市,环保监测站,,45,,26,31,14,90,,107,102,6,9,6,8,0.6,0.6
2025-07-31T2200,1872A,109.389,24.341,柳州市,河西水厂,,30,30,30,17,15,86,,108,101,10,14,5,7,1.1,1.1
2025-07-31T2200,1873A,109.4311,24.2921,柳州市,市四中,,40,40,32,21,22,71,,108,96,15,13,6,6,1.0,0.9
2025-07-31T2200,1874A,109.4006,24.3631,柳州市,市九中,,,,34,,13,90,,104,98,6,11,2,4,0.4,0.4
2025-07-31T2200,1875A,109.4958,24.3134,柳州市,古亭山,,48,48,32,14,14,87,,102,93,10,13,5,6,0.6,0.6
2025-07-31T2200,3402A,109.5422,24.3996,柳州市,市二中,,29,20,29,9,15,91,,110,106,11,13,9,9,0.7,0.8
2025-07-31T2200,2307A,116.5079,31.737,六安市,监测大楼,,20,,18,12,14,64,,72,72,4,5,3,3,0.3,0.3
2025-07-31T2200,2308A,116.4738,31.7643,六安市,皖西学院,,21,14,20,11,12,66,,74,74,4,5,2,2,0.3,0.3
2025-07-31T2200,2309A,116.4996,31.7905,六安市,朝阳厂,,19,,12,12,14,58,,67,67,7,9,4,4,0.3,0.3
2025-07-31T2200,2310A,116.5567,31.7886,六安市,开发区,,18,8,10,7,16,56,,70,70,6,7,3,3,0.4,0.3
2025-07-31T2200,2576A,104.8,26.5892,六盘水市,窑上,,33,33,28,3,8,35,,105,75,3,5,1,3,0.4,0.6
2025-07-31T2200,2577A,104.83,26.5917,六盘水市,黄土坡,,27,27,23,9,15,25,,108,75,22,15,8,12,0.4,0.6
2025-07-31T2200,2578A,104.89,26.5939,六盘水市,水钢,细颗粒物(PM2.5),73,91,44,53,26,60,,108,94,24,17,9,10,0.5,0.7
2025-07-31T2200,2579A,104.8475,26.5894,六盘水市,民中,,35,35,27,19,14,29,,106,78,30,22,9,12,0.7,0.8
2025-07-31T2200,2580A,104.9544,26.5506,六盘水市,双水,,42,,23,29,13,64,,106,98,12,13,6,8,0.5,0.5
2025-07-31T2200,2335A,117.0189,25.1181,龙岩市,龙岩师专,,,,,,,,,,,,,,,,
2025-07-31T2200,2336A,117.0217,25.1033,龙岩市,龙岩市监测站,,25,,23,12,13,77,,84,71,5,11,3,5,0.4,0.4
2025-07-31T2200,2337A,117.0258,25.0661,龙岩市,闽西职业技术学院,,25,14,24,11,9,77,,73,64,3,9,2,8,0.5,0.4
2025-07-31T2200,2338A,117.0196,25.0306,龙岩市,龙岩学院,,23,,18,10,10,71,,71,64,9,4,5,5,0.5,0.5
2025-07-31T2200,2665A,105.0822,33.3261,陇南市,汉王镇固水子,,,,,,,,,,,,,,,,
2025-07-31T2200,2885A,104.9339,33.3826,陇南市,滨江中学,,49,49,35,33,17,123,,129,128,4,5,6,7,0.5,0.5
2025-07-31T2200,3247A,104.955,33.371,陇南市,市总工会,颗粒物(PM10),54,58,38,21,16,136,,138,138,4,4,5,5,0.4,0.4
2025-07-31T2200,2487A,111.9589,27.8901,娄底市,电视发射台,,47,47,40,13,11,32,,66,62,4,4,6,6,0.4,0.4
2025-07-31T2200,2488A,111.9975,27.725,娄底市,市监测站,,38,26,38,26,20,93,,98,98,12,19,6,7,0.7,1
2025-07-31T2200,2489A,112.0194,27.7314,娄底市,市委党校,,42,42,35,29,18,69,,113,107,23,16,3,7,0.4,0.7
2025-07-31T2200,2490A,111.9561,27.7569,娄底市,涟钢,颗粒物(PM10),51,51,32,34,17,58,,88,80,9,14,14,12,1.2,1.5
2025-07-31T2200,2491A,111.9892,27.7044,娄底市,市政府,细颗粒物(PM2.5),57,,28,40,15,36,,106,90,13,5,4,6,0.8,0.8
2025-07-31T2200,1893A,105.4324,28.9634,泸州市,九狮山,,48,36,31,33,24,43,,126,95,17,11,2,3,0.3,0.2
2025-07-31T2200,1894A,105.4427,28.9063,泸州市,小市上码头,,29,29,28,20,14,63,,91,82,9,8,2,4,0.6,0.5
2025-07-31T2200,1895A,105.4241,28.8573,泸州市,兰田宪桥,,29,29,28,16,12,68,,99,89,14,10,7,7,0.4,0.3
2025-07-31T2200,1896A,105.4379,28.8833,泸州市,市环监站,,,25,25,17,15,86,,107,98,18,14,13,13,,0.2
2025-07-31T2200,4272A,105.3689,28.7783,泸州市,纳溪中医医院,,44,44,23,24,15,57,,106,92,24,16,3,3,0.6,0.4
2025-07-31T2200,2183A,111.1406,37.5211,吕梁市,环保局,颗粒物(PM10),71,91,53,38,24,46,,144,111,54,26,2,3,0.8,0.7
2025-07-31T2200,2185A,111.1297,37.5136,吕梁市,自来水公司,颗粒物(PM10),60,70,53,25,22,69,,140,116,21,17,5,4,1.0,0.7
2025-07-31T2200,2867A,111.1283,37.51,吕梁市,马茂庄小学,颗粒物(PM10),64,78,49,27,22,50,,136,113,38,22,6,6,0.7,0.6
2025-07-31T2200,1812A,112.3931,34.6516,洛阳市,市委党校,,41,37,32,26,20,130,,159,144,12,10,7,8,0.6,0.5
2025-07-31T2200,1815A,112.494,34.6886,洛阳市,河南林校,,43,43,42,23,20,129,,166,149,13,14,8,8,0.3,0.3
2025-07-31T2200,1816A,112.3844,34.623,洛阳市,开发区管委会,,42,36,30,23,19,133,,172,156,10,9,9,9,0.7,0.6
2025-07-31T2200,1817A,112.4267,34.6258,洛阳市,市委新办公区,,41,41,32,24,21,114,,155,140,14,12,7,8,0.6,0.5
2025-07-31T2200,3340A,112.6005,34.6326,洛阳市,伊滨,,40,33,27,26,19,126,,156,144,13,14,8,9,0.7,0.6
2025-07-31T2200,3341A,112.4951,34.6332,洛阳市,中移产业园,,42,42,38,26,20,113,,158,139,14,12,6,7,0.8,0.8
2025-07-31T2200,3593A,112.5736,34.8993,洛阳市,吉利监测站,,47,47,48,18,22,121,,156,144,13,9,10,7,0.5,0.5
2025-07-31T2200,3635A,112.3677,34.662,洛阳市,河科大西苑校区,,43,39,35,16,16,136,,163,148,8,8,8,9,0.7,0.6
2025-07-31T2200,3636A,112.4388,34.6781,洛阳市,英才小学,,48,48,42,20,20,122,,151,139,13,12,8,8,0.6,0.5
2025-07-31T2200,4214A,112.4600,34.6949,洛阳市,春都路1号院,,36,36,35,18,15,114,,144,130,14,12,6,6,0.5,0.6
2025-07-31T2200,2399A,114.051,33.5699,漯河市,三五一五工厂,,50,50,40,27,26,144,,160,157,10,9,6,6,0.5,0.6
2025-07-31T2200,2400A,114.0055,33.5698,漯河市,漯河大学,颗粒物(PM10),51,51,58,27,24,144,,163,159,17,14,5,5,0.4,0.5
2025-07-31T2200,2401A,114.0138,33.5828,漯河市,市水利局,,48,48,44,29,26,138,,156,152,8,8,5,5,0.4,0.5
2025-07-31T2200,2402A,114.0261,33.5698,漯河市,市广电局,,47,46,41,28,27,149,,166,164,9,9,3,4,0.4,0.4
2025-07-31T2200,3478A,113.9749,33.5664,漯河市,市图书馆,,45,37,42,31,26,143,,163,161,11,9,6,6,0.4,0.4
2025-07-31T2200,4250A,114.0892,33.5882,漯河市,韶山路11号,,,,40,,21,,,164,163,15,12,6,3,0.5,0.5
2025-07-31T2200,1798A,118.5092,31.6837,马鞍山市,湖东路四小,,12,,19,3,10,37,,37,30,12,17,4,7,0.6,0.9
2025-07-31T2200,1799A,118.5024,31.6449,马鞍山市,开发区,,12,8,14,3,8,37,,39,36,12,16,6,11,0.7,1.2
2025-07-31T2200,1802A,118.6245,31.7241,马鞍山市,濮塘,,,,13,7,7,41,,42,35,7,7,6,6,0.8,0.7
2025-07-31T2200,3633A,118.4918,31.6809,马鞍山市,雨山,,11,,17,3,10,34,,30,30,13,24,8,18,0.6,1.4
2025-07-31T2200,4191A,118.5274,31.72227,马鞍山市,慈湖高新区,,12,6,15,3,8,36,,38,28,11,12,6,7,0.7,0.6
2025-07-31T2200,1686A,111.0286,21.4688,茂名市,电白南海,,34,34,32,22,16,46,,75,70,16,10,5,10,0.3,0.3
2025-07-31T2200,1687A,110.9294,21.6533,茂名市,茂石化七小,,34,34,30,17,13,62,,72,67,10,7,9,7,0.6,0.5
2025-07-31T2200,1688A,110.9107,21.6687,茂名市,健康路,,21,19,25,14,13,65,,74,70,11,9,13,12,0.6,0.5
2025-07-31T2200,1689A,110.8592,21.6828,茂名市,高岭,颗粒物(PM10),60,70,37,14,8,28,,70,54,30,13,17,16,0.6,0.4
2025-07-31T2200,3450A,111.01,21.5165,茂名市,电白水东,,24,24,24,14,12,65,,75,72,11,12,8,10,0.5,0.5
2025-07-31T2200,2539A,104.0308,30.0478,眉山市,黑龙滩水库,,33,,20,22,18,104,,131,129,5,4,3,3,0.2,0.2
2025-07-31T2200,2540A,103.8416,30.0874,眉山市,气象局,,43,43,41,9,18,117,,157,142,8,16,3,3,0.5,0.6
2025-07-31T2200,3137A,103.8578,30.0744,眉山市,市委党校,,,19,26,7,16,,,147,143,12,14,8,9,0.6,0.6
2025-07-31T2200,3148A,103.8291,30.0564,眉山市,区人社局,,48,48,44,9,13,112,,154,143,15,15,10,13,0.7,0.8
2025-07-31T2200,1690A,116.1231,24.3284,梅州市,梅江月梅,,17,17,16,8,7,43,,74,66,13,12,8,9,0.5,0.5
2025-07-31T2200,1691A,116.0797,24.2719,梅州市,梅县新城,,15,11,17,10,8,48,,75,60,7,8,6,6,0.5,0.5
2025-07-31T2200,1692A,116.1248,24.2654,梅州市,环境监控中心,,20,19,19,14,8,26,,75,59,26,14,3,3,0.5,0.5
2025-07-31T2200,3315A,116.1233,24.2991,梅州市,梅龙,,14,14,14,9,7,40,,75,66,16,9,6,6,0.6,0.6
2025-07-31T2200,1878A,104.7778,31.4741,绵阳市,富乐山,,37,37,31,18,20,103,,147,125,12,9,8,8,0.6,0.6
2025-07-31T2200,1880A,104.6697,31.4668,绵阳市,高新区自来水公司,,41,41,38,22,17,105,,133,119,20,18,8,8,0.7,0.6
2025-07-31T2200,1881A,104.7287,31.5075,绵阳市,三水厂,,39,39,36,24,23,92,,150,123,27,19,6,6,0.4,0.4
2025-07-31T2200,3491A,104.69,31.5322,绵阳市,西科大附属小学,细颗粒物(PM2.5),80,94,48,59,30,84,,156,126,32,22,9,8,0.6,0.5
2025-07-31T2200,3492A,104.5648,31.5343,绵阳市,安州区旅游局,,40,40,41,22,19,96,,139,121,10,13,12,8,0.6,0.5
2025-07-31T2200,4226A,104.7651,31.4531,绵阳市,绵阳市气象局,,40,40,31,22,20,116,,138,125,14,11,6,6,0.5,0.5
2025-07-31T2200,1784A,129.61,44.561,牡丹江市,环保大楼,,22,22,18,7,9,34,,94,69,14,15,3,3,0.3,0.3
2025-07-31T2200,1785A,129.6115,44.5782,牡丹江市,文化广场,,25,17,16,17,16,22,,93,69,25,18,6,7,0.6,0.4
2025-07-31T2200,1786A,129.5904,44.5963,牡丹江市,第一医院,,43,,22,30,18,38,,93,72,23,16,6,7,0.5,0.4
2025-07-31T2200,1787A,129.6364,44.6075,牡丹江市,机车工厂,,30,24,21,21,15,24,,88,67,20,12,5,4,0.5,0.4
2025-07-31T2200,1788A,129.6386,44.5462,牡丹江市,第一中学,,27,27,18,13,11,28,,92,61,10,13,5,5,0.2,0.2
2025-07-31T2200,2531A,105.0703,29.61,内江市,市监测站,,34,34,22,17,14,82,,144,134,24,10,3,3,0.7,0.6
2025-07-31T2200,2532A,105.0717,29.5947,内江市,东兴区政府,,32,29,19,6,8,102,,133,127,9,9,8,7,0.5,0.6
2025-07-31T2200,2533A,105.0653,29.5817,内江市,内江二中,,37,37,28,21,19,92,,135,128,15,14,4,5,0.6,0.6
2025-07-31T2200,2534A,105.0406,29.5822,内江市,内江日报社,,32,23,17,22,20,71,,125,116,34,18,8,8,0.5,0.5
2025-07-31T2200,2628A,92.0657,31.4846,那曲市,那曲监测站,,43,43,48,17,18,68,,91,84,28,21,10,8,0.5,0.5
2025-07-31T2200,4243A,92.0515,31.4787,那曲市,那曲市委宣传部,,25,21,28,10,12,79,,101,96,14,17,5,5,0.2,0.3
2025-07-31T2200,1290A,115.8931,28.6843,南昌市,省外办,,13,12,17,9,10,36,,87,75,5,9,4,5,0.4,0.5
2025-07-31T2200,1291A,115.8886,28.7003,南昌市,省林业公司,,15,14,13,3,7,48,,90,74,7,9,2,3,0.4,0.4
2025-07-31T2200,1292A,115.8126,28.7442,南昌市,林科所,,13,7,11,3,3,41,,84,74,17,13,8,8,0.3,0.3
2025-07-31T2200,1294A,115.8518,28.687,南昌市,建工学校,,21,21,16,3,12,50,,90,76,11,14,8,9,0.4,0.4
2025-07-31T2200,1295A,115.8921,28.6424,南昌市,象湖,,17,12,12,7,6,52,,98,83,7,9,7,7,0.4,0.3
2025-07-31T2200,1296A,115.7423,28.7996,南昌市,武术学校,,12,10,13,8,13,34,,77,63,4,3,7,8,0.4,0.4
2025-07-31T2200,3046A,115.9084,28.6062,南昌市,机电学校,,18,18,22,7,8,44,,101,82,8,8,6,5,0.7,0.5
2025-07-31T2200,3690A,115.9721,28.7031,南昌市,外国语学校,,17,10,17,3,8,52,,96,77,5,10,2,6,0.1,0.2
2025-07-31T2200,4192A,115.9316,28.68677,南昌市,南京东路235号,,17,15,22,7,4,53,,87,73,6,10,2,4,0.5,0.5
2025-07-31T2200,1905A,106.056,30.8064,南充市,西山风景区,,,,,,,,,,,,,,,,
2025-07-31T2200,1906A,106.0789,30.8023,南充市,南充市委,,35,26,28,15,20,111,,135,134,17,10,5,6,0.4,0.4
2025-07-31T2200,1907A,106.1031,30.8217,南充市,南充炼油厂,,34,33,34,19,19,108,,134,133,16,9,4,4,0.3,0.3
2025-07-31T2200,4227A,106.1083,30.7884,南充市,梨树横街98号,,39,31,28,20,18,123,,147,147,12,10,4,5,0.2,0.2
2025-07-31T2200,4304A,106.1172,30.843,南充市,清泉寺北路188号,,42,36,31,17,19,134,,144,144,10,10,3,3,0.4,0.3
2025-07-31T2200,4305A,106.067,30.7616,南充市,同庆路1号,,39,28,29,22,19,124,,143,141,11,10,4,5,0.3,0.4
2025-07-31T2200,1151A,118.8086,32.1065,南京市,迈皋桥,,15,6,4,3,4,45,,44,43,18,12,4,4,0.5,0.3
2025-07-31T2200,1152A,118.7538,32.0551,南京市,草场门,,12,6,7,3,5,37,,38,37,9,8,8,8,0.6,0.6
2025-07-31T2200,1153A,118.7794,32.0745,南京市,山西路,,15,6,10,3,2,46,,44,43,16,20,4,5,0.5,0.6
2025-07-31T2200,1154A,118.7752,32.0023,南京市,中华门,,10,6,4,3,3,32,,32,30,7,9,8,9,0.7,0.7
2025-07-31T2200,1155A,118.8109,32.0309,南京市,瑞金路,,12,6,3,3,4,38,,39,38,17,18,7,7,0.3,0.4
2025-07-31T2200,1156A,118.7997,32.0754,南京市,玄武湖,,,11,10,,2,41,,37,34,9,10,7,6,0.5,0.5
2025-07-31T2200,1157A,118.6414,32.0931,南京市,浦口,,14,7,10,3,3,44,,46,40,12,10,4,4,0.5,0.4
2025-07-31T2200,1158A,118.7356,31.9996,南京市,奥体中心,,,6,7,3,4,,,43,41,13,12,4,5,0.5,0.4
2025-07-31T2200,1159A,118.9125,32.1028,南京市,仙林大学城,,14,9,10,3,0,44,,45,45,5,6,8,8,0.6,0.5
2025-07-31T2200,3422A,118.8436,31.9198,南京市,江宁彩虹桥,,11,6,8,3,3,34,,39,33,11,12,3,4,0.6,0.6
2025-07-31T2200,3427A,118.8554,32.3578,南京市,六合雄州,,11,7,10,3,3,35,,45,41,13,9,3,3,0.6,0.5
2025-07-31T2200,4249A,118.8708,31.3402,南京市,汶溪路181号,,15,,5,3,6,47,,46,44,8,9,4,4,0.5,0.5
2025-07-31T2200,4312A,119.019,31.6512,南京市,中山西路1号,,13,,2,3,4,41,,38,38,8,10,4,4,0.6,0.5
2025-07-31T2200,1401A,108.3103,22.7881,南宁市,二十一中,,25,,34,17,20,39,,122,104,33,15,3,4,0.7,0.6
2025-07-31T2200,1402A,108.3141,22.8528,南宁市,北湖,,32,27,32,22,23,66,,138,120,21,14,3,4,0.6,0.6
2025-07-31T2200,1403A,108.3206,22.8225,南宁市,市监测站,,30,21,32,21,24,61,,131,113,27,17,2,4,0.6,0.6
2025-07-31T2200,1404A,108.3829,22.8037,南宁市,大自然花园,,23,19,30,16,20,59,,108,98,12,9,4,5,0.6,0.6
2025-07-31T2200,1405A,108.4394,22.7904,南宁市,仙葫,,28,21,30,19,22,58,,95,84,10,10,5,4,0.6,0.8
2025-07-31T2200,1406A,108.2397,22.8467,南宁市,区农职院,,20,15,31,12,20,64,,130,119,19,15,3,5,0.7,0.8
2025-07-31T2200,1407A,108.3275,22.735,南宁市,英华嘉园,,30,23,37,21,22,44,,111,95,27,17,1,2,0.4,0.5
2025-07-31T2200,3401A,108.4834,22.7618,南宁市,红星社区,,23,23,34,16,21,62,,108,96,10,10,2,3,0.5,0.6
2025-07-31T2200,4221A,108.2177,22.7774,南宁市,乐贤路16号,,30,,35,21,23,64,,158,137,15,20,4,4,0.6,0.8
2025-07-31T2200,2331A,118.0966,26.6761,南平市,茫荡山,,,,,,,,,,,,,,,,
2025-07-31T2200,2332A,118.1681,26.6369,南平市,南平市监测站,,21,21,19,6,11,25,,81,60,22,9,3,5,0.6,0.6
2025-07-31T2200,2333A,118.1825,26.6489,南平市,南平铝业有限公司,,25,25,24,3,11,19,,79,57,26,11,6,6,0.5,0.5
2025-07-31T2200,2334A,118.1756,26.6272,南平市,南平七中,,17,17,21,6,9,39,,81,64,10,7,3,4,0.5,0.7
2025-07-31T2200,1168A,120.9098,31.9663,南通市,狼山街道,,25,9,7,7,4,80,,87,86,10,10,2,3,0.6,0.5
2025-07-31T2200,1169A,120.86,32.0005,南通市,虹桥,,28,,6,13,5,88,,92,92,11,10,1,2,0.7,0.6
2025-07-31T2200,1170A,120.87,32.02,南通市,城中,,24,11,8,9,3,74,,81,80,10,9,2,3,0.4,0.3
2025-07-31T2200,1171A,120.94,31.93,南通市,星湖花园,,21,,4,7,3,66,,90,87,16,10,1,2,0.5,0.4
2025-07-31T2200,1172A,120.81,32.0417,南通市,紫琅学院,,26,,5,18,3,82,,83,83,9,8,2,3,0.7,0.6
2025-07-31T2200,3291A,121.067,32.062,南通市,通州监测站,,24,,4,3,4,76,,106,101,7,6,3,3,0.7,0.6
2025-07-31T2200,3432A,120.9348,31.9883,南通市,环境教育馆,,,12,8,9,3,,,99,99,11,8,2,3,0.3,0.3
2025-07-31T2200,2404A,112.5224,33.0122,南阳市,瓦房庄,,49,45,42,23,19,156,,156,151,9,8,7,7,0.5,0.6
2025-07-31T2200,2405A,112.5003,32.9735,南阳市,汉画馆,,49,43,40,15,13,154,,151,147,11,10,7,8,0.5,0.5
2025-07-31T2200,2406A,112.5573,33.027,南阳市,气象站,,50,40,38,24,20,158,,163,156,10,8,8,8,0.5,0.5
2025-07-31T2200,2407A,112.5481,32.9689,南阳市,理工学院,,49,42,39,16,12,156,,157,153,8,7,7,7,0.6,0.5
2025-07-31T2200,4008A,112.5234,32.9922,南阳市,卧龙区政府,,49,35,29,24,19,156,,156,151,10,9,6,6,0.6,0.6
2025-07-31T2200,1234A,121.8358,29.911,宁波市,区环保大楼,,47,47,40,24,12,100,,109,106,9,9,3,4,0.5,0.5
2025-07-31T2200,1235A,121.56,29.82,宁波市,万里学院,,,39,16,34,14,,,99,99,7,10,5,5,0.6,0.5
2025-07-31T2200,1236A,121.713,29.9572,宁波市,龙赛医院,,41,41,23,14,7,86,,96,93,9,6,6,6,0.5,0.4
2025-07-31T2200,1239A,121.633,29.7733,宁波市,钱湖水厂,,39,39,21,21,14,67,,104,94,4,5,4,4,0.5,0.4
2025-07-31T2200,1240A,121.5856,29.8635,宁波市,太古小学,,48,48,26,20,11,83,,92,90,8,8,2,2,0.4,0.4
2025-07-31T2200,1241A,121.524,29.8674,宁波市,市环境监测中心,,,45,18,36,13,,,91,91,11,12,6,6,0.5,0.4
2025-07-31T2200,2871A,121.6147,29.9017,宁波市,万里国际学校,,30,27,11,21,10,93,,104,98,6,7,3,3,0.5,0.4
2025-07-31T2200,3710A,121.5594,29.8975,宁波市,白沙活动中心,,32,31,12,22,9,86,,95,93,8,8,4,4,0.5,0.5
2025-07-31T2200,2339A,119.5001,26.6946,宁德市,金涵水库,,,,,,,,,,,,,,,,
2025-07-31T2200,2341A,119.5388,26.6612,宁德市,宁德市监测站,颗粒物(PM10),51,52,32,22,17,67,,124,114,26,14,6,6,1.4,0.6
2025-07-31T2200,3209A,119.5231,26.6562,宁德市,宁德一中,,46,41,29,32,22,81,,126,117,13,8,7,6,0.9,0.5
2025-07-31T2200,2618A,98.8601,25.8567,怒江傈僳族自治州,州监测站,,25,18,17,17,12,24,,54,50,10,8,6,6,0.4,0.4
2025-07-31T2200,2619A,98.8546,25.8417,怒江傈僳族自治州,泸水一中,,,,14,1,8,11,,41,35,13,10,6,6,0.5,0.5
2025-07-31T2200,1888A,101.6891,26.571,攀枝花市,弄弄坪,,49,49,43,20,19,46,,109,96,28,18,13,11,2.5,1.4
2025-07-31T2200,1889A,101.5769,26.5928,攀枝花市,河门口,,32,32,21,18,13,70,,118,112,16,9,8,7,0.8,0.6
2025-07-31T2200,1890A,101.7169,26.585,攀枝花市,炳草岗,细颗粒物(PM2.5),58,45,31,41,15,60,,130,123,38,17,7,10,0.9,1
2025-07-31T2200,1891A,101.7369,26.5008,攀枝花市,仁和,,30,30,22,19,14,34,,102,86,13,10,8,8,0.7,0.7
2025-07-31T2200,2835A,101.7227,26.567,攀枝花市,四十中小,,29,29,31,20,19,63,,122,116,43,20,12,18,1.0,1.4
2025-07-31T2200,1604A,122.0303,41.1489,盘锦市,开发区,,44,44,29,30,17,70,,132,113,32,26,21,18,0.5,0.5
2025-07-31T2200,1605A,122.0485,41.0883,盘锦市,兴隆台,,34,34,31,19,13,79,,161,134,30,24,10,15,0.6,0.5
2025-07-31T2200,1606A,121.8297,41.1028,盘锦市,新生街道,,24,22,16,12,11,75,,139,114,14,24,2,4,0.5,0.5
2025-07-31T2200,1832A,113.3257,33.742,平顶山市,新华旅馆,颗粒物(PM10),60,69,52,23,23,135,,168,161,18,13,7,7,0.5,0.5
2025-07-31T2200,1833A,113.2919,33.737,平顶山市,规划设计院,,44,40,37,20,23,138,,166,159,16,10,8,9,0.6,0.6
2025-07-31T2200,1834A,113.182,33.774,平顶山市,平顶山工学院,,45,37,33,22,19,144,,169,163,12,10,5,6,0.5,0.4
2025-07-31T2200,3204A,113.3025,33.73,平顶山市,规划局,,48,48,43,22,17,143,,171,165,14,9,5,5,0.5,0.5
2025-07-31T2200,3594A,112.8867,33.9116,平顶山市,石龙区,,43,39,44,22,22,137,,181,170,10,13,6,9,0.7,0.7
2025-07-31T2200,2656A,106.6692,35.5461,平凉市,聚贤嘉苑,,42,42,47,21,17,95,,116,110,11,13,9,9,0.5,0.6
2025-07-31T2200,2657A,106.7021,35.5307,平凉市,博物馆,,46,46,43,22,21,89,,118,112,19,13,9,10,0.6,0.6
2025-07-31T2200,2347A,114.0997,27.5002,萍乡市,武功山,,14,,3,6,7,44,,90,78,4,4,10,10,0.4,0.4
2025-07-31T2200,2348A,113.8385,27.6434,萍乡市,中医院,,32,,28,20,14,102,,122,116,11,14,9,9,0.7,1.1
2025-07-31T2200,2349A,113.8493,27.6253,萍乡市,市政府车库,,27,13,17,13,15,86,,109,103,9,10,8,10,0.4,0.6
2025-07-31T2200,2350A,113.8676,27.6435,萍乡市,市环保局,,40,,22,28,15,91,,117,110,10,10,10,11,0.4,0.6
2025-07-31T2200,2351A,113.866,27.6198,萍乡市,安源区政府,,28,16,22,14,14,87,,115,107,4,6,10,13,0.5,0.6
2025-07-31T2200,2319A,119.0141,25.4325,莆田市,荔城区仓后路,,20,20,53,3,29,43,,114,66,11,11,5,5,0.6,0.7
2025-07-31T2200,2320A,119.0015,25.4553,莆田市,莆田市监测站,,32,32,42,11,30,45,,121,66,5,8,4,5,0.4,0.5
2025-07-31T2200,2321A,119.1119,25.4561,莆田市,涵江区六中,,25,25,44,10,27,38,,120,65,14,14,4,4,0.5,0.6
2025-07-31T2200,2322A,119.1013,25.3215,莆田市,秀屿区政府,,50,50,48,25,30,72,,127,81,15,15,6,4,0.4,0.5
2025-07-31T2200,2323A,118.981,25.4792,莆田市,东圳水库,,,,,,,,,,,,,,,,
2025-07-31T2200,2392A,115.0312,35.7636,濮阳市,环保局,,34,22,32,16,24,107,,151,143,10,7,4,4,0.4,0.6
2025-07-31T2200,2394A,115.0574,35.7609,濮阳市,油田运输公司,,37,37,42,18,22,98,,146,137,13,9,4,4,0.5,0.6
2025-07-31T2200,3021A,115,35.7668,濮阳市,濮水河管理处,,30,28,38,18,25,96,,135,127,13,9,2,3,0.3,0.4
2025-07-31T2200,4216A,115.0924,35.7686,濮阳市,任丘路479号,,40,40,51,22,30,96,,136,128,11,9,3,4,0.5,0.6
2025-07-31T2200,2601A,100.98,22.7633,普洱市,市环保局,,32,32,27,12,14,20,,32,25,9,6,5,5,0.7,0.6
2025-07-31T2200,2602A,100.9817,22.8322,普洱市,普洱第二中学,,22,22,23,14,13,17,,34,26,10,8,5,5,0.5,0.5
2025-07-31T2200,2262A,131.0518,45.8751,七台河市,新一中,,23,22,15,16,8,23,,99,72,29,14,10,10,1.0,0.9
2025-07-31T2200,3345A,131.0577,45.7879,七台河市,中波台,,48,48,15,8,8,33,,67,52,25,12,7,7,0.7,0.5
2025-07-31T2200,3637A,131.0176,45.7761,七台河市,人民广场,,42,42,17,16,11,39,,66,53,20,11,12,11,0.6,0.5
2025-07-31T2200,3684A,130.8781,45.8222,七台河市,新建矿广场,,20,,14,13,11,18,,74,55,40,16,8,10,0.5,0.4
2025-07-31T2200,1779A,123.9305,47.3636,齐齐哈尔市,安居小区,,33,33,21,8,6,43,,64,58,20,14,4,4,0.6,0.4
2025-07-31T2200,1780A,123.9488,47.3386,齐齐哈尔市,中心广场,,28,28,17,9,2,44,,74,64,19,12,5,11,0.6,0.4
2025-07-31T2200,1781A,123.9483,47.3227,齐齐哈尔市,农牧车辆厂,,36,36,21,7,5,33,,69,59,26,12,8,7,0.6,0.4
2025-07-31T2200,1783A,123.945,47.2988,齐齐哈尔市,市环境监测站,,19,14,14,3,4,58,,72,66,8,10,6,5,0.4,0.3
2025-07-31T2200,3662A,123.6333,47.2075,齐齐哈尔市,富区青少年活动中心,,18,14,23,9,8,56,,68,65,10,14,4,5,0.3,0.3
2025-07-31T2200,2591A,107.9783,26.5747,黔东南苗族侗族自治州,市环境监测站,,23,,21,16,16,54,,81,77,20,9,2,2,0.5,0.5
2025-07-31T2200,2881A,107.8908,26.5311,黔东南苗族侗族自治州,凯里学院,,21,14,11,12,13,67,,89,87,12,10,2,2,0.3,0.7
2025-07-31T2200,2593A,107.5228,26.2403,黔南布依族苗族自治州,小围寨,,18,17,12,12,7,44,,73,70,8,9,3,3,0.5,0.4
2025-07-31T2200,3538A,107.5175,26.2978,黔南布依族苗族自治州,沙坝,,22,22,19,3,4,44,,92,87,17,9,4,4,0.5,0.4
2025-07-31T2200,2589A,104.9022,25.0925,黔西南布依族苗族自治州,场坝街,,29,29,22,20,9,66,,97,86,9,13,7,13,0.5,0.4
2025-07-31T2200,2590A,104.8811,25.0992,黔西南布依族苗族自治州,坪东大道,,43,42,27,30,15,54,,102,85,12,11,5,4,0.5,0.4
2025-07-31T2200,2502A,108.6236,21.9667,钦州市,市环保站,,22,22,28,9,13,49,,117,86,22,13,2,3,1.1,1
2025-07-31T2200,2503A,108.6549,21.9481,钦州市,沙埠小学,,17,17,31,9,15,53,,110,81,13,14,1,3,0.5,0.6
2025-07-31T2200,2504A,108.5989,21.7431,钦州市,港区一小,,,24,38,12,14,,,102,77,30,22,2,3,0.4,0.6
2025-07-31T2200,3404A,108.5959,21.9633,钦州市,北职校,,32,32,29,12,15,35,,114,82,16,10,3,3,0.6,0.7
2025-07-31T2200,1043A,119.7493,40.0116,秦皇岛市,第一关,,48,33,30,12,13,10,,137,97,95,42,6,7,0.3,0.5
2025-07-31T2200,1044A,119.5897,39.9499,秦皇岛市,监测站,,43,43,35,9,6,81,,140,131,33,18,5,5,0.6,0.5
2025-07-31T2200,1046A,119.5251,39.9041,秦皇岛市,建设大厦,颗粒物(PM10),51,52,37,12,9,76,,141,132,44,20,6,6,0.5,0.4
2025-07-31T2200,3132A,119.610547,39.943889,秦皇岛市,文明里,,41,38,31,7,9,131,,144,142,9,15,6,6,0.3,0.3
2025-07-31T2200,4198A,119.5090,39.8253,秦皇岛市,北戴河轮滑馆,,33,33,32,15,13,75,,134,122,25,19,2,3,0.9,0.7
2025-07-31T2200,1307A,120.6659,36.2403,青岛市,仰口,,16,16,20,3,7,48,,58,47,1,3,8,8,0.6,0.6
2025-07-31T2200,1310A,120.4134,36.0658,青岛市,市南区东部子站,,16,7,15,3,8,50,,66,51,2,3,6,6,0.3,0.3
2025-07-31T2200,1311A,120.3664,36.1032,青岛市,四方区子站,,16,12,14,7,9,49,,62,53,2,6,4,5,0.2,0.2
2025-07-31T2200,1312A,120.2994,36.054,青岛市,市南区西部子站,,14,9,19,3,8,42,,50,50,2,8,8,9,0.5,0.5
2025-07-31T2200,1313A,120.4581,36.0858,青岛市,崂山区子站,,46,46,43,3,8,46,,66,48,3,6,7,8,0.2,0.2
2025-07-31T2200,1315A,120.3999,36.3083,青岛市,城阳区子站,,17,6,15,3,8,52,,63,51,6,5,5,6,0.4,0.4
2025-07-31T2200,1966A,120.0405,35.8735,青岛市,黄岛区4号,,13,12,18,3,4,41,,67,55,15,9,10,10,0.3,0.3
2025-07-31T2200,3362A,120.5014,36.4034,青岛市,即墨2号,,17,6,15,3,10,53,,66,59,2,4,3,4,0.1,0.2
2025-07-31T2200,3642A,120.3503,36.0736,青岛市,市北区南部,,21,21,18,3,7,52,,65,55,7,10,5,5,0.4,0.5
2025-07-31T2200,3643A,120.3948,36.1805,青岛市,李沧区北部,,12,,9,7,11,37,,64,48,8,4,4,5,0.2,0.2
2025-07-31T2200,4290A,120.1969,35.9546,青岛市,珠江路669号,,11,7,16,3,11,34,,53,39,10,13,6,6,0.4,0.4
2025-07-31T2200,1702A,113.0426,23.691,清远市,环保大楼,,33,29,33,7,11,103,,148,134,9,12,11,7,0.7,0.8
2025-07-31T2200,1703A,113.0208,23.7106,清远市,凤城街办,,22,14,19,7,12,68,,107,96,11,13,7,6,0.5,0.6
2025-07-31T2200,3025A,113.0477,23.6344,清远市,技师学院,,30,11,19,7,11,94,,110,102,7,13,6,8,0.4,0.5
2025-07-31T2200,3318A,112.9903,23.7403,清远市,清新太和,,24,24,21,9,13,56,,106,90,13,11,5,6,0.6,0.6
2025-07-31T2200,3455A,113.076,23.7198,清远市,清城东城,,20,15,21,7,14,64,,102,94,10,9,6,5,0.7,0.7
2025-07-31T2200,2661A,107.6325,35.7357,庆阳市,庆阳五中,,39,31,31,12,14,123,,130,130,8,6,7,7,0.6,0.6
2025-07-31T2200,2662A,107.6364,35.7067,庆阳市,市环保局,,41,27,30,13,14,129,,136,136,5,4,12,12,0.7,0.7
2025-07-31T2200,1916A,103.7897,25.5035,曲靖市,环境监测站,,40,40,42,23,22,72,,124,119,25,18,7,9,0.7,0.7
2025-07-31T2200,1917A,103.8,25.5364,曲靖市,烟厂办公区,,,57,39,20,22,,,128,128,19,13,4,6,0.6,0.9
2025-07-31T2200,3376A,103.7947,25.462,曲靖市,南苑二区,,36,36,34,21,19,76,,128,123,13,10,3,4,0.8,0.8
2025-07-31T2200,3377A,103.7444,25.5261,曲靖市,曲靖师范学院,颗粒物(PM10),52,54,34,30,27,50,,98,93,18,17,9,11,0.6,0.7
2025-07-31T2200,1264A,118.8692,28.9398,衢州市,环保大楼,,26,26,27,14,15,45,,65,53,13,11,1,3,0.4,0.4
2025-07-31T2200,1265A,118.8709,28.9666,衢州市,实验学校,,21,21,25,13,14,49,,66,57,13,10,4,6,0.3,0.4
2025-07-31T2200,1266A,118.8621,28.9808,衢州市,衢州学院,,26,26,23,14,12,44,,65,57,16,10,2,4,0.3,0.3
2025-07-31T2200,1611A,118.5819,24.9117,泉州市,涂山街,,34,34,43,16,23,80,,148,124,15,20,2,4,0.7,0.7
2025-07-31T2200,1612A,118.5972,24.8978,泉州市,津头埔,,31,31,43,19,23,88,,160,137,10,16,2,5,0.5,0.5
2025-07-31T2200,1613A,118.6663,24.9424,泉州市,万安,,30,30,42,17,21,77,,147,106,11,18,2,4,0.4,0.5
2025-07-31T2200,1614A,118.6117,24.9604,泉州市,清源山,,,,,,,,,,,,,,,,
2025-07-31T2200,3529A,118.6333,24.9264,泉州市,城华南路,,36,36,35,22,22,80,,141,113,13,16,3,5,0.6,0.6
2025-07-31T2200,2626A,88.8876,29.2718,日喀则市,日喀则监测站,,22,6,4,3,1,70,,83,82,3,4,12,12,0.3,0.3
2025-07-31T2200,3726A,88.8781,29.2426,日喀则市,林业技术推广中心,,28,21,6,19,1,65,,76,76,3,3,6,8,0.4,0.4
2025-07-31T2200,1659A,119.471,35.4209,日照市,监测站,,16,12,12,3,8,50,,58,52,4,11,6,6,0.2,0.4
2025-07-31T2200,1660A,119.523,35.4216,日照市,市政府广场,,17,17,13,3,4,49,,58,51,2,6,3,4,0.6,0.6
2025-07-31T2200,1661A,119.5587,35.4044,日照市,港务局,,,17,16,,16,49,,66,58,2,6,,35,0.6,0.5
2025-07-31T2200,3507A,119.5328,35.4625,日照市,职业技术学院,,,12,13,3,7,,,56,51,3,10,4,5,0.5,0.5
2025-07-31T2200,3604A,119.3266,35.1044,日照市,岚山环保分局,,22,22,16,3,3,47,,68,58,5,4,8,9,0.5,0.5
2025-07-31T2200,1835A,111.1922,34.7752,三门峡市,市政府,,40,34,41,16,19,126,,162,158,10,10,8,6,0.4,0.5
2025-07-31T2200,1836A,111.1587,34.7942,三门峡市,开发区,,40,31,38,13,21,128,,164,158,18,15,8,8,0.3,0.4
2025-07-31T2200,1838A,111.143,34.7955,三门峡市,风景区,,43,8,34,3,18,135,,170,166,7,8,5,5,0.5,0.5
2025-07-31T2200,3039A,111.1911,34.7829,三门峡市,三门峡市第一小学,,40,25,38,15,16,128,,164,160,14,13,10,8,0.4,0.5
2025-07-31T2200,3598A,111.1,34.7167,三门峡市,富达温泉假日酒店,颗粒物(PM10),51,52,45,14,21,133,,168,165,8,8,3,10,0.3,0.6
2025-07-31T2200,2324A,117.6211,26.2625,三明市,三钢,,26,23,27,18,19,17,,76,52,18,14,3,8,0.5,0.8
2025-07-31T2200,2325A,117.635,26.2714,三明市,三明二中,,28,28,29,14,14,15,,77,52,19,11,3,5,0.5,0.5
2025-07-31T2200,2326A,117.6028,26.2378,三明市,三元区政府,,28,28,31,14,12,18,,83,56,21,14,3,5,0.4,0.5
2025-07-31T2200,2327A,117.7275,26.3108,三明市,洋溪,,,,,,,,,,,,,,,,
2025-07-31T2200,1876A,109.5078,18.2489,三亚市,河东子站,,31,31,27,15,12,54,,58,57,5,5,4,3,0.2,0.4
2025-07-31T2200,1877A,109.4964,18.2681,三亚市,河西子站,,28,28,29,17,15,50,,62,60,10,5,3,2,0.2,0.1
2025-07-31T2200,3540A,109.7348,18.3443,三亚市,君悦子站,,31,31,28,14,12,45,,61,58,12,6,2,2,0.5,0.4
2025-07-31T2200,2624A,91.7608,29.2313,山南市,山南监测站,,31,31,14,3,3,82,,99,97,3,3,3,3,0.3,0.3
2025-07-31T2200,2625A,91.7706,29.2436,山南市,山南人民医院,,24,11,12,3,5,75,,96,94,4,4,4,4,0.2,0.3
2025-07-31T2200,1674A,116.6794,23.3667,汕头市,金平子站,,22,17,19,9,12,70,,90,85,12,11,2,2,0.6,0.7
2025-07-31T2200,1675A,116.7244,23.3633,汕头市,龙湖子站,,26,26,21,9,10,65,,85,81,9,10,6,7,0.5,0.6
2025-07-31T2200,1676A,116.7258,23.2775,汕头市,濠江子站,,42,42,30,12,14,63,,80,77,10,8,5,5,0.5,0.6
2025-07-31T2200,1677A,116.7519,23.4714,汕头市,澄海子站,,33,33,24,13,15,63,,93,84,8,12,2,3,0.7,0.8
2025-07-31T2200,1678A,116.6092,23.2539,汕头市,潮阳子站,,22,22,22,12,12,70,,80,80,4,6,4,4,0.5,0.5
2025-07-31T2200,3444A,116.454,23.2684,汕头市,潮南峡山,,,21,19,12,13,,,78,78,7,8,5,5,,0.8
2025-07-31T2200,3624A,116.4069,23.2533,汕头市,潮南子站,,23,23,20,15,13,67,,76,76,5,7,4,4,0.6,0.6
2025-07-31T2200,1693A,115.3653,22.775,汕尾市,市环保局,,40,40,51,7,12,76,,106,100,6,9,2,2,0.5,0.6
2025-07-31T2200,1694A,115.3706,22.7898,汕尾市,市政府,,24,12,24,7,10,74,,104,97,9,10,3,4,0.5,0.5
2025-07-31T2200,1695A,115.3622,22.7925,汕尾市,新城中学,,23,9,28,9,12,73,,107,101,7,10,4,4,0.5,0.5
2025-07-31T2200,2645A,109.9154,33.8715,商洛市,监测站,,35,35,33,20,20,69,,134,112,20,12,10,8,0.6,0.5
2025-07-31T2200,3045A,109.9643,33.8471,商洛市,商州区中学,,42,42,37,16,19,58,,128,103,23,14,19,12,0.6,0.4
2025-07-31T2200,2408A,115.6702,34.4285,商丘市,环境监测站,,39,39,39,24,24,91,,145,126,11,11,4,4,0.4,0.5
2025-07-31T2200,2409A,115.6458,34.4045,商丘市,粮食局,,37,37,34,16,19,89,,144,125,10,10,3,3,0.4,0.5
2025-07-31T2200,2410A,115.6293,34.3948,商丘市,睢阳区环保局,,36,36,39,16,18,90,,145,126,9,8,6,5,0.3,0.3
2025-07-31T2200,3171A,115.6071,34.4465,商丘市,梁园区档案局,,36,36,38,19,20,86,,139,122,12,12,4,3,0.4,0.5
2025-07-31T2200,1141A,121.4,31.238,上海市,普陀,,41,41,21,19,7,80,,115,106,14,10,5,5,0.3,0.4
2025-07-31T2200,1142A,121.478,31.2036,上海市,十五厂,,49,49,23,24,10,63,,108,95,22,14,7,7,0.8,0.7
2025-07-31T2200,1143A,121.467,31.3008,上海市,虹口,,45,45,18,23,10,67,,100,90,12,8,10,9,0.6,0.6
2025-07-31T2200,1147A,121.425,31.2261,上海市,静安监测站,,41,41,19,22,10,70,,109,98,15,11,3,3,0.7,0.6
2025-07-31T2200,1148A,121.703,31.1907,上海市,浦东川沙,,26,26,19,13,10,57,,104,83,10,8,10,10,0.5,0.5
2025-07-31T2200,1149A,121.533,31.2284,上海市,浦东新区监测站,,40,40,18,20,9,62,,115,100,15,7,7,8,0.4,0.8
2025-07-31T2200,1150A,121.577,31.2071,上海市,浦东张江,,44,44,21,15,9,70,,122,104,12,8,5,5,0.6,0.6
2025-07-31T2200,3265A,121.4316,31.3322,上海市,宝山庙行,,48,48,16,20,7,52,,89,84,14,9,7,7,0.4,0.4
2025-07-31T2200,3266A,121.8791,31.4662,上海市,崇明上实东滩,,27,27,23,6,8,33,,105,64,16,9,3,4,0.8,0.6
2025-07-31T2200,3268A,121.3162,31.2838,上海市,嘉定南翔,,39,39,14,21,9,63,,94,86,17,11,7,6,0.4,0.4
2025-07-31T2200,3269A,121.3359,30.7456,上海市,金山新城,颗粒物(PM10),62,73,24,21,8,94,,118,117,7,6,3,3,0.7,0.3
2025-07-31T2200,3270A,121.4996,31.0739,上海市,闵行浦江,,40,40,21,24,10,68,,114,101,9,6,4,4,1.0,0.9
2025-07-31T2200,3271A,121.2886,31.1663,上海市,青浦徐泾,,40,40,14,26,9,74,,90,85,11,12,6,6,0.6,0.6
2025-07-31T2200,3272A,121.2186,31.0378,上海市,松江图书馆,,37,37,12,22,7,76,,93,92,18,12,6,7,0.6,0.5
2025-07-31T2200,3273A,121.3902,31.2059,上海市,长宁仙霞,,37,37,17,16,7,69,,96,89,13,12,7,7,0.6,0.6
2025-07-31T2200,3274A,121.7965,31.0507,上海市,浦东惠南,,30,30,24,12,11,62,,108,89,6,6,9,9,0.8,0.8
2025-07-31T2200,3544A,121.4891,30.925,上海市,奉贤南桥新城,,43,43,23,17,14,76,,127,113,13,11,3,2,0.6,0.6
2025-07-31T2200,4183A,121.4174,31.16637,上海市,冠生园路458号,,,39,16,18,9,,,96,92,12,10,3,3,0.8,0.7
2025-07-31T2200,4205A,121.5419,31.2683,上海市,宁武路151号,,42,42,22,18,11,52,,102,84,21,12,7,7,0.5,0.5
2025-07-31T2200,2381A,118.005,28.4572,上饶市,百草园,,,,,,,,,,,,,,,,
2025-07-31T2200,2382A,117.9756,28.4436,上饶市,市监测站,,32,32,23,15,13,44,,92,84,18,7,6,14,0.4,0.4
2025-07-31T2200,2383A,117.9519,28.4628,上饶市,凤凰光学,,37,37,27,18,14,34,,78,68,28,10,4,17,0.8,0.8
2025-07-31T2200,3685A,117.897,28.4315,上饶市,双创科技城,,34,34,24,15,13,44,,91,80,39,14,2,19,0.5,0.5
