timepoint,stationcode,longitude,latitude,area,positionname,primarypollutant,aqi,pm10,pm10_24h,pm2_5,pm2_5_24h,o3,o3_24h,o3_8h,o3_8h_24h,no2,no2_24h,so2,so2_24h,co,co_24h
2026-03-19T2100,2568A,102.2503,31.8896,阿坝藏族羌族自治州,马师校,,38,38,20,8,8,77,77,99,96,8,8,4,4,0.3,0.3
2026-03-19T2100,3994A,102.2174,31.9016,阿坝藏族羌族自治州,马尔康中学西区,,24,22,21,12,8,74,74,98,94,11,7,3,2,0.4,0.3
2026-03-19T2100,2695A,80.2899,41.1684,阿克苏地区,电视台,"颗粒物(PM10),细颗粒物(PM2.5)",130,197,236,93,110,90,90,97,97,10,16,3,3,0.5,0.7
2026-03-19T2100,2696A,80.2592,41.1541,阿克苏地区,艺术中心,颗粒物(PM10),130,196,227,81,88,83,83,98,98,15,23,4,4,0.9,0.8
2026-03-19T2100,2205A,105.699,38.8409,阿拉善盟,蒙二幼,颗粒物(PM10),90,105,66,27,13,88,88,104,102,10,7,8,9,0.6,0.5
2026-03-19T2100,2206A,105.7198,38.8508,阿拉善盟,环保局新楼,颗粒物(PM10),84,97,65,21,14,90,90,95,95,6,6,8,8,0.6,0.6
2026-03-19T2100,2708A,88.1266,47.8515,阿勒泰地区,市站,,22,22,17,9,2,70,70,99,81,22,10,5,6,0.2,0.2
2026-03-19T2100,4166A,88.1198,47.7931,阿勒泰地区,阿勒泰路33号,,26,25,14,3,2,82,82,95,86,15,8,6,6,0.3,0.3
2026-03-19T2100,2630A,80.1171,32.4999,阿里地区,阿里监测站,NA,NA,12,12,3,4,94,94,97,97,1,4,NA,10,NA,0.3
2026-03-19T2100,3192A,80.0906,32.5029,阿里地区,阿里藏医院,,31,8,7,3,3,98,98,102,102,1,2,16,11,0.3,0.3
2026-03-19T2100,2644A,109.0088,32.6974,安康市,汉滨区检察院,颗粒物(PM10),71,79,63,30,25,27,27,63,62,36,25,4,4,0.6,0.5
2026-03-19T2100,4054A,109.0324,32.6913,安康市,市邮政管理局,颗粒物(PM10),75,85,68,34,26,27,27,65,64,35,22,4,6,0.8,0.7
2026-03-19T2100,2291A,117.0806,30.5181,安庆市,环科院,细颗粒物(PM2.5),110,80,60,70,48,60,60,99,90,25,13,8,7,0.9,0.7
2026-03-19T2100,2292A,117.0331,30.5118,安庆市,马山宾馆,细颗粒物(PM2.5),110,76,58,71,52,64,64,101,93,28,18,6,5,1.0,0.9
2026-03-19T2100,2294A,116.9897,30.6146,安庆市,安庆大学,细颗粒物(PM2.5),68,67,64,44,44,84,84,99,97,12,8,4,4,0.7,0.6
2026-03-19T2100,3173A,117.0598,30.5351,安庆市,市人大,细颗粒物(PM2.5),105,95,66,65,45,62,62,102,95,27,20,7,6,0.8,0.7
2026-03-19T2100,3123A,105.9408,26.2431,安顺市,凤凰山,,25,23,26,17,17,47,47,47,47,8,10,13,12,0.7,0.7
2026-03-19T2100,3124A,105.9443,26.2567,安顺市,金钟山,,33,24,20,23,17,43,43,43,43,7,8,14,13,0.8,0.8
2026-03-19T2100,3125A,105.8983,26.248,安顺市,娄家坡,,26,26,27,18,19,43,43,43,43,9,10,11,12,0.8,0.8
2026-03-19T2100,1819A,114.3552,36.1017,安阳市,红庙街,细颗粒物(PM2.5),103,108,74,63,34,61,61,79,77,26,29,4,4,0.5,0.6
2026-03-19T2100,1820A,114.361,36.0681,安阳市,银杏小区,细颗粒物(PM2.5),109,105,78,69,38,63,63,80,78,25,32,3,3,0.2,0.3
2026-03-19T2100,3141A,114.3921,36.0879,安阳市,信访局,细颗粒物(PM2.5),104,101,76,64,39,63,63,82,79,24,30,3,4,0.2,0.1
2026-03-19T2100,3669A,114.4706,36.0634,安阳市,左辅环卫站,"颗粒物(PM10),细颗粒物(PM2.5)",104,129,88,64,44,56,56,83,77,22,26,4,4,0.4,0.4
2026-03-19T2100,4117A,114.2918,36.0769,安阳市,钢三路198号,颗粒物(PM10),114,156,87,74,34,53,53,75,73,29,26,4,4,0.5,0.5
2026-03-19T2100,1748A,123.0441,41.1201,鞍山市,深沟寺,细颗粒物(PM2.5),108,119,56,68,30,43,43,75,67,43,22,13,12,1.9,0.9
2026-03-19T2100,1749A,123.011,41.0931,鞍山市,太阳城,细颗粒物(PM2.5),111,126,59,72,34,40,40,75,66,44,23,14,14,1.9,1.1
2026-03-19T2100,1750A,123.0483,41.1445,鞍山市,太平,细颗粒物(PM2.5),109,124,58,69,31,31,31,74,64,58,25,39,17,3.6,1.6
2026-03-19T2100,1751A,122.964,41.0968,鞍山市,铁西三道街,细颗粒物(PM2.5),119,129,66,80,38,30,30,75,64,59,31,16,11,1.8,0.9
2026-03-19T2100,1753A,123.0219,41.0822,鞍山市,明达新区,细颗粒物(PM2.5),108,119,56,68,32,43,43,75,66,40,22,17,13,1.8,0.9
2026-03-19T2100,4201A,122.944647,41.082639,鞍山市,兴盛南路290号,细颗粒物(PM2.5),116,154,66,77,35,24,24,71,60,60,27,10,9,1.8,1
2026-03-19T2100,2195A,107.4206,40.7609,巴彦淖尔市,附二中,颗粒物(PM10),58,61,52,38,24,68,68,97,93,31,21,9,14,0.5,0.4
2026-03-19T2100,2196A,107.37,40.7372,巴彦淖尔市,市环保大楼,颗粒物(PM10),68,74,52,28,23,80,80,104,101,15,21,7,7,0.6,0.5
2026-03-19T2100,1956A,86.1476,41.7529,巴音郭楞蒙古自治州,孔雀公园,颗粒物(PM10),136,212,256,70,79,78,78,87,87,13,31,9,10,0.5,0.6
2026-03-19T2100,1957A,86.1971,41.7166,巴音郭楞蒙古自治州,棉纺厂,颗粒物(PM10),153,255,318,82,84,78,78,89,89,10,18,/,/,/,/
2026-03-19T2100,1958A,86.236,41.7172,巴音郭楞蒙古自治州,经济开发区,颗粒物(PM10),134,208,254,65,76,67,67,77,77,16,17,7,7,0.4,0.5
2026-03-19T2100,3181A,106.776805,31.852614,巴中市,市五中,,36,36,35,19,16,23,23,48,45,21,18,7,7,0.7,0.7
2026-03-19T2100,3183A,106.7419,31.8654,巴中市,圣泉水务公司,,36,36,29,21,13,6,6,51,47,33,17,9,9,0.9,0.7
2026-03-19T2100,3616A,106.7617,31.8343,巴中市,市中心医院,,36,36,33,18,15,14,14,50,46,26,19,9,9,0.8,0.7
2026-03-19T2100,2235A,122.7909,45.608,白城市,洮北区环保局,细颗粒物(PM2.5),140,147,86,104,58,74,74,110,102,22,14,7,4,0.7,0.5
2026-03-19T2100,2236A,122.8741,45.5725,白城市,市环保局,细颗粒物(PM2.5),119,122,89,80,61,59,59,89,80,11,12,5,5,0.5,0.5
2026-03-19T2100,2231A,126.4219,41.9172,白山市,喜丰,颗粒物(PM10),55,56,58,16,15,84,84,95,93,13,21,7,10,0.7,0.7
2026-03-19T2100,2232A,126.4082,41.9416,白山市,环保局,,35,35,36,22,18,92,92,97,96,7,12,8,10,0.6,0.9
2026-03-19T2100,2647A,104.1727,36.5448,白银市,第三小学,NA,NA,98,128,30,39,84,84,92,92,11,16,3,26,NA,0.7
2026-03-19T2100,2648A,104.1467,36.5482,白银市,动力公司,颗粒物(PM10),78,88,127,27,34,83,83,91,90,7,17,2,12,0.4,0.5
2026-03-19T2100,2512A,106.6102,23.901,百色市,市监测站,颗粒物(PM10),53,53,48,36,29,77,77,93,90,14,13,20,16,0.8,0.6
2026-03-19T2100,2513A,106.6524,23.8842,百色市,市中心血站,细颗粒物(PM2.5),66,57,52,43,35,76,76,91,90,18,14,22,15,0.7,0.7
2026-03-19T2100,4133A,106.6273,23.8798,百色市,龙景西路,细颗粒物(PM2.5),64,65,57,42,35,77,77,96,95,14,11,22,17,0.7,0.6
2026-03-19T2100,2270A,117.396,32.9389,蚌埠市,工人疗养院,细颗粒物(PM2.5),138,128,116,101,90,74,74,92,90,36,27,4,4,1.0,0.9
2026-03-19T2100,2271A,117.3606,32.9428,蚌埠市,百货大楼,细颗粒物(PM2.5),127,128,109,89,85,68,68,103,99,37,23,4,4,0.8,0.6
2026-03-19T2100,2273A,117.4183,32.8909,蚌埠市,蚌埠学院,细颗粒物(PM2.5),126,102,89,88,85,97,97,113,112,17,20,4,4,0.6,0.6
2026-03-19T2100,2274A,117.3534,32.9672,蚌埠市,淮上区政府,细颗粒物(PM2.5),140,119,103,104,88,69,69,107,105,34,25,5,4,0.7,0.7
2026-03-19T2100,2275A,117.3143,32.8977,蚌埠市,高新区,细颗粒物(PM2.5),128,112,96,90,82,95,95,102,101,21,25,6,6,0.8,0.7
2026-03-19T2100,3715A,117.3091,32.9314,蚌埠市,蚌埠田家炳中学,细颗粒物(PM2.5),134,124,110,97,88,82,82,106,105,29,25,18,5,0.6,0.6
2026-03-19T2100,1585A,109.8761,40.6533,包头市,市环境监测站,颗粒物(PM10),59,62,59,21,34,93,93,138,136,23,37,5,15,0.4,0.9
2026-03-19T2100,1587A,109.9992,40.5843,包头市,包头八中,细颗粒物(PM2.5),82,88,75,51,51,45,45,114,104,67,44,9,20,0.6,1.2
2026-03-19T2100,1589A,109.8641,40.6288,包头市,惠龙物流,颗粒物(PM10),55,56,52,23,35,78,78,121,119,30,37,5,14,0.4,0.9
2026-03-19T2100,1590A,110.0376,40.5546,包头市,东河鸿龙湾,细颗粒物(PM2.5),100,76,57,60,41,65,65,120,116,72,54,12,13,0.8,0.9
2026-03-19T2100,3283A,109.9154,40.5684,包头市,滨河大厦,颗粒物(PM10),61,65,53,40,36,56,56,124,117,58,50,10,12,0.7,0.7
2026-03-19T2100,3419A,109.9449,40.6259,包头市,包头市委党校,颗粒物(PM10),62,66,58,29,35,59,59,121,116,51,45,8,16,0.4,0.8
2026-03-19T2100,3683A,109.8332,40.6577,包头市,昆区政府,,50,50,50,20,36,84,84,128,126,32,35,4,16,0.4,1
2026-03-19T2100,1931A,107.0802,34.3129,宝鸡市,竹园沟,颗粒物(PM10),93,110,124,36,26,18,18,50,45,27,21,6,6,0.3,0.2
2026-03-19T2100,1933A,107.1429,34.3549,宝鸡市,监测站,颗粒物(PM10),113,153,135,71,41,8,8,46,41,40,22,7,9,0.5,0.3
2026-03-19T2100,1934A,107.1172,34.3759,宝鸡市,技工学校,颗粒物(PM10),106,134,140,57,42,18,18,53,48,43,20,3,5,0.6,0.4
2026-03-19T2100,1936A,107.2025,34.3518,宝鸡市,文理学院,颗粒物(PM10),114,156,142,64,44,9,9,46,42,54,24,4,5,0.8,0.5
2026-03-19T2100,1937A,107.2396,34.3626,宝鸡市,三迪小学,颗粒物(PM10),115,158,150,60,45,8,8,48,44,58,28,4,5,0.7,0.5
2026-03-19T2100,4155A,107.1721,34.3558,宝鸡市,滨河北路,颗粒物(PM10),127,188,161,67,42,9,9,48,42,50,25,5,6,0.7,0.5
2026-03-19T2100,4308A,107.3898,34.3601,宝鸡市,陈仓区北开路21号,NA,NA,NA,157,NA,40,8,8,49,43,54,35,8,14,1.0,0.5
2026-03-19T2100,1051A,115.4803,38.8568,保定市,游泳馆,颗粒物(PM10),72,80,60,45,34,79,79,99,98,29,27,11,11,0.6,0.7
2026-03-19T2100,1052A,115.509,38.8895,保定市,华电二区,细颗粒物(PM2.5),60,62,49,40,26,83,83,100,100,21,19,4,6,0.5,0.6
2026-03-19T2100,1053A,115.4588,38.9037,保定市,接待中心,颗粒物(PM10),73,81,61,43,28,89,89,102,101,20,24,6,6,0.4,0.2
2026-03-19T2100,1054A,115.4484,38.8344,保定市,地表水厂,颗粒物(PM10),80,92,69,46,26,82,82,100,99,26,28,6,8,0.4,0.6
2026-03-19T2100,3581A,115.3136,38.9511,保定市,满城区生态环境分局,颗粒物(PM10),98,117,84,56,33,71,71,104,99,30,28,9,6,0.6,0.4
2026-03-19T2100,3582A,115.4709,38.7628,保定市,清苑区第二中学,颗粒物(PM10),78,89,72,36,31,76,76,94,92,22,23,8,8,0.4,0.4
2026-03-19T2100,3583A,115.6231,39.0223,保定市,徐水物探局,颗粒物(PM10),101,121,78,45,29,70,70,102,99,35,25,5,5,0.6,0.6
2026-03-19T2100,4004A,115.4199,38.8665,保定市,双鹰农机,细颗粒物(PM2.5),90,104,75,55,32,78,78,104,101,36,36,7,7,0.6,0.4
2026-03-19T2100,4034A,115.515,38.8589,保定市,植保所站,细颗粒物(PM2.5),64,66,66,42,28,81,81,97,97,25,25,6,5,0.4,0.6
2026-03-19T2100,2594A,99.1589,25.1137,保山市,市环境监测站,,31,31,42,17,27,78,78,108,101,6,10,5,10,0.2,0.2
2026-03-19T2100,2595A,99.1616,25.1381,保山市,市环保局,,32,31,48,22,28,93,93,111,107,3,6,5,5,0.3,0.3
2026-03-19T2100,1867A,109.1435,21.4085,北海市,海滩公园,NA,NA,25,26,9,15,NA,NA,82,82,9,11,7,8,0.4,0.8
2026-03-19T2100,1868A,109.0983,21.466,北海市,新市环保局,,23,23,28,13,15,67,67,72,72,14,11,8,8,0.5,0.6
2026-03-19T2100,1869A,109.1775,21.5232,北海市,北海工业园,,18,18,57,11,24,55,55,70,67,11,12,6,9,0.4,0.6
2026-03-19T2100,3400A,109.1844,21.4396,北海市,龙潭自来水厂,,22,20,32,3,23,70,70,77,76,10,11,4,5,0.6,0.7
2026-03-19T2100,1001A,116.3611,39.8786,北京市,万寿西宫,颗粒物(PM10),71,79,59,40,27,80,80,105,103,32,34,5,3,0.5,0.4
2026-03-19T2100,1003A,116.4174,39.9289,北京市,东四,颗粒物(PM10),68,75,57,38,26,87,87,106,105,24,29,8,6,0.4,0.4
2026-03-19T2100,1004A,116.4073,39.8858,北京市,天坛,颗粒物(PM10),66,72,51,38,23,75,75,97,96,24,26,5,3,0.4,0.4
2026-03-19T2100,1005A,116.4622,39.9364,北京市,农展馆,颗粒物(PM10),65,71,55,33,23,85,85,103,102,21,24,7,5,0.4,0.4
2026-03-19T2100,1006A,116.3399,39.9293,北京市,官园,细颗粒物(PM2.5),76,76,60,48,28,78,78,90,89,27,38,5,3,0.4,0.4
2026-03-19T2100,1007A,116.2879,39.9613,北京市,海淀万柳,颗粒物(PM10),67,73,59,34,23,70,70,81,81,22,33,5,3,0.4,0.2
2026-03-19T2100,1008A,116.6635,40.1349,北京市,顺义新城,颗粒物(PM10),60,64,48,31,20,74,74,102,100,38,34,6,5,0.4,0.3
2026-03-19T2100,1009A,116.6275,40.327,北京市,怀柔镇,颗粒物(PM10),68,74,34,38,15,55,55,95,88,36,19,5,5,0.7,0.4
2026-03-19T2100,1010A,116.2295,40.217,北京市,昌平镇,颗粒物(PM10),59,62,46,37,26,65,65,99,94,36,35,3,4,0.6,0.6
2026-03-19T2100,1011A,116.3968,39.982,北京市,奥体中心,颗粒物(PM10),63,67,56,33,24,77,77,92,90,23,29,7,5,0.5,0.5
2026-03-19T2100,3418A,116.8336,40.4095,北京市,密云新城,颗粒物(PM10),75,85,52,34,18,60,60,94,89,26,29,3,3,0.6,0.5
2026-03-19T2100,3671A,116.0879,39.9725,北京市,门头沟三家店,颗粒物(PM10),86,100,53,43,23,32,32,97,90,60,30,4,4,0.5,0.4
2026-03-19T2100,3672A,116.1507,39.8246,北京市,丰台云岗,颗粒物(PM10),89,104,78,47,26,68,68,99,96,37,36,5,3,0.5,0.4
2026-03-19T2100,3674A,115.9578,39.7602,北京市,房山燕山,颗粒物(PM10),57,59,48,29,23,74,74,92,85,21,22,6,5,0.5,0.4
2026-03-19T2100,3675A,116.4669,39.7734,北京市,大兴旧宫,颗粒物(PM10),72,80,60,37,22,79,79,104,101,22,24,8,4,0.5,0.4
2026-03-19T2100,3694A,115.9859,40.4562,北京市,延庆石河营,颗粒物(PM10),62,66,45,37,26,18,18,111,95,81,26,2,3,0.6,0.5
2026-03-19T2100,3695A,116.6151,40.3052,北京市,怀柔新城,颗粒物(PM10),61,65,32,40,16,61,61,97,91,22,13,3,3,0.4,0.3
2026-03-19T2100,3696A,116.2542,39.8764,北京市,丰台小屯,颗粒物(PM10),75,84,69,42,27,75,75,92,90,30,43,7,4,0.4,0.3
2026-03-19T2100,3697A,116.8399,40.3843,北京市,密云镇,颗粒物(PM10),79,90,42,41,18,12,12,98,86,90,35,3,3,0.6,0.4
2026-03-19T2100,4057A,115.9423,40.4431,北京市,延庆百泉,颗粒物(PM10),56,58,50,32,30,52,52,103,96,39,21,1,3,0.5,0.5
2026-03-19T2100,4058A,116.6598,39.9164,北京市,通州新华,颗粒物(PM10),70,77,60,31,22,76,76,91,90,25,33,6,4,0.4,0.3
2026-03-19T2100,4182A,116.1942,39.9158,北京市,石景山八角,颗粒物(PM10),86,100,74,34,22,66,66,88,87,25,35,3,5,0.4,0.3
2026-03-19T2100,4194A,117.078628,40.151726,北京市,平谷新城,颗粒物(PM10),78,89,47,42,20,55,55,93,87,37,30,3,3,0.5,0.5
2026-03-19T2100,1761A,123.8274146,41.31234549,本溪市,大峪,,37,37,48,14,22,65,65,84,81,17,26,10,12,0.5,1.1
2026-03-19T2100,1763A,123.7169,41.3094,本溪市,彩屯,,40,40,48,11,26,80,80,96,94,12,23,11,12,0.4,0.9
2026-03-19T2100,1764A,123.7672166,41.28649327,本溪市,东明,颗粒物(PM10),58,61,56,15,24,70,70,88,86,20,29,12,14,0.6,1.1
2026-03-19T2100,1765A,123.799345,41.266614,本溪市,新立屯,颗粒物(PM10),58,61,40,19,17,26,26,86,78,51,22,8,10,0.5,0.8
2026-03-19T2100,1766A,123.829144,41.336777,本溪市,威宁,颗粒物(PM10),86,100,63,44,24,3,3,91,72,82,30,10,8,0.7,0.8
2026-03-19T2100,2587A,105.287,27.3133,毕节市,八中,,12,NA,23,6,14,38,38,34,33,8,10,10,10,0.7,0.7
2026-03-19T2100,2588A,105.3079,27.2987,毕节市,师专,,12,NA,21,8,12,36,36,32,31,9,10,9,10,0.7,0.7
2026-03-19T2100,4263A,105.3688,27.3598,毕节市,工业大道,,15,NA,17,8,8,47,47,42,42,10,10,14,10,/,/
2026-03-19T2100,1629A,117.9961,37.3604,滨州市,第二水厂,细颗粒物(PM2.5),80,80,56,50,34,80,80,102,97,26,26,12,11,0.5,0.4
2026-03-19T2100,1630A,117.9789,37.3931,滨州市,北中新校,NA,NA,75,54,45,30,75,75,94,92,31,24,NA,12,0.6,0.2
2026-03-19T2100,3514A,117.9379,37.3959,滨州市,中海酒店,细颗粒物(PM2.5),82,88,55,51,35,68,68,99,94,40,30,15,9,0.8,0.6
2026-03-19T2100,3515A,117.9381509,37.35547456,滨州市,开发区一中,细颗粒物(PM2.5),84,80,62,52,36,64,64,89,84,27,22,17,15,0.6,0.6
2026-03-19T2100,3516A,118.0914,37.6938,滨州市,金海六路,细颗粒物(PM2.5),68,71,51,44,25,56,56,94,88,47,36,7,7,0.7,0.6
2026-03-19T2100,4028A,117.9955,37.3752,滨州市,滨州市西街道办事处,NA,NA,85,56,47,32,74,74,97,93,NA,16,NA,9,0.6,0.5
2026-03-19T2100,2311A,115.8071,33.8399,亳州市,污水处理厂,细颗粒物(PM2.5),94,109,70,57,41,76,76,102,99,22,18,5,6,0.2,0.2
2026-03-19T2100,2312A,115.7789,33.8519,亳州市,三国揽胜宫,细颗粒物(PM2.5),98,108,75,59,41,72,72,94,91,23,17,5,6,0.3,0.2
2026-03-19T2100,3332A,115.7631,33.803,亳州市,亳州学院,NA,NA,NA,69,NA,41,NA,NA,100,100,17,12,6,5,0.2,0.2
2026-03-19T2100,2693A,82.0482,44.8553,博尔塔拉蒙古自治州,市党校,颗粒物(PM10),73,81,77,18,19,104,104,105,105,8,8,3,4,0.4,0.5
2026-03-19T2100,2694A,82.0805,44.8966,博尔塔拉蒙古自治州,市环保局,颗粒物(PM10),72,80,65,30,27,90,90,96,96,22,27,2,3,0.4,0.6
2026-03-19T2100,1071A,116.8733,38.2922,沧州市,沧县城建局,颗粒物(PM10),68,75,57,37,32,61,61,95,90,39,29,4,6,0.6,0.5
2026-03-19T2100,1072A,116.8462,38.3189,沧州市,电视转播站,细颗粒物(PM2.5),70,65,48,45,33,87,87,101,100,21,19,3,2,0.4,0.4
2026-03-19T2100,1073A,116.8588,38.3161,沧州市,市环保局,颗粒物(PM10),71,79,59,41,30,83,83,98,97,21,18,6,7,0.3,0.2
2026-03-19T2100,3324A,116.8011,38.294,沧州市,河北水利电力学院,颗粒物(PM10),65,70,57,42,35,67,67,92,88,31,26,8,8,0.3,0.3
2026-03-19T2100,2622A,97.1813,31.1289,昌都市,昌都监测站,,27,6,23,3,8,84,84,85,85,3,13,4,5,0.5,0.5
2026-03-19T2100,3719A,97.1707,31.1428,昌都市,昌都会议中心,,30,13,16,9,7,94,94,96,96,3,5,8,6,0.3,0.3
2026-03-19T2100,2692A,87.2722,44.0298,昌吉回族自治州,新区政务中心,细颗粒物(PM2.5),62,46,48,41,35,104,104,111,111,18,29,9,8,0.6,0.7
2026-03-19T2100,3613A,87.3069,44.0093,昌吉回族自治州,亚心广场,颗粒物(PM10),60,63,65,39,35,110,110,117,117,13,26,13,11,0.7,0.8
2026-03-19T2100,4164A,87.2057,43.9289,昌吉回族自治州,财政所,颗粒物(PM10),78,88,62,45,25,76,76,101,101,37,14,12,8,0.8,0.6
2026-03-19T2100,1120A,125.2874,43.9024,长春市,客车厂,颗粒物(PM10),113,153,82,50,32,66,66,87,80,20,18,7,7,0.5,0.5
2026-03-19T2100,1121A,125.2943,43.8508,长春市,邮电学院,颗粒物(PM10),105,132,71,38,29,69,69,89,82,14,17,7,9,0.4,0.3
2026-03-19T2100,1122A,125.3648,43.8745,长春市,劳动公园,颗粒物(PM10),104,130,68,46,27,69,69,90,83,18,16,10,8,0.5,0.4
2026-03-19T2100,1123A,125.3233,43.8781,长春市,园林处,颗粒物(PM10),107,138,69,58,29,61,61,90,81,23,17,13,8,0.5,0.4
2026-03-19T2100,1124A,125.4604,43.7904,长春市,净月潭,颗粒物(PM10),89,104,61,31,26,76,76,92,88,12,18,7,6,0.3,0.4
2026-03-19T2100,1126A,125.38,43.8422,长春市,经开区环卫处,颗粒物(PM10),102,125,70,39,27,69,69,91,83,19,20,6,8,0.4,0.4
2026-03-19T2100,1127A,125.234,43.7761,长春市,高新区管委会,颗粒物(PM10),105,131,72,35,29,71,71,91,86,14,20,7,7,0.4,0.4
2026-03-19T2100,1128A,125.1695,43.83,长春市,岱山公园,颗粒物(PM10),104,128,74,30,29,60,60,82,74,21,19,4,5,0.2,0.2
2026-03-19T2100,4281A,125.334645,43.916281,长春市,北亚泰大街1068号,颗粒物(PM10),110,145,84,54,32,52,52,81,69,29,24,8,7,0.5,0.3
2026-03-19T2100,1335A,113.082,28.2421,长沙市,经开区环保局,,26,26,34,18,22,17,17,24,23,26,32,3,4,0.7,0.7
2026-03-19T2100,1336A,112.8873,28.2202,长沙市,高开区环保局,,34,34,42,19,28,10,10,23,14,36,37,4,10,1.0,0.9
2026-03-19T2100,1337A,113.0785,28.2012,长沙市,马坡岭,,35,34,36,24,26,6,6,27,24,37,32,4,5,1.0,0.9
2026-03-19T2100,1338A,112.9448,28.1894,长沙市,湖南师范大学,,36,36,40,22,29,11,11,25,17,37,33,4,4,1.2,1
2026-03-19T2100,1339A,113.0177,28.1322,长沙市,雨花区环保局,,26,25,37,18,23,9,9,28,26,44,31,3,4,1.0,1
2026-03-19T2100,1340A,112.9795,28.2593,长沙市,伍家岭,,33,33,43,21,28,8,8,23,15,34,32,2,4,0.8,0.8
2026-03-19T2100,1341A,113.002,28.1944,长沙市,火车新站,,35,35,38,24,26,7,7,26,20,42,35,3,4,0.9,0.8
2026-03-19T2100,1342A,112.9846,28.1177,长沙市,天心区环保局,,32,29,41,22,29,20,20,32,32,41,43,5,6,0.9,0.8
2026-03-19T2100,1343A,112.8906,28.1307,长沙市,湖南中医药大学,,34,34,43,23,29,2,2,17,15,40,34,5,6,1.0,0.8
2026-03-19T2100,1727A,113.1146,36.1547,长治市,清华站,颗粒物(PM10),78,88,61,36,25,64,64,102,94,21,20,11,8,0.8,0.6
2026-03-19T2100,1730A,113.0887,36.2126,长治市,审计局,细颗粒物(PM2.5),80,88,56,50,27,62,62,104,98,22,18,11,10,0.8,0.7
2026-03-19T2100,1731A,113.0845,36.1856,长治市,长治八中,颗粒物(PM10),101,121,77,50,30,56,56,98,89,22,16,13,11,0.8,0.7
2026-03-19T2100,2845A,113.1561,36.1912,长治市,德盛苑,NA,NA,103,58,50,26,NA,NA,107,103,19,14,10,10,NA,0.7
2026-03-19T2100,3568A,113.0603,36.0464,长治市,向阳小学,颗粒物(PM10),106,134,90,48,26,61,61,111,97,32,21,14,13,0.7,0.6
2026-03-19T2100,3569A,112.8788,36.315,长治市,屯留一中,颗粒物(PM10),58,60,64,15,21,93,93,107,106,16,24,6,7,0.3,0.5
2026-03-19T2100,4189A,113.113092,36.199482,长治市,英华南巷50号,颗粒物(PM10),84,97,66,49,27,60,60,102,94,29,19,13,11,0.7,0.6
2026-03-19T2100,4190A,113.23666,36.33435,长治市,学府街1号,颗粒物(PM10),71,79,61,36,23,70,70,100,94,19,30,5,5,0.7,0.8
2026-03-19T2100,1854A,111.696,28.9725,常德市,市二中,颗粒物(PM10),60,64,50,34,26,51,51,79,76,22,20,6,7,0.9,0.9
2026-03-19T2100,3138A,111.7152,29.0288,常德市,武陵区永安,细颗粒物(PM2.5),96,79,54,58,36,71,71,81,80,14,26,6,4,0.9,0.9
2026-03-19T2100,3139A,111.6891,28.9881,常德市,鼎城区玉霞,细颗粒物(PM2.5),74,76,49,47,30,62,62,82,80,16,24,8,7,0.9,0.8
2026-03-19T2100,3140A,111.6651,29.0526,常德市,武陵区长庚,细颗粒物(PM2.5),103,73,51,63,36,71,71,80,79,11,23,7,6,1.1,1
2026-03-19T2100,1196A,119.9524,31.7586,常州市,市监测站,细颗粒物(PM2.5),108,95,86,68,63,50,50,98,85,54,32,8,8,0.8,0.8
2026-03-19T2100,1200A,119.9351,31.703,常州市,武进监测站,细颗粒物(PM2.5),112,95,83,73,64,56,56,101,86,48,34,8,7,0.7,0.7
2026-03-19T2100,3002A,119.9701,31.813,常州市,行政中心,细颗粒物(PM2.5),108,108,89,68,60,42,42,90,79,55,37,5,6,0.6,0.6
2026-03-19T2100,3003A,120.0434,31.7726,常州市,经开区,细颗粒物(PM2.5),105,101,86,65,60,38,38,96,77,63,36,9,8,1.0,1
2026-03-19T2100,3010A,119.8919,31.7892,常州市,钟楼,细颗粒物(PM2.5),102,86,77,62,59,60,60,106,97,48,38,6,7,0.5,0.6
2026-03-19T2100,3429A,119.8595,31.706,常州市,武进经发区,细颗粒物(PM2.5),116,100,81,77,73,37,37,102,85,71,42,8,7,0.9,0.9
2026-03-19T2100,3430A,119.5812,31.7256,常州市,金坛城区,细颗粒物(PM2.5),121,110,91,83,80,65,65,104,95,40,23,8,8,0.7,0.7
2026-03-19T2100,4089A,119.9551,31.863,常州市,崇义南街5-H号,细颗粒物(PM2.5),102,103,76,62,58,41,41,93,84,51,32,5,5,0.7,0.7
2026-03-19T2100,2220A,120.4318,41.588,朝阳市,西梁,,31,31,53,12,24,81,81,96,92,7,23,6,9,0.4,0.7
2026-03-19T2100,2221A,120.452,41.565,朝阳市,河畔小区,,44,44,41,23,18,79,79,100,94,15,19,9,9,0.4,0.5
2026-03-19T2100,2222A,120.4176,41.5648,朝阳市,八里堡,,40,40,43,8,18,80,80,96,91,10,21,8,7,0.3,0.5
2026-03-19T2100,3026A,116.6179,23.6608,潮州市,市政府,,26,14,51,13,34,82,82,104,99,14,17,4,6,0.5,0.7
2026-03-19T2100,4036A,116.646,23.676,潮州市,金山,,26,23,39,14,26,83,83,110,104,15,14,5,4,0.6,0.6
2026-03-19T2100,2473A,113.0116,25.8228,郴州市,市职中,NA,NA,46,27,36,24,NA,NA,61,60,14,17,4,2,0.8,0.7
2026-03-19T2100,2475A,113.0381,25.8074,郴州市,市审计局,,49,43,27,34,21,29,29,53,50,10,10,10,10,/,/
2026-03-19T2100,2476A,113.0348,25.7757,郴州市,市环保局,颗粒物(PM10),55,56,34,36,25,38,38,54,52,21,18,15,11,0.2,0.2
2026-03-19T2100,4252A,113.0138,25.8011,郴州市,好美居路49号,细颗粒物(PM2.5),70,NA,29,45,23,36,36,64,58,15,17,11,8,/,/
2026-03-19T2100,1431A,103.9727,30.7242,成都市,金泉两河,颗粒物(PM10),54,55,68,32,34,42,42,54,54,28,36,1,2,0.4,0.4
2026-03-19T2100,1432A,104.1423,30.6765,成都市,十里店,NA,NA,62,58,33,30,58,58,69,68,NA,30,4,4,0.5,0.5
2026-03-19T2100,1433A,104.0594,30.5765,成都市,三瓦窑,颗粒物(PM10),60,64,56,27,28,31,31,70,68,46,31,2,3,0.7,0.6
2026-03-19T2100,1434A,104.1122,30.6306,成都市,沙河铺,颗粒物(PM10),60,64,56,29,28,54,54,64,64,30,41,4,4,0.3,0.3
2026-03-19T2100,2880A,104.0219,30.6561,成都市,大石西路,颗粒物(PM10),58,60,65,31,32,54,54,67,67,31,35,2,3,0.6,0.6
2026-03-19T2100,3136A,104.2724,30.559,成都市,龙泉驿区区政府,颗粒物(PM10),53,53,46,27,22,57,57,76,74,20,18,6,6,0.5,0.4
2026-03-19T2100,3357A,104.0028,30.6891,成都市,金博路,颗粒物(PM10),53,53,56,26,30,53,53,64,64,33,40,5,7,0.5,0.5
2026-03-19T2100,3359A,104.056,30.5228,成都市,华阳,颗粒物(PM10),56,58,57,24,27,63,63,71,71,26,30,3,4,0.5,0.4
2026-03-19T2100,3488A,104.387954,30.746684,成都市,青石路225号,颗粒物(PM10),68,75,50,34,26,24,24,73,66,43,35,4,6,0.5,0.5
2026-03-19T2100,3489A,104.0788,30.4054,成都市,科学城,颗粒物(PM10),51,51,51,27,23,65,65,75,74,19,22,7,8,0.6,0.6
2026-03-19T2100,4011A,103.8505,30.6946,成都市,光华大道三段,NA,NA,NA,67,37,31,41,41,63,59,33,31,3,4,0.6,0.4
2026-03-19T2100,4144A,104.3257,30.6406,成都市,八角井街185号,颗粒物(PM10),89,104,57,28,24,43,43,58,57,17,20,4,4,0.6,0.6
2026-03-19T2100,4224A,104.2433276,30.53529463,成都市,鲸龙路1057号,颗粒物(PM10),60,63,54,30,23,57,57,76,74,20,22,6,6,0.4,0.4
2026-03-19T2100,1062A,117.9531,40.908,承德市,铁路,细颗粒物(PM2.5),66,68,32,43,10,61,61,88,85,29,16,16,5,0.7,0.5
2026-03-19T2100,1063A,117.9397,40.9763,承德市,中国银行,颗粒物(PM10),61,65,41,35,13,44,44,88,77,29,20,6,3,0.6,0.5
2026-03-19T2100,4073A,117.9462,40.95,承德市,杏林街1号,颗粒物(PM10),59,62,33,38,17,63,63,96,93,27,18,12,6,0.8,0.5
2026-03-19T2100,4274A,117.7994,40.9605,承德市,滨河大街98号,细颗粒物(PM2.5),64,53,37,42,15,59,59,95,90,20,20,16,11,0.5,0.5
2026-03-19T2100,2314A,117.4698,30.6617,池州市,池州学院,细颗粒物(PM2.5),88,73,44,54,34,66,66,91,77,21,23,3,4,0.7,0.6
2026-03-19T2100,3237A,117.4918,30.6617,池州市,展览馆,细颗粒物(PM2.5),118,86,51,79,49,65,65,90,78,20,25,2,3,0.9,0.8
2026-03-19T2100,3333A,117.5626,30.695,池州市,第八中学,细颗粒物(PM2.5),88,75,45,54,35,59,59,86,73,23,26,3,3,0.8,0.8
2026-03-19T2100,3334A,117.5037,30.6242,池州市,第十二中学,细颗粒物(PM2.5),92,66,38,56,33,50,50,85,74,33,27,2,3,1.1,0.9
2026-03-19T2100,1744A,118.9229,42.2816,赤峰市,松山一中,,39,39,47,19,14,77,77,90,86,12,22,4,4,0.4,0.5
2026-03-19T2100,1745A,118.9588,42.2733,赤峰市,哈达街,,40,40,51,9,10,60,60,75,70,12,21,8,8,0.5,0.6
2026-03-19T2100,1746A,118.8792,42.2551,赤峰市,天义路,颗粒物(PM10),60,63,33,20,7,67,67,94,88,19,12,5,5,0.4,0.4
2026-03-19T2100,3058A,119.2656,42.0356,赤峰市,银河街,颗粒物(PM10),52,52,55,18,17,76,76,90,86,7,12,7,10,0.3,0.4
2026-03-19T2100,3286A,118.9359,42.3146,赤峰市,桥北物流园区,,28,28,34,17,11,76,76,87,84,5,22,3,4,0.4,0.5
2026-03-19T2100,2521A,107.3473,22.4137,崇左市,市环保局江州分局,细颗粒物(PM2.5),68,66,66,44,43,59,59,74,72,12,18,5,7,0.8,0.9
2026-03-19T2100,4256A,107.375,22.3736,崇左市,石景林东路7号,细颗粒物(PM2.5),58,58,59,39,40,60,60,81,78,16,19,3,4,0.6,0.9
2026-03-19T2100,3207A,118.31131,32.3033,滁州市,市政府原办公楼,细颗粒物(PM2.5),169,138,83,128,80,34,34,89,83,56,27,4,4,1.0,0.7
2026-03-19T2100,3331A,118.3268,32.2633,滁州市,图书馆,细颗粒物(PM2.5),125,127,91,87,70,69,69,94,89,36,25,8,8,0.8,0.7
2026-03-19T2100,4101A,118.3196,32.3335,滁州市,银山路666号,细颗粒物(PM2.5),143,126,72,107,66,31,31,88,84,58,30,8,8,1.1,0.9
2026-03-19T2100,4102A,118.3426,32.2979,滁州市,黄山路555号,细颗粒物(PM2.5),142,154,106,106,75,47,47,98,94,55,32,5,6,1.1,0.9
2026-03-19T2100,2606A,101.5379,25.0492,楚雄彝族自治州,市经济开发区,,50,50,46,32,28,83,83,112,109,27,20,4,5,0.6,0.5
2026-03-19T2100,4153A,101.5536,25.0343,楚雄彝族自治州,团结路562号,,38,36,42,26,25,102,102,119,117,15,23,2,9,0.3,0.3
2026-03-19T2100,2549A,107.5087,31.2186,达州市,市环境监测站,,42,42,28,20,8,14,14,42,36,36,24,11,5,0.3,0.3
2026-03-19T2100,2550A,107.4988,31.2132,达州市,凤凰小区,,34,34,26,17,7,21,21,46,41,31,22,12,5,0.3,0.3
2026-03-19T2100,2551A,107.5081,31.1987,达州市,达县机关宾馆,,39,39,27,23,10,17,17,40,35,36,30,11,4,0.5,0.5
2026-03-19T2100,2552A,107.4644,31.2124,达州市,市政中心,,41,41,31,15,6,18,18,41,37,35,25,6,4,0.5,0.4
2026-03-19T2100,2614A,100.2168,25.5818,大理白族自治州,大理市环境监测站,,45,43,38,31,26,95,95,102,101,10,10,7,7,0.6,0.6
2026-03-19T2100,2615A,100.1542,25.7055,大理白族自治州,大理古城,,49,49,38,31,24,103,103,101,101,6,8,10,9,0.6,0.6
2026-03-19T2100,1109A,121.6119,38.974,大连市,甘井子,,49,49,40,29,22,112,112,115,115,20,16,8,8,0.6,0.6
2026-03-19T2100,1110A,121.565,38.9509,大连市,周水子,,48,37,34,33,24,110,110,109,109,18,16,11,8,0.6,0.5
2026-03-19T2100,1111A,121.5637,38.8849,大连市,星海三站,,43,38,39,30,21,92,92,91,91,15,14,6,6,0.7,0.6
2026-03-19T2100,1112A,121.6301,38.9117,大连市,青泥洼桥,,46,46,40,30,24,113,113,111,111,16,16,7,6,0.5,0.4
2026-03-19T2100,1113A,121.6248,38.8643,大连市,傅家庄,,33,27,43,16,23,104,104,108,107,17,19,6,6,0.5,0.5
2026-03-19T2100,1114A,121.5117,38.8636,大连市,七贤岭,,35,22,27,22,22,110,110,110,110,16,14,8,7,0.4,0.4
2026-03-19T2100,1116A,121.7507,39.1339,大连市,金州,,48,48,44,32,26,107,107,110,110,22,19,9,7,0.5,0.5
2026-03-19T2100,1117A,121.7811,39.0495,大连市,开发区,,43,41,35,30,23,83,83,102,100,41,26,12,9,0.4,0.4
2026-03-19T2100,1118A,121.9762,39.0631,大连市,双D港,,44,44,45,26,21,113,113,110,110,20,20,9,7,0.4,0.5
2026-03-19T2100,4082A,121.2548,38.8188,大连市,旅顺,,31,31,34,21,25,91,91,99,98,21,16,7,7,0.4,0.5
2026-03-19T2100,1789A,124.8085,46.0381,大庆市,大同区,,24,22,58,16,37,76,76,98,91,6,12,9,11,0.2,0.3
2026-03-19T2100,1790A,125.1166,46.5255,大庆市,龙凤区,,42,42,53,23,28,78,78,80,79,11,16,5,4,0.3,0.4
2026-03-19T2100,1791A,124.8894,46.4007,大庆市,红岗区,,37,37,41,18,26,78,78,88,85,8,10,5,6,0.3,0.4
2026-03-19T2100,1792A,125.1391,46.578,大庆市,萨尔图区,,32,32,50,22,28,77,77,77,76,9,16,5,6,0.5,0.5
2026-03-19T2100,1793A,124.9026,46.6217,大庆市,让胡路区,,40,40,47,20,29,76,76,80,78,7,9,5,5,0.5,0.5
2026-03-19T2100,3481A,125.127,46.6277,大庆市,萨区政府监测点,颗粒物(PM10),71,79,56,19,29,75,75,74,72,6,12,8,8,0.2,0.3
2026-03-19T2100,1723A,113.2926,40.0759,大同市,云冈宾馆,,45,45,56,20,29,69,69,91,89,27,27,7,8,0.6,1
2026-03-19T2100,1724A,113.3437,40.0921,大同市,大同大学,颗粒物(PM10),53,53,55,33,25,41,41,96,90,66,32,9,9,0.7,0.7
2026-03-19T2100,1725A,113.2637,40.129,大同市,安家小村,,29,29,65,11,24,80,80,95,93,19,26,12,15,0.5,1.1
2026-03-19T2100,3282A,113.3399,40.0586,大同市,大同市卫生学校,细颗粒物(PM2.5),54,52,62,37,29,61,61,97,94,38,29,6,8,0.6,0.7
2026-03-19T2100,3565A,113.1371,40.1122,大同市,云冈站,颗粒物(PM10),61,65,49,20,24,25,25,93,80,50,28,8,11,0.5,0.6
2026-03-19T2100,3566A,113.1186,40.2556,大同市,图书馆,,49,37,41,34,26,60,60,96,90,14,13,6,8,0.7,0.6
2026-03-19T2100,3567A,113.5931,40.0459,大同市,区一中,细颗粒物(PM2.5),76,58,101,48,59,60,60,106,98,24,28,16,26,0.8,0.8
2026-03-19T2100,4199A,113.2798248,40.09972476,大同市,魏都大道141号,颗粒物(PM10),56,58,68,32,32,58,58,92,89,33,33,10,12,0.6,1.4
2026-03-19T2100,2269A,124.1068,50.4091,大兴安岭地区,科技局,,26,22,24,10,11,82,82,79,79,3,4,6,6,0.3,0.3
2026-03-19T2100,3663A,124.117,50.4279,大兴安岭地区,红旗社区,,26,NA,10,11,10,82,82,86,85,3,4,9,8,0.3,0.3
2026-03-19T2100,1600A,124.33,40.0625,丹东市,江湾东路,细颗粒物(PM2.5),86,82,50,53,30,71,71,90,85,22,20,7,9,0.9,0.8
2026-03-19T2100,1601A,124.4242,40.1513,丹东市,临江后街,细颗粒物(PM2.5),90,85,47,55,33,69,69,89,86,25,17,10,11,0.7,0.5
2026-03-19T2100,1602A,124.3935,40.1461,丹东市,元宝山,颗粒物(PM10),90,106,68,51,29,77,77,84,83,20,18,8,11,0.7,0.7
2026-03-19T2100,1603A,124.3634,40.1093,丹东市,民主桥,细颗粒物(PM2.5),98,108,59,59,31,70,70,88,84,30,26,11,9,1.0,0.7
2026-03-19T2100,3541A,109.5726195,19.51688767,儋州市,第一中学子站,,45,45,33,22,17,85,85,80,80,8,4,6,8,0.4,0.4
2026-03-19T2100,3542A,109.5567,19.5187,儋州市,东坡学校子站,NA,NA,34,23,24,17,91,91,88,88,7,7,6,7,NA,0.4
2026-03-19T2100,2616A,98.5611,24.4273,德宏傣族景颇族自治州,德宏州监测站,NA,NA,NA,34,0,37,72,72,104,100,9,15,6,5,0.8,0.6
2026-03-19T2100,3677A,98.5887,24.4366,德宏傣族景颇族自治州,芒市人民政府综合楼,NA,NA,58,66,34,35,61,61,90,88,14,13,1,8,NA,0.5
2026-03-19T2100,1901A,104.424,31.1209,德阳市,东山公园,细颗粒物(PM2.5),62,63,53,41,29,49,49,64,62,32,20,15,4,0.6,0.5
2026-03-19T2100,1902A,104.3827,31.1318,德阳市,西小区,颗粒物(PM10),69,76,66,39,32,48,48,62,61,26,30,9,7,0.7,0.7
2026-03-19T2100,1904A,104.3553,31.1091,德阳市,耐火材料厂,颗粒物(PM10),70,78,65,44,34,30,30,62,60,42,34,4,3,0.6,0.5
2026-03-19T2100,4145A,104.4144,31.1495,德阳市,市林业局,"颗粒物(PM10),细颗粒物(PM2.5)",68,74,56,44,31,26,26,66,62,45,33,13,7,0.6,0.5
2026-03-19T2100,1622A,116.3034,37.4675,德州市,儿童乐园,颗粒物(PM10),86,100,59,50,31,90,90,99,99,22,20,12,11,0.5,0.4
2026-03-19T2100,1624A,116.2992,37.4449,德州市,监理站,颗粒物(PM10),84,97,61,42,27,98,98,108,108,26,23,6,7,0.5,0.5
2026-03-19T2100,3066A,116.2722,37.438,德州市,九衢泉纯净水厂,细颗粒物(PM2.5),82,90,57,51,31,76,76,97,93,40,37,6,4,0.5,0.4
2026-03-19T2100,3371A,116.3693,37.44,德州市,开发区人民医院,"颗粒物(PM10),细颗粒物(PM2.5)",88,102,62,54,33,86,86,99,99,27,24,7,7,0.6,0.5
2026-03-19T2100,3511A,116.5687,37.3331,德州市,陵城艺术中心,细颗粒物(PM2.5),90,95,56,55,32,75,75,90,89,26,22,6,11,0.6,0.6
2026-03-19T2100,4292A,116.352738,37.420875,德州市,新河东路,"颗粒物(PM10),细颗粒物(PM2.5)",86,100,63,53,30,71,71,96,94,33,30,9,9,0.6,0.6
2026-03-19T2100,2621A,99.7054,27.8319,迪庆藏族自治州,迪庆州站,,33,18,20,13,12,104,104,103,103,8,9,8,8,0.6,0.6
2026-03-19T2100,3180A,99.7122,27.8129,迪庆藏族自治州,质量技术监督局,,32,20,18,7,10,100,100,100,100,8,9,6,6,0.7,0.7
2026-03-19T2100,4257A,104.6092,35.5962,定西市,将台街,颗粒物(PM10),121,173,114,54,38,101,101,107,107,11,28,9,10,0.3,0.5
2026-03-19T2100,4309A,104.6159,35.5701,定西市,正龙路62号,颗粒物(PM10),120,172,123,42,38,93,93,92,92,12,18,7,5,0.4,0.5
2026-03-19T2100,4071A,114.9883,38.5232,定州市,交通局,颗粒物(PM10),78,89,57,31,24,74,74,97,96,34,28,14,14,0.5,0.5
2026-03-19T2100,4072A,115.0045,38.5136,定州市,第五中学,颗粒物(PM10),80,92,73,29,25,74,74,94,92,30,31,10,12,0.5,0.5
2026-03-19T2100,1390A,113.7943,23.0132,东莞市,东城石井,,20,20,45,9,23,56,56,197,153,32,40,4,4,0.5,0.6
2026-03-19T2100,1391A,113.7384,22.9659,东莞市,南城西平,,19,15,45,3,24,58,58,153,124,20,43,5,8,0.4,0.6
2026-03-19T2100,3319A,113.7283,23.041,东莞市,万江金泰,,20,20,54,10,29,60,60,179,147,25,39,6,7,0.5,0.6
2026-03-19T2100,4129A,113.8666,23.1062,东莞市,裕兴路,,33,33,57,11,29,55,55,223,183,39,40,8,10,0.6,0.7
2026-03-19T2100,4130A,114.0076,22.9739,东莞市,教育路1号,,46,46,59,17,27,57,57,162,135,38,43,6,7,0.6,0.5
2026-03-19T2100,4131A,113.7981,22.8124,东莞市,长怡路1号,,29,29,45,10,20,37,37,106,92,55,44,6,5,0.6,0.6
2026-03-19T2100,1666A,118.6612,37.4313,东营市,市环保局,细颗粒物(PM2.5),74,75,57,47,32,53,53,113,103,46,30,11,13,0.5,0.6
2026-03-19T2100,3036A,118.6903,37.4337,东营市,开发区管委会,颗粒物(PM10),64,69,59,38,33,49,49,115,105,62,46,12,12,0.6,0.6
2026-03-19T2100,3365A,118.5721,37.5654,东营市,垦利区民丰路,细颗粒物(PM2.5),90,75,53,55,32,65,65,112,104,42,31,14,16,0.9,0.7
2026-03-19T2100,3498A,118.5063,37.8606,东营市,河口城区,颗粒物(PM10),60,63,50,38,29,81,81,102,100,21,21,10,11,0.5,0.5
2026-03-19T2100,3646A,118.4979,37.4623,东营市,胜利站,细颗粒物(PM2.5),68,66,58,44,29,60,60,92,85,38,36,9,20,0.7,0.7
2026-03-19T2100,3734A,118.5753,37.4405,东营市,理想之城,NA,NA,90,59,47,29,65,65,114,104,40,38,NA,10,0.8,0.8
2026-03-19T2100,1591A,110.0024,39.8127,鄂尔多斯市,综合楼,,44,44,25,24,11,85,85,102,99,28,22,7,8,0.3,0.3
2026-03-19T2100,1592A,109.9485,39.8259,鄂尔多斯市,巴音孟克林场办事处,颗粒物(PM10),51,51,21,19,8,85,85,106,97,32,20,9,7,0.4,0.4
2026-03-19T2100,1593A,109.7734,39.5987,鄂尔多斯市,康泽苑,,28,27,24,12,9,87,87,114,110,12,14,6,7,0.3,0.3
2026-03-19T2100,1594A,109.8121,39.5987,鄂尔多斯市,华泰汽车城,,27,27,28,8,11,81,81,116,111,24,26,6,6,0.3,0.3
2026-03-19T2100,1595A,109.9734,39.7884,鄂尔多斯市,奥林花园,颗粒物(PM10),51,51,25,15,10,76,76,106,97,36,38,8,7,0.4,0.3
2026-03-19T2100,2436A,114.894,30.3989,鄂州市,市政府,细颗粒物(PM2.5),84,72,52,52,34,92,92,108,108,24,27,8,8,0.5,0.5
2026-03-19T2100,2437A,114.8986,30.3714,鄂州市,赵家坝,细颗粒物(PM2.5),104,81,52,64,36,95,95,120,120,22,24,1,8,0.9,0.8
2026-03-19T2100,3654A,114.8093,30.4091,鄂州市,精准医疗中心,颗粒物(PM10),68,75,55,31,34,51,51,111,106,59,30,6,10,0.7,0.8
2026-03-19T2100,2454A,109.4978,30.2979,恩施土家族苗族自治州,湖北民院,,41,41,30,21,15,26,26,40,39,16,12,6,6,0.7,0.6
2026-03-19T2100,3549A,109.5061,30.3771,恩施土家族苗族自治州,龙凤新区,,32,32,23,17,13,20,20,43,41,8,7,7,7,0.4,0.4
2026-03-19T2100,2499A,108.3411,21.6159,防城港市,沙万,,29,29,49,18,19,72,72,64,64,15,24,6,8,0.5,0.5
2026-03-19T2100,2500A,108.3515,21.7733,防城港市,防城档案局,NA,NA,38,45,NA,23,62,62,77,75,9,10,6,14,0.4,0.6
2026-03-19T2100,2501A,108.3506,21.6414,防城港市,大海花园,,32,32,38,19,22,82,82,71,71,27,26,7,9,0.4,0.4
2026-03-19T2100,1371A,113.1293,23.0065,佛山市,湾梁,,46,46,47,16,30,72,72,176,169,25,29,/,/,/,/
2026-03-19T2100,1372A,113.1082,23.0477,佛山市,华材职中,,39,39,51,16,30,80,80,177,169,24,31,7,7,0.3,0.4
2026-03-19T2100,1373A,113.1439,23.045,佛山市,南海气象局,,50,50,53,23,30,70,70,178,171,31,32,/,/,/,/
2026-03-19T2100,1374A,113.2879,22.8094,佛山市,顺德苏岗,,28,28,49,12,27,65,65,140,134,24,36,/,/,0.4,0.5
2026-03-19T2100,1376A,112.8384,22.8678,佛山市,高明孔堂,,31,31,37,12,23,75,75,139,130,15,19,/,/,/,/
2026-03-19T2100,1377A,112.8835,23.1584,佛山市,三水监测站,颗粒物(PM10),55,56,51,28,30,75,75,150,143,40,32,3,5,0.6,0.6
2026-03-19T2100,1378A,112.8668,23.185,佛山市,三水云东海,颗粒物(PM10),57,59,55,26,26,93,93,171,165,32,24,/,/,/,/
2026-03-19T2100,3625A,113.2568,22.7629,佛山市,容桂街道办,,36,36,49,11,32,56,56,149,139,34,43,/,/,/,/
2026-03-19T2100,1282A,119.2681,26.0506,福州市,师大,,30,30,22,15,13,87,87,80,80,16,20,2,3,0.4,0.4
2026-03-19T2100,1283A,119.2983,26.1028,福州市,五四北路,,44,44,33,12,13,85,85,76,76,15,19,4,4,0.5,0.5
2026-03-19T2100,1284A,119.2648,26.0769,福州市,杨桥西路,,28,24,20,11,11,89,89,80,80,14,19,4,4,/,/
2026-03-19T2100,3048A,119.5799,26.0937,福州市,九龙,,31,24,18,6,7,98,98,103,103,12,12,4,4,0.3,0.5
2026-03-19T2100,3526A,119.5188,25.9666,福州市,吴航,,35,23,16,12,8,111,111,107,107,10,14,4,4,0.5,0.7
2026-03-19T2100,4104A,119.3106,26.0648,福州市,路通桥巷6号,,32,27,23,22,16,81,81,75,75,14,16,/,/,/,/
2026-03-19T2100,1755A,123.7974,41.8494,抚顺市,望花区,颗粒物(PM10),71,79,58,18,30,74,74,90,88,15,22,10,15,0.5,0.9
2026-03-19T2100,1756A,123.9161,41.8827,抚顺市,顺城区,,49,49,52,14,30,76,76,87,87,16,25,8,12,0.5,1
2026-03-19T2100,1757A,124.0437,41.8615,抚顺市,东洲区,颗粒物(PM10),65,70,58,16,27,70,70,86,85,17,19,8,10,0.5,0.7
2026-03-19T2100,1758A,123.9246,41.8638,抚顺市,新抚区,颗粒物(PM10),60,64,63,13,29,79,79,88,88,15,26,8,10,0.5,0.7
2026-03-19T2100,1759A,124.0972,41.8961,抚顺市,大伙房水库,颗粒物(PM10),72,80,57,15,29,68,68,88,86,17,14,11,11,0.4,0.6
2026-03-19T2100,1760A,123.708,41.8386,抚顺市,沈抚新城,颗粒物(PM10),65,70,60,15,29,66,66,86,83,23,27,8,11,0.5,0.7
2026-03-19T2100,2377A,116.3544,27.9833,抚州市,市站,,30,23,18,21,12,56,56,71,67,11,9,6,6,0.8,1.1
2026-03-19T2100,2378A,116.3562,27.9631,抚州市,血防站,,29,29,23,14,11,49,49,67,64,9,4,4,5,0.8,0.8
2026-03-19T2100,2379A,116.3561,28.0007,抚州市,采茶剧团,,29,29,21,15,11,64,64,67,65,12,8,10,10,0.7,0.8
2026-03-19T2100,2380A,116.3854,27.9648,抚州市,医学分院,,33,33,26,13,12,59,59,71,69,14,9,4,7,1.1,1
2026-03-19T2100,2207A,121.6095,41.9978,阜新市,工业园区,,34,34,60,3,25,80,80,96,90,10,21,7,12,0.3,0.6
2026-03-19T2100,2208A,121.6567,42.0188,阜新市,长青街,,25,20,39,3,22,78,78,94,89,8,20,6,11,0.3,0.6
2026-03-19T2100,2209A,121.6672,42.07,阜新市,农业园区,,26,26,48,3,24,75,75,93,87,11,18,4,8,0.3,0.5
2026-03-19T2100,2211A,121.6343,42.0455,阜新市,玉龙新城,,24,24,48,3,23,72,72,93,86,12,24,7,8,0.3,0.6
2026-03-19T2100,2301A,115.8276,32.8929,阜阳市,市监测站,细颗粒物(PM2.5),100,92,64,60,46,88,88,106,106,17,18,5,5,0.5,0.5
2026-03-19T2100,2303A,115.8551,32.8606,阜阳市,开发区,NA,NA,NA,86,NA,46,80,80,105,103,18,18,NA,5,0.6,0.6
2026-03-19T2100,2875A,115.783962,32.889217,阜阳市,阜阳职业技术学院,颗粒物(PM10),74,83,67,43,38,103,103,112,112,14,16,5,6,0.8,0.7
2026-03-19T2100,3468A,115.79,32.8614,阜阳市,市规划展馆,细颗粒物(PM2.5),101,100,73,61,45,87,87,113,112,19,13,6,6,0.6,0.6
2026-03-19T2100,3469A,115.835101,32.918568,阜阳市,枣园社区,细颗粒物(PM2.5),94,95,78,57,49,91,91,106,105,16,19,4,5,0.5,0.4
2026-03-19T2100,2669A,102.9097,34.9841,甘南藏族自治州,州政府,细颗粒物(PM2.5),64,65,36,42,24,80,80,90,89,8,5,5,5,0.5,0.4
2026-03-19T2100,3380A,102.8915,34.9618,甘南藏族自治州,甘肃民族师范学院,颗粒物(PM10),68,75,40,35,21,87,87,104,102,21,9,2,3,0.5,0.4
2026-03-19T2100,2570A,101.96,30.048,甘孜藏族自治州,水桥子,,20,20,17,14,3,54,54,72,72,13,23,4,4,0.6,0.7
2026-03-19T2100,3065A,101.9534,29.9976,甘孜藏族自治州,州环保局,,18,18,11,8,3,52,52,91,77,33,24,6,6,0.6,0.5
2026-03-19T2100,2363A,114.9368,25.8663,赣州市,地委,,19,19,13,12,7,55,55,68,68,13,12,4,4,1.1,1.2
2026-03-19T2100,2364A,114.946,25.8483,赣州市,气象台,,30,30,19,19,9,66,66,81,81,24,17,3,4,0.7,0.8
2026-03-19T2100,2365A,114.932,25.8332,赣州市,市图书馆,,22,22,12,14,7,65,65,77,77,14,12,3,4,0.8,0.8
2026-03-19T2100,2366A,114.8905,25.8472,赣州市,华坚鞋城,,21,21,16,7,7,62,62,74,74,10,13,4,6,0.4,0.7
2026-03-19T2100,3109A,115.0094,25.8614,赣州市,赣县区卫计委,,25,25,12,11,7,59,59,68,68,12,13,5,3,1.0,1
2026-03-19T2100,2684A,106.2753,36.0057,固原市,监测站,颗粒物(PM10),104,130,288,48,38,58,58,92,88,34,14,12,9,0.7,0.4
2026-03-19T2100,2685A,106.2384,36.0189,固原市,新区,颗粒物(PM10),105,133,138,47,34,33,33,94,86,58,16,8,8,0.7,0.4
2026-03-19T2100,2544A,106.6307,30.4577,广安市,市委,,29,29,27,17,16,49,49,63,63,14,17,5,5,0.6,0.7
2026-03-19T2100,2545A,106.6266,30.4662,广安市,友谊中学,,24,24,26,13,13,56,56,70,70,12,15,7,6,0.7,0.8
2026-03-19T2100,2547A,106.6386,30.4551,广安市,广电花园,NA,NA,25,30,18,16,50,50,63,63,13,18,8,8,NA,0.8
2026-03-19T2100,2902A,106.6347,30.4868,广安市,北辰小学,,25,24,25,17,16,50,50,63,63,11,13,5,5,0.8,0.7
2026-03-19T2100,2524A,105.8211,32.4444,广元市,老城,颗粒物(PM10),59,62,42,21,13,6,6,80,64,66,27,7,6,0.6,0.6
2026-03-19T2100,2526A,105.8629,32.429,广元市,监测站,颗粒物(PM10),55,56,50,20,14,34,34,76,68,36,22,3,4,0.5,0.5
2026-03-19T2100,3617A,105.8047,32.4167,广元市,经开区,颗粒物(PM10),58,60,45,27,19,15,15,76,66,58,28,4,5,0.5,0.5
2026-03-19T2100,1345A,113.2346,23.1423,广州市,广雅中学,,30,30,54,17,26,73,73,160,155,23,38,3,3,0.5,0.7
2026-03-19T2100,1346A,113.2611,23.105,广州市,市五中,NA,NA,32,49,16,28,81,81,183,176,NA,38,NA,8,/,/
2026-03-19T2100,1348A,113.3477,23.0916,广州市,广东商学院,,32,32,54,15,30,58,58,146,136,28,40,5,6,0.8,0.8
2026-03-19T2100,1349A,113.4332,23.105,广州市,市八十六中,,25,22,42,10,23,41,41,144,130,49,57,6,6,/,/
2026-03-19T2100,1350A,113.3506,22.9488,广州市,番禺中学,,31,31,65,15,25,52,52,157,137,18,39,3,4,0.5,0.6
2026-03-19T2100,1351A,113.2147,23.3918,广州市,花都师范,,50,50,54,24,29,109,109,196,185,30,30,6,7,0.6,0.7
2026-03-19T2100,1352A,113.2599,23.1329,广州市,市监测站,,33,33,55,16,28,71,71,163,156,26,40,1,2,/,/
2026-03-19T2100,1353A,113.5618,23.3119,广州市,九龙镇镇龙,,44,44,54,22,30,47,47,169,152,62,33,7,7,0.4,0.4
2026-03-19T2100,1354A,113.2764,23.1544,广州市,麓湖,,30,30,50,15,29,83,83,175,168,22,39,4,4,0.5,0.7
2026-03-19T2100,2846A,113.3209,23.1323,广州市,体育西,,37,37,55,15,27,69,69,162,153,37,46,5,7,0.6,0.8
2026-03-19T2100,3298A,113.5718,23.5493,广州市,从化街口,细颗粒物(PM2.5),62,61,56,41,36,106,106,179,170,28,31,7,8,0.6,0.8
2026-03-19T2100,3299A,113.3463,23.369,广州市,白云竹料,,50,50,58,19,31,79,79,182,172,41,35,4,5,0.6,0.7
2026-03-19T2100,3300A,113.2981,23.2365,广州市,白云嘉禾,,38,38,59,18,30,76,76,176,168,44,43,7,8,/,/
2026-03-19T2100,3301A,113.4256,23.1716,广州市,黄埔科学城,,30,30,49,14,29,55,55,175,156,41,36,9,9,0.5,0.6
2026-03-19T2100,3302A,113.3942,23.0485,广州市,番禺大学城,,31,31,56,8,25,76,76,169,159,26,40,7,8,0.4,0.5
2026-03-19T2100,3303A,113.4923,22.8169,广州市,南沙黄阁,,26,26,41,7,21,67,67,132,123,18,33,6,6,/,/
2026-03-19T2100,3304A,113.534,22.7893,广州市,南沙街,,32,32,36,6,19,56,56,124,110,15,21,7,8,0.4,0.5
2026-03-19T2100,3443A,113.2905,23.5541,广州市,花都梯面,颗粒物(PM10),58,61,42,33,25,110,110,159,159,32,24,7,7,/,/
2026-03-19T2100,3445A,113.786,23.7479,广州市,从化良口,,50,44,34,35,24,79,79,109,103,12,14,4,5,/,/
2026-03-19T2100,3446A,113.805,23.2614,广州市,增城荔城,,29,29,48,15,28,73,73,210,190,27,31,5,6,0.4,0.4
2026-03-19T2100,2506A,109.604387,23.066791,贵港市,江南子站,颗粒物(PM10),84,97,67,35,24,88,88,107,107,19,18,8,9,0.9,0.9
2026-03-19T2100,2508A,109.5669,23.1065,贵港市,荷城子站,细颗粒物(PM2.5),80,83,53,50,27,81,81,105,105,26,18,11,9,0.9,0.9
2026-03-19T2100,3405A,109.5886,23.1172,贵港市,新世纪学校,颗粒物(PM10),78,88,59,48,30,79,79,110,110,28,20,/,/,0.9,0.8
2026-03-19T2100,4260A,109.5933,23.095,贵港市,中山路155-3号,颗粒物(PM10),92,108,61,49,34,79,79,105,105,23,16,/,/,1.0,0.8
2026-03-19T2100,1439A,106.6863,26.6035,贵阳市,马鞍山,,20,19,21,14,14,25,25,51,33,11,11,4,5,/,/
2026-03-19T2100,1441A,106.6241,26.6266,贵阳市,鉴湖路,,28,22,33,19,14,21,21,49,29,16,15,4,4,0.6,0.5
2026-03-19T2100,1442A,106.7468,26.6344,贵阳市,燕子冲,,23,17,23,16,13,32,32,56,39,12,10,6,7,1.2,1.2
2026-03-19T2100,1443A,106.6556,26.4362,贵阳市,碧云窝,,48,39,31,33,15,17,17,49,33,26,16,10,7,/,/
2026-03-19T2100,1445A,106.6963,26.6063,贵阳市,红边门,,28,22,28,19,15,27,27,55,35,17,15,7,9,/,/
2026-03-19T2100,1446A,106.7162383,26.56964667,贵阳市,新华路,NA,NA,31,34,22,13,27,27,53,37,NA,14,4,6,0.8,0.5
2026-03-19T2100,1447A,106.6742,26.542,贵阳市,太慈桥,,32,27,30,22,15,24,24,51,34,20,15,4,5,/,/
2026-03-19T2100,4230A,106.688212,26.56952,贵阳市,花果园大街66号,,33,24,24,23,16,21,21,46,29,17,14,1,2,/,/
2026-03-19T2100,4231A,106.687268,26.516892,贵阳市,漓江路57号,,36,NA,21,25,15,15,15,50,28,24,17,7,8,1.0,0.9
2026-03-19T2100,1864A,110.3091,25.2705,桂林市,龙隐路小学,,48,43,28,33,20,53,53,68,64,17,15,3,3,0.7,0.6
2026-03-19T2100,1865A,110.2849361,25.22909545,桂林市,八中,颗粒物(PM10),51,51,29,20,12,47,47,57,55,17,14,3,3,0.8,0.8
2026-03-19T2100,3531A,110.296,25.1254,桂林市,旅游学院,颗粒物(PM10),58,61,36,36,20,54,54,69,65,20,16,5,5,0.7,0.7
2026-03-19T2100,4222A,110.1835,25.2444,桂林市,环湖路276号,,46,46,32,24,17,56,56,67,64,13,12,5,5,0.8,0.9
2026-03-19T2100,4301A,110.2803,25.2773,桂林市,信义路13号,,47,47,28,32,18,53,53,65,62,16,14,3,4,1.1,1
2026-03-19T2100,2674A,100.2262,34.4854,果洛藏族自治州,玛沁县大武镇,颗粒物(PM10),62,66,38,12,12,97,97,103,103,2,2,12,10,0.3,0.3
2026-03-19T2100,1130A,126.5557,45.8109,哈尔滨市,松北商大,,50,50,65,35,42,72,72,84,78,5,9,2,2,0.1,0.3
2026-03-19T2100,1132A,126.6162,45.719,哈尔滨市,南岗学府路,,50,50,73,26,37,70,70,91,84,8,14,9,10,0,0
2026-03-19T2100,1133A,126.6894,45.7733,哈尔滨市,太平宏伟公园,细颗粒物(PM2.5),66,55,67,43,41,66,66,82,77,9,14,8,10,0.5,0.6
2026-03-19T2100,1134A,126.6361,45.7672,哈尔滨市,道外承德广场,颗粒物(PM10),71,79,103,36,38,76,76,91,87,11,17,9,10,0.9,0.9
2026-03-19T2100,1136A,126.644,45.7261,哈尔滨市,动力和平路,细颗粒物(PM2.5),54,44,74,37,41,72,72,86,82,9,14,13,9,0.8,0.8
2026-03-19T2100,1137A,126.5933,45.7479,哈尔滨市,道里建国路,细颗粒物(PM2.5),52,37,64,36,36,72,72,85,81,12,19,8,8,0.6,0.5
2026-03-19T2100,1138A,126.6127,45.6119,哈尔滨市,平房东轻厂,细颗粒物(PM2.5),90,NA,88,55,46,53,53,74,68,38,44,21,30,0.6,0.7
2026-03-19T2100,1139A,126.5875,45.9827,哈尔滨市,呼兰师专,细颗粒物(PM2.5),96,77,69,58,34,58,58,77,69,18,16,8,10,0.4,0.3
2026-03-19T2100,1140A,126.6299,45.6799,哈尔滨市,省农科院,,48,48,95,30,46,74,74,85,82,7,17,13,11,0.6,0.6
2026-03-19T2100,4282A,126.6769,45.7379,哈尔滨市,华山路1号,颗粒物(PM10),53,53,75,33,46,74,74,80,79,12,17,2,3,0.6,0.7
2026-03-19T2100,4283A,126.9717,45.5356,哈尔滨市,解放大街52号,颗粒物(PM10),91,107,123,41,41,67,67,95,88,19,14,1,2,0.1,0.2
2026-03-19T2100,2688A,93.5124,42.8176,哈密市,地区监测站,颗粒物(PM10),81,93,72,41,24,68,68,88,87,24,25,5,5,0.2,0.4
2026-03-19T2100,2689A,93.5014,42.8312,哈密市,哈密师范学校,颗粒物(PM10),98,117,74,43,21,49,49,85,82,39,36,8,7,0.5,0.5
2026-03-19T2100,2671A,100.9016,36.9464,海北藏族自治州,海晏县西海镇,,34,34,56,19,34,92,92,98,98,1,6,8,8,0.4,0.5
2026-03-19T2100,3867A,102.074,36.5056,海东市,平安区公安局北苑,颗粒物(PM10),115,159,97,58,47,95,95,110,109,6,13,17,17,0.8,0.8
2026-03-19T2100,4163A,102.0984,36.5119,海东市,滨河路,颗粒物(PM10),112,150,100,56,43,66,66,88,84,27,34,18,19,0.7,1
2026-03-19T2100,1410A,110.3189,20.0596,海口市,海南大学,,25,25,25,14,10,54,54,78,71,7,5,6,5,0.5,0.3
2026-03-19T2100,1411A,110.2827,20.0051,海口市,秀英海南医院,,21,21,21,12,11,49,49,72,66,8,10,8,8,0.3,0.3
2026-03-19T2100,1412A,110.3391,19.9979,海口市,海南师范大学,,29,29,27,13,12,52,52,79,72,7,7,6,6,0.4,0.4
2026-03-19T2100,1413A,110.3303,20.0359,海口市,龙华路环保局宿舍,,28,28,25,14,12,56,56,80,73,7,7,/,/,0.4,0.4
2026-03-19T2100,3539A,110.5111,19.9737,海口市,桂林洋子站,,20,20,25,11,12,50,50,73,66,8,9,/,/,/,/
2026-03-19T2100,4134A,110.1952,20.0451,海口市,长滨二路9号,,21,21,21,13,11,54,54,75,69,4,6,/,/,/,/
2026-03-19T2100,2673A,100.6158,36.2985,海南藏族自治州,共和县恰卜恰镇,,43,43,46,21,24,99,99,112,111,3,10,9,12,0.3,0.3
2026-03-19T2100,2676A,97.373,37.376,海西蒙古族藏族自治州,德令哈市,,44,37,31,15,17,139,139,144,144,2,3,13,15,0.3,0.4
2026-03-19T2100,1049A,114.492,36.5712,邯郸市,矿院,细颗粒物(PM2.5),92,101,60,56,24,57,57,92,86,28,23,7,4,0.4,0.4
2026-03-19T2100,1050A,114.4839,36.6136,邯郸市,丛台公园,细颗粒物(PM2.5),101,106,62,61,32,60,60,53,51,24,21,4,3,0.5,0.5
2026-03-19T2100,3458A,114.7893,36.5592,邯郸市,香泉濮院小区,颗粒物(PM10),93,110,73,41,28,70,70,97,93,18,17,2,2,0.6,0.5
2026-03-19T2100,3580A,114.1998,36.4439,邯郸市,峰峰矿区临水派出所,颗粒物(PM10),90,105,63,42,21,74,74,97,94,13,11,5,7,0.5,0.8
2026-03-19T2100,4068A,114.5209,36.7697,邯郸市,建安街268号,细颗粒物(PM2.5),102,102,69,62,27,52,52,96,88,36,35,2,3,0.4,0.4
2026-03-19T2100,4069A,114.5488,36.6177,邯郸市,丛台东路558号,细颗粒物(PM2.5),104,93,61,64,39,58,58,93,87,21,23,2,4,0.6,0.4
2026-03-19T2100,2635A,107.0155,33.0707,汉中市,市监测站,颗粒物(PM10),55,56,56,25,21,51,51,57,57,19,16,7,7,0.5,0.5
2026-03-19T2100,2636A,107.0083,33.114,汉中市,鑫源开发区,颗粒物(PM10),62,66,54,19,9,36,36,59,56,24,17,4,5,0.4,0.3
2026-03-19T2100,2637A,107.0072,33.0323,汉中市,南郑大河坎水厂,颗粒物(PM10),65,71,58,41,22,24,24,60,57,36,19,4,4,0.7,0.4
2026-03-19T2100,1223A,120.2073,30.2111,杭州市,滨江,细颗粒物(PM2.5),111,103,56,72,39,72,72,103,101,46,25,8,7,0.9,0.8
2026-03-19T2100,1224A,120.0625,30.2737,杭州市,西溪,细颗粒物(PM2.5),109,93,56,69,41,89,89,93,93,24,20,8,8,0.9,0.9
2026-03-19T2100,1226A,120.3417,30.315,杭州市,下沙,细颗粒物(PM2.5),105,89,68,65,44,83,83,98,98,28,25,7,8,0.7,0.7
2026-03-19T2100,1227A,120.1252,30.2465,杭州市,卧龙桥,细颗粒物(PM2.5),107,89,59,67,39,96,96,102,102,27,21,7,7,0.5,0.5
2026-03-19T2100,1228A,120.1902,30.2691,杭州市,浙江农大,细颗粒物(PM2.5),108,91,50,68,42,93,93,100,100,33,31,7,6,0.8,0.8
2026-03-19T2100,1230A,120.1195,30.3121,杭州市,和睦小学,细颗粒物(PM2.5),113,104,67,74,46,77,77,94,94,34,22,6,6,0.8,0.8
2026-03-19T2100,1231A,120.3076,30.4146,杭州市,临平镇,细颗粒物(PM2.5),109,93,62,69,50,84,84,108,107,31,21,6,7,0.8,0.7
2026-03-19T2100,1232A,120.2753,30.1839,杭州市,城厢镇,细颗粒物(PM2.5),110,93,50,70,38,82,82,110,108,28,21,10,9,0.9,0.8
2026-03-19T2100,1233A,120.0883,30.1808,杭州市,云栖,细颗粒物(PM2.5),76,72,47,48,33,44,44,106,93,36,24,5,5,0.7,0.7
2026-03-19T2100,3557A,119.9463,30.0496,杭州市,镇二中,细颗粒物(PM2.5),94,64,32,57,33,64,64,99,93,32,19,4,4,0.9,0.9
2026-03-19T2100,3558A,119.7184,30.2367,杭州市,市府大楼,细颗粒物(PM2.5),100,83,41,60,37,28,28,55,50,33,17,6,6,0.6,0.6
2026-03-19T2100,3656A,120.1554,30.2863,杭州市,消防大队,细颗粒物(PM2.5),112,100,65,73,49,82,82,92,92,31,22,7,7,0.8,0.8
2026-03-19T2100,1270A,117.1957,31.7845,合肥市,明珠广场,细颗粒物(PM2.5),134,110,89,97,75,103,103,127,122,18,28,5,5,1.1,1.2
2026-03-19T2100,1271A,117.307,31.8765,合肥市,三里街,细颗粒物(PM2.5),138,127,90,101,73,76,76,106,102,45,38,5,5,0.9,1
2026-03-19T2100,1272A,117.2587,31.8703,合肥市,琥珀山庄,细颗粒物(PM2.5),128,114,82,90,64,97,97,124,119,36,33,6,6,0.9,1
2026-03-19T2100,1275A,117.2593,31.9376,合肥市,庐阳区,细颗粒物(PM2.5),130,127,89,92,63,98,98,117,114,27,31,4,4,1.0,1.1
2026-03-19T2100,1276A,117.345251,31.861615,合肥市,瑶海区,细颗粒物(PM2.5),125,124,88,87,60,85,85,115,110,38,41,5,5,0.8,0.9
2026-03-19T2100,1277A,117.3033,31.7967,合肥市,包河区,细颗粒物(PM2.5),116,114,85,77,59,101,101,120,118,35,52,7,8,1.0,1.1
2026-03-19T2100,1278A,117.278,31.7392,合肥市,滨湖新区,细颗粒物(PM2.5),124,117,87,86,69,109,109,118,117,11,26,4,4,0.8,0.9
2026-03-19T2100,1279A,117.1324,31.8395,合肥市,高新区,细颗粒物(PM2.5),121,110,87,83,61,103,103,125,119,20,28,4,4,0.9,0.9
2026-03-19T2100,3464A,117.3802,31.9148,合肥市,高教基地,细颗粒物(PM2.5),135,114,72,98,50,70,70,116,108,31,27,6,7,0.8,0.8
2026-03-19T2100,4098A,117.2518,31.8404,合肥市,中国科学技术大学,细颗粒物(PM2.5),123,105,82,85,62,103,103,128,122,23,25,5,5,0.9,0.9
2026-03-19T2100,3614A,79.9241,37.0878,和田地区,地区环保局,颗粒物(PM10),157,263,265,51,60,85,85,94,94,9,18,2,2,0.3,0.5
2026-03-19T2100,3615A,79.9132,37.1137,和田地区,市环保局,颗粒物(PM10),134,206,232,43,61,80,80,90,90,11,25,3,2,0.4,0.7
2026-03-19T2100,2517A,108.0496,24.6957,河池市,市环保站,,49,49,36,30,23,34,34,37,36,6,8,5,10,0.6,0.6
2026-03-19T2100,4302A,108.0901,24.6945,河池市,上任中路54号,颗粒物(PM10),56,58,37,35,22,26,26,36,35,10,8,6,9,0.7,0.7
2026-03-19T2100,1697A,114.6962,23.7538,河源市,东埔,,40,40,36,26,24,89,89,108,108,16,16,6,6,0.8,0.8
2026-03-19T2100,1698A,114.6895,23.7232,河源市,老城,,42,42,35,29,23,66,66,105,101,22,15,6,7,0.9,0.8
2026-03-19T2100,3374A,115.5562,35.089,菏泽市,定陶老年大学,颗粒物(PM10),88,102,67,38,33,71,71,97,91,18,18,6,6,0.5,0.5
2026-03-19T2100,4114A,115.4239,35.2593,菏泽市,黄河路600号,颗粒物(PM10),88,102,78,37,32,72,72,92,88,16,23,3,2,0.3,0.4
2026-03-19T2100,4115A,115.5025,35.2727,菏泽市,菏泽市人社局,颗粒物(PM10),74,83,69,35,34,76,76,94,90,17,21,4,5,0.3,0.3
2026-03-19T2100,4184A,115.479691,35.244011,菏泽市,永昌路1号,颗粒物(PM10),78,89,69,37,33,91,91,109,105,17,23,3,3,0.3,0.2
2026-03-19T2100,4193A,115.471542,35.280012,菏泽市,长城路999号,颗粒物(PM10),79,90,69,30,28,84,84,99,96,15,21,3,4,0.3,0.3
2026-03-19T2100,2514A,111.5264,24.4178,贺州市,环保小区,NA,NA,41,26,32,16,54,54,67,65,NA,10,4,4,0.8,0.8
2026-03-19T2100,2515A,111.561,24.4074,贺州市,政协大楼,,50,50,26,35,19,46,46,61,59,25,15,6,6,0.5,0.4
2026-03-19T2100,3534A,111.4744,24.455,贺州市,西湾,颗粒物(PM10),54,55,25,36,18,47,47,57,55,13,12,6,6,0.9,0.8
2026-03-19T2100,2385A,114.17,35.9019,鹤壁市,市监测站,颗粒物(PM10),88,103,73,46,31,74,74,84,84,20,20,6,6,0.6,0.6
2026-03-19T2100,2386A,114.2953,35.7512,鹤壁市,市交警支队,细颗粒物(PM2.5),108,110,77,68,33,42,42,64,62,43,44,4,9,0.6,0.4
2026-03-19T2100,2387A,114.2877,35.7302,鹤壁市,迎宾馆,细颗粒物(PM2.5),101,114,97,61,36,43,43,66,63,36,38,9,10,0.5,0.5
2026-03-19T2100,3474A,114.2616,35.6824,鹤壁市,大新区,细颗粒物(PM2.5),108,113,84,68,42,30,30,65,59,46,46,6,7,0.7,0.6
2026-03-19T2100,3596A,114.1573,35.9607,鹤壁市,南山宾馆,颗粒物(PM10),102,124,84,58,38,71,71,82,82,16,14,9,16,0.6,0.3
2026-03-19T2100,2244A,130.2537,47.3416,鹤岗市,哈啤分公司,,40,40,64,26,45,84,84,86,85,8,13,10,12,0.3,0.5
2026-03-19T2100,2245A,130.2683,47.3087,鹤岗市,斯达机电,,39,39,78,26,39,92,92,100,97,8,10,9,10,0.6,0.6
2026-03-19T2100,2246A,130.3114,47.3388,鹤岗市,东山纸板厂,颗粒物(PM10),53,53,90,28,43,79,79,87,84,8,17,10,10,0.4,0.7
2026-03-19T2100,2263A,127.4832,50.2524,黑河市,交通局,颗粒物(PM10),63,67,44,35,24,71,71,91,86,23,17,10,7,0.4,0.4
2026-03-19T2100,2264A,127.5146,50.2339,黑河市,环保局,细颗粒物(PM2.5),94,85,46,57,28,61,61,90,83,39,23,13,9,0.7,0.5
2026-03-19T2100,1074A,115.6839,37.754,衡水市,电机北厂,细颗粒物(PM2.5),76,84,54,48,26,100,100,110,110,19,18,3,5,0.2,0.4
2026-03-19T2100,1075A,115.6303,37.7318,衡水市,市监测站,细颗粒物(PM2.5),72,79,52,46,27,93,93,106,106,17,21,4,5,0.4,0.4
2026-03-19T2100,3188A,115.6684,37.7216,衡水市,市城管局,颗粒物(PM10),85,99,57,51,28,93,93,104,104,17,20,7,5,0.5,0.4
2026-03-19T2100,3459A,115.599,37.5491,衡水市,地表水厂,细颗粒物(PM2.5),84,93,52,52,31,83,83,107,106,22,27,8,8,0.4,0.4
2026-03-19T2100,2457A,112.6209,26.9268,衡阳市,衡阳化工总厂,,26,NA,29,18,26,38,38,50,49,11,21,4,5,1.0,1
2026-03-19T2100,2458A,112.621,26.8957,衡阳市,珠晖区环保局,,26,19,30,18,22,26,26,59,42,22,25,5,5,1.0,1.1
2026-03-19T2100,2459A,112.628,26.8654,衡阳市,市委党校,,25,20,28,17,22,32,32,51,47,12,17,4,5,1.1,1.1
2026-03-19T2100,2460A,112.6007,26.8977,衡阳市,市监测站,,36,32,31,25,21,38,38,52,48,16,20,6,7,0.9,0.9
2026-03-19T2100,2461A,112.5658,26.9013,衡阳市,真空机电公司,,29,24,27,20,22,37,37,54,50,16,18,6,7,1.2,1.1
2026-03-19T2100,3399A,112.6703,26.8817,衡阳市,师范学院,,23,19,27,16,19,36,36,52,49,11,15,4,4,1.1,1.1
2026-03-19T2100,3038A,103.3757,23.3679,红河哈尼族彝族自治州,州图书馆,颗粒物(PM10),73,81,52,45,36,102,102,115,114,8,5,5,5,0.4,0.4
2026-03-19T2100,4154A,103.401,23.3561,红河哈尼族彝族自治州,蒙自市朝阳路,细颗粒物(PM2.5),66,59,37,43,31,92,92,118,115,14,7,19,9,0.4,0.3
2026-03-19T2100,1090A,111.6506,40.7517,呼和浩特市,呼市一监,细颗粒物(PM2.5),200,166,75,150,54,72,72,103,100,55,33,13,9,1.0,0.7
2026-03-19T2100,1094A,111.7516,40.8369,呼和浩特市,如意水处理厂,细颗粒物(PM2.5),76,74,59,48,33,56,56,104,100,57,31,11,11,0.5,0.5
2026-03-19T2100,1095A,111.727798,40.806187,呼和浩特市,二十九中,颗粒物(PM10),71,79,64,43,36,58,58,97,93,57,35,10,11,0.8,0.6
2026-03-19T2100,1097A,111.717,40.7617,呼和浩特市,化肥厂生活区,细颗粒物(PM2.5),137,149,75,100,45,46,46,100,95,78,39,10,8,1.0,0.6
2026-03-19T2100,3699A,111.6519,40.8389,呼和浩特市,海东办,细颗粒物(PM2.5),101,100,60,61,39,31,31,97,90,78,43,8,8,0.7,0.5
2026-03-19T2100,4275A,111.591512,40.827312,呼和浩特市,成吉思汗西街8号,颗粒物(PM10),78,88,61,43,36,48,48,97,88,56,35,5,7,0.5,0.5
2026-03-19T2100,4276A,111.6597,40.8077,呼和浩特市,公园东路75号,细颗粒物(PM2.5),110,83,66,70,46,86,86,94,94,30,30,17,11,0.7,0.6
2026-03-19T2100,4277A,111.5427,40.7846,呼和浩特市,金海路35号,细颗粒物(PM2.5),70,75,62,45,39,33,33,94,86,63,41,9,10,0.6,0.5
2026-03-19T2100,3061A,119.7511,49.1576,呼伦贝尔市,国华电力东,,28,28,26,17,12,80,80,89,86,11,8,4,4,0.3,0.2
2026-03-19T2100,4279A,119.7569,49.2222,呼伦贝尔市,伊敏大街东7号,,29,29,28,12,13,79,79,86,85,13,10,6,7,0.3,0.3
2026-03-19T2100,1250A,120.075,30.867,湖州市,城西水厂,细颗粒物(PM2.5),104,80,53,64,45,125,125,133,133,17,19,5,6,0.7,0.7
2026-03-19T2100,2873A,120.083,30.8929,湖州市,仁皇山新区,细颗粒物(PM2.5),102,81,58,62,44,108,108,127,125,22,17,5,5,0.8,0.8
2026-03-19T2100,2907A,120.1846,30.8592,湖州市,吴兴区站,细颗粒物(PM2.5),101,87,64,61,44,125,125,138,137,19,17,5,5,0.7,0.6
2026-03-19T2100,3562A,120.4146,30.8538,湖州市,南浔区站,NA,NA,78,61,NA,49,90,90,107,105,25,23,NA,8,0.8,0.8
2026-03-19T2100,1607A,120.904878,40.721091,葫芦岛市,龙港区,细颗粒物(PM2.5),88,96,46,54,24,26,26,80,61,70,29,15,9,0.9,0.6
2026-03-19T2100,1608A,120.8382,40.7521,葫芦岛市,化工街,颗粒物(PM10),68,75,58,31,29,52,52,70,57,37,49,17,17,0.6,0.6
2026-03-19T2100,1609A,120.8339,40.7078,葫芦岛市,新区,颗粒物(PM10),67,73,44,40,26,52,52,73,59,38,34,12,10,0.8,0.8
2026-03-19T2100,1610A,120.8697,40.7679,葫芦岛市,东城区,颗粒物(PM10),61,65,52,29,31,64,64,76,61,26,46,14,15,0.7,0.7
2026-03-19T2100,2483A,109.9297,27.5383,怀化市,河西地税局,颗粒物(PM10),51,51,34,35,23,51,51,55,55,12,14,4,4,/,/
2026-03-19T2100,2484A,109.9783,27.5342,怀化市,市四医院,颗粒物(PM10),53,53,39,34,24,45,45,54,53,10,13,7,9,0.5,0.5
2026-03-19T2100,2485A,109.9971,27.5579,怀化市,监测楼,,48,47,38,33,26,46,46,57,56,10,13,4,6,0.3,0.3
2026-03-19T2100,1210A,119.0566,33.5991,淮安市,钵池山,细颗粒物(PM2.5),100,85,52,60,29,66,66,87,83,26,21,7,7,0.5,0.3
2026-03-19T2100,1211A,119.0083,33.578,淮安市,北京南路,细颗粒物(PM2.5),108,92,54,68,31,53,53,76,69,29,16,8,8,0.5,0.4
2026-03-19T2100,1212A,118.9938,33.6083,淮安市,市监测站,细颗粒物(PM2.5),111,85,53,72,34,62,62,80,75,25,19,8,5,0.5,0.4
2026-03-19T2100,1213A,119.135,33.5038,淮安市,楚州区监测站,细颗粒物(PM2.5),105,88,52,65,33,57,57,88,84,33,14,6,6,0.6,0.4
2026-03-19T2100,3426A,118.8757,33.2897,淮安市,新华书店,细颗粒物(PM2.5),109,88,68,69,46,62,62,71,71,24,18,6,7,0.5,0.5
2026-03-19T2100,4092A,119.119691,33.550006,淮安市,枚皋中路89号,细颗粒物(PM2.5),113,86,53,74,33,68,68,88,84,17,15,9,10,0.8,0.6
2026-03-19T2100,4206A,119.028838,33.631911,淮安市,承德北路606号,细颗粒物(PM2.5),109,112,63,69,30,65,65,81,76,22,18,10,8,0.5,0.4
2026-03-19T2100,2282A,116.8005,33.9749,淮北市,监测站,细颗粒物(PM2.5),101,111,83,61,48,82,82,108,105,24,16,6,6,0.8,0.6
2026-03-19T2100,2283A,116.8094,33.9008,淮北市,烈山区政府,颗粒物(PM10),105,132,77,64,44,66,66,107,103,39,16,5,5,0.6,0.4
2026-03-19T2100,4017A,116.7926,33.9534,淮北市,市博物馆,细颗粒物(PM2.5),106,112,78,66,49,82,82,105,103,23,15,3,3,0.7,0.6
2026-03-19T2100,4100A,116.8322,33.9884,淮北市,杜集区第一实验学校,细颗粒物(PM2.5),104,121,86,64,50,67,67,100,97,26,18,6,6,0.7,0.6
2026-03-19T2100,2277A,116.8304,32.7726,淮南市,潘集区政府,细颗粒物(PM2.5),109,105,87,69,56,93,93,96,96,21,20,6,6,0.7,0.7
2026-03-19T2100,2279A,116.8569,32.5949,淮南市,谢家集区政府,细颗粒物(PM2.5),120,110,87,82,73,108,108,110,110,25,26,6,8,0.7,0.7
2026-03-19T2100,2280A,116.8279,32.6333,淮南市,八公山区政府,细颗粒物(PM2.5),119,99,84,80,64,104,104,109,109,16,15,10,9,0.7,0.7
2026-03-19T2100,2894A,117.0561,32.6536,淮南市,经济技术开发区消防队,细颗粒物(PM2.5),123,115,88,85,75,85,85,106,106,35,24,6,6,0.7,0.6
2026-03-19T2100,3329A,117.011,32.5891,淮南市,山南新区,细颗粒物(PM2.5),123,115,91,85,73,99,99,109,109,27,24,6,6,0.7,0.7
2026-03-19T2100,4209A,117.003137,32.644456,淮南市,国庆中路369号,细颗粒物(PM2.5),124,107,92,86,67,85,85,98,98,23,22,7,7,0.8,0.7
2026-03-19T2100,2446A,114.9021,30.474,黄冈市,职工中心,细颗粒物(PM2.5),105,90,52,65,37,95,95,117,116,22,16,5,5,0.8,0.6
2026-03-19T2100,2929A,114.8858,30.4519,黄冈市,红卫路,细颗粒物(PM2.5),101,84,50,61,39,96,96,121,119,23,14,4,4,0.5,0.5
2026-03-19T2100,3398A,114.9134,30.4446,黄冈市,市林业局,细颗粒物(PM2.5),96,94,58,58,38,98,98,120,120,19,14,4,4,0.6,0.6
2026-03-19T2100,2672A,102.02,35.5101,黄南藏族自治州,同仁县隆务镇,,41,41,53,21,25,92,92,99,99,1,4,10,10,0.2,0.4
2026-03-19T2100,2295A,118.2905,29.6965,黄山市,延安路89号,,15,13,12,8,8,48,48,58,56,12,10,4,4,0.5,0.5
2026-03-19T2100,2297A,118.1369,30.2755,黄山市,黄山区政府5号楼,,45,45,23,26,14,36,36,63,52,11,10,2,2,0.7,0.6
2026-03-19T2100,4210A,118.335445,29.720283,黄山市,滨江东路7-2号,,31,31,25,7,5,43,43,58,55,16,13,/,/,/,/
2026-03-19T2100,2423A,115.0547,30.2332,黄石市,沈家营,细颗粒物(PM2.5),94,91,63,57,41,81,81,104,102,31,23,12,10,1.2,1
2026-03-19T2100,2426A,114.899,30.211,黄石市,铁山,细颗粒物(PM2.5),96,59,46,58,40,103,103,124,124,12,14,8,6,0.7,0.8
2026-03-19T2100,2427A,115.0259,30.2108,黄石市,团城山,NA,NA,NA,NA,NA,NA,NA,NA,NA,NA,NA,NA,NA,NA,NA,NA
2026-03-19T2100,3149A,115.0174,30.1591,黄石市,笔架山北路,细颗粒物(PM2.5),94,97,75,57,43,99,99,129,126,16,17,6,6,1.1,1.1
2026-03-19T2100,4185A,115.078022,30.21118,黄石市,磁湖东路29号,细颗粒物(PM2.5),90,77,62,55,45,101,101,120,119,8,17,7,6,1.0,1.2
2026-03-19T2100,1392A,114.4181,23.0528,惠州市,河南岸金山湖子站,,24,24,42,11,22,69,69,151,141,14,18,7,7,0.5,0.6
2026-03-19T2100,1393A,114.4055,23.0824,惠州市,下埔横江三路子站,,36,36,46,15,21,71,71,152,142,21,18,4,5,0.6,0.6
2026-03-19T2100,1395A,114.4645,22.7832,惠州市,惠阳区承修路船湖子站,,32,32,44,12,18,59,59,130,108,12,23,6,7,0.5,0.5
2026-03-19T2100,1396A,114.5316,22.7423,惠州市,大亚湾管委会子站,,32,32,39,12,17,51,51,116,91,16,25,4,4,0.5,0.5
2026-03-19T2100,3314A,114.4334,22.8134,惠州市,惠阳秋长,,22,22,42,10,20,63,63,156,124,10,26,/,/,/,/
2026-03-19T2100,3452A,114.6521,22.7755,惠州市,大亚湾霞涌,,27,27,23,9,12,81,81,95,91,8,15,/,/,/,/
2026-03-19T2100,4300A,114.4089,23.1147,惠州市,文华一路1号,,29,29,43,13,22,76,76,156,147,17,23,/,/,/,/
2026-03-19T2100,2240A,130.9618,45.2926,鸡西市,环保局,,32,32,48,18,28,80,80,89,86,11,22,7,7,0.3,0.5
2026-03-19T2100,2243A,130.9294,45.2959,鸡西市,第一中学,,38,35,38,26,27,75,75,89,85,12,13,5,4,0.6,0.6
2026-03-19T2100,3707A,131.0069,45.2988,鸡西市,欧美日汽修厂,,46,46,49,32,31,62,62,84,78,16,24,10,9,0.5,0.6
2026-03-19T2100,2367A,114.9753,27.0803,吉安市,红声器材厂,,30,30,25,19,10,51,51,48,47,23,19,7,5,0.8,1
2026-03-19T2100,2369A,114.9903,27.1313,吉安市,市环境监测站,,29,27,19,20,11,54,54,49,49,20,16,7,7,/,/
2026-03-19T2100,2370A,115.009527,27.096792,吉安市,青原区法院,NA,NA,26,21,22,9,50,50,49,49,NA,30,6,4,0.9,0.9
2026-03-19T2100,1772A,126.54,43.8622,吉林市,哈达湾,细颗粒物(PM2.5),106,119,59,66,31,81,81,95,93,16,12,7,6,0.6,0.5
2026-03-19T2100,1773A,126.5843,43.8358,吉林市,东局子,颗粒物(PM10),145,237,65,103,30,53,53,94,88,39,14,4,4,0.9,0.5
2026-03-19T2100,1774A,126.5051,43.8243,吉林市,电力学院,颗粒物(PM10),172,294,68,100,29,55,55,102,95,33,14,8,6,1.2,0.6
2026-03-19T2100,1775A,126.6133,43.8971,吉林市,江北,颗粒物(PM10),139,219,74,88,27,57,57,100,92,31,16,8,6,1.0,0.7
2026-03-19T2100,1776A,126.5549,43.8304,吉林市,江南公园,细颗粒物(PM2.5),101,102,50,61,28,64,64,92,87,26,11,7,7,0.7,0.5
2026-03-19T2100,2868A,126.4737,43.953,吉林市,九站,细颗粒物(PM2.5),117,152,88,78,39,50,50,93,84,36,20,7,7,0.7,0.6
2026-03-19T2100,1299A,116.9866,36.6118,济南市,科干所,细颗粒物(PM2.5),70,70,53,45,31,102,102,106,106,16,18,6,6,0.6,0.6
2026-03-19T2100,1300A,116.9379,36.6652,济南市,农科所,细颗粒物(PM2.5),80,73,55,50,34,96,96,98,98,20,22,8,7,0.5,0.5
2026-03-19T2100,1301A,117.1265,36.6736,济南市,开发区,细颗粒物(PM2.5),68,73,46,44,25,106,106,110,110,17,21,4,3,0.6,0.6
2026-03-19T2100,1303A,117.0616,36.6865,济南市,省种子仓库,细颗粒物(PM2.5),74,75,55,47,29,98,98,105,105,21,27,5,4,0.5,0.5
2026-03-19T2100,1304A,116.9495185,36.644937,济南市,机床二厂,细颗粒物(PM2.5),74,81,57,47,32,100,100,104,104,19,21,9,7,0.6,0.6
2026-03-19T2100,1305A,117.0496,36.6629,济南市,市监测站,细颗粒物(PM2.5),78,76,54,49,29,101,101,105,105,18,21,4,3,0.5,0.5
2026-03-19T2100,1306A,116.7674,36.5458,济南市,长清党校,颗粒物(PM10),74,83,61,45,31,96,96,103,103,19,25,6,4,0.5,0.6
2026-03-19T2100,1961A,117.5323,36.6865,济南市,东山小学,颗粒物(PM10),75,85,55,45,27,101,101,108,108,24,27,4,4,0.7,0.7
2026-03-19T2100,3059A,117.7181,36.205,济南市,泰兴公司,细颗粒物(PM2.5),98,97,66,59,38,88,88,111,109,26,31,9,8,0.9,0.5
2026-03-19T2100,3064A,117.6861,36.2172,济南市,莱芜战役纪念馆,细颗粒物(PM2.5),98,95,68,59,37,99,99,116,116,26,33,5,4,0.7,0.6
2026-03-19T2100,3494A,117.1673,36.9782,济南市,济阳区政府,细颗粒物(PM2.5),94,93,69,57,37,76,76,89,88,31,36,8,7,0.5,0.4
2026-03-19T2100,3495A,117.1168,36.6299,济南市,锦屏中学,细颗粒物(PM2.5),74,66,41,47,24,101,101,106,106,18,14,8,7,0.6,0.6
2026-03-19T2100,4108A,117.7107,36.2385,济南市,山财大街5号,细颗粒物(PM2.5),103,95,64,63,37,81,81,107,106,34,41,8,6,1.1,0.7
2026-03-19T2100,4109A,116.9744,36.6889,济南市,无影山路12号,细颗粒物(PM2.5),74,66,47,47,30,94,94,99,99,20,19,6,4,0.6,0.6
2026-03-19T2100,1653A,116.6229,35.4288,济宁市,火炬城,NA,NA,NA,53,NA,30,NA,NA,66,NA,NA,40,NA,4,NA,0.6
2026-03-19T2100,3500A,116.5808,35.3703,济宁市,北湖一中,细颗粒物(PM2.5),64,62,52,42,36,80,80,102,100,17,22,6,6,0.5,0.5
2026-03-19T2100,3501A,116.8251,35.5592,济宁市,服务中心,细颗粒物(PM2.5),88,94,72,54,42,78,78,105,103,22,28,2,3,0.7,0.7
2026-03-19T2100,3678A,116.5907,35.4054,济宁市,市第七中学,颗粒物(PM10),68,75,61,41,35,85,85,112,108,22,26,4,4,0.5,0.6
2026-03-19T2100,4111A,116.6075,35.4566,济宁市,任和路,颗粒物(PM10),74,83,68,40,39,86,86,109,107,19,30,6,5,0.6,0.7
2026-03-19T2100,4112A,116.5648,35.3921,济宁市,文体南路1号,颗粒物(PM10),75,85,63,40,36,84,84,105,104,20,24,4,3,0.4,0.5
2026-03-19T2100,4122A,112.6071,35.1015,济源市,市委党校,颗粒物(PM10),115,157,110,64,37,34,34,73,67,48,24,7,9,0.8,0.6
2026-03-19T2100,4123A,112.596,35.0702,济源市,沁园中路1号,颗粒物(PM10),110,145,96,64,39,28,28,78,70,50,30,4,7,0.8,0.7
2026-03-19T2100,2255A,130.2749,46.8028,佳木斯市,佳纺,,45,45,84,31,47,66,66,90,79,14,21,6,5,0.4,0.4
2026-03-19T2100,2257A,130.3258,46.7975,佳木斯市,环保局,,35,33,91,24,44,59,59,94,84,23,15,4,2,0.3,0.3
2026-03-19T2100,4285A,130.363,46.806,佳木斯市,顺和街,,36,35,86,25,49,62,62,82,74,18,24,5,4,0.4,0.5
2026-03-19T2100,4286A,130.3952,46.8268,佳木斯市,长安路196号,,40,38,84,28,47,64,64,84,78,14,18,2,3,0.5,0.6
2026-03-19T2100,1252A,120.7439,30.778,嘉兴市,清河小学,颗粒物(PM10),72,80,48,41,32,64,64,107,99,34,21,6,6,0.8,0.6
2026-03-19T2100,1253A,120.7261,30.7477,嘉兴市,嘉兴学院,细颗粒物(PM2.5),88,77,48,54,32,54,54,112,101,44,25,6,5,0.7,0.6
2026-03-19T2100,2872A,120.7845,30.7524,嘉兴市,南湖区残联,细颗粒物(PM2.5),80,56,45,50,33,72,72,105,97,33,22,5,4,0.7,0.6
2026-03-19T2100,3407A,120.6915,30.7741,嘉兴市,秀洲住建,细颗粒物(PM2.5),90,91,53,55,34,62,62,111,102,39,22,8,7,0.7,0.7
2026-03-19T2100,1945A,98.291,39.7705,嘉峪关市,气象局,颗粒物(PM10),157,263,210,63,44,87,87,101,97,9,8,10,8,0.4,0.3
2026-03-19T2100,2884A,98.2672,39.7978,嘉峪关市,酒钢宾馆,颗粒物(PM10),161,271,244,76,51,86,86,101,96,12,7,14,13,0.5,0.5
2026-03-19T2100,3248A,98.2644,39.7723,嘉峪关市,雄关区,颗粒物(PM10),143,230,178,68,47,82,82,98,94,13,12,6,7,0.2,0.3
2026-03-19T2100,1383A,113.1063,22.6058,江门市,北街,,25,25,41,9,23,52,52,122,107,19,30,/,/,/,/
2026-03-19T2100,1384A,113.073,22.5835,江门市,西区,,24,24,44,8,23,50,50,127,110,19,29,/,/,/,/
2026-03-19T2100,1385A,113.0218,22.531,江门市,圭峰西,,20,20,36,9,22,45,45,120,102,22,18,/,/,/,/
2026-03-19T2100,1386A,113.0826,22.5947,江门市,东湖,,22,22,40,9,20,52,52,123,108,17,26,8,8,0.5,0.5
2026-03-19T2100,3311A,113.1077,22.5647,江门市,江海富民,,37,37,54,9,25,49,49,130,110,20,25,/,/,0.3,0.4
2026-03-19T2100,3449A,113.0496,22.4669,江门市,新会银湖,,24,24,38,7,20,49,49,116,98,20,25,8,8,0.2,0.3
2026-03-19T2100,3335A,113.3137,35.2643,焦作市,马村街道办,颗粒物(PM10),107,138,91,66,35,36,36,72,65,40,22,13,11,0.9,0.6
2026-03-19T2100,3336A,113.2464,35.2374,焦作市,焦作技师学院,"颗粒物(PM10),细颗粒物(PM2.5)",110,146,83,70,35,31,31,72,63,49,22,11,10,0.8,0.6
2026-03-19T2100,3477A,113.1656,35.2536,焦作市,中站许衡医院,颗粒物(PM10),102,125,83,61,38,52,52,68,62,34,27,16,14,0.9,0.7
2026-03-19T2100,3981A,113.2456,35.18,焦作市,原李万街道办,颗粒物(PM10),102,123,90,49,34,55,55,72,67,27,21,14,12,0.6,0.6
2026-03-19T2100,4264A,113.234,35.219,焦作市,新安路1731号,颗粒物(PM10),114,156,96,69,36,41,41,76,70,44,24,12,13,0.8,0.6
2026-03-19T2100,4295A,113.2722,35.2121,焦作市,人民路3066号,细颗粒物(PM2.5),106,109,83,66,37,54,54,78,72,42,29,10,10,0.6,0.5
2026-03-19T2100,1708A,116.3701,23.5345,揭阳市,新兴,,26,23,60,18,41,83,83,107,99,12,29,6,9,0.7,0.8
2026-03-19T2100,1709A,116.3261,23.5442,揭阳市,西马,,36,36,51,20,29,76,76,111,102,13,18,4,6,0.7,0.7
2026-03-19T2100,1710A,116.361,23.5627,揭阳市,东兴,,26,19,57,18,36,83,83,115,106,9,23,5,6,/,/
2026-03-19T2100,1711A,116.4151,23.5295,揭阳市,渔湖,NA,NA,NA,66,15,43,96,96,123,113,10,24,3,6,/,/
2026-03-19T2100,3320A,116.4028,23.5699,揭阳市,曲溪,,30,30,58,17,35,86,86,120,112,13,26,4,4,0.6,0.7
2026-03-19T2100,1944A,102.1691,38.5166,金昌市,天庆家园,颗粒物(PM10),364,471,169,101,41,97,97,106,104,2,7,16,19,0.6,0.6
2026-03-19T2100,4022A,102.1648,38.5369,金昌市,金川区人防中心,颗粒物(PM10),348,458,171,116,41,90,90,98,96,5,8,4,5,0.4,0.5
2026-03-19T2100,4239A,102.193042,38.531887,金昌市,长春路96号,颗粒物(PM10),385,488,144,118,35,92,92,91,91,3,5,5,11,0.6,0.4
2026-03-19T2100,1262A,119.6478,29.0773,金华市,十五中,,36,33,26,25,17,88,88,102,100,17,16,3,3,0.5,0.6
2026-03-19T2100,1263A,119.6859,29.1032,金华市,监测站,,33,26,26,23,20,66,66,86,83,24,24,3,3,0.6,0.7
2026-03-19T2100,3659A,119.656,29.1132,金华市,气象局,,36,36,30,23,20,68,68,87,84,23,24,2,2,0.6,0.6
2026-03-19T2100,1767A,121.1114,41.0879,锦州市,南山,,41,41,53,18,35,71,71,85,73,16,35,9,10,0.5,0.7
2026-03-19T2100,1768A,121.060361,40.842794,锦州市,开发区,细颗粒物(PM2.5),110,79,65,71,34,34,34,67,50,NA,50,NA,11,0.7,0.8
2026-03-19T2100,1769A,121.1836,41.1118,锦州市,百股街道,细颗粒物(PM2.5),64,58,57,42,46,53,53,84,71,26,35,10,9,0.7,0.9
2026-03-19T2100,1770A,121.1176,41.1224,锦州市,天安街道,,49,49,46,15,31,75,75,85,77,12,30,10,7,0.7,0.8
2026-03-19T2100,1771A,121.1303,41.1385,锦州市,北湖公园,,36,36,46,15,32,76,76,90,82,11,28,10,8,0.5,0.7
2026-03-19T2100,2160A,112.8496,35.5051,晋城市,自来水公司,颗粒物(PM10),102,124,94,48,23,66,66,85,82,22,17,6,6,0.4,0.5
2026-03-19T2100,2162A,112.8509,35.4886,晋城市,市环保局,颗粒物(PM10),95,112,90,54,25,64,64,84,80,18,15,7,6,0.6,0.6
2026-03-19T2100,3620A,112.8258,35.4804,晋城市,泽州一中,颗粒物(PM10),101,122,88,52,29,62,62,85,81,23,17,5,5,0.7,0.7
2026-03-19T2100,4078A,112.8246,35.5152,晋城市,前书院路,NA,NA,114,92,48,24,60,60,79,74,22,21,6,6,NA,0.8
2026-03-19T2100,4079A,112.8864,35.4773,晋城市,祥云街666号,细颗粒物(PM2.5),111,113,83,72,32,63,63,84,78,25,19,7,7,0.5,0.5
2026-03-19T2100,2174A,112.6992,37.6984,晋中市,榆次区政府,颗粒物(PM10),79,90,64,45,30,70,70,101,98,40,36,13,14,0.6,0.5
2026-03-19T2100,2865A,112.7195,37.683,晋中市,榆次三中,颗粒物(PM10),96,114,66,51,28,57,57,104,100,48,33,17,14,0.9,0.6
2026-03-19T2100,4080A,112.7375,37.7215,晋中市,广安街188号,颗粒物(PM10),93,109,76,46,31,54,54,102,96,42,38,23,16,0.4,0.5
2026-03-19T2100,4200A,112.7478,37.6954,晋中市,迎宾街26号,颗粒物(PM10),88,102,63,50,29,65,65,108,104,39,26,13,13,0.8,0.6
2026-03-19T2100,2439A,112.2012,31.048,荆门市,竹园小学,"颗粒物(PM10),细颗粒物(PM2.5)",110,144,126,71,76,29,29,70,62,43,24,1,2,1.1,0.8
2026-03-19T2100,2440A,112.1968,30.9892,荆门市,掇刀,细颗粒物(PM2.5),116,124,121,77,73,47,47,80,75,32,20,7,7,0.7,0.8
2026-03-19T2100,3012A,112.1849,31.0361,荆门市,西山林语,细颗粒物(PM2.5),101,102,110,61,66,38,38,68,62,28,17,1,4,1.0,0.9
2026-03-19T2100,3547A,112.1631,31.0134,荆门市,龙泉中学南校,细颗粒物(PM2.5),109,107,127,69,78,50,50,75,71,20,17,3,5,0.8,1
2026-03-19T2100,4124A,112.2213,31.0654,荆门市,新台西路6号,细颗粒物(PM2.5),112,121,117,73,75,26,26,66,59,43,23,6,6,0.9,0.8
2026-03-19T2100,1844A,112.2493,30.3198,荆州市,市图书馆,细颗粒物(PM2.5),108,80,64,68,51,56,56,63,63,28,29,7,11,0.9,1.1
2026-03-19T2100,1845A,112.2009,30.3543,荆州市,市委党校,细颗粒物(PM2.5),120,95,83,81,69,49,49,56,56,32,35,7,9,0.9,0.9
2026-03-19T2100,3194A,112.2749,30.3124,荆州市,管委会,细颗粒物(PM2.5),108,91,79,68,62,50,50,60,58,26,33,10,13,0.9,0.8
2026-03-19T2100,4268A,112.1722,30.3366,荆州市,学苑路85号,细颗粒物(PM2.5),115,111,86,76,60,66,66,72,71,14,21,1,5,1.3,1.1
2026-03-19T2100,2343A,117.2114,29.2931,景德镇市,老干部活动中心,,28,20,9,19,8,28,28,48,41,11,8,5,5,0.9,0.9
2026-03-19T2100,2344A,117.1893,29.2789,景德镇市,兽医站,,23,23,20,11,6,25,25,51,42,17,11,3,4,0.8,0.7
2026-03-19T2100,2346A,117.246,29.2958,景德镇市,陶研所,,9,8,7,3,6,26,26,54,43,15,15,4,4,0.9,0.9
2026-03-19T2100,4289A,117.154766,29.256967,景德镇市,青少年活动中心,,25,25,11,16,8,10,10,46,36,37,16,13,6,/,/
2026-03-19T2100,1803A,115.9873,29.6816,九江市,十里,细颗粒物(PM2.5),66,61,49,43,44,87,87,104,102,29,23,11,8,1.0,1
2026-03-19T2100,1804A,115.9583,29.7047,九江市,茅山头,细颗粒物(PM2.5),68,65,48,44,47,88,88,108,105,24,18,5,4,0.7,0.7
2026-03-19T2100,1805A,115.9877,29.7295,九江市,西园,颗粒物(PM10),51,51,48,31,42,91,91,111,107,38,25,4,4,0.8,0.9
2026-03-19T2100,1808A,115.9112,29.6038,九江市,综合工业园,细颗粒物(PM2.5),60,50,45,40,39,52,52,98,86,50,29,8,7,0.9,0.9
2026-03-19T2100,3190A,116.0254,29.6995,九江市,外国语学校,细颗粒物(PM2.5),60,47,40,40,43,87,87,95,93,20,19,3,4,0.9,0.9
2026-03-19T2100,4253A,116.010205,29.659402,九江市,莲花大道8号,颗粒物(PM10),56,58,50,37,41,92,92,96,96,15,17,6,4,0.7,0.7
2026-03-19T2100,4240A,98.495752,39.733935,酒泉市,玉门东路5号,颗粒物(PM10),164,278,266,82,58,80,80,89,86,5,7,5,6,0.5,0.5
2026-03-19T2100,4241A,98.5099,39.7506,酒泉市,北大街108号,颗粒物(PM10),151,251,264,76,61,72,72,85,82,8,9,7,8,0.3,0.3
2026-03-19T2100,2698A,76.0071,39.466,喀什地区,巡警大队,颗粒物(PM10),105,132,178,62,76,84,84,88,88,11,30,4,4,0.3,0.8
2026-03-19T2100,2699A,75.9756,39.4693,喀什地区,吾办,颗粒物(PM10),110,144,181,61,80,80,80,87,87,14,29,4,5,0.4,0.8
2026-03-19T2100,4027A,75.9485,39.4688,喀什地区,老干局,颗粒物(PM10),108,140,178,52,65,82,82,90,90,12,26,2,3,0.5,0.9
2026-03-19T2100,1824A,114.3389,34.778,开封市,肿瘤医院,细颗粒物(PM2.5),108,94,73,68,45,48,48,88,80,41,37,6,7,0.8,0.6
2026-03-19T2100,1826A,114.2884,34.7966,开封市,世纪星幼儿园,细颗粒物(PM2.5),101,94,70,61,39,58,58,84,80,23,28,9,9,0.8,0.7
2026-03-19T2100,3147A,114.3434,34.8101,开封市,龙亭公园,细颗粒物(PM2.5),104,102,72,64,38,54,54,90,84,37,33,9,9,0.8,0.7
2026-03-19T2100,3210A,114.3645,34.7955,开封市,汴京公园,细颗粒物(PM2.5),113,94,74,74,45,56,56,89,84,29,35,4,5,0.7,0.6
2026-03-19T2100,3473A,114.2485,34.8306,开封市,技师学院,细颗粒物(PM2.5),107,80,56,67,40,70,70,88,85,17,21,6,6,1.0,0.8
2026-03-19T2100,3592A,114.4518,34.7503,开封市,祥符区生态环境局,细颗粒物(PM2.5),110,134,89,70,44,41,41,91,80,41,38,5,6,0.7,0.5
2026-03-19T2100,1951A,84.886,45.6029,克拉玛依市,长征新村,,50,50,37,20,12,93,93,94,94,17,17,7,6,0.4,0.4
2026-03-19T2100,1952A,84.8894,45.5827,克拉玛依市,南林小区,,42,42,38,15,9,105,105,100,100,5,11,4,4,0.2,0.4
2026-03-19T2100,1954A,84.896,44.3328,克拉玛依市,独山子区,颗粒物(PM10),92,108,86,48,30,130,130,127,127,33,19,6,6,0.9,0.8
2026-03-19T2100,1955A,85.6888,46.0909,克拉玛依市,乌尔禾区商贸楼,颗粒物(PM10),56,58,46,23,19,80,80,86,86,17,16,2,6,0.4,0.5
2026-03-19T2100,3612A,85.1045,45.6895,克拉玛依市,白碱滩区新站,,37,37,38,25,18,78,78,94,94,32,13,5,11,0.2,0.4
2026-03-19T2100,2697A,76.1457,39.7143,克孜勒苏柯尔克孜自治州,市人民政府,颗粒物(PM10),113,153,168,64,62,82,82,84,84,11,18,4,4,0.3,0.2
2026-03-19T2100,3665A,76.1654,39.7157,克孜勒苏柯尔克孜自治州,克州文化中心,颗粒物(PM10),111,147,162,62,62,78,78,85,85,18,18,6,6,0.5,0.5
2026-03-19T2100,1450A,102.8203,24.889,昆明市,呈贡新区,,46,46,41,29,25,110,110,116,114,15,13,4,5,0.4,0.5
2026-03-19T2100,1452A,102.7253,25.0904,昆明市,龙泉镇,颗粒物(PM10),58,60,41,24,23,99,99,107,106,12,18,3,4,0.7,0.5
2026-03-19T2100,1453A,102.7267,25.0378,昆明市,东风东路,,45,45,39,26,22,103,103,113,110,15,13,6,4,0.5,0.3
2026-03-19T2100,1454A,102.6744,25.0671,昆明市,金鼎山,,50,50,46,25,23,111,111,109,109,10,16,2,3,0.4,0.4
2026-03-19T2100,1455A,102.6643,25.0401,昆明市,碧鸡广场,,48,48,42,27,25,104,104,109,108,15,25,8,5,0.5,0.4
2026-03-19T2100,3179A,102.7491,25.012,昆明市,官渡区博物馆,,41,41,44,26,22,104,104,107,106,14,15,4,5,0.4,0.5
2026-03-19T2100,3375A,102.8016,24.8336,昆明市,青年创业园,颗粒物(PM10),51,51,37,22,23,108,108,111,111,6,5,5,5,0.4,0.4
2026-03-19T2100,3550A,102.8,24.9787,昆明市,昆明学院,,47,47,42,28,21,112,112,114,113,9,11,3,7,0.4,0.5
2026-03-19T2100,3551A,102.5969,24.6738,昆明市,晋宁区生态环境分局,,43,NA,34,30,24,108,108,110,110,8,9,12,3,0.5,0.4
2026-03-19T2100,3552A,102.6673,24.9861,昆明市,云天化总部,NA,NA,41,39,22,19,113,113,110,110,10,16,5,10,NA,0.4
2026-03-19T2100,1456A,91.132,29.6515,拉萨市,八廓街,,27,24,19,10,8,85,85,106,103,18,15,5,5,0.5,0.4
2026-03-19T2100,1457A,91.1221,29.6748,拉萨市,市环保局,,25,25,28,3,13,74,74,102,96,24,20,4,4,0.6,0.6
2026-03-19T2100,1458A,91.0874,29.6476,拉萨市,区监测站,,26,15,14,10,8,81,81,103,99,24,18,5,4,0.4,0.5
2026-03-19T2100,1459A,91.1774,29.6541,拉萨市,西藏大学,,28,17,20,11,9,89,89,103,101,17,20,4,4,0.4,0.4
2026-03-19T2100,1460A,90.9798,29.6586,拉萨市,区辐射站,,25,23,27,11,11,77,77,98,96,24,25,4,5,0.4,0.4
2026-03-19T2100,1461A,91.0831,29.6292,拉萨市,拉萨火车站,,28,NA,17,18,10,87,87,99,98,15,11,3,4,0.5,0.4
2026-03-19T2100,2520A,109.2203,23.7252,来宾市,来宾技工学校,细颗粒物(PM2.5),113,78,47,74,32,53,53,88,87,26,13,8,7,1.3,1
2026-03-19T2100,3535A,109.1781,23.7293,来宾市,兴宾区政府,细颗粒物(PM2.5),109,101,50,69,30,58,58,92,92,24,13,10,10,1.2,0.9
2026-03-19T2100,4002A,109.2312,23.7428,来宾市,中南小学,细颗粒物(PM2.5),117,84,47,78,30,54,54,97,95,25,13,10,10,1.2,0.9
2026-03-19T2100,1479A,103.8309,36.0467,兰州市,铁路设计院,NA,NA,NA,NA,NA,NA,NA,NA,NA,NA,NA,NA,NA,NA,NA,NA
2026-03-19T2100,3241A,103.7439,36.0841,兰州市,百合公园,颗粒物(PM10),111,147,118,48,47,87,87,90,90,8,30,6,6,0.2,0.5
2026-03-19T2100,3242A,103.9613,35.9985,兰州市,和平,颗粒物(PM10),116,160,132,48,39,88,88,102,102,12,15,11,11,0.4,0.5
2026-03-19T2100,4236A,103.629272,36.093822,兰州市,庄浪东路808号,颗粒物(PM10),108,139,126,52,46,83,83,98,98,14,19,8,9,0.5,0.5
2026-03-19T2100,4237A,103.7251,36.104344,兰州市,安宁西路88号,颗粒物(PM10),121,173,147,46,46,99,99,103,103,4,24,5,10,0.2,0.4
2026-03-19T2100,4238A,103.846982,36.067567,兰州市,北滨河东路1号,颗粒物(PM10),112,151,129,51,47,90,90,98,98,16,33,7,10,0.5,0.8
2026-03-19T2100,1067A,116.6712,39.5109,廊坊市,药材公司,细颗粒物(PM2.5),88,95,53,54,28,78,78,98,96,23,19,5,3,0.6,0.5
2026-03-19T2100,1068A,116.7215,39.5592,廊坊市,开发区,细颗粒物(PM2.5),84,89,59,52,30,86,86,101,100,18,15,5,2,0.6,0.4
2026-03-19T2100,1070A,116.7246,39.5273,廊坊市,北华航天学院,颗粒物(PM10),77,87,57,48,28,88,88,103,102,22,16,8,4,0.5,0.4
2026-03-19T2100,2919A,116.7022,39.5454,廊坊市,河北工业大学,颗粒物(PM10),86,100,58,47,29,84,84,99,98,18,15,7,4,0.6,0.4
2026-03-19T2100,2536A,103.7629,29.5844,乐山市,牛耳桥,颗粒物(PM10),63,68,55,31,22,64,64,78,76,25,26,6,7,0.5,0.5
2026-03-19T2100,2537A,103.7501,29.6002,乐山市,市第三水厂,颗粒物(PM10),58,60,53,31,23,54,54,86,82,38,28,3,4,0.5,0.6
2026-03-19T2100,2538A,103.7571,29.5664,乐山市,市监测站,颗粒物(PM10),58,61,58,29,23,56,56,79,76,26,23,4,5,0.6,0.7
2026-03-19T2100,3361A,103.7313,29.563,乐山市,理工大学,颗粒物(PM10),56,58,53,29,22,61,61,83,80,23,21,7,7,0.6,0.7
2026-03-19T2100,2599A,100.2497,26.8802,丽江市,丽江古城,,33,33,20,17,8,98,98,100,100,8,8,8,11,0.4,0.2
2026-03-19T2100,2600A,100.2203,26.8906,丽江市,市中心,,30,18,13,18,7,94,94,102,100,15,10,8,8,0.3,0.3
2026-03-19T2100,1267A,119.9141,28.4513,丽水市,监测站大楼,,26,26,14,18,8,41,41,54,52,16,16,4,4,0.5,0.6
2026-03-19T2100,1268A,119.93,28.4589,丽水市,莲都小学,,30,30,15,16,7,41,41,52,51,16,14,/,/,/,/
2026-03-19T2100,1269A,119.8794,28.4232,丽水市,余庄前,,25,25,13,16,7,18,18,52,45,16,18,3,3,0.6,0.6
2026-03-19T2100,1173A,119.1759,34.5885,连云港市,市环境监测站,细颗粒物(PM2.5),96,92,44,58,23,69,69,97,94,29,25,8,9,0.6,0.7
2026-03-19T2100,3000A,119.3577,34.6971,连云港市,德源药业,,48,48,40,12,13,61,61,97,89,38,25,8,7,0.5,0.6
2026-03-19T2100,3007A,119.178,34.8442,连云港市,新城一中,细颗粒物(PM2.5),92,73,46,56,26,59,59,94,89,38,40,7,11,0.6,0.6
2026-03-19T2100,3008A,119.3607,34.7519,连云港市,胡沟管理处,颗粒物(PM10),65,70,36,41,12,78,78,89,76,26,33,6,10,0.7,0.8
2026-03-19T2100,3009A,119.1478,34.5913,连云港市,矿山设计院,细颗粒物(PM2.5),101,97,46,61,21,68,68,100,95,39,29,7,8,0.8,0.7
2026-03-19T2100,3434A,119.2414,34.6539,连云港市,工贸学校,细颗粒物(PM2.5),88,92,37,54,22,63,63,101,96,36,19,9,10,0.9,0.8
2026-03-19T2100,3664A,119.4171,34.734,连云港市,连云街道,颗粒物(PM10),75,84,32,47,16,87,87,100,99,21,23,5,6,0.6,0.5
2026-03-19T2100,2573A,102.2629,27.8981,凉山彝族自治州,西昌市政府,,33,18,24,15,12,103,103,115,114,4,6,7,9,0.4,0.6
2026-03-19T2100,2574A,102.2686,27.885,凉山彝族自治州,凉山州政府,,29,26,25,10,11,92,92,98,98,4,7,3,7,0.3,0.4
2026-03-19T2100,4229A,102.2342,27.8859,凉山彝族自治州,凯乐南路30号,,31,31,26,10,10,96,96,106,105,10,13,9,7,0.5,0.5
2026-03-19T2100,2212A,123.1978,41.2036,辽阳市,宏伟区,细颗粒物(PM2.5),121,112,51,83,28,28,28,83,72,50,20,16,11,2.2,0.8
2026-03-19T2100,2213A,123.1684,41.2497,辽阳市,新华园,细颗粒物(PM2.5),121,120,56,83,33,20,20,83,67,64,28,18,10,1.9,0.9
2026-03-19T2100,2214A,123.2355,41.2663,辽阳市,滨河路,细颗粒物(PM2.5),112,111,50,73,27,34,34,84,73,52,24,18,9,2.0,0.8
2026-03-19T2100,4083A,123.153,41.2874,辽阳市,铁西路150号,细颗粒物(PM2.5),121,124,63,83,36,18,18,76,61,62,27,17,14,2.7,1.2
2026-03-19T2100,2227A,125.1359,42.8845,辽源市,环保局,颗粒物(PM10),75,85,46,23,16,76,76,84,84,11,9,4,5,0.5,0.4
2026-03-19T2100,4085A,125.0998,42.9134,辽源市,安宁大街333号,颗粒物(PM10),90,106,57,35,20,75,75,84,83,11,13,7,4,0.5,0.5
2026-03-19T2100,1625A,115.9789,36.4372,聊城市,区政府,细颗粒物(PM2.5),96,101,60,58,33,76,76,104,103,26,21,10,10,0.6,0.5
2026-03-19T2100,3200A,115.9772,36.4986,聊城市,监控中心,细颗粒物(PM2.5),98,112,64,59,32,90,90,111,111,25,24,11,10,0.7,0.6
2026-03-19T2100,3513A,116.0443,36.436,聊城市,九州社区,细颗粒物(PM2.5),94,102,62,57,32,80,80,114,110,30,26,2,2,0.7,0.6
2026-03-19T2100,4018A,116.0564,36.4609,聊城市,星美广场,细颗粒物(PM2.5),98,112,70,59,34,83,83,108,106,20,15,4,5,0.6,0.5
2026-03-19T2100,4113A,116.0091,36.4495,聊城市,利民路,颗粒物(PM10),89,104,59,52,28,88,88,116,115,26,20,9,8,0.7,0.6
2026-03-19T2100,2632A,94.3683,29.6373,林芝市,林芝监测站,NA,NA,NA,10,16,6,88,88,97,96,1,2,NA,5,0.4,0.4
2026-03-19T2100,2633A,94.3616,29.6634,林芝市,林芝人民医院,,29,NA,12,17,7,92,92,102,101,2,3,5,5,0.4,0.4
2026-03-19T2100,2603A,100.0779,23.8981,临沧市,市环保局,,29,29,52,13,34,88,88,126,122,8,9,6,6,0.5,0.6
2026-03-19T2100,2604A,100.0894,23.882,临沧市,市气象局,,34,34,50,14,34,99,99,130,127,7,8,7,7,0.9,0.7
2026-03-19T2100,1733A,111.5552,36.0791,临汾市,临钢医院,颗粒物(PM10),104,129,88,46,28,61,61,100,93,33,23,10,9,0.9,0.9
2026-03-19T2100,1734A,111.4984,36.0734,临汾市,技工学校,颗粒物(PM10),99,118,91,53,35,64,64,97,92,26,25,10,10,0.8,0.8
2026-03-19T2100,1736A,111.5017,36.0857,临汾市,市委,颗粒物(PM10),104,130,95,45,30,64,64,99,94,34,27,9,8,0.9,0.8
2026-03-19T2100,3018A,111.5048,36.1015,临汾市,唐尧大酒店,颗粒物(PM10),106,134,101,50,31,61,61,95,91,38,30,12,10,0.8,0.8
2026-03-19T2100,4244A,111.4879,36.053,临汾市,启星学校,颗粒物(PM10),105,131,93,56,33,56,56,96,90,43,37,10,8,0.8,0.6
2026-03-19T2100,4271A,103.2464,35.6123,临夏回族自治州,滨河东路1号,颗粒物(PM10),105,131,127,56,55,69,69,100,95,26,26,10,9,0.4,0.8
2026-03-19T2100,4310A,103.207136,35.599807,临夏回族自治州,新华街21号,颗粒物(PM10),94,111,114,42,58,79,79,86,86,8,14,9,7,0.9,1.2
2026-03-19T2100,1618A,118.3429,35.0532,临沂市,沂河小区,细颗粒物(PM2.5),102,100,53,62,24,79,79,97,96,21,20,11,13,0.5,0.5
2026-03-19T2100,1619A,118.2962,35.0568,临沂市,鲁南制药厂,细颗粒物(PM2.5),100,85,45,60,23,83,83,101,99,27,21,12,13,0.5,0.4
2026-03-19T2100,1620A,118.2793,34.9976,临沂市,新光毛纺厂,细颗粒物(PM2.5),106,102,45,66,24,64,64,99,94,40,20,13,12,0.6,0.5
2026-03-19T2100,1621A,118.3955,35.0889,临沂市,河东保险公司,细颗粒物(PM2.5),94,78,51,57,25,94,94,108,108,27,30,9,12,0.4,0.4
2026-03-19T2100,3370A,118.3563,35.0215,临沂市,十里堡居委,细颗粒物(PM2.5),115,100,45,76,25,73,73,104,100,36,26,12,13,0.6,0.5
2026-03-19T2100,3496A,118.359,35.1067,临沂市,南坊新区,细颗粒物(PM2.5),103,80,48,63,26,87,87,101,100,18,21,9,12,0.5,0.4
2026-03-19T2100,3860A,118.3915,35.0297,临沂市,皇山花园小区,细颗粒物(PM2.5),110,95,50,71,26,75,75,106,102,33,28,11,14,0.6,0.4
2026-03-19T2100,1870A,109.4854,24.3898,柳州市,柳东小学,,48,47,24,33,16,54,54,67,66,11,9,5,4,0.7,0.8
2026-03-19T2100,1871A,109.4109,24.3304,柳州市,环保监测站,NA,NA,NA,24,42,16,32,32,63,58,24,12,7,5,1.0,1
2026-03-19T2100,1872A,109.3886,24.3408,柳州市,河西水厂,细颗粒物(PM2.5),78,76,33,49,17,25,25,66,58,27,13,14,10,1.2,1
2026-03-19T2100,1873A,109.4263,24.2951,柳州市,市四中,,46,40,26,32,14,50,50,64,63,12,9,7,7,0.7,0.9
2026-03-19T2100,1874A,109.396,24.3658,柳州市,市九中,颗粒物(PM10),75,85,34,47,18,23,23,60,52,22,9,14,10,1.1,1
2026-03-19T2100,1875A,109.4912,24.3164,柳州市,古亭山,,49,47,27,34,18,54,54,67,66,11,9,7,6,0.8,0.8
2026-03-19T2100,3402A,109.5422,24.3994,柳州市,市二中,,48,43,29,33,19,52,52,63,61,14,12,7,6,0.8,0.8
2026-03-19T2100,2307A,116.5078,31.7369,六安市,监测大楼,细颗粒物(PM2.5),126,NA,63,88,57,96,96,112,112,20,22,3,3,0.6,0.5
2026-03-19T2100,2308A,116.4738,31.7642,六安市,皖西学院,细颗粒物(PM2.5),122,100,69,84,54,108,108,122,122,17,20,4,4,0.6,0.6
2026-03-19T2100,2309A,116.4997,31.7904,六安市,朝阳厂,细颗粒物(PM2.5),122,96,70,84,64,103,103,118,117,23,24,4,4,0.6,0.6
2026-03-19T2100,2310A,116.5566,31.7885,六安市,开发区,细颗粒物(PM2.5),131,97,69,94,60,104,104,122,122,16,23,4,4,0.6,0.6
2026-03-19T2100,2577A,104.8293,26.592,六盘水市,黄土坡,细颗粒物(PM2.5),68,67,51,44,30,53,53,98,92,24,15,9,8,0.8,0.5
2026-03-19T2100,2579A,104.8481,26.5898,六盘水市,民中,细颗粒物(PM2.5),76,68,48,48,31,49,49,94,88,25,12,7,6,1.2,0.6
2026-03-19T2100,2580A,104.9541,26.5506,六盘水市,双水,颗粒物(PM10),53,53,53,36,29,59,59,87,83,14,11,3,6,0.5,0.4
2026-03-19T2100,4151A,104.8899,26.5685,六盘水市,钟山大道中段564号,细颗粒物(PM2.5),66,71,57,43,30,50,50,92,85,18,10,8,10,0.9,0.7
2026-03-19T2100,2336A,117.022,25.1031,龙岩市,龙岩市监测站,细颗粒物(PM2.5),58,NA,30,39,24,95,95,110,107,14,10,6,6,0.7,0.7
2026-03-19T2100,2337A,117.0257,25.0662,龙岩市,闽西职业技术学院,细颗粒物(PM2.5),56,NA,32,38,22,85,85,106,102,15,10,7,6,0.6,0.6
2026-03-19T2100,2338A,117.0195,25.0306,龙岩市,龙岩学院,,48,35,30,33,20,85,85,106,102,12,8,4,4,/,/
2026-03-19T2100,2885A,104.9344,33.3827,陇南市,滨江中学,颗粒物(PM10),75,84,70,30,27,72,72,82,79,7,9,6,6,0.5,0.6
2026-03-19T2100,3247A,104.9551,33.3709,陇南市,市总工会,颗粒物(PM10),67,73,70,26,20,74,74,81,80,6,7,4,4,0.6,0.5
2026-03-19T2100,2488A,111.9984,27.7346,娄底市,市监测站,,38,32,42,26,31,44,44,62,56,11,20,4,8,0.7,0.7
2026-03-19T2100,2491A,111.9888,27.7035,娄底市,市政府,细颗粒物(PM2.5),56,NA,33,38,30,40,40,64,57,17,13,4,4,0.7,0.5
2026-03-19T2100,4127A,111.9812,27.7591,娄底市,涟钢职大,,29,28,38,20,22,46,46,70,61,14,16,1,2,0.5,0.4
2026-03-19T2100,4128A,112.0303,27.7457,娄底市,娄底体校,,40,38,42,28,27,36,36,50,48,10,10,2,2,0.8,0.5
2026-03-19T2100,1894A,105.4427,28.9063,泸州市,小市上码头,,40,36,25,28,18,34,34,55,48,28,22,6,7,0.6,0.7
2026-03-19T2100,1895A,105.4241,28.8573,泸州市,兰田宪桥,,39,39,30,23,17,34,34,45,40,21,20,4,5,0.5,0.7
2026-03-19T2100,1896A,105.4378,28.8833,泸州市,市环监站,,47,47,37,25,19,34,34,49,43,29,27,5,5,0.6,0.6
2026-03-19T2100,4272A,105.3689,28.7783,泸州市,纳溪中医医院,,35,35,40,23,17,51,51,52,50,15,22,6,7,0.7,0.7
2026-03-19T2100,2183A,111.1447,37.5212,吕梁市,环保局,颗粒物(PM10),77,87,49,32,14,34,34,89,84,52,34,5,6,0.4,0.2
2026-03-19T2100,2185A,111.1285,37.5338,吕梁市,自来水公司,颗粒物(PM10),53,54,64,31,18,59,59,91,89,29,31,5,7,0.5,0.4
2026-03-19T2100,2867A,111.1225,37.5093,吕梁市,马茂庄小学,颗粒物(PM10),69,76,55,33,16,33,33,88,82,48,32,8,5,0.5,0.3
2026-03-19T2100,1812A,112.3934,34.6517,洛阳市,市委党校,细颗粒物(PM2.5),106,108,83,66,39,47,47,74,70,30,26,7,8,0.9,0.7
2026-03-19T2100,1815A,112.494,34.6883,洛阳市,河南林校,细颗粒物(PM2.5),105,107,87,65,37,42,42,74,71,42,34,16,13,0.8,0.6
2026-03-19T2100,1816A,112.3843,34.623,洛阳市,开发区管委会,细颗粒物(PM2.5),114,122,88,75,38,47,47,74,70,33,27,10,10,0.7,0.5
2026-03-19T2100,1817A,112.4263,34.6249,洛阳市,市委新办公区,细颗粒物(PM2.5),117,128,87,78,44,50,50,76,72,31,24,9,10,0.8,0.5
2026-03-19T2100,3340A,112.6005,34.6323,洛阳市,伊滨,细颗粒物(PM2.5),105,121,89,65,40,38,38,74,71,34,30,7,10,0.8,0.6
2026-03-19T2100,3341A,112.495,34.6338,洛阳市,中移产业园,细颗粒物(PM2.5),111,123,89,72,41,53,53,72,69,30,30,17,13,0.7,0.4
2026-03-19T2100,3593A,112.5736,34.8993,洛阳市,吉利监测站,"颗粒物(PM10),细颗粒物(PM2.5)",90,106,78,55,33,37,37,77,72,50,30,10,11,0.7,0.5
2026-03-19T2100,3635A,112.3678,34.6623,洛阳市,河科大西苑校区,细颗粒物(PM2.5),104,108,84,64,40,53,53,83,78,33,28,8,9,0.9,0.6
2026-03-19T2100,3636A,112.4387,34.678,洛阳市,英才小学,细颗粒物(PM2.5),112,119,88,73,40,47,47,77,73,39,36,13,12,0.9,0.6
2026-03-19T2100,4214A,112.460027,34.694929,洛阳市,春都路1号院,细颗粒物(PM2.5),104,119,104,64,37,50,50,74,72,32,28,10,11,0.9,0.7
2026-03-19T2100,2399A,114.051,33.5721,漯河市,三五一五工厂,颗粒物(PM10),102,125,90,54,51,56,56,85,81,29,24,4,4,0.5,0.5
2026-03-19T2100,2400A,114.0055,33.5698,漯河市,漯河大学,细颗粒物(PM2.5),109,112,83,69,58,73,73,87,87,17,20,6,6,0.6,0.5
2026-03-19T2100,2401A,114.0134,33.5826,漯河市,市水利局,细颗粒物(PM2.5),109,107,83,69,53,72,72,85,84,18,20,5,5,0.6,0.6
2026-03-19T2100,2402A,114.0261,33.5697,漯河市,市广电局,细颗粒物(PM2.5),110,105,76,70,50,64,64,88,82,22,25,5,5,0.6,0.5
2026-03-19T2100,3478A,113.9691,33.568,漯河市,市图书馆,细颗粒物(PM2.5),110,125,90,71,53,66,66,80,79,21,22,6,6,0.6,0.5
2026-03-19T2100,4250A,114.089259,33.588274,漯河市,韶山路11号,颗粒物(PM10),101,121,90,56,50,68,68,83,82,17,23,6,7,0.4,0.5
2026-03-19T2100,1798A,118.5084,31.6838,马鞍山市,湖东路四小,细颗粒物(PM2.5),126,112,89,88,77,37,37,98,83,56,29,6,6,0.8,0.7
2026-03-19T2100,1799A,118.5019,31.6449,马鞍山市,开发区,细颗粒物(PM2.5),117,125,88,78,70,37,37,104,85,54,36,4,4,0.7,0.7
2026-03-19T2100,3633A,118.4914,31.681,马鞍山市,雨山,细颗粒物(PM2.5),116,126,95,77,64,49,49,101,88,45,25,5,5,0.8,0.7
2026-03-19T2100,4191A,118.527362,31.722269,马鞍山市,慈湖高新区,细颗粒物(PM2.5),114,114,95,75,68,68,68,94,84,30,32,5,5,0.6,0.6
2026-03-19T2100,1686A,111.0285,21.469,茂名市,电白南海,,29,29,37,7,20,63,63,68,66,8,16,5,11,0.6,0.7
2026-03-19T2100,1687A,110.9294,21.6533,茂名市,茂石化七小,,34,34,43,12,23,56,56,82,67,12,20,5,15,0.5,0.5
2026-03-19T2100,1688A,110.9108,21.6688,茂名市,健康路,,22,22,36,10,20,60,60,92,75,11,19,3,13,0.5,0.6
2026-03-19T2100,1689A,110.8592,21.6826,茂名市,高岭,,27,27,50,11,24,56,56,81,70,12,20,3,16,/,/
2026-03-19T2100,3450A,111.0101,21.5165,茂名市,电白水东,NA,NA,19,30,NA,21,66,66,64,64,6,17,3,8,/,/
2026-03-19T2100,2540A,103.8414,30.0871,眉山市,气象局,NA,NA,61,63,11,14,76,76,84,82,11,21,NA,7,0.4,0.5
2026-03-19T2100,3148A,103.829,30.0563,眉山市,区人社局,颗粒物(PM10),55,56,63,17,23,73,73,80,79,16,25,7,12,0.5,0.6
2026-03-19T2100,4148A,103.8836,30.0695,眉山市,眉职院,颗粒物(PM10),55,56,60,19,20,67,67,79,76,15,24,5,7,0.5,0.6
2026-03-19T2100,1690A,116.1248,24.3307,梅州市,梅江月梅,细颗粒物(PM2.5),62,49,36,41,23,113,113,120,119,15,16,/,/,/,/
2026-03-19T2100,1691A,116.0798,24.2719,梅州市,梅县新城,颗粒物(PM10),60,64,33,30,18,120,120,110,NA,18,13,8,9,0.7,0.7
2026-03-19T2100,3315A,116.1234,24.2994,梅州市,梅龙,颗粒物(PM10),51,51,30,35,21,111,111,116,116,13,12,6,6,0.7,0.7
2026-03-19T2100,1878A,104.7775,31.4741,绵阳市,富乐山,,43,43,39,19,17,64,64,79,78,10,14,6,6,0.6,0.6
2026-03-19T2100,1880A,104.6698,31.4668,绵阳市,高新区自来水公司,颗粒物(PM10),68,75,59,32,23,22,22,72,66,53,31,8,8,0.7,0.6
2026-03-19T2100,3491A,104.6899,31.5324,绵阳市,西科大附属小学,颗粒物(PM10),65,71,66,34,26,26,26,74,69,53,34,8,8,0.6,0.6
2026-03-19T2100,3492A,104.5647,31.5343,绵阳市,安州区旅游局,颗粒物(PM10),84,97,62,33,23,30,30,74,66,26,16,7,7,0.6,0.5
2026-03-19T2100,4146A,104.7092,31.4972,绵阳市,科技城新区公安局,颗粒物(PM10),57,59,60,25,22,44,44,70,68,32,30,7,9,0.6,0.6
2026-03-19T2100,4226A,104.765114,31.453094,绵阳市,绵阳市气象局,,46,46,44,18,18,68,68,70,70,15,22,8,8,0.5,0.4
2026-03-19T2100,1784A,129.61,44.561,牡丹江市,环保大楼,细颗粒物(PM2.5),150,134,61,114,40,113,113,104,104,18,18,3,3,0.6,0.5
2026-03-19T2100,1787A,129.6364,44.6075,牡丹江市,机车工厂,细颗粒物(PM2.5),190,184,83,143,54,95,95,97,97,29,26,5,4,2.1,0.8
2026-03-19T2100,1788A,129.6386,44.5462,牡丹江市,第一中学,细颗粒物(PM2.5),150,136,50,115,37,107,107,98,98,14,22,4,4,0.5,0.4
2026-03-19T2100,4287A,129.5992,44.5964,牡丹江市,东晓云街98号,细颗粒物(PM2.5),160,157,64,122,49,116,116,102,102,10,14,3,3,0.7,0.6
2026-03-19T2100,2531A,105.0703,29.61,内江市,市监测站,颗粒物(PM10),53,54,45,34,24,59,59,82,80,19,16,7,7,0.5,0.6
2026-03-19T2100,2533A,105.0657,29.5807,内江市,内江二中,颗粒物(PM10),56,58,54,32,23,65,65,82,80,22,21,7,8,0.4,0.4
2026-03-19T2100,2534A,105.0407,29.5828,内江市,内江日报社,,47,47,47,29,24,69,69,84,83,17,19,11,11,0.5,0.4
2026-03-19T2100,4147A,105.0433,29.6105,内江市,玉峰路西段888号,,49,45,46,34,26,71,71,86,85,18,21,7,7,0.4,0.4
2026-03-19T2100,2628A,92.0653,31.4846,那曲市,那曲监测站,颗粒物(PM10),59,62,42,34,28,72,72,91,87,23,18,12,9,0.9,1
2026-03-19T2100,4243A,92.0515,31.4787,那曲市,那曲市委宣传部,,24,21,25,13,16,76,76,92,90,10,10,9,11,0.5,0.7
2026-03-19T2100,1291A,115.8887,28.7006,南昌市,省林业公司,细颗粒物(PM2.5),106,66,37,66,39,66,66,105,94,30,15,3,4,NA,0.8
2026-03-19T2100,1292A,115.813,28.7443,南昌市,林科所,细颗粒物(PM2.5),103,75,41,63,35,21,21,107,88,61,16,8,8,0.5,0.4
2026-03-19T2100,1294A,115.8518,28.687,南昌市,建工学校,细颗粒物(PM2.5),110,109,56,71,41,58,58,107,96,40,21,8,8,1.0,0.8
2026-03-19T2100,1295A,115.8926,28.6425,南昌市,象湖,细颗粒物(PM2.5),88,63,41,54,45,57,57,107,93,28,18,8,8,0.9,0.8
2026-03-19T2100,3046A,115.9084,28.6062,南昌市,机电学校,细颗粒物(PM2.5),88,68,57,54,42,47,47,106,89,32,18,4,4,0.7,0.7
2026-03-19T2100,3690A,115.9718,28.7032,南昌市,外国语学校,细颗粒物(PM2.5),90,63,44,55,37,64,64,110,98,33,18,7,7,0.9,0.8
2026-03-19T2100,4106A,115.7923,28.6873,南昌市,工业二路,NA,NA,77,51,53,39,NA,NA,114,108,38,17,4,4,0.8,0.8
2026-03-19T2100,4192A,115.931587,28.686774,南昌市,南京东路235号,细颗粒物(PM2.5),104,82,53,64,36,61,61,112,100,30,11,5,5,0.9,0.7
2026-03-19T2100,1906A,106.0791,30.8022,南充市,南充市委,,30,30,35,15,16,43,43,51,51,20,24,6,6,0.6,0.6
2026-03-19T2100,1907A,106.1038,30.8215,南充市,南充炼油厂,,33,33,38,13,15,44,44,48,48,15,20,5,5,0.4,0.4
2026-03-19T2100,4227A,106.108336,30.788436,南充市,梨树横街98号,,28,28,33,13,18,52,52,56,56,15,19,6,6,0.3,0.3
2026-03-19T2100,4304A,106.1172,30.843,南充市,清泉寺北路188号,,32,32,29,9,10,58,58,62,62,8,14,6,6,0.4,0.4
2026-03-19T2100,4305A,106.067,30.7616,南充市,同庆路1号,,32,32,30,7,9,49,49,50,50,15,21,6,6,0.5,0.5
2026-03-19T2100,1151A,118.8033,32.1085,南京市,迈皋桥,细颗粒物(PM2.5),125,107,94,87,81,67,67,110,102,27,24,5,7,0.4,0.4
2026-03-19T2100,1152A,118.7487,32.057,南京市,草场门,细颗粒物(PM2.5),117,107,87,78,68,67,67,98,92,56,40,NA,9,0.8,0.7
2026-03-19T2100,1154A,118.770105,32.004342,南京市,中华门,细颗粒物(PM2.5),120,112,90,82,73,73,73,102,99,26,23,4,4,0.8,0.7
2026-03-19T2100,1155A,118.8059,32.0329,南京市,瑞金路,细颗粒物(PM2.5),130,132,105,92,78,26,26,96,85,43,19,4,4,1.3,1
2026-03-19T2100,1156A,118.7946,32.0774,南京市,玄武湖,细颗粒物(PM2.5),116,124,95,77,78,53,53,100,89,31,22,6,7,1.1,1
2026-03-19T2100,1157A,118.6415,32.0964,南京市,浦口,细颗粒物(PM2.5),117,116,108,78,80,61,61,92,86,21,26,4,4,0.5,0.7
2026-03-19T2100,1158A,118.730129,32.000956,南京市,奥体中心,细颗粒物(PM2.5),118,116,94,79,68,67,67,104,99,43,31,5,5,0.6,0.5
2026-03-19T2100,1159A,118.9072,32.1047,南京市,仙林大学城,细颗粒物(PM2.5),125,112,93,87,73,60,60,100,93,38,33,6,6,0.8,0.8
2026-03-19T2100,3422A,118.8443,31.919,南京市,江宁彩虹桥,细颗粒物(PM2.5),117,128,93,78,60,32,32,112,98,88,45,4,4,1.0,0.9
2026-03-19T2100,3427A,118.8497,32.3599,南京市,六合雄州,细颗粒物(PM2.5),126,102,77,88,70,36,36,85,72,55,35,4,4,0.7,0.7
2026-03-19T2100,4086A,118.7641,32.0841,南京市,新模范马路66号,细颗粒物(PM2.5),108,110,93,68,74,75,75,95,92,29,31,3,4,1.1,1.1
2026-03-19T2100,4249A,118.8707617,31.34017673,南京市,汶溪路181号,NA,NA,113,92,NA,68,72,72,112,104,36,24,6,5,0.5,0.4
2026-03-19T2100,4312A,119.019,31.6512,南京市,中山西路1号,细颗粒物(PM2.5),122,112,82,84,62,46,46,94,83,29,16,4,4,0.9,0.7
2026-03-19T2100,1401A,108.3098,22.788,南宁市,二十一中,,25,25,41,17,30,62,62,82,80,12,14,7,5,0.6,0.7
2026-03-19T2100,1402A,108.3135,22.8529,南宁市,北湖,,31,31,40,20,34,64,64,84,83,10,14,4,5,0.6,0.8
2026-03-19T2100,1403A,108.3205,22.8222,南宁市,市监测站,颗粒物(PM10),110,145,50,14,29,64,64,84,82,3,15,NA,6,0.8,0.8
2026-03-19T2100,1404A,108.3828,22.8038,南宁市,大自然花园,,33,33,44,17,30,73,73,93,92,10,15,6,7,0.4,0.6
2026-03-19T2100,1406A,108.2397,22.8462,南宁市,区农职院,,38,38,48,21,27,64,64,84,82,10,14,7,7,0.4,0.5
2026-03-19T2100,1407A,108.3285,22.7356,南宁市,英华嘉园,,43,43,55,18,29,48,48,80,75,24,15,8,5,0.7,0.9
2026-03-19T2100,3401A,108.4829,22.762,南宁市,红星社区,,31,31,42,16,29,69,69,94,90,9,13,6,7,0.6,0.8
2026-03-19T2100,4132A,108.2927,23.1477,南宁市,起凤路9号,,33,33,48,20,32,68,68,86,86,7,13,4,4,0.4,0.6
2026-03-19T2100,4221A,108.2177,22.7774,南宁市,乐贤路16号,,39,39,46,15,27,55,55,74,71,16,19,4,5,0.6,0.7
2026-03-19T2100,2332A,118.1682,26.6371,南平市,南平市监测站,,21,17,16,12,11,65,65,84,82,11,9,5,4,0.8,0.7
2026-03-19T2100,2334A,118.1757,26.6276,南平市,南平七中,,23,NA,19,11,12,72,72,88,86,8,9,4,4,0.7,0.7
2026-03-19T2100,1168A,120.9056,31.9669,南通市,狼山街道,,45,45,52,12,31,67,67,98,88,24,20,4,3,0.4,0.5
2026-03-19T2100,1170A,120.8635,32.0231,南通市,城中,,47,47,55,13,30,69,69,98,87,18,16,4,3,0.6,0.7
2026-03-19T2100,1171A,120.9376,31.9301,南通市,星湖花园,,44,44,49,11,30,59,59,102,89,28,17,4,4,0.5,0.6
2026-03-19T2100,1172A,120.8053,32.046,南通市,紫琅学院,,50,50,50,14,29,58,58,108,94,33,18,5,5,0.6,0.8
2026-03-19T2100,3291A,121.0631,32.0644,南通市,通州监测站,,29,17,45,3,25,92,92,98,94,10,13,3,2,0.3,0.5
2026-03-19T2100,3432A,120.9348,31.9874,南通市,环境教育馆,,44,44,48,7,27,57,57,102,90,30,20,3,3,0.4,0.6
2026-03-19T2100,4091A,120.8692,31.9885,南通市,洪江路,,37,37,48,11,32,66,66,92,80,23,18,3,3,0.7,0.8
2026-03-19T2100,2404A,112.5338,33.0086,南阳市,瓦房庄,细颗粒物(PM2.5),111,106,80,72,44,61,61,82,76,15,14,4,4,0.8,0.6
2026-03-19T2100,2405A,112.5002,32.9734,南阳市,汉画馆,细颗粒物(PM2.5),123,121,84,85,59,50,50,80,74,26,16,5,5,0.8,0.6
2026-03-19T2100,2406A,112.5778,33.0144,南阳市,气象站,细颗粒物(PM2.5),115,129,94,76,46,65,65,83,80,16,16,5,5,0.7,0.6
2026-03-19T2100,2407A,112.548,32.9687,南阳市,理工学院,细颗粒物(PM2.5),119,118,82,80,51,56,56,76,71,16,14,6,5,0.8,0.6
2026-03-19T2100,4008A,112.5233,32.9921,南阳市,卧龙区政府,细颗粒物(PM2.5),115,132,92,76,49,56,56,76,71,15,14,6,6,0.7,0.6
2026-03-19T2100,1234A,121.8352,29.9111,宁波市,区环保大楼,颗粒物(PM10),59,62,34,35,18,78,78,110,104,51,27,8,6,0.4,0.3
2026-03-19T2100,1235A,121.5595,29.8208,宁波市,万里学院,细颗粒物(PM2.5),78,80,33,49,19,97,97,120,116,25,14,4,5,0.5,0.5
2026-03-19T2100,1236A,121.713,29.9564,宁波市,龙赛医院,颗粒物(PM10),67,73,30,38,15,84,84,111,107,34,14,9,4,0.4,0.3
2026-03-19T2100,1240A,121.5855,29.8635,宁波市,太古小学,颗粒物(PM10),67,73,32,39,16,100,100,123,117,30,19,4,5,0.5,0.5
2026-03-19T2100,1241A,121.5239,29.8673,宁波市,市环境监测中心,细颗粒物(PM2.5),72,68,33,46,18,91,91,119,115,33,16,7,7,0.6,0.5
2026-03-19T2100,2871A,121.6156,29.9015,宁波市,万里国际学校,"颗粒物(PM10),细颗粒物(PM2.5)",60,64,30,40,16,101,101,119,115,26,16,4,6,0.5,0.4
2026-03-19T2100,3710A,121.5593,29.8976,宁波市,白沙活动中心,细颗粒物(PM2.5),72,53,26,46,18,88,88,120,115,35,15,5,5,0.5,0.3
2026-03-19T2100,4095A,121.8962,29.7529,宁波市,中科路88号,细颗粒物(PM2.5),80,67,34,50,22,79,79,115,109,38,21,6,6,0.6,0.6
2026-03-19T2100,2341A,119.5387,26.6611,宁德市,宁德市监测站,,32,21,17,12,13,100,100,82,82,15,18,4,4,0.5,0.7
2026-03-19T2100,3209A,119.5231,26.6562,宁德市,宁德一中,,31,19,20,15,16,97,97,81,81,12,15,5,5,0.4,0.5
2026-03-19T2100,2618A,98.859,25.8541,怒江傈僳族自治州,州监测站,,33,33,22,16,10,61,61,76,66,10,10,7,7,0.6,0.6
2026-03-19T2100,2619A,98.8607,25.8168,怒江傈僳族自治州,泸水一中,颗粒物(PM10),57,59,20,35,14,14,14,68,44,46,19,5,5,1.0,0.4
2026-03-19T2100,1888A,101.6891,26.571,攀枝花市,弄弄坪,,47,47,42,16,20,82,82,99,93,23,22,86,32,2.7,1.7
2026-03-19T2100,1889A,101.577,26.5914,攀枝花市,河门口,,44,44,42,21,20,96,96,106,105,8,12,6,8,0.5,0.6
2026-03-19T2100,1891A,101.7365,26.4986,攀枝花市,仁和,,39,39,29,20,22,65,65,104,95,13,9,8,9,0.6,0.6
2026-03-19T2100,2835A,101.7222,26.567,攀枝花市,四十中小,,33,28,30,15,19,103,103,110,109,9,18,4,8,0.5,0.7
2026-03-19T2100,1604A,122.0303,41.1489,盘锦市,开发区,细颗粒物(PM2.5),107,71,42,67,34,28,28,67,60,45,24,6,6,0.8,0.6
2026-03-19T2100,1605A,122.0486,41.0883,盘锦市,兴隆台,细颗粒物(PM2.5),110,NA,37,71,33,31,31,66,57,43,26,5,7,0.6,0.5
2026-03-19T2100,1606A,121.8297,41.1026,盘锦市,新生街道,细颗粒物(PM2.5),96,NA,37,58,33,30,30,69,58,34,27,7,11,0.6,0.6
2026-03-19T2100,1832A,113.3257,33.7423,平顶山市,新华旅馆,NA,NA,NA,105,74,51,52,52,81,78,28,34,2,3,0.5,0.4
2026-03-19T2100,1833A,113.2917,33.737,平顶山市,规划设计院,细颗粒物(PM2.5),118,142,101,79,51,51,51,74,71,29,26,6,7,0.7,0.6
2026-03-19T2100,1834A,113.182,33.7738,平顶山市,平顶山工学院,细颗粒物(PM2.5),104,127,88,64,42,65,65,84,83,18,21,4,4,0.7,0.3
2026-03-19T2100,3594A,112.8736,33.9068,平顶山市,石龙区,细颗粒物(PM2.5),109,131,100,69,43,21,21,72,64,57,36,7,8,0.7,0.6
2026-03-19T2100,4116A,113.284,33.7139,平顶山市,姚电大道23号,颗粒物(PM10),109,141,113,68,52,54,54,78,74,35,29,6,6,0.6,0.6
2026-03-19T2100,2656A,106.6633,35.5338,平凉市,聚贤嘉苑,颗粒物(PM10),107,137,145,39,41,70,70,87,87,30,29,6,6,0.4,0.5
2026-03-19T2100,2657A,106.7021,35.5307,平凉市,博物馆,颗粒物(PM10),104,129,145,42,48,82,82,89,89,22,32,11,12,0.4,0.9
2026-03-19T2100,2348A,113.8384,27.6436,萍乡市,中医院,,25,21,37,17,19,58,58,52,52,11,14,3,5,0.7,0.8
2026-03-19T2100,2350A,113.8677,27.6438,萍乡市,市环保局,,19,11,27,11,23,60,60,54,54,8,15,3,6,0.6,0.6
2026-03-19T2100,2351A,113.8663,27.6202,萍乡市,安源区政府,,20,20,26,14,20,42,42,36,36,18,18,5,5,1.1,0.7
2026-03-19T2100,4107A,113.8686,27.6668,萍乡市,联洪村委会,,19,19,32,12,20,53,53,50,50,10,13,1,3,0.4,0.5
2026-03-19T2100,2319A,119.0142,25.4324,莆田市,荔城区仓后路,,28,26,30,10,15,88,88,90,90,17,23,/,/,/,/
2026-03-19T2100,2320A,119.0016,25.4553,莆田市,莆田市监测站,,34,34,31,10,14,91,91,93,93,13,17,3,3,0.4,0.5
2026-03-19T2100,2321A,119.112,25.4561,莆田市,涵江区六中,,30,23,26,8,10,95,95,96,96,14,19,/,/,0.4,0.5
2026-03-19T2100,2322A,119.1014,25.3215,莆田市,秀屿区政府,,31,26,26,11,9,99,99,104,104,11,15,3,4,0.4,0.6
2026-03-19T2100,2392A,115.0312,35.7636,濮阳市,环保局,细颗粒物(PM2.5),68,71,56,44,31,76,76,88,87,16,16,5,6,0.5,0.5
2026-03-19T2100,3021A,115,35.7667,濮阳市,濮水河管理处,颗粒物(PM10),81,93,68,40,35,81,81,94,92,14,18,8,8,0.5,0.4
2026-03-19T2100,4118A,115.0552,35.7816,濮阳市,中原东路68号,颗粒物(PM10),80,91,65,49,32,78,78,92,90,13,14,6,7,0.4,0.4
2026-03-19T2100,4216A,115.0923632,35.76857718,濮阳市,任丘路479号,颗粒物(PM10),82,94,66,38,34,72,72,95,92,22,21,6,7,0.4,0.6
2026-03-19T2100,2601A,100.9801,22.7634,普洱市,市环保局,颗粒物(PM10),83,96,82,49,38,108,108,134,130,16,11,7,7,0.5,0.5
2026-03-19T2100,2602A,100.9763,22.8237,普洱市,普洱第二中学,颗粒物(PM10),95,112,82,57,42,76,76,132,123,30,22,7,5,0.8,0.6
2026-03-19T2100,3345A,131.0413,45.7795,七台河市,中波台,,29,29,46,19,25,80,80,90,87,10,11,4,11,0.3,0.6
2026-03-19T2100,3637A,131.0136,45.7688,七台河市,人民广场,,36,36,51,17,19,68,68,92,85,19,15,8,12,0.5,0.4
2026-03-19T2100,3684A,130.8639,45.8144,七台河市,新建矿广场,,39,39,55,25,25,70,70,91,82,11,15,6,5,0.2,0.1
2026-03-19T2100,1779A,123.9307,47.3641,齐齐哈尔市,安居小区,颗粒物(PM10),55,56,45,33,26,66,66,85,81,21,10,6,7,0.5,0.5
2026-03-19T2100,1780A,123.9497,47.3389,齐齐哈尔市,中心广场,NA,NA,NA,39,NA,25,NA,NA,79,78,NA,11,NA,10,NA,0.4
2026-03-19T2100,1781A,123.9483,47.3229,齐齐哈尔市,农牧车辆厂,,29,24,46,20,27,74,74,80,78,9,9,7,8,0.3,0.3
2026-03-19T2100,1783A,123.9442,47.2994,齐齐哈尔市,市环境监测站,,31,31,54,14,25,75,75,81,80,12,10,3,3,0.4,0.4
2026-03-19T2100,3662A,123.6341,47.2079,齐齐哈尔市,富区青少年活动中心,细颗粒物(PM2.5),88,90,66,54,40,63,63,83,78,17,15,6,8,0.9,1
2026-03-19T2100,2591A,107.9765,26.5724,黔东南苗族侗族自治州,市环境监测站,,26,26,26,18,15,37,37,62,40,11,9,2,3,0.7,0.7
2026-03-19T2100,2881A,107.8909,26.531,黔东南苗族侗族自治州,凯里学院,,39,NA,24,27,16,36,36,62,44,13,13,3,4,0.9,0.8
2026-03-19T2100,2593A,107.5223,26.2371,黔南布依族苗族自治州,小围寨,,19,NA,9,13,9,36,36,54,37,6,5,6,5,0.5,0.8
2026-03-19T2100,3538A,107.5175,26.2977,黔南布依族苗族自治州,沙坝,,16,14,18,11,9,39,39,54,37,5,6,3,4,0.8,0.8
2026-03-19T2100,2589A,104.9022,25.0943,黔西南布依族苗族自治州,场坝街,,50,45,30,35,21,99,99,112,112,9,7,7,5,0.4,0.4
2026-03-19T2100,2590A,104.8812,25.0994,黔西南布依族苗族自治州,坪东大道,NA,NA,56,33,35,25,72,72,108,106,NA,10,6,5,0.7,0.6
2026-03-19T2100,2502A,108.6238,21.9667,钦州市,市环保站,,46,46,48,12,22,45,45,76,71,26,18,17,6,0.5,0.6
2026-03-19T2100,2503A,108.655,21.9481,钦州市,沙埠小学,,34,34,50,20,24,52,52,78,72,19,20,4,8,0.4,0.4
2026-03-19T2100,2504A,108.5989,21.7435,钦州市,港区一小,,42,42,54,18,23,65,65,79,76,10,19,2,3,0.4,0.4
2026-03-19T2100,3404A,108.5959,21.9634,钦州市,北职校,,45,45,44,15,24,21,21,75,65,43,18,11,7,0.5,0.5
2026-03-19T2100,1046A,119.5247,39.9346,秦皇岛市,建设大厦,颗粒物(PM10),92,108,76,51,33,65,65,87,84,26,23,14,12,0.7,0.8
2026-03-19T2100,3132A,119.5979,39.938,秦皇岛市,文明里,细颗粒物(PM2.5),80,88,73,50,33,60,60,73,70,34,29,15,14,0.7,0.8
2026-03-19T2100,4066A,119.7458,39.9952,秦皇岛市,南园路157号,细颗粒物(PM2.5),98,89,69,59,33,42,42,75,68,53,48,10,11,0.6,0.7
2026-03-19T2100,4067A,119.5131,39.8858,秦皇岛市,翠岛大街1号,颗粒物(PM10),93,110,67,54,34,52,52,75,70,36,33,16,12,0.7,0.7
2026-03-19T2100,4198A,119.509013,39.825305,秦皇岛市,北戴河轮滑馆,细颗粒物(PM2.5),88,96,70,54,32,61,61,74,71,36,33,9,10,0.5,0.7
2026-03-19T2100,1310A,120.404,36.0625,青岛市,市南区东部子站,,30,19,30,3,12,94,94,100,100,10,22,8,11,0.4,0.5
2026-03-19T2100,1311A,120.362344,36.10282,青岛市,四方区子站,,30,22,29,7,12,94,94,101,99,14,24,4,7,0.6,0.6
2026-03-19T2100,1312A,120.294373,36.054183,青岛市,市南区西部子站,,28,19,24,6,11,87,87,95,95,18,23,3,4,0.4,0.5
2026-03-19T2100,1313A,120.4581,36.0858,青岛市,崂山区子站,NA,NA,14,26,3,12,97,97,103,103,NA,16,7,8,0.4,0.5
2026-03-19T2100,1315A,120.3945,36.3083,青岛市,城阳区子站,,31,31,40,14,17,89,89,97,95,22,31,6,7,0.6,0.7
2026-03-19T2100,3642A,120.3454,36.0735,青岛市,市北区南部,,30,16,28,3,11,96,96,102,102,4,15,2,4,0.6,0.6
2026-03-19T2100,3643A,120.3897,36.18,青岛市,李沧区北部,,27,24,36,10,15,84,84,100,96,25,31,8,9,0.5,0.6
2026-03-19T2100,4110A,120.5222,36.4089,青岛市,盟旺路653号,,35,35,37,23,18,92,92,100,99,15,22,4,4,0.8,0.8
2026-03-19T2100,4290A,120.196923,35.954556,青岛市,珠江路669号,,33,9,21,3,12,103,103,103,103,12,28,4,5,0.4,0.5
2026-03-19T2100,4291A,120.0424,35.8656,青岛市,黄岛区人民政府广场,,29,24,32,7,11,91,91,96,96,9,21,7,8,0.4,0.5
2026-03-19T2100,1703A,113.0218,23.7086,清远市,凤城街办,颗粒物(PM10),60,64,42,37,25,113,113,149,149,25,21,/,/,/,/
2026-03-19T2100,3025A,113.0479,23.6343,清远市,技师学院,"颗粒物(PM10),细颗粒物(PM2.5)",68,75,48,44,24,110,110,168,167,34,24,8,6,0.8,0.6
2026-03-19T2100,3318A,112.9898,23.7403,清远市,清新太和,颗粒物(PM10),58,60,39,33,21,141,141,163,163,28,18,6,7,0.6,0.5
2026-03-19T2100,3455A,113.076,23.72,清远市,清城东城,颗粒物(PM10),60,63,43,36,23,100,100,148,145,22,15,/,/,/,/
2026-03-19T2100,2661A,107.6325,35.7357,庆阳市,庆阳五中,颗粒物(PM10),98,116,146,40,36,79,79,93,92,20,13,7,7,0.5,0.4
2026-03-19T2100,2662A,107.6361,35.7067,庆阳市,市环保局,颗粒物(PM10),107,138,139,53,42,78,78,91,91,23,14,8,10,0.4,0.4
2026-03-19T2100,1916A,103.7897,25.5036,曲靖市,环境监测站,,42,42,38,21,18,108,108,122,118,10,9,6,7,0.3,0.4
2026-03-19T2100,1917A,103.8013,25.5357,曲靖市,烟厂办公区,,39,39,37,15,17,99,99,110,108,8,7,3,4,0.4,0.4
2026-03-19T2100,3376A,103.7926,25.4651,曲靖市,南苑二区,,36,36,33,23,18,103,103,106,105,11,11,3,4,0.3,0.3
2026-03-19T2100,3377A,103.7442,25.5259,曲靖市,曲靖师范学院,,45,45,38,21,21,103,103,113,111,8,7,3,3,0.2,0.2
2026-03-19T2100,1264A,118.8694,28.94,衢州市,环保大楼,NA,NA,NA,17,NA,15,NA,NA,80,80,24,17,/,/,/,/
2026-03-19T2100,1266A,118.8622,28.9809,衢州市,衢州学院,,23,21,16,16,14,41,41,78,74,31,20,4,4,0.7,0.8
2026-03-19T2100,4097A,118.9646,28.9832,衢州市,衢州三中,,26,26,20,17,13,38,38,80,75,31,18,5,6,0.6,0.6
2026-03-19T2100,1611A,118.5818,24.9116,泉州市,涂山街,,33,33,30,15,17,69,69,83,82,21,26,6,5,0.7,0.8
2026-03-19T2100,1612A,118.597,24.8976,泉州市,津头埔,,31,31,29,15,17,77,77,92,92,19,21,6,4,0.7,0.7
2026-03-19T2100,1613A,118.6669,24.9422,泉州市,万安,,33,33,28,15,15,73,73,84,84,17,21,7,4,0.7,0.7
2026-03-19T2100,4105A,118.6355,24.9148,泉州市,霞新路6号,,26,26,26,14,15,69,69,82,81,21,24,/,/,0.7,0.7
2026-03-19T2100,2626A,88.8873,29.2723,日喀则市,日喀则监测站,,30,15,13,12,6,93,93,106,105,17,6,8,6,0.5,0.3
2026-03-19T2100,3726A,88.8775,29.2425,日喀则市,林业技术推广中心,,31,12,15,3,4,99,99,106,102,4,4,7,5,0.4,0.3
2026-03-19T2100,1659A,119.4711,35.421,日照市,监测站,,31,31,35,14,11,90,90,90,90,20,33,10,9,0.6,0.7
2026-03-19T2100,1660A,119.523,35.4216,日照市,市政府广场,,41,41,29,17,9,94,94,92,92,19,28,7,7,0.6,0.5
2026-03-19T2100,1661A,119.5511,35.4113,日照市,港务局,,46,46,33,16,7,67,67,95,91,47,31,6,5,0.6,0.6
2026-03-19T2100,3507A,119.5326,35.4627,日照市,职业技术学院,,46,46,27,22,8,86,86,95,95,29,25,14,8,1.1,0.7
2026-03-19T2100,3604A,119.3267,35.1043,日照市,岚山环保分局,,29,29,37,13,11,91,91,101,100,18,25,10,18,0.6,1.3
2026-03-19T2100,1835A,111.1922,34.7752,三门峡市,市政府,颗粒物(PM10),85,99,85,37,31,49,49,74,68,36,24,11,12,0.6,0.5
2026-03-19T2100,1836A,111.1588,34.794,三门峡市,开发区,颗粒物(PM10),98,117,114,41,35,56,56,74,69,22,14,11,13,0.4,0.3
2026-03-19T2100,3039A,111.1911,34.7829,三门峡市,三门峡市第一小学,颗粒物(PM10),103,127,99,38,33,53,53,76,71,34,20,16,15,0.5,0.4
2026-03-19T2100,3598A,111.1031,34.719,三门峡市,富达温泉假日酒店,颗粒物(PM10),104,128,107,36,39,50,50,60,60,28,24,15,15,0.6,0.5
2026-03-19T2100,2324A,117.621,26.2626,三明市,三钢,,46,NA,22,32,20,78,78,92,91,14,15,10,12,0.7,1.4
2026-03-19T2100,2325A,117.6352,26.2714,三明市,三明二中,,35,33,21,24,15,72,72,86,86,14,12,8,6,0.7,1
2026-03-19T2100,2326A,117.6028,26.2377,三明市,三元区政府,,40,30,18,28,16,78,78,94,93,13,11,10,7,1.1,1
2026-03-19T2100,1877A,109.4962,18.2682,三亚市,河西子站,,19,19,23,11,11,53,53,69,64,4,6,4,4,0.3,0.4
2026-03-19T2100,3540A,109.7348,18.3443,三亚市,君悦子站,,25,25,21,9,10,56,56,71,67,3,9,4,4,0.3,0.4
2026-03-19T2100,4135A,109.1714,18.3739,三亚市,城东小学站,,34,34,31,18,12,57,57,73,69,9,9,/,/,/,/
2026-03-19T2100,2624A,91.7592,29.234,山南市,山南监测站,,28,16,11,3,2,88,88,100,99,7,4,2,2,0.2,0.2
2026-03-19T2100,2625A,91.7701,29.2436,山南市,山南人民医院,,29,24,17,7,4,90,90,103,102,7,4,4,5,0.4,0.3
2026-03-19T2100,1674A,116.6795,23.3666,汕头市,金平子站,,32,23,41,11,31,101,101,105,104,13,22,4,7,0.6,0.7
2026-03-19T2100,1675A,116.7248,23.3632,汕头市,龙湖子站,,31,25,39,11,28,97,97,100,100,13,18,4,5,/,/
2026-03-19T2100,1676A,116.7257,23.2774,汕头市,濠江子站,,31,21,37,9,27,97,97,95,95,11,19,7,8,/,/
2026-03-19T2100,1677A,116.7518,23.4712,汕头市,澄海子站,,31,24,48,3,28,97,97,96,96,12,21,7,7,0.7,0.7
2026-03-19T2100,1678A,116.6088,23.2539,汕头市,潮阳子站,,32,25,37,10,29,102,102,105,105,8,13,5,6,0.6,0.7
2026-03-19T2100,3444A,116.4539,23.2684,汕头市,潮南峡山,,33,29,42,23,27,102,102,114,109,12,12,6,7,0.7,0.8
2026-03-19T2100,3624A,116.4069,23.2533,汕头市,潮南子站,颗粒物(PM10),51,51,57,27,30,91,91,104,97,8,12,5,6,/,/
2026-03-19T2100,1693A,115.3653,22.7751,汕尾市,市环保局,,31,22,28,16,20,99,99,86,86,7,11,5,6,0.7,0.6
2026-03-19T2100,1695A,115.362,22.7926,汕尾市,新城中学,,31,NA,29,16,18,98,98,89,89,8,11,6,6,0.6,0.5
2026-03-19T2100,2645A,109.9155,33.8714,商洛市,监测站,细颗粒物(PM2.5),96,110,127,58,41,36,36,80,69,42,26,7,7,0.7,0.5
2026-03-19T2100,3045A,109.9647,33.8486,商洛市,商州区中学,颗粒物(PM10),73,82,106,36,47,31,31,102,77,53,32,9,9,0.6,0.5
2026-03-19T2100,2408A,115.6701,34.4283,商丘市,环境监测站,NA,NA,94,62,42,37,61,61,96,91,30,19,1,2,NA,0.4
