timepoint,stationcode,longitude,latitude,area,positionname,primarypollutant,aqi,pm10,pm10_24h,pm2_5,pm2_5_24h,o3,o3_24h,o3_8h,o3_8h_24h,no2,no2_24h,so2,so2_24h,co,co_24h
2024-06-01T1300,2566A,102.1879,31.914,阿坝藏族羌族自治州,州农科所,,27,27,27,8,9,35,,20,20,5,10,2,3,0,0
2024-06-01T1300,2568A,102.2502,31.8896,阿坝藏族羌族自治州,马师校,,20,17,15,8,13,63,,32,32,13,13,4,4,0.4,0.4
2024-06-01T1300,3994A,102.2165,31.9024,阿坝藏族羌族自治州,马尔康中学西区,,23,10,20,8,12,71,,38,38,4,6,5,5,0.3,0.3
2024-06-01T1300,2695A,80.292,41.1694,阿克苏地区,电视台,,40,26,30,7,13,127,,113,104,11,13,6,5,0.3,0.3
2024-06-01T1300,2696A,80.2613,41.1551,阿克苏地区,艺术中心,,38,26,26,3,12,119,,107,97,13,14,3,4,0.3,0.4
2024-06-01T1300,2204A,105.6467,38.8363,阿拉善盟,西城区西花园,,50,50,47,21,14,160,,147,147,11,11,9,9,0.5,0.6
2024-06-01T1300,2205A,105.6985,38.8411,阿拉善盟,蒙二幼,颗粒物(PM10),55,59,44,16,14,146,,139,139,8,9,9,10,0.5,0.4
2024-06-01T1300,2206A,105.724,38.8516,阿拉善盟,环保局新楼,,49,47,40,17,13,155,,150,150,7,7,11,12,0.6,0.6
2024-06-01T1300,2708A,88.1264,47.8517,阿勒泰地区,市站,,40,40,31,3,11,84,,58,55,8,10,6,6,0.2,0.2
2024-06-01T1300,2630A,80.1161,32.5,阿里地区,阿里监测站,,49,,12,12,7,156,,128,120,4,8,8,8,0.4,0.4
2024-06-01T1300,3192A,80.0903,32.5028,阿里地区,阿里藏医院,,49,16,15,7,6,155,,134,126,4,4,5,5,0.6,0.5
2024-06-01T1300,2642A,109.0318,32.6537,安康市,香溪洞,,39,39,45,20,21,52,,38,38,5,7,7,7,0.5,0.5
2024-06-01T1300,2643A,109.0281,32.6939,安康市,安康市监测站,颗粒物(PM10),52,53,51,19,19,79,,39,39,11,12,7,8,0.6,0.5
2024-06-01T1300,2644A,109.0072,32.6975,安康市,汉滨区检察院,,45,45,47,26,20,62,,35,35,19,13,8,7,0.5,0.4
2024-06-01T1300,2291A,117.0809,30.5177,安庆市,环科院,,37,21,28,9,21,117,,78,78,11,12,6,5,0.5,0.7
2024-06-01T1300,2292A,117.0331,30.5119,安庆市,马山宾馆,,39,20,27,6,22,123,,83,83,7,10,8,7,0.5,0.8
2024-06-01T1300,2294A,116.9896,30.6145,安庆市,安庆大学,,41,14,24,3,19,129,,88,88,10,13,7,7,0.3,0.6
2024-06-01T1300,3173A,117.0598,30.5351,安庆市,市人大,,38,19,29,8,23,120,,79,79,14,16,7,6,0.6,0.8
2024-06-01T1300,3123A,105.9408,26.2431,安顺市,凤凰山,,35,19,29,10,18,112,,98,98,4,7,6,8,0.4,0.4
2024-06-01T1300,3124A,105.9439,26.2564,安顺市,金钟山,,34,23,27,9,20,108,,87,87,4,7,5,6,0.4,0.4
2024-06-01T1300,3125A,105.8983,26.2481,安顺市,娄家坡,,34,19,48,12,24,106,,92,92,4,8,4,7,0.5,0.6
2024-06-01T1300,1819A,114.3551,36.1017,安阳市,红庙街,颗粒物(PM10),54,57,64,24,23,161,,109,109,2,12,3,4,0.4,0.4
2024-06-01T1300,1820A,114.361,36.0681,安阳市,银杏小区,细颗粒物(PM2.5),57,50,67,40,24,158,,98,98,11,20,6,7,0.6,0.7
2024-06-01T1300,3141A,114.3922,36.0878,安阳市,信访局,颗粒物(PM10),52,54,61,20,18,158,,114,114,3,12,7,8,0.4,0.5
2024-06-01T1300,3669A,114.4705,36.0637,安阳市,左辅环卫站,,49,36,47,19,19,156,,107,107,5,17,4,4,0.7,0.7
2024-06-01T1300,3703A,114.2917,36.0949,安阳市,安钢职工学校,颗粒物(PM10),53,56,75,11,18,158,,105,105,8,23,6,7,0.4,0.5
2024-06-01T1300,1748A,123.044,41.1196,鞍山市,深沟寺,,30,20,27,8,13,93,,62,62,16,23,13,11,0.6,0.6
2024-06-01T1300,1749A,123.011,41.0931,鞍山市,太阳城,,33,18,24,9,14,104,,61,61,10,25,8,11,0.4,0.9
2024-06-01T1300,1750A,123.0485,41.1442,鞍山市,太平,,29,24,30,12,17,92,,62,62,18,30,14,7,0.8,0.6
2024-06-01T1300,1751A,122.9642,41.0971,鞍山市,铁西三道街,,33,21,40,8,17,104,,60,60,10,38,6,12,0.4,0.9
2024-06-01T1300,1752A,122.9341,41.0833,鞍山市,铁西工业园区,,33,13,40,3,18,105,,64,64,6,29,6,8,0.3,0.6
2024-06-01T1300,1753A,123.022,41.0821,鞍山市,明达新区,,30,27,25,10,13,94,,57,57,10,26,10,12,0.5,0.9
2024-06-01T1300,2195A,107.4212,40.761,巴彦淖尔市,附二中,臭氧1小时,68,48,39,23,16,174,,102,102,12,13,8,11,0.4,0.4
2024-06-01T1300,2196A,107.37,40.7372,巴彦淖尔市,市环保大楼,颗粒物(PM10),61,72,44,18,14,162,,97,97,11,10,9,5,0.4,0.3
2024-06-01T1300,1956A,86.1472,41.7538,巴音郭楞蒙古自治州,孔雀公园,,41,41,39,12,18,79,,99,89,13,8,7,7,0.3,0.2
2024-06-01T1300,1957A,86.1972,41.7166,巴音郭楞蒙古自治州,棉纺厂,,25,25,38,9,14,56,,92,77,18,11,3,3,0.3,0.2
2024-06-01T1300,1958A,86.2357,41.7173,巴音郭楞蒙古自治州,经济开发区,,31,7,30,7,15,97,,100,95,12,6,7,8,0.3,0.2
2024-06-01T1300,2914A,106.7677,31.8794,巴中市,苏山坪,,45,45,51,20,23,53,,65,54,13,9,4,5,0.4,0.4
2024-06-01T1300,3182A,106.7656,31.8545,巴中市,丽阳花园,颗粒物(PM10),54,58,54,31,28,35,,27,21,25,17,6,5,0.7,0.5
2024-06-01T1300,3183A,106.7418,31.8654,巴中市,圣泉水务公司,,40,40,51,23,27,34,,25,21,20,17,6,5,0.4,0.4
2024-06-01T1300,3616A,106.7616,31.8344,巴中市,市中心医院,颗粒物(PM10),51,51,52,27,27,40,,23,21,20,19,5,4,0.5,0.5
2024-06-01T1300,2235A,122.7911,45.6077,白城市,洮北区环保局,,29,13,23,7,14,90,,67,67,6,14,2,3,0.3,0.3
2024-06-01T1300,2236A,122.8738,45.5725,白城市,市环保局,细颗粒物(PM2.5),60,,16,43,11,85,,68,68,5,13,5,4,0.4,0.4
2024-06-01T1300,2231A,126.4219,41.9171,白山市,喜丰,,25,24,22,6,12,78,,42,42,9,14,10,9,0.7,0.8
2024-06-01T1300,2232A,126.4077,41.9419,白山市,环保局,,30,30,29,8,9,70,,42,42,10,11,8,8,0.8,0.7
2024-06-01T1300,2647A,104.1724,36.5446,白银市,第三小学,颗粒物(PM10),63,75,76,13,25,117,,90,89,9,22,7,12,0.7,0.9
2024-06-01T1300,2648A,104.1465,36.5482,白银市,动力公司,颗粒物(PM10),51,52,67,10,24,125,,90,90,6,16,8,10,0.4,0.5
2024-06-01T1300,2512A,106.6103,23.9011,百色市,市监测站,,33,29,28,13,11,104,,60,60,6,13,5,5,0.6,0.7
2024-06-01T1300,2513A,106.6538,23.8859,百色市,市中心血站,,35,35,37,17,15,104,,56,56,6,20,4,7,0.7,0.8
2024-06-01T1300,3406A,106.6085,23.8798,百色市,祈福高中,,32,28,36,19,12,101,,57,57,6,17,7,6,0.7,0.7
2024-06-01T1300,2270A,117.396,32.939,蚌埠市,工人疗养院,颗粒物(PM10),53,55,66,9,24,138,,111,111,2,9,6,8,0.2,0.4
2024-06-01T1300,2271A,117.3605,32.9427,蚌埠市,百货大楼,颗粒物(PM10),62,73,69,11,29,140,,110,110,5,13,3,5,0.3,0.4
2024-06-01T1300,2273A,117.4185,32.8911,蚌埠市,蚌埠学院,颗粒物(PM10),52,53,62,9,29,136,,102,102,13,22,7,11,0.3,0.5
2024-06-01T1300,2274A,117.3533,32.9673,蚌埠市,淮上区政府,颗粒物(PM10),51,51,61,14,30,134,,109,109,3,9,6,6,0.2,0.4
2024-06-01T1300,2275A,117.3145,32.8977,蚌埠市,高新区,颗粒物(PM10),52,53,64,17,29,143,,112,112,3,12,7,7,0.2,0.4
2024-06-01T1300,3715A,117.3092,32.9314,蚌埠市,蚌埠田家炳中学,颗粒物(PM10),54,58,67,7,27,145,,115,115,2,11,6,8,0.2,0.4
2024-06-01T1300,1585A,109.8756,40.6532,包头市,市环境监测站,,45,33,33,15,17,141,,76,76,16,33,14,15,0.5,0.6
2024-06-01T1300,1587A,109.9991,40.5842,包头市,包头八中,,47,43,34,19,15,150,,81,81,18,28,16,21,0.6,0.6
2024-06-01T1300,1588A,109.8538,40.6821,包头市,青山宾馆,,45,33,26,16,12,141,,73,73,16,35,17,15,0.6,0.7
2024-06-01T1300,1589A,109.8642,40.6288,包头市,惠龙物流,,45,40,30,16,14,143,,82,82,18,35,16,16,0.4,0.4
2024-06-01T1300,1590A,110.0377,40.5546,包头市,东河鸿龙湾,颗粒物(PM10),51,51,34,23,11,145,,79,79,15,28,13,14,0.5,0.4
2024-06-01T1300,3283A,109.9154,40.5685,包头市,滨河大厦,,45,34,23,10,10,142,,81,81,15,25,16,15,0.6,0.5
2024-06-01T1300,3419A,109.9447,40.6261,包头市,包头市委党校,,46,41,28,8,11,146,,77,77,18,34,17,18,0.5,0.5
2024-06-01T1300,3683A,109.8331,40.6576,包头市,昆区政府,,45,36,28,19,14,144,,82,82,19,31,17,17,0.4,0.6
2024-06-01T1300,1930A,107.185,34.3063,宝鸡市,庙沟村,,,52,80,23,27,51,,79,56,15,11,11,9,,0.4
2024-06-01T1300,1931A,107.0708,34.3017,宝鸡市,竹园沟,,47,47,51,22,24,48,,62,51,14,15,7,6,0.4,0.4
2024-06-01T1300,1932A,107.1906,34.3672,宝鸡市,三陆医院,颗粒物(PM10),60,69,72,24,32,54,,37,37,20,30,7,7,0.5,0.5
2024-06-01T1300,1933A,107.1431,34.3547,宝鸡市,监测站,颗粒物(PM10),54,58,66,23,26,53,,48,48,22,23,7,6,0.5,0.5
2024-06-01T1300,1934A,107.1186,34.3739,宝鸡市,技工学校,颗粒物(PM10),62,73,68,20,28,59,,49,49,17,17,7,7,0.5,0.4
2024-06-01T1300,1935A,107.3906,34.3528,宝鸡市,陈仓区环保局家属楼,颗粒物(PM10),74,97,78,37,32,51,,43,43,38,30,6,5,0.5,0.4
2024-06-01T1300,1936A,107.2058,34.3497,宝鸡市,文理学院,颗粒物(PM10),58,65,66,28,29,51,,45,45,22,21,7,6,0.5,0.4
2024-06-01T1300,1937A,107.2386,34.3622,宝鸡市,三迪小学,颗粒物(PM10),63,75,79,22,27,50,,40,40,31,30,7,7,0.6,0.5
2024-06-01T1300,1051A,115.493,38.8632,保定市,游泳馆,,,39,54,,12,162,,108,108,2,12,2,2,0.1,0
2024-06-01T1300,1052A,115.5213,38.8959,保定市,华电二区,,50,31,32,6,10,160,,115,115,5,13,3,4,0.1,0.1
2024-06-01T1300,1053A,115.4713,38.9108,保定市,接待中心,,,28,30,,9,157,,108,108,1,8,4,2,0.3,0.3
2024-06-01T1300,1054A,115.4612,38.8416,保定市,地表水厂,,50,26,41,6,17,160,,99,99,2,16,2,2,0.3,0.3
2024-06-01T1300,3581A,115.31981,38.95208,保定市,满城区生态环境分局,臭氧1小时,63,46,51,3,16,170,,111,111,2,13,2,2,0,0
2024-06-01T1300,3582A,115.47694,38.76408,保定市,清苑区第二中学,臭氧1小时,58,33,42,3,11,166,,111,111,2,13,3,2,0.3,0.3
2024-06-01T1300,3583A,115.62909,39.02311,保定市,徐水物探局,臭氧1小时,70,48,43,3,6,176,,114,114,3,16,6,4,0.7,0.5
2024-06-01T1300,4004A,115.4202,38.8656,保定市,双鹰农机,臭氧1小时,64,42,42,9,14,171,,109,109,6,16,3,4,0.2,0.1
2024-06-01T1300,4034A,115.5150,38.8590,保定市,植保所站,臭氧1小时,55,42,44,14,20,164,,116,116,2,14,4,4,0.3,0.3
2024-06-01T1300,2594A,99.1678,25.1081,保山市,市环境监测站,,34,34,47,11,21,102,,62,62,5,8,5,5,0.5,0.5
2024-06-01T1300,2595A,99.1711,25.1328,保山市,市环保局,颗粒物(PM10),51,51,55,18,18,108,,70,70,4,5,4,4,0.4,0.4
2024-06-01T1300,1867A,109.1436,21.4086,北海市,海滩公园,,33,26,19,3,4,104,,73,73,7,7,5,4,0.7,0.7
2024-06-01T1300,1868A,109.0981,21.4661,北海市,新市环保局,,33,20,16,7,8,103,,73,73,6,7,6,5,0.8,0.7
2024-06-01T1300,1869A,109.1778,21.5233,北海市,北海工业园,,29,20,16,7,10,90,,72,72,4,6,5,5,0.6,0.7
2024-06-01T1300,3400A,109.1911,21.4415,北海市,龙潭自来水厂,,,14,14,,9,90,,70,70,6,7,6,6,0.6,0.7
2024-06-01T1300,1001A,116.3621,39.8784,北京市,万寿西宫,,46,17,31,10,14,147,,94,94,14,27,3,2,0.2,0.3
2024-06-01T1300,1002A,116.2202,40.2915,北京市,定陵,,36,12,14,11,6,115,,60,60,15,15,3,3,0.2,0.2
2024-06-01T1300,1003A,116.4174,39.9289,北京市,东四,,45,22,31,10,13,141,,86,86,14,26,2,2,0.3,0.3
2024-06-01T1300,1004A,116.4072,39.8863,北京市,天坛,,44,23,25,7,10,139,,79,79,11,23,3,2,0.2,0.2
2024-06-01T1300,1005A,116.462,39.9365,北京市,农展馆,,39,22,30,9,12,122,,75,75,13,31,3,2,0.2,0.2
2024-06-01T1300,1006A,116.3392,39.9295,北京市,官园,,46,25,33,8,11,146,,92,92,14,23,2,3,0.1,0.2
2024-06-01T1300,1007A,116.2878,39.9611,北京市,海淀万柳,,43,25,32,8,10,137,,72,72,14,32,4,4,0.2,0.2
2024-06-01T1300,1008A,116.6636,40.135,北京市,顺义新城,,40,16,26,3,7,128,,72,72,13,24,3,3,0.2,0.2
2024-06-01T1300,1009A,116.6275,40.3275,北京市,怀柔镇,,40,23,16,8,6,127,,81,81,7,9,3,2,0.4,0.4
2024-06-01T1300,1010A,116.2296,40.217,北京市,昌平镇,,34,23,22,8,6,107,,59,59,9,20,1,2,0.2,0.1
2024-06-01T1300,1011A,116.3966,39.9821,北京市,奥体中心,,34,12,27,6,10,107,,70,70,11,28,1,2,0.2,0.2
2024-06-01T1300,1012A,116.184,39.9136,北京市,古城,,40,29,33,9,11,128,,69,69,13,29,2,1,0.3,0.4
2024-06-01T1300,3281A,115.9718,40.4529,北京市,延庆夏都,,34,11,14,6,6,108,,56,56,4,21,3,3,0.1,0.1
2024-06-01T1300,3417A,117.0709,40.1465,北京市,平谷新城,,42,20,20,7,8,132,,83,83,1,6,1,2,0.2,0.2
2024-06-01T1300,3418A,116.8336,40.4095,北京市,密云新城,,40,15,20,7,6,128,,84,84,8,14,3,3,0.1,0.1
2024-06-01T1300,3672A,116.1541,39.8204,北京市,丰台云岗,,40,26,30,10,9,125,,76,76,7,24,1,1,0.2,0.3
2024-06-01T1300,3673A,116.6804,39.9081,北京市,通州东关,,46,21,38,9,13,145,,79,79,6,22,1,3,0.3,0.3
2024-06-01T1300,3674A,115.9577,39.7603,北京市,房山燕山,,47,47,34,3,10,122,,91,91,9,14,3,3,0.2,0.3
2024-06-01T1300,3675A,116.4672,39.7733,北京市,大兴旧宫,,41,21,33,7,12,131,,71,71,8,23,3,3,0.2,0.3
2024-06-01T1300,3694A,115.986,40.4563,北京市,延庆石河营,,32,13,17,6,8,101,,51,51,2,19,1,2,0.1,0.1
2024-06-01T1300,3695A,116.6151,40.3053,北京市,怀柔新城,,39,23,17,3,5,122,,79,79,9,11,3,3,0.2,0.2
2024-06-01T1300,3696A,116.2545,39.8768,北京市,丰台小屯,,40,22,30,9,9,125,,66,66,7,30,1,2,0.3,0.3
2024-06-01T1300,3697A,116.84,40.3844,北京市,密云镇,,41,9,17,8,6,129,,73,73,6,22,3,3,0.1,0.2
2024-06-01T1300,1761A,123.8275,41.3064,本溪市,大峪,,34,15,28,10,13,107,,56,56,8,19,13,11,0.6,1.4
2024-06-01T1300,1762A,123.7567,41.3325,本溪市,溪湖,,34,11,36,3,21,106,,56,56,21,20,10,9,0.5,1
2024-06-01T1300,1763A,123.7169,41.3094,本溪市,彩屯,,32,10,33,3,24,102,,55,55,12,28,9,11,0.4,0.9
2024-06-01T1300,1764A,123.7669,41.2864,本溪市,东明,,,23,43,9,20,102,,54,54,11,31,,13,,1.7
2024-06-01T1300,1765A,123.7992,41.2664,本溪市,新立屯,,,33,35,9,21,89,,39,39,14,33,,13,0.7,1.6
2024-06-01T1300,1766A,123.8142,41.3472,本溪市,威宁,,31,17,46,7,20,99,,50,50,12,24,10,8,0.3,0.8
2024-06-01T1300,2587A,105.2864,27.3125,毕节市,八中,,42,42,32,18,15,131,,91,91,9,9,7,6,0.3,0.3
2024-06-01T1300,2588A,105.31,27.2944,毕节市,师专,,42,42,32,16,14,127,,94,94,8,8,9,6,0.4,0.4
2024-06-01T1300,3537A,105.3631,27.3533,毕节市,长征村,,39,32,26,15,14,124,,91,91,5,8,8,7,0.3,0.3
2024-06-01T1300,1629A,118.0018,37.3617,滨州市,第二水厂,,44,19,34,17,16,139,,95,95,5,17,5,8,0.5,0.7
2024-06-01T1300,1630A,117.9776,37.393,滨州市,北中新校,,43,22,34,7,13,137,,93,93,1,12,5,10,0.3,0.5
2024-06-01T1300,3514A,117.9378,37.3956,滨州市,中海酒店,,44,27,31,7,15,138,,96,96,6,16,4,9,0.7,0.6
2024-06-01T1300,3515A,117.9378,37.3553,滨州市,开发区一中,,43,22,40,3,15,136,,92,92,9,19,6,9,0.4,0.5
2024-06-01T1300,3516A,118.0917,37.694,滨州市,金海六路,,44,19,28,3,9,140,,94,94,5,19,4,9,0.2,0.3
2024-06-01T1300,4028A,117.9956,37.3753,滨州市,滨州市西街道办事处,,43,22,30,9,18,136,,96,96,8,16,4,8,0.4,0.6
2024-06-01T1300,2311A,115.8072,33.8399,亳州市,污水处理厂,颗粒物(PM10),65,79,90,19,28,160,,126,126,7,12,5,6,0.3,0.4
2024-06-01T1300,2312A,115.7789,33.8518,亳州市,三国揽胜宫,臭氧1小时,60,60,73,12,26,168,,129,129,9,13,5,5,0.3,0.4
2024-06-01T1300,3332A,115.7633,33.8034,亳州市,亳州学院,颗粒物(PM10),61,71,84,14,27,158,,126,126,7,11,4,5,0.2,0.4
2024-06-01T1300,2693A,82.0485,44.8556,博尔塔拉蒙古自治州,市党校,,35,21,25,9,10,110,,74,74,10,10,11,11,0.4,0.4
2024-06-01T1300,2694A,82.0806,44.8969,博尔塔拉蒙古自治州,市环保局,,35,30,25,14,10,112,,72,72,11,17,10,9,0.4,0.4
2024-06-01T1300,1071A,116.8842,38.2991,沧州市,沧县城建局,,47,24,38,3,12,148,,108,108,8,15,2,4,0.1,0.2
2024-06-01T1300,1072A,116.8584,38.3254,沧州市,电视转播站,,45,16,35,3,13,144,,104,104,7,13,3,5,0.2,0.2
2024-06-01T1300,1073A,116.8709,38.3228,沧州市,市环保局,,46,29,39,11,21,147,,107,107,10,14,4,6,0.2,0.3
2024-06-01T1300,3324A,116.8136,38.3004,沧州市,河北水利电力学院,,48,24,32,3,13,152,,108,108,6,15,6,7,0.1,0.2
2024-06-01T1300,2622A,97.1806,31.1273,昌都市,昌都监测站,,39,8,9,3,6,124,,83,83,5,13,8,8,0.6,0.6
2024-06-01T1300,3719A,97.1714,31.1406,昌都市,昌都会议中心,,37,7,8,3,4,117,,86,86,4,6,4,5,0.3,0.3
2024-06-01T1300,2690A,88.1236,43.8886,昌吉回族自治州,天山天池,,34,9,8,3,3,108,,87,87,5,5,5,4,0.4,0.4
2024-06-01T1300,2692A,87.2717,44.0297,昌吉回族自治州,新区政务中心,,35,22,24,11,14,112,,78,78,5,12,8,8,0.4,0.4
2024-06-01T1300,3613A,87.3095,44.0142,昌吉回族自治州,亚心广场,,37,22,31,3,5,118,,83,83,9,21,8,7,0.5,0.5
2024-06-01T1300,1119A,125.3325,43.9166,长春市,食品厂,,25,25,20,17,16,42,,38,38,20,26,6,7,0.4,0.4
2024-06-01T1300,1120A,125.2863,43.9027,长春市,客车厂,,18,16,23,12,14,43,,38,38,17,24,5,5,0.3,0.3
2024-06-01T1300,1121A,125.2841,43.8463,长春市,邮电学院,,18,18,19,11,10,47,,40,40,12,21,7,7,0.3,0.3
2024-06-01T1300,1122A,125.3716,43.8772,长春市,劳动公园,,20,20,22,12,9,50,,43,43,17,23,4,4,0.2,0.3
2024-06-01T1300,1123A,125.3297,43.8805,长春市,园林处,,20,19,18,14,14,41,,36,36,18,20,6,6,0.3,0.3
2024-06-01T1300,1124A,125.4605,43.79,长春市,净月潭,,30,30,17,15,7,42,,32,32,14,12,8,7,0.3,0.3
2024-06-01T1300,1126A,125.3863,43.8447,长春市,经开区环卫处,,23,23,21,12,10,50,,41,41,15,21,5,5,0.3,0.3
2024-06-01T1300,1127A,125.245,43.7783,长春市,高新区管委会,,17,17,20,10,10,52,,42,42,10,16,6,6,0.3,0.3
2024-06-01T1300,1128A,125.1761,43.8325,长春市,岱山公园,,19,14,15,10,10,59,,47,47,5,18,4,5,0.3,0.3
2024-06-01T1300,1335A,113.0833,28.2325,长沙市,经开区环保局,,21,17,30,9,19,65,,55,55,8,13,6,6,0.4,0.5
2024-06-01T1300,1336A,112.8872,28.2189,长沙市,高开区环保局,,26,24,42,18,29,73,,60,59,10,15,4,5,0.6,0.8
2024-06-01T1300,1337A,113.0792,28.2053,长沙市,马坡岭,,21,21,30,12,21,64,,58,58,4,8,7,7,0.5,0.6
2024-06-01T1300,1338A,112.9394,28.19,长沙市,湖南师范大学,,22,22,29,8,26,70,,61,61,5,9,4,4,0.7,0.7
2024-06-01T1300,1339A,113.0178,28.1322,长沙市,雨花区环保局,,25,25,33,14,21,50,,54,52,13,15,5,5,0.7,0.7
2024-06-01T1300,1340A,112.9792,28.2597,长沙市,伍家岭,,19,17,41,11,30,58,,45,45,5,12,5,5,0.5,0.6
2024-06-01T1300,1341A,113.0014,28.1944,长沙市,火车新站,,25,25,36,14,25,59,,51,51,12,15,3,3,0.6,0.7
2024-06-01T1300,1342A,112.9844,28.1178,长沙市,天心区环保局,,27,27,37,13,23,50,,51,51,14,17,2,2,0.8,0.8
2024-06-01T1300,1343A,112.8908,28.1308,长沙市,湖南中医药大学,,28,23,42,19,33,63,,58,58,3,10,6,6,0.8,0.9
2024-06-01T1300,1344A,112.9581,28.3611,长沙市,沙坪,,21,14,53,9,24,66,,54,54,5,8,7,7,0.7,0.8
2024-06-01T1300,1727A,113.1147,36.1547,长治市,清华站,臭氧1小时,63,31,38,3,7,170,,132,132,9,14,10,11,0.2,0.5
2024-06-01T1300,1728A,113.1031,36.1989,长治市,监测站,臭氧1小时,72,39,45,12,9,177,,127,127,13,19,5,7,0.4,0.6
2024-06-01T1300,1730A,113.0886,36.2125,长治市,审计局,臭氧1小时,75,37,36,9,8,180,,137,137,12,17,2,3,0.3,0.4
2024-06-01T1300,1731A,113.0844,36.1856,长治市,长治八中,臭氧1小时,73,33,45,13,13,178,,132,132,12,19,3,4,0.5,0.7
2024-06-01T1300,2845A,113.1569,36.1911,长治市,德盛苑,臭氧1小时,73,36,33,12,10,178,,137,137,7,11,8,9,0.6,0.8
2024-06-01T1300,3568A,113.06,36.0464,长治市,向阳小学,臭氧1小时,67,43,53,16,23,173,,137,137,9,14,10,11,0.4,0.5
2024-06-01T1300,3569A,112.8792,36.3144,长治市,屯留一中,臭氧1小时,74,42,40,3,9,179,,137,137,5,11,8,9,0.5,0.6
2024-06-01T1300,3570A,113.235,36.3489,长治市,潞城四中,臭氧1小时,95,54,58,25,14,196,,142,142,10,12,6,6,0.4,0.4
2024-06-01T1300,1854A,111.6975,28.9703,常德市,市二中,,34,,22,10,15,107,,97,97,4,8,7,8,0.5,0.6
2024-06-01T1300,3138A,111.7153,29.0289,常德市,武陵区永安,,33,14,24,12,18,103,,99,95,4,6,7,7,0.4,0.4
2024-06-01T1300,3139A,111.6892,28.9881,常德市,鼎城区玉霞,,34,15,23,10,16,107,,103,100,3,5,6,6,0.5,0.5
2024-06-01T1300,3140A,111.6625,29.0531,常德市,武陵区长庚,,34,17,25,10,15,107,,95,95,4,6,8,8,0.5,0.5
2024-06-01T1300,1196A,119.9633,31.762,常州市,市监测站,臭氧1小时,74,43,78,31,45,179,,108,108,16,29,4,10,0.7,0.9
2024-06-01T1300,1200A,119.9468,31.7069,常州市,武进监测站,臭氧1小时,75,50,79,35,43,180,,104,104,28,22,9,10,0.7,0.9
2024-06-01T1300,1201A,119.9255,31.9087,常州市,安家,臭氧1小时,52,37,89,22,49,161,,103,103,8,27,9,11,0.5,0.9
2024-06-01T1300,3002A,119.9805,31.8174,常州市,行政中心,臭氧1小时,53,34,81,27,40,162,,101,101,5,19,9,11,0.6,0.9
2024-06-01T1300,3003A,120.0522,31.7748,常州市,经开区,臭氧1小时,72,30,51,26,42,177,,103,103,16,29,8,14,0.7,0.8
2024-06-01T1300,3010A,119.9025,31.7964,常州市,钟楼,臭氧1小时,63,26,46,20,38,170,,99,99,8,23,9,11,0.7,1.1
2024-06-01T1300,3429A,119.8598,31.7066,常州市,武进经发区,臭氧1小时,88,39,58,25,31,190,,100,100,15,25,12,13,0.7,1
2024-06-01T1300,3430A,119.5826,31.7245,常州市,金坛城区,臭氧1小时,78,32,34,23,26,182,,108,108,9,20,9,9,0.6,1
2024-06-01T1300,2220A,120.4318,41.5881,朝阳市,西梁,,32,11,20,7,8,101,,69,69,4,16,8,9,0.3,0.4
2024-06-01T1300,2221A,120.4521,41.5646,朝阳市,河畔小区,,34,15,17,8,7,106,,75,75,7,14,8,9,0.3,0.3
2024-06-01T1300,2222A,120.4176,41.5648,朝阳市,八里堡,,33,18,25,9,9,105,,70,70,5,18,6,8,0.5,0.6
2024-06-01T1300,2223A,120.3806,41.5969,朝阳市,农业园区,,35,13,18,12,10,111,,72,72,4,14,6,7,0.4,0.4
2024-06-01T1300,1705A,116.6367,23.6719,潮州市,西园路,,27,,15,15,13,84,,50,50,6,9,1,1,0.3,0.3
2024-06-01T1300,3026A,116.6183,23.6608,潮州市,市政府,,27,27,21,8,9,84,,52,52,4,10,4,4,0.7,0.4
2024-06-01T1300,4036A,116.6461,23.6761,潮州市,金山,,30,28,19,19,9,95,,57,57,4,8,6,6,0.6,0.6
2024-06-01T1300,2472A,113.0073,25.9061,郴州市,马头岭,,17,13,22,3,8,53,,69,56,5,6,3,3,0.8,0.7
2024-06-01T1300,2473A,113.0116,25.8226,郴州市,市职中,,16,7,18,7,15,51,,66,52,5,6,4,5,0.9,0.8
2024-06-01T1300,2474A,113.0161,25.8001,郴州市,兴隆步行街,,25,25,22,12,15,48,,68,53,8,7,6,6,1.0,0.8
2024-06-01T1300,2475A,113.0383,25.8071,郴州市,市审计局,,18,16,18,12,15,50,,64,52,8,7,2,2,0.9,0.8
2024-06-01T1300,2476A,113.0348,25.7759,郴州市,市环保局,,20,16,21,14,17,46,,59,47,10,9,3,3,0.9,0.7
2024-06-01T1300,1431A,103.9728,30.7236,成都市,金泉两河,颗粒物(PM10),52,53,53,23,20,79,,95,58,20,13,2,2,0.4,0.4
2024-06-01T1300,1432A,104.176,30.6872,成都市,十里店,颗粒物(PM10),61,71,53,19,21,75,,90,65,40,23,4,4,0.7,0.5
2024-06-01T1300,1433A,104.079,30.5706,成都市,三瓦窑,颗粒物(PM10),60,69,54,42,22,78,,102,74,34,20,4,2,0.4,0.2
2024-06-01T1300,1434A,104.1114,30.63,成都市,沙河铺,颗粒物(PM10),60,69,50,28,17,72,,77,56,37,22,7,7,0.5,0.4
2024-06-01T1300,1437A,104.0786,30.6531,成都市,君平街,颗粒物(PM10),57,63,59,13,19,87,,114,85,30,16,6,5,0.6,0.4
2024-06-01T1300,2880A,104.0239,30.65639,成都市,大石西路,颗粒物(PM10),59,68,50,24,17,89,,109,76,34,18,5,4,0.5,0.4
2024-06-01T1300,3136A,104.2725,30.5589,成都市,龙泉驿区区政府,,41,41,40,19,15,104,,90,88,20,13,4,3,0.4,0.4
2024-06-01T1300,3357A,104.0106,30.6931,成都市,金博路,,42,42,55,6,21,92,,97,67,16,12,2,2,0.4,0.3
2024-06-01T1300,3359A,104.0578,30.5225,成都市,华阳,颗粒物(PM10),60,70,43,34,23,81,,114,86,36,13,3,2,0.6,0.5
2024-06-01T1300,3487A,104.2394,30.5319,成都市,车城东七路,颗粒物(PM10),56,62,52,33,23,101,,102,93,22,14,3,3,0.5,0.4
2024-06-01T1300,3488A,104.3853,30.7453,成都市,青白江技师分院,颗粒物(PM10),54,58,46,10,16,77,,54,53,34,27,4,4,0.6,0.5
2024-06-01T1300,3489A,104.0789,30.4072,成都市,科学城,颗粒物(PM10),56,62,49,34,20,108,,122,96,20,11,3,3,0.4,0.3
2024-06-01T1300,4011A,103.8506,30.6947,成都市,光华大道三段,,47,47,51,10,17,109,,120,90,10,9,1,2,0.6,0.5
2024-06-01T1300,1062A,117.9531,40.9081,承德市,铁路,,33,13,18,3,6,103,,50,50,7,14,33,12,0.3,0.2
2024-06-01T1300,1063A,117.9392,40.9763,承德市,中国银行,,33,16,17,8,6,104,,57,57,7,17,16,10,0.3,0.2
2024-06-01T1300,1064A,117.9503,40.928,承德市,开发区,,33,25,26,8,11,105,,50,50,9,18,28,11,0.3,0.3
2024-06-01T1300,1065A,117.8051,40.9655,承德市,文化中心,,33,,40,3,8,104,,49,49,4,27,21,24,0.3,0.4
2024-06-01T1300,1066A,117.9268,41.0026,承德市,离宫,,31,10,12,3,9,99,,54,54,5,12,6,3,0.3,0.2
2024-06-01T1300,2314A,117.47,30.6618,池州市,池州学院,,35,17,20,8,14,111,,66,66,7,14,6,6,0.3,0.6
2024-06-01T1300,3237A,117.4918,30.6617,池州市,展览馆,,35,17,16,10,11,112,,68,68,6,11,4,4,0.4,0.7
2024-06-01T1300,3333A,117.5627,30.695,池州市,第八中学,,35,13,17,8,12,111,,69,69,4,10,4,4,0.5,0.9
2024-06-01T1300,3334A,117.5038,30.6243,池州市,第十二中学,,37,15,20,12,16,116,,,,7,13,4,4,0.4,0.8
2024-06-01T1300,1744A,118.9233,42.2816,赤峰市,松山一中,,28,20,14,7,5,88,,70,70,16,17,8,8,0.5,0.4
2024-06-01T1300,1745A,118.9576,42.2728,赤峰市,哈达街,,28,,15,16,9,87,,63,63,16,19,8,7,0.4,0.4
2024-06-01T1300,1746A,118.8788,42.2554,赤峰市,天义路,,30,20,16,8,7,93,,74,74,17,17,6,6,0.2,0.2
2024-06-01T1300,3058A,119.2658,42.0353,赤峰市,银河街,,31,23,24,10,15,98,,66,66,12,20,10,13,0.2,0.3
2024-06-01T1300,3286A,118.9359,42.3147,赤峰市,桥北物流园区,,43,,13,30,9,93,,74,74,17,16,7,6,0.2,0.4
2024-06-01T1300,2521A,107.3476,22.4136,崇左市,市环保局江州分局,,32,19,27,10,14,102,,55,55,4,9,6,6,0.4,0.5
2024-06-01T1300,2522A,107.3702,22.3707,崇左市,城南新区,,37,37,24,9,11,106,,63,63,3,8,5,6,0.6,0.6
2024-06-01T1300,2298A,118.3093,32.3153,滁州市,老年大学,,49,48,48,16,31,156,,124,124,10,14,11,13,0.4,0.5
2024-06-01T1300,2299A,118.3244,32.2786,滁州市,人大宾馆,,49,49,41,12,34,155,,122,122,12,17,6,6,0.5,0.7
2024-06-01T1300,3207A,118.3118,32.3038,滁州市,市政府原办公楼,,48,44,48,22,40,153,,122,122,10,15,6,8,0.5,0.7
2024-06-01T1300,3331A,118.3267,32.2634,滁州市,图书馆,,49,48,45,11,29,156,,122,122,10,16,7,8,0.8,1.1
2024-06-01T1300,2605A,101.5482,25.0441,楚雄彝族自治州,州环境监测站,,35,35,21,22,19,76,,81,71,7,6,5,5,0.6,0.6
2024-06-01T1300,2606A,101.538,25.0492,楚雄彝族自治州,市经济开发区,,30,30,24,19,18,70,,76,65,8,8,4,4,0.8,0.7
2024-06-01T1300,2548A,107.5277,31.2827,达州市,达州职业技术学院,颗粒物(PM10),51,51,49,19,19,47,,17,17,25,29,14,5,0.3,0.4
2024-06-01T1300,2549A,107.5086,31.2186,达州市,市环境监测站,颗粒物(PM10),54,57,56,24,23,39,,17,17,45,38,12,9,0.5,0.7
2024-06-01T1300,2550A,107.4988,31.2132,达州市,凤凰小区,颗粒物(PM10),53,56,56,24,26,55,,25,25,31,34,12,11,0.5,0.6
2024-06-01T1300,2551A,107.5082,31.1986,达州市,达县机关宾馆,颗粒物(PM10),54,58,59,20,26,43,,21,21,37,42,10,8,0.6,0.7
2024-06-01T1300,2552A,107.4644,31.2124,达州市,市政中心,颗粒物(PM10),57,63,58,27,25,37,,24,24,43,37,11,11,0.6,0.7
2024-06-01T1300,2614A,100.1542,25.7054,大理白族自治州,大理市环境监测站,颗粒物(PM10),53,56,37,25,17,98,,87,87,6,8,5,5,0.4,0.5
2024-06-01T1300,2615A,100.2171,25.5811,大理白族自治州,大理古城,,35,35,29,16,20,110,,72,72,6,12,7,6,0.7,0.7
2024-06-01T1300,1109A,121.612,38.9741,大连市,甘井子,,31,17,26,3,12,98,,80,80,9,13,8,7,0.4,0.4
2024-06-01T1300,1110A,121.565,38.9511,大连市,周水子,,30,18,28,3,12,93,,77,77,6,15,4,8,0.4,0.6
2024-06-01T1300,1111A,121.5637,38.8845,大连市,星海三站,,32,14,20,3,8,100,,92,91,3,8,6,7,0.3,0.4
2024-06-01T1300,1112A,121.6302,38.9117,大连市,青泥洼桥,,30,7,22,3,11,95,,76,76,9,19,8,9,0.4,0.6
2024-06-01T1300,1113A,121.6251,38.8638,大连市,傅家庄,,33,12,22,3,9,103,,93,92,7,12,8,8,0.4,0.5
2024-06-01T1300,1114A,121.5213,38.8661,大连市,七贤岭,,34,13,25,3,7,106,,89,89,7,11,4,6,0.4,0.4
2024-06-01T1300,1115A,121.2529,38.8061,大连市,旅顺,,33,6,15,3,10,105,,93,93,7,12,8,9,0.4,0.4
2024-06-01T1300,1116A,121.7485,39.1311,大连市,金州,,38,24,27,8,11,120,,83,83,10,11,9,8,0.9,0.7
2024-06-01T1300,1117A,121.7811,39.0496,大连市,开发区,,,,29,4,12,109,,83,83,12,16,10,9,0.5,0.5
2024-06-01T1300,1118A,121.9762,39.0631,大连市,双D港,,35,20,22,3,8,109,,91,91,10,12,8,9,0.4,0.5
2024-06-01T1300,1789A,124.81117,46.03138,大庆市,大同区,,26,24,20,18,17,69,,56,56,6,8,7,7,0.3,0.3
2024-06-01T1300,1790A,125.129,46.533,大庆市,龙凤区,,29,23,24,20,19,79,,50,50,9,15,5,5,0.3,0.3
2024-06-01T1300,1791A,124.902,46.408,大庆市,红岗区,,26,20,19,8,14,81,,60,60,4,8,8,9,0.2,0.2
2024-06-01T1300,1792A,125.153,46.586,大庆市,萨尔图区,,29,29,18,11,9,77,,54,54,9,12,6,5,0.2,0.2
2024-06-01T1300,1793A,124.9042,46.6215,大庆市,让胡路区,,36,36,23,10,13,83,,57,57,4,8,6,5,0.2,0.2
2024-06-01T1300,3481A,125.141,46.634,大庆市,萨区政府监测点,,26,24,16,8,8,81,,52,52,8,12,7,7,0.1,0.1
2024-06-01T1300,1723A,113.2994,40.0758,大同市,云冈宾馆,,42,36,27,3,11,134,,80,80,17,20,9,8,0.3,0.5
2024-06-01T1300,1724A,113.3444,40.0917,大同市,大同大学,,43,29,20,12,10,136,,84,84,10,17,9,12,0.6,0.4
2024-06-01T1300,1725A,113.2661,40.1269,大同市,安家小村,,41,30,42,13,13,129,,76,76,12,21,12,11,0.5,0.7
2024-06-01T1300,1726A,113.2711,40.0844,大同市,教育学院,,44,34,39,16,17,139,,78,78,15,28,11,11,0.6,1.1
2024-06-01T1300,3282A,113.3397,40.0597,大同市,大同市卫生学校,,43,20,24,10,11,137,,86,86,12,20,11,14,0.4,0.4
2024-06-01T1300,3565A,113.1367,40.1122,大同市,云冈站,,43,18,27,12,13,137,,78,78,8,19,10,12,0.3,0.4
2024-06-01T1300,3566A,113.1186,40.2556,大同市,图书馆,,44,,19,17,10,138,,81,81,8,13,8,7,0.4,0.4
2024-06-01T1300,3567A,113.5931,40.0461,大同市,区一中,,43,29,19,6,7,137,,100,100,9,11,7,6,0.3,0.3
2024-06-01T1300,3676A,113.2802,40.0995,大同市,第二人民医院,,41,31,37,8,14,131,,76,76,13,22,12,12,0.4,0.7
2024-06-01T1300,2269A,124.1069,50.4097,大兴安岭地区,科技局,,27,15,25,7,19,84,,68,68,3,6,4,3,0.2,0.2
2024-06-01T1300,3663A,124.1164,50.4278,大兴安岭地区,红旗社区,,29,,13,6,11,90,,68,68,2,8,4,4,0.4,0.4
2024-06-01T1300,1600A,124.3303,40.0625,丹东市,江湾东路,,35,18,18,3,12,110,,60,60,7,18,8,8,0.3,0.5
2024-06-01T1300,1601A,124.4256,40.1503,丹东市,临江后街,,34,11,12,3,6,106,,60,60,6,11,11,9,0.3,0.4
2024-06-01T1300,1602A,124.3933,40.1461,丹东市,元宝山,,29,27,19,8,7,91,,52,52,9,13,9,9,0.3,0.4
2024-06-01T1300,1603A,124.3633,40.1092,丹东市,民主桥,,31,20,21,6,9,99,,51,51,8,22,5,6,0.3,0.4
2024-06-01T1300,3541A,109.5726,19.5167,儋州市,第一中学子站,,20,15,19,9,15,61,,66,52,5,5,4,4,0.8,0.7
2024-06-01T1300,3542A,109.5567,19.5187,儋州市,东坡学校子站,,20,11,19,3,10,63,,66,53,3,4,4,4,0.7,0.7
2024-06-01T1300,2616A,98.5842,24.428,德宏傣族景颇族自治州,德宏州监测站,细颗粒物(PM2.5),53,53,57,37,39,101,,48,48,7,12,8,8,0.7,0.7
2024-06-01T1300,3677A,98.5881,24.4368,德宏傣族景颇族自治州,芒市人民政府综合楼,颗粒物(PM10),54,57,56,33,32,101,,43,43,8,12,6,8,0.6,0.7
2024-06-01T1300,1901A,104.4239,31.1208,德阳市,东山公园,颗粒物(PM10),59,68,64,18,18,69,,103,82,15,16,4,4,0.4,0.4
2024-06-01T1300,1902A,104.3826,31.1317,德阳市,西小区,颗粒物(PM10),57,63,63,23,24,67,,95,74,18,23,2,4,0.4,0.4
2024-06-01T1300,1904A,104.3553,31.1091,德阳市,耐火材料厂,颗粒物(PM10),56,61,60,20,22,75,,100,73,17,17,5,6,0.5,0.5
2024-06-01T1300,3639A,104.4019,31.1244,德阳市,市教育局,颗粒物(PM10),56,62,58,25,21,67,,96,71,17,20,4,5,0.4,0.4
2024-06-01T1300,1622A,116.3032,37.4674,德州市,儿童乐园,臭氧1小时,57,36,50,7,16,165,,104,104,8,17,9,10,0.5,0.5
2024-06-01T1300,1624A,116.2991,37.4451,德州市,监理站,臭氧1小时,59,31,42,7,14,167,,107,107,6,14,10,10,0.4,0.4
2024-06-01T1300,3066A,116.2721,37.4379,德州市,九衢泉纯净水厂,臭氧1小时,57,34,47,14,16,165,,100,100,11,21,7,7,0.4,0.4
2024-06-01T1300,3371A,116.3728,37.4403,德州市,开发区人民医院,臭氧1小时,57,39,48,7,13,165,,100,100,12,23,8,10,0.4,0.5
2024-06-01T1300,3372A,116.3572,37.4094,德州市,太阳城中学,臭氧1小时,59,34,40,3,19,167,,92,92,8,20,8,8,0.6,0.5
2024-06-01T1300,3511A,116.5652,37.3319,德州市,陵城艺术中心,,49,27,44,3,12,155,,108,108,6,15,6,8,0.4,0.5
2024-06-01T1300,2621A,99.7056,27.8317,迪庆藏族自治州,迪庆州站,,33,22,20,6,9,104,,96,96,8,9,8,8,0.4,0.4
2024-06-01T1300,3180A,99.7136,27.8094,迪庆藏族自治州,质量技术监督局,,33,25,21,8,7,103,,97,95,7,9,7,8,0.5,0.5
2024-06-01T1300,2663A,104.6241,35.5734,定西市,东关小学,,49,49,90,26,31,120,,81,81,8,16,5,6,0.2,0.3
2024-06-01T1300,2664A,104.6194,35.5934,定西市,供电公司,,41,41,81,24,31,119,,80,80,6,21,2,2,0.2,0.3
2024-06-01T1300,1389A,113.7547,23.0494,东莞市,莞城梨川,,30,9,16,3,8,94,,61,61,7,18,5,5,0.8,0.8
2024-06-01T1300,1390A,113.7944,23.0128,东莞市,东城石井,,32,10,14,3,8,101,,61,61,4,18,5,5,0.7,0.7
2024-06-01T1300,1391A,113.7383,22.9658,东莞市,南城西平,,30,10,17,3,7,93,,71,71,3,15,4,4,0.6,0.7
2024-06-01T1300,3319A,113.7338,23.0381,东莞市,万江金泰,,31,10,15,3,10,97,,62,62,2,16,9,9,0.7,0.8
2024-06-01T1300,3626A,113.7533,23.0202,东莞市,南城元岭,,31,9,15,3,8,97,,62,62,2,15,6,6,0.6,0.7
2024-06-01T1300,3627A,113.7875,23.0457,东莞市,东城主山,,28,8,17,3,9,89,,54,54,1,18,8,8,0.7,0.7
2024-06-01T1300,1666A,118.6614,37.4309,东营市,市环保局,臭氧1小时,63,27,25,7,11,170,,116,116,13,16,10,18,0.2,0.2
2024-06-01T1300,3036A,118.6904,37.4338,东营市,开发区管委会,臭氧1小时,58,43,28,9,9,166,,111,111,12,18,6,12,0.4,0.4
2024-06-01T1300,3365A,118.5719,37.565,东营市,垦利区民丰路,,47,31,25,3,9,149,,102,102,9,20,12,13,0.3,0.4
2024-06-01T1300,3498A,118.5055,37.8612,东营市,河口城区,,44,24,28,7,11,140,,103,103,7,15,6,12,0.2,0.3
2024-06-01T1300,3646A,118.4978,37.4623,东营市,胜利站,臭氧1小时,52,22,30,3,11,161,,108,108,10,15,12,15,0.3,0.4
2024-06-01T1300,3734A,118.35,37.26,东营市,理想之城,,50,29,31,7,14,159,,107,107,14,21,14,24,0.3,0.4
2024-06-01T1300,1591A,110.0023,39.8129,鄂尔多斯市,综合楼,臭氧1小时,58,39,52,9,15,166,,112,112,9,23,10,16,0.4,0.5
2024-06-01T1300,1592A,109.9486,39.8261,鄂尔多斯市,巴音孟克林场办事处,,50,34,49,9,15,158,,108,108,8,25,9,14,0.5,0.6
2024-06-01T1300,1593A,109.7736,39.5986,鄂尔多斯市,康泽苑,臭氧1小时,63,41,41,19,14,170,,96,96,8,21,11,11,0.4,0.5
2024-06-01T1300,1594A,109.8119,39.5989,鄂尔多斯市,华泰汽车城,,50,39,47,14,16,157,,74,74,8,35,12,12,0.4,0.5
2024-06-01T1300,1595A,109.9734,39.7884,鄂尔多斯市,奥林花园,,47,34,47,17,18,150,,86,86,8,33,7,11,0.4,0.6
2024-06-01T1300,2436A,114.8938,30.3994,鄂州市,市政府,,35,33,39,15,16,110,,73,73,11,21,11,12,0.5,0.6
2024-06-01T1300,2437A,114.8989,30.3714,鄂州市,赵家坝,,36,21,33,13,19,115,,72,72,1,14,8,10,0.4,0.6
2024-06-01T1300,3654A,114.8094,30.4089,鄂州市,精准医疗中心,,37,37,48,16,20,113,,70,70,16,23,12,11,0.8,0.7
2024-06-01T1300,2454A,109.4978,30.2981,恩施土家族苗族自治州,湖北民院,,47,32,34,24,18,150,,70,70,2,15,8,8,0.5,0.6
2024-06-01T1300,2455A,109.4707,30.2798,恩施土家族苗族自治州,州电力总公司,,45,39,33,19,19,141,,57,57,12,18,8,8,0.6,0.8
2024-06-01T1300,3549A,109.5061,30.3772,恩施土家族苗族自治州,龙凤新区,,47,25,28,15,15,150,,83,83,7,15,6,7,0.6,0.6
2024-06-01T1300,2499A,108.3411,21.6158,防城港市,沙万,,31,31,16,9,7,97,,60,60,8,8,10,7,0.7,0.7
2024-06-01T1300,2500A,108.3514,21.7731,防城港市,防城档案局,,24,14,30,9,8,74,,56,56,7,14,6,4,0.6,0.7
2024-06-01T1300,2501A,108.3506,21.6414,防城港市,大海花园,,35,35,16,11,5,93,,59,59,4,4,6,6,0.6,0.6
2024-06-01T1300,1371A,113.1294,23.0067,佛山市,湾梁,,23,12,11,8,9,73,,62,62,12,18,6,6,0.6,0.6
2024-06-01T1300,1372A,113.1083,23.0478,佛山市,华材职中,,22,9,9,6,8,69,,61,61,10,17,8,8,0.4,0.4
2024-06-01T1300,1373A,113.144,23.0453,佛山市,南海气象局,,22,6,15,3,10,69,,59,59,12,17,5,5,0.6,0.5
2024-06-01T1300,1374A,113.2881,22.8094,佛山市,顺德苏岗,,,6,6,,1,76,,66,66,5,13,4,5,0.7,0.6
2024-06-01T1300,1376A,112.8383,22.8678,佛山市,高明孔堂,,18,8,9,6,8,55,,62,61,5,12,5,6,0.7,0.5
2024-06-01T1300,1377A,112.8836,23.1588,佛山市,三水监测站,,19,,9,3,8,58,,50,50,16,28,4,4,0.6,0.6
2024-06-01T1300,1378A,112.867,23.185,佛山市,三水云东海,,20,6,11,3,6,63,,55,55,17,27,4,4,0.7,0.6
2024-06-01T1300,3625A,113.2544,22.7642,佛山市,容桂街道办,,24,,11,7,6,76,,67,67,9,16,5,6,0.4,0.4
2024-06-01T1300,1282A,119.2681,26.0504,福州市,师大,,28,7,16,3,2,87,,82,82,10,8,3,3,0.3,0.3
2024-06-01T1300,1283A,119.2984,26.1028,福州市,五四北路,,27,13,20,9,6,84,,86,86,23,12,3,3,0.5,0.4
2024-06-01T1300,1284A,119.2648,26.0768,福州市,杨桥西路,,29,9,18,3,3,90,,85,85,15,13,3,3,0.4,0.3
2024-06-01T1300,1285A,119.317,26.0746,福州市,紫阳,,25,10,16,3,3,78,,76,75,15,10,2,2,0.5,0.4
2024-06-01T1300,3048A,119.5799,26.0936,福州市,九龙,,37,6,11,3,2,118,,106,105,1,3,4,4,0.2,0.3
2024-06-01T1300,3526A,119.5189,25.9664,福州市,吴航,,38,6,6,3,2,120,,101,101,2,2,4,4,0.4,0.5
2024-06-01T1300,1755A,123.7977,41.8491,抚顺市,望花区,,33,33,34,7,17,102,,52,52,12,23,7,5,0.2,0.4
2024-06-01T1300,1756A,123.9161,41.8822,抚顺市,顺城区,,34,23,37,3,18,106,,57,57,8,24,9,9,0.2,0.5
2024-06-01T1300,1757A,124.0436,41.8611,抚顺市,东洲区,,44,44,29,12,15,89,,54,54,17,12,12,7,0.3,0.4
2024-06-01T1300,1758A,123.9247,41.8642,抚顺市,新抚区,,30,29,27,8,15,93,,51,51,12,20,8,7,0.2,0.3
2024-06-01T1300,1759A,124.0972,41.8961,抚顺市,大伙房水库,,33,33,18,6,11,91,,54,54,11,12,8,7,0.1,0.3
2024-06-01T1300,1760A,123.7086,41.8391,抚顺市,沈抚新城,,32,26,28,6,15,102,,55,55,10,23,7,7,0.2,0.4
2024-06-01T1300,2376A,116.2127,28.0814,抚州市,桐源党溪,,29,23,22,3,8,92,,70,70,4,3,5,5,0.1,0.2
2024-06-01T1300,2377A,116.3544,27.9831,抚州市,市站,,27,16,18,3,8,84,,69,69,8,6,3,3,1.0,1
2024-06-01T1300,2378A,116.3565,27.963,抚州市,血防站,,25,20,25,3,9,79,,66,66,9,7,2,2,0.8,0.9
2024-06-01T1300,2379A,116.3564,28.0007,抚州市,采茶剧团,,27,8,15,3,9,84,,68,68,7,8,2,2,0.8,0.9
2024-06-01T1300,2380A,116.385,27.9647,抚州市,医学分院,,26,11,20,3,8,81,,70,70,8,5,3,6,0.8,0.9
2024-06-01T1300,2207A,121.6094,41.998,阜新市,工业园区,,35,33,24,9,9,110,,77,77,7,19,6,7,0.5,0.6
2024-06-01T1300,2208A,121.6697,42.0279,阜新市,长青街,,33,31,19,6,7,103,,70,70,8,16,5,6,0.3,0.4
2024-06-01T1300,2209A,121.6673,42.0705,阜新市,农业园区,,32,10,15,7,4,102,,69,69,9,14,6,6,0.4,0.3
2024-06-01T1300,2210A,121.6717,42.0224,阜新市,东苑,,34,23,21,6,6,106,,72,72,5,17,10,10,0.4,0.5
2024-06-01T1300,2211A,121.6506,42.0498,阜新市,玉龙新城,,32,17,27,8,8,100,,64,64,11,27,6,6,0.4,0.5
2024-06-01T1300,2301A,115.8277,32.8929,阜阳市,市监测站,颗粒物(PM10),71,92,66,25,32,154,,111,111,13,16,9,9,0.5,0.5
2024-06-01T1300,2303A,115.8554,32.8605,阜阳市,开发区,颗粒物(PM10),72,94,75,24,29,154,,109,109,16,17,8,6,0.4,0.4
2024-06-01T1300,2875A,115.784,32.8892,阜阳市,阜阳职业技术学院,颗粒物(PM10),67,84,68,19,29,154,,112,112,13,14,7,6,0.4,0.5
2024-06-01T1300,3468A,115.7901,32.8613,阜阳市,市规划展馆,颗粒物(PM10),67,84,67,28,28,153,,112,112,12,13,7,6,0.5,0.5
2024-06-01T1300,3469A,115.836,32.9183,阜阳市,枣园社区,颗粒物(PM10),63,75,61,20,27,156,,110,110,13,18,7,6,0.5,0.5
2024-06-01T1300,2669A,102.9099,34.9841,甘南藏族自治州,州政府,,32,20,31,18,19,100,,91,91,6,8,8,8,0.6,0.6
2024-06-01T1300,3380A,102.8914,34.9617,甘南藏族自治州,甘肃民族师范学院,,32,13,36,9,14,101,,88,88,5,9,8,8,0.4,0.4
2024-06-01T1300,2570A,101.9603,30.0475,甘孜藏族自治州,水桥子,,36,36,35,17,13,102,,86,77,2,8,3,3,0.2,0.3
2024-06-01T1300,3065A,101.9533,29.9972,甘孜藏族自治州,州环保局,,34,34,38,8,9,97,,73,70,8,14,2,2,0.2,0.2
2024-06-01T1300,3414A,115.8347,28.932,赣江新区,桑海产业园,,31,6,10,3,10,98,,96,96,6,10,8,8,0.4,0.4
2024-06-01T1300,2363A,114.9367,25.8664,赣州市,地委,,20,9,11,7,8,61,,59,56,4,4,15,11,0.8,0.9
2024-06-01T1300,2364A,114.9461,25.8481,赣州市,气象台,,18,,11,8,10,55,,56,51,12,9,12,10,0.5,0.5
2024-06-01T1300,2365A,114.9322,25.8333,赣州市,市图书馆,,19,13,14,11,9,59,,59,52,8,7,13,8,0.9,0.9
2024-06-01T1300,2366A,114.8905,25.8471,赣州市,华坚鞋城,,18,15,17,11,8,55,,57,49,7,8,2,1,0.4,0.5
2024-06-01T1300,3109A,115.0093,25.8613,赣州市,赣县区卫计委,,17,6,9,6,6,52,,53,47,7,7,5,5,0.8,0.8
2024-06-01T1300,2683A,106.2319,36.1417,固原市,马园,颗粒物(PM10),51,51,78,15,23,136,,66,66,5,44,4,5,0.5,0.6
2024-06-01T1300,2684A,106.2792,36.0022,固原市,监测站,,50,50,72,14,23,132,,94,94,10,19,5,5,0.4,0.4
2024-06-01T1300,2685A,106.2375,36.0211,固原市,新区,,43,36,58,11,19,137,,95,95,7,19,4,4,0.3,0.3
2024-06-01T1300,3522A,106.2177,35.9959,固原市,原州区十五小,,44,36,68,13,22,138,,110,110,5,13,4,5,0.6,0.6
2024-06-01T1300,2544A,106.6303,30.4576,广安市,市委,颗粒物(PM10),63,76,64,34,28,57,,32,32,26,31,9,8,0.8,0.7
2024-06-01T1300,2545A,106.6271,30.4663,广安市,友谊中学,颗粒物(PM10),54,57,48,31,24,56,,,,31,28,8,7,0.8,0.7
2024-06-01T1300,2547A,106.6388,30.4551,广安市,广电花园,颗粒物(PM10),60,70,55,34,26,59,,32,32,24,25,9,9,0.8,0.7
2024-06-01T1300,2902A,106.6351,30.4865,广安市,北辰小学,颗粒物(PM10),63,76,58,30,23,68,,33,29,23,20,10,9,0.6,0.6
2024-06-01T1300,2523A,105.8945,32.4535,广元市,黑石坡,,35,35,37,22,17,24,,30,15,30,20,9,9,0.8,0.4
2024-06-01T1300,2524A,105.821,32.4444,广元市,老城,,38,38,57,21,21,59,,28,28,20,26,6,7,0.5,0.4
2024-06-01T1300,2526A,105.8628,32.4287,广元市,监测站,,31,31,42,17,18,58,,27,27,16,21,7,8,0.6,0.5
2024-06-01T1300,3617A,105.8047,32.4166,广元市,经开区,,,45,68,20,27,78,,34,34,,22,7,9,0.5,0.6
2024-06-01T1300,1345A,113.2347,23.1423,广州市,广雅中学,,24,10,14,7,9,76,,63,63,14,25,4,4,0.8,0.7
2024-06-01T1300,1346A,113.2612,23.105,广州市,市五中,,23,12,16,10,10,72,,59,59,11,21,3,4,0.6,0.6
2024-06-01T1300,1348A,113.3478,23.0916,广州市,广东商学院,,25,14,16,9,10,77,,62,62,12,27,3,4,0.5,0.5
2024-06-01T1300,1349A,113.4332,23.1047,广州市,市八十六中,,25,8,17,3,9,79,,49,49,10,27,3,4,0.8,0.8
2024-06-01T1300,1350A,113.3505,22.9483,广州市,番禺中学,,27,11,13,7,9,84,,75,75,8,17,5,5,0.6,0.5
2024-06-01T1300,1351A,113.2146,23.3916,广州市,花都师范,,24,10,14,8,9,75,,51,51,11,19,5,5,0.5,0.5
2024-06-01T1300,1352A,113.2597,23.1331,广州市,市监测站,,23,11,15,8,8,71,,58,58,13,23,4,5,0.5,0.5
2024-06-01T1300,1353A,113.5618,23.312,广州市,九龙镇镇龙,,24,14,14,7,8,75,,56,56,10,12,6,6,0.5,0.5
2024-06-01T1300,1354A,113.2765,23.1544,广州市,麓湖,,24,13,17,7,9,74,,62,62,10,21,3,3,0.6,0.6
2024-06-01T1300,1355A,113.443,23.3035,广州市,帽峰山森林公园,,24,,6,3,5,76,,64,64,11,13,6,6,0.5,0.5
2024-06-01T1300,2846A,113.3221,23.1322,广州市,体育西,,22,14,18,11,11,70,,56,56,11,22,3,3,0.6,0.5
2024-06-01T1300,3298A,113.5717,23.5491,广州市,从化街口,,28,10,11,6,6,87,,63,63,7,7,6,6,0.3,0.3
2024-06-01T1300,3299A,113.3472,23.3692,广州市,白云竹料,,25,8,13,6,7,78,,58,58,13,16,4,4,0.6,0.6
2024-06-01T1300,3300A,113.2981,23.237,广州市,白云嘉禾,,24,12,14,7,8,75,,60,60,19,24,5,5,0.8,0.7
2024-06-01T1300,3301A,113.4256,23.1716,广州市,黄埔科学城,,24,9,15,3,9,76,,51,51,10,19,6,6,0.6,0.7
2024-06-01T1300,3302A,113.3942,23.0483,广州市,番禺大学城,,21,12,18,3,7,66,,49,49,13,24,3,2,0.4,0.9
2024-06-01T1300,3303A,113.4922,22.8168,广州市,南沙黄阁,,26,20,13,6,7,81,,75,75,8,13,6,6,0.7,0.7
2024-06-01T1300,3304A,113.5342,22.7896,广州市,南沙街,,25,8,13,3,6,78,,70,70,6,14,7,6,1.1,0.7
2024-06-01T1300,3443A,113.2902,23.5544,广州市,花都梯面,,26,9,11,3,4,83,,68,68,8,9,3,3,0.6,0.5
2024-06-01T1300,3445A,113.7858,23.7478,广州市,从化良口,,23,8,8,3,5,71,,60,60,4,5,4,4,0.6,0.6
2024-06-01T1300,3446A,113.8051,23.2614,广州市,增城荔城,,31,12,13,6,6,98,,69,69,7,9,4,5,0.4,0.4
2024-06-01T1300,2506A,109.6047,23.0666,贵港市,江南子站,,30,29,15,19,11,95,,71,71,10,9,6,6,0.7,0.7
2024-06-01T1300,2507A,109.6014,23.0948,贵港市,贵城子站,,31,31,19,19,7,82,,64,64,6,8,7,7,0.5,0.6
2024-06-01T1300,2508A,109.5669,23.1065,贵港市,荷城子站,,25,17,15,7,6,80,,64,64,5,5,9,9,0.5,0.5
2024-06-01T1300,3405A,109.5886,23.1172,贵港市,新世纪学校,,27,22,17,13,11,85,,67,67,3,4,8,8,0.7,0.8
2024-06-01T1300,1439A,106.6899,26.5998,贵阳市,马鞍山,,,22,21,9,10,101,,59,59,,10,6,6,0.4,0.4
2024-06-01T1300,1440A,106.6971,26.5694,贵阳市,市环保站,,39,,30,27,23,111,,81,81,8,25,4,5,0.3,0.4
2024-06-01T1300,1441A,106.6243,26.6266,贵阳市,鉴湖路,颗粒物(PM10),51,51,28,24,13,90,,71,71,7,9,3,3,0.4,0.4
2024-06-01T1300,1442A,106.7487,26.6343,贵阳市,燕子冲,,33,19,19,9,14,105,,70,70,5,10,6,6,0.5,0.5
2024-06-01T1300,1443A,106.6555,26.4365,贵阳市,碧云窝,,41,41,33,19,11,123,,86,86,6,13,4,5,0.5,0.5
2024-06-01T1300,1444A,106.694,26.5161,贵阳市,中院村,,36,36,30,14,13,115,,83,83,6,11,6,7,0.5,0.5
2024-06-01T1300,1445A,106.7109,26.6027,贵阳市,红边门,,34,31,30,19,21,107,,72,72,9,17,4,5,0.4,0.5
2024-06-01T1300,1446A,106.7164,26.5699,贵阳市,新华路,,35,22,27,19,17,109,,81,81,6,12,4,7,0.4,0.4
2024-06-01T1300,1447A,106.674,26.5424,贵阳市,太慈桥,,34,24,26,12,12,108,,71,71,7,18,6,6,0.4,0.4
2024-06-01T1300,1862A,110.4144,25.3167,桂林市,电子科大尧山校区,,31,8,17,8,10,98,,88,88,4,5,4,4,0.8,0.6
2024-06-01T1300,1863A,110.2819,25.2697,桂林市,监测站,,29,13,18,11,12,91,,79,79,7,7,5,5,1.0,0.9
2024-06-01T1300,1864A,110.3089,25.2708,桂林市,龙隐路小学,,,,18,,12,89,,79,79,2,6,6,6,0.7,0.7
2024-06-01T1300,1865A,110.2869,25.2178,桂林市,八中,,29,15,18,8,10,90,,78,78,7,6,6,5,0.8,0.8
2024-06-01T1300,3403A,110.1764,25.2381,桂林市,创业大厦,,30,7,16,3,10,95,,84,84,4,7,7,12,0.6,0.5
2024-06-01T1300,3531A,110.296,25.1253,桂林市,旅游学院,,30,6,11,3,8,96,,79,79,4,5,7,6,0.7,0.6
2024-06-01T1300,2674A,100.2561,34.4714,果洛藏族自治州,玛沁县大武镇,,30,6,10,6,10,96,,80,80,3,3,14,11,0.5,0.4
2024-06-01T1300,1129A,126.5422,45.755,哈尔滨市,岭北,,22,7,12,6,10,70,,58,58,7,13,7,4,0.5,0.8
2024-06-01T1300,1130A,126.561,45.8167,哈尔滨市,松北商大,,19,8,12,6,7,59,,42,42,3,12,5,5,0.4,0.4
2024-06-01T1300,1131A,126.979,45.5419,哈尔滨市,阿城会宁,,14,14,8,9,6,37,,37,36,8,6,8,9,0.3,0.3
2024-06-01T1300,1132A,126.599,45.7222,哈尔滨市,南岗学府路,,29,29,22,9,7,49,,38,36,21,18,8,7,0.6,0.6
2024-06-01T1300,1133A,126.689,45.7733,哈尔滨市,太平宏伟公园,,26,26,16,7,20,59,,44,44,15,19,6,5,0.3,0.3
2024-06-01T1300,1134A,126.635,45.7667,哈尔滨市,道外承德广场,,21,21,16,14,7,59,,43,43,15,15,6,6,0.2,0.3
2024-06-01T1300,1135A,126.685,45.7319,哈尔滨市,香坊红旗大街,,17,14,13,11,11,53,,42,39,18,19,6,5,0.5,0.5
2024-06-01T1300,1136A,126.6411,45.7258,哈尔滨市,动力和平路,,32,,15,22,14,51,,39,35,18,18,7,6,0.5,0.5
2024-06-01T1300,1137A,126.593,45.7478,哈尔滨市,道里建国路,,28,28,14,18,10,47,,41,41,26,16,6,6,0.8,0.4
2024-06-01T1300,1138A,126.615,45.61,哈尔滨市,平房东轻厂,,16,15,19,11,9,40,,34,34,15,22,7,6,0.3,0.3
2024-06-01T1300,1139A,126.595,45.9855,哈尔滨市,呼兰师专,,26,20,16,18,13,59,,46,46,12,15,5,5,0.3,0.3
2024-06-01T1300,1140A,126.6206,45.6842,哈尔滨市,省农科院,,25,22,14,17,13,46,,40,38,20,20,6,5,0.5,0.5
2024-06-01T1300,2688A,93.5128,42.8172,哈密市,地区监测站,,38,18,44,12,15,121,,100,100,6,13,6,3,0.3,0.2
2024-06-01T1300,2689A,93.4961,42.8328,哈密市,哈密师范学校,,35,33,41,17,13,112,,93,93,8,14,8,5,0.2,0.1
2024-06-01T1300,2671A,100.9048,36.9639,海北藏族自治州,海晏县西海镇,颗粒物(PM10),53,55,52,22,24,134,,98,98,7,12,13,16,0.4,0.5
2024-06-01T1300,3867A,102.0738,36.5056,海东市,平安区公安北苑,颗粒物(PM10),53,56,56,26,25,125,,74,74,8,13,8,7,0.4,0.3
2024-06-01T1300,1410A,110.3232,20.0574,海口市,海南大学,,21,15,14,11,8,65,,66,56,14,9,4,4,0.5,0.5
2024-06-01T1300,1411A,110.283,20.0053,海口市,秀英海南医院,,20,17,13,14,11,60,,56,46,12,10,6,6,0.5,0.5
2024-06-01T1300,1412A,110.338,19.9969,海口市,海南师范大学,,20,15,9,12,9,63,,60,49,15,12,6,6,0.6,0.6
2024-06-01T1300,1413A,110.33,20.0356,海口市,龙华路环保局宿舍,,21,14,10,10,8,65,,62,51,14,11,6,6,0.5,0.5
2024-06-01T1300,3539A,110.5111,19.9736,海口市,桂林洋子站,,20,13,14,8,7,61,,64,53,8,8,5,5,0.5,0.4
2024-06-01T1300,2673A,100.6188,36.2866,海南藏族自治州,共和县恰卜恰镇,,36,32,37,23,23,113,,87,87,5,13,11,13,0.4,0.5
2024-06-01T1300,2676A,97.3731,37.3753,海西蒙古族藏族自治州,德令哈市,,37,21,24,12,14,117,,114,108,8,10,13,16,0.7,0.6
2024-06-01T1300,1048A,114.5302,36.6116,邯郸市,东污水处理厂,,46,19,29,14,15,147,,96,96,4,24,7,7,0.3,0.3
2024-06-01T1300,1049A,114.4918,36.5713,邯郸市,矿院,,44,17,33,7,8,140,,98,98,6,19,4,5,0.3,0.2
2024-06-01T1300,1050A,114.484,36.6133,邯郸市,丛台公园,,46,28,38,7,10,146,,99,99,4,15,3,3,0.2,0.3
2024-06-01T1300,3458A,114.7895,36.5593,邯郸市,香泉濮院小区,,48,19,44,10,9,153,,116,116,2,11,7,7,0.2,0.2
2024-06-01T1300,3579A,114.50634,36.77178,邯郸市,永年区实验高中,臭氧1小时,77,24,46,20,14,181,,121,121,3,13,7,6,0.3,0.4
2024-06-01T1300,3580A,114.20016,36.44293,邯郸市,峰峰矿区临水派出所,,49,32,43,7,7,154,,125,125,3,7,3,3,0.1,0.2
2024-06-01T1300,2634A,106.9893,33.1842,汉中市,汉川机床厂子校,颗粒物(PM10),54,57,53,32,25,44,,29,29,14,17,6,6,0.8,1.1
2024-06-01T1300,2635A,107.0154,33.0706,汉中市,市监测站,颗粒物(PM10),65,80,82,43,37,50,,24,24,23,24,16,11,1.1,1.1
2024-06-01T1300,2636A,107.0089,33.1138,汉中市,鑫源开发区,颗粒物(PM10),65,79,73,39,33,50,,28,28,24,28,22,15,1.1,1
2024-06-01T1300,2637A,107.007,33.0323,汉中市,南郑大河坎水厂,颗粒物(PM10),67,84,72,44,37,32,,21,21,25,17,12,9,1.0,0.8
2024-06-01T1300,1223A,120.2072,30.2111,杭州市,滨江,,31,9,10,6,7,98,,86,82,13,13,4,4,0.4,0.6
2024-06-01T1300,1224A,120.0633,30.2747,杭州市,西溪,,34,11,10,6,7,107,,78,78,10,15,6,6,0.5,0.6
2024-06-01T1300,1226A,120.3461,30.3153,杭州市,下沙,,40,15,18,7,9,127,,102,102,10,17,7,6,0.5,0.6
2024-06-01T1300,1227A,120.1269,30.2456,杭州市,卧龙桥,,28,11,12,3,6,89,,67,67,8,11,4,4,0.4,0.5
2024-06-01T1300,1228A,120.1903,30.2692,杭州市,浙江农大,,32,9,10,7,8,100,,81,81,4,5,5,6,0.3,0.4
2024-06-01T1300,1230A,120.1197,30.3119,杭州市,和睦小学,,36,8,10,6,8,115,,90,90,9,16,4,4,0.5,0.6
2024-06-01T1300,1231A,120.3019,30.4183,杭州市,临平镇,,38,14,16,6,13,121,,96,96,15,20,4,4,0.4,0.6
2024-06-01T1300,1232A,120.2697,30.1819,杭州市,城厢镇,,34,7,12,3,8,107,,87,87,11,16,5,5,0.5,0.6
2024-06-01T1300,1233A,120.0883,30.1808,杭州市,云栖,,29,,8,9,8,92,,82,76,9,12,8,8,0.5,0.5
2024-06-01T1300,3557A,119.9464,30.0494,杭州市,镇二中,,32,,12,12,11,100,,90,90,20,20,8,7,0.4,0.5
2024-06-01T1300,3558A,119.7183,30.2367,杭州市,市府大楼,,38,9,10,6,7,120,,91,91,11,15,6,6,0.4,0.5
2024-06-01T1300,3656A,120.1556,30.2864,杭州市,消防大队,,35,,7,6,8,112,,89,89,12,17,5,5,0.5,0.6
2024-06-01T1300,1270A,117.1959,31.7848,合肥市,明珠广场,臭氧1小时,78,78,48,46,34,182,,114,114,20,21,10,9,0.7,0.6
2024-06-01T1300,1271A,117.3072,31.8764,合肥市,三里街,颗粒物(PM10),52,53,55,29,28,148,,100,100,14,23,5,5,0.6,0.6
2024-06-01T1300,1272A,117.2588,31.8707,合肥市,琥珀山庄,颗粒物(PM10),57,63,41,29,26,164,,116,116,12,14,6,6,0.7,0.7
2024-06-01T1300,1273A,117.1604,31.9052,合肥市,董铺水库,臭氧1小时,78,70,45,46,32,182,,124,124,11,12,2,2,0.5,0.5
2024-06-01T1300,1274A,117.25,31.8571,合肥市,长江中路,臭氧1小时,65,73,51,39,32,172,,116,116,11,15,7,7,0.9,0.8
2024-06-01T1300,1275A,117.266,31.9436,合肥市,庐阳区,颗粒物(PM10),59,68,56,34,32,155,,111,111,16,22,8,8,0.8,0.9
2024-06-01T1300,1276A,117.336,31.8586,合肥市,瑶海区,颗粒物(PM10),58,66,45,24,27,157,,108,108,11,17,8,8,0.7,0.8
2024-06-01T1300,1277A,117.3027,31.7964,合肥市,包河区,颗粒物(PM10),59,68,40,36,25,166,,92,92,16,21,5,5,0.7,0.6
2024-06-01T1300,1278A,117.2776,31.7385,合肥市,滨湖新区,颗粒物(PM10),58,66,35,39,29,164,,110,110,14,12,7,6,0.8,0.7
2024-06-01T1300,1279A,117.1318,31.8403,合肥市,高新区,臭氧1小时,65,73,45,39,31,172,,117,117,15,16,8,8,0.8,0.8
2024-06-01T1300,3464A,117.3803,31.9147,合肥市,高教基地,颗粒物(PM10),55,59,46,18,23,138,,100,100,10,13,6,6,0.4,0.5
2024-06-01T1300,3614A,79.924,37.0877,和田地区,地区环保局,颗粒物(PM10),142,234,72,52,19,106,,86,86,7,6,12,7,0.5,0.5
2024-06-01T1300,3615A,79.9131,37.113,和田地区,市环保局,颗粒物(PM10),151,252,82,37,20,108,,80,80,10,16,9,6,0.5,0.5
2024-06-01T1300,2516A,108.2011,24.715,河池市,东仁乐园,,45,45,38,24,41,103,,62,62,3,9,4,3,0.5,0.5
2024-06-01T1300,2517A,108.0497,24.6947,河池市,市环保站,,36,29,24,20,12,114,,71,71,6,10,8,8,0.5,0.5
2024-06-01T1300,2518A,108.0983,24.6989,河池市,市疾控中心,,35,30,27,17,13,112,,65,65,8,15,6,7,0.5,0.5
2024-06-01T1300,1697A,114.6944,23.7586,河源市,东埔,,39,39,16,7,7,65,,39,39,12,12,6,6,0.6,0.6
2024-06-01T1300,1698A,114.6892,23.7233,河源市,老城,,26,26,14,8,7,64,,34,34,7,10,4,7,0.5,0.6
2024-06-01T1300,1718A,115.4208,35.2464,菏泽市,气象局,,48,48,71,12,17,145,,113,113,13,20,4,7,0.3,0.4
2024-06-01T1300,1719A,115.4747,35.2375,菏泽市,市政协,,,58,74,22,22,143,,108,108,10,16,5,6,,0.2
2024-06-01T1300,3374A,115.5564,35.0891,菏泽市,定陶老年大学,颗粒物(PM10),51,51,82,7,15,141,,108,108,10,18,5,9,0,0
2024-06-01T1300,3647A,115.4702,35.2706,菏泽市,菏泽医专,,48,47,75,3,12,152,,112,112,9,18,5,6,0.2,0.3
2024-06-01T1300,2514A,111.5264,24.4172,贺州市,环保小区,,24,23,20,10,11,74,,65,65,7,9,6,6,0.6,0.6
2024-06-01T1300,2515A,111.5608,24.4078,贺州市,政协大楼,,23,16,23,8,13,71,,63,63,8,9,6,6,0.7,0.6
2024-06-01T1300,3534A,111.4744,24.4553,贺州市,西湾,,24,15,18,7,10,75,,64,64,8,9,7,7,0.7,0.6
2024-06-01T1300,2385A,114.17,35.9019,鹤壁市,市监测站,,48,29,55,19,27,151,,118,118,9,19,9,9,0.4,0.4
2024-06-01T1300,2386A,114.2956,35.7511,鹤壁市,市交警支队,,49,39,53,9,19,156,,106,106,8,22,8,9,0.3,0.4
2024-06-01T1300,2387A,114.2878,35.7306,鹤壁市,迎宾馆,臭氧1小时,53,38,50,24,23,162,,108,108,7,19,9,9,0.3,0.4
2024-06-01T1300,3474A,114.2617,35.6822,鹤壁市,大新区,臭氧1小时,53,51,56,13,12,162,,107,107,11,22,7,6,0.3,0.3
2024-06-01T1300,3596A,114.1572,35.9603,鹤壁市,南山宾馆,,49,32,51,9,17,156,,127,127,3,11,5,6,0.3,0.4
2024-06-01T1300,2244A,130.2537,47.3416,鹤岗市,哈啤分公司,,19,7,18,6,9,60,,50,50,5,7,10,11,0.3,0.3
2024-06-01T1300,2245A,130.2684,47.3086,鹤岗市,斯达机电,,17,10,18,3,10,54,,45,45,8,9,10,10,0.4,0.4
2024-06-01T1300,2246A,130.3114,47.3388,鹤岗市,东山纸板厂,,17,11,20,7,12,54,,46,46,8,11,13,13,0.3,0.3
2024-06-01T1300,2247A,130.1097,47.3382,鹤岗市,五号水库,,23,23,18,3,7,58,,49,49,5,6,9,9,0.1,0.3
2024-06-01T1300,2263A,127.4833,50.2524,黑河市,交通局,,28,14,30,11,16,88,,63,63,4,12,6,5,0.3,0.3
2024-06-01T1300,2264A,127.5144,50.2341,黑河市,环保局,,28,14,29,12,14,88,,66,66,4,13,4,4,0.2,0.3
2024-06-01T1300,2265A,127.5291,50.2472,黑河市,大黑河岛,,,37,56,17,14,,,,,,,,,,
2024-06-01T1300,1074A,115.6838,37.7541,衡水市,电机北厂,,49,7,28,6,12,155,,112,112,6,12,4,4,0.3,0.2
2024-06-01T1300,1075A,115.6303,37.7316,衡水市,市监测站,,50,20,29,3,9,160,,116,116,6,13,4,4,0.3,0.4
2024-06-01T1300,3188A,115.6683,37.7217,衡水市,市城管局,,50,24,36,7,10,158,,120,120,9,16,4,4,0.3,0.3
2024-06-01T1300,3459A,115.5989,37.5491,衡水市,地表水厂,臭氧1小时,53,26,38,3,9,162,,104,104,5,22,4,4,0.3,0.3
2024-06-01T1300,2456A,112.5003,26.9167,衡阳市,原169医院,,20,16,26,12,15,62,,51,47,9,14,4,4,0.8,0.8
2024-06-01T1300,2457A,112.6194,26.9258,衡阳市,衡阳化工总厂,,23,13,33,8,22,73,,59,55,6,9,8,8,0.6,0.7
2024-06-01T1300,2458A,112.6211,26.8956,衡阳市,珠晖区环保局,,22,,30,12,18,68,,60,53,8,10,6,6,0.7,0.7
2024-06-01T1300,2459A,112.6197,26.8733,衡阳市,市委党校,,23,13,26,6,19,73,,71,63,7,10,9,9,0.7,0.8
2024-06-01T1300,2460A,112.6006,26.8919,衡阳市,市监测站,,29,25,28,20,21,77,,68,62,9,9,7,7,0.8,0.8
2024-06-01T1300,2461A,112.5664,26.9056,衡阳市,真空机电公司,,24,11,27,10,15,74,,64,61,6,8,6,7,0.7,0.7
2024-06-01T1300,3399A,112.6703,26.882,衡阳市,师范学院,,23,10,26,6,18,71,,70,61,8,10,7,7,0.7,0.8
2024-06-01T1300,2608A,103.3772,23.3993,红河哈尼族彝族自治州,污水处理厂,,24,19,32,9,21,76,,66,66,5,12,5,11,0.5,0.5
2024-06-01T1300,2609A,103.3861,23.35,红河哈尼族彝族自治州,监测站,,24,,29,9,20,76,,64,64,7,13,4,10,0.5,0.5
2024-06-01T1300,3038A,103.3758,23.368,红河哈尼族彝族自治州,州图书馆,,24,22,31,8,20,76,,66,66,6,10,3,9,0.4,0.4
2024-06-01T1300,1090A,111.6507,40.7517,呼和浩特市,呼市一监,,50,29,20,14,7,158,,99,99,9,21,11,8,0.5,0.4
2024-06-01T1300,1091A,111.6572,40.8033,呼和浩特市,小召,,45,34,15,17,6,142,,87,87,18,21,11,5,0.6,0.4
2024-06-01T1300,1094A,111.7516,40.8369,呼和浩特市,如意水处理厂,,45,38,17,16,6,141,,83,83,9,23,9,5,0.3,0.3
2024-06-01T1300,1095A,111.7276,40.8062,呼和浩特市,二十九中,,,28,23,13,5,149,,88,88,9,26,,2,0.4,0.3
2024-06-01T1300,1096A,111.5512,40.7866,呼和浩特市,工大金川校区,,45,30,22,14,6,144,,76,76,12,28,9,6,0.3,0.3
2024-06-01T1300,1097A,111.717,40.7612,呼和浩特市,化肥厂生活区,,47,42,31,14,6,150,,92,92,8,20,11,8,0.4,0.3
2024-06-01T1300,3698A,111.5968,40.8178,呼和浩特市,红旗小学,,48,39,19,15,6,152,,88,88,13,21,10,4,0.3,0.2
2024-06-01T1300,3699A,111.6518,40.8389,呼和浩特市,海东办,,47,36,19,20,7,148,,83,83,11,24,15,7,0.4,0.3
2024-06-01T1300,2192A,119.7594,49.2261,呼伦贝尔市,区环保局,,32,32,32,12,18,99,,71,71,6,12,3,4,0.2,0.3
2024-06-01T1300,3061A,119.7512,49.1577,呼伦贝尔市,国华电力东,,32,18,25,8,12,102,,79,79,3,6,4,4,0.3,0.3
2024-06-01T1300,1250A,120.0751,30.8669,湖州市,城西水厂,,42,15,12,8,7,133,,83,83,15,38,4,4,0.5,0.6
2024-06-01T1300,2873A,120.0875,30.8955,湖州市,仁皇山新区,,45,21,14,11,9,144,,98,98,15,29,6,5,0.5,0.6
2024-06-01T1300,2907A,120.1844,30.8596,湖州市,吴兴区站,,43,12,12,3,9,137,,101,101,8,20,4,4,0.4,0.6
2024-06-01T1300,3562A,120.4148,30.8538,湖州市,南浔区站,,44,25,21,9,18,140,,105,105,12,19,6,6,0.2,0.4
2024-06-01T1300,1607A,120.9092,40.7136,葫芦岛市,龙港区,,29,20,20,9,8,91,,70,70,10,20,9,12,0.4,0.4
2024-06-01T1300,1608A,120.8392,40.7514,葫芦岛市,化工街,,31,19,25,3,9,98,,70,70,16,18,10,25,0.6,0.7
2024-06-01T1300,1609A,120.8341,40.7073,葫芦岛市,新区,,30,18,23,3,13,96,,80,80,7,23,8,10,0.6,0.6
2024-06-01T1300,1610A,120.8695,40.7677,葫芦岛市,东城区,,35,26,24,3,9,111,,72,72,6,26,6,10,0.6,0.6
2024-06-01T1300,2482A,109.5981,27.5721,怀化市,林科所,,34,21,24,17,12,107,,109,109,2,3,5,6,0.5,0.5
2024-06-01T1300,2483A,109.9453,27.5444,怀化市,河西地税局,,27,26,31,13,18,84,,85,85,9,12,7,7,0.6,0.6
2024-06-01T1300,2484A,109.9781,27.5342,怀化市,市四医院,,31,31,33,18,24,88,,81,81,7,9,6,18,0.6,0.6
2024-06-01T1300,2485A,109.9972,27.5578,怀化市,监测楼,,28,26,36,13,22,87,,81,81,6,8,5,17,0.6,0.6
2024-06-01T1300,2486A,110.0394,27.583,怀化市,市委党校,,32,30,38,22,21,90,,80,80,6,9,7,27,0.7,0.7
2024-06-01T1300,1210A,119.036,33.5981,淮安市,钵池山,,39,22,45,9,20,123,,100,100,16,19,6,7,0.5,0.7
2024-06-01T1300,1211A,119.007,33.575,淮安市,北京南路,,39,22,50,10,22,122,,98,98,9,16,5,7,0.2,0.5
2024-06-01T1300,1212A,118.989,33.6067,淮安市,市监测站,,39,27,51,7,22,124,,98,98,12,18,6,8,0.4,0.6
2024-06-01T1300,1213A,119.135,33.5039,淮安市,楚州区监测站,,44,44,59,12,25,115,,98,96,14,16,8,9,0.4,0.5
2024-06-01T1300,1214A,119.0186,33.6297,淮安市,淮阴区监测站,,39,22,52,14,25,122,,95,95,14,20,6,8,0.4,0.5
2024-06-01T1300,3426A,118.8755,33.2894,淮安市,新华书店,,40,28,53,6,19,125,,104,97,9,18,5,7,0.4,0.5
2024-06-01T1300,2282A,116.8004,33.975,淮北市,监测站,,41,31,71,8,23,129,,107,107,12,16,5,7,0.4,0.7
2024-06-01T1300,2283A,116.8091,33.9007,淮北市,烈山区政府,,41,37,89,3,24,131,,113,113,3,9,4,6,0.3,0.5
2024-06-01T1300,3330A,116.8873,33.9836,淮北市,杜集区检察院,,42,41,88,3,25,133,,114,114,6,12,4,8,0.4,0.7
2024-06-01T1300,4017A,116.7923,33.9535,淮北市,市博物馆,,41,28,72,3,24,131,,112,112,3,9,5,6,0.5,0.8
2024-06-01T1300,2277A,116.8305,32.7727,淮南市,潘集区政府,颗粒物(PM10),59,68,63,23,29,157,,110,110,12,16,7,7,0.2,0.2
2024-06-01T1300,2278A,117.0067,32.6524,淮南市,师范学院,颗粒物(PM10),57,64,61,12,31,142,,108,108,8,11,8,8,0.2,0.2
2024-06-01T1300,2279A,116.8569,32.5951,淮南市,谢家集区政府,颗粒物(PM10),51,51,49,14,15,156,,116,116,8,13,6,6,0.2,0.2
2024-06-01T1300,2280A,116.8281,32.633,淮南市,八公山区政府,颗粒物(PM10),57,64,59,22,28,155,,113,113,8,13,4,3,0.3,0.4
2024-06-01T1300,2281A,116.6325,32.6201,淮南市,焦岗湖风景区管理处,,45,45,44,16,16,126,,87,87,15,20,10,6,0.3,0.3
2024-06-01T1300,2894A,117.0566,32.6531,淮南市,经济技术开发区消防队,颗粒物(PM10),52,53,53,20,22,152,,117,117,10,15,5,5,0.3,0.3
2024-06-01T1300,3329A,117.0108,32.5893,淮南市,山南新区,颗粒物(PM10),59,67,65,23,28,153,,117,117,10,16,6,7,0.3,0.4
2024-06-01T1300,2446A,114.9028,30.4742,黄冈市,职工中心,,40,25,44,18,30,125,,85,85,2,16,7,10,0.5,0.6
2024-06-01T1300,2929A,114.8858,30.4519,黄冈市,红卫路,,39,38,44,25,30,124,,86,86,12,21,9,11,0.6,0.7
2024-06-01T1300,3398A,114.9136,30.4445,黄冈市,市林业局,,38,34,41,24,30,119,,82,82,10,15,4,7,0.6,0.7
2024-06-01T1300,2672A,102.0199,35.5102,黄南藏族自治州,同仁县隆务镇,颗粒物(PM10),53,55,43,18,19,104,,83,83,2,4,9,10,0.6,0.6
2024-06-01T1300,2295A,118.2903,29.6963,黄山市,延安路89号,,37,18,16,3,5,118,,117,116,2,4,4,4,0.3,0.5
2024-06-01T1300,2296A,118.327,29.7178,黄山市,黄山东路89号,,36,9,11,7,4,114,,111,109,3,5,5,5,0.2,0.4
2024-06-01T1300,2297A,118.1371,30.2756,黄山市,黄山区政府5号楼,,27,18,13,9,6,85,,66,66,4,5,5,4,0.4,0.5
2024-06-01T1300,2423A,115.0601,30.2313,黄石市,沈家营,,40,40,34,14,16,101,,67,67,14,17,12,6,0.7,0.7
2024-06-01T1300,2424A,115.0817,30.2006,黄石市,陈家湾,,40,38,31,28,19,82,,91,86,36,13,15,5,1.4,0.8
2024-06-01T1300,2426A,114.8988,30.2019,黄石市,铁山,,36,27,33,16,15,113,,96,96,11,14,18,16,0.5,0.5
2024-06-01T1300,2427A,115.0307,30.2092,黄石市,团城山,,40,40,36,16,12,92,,87,83,20,11,20,13,1.2,0.7
2024-06-01T1300,3149A,115.0235,30.1578,黄石市,笔架山北路,,36,36,34,15,12,98,,83,83,10,8,10,10,0.8,0.7
2024-06-01T1300,1392A,114.4183,23.0528,惠州市,河南岸金山湖子站,,23,6,8,3,5,73,,60,60,2,4,4,4,0.4,0.4
2024-06-01T1300,1393A,114.4053,23.0822,惠州市,下埔横江三路子站,,25,8,10,3,6,78,,66,66,6,7,5,6,0.6,0.5
2024-06-01T1300,1394A,114.4103,23.1142,惠州市,江北云山西路子站,,25,,9,8,6,77,,69,69,2,4,6,6,0.5,0.4
2024-06-01T1300,1395A,114.4645,22.7833,惠州市,惠阳区承修路船湖子站,,23,7,11,3,4,73,,68,68,8,8,2,3,0.5,0.5
2024-06-01T1300,1396A,114.5317,22.7422,惠州市,大亚湾管委会子站,,24,10,14,3,6,76,,58,58,6,9,4,4,0.6,0.6
2024-06-01T1300,3314A,114.4338,22.8134,惠州市,惠阳秋长,,29,17,15,3,5,90,,79,79,6,5,4,4,0.4,0.4
2024-06-01T1300,3452A,114.6517,22.775,惠州市,大亚湾霞涌,,25,12,13,3,2,77,,74,74,3,4,4,4,0.5,0.5
2024-06-01T1300,2240A,130.9762,45.3001,鸡西市,环保局,,15,8,9,3,6,48,,40,39,11,9,8,6,0.3,0.3
2024-06-01T1300,2243A,130.9429,45.3039,鸡西市,第一中学,,16,12,11,3,7,50,,34,34,6,11,9,8,0.3,0.4
2024-06-01T1300,3707A,131.0207,45.3073,鸡西市,欧美日汽修厂,,17,,8,10,7,53,,40,40,6,7,5,5,0.5,0.5
2024-06-01T1300,3709A,130.9967,45.3106,鸡西市,市政设施管理处,,15,12,11,3,7,46,,32,32,12,12,9,9,0.5,0.5
2024-06-01T1300,2367A,114.9754,27.0803,吉安市,红声器材厂,,,12,26,3,14,67,,64,62,14,15,,10,0.6,0.5
2024-06-01T1300,2368A,114.9658,27.0999,吉安市,市森林工业局,,19,10,25,7,17,60,,63,58,14,14,11,12,0.6,0.5
2024-06-01T1300,2369A,114.99,27.1312,吉安市,市环境监测站,,21,12,25,6,15,66,,66,60,12,14,12,13,0.8,0.7
2024-06-01T1300,2370A,115.0093,27.0968,吉安市,青原区法院,,19,12,25,3,18,60,,61,53,20,20,11,12,0.5,0.5
2024-06-01T1300,1772A,126.54,43.8622,吉林市,哈达湾,,19,9,20,3,13,59,,42,42,6,14,4,6,0.4,0.5
2024-06-01T1300,1773A,126.5844,43.8358,吉林市,东局子,,22,21,19,15,14,41,,30,30,20,20,4,5,0.6,0.6
2024-06-01T1300,1774A,126.5052,43.8245,吉林市,电力学院,,18,18,18,11,12,57,,44,44,8,14,7,8,0.4,0.5
2024-06-01T1300,1775A,126.6133,43.8972,吉林市,江北,,38,32,31,26,23,43,,32,32,21,27,7,7,0.6,0.7
2024-06-01T1300,1776A,126.555,43.8306,吉林市,江南公园,,19,16,17,13,16,50,,42,42,18,18,4,5,0.5,0.5
2024-06-01T1300,2868A,126.4739,43.953,吉林市,九站,,18,17,17,12,13,57,,47,47,4,19,6,7,0.4,0.4
2024-06-01T1300,1299A,116.9862,36.6114,济南市,科干所,,48,22,33,3,7,152,,96,96,12,20,7,7,0.3,0.4
2024-06-01T1300,1300A,116.9376,36.665,济南市,农科所,,48,24,44,3,8,152,,82,82,10,32,5,6,0.1,0.2
2024-06-01T1300,1301A,117.1265,36.6734,济南市,开发区,,50,24,33,7,11,158,,104,104,10,19,7,7,0.2,0.3
2024-06-01T1300,1303A,117.0624,36.6868,济南市,省种子仓库,,48,31,58,3,11,152,,82,82,8,30,4,6,0.3,0.4
2024-06-01T1300,1304A,116.9489,36.6447,济南市,机床二厂,,50,32,52,3,8,158,,94,94,9,31,8,9,0.2,0.3
2024-06-01T1300,1305A,117.0495,36.663,济南市,市监测站,臭氧1小时,53,29,38,3,9,162,,102,102,12,26,9,9,0.3,0.3
2024-06-01T1300,1306A,116.7675,36.5484,济南市,长清党校,,,17,44,15,10,151,,100,100,,21,,6,0.2,0.3
2024-06-01T1300,1616A,117.6795,36.229,济南市,技术学院,,46,17,40,9,18,147,,105,105,15,18,8,7,0.5,0.6
2024-06-01T1300,1961A,117.532,36.6868,济南市,东山小学,,45,17,41,3,12,141,,98,98,7,21,5,7,0.1,0.3
2024-06-01T1300,3059A,117.7161,36.2049,济南市,泰兴公司,,46,19,38,3,15,147,,91,91,9,21,9,8,0.3,0.4
2024-06-01T1300,3064A,117.6867,36.2171,济南市,莱芜战役纪念馆,,45,22,43,7,14,143,,94,94,8,15,10,8,0.4,0.4
2024-06-01T1300,3494A,117.1673,36.9782,济南市,济阳区政府,,48,24,51,15,20,151,,94,94,8,22,6,8,0.2,0.4
2024-06-01T1300,3495A,117.1171,36.63,济南市,锦屏中学,,50,27,26,3,6,159,,112,112,12,12,7,7,0.2,0.2
2024-06-01T1300,3682A,116.9814,36.6819,济南市,济南四建,,48,24,42,17,14,153,,90,90,13,29,6,8,0.3,0.5
2024-06-01T1300,1653A,116.6251,35.4302,济宁市,火炬城,,44,13,47,9,16,139,,107,107,1,10,8,9,0.3,0.5
2024-06-01T1300,1655A,116.5491,35.4042,济宁市,电化厂,,50,41,58,14,18,157,,114,114,6,8,9,7,0.5,0.6
2024-06-01T1300,3500A,116.5814,35.3707,济宁市,北湖一中,,47,30,46,14,17,149,,104,104,8,11,8,8,0.3,0.4
2024-06-01T1300,3501A,116.8249,35.5593,济宁市,服务中心,,44,32,50,7,15,140,,103,103,14,17,2,4,0.3,0.5
2024-06-01T1300,3678A,116.5907,35.4054,济宁市,市第七中学,颗粒物(PM10),57,64,55,9,15,153,,111,111,5,11,7,7,0.4,0.5
2024-06-01T1300,2255A,130.2751,46.8028,佳木斯市,佳纺,,17,8,14,8,11,52,,44,44,7,16,6,5,0.4,0.4
2024-06-01T1300,2256A,130.3995,46.8307,佳木斯市,发电厂,,19,,14,11,14,58,,52,52,3,5,3,2,0.5,0.4
2024-06-01T1300,2257A,130.3258,46.7975,佳木斯市,环保局,,14,,14,8,11,42,,35,35,14,21,5,5,0.7,0.6
2024-06-01T1300,2258A,130.3648,46.8032,佳木斯市,十一中,,18,,13,10,10,56,,47,47,6,12,5,5,0.4,0.4
2024-06-01T1300,2259A,130.3794,46.7588,佳木斯市,四丰,,15,8,12,6,7,45,,40,40,7,12,1,1,0.5,0.5
2024-06-01T1300,1252A,120.7436,30.778,嘉兴市,清河小学,,44,17,22,12,15,139,,89,89,13,24,5,4,0.4,0.5
2024-06-01T1300,1253A,120.726,30.7478,嘉兴市,嘉兴学院,,,19,21,10,21,126,,81,81,,14,6,4,0.5,0.6
2024-06-01T1300,2872A,120.7846,30.7525,嘉兴市,南湖区残联,,43,24,26,13,20,136,,94,94,14,20,8,6,0.5,0.6
2024-06-01T1300,3407A,120.6916,30.7739,嘉兴市,秀洲住建,,44,,20,25,20,139,,90,90,6,16,5,5,0.5,0.6
2024-06-01T1300,1945A,98.2908,39.7711,嘉峪关市,气象局,颗粒物(PM10),52,53,66,12,14,106,,97,90,46,42,44,18,1.1,0.5
2024-06-01T1300,2884A,98.2672,39.7978,嘉峪关市,酒钢宾馆,,46,46,65,12,17,117,,102,102,7,18,37,63,0.5,0.7
2024-06-01T1300,3248A,98.2643,39.7724,嘉峪关市,雄关区,,42,42,43,14,18,106,,92,92,13,16,13,9,0.4,0.5
2024-06-01T1300,1383A,113.1064,22.6058,江门市,北街,,22,12,12,3,6,70,,68,68,5,10,2,3,0.5,0.5
2024-06-01T1300,1384A,113.0731,22.5835,江门市,西区,,23,9,10,3,9,72,,70,69,9,10,5,5,0.5,0.4
2024-06-01T1300,1385A,113.0219,22.5311,江门市,圭峰西,,20,20,11,3,5,60,,66,63,6,6,4,3,0.2,0.2
2024-06-01T1300,1386A,113.0828,22.5947,江门市,东湖,,24,7,9,3,6,75,,70,70,8,10,6,6,0.4,0.3
2024-06-01T1300,3311A,113.1075,22.5647,江门市,江海富民,,25,13,25,6,13,77,,74,74,8,12,4,4,0.4,0.4
2024-06-01T1300,3449A,113.05,22.4667,江门市,新会银湖,,22,14,11,3,7,69,,74,74,2,3,2,2,0.5,0.5
2024-06-01T1300,1828A,113.227,35.2125,焦作市,市环保局,臭氧1小时,83,62,69,27,21,186,,138,138,9,14,6,6,0.3,0.3
2024-06-01T1300,3169A,113.2725,35.2067,焦作市,太极体育中心,臭氧1小时,93,108,90,21,16,194,,143,143,6,13,7,9,0.5,0.6
2024-06-01T1300,3335A,113.3137,35.2641,焦作市,马村街道办,臭氧1小时,72,70,77,19,16,177,,136,136,7,13,8,7,0.4,0.3
2024-06-01T1300,3336A,113.2465,35.2373,焦作市,焦作技师学院,臭氧1小时,72,64,84,22,18,177,,136,136,8,15,6,6,0.3,0.3
2024-06-01T1300,3477A,113.1656,35.2539,焦作市,中站许衡医院,臭氧1小时,68,37,62,21,16,174,,138,138,7,10,9,8,0.3,0.3
2024-06-01T1300,3981A,113.2449,35.1803,焦作市,原李万街道办,臭氧1小时,73,76,71,29,16,178,,134,134,12,17,4,4,0.4,0.4
2024-06-01T1300,1708A,116.3701,23.5345,揭阳市,新兴,,29,29,26,11,11,72,,55,55,5,14,4,4,0.5,0.6
2024-06-01T1300,1709A,116.3264,23.5443,揭阳市,西马,,,25,24,10,6,70,,57,57,,8,4,4,0.5,0.7
2024-06-01T1300,1710A,116.3611,23.5626,揭阳市,东兴,,24,24,30,10,10,73,,54,54,4,12,4,4,0.6,0.7
2024-06-01T1300,1711A,116.4151,23.5294,揭阳市,渔湖,,,,27,8,8,72,,52,52,2,7,4,4,0.6,0.8
2024-06-01T1300,3320A,116.403,23.5699,揭阳市,曲溪,,26,17,16,7,7,82,,55,55,1,10,2,4,0.4,0.6
2024-06-01T1300,1944A,102.1692,38.5167,金昌市,天庆家园,,49,49,54,24,25,143,,112,112,8,13,8,10,0.5,0.5
2024-06-01T1300,3170A,102.1864,38.5253,金昌市,市委党校,颗粒物(PM10),57,64,68,21,25,129,,83,83,4,11,12,38,0.5,0.5
2024-06-01T1300,4022A,102.1647,38.5371,金昌市,金川区人防中心,颗粒物(PM10),56,62,59,24,26,142,,111,111,6,10,10,18,0.7,0.6
2024-06-01T1300,1262A,119.647,29.077,金华市,十五中,,29,17,8,8,7,92,,108,99,22,14,4,3,0.4,0.5
2024-06-01T1300,1263A,119.686,29.1029,金华市,监测站,,28,18,9,11,7,88,,102,95,23,16,2,2,0.4,0.5
2024-06-01T1300,3659A,119.656,29.1131,金华市,气象局,,28,17,8,13,4,87,,103,95,24,19,5,4,0.2,0.2
2024-06-01T1300,1767A,121.1115,41.0879,锦州市,南山,,37,19,19,9,9,116,,80,80,8,18,6,10,0.3,0.4
2024-06-01T1300,1768A,121.0533,40.8434,锦州市,开发区,,32,32,40,3,23,101,,66,66,12,37,14,20,0.4,0.6
2024-06-01T1300,1769A,121.1836,41.1119,锦州市,百股街道,,36,17,18,3,4,115,,76,76,6,18,5,7,0.3,0.4
2024-06-01T1300,1770A,121.1178,41.1222,锦州市,天安街道,,34,22,21,15,17,108,,74,74,10,18,8,10,0.4,0.5
2024-06-01T1300,1771A,121.1303,41.1386,锦州市,北湖公园,,34,19,15,6,7,106,,76,76,6,13,7,9,0.4,0.4
2024-06-01T1300,2160A,112.85,35.5051,晋城市,自来水公司,臭氧1小时,68,43,64,7,12,174,,129,129,11,16,6,7,0.5,0.5
2024-06-01T1300,2161A,112.8318,35.4936,晋城市,白云商贸,臭氧1小时,65,73,69,3,6,172,,130,130,11,15,7,7,0.4,0.4
2024-06-01T1300,2162A,112.8508,35.4887,晋城市,市环保局,臭氧1小时,65,41,58,9,9,172,,126,126,11,16,7,8,0.4,0.4
2024-06-01T1300,2163A,112.8676,35.4897,晋城市,技术学院,臭氧1小时,63,34,59,9,9,170,,122,122,12,18,8,8,0.5,0.5
2024-06-01T1300,3620A,112.8271,35.4828,晋城市,泽州一中,臭氧1小时,59,44,59,3,6,167,,131,131,10,13,6,6,0.4,0.4
2024-06-01T1300,2171A,112.7532,37.6945,晋中市,锦纶小区,臭氧1小时,74,31,48,14,13,179,,120,120,12,27,11,12,0.3,0.3
2024-06-01T1300,2173A,112.7249,37.7067,晋中市,南都小区,臭氧1小时,75,43,47,13,18,180,,127,127,11,28,10,12,0.3,0.3
2024-06-01T1300,2174A,112.6991,37.6982,晋中市,榆次区政府,臭氧1小时,78,29,52,20,18,182,,122,122,10,31,11,13,0.2,0.2
2024-06-01T1300,2865A,112.7195,37.6828,晋中市,榆次三中,臭氧1小时,77,31,48,7,9,181,,122,122,11,25,11,13,0.5,0.4
2024-06-01T1300,2439A,112.2014,31.0481,荆门市,竹园小学,臭氧1小时,53,54,63,23,43,162,,116,116,13,17,10,9,0.5,0.6
2024-06-01T1300,2440A,112.1969,30.9891,荆门市,掇刀,臭氧1小时,58,44,55,34,36,166,,136,136,10,16,13,12,0.5,0.6
2024-06-01T1300,2441A,112.2213,31.0386,荆门市,石化一小,臭氧1小时,63,36,66,32,41,170,,116,116,7,16,8,12,0.5,0.6
2024-06-01T1300,3012A,112.1849,31.0362,荆门市,西山林语,,,,50,24,34,163,,131,131,12,14,12,9,0.6,0.7
2024-06-01T1300,3547A,112.1632,31.0138,荆门市,龙泉中学南校,臭氧1小时,63,54,45,20,26,170,,127,127,8,17,12,8,0.4,0.5
2024-06-01T1300,1844A,112.2494,30.3197,荆州市,市图书馆,臭氧1小时,55,40,28,27,20,164,,120,120,12,16,8,8,0.6,0.5
2024-06-01T1300,1845A,112.2008,30.3544,荆州市,市委党校,臭氧1小时,65,38,27,38,22,172,,121,121,9,16,7,8,0.6,0.5
2024-06-01T1300,3194A,112.2747,30.3122,荆州市,管委会,细颗粒物(PM2.5),57,,28,40,24,159,,111,111,8,16,5,5,0.6,0.6
2024-06-01T1300,3548A,112.1655,30.3364,荆州市,学苑路,臭氧1小时,70,41,36,26,23,176,,125,125,8,18,6,7,0.5,0.4
2024-06-01T1300,2343A,117.2117,29.2933,景德镇市,老干部活动中心,,28,23,7,3,4,87,,83,83,5,7,5,5,0.4,0.4
2024-06-01T1300,2344A,117.1894,29.2789,景德镇市,兽医站,,28,23,13,10,6,89,,86,86,5,5,5,5,0.3,0.4
2024-06-01T1300,2345A,117.1547,29.2617,景德镇市,台达陶瓷,,25,,6,3,5,78,,78,78,13,10,22,9,0.2,0.4
2024-06-01T1300,2346A,117.2461,29.2956,景德镇市,陶研所,,32,6,8,3,4,100,,84,84,2,7,4,4,0.2,0.3
2024-06-01T1300,1803A,115.9872,29.6815,九江市,十里,,31,18,26,16,19,99,,82,82,12,13,11,9,0.9,0.8
2024-06-01T1300,1804A,115.9584,29.7046,九江市,茅山头,,28,22,28,13,21,87,,67,67,16,17,10,9,0.8,0.7
2024-06-01T1300,1805A,115.9877,29.7295,九江市,西园,,29,26,29,20,26,90,,71,71,21,20,12,11,0.9,0.8
2024-06-01T1300,1806A,116.0172,29.6547,九江市,五七二七厂,,26,15,13,13,14,82,,87,84,12,10,9,8,1.0,0.9
2024-06-01T1300,1808A,115.9114,29.6038,九江市,综合工业园,,35,,21,24,19,92,,76,76,18,27,11,11,1.1,0.9
2024-06-01T1300,1809A,116.0721,29.7535,九江市,石化总厂,,30,28,35,15,25,93,,70,70,17,14,9,8,0.7,0.8
2024-06-01T1300,1810A,115.9773,29.5698,九江市,庐山气象台,,41,,9,22,10,130,,131,130,2,2,6,11,0.7,0.7
2024-06-01T1300,3190A,116.0254,29.6994,九江市,外国语学校,,29,,22,15,19,90,,72,72,19,20,12,11,0.9,0.8
2024-06-01T1300,2658A,98.5061,39.7443,酒泉市,仓门街子站,,39,39,51,9,19,109,,99,99,11,12,2,3,0.2,0.3
2024-06-01T1300,2659A,98.4989,39.7256,酒泉市,油田生活基地,,41,41,55,14,22,115,,105,105,3,9,2,4,0.3,0.3
2024-06-01T1300,2698A,76.0072,39.4467,喀什地区,巡警大队,颗粒物(PM10),137,224,158,35,25,123,,96,94,12,15,5,4,0.1,0.3
2024-06-01T1300,2699A,75.9755,39.4694,喀什地区,吾办,颗粒物(PM10),146,241,157,62,33,119,,95,91,12,15,4,3,0.4,0.4
2024-06-01T1300,4027A,75.9483,39.4689,喀什地区,老干局,颗粒物(PM10),169,287,186,50,29,126,,90,85,6,12,3,3,0.3,0.3
2024-06-01T1300,1824A,114.3389,34.7781,开封市,肿瘤医院,颗粒物(PM10),80,109,101,19,20,166,,116,116,6,15,5,6,0.4,0.5
2024-06-01T1300,1826A,114.2885,34.7965,开封市,世纪星幼儿园,颗粒物(PM10),72,93,88,21,21,163,,112,112,8,19,2,4,0.4,0.5
2024-06-01T1300,3147A,114.3438,34.8106,开封市,龙亭公园,细颗粒物(PM2.5),95,135,92,71,26,159,,112,112,12,20,7,9,0.3,0.4
2024-06-01T1300,3210A,114.3644,34.7964,开封市,汴京公园,颗粒物(PM10),63,75,81,17,21,163,,112,112,8,18,4,6,0.2,0.3
2024-06-01T1300,3473A,114.2485,34.8306,开封市,技师学院,颗粒物(PM10),63,76,80,18,19,158,,102,102,11,20,4,8,0.3,0.4
2024-06-01T1300,3592A,114.4644,34.7556,开封市,祥符区生态环境局,颗粒物(PM10),69,87,124,28,28,158,,107,107,11,30,3,10,0.3,1.1
2024-06-01T1300,1951A,84.895,45.6094,克拉玛依市,长征新村,,31,19,15,6,4,99,,74,72,6,5,8,8,0.2,0.2
2024-06-01T1300,1952A,84.8988,45.5893,克拉玛依市,南林小区,,31,30,15,16,7,99,,66,66,7,7,10,10,0.1,0.2
2024-06-01T1300,1954A,84.905,44.3396,克拉玛依市,独山子区,,36,18,17,3,5,114,,102,102,8,10,8,8,0.3,0.3
2024-06-01T1300,1955A,85.6979,46.098,克拉玛依市,乌尔禾区商贸楼,,30,6,13,3,6,96,,63,63,2,5,9,8,0.2,0.3
2024-06-01T1300,3612A,85.1045,45.6899,克拉玛依市,白碱滩区新站,,31,20,17,3,7,98,,76,76,4,5,8,8,0.2,0.2
2024-06-01T1300,2697A,76.1454,39.7142,克孜勒苏柯尔克孜自治州,市人民政府,颗粒物(PM10),51,51,60,21,21,138,,113,112,3,6,7,8,0.3,0.3
2024-06-01T1300,3665A,76.1658,39.7157,克孜勒苏柯尔克孜自治州,克州文化中心,颗粒物(PM10),57,63,56,18,19,138,,118,117,2,2,8,9,0.4,0.4
2024-06-01T1300,1450A,102.8204,24.8886,昆明市,呈贡新区,,30,27,28,21,17,94,,79,79,10,10,5,5,0.5,0.4
2024-06-01T1300,1452A,102.7252,25.0902,昆明市,龙泉镇,,37,37,32,20,18,76,,65,65,22,23,8,7,0.7,0.6
2024-06-01T1300,1453A,102.7266,25.0375,昆明市,东风东路,,38,38,36,18,14,77,,65,65,21,20,5,5,0.7,0.6
2024-06-01T1300,1454A,102.6742,25.0669,昆明市,金鼎山,颗粒物(PM10),51,52,34,22,19,75,,72,69,26,17,6,5,0.6,0.5
2024-06-01T1300,1455A,102.6644,25.0401,昆明市,碧鸡广场,,35,35,34,21,17,78,,66,65,18,16,3,4,0.6,0.6
2024-06-01T1300,3179A,102.7494,25.0119,昆明市,官渡区博物馆,,,,36,19,20,91,,73,73,17,19,10,10,0.7,0.6
2024-06-01T1300,3375A,102.8017,24.8336,昆明市,青年创业园,,33,24,25,18,17,105,,81,81,8,13,7,8,0.5,0.5
2024-06-01T1300,3550A,102.7997,24.9786,昆明市,昆明学院,,33,33,40,23,28,103,,80,80,12,17,9,11,0.6,0.6
2024-06-01T1300,3551A,102.5967,24.6736,昆明市,晋宁区生态环境分局,,42,,34,29,24,79,,59,59,14,13,2,2,0.6,0.6
2024-06-01T1300,3552A,102.6678,24.9856,昆明市,云天化总部,,32,31,30,22,21,96,,70,70,7,11,7,8,0.6,0.7
2024-06-01T1300,1456A,91.1319,29.6514,拉萨市,八廓街,,46,13,15,7,8,147,,130,127,6,10,8,8,0.2,0.3
2024-06-01T1300,1457A,91.1221,29.6747,拉萨市,市环保局,,46,11,17,3,8,145,,125,122,8,10,6,7,0.3,0.3
2024-06-01T1300,1458A,91.0874,29.6475,拉萨市,区监测站,,45,7,13,6,6,143,,130,125,5,7,6,6,0.3,0.2
2024-06-01T1300,1459A,91.1774,29.6541,拉萨市,西藏大学,,45,7,13,3,7,144,,127,126,4,6,5,5,0.3,0.3
2024-06-01T1300,1460A,90.9798,29.6588,拉萨市,区辐射站,,44,8,20,6,9,140,,133,126,10,10,7,6,0.3,0.3
2024-06-01T1300,1461A,91.0834,29.6292,拉萨市,拉萨火车站,,44,10,13,6,7,139,,134,127,5,6,7,7,0.5,0.4
2024-06-01T1300,2520A,109.2203,23.7256,来宾市,来宾技工学校,,31,23,14,12,6,98,,78,78,4,5,7,5,0.9,0.7
2024-06-01T1300,3535A,109.1781,23.7297,来宾市,兴宾区政府,,28,25,15,12,7,88,,76,76,4,4,6,5,0.8,0.8
2024-06-01T1300,4002A,109.2416,23.7461,来宾市,中南小学,,36,36,14,15,7,107,,84,84,4,5,7,5,0.9,0.8
2024-06-01T1300,1476A,103.631,36.1031,兰州市,兰炼宾馆,,46,46,77,22,31,130,,72,72,4,26,7,8,0.2,0.3
2024-06-01T1300,1478A,103.8412,36.0726,兰州市,生物制品所,,49,46,85,34,43,114,,64,64,15,31,12,11,0.3,0.4
2024-06-01T1300,1479A,103.831,36.0464,兰州市,铁路设计院,,44,44,75,23,29,120,,74,74,16,37,7,7,0.3,0.4
2024-06-01T1300,3186A,103.7158,36.1058,兰州市,教育港,,43,43,75,17,31,124,,66,66,8,36,8,9,0.3,0.3
2024-06-01T1300,3241A,103.7439,36.0842,兰州市,百合公园,,38,38,67,19,30,119,,63,63,11,41,3,4,0.3,0.3
2024-06-01T1300,3242A,103.9611,35.998,兰州市,和平,,47,47,75,16,26,126,,100,100,7,17,10,9,0.3,0.3
2024-06-01T1300,3245A,103.6633,36.533,兰州新区,新区管委会,,42,41,61,20,29,133,,101,101,6,10,9,13,0.4,0.4
2024-06-01T1300,3246A,103.6975,36.4789,兰州新区,舟曲中学,颗粒物(PM10),53,55,88,16,27,140,,111,111,5,9,6,8,0.3,0.3
2024-06-01T1300,1067A,116.6708,39.5111,廊坊市,药材公司,,41,25,38,12,14,131,,84,84,19,25,1,2,0.4,0.4
2024-06-01T1300,1068A,116.7214,39.5589,廊坊市,开发区,,44,28,37,10,12,139,,91,91,8,18,3,2,0.2,0.3
2024-06-01T1300,2919A,116.7022,39.5453,廊坊市,河北工业大学,,45,32,43,7,13,143,,95,95,6,16,3,3,0.2,0.3
2024-06-01T1300,2535A,103.7723,29.5462,乐山市,花湖湾,颗粒物(PM10),54,57,41,36,26,72,,55,55,28,20,7,7,0.6,0.5
2024-06-01T1300,2536A,103.7627,29.5844,乐山市,牛耳桥,颗粒物(PM10),59,67,54,38,25,77,,58,58,38,32,10,8,0.8,0.5
2024-06-01T1300,2537A,103.7508,29.6006,乐山市,市第三水厂,颗粒物(PM10),58,65,51,40,24,69,,61,60,41,27,13,8,0.9,0.5
2024-06-01T1300,2538A,103.7571,29.5664,乐山市,市监测站,颗粒物(PM10),58,65,52,32,23,76,,55,55,36,27,15,15,0.6,0.4
2024-06-01T1300,3361A,103.7311,29.5628,乐山市,理工大学,颗粒物(PM10),58,65,53,36,26,75,,44,44,36,28,14,22,0.7,0.6
2024-06-01T1300,2599A,100.2497,26.8802,丽江市,丽江古城,,35,35,39,24,26,99,,76,76,9,13,6,6,0.5,0.6
2024-06-01T1300,2600A,100.2203,26.8906,丽江市,市中心,,36,36,32,18,25,102,,80,80,8,14,8,8,0.7,0.8
2024-06-01T1300,1267A,119.914,28.4514,丽水市,监测站大楼,,28,6,16,3,14,89,,88,88,9,10,2,2,0.5,0.6
2024-06-01T1300,1268A,119.93,28.4586,丽水市,莲都小学,,30,6,17,3,11,96,,94,94,7,10,3,3,0.4,0.5
2024-06-01T1300,1269A,119.879,28.4231,丽水市,余庄前,,29,,19,3,14,92,,69,69,8,12,3,4,0.4,0.5
2024-06-01T1300,1173A,119.176,34.5885,连云港市,市环境监测站,,35,12,46,7,16,112,,94,94,8,12,6,7,0.5,0.5
2024-06-01T1300,3000A,119.3581,34.6972,连云港市,德源药业,,34,9,39,3,13,108,,92,92,10,16,5,7,0.3,0.4
2024-06-01T1300,3007A,119.178,34.844,连云港市,新城一中,,38,27,45,3,13,119,,99,99,12,18,5,7,0.3,0.4
2024-06-01T1300,3008A,119.3608,34.7519,连云港市,胡沟管理处,,41,14,36,9,14,131,,104,104,5,10,7,8,0.4,0.5
2024-06-01T1300,3009A,119.1478,34.5911,连云港市,矿山设计院,,35,12,47,3,15,111,,92,92,10,12,3,4,0.2,0.3
2024-06-01T1300,3434A,119.2413,34.6539,连云港市,工贸学校,,36,11,36,3,13,115,,99,99,4,11,7,8,0.3,0.5
2024-06-01T1300,3664A,119.4172,34.7341,连云港市,连云街道,,33,21,36,3,14,105,,93,93,21,20,4,5,0.3,0.5
2024-06-01T1300,2571A,102.3431,27.8099,凉山彝族自治州,青龙寺,,22,20,16,9,9,70,,51,51,5,5,8,7,0.4,0.4
2024-06-01T1300,2572A,102.2721,27.8415,凉山彝族自治州,邛海宾馆,颗粒物(PM10),51,51,23,20,9,61,,60,56,14,12,9,9,0.6,0.5
2024-06-01T1300,2573A,102.2625,27.898,凉山彝族自治州,西昌市政府,,36,36,23,24,13,59,,67,56,14,9,9,8,0.7,0.6
2024-06-01T1300,2574A,102.2685,27.8851,凉山彝族自治州,凉山州政府,,38,38,28,18,11,60,,69,58,16,11,10,9,0.6,0.5
2024-06-01T1300,2575A,102.237,27.8914,凉山彝族自治州,长安,,38,38,30,16,11,54,,66,52,26,17,9,9,0.6,0.5
2024-06-01T1300,2212A,123.2,41.1953,辽阳市,宏伟区,,30,18,22,16,11,95,,58,58,10,28,13,11,0.6,0.6
2024-06-01T1300,2213A,123.1683,41.2495,辽阳市,新华园,,31,16,25,7,11,98,,60,60,6,31,13,13,0.4,0.6
2024-06-01T1300,2214A,123.2354,41.2639,辽阳市,滨河路,,31,11,30,3,14,99,,62,62,10,17,8,9,0.2,0.4
2024-06-01T1300,2215A,123.149,41.2991,辽阳市,铁西工业园,,35,13,21,9,11,109,,68,68,8,26,10,11,0.5,0.6
2024-06-01T1300,2227A,125.1358,42.8845,辽源市,环保局,,24,23,35,3,6,75,,51,51,10,14,7,9,0.5,0.5
2024-06-01T1300,3239A,125.0764,42.9078,辽源市,银鹰制药,,25,13,14,3,8,77,,47,47,10,23,6,6,0.5,0.5
2024-06-01T1300,1625A,115.9848,36.4372,聊城市,区政府,,44,19,49,7,11,140,,102,102,10,24,8,9,0.4,0.5
2024-06-01T1300,2878A,116.0072,36.4343,聊城市,聊大东校,,45,16,48,11,18,143,,102,102,8,23,7,8,0.4,0.5
2024-06-01T1300,3200A,115.9819,36.4978,聊城市,监控中心,,48,29,55,3,14,151,,99,99,9,28,9,10,0.4,0.5
2024-06-01T1300,3513A,116.0445,36.4361,聊城市,九州社区,,47,27,59,3,12,150,,101,101,10,24,8,12,0.4,0.5
2024-06-01T1300,4018A,116.0567,36.4608,聊城市,星美广场,,48,34,61,7,13,153,,103,103,10,23,8,10,0.4,0.4
2024-06-01T1300,2632A,94.3681,29.6376,林芝市,林芝监测站,,35,,4,3,5,110,,78,78,1,2,7,7,0.4,0.5
2024-06-01T1300,2633A,94.3616,29.6616,林芝市,林芝人民医院,,35,6,6,3,3,111,,79,79,4,4,8,8,0.2,0.3
2024-06-01T1300,2603A,100.0781,23.8982,临沧市,市环保局,细颗粒物(PM2.5),55,54,47,39,31,107,,50,50,6,10,6,8,0.6,0.7
2024-06-01T1300,2604A,100.0894,23.8822,临沧市,市气象局,颗粒物(PM10),55,60,46,36,34,112,,54,54,8,12,7,9,0.6,0.6
2024-06-01T1300,1733A,111.5531,36.0783,临汾市,临钢医院,臭氧1小时,102,86,75,19,16,204,,142,142,8,17,8,8,0.6,0.5
2024-06-01T1300,1734A,111.5028,36.0714,临汾市,技工学校,臭氧1小时,106,82,71,23,21,212,,147,147,13,21,10,10,0.6,0.5
2024-06-01T1300,1736A,111.5018,36.0855,临汾市,市委,臭氧1小时,110,74,73,15,14,220,,153,153,10,18,10,10,0.6,0.6
2024-06-01T1300,3018A,111.505,36.1014,临汾市,唐尧大酒店,臭氧1小时,88,90,84,18,17,190,,133,133,8,17,9,9,0.5,0.5
2024-06-01T1300,3668A,111.5036,36.0414,临汾市,城南,臭氧1小时,109,84,74,24,26,217,,150,150,9,19,10,11,0.6,0.6
2024-06-01T1300,2667A,103.2069,35.5993,临夏回族自治州,环保局,,36,36,59,23,30,98,,55,55,1,18,5,5,0.3,0.4
2024-06-01T1300,2668A,103.2417,35.6057,临夏回族自治州,建设大厦,,30,30,49,20,34,96,,52,52,4,25,7,6,0.3,0.4
2024-06-01T1300,1618A,118.3429,35.0532,临沂市,沂河小区,,42,24,50,12,18,132,,98,98,17,18,8,8,0.2,0.3
2024-06-01T1300,1619A,118.295,35.0583,临沂市,鲁南制药厂,,46,34,51,16,19,146,,104,104,10,13,6,7,0.3,0.3
2024-06-01T1300,1620A,118.2794,34.9976,临沂市,新光毛纺厂,,44,19,47,8,14,138,,99,99,9,12,4,5,0.5,0.5
2024-06-01T1300,1621A,118.3956,35.0888,临沂市,河东保险公司,,42,19,45,3,15,134,,88,88,10,17,5,5,0.2,0.3
2024-06-01T1300,3370A,118.3564,35.0215,临沂市,十里堡居委,,43,19,49,7,16,136,,101,101,11,16,6,7,0.4,0.4
2024-06-01T1300,3496A,118.3604,35.1084,临沂市,南坊新区,,44,22,39,7,14,139,,95,95,13,18,8,8,0.3,0.5
2024-06-01T1300,3860A,118.3920,35.0300,临沂市,皇山花园小区,,42,14,56,3,20,132,,97,97,9,18,5,6,0.3,0.4
2024-06-01T1300,1870A,109.4856,24.3895,柳州市,柳东小学,,24,13,17,10,8,74,,62,62,5,6,7,9,0.7,0.6
2024-06-01T1300,1871A,109.4157,24.3277,柳州市,环保监测站,,28,22,22,11,14,87,,62,62,8,15,8,15,0.8,1.2
2024-06-01T1300,1872A,109.389,24.341,柳州市,河西水厂,,39,39,25,18,16,79,,57,57,12,13,12,15,0.8,0.8
2024-06-01T1300,1873A,109.4311,24.2921,柳州市,市四中,,30,30,20,11,9,90,,65,65,6,13,6,10,0.6,0.8
2024-06-01T1300,1874A,109.4006,24.3631,柳州市,市九中,,31,31,34,15,14,89,,59,59,10,19,10,18,0.5,1
2024-06-01T1300,1875A,109.4958,24.3134,柳州市,古亭山,,32,32,17,12,8,74,,61,61,6,8,6,8,0.5,0.5
2024-06-01T1300,3402A,109.5422,24.3996,柳州市,市二中,,23,11,15,7,8,71,,57,57,6,8,5,5,0.4,0.4
2024-06-01T1300,2307A,116.5079,31.737,六安市,监测大楼,臭氧1小时,73,26,24,16,19,178,,115,115,11,13,6,5,0.5,0.5
2024-06-01T1300,2308A,116.4738,31.7643,六安市,皖西学院,臭氧1小时,88,45,30,16,19,190,,120,120,10,10,7,4,0.6,0.5
2024-06-01T1300,2309A,116.4996,31.7905,六安市,朝阳厂,臭氧1小时,80,34,23,11,20,184,,116,116,8,9,10,7,0.5,0.4
2024-06-01T1300,2310A,116.5567,31.7886,六安市,开发区,臭氧1小时,78,43,35,17,22,182,,117,117,11,13,10,10,0.6,0.5
2024-06-01T1300,2577A,104.83,26.5917,六盘水市,黄土坡,颗粒物(PM10),55,60,38,29,13,109,,103,102,18,11,8,8,0.8,0.5
2024-06-01T1300,2578A,104.89,26.5939,六盘水市,水钢,,,56,40,24,17,,,101,,12,11,10,9,0.6,0.4
2024-06-01T1300,2579A,104.8475,26.5894,六盘水市,民中,颗粒物(PM10),51,51,32,31,16,111,,100,100,19,13,10,9,1.0,0.6
2024-06-01T1300,2580A,104.9544,26.5506,六盘水市,双水,,44,44,34,20,12,114,,104,104,10,9,7,8,0.4,0.4
2024-06-01T1300,2336A,117.0217,25.1033,龙岩市,龙岩市监测站,,28,28,19,8,21,68,,33,33,7,18,2,2,0.5,0.6
2024-06-01T1300,2337A,117.0258,25.0661,龙岩市,闽西职业技术学院,,22,14,20,7,10,68,,32,32,4,16,2,4,0.4,0.5
2024-06-01T1300,2338A,117.0196,25.0306,龙岩市,龙岩学院,,,,16,7,6,66,,40,40,4,8,6,4,,0.4
2024-06-01T1300,2885A,104.9339,33.3826,陇南市,滨江中学,,40,40,73,15,20,65,,48,42,20,15,6,8,0.7,0.6
2024-06-01T1300,3247A,104.955,33.371,陇南市,市总工会,,45,45,59,18,19,61,,54,43,19,13,8,8,0.6,0.5
2024-06-01T1300,2487A,111.9589,27.8901,娄底市,电视发射台,,22,17,27,6,15,69,,59,59,4,4,6,6,0.7,0.6
2024-06-01T1300,2488A,111.9975,27.725,娄底市,市监测站,,24,20,36,7,22,74,,76,73,6,8,3,4,0.8,0.7
2024-06-01T1300,2489A,112.0194,27.7314,娄底市,市委党校,,21,11,30,9,22,66,,77,68,8,7,6,5,0.7,0.6
2024-06-01T1300,2490A,111.9561,27.7569,娄底市,涟钢,,21,19,34,3,23,67,,58,58,17,18,12,6,0.8,0.6
2024-06-01T1300,2491A,111.9892,27.7044,娄底市,市政府,,25,16,30,14,24,79,,87,79,10,9,4,5,0.6,0.5
2024-06-01T1300,1893A,105.4324,28.9634,泸州市,九狮山,颗粒物(PM10),54,57,45,8,24,120,,47,47,20,15,12,6,0.4,0.3
2024-06-01T1300,1894A,105.4427,28.9063,泸州市,小市上码头,颗粒物(PM10),59,67,57,40,29,127,,52,52,19,31,11,6,0.5,0.4
2024-06-01T1300,1895A,105.4241,28.8573,泸州市,兰田宪桥,,46,46,58,28,27,141,,63,63,13,24,10,7,0.5,0.5
2024-06-01T1300,1896A,105.4379,28.8833,泸州市,市环监站,,49,49,58,27,29,135,,69,69,14,31,13,10,0.6,0.6
2024-06-01T1300,3490A,105.3617,28.7703,泸州市,纳溪区环保局,颗粒物(PM10),53,55,50,24,21,132,,50,50,12,32,3,3,0.5,0.5
2024-06-01T1300,2183A,111.1406,37.5211,吕梁市,环保局,,50,36,40,14,11,160,,90,90,10,26,8,7,0.5,0.4
2024-06-01T1300,2185A,111.1297,37.5136,吕梁市,自来水公司,,46,34,52,10,16,147,,79,79,9,27,3,4,0.3,0.3
2024-06-01T1300,2867A,111.1283,37.51,吕梁市,马茂庄小学,臭氧1小时,60,32,45,15,12,168,,92,92,10,29,8,6,0.4,0.3
2024-06-01T1300,1812A,112.3931,34.6516,洛阳市,市委党校,臭氧1小时,95,74,83,32,28,196,,126,126,11,18,8,7,0.5,0.4
2024-06-01T1300,1814A,112.4657,34.6871,洛阳市,豫西宾馆,,,85,105,,26,200,,138,138,13,18,8,8,,0.5
2024-06-01T1300,1815A,112.494,34.6886,洛阳市,河南林校,臭氧1小时,101,72,82,32,27,201,,127,127,14,20,8,8,0.4,0.3
2024-06-01T1300,1816A,112.3844,34.623,洛阳市,开发区管委会,臭氧1小时,82,77,90,29,29,185,,122,122,11,15,8,8,0.3,0.3
2024-06-01T1300,1817A,112.4267,34.6258,洛阳市,市委新办公区,臭氧1小时,92,69,83,32,30,193,,123,123,11,17,10,10,0.4,0.3
2024-06-01T1300,3340A,112.6005,34.6326,洛阳市,伊滨,臭氧1小时,101,83,71,27,24,202,,124,124,14,19,11,11,0.5,0.5
2024-06-01T1300,3341A,112.4951,34.6332,洛阳市,中移产业园,臭氧1小时,94,74,92,29,24,195,,123,123,11,18,11,9,0.6,0.5
2024-06-01T1300,3593A,112.5736,34.8993,洛阳市,吉利监测站,臭氧1小时,77,86,106,25,21,181,,120,120,14,21,7,9,0.3,0.3
2024-06-01T1300,3635A,112.3677,34.662,洛阳市,河科大西苑校区,臭氧1小时,85,81,95,29,24,188,,126,126,8,13,8,8,0.4,0.3
2024-06-01T1300,3636A,112.4388,34.6781,洛阳市,英才小学,臭氧1小时,92,72,88,23,25,193,,124,124,12,18,9,9,0.6,0.5
2024-06-01T1300,2399A,114.051,33.5699,漯河市,三五一五工厂,颗粒物(PM10),88,125,181,33,34,179,,116,116,11,16,10,9,0.6,0.6
2024-06-01T1300,2400A,114.0055,33.5698,漯河市,漯河大学,颗粒物(PM10),86,122,157,51,45,188,,123,123,12,14,13,11,0.6,0.6
2024-06-01T1300,2401A,114.0138,33.5828,漯河市,市水利局,颗粒物(PM10),86,122,171,36,39,182,,117,117,8,13,11,10,0.6,0.6
2024-06-01T1300,2402A,114.0261,33.5698,漯河市,市广电局,颗粒物(PM10),97,144,181,41,37,180,,118,118,11,15,9,8,0.6,0.5
2024-06-01T1300,3478A,113.9749,33.5664,漯河市,市图书馆,颗粒物(PM10),88,126,144,49,37,186,,121,121,9,12,13,10,0.7,0.6
2024-06-01T1300,3479A,114.0967,33.5906,漯河市,召陵区卫健委,细颗粒物(PM2.5),89,102,148,66,44,174,,112,112,10,19,8,8,0.5,0.5
2024-06-01T1300,1798A,118.5092,31.6837,马鞍山市,湖东路四小,"颗粒物(PM10),细颗粒物(PM2.5)",63,76,39,45,20,167,,111,111,13,15,6,7,1.0,1
2024-06-01T1300,1799A,118.5024,31.6449,马鞍山市,开发区,细颗粒物(PM2.5),68,63,35,49,17,168,,105,105,13,18,8,8,0.9,0.8
2024-06-01T1300,1800A,118.5228,31.7231,马鞍山市,慈湖,细颗粒物(PM2.5),69,74,48,50,27,169,,101,101,17,24,5,6,0.9,1
2024-06-01T1300,1802A,118.6245,31.7241,马鞍山市,濮塘,颗粒物(PM10),57,64,34,39,26,162,,100,100,12,11,5,5,0.8,1
2024-06-01T1300,3633A,118.4918,31.6809,马鞍山市,雨山,颗粒物(PM10),61,72,44,39,19,168,,113,113,11,14,8,9,1.0,1
2024-06-01T1300,1686A,111.0286,21.4688,茂名市,电白南海,,19,19,13,12,12,53,,39,39,10,7,9,9,0.7,0.7
2024-06-01T1300,1687A,110.9294,21.6533,茂名市,茂石化七小,,28,22,17,19,14,53,,38,36,11,11,13,12,0.9,0.7
2024-06-01T1300,1689A,110.8592,21.6828,茂名市,高岭,,32,24,17,22,13,51,,31,31,8,12,24,10,0.8,0.7
2024-06-01T1300,3450A,111.01,21.5165,茂名市,电白水东,,18,12,11,12,9,52,,40,40,11,10,8,6,1.0,0.8
2024-06-01T1300,2539A,104.0308,30.0478,眉山市,黑龙滩水库,,43,42,41,30,22,91,,106,85,21,10,4,4,0.4,0.3
2024-06-01T1300,2540A,103.8416,30.0874,眉山市,气象局,细颗粒物(PM2.5),52,49,41,36,22,83,,107,80,43,23,12,9,0.5,0.4
2024-06-01T1300,3137A,103.8578,30.0744,眉山市,市委党校,颗粒物(PM10),54,58,50,24,16,84,,113,84,42,23,14,9,0.4,0.3
2024-06-01T1300,3148A,103.8291,30.0564,眉山市,区人社局,颗粒物(PM10),56,62,53,27,17,85,,108,75,50,29,17,9,0.5,0.4
2024-06-01T1300,1690A,116.1231,24.3284,梅州市,梅江月梅,,24,14,11,11,5,76,,48,48,2,6,4,4,0.5,0.5
2024-06-01T1300,1691A,116.0797,24.2719,梅州市,梅县新城,,22,11,12,11,12,70,,45,45,1,12,3,3,0.4,0.4
2024-06-01T1300,1692A,116.1248,24.2654,梅州市,环境监控中心,,21,14,15,13,16,67,,43,43,6,12,3,4,0.5,0.4
2024-06-01T1300,3315A,116.1233,24.2991,梅州市,梅龙,,23,9,9,7,6,71,,44,44,2,5,7,7,0.4,0.5
2024-06-01T1300,1878A,104.7778,31.4741,绵阳市,富乐山,,48,48,54,24,25,81,,41,41,5,17,8,8,0.4,0.5
2024-06-01T1300,1879A,104.7563,31.4535,绵阳市,市人大,颗粒物(PM10),55,59,63,18,25,69,,36,36,16,31,6,7,0.4,0.4
2024-06-01T1300,1880A,104.6697,31.4668,绵阳市,高新区自来水公司,颗粒物(PM10),56,61,66,24,26,81,,39,39,8,26,10,11,0.4,0.4
2024-06-01T1300,1881A,104.7287,31.5075,绵阳市,三水厂,颗粒物(PM10),53,56,61,24,26,81,,31,31,8,26,6,6,0.4,0.4
2024-06-01T1300,3491A,104.69,31.5322,绵阳市,西科大附属小学,颗粒物(PM10),54,57,62,24,25,77,,31,31,9,25,6,7,0.5,0.5
2024-06-01T1300,3492A,104.5648,31.5343,绵阳市,安州区旅游局,颗粒物(PM10),52,54,57,14,21,72,,41,41,15,20,7,8,0.3,0.4
2024-06-01T1300,1784A,129.61,44.561,牡丹江市,环保大楼,,17,,9,8,10,52,,36,36,3,10,5,5,0.3,0.3
2024-06-01T1300,1785A,129.6115,44.5782,牡丹江市,文化广场,,26,,15,18,17,46,,30,30,8,15,6,6,0.3,0.4
2024-06-01T1300,1786A,129.5904,44.5963,牡丹江市,第一医院,,16,9,15,3,17,49,,32,32,6,13,5,4,0.3,0.3
2024-06-01T1300,1787A,129.6364,44.6075,牡丹江市,机车工厂,,15,11,17,3,11,48,,28,28,5,10,4,3,0.3,0.3
2024-06-01T1300,1788A,129.6386,44.5462,牡丹江市,第一中学,,20,,16,14,15,52,,38,38,5,8,4,4,0.3,0.3
2024-06-01T1300,2531A,105.0703,29.61,内江市,市监测站,,42,39,44,29,28,120,,67,67,19,31,7,6,0.3,0.3
2024-06-01T1300,2532A,105.0717,29.5947,内江市,东兴区政府,,43,43,44,20,17,126,,77,77,16,23,8,9,0.5,0.5
2024-06-01T1300,2533A,105.0653,29.5817,内江市,内江二中,,43,43,40,21,20,116,,69,69,17,23,7,8,0.4,0.4
2024-06-01T1300,2534A,105.0406,29.5822,内江市,内江日报社,,39,39,48,25,25,116,,80,80,22,27,10,11,0.5,0.5
2024-06-01T1300,2628A,92.0657,31.4846,那曲市,那曲监测站,臭氧1小时,60,8,15,7,9,168,,162,162,6,5,6,6,0.4,0.4
2024-06-01T1300,3128A,92.0506,31.4797,那曲市,那曲会议中心,臭氧1小时,60,9,22,6,11,168,,166,166,7,5,3,3,0.5,0.5
2024-06-01T1300,1290A,115.8931,28.6843,南昌市,省外办,,28,18,18,9,14,87,,81,81,13,17,5,5,0.5,0.5
2024-06-01T1300,1291A,115.8886,28.7003,南昌市,省林业公司,,33,7,9,7,10,105,,94,94,6,11,4,3,0.8,0.7
2024-06-01T1300,1292A,115.8126,28.7442,南昌市,林科所,,35,6,3,3,3,111,,98,98,6,11,6,5,0.7,0.7
2024-06-01T1300,1294A,115.8518,28.687,南昌市,建工学校,,33,8,17,3,10,105,,96,96,3,9,5,5,0.3,0.4
2024-06-01T1300,1295A,115.8921,28.6424,南昌市,象湖,,33,,13,3,9,104,,94,94,6,10,4,4,0.4,0.5
2024-06-01T1300,1296A,115.7423,28.7996,南昌市,武术学校,,30,12,12,11,13,96,,87,87,1,2,4,3,0.4,0.4
2024-06-01T1300,1298A,115.9314,28.6842,南昌市,省站,,30,14,16,3,10,96,,87,87,4,5,4,5,0.5,0.5
2024-06-01T1300,3046A,115.9084,28.6062,南昌市,机电学校,,30,13,18,3,9,96,,84,84,8,11,6,6,0.6,0.6
2024-06-01T1300,3690A,115.9721,28.7031,南昌市,外国语学校,,32,8,14,3,10,100,,90,90,3,10,2,3,0.3,0.4
2024-06-01T1300,1905A,106.056,30.8064,南充市,西山风景区,,45,45,42,30,26,78,,82,52,8,3,4,5,0.5,0.4
2024-06-01T1300,1906A,106.0789,30.8023,南充市,南充市委,颗粒物(PM10),62,73,59,36,27,85,,40,36,19,26,6,6,0.5,0.4
2024-06-01T1300,1907A,106.1031,30.8217,南充市,南充炼油厂,细颗粒物(PM2.5),65,71,72,47,32,84,,30,29,20,27,8,8,0.5,0.5
2024-06-01T1300,1908A,106.1064,30.7856,南充市,高坪区监测站,颗粒物(PM10),59,67,61,32,30,93,,33,33,18,28,7,7,0.2,0.2
2024-06-01T1300,1909A,106.0642,30.7636,南充市,嘉陵区环保局,颗粒物(PM10),65,79,67,36,30,80,,36,36,26,32,5,5,0.4,0.3
2024-06-01T1300,1910A,106.1087,30.8388,南充市,市环境监测站,颗粒物(PM10),62,73,65,37,29,81,,38,34,16,22,7,8,0.5,0.5
2024-06-01T1300,1151A,118.8086,32.1065,南京市,迈皋桥,,47,38,39,22,28,148,,99,99,11,20,6,5,0.3,0.6
2024-06-01T1300,1152A,118.7538,32.0551,南京市,草场门,,,41,42,14,29,147,,99,99,19,25,,3,0.4,0.7
2024-06-01T1300,1153A,118.7794,32.0745,南京市,山西路,,41,36,45,17,30,131,,91,91,17,27,4,4,0.3,0.6
2024-06-01T1300,1154A,118.7752,32.0023,南京市,中华门,,,41,38,9,23,141,,85,85,14,22,,4,0.4,0.8
2024-06-01T1300,1155A,118.8109,32.0309,南京市,瑞金路,,44,44,46,17,26,138,,94,94,17,19,6,6,0.1,0.4
2024-06-01T1300,1156A,118.7997,32.0754,南京市,玄武湖,,42,40,45,15,26,133,,89,89,20,20,9,8,0.5,0.8
2024-06-01T1300,1157A,118.6414,32.0931,南京市,浦口,,40,34,39,18,26,128,,97,97,12,19,6,7,0.4,0.8
2024-06-01T1300,1158A,118.7356,31.9996,南京市,奥体中心,,48,47,44,19,28,152,,100,100,12,20,10,10,0.4,0.8
2024-06-01T1300,1159A,118.9125,32.1028,南京市,仙林大学城,,48,41,42,17,24,152,,102,102,19,24,11,10,0.5,0.7
2024-06-01T1300,3422A,118.8436,31.9198,南京市,江宁彩虹桥,,49,22,36,22,26,155,,95,95,9,18,4,4,0.4,0.7
2024-06-01T1300,3423A,119.0138,31.6494,南京市,溧水永阳,臭氧1小时,62,56,29,31,21,169,,106,106,13,13,6,5,0.6,0.7
2024-06-01T1300,3424A,118.879,31.3302,南京市,高淳老职中,,46,22,25,13,15,147,,101,101,12,12,7,5,0.7,0.7
2024-06-01T1300,3427A,118.8554,32.3578,南京市,六合雄州,,45,30,42,8,26,141,,111,111,12,22,9,11,0.4,0.9
2024-06-01T1300,1401A,108.3103,22.7881,南宁市,二十一中,,45,20,22,12,9,142,,75,75,12,20,9,7,0.7,0.7
2024-06-01T1300,1402A,108.3141,22.8528,南宁市,北湖,,43,42,25,16,11,136,,74,74,11,18,8,7,0.8,0.8
2024-06-01T1300,1403A,108.3206,22.8225,南宁市,市监测站,,42,37,23,12,8,134,,70,70,12,20,6,5,0.8,0.8
2024-06-01T1300,1404A,108.3829,22.8037,南宁市,大自然花园,,45,41,21,12,9,141,,76,76,13,16,7,9,0.6,0.7
2024-06-01T1300,1405A,108.4394,22.7904,南宁市,仙葫,,40,26,22,12,9,126,,66,66,18,32,6,5,0.8,0.9
2024-06-01T1300,1406A,108.2397,22.8467,南宁市,区农职院,,37,37,24,12,8,108,,78,78,9,13,8,7,0.7,0.8
2024-06-01T1300,1407A,108.3275,22.735,南宁市,英华嘉园,,41,33,27,20,12,129,,60,60,16,27,9,8,0.7,0.7
2024-06-01T1300,1408A,108.2257,22.7757,南宁市,沙井镇街道办,,38,38,31,10,12,113,,67,67,7,18,6,10,0.4,0.6
2024-06-01T1300,3401A,108.4834,22.7618,南宁市,红星社区,,40,26,19,12,8,127,,72,72,12,20,7,7,0.5,0.7
2024-06-01T1300,2332A,118.1681,26.6369,南平市,南平市监测站,,,,9,10,7,41,,27,27,7,9,4,4,0.6,0.6
2024-06-01T1300,2333A,118.1825,26.6489,南平市,南平铝业有限公司,,24,24,17,13,11,49,,29,29,7,10,4,5,0.5,0.5
2024-06-01T1300,2334A,118.1756,26.6272,南平市,南平七中,,26,26,18,14,10,45,,27,27,5,6,4,4,0.5,0.5
2024-06-01T1300,1168A,120.9098,31.9663,南通市,狼山街道,,41,32,51,9,36,130,,106,106,5,21,9,10,0.5,1
2024-06-01T1300,1169A,120.86,32.0005,南通市,虹桥,,40,29,72,9,46,126,,106,106,6,28,6,7,0.5,1
2024-06-01T1300,1170A,120.87,32.02,南通市,城中,,39,35,83,13,53,123,,102,102,6,30,5,8,0.5,1
2024-06-01T1300,1171A,120.94,31.93,南通市,星湖花园,,42,24,54,15,40,133,,103,103,8,29,7,10,0.5,1
2024-06-01T1300,1172A,120.81,32.0417,南通市,紫琅学院,,43,28,59,13,46,136,,112,112,8,35,5,8,0.4,1
2024-06-01T1300,3291A,121.067,32.062,南通市,通州监测站,,41,27,78,7,46,130,,104,104,2,22,9,10,0.6,1
2024-06-01T1300,3432A,120.9348,31.9883,南通市,环境教育馆,,41,31,69,12,49,130,,104,104,11,28,7,9,0.4,0.9
2024-06-01T1300,2404A,112.5224,33.0122,南阳市,瓦房庄,颗粒物(PM10),80,109,83,53,32,174,,124,124,22,17,10,8,0.6,0.4
2024-06-01T1300,2405A,112.5003,32.9735,南阳市,汉画馆,颗粒物(PM10),86,121,88,54,39,176,,123,123,21,21,9,7,0.7,0.6
2024-06-01T1300,2406A,112.5573,33.027,南阳市,气象站,颗粒物(PM10),85,120,86,41,30,180,,124,124,19,17,8,6,0.7,0.5
2024-06-01T1300,2407A,112.5481,32.9689,南阳市,理工学院,颗粒物(PM10),91,132,85,44,28,179,,125,125,22,18,10,8,0.6,0.5
2024-06-01T1300,4008A,112.5234,32.9922,南阳市,卧龙区政府,颗粒物(PM10),83,116,88,49,34,176,,120,120,22,21,8,6,0.7,0.6
2024-06-01T1300,1235A,121.56,29.82,宁波市,万里学院,,40,21,19,18,12,126,,107,107,20,19,5,5,0.6,0.6
2024-06-01T1300,1236A,121.713,29.9572,宁波市,龙赛医院,,38,19,18,12,11,120,,93,93,29,30,8,7,0.4,0.5
2024-06-01T1300,1239A,121.633,29.7733,宁波市,钱湖水厂,,44,21,23,21,12,138,,100,100,16,17,4,4,0.7,0.8
2024-06-01T1300,1240A,121.5856,29.8635,宁波市,太古小学,,42,,16,14,13,133,,103,103,11,16,6,6,0.7,0.8
2024-06-01T1300,1241A,121.524,29.8674,宁波市,市环境监测中心,,36,22,18,8,8,114,,97,97,19,21,9,8,0.6,0.6
2024-06-01T1300,2871A,121.6147,29.9017,宁波市,万里国际学校,,40,23,26,14,16,126,,106,106,22,21,4,4,0.5,0.6
2024-06-01T1300,3710A,121.5594,29.8975,宁波市,白沙活动中心,,38,29,20,10,10,119,,99,99,20,21,9,9,0.5,0.6
2024-06-01T1300,2341A,119.5388,26.6612,宁德市,宁德市监测站,,34,,14,3,10,107,,102,96,9,12,4,4,0.6,0.8
2024-06-01T1300,3209A,119.5231,26.6562,宁德市,宁德一中,,31,9,22,3,15,97,,106,96,15,10,5,5,0.5,0.6
2024-06-01T1300,2618A,98.8601,25.8567,怒江傈僳族自治州,州监测站,,40,40,33,27,23,98,,47,47,4,8,10,10,0.5,0.5
2024-06-01T1300,2619A,98.8546,25.8417,怒江傈僳族自治州,泸水一中,颗粒物(PM10),63,75,38,20,25,88,,35,35,7,14,5,5,0.3,0.5
2024-06-01T1300,1888A,101.6891,26.571,攀枝花市,弄弄坪,,28,28,33,14,14,53,,55,49,21,19,33,13,0.6,0.6
2024-06-01T1300,1889A,101.5769,26.5928,攀枝花市,河门口,,40,40,39,26,20,45,,50,40,29,22,25,18,1.7,1.2
2024-06-01T1300,1890A,101.7169,26.585,攀枝花市,炳草岗,,36,36,29,19,15,41,,58,45,31,19,71,28,0.9,0.8
2024-06-01T1300,1891A,101.7369,26.5008,攀枝花市,仁和,,46,42,32,32,16,74,,68,60,16,12,13,10,0.6,0.3
2024-06-01T1300,2835A,101.7227,26.567,攀枝花市,四十中小,,20,20,24,12,10,64,,71,59,14,11,32,11,0.7,0.7
2024-06-01T1300,1604A,122.0303,41.1489,盘锦市,开发区,,35,22,20,3,9,109,,78,78,12,23,10,6,0.3,0.4
2024-06-01T1300,1605A,122.0485,41.0883,盘锦市,兴隆台,,34,18,19,6,17,107,,80,80,12,31,9,8,0.3,0.3
2024-06-01T1300,1606A,121.8297,41.1028,盘锦市,新生街道,,33,23,18,3,8,104,,69,69,9,25,8,9,0.3,0.4
2024-06-01T1300,1832A,113.3257,33.742,平顶山市,新华旅馆,颗粒物(PM10),106,161,124,35,40,183,,120,120,15,19,10,10,0.5,0.5
2024-06-01T1300,1833A,113.2919,33.737,平顶山市,规划设计院,颗粒物(PM10),91,131,104,33,32,164,,115,115,19,18,7,7,0.4,0.4
2024-06-01T1300,1834A,113.182,33.774,平顶山市,平顶山工学院,颗粒物(PM10),78,106,108,31,29,180,,124,124,16,16,8,8,0.6,0.6
2024-06-01T1300,3204A,113.3025,33.73,平顶山市,规划局,颗粒物(PM10),131,212,154,34,37,177,,120,120,14,15,8,8,0.6,0.6
2024-06-01T1300,3594A,112.8867,33.9116,平顶山市,石龙区,颗粒物(PM10),96,141,142,34,46,178,,122,122,11,17,10,11,0.7,0.6
2024-06-01T1300,2656A,106.6692,35.5461,平凉市,聚贤嘉苑,,47,47,80,18,23,149,,74,74,8,33,7,8,0.2,0.3
2024-06-01T1300,2657A,106.7021,35.5307,平凉市,博物馆,,47,45,73,22,24,149,,79,79,12,31,10,11,0.4,0.4
2024-06-01T1300,2348A,113.8385,27.6434,萍乡市,中医院,,26,9,25,9,18,82,,60,57,2,8,7,5,0.5,0.6
2024-06-01T1300,2349A,113.8493,27.6253,萍乡市,市政府车库,,23,6,17,3,17,73,,60,60,3,7,11,11,0.5,0.9
2024-06-01T1300,2350A,113.8676,27.6435,萍乡市,市环保局,,25,10,23,3,17,78,,60,59,4,9,6,7,0.4,0.6
2024-06-01T1300,2351A,113.866,27.6198,萍乡市,安源区政府,,24,18,27,8,16,76,,59,58,7,11,17,15,1.3,1.5
2024-06-01T1300,2319A,119.0141,25.4325,莆田市,荔城区仓后路,,27,8,21,3,7,84,,62,62,14,14,6,6,0.7,0.6
2024-06-01T1300,2320A,119.0015,25.4553,莆田市,莆田市监测站,,26,6,20,3,7,83,,58,58,15,15,7,7,0.7,0.8
2024-06-01T1300,2321A,119.1119,25.4561,莆田市,涵江区六中,,28,14,21,3,7,87,,62,62,11,18,7,7,0.6,0.7
2024-06-01T1300,2322A,119.1013,25.3215,莆田市,秀屿区政府,,34,15,15,3,2,107,,77,77,7,10,9,8,0.9,0.8
2024-06-01T1300,2392A,115.0312,35.7636,濮阳市,环保局,,49,49,47,18,15,152,,108,108,10,18,10,20,0.2,0.2
2024-06-01T1300,2394A,115.0574,35.7609,濮阳市,油田运输公司,臭氧1小时,55,45,52,21,16,164,,117,117,11,15,11,22,0.3,0.3
2024-06-01T1300,2395A,115.0866,35.7754,濮阳市,油田物探公司,,50,47,56,15,14,160,,111,111,7,15,11,16,0.4,0.3
2024-06-01T1300,3021A,115,35.7668,濮阳市,濮水河管理处,,49,46,45,16,16,154,,98,98,8,14,10,12,0.3,0.2
2024-06-01T1300,2601A,100.98,22.7633,普洱市,市环保局,,22,16,30,12,23,69,,76,68,6,8,8,8,0.5,0.5
2024-06-01T1300,2602A,100.9817,22.8322,普洱市,普洱第二中学,,20,16,24,8,18,62,,74,65,9,9,7,7,0.7,0.6
2024-06-01T1300,2262A,131.0518,45.8751,七台河市,新一中,,20,7,4,3,5,64,,45,45,5,5,9,9,0.6,0.9
2024-06-01T1300,3345A,131.0577,45.7879,七台河市,中波台,,17,,6,7,7,53,,41,41,9,9,7,7,0.3,0.3
2024-06-01T1300,3637A,131.0176,45.7761,七台河市,人民广场,,16,11,8,8,7,50,,43,38,10,9,8,8,0.4,0.4
2024-06-01T1300,3684A,130.8781,45.8222,七台河市,新建矿广场,,20,,2,14,15,53,,35,34,12,15,5,6,0.4,0.4
2024-06-01T1300,1779A,123.9305,47.3636,齐齐哈尔市,安居小区,,33,31,22,18,9,105,,70,70,9,13,6,6,0.3,0.3
2024-06-01T1300,1780A,123.9488,47.3386,齐齐哈尔市,中心广场,,30,22,22,16,11,96,,66,66,12,11,8,8,0.2,0.2
2024-06-01T1300,1781A,123.9483,47.3227,齐齐哈尔市,农牧车辆厂,,36,36,32,13,8,106,,69,69,7,10,8,8,0.2,0.2
2024-06-01T1300,1783A,123.945,47.2988,齐齐哈尔市,市环境监测站,,46,,24,32,11,100,,69,69,7,10,4,5,0.1,0.1
2024-06-01T1300,3662A,123.6333,47.2075,齐齐哈尔市,富区青少年活动中心,,31,23,30,8,9,97,,66,66,5,14,6,10,0.1,0.6
2024-06-01T1300,2591A,107.9783,26.5747,黔东南苗族侗族自治州,市环境监测站,,,34,22,24,16,109,,97,97,10,10,,4,0.5,0.5
2024-06-01T1300,2881A,107.8908,26.5311,黔东南苗族侗族自治州,凯里学院,,39,26,19,17,12,124,,107,107,4,6,3,4,0.4,0.4
2024-06-01T1300,2593A,107.5228,26.2403,黔南布依族苗族自治州,小围寨,,33,17,15,7,8,105,,94,94,5,8,4,6,0.4,0.4
2024-06-01T1300,3538A,107.5175,26.2978,黔南布依族苗族自治州,沙坝,,34,14,16,3,7,106,,93,93,3,8,4,5,0.5,0.5
2024-06-01T1300,2589A,104.9022,25.0925,黔西南布依族苗族自治州,场坝街,,40,9,14,7,6,126,,86,86,8,11,6,23,0.6,0.6
2024-06-01T1300,2590A,104.8811,25.0992,黔西南布依族苗族自治州,坪东大道,,41,10,15,7,6,129,,88,88,5,12,7,9,0.5,0.5
2024-06-01T1300,2502A,108.6236,21.9667,钦州市,市环保站,,30,12,16,7,5,94,,72,72,6,8,6,6,1.1,1.1
2024-06-01T1300,2503A,108.6549,21.9481,钦州市,沙埠小学,,30,24,24,14,11,96,,67,67,6,12,5,6,0.6,0.8
2024-06-01T1300,2504A,108.5989,21.7431,钦州市,港区一小,,32,15,26,9,7,100,,69,69,6,13,9,8,0.7,0.6
2024-06-01T1300,3404A,108.5959,21.9633,钦州市,北职校,,29,11,21,10,10,90,,68,68,5,9,8,8,0.7,0.7
2024-06-01T1300,1042A,119.5134,39.8207,秦皇岛市,北戴河环保局,"颗粒物(PM10),臭氧1小时",58,66,44,24,17,166,,104,104,16,19,9,6,1.3,0.6
2024-06-01T1300,1043A,119.7493,40.0116,秦皇岛市,第一关,,43,37,33,18,22,135,,84,84,10,21,5,5,0.5,0.5
2024-06-01T1300,1044A,119.5897,39.9499,秦皇岛市,监测站,,44,38,46,20,25,138,,75,75,15,25,8,8,0.5,0.6
2024-06-01T1300,1046A,119.5251,39.9041,秦皇岛市,建设大厦,颗粒物(PM10),51,52,47,8,18,134,,75,75,14,23,5,5,0.5,0.5
2024-06-01T1300,3132A,119.610547,39.943889,秦皇岛市,文明里,,44,12,40,7,18,139,,79,79,29,31,10,9,0.5,0.7
2024-06-01T1300,1307A,120.6659,36.2403,青岛市,仰口,,36,31,23,14,12,113,,81,81,12,8,5,4,0.3,0.3
2024-06-01T1300,1310A,120.4134,36.0658,青岛市,市南区东部子站,,39,24,40,7,11,124,,96,96,29,21,9,10,0.4,0.5
2024-06-01T1300,1311A,120.3664,36.1032,青岛市,四方区子站,,48,14,38,9,12,151,,101,101,19,26,11,10,0.4,0.5
2024-06-01T1300,1312A,120.2994,36.054,青岛市,市南区西部子站,,37,29,39,15,11,116,,83,83,45,26,9,8,0.4,0.4
2024-06-01T1300,1313A,120.4581,36.0858,青岛市,崂山区子站,,39,22,32,3,8,122,,94,94,16,18,9,9,0.5,0.4
2024-06-01T1300,1314A,120.1983,35.9608,青岛市,黄岛区子站,,40,19,35,3,9,128,,82,82,18,35,8,8,0.5,0.5
2024-06-01T1300,1315A,120.3999,36.3083,青岛市,城阳区子站,,40,12,30,7,13,125,,83,83,11,21,8,9,0.4,0.4
2024-06-01T1300,1966A,120.0405,35.8735,青岛市,黄岛区4号,,38,9,34,3,9,119,,86,86,6,17,9,9,0.4,0.5
2024-06-01T1300,3362A,120.5014,36.4034,青岛市,即墨2号,,40,15,38,7,13,127,,82,82,8,20,6,7,0.5,0.5
2024-06-01T1300,3642A,120.3503,36.0736,青岛市,市北区南部,,41,35,41,3,10,130,,87,87,23,27,6,7,0.4,0.5
2024-06-01T1300,3643A,120.3948,36.1805,青岛市,李沧区北部,臭氧1小时,57,19,38,12,19,165,,92,92,16,27,10,10,0.4,0.5
2024-06-01T1300,1702A,113.0426,23.691,清远市,环保大楼,,23,7,9,3,6,72,,53,53,9,9,4,6,0.5,0.5
2024-06-01T1300,1703A,113.0208,23.7106,清远市,凤城街办,,23,17,12,12,5,72,,50,50,13,11,4,4,0.4,0.4
2024-06-01T1300,3025A,113.0477,23.6344,清远市,技师学院,,26,10,13,3,5,83,,58,58,10,15,4,4,0.4,0.4
2024-06-01T1300,3318A,112.9903,23.7403,清远市,清新太和,,26,8,10,3,4,82,,59,59,11,10,9,8,0.5,0.5
2024-06-01T1300,3455A,113.076,23.7198,清远市,清城东城,,25,14,18,3,5,80,,56,56,10,10,5,5,0.5,0.5
2024-06-01T1300,2661A,107.6325,35.7357,庆阳市,庆阳五中,颗粒物(PM10),81,112,84,38,31,140,,131,131,15,17,5,8,0.5,0.4
2024-06-01T1300,2662A,107.6364,35.7067,庆阳市,市环保局,颗粒物(PM10),81,111,80,34,24,135,,128,128,16,14,9,7,0.5,0.3
2024-06-01T1300,1916A,103.7897,25.5035,曲靖市,环境监测站,,46,46,26,21,10,108,,87,87,9,11,3,3,0.5,0.5
2024-06-01T1300,1917A,103.8,25.5364,曲靖市,烟厂办公区,,38,38,24,18,11,105,,77,77,7,9,4,4,0.4,0.6
2024-06-01T1300,3376A,103.7947,25.462,曲靖市,南苑二区,,48,48,26,19,12,115,,92,92,11,10,4,5,0.6,0.6
2024-06-01T1300,3377A,103.7444,25.5261,曲靖市,曲靖师范学院,,38,31,23,26,14,105,,86,86,8,12,6,7,0.4,0.5
2024-06-01T1300,1264A,118.8692,28.9398,衢州市,环保大楼,,31,14,8,10,5,98,,104,104,12,12,3,3,0.3,0.4
2024-06-01T1300,1265A,118.8709,28.9666,衢州市,实验学校,,31,13,9,8,5,97,,106,104,9,10,9,7,0.3,0.3
2024-06-01T1300,1266A,118.8621,28.9808,衢州市,衢州学院,,31,11,11,7,5,98,,105,103,10,13,5,5,0.3,0.4
2024-06-01T1300,1611A,118.5819,24.9117,泉州市,涂山街,,,1,17,,5,44,,27,27,19,15,2,2,0.4,0.4
2024-06-01T1300,1612A,118.5972,24.8978,泉州市,津头埔,,15,,18,3,10,47,,23,23,22,20,1,2,0.5,0.5
2024-06-01T1300,1613A,118.6663,24.9424,泉州市,万安,,25,,17,3,6,78,,29,29,11,11,1,1,0.4,0.3
2024-06-01T1300,3529A,118.6333,24.9264,泉州市,城华南路,,22,,14,7,7,70,,21,21,15,18,4,4,0.5,0.4
2024-06-01T1300,2626A,88.8876,29.2718,日喀则市,日喀则监测站,,50,12,20,6,8,157,,126,126,4,6,5,5,0.4,0.4
2024-06-01T1300,3726A,88.8781,29.2426,日喀则市,林业技术推广中心,,47,7,25,3,10,148,,125,125,5,7,4,4,0.6,0.5
2024-06-01T1300,1659A,119.471,35.4209,日照市,监测站,,35,29,34,3,12,109,,72,72,20,22,10,10,0.3,0.4
2024-06-01T1300,1660A,119.523,35.4216,日照市,市政府广场,,35,17,31,3,10,112,,87,87,13,16,8,9,0.4,0.5
2024-06-01T1300,1661A,119.5587,35.4044,日照市,港务局,,,24,34,3,9,122,,94,94,18,16,,8,,0.5
2024-06-01T1300,3507A,119.5328,35.4625,日照市,职业技术学院,,37,12,36,3,9,116,,90,90,9,16,8,9,0.4,0.5
2024-06-01T1300,3604A,119.3266,35.1044,日照市,岚山环保分局,,40,29,56,7,15,126,,100,100,10,20,6,16,0.4,1.1
2024-06-01T1300,1835A,111.1922,34.7752,三门峡市,市政府,"颗粒物(PM10),臭氧1小时",54,58,75,18,23,163,,134,134,14,16,14,13,0.5,0.5
2024-06-01T1300,1836A,111.1587,34.7942,三门峡市,开发区,臭氧1小时,68,66,80,19,30,174,,140,140,16,17,15,15,0.6,0.6
2024-06-01T1300,3039A,111.1911,34.7829,三门峡市,三门峡市第一小学,臭氧1小时,65,61,81,15,19,172,,137,137,14,15,15,13,0.4,0.4
2024-06-01T1300,3598A,111.1,34.7167,三门峡市,富达温泉假日酒店,臭氧1小时,52,52,90,20,25,161,,129,129,13,20,12,15,0.5,0.5
2024-06-01T1300,2324A,117.6211,26.2625,三明市,三钢,,28,,20,17,14,88,,35,35,9,14,8,6,1.1,0.8
2024-06-01T1300,2325A,117.635,26.2714,三明市,三明二中,,29,29,21,13,15,88,,36,36,8,13,8,7,0.8,0.8
2024-06-01T1300,2326A,117.6028,26.2378,三明市,三元区政府,,33,33,26,22,22,82,,29,29,12,17,12,8,1.0,0.7
2024-06-01T1300,1876A,109.5078,18.2489,三亚市,河东子站,,28,14,13,3,5,88,,78,73,7,7,3,3,0.4,0.3
2024-06-01T1300,1877A,109.4964,18.2681,三亚市,河西子站,,27,15,12,6,5,84,,60,53,4,6,2,1,0.5,0.4
2024-06-01T1300,3540A,109.7348,18.3443,三亚市,君悦子站,,32,32,14,3,4,90,,81,68,5,6,2,3,0.6,0.6
2024-06-01T1300,2624A,91.7608,29.2313,山南市,山南监测站,,44,11,11,3,5,140,,125,125,3,3,9,8,0.3,0.3
2024-06-01T1300,2625A,91.7706,29.2436,山南市,山南人民医院,,43,14,24,3,8,137,,127,125,7,8,8,8,0.4,0.4
2024-06-01T1300,1674A,116.6794,23.3667,汕头市,金平子站,,25,25,23,11,12,71,,54,54,11,14,3,2,0.7,0.6
2024-06-01T1300,1675A,116.7244,23.3633,汕头市,龙湖子站,,,50,23,8,10,,,216,212,11,10,5,5,0.5,0.6
2024-06-01T1300,1676A,116.7258,23.2775,汕头市,濠江子站,,48,48,21,10,9,58,,40,40,5,7,5,4,0.6,0.6
2024-06-01T1300,1677A,116.7519,23.4714,汕头市,澄海子站,,25,22,21,10,13,77,,54,54,4,8,4,4,0.8,0.8
2024-06-01T1300,1678A,116.6092,23.2539,汕头市,潮阳子站,,,22,20,14,14,68,,54,54,3,6,4,4,,0.6
2024-06-01T1300,3444A,116.454,23.2684,汕头市,潮南峡山,,19,8,18,3,5,59,,49,49,4,9,4,4,0.7,0.7
2024-06-01T1300,3624A,116.4069,23.2533,汕头市,潮南子站,,20,9,18,3,6,64,,51,51,2,7,6,6,0.6,0.6
2024-06-01T1300,1693A,115.3653,22.775,汕尾市,市环保局,,24,24,17,7,5,69,,59,59,2,3,4,4,0.7,0.6
2024-06-01T1300,1694A,115.3706,22.7898,汕尾市,市政府,,26,26,12,13,8,78,,65,65,2,4,5,5,0.6,0.5
2024-06-01T1300,1695A,115.3622,22.7925,汕尾市,新城中学,,35,35,16,6,5,76,,64,64,2,5,5,6,0.6,0.6
2024-06-01T1300,2645A,109.9154,33.8715,商洛市,监测站,颗粒物(PM10),77,103,89,39,30,137,,67,67,21,19,22,10,0.8,0.6
2024-06-01T1300,3045A,109.9643,33.8471,商洛市,商州区中学,颗粒物(PM10),81,112,90,51,35,142,,62,62,20,30,18,11,0.8,0.6
2024-06-01T1300,2408A,115.6702,34.4285,商丘市,环境监测站,,48,48,85,9,24,145,,118,118,6,11,8,9,0.1,0.3
2024-06-01T1300,2409A,115.6458,34.4045,商丘市,粮食局,,45,42,82,12,24,143,,115,115,6,11,4,5,0.2,0.3
2024-06-01T1300,2410A,115.6293,34.3948,商丘市,睢阳区环保局,颗粒物(PM10),53,56,84,12,24,149,,118,118,7,11,6,7,0.2,0.3
2024-06-01T1300,3171A,115.6071,34.4465,商丘市,梁园区档案局,颗粒物(PM10),51,51,79,16,18,142,,115,115,7,13,9,10,0.2,0.4
2024-06-01T1300,1141A,121.4,31.238,上海市,普陀,细颗粒物(PM2.5),103,,49,77,57,145,,83,83,30,34,7,5,1.2,0.7
2024-06-01T1300,1142A,121.478,31.2036,上海市,十五厂,,,,81,,74,156,,94,94,32,35,8,7,1.1,0.9
2024-06-01T1300,1143A,121.467,31.3008,上海市,虹口,细颗粒物(PM2.5),108,,53,81,60,145,,78,78,18,38,9,10,0.8,0.9
2024-06-01T1300,1144A,121.412,31.1654,上海市,徐汇上师大,细颗粒物(PM2.5),99,,47,74,58,150,,89,89,34,38,8,8,1.2,0.8
2024-06-01T1300,1145A,121.536,31.2659,上海市,杨浦四漂,细颗粒物(PM2.5),102,,47,76,53,142,,91,91,20,42,7,8,0.8,0.9
2024-06-01T1300,1147A,121.425,31.2261,上海市,静安监测站,细颗粒物(PM2.5),117,,51,88,59,150,,86,86,30,39,9,8,1.2,0.8
2024-06-01T1300,1148A,121.703,31.1907,上海市,浦东川沙,细颗粒物(PM2.5),100,,36,75,42,129,,84,84,25,42,6,6,0.8,0.8
2024-06-01T1300,1149A,121.533,31.2284,上海市,浦东新区监测站,细颗粒物(PM2.5),97,,50,72,49,141,,89,89,23,34,8,8,1.0,0.9
2024-06-01T1300,1150A,121.577,31.2071,上海市,浦东张江,细颗粒物(PM2.5),100,,44,75,52,155,,93,93,21,42,6,5,1.1,1
2024-06-01T1300,3265A,121.4316,31.3322,上海市,宝山庙行,细颗粒物(PM2.5),117,,55,88,68,149,,80,80,12,35,8,8,0.7,0.9
2024-06-01T1300,3266A,121.8791,31.4662,上海市,崇明上实东滩,,41,11,34,7,24,129,,90,90,5,15,8,8,0.7,0.8
2024-06-01T1300,3268A,121.3162,31.2838,上海市,嘉定南翔,细颗粒物(PM2.5),87,,53,64,55,153,,79,79,16,42,8,8,0.6,0.6
2024-06-01T1300,3269A,121.3359,30.7456,上海市,金山新城,,47,28,35,28,44,150,,83,83,16,24,8,7,0.7,0.8
2024-06-01T1300,3270A,121.4996,31.0739,上海市,闵行浦江,细颗粒物(PM2.5),94,,41,70,51,147,,85,85,37,41,6,6,0.9,0.7
2024-06-01T1300,3271A,121.2886,31.1663,上海市,青浦徐泾,细颗粒物(PM2.5),89,88,56,66,46,153,,96,96,29,36,6,6,1.0,0.8
2024-06-01T1300,3272A,121.2186,31.0378,上海市,松江图书馆,臭氧1小时,58,33,44,31,42,166,,107,107,18,31,7,7,0.7,0.8
2024-06-01T1300,3273A,121.3902,31.2059,上海市,长宁仙霞,细颗粒物(PM2.5),99,74,48,74,52,151,,84,84,33,43,9,8,1.4,1.1
2024-06-01T1300,3274A,121.7965,31.0507,上海市,浦东惠南,细颗粒物(PM2.5),108,,33,81,40,135,,75,75,20,30,7,6,0.8,0.6
2024-06-01T1300,3544A,121.4891,30.925,上海市,奉贤南桥新城,细颗粒物(PM2.5),60,,35,43,47,162,,89,89,31,32,10,9,0.8,0.8
2024-06-01T1300,2381A,118.005,28.4572,上饶市,百草园,,30,12,24,3,13,93,,84,84,5,8,3,3,0.5,0.6
2024-06-01T1300,2382A,117.9756,28.4436,上饶市,市监测站,,36,9,23,8,14,113,,105,105,4,7,4,4,0.4,0.5
2024-06-01T1300,2383A,117.9519,28.4628,上饶市,凤凰光学,,30,,20,10,13,94,,95,95,12,10,4,4,0.5,0.6
2024-06-01T1300,3413A,118.1953,28.4401,上饶市,广丰区教体局,,33,6,27,3,14,105,,105,105,6,8,9,9,0.9,1
2024-06-01T1300,3685A,117.897,28.4315,上饶市,双创科技城,,32,16,24,3,14,102,,98,98,9,10,2,2,0.5,0.6
2024-06-01T1300,1669A,113.5824,24.7733,韶关市,市八中,,21,10,19,7,11,67,,46,46,3,3,11,11,0.8,0.8
2024-06-01T1300,1671A,113.5917,24.7972,韶关市,园林处,,,4,12,,7,56,,32,32,2,4,10,10,0.7,0.7
2024-06-01T1300,1672A,113.6735,24.7791,韶关市,韶关学院,,15,6,16,3,10,46,,31,31,1,9,7,8,0.4,0.4
2024-06-01T1300,1673A,113.5971,24.6863,韶关市,曲江监测站,,21,7,20,3,11,65,,30,30,5,12,9,10,0.6,0.7
2024-06-01T1300,3622A,113.5556,24.8082,韶关市,碧湖山庄,,19,8,22,6,14,58,,39,39,3,4,7,8,0.4,0.5
2024-06-01T1300,2462A,111.5239,27.3033,邵阳市,市水土所,,25,,25,11,19,77,,56,56,2,4,4,5,0.8,0.7
2024-06-01T1300,2463A,111.4733,27.2317,邵阳市,市一中,,28,22,29,19,18,78,,66,66,5,7,6,7,0.7,0.6
2024-06-01T1300,2464A,111.5283,27.2442,邵阳市,市化工厂,,29,,28,20,21,87,,72,72,5,8,8,10,0.8,0.7
2024-06-01T1300,2465A,111.4503,27.2537,邵阳市,市罐头厂,,29,24,30,20,23,77,,66,66,9,10,5,6,0.6,0.5
2024-06-01T1300,2466A,111.4328,27.2272,邵阳市,市环保局,,25,22,28,17,24,74,,63,63,9,8,5,6,0.6,0.5
2024-06-01T1300,1247A,120.6053,29.9928,绍兴市,城东开发委,,29,14,12,11,10,91,,81,80,10,11,5,5,0.7,0.7
2024-06-01T1300,2921A,120.5483,30.0003,绍兴市,树下王站,,33,12,11,9,7,103,,94,90,9,11,8,8,0.5,0.6
2024-06-01T1300,3408A,120.5683,29.9361,绍兴市,绍兴中专,,31,10,10,8,8,98,,84,84,7,13,7,7,0.4,0.5
