timepoint,stationcode,longitude,latitude,area,positionname,primarypollutant,aqi,pm10,pm10_24h,pm2_5,pm2_5_24h,o3,o3_24h,o3_8h,o3_8h_24h,no2,no2_24h,so2,so2_24h,co,co_24h
2024-12-25T0200,2566A,102.1879,31.914,阿坝藏族羌族自治州,州农科所,,32,32,33,13,12,48,,,,8,13,6,7,0.7,0.8
2024-12-25T0200,2568A,102.2502,31.8896,阿坝藏族羌族自治州,马师校,,20,15,21,14,16,30,,,,13,24,4,4,0.4,0.5
2024-12-25T0200,3994A,102.2165,31.9024,阿坝藏族羌族自治州,马尔康中学西区,,28,25,25,19,13,38,,,,12,19,5,6,0.4,0.5
2024-12-25T0200,2695A,80.292,41.1694,阿克苏地区,电视台,细颗粒物(PM2.5),94,98,106,70,77,16,,,,52,47,2,3,1.4,2.1
2024-12-25T0200,2696A,80.2613,41.1551,阿克苏地区,艺术中心,细颗粒物(PM2.5),80,92,96,59,78,43,,,,29,46,4,4,1.1,1.8
2024-12-25T0200,2204A,105.6467,38.8363,阿拉善盟,西城区西花园,,47,47,50,26,26,80,,,,13,23,8,9,0.6,0.7
2024-12-25T0200,2205A,105.6985,38.8411,阿拉善盟,蒙二幼,,40,40,38,12,15,74,,,,13,21,5,5,0.6,0.6
2024-12-25T0200,2206A,105.724,38.8516,阿拉善盟,环保局新楼,,32,32,28,14,10,85,,,,6,9,8,8,0.4,0.5
2024-12-25T0200,2708A,88.1264,47.8517,阿勒泰地区,市站,,40,36,19,28,15,12,,,,37,32,8,8,0.8,0.4
2024-12-25T0200,2630A,80.1161,32.5,阿里地区,阿里监测站,,20,17,14,9,9,62,,,,17,9,11,7,0.6,0.6
2024-12-25T0200,3192A,80.0903,32.5028,阿里地区,阿里藏医院,,26,,14,18,10,57,,,,20,8,13,9,0.9,0.6
2024-12-25T0200,2642A,109.0318,32.6537,安康市,香溪洞,细颗粒物(PM2.5),90,84,65,67,59,7,,,,47,25,10,9,0.8,0.7
2024-12-25T0200,2644A,109.0072,32.6975,安康市,汉滨区检察院,细颗粒物(PM2.5),83,84,82,61,62,20,,,,41,34,8,9,0.7,0.8
2024-12-25T0200,4054A,109.0325,32.6913,安康市,市邮政管理局,细颗粒物(PM2.5),82,83,87,60,64,12,,,,38,36,8,8,0.7,0.8
2024-12-25T0200,2291A,117.0809,30.5177,安庆市,环科院,细颗粒物(PM2.5),120,125,104,91,76,26,,,,46,38,7,8,1.1,0.9
2024-12-25T0200,2292A,117.0331,30.5119,安庆市,马山宾馆,细颗粒物(PM2.5),118,128,103,89,72,31,,,,44,50,10,10,0.9,0.8
2024-12-25T0200,2294A,116.9896,30.6145,安庆市,安庆大学,细颗粒物(PM2.5),125,128,105,95,78,49,,,,33,40,12,13,0.8,0.8
2024-12-25T0200,3173A,117.0598,30.5351,安庆市,市人大,细颗粒物(PM2.5),122,120,103,92,77,35,,,,42,53,8,9,0.8,0.8
2024-12-25T0200,3122A,105.9606,26.2611,安顺市,伍家关,,,,,,,,,,,,,,,,
2024-12-25T0200,3123A,105.9408,26.2431,安顺市,凤凰山,,18,18,35,11,29,11,,,,24,23,19,23,1.0,0.8
2024-12-25T0200,3124A,105.9439,26.2564,安顺市,金钟山,,18,,30,12,28,14,,,,22,21,23,22,0.8,0.9
2024-12-25T0200,3125A,105.8983,26.2481,安顺市,娄家坡,,35,25,32,24,30,9,,,,28,23,27,21,1.1,0.9
2024-12-25T0200,1818A,114.4839,36.0621,安阳市,棉研所,细颗粒物(PM2.5),218,197,163,168,131,4,,,,68,59,12,13,1.3,1.3
2024-12-25T0200,1819A,114.3551,36.1017,安阳市,红庙街,细颗粒物(PM2.5),199,178,140,149,112,9,,,,70,61,11,11,1.6,1.3
2024-12-25T0200,1820A,114.361,36.0681,安阳市,银杏小区,细颗粒物(PM2.5),215,217,140,165,115,9,,,,65,60,8,9,2.7,1.3
2024-12-25T0200,3141A,114.3922,36.0878,安阳市,信访局,细颗粒物(PM2.5),204,204,156,154,110,7,,,,74,67,11,12,2.0,1.7
2024-12-25T0200,3669A,114.4705,36.0637,安阳市,左辅环卫站,细颗粒物(PM2.5),204,186,162,154,126,12,,,,63,56,8,10,1.3,1.2
2024-12-25T0200,3703A,114.2917,36.0949,安阳市,安钢职工学校,细颗粒物(PM2.5),225,259,166,175,130,10,,,,69,64,12,12,2.6,1.5
2024-12-25T0200,1748A,123.044,41.1196,鞍山市,深沟寺,颗粒物(PM10),79,108,61,40,26,62,,,,16,21,10,11,0.8,1
2024-12-25T0200,1749A,123.011,41.0931,鞍山市,太阳城,颗粒物(PM10),61,72,54,39,29,55,,,,18,26,8,10,0.7,1.1
2024-12-25T0200,1750A,123.0485,41.1442,鞍山市,太平,颗粒物(PM10),73,96,58,44,25,62,,,,20,29,11,13,0.7,0.9
2024-12-25T0200,1751A,122.9642,41.0971,鞍山市,铁西三道街,细颗粒物(PM2.5),69,82,86,50,39,54,,,,28,42,11,15,1.1,1.4
2024-12-25T0200,1752A,122.9341,41.0833,鞍山市,铁西工业园区,颗粒物(PM10),54,57,80,34,39,69,,,,16,37,8,12,0.7,1.2
2024-12-25T0200,1753A,123.022,41.0821,鞍山市,明达新区,颗粒物(PM10),78,106,67,41,26,68,,,,12,19,10,12,0.7,1.1
2024-12-25T0200,1754A,123.1289,41.0228,鞍山市,千山,,,,25,,14,,,48,,,12,,5,,0.5
2024-12-25T0200,2195A,107.4212,40.761,巴彦淖尔市,附二中,颗粒物(PM10),51,52,104,19,26,75,,,,6,14,4,9,0.4,0.4
2024-12-25T0200,2196A,107.37,40.7372,巴彦淖尔市,市环保大楼,颗粒物(PM10),54,57,96,24,27,75,,,,5,10,4,5,0.4,0.4
2024-12-25T0200,1956A,86.1472,41.7538,巴音郭楞蒙古自治州,孔雀公园,细颗粒物(PM2.5),85,85,82,63,65,60,,,,19,34,3,4,0.7,0.9
2024-12-25T0200,1957A,86.1972,41.7166,巴音郭楞蒙古自治州,棉纺厂,细颗粒物(PM2.5),83,91,93,61,56,46,,,,35,41,2,4,0.8,0.8
2024-12-25T0200,1958A,86.2357,41.7173,巴音郭楞蒙古自治州,经济开发区,细颗粒物(PM2.5),79,73,75,58,53,59,,,,25,35,3,4,0.7,0.7
2024-12-25T0200,2914A,106.7677,31.8794,巴中市,苏山坪,细颗粒物(PM2.5),58,48,62,41,54,65,,,,12,19,4,4,0.6,0.7
2024-12-25T0200,3182A,106.7656,31.8545,巴中市,丽阳花园,细颗粒物(PM2.5),70,61,69,51,54,10,,,,26,29,3,4,0.6,0.7
2024-12-25T0200,3183A,106.7418,31.8654,巴中市,圣泉水务公司,细颗粒物(PM2.5),60,51,58,43,48,3,,,,37,31,2,3,0.5,0.6
2024-12-25T0200,3616A,106.7616,31.8344,巴中市,市中心医院,细颗粒物(PM2.5),109,86,68,82,63,3,,,,30,27,3,3,0.8,0.7
2024-12-25T0200,2235A,122.7911,45.6077,白城市,洮北区环保局,,43,43,30,23,17,60,,,,10,14,2,4,0.6,0.7
2024-12-25T0200,2236A,122.8738,45.5725,白城市,市环保局,颗粒物(PM10),54,58,40,22,16,55,,,,10,10,4,6,0.4,0.3
2024-12-25T0200,2231A,126.4219,41.9171,白山市,喜丰,颗粒物(PM10),72,94,65,38,29,8,,,,52,38,17,18,1.0,0.9
2024-12-25T0200,2232A,126.4077,41.9419,白山市,环保局,颗粒物(PM10),68,86,64,34,30,17,,,,32,30,7,7,1.0,1
2024-12-25T0200,2647A,104.1724,36.5446,白银市,第三小学,细颗粒物(PM2.5),85,66,80,63,59,12,,,,42,37,38,47,1.5,1.3
2024-12-25T0200,2648A,104.1465,36.5482,白银市,动力公司,细颗粒物(PM2.5),85,74,71,63,58,28,,,,34,32,14,20,1.6,1.3
2024-12-25T0200,2512A,106.6103,23.9011,百色市,市监测站,细颗粒物(PM2.5),92,87,86,68,70,5,,,,50,34,11,12,1.2,1.2
2024-12-25T0200,2513A,106.6538,23.8859,百色市,市中心血站,细颗粒物(PM2.5),125,140,125,95,91,7,,,,60,47,12,24,1.2,1.1
2024-12-25T0200,3406A,106.6085,23.8798,百色市,祈福高中,细颗粒物(PM2.5),93,104,102,69,116,24,,,,33,41,6,7,1.0,1
2024-12-25T0200,2270A,117.396,32.939,蚌埠市,工人疗养院,细颗粒物(PM2.5),132,124,112,100,86,6,,,,83,52,13,9,0.8,0.6
2024-12-25T0200,2271A,117.3605,32.9427,蚌埠市,百货大楼,细颗粒物(PM2.5),147,143,110,112,85,0,,,,71,48,9,9,0.8,0.7
2024-12-25T0200,2273A,117.4185,32.8911,蚌埠市,蚌埠学院,细颗粒物(PM2.5),103,97,105,77,77,22,,,,63,52,8,10,0.6,0.6
2024-12-25T0200,2274A,117.3533,32.9673,蚌埠市,淮上区政府,细颗粒物(PM2.5),166,175,118,126,88,5,,,,66,48,11,10,0.7,0.7
2024-12-25T0200,2275A,117.3145,32.8977,蚌埠市,高新区,细颗粒物(PM2.5),128,127,110,97,81,6,,,,90,64,16,12,0.9,0.7
2024-12-25T0200,3715A,117.3092,32.9314,蚌埠市,蚌埠田家炳中学,细颗粒物(PM2.5),158,191,128,120,89,2,,,,73,58,12,10,0.9,0.8
2024-12-25T0200,1585A,109.8756,40.6532,包头市,市环境监测站,颗粒物(PM10),77,103,102,41,35,6,,,,66,54,11,20,1.3,1.5
2024-12-25T0200,1587A,109.9991,40.5842,包头市,包头八中,颗粒物(PM10),82,114,99,46,38,8,,,,64,42,12,10,1.5,1
2024-12-25T0200,1588A,109.8538,40.6821,包头市,青山宾馆,颗粒物(PM10),72,94,101,49,48,5,,,,60,55,12,18,1.4,1.4
2024-12-25T0200,1589A,109.8642,40.6288,包头市,惠龙物流,颗粒物(PM10),74,98,102,46,36,4,,,,69,48,13,16,1.7,1.2
2024-12-25T0200,1590A,110.0377,40.5546,包头市,东河鸿龙湾,颗粒物(PM10),74,98,86,34,32,7,,,,74,43,26,14,1.3,1
2024-12-25T0200,3283A,109.9154,40.5685,包头市,滨河大厦,颗粒物(PM10),79,107,106,38,31,16,,,,60,38,28,12,1.0,0.6
2024-12-25T0200,3419A,109.9447,40.6261,包头市,包头市委党校,颗粒物(PM10),84,117,106,31,30,7,,,,65,47,10,15,1.0,0.9
2024-12-25T0200,3683A,109.8331,40.6576,包头市,昆区政府,颗粒物(PM10),81,111,113,46,48,4,,,,69,56,15,24,1.2,1.5
2024-12-25T0200,1930A,107.185,34.3063,宝鸡市,庙沟村,细颗粒物(PM2.5),83,83,66,61,50,42,,,,30,26,7,7,0.7,0.6
2024-12-25T0200,1931A,107.0708,34.3017,宝鸡市,竹园沟,细颗粒物(PM2.5),74,70,68,54,50,26,,,,24,22,5,6,0.6,0.6
2024-12-25T0200,1932A,107.1906,34.3672,宝鸡市,三陆医院,细颗粒物(PM2.5),94,99,99,70,71,30,,,,30,38,6,7,0.7,0.8
2024-12-25T0200,1933A,107.1431,34.3547,宝鸡市,监测站,细颗粒物(PM2.5),83,98,89,61,58,19,,,,38,37,7,8,0.7,0.7
2024-12-25T0200,1934A,107.1186,34.3739,宝鸡市,技工学校,细颗粒物(PM2.5),92,98,92,68,58,32,,,,27,31,8,8,0.6,0.6
2024-12-25T0200,1935A,107.3906,34.3528,宝鸡市,陈仓区环保局家属楼,细颗粒物(PM2.5),123,143,115,93,76,13,,,,55,46,30,12,1.1,1
2024-12-25T0200,1936A,107.2058,34.3497,宝鸡市,文理学院,细颗粒物(PM2.5),94,108,87,70,61,26,,,,37,38,7,7,0.6,0.6
2024-12-25T0200,1937A,107.2386,34.3622,宝鸡市,三迪小学,细颗粒物(PM2.5),102,,86,76,70,22,,,,37,44,8,8,0.9,0.9
2024-12-25T0200,1051A,115.493,38.8632,保定市,游泳馆,细颗粒物(PM2.5),155,147,117,118,88,8,,,,77,63,11,10,0.7,0.8
2024-12-25T0200,1052A,115.5213,38.8959,保定市,华电二区,细颗粒物(PM2.5),153,132,98,117,79,13,,,,69,61,5,7,0.4,0.8
2024-12-25T0200,1053A,115.4713,38.9108,保定市,接待中心,细颗粒物(PM2.5),163,149,118,124,90,7,,,,73,56,8,8,0.7,0.9
2024-12-25T0200,1054A,115.4612,38.8416,保定市,地表水厂,细颗粒物(PM2.5),160,155,123,122,90,10,,,,68,61,9,9,0.7,0.7
2024-12-25T0200,3581A,115.31981,38.95208,保定市,满城区生态环境分局,细颗粒物(PM2.5),170,163,124,129,84,8,,,,73,62,6,6,1.3,0.8
2024-12-25T0200,3582A,115.47694,38.76408,保定市,清苑区第二中学,细颗粒物(PM2.5),110,121,107,83,68,13,,,,59,54,13,11,0.8,1
2024-12-25T0200,3583A,115.62909,39.02311,保定市,徐水物探局,细颗粒物(PM2.5),132,119,107,100,76,4,,,,64,57,10,10,1.1,0.9
2024-12-25T0200,4004A,115.4202,38.8656,保定市,双鹰农机,细颗粒物(PM2.5),170,168,127,129,95,9,,,,67,54,11,10,0.6,0.8
2024-12-25T0200,4034A,115.5150,38.8590,保定市,植保所站,细颗粒物(PM2.5),160,143,127,122,94,16,,,,53,61,10,10,0.7,0.9
2024-12-25T0200,2594A,99.1678,25.1081,保山市,市环境监测站,,23,,20,16,9,46,,,,6,10,5,5,0.2,0.4
2024-12-25T0200,2595A,99.1711,25.1328,保山市,市环保局,,33,,25,23,20,52,,,,3,8,5,6,0.3,0.3
2024-12-25T0200,1866A,109.2262,21.588,北海市,牛尾岭水库,细颗粒物(PM2.5),128,,79,97,71,65,,,,,15,7,11,0.7,0.9
2024-12-25T0200,1867A,109.1436,21.4086,北海市,海滩公园,细颗粒物(PM2.5),98,99,98,73,72,121,,,,20,21,14,12,0.9,1
2024-12-25T0200,1868A,109.0981,21.4661,北海市,新市环保局,细颗粒物(PM2.5),119,105,93,90,77,109,,,,23,23,11,12,0.8,0.8
2024-12-25T0200,1869A,109.1778,21.5233,北海市,北海工业园,细颗粒物(PM2.5),117,123,106,88,80,83,,,,33,26,14,16,1.0,1
2024-12-25T0200,3400A,109.1911,21.4415,北海市,龙潭自来水厂,细颗粒物(PM2.5),153,126,99,117,86,78,,,,26,22,15,12,1.0,0.9
2024-12-25T0200,1001A,116.3621,39.8784,北京市,万寿西宫,细颗粒物(PM2.5),93,117,95,69,56,0,,,,88,79,7,7,1.1,0.9
2024-12-25T0200,1002A,116.2202,40.2915,北京市,定陵,,,51,47,39,34,,,,,33,26,3,4,0.6,0.5
2024-12-25T0200,1003A,116.4174,39.9289,北京市,东四,细颗粒物(PM2.5),99,115,96,74,58,1,,,,87,70,7,11,1.3,1.2
2024-12-25T0200,1004A,116.4072,39.8863,北京市,天坛,细颗粒物(PM2.5),112,109,90,84,59,5,,,,71,67,3,3,1.0,0.8
2024-12-25T0200,1005A,116.462,39.9365,北京市,农展馆,细颗粒物(PM2.5),112,132,97,84,57,6,,,,100,80,3,5,1.7,1.1
2024-12-25T0200,1006A,116.3392,39.9295,北京市,官园,细颗粒物(PM2.5),82,97,86,60,54,0,,,,83,72,9,8,1.0,1
2024-12-25T0200,1007A,116.2878,39.9611,北京市,海淀万柳,颗粒物(PM10),66,82,80,43,42,7,,,,70,72,4,5,1.0,1
2024-12-25T0200,1008A,116.6636,40.135,北京市,顺义新城,细颗粒物(PM2.5),98,117,78,73,47,2,,,,73,66,2,4,1.0,0.7
2024-12-25T0200,1009A,116.6275,40.3275,北京市,怀柔镇,细颗粒物(PM2.5),64,62,56,46,37,7,,,,48,42,2,4,0.8,0.8
2024-12-25T0200,1010A,116.2296,40.217,北京市,昌平镇,细颗粒物(PM2.5),62,70,61,44,36,3,,,,55,46,3,4,0.8,0.7
2024-12-25T0200,1011A,116.3966,39.9821,北京市,奥体中心,细颗粒物(PM2.5),93,117,98,69,49,8,,,,75,69,8,7,1.2,1.1
2024-12-25T0200,1012A,116.184,39.9136,北京市,古城,颗粒物(PM10),74,97,78,50,41,1,,,,65,62,6,7,0.7,0.7
2024-12-25T0200,3281A,115.9718,40.4529,北京市,延庆夏都,细颗粒物(PM2.5),84,97,84,62,52,5,,,,37,38,1,4,1.1,0.9
2024-12-25T0200,3417A,117.0709,40.1465,北京市,平谷新城,细颗粒物(PM2.5),97,96,82,72,54,3,,,,45,43,1,3,1.2,1
2024-12-25T0200,3418A,116.8336,40.4095,北京市,密云新城,颗粒物(PM10),79,108,75,54,36,2,,,,49,46,1,3,1.0,0.8
2024-12-25T0200,3671A,116.088,39.9726,北京市,门头沟三家店,颗粒物(PM10),65,79,66,41,32,1,,,,62,50,4,4,0.7,0.6
2024-12-25T0200,3672A,116.1541,39.8204,北京市,丰台云岗,颗粒物(PM10),69,87,77,49,42,0,,,,69,62,6,5,0.8,0.7
2024-12-25T0200,3673A,116.6804,39.9081,北京市,通州东关,细颗粒物(PM2.5),129,164,121,98,69,3,,,,100,80,5,6,1.4,1
2024-12-25T0200,3674A,115.9577,39.7603,北京市,房山燕山,细颗粒物(PM2.5),67,67,62,48,39,2,,,,59,52,2,3,0.7,0.6
2024-12-25T0200,3675A,116.4672,39.7733,北京市,大兴旧宫,细颗粒物(PM2.5),135,152,101,103,62,1,,,,71,68,1,3,1.0,0.9
2024-12-25T0200,3694A,115.986,40.4563,北京市,延庆石河营,细颗粒物(PM2.5),89,91,81,66,54,4,,,,38,40,2,4,1.4,1
2024-12-25T0200,3695A,116.6151,40.3053,北京市,怀柔新城,细颗粒物(PM2.5),63,63,54,45,38,9,,,,44,41,1,3,0.6,0.6
2024-12-25T0200,3696A,116.2545,39.8768,北京市,丰台小屯,"颗粒物(PM10),细颗粒物(PM2.5)",89,128,99,66,52,2,,,,88,80,5,6,1.3,1
2024-12-25T0200,3697A,116.84,40.3844,北京市,密云镇,细颗粒物(PM2.5),87,99,73,64,45,1,,,,65,57,2,3,0.5,0.5
2024-12-25T0200,1761A,123.8275,41.3064,本溪市,大峪,颗粒物(PM10),51,51,77,31,46,18,,,,47,55,12,16,1.9,2.4
2024-12-25T0200,1762A,123.7567,41.3325,本溪市,溪湖,颗粒物(PM10),56,61,77,28,35,10,,,,68,52,30,15,1.3,1.9
2024-12-25T0200,1763A,123.7169,41.3094,本溪市,彩屯,细颗粒物(PM2.5),63,64,83,45,58,11,,,,52,49,17,15,3.0,2
2024-12-25T0200,1764A,123.7669,41.2864,本溪市,东明,颗粒物(PM10),54,58,96,24,58,36,,,,38,54,13,15,1.1,2.5
2024-12-25T0200,1765A,123.7992,41.2664,本溪市,新立屯,,37,37,55,10,21,62,,,,25,46,7,7,0.3,1.1
2024-12-25T0200,1766A,123.8142,41.3472,本溪市,威宁,颗粒物(PM10),71,92,111,14,54,13,,,,57,54,5,8,1.2,2.2
2024-12-25T0200,2587A,105.2864,27.3125,毕节市,八中,,9,6,13,3,12,26,,,,12,15,6,6,0.7,0.8
2024-12-25T0200,2588A,105.31,27.2944,毕节市,师专,,8,6,13,3,10,24,,,,13,16,6,6,0.8,0.8
2024-12-25T0200,3537A,105.3631,27.3533,毕节市,长征村,,8,6,11,3,10,24,,,,11,12,9,10,0.7,0.7
2024-12-25T0200,1629A,118.0018,37.3617,滨州市,第二水厂,细颗粒物(PM2.5),140,141,134,107,94,8,,,,82,82,16,16,1.3,1.3
2024-12-25T0200,1630A,117.9776,37.393,滨州市,北中新校,细颗粒物(PM2.5),138,141,131,105,88,8,,,,92,82,21,18,1.1,1
2024-12-25T0200,3514A,117.9378,37.3956,滨州市,中海酒店,细颗粒物(PM2.5),140,146,127,107,92,14,,,,80,73,15,16,1.2,1.1
2024-12-25T0200,3515A,117.9378,37.3553,滨州市,开发区一中,细颗粒物(PM2.5),138,134,132,105,94,14,,,,88,85,21,21,1.1,1
2024-12-25T0200,3516A,118.0917,37.694,滨州市,金海六路,细颗粒物(PM2.5),144,149,132,110,92,5,,,,100,86,29,25,1.5,1.3
2024-12-25T0200,4028A,117.9956,37.3753,滨州市,滨州市西街道办事处,细颗粒物(PM2.5),140,136,136,107,104,4,,,,74,73,15,14,1.1,1.1
2024-12-25T0200,2311A,115.8072,33.8399,亳州市,污水处理厂,细颗粒物(PM2.5),117,116,114,88,79,10,,,,58,46,13,12,0.9,0.8
2024-12-25T0200,2312A,115.7789,33.8518,亳州市,三国揽胜宫,细颗粒物(PM2.5),110,122,126,83,83,12,,,,58,49,10,8,0.9,0.8
2024-12-25T0200,3332A,115.7633,33.8034,亳州市,亳州学院,细颗粒物(PM2.5),125,115,107,95,74,56,,,,22,35,4,6,0.6,0.6
2024-12-25T0200,2693A,82.0485,44.8556,博尔塔拉蒙古自治州,市党校,细颗粒物(PM2.5),55,,61,39,51,50,,,,13,22,10,12,0,0.8
2024-12-25T0200,2694A,82.0806,44.8969,博尔塔拉蒙古自治州,市环保局,细颗粒物(PM2.5),60,55,79,43,46,40,,,,24,30,7,8,1.0,1.2
2024-12-25T0200,1071A,116.8842,38.2991,沧州市,沧县城建局,细颗粒物(PM2.5),128,117,111,97,78,8,,,,72,64,12,8,1.3,1.2
2024-12-25T0200,1072A,116.8584,38.3254,沧州市,电视转播站,细颗粒物(PM2.5),128,128,101,97,76,7,,,,72,61,11,13,0.8,0.8
2024-12-25T0200,1073A,116.8709,38.3228,沧州市,市环保局,细颗粒物(PM2.5),132,117,99,100,77,6,,,,67,57,14,9,0.9,0.8
2024-12-25T0200,3324A,116.8136,38.3004,沧州市,河北水利电力学院,细颗粒物(PM2.5),150,158,115,115,80,4,,,,70,58,9,8,1.0,0.8
2024-12-25T0200,2622A,97.1806,31.1273,昌都市,昌都监测站,,41,41,30,13,14,13,,,,47,32,6,6,0.9,0.8
2024-12-25T0200,3719A,97.1714,31.1406,昌都市,昌都会议中心,,19,9,10,8,8,60,,,,6,9,4,4,0.4,0.6
2024-12-25T0200,2690A,88.1236,43.8886,昌吉回族自治州,天山天池,,21,7,7,7,5,67,,,,3,5,9,10,0.4,0.5
2024-12-25T0200,2692A,87.2717,44.0297,昌吉回族自治州,新区政务中心,细颗粒物(PM2.5),89,91,141,66,94,53,,,,23,29,9,8,1.1,1.2
2024-12-25T0200,3613A,87.3095,44.0142,昌吉回族自治州,亚心广场,细颗粒物(PM2.5),100,97,143,75,115,56,,,,24,36,8,8,0.9,1.1
2024-12-25T0200,1119A,125.3325,43.9166,长春市,食品厂,细颗粒物(PM2.5),63,57,47,45,25,32,,,,33,34,14,12,0.8,0.5
2024-12-25T0200,1120A,125.2863,43.9027,长春市,客车厂,细颗粒物(PM2.5),68,58,45,49,28,32,,,,30,33,16,14,0.8,0.5
2024-12-25T0200,1121A,125.2841,43.8463,长春市,邮电学院,"颗粒物(PM10),细颗粒物(PM2.5)",57,63,43,40,24,36,,,,36,36,18,18,0.9,0.6
2024-12-25T0200,1122A,125.3716,43.8772,长春市,劳动公园,细颗粒物(PM2.5),58,55,44,41,25,36,,,,37,33,24,16,1.0,0.7
2024-12-25T0200,1123A,125.3297,43.8805,长春市,园林处,颗粒物(PM10),57,64,42,36,21,29,,,,36,27,21,13,0.7,0.5
2024-12-25T0200,1124A,125.4605,43.79,长春市,净月潭,,39,39,30,25,21,53,,,,13,11,9,8,0.6,0.4
2024-12-25T0200,1125A,125.7194,43.515,长春市,甩湾子,,,,,,,,,,,,,,,,
2024-12-25T0200,1126A,125.3863,43.8447,长春市,经开区环卫处,颗粒物(PM10),52,54,43,34,22,29,,,,36,33,15,12,0.8,0.6
2024-12-25T0200,1127A,125.245,43.7783,长春市,高新区管委会,细颗粒物(PM2.5),55,53,41,39,26,40,,,,33,32,13,8,0.8,0.5
2024-12-25T0200,1128A,125.1761,43.8325,长春市,岱山公园,细颗粒物(PM2.5),62,49,44,44,25,35,,,,29,36,13,10,1.0,0.6
2024-12-25T0200,1335A,113.0833,28.2325,长沙市,经开区环保局,细颗粒物(PM2.5),132,144,124,100,85,7,,,,63,41,4,6,0.8,0.6
2024-12-25T0200,1336A,112.8872,28.2189,长沙市,高开区环保局,细颗粒物(PM2.5),125,125,114,95,84,20,,,,49,30,6,7,0.6,0.6
2024-12-25T0200,1337A,113.0792,28.2053,长沙市,马坡岭,,,127,119,,84,16,,,,51,38,4,6,0.9,0.9
2024-12-25T0200,1338A,112.9394,28.19,长沙市,湖南师范大学,细颗粒物(PM2.5),124,128,120,94,84,34,,,,43,33,6,7,0.9,0.8
2024-12-25T0200,1339A,113.0178,28.1322,长沙市,雨花区环保局,细颗粒物(PM2.5),134,129,117,102,91,30,,,,51,44,7,8,0.7,0.7
2024-12-25T0200,1340A,112.9792,28.2597,长沙市,伍家岭,细颗粒物(PM2.5),105,131,123,79,80,22,,,,47,37,5,6,0.6,0.7
2024-12-25T0200,1341A,113.0014,28.1944,长沙市,火车新站,细颗粒物(PM2.5),128,,104,97,88,45,,,,35,40,5,6,0.7,0.7
2024-12-25T0200,1342A,112.9844,28.1178,长沙市,天心区环保局,细颗粒物(PM2.5),129,138,126,98,81,26,,,,47,38,4,5,0.9,0.9
2024-12-25T0200,1343A,112.8908,28.1308,长沙市,湖南中医药大学,细颗粒物(PM2.5),122,132,118,92,76,18,,,,54,37,8,8,0.9,0.9
2024-12-25T0200,1344A,112.9581,28.3611,长沙市,沙坪,细颗粒物(PM2.5),130,101,97,99,91,48,,,,20,24,8,9,1.0,1
2024-12-25T0200,1727A,113.1147,36.1547,长治市,清华站,细颗粒物(PM2.5),100,108,82,75,59,3,,,,58,49,22,22,1.4,1.3
2024-12-25T0200,1728A,113.1031,36.1989,长治市,监测站,细颗粒物(PM2.5),107,97,90,80,71,8,,,,58,54,20,21,1.6,1.8
2024-12-25T0200,1730A,113.0886,36.2125,长治市,审计局,细颗粒物(PM2.5),104,89,98,78,74,12,,,,55,58,21,23,1.3,1.5
2024-12-25T0200,1731A,113.0844,36.1856,长治市,长治八中,细颗粒物(PM2.5),153,166,135,117,85,9,,,,55,54,23,23,1.4,1.7
2024-12-25T0200,2845A,113.1569,36.1911,长治市,德盛苑,细颗粒物(PM2.5),98,97,77,73,59,25,,,,42,36,12,14,1.5,1.5
2024-12-25T0200,3568A,113.06,36.0464,长治市,向阳小学,细颗粒物(PM2.5),113,107,96,85,67,14,,,,52,39,28,25,1.6,1.2
2024-12-25T0200,3569A,112.8792,36.3144,长治市,屯留一中,细颗粒物(PM2.5),95,74,78,71,71,33,,,,42,53,15,23,1.5,1.7
2024-12-25T0200,3570A,113.235,36.3489,长治市,潞城四中,细颗粒物(PM2.5),129,112,108,98,67,7,,,,56,48,29,38,1.6,2
2024-12-25T0200,1854A,111.6975,28.9703,常德市,市二中,细颗粒物(PM2.5),149,143,104,114,90,24,,,,40,32,5,7,0.7,0.7
2024-12-25T0200,1857A,111.7158,29.1456,常德市,白鹤山,,,,,,,,,,,,,,,,
2024-12-25T0200,3138A,111.7153,29.0289,常德市,武陵区永安,细颗粒物(PM2.5),172,156,111,130,87,8,,,,53,29,4,7,0.8,0.7
2024-12-25T0200,3139A,111.6892,28.9881,常德市,鼎城区玉霞,细颗粒物(PM2.5),150,158,115,115,88,7,,,,50,30,4,7,0.9,0.8
2024-12-25T0200,3140A,111.6625,29.0531,常德市,武陵区长庚,细颗粒物(PM2.5),148,151,116,113,85,21,,,,37,29,3,10,0.8,0.7
2024-12-25T0200,1196A,119.9633,31.762,常州市,市监测站,细颗粒物(PM2.5),100,101,95,75,64,3,,,,90,64,11,13,0.9,0.9
2024-12-25T0200,1200A,119.9468,31.7069,常州市,武进监测站,细颗粒物(PM2.5),92,97,74,68,54,5,,,,90,57,10,11,1.2,0.8
2024-12-25T0200,1201A,119.9255,31.9087,常州市,安家,细颗粒物(PM2.5),93,96,84,69,58,3,,,,79,60,10,13,1.0,0.9
2024-12-25T0200,3002A,119.9805,31.8174,常州市,行政中心,细颗粒物(PM2.5),84,79,79,62,60,0,,,,78,56,10,13,0.6,0.8
2024-12-25T0200,3003A,120.0522,31.7748,常州市,经开区,细颗粒物(PM2.5),77,98,87,56,58,4,,,,77,62,11,14,0.9,1
2024-12-25T0200,3010A,119.9025,31.7964,常州市,钟楼,细颗粒物(PM2.5),90,92,82,67,59,3,,,,88,56,10,13,1.0,1
2024-12-25T0200,3429A,119.8598,31.7066,常州市,武进经发区,细颗粒物(PM2.5),118,122,90,89,59,6,,,,88,60,8,12,1.5,1
2024-12-25T0200,3430A,119.5826,31.7245,常州市,金坛城区,细颗粒物(PM2.5),107,106,87,80,62,12,,,,80,45,13,12,1.1,0.8
2024-12-25T0200,2220A,120.4318,41.5881,朝阳市,西梁,颗粒物(PM10),69,87,116,34,70,23,,,,39,49,19,17,1.6,2.3
2024-12-25T0200,2221A,120.4521,41.5646,朝阳市,河畔小区,"颗粒物(PM10),细颗粒物(PM2.5)",55,59,85,39,53,24,,,,39,39,15,16,1.4,1.5
2024-12-25T0200,2222A,120.4176,41.5648,朝阳市,八里堡,细颗粒物(PM2.5),78,75,92,57,51,10,,,,54,44,18,19,1.8,1.9
2024-12-25T0200,2223A,120.3806,41.5969,朝阳市,农业园区,细颗粒物(PM2.5),64,,77,46,67,38,,,,30,47,20,23,1.3,1.7
2024-12-25T0200,1705A,116.6367,23.6719,潮州市,西园路,,43,43,44,18,22,47,,,,21,16,5,6,0.4,0.5
2024-12-25T0200,3026A,116.6183,23.6608,潮州市,市政府,,30,30,42,16,20,43,,,,24,21,6,6,0.4,0.5
2024-12-25T0200,4036A,116.6461,23.6761,潮州市,金山,,33,33,34,19,21,39,,,,19,15,6,7,0.5,0.5
2024-12-25T0200,2472A,113.0073,25.9061,郴州市,马头岭,细颗粒物(PM2.5),103,100,114,77,70,23,,,,39,35,8,12,0.8,0.8
2024-12-25T0200,2473A,113.0116,25.8226,郴州市,市职中,细颗粒物(PM2.5),99,93,91,74,73,17,,,,36,33,2,6,0.9,0.9
2024-12-25T0200,2474A,113.0161,25.8001,郴州市,兴隆步行街,细颗粒物(PM2.5),125,121,107,95,80,34,,,,36,35,5,8,0.7,0.9
2024-12-25T0200,2475A,113.0383,25.8071,郴州市,市审计局,细颗粒物(PM2.5),110,104,97,83,77,20,,,,41,33,5,8,0.9,0.9
2024-12-25T0200,2476A,113.0348,25.7759,郴州市,市环保局,细颗粒物(PM2.5),127,114,98,96,80,20,,,,47,31,5,7,1.1,0.9
2024-12-25T0200,1431A,103.9728,30.7236,成都市,金泉两河,颗粒物(PM10),51,51,56,33,37,0,,,,52,36,2,2,0.8,0.7
2024-12-25T0200,1432A,104.176,30.6872,成都市,十里店,细颗粒物(PM2.5),58,64,59,41,45,4,,,,62,45,2,2,0.9,0.7
2024-12-25T0200,1433A,104.079,30.5706,成都市,三瓦窑,颗粒物(PM10),57,64,58,35,44,0,,,,59,38,2,2,0.7,0.7
2024-12-25T0200,1434A,104.1114,30.63,成都市,沙河铺,颗粒物(PM10),51,51,57,34,42,8,,,,41,33,2,2,0.7,0.6
2024-12-25T0200,1437A,104.0786,30.6531,成都市,君平街,细颗粒物(PM2.5),69,59,59,50,46,4,,,,55,34,5,4,0.7,0.8
2024-12-25T0200,1438A,103.613,31.0283,成都市,灵岩寺,,,,,,,,,,,,,,,,
2024-12-25T0200,2880A,104.0239,30.65639,成都市,大石西路,颗粒物(PM10),58,66,59,38,43,5,,,,47,34,3,3,0.7,0.7
2024-12-25T0200,3136A,104.2725,30.5589,成都市,龙泉驿区区政府,,48,48,56,31,45,21,,,,24,25,2,2,0.7,0.7
2024-12-25T0200,3357A,104.0106,30.6931,成都市,金博路,细颗粒物(PM2.5),59,,48,42,37,23,,,,32,33,1,1,0.6,0.6
2024-12-25T0200,3359A,104.0578,30.5225,成都市,华阳,细颗粒物(PM2.5),67,56,58,48,45,15,,,,42,28,1,2,0.6,0.5
2024-12-25T0200,3487A,104.2394,30.5319,成都市,车城东七路,,43,38,52,30,46,44,,,,15,21,1,2,0.7,0.6
2024-12-25T0200,3488A,104.3853,30.7453,成都市,青白江技师分院,,46,39,53,32,46,11,,,,38,33,1,2,0.5,0.5
2024-12-25T0200,3489A,104.0789,30.4072,成都市,科学城,细颗粒物(PM2.5),52,43,54,36,47,5,,,,46,26,4,4,0.7,0.6
2024-12-25T0200,4011A,103.8506,30.6947,成都市,光华大道三段,颗粒物(PM10),56,61,49,28,32,4,,,,42,31,2,1,0.9,0.6
2024-12-25T0200,1062A,117.9531,40.9081,承德市,铁路,细颗粒物(PM2.5),110,99,75,83,46,5,,,,44,46,8,9,1.4,1.2
2024-12-25T0200,1063A,117.9392,40.9763,承德市,中国银行,细颗粒物(PM2.5),87,89,77,64,44,3,,,,53,35,3,4,1.4,1.1
2024-12-25T0200,1064A,117.9503,40.928,承德市,开发区,细颗粒物(PM2.5),67,71,66,48,36,6,,,,42,40,6,7,1.4,1
2024-12-25T0200,1065A,117.8051,40.9655,承德市,文化中心,细颗粒物(PM2.5),84,109,118,62,53,3,,,,54,53,5,10,1.2,1.3
2024-12-25T0200,1066A,117.9268,41.0026,承德市,离宫,细颗粒物(PM2.5),93,95,69,69,50,4,,,,50,42,6,7,1.2,0.9
2024-12-25T0200,2314A,117.47,30.6618,池州市,池州学院,细颗粒物(PM2.5),122,104,102,92,81,5,,,,60,48,7,10,0.8,0.8
2024-12-25T0200,3237A,117.4918,30.6617,池州市,展览馆,细颗粒物(PM2.5),129,134,114,98,79,6,,,,59,46,7,8,0.9,0.9
2024-12-25T0200,3333A,117.5627,30.695,池州市,第八中学,细颗粒物(PM2.5),128,131,119,97,87,3,,,,64,48,8,8,0.8,0.9
2024-12-25T0200,3334A,117.5038,30.6243,池州市,第十二中学,细颗粒物(PM2.5),122,121,114,92,87,17,,,,44,42,4,5,0.9,1
2024-12-25T0200,1744A,118.9233,42.2816,赤峰市,松山一中,,38,36,60,26,31,45,,,,27,46,15,19,1.3,1.3
2024-12-25T0200,1745A,118.9576,42.2728,赤峰市,哈达街,,28,28,29,17,28,62,,,,14,44,7,20,0.8,1.3
2024-12-25T0200,1746A,118.8788,42.2554,赤峰市,天义路,,39,39,44,22,25,45,,,,20,36,7,11,0.7,0.9
2024-12-25T0200,3058A,119.2658,42.0353,赤峰市,银河街,,50,50,96,34,61,27,,,,32,41,19,24,1.3,1.8
2024-12-25T0200,3286A,118.9359,42.3147,赤峰市,桥北物流园区,,30,,50,21,34,59,,,,17,32,11,23,1.0,1.3
2024-12-25T0200,2521A,107.3476,22.4136,崇左市,市环保局江州分局,细颗粒物(PM2.5),113,133,116,85,67,97,,,,23,28,11,8,1.1,1.1
2024-12-25T0200,2522A,107.3702,22.3707,崇左市,城南新区,细颗粒物(PM2.5),125,135,99,95,80,108,,,,20,26,14,10,1.1,1
2024-12-25T0200,2298A,118.3093,32.3153,滁州市,老年大学,细颗粒物(PM2.5),85,77,76,63,54,4,,,,67,52,8,8,0.7,0.7
2024-12-25T0200,2299A,118.3244,32.2786,滁州市,人大宾馆,细颗粒物(PM2.5),94,85,78,70,59,6,,,,71,49,8,7,0.7,0.7
2024-12-25T0200,3207A,118.3118,32.3038,滁州市,市政府原办公楼,细颗粒物(PM2.5),90,84,73,67,57,6,,,,71,55,5,7,0.7,0.8
2024-12-25T0200,3331A,118.3267,32.2634,滁州市,图书馆,细颗粒物(PM2.5),88,90,80,65,53,7,,,,70,49,6,8,0.7,0.6
2024-12-25T0200,2605A,101.5482,25.0441,楚雄彝族自治州,州环境监测站,,40,28,25,28,21,19,,,,27,15,8,7,0.6,0.5
2024-12-25T0200,2606A,101.538,25.0492,楚雄彝族自治州,市经济开发区,,46,45,28,32,22,23,,,,21,16,8,6,0.6,0.6
2024-12-25T0200,2548A,107.5277,31.2827,达州市,达州职业技术学院,细颗粒物(PM2.5),142,113,102,108,89,7,,,,31,31,5,7,0.6,0.6
2024-12-25T0200,2549A,107.5086,31.2186,达州市,市环境监测站,细颗粒物(PM2.5),119,118,102,90,73,5,,,,42,46,6,7,1.0,1
2024-12-25T0200,2550A,107.4988,31.2132,达州市,凤凰小区,细颗粒物(PM2.5),125,119,98,95,77,5,,,,43,45,8,9,1.0,0.9
2024-12-25T0200,2551A,107.5082,31.1986,达州市,达县机关宾馆,细颗粒物(PM2.5),127,102,101,96,78,4,,,,48,46,7,7,1.0,1.1
2024-12-25T0200,2552A,107.4644,31.2124,达州市,市政中心,细颗粒物(PM2.5),119,111,100,90,74,4,,,,48,49,6,7,1.0,1
2024-12-25T0200,2614A,100.1542,25.7054,大理白族自治州,大理市环境监测站,,25,,16,17,15,67,,,,9,7,7,7,0.5,0.5
2024-12-25T0200,2615A,100.2171,25.5811,大理白族自治州,大理古城,,25,25,23,17,13,60,,,,13,12,5,6,0.6,0.6
2024-12-25T0200,1109A,121.612,38.9741,大连市,甘井子,细颗粒物(PM2.5),53,45,48,37,30,51,,,,33,37,12,12,1.0,1
2024-12-25T0200,1110A,121.565,38.9511,大连市,周水子,细颗粒物(PM2.5),62,45,46,44,34,45,,,,29,40,11,12,0.9,0.9
2024-12-25T0200,1111A,121.5637,38.8845,大连市,星海三站,细颗粒物(PM2.5),57,46,42,40,29,52,,,,24,28,16,15,0.6,0.7
2024-12-25T0200,1112A,121.6302,38.9117,大连市,青泥洼桥,细颗粒物(PM2.5),59,56,43,42,28,50,,,,18,26,12,13,0.6,0.6
2024-12-25T0200,1113A,121.6251,38.8638,大连市,傅家庄,细颗粒物(PM2.5),54,49,35,38,22,55,,,,18,17,14,15,0.5,0.4
2024-12-25T0200,1114A,121.5213,38.8661,大连市,七贤岭,细颗粒物(PM2.5),54,54,38,38,28,55,,,,21,21,12,10,0.8,0.8
2024-12-25T0200,1115A,121.2529,38.8061,大连市,旅顺,细颗粒物(PM2.5),64,52,35,46,28,46,,,,28,26,14,12,0.7,0.6
2024-12-25T0200,1116A,121.7485,39.1311,大连市,金州,细颗粒物(PM2.5),52,48,53,36,39,54,,,,25,30,13,12,1.1,1.1
2024-12-25T0200,1117A,121.7811,39.0496,大连市,开发区,细颗粒物(PM2.5),52,47,49,36,34,55,,,,21,39,12,13,0.6,0.7
2024-12-25T0200,1118A,121.9762,39.0631,大连市,双D港,细颗粒物(PM2.5),55,45,38,39,25,63,,,,21,20,10,12,0.7,0.7
2024-12-25T0200,1789A,124.81117,46.03138,大庆市,大同区,颗粒物(PM10),58,65,55,31,32,39,,,,14,21,8,9,0.5,0.6
2024-12-25T0200,1790A,125.129,46.533,大庆市,龙凤区,颗粒物(PM10),57,64,58,33,35,42,,,,18,27,9,15,0.6,0.7
2024-12-25T0200,1791A,124.902,46.408,大庆市,红岗区,,48,48,38,21,22,40,,,,11,22,7,7,0.4,0.5
2024-12-25T0200,1792A,125.153,46.586,大庆市,萨尔图区,颗粒物(PM10),56,62,59,35,38,40,,,,23,35,6,6,0.5,0.6
2024-12-25T0200,1793A,124.9042,46.6215,大庆市,让胡路区,,43,41,44,30,31,48,,,,14,29,7,8,0.5,0.5
2024-12-25T0200,3481A,125.141,46.634,大庆市,萨区政府监测点,,50,50,51,27,30,44,,,,16,33,8,10,0.5,0.6
2024-12-25T0200,1721A,113.3819,40.1097,大同市,果树场,颗粒物(PM10),58,66,119,36,69,12,,,,52,55,12,19,0.9,1.6
2024-12-25T0200,1723A,113.2994,40.0758,大同市,云冈宾馆,"颗粒物(PM10),细颗粒物(PM2.5)",78,106,95,57,47,6,,,,50,45,12,21,1.1,1.7
2024-12-25T0200,1724A,113.3444,40.0917,大同市,大同大学,颗粒物(PM10),67,84,96,32,45,15,,,,54,47,22,27,0.8,1.3
2024-12-25T0200,1725A,113.2661,40.1269,大同市,安家小村,颗粒物(PM10),83,116,109,54,46,12,,,,59,40,28,28,1.6,2
2024-12-25T0200,1726A,113.2711,40.0844,大同市,教育学院,颗粒物(PM10),72,94,111,36,44,8,,,,58,53,15,25,0.8,2.4
2024-12-25T0200,3282A,113.3397,40.0597,大同市,大同市卫生学校,颗粒物(PM10),79,108,111,38,49,7,,,,61,50,19,24,0.6,1.6
2024-12-25T0200,3565A,113.1367,40.1122,大同市,云冈站,颗粒物(PM10),60,70,99,22,42,6,,,,50,42,26,30,0.7,1
2024-12-25T0200,3566A,113.1186,40.2556,大同市,图书馆,,48,48,70,19,48,58,,,,21,28,14,27,0.5,1.1
2024-12-25T0200,3567A,113.5931,40.0461,大同市,区一中,颗粒物(PM10),80,109,127,40,47,5,,,,65,55,45,53,1.0,1.5
2024-12-25T0200,3676A,113.2802,40.0995,大同市,第二人民医院,颗粒物(PM10),74,98,110,41,46,9,,,,62,47,20,26,0.8,1.9
2024-12-25T0200,2269A,124.1069,50.4097,大兴安岭地区,科技局,,19,18,20,12,15,59,,,,6,7,6,6,0.4,0.4
2024-12-25T0200,3663A,124.1164,50.4278,大兴安岭地区,红旗社区,,45,,28,31,21,19,,,,33,22,4,7,0.6,0.6
2024-12-25T0200,1600A,124.3303,40.0625,丹东市,江湾东路,细颗粒物(PM2.5),88,96,65,65,45,10,,,,42,32,18,21,2.0,1.3
2024-12-25T0200,1601A,124.4256,40.1503,丹东市,临江后街,细颗粒物(PM2.5),63,53,59,45,39,38,,,,14,28,8,8,0.9,0.9
2024-12-25T0200,1602A,124.3933,40.1461,丹东市,元宝山,细颗粒物(PM2.5),89,110,61,66,38,21,,,,24,25,11,12,1.4,1
2024-12-25T0200,1603A,124.3633,40.1092,丹东市,民主桥,细颗粒物(PM2.5),138,145,58,105,38,7,,,,56,38,19,13,2.5,1.2
2024-12-25T0200,3541A,109.5726,19.5167,儋州市,第一中学子站,细颗粒物(PM2.5),54,,59,38,39,114,,,,12,15,7,8,0.6,0.7
2024-12-25T0200,3542A,109.5567,19.5187,儋州市,东坡学校子站,颗粒物(PM10),59,67,61,41,40,127,,,,11,13,7,8,0.6,0.7
2024-12-25T0200,2616A,98.5842,24.428,德宏傣族景颇族自治州,德宏州监测站,"颗粒物(PM10),细颗粒物(PM2.5)",52,54,45,36,29,12,,,,34,24,7,8,0.9,0.8
2024-12-25T0200,3677A,98.5881,24.4368,德宏傣族景颇族自治州,芒市人民政府综合楼,,35,32,41,24,24,27,,,,11,15,5,7,0.7,0.7
2024-12-25T0200,1901A,104.4239,31.1208,德阳市,东山公园,细颗粒物(PM2.5),54,49,63,38,53,64,,,,14,26,1,1,0.5,0.6
2024-12-25T0200,1902A,104.3826,31.1317,德阳市,西小区,细颗粒物(PM2.5),69,75,74,50,58,2,,,,57,40,2,2,0.8,0.8
2024-12-25T0200,1904A,104.3553,31.1091,德阳市,耐火材料厂,细颗粒物(PM2.5),98,92,73,73,64,3,,,,57,39,5,4,0.8,0.6
2024-12-25T0200,3639A,104.4019,31.1244,德阳市,市教育局,细颗粒物(PM2.5),63,58,70,45,59,2,,,,56,43,3,3,0.8,0.9
2024-12-25T0200,1622A,116.3032,37.4674,德州市,儿童乐园,细颗粒物(PM2.5),144,156,121,110,78,18,,,,70,61,15,10,1.0,1
2024-12-25T0200,1624A,116.2991,37.4451,德州市,监理站,细颗粒物(PM2.5),144,151,119,110,82,17,,,,72,69,19,15,1.2,1.1
2024-12-25T0200,3066A,116.2721,37.4379,德州市,九衢泉纯净水厂,细颗粒物(PM2.5),160,161,135,122,92,9,,,,77,72,20,16,1.0,0.9
2024-12-25T0200,3371A,116.3728,37.4403,德州市,开发区人民医院,细颗粒物(PM2.5),160,166,126,122,87,12,,,,76,70,21,14,1.1,0.9
2024-12-25T0200,3372A,116.3572,37.4094,德州市,太阳城中学,细颗粒物(PM2.5),160,168,135,122,99,12,,,,73,66,21,15,1.2,1
2024-12-25T0200,3511A,116.5652,37.3319,德州市,陵城艺术中心,细颗粒物(PM2.5),144,151,142,110,99,7,,,,71,60,33,21,1.4,1.3
2024-12-25T0200,2621A,99.7056,27.8317,迪庆藏族自治州,迪庆州站,,25,24,31,17,21,68,,,,15,15,7,7,0.6,0.7
2024-12-25T0200,3180A,99.7136,27.8094,迪庆藏族自治州,质量技术监督局,,26,22,28,18,15,41,,,,26,18,8,8,0.7,0.7
2024-12-25T0200,2663A,104.6241,35.5734,定西市,东关小学,细颗粒物(PM2.5),85,80,76,63,51,25,,,,30,27,10,11,1.5,1
2024-12-25T0200,2664A,104.6194,35.5934,定西市,供电公司,颗粒物(PM10),61,71,73,39,34,17,,,,48,40,12,11,1.7,1.4
2024-12-25T0200,1389A,113.7547,23.0494,东莞市,莞城梨川,细颗粒物(PM2.5),67,80,69,48,45,21,,,,70,37,7,8,0.9,0.8
2024-12-25T0200,1390A,113.7944,23.0128,东莞市,东城石井,颗粒物(PM10),51,52,62,33,39,71,,,,24,31,10,9,0.7,0.8
2024-12-25T0200,1391A,113.7383,22.9658,东莞市,南城西平,颗粒物(PM10),62,73,71,38,42,28,,,,73,61,7,7,0.6,0.7
2024-12-25T0200,3319A,113.7338,23.0381,东莞市,万江金泰,"颗粒物(PM10),细颗粒物(PM2.5)",64,77,65,46,43,23,,,,64,35,8,9,0.9,0.8
2024-12-25T0200,3626A,113.7533,23.0202,东莞市,南城元岭,颗粒物(PM10),56,62,66,38,44,66,,,,27,29,9,10,0.7,0.8
2024-12-25T0200,3627A,113.7875,23.0457,东莞市,东城主山,"颗粒物(PM10),细颗粒物(PM2.5)",54,58,61,38,41,44,,,,49,37,12,12,0.7,0.7
2024-12-25T0200,1666A,118.6614,37.4309,东营市,市环保局,细颗粒物(PM2.5),117,112,105,88,77,6,,,,87,78,31,25,1.2,1.2
2024-12-25T0200,3036A,118.6904,37.4338,东营市,开发区管委会,细颗粒物(PM2.5),110,116,114,83,79,7,,,,97,87,27,21,1.2,1.1
2024-12-25T0200,3365A,118.5719,37.565,东营市,垦利区民丰路,细颗粒物(PM2.5),138,146,123,105,82,10,,,,104,81,30,21,1.6,1.3
2024-12-25T0200,3498A,118.5055,37.8612,东营市,河口城区,细颗粒物(PM2.5),160,168,144,122,98,8,,,,74,62,15,16,1.6,1.3
2024-12-25T0200,3646A,118.4978,37.4623,东营市,胜利站,细颗粒物(PM2.5),138,144,140,105,99,5,,,,91,94,30,40,1.9,1.8
2024-12-25T0200,3734A,118.35,37.26,东营市,理想之城,细颗粒物(PM2.5),138,161,126,105,83,7,,,,81,80,14,18,1.9,1.4
2024-12-25T0200,1591A,110.0023,39.8129,鄂尔多斯市,综合楼,颗粒物(PM10),63,75,63,31,21,55,,,,24,20,46,15,0.8,0.7
2024-12-25T0200,1592A,109.9486,39.8261,鄂尔多斯市,巴音孟克林场办事处,颗粒物(PM10),63,75,64,27,24,64,,,,15,17,12,20,0.6,0.7
2024-12-25T0200,1593A,109.7736,39.5986,鄂尔多斯市,康泽苑,颗粒物(PM10),60,70,66,34,29,37,,,,18,14,8,9,0.7,0.6
2024-12-25T0200,1594A,109.8119,39.5989,鄂尔多斯市,华泰汽车城,颗粒物(PM10),60,70,67,39,29,40,,,,21,17,8,9,0.7,0.6
2024-12-25T0200,1595A,109.9734,39.7884,鄂尔多斯市,奥林花园,颗粒物(PM10),59,68,65,27,21,35,,,,33,30,9,16,0.7,0.6
2024-12-25T0200,2436A,114.8938,30.3994,鄂州市,市政府,细颗粒物(PM2.5),102,110,92,76,72,3,,,,82,58,8,10,1.4,1.3
2024-12-25T0200,2437A,114.8989,30.3714,鄂州市,赵家坝,细颗粒物(PM2.5),90,100,102,67,70,4,,,,75,57,6,8,0.9,1.1
2024-12-25T0200,3654A,114.8094,30.4089,鄂州市,精准医疗中心,细颗粒物(PM2.5),127,112,97,96,73,14,,,,71,43,12,10,0.9,0.7
2024-12-25T0200,2454A,109.4978,30.2981,恩施土家族苗族自治州,湖北民院,细颗粒物(PM2.5),189,,78,142,95,22,,,,36,28,7,7,0.9,0.7
2024-12-25T0200,2455A,109.4707,30.2798,恩施土家族苗族自治州,州电力总公司,细颗粒物(PM2.5),162,137,106,123,91,14,,,,34,30,7,7,1.3,1.2
2024-12-25T0200,3549A,109.5061,30.3772,恩施土家族苗族自治州,龙凤新区,细颗粒物(PM2.5),124,102,84,94,75,19,,,,14,15,6,6,0.8,0.7
2024-12-25T0200,2499A,108.3411,21.6158,防城港市,沙万,细颗粒物(PM2.5),102,99,87,76,67,112,,,,22,21,10,10,0.5,0.6
2024-12-25T0200,2500A,108.3514,21.7731,防城港市,防城档案局,细颗粒物(PM2.5),104,138,112,78,67,98,,,,39,31,9,9,0.9,0.8
2024-12-25T0200,2501A,108.3506,21.6414,防城港市,大海花园,细颗粒物(PM2.5),107,98,86,80,69,117,,,,18,18,10,9,0.9,0.9
2024-12-25T0200,1371A,113.1294,23.0067,佛山市,湾梁,颗粒物(PM10),67,83,72,38,38,41,,,,70,42,11,10,0.8,0.7
2024-12-25T0200,1372A,113.1083,23.0478,佛山市,华材职中,细颗粒物(PM2.5),75,88,81,55,51,18,,,,97,55,13,12,0.8,0.8
2024-12-25T0200,1373A,113.144,23.0453,佛山市,南海气象局,细颗粒物(PM2.5),67,71,62,48,48,29,,,,80,43,12,11,0.7,0.6
2024-12-25T0200,1374A,113.2881,22.8094,佛山市,顺德苏岗,颗粒物(PM10),66,81,67,44,43,14,,,,83,44,10,10,0.8,0.7
2024-12-25T0200,1376A,112.8383,22.8678,佛山市,高明孔堂,细颗粒物(PM2.5),68,74,80,49,54,48,,,,56,42,11,13,1.0,0.9
2024-12-25T0200,1377A,112.8836,23.1588,佛山市,三水监测站,细颗粒物(PM2.5),78,78,83,57,57,53,,,,47,38,18,14,1.0,0.9
2024-12-25T0200,1378A,112.867,23.185,佛山市,三水云东海,细颗粒物(PM2.5),69,65,68,50,51,42,,,,50,36,16,14,0.9,0.8
2024-12-25T0200,3625A,113.2544,22.7642,佛山市,容桂街道办,颗粒物(PM10),73,95,76,48,46,12,,,,90,46,9,9,0.8,0.7
2024-12-25T0200,1280A,119.3903,26.0543,福州市,鼓山,,,,19,,8,,,76,,,12,,2,,0.3
2024-12-25T0200,1282A,119.2681,26.0504,福州市,师大,,27,22,24,6,8,84,,,,10,15,3,2,0.2,0.2
2024-12-25T0200,1283A,119.2984,26.1028,福州市,五四北路,,26,21,23,9,8,81,,,,8,12,1,2,0.4,0.3
2024-12-25T0200,1284A,119.2648,26.0768,福州市,杨桥西路,,26,25,24,8,8,81,,,,12,15,1,2,0.3,0.3
2024-12-25T0200,1285A,119.317,26.0746,福州市,紫阳,,25,22,25,9,9,79,,,,10,19,3,3,0.3,0.4
2024-12-25T0200,3048A,119.5799,26.0936,福州市,九龙,,25,20,23,8,7,78,,,,7,9,2,3,0.2,0.3
2024-12-25T0200,3526A,119.5189,25.9664,福州市,吴航,,26,21,20,11,9,81,,,,13,12,4,4,0.4,0.5
2024-12-25T0200,1755A,123.7977,41.8491,抚顺市,望花区,颗粒物(PM10),58,65,94,26,48,48,,,,26,45,10,10,1.0,1.3
2024-12-25T0200,1756A,123.9161,41.8822,抚顺市,顺城区,细颗粒物(PM2.5),99,139,88,74,47,13,,,,60,50,10,8,2.4,1.1
2024-12-25T0200,1757A,124.0436,41.8611,抚顺市,东洲区,,42,42,58,28,33,44,,,,25,30,6,7,0.7,0.7
2024-12-25T0200,1758A,123.9247,41.8642,抚顺市,新抚区,细颗粒物(PM2.5),77,88,90,56,56,10,,,,50,44,6,7,0.9,0.9
2024-12-25T0200,1759A,124.0972,41.8961,抚顺市,大伙房水库,,43,43,46,27,31,48,,,,26,21,10,9,0.6,0.5
2024-12-25T0200,1760A,123.7086,41.8391,抚顺市,沈抚新城,颗粒物(PM10),60,70,93,26,53,43,,,,33,44,13,10,1.6,1.5
2024-12-25T0200,2376A,116.2127,28.0814,抚州市,桐源党溪,细颗粒物(PM2.5),68,64,85,49,55,11,,,,28,10,4,4,0.4,0.5
2024-12-25T0200,2377A,116.3544,27.9831,抚州市,市站,细颗粒物(PM2.5),87,93,81,64,55,40,,,,32,28,8,11,1.3,1.4
2024-12-25T0200,2378A,116.3565,27.963,抚州市,血防站,细颗粒物(PM2.5),79,94,84,58,54,38,,,,28,26,25,12,0.9,1.3
2024-12-25T0200,2379A,116.3564,28.0007,抚州市,采茶剧团,细颗粒物(PM2.5),88,92,82,65,57,26,,,,36,27,9,8,1.3,1.3
2024-12-25T0200,2380A,116.385,27.9647,抚州市,医学分院,细颗粒物(PM2.5),72,90,95,52,50,30,,,,39,25,7,12,1.1,1.1
2024-12-25T0200,2207A,121.6094,41.998,阜新市,工业园区,颗粒物(PM10),106,161,107,75,55,6,,,,37,37,10,17,1.3,1.1
2024-12-25T0200,2208A,121.6697,42.0279,阜新市,长青街,细颗粒物(PM2.5),133,117,79,101,49,5,,,,39,37,6,13,1.6,0.9
2024-12-25T0200,2209A,121.6673,42.0705,阜新市,农业园区,细颗粒物(PM2.5),107,93,69,80,40,18,,,,41,28,17,22,1.8,1
2024-12-25T0200,2210A,121.6717,42.0224,阜新市,东苑,细颗粒物(PM2.5),120,104,82,91,49,22,,,,37,35,12,18,1.6,1.4
2024-12-25T0200,2211A,121.6506,42.0498,阜新市,玉龙新城,细颗粒物(PM2.5),89,114,88,66,45,8,,,,38,40,6,12,1.5,0.9
2024-12-25T0200,2301A,115.8277,32.8929,阜阳市,市监测站,细颗粒物(PM2.5),179,142,124,135,106,2,,,,82,57,6,9,0.9,0.8
2024-12-25T0200,2303A,115.8554,32.8605,阜阳市,开发区,细颗粒物(PM2.5),160,174,144,122,94,5,,,,75,55,7,10,1.0,0.8
2024-12-25T0200,2875A,115.784,32.8892,阜阳市,阜阳职业技术学院,细颗粒物(PM2.5),145,151,121,111,97,2,,,,79,52,8,10,1.5,1
2024-12-25T0200,3468A,115.7901,32.8613,阜阳市,市规划展馆,细颗粒物(PM2.5),152,139,117,116,95,23,,,,62,42,7,9,1.1,0.7
2024-12-25T0200,3469A,115.836,32.9183,阜阳市,枣园社区,细颗粒物(PM2.5),162,151,132,123,106,4,,,,76,61,6,8,1.0,0.9
2024-12-25T0200,2669A,102.9099,34.9841,甘南藏族自治州,州政府,颗粒物(PM10),59,67,72,40,50,54,,,,18,23,8,13,0.7,0.8
2024-12-25T0200,3380A,102.8914,34.9617,甘南藏族自治州,甘肃民族师范学院,颗粒物(PM10),60,69,81,38,52,62,,,,21,31,5,11,0.6,0.8
2024-12-25T0200,2570A,101.9603,30.0475,甘孜藏族自治州,水桥子,,17,17,12,6,7,21,,,,26,22,3,2,0.8,0.8
2024-12-25T0200,3065A,101.9533,29.9972,甘孜藏族自治州,州环保局,,17,17,17,6,6,22,,,,26,22,4,4,0.7,0.6
2024-12-25T0200,3414A,115.8347,28.932,赣江新区,桑海产业园,细颗粒物(PM2.5),112,117,105,84,71,17,,,,66,42,10,12,0.8,0.8
2024-12-25T0200,2362A,114.9017,25.9149,赣州市,通天岩,细颗粒物(PM2.5),57,53,61,40,52,46,,,,14,15,2,5,0.5,0.5
2024-12-25T0200,2363A,114.9367,25.8664,赣州市,地委,颗粒物(PM10),65,79,75,46,43,43,,,,28,24,14,11,1.1,1
2024-12-25T0200,2364A,114.9461,25.8481,赣州市,气象台,颗粒物(PM10),69,87,81,46,40,38,,,,60,39,16,18,0.8,0.8
2024-12-25T0200,2365A,114.9322,25.8333,赣州市,市图书馆,细颗粒物(PM2.5),68,80,66,49,39,35,,,,50,28,23,11,0.8,0.8
2024-12-25T0200,2366A,114.8905,25.8471,赣州市,华坚鞋城,细颗粒物(PM2.5),70,74,67,51,42,74,,,,16,19,9,10,0.7,0.6
2024-12-25T0200,3109A,115.0093,25.8613,赣州市,赣县区卫计委,细颗粒物(PM2.5),77,71,80,56,60,15,,,,53,33,4,5,0.6,0.6
2024-12-25T0200,2683A,106.2319,36.1417,固原市,马园,颗粒物(PM10),73,95,114,35,39,12,,,,47,38,7,8,0.7,0.6
2024-12-25T0200,2684A,106.2792,36.0022,固原市,监测站,颗粒物(PM10),60,69,97,36,37,10,,,,61,33,7,7,0.8,0.8
2024-12-25T0200,2685A,106.2375,36.0211,固原市,新区,颗粒物(PM10),61,72,93,36,33,25,,,,46,37,7,7,0.8,0.7
2024-12-25T0200,3522A,106.2177,35.9959,固原市,原州区十五小,颗粒物(PM10),62,74,91,31,33,44,,,,31,29,6,6,0.8,0.8
2024-12-25T0200,2543A,106.6308,30.5278,广安市,小平旧居,,,,,,,,,,,,,,,,
2024-12-25T0200,2544A,106.6303,30.4576,广安市,市委,细颗粒物(PM2.5),133,107,92,101,85,21,,,,26,27,3,4,0.8,0.8
2024-12-25T0200,2545A,106.6271,30.4663,广安市,友谊中学,细颗粒物(PM2.5),133,116,92,101,78,18,,,,32,32,3,4,0.9,0.9
2024-12-25T0200,2547A,106.6388,30.4551,广安市,广电花园,细颗粒物(PM2.5),139,108,86,106,78,7,,,,30,28,4,6,0.5,0.6
2024-12-25T0200,2902A,106.6351,30.4865,广安市,北辰小学,细颗粒物(PM2.5),132,106,90,100,79,11,,,,32,29,5,6,0.9,0.9
2024-12-25T0200,2523A,105.8945,32.4535,广元市,黑石坡,细颗粒物(PM2.5),59,43,44,42,36,0,,,,33,14,2,2,0.8,0.6
2024-12-25T0200,2524A,105.821,32.4444,广元市,老城,,50,44,60,35,36,2,,,,46,39,1,5,0.8,0.9
2024-12-25T0200,2526A,105.8628,32.4287,广元市,监测站,,43,41,48,30,38,5,,,,48,34,2,3,0.9,0.9
2024-12-25T0200,3617A,105.8047,32.4166,广元市,经开区,"颗粒物(PM10),细颗粒物(PM2.5)",52,54,59,36,42,4,,,,47,39,5,7,0.8,0.9
2024-12-25T0200,1345A,113.2347,23.1423,广州市,广雅中学,"颗粒物(PM10),细颗粒物(PM2.5)",70,90,86,51,50,45,,,,63,51,12,12,0.6,0.6
2024-12-25T0200,1346A,113.2612,23.105,广州市,市五中,细颗粒物(PM2.5),73,77,77,53,55,53,,,,46,32,7,7,0.8,0.7
2024-12-25T0200,1348A,113.3478,23.0916,广州市,广东商学院,细颗粒物(PM2.5),58,61,68,41,48,54,,,,48,35,6,7,0.6,0.6
2024-12-25T0200,1349A,113.4332,23.1047,广州市,市八十六中,颗粒物(PM10),72,94,84,41,45,48,,,,52,39,6,7,0.5,0.6
2024-12-25T0200,1350A,113.3505,22.9483,广州市,番禺中学,颗粒物(PM10),61,71,75,40,48,24,,,,87,44,5,6,0.6,0.5
2024-12-25T0200,1351A,113.2146,23.3916,广州市,花都师范,颗粒物(PM10),52,54,66,35,43,82,,,,21,24,10,12,0.6,0.6
2024-12-25T0200,1352A,113.2597,23.1331,广州市,市监测站,颗粒物(PM10),65,79,79,46,48,51,,,,52,42,10,9,0.6,0.6
2024-12-25T0200,1353A,113.5618,23.312,广州市,九龙镇镇龙,细颗粒物(PM2.5),64,71,67,46,45,54,,,,41,29,7,8,0.8,0.7
2024-12-25T0200,1354A,113.2765,23.1544,广州市,麓湖,细颗粒物(PM2.5),65,65,70,47,50,59,,,,45,39,7,6,0.8,0.8
2024-12-25T0200,1355A,113.443,23.3035,广州市,帽峰山森林公园,,44,44,53,28,32,64,,,,30,19,9,9,0.9,0.8
2024-12-25T0200,2846A,113.3221,23.1322,广州市,体育西,细颗粒物(PM2.5),67,76,79,48,49,44,,,,46,32,7,8,0.7,0.7
2024-12-25T0200,3298A,113.5717,23.5491,广州市,从化街口,细颗粒物(PM2.5),67,74,67,48,47,28,,,,60,31,6,6,0.8,0.7
2024-12-25T0200,3299A,113.3472,23.3692,广州市,白云竹料,颗粒物(PM10),60,69,71,41,45,58,,,,37,28,10,10,0.8,0.8
2024-12-25T0200,3300A,113.2981,23.237,广州市,白云嘉禾,细颗粒物(PM2.5),68,84,85,49,48,54,,,,52,49,11,10,0.7,0.7
2024-12-25T0200,3301A,113.4256,23.1716,广州市,黄埔科学城,"颗粒物(PM10),细颗粒物(PM2.5)",53,55,63,37,44,67,,,,37,31,8,9,0.8,0.8
2024-12-25T0200,3302A,113.3942,23.0483,广州市,番禺大学城,颗粒物(PM10),57,64,67,37,43,25,,,,88,47,13,13,0.8,0.8
2024-12-25T0200,3303A,113.4922,22.8168,广州市,南沙黄阁,颗粒物(PM10),77,104,81,51,48,4,,,,107,56,11,8,1.1,1
2024-12-25T0200,3304A,113.5342,22.7896,广州市,南沙街,颗粒物(PM10),76,102,75,50,45,4,,,,104,50,12,11,0.9,0.8
2024-12-25T0200,3443A,113.2902,23.5544,广州市,花都梯面,,49,46,57,34,42,82,,,,18,17,14,13,0.7,0.7
2024-12-25T0200,3445A,113.7858,23.7478,广州市,从化良口,,43,41,53,30,39,68,,,,17,16,7,8,0.6,0.6
2024-12-25T0200,3446A,113.8051,23.2614,广州市,增城荔城,"颗粒物(PM10),细颗粒物(PM2.5)",52,53,59,36,42,83,,,,19,20,10,8,0.6,0.6
2024-12-25T0200,2505A,109.568,23.1478,贵港市,德智高中,,,,,,,,,,,,,,,,
2024-12-25T0200,2506A,109.6047,23.0666,贵港市,江南子站,细颗粒物(PM2.5),113,122,109,85,75,98,,,,27,28,13,11,1.0,1
2024-12-25T0200,2507A,109.6014,23.0948,贵港市,贵城子站,细颗粒物(PM2.5),124,116,98,94,83,84,,,,30,30,13,12,1.0,1
2024-12-25T0200,2508A,109.5669,23.1065,贵港市,荷城子站,细颗粒物(PM2.5),132,132,110,100,73,90,,,,25,28,18,15,0.9,0.8
2024-12-25T0200,3405A,109.5886,23.1172,贵港市,新世纪学校,细颗粒物(PM2.5),122,136,116,92,76,88,,,,25,27,12,10,0.9,0.9
2024-12-25T0200,1439A,106.6899,26.5998,贵阳市,马鞍山,,49,41,51,34,40,28,,,,21,20,4,5,0.5,0.6
2024-12-25T0200,1440A,106.6971,26.5694,贵阳市,市环保站,细颗粒物(PM2.5),83,,67,61,62,28,,,,28,29,5,6,0.7,0.6
2024-12-25T0200,1441A,106.6243,26.6266,贵阳市,鉴湖路,细颗粒物(PM2.5),58,41,42,41,37,52,,,,17,19,4,6,0.6,0.6
2024-12-25T0200,1442A,106.7487,26.6343,贵阳市,燕子冲,细颗粒物(PM2.5),77,,56,56,55,40,,,,18,17,7,7,0.6,0.6
2024-12-25T0200,1443A,106.6555,26.4365,贵阳市,碧云窝,细颗粒物(PM2.5),73,68,69,53,49,18,,,,37,33,8,11,0.7,0.7
2024-12-25T0200,1444A,106.694,26.5161,贵阳市,中院村,细颗粒物(PM2.5),79,68,65,58,53,28,,,,29,27,10,11,0.8,0.8
2024-12-25T0200,1445A,106.7109,26.6027,贵阳市,红边门,细颗粒物(PM2.5),77,,64,56,60,35,,,,25,30,8,8,0.8,0.8
2024-12-25T0200,1446A,106.7164,26.5699,贵阳市,新华路,细颗粒物(PM2.5),73,56,61,53,52,33,,,,22,22,5,5,0.7,0.6
2024-12-25T0200,1447A,106.674,26.5424,贵阳市,太慈桥,细颗粒物(PM2.5),62,53,57,44,48,26,,,,32,30,5,8,0.7,0.7
2024-12-25T0200,1552A,106.805,26.3003,贵阳市,桐木岭,,,,,,,,,,,,,,,,
2024-12-25T0200,1862A,110.4144,25.3167,桂林市,电子科大尧山校区,细颗粒物(PM2.5),84,71,69,62,60,78,,,,16,17,7,10,0.7,0.8
2024-12-25T0200,1863A,110.2819,25.2697,桂林市,监测站,细颗粒物(PM2.5),100,82,87,75,73,76,,,,23,27,20,15,1.2,1.1
2024-12-25T0200,1864A,110.3089,25.2708,桂林市,龙隐路小学,细颗粒物(PM2.5),103,82,84,77,78,81,,,,24,25,13,16,0.8,0.7
2024-12-25T0200,1865A,110.2869,25.2178,桂林市,八中,细颗粒物(PM2.5),103,82,85,77,76,73,,,,21,24,16,14,0.7,0.8
2024-12-25T0200,3403A,110.1764,25.2381,桂林市,创业大厦,细颗粒物(PM2.5),98,95,100,73,73,78,,,,24,26,10,11,0.8,0.8
2024-12-25T0200,3531A,110.296,25.1253,桂林市,旅游学院,细颗粒物(PM2.5),100,88,87,75,73,56,,,,41,28,10,12,0.8,0.8
2024-12-25T0200,2674A,100.2561,34.4714,果洛藏族自治州,玛沁县大武镇,颗粒物(PM10),51,51,49,17,15,80,,,,1,3,10,9,0.4,0.5
2024-12-25T0200,1129A,126.5422,45.755,哈尔滨市,岭北,,44,44,48,28,36,44,,,,26,30,15,13,0.5,0.6
2024-12-25T0200,1130A,126.561,45.8167,哈尔滨市,松北商大,,45,45,53,31,35,36,,,,26,26,6,6,0.7,0.7
2024-12-25T0200,1131A,126.979,45.5419,哈尔滨市,阿城会宁,,33,26,52,23,44,54,,,,21,18,19,8,0.6,0.7
2024-12-25T0200,1132A,126.599,45.7222,哈尔滨市,南岗学府路,,44,44,60,25,34,49,,,,19,27,8,9,0.5,0.6
2024-12-25T0200,1133A,126.689,45.7733,哈尔滨市,太平宏伟公园,颗粒物(PM10),52,54,62,32,40,36,,,,26,34,6,9,0.7,0.7
2024-12-25T0200,1134A,126.635,45.7667,哈尔滨市,道外承德广场,颗粒物(PM10),68,85,57,29,35,43,,,,19,36,11,12,0.6,0.6
2024-12-25T0200,1135A,126.685,45.7319,哈尔滨市,香坊红旗大街,颗粒物(PM10),51,51,63,30,49,40,,,,24,39,14,15,0.9,0.9
2024-12-25T0200,1136A,126.6411,45.7258,哈尔滨市,动力和平路,,,,55,26,42,42,,,,18,32,10,11,0.6,0.6
2024-12-25T0200,1137A,126.593,45.7478,哈尔滨市,道里建国路,,41,41,56,28,40,45,,,,20,30,4,5,0.4,0.5
2024-12-25T0200,1138A,126.615,45.61,哈尔滨市,平房东轻厂,,38,38,54,25,41,49,,,,12,20,9,9,0.6,0.6
2024-12-25T0200,1139A,126.595,45.9855,哈尔滨市,呼兰师专,颗粒物(PM10),55,59,50,34,34,34,,,,34,30,18,10,0.8,0.6
2024-12-25T0200,1140A,126.6206,45.6842,哈尔滨市,省农科院,,40,40,60,28,44,46,,,,20,36,6,9,0.6,0.7
2024-12-25T0200,2688A,93.5128,42.8172,哈密市,地区监测站,细颗粒物(PM2.5),60,49,77,43,45,33,,,,36,33,8,4,0.6,0.5
2024-12-25T0200,2689A,93.4961,42.8328,哈密市,哈密师范学校,颗粒物(PM10),61,72,76,41,48,35,,,,34,36,7,6,0.6,0.8
2024-12-25T0200,2671A,100.9048,36.9639,海北藏族自治州,海晏县西海镇,细颗粒物(PM2.5),60,61,48,43,33,38,,,,25,18,17,12,1.1,0.7
2024-12-25T0200,3867A,102.0738,36.5056,海东市,平安区公安北苑,细颗粒物(PM2.5),128,,96,97,78,40,,,,22,35,10,19,1.7,1.4
2024-12-25T0200,1409A,110.576,19.9507,海口市,东寨港,细颗粒物(PM2.5),54,46,52,38,43,90,,,,7,9,8,8,0.5,0.6
2024-12-25T0200,1410A,110.3232,20.0574,海口市,海南大学,颗粒物(PM10),55,59,63,36,40,102,,,,21,19,7,8,0.6,0.6
2024-12-25T0200,1411A,110.283,20.0053,海口市,秀英海南医院,,50,49,60,35,38,107,,,,18,19,6,7,0.5,0.5
2024-12-25T0200,1412A,110.338,19.9969,海口市,海南师范大学,,50,50,58,32,38,108,,,,16,17,6,8,0.5,0.6
2024-12-25T0200,1413A,110.33,20.0356,海口市,龙华路环保局宿舍,细颗粒物(PM2.5),53,51,59,37,39,106,,,,16,16,7,8,0.6,0.6
2024-12-25T0200,3539A,110.5111,19.9736,海口市,桂林洋子站,,50,50,63,31,42,103,,,,14,15,6,8,0.4,0.5
2024-12-25T0200,2673A,100.6188,36.2866,海南藏族自治州,共和县恰卜恰镇,,48,48,51,18,21,45,,,,13,25,3,6,0.5,0.6
2024-12-25T0200,2676A,97.3731,37.3753,海西蒙古族藏族自治州,德令哈市,,29,28,34,20,13,59,,,,11,10,16,16,0.5,0.5
2024-12-25T0200,1048A,114.5302,36.6116,邯郸市,东污水处理厂,细颗粒物(PM2.5),156,150,132,119,106,6,,,,80,67,6,9,1.3,1.5
2024-12-25T0200,1049A,114.4918,36.5713,邯郸市,矿院,细颗粒物(PM2.5),175,188,154,132,104,1,,,,76,68,3,5,1.5,1.6
2024-12-25T0200,1050A,114.484,36.6133,邯郸市,丛台公园,细颗粒物(PM2.5),150,150,140,115,100,3,,,,67,62,8,8,1.4,1.3
2024-12-25T0200,3458A,114.7895,36.5593,邯郸市,香泉濮院小区,细颗粒物(PM2.5),155,159,136,118,97,2,,,,70,54,13,12,1.1,1.2
2024-12-25T0200,3579A,114.50634,36.77178,邯郸市,永年区实验高中,细颗粒物(PM2.5),165,,159,125,99,7,,,,54,62,14,13,1.9,1.5
2024-12-25T0200,3580A,114.20016,36.44293,邯郸市,峰峰矿区临水派出所,细颗粒物(PM2.5),150,159,134,115,92,1,,,,71,56,35,25,3.1,2
2024-12-25T0200,2634A,106.9893,33.1842,汉中市,汉川机床厂子校,细颗粒物(PM2.5),55,,70,39,63,40,,,,6,11,5,7,0.7,0.8
2024-12-25T0200,2635A,107.0154,33.0706,汉中市,市监测站,细颗粒物(PM2.5),144,130,101,110,86,10,,,,45,40,6,7,1.9,1.5
2024-12-25T0200,2636A,107.0089,33.1138,汉中市,鑫源开发区,细颗粒物(PM2.5),143,111,94,109,93,9,,,,48,33,8,7,1.6,1.1
2024-12-25T0200,2637A,107.007,33.0323,汉中市,南郑大河坎水厂,细颗粒物(PM2.5),138,132,117,105,96,16,,,,22,33,5,6,1.3,1.4
2024-12-25T0200,1223A,120.2072,30.2111,杭州市,滨江,"颗粒物(PM10),细颗粒物(PM2.5)",53,55,66,37,44,13,,,,64,52,9,10,0.6,0.6
2024-12-25T0200,1224A,120.0633,30.2747,杭州市,西溪,细颗粒物(PM2.5),73,82,65,53,45,3,,,,57,45,7,8,0.6,0.6
2024-12-25T0200,1226A,120.3461,30.3153,杭州市,下沙,细颗粒物(PM2.5),77,66,64,56,46,22,,,,64,59,8,8,0.7,0.7
2024-12-25T0200,1227A,120.1269,30.2456,杭州市,卧龙桥,细颗粒物(PM2.5),52,49,60,36,41,12,,,,46,49,6,7,0.6,0.8
2024-12-25T0200,1228A,120.1903,30.2692,杭州市,浙江农大,颗粒物(PM10),53,55,63,36,40,11,,,,58,50,6,7,0.5,0.6
2024-12-25T0200,1230A,120.1197,30.3119,杭州市,和睦小学,细颗粒物(PM2.5),77,95,70,56,45,4,,,,77,52,7,8,0.8,0.7
2024-12-25T0200,1231A,120.3019,30.4183,杭州市,临平镇,细颗粒物(PM2.5),67,79,64,48,38,31,,,,41,42,6,7,0.7,0.7
2024-12-25T0200,1232A,120.2697,30.1819,杭州市,城厢镇,颗粒物(PM10),55,59,75,32,44,21,,,,52,56,6,7,0.8,0.9
2024-12-25T0200,1233A,120.0883,30.1808,杭州市,云栖,颗粒物(PM10),52,54,62,35,38,5,,,,49,51,6,7,0.5,0.6
2024-12-25T0200,3557A,119.9464,30.0494,杭州市,镇二中,细颗粒物(PM2.5),75,68,61,55,51,2,,,,55,46,6,8,0.8,0.8
2024-12-25T0200,3558A,119.7183,30.2367,杭州市,市府大楼,细颗粒物(PM2.5),94,101,82,70,60,4,,,,64,59,7,8,1.1,1
2024-12-25T0200,3656A,120.1556,30.2864,杭州市,消防大队,细颗粒物(PM2.5),67,71,70,48,45,11,,,,66,49,8,9,0.6,0.6
2024-12-25T0200,1270A,117.1959,31.7848,合肥市,明珠广场,细颗粒物(PM2.5),100,107,89,75,62,1,,,,91,57,10,10,1.0,1
2024-12-25T0200,1271A,117.3072,31.8764,合肥市,三里街,细颗粒物(PM2.5),104,114,93,78,62,1,,,,92,65,6,6,1.0,0.9
2024-12-25T0200,1272A,117.2588,31.8707,合肥市,琥珀山庄,细颗粒物(PM2.5),102,119,90,76,62,5,,,,96,66,6,6,1.1,1
2024-12-25T0200,1273A,117.1604,31.9052,合肥市,董铺水库,细颗粒物(PM2.5),89,118,103,66,57,4,,,,79,51,5,6,0.6,0.5
2024-12-25T0200,1274A,117.25,31.8571,合肥市,长江中路,细颗粒物(PM2.5),115,112,94,87,70,0,,,,88,59,8,8,0.8,0.9
2024-12-25T0200,1275A,117.266,31.9436,合肥市,庐阳区,细颗粒物(PM2.5),92,119,96,68,55,3,,,,83,62,6,6,0.8,0.7
2024-12-25T0200,1276A,117.336,31.8586,合肥市,瑶海区,细颗粒物(PM2.5),117,141,99,88,63,4,,,,104,65,6,6,1.2,1
2024-12-25T0200,1277A,117.3027,31.7964,合肥市,包河区,细颗粒物(PM2.5),104,117,94,78,61,3,,,,103,65,6,7,1.0,0.7
2024-12-25T0200,1278A,117.2776,31.7385,合肥市,滨湖新区,细颗粒物(PM2.5),83,114,88,61,50,1,,,,90,46,9,7,1.0,0.7
2024-12-25T0200,1279A,117.1318,31.8403,合肥市,高新区,细颗粒物(PM2.5),93,100,89,69,61,10,,,,90,63,3,2,1.0,1
2024-12-25T0200,3464A,117.3803,31.9147,合肥市,高教基地,细颗粒物(PM2.5),95,98,79,71,59,6,,,,81,54,8,8,0.8,0.6
2024-12-25T0200,3614A,79.924,37.0877,和田地区,地区环保局,颗粒物(PM10),96,141,154,61,67,7,,,,61,34,16,19,1.4,1.2
2024-12-25T0200,3615A,79.9131,37.113,和田地区,市环保局,细颗粒物(PM2.5),93,125,113,69,62,6,,,,75,57,21,17,3.8,1.5
2024-12-25T0200,2516A,108.2011,24.715,河池市,东仁乐园,细颗粒物(PM2.5),87,87,89,64,69,52,,,,25,22,11,13,0.7,0.7
2024-12-25T0200,2517A,108.0497,24.6947,河池市,市环保站,细颗粒物(PM2.5),65,63,81,47,62,65,,,,8,18,10,14,0.7,0.8
2024-12-25T0200,2518A,108.0983,24.6989,河池市,市疾控中心,细颗粒物(PM2.5),84,72,79,62,64,50,,,,28,27,13,13,0.7,0.7
2024-12-25T0200,1696A,114.6778,23.7569,河源市,源西,细颗粒物(PM2.5),60,60,54,43,44,80,,,,9,17,8,9,0.7,0.8
2024-12-25T0200,1697A,114.6944,23.7586,河源市,东埔,细颗粒物(PM2.5),72,57,67,52,51,90,,,,19,22,9,8,0.7,0.8
2024-12-25T0200,1698A,114.6892,23.7233,河源市,老城,细颗粒物(PM2.5),69,56,61,50,46,80,,,,20,25,8,7,0.5,0.7
2024-12-25T0200,1718A,115.4208,35.2464,菏泽市,气象局,细颗粒物(PM2.5),134,135,130,102,87,60,,,,32,44,7,7,0.7,0.7
2024-12-25T0200,1719A,115.4747,35.2375,菏泽市,市政协,细颗粒物(PM2.5),139,132,129,106,88,49,,,,40,43,7,8,0.7,0.8
2024-12-25T0200,3374A,115.5564,35.0891,菏泽市,定陶老年大学,细颗粒物(PM2.5),140,144,120,107,85,24,,,,61,45,10,11,0.8,0.8
2024-12-25T0200,3647A,115.4702,35.2706,菏泽市,菏泽医专,细颗粒物(PM2.5),124,151,123,94,76,40,,,,58,52,10,10,0.8,0.9
2024-12-25T0200,2514A,111.5264,24.4172,贺州市,环保小区,细颗粒物(PM2.5),117,92,95,88,83,48,,,,34,28,9,11,0.9,0.9
2024-12-25T0200,2515A,111.5608,24.4078,贺州市,政协大楼,细颗粒物(PM2.5),92,106,100,68,66,61,,,,31,28,8,10,0.9,0.9
2024-12-25T0200,3534A,111.4744,24.4553,贺州市,西湾,细颗粒物(PM2.5),118,112,106,89,82,58,,,,33,22,8,11,0.9,0.9
2024-12-25T0200,2385A,114.17,35.9019,鹤壁市,市监测站,细颗粒物(PM2.5),150,169,154,115,109,3,,,,51,52,2,5,1.1,1.2
2024-12-25T0200,2386A,114.2956,35.7511,鹤壁市,市交警支队,细颗粒物(PM2.5),199,193,159,149,111,0,,,,66,62,9,10,1.4,1.1
2024-12-25T0200,2387A,114.2878,35.7306,鹤壁市,迎宾馆,细颗粒物(PM2.5),150,180,157,115,96,1,,,,55,54,7,11,1.2,1
2024-12-25T0200,3474A,114.2617,35.6822,鹤壁市,大新区,细颗粒物(PM2.5),193,171,148,145,123,3,,,,65,63,7,11,1.2,1
2024-12-25T0200,3596A,114.1572,35.9603,鹤壁市,南山宾馆,细颗粒物(PM2.5),190,170,160,143,124,3,,,,52,45,10,12,1.3,1.3
2024-12-25T0200,2244A,130.2537,47.3416,鹤岗市,哈啤分公司,,40,33,33,28,28,54,,,,7,17,13,13,0.7,0.8
2024-12-25T0200,2245A,130.2684,47.3086,鹤岗市,斯达机电,,29,25,37,20,24,51,,,,22,23,15,16,0.6,0.5
2024-12-25T0200,2246A,130.3114,47.3388,鹤岗市,东山纸板厂,细颗粒物(PM2.5),79,,51,58,46,14,,,,54,41,15,17,3.7,1.8
2024-12-25T0200,2247A,130.1097,47.3382,鹤岗市,五号水库,,19,15,31,11,19,58,,,,14,13,6,8,0.1,0.2
2024-12-25T0200,2263A,127.4833,50.2524,黑河市,交通局,,22,22,28,15,20,52,,,,9,19,7,6,0.5,0.5
2024-12-25T0200,2264A,127.5144,50.2341,黑河市,环保局,细颗粒物(PM2.5),52,,26,36,21,29,,,,29,23,7,7,0.4,0.4
2024-12-25T0200,2265A,127.5291,50.2472,黑河市,大黑河岛,,,,,,,,,,,,,,,,
2024-12-25T0200,1074A,115.6838,37.7541,衡水市,电机北厂,细颗粒物(PM2.5),135,151,121,103,81,9,,,,62,52,9,13,0.9,0.8
2024-12-25T0200,1075A,115.6303,37.7316,衡水市,市监测站,细颗粒物(PM2.5),144,141,101,110,74,4,,,,81,61,16,17,0.9,0.7
2024-12-25T0200,3188A,115.6683,37.7217,衡水市,市城管局,细颗粒物(PM2.5),138,147,109,105,73,4,,,,72,57,11,11,0.9,0.8
2024-12-25T0200,3459A,115.5989,37.5491,衡水市,地表水厂,细颗粒物(PM2.5),143,140,105,109,91,6,,,,76,66,14,14,1.1,0.9
2024-12-25T0200,2456A,112.5003,26.9167,衡阳市,原169医院,细颗粒物(PM2.5),94,88,75,70,67,31,,,,23,28,11,31,0.3,0.3
2024-12-25T0200,2457A,112.6194,26.9258,衡阳市,衡阳化工总厂,细颗粒物(PM2.5),114,106,90,86,77,52,,,,17,21,21,14,0.8,0.8
2024-12-25T0200,2458A,112.6211,26.8956,衡阳市,珠晖区环保局,细颗粒物(PM2.5),104,90,85,78,75,55,,,,24,28,10,13,0.8,0.9
2024-12-25T0200,2459A,112.6197,26.8733,衡阳市,市委党校,细颗粒物(PM2.5),105,94,85,79,72,54,,,,24,23,8,11,0.8,0.9
2024-12-25T0200,2460A,112.6006,26.8919,衡阳市,市监测站,细颗粒物(PM2.5),118,109,104,89,84,58,,,,16,20,13,12,0.8,0.8
2024-12-25T0200,2461A,112.5664,26.9056,衡阳市,真空机电公司,细颗粒物(PM2.5),104,117,107,78,71,54,,,,21,23,10,8,0.7,0.8
2024-12-25T0200,3399A,112.6703,26.882,衡阳市,师范学院,细颗粒物(PM2.5),130,104,98,99,86,50,,,,21,20,11,11,0.9,0.9
2024-12-25T0200,2608A,103.3772,23.3993,红河哈尼族彝族自治州,污水处理厂,细颗粒物(PM2.5),75,,54,55,48,62,,,,10,9,11,8,0.7,0.6
2024-12-25T0200,2609A,103.3861,23.35,红河哈尼族彝族自治州,监测站,细颗粒物(PM2.5),82,,60,60,53,79,,,,6,8,5,5,0.6,0.6
2024-12-25T0200,3038A,103.3758,23.368,红河哈尼族彝族自治州,州图书馆,细颗粒物(PM2.5),74,,50,54,45,70,,,,7,9,6,7,0.6,0.6
2024-12-25T0200,1090A,111.6507,40.7517,呼和浩特市,呼市一监,细颗粒物(PM2.5),79,102,91,58,45,8,,,,48,33,8,10,0.9,0.7
2024-12-25T0200,1091A,111.6572,40.8033,呼和浩特市,小召,颗粒物(PM10),73,95,94,52,45,8,,,,61,45,12,14,1.0,1
2024-12-25T0200,1094A,111.7516,40.8369,呼和浩特市,如意水处理厂,颗粒物(PM10),76,101,85,48,41,4,,,,65,52,9,11,0.7,0.7
2024-12-25T0200,1095A,111.7276,40.8062,呼和浩特市,二十九中,颗粒物(PM10),81,111,86,58,42,5,,,,59,41,10,10,0.9,0.8
2024-12-25T0200,1096A,111.5512,40.7866,呼和浩特市,工大金川校区,颗粒物(PM10),82,114,104,49,48,3,,,,59,48,8,10,0.9,0.9
2024-12-25T0200,1097A,111.717,40.7612,呼和浩特市,化肥厂生活区,颗粒物(PM10),76,102,87,50,39,3,,,,56,36,12,11,1.1,0.8
2024-12-25T0200,3698A,111.5968,40.8178,呼和浩特市,红旗小学,颗粒物(PM10),76,102,105,55,49,3,,,,58,50,8,10,1.1,0.9
2024-12-25T0200,3699A,111.6518,40.8389,呼和浩特市,海东办,细颗粒物(PM2.5),92,124,102,68,51,4,,,,60,49,9,11,1.4,1.1
2024-12-25T0200,2192A,119.7594,49.2261,呼伦贝尔市,区环保局,,45,45,23,25,14,21,,,,41,21,5,6,0.5,0.5
2024-12-25T0200,3061A,119.7512,49.1577,呼伦贝尔市,国华电力东,,30,30,22,18,15,40,,,,22,9,3,4,0.4,0.4
2024-12-25T0200,1250A,120.0751,30.8669,湖州市,城西水厂,细颗粒物(PM2.5),83,93,78,61,50,9,,,,77,51,9,8,0.7,0.7
2024-12-25T0200,2873A,120.0875,30.8955,湖州市,仁皇山新区,细颗粒物(PM2.5),78,76,75,57,55,6,,,,74,54,7,8,0.6,0.7
2024-12-25T0200,2907A,120.1844,30.8596,湖州市,吴兴区站,细颗粒物(PM2.5),68,75,73,49,47,4,,,,84,51,8,8,0.7,0.7
2024-12-25T0200,3562A,120.4148,30.8538,湖州市,南浔区站,,,,53,,36,,,,,,42,,7,,0.7
2024-12-25T0200,1607A,120.9092,40.7136,葫芦岛市,龙港区,细颗粒物(PM2.5),62,60,92,44,60,46,,,,39,58,22,25,1.3,1.3
2024-12-25T0200,1608A,120.8392,40.7514,葫芦岛市,化工街,细颗粒物(PM2.5),67,80,96,48,54,7,,,,68,54,41,49,1.7,1.5
2024-12-25T0200,1609A,120.8341,40.7073,葫芦岛市,新区,细颗粒物(PM2.5),62,56,75,44,52,12,,,,67,65,22,25,1.6,1.4
2024-12-25T0200,1610A,120.8695,40.7677,葫芦岛市,东城区,细颗粒物(PM2.5),80,71,86,59,53,8,,,,70,51,9,25,1.3,1
2024-12-25T0200,2482A,109.5981,27.5721,怀化市,林科所,细颗粒物(PM2.5),58,47,44,41,42,77,,,,14,14,24,25,0.9,0.8
2024-12-25T0200,2483A,109.9453,27.5444,怀化市,河西地税局,细颗粒物(PM2.5),73,77,75,53,50,71,,,,15,19,5,13,0.5,0.6
2024-12-25T0200,2484A,109.9781,27.5342,怀化市,市四医院,细颗粒物(PM2.5),109,113,85,82,60,36,,,,32,20,22,10,0.8,0.6
2024-12-25T0200,2485A,109.9972,27.5578,怀化市,监测楼,细颗粒物(PM2.5),112,116,77,84,55,25,,,,31,20,9,7,0.8,0.6
2024-12-25T0200,2486A,110.0394,27.583,怀化市,市委党校,细颗粒物(PM2.5),108,118,79,81,58,12,,,,40,21,16,11,0.7,0.4
2024-12-25T0200,1210A,119.036,33.5981,淮安市,钵池山,细颗粒物(PM2.5),104,88,94,78,73,4,,,,87,62,7,9,0.7,0.6
2024-12-25T0200,1211A,119.007,33.575,淮安市,北京南路,细颗粒物(PM2.5),102,92,101,76,70,0,,,,84,60,8,10,1.0,0.9
2024-12-25T0200,1212A,118.989,33.6067,淮安市,市监测站,细颗粒物(PM2.5),110,85,104,83,85,5,,,,85,61,7,8,0.7,1
2024-12-25T0200,1213A,119.135,33.5039,淮安市,楚州区监测站,细颗粒物(PM2.5),107,88,102,80,77,19,,,,58,57,6,9,0.7,0.8
2024-12-25T0200,1214A,119.0186,33.6297,淮安市,淮阴区监测站,细颗粒物(PM2.5),119,136,116,90,76,0,,,,89,72,8,10,0.9,0.9
2024-12-25T0200,3426A,118.8755,33.2894,淮安市,新华书店,细颗粒物(PM2.5),124,97,102,94,75,5,,,,91,53,10,11,0.8,0.9
2024-12-25T0200,2282A,116.8004,33.975,淮北市,监测站,细颗粒物(PM2.5),122,124,115,92,84,32,,,,41,45,6,9,0.7,0.8
2024-12-25T0200,2283A,116.8091,33.9007,淮北市,烈山区政府,细颗粒物(PM2.5),132,128,121,100,87,16,,,,60,51,5,8,0.8,0.7
2024-12-25T0200,3330A,116.8873,33.9836,淮北市,杜集区检察院,细颗粒物(PM2.5),139,145,126,106,92,7,,,,57,43,3,6,0.6,0.6
2024-12-25T0200,4017A,116.7923,33.9535,淮北市,市博物馆,细颗粒物(PM2.5),148,138,121,113,92,7,,,,76,58,7,9,1.1,0.9
2024-12-25T0200,2277A,116.8305,32.7727,淮南市,潘集区政府,细颗粒物(PM2.5),200,193,132,150,107,8,,,,70,44,10,12,0.9,0.8
2024-12-25T0200,2278A,117.0067,32.6524,淮南市,师范学院,细颗粒物(PM2.5),178,177,127,134,88,0,,,,65,46,6,6,1.1,0.9
2024-12-25T0200,2279A,116.8569,32.5951,淮南市,谢家集区政府,细颗粒物(PM2.5),133,140,121,101,86,30,,,,33,29,14,11,0.9,0.8
2024-12-25T0200,2280A,116.8281,32.633,淮南市,八公山区政府,细颗粒物(PM2.5),122,122,114,92,85,37,,,,44,34,10,12,0.8,0.8
2024-12-25T0200,2281A,116.6325,32.6201,淮南市,焦岗湖风景区管理处,细颗粒物(PM2.5),169,153,109,128,81,7,,,,94,64,4,2,0.7,0.6
2024-12-25T0200,2894A,117.0566,32.6531,淮南市,经济技术开发区消防队,细颗粒物(PM2.5),120,112,110,91,81,9,,,,72,47,10,8,1.0,0.8
2024-12-25T0200,3329A,117.0108,32.5893,淮南市,山南新区,细颗粒物(PM2.5),115,106,112,87,83,46,,,,36,34,11,11,0.7,0.7
2024-12-25T0200,2446A,114.9028,30.4742,黄冈市,职工中心,细颗粒物(PM2.5),112,119,97,84,69,27,,,,73,50,11,10,1.0,0.8
2024-12-25T0200,2929A,114.8858,30.4519,黄冈市,红卫路,细颗粒物(PM2.5),104,98,89,78,66,17,,,,61,47,7,8,1.3,1.1
2024-12-25T0200,3398A,114.9136,30.4445,黄冈市,市林业局,细颗粒物(PM2.5),115,108,90,87,68,24,,,,64,47,12,12,1.1,0.9
2024-12-25T0200,2672A,102.0199,35.5102,黄南藏族自治州,同仁县隆务镇,细颗粒物(PM2.5),97,85,88,72,71,62,,,,9,16,9,9,0.9,1
2024-12-25T0200,2295A,118.2903,29.6963,黄山市,延安路89号,,45,44,56,31,43,19,,,,21,22,8,8,0.4,0.4
2024-12-25T0200,2296A,118.327,29.7178,黄山市,黄山东路89号,颗粒物(PM10),54,57,72,32,46,14,,,,21,21,6,6,0.4,0.4
2024-12-25T0200,2297A,118.1371,30.2756,黄山市,黄山区政府5号楼,细颗粒物(PM2.5),57,58,66,40,51,22,,,,16,16,7,7,0.6,0.5
2024-12-25T0200,2423A,115.0601,30.2313,黄石市,沈家营,细颗粒物(PM2.5),77,70,86,56,60,29,,,,49,36,9,14,0.7,0.8
2024-12-25T0200,2424A,115.0817,30.2006,黄石市,陈家湾,细颗粒物(PM2.5),73,67,86,53,71,46,,,,20,33,9,13,0.7,1
2024-12-25T0200,2426A,114.8988,30.2019,黄石市,铁山,细颗粒物(PM2.5),90,97,79,67,62,7,,,,59,37,16,16,1.6,1.3
2024-12-25T0200,2427A,115.0307,30.2092,黄石市,团城山,细颗粒物(PM2.5),78,72,86,57,59,68,,,,26,38,8,21,0.6,1
2024-12-25T0200,3149A,115.0235,30.1578,黄石市,笔架山北路,细颗粒物(PM2.5),90,90,82,67,66,15,,,,70,45,11,13,1.2,1.1
2024-12-25T0200,1392A,114.4183,23.0528,惠州市,河南岸金山湖子站,细颗粒物(PM2.5),59,56,63,42,44,77,,,,16,19,10,11,0.7,0.7
2024-12-25T0200,1393A,114.4053,23.0822,惠州市,下埔横江三路子站,颗粒物(PM10),56,62,65,38,44,77,,,,20,24,10,10,0.6,0.7
2024-12-25T0200,1394A,114.4103,23.1142,惠州市,江北云山西路子站,"颗粒物(PM10),细颗粒物(PM2.5)",54,58,63,38,43,82,,,,21,25,10,11,0.6,0.7
2024-12-25T0200,1395A,114.4645,22.7833,惠州市,惠阳区承修路船湖子站,颗粒物(PM10),64,78,81,43,45,56,,,,26,22,12,11,0.6,0.7
2024-12-25T0200,1396A,114.5317,22.7422,惠州市,大亚湾管委会子站,细颗粒物(PM2.5),62,68,65,44,42,60,,,,30,26,9,10,0.9,0.8
2024-12-25T0200,3314A,114.4338,22.8134,惠州市,惠阳秋长,颗粒物(PM10),57,63,63,38,41,64,,,,27,24,12,12,0.7,0.7
2024-12-25T0200,3452A,114.6517,22.775,惠州市,大亚湾霞涌,细颗粒物(PM2.5),58,49,64,41,46,71,,,,19,16,10,10,0.3,0.4
2024-12-25T0200,2240A,130.9762,45.3001,鸡西市,环保局,,48,48,24,33,18,5,,,,60,16,10,7,1.0,0.5
2024-12-25T0200,2243A,130.9429,45.3039,鸡西市,第一中学,,22,22,23,14,17,62,,,,7,8,6,6,0.2,0.2
2024-12-25T0200,3707A,131.0207,45.3073,鸡西市,欧美日汽修厂,细颗粒物(PM2.5),124,132,55,94,42,6,,,,60,34,47,29,1.6,0.7
2024-12-25T0200,3709A,130.9967,45.3106,鸡西市,市政设施管理处,细颗粒物(PM2.5),112,92,34,84,25,5,,,,54,30,21,9,1.7,0.6
2024-12-25T0200,2367A,114.9754,27.0803,吉安市,红声器材厂,细颗粒物(PM2.5),89,98,88,66,56,4,,,,70,51,10,14,0.8,0.7
2024-12-25T0200,2368A,114.9658,27.0999,吉安市,市森林工业局,细颗粒物(PM2.5),93,97,89,69,58,39,,,,42,41,19,19,1.0,0.7
2024-12-25T0200,2369A,114.99,27.1312,吉安市,市环境监测站,细颗粒物(PM2.5),82,86,78,60,54,65,,,,35,42,20,19,0.7,0.8
2024-12-25T0200,2370A,115.0093,27.0968,吉安市,青原区法院,细颗粒物(PM2.5),92,95,88,68,59,5,,,,74,53,13,14,0.9,0.9
2024-12-25T0200,1772A,126.54,43.8622,吉林市,哈达湾,,30,26,28,21,19,63,,,,16,23,10,9,0.6,0.5
2024-12-25T0200,1773A,126.5844,43.8358,吉林市,东局子,,34,34,24,20,16,68,,,,11,16,8,6,0.6,0.5
2024-12-25T0200,1774A,126.5052,43.8245,吉林市,电力学院,,35,29,40,24,31,64,,,,11,24,10,9,0.6,0.7
2024-12-25T0200,1775A,126.6133,43.8972,吉林市,江北,,34,34,30,18,16,68,,,,12,18,12,12,0.7,0.6
2024-12-25T0200,1776A,126.555,43.8306,吉林市,江南公园,,35,35,29,24,21,63,,,,15,22,11,11,0.6,0.5
2024-12-25T0200,1778A,126.7061,43.7133,吉林市,丰满,,28,22,15,19,14,65,,,,8,6,10,9,0.7,0.5
2024-12-25T0200,2868A,126.4739,43.953,吉林市,九站,,35,32,36,24,25,67,,,,14,23,8,6,0.7,0.7
2024-12-25T0200,1299A,116.9862,36.6114,济南市,科干所,细颗粒物(PM2.5),102,92,88,76,56,70,,,,28,49,11,14,0.7,0.9
2024-12-25T0200,1300A,116.9376,36.665,济南市,农科所,,,,,,,,,,,,,,,,
2024-12-25T0200,1301A,117.1265,36.6734,济南市,开发区,细颗粒物(PM2.5),95,78,123,71,67,58,,,,31,76,10,13,0.8,1.2
2024-12-25T0200,1303A,117.0624,36.6868,济南市,省种子仓库,细颗粒物(PM2.5),117,175,142,88,64,7,,,,82,74,15,15,1.7,1.3
2024-12-25T0200,1304A,116.9489,36.6447,济南市,机床二厂,细颗粒物(PM2.5),104,110,127,78,70,46,,,,40,63,22,35,1.1,1.4
2024-12-25T0200,1305A,117.0495,36.663,济南市,市监测站,细颗粒物(PM2.5),92,93,95,68,52,47,,,,46,63,11,12,0.8,1
2024-12-25T0200,1306A,116.7675,36.5484,济南市,长清党校,细颗粒物(PM2.5),113,112,94,85,68,64,,,,35,53,13,14,0.9,1
2024-12-25T0200,1616A,117.6795,36.229,济南市,技术学院,细颗粒物(PM2.5),153,153,125,117,92,6,,,,71,68,17,19,1.5,1.3
2024-12-25T0200,1961A,117.532,36.6868,济南市,东山小学,细颗粒物(PM2.5),92,105,99,68,59,25,,,,60,59,10,11,0.8,1
2024-12-25T0200,3059A,117.7161,36.2049,济南市,泰兴公司,细颗粒物(PM2.5),170,168,152,129,99,8,,,,77,72,18,19,1.5,1.3
2024-12-25T0200,3064A,117.6867,36.2171,济南市,莱芜战役纪念馆,细颗粒物(PM2.5),163,193,147,124,95,10,,,,76,69,15,17,1.6,1.4
2024-12-25T0200,3494A,117.1673,36.9782,济南市,济阳区政府,细颗粒物(PM2.5),108,127,129,81,76,6,,,,89,88,23,21,1.4,1.7
2024-12-25T0200,3495A,117.1171,36.63,济南市,锦屏中学,细颗粒物(PM2.5),92,81,68,68,47,72,,,,27,47,10,9,0.6,0.7
2024-12-25T0200,3682A,116.9814,36.6819,济南市,济南四建,细颗粒物(PM2.5),102,97,107,76,62,38,,,,50,72,15,20,0.9,1.3
2024-12-25T0200,1653A,116.6251,35.4302,济宁市,火炬城,细颗粒物(PM2.5),138,137,101,105,76,28,,,,54,52,13,13,1.0,0.9
2024-12-25T0200,1655A,116.5491,35.4042,济宁市,电化厂,细颗粒物(PM2.5),132,145,125,100,85,19,,,,73,65,15,16,1.1,1.1
2024-12-25T0200,3500A,116.5814,35.3707,济宁市,北湖一中,细颗粒物(PM2.5),144,143,100,110,79,14,,,,70,58,11,11,1.1,0.9
2024-12-25T0200,3501A,116.8249,35.5593,济宁市,服务中心,细颗粒物(PM2.5),163,200,146,124,90,6,,,,82,69,21,20,1.7,1.4
2024-12-25T0200,3678A,116.5907,35.4054,济宁市,市第七中学,细颗粒物(PM2.5),160,164,104,122,81,16,,,,70,57,9,8,1.3,1.2
2024-12-25T0200,2255A,130.2751,46.8028,佳木斯市,佳纺,细颗粒物(PM2.5),52,45,38,36,33,18,,,,45,18,9,10,0.8,0.6
2024-12-25T0200,2256A,130.3995,46.8307,佳木斯市,发电厂,细颗粒物(PM2.5),52,47,32,36,29,31,,,,33,28,6,7,0.7,0.7
2024-12-25T0200,2257A,130.3258,46.7975,佳木斯市,环保局,,39,39,39,27,26,7,,,,64,25,11,13,1.2,0.8
2024-12-25T0200,2258A,130.3648,46.8032,佳木斯市,十一中,,49,39,31,34,28,45,,,,24,27,6,7,0.5,0.6
2024-12-25T0200,2259A,130.3794,46.7588,佳木斯市,四丰,颗粒物(PM10),51,52,35,23,22,60,,,,8,8,1,1,0.5,0.5
2024-12-25T0200,1252A,120.7436,30.778,嘉兴市,清河小学,颗粒物(PM10),53,55,50,36,34,16,,,,52,41,6,7,0.5,0.6
2024-12-25T0200,1253A,120.726,30.7478,嘉兴市,嘉兴学院,颗粒物(PM10),57,63,58,30,34,45,,,,29,33,6,7,0.4,0.5
2024-12-25T0200,2872A,120.7846,30.7525,嘉兴市,南湖区残联,细颗粒物(PM2.5),58,59,59,41,36,19,,,,57,37,8,9,0.6,0.5
2024-12-25T0200,3407A,120.6916,30.7739,嘉兴市,秀洲住建,颗粒物(PM10),57,64,56,38,35,6,,,,64,45,6,7,0.4,0.5
2024-12-25T0200,1945A,98.2908,39.7711,嘉峪关市,气象局,,36,36,45,9,14,29,,,,38,26,9,11,0.3,0.4
2024-12-25T0200,2884A,98.2672,39.7978,嘉峪关市,酒钢宾馆,,29,29,54,7,16,44,,,,21,26,18,15,0.4,0.6
2024-12-25T0200,3248A,98.2643,39.7724,嘉峪关市,雄关区,,29,29,41,3,15,29,,,,41,32,9,9,0.5,0.4
2024-12-25T0200,1383A,113.1064,22.6058,江门市,北街,细颗粒物(PM2.5),74,85,72,54,51,22,,,,92,51,9,8,0.8,0.7
2024-12-25T0200,1384A,113.0731,22.5835,江门市,西区,细颗粒物(PM2.5),74,94,90,54,53,30,,,,70,46,14,12,0.8,0.7
2024-12-25T0200,1385A,113.0219,22.5311,江门市,圭峰西,细颗粒物(PM2.5),67,66,66,48,50,60,,,,44,38,6,6,0.5,0.6
2024-12-25T0200,1386A,113.0828,22.5947,江门市,东湖,颗粒物(PM10),67,83,82,41,37,33,,,,61,41,11,10,0.7,0.6
2024-12-25T0200,3311A,113.1075,22.5647,江门市,江海富民,"颗粒物(PM10),细颗粒物(PM2.5)",73,95,82,53,44,27,,,,89,57,13,11,0.9,0.7
2024-12-25T0200,3449A,113.05,22.4667,江门市,新会银湖,细颗粒物(PM2.5),85,87,69,63,56,4,,,,71,45,7,9,0.9,0.7
2024-12-25T0200,1828A,113.227,35.2125,焦作市,市环保局,细颗粒物(PM2.5),186,181,149,140,109,6,,,,63,57,13,14,1.8,1.5
2024-12-25T0200,1830A,113.1992,35.2590,焦作市,影视城,细颗粒物(PM2.5),152,157,131,116,94,12,,,,65,57,20,20,1.8,1.6
2024-12-25T0200,3169A,113.2725,35.2067,焦作市,太极体育中心,细颗粒物(PM2.5),186,180,147,140,106,2,,,,78,67,18,19,1.8,1.5
2024-12-25T0200,3335A,113.3137,35.2641,焦作市,马村街道办,细颗粒物(PM2.5),182,161,158,137,119,3,,,,58,54,14,18,2.1,1.7
2024-12-25T0200,3336A,113.2465,35.2373,焦作市,焦作技师学院,细颗粒物(PM2.5),160,172,154,122,106,2,,,,71,65,13,19,2.0,1.7
2024-12-25T0200,3477A,113.1656,35.2539,焦作市,中站许衡医院,细颗粒物(PM2.5),148,157,135,113,94,4,,,,70,57,21,21,1.5,1.3
2024-12-25T0200,3981A,113.2449,35.1803,焦作市,原李万街道办,细颗粒物(PM2.5),180,174,155,136,109,10,,,,72,59,19,18,1.9,1.7
2024-12-25T0200,1708A,116.3701,23.5345,揭阳市,新兴,,44,44,56,23,34,45,,,,25,30,8,8,0.5,0.6
2024-12-25T0200,1709A,116.3264,23.5443,揭阳市,西马,,44,44,54,19,27,51,,,,24,26,9,9,0.5,0.7
2024-12-25T0200,1710A,116.3611,23.5626,揭阳市,东兴,,46,46,63,22,31,49,,,,24,30,14,10,0.6,0.8
2024-12-25T0200,1711A,116.4151,23.5294,揭阳市,渔湖,,45,45,53,14,29,44,,,,29,34,11,13,0.4,0.5
2024-12-25T0200,3320A,116.403,23.5699,揭阳市,曲溪,,38,38,56,20,35,53,,,,28,37,6,5,0.5,0.7
2024-12-25T0200,1944A,102.1692,38.5167,金昌市,天庆家园,细颗粒物(PM2.5),68,66,76,49,39,30,,,,28,23,39,20,0.9,1
2024-12-25T0200,3170A,102.1864,38.5253,金昌市,市委党校,细颗粒物(PM2.5),103,148,99,77,37,17,,,,52,26,36,25,1.8,0.9
2024-12-25T0200,4022A,102.1647,38.5371,金昌市,金川区人防中心,细颗粒物(PM2.5),67,77,94,48,41,44,,,,14,21,18,16,1.1,0.8
2024-12-25T0200,1262A,119.647,29.077,金华市,十五中,细颗粒物(PM2.5),73,82,84,53,52,11,,,,68,72,4,5,0.6,0.7
2024-12-25T0200,1263A,119.686,29.1029,金华市,监测站,细颗粒物(PM2.5),77,96,91,56,56,2,,,,74,71,5,6,0.7,0.7
2024-12-25T0200,3659A,119.656,29.1131,金华市,气象局,颗粒物(PM10),77,103,98,55,53,0,,,,75,67,4,5,1.1,1
2024-12-25T0200,1767A,121.1115,41.0879,锦州市,南山,细颗粒物(PM2.5),133,116,74,101,68,15,,,,66,55,33,17,2.6,1.4
2024-12-25T0200,1768A,121.0533,40.8434,锦州市,开发区,细颗粒物(PM2.5),88,103,128,65,69,8,,,,63,59,17,50,1.5,1.4
2024-12-25T0200,1769A,121.1836,41.1119,锦州市,百股街道,细颗粒物(PM2.5),110,87,71,83,57,12,,,,65,53,39,18,2.2,1.3
2024-12-25T0200,1770A,121.1178,41.1222,锦州市,天安街道,细颗粒物(PM2.5),105,106,81,79,56,9,,,,57,54,19,21,1.7,1.3
2024-12-25T0200,1771A,121.1303,41.1386,锦州市,北湖公园,细颗粒物(PM2.5),97,109,73,72,51,17,,,,55,55,37,24,1.6,1.3
2024-12-25T0200,2160A,112.85,35.5051,晋城市,自来水公司,细颗粒物(PM2.5),92,68,79,68,69,6,,,,70,57,19,20,1.6,1.8
2024-12-25T0200,2161A,112.8318,35.4936,晋城市,白云商贸,细颗粒物(PM2.5),85,86,96,63,61,7,,,,72,56,13,16,1.3,1.8
2024-12-25T0200,2162A,112.8508,35.4887,晋城市,市环保局,细颗粒物(PM2.5),98,102,104,73,70,5,,,,70,58,14,17,1.7,1.9
2024-12-25T0200,2163A,112.8676,35.4897,晋城市,技术学院,细颗粒物(PM2.5),98,108,97,73,68,5,,,,73,60,23,20,1.7,1.7
2024-12-25T0200,2165A,112.8453,35.546,晋城市,白马寺,细颗粒物(PM2.5),74,74,89,54,62,38,,,,28,35,22,23,1.5,1.9
2024-12-25T0200,3620A,112.8271,35.4828,晋城市,泽州一中,细颗粒物(PM2.5),94,83,93,70,65,27,,,,49,49,12,16,1.4,1.8
2024-12-25T0200,2171A,112.7532,37.6945,晋中市,锦纶小区,细颗粒物(PM2.5),117,144,132,88,75,4,,,,70,63,23,28,1.4,1.3
2024-12-25T0200,2173A,112.7249,37.7067,晋中市,南都小区,细颗粒物(PM2.5),155,171,142,118,83,3,,,,77,66,22,28,1.8,1.6
2024-12-25T0200,2174A,112.6991,37.6982,晋中市,榆次区政府,细颗粒物(PM2.5),117,156,153,88,79,4,,,,70,64,17,25,1.7,1.7
2024-12-25T0200,2865A,112.7195,37.6828,晋中市,榆次三中,细颗粒物(PM2.5),122,146,139,92,79,3,,,,66,61,18,28,1.8,1.7
2024-12-25T0200,2439A,112.2014,31.0481,荆门市,竹园小学,细颗粒物(PM2.5),95,90,84,71,59,73,,,,26,31,12,13,0.5,0.7
2024-12-25T0200,2440A,112.1969,30.9891,荆门市,掇刀,细颗粒物(PM2.5),95,89,91,71,62,66,,,,32,37,10,11,0.6,0.7
2024-12-25T0200,2441A,112.2213,31.0386,荆门市,石化一小,细颗粒物(PM2.5),98,85,95,73,61,72,,,,24,33,8,9,0.5,0.6
2024-12-25T0200,3012A,112.1849,31.0362,荆门市,西山林语,细颗粒物(PM2.5),98,88,76,73,59,74,,,,20,25,9,9,0.4,0.6
2024-12-25T0200,3547A,112.1632,31.0138,荆门市,龙泉中学南校,细颗粒物(PM2.5),93,90,88,69,64,72,,,,26,32,10,12,0.6,0.7
2024-12-25T0200,1844A,112.2494,30.3197,荆州市,市图书馆,细颗粒物(PM2.5),147,,80,112,77,55,,,,32,42,7,7,0.6,0.6
2024-12-25T0200,1845A,112.2008,30.3544,荆州市,市委党校,细颗粒物(PM2.5),145,114,89,111,76,46,,,,36,42,4,5,0.6,0.5
2024-12-25T0200,3194A,112.2747,30.3122,荆州市,管委会,细颗粒物(PM2.5),150,,91,115,79,46,,,,37,41,6,6,0.8,0.7
2024-12-25T0200,3548A,112.1655,30.3364,荆州市,学苑路,细颗粒物(PM2.5),145,137,101,111,76,62,,,,27,35,9,10,0.9,0.8
2024-12-25T0200,2342A,117.3102,29.3867,景德镇市,王港中学,,,,,,,,,,,,,,,,
2024-12-25T0200,2343A,117.2117,29.2933,景德镇市,老干部活动中心,细颗粒物(PM2.5),97,100,62,72,52,10,,,,51,27,10,10,0.7,0.7
2024-12-25T0200,2344A,117.1894,29.2789,景德镇市,兽医站,细颗粒物(PM2.5),77,86,70,56,39,25,,,,45,22,6,7,0.7,0.6
2024-12-25T0200,2345A,117.1547,29.2617,景德镇市,台达陶瓷,细颗粒物(PM2.5),77,91,72,56,46,14,,,,62,39,61,50,0.2,0.2
2024-12-25T0200,2346A,117.2461,29.2956,景德镇市,陶研所,细颗粒物(PM2.5),64,68,58,46,33,9,,,,46,31,4,5,0.7,0.6
2024-12-25T0200,1803A,115.9872,29.6815,九江市,十里,细颗粒物(PM2.5),102,102,89,76,62,11,,,,65,45,8,8,1.0,1
2024-12-25T0200,1804A,115.9584,29.7046,九江市,茅山头,细颗粒物(PM2.5),97,107,113,72,68,10,,,,79,55,12,13,1.2,1.2
2024-12-25T0200,1805A,115.9877,29.7295,九江市,西园,细颗粒物(PM2.5),117,107,94,88,73,8,,,,135,101,9,10,0.9,0.9
2024-12-25T0200,1806A,116.0172,29.6547,九江市,五七二七厂,细颗粒物(PM2.5),107,113,89,80,69,47,,,,40,32,8,8,0.9,0.8
2024-12-25T0200,1808A,115.9114,29.6038,九江市,综合工业园,细颗粒物(PM2.5),139,120,102,106,88,10,,,,124,64,8,10,1.0,1
2024-12-25T0200,1809A,116.0721,29.7535,九江市,石化总厂,细颗粒物(PM2.5),117,118,92,88,68,29,,,,60,46,9,9,1.0,1
2024-12-25T0200,1810A,115.9773,29.5698,九江市,庐山气象台,细颗粒物(PM2.5),58,41,24,41,25,101,,,,9,8,6,10,0.8,0.9
2024-12-25T0200,3190A,116.0254,29.6994,九江市,外国语学校,细颗粒物(PM2.5),123,134,108,93,69,14,,,,65,50,8,10,1.0,0.9
2024-12-25T0200,2658A,98.5061,39.7443,酒泉市,仓门街子站,颗粒物(PM10),60,70,58,31,21,33,,,,31,21,94,14,0.8,0.6
2024-12-25T0200,2659A,98.4989,39.7256,酒泉市,油田生活基地,颗粒物(PM10),51,51,59,21,20,15,,,,38,23,26,11,0.8,0.5
2024-12-25T0200,2698A,76.0072,39.4467,喀什地区,巡警大队,细颗粒物(PM2.5),150,180,110,115,61,11,,,,82,34,3,2,3.4,1.1
2024-12-25T0200,2699A,75.9755,39.4694,喀什地区,吾办,细颗粒物(PM2.5),147,164,112,112,69,8,,,,84,35,3,3,2.6,1.1
2024-12-25T0200,4027A,75.9483,39.4689,喀什地区,老干局,细颗粒物(PM2.5),139,196,112,106,60,8,,,,80,33,2,2,3.3,1.2
2024-12-25T0200,1824A,114.3389,34.7781,开封市,肿瘤医院,细颗粒物(PM2.5),155,144,143,118,109,33,,,,41,54,6,6,0.7,0.8
2024-12-25T0200,1826A,114.2885,34.7965,开封市,世纪星幼儿园,细颗粒物(PM2.5),163,127,129,124,120,38,,,,37,51,4,6,0.5,0.5
2024-12-25T0200,3147A,114.3438,34.8106,开封市,龙亭公园,细颗粒物(PM2.5),163,,128,124,110,40,,,,41,54,3,4,0.3,0.4
2024-12-25T0200,3210A,114.3644,34.7964,开封市,汴京公园,细颗粒物(PM2.5),176,144,156,133,123,32,,,,48,60,5,6,0.7,0.7
2024-12-25T0200,3473A,114.2485,34.8306,开封市,技师学院,细颗粒物(PM2.5),144,,120,110,86,58,,,,33,49,6,7,0.9,1
2024-12-25T0200,3592A,114.4644,34.7556,开封市,祥符区生态环境局,细颗粒物(PM2.5),178,170,150,134,119,8,,,,77,61,3,5,0.6,0.6
2024-12-25T0200,1951A,84.895,45.6094,克拉玛依市,长征新村,颗粒物(PM10),57,63,83,39,55,55,,,,23,29,6,6,0.7,0.7
2024-12-25T0200,1952A,84.8988,45.5893,克拉玛依市,南林小区,细颗粒物(PM2.5),79,64,82,58,64,34,,,,35,29,3,3,0.8,0.9
2024-12-25T0200,1954A,84.905,44.3396,克拉玛依市,独山子区,细颗粒物(PM2.5),162,158,132,123,110,8,,,,70,51,4,6,1.1,1
2024-12-25T0200,1955A,85.6979,46.098,克拉玛依市,乌尔禾区商贸楼,细颗粒物(PM2.5),58,,42,41,32,36,,,,34,28,3,5,0.7,0.6
2024-12-25T0200,3612A,85.1045,45.6899,克拉玛依市,白碱滩区新站,颗粒物(PM10),59,68,89,36,60,26,,,,37,40,8,8,1.2,1.3
2024-12-25T0200,2697A,76.1454,39.7142,克孜勒苏柯尔克孜自治州,市人民政府,细颗粒物(PM2.5),118,136,104,89,70,38,,,,22,21,4,4,1.4,1.2
2024-12-25T0200,3665A,76.1658,39.7157,克孜勒苏柯尔克孜自治州,克州文化中心,细颗粒物(PM2.5),114,114,93,86,66,27,,,,41,24,8,8,1.4,1.1
2024-12-25T0200,1450A,102.8204,24.8886,昆明市,呈贡新区,,32,27,27,22,19,46,,,,21,23,6,8,0.4,0.5
2024-12-25T0200,1451A,102.6251,24.9608,昆明市,西山森林公园,,,,,,,,,,,,,,,,
2024-12-25T0200,1452A,102.7252,25.0902,昆明市,龙泉镇,,42,42,29,29,20,6,,,,51,24,6,8,0.7,0.6
2024-12-25T0200,1453A,102.7266,25.0375,昆明市,东风东路,,35,32,31,24,21,47,,,,12,20,6,7,0.7,0.6
2024-12-25T0200,1454A,102.6742,25.0669,昆明市,金鼎山,,35,33,32,24,20,47,,,,20,22,14,12,0.7,0.6
2024-12-25T0200,1455A,102.6644,25.0401,昆明市,碧鸡广场,,47,47,34,27,21,34,,,,30,25,10,10,0.5,0.6
2024-12-25T0200,3179A,102.7494,25.0119,昆明市,官渡区博物馆,,36,28,29,25,21,54,,,,12,15,7,8,0.7,0.5
2024-12-25T0200,3375A,102.8017,24.8336,昆明市,青年创业园,,34,34,32,19,18,51,,,,16,21,8,9,0.5,0.6
2024-12-25T0200,3550A,102.7997,24.9786,昆明市,昆明学院,,31,31,28,21,18,62,,,,9,15,8,9,0.5,0.5
2024-12-25T0200,3551A,102.5967,24.6736,昆明市,晋宁区生态环境分局,,38,38,40,19,24,44,,,,18,17,3,4,0.9,0.9
2024-12-25T0200,3552A,102.6678,24.9856,昆明市,云天化总部,,32,28,26,22,18,55,,,,7,14,5,7,0.5,0.4
2024-12-25T0200,1456A,91.1319,29.6514,拉萨市,八廓街,,26,26,40,8,25,79,,,,15,36,7,8,0.3,0.8
2024-12-25T0200,1457A,91.1221,29.6747,拉萨市,市环保局,,33,22,43,6,24,103,,,,12,29,5,6,0.4,1.1
2024-12-25T0200,1458A,91.0874,29.6475,拉萨市,区监测站,,30,27,26,3,15,96,,,,7,32,5,7,0.3,0.7
2024-12-25T0200,1459A,91.1774,29.6541,拉萨市,西藏大学,,28,28,34,10,16,79,,,,14,24,6,7,0.7,0.8
2024-12-25T0200,1460A,90.9798,29.6588,拉萨市,区辐射站,,34,34,39,13,21,81,,,,13,32,6,9,0.6,0.8
2024-12-25T0200,1461A,91.0834,29.6292,拉萨市,拉萨火车站,,33,17,17,3,7,105,,,,2,14,4,5,0.3,0.4
2024-12-25T0200,2520A,109.2203,23.7256,来宾市,来宾技工学校,细颗粒物(PM2.5),110,111,99,83,82,71,,,,25,29,10,10,1.1,1.1
2024-12-25T0200,3535A,109.1781,23.7297,来宾市,兴宾区政府,细颗粒物(PM2.5),140,145,109,107,79,61,,,,34,26,11,11,1.0,0.9
2024-12-25T0200,4002A,109.2416,23.7461,来宾市,中南小学,细颗粒物(PM2.5),120,113,107,91,86,66,,,,24,31,11,11,1.2,1.2
2024-12-25T0200,1476A,103.631,36.1031,兰州市,兰炼宾馆,细颗粒物(PM2.5),107,113,106,80,74,10,,,,75,65,20,32,1.1,1.2
2024-12-25T0200,1477A,104.1373,35.9454,兰州市,榆中兰大校区,,,,,,,,,,,,,,,,
2024-12-25T0200,1478A,103.8412,36.0726,兰州市,生物制品所,细颗粒物(PM2.5),128,115,103,97,72,3,,,,76,71,14,18,1.3,1.3
2024-12-25T0200,1479A,103.831,36.0464,兰州市,铁路设计院,细颗粒物(PM2.5),113,116,110,85,74,3,,,,80,77,24,16,2.2,1.6
2024-12-25T0200,3186A,103.7158,36.1058,兰州市,教育港,细颗粒物(PM2.5),117,124,109,88,72,3,,,,77,62,16,24,1.2,1.1
2024-12-25T0200,3241A,103.7439,36.0842,兰州市,百合公园,细颗粒物(PM2.5),109,98,94,82,66,8,,,,70,60,12,21,1.5,1.3
2024-12-25T0200,3242A,103.9611,35.998,兰州市,和平,细颗粒物(PM2.5),78,83,92,57,65,15,,,,67,53,15,17,1.3,1.2
2024-12-25T0200,3245A,103.6633,36.533,兰州新区,新区管委会,细颗粒物(PM2.5),103,118,97,77,71,17,,,,51,40,24,14,1.2,0.9
2024-12-25T0200,3246A,103.6975,36.4789,兰州新区,舟曲中学,细颗粒物(PM2.5),105,113,103,79,69,28,,,,54,44,18,14,0.9,0.8
2024-12-25T0200,1067A,116.6708,39.5111,廊坊市,药材公司,细颗粒物(PM2.5),130,128,109,99,78,6,,,,81,70,6,7,0.9,1
2024-12-25T0200,1068A,116.7214,39.5589,廊坊市,开发区,细颗粒物(PM2.5),122,130,108,92,73,15,,,,72,72,6,8,0.7,0.9
2024-12-25T0200,1070A,116.7244,39.5269,廊坊市,北华航天学院,细颗粒物(PM2.5),128,133,109,97,73,18,,,,65,60,11,12,0.8,1
2024-12-25T0200,2919A,116.7022,39.5453,廊坊市,河北工业大学,细颗粒物(PM2.5),129,128,107,98,74,11,,,,79,69,8,10,0.7,0.9
2024-12-25T0200,2535A,103.7723,29.5462,乐山市,花湖湾,,46,46,42,31,29,6,,,,27,18,4,4,0.6,0.6
2024-12-25T0200,2536A,103.7627,29.5844,乐山市,牛耳桥,细颗粒物(PM2.5),55,42,41,39,36,2,,,,27,29,4,4,0.7,0.7
2024-12-25T0200,2537A,103.7508,29.6006,乐山市,市第三水厂,,42,34,35,29,29,8,,,,28,29,3,3,0.9,0.8
2024-12-25T0200,2538A,103.7571,29.5664,乐山市,市监测站,,46,38,32,32,30,2,,,,27,21,2,2,0.9,0.7
2024-12-25T0200,3361A,103.7311,29.5628,乐山市,理工大学,,48,41,34,33,32,6,,,,29,22,6,6,0.9,0.7
2024-12-25T0200,2598A,100.2143,26.8576,丽江市,西南郊,,32,32,34,22,21,68,,,,10,13,3,4,0.6,0.7
2024-12-25T0200,2599A,100.2497,26.8802,丽江市,丽江古城,,24,19,31,12,17,76,,,,8,14,9,10,0.4,0.6
2024-12-25T0200,2600A,100.2203,26.8906,丽江市,市中心,,24,,15,11,11,74,,,,8,11,7,7,0.4,0.5
2024-12-25T0200,1267A,119.914,28.4514,丽水市,监测站大楼,细颗粒物(PM2.5),72,59,61,52,54,5,,,,56,40,4,4,0.8,0.8
2024-12-25T0200,1268A,119.93,28.4586,丽水市,莲都小学,颗粒物(PM10),56,61,77,38,52,10,,,,50,38,6,6,0.5,0.7
2024-12-25T0200,1269A,119.879,28.4231,丽水市,余庄前,颗粒物(PM10),54,58,71,36,51,7,,,,38,34,4,5,0.6,0.6
2024-12-25T0200,1173A,119.176,34.5885,连云港市,市环境监测站,细颗粒物(PM2.5),70,61,94,51,65,61,,,,29,54,10,14,0.7,1
2024-12-25T0200,3000A,119.3581,34.6972,连云港市,德源药业,细颗粒物(PM2.5),58,61,90,41,57,64,,,,21,62,8,10,0.4,0.6
2024-12-25T0200,3007A,119.178,34.844,连云港市,新城一中,细颗粒物(PM2.5),83,80,90,61,63,58,,,,33,65,12,18,0.9,1.2
2024-12-25T0200,3008A,119.3608,34.7519,连云港市,胡沟管理处,颗粒物(PM10),51,51,66,34,42,88,,,,13,42,7,11,0.6,0.8
2024-12-25T0200,3009A,119.1478,34.5911,连云港市,矿山设计院,细颗粒物(PM2.5),70,73,102,51,67,65,,,,26,55,9,12,0.5,0.8
2024-12-25T0200,3434A,119.2413,34.6539,连云港市,工贸学校,细颗粒物(PM2.5),72,67,84,52,60,90,,,,14,35,9,12,0.4,0.6
2024-12-25T0200,3664A,119.4172,34.7341,连云港市,连云街道,细颗粒物(PM2.5),58,58,67,41,48,93,,,,10,36,7,15,0.6,0.7
2024-12-25T0200,2571A,102.3431,27.8099,凉山彝族自治州,青龙寺,,24,24,32,8,12,60,,,,6,10,5,6,0.6,0.7
2024-12-25T0200,2572A,102.2721,27.8415,凉山彝族自治州,邛海宾馆,细颗粒物(PM2.5),87,75,40,64,28,26,,,,32,18,9,10,0.8,0.7
2024-12-25T0200,2573A,102.2625,27.898,凉山彝族自治州,西昌市政府,,39,39,38,27,26,50,,,,17,20,11,11,0.8,0.9
2024-12-25T0200,2574A,102.2685,27.8851,凉山彝族自治州,凉山州政府,,48,48,43,32,27,38,,,,25,24,9,10,0.7,0.7
2024-12-25T0200,2575A,102.237,27.8914,凉山彝族自治州,长安,细颗粒物(PM2.5),57,60,59,40,34,36,,,,25,31,8,11,0.9,1.1
2024-12-25T0200,2212A,123.2,41.1953,辽阳市,宏伟区,颗粒物(PM10),55,59,58,36,36,49,,,,16,22,13,19,0.5,0.7
2024-12-25T0200,2213A,123.1683,41.2495,辽阳市,新华园,颗粒物(PM10),59,68,69,40,39,44,,,,28,42,13,28,0.7,1
2024-12-25T0200,2214A,123.2354,41.2639,辽阳市,滨河路,,38,32,45,26,28,64,,,,13,28,22,28,0.8,0.9
2024-12-25T0200,2215A,123.149,41.2991,辽阳市,铁西工业园,颗粒物(PM10),68,86,87,40,49,63,,,,19,37,12,18,0.7,1.3
2024-12-25T0200,2227A,125.1358,42.8845,辽源市,环保局,,26,26,45,16,27,64,,,,14,33,11,11,0.7,0.9
2024-12-25T0200,3239A,125.0764,42.9078,辽源市,银鹰制药,,32,32,44,19,29,62,,,,18,29,10,10,0.8,0.8
2024-12-25T0200,1625A,115.9848,36.4372,聊城市,区政府,细颗粒物(PM2.5),119,119,123,90,86,43,,,,46,62,15,15,0.8,1
2024-12-25T0200,2878A,116.0072,36.4343,聊城市,聊大东校,细颗粒物(PM2.5),142,149,142,108,100,34,,,,53,68,14,13,0.9,1.1
2024-12-25T0200,3200A,115.9819,36.4978,聊城市,监控中心,细颗粒物(PM2.5),119,116,122,90,88,42,,,,48,67,13,14,1.0,1.2
2024-12-25T0200,3513A,116.0445,36.4361,聊城市,九州社区,细颗粒物(PM2.5),135,123,119,103,98,21,,,,54,54,18,15,1.0,1
2024-12-25T0200,4018A,116.0567,36.4608,聊城市,星美广场,细颗粒物(PM2.5),132,135,133,100,94,31,,,,48,57,14,14,1.0,1.1
2024-12-25T0200,2632A,94.3681,29.6376,林芝市,林芝监测站,,27,6,20,3,6,86,,,,1,5,6,6,0.2,0.2
2024-12-25T0200,2633A,94.3616,29.6616,林芝市,林芝人民医院,,25,8,17,3,6,80,,,,2,4,6,6,0.3,0.3
2024-12-25T0200,2603A,100.0781,23.8982,临沧市,市环保局,细颗粒物(PM2.5),55,,27,39,22,21,,,,13,15,5,6,0.5,0.5
2024-12-25T0200,2604A,100.0894,23.8822,临沧市,市气象局,,40,31,33,28,24,23,,,,12,15,7,8,0.5,0.5
2024-12-25T0200,1733A,111.5531,36.0783,临汾市,临钢医院,细颗粒物(PM2.5),165,182,174,125,108,2,,,,57,59,10,13,2.0,1.9
2024-12-25T0200,1734A,111.5028,36.0714,临汾市,技工学校,细颗粒物(PM2.5),190,207,180,143,116,3,,,,62,63,15,14,2.2,2.2
2024-12-25T0200,1736A,111.5018,36.0855,临汾市,市委,细颗粒物(PM2.5),189,213,184,142,117,5,,,,65,66,20,16,2.0,2
2024-12-25T0200,3018A,111.505,36.1014,临汾市,唐尧大酒店,细颗粒物(PM2.5),183,194,165,138,117,5,,,,61,62,21,18,2.1,1.9
2024-12-25T0200,3668A,111.5036,36.0414,临汾市,城南,细颗粒物(PM2.5),176,189,174,133,117,1,,,,50,59,6,13,2.0,2.1
2024-12-25T0200,2667A,103.2069,35.5993,临夏回族自治州,环保局,细颗粒物(PM2.5),152,161,156,116,104,23,,,,33,31,8,8,1.9,1.8
2024-12-25T0200,2668A,103.2417,35.6057,临夏回族自治州,建设大厦,细颗粒物(PM2.5),134,153,139,102,100,15,,,,38,28,11,11,1.9,1.7
2024-12-25T0200,1618A,118.3429,35.0532,临沂市,沂河小区,细颗粒物(PM2.5),149,144,121,114,91,10,,,,84,73,26,24,1.2,1.1
2024-12-25T0200,1619A,118.295,35.0583,临沂市,鲁南制药厂,细颗粒物(PM2.5),175,202,125,132,87,6,,,,98,75,41,28,1.8,1.2
2024-12-25T0200,1620A,118.2794,34.9976,临沂市,新光毛纺厂,细颗粒物(PM2.5),183,190,131,138,97,7,,,,95,75,38,25,1.7,1.4
2024-12-25T0200,1621A,118.3956,35.0888,临沂市,河东保险公司,细颗粒物(PM2.5),144,153,129,110,90,4,,,,77,69,15,20,1.3,1.3
2024-12-25T0200,3370A,118.3564,35.0215,临沂市,十里堡居委,细颗粒物(PM2.5),117,119,119,88,86,7,,,,66,64,22,26,1.1,1.4
2024-12-25T0200,3496A,118.3604,35.1084,临沂市,南坊新区,细颗粒物(PM2.5),203,217,118,153,86,7,,,,84,73,34,19,2.1,1.4
2024-12-25T0200,3860A,118.3920,35.0300,临沂市,皇山花园小区,细颗粒物(PM2.5),107,117,127,80,80,7,,,,80,80,21,19,1.0,1.2
2024-12-25T0200,1870A,109.4856,24.3895,柳州市,柳东小学,细颗粒物(PM2.5),102,93,99,76,74,61,,,,23,22,15,14,0.6,0.6
2024-12-25T0200,1871A,109.4157,24.3277,柳州市,环保监测站,细颗粒物(PM2.5),115,112,100,87,66,47,,,,37,30,19,16,1.0,0.8
2024-12-25T0200,1872A,109.389,24.341,柳州市,河西水厂,细颗粒物(PM2.5),102,117,116,76,69,58,,,,22,32,34,22,1.0,0.9
2024-12-25T0200,1873A,109.4311,24.2921,柳州市,市四中,细颗粒物(PM2.5),95,84,84,71,69,62,,,,28,27,16,14,0.9,0.8
2024-12-25T0200,1874A,109.4006,24.3631,柳州市,市九中,细颗粒物(PM2.5),108,90,92,81,71,47,,,,34,29,15,12,1.2,1.1
2024-12-25T0200,1875A,109.4958,24.3134,柳州市,古亭山,细颗粒物(PM2.5),79,79,83,58,63,72,,,,20,30,15,14,1.1,1
2024-12-25T0200,3402A,109.5422,24.3996,柳州市,市二中,细颗粒物(PM2.5),109,96,87,82,71,36,,,,40,32,12,13,0.9,0.8
2024-12-25T0200,2307A,116.5079,31.737,六安市,监测大楼,细颗粒物(PM2.5),94,70,93,70,75,67,,,,27,42,6,6,0.6,0.8
2024-12-25T0200,2308A,116.4738,31.7643,六安市,皖西学院,细颗粒物(PM2.5),103,93,107,77,76,48,,,,33,45,4,4,0.8,0.9
2024-12-25T0200,2309A,116.4996,31.7905,六安市,朝阳厂,细颗粒物(PM2.5),112,101,100,84,79,38,,,,38,50,2,3,0.9,1
2024-12-25T0200,2310A,116.5567,31.7886,六安市,开发区,细颗粒物(PM2.5),114,109,120,86,78,27,,,,61,50,4,5,0.7,0.8
2024-12-25T0200,2576A,104.8,26.5892,六盘水市,窑上,,,,,,,,,,,,,,,,
2024-12-25T0200,2577A,104.83,26.5917,六盘水市,黄土坡,,20,16,21,14,17,29,,,,12,17,6,10,1.0,1.1
2024-12-25T0200,2578A,104.89,26.5939,六盘水市,水钢,,28,,31,19,26,32,,,,10,16,6,5,0.9,1
2024-12-25T0200,2579A,104.8475,26.5894,六盘水市,民中,,20,,19,14,14,24,,,,15,18,7,9,1.0,1
2024-12-25T0200,2580A,104.9544,26.5506,六盘水市,双水,,12,12,18,3,11,29,,,,8,12,6,8,0.8,0.8
2024-12-25T0200,2335A,117.0189,25.1181,龙岩市,龙岩师专,,,,,,,,,,,,,,,,
2024-12-25T0200,2336A,117.0217,25.1033,龙岩市,龙岩市监测站,,43,35,36,30,24,16,,,,36,28,4,8,0.6,0.7
2024-12-25T0200,2337A,117.0258,25.0661,龙岩市,闽西职业技术学院,颗粒物(PM10),53,56,44,28,23,2,,,,49,31,45,13,0.5,0.6
2024-12-25T0200,2338A,117.0196,25.0306,龙岩市,龙岩学院,,35,31,34,24,21,20,,,,28,21,12,13,0.4,0.5
2024-12-25T0200,2665A,105.0822,33.3261,陇南市,汉王镇固水子,,,,,,,,,,,,,,,,
2024-12-25T0200,2885A,104.9339,33.3826,陇南市,滨江中学,颗粒物(PM10),58,66,64,36,37,23,,,,39,31,67,48,1.4,1
2024-12-25T0200,3247A,104.955,33.371,陇南市,市总工会,颗粒物(PM10),51,51,53,29,32,42,,,,24,20,6,12,0.3,0.3
2024-12-25T0200,2487A,111.9589,27.8901,娄底市,电视发射台,,,53,60,,60,44,,,,18,21,5,7,0.5,0.6
2024-12-25T0200,2488A,111.9975,27.725,娄底市,市监测站,细颗粒物(PM2.5),114,116,97,86,73,15,,,,46,24,11,12,0.9,0.6
2024-12-25T0200,2489A,112.0194,27.7314,娄底市,市委党校,细颗粒物(PM2.5),103,102,89,77,67,29,,,,40,31,9,9,0.8,0.7
2024-12-25T0200,2490A,111.9561,27.7569,娄底市,涟钢,细颗粒物(PM2.5),102,104,106,76,76,22,,,,27,30,2,3,0.8,0.6
2024-12-25T0200,2491A,111.9892,27.7044,娄底市,市政府,细颗粒物(PM2.5),119,108,97,90,74,21,,,,27,32,4,8,0.9,0.9
2024-12-25T0200,1893A,105.4324,28.9634,泸州市,九狮山,,,,,,,,,,,,,,,,
2024-12-25T0200,1894A,105.4427,28.9063,泸州市,小市上码头,细颗粒物(PM2.5),134,126,105,102,83,32,,,,22,26,3,2,0.6,0.6
2024-12-25T0200,1895A,105.4241,28.8573,泸州市,兰田宪桥,细颗粒物(PM2.5),132,123,105,100,84,30,,,,21,23,2,2,0.7,0.7
2024-12-25T0200,1896A,105.4379,28.8833,泸州市,市环监站,细颗粒物(PM2.5),124,130,108,94,77,29,,,,18,25,4,4,0.7,0.7
2024-12-25T0200,3490A,105.3617,28.7703,泸州市,纳溪区环保局,细颗粒物(PM2.5),114,94,88,86,78,23,,,,18,25,3,4,0.6,0.6
2024-12-25T0200,2183A,111.1406,37.5211,吕梁市,环保局,细颗粒物(PM2.5),93,129,139,69,58,2,,,,44,46,3,7,0.7,0.7
2024-12-25T0200,2185A,111.1297,37.5136,吕梁市,自来水公司,颗粒物(PM10),112,174,142,76,62,4,,,,45,44,11,14,0.9,0.9
2024-12-25T0200,2867A,111.1283,37.51,吕梁市,马茂庄小学,"颗粒物(PM10),细颗粒物(PM2.5)",90,129,143,67,56,2,,,,48,50,2,9,0.7,0.8
2024-12-25T0200,1812A,112.3931,34.6516,洛阳市,市委党校,细颗粒物(PM2.5),103,104,125,77,82,9,,,,51,50,7,11,0.9,1.1
2024-12-25T0200,1814A,112.4657,34.6871,洛阳市,豫西宾馆,细颗粒物(PM2.5),140,157,156,107,100,7,,,,60,55,13,16,1.4,1.3
2024-12-25T0200,1815A,112.494,34.6886,洛阳市,河南林校,细颗粒物(PM2.5),162,127,132,123,126,1,,,,49,50,3,7,1.3,1.1
2024-12-25T0200,1816A,112.3844,34.623,洛阳市,开发区管委会,细颗粒物(PM2.5),139,123,144,106,118,6,,,,47,43,7,9,0.9,1
2024-12-25T0200,1817A,112.4267,34.6258,洛阳市,市委新办公区,细颗粒物(PM2.5),148,148,156,113,112,9,,,,48,44,5,8,0.9,0.9
2024-12-25T0200,3340A,112.6005,34.6326,洛阳市,伊滨,细颗粒物(PM2.5),112,142,163,84,90,18,,,,38,41,6,9,1.0,1
2024-12-25T0200,3341A,112.4951,34.6332,洛阳市,中移产业园,细颗粒物(PM2.5),119,107,116,90,84,16,,,,44,44,7,10,0.9,0.9
2024-12-25T0200,3593A,112.5736,34.8993,洛阳市,吉利监测站,细颗粒物(PM2.5),149,136,136,114,118,2,,,,54,56,4,9,1.1,1.1
2024-12-25T0200,3635A,112.3677,34.662,洛阳市,河科大西苑校区,细颗粒物(PM2.5),125,139,142,95,97,6,,,,52,51,10,15,1.2,1.2
2024-12-25T0200,3636A,112.4388,34.6781,洛阳市,英才小学,细颗粒物(PM2.5),144,158,150,110,101,0,,,,60,55,11,16,1.2,1.1
2024-12-25T0200,2399A,114.051,33.5699,漯河市,三五一五工厂,细颗粒物(PM2.5),153,139,131,117,107,36,,,,47,44,9,10,0.5,0.6
2024-12-25T0200,2400A,114.0055,33.5698,漯河市,漯河大学,细颗粒物(PM2.5),149,123,121,114,99,39,,,,48,42,9,9,0.6,0.6
2024-12-25T0200,2401A,114.0138,33.5828,漯河市,市水利局,细颗粒物(PM2.5),144,144,125,110,95,38,,,,43,35,12,10,0.7,0.9
2024-12-25T0200,2402A,114.0261,33.5698,漯河市,市广电局,细颗粒物(PM2.5),152,139,124,116,102,37,,,,46,44,10,9,0.8,0.9
2024-12-25T0200,3478A,113.9749,33.5664,漯河市,市图书馆,细颗粒物(PM2.5),152,151,135,116,101,37,,,,56,44,11,9,0.6,0.6
2024-12-25T0200,3479A,114.0967,33.5906,漯河市,召陵区卫健委,细颗粒物(PM2.5),149,142,144,114,108,40,,,,38,44,10,10,0.7,0.7
2024-12-25T0200,1798A,118.5092,31.6837,马鞍山市,湖东路四小,细颗粒物(PM2.5),85,90,84,63,52,25,,,,54,58,5,5,1.1,1.1
2024-12-25T0200,1799A,118.5024,31.6449,马鞍山市,开发区,细颗粒物(PM2.5),78,97,88,57,57,7,,,,65,56,7,8,0.9,0.8
2024-12-25T0200,1800A,118.5228,31.7231,马鞍山市,慈湖,细颗粒物(PM2.5),118,112,85,89,65,4,,,,68,52,6,7,1.3,1.2
2024-12-25T0200,1802A,118.6245,31.7241,马鞍山市,濮塘,细颗粒物(PM2.5),100,85,68,75,58,32,,,,31,31,7,8,0.5,0.4
2024-12-25T0200,3633A,118.4918,31.6809,马鞍山市,雨山,细颗粒物(PM2.5),93,99,88,69,56,9,,,,66,56,6,7,1.1,1
2024-12-25T0200,1686A,111.0286,21.4688,茂名市,电白南海,颗粒物(PM10),67,83,77,44,43,77,,,,29,25,20,11,0.9,0.8
2024-12-25T0200,1687A,110.9294,21.6533,茂名市,茂石化七小,细颗粒物(PM2.5),67,73,71,48,47,82,,,,20,19,17,18,0.7,0.7
2024-12-25T0200,1688A,110.9107,21.6687,茂名市,健康路,颗粒物(PM10),56,61,69,39,46,93,,,,20,20,21,25,0.7,0.8
2024-12-25T0200,1689A,110.8592,21.6828,茂名市,高岭,细颗粒物(PM2.5),85,114,84,63,54,37,,,,51,30,23,29,0.9,0.8
2024-12-25T0200,3450A,111.01,21.5165,茂名市,电白水东,细颗粒物(PM2.5),70,80,70,51,46,73,,,,22,19,15,15,0.7,0.6
2024-12-25T0200,2539A,104.0308,30.0478,眉山市,黑龙滩水库,颗粒物(PM10),53,56,65,35,37,22,,,,12,11,1,1,0.7,0.6
2024-12-25T0200,2540A,103.8416,30.0874,眉山市,气象局,细颗粒物(PM2.5),79,75,56,58,51,4,,,,36,27,4,3,1.0,0.8
2024-12-25T0200,3137A,103.8578,30.0744,眉山市,市委党校,细颗粒物(PM2.5),55,46,49,39,45,3,,,,45,32,4,4,0.8,0.6
2024-12-25T0200,3148A,103.8291,30.0564,眉山市,区人社局,细颗粒物(PM2.5),67,,47,48,44,4,,,,43,33,5,4,0.8,0.7
2024-12-25T0200,1690A,116.1231,24.3284,梅州市,梅江月梅,颗粒物(PM10),59,67,53,38,36,4,,,,57,32,9,10,0.6,0.6
2024-12-25T0200,1691A,116.0797,24.2719,梅州市,梅县新城,细颗粒物(PM2.5),53,50,58,37,39,71,,,,16,36,7,6,0.7,0.7
2024-12-25T0200,1692A,116.1248,24.2654,梅州市,环境监控中心,颗粒物(PM10),59,68,61,39,43,4,,,,60,42,6,7,0.6,0.7
2024-12-25T0200,3315A,116.1233,24.2991,梅州市,梅龙,"颗粒物(PM10),细颗粒物(PM2.5)",59,68,60,42,38,6,,,,67,38,7,7,0.8,0.9
2024-12-25T0200,1878A,104.7778,31.4741,绵阳市,富乐山,细颗粒物(PM2.5),68,61,57,49,44,20,,,,21,25,2,2,0.8,0.7
2024-12-25T0200,1879A,104.7563,31.4535,绵阳市,市人大,细颗粒物(PM2.5),75,79,68,55,49,5,,,,40,40,2,3,0.8,0.8
2024-12-25T0200,1880A,104.6697,31.4668,绵阳市,高新区自来水公司,细颗粒物(PM2.5),73,78,66,53,48,2,,,,37,36,10,4,1.1,0.9
2024-12-25T0200,1881A,104.7287,31.5075,绵阳市,三水厂,,,,60,,50,,,33,,,40,,5,,0.8
2024-12-25T0200,3491A,104.69,31.5322,绵阳市,西科大附属小学,,,,55,,44,,,33,,,34,,5,,0.7
2024-12-25T0200,3492A,104.5648,31.5343,绵阳市,安州区旅游局,细颗粒物(PM2.5),85,79,65,63,53,5,,,,35,34,6,7,0.8,0.9
2024-12-25T0200,1784A,129.61,44.561,牡丹江市,环保大楼,"颗粒物(PM10),细颗粒物(PM2.5)",53,56,55,37,39,18,,,,37,35,7,10,0.7,0.7
2024-12-25T0200,1785A,129.6115,44.5782,牡丹江市,文化广场,细颗粒物(PM2.5),73,84,72,53,44,11,,,,50,40,10,11,1.5,1.1
2024-12-25T0200,1786A,129.5904,44.5963,牡丹江市,第一医院,细颗粒物(PM2.5),112,,58,84,56,14,,,,46,33,8,8,1.2,0.9
2024-12-25T0200,1787A,129.6364,44.6075,牡丹江市,机车工厂,细颗粒物(PM2.5),124,117,66,94,45,11,,,,52,38,15,12,1.5,0.9
2024-12-25T0200,1788A,129.6386,44.5462,牡丹江市,第一中学,细颗粒物(PM2.5),53,52,42,37,31,3,,,,51,35,7,7,0.9,0.6
2024-12-25T0200,2531A,105.0703,29.61,内江市,市监测站,细颗粒物(PM2.5),113,93,67,85,75,7,,,,38,28,6,6,0.7,0.6
2024-12-25T0200,2532A,105.0717,29.5947,内江市,东兴区政府,细颗粒物(PM2.5),102,89,68,76,66,12,,,,44,28,4,4,0.8,0.7
2024-12-25T0200,2533A,105.0653,29.5817,内江市,内江二中,细颗粒物(PM2.5),119,100,79,90,74,12,,,,40,24,8,8,0.8,0.8
2024-12-25T0200,2534A,105.0406,29.5822,内江市,内江日报社,细颗粒物(PM2.5),120,,80,91,74,7,,,,39,32,7,8,0.9,0.8
2024-12-25T0200,2628A,92.0657,31.4846,那曲市,那曲监测站,颗粒物(PM10),59,67,56,36,27,29,,,,30,28,11,15,1.7,1.5
2024-12-25T0200,3128A,92.0506,31.4797,那曲市,那曲会议中心,,49,49,38,32,31,35,,,,29,16,7,5,1.5,1.1
2024-12-25T0200,1290A,115.8931,28.6843,南昌市,省外办,细颗粒物(PM2.5),119,104,105,90,84,62,,,,32,38,9,9,0.9,0.8
2024-12-25T0200,1291A,115.8886,28.7003,南昌市,省林业公司,细颗粒物(PM2.5),110,105,108,83,79,50,,,,46,44,11,11,0.5,0.6
2024-12-25T0200,1292A,115.8126,28.7442,南昌市,林科所,细颗粒物(PM2.5),85,85,90,63,68,71,,,,33,37,10,8,0.7,0.7
2024-12-25T0200,1294A,115.8518,28.687,南昌市,建工学校,细颗粒物(PM2.5),92,89,96,68,60,61,,,,40,37,11,12,1.0,0.9
2024-12-25T0200,1295A,115.8921,28.6424,南昌市,象湖,细颗粒物(PM2.5),107,95,89,80,76,71,,,,35,43,12,11,0.6,0.5
2024-12-25T0200,1296A,115.7423,28.7996,南昌市,武术学校,细颗粒物(PM2.5),58,48,67,41,48,27,,,,18,21,2,2,0.7,0.8
2024-12-25T0200,1298A,115.9314,28.6842,南昌市,省站,细颗粒物(PM2.5),114,110,107,86,79,55,,,,47,45,10,11,0.7,0.7
2024-12-25T0200,3046A,115.9084,28.6062,南昌市,机电学校,细颗粒物(PM2.5),100,107,115,75,77,60,,,,37,39,13,13,0.5,0.4
2024-12-25T0200,3690A,115.9721,28.7031,南昌市,外国语学校,细颗粒物(PM2.5),94,112,107,70,70,56,,,,38,38,10,10,0.8,0.7
2024-12-25T0200,1905A,106.056,30.8064,南充市,西山风景区,细颗粒物(PM2.5),102,76,58,76,54,8,,,,31,16,1,2,0.7,0.6
2024-12-25T0200,1906A,106.0789,30.8023,南充市,南充市委,细颗粒物(PM2.5),103,91,72,77,64,2,,,,33,26,3,3,0.6,0.6
2024-12-25T0200,1907A,106.1031,30.8217,南充市,南充炼油厂,,,,75,,66,,,30,,,26,,3,,0.3
2024-12-25T0200,1908A,106.1064,30.7856,南充市,高坪区监测站,细颗粒物(PM2.5),118,104,77,89,64,14,,,,32,29,2,2,0.5,0.5
2024-12-25T0200,1909A,106.0642,30.7636,南充市,嘉陵区环保局,细颗粒物(PM2.5),110,104,78,83,63,2,,,,44,27,3,4,0.7,0.6
2024-12-25T0200,1910A,106.1087,30.8388,南充市,市环境监测站,细颗粒物(PM2.5),103,103,82,77,61,10,,,,24,26,4,4,0.6,0.6
2024-12-25T0200,1151A,118.8086,32.1065,南京市,迈皋桥,细颗粒物(PM2.5),73,78,68,53,44,6,,,,98,73,10,9,1.3,1.1
2024-12-25T0200,1152A,118.7538,32.0551,南京市,草场门,细颗粒物(PM2.5),79,80,69,58,46,8,,,,92,61,6,6,0.5,0.4
2024-12-25T0200,1153A,118.7794,32.0745,南京市,山西路,细颗粒物(PM2.5),79,97,75,58,48,6,,,,98,56,4,4,0.8,0.7
2024-12-25T0200,1154A,118.7752,32.0023,南京市,中华门,细颗粒物(PM2.5),79,92,69,58,46,5,,,,96,49,4,4,1.0,0.7
2024-12-25T0200,1155A,118.8109,32.0309,南京市,瑞金路,细颗粒物(PM2.5),77,83,69,56,46,5,,,,73,52,6,5,1.1,1
2024-12-25T0200,1156A,118.7997,32.0754,南京市,玄武湖,细颗粒物(PM2.5),84,96,74,62,45,2,,,,81,52,8,9,0.8,0.5
2024-12-25T0200,1157A,118.6414,32.0931,南京市,浦口,,,,72,,41,,,35,,,32,,9,,0.6
2024-12-25T0200,1158A,118.7356,31.9996,南京市,奥体中心,细颗粒物(PM2.5),79,87,75,58,45,8,,,,97,66,8,10,1.0,0.7
2024-12-25T0200,1159A,118.9125,32.1028,南京市,仙林大学城,细颗粒物(PM2.5),79,80,67,58,46,0,,,,85,49,7,7,0.7,0.7
2024-12-25T0200,3422A,118.8436,31.9198,南京市,江宁彩虹桥,细颗粒物(PM2.5),83,102,81,61,47,5,,,,85,52,8,9,0.8,0.5
2024-12-25T0200,3423A,119.0138,31.6494,南京市,溧水永阳,细颗粒物(PM2.5),104,85,77,78,61,2,,,,68,48,4,4,1.0,0.9
2024-12-25T0200,3424A,118.879,31.3302,南京市,高淳老职中,细颗粒物(PM2.5),93,81,77,69,63,35,,,,40,40,4,7,0.9,0.7
2024-12-25T0200,3427A,118.8554,32.3578,南京市,六合雄州,细颗粒物(PM2.5),85,92,72,63,50,19,,,,31,27,8,8,0.8,0.6
2024-12-25T0200,1401A,108.3103,22.7881,南宁市,二十一中,细颗粒物(PM2.5),104,83,82,78,70,106,,,,30,32,12,10,1.1,1
2024-12-25T0200,1402A,108.3141,22.8528,南宁市,北湖,细颗粒物(PM2.5),107,111,93,80,72,74,,,,44,49,22,18,1.2,1.1
2024-12-25T0200,1403A,108.3206,22.8225,南宁市,市监测站,细颗粒物(PM2.5),102,98,89,76,70,98,,,,28,37,20,16,1.2,1.1
2024-12-25T0200,1404A,108.3829,22.8037,南宁市,大自然花园,细颗粒物(PM2.5),113,102,80,85,68,103,,,,27,29,15,11,0.7,0.7
2024-12-25T0200,1405A,108.4394,22.7904,南宁市,仙葫,细颗粒物(PM2.5),113,95,74,85,63,92,,,,24,23,16,10,0.8,0.8
2024-12-25T0200,1406A,108.2397,22.8467,南宁市,区农职院,细颗粒物(PM2.5),77,100,89,56,64,46,,,,42,34,26,13,0.9,0.9
2024-12-25T0200,1407A,108.3275,22.735,南宁市,英华嘉园,细颗粒物(PM2.5),95,90,82,71,65,95,,,,25,27,13,11,1.0,1
2024-12-25T0200,1408A,108.2257,22.7757,南宁市,沙井镇街道办,细颗粒物(PM2.5),99,133,103,74,72,4,,,,104,58,12,12,0.9,0.9
2024-12-25T0200,3401A,108.4834,22.7618,南宁市,红星社区,细颗粒物(PM2.5),108,93,79,81,65,96,,,,28,23,19,13,1.1,1
2024-12-25T0200,2331A,118.0966,26.6761,南平市,茫荡山,,,,,,,,,,,,,,,,
2024-12-25T0200,2332A,118.1681,26.6369,南平市,南平市监测站,,27,27,32,18,24,19,,,,37,28,6,5,0.6,0.6
2024-12-25T0200,2333A,118.1825,26.6489,南平市,南平铝业有限公司,,23,23,33,15,21,7,,,,45,27,12,6,0.7,0.6
2024-12-25T0200,2334A,118.1756,26.6272,南平市,南平七中,,28,26,31,19,23,22,,,,32,25,5,3,0.3,0.3
2024-12-25T0200,1168A,120.9098,31.9663,南通市,狼山街道,细颗粒物(PM2.5),80,74,63,59,50,27,,,,47,29,6,7,0.9,1.6
2024-12-25T0200,1169A,120.86,32.0005,南通市,虹桥,细颗粒物(PM2.5),72,52,60,52,47,80,,,,22,30,6,6,0.6,0.7
2024-12-25T0200,1170A,120.87,32.02,南通市,城中,细颗粒物(PM2.5),73,68,69,53,44,70,,,,28,30,8,8,0.7,0.7
2024-12-25T0200,1171A,120.94,31.93,南通市,星湖花园,细颗粒物(PM2.5),73,61,59,53,44,40,,,,42,35,5,6,0.6,0.7
2024-12-25T0200,1172A,120.81,32.0417,南通市,紫琅学院,细颗粒物(PM2.5),60,59,62,43,43,56,,,,40,37,4,7,0.8,0.8
2024-12-25T0200,3291A,121.067,32.062,南通市,通州监测站,细颗粒物(PM2.5),70,70,60,51,44,80,,,,24,25,2,3,0.7,0.8
2024-12-25T0200,3432A,120.9348,31.9883,南通市,环境教育馆,细颗粒物(PM2.5),84,73,61,62,46,16,,,,55,30,4,5,0.8,0.8
2024-12-25T0200,2404A,112.5224,33.0122,南阳市,瓦房庄,细颗粒物(PM2.5),99,101,115,74,82,57,,,,22,33,10,8,0.8,0.8
2024-12-25T0200,2405A,112.5003,32.9735,南阳市,汉画馆,细颗粒物(PM2.5),109,109,121,82,80,22,,,,54,42,10,7,0.5,0.5
2024-12-25T0200,2406A,112.5573,33.027,南阳市,气象站,细颗粒物(PM2.5),85,112,119,63,72,62,,,,21,28,10,8,0.7,0.7
2024-12-25T0200,2407A,112.5481,32.9689,南阳市,理工学院,细颗粒物(PM2.5),103,102,102,77,76,36,,,,43,37,10,8,0.5,0.6
2024-12-25T0200,4008A,112.5234,32.9922,南阳市,卧龙区政府,细颗粒物(PM2.5),99,99,111,74,75,46,,,,28,36,8,6,0.7,0.8
2024-12-25T0200,1234A,121.8358,29.911,宁波市,区环保大楼,,39,37,44,27,26,5,,,,57,45,6,8,0.7,0.6
2024-12-25T0200,1235A,121.56,29.82,宁波市,万里学院,细颗粒物(PM2.5),74,96,63,54,37,0,,,,58,49,6,6,0.9,0.7
2024-12-25T0200,1236A,121.713,29.9572,宁波市,龙赛医院,细颗粒物(PM2.5),70,87,45,51,21,1,,,,60,32,9,8,0.7,0.5
2024-12-25T0200,1239A,121.633,29.7733,宁波市,钱湖水厂,颗粒物(PM10),56,61,54,36,31,12,,,,28,36,4,6,0.7,0.6
2024-12-25T0200,1240A,121.5856,29.8635,宁波市,太古小学,颗粒物(PM10),79,107,59,46,31,2,,,,63,51,8,8,1.0,0.8
2024-12-25T0200,1241A,121.524,29.8674,宁波市,市环境监测中心,细颗粒物(PM2.5),65,78,51,47,31,0,,,,66,44,9,9,0.9,0.7
2024-12-25T0200,2871A,121.6147,29.9017,宁波市,万里国际学校,颗粒物(PM10),66,82,55,40,25,1,,,,62,53,7,8,0.8,0.7
2024-12-25T0200,3710A,121.5594,29.8975,宁波市,白沙活动中心,颗粒物(PM10),67,84,56,41,32,4,,,,63,47,8,9,0.9,0.6
2024-12-25T0200,2339A,119.5001,26.6946,宁德市,金涵水库,,,,,,,,,,,,,,,,
2024-12-25T0200,2341A,119.5388,26.6612,宁德市,宁德市监测站,,27,27,27,16,17,65,,,,12,18,2,4,0.2,0.3
2024-12-25T0200,3209A,119.5231,26.6562,宁德市,宁德一中,,22,22,24,12,17,66,,,,8,12,2,3,0.2,0.3
2024-12-25T0200,2618A,98.8601,25.8567,怒江傈僳族自治州,州监测站,,34,34,30,19,14,33,,,,20,13,4,3,0.4,0.3
2024-12-25T0200,2619A,98.8546,25.8417,怒江傈僳族自治州,泸水一中,,27,27,30,18,20,20,,,,17,21,7,7,0.5,0.6
2024-12-25T0200,1888A,101.6891,26.571,攀枝花市,弄弄坪,细颗粒物(PM2.5),90,98,68,67,42,4,,,,64,43,46,27,2.4,1.7
2024-12-25T0200,1889A,101.5769,26.5928,攀枝花市,河门口,颗粒物(PM10),53,55,58,35,34,27,,,,37,31,14,16,1.4,1.5
2024-12-25T0200,1890A,101.7169,26.585,攀枝花市,炳草岗,细颗粒物(PM2.5),90,100,73,67,43,5,,,,66,51,14,22,0.9,1.2
2024-12-25T0200,1891A,101.7369,26.5008,攀枝花市,仁和,,49,48,56,34,36,31,,,,23,31,8,17,0.8,1.3
2024-12-25T0200,2835A,101.7227,26.567,攀枝花市,四十中小,细颗粒物(PM2.5),69,83,72,50,41,7,,,,71,57,23,22,2.7,1.8
2024-12-25T0200,1604A,122.0303,41.1489,盘锦市,开发区,细颗粒物(PM2.5),89,70,69,66,52,11,,,,56,44,10,13,1.6,1.1
2024-12-25T0200,1605A,122.0485,41.0883,盘锦市,兴隆台,细颗粒物(PM2.5),94,96,62,70,42,12,,,,57,48,12,15,1.7,1.1
2024-12-25T0200,1606A,121.8297,41.1028,盘锦市,新生街道,细颗粒物(PM2.5),88,69,50,65,35,8,,,,66,40,10,12,1.6,0.9
2024-12-25T0200,1832A,113.3257,33.742,平顶山市,新华旅馆,细颗粒物(PM2.5),163,182,122,124,95,2,,,,80,52,9,11,0.5,0.8
2024-12-25T0200,1833A,113.2919,33.737,平顶山市,规划设计院,细颗粒物(PM2.5),152,165,156,116,102,10,,,,63,38,6,9,0.7,0.7
2024-12-25T0200,1834A,113.182,33.774,平顶山市,平顶山工学院,细颗粒物(PM2.5),149,178,163,114,96,23,,,,54,32,10,11,0.9,0.9
2024-12-25T0200,3204A,113.3025,33.73,平顶山市,规划局,细颗粒物(PM2.5),148,136,143,113,106,27,,,,47,43,8,10,0.5,0.5
2024-12-25T0200,3594A,112.8867,33.9116,平顶山市,石龙区,细颗粒物(PM2.5),133,163,135,101,91,1,,,,68,39,10,11,0.9,0.9
2024-12-25T0200,2656A,106.6692,35.5461,平凉市,聚贤嘉苑,颗粒物(PM10),69,87,85,40,36,19,,,,61,48,13,13,0.7,0.7
2024-12-25T0200,2657A,106.7021,35.5307,平凉市,博物馆,颗粒物(PM10),73,95,95,48,36,14,,,,72,52,14,12,0.9,0.9
2024-12-25T0200,2347A,114.0997,27.5002,萍乡市,武功山,细颗粒物(PM2.5),89,86,82,66,60,32,,,,21,19,10,13,1.3,1.2
2024-12-25T0200,2348A,113.8385,27.6434,萍乡市,中医院,细颗粒物(PM2.5),133,147,124,101,79,11,,,,54,41,20,19,1.6,1.3
2024-12-25T0200,2349A,113.8493,27.6253,萍乡市,市政府车库,细颗粒物(PM2.5),159,135,118,121,102,15,,,,45,42,26,18,1.1,1.3
2024-12-25T0200,2350A,113.8676,27.6435,萍乡市,市环保局,细颗粒物(PM2.5),155,156,127,118,94,13,,,,52,42,26,23,1.4,1.3
2024-12-25T0200,2351A,113.866,27.6198,萍乡市,安源区政府,细颗粒物(PM2.5),150,146,126,115,90,14,,,,44,38,24,19,1.1,1.1
2024-12-25T0200,2319A,119.0141,25.4325,莆田市,荔城区仓后路,,26,20,22,6,6,81,,,,3,6,1,1,0.3,0.4
2024-12-25T0200,2320A,119.0015,25.4553,莆田市,莆田市监测站,,27,14,18,6,4,84,,,,5,6,3,3,0.3,0.3
2024-12-25T0200,2321A,119.1119,25.4561,莆田市,涵江区六中,,26,22,23,7,5,81,,,,6,7,3,2,0.4,0.4
2024-12-25T0200,2322A,119.1013,25.3215,莆田市,秀屿区政府,,27,13,25,3,8,85,,,,6,7,1,2,0.2,0.4
2024-12-25T0200,2323A,118.981,25.4792,莆田市,东圳水库,,,,,,,,,,,,,,,,
2024-12-25T0200,2392A,115.0312,35.7636,濮阳市,环保局,细颗粒物(PM2.5),127,121,100,96,80,38,,,,34,39,5,6,0.6,0.6
2024-12-25T0200,2394A,115.0574,35.7609,濮阳市,油田运输公司,细颗粒物(PM2.5),130,132,121,99,84,31,,,,40,47,4,5,0.8,0.8
2024-12-25T0200,2395A,115.0866,35.7754,濮阳市,油田物探公司,细颗粒物(PM2.5),139,127,116,106,83,32,,,,36,42,5,7,0.9,0.9
2024-12-25T0200,3021A,115,35.7668,濮阳市,濮水河管理处,细颗粒物(PM2.5),137,132,124,104,79,30,,,,37,41,4,5,0.6,0.6
2024-12-25T0200,2601A,100.98,22.7633,普洱市,市环保局,,33,33,40,14,25,24,,,,8,10,5,5,0.5,0.5
2024-12-25T0200,2602A,100.9817,22.8322,普洱市,普洱第二中学,,33,33,39,17,20,24,,,,12,16,8,8,0.6,0.6
2024-12-25T0200,2262A,131.0518,45.8751,七台河市,新一中,,46,40,30,32,22,48,,,,26,19,10,10,1.7,1.6
2024-12-25T0200,3345A,131.0577,45.7879,七台河市,中波台,细颗粒物(PM2.5),68,59,48,49,34,31,,,,39,42,12,19,0.9,0.9
2024-12-25T0200,3637A,131.0176,45.7761,七台河市,人民广场,颗粒物(PM10),71,92,65,46,46,18,,,,50,50,7,10,1.2,1
2024-12-25T0200,3684A,130.8781,45.8222,七台河市,新建矿广场,细颗粒物(PM2.5),70,78,33,51,31,6,,,,78,38,19,12,1.1,0.6
2024-12-25T0200,1779A,123.9305,47.3636,齐齐哈尔市,安居小区,细颗粒物(PM2.5),74,74,41,54,21,39,,,,24,31,9,11,0.7,0.7
2024-12-25T0200,1780A,123.9488,47.3386,齐齐哈尔市,中心广场,细颗粒物(PM2.5),69,63,37,50,24,36,,,,26,32,2,6,0.7,0.8
2024-12-25T0200,1781A,123.9483,47.3227,齐齐哈尔市,农牧车辆厂,颗粒物(PM10),57,63,46,39,26,36,,,,26,40,5,10,0.5,0.8
2024-12-25T0200,1783A,123.945,47.2988,齐齐哈尔市,市环境监测站,细颗粒物(PM2.5),75,78,47,55,29,37,,,,28,31,3,6,0.7,0.8
2024-12-25T0200,3662A,123.6333,47.2075,齐齐哈尔市,富区青少年活动中心,颗粒物(PM10),54,58,53,33,27,44,,,,22,29,6,16,0.6,0.9
2024-12-25T0200,2591A,107.9783,26.5747,黔东南苗族侗族自治州,市环境监测站,细颗粒物(PM2.5),82,75,69,60,55,59,,,,17,24,5,6,0.5,0.5
2024-12-25T0200,2881A,107.8908,26.5311,黔东南苗族侗族自治州,凯里学院,细颗粒物(PM2.5),69,70,66,50,46,58,,,,21,20,5,6,0.6,0.6
2024-12-25T0200,2593A,107.5228,26.2403,黔南布依族苗族自治州,小围寨,细颗粒物(PM2.5),77,68,76,56,59,51,,,,16,19,7,7,0.8,0.8
2024-12-25T0200,3538A,107.5175,26.2978,黔南布依族苗族自治州,沙坝,细颗粒物(PM2.5),92,92,88,68,63,42,,,,23,23,6,7,0.6,0.6
2024-12-25T0200,2589A,104.9022,25.0925,黔西南布依族苗族自治州,场坝街,细颗粒物(PM2.5),117,101,78,88,67,51,,,,8,12,3,2,0.6,0.6
2024-12-25T0200,2590A,104.8811,25.0992,黔西南布依族苗族自治州,坪东大道,细颗粒物(PM2.5),124,94,74,94,68,48,,,,8,11,3,3,0.7,0.7
2024-12-25T0200,2502A,108.6236,21.9667,钦州市,市环保站,细颗粒物(PM2.5),104,117,118,78,70,100,,,,24,28,17,15,1.1,1.2
2024-12-25T0200,2503A,108.6549,21.9481,钦州市,沙埠小学,细颗粒物(PM2.5),117,137,105,88,70,72,,,,51,35,15,12,2.2,1.2
2024-12-25T0200,2504A,108.5989,21.7431,钦州市,港区一小,细颗粒物(PM2.5),102,115,114,76,67,90,,,,31,35,12,13,1.1,1.1
2024-12-25T0200,3404A,108.5959,21.9633,钦州市,北职校,细颗粒物(PM2.5),115,97,94,87,76,96,,,,26,28,13,13,0.9,1
2024-12-25T0200,1042A,119.5134,39.8207,秦皇岛市,北戴河环保局,细颗粒物(PM2.5),108,116,68,81,40,6,,,,92,61,7,4,1.6,1.1
2024-12-25T0200,1043A,119.7493,40.0116,秦皇岛市,第一关,细颗粒物(PM2.5),117,135,96,88,62,2,,,,96,72,21,13,1.5,1.2
2024-12-25T0200,1044A,119.5897,39.9499,秦皇岛市,监测站,颗粒物(PM10),93,135,81,66,47,0,,,,104,69,26,14,1.6,1.3
2024-12-25T0200,1046A,119.5251,39.9041,秦皇岛市,建设大厦,细颗粒物(PM2.5),109,126,94,82,52,1,,,,104,64,22,11,1.6,1.3
2024-12-25T0200,3132A,119.610547,39.943889,秦皇岛市,文明里,细颗粒物(PM2.5),104,142,104,78,55,2,,,,103,71,20,12,1.3,1.1
2024-12-25T0200,1307A,120.6659,36.2403,青岛市,仰口,,27,,20,12,17,84,,,,5,7,29,9,0.6,0.6
2024-12-25T0200,1310A,120.4134,36.0658,青岛市,市南区东部子站,,36,36,42,12,19,30,,,,56,31,11,11,0.6,0.6
2024-12-25T0200,1311A,120.3664,36.1032,青岛市,四方区子站,,40,39,56,24,38,13,,,,80,61,12,15,0.9,0.9
2024-12-25T0200,1312A,120.2994,36.054,青岛市,市南区西部子站,,44,39,47,15,27,6,,,,88,46,13,14,0.8,0.9
2024-12-25T0200,1313A,120.4581,36.0858,青岛市,崂山区子站,,20,14,23,14,14,49,,,,28,25,9,11,0.5,0.6
2024-12-25T0200,1314A,120.1983,35.9608,青岛市,黄岛区子站,,42,41,50,29,41,19,,,,70,47,10,11,0.9,0.8
2024-12-25T0200,1315A,120.3999,36.3083,青岛市,城阳区子站,,41,41,76,27,39,12,,,,66,63,8,12,1.1,1.2
2024-12-25T0200,1966A,120.0405,35.8735,青岛市,黄岛区4号,细颗粒物(PM2.5),58,63,59,41,37,41,,,,47,44,10,11,0.9,0.8
2024-12-25T0200,3362A,120.5014,36.4034,青岛市,即墨2号,,48,40,47,33,31,40,,,,40,33,9,11,0.7,0.7
2024-12-25T0200,3642A,120.3503,36.0736,青岛市,市北区南部,,43,23,57,19,28,11,,,,85,44,12,10,0.8,0.8
2024-12-25T0200,3643A,120.3948,36.1805,青岛市,李沧区北部,,39,39,62,22,41,26,,,,61,57,12,14,1.3,1.1
2024-12-25T0200,1702A,113.0426,23.691,清远市,环保大楼,细颗粒物(PM2.5),53,45,52,37,38,82,,,,16,15,12,8,0.9,0.8
2024-12-25T0200,1703A,113.0208,23.7106,清远市,凤城街办,细颗粒物(PM2.5),59,60,62,42,46,62,,,,36,23,12,13,0.7,0.7
2024-12-25T0200,3025A,113.0477,23.6344,清远市,技师学院,颗粒物(PM10),55,60,62,37,38,86,,,,23,23,14,12,1.0,0.8
2024-12-25T0200,3318A,112.9903,23.7403,清远市,清新太和,细颗粒物(PM2.5),59,61,61,42,41,70,,,,35,22,13,12,0.9,0.8
2024-12-25T0200,3455A,113.076,23.7198,清远市,清城东城,颗粒物(PM10),55,59,62,38,40,95,,,,15,16,16,14,0.9,0.9
2024-12-25T0200,2661A,107.6325,35.7357,庆阳市,庆阳五中,颗粒物(PM10),65,80,110,43,42,69,,,,15,16,8,8,0.9,0.7
2024-12-25T0200,2662A,107.6364,35.7067,庆阳市,市环保局,"颗粒物(PM10),细颗粒物(PM2.5)",65,79,108,47,36,56,,,,27,19,12,6,1.2,0.9
2024-12-25T0200,1916A,103.7897,25.5035,曲靖市,环境监测站,颗粒物(PM10),54,58,40,32,23,50,,,,23,15,6,7,0.6,0.5
2024-12-25T0200,1917A,103.8,25.5364,曲靖市,烟厂办公区,颗粒物(PM10),51,51,40,31,24,64,,,,11,13,4,4,0.2,0.2
2024-12-25T0200,3376A,103.7947,25.462,曲靖市,南苑二区,颗粒物(PM10),52,54,39,34,28,50,,,,16,10,3,5,0.6,0.6
2024-12-25T0200,3377A,103.7444,25.5261,曲靖市,曲靖师范学院,,50,40,38,35,29,75,,,,10,14,8,7,0.4,0.4
2024-12-25T0200,1264A,118.8692,28.9398,衢州市,环保大楼,细颗粒物(PM2.5),82,84,94,60,62,5,,,,60,61,5,6,0.6,0.7
2024-12-25T0200,1265A,118.8709,28.9666,衢州市,实验学校,细颗粒物(PM2.5),69,68,81,50,58,6,,,,54,52,8,6,0.5,0.6
