timepoint,stationcode,longitude,latitude,area,positionname,primarypollutant,aqi,pm10,pm10_24h,pm2_5,pm2_5_24h,o3,o3_24h,o3_8h,o3_8h_24h,no2,no2_24h,so2,so2_24h,co,co_24h
2025-12-02T0500,2566A,102.1879,31.914,阿坝藏族羌族自治州,州农科所,,,,,,,,,,,,,,,,
2025-12-02T0500,2568A,102.2502,31.8896,阿坝藏族羌族自治州,马师校,,11,11,27,6,15,24,24,,,8,24,5,6,0.4,0.6
2025-12-02T0500,3994A,102.2165,31.9024,阿坝藏族羌族自治州,马尔康中学西区,,12,6,12,6,10,36,36,,,6,19,6,6,0.5,0.6
2025-12-02T0500,2695A,80.292,41.1694,阿克苏地区,电视台,颗粒物(PM10),84,117,133,50,59,35,35,,,34,44,6,9,1.0,0.9
2025-12-02T0500,2696A,80.2613,41.1551,阿克苏地区,艺术中心,颗粒物(PM10),86,121,124,62,68,34,34,,,37,53,4,8,1.0,1
2025-12-02T0500,2204A,105.6467,38.8363,阿拉善盟,西城区西花园,,,,,,,,,,,,,,,,
2025-12-02T0500,2205A,105.6985,38.8411,阿拉善盟,蒙二幼,,26,26,61,16,18,63,63,,,6,8,9,9,0.8,0.8
2025-12-02T0500,2206A,105.724,38.8516,阿拉善盟,环保局新楼,,24,24,51,8,18,57,57,,,5,6,10,9,0.7,0.7
2025-12-02T0500,2708A,88.1264,47.8517,阿勒泰地区,市站,,15,12,20,6,11,48,48,,,6,23,2,4,0.7,0.5
2025-12-02T0500,2630A,80.1161,32.5,阿里地区,阿里监测站,,19,6,3,3,3,58,58,,,8,10,5,7,0.3,0.4
2025-12-02T0500,3192A,80.0903,32.5028,阿里地区,阿里藏医院,,28,,19,19,13,54,54,,,14,15,10,11,0.7,0.6
2025-12-02T0500,2642A,109.0318,32.6537,安康市,香溪洞,,,,,,,,,,,,,,,,
2025-12-02T0500,2644A,109.0072,32.6975,安康市,汉滨区检察院,颗粒物(PM10),60,69,67,36,37,6,6,,,33,31,5,5,0.3,0.4
2025-12-02T0500,4054A,109.0325,32.6913,安康市,市邮政管理局,,,,54,,32,,,7,,,22,,4,,0.5
2025-12-02T0500,2291A,117.0809,30.5177,安庆市,环科院,颗粒物(PM10),120,189,171,76,102,50,50,,,20,28,7,9,0.8,0.9
2025-12-02T0500,2292A,117.0331,30.5119,安庆市,马山宾馆,颗粒物(PM10),118,186,169,81,103,51,51,,,,37,6,8,0.9,1
2025-12-02T0500,2294A,116.9896,30.6145,安庆市,安庆大学,颗粒物(PM10),108,166,166,62,93,40,40,,,27,26,8,9,0.9,1
2025-12-02T0500,3173A,117.0598,30.5351,安庆市,市人大,颗粒物(PM10),123,195,174,80,104,48,48,,,28,37,8,10,0.7,0.8
2025-12-02T0500,3122A,105.9606,26.2611,安顺市,伍家关,细颗粒物(PM2.5),74,64,86,54,62,71,71,,,7,20,37,38,0.2,0.4
2025-12-02T0500,3123A,105.9408,26.2431,安顺市,凤凰山,细颗粒物(PM2.5),82,71,76,60,62,73,73,,,13,28,28,40,0.7,0.9
2025-12-02T0500,3124A,105.9439,26.2564,安顺市,金钟山,细颗粒物(PM2.5),87,75,72,64,60,84,84,,,9,16,35,29,0.7,0.8
2025-12-02T0500,3125A,105.8983,26.2481,安顺市,娄家坡,细颗粒物(PM2.5),83,75,73,61,62,79,79,,,9,17,45,27,0.7,0.8
2025-12-02T0500,1818A,114.4839,36.0621,安阳市,棉研所,,,,,,,,,,,,,,,,
2025-12-02T0500,1819A,114.3551,36.1017,安阳市,红庙街,颗粒物(PM10),56,62,164,22,37,22,22,,,26,29,4,5,0.5,0.4
2025-12-02T0500,1820A,114.361,36.0681,安阳市,银杏小区,颗粒物(PM10),60,69,161,22,48,22,22,,,22,26,3,4,0.5,0.5
2025-12-02T0500,3141A,114.3922,36.0878,安阳市,信访局,颗粒物(PM10),56,62,150,34,68,25,25,,,23,30,4,4,0.3,0.3
2025-12-02T0500,3669A,114.4705,36.0637,安阳市,左辅环卫站,颗粒物(PM10),55,60,162,19,47,26,26,,,22,26,4,5,0.7,0.7
2025-12-02T0500,3703A,114.2917,36.0949,安阳市,安钢职工学校,颗粒物(PM10),69,88,190,26,56,16,16,,,30,25,9,6,0.9,1
2025-12-02T0500,1748A,123.044,41.1196,鞍山市,深沟寺,,16,16,32,3,16,50,50,,,17,22,13,11,0.6,0.9
2025-12-02T0500,1749A,123.011,41.0931,鞍山市,太阳城,,20,20,34,8,18,54,54,,,14,15,12,13,0.7,0.9
2025-12-02T0500,1750A,123.0485,41.1442,鞍山市,太平,,19,14,36,3,16,59,59,,,12,19,17,14,0.7,1
2025-12-02T0500,1751A,122.9642,41.0971,鞍山市,铁西三道街,,18,16,44,3,20,56,56,,,10,22,14,16,0.9,1.1
2025-12-02T0500,1753A,123.022,41.0821,鞍山市,明达新区,,18,14,29,3,15,57,57,,,12,16,11,12,0.5,0.8
2025-12-02T0500,1754A,123.1289,41.0228,鞍山市,千山,,,,17,,7,,,57,,,12,,6,,0.4
2025-12-02T0500,4201A,122.9446,41.0826,鞍山市,兴盛南路290号,,18,16,48,3,21,57,57,,,14,25,10,11,0.7,0.9
2025-12-02T0500,2195A,107.4212,40.761,巴彦淖尔市,附二中,,22,22,44,11,20,39,39,,,14,10,3,5,0.4,0.4
2025-12-02T0500,2196A,107.37,40.7372,巴彦淖尔市,市环保大楼,,25,25,40,7,15,44,44,,,8,11,7,9,0.5,0.6
2025-12-02T0500,1956A,86.1472,41.7538,巴音郭楞蒙古自治州,孔雀公园,"颗粒物(PM10),细颗粒物(PM2.5)",69,87,100,50,37,54,54,,,26,52,10,11,0.6,0.7
2025-12-02T0500,1957A,86.1972,41.7166,巴音郭楞蒙古自治州,棉纺厂,颗粒物(PM10),74,98,131,31,41,1,1,,,103,55,7,8,1.0,0.9
2025-12-02T0500,1958A,86.2357,41.7173,巴音郭楞蒙古自治州,经济开发区,颗粒物(PM10),57,63,83,27,23,58,58,,,15,30,6,7,0.6,0.6
2025-12-02T0500,2914A,106.7677,31.8794,巴中市,苏山坪,,,,,,,,,,,,,,,,
2025-12-02T0500,3181A,106.7768,31.8526,巴中市,市五中,细颗粒物(PM2.5),103,102,101,77,73,1,1,,,16,28,8,8,1.1,1.1
2025-12-02T0500,3183A,106.7418,31.8654,巴中市,圣泉水务公司,细颗粒物(PM2.5),69,61,77,50,57,20,20,,,13,27,5,5,0.7,0.9
2025-12-02T0500,3616A,106.7616,31.8344,巴中市,市中心医院,,,88,86,75,65,0,0,,,,24,6,5,1.1,1.2
2025-12-02T0500,2235A,122.7911,45.6077,白城市,洮北区环保局,,23,23,47,3,23,52,52,,,10,16,2,3,0.2,0.4
2025-12-02T0500,2236A,122.8738,45.5725,白城市,市环保局,,18,,26,12,15,54,54,,,2,10,3,5,0.3,0.4
2025-12-02T0500,2231A,126.4219,41.9171,白山市,喜丰,,39,39,50,8,25,62,62,,,6,14,7,9,0.3,0.6
2025-12-02T0500,2232A,126.4077,41.9419,白山市,环保局,,,30,38,17,27,60,60,,,,15,8,10,0.3,0.6
2025-12-02T0500,2647A,104.1724,36.5446,白银市,第三小学,颗粒物(PM10),58,65,95,19,32,61,61,,,12,23,7,23,0.2,0.6
2025-12-02T0500,2648A,104.1465,36.5482,白银市,动力公司,颗粒物(PM10),53,56,83,18,31,52,52,,,14,18,3,15,0.7,0.9
2025-12-02T0500,2512A,106.6103,23.9011,百色市,市监测站,细颗粒物(PM2.5),63,56,60,45,43,13,13,,,16,20,6,7,0.8,0.8
2025-12-02T0500,2513A,106.6538,23.8859,百色市,市中心血站,细颗粒物(PM2.5),84,80,73,62,56,1,1,,,44,25,13,9,0.9,0.9
2025-12-02T0500,3406A,106.6085,23.8798,百色市,祈福高中,颗粒物(PM10),74,97,78,43,45,2,2,,,28,29,5,6,0.6,0.6
2025-12-02T0500,2270A,117.396,32.939,蚌埠市,工人疗养院,颗粒物(PM10),59,67,163,22,44,37,37,,,17,31,5,5,0.3,0.4
2025-12-02T0500,2271A,117.3605,32.9427,蚌埠市,百货大楼,颗粒物(PM10),52,53,140,21,41,38,38,,,18,28,4,5,0.3,0.4
2025-12-02T0500,2273A,117.4185,32.8911,蚌埠市,蚌埠学院,颗粒物(PM10),54,58,152,19,46,31,31,,,28,45,5,9,0.3,0.4
2025-12-02T0500,2274A,117.3533,32.9673,蚌埠市,淮上区政府,颗粒物(PM10),56,61,154,19,44,36,36,,,20,27,6,7,0.3,0.4
2025-12-02T0500,2275A,117.3145,32.8977,蚌埠市,高新区,,,51,140,28,43,39,39,,,,24,6,8,0.4,0.5
2025-12-02T0500,3715A,117.3092,32.9314,蚌埠市,蚌埠田家炳中学,,,67,155,28,44,32,32,,,,27,4,5,0.3,0.4
2025-12-02T0500,1585A,109.8756,40.6532,包头市,市环境监测站,,15,9,38,3,9,48,48,,,12,19,9,10,0.5,0.8
2025-12-02T0500,1587A,109.9991,40.5842,包头市,包头八中,,16,16,52,3,16,49,49,,,14,21,2,12,0.5,0.7
2025-12-02T0500,1588A,109.8538,40.6821,包头市,青山宾馆,,17,17,29,3,11,50,50,,,10,18,5,8,0.6,0.7
2025-12-02T0500,1589A,109.8642,40.6288,包头市,惠龙物流,,19,17,34,3,14,58,58,,,8,17,6,10,0.6,0.9
2025-12-02T0500,1590A,110.0377,40.5546,包头市,东河鸿龙湾,,15,6,31,3,6,46,46,,,16,20,5,9,0.4,0.5
2025-12-02T0500,3283A,109.9154,40.5685,包头市,滨河大厦,,14,7,30,3,10,44,44,,,15,16,9,8,0.8,0.6
2025-12-02T0500,3419A,109.9447,40.6261,包头市,包头市委党校,,32,32,45,8,14,51,51,,,9,20,6,12,0.6,1
2025-12-02T0500,3683A,109.8331,40.6576,包头市,昆区政府,,22,22,30,3,11,54,54,,,11,21,10,11,0.4,0.6
2025-12-02T0500,1930A,107.185,34.3063,宝鸡市,庙沟村,,,,,,,,,,,,,,,,
2025-12-02T0500,1931A,107.0708,34.3017,宝鸡市,竹园沟,,35,35,69,17,28,39,39,,,9,19,6,8,0.2,0.3
2025-12-02T0500,1932A,107.1906,34.3672,宝鸡市,三陆医院,颗粒物(PM10),72,94,106,41,50,6,6,,,47,39,6,8,0.8,0.7
2025-12-02T0500,1933A,107.1431,34.3547,宝鸡市,监测站,颗粒物(PM10),57,64,89,34,45,27,27,,,23,29,4,5,0.4,0.5
2025-12-02T0500,1934A,107.1186,34.3739,宝鸡市,技工学校,颗粒物(PM10),60,70,95,42,43,34,34,,,13,26,4,5,0.6,0.7
2025-12-02T0500,1936A,107.2058,34.3497,宝鸡市,文理学院,,,74,91,44,64,25,25,,,,33,4,6,0.6,0.6
2025-12-02T0500,1937A,107.2386,34.3622,宝鸡市,三迪小学,颗粒物(PM10),63,76,102,44,50,19,19,,,33,42,4,6,0.7,0.7
2025-12-02T0500,4308A,107.3898,34.3601,宝鸡市,陈仓区北开路21号,颗粒物(PM10),62,73,116,32,65,36,36,,,24,39,14,33,0.5,0.6
2025-12-02T0500,1051A,115.493,38.8632,保定市,游泳馆,,34,34,49,3,14,53,53,,,6,18,3,3,0.2,0.1
2025-12-02T0500,1052A,115.5213,38.8959,保定市,华电二区,,28,28,44,17,26,54,54,,,5,22,1,2,1.0,0.8
2025-12-02T0500,1053A,115.4713,38.9108,保定市,接待中心,,33,33,46,3,16,51,51,,,6,23,3,2,0.2,0.3
2025-12-02T0500,1054A,115.4612,38.8416,保定市,地表水厂,,38,38,53,6,16,55,55,,,12,23,1,3,0,0
2025-12-02T0500,3581A,115.31981,38.95208,保定市,满城区生态环境分局,,,27,57,,20,48,48,,,16,36,3,2,0.1,0.2
2025-12-02T0500,3582A,115.47694,38.76408,保定市,清苑区第二中学,,40,40,64,9,16,50,50,,,12,31,3,3,0.2,0.3
2025-12-02T0500,3583A,115.62909,39.02311,保定市,徐水物探局,,48,48,53,7,19,50,50,,,4,20,3,3,0.3,0.4
2025-12-02T0500,4004A,115.4202,38.8656,保定市,双鹰农机,,30,30,54,17,22,61,61,,,6,22,2,4,0.2,0.3
2025-12-02T0500,4034A,115.5150,38.8590,保定市,植保所站,,43,43,59,20,24,44,44,,,8,26,3,3,0.2,0.2
2025-12-02T0500,2594A,99.1678,25.1081,保山市,市环境监测站,,16,16,25,3,18,41,41,,,5,10,9,6,0.2,0.3
2025-12-02T0500,2595A,99.1711,25.1328,保山市,市环保局,,25,,26,17,19,47,47,,,4,6,4,5,0.5,0.5
2025-12-02T0500,1866A,109.2262,21.588,北海市,牛尾岭水库,细颗粒物(PM2.5),58,,40,41,39,23,23,,,11,12,5,11,0.6,0.8
2025-12-02T0500,1867A,109.1436,21.4086,北海市,海滩公园,,32,29,47,22,35,54,54,,,10,14,5,5,0.7,0.8
2025-12-02T0500,1868A,109.0981,21.4661,北海市,新市环保局,,45,,48,31,45,53,53,,,13,15,8,7,0.6,0.7
2025-12-02T0500,1869A,109.1778,21.5233,北海市,北海工业园,细颗粒物(PM2.5),68,50,54,49,44,31,31,,,19,16,13,6,0.7,0.8
2025-12-02T0500,3400A,109.1911,21.4415,北海市,龙潭自来水厂,,43,34,44,30,44,34,34,,,11,12,11,11,0.1,0.2
2025-12-02T0500,1001A,116.3621,39.8784,北京市,万寿西宫,,20,10,20,3,6,62,62,,,1,9,1,1,0.4,0.3
2025-12-02T0500,1002A,116.2202,40.2915,北京市,定陵,,,,,,,,,,,,,,,,
2025-12-02T0500,1003A,116.4174,39.9289,北京市,东四,,18,13,24,3,5,56,56,,,6,9,2,2,0.2,0.3
2025-12-02T0500,1004A,116.4072,39.8863,北京市,天坛,,19,9,22,3,6,60,60,,,3,10,1,1,0.3,0.3
2025-12-02T0500,1005A,116.462,39.9365,北京市,农展馆,,18,9,18,3,3,57,57,,,1,5,3,3,0.4,0.3
2025-12-02T0500,1006A,116.3392,39.9295,北京市,官园,,18,9,22,3,8,56,56,,,1,7,2,2,0.2,0.3
2025-12-02T0500,1007A,116.2878,39.9611,北京市,海淀万柳,,17,8,19,3,5,54,54,,,5,10,3,3,0.3,0.3
2025-12-02T0500,1008A,116.6636,40.135,北京市,顺义新城,,20,6,15,3,5,63,63,,,1,4,3,3,0.3,0.3
2025-12-02T0500,1009A,116.6275,40.3275,北京市,怀柔镇,,21,6,12,3,4,67,67,,,2,3,5,5,0.5,0.5
2025-12-02T0500,1010A,116.2296,40.217,北京市,昌平镇,,19,6,15,3,5,58,58,,,1,4,4,4,0.3,0.3
2025-12-02T0500,1011A,116.3966,39.9821,北京市,奥体中心,,17,9,17,3,6,54,54,,,11,10,3,3,0.4,0.4
2025-12-02T0500,3281A,115.9718,40.4529,北京市,延庆夏都,,20,9,15,3,5,62,62,,,2,4,3,2,0.3,0.3
2025-12-02T0500,3418A,116.8336,40.4095,北京市,密云新城,,19,6,12,3,3,59,59,,,1,2,2,2,0.3,0.3
2025-12-02T0500,3671A,116.088,39.9726,北京市,门头沟三家店,,20,6,19,3,6,61,61,,,2,6,1,1,0.4,0.4
2025-12-02T0500,3672A,116.1541,39.8204,北京市,丰台云岗,,19,12,26,3,7,58,58,,,3,10,3,2,0.1,0.1
2025-12-02T0500,3673A,116.6804,39.9081,北京市,通州东关,,21,21,23,3,8,55,55,,,11,10,3,4,0.2,0.3
2025-12-02T0500,3674A,115.9577,39.7603,北京市,房山燕山,,20,9,37,3,12,64,64,,,2,14,2,2,0.4,0.5
2025-12-02T0500,3675A,116.4672,39.7733,北京市,大兴旧宫,,19,8,21,3,4,59,59,,,3,10,3,3,0.3,0.3
2025-12-02T0500,3694A,115.986,40.4563,北京市,延庆石河营,,19,9,15,3,5,58,58,,,2,2,2,2,0.4,0.4
2025-12-02T0500,3695A,116.6151,40.3053,北京市,怀柔新城,,22,6,12,3,4,69,69,,,2,2,3,2,0.2,0.2
2025-12-02T0500,3696A,116.2545,39.8768,北京市,丰台小屯,,16,,27,3,7,51,51,,,4,11,2,2,0.3,0.3
2025-12-02T0500,3697A,116.84,40.3844,北京市,密云镇,,18,7,13,3,4,56,56,,,5,4,3,2,0.3,0.3
2025-12-02T0500,4182A,116.1942,39.9158,北京市,八角北路9号,,14,8,23,3,6,42,42,,,2,9,3,3,0,0
2025-12-02T0500,4194A,117.0790,40.1518,北京市,洳河巡河路,,18,7,15,3,2,57,57,,,2,3,6,3,0.6,0.5
2025-12-02T0500,1761A,123.8275,41.3064,本溪市,大峪,,17,11,35,3,20,54,54,,,8,18,8,11,0.5,0.8
2025-12-02T0500,1762A,123.7567,41.3325,本溪市,溪湖,,,30,47,6,22,47,47,,,,19,6,9,0.7,1
2025-12-02T0500,1763A,123.7169,41.3094,本溪市,彩屯,,27,27,41,9,30,50,50,,,14,18,6,8,0.3,0.9
2025-12-02T0500,1764A,123.7669,41.2864,本溪市,东明,,18,15,45,3,20,57,57,,,9,18,25,11,0.8,1.1
2025-12-02T0500,1765A,123.7992,41.2664,本溪市,新立屯,,18,15,39,3,16,55,55,,,7,17,5,9,0.6,0.8
2025-12-02T0500,1766A,123.8142,41.3472,本溪市,威宁,,21,21,56,12,22,32,32,,,17,16,6,9,0.4,0.7
2025-12-02T0500,2587A,105.2864,27.3125,毕节市,八中,细颗粒物(PM2.5),105,106,108,79,85,75,75,,,8,16,8,11,0.6,0.8
2025-12-02T0500,2588A,105.31,27.2944,毕节市,师专,细颗粒物(PM2.5),107,99,106,80,88,79,79,,,8,17,7,9,0.7,0.9
2025-12-02T0500,4263A,105.3688,27.3598,毕节市,工业大道,细颗粒物(PM2.5),100,95,110,75,74,88,88,,,9,16,10,11,1.0,1.2
2025-12-02T0500,1629A,118.0018,37.3617,滨州市,第二水厂,,31,31,66,3,20,52,52,,,10,27,9,13,0.6,0.7
2025-12-02T0500,1630A,117.9776,37.393,滨州市,北中新校,,29,29,62,3,19,52,52,,,12,31,6,9,0.3,0.4
2025-12-02T0500,3514A,117.9378,37.3956,滨州市,中海酒店,,34,34,64,7,20,61,61,,,2,20,9,12,0.4,0.5
2025-12-02T0500,3515A,117.9378,37.3553,滨州市,开发区一中,颗粒物(PM10),52,53,72,3,19,59,59,,,9,21,7,11,0.3,0.5
2025-12-02T0500,3516A,118.0917,37.694,滨州市,金海六路,,21,17,57,3,7,66,66,,,2,20,3,9,0.3,0.5
2025-12-02T0500,4028A,117.9956,37.3753,滨州市,滨州市西街道办事处,,29,29,64,7,22,53,53,,,7,22,8,11,0.5,0.6
2025-12-02T0500,2311A,115.8072,33.8399,亳州市,污水处理厂,细颗粒物(PM2.5),95,131,163,71,54,13,13,,,35,32,9,12,0.7,0.7
2025-12-02T0500,2312A,115.7789,33.8518,亳州市,三国揽胜宫,细颗粒物(PM2.5),102,146,167,76,56,15,15,,,43,36,10,11,0.6,0.5
2025-12-02T0500,3332A,115.7633,33.8034,亳州市,亳州学院,细颗粒物(PM2.5),90,123,155,67,52,26,26,,,34,30,7,8,0.6,0.5
2025-12-02T0500,2693A,82.0485,44.8556,博尔塔拉蒙古自治州,市党校,,50,50,44,19,18,40,40,,,14,16,2,2,0.4,0.4
2025-12-02T0500,2694A,82.0806,44.8969,博尔塔拉蒙古自治州,市环保局,,48,48,48,26,31,38,38,,,13,15,4,6,0.5,0.5
2025-12-02T0500,1071A,116.8842,38.2991,沧州市,沧县城建局,,39,39,60,12,23,62,62,,,7,23,3,5,0.3,0.4
2025-12-02T0500,1072A,116.8584,38.3254,沧州市,电视转播站,,32,32,63,3,19,57,57,,,9,32,3,3,0.4,0.5
2025-12-02T0500,1073A,116.8709,38.3228,沧州市,市环保局,,43,43,62,19,27,48,48,,,4,24,3,3,0.2,0.3
2025-12-02T0500,3324A,116.8136,38.3004,沧州市,河北水利电力学院,,23,19,53,16,14,54,54,,,1,17,1,3,0.1,0.2
2025-12-02T0500,2622A,97.1806,31.1273,昌都市,昌都监测站,,11,11,41,3,16,35,35,,,4,25,1,2,0.2,0.7
2025-12-02T0500,3719A,97.1714,31.1406,昌都市,昌都会议中心,,13,8,21,3,10,39,39,,,1,8,2,2,0.1,0.2
2025-12-02T0500,2690A,88.1236,43.8886,昌吉回族自治州,天山天池,,,,,,,,,,,,,,,,
2025-12-02T0500,2692A,87.2717,44.0297,昌吉回族自治州,新区政务中心,,42,42,33,25,22,0,0,,,43,26,4,9,0.9,0.7
2025-12-02T0500,3613A,87.3095,44.0142,昌吉回族自治州,亚心广场,,31,31,37,19,21,18,18,,,32,16,7,12,0.4,0.4
2025-12-02T0500,1120A,125.2863,43.9027,长春市,客车厂,颗粒物(PM10),53,55,80,8,31,61,61,,,5,20,6,9,0.3,0.5
2025-12-02T0500,1121A,125.2841,43.8463,长春市,邮电学院,,28,28,65,10,29,57,57,,,11,19,9,11,0.4,0.6
2025-12-02T0500,1122A,125.3716,43.8772,长春市,劳动公园,,33,33,62,3,24,59,59,,,4,15,9,10,0.9,0.9
2025-12-02T0500,1123A,125.3297,43.8805,长春市,园林处,,24,24,54,9,26,58,58,,,6,16,6,7,0.2,0.4
2025-12-02T0500,1124A,125.4605,43.79,长春市,净月潭,,36,36,69,3,23,56,56,,,5,11,6,6,0.2,0.4
2025-12-02T0500,1125A,125.7194,43.515,长春市,甩湾子,,22,22,45,6,30,58,58,,,5,10,4,5,0,0.1
2025-12-02T0500,1126A,125.3863,43.8447,长春市,经开区环卫处,,28,28,64,3,26,50,50,,,13,20,15,8,0.2,0.4
2025-12-02T0500,1127A,125.245,43.7783,长春市,高新区管委会,,26,26,60,3,28,62,62,,,4,14,6,6,0.2,0.4
2025-12-02T0500,1128A,125.1761,43.8325,长春市,岱山公园,,26,26,66,3,25,57,57,,,3,16,6,7,0.2,0.4
2025-12-02T0500,4281A,125.3346,43.9164,长春市,北亚泰大街1068号,,28,28,63,6,32,44,44,,,14,23,13,8,0.4,0.6
2025-12-02T0500,1335A,113.0833,28.2325,长沙市,经开区环保局,细颗粒物(PM2.5),162,184,133,123,97,50,50,,,,31,7,8,0.8,0.7
2025-12-02T0500,1336A,112.8872,28.2189,长沙市,高开区环保局,细颗粒物(PM2.5),179,185,132,135,98,53,53,,,,20,8,9,0.9,0.8
2025-12-02T0500,1337A,113.0792,28.2053,长沙市,马坡岭,细颗粒物(PM2.5),152,189,133,116,83,56,56,,,,33,9,9,0.8,0.7
2025-12-02T0500,1338A,112.9394,28.19,长沙市,湖南师范大学,细颗粒物(PM2.5),150,194,135,115,82,55,55,,,,24,6,7,0.7,0.7
2025-12-02T0500,1339A,113.0178,28.1322,长沙市,雨花区环保局,细颗粒物(PM2.5),176,174,131,133,85,63,63,,,,25,10,11,0.9,0.8
2025-12-02T0500,1340A,112.9792,28.2597,长沙市,伍家岭,细颗粒物(PM2.5),155,202,145,118,87,49,49,,,,27,7,9,0.8,0.8
2025-12-02T0500,1341A,113.0014,28.1944,长沙市,火车新站,细颗粒物(PM2.5),168,196,143,127,91,56,56,,,,29,8,10,0.8,0.7
2025-12-02T0500,1342A,112.9844,28.1178,长沙市,天心区环保局,细颗粒物(PM2.5),140,179,130,107,80,62,62,,,23,27,8,9,0.7,0.7
2025-12-02T0500,1343A,112.8908,28.1308,长沙市,湖南中医药大学,细颗粒物(PM2.5),169,197,145,128,93,57,57,,,16,20,,10,0.9,0.9
2025-12-02T0500,1344A,112.9581,28.3611,长沙市,沙坪,,,,,,,,,,,,,,,,
2025-12-02T0500,1727A,113.1147,36.1547,长治市,清华站,颗粒物(PM10),91,131,135,31,41,26,26,,,31,28,16,15,0.9,0.7
2025-12-02T0500,1730A,113.0886,36.2125,长治市,审计局,颗粒物(PM10),89,127,130,36,40,26,26,,,30,30,16,13,0.8,0.6
2025-12-02T0500,1731A,113.0844,36.1856,长治市,长治八中,颗粒物(PM10),107,164,169,59,55,14,14,,,38,27,14,14,1.1,0.7
2025-12-02T0500,2845A,113.1569,36.1911,长治市,德盛苑,颗粒物(PM10),88,126,131,46,42,27,27,,,27,15,11,14,1.0,0.8
2025-12-02T0500,3568A,113.06,36.0464,长治市,向阳小学,颗粒物(PM10),113,176,181,53,52,26,26,,,36,23,22,23,1.4,0.7
2025-12-02T0500,3569A,112.8792,36.3144,长治市,屯留一中,颗粒物(PM10),112,173,161,55,48,4,4,,,58,35,37,23,1.6,0.8
2025-12-02T0500,4189A,113.1131,36.19948,长治市,英华南巷50号,颗粒物(PM10),92,133,146,44,46,16,16,,,36,24,11,12,1.4,0.9
2025-12-02T0500,4190A,113.2367,36.3344,长治市,学府街1号,颗粒物(PM10),87,124,146,37,43,10,10,,,49,39,20,12,1.4,0.9
2025-12-02T0500,1854A,111.6975,28.9703,常德市,市二中,颗粒物(PM10),133,216,130,98,75,57,57,,,,21,9,9,0.5,0.6
2025-12-02T0500,1857A,111.7158,29.1456,常德市,白鹤山,,,,,,,,,,,,,,,,
2025-12-02T0500,3138A,111.7153,29.0289,常德市,武陵区永安,颗粒物(PM10),143,235,143,93,74,53,53,,,19,16,11,14,0.6,0.6
2025-12-02T0500,3139A,111.6892,28.9881,常德市,鼎城区玉霞,颗粒物(PM10),135,220,131,94,76,58,58,,,,23,11,10,0.6,0.6
2025-12-02T0500,3140A,111.6625,29.0531,常德市,武陵区长庚,颗粒物(PM10),138,225,143,99,76,39,39,,,,23,8,9,0.5,0.5
2025-12-02T0500,1196A,119.9633,31.762,常州市,市监测站,颗粒物(PM10),61,72,107,26,43,40,40,,,33,28,8,6,0.9,0.8
2025-12-02T0500,1200A,119.9468,31.7069,常州市,武进监测站,颗粒物(PM10),66,82,112,28,50,44,44,,,32,28,11,8,0.8,0.6
2025-12-02T0500,1201A,119.9255,31.9087,常州市,安家,颗粒物(PM10),63,76,113,23,41,36,36,,,28,32,9,12,0.4,0.5
2025-12-02T0500,3002A,119.9805,31.8174,常州市,行政中心,颗粒物(PM10),60,70,145,28,47,39,39,,,29,30,9,8,0.7,0.8
2025-12-02T0500,3003A,120.0522,31.7748,常州市,经开区,颗粒物(PM10),62,74,116,17,39,44,44,,,28,29,12,10,0.7,0.6
2025-12-02T0500,3010A,119.9025,31.7964,常州市,钟楼,颗粒物(PM10),63,75,107,22,40,40,40,,,27,27,12,10,0.8,0.8
2025-12-02T0500,3429A,119.8598,31.7066,常州市,武进经发区,颗粒物(PM10),65,79,125,27,46,42,42,,,29,25,13,11,1.1,0.9
2025-12-02T0500,3430A,119.5826,31.7245,常州市,金坛城区,,,89,132,36,46,22,22,,,39,28,7,8,,1
2025-12-02T0500,2220A,120.4318,41.5881,朝阳市,西梁,,21,8,29,3,7,67,67,,,4,12,3,5,0.4,0.6
2025-12-02T0500,2221A,120.4521,41.5646,朝阳市,河畔小区,,22,9,22,3,7,70,70,,,4,12,5,6,0.4,0.5
2025-12-02T0500,2222A,120.4176,41.5648,朝阳市,八里堡,,22,18,28,3,9,68,68,,,4,12,6,8,0.2,0.4
2025-12-02T0500,2223A,120.3806,41.5969,朝阳市,农业园区,,23,12,17,3,7,71,71,,,3,7,4,5,0.4,0.4
2025-12-02T0500,1705A,116.6367,23.6719,潮州市,西园路,,,,,,,,,,,,,,,,
2025-12-02T0500,3026A,116.6183,23.6608,潮州市,市政府,,46,41,41,32,25,12,12,,,16,16,4,4,0.5,0.5
2025-12-02T0500,4036A,116.6461,23.6761,潮州市,金山,,50,37,33,35,26,4,4,,,17,13,2,3,0.6,0.6
2025-12-02T0500,2472A,113.0073,25.9061,郴州市,马头岭,,,,,,,,,,,,,,,,
2025-12-02T0500,2473A,113.0116,25.8226,郴州市,市职中,细颗粒物(PM2.5),94,70,65,70,48,62,62,,,18,27,6,8,0.8,0.7
2025-12-02T0500,2475A,113.0383,25.8071,郴州市,市审计局,,,76,65,59,48,62,62,,,,26,4,8,0.7,0.6
2025-12-02T0500,2476A,113.0348,25.7759,郴州市,市环保局,细颗粒物(PM2.5),94,88,82,70,50,47,47,,,25,34,4,12,0.7,0.7
2025-12-02T0500,4252A,113.0138,25.8011,郴州市,好美居路49号,细颗粒物(PM2.5),93,80,61,69,47,85,85,,,22,30,9,12,0.7,0.6
2025-12-02T0500,1431A,103.9728,30.7236,成都市,金泉两河,细颗粒物(PM2.5),142,122,129,108,115,0,0,,,40,46,3,4,1.1,1
2025-12-02T0500,1432A,104.176,30.6872,成都市,十里店,细颗粒物(PM2.5),175,165,157,132,123,5,5,,,,53,3,4,1.1,1.1
2025-12-02T0500,1433A,104.079,30.5706,成都市,三瓦窑,细颗粒物(PM2.5),159,155,159,121,119,1,1,,,64,56,4,5,1.2,1.2
2025-12-02T0500,1434A,104.1114,30.63,成都市,沙河铺,细颗粒物(PM2.5),189,158,163,142,148,0,0,,,55,57,5,4,1.0,1
2025-12-02T0500,1437A,104.0786,30.6531,成都市,君平街,细颗粒物(PM2.5),213,173,156,163,139,23,23,,,33,54,7,5,1.2,1.2
2025-12-02T0500,1438A,103.613,31.0283,成都市,灵岩寺,,,,,,,,,,,,,,,,
2025-12-02T0500,2880A,104.0239,30.65639,成都市,大石西路,细颗粒物(PM2.5),188,,125,141,121,11,11,,,42,54,3,5,1.2,1.2
2025-12-02T0500,3136A,104.2725,30.5589,成都市,龙泉驿区区政府,细颗粒物(PM2.5),119,107,120,90,97,32,32,,,15,18,6,6,0.7,0.7
2025-12-02T0500,3357A,104.0106,30.6931,成都市,金博路,细颗粒物(PM2.5),152,138,145,116,109,2,2,,,51,58,6,6,1.1,1.2
2025-12-02T0500,3359A,104.0578,30.5225,成都市,华阳,细颗粒物(PM2.5),149,136,142,114,109,1,1,,,63,54,4,4,1.0,1
2025-12-02T0500,3488A,104.3880,30.7467,成都市,青石路225号,细颗粒物(PM2.5),145,125,125,111,111,5,5,,,33,37,8,5,1.2,1
2025-12-02T0500,3489A,104.0789,30.4072,成都市,科学城,细颗粒物(PM2.5),137,124,127,104,102,10,10,,,37,31,5,5,0.8,0.7
2025-12-02T0500,4011A,103.8506,30.6947,成都市,光华大道三段,细颗粒物(PM2.5),152,146,144,116,116,5,5,,,33,43,3,4,1.0,1
2025-12-02T0500,4224A,104.2433,30.5353,成都市,鲸龙路1057号,细颗粒物(PM2.5),149,,127,114,116,16,16,,,33,40,5,6,0.9,1
2025-12-02T0500,1062A,117.9531,40.9081,承德市,铁路,,20,12,17,3,5,63,63,,,4,6,2,2,0.1,0.2
2025-12-02T0500,1063A,117.9392,40.9763,承德市,中国银行,,20,20,17,8,5,63,63,,,2,5,2,2,0.2,0.2
2025-12-02T0500,1064A,117.9503,40.928,承德市,开发区,,21,17,23,14,12,66,66,,,1,4,3,3,0.1,0.1
2025-12-02T0500,1066A,117.9268,41.0026,承德市,离宫,,,,,,,,,,,,,,,,
2025-12-02T0500,4274A,117.7994,40.9605,承德市,滨河大街98号,,21,9,16,3,7,67,67,,,2,4,2,2,0.2,0.2
2025-12-02T0500,2314A,117.47,30.6618,池州市,池州学院,颗粒物(PM10),82,114,160,52,107,5,5,,,62,52,13,12,1.0,1.1
2025-12-02T0500,3237A,117.4918,30.6617,池州市,展览馆,细颗粒物(PM2.5),93,130,166,69,100,2,2,,,61,48,9,10,0.9,1
2025-12-02T0500,3333A,117.5627,30.695,池州市,第八中学,,,101,157,40,86,5,5,,,,55,10,11,1.1,1.3
2025-12-02T0500,3334A,117.5038,30.6243,池州市,第十二中学,,,120,149,56,84,9,9,,,,47,7,10,1.2,1.4
2025-12-02T0500,1744A,118.9233,42.2816,赤峰市,松山一中,,20,9,15,3,7,64,64,,,14,17,5,5,0.4,0.4
2025-12-02T0500,1745A,118.9576,42.2728,赤峰市,哈达街,,20,10,16,10,8,64,64,,,5,10,6,7,0.6,0.6
2025-12-02T0500,1746A,118.8788,42.2554,赤峰市,天义路,,21,9,11,3,8,67,67,,,4,9,6,5,0.8,0.7
2025-12-02T0500,3058A,119.2658,42.0353,赤峰市,银河街,,21,6,16,6,9,66,66,,,4,8,8,11,0.4,0.4
2025-12-02T0500,3286A,118.9359,42.3147,赤峰市,桥北物流园区,,,,14,3,7,62,62,,,,8,8,8,0.2,0.3
2025-12-02T0500,2521A,107.3476,22.4136,崇左市,市环保局江州分局,颗粒物(PM10),56,61,78,36,43,0,0,,,22,20,3,3,0.7,0.7
2025-12-02T0500,4256A,107.3750,22.3736,崇左市,石景林东路7号,,46,39,58,32,46,7,7,,,24,22,7,8,0.7,0.7
2025-12-02T0500,2298A,118.3093,32.3153,滁州市,老年大学,颗粒物(PM10),59,67,131,24,39,36,36,,,22,18,14,13,0.4,0.5
2025-12-02T0500,2299A,118.3244,32.2786,滁州市,人大宾馆,颗粒物(PM10),53,56,130,24,38,34,34,,,22,24,6,6,0.3,0.4
2025-12-02T0500,3207A,118.3118,32.3038,滁州市,市政府原办公楼,,,56,125,23,40,39,39,,,,24,5,6,0.3,0.5
2025-12-02T0500,3331A,118.3267,32.2634,滁州市,图书馆,颗粒物(PM10),55,59,135,23,34,38,38,,,14,20,9,8,0.2,0.4
2025-12-02T0500,2605A,101.5482,25.0441,楚雄彝族自治州,州环境监测站,,26,25,27,18,21,2,2,,,24,15,16,9,0.7,0.7
2025-12-02T0500,2606A,101.538,25.0492,楚雄彝族自治州,市经济开发区,,23,23,29,16,21,2,2,,,21,16,15,8,0.6,0.7
2025-12-02T0500,2548A,107.5277,31.2827,达州市,达州职业技术学院,,,,,,,,,,,,,,,,
2025-12-02T0500,2549A,107.5086,31.2186,达州市,市环境监测站,细颗粒物(PM2.5),110,107,107,83,83,2,2,,,27,36,7,7,0.8,0.9
2025-12-02T0500,2550A,107.4988,31.2132,达州市,凤凰小区,细颗粒物(PM2.5),117,105,113,88,86,3,3,,,,38,7,7,0.7,0.8
2025-12-02T0500,2551A,107.5082,31.1986,达州市,达县机关宾馆,细颗粒物(PM2.5),104,110,117,78,89,2,2,,,24,35,5,5,0.8,1
2025-12-02T0500,2552A,107.4644,31.2124,达州市,市政中心,细颗粒物(PM2.5),119,123,126,90,84,2,2,,,,40,7,7,0.8,0.9
2025-12-02T0500,2614A,100.1542,25.7054,大理白族自治州,大理市环境监测站,,28,23,23,19,24,51,51,,,8,10,6,6,0.8,0.8
2025-12-02T0500,2615A,100.2171,25.5811,大理白族自治州,大理古城,,18,18,34,12,19,49,49,,,5,14,7,7,0.7,0.8
2025-12-02T0500,1109A,121.612,38.9741,大连市,甘井子,,23,23,28,3,7,63,63,,,13,20,6,7,0,0
2025-12-02T0500,1110A,121.565,38.9511,大连市,周水子,,22,22,27,3,8,61,61,,,13,20,7,6,0.3,0.4
2025-12-02T0500,1111A,121.5637,38.8845,大连市,星海三站,,21,21,24,3,9,59,59,,,12,18,6,8,0.2,0.2
2025-12-02T0500,1112A,121.6302,38.9117,大连市,青泥洼桥,,20,16,21,3,8,62,62,,,10,20,11,12,0.2,0.3
2025-12-02T0500,1113A,121.6251,38.8638,大连市,傅家庄,,19,19,23,3,7,59,59,,,7,14,7,9,0.2,0.4
2025-12-02T0500,1114A,121.5213,38.8661,大连市,七贤岭,,25,25,29,3,8,60,60,,,6,12,7,7,0.8,0.6
2025-12-02T0500,1115A,121.2529,38.8061,大连市,旅顺,,22,16,22,3,9,69,69,,,2,9,6,6,0.2,0.3
2025-12-02T0500,1116A,121.7485,39.1311,大连市,金州,,20,19,25,3,10,62,62,,,5,11,7,8,0.2,0.3
2025-12-02T0500,1117A,121.7811,39.0496,大连市,开发区,,23,23,27,3,9,61,61,,,6,12,9,9,0.1,0.1
2025-12-02T0500,1118A,121.9762,39.0631,大连市,双D港,,22,18,26,3,10,68,68,,,5,10,8,11,0.5,0.5
2025-12-02T0500,1789A,124.81117,46.03138,大庆市,大同区,,19,17,32,7,16,60,60,,,4,13,5,5,0.5,0.6
2025-12-02T0500,1790A,125.129,46.533,大庆市,龙凤区,,32,31,28,22,19,58,58,,,6,21,5,6,0.3,0.5
2025-12-02T0500,1791A,124.902,46.408,大庆市,红岗区,,29,29,28,20,17,56,56,,,6,17,3,5,0.3,0.4
2025-12-02T0500,1792A,125.153,46.586,大庆市,萨尔图区,,20,17,23,3,12,61,61,,,17,28,6,8,0.5,0.7
2025-12-02T0500,1793A,124.9042,46.6215,大庆市,让胡路区,,33,23,26,23,21,63,63,,,2,10,7,7,0.2,0.3
2025-12-02T0500,3481A,125.141,46.634,大庆市,萨区政府监测点,,18,17,25,3,6,57,57,,,2,11,9,9,0.2,0.3
2025-12-02T0500,1721A,113.3819,40.1097,大同市,果树场,,24,24,36,6,18,45,45,,,21,18,17,10,1.5,0.9
2025-12-02T0500,1723A,113.2994,40.0758,大同市,云冈宾馆,,17,17,45,8,14,50,50,,,9,17,5,8,0.4,1
2025-12-02T0500,1724A,113.3444,40.0917,大同市,大同大学,,21,21,36,3,13,61,61,,,9,22,4,7,0.8,0.5
2025-12-02T0500,1725A,113.2661,40.1269,大同市,安家小村,,16,13,38,11,18,51,51,,,8,16,8,10,0.4,0.8
2025-12-02T0500,1726A,113.2711,40.0844,大同市,教育学院,,16,11,42,8,22,51,51,,,10,18,7,8,0.3,0.8
2025-12-02T0500,3282A,113.3397,40.0597,大同市,大同市卫生学校,,18,17,34,11,17,56,56,,,8,17,5,7,0.9,0.7
2025-12-02T0500,3565A,113.1367,40.1122,大同市,云冈站,,15,13,39,10,12,31,31,,,16,13,6,11,0.7,0.7
2025-12-02T0500,3566A,113.1186,40.2556,大同市,图书馆,,15,15,40,8,13,43,43,,,10,11,5,5,0.7,0.8
2025-12-02T0500,3567A,113.5931,40.0461,大同市,区一中,,16,11,37,3,14,49,49,,,9,11,5,9,0.5,0.5
2025-12-02T0500,4199A,113.2798,40.0997,大同市,魏都大道141号,,14,12,46,7,16,44,44,,,16,18,8,7,0.6,0.9
2025-12-02T0500,2269A,124.1069,50.4097,大兴安岭地区,科技局,,26,,15,18,16,39,39,,,4,3,4,4,0.2,0.2
2025-12-02T0500,3663A,124.1164,50.4278,大兴安岭地区,红旗社区,,20,,6,14,6,31,31,,,19,6,5,5,0.4,0.3
2025-12-02T0500,1600A,124.3303,40.0625,丹东市,江湾东路,,23,23,35,7,20,55,55,,,10,17,9,9,0.5,0.7
2025-12-02T0500,1601A,124.4256,40.1503,丹东市,临江后街,,26,26,31,6,15,54,54,,,4,10,5,7,0.4,0.5
2025-12-02T0500,1602A,124.3933,40.1461,丹东市,元宝山,,20,20,25,8,16,53,53,,,4,7,7,9,0.6,0.7
2025-12-02T0500,1603A,124.3633,40.1092,丹东市,民主桥,,28,28,33,3,11,58,58,,,5,13,7,8,0.5,0.5
2025-12-02T0500,3541A,109.5726,19.5167,儋州市,第一中学子站,,13,9,33,3,16,39,39,,,6,9,4,2,0.6,0.6
2025-12-02T0500,3542A,109.5567,19.5187,儋州市,东坡学校子站,,13,11,25,6,19,41,41,,,6,8,4,4,0.4,0.4
2025-12-02T0500,2616A,98.5842,24.428,德宏傣族景颇族自治州,德宏州监测站,细颗粒物(PM2.5),52,,49,36,40,8,8,,,26,22,8,8,0.6,0.7
2025-12-02T0500,3677A,98.5881,24.4368,德宏傣族景颇族自治州,芒市人民政府综合楼,,39,35,46,27,31,11,11,,,20,16,7,7,0.8,0.8
2025-12-02T0500,1901A,104.4239,31.1208,德阳市,东山公园,细颗粒物(PM2.5),170,140,124,129,109,25,25,,,41,30,2,2,1.2,1.1
2025-12-02T0500,1902A,104.3826,31.1317,德阳市,西小区,细颗粒物(PM2.5),183,160,149,138,119,2,2,,,44,38,4,5,1.0,0.9
2025-12-02T0500,1904A,104.3553,31.1091,德阳市,耐火材料厂,细颗粒物(PM2.5),193,148,139,145,125,1,1,,,45,44,6,5,1.2,1.2
2025-12-02T0500,3639A,104.4019,31.1244,德阳市,市教育局,细颗粒物(PM2.5),160,125,119,122,111,33,33,,,39,41,2,2,1.0,1.1
2025-12-02T0500,1622A,116.3032,37.4674,德州市,儿童乐园,,34,34,98,7,22,50,50,,,18,28,9,14,0.4,0.7
2025-12-02T0500,1624A,116.2991,37.4451,德州市,监理站,颗粒物(PM10),52,53,89,3,20,60,60,,,16,27,9,15,0.4,0.5
2025-12-02T0500,3066A,116.2721,37.4379,德州市,九衢泉纯净水厂,,46,46,90,7,22,50,50,,,14,27,7,16,0.6,0.8
2025-12-02T0500,3371A,116.3728,37.4403,德州市,开发区人民医院,,46,46,87,3,21,56,56,,,12,33,11,17,0.4,0.6
2025-12-02T0500,3511A,116.5652,37.3319,德州市,陵城艺术中心,,46,46,96,3,21,43,43,,,18,30,9,15,0,0.4
2025-12-02T0500,4292A,116.3525,37.4209,德州市,新河东路,,44,44,89,14,29,57,57,,,17,37,8,14,0.5,0.6
2025-12-02T0500,2621A,99.7056,27.8317,迪庆藏族自治州,迪庆州站,,25,25,33,12,21,35,35,,,7,12,5,6,0.7,0.9
2025-12-02T0500,3180A,99.7136,27.8094,迪庆藏族自治州,质量技术监督局,,22,22,30,13,14,38,38,,,11,14,7,7,0.6,0.7
2025-12-02T0500,4257A,104.6092,35.5962,定西市,将台街,颗粒物(PM10),63,76,86,32,37,18,18,,,30,26,9,12,0.2,0.4
2025-12-02T0500,4309A,104.6159,35.5701,定西市,正龙路62号,颗粒物(PM10),75,100,99,45,40,25,25,,,16,14,8,8,0.6,0.8
2025-12-02T0500,1389A,113.7547,23.0494,东莞市,莞城梨川,细颗粒物(PM2.5),129,150,73,98,44,4,4,,,108,42,7,5,0.9,0.7
2025-12-02T0500,1390A,113.7944,23.0128,东莞市,东城石井,细颗粒物(PM2.5),110,118,55,83,37,4,4,,,80,39,6,7,0.7,0.6
2025-12-02T0500,1391A,113.7383,22.9658,东莞市,南城西平,细颗粒物(PM2.5),122,151,70,92,45,0,0,,,,40,8,8,0.8,0.7
2025-12-02T0500,3319A,113.7338,23.0381,东莞市,万江金泰,细颗粒物(PM2.5),134,162,84,102,51,8,8,,,,49,6,6,1.1,1
2025-12-02T0500,3626A,113.7533,23.0202,东莞市,南城元岭,细颗粒物(PM2.5),140,141,73,107,45,21,21,,,73,49,6,6,0.8,0.7
2025-12-02T0500,3627A,113.7875,23.0457,东莞市,东城主山,细颗粒物(PM2.5),99,126,74,74,45,1,1,,,117,51,3,2,1.0,0.7
2025-12-02T0500,1666A,118.6614,37.4309,东营市,市环保局,,24,24,47,3,11,58,58,,,14,24,6,9,0.5,0.6
2025-12-02T0500,3036A,118.6904,37.4338,东营市,开发区管委会,,27,27,51,3,14,64,64,,,9,20,5,8,0.1,0.3
2025-12-02T0500,3365A,118.5719,37.565,东营市,垦利区民丰路,,,12,46,,,62,62,,,,23,1,4,0.5,0.5
2025-12-02T0500,3498A,118.5055,37.8612,东营市,河口城区,,29,29,49,3,6,66,66,,,11,19,5,5,0.3,0.5
2025-12-02T0500,3646A,118.4978,37.4623,东营市,胜利站,,43,43,56,3,16,61,61,,,16,28,8,12,0.5,0.8
2025-12-02T0500,3734A,118.35,37.26,东营市,理想之城,,19,19,54,7,19,54,54,,,15,26,4,7,0.4,0.5
2025-12-02T0500,1591A,110.0023,39.8129,鄂尔多斯市,综合楼,,19,19,34,3,6,44,44,,,15,16,11,9,0.6,0.4
2025-12-02T0500,1592A,109.9486,39.8261,鄂尔多斯市,巴音孟克林场办事处,,27,27,41,7,11,39,39,,,17,15,9,8,0.8,0.5
2025-12-02T0500,1593A,109.7736,39.5986,鄂尔多斯市,康泽苑,,19,19,44,7,13,56,56,,,3,11,2,3,0.3,0.4
2025-12-02T0500,1594A,109.8119,39.5989,鄂尔多斯市,华泰汽车城,,18,14,45,7,12,55,55,,,5,15,3,5,0.3,0.3
2025-12-02T0500,1595A,109.9734,39.7884,鄂尔多斯市,奥林花园,,31,31,52,3,8,42,42,,,18,21,10,9,0.5,0.5
2025-12-02T0500,2436A,114.8938,30.3994,鄂州市,市政府,细颗粒物(PM2.5),113,129,108,85,74,33,33,,,34,40,9,12,0.7,0.7
2025-12-02T0500,2437A,114.8989,30.3714,鄂州市,赵家坝,细颗粒物(PM2.5),112,137,124,84,76,37,37,,,25,31,9,12,1.0,1.2
2025-12-02T0500,3654A,114.8094,30.4089,鄂州市,精准医疗中心,细颗粒物(PM2.5),104,136,117,78,76,42,42,,,29,38,4,4,1.9,1
2025-12-02T0500,2454A,109.4978,30.2981,恩施土家族苗族自治州,湖北民院,细颗粒物(PM2.5),127,101,100,96,96,13,13,,,14,19,6,7,1.0,1.1
2025-12-02T0500,2455A,109.4707,30.2798,恩施土家族苗族自治州,州电力总公司,细颗粒物(PM2.5),124,97,99,94,90,13,13,,,14,24,6,6,0.8,0.9
2025-12-02T0500,3549A,109.5061,30.3772,恩施土家族苗族自治州,龙凤新区,,,94,95,74,71,8,8,,,,18,7,7,0.4,0.5
2025-12-02T0500,2499A,108.3411,21.6158,防城港市,沙万,细颗粒物(PM2.5),67,,86,48,54,51,51,,,15,34,8,8,1.0,0.9
2025-12-02T0500,2500A,108.3514,21.7731,防城港市,防城档案局,"颗粒物(PM10),细颗粒物(PM2.5)",70,89,77,51,55,15,15,,,29,18,4,5,1.0,0.8
2025-12-02T0500,2501A,108.3506,21.6414,防城港市,大海花园,细颗粒物(PM2.5),87,,77,64,60,34,34,,,17,25,8,10,1.1,1
2025-12-02T0500,1371A,113.1294,23.0067,佛山市,湾梁,颗粒物(PM10),52,53,68,32,32,0,0,,,58,48,6,8,0.9,0.9
2025-12-02T0500,1372A,113.1083,23.0478,佛山市,华材职中,颗粒物(PM10),54,58,68,36,36,1,1,,,54,51,6,7,0.7,0.6
2025-12-02T0500,1373A,113.144,23.0453,佛山市,南海气象局,,49,42,59,34,34,0,0,,,60,48,7,9,0.9,0.8
2025-12-02T0500,1374A,113.2881,22.8094,佛山市,顺德苏岗,细颗粒物(PM2.5),67,67,66,48,43,1,1,,,79,54,8,8,0.9,0.7
2025-12-02T0500,1376A,112.8383,22.8678,佛山市,高明孔堂,,38,29,42,26,30,12,12,,,15,22,2,5,0.4,0.5
2025-12-02T0500,1377A,112.8836,23.1588,佛山市,三水监测站,,,36,46,23,29,1,1,,,,42,9,9,0.8,0.8
2025-12-02T0500,1378A,112.867,23.185,佛山市,三水云东海,,50,50,49,27,26,0,0,,,33,39,3,6,0.7,0.7
2025-12-02T0500,3625A,113.2544,22.7642,佛山市,容桂街道办,细颗粒物(PM2.5),70,88,79,51,48,1,1,,,91,69,9,6,1.1,1
2025-12-02T0500,1280A,119.3903,26.0543,福州市,鼓山,,,,32,,13,,,79,,,9,,1,,0.7
2025-12-02T0500,1282A,119.2681,26.0504,福州市,师大,,,29,42,19,18,64,64,,,,18,6,6,0.3,0.3
2025-12-02T0500,1283A,119.2984,26.1028,福州市,五四北路,,40,40,37,23,17,52,52,,,22,17,4,5,0.5,0.4
2025-12-02T0500,1284A,119.2648,26.0768,福州市,杨桥西路,,36,36,39,18,15,59,59,,,15,15,4,4,0.5,0.4
2025-12-02T0500,1285A,119.317,26.0746,福州市,紫阳,,34,34,45,16,16,87,87,,,10,22,8,7,0.6,0.5
2025-12-02T0500,3048A,119.5799,26.0936,福州市,九龙,,29,27,36,14,17,92,92,,,6,13,8,4,0.4,0.4
2025-12-02T0500,3526A,119.5189,25.9664,福州市,吴航,,39,39,38,20,18,100,100,,,12,14,7,7,0.6,0.5
2025-12-02T0500,1755A,123.7977,41.8491,抚顺市,望花区,,19,12,58,3,22,60,60,,,8,16,3,8,0.6,0.8
2025-12-02T0500,1756A,123.9161,41.8822,抚顺市,顺城区,,17,17,52,3,22,51,51,,,14,17,6,6,0.5,0.8
2025-12-02T0500,1757A,124.0436,41.8611,抚顺市,东洲区,,18,15,71,3,32,56,56,,,7,14,4,6,0.5,0.7
2025-12-02T0500,1758A,123.9247,41.8642,抚顺市,新抚区,,19,13,52,3,23,58,58,,,5,14,7,8,0.5,0.7
2025-12-02T0500,1759A,124.0972,41.8961,抚顺市,大伙房水库,,20,14,51,3,25,62,62,,,4,13,9,10,0.4,0.7
2025-12-02T0500,1760A,123.7086,41.8391,抚顺市,沈抚新城,,20,8,50,3,20,63,63,,,7,15,6,8,0.3,0.5
2025-12-02T0500,2376A,116.2127,28.0814,抚州市,桐源党溪,,,,,,,,,,,,,,,,
2025-12-02T0500,2377A,116.3544,27.9831,抚州市,市站,细颗粒物(PM2.5),70,81,71,51,43,64,64,,,19,21,4,13,1.1,0.9
2025-12-02T0500,2378A,116.3565,27.963,抚州市,血防站,颗粒物(PM10),64,77,71,45,43,71,71,,,13,20,5,12,1.6,1.5
2025-12-02T0500,2379A,116.3564,28.0007,抚州市,采茶剧团,细颗粒物(PM2.5),74,91,74,54,46,63,63,,,12,18,5,8,1.1,0.8
2025-12-02T0500,2380A,116.385,27.9647,抚州市,医学分院,颗粒物(PM10),66,82,75,44,41,71,71,,,13,20,9,14,1.6,1.5
2025-12-02T0500,2207A,121.6094,41.998,阜新市,工业园区,,20,9,48,3,11,62,62,,,8,12,9,9,0.2,0.3
2025-12-02T0500,2208A,121.6697,42.0279,阜新市,长青街,,20,6,35,3,9,64,64,,,3,10,7,11,0.3,0.4
2025-12-02T0500,2209A,121.6673,42.0705,阜新市,农业园区,,19,6,38,3,10,60,60,,,4,8,6,16,0.3,0.4
2025-12-02T0500,2210A,121.6717,42.0224,阜新市,东苑,,21,11,48,6,14,65,65,,,4,11,8,19,0.4,0.5
2025-12-02T0500,2211A,121.6506,42.0498,阜新市,玉龙新城,,21,14,46,3,9,65,65,,,4,10,7,7,0.4,0.5
2025-12-02T0500,2301A,115.8277,32.8929,阜阳市,市监测站,细颗粒物(PM2.5),110,152,163,83,58,13,13,,,42,35,6,6,0.6,0.5
2025-12-02T0500,2303A,115.8554,32.8605,阜阳市,开发区,颗粒物(PM10),102,154,170,65,53,10,10,,,,31,6,6,0.6,0.5
2025-12-02T0500,2875A,115.784,32.8892,阜阳市,阜阳职业技术学院,颗粒物(PM10),97,143,141,70,46,19,19,,,40,25,7,7,0.6,0.5
2025-12-02T0500,3468A,115.7901,32.8613,阜阳市,市规划展馆,颗粒物(PM10),108,165,175,74,54,20,20,,,,23,9,7,0.6,0.5
2025-12-02T0500,3469A,115.836,32.9183,阜阳市,枣园社区,颗粒物(PM10),112,174,178,80,57,15,15,,,45,37,5,4,0.6,0.5
2025-12-02T0500,2669A,102.9099,34.9841,甘南藏族自治州,州政府,颗粒物(PM10),51,51,61,28,36,7,7,,,34,38,9,14,0.7,0.9
2025-12-02T0500,3380A,102.8914,34.9617,甘南藏族自治州,甘肃民族师范学院,,,111,85,30,24,0,0,,,41,32,,10,0.8,0.7
2025-12-02T0500,2570A,101.9603,30.0475,甘孜藏族自治州,水桥子,,,18,21,10,8,12,12,,,,27,8,9,0.4,0.5
2025-12-02T0500,3065A,101.9533,29.9972,甘孜藏族自治州,州环保局,,16,16,21,8,5,17,17,,,32,17,5,6,0.3,0.3
2025-12-02T0500,3414A,115.8347,28.932,赣江新区,桑海产业园,细颗粒物(PM2.5),155,210,112,118,64,91,91,,,,42,16,17,1.0,0.7
2025-12-02T0500,2362A,114.9017,25.9149,赣州市,通天岩,,35,33,39,24,23,45,45,,,8,12,17,19,0.6,0.9
2025-12-02T0500,2363A,114.9367,25.8664,赣州市,地委,,46,43,49,32,30,48,48,,,15,25,6,9,0.7,0.8
2025-12-02T0500,2364A,114.9461,25.8481,赣州市,气象台,颗粒物(PM10),54,57,59,29,27,54,54,,,20,39,6,9,0.8,0.9
2025-12-02T0500,2365A,114.9322,25.8333,赣州市,市图书馆,,49,49,58,29,31,55,55,,,18,35,4,6,0.5,0.6
2025-12-02T0500,2366A,114.8905,25.8471,赣州市,华坚鞋城,颗粒物(PM10),53,55,60,28,26,77,77,,,16,34,9,9,0.6,0.7
2025-12-02T0500,3109A,115.0093,25.8613,赣州市,赣县区卫计委,,48,39,52,33,34,4,4,,,37,38,7,12,0.6,0.7
2025-12-02T0500,2683A,106.2319,36.1417,固原市,马园,,,,,,,,,,,,,,,,
2025-12-02T0500,2684A,106.2792,36.0022,固原市,监测站,颗粒物(PM10),58,66,86,22,26,29,29,,,32,21,6,5,1.0,0.6
2025-12-02T0500,2685A,106.2375,36.0211,固原市,新区,颗粒物(PM10),59,67,87,22,25,23,23,,,33,20,4,5,0.7,0.6
2025-12-02T0500,3522A,106.2177,35.9959,固原市,原州区十五小,颗粒物(PM10),66,81,85,32,29,49,49,,,15,17,7,6,0.8,0.4
2025-12-02T0500,2543A,106.6308,30.5278,广安市,小平旧居,,,,,,,,,,,,,,,,
2025-12-02T0500,2544A,106.6303,30.4576,广安市,市委,细颗粒物(PM2.5),159,142,125,121,107,6,6,,,32,29,3,3,0.9,0.9
2025-12-02T0500,2545A,106.6271,30.4663,广安市,友谊中学,细颗粒物(PM2.5),152,136,122,116,95,7,7,,,25,25,6,6,1.0,1
2025-12-02T0500,2547A,106.6388,30.4551,广安市,广电花园,细颗粒物(PM2.5),173,,95,131,104,10,10,,,23,22,2,2,0.9,0.9
2025-12-02T0500,2902A,106.6351,30.4865,广安市,北辰小学,细颗粒物(PM2.5),143,123,119,109,102,6,6,,,19,19,13,14,0.9,1
2025-12-02T0500,2523A,105.8945,32.4535,广元市,黑石坡,,,,,,,,,,,,,,,,
2025-12-02T0500,2524A,105.821,32.4444,广元市,老城,,38,31,82,26,56,72,72,,,14,46,2,15,0.5,1.1
2025-12-02T0500,2526A,105.8628,32.4287,广元市,监测站,,,,66,56,61,5,5,,,,39,5,12,1.1,1.2
2025-12-02T0500,3617A,105.8047,32.4166,广元市,经开区,,,86,117,64,75,7,7,,,,43,11,22,0.9,1.4
2025-12-02T0500,1345A,113.2347,23.1423,广州市,广雅中学,颗粒物(PM10),72,94,76,38,35,1,1,,,78,69,8,8,1.3,1.2
2025-12-02T0500,1346A,113.2612,23.105,广州市,市五中,颗粒物(PM10),56,62,66,35,35,1,1,,,78,69,9,10,0.9,0.9
2025-12-02T0500,1348A,113.3478,23.0916,广州市,广东商学院,,,116,76,62,43,0,0,,,,66,7,7,1.3,0.9
2025-12-02T0500,1349A,113.4332,23.1047,广州市,市八十六中,颗粒物(PM10),70,89,66,45,37,0,0,,,70,68,8,8,1.1,0.8
2025-12-02T0500,1350A,113.3505,22.9483,广州市,番禺中学,细颗粒物(PM2.5),83,99,74,61,42,3,3,,,77,55,5,5,1.0,0.7
2025-12-02T0500,1351A,113.2146,23.3916,广州市,花都师范,颗粒物(PM10),65,80,55,45,32,2,2,,,83,45,5,5,0.8,0.5
2025-12-02T0500,1352A,113.2597,23.1331,广州市,市监测站,,,97,98,40,40,2,2,,,,77,8,9,0.5,0.5
2025-12-02T0500,1353A,113.5618,23.312,广州市,九龙镇镇龙,,,45,56,26,31,0,0,,,,43,5,7,0.4,0.5
2025-12-02T0500,1354A,113.2765,23.1544,广州市,麓湖,,,50,54,38,33,0,0,,,,61,6,7,0.8,0.7
2025-12-02T0500,1355A,113.443,23.3035,广州市,帽峰山森林公园,,,,,,,,,,,,,,,,
2025-12-02T0500,2846A,113.3221,23.1322,广州市,体育西,,,67,66,38,37,0,0,,,,68,9,9,1.1,1
2025-12-02T0500,3298A,113.5717,23.5491,广州市,从化街口,,,56,55,37,38,0,0,,,,37,6,9,1.0,1
2025-12-02T0500,3299A,113.3472,23.3692,广州市,白云竹料,颗粒物(PM10),62,74,70,38,39,1,1,,,43,46,2,4,1.0,0.9
2025-12-02T0500,3300A,113.2981,23.237,广州市,白云嘉禾,细颗粒物(PM2.5),73,94,74,53,41,0,0,,,65,63,7,7,0.8,0.8
2025-12-02T0500,3301A,113.4256,23.1716,广州市,黄埔科学城,,,57,46,34,26,0,0,,,,41,4,6,0.7,0.6
2025-12-02T0500,3302A,113.3942,23.0483,广州市,番禺大学城,颗粒物(PM10),82,113,77,54,38,2,2,,,89,52,13,14,1.0,0.7
2025-12-02T0500,3303A,113.4922,22.8168,广州市,南沙黄阁,细颗粒物(PM2.5),77,,54,56,36,10,10,,,62,52,6,8,0.7,0.6
2025-12-02T0500,3304A,113.5342,22.7896,广州市,南沙街,细颗粒物(PM2.5),62,53,64,44,36,12,12,,,45,41,4,7,0.6,0.6
2025-12-02T0500,3443A,113.2902,23.5544,广州市,花都梯面,,36,36,33,25,23,0,0,,,31,27,4,6,0.6,0.6
2025-12-02T0500,3445A,113.7858,23.7478,广州市,从化良口,,22,22,24,15,17,14,14,,,25,17,6,7,0.7,0.7
2025-12-02T0500,3446A,113.8051,23.2614,广州市,增城荔城,,,41,34,28,24,8,8,,,,21,4,4,0.6,0.6
2025-12-02T0500,2505A,109.568,23.1478,贵港市,德智高中,,,,,,,,,,,,,,,,
2025-12-02T0500,2506A,109.6047,23.0666,贵港市,江南子站,细颗粒物(PM2.5),97,,90,72,62,22,22,,,34,33,11,12,0.9,0.9
2025-12-02T0500,2508A,109.5669,23.1065,贵港市,荷城子站,细颗粒物(PM2.5),70,68,66,51,45,35,35,,,23,21,10,8,1.0,0.9
2025-12-02T0500,3405A,109.5886,23.1172,贵港市,新世纪学校,细颗粒物(PM2.5),77,78,76,56,49,30,30,,,22,22,11,10,0.6,0.6
2025-12-02T0500,4260A,109.5933,23.0951,贵港市,中山路155-3号,细颗粒物(PM2.5),78,96,74,57,50,16,16,,,39,27,12,11,0.6,0.6
2025-12-02T0500,1439A,106.6899,26.5998,贵阳市,马鞍山,细颗粒物(PM2.5),77,70,78,56,58,3,3,,,32,25,4,6,0.8,0.7
2025-12-02T0500,1441A,106.6243,26.6266,贵阳市,鉴湖路,"颗粒物(PM10),细颗粒物(PM2.5)",67,83,89,48,50,32,32,,,39,32,4,8,0.6,0.7
2025-12-02T0500,1442A,106.7487,26.6343,贵阳市,燕子冲,细颗粒物(PM2.5),92,75,79,68,71,5,5,,,41,28,9,9,0.7,0.6
2025-12-02T0500,1443A,106.6555,26.4365,贵阳市,碧云窝,细颗粒物(PM2.5),85,78,92,63,61,16,16,,,33,21,9,9,0.7,0.7
2025-12-02T0500,1445A,106.7109,26.6027,贵阳市,红边门,细颗粒物(PM2.5),89,70,93,66,71,28,28,,,32,44,12,28,0.6,0.9
2025-12-02T0500,1446A,106.7164,26.5699,贵阳市,新华路,细颗粒物(PM2.5),62,68,100,44,68,62,62,,,14,37,7,15,0.7,1.1
2025-12-02T0500,1447A,106.674,26.5424,贵阳市,太慈桥,细颗粒物(PM2.5),73,73,82,53,59,6,6,,,32,32,5,8,0.6,0.4
2025-12-02T0500,1552A,106.805,26.3003,贵阳市,桐木岭,细颗粒物(PM2.5),62,63,69,44,48,88,88,,,5,5,12,15,1.0,0.9
2025-12-02T0500,4230A,106.6882,26.5695,贵阳市,花果园大街66号,细颗粒物(PM2.5),77,,82,56,66,58,58,,,24,40,7,12,0.6,0.9
2025-12-02T0500,4231A,106.6873,26.5169,贵阳市,漓江路57号,细颗粒物(PM2.5),70,56,83,51,70,49,49,,,23,35,16,20,0.6,0.8
2025-12-02T0500,1862A,110.4144,25.3167,桂林市,电子科大尧山校区,,,,,,,,,,,,,,,,
2025-12-02T0500,1864A,110.3089,25.2708,桂林市,龙隐路小学,细颗粒物(PM2.5),60,46,60,43,43,101,101,,,12,24,10,15,0.4,0.4
2025-12-02T0500,1865A,110.2869,25.2178,桂林市,八中,细颗粒物(PM2.5),60,55,72,43,49,97,97,,,14,33,11,12,0.7,0.8
2025-12-02T0500,3531A,110.296,25.1253,桂林市,旅游学院,细颗粒物(PM2.5),58,61,62,41,45,36,36,,,33,30,6,10,0.4,0.4
2025-12-02T0500,4222A,110.1835,25.2444,桂林市,环湖路276号,细颗粒物(PM2.5),64,68,70,46,48,102,102,,,12,36,9,14,0.3,0.4
2025-12-02T0500,4301A,110.2803,25.2773,桂林市,信义路13号,细颗粒物(PM2.5),70,56,67,51,44,106,106,,,13,36,10,13,0.8,0.8
2025-12-02T0500,2674A,100.2561,34.4714,果洛藏族自治州,玛沁县大武镇,,34,34,43,12,13,30,30,,,4,6,20,18,0.4,0.4
2025-12-02T0500,1129A,126.5422,45.755,哈尔滨市,岭北,,,,,,,,,,,,,,,,
2025-12-02T0500,1130A,126.561,45.8167,哈尔滨市,松北商大,,39,32,59,27,46,30,30,,,23,28,6,13,0.5,0.7
2025-12-02T0500,1131A,126.979,45.5419,哈尔滨市,阿城会宁,,50,41,80,35,70,18,18,,,25,28,6,8,0.6,0.8
2025-12-02T0500,1132A,126.599,45.7222,哈尔滨市,南岗学府路,,26,26,77,14,50,29,29,,,21,28,9,12,0.4,0.7
2025-12-02T0500,1133A,126.689,45.7733,哈尔滨市,太平宏伟公园,,28,24,64,19,45,36,36,,,15,26,16,19,0.5,0.7
2025-12-02T0500,1134A,126.635,45.7667,哈尔滨市,道外承德广场,,41,41,88,21,49,32,32,,,35,33,20,20,0.5,0.7
2025-12-02T0500,1135A,126.685,45.7319,哈尔滨市,香坊红旗大街,,31,31,78,19,54,36,36,,,16,29,26,14,0.5,0.8
2025-12-02T0500,1136A,126.6411,45.7258,哈尔滨市,动力和平路,,34,34,78,16,53,36,36,,,14,30,6,9,0.5,0.8
2025-12-02T0500,1137A,126.593,45.7478,哈尔滨市,道里建国路,,33,,67,23,55,28,28,,,22,31,3,9,0.4,0.7
2025-12-02T0500,1138A,126.615,45.61,哈尔滨市,平房东轻厂,细颗粒物(PM2.5),64,54,81,46,66,9,9,,,32,41,7,11,0.6,0.7
2025-12-02T0500,1139A,126.595,45.9855,哈尔滨市,呼兰师专,,39,31,84,27,41,26,26,,,14,22,6,8,0.6,0.8
2025-12-02T0500,1140A,126.6206,45.6842,哈尔滨市,省农科院,,37,37,87,25,57,26,26,,,28,36,2,5,0.6,0.8
2025-12-02T0500,2688A,93.5128,42.8172,哈密市,地区监测站,,30,30,62,16,22,38,38,,,16,28,14,15,0.2,0.3
2025-12-02T0500,2689A,93.4961,42.8328,哈密市,哈密师范学校,,33,33,47,18,24,32,32,,,22,29,8,8,0.6,0.5
2025-12-02T0500,2671A,100.9048,36.9639,海北藏族自治州,海晏县西海镇,,21,,24,11,15,65,65,,,2,3,8,9,0.4,0.3
2025-12-02T0500,3867A,102.0738,36.5056,海东市,平安区公安北苑,颗粒物(PM10),55,60,72,36,38,53,53,,,5,21,10,22,0.7,0.9
2025-12-02T0500,1409A,110.576,19.9507,海口市,东寨港,,,,,,,,,,,,,,,,
2025-12-02T0500,1410A,110.3232,20.0574,海口市,海南大学,,32,32,52,20,29,69,69,,,8,10,5,5,0.5,0.5
2025-12-02T0500,1411A,110.283,20.0053,海口市,秀英海南医院,,32,32,42,19,29,64,64,,,9,12,6,7,0.3,0.4
2025-12-02T0500,1412A,110.338,19.9969,海口市,海南师范大学,,34,34,41,21,30,70,70,,,8,11,5,5,0.5,0.5
2025-12-02T0500,1413A,110.33,20.0356,海口市,龙华路环保局宿舍,,30,28,41,21,30,69,69,,,9,12,7,7,0.7,0.7
2025-12-02T0500,3539A,110.5111,19.9736,海口市,桂林洋子站,,34,34,48,22,29,51,51,,,11,11,6,6,0.3,0.3
2025-12-02T0500,2673A,100.6188,36.2866,海南藏族自治州,共和县恰卜恰镇,,28,20,25,9,11,89,89,,,1,11,11,12,0.5,0.5
2025-12-02T0500,2676A,97.3731,37.3753,海西蒙古族藏族自治州,德令哈市,,21,13,27,7,9,66,66,,,8,12,17,17,0.5,0.6
2025-12-02T0500,1048A,114.5302,36.6116,邯郸市,东污水处理厂,,45,45,108,30,62,22,22,,,28,28,4,5,0.3,0.4
2025-12-02T0500,1049A,114.4918,36.5713,邯郸市,矿院,细颗粒物(PM2.5),58,58,91,41,53,29,29,,,24,29,4,4,0.4,0.4
2025-12-02T0500,1050A,114.484,36.6133,邯郸市,丛台公园,,43,43,99,24,35,34,34,,,20,23,4,6,0.4,0.4
2025-12-02T0500,3458A,114.7895,36.5593,邯郸市,香泉濮院小区,,,45,133,27,57,17,17,,,,29,8,9,0.4,0.5
2025-12-02T0500,3579A,114.50634,36.77178,邯郸市,永年区实验高中,颗粒物(PM10),52,53,111,15,31,28,28,,,24,32,3,4,0.4,0.4
2025-12-02T0500,3580A,114.20016,36.44293,邯郸市,峰峰矿区临水派出所,,49,36,84,34,46,35,35,,,26,21,5,6,0.5,0.4
2025-12-02T0500,2634A,106.9893,33.1842,汉中市,汉川机床厂子校,,,,,,,,,,,,,,,,
2025-12-02T0500,2635A,107.0154,33.0706,汉中市,市监测站,细颗粒物(PM2.5),108,84,93,81,75,13,13,,,23,35,4,7,1.0,1.1
2025-12-02T0500,2636A,107.0089,33.1138,汉中市,鑫源开发区,细颗粒物(PM2.5),110,101,90,83,65,13,13,,,35,39,5,12,1.1,1.1
2025-12-02T0500,2637A,107.007,33.0323,汉中市,南郑大河坎水厂,细颗粒物(PM2.5),92,83,95,68,80,6,6,,,20,31,8,10,1.0,1.2
2025-12-02T0500,1223A,120.2072,30.2111,杭州市,滨江,颗粒物(PM10),74,97,135,28,53,26,26,,,41,45,8,9,0.5,0.7
2025-12-02T0500,1224A,120.0633,30.2747,杭州市,西溪,颗粒物(PM10),79,107,124,44,62,0,0,,,34,36,8,9,0.6,0.6
2025-12-02T0500,1226A,120.3417,30.3150,杭州市,下沙,颗粒物(PM10),74,98,155,38,83,14,14,,,55,48,6,8,0.6,0.8
2025-12-02T0500,1227A,120.1269,30.2456,杭州市,卧龙桥,颗粒物(PM10),62,73,116,34,62,2,2,,,24,33,8,10,0.6,0.7
2025-12-02T0500,1228A,120.1903,30.2692,杭州市,浙江农大,,,63,120,25,65,19,19,,,,56,7,9,0.7,0.9
2025-12-02T0500,1230A,120.1197,30.3119,杭州市,和睦小学,颗粒物(PM10),70,89,160,34,68,30,30,,,40,42,9,10,0.6,0.9
2025-12-02T0500,1231A,120.3019,30.4183,杭州市,临平镇,颗粒物(PM10),68,85,141,29,82,22,22,,,42,42,7,9,0.7,0.9
2025-12-02T0500,1232A,120.2753,30.1839,杭州市,城厢镇,颗粒物(PM10),77,103,132,35,76,17,17,,,51,51,8,9,0.4,0.6
2025-12-02T0500,1233A,120.0883,30.1808,杭州市,云栖,,,81,128,37,71,6,6,,,,39,4,5,0.7,0.9
2025-12-02T0500,3557A,119.9464,30.0494,杭州市,镇二中,"颗粒物(PM10),细颗粒物(PM2.5)",107,163,153,80,93,6,6,,,60,49,5,7,1.2,1.2
2025-12-02T0500,3558A,119.7183,30.2367,杭州市,市府大楼,细颗粒物(PM2.5),144,200,219,110,115,21,21,,,29,44,10,12,0.7,0.6
2025-12-02T0500,3656A,120.1556,30.2864,杭州市,消防大队,,,100,144,34,86,39,39,,,,45,5,7,0.5,0.7
2025-12-02T0500,1270A,117.1959,31.7848,合肥市,明珠广场,颗粒物(PM10),78,105,168,31,58,27,27,,,28,38,6,8,0.7,0.8
2025-12-02T0500,1271A,117.3072,31.8764,合肥市,三里街,颗粒物(PM10),69,88,156,27,51,28,28,,,29,41,4,6,0.8,0.9
2025-12-02T0500,1272A,117.2588,31.8707,合肥市,琥珀山庄,颗粒物(PM10),68,85,159,39,55,33,33,,,24,31,6,8,0.6,0.7
2025-12-02T0500,1273A,117.1604,31.9052,合肥市,董铺水库,,,,,,,,,,,,,,,,
2025-12-02T0500,1274A,117.25,31.8571,合肥市,长江中路,颗粒物(PM10),73,95,161,33,58,33,33,,,22,29,7,8,0.7,0.7
2025-12-02T0500,1275A,117.266,31.9436,合肥市,庐阳区,颗粒物(PM10),71,92,168,29,55,33,33,,,28,36,7,8,0.7,0.8
2025-12-02T0500,1276A,117.3453,31.8616,合肥市,瑶海区,颗粒物(PM10),70,90,164,32,53,34,34,,,30,39,5,7,0.7,0.8
2025-12-02T0500,1277A,117.3027,31.7964,合肥市,包河区,颗粒物(PM10),74,97,168,39,60,17,17,,,45,64,8,10,0.8,0.9
2025-12-02T0500,1278A,117.2776,31.7385,合肥市,滨湖新区,颗粒物(PM10),75,100,171,39,64,30,30,,,30,38,6,8,0.7,0.8
2025-12-02T0500,1279A,117.1318,31.8403,合肥市,高新区,颗粒物(PM10),74,97,159,34,56,36,36,,,34,42,8,7,0.7,0.9
2025-12-02T0500,3464A,117.3803,31.9147,合肥市,高教基地,颗粒物(PM10),64,78,163,33,53,27,27,,,22,28,6,8,0.5,0.6
2025-12-02T0500,3614A,79.924,37.0877,和田地区,地区环保局,颗粒物(PM10),107,163,183,55,58,63,63,,,20,32,1,5,1.1,1.5
2025-12-02T0500,3615A,79.9131,37.113,和田地区,市环保局,颗粒物(PM10),102,153,175,69,65,53,53,,,32,57,3,6,0.5,1.8
2025-12-02T0500,2516A,108.2011,24.715,河池市,东仁乐园,,,,,,,,,,,,,,,,
2025-12-02T0500,2517A,108.0497,24.6947,河池市,市环保站,细颗粒物(PM2.5),77,68,74,56,53,1,1,,,37,29,3,5,0.8,0.8
2025-12-02T0500,2518A,108.0983,24.6989,河池市,市疾控中心,细颗粒物(PM2.5),74,75,78,54,54,0,0,,,38,38,5,8,0.8,0.8
2025-12-02T0500,1696A,114.6778,23.7569,河源市,源西,,,,,,,,,,,,,,,,
2025-12-02T0500,1697A,114.6944,23.7586,河源市,东埔,,,24,33,22,25,0,0,,,,33,5,5,0.6,0.7
2025-12-02T0500,1698A,114.6892,23.7233,河源市,老城,,24,24,27,14,18,4,4,,,26,22,5,5,0.6,0.6
2025-12-02T0500,1718A,115.4208,35.2464,菏泽市,气象局,颗粒物(PM10),81,112,208,44,72,11,11,,,35,44,9,9,0.6,0.6
2025-12-02T0500,3374A,115.5564,35.0891,菏泽市,定陶老年大学,颗粒物(PM10),93,136,211,48,67,6,6,,,54,51,10,11,0.7,0.6
2025-12-02T0500,4184A,115.4797,35.24401,菏泽市,永昌路1号,,,116,207,45,67,10,10,,,,53,9,9,0.6,0.6
2025-12-02T0500,4193A,115.4715,35.2800,菏泽市,长城路999号,颗粒物(PM10),82,114,207,38,75,8,8,,,36,51,2,7,0.9,0.9
2025-12-02T0500,2514A,111.5264,24.4172,贺州市,环保小区,,46,46,44,30,34,2,2,,,17,24,4,5,1.0,1.1
2025-12-02T0500,2515A,111.5608,24.4078,贺州市,政协大楼,,33,33,43,21,28,0,0,,,21,26,6,6,0.7,0.9
2025-12-02T0500,3534A,111.4744,24.4553,贺州市,西湾,,40,40,38,27,28,1,1,,,19,23,5,6,0.8,0.7
2025-12-02T0500,2385A,114.17,35.9019,鹤壁市,市监测站,,50,50,134,27,48,28,28,,,21,23,6,8,0.5,0.5
2025-12-02T0500,2386A,114.2956,35.7511,鹤壁市,市交警支队,颗粒物(PM10),59,67,159,24,47,17,17,,,29,32,4,6,0.7,0.6
2025-12-02T0500,2387A,114.2878,35.7306,鹤壁市,迎宾馆,颗粒物(PM10),64,77,182,24,48,19,19,,,22,30,7,9,0.7,0.7
2025-12-02T0500,3474A,114.2617,35.6822,鹤壁市,大新区,颗粒物(PM10),65,80,180,18,46,25,25,,,25,30,8,7,0.8,0.7
2025-12-02T0500,3596A,114.1572,35.9603,鹤壁市,南山宾馆,颗粒物(PM10),65,79,172,15,37,28,28,,,20,18,4,6,0.6,0.6
2025-12-02T0500,2244A,130.2537,47.3416,鹤岗市,哈啤分公司,,22,22,24,14,17,62,62,,,4,7,12,13,0.5,0.6
2025-12-02T0500,2245A,130.2684,47.3086,鹤岗市,斯达机电,,20,19,30,14,16,63,63,,,7,10,12,13,0.6,0.7
2025-12-02T0500,2246A,130.3114,47.3388,鹤岗市,东山纸板厂,,32,,25,22,18,39,39,,,29,20,16,14,1.9,0.7
2025-12-02T0500,2247A,130.1097,47.3382,鹤岗市,五号水库,,,,,,,,,,,,,,,,
2025-12-02T0500,2263A,127.4833,50.2524,黑河市,交通局,,17,,14,11,14,52,52,,,1,10,4,4,0.3,0.3
2025-12-02T0500,2264A,127.5144,50.2341,黑河市,环保局,,22,,15,15,17,53,53,,,6,8,2,3,0.3,0.3
2025-12-02T0500,2265A,127.5291,50.2472,黑河市,大黑河岛,,,,,,,,,,,,,,,,
2025-12-02T0500,1074A,115.6838,37.7541,衡水市,电机北厂,,32,32,85,11,26,49,49,,,10,26,4,7,0.2,0.4
2025-12-02T0500,1075A,115.6303,37.7316,衡水市,市监测站,,45,45,73,13,21,55,55,,,8,28,9,10,0.2,0.4
2025-12-02T0500,3188A,115.6683,37.7217,衡水市,市城管局,,43,43,85,16,25,44,44,,,6,27,3,5,0.3,0.4
2025-12-02T0500,3459A,115.5989,37.5491,衡水市,地表水厂,,,29,78,9,23,52,52,,,,25,3,6,0.2,0.3
2025-12-02T0500,2456A,112.5003,26.9167,衡阳市,原169医院,,,,,,,,,,,,,,,,
2025-12-02T0500,2457A,112.6194,26.9258,衡阳市,衡阳化工总厂,细颗粒物(PM2.5),109,115,104,82,78,47,47,,,31,26,8,16,1.0,1.1
2025-12-02T0500,2458A,112.6211,26.8956,衡阳市,珠晖区环保局,细颗粒物(PM2.5),102,99,93,76,68,18,18,,,58,32,4,11,1.3,1.3
2025-12-02T0500,2459A,112.6197,26.8733,衡阳市,市委党校,细颗粒物(PM2.5),107,110,92,80,72,50,50,,,26,20,15,21,1.4,1.3
2025-12-02T0500,2460A,112.6006,26.8919,衡阳市,市监测站,细颗粒物(PM2.5),103,127,118,77,78,66,66,,,23,26,8,14,1.1,1.3
2025-12-02T0500,2461A,112.5664,26.9056,衡阳市,真空机电公司,细颗粒物(PM2.5),105,118,98,79,79,72,72,,,19,30,9,16,1.1,1.3
2025-12-02T0500,3399A,112.6703,26.882,衡阳市,师范学院,细颗粒物(PM2.5),90,124,104,67,60,41,41,,,37,24,15,19,1.3,1.2
2025-12-02T0500,2608A,103.3772,23.3993,红河哈尼族彝族自治州,污水处理厂,,42,30,43,29,33,17,17,,,16,16,8,17,0.1,0.1
2025-12-02T0500,2609A,103.3861,23.35,红河哈尼族彝族自治州,监测站,细颗粒物(PM2.5),58,51,43,41,32,38,38,,,13,11,9,10,0.3,0.3
2025-12-02T0500,3038A,103.3758,23.368,红河哈尼族彝族自治州,州图书馆,,36,36,35,21,20,42,42,,,13,10,15,11,0.7,0.6
2025-12-02T0500,1090A,111.6507,40.7517,呼和浩特市,呼市一监,,17,6,24,3,6,52,52,,,9,12,3,4,0.0,0.1
2025-12-02T0500,1091A,111.6572,40.8033,呼和浩特市,小召,,20,,18,3,7,62,62,,,7,14,5,5,0.3,0.4
2025-12-02T0500,1094A,111.7516,40.8369,呼和浩特市,如意水处理厂,,16,8,19,3,6,50,50,,,5,12,6,8,0.2,0.3
2025-12-02T0500,1095A,111.7276,40.8062,呼和浩特市,二十九中,,18,8,21,3,8,55,55,,,9,13,9,11,0.3,0.3
2025-12-02T0500,1096A,111.5512,40.7866,呼和浩特市,工大金川校区,,,8,28,3,8,50,50,,,,20,5,7,,0.2
2025-12-02T0500,1097A,111.717,40.7612,呼和浩特市,化肥厂生活区,,15,13,22,3,10,45,45,,,17,14,5,6,0.4,0.5
2025-12-02T0500,3698A,111.5968,40.8178,呼和浩特市,红旗小学,,16,,15,3,6,50,50,,,9,12,8,9,0.3,0.4
2025-12-02T0500,3699A,111.6518,40.8389,呼和浩特市,海东办,,20,6,14,3,7,62,62,,,5,11,3,4,0.2,0.2
2025-12-02T0500,3061A,119.7512,49.1577,呼伦贝尔市,国华电力东,,33,,25,23,15,55,55,,,8,11,9,9,0.3,0.3
2025-12-02T0500,4279A,119.7569,49.2222,呼伦贝尔市,伊敏大街东7号,,32,,29,22,21,51,51,,,4,8,6,7,0.9,0.9
2025-12-02T0500,1250A,120.0751,30.8669,湖州市,城西水厂,颗粒物(PM10),67,83,126,27,64,50,50,,,26,39,9,10,0.5,0.7
2025-12-02T0500,2873A,120.0830,30.8929,湖州市,仁皇山新区,,,85,126,27,63,49,49,,,,40,8,10,0.6,0.7
2025-12-02T0500,2907A,120.1844,30.8596,湖州市,吴兴区站,颗粒物(PM10),71,91,137,27,58,40,40,,,25,37,7,8,1.0,1.1
2025-12-02T0500,3562A,120.4148,30.8538,湖州市,南浔区站,颗粒物(PM10),61,71,124,30,65,19,19,,,33,30,6,7,0.7,0.9
2025-12-02T0500,1607A,120.9049,40.7211,葫芦岛市,龙港区,,20,8,38,6,17,62,62,,,7,18,11,12,0.6,0.6
2025-12-02T0500,1608A,120.8392,40.7514,葫芦岛市,化工街,,19,7,30,3,9,59,59,,,9,19,6,12,0.2,0.4
2025-12-02T0500,1609A,120.8341,40.7073,葫芦岛市,新区,,21,21,25,6,9,62,62,,,6,18,11,9,0.5,0.6
2025-12-02T0500,1610A,120.8695,40.7677,葫芦岛市,东城区,,,,25,4,11,65,65,,,6,18,7,14,0.4,0.6
2025-12-02T0500,2482A,109.5981,27.5721,怀化市,林科所,,,,,,,,,,,,,,,,
2025-12-02T0500,2483A,109.9453,27.5444,怀化市,河西地税局,"颗粒物(PM10),细颗粒物(PM2.5)",73,95,75,53,47,72,72,,,16,22,9,9,0.6,0.5
2025-12-02T0500,2484A,109.9781,27.5342,怀化市,市四医院,,,91,80,50,49,80,80,,,,20,20,18,0.5,0.5
2025-12-02T0500,2485A,109.9972,27.5578,怀化市,监测楼,细颗粒物(PM2.5),67,80,77,48,49,58,58,,,16,22,11,6,0.2,0.3
2025-12-02T0500,2486A,110.0394,27.583,怀化市,市委党校,颗粒物(PM10),74,98,80,51,51,84,84,,,10,26,15,20,0.5,0.6
2025-12-02T0500,1210A,119.036,33.5981,淮安市,钵池山,,36,36,88,24,35,41,41,,,20,25,8,8,0.5,0.6
2025-12-02T0500,1211A,119.007,33.575,淮安市,北京南路,,39,39,93,18,30,43,43,,,15,20,6,7,0.6,0.7
2025-12-02T0500,1212A,118.989,33.6067,淮安市,市监测站,,36,36,89,9,23,41,41,,,20,23,7,8,0.4,0.7
2025-12-02T0500,1213A,119.135,33.5039,淮安市,楚州区监测站,,32,32,94,12,25,52,52,,,16,22,9,9,0.1,0.2
2025-12-02T0500,3426A,118.8755,33.2894,淮安市,新华书店,颗粒物(PM10),51,52,103,22,30,29,29,,,32,26,12,10,0.5,0.6
2025-12-02T0500,4206A,119.0288,33.6319,淮安市,承德北路606号,颗粒物(PM10),52,53,106,24,34,25,25,,,27,25,6,7,0.4,0.6
2025-12-02T0500,2282A,116.8004,33.975,淮北市,监测站,颗粒物(PM10),75,100,140,46,39,24,24,,,35,35,8,9,0.6,0.6
2025-12-02T0500,2283A,116.8091,33.9007,淮北市,烈山区政府,颗粒物(PM10),72,93,145,49,40,17,17,,,43,34,8,10,0.4,0.4
2025-12-02T0500,3330A,116.8873,33.9836,淮北市,杜集区检察院,"颗粒物(PM10),细颗粒物(PM2.5)",69,87,130,50,44,12,12,,,39,28,4,6,0.6,0.5
2025-12-02T0500,4017A,116.7923,33.9535,淮北市,市博物馆,颗粒物(PM10),75,99,139,48,49,25,25,,,34,30,10,12,0.5,0.4
2025-12-02T0500,2277A,116.8305,32.7727,淮南市,潘集区政府,,,91,190,55,73,12,12,,,,29,5,6,0.8,0.8
2025-12-02T0500,2279A,116.8569,32.5951,淮南市,谢家集区政府,颗粒物(PM10),73,96,152,38,44,28,28,,,29,31,9,9,0.7,0.7
2025-12-02T0500,2280A,116.8281,32.633,淮南市,八公山区政府,颗粒物(PM10),84,117,162,48,48,8,8,,,30,26,6,7,0.7,0.6
2025-12-02T0500,2281A,116.6325,32.6201,淮南市,焦岗湖风景区管理处,,,,,,,,,,,,,,,,
2025-12-02T0500,2894A,117.0566,32.6531,淮南市,经济技术开发区消防队,,,98,166,37,49,28,28,,,,36,1,2,0.5,0.5
2025-12-02T0500,3329A,117.0108,32.5893,淮南市,山南新区,颗粒物(PM10),79,108,195,45,50,45,45,,,23,29,4,5,0.5,0.5
2025-12-02T0500,4209A,117.0031,32.6445,淮南市,国庆中路369号,颗粒物(PM10),80,110,144,34,44,31,31,,,24,32,5,6,0.6,0.7
2025-12-02T0500,2446A,114.9028,30.4742,黄冈市,职工中心,细颗粒物(PM2.5),82,112,92,60,58,44,44,,,27,27,6,8,0.6,0.6
2025-12-02T0500,2929A,114.8858,30.4519,黄冈市,红卫路,细颗粒物(PM2.5),89,104,87,66,66,41,41,,,20,22,4,7,0.8,0.8
2025-12-02T0500,3398A,114.9136,30.4445,黄冈市,市林业局,细颗粒物(PM2.5),99,126,105,74,63,47,47,,,27,31,5,6,0.8,0.8
2025-12-02T0500,2672A,102.0199,35.5102,黄南藏族自治州,同仁县隆务镇,,35,35,29,10,10,48,48,,,1,5,10,10,0.2,0.2
2025-12-02T0500,2295A,118.2903,29.6963,黄山市,延安路89号,,42,42,53,26,33,15,15,,,19,20,3,4,0.6,0.6
2025-12-02T0500,2297A,118.1371,30.2756,黄山市,黄山区政府5号楼,细颗粒物(PM2.5),102,89,75,76,56,16,16,,,,13,5,7,1.0,1
2025-12-02T0500,4210A,118.3354,29.7203,黄山市,滨江东路7-2号,"颗粒物(PM10),细颗粒物(PM2.5)",55,60,67,39,44,14,14,,,13,20,4,4,0.5,0.5
2025-12-02T0500,2423A,115.0601,30.2313,黄石市,沈家营,"颗粒物(PM10),细颗粒物(PM2.5)",98,145,119,73,72,27,27,,,29,37,6,14,1.3,1.4
2025-12-02T0500,2426A,114.8988,30.2019,黄石市,铁山,细颗粒物(PM2.5),129,136,112,98,82,1,1,,,80,54,7,13,0.5,0.6
2025-12-02T0500,2427A,115.0307,30.2092,黄石市,团城山,细颗粒物(PM2.5),118,143,115,89,73,31,31,,,35,44,6,11,0.8,1
2025-12-02T0500,3149A,115.0235,30.1578,黄石市,笔架山北路,颗粒物(PM10),140,230,157,103,77,3,3,,,63,39,15,14,1.9,1.3
2025-12-02T0500,4185A,115.0780,30.21118,黄石市,磁湖东路29号,细颗粒物(PM2.5),128,146,127,97,84,26,26,,,28,47,8,17,0.9,1.1
2025-12-02T0500,1392A,114.4183,23.0528,惠州市,河南岸金山湖子站,,,35,41,17,25,29,29,,,,30,2,3,0.7,0.7
2025-12-02T0500,1393A,114.4053,23.0822,惠州市,下埔横江三路子站,,37,37,41,23,26,34,34,,,17,27,6,6,0.7,0.9
2025-12-02T0500,1394A,114.4103,23.1142,惠州市,江北云山西路子站,,45,45,38,26,24,32,32,,,35,32,8,8,0.5,0.6
2025-12-02T0500,1395A,114.4645,22.7833,惠州市,惠阳区承修路船湖子站,,,30,27,16,16,63,63,,,,17,6,6,0.6,0.5
2025-12-02T0500,1396A,114.5317,22.7422,惠州市,大亚湾管委会子站,,,33,29,11,13,71,71,,,,17,6,5,0.6,0.7
2025-12-02T0500,3314A,114.4338,22.8134,惠州市,惠阳秋长,,,29,30,12,18,68,68,,,22,20,,8,0.6,0.5
2025-12-02T0500,3452A,114.6517,22.775,惠州市,大亚湾霞涌,,,22,23,15,16,63,63,,,16,24,,5,0.5,0.6
2025-12-02T0500,2240A,130.9762,45.3001,鸡西市,环保局,,36,34,29,25,21,44,44,,,9,12,6,6,0.6,0.6
2025-12-02T0500,2243A,130.9429,45.3039,鸡西市,第一中学,,30,30,29,21,22,42,42,,,9,9,6,6,0.3,0.3
2025-12-02T0500,3707A,131.0207,45.3073,鸡西市,欧美日汽修厂,,35,35,35,24,26,40,40,,,13,20,10,9,0.5,0.5
2025-12-02T0500,3709A,130.9967,45.3106,鸡西市,市政设施管理处,,38,38,32,21,22,39,39,,,17,22,9,9,0.6,0.6
2025-12-02T0500,2367A,114.9754,27.0803,吉安市,红声器材厂,细颗粒物(PM2.5),53,54,66,37,35,47,47,,,23,25,9,12,0.9,0.8
2025-12-02T0500,2368A,114.9658,27.0999,吉安市,市森林工业局,颗粒物(PM10),59,67,66,40,37,50,50,,,22,25,10,14,0.5,0.5
2025-12-02T0500,2369A,114.99,27.1312,吉安市,市环境监测站,细颗粒物(PM2.5),60,64,62,43,36,50,50,,,22,22,17,19,0.5,0.5
2025-12-02T0500,2370A,115.0093,27.0968,吉安市,青原区法院,颗粒物(PM10),59,67,66,40,38,11,11,,,46,31,9,14,0.7,0.7
2025-12-02T0500,1772A,126.54,43.8622,吉林市,哈达湾,颗粒物(PM10),56,61,46,11,28,56,56,,,6,11,7,8,0.6,0.7
2025-12-02T0500,1773A,126.5844,43.8358,吉林市,东局子,,47,47,44,3,22,52,52,,,5,12,6,8,0.5,0.6
2025-12-02T0500,1774A,126.5052,43.8245,吉林市,电力学院,,49,49,41,10,27,57,57,,,2,11,7,8,0.7,0.8
2025-12-02T0500,1775A,126.6133,43.8972,吉林市,江北,,37,37,39,6,23,52,52,,,5,10,4,5,0.7,0.8
2025-12-02T0500,1776A,126.555,43.8306,吉林市,江南公园,,42,42,40,8,28,54,54,,,5,13,6,7,0.3,0.5
2025-12-02T0500,1778A,126.7061,43.7133,吉林市,丰满,,43,43,30,3,24,46,46,,,2,6,8,9,0.4,0.5
2025-12-02T0500,2868A,126.4739,43.953,吉林市,九站,颗粒物(PM10),78,105,52,12,31,59,59,,,10,14,1,2,0.8,0.9
2025-12-02T0500,1299A,116.9862,36.6114,济南市,科干所,,,,104,17,34,28,28,,,24,34,13,16,0.7,0.7
2025-12-02T0500,1300A,116.9376,36.665,济南市,农科所,,46,46,104,10,28,21,21,,,30,35,14,14,0.6,0.7
2025-12-02T0500,1301A,117.1265,36.6734,济南市,开发区,,46,46,110,17,35,24,24,,,26,38,9,12,0.8,0.9
2025-12-02T0500,1303A,117.0624,36.6868,济南市,省种子仓库,,,53,118,22,35,23,23,,,,36,15,16,0.7,0.7
2025-12-02T0500,1304A,116.9489,36.6447,济南市,机床二厂,颗粒物(PM10),51,51,115,17,36,24,24,,,26,34,14,17,0.4,0.6
2025-12-02T0500,1305A,117.0495,36.663,济南市,市监测站,颗粒物(PM10),52,54,112,15,37,25,25,,,22,35,7,10,0.5,0.6
2025-12-02T0500,1306A,116.7675,36.5484,济南市,长清党校,,44,44,110,3,23,19,19,,,35,39,11,13,0.7,0.7
2025-12-02T0500,1616A,117.6795,36.229,济南市,技术学院,细颗粒物(PM2.5),83,90,109,61,55,10,10,,,43,47,11,16,0.9,1
2025-12-02T0500,1961A,117.532,36.6868,济南市,东山小学,颗粒物(PM10),51,51,105,17,31,33,33,,,26,37,17,15,0.8,0.7
2025-12-02T0500,3059A,117.7161,36.2049,济南市,泰兴公司,细颗粒物(PM2.5),98,105,117,73,48,11,11,,,41,46,8,11,0.5,0.6
2025-12-02T0500,3064A,117.6867,36.2171,济南市,莱芜战役纪念馆,细颗粒物(PM2.5),89,92,110,66,48,14,14,,,38,44,9,13,0.9,1
2025-12-02T0500,3494A,117.1673,36.9782,济南市,济阳区政府,,42,42,97,3,25,32,32,,,23,28,13,17,0.4,0.6
2025-12-02T0500,3495A,117.1171,36.63,济南市,锦屏中学,,44,44,99,12,26,32,32,,,23,35,10,9,0.8,0.8
2025-12-02T0500,3682A,116.9814,36.6819,济南市,济南四建,,46,46,108,15,31,22,22,,,28,37,10,14,0.6,0.7
2025-12-02T0500,1653A,116.6251,35.4302,济宁市,火炬城,颗粒物(PM10),101,152,156,73,57,4,4,,,55,40,8,8,0.4,0.2
2025-12-02T0500,1655A,116.5491,35.4042,济宁市,电化厂,颗粒物(PM10),118,186,178,68,56,4,4,,,,46,12,9,0.6,0.4
2025-12-02T0500,3500A,116.5814,35.3707,济宁市,北湖一中,细颗粒物(PM2.5),100,142,133,75,51,3,3,,,59,34,8,8,0.8,0.5
2025-12-02T0500,3501A,116.8249,35.5593,济宁市,服务中心,颗粒物(PM10),111,172,167,72,59,1,1,,,52,42,12,11,0.5,0.3
2025-12-02T0500,3678A,116.5907,35.4054,济宁市,市第七中学,颗粒物(PM10),99,147,156,73,47,6,6,,,61,37,10,9,0.7,0.5
2025-12-02T0500,2255A,130.2751,46.8028,佳木斯市,佳纺,,25,25,36,16,30,19,19,,,30,26,2,5,0.8,0.8
2025-12-02T0500,2256A,130.3995,46.8307,佳木斯市,发电厂,,22,22,23,12,18,10,10,,,40,19,3,4,0.6,0.5
2025-12-02T0500,2257A,130.3258,46.7975,佳木斯市,环保局,,18,17,26,12,22,11,11,,,36,24,4,4,0.4,0.4
2025-12-02T0500,2258A,130.3648,46.8032,佳木斯市,十一中,,28,20,23,19,22,20,20,,,40,21,8,5,0.4,0.5
2025-12-02T0500,2259A,130.3794,46.7588,佳木斯市,四丰,,,,,,,,,,,,,,,,
2025-12-02T0500,1252A,120.7436,30.778,嘉兴市,清河小学,颗粒物(PM10),53,55,128,27,70,12,12,,,60,58,4,6,0.7,0.9
2025-12-02T0500,1253A,120.726,30.7478,嘉兴市,嘉兴学院,颗粒物(PM10),60,70,136,23,63,18,18,,,49,38,6,7,0.7,1
2025-12-02T0500,2872A,120.7846,30.7525,嘉兴市,南湖区残联,颗粒物(PM10),58,65,120,24,63,7,7,,,55,39,3,6,0.7,0.8
2025-12-02T0500,3407A,120.6916,30.7739,嘉兴市,秀洲住建,颗粒物(PM10),58,66,127,25,71,12,12,,,56,48,6,7,0.8,1
2025-12-02T0500,1945A,98.2908,39.7711,嘉峪关市,气象局,,31,31,41,17,17,76,76,,,13,16,16,16,0.7,0.9
2025-12-02T0500,2884A,98.2672,39.7978,嘉峪关市,酒钢宾馆,,31,31,48,19,18,75,75,,,9,19,15,34,0.5,1.2
2025-12-02T0500,3248A,98.2643,39.7724,嘉峪关市,雄关区,,35,35,42,22,22,61,61,,,30,22,11,21,0.7,1.2
2025-12-02T0500,1383A,113.1064,22.6058,江门市,北街,,,78,68,45,51,0,0,,,,42,6,7,0.8,0.7
2025-12-02T0500,1384A,113.0731,22.5835,江门市,西区,,,73,62,52,41,9,9,,,,46,6,7,0.8,0.7
2025-12-02T0500,1385A,113.0219,22.5311,江门市,圭峰西,细颗粒物(PM2.5),118,,57,89,44,31,31,,,,33,4,4,0.7,0.6
2025-12-02T0500,1386A,113.0828,22.5947,江门市,东湖,细颗粒物(PM2.5),69,79,66,50,37,0,0,,,69,43,9,10,0.7,0.6
2025-12-02T0500,3311A,113.1075,22.5647,江门市,江海富民,细颗粒物(PM2.5),113,127,91,85,49,23,23,,,45,38,13,12,0.9,0.8
2025-12-02T0500,3449A,113.05,22.4667,江门市,新会银湖,细颗粒物(PM2.5),112,,60,84,55,0,0,,,49,33,5,6,0.7,0.6
2025-12-02T0500,1830A,113.1992,35.2590,焦作市,影视城,,,,199,,42,,,68,,,16,,13,,0.7
2025-12-02T0500,3335A,113.3137,35.2641,焦作市,马村街道办,颗粒物(PM10),85,119,212,42,69,24,24,,,24,24,6,7,0.5,0.4
2025-12-02T0500,3336A,113.2465,35.2373,焦作市,焦作技师学院,颗粒物(PM10),99,148,213,39,54,23,23,,,25,23,7,7,0.9,0.7
2025-12-02T0500,3477A,113.1656,35.2539,焦作市,中站许衡医院,颗粒物(PM10),107,163,211,56,54,30,30,,,22,21,6,5,0.5,0.4
2025-12-02T0500,3981A,113.2449,35.1803,焦作市,原李万街道办,颗粒物(PM10),80,110,229,36,56,28,28,,,16,21,5,6,0.6,0.6
2025-12-02T0500,4264A,113.2340,35.2190,焦作市,新安路1731号,颗粒物(PM10),101,152,228,64,71,24,24,,,26,25,21,11,1.1,0.7
2025-12-02T0500,4295A,113.2722,35.2121,焦作市,人民路3066号,颗粒物(PM10),102,154,234,36,52,24,24,,,,24,9,7,0.8,0.6
2025-12-02T0500,1708A,116.3701,23.5345,揭阳市,新兴,细颗粒物(PM2.5),63,46,53,45,43,37,37,,,29,27,9,11,0.5,0.7
2025-12-02T0500,1709A,116.3264,23.5443,揭阳市,西马,细颗粒物(PM2.5),60,53,58,43,39,36,36,,,23,26,5,6,0.6,0.6
2025-12-02T0500,1710A,116.3611,23.5626,揭阳市,东兴,细颗粒物(PM2.5),62,,49,44,38,31,31,,,29,28,9,10,0.7,0.8
2025-12-02T0500,1711A,116.4151,23.5294,揭阳市,渔湖,,44,44,52,28,27,24,24,,,27,24,5,7,0.7,0.9
2025-12-02T0500,3320A,116.403,23.5699,揭阳市,曲溪,,39,38,52,27,33,25,25,,,27,30,5,8,0.5,0.7
2025-12-02T0500,1944A,102.1692,38.5167,金昌市,天庆家园,,27,27,65,10,23,53,53,,,6,15,2,22,0.6,0.7
2025-12-02T0500,4022A,102.1647,38.5371,金昌市,金川区人防中心,,23,23,64,12,24,49,49,,,5,12,1,26,0.5,0.6
2025-12-02T0500,4239A,102.1930,38.5319,金昌市,长春路96号,,29,29,72,9,24,55,55,,,5,13,7,30,0.5,0.7
2025-12-02T0500,1262A,119.647,29.077,金华市,十五中,细颗粒物(PM2.5),129,150,153,98,99,42,42,,,31,47,4,5,0.8,0.8
2025-12-02T0500,1263A,119.686,29.1029,金华市,监测站,细颗粒物(PM2.5),142,189,159,108,94,35,35,,,,70,3,5,0.9,0.8
2025-12-02T0500,3659A,119.656,29.1131,金华市,气象局,细颗粒物(PM2.5),134,196,158,102,95,7,7,,,,61,3,6,0.9,0.8
2025-12-02T0500,1767A,121.1115,41.0879,锦州市,南山,,23,6,31,3,16,72,72,,,4,14,14,12,0.6,0.7
2025-12-02T0500,1768A,121.0604,40.8428,锦州市,开发区,,19,10,46,3,18,59,59,,,10,21,18,16,0.6,0.6
2025-12-02T0500,1769A,121.1836,41.1119,锦州市,百股街道,,20,,26,7,11,62,62,,,5,10,19,11,0.6,0.7
2025-12-02T0500,1770A,121.1178,41.1222,锦州市,天安街道,,25,9,27,3,14,78,78,,,2,9,8,13,0.3,0.5
2025-12-02T0500,1771A,121.1303,41.1386,锦州市,北湖公园,,22,11,27,3,11,68,68,,,2,10,7,10,0.4,0.6
2025-12-02T0500,2160A,112.85,35.5051,晋城市,自来水公司,颗粒物(PM10),126,202,195,61,51,14,14,,,46,34,18,8,1.0,0.8
2025-12-02T0500,2161A,112.8318,35.4936,晋城市,白云商贸,颗粒物(PM10),124,198,200,48,44,9,9,,,35,24,9,4,1.0,0.8
2025-12-02T0500,2162A,112.8508,35.4887,晋城市,市环保局,颗粒物(PM10),128,206,202,56,45,13,13,,,37,30,19,7,0.6,0.4
2025-12-02T0500,2163A,112.8676,35.4897,晋城市,技术学院,颗粒物(PM10),121,192,187,58,47,14,14,,,47,42,17,8,0.9,0.6
2025-12-02T0500,2165A,112.8453,35.546,晋城市,白马寺,颗粒物(PM10),75,99,170,52,52,53,53,,,17,14,13,10,0.9,0.8
2025-12-02T0500,3620A,112.8271,35.4828,晋城市,泽州一中,颗粒物(PM10),131,211,208,68,55,37,37,,,29,29,8,5,0.8,0.6
2025-12-02T0500,2173A,112.7249,37.7067,晋中市,南都小区,颗粒物(PM10),57,63,120,26,40,39,39,,,23,45,10,18,0.4,0.7
2025-12-02T0500,2174A,112.6991,37.6982,晋中市,榆次区政府,,,58,119,26,45,35,35,,,,42,9,19,0.8,1
2025-12-02T0500,2865A,112.7195,37.6828,晋中市,榆次三中,颗粒物(PM10),52,53,116,9,33,39,39,,,16,37,9,15,0.6,0.9
2025-12-02T0500,4200A,112.7478,37.6954,晋中市,迎宾街26号,,,73,114,19,39,31,31,,,,38,10,16,0.6,0.8
2025-12-02T0500,2439A,112.2014,31.0481,荆门市,竹园小学,颗粒物(PM10),144,238,193,70,61,47,47,,,29,30,,5,0,0
2025-12-02T0500,2440A,112.1969,30.9891,荆门市,掇刀,颗粒物(PM10),143,236,188,70,60,55,55,,,16,18,,4,0.4,0.5
2025-12-02T0500,2441A,112.2213,31.0386,荆门市,石化一小,颗粒物(PM10),153,256,210,64,59,44,44,,,25,28,11,10,0.5,0.5
2025-12-02T0500,3012A,112.1849,31.0362,荆门市,西山林语,颗粒物(PM10),145,239,191,67,60,53,53,,,20,22,,7,0.5,0.6
2025-12-02T0500,3547A,112.1632,31.0138,荆门市,龙泉中学南校,颗粒物(PM10),155,259,200,79,66,62,62,,,21,21,,10,0.6,0.7
2025-12-02T0500,1844A,112.2494,30.3197,荆州市,市图书馆,细颗粒物(PM2.5),129,196,132,98,64,50,50,,,22,23,8,8,0.9,0.9
2025-12-02T0500,1845A,112.2008,30.3544,荆州市,市委党校,颗粒物(PM10),133,215,142,94,61,43,43,,,27,30,9,7,0.8,0.8
2025-12-02T0500,3194A,112.2747,30.3122,荆州市,管委会,细颗粒物(PM2.5),129,192,128,98,65,46,46,,,21,26,9,10,0.8,0.8
2025-12-02T0500,4268A,112.1722,30.3366,荆州市,学苑路85号,颗粒物(PM10),123,196,126,83,62,52,52,,,19,22,6,4,0.7,0.7
2025-12-02T0500,2342A,117.3102,29.3867,景德镇市,王港中学,,,,,,,,,,,,,,,,
2025-12-02T0500,2343A,117.2117,29.2933,景德镇市,老干部活动中心,,,39,54,29,31,13,13,,,,24,6,7,0.8,0.8
2025-12-02T0500,2344A,117.1894,29.2789,景德镇市,兽医站,颗粒物(PM10),65,79,61,24,28,29,29,,,24,32,6,9,0.5,0.6
2025-12-02T0500,2346A,117.2461,29.2956,景德镇市,陶研所,,38,34,42,26,33,1,1,,,28,25,4,4,0.8,0.7
2025-12-02T0500,4289A,117.1542,29.2566,景德镇市,青少年活动中心,,,44,68,26,34,14,14,,,,45,4,14,0.6,0.8
2025-12-02T0500,1803A,115.9872,29.6815,九江市,十里,细颗粒物(PM2.5),107,158,130,80,78,64,64,,,30,46,6,8,0.8,0.8
2025-12-02T0500,1804A,115.9584,29.7046,九江市,茅山头,细颗粒物(PM2.5),109,157,120,82,72,76,76,,,28,39,7,7,1.0,1
2025-12-02T0500,1805A,115.9877,29.7295,九江市,西园,细颗粒物(PM2.5),99,145,119,74,70,76,76,,,47,54,6,7,0.8,0.8
2025-12-02T0500,1808A,115.9114,29.6038,九江市,综合工业园,细颗粒物(PM2.5),128,182,125,97,88,62,62,,,45,60,4,6,0.8,0.8
2025-12-02T0500,1809A,116.0721,29.7535,九江市,石化总厂,细颗粒物(PM2.5),113,169,143,85,85,68,68,,,29,41,4,6,1.2,1.2
2025-12-02T0500,1810A,115.9773,29.5698,九江市,庐山气象台,,,,,,,,,,,,,,,,
2025-12-02T0500,3190A,116.0254,29.6994,九江市,外国语学校,颗粒物(PM10),108,165,127,66,69,72,72,,,31,46,7,9,1.0,1
2025-12-02T0500,4253A,116.0102,29.6594,九江市,莲花大道8号,细颗粒物(PM2.5),119,180,127,90,83,79,79,,,26,30,6,8,0.8,0.7
2025-12-02T0500,4240A,98.4958,39.7339,酒泉市,玉门东路5号,,50,48,56,35,25,45,45,,,26,17,10,9,0.7,0.5
2025-12-02T0500,4241A,98.5099,39.7506,酒泉市,北大街108号,颗粒物(PM10),54,58,60,34,27,13,13,,,34,17,9,10,0.9,0.6
2025-12-02T0500,2698A,76.0072,39.4467,喀什地区,巡警大队,颗粒物(PM10),185,320,292,136,124,2,2,,,70,78,11,12,4.1,2.9
2025-12-02T0500,2699A,75.9755,39.4694,喀什地区,吾办,细颗粒物(PM2.5),188,235,241,141,119,1,1,,,71,77,5,7,3.3,2.6
2025-12-02T0500,4027A,75.9483,39.4689,喀什地区,老干局,细颗粒物(PM2.5),173,262,269,131,113,2,2,,,76,74,4,7,5.4,3.1
2025-12-02T0500,1824A,114.3389,34.7781,开封市,肿瘤医院,颗粒物(PM10),94,137,225,31,60,16,16,,,25,33,11,14,0.6,0.6
2025-12-02T0500,1826A,114.2885,34.7965,开封市,世纪星幼儿园,颗粒物(PM10),84,117,215,27,68,16,16,,,30,37,11,12,0.6,0.6
2025-12-02T0500,3147A,114.3438,34.8106,开封市,龙亭公园,颗粒物(PM10),80,109,220,26,72,16,16,,,27,40,11,12,1.1,1
2025-12-02T0500,3210A,114.3644,34.7964,开封市,汴京公园,颗粒物(PM10),90,130,241,29,70,18,18,,,30,45,10,12,0.7,0.6
2025-12-02T0500,3473A,114.2485,34.8306,开封市,技师学院,颗粒物(PM10),77,104,213,27,70,16,16,,,32,47,9,11,0.8,0.8
2025-12-02T0500,3592A,114.4644,34.7556,开封市,祥符区生态环境局,颗粒物(PM10),80,110,257,37,91,14,14,,,36,47,8,12,0.4,0.5
2025-12-02T0500,1951A,84.895,45.6094,克拉玛依市,长征新村,,,14,21,3,12,38,38,,,18,21,6,6,,0.4
2025-12-02T0500,1952A,84.8988,45.5893,克拉玛依市,南林小区,,12,12,20,7,11,33,33,,,19,15,1,1,0.2,0.2
2025-12-02T0500,1954A,84.905,44.3396,克拉玛依市,独山子区,细颗粒物(PM2.5),60,67,69,43,45,36,36,,,13,16,5,5,0.6,0.6
2025-12-02T0500,1955A,85.6979,46.098,克拉玛依市,乌尔禾区商贸楼,,15,15,16,7,9,26,26,,,17,14,6,7,0.2,0.1
2025-12-02T0500,3612A,85.1045,45.6899,克拉玛依市,白碱滩区新站,,17,14,16,9,12,54,54,,,6,11,6,6,0.3,0.3
2025-12-02T0500,2697A,76.1454,39.7142,克孜勒苏柯尔克孜自治州,市人民政府,颗粒物(PM10),90,130,130,57,62,70,70,,,14,24,6,11,0.4,0.5
2025-12-02T0500,3665A,76.1658,39.7157,克孜勒苏柯尔克孜自治州,克州文化中心,颗粒物(PM10),81,111,152,55,59,63,63,,,20,33,8,17,0.6,0.9
2025-12-02T0500,1450A,102.8204,24.8886,昆明市,呈贡新区,,,,19,43,36,5,5,,,49,29,8,7,0.9,0.9
2025-12-02T0500,1451A,102.6251,24.9608,昆明市,西山森林公园,,,,,,,,,,,,,,,,
2025-12-02T0500,1452A,102.7252,25.0902,昆明市,龙泉镇,,45,45,38,29,24,0,0,,,34,31,2,3,0.6,0.7
2025-12-02T0500,1453A,102.7266,25.0375,昆明市,东风东路,,49,49,46,34,28,0,0,,,40,28,3,4,0.6,0.5
2025-12-02T0500,1454A,102.6742,25.0669,昆明市,金鼎山,颗粒物(PM10),54,58,51,28,27,2,2,,,42,32,3,4,0.8,0.8
2025-12-02T0500,1455A,102.6644,25.0401,昆明市,碧鸡广场,,49,45,44,34,29,16,16,,,32,35,4,4,0.7,0.6
2025-12-02T0500,3179A,102.7494,25.0119,昆明市,官渡区博物馆,颗粒物(PM10),53,55,44,29,29,0,0,,,49,37,2,4,0.7,0.5
2025-12-02T0500,3375A,102.8017,24.8336,昆明市,青年创业园,,37,37,36,21,24,1,1,,,33,20,3,7,0.7,0.7
2025-12-02T0500,3550A,102.7997,24.9786,昆明市,昆明学院,颗粒物(PM10),51,51,46,34,27,9,9,,,36,26,2,4,0.5,0.4
2025-12-02T0500,3551A,102.5967,24.6736,昆明市,晋宁区生态环境分局,颗粒物(PM10),54,57,40,31,29,8,8,,,38,24,3,2,0.5,0.5
2025-12-02T0500,3552A,102.6678,24.9856,昆明市,云天化总部,,37,37,37,24,23,3,3,,,49,33,5,7,0.6,0.6
2025-12-02T0500,1456A,91.1319,29.6514,拉萨市,八廓街,,19,19,29,10,19,42,42,,,18,29,14,15,0.6,0.7
2025-12-02T0500,1457A,91.1221,29.6747,拉萨市,市环保局,,22,21,49,15,21,21,21,,,24,29,8,12,1.2,1.6
2025-12-02T0500,1458A,91.0874,29.6475,拉萨市,区监测站,,23,17,23,16,14,28,28,,,38,41,8,10,0.7,0.8
2025-12-02T0500,1459A,91.1774,29.6541,拉萨市,西藏大学,,15,12,24,9,14,48,48,,,14,28,13,12,0.3,0.4
2025-12-02T0500,1460A,90.9798,29.6588,拉萨市,区辐射站,,14,12,36,8,20,26,26,,,28,38,7,9,0.7,0.6
2025-12-02T0500,1461A,91.0834,29.6292,拉萨市,拉萨火车站,,27,27,26,18,15,20,20,,,40,35,6,9,1.3,1
2025-12-02T0500,2520A,109.2203,23.7256,来宾市,来宾技工学校,细颗粒物(PM2.5),82,85,87,60,61,6,6,,,21,15,8,9,0.9,0.9
2025-12-02T0500,3535A,109.1781,23.7297,来宾市,兴宾区政府,细颗粒物(PM2.5),59,61,72,42,49,38,38,,,12,14,4,9,0.7,0.7
2025-12-02T0500,4002A,109.2416,23.7461,来宾市,中南小学,细颗粒物(PM2.5),65,70,83,47,53,13,13,,,37,30,6,10,1.1,1
2025-12-02T0500,1477A,104.1373,35.9454,兰州市,榆中兰大校区,,,,,,,,,,,,,,,,
2025-12-02T0500,1479A,103.831,36.0464,兰州市,铁路设计院,,,,,,,,,,,,,,,,
2025-12-02T0500,3241A,103.7439,36.0842,兰州市,百合公园,颗粒物(PM10),56,61,103,26,41,41,41,,,19,45,9,18,0.3,0.7
2025-12-02T0500,3242A,103.9611,35.998,兰州市,和平,颗粒物(PM10),64,78,121,22,47,38,38,,,20,32,4,10,0.7,1
2025-12-02T0500,4236A,103.6293,36.0938,兰州市,庄浪东路808号,颗粒物(PM10),61,71,115,23,48,36,36,,,31,51,9,25,0.4,0.9
2025-12-02T0500,4237A,103.7251,36.1043,兰州市,安宁西路88号,颗粒物(PM10),68,85,120,34,48,16,16,,,51,39,4,18,0.4,0.7
2025-12-02T0500,4238A,103.8470,36.0676,兰州市,北滨河东路1号,颗粒物(PM10),65,79,114,31,42,23,23,,,48,49,5,15,0.5,1.1
2025-12-02T0500,3245A,103.6633,36.533,兰州新区,新区管委会,颗粒物(PM10),62,73,86,31,39,39,39,,,11,13,8,20,0.4,0.4
2025-12-02T0500,3246A,103.6975,36.4789,兰州新区,舟曲中学,颗粒物(PM10),63,76,92,23,32,57,57,,,23,16,12,15,0.4,0.5
2025-12-02T0500,1067A,116.6708,39.5111,廊坊市,药材公司,,,26,21,,4,54,54,,,10,13,1,2,0.3,0.3
2025-12-02T0500,1068A,116.7214,39.5589,廊坊市,开发区,,18,12,21,6,7,56,56,,,11,15,1,2,0.2,0.2
2025-12-02T0500,1070A,116.7244,39.5269,廊坊市,北华航天学院,,18,13,26,3,12,56,56,,,7,16,3,2,0.2,0.2
2025-12-02T0500,2919A,116.7022,39.5453,廊坊市,河北工业大学,,18,13,22,3,17,56,56,,,4,9,1,2,0.2,0.2
2025-12-02T0500,2535A,103.7723,29.5462,乐山市,花湖湾,,,,,,,,,,,,,,,,
2025-12-02T0500,2536A,103.7627,29.5844,乐山市,牛耳桥,细颗粒物(PM2.5),124,110,118,94,100,1,1,,,37,33,6,7,0.9,1
2025-12-02T0500,2537A,103.7508,29.6006,乐山市,市第三水厂,细颗粒物(PM2.5),110,100,111,83,92,11,11,,,32,34,6,6,1.0,1
2025-12-02T0500,2538A,103.7571,29.5664,乐山市,市监测站,细颗粒物(PM2.5),125,117,118,95,90,46,46,,,24,24,9,7,1.0,1.1
2025-12-02T0500,3361A,103.7311,29.5628,乐山市,理工大学,细颗粒物(PM2.5),124,115,110,94,91,32,32,,,24,24,7,9,0.9,0.9
2025-12-02T0500,2598A,100.2143,26.8576,丽江市,西南郊,,,,,,,,,,,,,,,,
2025-12-02T0500,2599A,100.2497,26.8802,丽江市,丽江古城,,30,30,48,18,23,31,31,,,11,17,13,11,0.7,0.7
2025-12-02T0500,2600A,100.2203,26.8906,丽江市,市中心,,22,,28,15,18,33,33,,,10,16,8,9,0.6,0.7
2025-12-02T0500,1267A,119.914,28.4514,丽水市,监测站大楼,细颗粒物(PM2.5),74,59,65,54,39,36,36,,,27,35,6,6,0.9,0.8
2025-12-02T0500,1268A,119.93,28.4586,丽水市,莲都小学,颗粒物(PM10),70,89,75,48,38,19,19,,,43,36,4,6,0.9,0.8
2025-12-02T0500,1269A,119.879,28.4231,丽水市,余庄前,细颗粒物(PM2.5),85,74,64,63,46,4,4,,,17,24,4,5,0.5,0.5
2025-12-02T0500,1173A,119.176,34.5885,连云港市,市环境监测站,,27,27,63,7,16,60,60,,,16,20,8,9,0.3,0.4
2025-12-02T0500,3000A,119.3581,34.6972,连云港市,德源药业,,,27,60,3,13,47,47,,,,22,6,6,0.6,0.7
2025-12-02T0500,3007A,119.178,34.844,连云港市,新城一中,,50,50,90,13,21,46,46,,,25,27,7,11,0.5,0.8
2025-12-02T0500,3008A,119.3608,34.7519,连云港市,胡沟管理处,,36,36,64,3,11,42,42,,,30,30,10,9,0.4,0.5
2025-12-02T0500,3009A,119.1478,34.5911,连云港市,矿山设计院,,34,34,70,3,16,62,62,,,17,23,6,8,0.6,0.9
2025-12-02T0500,3434A,119.2413,34.6539,连云港市,工贸学校,,25,25,66,6,14,63,63,,,6,8,9,10,0.0,0.1
2025-12-02T0500,3664A,119.4172,34.7341,连云港市,连云街道,,24,24,64,3,12,73,73,,,4,13,6,6,0.4,0.5
2025-12-02T0500,2571A,102.3431,27.8099,凉山彝族自治州,青龙寺,,,,,,,,,,,,,,,,
2025-12-02T0500,2572A,102.2721,27.8415,凉山彝族自治州,邛海宾馆,,46,35,47,32,35,30,30,,,14,16,6,9,0.6,0.8
2025-12-02T0500,2573A,102.2625,27.898,凉山彝族自治州,西昌市政府,细颗粒物(PM2.5),63,54,59,45,49,12,12,,,34,22,8,10,0.9,0.9
2025-12-02T0500,2574A,102.2685,27.8851,凉山彝族自治州,凉山州政府,细颗粒物(PM2.5),55,58,64,39,40,24,24,,,23,23,8,9,0.7,0.9
2025-12-02T0500,4229A,102.2342,27.8859,凉山彝族自治州,凯乐南路30号,颗粒物(PM10),54,58,71,37,46,18,18,,,37,36,18,11,0.9,1.2
2025-12-02T0500,2212A,123.2,41.1953,辽阳市,宏伟区,,18,7,36,7,18,55,55,,,4,15,3,6,0.4,0.6
2025-12-02T0500,2213A,123.1683,41.2495,辽阳市,新华园,,19,11,45,3,19,58,58,,,4,15,3,7,0.6,0.8
2025-12-02T0500,2214A,123.2354,41.2639,辽阳市,滨河路,,19,,47,7,20,58,58,,,1,12,7,8,0.2,0.5
2025-12-02T0500,2215A,123.149,41.2991,辽阳市,铁西工业园,,16,12,44,11,25,46,46,,,10,17,6,9,0.5,0.9
2025-12-02T0500,2227A,125.1358,42.8845,辽源市,环保局,颗粒物(PM10),60,70,84,3,25,66,66,,,3,12,3,4,0.2,0.5
2025-12-02T0500,3239A,125.0764,42.9078,辽源市,银鹰制药,,27,27,49,9,25,71,71,,,8,12,11,5,0.4,0.6
2025-12-02T0500,1625A,115.9848,36.4372,聊城市,区政府,,,35,101,14,41,33,33,,,,34,10,15,0.6,0.7
2025-12-02T0500,2878A,116.0072,36.4343,聊城市,聊大东校,细颗粒物(PM2.5),107,,114,80,35,29,29,,,,31,9,14,0.3,0.6
2025-12-02T0500,3200A,115.9819,36.4978,聊城市,监控中心,,30,30,109,9,38,28,28,,,19,32,9,14,0.7,0.8
2025-12-02T0500,3513A,116.0445,36.4361,聊城市,九州社区,,,48,115,11,29,35,35,,,,29,3,9,0.6,0.7
2025-12-02T0500,4018A,116.0567,36.4608,聊城市,星美广场,颗粒物(PM10),69,88,125,6,27,30,30,,,19,32,7,9,0.4,0.4
2025-12-02T0500,2632A,94.3681,29.6376,林芝市,林芝监测站,,13,13,20,3,9,37,37,,,4,17,7,8,0.3,0.4
2025-12-02T0500,2633A,94.3616,29.6616,林芝市,林芝人民医院,,10,8,22,3,10,29,29,,,5,10,8,8,0.2,0.4
2025-12-02T0500,2603A,100.0781,23.8982,临沧市,市环保局,,40,,32,28,32,21,21,,,8,10,6,6,0.7,0.8
2025-12-02T0500,2604A,100.0894,23.8822,临沧市,市气象局,,26,23,36,18,18,31,31,,,6,10,6,5,0.4,0.5
2025-12-02T0500,1733A,111.5531,36.0783,临汾市,临钢医院,颗粒物(PM10),148,245,189,16,44,42,42,,,15,33,2,12,0.4,0.8
2025-12-02T0500,1734A,111.5028,36.0714,临汾市,技工学校,颗粒物(PM10),69,87,164,17,44,46,46,,,17,39,4,14,0.5,1
2025-12-02T0500,1736A,111.5018,36.0855,临汾市,市委,颗粒物(PM10),64,78,168,3,40,52,52,,,14,39,6,18,0.5,1
2025-12-02T0500,3018A,111.505,36.1014,临汾市,唐尧大酒店,颗粒物(PM10),60,69,154,9,37,52,52,,,14,38,2,13,0.8,1.2
2025-12-02T0500,4244A,111.4879,36.0530,临汾市,启星学校,颗粒物(PM10),51,52,147,20,37,50,50,,,14,40,5,13,0.4,0.8
2025-12-02T0500,4271A,103.2464,35.6123,临夏回族自治州,滨河东路1号,颗粒物(PM10),85,120,144,45,71,6,6,,,28,33,7,9,0.9,1.1
2025-12-02T0500,4310A,103.2093,35.5995,临夏回族自治州,新华街21号,细颗粒物(PM2.5),88,117,127,65,63,22,22,,,16,22,6,12,1.1,1
2025-12-02T0500,1618A,118.3429,35.0532,临沂市,沂河小区,颗粒物(PM10),54,58,91,34,35,20,20,,,39,33,9,11,0.6,0.6
2025-12-02T0500,1619A,118.295,35.0583,临沂市,鲁南制药厂,颗粒物(PM10),53,56,81,30,45,18,18,,,46,32,9,15,0.6,0.7
2025-12-02T0500,1620A,118.2794,34.9976,临沂市,新光毛纺厂,,46,46,80,27,30,21,21,,,44,31,10,11,0.7,0.6
2025-12-02T0500,1621A,118.3956,35.0888,临沂市,河东保险公司,颗粒物(PM10),52,53,83,24,27,18,18,,,42,35,7,10,0.5,0.5
2025-12-02T0500,3370A,118.3564,35.0215,临沂市,十里堡居委,颗粒物(PM10),51,51,84,14,19,18,18,,,45,37,9,12,0.8,0.7
2025-12-02T0500,3496A,118.3604,35.1084,临沂市,南坊新区,颗粒物(PM10),57,63,89,27,26,10,10,,,59,37,9,12,0.7,0.7
2025-12-02T0500,3860A,118.3920,35.0300,临沂市,皇山花园小区,颗粒物(PM10),51,51,93,24,30,20,20,,,38,36,11,14,0.7,0.6
2025-12-02T0500,1870A,109.4856,24.3895,柳州市,柳东小学,细颗粒物(PM2.5),74,70,82,54,67,81,81,,,10,20,12,25,0.5,0.7
2025-12-02T0500,1871A,109.4157,24.3277,柳州市,环保监测站,细颗粒物(PM2.5),107,105,94,80,68,24,24,,,33,34,29,16,1.1,1
2025-12-02T0500,1872A,109.389,24.341,柳州市,河西水厂,细颗粒物(PM2.5),104,110,106,78,61,27,27,,,33,36,35,16,1.0,1
2025-12-02T0500,1873A,109.4311,24.2921,柳州市,市四中,细颗粒物(PM2.5),102,113,104,76,72,14,14,,,42,43,27,18,0.8,1.1
2025-12-02T0500,1874A,109.4006,24.3631,柳州市,市九中,细颗粒物(PM2.5),112,108,107,84,78,28,28,,,35,38,20,20,1.0,1
2025-12-02T0500,1875A,109.4958,24.3134,柳州市,古亭山,颗粒物(PM10),53,56,72,36,47,3,3,,,59,40,12,11,0.7,0.7
2025-12-02T0500,3402A,109.5422,24.3996,柳州市,市二中,细颗粒物(PM2.5),57,56,78,40,53,46,46,,,19,27,10,15,1.4,1.5
2025-12-02T0500,2307A,116.5079,31.737,六安市,监测大楼,颗粒物(PM10),101,151,163,75,83,6,6,,,,43,3,6,0.7,0.7
2025-12-02T0500,2308A,116.4738,31.7643,六安市,皖西学院,细颗粒物(PM2.5),102,150,176,76,82,5,5,,,,40,2,5,0.7,0.7
2025-12-02T0500,2309A,116.4996,31.7905,六安市,朝阳厂,,,112,147,52,77,26,26,,,,45,3,5,0.6,0.7
2025-12-02T0500,2310A,116.5567,31.7886,六安市,开发区,,,150,190,62,79,6,6,,,,44,2,4,0.6,0.7
2025-12-02T0500,2576A,104.8,26.5892,六盘水市,窑上,细颗粒物(PM2.5),122,112,94,92,78,83,83,,,13,12,3,3,0.8,0.8
2025-12-02T0500,2577A,104.83,26.5917,六盘水市,黄土坡,细颗粒物(PM2.5),128,142,109,97,80,80,80,,,14,25,7,10,0.7,0.8
2025-12-02T0500,2578A,104.89,26.5939,六盘水市,水钢,细颗粒物(PM2.5),149,137,115,114,94,72,72,,,22,23,7,9,0.9,0.9
2025-12-02T0500,2579A,104.8475,26.5894,六盘水市,民中,细颗粒物(PM2.5),138,107,100,105,90,77,77,,,13,26,4,9,0.8,1
2025-12-02T0500,2580A,104.9544,26.5506,六盘水市,双水,细颗粒物(PM2.5),123,122,121,93,92,66,66,,,16,27,15,9,0.6,0.8
2025-12-02T0500,2335A,117.0189,25.1181,龙岩市,龙岩师专,,,,,,,,,,,,,,,,
2025-12-02T0500,2336A,117.0217,25.1033,龙岩市,龙岩市监测站,,,28,39,22,26,6,6,,,,36,36,19,0.5,0.8
2025-12-02T0500,2337A,117.0258,25.0661,龙岩市,闽西职业技术学院,,,38,40,26,26,36,36,,,,24,15,12,0.4,0.6
2025-12-02T0500,2338A,117.0196,25.0306,龙岩市,龙岩学院,,,25,33,16,26,30,30,,,,15,4,6,0.4,0.5
2025-12-02T0500,2665A,105.0822,33.3261,陇南市,汉王镇固水子,,,,,,,,,,,,,,,,
2025-12-02T0500,2885A,104.9339,33.3826,陇南市,滨江中学,颗粒物(PM10),53,56,96,31,48,10,10,,,36,49,9,17,1.7,2.5
2025-12-02T0500,3247A,104.955,33.371,陇南市,市总工会,颗粒物(PM10),55,59,93,33,43,24,24,,,25,42,4,6,1.0,1.2
2025-12-02T0500,2487A,111.9589,27.8901,娄底市,电视发射台,,,,,,,,,,,,,,,,
2025-12-02T0500,2488A,111.9975,27.725,娄底市,市监测站,,,117,112,66,69,96,96,,,,29,26,23,0.8,1
2025-12-02T0500,2489A,112.0194,27.7314,娄底市,市委党校,细颗粒物(PM2.5),98,121,114,73,72,85,85,,,20,30,14,17,0.8,1.2
2025-12-02T0500,2490A,111.9561,27.7569,娄底市,涟钢,细颗粒物(PM2.5),98,102,106,73,68,40,40,,,20,21,6,10,0.8,0.9
2025-12-02T0500,2491A,111.9892,27.7044,娄底市,市政府,细颗粒物(PM2.5),104,112,109,78,73,49,49,,,23,25,14,14,0.7,0.5
2025-12-02T0500,1893A,105.4324,28.9634,泸州市,九狮山,,,,,,,,,,,,,,,,
2025-12-02T0500,1894A,105.4427,28.9063,泸州市,小市上码头,细颗粒物(PM2.5),190,171,132,143,115,19,19,,,18,27,10,10,1.0,1
2025-12-02T0500,1895A,105.4241,28.8573,泸州市,兰田宪桥,细颗粒物(PM2.5),192,161,133,144,116,10,10,,,25,25,8,8,1.3,1.2
2025-12-02T0500,1896A,105.4379,28.8833,泸州市,市环监站,细颗粒物(PM2.5),186,171,136,140,108,33,33,,,20,32,8,8,0.9,0.9
2025-12-02T0500,4272A,105.3689,28.7783,泸州市,纳溪中医医院,细颗粒物(PM2.5),144,111,106,110,96,3,3,,,23,27,8,8,1.0,1
2025-12-02T0500,2183A,111.1406,37.5211,吕梁市,环保局,,30,30,97,11,23,52,52,,,11,31,6,11,0.2,0.4
2025-12-02T0500,2185A,111.1297,37.5136,吕梁市,自来水公司,,24,24,105,12,28,52,52,,,11,29,4,10,0.4,0.5
2025-12-02T0500,2867A,111.1283,37.51,吕梁市,马茂庄小学,,33,33,119,12,25,54,54,,,9,31,6,12,0.5,0.6
2025-12-02T0500,1812A,112.3931,34.6516,洛阳市,市委党校,颗粒物(PM10),133,216,246,89,72,3,3,,,52,43,13,11,1.1,0.6
2025-12-02T0500,1815A,112.494,34.6886,洛阳市,河南林校,颗粒物(PM10),129,207,268,88,79,2,2,,,,41,7,9,0.6,0.6
2025-12-02T0500,1816A,112.3844,34.623,洛阳市,开发区管委会,颗粒物(PM10),142,233,246,96,77,4,4,,,,39,11,12,0.8,0.6
2025-12-02T0500,1817A,112.4267,34.6258,洛阳市,市委新办公区,颗粒物(PM10),142,233,248,94,78,5,5,,,40,39,10,11,0.6,0.6
2025-12-02T0500,3340A,112.6005,34.6326,洛阳市,伊滨,颗粒物(PM10),134,218,249,64,73,1,1,,,41,39,9,11,0.4,0.5
2025-12-02T0500,3341A,112.4951,34.6332,洛阳市,中移产业园,颗粒物(PM10),134,217,262,83,72,9,9,,,47,48,9,12,0.6,0.5
2025-12-02T0500,3593A,112.5736,34.8993,洛阳市,吉利监测站,颗粒物(PM10),128,205,271,64,74,8,8,,,42,38,5,9,0.6,0.5
2025-12-02T0500,3635A,112.3677,34.662,洛阳市,河科大西苑校区,颗粒物(PM10),147,244,279,78,63,4,4,,,46,43,14,12,1.1,0.9
2025-12-02T0500,3636A,112.4388,34.6781,洛阳市,英才小学,颗粒物(PM10),157,263,276,96,86,0,0,,,62,45,27,13,1.3,0.7
2025-12-02T0500,4214A,112.4600,34.6949,洛阳市,春都路1号院,颗粒物(PM10),147,243,299,68,65,0,0,,,,38,12,12,0.9,0.6
2025-12-02T0500,2399A,114.051,33.5699,漯河市,三五一五工厂,颗粒物(PM10),149,247,258,103,80,10,10,,,55,32,8,8,0.8,0.6
2025-12-02T0500,2400A,114.0055,33.5698,漯河市,漯河大学,颗粒物(PM10),144,238,255,97,77,15,15,,,58,33,9,7,0.6,0.4
2025-12-02T0500,2401A,114.0138,33.5828,漯河市,市水利局,颗粒物(PM10),148,246,253,100,79,16,16,,,,31,10,9,0.6,0.5
2025-12-02T0500,2402A,114.0261,33.5698,漯河市,市广电局,颗粒物(PM10),155,259,273,99,78,14,14,,,56,33,8,8,0.6,0.5
2025-12-02T0500,3478A,113.9749,33.5664,漯河市,市图书馆,颗粒物(PM10),151,252,271,102,78,15,15,,,49,32,12,6,0.8,0.7
2025-12-02T0500,4250A,114.0892,33.5882,漯河市,韶山路11号,细颗粒物(PM2.5),143,229,256,109,82,5,5,,,60,44,9,8,0.8,0.7
2025-12-02T0500,1798A,118.5092,31.6837,马鞍山市,湖东路四小,颗粒物(PM10),70,89,150,32,48,44,44,,,23,26,6,5,0.9,0.8
2025-12-02T0500,1799A,118.5024,31.6449,马鞍山市,开发区,颗粒物(PM10),73,96,150,35,49,36,36,,,30,26,6,6,0.7,0.7
2025-12-02T0500,1802A,118.6245,31.7241,马鞍山市,濮塘,,,,,,,,,,,,,,,,
2025-12-02T0500,3633A,118.4918,31.6809,马鞍山市,雨山,,,99,154,33,52,48,48,,,23,26,,7,0.7,0.7
2025-12-02T0500,4191A,118.5274,31.72227,马鞍山市,慈湖高新区,,,113,145,32,48,42,42,,,22,24,,6,0.9,0.8
2025-12-02T0500,1686A,111.0286,21.4688,茂名市,电白南海,颗粒物(PM10),70,90,78,31,40,18,18,,,30,22,15,13,0.8,0.7
2025-12-02T0500,1687A,110.9294,21.6533,茂名市,茂石化七小,,,90,85,68,52,32,32,,,,21,11,15,0.6,0.7
2025-12-02T0500,1688A,110.9107,21.6687,茂名市,健康路,细颗粒物(PM2.5),73,75,67,53,44,28,28,,,21,24,9,16,0.8,0.8
2025-12-02T0500,1689A,110.8592,21.6828,茂名市,高岭,细颗粒物(PM2.5),98,92,85,73,55,17,17,,,25,28,17,14,0.9,0.9
2025-12-02T0500,3450A,111.01,21.5165,茂名市,电白水东,细颗粒物(PM2.5),58,61,64,41,43,32,32,,,21,20,14,11,1.0,0.9
2025-12-02T0500,2539A,104.0308,30.0478,眉山市,黑龙滩水库,,,,,,,,,,,,,,,,
2025-12-02T0500,2540A,103.8416,30.0874,眉山市,气象局,细颗粒物(PM2.5),163,155,128,124,109,5,5,,,50,33,14,14,1.0,1
2025-12-02T0500,3137A,103.8578,30.0744,眉山市,市委党校,细颗粒物(PM2.5),156,141,115,119,96,16,16,,,40,35,7,7,0.7,0.7
2025-12-02T0500,3148A,103.8291,30.0564,眉山市,区人社局,细颗粒物(PM2.5),160,146,124,122,102,6,6,,,46,38,6,7,1.0,1.2
2025-12-02T0500,1690A,116.1231,24.3284,梅州市,梅江月梅,,,45,38,23,30,1,1,,,,26,6,6,0.6,0.7
2025-12-02T0500,1691A,116.0797,24.2719,梅州市,梅县新城,,,34,51,25,31,3,3,,,,35,7,7,0.5,0.6
2025-12-02T0500,1692A,116.1248,24.2654,梅州市,环境监控中心,,49,49,47,32,37,1,1,,,31,33,10,8,0.5,0.5
2025-12-02T0500,3315A,116.1233,24.2991,梅州市,梅龙,,,41,46,23,30,1,1,,,,29,8,9,0.6,0.8
2025-12-02T0500,1878A,104.7778,31.4741,绵阳市,富乐山,细颗粒物(PM2.5),134,136,109,102,86,2,2,,,32,27,10,10,0.8,0.8
2025-12-02T0500,1880A,104.6697,31.4668,绵阳市,高新区自来水公司,细颗粒物(PM2.5),140,142,134,107,96,1,1,,,36,36,10,10,0.9,0.9
2025-12-02T0500,1881A,104.7287,31.5075,绵阳市,三水厂,细颗粒物(PM2.5),155,143,120,118,96,1,1,,,34,33,12,12,1.1,1.1
2025-12-02T0500,3491A,104.69,31.5322,绵阳市,西科大附属小学,细颗粒物(PM2.5),124,128,134,94,91,4,4,,,35,39,8,8,0.9,0.8
2025-12-02T0500,3492A,104.5648,31.5343,绵阳市,安州区旅游局,细颗粒物(PM2.5),119,101,103,90,91,4,4,,,23,34,10,8,0.6,0.8
2025-12-02T0500,4226A,104.7651,31.4531,绵阳市,绵阳市气象局,细颗粒物(PM2.5),138,132,120,105,88,2,2,,,41,33,8,8,1.0,1
2025-12-02T0500,1784A,129.61,44.561,牡丹江市,环保大楼,,23,23,37,11,29,41,41,,,10,20,9,8,0.4,0.6
2025-12-02T0500,1785A,129.6115,44.5782,牡丹江市,文化广场,,46,40,43,32,34,43,43,,,9,20,8,9,0.5,0.6
2025-12-02T0500,1786A,129.5904,44.5963,牡丹江市,第一医院,,41,41,51,24,42,40,40,,,8,24,2,5,0.7,0.8
2025-12-02T0500,1787A,129.6364,44.6075,牡丹江市,机车工厂,,39,36,55,27,35,28,28,,,23,26,2,14,0.4,0.5
2025-12-02T0500,1788A,129.6386,44.5462,牡丹江市,第一中学,,33,33,33,22,32,46,46,,,6,20,3,4,0.2,0.4
2025-12-02T0500,2531A,105.0703,29.61,内江市,市监测站,细颗粒物(PM2.5),138,112,105,105,100,34,34,,,,21,3,4,0.9,0.9
2025-12-02T0500,2532A,105.0717,29.5947,内江市,东兴区政府,细颗粒物(PM2.5),139,110,106,106,100,33,33,,,25,25,4,4,0.7,0.7
2025-12-02T0500,2533A,105.0653,29.5817,内江市,内江二中,细颗粒物(PM2.5),149,123,128,114,103,20,20,,,28,29,4,5,1.0,1
2025-12-02T0500,2534A,105.0406,29.5822,内江市,内江日报社,细颗粒物(PM2.5),129,122,114,98,97,34,34,,,,31,3,4,0.7,0.8
2025-12-02T0500,2628A,92.0657,31.4846,那曲市,那曲监测站,,15,15,75,6,39,30,30,,,15,33,6,14,1.0,1.9
2025-12-02T0500,4243A,92.0515,31.4787,那曲市,那曲市委宣传部,,13,13,39,3,22,25,25,,,13,25,6,10,1.1,1.4
2025-12-02T0500,1290A,115.8931,28.6843,南昌市,省外办,细颗粒物(PM2.5),144,172,111,110,73,78,78,,,30,34,9,10,1.8,1.5
2025-12-02T0500,1291A,115.8886,28.7003,南昌市,省林业公司,细颗粒物(PM2.5),144,158,105,110,68,73,73,,,21,33,7,9,1.6,1.3
2025-12-02T0500,1292A,115.8126,28.7442,南昌市,林科所,细颗粒物(PM2.5),138,168,97,105,58,94,94,,,18,34,7,8,0.7,0.7
2025-12-02T0500,1294A,115.8518,28.687,南昌市,建工学校,细颗粒物(PM2.5),148,185,118,113,75,90,90,,,24,36,15,16,1.5,1.3
2025-12-02T0500,1295A,115.8921,28.6424,南昌市,象湖,细颗粒物(PM2.5),147,171,114,112,69,93,93,,,24,34,13,14,0.9,0.9
2025-12-02T0500,1296A,115.7423,28.7996,南昌市,武术学校,,,,,,,,,,,,,,,,
2025-12-02T0500,3046A,115.9084,28.6062,南昌市,机电学校,细颗粒物(PM2.5),156,198,123,119,73,92,92,,,26,38,12,15,1.1,1
2025-12-02T0500,3690A,115.9721,28.7031,南昌市,外国语学校,细颗粒物(PM2.5),147,205,120,112,69,84,84,,,26,36,15,16,1.0,0.8
2025-12-02T0500,4192A,115.9316,28.68677,南昌市,南京东路235号,细颗粒物(PM2.5),153,176,110,117,73,92,92,,,30,36,9,11,1.2,0.9
2025-12-02T0500,1905A,106.056,30.8064,南充市,西山风景区,,,,,,,,,,,,,,,,
2025-12-02T0500,1906A,106.0789,30.8023,南充市,南充市委,细颗粒物(PM2.5),137,114,123,104,107,9,9,,,17,27,4,4,0.7,0.9
2025-12-02T0500,1907A,106.1031,30.8217,南充市,南充炼油厂,细颗粒物(PM2.5),137,119,122,104,105,16,16,,,18,26,6,6,0.9,1
2025-12-02T0500,4227A,106.1083,30.7884,南充市,梨树横街98号,细颗粒物(PM2.5),129,119,121,98,101,2,2,,,32,29,6,6,0.7,0.8
2025-12-02T0500,4304A,106.1172,30.843,南充市,清泉寺北路188号,细颗粒物(PM2.5),122,94,97,92,80,7,7,,,22,21,5,5,0.7,0.7
2025-12-02T0500,4305A,106.067,30.7616,南充市,同庆路1号,细颗粒物(PM2.5),132,113,124,100,98,9,9,,,26,29,9,7,0.8,0.9
2025-12-02T0500,1151A,118.8086,32.1065,南京市,迈皋桥,颗粒物(PM10),56,61,111,22,36,31,31,,,29,29,3,4,0.4,0.2
2025-12-02T0500,1152A,118.7538,32.0551,南京市,草场门,颗粒物(PM10),63,75,142,24,38,32,32,,,31,35,3,4,0.6,0.6
2025-12-02T0500,1153A,118.7794,32.0745,南京市,山西路,颗粒物(PM10),63,75,147,24,38,32,32,,,34,35,3,4,0.6,0.6
2025-12-02T0500,1154A,118.7752,32.0023,南京市,中华门,颗粒物(PM10),62,73,131,27,37,29,29,,,25,26,4,4,0.5,0.7
2025-12-02T0500,1155A,118.8109,32.0309,南京市,瑞金路,颗粒物(PM10),60,70,132,27,41,33,33,,,33,38,4,4,0.4,0.4
2025-12-02T0500,1156A,118.7997,32.0754,南京市,玄武湖,颗粒物(PM10),59,68,117,19,35,29,29,,,35,31,4,4,0.6,0.6
2025-12-02T0500,1157A,118.6414,32.0931,南京市,浦口,颗粒物(PM10),63,75,154,26,42,23,23,,,36,35,7,9,0.4,0.5
2025-12-02T0500,1158A,118.7356,31.9996,南京市,奥体中心,颗粒物(PM10),65,79,142,27,41,39,39,,,38,30,5,7,0.5,0.5
2025-12-02T0500,1159A,118.9125,32.1028,南京市,仙林大学城,颗粒物(PM10),62,73,142,24,39,28,28,,,32,29,6,7,0.6,0.7
2025-12-02T0500,3422A,118.8436,31.9198,南京市,江宁彩虹桥,颗粒物(PM10),65,80,136,22,39,51,51,,,17,23,5,4,0.5,0.5
2025-12-02T0500,3427A,118.8554,32.3578,南京市,六合雄州,颗粒物(PM10),56,61,115,15,31,39,39,,,20,24,7,8,0.5,0.5
2025-12-02T0500,4249A,118.8708,31.3402,南京市,汶溪路181号,颗粒物(PM10),65,80,144,32,76,43,43,,,33,42,6,9,0.8,0.9
2025-12-02T0500,4312A,119.019,31.6512,南京市,中山西路1号,颗粒物(PM10),63,75,127,33,62,27,27,,,34,31,4,4,0.9,1
2025-12-02T0500,1401A,108.3103,22.7881,南宁市,二十一中,细颗粒物(PM2.5),74,70,75,54,54,30,30,,,35,26,4,5,0.7,0.6
2025-12-02T0500,1402A,108.3141,22.8528,南宁市,北湖,细颗粒物(PM2.5),69,69,81,50,54,68,68,,,17,39,10,13,0.8,0.9
2025-12-02T0500,1403A,108.3206,22.8225,南宁市,市监测站,细颗粒物(PM2.5),79,60,79,58,55,55,55,,,23,30,7,10,0.8,0.8
2025-12-02T0500,1404A,108.3829,22.8037,南宁市,大自然花园,细颗粒物(PM2.5),72,72,79,52,56,33,33,,,19,27,6,7,0.7,0.7
2025-12-02T0500,1405A,108.4394,22.7904,南宁市,仙葫,,,,,,,,,,,,,,,,
2025-12-02T0500,1406A,108.2397,22.8467,南宁市,区农职院,细颗粒物(PM2.5),85,87,84,63,52,30,30,,,37,34,8,11,0.9,0.9
2025-12-02T0500,1407A,108.3275,22.735,南宁市,英华嘉园,细颗粒物(PM2.5),83,72,85,61,61,0,0,,,50,41,3,5,0.5,0.5
2025-12-02T0500,3401A,108.4834,22.7618,南宁市,红星社区,细颗粒物(PM2.5),69,70,76,50,51,5,5,,,54,33,4,7,0.8,0.8
2025-12-02T0500,4221A,108.2177,22.7774,南宁市,乐贤路16号,细颗粒物(PM2.5),82,85,87,60,56,2,2,,,63,39,5,11,0.7,0.6
2025-12-02T0500,2331A,118.0966,26.6761,南平市,茫荡山,,,,19,,13,,,132,,,,,1,,
2025-12-02T0500,2332A,118.1681,26.6369,南平市,南平市监测站,,43,39,36,30,26,3,3,,,36,24,7,5,0.6,0.7
2025-12-02T0500,2333A,118.1825,26.6489,南平市,南平铝业有限公司,,42,42,38,29,29,3,3,,,38,31,7,6,0.6,0.6
2025-12-02T0500,2334A,118.1756,26.6272,南平市,南平七中,,38,30,37,26,26,10,10,,,24,22,5,6,0.5,0.5
2025-12-02T0500,1168A,120.9098,31.9663,南通市,狼山街道,,41,41,108,13,36,58,58,,,14,20,3,3,0.4,0.5
2025-12-02T0500,1169A,120.86,32.0005,南通市,虹桥,,37,37,92,9,31,61,61,,,8,16,3,3,0.4,0.5
2025-12-02T0500,1170A,120.87,32.02,南通市,城中,,50,50,111,13,32,55,55,,,18,22,3,4,0.5,0.6
2025-12-02T0500,1171A,120.94,31.93,南通市,星湖花园,,40,40,110,15,34,63,63,,,14,20,4,4,0.3,0.5
2025-12-02T0500,1172A,120.81,32.0417,南通市,紫琅学院,,43,43,116,7,28,53,53,,,20,27,3,4,0.5,0.6
2025-12-02T0500,3291A,121.067,32.062,南通市,通州监测站,,24,24,80,7,29,63,63,,,12,16,3,3,0.4,0.6
2025-12-02T0500,3432A,120.9348,31.9883,南通市,环境教育馆,,39,39,99,10,37,52,52,,,14,26,4,4,0.2,0.4
2025-12-02T0500,2404A,112.5224,33.0122,南阳市,瓦房庄,颗粒物(PM10),128,206,229,73,73,42,42,,,24,23,8,8,0.6,0.6
2025-12-02T0500,2405A,112.5003,32.9735,南阳市,汉画馆,颗粒物(PM10),135,220,239,75,71,42,42,,,24,25,7,7,0.6,0.6
2025-12-02T0500,2406A,112.5573,33.027,南阳市,气象站,颗粒物(PM10),149,248,286,70,73,35,35,,,26,24,7,7,0.7,0.7
2025-12-02T0500,2407A,112.5481,32.9689,南阳市,理工学院,颗粒物(PM10),143,235,251,68,65,43,43,,,25,24,8,7,0.7,0.7
2025-12-02T0500,4008A,112.5234,32.9922,南阳市,卧龙区政府,颗粒物(PM10),140,230,252,61,68,42,42,,,26,26,8,7,0.6,0.6
2025-12-02T0500,1234A,121.8358,29.911,宁波市,区环保大楼,颗粒物(PM10),101,151,141,62,65,1,1,,,57,63,5,7,1.2,1.1
2025-12-02T0500,1235A,121.56,29.82,宁波市,万里学院,细颗粒物(PM2.5),113,127,120,85,76,0,0,,,71,50,6,8,1.2,1.1
2025-12-02T0500,1236A,121.713,29.9572,宁波市,龙赛医院,颗粒物(PM10),101,152,143,63,70,3,3,,,,52,3,4,1.0,0.8
2025-12-02T0500,1239A,121.633,29.7733,宁波市,钱湖水厂,细颗粒物(PM2.5),98,132,125,73,71,15,15,,,34,41,5,7,0.9,0.9
2025-12-02T0500,1240A,121.5856,29.8635,宁波市,太古小学,颗粒物(PM10),107,163,139,73,64,1,1,,,55,43,4,5,1.2,1
2025-12-02T0500,1241A,121.524,29.8674,宁波市,市环境监测中心,颗粒物(PM10),77,104,116,46,62,19,19,,,36,37,7,9,1.1,1.1
2025-12-02T0500,2871A,121.6147,29.9017,宁波市,万里国际学校,颗粒物(PM10),87,123,118,60,60,0,0,,,63,52,4,5,1.2,1.1
2025-12-02T0500,3710A,121.5594,29.8975,宁波市,白沙活动中心,颗粒物(PM10),82,113,129,43,56,7,7,,,50,44,4,5,1.0,1
2025-12-02T0500,2339A,119.5001,26.6946,宁德市,金涵水库,,,,34,,16,,,53,,,10,,2,,0.4
2025-12-02T0500,2341A,119.5388,26.6612,宁德市,宁德市监测站,,,26,31,23,17,24,24,,,,17,10,11,0.5,0.6
2025-12-02T0500,3209A,119.5231,26.6562,宁德市,宁德一中,,26,26,34,17,21,64,64,,,9,11,7,8,0.3,0.4
2025-12-02T0500,2618A,98.8601,25.8567,怒江傈僳族自治州,州监测站,,35,35,39,20,25,17,17,,,12,13,8,8,0.3,0.4
2025-12-02T0500,2619A,98.8546,25.8417,怒江傈僳族自治州,泸水一中,,29,20,32,20,22,10,10,,,11,21,5,5,0.6,0.6
2025-12-02T0500,1888A,101.6891,26.571,攀枝花市,弄弄坪,,,48,56,32,38,8,8,,,,29,8,17,0.8,1.1
2025-12-02T0500,1889A,101.5769,26.5928,攀枝花市,河门口,细颗粒物(PM2.5),60,53,62,43,42,10,10,,,29,25,15,25,1.3,1.6
2025-12-02T0500,1890A,101.7169,26.585,攀枝花市,炳草岗,,,73,71,62,47,6,6,,,,40,6,12,0.9,1.2
2025-12-02T0500,1891A,101.7369,26.5008,攀枝花市,仁和,,,38,53,24,34,14,14,,,,20,5,11,0.6,0.9
2025-12-02T0500,2835A,101.7227,26.567,攀枝花市,四十中小,细颗粒物(PM2.5),77,83,73,56,49,7,7,,,34,42,10,13,1.1,1.3
2025-12-02T0500,1604A,122.0303,41.1489,盘锦市,开发区,,20,11,29,3,11,62,62,,,3,11,1,4,0.2,0.4
2025-12-02T0500,1605A,122.0485,41.0883,盘锦市,兴隆台,,20,7,25,3,10,63,63,,,6,16,8,8,0.3,0.4
2025-12-02T0500,1606A,121.8297,41.1028,盘锦市,新生街道,,13,8,23,3,7,40,40,,,19,20,7,9,0.2,0.2
2025-12-02T0500,1832A,113.3257,33.742,平顶山市,新华旅馆,颗粒物(PM10),153,255,263,89,76,32,32,,,29,31,13,10,0.7,0.5
2025-12-02T0500,1833A,113.2919,33.737,平顶山市,规划设计院,颗粒物(PM10),171,292,267,113,78,20,20,,,43,37,10,8,0.8,0.5
2025-12-02T0500,1834A,113.182,33.774,平顶山市,平顶山工学院,颗粒物(PM10),164,278,264,117,89,15,15,,,,31,19,12,0.8,0.6
2025-12-02T0500,3204A,113.3025,33.73,平顶山市,规划局,颗粒物(PM10),162,273,290,114,76,19,19,,,,33,10,9,0.8,0.5
2025-12-02T0500,3594A,112.8867,33.9116,平顶山市,石龙区,颗粒物(PM10),166,281,322,88,85,42,42,,,26,46,11,9,0.7,0.7
2025-12-02T0500,2656A,106.6692,35.5461,平凉市,聚贤嘉苑,,44,44,75,21,24,35,35,,,32,21,6,6,0.6,0.6
2025-12-02T0500,2657A,106.7021,35.5307,平凉市,博物馆,,47,47,69,20,27,54,54,,,22,17,9,9,0.5,0.5
2025-12-02T0500,2347A,114.0997,27.5002,萍乡市,武功山,,,,,,,,,,,,,,,,
2025-12-02T0500,2348A,113.8385,27.6434,萍乡市,中医院,细颗粒物(PM2.5),78,92,86,57,48,16,16,,,38,42,7,10,1.9,1.2
2025-12-02T0500,2349A,113.8493,27.6253,萍乡市,市政府车库,细颗粒物(PM2.5),87,73,76,64,55,16,16,,,33,36,7,12,1.2,1.2
2025-12-02T0500,2350A,113.8676,27.6435,萍乡市,市环保局,细颗粒物(PM2.5),72,85,72,52,44,25,25,,,24,31,14,21,0.9,0.8
2025-12-02T0500,2351A,113.866,27.6198,萍乡市,安源区政府,细颗粒物(PM2.5),90,72,77,67,62,26,26,,,23,32,10,17,0.8,1.2
2025-12-02T0500,2319A,119.0141,25.4325,莆田市,荔城区仓后路,,21,18,38,10,17,65,65,,,9,15,3,4,0.4,0.5
2025-12-02T0500,2320A,119.0015,25.4553,莆田市,莆田市监测站,,19,16,26,9,14,60,60,,,7,11,3,4,0.4,0.5
2025-12-02T0500,2321A,119.1119,25.4561,莆田市,涵江区六中,,22,22,33,13,16,62,62,,,11,14,3,3,0.2,0.3
2025-12-02T0500,2322A,119.1013,25.3215,莆田市,秀屿区政府,,39,32,36,27,20,84,84,,,13,15,3,4,0.4,0.4
2025-12-02T0500,2323A,118.981,25.4792,莆田市,东圳水库,,,,22,,17,,,75,,,9,,4,,0.6
2025-12-02T0500,2392A,115.0312,35.7636,濮阳市,环保局,,,64,136,16,31,15,15,,,,34,7,9,0.7,0.7
2025-12-02T0500,2394A,115.0574,35.7609,濮阳市,油田运输公司,,,59,134,19,36,16,16,,,,39,8,11,0.9,0.9
2025-12-02T0500,3021A,115,35.7668,濮阳市,濮水河管理处,颗粒物(PM10),55,60,148,22,51,14,14,,,29,34,7,9,0.8,0.8
2025-12-02T0500,4216A,115.0924,35.7686,濮阳市,任丘路479号,,,57,146,20,41,12,12,,,,36,6,10,0.8,0.8
2025-12-02T0500,2601A,100.98,22.7633,普洱市,市环保局,,25,25,44,9,13,18,18,,,4,11,4,4,0.3,0.4
2025-12-02T0500,2602A,100.9817,22.8322,普洱市,普洱第二中学,,27,27,38,16,25,8,8,,,15,15,4,5,0.4,0.4
2025-12-02T0500,2262A,131.0518,45.8751,七台河市,新一中,,,,,,,,,,,,,,,,
2025-12-02T0500,3345A,131.0577,45.7879,七台河市,中波台,细颗粒物(PM2.5),53,47,38,37,28,14,14,,,25,24,6,7,0.7,0.6
2025-12-02T0500,3637A,131.0176,45.7761,七台河市,人民广场,细颗粒物(PM2.5),74,61,47,54,37,10,10,,,34,29,8,7,0.7,0.6
2025-12-02T0500,3684A,130.8781,45.8222,七台河市,新建矿广场,颗粒物(PM10),58,66,69,39,28,8,8,,,35,28,8,8,0.8,0.6
2025-12-02T0500,1779A,123.9305,47.3636,齐齐哈尔市,安居小区,,19,,21,13,10,55,55,,,6,12,6,7,0.3,0.4
2025-12-02T0500,1780A,123.9488,47.3386,齐齐哈尔市,中心广场,,19,19,17,3,7,55,55,,,9,14,7,7,0.3,0.4
2025-12-02T0500,1781A,123.9483,47.3227,齐齐哈尔市,农牧车辆厂,,15,14,23,3,10,48,48,,,4,9,4,4,0.5,0.5
2025-12-02T0500,1783A,123.945,47.2988,齐齐哈尔市,市环境监测站,,18,6,29,3,9,55,55,,,4,13,6,6,0.6,0.6
2025-12-02T0500,3662A,123.6333,47.2075,齐齐哈尔市,富区青少年活动中心,,17,14,29,3,11,53,53,,,8,16,4,5,0.6,0.8
2025-12-02T0500,2591A,107.9783,26.5747,黔东南苗族侗族自治州,市环境监测站,,49,43,89,34,73,36,36,,,18,32,5,7,0.6,0.8
2025-12-02T0500,2881A,107.8908,26.5311,黔东南苗族侗族自治州,凯里学院,,45,44,84,31,64,69,69,,,11,21,8,7,0.6,0.7
2025-12-02T0500,2593A,107.5228,26.2403,黔南布依族苗族自治州,小围寨,细颗粒物(PM2.5),64,63,66,46,55,42,42,,,12,12,5,6,0.5,0.6
2025-12-02T0500,3538A,107.5175,26.2978,黔南布依族苗族自治州,沙坝,细颗粒物(PM2.5),70,61,74,51,57,26,26,,,16,21,5,6,0.5,0.8
2025-12-02T0500,2589A,104.9022,25.0925,黔西南布依族苗族自治州,场坝街,细颗粒物(PM2.5),94,85,68,70,55,23,23,,,25,19,67,16,0.7,0.6
2025-12-02T0500,2590A,104.8811,25.0992,黔西南布依族苗族自治州,坪东大道,细颗粒物(PM2.5),82,67,66,60,57,30,30,,,18,25,9,5,0.7,0.8
2025-12-02T0500,2502A,108.6236,21.9667,钦州市,市环保站,细颗粒物(PM2.5),85,85,83,63,58,36,36,,,24,24,6,4,0.9,1
2025-12-02T0500,2503A,108.6549,21.9481,钦州市,沙埠小学,细颗粒物(PM2.5),93,89,97,69,64,7,7,,,41,33,6,5,0.6,0.8
2025-12-02T0500,2504A,108.5989,21.7431,钦州市,港区一小,细颗粒物(PM2.5),79,69,85,58,56,26,26,,,35,40,6,7,0.8,0.9
2025-12-02T0500,3404A,108.5959,21.9633,钦州市,北职校,细颗粒物(PM2.5),108,,72,81,62,15,15,,,34,21,10,8,0.8,0.7
2025-12-02T0500,1043A,119.7493,40.0116,秦皇岛市,第一关,,23,,16,16,14,58,58,,,12,19,6,5,0.3,0.2
2025-12-02T0500,1044A,119.5897,39.9499,秦皇岛市,监测站,,31,31,30,8,10,75,75,,,4,17,5,6,0.1,0.1
2025-12-02T0500,1046A,119.5251,39.9041,秦皇岛市,建设大厦,,32,32,27,19,18,64,64,,,5,16,3,4,0.2,0.3
2025-12-02T0500,3132A,119.610547,39.943889,秦皇岛市,文明里,,22,17,20,9,11,68,68,,,8,14,7,8,0.2,0.2
2025-12-02T0500,4198A,119.5090,39.8253,秦皇岛市,北戴河轮滑馆,,22,,16,14,9,70,70,,,2,10,2,3,0.2,0.3
2025-12-02T0500,1307A,120.6659,36.2403,青岛市,仰口,,,,,,,,,,,,,,,,
2025-12-02T0500,1310A,120.4134,36.0658,青岛市,市南区东部子站,,46,46,45,22,14,37,37,,,19,18,8,8,0.5,0.5
2025-12-02T0500,1311A,120.3664,36.1032,青岛市,四方区子站,,,36,48,19,16,43,43,,,,17,2,3,0.4,0.4
2025-12-02T0500,1312A,120.2994,36.054,青岛市,市南区西部子站,,44,44,50,12,13,39,39,,,22,24,8,9,0.6,0.6
2025-12-02T0500,1313A,120.4581,36.0858,青岛市,崂山区子站,,,34,40,14,11,48,48,,,,19,9,10,0.5,0.5
2025-12-02T0500,1315A,120.3999,36.3083,青岛市,城阳区子站,,41,41,52,12,16,50,50,,,16,18,5,6,0.6,0.6
2025-12-02T0500,3362A,120.5014,36.4034,青岛市,即墨2号,,43,43,47,19,22,34,34,,,17,16,6,5,0.5,0.4
2025-12-02T0500,3642A,120.3503,36.0736,青岛市,市北区南部,,48,48,53,17,13,32,32,,,21,21,1,2,0.6,0.5
2025-12-02T0500,3643A,120.3948,36.1805,青岛市,李沧区北部,,44,44,45,17,20,54,54,,,11,20,7,7,0.5,0.5
2025-12-02T0500,4290A,120.1969,35.9546,青岛市,珠江路669号,,46,46,51,22,17,13,13,,,45,36,11,11,0.2,0.2
2025-12-02T0500,4291A,120.0424,35.8656,青岛市,黄岛区人民政府广场,,,56,60,22,14,26,26,,,,30,6,7,0.5,0.5
2025-12-02T0500,1702A,113.0426,23.691,清远市,环保大楼,,,,,,,,,,,,,,,,
2025-12-02T0500,1703A,113.0208,23.7106,清远市,凤城街办,,,41,43,28,31,2,2,,,,35,6,11,0.7,0.8
2025-12-02T0500,3025A,113.0477,23.6344,清远市,技师学院,,40,40,37,24,24,1,1,,,53,30,7,13,0.3,0.3
2025-12-02T0500,3318A,112.9903,23.7403,清远市,清新太和,,34,34,42,20,26,34,34,,,27,26,3,8,0.5,0.6
2025-12-02T0500,3455A,113.076,23.7198,清远市,清城东城,,36,36,40,19,22,14,14,,,24,28,5,6,0.7,0.8
2025-12-02T0500,2661A,107.6325,35.7357,庆阳市,庆阳五中,颗粒物(PM10),58,66,86,20,31,58,58,,,9,17,6,6,0.3,0.4
2025-12-02T0500,2662A,107.6364,35.7067,庆阳市,市环保局,颗粒物(PM10),59,67,83,18,41,60,60,,,9,15,5,3,0.6,0.6
2025-12-02T0500,1916A,103.7897,25.5035,曲靖市,环境监测站,,25,25,45,10,26,22,22,,,27,22,3,4,0.5,0.5
2025-12-02T0500,1917A,103.8,25.5364,曲靖市,烟厂办公区,颗粒物(PM10),51,52,54,32,30,5,5,,,49,29,4,6,0.6,0.6
2025-12-02T0500,3376A,103.7947,25.462,曲靖市,南苑二区,,23,23,36,14,24,47,47,,,9,15,3,4,0.3,0.4
2025-12-02T0500,3377A,103.7444,25.5261,曲靖市,曲靖师范学院,,49,46,51,34,34,12,12,,,43,23,12,8,0.5,0.5
2025-12-02T0500,1264A,118.8692,28.9398,衢州市,环保大楼,细颗粒物(PM2.5),178,200,130,134,81,50,50,,,38,42,7,8,1.0,0.8
2025-12-02T0500,1265A,118.8709,28.9666,衢州市,实验学校,细颗粒物(PM2.5),168,181,115,127,78,16,16,,,69,45,9,10,0.8,0.7
2025-12-02T0500,1266A,118.8621,28.9808,衢州市,衢州学院,细颗粒物(PM2.5),173,180,116,131,75,25,25,,,57,38,8,9,1.0,0.9
2025-12-02T0500,1611A,118.5819,24.9117,泉州市,涂山街,,21,20,38,11,21,65,65,,,8,14,2,3,0.4,0.5
2025-12-02T0500,1612A,118.5972,24.8978,泉州市,津头埔,,,16,39,12,21,59,59,,,,17,2,4,0.4,0.5
2025-12-02T0500,1613A,118.6663,24.9424,泉州市,万安,,20,19,38,10,19,64,64,,,5,12,2,4,0.4,0.5
2025-12-02T0500,1614A,118.6117,24.9604,泉州市,清源山,,,,34,,20,,,99,,,8,,4,,0.5
2025-12-02T0500,3529A,118.6333,24.9264,泉州市,城华南路,,22,16,27,10,16,68,68,,,5,12,4,5,0.1,0.1
2025-12-02T0500,2626A,88.8876,29.2718,日喀则市,日喀则监测站,,32,32,45,15,22,10,10,,,25,30,10,21,0.7,0.9
2025-12-02T0500,3726A,88.8781,29.2426,日喀则市,林业技术推广中心,,26,26,32,14,13,16,16,,,11,14,9,10,0.7,0.6
2025-12-02T0500,1659A,119.471,35.4209,日照市,监测站,,46,46,63,13,20,31,31,,,34,35,8,9,0.5,0.6
2025-12-02T0500,1660A,119.523,35.4216,日照市,市政府广场,,48,48,56,18,17,26,26,,,30,23,10,9,0.6,0.7
2025-12-02T0500,1661A,119.5587,35.4044,日照市,港务局,,,53,56,29,24,32,32,,,,20,12,9,0.6,0.6
2025-12-02T0500,3507A,119.5328,35.4625,日照市,职业技术学院,,48,48,56,12,17,30,30,,,34,25,8,7,0.6,0.7
2025-12-02T0500,3604A,119.3266,35.1044,日照市,岚山环保分局,颗粒物(PM10),67,83,71,34,22,14,14,,,56,28,42,22,4.1,1.7
2025-12-02T0500,1835A,111.1922,34.7752,三门峡市,市政府,颗粒物(PM10),116,181,229,66,72,1,1,,,53,38,13,11,0.6,0.5
2025-12-02T0500,1836A,111.1587,34.7942,三门峡市,开发区,颗粒物(PM10),130,209,231,65,73,4,4,,,48,39,6,8,0.5,0.4
2025-12-02T0500,1838A,111.143,34.7955,三门峡市,风景区,颗粒物(PM10),107,163,218,54,58,8,8,,,36,29,8,10,0.6,0.5
2025-12-02T0500,3039A,111.1911,34.7829,三门峡市,三门峡市第一小学,颗粒物(PM10),127,204,252,66,65,2,2,,,53,33,12,11,0.5,0.4
2025-12-02T0500,3598A,111.1,34.7167,三门峡市,富达温泉假日酒店,颗粒物(PM10),134,218,234,81,64,4,4,,,48,36,17,15,0.8,0.7
2025-12-02T0500,2324A,117.6211,26.2625,三明市,三钢,细颗粒物(PM2.5),53,48,45,37,34,17,17,,,28,29,7,8,0.6,0.9
2025-12-02T0500,2325A,117.635,26.2714,三明市,三明二中,,45,32,40,31,29,19,19,,,24,22,11,9,0.7,0.9
2025-12-02T0500,2326A,117.6028,26.2378,三明市,三元区政府,,38,38,48,24,30,10,10,,,31,33,4,11,1.2,1.6
2025-12-02T0500,2327A,117.7275,26.3108,三明市,洋溪,,,,29,,28,,,55,,,13,,16,,1.4
2025-12-02T0500,1876A,109.5078,18.2489,三亚市,河东子站,,22,22,14,7,7,11,11,,,20,18,3,4,0.4,0.4
2025-12-02T0500,1877A,109.4964,18.2681,三亚市,河西子站,,19,19,15,3,5,8,8,,,18,16,2,2,0.6,0.6
2025-12-02T0500,3540A,109.7348,18.3443,三亚市,君悦子站,,14,14,13,3,4,25,25,,,11,11,4,4,0.7,0.6
2025-12-02T0500,2624A,91.7608,29.2313,山南市,山南监测站,,18,15,26,12,17,23,23,,,13,20,5,5,0.3,0.4
2025-12-02T0500,2625A,91.7706,29.2436,山南市,山南人民医院,,14,14,23,8,12,22,22,,,14,20,8,8,0.4,0.5
2025-12-02T0500,1674A,116.6794,23.3667,汕头市,金平子站,,35,29,28,24,18,57,57,,,16,17,4,6,0.5,0.5
2025-12-02T0500,1675A,116.7244,23.3633,汕头市,龙湖子站,,,24,27,19,16,59,59,,,,13,8,9,0.4,0.4
2025-12-02T0500,1676A,116.7258,23.2775,汕头市,濠江子站,,26,20,25,18,17,70,70,,,5,11,6,7,0.5,0.6
2025-12-02T0500,1677A,116.7519,23.4714,汕头市,澄海子站,细颗粒物(PM2.5),54,,33,38,21,39,39,,,20,14,7,6,0.7,0.6
2025-12-02T0500,1678A,116.6092,23.2539,汕头市,潮阳子站,,,19,31,14,21,71,71,,,,16,6,7,0.5,0.7
2025-12-02T0500,3444A,116.454,23.2684,汕头市,潮南峡山,,,37,32,20,20,55,55,,,,12,8,9,0.8,0.8
2025-12-02T0500,3624A,116.4069,23.2533,汕头市,潮南子站,,39,39,38,20,23,61,61,,,10,16,8,7,0.5,0.6
2025-12-02T0500,1693A,115.3653,22.775,汕尾市,市环保局,,38,26,25,26,17,62,62,,,13,12,6,6,0.7,0.7
2025-12-02T0500,1694A,115.3706,22.7898,汕尾市,市政府,,30,30,25,13,15,64,64,,,13,14,7,7,0.3,0.3
2025-12-02T0500,1695A,115.3622,22.7925,汕尾市,新城中学,,33,31,26,23,16,67,67,,,12,15,4,4,0.4,0.5
2025-12-02T0500,2645A,109.9154,33.8715,商洛市,监测站,颗粒物(PM10),61,72,73,33,37,25,25,,,30,37,5,11,0.6,0.7
2025-12-02T0500,3045A,109.9643,33.8471,商洛市,商州区中学,颗粒物(PM10),58,65,72,34,34,6,6,,,43,42,4,10,0.7,0.7
2025-12-02T0500,2408A,115.6702,34.4285,商丘市,环境监测站,细颗粒物(PM2.5),144,214,184,110,63,12,12,,,64,42,7,4,0.6,0.4
2025-12-02T0500,2409A,115.6458,34.4045,商丘市,粮食局,颗粒物(PM10),114,178,168,82,53,20,20,,,,32,10,6,0.6,0.6
2025-12-02T0500,2410A,115.6293,34.3948,商丘市,睢阳区环保局,颗粒物(PM10),131,211,183,97,57,17,17,,,,32,11,6,0.6,0.4
2025-12-02T0500,3171A,115.6071,34.4465,商丘市,梁园区档案局,细颗粒物(PM2.5),134,206,188,102,61,6,6,,,63,41,8,5,0.6,0.5
2025-12-02T0500,1141A,121.4,31.238,上海市,普陀,,47,47,98,16,50,64,64,,,22,33,5,7,0.5,0.8
2025-12-02T0500,1142A,121.478,31.2036,上海市,十五厂,,45,45,102,13,35,62,62,,,16,31,9,10,0.6,0.8
2025-12-02T0500,1143A,121.467,31.3008,上海市,虹口,,43,43,99,15,47,60,60,,,14,30,10,11,0.4,0.6
2025-12-02T0500,1147A,121.425,31.2261,上海市,静安监测站,,45,45,100,17,48,66,66,,,21,32,6,6,0.4,0.7
