timepoint,stationcode,longitude,latitude,area,positionname,primarypollutant,aqi,pm10,pm10_24h,pm2_5,pm2_5_24h,o3,o3_24h,o3_8h,o3_8h_24h,no2,no2_24h,so2,so2_24h,co,co_24h
2023-08-22T21:00:00,1001A,116.3621,39.8784,北京市,万寿西宫,,34,24,18,10,8,125,106,111,111,25,20,3,3,0.3,0.3
2023-08-22T21:00:00,1002A,116.2202,40.2915,北京市,定陵,,21,14,14,4,5,107,66,92,88,8,7,3,3,0.3,0.3
2023-08-22T21:00:00,1003A,116.4174,39.9289,北京市,东四,,32,26,21,9,7,122,102,112,112,26,22,3,2,0.5,0.4
2023-08-22T21:00:00,1004A,116.4072,39.8863,北京市,天坛,,20,17,16,7,8,123,63,106,100,20,22,3,3,0.3,0.3
2023-08-22T21:00:00,1005A,116.462,39.9365,北京市,农展馆,,27,24,18,8,7,115,85,102,100,28,20,3,3,0.4,0.3
2023-08-22T21:00:00,1006A,116.3392,39.9295,北京市,官园,,35,26,20,11,8,130,109,115,115,25,20,4,4,0.5,0.5
2023-08-22T21:00:00,1007A,116.2878,39.9611,北京市,海淀万柳,,41,41,21,11,7,114,75,102,100,38,22,3,3,0.4,0.2
2023-08-22T21:00:00,1008A,116.6636,40.135,北京市,顺义新城,,16,15,18,5,7,108,50,99,92,22,14,3,3,0.3,0.2
2023-08-22T21:00:00,1009A,116.6275,40.3275,北京市,怀柔镇,,23,12,14,6,6,99,73,90,88,8,9,3,3,0.2,0.2
2023-08-22T21:00:00,1010A,116.2296,40.217,北京市,昌平镇,,20,17,14,7,6,112,62,99,95,17,14,3,3,0.2,0.2
2023-08-22T21:00:00,1011A,116.3966,39.9821,北京市,奥体中心,,34,34,24,9,7,123,50,81,79,51,34,3,3,0.4,0.3
2023-08-22T21:00:00,1012A,116.184,39.9136,北京市,古城,,33,33,22,9,6,121,91,104,104,25,16,3,3,0.3,0.2
2023-08-22T21:00:00,1015A,117.1444,39.1661,天津市,勤俭道,,26,17,30,6,18,141,83,128,121,30,21,6,7,0.5,0.4
2023-08-22T21:00:00,1017A,117.237,39.1082,天津市,大直沽八号路,,26,24,28,8,17,123,53,113,104,52,19,4,4,0.5,0.5
2023-08-22T21:00:00,1018A,117.202,39.0927,天津市,前进道,,25,16,24,7,16,128,78,116,111,30,18,5,5,0.6,0.6
2023-08-22T21:00:00,1019A,117.1837,39.2133,天津市,淮河道,,27,18,31,7,19,125,51,115,104,53,26,4,4,0.6,0.6
2023-08-22T21:00:00,1021A,117.307,39.0877,天津市,跃进路,,36,25,28,9,18,126,32,114,100,72,26,6,5,0.6,0.6
2023-08-22T21:00:00,1023A,117.707,39.0343,天津市,第四大街,,25,12,27,4,20,109,58,103,98,50,22,5,5,0.5,0.5
2023-08-22T21:00:00,1024A,117.457,38.8394,天津市,永明路,,29,20,28,6,17,136,52,122,110,58,20,5,5,0.4,0.4
2023-08-22T21:00:00,1026A,117.764,39.1587,天津市,汉北路,,28,18,31,4,20,121,38,112,100,55,21,5,5,0.4,0.6
2023-08-22T21:00:00,1027A,117.157,38.9194,天津市,团泊洼,,24,11,24,4,17,136,55,120,110,47,22,2,3,0.5,0.6
2023-08-22T21:00:00,1029A,114.4422,38.0444,石家庄市,职工医院,,36,26,51,25,32,167,113,148,146,10,25,2,5,0.3,0.5
2023-08-22T21:00:00,1030A,114.6063,38.0266,石家庄市,高新区,,42,42,48,16,25,172,101,142,138,18,19,2,2,0.2,0.5
2023-08-22T21:00:00,1031A,114.4898,38.1328,石家庄市,西北水源,,50,50,45,21,25,167,98,141,137,20,19,1,2,0.4,0.6
2023-08-22T21:00:00,1032A,114.4586,38.0058,石家庄市,西南高教,,40,40,52,27,24,165,104,144,140,15,20,3,4,0.3,0.5
2023-08-22T21:00:00,1033A,114.5331,38.0178,石家庄市,世纪公园,,43,43,53,25,28,157,103,138,136,17,20,3,4,0.1,0.5
2023-08-22T21:00:00,1034A,114.509,38.0457,石家庄市,人民会堂,,43,43,52,9,22,178,119,151,149,13,20,5,5,0.2,0.5
2023-08-22T21:00:00,1035A,114.3524,37.8911,石家庄市,封龙山,,36,33,47,13,20,183,113,170,132,12,12,2,3,0.6,0.7
2023-08-22T21:00:00,1037A,118.131,39.6363,唐山市,雷达站,颗粒物(PM10),68,86,49,18,19,130,101,116,115,23,25,4,4,0.6,0.5
2023-08-22T21:00:00,1038A,118.1725,39.6334,唐山市,物资局,颗粒物(PM10),68,86,45,11,20,123,82,112,110,35,19,7,6,0.7,0.5
2023-08-22T21:00:00,1040A,118.1705,39.6506,唐山市,十二中,颗粒物(PM10),63,76,37,27,20,123,90,112,111,39,24,5,3,0.7,0.5
2023-08-22T21:00:00,1041A,118.1869,39.622,唐山市,小山,颗粒物(PM10),74,98,46,12,11,131,72,116,113,33,13,2,2,0.6,0.5
2023-08-22T21:00:00,1042A,119.5134,39.8207,秦皇岛市,北戴河环保局,,39,16,40,6,6,134,122,127,127,15,22,5,6,0,0.2
2023-08-22T21:00:00,1043A,119.7493,40.0116,秦皇岛市,第一关,,37,30,36,9,12,116,41,108,98,73,41,2,3,0.2,0.2
2023-08-22T21:00:00,1044A,119.5897,39.9499,秦皇岛市,监测站,,,,45,,13,111,,106,106,15,31,7,8,0.5,0.6
2023-08-22T21:00:00,1046A,119.5251,39.9041,秦皇岛市,建设大厦,,46,46,47,20,17,118,89,107,107,20,30,1,2,0.3,0.4
2023-08-22T21:00:00,1048A,114.5302,36.6116,邯郸市,东污水处理厂,颗粒物(PM10),59,67,59,34,37,163,103,158,147,28,30,4,14,0.7,2
2023-08-22T21:00:00,1049A,114.4918,36.5713,邯郸市,矿院,,50,50,55,31,35,165,96,162,148,36,36,2,14,0.4,1.8
2023-08-22T21:00:00,1050A,114.484,36.6133,邯郸市,丛台公园,,44,44,60,29,27,167,130,162,156,10,25,7,16,0.4,2
2023-08-22T21:00:00,1051A,115.493,38.8632,保定市,游泳馆,,35,35,31,13,14,154,98,136,133,33,18,6,6,0.1,0.2
2023-08-22T21:00:00,1052A,115.5213,38.8959,保定市,华电二区,,45,45,33,23,14,148,97,134,132,27,16,8,4,0.3,0.3
2023-08-22T21:00:00,1053A,115.4713,38.9108,保定市,接待中心,,38,31,34,8,11,144,121,132,132,13,14,7,7,0.5,0.6
2023-08-22T21:00:00,1054A,115.4612,38.8416,保定市,地表水厂,颗粒物(PM10),54,58,47,18,18,144,96,129,126,40,25,8,7,0.1,0.3
2023-08-22T21:00:00,1056A,115.5086,38.8639,保定市,监测站,颗粒物(PM10),62,73,34,27,15,153,90,137,134,38,19,6,5,0.2,0.2
2023-08-22T21:00:00,1057A,114.8883,40.8336,张家口市,人民公园,,28,14,20,3,3,116,89,104,104,14,8,2,3,0.1,0.1
2023-08-22T21:00:00,1059A,114.8687,40.8042,张家口市,五金库,,,19,23,7,4,115,89,102,102,14,6,3,4,,0.2
2023-08-22T21:00:00,1060A,114.8902,40.762,张家口市,世纪豪园,,28,16,19,19,19,115,84,104,103,19,9,4,3,0.1,0
2023-08-22T21:00:00,1061A,114.8916,40.8661,张家口市,北泵房,,26,15,20,6,7,118,81,105,102,10,6,6,6,0.2,0.2
2023-08-22T21:00:00,1062A,117.9531,40.9081,承德市,铁路,,35,35,24,20,10,105,30,91,74,33,25,8,9,0.5,0.4
2023-08-22T21:00:00,1063A,117.9392,40.9763,承德市,中国银行,,38,32,24,26,8,109,25,101,85,35,17,9,9,0.4,0.3
2023-08-22T21:00:00,1064A,117.9503,40.928,承德市,开发区,,28,22,27,19,13,115,51,108,96,24,15,8,8,0.4,0.3
2023-08-22T21:00:00,1065A,117.8051,40.9655,承德市,文化中心,,40,40,27,15,7,103,16,96,79,52,27,8,6,0.3,0.3
2023-08-22T21:00:00,1066A,117.9268,41.0026,承德市,离宫,,29,20,20,20,8,108,12,96,74,42,9,2,2,0.3,0.2
2023-08-22T21:00:00,1067A,116.6708,39.5111,廊坊市,药材公司,颗粒物(PM10),51,52,37,12,12,125,53,114,104,37,25,2,1,0.4,0.3
2023-08-22T21:00:00,1068A,116.7214,39.5589,廊坊市,开发区,,28,26,27,19,15,131,58,116,104,22,21,1,1,0.4,0.3
2023-08-22T21:00:00,1070A,116.7244,39.5269,廊坊市,北华航天学院,,50,50,35,17,13,129,19,115,102,64,24,2,2,0.5,0.3
2023-08-22T21:00:00,1071A,116.8842,38.2991,沧州市,沧县城建局,,46,46,32,17,15,148,77,133,128,45,18,4,5,0.5,0.4
2023-08-22T21:00:00,1072A,116.8584,38.3254,沧州市,电视转播站,,27,27,30,7,13,139,71,127,120,36,19,6,8,0.4,0.3
2023-08-22T21:00:00,1073A,116.8709,38.3228,沧州市,市环保局,,33,33,33,18,19,143,96,132,129,45,29,1,2,0.2,0.2
2023-08-22T21:00:00,1074A,115.6838,37.7541,衡水市,电机北厂,,31,31,41,12,20,152,96,138,132,20,12,6,3,0.2,0.5
2023-08-22T21:00:00,1075A,115.6303,37.7316,衡水市,市监测站,,41,41,39,11,15,154,101,142,135,21,15,4,6,0.3,0.5
2023-08-22T21:00:00,1077A,114.4704,37.0886,邢台市,达活泉,颗粒物(PM10),56,61,61,20,30,189,130,170,168,9,8,5,6,0.4,0.6
2023-08-22T21:00:00,1078A,114.5062,37.0349,邢台市,邢师高专,颗粒物(PM10),56,62,65,24,33,181,116,157,153,16,26,6,6,0.4,0.7
2023-08-22T21:00:00,1079A,114.5237,37.0851,邢台市,路桥公司,,50,50,58,16,33,179,121,160,157,11,15,5,8,0.5,0.8
2023-08-22T21:00:00,1080A,114.4725,37.0719,邢台市,市环保局,颗粒物(PM10),54,57,65,23,36,182,129,162,160,11,10,5,6,0.5,0.7
2023-08-22T21:00:00,1081A,112.522,37.8873,太原市,尖草坪,,38,35,48,11,12,163,119,147,143,25,34,13,10,0.9,0.7
2023-08-22T21:00:00,1083A,112.434,38.0108,太原市,上兰,,,,,,,,,,,,,,,,
2023-08-22T21:00:00,1084A,112.469,37.7124,太原市,晋源,颗粒物(PM10),55,59,54,12,16,178,117,160,153,19,32,3,4,0.5,0.6
2023-08-22T21:00:00,1085A,112.5583,37.7394,太原市,小店,颗粒物(PM10),55,60,58,14,13,177,126,151,143,18,44,4,6,0.5,0.6
2023-08-22T21:00:00,1086A,112.5369,37.8692,太原市,桃园,颗粒物(PM10),52,54,52,16,12,162,116,142,138,23,37,9,8,1.1,0.6
2023-08-22T21:00:00,1087A,112.57,37.8195,太原市,坞城,,48,48,41,15,13,171,129,141,138,17,33,6,11,0.5,0.7
2023-08-22T21:00:00,1088A,112.549,37.9854,太原市,南寨,颗粒物(PM10),83,115,67,10,13,159,123,133,121,14,40,2,7,0.4,0.6
2023-08-22T21:00:00,1090A,111.6507,40.7517,呼和浩特市,呼市一监,,24,24,20,14,6,116,65,102,99,30,18,6,6,0.6,0.5
2023-08-22T21:00:00,1091A,111.6572,40.8033,呼和浩特市,小召,,,24,24,11,6,120,,107,107,30,22,4,6,,0.5
2023-08-22T21:00:00,1094A,111.7516,40.8369,呼和浩特市,如意水处理厂,,24,24,20,6,4,119,44,104,93,41,25,6,6,0.5,0.4
2023-08-22T21:00:00,1095A,111.7276,40.8062,呼和浩特市,二十九中,,25,25,25,7,6,123,66,107,103,32,24,6,7,0.6,0.5
2023-08-22T21:00:00,1096A,111.5512,40.7866,呼和浩特市,工大金川校区,,44,44,28,10,6,123,29,100,90,63,27,3,5,0.5,0.4
2023-08-22T21:00:00,1097A,111.717,40.7612,呼和浩特市,化肥厂生活区,,28,28,27,6,6,118,76,107,103,25,20,5,6,0.5,0.4
2023-08-22T21:00:00,1098A,123.6836,41.9339,沈阳市,森林路,,,,,,,,,,,,,,,,
2023-08-22T21:00:00,1099A,123.505,41.7406,沈阳市,浑南东路,,22,18,23,11,14,139,38,116,93,43,24,7,8,0.7,0.8
2023-08-22T21:00:00,1100A,123.4231,41.6989,沈阳市,新秀街,,36,20,19,9,13,124,10,111,82,72,24,6,7,0.7,0.8
2023-08-22T21:00:00,1102A,123.5903,41.8411,沈阳市,东陵路,,33,33,26,8,12,122,10,100,71,38,16,6,6,0.4,0.6
2023-08-22T21:00:00,1103A,123.4264,41.8467,沈阳市,陵东街,,18,16,21,8,12,108,6,98,72,35,12,5,5,0.6,0.6
2023-08-22T21:00:00,1104A,123.4114,41.7653,沈阳市,文化路,,20,20,22,7,15,126,42,109,88,40,16,6,7,0.5,0.6
2023-08-22T21:00:00,1105A,123.4678,41.7867,沈阳市,小河沿,,20,15,20,10,12,113,35,102,83,40,19,4,5,0.7,0.7
2023-08-22T21:00:00,1106A,123.4017,41.7972,沈阳市,太原街,,38,37,24,14,16,122,6,103,68,76,22,7,6,0.9,0.5
2023-08-22T21:00:00,1108A,123.3783,41.9228,沈阳市,京沈街,,18,16,26,3,16,112,57,102,86,22,14,6,7,0.4,0.6
2023-08-22T21:00:00,1109A,121.612,38.9741,大连市,甘井子,,35,26,20,18,16,158,112,143,133,15,14,5,4,1.2,1.3
2023-08-22T21:00:00,1110A,121.565,38.9511,大连市,周水子,,33,21,17,16,15,146,103,139,129,22,15,3,4,0.5,0.7
2023-08-22T21:00:00,1111A,121.5637,38.8845,大连市,星海三站,,36,36,24,18,15,162,94,149,136,24,12,8,8,0.4,0.6
2023-08-22T21:00:00,1112A,121.6302,38.9117,大连市,青泥洼桥,,,28,29,,15,151,103,139,130,20,14,6,5,0.8,1.1
2023-08-22T21:00:00,1113A,121.6251,38.8638,大连市,傅家庄,,27,27,21,16,15,162,84,151,139,32,8,8,8,0.8,1
2023-08-22T21:00:00,1114A,121.5213,38.8661,大连市,七贤岭,,36,29,23,14,15,174,113,165,152,14,10,6,6,0.3,0.6
2023-08-22T21:00:00,1115A,121.2529,38.8061,大连市,旅顺,,38,18,15,12,13,156,120,148,142,12,12,5,5,0.4,0.7
2023-08-22T21:00:00,1116A,121.7485,39.1311,大连市,金州,,36,19,19,14,16,146,114,133,128,11,13,8,9,0.7,0.9
2023-08-22T21:00:00,1117A,121.7811,39.0496,大连市,开发区,,36,29,22,18,17,173,114,152,146,15,13,9,6,0.8,0.9
2023-08-22T21:00:00,1118A,121.9762,39.0631,大连市,双D港,,36,31,23,25,14,175,102,162,140,16,12,6,7,0.5,0.6
2023-08-22T21:00:00,1119A,125.3325,43.9166,长春市,食品厂,,31,31,15,20,9,103,18,92,61,54,19,3,3,0.6,0.5
2023-08-22T21:00:00,1120A,125.2863,43.9027,长春市,客车厂,,31,31,14,17,9,101,21,91,63,49,14,4,4,0.6,0.4
2023-08-22T21:00:00,1121A,125.2841,43.8463,长春市,邮电学院,,28,28,14,14,9,108,10,98,67,48,12,5,4,0.5,0.4
2023-08-22T21:00:00,1122A,125.3716,43.8772,长春市,劳动公园,,22,22,13,7,7,114,31,103,76,40,11,6,5,0.4,0.4
2023-08-22T21:00:00,1123A,125.3297,43.8805,长春市,园林处,,,25,16,11,6,104,,90,63,52,16,4,2,0.5,0.6
2023-08-22T21:00:00,1124A,125.4605,43.79,长春市,净月潭,,14,14,13,5,4,120,21,105,68,12,7,5,5,0.3,0.3
2023-08-22T21:00:00,1125A,125.7194,43.515,长春市,甩湾子,,,,,,,,,,,,,,,,
2023-08-22T21:00:00,1126A,125.3863,43.8447,长春市,经开区环卫处,,33,33,15,15,7,106,20,96,69,36,13,4,4,0.4,0.3
2023-08-22T21:00:00,1127A,125.245,43.7783,长春市,高新区管委会,,32,32,13,9,8,106,3,94,61,51,11,3,3,0.5,0.4
2023-08-22T21:00:00,1128A,125.1761,43.8325,长春市,岱山公园,,20,16,12,8,7,102,27,91,65,39,11,3,2,0.3,0.4
2023-08-22T21:00:00,1129A,126.5422,45.755,哈尔滨市,岭北,,27,10,10,4,9,118,86,114,100,7,8,14,15,0.1,0.3
2023-08-22T21:00:00,1130A,126.561,45.8167,哈尔滨市,松北商大,,18,18,17,4,7,97,51,87,66,8,7,6,6,0.4,0.6
2023-08-22T21:00:00,1131A,126.979,45.5419,哈尔滨市,阿城会宁,,28,28,17,14,10,107,50,102,84,14,9,4,4,0.6,0.6
2023-08-22T21:00:00,1132A,126.599,45.7222,哈尔滨市,南岗学府路,,26,26,25,5,9,101,62,96,79,8,5,6,4,0.5,0.6
2023-08-22T21:00:00,1133A,126.689,45.7733,哈尔滨市,太平宏伟公园,,26,26,15,4,6,98,58,94,78,17,10,7,7,0.4,0.5
2023-08-22T21:00:00,1134A,126.635,45.7667,哈尔滨市,道外承德广场,,24,24,19,3,10,97,46,93,72,32,15,6,6,0.2,0.2
2023-08-22T21:00:00,1135A,126.685,45.7319,哈尔滨市,香坊红旗大街,,39,31,18,27,11,101,43,94,75,35,15,7,6,0.7,0.7
2023-08-22T21:00:00,1136A,126.6411,45.7258,哈尔滨市,动力和平路,,,1,20,,,100,57,95,77,18,13,7,6,0.4,0.6
2023-08-22T21:00:00,1137A,126.593,45.7478,哈尔滨市,道里建国路,,31,31,32,15,17,92,50,88,69,44,17,5,7,0.5,0.8
2023-08-22T21:00:00,1138A,126.615,45.61,哈尔滨市,平房东轻厂,,14,12,16,5,8,100,43,95,74,25,8,6,5,0.2,0.3
2023-08-22T21:00:00,1139A,126.595,45.9855,哈尔滨市,呼兰师专,,,12,15,3,7,87,57,83,65,17,9,5,8,,0.5
2023-08-22T21:00:00,1140A,126.6206,45.6842,哈尔滨市,省农科院,,24,24,25,5,7,101,47,99,78,28,15,11,8,0.4,0.5
2023-08-22T21:00:00,1141A,121.4,31.238,上海市,普陀,,28,10,42,11,24,192,88,152,116,19,19,4,6,0.7,0.7
2023-08-22T21:00:00,1142A,121.478,31.2036,上海市,十五厂,,26,12,42,12,29,201,83,152,118,28,24,9,10,0.6,0.6
2023-08-22T21:00:00,1143A,121.467,31.3008,上海市,虹口,,24,10,41,7,23,196,76,154,116,29,24,6,7,0.6,0.6
2023-08-22T21:00:00,1144A,121.412,31.1654,上海市,徐汇上师大,,28,14,41,9,25,188,88,158,119,21,20,4,5,0.8,0.8
2023-08-22T21:00:00,1145A,121.536,31.2659,上海市,杨浦四漂,,27,11,41,8,25,226,85,176,133,27,20,6,6,0.7,0.6
2023-08-22T21:00:00,1147A,121.425,31.2261,上海市,静安监测站,,32,10,39,6,24,195,102,159,125,17,19,2,2,0.6,0.6
2023-08-22T21:00:00,1148A,121.703,31.1907,上海市,浦东川沙,,29,10,40,6,27,216,90,179,134,23,19,6,6,0.6,0.8
2023-08-22T21:00:00,1149A,121.533,31.2284,上海市,浦东新区监测站,,23,14,41,8,24,222,72,162,124,29,18,6,6,0.7,0.6
2023-08-22T21:00:00,1150A,121.577,31.2071,上海市,浦东张江,,21,14,42,10,27,209,66,162,127,29,20,6,6,0.7,0.7
2023-08-22T21:00:00,1151A,118.8086,32.1065,南京市,迈皋桥,,35,33,19,24,14,111,59,100,94,29,14,4,4,0.5,0.5
2023-08-22T21:00:00,1152A,118.7538,32.0551,南京市,草场门,,38,38,21,24,15,118,88,104,103,28,19,3,3,0.7,0.7
2023-08-22T21:00:00,1153A,118.7794,32.0745,南京市,山西路,,44,44,26,24,13,139,95,121,118,23,13,4,4,0.4,0.4
2023-08-22T21:00:00,1154A,118.7752,32.0023,南京市,中华门,,39,39,19,24,13,111,53,93,90,43,19,8,8,1.1,1
2023-08-22T21:00:00,1155A,118.8109,32.0309,南京市,瑞金路,,41,41,21,27,14,113,67,102,98,30,15,5,6,0.5,0.5
2023-08-22T21:00:00,1156A,118.7997,32.0754,南京市,玄武湖,,,35,20,22,13,114,,102,102,31,14,5,7,0.7,0.7
2023-08-22T21:00:00,1157A,118.6414,32.0931,南京市,浦口,,35,32,20,24,12,120,90,110,108,10,9,5,5,0.5,0.5
2023-08-22T21:00:00,1158A,118.7356,31.9996,南京市,奥体中心,,37,37,20,24,17,116,97,104,104,20,17,8,8,0.7,0.6
2023-08-22T21:00:00,1159A,118.9125,32.1028,南京市,仙林大学城,,44,44,18,24,15,126,107,111,111,21,14,8,8,0.7,0.8
2023-08-22T21:00:00,1160A,120.561,31.2472,苏州市,上方山,,25,25,27,16,17,114,33,99,61,23,11,6,7,0.8,0.5
2023-08-22T21:00:00,1162A,120.591,31.3019,苏州市,彩香,,39,34,30,27,20,128,59,120,86,26,10,6,7,1.1,0.8
2023-08-22T21:00:00,1163A,120.596,31.3264,苏州市,轧钢厂,,40,39,31,28,22,131,61,120,89,24,10,9,9,1.1,0.8
2023-08-22T21:00:00,1164A,120.613,31.2703,苏州市,吴中区,,31,31,30,21,20,138,83,121,96,15,11,9,10,0.9,0.7
2023-08-22T21:00:00,1165A,120.543,31.2994,苏州市,苏州新区,,50,47,31,35,21,127,50,120,83,34,10,8,8,1.1,0.8
2023-08-22T21:00:00,1166A,120.669,31.3097,苏州市,苏州工业园区,,,36,33,32,22,138,65,120,88,20,10,7,7,,0.7
2023-08-22T21:00:00,1167A,120.641,31.3708,苏州市,相城区,,35,24,24,24,21,135,74,116,93,14,12,8,8,1.1,0.8
2023-08-22T21:00:00,1168A,120.9098,31.9663,南通市,狼山街道,,17,8,24,1,12,163,54,124,88,15,22,7,10,0.6,0.7
2023-08-22T21:00:00,1169A,120.86,32.0005,南通市,虹桥,,28,14,30,7,21,161,87,126,97,17,23,5,7,0.7,0.9
2023-08-22T21:00:00,1170A,120.87,32.02,南通市,城中,,26,10,27,4,17,161,81,125,96,16,17,5,7,0.8,0.9
2023-08-22T21:00:00,1171A,120.94,31.93,南通市,星湖花园,,22,10,26,8,16,166,41,128,88,43,27,5,7,0.6,0.8
2023-08-22T21:00:00,1172A,120.81,32.0417,南通市,紫琅学院,,23,2,22,9,15,151,73,112,91,20,19,5,7,0.7,0.8
2023-08-22T21:00:00,1173A,119.176,34.5885,连云港市,市环境监测站,,43,39,38,27,24,186,136,175,169,12,12,6,7,0.4,0.6
2023-08-22T21:00:00,1177A,117.179,34.2761,徐州市,黄河新村,颗粒物(PM10),74,97,55,34,29,206,144,190,184,23,16,16,12,0.4,0.4
2023-08-22T21:00:00,1178A,117.1918,34.2384,徐州市,淮塔,,,,48,,28,206,,193,193,11,11,13,12,0.6,0.5
2023-08-22T21:00:00,1180A,117.256,34.2153,徐州市,新城区,颗粒物(PM10),74,97,52,22,23,199,159,190,183,13,7,10,10,0.4,0.5
2023-08-22T21:00:00,1181A,117.244,34.2911,徐州市,桃园路,颗粒物(PM10),70,90,52,32,26,200,135,189,180,32,16,11,11,0.6,0.6
2023-08-22T21:00:00,1182A,117.2933,34.2778,徐州市,农科院,颗粒物(PM10),73,95,44,30,25,194,133,182,173,27,14,8,9,0.5,0.5
2023-08-22T21:00:00,1186A,119.389,32.3761,扬州市,邗江监测站,,48,41,30,33,23,126,104,111,108,11,15,2,4,0.8,0.7
2023-08-22T21:00:00,1188A,120.269,31.4867,无锡市,雪浪,,32,27,20,22,13,143,62,122,92,20,6,4,5,0.8,0.7
2023-08-22T21:00:00,1189A,120.275,31.6219,无锡市,黄巷,,46,46,28,24,18,129,23,97,54,72,31,6,6,0.9,0.9
2023-08-22T21:00:00,1190A,120.294,31.56,无锡市,曹张,,29,29,27,17,18,132,40,101,66,51,22,7,7,1.1,0.9
2023-08-22T21:00:00,1191A,120.242,31.5031,无锡市,漆塘,,,,19,22,15,139,,115,89,31,16,5,5,0.5,0.5
2023-08-22T21:00:00,1192A,120.3489,31.5863,无锡市,东亭,,35,29,24,24,20,141,45,114,75,55,22,6,5,1.0,0.8
2023-08-22T21:00:00,1193A,120.354,31.5475,无锡市,旺庄,,35,29,24,24,18,145,57,116,81,35,13,10,9,1.3,1
2023-08-22T21:00:00,1194A,120.245,31.5631,无锡市,荣巷,,29,29,20,19,15,139,43,104,73,26,10,9,10,0.9,0.7
2023-08-22T21:00:00,1195A,120.299,31.6817,无锡市,堰桥,,27,27,24,17,17,122,36,102,68,42,19,6,6,1.2,1.1
2023-08-22T21:00:00,1196A,119.9633,31.762,常州市,市监测站,颗粒物(PM10),51,52,29,31,17,118,44,96,84,51,20,7,6,0.8,0.6
2023-08-22T21:00:00,1200A,119.9468,31.7069,常州市,武进监测站,颗粒物(PM10),52,54,30,28,16,122,48,98,85,37,12,8,7,0.8,0.7
2023-08-22T21:00:00,1201A,119.9255,31.9087,常州市,安家,细颗粒物(PM2.5),52,38,23,36,20,122,36,95,83,35,17,6,6,0.9,0.8
2023-08-22T21:00:00,1203A,119.6707,32.1875,镇江市,新区办事处,,,41,29,41,24,105,,79,74,32,31,6,4,1.6,0.8
2023-08-22T21:00:00,1204A,119.4974,32.1968,镇江市,职教中心,,40,37,24,28,17,122,51,100,85,28,16,3,2,0.9,0.7
2023-08-22T21:00:00,1205A,119.4303,32.1328,镇江市,丹徒区监测站,,45,29,21,31,21,120,62,102,79,23,15,3,2,0.8,0.8
2023-08-22T21:00:00,1206A,119.905,32.4878,泰州市,公园路,,39,29,22,27,22,128,64,98,83,15,13,5,5,0.9,0.9
2023-08-22T21:00:00,1207A,119.9189,32.4625,泰州市,莲花,,39,27,24,27,20,134,69,100,91,15,12,4,3,0.8,0.8
2023-08-22T21:00:00,1209A,119.888,32.4639,泰州市,留学生创业园,,39,34,30,27,24,127,63,99,87,18,16,6,7,0.8,0.8
2023-08-22T21:00:00,1210A,119.036,33.5981,淮安市,钵池山,,38,31,24,26,20,131,93,118,116,18,11,6,6,1.1,1
2023-08-22T21:00:00,1211A,119.007,33.575,淮安市,北京南路,,38,31,24,26,18,148,117,134,133,15,15,7,7,0.7,0.8
2023-08-22T21:00:00,1212A,118.989,33.6067,淮安市,市监测站,,40,36,30,27,17,156,128,142,141,13,15,6,6,0.9,0.9
2023-08-22T21:00:00,1213A,119.135,33.5039,淮安市,楚州区监测站,,36,34,27,20,18,142,113,129,127,11,11,8,7,0.8,0.8
2023-08-22T21:00:00,1214A,119.0186,33.6297,淮安市,淮阴区监测站,,38,36,29,26,21,147,112,134,132,13,11,6,6,0.8,0.8
2023-08-22T21:00:00,1215A,120.118,33.4022,盐城市,盐城电厂,,32,27,20,22,13,109,100,102,102,5,5,5,6,0.6,0.6
2023-08-22T21:00:00,1216A,120.156,33.3942,盐城市,市监测站,,32,17,14,14,12,132,101,126,110,7,7,6,6,0.6,0.6
2023-08-22T21:00:00,1218A,120.2144,33.38,盐城市,开发区管委会,,,14,15,15,15,126,98,126,106,10,8,7,6,,0.6
2023-08-22T21:00:00,1220A,118.293,33.9528,宿迁市,宿迁学院,,46,44,38,32,29,170,127,164,156,28,13,9,10,0.6,0.5
2023-08-22T21:00:00,1221A,118.2442,33.9592,宿迁市,宿迁中学,,47,45,39,29,28,198,150,180,171,11,14,6,7,0.5,0.4
2023-08-22T21:00:00,1223A,120.2072,30.2111,杭州市,滨江,,19,12,30,9,16,106,58,85,64,17,16,6,6,0.8,0.7
2023-08-22T21:00:00,1224A,120.0633,30.2747,杭州市,西溪,,,28,41,,21,107,27,83,55,17,18,4,4,0.7,0.6
2023-08-22T21:00:00,1226A,120.3461,30.3153,杭州市,下沙,,21,21,35,8,17,142,58,111,76,32,25,3,4,0.6,0.6
2023-08-22T21:00:00,1227A,120.1269,30.2456,杭州市,卧龙桥,,18,18,24,8,15,117,26,84,47,15,12,6,4,0.6,0.5
2023-08-22T21:00:00,1228A,120.1903,30.2692,杭州市,浙江农大,,19,19,26,8,18,111,56,85,68,23,16,7,7,0.6,0.6
2023-08-22T21:00:00,1230A,120.1197,30.3119,杭州市,和睦小学,,22,21,35,11,19,117,70,94,77,23,23,7,7,0.8,0.8
2023-08-22T21:00:00,1231A,120.3019,30.4183,杭州市,临平镇,,,8,33,4,18,144,,108,89,,27,4,4,0.7,0.7
2023-08-22T21:00:00,1232A,120.2697,30.1819,杭州市,城厢镇,,23,17,30,16,21,131,48,101,73,20,19,4,5,0.7,0.6
2023-08-22T21:00:00,1233A,120.0883,30.1808,杭州市,云栖,,20,20,25,7,11,118,30,84,54,14,11,6,6,0.7,0.8
2023-08-22T21:00:00,1234A,121.8358,29.911,宁波市,区环保大楼,,34,22,24,16,19,135,24,117,68,67,22,8,4,0.8,0.7
2023-08-22T21:00:00,1235A,121.56,29.82,宁波市,万里学院,,,28,31,17,21,134,45,107,73,,19,4,5,0.7,0.8
2023-08-22T21:00:00,1236A,121.713,29.9572,宁波市,龙赛医院,颗粒物(PM10),51,52,36,19,18,181,38,132,86,44,17,6,6,0.8,0.7
2023-08-22T21:00:00,1239A,121.633,29.7733,宁波市,钱湖水厂,,,18,29,10,19,124,48,107,73,,7,5,5,0.7,0.7
2023-08-22T21:00:00,1240A,121.5856,29.8635,宁波市,太古小学,,19,19,30,11,16,132,48,105,71,27,16,5,5,0.8,0.8
2023-08-22T21:00:00,1241A,121.524,29.8674,宁波市,市环境监测中心,,32,32,31,16,17,148,34,118,77,40,16,6,5,0.7,0.6
2023-08-22T21:00:00,1242A,120.634,28.0089,温州市,瓯海,,36,36,37,16,17,157,4,101,43,54,32,6,6,0.9,0.7
2023-08-22T21:00:00,1243A,120.6748,27.9939,温州市,南浦,,28,28,32,16,21,174,19,120,55,47,31,5,6,0.7,0.6
2023-08-22T21:00:00,1244A,120.76,27.9747,温州市,龙湾,,31,20,41,10,19,174,8,113,48,61,42,6,6,0.8,0.7
2023-08-22T21:00:00,1245A,120.6709,28.0167,温州市,市站,,19,16,31,11,20,143,19,94,47,38,29,5,5,0.6,0.6
2023-08-22T21:00:00,1247A,120.6053,29.9928,绍兴市,城东开发委,,24,10,30,5,19,121,74,99,77,14,15,5,5,0.5,0.5
2023-08-22T21:00:00,1250A,120.0751,30.8669,湖州市,城西水厂,,19,18,30,10,21,120,47,90,57,38,30,4,2,0.7,0.6
2023-08-22T21:00:00,1252A,120.7436,30.778,嘉兴市,清河小学,,22,15,30,8,17,172,68,121,97,29,26,5,5,0.9,0.7
2023-08-22T21:00:00,1253A,120.726,30.7478,嘉兴市,嘉兴学院,,23,13,28,14,22,157,72,121,89,21,27,3,3,0.7,0.6
2023-08-22T21:00:00,1255A,121.273,28.6459,台州市,黄岩环保大楼,,14,9,31,7,21,136,44,115,73,10,11,4,4,0.7,0.7
2023-08-22T21:00:00,1256A,121.419,28.6542,台州市,台州环保大楼,,28,28,29,14,16,133,30,109,77,28,11,5,5,0.6,0.5
2023-08-22T21:00:00,1257A,121.377,28.5773,台州市,路桥田洋王,,23,23,29,12,16,137,31,114,75,27,13,4,3,0.6,0.4
2023-08-22T21:00:00,1258A,122.122,30.0203,舟山市,定海檀枫,,23,23,29,12,15,121,54,95,73,16,15,6,6,0.5,0.4
2023-08-22T21:00:00,1259A,122.3094,29.9558,舟山市,普陀东港,,22,22,23,15,11,116,57,104,96,15,9,4,4,0.6,0.5
2023-08-22T21:00:00,1260A,122.19,29.9944,舟山市,临城新区,,27,27,25,13,12,105,53,96,81,17,15,5,6,0.7,0.5
2023-08-22T21:00:00,1262A,119.647,29.077,金华市,十五中,,,16,20,9,10,116,,100,73,25,16,5,3,0.6,0.6
2023-08-22T21:00:00,1263A,119.686,29.1029,金华市,监测站,,19,19,20,10,12,105,44,86,66,28,16,9,5,0.6,0.7
2023-08-22T21:00:00,1264A,118.8692,28.9398,衢州市,环保大楼,,18,15,21,12,11,62,46,61,54,17,15,2,3,0.5,0.6
2023-08-22T21:00:00,1265A,118.8709,28.9666,衢州市,实验学校,,20,20,25,9,11,95,54,63,58,15,15,2,3,0.6,0.6
2023-08-22T21:00:00,1266A,118.8621,28.9808,衢州市,衢州学院,,14,13,20,5,11,102,42,68,56,25,17,3,5,0.4,0.4
2023-08-22T21:00:00,1267A,119.914,28.4514,丽水市,监测站大楼,,46,46,24,17,11,91,27,76,58,23,14,5,5,0.4,0.4
2023-08-22T21:00:00,1268A,119.93,28.4586,丽水市,莲都小学,,35,35,23,14,8,95,31,80,60,20,12,5,5,0.5,0.5
2023-08-22T21:00:00,1269A,119.879,28.4231,丽水市,余庄前,,34,34,20,17,11,86,12,69,44,15,12,5,6,0.3,0.3
2023-08-22T21:00:00,1270A,117.1959,31.7848,合肥市,明珠广场,,45,39,28,22,20,164,142,152,152,17,14,6,5,0.6,0.6
2023-08-22T21:00:00,1271A,117.3072,31.8764,合肥市,三里街,,39,34,27,27,21,148,110,136,134,27,14,5,5,0.4,0.4
2023-08-22T21:00:00,1272A,117.2588,31.8707,合肥市,琥珀山庄,,44,44,27,24,20,167,136,152,152,13,9,5,4,0.6,0.6
2023-08-22T21:00:00,1273A,117.1604,31.9052,合肥市,董铺水库,,33,27,23,19,13,154,103,143,140,15,8,4,4,0.4,0.4
2023-08-22T21:00:00,1274A,117.25,31.8571,合肥市,长江中路,颗粒物(PM10),52,53,30,28,19,159,141,150,150,10,8,7,6,0.6,0.5
2023-08-22T21:00:00,1275A,117.266,31.9436,合肥市,庐阳区,颗粒物(PM10),51,51,30,31,21,153,116,142,141,21,9,5,5,0.5,0.5
2023-08-22T21:00:00,1276A,117.336,31.8586,合肥市,瑶海区,颗粒物(PM10),51,51,32,17,17,139,118,132,131,12,10,5,4,0.8,0.7
2023-08-22T21:00:00,1277A,117.3027,31.7964,合肥市,包河区,颗粒物(PM10),51,51,28,22,19,132,83,120,115,41,22,5,5,0.6,0.5
2023-08-22T21:00:00,1278A,117.2776,31.7385,合肥市,滨湖新区,,39,34,31,22,18,148,123,136,136,8,15,5,5,0.7,0.7
2023-08-22T21:00:00,1279A,117.1318,31.8403,合肥市,高新区,,39,36,29,27,20,157,119,146,144,25,13,7,8,0.6,0.6
2023-08-22T21:00:00,1280A,119.3903,26.0543,福州市,鼓山,,,,,,,,,,,,,,,,
2023-08-22T21:00:00,1282A,119.2681,26.0504,福州市,师大,,21,9,22,4,8,112,66,78,66,13,13,4,4,0.3,0.4
2023-08-22T21:00:00,1283A,119.2984,26.1028,福州市,五四北路,,18,4,26,3,12,139,57,85,71,20,18,2,3,0.3,0.4
2023-08-22T21:00:00,1284A,119.2648,26.0768,福州市,杨桥西路,,19,4,25,0,9,101,58,78,60,15,15,3,3,0.3,0.3
2023-08-22T21:00:00,1285A,119.317,26.0746,福州市,紫阳,,17,8,26,2,11,118,54,78,62,18,17,3,3,0.3,0.4
2023-08-22T21:00:00,1286A,118.1608,24.8169,厦门市,溪东,,,,,,,,,,,,,,,,
2023-08-22T21:00:00,1287A,118.1514,24.4767,厦门市,洪文,,18,18,21,6,6,89,16,74,62,33,16,1,2,0.3,0.3
2023-08-22T21:00:00,1288A,118.0661,24.4444,厦门市,鼓浪屿,,24,14,18,7,10,67,6,52,42,47,18,2,2,0.4,0.4
2023-08-22T21:00:00,1290A,115.8931,28.6843,南昌市,省外办,,25,20,19,9,12,94,77,87,87,16,10,3,5,0.6,0.6
2023-08-22T21:00:00,1291A,115.8886,28.7003,南昌市,省林业公司,,25,17,13,17,11,96,73,90,89,19,9,5,8,0.7,0.6
2023-08-22T21:00:00,1292A,115.8126,28.7442,南昌市,林科所,,22,7,11,2,9,99,70,87,86,18,13,6,8,0.6,0.6
2023-08-22T21:00:00,1294A,115.8518,28.687,南昌市,建工学校,,28,14,18,8,11,105,87,97,97,13,7,7,8,0.7,0.6
2023-08-22T21:00:00,1295A,115.8921,28.6424,南昌市,象湖,,33,11,15,23,14,99,91,88,88,11,10,6,7,0.7,0.6
2023-08-22T21:00:00,1296A,115.7423,28.7996,南昌市,武术学校,,18,18,18,11,14,86,53,76,74,6,6,7,7,0.5,0.4
2023-08-22T21:00:00,1298A,115.9314,28.6842,南昌市,省站,,31,12,18,9,12,109,97,101,101,7,7,6,7,0.7,0.6
2023-08-22T21:00:00,1299A,116.9862,36.6114,济南市,科干所,,44,44,38,17,23,182,102,174,146,28,25,8,8,0.5,0.5
2023-08-22T21:00:00,1300A,116.9376,36.665,济南市,农科所,,32,32,37,5,17,181,84,170,151,33,25,9,9,0.4,0.4
2023-08-22T21:00:00,1301A,117.1265,36.6734,济南市,开发区,,44,44,35,12,18,193,87,166,143,43,22,5,5,0.6,0.5
2023-08-22T21:00:00,1303A,117.0624,36.6868,济南市,省种子仓库,,32,29,39,14,17,174,102,158,142,24,21,5,5,0.4,0.5
2023-08-22T21:00:00,1304A,116.9489,36.6447,济南市,机床二厂,,44,44,45,12,17,189,91,171,154,48,26,6,6,0.7,0.7
2023-08-22T21:00:00,1305A,117.0495,36.663,济南市,市监测站,,34,34,38,12,19,179,95,163,143,43,28,4,2,0.4,0.5
2023-08-22T21:00:00,1306A,116.7675,36.5484,济南市,长清党校,,46,46,42,15,23,177,111,166,151,34,19,7,7,0.3,0.4
2023-08-22T21:00:00,1307A,120.6659,36.2403,青岛市,仰口,,46,46,20,19,19,85,85,73,73,6,5,7,6,0.5,0.4
2023-08-22T21:00:00,1310A,120.4134,36.0658,青岛市,市南区东部子站,,29,29,23,17,16,163,84,132,116,43,23,6,7,0.7,0.6
2023-08-22T21:00:00,1311A,120.3664,36.1032,青岛市,四方区子站,颗粒物(PM10),56,61,26,19,15,164,92,144,131,42,21,6,7,0.7,0.6
2023-08-22T21:00:00,1312A,120.2994,36.054,青岛市,市南区西部子站,,,,,,,,,,,,,,,,
2023-08-22T21:00:00,1313A,120.4581,36.0858,青岛市,崂山区子站,,41,41,26,22,20,144,47,135,115,50,17,8,8,0.5,0.4
2023-08-22T21:00:00,1314A,120.1983,35.9608,青岛市,黄岛区子站,,,,26,22,19,157,,148,146,21,28,5,6,0.7,0.7
2023-08-22T21:00:00,1315A,120.3999,36.3083,青岛市,城阳区子站,颗粒物(PM10),52,53,32,20,16,152,118,142,137,27,19,6,6,0.7,0.6
2023-08-22T21:00:00,1316A,113.69031,34.76122,郑州市,烟厂,,45,45,58,29,24,216,141,194,182,25,25,2,3,0.7,0.7
2023-08-22T21:00:00,1317A,113.65724,34.77134,郑州市,郑纺机,,,53,58,,,226,151,197,187,16,23,2,3,0.9,1
2023-08-22T21:00:00,1318A,113.67526,34.80246,郑州市,银行学校,,46,46,49,24,23,198,127,181,168,24,19,2,4,0.7,0.7
2023-08-22T21:00:00,1319A,113.56746,34.81334,郑州市,供水公司,颗粒物(PM10),57,64,57,26,21,214,100,185,167,42,23,2,2,0.7,0.7
2023-08-22T21:00:00,1320A,113.7329,34.7178,郑州市,经开区管委,颗粒物(PM10),51,52,56,31,26,206,125,192,176,17,15,3,4,0.7,0.7
2023-08-22T21:00:00,1321A,113.73961,34.77172,郑州市,四十七中,,,,,,,,,,,,,,,,
2023-08-22T21:00:00,1322A,113.60532,34.74838,郑州市,市监测站,颗粒物(PM10),56,62,69,31,30,242,134,214,194,29,27,3,4,0.7,0.7
2023-08-22T21:00:00,1323A,113.64164,34.7525,郑州市,河医大,颗粒物(PM10),53,55,61,25,23,207,136,187,178,14,24,3,5,0.7,0.8
2023-08-22T21:00:00,1324A,113.51488,34.91089,郑州市,岗李水库,,,,,,,,,,,,,,,,
2023-08-22T21:00:00,1325A,114.3677,30.5584,武汉市,东湖梨园,,32,26,19,17,12,122,101,120,117,15,12,7,6,0.8,0.8
2023-08-22T21:00:00,1326A,114.2529,30.558,武汉市,汉阳月湖,,25,25,18,9,9,117,50,113,102,48,16,6,8,0.5,0.6
2023-08-22T21:00:00,1327A,114.282,30.6189,武汉市,汉口花桥,,32,32,21,20,12,120,76,118,110,29,12,4,4,0.6,0.5
2023-08-22T21:00:00,1328A,114.3025,30.5332,武汉市,武昌紫阳,,32,32,23,16,15,133,79,127,117,27,13,8,7,0.7,0.7
2023-08-22T21:00:00,1329A,114.3646,30.6217,武汉市,青山钢花,,33,33,20,17,14,123,58,117,103,48,19,7,7,0.7,0.7
2023-08-22T21:00:00,1330A,114.1566,30.4825,武汉市,沌口新区,,40,32,23,18,18,135,125,129,128,38,15,6,6,0.6,0.6
2023-08-22T21:00:00,1331A,114.3014,30.5944,武汉市,汉口江滩,,25,18,17,12,11,125,77,119,110,29,11,6,6,0.4,0.5
2023-08-22T21:00:00,1333A,114.135,30.6319,武汉市,吴家山,,29,29,25,12,11,118,71,111,105,30,13,7,7,0.7,0.7
2023-08-22T21:00:00,1334A,113.8454,30.2917,武汉市,沉湖七壕,,35,18,15,17,12,137,111,131,130,12,13,7,7,0.7,0.7
2023-08-22T21:00:00,1335A,113.0833,28.2325,长沙市,经开区环保局,,36,19,17,22,14,121,113,115,114,9,9,5,5,0.4,0.4
2023-08-22T21:00:00,1336A,112.8872,28.2189,长沙市,高开区环保局,,37,25,13,13,16,128,118,122,122,8,8,5,5,0.6,0.7
2023-08-22T21:00:00,1337A,113.0792,28.2053,长沙市,马坡岭,,36,30,19,3,12,134,115,126,123,13,12,4,4,0.7,0.7
2023-08-22T21:00:00,1338A,112.9394,28.19,长沙市,湖南师范大学,,33,25,16,23,15,126,101,121,117,8,7,2,2,0.4,0.4
2023-08-22T21:00:00,1339A,113.0178,28.1322,长沙市,雨花区环保局,,34,15,16,16,15,126,107,121,118,11,9,6,6,0.4,0.4
2023-08-22T21:00:00,1340A,112.9792,28.2597,长沙市,伍家岭,,28,27,21,18,14,127,87,120,114,23,11,3,2,0.5,0.5
2023-08-22T21:00:00,1341A,113.0014,28.1944,长沙市,火车新站,,31,12,9,14,12,120,99,114,111,11,7,5,4,0.6,0.6
2023-08-22T21:00:00,1342A,112.9844,28.1178,长沙市,天心区环保局,,36,21,11,14,18,132,113,124,122,12,11,3,2,0.5,0.6
2023-08-22T21:00:00,1343A,112.8908,28.1308,长沙市,湖南中医药大学,,33,27,19,6,10,135,103,127,122,14,8,2,2,0.7,0.8
2023-08-22T21:00:00,1344A,112.9581,28.3611,长沙市,沙坪,,,,31,18,11,116,75,110,102,13,7,7,6,0.5,0.4
2023-08-22T21:00:00,1345A,113.2347,23.1423,广州市,广雅中学,,26,26,24,14,14,159,63,129,120,27,27,5,5,0.9,0.8
2023-08-22T21:00:00,1346A,113.2612,23.105,广州市,市五中,,29,29,24,20,13,178,67,136,127,26,21,5,5,0.7,0.6
2023-08-22T21:00:00,1348A,113.3478,23.0916,广州市,广东商学院,,37,37,32,18,12,142,26,111,92,42,29,3,3,0.7,0.6
2023-08-22T21:00:00,1349A,113.4332,23.1047,广州市,市八十六中,,25,25,30,9,13,134,24,104,83,38,32,4,5,0.7,0.7
2023-08-22T21:00:00,1350A,113.3505,22.9483,广州市,番禺中学,,31,31,21,14,9,153,42,119,104,29,19,4,4,0.6,0.6
2023-08-22T21:00:00,1351A,113.2146,23.3916,广州市,花都师范,,46,42,35,32,21,218,84,166,157,50,36,7,8,0.7,0.6
2023-08-22T21:00:00,1352A,113.2597,23.1331,广州市,市监测站,,27,27,20,16,12,166,54,131,120,34,28,6,6,0.7,0.7
2023-08-22T21:00:00,1353A,113.5618,23.312,广州市,九龙镇镇龙,,42,42,25,21,12,112,25,88,84,58,28,6,6,0.6,0.4
2023-08-22T21:00:00,1354A,113.2765,23.1544,广州市,麓湖,,31,31,24,21,14,146,39,114,103,34,28,5,5,0.7,0.7
2023-08-22T21:00:00,1355A,113.443,23.3035,广州市,帽峰山森林公园,,28,28,19,19,10,177,82,134,130,22,15,8,6,0.5,0.5
2023-08-22T21:00:00,1356A,114.1063,22.5545,深圳市,通心岭子站,,18,18,13,9,6,72,18,60,50,34,21,4,5,0.6,0.5
2023-08-22T21:00:00,1357A,114.117,22.5625,深圳市,洪湖,,,25,17,13,6,73,,60,50,,21,,5,,0.7
2023-08-22T21:00:00,1358A,113.987,22.5417,深圳市,华侨城,,17,17,13,3,5,55,37,44,42,18,19,6,6,0.6,0.6
2023-08-22T21:00:00,1359A,113.9181,22.5171,深圳市,南海子站,颗粒物(PM10),54,57,42,31,15,53,32,44,44,20,19,4,5,0.5,0.5
2023-08-22T21:00:00,1360A,114.2458,22.5689,深圳市,盐田,,26,26,21,10,8,54,9,34,26,38,31,4,5,0.6,0.5
2023-08-22T21:00:00,1361A,114.2283,22.7244,深圳市,龙岗,,21,21,18,6,6,85,39,68,62,17,18,8,7,0.6,1
2023-08-22T21:00:00,1363A,114.494,22.5422,深圳市,南澳,,15,15,11,5,4,61,44,56,51,11,10,10,9,0.7,0.7
2023-08-22T21:00:00,1364A,114.41,22.6342,深圳市,葵涌,,16,16,14,3,3,70,40,52,45,19,14,4,4,0.6,0.6
2023-08-22T21:00:00,1365A,114.297,22.5978,深圳市,梅沙,,24,24,17,14,7,55,37,47,44,18,12,5,5,0.5,0.5
2023-08-22T21:00:00,1366A,114.0678,22.738,深圳市,观澜,,25,25,27,5,10,83,13,66,57,42,28,8,8,0.6,0.6
2023-08-22T21:00:00,1367A,113.5814,22.2618,珠海市,吉大,,16,12,12,3,5,67,51,63,58,8,8,4,5,0.5,0.5
2023-08-22T21:00:00,1368A,113.4881,22.2335,珠海市,前山,,,13,11,8,5,60,,56,54,9,7,7,7,0.3,0.3
2023-08-22T21:00:00,1369A,113.628,22.4251,珠海市,唐家,,16,12,12,2,6,73,51,66,62,3,7,4,4,0.3,0.3
2023-08-22T21:00:00,1370A,113.299,22.2281,珠海市,斗门,,28,13,11,19,11,47,28,41,36,6,6,6,5,0.4,0.4
2023-08-22T21:00:00,1371A,113.1294,23.0067,佛山市,湾梁,,21,5,12,8,10,156,67,128,117,15,14,4,6,0.4,0.5
2023-08-22T21:00:00,1372A,113.1083,23.0478,佛山市,华材职中,,23,17,16,16,12,136,53,117,108,22,16,6,8,0.3,0.4
2023-08-22T21:00:00,1373A,113.144,23.0453,佛山市,南海气象局,,19,19,22,11,10,120,47,105,96,21,17,5,5,0.5,0.5
2023-08-22T21:00:00,1374A,113.2881,22.8094,佛山市,顺德苏岗,,13,11,7,9,7,120,33,102,86,21,12,7,6,0.7,0.7
2023-08-22T21:00:00,1376A,112.8383,22.8678,佛山市,高明孔堂,,27,27,20,10,9,121,67,103,100,18,14,6,5,0.4,0.3
2023-08-22T21:00:00,1377A,112.8836,23.1588,佛山市,三水监测站,,26,24,29,6,13,138,81,121,118,26,27,3,4,0.6,0.6
2023-08-22T21:00:00,1378A,112.867,23.185,佛山市,三水云东海,,28,28,28,9,16,135,86,121,117,26,23,4,6,0.5,0.5
2023-08-22T21:00:00,1379A,113.3769,22.5211,中山市,华柏园,,19,15,17,13,7,87,43,75,69,15,10,4,4,0.4,0.3
2023-08-22T21:00:00,1380A,113.3881,22.5497,中山市,张溪,,22,22,20,0,3,86,45,78,71,12,9,4,3,0.4,0.4
2023-08-22T21:00:00,1381A,113.4075,22.5111,中山市,紫马岭,,18,17,17,12,8,86,39,72,67,12,8,4,4,0.3,0.3
2023-08-22T21:00:00,1382A,113.4411,22.4853,中山市,长江旅游区,,,,,,,,,,,,,,,,
2023-08-22T21:00:00,1383A,113.1064,22.6058,江门市,北街,,15,13,18,10,8,118,43,88,80,12,11,5,6,0.4,0.4
2023-08-22T21:00:00,1384A,113.0731,22.5835,江门市,西区,,28,28,15,12,8,106,42,90,81,19,15,6,6,0.5,0.4
2023-08-22T21:00:00,1385A,113.0219,22.5311,江门市,圭峰西,,,,23,8,6,98,47,77,70,14,12,3,4,0.3,0.3
2023-08-22T21:00:00,1386A,113.0828,22.5947,江门市,东湖,,25,25,19,12,11,123,57,101,93,11,10,8,7,0.5,0.5
2023-08-22T21:00:00,1389A,113.7547,23.0494,东莞市,莞城梨川,,28,28,26,12,12,99,35,79,75,28,28,8,9,0.7,0.7
2023-08-22T21:00:00,1390A,113.7944,23.0128,东莞市,东城石井,,30,30,26,13,10,91,24,68,62,25,22,6,6,0.7,0.7
2023-08-22T21:00:00,1391A,113.7383,22.9658,东莞市,南城西平,,18,18,21,6,8,89,36,66,63,15,23,5,4,0.6,0.6
2023-08-22T21:00:00,1392A,114.4183,23.0528,惠州市,河南岸金山湖子站,,,,24,,8,123,,98,92,32,20,4,4,,0.3
2023-08-22T21:00:00,1393A,114.4053,23.0822,惠州市,下埔横江三路子站,,42,42,25,21,11,138,32,110,96,37,19,4,4,0.6,0.5
2023-08-22T21:00:00,1394A,114.4103,23.1142,惠州市,江北云山西路子站,,45,45,25,26,12,152,28,113,94,45,20,6,5,0.8,0.5
2023-08-22T21:00:00,1395A,114.4645,22.7833,惠州市,惠阳区承修路船湖子站,,19,19,20,8,6,73,32,62,54,15,18,4,4,0.5,0.5
2023-08-22T21:00:00,1396A,114.5317,22.7422,惠州市,大亚湾管委会子站,,19,19,22,7,8,74,50,64,60,11,22,5,4,0.7,0.7
2023-08-22T21:00:00,1397A,112.4267,23.0706,肇庆市,睦岗子站,,33,33,28,20,17,108,84,96,96,20,20,12,19,0.4,0.4
2023-08-22T21:00:00,1398A,112.4645,23.0475,肇庆市,城中子站,,,28,27,17,15,100,,88,86,,20,,14,,0.5
2023-08-22T21:00:00,1399A,112.5544,23.1522,肇庆市,坑口子站,,29,27,27,20,13,101,70,90,89,14,18,6,6,0.3,0.3
2023-08-22T21:00:00,1400A,112.4753,23.1,肇庆市,七星岩子站,,,,,,,,,,,,,,,,
2023-08-22T21:00:00,1401A,108.3103,22.7881,南宁市,二十一中,,42,42,29,19,15,113,75,100,93,22,14,6,6,0.8,0.8
2023-08-22T21:00:00,1402A,108.3141,22.8528,南宁市,北湖,,50,50,28,23,16,110,65,102,94,18,10,6,7,0.8,0.8
2023-08-22T21:00:00,1403A,108.3206,22.8225,南宁市,市监测站,,41,41,28,24,18,110,67,97,88,28,20,8,9,0.6,0.7
2023-08-22T21:00:00,1404A,108.3829,22.8037,南宁市,大自然花园,,39,33,26,27,18,120,45,102,91,28,11,8,6,0.7,0.7
2023-08-22T21:00:00,1405A,108.4394,22.7904,南宁市,仙葫,细颗粒物(PM2.5),63,48,31,45,23,111,66,104,100,39,15,6,6,0.5,0.6
2023-08-22T21:00:00,1406A,108.2397,22.8467,南宁市,区农职院,,,,26,,12,107,,98,98,,16,,9,,0.6
2023-08-22T21:00:00,1407A,108.3275,22.735,南宁市,英华嘉园,,50,50,28,33,18,108,53,86,78,35,17,6,7,0.6,0.6
2023-08-22T21:00:00,1408A,108.2257,22.7757,南宁市,沙井镇街道办,,45,45,34,21,16,89,28,84,71,42,20,4,5,0.7,0.8
2023-08-22T21:00:00,1409A,110.576,19.9507,海口市,东寨港,,,,,,,,,,,,,,,,
2023-08-22T21:00:00,1410A,110.3232,20.0574,海口市,海南大学,,17,12,16,9,7,95,52,74,72,12,8,6,6,0.3,0.4
2023-08-22T21:00:00,1411A,110.283,20.0053,海口市,秀英海南医院,,,17,17,11,9,91,35,67,60,22,19,6,6,,0.5
2023-08-22T21:00:00,1412A,110.338,19.9969,海口市,海南师范大学,,19,19,16,9,10,94,40,73,64,13,10,7,8,0.3,0.3
2023-08-22T21:00:00,1413A,110.33,20.0356,海口市,龙华路环保局宿舍,,23,14,17,16,9,91,40,73,66,16,9,6,6,0.5,0.4
2023-08-22T21:00:00,1414A,106.3787,29.8279,重庆市,缙云山,臭氧1小时,106,38,32,15,13,228,212,208,208,8,9,10,8,0.3,0.3
2023-08-22T21:00:00,1416A,106.4213,29.8253,重庆市,天生,细颗粒物(PM2.5),54,52,39,38,28,216,121,197,191,36,25,6,6,0.8,0.7
2023-08-22T21:00:00,1417A,106.6263,29.7228,重庆市,两路,,47,47,36,29,26,188,149,172,169,51,35,8,8,1.1,1
2023-08-22T21:00:00,1418A,106.2953,29.5983,重庆市,虎溪,颗粒物(PM10),53,56,45,29,31,232,120,208,197,62,38,5,5,0.8,0.8
2023-08-22T21:00:00,1419A,106.5777,29.5102,重庆市,南坪,,45,44,38,20,24,182,142,160,156,12,17,6,7,0.6,0.8
2023-08-22T21:00:00,1420A,106.6556,29.6277,重庆市,唐家沱,,50,45,33,35,27,188,109,173,164,47,30,9,6,1.4,0.7
2023-08-22T21:00:00,1421A,106.6349,29.4906,重庆市,茶园,颗粒物(PM10),93,135,44,32,20,179,4,159,131,151,30,5,5,1.0,0.7
2023-08-22T21:00:00,1422A,106.3754,29.4572,重庆市,白市驿,臭氧1小时,65,52,38,32,27,192,172,181,181,25,15,6,9,0.9,0.9
2023-08-22T21:00:00,1425A,106.6205,29.7166,重庆市,空港,颗粒物(PM10),63,75,46,25,26,195,157,189,185,45,30,8,8,1.0,0.9
2023-08-22T21:00:00,1426A,106.4782,29.4875,重庆市,新山村,二氧化氮,58,45,45,26,27,196,50,172,152,116,39,7,11,0.9,0.6
2023-08-22T21:00:00,1427A,106.5616,29.6453,重庆市,礼嘉,颗粒物(PM10),59,68,46,25,25,206,122,183,176,77,44,8,8,1.1,0.9
2023-08-22T21:00:00,1428A,106.4522,29.7091,重庆市,蔡家,,,,44,,25,197,,176,176,30,21,6,6,0.9,0.9
2023-08-22T21:00:00,1429A,106.5093,29.3917,重庆市,鱼新街,颗粒物(PM10),59,68,37,29,25,179,60,167,155,85,30,5,5,1.2,1
2023-08-22T21:00:00,1431A,103.9728,30.7236,成都市,金泉两河,颗粒物(PM10),54,58,49,32,25,208,132,183,175,13,23,4,5,0.6,0.6
2023-08-22T21:00:00,1432A,104.176,30.6872,成都市,十里店,,36,36,42,20,24,186,108,160,147,13,21,3,4,0.5,0.6
2023-08-22T21:00:00,1433A,104.079,30.5706,成都市,三瓦窑,,38,16,40,9,23,180,119,150,137,14,24,2,9,0.4,0.5
2023-08-22T21:00:00,1434A,104.1114,30.63,成都市,沙河铺,,44,44,41,23,25,159,102,136,127,15,18,3,3,0.5,0.6
2023-08-22T21:00:00,1437A,104.0786,30.6531,成都市,君平街,,,34,51,25,34,190,,169,163,14,23,4,8,0.5,0.7
2023-08-22T21:00:00,1438A,103.613,31.0283,成都市,灵岩寺,,43,29,29,19,19,162,135,153,152,3,7,5,12,0.6,0.7
2023-08-22T21:00:00,1439A,106.6899,26.5998,贵阳市,马鞍山,,22,19,26,7,11,123,68,103,98,12,15,4,4,0.6,0.7
2023-08-22T21:00:00,1440A,106.6971,26.5694,贵阳市,市环保站,,24,24,35,14,26,151,68,113,105,22,36,3,3,0.2,0.4
2023-08-22T21:00:00,1441A,106.6243,26.6266,贵阳市,鉴湖路,,22,22,31,12,14,127,70,113,104,15,15,3,4,0.6,0.6
2023-08-22T21:00:00,1442A,106.7487,26.6343,贵阳市,燕子冲,,32,22,25,22,20,127,72,104,93,14,18,4,5,0.6,0.7
2023-08-22T21:00:00,1443A,106.6555,26.4365,贵阳市,碧云窝,,23,17,33,5,16,172,72,132,117,8,16,4,4,0.3,0.6
2023-08-22T21:00:00,1444A,106.694,26.5161,贵阳市,中院村,,,14,34,9,19,144,,106,98,,30,5,6,0.4,0.5
2023-08-22T21:00:00,1445A,106.7109,26.6027,贵阳市,红边门,,32,22,33,22,27,141,71,116,104,19,26,4,6,0.8,0.7
2023-08-22T21:00:00,1446A,106.7164,26.5699,贵阳市,新华路,,28,24,30,19,22,149,72,123,111,16,22,8,6,0.4,0.5
2023-08-22T21:00:00,1447A,106.674,26.5424,贵阳市,太慈桥,,20,17,27,9,16,151,62,111,100,16,19,4,4,0.4,0.6
2023-08-22T21:00:00,1450A,102.8204,24.8886,昆明市,呈贡新区,,41,41,29,20,17,123,74,100,97,23,16,9,10,1.2,0.9
2023-08-22T21:00:00,1451A,102.6251,24.9608,昆明市,西山森林公园,,30,17,14,8,10,126,95,107,104,16,12,10,7,1.1,0.8
2023-08-22T21:00:00,1452A,102.7252,25.0902,昆明市,龙泉镇,,35,35,18,13,10,117,6,93,73,66,25,7,8,0.9,0.6
2023-08-22T21:00:00,1453A,102.7266,25.0375,昆明市,东风东路,,36,36,20,23,12,138,36,123,100,57,21,6,7,0.9,0.4
2023-08-22T21:00:00,1454A,102.6742,25.0669,昆明市,金鼎山,,49,49,53,14,10,121,38,80,80,56,18,54,34,0.7,0.5
2023-08-22T21:00:00,1455A,102.6644,25.0401,昆明市,碧鸡广场,,38,38,22,25,12,138,40,111,94,56,23,38,18,1.0,0.7
2023-08-22T21:00:00,1456A,91.1319,29.6514,拉萨市,八廓街,,30,25,13,9,7,121,94,110,110,19,12,7,7,0.3,0.2
2023-08-22T21:00:00,1457A,91.1221,29.6747,拉萨市,市环保局,,,4,16,14,7,120,,108,108,20,17,6,6,0.3,0.3
2023-08-22T21:00:00,1458A,91.0874,29.6475,拉萨市,区监测站,,30,13,10,8,6,115,96,102,102,21,17,8,8,0.3,0.3
2023-08-22T21:00:00,1459A,91.1774,29.6541,拉萨市,西藏大学,,30,16,8,11,7,116,93,106,106,15,10,10,8,0.3,0.3
2023-08-22T21:00:00,1460A,90.9798,29.6588,拉萨市,区辐射站,,26,22,18,11,8,113,82,99,98,25,22,10,12,0.3,0.3
2023-08-22T21:00:00,1461A,91.0834,29.6292,拉萨市,拉萨火车站,,30,22,14,9,6,112,94,100,100,18,14,7,6,0.3,0.3
2023-08-22T21:00:00,1462A,108.882,34.2749,西安市,高压开关厂,颗粒物(PM10),61,71,57,27,26,230,122,201,194,29,45,8,9,0.6,0.6
2023-08-22T21:00:00,1463A,108.993,34.2629,西安市,兴庆小区,颗粒物(PM10),59,67,57,23,17,250,131,210,207,26,22,7,7,0.7,0.8
2023-08-22T21:00:00,1464A,109.06,34.2572,西安市,纺织城,颗粒物(PM10),69,87,62,36,23,263,77,192,182,72,40,4,5,0.8,0.6
2023-08-22T21:00:00,1465A,108.9356,34.2173,西安市,小寨,颗粒物(PM10),55,60,46,21,17,233,104,199,190,21,28,8,8,0.4,0.4
2023-08-22T21:00:00,1466A,108.954,34.2713,西安市,市人民体育场,颗粒物(PM10),58,66,58,28,20,235,110,204,197,30,27,7,7,0.7,0.6
2023-08-22T21:00:00,1467A,108.8922,34.2322,西安市,高新西区,颗粒物(PM10),64,78,56,25,20,226,100,193,184,23,29,8,9,0.6,0.6
2023-08-22T21:00:00,1468A,108.935,34.3474,西安市,经开区,颗粒物(PM10),61,71,56,27,22,231,119,179,178,26,30,3,3,0.5,0.6
2023-08-22T21:00:00,1469A,108.906,34.1546,西安市,长安区,颗粒物(PM10),53,56,59,22,18,219,111,169,163,16,27,5,6,0.5,0.5
2023-08-22T21:00:00,1471A,109.2186,34.3731,西安市,临潼区,颗粒物(PM10),57,64,53,27,20,200,142,172,167,26,24,6,5,0.5,0.5
2023-08-22T21:00:00,1472A,108.869,34.378,西安市,草滩,颗粒物(PM10),53,56,52,12,12,228,131,193,188,30,46,11,14,0.5,0.6
2023-08-22T21:00:00,1473A,108.985,34.1978,西安市,曲江文化产业集团,颗粒物(PM10),70,89,61,24,18,226,98,192,183,32,35,5,6,0.6,0.6
2023-08-22T21:00:00,1474A,109.051,34.3213,西安市,广运潭,颗粒物(PM10),56,62,50,26,18,254,137,190,188,31,21,8,7,0.6,0.5
2023-08-22T21:00:00,1476A,103.631,36.1031,兰州市,兰炼宾馆,,38,37,57,26,32,174,99,143,133,21,21,7,14,0.3,0.4
2023-08-22T21:00:00,1477A,104.1373,35.9454,兰州市,榆中兰大校区,,,,,,,,,,,,,,,,
2023-08-22T21:00:00,1478A,103.8412,36.0726,兰州市,生物制品所,,,,65,23,29,147,,129,121,33,35,3,9,0.5,0.5
2023-08-22T21:00:00,1479A,103.831,36.0464,兰州市,铁路设计院,,30,28,55,18,27,148,93,131,122,32,40,6,12,0.7,0.8
2023-08-22T21:00:00,1483A,101.524,36.6867,西宁市,第五水厂,,,,,,,,,,,,,,,,
2023-08-22T21:00:00,1484A,105.9512,38.6016,银川市,贺兰山马莲口,,35,23,26,5,8,136,112,131,129,4,8,6,13,0.1,0.3
2023-08-22T21:00:00,1488A,106.2328,38.4975,银川市,贺兰山东路,颗粒物(PM10),64,77,55,20,17,155,74,132,124,53,31,7,11,0.7,0.6
2023-08-22T21:00:00,1489A,106.1358,38.5036,银川市,学院路,颗粒物(PM10),51,52,58,13,15,152,58,128,117,50,22,8,18,0.8,1
2023-08-22T21:00:00,1490A,87.5801,43.8303,乌鲁木齐市,监测站,,38,38,53,10,16,157,116,130,130,26,35,6,5,0.7,0.7
2023-08-22T21:00:00,1491A,87.6046,43.768,乌鲁木齐市,收费所,,37,37,45,6,17,161,115,130,130,32,39,9,5,0.4,0.3
2023-08-22T21:00:00,1492A,87.4754,43.9469,乌鲁木齐市,新疆农科院农场,颗粒物(PM10),57,63,87,16,37,130,94,113,113,15,52,4,5,0.7,0.8
2023-08-22T21:00:00,1493A,87.5525,43.8711,乌鲁木齐市,铁路局,,44,44,58,12,18,162,115,133,133,21,35,5,5,0.5,0.5
2023-08-22T21:00:00,1494A,87.6432,43.831,乌鲁木齐市,三十一中学,,36,36,49,12,13,149,107,126,126,21,27,6,6,0.7,0.7
2023-08-22T21:00:00,1496A,87.7216,44.1747,乌鲁木齐市,米东区环保局,,32,32,65,10,23,166,102,132,127,7,24,7,10,0.3,0.4
2023-08-22T21:00:00,1508A,112.9433,27.8614,湘潭市,板塘,,30,27,23,14,13,138,96,126,123,13,10,4,6,0.7,0.6
2023-08-22T21:00:00,1511A,112.9118,27.8403,湘潭市,市监测站,,29,29,19,13,15,133,89,126,121,19,10,5,9,0.7,0.7
2023-08-22T21:00:00,1512A,112.8937,27.8728,湘潭市,江麓,,35,35,23,7,14,132,90,120,117,13,12,2,6,0.0,0.3
2023-08-22T21:00:00,1513A,112.9227,27.8159,湘潭市,岳塘,,30,22,25,13,17,132,93,122,120,15,14,3,7,0.4,0.5
2023-08-22T21:00:00,1514A,112.9074,27.9119,湘潭市,科大,,35,35,23,10,11,129,77,116,112,14,8,4,4,0.5,0.5
2023-08-22T21:00:00,1515A,113.135,27.8244,株洲市,天台山庄,,33,27,25,10,16,141,103,132,129,12,14,5,6,0.5,0.7
2023-08-22T21:00:00,1518A,113.095,27.8867,株洲市,株冶医院,,29,29,25,14,12,136,90,125,121,16,14,3,4,0.6,0.7
2023-08-22T21:00:00,1519A,113.167,27.8667,株洲市,市四中,,28,27,25,19,16,141,80,128,122,22,13,6,8,0.6,0.6
2023-08-22T21:00:00,1520A,113.143,27.8381,株洲市,火车站,,31,31,26,10,16,143,81,131,124,19,10,6,8,0.7,0.8
2023-08-22T21:00:00,1524A,113.13,27.8528,株洲市,市监测站,,32,31,26,9,16,143,100,135,130,14,12,7,8,0.9,0.9
2023-08-22T21:00:00,1552A,106.805,26.3003,贵阳市,桐木岭,,,,,,,,,,,,,,,,
2023-08-22T21:00:00,1559A,113.251,27.8336,株洲市,大京风景区,,22,22,21,13,11,132,37,114,98,5,5,6,6,0.6,0.6
2023-08-22T21:00:00,1562A,113.0048,27.9153,湘潭市,昭山,,34,34,24,16,15,140,53,127,117,42,12,4,4,0.7,0.7
2023-08-22T21:00:00,1564A,112.4876,27.9164,湘潭市,韶山,,43,43,23,12,8,120,52,102,95,8,7,6,6,0.3,0.3
2023-08-22T21:00:00,1585A,109.8756,40.6532,包头市,市环境监测站,,25,22,32,8,8,152,79,126,121,13,28,6,11,0.5,0.6
2023-08-22T21:00:00,1587A,109.9991,40.5842,包头市,包头八中,,40,40,47,4,9,158,76,130,124,22,36,9,19,0.5,0.8
2023-08-22T21:00:00,1588A,109.8538,40.6821,包头市,青山宾馆,,31,31,28,4,9,150,85,124,120,6,26,2,7,0.5,0.6
2023-08-22T21:00:00,1589A,109.8642,40.6288,包头市,惠龙物流,,30,30,31,6,11,154,85,128,124,10,27,6,13,0.3,0.5
2023-08-22T21:00:00,1590A,110.0377,40.5546,包头市,东河鸿龙湾,,34,34,33,12,8,153,81,128,123,13,24,10,14,0.6,0.8
2023-08-22T21:00:00,1591A,110.0023,39.8129,鄂尔多斯市,综合楼,颗粒物(PM10),81,112,58,34,10,142,21,116,100,108,38,10,13,1.3,0.8
2023-08-22T21:00:00,1592A,109.9486,39.8261,鄂尔多斯市,巴音孟克林场办事处,,,105,47,31,12,160,,133,125,,30,,17,,0.5
2023-08-22T21:00:00,1593A,109.7736,39.5986,鄂尔多斯市,康泽苑,,48,48,32,16,7,142,62,128,114,49,23,10,10,0.6,0.4
2023-08-22T21:00:00,1594A,109.8119,39.5989,鄂尔多斯市,华泰汽车城,,46,46,35,17,12,141,18,121,100,82,31,7,7,1.2,1
2023-08-22T21:00:00,1595A,109.9734,39.7884,鄂尔多斯市,奥林花园,颗粒物(PM10),68,85,48,24,11,141,19,118,103,97,36,8,9,1.0,0.6
2023-08-22T21:00:00,1597A,122.2703,40.7094,营口市,大庆路,,28,28,22,3,11,119,50,107,93,20,10,5,5,0.6,0.7
2023-08-22T21:00:00,1598A,122.2150,40.6511,营口市,镜湖西路,,21,21,17,6,11,109,60,99,91,21,13,7,7,0.5,0.5
2023-08-22T21:00:00,1599A,122.1658,40.6789,营口市,西炮台,,22,22,15,7,6,116,58,112,92,20,10,6,5,0.4,0.4
2023-08-22T21:00:00,1600A,124.3303,40.0625,丹东市,江湾东路,,20,20,10,11,8,105,45,97,82,14,9,6,7,0.7,0.6
2023-08-22T21:00:00,1601A,124.4256,40.1503,丹东市,临江后街,,19,19,12,8,6,110,56,94,78,7,7,5,5,0.9,0.7
2023-08-22T21:00:00,1602A,124.3933,40.1461,丹东市,元宝山,,20,20,10,11,8,102,48,85,70,15,9,6,6,0.8,0.7
2023-08-22T21:00:00,1603A,124.3633,40.1092,丹东市,民主桥,,19,15,11,9,8,106,59,95,81,8,9,5,4,0.7,0.7
2023-08-22T21:00:00,1604A,122.0303,41.1489,盘锦市,开发区,,39,39,20,26,11,101,30,97,82,45,16,4,5,0.7,0.6
2023-08-22T21:00:00,1605A,122.0485,41.0883,盘锦市,兴隆台,,30,27,18,4,8,105,22,101,81,59,22,7,5,0.6,0.5
2023-08-22T21:00:00,1606A,121.8297,41.1028,盘锦市,新生街道,,,,16,6,8,102,41,98,82,31,22,5,7,0.4,0.5
2023-08-22T21:00:00,1607A,120.9092,40.7136,葫芦岛市,龙港区,,20,4,27,14,11,96,46,91,81,17,19,8,16,0.3,0.4
2023-08-22T21:00:00,1608A,120.8392,40.7514,葫芦岛市,化工街,颗粒物(PM10),71,92,26,20,7,89,15,85,67,60,26,10,8,0.6,0.3
2023-08-22T21:00:00,1609A,120.8341,40.7073,葫芦岛市,新区,,30,30,23,14,11,86,25,83,70,59,27,6,6,0.5,0.4
2023-08-22T21:00:00,1610A,120.8695,40.7677,葫芦岛市,东城区,,42,42,25,3,5,90,5,86,62,68,35,13,10,0.6,0.5
2023-08-22T21:00:00,1611A,118.5819,24.9117,泉州市,涂山街,,21,13,39,8,17,153,67,111,108,11,24,3,8,0.6,0.6
2023-08-22T21:00:00,1612A,118.5972,24.8978,泉州市,津头埔,,20,9,34,9,17,146,62,106,103,18,27,3,7,0.6,0.6
2023-08-22T21:00:00,1613A,118.6663,24.9424,泉州市,万安,,21,7,35,4,17,147,66,113,108,18,25,2,3,0.6,0.6
2023-08-22T21:00:00,1614A,118.6117,24.9604,泉州市,清源山,,,,,,,,,,,,,,,,
2023-08-22T21:00:00,1616A,117.6795,36.229,济南市,技术学院,,46,46,36,14,17,179,129,164,160,21,14,7,8,0.8,0.7
2023-08-22T21:00:00,1618A,118.3429,35.0532,临沂市,沂河小区,颗粒物(PM10),58,66,46,27,21,175,120,160,154,20,14,6,6,0.5,0.4
2023-08-22T21:00:00,1619A,118.295,35.0583,临沂市,鲁南制药厂,颗粒物(PM10),59,68,45,22,16,190,142,178,175,16,13,4,4,0.4,0.3
2023-08-22T21:00:00,1620A,118.2794,34.9976,临沂市,新光毛纺厂,颗粒物(PM10),51,51,40,28,20,175,125,163,159,18,20,6,6,0.7,0.6
2023-08-22T21:00:00,1621A,118.3956,35.0888,临沂市,河东保险公司,颗粒物(PM10),52,53,35,24,19,170,123,158,153,18,12,4,3,0.6,0.6
2023-08-22T21:00:00,1622A,116.3032,37.4674,德州市,儿童乐园,,39,39,43,9,20,148,78,142,129,43,24,8,8,0.6,0.7
2023-08-22T21:00:00,1624A,116.2991,37.4451,德州市,监理站,,35,35,39,9,20,145,71,137,125,52,31,7,8,0.6,0.5
2023-08-22T21:00:00,1625A,115.9848,36.4372,聊城市,区政府,,45,45,46,16,28,179,124,170,156,16,11,4,5,0.4,0.5
2023-08-22T21:00:00,1628A,118.0062,37.3803,滨州市,市环保局,,46,46,33,12,15,169,105,157,149,25,14,6,6,0.3,0.4
2023-08-22T21:00:00,1629A,118.0018,37.3617,滨州市,第二水厂,,41,41,29,13,16,181,115,169,162,21,14,9,9,0.6,0.6
2023-08-22T21:00:00,1630A,117.9776,37.393,滨州市,北中新校,,40,40,35,17,17,179,123,168,162,18,13,5,5,0.3,0.4
2023-08-22T21:00:00,1631A,118.0414,36.8103,淄博市,人民公园,,41,41,42,14,22,188,106,173,161,40,30,14,13,0.4,0.4
2023-08-22T21:00:00,1633A,117.8525,36.4847,淄博市,双山,,46,46,45,14,22,190,75,174,157,35,19,8,9,0.3,0.4
2023-08-22T21:00:00,1634A,117.9592,36.6331,淄博市,气象站,颗粒物(PM10),60,70,46,27,28,180,75,167,152,51,22,10,11,0.4,0.4
2023-08-22T21:00:00,1635A,118.3092,36.8194,淄博市,莆田园,颗粒物(PM10),51,51,50,19,26,208,109,181,161,40,30,10,12,0.7,1
2023-08-22T21:00:00,1637A,117.558,34.8438,枣庄市,市中区政府,颗粒物(PM10),71,92,60,34,23,173,100,162,156,44,22,20,12,0.5,0.4
2023-08-22T21:00:00,1638A,117.2852,34.7837,枣庄市,薛城环保局,颗粒物(PM10),69,88,64,29,26,177,101,167,156,45,21,12,12,0.6,0.5
2023-08-22T21:00:00,1639A,117.5852,34.7745,枣庄市,峄城区政府,颗粒物(PM10),52,53,57,22,20,190,146,171,166,19,18,9,12,0.6,0.6
2023-08-22T21:00:00,1640A,117.7276,34.5578,枣庄市,台儿庄区环保局,颗粒物(PM10),63,75,51,36,20,218,103,188,173,36,20,8,9,0.7,0.6
2023-08-22T21:00:00,1641A,117.4518,35.0992,枣庄市,山亭区环保局,,46,36,50,22,26,171,145,165,161,12,13,6,8,0.3,0.3
2023-08-22T21:00:00,1642A,121.2514,37.5639,烟台市,开发区,,36,36,17,17,10,176,113,160,153,13,9,15,11,0.8,0.9
2023-08-22T21:00:00,1643A,121.3719,37.5433,烟台市,轴承厂,,41,41,26,22,17,166,122,151,149,13,12,7,6,0.6,0.6
2023-08-22T21:00:00,1644A,121.3181,37.5436,烟台市,西郊化工站,,44,44,20,14,17,175,116,155,150,18,14,9,8,0.4,0.5
2023-08-22T21:00:00,1645A,121.4478,37.4822,烟台市,莱山环保局,,38,34,15,17,9,176,120,156,152,14,10,7,7,0.9,0.7
2023-08-22T21:00:00,1646A,121.2611,37.4967,烟台市,福山环保局,颗粒物(PM10),53,56,27,14,6,162,100,148,140,21,15,7,7,0.7,0.7
2023-08-22T21:00:00,1650A,119.1437,36.7023,潍坊市,环保局,,45,44,40,15,27,170,143,162,158,12,16,10,11,0.6,0.6
2023-08-22T21:00:00,1653A,116.6251,35.4302,济宁市,火炬城,颗粒物(PM10),58,65,43,27,20,165,139,150,150,12,13,9,9,0.8,0.6
2023-08-22T21:00:00,1655A,116.5491,35.4042,济宁市,电化厂,颗粒物(PM10),57,63,50,31,24,169,150,154,154,12,21,6,7,0.8,0.6
2023-08-22T21:00:00,1656A,117.1437,36.1937,泰安市,监测站,颗粒物(PM10),54,58,44,22,23,185,135,162,159,14,11,8,8,0.4,0.4
2023-08-22T21:00:00,1657A,117.0885,36.2017,泰安市,人口学校,,44,44,36,18,16,182,113,168,157,19,12,6,7,0.4,0.4
2023-08-22T21:00:00,1658A,117.1089,36.1758,泰安市,电力学校,,44,44,45,21,22,193,119,178,167,21,20,6,8,0.2,0.3
2023-08-22T21:00:00,1659A,119.471,35.4209,日照市,监测站,颗粒物(PM10),51,51,27,22,18,126,82,116,111,28,14,5,6,0.7,0.6
2023-08-22T21:00:00,1660A,119.523,35.4216,日照市,市政府广场,,36,36,26,17,15,170,114,157,154,22,11,4,6,0.7,0.7
2023-08-22T21:00:00,1661A,119.5587,35.4044,日照市,港务局,,43,34,25,20,18,189,137,170,168,17,9,8,7,0.8,0.8
2023-08-22T21:00:00,1662A,122.1214,37.4236,威海市,华夏技校,,,36,13,24,11,145,,128,128,28,10,11,13,0.8,0.2
2023-08-22T21:00:00,1663A,122.0508,37.5236,威海市,山大分校,,50,27,11,20,7,173,158,160,160,3,2,9,8,0.9,0.6
2023-08-22T21:00:00,1664A,122.1067,37.5072,威海市,市监测站,,39,27,10,24,6,155,123,142,141,17,6,8,8,1.1,0.7
2023-08-22T21:00:00,1666A,118.6614,37.4309,东营市,市环保局,,41,27,24,12,15,150,129,143,138,10,14,7,10,0.6,0.4
2023-08-22T21:00:00,1669A,113.5824,24.7733,韶关市,市八中,,20,15,22,7,10,105,61,90,82,6,15,9,14,0.6,0.6
2023-08-22T21:00:00,1671A,113.5917,24.7972,韶关市,园林处,,,,21,,11,106,,85,79,4,12,8,10,0.5,0.7
2023-08-22T21:00:00,1672A,113.6735,24.7791,韶关市,韶关学院,,14,14,24,8,14,84,36,74,63,8,11,7,8,0.4,0.6
2023-08-22T21:00:00,1673A,113.5971,24.6863,韶关市,曲江监测站,,28,28,23,10,10,93,48,84,76,12,13,9,10,0.4,0.5
2023-08-22T21:00:00,1674A,116.6794,23.3667,汕头市,金平子站,,16,16,18,10,8,95,44,69,53,16,14,5,5,0.6,0.7
2023-08-22T21:00:00,1675A,116.7244,23.3633,汕头市,龙湖子站,,23,23,17,6,8,105,54,78,63,13,12,5,5,0.7,0.7
2023-08-22T21:00:00,1676A,116.7258,23.2775,汕头市,濠江子站,,19,19,18,7,7,75,52,68,64,17,13,9,9,0.5,0.5
2023-08-22T21:00:00,1677A,116.7519,23.4714,汕头市,澄海子站,,33,33,26,14,12,106,36,79,58,26,20,6,8,0.8,0.8
2023-08-22T21:00:00,1678A,116.6092,23.2539,汕头市,潮阳子站,,25,25,16,8,9,84,54,69,61,7,7,8,8,0.6,0.6
2023-08-22T21:00:00,1680A,110.3539,21.2706,湛江市,湛江影剧院,,30,22,20,21,11,113,42,88,80,19,10,20,8,0.6,0.6
2023-08-22T21:00:00,1681A,110.3928,21.2228,湛江市,市环境监测站,,22,16,16,15,11,108,51,80,75,13,9,13,8,0.5,0.6
2023-08-22T21:00:00,1682A,110.4019,21.1997,湛江市,环保局宿舍,,18,16,17,12,9,99,38,82,72,24,9,4,5,0.5,0.5
2023-08-22T21:00:00,1683A,110.4111,21.2028,湛江市,霞山游泳场,,23,23,21,12,7,97,47,78,70,19,10,6,6,0.5,0.5
2023-08-22T21:00:00,1684A,110.3316,21.2679,湛江市,麻章区环保局,,24,24,23,13,11,119,38,84,78,18,13,11,5,0.6,0.6
2023-08-22T21:00:00,1685A,110.4558,21.2567,湛江市,坡头区环保局,,23,23,13,12,9,90,42,75,68,24,7,7,5,0.4,0.4
2023-08-22T21:00:00,1686A,111.0286,21.4688,茂名市,电白南海,,18,14,17,12,10,78,53,63,60,9,6,4,6,0.6,0.6
2023-08-22T21:00:00,1687A,110.9294,21.6533,茂名市,茂石化七小,,19,19,20,12,11,101,40,79,62,11,9,5,6,0.5,0.5
2023-08-22T21:00:00,1688A,110.9107,21.6687,茂名市,健康路,,,14,14,5,5,101,42,81,65,,7,4,5,0.4,0.3
2023-08-22T21:00:00,1689A,110.8592,21.6828,茂名市,高岭,,20,17,22,14,13,102,44,80,69,8,8,4,6,0.6,0.6
2023-08-22T21:00:00,1690A,116.1231,24.3284,梅州市,梅江月梅,,26,26,25,10,8,68,6,57,38,29,15,3,2,0.7,0.7
2023-08-22T21:00:00,1691A,116.0797,24.2719,梅州市,梅县新城,,21,21,20,11,8,62,15,54,42,23,14,3,4,0.7,0.7
2023-08-22T21:00:00,1692A,116.1248,24.2654,梅州市,环境监控中心,,28,28,22,11,10,67,23,58,49,19,14,9,10,0.6,0.5
2023-08-22T21:00:00,1693A,115.3653,22.775,汕尾市,市环保局,,18,7,13,5,3,70,56,65,64,4,6,3,3,0.6,0.6
2023-08-22T21:00:00,1694A,115.3706,22.7898,汕尾市,市政府,,19,10,12,1,4,76,60,69,69,4,6,5,4,0.6,0.6
2023-08-22T21:00:00,1695A,115.3622,22.7925,汕尾市,新城中学,,18,5,12,6,5,71,56,65,65,3,4,6,6,0.6,0.6
2023-08-22T21:00:00,1696A,114.6778,23.7569,河源市,源西,,28,19,32,19,16,97,44,78,73,17,16,4,4,0.7,0.7
2023-08-22T21:00:00,1697A,114.6944,23.7586,河源市,东埔,,29,25,30,20,14,106,60,84,81,12,11,5,5,0.7,0.5
2023-08-22T21:00:00,1698A,114.6892,23.7233,河源市,老城,,30,30,34,8,13,109,48,86,82,15,12,3,4,0.6,0.5
2023-08-22T21:00:00,1699A,111.9797,21.8593,阳江市,鸳鸯湖,,15,7,11,5,6,75,48,62,58,3,5,4,4,0.3,0.4
2023-08-22T21:00:00,1701A,111.9491,21.8658,阳江市,马南垌,,15,9,15,2,5,79,47,65,60,3,5,5,4,0.4,0.4
2023-08-22T21:00:00,1702A,113.0426,23.691,清远市,环保大楼,,,28,23,38,18,112,79,98,83,,14,7,9,0.6,0.5
2023-08-22T21:00:00,1703A,113.0208,23.7106,清远市,凤城街办,,38,38,30,22,17,100,70,85,78,12,12,6,7,0.6,0.5
2023-08-22T21:00:00,1705A,116.6367,23.6719,潮州市,西园路,,30,26,23,21,17,113,27,80,59,14,15,3,5,0.3,0.4
2023-08-22T21:00:00,1706A,116.6447,23.6706,潮州市,档案局,,27,27,28,17,14,123,18,93,58,20,15,5,7,0.9,0.6
2023-08-22T21:00:00,1708A,116.3701,23.5345,揭阳市,新兴,,39,39,31,13,15,76,14,61,43,30,14,5,7,1.0,0.8
2023-08-22T21:00:00,1709A,116.3264,23.5443,揭阳市,西马,,46,46,30,21,14,72,26,58,47,26,15,6,7,1.0,0.8
2023-08-22T21:00:00,1710A,116.3611,23.5626,揭阳市,东兴,颗粒物(PM10),51,52,27,18,13,72,17,61,46,36,19,8,6,1.0,0.8
2023-08-22T21:00:00,1711A,116.4151,23.5294,揭阳市,渔湖,,39,39,40,23,15,86,15,69,46,31,16,5,7,0.8,0.6
2023-08-22T21:00:00,1712A,112.0392,22.9169,云浮市,新市府,,16,10,15,5,7,80,49,66,66,4,4,4,5,0.6,0.6
2023-08-22T21:00:00,1714A,112.0539,22.9539,云浮市,牧羊,,,,35,15,13,91,,75,75,30,17,6,10,0.5,0.5
2023-08-22T21:00:00,1715A,102.575,24.3711,玉溪市,东风水库,,22,22,21,8,16,87,44,73,68,10,16,3,4,0.8,1.3
2023-08-22T21:00:00,1718A,115.4208,35.2464,菏泽市,气象局,颗粒物(PM10),62,73,58,29,25,169,118,159,149,9,7,5,5,0.6,0.5
2023-08-22T21:00:00,1719A,115.4747,35.2375,菏泽市,市政协,颗粒物(PM10),72,94,54,35,25,180,126,167,156,20,13,5,6,0.4,0.4
2023-08-22T21:00:00,1721A,113.3819,40.1097,大同市,果树场,,,,,,,,,,,,,,,,
2023-08-22T21:00:00,1723A,113.2994,40.0758,大同市,云冈宾馆,,41,41,44,13,11,129,95,117,117,21,25,10,12,0.7,0.9
2023-08-22T21:00:00,1724A,113.3444,40.0917,大同市,大同大学,,38,38,42,26,11,140,101,123,123,15,19,6,20,0.3,0.6
2023-08-22T21:00:00,1725A,113.2661,40.1269,大同市,安家小村,,32,30,47,8,10,134,101,121,121,10,21,9,14,0.3,0.8
2023-08-22T21:00:00,1726A,113.2711,40.0844,大同市,教育学院,,46,46,45,12,10,134,97,121,121,22,27,9,14,1.0,0.8
2023-08-22T21:00:00,1727A,113.1147,36.1547,长治市,清华站,,46,39,56,9,21,197,146,169,162,7,26,7,11,0.8,0.9
2023-08-22T21:00:00,1728A,113.1031,36.1989,长治市,监测站,,42,25,48,9,21,211,133,177,167,18,34,4,8,1.4,1.2
2023-08-22T21:00:00,1730A,113.0886,36.2125,长治市,审计局,,41,24,45,17,21,196,129,171,160,14,30,7,11,1.4,1.3
2023-08-22T21:00:00,1731A,113.0844,36.1856,长治市,长治八中,,43,22,57,10,22,228,137,184,176,11,30,10,14,1.0,1
2023-08-22T21:00:00,1733A,111.5531,36.0783,临汾市,临钢医院,颗粒物(PM10),51,51,73,13,19,195,98,158,146,13,21,8,9,0.9,1.2
2023-08-22T21:00:00,1734A,111.5028,36.0714,临汾市,技工学校,颗粒物(PM10),52,53,68,13,24,207,98,175,156,24,24,7,12,0.8,1.1
2023-08-22T21:00:00,1736A,111.5018,36.0855,临汾市,市委,颗粒物(PM10),60,70,74,17,23,183,86,155,139,26,24,6,10,0.6,0.9
2023-08-22T21:00:00,1738A,113.5758,37.8572,阳泉市,市中心,,45,45,50,19,17,142,127,134,134,18,49,11,18,0.9,0.8
2023-08-22T21:00:00,1739A,113.4894,37.8731,阳泉市,赛鱼,,50,50,51,20,17,142,103,132,125,25,45,8,9,0.6,0.6
2023-08-22T21:00:00,1740A,113.5819,37.8486,阳泉市,南庄,颗粒物(PM10),59,67,73,22,20,143,134,137,137,16,41,11,18,0.6,0.7
2023-08-22T21:00:00,1742A,113.5614,37.8703,阳泉市,平坦,颗粒物(PM10),59,68,52,11,13,145,130,139,139,18,49,9,12,0.5,0.5
2023-08-22T21:00:00,1743A,113.5158,37.8392,阳泉市,大阳泉,,41,34,30,23,17,142,130,135,135,15,21,8,11,0.5,0.5
2023-08-22T21:00:00,1744A,118.9233,42.2816,赤峰市,松山一中,,25,13,29,10,5,90,77,85,80,24,16,12,10,0.3,0.2
2023-08-22T21:00:00,1745A,118.9576,42.2728,赤峰市,哈达街,,29,19,28,7,7,90,90,84,84,20,16,17,14,0.2,0.1
2023-08-22T21:00:00,1746A,118.8788,42.2554,赤峰市,天义路,,26,20,29,7,8,102,81,89,89,24,13,16,9,0.3,0.2
2023-08-22T21:00:00,1748A,123.044,41.1196,鞍山市,深沟寺,,29,29,32,17,18,110,54,93,85,20,15,6,3,2.2,1.4
2023-08-22T21:00:00,1749A,123.011,41.0931,鞍山市,太阳城,,19,17,36,8,19,113,60,92,89,22,19,6,7,1.3,1.9
2023-08-22T21:00:00,1750A,123.0485,41.1442,鞍山市,太平,颗粒物(PM10),54,57,48,36,21,116,49,104,94,38,19,18,7,2.8,1.4
2023-08-22T21:00:00,1751A,122.9642,41.0971,鞍山市,铁西三道街,,28,28,42,12,25,124,56,106,97,26,20,10,8,1.0,1.5
2023-08-22T21:00:00,1752A,122.9341,41.0833,鞍山市,铁西工业园区,,36,36,37,9,19,123,27,105,90,41,17,8,6,1.2,1.6
2023-08-22T21:00:00,1753A,123.022,41.0821,鞍山市,明达新区,,25,25,29,10,19,106,50,93,86,26,19,7,6,1.0,1.3
2023-08-22T21:00:00,1754A,123.1289,41.0228,鞍山市,千山,,,,,,,,,,,,,,,,
2023-08-22T21:00:00,1755A,123.7977,41.8491,抚顺市,望花区,,21,21,26,7,27,158,60,126,106,17,17,6,8,0.4,0.6
2023-08-22T21:00:00,1756A,123.9161,41.8822,抚顺市,顺城区,,33,33,25,15,18,144,16,125,93,31,15,4,5,0.5,0.7
2023-08-22T21:00:00,1757A,124.0436,41.8611,抚顺市,东洲区,,29,29,30,11,20,150,55,132,113,21,15,8,8,0.4,0.8
2023-08-22T21:00:00,1758A,123.9247,41.8642,抚顺市,新抚区,,20,20,24,12,20,143,45,120,102,20,15,5,5,0.5,0.8
2023-08-22T21:00:00,1759A,124.0972,41.8961,抚顺市,大伙房水库,,30,30,30,7,16,135,45,122,104,12,11,5,6,0.4,0.8
2023-08-22T21:00:00,1760A,123.7086,41.8391,抚顺市,沈抚新城,,18,15,21,4,15,135,18,106,80,35,16,5,7,0.4,0.7
2023-08-22T21:00:00,1761A,123.8275,41.3064,本溪市,大峪,,42,42,31,17,16,137,59,126,111,15,17,4,5,0.6,0.8
2023-08-22T21:00:00,1762A,123.7567,41.3325,本溪市,溪湖,,38,38,28,16,17,115,40,105,93,30,27,7,8,0.7,1.4
2023-08-22T21:00:00,1763A,123.7169,41.3094,本溪市,彩屯,,21,21,24,11,16,128,32,121,96,26,19,6,6,0.6,1
2023-08-22T21:00:00,1764A,123.7669,41.2864,本溪市,东明,颗粒物(PM10),52,54,32,29,26,146,52,130,118,44,23,7,8,1.0,1.1
2023-08-22T21:00:00,1765A,123.7992,41.2664,本溪市,新立屯,,35,35,37,22,14,126,25,88,74,37,23,7,9,0.9,1.2
2023-08-22T21:00:00,1766A,123.8142,41.3472,本溪市,威宁,,43,43,25,21,17,121,15,110,90,37,20,6,6,0.7,0.9
2023-08-22T21:00:00,1767A,121.1115,41.0879,锦州市,南山,,22,22,19,6,6,83,37,80,70,30,22,5,6,0.6,0.5
2023-08-22T21:00:00,1768A,121.0533,40.8434,锦州市,开发区,,26,26,24,12,11,86,33,83,71,43,23,5,10,0.7,0.8
2023-08-22T21:00:00,1769A,121.1836,41.1119,锦州市,百股街道,,18,18,18,9,9,84,20,82,65,33,16,7,10,0.7,0.7
2023-08-22T21:00:00,1770A,121.1178,41.1222,锦州市,天安街道,,28,28,27,5,12,80,36,76,66,35,24,6,8,0.7,0.8
2023-08-22T21:00:00,1771A,121.1303,41.1386,锦州市,北湖公园,,17,8,22,5,9,86,52,83,73,25,22,10,10,0.5,0.6
2023-08-22T21:00:00,1772A,126.54,43.8622,吉林市,哈达湾,,26,19,13,10,7,102,82,96,94,14,8,6,5,0.5,0.5
2023-08-22T21:00:00,1773A,126.5844,43.8358,吉林市,东局子,,29,29,15,11,9,108,71,98,89,22,13,6,6,0.7,0.6
2023-08-22T21:00:00,1774A,126.5052,43.8245,吉林市,电力学院,,27,27,18,5,8,107,61,98,87,10,8,8,7,0.6,0.6
2023-08-22T21:00:00,1775A,126.6133,43.8972,吉林市,江北,,30,30,20,15,9,104,72,94,86,15,10,8,7,0.7,0.7
2023-08-22T21:00:00,1776A,126.555,43.8306,吉林市,江南公园,,30,26,16,21,8,108,76,101,96,15,9,4,3,0.7,0.7
2023-08-22T21:00:00,1778A,126.7061,43.7133,吉林市,丰满,,,,,,,,,,,,,,,,
2023-08-22T21:00:00,1779A,123.9305,47.3636,齐齐哈尔市,安居小区,,43,21,15,30,16,95,40,87,59,15,7,5,5,0.3,0.3
2023-08-22T21:00:00,1780A,123.9488,47.3386,齐齐哈尔市,中心广场,,14,14,18,7,9,95,32,93,51,22,10,4,3,0.4,0.4
2023-08-22T21:00:00,1781A,123.9483,47.3227,齐齐哈尔市,农牧车辆厂,,27,27,22,3,4,97,33,94,54,17,10,7,7,0.3,0.4
2023-08-22T21:00:00,1783A,123.945,47.2988,齐齐哈尔市,市环境监测站,,27,27,13,9,8,97,33,97,53,17,8,8,8,0.2,0.2
2023-08-22T21:00:00,1784A,129.61,44.561,牡丹江市,环保大楼,,18,18,11,5,5,81,27,73,54,23,8,5,5,0.6,0.5
2023-08-22T21:00:00,1785A,129.6115,44.5782,牡丹江市,文化广场,,36,19,10,25,12,75,31,68,53,20,10,6,6,0.6,0.5
2023-08-22T21:00:00,1786A,129.5904,44.5963,牡丹江市,第一医院,,25,24,11,17,8,71,14,68,51,28,8,4,4,0.7,0.4
2023-08-22T21:00:00,1787A,129.6364,44.6075,牡丹江市,机车工厂,,25,25,12,8,4,70,10,63,46,25,10,3,2,0.7,0.5
2023-08-22T21:00:00,1788A,129.6386,44.5462,牡丹江市,第一中学,,34,34,15,10,5,79,9,72,50,20,10,5,5,0.5,0.4
2023-08-22T21:00:00,1789A,124.81117,46.03138,大庆市,大同区,,17,17,14,10,10,108,52,99,69,10,7,6,6,0.2,0.2
2023-08-22T21:00:00,1790A,125.129,46.533,大庆市,龙凤区,,20,20,13,8,8,100,58,98,69,9,7,4,4,0.5,0.2
2023-08-22T21:00:00,1791A,124.902,46.408,大庆市,红岗区,,19,18,12,11,12,98,58,98,73,10,6,3,3,0.3,0.3
2023-08-22T21:00:00,1792A,125.153,46.586,大庆市,萨尔图区,,26,26,17,9,8,95,56,92,65,14,9,5,5,0.4,0.4
2023-08-22T21:00:00,1793A,124.9042,46.6215,大庆市,让胡路区,,19,15,11,9,8,98,59,95,66,12,6,5,5,0.3,0.3
2023-08-22T21:00:00,1794A,118.3606,31.3519,芜湖市,监测站,,35,35,29,13,20,90,81,82,82,24,27,5,7,1.0,1
2023-08-22T21:00:00,1795A,118.3714,31.4134,芜湖市,科创中心,,38,38,30,17,20,95,55,87,80,50,29,7,9,1.1,1
2023-08-22T21:00:00,1796A,118.3673,31.3131,芜湖市,四水厂,,28,18,27,11,19,105,88,92,92,18,22,3,5,1.0,1.1
2023-08-22T21:00:00,1798A,118.5092,31.6837,马鞍山市,湖东路四小,细颗粒物(PM2.5),67,54,28,48,28,124,83,99,97,26,14,8,8,1.1,0.9
2023-08-22T21:00:00,1799A,118.5024,31.6449,马鞍山市,开发区,,45,45,30,27,19,125,80,100,97,17,10,6,6,0.9,0.8
2023-08-22T21:00:00,1800A,118.5228,31.7231,马鞍山市,慈湖,颗粒物(PM10),62,73,41,39,24,129,54,100,94,38,23,8,11,1.3,1
2023-08-22T21:00:00,1802A,118.6245,31.7241,马鞍山市,濮塘,,39,21,14,27,19,110,36,92,78,4,6,3,3,1.1,0.9
2023-08-22T21:00:00,1803A,115.9872,29.6815,九江市,十里,,30,24,21,12,15,124,93,102,102,14,12,8,8,0.6,0.6
2023-08-22T21:00:00,1804A,115.9584,29.7046,九江市,茅山头,,,30,20,27,18,118,,101,101,20,15,12,9,0.9,0.9
2023-08-22T21:00:00,1805A,115.9877,29.7295,九江市,西园,,33,22,22,11,10,122,104,108,108,17,15,9,8,0.6,0.6
2023-08-22T21:00:00,1806A,116.0172,29.6547,九江市,五七二七厂,,29,18,14,12,11,105,91,88,86,8,6,8,8,0.5,0.6
2023-08-22T21:00:00,1808A,115.9114,29.6038,九江市,综合工业园,,25,15,22,9,15,126,77,99,99,36,20,12,11,0.8,0.9
2023-08-22T21:00:00,1809A,116.0721,29.7535,九江市,石化总厂,,27,19,24,18,15,122,86,100,98,26,14,11,12,0.7,0.7
2023-08-22T21:00:00,1810A,115.9773,29.5698,九江市,庐山气象台,,34,20,12,19,11,107,106,104,103,8,9,7,8,0.7,0.6
2023-08-22T21:00:00,1812A,112.3931,34.6516,洛阳市,市委党校,颗粒物(PM10),56,61,42,37,25,202,148,187,184,15,11,8,7,0.8,0.6
2023-08-22T21:00:00,1814A,112.4657,34.6871,洛阳市,豫西宾馆,颗粒物(PM10),63,76,53,40,28,218,138,196,187,18,19,3,5,1.1,1.1
2023-08-22T21:00:00,1815A,112.494,34.6886,洛阳市,河南林校,颗粒物(PM10),58,65,40,36,23,214,134,193,186,23,21,6,6,0.9,0.9
2023-08-22T21:00:00,1816A,112.3844,34.623,洛阳市,开发区管委会,颗粒物(PM10),59,68,42,29,19,223,158,195,192,15,11,10,8,0.7,0.5
2023-08-22T21:00:00,1817A,112.4267,34.6258,洛阳市,市委新办公区,颗粒物(PM10),60,69,43,41,24,200,145,184,179,24,13,7,6,0.9,0.7
2023-08-22T21:00:00,1818A,114.4839,36.0621,安阳市,棉研所,,,,,,,,,,,,,,,,
2023-08-22T21:00:00,1819A,114.3551,36.1017,安阳市,红庙街,细颗粒物(PM2.5),73,87,76,53,36,198,147,188,179,8,15,10,15,1.1,1.5
2023-08-22T21:00:00,1820A,114.361,36.0681,安阳市,银杏小区,,,90,70,,,206,141,197,184,12,10,4,6,1.2,1.1
2023-08-22T21:00:00,1824A,114.3389,34.7781,开封市,肿瘤医院,颗粒物(PM10),57,63,58,37,24,183,115,166,160,28,13,4,6,0.7,0.6
2023-08-22T21:00:00,1826A,114.2885,34.7965,开封市,世纪星幼儿园,,,70,56,60,30,174,136,164,158,,17,7,8,,0.8
2023-08-22T21:00:00,1828A,113.227,35.2125,焦作市,市环保局,颗粒物(PM10),54,57,51,28,27,217,153,189,187,10,20,7,9,0.6,0.7
2023-08-22T21:00:00,1830A,113.1992,35.2590,焦作市,影视城,,,,,,,,,,,,,,,,
2023-08-22T21:00:00,1832A,113.3257,33.742,平顶山市,新华旅馆,,,,46,,25,193,,184,176,31,25,2,6,0.8,0.7
2023-08-22T21:00:00,1833A,113.2919,33.737,平顶山市,规划设计院,细颗粒物(PM2.5),60,63,51,43,26,209,144,187,175,13,17,8,9,1.0,0.9
2023-08-22T21:00:00,1834A,113.182,33.774,平顶山市,平顶山工学院,颗粒物(PM10),58,66,49,36,20,210,124,193,188,22,16,7,9,0.8,0.7
2023-08-22T21:00:00,1835A,111.1922,34.7752,三门峡市,市政府,颗粒物(PM10),58,66,44,24,17,188,84,165,156,31,23,6,10,0.8,0.7
2023-08-22T21:00:00,1836A,111.1587,34.7942,三门峡市,开发区,颗粒物(PM10),59,67,34,24,17,192,114,163,158,17,14,6,9,0.8,0.6
2023-08-22T21:00:00,1838A,111.143,34.7955,三门峡市,风景区,,,,,,,,,,,,,,,,
2023-08-22T21:00:00,1840A,111.2992,30.6981,宜昌市,白龙岗,,44,44,30,14,10,158,125,144,144,20,18,5,5,0.4,0.4
2023-08-22T21:00:00,1841A,111.3549,30.6465,宜昌市,伍家岗,,,45,25,22,12,160,,146,146,18,17,3,3,0.6,0.6
2023-08-22T21:00:00,1842A,111.2628,30.6961,宜昌市,点军区,颗粒物(PM10),51,52,29,19,11,165,117,152,151,17,14,6,6,0.5,0.6
2023-08-22T21:00:00,1843A,111.3275,30.7819,宜昌市,夷陵区,,49,49,29,14,8,151,101,135,132,22,17,4,4,0.5,0.5
2023-08-22T21:00:00,1844A,112.2494,30.3197,荆州市,市图书馆,,45,39,27,31,16,155,96,146,139,31,15,10,8,0.7,0.7
2023-08-22T21:00:00,1845A,112.2008,30.3544,荆州市,市委党校,,43,42,28,30,19,163,106,141,136,22,13,8,8,0.8,0.8
2023-08-22T21:00:00,1847A,113.1094,29.3578,岳阳市,南湖风景区,,36,29,15,18,13,135,114,132,129,14,5,6,6,1.0,0.9
2023-08-22T21:00:00,1848A,113.1493,29.4251,岳阳市,城陵矶,,32,27,13,20,11,129,102,118,116,20,10,7,8,0.8,0.8
2023-08-22T21:00:00,1849A,113.1497,29.3575,岳阳市,开发区,,32,31,19,19,12,135,100,129,123,18,6,7,7,0.7,0.6
2023-08-22T21:00:00,1850A,113.2621,29.4758,岳阳市,云溪区,,29,26,15,20,11,124,83,120,114,9,10,7,6,0.7,0.6
2023-08-22T21:00:00,1851A,112.9943,29.4402,岳阳市,君山区,,48,41,17,33,14,139,80,131,120,32,11,8,8,0.7,0.6
2023-08-22T21:00:00,1852A,113.2117,29.355,岳阳市,金凤水库,,36,22,13,13,10,141,113,136,132,7,3,3,2,0.5,0.6
2023-08-22T21:00:00,1854A,111.6975,28.9703,常德市,市二中,,35,30,26,24,17,122,86,113,110,16,7,3,4,0.6,0.6
2023-08-22T21:00:00,1857A,111.7158,29.1456,常德市,白鹤山,,28,28,17,8,7,118,78,110,104,6,4,7,8,0.4,0.4
2023-08-22T21:00:00,1858A,110.5319,29.1217,张家界市,永定新区,,40,40,29,16,18,110,82,102,100,16,9,6,6,0.5,0.4
2023-08-22T21:00:00,1859A,110.4697,29.1242,张家界市,电业局,,32,31,21,18,16,116,102,106,106,10,8,3,3,0.4,0.4
2023-08-22T21:00:00,1860A,110.5594,29.3547,张家界市,未央路,,31,31,29,14,12,110,35,99,88,23,7,3,3,0.3,0.3
2023-08-22T21:00:00,1861A,110.4417,29.315,张家界市,袁家界,,22,22,21,4,11,105,65,100,93,4,4,7,7,0.6,0.7
2023-08-22T21:00:00,1862A,110.4144,25.3167,桂林市,电子科大尧山校区,,29,29,35,14,15,74,32,60,50,6,7,4,4,0.6,0.6
2023-08-22T21:00:00,1863A,110.2819,25.2697,桂林市,监测站,,45,45,38,25,19,78,40,68,59,27,15,20,10,0.8,0.7
2023-08-22T21:00:00,1864A,110.3089,25.2708,桂林市,龙隐路小学,,46,46,36,21,20,76,39,64,56,20,13,21,11,0.8,0.7
2023-08-22T21:00:00,1865A,110.2869,25.2178,桂林市,八中,,34,34,37,22,19,70,40,62,55,32,17,4,4,0.7,0.9
2023-08-22T21:00:00,1866A,109.2262,21.588,北海市,牛尾岭水库,,24,24,13,11,6,89,32,57,50,11,8,5,15,0.5,0.5
2023-08-22T21:00:00,1867A,109.1436,21.4086,北海市,海滩公园,,16,7,13,2,2,65,49,60,59,7,5,3,3,0.4,0.5
2023-08-22T21:00:00,1868A,109.0981,21.4661,北海市,新市环保局,,16,5,11,0,4,68,51,64,62,6,5,4,4,0.3,0.3
2023-08-22T21:00:00,1869A,109.1778,21.5233,北海市,北海工业园,,25,23,18,17,9,70,35,64,58,18,9,4,4,0.5,0.4
2023-08-22T21:00:00,1870A,109.4856,24.3895,柳州市,柳东小学,,,,26,,20,105,,87,83,5,10,5,8,0.4,0.4
2023-08-22T21:00:00,1871A,109.4157,24.3277,柳州市,环保监测站,,35,8,31,24,20,92,60,81,71,8,12,4,5,0.3,0.7
2023-08-22T21:00:00,1872A,109.389,24.341,柳州市,河西水厂,,20,19,30,14,18,92,64,80,73,6,14,6,6,0.7,0.8
2023-08-22T21:00:00,1873A,109.4311,24.2921,柳州市,市四中,,23,18,29,16,13,102,66,88,76,10,14,7,6,0.7,0.8
2023-08-22T21:00:00,1874A,109.4006,24.3631,柳州市,市九中,,21,15,32,9,17,95,66,80,73,4,11,6,8,0.8,0.9
2023-08-22T21:00:00,1875A,109.4958,24.3134,柳州市,古亭山,,18,12,27,12,16,107,54,95,86,11,14,4,5,0.6,0.6
2023-08-22T21:00:00,1876A,109.5078,18.2489,三亚市,河东子站,,19,19,12,10,5,61,34,49,47,14,6,3,3,0.4,0.3
2023-08-22T21:00:00,1877A,109.4964,18.2681,三亚市,河西子站,,13,13,10,7,4,62,25,49,44,17,7,2,2,0.3,0.3
2023-08-22T21:00:00,1878A,104.7778,31.4741,绵阳市,富乐山,,46,46,50,24,29,176,100,154,142,13,22,4,4,0.7,0.8
2023-08-22T21:00:00,1879A,104.7563,31.4535,绵阳市,市人大,,41,41,57,28,33,170,99,152,141,15,33,10,10,0.6,0.7
2023-08-22T21:00:00,1880A,104.6697,31.4668,绵阳市,高新区自来水公司,颗粒物(PM10),54,57,74,32,34,187,107,167,158,15,39,7,7,0.7,0.8
2023-08-22T21:00:00,1881A,104.7287,31.5075,绵阳市,三水厂,,46,46,66,25,40,186,81,160,145,39,39,8,7,0.7,0.7
2023-08-22T21:00:00,1882A,104.563,28.793,宜宾市,石马中学,,45,45,32,24,18,168,74,151,143,30,19,8,10,0.6,0.6
2023-08-22T21:00:00,1883A,104.6201,28.7728,宜宾市,市委,,45,45,40,26,24,183,91,150,145,13,21,5,8,0.7,0.7
2023-08-22T21:00:00,1884A,104.6055,28.793,宜宾市,宜宾四中,颗粒物(PM10),51,51,40,26,24,171,92,148,143,24,22,10,11,0.6,0.6
2023-08-22T21:00:00,1885A,104.639,28.7562,宜宾市,市政府,,38,38,38,24,23,178,110,151,149,26,25,8,9,0.8,0.8
2023-08-22T21:00:00,1886A,104.5742,28.7199,宜宾市,黄金嘴,,42,42,30,27,18,165,91,143,139,25,19,6,6,0.7,0.6
2023-08-22T21:00:00,1888A,101.6891,26.571,攀枝花市,弄弄坪,,49,49,35,17,12,103,39,92,87,35,15,9,7,0.9,0.8
2023-08-22T21:00:00,1889A,101.5769,26.5928,攀枝花市,河门口,,32,32,25,16,13,106,62,93,91,12,18,8,10,0.7,1
2023-08-22T21:00:00,1890A,101.7169,26.585,攀枝花市,炳草岗,,27,27,42,13,14,114,64,100,97,22,25,7,19,0.8,1
2023-08-22T21:00:00,1891A,101.7369,26.5008,攀枝花市,仁和,,36,36,24,16,13,125,53,104,99,18,16,7,12,0.7,1
2023-08-22T21:00:00,1893A,105.4324,28.9634,泸州市,九狮山,,39,37,29,27,11,146,40,120,108,17,19,5,5,0.6,0.5
2023-08-22T21:00:00,1894A,105.4427,28.9063,泸州市,小市上码头,"颗粒物(PM10),细颗粒物(PM2.5)",52,53,39,36,24,190,120,166,162,18,18,4,4,0.8,0.8
2023-08-22T21:00:00,1895A,105.4241,28.8573,泸州市,兰田宪桥,,50,50,38,33,26,187,113,156,152,14,13,4,6,0.6,0.7
2023-08-22T21:00:00,1896A,105.4379,28.8833,泸州市,市环监站,颗粒物(PM10),52,54,35,27,19,180,125,153,152,17,18,4,5,0.7,0.7
2023-08-22T21:00:00,1901A,104.4239,31.1208,德阳市,东山公园,颗粒物(PM10),59,68,60,24,27,198,101,172,158,13,16,2,6,0.6,0.6
2023-08-22T21:00:00,1902A,104.3826,31.1317,德阳市,西小区,,46,46,68,26,41,213,117,178,162,12,30,3,8,0.6,0.8
2023-08-22T21:00:00,1904A,104.3553,31.1091,德阳市,耐火材料厂,颗粒物(PM10),56,61,85,28,41,219,105,184,170,19,30,1,7,0.7,0.8
2023-08-22T21:00:00,1905A,106.056,30.8064,南充市,西山风景区,,38,38,36,22,21,144,115,133,129,7,8,9,6,0.5,0.6
2023-08-22T21:00:00,1906A,106.0789,30.8023,南充市,南充市委,颗粒物(PM10),52,53,42,28,25,149,100,137,130,21,15,11,11,0.5,0.5
2023-08-22T21:00:00,1907A,106.1031,30.8217,南充市,南充炼油厂,,43,43,46,24,27,151,107,140,132,19,13,9,10,0.5,0.5
2023-08-22T21:00:00,1908A,106.1064,30.7856,南充市,高坪区监测站,颗粒物(PM10),51,52,44,28,30,130,101,125,121,19,15,8,9,0.5,0.4
2023-08-22T21:00:00,1909A,106.0642,30.7636,南充市,嘉陵区环保局,颗粒物(PM10),53,55,46,31,30,137,82,134,126,37,16,7,9,0.5,0.5
2023-08-22T21:00:00,1910A,106.1087,30.8388,南充市,市环境监测站,颗粒物(PM10),51,51,45,35,32,145,90,134,123,27,18,8,9,0.6,0.5
2023-08-22T21:00:00,1911A,106.9222,27.6869,遵义市,丁字口,,29,28,27,18,18,123,91,112,109,15,16,4,5,0.6,0.7
2023-08-22T21:00:00,1912A,106.9242,27.7019,遵义市,凤凰山,,33,23,38,14,27,128,105,122,120,8,12,6,6,0.6,0.8
2023-08-22T21:00:00,1913A,106.8906,27.6486,遵义市,忠庄,,44,44,34,8,19,137,91,122,118,12,18,2,2,0.5,0.7
2023-08-22T21:00:00,1914A,106.9231,27.6506,遵义市,舟水桥,,27,19,33,6,18,126,86,119,116,8,15,1,2,0.6,0.9
2023-08-22T21:00:00,1915A,106.9178,27.72,遵义市,干田坝,,28,28,30,15,15,130,88,117,111,12,14,5,6,0.6,0.7
2023-08-22T21:00:00,1916A,103.7897,25.5035,曲靖市,环境监测站,,25,25,33,8,18,109,74,92,89,14,18,5,5,0.6,0.7
2023-08-22T21:00:00,1917A,103.8,25.5364,曲靖市,烟厂办公区,,26,18,29,11,16,104,81,95,92,13,15,8,5,0.6,0.7
2023-08-22T21:00:00,1918A,108.7197,34.3956,咸阳市,气象站,,,,,,,,,,,,,,,,
2023-08-22T21:00:00,1919A,108.673,34.3155,咸阳市,实验中学,颗粒物(PM10),57,64,49,20,18,181,94,157,150,12,24,4,6,0.6,0.6
2023-08-22T21:00:00,1920A,108.7233,34.3617,咸阳市,师范学院,颗粒物(PM10),58,65,57,22,21,196,107,171,164,17,31,4,5,0.5,0.7
2023-08-22T21:00:00,1922A,109.0656,35.0994,铜川市,党校,颗粒物(PM10),51,51,44,10,14,138,14,108,83,47,23,8,8,0.7,0.7
2023-08-22T21:00:00,1923A,109.0697,35.0697,铜川市,王益区政府,,45,45,36,17,16,128,25,114,92,39,22,5,6,0.4,0.4
2023-08-22T21:00:00,1924A,108.9344,34.9058,铜川市,新区管委会,,,68,43,19,14,169,89,132,116,27,14,7,5,,0.6
2023-08-22T21:00:00,1926A,109.4131,36.6275,延安市,枣园,,40,40,33,8,12,135,9,104,93,69,27,6,6,0.7,0.6
2023-08-22T21:00:00,1927A,109.4761,36.6028,延安市,延大医附院,,43,43,36,16,6,131,32,103,98,51,27,4,4,0.6,0.4
2023-08-22T21:00:00,1929A,109.5056,36.6106,延安市,百米大道,,47,47,41,17,11,128,24,100,92,70,38,2,4,0.7,0.5
2023-08-22T21:00:00,1930A,107.185,34.3063,宝鸡市,庙沟村,,26,25,34,15,13,128,82,109,103,10,11,4,6,0.3,0.3
2023-08-22T21:00:00,1931A,107.0708,34.3017,宝鸡市,竹园沟,,35,25,31,22,12,148,110,138,134,11,14,5,5,0.5,0.5
2023-08-22T21:00:00,1932A,107.1906,34.3672,宝鸡市,三陆医院,,34,18,41,14,15,144,106,130,127,15,21,5,9,0.5,0.5
2023-08-22T21:00:00,1933A,107.1431,34.3547,宝鸡市,监测站,,34,26,39,19,17,145,107,131,127,19,21,6,6,0.4,0.5
2023-08-22T21:00:00,1934A,107.1186,34.3739,宝鸡市,技工学校,,34,12,40,18,18,146,108,131,127,14,16,7,7,0.4,0.3
2023-08-22T21:00:00,1935A,107.3906,34.3528,宝鸡市,陈仓区环保局家属楼,,34,21,42,14,16,170,106,138,132,12,23,5,9,0.6,0.6
2023-08-22T21:00:00,1936A,107.2058,34.3497,宝鸡市,文理学院,,35,25,43,14,12,151,110,136,132,13,19,4,7,0.5,0.5
2023-08-22T21:00:00,1937A,107.2386,34.3622,宝鸡市,三迪小学,,33,18,45,18,15,154,104,131,125,14,18,5,8,0.4,0.5
2023-08-22T21:00:00,1938A,109.5293,34.5101,渭南市,农科所,颗粒物(PM10),56,61,48,19,22,158,56,133,114,33,18,5,5,0.4,0.4
2023-08-22T21:00:00,1939A,109.4974,34.4877,渭南市,日报社,颗粒物(PM10),56,61,54,28,25,177,70,158,141,46,30,5,5,0.5,0.5
2023-08-22T21:00:00,1940A,109.4636,34.493,渭南市,体育馆,,,,48,,19,194,,165,160,59,23,4,4,0.5,0.5
2023-08-22T21:00:00,1941A,109.4259,34.5023,渭南市,高新一小,,43,43,55,22,19,183,82,152,141,23,26,5,6,0.4,0.5
2023-08-22T21:00:00,1943A,102.1725,38.5339,金昌市,新川苑,颗粒物(PM10),83,115,39,16,7,146,118,140,135,14,10,7,8,0.4,0.5
2023-08-22T21:00:00,1944A,102.1692,38.5167,金昌市,天庆家园,颗粒物(PM10),81,112,36,17,9,148,128,143,139,8,14,10,13,0.2,0.4
2023-08-22T21:00:00,1945A,98.2908,39.7711,嘉峪关市,气象局,,44,44,48,12,13,132,118,127,125,15,21,4,14,0.4,0.5
2023-08-22T21:00:00,1947A,106.3394,38.817,石嘴山市,沙湖旅游区,颗粒物(PM10),54,57,65,16,22,148,84,134,126,25,24,6,27,0.6,1.4
2023-08-22T21:00:00,1948A,106.3668,39.0145,石嘴山市,大武口朝阳西街,颗粒物(PM10),52,54,62,15,19,149,105,138,135,36,30,4,21,0.3,0.6
2023-08-22T21:00:00,1949A,106.7704,39.2282,石嘴山市,惠农南大街,颗粒物(PM10),61,72,50,16,14,151,71,128,124,51,29,25,13,0.4,0.4
2023-08-22T21:00:00,1950A,106.7099,39.1325,石嘴山市,红果子镇惠新街,颗粒物(PM10),58,66,47,14,11,150,72,130,121,44,24,9,10,0.4,0.4
2023-08-22T21:00:00,1951A,84.895,45.6094,克拉玛依市,长征新村,,30,30,25,4,6,129,85,119,118,34,12,10,9,0.3,0.2
2023-08-22T21:00:00,1952A,84.8988,45.5893,克拉玛依市,南林小区,,50,50,26,11,8,124,16,110,101,81,21,11,8,0.8,0.2
2023-08-22T21:00:00,1954A,84.905,44.3396,克拉玛依市,独山子区,,35,33,22,18,11,140,111,127,127,13,13,10,9,0.4,0.4
2023-08-22T21:00:00,1955A,85.6979,46.098,克拉玛依市,乌尔禾区商贸楼,,38,38,18,0,6,109,73,102,98,21,12,7,8,0.5,0.4
2023-08-22T21:00:00,1956A,86.1472,41.7538,巴音郭楞州,孔雀公园,,,65,79,19,21,146,,132,132,23,22,7,8,0.4,0.4
2023-08-22T21:00:00,1957A,86.1972,41.7166,巴音郭楞州,棉纺厂,颗粒物(PM10),58,66,87,31,26,145,117,135,134,11,19,5,8,0.4,0.4
2023-08-22T21:00:00,1958A,86.2357,41.7173,巴音郭楞州,经济开发区,颗粒物(PM10),59,67,72,19,25,144,104,137,134,22,12,7,8,0.2,0.2
2023-08-22T21:00:00,1961A,117.532,36.6868,济南市,东山小学,,32,32,37,5,17,164,69,155,135,28,18,5,5,0.4,0.4
2023-08-22T21:00:00,1966A,120.0405,35.8735,青岛市,黄岛区4号,颗粒物(PM10),53,56,29,24,19,181,114,162,152,25,17,2,3,0.6,0.5
2023-08-22T21:00:00,1982A,122.0693,37.2174,威海市,文登开发区,,39,39,16,19,6,146,116,136,134,13,8,7,6,1.2,0.7
2023-08-22T21:00:00,2031A,113.1817,27.9958,株洲市,云田中学,,30,30,22,8,14,145,94,130,123,12,11,5,5,0.7,0.7
2023-08-22T21:00:00,2054A,114.1099,32.1059,信阳市,平桥分局,,48,48,17,24,13,149,96,143,130,12,9,2,1,1.0,1
2023-08-22T21:00:00,2064A,113.9956,32.1271,信阳市,南湾水厂,,47,47,31,20,13,150,86,142,128,10,5,2,2,0.9,0.8
2023-08-22T21:00:00,2065A,114.0775,32.1195,信阳市,市酿酒公司,颗粒物(PM10),51,51,24,24,15,149,91,142,125,18,15,3,2,0.5,0.6
2023-08-22T21:00:00,2066A,114.0609,32.1399,信阳市,审计局,,,40,19,28,18,155,,149,142,20,10,3,2,0.7,0.7
2023-08-22T21:00:00,2067A,114.6613,33.6128,周口市,市环境监测站,颗粒物(PM10),67,83,38,35,26,174,116,165,154,21,18,5,7,0.4,0.5
2023-08-22T21:00:00,2068A,114.6758,33.6347,周口市,周口师范,,39,21,21,24,24,164,122,159,150,11,7,2,3,0.6,0.6
2023-08-22T21:00:00,2069A,114.6546,33.5979,周口市,市运管处,颗粒物(PM10),58,66,41,39,22,173,92,165,148,36,21,5,5,0.7,0.6
2023-08-22T21:00:00,2070A,114.6369,33.6406,周口市,川汇区环保局,,46,46,35,22,16,162,120,154,145,11,10,3,3,0.8,0.8
2023-08-22T21:00:00,2075A,117.6336,24.4674,漳州市,九湖,,,,,,,,,,,,,,,,
2023-08-22T21:00:00,2160A,112.85,35.5051,晋城市,自来水公司,,42,40,70,12,27,220,132,203,191,11,23,8,16,0.9,2.1
2023-08-22T21:00:00,2161A,112.8318,35.4936,晋城市,白云商贸,,40,40,76,7,22,205,121,196,182,22,30,8,15,0.9,1.7
2023-08-22T21:00:00,2162A,112.8508,35.4887,晋城市,市环保局,颗粒物(PM10),53,56,79,14,29,210,128,194,183,19,34,9,16,0.9,2
2023-08-22T21:00:00,2163A,112.8676,35.4897,晋城市,技术学院,,43,43,59,12,26,218,132,195,184,16,32,8,15,0.8,1.7
2023-08-22T21:00:00,2165A,112.8453,35.546,晋城市,白马寺,,,,,,,,,,,,,,,,
2023-08-22T21:00:00,2166A,112.4397,39.3522,朔州市,平朔,颗粒物(PM10),58,66,58,8,13,124,114,114,114,12,28,5,12,0.3,0.4
2023-08-22T21:00:00,2167A,112.4575,39.3617,朔州市,朔唯,颗粒物(PM10),91,131,69,15,15,128,118,120,120,13,30,5,14,0.4,0.5
2023-08-22T21:00:00,2168A,112.4258,39.3197,朔州市,区政府,,,62,52,8,11,125,,117,117,16,24,4,9,0.4,0.5
2023-08-22T21:00:00,2169A,112.4072,39.3278,朔州市,市环保局,颗粒物(PM10),59,67,52,11,12,132,124,126,126,16,22,7,12,0.3,0.4
2023-08-22T21:00:00,2170A,112.4272,39.3681,朔州市,市二中,颗粒物(PM10),74,97,77,16,19,130,113,116,116,15,31,7,14,0.5,0.6
2023-08-22T21:00:00,2171A,112.7532,37.6945,晋中市,锦纶小区,颗粒物(PM10),107,163,48,18,11,167,141,151,144,18,26,9,11,0.3,0.4
2023-08-22T21:00:00,2173A,112.7249,37.7067,晋中市,南都小区,颗粒物(PM10),107,163,52,25,15,165,135,146,140,16,27,6,8,0.3,0.4
2023-08-22T21:00:00,2174A,112.6991,37.6982,晋中市,榆次区政府,颗粒物(PM10),67,84,46,20,16,165,135,143,135,17,27,7,9,0.3,0.4
2023-08-22T21:00:00,2175A,110.9956,35.0147,运城市,运城中学,,,52,40,20,19,165,100,153,142,,14,5,3,0.5,0.5
2023-08-22T21:00:00,2178A,110.9686,35.0303,运城市,地区技校,颗粒物(PM10),54,58,51,20,21,152,97,144,132,23,23,6,4,0.7,0.8
2023-08-22T21:00:00,2179A,111.0414,35.1147,运城市,空港新区,颗粒物(PM10),56,61,62,23,25,206,66,173,140,48,26,9,5,0.9,1.1
2023-08-22T21:00:00,2181A,112.7383,38.4519,忻州市,开发区,,41,34,48,6,16,130,130,120,120,8,26,6,12,0.5,0.5
2023-08-22T21:00:00,2182A,112.7003,38.4928,忻州市,会展中心,,35,32,46,2,16,125,112,111,111,8,25,7,10,0.6,0.6
2023-08-22T21:00:00,2183A,111.1406,37.5211,吕梁市,环保局,颗粒物(PM10),74,98,71,30,18,156,46,134,116,68,37,4,3,0.7,0.4
2023-08-22T21:00:00,2185A,111.1297,37.5136,吕梁市,自来水公司,颗粒物(PM10),67,84,83,26,20,156,67,138,123,50,30,4,6,0.8,0.5
2023-08-22T21:00:00,2187A,106.8174,39.6973,乌海市,市林业局,颗粒物(PM10),60,69,54,24,13,129,116,126,123,13,13,10,18,0.6,0.7
2023-08-22T21:00:00,2188A,106.7907,39.6667,乌海市,中海勃湾学校,颗粒物(PM10),58,65,45,16,15,132,113,128,126,17,18,8,19,0.3,0.5
2023-08-22T21:00:00,2191A,122.2532,43.6801,通辽市,艺术职业学校,,35,35,17,7,5,102,43,90,58,27,12,7,5,0.3,0.2
2023-08-22T21:00:00,2192A,119.7594,49.2261,呼伦贝尔市,区环保局,,,,,,,,,,,,,,,,
2023-08-22T21:00:00,2195A,107.4212,40.761,巴彦淖尔市,附二中,颗粒物(PM10),78,105,57,19,14,120,64,109,97,16,14,6,16,0.4,0.4
2023-08-22T21:00:00,2196A,107.37,40.7372,巴彦淖尔市,市环保大楼,,40,40,46,11,13,121,76,111,102,14,9,4,4,0.4,0.4
2023-08-22T21:00:00,2197A,113.1306,40.9923,乌兰察布市,集宁新区,,38,24,24,14,9,127,119,120,120,6,11,10,13,0.1,0.2
2023-08-22T21:00:00,2200A,122.0392,46.0656,兴安盟,胜华新制药厂,,32,32,16,18,9,95,28,84,48,17,8,3,2,0.4,0.3
2023-08-22T21:00:00,2201A,121.9504,46.0741,兴安盟,科右前旗环保局,,35,19,16,24,13,95,49,85,55,8,5,1,2,0.4,0.4
2023-08-22T21:00:00,2202A,116.1042,43.9317,锡林郭勒盟,市环保监测站,,20,15,17,8,5,85,63,80,76,4,7,9,9,0.2,0.2
2023-08-22T21:00:00,2203A,116.0781,43.9311,锡林郭勒盟,市政府,,21,18,17,2,3,89,67,84,80,11,11,11,11,0.3,0.2
2023-08-22T21:00:00,2204A,105.6467,38.8363,阿拉善盟,西城区西花园,,40,40,37,14,13,142,103,137,131,14,9,6,6,0.4,0.4
2023-08-22T21:00:00,2205A,105.6985,38.8411,阿拉善盟,蒙二幼,,36,34,30,9,9,139,114,136,131,7,6,5,5,0.4,0.4
2023-08-22T21:00:00,2206A,105.724,38.8516,阿拉善盟,环保局新楼,颗粒物(PM10),56,62,29,8,8,134,118,132,129,6,6,7,7,0.5,0.5
2023-08-22T21:00:00,2207A,121.6094,41.998,阜新市,工业园区,颗粒物(PM10),53,55,32,11,10,81,11,77,62,49,15,9,7,0.7,0.7
2023-08-22T21:00:00,2208A,121.6697,42.0279,阜新市,长青街,,26,26,21,16,13,80,17,74,64,38,12,4,6,0.6,0.5
2023-08-22T21:00:00,2209A,121.6673,42.0705,阜新市,农业园区,,18,0,15,2,10,76,57,68,64,8,8,5,6,0.4,0.5
2023-08-22T21:00:00,2210A,121.6717,42.0224,阜新市,东苑,颗粒物(PM10),54,57,20,12,16,81,6,75,63,45,10,5,6,0.5,0.4
2023-08-22T21:00:00,2211A,121.6506,42.0498,阜新市,玉龙新城,颗粒物(PM10),52,53,25,15,10,67,5,59,45,33,14,4,4,0.6,0.6
2023-08-22T21:00:00,2212A,123.2,41.1953,辽阳市,宏伟区,,28,28,28,16,13,119,52,109,100,30,11,5,5,0.6,0.7
2023-08-22T21:00:00,2213A,123.1683,41.2495,辽阳市,新华园,,18,15,31,8,14,109,56,101,93,20,15,5,6,0.4,0.8
2023-08-22T21:00:00,2214A,123.2354,41.2639,辽阳市,滨河路,,22,22,25,15,12,111,45,102,94,28,14,17,8,0.7,0.8
2023-08-22T21:00:00,2215A,123.149,41.2991,辽阳市,铁西工业园,,32,32,35,17,17,118,9,106,84,56,18,5,6,0.6,1.1
2023-08-22T21:00:00,2216A,123.8139,42.3022,铁岭市,汇工街西,,24,12,19,9,12,118,28,106,80,20,11,72,11,0.4,0.5
2023-08-22T21:00:00,2217A,123.8649,42.2923,铁岭市,水上乐园,,18,18,24,7,11,108,37,97,82,25,16,2,3,0.5,0.7
2023-08-22T21:00:00,2218A,123.8486,42.2867,铁岭市,银州路东段,,26,24,23,18,9,108,29,94,74,36,19,7,6,0.5,0.6
2023-08-22T21:00:00,2219A,123.7153,42.2217,铁岭市,金沙江路北,,23,21,21,3,11,108,3,95,71,45,13,5,4,0.7,0.8
2023-08-22T21:00:00,2220A,120.4318,41.5881,朝阳市,西梁,,,74,27,20,6,97,10,86,68,52,15,20,12,,0.5
2023-08-22T21:00:00,2221A,120.4521,41.5646,朝阳市,河畔小区,,19,14,22,2,2,86,60,83,77,12,11,8,9,0.4,0.5
2023-08-22T21:00:00,2222A,120.4176,41.5648,朝阳市,八里堡,颗粒物(PM10),54,58,26,14,6,91,12,87,72,61,17,6,7,0.8,0.6
2023-08-22T21:00:00,2223A,120.3806,41.5969,朝阳市,农业园区,,,17,17,3,5,83,,79,68,47,13,4,4,,0.6
2023-08-22T21:00:00,2225A,124.4002,43.1713,四平市,一商场,,50,50,18,25,15,100,32,91,71,42,12,7,6,0.5,0.3
2023-08-22T21:00:00,2226A,124.388,43.193,四平市,境园,,35,35,18,16,11,99,24,90,70,30,7,5,5,0.8,0.3
2023-08-22T21:00:00,2227A,125.1358,42.8845,辽源市,环保局,,32,32,14,17,9,121,56,110,96,14,6,11,8,0.6,0.5
2023-08-22T21:00:00,2229A,125.9358,41.7173,通化市,光明,,30,30,11,13,5,99,9,81,45,15,15,8,7,0.6,0.4
2023-08-22T21:00:00,2230A,125.9446,41.7325,通化市,铁路,,12,12,7,1,2,100,9,86,36,16,16,6,6,0.7,0.6
2023-08-22T21:00:00,2231A,126.4219,41.9171,白山市,喜丰,,24,24,18,8,6,90,10,90,52,18,16,6,7,0.7,0.7
2023-08-22T21:00:00,2232A,126.4077,41.9419,白山市,环保局,,32,32,18,14,5,108,21,108,61,16,12,7,6,0.7,0.7
2023-08-22T21:00:00,2233A,124.8006,45.1214,松原市,江南,,16,16,16,8,7,92,43,92,63,13,7,6,6,0.4,0.4
2023-08-22T21:00:00,2234A,124.7965,45.1722,松原市,江北,,18,13,10,9,7,96,55,96,68,10,6,4,3,0.3,0.4
2023-08-22T21:00:00,2235A,122.7911,45.6077,白城市,洮北区环保局,,16,10,9,3,5,89,49,88,62,7,7,10,6,0.1,0.1
2023-08-22T21:00:00,2236A,122.8738,45.5725,白城市,市环保局,,18,18,16,1,3,88,53,82,67,10,5,7,7,0.2,0.2
2023-08-22T21:00:00,2237A,129.47,42.8883,延边朝鲜族自治州,妇幼医院,,12,12,15,4,8,64,14,52,41,9,11,8,8,0.6,0.6
2023-08-22T21:00:00,2238A,129.5055,42.9108,延边朝鲜族自治州,延边医院,,26,23,15,18,14,72,25,59,50,23,17,7,7,0.8,0.7
2023-08-22T21:00:00,2239A,129.3964,42.8881,延边朝鲜族自治州,朝阳川镇医院,,28,28,14,9,5,67,12,61,43,14,9,7,7,0.7,0.6
2023-08-22T21:00:00,2240A,130.9762,45.3001,鸡西市,环保局,,50,50,16,18,7,66,1,59,38,41,12,6,5,0.9,0.4
2023-08-22T21:00:00,2243A,130.9429,45.3039,鸡西市,第一中学,,,,,,,,,,,,,,,,
2023-08-22T21:00:00,2244A,130.2537,47.3416,鹤岗市,哈啤分公司,,28,23,12,19,8,101,50,88,71,10,8,12,12,0.4,0.3
2023-08-22T21:00:00,2245A,130.2684,47.3086,鹤岗市,斯达机电,,20,20,11,12,6,89,56,83,68,12,10,10,8,0.4,0.4
2023-08-22T21:00:00,2246A,130.3114,47.3388,鹤岗市,东山纸板厂,,22,12,12,15,8,96,34,83,66,18,10,12,13,0.5,0.4
2023-08-22T21:00:00,2247A,130.1097,47.3382,鹤岗市,五号水库,,19,12,9,13,8,161,34,98,69,4,4,11,12,0.2,0.2
2023-08-22T21:00:00,2248A,131.1511,46.6937,双鸭山市,双合村,,32,32,18,6,7,90,38,86,67,13,6,6,7,0.2,0.2
2023-08-22T21:00:00,2249A,131.1652,46.6191,双鸭山市,南小市,,19,19,14,13,6,100,30,88,66,15,10,6,6,0.4,0.3
2023-08-22T21:00:00,2250A,131.1524,46.6554,双鸭山市,环保局,,32,32,12,17,7,76,31,66,53,14,10,10,9,0.5,0.4
2023-08-22T21:00:00,2251A,131.12,46.5656,双鸭山市,苗圃,,12,7,10,6,7,103,37,91,68,4,3,2,2,0.4,0.4
2023-08-22T21:00:00,2252A,128.5159,47.4311,伊春市,环保局,,27,20,15,14,10,105,86,97,94,6,7,5,6,0.3,0.3
2023-08-22T21:00:00,2253A,128.9102,47.7412,伊春市,电力嘉园,,29,29,11,13,9,150,49,122,86,15,8,5,5,0.6,0.6
2023-08-22T21:00:00,2254A,129.5029,48.471,伊春市,汤旺河国家公园,,30,30,28,20,14,94,12,82,64,1,1,16,14,1.2,1
2023-08-22T21:00:00,2255A,130.2751,46.8028,佳木斯市,佳纺,,22,22,14,12,8,101,58,97,86,16,4,4,5,0.5,0.5
2023-08-22T21:00:00,2256A,130.3995,46.8307,佳木斯市,发电厂,,25,24,12,13,9,105,80,98,92,11,5,4,5,0.5,0.4
2023-08-22T21:00:00,2257A,130.3258,46.7975,佳木斯市,环保局,,26,26,16,13,8,100,82,94,88,6,5,4,4,0.4,0.5
2023-08-22T21:00:00,2258A,130.3648,46.8032,佳木斯市,十一中,,34,34,18,18,8,97,64,92,80,21,10,6,5,0.6,0.5
2023-08-22T21:00:00,2259A,130.3794,46.7588,佳木斯市,四丰,,29,18,11,11,6,123,90,118,108,4,4,1,1,0.4,0.4
2023-08-22T21:00:00,2262A,131.0518,45.8751,七台河市,新一中,,25,25,15,16,8,108,24,88,68,8,6,7,7,0.9,0.8
2023-08-22T21:00:00,2263A,127.4833,50.2524,黑河市,交通局,,19,5,7,6,7,101,58,95,62,9,11,2,3,0.5,0.5
2023-08-22T21:00:00,2264A,127.5144,50.2341,黑河市,环保局,,18,15,12,7,8,103,57,97,64,11,9,3,3,0.3,0.4
2023-08-22T21:00:00,2265A,127.5291,50.2472,黑河市,大黑河岛,,22,16,8,8,9,125,69,117,76,2,2,1,2,0.3,0.3
2023-08-22T21:00:00,2266A,126.9785,46.6365,绥化市,人和东街,,20,20,13,8,6,104,64,98,79,11,6,4,3,0.3,0.3
2023-08-22T21:00:00,2267A,126.964,46.6528,绥化市,党政办公中心,,,13,12,5,7,103,,98,79,10,6,4,8,0.3,0.3
2023-08-22T21:00:00,2269A,124.1069,50.4097,大兴安岭地区,科技局,,23,12,15,7,11,96,71,93,70,2,4,2,3,0.4,0.3
2023-08-22T21:00:00,2270A,117.396,32.939,蚌埠市,工人疗养院,颗粒物(PM10),54,58,34,28,18,160,111,148,144,21,8,4,4,0.5,0.4
2023-08-22T21:00:00,2271A,117.3605,32.9427,蚌埠市,百货大楼,颗粒物(PM10),55,60,42,24,18,165,134,155,154,12,8,5,6,0.5,0.4
2023-08-22T21:00:00,2273A,117.4185,32.8911,蚌埠市,蚌埠学院,颗粒物(PM10),56,61,33,34,22,158,100,148,143,32,9,9,6,0.6,0.5
2023-08-22T21:00:00,2274A,117.3533,32.9673,蚌埠市,淮上区政府,颗粒物(PM10),56,61,38,33,24,159,124,147,145,16,11,5,8,0.5,0.5
2023-08-22T21:00:00,2275A,117.3145,32.8977,蚌埠市,高新区,,48,48,37,21,20,168,129,158,156,18,12,5,6,0.4,0.4
2023-08-22T21:00:00,2277A,116.8305,32.7727,淮南市,潘集区政府,颗粒物(PM10),57,63,32,35,20,160,112,146,142,16,10,20,7,0.3,0.3
2023-08-22T21:00:00,2278A,117.0067,32.6524,淮南市,师范学院,细颗粒物(PM2.5),75,96,38,55,21,150,99,144,137,26,10,7,8,0.5,0.4
2023-08-22T21:00:00,2279A,116.8569,32.5951,淮南市,谢家集区政府,,,,18,,8,165,119,156,152,18,11,7,7,,0.3
2023-08-22T21:00:00,2280A,116.8281,32.633,淮南市,八公山区政府,,48,48,35,28,27,161,125,151,149,10,7,5,5,0.3,0.3
2023-08-22T21:00:00,2281A,116.6325,32.6201,淮南市,焦岗湖风景区管理处,,39,39,24,26,13,136,87,122,119,23,9,4,3,0.3,0.3
2023-08-22T21:00:00,2282A,116.8004,33.975,淮北市,监测站,颗粒物(PM10),57,63,33,27,21,164,146,153,153,10,8,5,4,0.7,0.7
2023-08-22T21:00:00,2283A,116.8091,33.9007,淮北市,烈山区政府,颗粒物(PM10),63,76,48,28,25,192,142,174,172,14,10,5,7,0.5,0.6
2023-08-22T21:00:00,2285A,117.8177,30.9412,铜陵市,市第四中学,,33,33,27,15,17,110,66,94,93,17,14,7,8,0.5,0.5
2023-08-22T21:00:00,2286A,117.8059,30.9273,铜陵市,市公路局,,33,26,29,23,21,117,71,98,98,17,14,6,6,0.6,0.8
2023-08-22T21:00:00,2287A,117.7807,30.9413,铜陵市,市新民污水厂,,33,33,34,16,16,120,70,106,104,18,16,6,10,0.7,0.5
2023-08-22T21:00:00,2288A,117.7439,30.8792,铜陵市,市第九中学,,40,40,35,19,16,108,71,93,93,18,17,3,3,0.7,0.6
2023-08-22T21:00:00,2289A,117.846,30.9413,铜陵市,车站新区,,31,31,29,18,20,120,57,96,96,26,14,4,4,0.5,0.6
2023-08-22T21:00:00,2290A,117.8483,30.97,铜陵市,市职教基地,,31,31,24,13,13,113,88,98,98,9,13,4,4,1.0,1.1
2023-08-22T21:00:00,2291A,117.0809,30.5177,安庆市,环科院,,31,31,16,18,12,134,99,114,114,21,15,6,5,0.8,0.7
2023-08-22T21:00:00,2292A,117.0331,30.5119,安庆市,马山宾馆,,33,30,16,23,14,133,99,118,118,20,14,4,4,1.0,0.8
2023-08-22T21:00:00,2294A,116.9896,30.6145,安庆市,安庆大学,,32,26,22,19,16,130,102,115,115,10,14,4,4,0.6,0.6
2023-08-22T21:00:00,2295A,118.2903,29.6963,黄山市,延安路89号,,17,17,23,4,4,100,28,74,65,6,4,6,6,0.5,0.4
2023-08-22T21:00:00,2296A,118.327,29.7178,黄山市,黄山东路89号,,16,16,11,4,6,107,32,77,62,11,5,6,6,0.6,0.5
2023-08-22T21:00:00,2297A,118.1371,30.2756,黄山市,黄山区政府5号楼,,19,14,14,2,4,113,58,71,70,8,5,6,6,0.3,0.3
2023-08-22T21:00:00,2298A,118.3093,32.3153,滁州市,老年大学,,39,35,22,27,13,150,112,131,131,18,8,10,9,0.4,0.4
2023-08-22T21:00:00,2299A,118.3244,32.2786,滁州市,人大宾馆,,46,38,16,32,15,150,98,131,131,21,8,12,6,0.6,0.4
2023-08-22T21:00:00,2301A,115.8277,32.8929,阜阳市,市监测站,,36,36,19,18,9,154,101,144,138,24,11,7,10,0.5,0.5
2023-08-22T21:00:00,2303A,115.8554,32.8605,阜阳市,开发区,"颗粒物(PM10),细颗粒物(PM2.5)",57,64,23,40,25,155,92,143,136,27,12,7,11,0.5,0.4
2023-08-22T21:00:00,2307A,116.5079,31.737,六安市,监测大楼,,40,24,20,16,8,141,126,133,133,6,4,4,4,0.4,0.4
2023-08-22T21:00:00,2308A,116.4738,31.7643,六安市,皖西学院,,35,33,26,16,8,139,111,130,128,10,5,6,5,0.4,0.5
2023-08-22T21:00:00,2309A,116.4996,31.7905,六安市,朝阳厂,,32,32,15,18,12,144,102,135,130,19,5,7,7,0.5,0.5
2023-08-22T21:00:00,2310A,116.5567,31.7886,六安市,开发区,颗粒物(PM10),60,70,28,21,15,134,61,123,114,36,10,6,6,0.6,0.6
2023-08-22T21:00:00,2311A,115.8072,33.8399,亳州市,污水处理厂,颗粒物(PM10),56,61,33,25,16,156,79,146,132,22,8,8,6,0.6,0.5
2023-08-22T21:00:00,2312A,115.7789,33.8518,亳州市,三国揽胜宫,颗粒物(PM10),53,55,31,23,14,147,121,144,141,13,9,7,7,0.4,0.6
2023-08-22T21:00:00,2314A,117.47,30.6618,池州市,池州学院,,32,26,17,21,13,129,102,114,114,8,5,6,4,0.6,0.6
2023-08-22T21:00:00,2316A,118.7581,30.9454,宣城市,鳌峰子站,,21,10,16,5,9,89,67,84,79,15,12,4,4,0.6,0.5
2023-08-22T21:00:00,2317A,118.7385,30.9743,宣城市,敬亭山子站,,18,13,18,4,10,76,56,76,62,9,13,6,7,0.7,0.5
2023-08-22T21:00:00,2318A,118.7173,30.9427,宣城市,开发区子站,,15,12,15,6,10,94,45,82,78,21,12,4,6,0.6,0.4
2023-08-22T21:00:00,2319A,119.0141,25.4325,莆田市,荔城区仓后路,,,,,,,,,,,,,,,,
2023-08-22T21:00:00,2320A,119.0015,25.4553,莆田市,莆田市监测站,,,,31,0,12,144,85,109,109,3,7,6,8,0.5,0.6
2023-08-22T21:00:00,2321A,119.1119,25.4561,莆田市,涵江区六中,,26,6,32,0,16,133,81,111,105,8,13,8,8,0.6,0.6
2023-08-22T21:00:00,2322A,119.1013,25.3215,莆田市,秀屿区政府,,,0,33,0,18,118,78,93,90,6,16,,12,,0.7
2023-08-22T21:00:00,2323A,118.981,25.4792,莆田市,东圳水库,,,,,,,,,,,,,,,,
2023-08-22T21:00:00,2324A,117.6211,26.2625,三明市,三钢,,19,19,24,11,13,84,29,51,41,19,19,8,21,0.3,0.6
2023-08-22T21:00:00,2325A,117.635,26.2714,三明市,三明二中,,18,18,25,10,11,92,36,56,47,14,18,3,13,0.4,0.6
2023-08-22T21:00:00,2326A,117.6028,26.2378,三明市,三元区政府,,19,19,24,13,11,92,27,55,44,21,19,7,25,0.7,0.7
2023-08-22T21:00:00,2327A,117.7275,26.3108,三明市,洋溪,,,,,,,,,,,,,,,,
2023-08-22T21:00:00,2331A,118.0966,26.6761,南平市,茫荡山,,,,,,,,,,,,,,,,
2023-08-22T21:00:00,2332A,118.1681,26.6369,南平市,南平市监测站,,15,9,15,3,6,90,48,76,69,6,7,5,5,0.5,0.5
2023-08-22T21:00:00,2333A,118.1825,26.6489,南平市,南平铝业有限公司,,17,10,17,2,6,90,52,74,69,10,8,9,4,0.6,0.5
2023-08-22T21:00:00,2334A,118.1756,26.6272,南平市,南平七中,,15,7,16,4,5,94,47,77,70,5,6,4,4,0.5,0.5
2023-08-22T21:00:00,2335A,117.0189,25.1181,龙岩市,龙岩师专,,,,,,,,,,,,,,,,
2023-08-22T21:00:00,2336A,117.0217,25.1033,龙岩市,龙岩市监测站,,13,1,20,6,10,73,40,63,55,13,14,2,4,0.4,0.4
2023-08-22T21:00:00,2337A,117.0258,25.0661,龙岩市,闽西职业技术学院,,14,6,22,4,9,72,42,62,56,9,12,2,6,0.4,0.4
2023-08-22T21:00:00,2338A,117.0196,25.0306,龙岩市,龙岩学院,,10,9,16,3,8,68,31,62,54,6,6,3,4,0.2,0.2
2023-08-22T21:00:00,2339A,119.5001,26.6946,宁德市,金涵水库,,,,,,,,,,,,,,,,
2023-08-22T21:00:00,2341A,119.5388,26.6612,宁德市,宁德市监测站,,,9,19,7,8,122,57,90,76,,10,3,3,,0.5
2023-08-22T21:00:00,2342A,117.3102,29.3867,景德镇市,王港中学,,16,11,11,11,7,76,11,62,43,3,4,2,3,0.6,0.6
2023-08-22T21:00:00,2343A,117.2117,29.2933,景德镇市,老干部活动中心,,23,14,24,16,19,74,40,63,57,12,16,4,5,0.5,0.5
2023-08-22T21:00:00,2344A,117.1894,29.2789,景德镇市,兽医站,,33,10,21,23,20,74,38,69,58,11,20,7,8,0.5,0.6
2023-08-22T21:00:00,2345A,117.1547,29.2617,景德镇市,台达陶瓷,,23,2,19,16,16,77,45,74,61,9,20,10,26,0.3,0.3
2023-08-22T21:00:00,2346A,117.2461,29.2956,景德镇市,陶研所,,32,32,30,7,10,82,30,64,56,6,5,6,6,0.4,0.4
2023-08-22T21:00:00,2347A,114.0997,27.5002,萍乡市,武功山,,16,7,5,10,6,95,49,81,78,4,4,12,13,0.8,0.6
2023-08-22T21:00:00,2348A,113.8385,27.6434,萍乡市,中医院,,33,27,26,23,22,117,74,106,104,17,13,10,14,0.7,0.9
2023-08-22T21:00:00,2349A,113.8493,27.6253,萍乡市,市政府车库,,25,23,17,14,16,127,77,112,111,13,12,7,13,0.4,0.4
2023-08-22T21:00:00,2350A,113.8676,27.6435,萍乡市,市环保局,,25,25,28,14,18,97,64,86,85,16,14,6,14,0.5,0.5
2023-08-22T21:00:00,2351A,113.866,27.6198,萍乡市,安源区政府,,38,38,20,15,13,123,69,110,108,15,9,10,9,0.5,0.6
2023-08-22T21:00:00,2352A,115.0861,27.9317,新余市,北岗,,16,8,14,8,9,87,51,67,67,9,6,7,8,0.7,0.6
2023-08-22T21:00:00,2353A,114.9886,27.8431,新余市,飞宇,,32,32,30,14,15,85,43,69,68,9,10,3,4,0.5,0.5
2023-08-22T21:00:00,2354A,114.9231,27.8246,新余市,第二水厂,,38,38,28,14,11,98,50,78,76,9,10,8,9,0.4,0.4
2023-08-22T21:00:00,2355A,114.9308,27.8036,新余市,市气象局,,26,26,36,18,21,91,52,72,72,4,13,6,11,0.8,1.6
2023-08-22T21:00:00,2357A,116.9822,28.1136,鹰潭市,龙虎山,,,,13,,10,81,66,68,63,,2,,3,0.2,0.1
2023-08-22T21:00:00,2358A,117.0564,28.2642,鹰潭市,新监测站,,21,14,21,4,9,86,65,70,69,9,7,2,3,0.4,0.4
2023-08-22T21:00:00,2359A,117.0311,28.2475,鹰潭市,财苑宾馆,,20,19,22,2,6,82,64,71,70,9,5,1,2,0.4,0.3
2023-08-22T21:00:00,2360A,117.0222,28.2264,鹰潭市,体育馆,,20,14,26,2,8,79,63,69,69,11,6,1,2,0.6,0.6
2023-08-22T21:00:00,2361A,117.0017,28.2131,鹰潭市,三川水表,,23,22,26,16,12,77,67,70,70,5,6,1,1,0.6,0.5
2023-08-22T21:00:00,2362A,114.9017,25.9149,赣州市,通天岩,,,,,,,,,,,,,,,,
2023-08-22T21:00:00,2363A,114.9367,25.8664,赣州市,地委,,27,27,24,11,16,87,40,75,61,13,9,8,7,1.1,1.1
2023-08-22T21:00:00,2364A,114.9461,25.8481,赣州市,气象台,,26,16,18,18,13,95,36,82,67,25,13,7,6,0.7,0.6
2023-08-22T21:00:00,2365A,114.9322,25.8333,赣州市,市图书馆,,29,29,24,10,13,87,35,74,61,23,13,5,6,1.0,1
2023-08-22T21:00:00,2366A,114.8905,25.8471,赣州市,华坚鞋城,,,24,29,9,13,48,,42,33,16,11,6,10,0.5,0.5
2023-08-22T21:00:00,2367A,114.9754,27.0803,吉安市,红声器材厂,,16,16,22,11,11,84,34,67,53,11,8,12,16,0.6,0.6
2023-08-22T21:00:00,2368A,114.9658,27.0999,吉安市,市森林工业局,,24,24,20,16,12,82,34,68,54,7,6,6,6,0.7,0.7
2023-08-22T21:00:00,2369A,114.99,27.1312,吉安市,市环境监测站,,22,22,22,8,8,79,31,66,45,10,7,6,7,0.7,0.7
2023-08-22T21:00:00,2370A,115.0093,27.0968,吉安市,青原区法院,,20,20,19,14,11,85,42,72,58,9,10,14,14,0.5,0.5
2023-08-22T21:00:00,2371A,114.3408,27.8064,宜春市,槟榔水业,,23,22,27,16,18,125,46,82,64,18,15,2,2,0.4,0.6
2023-08-22T21:00:00,2373A,114.3956,27.7844,宜春市,市石油公司,,32,32,27,18,14,112,50,98,91,25,10,5,4,0.8,0.9
2023-08-22T21:00:00,2374A,114.3703,27.7914,宜春市,市气象局,,32,32,28,21,19,111,72,100,96,10,10,4,4,0.9,1
2023-08-22T21:00:00,2375A,114.4013,27.8074,宜春市,市广电局,,35,35,26,18,15,110,65,100,96,22,10,6,6,0.9,0.9
2023-08-22T21:00:00,2376A,116.2127,28.0814,抚州市,桐源党溪,,31,31,23,21,11,101,95,95,81,2,3,3,2,0.9,0.9
2023-08-22T21:00:00,2377A,116.3544,27.9831,抚州市,市站,,23,20,22,16,11,76,68,68,68,5,4,6,7,0.8,0.8
2023-08-22T21:00:00,2378A,116.3565,27.963,抚州市,血防站,,32,32,31,13,10,73,63,68,68,3,3,5,5,1.0,1
2023-08-22T21:00:00,2379A,116.3564,28.0007,抚州市,采茶剧团,,23,23,21,13,11,76,68,67,67,4,4,5,5,0.7,0.6
2023-08-22T21:00:00,2380A,116.385,27.9647,抚州市,医学分院,,30,30,22,12,11,71,61,66,66,7,7,5,5,0.8,0.8
2023-08-22T21:00:00,2381A,118.005,28.4572,上饶市,百草园,,19,19,20,5,8,67,40,54,50,14,9,6,3,0.8,0.7
2023-08-22T21:00:00,2382A,117.9756,28.4436,上饶市,市监测站,,20,20,22,11,11,89,45,72,66,13,9,7,7,0.6,0.5
2023-08-22T21:00:00,2383A,117.9519,28.4628,上饶市,凤凰光学,,,64,24,24,20,79,,79,62,,12,,12,,0
2023-08-22T21:00:00,2385A,114.17,35.9019,鹤壁市,市监测站,,,118,62,65,38,235,,209,204,,19,,7,,0.9
2023-08-22T21:00:00,2386A,114.2956,35.7511,鹤壁市,市交警支队,颗粒物(PM10),67,83,59,39,31,204,118,188,168,26,21,3,10,1.1,1
2023-08-22T21:00:00,2387A,114.2878,35.7306,鹤壁市,迎宾馆,颗粒物(PM10),69,88,51,33,27,216,120,193,175,32,19,7,10,1.1,1.1
2023-08-22T21:00:00,2389A,113.836,35.311,新乡市,环保西院,颗粒物(PM10),62,74,51,36,26,185,144,173,168,12,15,6,10,0.9,0.9
2023-08-22T21:00:00,2390A,113.884,35.272,新乡市,开发区,颗粒物(PM10),51,52,36,34,24,183,147,178,172,10,14,4,6,1.0,0.9
2023-08-22T21:00:00,2391A,113.883,35.303,新乡市,环保东院,颗粒物(PM10),60,70,49,30,22,178,154,171,169,11,14,3,7,0.9,0.8
2023-08-22T21:00:00,2392A,115.0312,35.7636,濮阳市,环保局,颗粒物(PM10),57,64,51,28,33,186,108,168,150,19,17,5,6,0.7,0.9
2023-08-22T21:00:00,2394A,115.0574,35.7609,濮阳市,油田运输公司,颗粒物(PM10),63,76,58,29,34,177,107,163,145,22,15,6,8,0.7,0.9
2023-08-22T21:00:00,2395A,115.0866,35.7754,濮阳市,油田物探公司,颗粒物(PM10),60,69,59,29,34,179,118,165,150,18,15,4,6,0.7,0.8
2023-08-22T21:00:00,2396A,113.8276,34.0159,许昌市,监测站,颗粒物(PM10),53,55,46,30,28,186,114,172,162,21,16,3,5,0.5,0.5
2023-08-22T21:00:00,2398A,113.7906,33.9953,许昌市,开发区,颗粒物(PM10),59,68,44,25,24,184,78,169,148,34,15,2,3,0.6,0.6
2023-08-22T21:00:00,2399A,114.051,33.5699,漯河市,三五一五工厂,,,,37,,23,177,93,169,155,20,10,6,12,0.7,0.6
2023-08-22T21:00:00,2400A,114.0055,33.5698,漯河市,漯河大学,颗粒物(PM10),51,52,40,29,28,201,134,179,170,16,12,8,10,0.6,0.5
2023-08-22T21:00:00,2401A,114.0138,33.5828,漯河市,市水利局,颗粒物(PM10),53,56,38,31,24,184,120,168,159,17,11,7,9,0.9,0.8
2023-08-22T21:00:00,2402A,114.0261,33.5698,漯河市,市广电局,颗粒物(PM10),52,54,37,31,24,194,129,171,171,18,11,6,8,0.6,0.6
2023-08-22T21:00:00,2404A,112.5224,33.0122,南阳市,瓦房庄,,43,43,31,21,16,160,121,145,141,19,23,7,6,0.8,0.7
2023-08-22T21:00:00,2405A,112.5003,32.9735,南阳市,汉画馆,,45,45,32,22,17,172,122,151,150,19,18,8,8,0.8,0.7
2023-08-22T21:00:00,2406A,112.5573,33.027,南阳市,气象站,,44,44,35,24,19,183,116,162,154,16,16,5,5,0.6,0.6
2023-08-22T21:00:00,2407A,112.5481,32.9689,南阳市,理工学院,颗粒物(PM10),52,53,33,22,14,174,108,156,150,30,24,9,9,0.6,0.5
2023-08-22T21:00:00,2408A,115.6702,34.4285,商丘市,环境监测站,颗粒物(PM10),68,86,43,30,22,144,94,141,131,25,9,8,7,0.6,0.5
2023-08-22T21:00:00,2409A,115.6458,34.4045,商丘市,粮食局,颗粒物(PM10),62,74,42,26,20,158,125,151,143,15,9,3,3,0.6,0.4
2023-08-22T21:00:00,2410A,115.6293,34.3948,商丘市,睢阳区环保局,颗粒物(PM10),67,84,46,26,20,162,108,156,146,23,13,6,6,0.6,0.4
2023-08-22T21:00:00,2420A,114.0189,32.9656,驻马店市,市一纸厂,,50,50,32,26,14,168,108,159,148,19,13,5,5,0.5,0.5
2023-08-22T21:00:00,2421A,114.0114,33.015,驻马店市,市彩印厂,颗粒物(PM10),51,51,35,29,16,172,133,164,160,13,10,8,9,0.5,0.5
2023-08-22T21:00:00,2422A,113.9976,32.9771,驻马店市,天方二分厂,,50,47,32,35,22,172,127,161,157,10,8,5,4,0.7,0.6
2023-08-22T21:00:00,2423A,115.0601,30.2313,黄石市,沈家营,,31,29,54,12,14,129,97,121,118,8,10,6,5,0.5,0.7
2023-08-22T21:00:00,2424A,115.0817,30.2006,黄石市,陈家湾,,32,32,43,19,16,130,78,122,115,3,4,5,6,0.6,0.7
2023-08-22T21:00:00,2426A,114.8988,30.2019,黄石市,铁山,,30,18,24,6,14,133,96,127,122,5,10,5,5,0.6,0.8
2023-08-22T21:00:00,2427A,115.0307,30.2092,黄石市,团城山,,34,29,40,15,11,136,106,130,127,8,8,6,5,0.4,0.5
2023-08-22T21:00:00,2428A,111.0419,32.395,十堰市,武当山,,31,31,21,11,9,134,96,116,115,7,5,10,9,0.6,0.6
2023-08-22T21:00:00,2429A,110.78,32.6494,十堰市,滨河新村,颗粒物(PM10),58,66,36,19,14,147,42,125,115,52,11,6,6,1.0,0.7
2023-08-22T21:00:00,2430A,110.7258,32.6389,十堰市,刘家沟,颗粒物(PM10),53,55,29,21,11,171,100,142,140,9,5,6,6,0.6,0.6
2023-08-22T21:00:00,2431A,110.8839,32.5714,十堰市,铁二处,颗粒物(PM10),58,66,32,17,10,158,88,143,131,4,5,5,5,0.5,0.6
2023-08-22T21:00:00,2432A,112.155,32.0197,襄阳市,襄城运动路,,49,49,39,26,12,176,108,160,153,21,20,6,18,0.7,0.7
2023-08-22T21:00:00,2433A,112.1392,32.0564,襄阳市,樊城新华路,,44,44,31,24,16,167,111,152,148,15,13,6,8,0.9,0.9
2023-08-22T21:00:00,2434A,112.1825,32.1142,襄阳市,高新管委会,颗粒物(PM10),53,55,34,20,20,165,100,150,144,19,17,8,15,0.8,0.8
2023-08-22T21:00:00,2435A,112.2106,32.0903,襄阳市,襄州航空路,,47,47,36,16,20,166,104,152,143,14,14,6,15,0.7,0.7
2023-08-22T21:00:00,2436A,114.8938,30.3994,鄂州市,市政府,,36,36,26,22,12,119,72,110,102,20,10,3,2,1.1,0.7
2023-08-22T21:00:00,2437A,114.8989,30.3714,鄂州市,赵家坝,,30,27,35,10,11,127,96,121,117,11,12,3,3,0.6,0.6
2023-08-22T21:00:00,2439A,112.2014,31.0481,荆门市,竹园小学,,45,37,35,31,20,169,127,157,156,20,12,12,10,0.7,0.6
2023-08-22T21:00:00,2440A,112.1969,30.9891,荆门市,掇刀,颗粒物(PM10),56,61,33,21,16,160,117,148,143,25,17,8,12,0.7,0.7
2023-08-22T21:00:00,2441A,112.2213,31.0386,荆门市,石化一小,,47,47,33,15,15,167,113,158,154,28,14,13,8,0.6,0.5
2023-08-22T21:00:00,2443A,113.9153,30.9285,孝感市,文化路,颗粒物(PM10),52,54,17,26,15,133,89,124,120,21,7,7,7,0.8,0.8
2023-08-22T21:00:00,2444A,113.942,30.9075,孝感市,东城区,,,,17,,12,135,,126,126,18,5,6,7,0.7,0.8
2023-08-22T21:00:00,2446A,114.9028,30.4742,黄冈市,职工中心,,35,35,27,2,22,128,84,122,115,7,3,8,9,0.6,0.7
2023-08-22T21:00:00,2447A,114.3175,29.8142,咸宁市,森林公园,,45,23,19,12,13,153,143,145,145,5,4,6,5,0.7,0.7
2023-08-22T21:00:00,2448A,114.3107,29.8454,咸宁市,市发改委,,35,26,25,7,13,170,109,156,152,9,4,6,6,0.6,0.5
2023-08-22T21:00:00,2449A,114.2936,29.8566,咸宁市,咸安区政府,,38,24,21,18,15,161,120,147,146,12,10,6,6,0.6,0.6
2023-08-22T21:00:00,2451A,113.3583,31.7275,随州市,市委党校,,36,36,26,17,18,128,93,126,110,18,9,93,12,1.1,0.8
2023-08-22T21:00:00,2452A,113.3833,31.6908,随州市,市林业局,,38,38,25,26,18,145,118,138,133,10,10,4,4,0.8,0.8
2023-08-22T21:00:00,2453A,113.3983,31.7308,随州市,市立交桥水厂,,46,46,28,28,19,136,81,126,117,30,14,8,7,0.7,0.8
2023-08-22T21:00:00,2454A,109.4978,30.2981,恩施土家族苗族自治州,湖北民院,,,,,,,,,,,,,,,,
2023-08-22T21:00:00,2455A,109.4707,30.2798,恩施土家族苗族自治州,州电力总公司,,42,38,31,29,18,123,68,111,105,20,13,8,8,0.8,0.8
2023-08-22T21:00:00,2456A,112.5003,26.9167,衡阳市,原169医院,,31,31,26,10,14,86,44,80,75,13,11,4,6,0.3,0.3
2023-08-22T21:00:00,2457A,112.6194,26.9258,衡阳市,衡阳化工总厂,,32,26,33,22,16,124,60,105,98,10,11,7,11,0.5,0.7
2023-08-22T21:00:00,2458A,112.6211,26.8956,衡阳市,珠晖区环保局,,,26,26,,,122,59,106,96,9,12,5,11,0.5,0.8
2023-08-22T21:00:00,2459A,112.6197,26.8733,衡阳市,市委党校,,28,28,29,12,15,119,62,105,99,10,11,6,11,0.6,0.8
2023-08-22T21:00:00,2460A,112.6006,26.8919,衡阳市,市监测站,,33,31,30,23,17,121,60,103,95,10,15,8,16,0.6,0.9
2023-08-22T21:00:00,2461A,112.5664,26.9056,衡阳市,真空机电公司,,32,32,33,15,21,119,52,107,97,15,16,12,18,0.9,1.2
2023-08-22T21:00:00,2462A,111.5239,27.3033,邵阳市,市水土所,,32,28,32,22,23,104,42,88,76,7,6,5,6,0.5,0.5
2023-08-22T21:00:00,2463A,111.4733,27.2317,邵阳市,市一中,,48,48,35,24,16,124,67,111,106,19,11,2,5,0.4,0.4
2023-08-22T21:00:00,2464A,111.5283,27.2442,邵阳市,市化工厂,,33,33,25,21,16,121,67,106,101,15,12,2,4,0.5,0.4
2023-08-22T21:00:00,2465A,111.4503,27.2537,邵阳市,市罐头厂,,27,27,32,9,18,107,69,94,92,9,10,4,8,0.5,0.5
2023-08-22T21:00:00,2466A,111.4328,27.2272,邵阳市,市环保局,,,43,31,21,17,111,,99,99,6,8,5,6,0.4,0.5
2023-08-22T21:00:00,2467A,112.4067,28.6428,益阳市,甘溪港,,37,37,21,6,6,103,78,95,93,6,4,4,4,0.6,0.6
