timepoint,stationcode,longitude,latitude,area,positionname,primarypollutant,aqi,pm10,pm10_24h,pm2_5,pm2_5_24h,o3,o3_24h,o3_8h,o3_8h_24h,no2,no2_24h,so2,so2_24h,co,co_24h
2025-07-20T1500,2566A,102.1879,31.914,阿坝藏族羌族自治州,州农科所,颗粒物(PM10),61,71,28,11,9,71,,53,53,7,6,14,14,1.5,1.1
2025-07-20T1500,2568A,102.2502,31.8896,阿坝藏族羌族自治州,马师校,,22,11,13,11,15,69,,48,48,13,8,7,7,0.9,0.8
2025-07-20T1500,3994A,102.2165,31.9024,阿坝藏族羌族自治州,马尔康中学西区,,32,,9,22,10,73,,51,51,4,5,6,7,0.7,0.7
2025-07-20T1500,2695A,80.292,41.1694,阿克苏地区,电视台,,,56,73,26,33,93,,73,73,,22,7,4,0.4,0.5
2025-07-20T1500,2696A,80.2613,41.1551,阿克苏地区,艺术中心,细颗粒物(PM2.5),54,54,82,38,41,101,,76,76,2,11,3,3,0.5,0.5
2025-07-20T1500,2204A,105.6467,38.8363,阿拉善盟,西城区西花园,,36,11,31,3,12,114,,98,98,8,9,8,9,0.7,0.7
2025-07-20T1500,2205A,105.6985,38.8411,阿拉善盟,蒙二幼,,38,14,38,3,13,119,,102,102,8,9,8,8,0.3,0.4
2025-07-20T1500,2206A,105.724,38.8516,阿拉善盟,环保局新楼,,34,9,32,3,12,108,,96,96,4,5,10,10,0.4,0.4
2025-07-20T1500,2708A,88.1264,47.8517,阿勒泰地区,市站,,37,37,30,3,6,100,,97,85,6,12,2,2,0.4,0.2
2025-07-20T1500,2630A,80.1161,32.5,阿里地区,阿里监测站,,33,6,4,3,2,105,,90,89,3,7,6,6,0.2,0.2
2025-07-20T1500,3192A,80.0903,32.5028,阿里地区,阿里藏医院,,36,6,8,3,2,114,,102,99,2,3,6,6,0.3,0.3
2025-07-20T1500,2642A,109.0318,32.6537,安康市,香溪洞,,34,19,29,14,16,106,,73,73,6,6,10,7,0.6,0.6
2025-07-20T1500,2644A,109.0072,32.6975,安康市,汉滨区检察院,,26,17,33,14,19,83,,60,60,4,5,4,5,0.7,0.7
2025-07-20T1500,4054A,109.0325,32.6913,安康市,市邮政管理局,,29,16,30,15,18,91,,67,67,5,9,5,7,0.6,0.7
2025-07-20T1500,2291A,117.0809,30.5177,安庆市,环科院,,31,13,17,6,8,98,,68,68,1,6,4,4,0.4,0.5
2025-07-20T1500,2292A,117.0331,30.5119,安庆市,马山宾馆,,28,12,18,6,4,88,,63,63,2,8,2,2,0.5,0.6
2025-07-20T1500,2294A,116.9896,30.6145,安庆市,安庆大学,,28,6,16,3,8,89,,67,67,3,8,3,3,0.3,0.4
2025-07-20T1500,3173A,117.0598,30.5351,安庆市,市人大,,30,13,18,3,7,95,,66,66,4,9,3,3,0.4,0.5
2025-07-20T1500,3122A,105.9606,26.2611,安顺市,伍家关,,40,16,17,15,12,126,,103,103,4,6,3,3,0.4,0.4
2025-07-20T1500,3123A,105.9408,26.2431,安顺市,凤凰山,,41,24,21,16,15,130,,107,107,5,6,3,3,0.6,0.6
2025-07-20T1500,3124A,105.9439,26.2564,安顺市,金钟山,,42,18,20,17,17,133,,108,108,4,5,6,5,0.5,0.5
2025-07-20T1500,3125A,105.8983,26.2481,安顺市,娄家坡,,39,23,22,13,16,124,,102,102,4,8,7,10,0.5,0.6
2025-07-20T1500,1818A,114.4839,36.0621,安阳市,棉研所,,,,,,,,,,,,,,,,
2025-07-20T1500,1819A,114.3551,36.1017,安阳市,红庙街,,42,26,53,17,29,133,,141,141,5,12,4,5,0.6,0.6
2025-07-20T1500,1820A,114.361,36.0681,安阳市,银杏小区,,41,21,54,21,35,129,,136,136,2,8,5,5,0.6,0.5
2025-07-20T1500,3141A,114.3922,36.0878,安阳市,信访局,,46,24,55,18,31,145,,149,149,6,14,6,6,0.9,0.8
2025-07-20T1500,3669A,114.4705,36.0637,安阳市,左辅环卫站,细颗粒物(PM2.5),59,51,56,42,39,135,,133,133,10,13,5,6,1.1,0.9
2025-07-20T1500,3703A,114.2917,36.0949,安阳市,安钢职工学校,,40,21,59,13,36,127,,132,132,3,7,3,3,0.6,0.7
2025-07-20T1500,1748A,123.044,41.1196,鞍山市,深沟寺,,27,20,18,12,9,86,,80,80,21,10,8,4,1.8,0.8
2025-07-20T1500,1749A,123.011,41.0931,鞍山市,太阳城,,32,19,16,12,10,102,,91,91,11,10,8,6,0.8,0.7
2025-07-20T1500,1750A,123.0485,41.1442,鞍山市,太平,,36,36,20,16,9,92,,88,88,18,10,11,6,1.1,0.8
2025-07-20T1500,1751A,122.9642,41.0971,鞍山市,铁西三道街,,28,27,23,15,13,89,,86,86,14,13,7,5,0.8,0.8
2025-07-20T1500,1753A,123.022,41.0821,鞍山市,明达新区,,27,19,14,14,8,86,,86,84,11,7,8,7,0.8,0.7
2025-07-20T1500,1754A,123.1289,41.0228,鞍山市,千山,,,,,,,,,,,,,,,,
2025-07-20T1500,4201A,122.9446,41.0826,鞍山市,兴盛南路290号,,30,30,20,14,10,91,,92,92,18,17,8,7,0.7,0.9
2025-07-20T1500,2195A,107.4212,40.761,巴彦淖尔市,附二中,,42,11,17,6,11,133,,120,120,5,14,5,6,0.4,0.5
2025-07-20T1500,2196A,107.37,40.7372,巴彦淖尔市,市环保大楼,,39,26,27,19,12,122,,102,102,7,14,6,6,0.3,0.4
2025-07-20T1500,1956A,86.1472,41.7538,巴音郭楞蒙古自治州,孔雀公园,颗粒物(PM10),76,102,180,41,59,102,,68,68,3,30,4,4,0.2,0.4
2025-07-20T1500,1957A,86.1972,41.7166,巴音郭楞蒙古自治州,棉纺厂,颗粒物(PM10),97,144,214,38,53,118,,87,87,4,26,4,4,0.2,0.3
2025-07-20T1500,1958A,86.2357,41.7173,巴音郭楞蒙古自治州,经济开发区,颗粒物(PM10),88,125,156,35,46,112,,95,95,4,9,2,3,0.1,0.2
2025-07-20T1500,2914A,106.7677,31.8794,巴中市,苏山坪,,27,11,15,6,10,86,,76,76,4,6,5,4,0.5,0.5
2025-07-20T1500,3181A,106.7768,31.8526,巴中市,市五中,,24,18,23,12,15,75,,67,67,3,13,8,8,0.5,0.6
2025-07-20T1500,3183A,106.7418,31.8654,巴中市,圣泉水务公司,,28,11,17,9,12,89,,79,79,3,6,6,6,0.6,0.6
2025-07-20T1500,3616A,106.7616,31.8344,巴中市,市中心医院,,26,14,20,6,16,81,,72,72,9,13,7,8,0.4,0.4
2025-07-20T1500,2235A,122.7911,45.6077,白城市,洮北区环保局,,25,7,12,7,13,78,,79,71,2,2,5,5,0.2,0.2
2025-07-20T1500,2236A,122.8738,45.5725,白城市,市环保局,,22,9,13,3,7,70,,77,67,2,2,2,3,0.5,0.5
2025-07-20T1500,2231A,126.4219,41.9171,白山市,喜丰,,28,23,21,7,7,88,,70,70,7,12,4,5,0.5,0.5
2025-07-20T1500,2232A,126.4077,41.9419,白山市,环保局,,30,18,21,3,6,96,,80,80,7,12,10,9,0.5,0.6
2025-07-20T1500,2647A,104.1724,36.5446,白银市,第三小学,,42,31,21,10,17,133,,94,94,6,9,36,16,0.6,0.8
2025-07-20T1500,2648A,104.1465,36.5482,白银市,动力公司,,41,30,22,11,17,131,,90,90,7,9,30,14,0.4,0.8
2025-07-20T1500,2512A,106.6103,23.9011,百色市,市监测站,,22,17,24,10,10,69,,41,41,4,8,4,4,0.5,0.5
2025-07-20T1500,2513A,106.6538,23.8859,百色市,市中心血站,,27,27,28,15,15,77,,42,42,10,17,3,3,0.6,0.7
2025-07-20T1500,3406A,106.6085,23.8798,百色市,祈福高中,,19,,27,13,12,60,,38,38,7,13,4,4,0.7,0.7
2025-07-20T1500,2270A,117.396,32.939,蚌埠市,工人疗养院,,33,21,25,3,8,103,,65,65,2,9,4,3,0.2,0.3
2025-07-20T1500,2271A,117.3605,32.9427,蚌埠市,百货大楼,,31,18,20,3,6,98,,64,64,2,7,6,5,0.3,0.3
2025-07-20T1500,2273A,117.4185,32.8911,蚌埠市,蚌埠学院,,31,9,19,3,10,99,,65,65,2,11,5,5,0.3,0.3
2025-07-20T1500,2274A,117.3533,32.9673,蚌埠市,淮上区政府,,,,27,,14,,,39,,,12,,5,,0.6
2025-07-20T1500,2275A,117.3145,32.8977,蚌埠市,高新区,,30,17,21,6,9,95,,63,63,4,9,6,6,0.3,0.4
2025-07-20T1500,3715A,117.3092,32.9314,蚌埠市,蚌埠田家炳中学,,29,23,24,6,11,90,,58,58,3,6,7,6,0.1,0.2
2025-07-20T1500,1585A,109.8756,40.6532,包头市,市环境监测站,,35,11,10,7,5,110,,97,97,9,9,5,4,0.3,0.4
2025-07-20T1500,1587A,109.9991,40.5842,包头市,包头八中,,32,10,14,3,3,102,,94,94,7,11,2,3,0.3,0.4
2025-07-20T1500,1588A,109.8538,40.6821,包头市,青山宾馆,,33,6,9,3,4,103,,93,93,5,6,4,4,0.3,0.4
2025-07-20T1500,1589A,109.8642,40.6288,包头市,惠龙物流,,34,6,9,3,5,106,,94,94,6,6,4,5,0.3,0.4
2025-07-20T1500,1590A,110.0377,40.5546,包头市,东河鸿龙湾,,34,6,9,3,5,108,,96,96,4,9,3,3,0.4,0.5
2025-07-20T1500,3283A,109.9154,40.5685,包头市,滨河大厦,,33,6,9,6,4,105,,98,98,6,8,2,4,0.3,0.4
2025-07-20T1500,3419A,109.9447,40.6261,包头市,包头市委党校,,33,7,9,3,5,105,,98,98,4,7,4,6,0.3,0.4
2025-07-20T1500,3683A,109.8331,40.6576,包头市,昆区政府,,33,6,12,3,4,104,,92,92,7,8,2,2,0.5,0.6
2025-07-20T1500,1930A,107.185,34.3063,宝鸡市,庙沟村,,31,,36,8,17,98,,92,90,4,7,4,4,0.4,0.4
2025-07-20T1500,1931A,107.0708,34.3017,宝鸡市,竹园沟,,34,6,37,3,12,106,,85,85,4,6,7,7,0.3,0.4
2025-07-20T1500,1932A,107.1906,34.3672,宝鸡市,三陆医院,,33,10,28,3,17,105,,89,89,6,16,6,6,0.5,0.6
2025-07-20T1500,1933A,107.1431,34.3547,宝鸡市,监测站,,34,9,33,6,16,107,,91,91,5,7,8,8,0.3,0.3
2025-07-20T1500,1934A,107.1186,34.3739,宝鸡市,技工学校,,34,12,28,3,17,107,,92,92,6,6,5,5,0.5,0.5
2025-07-20T1500,1936A,107.2058,34.3497,宝鸡市,文理学院,,34,11,35,3,14,107,,94,94,4,8,6,6,0.4,0.5
2025-07-20T1500,1937A,107.2386,34.3622,宝鸡市,三迪小学,,34,18,29,3,18,106,,94,94,6,10,7,7,0.4,0.4
2025-07-20T1500,4308A,107.3898,34.3601,宝鸡市,陈仓区北开路21号,,33,,20,3,14,104,,90,90,3,8,6,6,0.2,0.3
2025-07-20T1500,1051A,115.493,38.8632,保定市,游泳馆,,37,20,42,16,25,116,,115,115,2,5,3,3,0.0,0.1
2025-07-20T1500,1052A,115.5213,38.8959,保定市,华电二区,,42,20,44,7,23,133,,128,128,6,10,1,3,0.3,0.4
2025-07-20T1500,1053A,115.4713,38.9108,保定市,接待中心,,41,10,43,6,22,129,,118,118,2,6,3,3,0.3,0.4
2025-07-20T1500,1054A,115.4612,38.8416,保定市,地表水厂,,38,19,49,7,19,119,,118,118,2,5,1,2,0.1,0.2
2025-07-20T1500,3581A,115.31981,38.95208,保定市,满城区生态环境分局,,40,14,44,7,24,127,,111,111,1,7,2,2,0.2,0.4
2025-07-20T1500,3582A,115.47694,38.76408,保定市,清苑区第二中学,,35,20,56,12,28,109,,115,114,2,7,3,2,0.3,0.4
2025-07-20T1500,3583A,115.62909,39.02311,保定市,徐水物探局,,41,8,40,3,15,129,,122,122,1,7,3,3,0.3,0.4
2025-07-20T1500,4004A,115.4202,38.8656,保定市,双鹰农机,,43,7,36,3,21,135,,120,120,2,8,3,2,0.2,0.3
2025-07-20T1500,4034A,115.5150,38.8590,保定市,植保所站,,41,11,41,6,20,131,,131,131,8,11,2,3,0.2,0.2
2025-07-20T1500,2594A,99.1678,25.1081,保山市,市环境监测站,,30,13,17,11,15,96,,60,60,6,7,6,6,0.4,0.4
2025-07-20T1500,2595A,99.1711,25.1328,保山市,市环保局,,32,23,19,11,9,100,,64,64,6,5,8,8,0.3,0.3
2025-07-20T1500,1866A,109.2262,21.588,北海市,牛尾岭水库,,40,25,13,12,7,127,,105,105,4,5,2,2,0.7,0.6
2025-07-20T1500,1867A,109.1436,21.4086,北海市,海滩公园,,40,40,18,17,7,107,,91,91,8,7,2,2,0.9,0.8
2025-07-20T1500,1868A,109.0981,21.4661,北海市,新市环保局,,35,32,16,17,10,111,,92,92,9,8,3,3,0.5,0.4
2025-07-20T1500,1869A,109.1778,21.5233,北海市,北海工业园,,35,34,17,24,11,111,,87,87,6,6,4,3,0.5,0.4
2025-07-20T1500,3400A,109.1911,21.4415,北海市,龙潭自来水厂,,37,32,15,25,10,118,,86,86,5,6,4,4,0.7,0.5
2025-07-20T1500,1001A,116.3621,39.8784,北京市,万寿西宫,,30,6,42,3,27,95,,78,78,2,6,2,2,0.4,0.6
2025-07-20T1500,1002A,116.2202,40.2915,北京市,定陵,,18,6,30,3,22,55,,56,51,2,4,5,4,0.3,0.4
2025-07-20T1500,1003A,116.4174,39.9289,北京市,东四,,31,6,36,3,23,99,,85,85,6,17,4,5,0.3,0.5
2025-07-20T1500,1004A,116.4072,39.8863,北京市,天坛,,27,6,37,3,28,86,,73,73,6,16,3,4,0.4,0.6
2025-07-20T1500,1005A,116.462,39.9365,北京市,农展馆,,27,,36,3,23,86,,69,69,2,11,2,2,0.7,0.9
2025-07-20T1500,1006A,116.3392,39.9295,北京市,官园,,28,6,42,3,26,88,,79,79,5,18,4,4,0.4,0.6
2025-07-20T1500,1007A,116.2878,39.9611,北京市,海淀万柳,,27,6,44,3,29,85,,73,73,4,16,3,3,0.3,0.5
2025-07-20T1500,1008A,116.6636,40.135,北京市,顺义新城,,24,8,28,3,14,76,,79,79,2,11,2,2,0.2,0.4
2025-07-20T1500,1009A,116.6275,40.3275,北京市,怀柔镇,,24,6,24,3,17,76,,92,83,3,8,3,2,0.3,0.5
2025-07-20T1500,1010A,116.2296,40.217,北京市,昌平镇,,20,6,30,3,21,61,,71,68,4,12,3,3,0.2,0.4
2025-07-20T1500,1011A,116.3966,39.9821,北京市,奥体中心,,25,6,35,3,23,80,,78,78,2,15,3,3,0.1,0.3
2025-07-20T1500,3281A,115.9718,40.4529,北京市,延庆夏都,,24,6,22,3,16,74,,84,75,2,7,4,4,0.3,0.4
2025-07-20T1500,3418A,116.8336,40.4095,北京市,密云新城,,22,9,26,7,15,69,,86,74,1,7,3,3,0.6,0.7
2025-07-20T1500,3671A,116.088,39.9726,北京市,门头沟三家店,,23,6,35,3,22,73,,60,60,2,12,3,3,0.3,0.4
2025-07-20T1500,3672A,116.1541,39.8204,北京市,丰台云岗,,27,6,40,3,21,84,,62,62,3,12,2,2,0.5,0.6
2025-07-20T1500,3673A,116.6804,39.9081,北京市,通州东关,,29,7,31,3,15,92,,90,90,3,19,2,2,0.4,0.5
2025-07-20T1500,3674A,115.9577,39.7603,北京市,房山燕山,,32,8,34,6,27,100,,90,76,3,5,3,2,0.4,0.5
2025-07-20T1500,3675A,116.4672,39.7733,北京市,大兴旧宫,,30,7,31,3,18,93,,76,76,8,13,1,1,0.5,0.7
2025-07-20T1500,3694A,115.986,40.4563,北京市,延庆石河营,,22,6,24,3,19,68,,73,62,2,7,2,2,0.3,0.4
2025-07-20T1500,3695A,116.6151,40.3053,北京市,怀柔新城,,23,6,28,3,19,73,,91,82,2,6,1,1,0.5,0.6
2025-07-20T1500,3696A,116.2545,39.8768,北京市,丰台小屯,,28,6,40,3,30,89,,72,72,2,8,1,1,0.5,0.6
2025-07-20T1500,3697A,116.84,40.3844,北京市,密云镇,,22,10,26,6,15,70,,84,73,3,11,3,3,0.5,0.6
2025-07-20T1500,4182A,116.1942,39.9158,北京市,八角北路9号,,32,7,44,3,23,100,,89,81,2,10,2,2,0.4,0.6
2025-07-20T1500,4194A,117.0790,40.1518,北京市,洳河巡河路,,25,10,26,7,16,77,,80,74,2,8,2,2,0.3,0.5
2025-07-20T1500,1761A,123.8275,41.3064,本溪市,大峪,,31,15,13,8,4,98,,97,97,4,3,5,4,0.3,0.3
2025-07-20T1500,1762A,123.7567,41.3325,本溪市,溪湖,,26,17,18,8,8,81,,84,84,5,6,4,4,0.7,0.9
2025-07-20T1500,1763A,123.7169,41.3094,本溪市,彩屯,,24,24,22,12,12,69,,68,68,17,20,12,11,1.3,1.7
2025-07-20T1500,1764A,123.7669,41.2864,本溪市,东明,,,,21,,9,80,,84,83,,7,4,4,0.5,0.5
2025-07-20T1500,1765A,123.7992,41.2664,本溪市,新立屯,,28,21,15,7,7,87,,87,87,7,6,4,4,0.6,0.6
2025-07-20T1500,1766A,123.8142,41.3472,本溪市,威宁,,26,16,19,9,7,82,,80,80,4,6,6,6,0.4,0.4
2025-07-20T1500,2587A,105.2864,27.3125,毕节市,八中,,31,12,21,7,15,99,,78,78,4,7,4,3,0.3,0.4
2025-07-20T1500,2588A,105.31,27.2944,毕节市,师专,,31,9,20,6,11,99,,78,78,4,7,4,4,0.5,0.5
2025-07-20T1500,4263A,105.3688,27.3598,毕节市,工业大道,,32,7,16,3,11,102,,85,85,6,10,5,5,0.6,0.7
2025-07-20T1500,1629A,118.0018,37.3617,滨州市,第二水厂,臭氧1小时,65,31,36,24,23,172,,142,142,2,11,3,5,0.6,0.7
2025-07-20T1500,1630A,117.9776,37.393,滨州市,北中新校,臭氧1小时,68,31,33,14,20,174,,143,143,6,15,16,17,0.4,0.5
2025-07-20T1500,3514A,117.9378,37.3956,滨州市,中海酒店,臭氧1小时,64,36,31,24,25,171,,136,136,2,8,8,10,0.7,0.8
2025-07-20T1500,3515A,117.9378,37.3553,滨州市,开发区一中,臭氧1小时,70,34,35,19,20,176,,146,146,8,15,12,14,0.3,0.5
2025-07-20T1500,3516A,118.0917,37.694,滨州市,金海六路,臭氧1小时,57,34,35,12,18,165,,127,127,3,14,9,12,0.2,0.4
2025-07-20T1500,4028A,117.9956,37.3753,滨州市,滨州市西街道办事处,臭氧1小时,80,29,31,24,23,184,,153,153,4,11,3,5,0.4,0.5
2025-07-20T1500,2311A,115.8072,33.8399,亳州市,污水处理厂,,35,6,21,3,13,111,,104,104,5,8,4,5,0.5,0.5
2025-07-20T1500,2312A,115.7789,33.8518,亳州市,三国揽胜宫,,34,16,32,3,9,106,,97,97,2,6,4,5,0.4,0.5
2025-07-20T1500,3332A,115.7633,33.8034,亳州市,亳州学院,,34,6,20,3,10,106,,100,100,5,11,4,4,0.4,0.5
2025-07-20T1500,2693A,82.0485,44.8556,博尔塔拉蒙古自治州,市党校,,43,21,29,16,15,135,,96,96,5,10,3,4,0.1,0.1
2025-07-20T1500,2694A,82.0806,44.8969,博尔塔拉蒙古自治州,市环保局,,,,40,27,18,136,,95,95,4,10,3,4,,0.9
2025-07-20T1500,1071A,116.8842,38.2991,沧州市,沧县城建局,,42,36,38,29,23,89,,92,92,13,13,1,2,0.3,0.4
2025-07-20T1500,1072A,116.8584,38.3254,沧州市,电视转播站,,35,35,42,17,23,86,,89,83,10,15,3,4,0.2,0.3
2025-07-20T1500,1073A,116.8709,38.3228,沧州市,市环保局,,34,34,46,15,22,82,,74,74,10,15,3,2,0.3,0.3
2025-07-20T1500,3324A,116.8136,38.3004,沧州市,河北水利电力学院,,33,,36,9,25,104,,96,96,6,14,3,3,0.2,0.3
2025-07-20T1500,2622A,97.1806,31.1273,昌都市,昌都监测站,,27,,15,7,5,85,,62,62,4,5,3,3,0.3,0.2
2025-07-20T1500,3719A,97.1714,31.1406,昌都市,昌都会议中心,,25,17,8,10,6,79,,60,60,5,4,4,4,0.2,0.2
2025-07-20T1500,2690A,88.1236,43.8886,昌吉回族自治州,天山天池,,50,31,19,9,6,158,,119,119,7,6,8,4,0.7,0.5
2025-07-20T1500,2692A,87.2717,44.0297,昌吉回族自治州,新区政务中心,,49,33,27,7,9,156,,106,106,5,16,10,6,0.5,0.5
2025-07-20T1500,3613A,87.3095,44.0142,昌吉回族自治州,亚心广场,,47,46,42,9,17,149,,102,102,8,26,12,8,0.3,0.4
2025-07-20T1500,1120A,125.2863,43.9027,长春市,客车厂,,27,,23,8,15,84,,80,73,8,13,3,3,0.3,0.5
2025-07-20T1500,1121A,125.2841,43.8463,长春市,邮电学院,,24,,21,7,12,76,,80,74,8,10,4,4,0.3,0.5
2025-07-20T1500,1122A,125.3716,43.8772,长春市,劳动公园,,26,9,27,3,13,81,,72,72,11,15,5,5,0.5,0.7
2025-07-20T1500,1123A,125.3297,43.8805,长春市,园林处,,,,23,5,13,80,,81,78,7,9,3,4,0.7,0.6
2025-07-20T1500,1124A,125.4605,43.79,长春市,净月潭,,,,,,,,,,,,,,,,
2025-07-20T1500,1125A,125.7194,43.515,长春市,甩湾子,,25,11,16,3,9,80,,83,83,7,12,1,2,0.6,0.6
2025-07-20T1500,1126A,125.3863,43.8447,长春市,经开区环卫处,,25,8,22,3,9,78,,68,68,9,10,5,5,0.3,0.5
2025-07-20T1500,1127A,125.245,43.7783,长春市,高新区管委会,,26,6,20,3,13,81,,74,74,5,9,2,2,0.4,0.5
2025-07-20T1500,1128A,125.1761,43.8325,长春市,岱山公园,,25,,24,7,14,77,,76,71,6,16,3,3,0.2,0.4
2025-07-20T1500,4281A,125.3346,43.9164,长春市,北亚泰大街1068号,,26,,25,6,14,83,,79,74,11,14,6,5,0.3,0.4
2025-07-20T1500,1335A,113.0833,28.2325,长沙市,经开区环保局,,,15,37,,22,49,,106,76,4,9,4,5,0.3,0.5
2025-07-20T1500,1336A,112.8872,28.2189,长沙市,高开区环保局,,27,27,45,3,18,67,,,,2,6,3,4,0.3,0.5
2025-07-20T1500,1337A,113.0792,28.2053,长沙市,马坡岭,,18,16,36,3,23,55,,109,77,2,8,4,5,0.3,0.5
2025-07-20T1500,1338A,112.9394,28.19,长沙市,湖南师范大学,,30,30,39,8,24,62,,116,94,2,9,2,4,0.3,0.5
2025-07-20T1500,1339A,113.0178,28.1322,长沙市,雨花区环保局,,19,16,34,8,17,60,,106,64,2,6,5,5,0.6,0.8
2025-07-20T1500,1340A,112.9792,28.2597,长沙市,伍家岭,,16,16,41,9,23,49,,102,87,3,9,1,1,0.2,0.5
2025-07-20T1500,1341A,113.0014,28.1944,长沙市,火车新站,,29,29,43,3,20,57,,104,77,2,7,6,7,0.3,0.6
2025-07-20T1500,1342A,112.9844,28.1178,长沙市,天心区环保局,,20,18,32,3,21,63,,105,68,1,8,1,1,0.2,0.4
2025-07-20T1500,1343A,112.8908,28.1308,长沙市,湖南中医药大学,,26,26,43,16,27,74,,94,86,1,8,3,3,0.7,0.9
2025-07-20T1500,1344A,112.9581,28.3611,长沙市,沙坪,,25,20,35,17,27,47,,104,78,6,10,4,4,0.3,0.6
2025-07-20T1500,1727A,113.1147,36.1547,长治市,清华站,,41,20,31,9,18,130,,145,125,12,9,13,8,1.1,0.8
2025-07-20T1500,1730A,113.0886,36.2125,长治市,审计局,,37,22,28,17,20,118,,141,112,14,11,5,4,1.2,0.8
2025-07-20T1500,1731A,113.0844,36.1856,长治市,长治八中,,37,26,34,21,27,118,,145,117,10,8,8,7,1.0,0.6
2025-07-20T1500,2845A,113.1569,36.1911,长治市,德盛苑,,38,17,33,7,20,120,,138,116,11,9,10,6,0.9,0.7
2025-07-20T1500,3568A,113.06,36.0464,长治市,向阳小学,,44,44,65,22,26,125,,140,119,11,6,8,6,0.9,0.7
2025-07-20T1500,3569A,112.8792,36.3144,长治市,屯留一中,,32,21,42,17,32,101,,134,101,14,11,13,11,0.4,0.4
2025-07-20T1500,4189A,113.1131,36.19948,长治市,英华南巷50号,,37,29,34,22,20,116,,136,111,14,10,8,7,1.2,0.8
2025-07-20T1500,4190A,113.2367,36.3344,长治市,学府街1号,,30,29,37,7,21,96,,144,105,16,12,3,4,0.3,0.4
2025-07-20T1500,1854A,111.6975,28.9703,常德市,市二中,,44,25,32,18,25,138,,130,130,4,7,3,4,0.6,0.6
2025-07-20T1500,1857A,111.7158,29.1456,常德市,白鹤山,,,,,,,,,,,,,,,,
2025-07-20T1500,3138A,111.7153,29.0289,常德市,武陵区永安,,42,31,38,19,24,134,,128,128,4,6,3,4,0.3,0.3
2025-07-20T1500,3139A,111.6892,28.9881,常德市,鼎城区玉霞,,42,31,34,18,22,134,,130,130,1,3,4,5,0.5,0.5
2025-07-20T1500,3140A,111.6625,29.0531,常德市,武陵区长庚,,42,35,35,20,24,132,,123,123,4,7,3,4,0.5,0.6
2025-07-20T1500,1196A,119.9633,31.762,常州市,市监测站,,23,18,21,9,8,72,,55,55,10,13,10,10,0.3,0.4
2025-07-20T1500,1200A,119.9468,31.7069,常州市,武进监测站,,20,17,17,3,6,64,,52,52,1,4,8,9,0.6,0.6
2025-07-20T1500,1201A,119.9255,31.9087,常州市,安家,,26,26,23,3,6,80,,60,60,7,12,6,7,0.4,0.5
2025-07-20T1500,3002A,119.9805,31.8174,常州市,行政中心,,23,23,18,8,7,71,,54,54,4,10,7,8,0.2,0.2
2025-07-20T1500,3003A,120.0522,31.7748,常州市,经开区,,23,23,24,3,6,72,,55,55,4,10,5,5,0.0,0.1
2025-07-20T1500,3010A,119.9025,31.7964,常州市,钟楼,,23,16,21,6,6,73,,57,57,4,8,5,6,0.4,0.4
2025-07-20T1500,3429A,119.8598,31.7066,常州市,武进经发区,,20,17,16,6,6,64,,51,51,1,4,5,6,0.5,0.6
2025-07-20T1500,3430A,119.5826,31.7245,常州市,金坛城区,,22,15,17,7,6,68,,53,53,4,6,6,6,0.2,0.2
2025-07-20T1500,2220A,120.4318,41.5881,朝阳市,西梁,,20,,26,14,20,53,,61,50,9,11,7,6,0.6,0.7
2025-07-20T1500,2221A,120.4521,41.5646,朝阳市,河畔小区,,20,11,20,3,18,61,,74,64,7,6,4,4,0.5,0.5
2025-07-20T1500,2222A,120.4176,41.5648,朝阳市,八里堡,,21,14,26,11,18,66,,64,64,11,13,3,3,0.5,0.6
2025-07-20T1500,2223A,120.3806,41.5969,朝阳市,农业园区,,17,11,23,8,20,52,,54,47,8,12,5,5,0.4,0.5
2025-07-20T1500,1705A,116.6367,23.6719,潮州市,西园路,,22,,21,15,9,69,,68,68,2,4,2,3,0.3,0.2
2025-07-20T1500,3026A,116.6183,23.6608,潮州市,市政府,,30,30,19,8,8,68,,67,67,2,3,2,4,0.3,0.3
2025-07-20T1500,4036A,116.6461,23.6761,潮州市,金山,,26,23,19,18,14,76,,74,74,1,3,5,6,0.5,0.5
2025-07-20T1500,2472A,113.0073,25.9061,郴州市,马头岭,,14,11,23,6,10,43,,40,40,5,7,5,8,0.4,0.5
2025-07-20T1500,2473A,113.0116,25.8226,郴州市,市职中,,11,,18,6,14,35,,32,32,4,7,4,7,0.6,0.7
2025-07-20T1500,2475A,113.0383,25.8071,郴州市,市审计局,,14,8,18,3,13,42,,39,39,3,6,4,8,0.2,0.5
2025-07-20T1500,2476A,113.0348,25.7759,郴州市,市环保局,,,15,21,,12,38,,43,43,1,6,5,12,0.1,0.3
2025-07-20T1500,4252A,113.0138,25.8011,郴州市,好美居路49号,,14,9,19,3,13,42,,78,63,4,8,3,2,0.3,0.6
2025-07-20T1500,1431A,103.9728,30.7236,成都市,金泉两河,,44,44,21,3,12,108,,90,90,5,14,2,3,0.3,0.4
2025-07-20T1500,1432A,104.176,30.6872,成都市,十里店,,35,29,30,16,14,112,,96,96,3,10,4,4,0.3,0.4
2025-07-20T1500,1433A,104.079,30.5706,成都市,三瓦窑,,43,43,32,15,19,120,,107,107,4,21,2,3,0.3,0.5
2025-07-20T1500,1434A,104.1114,30.63,成都市,沙河铺,,44,44,34,13,20,95,,80,80,5,13,5,7,0.2,0.4
2025-07-20T1500,1437A,104.0786,30.6531,成都市,君平街,颗粒物(PM10),51,52,38,20,18,118,,100,100,5,17,5,5,0.6,0.9
2025-07-20T1500,1438A,103.613,31.0283,成都市,灵岩寺,,,,,,,,,,,,,,,,
2025-07-20T1500,2880A,104.0239,30.65639,成都市,大石西路,,44,44,29,26,22,105,,88,88,6,17,3,3,0.6,0.8
2025-07-20T1500,3136A,104.2725,30.5589,成都市,龙泉驿区区政府,,39,39,18,22,9,104,,90,90,7,12,4,4,0.4,0.4
2025-07-20T1500,3357A,104.0106,30.6931,成都市,金博路,,40,40,24,23,14,102,,84,84,4,16,4,4,0.4,0.6
2025-07-20T1500,3359A,104.0578,30.5225,成都市,华阳,,36,36,26,22,20,103,,89,89,6,14,3,6,0.4,0.6
2025-07-20T1500,3488A,104.3853,30.7453,成都市,青白江技师分院,,45,45,30,22,19,108,,84,84,5,22,4,5,0.4,0.5
2025-07-20T1500,3489A,104.0789,30.4072,成都市,科学城,,,36,30,24,22,103,,97,97,,12,3,5,0.3,0.5
2025-07-20T1500,4011A,103.8506,30.6947,成都市,光华大道三段,,36,21,27,8,15,113,,84,84,8,15,4,5,0.6,0.7
2025-07-20T1500,4224A,104.2433,30.5353,成都市,鲸龙路1057号,,,71,29,9,18,,,75,,,16,8,6,,0.7
2025-07-20T1500,1062A,117.9531,40.9081,承德市,铁路,,23,11,35,10,20,72,,89,80,3,15,2,2,0.2,0.5
2025-07-20T1500,1063A,117.9392,40.9763,承德市,中国银行,,19,,34,8,24,58,,90,84,6,7,3,2,0.3,0.5
2025-07-20T1500,1064A,117.9503,40.928,承德市,开发区,,23,21,39,3,17,72,,94,90,4,9,2,3,0.2,0.4
2025-07-20T1500,1065A,117.8051,40.9655,承德市,文化中心,,,,,,,,,,,,,,,,
2025-07-20T1500,1066A,117.9268,41.0026,承德市,离宫,,18,18,32,12,23,47,,74,71,5,6,2,2,0.2,0.4
2025-07-20T1500,2314A,117.47,30.6618,池州市,池州学院,,22,13,16,6,8,69,,54,54,3,8,5,5,0.3,0.4
2025-07-20T1500,3237A,117.4918,30.6617,池州市,展览馆,,21,11,14,3,7,67,,54,54,3,8,4,4,0.4,0.5
2025-07-20T1500,3333A,117.5627,30.695,池州市,第八中学,,22,21,16,9,8,69,,54,54,1,6,4,4,0.4,0.4
2025-07-20T1500,3334A,117.5038,30.6243,池州市,第十二中学,,23,15,18,3,7,72,,58,58,3,12,2,3,0.6,0.7
2025-07-20T1500,1744A,118.9233,42.2816,赤峰市,松山一中,,26,6,23,3,16,83,,91,69,7,13,8,10,0.4,0.6
2025-07-20T1500,1745A,118.9576,42.2728,赤峰市,哈达街,,23,6,26,3,15,72,,79,63,8,13,11,12,0.4,0.6
2025-07-20T1500,1746A,118.8788,42.2554,赤峰市,天义路,,27,8,18,3,18,85,,94,72,6,11,8,10,0.1,0.2
2025-07-20T1500,3058A,119.2658,42.0353,赤峰市,银河街,,24,,29,7,22,74,,94,76,6,10,8,10,0.4,0.6
2025-07-20T1500,3286A,118.9359,42.3147,赤峰市,桥北物流园区,,17,,24,3,16,53,,73,45,23,16,10,11,0.6,0.8
2025-07-20T1500,2521A,107.3476,22.4136,崇左市,市环保局江州分局,,27,23,25,13,11,85,,58,58,3,6,6,6,0.6,0.5
2025-07-20T1500,4256A,107.3750,22.3736,崇左市,石景林东路7号,,31,31,20,20,11,91,,65,65,5,6,3,2,0.5,0.5
2025-07-20T1500,2298A,118.3093,32.3153,滁州市,老年大学,,26,26,24,13,13,83,,63,63,4,7,11,7,0.2,0.2
2025-07-20T1500,2299A,118.3244,32.2786,滁州市,人大宾馆,,28,13,13,8,8,87,,66,66,2,4,4,4,0.1,0.1
2025-07-20T1500,3207A,118.3118,32.3038,滁州市,市政府原办公楼,,32,24,21,22,23,84,,63,63,1,5,5,4,0.2,0.2
2025-07-20T1500,3331A,118.3267,32.2634,滁州市,图书馆,,27,19,18,14,11,86,,55,55,5,7,9,9,0.2,0.2
2025-07-20T1500,2605A,101.5482,25.0441,楚雄彝族自治州,州环境监测站,,25,21,14,16,10,79,,61,61,7,13,7,8,0.6,0.6
2025-07-20T1500,2606A,101.538,25.0492,楚雄彝族自治州,市经济开发区,,25,13,19,12,10,77,,59,59,7,11,7,7,0.6,0.6
2025-07-20T1500,2548A,107.5277,31.2827,达州市,达州职业技术学院,,37,31,24,3,3,117,,70,70,2,14,10,7,0.5,0.6
2025-07-20T1500,2549A,107.5086,31.2186,达州市,市环境监测站,,40,31,25,7,6,128,,87,87,13,18,4,5,0.3,0.3
2025-07-20T1500,2550A,107.4988,31.2132,达州市,凤凰小区,,42,24,22,3,10,132,,92,92,8,17,6,6,0.3,0.3
2025-07-20T1500,2551A,107.5082,31.1986,达州市,达县机关宾馆,,42,22,24,3,8,133,,94,94,10,23,5,4,0.3,0.3
2025-07-20T1500,2552A,107.4644,31.2124,达州市,市政中心,,44,28,29,7,8,139,,96,96,6,14,3,3,0.2,0.3
2025-07-20T1500,2614A,100.1542,25.7054,大理白族自治州,大理市环境监测站,,35,,28,13,29,112,,71,71,5,15,5,5,0.3,0.5
2025-07-20T1500,2615A,100.2171,25.5811,大理白族自治州,大理古城,,33,9,22,3,17,104,,72,72,3,9,5,5,0.6,0.7
2025-07-20T1500,1109A,121.612,38.9741,大连市,甘井子,,,18,14,13,8,86,,78,71,12,13,7,7,,0.2
2025-07-20T1500,1110A,121.565,38.9511,大连市,周水子,,26,20,14,12,9,83,,72,61,9,9,4,2,0.3,0.3
2025-07-20T1500,1111A,121.5637,38.8845,大连市,星海三站,,25,15,15,10,9,79,,72,61,4,5,3,4,0.3,0.3
2025-07-20T1500,1112A,121.6302,38.9117,大连市,青泥洼桥,,27,14,12,10,8,85,,75,65,7,10,5,6,0.5,0.5
2025-07-20T1500,1113A,121.6251,38.8638,大连市,傅家庄,,25,19,15,14,10,77,,65,50,6,8,10,10,0.1,0.1
2025-07-20T1500,1114A,121.5213,38.8661,大连市,七贤岭,,32,17,14,8,10,102,,78,66,4,7,11,12,0.3,0.3
2025-07-20T1500,1115A,121.2529,38.8061,大连市,旅顺,,24,19,14,14,12,76,,60,46,9,12,4,4,0.2,0.3
2025-07-20T1500,1116A,121.7485,39.1311,大连市,金州,,23,16,10,11,6,71,,76,64,9,8,7,6,0.2,0.2
2025-07-20T1500,1117A,121.7811,39.0496,大连市,开发区,,21,17,14,10,7,65,,71,56,13,13,10,8,0.1,0.2
2025-07-20T1500,1118A,121.9762,39.0631,大连市,双D港,颗粒物(PM10),69,87,17,16,7,79,,68,62,5,6,9,8,0.4,0.3
2025-07-20T1500,1789A,124.81117,46.03138,大庆市,大同区,,24,19,20,3,10,74,,88,74,4,6,7,7,0.6,0.7
2025-07-20T1500,1790A,125.129,46.533,大庆市,龙凤区,,25,13,14,9,9,78,,88,78,6,9,4,5,0.5,0.6
2025-07-20T1500,1791A,124.902,46.408,大庆市,红岗区,,25,14,24,13,15,80,,84,78,4,6,6,6,0.5,0.6
2025-07-20T1500,1792A,125.153,46.586,大庆市,萨尔图区,,19,16,24,3,9,59,,71,60,8,8,10,9,0.4,0.4
2025-07-20T1500,1793A,124.9042,46.6215,大庆市,让胡路区,,,25,27,10,16,75,,86,76,3,6,,5,0.2,0.3
2025-07-20T1500,3481A,125.141,46.634,大庆市,萨区政府监测点,,27,16,26,3,6,84,,96,85,4,5,6,6,0.3,0.4
2025-07-20T1500,1721A,113.3819,40.1097,大同市,果树场,,30,,17,15,17,96,,80,80,3,12,6,6,0.3,0.4
2025-07-20T1500,1723A,113.2994,40.0758,大同市,云冈宾馆,,33,6,15,3,15,104,,88,88,6,12,5,6,0.4,0.7
2025-07-20T1500,1724A,113.3444,40.0917,大同市,大同大学,,32,6,15,6,12,101,,81,81,6,14,10,10,0.2,0.4
2025-07-20T1500,1725A,113.2661,40.1269,大同市,安家小村,,32,,15,3,6,100,,87,87,5,13,7,7,0.4,0.7
2025-07-20T1500,1726A,113.2711,40.0844,大同市,教育学院,,32,7,16,3,12,100,,85,85,9,14,7,7,0.4,0.5
2025-07-20T1500,3282A,113.3397,40.0597,大同市,大同市卫生学校,,32,6,18,3,13,100,,79,79,3,12,5,5,0.4,0.8
2025-07-20T1500,3565A,113.1367,40.1122,大同市,云冈站,,30,9,13,3,7,94,,82,82,6,9,2,4,0.4,0.6
2025-07-20T1500,3566A,113.1186,40.2556,大同市,图书馆,,30,9,19,3,9,93,,82,82,4,8,6,9,0.5,0.9
2025-07-20T1500,3567A,113.5931,40.0461,大同市,区一中,,32,10,19,3,14,101,,91,91,5,10,10,10,0.4,0.5
2025-07-20T1500,4199A,113.2798,40.0997,大同市,魏都大道141号,,35,19,18,9,14,109,,93,93,1,9,7,7,0.4,0.6
2025-07-20T1500,2269A,124.1069,50.4097,大兴安岭地区,科技局,,20,17,17,13,7,62,,85,74,2,4,7,7,0.3,0.4
2025-07-20T1500,3663A,124.1164,50.4278,大兴安岭地区,红旗社区,,20,6,1,3,6,62,,85,74,3,3,4,4,0.3,0.3
2025-07-20T1500,1600A,124.3303,40.0625,丹东市,江湾东路,,21,21,19,3,8,54,,75,64,7,8,4,13,0.6,0.8
2025-07-20T1500,1601A,124.4256,40.1503,丹东市,临江后街,,17,8,17,3,7,54,,71,66,4,7,7,7,0.6,0.7
2025-07-20T1500,1602A,124.3933,40.1461,丹东市,元宝山,,16,,9,3,8,51,,70,61,7,8,2,3,0.5,0.5
2025-07-20T1500,1603A,124.3633,40.1092,丹东市,民主桥,,15,8,11,3,7,48,,64,58,6,7,4,4,0.6,0.5
2025-07-20T1500,3541A,109.5726,19.5167,儋州市,第一中学子站,,25,8,13,3,5,77,,61,61,2,4,3,4,0.7,0.7
2025-07-20T1500,3542A,109.5567,19.5187,儋州市,东坡学校子站,,28,14,10,3,5,89,,70,70,2,4,5,5,0.5,0.5
2025-07-20T1500,2616A,98.5842,24.428,德宏傣族景颇族自治州,德宏州监测站,,29,24,24,17,15,90,,46,46,5,9,11,12,0.5,0.7
2025-07-20T1500,3677A,98.5881,24.4368,德宏傣族景颇族自治州,芒市人民政府综合楼,,43,43,34,15,17,96,,48,48,6,9,12,12,0.5,0.6
2025-07-20T1500,1901A,104.4239,31.1208,德阳市,东山公园,,28,28,12,13,10,89,,76,76,16,7,5,5,0.7,0.8
2025-07-20T1500,1902A,104.3826,31.1317,德阳市,西小区,,31,30,19,13,12,99,,81,81,4,12,6,6,0.7,0.8
2025-07-20T1500,1904A,104.3553,31.1091,德阳市,耐火材料厂,,31,22,17,14,13,97,,77,77,2,10,1,2,0.3,0.4
2025-07-20T1500,3639A,104.4019,31.1244,德阳市,市教育局,,31,27,16,11,12,99,,80,80,2,7,6,6,0.6,0.7
2025-07-20T1500,1622A,116.3032,37.4674,德州市,儿童乐园,,39,19,47,3,27,122,,145,145,8,14,7,11,0.6,0.6
2025-07-20T1500,1624A,116.2991,37.4451,德州市,监理站,,41,7,44,7,25,129,,146,146,7,14,8,12,0.5,0.5
2025-07-20T1500,3066A,116.2721,37.4379,德州市,九衢泉纯净水厂,,35,14,52,7,28,111,,130,130,20,19,5,6,0.7,0.7
2025-07-20T1500,3371A,116.3728,37.4403,德州市,开发区人民医院,,38,17,43,3,22,121,,139,139,10,15,7,10,0.9,0.8
2025-07-20T1500,3511A,116.5652,37.3319,德州市,陵城艺术中心,颗粒物(PM10),70,90,52,44,22,148,,150,150,12,14,9,8,0.4,0.3
2025-07-20T1500,4292A,116.3525,37.4209,德州市,新河东路,,39,24,44,12,25,123,,144,144,12,20,7,10,0.8,0.7
2025-07-20T1500,2621A,99.7056,27.8317,迪庆藏族自治州,迪庆州站,,33,10,19,7,13,103,,74,74,5,9,8,10,0.2,0.3
2025-07-20T1500,3180A,99.7136,27.8094,迪庆藏族自治州,质量技术监督局,,33,15,18,3,9,105,,73,73,9,12,7,7,0.4,0.4
2025-07-20T1500,4257A,104.6092,35.5962,定西市,将台街,,40,23,32,8,15,128,,117,117,1,7,8,8,0,0.1
2025-07-20T1500,4309A,104.6159,35.5701,定西市,正龙路62号,,39,20,31,9,18,123,,105,105,2,3,3,4,0.2,0.3
2025-07-20T1500,1389A,113.7547,23.0494,东莞市,莞城梨川,,17,,14,3,11,52,,42,42,4,11,8,9,0.4,0.5
2025-07-20T1500,1390A,113.7944,23.0128,东莞市,东城石井,,15,6,15,3,7,48,,40,40,4,11,2,2,0.5,0.6
2025-07-20T1500,1391A,113.7383,22.9658,东莞市,南城西平,,15,7,16,3,7,47,,41,41,8,15,4,5,0.6,0.6
2025-07-20T1500,3319A,113.7338,23.0381,东莞市,万江金泰,,15,7,16,3,8,46,,35,35,3,10,3,4,0.7,0.8
2025-07-20T1500,3626A,113.7533,23.0202,东莞市,南城元岭,,16,6,15,3,8,51,,42,42,5,12,4,5,0.4,0.5
2025-07-20T1500,3627A,113.7875,23.0457,东莞市,东城主山,,18,9,22,3,8,55,,43,43,1,9,3,4,0.3,0.4
2025-07-20T1500,1666A,118.6614,37.4309,东营市,市环保局,,46,27,28,17,14,147,,109,109,15,19,8,11,0.4,0.4
2025-07-20T1500,3036A,118.6904,37.4338,东营市,开发区管委会,,47,30,30,14,12,148,,116,116,12,15,6,8,0.4,0.5
2025-07-20T1500,3365A,118.5719,37.565,东营市,垦利区民丰路,臭氧1小时,74,29,32,9,12,179,,136,136,11,16,7,7,0.6,0.6
2025-07-20T1500,3498A,118.5055,37.8612,东营市,河口城区,臭氧1小时,90,51,32,29,13,192,,149,149,15,15,12,10,0.7,0.6
2025-07-20T1500,3646A,118.4978,37.4623,东营市,胜利站,臭氧1小时,65,46,39,19,14,172,,132,132,16,23,6,6,0.5,0.6
2025-07-20T1500,3734A,118.35,37.26,东营市,理想之城,臭氧1小时,65,31,30,19,16,172,,126,126,16,18,12,10,0.6,0.5
2025-07-20T1500,1591A,110.0023,39.8129,鄂尔多斯市,综合楼,,,7,16,,2,118,,101,101,6,13,5,7,0.4,0.4
2025-07-20T1500,1592A,109.9486,39.8261,鄂尔多斯市,巴音孟克林场办事处,,41,24,23,7,7,129,,102,102,6,17,4,4,0.5,0.4
2025-07-20T1500,1593A,109.7736,39.5986,鄂尔多斯市,康泽苑,,40,24,17,3,3,127,,106,106,5,8,4,4,0.3,0.3
2025-07-20T1500,1594A,109.8119,39.5989,鄂尔多斯市,华泰汽车城,,40,19,16,9,5,126,,101,101,6,10,6,6,0.4,0.5
2025-07-20T1500,1595A,109.9734,39.7884,鄂尔多斯市,奥林花园,,39,12,18,12,11,122,,100,100,6,15,7,7,0.7,0.8
2025-07-20T1500,2436A,114.8938,30.3994,鄂州市,市政府,,21,7,28,3,16,66,,63,63,4,11,3,3,0.5,0.6
2025-07-20T1500,2437A,114.8989,30.3714,鄂州市,赵家坝,,24,12,29,3,10,76,,69,69,2,6,7,7,0.4,0.5
2025-07-20T1500,3654A,114.8094,30.4089,鄂州市,精准医疗中心,,23,9,25,3,10,72,,69,69,2,14,4,4,0.4,0.6
2025-07-20T1500,2454A,109.4978,30.2981,恩施土家族苗族自治州,湖北民院,,47,21,26,9,18,149,,132,132,2,5,5,5,0.5,0.6
2025-07-20T1500,2455A,109.4707,30.2798,恩施土家族苗族自治州,州电力总公司,,45,,22,15,15,141,,122,122,2,6,8,8,0.6,0.6
2025-07-20T1500,3549A,109.5061,30.3772,恩施土家族苗族自治州,龙凤新区,,,14,19,,13,134,,126,126,2,4,4,4,0.4,0.5
2025-07-20T1500,2499A,108.3411,21.6158,防城港市,沙万,,29,28,24,15,8,92,,74,73,4,9,3,2,0.6,0.6
2025-07-20T1500,2500A,108.3514,21.7731,防城港市,防城档案局,,31,31,22,19,11,83,,63,63,7,8,3,2,0.6,0.6
2025-07-20T1500,2501A,108.3506,21.6414,防城港市,大海花园,,32,31,17,12,12,101,,78,78,3,6,3,4,0.6,0.6
2025-07-20T1500,1371A,113.1294,23.0067,佛山市,湾梁,,15,7,17,3,10,46,,30,30,7,14,5,5,0.6,0.7
2025-07-20T1500,1372A,113.1083,23.0478,佛山市,华材职中,,16,9,16,3,11,51,,32,32,1,11,7,8,0.5,0.6
2025-07-20T1500,1373A,113.144,23.0453,佛山市,南海气象局,,15,15,17,6,11,43,,29,29,4,12,3,3,0.5,0.6
2025-07-20T1500,1374A,113.2881,22.8094,佛山市,顺德苏岗,,15,14,17,3,7,45,,30,30,6,15,7,7,0.4,0.5
2025-07-20T1500,1376A,112.8383,22.8678,佛山市,高明孔堂,,17,14,23,7,14,52,,33,33,9,15,6,8,0.6,0.8
2025-07-20T1500,1377A,112.8836,23.1588,佛山市,三水监测站,,16,12,16,7,11,51,,35,35,7,14,3,4,0.5,0.6
2025-07-20T1500,1378A,112.867,23.185,佛山市,三水云东海,,17,12,22,3,11,53,,34,34,7,16,1,2,0.4,0.6
2025-07-20T1500,3625A,113.2544,22.7642,佛山市,容桂街道办,,17,9,13,3,8,52,,33,33,6,17,5,5,0.4,0.5
2025-07-20T1500,1280A,119.3903,26.0543,福州市,鼓山,,,,,,,,,,,,,,,,
2025-07-20T1500,1282A,119.2681,26.0504,福州市,师大,,16,16,14,3,2,43,,42,42,2,2,4,4,0.3,0.2
2025-07-20T1500,1283A,119.2984,26.1028,福州市,五四北路,,16,16,17,3,2,40,,42,42,9,5,3,3,0.2,0.2
2025-07-20T1500,1284A,119.2648,26.0768,福州市,杨桥西路,,19,19,15,3,2,44,,42,42,6,4,3,3,0.2,0.2
2025-07-20T1500,1285A,119.317,26.0746,福州市,紫阳,,15,15,16,3,1,41,,38,38,4,4,4,4,0.1,0.1
2025-07-20T1500,3048A,119.5799,26.0936,福州市,九龙,,22,22,24,7,6,60,,58,58,2,2,4,4,0.2,0.2
2025-07-20T1500,3526A,119.5189,25.9664,福州市,吴航,,21,21,24,6,5,55,,52,52,1,2,5,4,0.3,0.4
2025-07-20T1500,1755A,123.7977,41.8491,抚顺市,望花区,,34,34,28,12,12,79,,96,95,15,18,6,8,0.6,0.7
2025-07-20T1500,1756A,123.9161,41.8822,抚顺市,顺城区,,35,35,27,12,11,89,,100,100,13,13,5,5,0.7,0.8
2025-07-20T1500,1757A,124.0436,41.8611,抚顺市,东洲区,,28,16,16,12,9,88,,96,96,13,11,7,6,0.6,0.6
2025-07-20T1500,1758A,123.9247,41.8642,抚顺市,新抚区,,35,35,26,13,11,87,,94,94,12,12,6,6,0.7,0.7
2025-07-20T1500,1759A,124.0972,41.8961,抚顺市,大伙房水库,,28,19,14,8,8,87,,95,95,11,8,7,7,0.6,0.5
2025-07-20T1500,1760A,123.7086,41.8391,抚顺市,沈抚新城,,24,19,24,12,12,75,,94,94,12,15,4,7,0.6,0.8
2025-07-20T1500,2376A,116.2127,28.0814,抚州市,桐源党溪,,28,28,21,12,9,64,,45,45,2,3,5,6,0.5,0.4
2025-07-20T1500,2377A,116.3544,27.9831,抚州市,市站,,31,26,21,11,6,99,,50,50,1,4,8,6,0.2,0.3
2025-07-20T1500,2378A,116.3565,27.963,抚州市,血防站,,29,19,21,6,8,91,,50,50,2,5,8,9,0.4,0.4
2025-07-20T1500,2379A,116.3564,28.0007,抚州市,采茶剧团,,32,29,19,10,6,100,,54,54,2,2,15,10,0.7,0.6
2025-07-20T1500,2380A,116.385,27.9647,抚州市,医学分院,,32,23,24,8,8,100,,57,57,2,2,8,9,0.7,0.7
2025-07-20T1500,2207A,121.6094,41.998,阜新市,工业园区,,24,9,24,6,11,75,,87,67,9,10,2,4,0.3,0.4
2025-07-20T1500,2208A,121.6697,42.0279,阜新市,长青街,,18,7,15,3,10,57,,87,58,7,8,5,6,0.4,0.5
2025-07-20T1500,2209A,121.6673,42.0705,阜新市,农业园区,,21,14,21,3,4,66,,90,60,7,8,2,3,0.7,0.7
2025-07-20T1500,2210A,121.6717,42.0224,阜新市,东苑,,23,10,22,7,12,72,,87,65,8,9,3,6,0.3,0.4
2025-07-20T1500,2211A,121.6506,42.0498,阜新市,玉龙新城,,19,9,23,3,8,58,,79,54,6,9,3,5,0.5,0.6
2025-07-20T1500,2301A,115.8277,32.8929,阜阳市,市监测站,,27,26,29,10,15,84,,60,60,4,9,2,2,0.2,0.3
2025-07-20T1500,2303A,115.8554,32.8605,阜阳市,开发区,,37,23,27,9,11,118,,82,82,6,11,7,6,0.2,0.3
2025-07-20T1500,2875A,115.784,32.8892,阜阳市,阜阳职业技术学院,,37,19,23,3,12,118,,89,89,1,6,4,4,0.3,0.4
2025-07-20T1500,3468A,115.7901,32.8613,阜阳市,市规划展馆,,37,23,31,3,16,116,,85,85,5,9,3,2,0.1,0.2
2025-07-20T1500,3469A,115.836,32.9183,阜阳市,枣园社区,,34,16,27,3,15,107,,80,80,6,11,2,2,0.4,0.4
2025-07-20T1500,2669A,102.9099,34.9841,甘南藏族自治州,州政府,,35,16,12,14,15,109,,105,105,8,7,1,1,0.2,0.2
2025-07-20T1500,3380A,102.8914,34.9617,甘南藏族自治州,甘肃民族师范学院,,37,14,18,3,8,117,,110,110,2,3,8,8,0.2,0.3
2025-07-20T1500,2570A,101.9603,30.0475,甘孜藏族自治州,水桥子,,34,11,9,7,6,107,,72,72,5,14,5,5,0.5,0.5
2025-07-20T1500,3065A,101.9533,29.9972,甘孜藏族自治州,州环保局,,35,13,14,3,5,112,,83,83,4,13,6,6,0.3,0.3
2025-07-20T1500,3414A,115.8347,28.932,赣江新区,桑海产业园,,20,9,15,3,6,61,,52,52,2,6,9,8,0.2,0.3
2025-07-20T1500,2362A,114.9017,25.9149,赣州市,通天岩,,13,13,11,8,8,38,,36,36,3,4,10,11,0.1,0.2
2025-07-20T1500,2363A,114.9367,25.8664,赣州市,地委,,18,14,13,3,5,55,,42,42,5,5,3,7,0.9,0.9
2025-07-20T1500,2364A,114.9461,25.8481,赣州市,气象台,,17,16,14,7,3,53,,43,43,4,4,8,8,0.5,0.4
2025-07-20T1500,2365A,114.9322,25.8333,赣州市,市图书馆,,17,11,9,3,4,54,,43,43,3,3,4,4,0.4,0.4
2025-07-20T1500,2366A,114.8905,25.8471,赣州市,华坚鞋城,,16,13,18,3,6,51,,37,37,11,8,4,4,0.4,0.4
2025-07-20T1500,3109A,115.0093,25.8613,赣州市,赣县区卫计委,,16,6,12,3,5,50,,41,41,4,4,3,3,0.4,0.4
2025-07-20T1500,2683A,106.2319,36.1417,固原市,马园,,38,22,40,6,18,121,,93,93,4,15,7,6,0.4,0.5
2025-07-20T1500,2684A,106.2792,36.0022,固原市,监测站,,40,21,35,14,14,125,,103,103,2,8,6,6,0.2,0.2
2025-07-20T1500,2685A,106.2375,36.0211,固原市,新区,,38,24,30,11,8,119,,98,98,3,8,7,7,0.4,0.4
2025-07-20T1500,3522A,106.2177,35.9959,固原市,原州区十五小,,38,22,34,11,15,121,,108,108,2,6,10,9,0.3,0.3
2025-07-20T1500,2543A,106.6308,30.5278,广安市,小平旧居,,,,,,,,,,,,,,,,
2025-07-20T1500,2544A,106.6303,30.4576,广安市,市委,,32,22,32,14,18,102,,91,91,10,15,9,8,0.4,0.5
2025-07-20T1500,2545A,106.6271,30.4663,广安市,友谊中学,,33,22,30,10,17,103,,98,98,11,15,5,4,0.8,0.8
2025-07-20T1500,2547A,106.6388,30.4551,广安市,广电花园,,29,,28,10,18,92,,85,85,9,15,3,7,0.5,0.6
2025-07-20T1500,2902A,106.6351,30.4865,广安市,北辰小学,,34,20,30,14,18,107,,103,103,6,10,5,4,0.4,0.5
2025-07-20T1500,2523A,105.8945,32.4535,广元市,黑石坡,,24,14,34,3,14,75,,75,75,6,8,7,7,0.3,0.3
2025-07-20T1500,2524A,105.821,32.4444,广元市,老城,,30,12,23,8,8,96,,94,94,9,13,5,7,0.5,0.6
2025-07-20T1500,2526A,105.8628,32.4287,广元市,监测站,,27,12,20,8,10,85,,87,87,6,7,10,10,0.6,0.7
2025-07-20T1500,3617A,105.8047,32.4166,广元市,经开区,,27,12,30,3,16,85,,83,83,9,11,4,5,0.5,0.6
2025-07-20T1500,1345A,113.2347,23.1423,广州市,广雅中学,,15,15,23,3,10,46,,30,30,7,16,2,3,0.5,0.5
2025-07-20T1500,1346A,113.2612,23.105,广州市,市五中,,16,6,17,3,9,49,,33,33,5,12,3,5,0.5,0.6
2025-07-20T1500,1348A,113.3478,23.0916,广州市,广东商学院,,16,8,15,3,9,51,,38,38,4,12,2,3,0.5,0.5
2025-07-20T1500,1349A,113.4332,23.1047,广州市,市八十六中,,14,14,21,3,9,40,,29,29,7,16,2,3,0.3,0.3
2025-07-20T1500,1350A,113.3505,22.9483,广州市,番禺中学,,16,8,17,3,10,50,,36,36,6,14,5,6,0.4,0.4
2025-07-20T1500,1351A,113.2146,23.3916,广州市,花都师范,,19,8,16,3,8,60,,44,44,6,11,2,5,0.4,0.5
2025-07-20T1500,1352A,113.2597,23.1331,广州市,市监测站,,15,9,17,3,9,48,,33,33,4,11,6,7,0.4,0.4
2025-07-20T1500,1353A,113.5618,23.312,广州市,九龙镇镇龙,,16,8,15,3,9,51,,38,38,5,8,6,6,0.4,0.4
2025-07-20T1500,1354A,113.2765,23.1544,广州市,麓湖,,15,8,17,3,8,45,,30,30,4,15,1,3,0.6,0.7
2025-07-20T1500,1355A,113.443,23.3035,广州市,帽峰山森林公园,,16,,11,8,6,51,,40,40,12,15,4,5,0.2,0.3
2025-07-20T1500,2846A,113.3221,23.1322,广州市,体育西,,15,7,20,3,9,47,,32,32,6,13,4,5,0.5,0.6
2025-07-20T1500,3298A,113.5717,23.5491,广州市,从化街口,,17,6,13,3,7,52,,37,37,4,7,5,5,0.5,0.5
2025-07-20T1500,3299A,113.3472,23.3692,广州市,白云竹料,,15,6,16,3,9,48,,37,37,3,6,3,4,0.4,0.5
2025-07-20T1500,3300A,113.2981,23.237,广州市,白云嘉禾,,15,9,20,3,9,46,,32,32,8,14,5,6,0.5,0.6
2025-07-20T1500,3301A,113.4256,23.1716,广州市,黄埔科学城,,15,7,15,3,8,46,,36,36,2,8,2,2,0.6,0.6
2025-07-20T1500,3302A,113.3942,23.0483,广州市,番禺大学城,,22,22,23,3,10,48,,37,37,7,15,6,6,0.4,0.4
2025-07-20T1500,3303A,113.4922,22.8168,广州市,南沙黄阁,,17,6,17,3,8,54,,42,42,11,17,4,5,0.1,0.2
2025-07-20T1500,3304A,113.5342,22.7896,广州市,南沙街,,18,8,16,3,8,55,,42,42,5,12,4,4,0.4,0.4
2025-07-20T1500,3443A,113.2902,23.5544,广州市,花都梯面,,19,8,14,3,8,59,,43,43,3,8,5,7,0.5,0.5
2025-07-20T1500,3445A,113.7858,23.7478,广州市,从化良口,,18,7,11,3,6,55,,45,45,2,4,4,4,0.4,0.4
2025-07-20T1500,3446A,113.8051,23.2614,广州市,增城荔城,,15,6,14,3,7,48,,38,38,3,6,7,7,0.2,0.3
2025-07-20T1500,2505A,109.568,23.1478,贵港市,德智高中,,,,,,,,,,,,,,,,
2025-07-20T1500,2506A,109.6047,23.0666,贵港市,江南子站,,33,24,20,19,20,103,,80,80,4,10,7,6,0.6,0.6
2025-07-20T1500,2508A,109.5669,23.1065,贵港市,荷城子站,,29,22,21,9,10,91,,78,78,4,12,8,7,0.4,0.4
2025-07-20T1500,3405A,109.5886,23.1172,贵港市,新世纪学校,,36,29,23,25,15,97,,86,86,9,13,1,6,0.4,0.4
2025-07-20T1500,4260A,109.5933,23.0951,贵港市,中山路155-3号,,33,23,26,18,17,104,,88,88,4,9,3,3,0.5,0.5
2025-07-20T1500,1439A,106.6899,26.5998,贵阳市,马鞍山,,35,12,18,3,6,109,,88,88,4,8,4,4,0.3,0.3
2025-07-20T1500,1441A,106.6243,26.6266,贵阳市,鉴湖路,,38,22,25,7,10,121,,96,96,6,8,6,4,0.2,0.3
2025-07-20T1500,1442A,106.7487,26.6343,贵阳市,燕子冲,,33,17,19,17,23,105,,103,103,18,16,8,8,0.1,0.1
2025-07-20T1500,1443A,106.6555,26.4365,贵阳市,碧云窝,,36,36,34,12,13,107,,114,114,7,9,3,4,0.3,0.5
2025-07-20T1500,1445A,106.7109,26.6027,贵阳市,红边门,,35,17,23,14,16,110,,106,106,11,11,14,4,0,0.1
2025-07-20T1500,1446A,106.7164,26.5699,贵阳市,新华路,,34,22,31,12,16,107,,110,110,8,11,48,20,0.3,0.4
2025-07-20T1500,1447A,106.674,26.5424,贵阳市,太慈桥,,36,12,18,3,12,115,,110,110,6,12,4,4,0.2,0.3
2025-07-20T1500,1552A,106.805,26.3003,贵阳市,桐木岭,,46,46,37,24,23,99,,115,115,7,8,16,14,1.1,1.1
2025-07-20T1500,4230A,106.6882,26.5695,贵阳市,花果园大街66号,,37,,14,10,16,117,,111,111,5,9,5,4,0.4,0.4
2025-07-20T1500,4231A,106.6873,26.5169,贵阳市,漓江路57号,,34,17,22,7,13,108,,107,107,5,8,4,4,0.3,0.4
2025-07-20T1500,1862A,110.4144,25.3167,桂林市,电子科大尧山校区,,,,,,,,,,,,,,,,
2025-07-20T1500,1864A,110.3089,25.2708,桂林市,龙隐路小学,,34,34,32,16,17,78,,103,85,1,3,8,9,0.4,0.4
2025-07-20T1500,1865A,110.2869,25.2178,桂林市,八中,,27,27,30,18,18,81,,110,89,6,8,6,7,0.5,0.6
2025-07-20T1500,3531A,110.296,25.1253,桂林市,旅游学院,,27,19,21,14,16,84,,110,90,3,4,3,3,0.4,0.4
2025-07-20T1500,4222A,110.1835,25.2444,桂林市,环湖路276号,,24,24,31,12,21,67,,94,76,4,7,9,7,0.4,0.5
2025-07-20T1500,4301A,110.2803,25.2773,桂林市,信义路13号,,34,34,34,22,16,82,,110,89,6,8,4,4,0.7,0.7
2025-07-20T1500,2674A,100.2561,34.4714,果洛藏族自治州,玛沁县大武镇,,28,10,22,6,12,88,,81,78,2,1,18,18,0.3,0.3
2025-07-20T1500,1129A,126.5422,45.755,哈尔滨市,岭北,,,6,20,3,14,87,,85,75,,17,,8,0.2,0.4
2025-07-20T1500,1130A,126.561,45.8167,哈尔滨市,松北商大,,21,,40,3,12,66,,77,59,6,12,8,8,0.6,0.7
2025-07-20T1500,1131A,126.979,45.5419,哈尔滨市,阿城会宁,,27,12,22,6,14,86,,73,73,7,11,3,4,0.4,0.5
2025-07-20T1500,1132A,126.599,45.7222,哈尔滨市,南岗学府路,,25,16,30,3,10,78,,69,61,5,15,6,6,0.6,0.7
2025-07-20T1500,1133A,126.689,45.7733,哈尔滨市,太平宏伟公园,,23,,27,9,11,72,,65,59,8,16,6,6,0.6,0.7
2025-07-20T1500,1134A,126.635,45.7667,哈尔滨市,道外承德广场,,23,23,38,7,11,58,,67,52,19,15,6,6,0.7,0.7
2025-07-20T1500,1135A,126.685,45.7319,哈尔滨市,香坊红旗大街,,24,9,22,3,16,76,,63,60,9,22,3,4,0.7,0.7
2025-07-20T1500,1136A,126.6411,45.7258,哈尔滨市,动力和平路,,,8,35,,,82,,71,64,7,18,4,5,0.4,0.6
2025-07-20T1500,1137A,126.593,45.7478,哈尔滨市,道里建国路,,23,,27,9,10,71,,77,57,10,17,5,5,0.4,1.4
2025-07-20T1500,1138A,126.615,45.61,哈尔滨市,平房东轻厂,,,,28,6,9,69,,62,57,6,13,8,8,0.4,0.5
2025-07-20T1500,1139A,126.595,45.9855,哈尔滨市,呼兰师专,,25,,23,3,10,80,,86,68,4,15,7,7,0.5,0.7
2025-07-20T1500,1140A,126.6206,45.6842,哈尔滨市,省农科院,颗粒物(PM10),53,55,37,7,25,71,,64,59,10,27,8,8,0.5,0.6
2025-07-20T1500,2688A,93.5128,42.8172,哈密市,地区监测站,,44,,62,19,26,139,,119,119,3,17,5,5,0.1,0.2
2025-07-20T1500,2689A,93.4961,42.8328,哈密市,哈密师范学校,,44,14,66,3,21,139,,107,107,3,29,4,4,0.2,0.3
2025-07-20T1500,2671A,100.9048,36.9639,海北藏族自治州,海晏县西海镇,,46,10,14,10,13,145,,128,128,1,2,8,8,0.3,0.4
2025-07-20T1500,3867A,102.0738,36.5056,海东市,平安区公安北苑,,50,27,20,7,8,160,,115,115,2,6,11,8,0.6,0.6
2025-07-20T1500,1409A,110.576,19.9507,海口市,东寨港,,22,10,14,10,9,70,,56,56,4,7,4,4,0.4,0.4
2025-07-20T1500,1410A,110.3232,20.0574,海口市,海南大学,,29,13,13,3,5,90,,81,81,4,7,2,2,0.4,0.4
2025-07-20T1500,1411A,110.283,20.0053,海口市,秀英海南医院,,25,6,12,3,7,80,,71,71,7,9,5,5,0.4,0.4
2025-07-20T1500,1412A,110.338,19.9969,海口市,海南师范大学,,26,6,12,3,7,81,,72,72,7,10,4,4,0.4,0.4
2025-07-20T1500,1413A,110.33,20.0356,海口市,龙华路环保局宿舍,,27,9,10,3,6,84,,76,76,8,9,5,5,0.3,0.3
2025-07-20T1500,3539A,110.5111,19.9736,海口市,桂林洋子站,,,6,15,3,8,80,,68,68,,17,4,4,0.3,0.3
2025-07-20T1500,2673A,100.6188,36.2866,海南藏族自治州,共和县恰卜恰镇,,45,15,20,3,4,144,,129,129,2,3,10,11,0.4,0.4
2025-07-20T1500,2676A,97.3731,37.3753,海西蒙古族藏族自治州,德令哈市,,46,27,16,9,10,146,,136,136,10,4,21,18,0.7,0.6
2025-07-20T1500,1048A,114.5302,36.6116,邯郸市,东污水处理厂,,35,35,58,12,20,101,,110,110,16,12,3,4,0.7,0.6
2025-07-20T1500,1049A,114.4918,36.5713,邯郸市,矿院,,45,45,42,19,25,117,,116,116,11,12,4,6,0.6,0.6
2025-07-20T1500,1050A,114.484,36.6133,邯郸市,丛台公园,,48,48,45,6,24,125,,119,118,8,11,4,5,0.6,0.6
2025-07-20T1500,3458A,114.7895,36.5593,邯郸市,香泉濮院小区,,37,17,63,3,13,116,,117,117,7,11,2,2,0.4,0.5
2025-07-20T1500,3579A,114.50634,36.77178,邯郸市,永年区实验高中,,36,33,55,16,31,114,,127,108,14,13,2,4,0.4,0.5
2025-07-20T1500,3580A,114.20016,36.44293,邯郸市,峰峰矿区临水派出所,,,31,52,,15,137,,139,139,6,9,10,9,0.2,0.6
2025-07-20T1500,2634A,106.9893,33.1842,汉中市,汉川机床厂子校,,34,34,29,14,12,74,,59,59,8,10,4,4,0.5,0.4
2025-07-20T1500,2635A,107.0154,33.0706,汉中市,市监测站,,24,18,18,8,9,76,,50,50,6,8,5,7,0.6,0.7
2025-07-20T1500,2636A,107.0089,33.1138,汉中市,鑫源开发区,,26,9,24,9,12,82,,49,49,5,13,6,6,0.4,0.5
2025-07-20T1500,2637A,107.007,33.0323,汉中市,南郑大河坎水厂,,25,23,20,7,11,80,,53,53,6,11,7,11,0.5,0.6
2025-07-20T1500,1223A,120.2072,30.2111,杭州市,滨江,,21,9,10,6,7,65,,48,48,9,13,6,6,0.3,0.3
2025-07-20T1500,1224A,120.0633,30.2747,杭州市,西溪,,21,14,12,6,5,66,,48,48,8,11,4,4,0.2,0.2
2025-07-20T1500,1226A,120.3417,30.3150,杭州市,下沙,,18,17,16,6,6,57,,49,49,7,13,5,5,0.2,0.2
2025-07-20T1500,1227A,120.1269,30.2456,杭州市,卧龙桥,,18,14,15,7,5,56,,42,42,3,6,7,7,0.3,0.3
2025-07-20T1500,1228A,120.1903,30.2692,杭州市,浙江农大,,19,18,11,8,8,58,,46,46,9,13,5,5,0.3,0.3
2025-07-20T1500,1230A,120.1197,30.3119,杭州市,和睦小学,,22,16,14,9,8,69,,50,50,6,13,4,4,0.4,0.4
2025-07-20T1500,1231A,120.3019,30.4183,杭州市,临平镇,,21,18,17,3,6,65,,51,51,2,8,5,6,0.3,0.3
2025-07-20T1500,1232A,120.2753,30.1839,杭州市,城厢镇,,19,17,19,6,7,60,,45,45,2,7,6,6,0.4,0.4
2025-07-20T1500,1233A,120.0883,30.1808,杭州市,云栖,,17,12,15,3,6,54,,48,48,10,11,8,7,0.4,0.4
2025-07-20T1500,3557A,119.9464,30.0494,杭州市,镇二中,,16,13,10,8,7,51,,40,40,13,9,3,3,0.4,0.4
2025-07-20T1500,3558A,119.7183,30.2367,杭州市,市府大楼,,28,19,14,6,5,89,,55,55,7,10,7,7,0.3,0.3
2025-07-20T1500,3656A,120.1556,30.2864,杭州市,消防大队,,25,25,18,9,7,64,,48,48,7,13,7,7,0.4,0.4
2025-07-20T1500,1270A,117.1959,31.7848,合肥市,明珠广场,,28,17,22,7,10,87,,61,61,5,12,6,6,0.3,0.5
2025-07-20T1500,1271A,117.3072,31.8764,合肥市,三里街,,26,19,22,3,11,82,,59,59,4,13,4,5,0.3,0.4
2025-07-20T1500,1272A,117.2588,31.8707,合肥市,琥珀山庄,,28,19,25,7,11,88,,63,63,6,12,8,8,0.6,0.7
2025-07-20T1500,1273A,117.1604,31.9052,合肥市,董铺水库,,26,14,23,3,10,81,,56,56,2,7,5,5,0.2,0.3
2025-07-20T1500,1274A,117.25,31.8571,合肥市,长江中路,,26,24,27,8,14,82,,62,62,4,11,6,6,0.3,0.4
2025-07-20T1500,1275A,117.266,31.9436,合肥市,庐阳区,,28,27,24,9,11,88,,65,65,2,9,9,10,0.4,0.5
2025-07-20T1500,1276A,117.3453,31.8616,合肥市,瑶海区,,25,14,24,3,8,80,,60,60,5,12,6,6,0.5,0.7
2025-07-20T1500,1277A,117.3027,31.7964,合肥市,包河区,,25,14,23,3,10,80,,61,61,5,20,5,6,0.5,0.7
2025-07-20T1500,1278A,117.2776,31.7385,合肥市,滨湖新区,,27,14,23,12,15,84,,63,63,2,8,7,8,0.3,0.4
2025-07-20T1500,1279A,117.1318,31.8403,合肥市,高新区,,27,27,23,7,10,83,,61,61,4,11,5,5,0.3,0.4
2025-07-20T1500,3464A,117.3803,31.9147,合肥市,高教基地,,25,17,21,11,12,78,,59,59,4,11,5,5,0.4,0.5
2025-07-20T1500,3614A,79.924,37.0877,和田地区,地区环保局,颗粒物(PM10),192,334,339,112,103,116,,81,81,10,16,3,3,0.9,0.9
2025-07-20T1500,3615A,79.9131,37.113,和田地区,市环保局,颗粒物(PM10),158,266,329,101,101,119,,60,60,14,24,2,2,0.3,0.4
2025-07-20T1500,2516A,108.2011,24.715,河池市,东仁乐园,,,,,,,,,,,,,,,,
2025-07-20T1500,2517A,108.0497,24.6947,河池市,市环保站,,30,28,26,15,16,93,,102,102,4,6,4,4,0.6,0.6
2025-07-20T1500,2518A,108.0983,24.6989,河池市,市疾控中心,,33,17,26,15,17,103,,118,116,5,11,3,4,0.7,0.7
2025-07-20T1500,1696A,114.6778,23.7569,河源市,源西,,6,6,11,3,2,14,,12,12,5,5,3,3,0.6,0.6
2025-07-20T1500,1697A,114.6944,23.7586,河源市,东埔,,19,8,8,3,9,60,,48,48,5,6,4,4,0.4,0.4
2025-07-20T1500,1698A,114.6892,23.7233,河源市,老城,,18,6,13,6,5,55,,46,46,4,4,4,4,0.4,0.4
2025-07-20T1500,1718A,115.4208,35.2464,菏泽市,气象局,,49,35,44,20,26,155,,129,129,5,11,2,3,0.4,0.4
2025-07-20T1500,3374A,115.5564,35.0891,菏泽市,定陶老年大学,,40,29,39,17,21,128,,111,111,7,13,1,2,0.3,0.3
2025-07-20T1500,4184A,115.4797,35.24401,菏泽市,永昌路1号,,47,35,43,24,26,150,,123,123,6,17,4,5,0.2,0.2
2025-07-20T1500,4193A,115.4715,35.2800,菏泽市,长城路999号,,48,31,41,17,19,152,,128,128,5,12,5,5,0.5,0.5
2025-07-20T1500,2514A,111.5264,24.4172,贺州市,环保小区,,24,24,28,10,23,65,,68,68,6,7,14,13,0.6,0.7
2025-07-20T1500,2515A,111.5608,24.4078,贺州市,政协大楼,,20,11,25,3,15,63,,68,68,6,8,13,13,0.5,0.6
2025-07-20T1500,3534A,111.4744,24.4553,贺州市,西湾,,21,21,22,12,18,60,,62,62,5,7,7,6,0.4,0.4
2025-07-20T1500,2385A,114.17,35.9019,鹤壁市,市监测站,细颗粒物(PM2.5),59,46,58,42,38,144,,142,142,11,12,8,6,1.1,0.8
2025-07-20T1500,2386A,114.2956,35.7511,鹤壁市,市交警支队,细颗粒物(PM2.5),60,67,57,43,35,159,,145,145,15,18,8,5,1.5,1
2025-07-20T1500,2387A,114.2878,35.7306,鹤壁市,迎宾馆,细颗粒物(PM2.5),73,84,64,53,38,161,,140,140,16,18,6,4,1.2,0.7
2025-07-20T1500,3474A,114.2617,35.6822,鹤壁市,大新区,臭氧1小时,65,65,56,32,34,172,,144,144,9,19,9,7,1.0,0.6
2025-07-20T1500,3596A,114.1572,35.9603,鹤壁市,南山宾馆,颗粒物(PM10),55,59,65,29,34,152,,144,144,9,11,5,4,1.0,0.6
2025-07-20T1500,2244A,130.2537,47.3416,鹤岗市,哈啤分公司,,34,32,23,9,12,108,,80,80,9,17,12,11,0.6,0.5
2025-07-20T1500,2245A,130.2684,47.3086,鹤岗市,斯达机电,,40,40,31,11,10,98,,74,74,7,17,11,12,0.6,0.6
2025-07-20T1500,2246A,130.3114,47.3388,鹤岗市,东山纸板厂,颗粒物(PM10),51,52,29,7,14,90,,53,53,9,21,10,12,0.5,1.2
2025-07-20T1500,2247A,130.1097,47.3382,鹤岗市,五号水库,,30,6,7,3,5,94,,71,71,10,15,9,8,0.2,0.2
2025-07-20T1500,2263A,127.4833,50.2524,黑河市,交通局,,25,16,18,6,7,77,,67,67,6,10,7,6,0.3,0.5
2025-07-20T1500,2264A,127.5144,50.2341,黑河市,环保局,,27,14,19,3,11,84,,73,73,6,10,4,4,0.3,0.3
2025-07-20T1500,2265A,127.5291,50.2472,黑河市,大黑河岛,,,,3,15,10,47,,49,49,7,9,30,30,,
2025-07-20T1500,1074A,115.6838,37.7541,衡水市,电机北厂,,28,8,57,3,32,89,,121,93,8,12,7,6,0.4,0.5
2025-07-20T1500,1075A,115.6303,37.7316,衡水市,市监测站,,29,26,72,3,25,92,,114,96,10,11,8,10,0.4,0.4
2025-07-20T1500,3188A,115.6683,37.7217,衡水市,市城管局,,,6,50,3,31,93,,114,102,12,17,1,11,,0.5
2025-07-20T1500,3459A,115.5989,37.5491,衡水市,地表水厂,,38,17,62,3,21,121,,110,110,3,17,6,8,0.3,0.4
2025-07-20T1500,2456A,112.5003,26.9167,衡阳市,原169医院,,26,12,27,3,13,81,,99,76,3,7,4,4,0.4,0.5
2025-07-20T1500,2457A,112.6194,26.9258,衡阳市,衡阳化工总厂,,23,14,30,3,17,73,,80,67,3,6,3,4,0.5,0.7
2025-07-20T1500,2458A,112.6211,26.8956,衡阳市,珠晖区环保局,,19,16,27,12,17,60,,82,66,10,8,4,4,0.3,0.5
2025-07-20T1500,2459A,112.6197,26.8733,衡阳市,市委党校,颗粒物(PM10),103,155,98,9,14,58,,67,54,4,7,7,7,0.4,0.6
2025-07-20T1500,2460A,112.6006,26.8919,衡阳市,市监测站,,24,18,28,3,17,76,,86,70,5,7,3,2,0.4,0.6
2025-07-20T1500,2461A,112.5664,26.9056,衡阳市,真空机电公司,,24,24,26,13,18,73,,82,68,2,4,5,5,0.5,0.7
2025-07-20T1500,3399A,112.6703,26.882,衡阳市,师范学院,,25,17,29,3,22,78,,87,72,5,7,6,6,0.5,0.8
2025-07-20T1500,2608A,103.3772,23.3993,红河哈尼族彝族自治州,污水处理厂,,41,14,22,3,16,129,,99,99,6,10,10,13,0.3,0.4
2025-07-20T1500,2609A,103.3861,23.35,红河哈尼族彝族自治州,监测站,,40,25,32,11,16,128,,96,96,3,7,10,13,0.3,0.3
2025-07-20T1500,3038A,103.3758,23.368,红河哈尼族彝族自治州,州图书馆,,40,16,21,3,14,128,,94,94,4,8,4,8,0.2,0.2
2025-07-20T1500,1090A,111.6507,40.7517,呼和浩特市,呼市一监,,35,7,5,3,3,111,,98,98,4,6,7,7,0.3,0.3
2025-07-20T1500,1091A,111.6572,40.8033,呼和浩特市,小召,,31,6,3,3,2,98,,90,90,12,8,7,6,0.6,0.5
2025-07-20T1500,1094A,111.7516,40.8369,呼和浩特市,如意水处理厂,,32,6,4,3,3,102,,93,93,2,4,3,2,0.1,0.2
2025-07-20T1500,1095A,111.7276,40.8062,呼和浩特市,二十九中,,35,6,6,3,3,110,,98,98,4,3,5,5,0.6,0.7
2025-07-20T1500,1096A,111.5512,40.7866,呼和浩特市,工大金川校区,,30,7,8,3,2,95,,92,92,7,7,5,4,0.2,0.3
2025-07-20T1500,1097A,111.717,40.7612,呼和浩特市,化肥厂生活区,,34,6,4,3,4,108,,99,99,7,9,5,6,0.3,0.3
2025-07-20T1500,3698A,111.5968,40.8178,呼和浩特市,红旗小学,,31,6,3,3,3,97,,94,94,5,5,3,3,0.2,0.2
2025-07-20T1500,3699A,111.6518,40.8389,呼和浩特市,海东办,,33,6,1,3,2,104,,100,100,5,6,3,4,0.3,0.3
2025-07-20T1500,2192A,119.7594,49.2261,呼伦贝尔市,区环保局,,28,25,17,9,12,52,,50,50,56,56,5,6,0.6,0.5
2025-07-20T1500,3061A,119.7512,49.1577,呼伦贝尔市,国华电力东,,25,13,13,3,7,80,,74,74,4,5,3,3,0.5,0.5
2025-07-20T1500,1250A,120.0751,30.8669,湖州市,城西水厂,,27,26,19,9,7,84,,59,59,6,9,7,6,0.4,0.4
2025-07-20T1500,2873A,120.0830,30.8929,湖州市,仁皇山新区,,25,25,18,9,6,77,,53,53,4,8,4,4,0.4,0.4
2025-07-20T1500,2907A,120.1844,30.8596,湖州市,吴兴区站,,24,22,19,9,6,76,,51,51,2,5,6,6,0.3,0.3
2025-07-20T1500,3562A,120.4148,30.8538,湖州市,南浔区站,,22,20,18,8,7,68,,50,50,3,8,7,7,0.4,0.5
2025-07-20T1500,1607A,120.9049,40.7211,葫芦岛市,龙港区,细颗粒物(PM2.5),54,,27,38,18,89,,77,77,17,6,4,3,0.6,0.5
2025-07-20T1500,1608A,120.8392,40.7514,葫芦岛市,化工街,,30,7,20,3,13,95,,79,79,22,11,4,6,0.5,0.5
2025-07-20T1500,1609A,120.8341,40.7073,葫芦岛市,新区,,32,,22,16,16,102,,82,82,12,4,4,4,0.9,0.7
2025-07-20T1500,1610A,120.8695,40.7677,葫芦岛市,东城区,,30,,20,14,16,94,,85,85,16,9,4,4,0.8,0.6
2025-07-20T1500,2482A,109.5981,27.5721,怀化市,林科所,,35,29,29,6,12,112,,116,111,5,6,5,4,0.2,0.4
2025-07-20T1500,2483A,109.9453,27.5444,怀化市,河西地税局,,34,30,31,22,23,106,,107,106,6,9,3,3,0.4,0.4
2025-07-20T1500,2484A,109.9781,27.5342,怀化市,市四医院,,32,27,36,19,24,102,,102,102,3,6,5,11,0.4,0.4
2025-07-20T1500,2485A,109.9972,27.5578,怀化市,监测楼,,34,25,39,20,26,106,,105,105,2,6,3,11,0.1,0.1
2025-07-20T1500,2486A,110.0394,27.583,怀化市,市委党校,,35,27,40,13,26,110,,110,110,1,8,5,26,0.3,0.4
2025-07-20T1500,1210A,119.036,33.5981,淮安市,钵池山,,34,24,19,13,14,108,,71,71,7,12,7,8,0.6,0.6
2025-07-20T1500,1211A,119.007,33.575,淮安市,北京南路,,35,31,23,13,12,111,,71,71,5,11,7,7,0.7,0.6
2025-07-20T1500,1212A,118.989,33.6067,淮安市,市监测站,,33,29,24,22,14,104,,65,65,5,10,8,8,0.7,0.7
2025-07-20T1500,1213A,119.135,33.5039,淮安市,楚州区监测站,,32,29,30,14,15,102,,67,67,2,9,8,8,0.5,0.5
2025-07-20T1500,3426A,118.8755,33.2894,淮安市,新华书店,,34,30,20,12,9,108,,71,71,4,10,8,8,0.5,0.5
2025-07-20T1500,4206A,119.0288,33.6319,淮安市,承德北路606号,,34,34,27,17,13,101,,66,66,7,11,6,6,0.3,0.4
2025-07-20T1500,2282A,116.8004,33.975,淮北市,监测站,,35,22,28,3,12,112,,89,89,4,7,7,7,0.4,0.6
2025-07-20T1500,2283A,116.8091,33.9007,淮北市,烈山区政府,,36,14,36,3,11,114,,91,91,5,9,8,7,0.5,0.5
2025-07-20T1500,3330A,116.8873,33.9836,淮北市,杜集区检察院,,31,16,24,3,17,98,,80,80,4,8,7,6,0.5,0.6
2025-07-20T1500,4017A,116.7923,33.9535,淮北市,市博物馆,,23,23,28,3,15,72,,72,67,4,5,8,8,0.5,0.6
2025-07-20T1500,2277A,116.8305,32.7727,淮南市,潘集区政府,,26,26,30,9,12,83,,62,62,3,8,3,2,0.1,0.2
2025-07-20T1500,2279A,116.8569,32.5951,淮南市,谢家集区政府,,25,25,28,3,8,78,,60,60,5,8,7,7,0.1,0.2
2025-07-20T1500,2280A,116.8281,32.633,淮南市,八公山区政府,,26,18,25,3,9,82,,64,64,3,7,5,6,0.3,0.4
2025-07-20T1500,2281A,116.6325,32.6201,淮南市,焦岗湖风景区管理处,,,,,,,,,,,,,,,,
2025-07-20T1500,2894A,117.0566,32.6531,淮南市,经济技术开发区消防队,,26,12,18,3,4,82,,60,60,4,8,8,7,0.1,0.1
2025-07-20T1500,3329A,117.0108,32.5893,淮南市,山南新区,,27,14,18,3,6,84,,54,54,1,5,10,9,0.3,0.3
2025-07-20T1500,4209A,117.0031,32.6445,淮南市,国庆中路369号,,31,19,24,8,12,99,,64,64,2,6,12,11,0.2,0.2
2025-07-20T1500,2446A,114.9028,30.4742,黄冈市,职工中心,,21,12,27,3,18,65,,78,71,2,4,8,8,0,0.4
2025-07-20T1500,2929A,114.8858,30.4519,黄冈市,红卫路,,21,10,24,8,16,66,,83,76,3,3,8,8,0.2,0.5
2025-07-20T1500,3398A,114.9136,30.4445,黄冈市,市林业局,,21,11,26,3,14,67,,79,76,2,4,7,7,0.1,0.3
2025-07-20T1500,2672A,102.0199,35.5102,黄南藏族自治州,同仁县隆务镇,,24,14,19,3,7,74,,57,57,9,10,9,9,0.2,0.2
2025-07-20T1500,2295A,118.2903,29.6963,黄山市,延安路89号,,15,6,4,3,6,48,,36,36,1,2,3,3,0.3,0.2
2025-07-20T1500,2297A,118.1371,30.2756,黄山市,黄山区政府5号楼,,15,,10,7,5,47,,39,39,1,2,4,4,0.3,0.3
2025-07-20T1500,4210A,118.3354,29.7203,黄山市,滨江东路7-2号,,19,19,15,3,5,47,,34,34,2,2,2,2,0.2,0.3
2025-07-20T1500,2423A,115.0601,30.2313,黄石市,沈家营,,28,12,41,3,11,89,,76,76,4,10,7,7,0.5,0.5
2025-07-20T1500,2426A,114.8988,30.2019,黄石市,铁山,,23,14,32,3,13,71,,66,66,5,13,12,11,0.7,0.5
2025-07-20T1500,2427A,115.0307,30.2092,黄石市,团城山,,,12,29,,10,90,,78,78,2,8,6,8,0.3,0.4
2025-07-20T1500,3149A,115.0235,30.1578,黄石市,笔架山北路,,,6,27,,10,76,,75,75,7,11,4,7,0.2,0.4
2025-07-20T1500,4185A,115.0780,30.21118,黄石市,磁湖东路29号,,25,6,39,3,15,80,,70,70,2,13,5,7,0.6,0.6
2025-07-20T1500,1392A,114.4183,23.0528,惠州市,河南岸金山湖子站,,,,11,,7,,,48,,,8,,7,,0.4
2025-07-20T1500,1393A,114.4053,23.0822,惠州市,下埔横江三路子站,,17,6,8,3,6,54,,44,44,2,5,3,4,0.1,0.2
2025-07-20T1500,1394A,114.4103,23.1142,惠州市,江北云山西路子站,,16,10,15,3,6,51,,43,43,2,4,7,7,0.5,0.5
2025-07-20T1500,1395A,114.4645,22.7833,惠州市,惠阳区承修路船湖子站,,18,6,11,3,6,57,,50,50,3,7,6,6,0.4,0.5
2025-07-20T1500,1396A,114.5317,22.7422,惠州市,大亚湾管委会子站,,16,8,11,3,5,49,,46,46,12,9,7,7,0.5,0.5
2025-07-20T1500,3314A,114.4338,22.8134,惠州市,惠阳秋长,,16,,11,3,7,51,,46,46,2,5,9,9,0.4,0.4
2025-07-20T1500,3452A,114.6517,22.775,惠州市,大亚湾霞涌,,19,12,14,3,5,58,,55,55,4,4,6,5,0.8,0.7
2025-07-20T1500,2240A,130.9762,45.3001,鸡西市,环保局,,34,25,24,10,10,107,,92,92,4,13,4,5,0.2,0.3
2025-07-20T1500,2243A,130.9429,45.3039,鸡西市,第一中学,,33,20,22,6,11,105,,88,88,4,14,9,9,0.2,0.3
2025-07-20T1500,3707A,131.0207,45.3073,鸡西市,欧美日汽修厂,,33,,25,9,10,105,,88,88,4,13,8,8,0.2,0.3
2025-07-20T1500,3709A,130.9967,45.3106,鸡西市,市政设施管理处,,34,24,24,3,7,106,,90,90,8,15,4,4,0.3,0.4
2025-07-20T1500,2367A,114.9754,27.0803,吉安市,红声器材厂,,20,19,23,7,8,63,,54,54,4,5,8,9,0.6,0.6
2025-07-20T1500,2368A,114.9658,27.0999,吉安市,市森林工业局,,20,19,19,7,8,62,,53,53,2,4,9,10,0.1,0.4
2025-07-20T1500,2369A,114.99,27.1312,吉安市,市环境监测站,,21,16,18,7,6,65,,55,55,3,5,12,13,0.4,0.4
2025-07-20T1500,2370A,115.0093,27.0968,吉安市,青原区法院,,18,18,21,3,9,56,,48,48,6,8,7,8,0.6,0.6
2025-07-20T1500,1772A,126.54,43.8622,吉林市,哈达湾,,28,17,18,10,10,89,,90,90,6,9,6,6,0.5,0.5
2025-07-20T1500,1773A,126.5844,43.8358,吉林市,东局子,,29,21,19,7,8,91,,87,87,10,9,5,5,0.5,0.5
2025-07-20T1500,1774A,126.5052,43.8245,吉林市,电力学院,,45,35,23,31,17,91,,86,86,14,15,5,5,0.7,0.7
2025-07-20T1500,1775A,126.6133,43.8972,吉林市,江北,,30,30,19,13,10,77,,82,82,6,6,2,2,0.7,0.6
2025-07-20T1500,1776A,126.555,43.8306,吉林市,江南公园,,30,23,19,10,10,94,,91,91,5,7,2,2,0.4,0.4
2025-07-20T1500,1778A,126.7061,43.7133,吉林市,丰满,,,22,14,18,12,,,99,99,8,5,4,4,,0.6
2025-07-20T1500,2868A,126.4739,43.953,吉林市,九站,,29,27,20,3,11,90,,92,92,5,8,2,2,0.6,0.5
2025-07-20T1500,1299A,116.9862,36.6114,济南市,科干所,,46,31,32,20,24,146,,127,127,10,12,5,5,0.4,0.4
2025-07-20T1500,1300A,116.9376,36.665,济南市,农科所,,44,24,41,15,19,139,,123,123,5,14,8,8,0.4,0.4
2025-07-20T1500,1301A,117.1265,36.6734,济南市,开发区,,44,29,32,20,21,140,,125,125,12,15,7,8,0.6,0.6
2025-07-20T1500,1303A,117.0624,36.6868,济南市,省种子仓库,,49,27,40,19,18,156,,140,140,6,13,5,6,0.5,0.5
2025-07-20T1500,1304A,116.9489,36.6447,济南市,机床二厂,,45,27,45,15,19,144,,126,126,8,16,6,6,0.3,0.3
2025-07-20T1500,1305A,117.0495,36.663,济南市,市监测站,,43,32,35,15,19,135,,121,121,12,16,8,9,0.5,0.6
2025-07-20T1500,1306A,116.7675,36.5484,济南市,长清党校,,49,,38,34,29,136,,110,110,8,13,4,5,0.6,0.6
2025-07-20T1500,1616A,117.6795,36.229,济南市,技术学院,,41,31,31,24,22,130,,104,104,9,13,8,8,1.1,0.8
2025-07-20T1500,1961A,117.532,36.6868,济南市,东山小学,,43,32,39,12,18,136,,102,102,6,12,6,8,0.3,0.4
2025-07-20T1500,3059A,117.7161,36.2049,济南市,泰兴公司,,42,39,36,29,20,108,,90,90,9,13,7,9,1.7,0.7
2025-07-20T1500,3064A,117.6867,36.2171,济南市,莱芜战役纪念馆,颗粒物(PM10),51,51,37,33,21,108,,85,85,18,15,9,8,2.8,1
2025-07-20T1500,3494A,117.1673,36.9782,济南市,济阳区政府,臭氧1小时,57,34,49,12,16,165,,140,140,7,16,8,9,0.3,0.3
2025-07-20T1500,3495A,117.1171,36.63,济南市,锦屏中学,,41,27,32,17,18,131,,122,122,7,11,8,8,0.6,0.6
2025-07-20T1500,3682A,116.9814,36.6819,济南市,济南四建,,46,27,40,12,22,146,,134,134,7,15,4,6,0.5,0.5
2025-07-20T1500,1653A,116.6251,35.4302,济宁市,火炬城,,37,34,42,19,19,118,,95,95,2,8,3,4,0.6,0.6
2025-07-20T1500,1655A,116.5491,35.4042,济宁市,电化厂,,36,31,38,17,19,115,,,,1,7,4,6,0.6,0.7
2025-07-20T1500,3500A,116.5814,35.3707,济宁市,北湖一中,,42,32,37,14,18,133,,102,102,4,9,11,8,0.4,0.5
2025-07-20T1500,3501A,116.8249,35.5593,济宁市,服务中心,,40,30,39,8,16,126,,100,100,5,14,3,2,0.3,0.3
2025-07-20T1500,3678A,116.5907,35.4054,济宁市,市第七中学,,37,37,39,12,15,115,,88,88,2,7,6,5,0.4,0.4
2025-07-20T1500,2255A,130.2751,46.8028,佳木斯市,佳纺,,26,14,19,11,13,83,,76,76,7,29,8,8,0.4,0.4
2025-07-20T1500,2256A,130.3995,46.8307,佳木斯市,发电厂,,29,26,33,12,12,91,,80,80,8,27,5,6,0.6,0.6
2025-07-20T1500,2257A,130.3258,46.7975,佳木斯市,环保局,,28,19,23,10,13,88,,80,80,8,22,9,9,0.5,0.6
2025-07-20T1500,2258A,130.3648,46.8032,佳木斯市,十一中,,29,22,21,11,13,91,,83,83,8,20,6,6,0.5,0.6
2025-07-20T1500,2259A,130.3794,46.7588,佳木斯市,四丰,,,,,,,,,,,6,14,1,8,0.6,0.6
2025-07-20T1500,1252A,120.7436,30.778,嘉兴市,清河小学,,23,23,20,8,7,61,,48,48,5,10,10,9,0.6,0.6
2025-07-20T1500,1253A,120.726,30.7478,嘉兴市,嘉兴学院,,22,22,19,8,7,57,,45,45,2,5,3,4,0.6,0.6
2025-07-20T1500,2872A,120.7846,30.7525,嘉兴市,南湖区残联,,20,16,19,8,7,61,,48,48,2,5,9,7,0.2,0.3
2025-07-20T1500,3407A,120.6916,30.7739,嘉兴市,秀洲住建,,20,20,20,7,7,64,,51,51,8,12,8,7,0.4,0.4
2025-07-20T1500,1945A,98.2908,39.7711,嘉峪关市,气象局,,47,24,24,3,8,150,,120,120,2,14,8,11,0.6,0.7
2025-07-20T1500,2884A,98.2672,39.7978,嘉峪关市,酒钢宾馆,,50,24,26,3,8,158,,129,129,4,8,12,11,1.1,1.2
2025-07-20T1500,3248A,98.2643,39.7724,嘉峪关市,雄关区,,46,33,27,10,15,145,,112,112,6,19,8,9,0.4,0.5
2025-07-20T1500,1383A,113.1064,22.6058,江门市,北街,,17,6,19,3,10,53,,34,34,5,14,3,3,0.4,0.5
2025-07-20T1500,1384A,113.0731,22.5835,江门市,西区,,16,14,19,3,9,51,,31,31,5,14,5,6,0.4,0.6
2025-07-20T1500,1385A,113.0219,22.5311,江门市,圭峰西,,16,11,18,3,9,50,,35,35,3,11,4,4,0.6,0.6
2025-07-20T1500,1386A,113.0828,22.5947,江门市,东湖,,16,7,16,3,10,49,,29,29,6,15,5,6,0.5,0.6
2025-07-20T1500,3311A,113.1075,22.5647,江门市,江海富民,,20,20,32,7,15,51,,32,32,6,16,7,8,0.2,0.3
2025-07-20T1500,3449A,113.05,22.4667,江门市,新会银湖,,15,9,18,3,10,46,,32,32,4,11,7,3,0.2,0.3
2025-07-20T1500,1830A,113.1992,35.2590,焦作市,影视城,,,,35,,25,,,,,,5,,15,,0.4
2025-07-20T1500,3335A,113.3137,35.2641,焦作市,马村街道办,臭氧1小时,105,53,52,46,35,210,,180,180,10,14,7,6,0.8,0.8
2025-07-20T1500,3336A,113.2465,35.2373,焦作市,焦作技师学院,臭氧1小时,104,69,54,31,25,208,,168,168,10,12,6,5,0.8,0.7
2025-07-20T1500,3477A,113.1656,35.2539,焦作市,中站许衡医院,臭氧1小时,104,51,51,33,30,208,,171,171,10,13,8,8,0.8,0.6
2025-07-20T1500,3981A,113.2449,35.1803,焦作市,原李万街道办,臭氧1小时,113,73,63,34,25,225,,178,178,10,14,7,8,1.0,0.9
2025-07-20T1500,4264A,113.2340,35.2190,焦作市,新安路1731号,臭氧1小时,116,49,48,32,26,232,,182,182,8,10,6,5,0.5,0.3
2025-07-20T1500,4295A,113.2722,35.2121,焦作市,人民路3066号,臭氧1小时,102,70,56,41,39,203,,168,168,11,16,6,6,0.4,0.4
2025-07-20T1500,1708A,116.3701,23.5345,揭阳市,新兴,,31,31,28,10,11,71,,71,71,4,7,4,5,0.6,0.6
2025-07-20T1500,1709A,116.3264,23.5443,揭阳市,西马,,24,24,30,6,9,69,,69,69,2,4,1,2,0.6,0.6
2025-07-20T1500,1710A,116.3611,23.5626,揭阳市,东兴,,25,25,25,6,9,58,,58,58,2,6,2,3,0.6,0.6
2025-07-20T1500,1711A,116.4151,23.5294,揭阳市,渔湖,,,,35,,8,,,41,,,8,,6,,0.4
2025-07-20T1500,3320A,116.403,23.5699,揭阳市,曲溪,,21,13,24,8,10,66,,66,66,2,5,5,6,0.5,0.5
2025-07-20T1500,1944A,102.1692,38.5167,金昌市,天庆家园,,41,14,30,3,17,130,,100,100,4,15,18,19,0.7,0.9
2025-07-20T1500,4022A,102.1647,38.5371,金昌市,金川区人防中心,,39,20,21,7,11,122,,95,95,4,10,11,12,0.3,0.5
2025-07-20T1500,4239A,102.1930,38.5319,金昌市,长春路96号,,38,10,21,8,10,120,,99,99,2,6,8,5,0.3,0.6
2025-07-20T1500,1262A,119.647,29.077,金华市,十五中,,22,15,16,7,7,68,,49,49,14,17,1,2,0.2,0.2
2025-07-20T1500,1263A,119.686,29.1029,金华市,监测站,,20,13,17,7,6,62,,44,44,8,16,2,2,0.2,0.2
2025-07-20T1500,3659A,119.656,29.1131,金华市,气象局,,20,13,16,3,5,62,,44,44,7,16,3,3,0.3,0.3
2025-07-20T1500,1767A,121.1115,41.0879,锦州市,南山,,30,,24,15,16,94,,72,72,5,8,4,6,0.7,0.7
2025-07-20T1500,1768A,121.0604,40.8428,锦州市,开发区,,32,,47,16,13,100,,81,81,13,14,2,3,0.8,0.6
2025-07-20T1500,1769A,121.1836,41.1119,锦州市,百股街道,,36,18,21,12,8,114,,97,97,7,8,4,8,0.7,0.7
2025-07-20T1500,1770A,121.1178,41.1222,锦州市,天安街道,,34,,25,15,16,107,,85,85,8,11,5,7,0.7,0.7
2025-07-20T1500,1771A,121.1303,41.1386,锦州市,北湖公园,,29,,27,17,20,91,,75,75,6,8,5,6,0.7,0.7
2025-07-20T1500,2160A,112.85,35.5051,晋城市,自来水公司,颗粒物(PM10),51,51,60,12,26,133,,130,116,14,16,4,4,1.1,0.7
2025-07-20T1500,2161A,112.8318,35.4936,晋城市,白云商贸,,39,36,49,3,18,124,,124,113,10,12,5,6,0.9,0.7
2025-07-20T1500,2162A,112.8508,35.4887,晋城市,市环保局,,45,45,64,17,24,118,,110,105,7,9,10,5,1.0,0.6
2025-07-20T1500,2163A,112.8676,35.4897,晋城市,技术学院,,37,34,52,14,23,118,,113,108,11,13,9,4,1.2,0.7
2025-07-20T1500,2165A,112.8453,35.546,晋城市,白马寺,,,,35,,29,,,,,,6,,7,,0.7
2025-07-20T1500,3620A,112.8271,35.4828,晋城市,泽州一中,,42,35,46,7,23,133,,124,116,8,10,8,4,1.0,0.8
2025-07-20T1500,2173A,112.7249,37.7067,晋中市,南都小区,细颗粒物(PM2.5),55,52,50,39,31,159,,106,106,2,9,5,5,1.0,0.9
2025-07-20T1500,2174A,112.6991,37.6982,晋中市,榆次区政府,,49,46,45,29,24,154,,99,99,1,11,9,8,0.9,1
2025-07-20T1500,2865A,112.7195,37.6828,晋中市,榆次三中,臭氧1小时,58,46,42,34,27,166,,114,114,3,12,9,9,0.9,1.1
2025-07-20T1500,4200A,112.7478,37.6954,晋中市,迎宾街26号,臭氧1小时,65,46,41,36,26,172,,117,117,4,14,9,8,0.6,0.8
2025-07-20T1500,2439A,112.2014,31.0481,荆门市,竹园小学,臭氧1小时,65,44,41,20,19,172,,144,144,7,10,1,1,0.6,0.6
2025-07-20T1500,2440A,112.1969,30.9891,荆门市,掇刀,臭氧1小时,72,39,34,23,18,177,,150,150,2,3,8,10,0.6,0.6
2025-07-20T1500,2441A,112.2213,31.0386,荆门市,石化一小,臭氧1小时,69,42,40,24,11,175,,147,147,4,8,11,5,0.3,0.3
2025-07-20T1500,3012A,112.1849,31.0362,荆门市,西山林语,臭氧1小时,69,34,32,24,22,175,,151,151,1,3,7,8,0.5,0.5
2025-07-20T1500,3547A,112.1632,31.0138,荆门市,龙泉中学南校,臭氧1小时,64,35,30,28,21,171,,149,149,2,6,4,5,0.7,0.6
2025-07-20T1500,1844A,112.2494,30.3197,荆州市,市图书馆,,44,20,27,20,20,139,,131,131,3,9,3,4,0.5,0.5
2025-07-20T1500,1845A,112.2008,30.3544,荆州市,市委党校,,45,25,30,21,24,143,,130,130,8,13,2,3,0.7,0.7
2025-07-20T1500,3194A,112.2747,30.3122,荆州市,管委会,,39,,28,19,21,122,,117,117,9,12,6,7,0.6,0.6
2025-07-20T1500,4268A,112.1722,30.3366,荆州市,学苑路85号,,,26,26,23,25,134,,126,126,9,10,5,5,,0.5
2025-07-20T1500,2342A,117.3102,29.3867,景德镇市,王港中学,,,,,,,,,,,,,,,,
2025-07-20T1500,2343A,117.2117,29.2933,景德镇市,老干部活动中心,,16,10,11,3,3,50,,37,37,2,5,6,6,0.2,0.2
2025-07-20T1500,2344A,117.1894,29.2789,景德镇市,兽医站,,17,11,17,3,3,53,,40,40,2,4,4,3,0.6,0.6
2025-07-20T1500,2345A,117.1547,29.2617,景德镇市,台达陶瓷,,,,,,,,,,,,,,,,
2025-07-20T1500,2346A,117.2461,29.2956,景德镇市,陶研所,,17,9,10,3,4,52,,39,39,4,5,4,4,0.6,0.6
2025-07-20T1500,1803A,115.9872,29.6815,九江市,十里,,16,,20,6,22,49,,45,45,2,12,4,5,0.4,0.7
2025-07-20T1500,1804A,115.9584,29.7046,九江市,茅山头,,15,6,25,3,14,45,,37,37,3,11,3,4,0.3,0.6
2025-07-20T1500,1805A,115.9877,29.7295,九江市,西园,,17,6,17,3,12,52,,47,47,4,17,5,6,0.5,0.8
2025-07-20T1500,1808A,115.9114,29.6038,九江市,综合工业园,,,2,19,,13,49,,48,48,4,8,5,6,0.4,0.6
2025-07-20T1500,1809A,116.0721,29.7535,九江市,石化总厂,,36,,23,25,20,43,,44,44,7,19,8,8,0.2,0.6
2025-07-20T1500,1810A,115.9773,29.5698,九江市,庐山气象台,,14,6,10,3,6,43,,40,40,2,3,6,6,0.4,0.9
2025-07-20T1500,3190A,116.0254,29.6994,九江市,外国语学校,,14,6,17,3,14,44,,41,41,2,13,7,8,0.7,0.8
2025-07-20T1500,4253A,116.0102,29.6594,九江市,莲花大道8号,,17,,14,6,13,54,,39,39,1,3,3,4,0.4,0.6
2025-07-20T1500,4240A,98.4958,39.7339,酒泉市,玉门东路5号,,46,39,33,10,25,147,,113,113,3,8,21,18,0.2,0.2
2025-07-20T1500,4241A,98.5099,39.7506,酒泉市,北大街108号,,49,29,30,8,18,155,,113,113,1,10,12,16,0.2,0.3
2025-07-20T1500,2698A,76.0072,39.4467,喀什地区,巡警大队,颗粒物(PM10),92,134,311,41,81,122,,75,75,11,31,5,6,0.3,0.5
2025-07-20T1500,2699A,75.9755,39.4694,喀什地区,吾办,颗粒物(PM10),94,138,329,56,126,125,,64,64,11,36,6,6,0.5,0.7
2025-07-20T1500,4027A,75.9483,39.4689,喀什地区,老干局,颗粒物(PM10),87,124,300,48,97,125,,66,66,8,25,6,5,0.3,0.3
2025-07-20T1500,1824A,114.3389,34.7781,开封市,肿瘤医院,臭氧1小时,89,55,62,11,36,191,,154,154,8,16,2,3,0.6,0.7
2025-07-20T1500,1826A,114.2885,34.7965,开封市,世纪星幼儿园,臭氧1小时,80,31,52,13,38,184,,157,157,7,12,4,4,0.8,0.8
2025-07-20T1500,3147A,114.3438,34.8106,开封市,龙亭公园,臭氧1小时,82,42,49,22,28,185,,157,157,5,10,1,2,0.5,0.6
2025-07-20T1500,3210A,114.3644,34.7964,开封市,汴京公园,臭氧1小时,85,46,62,20,38,188,,154,154,6,14,4,5,0.5,0.6
2025-07-20T1500,3473A,114.2485,34.8306,开封市,技师学院,臭氧1小时,75,35,51,10,31,180,,160,160,4,8,4,4,0.6,0.8
2025-07-20T1500,3592A,114.4644,34.7556,开封市,祥符区生态环境局,臭氧1小时,58,45,48,24,28,166,,140,140,11,31,4,4,0.5,0.6
2025-07-20T1500,1951A,84.895,45.6094,克拉玛依市,长征新村,颗粒物(PM10),51,51,31,3,12,89,,109,89,9,8,3,4,0.2,0.2
2025-07-20T1500,1952A,84.8988,45.5893,克拉玛依市,南林小区,,50,50,31,14,11,72,,105,77,8,12,2,2,0.1,0.1
2025-07-20T1500,1954A,84.905,44.3396,克拉玛依市,独山子区,,37,37,30,11,10,116,,107,107,8,9,8,8,0.4,0.3
2025-07-20T1500,1955A,85.6979,46.098,克拉玛依市,乌尔禾区商贸楼,,31,26,32,15,12,97,,75,71,2,8,5,6,0.3,0.3
2025-07-20T1500,3612A,85.1045,45.6899,克拉玛依市,白碱滩区新站,,,38,43,13,20,116,,129,108,7,7,9,10,,0
2025-07-20T1500,2697A,76.1454,39.7142,克孜勒苏柯尔克孜自治州,市人民政府,颗粒物(PM10),109,168,260,76,110,100,,73,73,6,20,6,16,0.0,0.1
2025-07-20T1500,3665A,76.1658,39.7157,克孜勒苏柯尔克孜自治州,克州文化中心,颗粒物(PM10),117,184,262,82,112,103,,80,80,5,20,6,23,0.3,0.3
2025-07-20T1500,1450A,102.8204,24.8886,昆明市,呈贡新区,,36,17,14,16,13,114,,70,70,7,21,3,3,0.5,0.5
2025-07-20T1500,1451A,102.6251,24.9608,昆明市,西山森林公园,,,,,,,,,,,,,,,,
2025-07-20T1500,1452A,102.7252,25.0902,昆明市,龙泉镇,,27,25,16,14,8,84,,66,66,11,12,3,2,0.4,0.3
2025-07-20T1500,1453A,102.7266,25.0375,昆明市,东风东路,,34,26,17,20,11,106,,78,78,16,12,3,4,0.4,0.3
2025-07-20T1500,1454A,102.6742,25.0669,昆明市,金鼎山,,37,37,22,17,8,99,,68,68,10,8,1,1,0.4,0.3
2025-07-20T1500,1455A,102.6644,25.0401,昆明市,碧鸡广场,,28,28,21,15,10,86,,67,67,18,12,7,7,0.6,0.4
2025-07-20T1500,3179A,102.7494,25.0119,昆明市,官渡区博物馆,,35,25,16,17,8,112,,72,72,11,17,3,3,0.3,0.3
2025-07-20T1500,3375A,102.8017,24.8336,昆明市,青年创业园,,36,,21,21,13,114,,69,69,5,19,2,2,0.6,0.6
2025-07-20T1500,3550A,102.7997,24.9786,昆明市,昆明学院,,36,17,24,12,16,114,,80,80,10,17,6,6,0.4,0.4
2025-07-20T1500,3551A,102.5967,24.6736,昆明市,晋宁区生态环境分局,,36,12,19,9,13,115,,90,90,7,12,3,4,0.4,0.5
2025-07-20T1500,3552A,102.6678,24.9856,昆明市,云天化总部,,28,24,16,12,11,89,,74,74,9,11,3,4,0.3,0.3
2025-07-20T1500,1456A,91.1319,29.6514,拉萨市,八廓街,,45,22,15,11,8,143,,102,102,7,13,7,8,0.3,0.3
2025-07-20T1500,1457A,91.1221,29.6747,拉萨市,市环保局,,50,21,19,12,8,159,,99,99,10,15,8,9,0.2,0.2
2025-07-20T1500,1458A,91.0874,29.6475,拉萨市,区监测站,,45,19,13,9,8,143,,94,94,11,22,5,6,0.2,0.2
2025-07-20T1500,1459A,91.1774,29.6541,拉萨市,西藏大学,,42,8,13,8,7,134,,98,98,8,13,9,11,0.2,0.2
2025-07-20T1500,1460A,90.9798,29.6588,拉萨市,区辐射站,,37,16,18,8,9,117,,81,81,17,20,6,6,0.3,0.3
2025-07-20T1500,1461A,91.0834,29.6292,拉萨市,拉萨火车站,,45,15,12,8,7,144,,91,91,7,15,7,6,0.3,0.3
2025-07-20T1500,2520A,109.2203,23.7256,来宾市,来宾技工学校,,38,38,46,21,29,98,,89,89,4,12,5,5,0.6,0.7
2025-07-20T1500,3535A,109.1781,23.7297,来宾市,兴宾区政府,,38,26,36,26,26,96,,88,88,2,9,6,6,0.6,0.7
2025-07-20T1500,4002A,109.2416,23.7461,来宾市,中南小学,,36,36,47,17,30,108,,95,95,5,12,4,4,0.6,0.7
2025-07-20T1500,1477A,104.1373,35.9454,兰州市,榆中兰大校区,,,,,,,,,,,,,,,,
2025-07-20T1500,1479A,103.831,36.0464,兰州市,铁路设计院,,46,34,37,16,20,147,,86,86,16,29,10,8,0.3,0.3
2025-07-20T1500,3241A,103.7439,36.0842,兰州市,百合公园,,43,26,25,12,13,136,,80,80,2,17,7,3,0.8,0.5
2025-07-20T1500,3242A,103.9611,35.998,兰州市,和平,,43,23,23,10,11,135,,96,96,4,10,10,11,0.2,0.3
2025-07-20T1500,4236A,103.6293,36.0938,兰州市,庄浪东路808号,,,,32,28,24,127,,74,74,,26,14,10,0.3,0.3
2025-07-20T1500,4237A,103.7251,36.1043,兰州市,安宁西路88号,臭氧1小时,52,30,35,16,21,161,,101,101,1,12,8,5,0.3,0.4
2025-07-20T1500,4238A,103.8470,36.0676,兰州市,北滨河东路1号,,44,28,29,24,21,139,,83,83,15,34,9,7,0.5,0.5
2025-07-20T1500,3245A,103.6633,36.533,兰州新区,新区管委会,,46,32,27,20,19,146,,96,96,4,8,9,11,0.3,0.4
2025-07-20T1500,3246A,103.6975,36.4789,兰州新区,舟曲中学,,42,7,24,3,17,133,,88,88,6,8,10,11,0.4,0.5
2025-07-20T1500,1067A,116.6708,39.5111,廊坊市,药材公司,,30,,28,8,13,95,,93,93,7,14,3,3,0.2,0.3
2025-07-20T1500,1068A,116.7214,39.5589,廊坊市,开发区,,,,33,11,18,94,,83,83,9,20,1,2,,0.4
2025-07-20T1500,1070A,116.7244,39.5269,廊坊市,北华航天学院,,32,26,47,9,16,100,,95,95,2,12,1,2,0.2,0.3
2025-07-20T1500,2919A,116.7022,39.5453,廊坊市,河北工业大学,,30,17,42,3,12,96,,92,92,7,15,3,4,0.2,0.4
2025-07-20T1500,2535A,103.7723,29.5462,乐山市,花湖湾,,18,6,19,3,15,57,,46,46,2,8,3,2,0.6,0.7
2025-07-20T1500,2536A,103.7627,29.5844,乐山市,牛耳桥,,30,6,24,3,16,93,,70,70,6,16,5,5,0.6,0.7
2025-07-20T1500,2537A,103.7508,29.6006,乐山市,市第三水厂,,29,,25,3,21,91,,72,72,7,16,2,3,0.8,0.9
2025-07-20T1500,2538A,103.7571,29.5664,乐山市,市监测站,,26,6,23,3,16,81,,58,58,5,11,4,4,0.8,0.9
2025-07-20T1500,3361A,103.7311,29.5628,乐山市,理工大学,,29,6,14,3,15,90,,59,59,4,13,4,5,0.6,0.7
2025-07-20T1500,2598A,100.2143,26.8576,丽江市,西南郊,,,,20,,12,,,93,,,11,,6,,0.8
2025-07-20T1500,2599A,100.2497,26.8802,丽江市,丽江古城,,32,17,19,8,8,100,,66,66,7,14,10,9,0.5,0.5
2025-07-20T1500,2600A,100.2203,26.8906,丽江市,市中心,,33,13,18,6,15,104,,64,64,7,16,9,9,0.8,0.9
2025-07-20T1500,1267A,119.914,28.4514,丽水市,监测站大楼,,16,16,10,3,3,37,,33,33,5,7,3,3,0.2,0.2
2025-07-20T1500,1268A,119.93,28.4586,丽水市,莲都小学,,13,6,10,3,3,39,,35,35,2,6,3,3,0.2,0.2
2025-07-20T1500,1269A,119.879,28.4231,丽水市,余庄前,,13,6,11,3,1,40,,30,30,1,4,3,3,0.3,0.3
2025-07-20T1500,1173A,119.176,34.5885,连云港市,市环境监测站,,28,22,23,12,7,89,,65,65,6,9,1,2,0.1,0.2
2025-07-20T1500,3000A,119.3581,34.6972,连云港市,德源药业,,27,27,20,7,3,76,,60,60,12,14,4,3,0.5,0.7
2025-07-20T1500,3007A,119.178,34.844,连云港市,新城一中,,31,31,25,13,9,73,,60,60,6,11,4,5,0.6,0.6
2025-07-20T1500,3008A,119.3608,34.7519,连云港市,胡沟管理处,,25,19,17,12,6,79,,61,61,9,14,5,6,0.3,0.4
2025-07-20T1500,3009A,119.1478,34.5911,连云港市,矿山设计院,,27,24,24,12,8,84,,62,62,7,11,2,3,0.3,0.4
2025-07-20T1500,3434A,119.2413,34.6539,连云港市,工贸学校,,29,20,18,12,10,90,,65,65,2,2,5,6,0.6,0.7
2025-07-20T1500,3664A,119.4172,34.7341,连云港市,连云街道,,27,27,23,12,10,72,,60,60,3,7,3,3,0.4,0.6
2025-07-20T1500,2571A,102.3431,27.8099,凉山彝族自治州,青龙寺,,28,11,19,8,7,87,,62,62,2,6,7,7,0.6,0.7
2025-07-20T1500,2572A,102.2721,27.8415,凉山彝族自治州,邛海宾馆,,34,22,21,15,15,106,,78,78,7,13,8,8,0.4,0.6
2025-07-20T1500,2573A,102.2625,27.898,凉山彝族自治州,西昌市政府,,30,27,21,17,14,95,,78,78,6,8,6,6,0.5,0.5
2025-07-20T1500,2574A,102.2685,27.8851,凉山彝族自治州,凉山州政府,,,,23,21,19,98,,76,76,,16,8,10,0,0.6
2025-07-20T1500,4229A,102.2342,27.8859,凉山彝族自治州,凯乐南路30号,,34,24,27,8,16,107,,79,79,7,16,8,9,0.6,0.7
2025-07-20T1500,2212A,123.2,41.1953,辽阳市,宏伟区,,26,26,14,10,1,76,,83,82,14,6,2,2,0.8,0.6
2025-07-20T1500,2213A,123.1683,41.2495,辽阳市,新华园,,34,28,18,12,7,106,,95,95,7,6,4,4,0.5,0.5
2025-07-20T1500,2214A,123.2354,41.2639,辽阳市,滨河路,,32,32,14,8,8,91,,86,86,13,8,4,4,0.6,0.4
2025-07-20T1500,2215A,123.149,41.2991,辽阳市,铁西工业园,,47,47,27,11,8,88,,81,81,6,6,3,3,0.7,0.8
2025-07-20T1500,2227A,125.1358,42.8845,辽源市,环保局,,30,21,22,8,7,96,,101,101,5,5,6,5,0.5,0.5
2025-07-20T1500,3239A,125.0764,42.9078,辽源市,银鹰制药,,29,22,17,16,9,91,,101,101,14,13,6,5,0.5,0.4
2025-07-20T1500,1625A,115.9848,36.4372,聊城市,区政府,臭氧1小时,58,25,44,17,25,166,,137,137,5,11,5,6,0.6,0.8
2025-07-20T1500,2878A,116.0072,36.4343,聊城市,聊大东校,臭氧1小时,64,34,46,25,29,171,,142,142,5,12,6,6,0.8,0.8
2025-07-20T1500,3200A,115.9819,36.4978,聊城市,监控中心,臭氧1小时,68,34,35,17,21,174,,144,144,5,10,6,7,0.5,0.6
2025-07-20T1500,3513A,116.0445,36.4361,聊城市,九州社区,臭氧1小时,54,31,50,20,25,163,,134,134,6,13,3,4,0.4,0.4
2025-07-20T1500,4018A,116.0567,36.4608,聊城市,星美广场,,50,37,52,14,24,158,,131,131,6,11,5,5,0.6,0.7
2025-07-20T1500,2632A,94.3681,29.6376,林芝市,林芝监测站,,25,6,7,3,4,77,,61,61,2,3,7,7,0.5,0.5
2025-07-20T1500,2633A,94.3616,29.6616,林芝市,林芝人民医院,,25,6,7,3,5,77,,61,61,2,2,1,2,0.4,0.4
2025-07-20T1500,2603A,100.0781,23.8982,临沧市,市环保局,,21,15,17,8,11,66,,46,46,6,7,12,8,0.2,0.3
2025-07-20T1500,2604A,100.0894,23.8822,临沧市,市气象局,,19,17,18,9,12,60,,42,42,10,8,8,9,0.5,0.5
2025-07-20T1500,1733A,111.5531,36.0783,临汾市,临钢医院,,44,44,51,18,22,95,,81,80,10,12,3,3,0.8,0.9
2025-07-20T1500,1734A,111.5028,36.0714,临汾市,技工学校,颗粒物(PM10),70,90,46,35,34,109,,95,90,8,10,3,3,0.6,0.7
2025-07-20T1500,1736A,111.5018,36.0855,临汾市,市委,,37,37,59,13,22,114,,102,97,8,10,3,3,0.8,0.9
2025-07-20T1500,3018A,111.505,36.1014,临汾市,唐尧大酒店,颗粒物(PM10),53,56,57,20,23,103,,91,88,8,9,2,3,0.7,0.8
2025-07-20T1500,4244A,111.4879,36.0530,临汾市,启星学校,,48,,43,33,39,103,,88,82,8,10,4,5,0.6,0.7
2025-07-20T1500,4271A,103.2464,35.6123,临夏回族自治州,滨河东路1号,,31,14,25,6,15,98,,58,58,2,9,3,3,0.2,0.3
2025-07-20T1500,4310A,103.2093,35.5995,临夏回族自治州,新华街21号,,35,14,24,8,16,109,,76,76,4,10,5,4,0.2,0.3
2025-07-20T1500,1618A,118.3429,35.0532,临沂市,沂河小区,,37,31,27,13,14,117,,78,78,8,11,9,8,0.3,0.3
2025-07-20T1500,1619A,118.295,35.0583,临沂市,鲁南制药厂,,,17,21,13,12,121,,80,80,,9,9,8,0.2,0.3
2025-07-20T1500,1620A,118.2794,34.9976,临沂市,新光毛纺厂,,39,19,16,11,13,124,,83,83,5,10,7,7,0.4,0.4
2025-07-20T1500,1621A,118.3956,35.0888,临沂市,河东保险公司,,37,24,25,9,7,118,,82,82,8,13,6,5,0.4,0.4
2025-07-20T1500,3370A,118.3564,35.0215,临沂市,十里堡居委,,40,19,18,14,7,128,,88,88,6,10,9,9,0.4,0.5
2025-07-20T1500,3496A,118.3604,35.1084,临沂市,南坊新区,,38,27,26,3,6,121,,92,92,7,12,9,9,0.3,0.4
2025-07-20T1500,3860A,118.3920,35.0300,临沂市,皇山花园小区,,,,,,,,,,,,,,,,
2025-07-20T1500,1870A,109.4856,24.3895,柳州市,柳东小学,,32,32,37,18,24,89,,87,87,2,6,4,8,0.6,0.6
2025-07-20T1500,1871A,109.4157,24.3277,柳州市,环保监测站,,36,33,39,25,23,97,,95,95,5,10,9,12,0.4,0.5
2025-07-20T1500,1872A,109.389,24.341,柳州市,河西水厂,,44,44,41,19,25,90,,88,88,12,15,12,14,1.4,1
2025-07-20T1500,1873A,109.4311,24.2921,柳州市,市四中,,31,31,36,19,25,96,,94,94,7,11,8,11,0.5,0.6
2025-07-20T1500,1874A,109.4006,24.3631,柳州市,市九中,,36,34,43,25,23,90,,87,87,8,12,6,6,0.4,0.4
2025-07-20T1500,1875A,109.4958,24.3134,柳州市,古亭山,,34,34,36,22,22,88,,87,87,3,5,5,6,0.6,0.6
2025-07-20T1500,3402A,109.5422,24.3996,柳州市,市二中,,33,31,35,23,24,87,,84,84,5,10,4,6,0.7,0.7
2025-07-20T1500,2307A,116.5079,31.737,六安市,监测大楼,,24,18,24,6,15,74,,59,59,2,5,6,6,0.3,0.5
2025-07-20T1500,2308A,116.4738,31.7643,六安市,皖西学院,,22,16,27,7,13,69,,57,57,3,8,2,2,0.2,0.3
2025-07-20T1500,2309A,116.4996,31.7905,六安市,朝阳厂,,20,7,23,7,13,62,,54,54,4,10,5,5,0.2,0.4
2025-07-20T1500,2310A,116.5567,31.7886,六安市,开发区,,21,8,14,7,13,65,,52,52,2,6,3,3,0.2,0.3
2025-07-20T1500,2576A,104.8,26.5892,六盘水市,窑上,,36,9,28,3,5,115,,81,81,4,5,6,6,0.2,0.2
2025-07-20T1500,2577A,104.83,26.5917,六盘水市,黄土坡,,35,6,11,3,8,112,,86,86,5,8,9,10,0.2,0.2
2025-07-20T1500,2578A,104.89,26.5939,六盘水市,水钢,,32,14,20,9,12,102,,85,85,14,12,6,8,0.2,0.5
2025-07-20T1500,2579A,104.8475,26.5894,六盘水市,民中,,35,6,14,3,6,112,,87,87,6,9,8,9,0.4,0.5
2025-07-20T1500,2580A,104.9544,26.5506,六盘水市,双水,,36,9,14,3,9,114,,90,90,4,8,9,10,0.3,0.3
2025-07-20T1500,2335A,117.0189,25.1181,龙岩市,龙岩师专,,,,,,,,,,,,,,,,
2025-07-20T1500,2336A,117.0217,25.1033,龙岩市,龙岩市监测站,,21,,7,11,7,66,,45,45,5,6,4,6,0.4,0.4
2025-07-20T1500,2337A,117.0258,25.0661,龙岩市,闽西职业技术学院,,20,6,8,3,1,61,,44,44,4,3,4,5,0.5,0.4
2025-07-20T1500,2338A,117.0196,25.0306,龙岩市,龙岩学院,,23,,9,16,6,62,,44,44,7,6,3,3,0.4,0.3
2025-07-20T1500,2665A,105.0822,33.3261,陇南市,汉王镇固水子,,,,,,,,,,,,,,,,
2025-07-20T1500,2885A,104.9339,33.3826,陇南市,滨江中学,,33,33,33,10,16,74,,78,67,5,5,6,6,0.4,0.5
2025-07-20T1500,3247A,104.955,33.371,陇南市,市总工会,,33,33,39,8,10,83,,88,74,5,5,5,5,0.4,0.4
2025-07-20T1500,2487A,111.9589,27.8901,娄底市,电视发射台,颗粒物(PM10),79,107,56,10,20,21,,126,66,5,7,6,7,0.5,0.6
2025-07-20T1500,2488A,111.9975,27.725,娄底市,市监测站,,49,,35,34,24,61,,129,86,6,8,3,5,0.5,0.6
2025-07-20T1500,2489A,112.0194,27.7314,娄底市,市委党校,,29,20,33,20,25,70,,136,96,6,7,4,4,0.8,0.9
2025-07-20T1500,2490A,111.9561,27.7569,娄底市,涟钢,,39,39,34,14,24,54,,118,78,12,16,14,13,1.2,1.7
2025-07-20T1500,2491A,111.9892,27.7044,娄底市,市政府,,27,27,32,14,27,69,,142,95,2,3,3,4,0.9,1
2025-07-20T1500,1893A,105.4324,28.9634,泸州市,九狮山,,28,,23,15,29,88,,88,79,6,9,4,4,0.3,0.3
2025-07-20T1500,1894A,105.4427,28.9063,泸州市,小市上码头,,21,9,19,3,9,67,,71,59,6,7,2,2,0.3,0.3
2025-07-20T1500,1895A,105.4241,28.8573,泸州市,兰田宪桥,,23,16,19,3,10,71,,80,66,6,9,8,8,0.4,0.4
2025-07-20T1500,1896A,105.4379,28.8833,泸州市,市环监站,,28,14,19,9,13,88,,94,78,8,9,6,6,0.4,0.3
2025-07-20T1500,4272A,105.3689,28.7783,泸州市,纳溪中医医院,,21,20,17,13,15,67,,86,67,10,14,4,4,0.6,0.6
2025-07-20T1500,2183A,111.1406,37.5211,吕梁市,环保局,,39,20,35,12,22,123,,84,84,4,19,2,2,0.4,0.7
2025-07-20T1500,2185A,111.1297,37.5136,吕梁市,自来水公司,,37,14,32,12,21,118,,83,83,5,14,3,2,0.4,0.6
2025-07-20T1500,2867A,111.1283,37.51,吕梁市,马茂庄小学,,38,14,44,10,24,121,,78,78,2,26,3,4,0.5,0.8
2025-07-20T1500,1812A,112.3931,34.6516,洛阳市,市委党校,,48,31,39,22,24,152,,139,139,5,11,8,9,0.5,0.6
2025-07-20T1500,1815A,112.494,34.6886,洛阳市,河南林校,臭氧1小时,65,40,47,23,28,172,,156,156,8,13,7,8,0.8,0.8
2025-07-20T1500,1816A,112.3844,34.623,洛阳市,开发区管委会,,48,29,38,26,26,152,,143,143,4,7,3,3,0.6,0.7
2025-07-20T1500,1817A,112.4267,34.6258,洛阳市,市委新办公区,,48,,39,33,31,152,,147,147,11,11,7,9,0.6,0.6
2025-07-20T1500,3340A,112.6005,34.6326,洛阳市,伊滨,,50,36,33,23,26,160,,144,144,7,12,4,5,0.8,0.8
2025-07-20T1500,3341A,112.4951,34.6332,洛阳市,中移产业园,,49,34,47,22,26,154,,145,145,5,11,6,7,0.7,0.7
2025-07-20T1500,3593A,112.5736,34.8993,洛阳市,吉利监测站,,44,44,57,25,28,131,,124,124,2,15,6,7,0.6,0.6
2025-07-20T1500,3635A,112.3677,34.662,洛阳市,河科大西苑校区,,44,31,42,18,20,140,,130,130,2,6,7,8,0.5,0.5
2025-07-20T1500,3636A,112.4388,34.6781,洛阳市,英才小学,,45,35,50,26,29,144,,133,133,3,9,6,8,0.6,0.6
2025-07-20T1500,4214A,112.4600,34.6949,洛阳市,春都路1号院,,49,27,43,20,20,155,,141,141,7,11,6,7,0.6,0.6
2025-07-20T1500,2399A,114.051,33.5699,漯河市,三五一五工厂,,41,34,40,20,23,129,,118,118,4,13,4,5,0.7,0.6
2025-07-20T1500,2400A,114.0055,33.5698,漯河市,漯河大学,颗粒物(PM10),62,73,57,24,21,136,,128,128,7,15,4,6,0.6,0.6
2025-07-20T1500,2401A,114.0138,33.5828,漯河市,市水利局,,39,39,38,19,21,122,,111,111,4,12,3,5,0.6,0.6
2025-07-20T1500,2402A,114.0261,33.5698,漯河市,市广电局,,44,29,32,18,24,140,,129,129,3,12,2,3,0.5,0.5
2025-07-20T1500,3478A,113.9749,33.5664,漯河市,市图书馆,,41,36,35,19,23,131,,125,125,5,11,5,6,0.6,0.6
2025-07-20T1500,4250A,114.0892,33.5882,漯河市,韶山路11号,颗粒物(PM10),65,79,53,27,28,119,,106,106,6,24,1,4,0.7,0.7
2025-07-20T1500,1798A,118.5092,31.6837,马鞍山市,湖东路四小,,28,28,26,3,7,81,,59,59,2,8,6,8,0.3,0.4
2025-07-20T1500,1799A,118.5024,31.6449,马鞍山市,开发区,,27,26,31,7,8,84,,62,62,4,9,6,8,0.4,0.4
2025-07-20T1500,1802A,118.6245,31.7241,马鞍山市,濮塘,,,,22,,11,,,104,,,6,,7,,0.5
2025-07-20T1500,3633A,118.4918,31.6809,马鞍山市,雨山,,24,23,24,7,8,75,,55,55,8,11,5,6,0.4,0.4
2025-07-20T1500,4191A,118.5274,31.72227,马鞍山市,慈湖高新区,,26,20,18,7,6,83,,59,59,7,10,8,8,0.3,0.3
2025-07-20T1500,1686A,111.0286,21.4688,茂名市,电白南海,,32,31,22,22,17,65,,44,44,6,9,3,5,0.4,0.4
2025-07-20T1500,1687A,110.9294,21.6533,茂名市,茂石化七小,,31,31,22,14,13,54,,44,44,11,9,7,8,0.4,0.4
2025-07-20T1500,1688A,110.9107,21.6687,茂名市,健康路,,29,29,18,17,13,62,,46,46,13,11,10,10,0.6,0.5
2025-07-20T1500,1689A,110.8592,21.6828,茂名市,高岭,颗粒物(PM10),52,53,31,14,10,53,,38,38,12,13,5,9,0.4,0.3
2025-07-20T1500,3450A,111.01,21.5165,茂名市,电白水东,,25,22,19,17,13,64,,44,44,14,17,7,10,0.5,0.5
2025-07-20T1500,2539A,104.0308,30.0478,眉山市,黑龙滩水库,,,25,26,3,7,,,33,,2,7,3,3,0.4,0.5
2025-07-20T1500,2540A,103.8416,30.0874,眉山市,气象局,,37,36,37,12,17,117,,78,78,7,20,1,2,0.4,0.6
2025-07-20T1500,3137A,103.8578,30.0744,眉山市,市委党校,,36,29,25,9,14,114,,79,79,7,15,6,13,0.4,0.6
2025-07-20T1500,3148A,103.8291,30.0564,眉山市,区人社局,,44,44,41,3,12,120,,83,83,10,22,9,10,0.5,0.6
2025-07-20T1500,1690A,116.1231,24.3284,梅州市,梅江月梅,,20,13,10,7,7,64,,49,49,1,2,6,6,0.7,0.6
2025-07-20T1500,1691A,116.0797,24.2719,梅州市,梅县新城,,21,,10,12,7,66,,53,53,4,6,6,7,0.5,0.5
2025-07-20T1500,1692A,116.1248,24.2654,梅州市,环境监控中心,,20,12,12,10,7,61,,50,50,5,9,3,6,0.3,0.3
2025-07-20T1500,3315A,116.1233,24.2991,梅州市,梅龙,,19,6,10,3,3,60,,49,49,2,2,6,7,0.5,0.5
2025-07-20T1500,1878A,104.7778,31.4741,绵阳市,富乐山,,30,30,18,17,13,79,,62,61,8,8,8,8,0.3,0.4
2025-07-20T1500,1880A,104.6697,31.4668,绵阳市,高新区自来水公司,,25,16,17,3,7,77,,59,59,3,7,9,9,0.5,0.5
2025-07-20T1500,1881A,104.7287,31.5075,绵阳市,三水厂,,31,31,20,10,13,80,,62,62,7,11,6,6,0.3,0.4
2025-07-20T1500,3491A,104.69,31.5322,绵阳市,西科大附属小学,,27,15,19,6,11,86,,58,57,6,15,7,7,0.6,0.6
2025-07-20T1500,3492A,104.5648,31.5343,绵阳市,安州区旅游局,,27,23,17,7,5,85,,62,62,6,7,5,3,0,0.1
2025-07-20T1500,4226A,104.7651,31.4531,绵阳市,绵阳市气象局,,27,21,19,12,12,86,,67,65,6,8,9,10,0.4,0.4
2025-07-20T1500,1784A,129.61,44.561,牡丹江市,环保大楼,,30,23,12,8,11,94,,83,83,5,14,2,2,0.3,0.3
2025-07-20T1500,1785A,129.6115,44.5782,牡丹江市,文化广场,,29,,14,12,14,92,,80,80,7,14,5,6,0.5,0.5
2025-07-20T1500,1786A,129.5904,44.5963,牡丹江市,第一医院,,31,,25,16,19,97,,86,86,7,16,5,6,0.3,0.3
2025-07-20T1500,1787A,129.6364,44.6075,牡丹江市,机车工厂,,30,13,20,6,13,94,,81,81,5,14,4,5,0.4,0.5
2025-07-20T1500,1788A,129.6386,44.5462,牡丹江市,第一中学,,29,13,16,3,6,92,,80,80,6,19,6,6,0.4,0.5
2025-07-20T1500,2531A,105.0703,29.61,内江市,市监测站,,36,9,25,3,16,113,,94,94,4,9,4,5,0.6,0.7
2025-07-20T1500,2532A,105.0717,29.5947,内江市,东兴区政府,,32,6,22,3,11,101,,86,83,6,11,5,5,0.4,0.5
2025-07-20T1500,2533A,105.0653,29.5817,内江市,内江二中,,31,12,27,3,15,97,,89,85,6,10,4,4,0.5,0.6
2025-07-20T1500,2534A,105.0406,29.5822,内江市,内江日报社,,,8,19,3,17,87,,75,71,5,11,,5,0.4,0.5
2025-07-20T1500,2628A,92.0657,31.4846,那曲市,那曲监测站,,33,21,36,8,12,104,,104,92,8,11,5,11,0.4,0.4
2025-07-20T1500,4243A,92.0515,31.4787,那曲市,那曲市委宣传部,,36,11,17,3,8,115,,116,105,3,5,7,6,0.2,0.3
2025-07-20T1500,1290A,115.8931,28.6843,南昌市,省外办,,16,12,13,7,8,51,,40,40,5,7,5,5,0.4,0.4
2025-07-20T1500,1291A,115.8886,28.7003,南昌市,省林业公司,,17,12,10,3,2,53,,42,42,4,7,11,11,0.4,0.4
2025-07-20T1500,1292A,115.8126,28.7442,南昌市,林科所,,16,9,10,3,3,51,,42,42,5,8,5,6,0.2,0.3
2025-07-20T1500,1294A,115.8518,28.687,南昌市,建工学校,,33,,14,23,9,56,,45,45,6,7,7,7,0.4,0.4
2025-07-20T1500,1295A,115.8921,28.6424,南昌市,象湖,,18,6,9,3,2,57,,44,44,3,4,6,6,0.3,0.3
2025-07-20T1500,1296A,115.7423,28.7996,南昌市,武术学校,,19,10,14,6,7,58,,49,49,3,4,19,19,0.5,0.5
2025-07-20T1500,3046A,115.9084,28.6062,南昌市,机电学校,,20,16,21,3,3,61,,45,45,6,10,6,7,0.6,0.9
2025-07-20T1500,3690A,115.9721,28.7031,南昌市,外国语学校,,19,14,12,3,4,58,,45,45,1,3,11,11,0.2,0.2
2025-07-20T1500,4192A,115.9316,28.68677,南昌市,南京东路235号,,17,12,18,3,2,53,,42,42,6,6,3,3,0.5,0.5
2025-07-20T1500,1905A,106.056,30.8064,南充市,西山风景区,,,,,,,,,,,,,,,,
2025-07-20T1500,1906A,106.0789,30.8023,南充市,南充市委,,29,,27,11,19,90,,89,89,5,9,4,4,0.4,0.4
2025-07-20T1500,1907A,106.1031,30.8217,南充市,南充炼油厂,,29,19,29,16,19,90,,79,79,6,8,5,6,0.5,0.5
2025-07-20T1500,4227A,106.1083,30.7884,南充市,梨树横街98号,,27,16,29,3,15,86,,78,78,4,7,2,2,0.3,0.3
2025-07-20T1500,4304A,106.1172,30.843,南充市,清泉寺北路188号,,26,22,29,11,17,81,,74,74,6,9,2,2,0.2,0.3
2025-07-20T1500,4305A,106.067,30.7616,南充市,同庆路1号,,28,15,23,9,15,89,,80,80,6,10,2,2,0.3,0.3
2025-07-20T1500,1151A,118.8086,32.1065,南京市,迈皋桥,,23,17,15,12,7,73,,53,53,2,9,4,4,0.1,0.1
2025-07-20T1500,1152A,118.7538,32.0551,南京市,草场门,,25,22,20,17,8,71,,52,52,4,8,7,8,0.3,0.4
2025-07-20T1500,1153A,118.7794,32.0745,南京市,山西路,,24,24,19,3,3,75,,56,56,8,8,3,4,0.3,0.3
2025-07-20T1500,1154A,118.7752,32.0023,南京市,中华门,,22,17,16,7,5,69,,47,47,2,3,8,9,0.3,0.4
2025-07-20T1500,1155A,118.8109,32.0309,南京市,瑞金路,,23,17,15,3,7,72,,52,52,2,3,6,7,0.4,0.4
2025-07-20T1500,1156A,118.7997,32.0754,南京市,玄武湖,,25,25,19,3,2,66,,,,10,9,10,9,0.3,0.4
2025-07-20T1500,1157A,118.6414,32.0931,南京市,浦口,,26,26,22,3,7,76,,55,55,6,10,4,4,0.4,0.4
2025-07-20T1500,1158A,118.7356,31.9996,南京市,奥体中心,,25,25,19,9,7,76,,53,53,6,7,5,4,0.2,0.2
2025-07-20T1500,1159A,118.9125,32.1028,南京市,仙林大学城,,29,29,22,3,2,67,,52,52,2,4,6,6,0.4,0.5
2025-07-20T1500,3422A,118.8436,31.9198,南京市,江宁彩虹桥,,24,19,20,7,8,74,,52,52,2,2,4,4,0.5,0.5
2025-07-20T1500,3427A,118.8554,32.3578,南京市,六合雄州,,20,15,13,6,4,62,,48,48,7,11,4,4,0.1,0.1
2025-07-20T1500,4249A,118.8708,31.3402,南京市,汶溪路181号,,28,13,16,12,8,88,,63,63,8,11,5,6,0.4,0.4
2025-07-20T1500,4312A,119.019,31.6512,南京市,中山西路1号,,24,14,15,12,9,74,,51,51,4,8,5,4,0.4,0.5
2025-07-20T1500,1401A,108.3103,22.7881,南宁市,二十一中,,36,36,30,18,16,76,,68,68,15,14,5,6,0.7,0.7
2025-07-20T1500,1402A,108.3141,22.8528,南宁市,北湖,,33,25,26,19,18,103,,81,81,7,12,4,9,0.5,0.5
2025-07-20T1500,1403A,108.3206,22.8225,南宁市,市监测站,,33,28,30,23,23,97,,73,73,11,16,7,10,0.5,0.5
2025-07-20T1500,1404A,108.3829,22.8037,南宁市,大自然花园,,34,34,28,19,17,103,,84,84,5,11,5,5,0.2,0.3
2025-07-20T1500,1405A,108.4394,22.7904,南宁市,仙葫,,29,,26,19,18,90,,74,74,6,14,3,4,0.6,0.6
2025-07-20T1500,1406A,108.2397,22.8467,南宁市,区农职院,,29,27,27,19,13,90,,76,76,9,13,11,13,0.6,0.6
2025-07-20T1500,1407A,108.3275,22.735,南宁市,英华嘉园,,31,31,32,19,19,91,,84,84,11,15,1,4,0.4,0.4
2025-07-20T1500,3401A,108.4834,22.7618,南宁市,红星社区,,34,31,26,20,13,108,,86,86,2,9,2,3,0.5,0.5
2025-07-20T1500,4221A,108.2177,22.7774,南宁市,乐贤路16号,,28,24,25,15,18,88,,75,75,6,14,2,9,0.6,0.6
2025-07-20T1500,2331A,118.0966,26.6761,南平市,茫荡山,,,,,,,,,,,,,,,,
2025-07-20T1500,2332A,118.1681,26.6369,南平市,南平市监测站,,15,12,6,3,3,46,,38,38,4,4,5,4,0.5,0.4
2025-07-20T1500,2333A,118.1825,26.6489,南平市,南平铝业有限公司,,17,11,9,3,2,52,,40,40,7,6,5,4,0.5,0.4
2025-07-20T1500,2334A,118.1756,26.6272,南平市,南平七中,,15,14,10,3,4,45,,37,37,4,4,4,4,0.5,0.5
2025-07-20T1500,1168A,120.9098,31.9663,南通市,狼山街道,,21,20,20,3,5,67,,46,46,3,9,3,4,0.5,0.6
2025-07-20T1500,1169A,120.86,32.0005,南通市,虹桥,,24,17,16,6,7,74,,52,52,5,12,2,3,0.7,0.8
2025-07-20T1500,1170A,120.87,32.02,南通市,城中,,33,33,25,3,7,58,,42,42,4,10,4,4,0.5,0.5
2025-07-20T1500,1171A,120.94,31.93,南通市,星湖花园,,20,14,16,3,5,62,,45,45,7,13,2,3,0.4,0.3
2025-07-20T1500,1172A,120.81,32.0417,南通市,紫琅学院,,20,20,17,3,3,60,,43,43,7,11,5,5,0.7,0.7
2025-07-20T1500,3291A,121.067,32.062,南通市,通州监测站,,17,9,13,3,3,52,,44,44,2,6,2,2,0.5,0.6
2025-07-20T1500,3432A,120.9348,31.9883,南通市,环境教育馆,,21,19,24,3,4,67,,54,54,4,8,2,3,0.2,0.2
2025-07-20T1500,2404A,112.5224,33.0122,南阳市,瓦房庄,,45,29,38,14,20,142,,137,137,9,10,6,6,0.5,0.5
2025-07-20T1500,2405A,112.5003,32.9735,南阳市,汉画馆,,44,24,34,7,12,138,,135,135,6,12,6,6,0.3,0.4
2025-07-20T1500,2406A,112.5573,33.027,南阳市,气象站,,47,15,36,14,18,149,,140,140,4,9,7,7,0.4,0.5
2025-07-20T1500,2407A,112.5481,32.9689,南阳市,理工学院,,46,23,36,6,10,145,,137,137,4,9,6,7,0.5,0.5
2025-07-20T1500,4008A,112.5234,32.9922,南阳市,卧龙区政府,,45,16,34,13,18,141,,135,135,5,12,4,5,0.5,0.6
2025-07-20T1500,1234A,121.8358,29.911,宁波市,区环保大楼,,18,18,24,3,6,38,,27,27,3,12,2,3,0.4,0.4
2025-07-20T1500,1235A,121.56,29.82,宁波市,万里学院,,14,14,17,6,7,43,,35,35,1,4,4,4,0.3,0.3
2025-07-20T1500,1236A,121.713,29.9572,宁波市,龙赛医院,,16,11,20,11,6,36,,30,30,2,7,4,4,0.2,0.2
2025-07-20T1500,1239A,121.633,29.7733,宁波市,钱湖水厂,,16,16,19,3,4,39,,32,32,2,3,4,4,0.3,0.3
2025-07-20T1500,1240A,121.5856,29.8635,宁波市,太古小学,,18,18,18,7,4,42,,32,32,2,2,2,2,0.2,0.2
2025-07-20T1500,1241A,121.524,29.8674,宁波市,市环境监测中心,,14,14,17,8,4,38,,27,27,5,7,4,4,0.4,0.4
2025-07-20T1500,2871A,121.6147,29.9017,宁波市,万里国际学校,,14,13,12,3,4,44,,34,34,2,4,3,3,0.5,0.5
2025-07-20T1500,3710A,121.5594,29.8975,宁波市,白沙活动中心,,15,13,14,3,3,45,,34,34,2,4,4,4,0.2,0.2
2025-07-20T1500,2339A,119.5001,26.6946,宁德市,金涵水库,,,,,,,,,,,,,,,,
2025-07-20T1500,2341A,119.5388,26.6612,宁德市,宁德市监测站,,18,18,17,3,6,42,,42,42,4,5,7,7,0.3,0.3
2025-07-20T1500,3209A,119.5231,26.6562,宁德市,宁德一中,,14,14,16,7,5,44,,43,43,3,3,4,4,0.2,0.2
2025-07-20T1500,2618A,98.8601,25.8567,怒江傈僳族自治州,州监测站,,22,15,24,8,15,70,,40,40,5,7,7,7,0.4,0.5
2025-07-20T1500,2619A,98.8546,25.8417,怒江傈僳族自治州,泸水一中,,28,28,20,9,11,50,,27,27,9,10,6,6,0.4,0.4
2025-07-20T1500,1888A,101.6891,26.571,攀枝花市,弄弄坪,,29,24,33,13,23,92,,52,52,6,16,7,9,0.6,1.1
2025-07-20T1500,1889A,101.5769,26.5928,攀枝花市,河门口,,27,21,22,10,8,86,,48,48,10,11,7,7,0.8,0.9
2025-07-20T1500,1890A,101.7169,26.585,攀枝花市,炳草岗,,32,19,31,11,15,101,,51,51,8,21,5,7,0.6,0.9
2025-07-20T1500,1891A,101.7369,26.5008,攀枝花市,仁和,,35,21,23,13,14,112,,58,58,9,13,15,12,1.4,1
2025-07-20T1500,2835A,101.7227,26.567,攀枝花市,四十中小,,33,23,23,15,15,104,,56,56,8,22,9,10,1.0,1.2
2025-07-20T1500,1604A,122.0303,41.1489,盘锦市,开发区,,29,26,16,12,8,92,,88,88,15,10,9,9,0.9,0.9
2025-07-20T1500,1605A,122.0485,41.0883,盘锦市,兴隆台,,30,25,19,14,10,93,,88,88,17,8,6,6,0.5,0.5
2025-07-20T1500,1606A,121.8297,41.1028,盘锦市,新生街道,,30,19,14,15,8,96,,98,98,20,11,4,4,0.6,0.5
2025-07-20T1500,1832A,113.3257,33.742,平顶山市,新华旅馆,,50,19,40,10,22,158,,156,156,5,15,3,5,0.5,0.5
2025-07-20T1500,1833A,113.2919,33.737,平顶山市,规划设计院,,46,28,45,22,30,146,,145,145,6,15,7,8,0.6,0.7
2025-07-20T1500,1834A,113.182,33.774,平顶山市,平顶山工学院,臭氧1小时,57,29,38,17,22,165,,142,142,6,14,7,7,0.5,0.6
2025-07-20T1500,3204A,113.3025,33.73,平顶山市,规划局,,50,22,48,17,24,157,,152,152,4,15,4,5,0.5,0.7
2025-07-20T1500,3594A,112.8867,33.9116,平顶山市,石龙区,臭氧1小时,60,24,50,17,25,168,,158,158,7,15,9,10,0.5,0.6
2025-07-20T1500,2656A,106.6692,35.5461,平凉市,聚贤嘉苑,,38,36,50,10,15,121,,90,90,5,10,12,9,0.7,0.7
2025-07-20T1500,2657A,106.7021,35.5307,平凉市,博物馆,,38,38,42,13,15,117,,94,94,7,8,10,9,0.8,0.7
2025-07-20T1500,2347A,114.0997,27.5002,萍乡市,武功山,,19,6,5,3,4,59,,26,,3,4,13,13,0.2,0.3
2025-07-20T1500,2348A,113.8385,27.6434,萍乡市,中医院,,22,21,23,12,10,70,,55,55,8,10,13,13,0.6,0.8
2025-07-20T1500,2349A,113.8493,27.6253,萍乡市,市政府车库,,21,,18,9,14,67,,52,52,9,8,11,12,0.7,0.8
2025-07-20T1500,2350A,113.8676,27.6435,萍乡市,市环保局,,24,19,19,8,14,74,,56,56,4,7,11,10,0.6,1
2025-07-20T1500,2351A,113.866,27.6198,萍乡市,安源区政府,,25,25,25,11,14,72,,50,50,5,10,9,9,0.5,1.8
2025-07-20T1500,2319A,119.0141,25.4325,莆田市,荔城区仓后路,,15,13,19,6,3,48,,42,42,4,4,4,4,0.6,0.5
2025-07-20T1500,2320A,119.0015,25.4553,莆田市,莆田市监测站,,15,14,19,3,3,48,,44,44,5,5,4,4,0.4,0.4
2025-07-20T1500,2321A,119.1119,25.4561,莆田市,涵江区六中,,17,14,20,6,6,52,,50,50,4,4,3,3,0.4,0.3
2025-07-20T1500,2322A,119.1013,25.3215,莆田市,秀屿区政府,,27,27,25,7,5,51,,47,47,3,4,3,4,0.4,0.4
2025-07-20T1500,2323A,118.981,25.4792,莆田市,东圳水库,,,,,,,,,,,,,,,,
2025-07-20T1500,2392A,115.0312,35.7636,濮阳市,环保局,臭氧1小时,82,30,39,11,23,185,,156,156,8,12,4,5,0.4,0.5
2025-07-20T1500,2394A,115.0574,35.7609,濮阳市,油田运输公司,臭氧1小时,69,31,46,18,25,175,,148,148,9,11,2,2,0.4,0.6
2025-07-20T1500,3021A,115,35.7668,濮阳市,濮水河管理处,臭氧1小时,63,21,41,18,26,170,,144,144,5,9,3,4,0.3,0.4
2025-07-20T1500,4216A,115.0924,35.7686,濮阳市,任丘路479号,臭氧1小时,63,29,50,15,28,170,,142,142,6,10,5,5,0.2,0.3
2025-07-20T1500,2601A,100.98,22.7633,普洱市,市环保局,,27,27,27,13,14,65,,42,42,6,6,5,5,0.5,0.5
2025-07-20T1500,2602A,100.9817,22.8322,普洱市,普洱第二中学,,30,30,24,3,11,58,,39,39,5,6,5,5,0.6,0.5
2025-07-20T1500,2262A,131.0518,45.8751,七台河市,新一中,,39,20,21,8,14,124,,107,107,8,16,9,10,0.8,0.9
2025-07-20T1500,3345A,131.0577,45.7879,七台河市,中波台,,50,50,24,6,7,90,,76,76,11,18,7,8,0.1,0.2
2025-07-20T1500,3637A,131.0176,45.7761,七台河市,人民广场,,29,28,20,18,11,92,,79,79,9,10,11,11,0.5,0.6
2025-07-20T1500,3684A,130.8781,45.8222,七台河市,新建矿广场,,29,17,18,6,8,92,,83,83,11,18,10,11,0.5,0.6
2025-07-20T1500,1779A,123.9305,47.3636,齐齐哈尔市,安居小区,,,,20,,10,,,86,,,10,,3,,0.5
2025-07-20T1500,1780A,123.9488,47.3386,齐齐哈尔市,中心广场,,23,16,19,7,5,71,,90,73,3,7,7,4,0.3,0.4
2025-07-20T1500,1781A,123.9483,47.3227,齐齐哈尔市,农牧车辆厂,,22,22,21,3,10,65,,84,66,4,7,6,6,0.1,0.2
2025-07-20T1500,1783A,123.945,47.2988,齐齐哈尔市,市环境监测站,,22,15,14,3,7,68,,86,68,4,7,5,5,0.4,0.4
2025-07-20T1500,3662A,123.6333,47.2075,齐齐哈尔市,富区青少年活动中心,,23,13,16,3,12,71,,82,65,4,10,5,6,0.3,0.4
2025-07-20T1500,2591A,107.9783,26.5747,黔东南苗族侗族自治州,市环境监测站,,33,23,23,17,20,103,,113,111,5,6,2,3,0.3,0.3
2025-07-20T1500,2881A,107.8908,26.5311,黔东南苗族侗族自治州,凯里学院,,35,22,21,14,12,110,,122,121,10,10,2,2,0.5,0.5
2025-07-20T1500,2593A,107.5228,26.2403,黔南布依族苗族自治州,小围寨,,27,17,19,12,12,85,,93,93,4,5,1,2,0.5,0.5
2025-07-20T1500,3538A,107.5175,26.2978,黔南布依族苗族自治州,沙坝,,31,22,23,3,7,97,,111,111,4,6,3,4,0.4,0.4
2025-07-20T1500,2589A,104.9022,25.0925,黔西南布依族苗族自治州,场坝街,,40,15,20,9,9,126,,94,94,7,11,8,18,0.3,0.4
2025-07-20T1500,2590A,104.8811,25.0992,黔西南布依族苗族自治州,坪东大道,,41,11,18,3,10,129,,94,94,9,14,2,5,0.3,0.3
2025-07-20T1500,2502A,108.6236,21.9667,钦州市,市环保站,,29,14,16,9,7,90,,78,78,6,8,3,3,1.1,0.9
2025-07-20T1500,2503A,108.6549,21.9481,钦州市,沙埠小学,,47,47,21,18,12,88,,86,86,5,8,1,1,0.4,0.4
2025-07-20T1500,2504A,108.5989,21.7431,钦州市,港区一小,,37,37,23,13,12,91,,80,80,8,10,2,2,0.5,0.5
2025-07-20T1500,3404A,108.5959,21.9633,钦州市,北职校,,27,22,20,14,7,85,,77,77,6,8,3,3,0.6,0.6
2025-07-20T1500,1043A,119.7493,40.0116,秦皇岛市,第一关,,28,,28,19,18,86,,88,88,22,11,4,4,0.4,0.3
2025-07-20T1500,1044A,119.5897,39.9499,秦皇岛市,监测站,,31,21,38,6,9,98,,92,92,17,10,3,4,0.7,0.6
2025-07-20T1500,1046A,119.5251,39.9041,秦皇岛市,建设大厦,,32,16,30,6,10,102,,82,82,16,12,4,4,0.5,0.4
2025-07-20T1500,3132A,119.610547,39.943889,秦皇岛市,文明里,,31,19,32,9,11,99,,88,88,18,11,3,4,0.4,0.3
2025-07-20T1500,4198A,119.5090,39.8253,秦皇岛市,北戴河轮滑馆,,34,30,36,13,14,108,,91,91,10,6,2,2,0.4,0.3
2025-07-20T1500,1307A,120.6659,36.2403,青岛市,仰口,,27,27,18,8,8,48,,43,43,6,5,8,8,0.6,0.8
2025-07-20T1500,1310A,120.4134,36.0658,青岛市,市南区东部子站,,36,36,24,9,7,41,,34,34,2,2,5,6,0.1,0.2
2025-07-20T1500,1311A,120.3664,36.1032,青岛市,四方区子站,,22,22,19,12,11,51,,40,40,2,3,4,3,0.2,0.2
2025-07-20T1500,1312A,120.2994,36.054,青岛市,市南区西部子站,,24,24,20,7,9,32,,27,27,12,14,8,8,0.5,0.5
2025-07-20T1500,1313A,120.4581,36.0858,青岛市,崂山区子站,,48,48,29,9,8,43,,36,36,8,8,7,7,0.2,0.2
2025-07-20T1500,1315A,120.3999,36.3083,青岛市,城阳区子站,,22,22,18,7,7,53,,49,49,4,5,5,5,0.2,0.3
2025-07-20T1500,1966A,120.0405,35.8735,青岛市,黄岛区4号,,34,34,20,3,5,62,,50,50,3,3,10,9,0.3,0.4
2025-07-20T1500,3362A,120.5014,36.4034,青岛市,即墨2号,,19,15,17,13,10,49,,49,46,2,5,2,3,0.2,0.2
2025-07-20T1500,3642A,120.3503,36.0736,青岛市,市北区南部,,25,25,21,7,5,45,,49,49,5,8,8,8,0.4,0.4
2025-07-20T1500,3643A,120.3948,36.1805,青岛市,李沧区北部,,14,14,13,9,10,37,,32,32,2,2,5,4,0.2,0.2
2025-07-20T1500,4290A,120.1969,35.9546,青岛市,珠江路669号,,19,19,16,10,10,45,,34,34,3,3,6,5,0.4,0.5
2025-07-20T1500,1702A,113.0426,23.691,清远市,环保大楼,,20,,9,3,5,61,,52,52,3,5,6,8,0.6,0.6
2025-07-20T1500,1703A,113.0208,23.7106,清远市,凤城街办,,17,7,13,3,7,53,,44,44,6,7,5,6,0.4,0.5
2025-07-20T1500,3025A,113.0477,23.6344,清远市,技师学院,,16,11,18,3,8,51,,43,43,10,11,6,7,0.4,0.4
2025-07-20T1500,3318A,112.9903,23.7403,清远市,清新太和,,22,7,11,3,7,69,,50,50,6,5,6,7,0.6,0.5
2025-07-20T1500,3455A,113.076,23.7198,清远市,清城东城,,17,7,10,3,7,53,,46,46,3,5,6,6,0.7,0.6
2025-07-20T1500,2661A,107.6325,35.7357,庆阳市,庆阳五中,,33,27,32,13,17,105,,98,98,4,5,7,6,0.4,0.4
2025-07-20T1500,2662A,107.6364,35.7067,庆阳市,市环保局,,34,31,36,11,15,108,,100,100,2,4,10,10,0.4,0.4
2025-07-20T1500,1916A,103.7897,25.5035,曲靖市,环境监测站,,33,20,28,11,14,104,,75,75,10,11,10,10,0.4,0.6
2025-07-20T1500,1917A,103.8,25.5364,曲靖市,烟厂办公区,,34,16,31,3,16,108,,74,74,5,10,5,6,0.5,0.9
2025-07-20T1500,3376A,103.7947,25.462,曲靖市,南苑二区,,33,12,25,7,14,103,,76,76,7,11,4,7,0.5,0.7
2025-07-20T1500,3377A,103.7444,25.5261,曲靖市,曲靖师范学院,,32,16,29,8,18,100,,68,68,6,13,8,9,0.3,0.5
2025-07-20T1500,1264A,118.8692,28.9398,衢州市,环保大楼,,22,16,23,3,8,69,,42,42,7,13,2,3,0.3,0.3
2025-07-20T1500,1265A,118.8709,28.9666,衢州市,实验学校,,22,12,17,3,3,70,,44,44,3,8,4,5,0.3,0.3
2025-07-20T1500,1266A,118.8621,28.9808,衢州市,衢州学院,,23,11,18,3,6,71,,45,45,4,10,4,4,0.3,0.3
2025-07-20T1500,1611A,118.5819,24.9117,泉州市,涂山街,,27,24,22,14,13,86,,65,65,5,6,2,2,0.4,0.4
2025-07-20T1500,1612A,118.5972,24.8978,泉州市,津头埔,,28,27,25,11,11,88,,68,68,4,5,2,2,0.3,0.3
2025-07-20T1500,1613A,118.6663,24.9424,泉州市,万安,,27,27,26,11,9,75,,60,60,4,5,2,2,0.3,0.4
2025-07-20T1500,1614A,118.6117,24.9604,泉州市,清源山,,,,,,,,,,,,,,,,
2025-07-20T1500,3529A,118.6333,24.9264,泉州市,城华南路,,26,22,24,12,10,81,,64,64,4,5,4,3,0.3,0.3
2025-07-20T1500,2626A,88.8876,29.2718,日喀则市,日喀则监测站,,26,6,22,3,4,81,,90,90,10,10,11,11,0.4,0.4
2025-07-20T1500,3726A,88.8781,29.2426,日喀则市,林业技术推广中心,,41,8,18,3,4,130,,113,113,3,3,9,9,0.2,0.2
2025-07-20T1500,1659A,119.471,35.4209,日照市,监测站,,22,22,22,9,10,55,,55,55,9,11,6,5,0.4,0.5
2025-07-20T1500,1660A,119.523,35.4216,日照市,市政府广场,,24,24,21,6,6,53,,50,50,4,5,7,6,0.6,0.7
2025-07-20T1500,1661A,119.5587,35.4044,日照市,港务局,,27,27,23,11,12,54,,47,47,4,7,9,9,0.6,0.6
2025-07-20T1500,3507A,119.5328,35.4625,日照市,职业技术学院,,27,27,22,9,6,55,,53,53,5,6,5,5,0.4,0.5
2025-07-20T1500,3604A,119.3266,35.1044,日照市,岚山环保分局,,27,27,21,3,3,52,,52,52,5,9,7,8,0.5,0.5
2025-07-20T1500,1835A,111.1922,34.7752,三门峡市,市政府,,28,22,38,19,22,82,,120,93,12,8,2,2,0.9,0.8
2025-07-20T1500,1836A,111.1587,34.7942,三门峡市,开发区,,27,23,41,16,28,85,,127,99,12,12,3,5,0.6,0.6
2025-07-20T1500,1838A,111.143,34.7955,三门峡市,风景区,,30,,32,13,21,93,,132,106,10,7,3,4,0.6,0.6
2025-07-20T1500,3039A,111.1911,34.7829,三门峡市,三门峡市第一小学,,28,24,38,9,20,89,,129,104,15,13,9,9,0.6,0.6
2025-07-20T1500,3598A,111.1,34.7167,三门峡市,富达温泉假日酒店,,30,27,40,21,31,86,,108,94,12,9,8,8,0.4,0.5
2025-07-20T1500,2324A,117.6211,26.2625,三明市,三钢,,,13,10,,5,55,,40,40,5,6,6,5,0.3,0.3
2025-07-20T1500,2325A,117.635,26.2714,三明市,三明二中,,16,13,10,8,5,51,,41,41,7,7,3,3,0.2,0.2
2025-07-20T1500,2326A,117.6028,26.2378,三明市,三元区政府,,18,14,9,10,5,57,,37,37,6,7,3,2,0.1,0.1
2025-07-20T1500,2327A,117.7275,26.3108,三明市,洋溪,,,,,,,,,,,,,,,,
2025-07-20T1500,1876A,109.5078,18.2489,三亚市,河东子站,,32,19,15,3,6,100,,90,90,8,10,2,3,0.4,0.4
2025-07-20T1500,1877A,109.4964,18.2681,三亚市,河西子站,,31,16,14,3,3,97,,89,89,6,7,3,3,0.3,0.3
2025-07-20T1500,3540A,109.7348,18.3443,三亚市,君悦子站,,31,13,24,3,5,99,,90,90,8,8,2,2,0.5,0.5
2025-07-20T1500,2624A,91.7608,29.2313,山南市,山南监测站,,37,8,10,3,5,117,,88,88,3,8,4,6,0.3,0.3
2025-07-20T1500,2625A,91.7706,29.2436,山南市,山南人民医院,,37,9,13,3,7,118,,91,91,4,7,4,6,0.2,0.2
2025-07-20T1500,1674A,116.6794,23.3667,汕头市,金平子站,,25,8,26,8,12,80,,77,77,5,6,2,2,0.7,0.6
2025-07-20T1500,1675A,116.7244,23.3633,汕头市,龙湖子站,,25,19,30,13,9,78,,77,77,4,5,5,5,0.7,0.6
2025-07-20T1500,1676A,116.7258,23.2775,汕头市,濠江子站,,24,,34,13,10,74,,70,70,2,2,4,4,0.7,0.6
2025-07-20T1500,1677A,116.7519,23.4714,汕头市,澄海子站,,35,35,28,14,13,70,,70,70,3,5,2,2,0.6,0.5
2025-07-20T1500,1678A,116.6092,23.2539,汕头市,潮阳子站,,26,23,27,12,9,81,,78,78,2,3,4,4,0.6,0.5
2025-07-20T1500,3444A,116.454,23.2684,汕头市,潮南峡山,,26,26,23,13,10,71,,72,72,4,4,5,5,0.6,0.5
2025-07-20T1500,3624A,116.4069,23.2533,汕头市,潮南子站,,28,28,25,10,8,71,,73,73,5,5,4,4,0.5,0.5
2025-07-20T1500,1693A,115.3653,22.775,汕尾市,市环保局,,21,8,14,3,6,65,,65,65,2,4,2,2,0.5,0.5
2025-07-20T1500,1694A,115.3706,22.7898,汕尾市,市政府,,21,,12,11,27,67,,67,67,3,3,3,3,0.4,0.4
2025-07-20T1500,1695A,115.3622,22.7925,汕尾市,新城中学,,21,10,14,3,7,65,,64,64,4,5,4,4,0.4,0.4
2025-07-20T1500,2645A,109.9154,33.8715,商洛市,监测站,,25,,19,6,13,80,,72,72,6,8,3,4,0.5,0.6
2025-07-20T1500,3045A,109.9643,33.8471,商洛市,商州区中学,,25,8,23,3,13,80,,70,70,7,11,3,4,0.4,0.4
2025-07-20T1500,2408A,115.6702,34.4285,商丘市,环境监测站,,41,,39,14,26,131,,120,120,7,12,2,3,0.5,0.5
2025-07-20T1500,2409A,115.6458,34.4045,商丘市,粮食局,,37,24,36,10,20,118,,113,113,4,8,3,4,0.5,0.6
2025-07-20T1500,2410A,115.6293,34.3948,商丘市,睢阳区环保局,,37,29,45,13,19,117,,110,110,5,11,3,3,0.3,0.4
2025-07-20T1500,3171A,115.6071,34.4465,商丘市,梁园区档案局,,40,30,38,14,20,126,,112,112,6,9,2,2,0.5,0.5
2025-07-20T1500,1141A,121.4,31.238,上海市,普陀,,18,18,22,3,8,43,,36,36,4,7,4,5,0.3,0.3
2025-07-20T1500,1142A,121.478,31.2036,上海市,十五厂,,,18,25,9,8,38,,34,34,,11,7,7,0.5,0.5
2025-07-20T1500,1143A,121.467,31.3008,上海市,虹口,,15,15,23,3,9,35,,34,34,1,4,9,9,0.4,0.5
2025-07-20T1500,1147A,121.425,31.2261,上海市,静安监测站,,20,20,24,13,8,40,,35,35,5,8,3,4,0.4,0.5
2025-07-20T1500,1148A,121.703,31.1907,上海市,浦东川沙,,36,36,31,6,6,34,,29,29,7,11,9,9,0.6,0.6
2025-07-20T1500,1149A,121.533,31.2284,上海市,浦东新区监测站,,18,18,24,3,5,36,,34,34,3,6,7,7,0.3,0.3
2025-07-20T1500,1150A,121.577,31.2071,上海市,浦东张江,,22,22,52,3,8,41,,40,40,4,6,5,6,0.8,0.7
2025-07-20T1500,3265A,121.4316,31.3322,上海市,宝山庙行,,17,17,23,3,6,40,,38,38,2,6,6,6,0.3,0.3
2025-07-20T1500,3266A,121.8791,31.4662,上海市,崇明上实东滩,,21,21,22,8,7,43,,37,37,2,7,3,3,0.4,0.5
2025-07-20T1500,3268A,121.3162,31.2838,上海市,嘉定南翔,,23,23,36,10,8,39,,32,32,1,4,6,6,0.3,0.3
2025-07-20T1500,3269A,121.3359,30.7456,上海市,金山新城,,42,42,48,9,8,43,,39,39,4,7,3,6,0.2,0.2
2025-07-20T1500,3270A,121.4996,31.0739,上海市,闵行浦江,,23,23,25,7,8,42,,33,33,2,5,4,4,0.6,0.7
2025-07-20T1500,3271A,121.2886,31.1663,上海市,青浦徐泾,,18,18,24,8,8,44,,36,36,2,5,6,6,0.4,0.4
2025-07-20T1500,3272A,121.2186,31.0378,上海市,松江图书馆,,18,18,25,6,8,44,,36,36,2,4,6,6,0.4,0.4
2025-07-20T1500,3273A,121.3902,31.2059,上海市,长宁仙霞,,33,,22,23,9,41,,34,34,4,7,5,6,0.4,0.4
2025-07-20T1500,3274A,121.7965,31.0507,上海市,浦东惠南,,20,20,24,7,7,37,,34,34,1,5,9,9,0.4,0.5
2025-07-20T1500,3544A,121.4891,30.925,上海市,奉贤南桥新城,,23,23,24,9,10,46,,38,38,2,2,6,7,0.6,0.6
2025-07-20T1500,4183A,121.4174,31.16637,上海市,冠生园路458号,,28,28,25,7,9,35,,27,27,5,8,4,4,0.6,0.6
2025-07-20T1500,4205A,121.5419,31.2683,上海市,宁武路151号,,28,28,31,8,10,31,,29,29,8,10,7,7,0.5,0.5
2025-07-20T1500,2381A,118.005,28.4572,上饶市,百草园,,,,,,,,,,,,,,,,
2025-07-20T1500,2382A,117.9756,28.4436,上饶市,市监测站,,29,18,19,3,7,92,,56,56,3,6,3,3,0.4,0.3
2025-07-20T1500,2383A,117.9519,28.4628,上饶市,凤凰光学,,30,20,20,10,8,93,,52,52,4,7,8,13,0.8,0.8
2025-07-20T1500,3685A,117.897,28.4315,上饶市,双创科技城,,30,18,19,6,7,95,,58,58,6,10,4,8,0.3,0.3
2025-07-20T1500,4211A,118.1904,28.4448,上饶市,裕丰大道,,26,17,15,3,5,81,,45,45,2,8,5,6,0.6,0.6
2025-07-20T1500,1669A,113.5824,24.7733,韶关市,市八中,,18,10,14,3,7,57,,42,42,7,9,7,8,0.5,0.5
2025-07-20T1500,1671A,113.5917,24.7972,韶关市,园林处,,19,6,12,3,6,58,,44,44,4,4,9,9,0.3,0.3
2025-07-20T1500,1673A,113.5971,24.6863,韶关市,曲江监测站,,19,18,12,11,6,58,,44,44,18,10,13,5,1.6,0.7
2025-07-20T1500,2809A,113.6668,24.7756,韶关市,大学路288号,,27,27,18,6,9,59,,41,41,6,8,12,6,0.4,0.4
2025-07-20T1500,3622A,113.5556,24.8082,韶关市,碧湖山庄,,17,8,32,3,10,54,,38,38,6,8,6,9,0.5,0.5
2025-07-20T1500,2462A,111.5239,27.3033,邵阳市,市水土所,,,,,,,,,,,,,,,,
2025-07-20T1500,2464A,111.5283,27.2442,邵阳市,市化工厂,,26,26,30,12,21,78,,132,87,5,6,7,7,0.5,0.6
2025-07-20T1500,2466A,111.4328,27.2272,邵阳市,市环保局,,37,37,32,15,24,78,,131,92,7,8,6,6,0.6,0.6
2025-07-20T1500,4218A,111.4460,27.2472,邵阳市,北塔二期4-26地块,,26,26,33,12,21,81,,123,95,7,8,5,5,0.3,0.4
2025-07-20T1500,4219A,111.4739,27.2282,邵阳市,邵水西路287号,,26,26,34,8,23,80,,133,92,6,7,5,6,0.6,0.6
2025-07-20T1500,1247A,120.6053,29.9928,绍兴市,城东开发委,,13,10,13,3,5,41,,35,35,2,5,4,4,0.2,0.2
2025-07-20T1500,2921A,120.5483,30.0003,绍兴市,树下王站,,16,11,10,3,4,49,,40,40,2,6,4,4,0.4,0.4
2025-07-20T1500,3408A,120.5683,29.9361,绍兴市,绍兴中专,,16,16,15,6,6,41,,36,36,1,4,5,5,0.5,0.4
2025-07-20T1500,3409A,120.4906,30.0861,绍兴市,柯桥区政府,,18,18,17,7,7,49,,39,39,4,8,4,4,0.3,0.3
2025-07-20T1500,3410A,120.8752,30.0249,绍兴市,重华小学,,12,12,13,7,5,38,,31,31,2,6,6,6,0.4,0.4
2025-07-20T1500,3411A,120.8369,30.0137,绍兴市,上虞中学,,14,7,12,3,6,44,,35,35,2,5,7,7,0.3,0.3
2025-07-20T1500,3560A,120.4722,30.0415,绍兴市,柯桥妇保,,16,11,13,3,5,50,,41,41,2,4,2,5,0.3,0.3
2025-07-20T1500,3658A,120.6153,30.0764,绍兴市,袍江中学,,18,18,17,6,3,50,,38,38,3,7,6,6,0.4,0.4
2025-07-20T1500,1356A,114.1063,22.5545,深圳市,通心岭子站,,17,9,14,3,8,54,,47,47,1,6,6,6,0.5,0.5
2025-07-20T1500,1357A,114.117,22.5625,深圳市,洪湖,,16,6,11,3,7,50,,42,42,1,9,7,6,0.6,0.6
