timepoint,stationcode,longitude,latitude,area,positionname,primarypollutant,aqi,pm10,pm10_24h,pm2_5,pm2_5_24h,o3,o3_24h,o3_8h,o3_8h_24h,no2,no2_24h,so2,so2_24h,co,co_24h
2023-01-06T02:00:00,1001A,116.3621,39.8784,北京市,万寿西宫,细颗粒物(PM2.5),130,144,147,99,103,38,10,12,11,98,85,6,5,1.5,1.1
2023-01-06T02:00:00,1002A,116.2202,40.2915,北京市,定陵(对照点),细颗粒物(PM2.5),80,89,83,59,53,35,12,14,13,39,36,2,4,0.7,0.6
2023-01-06T02:00:00,1003A,116.4174,39.9289,北京市,东四,细颗粒物(PM2.5),138,157,136,105,92,25,2,2,2,78,61,8,6,1.3,1
2023-01-06T02:00:00,1004A,116.4072,39.8863,北京市,天坛,细颗粒物(PM2.5),162,155,141,123,107,23,3,3,3,94,76,12,3,1.7,1.2
2023-01-06T02:00:00,1005A,116.462,39.9365,北京市,农展馆,细颗粒物(PM2.5),176,183,136,133,92,24,2,2,2,105,80,12,4,1.5,0.9
2023-01-06T02:00:00,1006A,116.3392,39.9295,北京市,官园,细颗粒物(PM2.5),117,123,132,88,92,31,0,0,0,80,72,8,8,1.2,1
2023-01-06T02:00:00,1007A,116.2878,39.9611,北京市,海淀万柳,细颗粒物(PM2.5),108,124,121,81,74,19,2,2,2,76,74,6,4,0.9,1
2023-01-06T02:00:00,1008A,116.6636,40.135,北京市,顺义新城,细颗粒物(PM2.5),149,163,122,114,82,41,3,3,3,77,64,2,4,1.2,1
2023-01-06T02:00:00,1009A,116.6275,40.3275,北京市,怀柔镇,细颗粒物(PM2.5),100,106,99,75,63,44,21,22,22,42,42,3,3,0.7,0.6
2023-01-06T02:00:00,1010A,116.2296,40.217,北京市,昌平镇,细颗粒物(PM2.5),80,87,84,59,56,33,3,2,2,54,48,1,4,0.6,0.7
2023-01-06T02:00:00,1011A,116.3966,39.9821,北京市,奥体中心,细颗粒物(PM2.5),139,160,120,106,80,25,1,1,1,85,72,7,5,1.1,1
2023-01-06T02:00:00,1012A,116.184,39.9136,北京市,古城,,,143,128,,69,26,2,2,2,77,70,4,3,1.3,1.2
2023-01-06T02:00:00,1015A,117.1444,39.1661,天津市,勤俭道,细颗粒物(PM2.5),316,336,249,266,192,84,1,2,2,100,80,14,16,1.8,1.6
2023-01-06T02:00:00,1017A,117.237,39.1082,天津市,大直沽八号路,细颗粒物(PM2.5),319,355,240,269,180,79,2,2,2,106,85,15,16,1.9,1.7
2023-01-06T02:00:00,1018A,117.202,39.0927,天津市,前进道,细颗粒物(PM2.5),309,334,227,259,174,76,5,5,5,107,83,14,15,1.6,1.4
2023-01-06T02:00:00,1019A,117.1837,39.2133,天津市,淮河道,细颗粒物(PM2.5),326,342,268,276,208,76,4,5,4,106,91,13,17,1.9,1.7
2023-01-06T02:00:00,1021A,117.307,39.0877,天津市,跃进路,,,,233,,173,70,2,2,2,100,77,17,16,1.6,1.4
2023-01-06T02:00:00,1023A,117.707,39.0343,天津市,第四大街,细颗粒物(PM2.5),355,407,236,305,178,66,0,1,0,114,90,13,14,2.0,1.6
2023-01-06T02:00:00,1024A,117.457,38.8394,天津市,永明路,细颗粒物(PM2.5),357,372,204,307,167,60,6,6,6,100,84,68,26,2.0,1.4
2023-01-06T02:00:00,1026A,117.764,39.1587,天津市,汉北路,细颗粒物(PM2.5),289,319,189,239,144,57,0,1,0,98,78,11,12,1.5,1.2
2023-01-06T02:00:00,1027A,117.157,38.9194,天津市,团泊洼(对照点),细颗粒物(PM2.5),306,334,212,256,171,57,0,1,0,95,72,12,13,1.8,1.4
2023-01-06T02:00:00,1029A,114.4422,38.0444,石家庄市,职工医院,细颗粒物(PM2.5),230,246,217,180,157,42,4,5,4,110,93,19,21,2.3,2.2
2023-01-06T02:00:00,1030A,114.6063,38.0266,石家庄市,高新区,细颗粒物(PM2.5),226,279,243,176,171,55,9,9,9,97,80,20,21,2.7,2.2
2023-01-06T02:00:00,1031A,114.4898,38.1328,石家庄市,西北水源,细颗粒物(PM2.5),231,265,223,181,148,45,2,3,2,108,103,24,24,2.9,2.3
2023-01-06T02:00:00,1032A,114.4586,38.0058,石家庄市,西南高教,细颗粒物(PM2.5),244,235,225,194,174,39,3,3,3,100,86,24,23,2.3,2
2023-01-06T02:00:00,1033A,114.5331,38.0178,石家庄市,世纪公园,细颗粒物(PM2.5),247,254,224,197,177,43,0,1,0,108,87,19,20,2.7,2.3
2023-01-06T02:00:00,1034A,114.509,38.0457,石家庄市,人民会堂,细颗粒物(PM2.5),274,236,214,224,182,54,5,5,5,102,85,21,21,2.7,2.5
2023-01-06T02:00:00,1035A,114.3524,37.8911,石家庄市,封龙山(对照点),颗粒物(PM10),101,152,97,56,67,103,59,73,66,38,38,29,27,0.7,0.8
2023-01-06T02:00:00,1037A,118.131,39.6363,唐山市,雷达站,细颗粒物(PM2.5),252,241,179,202,141,63,27,22,22,72,81,18,14,1.4,1.4
2023-01-06T02:00:00,1038A,118.1725,39.6334,唐山市,物资局,细颗粒物(PM2.5),256,278,184,206,124,47,0,0,0,104,87,18,16,1.5,1.6
2023-01-06T02:00:00,1040A,118.1705,39.6506,唐山市,十二中,细颗粒物(PM2.5),253,250,177,203,143,59,0,1,0,115,96,11,14,2.0,1.6
2023-01-06T02:00:00,1041A,118.1869,39.622,唐山市,小山,细颗粒物(PM2.5),260,272,200,210,147,59,0,0,0,116,100,15,18,1.6,1.6
2023-01-06T02:00:00,1042A,119.5134,39.8207,秦皇岛市,北戴河环保局,细颗粒物(PM2.5),221,224,171,171,130,54,3,6,4,112,78,27,23,2.4,2.1
2023-01-06T02:00:00,1043A,119.7493,40.0116,秦皇岛市,第一关,细颗粒物(PM2.5),225,200,147,175,106,60,11,9,9,83,76,23,15,2.3,1.8
2023-01-06T02:00:00,1044A,119.5897,39.9499,秦皇岛市,监测站,细颗粒物(PM2.5),227,198,147,177,107,37,6,7,6,90,66,29,22,2.4,1.9
2023-01-06T02:00:00,1046A,119.5251,39.9041,秦皇岛市,建设大厦,细颗粒物(PM2.5),190,200,144,143,88,45,2,3,2,112,82,31,23,2.5,1.8
2023-01-06T02:00:00,1048A,114.5302,36.6116,邯郸市,东污水处理厂,细颗粒物(PM2.5),361,367,289,311,238,72,4,5,4,101,92,18,21,2.4,1.8
2023-01-06T02:00:00,1049A,114.4918,36.5713,邯郸市,矿院,细颗粒物(PM2.5),372,365,276,322,236,70,1,1,1,97,82,15,21,2.9,2.5
2023-01-06T02:00:00,1050A,114.484,36.6133,邯郸市,丛台公园,细颗粒物(PM2.5),352,338,267,302,232,72,2,6,4,93,76,24,25,3.4,2.6
2023-01-06T02:00:00,1051A,115.493,38.8632,保定市,游泳馆,细颗粒物(PM2.5),316,266,215,266,188,38,7,8,8,126,109,20,18,2.4,1.9
2023-01-06T02:00:00,1052A,115.5213,38.8959,保定市,华电二区,细颗粒物(PM2.5),311,255,197,261,175,24,4,4,4,106,92,12,14,3.0,2.3
2023-01-06T02:00:00,1053A,115.4713,38.9108,保定市,接待中心,细颗粒物(PM2.5),306,259,205,256,164,28,2,2,2,106,88,18,14,2.4,1.9
2023-01-06T02:00:00,1054A,115.4612,38.8416,保定市,地表水厂,细颗粒物(PM2.5),263,305,242,213,159,40,9,10,10,117,95,20,17,2.3,1.7
2023-01-06T02:00:00,1056A,115.5086,38.8639,保定市,监测站,细颗粒物(PM2.5),358,316,222,308,191,32,4,4,4,113,99,19,20,2.2,1.8
2023-01-06T02:00:00,1057A,114.8883,40.8336,张家口市,人民公园,细颗粒物(PM2.5),59,66,57,42,33,65,32,34,33,28,30,11,12,0.8,0.9
2023-01-06T02:00:00,1059A,114.8687,40.8042,张家口市,五金库,细颗粒物(PM2.5),64,63,57,46,44,51,33,32,32,33,42,16,18,0.8,0.9
2023-01-06T02:00:00,1060A,114.8902,40.762,张家口市,世纪豪园,颗粒物(PM10),88,125,87,50,47,44,35,29,29,36,42,11,10,0.7,0.8
2023-01-06T02:00:00,1061A,114.8916,40.8661,张家口市,北泵房(对照点),颗粒物(PM10),65,80,65,46,48,71,27,31,29,30,27,15,21,1.3,1
2023-01-06T02:00:00,1062A,117.9531,40.9081,承德市,铁路,细颗粒物(PM2.5),129,159,108,98,63,35,9,9,9,64,54,19,15,2.1,1.5
2023-01-06T02:00:00,1063A,117.9392,40.9763,承德市,中国银行,细颗粒物(PM2.5),100,120,90,75,53,44,14,14,14,53,46,9,9,1.5,1.1
2023-01-06T02:00:00,1064A,117.9503,40.928,承德市,开发区,细颗粒物(PM2.5),110,115,94,83,63,32,6,6,6,60,53,12,10,1.7,1.3
2023-01-06T02:00:00,1065A,117.8051,40.9655,承德市,文化中心,细颗粒物(PM2.5),133,163,153,101,92,16,3,2,2,51,49,15,26,2.1,2
2023-01-06T02:00:00,1066A,117.9268,41.0026,承德市,离宫(对照点),细颗粒物(PM2.5),90,93,71,67,48,34,1,1,1,52,44,14,12,1.2,0.9
2023-01-06T02:00:00,1067A,116.6708,39.5111,廊坊市,药材公司,细颗粒物(PM2.5),345,372,243,295,183,53,6,7,6,132,107,22,18,1.9,1.6
2023-01-06T02:00:00,1068A,116.7214,39.5589,廊坊市,开发区,细颗粒物(PM2.5),291,309,222,241,165,55,5,5,5,127,110,15,15,2.3,1.8
2023-01-06T02:00:00,1070A,116.7244,39.5269,廊坊市,北华航天学院,细颗粒物(PM2.5),327,339,262,277,199,53,4,5,4,139,116,22,20,2.0,1.8
2023-01-06T02:00:00,1071A,116.8842,38.2991,沧州市,沧县城建局,细颗粒物(PM2.5),430,447,292,395,243,77,9,10,10,91,75,26,22,2.3,1.7
2023-01-06T02:00:00,1072A,116.8584,38.3254,沧州市,电视转播站,细颗粒物(PM2.5),406,407,248,359,211,86,11,13,12,98,72,22,20,2.1,1.5
2023-01-06T02:00:00,1073A,116.8709,38.3228,沧州市,市环保局,细颗粒物(PM2.5),400,418,256,350,217,78,5,6,6,107,84,28,22,2.1,1.4
2023-01-06T02:00:00,1074A,115.6838,37.7541,衡水市,电机北厂,细颗粒物(PM2.5),397,427,331,347,270,88,37,39,38,71,78,16,23,2.0,1.8
2023-01-06T02:00:00,1075A,115.6303,37.7316,衡水市,市监测站,细颗粒物(PM2.5),404,472,335,355,249,93,29,24,24,69,72,19,19,2.1,1.8
2023-01-06T02:00:00,1077A,114.4704,37.0886,邢台市,达活泉,细颗粒物(PM2.5),302,329,269,252,212,41,3,4,4,90,82,30,21,4.0,2.5
2023-01-06T02:00:00,1078A,114.5062,37.0349,邢台市,邢师高专,细颗粒物(PM2.5),289,266,227,239,207,40,5,6,6,89,89,19,17,3.5,2
2023-01-06T02:00:00,1079A,114.5237,37.0851,邢台市,路桥公司,细颗粒物(PM2.5),284,262,227,234,212,49,2,2,2,98,88,31,15,4.4,2
2023-01-06T02:00:00,1080A,114.4725,37.0719,邢台市,市环保局,细颗粒物(PM2.5),287,299,264,237,206,39,2,3,2,96,91,28,18,4.4,2.5
2023-01-06T02:00:00,1081A,112.522,37.8873,太原市,尖草坪,颗粒物(PM10),80,109,134,28,81,63,63,34,34,20,80,7,32,0.4,1.4
2023-01-06T02:00:00,1083A,112.434,38.0108,太原市,上兰(对照点),,,,,,,,,,,,,,,,
2023-01-06T02:00:00,1084A,112.469,37.7124,太原市,晋源,细颗粒物(PM2.5),212,244,160,162,102,31,9,8,8,101,89,38,31,2.0,2.1
2023-01-06T02:00:00,1085A,112.5583,37.7394,太原市,小店,细颗粒物(PM2.5),215,255,182,165,108,44,3,3,3,99,90,44,32,2.4,1.9
2023-01-06T02:00:00,1086A,112.5369,37.8692,太原市,桃园,颗粒物(PM10),77,103,145,47,86,39,39,20,20,47,83,10,31,0.7,1.5
2023-01-06T02:00:00,1087A,112.57,37.8195,太原市,坞城,细颗粒物(PM2.5),170,189,141,129,92,43,10,8,8,100,90,39,35,1.7,1.6
2023-01-06T02:00:00,1088A,112.549,37.9854,太原市,南寨,细颗粒物(PM2.5),147,187,145,112,82,28,3,3,3,84,72,17,26,2.1,1.6
2023-01-06T02:00:00,1089A,112.4783,37.7778,太原市,金胜(停运211219),,,,,,,,,,,,,,,,
2023-01-06T02:00:00,1090A,111.6507,40.7517,呼和浩特市,呼市一监,颗粒物(PM10),190,329,149,62,69,46,43,37,37,21,52,15,20,0.4,1.1
2023-01-06T02:00:00,1091A,111.6572,40.8033,呼和浩特市,小召,颗粒物(PM10),248,383,130,55,64,43,43,28,28,28,64,9,15,0.7,1.3
2023-01-06T02:00:00,1094A,111.7516,40.8369,呼和浩特市,如意水处理厂,颗粒物(PM10),109,167,120,80,63,46,7,7,7,72,67,18,26,1.2,1.2
2023-01-06T02:00:00,1095A,111.7276,40.8062,呼和浩特市,二十九中,颗粒物(PM10),213,359,112,68,62,48,16,16,16,56,61,25,31,1.1,1.2
2023-01-06T02:00:00,1096A,111.5512,40.7866,呼和浩特市,工大金川校区,颗粒物(PM10),209,356,168,64,63,42,35,28,28,27,54,17,26,0.8,1
2023-01-06T02:00:00,1097A,111.717,40.7612,呼和浩特市,化肥厂生活区,颗粒物(PM10),171,291,123,62,61,47,37,31,31,34,58,29,28,0.7,1
2023-01-06T02:00:00,1098A,123.6836,41.9339,沈阳市,森林路(对照点),,,,,,,,,,,,,,,,
2023-01-06T02:00:00,1099A,123.505,41.7406,沈阳市,浑南东路,细颗粒物(PM2.5),79,87,131,58,95,34,8,6,6,56,57,22,24,1.7,1.9
2023-01-06T02:00:00,1100A,123.4231,41.6989,沈阳市,新秀街,细颗粒物(PM2.5),77,85,146,56,97,36,36,36,36,39,61,18,22,1.4,2
2023-01-06T02:00:00,1102A,123.5903,41.8411,沈阳市,东陵路,细颗粒物(PM2.5),127,108,111,96,88,26,6,6,6,57,56,16,28,2.3,2.4
2023-01-06T02:00:00,1103A,123.4264,41.8467,沈阳市,陵东街,细颗粒物(PM2.5),82,87,124,60,80,40,31,40,36,51,67,25,32,1.2,2.1
2023-01-06T02:00:00,1104A,123.4114,41.7653,沈阳市,文化路,细颗粒物(PM2.5),89,88,136,66,98,48,48,47,47,29,60,23,37,1.1,2
2023-01-06T02:00:00,1105A,123.4678,41.7867,沈阳市,小河沿,细颗粒物(PM2.5),72,74,123,52,81,33,23,20,20,52,63,19,22,1.7,2
2023-01-06T02:00:00,1106A,123.4017,41.7972,沈阳市,太原街,细颗粒物(PM2.5),99,115,166,74,104,47,47,44,44,31,63,17,45,1.1,2.1
2023-01-06T02:00:00,1108A,123.3783,41.9228,沈阳市,京沈街,细颗粒物(PM2.5),125,100,137,95,101,37,36,33,33,49,69,32,41,1.2,2
2023-01-06T02:00:00,1109A,121.612,38.9741,大连市,甘井子,细颗粒物(PM2.5),234,202,112,184,103,78,74,78,76,57,65,19,30,1.4,1.4
2023-01-06T02:00:00,1110A,121.565,38.9511,大连市,周水子,细颗粒物(PM2.5),215,244,141,165,95,65,63,62,62,46,56,39,27,1.8,1.7
2023-01-06T02:00:00,1111A,121.5637,38.8845,大连市,星海三站,,,,,,,,,,,,,,,,
2023-01-06T02:00:00,1112A,121.6302,38.9117,大连市,青泥洼桥,细颗粒物(PM2.5),224,212,102,174,95,96,80,87,84,40,45,20,19,1.3,1.3
2023-01-06T02:00:00,1113A,121.6251,38.8638,大连市,傅家庄,细颗粒物(PM2.5),195,168,89,146,80,98,88,91,90,25,29,13,19,1.7,1.4
2023-01-06T02:00:00,1114A,121.5213,38.8661,大连市,七贤岭,细颗粒物(PM2.5),196,189,105,147,82,82,70,68,68,32,39,9,9,1.3,1.2
2023-01-06T02:00:00,1115A,121.2529,38.8061,大连市,旅顺,细颗粒物(PM2.5),242,233,131,192,108,94,84,85,84,32,34,15,15,1.2,1
2023-01-06T02:00:00,1116A,121.7485,39.1311,大连市,金州,细颗粒物(PM2.5),216,244,154,166,98,69,52,50,50,62,50,24,16,1.2,1.4
2023-01-06T02:00:00,1117A,121.7811,39.0496,大连市,开发区,细颗粒物(PM2.5),215,192,120,165,108,59,53,36,36,66,85,16,17,1.4,1.8
2023-01-06T02:00:00,1118A,121.9762,39.0631,大连市,双D港,细颗粒物(PM2.5),158,132,66,120,58,71,61,71,66,41,30,8,8,1.4,1.3
2023-01-06T02:00:00,1119A,125.3325,43.9166,长春市,食品厂,细颗粒物(PM2.5),156,129,101,119,88,53,14,14,14,64,64,19,29,1.8,1.5
2023-01-06T02:00:00,1120A,125.2863,43.9027,长春市,客车厂,细颗粒物(PM2.5),149,113,95,114,83,51,7,7,7,69,69,20,34,1.7,1.3
2023-01-06T02:00:00,1121A,125.2841,43.8463,长春市,邮电学院,细颗粒物(PM2.5),153,106,87,117,78,52,5,5,5,71,64,9,20,1.5,1.4
2023-01-06T02:00:00,1122A,125.3716,43.8772,长春市,劳动公园,细颗粒物(PM2.5),159,104,90,121,82,53,12,12,12,72,66,8,20,1.9,1.4
2023-01-06T02:00:00,1123A,125.3297,43.8805,长春市,园林处,细颗粒物(PM2.5),149,114,90,114,79,44,11,12,12,70,68,18,28,1.6,1.4
2023-01-06T02:00:00,1124A,125.4605,43.79,长春市,净月潭,细颗粒物(PM2.5),68,77,72,49,46,65,39,43,41,25,25,6,10,1.3,1.1
2023-01-06T02:00:00,1125A,125.7194,43.515,长春市,甩湾子(对照点),,,,,,,,,,,,,,,,
2023-01-06T02:00:00,1126A,125.3863,43.8447,长春市,经开区环卫处,,,,86,,73,22,,22,,,61,,17,,1.5
2023-01-06T02:00:00,1127A,125.245,43.7783,长春市,高新区管委会,细颗粒物(PM2.5),175,127,112,132,119,60,10,11,10,58,59,8,13,2.1,1.8
2023-01-06T02:00:00,1128A,125.1761,43.8325,长春市,岱山公园,细颗粒物(PM2.5),139,105,96,106,86,65,10,10,10,65,61,12,18,1.7,1.5
2023-01-06T02:00:00,1129A,126.5422,45.755,哈尔滨市,岭北(对照点),细颗粒物(PM2.5),266,241,165,216,134,71,31,39,35,93,67,37,35,1.9,1.3
2023-01-06T02:00:00,1130A,126.561,45.8167,哈尔滨市,松北商大,细颗粒物(PM2.5),243,203,137,193,115,56,5,5,5,92,67,8,20,2.2,1.4
2023-01-06T02:00:00,1131A,126.979,45.5419,哈尔滨市,阿城会宁,细颗粒物(PM2.5),169,151,118,128,97,64,13,12,12,51,42,16,24,1.7,1.2
2023-01-06T02:00:00,1132A,126.599,45.7222,哈尔滨市,南岗学府路,,,273,161,,48,58,18,18,18,86,69,32,23,1.5,1
2023-01-06T02:00:00,1133A,126.689,45.7733,哈尔滨市,太平宏伟公园,细颗粒物(PM2.5),289,298,170,239,134,56,20,18,18,90,72,17,37,2.5,1.5
2023-01-06T02:00:00,1134A,126.635,45.7667,哈尔滨市,道外承德广场,细颗粒物(PM2.5),233,214,142,183,110,46,14,14,14,86,71,17,22,2.0,1.3
2023-01-06T02:00:00,1135A,126.685,45.7319,哈尔滨市,香坊红旗大街,细颗粒物(PM2.5),297,251,167,247,156,49,23,23,23,89,79,125,118,2.1,1.6
2023-01-06T02:00:00,1136A,126.6411,45.7258,哈尔滨市,动力和平路,细颗粒物(PM2.5),248,228,146,198,126,54,19,20,20,88,73,27,28,2.0,1.4
2023-01-06T02:00:00,1137A,126.593,45.7478,哈尔滨市,道里建国路,细颗粒物(PM2.5),234,195,145,184,129,47,12,12,12,84,73,23,25,2.0,1.2
2023-01-06T02:00:00,1138A,126.615,45.61,哈尔滨市,平房东轻厂,细颗粒物(PM2.5),220,199,150,170,124,61,16,15,15,72,57,14,19,1.3,1
2023-01-06T02:00:00,1139A,126.595,45.9855,哈尔滨市,呼兰师专,细颗粒物(PM2.5),322,284,140,272,135,58,10,11,10,78,47,19,20,3.8,1.8
2023-01-06T02:00:00,1140A,126.6206,45.6842,哈尔滨市,省农科院,细颗粒物(PM2.5),282,300,170,232,143,57,8,8,8,95,74,25,30,2.8,1.8
2023-01-06T02:00:00,1141A,121.4,31.238,上海市,普陀,,48,48,36,32,26,84,3,2,2,88,59,5,5,1.0,0.6
2023-01-06T02:00:00,1142A,121.478,31.2036,上海市,十五厂,,50,39,38,29,33,55,0,3,2,100,78,11,10,0.7,0.6
2023-01-06T02:00:00,1143A,121.467,31.3008,上海市,虹口,颗粒物(PM10),52,53,58,33,37,48,0,1,0,88,76,10,9,0.7,0.6
2023-01-06T02:00:00,1144A,121.412,31.1654,上海市,徐汇上师大,,45,37,41,30,31,59,2,2,2,90,69,7,7,0.9,0.8
2023-01-06T02:00:00,1145A,121.536,31.2659,上海市,杨浦四漂,颗粒物(PM10),59,68,61,37,38,24,5,4,4,89,91,8,7,1.1,0.9
2023-01-06T02:00:00,1147A,121.425,31.2261,上海市,静安监测站,,49,49,51,33,30,75,8,12,10,90,70,8,8,0.6,0.6
2023-01-06T02:00:00,1148A,121.703,31.1907,上海市,浦东川沙,细颗粒物(PM2.5),52,32,47,36,38,32,2,2,2,75,74,7,7,0.6,0.6
2023-01-06T02:00:00,1149A,121.533,31.2284,上海市,浦东新区监测站,,50,50,54,27,32,43,0,0,0,90,75,6,6,0.8,0.7
2023-01-06T02:00:00,1150A,121.577,31.2071,上海市,浦东张江,,43,43,43,25,29,41,1,1,1,82,74,6,5,0.9,0.9
2023-01-06T02:00:00,1151A,118.8086,32.1065,南京市,迈皋桥,细颗粒物(PM2.5),147,164,128,112,80,127,1,2,2,90,80,4,7,0.7,0.7
2023-01-06T02:00:00,1152A,118.7538,32.0551,南京市,草场门,细颗粒物(PM2.5),119,132,108,90,72,72,4,4,4,110,85,10,15,0.9,1.1
2023-01-06T02:00:00,1153A,118.7794,32.0745,南京市,山西路,细颗粒物(PM2.5),138,158,120,105,76,91,5,6,6,106,77,6,7,0.7,0.8
2023-01-06T02:00:00,1154A,118.7752,32.0023,南京市,中华门,细颗粒物(PM2.5),113,129,104,85,64,83,6,6,6,104,73,9,11,0.9,1
2023-01-06T02:00:00,1155A,118.8109,32.0309,南京市,瑞金路,细颗粒物(PM2.5),113,165,128,85,72,70,6,6,6,97,83,4,10,1.0,0.9
2023-01-06T02:00:00,1156A,118.7997,32.0754,南京市,玄武湖,细颗粒物(PM2.5),148,161,120,113,80,103,3,3,3,104,70,5,8,0.9,0.9
2023-01-06T02:00:00,1157A,118.6414,32.0931,南京市,浦口,细颗粒物(PM2.5),119,124,104,90,69,111,75,76,76,28,48,6,10,0.9,1
2023-01-06T02:00:00,1158A,118.7356,31.9996,南京市,奥体中心,细颗粒物(PM2.5),128,157,116,97,71,73,6,6,6,102,81,6,9,0.9,0.9
2023-01-06T02:00:00,1159A,118.9125,32.1028,南京市,仙林大学城,细颗粒物(PM2.5),156,168,110,119,76,97,1,1,1,109,80,9,10,1.3,1
2023-01-06T02:00:00,1160A,120.561,31.2472,苏州市,上方山(对照点),细颗粒物(PM2.5),90,84,79,67,67,90,6,7,6,66,50,6,7,0.8,0.8
2023-01-06T02:00:00,1162A,120.591,31.3019,苏州市,彩香,,,,78,,60,39,,48,,,58,,7,,0.9
2023-01-06T02:00:00,1163A,120.596,31.3264,苏州市,轧钢厂,细颗粒物(PM2.5),92,109,86,68,54,91,2,2,2,90,67,5,6,0.9,0.8
2023-01-06T02:00:00,1164A,120.613,31.2703,苏州市,吴中区,细颗粒物(PM2.5),90,99,81,67,59,93,8,5,5,86,66,8,9,0.8,0.7
2023-01-06T02:00:00,1165A,120.543,31.2994,苏州市,苏州新区,细颗粒物(PM2.5),99,102,74,74,56,88,26,14,14,58,53,7,8,0.9,0.8
2023-01-06T02:00:00,1166A,120.669,31.3097,苏州市,苏州工业园区,细颗粒物(PM2.5),85,99,82,63,60,81,2,4,3,103,68,7,8,0.8,0.7
2023-01-06T02:00:00,1167A,120.641,31.3708,苏州市,相城区,细颗粒物(PM2.5),112,123,90,84,61,70,2,8,5,97,66,9,8,0.9,0.8
2023-01-06T02:00:00,1168A,120.9098,31.9663,南通市,狼山街道,细颗粒物(PM2.5),54,33,60,38,49,65,16,19,18,26,32,7,8,0.4,0.5
2023-01-06T02:00:00,1169A,120.86,32.0005,南通市,虹桥,颗粒物(PM10),55,59,67,32,41,79,21,36,28,46,38,4,6,0.6,0.5
2023-01-06T02:00:00,1170A,120.87,32.02,南通市,城中,细颗粒物(PM2.5),53,47,64,37,49,93,16,36,26,47,34,5,7,0.1,0.2
2023-01-06T02:00:00,1171A,120.94,31.93,南通市,星湖花园,,45,43,63,31,42,99,34,47,40,22,31,7,9,0.3,0.4
2023-01-06T02:00:00,1172A,120.81,32.0417,南通市,紫琅学院,细颗粒物(PM2.5),62,58,74,44,46,75,10,26,18,42,36,13,5,0.4,0.6
2023-01-06T02:00:00,1173A,119.176,34.5885,连云港市,市环境监测站,细颗粒物(PM2.5),110,97,131,83,104,96,54,57,56,30,53,10,16,0.8,1.2
2023-01-06T02:00:00,1177A,117.179,34.2761,徐州市,黄河新村,细颗粒物(PM2.5),182,178,178,137,130,114,16,13,13,85,88,11,14,1.6,1.5
2023-01-06T02:00:00,1178A,117.1918,34.2384,徐州市,淮塔,细颗粒物(PM2.5),203,193,180,153,132,131,1,7,4,106,86,8,11,1.6,1.3
2023-01-06T02:00:00,1180A,117.256,34.2153,徐州市,新城区,细颗粒物(PM2.5),238,225,190,188,143,118,1,2,2,101,84,12,13,1.5,1.3
2023-01-06T02:00:00,1181A,117.244,34.2911,徐州市,桃园路,细颗粒物(PM2.5),203,195,192,153,140,124,25,43,34,95,84,10,12,1.2,1.2
2023-01-06T02:00:00,1182A,117.2933,34.2778,徐州市,农科院,细颗粒物(PM2.5),180,178,186,136,136,130,66,60,60,47,62,14,15,1.1,1.2
2023-01-06T02:00:00,1186A,119.389,32.3761,扬州市,邗江监测站,细颗粒物(PM2.5),198,161,134,148,114,103,7,8,8,89,70,7,9,1.3,1.1
2023-01-06T02:00:00,1188A,120.269,31.4867,无锡市,雪浪,细颗粒物(PM2.5),122,127,79,92,56,96,33,39,36,39,24,9,8,0.9,0.6
2023-01-06T02:00:00,1189A,120.275,31.6219,无锡市,黄巷,细颗粒物(PM2.5),140,164,112,107,62,90,6,6,6,83,66,11,10,1.3,1.1
2023-01-06T02:00:00,1190A,120.294,31.56,无锡市,曹张,细颗粒物(PM2.5),122,155,100,92,57,94,2,2,2,86,59,11,10,0.8,0.6
2023-01-06T02:00:00,1191A,120.242,31.5031,无锡市,漆塘,细颗粒物(PM2.5),110,102,69,83,54,112,28,36,32,39,21,8,8,1.0,0.9
2023-01-06T02:00:00,1192A,120.3489,31.5863,无锡市,东亭,细颗粒物(PM2.5),128,122,88,97,59,97,10,13,12,90,75,10,10,1.2,1.1
2023-01-06T02:00:00,1193A,120.354,31.5475,无锡市,旺庄,细颗粒物(PM2.5),122,127,86,92,55,97,0,0,0,84,62,5,5,1.2,1
2023-01-06T02:00:00,1194A,120.245,31.5631,无锡市,荣巷,细颗粒物(PM2.5),128,117,79,97,65,99,6,8,7,77,48,11,11,1.3,1
2023-01-06T02:00:00,1195A,120.299,31.6817,无锡市,堰桥,细颗粒物(PM2.5),160,151,99,122,62,79,4,4,4,94,67,9,7,1.5,1.2
2023-01-06T02:00:00,1196A,119.9633,31.762,常州市,市监测站,细颗粒物(PM2.5),165,164,118,125,73,93,,,,75,55,6,7,1.0,0.8
2023-01-06T02:00:00,1200A,119.9468,31.7069,常州市,武进监测站,细颗粒物(PM2.5),128,130,98,97,67,107,4,5,4,83,55,4,5,0.9,0.7
2023-01-06T02:00:00,1201A,119.9255,31.9087,常州市,安家,细颗粒物(PM2.5),207,218,134,157,93,89,6,6,6,96,77,10,9,1.4,1.1
2023-01-06T02:00:00,1203A,119.6707,32.1875,镇江市,新区办事处,细颗粒物(PM2.5),201,206,158,151,117,93,7,7,7,89,83,13,11,1.3,1.1
2023-01-06T02:00:00,1204A,119.4974,32.1968,镇江市,职教中心,细颗粒物(PM2.5),210,195,135,160,109,98,2,2,2,94,75,7,6,1.0,0.9
2023-01-06T02:00:00,1205A,119.4303,32.1328,镇江市,丹徒区监测站,细颗粒物(PM2.5),204,185,129,154,98,115,7,8,8,99,76,7,7,1.0,0.9
2023-01-06T02:00:00,1206A,119.905,32.4878,泰州市,公园路,细颗粒物(PM2.5),92,70,99,68,86,97,10,16,13,29,40,3,6,1.0,1.1
2023-01-06T02:00:00,1207A,119.9189,32.4625,泰州市,莲花,细颗粒物(PM2.5),114,90,107,86,96,100,14,18,16,39,43,6,9,0.9,0.9
2023-01-06T02:00:00,1209A,119.888,32.4639,泰州市,留学生创业园,细颗粒物(PM2.5),87,103,126,64,86,98,4,15,10,43,44,6,9,0.8,0.9
2023-01-06T02:00:00,1210A,119.036,33.5981,淮安市,钵池山,细颗粒物(PM2.5),182,136,114,137,106,114,2,2,2,89,55,8,10,1.4,1.1
2023-01-06T02:00:00,1211A,119.007,33.575,淮安市,北京南路,细颗粒物(PM2.5),166,171,137,126,101,110,0,0,0,65,58,8,9,1.7,1.3
2023-01-06T02:00:00,1212A,118.989,33.6067,淮安市,市监测站,细颗粒物(PM2.5),199,163,131,149,103,114,16,10,10,69,58,7,8,1.4,1.2
2023-01-06T02:00:00,1213A,119.135,33.5039,淮安市,楚州区监测站,细颗粒物(PM2.5),175,166,120,132,98,113,0,0,0,74,47,8,10,1.5,1.1
2023-01-06T02:00:00,1214A,119.0186,33.6297,淮安市,淮阴区监测站,细颗粒物(PM2.5),240,188,140,190,123,111,2,2,2,83,62,9,10,1.5,1.1
2023-01-06T02:00:00,1215A,120.118,33.4022,盐城市,盐城电厂,颗粒物(PM10),51,51,72,34,38,106,17,19,18,51,40,5,7,0.6,0.8
2023-01-06T02:00:00,1216A,120.156,33.3942,盐城市,市监测站,颗粒物(PM10),55,60,68,36,48,97,5,9,7,50,39,2,3,0.5,0.6
2023-01-06T02:00:00,1218A,120.2144,33.38,盐城市,开发区管委会,细颗粒物(PM2.5),58,53,79,41,54,102,2,7,4,52,36,4,6,0.6,0.7
2023-01-06T02:00:00,1220A,118.293,33.9528,宿迁市,宿迁学院,细颗粒物(PM2.5),212,207,165,162,125,105,4,5,4,103,78,7,8,1.4,1.1
2023-01-06T02:00:00,1221A,118.2442,33.9592,宿迁市,宿迁中学,细颗粒物(PM2.5),206,212,179,156,129,94,6,6,6,102,67,9,9,1.4,1.2
2023-01-06T02:00:00,1223A,120.2072,30.2111,杭州市,滨江,颗粒物(PM10),76,102,91,54,55,49,3,3,3,88,73,8,7,0.9,0.8
2023-01-06T02:00:00,1224A,120.0633,30.2747,杭州市,西溪,细颗粒物(PM2.5),69,76,84,50,57,53,4,4,4,36,44,8,8,0.7,0.7
2023-01-06T02:00:00,1226A,120.3461,30.3153,杭州市,下沙,细颗粒物(PM2.5),150,181,130,115,85,46,3,4,4,90,79,8,7,0.9,0.7
2023-01-06T02:00:00,1227A,120.1269,30.2456,杭州市,卧龙桥,细颗粒物(PM2.5),69,65,70,50,52,60,1,1,1,42,42,7,8,0.7,0.7
2023-01-06T02:00:00,1228A,120.1903,30.2692,杭州市,浙江农大,细颗粒物(PM2.5),102,130,103,76,68,56,4,5,4,73,66,8,8,0.9,0.7
2023-01-06T02:00:00,1230A,120.1197,30.3119,杭州市,和睦小学,细颗粒物(PM2.5),104,129,118,78,78,39,2,2,2,66,74,6,6,1.0,0.8
2023-01-06T02:00:00,1231A,120.3019,30.4183,杭州市,临平镇,细颗粒物(PM2.5),122,147,116,92,75,39,3,3,3,75,63,9,8,0.8,0.8
2023-01-06T02:00:00,1232A,120.2697,30.1819,杭州市,城厢镇,"颗粒物(PM10),细颗粒物(PM2.5)",69,87,93,50,61,57,2,3,2,74,72,7,7,1.1,1
2023-01-06T02:00:00,1233A,120.0883,30.1808,杭州市,云栖,颗粒物(PM10),56,61,74,37,46,43,4,4,4,54,51,9,9,0.8,0.8
2023-01-06T02:00:00,1234A,121.8358,29.911,宁波市,区环保大楼,颗粒物(PM10),56,61,48,39,34,15,0,2,1,71,70,8,10,0.9,0.9
2023-01-06T02:00:00,1235A,121.56,29.82,宁波市,万里学院,颗粒物(PM10),62,74,66,40,38,49,4,5,4,82,72,8,9,0.5,0.5
2023-01-06T02:00:00,1236A,121.713,29.9572,宁波市,龙赛医院,颗粒物(PM10),75,99,79,52,45,24,3,4,4,77,75,14,12,0.9,0.8
2023-01-06T02:00:00,1239A,121.633,29.7733,宁波市,钱湖水厂,细颗粒物(PM2.5),65,62,42,47,33,69,3,10,6,60,35,4,6,0.7,0.6
2023-01-06T02:00:00,1240A,121.5856,29.8635,宁波市,太古小学,颗粒物(PM10),70,90,76,50,44,41,2,2,2,77,75,9,9,1.0,0.7
2023-01-06T02:00:00,1241A,121.524,29.8674,宁波市,市环境监测中心,颗粒物(PM10),60,69,59,31,30,38,0,0,0,68,69,8,7,0.6,0.7
2023-01-06T02:00:00,1242A,120.634,28.0089,温州市,瓯海,颗粒物(PM10),78,106,83,51,44,63,3,3,3,49,51,9,8,0.7,0.6
2023-01-06T02:00:00,1243A,120.6748,27.9939,温州市,南浦,颗粒物(PM10),69,87,68,46,39,70,2,2,2,55,52,5,6,0.6,0.5
2023-01-06T02:00:00,1244A,120.76,27.9747,温州市,龙湾,颗粒物(PM10),73,96,71,42,34,52,3,3,3,64,63,7,7,0.6,0.5
2023-01-06T02:00:00,1245A,120.6709,28.0167,温州市,市站,颗粒物(PM10),67,84,64,40,32,71,3,3,3,56,52,5,6,0.9,0.7
2023-01-06T02:00:00,1247A,120.6053,29.9928,绍兴市,城东开发委,细颗粒物(PM2.5),82,108,94,60,56,63,2,2,2,58,64,5,5,0.9,0.8
2023-01-06T02:00:00,1250A,120.0751,30.8669,湖州市,城西水厂,细颗粒物(PM2.5),112,87,61,84,63,64,5,4,4,82,72,7,6,0.8,0.6
2023-01-06T02:00:00,1252A,120.7436,30.778,嘉兴市,清河小学,细颗粒物(PM2.5),109,117,74,82,54,76,18,39,28,64,44,6,6,0.7,0.4
2023-01-06T02:00:00,1253A,120.726,30.7478,嘉兴市,嘉兴学院,细颗粒物(PM2.5),97,96,72,72,53,78,3,4,4,81,51,9,8,1.1,0.8
2023-01-06T02:00:00,1255A,121.273,28.6459,台州市,黄岩环保大楼,,30,30,31,15,17,88,43,42,42,16,25,7,7,0.3,0.4
2023-01-06T02:00:00,1256A,121.419,28.6542,台州市,台州环保大楼,,44,44,38,21,23,89,17,20,18,47,29,8,8,0.5,0.5
2023-01-06T02:00:00,1257A,121.377,28.5773,台州市,路桥田洋王,颗粒物(PM10),53,55,48,36,31,87,5,8,6,58,40,6,7,0.5,0.5
2023-01-06T02:00:00,1258A,122.122,30.0203,舟山市,定海檀枫,,28,28,30,18,16,67,13,12,12,33,36,4,4,0.7,0.6
2023-01-06T02:00:00,1259A,122.3094,29.9558,舟山市,普陀东港,,29,29,27,20,16,80,62,72,67,12,22,4,5,0.5,0.5
2023-01-06T02:00:00,1260A,122.19,29.9944,舟山市,临城新区,,32,32,32,22,19,82,18,24,21,39,36,4,4,0.3,0.3
2023-01-06T02:00:00,1262A,119.647,29.077,金华市,十五中,细颗粒物(PM2.5),78,68,96,57,62,58,3,5,4,70,62,5,8,0.7,0.9
2023-01-06T02:00:00,1263A,119.686,29.1029,金华市,监测站,细颗粒物(PM2.5),78,75,86,57,60,59,0,1,0,69,66,5,6,0.7,0.8
2023-01-06T02:00:00,1264A,118.8692,28.9398,衢州市,环保大楼,细颗粒物(PM2.5),80,96,75,59,56,59,2,2,2,55,50,5,5,0.8,0.8
2023-01-06T02:00:00,1265A,118.8709,28.9666,衢州市,实验学校,细颗粒物(PM2.5),68,71,76,49,54,61,2,2,2,44,40,9,11,0.8,0.7
2023-01-06T02:00:00,1266A,118.8621,28.9808,衢州市,衢州学院,"颗粒物(PM10),细颗粒物(PM2.5)",57,64,74,40,47,65,2,2,2,39,40,5,5,0.7,0.7
2023-01-06T02:00:00,1267A,119.914,28.4514,丽水市,监测站大楼,,36,32,42,25,25,78,19,25,22,29,27,8,8,0.5,0.5
2023-01-06T02:00:00,1268A,119.93,28.4586,丽水市,莲都小学,颗粒物(PM10),51,52,44,28,23,90,6,18,12,46,27,7,8,0.5,0.5
2023-01-06T02:00:00,1269A,119.879,28.4231,丽水市,余庄前,,34,34,40,22,22,79,7,12,10,28,28,7,7,0.3,0.3
2023-01-06T02:00:00,1270A,117.1959,31.7848,合肥市,明珠广场,细颗粒物(PM2.5),160,190,159,122,91,32,6,4,4,72,83,6,8,1.0,1
2023-01-06T02:00:00,1271A,117.3072,31.8764,合肥市,三里街,细颗粒物(PM2.5),178,178,141,134,103,61,3,2,2,93,86,8,11,1.2,1.2
2023-01-06T02:00:00,1272A,117.2588,31.8707,合肥市,琥珀山庄,细颗粒物(PM2.5),144,161,144,110,90,51,2,2,2,80,82,9,9,0.9,1
2023-01-06T02:00:00,1273A,117.1604,31.9052,合肥市,董铺水库(对照点),细颗粒物(PM2.5),145,171,136,111,86,92,25,21,21,64,57,3,4,0.7,0.6
2023-01-06T02:00:00,1274A,117.25,31.8571,合肥市,长江中路,细颗粒物(PM2.5),180,183,135,136,96,59,2,2,2,92,76,11,13,1.0,1
2023-01-06T02:00:00,1275A,117.266,31.9436,合肥市,庐阳区,细颗粒物(PM2.5),138,168,140,105,86,88,4,4,4,79,65,7,10,0.8,0.8
2023-01-06T02:00:00,1276A,117.336,31.8586,合肥市,瑶海区,细颗粒物(PM2.5),169,173,156,128,100,65,4,4,4,105,90,8,11,1.1,1
2023-01-06T02:00:00,1277A,117.3027,31.7964,合肥市,包河区,细颗粒物(PM2.5),178,202,161,134,103,58,5,5,5,88,86,13,13,0.9,0.9
2023-01-06T02:00:00,1278A,117.2776,31.7385,合肥市,滨湖新区,细颗粒物(PM2.5),178,207,158,134,92,30,1,2,2,106,108,11,9,0.8,0.6
2023-01-06T02:00:00,1279A,117.1318,31.8403,合肥市,高新区,细颗粒物(PM2.5),163,161,144,124,95,60,11,12,12,84,77,9,9,0.8,0.8
2023-01-06T02:00:00,1280A,119.3903,26.0543,福州市,鼓山(对照点),,,,,,,,,,,,,,,,
2023-01-06T02:00:00,1282A,119.2681,26.0504,福州市,师大,,28,28,37,14,17,78,25,18,18,26,22,4,4,0.4,0.5
2023-01-06T02:00:00,1283A,119.2984,26.1028,福州市,五四北路,,35,35,35,18,16,79,15,18,16,37,21,2,3,0.6,0.6
2023-01-06T02:00:00,1284A,119.2648,26.0768,福州市,杨桥西路,,34,34,39,20,19,78,12,15,14,35,21,3,3,0.5,0.6
2023-01-06T02:00:00,1285A,119.317,26.0746,福州市,紫阳,,37,37,37,18,15,77,20,21,20,34,19,3,4,0.5,0.5
2023-01-06T02:00:00,1286A,118.1608,24.8169,厦门市,溪东(对照点),,,,,,,,,,,,,,,,
2023-01-06T02:00:00,1287A,118.1514,24.4767,厦门市,洪文,,24,24,27,15,16,93,57,54,54,23,25,1,2,0.5,0.5
2023-01-06T02:00:00,1288A,118.0661,24.4444,厦门市,鼓浪屿,,22,19,25,10,14,94,68,62,62,19,33,2,4,0.4,0.5
2023-01-06T02:00:00,1290A,115.8931,28.6843,南昌市,省外办,细颗粒物(PM2.5),70,68,68,51,45,68,38,34,34,39,44,8,10,0.6,0.7
2023-01-06T02:00:00,1291A,115.8886,28.7003,南昌市,省林业公司,细颗粒物(PM2.5),70,63,63,51,45,64,28,23,23,42,54,6,8,0.8,0.9
2023-01-06T02:00:00,1292A,115.8126,28.7442,南昌市,林科所,细颗粒物(PM2.5),70,58,47,51,36,68,54,55,54,20,31,7,6,0.6,0.5
2023-01-06T02:00:00,1294A,115.8518,28.687,南昌市,建工学校,颗粒物(PM10),53,55,58,30,36,64,56,55,55,20,38,8,9,0.7,0.8
2023-01-06T02:00:00,1295A,115.8921,28.6424,南昌市,象湖,细颗粒物(PM2.5),74,57,49,54,44,65,45,42,42,28,38,8,7,0.7,0.7
2023-01-06T02:00:00,1296A,115.7423,28.7996,南昌市,武术学校(对照点),,48,20,27,33,28,78,10,13,12,2,14,4,4,0.5,0.7
2023-01-06T02:00:00,1298A,115.9314,28.6842,南昌市,省站,颗粒物(PM10),67,83,72,47,47,70,36,32,32,30,34,9,11,0.7,0.8
2023-01-06T02:00:00,1299A,116.9862,36.6114,济南市,科干所,细颗粒物(PM2.5),199,202,213,149,154,126,126,125,125,28,65,10,17,0.8,1
2023-01-06T02:00:00,1300A,116.9376,36.665,济南市,农科所,细颗粒物(PM2.5),189,210,270,142,183,101,101,98,98,39,100,14,20,0.9,1.7
2023-01-06T02:00:00,1301A,117.1265,36.6734,济南市,开发区,细颗粒物(PM2.5),183,171,237,138,168,128,128,126,126,18,95,12,16,1.0,1.6
2023-01-06T02:00:00,1303A,117.0624,36.6868,济南市,省种子仓库,细颗粒物(PM2.5),201,188,294,151,211,126,126,125,125,21,95,12,27,1.0,2.3
2023-01-06T02:00:00,1304A,116.9489,36.6447,济南市,机床二厂,细颗粒物(PM2.5),209,230,270,159,194,111,107,111,109,29,82,16,37,1.0,1.8
2023-01-06T02:00:00,1305A,117.0495,36.663,济南市,市监测站,细颗粒物(PM2.5),192,186,242,144,175,134,134,134,134,33,93,10,17,0.9,1.6
2023-01-06T02:00:00,1306A,116.7675,36.5484,济南市,长清党校,细颗粒物(PM2.5),253,271,257,203,194,101,94,101,98,39,79,14,14,1.4,1.6
2023-01-06T02:00:00,1307A,120.6659,36.2403,青岛市,仰口(对照点),细颗粒物(PM2.5),128,119,129,97,102,126,124,126,125,33,38,32,5,0.8,0.8
2023-01-06T02:00:00,1310A,120.4134,36.0658,青岛市,市南区东部子站,细颗粒物(PM2.5),122,141,156,92,113,80,77,80,78,27,50,10,12,1.1,1.3
2023-01-06T02:00:00,1311A,120.3664,36.1032,青岛市,四方区子站,细颗粒物(PM2.5),163,146,197,124,152,73,70,70,70,17,64,10,19,1.1,1.7
2023-01-06T02:00:00,1312A,120.2994,36.054,青岛市,市南区西部子站,细颗粒物(PM2.5),135,136,185,103,141,86,52,86,69,65,77,13,13,1.1,1.7
2023-01-06T02:00:00,1313A,120.4581,36.0858,青岛市,崂山区子站,细颗粒物(PM2.5),128,141,149,97,108,85,76,69,69,36,54,8,9,1.0,1.1
2023-01-06T02:00:00,1314A,120.1983,35.9608,青岛市,黄岛区子站,细颗粒物(PM2.5),178,163,196,134,150,85,75,79,77,34,61,10,16,1.1,1.3
2023-01-06T02:00:00,1315A,120.3999,36.3083,青岛市,城阳区子站,细颗粒物(PM2.5),125,156,209,95,125,69,57,50,50,55,87,9,13,1.2,2
2023-01-06T02:00:00,1316A,113.69031,34.76122,郑州市,烟厂,细颗粒物(PM2.5),334,363,343,284,299,66,33,28,28,73,100,15,15,1.5,1.8
2023-01-06T02:00:00,1317A,113.65724,34.77134,郑州市,郑纺机,细颗粒物(PM2.5),331,398,353,281,299,79,16,12,12,98,104,18,20,2.1,2.4
2023-01-06T02:00:00,1318A,113.67526,34.80246,郑州市,银行学校,细颗粒物(PM2.5),338,378,349,288,300,68,33,24,24,80,104,21,21,2.3,2.6
2023-01-06T02:00:00,1319A,113.56746,34.81334,郑州市,供水公司,细颗粒物(PM2.5),335,275,323,285,286,94,13,8,8,99,96,16,18,1.7,2.2
2023-01-06T02:00:00,1320A,113.7329,34.7178,郑州市,经开区管委,细颗粒物(PM2.5),330,400,358,280,294,79,25,14,14,82,88,18,17,1.9,2.1
2023-01-06T02:00:00,1321A,113.73961,34.77172,郑州市,四十七中,细颗粒物(PM2.5),358,384,351,308,314,65,39,31,31,58,84,16,16,2.1,2.2
2023-01-06T02:00:00,1322A,113.60532,34.74838,郑州市,市监测站,细颗粒物(PM2.5),336,404,402,286,314,82,17,12,12,77,82,14,14,1.7,1.9
2023-01-06T02:00:00,1323A,113.64164,34.7525,郑州市,河医大,细颗粒物(PM2.5),341,382,365,291,310,77,24,19,19,77,91,13,12,1.8,2
2023-01-06T02:00:00,1324A,113.51488,34.91089,郑州市,岗李水库(对照点),,,,,,,,,,,,,,,,
2023-01-06T02:00:00,1325A,114.3677,30.5584,武汉市,东湖梨园,细颗粒物(PM2.5),170,149,91,129,72,62,8,16,12,88,64,8,10,1.4,1.2
2023-01-06T02:00:00,1326A,114.2529,30.558,武汉市,汉阳月湖,细颗粒物(PM2.5),192,161,90,144,78,51,8,8,8,77,64,7,8,1.3,1.2
2023-01-06T02:00:00,1327A,114.282,30.6189,武汉市,汉口花桥,细颗粒物(PM2.5),182,165,91,137,76,56,5,6,6,77,56,9,11,1.3,1.1
2023-01-06T02:00:00,1328A,114.3025,30.5332,武汉市,武昌紫阳,细颗粒物(PM2.5),189,143,87,142,76,41,6,6,6,89,70,8,11,1.3,1.2
2023-01-06T02:00:00,1329A,114.3646,30.6217,武汉市,青山钢花,细颗粒物(PM2.5),192,156,103,144,80,68,6,6,6,99,69,10,12,1.5,1.3
2023-01-06T02:00:00,1330A,114.1566,30.4825,武汉市,沌口新区,细颗粒物(PM2.5),169,142,88,128,78,65,5,5,5,94,78,9,11,0.9,0.9
2023-01-06T02:00:00,1331A,114.3014,30.5944,武汉市,汉口江滩,细颗粒物(PM2.5),188,150,88,141,71,56,9,9,9,78,58,8,12,1.4,1.2
2023-01-06T02:00:00,1333A,114.135,30.6319,武汉市,吴家山,细颗粒物(PM2.5),192,163,107,144,82,48,9,9,9,86,78,8,9,1.3,1.1
2023-01-06T02:00:00,1334A,113.8454,30.2917,武汉市,沉湖七壕(对照点),细颗粒物(PM2.5),137,119,82,104,49,58,12,12,12,49,44,8,9,1.4,1.2
2023-01-06T02:00:00,1335A,113.0833,28.2325,长沙市,经开区环保局,细颗粒物(PM2.5),260,229,179,210,164,109,45,48,46,31,39,9,8,1.1,1.1
2023-01-06T02:00:00,1336A,112.8872,28.2189,长沙市,高开区环保局,细颗粒物(PM2.5),247,205,168,197,158,116,53,59,56,26,27,9,9,1.1,1
2023-01-06T02:00:00,1337A,113.0792,28.2053,长沙市,马坡岭,细颗粒物(PM2.5),257,205,173,207,168,112,39,44,42,33,36,10,9,0.9,0.9
2023-01-06T02:00:00,1338A,112.9394,28.19,长沙市,湖南师范大学,细颗粒物(PM2.5),256,211,177,206,169,105,49,54,52,25,27,7,7,0.9,0.9
2023-01-06T02:00:00,1339A,113.0178,28.1322,长沙市,雨花区环保局,细颗粒物(PM2.5),226,180,156,176,146,110,48,55,52,30,35,5,4,0.8,0.7
2023-01-06T02:00:00,1340A,112.9792,28.2597,长沙市,伍家岭,细颗粒物(PM2.5),248,234,195,198,165,110,55,59,57,22,28,8,8,1.1,1
2023-01-06T02:00:00,1341A,113.0014,28.1944,长沙市,火车新站,细颗粒物(PM2.5),238,203,166,188,158,115,60,64,62,28,31,8,8,1.0,1
2023-01-06T02:00:00,1342A,112.9844,28.1178,长沙市,天心区环保局,细颗粒物(PM2.5),218,196,163,168,142,123,56,62,59,34,38,9,8,0.8,0.8
2023-01-06T02:00:00,1343A,112.8908,28.1308,长沙市,湖南中医药大学,细颗粒物(PM2.5),262,210,174,212,166,115,50,57,54,27,27,6,7,1.0,1
2023-01-06T02:00:00,1344A,112.9581,28.3611,长沙市,沙坪(对照点),细颗粒物(PM2.5),252,220,180,202,157,107,42,45,44,22,22,6,6,0.9,0.8
2023-01-06T02:00:00,1345A,113.2347,23.1423,广州市,广雅中学,颗粒物(PM10),65,79,66,43,36,90,3,4,4,79,56,5,6,1.4,1.3
2023-01-06T02:00:00,1346A,113.2612,23.105,广州市,市五中,颗粒物(PM10),60,69,60,42,42,124,14,14,14,76,49,7,6,1.0,1
2023-01-06T02:00:00,1348A,113.3478,23.0916,广州市,广东商学院,,50,50,44,33,29,116,41,40,40,47,41,7,6,0.9,0.9
2023-01-06T02:00:00,1349A,113.4332,23.1047,广州市,市八十六中,颗粒物(PM10),64,78,58,40,35,97,5,4,4,78,48,4,4,0.7,0.5
2023-01-06T02:00:00,1350A,113.3505,22.9483,广州市,番禺中学,细颗粒物(PM2.5),63,68,60,45,42,115,4,5,4,93,62,9,9,1.1,1
2023-01-06T02:00:00,1351A,113.2146,23.3916,广州市,花都师范,,40,40,42,28,32,106,55,58,56,25,26,10,8,0.9,0.8
2023-01-06T02:00:00,1352A,113.2597,23.1331,广州市,市监测站,颗粒物(PM10),69,87,66,43,36,113,3,4,4,83,56,6,6,1.0,1
2023-01-06T02:00:00,1353A,113.5618,23.312,广州市,九龙镇镇龙,颗粒物(PM10),55,59,47,38,31,99,33,24,24,42,36,5,5,0.9,0.8
2023-01-06T02:00:00,1354A,113.2765,23.1544,广州市,麓湖,颗粒物(PM10),54,57,50,35,31,118,4,4,4,70,43,4,4,0.9,0.8
2023-01-06T02:00:00,1355A,113.443,23.3035,广州市,帽峰山森林公园(对照点),,43,40,34,30,30,90,53,63,58,18,15,6,5,0.7,0.7
2023-01-06T02:00:00,1356A,114.1063,22.5545,深圳市,通心岭子站,,40,40,52,25,32,123,43,55,49,22,31,2,3,0.5,0.6
2023-01-06T02:00:00,1357A,114.117,22.5625,深圳市,洪湖,颗粒物(PM10),54,58,58,34,34,135,29,50,40,42,40,7,7,0.7,0.7
2023-01-06T02:00:00,1358A,113.987,22.5417,深圳市,华侨城,颗粒物(PM10),52,54,64,35,42,150,30,48,39,46,52,4,5,1.0,1
2023-01-06T02:00:00,1359A,113.9181,22.5171,深圳市,南海子站,细颗粒物(PM2.5),62,63,74,44,43,108,40,52,46,47,58,4,5,0.7,0.7
2023-01-06T02:00:00,1360A,114.2458,22.5689,深圳市,盐田,,29,29,39,20,26,97,13,26,20,58,53,5,7,0.6,0.6
2023-01-06T02:00:00,1361A,114.2283,22.7244,深圳市,龙岗,颗粒物(PM10),58,65,58,40,33,105,41,34,34,34,38,3,4,0.9,0.9
2023-01-06T02:00:00,1363A,114.494,22.5422,深圳市,南澳,,15,15,33,7,19,140,41,51,46,10,14,4,5,0.6,0.6
2023-01-06T02:00:00,1364A,114.41,22.6342,深圳市,葵涌,,40,34,48,28,31,114,26,26,26,13,22,8,9,0.8,0.8
2023-01-06T02:00:00,1365A,114.297,22.5978,深圳市,梅沙,,21,21,42,12,25,135,54,58,56,13,18,6,6,0.7,0.6
2023-01-06T02:00:00,1366A,114.0678,22.738,深圳市,观澜,颗粒物(PM10),121,191,98,68,48,105,5,6,6,80,59,8,8,0.9,0.7
2023-01-06T02:00:00,1367A,113.5814,22.2618,珠海市,吉大,颗粒物(PM10),63,76,78,40,45,182,53,60,56,27,46,7,8,0.5,0.6
2023-01-06T02:00:00,1368A,113.4881,22.2335,珠海市,前山,颗粒物(PM10),84,117,86,41,35,159,22,35,28,65,64,3,4,0.7,0.7
2023-01-06T02:00:00,1369A,113.628,22.4251,珠海市,唐家,细颗粒物(PM2.5),72,76,72,52,50,180,12,18,15,61,46,8,9,0.7,0.6
2023-01-06T02:00:00,1370A,113.299,22.2281,珠海市,斗门,细颗粒物(PM2.5),83,84,81,61,58,116,20,29,24,79,59,5,5,0.8,0.7
2023-01-06T02:00:00,1371A,113.1294,23.0067,佛山市,湾梁,颗粒物(PM10),69,88,63,41,33,144,4,4,4,85,46,11,7,1.0,0.8
2023-01-06T02:00:00,1372A,113.1083,23.0478,佛山市,华材职中,细颗粒物(PM2.5),80,97,66,59,39,140,4,4,4,83,55,12,11,0.9,0.6
2023-01-06T02:00:00,1373A,113.144,23.0453,佛山市,南海气象局,细颗粒物(PM2.5),65,64,56,47,36,120,0,0,0,86,55,6,6,0.8,0.7
2023-01-06T02:00:00,1374A,113.2881,22.8094,佛山市,顺德苏岗,,,55,55,39,35,98,0,0,0,,50,7,7,0.9,0.8
2023-01-06T02:00:00,1376A,112.8383,22.8678,佛山市,高明孔堂,颗粒物(PM10),53,56,58,31,36,115,31,35,33,35,31,4,5,0.6,0.7
2023-01-06T02:00:00,1377A,112.8836,23.1588,佛山市,三水监测站,细颗粒物(PM2.5),54,48,58,38,38,110,24,14,14,48,46,8,8,0.8,0.9
2023-01-06T02:00:00,1378A,112.867,23.185,佛山市,三水云东海,细颗粒物(PM2.5),60,60,52,43,38,111,1,0,0,60,42,6,6,0.8,0.8
2023-01-06T02:00:00,1379A,113.3769,22.5211,中山市,华柏园,细颗粒物(PM2.5),77,84,73,56,52,89,1,1,1,66,66,6,8,1.2,1
2023-01-06T02:00:00,1380A,113.3881,22.5497,中山市,张溪,细颗粒物(PM2.5),84,110,76,62,53,93,0,0,0,107,68,5,6,1.2,0.9
2023-01-06T02:00:00,1381A,113.4075,22.5111,中山市,紫马岭,细颗粒物(PM2.5),59,56,66,42,45,104,1,2,2,56,57,4,5,0.8,0.7
2023-01-06T02:00:00,1382A,113.4411,22.4853,中山市,长江旅游区(对照点),,,,,,,,,,,,,,,,
2023-01-06T02:00:00,1383A,113.1064,22.6058,江门市,北街,颗粒物(PM10),52,53,56,32,34,128,35,34,34,55,52,10,10,0.8,0.8
2023-01-06T02:00:00,1384A,113.0731,22.5835,江门市,西区,颗粒物(PM10),55,60,65,32,36,128,7,21,14,78,55,7,8,0.7,0.8
2023-01-06T02:00:00,1385A,113.0219,22.5311,江门市,圭峰西,颗粒物(PM10),67,84,65,42,45,141,46,27,27,44,48,6,6,0.9,0.9
2023-01-06T02:00:00,1386A,113.0828,22.5947,江门市,东湖,颗粒物(PM10),57,63,62,32,36,131,17,28,22,62,46,7,8,0.8,0.8
2023-01-06T02:00:00,1389A,113.7547,23.0494,东莞市,莞城梨川,颗粒物(PM10),53,56,47,36,33,109,6,11,8,73,45,10,8,0.8,0.8
2023-01-06T02:00:00,1390A,113.7944,23.0128,东莞市,东城石井,细颗粒物(PM2.5),53,54,45,37,31,120,4,3,3,43,30,8,9,0.8,0.8
2023-01-06T02:00:00,1391A,113.7383,22.9658,东莞市,南城西平,,,78,57,51,34,113,4,4,4,82,50,12,10,1.0,0.8
2023-01-06T02:00:00,1392A,114.4183,23.0528,惠州市,河南岸金山湖子站,细颗粒物(PM2.5),63,71,56,45,39,88,25,23,23,37,29,5,6,0.6,0.6
2023-01-06T02:00:00,1393A,114.4053,23.0822,惠州市,下埔横江三路子站,细颗粒物(PM2.5),72,67,53,52,37,100,35,28,28,39,32,7,8,0.8,0.8
2023-01-06T02:00:00,1394A,114.4103,23.1142,惠州市,江北云山西路子站,细颗粒物(PM2.5),68,75,47,49,37,104,30,22,22,41,27,5,6,0.9,0.9
2023-01-06T02:00:00,1395A,114.4645,22.7833,惠州市,惠阳区承修路船湖子站,细颗粒物(PM2.5),70,69,64,51,40,79,11,48,30,36,21,4,4,0.5,0.5
2023-01-06T02:00:00,1396A,114.5317,22.7422,惠州市,大亚湾管委会子站,颗粒物(PM10),52,54,60,34,34,114,10,18,14,54,34,3,4,0.7,0.8
2023-01-06T02:00:00,1397A,112.4267,23.0706,肇庆市,睦岗子站,,34,34,44,22,30,95,10,8,8,52,47,8,8,0.8,0.7
2023-01-06T02:00:00,1398A,112.4645,23.0475,肇庆市,城中子站,,33,32,47,23,32,107,20,14,14,40,39,8,9,0.6,0.7
2023-01-06T02:00:00,1399A,112.5544,23.1522,肇庆市,坑口子站,,23,23,37,16,28,106,21,12,12,34,29,8,9,0.2,0.3
2023-01-06T02:00:00,1400A,112.4753,23.1,肇庆市,七星岩子站(对照点),,19,19,35,11,24,103,50,56,53,15,18,2,2,0.7,0.7
2023-01-06T02:00:00,1401A,108.3103,22.7881,南宁市,二十一中,细颗粒物(PM2.5),65,72,70,47,52,64,30,25,25,28,27,5,6,0.9,1.1
2023-01-06T02:00:00,1402A,108.3141,22.8528,南宁市,北湖,细颗粒物(PM2.5),68,65,76,49,55,61,28,28,28,26,24,8,9,0.9,1
2023-01-06T02:00:00,1403A,108.3206,22.8225,南宁市,市监测站,细颗粒物(PM2.5),72,69,67,52,56,57,30,24,24,36,38,11,11,1.0,1.1
2023-01-06T02:00:00,1404A,108.3829,22.8037,南宁市,大自然花园,细颗粒物(PM2.5),70,76,64,51,55,75,7,6,6,46,27,9,8,1.0,1.1
2023-01-06T02:00:00,1405A,108.4394,22.7904,南宁市,仙葫(对照点),细颗粒物(PM2.5),75,95,62,55,52,82,8,20,14,49,22,9,8,2.1,1
2023-01-06T02:00:00,1406A,108.2397,22.8467,南宁市,区农职院,颗粒物(PM10),57,64,69,39,49,50,44,40,40,23,37,7,10,0.9,0.9
2023-01-06T02:00:00,1407A,108.3275,22.735,南宁市,英华嘉园,细颗粒物(PM2.5),82,99,66,60,57,73,4,4,4,51,30,7,7,1.3,1.1
2023-01-06T02:00:00,1408A,108.2257,22.7757,南宁市,沙井镇街道办,细颗粒物(PM2.5),74,87,78,54,57,44,1,0,0,50,48,6,7,1.1,1
2023-01-06T02:00:00,1409A,110.576,19.9507,海口市,东寨港(对照点),,,23,37,20,27,66,21,28,24,,,3,2,0.6,0.6
2023-01-06T02:00:00,1410A,110.3232,20.0574,海口市,海南大学,颗粒物(PM10),51,52,52,30,37,140,112,108,108,16,15,6,6,0.8,0.8
2023-01-06T02:00:00,1411A,110.283,20.0053,海口市,秀英海南医院,颗粒物(PM10),51,52,55,19,37,138,79,76,76,36,21,6,6,0.8,0.7
2023-01-06T02:00:00,1412A,110.338,19.9969,海口市,海南师范大学,,,53,55,,26,142,78,81,80,32,20,5,6,0.6,0.6
2023-01-06T02:00:00,1413A,110.33,20.0356,海口市,龙华路环保局宿舍,颗粒物(PM10),51,51,51,25,31,139,76,75,75,30,20,5,5,0.7,0.7
2023-01-06T02:00:00,1414A,106.3787,29.8279,重庆市,缙云山(对照点),细颗粒物(PM2.5),52,47,58,36,40,67,67,52,52,20,26,6,6,0.6,0.6
2023-01-06T02:00:00,1416A,106.4213,29.8253,重庆市,天生,细颗粒物(PM2.5),89,89,107,66,77,24,2,2,2,34,36,7,10,1.1,1.1
2023-01-06T02:00:00,1417A,106.6263,29.7228,重庆市,两路,细颗粒物(PM2.5),100,102,92,75,62,25,5,5,5,52,50,7,10,1.1,1.2
2023-01-06T02:00:00,1418A,106.2953,29.5983,重庆市,虎溪,细颗粒物(PM2.5),104,86,87,78,78,41,4,4,4,44,40,5,8,0.7,0.7
2023-01-06T02:00:00,1419A,106.5777,29.5102,重庆市,南坪,细颗粒物(PM2.5),108,109,96,81,71,33,3,3,3,67,52,5,8,1.1,1
2023-01-06T02:00:00,1420A,106.6556,29.6277,重庆市,唐家沱,颗粒物(PM10),82,114,96,59,68,11,2,2,2,60,54,7,7,0.5,0.6
2023-01-06T02:00:00,1421A,106.6349,29.4906,重庆市,茶园,细颗粒物(PM2.5),100,126,115,75,77,38,6,7,6,62,50,6,7,1.1,1
2023-01-06T02:00:00,1422A,106.3754,29.4572,重庆市,白市驿,细颗粒物(PM2.5),97,99,85,72,62,28,5,5,5,59,48,6,8,1.2,1.1
2023-01-06T02:00:00,1425A,106.6205,29.7166,重庆市,空港,细颗粒物(PM2.5),112,84,89,84,71,20,5,5,5,53,51,9,11,1.2,1.2
2023-01-06T02:00:00,1426A,106.4782,29.4875,重庆市,新山村,细颗粒物(PM2.5),104,134,114,78,80,16,5,5,5,64,61,5,6,1.0,0.9
2023-01-06T02:00:00,1427A,106.5616,29.6453,重庆市,礼嘉,细颗粒物(PM2.5),102,140,117,76,71,15,3,3,3,60,59,8,8,0.8,0.8
2023-01-06T02:00:00,1428A,106.4522,29.7091,重庆市,蔡家,细颗粒物(PM2.5),80,89,93,59,67,45,5,5,5,30,36,5,7,0.8,0.9
2023-01-06T02:00:00,1429A,106.5093,29.3917,重庆市,鱼新街,细颗粒物(PM2.5),108,93,104,81,78,17,4,5,4,46,51,8,16,1.3,1.3
2023-01-06T02:00:00,1431A,103.9728,30.7236,成都市,金泉两河,细颗粒物(PM2.5),118,96,95,89,81,88,0,0,0,61,48,1,1,0.9,0.9
2023-01-06T02:00:00,1432A,104.176,30.6872,成都市,十里店,细颗粒物(PM2.5),68,69,87,49,73,93,28,28,28,36,46,3,4,0.6,0.7
2023-01-06T02:00:00,1433A,104.079,30.5706,成都市,三瓦窑,细颗粒物(PM2.5),104,82,100,78,75,91,1,2,2,59,40,2,2,0.7,0.8
2023-01-06T02:00:00,1434A,104.1114,30.63,成都市,沙河铺,细颗粒物(PM2.5),74,82,94,54,73,94,9,17,13,35,40,2,2,0.6,0.8
2023-01-06T02:00:00,1437A,104.0786,30.6531,成都市,君平街,细颗粒物(PM2.5),99,83,97,74,84,89,4,11,8,68,55,2,2,1.1,1.1
2023-01-06T02:00:00,1438A,103.613,31.0283,成都市,灵岩寺(对照点),细颗粒物(PM2.5),120,111,67,91,53,100,66,63,63,26,20,6,6,0.6,0.5
2023-01-06T02:00:00,1439A,106.6899,26.5998,贵阳市,马鞍山,,42,24,30,29,31,25,22,25,24,15,20,5,6,0.8,0.9
2023-01-06T02:00:00,1440A,106.6971,26.5694,贵阳市,市环保站,细颗粒物(PM2.5),67,39,32,48,36,27,27,25,25,20,25,8,8,0.6,0.7
2023-01-06T02:00:00,1441A,106.6243,26.6266,贵阳市,鉴湖路,,39,39,30,27,17,40,27,36,32,19,18,5,7,0.6,0.6
2023-01-06T02:00:00,1442A,106.7487,26.6343,贵阳市,燕子冲,细颗粒物(PM2.5),64,48,41,46,40,26,15,10,10,16,19,9,9,0.6,0.7
2023-01-06T02:00:00,1443A,106.6555,26.4365,贵阳市,碧云窝,细颗粒物(PM2.5),64,48,73,46,55,26,24,23,23,20,28,20,19,0.7,0.9
2023-01-06T02:00:00,1444A,106.694,26.5161,贵阳市,中院村,颗粒物(PM10),54,58,46,36,30,28,28,25,25,22,28,15,15,0.7,0.8
2023-01-06T02:00:00,1445A,106.7109,26.6027,贵阳市,红边门,细颗粒物(PM2.5),58,41,40,41,35,25,23,25,24,20,24,18,19,0.8,0.8
2023-01-06T02:00:00,1446A,106.7164,26.5699,贵阳市,新华路,,49,48,40,34,28,26,26,25,25,18,21,7,9,0.6,0.7
2023-01-06T02:00:00,1447A,106.674,26.5424,贵阳市,太慈桥,细颗粒物(PM2.5),52,51,44,36,25,28,26,28,27,22,26,7,9,0.7,0.7
2023-01-06T02:00:00,1450A,102.8204,24.8886,昆明市,呈贡新区,细颗粒物(PM2.5),53,53,33,37,23,89,1,0,0,55,28,8,8,1.0,0.7
2023-01-06T02:00:00,1451A,102.6251,24.9608,昆明市,西山森林公园(对照点),,21,21,16,9,14,96,64,81,72,24,16,10,9,0.6,0.5
2023-01-06T02:00:00,1452A,102.7252,25.0902,昆明市,龙泉镇,,48,48,53,24,28,84,6,5,5,36,32,7,9,0.8,1.1
2023-01-06T02:00:00,1453A,102.7266,25.0375,昆明市,东风东路,颗粒物(PM10),55,60,46,33,27,86,0,0,0,53,37,8,9,0.8,0.8
2023-01-06T02:00:00,1454A,102.6742,25.0669,昆明市,金鼎山,颗粒物(PM10),53,56,47,32,29,90,13,10,10,38,29,8,10,0.6,0.6
2023-01-06T02:00:00,1455A,102.6644,25.0401,昆明市,碧鸡广场,颗粒物(PM10),58,65,44,36,24,86,6,6,6,50,36,4,4,0.7,0.5
2023-01-06T02:00:00,1456A,91.1319,29.6514,拉萨市,八廓街,,21,11,13,2,1,91,67,66,66,13,12,6,6,0.5,0.5
2023-01-06T02:00:00,1457A,91.1221,29.6747,拉萨市,市环保局,,21,6,9,0,2,91,67,76,72,11,11,3,4,0.4,0.4
2023-01-06T02:00:00,1458A,91.0874,29.6475,拉萨市,区监测站,,24,10,12,1,4,96,75,78,76,6,8,5,6,0.3,0.2
2023-01-06T02:00:00,1459A,91.1774,29.6541,拉萨市,西藏大学,,22,8,10,2,6,92,70,71,70,9,10,8,8,0.2,0.4
2023-01-06T02:00:00,1460A,90.9798,29.6588,拉萨市,区辐射站,,27,4,9,4,4,104,84,90,87,7,6,8,8,0.5,0.4
2023-01-06T02:00:00,1461A,91.0834,29.6292,拉萨市,拉萨火车站,,23,8,10,0,2,88,72,78,75,8,9,8,8,0.2,0.2
2023-01-06T02:00:00,1462A,108.882,34.2749,西安市,高压开关厂,细颗粒物(PM2.5),243,289,387,193,320,68,38,40,39,50,110,6,8,1.4,2.2
2023-01-06T02:00:00,1463A,108.993,34.2629,西安市,兴庆小区,细颗粒物(PM2.5),200,227,271,150,257,66,47,58,52,38,92,8,9,1.1,1.9
2023-01-06T02:00:00,1464A,109.06,34.2572,西安市,纺织城,细颗粒物(PM2.5),235,251,308,185,273,51,11,18,14,77,88,10,13,1.3,1.9
2023-01-06T02:00:00,1465A,108.9356,34.2173,西安市,小寨,细颗粒物(PM2.5),218,223,370,168,314,67,35,57,46,46,95,9,9,1.2,2.1
2023-01-06T02:00:00,1466A,108.954,34.2713,西安市,市人民体育场,细颗粒物(PM2.5),231,275,331,181,282,62,36,40,38,45,108,8,9,1.2,2
2023-01-06T02:00:00,1467A,108.8922,34.2322,西安市,高新西区,细颗粒物(PM2.5),244,248,349,194,318,86,40,56,48,46,89,9,9,1.6,2.3
2023-01-06T02:00:00,1468A,108.935,34.3474,西安市,经开区,细颗粒物(PM2.5),259,289,315,209,293,85,36,45,40,45,102,8,9,1.2,1.8
2023-01-06T02:00:00,1469A,108.906,34.1546,西安市,长安区,细颗粒物(PM2.5),185,268,318,139,276,104,48,59,54,32,62,7,7,1.1,1.9
2023-01-06T02:00:00,1471A,109.2186,34.3731,西安市,临潼区,颗粒物(PM10),164,278,308,83,249,97,66,72,69,15,76,9,12,0.6,1.7
2023-01-06T02:00:00,1472A,108.869,34.378,西安市,草滩(对照点),细颗粒物(PM2.5),212,305,296,162,172,60,12,14,13,75,95,10,14,0.9,0.8
2023-01-06T02:00:00,1473A,108.985,34.1978,西安市,曲江文化产业集团,细颗粒物(PM2.5),169,241,353,128,295,74,46,59,52,39,96,7,7,1.0,1.9
2023-01-06T02:00:00,1474A,109.051,34.3213,西安市,广运潭,细颗粒物(PM2.5),287,268,275,237,256,58,4,24,14,83,87,8,11,1.8,2
2023-01-06T02:00:00,1476A,103.631,36.1031,兰州市,兰炼宾馆,颗粒物(PM10),181,312,260,65,85,57,11,12,12,62,57,15,45,0.6,1.4
2023-01-06T02:00:00,1477A,104.1373,35.9454,兰州市,榆中兰大校区(对照点),,,,,,,,,,,,,,,,
2023-01-06T02:00:00,1478A,103.8412,36.0726,兰州市,生物制品所,颗粒物(PM10),182,313,263,52,70,69,4,4,4,68,62,12,22,0.6,1.3
2023-01-06T02:00:00,1479A,103.831,36.0464,兰州市,铁路设计院,颗粒物(PM10),168,285,254,66,79,74,8,10,9,79,70,18,28,1.3,1.7
2023-01-06T02:00:00,1483A,101.524,36.6867,西宁市,第五水厂(对照点),,,,,,,,,,,,,,,,
2023-01-06T02:00:00,1484A,105.9512,38.6016,银川市,贺兰山马莲口(对照点),颗粒物(PM10),65,79,109,21,53,90,84,84,84,12,25,8,17,2.5,3
2023-01-06T02:00:00,1488A,106.2328,38.4975,银川市,贺兰山东路,颗粒物(PM10),150,249,232,39,107,87,80,80,80,20,57,3,10,0.4,1.6
2023-01-06T02:00:00,1489A,106.1358,38.5036,银川市,学院路,颗粒物(PM10),116,181,255,26,108,80,77,80,78,13,53,3,14,0.5,1.8
2023-01-06T02:00:00,1490A,87.5801,43.8303,乌鲁木齐市,监测站,细颗粒物(PM2.5),206,206,74,156,52,69,0,0,0,88,61,6,7,2.2,1.3
2023-01-06T02:00:00,1491A,87.6046,43.768,乌鲁木齐市,收费所,细颗粒物(PM2.5),180,195,69,136,34,84,4,4,4,95,35,2,2,1.9,0.6
2023-01-06T02:00:00,1492A,87.4754,43.9469,乌鲁木齐市,新疆农科院农场(对照点),细颗粒物(PM2.5),250,150,101,200,113,48,5,24,14,77,66,12,7,2.2,1.7
2023-01-06T02:00:00,1493A,87.5525,43.8711,乌鲁木齐市,铁路局,细颗粒物(PM2.5),220,187,82,170,70,43,36,40,38,55,77,6,5,1.9,1.4
2023-01-06T02:00:00,1494A,87.6432,43.831,乌鲁木齐市,三十一中学,细颗粒物(PM2.5),201,210,72,151,44,85,4,5,4,83,41,5,5,1.9,0.8
2023-01-06T02:00:00,1496A,87.7216,44.1747,乌鲁木齐市,米东区环保局,细颗粒物(PM2.5),232,222,161,182,132,64,32,32,32,66,60,16,8,1.9,1.5
2023-01-06T02:00:00,1508A,112.9433,27.8614,湘潭市,板塘,细颗粒物(PM2.5),248,210,149,198,153,114,54,58,56,29,35,8,8,1.4,1.2
2023-01-06T02:00:00,1511A,112.9118,27.8403,湘潭市,市监测站,细颗粒物(PM2.5),232,200,159,182,142,116,60,65,62,32,40,10,9,1.1,1.1
2023-01-06T02:00:00,1512A,112.8937,27.8728,湘潭市,江麓,细颗粒物(PM2.5),230,,129,180,133,133,65,71,68,26,28,16,14,1.0,0.9
2023-01-06T02:00:00,1513A,112.9227,27.8159,湘潭市,岳塘,细颗粒物(PM2.5),235,200,148,185,140,108,55,61,58,31,35,10,7,1.1,1
2023-01-06T02:00:00,1514A,112.9074,27.9119,湘潭市,科大,细颗粒物(PM2.5),246,219,164,196,152,123,59,64,62,36,37,8,6,1.2,1.1
2023-01-06T02:00:00,1515A,113.135,27.8244,株洲市,天台山庄,细颗粒物(PM2.5),232,169,129,182,125,118,55,66,60,44,44,8,6,1.1,1
2023-01-06T02:00:00,1518A,113.095,27.8867,株洲市,株冶医院,细颗粒物(PM2.5),217,190,144,167,123,117,50,66,58,51,49,9,6,1.0,0.9
2023-01-06T02:00:00,1519A,113.167,27.8667,株洲市,市四中,细颗粒物(PM2.5),222,163,130,172,128,122,62,73,68,38,41,8,6,0.7,0.7
2023-01-06T02:00:00,1520A,113.143,27.8381,株洲市,火车站,细颗粒物(PM2.5),236,197,146,186,131,118,58,63,60,41,42,8,6,1.0,1
2023-01-06T02:00:00,1524A,113.13,27.8528,株洲市,市监测站,细颗粒物(PM2.5),231,205,156,181,142,135,56,62,59,38,46,8,7,0.4,0.7
2023-01-06T02:00:00,1552A,106.805,26.3003,贵阳市,桐木岭(对照点),,,,,,,,,,,,,,,,
2023-01-06T02:00:00,1559A,113.251,27.8336,株洲市,大京风景区(对照点),细颗粒物(PM2.5),222,183,110,172,103,115,57,63,60,32,24,6,5,0.9,0.7
2023-01-06T02:00:00,1562A,113.0048,27.9153,湘潭市,昭山,细颗粒物(PM2.5),234,218,172,184,147,113,50,55,52,36,43,6,4,0.8,0.8
2023-01-06T02:00:00,1564A,112.4876,27.9164,湘潭市,韶山(对照点),细颗粒物(PM2.5),186,187,118,140,101,125,89,98,94,26,23,10,9,1.5,1.3
2023-01-06T02:00:00,1585A,109.8756,40.6532,包头市,市环境监测站,颗粒物(PM10),117,184,148,46,66,57,44,42,42,31,56,19,33,1.3,1.7
2023-01-06T02:00:00,1587A,109.9991,40.5842,包头市,包头八中,颗粒物(PM10),131,211,184,38,75,61,42,46,44,36,58,52,40,1.1,2
2023-01-06T02:00:00,1588A,109.8538,40.6821,包头市,青山宾馆,颗粒物(PM10),140,230,168,42,82,58,53,48,48,26,59,6,28,0.6,1.9
2023-01-06T02:00:00,1589A,109.8642,40.6288,包头市,惠龙物流,颗粒物(PM10),142,234,171,46,68,61,45,61,53,37,57,18,29,1.5,2.2
2023-01-06T02:00:00,1590A,110.0377,40.5546,包头市,东河鸿龙湾,颗粒物(PM10),121,192,167,25,63,68,43,53,48,33,47,16,23,0.6,1.6
2023-01-06T02:00:00,1591A,110.0023,39.8129,鄂尔多斯市,综合楼,颗粒物(PM10),108,166,148,34,30,77,63,68,66,16,28,13,14,1.1,0.8
2023-01-06T02:00:00,1592A,109.9486,39.8261,鄂尔多斯市,巴音孟克林场办事处,颗粒物(PM10),130,210,142,39,35,87,73,74,74,8,18,7,13,0.5,0.6
2023-01-06T02:00:00,1593A,109.7736,39.5986,鄂尔多斯市,康泽苑,颗粒物(PM10),117,183,128,39,32,78,58,62,60,12,19,6,7,0.7,1
2023-01-06T02:00:00,1594A,109.8119,39.5989,鄂尔多斯市,华泰汽车城,颗粒物(PM10),114,178,124,46,35,98,65,67,66,7,29,6,10,0.4,0.7
2023-01-06T02:00:00,1595A,109.9734,39.7884,鄂尔多斯市,奥林花园,颗粒物(PM10),97,144,178,27,35,80,61,68,64,15,37,7,22,0.5,0.7
2023-01-06T02:00:00,1596A,122.2414,40.6592,营口市,学府南路(停运211214),,,,,,,,,,,,,,,,
2023-01-06T02:00:00,1597A,122.2703,40.7094,营口市,大庆路,细颗粒物(PM2.5),147,134,106,112,75,54,49,48,48,40,44,25,28,1.5,1.4
2023-01-06T02:00:00,1598A,122.2150,40.6511,营口市,镜湖西路,细颗粒物(PM2.5),145,139,104,111,72,59,56,59,58,33,35,14,17,2.0,2.1
2023-01-06T02:00:00,1599A,122.1658,40.6789,营口市,西炮台,细颗粒物(PM2.5),180,159,107,136,82,51,51,51,51,39,44,10,12,0.9,0.9
2023-01-06T02:00:00,1600A,124.3303,40.0625,丹东市,江湾东路,细颗粒物(PM2.5),97,91,91,72,70,78,16,10,10,45,44,23,36,2.1,2.2
2023-01-06T02:00:00,1601A,124.4256,40.1503,丹东市,临江后街,细颗粒物(PM2.5),118,119,94,89,68,73,16,16,16,52,40,17,24,2.3,1.8
2023-01-06T02:00:00,1602A,124.3933,40.1461,丹东市,元宝山,细颗粒物(PM2.5),123,144,91,93,59,55,7,12,10,68,52,32,31,2.4,1.6
2023-01-06T02:00:00,1603A,124.3633,40.1092,丹东市,民主桥,细颗粒物(PM2.5),80,88,93,59,57,70,14,18,16,59,51,36,26,1.4,1.6
2023-01-06T02:00:00,1604A,122.0303,41.1489,盘锦市,开发区,细颗粒物(PM2.5),168,138,104,127,84,64,64,60,60,28,51,10,15,1.2,1.4
2023-01-06T02:00:00,1605A,122.0485,41.0883,盘锦市,兴隆台,细颗粒物(PM2.5),173,162,122,131,121,60,60,58,58,28,55,17,22,1.4,1.7
2023-01-06T02:00:00,1606A,121.8297,41.1028,盘锦市,新生街道,细颗粒物(PM2.5),185,127,101,139,89,62,62,58,58,27,56,8,12,1.2,1.5
2023-01-06T02:00:00,1607A,120.9092,40.7136,葫芦岛市,龙港区,细颗粒物(PM2.5),204,193,150,154,181,40,24,22,22,81,69,32,30,1.9,2
2023-01-06T02:00:00,1608A,120.8392,40.7514,葫芦岛市,化工街,细颗粒物(PM2.5),188,172,146,141,112,32,9,11,10,97,78,26,29,1.9,2
2023-01-06T02:00:00,1609A,120.8341,40.7073,葫芦岛市,新区,细颗粒物(PM2.5),211,157,128,161,109,25,8,8,8,91,74,33,31,2.0,2.1
2023-01-06T02:00:00,1610A,120.8695,40.7677,葫芦岛市,东城区,细颗粒物(PM2.5),222,217,176,172,146,32,11,14,12,79,66,19,23,3.1,2.7
2023-01-06T02:00:00,1611A,118.5819,24.9117,泉州市,涂山街,,19,15,36,12,16,95,58,48,48,12,15,7,8,0.5,0.6
2023-01-06T02:00:00,1612A,118.5972,24.8978,泉州市,津头埔,,19,18,30,13,16,91,49,44,44,18,19,7,8,0.5,0.5
2023-01-06T02:00:00,1613A,118.6663,24.9424,泉州市,万安,,18,16,29,11,15,94,56,51,51,14,18,6,8,0.4,0.5
2023-01-06T02:00:00,1614A,118.6117,24.9604,泉州市,清源山(对照点),,,,,,,,,,,,,,,,
2023-01-06T02:00:00,1616A,117.6795,36.229,济南市,技术学院,细颗粒物(PM2.5),223,224,241,173,182,103,8,7,7,88,80,18,18,1.7,2.5
2023-01-06T02:00:00,1618A,118.3429,35.0532,临沂市,沂河小区,细颗粒物(PM2.5),232,215,204,182,174,121,21,25,23,90,70,33,24,1.5,1.5
2023-01-06T02:00:00,1619A,118.295,35.0583,临沂市,鲁南制药厂,细颗粒物(PM2.5),237,227,219,187,170,119,19,16,16,115,103,44,45,1.3,1.6
2023-01-06T02:00:00,1620A,118.2794,34.9976,临沂市,新光毛纺厂,细颗粒物(PM2.5),242,241,230,192,180,122,13,17,15,116,103,40,36,2.2,2.3
2023-01-06T02:00:00,1621A,118.3956,35.0888,临沂市,河东保险公司,细颗粒物(PM2.5),235,202,212,185,182,123,22,23,22,93,89,21,22,1.7,1.8
2023-01-06T02:00:00,1622A,116.3032,37.4674,德州市,儿童乐园,细颗粒物(PM2.5),362,398,321,312,244,65,44,40,40,68,86,13,31,2.0,2.2
2023-01-06T02:00:00,1624A,116.2991,37.4451,德州市,监理站,细颗粒物(PM2.5),387,416,358,337,281,69,46,40,40,61,82,17,36,1.8,2
2023-01-06T02:00:00,1625A,115.9848,36.4372,聊城市,区政府,细颗粒物(PM2.5),389,427,354,339,274,50,43,42,42,52,72,10,18,2.0,2.2
2023-01-06T02:00:00,1628A,118.0062,37.3803,滨州市,市环保局,细颗粒物(PM2.5),363,425,347,313,254,81,9,11,10,104,90,25,42,2.0,2
2023-01-06T02:00:00,1629A,118.0018,37.3617,滨州市,第二水厂,细颗粒物(PM2.5),345,381,304,295,230,84,7,9,8,120,91,18,29,2.0,1.8
2023-01-06T02:00:00,1630A,117.9776,37.393,滨州市,北中新校,细颗粒物(PM2.5),322,353,298,272,223,72,5,4,4,99,87,14,28,1.8,1.8
2023-01-06T02:00:00,1631A,118.0414,36.8103,淄博市,人民公园,细颗粒物(PM2.5),206,188,298,156,228,102,82,64,64,48,99,15,22,1.0,1.7
2023-01-06T02:00:00,1633A,117.8525,36.4847,淄博市,双山,细颗粒物(PM2.5),185,173,198,139,163,129,95,94,94,31,47,19,17,1.2,1.4
2023-01-06T02:00:00,1634A,117.9592,36.6331,淄博市,气象站,细颗粒物(PM2.5),168,193,228,127,166,122,102,100,100,14,46,15,20,1.0,1.3
2023-01-06T02:00:00,1635A,118.3092,36.8194,淄博市,莆田园,细颗粒物(PM2.5),203,251,257,153,192,84,51,38,38,48,65,27,23,1.7,2.1
2023-01-06T02:00:00,1637A,117.558,34.8438,枣庄市,市中区政府,细颗粒物(PM2.5),279,312,211,229,145,136,9,9,9,104,79,19,21,2.7,1.6
2023-01-06T02:00:00,1638A,117.2852,34.7837,枣庄市,薛城环保局,细颗粒物(PM2.5),188,183,162,141,124,137,49,40,40,91,82,14,17,1.4,1.3
2023-01-06T02:00:00,1639A,117.5852,34.7745,枣庄市,峄城区政府,细颗粒物(PM2.5),240,280,234,190,156,119,7,8,8,100,80,15,22,1.6,1.3
2023-01-06T02:00:00,1640A,117.7276,34.5578,枣庄市,台儿庄区环保局,细颗粒物(PM2.5),274,295,243,224,182,133,6,6,6,93,94,13,18,2.0,1.7
2023-01-06T02:00:00,1641A,117.4518,35.0992,枣庄市,山亭区环保局,细颗粒物(PM2.5),170,158,140,129,106,140,68,64,64,55,62,12,16,1.3,1.3
2023-01-06T02:00:00,1642A,121.2514,37.5639,烟台市,开发区,细颗粒物(PM2.5),192,153,200,144,170,71,52,59,56,44,77,12,16,1.3,1.9
2023-01-06T02:00:00,1643A,121.3719,37.5433,烟台市,轴承厂,,,,190,,157,38,,30,,,58,,23,,1.5
2023-01-06T02:00:00,1644A,121.3181,37.5436,烟台市,西郊化工站,细颗粒物(PM2.5),188,166,195,141,147,98,79,80,80,30,53,10,20,1.2,1.5
2023-01-06T02:00:00,1645A,121.4478,37.4822,烟台市,莱山环保局,细颗粒物(PM2.5),153,141,175,117,139,118,78,77,77,29,56,9,16,1.2,1.7
2023-01-06T02:00:00,1646A,121.2611,37.4967,烟台市,福山环保局,细颗粒物(PM2.5),211,195,204,161,157,90,27,28,28,63,69,7,12,1.4,1.5
2023-01-06T02:00:00,1650A,119.1437,36.7023,潍坊市,环保局,细颗粒物(PM2.5),253,237,271,203,224,62,25,16,16,86,94,15,14,1.6,2.2
2023-01-06T02:00:00,1653A,116.6251,35.4302,济宁市,火炬城,细颗粒物(PM2.5),245,217,170,195,159,140,35,47,41,69,54,12,15,1.1,1.1
2023-01-06T02:00:00,1655A,116.5491,35.4042,济宁市,电化厂,细颗粒物(PM2.5),287,240,201,237,174,136,33,38,36,77,61,27,26,1.2,1.1
2023-01-06T02:00:00,1656A,117.1437,36.1937,泰安市,监测站,细颗粒物(PM2.5),216,178,237,166,200,96,50,42,42,84,84,14,17,1.3,2
2023-01-06T02:00:00,1657A,117.0885,36.2017,泰安市,人口学校,细颗粒物(PM2.5),213,190,205,163,169,107,102,96,96,36,62,12,18,0.6,1.1
2023-01-06T02:00:00,1658A,117.1089,36.1758,泰安市,电力学校,细颗粒物(PM2.5),249,222,245,199,205,82,4,4,4,88,65,19,26,1.8,2
2023-01-06T02:00:00,1659A,119.471,35.4209,日照市,监测站,细颗粒物(PM2.5),193,190,193,145,136,119,0,0,0,80,88,14,20,2.2,2.4
2023-01-06T02:00:00,1660A,119.523,35.4216,日照市,市政府广场,细颗粒物(PM2.5),162,168,175,123,127,84,6,11,8,84,73,8,14,1.8,2
2023-01-06T02:00:00,1661A,119.5587,35.4044,日照市,港务局,细颗粒物(PM2.5),188,188,186,141,134,70,0,0,0,116,92,13,15,1.6,1.7
2023-01-06T02:00:00,1662A,122.1214,37.4236,威海市,华夏技校,细颗粒物(PM2.5),140,127,157,107,129,109,96,95,95,27,44,3,8,0.9,1
2023-01-06T02:00:00,1663A,122.0508,37.5236,威海市,山大分校,细颗粒物(PM2.5),138,137,159,105,120,115,97,98,98,20,37,4,10,0.6,0.8
2023-01-06T02:00:00,1664A,122.1067,37.5072,威海市,市监测站,细颗粒物(PM2.5),144,129,148,110,121,112,103,107,105,27,49,3,6,0.9,1.1
2023-01-06T02:00:00,1666A,118.6614,37.4309,东营市,市环保局,细颗粒物(PM2.5),294,302,227,244,188,71,7,7,7,107,74,27,19,2.0,1.8
2023-01-06T02:00:00,1669A,113.5824,24.7733,韶关市,市八中,细颗粒物(PM2.5),67,59,52,48,39,91,47,36,36,15,24,14,10,0.8,0.8
2023-01-06T02:00:00,1671A,113.5917,24.7972,韶关市,园林处,细颗粒物(PM2.5),64,59,49,46,38,94,49,44,44,15,19,8,8,0.6,0.7
2023-01-06T02:00:00,1672A,113.6735,24.7791,韶关市,韶关学院,细颗粒物(PM2.5),58,38,51,41,42,88,4,7,6,27,28,6,6,0.8,0.8
2023-01-06T02:00:00,1673A,113.5971,24.6863,韶关市,曲江监测站,细颗粒物(PM2.5),54,50,54,38,38,88,6,4,4,37,33,8,9,0.6,0.7
2023-01-06T02:00:00,1674A,116.6794,23.3667,汕头市,金平子站,,23,23,29,15,22,102,55,62,58,19,22,12,13,0.5,0.6
2023-01-06T02:00:00,1675A,116.7244,23.3633,汕头市,龙湖子站,,22,22,27,11,17,105,61,67,64,18,20,11,11,0.5,0.6
2023-01-06T02:00:00,1676A,116.7258,23.2775,汕头市,濠江子站,,23,12,21,8,13,104,71,70,70,13,15,9,9,0.4,0.5
2023-01-06T02:00:00,1677A,116.7519,23.4714,汕头市,澄海子站,,46,34,30,32,23,103,45,65,55,30,24,8,7,0.6,0.6
2023-01-06T02:00:00,1678A,116.6092,23.2539,汕头市,潮阳子站,,22,18,28,6,15,107,69,66,66,10,13,7,7,0.3,0.4
2023-01-06T02:00:00,1680A,110.3539,21.2706,湛江市,湛江影剧院,细颗粒物(PM2.5),103,104,62,77,54,133,35,36,36,60,31,9,15,0.9,0.9
2023-01-06T02:00:00,1681A,110.3928,21.2228,湛江市,市环境监测站,细颗粒物(PM2.5),140,132,68,107,60,141,35,43,39,57,26,10,12,1.0,0.8
2023-01-06T02:00:00,1682A,110.4019,21.1997,湛江市,环保局宿舍,细颗粒物(PM2.5),124,106,59,94,54,146,49,59,54,45,27,9,10,0.9,0.8
2023-01-06T02:00:00,1683A,110.4111,21.2028,湛江市,霞山游泳场,细颗粒物(PM2.5),128,99,59,97,53,145,49,54,52,43,25,7,11,0.8,0.6
2023-01-06T02:00:00,1684A,110.3316,21.2679,湛江市,麻章区环保局,细颗粒物(PM2.5),113,100,67,85,62,126,37,34,34,58,37,15,18,0.9,0.8
2023-01-06T02:00:00,1685A,110.4558,21.2567,湛江市,坡头区环保局,细颗粒物(PM2.5),93,63,51,69,51,140,78,86,82,25,18,6,12,0.7,0.7
2023-01-06T02:00:00,1686A,111.0286,21.4688,茂名市,电白南海,细颗粒物(PM2.5),98,100,79,73,48,155,104,90,90,28,28,10,12,0.7,0.7
2023-01-06T02:00:00,1687A,110.9294,21.6533,茂名市,茂石化七小,细颗粒物(PM2.5),92,83,66,68,47,130,120,130,125,20,22,18,17,0.7,0.8
2023-01-06T02:00:00,1688A,110.9107,21.6687,茂名市,健康路,细颗粒物(PM2.5),78,88,63,57,38,128,93,122,108,26,23,17,23,0.8,0.9
2023-01-06T02:00:00,1689A,110.8592,21.6828,茂名市,高岭,细颗粒物(PM2.5),107,151,69,80,50,137,82,96,89,33,25,18,20,1.2,0.8
2023-01-06T02:00:00,1690A,116.1231,24.3284,梅州市,梅江月梅,,41,41,41,27,23,66,7,6,6,36,26,4,6,0.6,0.5
2023-01-06T02:00:00,1691A,116.0797,24.2719,梅州市,梅县新城,,45,42,45,31,29,59,5,5,5,32,31,7,7,0.7,0.8
2023-01-06T02:00:00,1692A,116.1248,24.2654,梅州市,环境监控中心,,46,46,39,32,26,72,3,4,4,33,27,9,10,0.6,0.7
2023-01-06T02:00:00,1693A,115.3653,22.775,汕尾市,市环保局,,46,27,33,32,22,113,56,66,61,15,12,8,9,0.5,0.5
2023-01-06T02:00:00,1694A,115.3706,22.7898,汕尾市,市政府,,43,41,33,30,25,116,54,63,58,18,16,8,8,0.5,0.5
2023-01-06T02:00:00,1695A,115.3622,22.7925,汕尾市,新城中学,颗粒物(PM10),55,59,47,36,28,116,54,61,58,16,13,10,10,0.5,0.6
2023-01-06T02:00:00,1696A,114.6778,23.7569,河源市,源西(对照点),,39,29,45,27,28,95,61,58,58,17,32,5,4,0.7,0.8
2023-01-06T02:00:00,1697A,114.6944,23.7586,河源市,东埔,,,43,50,,38,94,56,47,47,19,28,5,5,0.7,0.8
2023-01-06T02:00:00,1698A,114.6892,23.7233,河源市,老城,,50,46,55,35,36,98,33,37,35,29,28,5,5,0.9,0.9
2023-01-06T02:00:00,1699A,111.9797,21.8593,阳江市,鸳鸯湖(对照点),,,,53,46,52,114,39,41,40,18,22,5,6,0.8,0.8
2023-01-06T02:00:00,1701A,111.9491,21.8658,阳江市,马南垌,细颗粒物(PM2.5),52,42,53,36,45,115,44,44,44,19,30,5,6,0.7,0.8
2023-01-06T02:00:00,1702A,113.0426,23.691,清远市,环保大楼(对照点),,46,30,35,32,35,114,62,60,60,14,21,7,5,0.9,0.9
2023-01-06T02:00:00,1703A,113.0208,23.7106,清远市,凤城街办,,49,49,47,33,32,95,57,50,50,12,26,8,6,0.7,0.8
2023-01-06T02:00:00,1705A,116.6367,23.6719,潮州市,西园路(对照点),细颗粒物(PM2.5),74,43,40,54,34,109,28,32,30,16,17,7,8,0.8,0.7
2023-01-06T02:00:00,1706A,116.6447,23.6706,潮州市,档案局,,43,39,37,30,27,110,20,21,20,20,18,7,7,0.7,0.7
2023-01-06T02:00:00,1708A,116.3701,23.5345,揭阳市,新兴,细颗粒物(PM2.5),54,41,48,38,35,118,49,51,50,23,28,9,10,0.6,0.7
2023-01-06T02:00:00,1709A,116.3264,23.5443,揭阳市,西马,,50,50,52,32,32,130,36,55,46,32,25,10,11,0.6,0.7
2023-01-06T02:00:00,1710A,116.3611,23.5626,揭阳市,东兴,颗粒物(PM10),51,52,52,33,30,121,41,42,42,33,27,7,9,0.6,0.7
2023-01-06T02:00:00,1711A,116.4151,23.5294,揭阳市,渔湖,,50,46,44,35,29,109,36,47,42,32,28,11,12,0.7,0.7
2023-01-06T02:00:00,1712A,112.0392,22.9169,云浮市,新市府(对照点),细颗粒物(PM2.5),52,37,43,36,34,79,14,16,15,26,26,9,22,0.8,0.8
2023-01-06T02:00:00,1714A,112.0539,22.9539,云浮市,牧羊,细颗粒物(PM2.5),57,56,63,40,40,66,6,6,6,38,34,19,42,0.8,0.8
2023-01-06T02:00:00,1715A,102.575,24.3711,玉溪市,东风水库,,28,23,22,19,15,85,19,18,18,15,16,4,5,0.5,0.7
2023-01-06T02:00:00,1718A,115.4208,35.2464,菏泽市,气象局,细颗粒物(PM2.5),402,427,396,353,314,103,66,61,61,54,79,7,16,1.6,1.7
2023-01-06T02:00:00,1719A,115.4747,35.2375,菏泽市,市政协,细颗粒物(PM2.5),394,420,370,344,300,97,75,75,75,53,77,9,15,1.6,1.8
2023-01-06T02:00:00,1721A,113.3819,40.1097,大同市,果树场(对照点),,,,,,,,,,,,,,,,
2023-01-06T02:00:00,1723A,113.2994,40.0758,大同市,云冈宾馆,颗粒物(PM10),167,284,137,63,54,79,79,79,79,9,53,10,29,0.4,1.2
2023-01-06T02:00:00,1724A,113.3444,40.0917,大同市,大同大学,颗粒物(PM10),179,307,122,44,45,72,71,72,72,11,46,10,26,0.3,0.8
2023-01-06T02:00:00,1725A,113.2661,40.1269,大同市,安家小村,颗粒物(PM10),258,390,172,59,46,78,78,78,78,9,47,9,29,0.3,1.9
2023-01-06T02:00:00,1726A,113.2711,40.0844,大同市,教育学院,颗粒物(PM10),256,389,160,47,58,72,72,72,72,10,54,9,49,0.2,0.9
2023-01-06T02:00:00,1727A,113.1147,36.1547,长治市,清华站,细颗粒物(PM2.5),125,112,157,95,122,102,70,60,60,35,68,15,21,1.3,1.6
2023-01-06T02:00:00,1728A,113.1031,36.1989,长治市,监测站,细颗粒物(PM2.5),122,104,144,92,126,92,32,23,23,54,68,23,27,1.4,1.9
2023-01-06T02:00:00,1730A,113.0886,36.2125,长治市,审计局,细颗粒物(PM2.5),140,121,162,107,148,92,31,20,20,57,63,20,26,1.3,1.9
2023-01-06T02:00:00,1731A,113.0844,36.1856,长治市,长治八中,"颗粒物(PM10),细颗粒物(PM2.5)",120,190,175,91,126,95,28,15,15,60,64,17,22,1.3,1.8
2023-01-06T02:00:00,1733A,111.5531,36.0783,临汾市,临钢医院,细颗粒物(PM2.5),268,256,212,218,135,88,4,4,4,76,55,14,16,3.4,2.4
2023-01-06T02:00:00,1734A,111.5028,36.0714,临汾市,技工学校,细颗粒物(PM2.5),305,362,242,255,173,86,6,5,5,94,71,36,30,3.2,2.8
2023-01-06T02:00:00,1736A,111.5018,36.0855,临汾市,市委,细颗粒物(PM2.5),293,345,234,243,163,82,7,6,6,83,65,22,21,2.9,2.2
2023-01-06T02:00:00,1738A,113.5758,37.8572,阳泉市,市中心,颗粒物(PM10),116,182,153,86,82,90,42,38,38,63,75,40,44,1.1,1.5
2023-01-06T02:00:00,1739A,113.4894,37.8731,阳泉市,赛鱼,细颗粒物(PM2.5),133,152,136,101,95,98,37,30,30,63,68,41,45,1.4,1.4
2023-01-06T02:00:00,1740A,113.5819,37.8486,阳泉市,南庄,细颗粒物(PM2.5),94,134,147,70,79,100,51,48,48,49,68,35,39,1.1,1.5
2023-01-06T02:00:00,1742A,113.5614,37.8703,阳泉市,平坦,细颗粒物(PM2.5),137,220,150,104,99,96,31,28,28,71,69,47,41,1.4,1.5
2023-01-06T02:00:00,1743A,113.5158,37.8392,阳泉市,大阳泉,细颗粒物(PM2.5),99,110,112,74,82,107,54,49,49,47,59,32,42,1.0,1.2
2023-01-06T02:00:00,1744A,118.9233,42.2816,赤峰市,松山一中,颗粒物(PM10),63,76,57,39,28,78,10,10,10,48,45,18,20,1.4,1.3
2023-01-06T02:00:00,1745A,118.9576,42.2728,赤峰市,哈达街,颗粒物(PM10),55,60,39,33,20,73,12,21,16,50,33,20,16,1.4,0.9
2023-01-06T02:00:00,1746A,118.8788,42.2554,赤峰市,天义路,颗粒物(PM10),54,57,38,28,14,80,17,33,25,42,28,18,15,1.1,0.8
2023-01-06T02:00:00,1748A,123.044,41.1196,鞍山市,深沟寺,细颗粒物(PM2.5),135,138,99,103,66,80,80,76,76,24,37,21,18,1.0,1.2
2023-01-06T02:00:00,1749A,123.011,41.0931,鞍山市,太阳城,细颗粒物(PM2.5),138,140,99,105,66,88,88,82,82,19,34,18,19,1.1,1.2
2023-01-06T02:00:00,1750A,123.0485,41.1442,鞍山市,太平,细颗粒物(PM2.5),144,162,115,110,70,77,77,73,73,28,49,21,21,1.2,1.4
2023-01-06T02:00:00,1751A,122.9642,41.0971,鞍山市,铁西三道街,细颗粒物(PM2.5),139,170,140,106,74,52,52,46,46,50,54,31,24,1.9,1.6
2023-01-06T02:00:00,1752A,122.9341,41.0833,鞍山市,铁西工业园区,细颗粒物(PM2.5),133,153,138,101,78,66,63,66,64,32,52,17,19,1.5,1.7
2023-01-06T02:00:00,1753A,123.022,41.0821,鞍山市,明达新区,细颗粒物(PM2.5),127,137,104,96,63,76,76,72,72,20,34,17,18,1.1,1.3
2023-01-06T02:00:00,1754A,123.1289,41.0228,鞍山市,千山(对照点),,,,,,,,,,,,,,,,
2023-01-06T02:00:00,1755A,123.7977,41.8491,抚顺市,望花区,细颗粒物(PM2.5),147,158,145,112,95,32,7,8,8,56,62,10,13,1.9,1.7
2023-01-06T02:00:00,1756A,123.9161,41.8822,抚顺市,顺城区,细颗粒物(PM2.5),206,228,151,156,111,40,4,5,4,54,57,7,8,3.0,2.1
2023-01-06T02:00:00,1757A,124.0436,41.8611,抚顺市,东洲区,细颗粒物(PM2.5),85,101,89,63,62,61,17,14,14,35,32,7,11,1.3,1.2
2023-01-06T02:00:00,1758A,123.9247,41.8642,抚顺市,新抚区,细颗粒物(PM2.5),163,129,121,124,91,54,18,18,18,53,57,6,9,2.0,1.5
2023-01-06T02:00:00,1759A,124.0972,41.8961,抚顺市,大伙房水库,细颗粒物(PM2.5),112,84,73,84,66,63,14,12,12,44,30,5,9,1.3,1
2023-01-06T02:00:00,1760A,123.7086,41.8391,抚顺市,沈抚新城,细颗粒物(PM2.5),160,166,158,122,103,46,21,23,22,64,64,7,28,2.5,2.4
2023-01-06T02:00:00,1761A,123.8275,41.3064,本溪市,大峪,"颗粒物(PM10),细颗粒物(PM2.5)",68,85,91,49,47,57,25,24,24,42,46,16,18,1.3,1.8
2023-01-06T02:00:00,1762A,123.7567,41.3325,本溪市,溪湖,细颗粒物(PM2.5),83,92,115,61,60,44,26,20,20,56,59,51,50,1.0,2.4
2023-01-06T02:00:00,1763A,123.7169,41.3094,本溪市,彩屯,细颗粒物(PM2.5),112,128,147,84,87,40,12,23,18,70,64,36,43,3.4,4
2023-01-06T02:00:00,1764A,123.7669,41.2864,本溪市,东明,细颗粒物(PM2.5),82,71,84,60,50,54,25,34,30,50,46,16,21,0.9,1.4
2023-01-06T02:00:00,1765A,123.7992,41.2664,本溪市,新立屯,细颗粒物(PM2.5),79,56,65,58,44,67,67,66,66,19,39,12,12,1.0,1.5
2023-01-06T02:00:00,1766A,123.8142,41.3472,本溪市,威宁,细颗粒物(PM2.5),83,74,98,61,68,36,10,9,9,52,46,5,9,1.3,1.7
2023-01-06T02:00:00,1767A,121.1115,41.0879,锦州市,南山,,,,169,,153,19,,19,,,69,,30,,2.2
2023-01-06T02:00:00,1768A,121.0533,40.8434,锦州市,开发区,细颗粒物(PM2.5),252,223,239,202,171,26,7,8,8,90,82,93,57,2.2,2.3
2023-01-06T02:00:00,1769A,121.1836,41.1119,锦州市,百股街道,细颗粒物(PM2.5),287,239,181,237,176,32,9,12,10,88,86,34,40,3.8,3
2023-01-06T02:00:00,1770A,121.1178,41.1222,锦州市,天安街道,细颗粒物(PM2.5),258,254,208,208,175,40,8,8,8,82,73,42,47,3.2,2.4
2023-01-06T02:00:00,1771A,121.1303,41.1386,锦州市,北湖公园,细颗粒物(PM2.5),278,229,184,228,167,48,22,21,21,75,76,30,42,3.8,2.4
2023-01-06T02:00:00,1772A,126.54,43.8622,吉林市,哈达湾,细颗粒物(PM2.5),80,76,74,59,57,73,46,45,45,32,37,15,22,1.2,1.1
2023-01-06T02:00:00,1773A,126.5844,43.8358,吉林市,东局子,细颗粒物(PM2.5),84,82,62,62,46,63,37,47,42,33,33,10,15,1.1,0.9
2023-01-06T02:00:00,1774A,126.5052,43.8245,吉林市,电力学院,细颗粒物(PM2.5),127,143,134,96,92,68,15,17,16,50,46,13,20,1.8,1.5
2023-01-06T02:00:00,1775A,126.6133,43.8972,吉林市,江北,细颗粒物(PM2.5),90,87,77,67,58,68,36,40,38,34,36,13,21,1.3,1.1
2023-01-06T02:00:00,1776A,126.555,43.8306,吉林市,江南公园,细颗粒物(PM2.5),74,65,55,54,47,70,51,51,51,24,28,12,17,1.0,0.9
2023-01-06T02:00:00,1778A,126.7061,43.7133,吉林市,丰满(对照点),,,,,,,,,,,,,,,,
2023-01-06T02:00:00,1779A,123.9305,47.3636,齐齐哈尔市,安居小区,细颗粒物(PM2.5),156,132,91,119,64,45,7,9,8,51,50,8,13,1.0,1.1
2023-01-06T02:00:00,1780A,123.9488,47.3386,齐齐哈尔市,中心广场,细颗粒物(PM2.5),82,111,86,60,52,36,20,18,18,47,54,8,11,0.5,1
2023-01-06T02:00:00,1781A,123.9483,47.3227,齐齐哈尔市,农牧车辆厂,细颗粒物(PM2.5),132,88,103,100,66,24,2,3,2,64,64,12,21,1.0,1.4
2023-01-06T02:00:00,1783A,123.945,47.2988,齐齐哈尔市,市环境监测站,细颗粒物(PM2.5),215,198,137,165,110,20,7,6,6,63,61,6,10,2.6,1.7
2023-01-06T02:00:00,1784A,129.61,44.561,牡丹江市,环保大楼,细颗粒物(PM2.5),92,70,80,68,61,65,22,19,19,37,43,5,11,0.9,0.9
2023-01-06T02:00:00,1785A,129.6115,44.5782,牡丹江市,文化广场,细颗粒物(PM2.5),124,109,96,94,68,55,6,6,6,49,48,8,11,1.6,1.2
2023-01-06T02:00:00,1786A,129.5904,44.5963,牡丹江市,第一医院,细颗粒物(PM2.5),85,68,88,63,72,59,12,12,12,50,48,6,10,1.1,1.2
2023-01-06T02:00:00,1787A,129.6364,44.6075,牡丹江市,机车工厂,细颗粒物(PM2.5),92,92,93,68,61,60,13,12,12,52,47,1,3,1.4,1.1
2023-01-06T02:00:00,1788A,129.6386,44.5462,牡丹江市,第一中学,细颗粒物(PM2.5),77,74,80,56,62,59,6,9,8,46,43,4,9,1.1,1
2023-01-06T02:00:00,1789A,124.81117,46.03138,大庆市,大同区,细颗粒物(PM2.5),133,120,74,101,53,52,10,10,10,49,29,6,9,1.2,0.9
2023-01-06T02:00:00,1790A,125.129,46.533,大庆市,龙凤区,颗粒物(PM10),52,53,59,30,33,50,24,24,24,32,30,9,10,0.3,0.4
2023-01-06T02:00:00,1791A,124.902,46.408,大庆市,红岗区,,45,45,40,31,26,58,8,7,7,54,33,9,9,0.8,0.5
2023-01-06T02:00:00,1792A,125.153,46.586,大庆市,萨尔图区,细颗粒物(PM2.5),69,62,50,50,33,38,36,36,36,25,38,5,10,0.8,0.9
2023-01-06T02:00:00,1793A,124.9042,46.6215,大庆市,让胡路区,"颗粒物(PM10),细颗粒物(PM2.5)",53,55,44,37,24,55,12,10,10,50,35,6,7,0.9,0.5
2023-01-06T02:00:00,1794A,118.3606,31.3519,芜湖市,监测站,细颗粒物(PM2.5),183,182,129,138,98,56,7,8,8,85,84,8,11,0.8,0.8
2023-01-06T02:00:00,1795A,118.3714,31.4134,芜湖市,科创中心,细颗粒物(PM2.5),182,198,132,137,99,56,2,3,2,86,80,10,11,0.9,0.7
2023-01-06T02:00:00,1796A,118.3673,31.3131,芜湖市,四水厂,细颗粒物(PM2.5),183,209,143,138,98,59,4,4,4,90,92,10,12,1.0,0.9
2023-01-06T02:00:00,1798A,118.5092,31.6837,马鞍山市,湖东路四小,细颗粒物(PM2.5),172,110,86,130,93,62,4,4,4,91,76,,18,1.5,1.3
2023-01-06T02:00:00,1799A,118.5024,31.6449,马鞍山市,开发区,细颗粒物(PM2.5),152,130,102,116,91,63,4,4,4,93,80,12,15,1.3,1.4
2023-01-06T02:00:00,1800A,118.5228,31.7231,马鞍山市,慈湖,细颗粒物(PM2.5),185,176,124,139,99,79,4,8,6,93,75,14,17,1.2,1.2
2023-01-06T02:00:00,1802A,118.6245,31.7241,马鞍山市,濮塘(对照点),细颗粒物(PM2.5),125,141,102,95,62,101,39,31,31,52,49,12,11,0.9,0.9
2023-01-06T02:00:00,1803A,115.9872,29.6815,九江市,十里,细颗粒物(PM2.5),79,96,67,58,50,79,5,5,5,66,52,10,8,1.0,0.9
2023-01-06T02:00:00,1804A,115.9584,29.7046,九江市,茅山头,细颗粒物(PM2.5),79,70,63,58,49,80,2,2,2,75,62,9,9,0.9,1
2023-01-06T02:00:00,1805A,115.9877,29.7295,九江市,西园,细颗粒物(PM2.5),92,76,55,68,49,62,5,8,6,67,56,7,7,0.9,1
2023-01-06T02:00:00,1806A,116.0172,29.6547,九江市,五七二七厂,细颗粒物(PM2.5),75,66,51,55,38,68,34,43,38,21,29,7,7,0.8,0.7
2023-01-06T02:00:00,1808A,115.9114,29.6038,九江市,综合工业园,细颗粒物(PM2.5),85,72,60,63,50,60,2,2,2,64,53,9,8,1.0,0.9
2023-01-06T02:00:00,1809A,116.0721,29.7535,九江市,石化总厂,细颗粒物(PM2.5),82,90,65,60,37,74,27,20,20,50,59,10,10,1.1,0.9
2023-01-06T02:00:00,1810A,115.9773,29.5698,九江市,庐山气象台(对照点),,45,18,13,31,16,88,88,86,86,12,19,6,6,0.6,0.4
2023-01-06T02:00:00,1812A,112.3931,34.6516,洛阳市,市委党校,细颗粒物(PM2.5),204,204,342,154,252,106,68,59,59,29,75,11,13,1.2,1.9
2023-01-06T02:00:00,1814A,112.4657,34.6871,洛阳市,豫西宾馆,细颗粒物(PM2.5),240,253,365,190,268,106,28,21,21,50,79,11,16,1.4,2
2023-01-06T02:00:00,1815A,112.494,34.6886,洛阳市,河南林校,细颗粒物(PM2.5),235,214,331,185,262,115,36,25,25,42,73,7,8,1.2,1.9
2023-01-06T02:00:00,1816A,112.3844,34.623,洛阳市,开发区管委会,细颗粒物(PM2.5),209,195,296,159,241,125,42,38,38,46,64,7,9,1.1,1.6
2023-01-06T02:00:00,1817A,112.4267,34.6258,洛阳市,市委新办公区,细颗粒物(PM2.5),206,182,309,156,256,120,48,44,44,38,65,8,9,1.3,1.9
2023-01-06T02:00:00,1818A,114.4839,36.0621,安阳市,棉研所(对照点),,,,,,,,,,,,,,,,
2023-01-06T02:00:00,1819A,114.3551,36.1017,安阳市,红庙街,细颗粒物(PM2.5),346,351,299,296,253,67,14,15,14,92,85,18,19,2.1,2.5
2023-01-06T02:00:00,1820A,114.361,36.0681,安阳市,银杏小区,细颗粒物(PM2.5),361,348,295,311,270,77,8,12,10,103,81,50,25,2.3,2.4
2023-01-06T02:00:00,1824A,114.3389,34.7781,开封市,肿瘤医院,细颗粒物(PM2.5),415,495,377,372,277,89,18,22,20,80,73,11,16,2.2,2
2023-01-06T02:00:00,1826A,114.2885,34.7965,开封市,世纪星幼儿园,细颗粒物(PM2.5),446,451,334,419,305,105,18,21,20,85,78,8,18,2.2,2
2023-01-06T02:00:00,1828A,113.227,35.2125,焦作市,市环保局,细颗粒物(PM2.5),348,351,326,298,269,61,23,23,23,72,76,22,19,1.9,2.5
2023-01-06T02:00:00,1830A,113.1992,35.2590,焦作市,影视城(对照点),,,,,,,,,,,,,,,,
2023-01-06T02:00:00,1832A,113.3257,33.742,平顶山市,新华旅馆,细颗粒物(PM2.5),383,477,408,333,283,101,13,16,14,95,84,12,16,1.8,1.7
2023-01-06T02:00:00,1833A,113.2919,33.737,平顶山市,规划设计院,细颗粒物(PM2.5),399,451,377,349,311,92,4,4,4,101,83,6,9,1.8,1.7
2023-01-06T02:00:00,1834A,113.182,33.774,平顶山市,平顶山工学院,细颗粒物(PM2.5),379,450,406,329,301,122,32,22,22,72,63,13,14,1.9,1.9
2023-01-06T02:00:00,1835A,111.1922,34.7752,三门峡市,市政府,细颗粒物(PM2.5),262,220,237,212,233,84,2,2,2,76,71,12,17,1.5,1.7
2023-01-06T02:00:00,1836A,111.1587,34.7942,三门峡市,开发区,细颗粒物(PM2.5),255,262,302,205,240,93,8,13,10,55,52,6,10,1.5,1.7
2023-01-06T02:00:00,1838A,111.143,34.7955,三门峡市,风景区(对照点),,,,,,,,,,,,,,,,
2023-01-06T02:00:00,1840A,111.2992,30.6981,宜昌市,白龙岗,细颗粒物(PM2.5),240,200,228,190,211,42,9,10,10,34,54,5,6,1.5,1.6
2023-01-06T02:00:00,1841A,111.3549,30.6465,宜昌市,伍家岗,细颗粒物(PM2.5),301,266,283,251,256,13,5,6,6,52,74,4,5,1.9,2
2023-01-06T02:00:00,1842A,111.2628,30.6961,宜昌市,点军区,细颗粒物(PM2.5),247,214,230,197,210,45,3,3,3,28,38,5,5,1.6,1.5
2023-01-06T02:00:00,1843A,111.3275,30.7819,宜昌市,夷陵区,细颗粒物(PM2.5),225,168,224,175,236,25,9,10,10,39,57,5,7,1.3,1.7
2023-01-06T02:00:00,1844A,112.2494,30.3197,荆州市,市图书馆,细颗粒物(PM2.5),338,262,249,288,271,68,5,5,5,81,67,7,10,1.7,1.4
2023-01-06T02:00:00,1845A,112.2008,30.3544,荆州市,市委党校,细颗粒物(PM2.5),334,295,269,284,274,53,7,9,8,65,63,6,10,1.6,1.5
2023-01-06T02:00:00,1847A,113.1094,29.3578,岳阳市,南湖风景区,细颗粒物(PM2.5),200,175,140,150,122,97,21,29,25,54,44,9,12,1.4,1.2
2023-01-06T02:00:00,1848A,113.1493,29.4251,岳阳市,城陵矶,细颗粒物(PM2.5),189,180,154,142,121,86,14,22,18,58,53,7,11,1.3,1.2
2023-01-06T02:00:00,1849A,113.1497,29.3575,岳阳市,开发区,细颗粒物(PM2.5),269,204,164,219,162,82,17,19,18,40,36,10,13,1.2,1.3
2023-01-06T02:00:00,1850A,113.2621,29.4758,岳阳市,云溪区,细颗粒物(PM2.5),254,260,208,204,162,96,26,24,24,39,39,8,10,1.2,1.1
2023-01-06T02:00:00,1851A,112.9943,29.4402,岳阳市,君山区,细颗粒物(PM2.5),264,236,171,214,150,105,20,23,22,40,35,7,9,1.6,1.3
2023-01-06T02:00:00,1852A,113.2117,29.355,岳阳市,金凤水库(对照点),细颗粒物(PM2.5),201,179,141,151,116,95,21,23,22,35,30,7,9,1.1,1
2023-01-06T02:00:00,1854A,111.6975,28.9703,常德市,市二中,细颗粒物(PM2.5),366,327,305,316,297,74,10,6,6,40,36,4,4,1.4,1.3
2023-01-06T02:00:00,1857A,111.7158,29.1456,常德市,白鹤山(对照点),细颗粒物(PM2.5),206,153,198,156,220,91,74,70,70,14,22,4,3,0.8,1.1
2023-01-06T02:00:00,1858A,110.5319,29.1217,张家界市,永定新区,细颗粒物(PM2.5),183,148,195,138,179,64,26,27,26,17,36,4,5,1.0,1.3
2023-01-06T02:00:00,1859A,110.4697,29.1242,张家界市,电业局,细颗粒物(PM2.5),224,177,196,174,182,49,11,12,12,32,45,4,4,1.0,1.1
2023-01-06T02:00:00,1860A,110.5594,29.3547,张家界市,未央路,细颗粒物(PM2.5),90,81,112,67,92,63,18,18,18,4,10,2,2,0.7,0.9
2023-01-06T02:00:00,1861A,110.4417,29.315,张家界市,袁家界(对照点),,39,23,52,27,48,79,44,42,42,4,5,9,9,0.7,0.7
2023-01-06T02:00:00,1862A,110.4144,25.3167,桂林市,电子科大尧山校区(对照点),细颗粒物(PM2.5),87,65,61,64,53,106,92,89,89,16,14,8,11,1.0,1
2023-01-06T02:00:00,1863A,110.2819,25.2697,桂林市,监测站,细颗粒物(PM2.5),104,88,88,78,79,113,93,92,92,13,22,12,11,0.8,1
2023-01-06T02:00:00,1864A,110.3089,25.2708,桂林市,龙隐路小学,细颗粒物(PM2.5),102,75,76,76,75,113,83,85,84,17,19,23,16,0.8,0.7
2023-01-06T02:00:00,1865A,110.2869,25.2178,桂林市,八中,细颗粒物(PM2.5),104,78,80,78,83,111,80,79,79,18,24,17,13,0.6,0.6
2023-01-06T02:00:00,1866A,109.2262,21.588,北海市,牛尾岭水库(对照点),细颗粒物(PM2.5),119,74,48,90,46,63,25,22,22,17,14,6,6,0.6,0.5
2023-01-06T02:00:00,1867A,109.1436,21.4086,北海市,海滩公园,细颗粒物(PM2.5),92,77,64,68,48,87,48,47,47,13,13,6,7,0.9,0.9
2023-01-06T02:00:00,1868A,109.0981,21.4661,北海市,新市环保局,细颗粒物(PM2.5),125,96,60,95,61,88,47,50,48,18,14,7,5,0.8,0.7
2023-01-06T02:00:00,1869A,109.1778,21.5233,北海市,北海工业园,细颗粒物(PM2.5),117,93,69,88,57,76,42,40,40,17,18,12,9,0.7,0.6
2023-01-06T02:00:00,1870A,109.4856,24.3895,柳州市,柳东小学,细颗粒物(PM2.5),130,99,77,99,82,97,61,60,60,16,14,12,10,0.9,0.8
2023-01-06T02:00:00,1871A,109.4157,24.3277,柳州市,环保监测站,细颗粒物(PM2.5),79,91,70,58,63,90,44,34,34,27,24,15,10,1.0,1
2023-01-06T02:00:00,1872A,109.389,24.341,柳州市,河西水厂,细颗粒物(PM2.5),134,96,82,102,74,81,37,34,34,28,26,21,12,1.6,1.1
2023-01-06T02:00:00,1873A,109.4311,24.2921,柳州市,市四中,细颗粒物(PM2.5),108,101,81,81,63,96,57,48,48,20,22,16,12,0.9,1
2023-01-06T02:00:00,1874A,109.4006,24.3631,柳州市,市九中,细颗粒物(PM2.5),124,112,94,94,75,89,45,40,40,29,27,13,13,0.9,0.9
2023-01-06T02:00:00,1875A,109.4958,24.3134,柳州市,古亭山,细颗粒物(PM2.5),82,71,66,60,54,105,69,70,70,13,14,13,11,0.8,0.8
2023-01-06T02:00:00,1876A,109.5078,18.2489,三亚市,河东子站,,29,16,14,9,8,90,90,88,88,4,7,3,3,0.4,0.5
2023-01-06T02:00:00,1877A,109.4964,18.2681,三亚市,河西子站,,24,17,14,10,8,82,76,74,74,5,9,3,2,0.4,0.5
2023-01-06T02:00:00,1878A,104.7778,31.4741,绵阳市,富乐山,细颗粒物(PM2.5),92,79,74,68,62,87,3,4,4,68,33,3,3,1.0,0.7
2023-01-06T02:00:00,1879A,104.7563,31.4535,绵阳市,市人大,细颗粒物(PM2.5),107,105,96,80,72,76,0,1,0,65,50,3,3,1.4,1
2023-01-06T02:00:00,1880A,104.6697,31.4668,绵阳市,高新区自来水公司,,,,109,,76,21,,21,,,37,,6,,1.1
2023-01-06T02:00:00,1881A,104.7287,31.5075,绵阳市,三水厂,细颗粒物(PM2.5),142,141,109,108,80,80,2,2,2,49,42,3,4,1.0,1
2023-01-06T02:00:00,1882A,104.563,28.793,宜宾市,石马中学(对照点),细颗粒物(PM2.5),84,89,67,62,53,77,0,1,0,31,22,6,6,0.8,0.8
2023-01-06T02:00:00,1883A,104.6201,28.7728,宜宾市,市委,细颗粒物(PM2.5),98,97,83,73,67,90,3,3,3,49,31,10,9,0.8,0.7
2023-01-06T02:00:00,1884A,104.6055,28.793,宜宾市,宜宾四中,细颗粒物(PM2.5),105,96,83,79,74,88,3,2,2,48,36,9,8,0.8,0.7
2023-01-06T02:00:00,1885A,104.639,28.7562,宜宾市,市政府,细颗粒物(PM2.5),122,114,85,92,73,82,0,0,0,49,34,7,8,0.9,0.7
2023-01-06T02:00:00,1886A,104.5742,28.7199,宜宾市,黄金嘴,细颗粒物(PM2.5),94,94,78,70,59,90,2,2,2,50,35,8,9,0.9,0.8
2023-01-06T02:00:00,1888A,101.6891,26.571,攀枝花市,弄弄坪,细颗粒物(PM2.5),84,98,104,62,63,117,5,4,4,55,46,12,41,1.2,2.7
2023-01-06T02:00:00,1889A,101.5769,26.5928,攀枝花市,河门口,细颗粒物(PM2.5),72,89,74,52,45,134,21,38,30,37,32,14,26,1.6,1.7
2023-01-06T02:00:00,1890A,101.7169,26.585,攀枝花市,炳草岗,细颗粒物(PM2.5),114,123,93,86,53,120,2,3,2,75,59,14,26,2.3,2.3
2023-01-06T02:00:00,1891A,101.7369,26.5008,攀枝花市,仁和,细颗粒物(PM2.5),77,82,81,56,43,140,17,24,20,24,28,13,24,1.1,1.6
2023-01-06T02:00:00,1893A,105.4324,28.9634,泸州市,九狮山(对照点),细颗粒物(PM2.5),65,62,77,47,56,50,0,0,0,10,15,6,8,0.5,0.5
2023-01-06T02:00:00,1894A,105.4427,28.9063,泸州市,小市上码头,细颗粒物(PM2.5),124,123,110,94,83,64,4,13,8,42,28,6,6,0.9,0.7
2023-01-06T02:00:00,1895A,105.4241,28.8573,泸州市,兰田宪桥,细颗粒物(PM2.5),95,112,102,71,82,57,2,3,2,42,30,11,10,1.0,0.9
2023-01-06T02:00:00,1896A,105.4379,28.8833,泸州市,市环监站,细颗粒物(PM2.5),107,116,104,80,76,68,6,6,6,40,29,5,5,0.8,0.8
2023-01-06T02:00:00,1901A,104.4239,31.1208,德阳市,东山公园,细颗粒物(PM2.5),103,92,92,77,78,92,4,30,17,71,36,3,4,1.2,1
2023-01-06T02:00:00,1902A,104.3826,31.1317,德阳市,西小区,细颗粒物(PM2.5),103,105,107,77,83,85,1,1,1,61,46,2,4,1.1,1.2
2023-01-06T02:00:00,1904A,104.3553,31.1091,德阳市,耐火材料厂,细颗粒物(PM2.5),120,171,130,91,89,88,3,8,6,53,37,3,6,0.9,0.9
2023-01-06T02:00:00,1905A,106.056,30.8064,南充市,西山风景区(对照点),,,,,,,,,,,,,,,,
2023-01-06T02:00:00,1906A,106.0789,30.8023,南充市,南充市委,细颗粒物(PM2.5),94,93,94,70,67,45,2,2,2,19,22,5,6,0.9,0.9
2023-01-06T02:00:00,1907A,106.1031,30.8217,南充市,南充炼油厂,细颗粒物(PM2.5),103,103,97,77,72,59,0,1,0,33,32,7,8,1.1,0.9
2023-01-06T02:00:00,1908A,106.1064,30.7856,南充市,高坪区监测站,细颗粒物(PM2.5),129,135,107,98,80,52,3,2,2,36,32,9,9,1.0,1
2023-01-06T02:00:00,1909A,106.0642,30.7636,南充市,嘉陵区环保局,细颗粒物(PM2.5),92,103,92,68,67,56,3,3,3,39,37,6,7,1.3,1.3
2023-01-06T02:00:00,1910A,106.1087,30.8388,南充市,市环境监测站,,,,97,,72,16,,16,,,33,,10,,0.7
2023-01-06T02:00:00,1911A,106.9222,27.6869,遵义市,丁字口,细颗粒物(PM2.5),57,47,56,40,44,40,7,7,7,26,28,27,36,1.2,1.2
2023-01-06T02:00:00,1912A,106.9242,27.7019,遵义市,凤凰山,颗粒物(PM10),52,53,53,24,21,41,5,8,6,29,26,11,12,0.9,0.9
2023-01-06T02:00:00,1913A,106.8906,27.6486,遵义市,忠庄,细颗粒物(PM2.5),68,43,52,49,37,38,3,3,3,26,25,20,7,1.1,0.7
2023-01-06T02:00:00,1914A,106.9231,27.6506,遵义市,舟水桥,细颗粒物(PM2.5),80,84,64,59,43,38,5,8,6,22,21,65,39,1.9,0.9
2023-01-06T02:00:00,1915A,106.9178,27.72,遵义市,干田坝,,43,40,44,30,32,41,2,2,2,25,26,13,15,1.2,1
2023-01-06T02:00:00,1916A,103.7897,25.5035,曲靖市,环境监测站,颗粒物(PM10),55,59,41,33,25,99,18,16,16,20,19,9,8,1.0,0.9
2023-01-06T02:00:00,1917A,103.8,25.5364,曲靖市,烟厂办公区,颗粒物(PM10),55,60,41,35,24,98,22,18,18,17,22,7,6,0.7,0.7
2023-01-06T02:00:00,1918A,108.7197,34.3956,咸阳市,气象站(对照点),颗粒物(PM10),174,297,337,61,275,100,52,59,56,20,82,9,11,0.6,1.7
2023-01-06T02:00:00,1919A,108.673,34.3155,咸阳市,实验中学,颗粒物(PM10),160,270,361,86,319,103,54,50,50,22,78,6,6,0.6,1.7
2023-01-06T02:00:00,1920A,108.7233,34.3617,咸阳市,师范学院,颗粒物(PM10),166,282,349,63,279,120,66,66,66,12,69,8,9,0.5,1.5
2023-01-06T02:00:00,1922A,109.0656,35.0994,铜川市,党校(对照点),颗粒物(PM10),144,237,159,84,91,103,4,4,4,88,62,12,16,1.2,1.4
2023-01-06T02:00:00,1923A,109.0697,35.0697,铜川市,王益区政府,细颗粒物(PM2.5),248,222,167,198,155,105,5,5,5,70,58,6,10,1.4,1.4
2023-01-06T02:00:00,1924A,108.9344,34.9058,铜川市,新区管委会,颗粒物(PM10),115,180,202,47,172,130,32,35,34,40,47,10,18,0.6,1.2
2023-01-06T02:00:00,1926A,109.4131,36.6275,延安市,枣园(对照点),颗粒物(PM10),119,188,87,59,71,93,4,4,4,50,46,4,5,0.7,0.7
2023-01-06T02:00:00,1927A,109.4761,36.6028,延安市,延大医附院,"颗粒物(PM10),细颗粒物(PM2.5)",89,127,91,66,68,83,6,6,6,61,58,8,8,2.0,1.3
2023-01-06T02:00:00,1929A,109.5056,36.6106,延安市,百米大道,颗粒物(PM10),106,162,97,77,75,85,11,12,12,70,67,16,11,1.6,1.6
2023-01-06T02:00:00,1930A,107.185,34.3063,宝鸡市,庙沟村(对照点),颗粒物(PM10),140,229,186,47,139,81,40,48,44,28,37,4,5,1.0,1.5
2023-01-06T02:00:00,1931A,107.0708,34.3017,宝鸡市,竹园沟,颗粒物(PM10),120,190,158,33,144,94,28,35,32,21,38,4,5,0.6,1.1
2023-01-06T02:00:00,1932A,107.1906,34.3672,宝鸡市,三陆医院,细颗粒物(PM2.5),189,246,229,142,200,106,25,24,24,35,55,8,10,1.3,1.5
2023-01-06T02:00:00,1933A,107.1431,34.3547,宝鸡市,监测站,细颗粒物(PM2.5),144,186,184,110,168,100,19,16,16,45,56,4,6,0.9,1.3
2023-01-06T02:00:00,1934A,107.1186,34.3739,宝鸡市,技工学校,细颗粒物(PM2.5),204,194,184,154,189,103,22,27,24,39,48,7,8,1.0,1.2
2023-01-06T02:00:00,1935A,107.3906,34.3528,宝鸡市,陈仓区环保局家属楼,细颗粒物(PM2.5),222,265,239,172,208,99,14,12,12,73,68,21,20,2.0,1.8
2023-01-06T02:00:00,1936A,107.2058,34.3497,宝鸡市,文理学院,细颗粒物(PM2.5),189,211,205,142,173,110,21,18,18,47,56,7,9,1.1,1.4
2023-01-06T02:00:00,1937A,107.2386,34.3622,宝鸡市,三迪小学,细颗粒物(PM2.5),227,242,227,177,188,92,15,14,14,56,64,8,10,1.3,1.5
2023-01-06T02:00:00,1938A,109.5293,34.5101,渭南市,农科所(对照点),细颗粒物(PM2.5),247,271,345,197,269,107,64,68,66,37,69,8,11,0.9,2.2
2023-01-06T02:00:00,1939A,109.4974,34.4877,渭南市,日报社,细颗粒物(PM2.5),249,302,307,199,260,79,58,62,60,40,86,9,14,1.1,2.2
2023-01-06T02:00:00,1940A,109.4636,34.493,渭南市,体育馆,细颗粒物(PM2.5),199,279,318,149,290,80,47,54,50,30,76,8,12,0.9,1.9
2023-01-06T02:00:00,1941A,109.4259,34.5023,渭南市,高新一小,细颗粒物(PM2.5),180,304,324,136,281,121,60,74,67,29,69,9,13,0.8,1.9
2023-01-06T02:00:00,1943A,102.1725,38.5339,金昌市,新川苑,颗粒物(PM10),57,64,358,11,32,82,67,71,69,16,20,6,16,0.7,0.7
2023-01-06T02:00:00,1944A,102.1692,38.5167,金昌市,天庆家园,颗粒物(PM10),53,55,300,5,22,85,74,76,75,12,21,8,23,0.5,0.7
2023-01-06T02:00:00,1945A,98.2908,39.7711,嘉峪关市,气象局,颗粒物(PM10),69,88,498,22,61,82,52,54,53,26,20,5,4,0.0,0.1
2023-01-06T02:00:00,1947A,106.3394,38.817,石嘴山市,沙湖旅游区(对照点),颗粒物(PM10),142,233,257,86,161,87,52,86,69,30,48,6,20,0.7,2
2023-01-06T02:00:00,1948A,106.3668,39.0145,石嘴山市,大武口朝阳西街,颗粒物(PM10),159,268,186,49,106,73,21,16,16,53,62,25,33,1.2,1.1
2023-01-06T02:00:00,1949A,106.7704,39.2282,石嘴山市,惠农南大街,颗粒物(PM10),198,345,171,55,64,74,27,48,38,39,43,316,42,1.4,0.9
2023-01-06T02:00:00,1950A,106.7099,39.1325,石嘴山市,红果子镇惠新街,颗粒物(PM10),314,431,182,56,75,70,35,42,38,20,37,20,25,0.6,0.9
2023-01-06T02:00:00,1951A,84.895,45.6094,克拉玛依市,长征新村,细颗粒物(PM2.5),93,74,117,69,90,179,70,69,69,20,39,8,9,0.7,1.1
2023-01-06T02:00:00,1952A,84.8988,45.5893,克拉玛依市,南林小区,细颗粒物(PM2.5),110,82,122,83,102,78,57,62,60,31,36,2,5,0.7,1
2023-01-06T02:00:00,1954A,84.905,44.3396,克拉玛依市,独山子区,细颗粒物(PM2.5),63,45,76,45,48,95,76,59,59,18,27,7,7,0.7,0.8
2023-01-06T02:00:00,1955A,85.6979,46.098,克拉玛依市,乌尔禾区商贸楼,细颗粒物(PM2.5),53,43,90,37,71,84,74,82,78,21,35,5,6,0.6,1
2023-01-06T02:00:00,1956A,86.1472,41.7538,巴音郭楞州,孔雀公园,颗粒物(PM10),79,108,141,50,44,84,39,32,32,34,32,14,16,0.7,0.7
2023-01-06T02:00:00,1957A,86.1972,41.7166,巴音郭楞州,棉纺厂,颗粒物(PM10),84,118,165,46,46,84,7,18,12,90,50,5,8,0.7,0.6
2023-01-06T02:00:00,1958A,86.2357,41.7173,巴音郭楞州,经济开发区,颗粒物(PM10),76,101,135,32,34,75,61,58,58,18,28,4,6,0.6,0.5
2023-01-06T02:00:00,1961A,117.532,36.6868,济南市,东山小学,细颗粒物(PM2.5),178,205,201,134,145,117,117,116,116,27,63,8,9,0.8,1
2023-01-06T02:00:00,1966A,120.0405,35.8735,青岛市,黄岛区4号,细颗粒物(PM2.5),203,178,183,153,152,83,42,29,29,72,85,12,13,1.6,1.7
2023-01-06T02:00:00,1982A,122.0693,37.2174,威海市,文登开发区,细颗粒物(PM2.5),188,173,179,141,147,129,42,42,42,40,54,5,9,1.2,1.3
2023-01-06T02:00:00,2031A,113.1817,27.9958,株洲市,云田中学,细颗粒物(PM2.5),237,197,149,187,140,105,46,54,50,41,39,8,6,1.1,1
2023-01-06T02:00:00,2054A,114.1099,32.1059,信阳市,平桥分局,细颗粒物(PM2.5),239,213,259,189,226,89,15,18,16,46,61,8,10,1.4,1.4
2023-01-06T02:00:00,2064A,113.9956,32.1271,信阳市,南湾水厂,细颗粒物(PM2.5),235,195,249,185,223,107,47,53,50,21,41,6,8,1.5,1.4
2023-01-06T02:00:00,2065A,114.0775,32.1195,信阳市,市酿酒公司,细颗粒物(PM2.5),265,248,255,215,235,91,0,1,0,69,69,8,10,1.9,1.8
2023-01-06T02:00:00,2066A,114.0609,32.1399,信阳市,审计局,细颗粒物(PM2.5),259,242,268,209,232,104,4,4,4,59,63,14,12,1.9,1.7
2023-01-06T02:00:00,2067A,114.6613,33.6128,周口市,市环境监测站,细颗粒物(PM2.5),354,327,352,304,312,91,59,56,56,44,70,8,9,1.6,1.8
2023-01-06T02:00:00,2068A,114.6758,33.6347,周口市,周口师范,细颗粒物(PM2.5),351,323,360,301,329,92,80,76,76,40,76,11,11,1.8,2
2023-01-06T02:00:00,2069A,114.6546,33.5979,周口市,市运管处,细颗粒物(PM2.5),367,330,357,317,328,93,65,68,66,50,73,9,10,2.0,2
2023-01-06T02:00:00,2070A,114.6369,33.6406,周口市,川汇区环保局,细颗粒物(PM2.5),380,368,360,330,315,94,55,60,58,47,76,17,11,1.9,2
2023-01-06T02:00:00,2075A,117.6336,24.4674,漳州市,九湖(对照点),,,,,,,,,,,,,,,,
2023-01-06T02:00:00,2160A,112.85,35.5051,晋城市,自来水公司,细颗粒物(PM2.5),149,145,198,114,161,105,63,105,84,60,61,16,21,1.9,2.4
2023-01-06T02:00:00,2161A,112.8318,35.4936,晋城市,白云商贸,细颗粒物(PM2.5),156,136,181,119,147,96,89,96,92,29,54,13,16,1.6,2.4
2023-01-06T02:00:00,2162A,112.8508,35.4887,晋城市,市环保局,细颗粒物(PM2.5),149,142,223,114,179,99,81,99,90,40,59,18,23,1.5,2.5
2023-01-06T02:00:00,2163A,112.8676,35.4897,晋城市,技术学院,细颗粒物(PM2.5),144,130,198,110,173,104,55,104,80,54,58,13,18,1.5,2.3
2023-01-06T02:00:00,2165A,112.8453,35.546,晋城市,白马寺 (对照点),,,,,,,,,,,,,,,,
2023-01-06T02:00:00,2166A,112.4397,39.3522,朔州市,平朔,颗粒物(PM10),112,173,159,27,44,86,71,70,70,6,37,4,23,0.3,0.8
2023-01-06T02:00:00,2167A,112.4575,39.3617,朔州市,朔唯,颗粒物(PM10),122,193,212,29,53,90,75,74,74,6,43,4,31,0.3,0.8
2023-01-06T02:00:00,2168A,112.4258,39.3197,朔州市,区政府,颗粒物(PM10),123,195,126,20,45,96,75,75,75,8,36,5,19,0.3,0.7
2023-01-06T02:00:00,2169A,112.4072,39.3278,朔州市,市环保局,颗粒物(PM10),122,194,122,38,48,91,71,70,70,6,36,5,20,0.3,0.9
2023-01-06T02:00:00,2170A,112.4272,39.3681,朔州市,市二中,颗粒物(PM10),135,219,153,25,43,97,75,74,74,6,34,4,21,0.1,0.6
2023-01-06T02:00:00,2171A,112.7532,37.6945,晋中市,锦纶小区,细颗粒物(PM2.5),206,218,154,156,102,54,4,4,4,85,65,42,39,1.9,1.4
2023-01-06T02:00:00,2173A,112.7249,37.7067,晋中市,南都小区,细颗粒物(PM2.5),180,240,156,136,91,55,6,7,6,90,69,41,40,2.1,1.5
2023-01-06T02:00:00,2174A,112.6991,37.6982,晋中市,榆次区政府,细颗粒物(PM2.5),186,252,163,140,87,47,3,3,3,87,64,48,39,2.1,1.4
2023-01-06T02:00:00,2175A,110.9956,35.0147,运城市,运城中学,细颗粒物(PM2.5),316,302,302,266,255,118,72,66,66,37,47,11,14,1.6,2.2
2023-01-06T02:00:00,2178A,110.9686,35.0303,运城市,地区技校,细颗粒物(PM2.5),310,315,335,260,260,101,56,50,50,43,57,16,18,1.9,2.4
2023-01-06T02:00:00,2179A,111.0414,35.1147,运城市,空港新区,细颗粒物(PM2.5),359,354,329,309,275,122,26,22,22,57,62,12,15,2.5,2.6
2023-01-06T02:00:00,2181A,112.7383,38.4519,忻州市,开发区,细颗粒物(PM2.5),156,164,136,119,92,26,6,6,6,64,57,20,24,1.8,1.5
2023-01-06T02:00:00,2182A,112.7003,38.4928,忻州市,会展中心,细颗粒物(PM2.5),125,137,136,95,92,30,9,9,9,67,61,17,20,1.3,1.3
2023-01-06T02:00:00,2183A,111.1406,37.5211,吕梁市,环保局,颗粒物(PM10),109,168,117,68,46,54,1,1,1,73,69,18,22,1.1,0.9
2023-01-06T02:00:00,2185A,111.1297,37.5136,吕梁市,自来水公司,颗粒物(PM10),102,153,135,67,50,52,2,2,2,70,63,16,23,1.1,1
2023-01-06T02:00:00,2187A,106.8174,39.6973,乌海市,市林业局,颗粒物(PM10),136,221,295,51,109,88,87,88,88,8,42,8,56,0.4,1.7
2023-01-06T02:00:00,2188A,106.7907,39.6667,乌海市,中海勃湾学校,颗粒物(PM10),132,214,263,43,89,90,88,90,89,13,41,8,54,0.3,1.6
2023-01-06T02:00:00,2191A,122.2532,43.6801,通辽市,艺术职业学校,细颗粒物(PM2.5),259,254,125,209,82,55,5,4,4,59,42,16,13,3.5,0.7
2023-01-06T02:00:00,2192A,119.7594,49.2261,呼伦贝尔市,区环保局,细颗粒物(PM2.5),55,42,40,39,31,67,19,14,14,37,35,6,6,0.4,0.5
2023-01-06T02:00:00,2195A,107.4212,40.761,巴彦淖尔市,附二中,颗粒物(PM10),177,304,230,42,56,83,80,79,79,5,24,3,10,0.3,0.7
2023-01-06T02:00:00,2196A,107.37,40.7372,巴彦淖尔市,市环保大楼,颗粒物(PM10),175,300,210,44,64,85,80,78,78,8,27,3,8,0.4,0.8
2023-01-06T02:00:00,2197A,113.1306,40.9923,乌兰察布市,集宁新区,颗粒物(PM10),112,173,78,63,35,72,39,38,38,25,32,14,18,0.7,0.7
2023-01-06T02:00:00,2200A,122.0392,46.0656,兴安盟,胜华新制药厂,细颗粒物(PM2.5),84,65,58,62,43,69,5,5,5,39,33,3,7,1.1,0.7
2023-01-06T02:00:00,2201A,121.9504,46.0741,兴安盟,科右前旗环保局,颗粒物(PM10),51,51,35,29,27,72,31,20,20,16,25,2,3,0.5,0.7
2023-01-06T02:00:00,2202A,116.1042,43.9317,锡林郭勒盟,市环保监测站,颗粒物(PM10),178,305,48,25,19,76,67,72,70,2,12,6,8,0.3,0.4
2023-01-06T02:00:00,2203A,116.0781,43.9311,锡林郭勒盟,市政府,颗粒物(PM10),88,125,32,26,14,76,67,72,70,6,11,8,9,0.3,0.3
2023-01-06T02:00:00,2204A,105.6467,38.8363,阿拉善盟,西城区西花园(对照点),颗粒物(PM10),145,239,198,41,44,89,84,83,83,9,14,6,8,0.4,0.5
2023-01-06T02:00:00,2205A,105.6985,38.8411,阿拉善盟,蒙二幼,颗粒物(PM10),146,241,191,61,55,91,83,82,82,7,13,10,12,0.3,0.4
2023-01-06T02:00:00,2206A,105.724,38.8516,阿拉善盟,环保局新楼,颗粒物(PM10),96,141,128,49,46,100,89,88,88,5,9,10,11,0.3,0.3
2023-01-06T02:00:00,2207A,121.6094,41.998,阜新市,工业园区,细颗粒物(PM2.5),178,206,235,134,142,58,12,12,12,43,45,22,29,2.2,2.3
2023-01-06T02:00:00,2208A,121.6697,42.0279,阜新市,长青街,细颗粒物(PM2.5),179,209,160,135,99,62,10,11,10,47,52,34,32,3.1,2
2023-01-06T02:00:00,2209A,121.6673,42.0705,阜新市,农业园区,细颗粒物(PM2.5),189,200,125,142,88,57,8,8,8,74,46,79,53,1.9,1.2
2023-01-06T02:00:00,2210A,121.6717,42.0224,阜新市,东苑,细颗粒物(PM2.5),193,214,154,145,116,57,8,11,10,49,52,61,49,5.0,2.4
2023-01-06T02:00:00,2211A,121.6506,42.0498,阜新市,玉龙新城,细颗粒物(PM2.5),156,197,163,119,107,59,10,10,10,48,42,24,25,1.8,1.5
2023-01-06T02:00:00,2212A,123.2,41.1953,辽阳市,宏伟区,细颗粒物(PM2.5),82,71,70,60,55,62,62,62,62,19,32,12,15,0.9,1.1
2023-01-06T02:00:00,2213A,123.1683,41.2495,辽阳市,新华园,细颗粒物(PM2.5),90,77,95,67,67,52,52,49,49,21,48,13,24,0.9,1.4
2023-01-06T02:00:00,2214A,123.2354,41.2639,辽阳市,滨河路,细颗粒物(PM2.5),97,68,76,72,71,62,62,61,61,19,37,8,18,0.7,1
2023-01-06T02:00:00,2215A,123.149,41.2991,辽阳市,铁西工业园,细颗粒物(PM2.5),113,86,104,85,80,49,49,48,48,27,49,15,22,1.0,1.5
2023-01-06T02:00:00,2216A,123.8139,42.3022,铁岭市,汇工街西,细颗粒物(PM2.5),98,95,132,73,104,48,18,18,18,60,64,17,27,1.5,2
2023-01-06T02:00:00,2217A,123.8649,42.2923,铁岭市,水上乐园,细颗粒物(PM2.5),99,80,101,74,85,50,30,30,30,40,50,17,22,1.3,1.3
2023-01-06T02:00:00,2218A,123.8486,42.2867,铁岭市,银州路东段,细颗粒物(PM2.5),94,107,146,70,85,52,21,18,18,57,58,15,18,1.7,1.7
2023-01-06T02:00:00,2219A,123.7153,42.2217,铁岭市,金沙江路北,细颗粒物(PM2.5),100,89,116,75,95,48,29,25,25,54,63,16,23,1.3,1.8
2023-01-06T02:00:00,2220A,120.4318,41.5881,朝阳市,西梁,细颗粒物(PM2.5),169,197,167,128,107,40,1,2,2,52,50,37,36,3.2,2.1
2023-01-06T02:00:00,2221A,120.4521,41.5646,朝阳市,河畔小区,细颗粒物(PM2.5),150,146,113,115,76,45,5,5,5,57,46,26,26,2.4,1.8
2023-01-06T02:00:00,2222A,120.4176,41.5648,朝阳市,八里堡,细颗粒物(PM2.5),150,153,147,115,99,40,3,4,4,59,53,26,32,1.9,2
2023-01-06T02:00:00,2223A,120.3806,41.5969,朝阳市,农业园区,细颗粒物(PM2.5),158,171,138,120,86,52,8,8,8,60,51,30,29,2.3,1.8
2023-01-06T02:00:00,2225A,124.4002,43.1713,四平市,一商场,细颗粒物(PM2.5),132,136,97,100,69,56,8,7,7,79,59,15,21,1.4,1.3
2023-01-06T02:00:00,2226A,124.388,43.193,四平市,境园,细颗粒物(PM2.5),124,130,97,94,69,57,6,7,6,79,53,15,20,1.6,1.4
2023-01-06T02:00:00,2227A,125.1358,42.8845,辽源市,环保局,细颗粒物(PM2.5),147,140,113,112,91,69,11,12,12,47,50,7,13,2.1,1.7
2023-01-06T02:00:00,2229A,125.9358,41.7173,通化市,光明,细颗粒物(PM2.5),82,89,115,60,69,28,5,5,5,62,58,68,47,1.4,1.6
2023-01-06T02:00:00,2230A,125.9446,41.7325,通化市,铁路,细颗粒物(PM2.5),79,106,129,58,75,27,9,9,9,65,65,37,51,1.9,2.1
2023-01-06T02:00:00,2231A,126.4219,41.9171,白山市,喜丰,细颗粒物(PM2.5),85,101,88,63,53,38,9,8,8,45,38,19,20,1.3,1.1
2023-01-06T02:00:00,2232A,126.4077,41.9419,白山市,环保局,细颗粒物(PM2.5),115,129,111,87,66,49,4,5,4,55,49,24,25,1.7,1.6
2023-01-06T02:00:00,2233A,124.8006,45.1214,松原市,江南,细颗粒物(PM2.5),188,127,87,141,81,50,4,4,4,56,36,23,15,1.8,1
2023-01-06T02:00:00,2234A,124.7965,45.1722,松原市,江北,细颗粒物(PM2.5),130,141,85,99,59,52,5,5,5,54,39,5,8,1.5,1
2023-01-06T02:00:00,2235A,122.7911,45.6077,白城市,洮北区环保局,细颗粒物(PM2.5),58,51,56,41,38,63,47,42,42,17,26,5,8,0.5,0.6
2023-01-06T02:00:00,2236A,122.8738,45.5725,白城市,市环保局,颗粒物(PM10),52,54,44,6,9,69,33,30,30,35,30,8,6,0.5,0.4
2023-01-06T02:00:00,2237A,129.47,42.8883,延边朝鲜族自治州,妇幼医院,,44,44,45,27,31,69,28,24,24,23,29,12,20,0.8,0.8
2023-01-06T02:00:00,2238A,129.5055,42.9108,延边朝鲜族自治州,延边医院,细颗粒物(PM2.5),63,65,57,45,45,77,24,19,19,34,37,8,17,1.1,1
2023-01-06T02:00:00,2239A,129.3964,42.8881,延边朝鲜族自治州,朝阳川镇医院,,46,46,59,26,34,74,15,23,19,17,17,5,8,0.8,0.8
2023-01-06T02:00:00,2240A,130.9762,45.3001,鸡西市,环保局,细颗粒物(PM2.5),58,52,38,41,25,65,53,52,52,21,27,15,10,0.7,0.7
2023-01-06T02:00:00,2243A,130.9429,45.3039,鸡西市,第一中学,细颗粒物(PM2.5),57,57,33,40,24,71,51,53,52,17,12,13,8,0.7,0.6
2023-01-06T02:00:00,2244A,130.2537,47.3416,鹤岗市,哈啤分公司,,47,47,65,24,38,64,60,61,60,10,28,10,14,0.3,0.6
2023-01-06T02:00:00,2245A,130.2684,47.3086,鹤岗市,斯达机电,,46,44,59,32,35,79,60,60,60,13,31,10,14,0.4,0.5
2023-01-06T02:00:00,2246A,130.3114,47.3388,鹤岗市,东山纸板厂,细颗粒物(PM2.5),82,100,99,60,49,57,16,12,12,40,40,17,20,2.3,0.7
2023-01-06T02:00:00,2247A,130.1097,47.3382,鹤岗市,五号水库(对照点),,42,34,40,29,34,72,46,47,46,12,12,6,8,0.6,0.7
2023-01-06T02:00:00,2248A,131.1511,46.6937,双鸭山市,双合村,细颗粒物(PM2.5),62,56,51,44,40,74,40,35,35,24,18,8,13,1.1,1
2023-01-06T02:00:00,2249A,131.1652,46.6191,双鸭山市,南小市,细颗粒物(PM2.5),74,75,61,54,38,69,42,50,46,30,17,27,15,0.7,0.6
2023-01-06T02:00:00,2250A,131.1524,46.6554,双鸭山市,环保局,细颗粒物(PM2.5),68,64,55,49,44,61,45,45,45,29,27,12,18,0.9,0.9
2023-01-06T02:00:00,2251A,131.12,46.5656,双鸭山市,苗圃(对照点),细颗粒物(PM2.5),70,51,45,51,43,81,60,61,60,18,16,10,9,0.6,0.5
2023-01-06T02:00:00,2252A,128.5159,47.4311,伊春市,环保局,细颗粒物(PM2.5),72,66,61,52,53,59,24,34,29,30,28,4,8,0.8,0.8
2023-01-06T02:00:00,2253A,128.9102,47.7412,伊春市,电力嘉园,细颗粒物(PM2.5),74,74,68,54,48,64,33,34,34,28,31,6,9,0.9,0.8
2023-01-06T02:00:00,2254A,129.5029,48.471,伊春市,汤旺河国家公园(对照点),,,,42,,31,76,46,50,48,4,5,6,6,0.2,0.2
2023-01-06T02:00:00,2255A,130.2751,46.8028,佳木斯市,佳纺,细颗粒物(PM2.5),72,62,66,52,55,68,10,18,14,32,19,4,8,0.8,0.7
2023-01-06T02:00:00,2256A,130.3995,46.8307,佳木斯市,发电厂,细颗粒物(PM2.5),55,54,47,39,40,66,23,31,27,34,25,5,7,0.7,0.6
2023-01-06T02:00:00,2257A,130.3258,46.7975,佳木斯市,环保局,细颗粒物(PM2.5),63,55,50,45,43,62,18,23,20,20,25,12,9,0.5,0.5
2023-01-06T02:00:00,2258A,130.3648,46.8032,佳木斯市,十一中,细颗粒物(PM2.5),59,45,50,42,45,58,15,21,18,58,35,4,6,0.8,0.7
2023-01-06T02:00:00,2259A,130.3794,46.7588,佳木斯市,四丰(对照点),,45,41,43,31,39,84,42,65,54,35,14,1,1,0.5,0.5
2023-01-06T02:00:00,2262A,131.0518,45.8751,七台河市,新一中(对照点),细颗粒物(PM2.5),99,87,66,74,46,80,33,24,24,37,27,15,18,1.1,1.2
2023-01-06T02:00:00,2263A,127.4833,50.2524,黑河市,交通局,,18,11,19,11,17,63,56,54,54,2,8,3,2,0.3,0.4
2023-01-06T02:00:00,2264A,127.5144,50.2341,黑河市,环保局,,25,24,36,17,21,53,48,46,46,6,17,6,9,0.3,0.5
2023-01-06T02:00:00,2265A,127.5291,50.2472,黑河市,大黑河岛(对照点),,17,6,10,7,11,60,54,54,54,1,3,3,3,0.3,0.3
2023-01-06T02:00:00,2266A,126.9785,46.6365,绥化市,人和东街,细颗粒物(PM2.5),237,214,139,187,119,49,2,5,4,71,46,22,9,1.6,1
2023-01-06T02:00:00,2267A,126.964,46.6528,绥化市,党政办公中心,细颗粒物(PM2.5),272,247,131,222,119,59,7,6,6,74,44,8,9,1.9,0.9
2023-01-06T02:00:00,2269A,124.1069,50.4097,大兴安岭地区,科技局,,28,16,18,19,17,66,44,44,44,8,8,9,5,0.3,0.3
2023-01-06T02:00:00,2270A,117.396,32.939,蚌埠市,工人疗养院,细颗粒物(PM2.5),129,127,126,98,95,122,45,44,44,64,64,17,16,1.0,0.9
2023-01-06T02:00:00,2271A,117.3605,32.9427,蚌埠市,百货大楼,细颗粒物(PM2.5),140,130,129,107,98,122,46,48,47,57,73,17,15,0.9,0.8
2023-01-06T02:00:00,2273A,117.4185,32.8911,蚌埠市,蚌埠学院,细颗粒物(PM2.5),138,158,137,105,93,125,24,52,38,87,66,13,16,0.8,0.7
2023-01-06T02:00:00,2274A,117.3533,32.9673,蚌埠市,淮上区政府,细颗粒物(PM2.5),138,139,132,105,91,122,32,28,28,74,59,18,14,0.8,0.7
2023-01-06T02:00:00,2275A,117.3145,32.8977,蚌埠市,高新区,细颗粒物(PM2.5),178,173,141,134,101,124,3,5,4,115,80,10,12,0.9,0.8
2023-01-06T02:00:00,2277A,116.8305,32.7727,淮南市,潘集区政府,细颗粒物(PM2.5),247,240,183,197,142,132,11,18,14,92,60,10,10,0.9,0.8
2023-01-06T02:00:00,2278A,117.0067,32.6524,淮南市,师范学院,细颗粒物(PM2.5),216,220,173,166,114,111,1,0,0,100,73,11,13,1.8,1.3
2023-01-06T02:00:00,2279A,116.8569,32.5951,淮南市,谢家集区政府,细颗粒物(PM2.5),175,179,142,132,101,127,58,67,62,52,44,13,18,0.6,0.7
2023-01-06T02:00:00,2280A,116.8281,32.633,淮南市,八公山区政府,细颗粒物(PM2.5),200,161,138,150,113,131,87,82,82,20,33,13,15,0.7,0.7
2023-01-06T02:00:00,2281A,116.6325,32.6201,淮南市,焦岗湖风景区管理处(对照点),细颗粒物(PM2.5),198,189,154,148,114,91,31,19,19,4,8,16,19,0.8,0.6
2023-01-06T02:00:00,2282A,116.8004,33.975,淮北市,监测站,细颗粒物(PM2.5),175,150,146,132,107,143,61,67,64,51,52,16,12,1.0,1.1
2023-01-06T02:00:00,2283A,116.8091,33.9007,淮北市,烈山区政府,细颗粒物(PM2.5),223,193,149,173,121,156,26,22,22,111,71,10,9,1.0,0.9
2023-01-06T02:00:00,2284A,116.7856,33.9477,淮北市,职业技术学院,细颗粒物(PM2.5),218,190,155,168,119,151,39,39,39,97,76,22,13,1.1,1
2023-01-06T02:00:00,2285A,117.8177,30.9412,铜陵市,市第四中学,细颗粒物(PM2.5),130,150,134,99,86,62,5,5,5,77,75,9,11,1.1,1.1
2023-01-06T02:00:00,2286A,117.8059,30.9273,铜陵市,市公路局,细颗粒物(PM2.5),155,135,117,118,93,57,3,2,2,75,66,9,10,0.9,1
2023-01-06T02:00:00,2287A,117.7807,30.9413,铜陵市,市新民污水厂,细颗粒物(PM2.5),104,130,112,78,71,58,9,6,6,70,64,5,8,0.6,0.6
2023-01-06T02:00:00,2288A,117.7439,30.8792,铜陵市,市第九中学,细颗粒物(PM2.5),134,177,131,102,87,38,4,5,4,66,68,12,12,0.9,0.8
2023-01-06T02:00:00,2289A,117.846,30.9413,铜陵市,车站新区,细颗粒物(PM2.5),117,118,95,88,82,51,7,7,7,67,67,7,11,0.7,0.8
2023-01-06T02:00:00,2290A,117.8483,30.97,铜陵市,市职教基地,细颗粒物(PM2.5),137,151,100,104,70,64,6,5,5,66,48,10,10,0.6,0.4
2023-01-06T02:00:00,2291A,117.0809,30.5177,安庆市,环科院,细颗粒物(PM2.5),144,133,94,110,77,72,6,36,21,63,46,7,7,0.9,0.9
2023-01-06T02:00:00,2292A,117.0331,30.5119,安庆市,马山宾馆,细颗粒物(PM2.5),123,130,90,93,67,70,35,38,36,48,48,9,8,0.8,0.9
2023-01-06T02:00:00,2294A,116.9896,30.6145,安庆市,安庆大学,细颗粒物(PM2.5),127,126,87,96,80,84,10,30,20,74,45,8,8,0.8,0.9
2023-01-06T02:00:00,2295A,118.2903,29.6963,黄山市,延安路89号,,45,44,57,31,46,64,1,2,2,18,24,4,5,0.4,0.5
2023-01-06T02:00:00,2296A,118.327,29.7178,黄山市,黄山东路89号,细颗粒物(PM2.5),67,53,60,48,49,47,0,1,0,22,25,5,6,0.8,0.8
2023-01-06T02:00:00,2297A,118.1371,30.2756,黄山市,黄山区政府5号楼,,36,27,34,25,20,65,9,9,9,10,14,5,5,0.6,0.6
2023-01-06T02:00:00,2298A,118.3093,32.3153,滁州市,老年大学,细颗粒物(PM2.5),130,112,115,99,91,115,15,33,24,45,60,6,9,0.8,0.8
2023-01-06T02:00:00,2299A,118.3244,32.2786,滁州市,人大宾馆,细颗粒物(PM2.5),130,132,128,99,73,107,30,20,20,65,74,6,10,0.8,0.8
2023-01-06T02:00:00,2301A,115.8277,32.8929,阜阳市,市监测站,细颗粒物(PM2.5),326,313,178,276,150,119,50,45,45,47,65,8,11,1.3,1
2023-01-06T02:00:00,2303A,115.8554,32.8605,阜阳市,开发区,细颗粒物(PM2.5),308,353,210,258,138,128,32,32,32,67,65,6,8,1.4,1.1
2023-01-06T02:00:00,2307A,116.5079,31.737,六安市,监测大楼,细颗粒物(PM2.5),172,156,132,130,102,58,6,7,6,71,69,6,8,0.9,0.7
2023-01-06T02:00:00,2308A,116.4738,31.7643,六安市,皖西学院,细颗粒物(PM2.5),178,163,137,134,95,47,4,4,4,59,69,4,7,0.8,0.6
2023-01-06T02:00:00,2309A,116.4996,31.7905,六安市,朝阳厂,细颗粒物(PM2.5),150,128,124,115,101,92,40,36,36,42,68,7,7,0.8,0.8
2023-01-06T02:00:00,2310A,116.5567,31.7886,六安市,开发区,细颗粒物(PM2.5),169,180,160,128,100,60,2,2,2,65,68,8,10,1.1,0.7
2023-01-06T02:00:00,2311A,115.8072,33.8399,亳州市,污水处理厂,细颗粒物(PM2.5),292,288,196,242,157,98,5,3,3,74,58,7,8,1.4,1.1
2023-01-06T02:00:00,2312A,115.7789,33.8518,亳州市,三国揽胜宫,细颗粒物(PM2.5),326,362,230,276,170,116,56,49,49,33,54,5,8,1.4,1.1
2023-01-06T02:00:00,2314A,117.47,30.6618,池州市,池州学院,细颗粒物(PM2.5),162,145,115,123,93,76,2,3,2,63,52,6,5,0.7,0.8
2023-01-06T02:00:00,2316A,118.7581,30.9454,宣城市,鳌峰子站,细颗粒物(PM2.5),165,157,112,125,83,77,22,27,24,58,57,9,9,1.0,0.9
2023-01-06T02:00:00,2317A,118.7385,30.9743,宣城市,敬亭山子站,细颗粒物(PM2.5),149,166,109,114,77,72,19,23,21,49,53,13,13,0.9,0.8
2023-01-06T02:00:00,2318A,118.7173,30.9427,宣城市,开发区子站,细颗粒物(PM2.5),160,152,109,122,80,75,5,6,6,64,56,5,7,1.1,0.8
2023-01-06T02:00:00,2319A,119.0141,25.4325,莆田市,荔城区仓后路,,20,20,29,11,14,88,58,61,60,12,12,6,6,0.5,0.6
2023-01-06T02:00:00,2320A,119.0015,25.4553,莆田市,莆田市监测站,,18,9,24,11,14,88,57,62,60,4,6,6,6,0.5,0.5
2023-01-06T02:00:00,2321A,119.1119,25.4561,莆田市,涵江区六中,,25,19,29,17,19,85,59,64,62,14,13,5,4,0.6,0.6
2023-01-06T02:00:00,2322A,119.1013,25.3215,莆田市,秀屿区政府,,23,17,32,16,19,79,56,58,57,14,15,8,7,0.5,0.5
2023-01-06T02:00:00,2323A,118.981,25.4792,莆田市,东圳水库(对照点),,,,,,,,,,,,,,,,
2023-01-06T02:00:00,2324A,117.6211,26.2625,三明市,三钢,,42,28,34,29,25,76,12,11,11,25,25,5,9,0.4,0.4
2023-01-06T02:00:00,2325A,117.635,26.2714,三明市,三明二中,,32,19,30,22,23,72,16,18,17,25,21,9,12,0.5,0.5
2023-01-06T02:00:00,2326A,117.6028,26.2378,三明市,三元区政府,,36,32,36,25,24,70,3,3,3,25,25,3,6,0.7,0.8
2023-01-06T02:00:00,2327A,117.7275,26.3108,三明市,洋溪(对照点),,,,,,,,,,,,,,,,
2023-01-06T02:00:00,2331A,118.0966,26.6761,南平市,茫荡山(对照点),,,,,,,,,,,,,,,,
2023-01-06T02:00:00,2332A,118.1681,26.6369,南平市,南平市监测站,,43,38,32,30,26,73,0,2,1,31,21,4,4,0.5,0.5
2023-01-06T02:00:00,2333A,118.1825,26.6489,南平市,南平铝业有限公司,,,31,32,19,24,64,3,3,3,30,24,,6,0.5,0.7
2023-01-06T02:00:00,2334A,118.1756,26.6272,南平市,南平七中,,43,23,31,30,28,75,4,5,4,25,21,3,4,0.5,0.5
2023-01-06T02:00:00,2335A,117.0189,25.1181,龙岩市,龙岩师专(对照点),,,,,,,,,,,,,,,,
2023-01-06T02:00:00,2336A,117.0217,25.1033,龙岩市,龙岩市监测站,,25,25,22,16,16,86,28,26,26,20,18,9,10,0.5,0.5
2023-01-06T02:00:00,2337A,117.0258,25.0661,龙岩市,闽西职业技术学院,,24,24,28,15,16,85,1,2,2,28,19,7,9,0.5,0.5
2023-01-06T02:00:00,2338A,117.0196,25.0306,龙岩市,龙岩学院,,28,19,26,19,14,90,17,16,16,17,15,3,6,0.4,0.4
2023-01-06T02:00:00,2339A,119.5001,26.6946,宁德市,金涵水库(对照点),,,,,,,,,,,,,,,,
2023-01-06T02:00:00,2341A,119.5388,26.6612,宁德市,宁德市监测站,,30,18,41,21,27,51,11,31,21,23,26,4,4,0.5,0.7
2023-01-06T02:00:00,2342A,117.3102,29.3867,景德镇市,王港中学(对照点),,,,,,,,,,,,,,,,
2023-01-06T02:00:00,2343A,117.2117,29.2933,景德镇市,老干部活动中心,颗粒物(PM10),78,106,69,43,33,63,1,1,1,25,20,13,7,0.9,0.7
2023-01-06T02:00:00,2344A,117.1894,29.2789,景德镇市,兽医站,细颗粒物(PM2.5),82,86,48,60,36,63,4,4,4,30,18,6,6,0.9,0.7
2023-01-06T02:00:00,2345A,117.1547,29.2617,景德镇市,台达陶瓷,颗粒物(PM10),56,61,48,38,28,62,2,2,2,41,28,6,8,0.7,0.8
2023-01-06T02:00:00,2346A,117.2461,29.2956,景德镇市,陶研所,颗粒物(PM10),55,60,54,25,23,61,3,4,4,25,20,5,4,0.6,0.6
2023-01-06T02:00:00,2347A,114.0997,27.5002,萍乡市,武功山(对照点),,40,33,43,28,35,84,23,28,26,19,21,7,9,0.6,0.7
2023-01-06T02:00:00,2348A,113.8385,27.6434,萍乡市,中医院,细颗粒物(PM2.5),134,164,103,102,72,104,8,9,8,61,46,16,15,1.7,1.4
2023-01-06T02:00:00,2349A,113.8493,27.6253,萍乡市,市政府车库,细颗粒物(PM2.5),140,124,98,107,76,112,31,32,32,28,36,14,22,1.4,2
2023-01-06T02:00:00,2350A,113.8676,27.6435,萍乡市,市环保局,细颗粒物(PM2.5),120,113,81,91,61,98,27,26,26,35,32,18,21,1.0,0.9
2023-01-06T02:00:00,2351A,113.866,27.6198,萍乡市,安源区政府,细颗粒物(PM2.5),143,108,96,109,75,102,26,22,22,38,41,14,21,1.2,1.4
2023-01-06T02:00:00,2352A,115.0861,27.9317,新余市,北岗(对照点),细颗粒物(PM2.5),52,48,44,36,34,65,25,24,24,18,20,10,13,0.2,0.1
2023-01-06T02:00:00,2353A,114.9886,27.8431,新余市,飞宇,颗粒物(PM10),61,71,59,38,32,73,14,9,9,43,32,12,16,0.5,0.5
2023-01-06T02:00:00,2354A,114.9231,27.8246,新余市,第二水厂,细颗粒物(PM2.5),77,96,69,56,39,70,20,15,15,40,41,18,17,0.7,0.6
2023-01-06T02:00:00,2355A,114.9308,27.8036,新余市,市气象局,细颗粒物(PM2.5),62,64,57,44,41,66,25,24,24,40,34,17,15,0.9,0.8
2023-01-06T02:00:00,2357A,116.9822,28.1136,鹰潭市,龙虎山(对照点),,50,43,48,35,39,76,23,22,22,20,21,2,8,0.4,0.4
2023-01-06T02:00:00,2358A,117.0564,28.2642,鹰潭市,新监测站,细颗粒物(PM2.5),59,51,52,42,43,62,33,39,36,27,30,11,24,0.5,0.6
2023-01-06T02:00:00,2359A,117.0311,28.2475,鹰潭市,财苑宾馆,细颗粒物(PM2.5),62,60,56,44,42,63,26,34,30,30,26,58,31,0.6,0.5
2023-01-06T02:00:00,2360A,117.0222,28.2264,鹰潭市,体育馆,细颗粒物(PM2.5),57,41,52,40,46,65,32,33,32,30,31,19,22,0.5,0.6
2023-01-06T02:00:00,2361A,117.0017,28.2131,鹰潭市,三川水表,细颗粒物(PM2.5),64,44,59,46,52,66,26,21,21,32,34,2,17,0.4,0.4
2023-01-06T02:00:00,2362A,114.9017,25.9149,赣州市,通天岩(对照点),,49,26,25,34,25,88,63,65,64,11,9,2,3,1.0,1
