timepoint,stationcode,longitude,latitude,area,positionname,primarypollutant,aqi,pm10,pm10_24h,pm2_5,pm2_5_24h,o3,o3_24h,o3_8h,o3_8h_24h,no2,no2_24h,so2,so2_24h,co,co_24h
2023-01-06T12:00:00,1001A,116.3621,39.8784,北京市,万寿西宫,细颗粒物(PM2.5),94,122,180,70,126,38,37,16,16,56,92,5,6,0.8,1.3
2023-01-06T12:00:00,1002A,116.2202,40.2915,北京市,定陵(对照点),颗粒物(PM10),61,71,99,19,61,70,70,22,22,5,43,2,4,0.3,0.7
2023-01-06T12:00:00,1003A,116.4174,39.9289,北京市,东四,颗粒物(PM10),75,100,172,50,117,40,40,9,9,41,67,2,6,0.6,1.2
2023-01-06T12:00:00,1004A,116.4072,39.8863,北京市,天坛,颗粒物(PM10),73,95,172,51,130,41,41,10,10,42,85,3,3,0.7,1.4
2023-01-06T12:00:00,1005A,116.462,39.9365,北京市,农展馆,细颗粒物(PM2.5),99,120,172,74,119,30,30,7,7,57,89,4,5,0.7,1.1
2023-01-06T12:00:00,1006A,116.3392,39.9295,北京市,官园,细颗粒物(PM2.5),102,126,168,76,120,31,,3,3,53,80,6,8,0.8,1.2
2023-01-06T12:00:00,1007A,116.2878,39.9611,北京市,海淀万柳,颗粒物(PM10),67,84,149,38,96,39,39,9,9,37,80,4,5,0.6,1.2
2023-01-06T12:00:00,1008A,116.6636,40.135,北京市,顺义新城,细颗粒物(PM2.5),115,143,156,87,108,41,28,11,11,56,72,4,3,1.0,1.1
2023-01-06T12:00:00,1009A,116.6275,40.3275,北京市,怀柔镇,细颗粒物(PM2.5),117,142,122,88,83,44,34,22,20,49,51,4,3,0.9,0.8
2023-01-06T12:00:00,1010A,116.2296,40.217,北京市,昌平镇,颗粒物(PM10),58,65,98,18,65,64,64,15,15,11,52,1,3,0.3,0.8
2023-01-06T12:00:00,1011A,116.3966,39.9821,北京市,奥体中心,颗粒物(PM10),72,94,151,49,103,39,39,8,8,44,80,2,5,0.5,1.1
2023-01-06T12:00:00,1012A,116.184,39.9136,北京市,古城,颗粒物(PM10),59,67,155,17,90,71,71,17,17,7,77,1,4,0.4,1.3
2023-01-06T12:00:00,1015A,117.1444,39.1661,天津市,勤俭道,细颗粒物(PM2.5),388,431,331,338,259,84,19,5,5,108,92,17,16,2.3,1.8
2023-01-06T12:00:00,1017A,117.237,39.1082,天津市,大直沽八号路,,,,319,,247,79,39,12,12,87,96,20,17,2.0,1.9
2023-01-06T12:00:00,1018A,117.202,39.0927,天津市,前进道,细颗粒物(PM2.5),364,402,326,314,257,76,33,12,12,104,97,18,16,2.0,1.6
2023-01-06T12:00:00,1019A,117.1837,39.2133,天津市,淮河道,细颗粒物(PM2.5),378,404,339,328,271,76,27,10,10,105,101,17,17,2.2,1.9
2023-01-06T12:00:00,1021A,117.307,39.0877,天津市,跃进路,细颗粒物(PM2.5),326,344,319,276,257,70,39,11,11,79,91,19,17,1.8,1.7
2023-01-06T12:00:00,1023A,117.707,39.0343,天津市,第四大街,细颗粒物(PM2.5),308,326,349,258,269,66,21,7,7,,104,19,16,1.9,1.9
2023-01-06T12:00:00,1024A,117.457,38.8394,天津市,永明路,细颗粒物(PM2.5),403,420,334,354,278,65,65,20,20,93,96,65,29,2.0,1.8
2023-01-06T12:00:00,1026A,117.764,39.1587,天津市,汉北路,细颗粒物(PM2.5),340,368,292,290,224,57,23,6,6,91,92,16,14,1.7,1.4
2023-01-06T12:00:00,1027A,117.157,38.9194,天津市,团泊洼(对照点),细颗粒物(PM2.5),394,469,325,344,258,57,30,7,7,97,89,17,14,2.4,1.8
2023-01-06T12:00:00,1029A,114.4422,38.0444,石家庄市,职工医院,颗粒物(PM10),83,115,207,19,138,68,68,44,44,24,81,8,18,0.3,1.7
2023-01-06T12:00:00,1030A,114.6063,38.0266,石家庄市,高新区,,,123,221,25,146,71,71,38,38,,75,8,21,0.4,1.9
2023-01-06T12:00:00,1031A,114.4898,38.1328,石家庄市,西北水源,颗粒物(PM10),101,152,222,27,136,71,71,45,45,12,84,7,21,0.4,1.9
2023-01-06T12:00:00,1032A,114.4586,38.0058,石家庄市,西南高教,颗粒物(PM10),88,125,218,25,156,70,70,40,40,18,75,10,21,0.3,1.8
2023-01-06T12:00:00,1033A,114.5331,38.0178,石家庄市,世纪公园,颗粒物(PM10),77,104,214,28,163,62,62,18,18,11,81,11,20,0.5,2.1
2023-01-06T12:00:00,1034A,114.509,38.0457,石家庄市,人民会堂,颗粒物(PM10),75,100,199,19,166,68,68,36,36,21,75,9,20,0.7,2.1
2023-01-06T12:00:00,1035A,114.3524,37.8911,石家庄市,封龙山(对照点),颗粒物(PM10),105,159,109,36,59,103,,73,70,9,26,16,22,,0.6
2023-01-06T12:00:00,1037A,118.131,39.6363,唐山市,雷达站,细颗粒物(PM2.5),289,308,235,239,189,63,21,22,6,96,93,12,16,2.0,1.7
2023-01-06T12:00:00,1038A,118.1725,39.6334,唐山市,物资局,细颗粒物(PM2.5),227,290,243,177,164,47,15,4,4,102,102,18,21,1.8,1.8
2023-01-06T12:00:00,1040A,118.1705,39.6506,唐山市,十二中,细颗粒物(PM2.5),278,312,219,228,177,59,20,5,5,108,110,,18,,1.9
2023-01-06T12:00:00,1041A,118.1869,39.622,唐山市,小山,细颗粒物(PM2.5),272,303,241,222,185,59,17,4,4,107,108,20,21,,1.8
2023-01-06T12:00:00,1042A,119.5134,39.8207,秦皇岛市,北戴河环保局,细颗粒物(PM2.5),226,262,214,176,173,54,48,17,17,61,86,28,27,1.6,2
2023-01-06T12:00:00,1043A,119.7493,40.0116,秦皇岛市,第一关,颗粒物(PM10),153,255,200,58,150,60,45,16,16,24,87,7,19,0.7,2
2023-01-06T12:00:00,1044A,119.5897,39.9499,秦皇岛市,监测站,细颗粒物(PM2.5),231,260,196,181,162,37,34,15,15,60,75,22,25,1.7,1.9
2023-01-06T12:00:00,1046A,119.5251,39.9041,秦皇岛市,建设大厦,细颗粒物(PM2.5),182,273,191,137,128,45,45,17,17,66,91,20,25,1.7,1.9
2023-01-06T12:00:00,1048A,114.5302,36.6116,邯郸市,东污水处理厂,细颗粒物(PM2.5),129,131,271,98,217,72,37,26,26,63,81,19,26,1.6,2
2023-01-06T12:00:00,1049A,114.4918,36.5713,邯郸市,矿院,颗粒物(PM10),70,90,248,19,205,70,65,33,33,15,70,10,24,0.4,2.2
2023-01-06T12:00:00,1050A,114.484,36.6133,邯郸市,丛台公园,颗粒物(PM10),57,64,236,30,202,72,66,40,40,16,63,12,30,0.9,2.5
2023-01-06T12:00:00,1051A,115.493,38.8632,保定市,游泳馆,颗粒物(PM10),85,120,240,51,202,45,45,13,13,51,108,9,19,0.6,2.1
2023-01-06T12:00:00,1052A,115.5213,38.8959,保定市,华电二区,,,97,204,25,184,32,32,9,9,49,91,,14,1.0,2.5
2023-01-06T12:00:00,1053A,115.4713,38.9108,保定市,接待中心,颗粒物(PM10),89,128,216,23,168,45,45,10,10,34,86,7,14,0.8,2.1
2023-01-06T12:00:00,1054A,115.4612,38.8416,保定市,地表水厂,颗粒物(PM10),107,164,274,35,179,53,53,15,15,34,94,6,16,0.4,1.9
2023-01-06T12:00:00,1056A,115.5086,38.8639,保定市,监测站,颗粒物(PM10),84,117,239,30,203,32,32,8,8,43,97,9,20,0.4,1.9
2023-01-06T12:00:00,1057A,114.8883,40.8336,张家口市,人民公园,颗粒物(PM10),70,89,89,7,37,80,80,50,50,4,32,10,14,0.3,0.9
2023-01-06T12:00:00,1059A,114.8687,40.8042,张家口市,五金库,颗粒物(PM10),70,90,91,15,52,75,75,45,45,11,45,9,20,0.4,1
2023-01-06T12:00:00,1060A,114.8902,40.762,张家口市,世纪豪园,颗粒物(PM10),78,106,140,18,60,70,70,47,47,12,43,1,12,0.2,0.9
2023-01-06T12:00:00,1061A,114.8916,40.8661,张家口市,北泵房(对照点),颗粒物(PM10),74,97,96,14,52,84,84,50,50,6,29,7,23,0.6,1.1
2023-01-06T12:00:00,1062A,117.9531,40.9081,承德市,铁路,细颗粒物(PM2.5),134,209,142,102,80,35,14,10,10,63,60,34,18,2.7,1.8
2023-01-06T12:00:00,1063A,117.9392,40.9763,承德市,中国银行,"颗粒物(PM10),细颗粒物(PM2.5)",99,148,111,74,67,44,25,17,17,49,50,16,10,1.6,1.4
2023-01-06T12:00:00,1064A,117.9503,40.928,承德市,开发区,细颗粒物(PM2.5),123,172,113,93,76,32,12,8,8,64,60,31,13,2.3,1.5
2023-01-06T12:00:00,1065A,117.8051,40.9655,承德市,文化中心,颗粒物(PM10),149,248,189,111,116,16,10,4,4,53,53,39,29,2.3,2.3
2023-01-06T12:00:00,1066A,117.9268,41.0026,承德市,离宫(对照点),颗粒物(PM10),103,155,96,70,63,34,15,5,5,47,50,22,14,1.5,1.2
2023-01-06T12:00:00,1067A,116.6708,39.5111,廊坊市,药材公司,细颗粒物(PM2.5),270,322,305,220,230,53,18,9,9,122,115,16,17,1.8,1.8
2023-01-06T12:00:00,1068A,116.7214,39.5589,廊坊市,开发区,细颗粒物(PM2.5),248,267,275,198,208,55,19,8,8,120,120,16,15,1.9,2
2023-01-06T12:00:00,1070A,116.7244,39.5269,廊坊市,北华航天学院,细颗粒物(PM2.5),270,314,305,220,238,53,18,8,8,124,126,19,20,1.9,1.9
2023-01-06T12:00:00,1071A,116.8842,38.2991,沧州市,沧县城建局,细颗粒物(PM2.5),370,444,406,320,344,77,30,16,16,93,84,20,23,2.3,2.1
2023-01-06T12:00:00,1072A,116.8584,38.3254,沧州市,电视转播站,细颗粒物(PM2.5),312,311,345,262,304,86,46,24,24,79,81,16,19,1.8,1.9
2023-01-06T12:00:00,1073A,116.8709,38.3228,沧州市,市环保局,细颗粒物(PM2.5),303,312,355,253,309,78,41,18,18,85,94,18,23,1.8,1.8
2023-01-06T12:00:00,1074A,115.6838,37.7541,衡水市,电机北厂,颗粒物(PM10),104,158,319,52,246,88,58,39,26,29,63,8,18,0.7,1.6
2023-01-06T12:00:00,1075A,115.6303,37.7316,衡水市,市监测站,颗粒物(PM10),108,166,332,63,238,93,58,27,23,30,60,13,22,1.1,1.7
2023-01-06T12:00:00,1077A,114.4704,37.0886,邢台市,达活泉,颗粒物(PM10),78,105,243,45,181,74,69,69,69,17,67,3,20,0.3,2.1
2023-01-06T12:00:00,1078A,114.5062,37.0349,邢台市,邢师高专,颗粒物(PM10),63,75,206,22,172,69,59,60,60,19,73,5,17,0.2,1.7
2023-01-06T12:00:00,1079A,114.5237,37.0851,邢台市,路桥公司,颗粒物(PM10),61,72,214,21,187,65,64,48,48,19,77,4,16,0.1,1.8
2023-01-06T12:00:00,1080A,114.4725,37.0719,邢台市,市环保局,颗粒物(PM10),85,119,233,19,166,72,67,70,70,33,76,3,17,0.4,2.2
2023-01-06T12:00:00,1081A,112.522,37.8873,太原市,尖草坪,颗粒物(PM10),82,113,150,24,77,76,76,58,45,16,67,7,28,0.3,1.3
2023-01-06T12:00:00,1083A,112.434,38.0108,太原市,上兰(对照点),,,,,,,,,,,,,,,,
2023-01-06T12:00:00,1084A,112.469,37.7124,太原市,晋源,颗粒物(PM10),110,169,177,52,106,56,56,17,17,37,86,22,35,,1.9
2023-01-06T12:00:00,1085A,112.5583,37.7394,太原市,小店,颗粒物(PM10),129,207,182,44,99,56,56,27,27,33,78,16,34,0.8,1.7
2023-01-06T12:00:00,1086A,112.5369,37.8692,太原市,桃园,颗粒物(PM10),84,117,157,28,82,69,69,49,37,20,71,7,26,0.4,1.4
2023-01-06T12:00:00,1087A,112.57,37.8195,太原市,坞城,颗粒物(PM10),79,107,151,31,90,72,72,34,33,23,80,12,33,0.5,1.4
2023-01-06T12:00:00,1088A,112.549,37.9854,太原市,南寨,颗粒物(PM10),115,180,168,32,80,79,79,26,26,13,72,5,23,0.4,1.6
2023-01-06T12:00:00,1089A,112.4783,37.7778,太原市,金胜(停运211219),,,,,,,,,,,,,,,,
2023-01-06T12:00:00,1090A,111.6507,40.7517,呼和浩特市,呼市一监,颗粒物(PM10),129,207,195,64,68,51,51,41,38,19,38,19,18,0.4,0.6
2023-01-06T12:00:00,1091A,111.6572,40.8033,呼和浩特市,小召,颗粒物(PM10),109,168,192,48,63,51,,41,34,29,50,18,15,0.7,1
2023-01-06T12:00:00,1094A,111.7516,40.8369,呼和浩特市,如意水处理厂,颗粒物(PM10),110,169,181,40,66,55,55,20,20,32,64,21,27,0.8,1.1
2023-01-06T12:00:00,1095A,111.7276,40.8062,呼和浩特市,二十九中,,,,189,,67,48,,26,9,29,55,29,31,0.7,1.1
2023-01-06T12:00:00,1096A,111.5512,40.7866,呼和浩特市,工大金川校区,颗粒物(PM10),157,264,238,55,65,53,53,38,32,17,42,22,29,0.6,1
2023-01-06T12:00:00,1097A,111.717,40.7612,呼和浩特市,化肥厂生活区,颗粒物(PM10),137,224,184,59,60,48,48,38,38,28,47,30,29,0.7,0.8
2023-01-06T12:00:00,1098A,123.6836,41.9339,沈阳市,森林路(对照点),,,,,,,,,,,,,,,,
2023-01-06T12:00:00,1099A,123.505,41.7406,沈阳市,浑南东路,细颗粒物(PM2.5),145,140,127,111,93,34,7,11,11,67,60,21,26,1.5,1.8
2023-01-06T12:00:00,1100A,123.4231,41.6989,沈阳市,新秀街,细颗粒物(PM2.5),166,172,134,126,93,39,5,37,14,85,61,25,22,2.1,1.7
2023-01-06T12:00:00,1102A,123.5903,41.8411,沈阳市,东陵路,细颗粒物(PM2.5),140,110,112,107,96,26,10,11,11,63,60,26,26,2.5,2.4
2023-01-06T12:00:00,1103A,123.4264,41.8467,沈阳市,陵东街,细颗粒物(PM2.5),132,134,119,100,83,40,7,40,7,89,71,28,29,2.0,1.8
2023-01-06T12:00:00,1104A,123.4114,41.7653,沈阳市,文化路,细颗粒物(PM2.5),168,161,130,127,97,48,6,47,20,83,55,38,33,2.1,1.7
2023-01-06T12:00:00,1105A,123.4678,41.7867,沈阳市,小河沿,细颗粒物(PM2.5),134,138,122,102,84,33,8,20,9,76,67,15,22,1.9,1.9
2023-01-06T12:00:00,1106A,123.4017,41.7972,沈阳市,太原街,细颗粒物(PM2.5),172,183,156,130,105,47,5,45,12,82,63,42,31,2.2,1.8
2023-01-06T12:00:00,1108A,123.3783,41.9228,沈阳市,京沈街,细颗粒物(PM2.5),153,129,124,117,104,38,7,35,8,81,69,31,33,2.0,1.7
2023-01-06T12:00:00,1109A,121.612,38.9741,大连市,甘井子,细颗粒物(PM2.5),306,249,166,256,158,78,48,78,40,71,72,22,30,1.8,1.6
2023-01-06T12:00:00,1110A,121.565,38.9511,大连市,周水子,细颗粒物(PM2.5),270,291,188,220,133,65,48,62,33,48,62,24,32,2.1,1.8
2023-01-06T12:00:00,1111A,121.5637,38.8845,大连市,星海三站,,,,,,,,,,,,,,,,
2023-01-06T12:00:00,1112A,121.6302,38.9117,大连市,青泥洼桥,细颗粒物(PM2.5),286,297,175,236,143,96,55,87,62,56,37,18,15,1.8,1.4
2023-01-06T12:00:00,1113A,121.6251,38.8638,大连市,傅家庄,细颗粒物(PM2.5),227,197,137,177,121,98,61,91,64,36,25,15,14,2.0,1.6
2023-01-06T12:00:00,1114A,121.5213,38.8661,大连市,七贤岭,细颗粒物(PM2.5),255,239,157,205,127,82,64,71,53,42,43,15,11,1.6,1.3
2023-01-06T12:00:00,1115A,121.2529,38.8061,大连市,旅顺,细颗粒物(PM2.5),326,330,189,276,158,94,47,85,50,54,38,14,14,1.6,1.1
2023-01-06T12:00:00,1116A,121.7485,39.1311,大连市,金州,细颗粒物(PM2.5),287,331,219,237,151,69,,54,44,76,57,22,19,1.8,1.4
2023-01-06T12:00:00,1117A,121.7811,39.0496,大连市,开发区,细颗粒物(PM2.5),278,256,174,228,152,76,33,54,25,79,82,19,16,1.8,1.7
2023-01-06T12:00:00,1118A,121.9762,39.0631,大连市,双D港,细颗粒物(PM2.5),201,152,114,151,97,71,58,71,41,46,36,12,8,1.9,1.5
2023-01-06T12:00:00,1119A,125.3325,43.9166,长春市,食品厂,细颗粒物(PM2.5),152,118,110,116,105,53,18,15,15,65,67,20,27,1.7,1.6
2023-01-06T12:00:00,1120A,125.2863,43.9027,长春市,客车厂,细颗粒物(PM2.5),133,91,105,101,105,51,22,10,10,53,69,17,24,1.3,1.5
2023-01-06T12:00:00,1121A,125.2841,43.8463,长春市,邮电学院,细颗粒物(PM2.5),143,101,99,109,98,52,31,14,14,51,68,18,18,1.3,1.5
2023-01-06T12:00:00,1122A,125.3716,43.8772,长春市,劳动公园,细颗粒物(PM2.5),143,106,101,109,102,53,14,12,11,70,71,23,19,1.5,1.6
2023-01-06T12:00:00,1123A,125.3297,43.8805,长春市,园林处,细颗粒物(PM2.5),134,86,98,102,98,44,22,14,14,61,70,23,27,1.3,1.6
2023-01-06T12:00:00,1124A,125.4605,43.79,长春市,净月潭,细颗粒物(PM2.5),70,84,84,51,53,65,50,43,34,23,28,10,9,1.2,1.3
2023-01-06T12:00:00,1125A,125.7194,43.515,长春市,甩湾子(对照点),,,,,,,,,,,,,,,,
2023-01-06T12:00:00,1126A,125.3863,43.8447,长春市,经开区环卫处,,,,103,,95,54,28,11,11,,65,,15,1.3,1.8
2023-01-06T12:00:00,1127A,125.245,43.7783,长春市,高新区管委会,细颗粒物(PM2.5),128,104,118,97,129,60,44,22,22,36,58,15,13,1.3,2
2023-01-06T12:00:00,1128A,125.1761,43.8325,长春市,岱山公园,细颗粒物(PM2.5),156,106,110,119,110,65,20,14,14,64,64,20,16,1.5,1.7
2023-01-06T12:00:00,1129A,126.5422,45.755,哈尔滨市,岭北(对照点),细颗粒物(PM2.5),304,301,236,254,191,81,65,47,47,69,78,52,42,1.9,1.8
2023-01-06T12:00:00,1130A,126.561,45.8167,哈尔滨市,松北商大,细颗粒物(PM2.5),264,243,198,214,176,56,23,10,10,70,79,24,19,2.2,1.9
2023-01-06T12:00:00,1131A,126.979,45.5419,哈尔滨市,阿城会宁,细颗粒物(PM2.5),208,210,159,158,130,64,28,14,14,49,50,,23,2.4,1.6
2023-01-06T12:00:00,1132A,126.599,45.7222,哈尔滨市,南岗学府路,细颗粒物(PM2.5),289,341,225,239,211,58,25,19,19,86,80,59,34,2.2,1.5
2023-01-06T12:00:00,1133A,126.689,45.7733,哈尔滨市,太平宏伟公园,细颗粒物(PM2.5),294,300,236,244,189,56,24,20,18,78,80,26,22,1.8,1.9
2023-01-06T12:00:00,1134A,126.635,45.7667,哈尔滨市,道外承德广场,细颗粒物(PM2.5),292,324,205,242,167,46,22,18,18,93,83,29,22,2.4,1.8
2023-01-06T12:00:00,1135A,126.685,45.7319,哈尔滨市,香坊红旗大街,细颗粒物(PM2.5),402,364,236,352,230,49,28,24,24,92,85,50,48,2.9,2.1
2023-01-06T12:00:00,1136A,126.6411,45.7258,哈尔滨市,动力和平路,细颗粒物(PM2.5),324,315,206,274,185,54,23,20,20,93,82,30,29,2.7,2
2023-01-06T12:00:00,1137A,126.593,45.7478,哈尔滨市,道里建国路,细颗粒物(PM2.5),294,270,202,244,187,47,21,16,16,80,82,34,27,1.9,1.8
2023-01-06T12:00:00,1138A,126.615,45.61,哈尔滨市,平房东轻厂,细颗粒物(PM2.5),403,340,201,354,181,61,21,16,16,101,72,62,22,2.2,1.3
2023-01-06T12:00:00,1139A,126.595,45.9855,哈尔滨市,呼兰师专,细颗粒物(PM2.5),307,290,221,257,214,58,32,16,16,62,67,31,24,2.5,2.5
2023-01-06T12:00:00,1140A,126.6206,45.6842,哈尔滨市,省农科院,细颗粒物(PM2.5),406,407,232,358,198,57,18,10,10,93,84,49,33,3.3,2.4
2023-01-06T12:00:00,1141A,121.4,31.238,上海市,普陀,细颗粒物(PM2.5),160,90,62,122,45,77,77,20,20,58,74,10,6,1.0,0.8
2023-01-06T12:00:00,1142A,121.478,31.2036,上海市,十五厂,细颗粒物(PM2.5),144,86,57,110,46,72,72,19,19,61,85,15,12,1.0,0.8
2023-01-06T12:00:00,1143A,121.467,31.3008,上海市,虹口,细颗粒物(PM2.5),153,119,78,117,49,84,84,23,23,44,78,12,10,0.8,0.7
2023-01-06T12:00:00,1144A,121.412,31.1654,上海市,徐汇上师大,,,,55,,44,55,,15,15,51,76,11,8,0.8,0.9
2023-01-06T12:00:00,1145A,121.536,31.2659,上海市,杨浦四漂,,,,75,,47,62,,19,19,56,85,10,8,1.3,1.1
2023-01-06T12:00:00,1147A,121.425,31.2261,上海市,静安监测站,细颗粒物(PM2.5),155,172,78,118,48,73,73,20,20,67,86,12,9,0.9,0.7
2023-01-06T12:00:00,1148A,121.703,31.1907,上海市,浦东川沙,细颗粒物(PM2.5),180,91,61,136,48,71,71,21,21,51,72,9,7,1.0,0.7
2023-01-06T12:00:00,1149A,121.533,31.2284,上海市,浦东新区监测站,细颗粒物(PM2.5),152,165,76,116,47,66,66,19,19,59,79,10,7,1.1,0.8
2023-01-06T12:00:00,1150A,121.577,31.2071,上海市,浦东张江,,,,58,,33,63,63,18,18,58,76,9,6,0.8,1
2023-01-06T12:00:00,1151A,118.8086,32.1065,南京市,迈皋桥,细颗粒物(PM2.5),140,163,157,107,103,127,83,26,26,57,86,4,7,0.7,0.9
2023-01-06T12:00:00,1152A,118.7538,32.0551,南京市,草场门,细颗粒物(PM2.5),138,136,137,105,94,79,79,29,29,44,93,11,14,0.7,1.1
2023-01-06T12:00:00,1153A,118.7794,32.0745,南京市,山西路,细颗粒物(PM2.5),128,153,152,97,102,91,83,30,30,54,90,8,8,0.6,0.9
2023-01-06T12:00:00,1154A,118.7752,32.0023,南京市,中华门,细颗粒物(PM2.5),110,127,134,83,89,87,87,30,30,51,82,14,12,0.9,1.1
2023-01-06T12:00:00,1155A,118.8109,32.0309,南京市,瑞金路,颗粒物(PM10),128,206,177,95,98,77,77,26,26,60,92,4,7,0.7,1
2023-01-06T12:00:00,1156A,118.7997,32.0754,南京市,玄武湖,细颗粒物(PM2.5),145,163,149,111,103,103,77,26,26,43,82,10,8,0.7,0.9
2023-01-06T12:00:00,1157A,118.6414,32.0931,南京市,浦口,细颗粒物(PM2.5),128,164,132,97,90,111,105,76,45,34,51,10,9,1.1,1.1
2023-01-06T12:00:00,1158A,118.7356,31.9996,南京市,奥体中心,"颗粒物(PM10),细颗粒物(PM2.5)",110,170,155,83,95,84,84,35,35,56,89,12,10,0.7,1
2023-01-06T12:00:00,1159A,118.9125,32.1028,南京市,仙林大学城,细颗粒物(PM2.5),117,129,140,88,98,97,95,18,18,39,94,10,10,0.9,1.2
2023-01-06T12:00:00,1160A,120.561,31.2472,苏州市,上方山(对照点),细颗粒物(PM2.5),179,151,100,135,85,90,87,31,31,41,54,14,8,1.1,0.9
2023-01-06T12:00:00,1162A,120.591,31.3019,苏州市,彩香,细颗粒物(PM2.5),160,143,107,122,83,112,112,38,38,30,64,13,8,1.1,1
2023-01-06T12:00:00,1163A,120.596,31.3264,苏州市,轧钢厂,细颗粒物(PM2.5),153,161,116,117,76,110,110,37,37,,73,14,7,1.0,0.9
2023-01-06T12:00:00,1164A,120.613,31.2703,苏州市,吴中区,细颗粒物(PM2.5),166,154,107,126,79,108,108,45,45,38,66,15,10,1.0,0.9
2023-01-06T12:00:00,1165A,120.543,31.2994,苏州市,苏州新区,细颗粒物(PM2.5),168,151,104,127,80,114,114,42,42,33,56,14,9,1.0,0.9
2023-01-06T12:00:00,1166A,120.669,31.3097,苏州市,苏州工业园区,细颗粒物(PM2.5),163,155,110,124,80,119,119,40,40,33,74,13,9,1.0,0.9
2023-01-06T12:00:00,1167A,120.641,31.3708,苏州市,相城区,细颗粒物(PM2.5),159,160,119,121,84,105,105,34,34,40,72,15,10,1.0,0.9
2023-01-06T12:00:00,1168A,120.9098,31.9663,南通市,狼山街道,细颗粒物(PM2.5),173,162,66,131,53,69,69,19,16,61,39,17,9,1.1,0.6
2023-01-06T12:00:00,1169A,120.86,32.0005,南通市,虹桥,细颗粒物(PM2.5),145,181,78,111,48,66,57,36,15,89,54,21,7,1.7,0.7
2023-01-06T12:00:00,1170A,120.87,32.02,南通市,城中,细颗粒物(PM2.5),182,193,71,137,58,74,58,36,16,90,48,26,8,1.5,0.3
2023-01-06T12:00:00,1171A,120.94,31.93,南通市,星湖花园,细颗粒物(PM2.5),175,175,68,132,49,67,67,47,15,72,43,20,10,1.4,0.5
2023-01-06T12:00:00,1172A,120.81,32.0417,南通市,紫琅学院,细颗粒物(PM2.5),168,196,100,127,65,59,57,26,17,80,47,20,7,1.6,0.6
2023-01-06T12:00:00,1173A,119.176,34.5885,连云港市,市环境监测站,细颗粒物(PM2.5),250,229,143,200,117,96,72,57,34,46,52,13,14,1.2,1.1
2023-01-06T12:00:00,1177A,117.179,34.2761,徐州市,黄河新村,细颗粒物(PM2.5),269,290,200,219,150,114,70,62,62,36,69,12,14,1.6,1.5
2023-01-06T12:00:00,1178A,117.1918,34.2384,徐州市,淮塔,细颗粒物(PM2.5),262,275,200,212,149,131,87,48,48,31,81,10,10,1.6,1.4
2023-01-06T12:00:00,1180A,117.256,34.2153,徐州市,新城区,细颗粒物(PM2.5),240,254,210,190,163,118,82,33,33,30,79,13,13,1.5,1.4
2023-01-06T12:00:00,1181A,117.244,34.2911,徐州市,桃园路,细颗粒物(PM2.5),262,298,203,212,151,124,77,45,45,39,77,10,11,1.5,1.2
2023-01-06T12:00:00,1182A,117.2933,34.2778,徐州市,农科院,细颗粒物(PM2.5),255,271,189,205,146,130,83,60,47,24,55,12,14,1.4,1.2
2023-01-06T12:00:00,1186A,119.389,32.3761,扬州市,邗江监测站,细颗粒物(PM2.5),180,156,152,136,134,103,92,43,43,61,67,,9,1.1,1.2
2023-01-06T12:00:00,1188A,120.269,31.4867,无锡市,雪浪,细颗粒物(PM2.5),140,161,111,107,78,96,82,39,26,39,38,14,9,1.0,0.8
2023-01-06T12:00:00,1189A,120.275,31.6219,无锡市,黄巷,细颗粒物(PM2.5),153,182,155,117,91,90,84,25,25,49,71,17,12,1.4,1.3
2023-01-06T12:00:00,1190A,120.294,31.56,无锡市,曹张,细颗粒物(PM2.5),140,184,133,107,79,94,73,22,22,46,66,16,11,1.0,0.8
2023-01-06T12:00:00,1191A,120.242,31.5031,无锡市,漆塘,细颗粒物(PM2.5),144,156,99,110,75,112,79,36,26,37,34,14,9,1.3,1.1
2023-01-06T12:00:00,1192A,120.3489,31.5863,无锡市,东亭,,,,114,,74,97,77,27,27,70,85,18,11,1.5,1.3
2023-01-06T12:00:00,1193A,120.354,31.5475,无锡市,旺庄,细颗粒物(PM2.5),153,158,116,117,85,97,75,24,24,45,66,12,6,1.3,1.2
2023-01-06T12:00:00,1194A,120.245,31.5631,无锡市,荣巷,细颗粒物(PM2.5),163,149,109,124,90,99,79,27,27,54,61,18,12,1.3,1.2
2023-01-06T12:00:00,1195A,120.299,31.6817,无锡市,堰桥,细颗粒物(PM2.5),156,168,122,119,86,79,78,22,22,52,71,19,10,1.3,1.4
2023-01-06T12:00:00,1196A,119.9633,31.762,常州市,市监测站,细颗粒物(PM2.5),162,186,148,123,105,93,13,5,5,46,65,5,6,1.1,1
2023-01-06T12:00:00,1200A,119.9468,31.7069,常州市,武进监测站,细颗粒物(PM2.5),178,182,124,134,91,107,74,22,22,55,68,12,6,1.2,0.9
2023-01-06T12:00:00,1201A,119.9255,31.9087,常州市,安家,细颗粒物(PM2.5),169,176,170,128,122,90,90,29,29,43,81,15,11,1.1,1.3
2023-01-06T12:00:00,1203A,119.6707,32.1875,镇江市,新区办事处,细颗粒物(PM2.5),203,189,184,153,140,93,81,24,24,54,87,13,12,,1.2
2023-01-06T12:00:00,1204A,119.4974,32.1968,镇江市,职教中心,细颗粒物(PM2.5),145,151,163,111,132,105,105,25,25,40,80,8,7,0.9,0.9
2023-01-06T12:00:00,1205A,119.4303,32.1328,镇江市,丹徒区监测站,细颗粒物(PM2.5),179,184,159,135,126,115,91,36,36,51,79,9,8,0.9,1
2023-01-06T12:00:00,1206A,119.905,32.4878,泰州市,公园路,细颗粒物(PM2.5),178,158,107,134,92,97,88,29,29,57,48,12,6,1.2,1.2
2023-01-06T12:00:00,1207A,119.9189,32.4625,泰州市,莲花,,,,109,,101,100,,26,26,67,52,17,10,1.1,1
2023-01-06T12:00:00,1209A,119.888,32.4639,泰州市,留学生创业园,细颗粒物(PM2.5),165,165,138,125,93,98,82,28,28,66,51,16,9,0.9,0.9
2023-01-06T12:00:00,1210A,119.036,33.5981,淮安市,钵池山,细颗粒物(PM2.5),234,197,131,184,125,114,83,50,50,39,57,18,11,1.8,1.2
2023-01-06T12:00:00,1211A,119.007,33.575,淮安市,北京南路,细颗粒物(PM2.5),239,229,157,189,124,110,66,29,29,48,60,22,10,3.0,1.4
2023-01-06T12:00:00,1212A,118.989,33.6067,淮安市,市监测站,细颗粒物(PM2.5),233,217,150,183,126,114,89,48,48,36,58,10,8,1.2,1.2
2023-01-06T12:00:00,1213A,119.135,33.5039,淮安市,楚州区监测站,,,,130,,105,113,,5,5,30,55,14,9,1.1,1.2
2023-01-06T12:00:00,1214A,119.0186,33.6297,淮安市,淮阴区监测站,细颗粒物(PM2.5),274,211,158,224,147,111,87,52,52,36,61,12,11,1.1,1.1
2023-01-06T12:00:00,1215A,120.118,33.4022,盐城市,盐城电厂,细颗粒物(PM2.5),115,114,62,87,40,106,84,30,30,32,37,10,7,0.9,0.7
2023-01-06T12:00:00,1216A,120.156,33.3942,盐城市,市监测站,颗粒物(PM10),84,118,62,60,38,97,75,31,31,31,37,6,3,0.7,0.6
2023-01-06T12:00:00,1218A,120.2144,33.38,盐城市,开发区管委会,细颗粒物(PM2.5),140,135,69,107,48,102,79,31,31,38,35,8,6,0.8,0.7
2023-01-06T12:00:00,1220A,118.293,33.9528,宿迁市,宿迁学院,细颗粒物(PM2.5),298,295,186,248,142,105,87,62,62,29,66,10,8,1.1,1
2023-01-06T12:00:00,1221A,118.2442,33.9592,宿迁市,宿迁中学,细颗粒物(PM2.5),280,290,200,230,143,94,84,60,60,32,61,10,9,1.2,1.2
2023-01-06T12:00:00,1223A,120.2072,30.2111,杭州市,滨江,"颗粒物(PM10),细颗粒物(PM2.5)",68,86,86,49,49,49,45,17,17,41,69,9,7,0.8,0.9
2023-01-06T12:00:00,1224A,120.0633,30.2747,杭州市,西溪,细颗粒物(PM2.5),77,84,81,56,54,60,60,15,15,37,39,10,8,0.6,0.7
2023-01-06T12:00:00,1226A,120.3461,30.3153,杭州市,下沙,细颗粒物(PM2.5),95,104,141,71,91,65,65,19,19,34,79,8,7,0.7,0.8
2023-01-06T12:00:00,1227A,120.1269,30.2456,杭州市,卧龙桥,细颗粒物(PM2.5),74,73,66,54,49,60,56,21,21,34,39,10,8,0.7,0.7
2023-01-06T12:00:00,1228A,120.1903,30.2692,杭州市,浙江农大,细颗粒物(PM2.5),95,81,106,71,71,61,61,20,20,27,63,10,8,0.7,0.9
2023-01-06T12:00:00,1230A,120.1197,30.3119,杭州市,和睦小学,细颗粒物(PM2.5),79,83,121,58,78,62,62,16,16,29,68,6,6,0.6,0.8
2023-01-06T12:00:00,1231A,120.3019,30.4183,杭州市,临平镇,,,93,122,60,76,64,64,26,26,32,65,,9,,0.8
2023-01-06T12:00:00,1232A,120.2697,30.1819,杭州市,城厢镇,细颗粒物(PM2.5),78,83,88,57,56,57,52,14,14,36,66,7,7,0.9,1
2023-01-06T12:00:00,1233A,120.0883,30.1808,杭州市,云栖,,,81,65,50,39,44,44,18,18,,49,9,9,1.0,0.8
2023-01-06T12:00:00,1234A,121.8358,29.911,宁波市,区环保大楼,细颗粒物(PM2.5),122,117,65,92,45,54,,13,13,50,68,16,11,0.8,0.8
2023-01-06T12:00:00,1235A,121.56,29.82,宁波市,万里学院,颗粒物(PM10),76,102,80,54,44,86,86,30,30,35,74,11,9,0.5,0.5
2023-01-06T12:00:00,1236A,121.713,29.9572,宁波市,龙赛医院,,,91,91,59,50,68,,19,19,31,71,12,13,0.6,0.7
2023-01-06T12:00:00,1239A,121.633,29.7733,宁波市,钱湖水厂,细颗粒物(PM2.5),87,81,51,64,40,88,88,28,28,32,44,9,6,0.7,0.6
2023-01-06T12:00:00,1240A,121.5856,29.8635,宁波市,太古小学,细颗粒物(PM2.5),107,118,93,80,59,81,81,32,32,34,68,13,10,0.7,0.7
2023-01-06T12:00:00,1241A,121.524,29.8674,宁波市,市环境监测中心,颗粒物(PM10),68,86,72,43,36,80,80,25,25,30,64,10,8,0.6,0.6
2023-01-06T12:00:00,1242A,120.634,28.0089,温州市,瓯海,,49,49,84,27,42,63,63,17,17,16,45,8,8,0.3,0.7
2023-01-06T12:00:00,1243A,120.6748,27.9939,温州市,南浦,,45,45,67,22,34,70,67,20,20,15,49,6,6,0.2,0.5
2023-01-06T12:00:00,1244A,120.76,27.9747,温州市,龙湾,,44,44,70,22,31,64,64,20,20,22,59,6,7,0.3,0.5
2023-01-06T12:00:00,1245A,120.6709,28.0167,温州市,市站,,,49,66,22,30,71,65,21,21,,50,6,6,0.5,0.7
2023-01-06T12:00:00,1247A,120.6053,29.9928,绍兴市,城东开发委,细颗粒物(PM2.5),98,104,102,73,62,63,63,18,18,41,62,5,5,0.6,0.9
2023-01-06T12:00:00,1250A,120.0751,30.8669,湖州市,城西水厂,细颗粒物(PM2.5),137,97,80,104,81,85,85,29,29,55,76,13,8,0.7,0.7
2023-01-06T12:00:00,1252A,120.7436,30.778,嘉兴市,清河小学,细颗粒物(PM2.5),139,138,102,106,72,92,92,39,34,30,54,15,7,0.9,0.7
2023-01-06T12:00:00,1253A,120.726,30.7478,嘉兴市,嘉兴学院,细颗粒物(PM2.5),143,138,95,109,72,94,94,38,38,34,59,17,10,1.1,0.9
2023-01-06T12:00:00,1255A,121.273,28.6459,台州市,黄岩环保大楼,细颗粒物(PM2.5),52,50,33,36,17,88,64,42,36,16,25,8,7,0.4,0.4
2023-01-06T12:00:00,1256A,121.419,28.6542,台州市,台州环保大楼,,,50,39,29,20,89,71,30,30,12,29,,8,0.5,0.5
2023-01-06T12:00:00,1257A,121.377,28.5773,台州市,路桥田洋王,细颗粒物(PM2.5),52,48,48,36,31,87,69,27,27,14,40,6,7,0.4,0.5
2023-01-06T12:00:00,1258A,122.122,30.0203,舟山市,定海檀枫,细颗粒物(PM2.5),134,128,49,102,32,109,109,42,42,34,36,7,4,0.7,0.6
2023-01-06T12:00:00,1259A,122.3094,29.9558,舟山市,普陀东港,细颗粒物(PM2.5),94,96,41,70,28,98,98,72,54,22,20,7,5,0.7,0.5
2023-01-06T12:00:00,1260A,122.19,29.9944,舟山市,临城新区,细颗粒物(PM2.5),110,118,45,83,30,122,122,47,47,31,35,7,4,0.5,0.3
2023-01-06T12:00:00,1262A,119.647,29.077,金华市,十五中,细颗粒物(PM2.5),87,96,90,64,61,58,42,11,11,34,55,11,10,0.7,0.9
2023-01-06T12:00:00,1263A,119.686,29.1029,金华市,监测站,细颗粒物(PM2.5),92,77,72,68,58,59,46,10,10,32,57,10,7,0.8,0.8
2023-01-06T12:00:00,1264A,118.8692,28.9398,衢州市,环保大楼,细颗粒物(PM2.5),75,66,72,55,51,59,51,17,17,25,45,14,8,0.8,0.8
2023-01-06T12:00:00,1265A,118.8709,28.9666,衢州市,实验学校,细颗粒物(PM2.5),78,82,70,57,49,61,46,14,14,16,36,19,13,0.7,0.7
2023-01-06T12:00:00,1266A,118.8621,28.9808,衢州市,衢州学院,细颗粒物(PM2.5),73,72,67,53,44,65,43,15,15,22,36,18,8,0.7,0.6
2023-01-06T12:00:00,1267A,119.914,28.4514,丽水市,监测站大楼,,,,38,43,24,78,62,25,16,12,25,9,9,,0.5
2023-01-06T12:00:00,1268A,119.93,28.4586,丽水市,莲都小学,细颗粒物(PM2.5),60,64,41,43,22,90,70,19,19,14,26,8,8,0.5,0.4
2023-01-06T12:00:00,1269A,119.879,28.4231,丽水市,余庄前,颗粒物(PM10),53,56,37,30,22,79,56,16,16,24,27,8,7,0.4,0.3
2023-01-06T12:00:00,1270A,117.1959,31.7848,合肥市,明珠广场,,,115,173,68,106,54,54,20,20,,74,7,7,,1
2023-01-06T12:00:00,1271A,117.3072,31.8764,合肥市,三里街,细颗粒物(PM2.5),153,161,163,117,124,61,56,14,14,52,86,,10,,1.3
2023-01-06T12:00:00,1272A,117.2588,31.8707,合肥市,琥珀山庄,细颗粒物(PM2.5),118,135,160,89,108,52,52,19,19,42,77,10,9,0.7,1
2023-01-06T12:00:00,1273A,117.1604,31.9052,合肥市,董铺水库(对照点),细颗粒物(PM2.5),104,126,158,78,106,92,80,37,37,19,54,4,4,0.6,0.7
2023-01-06T12:00:00,1274A,117.25,31.8571,合肥市,长江中路,细颗粒物(PM2.5),132,134,154,100,114,62,62,24,24,40,72,10,12,0.7,0.9
2023-01-06T12:00:00,1275A,117.266,31.9436,合肥市,庐阳区,细颗粒物(PM2.5),132,158,160,100,104,88,73,26,26,28,63,9,9,0.7,0.8
2023-01-06T12:00:00,1276A,117.336,31.8586,合肥市,瑶海区,细颗粒物(PM2.5),143,166,175,109,120,65,58,19,19,53,92,9,10,0.8,1
2023-01-06T12:00:00,1277A,117.3027,31.7964,合肥市,包河区,细颗粒物(PM2.5),108,123,172,81,121,62,62,20,20,45,83,7,12,0.6,0.9
2023-01-06T12:00:00,1278A,117.2776,31.7385,合肥市,滨湖新区,细颗粒物(PM2.5),89,106,182,66,113,56,56,18,18,52,100,6,10,0.5,0.7
2023-01-06T12:00:00,1279A,117.1318,31.8403,合肥市,高新区,细颗粒物(PM2.5),98,103,154,73,111,74,74,35,35,31,68,8,9,0.6,0.8
2023-01-06T12:00:00,1280A,119.3903,26.0543,福州市,鼓山(对照点),,,,,,,,,,,,,,,,
2023-01-06T12:00:00,1282A,119.2681,26.0504,福州市,师大,,33,30,32,23,16,78,67,35,35,10,20,4,4,0.5,0.5
2023-01-06T12:00:00,1283A,119.2984,26.1028,福州市,五四北路,,36,30,30,25,15,79,67,33,33,10,22,3,3,0.5,0.6
2023-01-06T12:00:00,1284A,119.2648,26.0768,福州市,杨桥西路,,34,34,34,18,18,78,67,34,34,7,20,3,3,0.6,0.5
2023-01-06T12:00:00,1285A,119.317,26.0746,福州市,紫阳,,34,34,32,19,15,77,68,31,31,9,21,3,4,0.4,0.5
2023-01-06T12:00:00,1286A,118.1608,24.8169,厦门市,溪东(对照点),,,,,,,,,,,,,,,,
2023-01-06T12:00:00,1287A,118.1514,24.4767,厦门市,洪文,,25,22,30,10,17,93,77,57,45,16,26,1,2,0.5,0.5
2023-01-06T12:00:00,1288A,118.0661,24.4444,厦门市,鼓浪屿,,50,50,37,32,21,94,58,63,22,38,35,6,4,0.6,0.5
2023-01-06T12:00:00,1290A,115.8931,28.6843,南昌市,省外办,细颗粒物(PM2.5),84,96,76,62,52,68,56,38,30,39,41,10,10,0.8,0.7
2023-01-06T12:00:00,1291A,115.8886,28.7003,南昌市,省林业公司,细颗粒物(PM2.5),73,85,71,53,53,64,47,28,26,41,48,8,8,1.0,0.9
2023-01-06T12:00:00,1292A,115.8126,28.7442,南昌市,林科所,细颗粒物(PM2.5),85,92,63,63,49,68,55,55,33,32,29,10,8,0.7,0.6
2023-01-06T12:00:00,1294A,115.8518,28.687,南昌市,建工学校,细颗粒物(PM2.5),82,84,65,60,42,64,40,55,30,38,32,10,8,0.9,0.8
2023-01-06T12:00:00,1295A,115.8921,28.6424,南昌市,象湖,细颗粒物(PM2.5),99,84,61,74,55,65,36,45,25,41,37,10,8,0.9,0.8
2023-01-06T12:00:00,1296A,115.7423,28.7996,南昌市,武术学校(对照点),细颗粒物(PM2.5),57,40,34,40,32,78,71,29,29,7,9,7,5,0.5,0.6
2023-01-06T12:00:00,1298A,115.9314,28.6842,南昌市,省站,细颗粒物(PM2.5),88,100,81,65,56,70,53,37,33,29,31,11,10,0.9,0.8
2023-01-06T12:00:00,1299A,116.9862,36.6114,济南市,科干所,细颗粒物(PM2.5),168,227,236,127,172,126,71,125,81,43,53,14,16,0.9,1
2023-01-06T12:00:00,1300A,116.9376,36.665,济南市,农科所,细颗粒物(PM2.5),196,242,261,147,182,107,62,100,62,54,82,17,18,1.2,1.4
2023-01-06T12:00:00,1301A,117.1265,36.6734,济南市,开发区,细颗粒物(PM2.5),139,215,243,106,174,132,68,128,80,35,73,15,17,1.1,1.6
2023-01-06T12:00:00,1303A,117.0624,36.6868,济南市,省种子仓库,细颗粒物(PM2.5),168,222,269,127,197,128,70,126,79,44,75,16,22,1.3,1.6
2023-01-06T12:00:00,1304A,116.9489,36.6447,济南市,机床二厂,细颗粒物(PM2.5),192,256,282,144,208,113,72,111,66,37,70,19,30,1.3,1.6
2023-01-06T12:00:00,1305A,117.0495,36.663,济南市,市监测站,,,,251,,183,134,70,134,80,50,78,13,17,1.1,1.4
2023-01-06T12:00:00,1306A,116.7675,36.5484,济南市,长清党校,细颗粒物(PM2.5),216,259,282,166,216,108,74,101,71,49,63,17,16,1.6,1.6
2023-01-06T12:00:00,1307A,120.6659,36.2403,青岛市,仰口(对照点),细颗粒物(PM2.5),170,178,129,129,103,126,111,126,109,63,39,9,7,1.1,0.8
2023-01-06T12:00:00,1310A,120.4134,36.0658,青岛市,市南区东部子站,细颗粒物(PM2.5),188,183,147,141,108,88,88,80,53,53,42,18,12,1.3,1.4
2023-01-06T12:00:00,1311A,120.3664,36.1032,青岛市,四方区子站,细颗粒物(PM2.5),199,200,170,149,133,73,72,70,40,54,49,19,15,1.3,1.6
2023-01-06T12:00:00,1312A,120.2994,36.054,青岛市,市南区西部子站,细颗粒物(PM2.5),165,175,151,125,115,98,98,86,48,57,64,17,15,1.1,1.5
2023-01-06T12:00:00,1313A,120.4581,36.0858,青岛市,崂山区子站,细颗粒物(PM2.5),180,200,150,136,106,97,97,69,56,60,52,16,10,1.3,1.3
2023-01-06T12:00:00,1314A,120.1983,35.9608,青岛市,黄岛区子站,细颗粒物(PM2.5),209,197,170,159,135,88,88,80,56,52,51,14,13,1.2,1.4
2023-01-06T12:00:00,1315A,120.3999,36.3083,青岛市,城阳区子站,细颗粒物(PM2.5),138,183,188,105,113,77,71,63,46,73,83,14,14,1.3,1.7
2023-01-06T12:00:00,1316A,113.69031,34.76122,郑州市,烟厂,颗粒物(PM10),140,229,299,96,247,82,70,66,66,32,76,12,13,0.7,1.4
2023-01-06T12:00:00,1317A,113.65724,34.77134,郑州市,郑纺机,颗粒物(PM10),135,220,303,92,245,85,78,69,69,28,80,17,18,1.2,2
2023-01-06T12:00:00,1318A,113.67526,34.80246,郑州市,银行学校,细颗粒物(PM2.5),133,207,303,101,247,92,,75,75,28,82,14,17,1.3,2.2
2023-01-06T12:00:00,1319A,113.56746,34.81334,郑州市,供水公司,颗粒物(PM10),119,187,245,72,214,94,77,71,71,23,71,10,14,0.6,1.6
2023-01-06T12:00:00,1320A,113.7329,34.7178,郑州市,经开区管委,颗粒物(PM10),127,204,306,93,243,86,78,72,72,26,66,14,16,1.1,1.8
2023-01-06T12:00:00,1321A,113.73961,34.77172,郑州市,四十七中,细颗粒物(PM2.5),139,211,307,106,262,81,73,69,69,24,62,12,14,1.2,1.9
2023-01-06T12:00:00,1322A,113.60532,34.74838,郑州市,市监测站,颗粒物(PM10),136,221,330,81,251,89,72,68,67,23,60,10,14,0.7,1.5
2023-01-06T12:00:00,1323A,113.64164,34.7525,郑州市,河医大,,,,317,,260,84,72,66,66,,71,,12,0.8,1.6
2023-01-06T12:00:00,1324A,113.51488,34.91089,郑州市,岗李水库(对照点),,,,,,,,,,,,,,,,
2023-01-06T12:00:00,1325A,114.3677,30.5584,武汉市,东湖梨园,颗粒物(PM10),110,170,130,,109,65,65,23,23,58,70,12,10,1.2,1.4
2023-01-06T12:00:00,1326A,114.2529,30.558,武汉市,汉阳月湖,细颗粒物(PM2.5),233,194,146,183,129,71,71,22,22,41,69,9,8,1.1,1.3
2023-01-06T12:00:00,1327A,114.282,30.6189,武汉市,汉口花桥,细颗粒物(PM2.5),178,188,146,134,121,66,66,23,23,46,63,11,11,1.1,1.3
2023-01-06T12:00:00,1328A,114.3025,30.5332,武汉市,武昌紫阳,细颗粒物(PM2.5),235,203,143,185,133,72,72,22,22,49,75,13,11,1.2,1.3
2023-01-06T12:00:00,1329A,114.3646,30.6217,武汉市,青山钢花,细颗粒物(PM2.5),195,181,151,146,124,80,80,26,26,47,79,13,11,1.4,1.4
2023-01-06T12:00:00,1330A,114.1566,30.4825,武汉市,沌口新区,细颗粒物(PM2.5),205,208,132,155,125,76,76,20,20,51,84,13,11,0.9,1
2023-01-06T12:00:00,1331A,114.3014,30.5944,武汉市,汉口江滩,细颗粒物(PM2.5),202,181,140,152,122,59,,22,22,40,67,,11,1.3,1.4
2023-01-06T12:00:00,1333A,114.135,30.6319,武汉市,吴家山,细颗粒物(PM2.5),232,214,157,182,129,78,78,24,24,47,77,11,10,1.2,1.2
2023-01-06T12:00:00,1334A,113.8454,30.2917,武汉市,沉湖七壕(对照点),细颗粒物(PM2.5),148,204,121,113,83,100,100,35,35,23,44,41,11,1.1,1.3
2023-01-06T12:00:00,1335A,113.0833,28.2325,长沙市,经开区环保局,细颗粒物(PM2.5),257,238,215,207,199,109,80,48,37,35,35,23,11,1.2,1.1
2023-01-06T12:00:00,1336A,112.8872,28.2189,长沙市,高开区环保局,细颗粒物(PM2.5),222,185,200,172,190,116,96,59,44,23,26,13,12,1.0,1.1
2023-01-06T12:00:00,1337A,113.0792,28.2053,长沙市,马坡岭,细颗粒物(PM2.5),230,260,210,180,199,112,88,44,36,27,32,25,13,0.9,0.9
2023-01-06T12:00:00,1338A,112.9394,28.19,长沙市,湖南师范大学,细颗粒物(PM2.5),251,212,212,201,204,105,86,54,45,30,26,16,11,0.9,0.9
2023-01-06T12:00:00,1339A,113.0178,28.1322,长沙市,雨花区环保局,细颗粒物(PM2.5),217,210,186,167,173,110,92,55,47,26,30,14,7,0.7,0.8
2023-01-06T12:00:00,1340A,112.9792,28.2597,长沙市,伍家岭,细颗粒物(PM2.5),242,280,239,192,197,110,95,59,42,28,27,20,13,1.1,1.1
2023-01-06T12:00:00,1341A,113.0014,28.1944,长沙市,火车新站,细颗粒物(PM2.5),260,227,203,210,189,115,90,64,58,36,30,18,13,1.1,1
2023-01-06T12:00:00,1342A,112.9844,28.1178,长沙市,天心区环保局,细颗粒物(PM2.5),272,246,196,222,175,123,94,62,50,37,34,19,11,0.8,0.8
2023-01-06T12:00:00,1343A,112.8908,28.1308,长沙市,湖南中医药大学,细颗粒物(PM2.5),266,251,211,216,202,115,83,57,42,29,26,12,10,1.1,1
2023-01-06T12:00:00,1344A,112.9581,28.3611,长沙市,沙坪(对照点),细颗粒物(PM2.5),225,236,215,175,190,107,93,45,35,22,22,19,10,0.8,0.9
2023-01-06T12:00:00,1345A,113.2347,23.1423,广州市,广雅中学,颗粒物(PM10),53,56,61,29,33,90,53,31,31,29,54,6,6,1.2,1.3
2023-01-06T12:00:00,1346A,113.2612,23.105,广州市,市五中,,45,45,56,31,38,124,83,43,43,13,50,6,6,0.8,1
2023-01-06T12:00:00,1348A,113.3478,23.0916,广州市,广东商学院,,38,38,42,25,27,116,73,54,54,20,38,6,7,0.7,0.8
2023-01-06T12:00:00,1349A,113.4332,23.1047,广州市,市八十六中,,43,43,55,30,32,97,56,33,33,20,45,4,4,0.6,0.6
2023-01-06T12:00:00,1350A,113.3505,22.9483,广州市,番禺中学,,43,43,55,26,36,115,73,49,49,21,55,10,9,0.8,1
2023-01-06T12:00:00,1351A,113.2146,23.3916,广州市,花都师范,,46,43,40,32,28,106,82,62,62,15,24,10,9,0.7,0.7
2023-01-06T12:00:00,1352A,113.2597,23.1331,广州市,市监测站,,47,47,62,29,34,113,74,32,32,15,57,6,7,0.8,0.9
2023-01-06T12:00:00,1353A,113.5618,23.312,广州市,九龙镇镇龙,,,,41,,28,99,66,49,49,16,31,,5,0.7,0.8
2023-01-06T12:00:00,1354A,113.2765,23.1544,广州市,麓湖,,41,41,45,26,28,118,78,33,33,14,43,4,4,0.7,0.8
2023-01-06T12:00:00,1355A,113.443,23.3035,广州市,帽峰山森林公园(对照点),,,,33,,26,90,,63,59,,14,,5,,0.6
2023-01-06T12:00:00,1356A,114.1063,22.5545,深圳市,通心岭子站,,24,24,44,14,28,123,71,55,36,17,33,3,3,0.5,0.6
2023-01-06T12:00:00,1357A,114.117,22.5625,深圳市,洪湖,,35,35,53,20,31,135,80,50,43,19,43,8,7,0.6,0.7
2023-01-06T12:00:00,1358A,113.987,22.5417,深圳市,华侨城,,33,33,60,21,40,150,78,48,32,33,58,5,5,0.8,1
2023-01-06T12:00:00,1359A,113.9181,22.5171,深圳市,南海子站,,30,30,74,14,44,108,77,52,26,20,69,5,5,0.6,0.8
2023-01-06T12:00:00,1360A,114.2458,22.5689,深圳市,盐田,,,,33,,23,97,,40,40,12,49,6,6,0.5,0.6
2023-01-06T12:00:00,1361A,114.2283,22.7244,深圳市,龙岗,,32,32,50,15,28,105,86,53,53,6,34,4,4,0.7,0.9
2023-01-06T12:00:00,1363A,114.494,22.5422,深圳市,南澳,,29,23,28,14,17,140,91,58,58,14,14,6,5,0.6,0.6
2023-01-06T12:00:00,1364A,114.41,22.6342,深圳市,葵涌,,30,25,37,21,28,114,78,56,56,10,19,9,9,0.7,0.8
2023-01-06T12:00:00,1365A,114.297,22.5978,深圳市,梅沙,,28,26,33,17,21,135,88,69,69,8,17,7,7,0.7,0.6
2023-01-06T12:00:00,1366A,114.0678,22.738,深圳市,观澜,,49,49,106,25,50,105,72,26,26,36,62,7,8,0.5,0.7
2023-01-06T12:00:00,1367A,113.5814,22.2618,珠海市,吉大,颗粒物(PM10),52,53,72,23,40,182,86,60,39,29,39,8,8,0.4,0.5
2023-01-06T12:00:00,1368A,113.4881,22.2335,珠海市,前山,,39,39,84,21,34,159,76,35,27,34,60,4,4,0.6,0.7
2023-01-06T12:00:00,1369A,113.628,22.4251,珠海市,唐家,,49,49,67,28,44,180,82,30,30,28,46,9,9,0.4,0.6
2023-01-06T12:00:00,1370A,113.299,22.2281,珠海市,斗门,,35,35,70,22,50,116,74,29,27,27,58,4,5,0.4,0.7
2023-01-06T12:00:00,1371A,113.1294,23.0067,佛山市,湾梁,颗粒物(PM10),52,53,58,27,31,144,71,52,52,22,43,8,9,0.7,0.8
2023-01-06T12:00:00,1372A,113.1083,23.0478,佛山市,华材职中,,50,48,62,35,37,140,72,35,35,22,55,12,12,0.5,0.7
2023-01-06T12:00:00,1373A,113.144,23.0453,佛山市,南海气象局,,48,48,52,30,34,120,58,42,42,28,50,8,7,0.6,0.7
2023-01-06T12:00:00,1374A,113.2881,22.8094,佛山市,顺德苏岗,,,29,47,19,30,98,63,25,25,,41,8,7,0.7,0.8
2023-01-06T12:00:00,1376A,112.8383,22.8678,佛山市,高明孔堂,颗粒物(PM10),56,62,55,39,34,115,74,52,52,18,26,6,5,0.6,0.6
2023-01-06T12:00:00,1377A,112.8836,23.1588,佛山市,三水监测站,细颗粒物(PM2.5),60,58,58,43,38,110,75,47,47,19,41,8,8,0.7,0.8
2023-01-06T12:00:00,1378A,112.867,23.185,佛山市,三水云东海,细颗粒物(PM2.5),67,44,49,48,39,111,78,35,35,18,39,9,6,0.7,0.7
2023-01-06T12:00:00,1379A,113.3769,22.5211,中山市,华柏园,,44,44,66,30,48,89,65,28,28,31,63,7,8,0.5,0.9
2023-01-06T12:00:00,1380A,113.3881,22.5497,中山市,张溪,,47,47,70,30,47,93,66,32,32,27,66,6,5,0.6,0.9
2023-01-06T12:00:00,1381A,113.4075,22.5111,中山市,紫马岭,颗粒物(PM10),51,52,59,26,39,104,76,30,30,22,53,6,5,0.5,0.7
2023-01-06T12:00:00,1382A,113.4411,22.4853,中山市,长江旅游区(对照点),,,,,,,,,,,,,,,,
2023-01-06T12:00:00,1383A,113.1064,22.6058,江门市,北街,颗粒物(PM10),55,60,52,26,31,128,74,44,44,34,47,11,10,0.7,0.8
2023-01-06T12:00:00,1384A,113.0731,22.5835,江门市,西区,颗粒物(PM10),57,63,61,31,33,128,76,44,44,29,51,9,8,0.6,0.7
2023-01-06T12:00:00,1385A,113.0219,22.5311,江门市,圭峰西,,,,62,32,40,141,85,62,62,28,41,7,6,0.8,0.9
2023-01-06T12:00:00,1386A,113.0828,22.5947,江门市,东湖,颗粒物(PM10),59,68,57,25,32,131,78,48,48,28,42,8,8,0.7,0.8
2023-01-06T12:00:00,1389A,113.7547,23.0494,东莞市,莞城梨川,,28,28,43,19,29,109,76,50,50,13,38,8,8,0.6,0.7
2023-01-06T12:00:00,1390A,113.7944,23.0128,东莞市,东城石井,,33,31,41,23,28,120,78,36,36,16,28,10,9,0.6,0.7
2023-01-06T12:00:00,1391A,113.7383,22.9658,东莞市,南城西平,,36,36,50,16,31,113,80,34,34,19,50,10,11,0.6,0.8
2023-01-06T12:00:00,1392A,114.4183,23.0528,惠州市,河南岸金山湖子站,,36,36,50,23,32,88,76,56,56,10,26,6,6,0.5,0.6
2023-01-06T12:00:00,1393A,114.4053,23.0822,惠州市,下埔横江三路子站,,41,41,47,21,32,100,85,63,63,12,30,7,8,0.6,0.7
2023-01-06T12:00:00,1394A,114.4103,23.1142,惠州市,江北云山西路子站,,,,42,,31,104,86,65,65,,24,4,5,,0.8
2023-01-06T12:00:00,1395A,114.4645,22.7833,惠州市,惠阳区承修路船湖子站,,38,38,55,26,34,79,67,48,40,10,19,5,4,0.4,0.4
2023-01-06T12:00:00,1396A,114.5317,22.7422,惠州市,大亚湾管委会子站,,37,37,53,22,32,114,74,49,49,14,31,4,4,0.8,0.8
2023-01-06T12:00:00,1397A,112.4267,23.0706,肇庆市,睦岗子站,细颗粒物(PM2.5),54,48,42,38,29,95,68,44,44,26,39,9,8,0.6,0.7
2023-01-06T12:00:00,1398A,112.4645,23.0475,肇庆市,城中子站,,48,48,42,33,30,107,79,41,41,11,37,9,8,0.6,0.7
2023-01-06T12:00:00,1399A,112.5544,23.1522,肇庆市,坑口子站,,,49,34,38,25,106,74,33,33,,29,11,9,0.4,0.3
2023-01-06T12:00:00,1400A,112.4753,23.1,肇庆市,七星岩子站(对照点),,48,46,32,33,20,103,74,56,41,13,17,4,2,0.8,0.7
2023-01-06T12:00:00,1401A,108.3103,22.7881,南宁市,二十一中,细颗粒物(PM2.5),60,62,64,43,47,67,67,48,48,17,26,6,6,0.8,1
2023-01-06T12:00:00,1402A,108.3141,22.8528,南宁市,北湖,细颗粒物(PM2.5),64,64,69,46,49,71,71,44,44,12,24,9,9,0.9,1
2023-01-06T12:00:00,1403A,108.3206,22.8225,南宁市,市监测站,细颗粒物(PM2.5),72,76,68,52,53,60,60,39,39,34,40,12,12,0.9,1
2023-01-06T12:00:00,1404A,108.3829,22.8037,南宁市,大自然花园,细颗粒物(PM2.5),60,59,62,43,51,75,66,43,43,14,26,6,8,0.8,1
2023-01-06T12:00:00,1405A,108.4394,22.7904,南宁市,仙葫(对照点),细颗粒物(PM2.5),59,62,64,42,48,82,63,37,37,15,26,8,8,0.7,1.2
2023-01-06T12:00:00,1406A,108.2397,22.8467,南宁市,区农职院,细颗粒物(PM2.5),55,57,64,39,43,72,72,53,53,19,32,7,7,0.8,0.9
2023-01-06T12:00:00,1407A,108.3275,22.735,南宁市,英华嘉园,细颗粒物(PM2.5),58,59,65,41,52,73,60,38,38,18,31,7,7,0.8,1.1
2023-01-06T12:00:00,1408A,108.2257,22.7757,南宁市,沙井镇街道办,,,60,80,44,52,50,,32,32,,43,6,7,0.8,1
2023-01-06T12:00:00,1409A,110.576,19.9507,海口市,东寨港(对照点),,,29,38,28,31,66,50,46,46,,,4,3,0.7,0.6
2023-01-06T12:00:00,1410A,110.3232,20.0574,海口市,海南大学,,42,39,50,29,35,140,77,114,80,14,16,8,6,0.8,0.8
2023-01-06T12:00:00,1411A,110.283,20.0053,海口市,秀英海南医院,颗粒物(PM10),53,56,54,21,34,138,82,104,82,15,23,10,7,0.8,0.8
2023-01-06T12:00:00,1412A,110.338,19.9969,海口市,海南师范大学,颗粒物(PM10),57,64,55,38,42,142,82,97,82,13,22,9,6,0.6,0.6
2023-01-06T12:00:00,1413A,110.33,20.0356,海口市,龙华路环保局宿舍,,47,47,49,26,30,139,80,99,79,13,22,8,6,0.7,0.7
2023-01-06T12:00:00,1414A,106.3787,29.8279,重庆市,缙云山(对照点),,39,34,51,27,38,71,70,64,64,18,24,5,6,0.6,0.6
2023-01-06T12:00:00,1416A,106.4213,29.8253,重庆市,天生,细颗粒物(PM2.5),109,135,99,82,72,24,6,3,3,43,36,6,8,1.3,1.1
2023-01-06T12:00:00,1417A,106.6263,29.7228,重庆市,两路,细颗粒物(PM2.5),102,123,100,76,66,25,18,8,8,59,53,13,9,1.2,1.3
2023-01-06T12:00:00,1418A,106.2953,29.5983,重庆市,虎溪,细颗粒物(PM2.5),118,94,88,89,76,41,7,5,5,43,41,5,7,1.1,0.8
2023-01-06T12:00:00,1419A,106.5777,29.5102,重庆市,南坪,细颗粒物(PM2.5),94,98,104,70,75,33,23,7,7,38,51,15,8,1.2,1.1
2023-01-06T12:00:00,1420A,106.6556,29.6277,重庆市,唐家沱,细颗粒物(PM2.5),110,112,108,83,71,11,7,3,3,54,57,10,7,,0.6
2023-01-06T12:00:00,1421A,106.6349,29.4906,重庆市,茶园,细颗粒物(PM2.5),107,91,117,80,80,38,33,13,13,34,49,15,7,1.0,1
2023-01-06T12:00:00,1422A,106.3754,29.4572,重庆市,白市驿,颗粒物(PM10),85,120,91,49,62,28,15,6,6,44,48,10,8,1.2,1.1
2023-01-06T12:00:00,1425A,106.6205,29.7166,重庆市,空港,细颗粒物(PM2.5),119,86,95,90,73,20,13,6,6,63,54,14,10,1.3,1.3
2023-01-06T12:00:00,1426A,106.4782,29.4875,重庆市,新山村,细颗粒物(PM2.5),117,117,122,88,83,16,14,7,7,48,58,8,6,0.9,0.9
2023-01-06T12:00:00,1427A,106.5616,29.6453,重庆市,礼嘉,细颗粒物(PM2.5),115,146,132,87,69,15,9,4,4,62,64,10,8,1.1,1
2023-01-06T12:00:00,1428A,106.4522,29.7091,重庆市,蔡家,细颗粒物(PM2.5),132,119,94,100,67,45,15,7,7,61,37,8,6,1.4,1
2023-01-06T12:00:00,1429A,106.5093,29.3917,重庆市,鱼新街,细颗粒物(PM2.5),84,72,107,62,80,17,14,6,6,48,50,19,14,1.3,1.3
2023-01-06T12:00:00,1431A,103.9728,30.7236,成都市,金泉两河,细颗粒物(PM2.5),99,106,92,74,75,88,31,5,5,56,56,7,2,1.0,1
2023-01-06T12:00:00,1432A,104.176,30.6872,成都市,十里店,细颗粒物(PM2.5),122,104,78,92,64,93,35,28,11,48,46,7,4,0.9,0.7
2023-01-06T12:00:00,1433A,104.079,30.5706,成都市,三瓦窑,细颗粒物(PM2.5),120,113,88,91,69,91,22,4,4,51,42,5,3,1.1,0.8
2023-01-06T12:00:00,1434A,104.1114,30.63,成都市,沙河铺,细颗粒物(PM2.5),123,132,87,93,68,94,40,17,8,40,39,5,2,0.9,0.7
2023-01-06T12:00:00,1437A,104.0786,30.6531,成都市,君平街,细颗粒物(PM2.5),120,107,94,91,82,89,33,11,10,60,60,8,5,1.3,1
2023-01-06T12:00:00,1438A,103.613,31.0283,成都市,灵岩寺(对照点),,33,32,65,23,54,100,48,68,50,20,21,13,8,0.4,0.5
2023-01-06T12:00:00,1439A,106.6899,26.5998,贵阳市,马鞍山,,35,27,32,24,30,73,73,50,50,11,18,7,6,0.7,0.8
2023-01-06T12:00:00,1440A,106.6971,26.5694,贵阳市,市环保站,,39,29,38,27,40,70,70,54,54,16,23,10,10,0.4,0.6
2023-01-06T12:00:00,1441A,106.6243,26.6266,贵阳市,鉴湖路,,41,41,34,19,20,72,71,62,62,10,16,6,7,0.5,0.6
2023-01-06T12:00:00,1442A,106.7487,26.6343,贵阳市,燕子冲,,45,34,45,31,42,58,58,47,47,13,17,6,9,0.4,0.6
2023-01-06T12:00:00,1443A,106.6555,26.4365,贵阳市,碧云窝,,,,72,,55,68,61,50,50,14,24,,22,0.6,0.7
2023-01-06T12:00:00,1444A,106.694,26.5161,贵阳市,中院村,,44,44,51,27,34,62,62,54,54,23,26,12,16,0.7,0.7
2023-01-06T12:00:00,1445A,106.7109,26.6027,贵阳市,红边门,,39,34,43,27,38,71,71,59,59,12,20,8,18,0.6,0.8
2023-01-06T12:00:00,1446A,106.7164,26.5699,贵阳市,新华路,,41,41,44,27,32,71,71,56,56,9,18,10,9,0.5,0.6
2023-01-06T12:00:00,1447A,106.674,26.5424,贵阳市,太慈桥,,44,44,47,19,27,67,67,56,56,16,24,8,9,0.5,0.7
2023-01-06T12:00:00,1450A,102.8204,24.8886,昆明市,呈贡新区,,26,23,38,18,28,89,65,40,40,13,25,12,8,0.7,0.7
2023-01-06T12:00:00,1451A,102.6251,24.9608,昆明市,西山森林公园(对照点),,,45,26,,17,96,65,81,45,,21,8,9,,0.6
2023-01-06T12:00:00,1452A,102.7252,25.0902,昆明市,龙泉镇,,29,29,50,19,29,84,73,50,50,11,26,14,10,0.7,0.9
2023-01-06T12:00:00,1453A,102.7266,25.0375,昆明市,东风东路,,32,32,47,18,28,86,70,48,48,14,30,12,9,0.5,0.6
2023-01-06T12:00:00,1454A,102.6742,25.0669,昆明市,金鼎山,,35,32,41,24,31,90,75,49,49,9,23,12,9,0.5,0.6
2023-01-06T12:00:00,1455A,102.6644,25.0401,昆明市,碧鸡广场,,32,30,48,22,30,86,74,50,50,14,30,8,5,0.4,0.6
2023-01-06T12:00:00,1456A,91.1319,29.6514,拉萨市,八廓街,颗粒物(PM10),58,66,16,40,6,91,65,70,64,10,11,5,6,0.5,0.5
2023-01-06T12:00:00,1457A,91.1221,29.6747,拉萨市,市环保局,,28,28,11,9,2,91,62,76,56,16,12,4,4,0.5,0.4
2023-01-06T12:00:00,1458A,91.0874,29.6475,拉萨市,区监测站,,22,21,10,11,4,96,68,78,66,11,8,5,5,0.4,0.3
2023-01-06T12:00:00,1459A,91.1774,29.6541,拉萨市,西藏大学,,32,32,10,11,4,92,64,71,61,12,10,8,8,0.2,0.3
2023-01-06T12:00:00,1460A,90.9798,29.6588,拉萨市,区辐射站,,32,28,9,22,5,104,80,90,71,12,7,8,8,0.5,0.5
2023-01-06T12:00:00,1461A,91.0834,29.6292,拉萨市,拉萨火车站,,29,29,10,12,2,88,64,78,57,10,9,7,8,0.3,0.3
2023-01-06T12:00:00,1462A,108.882,34.2749,西安市,高压开关厂,颗粒物(PM10),171,292,341,66,218,68,46,40,30,38,84,11,8,1.1,1.6
2023-01-06T12:00:00,1463A,108.993,34.2629,西安市,兴庆小区,颗粒物(PM10),146,241,265,54,197,66,51,58,24,,87,11,9,0.8,1.6
2023-01-06T12:00:00,1464A,109.06,34.2572,西安市,纺织城,颗粒物(PM10),153,256,299,51,218,51,44,18,14,37,86,14,12,0.8,1.6
2023-01-06T12:00:00,1465A,108.9356,34.2173,西安市,小寨,颗粒物(PM10),98,146,276,55,212,67,50,57,23,30,76,12,9,0.8,1.6
2023-01-06T12:00:00,1466A,108.954,34.2713,西安市,市人民体育场,颗粒物(PM10),166,282,311,58,208,62,43,40,22,38,89,12,9,0.8,1.5
2023-01-06T12:00:00,1467A,108.8922,34.2322,西安市,高新西区,颗粒物(PM10),141,232,285,87,182,86,50,56,28,29,62,13,10,1.3,1.7
2023-01-06T12:00:00,1468A,108.935,34.3474,西安市,经开区,颗粒物(PM10),185,319,307,62,209,85,48,45,28,29,77,11,8,0.6,1.3
2023-01-06T12:00:00,1469A,108.906,34.1546,西安市,长安区,,,,309,,205,104,53,59,25,,55,5,7,0.8,1.5
2023-01-06T12:00:00,1471A,109.2186,34.3731,西安市,临潼区,颗粒物(PM10),123,196,280,31,150,97,73,72,65,9,46,9,10,0.4,1.1
2023-01-06T12:00:00,1472A,108.869,34.378,西安市,草滩(对照点),颗粒物(PM10),170,290,295,61,139,60,24,14,11,48,88,14,13,0.0,0.5
2023-01-06T12:00:00,1473A,108.985,34.1978,西安市,曲江文化产业集团,颗粒物(PM10),136,221,313,49,201,74,52,59,22,31,81,9,7,0.7,1.4
2023-01-06T12:00:00,1474A,109.051,34.3213,西安市,广运潭,颗粒物(PM10),163,276,293,51,224,58,45,24,20,33,85,13,10,1.1,1.8
2023-01-06T12:00:00,1476A,103.631,36.1031,兰州市,兰炼宾馆,颗粒物(PM10),187,324,326,83,74,57,36,12,12,82,55,42,32,1.4,0.9
2023-01-06T12:00:00,1477A,104.1373,35.9454,兰州市,榆中兰大校区(对照点),,,,,,,,,,,,,,,,
2023-01-06T12:00:00,1478A,103.8412,36.0726,兰州市,生物制品所,颗粒物(PM10),183,316,338,70,60,69,18,8,8,66,55,38,19,3.1,1.1
2023-01-06T12:00:00,1479A,103.831,36.0464,兰州市,铁路设计院,细颗粒物(PM2.5),125,,320,95,67,74,27,12,12,,65,,28,4.0,1.6
2023-01-06T12:00:00,1483A,101.524,36.6867,西宁市,第五水厂(对照点),,,,,,,,,,,,,,,,
2023-01-06T12:00:00,1484A,105.9512,38.6016,银川市,贺兰山马莲口(对照点),,27,27,96,5,30,90,72,84,80,18,15,9,9,0.4,2.5
2023-01-06T12:00:00,1488A,106.2328,38.4975,银川市,贺兰山东路,,45,45,205,16,54,87,82,80,75,21,35,3,5,0.4,0.7
2023-01-06T12:00:00,1489A,106.1358,38.5036,银川市,学院路,颗粒物(PM10),52,53,204,9,44,80,75,80,59,16,33,4,9,0.6,0.9
2023-01-06T12:00:00,1490A,87.5801,43.8303,乌鲁木齐市,监测站,,,194,148,106,107,69,2,0,0,103,78,9,7,3.5,2
2023-01-06T12:00:00,1491A,87.6046,43.768,乌鲁木齐市,收费所,细颗粒物(PM2.5),120,144,120,91,70,84,9,6,6,66,54,5,3,1.7,1.1
2023-01-06T12:00:00,1492A,87.4754,43.9469,乌鲁木齐市,新疆农科院农场(对照点),细颗粒物(PM2.5),209,144,136,159,167,48,8,24,6,85,70,7,8,1.9,2
2023-01-06T12:00:00,1493A,87.5525,43.8711,乌鲁木齐市,铁路局,细颗粒物(PM2.5),233,213,161,183,143,43,13,40,5,83,84,4,5,2.1,1.9
2023-01-06T12:00:00,1494A,87.6432,43.831,乌鲁木齐市,三十一中学,细颗粒物(PM2.5),98,126,121,73,79,85,29,21,21,41,57,8,6,1.1,1.1
2023-01-06T12:00:00,1496A,87.7216,44.1747,乌鲁木齐市,米东区环保局,细颗粒物(PM2.5),280,270,206,230,171,64,11,33,7,84,70,5,8,2.2,1.7
2023-01-06T12:00:00,1508A,112.9433,27.8614,湘潭市,板塘,细颗粒物(PM2.5),245,199,189,195,189,114,89,58,47,25,29,11,9,1.4,1.3
2023-01-06T12:00:00,1511A,112.9118,27.8403,湘潭市,市监测站,细颗粒物(PM2.5),226,202,190,176,169,116,95,65,48,33,39,12,11,1.1,1.1
2023-01-06T12:00:00,1512A,112.8937,27.8728,湘潭市,江麓,细颗粒物(PM2.5),198,160,168,148,165,133,110,71,57,22,28,17,17,0.9,0.9
2023-01-06T12:00:00,1513A,112.9227,27.8159,湘潭市,岳塘,细颗粒物(PM2.5),226,199,179,176,168,108,85,61,47,31,33,12,10,1.1,1.1
2023-01-06T12:00:00,1514A,112.9074,27.9119,湘潭市,科大,细颗粒物(PM2.5),222,195,200,172,180,123,100,64,49,28,36,11,9,1.2,1.2
2023-01-06T12:00:00,1515A,113.135,27.8244,株洲市,天台山庄,细颗粒物(PM2.5),235,231,164,185,164,118,92,66,44,36,42,17,7,1.2,1.1
2023-01-06T12:00:00,1518A,113.095,27.8867,株洲市,株冶医院,细颗粒物(PM2.5),218,256,184,168,158,117,92,66,36,39,50,18,10,0.9,0.9
2023-01-06T12:00:00,1519A,113.167,27.8667,株洲市,市四中,细颗粒物(PM2.5),260,249,167,210,166,122,92,73,42,39,41,12,7,0.8,0.7
2023-01-06T12:00:00,1520A,113.143,27.8381,株洲市,火车站,细颗粒物(PM2.5),274,241,192,224,174,118,88,63,45,38,40,16,8,1.2,1.1
2023-01-06T12:00:00,1524A,113.13,27.8528,株洲市,市监测站,细颗粒物(PM2.5),262,219,228,212,204,135,92,62,43,30,39,19,9,0.6,0.5
2023-01-06T12:00:00,1552A,106.805,26.3003,贵阳市,桐木岭(对照点),,,,,,,,,,,,,,,,
2023-01-06T12:00:00,1559A,113.251,27.8336,株洲市,大京风景区(对照点),细颗粒物(PM2.5),209,207,160,159,145,115,84,63,35,29,28,11,6,1.0,0.8
2023-01-06T12:00:00,1562A,113.0048,27.9153,湘潭市,昭山,细颗粒物(PM2.5),230,,214,180,178,113,95,55,38,25,37,,8,0.9,0.9
2023-01-06T12:00:00,1564A,112.4876,27.9164,湘潭市,韶山(对照点),细颗粒物(PM2.5),166,101,141,126,123,125,95,98,79,18,24,6,8,0.9,1.3
2023-01-06T12:00:00,1585A,109.8756,40.6532,包头市,市环境监测站,颗粒物(PM10),117,183,183,54,57,59,59,46,33,28,47,21,25,1.3,1.3
2023-01-06T12:00:00,1587A,109.9991,40.5842,包头市,包头八中,颗粒物(PM10),139,228,222,50,59,61,55,46,25,33,51,20,27,1.1,1.2
2023-01-06T12:00:00,1588A,109.8538,40.6821,包头市,青山宾馆,颗粒物(PM10),127,203,209,50,70,67,67,48,40,15,50,6,18,0.6,1.2
2023-01-06T12:00:00,1589A,109.8642,40.6288,包头市,惠龙物流,颗粒物(PM10),153,256,217,62,62,61,48,61,27,45,52,17,22,1.9,1.8
2023-01-06T12:00:00,1590A,110.0377,40.5546,包头市,东河鸿龙湾,颗粒物(PM10),149,248,200,60,50,68,,53,21,,42,22,22,1.0,1
2023-01-06T12:00:00,1591A,110.0023,39.8129,鄂尔多斯市,综合楼,颗粒物(PM10),87,124,212,19,34,77,72,71,71,12,16,6,9,0.6,0.7
2023-01-06T12:00:00,1592A,109.9486,39.8261,鄂尔多斯市,巴音孟克林场办事处,颗粒物(PM10),71,92,196,19,37,87,79,76,76,7,11,6,9,0.5,0.5
2023-01-06T12:00:00,1593A,109.7736,39.5986,鄂尔多斯市,康泽苑,颗粒物(PM10),74,97,178,22,36,78,68,62,59,9,14,6,7,0.7,0.9
2023-01-06T12:00:00,1594A,109.8119,39.5989,鄂尔多斯市,华泰汽车城,颗粒物(PM10),78,105,173,27,40,98,77,67,67,5,11,5,9,0.4,0.5
2023-01-06T12:00:00,1595A,109.9734,39.7884,鄂尔多斯市,奥林花园,颗粒物(PM10),75,100,231,22,37,80,70,70,70,17,19,19,21,0.5,0.6
2023-01-06T12:00:00,1596A,122.2414,40.6592,营口市,学府南路(停运211214),,,,,,,,,,,,,,,,
2023-01-06T12:00:00,1597A,122.2703,40.7094,营口市,大庆路,细颗粒物(PM2.5),242,223,152,192,125,69,34,57,45,59,46,26,25,1.6,1.5
2023-01-06T12:00:00,1598A,122.2150,40.6511,营口市,镜湖西路,细颗粒物(PM2.5),224,200,157,174,126,79,47,69,59,44,36,13,14,2.3,2.2
2023-01-06T12:00:00,1599A,122.1658,40.6789,营口市,西炮台,细颗粒物(PM2.5),233,200,167,183,144,71,49,62,56,38,40,11,11,0.9,1
2023-01-06T12:00:00,1600A,124.3303,40.0625,丹东市,江湾东路,细颗粒物(PM2.5),127,130,98,96,75,78,25,19,17,,48,54,38,3.4,2.3
2023-01-06T12:00:00,1601A,124.4256,40.1503,丹东市,临江后街,细颗粒物(PM2.5),115,126,99,87,72,73,13,18,14,70,49,54,28,2.0,1.8
2023-01-06T12:00:00,1602A,124.3933,40.1461,丹东市,元宝山,细颗粒物(PM2.5),137,164,103,104,67,55,10,12,9,72,58,39,31,2.3,1.8
2023-01-06T12:00:00,1603A,124.3633,40.1092,丹东市,民主桥,细颗粒物(PM2.5),100,107,96,75,61,70,13,18,13,77,56,29,29,1.6,1.6
2023-01-06T12:00:00,1604A,122.0303,41.1489,盘锦市,开发区,细颗粒物(PM2.5),237,228,161,187,136,71,52,66,60,39,44,13,12,1.6,1.5
2023-01-06T12:00:00,1605A,122.0485,41.0883,盘锦市,兴隆台,细颗粒物(PM2.5),240,247,174,190,165,66,51,60,51,34,45,18,19,1.8,1.6
2023-01-06T12:00:00,1606A,121.8297,41.1028,盘锦市,新生街道,细颗粒物(PM2.5),304,265,147,254,133,72,20,64,48,74,46,112,15,2.5,1.5
2023-01-06T12:00:00,1607A,120.9092,40.7136,葫芦岛市,龙港区,,,459,192,254,202,40,,23,23,121,87,,35,4.6,2.2
2023-01-06T12:00:00,1608A,120.8392,40.7514,葫芦岛市,化工街,细颗粒物(PM2.5),269,272,165,219,129,32,18,13,13,102,93,55,32,2.5,2.1
2023-01-06T12:00:00,1609A,120.8341,40.7073,葫芦岛市,新区,,,,158,,138,12,,12,,,87,,34,,2.2
2023-01-06T12:00:00,1610A,120.8695,40.7677,葫芦岛市,东城区,细颗粒物(PM2.5),258,321,215,208,178,32,18,14,14,94,82,78,29,3.3,3
2023-01-06T12:00:00,1611A,118.5819,24.9117,泉州市,涂山街,颗粒物(PM10),56,61,35,11,15,95,71,51,44,6,15,7,8,0.5,0.6
2023-01-06T12:00:00,1612A,118.5972,24.8978,泉州市,津头埔,,32,32,30,15,16,91,67,47,40,12,20,7,8,0.6,0.6
2023-01-06T12:00:00,1613A,118.6663,24.9424,泉州市,万安,,26,18,25,18,14,94,76,58,58,8,15,7,8,0.5,0.5
2023-01-06T12:00:00,1614A,118.6117,24.9604,泉州市,清源山(对照点),,,,,,,,,,,,,,,,
2023-01-06T12:00:00,1616A,117.6795,36.229,济南市,技术学院,细颗粒物(PM2.5),321,327,240,271,186,103,73,47,47,39,72,16,19,1.6,2.1
2023-01-06T12:00:00,1618A,118.3429,35.0532,临沂市,沂河小区,细颗粒物(PM2.5),284,276,208,234,175,121,68,44,44,56,66,23,26,1.5,1.4
2023-01-06T12:00:00,1619A,118.295,35.0583,临沂市,鲁南制药厂,细颗粒物(PM2.5),275,288,214,225,172,119,63,32,32,87,93,32,37,1.2,1.1
2023-01-06T12:00:00,1620A,118.2794,34.9976,临沂市,新光毛纺厂,细颗粒物(PM2.5),299,285,221,249,177,122,65,34,34,64,90,20,33,2.0,1.9
2023-01-06T12:00:00,1621A,118.3956,35.0888,临沂市,河东保险公司,细颗粒物(PM2.5),284,263,200,234,170,123,75,60,60,72,83,21,23,1.8,1.6
2023-01-06T12:00:00,1622A,116.3032,37.4674,德州市,儿童乐园,颗粒物(PM10),129,207,355,68,260,65,62,44,36,32,72,9,22,1.1,2
2023-01-06T12:00:00,1624A,116.2991,37.4451,德州市,监理站,颗粒物(PM10),134,218,388,80,291,69,60,43,34,34,69,14,25,1.0,1.9
2023-01-06T12:00:00,1625A,115.9848,36.4372,聊城市,区政府,细颗粒物(PM2.5),200,252,385,150,301,56,56,43,34,39,60,13,13,1.4,1.9
2023-01-06T12:00:00,1628A,118.0062,37.3803,滨州市,市环保局,细颗粒物(PM2.5),352,437,400,302,293,81,54,28,28,62,92,23,34,2.2,2.1
2023-01-06T12:00:00,1629A,118.0018,37.3617,滨州市,第二水厂,细颗粒物(PM2.5),346,422,362,296,274,84,58,31,31,62,97,33,33,2.5,2
2023-01-06T12:00:00,1630A,117.9776,37.393,滨州市,北中新校,,,,340,,262,72,56,21,21,57,91,21,23,,1.8
2023-01-06T12:00:00,1631A,118.0414,36.8103,淄博市,人民公园,细颗粒物(PM2.5),185,293,250,139,188,102,56,86,75,57,82,22,18,1.2,1.2
2023-01-06T12:00:00,1633A,117.8525,36.4847,淄博市,双山,颗粒物(PM10),112,173,191,57,154,129,78,94,83,18,34,7,15,0.6,1.2
2023-01-06T12:00:00,1634A,117.9592,36.6331,淄博市,气象站,颗粒物(PM10),134,217,203,100,144,122,70,105,84,32,28,12,17,0.8,1
2023-01-06T12:00:00,1635A,118.3092,36.8194,淄博市,莆田园,细颗粒物(PM2.5),195,268,233,146,171,100,62,89,81,41,58,21,23,1.3,1.5
2023-01-06T12:00:00,1637A,117.558,34.8438,枣庄市,市中区政府,细颗粒物(PM2.5),343,378,251,293,184,136,82,51,51,52,80,18,21,1.8,1.8
2023-01-06T12:00:00,1638A,117.2852,34.7837,枣庄市,薛城环保局,细颗粒物(PM2.5),326,335,206,276,164,137,83,59,59,55,78,13,15,1.8,1.4
2023-01-06T12:00:00,1639A,117.5852,34.7745,枣庄市,峄城区政府,,,,238,,170,119,65,54,54,50,72,24,19,1.5,1.2
2023-01-06T12:00:00,1640A,117.7276,34.5578,枣庄市,台儿庄区环保局,细颗粒物(PM2.5),296,317,243,246,178,133,80,23,23,42,92,13,15,1.7,1.6
2023-01-06T12:00:00,1641A,117.4518,35.0992,枣庄市,山亭区环保局,细颗粒物(PM2.5),309,315,188,259,147,140,83,75,74,69,65,13,14,1.8,1.4
2023-01-06T12:00:00,1642A,121.2514,37.5639,烟台市,开发区,细颗粒物(PM2.5),180,153,183,136,161,78,78,59,51,52,71,19,16,1.4,1.5
2023-01-06T12:00:00,1643A,121.3719,37.5433,烟台市,轴承厂,,,,253,,198,68,,38,,,73,,32,,1.4
2023-01-06T12:00:00,1644A,121.3181,37.5436,烟台市,西郊化工站,细颗粒物(PM2.5),173,163,185,131,146,98,93,88,87,43,47,18,13,1.4,1.3
2023-01-06T12:00:00,1645A,121.4478,37.4822,烟台市,莱山环保局,细颗粒物(PM2.5),156,146,158,119,129,118,79,81,81,56,46,20,15,1.8,1.5
2023-01-06T12:00:00,1646A,121.2611,37.4967,烟台市,福山环保局,细颗粒物(PM2.5),156,171,189,119,150,90,87,42,42,52,71,17,12,1.0,1.2
2023-01-06T12:00:00,1650A,119.1437,36.7023,潍坊市,环保局,细颗粒物(PM2.5),219,317,246,169,198,63,63,46,46,56,87,22,14,1.5,1.6
2023-01-06T12:00:00,1653A,116.6251,35.4302,济宁市,火炬城,细颗粒物(PM2.5),277,291,202,227,192,140,72,54,54,41,42,18,12,1.3,1.1
2023-01-06T12:00:00,1655A,116.5491,35.4042,济宁市,电化厂,细颗粒物(PM2.5),265,286,226,215,200,136,67,44,44,44,53,30,26,1.2,1
2023-01-06T12:00:00,1656A,117.1437,36.1937,泰安市,监测站,细颗粒物(PM2.5),284,310,265,234,232,96,67,58,57,55,85,11,18,1.4,1.9
2023-01-06T12:00:00,1657A,117.0885,36.2017,泰安市,人口学校,颗粒物(PM10),112,173,217,32,180,107,76,97,61,25,54,,16,,0.9
2023-01-06T12:00:00,1658A,117.1089,36.1758,泰安市,电力学校,颗粒物(PM10),158,266,255,96,214,82,77,35,35,4,66,13,24,0.9,1.7
2023-01-06T12:00:00,1659A,119.471,35.4209,日照市,监测站,细颗粒物(PM2.5),208,219,191,158,136,119,67,18,18,69,91,17,20,1.2,2
2023-01-06T12:00:00,1660A,119.523,35.4216,日照市,市政府广场,细颗粒物(PM2.5),210,207,169,160,125,84,72,35,35,55,71,15,15,,1.8
2023-01-06T12:00:00,1661A,119.5587,35.4044,日照市,港务局,细颗粒物(PM2.5),211,215,182,161,133,85,85,28,28,61,91,15,17,1.3,1.6
2023-01-06T12:00:00,1662A,122.1214,37.4236,威海市,华夏技校,,,,146,,120,109,94,95,94,22,42,3,6,0.9,1
2023-01-06T12:00:00,1663A,122.0508,37.5236,威海市,山大分校,细颗粒物(PM2.5),102,100,150,76,115,115,99,100,99,30,35,7,8,0.7,0.8
2023-01-06T12:00:00,1664A,122.1067,37.5072,威海市,市监测站,细颗粒物(PM2.5),104,93,140,78,117,112,106,107,97,31,46,5,6,0.9,1
2023-01-06T12:00:00,1666A,118.6614,37.4309,东营市,市环保局,细颗粒物(PM2.5),333,364,293,283,241,71,44,19,19,56,92,19,24,1.9,2
2023-01-06T12:00:00,1669A,113.5824,24.7733,韶关市,市八中,,42,39,51,29,37,91,78,56,56,8,22,11,11,0.7,0.8
2023-01-06T12:00:00,1671A,113.5917,24.7972,韶关市,园林处,,39,39,48,27,37,94,84,63,63,6,18,9,9,0.6,0.7
2023-01-06T12:00:00,1672A,113.6735,24.7791,韶关市,韶关学院,颗粒物(PM10),52,53,47,35,39,88,76,34,34,11,28,8,6,0.7,0.8
2023-01-06T12:00:00,1673A,113.5971,24.6863,韶关市,曲江监测站,,40,36,52,28,36,88,78,41,41,8,29,9,9,0.5,0.6
2023-01-06T12:00:00,1674A,116.6794,23.3667,汕头市,金平子站,,45,45,35,20,27,102,82,62,33,19,24,14,14,0.7,0.6
2023-01-06T12:00:00,1675A,116.7244,23.3633,汕头市,龙湖子站,,42,42,34,17,24,105,76,67,34,19,24,13,12,0.7,0.6
2023-01-06T12:00:00,1676A,116.7258,23.2775,汕头市,濠江子站,颗粒物(PM10),53,56,31,21,26,104,79,70,38,23,21,12,10,0.8,0.6
2023-01-06T12:00:00,1677A,116.7519,23.4714,汕头市,澄海子站,,32,27,31,22,27,103,74,65,44,15,22,5,6,0.6,0.6
2023-01-06T12:00:00,1678A,116.6092,23.2539,汕头市,潮阳子站,,38,38,32,15,18,107,71,66,37,15,15,11,7,0.5,0.4
2023-01-06T12:00:00,1680A,110.3539,21.2706,湛江市,湛江影剧院,细颗粒物(PM2.5),54,51,66,38,55,133,77,44,44,11,32,10,13,0.8,0.8
2023-01-06T12:00:00,1681A,110.3928,21.2228,湛江市,市环境监测站,,,70,70,41,63,141,61,45,45,,27,13,14,0.8,0.8
2023-01-06T12:00:00,1682A,110.4019,21.1997,湛江市,环保局宿舍,颗粒物(PM10),52,54,63,35,55,146,69,59,49,16,26,13,10,0.7,0.7
2023-01-06T12:00:00,1683A,110.4111,21.2028,湛江市,霞山游泳场,细颗粒物(PM2.5),54,44,61,38,55,145,74,54,48,13,24,13,12,0.6,0.6
2023-01-06T12:00:00,1684A,110.3316,21.2679,湛江市,麻章区环保局,细颗粒物(PM2.5),59,54,70,42,62,126,73,39,39,14,33,16,16,0.7,0.8
2023-01-06T12:00:00,1685A,110.4558,21.2567,湛江市,坡头区环保局,细颗粒物(PM2.5),54,49,53,38,52,140,67,86,44,14,17,8,12,0.7,0.7
2023-01-06T12:00:00,1686A,111.0286,21.4688,茂名市,电白南海,颗粒物(PM10),54,58,83,29,52,155,76,93,47,10,28,10,12,0.6,0.7
2023-01-06T12:00:00,1687A,110.9294,21.6533,茂名市,茂石化七小,细颗粒物(PM2.5),52,51,64,36,47,130,73,130,48,10,18,10,14,0.6,0.7
2023-01-06T12:00:00,1688A,110.9107,21.6687,茂名市,健康路,细颗粒物(PM2.5),53,53,64,37,39,128,77,122,50,9,18,14,21,0.6,0.8
2023-01-06T12:00:00,1689A,110.8592,21.6828,茂名市,高岭,细颗粒物(PM2.5),52,48,66,36,49,137,75,96,53,10,21,10,16,0.9,0.7
2023-01-06T12:00:00,1690A,116.1231,24.3284,梅州市,梅江月梅,,26,26,36,18,22,66,60,22,22,15,26,5,6,0.4,0.5
2023-01-06T12:00:00,1691A,116.0797,24.2719,梅州市,梅县新城,,32,32,43,19,27,59,54,15,15,16,31,7,7,0.6,0.8
2023-01-06T12:00:00,1692A,116.1248,24.2654,梅州市,环境监控中心,,34,34,40,18,25,72,57,20,20,15,27,9,10,0.6,0.6
2023-01-06T12:00:00,1693A,115.3653,22.775,汕尾市,市环保局,,32,32,30,11,19,113,69,66,54,6,12,9,9,0.5,0.5
2023-01-06T12:00:00,1694A,115.3706,22.7898,汕尾市,市政府,,35,35,29,14,24,116,74,63,54,9,15,8,8,0.4,0.5
2023-01-06T12:00:00,1695A,115.3622,22.7925,汕尾市,新城中学,,36,36,39,14,25,116,71,61,53,6,12,10,10,0.5,0.6
2023-01-06T12:00:00,1696A,114.6778,23.7569,河源市,源西(对照点),,38,38,43,23,26,95,81,63,63,9,26,5,5,0.6,0.8
2023-01-06T12:00:00,1697A,114.6944,23.7586,河源市,东埔,,,41,47,,34,94,83,66,66,7,24,5,5,0.6,0.8
2023-01-06T12:00:00,1698A,114.6892,23.7233,河源市,老城,,42,42,50,21,32,98,82,64,64,7,22,5,5,0.7,0.9
2023-01-06T12:00:00,1699A,111.9797,21.8593,阳江市,鸳鸯湖(对照点),,,,48,28,44,114,77,41,32,8,22,5,5,0.7,0.8
2023-01-06T12:00:00,1701A,111.9491,21.8658,阳江市,马南垌,颗粒物(PM10),54,58,51,26,37,115,77,48,48,14,22,6,6,0.7,0.8
2023-01-06T12:00:00,1702A,113.0426,23.691,清远市,环保大楼(对照点),,48,37,34,33,34,114,87,63,63,7,16,6,5,0.9,0.9
2023-01-06T12:00:00,1703A,113.0208,23.7106,清远市,凤城街办,,40,38,46,28,32,95,71,60,60,7,15,8,8,0.6,0.7
2023-01-06T12:00:00,1705A,116.6367,23.6719,潮州市,西园路(对照点),,21,14,36,2,32,109,65,32,32,6,16,7,7,0.7,0.7
2023-01-06T12:00:00,1706A,116.6447,23.6706,潮州市,档案局,,30,30,37,12,26,110,68,31,31,6,18,6,7,0.6,0.7
2023-01-06T12:00:00,1708A,116.3701,23.5345,揭阳市,新兴,,48,48,48,27,39,118,74,51,28,15,25,8,9,0.7,0.7
2023-01-06T12:00:00,1709A,116.3264,23.5443,揭阳市,西马,,37,37,50,21,30,130,71,55,24,10,24,9,11,0.6,0.7
2023-01-06T12:00:00,1710A,116.3611,23.5626,揭阳市,东兴,,,45,50,27,31,121,,42,20,16,27,6,8,0.8,0.8
2023-01-06T12:00:00,1711A,116.4151,23.5294,揭阳市,渔湖,颗粒物(PM10),56,61,49,27,31,109,77,47,26,18,28,8,10,0.7,0.7
2023-01-06T12:00:00,1712A,112.0392,22.9169,云浮市,新市府(对照点),,50,38,42,35,34,79,77,26,26,11,26,10,18,0.7,0.8
2023-01-06T12:00:00,1714A,112.0539,22.9539,云浮市,牧羊,颗粒物(PM10),52,54,57,31,40,68,68,22,22,12,32,17,25,0.7,0.8
2023-01-06T12:00:00,1715A,102.575,24.3711,玉溪市,东风水库,,43,31,24,30,17,85,51,22,22,11,14,5,5,0.8,0.6
2023-01-06T12:00:00,1718A,115.4208,35.2464,菏泽市,气象局,细颗粒物(PM2.5),214,232,386,164,306,103,83,63,54,39,61,14,11,1.2,1.6
2023-01-06T12:00:00,1719A,115.4747,35.2375,菏泽市,市政协,颗粒物(PM10),147,243,368,,307,97,79,75,58,42,61,13,11,1.4,1.6
2023-01-06T12:00:00,1721A,113.3819,40.1097,大同市,果树场(对照点),,,,,,,,,,,,,,,,
2023-01-06T12:00:00,1723A,113.2994,40.0758,大同市,云冈宾馆,颗粒物(PM10),131,212,185,,52,79,78,79,65,10,37,8,18,0.5,0.7
2023-01-06T12:00:00,1724A,113.3444,40.0917,大同市,大同大学,颗粒物(PM10),101,152,165,21,42,75,75,72,62,8,33,8,18,0.3,0.5
2023-01-06T12:00:00,1725A,113.2661,40.1269,大同市,安家小村,颗粒物(PM10),93,136,204,22,40,80,80,78,73,6,29,4,16,0.3,0.5
2023-01-06T12:00:00,1726A,113.2711,40.0844,大同市,教育学院,颗粒物(PM10),107,163,203,25,50,72,69,72,57,12,38,6,19,0.3,0.5
2023-01-06T12:00:00,1727A,113.1147,36.1547,长治市,清华站,颗粒物(PM10),136,221,145,63,104,102,76,61,49,18,54,7,17,0.8,1.4
2023-01-06T12:00:00,1728A,113.1031,36.1989,长治市,监测站,颗粒物(PM10),104,157,132,61,105,92,70,44,44,18,56,14,24,0.8,1.6
2023-01-06T12:00:00,1730A,113.0886,36.2125,长治市,审计局,颗粒物(PM10),110,170,147,56,122,92,74,45,45,12,54,8,22,0.7,1.5
2023-01-06T12:00:00,1731A,113.0844,36.1856,长治市,长治八中,颗粒物(PM10),121,191,158,56,106,95,73,44,44,16,56,8,19,0.7,1.5
2023-01-06T12:00:00,1733A,111.5531,36.0783,临汾市,临钢医院,,,,277,,187,88,,5,5,,60,16,14,3.6,3.4
2023-01-06T12:00:00,1734A,111.5028,36.0714,临汾市,技工学校,细颗粒物(PM2.5),308,355,308,258,222,86,27,8,8,72,77,21,29,3.9,3.3
2023-01-06T12:00:00,1736A,111.5018,36.0855,临汾市,市委,细颗粒物(PM2.5),309,351,296,259,212,82,28,10,10,65,70,13,20,3.1,2.8
2023-01-06T12:00:00,1738A,113.5758,37.8572,阳泉市,市中心,颗粒物(PM10),175,300,168,37,71,90,66,53,53,18,55,16,33,0.5,1
2023-01-06T12:00:00,1739A,113.4894,37.8731,阳泉市,赛鱼,颗粒物(PM10),161,272,151,48,83,98,62,47,47,23,54,15,33,0.5,1.2
2023-01-06T12:00:00,1740A,113.5819,37.8486,阳泉市,南庄,颗粒物(PM10),125,199,138,35,66,100,,61,61,26,49,15,31,0.6,1
2023-01-06T12:00:00,1742A,113.5614,37.8703,阳泉市,平坦,颗粒物(PM10),160,270,168,42,81,96,63,50,50,25,55,13,32,0.7,1.2
2023-01-06T12:00:00,1743A,113.5158,37.8392,阳泉市,大阳泉,颗粒物(PM10),126,202,122,42,70,107,71,64,64,20,41,13,29,0.6,1
2023-01-06T12:00:00,1744A,118.9233,42.2816,赤峰市,松山一中,颗粒物(PM10),379,483,192,79,46,78,64,43,43,20,42,8,20,0.6,1.1
2023-01-06T12:00:00,1745A,118.9576,42.2728,赤峰市,哈达街,,,,163,,42,73,69,48,48,14,33,8,15,,0.8
2023-01-06T12:00:00,1746A,118.8788,42.2554,赤峰市,天义路,颗粒物(PM10),296,417,185,91,37,80,69,63,63,14,24,11,14,0.5,0.6
2023-01-06T12:00:00,1748A,123.044,41.1196,鞍山市,深沟寺,细颗粒物(PM2.5),166,153,122,126,88,84,71,80,70,26,35,14,17,1.1,1.2
2023-01-06T12:00:00,1749A,123.011,41.0931,鞍山市,太阳城,细颗粒物(PM2.5),218,207,144,168,106,95,,90,87,32,34,16,18,1.4,1.3
2023-01-06T12:00:00,1750A,123.0485,41.1442,鞍山市,太平,细颗粒物(PM2.5),189,184,140,142,94,77,55,73,58,51,49,16,19,1.5,1.4
2023-01-06T12:00:00,1751A,122.9642,41.0971,鞍山市,铁西三道街,细颗粒物(PM2.5),225,234,180,175,114,65,49,57,47,62,61,29,27,1.8,1.7
2023-01-06T12:00:00,1752A,122.9341,41.0833,鞍山市,铁西工业园区,细颗粒物(PM2.5),227,232,164,177,112,72,68,68,63,41,46,18,19,1.6,1.7
2023-01-06T12:00:00,1753A,123.022,41.0821,鞍山市,明达新区,细颗粒物(PM2.5),209,199,142,159,98,82,70,77,74,33,33,20,18,1.3,1.3
2023-01-06T12:00:00,1754A,123.1289,41.0228,鞍山市,千山(对照点),,,,,,,,,,,,,,,,
2023-01-06T12:00:00,1755A,123.7977,41.8491,抚顺市,望花区,细颗粒物(PM2.5),113,105,147,85,104,32,11,10,10,66,66,15,14,1.4,1.8
2023-01-06T12:00:00,1756A,123.9161,41.8822,抚顺市,顺城区,细颗粒物(PM2.5),103,92,164,77,125,40,21,24,24,57,59,7,9,1.2,2.3
2023-01-06T12:00:00,1757A,124.0436,41.8611,抚顺市,东洲区,细颗粒物(PM2.5),87,88,97,64,69,61,50,45,45,25,31,11,11,1.0,1.3
2023-01-06T12:00:00,1758A,123.9247,41.8642,抚顺市,新抚区,细颗粒物(PM2.5),119,108,134,90,103,54,14,18,17,63,62,8,9,1.1,1.6
2023-01-06T12:00:00,1759A,124.0972,41.8961,抚顺市,大伙房水库,细颗粒物(PM2.5),92,80,80,68,73,63,53,46,46,28,32,9,8,1.1,1.1
2023-01-06T12:00:00,1760A,123.7086,41.8391,抚顺市,沈抚新城,细颗粒物(PM2.5),133,131,169,101,114,46,24,23,22,72,70,16,31,2.2,2.7
2023-01-06T12:00:00,1761A,123.8275,41.3064,本溪市,大峪,细颗粒物(PM2.5),137,137,89,104,55,57,29,24,20,61,45,21,17,1.9,1.4
2023-01-06T12:00:00,1762A,123.7567,41.3325,本溪市,溪湖,细颗粒物(PM2.5),183,154,104,138,66,57,55,38,38,50,59,39,58,2.0,1.7
2023-01-06T12:00:00,1763A,123.7169,41.3094,本溪市,彩屯,细颗粒物(PM2.5),188,196,146,141,91,40,32,23,18,72,69,53,51,3.9,3.7
2023-01-06T12:00:00,1764A,123.7669,41.2864,本溪市,东明,细颗粒物(PM2.5),159,135,73,121,58,75,75,41,41,32,44,22,21,1.0,1
2023-01-06T12:00:00,1765A,123.7992,41.2664,本溪市,新立屯,细颗粒物(PM2.5),190,140,63,143,59,89,89,80,80,25,24,14,12,1.2,1
2023-01-06T12:00:00,1766A,123.8142,41.3472,本溪市,威宁,细颗粒物(PM2.5),139,138,95,106,72,36,23,10,10,61,51,12,9,1.7,1.4
2023-01-06T12:00:00,1767A,121.1115,41.0879,锦州市,南山,细颗粒物(PM2.5),287,247,238,237,219,34,18,21,15,112,86,46,36,3.0,3.3
2023-01-06T12:00:00,1768A,121.0533,40.8434,锦州市,开发区,细颗粒物(PM2.5),300,342,236,250,181,26,20,9,9,,92,,64,2.8,2.4
2023-01-06T12:00:00,1769A,121.1836,41.1119,锦州市,百股街道,细颗粒物(PM2.5),341,271,219,291,212,26,21,12,12,106,97,50,49,3.0,3.4
2023-01-06T12:00:00,1770A,121.1178,41.1222,锦州市,天安街道,细颗粒物(PM2.5),330,335,245,280,212,40,14,9,9,109,88,44,53,3.2,2.9
2023-01-06T12:00:00,1771A,121.1303,41.1386,锦州市,北湖公园,细颗粒物(PM2.5),244,279,217,194,206,48,29,21,20,86,87,40,46,2.3,2.8
2023-01-06T12:00:00,1772A,126.54,43.8622,吉林市,哈达湾,细颗粒物(PM2.5),112,113,93,84,71,73,42,47,30,46,41,22,23,1.4,1.3
2023-01-06T12:00:00,1773A,126.5844,43.8358,吉林市,东局子,细颗粒物(PM2.5),97,97,83,72,62,63,48,47,28,29,40,16,16,1.1,1.1
2023-01-06T12:00:00,1774A,126.5052,43.8245,吉林市,电力学院,细颗粒物(PM2.5),98,100,137,73,97,68,46,18,18,38,49,18,20,1.2,1.7
2023-01-06T12:00:00,1775A,126.6133,43.8972,吉林市,江北,细颗粒物(PM2.5),90,86,86,67,66,68,54,40,23,29,45,24,21,1.0,1.3
2023-01-06T12:00:00,1776A,126.555,43.8306,吉林市,江南公园,细颗粒物(PM2.5),119,104,72,90,62,70,28,51,29,56,36,24,19,1.6,1.2
2023-01-06T12:00:00,1778A,126.7061,43.7133,吉林市,丰满(对照点),,,,,,,,,,,,,,,,
2023-01-06T12:00:00,1779A,123.9305,47.3636,齐齐哈尔市,安居小区,细颗粒物(PM2.5),134,120,111,102,85,45,28,18,18,30,48,12,12,0.9,1.1
2023-01-06T12:00:00,1780A,123.9488,47.3386,齐齐哈尔市,中心广场,细颗粒物(PM2.5),97,127,107,72,67,37,37,27,27,38,53,8,10,0.7,0.9
2023-01-06T12:00:00,1781A,123.9483,47.3227,齐齐哈尔市,农牧车辆厂,细颗粒物(PM2.5),115,136,118,87,85,24,24,13,13,50,63,28,20,1.0,1.4
2023-01-06T12:00:00,1783A,123.945,47.2988,齐齐哈尔市,市环境监测站,细颗粒物(PM2.5),204,151,163,154,139,20,14,8,8,54,65,11,10,1.3,1.8
2023-01-06T12:00:00,1784A,129.61,44.561,牡丹江市,环保大楼,细颗粒物(PM2.5),78,69,85,57,66,65,40,26,26,40,45,18,11,0.9,1
2023-01-06T12:00:00,1785A,129.6115,44.5782,牡丹江市,文化广场,细颗粒物(PM2.5),123,118,105,93,75,55,21,13,13,52,52,20,12,1.4,1.3
2023-01-06T12:00:00,1786A,129.5904,44.5963,牡丹江市,第一医院,细颗粒物(PM2.5),90,116,92,67,77,59,26,13,13,50,52,17,10,1.3,1.3
2023-01-06T12:00:00,1787A,129.6364,44.6075,牡丹江市,机车工厂,细颗粒物(PM2.5),123,139,105,93,69,60,28,16,16,57,49,12,4,1.5,1.2
2023-01-06T12:00:00,1788A,129.6386,44.5462,牡丹江市,第一中学,细颗粒物(PM2.5),79,92,92,58,71,59,28,16,16,48,45,20,8,1.0,1.1
2023-01-06T12:00:00,1789A,124.81117,46.03138,大庆市,大同区,细颗粒物(PM2.5),150,124,101,115,82,52,50,20,20,23,40,7,8,0.8,1.1
2023-01-06T12:00:00,1790A,125.129,46.533,大庆市,龙凤区,细颗粒物(PM2.5),122,115,79,92,54,50,,28,20,41,38,45,12,0.7,0.5
2023-01-06T12:00:00,1791A,124.902,46.408,大庆市,红岗区,细颗粒物(PM2.5),73,72,57,53,43,58,47,20,20,35,45,31,12,0.5,0.7
2023-01-06T12:00:00,1792A,125.153,46.586,大庆市,萨尔图区,细颗粒物(PM2.5),176,156,73,133,59,45,45,37,32,38,38,6,9,1.4,1
2023-01-06T12:00:00,1793A,124.9042,46.6215,大庆市,让胡路区,细颗粒物(PM2.5),107,96,61,80,38,55,47,26,26,31,40,11,8,0.7,0.7
2023-01-06T12:00:00,1794A,118.3606,31.3519,芜湖市,监测站,细颗粒物(PM2.5),139,167,163,106,126,81,81,28,28,56,84,13,12,1.0,0.8
2023-01-06T12:00:00,1795A,118.3714,31.4134,芜湖市,科创中心,细颗粒物(PM2.5),144,165,166,110,125,78,78,22,22,47,78,12,12,1.0,0.9
2023-01-06T12:00:00,1796A,118.3673,31.3131,芜湖市,四水厂,细颗粒物(PM2.5),153,173,181,117,125,60,60,26,26,68,84,17,13,1.4,1
2023-01-06T12:00:00,1798A,118.5092,31.6837,马鞍山市,湖东路四小,细颗粒物(PM2.5),135,92,113,103,119,86,86,24,24,30,83,,22,0.9,1.4
2023-01-06T12:00:00,1799A,118.5024,31.6449,马鞍山市,开发区,细颗粒物(PM2.5),134,70,109,102,111,87,87,22,22,31,83,14,15,1.0,1.3
2023-01-06T12:00:00,1800A,118.5228,31.7231,马鞍山市,慈湖,细颗粒物(PM2.5),144,130,150,110,129,84,84,27,27,34,84,22,19,1.2,1.3
2023-01-06T12:00:00,1802A,118.6245,31.7241,马鞍山市,濮塘(对照点),细颗粒物(PM2.5),128,168,138,97,86,101,89,31,27,32,68,13,16,0.8,1.1
2023-01-06T12:00:00,1803A,115.9872,29.6815,九江市,十里,细颗粒物(PM2.5),83,82,83,61,62,104,104,41,41,23,52,11,10,1.0,1
2023-01-06T12:00:00,1804A,115.9584,29.7046,九江市,茅山头,细颗粒物(PM2.5),95,84,76,71,56,88,88,27,27,33,61,14,11,1.2,1
2023-01-06T12:00:00,1805A,115.9877,29.7295,九江市,西园,细颗粒物(PM2.5),105,91,72,79,63,74,72,28,28,38,54,11,8,1.4,1.1
2023-01-06T12:00:00,1806A,116.0172,29.6547,九江市,五七二七厂,细颗粒物(PM2.5),78,70,68,57,52,109,109,66,66,29,29,10,10,1.0,0.9
2023-01-06T12:00:00,1808A,115.9114,29.6038,九江市,综合工业园,细颗粒物(PM2.5),100,77,72,75,62,90,90,41,41,34,53,11,10,1.0,1.1
2023-01-06T12:00:00,1809A,116.0721,29.7535,九江市,石化总厂,细颗粒物(PM2.5),90,112,94,67,54,82,82,30,30,45,58,14,12,1.2,1
2023-01-06T12:00:00,1810A,115.9773,29.5698,九江市,庐山气象台(对照点),,36,14,26,25,28,99,80,92,87,15,22,6,6,0.5,0.6
2023-01-06T12:00:00,1812A,112.3931,34.6516,洛阳市,市委党校,颗粒物(PM10),156,262,295,55,193,106,67,71,56,14,57,8,12,0.4,1.5
2023-01-06T12:00:00,1814A,112.4657,34.6871,洛阳市,豫西宾馆,,,,319,,218,106,66,47,47,,68,8,12,0.3,1.5
2023-01-06T12:00:00,1815A,112.494,34.6886,洛阳市,河南林校,颗粒物(PM10),179,307,295,62,208,115,72,49,49,,61,,8,,1.5
2023-01-06T12:00:00,1816A,112.3844,34.623,洛阳市,开发区管委会,颗粒物(PM10),141,232,258,53,183,125,80,68,68,16,48,5,8,0.2,1.1
2023-01-06T12:00:00,1817A,112.4267,34.6258,洛阳市,市委新办公区,颗粒物(PM10),151,252,267,54,191,120,81,68,68,16,53,5,9,0.4,1.5
2023-01-06T12:00:00,1818A,114.4839,36.0621,安阳市,棉研所(对照点),,,,,,,,,,,,,,,,
2023-01-06T12:00:00,1819A,114.3551,36.1017,安阳市,红庙街,颗粒物(PM10),99,148,277,38,218,72,72,54,54,19,71,8,19,0.9,1.8
2023-01-06T12:00:00,1820A,114.361,36.0681,安阳市,银杏小区,颗粒物(PM10),106,161,284,47,241,81,81,58,58,15,67,10,22,0.5,1.9
2023-01-06T12:00:00,1824A,114.3389,34.7781,开封市,肿瘤医院,颗粒物(PM10),148,246,382,94,272,89,83,46,46,,67,9,14,,1.9
2023-01-06T12:00:00,1826A,114.2885,34.7965,开封市,世纪星幼儿园,颗粒物(PM10),147,244,340,102,294,105,80,52,52,28,67,10,15,1.1,1.9
2023-01-06T12:00:00,1828A,113.227,35.2125,焦作市,市环保局,细颗粒物(PM2.5),138,189,288,105,222,75,75,63,63,26,62,10,19,0.9,1.8
2023-01-06T12:00:00,1830A,113.1992,35.2590,焦作市,影视城(对照点),,,,,,,,,,,,,,,,
2023-01-06T12:00:00,1832A,113.3257,33.742,平顶山市,新华旅馆,颗粒物(PM10),97,143,367,49,254,101,73,43,43,19,74,8,15,0.3,1.5
2023-01-06T12:00:00,1833A,113.2919,33.737,平顶山市,规划设计院,颗粒物(PM10),101,152,349,48,272,92,65,28,28,31,77,4,7,0.3,1.5
2023-01-06T12:00:00,1834A,113.182,33.774,平顶山市,平顶山工学院,,,,360,,266,122,70,45,45,,52,,12,0.6,1.6
2023-01-06T12:00:00,1835A,111.1922,34.7752,三门峡市,市政府,颗粒物(PM10),157,264,235,80,215,84,42,10,10,35,71,17,17,0.7,1.6
2023-01-06T12:00:00,1836A,111.1587,34.7942,三门峡市,开发区,细颗粒物(PM2.5),134,165,270,102,215,93,41,13,7,29,56,,9,0.8,1.6
2023-01-06T12:00:00,1838A,111.143,34.7955,三门峡市,风景区(对照点),,,,,,,,,,,,,,,,
2023-01-06T12:00:00,1840A,111.2992,30.6981,宜昌市,白龙岗,细颗粒物(PM2.5),70,78,182,51,166,42,35,14,14,33,47,5,6,0.9,1.4
2023-01-06T12:00:00,1841A,111.3549,30.6465,宜昌市,伍家岗,细颗粒物(PM2.5),87,104,233,64,208,33,33,10,10,28,63,3,4,0.9,1.8
2023-01-06T12:00:00,1842A,111.2628,30.6961,宜昌市,点军区,细颗粒物(PM2.5),132,119,198,100,176,45,34,8,8,25,32,5,5,0.9,1.4
2023-01-06T12:00:00,1843A,111.3275,30.7819,宜昌市,夷陵区,细颗粒物(PM2.5),85,81,178,63,181,29,29,13,13,35,50,6,6,0.8,1.4
2023-01-06T12:00:00,1844A,112.2494,30.3197,荆州市,市图书馆,细颗粒物(PM2.5),137,138,260,104,272,60,44,15,15,16,64,5,9,0.9,1.5
2023-01-06T12:00:00,1845A,112.2008,30.3544,荆州市,市委党校,细颗粒物(PM2.5),160,180,274,122,272,53,36,12,12,21,62,6,9,0.9,1.6
2023-01-06T12:00:00,1847A,113.1094,29.3578,岳阳市,南湖风景区,细颗粒物(PM2.5),240,220,169,190,146,97,,29,24,,46,,11,,1.3
2023-01-06T12:00:00,1848A,113.1493,29.4251,岳阳市,城陵矶,细颗粒物(PM2.5),266,268,184,216,148,86,81,22,22,36,54,15,11,1.1,1.3
2023-01-06T12:00:00,1849A,113.1497,29.3575,岳阳市,开发区,细颗粒物(PM2.5),222,214,194,172,191,99,99,29,29,18,35,17,13,1.0,1.2
2023-01-06T12:00:00,1850A,113.2621,29.4758,岳阳市,云溪区,细颗粒物(PM2.5),236,234,243,186,192,96,91,27,27,40,38,17,9,1.1,1.3
2023-01-06T12:00:00,1851A,112.9943,29.4402,岳阳市,君山区,细颗粒物(PM2.5),267,206,194,217,173,105,92,40,40,,34,12,9,1.4,1.4
2023-01-06T12:00:00,1852A,113.2117,29.355,岳阳市,金凤水库(对照点),细颗粒物(PM2.5),234,223,172,184,140,100,100,35,35,20,30,10,9,0.9,1.1
2023-01-06T12:00:00,1854A,111.6975,28.9703,常德市,市二中,细颗粒物(PM2.5),201,175,298,151,280,74,60,16,16,12,33,3,4,0.8,1.3
2023-01-06T12:00:00,1857A,111.7158,29.1456,常德市,白鹤山(对照点),细颗粒物(PM2.5),124,80,182,94,203,91,66,70,55,6,17,3,3,0.7,1
2023-01-06T12:00:00,1858A,110.5319,29.1217,张家界市,永定新区,细颗粒物(PM2.5),180,152,178,136,161,64,41,27,16,29,35,5,5,0.9,1.2
2023-01-06T12:00:00,1859A,110.4697,29.1242,张家界市,电业局,细颗粒物(PM2.5),128,105,174,97,163,49,32,12,12,27,43,4,4,0.5,0.9
2023-01-06T12:00:00,1860A,110.5594,29.3547,张家界市,未央路,,,41,89,31,72,63,42,18,16,7,8,,2,0.6,0.8
2023-01-06T12:00:00,1861A,110.4417,29.315,张家界市,袁家界(对照点),,25,16,38,8,34,79,79,50,50,3,4,9,9,0.6,0.7
2023-01-06T12:00:00,1862A,110.4144,25.3167,桂林市,电子科大尧山校区(对照点),细颗粒物(PM2.5),105,92,64,79,61,111,111,93,93,16,15,9,10,1.1,1
2023-01-06T12:00:00,1863A,110.2819,25.2697,桂林市,监测站,细颗粒物(PM2.5),125,110,92,95,84,113,108,94,94,16,21,6,8,0.8,0.9
2023-01-06T12:00:00,1864A,110.3089,25.2708,桂林市,龙隐路小学,细颗粒物(PM2.5),127,89,83,96,81,113,111,94,94,15,20,9,16,0.8,0.7
2023-01-06T12:00:00,1865A,110.2869,25.2178,桂林市,八中,细颗粒物(PM2.5),130,93,85,99,87,111,104,86,86,19,25,7,11,0.6,0.6
2023-01-06T12:00:00,1866A,109.2262,21.588,北海市,牛尾岭水库(对照点),细颗粒物(PM2.5),75,63,55,55,55,71,71,51,51,12,15,9,7,0.6,0.6
2023-01-06T12:00:00,1867A,109.1436,21.4086,北海市,海滩公园,细颗粒物(PM2.5),74,68,69,54,55,87,84,63,63,11,12,8,7,0.8,0.9
2023-01-06T12:00:00,1868A,109.0981,21.4661,北海市,新市环保局,细颗粒物(PM2.5),92,71,64,68,65,88,86,62,62,14,14,7,6,0.7,0.7
2023-01-06T12:00:00,1869A,109.1778,21.5233,北海市,北海工业园,,,89,75,63,64,81,81,58,58,16,17,,10,0.7,0.6
2023-01-06T12:00:00,1870A,109.4856,24.3895,柳州市,柳东小学,细颗粒物(PM2.5),95,72,86,71,85,97,77,71,71,10,13,5,8,0.8,0.8
2023-01-06T12:00:00,1871A,109.4157,24.3277,柳州市,环保监测站,细颗粒物(PM2.5),52,27,71,36,57,90,74,57,57,11,25,6,10,0.8,1
2023-01-06T12:00:00,1872A,109.389,24.341,柳州市,河西水厂,细颗粒物(PM2.5),72,83,90,52,80,81,56,43,43,25,29,20,16,2.0,1.5
2023-01-06T12:00:00,1873A,109.4311,24.2921,柳州市,市四中,细颗粒物(PM2.5),78,67,82,57,72,96,79,66,66,13,22,8,11,0.7,1
2023-01-06T12:00:00,1874A,109.4006,24.3631,柳州市,市九中,细颗粒物(PM2.5),70,67,95,51,78,89,66,54,54,19,28,11,14,0.7,0.9
2023-01-06T12:00:00,1875A,109.4958,24.3134,柳州市,古亭山,细颗粒物(PM2.5),59,59,72,42,56,105,80,73,73,8,13,9,11,0.7,0.8
2023-01-06T12:00:00,1876A,109.5078,18.2489,三亚市,河东子站,,34,34,22,21,12,96,96,88,72,8,8,4,3,0.5,0.5
2023-01-06T12:00:00,1877A,109.4964,18.2681,三亚市,河西子站,,33,33,20,23,13,82,82,74,55,13,11,3,2,0.5,0.5
2023-01-06T12:00:00,1878A,104.7778,31.4741,绵阳市,富乐山,细颗粒物(PM2.5),104,92,74,78,62,87,20,6,6,49,39,4,3,1.0,0.7
2023-01-06T12:00:00,1879A,104.7563,31.4535,绵阳市,市人大,细颗粒物(PM2.5),114,108,94,86,73,76,15,3,3,49,55,4,3,1.0,1.1
2023-01-06T12:00:00,1880A,104.6697,31.4668,绵阳市,高新区自来水公司,,,,101,,77,36,,36,,,47,,6,,1.0
2023-01-06T12:00:00,1881A,104.7287,31.5075,绵阳市,三水厂,细颗粒物(PM2.5),137,155,120,104,86,80,15,3,3,46,47,5,4,1.0,1.1
2023-01-06T12:00:00,1882A,104.563,28.793,宜宾市,石马中学(对照点),细颗粒物(PM2.5),83,82,79,61,60,77,37,8,8,24,29,7,7,0.9,0.8
2023-01-06T12:00:00,1883A,104.6201,28.7728,宜宾市,市委,细颗粒物(PM2.5),102,101,93,76,71,90,24,7,7,43,37,14,10,0.8,0.8
2023-01-06T12:00:00,1884A,104.6055,28.793,宜宾市,宜宾四中,细颗粒物(PM2.5),119,98,93,90,80,88,26,8,8,43,42,9,8,0.8,0.7
2023-01-06T12:00:00,1885A,104.639,28.7562,宜宾市,市政府,细颗粒物(PM2.5),108,102,95,81,75,82,16,4,4,41,40,16,8,0.9,0.8
2023-01-06T12:00:00,1886A,104.5742,28.7199,宜宾市,黄金嘴,细颗粒物(PM2.5),93,97,89,69,65,90,40,11,11,36,39,10,9,0.9,0.9
2023-01-06T12:00:00,1888A,101.6891,26.571,攀枝花市,弄弄坪,细颗粒物(PM2.5),74,81,72,54,47,117,39,24,24,51,37,21,18,0.9,1.1
2023-01-06T12:00:00,1889A,101.5769,26.5928,攀枝花市,河门口,细颗粒物(PM2.5),93,102,83,69,51,134,41,38,17,54,36,73,28,4.1,2.1
2023-01-06T12:00:00,1890A,101.7169,26.585,攀枝花市,炳草岗,细颗粒物(PM2.5),74,86,92,54,58,120,29,7,7,56,60,27,21,1.3,1.9
2023-01-06T12:00:00,1891A,101.7369,26.5008,攀枝花市,仁和,,46,46,78,31,48,140,75,24,20,16,26,27,21,0.8,1.3
2023-01-06T12:00:00,1893A,105.4324,28.9634,泸州市,九狮山(对照点),颗粒物(PM10),61,72,70,41,49,50,14,3,3,24,17,6,7,0.6,0.6
2023-01-06T12:00:00,1894A,105.4427,28.9063,泸州市,小市上码头,细颗粒物(PM2.5),103,99,111,77,74,64,17,13,8,39,32,16,8,0.7,0.7
2023-01-06T12:00:00,1895A,105.4241,28.8573,泸州市,兰田宪桥,细颗粒物(PM2.5),98,93,93,73,68,57,15,6,6,39,33,8,8,1.0,0.9
2023-01-06T12:00:00,1896A,105.4379,28.8833,泸州市,市环监站,,,100,102,75,66,68,9,6,5,,34,7,5,,0.8
2023-01-06T12:00:00,1901A,104.4239,31.1208,德阳市,东山公园,细颗粒物(PM2.5),113,100,83,85,71,92,51,37,37,35,31,10,3,1.1,1
2023-01-06T12:00:00,1902A,104.3826,31.1317,德阳市,西小区,细颗粒物(PM2.5),120,122,99,91,77,85,26,5,5,52,51,8,4,1.2,1.1
2023-01-06T12:00:00,1904A,104.3553,31.1091,德阳市,耐火材料厂,细颗粒物(PM2.5),144,186,121,110,82,88,27,11,11,61,44,9,5,1.0,0.9
2023-01-06T12:00:00,1905A,106.056,30.8064,南充市,西山风景区(对照点),,,,,,,,,,,,,,,,
2023-01-06T12:00:00,1906A,106.0789,30.8023,南充市,南充市委,细颗粒物(PM2.5),143,141,99,109,67,45,8,3,3,24,22,5,6,1.2,1
2023-01-06T12:00:00,1907A,106.1031,30.8217,南充市,南充炼油厂,细颗粒物(PM2.5),110,100,97,83,69,59,5,1,1,34,33,7,8,,1
2023-01-06T12:00:00,1908A,106.1064,30.7856,南充市,高坪区监测站,细颗粒物(PM2.5),138,137,121,105,83,52,5,3,3,32,34,8,11,1.2,1.1
2023-01-06T12:00:00,1909A,106.0642,30.7636,南充市,嘉陵区环保局,细颗粒物(PM2.5),89,89,89,66,63,56,12,5,5,26,36,6,10,1.2,1.3
2023-01-06T12:00:00,1910A,106.1087,30.8388,南充市,市环境监测站,细颗粒物(PM2.5),99,107,97,74,70,52,5,1,1,35,33,8,10,0.9,0.7
2023-01-06T12:00:00,1911A,106.9222,27.6869,遵义市,丁字口,,31,31,50,21,39,69,69,23,23,14,27,16,40,0.8,1.3
2023-01-06T12:00:00,1912A,106.9242,27.7019,遵义市,凤凰山,,34,34,54,18,23,74,74,41,41,14,26,3,12,0.6,0.9
2023-01-06T12:00:00,1913A,106.8906,27.6486,遵义市,忠庄,,38,36,47,26,34,70,70,33,33,10,25,4,8,0.2,0.7
2023-01-06T12:00:00,1914A,106.9231,27.6506,遵义市,舟水桥,,45,45,64,29,41,62,62,18,18,15,23,23,49,0.7,1.1
2023-01-06T12:00:00,1915A,106.9178,27.72,遵义市,干田坝,,32,20,41,22,29,69,69,24,24,10,26,7,17,0.9,1.1
2023-01-06T12:00:00,1916A,103.7897,25.5035,曲靖市,环境监测站,,27,27,41,16,27,99,75,55,55,12,17,8,8,0.9,0.9
2023-01-06T12:00:00,1917A,103.8,25.5364,曲靖市,烟厂办公区,,37,37,38,25,24,98,76,56,56,10,15,8,8,0.7,0.7
2023-01-06T12:00:00,1918A,108.7197,34.3956,咸阳市,气象站(对照点),颗粒物(PM10),219,363,339,59,181,100,65,59,39,19,54,11,10,0.6,1.2
2023-01-06T12:00:00,1919A,108.673,34.3155,咸阳市,实验中学,,,,333,67,209,103,45,50,23,38,65,7,6,0.7,1.2
2023-01-06T12:00:00,1920A,108.7233,34.3617,咸阳市,师范学院,颗粒物(PM10),215,360,331,66,177,120,50,66,35,30,49,10,8,0.6,1.1
2023-01-06T12:00:00,1922A,109.0656,35.0994,铜川市,党校(对照点),颗粒物(PM10),138,225,197,18,82,103,60,31,31,25,64,12,15,0.6,1.2
2023-01-06T12:00:00,1923A,109.0697,35.0697,铜川市,王益区政府,颗粒物(PM10),144,237,192,43,140,105,38,12,12,49,60,10,10,1.0,1.3
2023-01-06T12:00:00,1924A,108.9344,34.9058,铜川市,新区管委会,颗粒物(PM10),149,247,246,36,137,130,56,38,38,27,51,18,19,0.5,1.1
2023-01-06T12:00:00,1926A,109.4131,36.6275,延安市,枣园(对照点),颗粒物(PM10),115,180,142,38,64,93,27,12,12,34,46,4,5,0.5,0.6
2023-01-06T12:00:00,1927A,109.4761,36.6028,延安市,延大医附院,颗粒物(PM10),122,193,141,40,69,83,30,12,12,39,59,6,8,0.6,1.3
2023-01-06T12:00:00,1929A,109.5056,36.6106,延安市,百米大道,颗粒物(PM10),130,210,150,52,76,85,28,16,16,60,68,13,12,1.9,1.6
2023-01-06T12:00:00,1930A,107.185,34.3063,宝鸡市,庙沟村(对照点),颗粒物(PM10),120,190,177,42,78,81,68,48,41,9,30,4,5,1.0,1.2
2023-01-06T12:00:00,1931A,107.0708,34.3017,宝鸡市,竹园沟,颗粒物(PM10),119,188,156,51,88,94,48,35,31,33,32,6,5,0.7,0.9
2023-01-06T12:00:00,1932A,107.1906,34.3672,宝鸡市,三陆医院,颗粒物(PM10),168,286,237,58,133,106,35,27,20,44,50,10,10,0.9,1.2
2023-01-06T12:00:00,1933A,107.1431,34.3547,宝鸡市,监测站,颗粒物(PM10),142,233,183,51,107,100,30,18,16,49,52,6,6,1.0,1.1
2023-01-06T12:00:00,1934A,107.1186,34.3739,宝鸡市,技工学校,颗粒物(PM10),154,257,182,74,137,103,40,27,20,42,44,8,8,0.8,1
2023-01-06T12:00:00,1935A,107.3906,34.3528,宝鸡市,陈仓区环保局家属楼,颗粒物(PM10),182,314,253,63,142,99,50,32,32,35,62,96,43,1.5,1.6
2023-01-06T12:00:00,1936A,107.2058,34.3497,宝鸡市,文理学院,颗粒物(PM10),157,263,209,49,117,110,35,21,21,45,50,8,8,0.8,1.1
2023-01-06T12:00:00,1937A,107.2386,34.3622,宝鸡市,三迪小学,颗粒物(PM10),175,299,232,58,132,92,23,16,14,54,61,9,9,1.0,1.2
2023-01-06T12:00:00,1938A,109.5293,34.5101,渭南市,农科所(对照点),颗粒物(PM10),172,293,310,92,186,107,53,68,44,35,57,16,10,0.6,1.3
2023-01-06T12:00:00,1939A,109.4974,34.4877,渭南市,日报社,颗粒物(PM10),164,278,304,73,196,79,40,62,39,41,70,10,11,0.8,1.6
2023-01-06T12:00:00,1940A,109.4636,34.493,渭南市,体育馆,颗粒物(PM10),169,288,307,86,202,80,35,54,35,36,60,8,10,0.7,1.3
2023-01-06T12:00:00,1941A,109.4259,34.5023,渭南市,高新一小,颗粒物(PM10),148,246,297,56,181,121,55,74,42,29,55,9,11,0.5,1.1
2023-01-06T12:00:00,1943A,102.1725,38.5339,金昌市,新川苑,颗粒物(PM10),78,105,206,30,25,79,74,71,47,23,20,90,27,0.9,0.7
2023-01-06T12:00:00,1944A,102.1692,38.5167,金昌市,天庆家园,颗粒物(PM10),77,103,179,42,25,80,80,76,40,20,26,89,31,1.0,0.8
2023-01-06T12:00:00,1945A,98.2908,39.7711,嘉峪关市,气象局,颗粒物(PM10),53,56,274,17,42,64,36,54,29,37,33,10,5,0.2,0.1
2023-01-06T12:00:00,1947A,106.3394,38.817,石嘴山市,沙湖旅游区(对照点),,,142,252,58,108,87,,86,40,20,37,7,15,0.8,1.3
2023-01-06T12:00:00,1948A,106.3668,39.0145,石嘴山市,大武口朝阳西街,颗粒物(PM10),106,162,196,38,76,73,52,45,45,39,43,42,22,1.6,1
2023-01-06T12:00:00,1949A,106.7704,39.2282,石嘴山市,惠农南大街,颗粒物(PM10),117,183,225,29,39,74,48,48,48,36,30,33,40,1.3,0.7
2023-01-06T12:00:00,1950A,106.7099,39.1325,石嘴山市,红果子镇惠新街,颗粒物(PM10),126,202,264,30,65,70,53,47,47,27,25,42,24,1.1,0.7
2023-01-06T12:00:00,1951A,84.895,45.6094,克拉玛依市,长征新村,,35,32,73,24,57,179,24,69,32,47,37,8,8,0.8,0.9
2023-01-06T12:00:00,1952A,84.8988,45.5893,克拉玛依市,南林小区,细颗粒物(PM2.5),64,55,83,46,76,78,19,62,21,57,42,8,4,1.0,0.8
2023-01-06T12:00:00,1954A,84.905,44.3396,克拉玛依市,独山子区,颗粒物(PM10),52,54,90,34,56,95,85,79,79,14,28,8,7,0.6,0.8
2023-01-06T12:00:00,1955A,85.6979,46.098,克拉玛依市,乌尔禾区商贸楼,颗粒物(PM10),51,51,61,35,55,84,51,82,48,28,28,5,5,0.8,0.8
2023-01-06T12:00:00,1956A,86.1472,41.7538,巴音郭楞州,孔雀公园,颗粒物(PM10),96,141,135,69,46,84,4,41,11,79,39,16,16,1.8,0.8
2023-01-06T12:00:00,1957A,86.1972,41.7166,巴音郭楞州,棉纺厂,颗粒物(PM10),127,204,160,57,50,84,8,26,16,86,61,5,7,2.0,0.8
2023-01-06T12:00:00,1958A,86.2357,41.7173,巴音郭楞州,经济开发区,颗粒物(PM10),136,222,133,42,35,75,36,58,31,47,29,5,6,0.9,0.6
2023-01-06T12:00:00,1961A,117.532,36.6868,济南市,东山小学,颗粒物(PM10),144,237,209,103,146,117,71,116,85,30,46,10,9,0.8,0.9
2023-01-06T12:00:00,1966A,120.0405,35.8735,青岛市,黄岛区4号,细颗粒物(PM2.5),199,180,168,149,142,83,73,38,38,69,81,15,14,1.5,1.7
2023-01-06T12:00:00,1982A,122.0693,37.2174,威海市,文登开发区,细颗粒物(PM2.5),104,92,168,78,137,129,82,54,54,28,50,6,8,0.8,1.2
2023-01-06T12:00:00,2031A,113.1817,27.9958,株洲市,云田中学,细颗粒物(PM2.5),254,205,183,204,174,105,83,54,37,37,39,10,7,1.3,1.1
2023-01-06T12:00:00,2054A,114.1099,32.1059,信阳市,平桥分局,细颗粒物(PM2.5),152,135,226,116,198,89,88,41,41,21,53,9,9,0.8,1.3
2023-01-06T12:00:00,2064A,113.9956,32.1271,信阳市,南湾水厂,细颗粒物(PM2.5),134,89,209,102,189,107,94,61,61,13,29,7,7,1.0,1.4
2023-01-06T12:00:00,2065A,114.0775,32.1195,信阳市,市酿酒公司,细颗粒物(PM2.5),175,135,224,132,207,91,86,31,31,23,65,9,9,1.2,1.7
2023-01-06T12:00:00,2066A,114.0609,32.1399,信阳市,审计局,细颗粒物(PM2.5),175,144,236,132,205,104,82,36,36,24,57,14,14,1.2,1.7
2023-01-06T12:00:00,2067A,114.6613,33.6128,周口市,市环境监测站,细颗粒物(PM2.5),235,294,328,185,283,91,70,60,57,29,61,9,8,1.2,1.6
2023-01-06T12:00:00,2068A,114.6758,33.6347,周口市,周口师范,细颗粒物(PM2.5),253,286,331,203,297,92,71,76,64,39,62,10,10,1.5,1.8
2023-01-06T12:00:00,2069A,114.6546,33.5979,周口市,市运管处,细颗粒物(PM2.5),245,286,327,195,298,93,72,68,61,36,59,9,9,2.4,1.9
2023-01-06T12:00:00,2070A,114.6369,33.6406,周口市,川汇区环保局,细颗粒物(PM2.5),237,272,343,187,296,94,67,60,48,36,64,10,9,1.4,1.8
2023-01-06T12:00:00,2075A,117.6336,24.4674,漳州市,九湖(对照点),,,,,,,,,,,,,,,,
2023-01-06T12:00:00,2160A,112.85,35.5051,晋城市,自来水公司,颗粒物(PM10),109,167,159,56,117,105,83,105,61,31,56,8,18,1.1,2.2
2023-01-06T12:00:00,2161A,112.8318,35.4936,晋城市,白云商贸,颗粒物(PM10),119,188,155,80,123,96,83,96,72,20,47,7,15,0.8,1.8
2023-01-06T12:00:00,2162A,112.8508,35.4887,晋城市,市环保局,颗粒物(PM10),106,161,173,56,126,99,88,99,61,17,50,9,19,0.7,1.8
2023-01-06T12:00:00,2163A,112.8676,35.4897,晋城市,技术学院,颗粒物(PM10),109,168,157,66,126,104,84,104,58,22,50,5,15,0.7,1.7
2023-01-06T12:00:00,2165A,112.8453,35.546,晋城市,白马寺 (对照点),,,,,,,,,,,,,,,,
2023-01-06T12:00:00,2166A,112.4397,39.3522,朔州市,平朔,颗粒物(PM10),101,151,168,30,36,86,75,70,68,8,15,4,9,0.4,0.5
2023-01-06T12:00:00,2167A,112.4575,39.3617,朔州市,朔唯,颗粒物(PM10),102,153,192,30,39,90,80,74,72,5,16,4,7,0.3,0.4
2023-01-06T12:00:00,2168A,112.4258,39.3197,朔州市,区政府,颗粒物(PM10),109,168,150,26,32,96,78,75,70,8,17,4,8,0.4,0.5
2023-01-06T12:00:00,2169A,112.4072,39.3278,朔州市,市环保局,颗粒物(PM10),114,178,148,44,41,91,71,70,64,8,18,8,11,0.4,0.6
2023-01-06T12:00:00,2170A,112.4272,39.3681,朔州市,市二中,颗粒物(PM10),107,163,158,30,34,97,78,74,72,5,13,4,7,0.0,0.3
2023-01-06T12:00:00,2171A,112.7532,37.6945,晋中市,锦纶小区,颗粒物(PM10),160,269,192,70,113,57,57,28,28,24,69,18,40,0.6,1.5
2023-01-06T12:00:00,2173A,112.7249,37.7067,晋中市,南都小区,颗粒物(PM10),156,262,193,,102,55,,25,25,24,71,18,37,,1.6
2023-01-06T12:00:00,2174A,112.6991,37.6982,晋中市,榆次区政府,颗粒物(PM10),152,254,199,52,98,57,57,28,28,21,66,20,40,0.7,1.5
2023-01-06T12:00:00,2175A,110.9956,35.0147,运城市,运城中学,颗粒物(PM10),180,309,302,113,225,118,62,66,38,23,42,8,14,0.6,1.7
2023-01-06T12:00:00,2178A,110.9686,35.0303,运城市,地区技校,,,,299,,237,101,60,50,35,,46,,20,0.8,1.9
2023-01-06T12:00:00,2179A,111.0414,35.1147,运城市,空港新区,细颗粒物(PM2.5),221,333,337,171,271,122,63,32,30,28,56,17,16,0.8,2.1
2023-01-06T12:00:00,2181A,112.7383,38.4519,忻州市,开发区,颗粒物(PM10),75,100,147,16,81,77,77,48,48,9,52,5,23,0.9,1.5
2023-01-06T12:00:00,2182A,112.7003,38.4928,忻州市,会展中心,颗粒物(PM10),70,89,135,23,80,50,50,31,31,31,59,6,19,0.5,1.2
2023-01-06T12:00:00,2183A,111.1406,37.5211,吕梁市,环保局,颗粒物(PM10),127,204,151,53,59,54,17,4,4,54,71,27,22,0.9,1.1
2023-01-06T12:00:00,2185A,111.1297,37.5136,吕梁市,自来水公司,颗粒物(PM10),130,210,160,50,60,52,14,5,5,51,66,30,22,1.0,1.1
2023-01-06T12:00:00,2187A,106.8174,39.6973,乌海市,市林业局,颗粒物(PM10),75,100,262,21,52,88,75,88,66,13,14,11,9,0.5,0.5
2023-01-06T12:00:00,2188A,106.7907,39.6667,乌海市,中海勃湾学校,,,143,261,38,45,90,,90,69,13,16,9,9,0.4,0.4
2023-01-06T12:00:00,2191A,122.2532,43.6801,通辽市,艺术职业学校,颗粒物(PM10),56,61,142,34,97,55,38,22,22,16,44,10,13,0,0.8
2023-01-06T12:00:00,2192A,119.7594,49.2261,呼伦贝尔市,区环保局,,33,28,45,23,36,60,35,25,25,24,39,14,8,0.4,0.5
2023-01-06T12:00:00,2195A,107.4212,40.761,巴彦淖尔市,附二中,颗粒物(PM10),95,140,279,32,45,83,79,81,76,8,9,4,4,0.4,0.4
2023-01-06T12:00:00,2196A,107.37,40.7372,巴彦淖尔市,市环保大楼,颗粒物(PM10),93,136,259,38,48,85,82,79,76,10,12,4,4,0.4,0.4
2023-01-06T12:00:00,2197A,113.1306,40.9923,乌兰察布市,集宁新区,颗粒物(PM10),72,94,114,17,37,77,77,63,63,4,22,6,15,0.5,0.6
2023-01-06T12:00:00,2200A,122.0392,46.0656,兴安盟,胜华新制药厂,,,26,66,15,48,69,,15,15,30,37,5,7,0.6,0.9
2023-01-06T12:00:00,2201A,121.9504,46.0741,兴安盟,科右前旗环保局,,35,32,45,24,33,72,57,22,22,12,31,4,3,0.5,0.9
2023-01-06T12:00:00,2202A,116.1042,43.9317,锡林郭勒盟,市环保监测站,颗粒物(PM10),151,252,254,70,54,76,69,72,69,5,11,6,7,0.4,0.4
2023-01-06T12:00:00,2203A,116.0781,43.9311,锡林郭勒盟,市政府,颗粒物(PM10),176,302,228,66,52,76,68,72,68,8,10,,8,,0.4
2023-01-06T12:00:00,2204A,105.6467,38.8363,阿拉善盟,西城区西花园(对照点),,43,43,234,18,44,85,84,83,68,9,15,6,7,0.4,0.5
2023-01-06T12:00:00,2205A,105.6985,38.8411,阿拉善盟,蒙二幼,颗粒物(PM10),61,72,240,26,58,88,85,82,68,8,13,10,11,0.2,0.3
2023-01-06T12:00:00,2206A,105.724,38.8516,阿拉善盟,环保局新楼,,42,42,157,16,47,89,87,88,82,6,8,13,10,0.3,0.3
2023-01-06T12:00:00,2207A,121.6094,41.998,阜新市,工业园区,细颗粒物(PM2.5),222,287,259,172,166,58,14,12,12,61,48,102,41,2.5,2.6
2023-01-06T12:00:00,2208A,121.6697,42.0279,阜新市,长青街,细颗粒物(PM2.5),176,204,189,133,119,62,25,12,12,59,51,153,54,2.0,2.4
2023-01-06T12:00:00,2209A,121.6673,42.0705,阜新市,农业园区,细颗粒物(PM2.5),143,161,166,109,115,57,34,15,15,41,58,68,77,1.5,1.5
2023-01-06T12:00:00,2210A,121.6717,42.0224,阜新市,东苑,细颗粒物(PM2.5),186,177,195,140,142,57,26,12,12,46,52,147,82,2.2,3
2023-01-06T12:00:00,2211A,121.6506,42.0498,阜新市,玉龙新城,细颗粒物(PM2.5),183,248,189,138,126,59,25,13,13,50,46,127,37,1.8,1.8
2023-01-06T12:00:00,2212A,123.2,41.1953,辽阳市,宏伟区,细颗粒物(PM2.5),142,120,82,108,70,76,74,71,71,26,31,14,14,1.1,1
2023-01-06T12:00:00,2213A,123.1683,41.2495,辽阳市,新华园,细颗粒物(PM2.5),165,131,98,125,81,64,62,61,61,24,37,15,19,1.2,1.2
2023-01-06T12:00:00,2214A,123.2354,41.2639,辽阳市,滨河路,细颗粒物(PM2.5),189,111,82,142,88,74,69,69,69,32,32,11,13,0.9,0.9
2023-01-06T12:00:00,2215A,123.149,41.2991,辽阳市,铁西工业园,细颗粒物(PM2.5),198,145,109,148,98,63,63,57,57,32,41,17,18,1.2,1.3
2023-01-06T12:00:00,2216A,123.8139,42.3022,铁岭市,汇工街西,细颗粒物(PM2.5),137,104,125,104,109,48,43,44,44,52,58,22,24,1.1,1.6
2023-01-06T12:00:00,2217A,123.8649,42.2923,铁岭市,水上乐园,细颗粒物(PM2.5),134,114,107,102,102,50,49,39,39,35,50,21,23,0.8,1.3
2023-01-06T12:00:00,2218A,123.8486,42.2867,铁岭市,银州路东段,细颗粒物(PM2.5),110,102,129,83,91,49,48,36,36,48,61,12,15,1.3,1.7
2023-01-06T12:00:00,2219A,123.7153,42.2217,铁岭市,金沙江路北,细颗粒物(PM2.5),128,84,119,97,110,65,65,57,57,30,57,16,20,1.0,1.6
2023-01-06T12:00:00,2220A,120.4318,41.5881,朝阳市,西梁,颗粒物(PM10),196,342,175,140,109,40,13,4,4,65,55,31,37,2.1,2.2
2023-01-06T12:00:00,2221A,120.4521,41.5646,朝阳市,河畔小区,细颗粒物(PM2.5),183,314,141,138,96,45,32,16,16,60,51,41,26,2.2,2
2023-01-06T12:00:00,2222A,120.4176,41.5648,朝阳市,八里堡,颗粒物(PM10),222,365,171,113,113,62,33,17,17,49,58,21,33,1.2,2
2023-01-06T12:00:00,2223A,120.3806,41.5969,朝阳市,农业园区,颗粒物(PM10),500,729,185,90,90,64,64,25,25,12,52,9,28,0.6,1.6
2023-01-06T12:00:00,2225A,124.4002,43.1713,四平市,一商场,细颗粒物(PM2.5),114,108,109,86,82,56,56,38,38,44,60,15,17,1.0,1.3
2023-01-06T12:00:00,2226A,124.388,43.193,四平市,境园,细颗粒物(PM2.5),107,103,108,80,78,57,47,24,24,44,59,16,17,1.1,1.5
2023-01-06T12:00:00,2227A,125.1358,42.8845,辽源市,环保局,细颗粒物(PM2.5),138,124,115,105,94,69,34,17,17,51,51,16,14,1.7,1.8
2023-01-06T12:00:00,2229A,125.9358,41.7173,通化市,光明,细颗粒物(PM2.5),94,95,114,70,70,28,12,7,7,60,65,53,56,1.0,1.4
2023-01-06T12:00:00,2230A,125.9446,41.7325,通化市,铁路,细颗粒物(PM2.5),93,108,127,69,73,24,17,11,11,63,69,46,58,1.5,1.9
2023-01-06T12:00:00,2231A,126.4219,41.9171,白山市,喜丰,颗粒物(PM10),76,101,92,53,54,38,20,16,16,43,41,25,22,1.2,1.2
2023-01-06T12:00:00,2232A,126.4077,41.9419,白山市,环保局,细颗粒物(PM2.5),94,108,111,70,69,49,12,10,10,64,53,28,25,2.0,1.7
2023-01-06T12:00:00,2233A,124.8006,45.1214,松原市,江南,细颗粒物(PM2.5),104,147,105,78,108,50,37,15,15,28,46,12,14,0.8,1.2
2023-01-06T12:00:00,2234A,124.7965,45.1722,松原市,江北,细颗粒物(PM2.5),143,171,118,109,87,52,,12,12,36,51,12,7,0.9,1.2
2023-01-06T12:00:00,2235A,122.7911,45.6077,白城市,洮北区环保局,细颗粒物(PM2.5),98,73,68,73,52,63,56,44,44,17,29,13,10,0.6,0.7
2023-01-06T12:00:00,2236A,122.8738,45.5725,白城市,市环保局,颗粒物(PM10),54,57,56,11,15,69,60,44,44,16,30,11,9,0.5,0.5
2023-01-06T12:00:00,2237A,129.47,42.8883,延边朝鲜族自治州,妇幼医院,细颗粒物(PM2.5),87,107,56,64,40,69,17,24,15,66,37,35,20,1.8,1
2023-01-06T12:00:00,2238A,129.5055,42.9108,延边朝鲜族自治州,延边医院,细颗粒物(PM2.5),89,110,70,66,56,77,24,20,18,61,40,15,13,1.7,1.2
2023-01-06T12:00:00,2239A,129.3964,42.8881,延边朝鲜族自治州,朝阳川镇医院,细颗粒物(PM2.5),58,64,65,41,41,74,25,23,15,33,21,48,13,1.0,0.9
2023-01-06T12:00:00,2240A,130.9762,45.3001,鸡西市,环保局,细颗粒物(PM2.5),130,121,64,99,48,65,48,52,23,33,42,23,15,1.5,1.1
2023-01-06T12:00:00,2243A,130.9429,45.3039,鸡西市,第一中学,细颗粒物(PM2.5),90,93,46,67,35,71,58,53,48,19,17,16,11,1.0,0.7
2023-01-06T12:00:00,2244A,130.2537,47.3416,鹤岗市,哈啤分公司,,28,25,58,19,34,64,64,62,58,8,21,11,13,0.3,0.5
2023-01-06T12:00:00,2245A,130.2684,47.3086,鹤岗市,斯达机电,,,31,54,19,33,69,69,63,58,,27,10,12,0.4,0.5
2023-01-06T12:00:00,2246A,130.3114,47.3388,鹤岗市,东山纸板厂,,38,38,102,21,49,62,62,36,36,6,40,15,19,0.0,0.9
2023-01-06T12:00:00,2247A,130.1097,47.3382,鹤岗市,五号水库(对照点),,,,34,19,31,72,70,55,55,5,12,8,7,0.6,0.7
2023-01-06T12:00:00,2248A,131.1511,46.6937,双鸭山市,双合村,细颗粒物(PM2.5),166,58,83,126,60,74,67,36,28,11,25,11,12,0.7,1.5
2023-01-06T12:00:00,2249A,131.1652,46.6191,双鸭山市,南小市,颗粒物(PM10),85,119,75,50,48,69,64,50,30,12,24,11,15,0.5,0.7
2023-01-06T12:00:00,2250A,131.1524,46.6554,双鸭山市,环保局,,33,28,66,23,51,70,70,45,24,11,39,7,18,0.5,1.1
2023-01-06T12:00:00,2251A,131.12,46.5656,双鸭山市,苗圃(对照点),细颗粒物(PM2.5),53,42,46,37,44,81,59,61,52,25,18,14,9,0.7,0.6
2023-01-06T12:00:00,2252A,128.5159,47.4311,伊春市,环保局,细颗粒物(PM2.5),113,80,60,85,54,59,28,34,24,32,26,5,7,1.2,0.8
2023-01-06T12:00:00,2253A,128.9102,47.7412,伊春市,电力嘉园,细颗粒物(PM2.5),78,97,76,57,50,64,29,34,17,28,29,8,8,1.3,0.9
2023-01-06T12:00:00,2254A,129.5029,48.471,伊春市,汤旺河国家公园(对照点),,20,17,36,13,27,76,61,50,44,3,5,6,6,0.5,0.2
2023-01-06T12:00:00,2255A,130.2751,46.8028,佳木斯市,佳纺,细颗粒物(PM2.5),213,218,87,163,69,68,38,18,17,26,26,12,8,0.8,1
2023-01-06T12:00:00,2256A,130.3995,46.8307,佳木斯市,发电厂,细颗粒物(PM2.5),100,78,56,75,44,66,63,31,28,13,32,5,7,0.4,0.6
2023-01-06T12:00:00,2257A,130.3258,46.7975,佳木斯市,环保局,细颗粒物(PM2.5),83,81,57,61,44,62,57,23,20,16,27,5,9,0.4,0.6
2023-01-06T12:00:00,2258A,130.3648,46.8032,佳木斯市,十一中,细颗粒物(PM2.5),59,63,61,42,54,58,51,25,25,23,47,4,6,0.5,0.9
2023-01-06T12:00:00,2259A,130.3794,46.7588,佳木斯市,四丰(对照点),细颗粒物(PM2.5),100,82,44,75,38,84,56,66,64,41,18,1,2,0.7,0.5
2023-01-06T12:00:00,2262A,131.0518,45.8751,七台河市,新一中(对照点),细颗粒物(PM2.5),114,106,64,86,50,80,62,43,43,28,30,18,15,1.2,1.1
2023-01-06T12:00:00,2263A,127.4833,50.2524,黑河市,交通局,,17,11,15,11,14,63,52,55,53,10,6,1,2,0.5,0.4
2023-01-06T12:00:00,2264A,127.5144,50.2341,黑河市,环保局,,39,39,33,22,20,52,3,48,22,25,16,22,8,0.7,0.4
2023-01-06T12:00:00,2265A,127.5291,50.2472,黑河市,大黑河岛(对照点),,39,39,11,25,10,60,50,54,51,2,3,13,4,0.5,0.3
2023-01-06T12:00:00,2266A,126.9785,46.6365,绥化市,人和东街,细颗粒物(PM2.5),217,195,181,167,151,49,19,9,9,63,56,13,10,1.5,1.3
2023-01-06T12:00:00,2267A,126.964,46.6528,绥化市,党政办公中心,细颗粒物(PM2.5),234,218,176,184,152,59,26,13,13,56,56,11,9,1.4,1.2
2023-01-06T12:00:00,2269A,124.1069,50.4097,大兴安岭地区,科技局,,15,13,19,9,17,59,46,44,43,6,9,2,6,0.3,0.3
2023-01-06T12:00:00,2270A,117.396,32.939,蚌埠市,工人疗养院,细颗粒物(PM2.5),193,203,158,145,120,122,82,45,45,32,58,,16,1.0,1
2023-01-06T12:00:00,2271A,117.3605,32.9427,蚌埠市,百货大楼,细颗粒物(PM2.5),192,222,163,144,128,122,,48,31,32,65,16,15,,0.9
2023-01-06T12:00:00,2273A,117.4185,32.8911,蚌埠市,蚌埠学院,细颗粒物(PM2.5),168,190,173,127,117,125,90,52,31,31,73,12,14,0.9,0.8
2023-01-06T12:00:00,2274A,117.3533,32.9673,蚌埠市,淮上区政府,细颗粒物(PM2.5),156,193,170,119,122,122,92,44,44,23,57,11,13,0.8,0.8
2023-01-06T12:00:00,2275A,117.3145,32.8977,蚌埠市,高新区,细颗粒物(PM2.5),163,202,170,124,126,124,80,24,24,34,87,12,10,0.9,0.9
2023-01-06T12:00:00,2277A,116.8305,32.7727,淮南市,潘集区政府,细颗粒物(PM2.5),219,211,226,169,181,132,82,42,42,24,58,6,9,0.7,0.9
2023-01-06T12:00:00,2278A,117.0067,32.6524,淮南市,师范学院,细颗粒物(PM2.5),180,164,204,136,147,111,80,50,50,29,72,11,13,0.9,1.4
2023-01-06T12:00:00,2279A,116.8569,32.5951,淮南市,谢家集区政府,细颗粒物(PM2.5),195,197,182,146,137,127,81,67,42,29,43,10,13,0.7,0.7
2023-01-06T12:00:00,2280A,116.8281,32.633,淮南市,八公山区政府,细颗粒物(PM2.5),168,134,171,127,155,131,84,83,79,15,26,11,14,0.7,0.7
2023-01-06T12:00:00,2281A,116.6325,32.6201,淮南市,焦岗湖风景区管理处(对照点),细颗粒物(PM2.5),178,174,191,134,150,91,89,46,46,2,5,18,18,0.5,0.7
2023-01-06T12:00:00,2282A,116.8004,33.975,淮北市,监测站,细颗粒物(PM2.5),258,314,196,208,151,143,88,67,66,27,45,11,13,1.3,1.1
2023-01-06T12:00:00,2283A,116.8091,33.9007,淮北市,烈山区政府,细颗粒物(PM2.5),246,261,204,196,169,156,90,38,38,46,79,11,10,1.4,1
2023-01-06T12:00:00,2284A,116.7856,33.9477,淮北市,职业技术学院,细颗粒物(PM2.5),265,294,217,215,172,151,105,72,72,44,79,12,15,1.3,1.1
2023-01-06T12:00:00,2285A,117.8177,30.9412,铜陵市,市第四中学,"颗粒物(PM10),细颗粒物(PM2.5)",103,155,148,77,96,62,52,21,21,47,69,19,13,1.3,1.2
2023-01-06T12:00:00,2286A,117.8059,30.9273,铜陵市,市公路局,细颗粒物(PM2.5),108,127,129,81,101,57,54,22,22,36,58,16,10,1.6,1
2023-01-06T12:00:00,2287A,117.7807,30.9413,铜陵市,市新民污水厂,细颗粒物(PM2.5),97,120,134,72,82,58,54,13,13,34,64,14,11,0.7,0.6
2023-01-06T12:00:00,2288A,117.7439,30.8792,铜陵市,市第九中学,细颗粒物(PM2.5),99,114,148,74,95,61,61,15,15,36,65,15,11,1.0,0.9
2023-01-06T12:00:00,2289A,117.846,30.9413,铜陵市,车站新区,细颗粒物(PM2.5),105,,102,79,96,61,54,26,26,34,62,13,11,1.2,0.8
2023-01-06T12:00:00,2290A,117.8483,30.97,铜陵市,市职教基地,细颗粒物(PM2.5),99,98,119,74,85,64,46,20,20,37,50,21,12,0.7,0.7
2023-01-06T12:00:00,2291A,117.0809,30.5177,安庆市,环科院,细颗粒物(PM2.5),140,122,121,107,99,72,70,36,19,26,45,8,8,0.9,0.9
2023-01-06T12:00:00,2292A,117.0331,30.5119,安庆市,马山宾馆,细颗粒物(PM2.5),143,128,116,109,89,70,58,38,17,41,48,9,9,0.9,0.9
2023-01-06T12:00:00,2294A,116.9896,30.6145,安庆市,安庆大学,细颗粒物(PM2.5),143,123,107,109,97,84,74,30,20,32,50,9,8,0.8,0.8
2023-01-06T12:00:00,2295A,118.2903,29.6963,黄山市,延安路89号,,,42,55,23,42,64,60,12,12,,24,5,5,,0.5
2023-01-06T12:00:00,2296A,118.327,29.7178,黄山市,黄山东路89号,细颗粒物(PM2.5),53,45,59,37,47,52,52,11,11,18,24,6,6,0.6,0.8
2023-01-06T12:00:00,2297A,118.1371,30.2756,黄山市,黄山区政府5号楼,,43,43,34,18,20,65,65,16,16,13,14,6,5,0.7,0.7
2023-01-06T12:00:00,2298A,118.3093,32.3153,滁州市,老年大学,,,,124,,102,115,,44,44,29,53,8,9,,0.9
2023-01-06T12:00:00,2299A,118.3244,32.2786,滁州市,人大宾馆,细颗粒物(PM2.5),123,157,140,93,85,107,93,44,44,35,65,11,8,0.7,0.8
2023-01-06T12:00:00,2301A,115.8277,32.8929,阜阳市,市监测站,细颗粒物(PM2.5),198,179,208,148,182,119,80,68,68,28,53,11,10,0.9,1.1
2023-01-06T12:00:00,2303A,115.8554,32.8605,阜阳市,开发区,细颗粒物(PM2.5),173,193,254,131,180,128,89,54,54,26,59,9,8,0.9,1.1
2023-01-06T12:00:00,2307A,116.5079,31.737,六安市,监测大楼,细颗粒物(PM2.5),70,59,129,51,105,67,67,38,38,23,61,7,8,0.6,0.8
2023-01-06T12:00:00,2308A,116.4738,31.7643,六安市,皖西学院,细颗粒物(PM2.5),63,73,140,45,99,75,75,32,32,25,60,4,6,0.5,0.7
2023-01-06T12:00:00,2309A,116.4996,31.7905,六安市,朝阳厂,细颗粒物(PM2.5),70,74,119,51,99,92,85,56,56,21,53,5,7,0.6,0.8
2023-01-06T12:00:00,2310A,116.5567,31.7886,六安市,开发区,细颗粒物(PM2.5),69,76,159,50,103,75,75,31,31,19,62,6,9,0.5,0.8
2023-01-06T12:00:00,2311A,115.8072,33.8399,亳州市,污水处理厂,细颗粒物(PM2.5),234,222,232,184,188,98,69,57,57,27,53,8,8,1.1,1.2
2023-01-06T12:00:00,2312A,115.7789,33.8518,亳州市,三国揽胜宫,细颗粒物(PM2.5),278,295,279,228,209,116,78,63,63,24,43,6,6,1.1,1.3
2023-01-06T12:00:00,2314A,117.47,30.6618,池州市,池州学院,细颗粒物(PM2.5),112,101,128,84,106,81,81,23,23,16,46,8,6,0.8,0.8
2023-01-06T12:00:00,2316A,118.7581,30.9454,宣城市,鳌峰子站,细颗粒物(PM2.5),79,96,134,58,103,87,87,40,40,11,50,7,8,0.7,1.1
2023-01-06T12:00:00,2317A,118.7385,30.9743,宣城市,敬亭山子站,细颗粒物(PM2.5),74,90,133,54,98,90,90,38,38,13,52,8,14,0.6,1
2023-01-06T12:00:00,2318A,118.7173,30.9427,宣城市,开发区子站,细颗粒物(PM2.5),75,69,130,55,97,95,95,34,34,10,48,6,7,0.7,1
2023-01-06T12:00:00,2319A,119.0141,25.4325,莆田市,荔城区仓后路,,36,36,26,12,14,88,68,61,60,8,12,6,6,0.6,0.6
2023-01-06T12:00:00,2320A,119.0015,25.4553,莆田市,莆田市监测站,,22,20,20,10,13,88,70,62,56,3,6,5,6,0.5,0.5
2023-01-06T12:00:00,2321A,119.1119,25.4561,莆田市,涵江区六中,颗粒物(PM10),53,56,26,32,18,85,57,64,52,29,15,5,4,0.6,0.6
2023-01-06T12:00:00,2322A,119.1013,25.3215,莆田市,秀屿区政府,,25,25,28,17,19,79,63,58,50,15,15,8,7,0.5,0.5
2023-01-06T12:00:00,2323A,118.981,25.4792,莆田市,东圳水库(对照点),,,,,,,,,,,,,,,,
2023-01-06T12:00:00,2324A,117.6211,26.2625,三明市,三钢,颗粒物(PM10),57,64,37,31,27,76,35,11,9,19,25,9,7,0.8,0.6
2023-01-06T12:00:00,2325A,117.635,26.2714,三明市,三明二中,颗粒物(PM10),59,68,31,27,23,72,32,18,10,20,24,10,10,0.6,0.6
2023-01-06T12:00:00,2326A,117.6028,26.2378,三明市,三元区政府,,,,38,66,32,70,25,12,12,34,25,,5,3.1,1
2023-01-06T12:00:00,2327A,117.7275,26.3108,三明市,洋溪(对照点),,,,,,,,,,,,,,,,
2023-01-06T12:00:00,2331A,118.0966,26.6761,南平市,茫荡山(对照点),,,,,,,,,,,,,,,,
2023-01-06T12:00:00,2332A,118.1681,26.6369,南平市,南平市监测站,,42,38,33,29,27,73,39,12,12,15,22,4,4,0.5,0.5
2023-01-06T12:00:00,2333A,118.1825,26.6489,南平市,南平铝业有限公司,,,36,32,21,25,64,38,11,11,10,24,,6,0.5,0.6
2023-01-06T12:00:00,2334A,118.1756,26.6272,南平市,南平七中,,45,45,32,3,23,75,42,17,17,16,21,4,4,0.5,0.5
2023-01-06T12:00:00,2335A,117.0189,25.1181,龙岩市,龙岩师专(对照点),,,,,,,,,,,,,,,,
2023-01-06T12:00:00,2336A,117.0217,25.1033,龙岩市,龙岩市监测站,,39,30,24,27,18,86,55,41,41,15,18,9,10,0.6,0.5
2023-01-06T12:00:00,2337A,117.0258,25.0661,龙岩市,闽西职业技术学院,,37,37,34,25,18,85,53,21,21,11,23,8,8,0.6,0.6
2023-01-06T12:00:00,2338A,117.0196,25.0306,龙岩市,龙岩学院,,31,31,24,20,17,90,55,30,30,15,16,5,5,0.5,0.4
2023-01-06T12:00:00,2339A,119.5001,26.6946,宁德市,金涵水库(对照点),,,,,,,,,,,,,,,,
2023-01-06T12:00:00,2341A,119.5388,26.6612,宁德市,宁德市监测站,,42,42,39,22,25,51,50,31,26,14,25,4,4,0.5,0.7
2023-01-06T12:00:00,2342A,117.3102,29.3867,景德镇市,王港中学(对照点),,,,,,,,,,,,,,,,
2023-01-06T12:00:00,2343A,117.2117,29.2933,景德镇市,老干部活动中心,细颗粒物(PM2.5),84,106,74,62,38,63,63,12,12,24,24,14,10,0.6,0.8
2023-01-06T12:00:00,2344A,117.1894,29.2789,景德镇市,兽医站,细颗粒物(PM2.5),67,82,57,48,39,80,80,20,20,21,24,14,10,0.9,0.8
2023-01-06T12:00:00,2345A,117.1547,29.2617,景德镇市,台达陶瓷,细颗粒物(PM2.5),62,69,58,44,32,77,77,20,20,26,34,23,14,1.0,0.9
2023-01-06T12:00:00,2346A,117.2461,29.2956,景德镇市,陶研所,细颗粒物(PM2.5),87,101,60,64,27,61,58,16,16,42,25,25,7,1.0,0.7
2023-01-06T12:00:00,2347A,114.0997,27.5002,萍乡市,武功山(对照点),细颗粒物(PM2.5),95,87,47,71,38,84,80,33,33,20,21,10,8,0.8,0.7
2023-01-06T12:00:00,2348A,113.8385,27.6434,萍乡市,中医院,细颗粒物(PM2.5),203,207,140,153,104,104,71,42,42,45,47,14,11,1.9,1.6
2023-01-06T12:00:00,2349A,113.8493,27.6253,萍乡市,市政府车库,细颗粒物(PM2.5),243,207,130,193,109,112,79,45,45,25,31,16,16,1.2,1.4
2023-01-06T12:00:00,2350A,113.8676,27.6435,萍乡市,市环保局,细颗粒物(PM2.5),189,172,111,142,90,98,69,42,42,29,33,19,18,1.0,1
2023-01-06T12:00:00,2351A,113.866,27.6198,萍乡市,安源区政府,颗粒物(PM10),106,161,122,,103,102,78,51,51,31,33,16,16,1.1,1.2
2023-01-06T12:00:00,2352A,115.0861,27.9317,新余市,北岗(对照点),细颗粒物(PM2.5),63,56,42,45,32,65,62,24,20,17,18,10,9,0.6,0.3
2023-01-06T12:00:00,2353A,114.9886,27.8431,新余市,飞宇,"颗粒物(PM10),细颗粒物(PM2.5)",60,70,61,43,33,73,61,20,20,24,33,15,13,0.6,0.6
2023-01-06T12:00:00,2354A,114.9231,27.8246,新余市,第二水厂,颗粒物(PM10),71,91,72,49,42,70,50,15,14,35,42,16,14,0.8,0.7
2023-01-06T12:00:00,2355A,114.9308,27.8036,新余市,市气象局,细颗粒物(PM2.5),87,85,68,64,45,66,49,24,16,32,36,16,15,1.0,1
2023-01-06T12:00:00,2357A,116.9822,28.1136,鹰潭市,龙虎山(对照点),细颗粒物(PM2.5),69,35,44,50,37,104,104,36,36,10,19,4,6,0.3,0.4
2023-01-06T12:00:00,2358A,117.0564,28.2642,鹰潭市,新监测站,细颗粒物(PM2.5),77,56,52,56,44,67,67,39,28,27,28,13,15,0.6,0.6
2023-01-06T12:00:00,2359A,117.0311,28.2475,鹰潭市,财苑宾馆,细颗粒物(PM2.5),78,51,55,57,43,81,81,34,26,17,25,6,18,0.5,0.6
2023-01-06T12:00:00,2360A,117.0222,28.2264,鹰潭市,体育馆,细颗粒物(PM2.5),79,48,49,58,45,83,83,33,27,19,31,2,10,0.5,0.6
2023-01-06T12:00:00,2361A,117.0017,28.2131,鹰潭市,三川水表,,,,51,,48,84,84,32,32,,30,7,7,0.4,0.4
2023-01-06T12:00:00,2362A,114.9017,25.9149,赣州市,通天岩(对照点),,33,30,27,23,25,90,90,65,58,7,10,3,3,1.0,1
2023-01-06T12:00:00,2363A,114.9367,25.8664,赣州市,地委,颗粒物(PM10),54,58,52,30,33,92,62,47,40,55,24,18,17,0.8,0.8
2023-01-06T12:00:00,2364A,114.9461,25.8481,赣州市,气象台,颗粒物(PM10),52,53,46,30,36,81,66,39,27,22,28,9,9,0.7,0.7
2023-01-06T12:00:00,2365A,114.9322,25.8333,赣州市,市图书馆,细颗粒物(PM2.5),59,56,56,42,38,89,74,65,42,22,24,8,10,1.0,1
