timepoint,stationcode,longitude,latitude,area,positionname,primarypollutant,aqi,pm10,pm10_24h,pm2_5,pm2_5_24h,o3,o3_24h,o3_8h,o3_8h_24h,no2,no2_24h,so2,so2_24h,co,co_24h
2023-06-13T16:00:00,1001A,116.3621,39.8784,北京市,万寿西宫,,43,13,11,5,5,136,136,117,117,6,14,3,3,0.3,0.5
2023-06-13T16:00:00,1002A,116.2202,40.2915,北京市,定陵,,47,15,11,9,4,150,150,125,125,4,6,2,2,0.3,0.3
2023-06-13T16:00:00,1003A,116.4174,39.9289,北京市,东四,,47,12,10,5,4,150,150,128,128,5,15,3,2,0.2,0.3
2023-06-13T16:00:00,1004A,116.4072,39.8863,北京市,天坛,,45,16,11,11,4,143,143,123,123,24,18,1,3,0,0.2
2023-06-13T16:00:00,1005A,116.462,39.9365,北京市,农展馆,,46,13,10,5,3,145,145,122,122,2,17,1,2,0.2,0.2
2023-06-13T16:00:00,1006A,116.3392,39.9295,北京市,官园,,43,17,12,8,5,138,137,117,117,13,20,1,2,0.1,0.3
2023-06-13T16:00:00,1007A,116.2878,39.9611,北京市,海淀万柳,,46,16,14,8,6,146,146,114,114,10,29,1,2,0.2,0.3
2023-06-13T16:00:00,1008A,116.6636,40.135,北京市,顺义新城,,43,11,8,7,3,136,136,115,115,9,11,3,3,0.2,0.2
2023-06-13T16:00:00,1009A,116.6275,40.3275,北京市,怀柔镇,,42,16,9,8,4,133,133,110,110,11,10,3,2,0.2,0.2
2023-06-13T16:00:00,1010A,116.2296,40.217,北京市,昌平镇,,46,16,12,7,6,147,147,119,119,7,13,3,3,0.2,0.2
2023-06-13T16:00:00,1011A,116.3966,39.9821,北京市,奥体中心,,40,15,12,5,4,128,128,109,109,10,19,1,2,0.2,0.2
2023-06-13T16:00:00,1012A,116.184,39.9136,北京市,古城,,47,16,16,8,6,148,148,116,116,8,21,1,2,0.4,0.5
2023-06-13T16:00:00,1015A,117.1444,39.1661,天津市,勤俭道,,49,9,24,4,11,154,154,144,144,9,24,5,10,0.3,0.5
2023-06-13T16:00:00,1017A,117.237,39.1082,天津市,大直沽八号路,,46,9,31,4,16,159,145,123,123,7,20,4,8,0.4,0.7
2023-06-13T16:00:00,1018A,117.202,39.0927,天津市,前进道,,49,10,25,4,12,167,155,133,133,10,22,4,7,0.4,0.7
2023-06-13T16:00:00,1019A,117.1837,39.2133,天津市,淮河道,,49,7,31,4,15,154,154,135,135,6,22,5,9,0.3,0.6
2023-06-13T16:00:00,1021A,117.307,39.0877,天津市,跃进路,,50,9,36,4,18,175,159,136,136,9,27,6,11,0.3,0.6
2023-06-13T16:00:00,1023A,117.707,39.0343,天津市,第四大街,,50,21,25,12,15,160,160,130,130,20,36,32,7,0.7,0.7
2023-06-13T16:00:00,1024A,117.457,38.8394,天津市,永明路,臭氧1小时,77,16,17,7,9,181,181,137,137,14,19,8,9,0.7,0.8
2023-06-13T16:00:00,1026A,117.764,39.1587,天津市,汉北路,臭氧1小时,54,13,25,5,13,163,163,136,136,11,13,7,6,0.7,0.8
2023-06-13T16:00:00,1027A,117.157,38.9194,天津市,团泊洼,,50,8,14,4,11,164,159,137,137,25,27,3,5,0.4,0.6
2023-06-13T16:00:00,1029A,114.4422,38.0444,石家庄市,职工医院,臭氧1小时,79,19,48,8,21,206,183,174,174,4,21,2,4,0.3,0.4
2023-06-13T16:00:00,1030A,114.6063,38.0266,石家庄市,高新区,臭氧1小时,75,37,59,7,19,200,180,169,169,6,27,5,8,0.3,0.5
2023-06-13T16:00:00,1031A,114.4898,38.1328,石家庄市,西北水源,臭氧1小时,79,43,67,4,21,211,183,173,173,7,30,4,5,0.2,0.4
2023-06-13T16:00:00,1032A,114.4586,38.0058,石家庄市,西南高教,臭氧1小时,82,26,57,10,23,207,185,177,177,3,21,3,3,0.3,0.5
2023-06-13T16:00:00,1033A,114.5331,38.0178,石家庄市,世纪公园,臭氧1小时,59,22,48,12,21,189,167,160,160,7,24,4,4,0.4,0.6
2023-06-13T16:00:00,1034A,114.509,38.0457,石家庄市,人民会堂,,,27,44,5,19,220,187,188,188,8,26,2,4,,0.4
2023-06-13T16:00:00,1035A,114.3524,37.8911,石家庄市,封龙山,臭氧1小时,64,24,50,7,24,206,171,182,169,10,13,5,3,0.5,0.5
2023-06-13T16:00:00,1037A,118.131,39.6363,唐山市,雷达站,臭氧1小时,54,17,30,8,12,163,163,127,127,3,14,1,3,0.3,0.7
2023-06-13T16:00:00,1038A,118.1725,39.6334,唐山市,物资局,,48,18,31,12,21,152,152,125,125,6,17,3,5,0.4,0.9
2023-06-13T16:00:00,1040A,118.1705,39.6506,唐山市,十二中,,46,19,27,16,22,147,147,119,119,3,13,2,4,0.3,0.9
2023-06-13T16:00:00,1041A,118.1869,39.622,唐山市,小山,,,4,30,2,9,150,150,122,122,2,16,,6,0.2,0.8
2023-06-13T16:00:00,1042A,119.5134,39.8207,秦皇岛市,北戴河环保局,,43,12,18,10,12,139,137,116,116,4,17,1,2,0.4,0.4
2023-06-13T16:00:00,1043A,119.7493,40.0116,秦皇岛市,第一关,,42,13,26,10,13,134,134,104,104,5,40,3,3,0.2,0.3
2023-06-13T16:00:00,1044A,119.5897,39.9499,秦皇岛市,监测站,,39,17,31,13,16,125,124,106,106,2,25,1,2,0.3,0.4
2023-06-13T16:00:00,1046A,119.5251,39.9041,秦皇岛市,建设大厦,,45,29,31,16,14,143,143,120,120,5,31,1,2,0.4,0.4
2023-06-13T16:00:00,1048A,114.5302,36.6116,邯郸市,东污水处理厂,臭氧1小时,74,21,58,1,26,197,179,165,165,10,35,4,10,0.2,1.2
2023-06-13T16:00:00,1049A,114.4918,36.5713,邯郸市,矿院,臭氧1小时,82,20,53,5,35,203,185,170,170,4,32,6,10,0.1,0.8
2023-06-13T16:00:00,1050A,114.484,36.6133,邯郸市,丛台公园,臭氧1小时,90,35,62,11,35,202,192,172,172,5,19,6,14,0.3,1.5
2023-06-13T16:00:00,1051A,115.493,38.8632,保定市,游泳馆,臭氧1小时,70,20,42,9,19,193,176,154,154,3,17,5,7,0.0,0.1
2023-06-13T16:00:00,1052A,115.5213,38.8959,保定市,华电二区,臭氧1小时,58,26,36,6,11,185,166,144,144,1,15,5,6,0.2,0.4
2023-06-13T16:00:00,1053A,115.4713,38.9108,保定市,接待中心,,49,29,44,8,15,167,155,142,142,2,15,1,11,0.4,0.5
2023-06-13T16:00:00,1054A,115.4612,38.8416,保定市,地表水厂,臭氧1小时,52,35,54,9,16,173,161,141,141,7,30,6,9,0.0,0.2
2023-06-13T16:00:00,1056A,115.5086,38.8639,保定市,监测站,臭氧1小时,59,25,45,11,24,193,167,146,146,19,25,2,6,0.3,0.5
2023-06-13T16:00:00,1057A,114.8883,40.8336,张家口市,人民公园,,39,11,13,7,3,126,124,118,118,1,4,3,3,0.1,0.1
2023-06-13T16:00:00,1059A,114.8687,40.8042,张家口市,五金库,,36,16,15,2,8,121,115,111,111,11,11,1,2,0.3,0.3
2023-06-13T16:00:00,1060A,114.8902,40.762,张家口市,世纪豪园,,39,2,15,21,11,126,124,116,116,1,6,5,3,0.2,0.2
2023-06-13T16:00:00,1061A,114.8916,40.8661,张家口市,北泵房,,40,6,19,3,8,130,128,122,122,2,5,9,9,0.5,0.4
2023-06-13T16:00:00,1062A,117.9531,40.9081,承德市,铁路,,38,16,16,10,4,126,121,107,107,5,23,6,9,0.2,0.3
2023-06-13T16:00:00,1063A,117.9392,40.9763,承德市,中国银行,,40,18,13,2,4,125,125,116,116,3,16,5,5,0.2,0.3
2023-06-13T16:00:00,1064A,117.9503,40.928,承德市,开发区,,40,19,20,11,14,130,127,115,115,6,19,5,8,0.2,0.3
2023-06-13T16:00:00,1065A,117.8051,40.9655,承德市,文化中心,,38,12,18,2,3,121,120,106,106,6,20,5,6,0.3,0.3
2023-06-13T16:00:00,1066A,117.9268,41.0026,承德市,离宫,,39,6,11,5,10,124,124,110,110,3,11,7,6,0.2,0.2
2023-06-13T16:00:00,1067A,116.6708,39.5111,廊坊市,药材公司,臭氧1小时,52,20,27,3,9,161,161,131,131,10,24,3,3,0.3,0.3
2023-06-13T16:00:00,1068A,116.7214,39.5589,廊坊市,开发区,臭氧1小时,55,17,21,14,15,164,164,134,134,16,29,5,5,0.4,0.4
2023-06-13T16:00:00,1070A,116.7244,39.5269,廊坊市,北华航天学院,,50,17,33,8,14,159,159,128,128,8,26,4,4,0.3,0.3
2023-06-13T16:00:00,1071A,116.8842,38.2991,沧州市,沧县城建局,臭氧1小时,85,29,35,7,15,188,188,157,157,18,25,10,9,0.5,0.4
2023-06-13T16:00:00,1072A,116.8584,38.3254,沧州市,电视转播站,臭氧1小时,87,19,30,14,13,189,189,158,158,14,25,2,6,0.3,0.5
2023-06-13T16:00:00,1073A,116.8709,38.3228,沧州市,市环保局,臭氧1小时,78,29,31,11,16,182,182,152,152,19,27,5,7,0.3,0.3
2023-06-13T16:00:00,1074A,115.6838,37.7541,衡水市,电机北厂,臭氧1小时,63,22,45,3,15,202,170,168,168,6,14,2,4,0.3,0.5
2023-06-13T16:00:00,1075A,115.6303,37.7316,衡水市,市监测站,臭氧1小时,59,33,56,6,19,189,167,168,168,5,19,3,5,0.4,0.6
2023-06-13T16:00:00,1077A,114.4704,37.0886,邢台市,达活泉,臭氧1小时,100,44,55,10,19,206,200,156,156,5,20,101,14,0.3,0.7
2023-06-13T16:00:00,1078A,114.5062,37.0349,邢台市,邢师高专,臭氧1小时,77,50,68,17,24,200,181,166,166,15,34,6,7,0.3,0.5
2023-06-13T16:00:00,1079A,114.5237,37.0851,邢台市,路桥公司,臭氧1小时,69,40,51,11,22,191,175,164,164,6,22,5,6,0.3,0.5
2023-06-13T16:00:00,1080A,114.4725,37.0719,邢台市,市环保局,臭氧1小时,101,47,52,14,18,212,202,195,195,,19,6,6,0.3,0.4
2023-06-13T16:00:00,1081A,112.522,37.8873,太原市,尖草坪,臭氧1小时,55,25,40,6,11,164,164,133,133,8,27,5,8,0.3,0.5
2023-06-13T16:00:00,1083A,112.434,38.0108,太原市,上兰,,,24,25,13,12,151,149,123,123,,9,5,5,0.4,0.2
2023-06-13T16:00:00,1084A,112.469,37.7124,太原市,晋源,臭氧1小时,52,20,36,6,16,161,161,129,129,11,24,6,7,0.4,0.5
2023-06-13T16:00:00,1085A,112.5583,37.7394,太原市,小店,,49,19,47,3,16,155,155,131,131,14,42,4,9,0.2,0.5
2023-06-13T16:00:00,1086A,112.5369,37.8692,太原市,桃园,,49,16,48,7,11,158,156,130,130,12,33,6,9,0.3,0.5
2023-06-13T16:00:00,1087A,112.57,37.8195,太原市,坞城,,49,19,46,7,18,156,155,126,126,9,35,6,10,0.4,0.7
2023-06-13T16:00:00,1088A,112.549,37.9854,太原市,南寨,,49,24,50,6,17,160,154,128,128,9,37,5,5,0.3,0.5
2023-06-13T16:00:00,1090A,111.6507,40.7517,呼和浩特市,呼市一监,,42,12,20,2,7,134,134,118,118,4,16,5,6,0.3,0.4
2023-06-13T16:00:00,1091A,111.6572,40.8033,呼和浩特市,小召,,,,20,5,8,134,134,118,118,9,19,7,8,0.3,0.3
2023-06-13T16:00:00,1094A,111.7516,40.8369,呼和浩特市,如意水处理厂,,43,13,25,4,8,136,136,125,125,7,21,7,8,0.3,0.3
2023-06-13T16:00:00,1095A,111.7276,40.8062,呼和浩特市,二十九中,,42,22,28,5,7,133,133,118,118,8,20,4,6,0.3,0.3
2023-06-13T16:00:00,1096A,111.5512,40.7866,呼和浩特市,工大金川校区,,41,15,32,4,12,129,129,115,103,7,20,6,8,0.3,0.3
2023-06-13T16:00:00,1097A,111.717,40.7612,呼和浩特市,化肥厂生活区,,46,46,28,9,10,117,86,97,97,39,18,8,9,0.2,0.2
2023-06-13T16:00:00,1098A,123.6836,41.9339,沈阳市,森林路,,,,25,,18,78,,72,,,22,,5,,0.6
2023-06-13T16:00:00,1099A,123.505,41.7406,沈阳市,浑南东路,臭氧1小时,62,34,47,21,26,169,169,159,159,18,40,8,13,0.6,0.8
2023-06-13T16:00:00,1100A,123.4231,41.6989,沈阳市,新秀街,臭氧1小时,72,32,40,17,21,177,177,133,133,10,43,5,13,0.5,0.7
2023-06-13T16:00:00,1102A,123.5903,41.8411,沈阳市,东陵路,臭氧1小时,60,38,43,20,27,168,168,133,133,13,24,8,10,0.6,0.8
2023-06-13T16:00:00,1103A,123.4264,41.8467,沈阳市,陵东街,,50,23,35,14,22,162,160,141,141,12,32,6,7,0.5,0.7
2023-06-13T16:00:00,1104A,123.4114,41.7653,沈阳市,文化路,臭氧1小时,65,28,47,20,32,172,172,136,136,12,38,6,19,0.5,0.8
2023-06-13T16:00:00,1105A,123.4678,41.7867,沈阳市,小河沿,,50,26,39,13,24,160,159,126,126,19,38,7,10,0.5,0.7
2023-06-13T16:00:00,1106A,123.4017,41.7972,沈阳市,太原街,臭氧1小时,64,40,45,17,24,172,171,133,133,19,38,5,14,0.4,0.7
2023-06-13T16:00:00,1108A,123.3783,41.9228,沈阳市,京沈街,臭氧1小时,60,26,38,18,26,168,168,137,137,9,33,6,9,0.4,0.6
2023-06-13T16:00:00,1109A,121.612,38.9741,大连市,甘井子,,41,17,38,9,16,133,129,124,124,12,15,6,4,0.6,0.6
2023-06-13T16:00:00,1110A,121.565,38.9511,大连市,周水子,,41,22,35,6,17,137,131,128,128,14,19,5,5,0.4,0.4
2023-06-13T16:00:00,1111A,121.5637,38.8845,大连市,星海三站,,43,12,27,6,19,136,136,124,124,10,10,3,5,0.4,0.4
2023-06-13T16:00:00,1112A,121.6302,38.9117,大连市,青泥洼桥,,44,10,27,7,17,140,139,130,130,8,11,4,4,0.6,0.6
2023-06-13T16:00:00,1113A,121.6251,38.8638,大连市,傅家庄,,40,18,25,6,18,129,127,118,118,7,12,6,6,0.7,0.7
2023-06-13T16:00:00,1114A,121.5213,38.8661,大连市,七贤岭,,48,22,23,9,18,156,152,144,144,10,8,5,5,0.3,0.3
2023-06-13T16:00:00,1115A,121.2529,38.8061,大连市,旅顺,,43,18,25,6,16,142,136,131,131,10,14,6,6,0.5,0.5
2023-06-13T16:00:00,1116A,121.7485,39.1311,大连市,金州,,48,22,30,13,17,152,152,136,136,15,13,8,8,0.8,0.8
2023-06-13T16:00:00,1117A,121.7811,39.0496,大连市,开发区,,45,26,29,10,21,141,141,125,125,15,17,5,4,0.5,0.5
2023-06-13T16:00:00,1118A,121.9762,39.0631,大连市,双D港,,44,28,30,11,23,143,139,125,125,15,15,8,7,0.5,0.4
2023-06-13T16:00:00,1119A,125.3325,43.9166,长春市,食品厂,,,,58,,38,154,154,131,131,20,53,7,8,0.4,0.7
2023-06-13T16:00:00,1120A,125.2863,43.9027,长春市,客车厂,,46,15,42,10,23,147,147,125,125,15,46,4,4,0.4,0.7
2023-06-13T16:00:00,1121A,125.2841,43.8463,长春市,邮电学院,,45,16,30,10,15,145,144,124,124,9,30,5,5,0.4,0.7
2023-06-13T16:00:00,1122A,125.3716,43.8772,长春市,劳动公园,臭氧1小时,55,16,44,7,18,164,164,137,137,12,43,6,6,0.4,0.5
2023-06-13T16:00:00,1123A,125.3297,43.8805,长春市,园林处,,47,16,42,9,19,148,148,127,127,12,48,6,6,0.4,0.7
2023-06-13T16:00:00,1124A,125.4605,43.79,长春市,净月潭,,42,28,23,12,14,151,132,110,110,10,14,4,4,0.5,0.5
2023-06-13T16:00:00,1125A,125.7194,43.515,长春市,甩湾子,,,,,,,,,,,,,,,,
2023-06-13T16:00:00,1126A,125.3863,43.8447,长春市,经开区环卫处,,49,7,40,4,15,156,156,130,130,12,42,6,7,0.4,0.6
2023-06-13T16:00:00,1127A,125.245,43.7783,长春市,高新区管委会,,50,16,28,8,13,158,158,128,128,7,34,5,6,0.3,0.4
2023-06-13T16:00:00,1128A,125.1761,43.8325,长春市,岱山公园,臭氧1小时,55,16,36,9,21,164,164,133,133,11,55,5,5,0.3,0.6
2023-06-13T16:00:00,1129A,126.5422,45.755,哈尔滨市,岭北,臭氧1小时,60,11,26,7,17,168,168,147,147,8,27,21,20,0.3,0.3
2023-06-13T16:00:00,1130A,126.561,45.8167,哈尔滨市,松北商大,臭氧1小时,54,24,39,9,14,163,163,141,141,7,48,6,7,0.6,0.7
2023-06-13T16:00:00,1131A,126.979,45.5419,哈尔滨市,阿城会宁,,46,15,51,8,11,147,147,95,95,11,43,12,11,0.5,0.5
2023-06-13T16:00:00,1132A,126.599,45.7222,哈尔滨市,南岗学府路,臭氧1小时,55,26,42,9,16,164,164,144,144,5,32,7,8,0.3,0.4
2023-06-13T16:00:00,1133A,126.689,45.7733,哈尔滨市,太平宏伟公园,臭氧1小时,65,25,48,8,23,172,172,149,149,9,41,7,9,0.3,0.6
2023-06-13T16:00:00,1134A,126.635,45.7667,哈尔滨市,道外承德广场,臭氧1小时,63,26,42,1,11,170,170,145,145,14,36,12,13,0.5,0.6
2023-06-13T16:00:00,1135A,126.685,45.7319,哈尔滨市,香坊红旗大街,臭氧1小时,59,37,40,6,19,167,167,144,144,11,39,8,10,0.4,0.5
2023-06-13T16:00:00,1136A,126.6411,45.7258,哈尔滨市,动力和平路,臭氧1小时,58,20,38,10,10,166,166,145,145,12,40,7,7,0.4,0.6
2023-06-13T16:00:00,1137A,126.593,45.7478,哈尔滨市,道里建国路,,50,20,34,8,13,159,159,142,142,15,40,5,6,0.4,0.5
2023-06-13T16:00:00,1138A,126.615,45.61,哈尔滨市,平房东轻厂,臭氧1小时,53,15,42,9,15,162,162,142,142,11,42,6,8,0.5,0.6
2023-06-13T16:00:00,1139A,126.595,45.9855,哈尔滨市,呼兰师专,臭氧1小时,62,27,34,9,12,169,169,133,133,13,37,10,10,0.3,0.8
2023-06-13T16:00:00,1140A,126.6206,45.6842,哈尔滨市,省农科院,臭氧1小时,62,16,43,9,14,170,169,151,151,13,54,8,11,0.3,0.6
2023-06-13T16:00:00,1141A,121.4,31.238,上海市,普陀,,27,27,13,5,8,97,62,52,51,23,20,4,4,0.4,0.4
2023-06-13T16:00:00,1142A,121.478,31.2036,上海市,十五厂,,18,16,18,12,11,86,51,45,43,20,21,6,6,0.4,0.4
2023-06-13T16:00:00,1143A,121.467,31.3008,上海市,虹口,,24,24,17,7,12,82,46,48,41,25,21,7,7,0.4,0.4
2023-06-13T16:00:00,1144A,121.412,31.1654,上海市,徐汇上师大,,20,15,16,11,10,91,62,51,51,20,19,7,7,0.5,0.5
2023-06-13T16:00:00,1145A,121.536,31.2659,上海市,杨浦四漂,,20,14,13,10,9,80,27,46,37,39,27,6,6,0.6,0.6
2023-06-13T16:00:00,1147A,121.425,31.2261,上海市,静安监测站,,19,15,16,5,7,90,58,48,46,23,21,4,4,0.4,0.4
2023-06-13T16:00:00,1148A,121.703,31.1907,上海市,浦东川沙,,20,13,13,12,9,77,64,54,54,11,13,5,5,0.3,0.3
2023-06-13T16:00:00,1149A,121.533,31.2284,上海市,浦东新区监测站,,21,20,15,10,7,98,65,58,56,16,16,6,6,0.2,0.3
2023-06-13T16:00:00,1150A,121.577,31.2071,上海市,浦东张江,,17,17,15,8,10,80,48,46,41,19,17,5,5,0.4,0.4
2023-06-13T16:00:00,1151A,118.8086,32.1065,南京市,迈皋桥,臭氧1小时,107,31,43,14,17,230,213,158,158,2,14,4,4,0.5,0.4
2023-06-13T16:00:00,1152A,118.7538,32.0551,南京市,草场门,臭氧1小时,122,39,37,27,19,244,244,167,167,20,20,11,4,1.0,0.7
2023-06-13T16:00:00,1153A,118.7794,32.0745,南京市,山西路,臭氧1小时,115,36,41,14,16,235,229,162,162,13,15,11,6,0.5,0.4
2023-06-13T16:00:00,1154A,118.7752,32.0023,南京市,中华门,臭氧1小时,113,34,37,,12,226,226,157,157,11,17,5,5,0.7,0.8
2023-06-13T16:00:00,1155A,118.8109,32.0309,南京市,瑞金路,臭氧1小时,116,44,42,17,19,232,232,159,159,21,21,4,4,0.4,0.4
2023-06-13T16:00:00,1156A,118.7997,32.0754,南京市,玄武湖,臭氧1小时,106,35,36,15,17,216,211,149,149,11,20,9,7,0.5,0.5
2023-06-13T16:00:00,1157A,118.6414,32.0931,南京市,浦口,臭氧1小时,109,47,42,22,21,223,218,160,160,14,29,7,8,0.6,0.5
2023-06-13T16:00:00,1158A,118.7356,31.9996,南京市,奥体中心,臭氧1小时,135,64,46,36,23,270,270,167,167,21,20,14,7,1.2,0.7
2023-06-13T16:00:00,1159A,118.9125,32.1028,南京市,仙林大学城,臭氧1小时,103,27,38,12,19,206,206,154,154,9,18,7,7,0.7,0.7
2023-06-13T16:00:00,1160A,120.561,31.2472,苏州市,上方山,,48,48,30,18,15,133,73,68,68,22,18,5,5,0.3,0.2
2023-06-13T16:00:00,1162A,120.591,31.3019,苏州市,彩香,,38,38,30,25,16,152,94,70,70,14,14,5,6,0.6,0.5
2023-06-13T16:00:00,1163A,120.596,31.3264,苏州市,轧钢厂,,43,43,30,24,16,148,92,71,71,17,14,4,5,0.7,0.6
2023-06-13T16:00:00,1164A,120.613,31.2703,苏州市,吴中区,,37,37,28,21,15,157,82,79,79,24,19,6,7,0.7,0.6
2023-06-13T16:00:00,1165A,120.543,31.2994,苏州市,苏州新区,,42,42,27,26,16,157,98,76,76,16,15,6,6,0.6,0.6
2023-06-13T16:00:00,1166A,120.669,31.3097,苏州市,苏州工业园区,,35,35,29,20,15,154,82,63,63,19,19,8,8,0.7,0.6
2023-06-13T16:00:00,1167A,120.641,31.3708,苏州市,相城区,,31,31,24,20,16,139,93,73,73,13,14,5,6,0.7,0.6
2023-06-13T16:00:00,1168A,120.9098,31.9663,南通市,狼山街道,,43,43,23,18,10,128,102,90,90,8,11,8,8,0.6,0.5
2023-06-13T16:00:00,1169A,120.86,32.0005,南通市,虹桥,细颗粒物(PM2.5),52,41,25,36,17,131,123,84,84,19,17,8,8,0.9,0.6
2023-06-13T16:00:00,1170A,120.87,32.02,南通市,城中,颗粒物(PM10),51,52,28,33,18,118,114,80,80,13,11,7,7,0.8,0.4
2023-06-13T16:00:00,1171A,120.94,31.93,南通市,星湖花园,,30,30,21,12,7,115,78,74,74,12,13,3,4,0.3,0.3
2023-06-13T16:00:00,1172A,120.81,32.0417,南通市,紫琅学院,,44,44,28,29,14,119,119,79,79,15,16,4,4,0.7,0.5
2023-06-13T16:00:00,1173A,119.176,34.5885,连云港市,市环境监测站,臭氧1小时,90,34,47,14,16,200,192,170,170,10,19,8,8,0.5,0.4
2023-06-13T16:00:00,1177A,117.179,34.2761,徐州市,黄河新村,臭氧1小时,105,44,52,18,22,209,209,182,182,12,21,10,11,0.5,0.6
2023-06-13T16:00:00,1178A,117.1918,34.2384,徐州市,淮塔,臭氧1小时,109,37,50,15,20,218,218,190,190,9,19,11,12,0.5,0.5
2023-06-13T16:00:00,1180A,117.256,34.2153,徐州市,新城区,臭氧1小时,115,83,64,18,22,231,229,196,196,9,21,8,9,0.4,0.4
2023-06-13T16:00:00,1181A,117.244,34.2911,徐州市,桃园路,臭氧1小时,101,41,61,17,23,219,202,184,184,11,24,10,11,0.4,0.4
2023-06-13T16:00:00,1182A,117.2933,34.2778,徐州市,农科院,臭氧1小时,106,80,62,25,29,223,212,189,189,17,40,8,10,0.5,0.5
2023-06-13T16:00:00,1186A,119.389,32.3761,扬州市,邗江监测站,臭氧1小时,90,36,45,19,18,192,192,149,149,13,20,10,9,0.4,0.6
2023-06-13T16:00:00,1188A,120.269,31.4867,无锡市,雪浪,,44,31,31,27,17,177,140,94,94,7,16,2,2,0.6,0.6
2023-06-13T16:00:00,1189A,120.275,31.6219,无锡市,黄巷,颗粒物(PM10),51,51,41,29,18,172,139,106,106,24,27,5,6,0.8,0.8
2023-06-13T16:00:00,1190A,120.294,31.56,无锡市,曹张,,,,27,39,14,162,132,94,94,18,17,2,4,0.6,0.6
2023-06-13T16:00:00,1191A,120.242,31.5031,无锡市,漆塘,,43,39,29,22,16,170,137,90,90,6,13,4,4,0.3,0.3
2023-06-13T16:00:00,1192A,120.3489,31.5863,无锡市,东亭,,48,48,30,24,17,170,138,102,102,17,19,9,10,0.7,0.7
2023-06-13T16:00:00,1193A,120.354,31.5475,无锡市,旺庄,颗粒物(PM10),51,51,28,19,14,166,129,101,101,25,21,7,7,0.5,0.5
2023-06-13T16:00:00,1194A,120.245,31.5631,无锡市,荣巷,,43,39,30,27,17,167,136,97,97,14,18,7,7,0.5,0.5
2023-06-13T16:00:00,1195A,120.299,31.6817,无锡市,堰桥,,41,41,32,27,18,173,128,104,104,16,18,6,6,0.8,0.7
2023-06-13T16:00:00,1196A,119.9633,31.762,常州市,市监测站,臭氧1小时,58,54,43,27,25,177,166,115,115,22,25,7,8,0.5,0.6
2023-06-13T16:00:00,1200A,119.9468,31.7069,常州市,武进监测站,臭氧1小时,80,69,54,33,24,193,184,120,120,20,23,3,3,0.7,0.7
2023-06-13T16:00:00,1201A,119.9255,31.9087,常州市,安家,颗粒物(PM10),68,85,66,43,30,182,146,102,102,30,30,9,9,0.9,0.8
2023-06-13T16:00:00,1203A,119.6707,32.1875,镇江市,新区办事处,臭氧1小时,103,42,41,23,25,205,205,145,145,17,24,4,4,0.9,0.9
2023-06-13T16:00:00,1204A,119.4974,32.1968,镇江市,职教中心,臭氧1小时,112,35,40,24,29,223,223,164,164,13,29,4,3,0.8,0.9
2023-06-13T16:00:00,1205A,119.4303,32.1328,镇江市,丹徒区监测站,臭氧1小时,106,31,44,14,29,211,211,166,166,7,18,8,7,0.6,0.7
2023-06-13T16:00:00,1206A,119.905,32.4878,泰州市,公园路,臭氧1小时,65,41,35,27,26,177,172,142,142,10,13,8,8,0.7,0.7
2023-06-13T16:00:00,1207A,119.9189,32.4625,泰州市,莲花,臭氧1小时,57,44,37,34,26,169,165,135,135,10,13,9,9,0.5,0.5
2023-06-13T16:00:00,1209A,119.888,32.4639,泰州市,留学生创业园,臭氧1小时,65,33,33,21,21,174,172,143,143,10,11,8,8,0.4,0.5
2023-06-13T16:00:00,1210A,119.036,33.5981,淮安市,钵池山,臭氧1小时,102,39,35,12,18,203,203,152,152,13,22,8,7,0.7,0.7
2023-06-13T16:00:00,1211A,119.007,33.575,淮安市,北京南路,臭氧1小时,100,41,42,15,18,204,200,153,153,17,24,10,9,0.6,0.6
2023-06-13T16:00:00,1212A,118.989,33.6067,淮安市,市监测站,臭氧1小时,105,48,41,14,15,211,210,160,160,13,20,7,8,0.5,0.5
2023-06-13T16:00:00,1213A,119.135,33.5039,淮安市,楚州区监测站,臭氧1小时,94,42,44,16,16,206,195,150,150,10,20,6,7,0.7,0.6
2023-06-13T16:00:00,1214A,119.0186,33.6297,淮安市,淮阴区监测站,,,,44,,18,203,,148,148,,24,,9,,0.4
2023-06-13T16:00:00,1215A,120.118,33.4022,盐城市,盐城电厂,臭氧1小时,75,48,28,11,10,199,180,161,161,5,6,4,4,0.3,0.3
2023-06-13T16:00:00,1216A,120.156,33.3942,盐城市,市监测站,,50,28,28,8,10,174,158,142,142,7,12,7,7,0.2,0.2
2023-06-13T16:00:00,1218A,120.2144,33.38,盐城市,开发区管委会,颗粒物(PM10),52,53,26,0,17,177,157,147,147,11,13,6,6,0.3,0.3
2023-06-13T16:00:00,1220A,118.293,33.9528,宿迁市,宿迁学院,臭氧1小时,87,18,45,8,27,210,189,173,173,6,35,8,11,0.2,0.4
2023-06-13T16:00:00,1221A,118.2442,33.9592,宿迁市,宿迁中学,臭氧1小时,103,28,47,10,21,220,205,184,184,8,23,8,9,0.3,0.4
2023-06-13T16:00:00,1223A,120.2072,30.2111,杭州市,滨江,臭氧1小时,63,60,44,29,23,211,170,109,109,18,18,7,6,0.6,0.5
2023-06-13T16:00:00,1224A,120.0633,30.2747,杭州市,西溪,臭氧1小时,75,63,46,35,25,221,180,128,128,17,20,8,8,0.4,0.4
2023-06-13T16:00:00,1226A,120.3461,30.3153,杭州市,下沙,臭氧1小时,58,46,33,31,20,185,166,116,116,16,15,4,4,0.5,0.4
2023-06-13T16:00:00,1227A,120.1269,30.2456,杭州市,卧龙桥,臭氧1小时,77,50,40,33,28,238,181,117,117,20,18,6,6,0.6,0.6
2023-06-13T16:00:00,1228A,120.1903,30.2692,杭州市,浙江农大,,,43,33,25,23,212,169,120,120,17,12,6,6,,0.4
2023-06-13T16:00:00,1230A,120.1197,30.3119,杭州市,和睦小学,臭氧1小时,62,52,42,33,25,219,169,115,115,27,23,6,6,0.5,0.5
2023-06-13T16:00:00,1231A,120.3019,30.4183,杭州市,临平镇,颗粒物(PM10),73,96,60,36,22,184,175,117,117,13,12,4,4,0.4,0.4
2023-06-13T16:00:00,1232A,120.2697,30.1819,杭州市,城厢镇,,50,50,44,30,30,198,147,105,105,24,23,4,4,0.5,0.5
2023-06-13T16:00:00,1233A,120.0883,30.1808,杭州市,云栖,臭氧1小时,75,57,38,31,22,226,180,108,108,22,22,8,7,0.8,0.7
2023-06-13T16:00:00,1234A,121.8358,29.911,宁波市,区环保大楼,,20,14,16,11,10,70,62,39,39,17,21,6,7,0.4,0.5
2023-06-13T16:00:00,1235A,121.56,29.82,宁波市,万里学院,,,28,25,,13,174,108,114,114,,20,4,4,0.4,0.5
2023-06-13T16:00:00,1236A,121.713,29.9572,宁波市,龙赛医院,,24,24,25,7,10,82,71,54,54,14,21,5,7,0.4,0.4
2023-06-13T16:00:00,1239A,121.633,29.7733,宁波市,钱湖水厂,,36,30,14,25,12,96,96,83,83,23,9,8,5,0.5,0.4
2023-06-13T16:00:00,1240A,121.5856,29.8635,宁波市,太古小学,,29,26,22,13,15,132,91,88,88,16,21,9,9,0.6,0.6
2023-06-13T16:00:00,1241A,121.524,29.8674,宁波市,市环境监测中心,,25,25,23,9,8,142,76,87,87,16,18,5,4,0.4,0.4
2023-06-13T16:00:00,1242A,120.634,28.0089,温州市,瓯海,,48,48,32,29,19,134,122,98,98,25,23,8,8,0.4,0.4
2023-06-13T16:00:00,1243A,120.6748,27.9939,温州市,南浦,,47,47,33,16,16,134,110,96,96,16,14,6,5,0.5,0.3
2023-06-13T16:00:00,1244A,120.76,27.9747,温州市,龙湾,,45,45,29,20,11,124,92,80,80,20,19,7,7,0.5,0.4
2023-06-13T16:00:00,1245A,120.6709,28.0167,温州市,市站,颗粒物(PM10),56,61,38,28,20,103,93,74,74,34,26,5,5,0.3,0.3
2023-06-13T16:00:00,1247A,120.6053,29.9928,绍兴市,城东开发委,,32,32,42,18,25,153,102,94,94,13,20,7,10,0.6,0.6
2023-06-13T16:00:00,1250A,120.0751,30.8669,湖州市,城西水厂,,,,27,17,15,197,145,110,110,,18,5,6,0.4,0.4
2023-06-13T16:00:00,1252A,120.7436,30.778,嘉兴市,清河小学,,,28,14,26,19,143,142,101,101,,6,6,6,0.4,0
2023-06-13T16:00:00,1253A,120.726,30.7478,嘉兴市,嘉兴学院,,46,37,23,26,16,150,147,107,107,21,17,3,3,0.4,0.3
2023-06-13T16:00:00,1255A,121.273,28.6459,台州市,黄岩环保大楼,,38,38,24,19,15,110,72,70,70,13,13,5,4,0.2,0.2
2023-06-13T16:00:00,1256A,121.419,28.6542,台州市,台州环保大楼,,25,22,17,17,9,78,70,58,58,8,11,3,3,0.3,0.3
2023-06-13T16:00:00,1257A,121.377,28.5773,台州市,路桥田洋王,,26,20,18,18,12,80,67,64,64,10,13,4,5,0.3,0.3
2023-06-13T16:00:00,1258A,122.122,30.0203,舟山市,定海檀枫,,19,14,11,12,8,60,60,47,47,8,7,5,5,0.3,0.3
2023-06-13T16:00:00,1259A,122.3094,29.9558,舟山市,普陀东港,,26,17,12,18,12,67,57,50,50,7,5,5,5,0.3,0.3
2023-06-13T16:00:00,1260A,122.19,29.9944,舟山市,临城新区,,21,13,11,9,9,66,66,52,52,8,8,3,3,0.4,0.3
2023-06-13T16:00:00,1262A,119.647,29.077,金华市,十五中,,,81,70,56,46,225,185,159,159,,25,5,5,0.6,0.5
2023-06-13T16:00:00,1263A,119.686,29.1029,金华市,监测站,臭氧1小时,98,75,59,46,44,219,198,154,154,20,24,6,5,0.7,0.6
2023-06-13T16:00:00,1264A,118.8692,28.9398,衢州市,环保大楼,,,,71,6,47,190,129,141,131,9,18,4,6,0.4,0.7
2023-06-13T16:00:00,1265A,118.8709,28.9666,衢州市,实验学校,,40,21,76,14,47,190,128,141,141,8,16,8,4,0.4,0.6
2023-06-13T16:00:00,1266A,118.8621,28.9808,衢州市,衢州学院,,37,23,71,17,46,181,117,136,136,13,20,5,6,0.4,0.6
2023-06-13T16:00:00,1267A,119.914,28.4514,丽水市,监测站大楼,,43,43,43,30,30,184,128,125,125,10,10,5,5,0.4,0.4
2023-06-13T16:00:00,1268A,119.93,28.4586,丽水市,莲都小学,颗粒物(PM10),51,51,48,24,24,193,134,130,130,10,9,5,5,0.6,0.5
2023-06-13T16:00:00,1269A,119.879,28.4231,丽水市,余庄前,颗粒物(PM10),51,52,47,29,28,171,106,120,120,18,14,6,5,0.6,0.5
2023-06-13T16:00:00,1270A,117.1959,31.7848,合肥市,明珠广场,臭氧1小时,111,83,65,41,31,222,222,150,150,18,30,7,8,0.7,0.8
2023-06-13T16:00:00,1271A,117.3072,31.8764,合肥市,三里街,臭氧1小时,90,66,60,31,30,216,192,148,148,14,29,6,8,0.4,0.6
2023-06-13T16:00:00,1272A,117.2588,31.8707,合肥市,琥珀山庄,臭氧1小时,102,66,54,36,31,219,204,164,164,14,22,6,6,0.6,0.7
2023-06-13T16:00:00,1273A,117.1604,31.9052,合肥市,董铺水库,臭氧1小时,80,66,59,38,28,195,184,149,149,12,23,5,4,0.6,0.6
2023-06-13T16:00:00,1274A,117.25,31.8571,合肥市,长江中路,臭氧1小时,95,75,61,37,33,211,196,157,157,9,19,13,13,0.6,0.8
2023-06-13T16:00:00,1275A,117.266,31.9436,合肥市,庐阳区,臭氧1小时,63,53,70,29,32,185,170,138,138,14,33,7,6,0.5,0.8
2023-06-13T16:00:00,1276A,117.336,31.8586,合肥市,瑶海区,臭氧1小时,90,73,64,26,27,207,192,146,146,14,23,9,10,0.5,0.7
2023-06-13T16:00:00,1277A,117.3027,31.7964,合肥市,包河区,臭氧1小时,100,95,65,46,32,201,200,155,155,27,37,8,9,0.8,0.8
2023-06-13T16:00:00,1278A,117.2776,31.7385,合肥市,滨湖新区,臭氧1小时,70,83,60,36,27,191,176,138,138,27,22,10,10,0.8,0.8
2023-06-13T16:00:00,1279A,117.1318,31.8403,合肥市,高新区,臭氧1小时,98,66,59,36,32,198,198,150,150,13,19,10,11,0.6,0.7
2023-06-13T16:00:00,1280A,119.3903,26.0543,福州市,鼓山,,,41,25,22,18,,,,,13,7,4,3,,
2023-06-13T16:00:00,1282A,119.2681,26.0504,福州市,师大,颗粒物(PM10),64,78,36,21,20,190,153,151,151,10,6,5,5,0.4,0.4
2023-06-13T16:00:00,1283A,119.2984,26.1028,福州市,五四北路,颗粒物(PM10),59,68,35,20,24,209,157,160,160,18,9,3,3,0.4,0.5
2023-06-13T16:00:00,1284A,119.2648,26.0768,福州市,杨桥西路,颗粒物(PM10),64,77,37,26,22,185,156,147,147,11,8,3,3,0.5,0.5
2023-06-13T16:00:00,1285A,119.317,26.0746,福州市,紫阳,颗粒物(PM10),52,54,38,16,23,198,140,149,149,12,8,3,2,0.4,0.5
2023-06-13T16:00:00,1286A,118.1608,24.8169,厦门市,溪东,,,44,31,20,15,,,,,10,5,8,7,,
2023-06-13T16:00:00,1287A,118.1514,24.4767,厦门市,洪文,,28,24,26,7,12,165,88,124,124,20,7,3,3,0.3,0.4
2023-06-13T16:00:00,1288A,118.0661,24.4444,厦门市,鼓浪屿,,38,21,24,13,13,157,120,130,130,2,6,1,2,0.4,0.5
2023-06-13T16:00:00,1290A,115.8931,28.6843,南昌市,省外办,,45,35,44,24,26,182,141,138,120,13,15,5,6,0.5,0.5
2023-06-13T16:00:00,1291A,115.8886,28.7003,南昌市,省林业公司,,45,29,36,24,25,173,144,126,119,8,13,4,5,0.4,0.4
2023-06-13T16:00:00,1292A,115.8126,28.7442,南昌市,林科所,,42,24,29,17,21,200,133,152,105,15,18,8,9,0.7,0.7
2023-06-13T16:00:00,1294A,115.8518,28.687,南昌市,建工学校,,45,39,48,15,23,184,142,150,129,13,10,10,11,0.6,0.5
2023-06-13T16:00:00,1295A,115.8921,28.6424,南昌市,象湖,,46,38,38,20,26,194,147,142,124,11,8,4,5,0.5,0.5
2023-06-13T16:00:00,1296A,115.7423,28.7996,南昌市,武术学校,,33,16,26,10,24,165,104,84,84,1,3,9,5,0.5,0.5
2023-06-13T16:00:00,1298A,115.9314,28.6842,南昌市,省站,,44,33,49,17,25,178,139,127,120,13,12,6,7,0.5,0.5
2023-06-13T16:00:00,1299A,116.9862,36.6114,济南市,科干所,臭氧1小时,124,78,49,39,26,247,247,210,210,21,25,7,4,0.5,0.5
2023-06-13T16:00:00,1300A,116.9376,36.665,济南市,农科所,臭氧1小时,123,76,51,32,19,246,246,205,205,19,26,5,3,0.4,0.3
2023-06-13T16:00:00,1301A,117.1265,36.6734,济南市,开发区,臭氧1小时,122,73,45,37,22,248,244,205,205,17,22,8,6,0.6,0.6
2023-06-13T16:00:00,1303A,117.0624,36.6868,济南市,省种子仓库,臭氧1小时,126,,51,36,24,254,252,211,211,16,24,7,2,0.5,0.5
2023-06-13T16:00:00,1304A,116.9489,36.6447,济南市,机床二厂,臭氧1小时,128,88,63,34,22,256,256,214,214,19,28,7,4,0.4,0.4
2023-06-13T16:00:00,1305A,117.0495,36.663,济南市,市监测站,臭氧1小时,134,81,51,37,25,267,267,221,221,25,33,14,10,0.3,0.3
2023-06-13T16:00:00,1306A,116.7675,36.5484,济南市,长清党校,臭氧1小时,57,44,50,22,25,244,165,197,197,18,28,8,8,0.7,0.7
2023-06-13T16:00:00,1307A,120.6659,36.2403,青岛市,仰口,,41,29,27,19,14,182,130,127,127,13,12,5,4,0.6,0.5
2023-06-13T16:00:00,1310A,120.4134,36.0658,青岛市,市南区东部子站,,43,31,29,14,13,168,135,132,132,9,19,7,8,0.4,0.5
2023-06-13T16:00:00,1311A,120.3664,36.1032,青岛市,四方区子站,,48,24,32,17,17,172,152,144,144,17,38,3,7,0.6,0.7
2023-06-13T16:00:00,1312A,120.2994,36.054,青岛市,市南区西部子站,,42,41,35,12,15,156,134,130,130,22,26,6,7,0.6,0.6
2023-06-13T16:00:00,1313A,120.4581,36.0858,青岛市,崂山区子站,,47,19,24,12,14,166,148,141,141,8,18,7,8,0.3,0.3
2023-06-13T16:00:00,1314A,120.1983,35.9608,青岛市,黄岛区子站,,50,27,28,12,17,167,159,144,144,16,19,6,7,0.5,0.7
2023-06-13T16:00:00,1315A,120.3999,36.3083,青岛市,城阳区子站,颗粒物(PM10),53,56,41,17,15,175,154,155,155,26,30,7,6,0.5,0.5
2023-06-13T16:00:00,1316A,113.69031,34.76122,郑州市,烟厂,臭氧1小时,106,31,57,16,28,237,212,203,203,8,23,4,5,0.3,0.7
2023-06-13T16:00:00,1317A,113.65724,34.77134,郑州市,郑纺机,臭氧1小时,104,39,55,9,26,226,207,199,199,7,22,4,5,0.4,0.7
2023-06-13T16:00:00,1318A,113.67526,34.80246,郑州市,银行学校,臭氧1小时,104,23,49,10,28,228,208,201,201,8,17,5,7,0.3,0.6
2023-06-13T16:00:00,1319A,113.56746,34.81334,郑州市,供水公司,臭氧1小时,92,21,48,6,33,204,193,179,179,12,23,8,10,0.2,0.4
2023-06-13T16:00:00,1320A,113.7329,34.7178,郑州市,经开区管委,臭氧1小时,111,32,59,14,33,228,221,202,202,10,19,4,5,0.4,0.6
2023-06-13T16:00:00,1321A,113.73961,34.77172,郑州市,四十七中,臭氧1小时,101,30,55,3,34,234,202,200,200,11,20,6,9,0.3,0.6
2023-06-13T16:00:00,1322A,113.60532,34.74838,郑州市,市监测站,臭氧1小时,88,11,64,16,28,230,190,200,200,8,21,4,3,0.3,0.7
2023-06-13T16:00:00,1323A,113.64164,34.7525,郑州市,河医大,臭氧1小时,92,37,56,14,28,216,193,184,184,12,22,7,8,0.3,0.6
2023-06-13T16:00:00,1324A,113.51488,34.91089,郑州市,岗李水库,臭氧1小时,53,30,47,4,24,211,162,173,173,11,17,6,7,0.3,0.5
2023-06-13T16:00:00,1325A,114.3677,30.5584,武汉市,东湖梨园,臭氧1小时,62,20,44,17,22,248,169,138,133,9,18,6,7,0.7,0.7
2023-06-13T16:00:00,1326A,114.2529,30.558,武汉市,汉阳月湖,臭氧1小时,77,36,51,17,23,247,181,134,134,17,23,7,8,0.6,0.7
2023-06-13T16:00:00,1327A,114.282,30.6189,武汉市,汉口花桥,臭氧1小时,85,49,59,29,30,277,188,126,126,18,32,9,9,0.6,0.8
2023-06-13T16:00:00,1328A,114.3025,30.5332,武汉市,武昌紫阳,臭氧1小时,84,38,48,20,23,260,187,135,135,13,24,6,6,0.7,0.7
2023-06-13T16:00:00,1329A,114.3646,30.6217,武汉市,青山钢花,臭氧1小时,95,26,55,27,34,336,196,137,137,11,27,9,10,0.6,0.8
2023-06-13T16:00:00,1330A,114.1566,30.4825,武汉市,沌口新区,臭氧1小时,68,36,43,25,25,223,174,128,128,15,23,5,5,0.6,0.6
2023-06-13T16:00:00,1331A,114.3014,30.5944,武汉市,汉口江滩,臭氧1小时,83,39,44,24,27,188,186,131,131,27,51,7,7,0.6,0.7
2023-06-13T16:00:00,1333A,114.135,30.6319,武汉市,吴家山,臭氧1小时,100,46,52,22,27,278,200,142,142,18,28,7,6,0.6,0.5
2023-06-13T16:00:00,1334A,113.8454,30.2917,武汉市,沉湖七壕,臭氧1小时,64,18,33,17,16,175,171,144,144,8,8,5,5,0.5,0.5
2023-06-13T16:00:00,1335A,113.0833,28.2325,长沙市,经开区环保局,,42,28,37,17,21,172,133,112,112,7,13,4,5,0.5,0.5
2023-06-13T16:00:00,1336A,112.8872,28.2189,长沙市,高开区环保局,,41,19,32,16,22,145,130,113,108,8,12,6,6,0.5,0.5
2023-06-13T16:00:00,1337A,113.0792,28.2053,长沙市,马坡岭,,44,29,33,16,25,193,140,120,120,5,10,4,5,0.3,0.4
2023-06-13T16:00:00,1338A,112.9394,28.19,长沙市,湖南师范大学,,36,18,29,25,21,138,109,90,90,2,5,3,3,0.4,0.4
2023-06-13T16:00:00,1339A,113.0178,28.1322,长沙市,雨花区环保局,,40,19,29,17,20,193,128,117,107,4,8,5,5,0.4,0.4
2023-06-13T16:00:00,1340A,112.9792,28.2597,长沙市,伍家岭,,40,26,32,21,20,138,125,105,105,6,13,2,3,0.2,0.3
2023-06-13T16:00:00,1341A,113.0014,28.1944,长沙市,火车新站,,39,19,23,14,14,157,123,107,107,7,8,5,6,0.6,0.7
2023-06-13T16:00:00,1342A,112.9844,28.1178,长沙市,天心区环保局,,40,20,30,18,19,172,128,108,108,11,11,2,2,0.4,0.4
2023-06-13T16:00:00,1343A,112.8908,28.1308,长沙市,湖南中医药大学,,38,24,34,19,20,143,121,101,101,2,9,3,4,0.5,0.6
2023-06-13T16:00:00,1344A,112.9581,28.3611,长沙市,沙坪,,38,24,34,17,19,129,119,106,106,1,3,5,6,0.5,0.5
2023-06-13T16:00:00,1345A,113.2347,23.1423,广州市,广雅中学,臭氧1小时,80,73,36,48,22,195,184,152,152,20,22,5,4,0.8,0.8
2023-06-13T16:00:00,1346A,113.2612,23.105,广州市,市五中,臭氧1小时,101,63,35,52,22,219,202,167,167,16,15,4,4,0.7,0.6
2023-06-13T16:00:00,1348A,113.3478,23.0916,广州市,广东商学院,细颗粒物(PM2.5),60,61,32,43,19,185,146,140,140,20,22,4,5,0.8,0.6
2023-06-13T16:00:00,1349A,113.4332,23.1047,广州市,市八十六中,颗粒物(PM10),59,68,40,38,17,177,144,139,139,20,30,3,4,0.7,0.6
2023-06-13T16:00:00,1350A,113.3505,22.9483,广州市,番禺中学,臭氧1小时,93,57,31,33,17,229,194,172,172,19,23,8,8,0.9,0.7
2023-06-13T16:00:00,1351A,113.2146,23.3916,广州市,花都师范,臭氧1小时,64,68,45,41,21,186,171,154,154,10,21,7,6,0.8,0.7
2023-06-13T16:00:00,1352A,113.2597,23.1331,广州市,市监测站,臭氧1小时,108,75,36,51,21,224,216,172,172,19,22,7,6,0.8,0.8
2023-06-13T16:00:00,1353A,113.5618,23.312,广州市,九龙镇镇龙,臭氧1小时,62,59,44,41,23,198,169,128,128,26,28,5,5,0.8,0.7
2023-06-13T16:00:00,1354A,113.2765,23.1544,广州市,麓湖,臭氧1小时,84,59,34,39,20,219,187,169,169,27,19,6,6,0.9,0.8
2023-06-13T16:00:00,1355A,113.443,23.3035,广州市,帽峰山森林公园,臭氧1小时,72,54,35,37,19,217,177,157,157,19,25,8,8,0.6,0.6
2023-06-13T16:00:00,1356A,114.1063,22.5545,深圳市,通心岭子站,,37,25,15,14,7,144,118,95,95,15,10,3,3,0.8,0.7
2023-06-13T16:00:00,1357A,114.117,22.5625,深圳市,洪湖,,42,24,16,9,11,154,133,102,102,18,14,5,5,0.7,0.6
2023-06-13T16:00:00,1358A,113.987,22.5417,深圳市,华侨城,,39,31,19,27,10,134,115,82,82,16,13,6,6,0.7,0.7
2023-06-13T16:00:00,1359A,113.9181,22.5171,深圳市,南海子站,,48,48,24,27,11,136,105,92,92,25,19,4,4,0.7,0.6
2023-06-13T16:00:00,1360A,114.2458,22.5689,深圳市,盐田,,,25,15,17,9,114,96,67,67,,13,4,4,0.6,0.6
2023-06-13T16:00:00,1361A,114.2283,22.7244,深圳市,龙岗,,50,42,21,19,10,182,157,123,123,2,2,9,8,0.7,0.7
2023-06-13T16:00:00,1363A,114.494,22.5422,深圳市,南澳,,29,18,14,11,6,92,92,72,72,5,6,4,4,0.8,0.7
2023-06-13T16:00:00,1364A,114.41,22.6342,深圳市,葵涌,,25,19,15,7,6,82,79,63,63,5,9,6,6,0.6,0.6
2023-06-13T16:00:00,1365A,114.297,22.5978,深圳市,梅沙,,27,27,17,14,8,100,85,72,72,5,6,5,4,0.6,0.6
2023-06-13T16:00:00,1366A,114.0678,22.738,深圳市,观澜,臭氧1小时,65,53,34,29,17,179,172,126,126,16,18,8,8,0.7,0.6
2023-06-13T16:00:00,1367A,113.5814,22.2618,珠海市,吉大,,45,20,12,31,10,156,142,104,104,12,14,8,9,0.4,0.3
2023-06-13T16:00:00,1368A,113.4881,22.2335,珠海市,前山,,,,,,,,,,,,,,,,
2023-06-13T16:00:00,1369A,113.628,22.4251,珠海市,唐家,,46,19,13,14,11,147,147,108,108,6,9,6,7,0.4,0.3
2023-06-13T16:00:00,1370A,113.299,22.2281,珠海市,斗门,,46,35,17,32,14,152,144,126,126,9,7,8,8,0.5,0.5
2023-06-13T16:00:00,1371A,113.1294,23.0067,佛山市,湾梁,臭氧1小时,106,56,34,34,20,212,212,171,171,6,11,7,5,0.5,0.4
2023-06-13T16:00:00,1372A,113.1083,23.0478,佛山市,华材职中,臭氧1小时,105,51,33,37,23,210,210,169,169,13,15,8,7,0.6,0.6
2023-06-13T16:00:00,1373A,113.144,23.0453,佛山市,南海气象局,臭氧1小时,72,60,38,33,20,177,177,134,134,12,16,5,5,0.5,0.5
2023-06-13T16:00:00,1374A,113.2881,22.8094,佛山市,顺德苏岗,臭氧1小时,85,42,24,34,19,194,188,147,147,9,14,6,7,0.6,0.6
2023-06-13T16:00:00,1376A,112.8383,22.8678,佛山市,高明孔堂,臭氧1小时,53,54,39,30,21,243,162,135,135,9,12,6,6,0.8,0.8
2023-06-13T16:00:00,1377A,112.8836,23.1588,佛山市,三水监测站,颗粒物(PM10),57,63,42,36,25,196,155,134,134,14,26,5,6,0.6,0.6
2023-06-13T16:00:00,1378A,112.867,23.185,佛山市,三水云东海,细颗粒物(PM2.5),53,52,41,37,27,185,148,141,141,13,17,5,6,0.7,0.6
2023-06-13T16:00:00,1379A,113.3769,22.5211,中山市,华柏园,臭氧1小时,85,52,26,28,14,245,188,147,147,12,13,6,5,0.6,0.4
2023-06-13T16:00:00,1380A,113.3881,22.5497,中山市,张溪,臭氧1小时,102,46,31,28,14,251,204,152,152,8,10,5,5,0.7,0.5
2023-06-13T16:00:00,1381A,113.4075,22.5111,中山市,紫马岭,臭氧1小时,68,50,28,33,16,226,174,137,137,3,6,5,4,0.5,0.4
2023-06-13T16:00:00,1382A,113.4411,22.4853,中山市,长江旅游区,臭氧1小时,54,30,21,23,14,227,163,134,134,5,8,9,9,0.5,0.5
2023-06-13T16:00:00,1383A,113.1064,22.6058,江门市,北街,臭氧1小时,75,63,28,29,15,243,180,133,133,9,12,5,5,0.6,0.5
2023-06-13T16:00:00,1384A,113.0731,22.5835,江门市,西区,臭氧1小时,89,45,31,33,17,240,191,147,147,8,12,5,5,0.6,0.5
2023-06-13T16:00:00,1385A,113.0219,22.5311,江门市,圭峰西,臭氧1小时,82,61,32,49,18,234,185,135,135,6,9,4,4,0.6,0.5
2023-06-13T16:00:00,1386A,113.0828,22.5947,江门市,东湖,臭氧1小时,88,58,35,43,20,223,190,145,145,9,11,5,5,0.6,0.5
2023-06-13T16:00:00,1389A,113.7547,23.0494,东莞市,莞城梨川,臭氧1小时,68,41,29,28,15,219,174,163,163,19,21,9,9,1.0,0.9
2023-06-13T16:00:00,1390A,113.7944,23.0128,东莞市,东城石井,臭氧1小时,80,40,27,26,16,231,184,168,168,15,17,7,7,0.7,0.6
2023-06-13T16:00:00,1391A,113.7383,22.9658,东莞市,南城西平,臭氧1小时,78,41,34,23,16,210,182,155,155,15,22,7,6,0.7,0.7
2023-06-13T16:00:00,1392A,114.4183,23.0528,惠州市,河南岸金山湖子站,颗粒物(PM10),78,105,30,8,10,151,139,114,114,11,11,2,2,0.8,0.7
2023-06-13T16:00:00,1393A,114.4053,23.0822,惠州市,下埔横江三路子站,,47,43,23,18,11,171,150,135,135,12,11,4,5,0.7,0.7
2023-06-13T16:00:00,1394A,114.4103,23.1142,惠州市,江北云山西路子站,,,,30,27,13,180,179,137,137,11,7,7,8,0.6,0.6
2023-06-13T16:00:00,1395A,114.4645,22.7833,惠州市,惠阳区承修路船湖子站,,34,34,22,15,10,137,96,102,102,12,12,4,4,0.7,0.7
2023-06-13T16:00:00,1396A,114.5317,22.7422,惠州市,大亚湾管委会子站,,27,18,22,8,8,124,84,96,96,12,16,3,3,0.4,0.4
2023-06-13T16:00:00,1397A,112.4267,23.0706,肇庆市,睦岗子站,,46,37,58,27,32,205,146,131,131,7,29,10,16,0.5,0.5
2023-06-13T16:00:00,1398A,112.4645,23.0475,肇庆市,城中子站,,42,37,52,28,33,191,134,126,126,13,35,10,19,0.7,0.7
2023-06-13T16:00:00,1399A,112.5544,23.1522,肇庆市,坑口子站,,50,49,42,35,30,210,131,120,120,10,18,7,8,0.5,0.5
2023-06-13T16:00:00,1400A,112.4753,23.1,肇庆市,七星岩子站,,45,43,44,25,27,212,141,122,122,8,16,7,10,0.5,0.5
2023-06-13T16:00:00,1401A,108.3103,22.7881,南宁市,二十一中,,43,36,36,24,22,145,136,104,100,10,13,4,5,0.6,0.6
2023-06-13T16:00:00,1402A,108.3141,22.8528,南宁市,北湖,,43,29,40,30,23,144,136,120,99,8,10,6,7,0.5,1
2023-06-13T16:00:00,1403A,108.3206,22.8225,南宁市,市监测站,,43,39,38,28,27,137,136,114,97,17,18,7,7,0.6,0.6
2023-06-13T16:00:00,1404A,108.3829,22.8037,南宁市,大自然花园,,40,32,38,28,23,119,119,87,87,9,14,5,6,0.7,0.7
2023-06-13T16:00:00,1405A,108.4394,22.7904,南宁市,仙葫,,39,35,35,22,21,125,124,96,96,10,12,5,5,0.5,0.6
2023-06-13T16:00:00,1406A,108.2397,22.8467,南宁市,区农职院,,45,40,42,30,25,160,142,115,108,10,14,6,8,0.7,0.8
2023-06-13T16:00:00,1407A,108.3275,22.735,南宁市,英华嘉园,,41,32,40,25,24,129,129,90,90,10,21,5,5,0.8,0.9
2023-06-13T16:00:00,1408A,108.2257,22.7757,南宁市,沙井镇街道办,,43,32,46,28,26,149,137,115,115,16,21,9,10,0.7,0.7
2023-06-13T16:00:00,1409A,110.576,19.9507,海口市,东寨港,,,,,,,,,,,,,,,,
2023-06-13T16:00:00,1410A,110.3232,20.0574,海口市,海南大学,,33,18,27,7,14,103,103,78,78,8,22,6,5,0.3,0.4
2023-06-13T16:00:00,1411A,110.283,20.0053,海口市,秀英海南医院,,39,20,30,8,15,123,123,96,96,8,20,5,5,0.4,0.5
2023-06-13T16:00:00,1412A,110.338,19.9969,海口市,海南师范大学,,30,26,29,8,13,106,93,88,88,8,16,6,5,0.3,0.4
2023-06-13T16:00:00,1413A,110.33,20.0356,海口市,龙华路环保局宿舍,,37,17,25,10,14,117,117,96,96,6,15,6,6,0.4,0.4
2023-06-13T16:00:00,1414A,106.3787,29.8279,重庆市,缙云山,臭氧1小时,53,19,17,12,9,190,162,128,128,9,14,10,9,0.0,0.1
2023-06-13T16:00:00,1416A,106.4213,29.8253,重庆市,天生,,49,48,39,30,24,192,156,101,101,11,34,8,8,0.5,0.7
2023-06-13T16:00:00,1417A,106.6263,29.7228,重庆市,两路,臭氧1小时,102,24,26,15,13,204,204,107,107,21,50,7,7,0.6,0.8
2023-06-13T16:00:00,1418A,106.2953,29.5983,重庆市,虎溪,,43,41,32,2,16,155,135,105,105,10,28,5,8,0.4,0.5
2023-06-13T16:00:00,1419A,106.5777,29.5102,重庆市,南坪,臭氧1小时,117,41,24,23,16,234,234,134,134,19,15,7,5,0.7,0.6
2023-06-13T16:00:00,1420A,106.6556,29.6277,重庆市,唐家沱,臭氧1小时,114,41,27,20,16,228,228,123,123,34,36,8,6,0.8,0.8
2023-06-13T16:00:00,1421A,106.6349,29.4906,重庆市,茶园,臭氧1小时,113,37,28,20,16,226,226,134,134,21,21,7,5,0.8,0.7
2023-06-13T16:00:00,1422A,106.3754,29.4572,重庆市,白市驿,臭氧1小时,72,29,27,20,18,193,177,125,125,9,16,11,17,0.6,0.9
2023-06-13T16:00:00,1425A,106.6205,29.7166,重庆市,空港,臭氧1小时,103,35,31,24,20,205,205,108,108,13,41,7,7,0.5,0.6
2023-06-13T16:00:00,1426A,106.4782,29.4875,重庆市,新山村,臭氧1小时,90,37,43,8,18,192,192,118,118,24,37,9,16,0.2,0.4
2023-06-13T16:00:00,1427A,106.5616,29.6453,重庆市,礼嘉,臭氧1小时,102,27,26,12,15,204,204,116,116,20,43,7,7,0.6,0.8
2023-06-13T16:00:00,1428A,106.4522,29.7091,重庆市,蔡家,臭氧1小时,67,27,35,19,20,173,173,109,109,10,26,8,8,0.4,0.6
2023-06-13T16:00:00,1429A,106.5093,29.3917,重庆市,鱼新街,臭氧1小时,102,32,29,16,16,203,203,124,124,14,27,10,17,0.8,1
2023-06-13T16:00:00,1431A,103.9728,30.7236,成都市,金泉两河,臭氧1小时,67,58,52,43,23,234,173,143,143,9,14,4,4,0.3,0.3
2023-06-13T16:00:00,1432A,104.176,30.6872,成都市,十里店,臭氧1小时,80,74,44,47,23,189,184,145,145,13,17,5,4,0.5,0.5
2023-06-13T16:00:00,1433A,104.079,30.5706,成都市,三瓦窑,臭氧1小时,65,58,45,27,20,172,172,120,120,26,38,5,5,0.3,0.3
2023-06-13T16:00:00,1434A,104.1114,30.63,成都市,沙河铺,臭氧1小时,93,46,39,28,15,194,194,146,146,13,16,5,4,0.6,0.5
2023-06-13T16:00:00,1437A,104.0786,30.6531,成都市,君平街,臭氧1小时,106,52,39,41,24,226,211,160,160,18,20,7,7,0.5,0.4
2023-06-13T16:00:00,1438A,103.613,31.0283,成都市,灵岩寺,,50,39,29,26,19,210,160,138,130,8,7,6,13,0.8,0.8
2023-06-13T16:00:00,1439A,106.6899,26.5998,贵阳市,马鞍山,,40,29,28,19,19,125,125,84,84,6,13,4,5,0.5,0.7
2023-06-13T16:00:00,1440A,106.6971,26.5694,贵阳市,市环保站,,40,22,30,15,27,128,128,87,87,9,21,3,3,0.3,0.3
2023-06-13T16:00:00,1441A,106.6243,26.6266,贵阳市,鉴湖路,,40,31,40,17,29,127,127,87,87,5,18,4,3,0.4,0.5
2023-06-13T16:00:00,1442A,106.7487,26.6343,贵阳市,燕子冲,,40,27,32,17,27,125,125,79,79,5,12,5,5,0.4,0.4
2023-06-13T16:00:00,1443A,106.6555,26.4365,贵阳市,碧云窝,,42,34,40,24,24,132,132,78,78,7,18,4,4,0.3,0.4
2023-06-13T16:00:00,1444A,106.694,26.5161,贵阳市,中院村,,39,36,39,19,23,123,123,74,74,10,26,5,5,0.4,0.5
2023-06-13T16:00:00,1445A,106.7109,26.6027,贵阳市,红边门,,40,29,32,19,23,125,125,82,82,10,14,3,3,0.4,0.5
2023-06-13T16:00:00,1446A,106.7164,26.5699,贵阳市,新华路,,40,31,31,17,22,128,128,80,80,7,16,3,3,0.2,0.3
2023-06-13T16:00:00,1447A,106.674,26.5424,贵阳市,太慈桥,,39,34,34,14,16,123,123,85,85,7,18,3,3,0.3,0.4
2023-06-13T16:00:00,1450A,102.8204,24.8886,昆明市,呈贡新区,,36,27,29,11,18,113,113,98,98,9,17,6,7,0.5,0.6
2023-06-13T16:00:00,1451A,102.6251,24.9608,昆明市,西山森林公园,,48,14,20,16,12,156,152,130,130,8,10,7,7,0.5,0.6
2023-06-13T16:00:00,1452A,102.7252,25.0902,昆明市,龙泉镇,,43,30,22,6,13,139,136,121,121,15,12,9,9,0.6,0.6
2023-06-13T16:00:00,1453A,102.7266,25.0375,昆明市,东风东路,,39,21,22,4,12,131,123,119,119,19,16,6,7,0.4,0.5
2023-06-13T16:00:00,1454A,102.6742,25.0669,昆明市,金鼎山,,43,38,28,9,15,143,136,113,113,16,14,7,14,0.3,0.4
2023-06-13T16:00:00,1455A,102.6644,25.0401,昆明市,碧鸡广场,,41,18,24,8,18,136,129,114,114,17,15,7,9,0.4,0.4
2023-06-13T16:00:00,1456A,91.1319,29.6514,拉萨市,八廓街,,47,12,12,4,4,170,148,137,137,3,7,5,6,0.3,0.3
2023-06-13T16:00:00,1457A,91.1221,29.6747,拉萨市,市环保局,,47,8,16,4,5,169,150,134,126,10,13,5,5,0.2,0.3
2023-06-13T16:00:00,1458A,91.0874,29.6475,拉萨市,区监测站,,45,10,23,6,7,165,142,130,129,10,14,7,8,0.2,0.2
2023-06-13T16:00:00,1459A,91.1774,29.6541,拉萨市,西藏大学,,49,6,7,25,6,167,156,144,143,5,6,5,7,0.2,0.3
2023-06-13T16:00:00,1460A,90.9798,29.6588,拉萨市,区辐射站,,43,11,16,7,7,152,136,127,118,9,15,8,8,0.2,0.2
2023-06-13T16:00:00,1461A,91.0834,29.6292,拉萨市,拉萨火车站,,46,1,16,4,6,163,146,130,130,6,9,8,8,0.2,0.3
2023-06-13T16:00:00,1462A,108.882,34.2749,西安市,高压开关厂,臭氧1小时,122,42,50,24,24,246,244,172,172,23,41,8,8,0.5,0.4
2023-06-13T16:00:00,1463A,108.993,34.2629,西安市,兴庆小区,臭氧1小时,110,44,41,20,19,220,220,150,150,5,13,7,7,0.4,0.5
2023-06-13T16:00:00,1464A,109.06,34.2572,西安市,纺织城,臭氧1小时,107,36,46,19,22,213,213,150,150,14,35,6,6,0.4,0.4
2023-06-13T16:00:00,1465A,108.9356,34.2173,西安市,小寨,臭氧1小时,114,42,44,18,15,234,228,151,151,13,25,10,9,0.3,0.4
2023-06-13T16:00:00,1466A,108.954,34.2713,西安市,市人民体育场,臭氧1小时,114,49,46,19,19,231,227,154,154,14,26,8,7,0.3,0.3
2023-06-13T16:00:00,1467A,108.8922,34.2322,西安市,高新西区,臭氧1小时,124,50,42,22,22,250,248,161,161,15,30,8,6,0.6,0.6
2023-06-13T16:00:00,1468A,108.935,34.3474,西安市,经开区,臭氧1小时,73,51,48,17,21,189,178,138,138,14,28,3,3,0.2,0.3
2023-06-13T16:00:00,1469A,108.906,34.1546,西安市,长安区,臭氧1小时,121,50,52,20,20,242,242,144,144,16,27,5,5,0.4,0.4
2023-06-13T16:00:00,1471A,109.2186,34.3731,西安市,临潼区,臭氧1小时,102,50,45,20,21,204,204,155,155,14,24,7,7,0.4,0.5
2023-06-13T16:00:00,1472A,108.869,34.378,西安市,草滩,臭氧1小时,111,55,65,19,21,222,222,154,154,13,51,9,12,0.5,0.6
2023-06-13T16:00:00,1473A,108.985,34.1978,西安市,曲江文化产业集团,臭氧1小时,114,44,41,16,15,229,228,153,153,16,30,6,5,0.3,0.3
2023-06-13T16:00:00,1474A,109.051,34.3213,西安市,广运潭,臭氧1小时,101,38,45,19,19,202,202,136,136,10,20,7,7,0.4,0.4
2023-06-13T16:00:00,1476A,103.631,36.1031,兰州市,兰炼宾馆,臭氧1小时,62,21,40,20,28,190,169,142,142,7,27,4,13,0.4,0.5
2023-06-13T16:00:00,1477A,104.1373,35.9454,兰州市,榆中兰大校区,,,,,,,,,,,,,,,,
2023-06-13T16:00:00,1478A,103.8412,36.0726,兰州市,生物制品所,臭氧1小时,68,26,48,17,31,174,174,125,125,18,40,7,10,0.6,0.9
2023-06-13T16:00:00,1479A,103.831,36.0464,兰州市,铁路设计院,臭氧1小时,59,30,50,16,25,167,167,111,111,14,44,4,10,0.7,1.1
2023-06-13T16:00:00,1483A,101.524,36.6867,西宁市,第五水厂,,,,,,,,,,,,,,,,
2023-06-13T16:00:00,1484A,105.9512,38.6016,银川市,贺兰山马莲口,臭氧1小时,83,19,20,12,11,186,186,161,161,8,7,15,19,0.4,0.4
2023-06-13T16:00:00,1488A,106.2328,38.4975,银川市,贺兰山东路,臭氧1小时,65,18,42,14,16,172,172,153,153,10,20,9,9,0.2,0.3
2023-06-13T16:00:00,1489A,106.1358,38.5036,银川市,学院路,臭氧1小时,72,22,46,10,16,177,177,144,144,8,18,11,14,0.4,0.4
2023-06-13T16:00:00,1490A,87.5801,43.8303,乌鲁木齐市,监测站,,50,50,48,31,16,155,155,97,97,9,28,8,9,0.5,0.5
2023-06-13T16:00:00,1491A,87.6046,43.768,乌鲁木齐市,收费所,颗粒物(PM10),61,71,66,26,20,160,157,105,105,12,32,8,5,0.3,0.3
2023-06-13T16:00:00,1492A,87.4754,43.9469,乌鲁木齐市,新疆农科院农场,,,32,65,,30,143,143,94,94,20,40,15,14,0.7,0.8
2023-06-13T16:00:00,1493A,87.5525,43.8711,乌鲁木齐市,铁路局,,50,50,48,26,19,162,156,101,101,9,34,8,10,0.3,0.5
2023-06-13T16:00:00,1494A,87.6432,43.831,乌鲁木齐市,三十一中学,臭氧1小时,55,52,58,21,15,164,164,104,104,5,25,14,14,0.3,0.4
2023-06-13T16:00:00,1496A,87.7216,44.1747,乌鲁木齐市,米东区环保局,细颗粒物(PM2.5),63,46,65,45,41,158,156,122,122,2,13,5,7,0.2,0.3
2023-06-13T16:00:00,1508A,112.9433,27.8614,湘潭市,板塘,,40,30,39,28,24,180,95,98,98,19,13,22,8,1.0,0.2
2023-06-13T16:00:00,1511A,112.9118,27.8403,湘潭市,市监测站,,35,32,33,20,24,195,110,112,112,12,9,16,5,1.1,0.5
2023-06-13T16:00:00,1512A,112.8937,27.8728,湘潭市,江麓,,36,27,41,18,23,175,113,103,103,1,7,7,9,0.2,0.2
2023-06-13T16:00:00,1513A,112.9227,27.8159,湘潭市,岳塘,,35,28,40,19,25,183,110,102,101,2,7,6,6,0.8,0.9
2023-06-13T16:00:00,1514A,112.9074,27.9119,湘潭市,科大,,38,26,43,16,24,173,120,102,102,5,15,5,8,0.3,0.4
2023-06-13T16:00:00,1515A,113.135,27.8244,株洲市,天台山庄,,41,41,49,28,26,239,118,104,104,8,13,6,5,0.8,0.7
2023-06-13T16:00:00,1518A,113.095,27.8867,株洲市,株冶医院,,48,48,48,31,27,215,116,97,97,13,18,7,3,1.1,0.7
2023-06-13T16:00:00,1519A,113.167,27.8667,株洲市,市四中,,43,43,49,27,27,238,128,109,109,10,14,7,5,0.8,0.6
2023-06-13T16:00:00,1520A,113.143,27.8381,株洲市,火车站,,43,39,49,30,27,245,120,107,107,7,11,6,5,0.8,0.7
2023-06-13T16:00:00,1524A,113.13,27.8528,株洲市,市监测站,,49,43,49,34,30,243,122,107,107,9,13,8,7,0.9,0.8
2023-06-13T16:00:00,1552A,106.805,26.3003,贵阳市,桐木岭,,,,44,,28,112,,112,,,6,,6,,0.2
2023-06-13T16:00:00,1559A,113.251,27.8336,株洲市,大京风景区,,35,17,44,22,23,158,110,87,87,4,10,5,6,0.6,0.5
2023-06-13T16:00:00,1562A,113.0048,27.9153,湘潭市,昭山,,39,31,42,16,24,213,124,103,103,6,14,2,3,0.7,0.6
2023-06-13T16:00:00,1564A,112.4876,27.9164,湘潭市,韶山,,27,27,35,16,14,107,62,58,58,6,6,6,6,0.3,0.3
2023-06-13T16:00:00,1585A,109.8756,40.6532,包头市,市环境监测站,,50,14,22,13,8,158,158,137,137,7,14,12,12,0.4,0.5
2023-06-13T16:00:00,1587A,109.9991,40.5842,包头市,包头八中,,50,12,29,4,7,160,160,133,133,11,26,11,12,0.6,0.7
2023-06-13T16:00:00,1588A,109.8538,40.6821,包头市,青山宾馆,臭氧1小时,55,14,23,5,6,164,164,141,141,7,16,10,10,0.5,0.4
2023-06-13T16:00:00,1589A,109.8642,40.6288,包头市,惠龙物流,,50,11,20,7,8,159,159,147,147,7,7,9,10,0.4,0.4
2023-06-13T16:00:00,1590A,110.0377,40.5546,包头市,东河鸿龙湾,,49,12,22,2,6,154,154,132,132,4,18,9,12,0.4,0.5
2023-06-13T16:00:00,1591A,110.0023,39.8129,鄂尔多斯市,综合楼,,48,48,35,0,4,142,136,128,128,12,21,7,7,0.4,0.4
2023-06-13T16:00:00,1592A,109.9486,39.8261,鄂尔多斯市,巴音孟克林场办事处,,47,31,40,7,10,154,149,140,140,8,28,12,11,0.3,0.3
2023-06-13T16:00:00,1593A,109.7736,39.5986,鄂尔多斯市,康泽苑,臭氧1小时,54,36,35,0,2,163,163,147,147,8,18,9,9,0.5,0.5
2023-06-13T16:00:00,1594A,109.8119,39.5989,鄂尔多斯市,华泰汽车城,,50,36,33,7,10,159,159,131,131,8,33,7,6,0.4,0.5
2023-06-13T16:00:00,1595A,109.9734,39.7884,鄂尔多斯市,奥林花园,颗粒物(PM10),51,51,38,9,9,157,152,142,142,8,17,8,8,0.4,0.5
2023-06-13T16:00:00,1597A,122.2703,40.7094,营口市,大庆路,,48,21,41,18,19,161,153,137,137,10,15,6,7,0.7,0.8
2023-06-13T16:00:00,1598A,122.2150,40.6511,营口市,镜湖西路,臭氧1小时,57,23,32,11,18,165,165,132,132,12,16,11,9,0.5,0.5
2023-06-13T16:00:00,1599A,122.1658,40.6789,营口市,西炮台,,48,24,21,13,15,151,151,133,133,14,19,8,8,0.5,0.6
2023-06-13T16:00:00,1600A,124.3303,40.0625,丹东市,江湾东路,,35,27,34,14,20,132,112,115,115,10,16,7,7,0.6,0.6
2023-06-13T16:00:00,1601A,124.4256,40.1503,丹东市,临江后街,,34,21,27,11,15,150,107,114,114,12,17,6,8,0.5,0.5
2023-06-13T16:00:00,1602A,124.3933,40.1461,丹东市,元宝山,,29,26,36,20,17,139,83,111,111,27,16,6,7,0.4,0.6
2023-06-13T16:00:00,1603A,124.3633,40.1092,丹东市,民主桥,,27,27,26,15,15,136,72,109,109,40,20,6,6,0.6,0.5
2023-06-13T16:00:00,1604A,122.0303,41.1489,盘锦市,开发区,,49,19,25,11,28,163,156,141,141,17,36,6,10,0.4,0.6
2023-06-13T16:00:00,1605A,122.0485,41.0883,盘锦市,兴隆台,臭氧1小时,87,32,28,31,22,189,189,146,146,24,30,7,8,0.6,0.6
2023-06-13T16:00:00,1606A,121.8297,41.1028,盘锦市,新生街道,臭氧1小时,65,57,24,31,21,176,172,140,140,31,26,9,11,0.6,0.6
2023-06-13T16:00:00,1607A,120.9092,40.7136,葫芦岛市,龙港区,臭氧1小时,54,17,29,15,20,163,163,136,136,5,24,15,14,0.5,0.6
2023-06-13T16:00:00,1608A,120.8392,40.7514,葫芦岛市,化工街,臭氧1小时,57,41,30,24,19,166,165,133,133,13,40,13,11,0.7,0.7
2023-06-13T16:00:00,1609A,120.8341,40.7073,葫芦岛市,新区,臭氧1小时,52,27,26,30,25,161,161,130,130,9,38,13,11,0.5,0.6
2023-06-13T16:00:00,1610A,120.8695,40.7677,葫芦岛市,东城区,臭氧1小时,69,33,30,26,21,175,175,137,137,10,37,45,19,0.6,0.6
2023-06-13T16:00:00,1611A,118.5819,24.9117,泉州市,涂山街,,43,38,24,20,14,183,137,148,148,12,9,8,8,0.9,0.6
2023-06-13T16:00:00,1612A,118.5972,24.8978,泉州市,津头埔,,38,38,22,21,15,173,121,138,138,15,13,8,8,0.6,0.6
2023-06-13T16:00:00,1613A,118.6663,24.9424,泉州市,万安,,44,42,29,22,15,203,139,158,158,7,7,7,7,0.6,0.6
2023-06-13T16:00:00,1614A,118.6117,24.9604,泉州市,清源山,,,37,25,15,10,,,,,9,7,5,4,,
2023-06-13T16:00:00,1616A,117.6795,36.229,济南市,技术学院,臭氧1小时,122,73,58,28,32,243,243,205,205,21,38,12,11,0.6,0.8
2023-06-13T16:00:00,1618A,118.3429,35.0532,临沂市,沂河小区,,50,48,51,16,25,195,158,174,174,13,23,6,10,0.2,0.3
2023-06-13T16:00:00,1619A,118.295,35.0583,临沂市,鲁南制药厂,臭氧1小时,65,34,57,17,29,214,172,192,192,12,26,4,7,0.4,0.3
2023-06-13T16:00:00,1620A,118.2794,34.9976,临沂市,新光毛纺厂,臭氧1小时,55,51,50,14,24,211,164,184,184,17,27,5,8,0.3,0.4
2023-06-13T16:00:00,1621A,118.3956,35.0888,临沂市,河东保险公司,,49,34,40,10,17,191,155,170,170,19,23,9,10,0.2,0.3
2023-06-13T16:00:00,1622A,116.3032,37.4674,德州市,儿童乐园,臭氧1小时,75,24,54,14,28,223,180,194,194,11,31,4,8,0.3,0.4
2023-06-13T16:00:00,1624A,116.2991,37.4451,德州市,监理站,臭氧1小时,65,33,61,2,22,223,172,194,194,7,31,7,9,0.3,0.4
2023-06-13T16:00:00,1625A,115.9848,36.4372,聊城市,区政府,臭氧1小时,111,96,80,28,32,235,221,206,206,8,22,10,9,0.6,0.6
2023-06-13T16:00:00,1628A,118.0062,37.3803,滨州市,市环保局,,44,14,31,6,17,169,138,144,144,6,18,5,8,0.3,0.4
2023-06-13T16:00:00,1629A,118.0018,37.3617,滨州市,第二水厂,,46,17,33,5,15,177,146,151,151,6,19,4,8,0.4,0.5
2023-06-13T16:00:00,1630A,117.9776,37.393,滨州市,北中新校,,45,20,33,6,17,172,141,148,148,5,18,5,6,0.3,0.4
2023-06-13T16:00:00,1631A,118.0414,36.8103,淄博市,人民公园,臭氧1小时,107,36,63,19,38,214,214,159,159,13,32,11,15,0.3,0.5
2023-06-13T16:00:00,1633A,117.8525,36.4847,淄博市,双山,臭氧1小时,108,56,51,34,33,215,215,184,184,13,27,21,18,0.5,0.5
2023-06-13T16:00:00,1634A,117.9592,36.6331,淄博市,气象站,臭氧1小时,85,29,65,14,44,224,188,160,160,8,29,7,11,0.1,0.4
2023-06-13T16:00:00,1635A,118.3092,36.8194,淄博市,莆田园,臭氧1小时,75,34,62,24,34,226,180,180,180,19,32,12,18,0.4,0.7
2023-06-13T16:00:00,1637A,117.558,34.8438,枣庄市,市中区政府,臭氧1小时,99,44,63,31,29,208,199,190,190,23,34,10,21,0.4,0.5
2023-06-13T16:00:00,1638A,117.2852,34.7837,枣庄市,薛城环保局,臭氧1小时,102,54,64,29,30,239,203,211,211,23,36,8,10,0.4,0.7
2023-06-13T16:00:00,1639A,117.5852,34.7745,枣庄市,峄城区政府,臭氧1小时,85,41,67,14,26,200,188,182,182,18,31,9,12,0.5,0.6
2023-06-13T16:00:00,1640A,117.7276,34.5578,枣庄市,台儿庄区环保局,臭氧1小时,70,36,49,14,26,204,176,180,180,21,36,9,10,0.4,0.6
2023-06-13T16:00:00,1641A,117.4518,35.0992,枣庄市,山亭区环保局,臭氧1小时,77,19,37,10,25,186,181,174,174,13,19,8,10,0.2,0.3
2023-06-13T16:00:00,1642A,121.2514,37.5639,烟台市,开发区,,35,14,20,17,22,112,112,101,101,16,14,4,3,0.6,0.6
2023-06-13T16:00:00,1643A,121.3719,37.5433,烟台市,轴承厂,,38,34,40,21,40,123,121,107,107,11,18,2,2,0.4,0.5
2023-06-13T16:00:00,1644A,121.3181,37.5436,烟台市,西郊化工站,,40,27,43,8,25,142,125,127,127,15,22,3,4,0.5,0.5
2023-06-13T16:00:00,1645A,121.4478,37.4822,烟台市,莱山环保局,,37,19,25,14,19,116,116,105,105,12,11,5,4,0.3,0.4
2023-06-13T16:00:00,1646A,121.2611,37.4967,烟台市,福山环保局,,39,31,46,12,27,138,124,128,128,12,22,6,6,0.2,0.2
2023-06-13T16:00:00,1650A,119.1437,36.7023,潍坊市,环保局,,45,24,31,10,14,160,141,147,147,7,20,7,9,0.2,0.3
2023-06-13T16:00:00,1653A,116.6251,35.4302,济宁市,火炬城,臭氧1小时,74,39,38,12,17,208,179,180,180,6,16,13,14,0.5,0.7
2023-06-13T16:00:00,1655A,116.5491,35.4042,济宁市,电化厂,臭氧1小时,83,50,53,17,21,204,186,181,181,6,21,8,9,0.4,0.6
2023-06-13T16:00:00,1656A,117.1437,36.1937,泰安市,监测站,颗粒物(PM10),52,53,42,9,18,200,160,173,173,10,12,5,6,0.2,0.3
2023-06-13T16:00:00,1657A,117.0885,36.2017,泰安市,人口学校,,48,41,40,11,17,203,151,180,180,14,15,6,7,0.3,0.3
2023-06-13T16:00:00,1658A,117.1089,36.1758,泰安市,电力学校,,49,34,44,20,20,196,154,171,171,8,27,8,9,0.0,0.1
2023-06-13T16:00:00,1659A,119.471,35.4209,日照市,监测站,,47,31,39,18,22,174,148,136,136,29,45,6,7,0.5,0.7
2023-06-13T16:00:00,1660A,119.523,35.4216,日照市,市政府广场,,45,31,39,21,20,155,142,126,126,15,30,6,8,0.4,0.6
2023-06-13T16:00:00,1661A,119.5587,35.4044,日照市,港务局,,49,22,39,11,15,166,155,120,120,23,34,6,8,0.5,0.6
2023-06-13T16:00:00,1662A,122.1214,37.4236,威海市,华夏技校,,36,22,28,15,21,120,114,108,108,13,16,4,4,0.3,0.3
2023-06-13T16:00:00,1663A,122.0508,37.5236,威海市,山大分校,,35,24,22,10,14,120,109,108,108,17,13,8,6,0.2,0.2
2023-06-13T16:00:00,1664A,122.1067,37.5072,威海市,市监测站,,40,22,24,27,25,127,127,113,113,12,12,11,10,0.4,0.4
2023-06-13T16:00:00,1666A,118.6614,37.4309,东营市,市环保局,,45,7,13,2,7,154,141,140,140,2,5,5,8,0.2,0.2
2023-06-13T16:00:00,1669A,113.5824,24.7733,韶关市,市八中,"颗粒物(PM10),细颗粒物(PM2.5)",68,86,48,49,25,162,130,106,106,9,16,12,12,0.7,0.6
2023-06-13T16:00:00,1671A,113.5917,24.7972,韶关市,园林处,颗粒物(PM10),60,69,52,42,33,154,128,95,95,6,21,10,13,0.6,0.5
2023-06-13T16:00:00,1672A,113.6735,24.7791,韶关市,韶关学院,细颗粒物(PM2.5),83,61,50,61,31,180,141,117,117,11,16,12,20,0.8,0.7
2023-06-13T16:00:00,1673A,113.5971,24.6863,韶关市,曲江监测站,颗粒物(PM10),63,75,51,43,29,179,166,116,116,9,17,15,12,0.9,0.7
2023-06-13T16:00:00,1674A,116.6794,23.3667,汕头市,金平子站,,37,16,19,9,9,136,116,117,117,2,3,4,5,0.6,0.6
2023-06-13T16:00:00,1675A,116.7244,23.3633,汕头市,龙湖子站,,39,24,18,10,9,146,124,126,126,6,9,4,4,0.5,0.5
2023-06-13T16:00:00,1676A,116.7258,23.2775,汕头市,濠江子站,,34,26,15,7,6,132,108,108,108,6,7,8,8,0.6,0.6
2023-06-13T16:00:00,1677A,116.7519,23.4714,汕头市,澄海子站,,40,30,21,13,11,153,128,126,126,9,11,4,6,0.5,0.5
2023-06-13T16:00:00,1678A,116.6092,23.2539,汕头市,潮阳子站,,36,32,23,2,6,139,115,111,111,5,7,9,10,0.6,0.5
2023-06-13T16:00:00,1680A,110.3539,21.2706,湛江市,湛江影剧院,,34,34,39,14,21,183,67,79,79,13,10,7,13,0.7,0.7
2023-06-13T16:00:00,1681A,110.3928,21.2228,湛江市,市环境监测站,,22,21,36,12,25,168,68,74,74,13,12,7,15,0.5,0.6
2023-06-13T16:00:00,1682A,110.4019,21.1997,湛江市,环保局宿舍,,20,12,34,12,24,171,63,76,76,17,11,5,11,0.6,0.6
2023-06-13T16:00:00,1683A,110.4111,21.2028,湛江市,霞山游泳场,,22,15,32,11,22,179,70,82,82,15,11,6,11,0.5,0.6
2023-06-13T16:00:00,1684A,110.3316,21.2679,湛江市,麻章区环保局,,28,28,37,17,22,180,67,78,78,17,10,8,9,0.6,0.7
2023-06-13T16:00:00,1685A,110.4558,21.2567,湛江市,坡头区环保局,,25,6,30,14,22,180,77,87,87,6,14,6,11,0.4,0.5
2023-06-13T16:00:00,1686A,111.0286,21.4688,茂名市,电白南海,,,29,38,14,24,156,102,112,92,5,9,,7,0.6,0.7
2023-06-13T16:00:00,1687A,110.9294,21.6533,茂名市,茂石化七小,,29,19,32,17,23,156,92,98,92,6,11,5,8,0.6,0.7
2023-06-13T16:00:00,1688A,110.9107,21.6687,茂名市,健康路,,28,17,27,6,17,159,89,98,90,7,8,4,8,0.4,0.6
2023-06-13T16:00:00,1689A,110.8592,21.6828,茂名市,高岭,,27,27,39,12,25,152,76,82,82,13,13,8,8,0.5,0.5
2023-06-13T16:00:00,1690A,116.1231,24.3284,梅州市,梅江月梅,,50,50,32,31,23,129,105,96,96,7,11,2,5,0.5,0.5
2023-06-13T16:00:00,1691A,116.0797,24.2719,梅州市,梅县新城,,48,40,36,33,23,133,105,93,93,13,14,4,6,0.6,0.6
2023-06-13T16:00:00,1692A,116.1248,24.2654,梅州市,环境监控中心,,44,44,35,26,22,137,108,107,107,12,16,2,4,0.6,0.6
2023-06-13T16:00:00,1693A,115.3653,22.775,汕尾市,市环保局,,34,31,19,11,8,115,108,95,95,4,6,7,7,0.6,0.6
2023-06-13T16:00:00,1694A,115.3706,22.7898,汕尾市,市政府,,38,20,17,12,9,133,120,102,102,5,7,5,4,0.4,0.4
2023-06-13T16:00:00,1695A,115.3622,22.7925,汕尾市,新城中学,,41,32,23,14,10,136,129,109,109,2,5,6,5,0.6,0.6
2023-06-13T16:00:00,1696A,114.6778,23.7569,河源市,源西,细颗粒物(PM2.5),67,35,31,48,19,132,128,100,100,11,14,4,4,0.6,0.6
2023-06-13T16:00:00,1697A,114.6944,23.7586,河源市,东埔,,48,32,33,33,18,124,119,97,97,11,11,5,5,0.6,0.6
2023-06-13T16:00:00,1698A,114.6892,23.7233,河源市,老城,,49,41,43,34,19,119,110,96,96,12,12,4,4,0.6,0.6
2023-06-13T16:00:00,1699A,111.9797,21.8593,阳江市,鸳鸯湖,颗粒物(PM10),79,107,31,10,16,159,150,124,124,5,7,8,8,0.8,0.8
2023-06-13T16:00:00,1701A,111.9491,21.8658,阳江市,马南垌,,47,42,37,20,23,162,149,123,123,6,14,6,5,0.7,0.8
2023-06-13T16:00:00,1702A,113.0426,23.691,清远市,环保大楼,,38,34,46,26,32,171,119,128,128,7,15,5,7,0.5,0.5
2023-06-13T16:00:00,1703A,113.0208,23.7106,清远市,凤城街办,,35,28,52,24,31,157,107,116,116,7,14,5,5,0.6,0.6
2023-06-13T16:00:00,1705A,116.6367,23.6719,潮州市,西园路,,45,43,27,31,15,147,114,97,97,6,9,4,4,0.4,0.4
2023-06-13T16:00:00,1706A,116.6447,23.6706,潮州市,档案局,,40,38,29,6,13,162,125,131,131,4,9,4,6,0.4,0.4
2023-06-13T16:00:00,1708A,116.3701,23.5345,揭阳市,新兴,颗粒物(PM10),56,61,29,20,14,163,131,128,128,10,10,7,10,0.6,0.5
2023-06-13T16:00:00,1709A,116.3264,23.5443,揭阳市,西马,颗粒物(PM10),51,52,32,17,16,176,137,136,136,5,8,6,9,0.7,0.7
2023-06-13T16:00:00,1710A,116.3611,23.5626,揭阳市,东兴,颗粒物(PM10),58,65,36,15,14,168,139,133,133,7,13,3,9,0.9,0.8
2023-06-13T16:00:00,1711A,116.4151,23.5294,揭阳市,渔湖,,48,46,28,33,15,158,128,122,122,8,9,5,8,0.9,0.8
2023-06-13T16:00:00,1712A,112.0392,22.9169,云浮市,新市府,颗粒物(PM10),61,71,42,35,30,160,122,109,109,18,8,16,6,0.7,0.9
2023-06-13T16:00:00,1714A,112.0539,22.9539,云浮市,牧羊,细颗粒物(PM2.5),55,49,56,39,35,175,128,102,102,16,28,17,30,0.6,0.7
2023-06-13T16:00:00,1715A,102.575,24.3711,玉溪市,东风水库,,,,20,9,14,123,123,93,93,6,10,8,8,0.5,0.6
2023-06-13T16:00:00,1718A,115.4208,35.2464,菏泽市,气象局,臭氧1小时,102,28,65,17,31,224,203,205,205,7,33,4,5,0.4,0.6
2023-06-13T16:00:00,1719A,115.4747,35.2375,菏泽市,市政协,臭氧1小时,105,46,58,22,31,225,209,209,209,8,22,5,6,0.2,0.3
2023-06-13T16:00:00,1721A,113.3819,40.1097,大同市,果树场,,40,11,23,19,16,132,126,114,114,3,8,8,18,0.2,0.4
2023-06-13T16:00:00,1723A,113.2994,40.0758,大同市,云冈宾馆,,,16,38,4,11,138,135,126,126,8,24,,14,0.3,0.7
2023-06-13T16:00:00,1724A,113.3444,40.0917,大同市,大同大学,,40,13,35,8,11,132,127,117,117,5,14,7,20,0.3,0.5
2023-06-13T16:00:00,1725A,113.2661,40.1269,大同市,安家小村,,40,12,36,3,12,134,128,120,120,2,13,9,14,0.2,0.8
2023-06-13T16:00:00,1726A,113.2711,40.0844,大同市,教育学院,,40,17,34,8,12,129,127,116,116,8,22,8,14,0.4,0.8
2023-06-13T16:00:00,1727A,113.1147,36.1547,长治市,清华站,臭氧1小时,63,22,43,7,28,191,170,153,153,9,20,8,7,0.6,0.9
2023-06-13T16:00:00,1728A,113.1031,36.1989,长治市,监测站,臭氧1小时,57,24,46,17,31,186,165,152,152,10,22,10,10,0.6,1
2023-06-13T16:00:00,1730A,113.0886,36.2125,长治市,审计局,臭氧1小时,60,23,44,12,37,191,168,155,155,8,25,12,12,0.5,0.8
2023-06-13T16:00:00,1731A,113.0844,36.1856,长治市,长治八中,臭氧1小时,68,24,49,12,25,201,174,163,163,9,21,9,9,0.4,0.8
2023-06-13T16:00:00,1733A,111.5531,36.0783,临汾市,临钢医院,臭氧1小时,62,57,60,8,34,194,169,157,157,11,18,1,3,0.6,0.9
2023-06-13T16:00:00,1734A,111.5028,36.0714,临汾市,技工学校,臭氧1小时,85,25,62,14,29,216,188,175,175,6,16,3,6,1.0,1.2
2023-06-13T16:00:00,1736A,111.5018,36.0855,临汾市,市委,,,17,60,6,36,221,185,169,169,,15,,6,0.4,0.9
2023-06-13T16:00:00,1738A,113.5758,37.8572,阳泉市,市中心,臭氧1小时,55,15,47,5,22,164,164,140,140,7,40,9,11,0.5,0.8
2023-06-13T16:00:00,1739A,113.4894,37.8731,阳泉市,赛鱼,,50,23,42,14,16,160,160,137,137,8,39,10,10,0.5,0.8
2023-06-13T16:00:00,1740A,113.5819,37.8486,阳泉市,南庄,臭氧1小时,59,17,50,14,27,167,167,153,153,10,33,9,12,0.4,0.7
2023-06-13T16:00:00,1742A,113.5614,37.8703,阳泉市,平坦,,50,28,43,5,21,160,159,140,140,11,45,10,10,0.4,0.6
2023-06-13T16:00:00,1743A,113.5158,37.8392,阳泉市,大阳泉,臭氧1小时,53,9,31,14,25,162,162,144,144,8,19,7,8,0.4,0.6
2023-06-13T16:00:00,1744A,118.9233,42.2816,赤峰市,松山一中,,40,10,13,7,14,133,126,117,117,20,33,11,12,0.3,0.5
2023-06-13T16:00:00,1745A,118.9576,42.2728,赤峰市,哈达街,,42,12,14,10,8,140,133,124,124,16,24,15,14,0.5,0.6
2023-06-13T16:00:00,1746A,118.8788,42.2554,赤峰市,天义路,,44,9,7,8,4,140,139,123,123,15,26,13,13,0.3,0.3
2023-06-13T16:00:00,1748A,123.044,41.1196,鞍山市,深沟寺,,50,31,32,20,23,160,159,144,144,10,15,10,11,0.5,0.8
2023-06-13T16:00:00,1749A,123.011,41.0931,鞍山市,太阳城,,49,28,52,18,34,154,154,126,126,18,26,9,14,1.1,1.5
2023-06-13T16:00:00,1750A,123.0485,41.1442,鞍山市,太平,,48,32,44,20,29,153,152,132,132,18,22,11,13,0.7,1
2023-06-13T16:00:00,1751A,122.9642,41.0971,鞍山市,铁西三道街,臭氧1小时,55,46,69,25,43,164,164,120,120,14,41,9,14,0.9,1.6
2023-06-13T16:00:00,1752A,122.9341,41.0833,鞍山市,铁西工业园区,,49,37,74,22,45,156,156,112,112,14,41,16,17,0.9,1.6
2023-06-13T16:00:00,1753A,123.022,41.0821,鞍山市,明达新区,,49,43,50,22,31,155,155,127,127,19,29,13,14,0.8,1.4
2023-06-13T16:00:00,1754A,123.1289,41.0228,鞍山市,千山,,,,47,,43,92,,70,,,13,,8,,0.8
2023-06-13T16:00:00,1755A,123.7977,41.8491,抚顺市,望花区,臭氧1小时,69,29,52,18,30,175,175,131,131,10,33,5,7,0.3,0.6
2023-06-13T16:00:00,1756A,123.9161,41.8822,抚顺市,顺城区,臭氧1小时,65,38,41,24,28,172,172,129,129,13,32,6,7,0.6,0.9
2023-06-13T16:00:00,1757A,124.0436,41.8611,抚顺市,东洲区,,46,17,31,26,24,154,146,131,131,14,14,5,6,0.5,0.6
2023-06-13T16:00:00,1758A,123.9247,41.8642,抚顺市,新抚区,臭氧1小时,73,34,39,27,29,178,178,137,137,13,27,8,9,0.5,0.7
2023-06-13T16:00:00,1759A,124.0972,41.8961,抚顺市,大伙房水库,,42,25,23,19,20,133,133,114,114,10,12,5,5,0.4,0.4
2023-06-13T16:00:00,1760A,123.7086,41.8391,抚顺市,沈抚新城,臭氧1小时,62,36,47,33,30,169,169,128,128,14,33,7,12,0.5,0.9
2023-06-13T16:00:00,1761A,123.8275,41.3064,本溪市,大峪,,44,26,58,14,25,146,138,118,118,15,24,8,8,0.6,1.2
2023-06-13T16:00:00,1762A,123.7567,41.3325,本溪市,溪湖,,41,19,58,12,36,154,130,123,123,14,24,10,10,0.7,1.4
2023-06-13T16:00:00,1763A,123.7169,41.3094,本溪市,彩屯,,39,23,65,16,45,148,124,109,109,24,27,12,13,0.8,1.3
2023-06-13T16:00:00,1764A,123.7669,41.2864,本溪市,东明,,47,33,49,21,34,150,150,120,120,15,30,12,12,0.8,1.4
2023-06-13T16:00:00,1765A,123.7992,41.2664,本溪市,新立屯,,43,32,60,25,41,138,137,113,113,12,28,11,10,0.8,1.5
2023-06-13T16:00:00,1766A,123.8142,41.3472,本溪市,威宁,,37,37,47,18,34,130,94,100,100,22,23,6,6,0.7,0.9
2023-06-13T16:00:00,1767A,121.1115,41.0879,锦州市,南山,,49,33,26,26,35,156,156,134,134,10,17,10,21,0.5,0.6
2023-06-13T16:00:00,1768A,121.0533,40.8434,锦州市,开发区,臭氧1小时,59,27,42,24,29,167,167,137,137,11,42,10,19,0.5,0.6
2023-06-13T16:00:00,1769A,121.1836,41.1119,锦州市,百股街道,臭氧1小时,52,41,27,27,24,161,161,134,134,11,21,12,16,0.4,0.6
2023-06-13T16:00:00,1770A,121.1178,41.1222,锦州市,天安街道,,44,38,27,24,19,138,138,120,120,18,23,10,11,0.6,0.6
2023-06-13T16:00:00,1771A,121.1303,41.1386,锦州市,北湖公园,,50,25,23,19,20,158,158,131,131,10,12,9,13,0.6,0.6
2023-06-13T16:00:00,1772A,126.54,43.8622,吉林市,哈达湾,,46,19,49,11,28,159,145,136,136,15,32,10,7,0.5,0.7
2023-06-13T16:00:00,1773A,126.5844,43.8358,吉林市,东局子,,50,16,39,11,25,161,157,130,130,12,26,12,10,0.7,0.8
2023-06-13T16:00:00,1774A,126.5052,43.8245,吉林市,电力学院,,46,14,39,10,27,157,146,136,136,9,25,7,7,0.5,0.6
2023-06-13T16:00:00,1775A,126.6133,43.8972,吉林市,江北,,48,29,48,16,26,152,151,134,134,15,26,11,10,0.8,0.8
2023-06-13T16:00:00,1776A,126.555,43.8306,吉林市,江南公园,,44,16,36,13,27,148,140,125,125,22,28,7,6,0.6,0.7
2023-06-13T16:00:00,1778A,126.7061,43.7133,吉林市,丰满,,,,,,,,,,,,,,,,
2023-06-13T16:00:00,1779A,123.9305,47.3636,齐齐哈尔市,安居小区,,45,24,35,12,13,143,143,132,132,14,19,4,4,0.5,0.5
2023-06-13T16:00:00,1780A,123.9488,47.3386,齐齐哈尔市,中心广场,,45,19,29,2,7,142,142,134,134,11,18,7,8,0.4,0.5
2023-06-13T16:00:00,1781A,123.9483,47.3227,齐齐哈尔市,农牧车辆厂,,45,31,35,7,9,142,142,132,132,12,19,6,7,0.3,0.4
2023-06-13T16:00:00,1783A,123.945,47.2988,齐齐哈尔市,市环境监测站,,48,17,23,10,21,153,153,148,148,6,14,7,7,0.4,0.5
2023-06-13T16:00:00,1784A,129.61,44.561,牡丹江市,环保大楼,,32,15,18,8,10,104,102,96,96,9,18,5,5,0.3,0.4
2023-06-13T16:00:00,1785A,129.6115,44.5782,牡丹江市,文化广场,,26,24,32,12,22,99,82,80,80,24,27,6,5,0.4,0.5
2023-06-13T16:00:00,1786A,129.5904,44.5963,牡丹江市,第一医院,,29,28,23,8,17,107,91,89,89,14,17,4,4,0.3,0.4
2023-06-13T16:00:00,1787A,129.6364,44.6075,牡丹江市,机车工厂,,30,25,20,8,7,111,93,88,88,10,13,4,3,0.4,0.5
2023-06-13T16:00:00,1788A,129.6386,44.5462,牡丹江市,第一中学,,32,7,15,7,7,113,101,94,94,7,16,2,2,0.2,0.2
2023-06-13T16:00:00,1789A,124.81117,46.03138,大庆市,大同区,,42,17,23,6,15,136,133,133,133,10,13,5,5,0.3,0.4
2023-06-13T16:00:00,1790A,125.129,46.533,大庆市,龙凤区,,44,23,29,10,14,146,140,138,138,8,18,4,6,0.1,0.3
2023-06-13T16:00:00,1791A,124.902,46.408,大庆市,红岗区,,45,14,26,14,17,145,144,142,142,11,16,2,4,0.3,0.4
2023-06-13T16:00:00,1792A,125.153,46.586,大庆市,萨尔图区,,44,30,33,12,20,142,139,137,137,11,20,5,6,0.3,0.4
2023-06-13T16:00:00,1793A,124.9042,46.6215,大庆市,让胡路区,,,10,27,5,13,136,133,133,133,8,16,5,5,,0.3
2023-06-13T16:00:00,1794A,118.3606,31.3519,芜湖市,监测站,,44,44,39,29,23,211,140,144,83,41,29,15,10,1.0,0.5
2023-06-13T16:00:00,1795A,118.3714,31.4134,芜湖市,科创中心,,45,45,42,28,26,215,137,114,82,40,27,18,8,1.0,0.8
2023-06-13T16:00:00,1796A,118.3673,31.3131,芜湖市,四水厂,,45,45,41,28,22,212,103,157,73,53,30,11,9,1.0,0.8
2023-06-13T16:00:00,1798A,118.5092,31.6837,马鞍山市,湖东路四小,细颗粒物(PM2.5),62,51,45,44,29,212,154,117,117,26,20,16,8,1.2,0.7
2023-06-13T16:00:00,1799A,118.5024,31.6449,马鞍山市,开发区,臭氧1小时,52,43,57,25,23,220,161,104,101,18,26,8,7,0.7,0.6
2023-06-13T16:00:00,1800A,118.5228,31.7231,马鞍山市,慈湖,臭氧1小时,60,55,48,34,27,202,168,116,116,28,24,17,10,1.3,1
2023-06-13T16:00:00,1802A,118.6245,31.7241,马鞍山市,濮塘,,45,45,33,25,25,204,133,114,114,23,15,9,6,0.9,0.7
2023-06-13T16:00:00,1803A,115.9872,29.6815,九江市,十里,臭氧1小时,57,35,49,23,30,209,165,152,135,10,18,8,10,0.5,0.7
2023-06-13T16:00:00,1804A,115.9584,29.7046,九江市,茅山头,,50,29,48,23,32,201,159,173,134,12,19,12,10,0.6,0.7
2023-06-13T16:00:00,1805A,115.9877,29.7295,九江市,西园,臭氧1小时,53,31,52,22,31,204,162,145,120,11,29,8,10,0.5,0.7
2023-06-13T16:00:00,1806A,116.0172,29.6547,九江市,五七二七厂,,45,33,44,20,28,191,142,148,123,12,13,8,9,0.5,0.7
2023-06-13T16:00:00,1808A,115.9114,29.6038,九江市,综合工业园,,49,28,48,21,31,223,154,129,129,26,29,10,11,0.7,0.9
2023-06-13T16:00:00,1809A,116.0721,29.7535,九江市,石化总厂,,46,36,58,28,30,174,145,122,122,15,38,8,10,0.7,0.8
2023-06-13T16:00:00,1810A,115.9773,29.5698,九江市,庐山气象台,,49,36,37,22,28,204,156,200,129,6,6,7,7,1.0,1.3
2023-06-13T16:00:00,1812A,112.3931,34.6516,洛阳市,市委党校,臭氧1小时,88,17,32,18,24,206,190,167,167,5,12,2,2,0.3,0.4
2023-06-13T16:00:00,1814A,112.4657,34.6871,洛阳市,豫西宾馆,臭氧1小时,87,26,41,13,21,191,189,157,157,6,12,3,3,0.5,0.7
2023-06-13T16:00:00,1815A,112.494,34.6886,洛阳市,河南林校,臭氧1小时,75,13,27,10,19,189,180,151,151,7,13,5,6,0.3,0.4
2023-06-13T16:00:00,1816A,112.3844,34.623,洛阳市,开发区管委会,臭氧1小时,85,18,33,10,18,212,188,164,164,6,10,3,3,0.2,0.3
2023-06-13T16:00:00,1817A,112.4267,34.6258,洛阳市,市委新办公区,臭氧1小时,92,17,32,9,20,205,193,162,162,6,11,3,3,0.4,0.6
2023-06-13T16:00:00,1818A,114.4839,36.0621,安阳市,棉研所,臭氧1小时,82,32,65,12,30,226,185,194,194,5,25,8,12,0.2,0.8
2023-06-13T16:00:00,1819A,114.3551,36.1017,安阳市,红庙街,臭氧1小时,82,40,73,8,32,227,185,192,192,5,19,4,10,0.3,0.8
2023-06-13T16:00:00,1820A,114.361,36.0681,安阳市,银杏小区,臭氧1小时,80,32,59,6,26,224,184,191,191,3,14,4,6,0.3,0.7
2023-06-13T16:00:00,1824A,114.3389,34.7781,开封市,肿瘤医院,臭氧1小时,109,42,52,21,30,224,218,203,203,8,13,6,8,0.3,0.5
2023-06-13T16:00:00,1826A,114.2885,34.7965,开封市,世纪星幼儿园,臭氧1小时,99,27,52,15,29,211,199,188,188,7,18,2,4,0.5,0.7
2023-06-13T16:00:00,1828A,113.227,35.2125,焦作市,市环保局,臭氧1小时,111,43,51,28,25,237,222,192,192,15,24,10,14,0.5,0.7
2023-06-13T16:00:00,1830A,113.1992,35.2590,焦作市,影视城,臭氧1小时,108,34,27,27,19,229,216,186,186,8,9,10,10,0.8,0.8
2023-06-13T16:00:00,1832A,113.3257,33.742,平顶山市,新华旅馆,臭氧1小时,113,52,56,27,29,226,226,198,198,7,16,4,5,0.5,0.5
2023-06-13T16:00:00,1833A,113.2919,33.737,平顶山市,规划设计院,臭氧1小时,115,53,51,28,27,230,230,195,195,8,13,8,9,0.3,0.4
2023-06-13T16:00:00,1834A,113.182,33.774,平顶山市,平顶山工学院,臭氧1小时,113,42,48,22,22,228,226,200,200,9,14,4,6,0.4,0.5
2023-06-13T16:00:00,1835A,111.1922,34.7752,三门峡市,市政府,臭氧1小时,77,36,43,16,22,212,181,155,150,10,14,6,6,0.5,0.6
2023-06-13T16:00:00,1836A,111.1587,34.7942,三门峡市,开发区,臭氧1小时,65,29,49,19,24,213,172,160,151,8,13,6,7,0.5,0.6
2023-06-13T16:00:00,1838A,111.143,34.7955,三门峡市,风景区,臭氧1小时,74,37,41,14,22,211,179,162,152,14,16,9,10,0.4,0.4
2023-06-13T16:00:00,1840A,111.2992,30.6981,宜昌市,白龙岗,臭氧1小时,75,29,19,17,9,180,180,130,130,16,16,6,6,0.3,0.3
2023-06-13T16:00:00,1841A,111.3549,30.6465,宜昌市,伍家岗,臭氧1小时,70,26,23,22,13,177,176,131,131,23,17,7,6,0.5,0.5
2023-06-13T16:00:00,1842A,111.2628,30.6961,宜昌市,点军区,,50,39,23,9,6,163,159,124,124,32,15,7,7,0.4,0.4
2023-06-13T16:00:00,1843A,111.3275,30.7819,宜昌市,夷陵区,臭氧1小时,69,27,19,9,7,175,175,126,126,26,15,7,6,0.4,0.3
2023-06-13T16:00:00,1844A,112.2494,30.3197,荆州市,市图书馆,臭氧1小时,73,43,27,21,17,180,178,146,146,6,10,8,7,0.6,0.6
2023-06-13T16:00:00,1845A,112.2008,30.3544,荆州市,市委党校,臭氧1小时,79,43,28,24,16,184,183,144,144,7,10,8,8,0.7,0.6
2023-06-13T16:00:00,1847A,113.1094,29.3578,岳阳市,南湖风景区,臭氧1小时,63,27,26,18,19,173,170,138,138,8,9,9,8,0.6,0.6
2023-06-13T16:00:00,1848A,113.1493,29.4251,岳阳市,城陵矶,,,,26,18,16,152,150,126,126,16,19,5,6,0.5,0.7
2023-06-13T16:00:00,1849A,113.1497,29.3575,岳阳市,开发区,臭氧1小时,64,30,28,18,15,171,171,137,137,11,11,12,9,0.6,0.6
2023-06-13T16:00:00,1850A,113.2621,29.4758,岳阳市,云溪区,,47,22,25,18,16,173,149,126,126,10,13,5,6,0.5,0.5
2023-06-13T16:00:00,1851A,112.9943,29.4402,岳阳市,君山区,,48,22,26,15,18,153,152,126,126,11,15,6,7,0.4,0.5
2023-06-13T16:00:00,1852A,113.2117,29.355,岳阳市,金凤水库,臭氧1小时,60,21,24,13,17,168,168,128,128,5,6,2,3,0.6,0.7
2023-06-13T16:00:00,1854A,111.6975,28.9703,常德市,市二中,,50,21,28,16,17,161,160,136,136,6,7,6,6,0.4,0.4
2023-06-13T16:00:00,1857A,111.7158,29.1456,常德市,白鹤山,臭氧1小时,54,29,26,21,14,163,163,131,131,3,4,4,4,0.4,0.4
2023-06-13T16:00:00,1858A,110.5319,29.1217,张家界市,永定新区,,42,14,21,10,15,133,133,105,105,6,11,4,4,0.1,0.1
2023-06-13T16:00:00,1859A,110.4697,29.1242,张家界市,电业局,,41,23,23,18,18,131,131,108,108,4,10,4,4,0.1,0.1
2023-06-13T16:00:00,1860A,110.5594,29.3547,张家界市,未央路,,38,15,19,9,11,122,120,106,106,4,8,3,3,0.1,0.1
2023-06-13T16:00:00,1861A,110.4417,29.315,张家界市,袁家界,,39,18,16,9,12,129,122,118,118,4,4,8,8,0.5,0.6
2023-06-13T16:00:00,1862A,110.4144,25.3167,桂林市,电子科大尧山校区,,29,12,32,14,24,134,91,101,92,5,6,4,7,0.6,0.7
2023-06-13T16:00:00,1863A,110.2819,25.2697,桂林市,监测站,,30,16,33,11,24,142,93,91,89,9,12,4,11,0.6,0.6
2023-06-13T16:00:00,1864A,110.3089,25.2708,桂林市,龙隐路小学,,29,16,35,17,24,128,91,94,84,6,8,10,14,0.6,0.6
2023-06-13T16:00:00,1865A,110.2869,25.2178,桂林市,八中,,30,21,32,10,21,140,93,86,84,8,12,6,10,0.6,0.6
2023-06-13T16:00:00,1866A,109.2262,21.588,北海市,牛尾岭水库,,21,9,16,4,10,105,66,65,65,4,7,3,4,0.5,0.5
2023-06-13T16:00:00,1867A,109.1436,21.4086,北海市,海滩公园,,28,27,22,2,6,102,87,88,86,4,4,2,3,0.3,0.4
2023-06-13T16:00:00,1868A,109.0981,21.4661,北海市,新市环保局,,24,16,16,5,7,88,76,80,79,6,5,1,2,0.5,0.6
2023-06-13T16:00:00,1869A,109.1778,21.5233,北海市,北海工业园,,23,19,24,10,13,131,71,79,78,6,8,4,4,0.5,0.5
2023-06-13T16:00:00,1870A,109.4856,24.3895,柳州市,柳东小学,,30,21,33,18,26,162,96,72,72,4,9,6,9,0.6,0.6
2023-06-13T16:00:00,1871A,109.4157,24.3277,柳州市,环保监测站,,32,23,36,17,23,158,100,75,75,9,16,7,7,0.6,0.7
2023-06-13T16:00:00,1872A,109.389,24.341,柳州市,河西水厂,,35,35,38,18,25,162,95,66,66,12,21,10,10,0.5,0.8
2023-06-13T16:00:00,1873A,109.4311,24.2921,柳州市,市四中,,32,21,30,15,20,162,102,74,74,5,10,8,10,0.7,0.7
2023-06-13T16:00:00,1874A,109.4006,24.3631,柳州市,市九中,,33,22,42,18,24,162,105,72,72,7,17,10,12,0.5,0.9
2023-06-13T16:00:00,1875A,109.4958,24.3134,柳州市,古亭山,,30,29,31,16,20,142,93,71,71,2,7,1,2,0.5,0.6
2023-06-13T16:00:00,1876A,109.5078,18.2489,三亚市,河东子站,,26,19,20,8,11,83,83,71,71,4,9,1,2,0.4,0.5
2023-06-13T16:00:00,1877A,109.4964,18.2681,三亚市,河西子站,,27,15,22,7,10,86,86,75,75,4,10,3,3,0.4,0.5
2023-06-13T16:00:00,1878A,104.7778,31.4741,绵阳市,富乐山,臭氧1小时,77,32,34,16,19,181,181,142,142,8,11,4,4,0.3,0.4
2023-06-13T16:00:00,1879A,104.7563,31.4535,绵阳市,市人大,臭氧1小时,55,26,32,10,19,164,164,127,127,9,16,10,9,0.5,0.5
2023-06-13T16:00:00,1880A,104.6697,31.4668,绵阳市,高新区自来水公司,臭氧1小时,65,39,39,37,22,175,172,145,145,7,17,7,7,0.4,0.4
2023-06-13T16:00:00,1881A,104.7287,31.5075,绵阳市,三水厂,臭氧1小时,82,32,40,16,22,186,185,144,144,7,17,6,5,0.3,0.4
2023-06-13T16:00:00,1882A,104.563,28.793,宜宾市,石马中学,臭氧1小时,75,25,36,19,23,202,180,137,137,12,22,5,10,0.4,0.5
2023-06-13T16:00:00,1883A,104.6201,28.7728,宜宾市,市委,臭氧1小时,105,36,36,24,20,209,209,137,137,,30,12,13,0.3,0.4
2023-06-13T16:00:00,1884A,104.6055,28.793,宜宾市,宜宾四中,臭氧1小时,100,33,39,19,24,231,200,143,143,18,25,8,10,0.4,0.4
2023-06-13T16:00:00,1885A,104.639,28.7562,宜宾市,市政府,臭氧1小时,106,66,39,26,23,211,211,139,139,18,26,19,10,0.5,0.5
2023-06-13T16:00:00,1886A,104.5742,28.7199,宜宾市,黄金嘴,臭氧1小时,100,31,30,20,17,200,200,140,140,13,24,10,7,0.4,0.4
2023-06-13T16:00:00,1888A,101.6891,26.571,攀枝花市,弄弄坪,,30,30,47,14,34,89,87,61,61,10,24,7,11,0.9,1.2
2023-06-13T16:00:00,1889A,101.5769,26.5928,攀枝花市,河门口,,28,13,42,9,31,89,89,62,62,16,32,6,10,0.8,1.7
2023-06-13T16:00:00,1890A,101.7169,26.585,攀枝花市,炳草岗,,23,16,48,16,43,92,72,48,48,30,30,6,14,1.1,1.2
2023-06-13T16:00:00,1891A,101.7369,26.5008,攀枝花市,仁和,,35,21,37,24,30,111,79,70,70,31,16,16,8,2.0,0.8
2023-06-13T16:00:00,1893A,105.4324,28.9634,泸州市,九狮山,臭氧1小时,60,23,19,9,10,183,168,123,123,20,25,5,5,0.6,0.6
2023-06-13T16:00:00,1894A,105.4427,28.9063,泸州市,小市上码头,臭氧1小时,98,34,34,17,15,198,198,129,129,13,18,5,6,0.6,0.6
2023-06-13T16:00:00,1895A,105.4241,28.8573,泸州市,兰田宪桥,臭氧1小时,73,29,30,13,17,178,178,127,127,7,16,5,6,0.6,0.7
2023-06-13T16:00:00,1896A,105.4379,28.8833,泸州市,市环监站,臭氧1小时,83,25,30,12,12,186,186,121,121,20,25,4,4,0.5,0.6
2023-06-13T16:00:00,1901A,104.4239,31.1208,德阳市,东山公园,臭氧1小时,100,48,58,23,25,200,200,142,142,17,19,3,2,0.4,0.3
2023-06-13T16:00:00,1902A,104.3826,31.1317,德阳市,西小区,臭氧1小时,93,59,46,24,26,194,194,140,140,12,14,2,2,0.4,0.4
2023-06-13T16:00:00,1904A,104.3553,31.1091,德阳市,耐火材料厂,臭氧1小时,104,54,44,26,26,211,208,153,153,8,12,1,3,0.4,0.4
2023-06-13T16:00:00,1905A,106.056,30.8064,南充市,西山风景区,颗粒物(PM10),58,65,39,18,18,161,154,143,143,6,10,5,8,0.4,0.3
2023-06-13T16:00:00,1906A,106.0789,30.8023,南充市,南充市委,,48,39,36,21,18,160,151,136,136,10,18,9,10,0.4,0.4
2023-06-13T16:00:00,1907A,106.1031,30.8217,南充市,南充炼油厂,臭氧1小时,57,47,42,21,19,168,165,138,138,9,15,10,12,0.3,0.4
2023-06-13T16:00:00,1908A,106.1064,30.7856,南充市,高坪区监测站,,48,46,38,20,23,157,151,137,137,13,19,10,12,0.3,0.4
2023-06-13T16:00:00,1909A,106.0642,30.7636,南充市,嘉陵区环保局,臭氧1小时,62,41,45,19,23,188,169,160,160,12,24,7,12,0.3,0.4
2023-06-13T16:00:00,1910A,106.1087,30.8388,南充市,市环境监测站,臭氧1小时,59,39,46,30,26,167,167,136,136,11,22,10,11,0.2,0.2
2023-06-13T16:00:00,1911A,106.9222,27.6869,遵义市,丁字口,,45,20,22,11,13,142,142,107,107,14,16,5,4,0.8,0.7
2023-06-13T16:00:00,1912A,106.9242,27.7019,遵义市,凤凰山,,49,27,21,18,14,161,154,106,106,11,14,8,7,0.5,0.4
2023-06-13T16:00:00,1913A,106.8906,27.6486,遵义市,忠庄,,50,25,22,16,18,160,160,110,110,13,13,3,2,0.6,0.5
2023-06-13T16:00:00,1914A,106.9231,27.6506,遵义市,舟水桥,,46,29,20,22,17,148,145,105,105,7,11,2,2,0.5,0.4
2023-06-13T16:00:00,1915A,106.9178,27.72,遵义市,干田坝,臭氧1小时,57,26,25,16,17,168,165,116,116,12,14,6,5,0.8,0.7
2023-06-13T16:00:00,1916A,103.7897,25.5035,曲靖市,环境监测站,,40,23,26,8,10,126,126,100,100,8,16,7,8,0.4,0.6
2023-06-13T16:00:00,1917A,103.8,25.5364,曲靖市,烟厂办公区,,40,22,23,3,10,125,125,101,101,7,14,4,5,0.3,0.4
2023-06-13T16:00:00,1918A,108.7197,34.3956,咸阳市,气象站,,,,,,,,,,,,,,,,
2023-06-13T16:00:00,1919A,108.673,34.3155,咸阳市,实验中学,臭氧1小时,117,55,53,24,25,234,234,144,144,22,38,5,5,0.5,0.6
2023-06-13T16:00:00,1920A,108.7233,34.3617,咸阳市,师范学院,臭氧1小时,117,51,58,20,24,233,233,157,157,19,36,6,5,0.5,0.6
2023-06-13T16:00:00,1922A,109.0656,35.0994,铜川市,党校,臭氧1小时,70,71,77,22,30,176,176,146,146,19,37,9,7,1.0,1
2023-06-13T16:00:00,1923A,109.0697,35.0697,铜川市,王益区政府,臭氧1小时,79,57,57,28,31,183,183,150,150,18,29,9,7,0.6,0.6
2023-06-13T16:00:00,1924A,108.9344,34.9058,铜川市,新区管委会,臭氧1小时,82,60,57,25,26,185,185,151,151,16,20,10,9,0.4,0.6
2023-06-13T16:00:00,1926A,109.4131,36.6275,延安市,枣园,臭氧1小时,67,23,28,11,9,173,173,133,133,7,26,7,6,0.5,0.5
2023-06-13T16:00:00,1927A,109.4761,36.6028,延安市,延大医附院,臭氧1小时,70,20,31,7,8,176,176,138,138,8,33,6,5,0.2,0.2
2023-06-13T16:00:00,1929A,109.5056,36.6106,延安市,百米大道,臭氧1小时,60,25,35,7,9,170,168,133,133,10,35,6,5,0.2,0.3
2023-06-13T16:00:00,1930A,107.185,34.3063,宝鸡市,庙沟村,臭氧1小时,85,38,19,16,10,188,188,128,128,4,6,9,7,0.3,0.2
2023-06-13T16:00:00,1931A,107.0708,34.3017,宝鸡市,竹园沟,臭氧1小时,70,26,21,15,13,176,176,123,123,8,10,6,5,0.4,0.4
2023-06-13T16:00:00,1932A,107.1906,34.3672,宝鸡市,三陆医院,臭氧1小时,82,47,39,22,14,185,185,126,126,14,25,7,8,0.4,0.4
2023-06-13T16:00:00,1933A,107.1431,34.3547,宝鸡市,监测站,臭氧1小时,79,42,31,16,16,183,183,124,124,10,19,9,9,0.4,0.4
2023-06-13T16:00:00,1934A,107.1186,34.3739,宝鸡市,技工学校,臭氧1小时,88,59,35,16,16,190,190,127,127,13,16,8,8,0.4,0.3
2023-06-13T16:00:00,1935A,107.3906,34.3528,宝鸡市,陈仓区环保局家属楼,臭氧1小时,90,46,43,18,22,192,192,131,131,15,29,7,32,0.5,0.5
2023-06-13T16:00:00,1936A,107.2058,34.3497,宝鸡市,文理学院,臭氧1小时,83,37,32,20,15,186,186,126,126,9,16,8,6,0.5,0.5
2023-06-13T16:00:00,1937A,107.2386,34.3622,宝鸡市,三迪小学,臭氧1小时,85,44,34,21,14,188,188,124,124,11,25,6,6,0.3,0.4
2023-06-13T16:00:00,1938A,109.5293,34.5101,渭南市,农科所,臭氧1小时,83,48,51,24,29,186,186,141,141,9,21,5,5,0.5,0.5
2023-06-13T16:00:00,1939A,109.4974,34.4877,渭南市,日报社,臭氧1小时,101,46,50,19,29,202,202,151,151,12,35,7,8,0.5,0.5
2023-06-13T16:00:00,1940A,109.4636,34.493,渭南市,体育馆,臭氧1小时,101,41,48,15,21,202,202,149,149,8,30,6,10,0.3,0.4
2023-06-13T16:00:00,1941A,109.4259,34.5023,渭南市,高新一小,臭氧1小时,100,46,55,14,25,200,200,160,160,11,24,4,6,0.4,0.5
2023-06-13T16:00:00,1943A,102.1725,38.5339,金昌市,新川苑,,48,35,61,5,15,151,151,128,128,8,13,8,19,0.6,0.6
2023-06-13T16:00:00,1944A,102.1692,38.5167,金昌市,天庆家园,,49,20,48,5,11,156,156,138,138,6,12,16,31,0.5,0.6
2023-06-13T16:00:00,1945A,98.2908,39.7711,嘉峪关市,气象局,,44,31,66,9,20,148,138,125,125,4,17,3,5,0.1,0.2
2023-06-13T16:00:00,1947A,106.3394,38.817,石嘴山市,沙湖旅游区,,41,21,53,11,15,129,129,111,111,10,18,27,44,0.7,0.9
2023-06-13T16:00:00,1948A,106.3668,39.0145,石嘴山市,大武口朝阳西街,臭氧1小时,78,25,42,4,15,182,182,135,135,2,9,12,27,0.3,0.5
2023-06-13T16:00:00,1949A,106.7704,39.2282,石嘴山市,惠农南大街,臭氧1小时,54,33,38,10,10,163,163,142,142,8,26,12,15,0.4,0.4
2023-06-13T16:00:00,1950A,106.7099,39.1325,石嘴山市,红果子镇惠新街,臭氧1小时,68,19,33,4,8,174,174,138,138,6,18,6,8,0.2,0.3
2023-06-13T16:00:00,1951A,84.895,45.6094,克拉玛依市,长征新村,,40,24,57,4,24,149,126,114,103,1,6,8,8,0.2,0.3
2023-06-13T16:00:00,1952A,84.8988,45.5893,克拉玛依市,南林小区,,44,44,54,10,37,148,123,117,111,5,9,6,6,0.1,0.2
2023-06-13T16:00:00,1954A,84.905,44.3396,克拉玛依市,独山子区,细颗粒物(PM2.5),72,87,72,52,38,161,161,126,126,6,11,20,10,0.5,0.5
2023-06-13T16:00:00,1955A,85.6979,46.098,克拉玛依市,乌尔禾区商贸楼,,44,42,61,6,25,148,139,95,95,2,7,10,10,0.3,0.4
2023-06-13T16:00:00,1956A,86.1472,41.7538,巴音郭楞州,孔雀公园,,49,49,85,19,20,136,136,125,107,2,6,5,5,0.2,0.3
2023-06-13T16:00:00,1957A,86.1972,41.7166,巴音郭楞州,棉纺厂,颗粒物(PM10),56,62,102,24,30,137,134,114,114,2,7,4,4,0.3,0.3
2023-06-13T16:00:00,1958A,86.2357,41.7173,巴音郭楞州,经济开发区,,41,31,81,2,21,137,129,121,118,1,4,3,4,0.2,0.2
2023-06-13T16:00:00,1961A,117.532,36.6868,济南市,东山小学,臭氧1小时,102,44,58,20,28,241,204,205,205,13,27,10,6,0.4,0.4
2023-06-13T16:00:00,1966A,120.0405,35.8735,青岛市,黄岛区4号,臭氧1小时,53,29,33,9,14,162,162,140,140,13,17,5,8,0.7,0.7
2023-06-13T16:00:00,1982A,122.0693,37.2174,威海市,文登开发区,,41,29,35,14,20,143,131,130,130,10,14,6,6,0.2,0.3
2023-06-13T16:00:00,2031A,113.1817,27.9958,株洲市,云田中学,,40,35,48,8,25,210,126,100,100,11,18,5,5,0.8,0.6
2023-06-13T16:00:00,2054A,114.1099,32.1059,信阳市,平桥分局,臭氧1小时,94,30,34,22,25,198,195,182,182,15,16,10,8,0.5,0.5
2023-06-13T16:00:00,2064A,113.9956,32.1271,信阳市,南湾水厂,臭氧1小时,100,31,41,14,16,200,200,175,175,6,7,8,7,0.6,0.6
2023-06-13T16:00:00,2065A,114.0775,32.1195,信阳市,市酿酒公司,臭氧1小时,97,32,39,24,25,197,197,179,179,11,13,9,9,0.6,0.6
2023-06-13T16:00:00,2066A,114.0609,32.1399,信阳市,审计局,臭氧1小时,102,28,37,27,25,203,203,184,184,12,16,6,9,0.7,0.7
2023-06-13T16:00:00,2067A,114.6613,33.6128,周口市,市环境监测站,臭氧1小时,109,53,63,31,39,229,218,208,208,14,14,6,7,0.5,0.6
2023-06-13T16:00:00,2068A,114.6758,33.6347,周口市,周口师范,臭氧1小时,102,55,55,29,36,223,203,189,189,16,18,4,7,0.5,0.5
2023-06-13T16:00:00,2069A,114.6546,33.5979,周口市,市运管处,臭氧1小时,107,47,58,27,31,231,213,200,200,13,14,3,5,0.7,0.7
2023-06-13T16:00:00,2070A,114.6369,33.6406,周口市,川汇区环保局,臭氧1小时,98,66,52,24,31,211,198,180,180,11,17,6,7,0.5,0.6
2023-06-13T16:00:00,2075A,117.6336,24.4674,漳州市,九湖,,,52,34,26,18,,,,,18,12,5,4,,
2023-06-13T16:00:00,2160A,112.85,35.5051,晋城市,自来水公司,臭氧1小时,57,18,48,2,26,198,165,166,166,8,19,9,12,0.6,1.4
2023-06-13T16:00:00,2161A,112.8318,35.4936,晋城市,白云商贸,,48,23,52,5,26,203,151,166,166,11,18,7,7,0.8,0.6
2023-06-13T16:00:00,2162A,112.8508,35.4887,晋城市,市环保局,,50,22,52,7,31,181,158,158,158,11,17,10,12,0.3,1
2023-06-13T16:00:00,2163A,112.8676,35.4897,晋城市,技术学院,,50,34,56,2,24,186,158,159,159,10,21,9,12,0.7,1.4
2023-06-13T16:00:00,2165A,112.8453,35.546,晋城市,白马寺,,50,25,43,7,32,187,159,165,165,9,18,6,11,0.7,2.1
2023-06-13T16:00:00,2166A,112.4397,39.3522,朔州市,平朔,,42,12,56,12,15,140,132,113,113,5,30,3,11,0.3,0.4
2023-06-13T16:00:00,2167A,112.4575,39.3617,朔州市,朔唯,,42,14,71,5,14,141,133,114,114,5,37,4,15,0.4,0.4
2023-06-13T16:00:00,2168A,112.4258,39.3197,朔州市,区政府,,44,26,52,10,18,149,139,121,121,4,20,4,7,0.3,0.4
2023-06-13T16:00:00,2169A,112.4072,39.3278,朔州市,市环保局,,42,24,51,7,14,138,132,114,114,8,25,3,10,0.3,0.4
2023-06-13T16:00:00,2170A,112.4272,39.3681,朔州市,市二中,,40,19,68,6,16,142,126,119,119,2,29,3,10,0.3,0.4
2023-06-13T16:00:00,2171A,112.7532,37.6945,晋中市,锦纶小区,,50,16,38,10,20,178,158,135,135,10,22,10,12,0.1,0.4
2023-06-13T16:00:00,2173A,112.7249,37.7067,晋中市,南都小区,,47,11,43,6,19,165,149,120,120,10,26,7,9,0.3,0.5
2023-06-13T16:00:00,2174A,112.6991,37.6982,晋中市,榆次区政府,,48,11,40,8,18,164,152,132,132,12,25,6,12,0.1,0.4
2023-06-13T16:00:00,2175A,110.9956,35.0147,运城市,运城中学,臭氧1小时,97,44,55,20,22,197,197,174,174,5,8,6,6,0.5,0.6
2023-06-13T16:00:00,2178A,110.9686,35.0303,运城市,地区技校,臭氧1小时,101,50,58,23,22,213,201,187,187,5,10,5,6,0.5,0.6
2023-06-13T16:00:00,2179A,111.0414,35.1147,运城市,空港新区,臭氧1小时,103,56,62,21,29,216,205,178,178,8,11,8,9,0.6,0.7
2023-06-13T16:00:00,2181A,112.7383,38.4519,忻州市,开发区,,46,18,31,2,7,164,147,130,130,8,25,6,9,0.3,0.4
2023-06-13T16:00:00,2182A,112.7003,38.4928,忻州市,会展中心,,40,14,36,6,10,135,128,106,106,7,31,5,8,0.3,0.4
2023-06-13T16:00:00,2183A,111.1406,37.5211,吕梁市,环保局,,50,34,52,7,12,162,160,138,138,4,39,7,8,0.3,0.4
2023-06-13T16:00:00,2185A,111.1297,37.5136,吕梁市,自来水公司,,47,27,71,5,12,153,150,132,132,6,29,5,13,0.3,0.5
2023-06-13T16:00:00,2187A,106.8174,39.6973,乌海市,市林业局,臭氧1小时,52,19,40,5,11,161,161,128,128,4,13,9,11,0.5,0.5
2023-06-13T16:00:00,2188A,106.7907,39.6667,乌海市,中海勃湾学校,,50,22,37,6,11,159,159,124,124,6,19,10,14,0.4,0.5
2023-06-13T16:00:00,2191A,122.2532,43.6801,通辽市,艺术职业学校,臭氧1小时,54,21,28,8,12,163,163,139,139,12,16,6,5,0.1,0.5
2023-06-13T16:00:00,2192A,119.7594,49.2261,呼伦贝尔市,区环保局,,37,21,32,11,21,123,118,103,103,9,21,5,5,0.3,0.4
2023-06-13T16:00:00,2195A,107.4212,40.761,巴彦淖尔市,附二中,臭氧1小时,53,10,31,5,8,162,162,136,136,5,15,5,11,0.4,0.4
2023-06-13T16:00:00,2196A,107.37,40.7372,巴彦淖尔市,市环保大楼,,49,20,32,16,20,155,155,138,138,6,12,4,9,0.3,0.4
2023-06-13T16:00:00,2197A,113.1306,40.9923,乌兰察布市,集宁新区,,42,18,19,9,12,137,132,123,123,5,8,8,12,0.4,0.4
2023-06-13T16:00:00,2200A,122.0392,46.0656,兴安盟,胜华新制药厂,,47,29,33,19,21,149,149,136,136,10,19,3,4,0.4,0.4
2023-06-13T16:00:00,2201A,121.9504,46.0741,兴安盟,科右前旗环保局,,47,21,28,15,20,152,150,140,140,3,11,3,4,0.1,0.2
2023-06-13T16:00:00,2202A,116.1042,43.9317,锡林郭勒盟,市环保监测站,,35,19,18,8,5,115,109,102,102,8,14,5,8,0.2,0.2
2023-06-13T16:00:00,2203A,116.0781,43.9311,锡林郭勒盟,市政府,,35,19,21,13,6,114,111,102,102,6,18,6,7,0.1,0.2
2023-06-13T16:00:00,2204A,105.6467,38.8363,阿拉善盟,西城区西花园,,48,17,30,7,11,151,151,136,136,7,9,8,9,0.4,0.4
2023-06-13T16:00:00,2205A,105.6985,38.8411,阿拉善盟,蒙二幼,,49,17,30,14,18,155,155,140,140,4,5,9,9,0.3,0.3
2023-06-13T16:00:00,2206A,105.724,38.8516,阿拉善盟,环保局新楼,,49,25,29,4,17,154,154,144,144,5,6,8,9,0.4,0.5
2023-06-13T16:00:00,2207A,121.6094,41.998,阜新市,工业园区,,,21,25,1,14,139,139,119,119,,25,6,16,0.6,0.7
2023-06-13T16:00:00,2208A,121.6697,42.0279,阜新市,长青街,,45,9,26,4,18,144,142,118,118,6,19,7,10,0.6,0.8
2023-06-13T16:00:00,2209A,121.6673,42.0705,阜新市,农业园区,,48,0,28,8,22,151,151,124,124,8,16,8,12,0.9,1
2023-06-13T16:00:00,2210A,121.6717,42.0224,阜新市,东苑,,,,36,,22,60,,54,,,25,,18,,0.8
2023-06-13T16:00:00,2211A,121.6506,42.0498,阜新市,玉龙新城,,45,18,23,8,17,144,144,118,118,7,19,6,10,0.6,0.7
2023-06-13T16:00:00,2212A,123.2,41.1953,辽阳市,宏伟区,,44,13,28,17,17,144,140,130,130,8,15,13,15,0.6,0.7
2023-06-13T16:00:00,2213A,123.1683,41.2495,辽阳市,新华园,,49,27,38,20,24,154,154,133,133,10,23,5,40,0.6,0.7
2023-06-13T16:00:00,2214A,123.2354,41.2639,辽阳市,滨河路,,44,14,37,15,25,147,139,124,124,8,24,8,23,0.4,0.6
2023-06-13T16:00:00,2215A,123.149,41.2991,辽阳市,铁西工业园,,49,15,48,21,25,154,154,132,132,10,27,10,13,0.6,0.8
2023-06-13T16:00:00,2216A,123.8139,42.3022,铁岭市,汇工街西,臭氧1小时,60,32,32,15,18,168,168,122,122,16,28,7,13,0.2,0.3
2023-06-13T16:00:00,2217A,123.8649,42.2923,铁岭市,水上乐园,,,27,27,19,20,151,151,110,110,18,28,9,7,,0.5
2023-06-13T16:00:00,2218A,123.8486,42.2867,铁岭市,银州路东段,,47,32,33,15,13,148,148,111,111,25,31,6,5,0.3,0.4
2023-06-13T16:00:00,2219A,123.7153,42.2217,铁岭市,金沙江路北,,49,20,26,14,17,156,156,126,126,15,31,5,5,0.4,0.5
2023-06-13T16:00:00,2220A,120.4318,41.5881,朝阳市,西梁,,44,8,26,2,18,140,140,117,117,7,20,11,12,0.6,0.7
2023-06-13T16:00:00,2221A,120.4521,41.5646,朝阳市,河畔小区,,49,14,25,5,17,154,154,130,130,4,11,6,7,0.6,0.7
2023-06-13T16:00:00,2222A,120.4176,41.5648,朝阳市,八里堡,,47,16,27,2,20,151,150,129,129,12,23,8,7,0.6,0.7
2023-06-13T16:00:00,2223A,120.3806,41.5969,朝阳市,农业园区,,46,6,20,2,17,147,147,123,123,5,18,5,5,0.5,0.7
2023-06-13T16:00:00,2225A,124.4002,43.1713,四平市,一商场,,48,13,35,10,19,153,153,127,127,11,36,7,8,0.3,0.5
2023-06-13T16:00:00,2226A,124.388,43.193,四平市,境园,,49,22,22,6,10,154,154,125,125,9,27,5,6,0.7,0.4
2023-06-13T16:00:00,2227A,125.1358,42.8845,辽源市,环保局,臭氧1小时,57,11,25,10,16,165,165,138,138,11,25,8,8,0.6,0.6
2023-06-13T16:00:00,2229A,125.9358,41.7173,通化市,光明,,32,17,15,14,8,129,102,88,88,16,20,11,15,0.3,0.4
2023-06-13T16:00:00,2230A,125.9446,41.7325,通化市,铁路,,30,20,14,17,8,128,93,91,91,22,22,15,15,0.4,0.5
2023-06-13T16:00:00,2231A,126.4219,41.9171,白山市,喜丰,,32,16,29,7,10,134,101,95,95,16,18,11,10,0.2,0.2
2023-06-13T16:00:00,2232A,126.4077,41.9419,白山市,环保局,,29,18,29,2,9,140,90,88,88,18,13,12,10,0.5,0.5
2023-06-13T16:00:00,2233A,124.8006,45.1214,松原市,江南,臭氧1小时,53,13,35,9,24,162,162,142,142,7,28,4,5,0.4,0.5
2023-06-13T16:00:00,2234A,124.7965,45.1722,松原市,江北,,48,5,18,9,22,153,153,135,135,9,23,3,3,0.3,0.4
2023-06-13T16:00:00,2235A,122.7911,45.6077,白城市,洮北区环保局,,50,18,28,8,15,165,158,150,150,7,18,2,4,0.1,0.2
2023-06-13T16:00:00,2236A,122.8738,45.5725,白城市,市环保局,,46,17,29,8,18,154,147,140,140,8,33,5,4,0.4,0.4
2023-06-13T16:00:00,2237A,129.47,42.8883,延边朝鲜族自治州,妇幼医院,,33,28,17,5,13,116,104,85,85,16,20,8,8,0.5,0.5
2023-06-13T16:00:00,2238A,129.5055,42.9108,延边朝鲜族自治州,延边医院,,35,24,23,3,12,114,109,86,86,14,19,8,8,0.4,0.5
2023-06-13T16:00:00,2239A,129.3964,42.8881,延边朝鲜族自治州,朝阳川镇医院,,35,30,15,4,7,120,110,94,94,10,19,8,8,0.5,0.5
2023-06-13T16:00:00,2240A,130.9762,45.3001,鸡西市,环保局,,32,20,36,11,20,100,100,85,85,13,39,4,5,0.4,0.6
2023-06-13T16:00:00,2243A,130.9429,45.3039,鸡西市,第一中学,,33,15,29,11,17,105,105,92,92,8,24,5,6,0.3,0.4
2023-06-13T16:00:00,2244A,130.2537,47.3416,鹤岗市,哈啤分公司,,,15,17,7,12,117,116,105,105,9,10,,10,0.3,0.3
2023-06-13T16:00:00,2245A,130.2684,47.3086,鹤岗市,斯达机电,,40,11,16,7,13,125,125,113,113,6,12,11,9,0.2,0.1
2023-06-13T16:00:00,2246A,130.3114,47.3388,鹤岗市,东山纸板厂,,40,10,13,8,10,129,126,110,110,10,15,12,11,0.3,0.4
2023-06-13T16:00:00,2247A,130.1097,47.3382,鹤岗市,五号水库,,,,,,,,,,,,,,,,
2023-06-13T16:00:00,2248A,131.1511,46.6937,双鸭山市,双合村,,43,9,39,7,19,136,136,128,128,5,11,7,11,0.1,0.4
2023-06-13T16:00:00,2249A,131.1652,46.6191,双鸭山市,南小市,,43,14,24,12,17,136,136,123,123,5,10,3,5,0.1,0.2
2023-06-13T16:00:00,2250A,131.1524,46.6554,双鸭山市,环保局,,42,12,26,13,15,135,134,118,118,8,16,8,10,0.1,0.8
2023-06-13T16:00:00,2251A,131.12,46.5656,双鸭山市,苗圃,,40,12,13,7,11,131,127,120,120,4,7,3,4,0.3,0.4
2023-06-13T16:00:00,2252A,128.5159,47.4311,伊春市,环保局,,33,14,10,5,7,119,105,99,99,9,10,5,6,0.3,0.5
2023-06-13T16:00:00,2253A,128.9102,47.7412,伊春市,电力嘉园,,,,25,,14,117,108,108,108,4,10,6,7,,0.5
2023-06-13T16:00:00,2254A,129.5029,48.471,伊春市,汤旺河国家公园,,36,21,18,20,21,118,113,96,96,1,1,26,17,0.2,0.4
2023-06-13T16:00:00,2255A,130.2751,46.8028,佳木斯市,佳纺,,44,17,29,10,17,138,138,120,120,7,18,7,7,0.3,0.3
2023-06-13T16:00:00,2256A,130.3995,46.8307,佳木斯市,发电厂,,42,12,24,9,16,140,134,123,123,12,16,10,10,0.3,0.3
2023-06-13T16:00:00,2257A,130.3258,46.7975,佳木斯市,环保局,,44,28,28,14,18,144,140,120,120,17,20,7,6,0.3,0.4
2023-06-13T16:00:00,2258A,130.3648,46.8032,佳木斯市,十一中,,40,27,26,12,18,130,127,115,115,12,18,8,7,0.3,0.4
2023-06-13T16:00:00,2259A,130.3794,46.7588,佳木斯市,四丰,臭氧1小时,77,24,24,13,20,188,181,158,158,10,22,1,1,0.3,0.3
2023-06-13T16:00:00,2262A,131.0518,45.8751,七台河市,新一中,,39,11,22,9,12,126,122,115,115,5,9,6,7,0.6,0.7
2023-06-13T16:00:00,2263A,127.4833,50.2524,黑河市,交通局,,47,23,16,17,17,150,150,113,113,10,19,18,10,0.3,0.5
2023-06-13T16:00:00,2264A,127.5144,50.2341,黑河市,环保局,,44,35,30,13,13,142,140,122,122,12,14,15,9,0.4,0.3
2023-06-13T16:00:00,2265A,127.5291,50.2472,黑河市,大黑河岛,臭氧1小时,64,20,12,11,15,171,171,136,136,3,6,25,17,0.4,0.4
2023-06-13T16:00:00,2266A,126.9785,46.6365,绥化市,人和东街,臭氧1小时,60,23,21,9,10,168,168,150,150,10,19,6,9,0.4,0.5
2023-06-13T16:00:00,2267A,126.964,46.6528,绥化市,党政办公中心,臭氧1小时,73,15,17,7,10,178,178,159,159,6,16,7,9,0.4,0.4
2023-06-13T16:00:00,2269A,124.1069,50.4097,大兴安岭地区,科技局,,23,13,23,12,13,96,73,63,63,4,7,6,6,0.2,0.2
2023-06-13T16:00:00,2270A,117.396,32.939,蚌埠市,工人疗养院,臭氧1小时,113,48,50,22,22,225,225,167,167,11,24,11,10,0.4,0.4
2023-06-13T16:00:00,2271A,117.3605,32.9427,蚌埠市,百货大楼,臭氧1小时,109,44,46,26,21,218,218,171,171,8,25,5,7,0.4,0.4
2023-06-13T16:00:00,2273A,117.4185,32.8911,蚌埠市,蚌埠学院,臭氧1小时,110,46,45,27,22,219,219,161,161,14,23,15,8,0.4,0.4
2023-06-13T16:00:00,2274A,117.3533,32.9673,蚌埠市,淮上区政府,臭氧1小时,107,46,54,25,25,214,214,158,158,8,25,7,8,0.3,0.4
2023-06-13T16:00:00,2275A,117.3145,32.8977,蚌埠市,高新区,臭氧1小时,112,53,43,20,21,224,224,171,171,9,18,8,8,0.3,0.3
2023-06-13T16:00:00,2277A,116.8305,32.7727,淮南市,潘集区政府,臭氧1小时,119,56,76,39,39,237,237,157,157,12,25,10,11,0.4,0.5
2023-06-13T16:00:00,2278A,117.0067,32.6524,淮南市,师范学院,臭氧1小时,114,88,61,45,33,227,227,156,156,21,19,12,10,0.5,0.5
2023-06-13T16:00:00,2279A,116.8569,32.5951,淮南市,谢家集区政府,臭氧1小时,119,46,52,33,26,238,238,160,160,18,20,9,12,0.4,0.4
2023-06-13T16:00:00,2280A,116.8281,32.633,淮南市,八公山区政府,臭氧1小时,117,66,64,30,28,233,233,155,155,11,17,10,12,0.6,0.6
2023-06-13T16:00:00,2281A,116.6325,32.6201,淮南市,焦岗湖风景区管理处,臭氧1小时,92,51,46,42,26,193,193,128,128,8,23,5,5,0.4,0.4
2023-06-13T16:00:00,2282A,116.8004,33.975,淮北市,监测站,臭氧1小时,103,38,38,19,16,212,206,199,199,13,17,5,5,0.4,0.4
2023-06-13T16:00:00,2283A,116.8091,33.9007,淮北市,烈山区政府,臭氧1小时,113,31,40,22,18,226,226,191,191,7,16,6,7,0.3,0.3
2023-06-13T16:00:00,2284A,116.7856,33.9477,淮北市,职业技术学院,,,,,,,,,,,,,,,,
2023-06-13T16:00:00,2285A,117.8177,30.9412,铜陵市,市第四中学,颗粒物(PM10),75,99,85,33,29,165,165,132,105,14,16,6,10,0.5,0.4
2023-06-13T16:00:00,2286A,117.8059,30.9273,铜陵市,市公路局,颗粒物(PM10),67,83,56,37,28,165,155,126,106,26,19,12,8,0.8,0.5
2023-06-13T16:00:00,2287A,117.7807,30.9413,铜陵市,市新民污水厂,颗粒物(PM10),61,71,58,26,23,165,153,143,99,28,20,15,11,0.7,0.5
2023-06-13T16:00:00,2288A,117.7439,30.8792,铜陵市,市第九中学,颗粒物(PM10),68,86,77,47,34,150,134,81,78,32,44,15,14,1.1,0.8
2023-06-13T16:00:00,2289A,117.846,30.9413,铜陵市,车站新区,,,44,54,14,24,176,176,133,112,13,22,8,8,,0.5
2023-06-13T16:00:00,2290A,117.8483,30.97,铜陵市,市职教基地,,50,37,45,18,22,157,157,121,96,9,12,7,5,0.7,0.6
2023-06-13T16:00:00,2291A,117.0809,30.5177,安庆市,环科院,臭氧1小时,62,20,44,18,32,234,169,144,144,14,20,8,11,0.4,0.6
2023-06-13T16:00:00,2292A,117.0331,30.5119,安庆市,马山宾馆,臭氧1小时,67,24,39,21,31,232,173,148,148,13,18,5,5,0.7,0.9
2023-06-13T16:00:00,2294A,116.9896,30.6145,安庆市,安庆大学,,50,27,45,15,36,204,160,130,130,10,14,9,9,0.4,0.6
2023-06-13T16:00:00,2295A,118.2903,29.6963,黄山市,延安路89号,,,43,54,1,14,183,134,131,131,,12,6,6,0.4,0.5
2023-06-13T16:00:00,2296A,118.327,29.7178,黄山市,黄山东路89号,,41,25,38,17,19,177,129,124,124,7,12,5,5,0.3,0.4
2023-06-13T16:00:00,2297A,118.1371,30.2756,黄山市,黄山区政府5号楼,颗粒物(PM10),54,57,52,23,29,144,142,124,124,9,10,7,7,0.5,0.6
2023-06-13T16:00:00,2298A,118.3093,32.3153,滁州市,老年大学,臭氧1小时,95,39,44,22,23,207,196,166,166,16,30,10,9,0.3,0.4
2023-06-13T16:00:00,2299A,118.3244,32.2786,滁州市,人大宾馆,臭氧1小时,83,43,44,29,29,218,186,178,178,20,35,7,10,0.3,0.4
2023-06-13T16:00:00,2301A,115.8277,32.8929,阜阳市,市监测站,臭氧1小时,77,35,48,18,24,227,181,161,161,17,24,8,11,0.5,0.6
2023-06-13T16:00:00,2303A,115.8554,32.8605,阜阳市,开发区,臭氧1小时,83,36,50,11,20,231,186,168,168,14,22,9,11,0.5,0.6
2023-06-13T16:00:00,2307A,116.5079,31.737,六安市,监测大楼,臭氧1小时,73,31,38,21,20,201,178,148,135,6,11,3,5,0.3,0.5
2023-06-13T16:00:00,2308A,116.4738,31.7643,六安市,皖西学院,臭氧1小时,78,20,46,19,22,207,182,162,138,8,12,5,7,0.3,0.4
2023-06-13T16:00:00,2309A,116.4996,31.7905,六安市,朝阳厂,臭氧1小时,88,17,39,12,20,207,190,143,141,8,15,6,8,0.5,0.6
2023-06-13T16:00:00,2310A,116.5567,31.7886,六安市,开发区,臭氧1小时,78,21,55,23,28,207,182,139,139,8,14,6,7,0.4,0.9
2023-06-13T16:00:00,2311A,115.8072,33.8399,亳州市,污水处理厂,臭氧1小时,100,31,42,14,21,200,200,172,172,6,13,6,8,0.2,0.4
2023-06-13T16:00:00,2312A,115.7789,33.8518,亳州市,三国揽胜宫,臭氧1小时,101,33,41,10,17,203,202,175,175,5,13,5,7,0.4,0.5
2023-06-13T16:00:00,2314A,117.47,30.6618,池州市,池州学院,,48,20,51,14,35,182,153,133,133,7,13,7,8,0.6,0.8
2023-06-13T16:00:00,2316A,118.7581,30.9454,宣城市,鳌峰子站,,35,20,42,20,22,124,111,100,84,11,18,4,5,0.4,0.4
2023-06-13T16:00:00,2317A,118.7385,30.9743,宣城市,敬亭山子站,,36,32,41,17,22,138,113,85,78,18,21,7,9,0.5,0.4
2023-06-13T16:00:00,2318A,118.7173,30.9427,宣城市,开发区子站,,37,27,37,18,20,129,117,102,83,10,16,5,7,0.5,0.4
2023-06-13T16:00:00,2319A,119.0141,25.4325,莆田市,荔城区仓后路,颗粒物(PM10),51,51,32,30,19,168,157,137,137,10,7,6,6,0.7,0.7
2023-06-13T16:00:00,2320A,119.0015,25.4553,莆田市,莆田市监测站,臭氧1小时,57,53,30,26,14,174,165,133,133,10,4,8,6,0.5,0.4
2023-06-13T16:00:00,2321A,119.1119,25.4561,莆田市,涵江区六中,,43,32,29,19,16,175,135,138,138,5,6,8,7,0.6,0.6
2023-06-13T16:00:00,2322A,119.1013,25.3215,莆田市,秀屿区政府,,49,49,31,14,15,158,120,135,135,3,5,7,7,0.7,0.7
2023-06-13T16:00:00,2323A,118.981,25.4792,莆田市,东圳水库,,,43,25,33,12,,,,,10,4,3,2,,
2023-06-13T16:00:00,2324A,117.6211,26.2625,三明市,三钢,颗粒物(PM10),53,56,49,33,31,135,88,86,86,30,25,12,11,0.6,0.7
2023-06-13T16:00:00,2325A,117.635,26.2714,三明市,三明二中,,50,50,43,35,26,133,100,97,97,25,25,9,8,0.9,0.8
2023-06-13T16:00:00,2326A,117.6028,26.2378,三明市,三元区政府,细颗粒物(PM2.5),53,51,53,37,32,142,93,88,88,16,22,10,11,0.8,0.9
2023-06-13T16:00:00,2327A,117.7275,26.3108,三明市,洋溪,,,37,43,24,29,,,,,12,13,9,10,,
2023-06-13T16:00:00,2331A,118.0966,26.6761,南平市,茫荡山,,,,,19,22,,,,,,,5,5,,
2023-06-13T16:00:00,2332A,118.1681,26.6369,南平市,南平市监测站,,45,43,46,31,29,128,103,103,103,12,15,12,5,1.1,0.8
2023-06-13T16:00:00,2333A,118.1825,26.6489,南平市,南平铝业有限公司,,47,47,49,32,37,131,82,101,101,16,18,8,7,0.9,0.8
2023-06-13T16:00:00,2334A,118.1756,26.6272,南平市,南平七中,,43,40,46,30,28,134,97,104,104,11,12,10,5,1.0,0.7
2023-06-13T16:00:00,2335A,117.0189,25.1181,龙岩市,龙岩师专,,,50,40,28,26,,,,,17,17,4,3,,
2023-06-13T16:00:00,2336A,117.0217,25.1033,龙岩市,龙岩市监测站,颗粒物(PM10),53,55,39,35,27,157,140,122,122,16,15,10,9,0.6,0.6
2023-06-13T16:00:00,2337A,117.0258,25.0661,龙岩市,闽西职业技术学院,,40,40,39,26,25,148,109,106,106,8,12,6,9,0.7,0.7
2023-06-13T16:00:00,2338A,117.0196,25.0306,龙岩市,龙岩学院,,48,48,36,22,23,146,88,107,107,6,9,2,5,0.6,0.6
2023-06-13T16:00:00,2339A,119.5001,26.6946,宁德市,金涵水库,,,40,36,34,21,,,,,13,9,4,3,,
2023-06-13T16:00:00,2341A,119.5388,26.6612,宁德市,宁德市监测站,,45,45,36,26,28,164,138,143,137,13,5,9,8,0.7,0.7
2023-06-13T16:00:00,2342A,117.3102,29.3867,景德镇市,王港中学,,41,30,41,19,26,136,129,100,100,4,8,11,13,0.5,0.6
2023-06-13T16:00:00,2343A,117.2117,29.2933,景德镇市,老干部活动中心,颗粒物(PM10),58,66,62,21,28,130,122,101,101,6,13,4,5,0.2,0.2
2023-06-13T16:00:00,2344A,117.1894,29.2789,景德镇市,兽医站,,40,29,43,12,31,132,125,102,102,5,14,6,8,0.6,0.5
2023-06-13T16:00:00,2345A,117.1547,29.2617,景德镇市,台达陶瓷,,44,44,53,28,34,136,129,98,98,7,21,22,19,0.5,0.6
2023-06-13T16:00:00,2346A,117.2461,29.2956,景德镇市,陶研所,,39,38,55,27,23,135,120,100,100,4,9,5,5,0.2,0.2
2023-06-13T16:00:00,2347A,114.0997,27.5002,萍乡市,武功山,,32,5,21,11,16,102,100,81,81,8,7,24,23,0.5,0.1
2023-06-13T16:00:00,2348A,113.8385,27.6434,萍乡市,中医院,,30,6,31,11,23,137,94,80,80,5,11,5,7,0.6,0.7
2023-06-13T16:00:00,2349A,113.8493,27.6253,萍乡市,市政府车库,,28,20,36,15,24,138,87,84,84,12,9,14,8,0.3,0.5
2023-06-13T16:00:00,2350A,113.8676,27.6435,萍乡市,市环保局,,,24,39,13,23,148,101,90,90,3,13,,14,,0.7
2023-06-13T16:00:00,2351A,113.866,27.6198,萍乡市,安源区政府,,33,16,32,3,14,134,103,89,89,6,15,8,14,0.4,0.7
2023-06-13T16:00:00,2352A,115.0861,27.9317,新余市,北岗,,32,28,44,22,34,183,75,86,81,5,7,8,13,0.5,0.7
2023-06-13T16:00:00,2353A,114.9886,27.8431,新余市,飞宇,,38,38,63,21,34,197,86,102,96,19,16,5,10,0.5,0.6
2023-06-13T16:00:00,2354A,114.9231,27.8246,新余市,第二水厂,,,,65,,34,183,,106,100,,14,,12,,0.3
2023-06-13T16:00:00,2355A,114.9308,27.8036,新余市,市气象局,,32,32,55,14,33,197,92,98,95,6,9,7,12,0.4,0.6
2023-06-13T16:00:00,2357A,116.9822,28.1136,鹰潭市,龙虎山,,48,48,48,32,41,150,119,120,120,6,6,3,4,1.1,0.9
2023-06-13T16:00:00,2358A,117.0564,28.2642,鹰潭市,新监测站,,41,39,59,24,37,183,130,134,134,7,11,8,10,0.6,0.6
2023-06-13T16:00:00,2359A,117.0311,28.2475,鹰潭市,财苑宾馆,,40,36,57,20,35,184,127,136,136,5,8,5,8,0.2,0.4
2023-06-13T16:00:00,2360A,117.0222,28.2264,鹰潭市,体育馆,,41,41,65,22,35,189,127,135,135,6,11,1,5,0.4,0.5
2023-06-13T16:00:00,2361A,117.0017,28.2131,鹰潭市,三川水表,,41,41,64,23,32,193,122,130,130,7,9,2,5,0.7,0.8
2023-06-13T16:00:00,2362A,114.9017,25.9149,赣州市,通天岩,,,,,,,,,,,,,,,,
2023-06-13T16:00:00,2363A,114.9367,25.8664,赣州市,地委,细颗粒物(PM2.5),59,63,59,42,31,123,108,84,84,6,12,10,19,1.3,1.2
2023-06-13T16:00:00,2364A,114.9461,25.8481,赣州市,气象台,细颗粒物(PM2.5),52,51,49,36,28,138,121,98,98,11,16,6,11,1.0,0.9
2023-06-13T16:00:00,2365A,114.9322,25.8333,赣州市,市图书馆,细颗粒物(PM2.5),55,56,52,39,29,134,117,99,99,12,14,5,14,1.4,1.3
2023-06-13T16:00:00,2366A,114.8905,25.8471,赣州市,华坚鞋城,颗粒物(PM10),57,64,62,38,31,119,109,98,93,3,9,7,12,1.2,1.1
2023-06-13T16:00:00,2367A,114.9754,27.0803,吉安市,红声器材厂,,49,49,58,30,35,149,97,101,101,13,13,15,18,0.8,0.7
2023-06-13T16:00:00,2368A,114.9658,27.0999,吉安市,市森林工业局,,47,47,56,29,34,140,85,95,95,13,13,9,13,0.4,0.4
2023-06-13T16:00:00,2369A,114.99,27.1312,吉安市,市环境监测站,,42,42,51,27,33,148,92,101,101,12,13,9,13,0.8,0.8
2023-06-13T16:00:00,2370A,115.0093,27.0968,吉安市,青原区法院,,45,42,56,31,37,157,108,105,105,12,14,16,18,0.7,0.6
2023-06-13T16:00:00,2371A,114.3408,27.8064,宜春市,槟榔水业,,27,22,47,8,30,152,85,72,72,4,10,1,6,0.6,0.7
2023-06-13T16:00:00,2373A,114.3956,27.7844,宜春市,市石油公司,,29,24,52,17,33,167,90,78,78,13,16,4,8,0.7,0.8
2023-06-13T16:00:00,2374A,114.3703,27.7914,宜春市,市气象局,,25,20,51,14,33,167,80,80,80,18,19,6,8,0.7,0.8
2023-06-13T16:00:00,2375A,114.4013,27.8074,宜春市,市广电局,,31,25,54,15,33,167,98,86,86,11,14,9,12,0.8,0.9
2023-06-13T16:00:00,2376A,116.2127,28.0814,抚州市,桐源党溪,,43,38,50,27,30,209,136,161,154,3,10,1,2,1.0,0.5
2023-06-13T16:00:00,2377A,116.3544,27.9831,抚州市,市站,,41,41,57,24,34,150,117,143,139,14,7,8,8,0.8,0.7
2023-06-13T16:00:00,2378A,116.3565,27.963,抚州市,血防站,颗粒物(PM10),51,52,60,25,33,152,123,145,141,12,6,10,8,1.0,0.8
2023-06-13T16:00:00,2379A,116.3564,28.0007,抚州市,采茶剧团,,42,42,56,25,34,156,119,140,137,12,10,7,7,1.1,1
2023-06-13T16:00:00,2380A,116.385,27.9647,抚州市,医学分院,,40,37,56,18,31,156,127,147,145,11,9,5,6,1.0,1
2023-06-13T16:00:00,2381A,118.005,28.4572,上饶市,百草园,,48,3,57,27,28,174,151,118,118,5,10,4,6,0.6,0.1
2023-06-13T16:00:00,2382A,117.9756,28.4436,上饶市,市监测站,细颗粒物(PM2.5),72,81,74,52,44,186,154,130,130,12,15,11,13,0.6,0.6
2023-06-13T16:00:00,2383A,117.9519,28.4628,上饶市,凤凰光学,细颗粒物(PM2.5),79,83,74,58,43,187,138,116,116,6,18,12,16,0.9,0.8
2023-06-13T16:00:00,2385A,114.17,35.9019,鹤壁市,市监测站,臭氧1小时,97,23,50,5,27,240,197,194,194,12,18,4,5,0.4,0.5
2023-06-13T16:00:00,2386A,114.2956,35.7511,鹤壁市,市交警支队,臭氧1小时,95,26,52,25,31,224,196,209,209,10,24,12,10,0.6,0.6
2023-06-13T16:00:00,2387A,114.2878,35.7306,鹤壁市,迎宾馆,臭氧1小时,102,23,50,12,28,229,203,206,206,17,20,4,6,0.6,0.8
2023-06-13T16:00:00,2389A,113.836,35.311,新乡市,环保西院,臭氧1小时,82,23,57,11,29,200,185,170,170,8,21,9,10,0.8,1
2023-06-13T16:00:00,2390A,113.884,35.272,新乡市,开发区,臭氧1小时,97,32,53,12,28,199,197,175,175,8,21,4,7,0.8,1
2023-06-13T16:00:00,2391A,113.883,35.303,新乡市,环保东院,臭氧1小时,70,37,66,15,25,202,176,172,172,6,22,5,9,0.6,0.9
2023-06-13T16:00:00,2392A,115.0312,35.7636,濮阳市,环保局,臭氧1小时,95,22,58,15,30,232,196,199,199,14,20,7,8,0.6,0.6
2023-06-13T16:00:00,2394A,115.0574,35.7609,濮阳市,油田运输公司,臭氧1小时,100,39,67,15,33,230,200,194,194,13,20,5,6,0.3,0.4
2023-06-13T16:00:00,2395A,115.0866,35.7754,濮阳市,油田物探公司,臭氧1小时,103,33,57,14,33,247,206,209,209,10,19,5,5,0.4,0.5
2023-06-13T16:00:00,2396A,113.8276,34.0159,许昌市,监测站,臭氧1小时,110,44,60,10,31,240,219,209,209,8,17,2,5,0.1,0.2
2023-06-13T16:00:00,2398A,113.7906,33.9953,许昌市,开发区,臭氧1小时,108,64,57,16,34,234,215,205,205,13,18,3,5,0.4,0.6
2023-06-13T16:00:00,2399A,114.051,33.5699,漯河市,三五一五工厂,臭氧1小时,101,68,65,,39,216,202,187,187,,11,,7,0.8,0.5
2023-06-13T16:00:00,2400A,114.0055,33.5698,漯河市,漯河大学,臭氧1小时,105,58,56,22,34,216,209,187,187,8,11,5,7,0.3,0.4
2023-06-13T16:00:00,2401A,114.0138,33.5828,漯河市,市水利局,臭氧1小时,105,44,61,22,35,213,210,184,184,5,12,6,7,0.4,0.5
2023-06-13T16:00:00,2402A,114.0261,33.5698,漯河市,市广电局,臭氧1小时,105,49,62,25,37,219,210,186,186,6,12,2,4,0.3,0.4
2023-06-13T16:00:00,2404A,112.5224,33.0122,南阳市,瓦房庄,臭氧1小时,100,33,40,50,20,202,200,174,174,8,14,4,4,0.4,0.4
2023-06-13T16:00:00,2405A,112.5003,32.9735,南阳市,汉画馆,臭氧1小时,99,41,39,22,23,200,199,171,171,8,12,4,6,0.5,0.6
2023-06-13T16:00:00,2406A,112.5573,33.027,南阳市,气象站,臭氧1小时,99,36,41,18,20,199,199,168,168,9,14,6,5,0.5,0.5
2023-06-13T16:00:00,2407A,112.5481,32.9689,南阳市,理工学院,臭氧1小时,104,37,38,26,23,208,208,180,180,8,13,6,7,0.3,0.3
2023-06-13T16:00:00,2408A,115.6702,34.4285,商丘市,环境监测站,臭氧1小时,64,36,52,11,24,204,171,183,183,9,18,9,10,0.3,0.5
2023-06-13T16:00:00,2409A,115.6458,34.4045,商丘市,粮食局,臭氧1小时,64,31,43,8,23,219,171,192,192,8,14,6,6,0.4,0.6
2023-06-13T16:00:00,2410A,115.6293,34.3948,商丘市,睢阳区环保局,臭氧1小时,67,53,64,12,25,211,173,184,184,8,19,4,5,0.3,0.4
2023-06-13T16:00:00,2420A,114.0189,32.9656,驻马店市,市一纸厂,臭氧1小时,70,41,47,28,26,208,176,176,176,4,8,3,4,0.3,0.4
2023-06-13T16:00:00,2421A,114.0114,33.015,驻马店市,市彩印厂,臭氧1小时,77,43,58,33,25,205,181,173,173,4,10,5,6,0.2,0.4
2023-06-13T16:00:00,2422A,113.9976,32.9771,驻马店市,天方二分厂,臭氧1小时,70,39,50,41,29,207,176,172,172,2,7,4,5,0.4,0.3
2023-06-13T16:00:00,2423A,115.0601,30.2313,黄石市,沈家营,,49,27,52,17,25,203,156,119,119,15,19,16,10,0.8,0.6
2023-06-13T16:00:00,2424A,115.0817,30.2006,黄石市,陈家湾,臭氧1小时,54,30,50,20,25,195,163,126,124,10,15,10,7,0.6,0.5
2023-06-13T16:00:00,2426A,114.8988,30.2019,黄石市,铁山,臭氧1小时,65,23,48,11,26,252,172,127,124,3,13,8,9,0.5,0.7
2023-06-13T16:00:00,2427A,115.0307,30.2092,黄石市,团城山,臭氧1小时,52,28,49,8,18,194,161,123,123,8,21,13,10,0.6,0.5
2023-06-13T16:00:00,2428A,111.0419,32.395,十堰市,武当山,,44,14,16,3,8,138,138,98,98,6,5,11,10,0.6,0.6
2023-06-13T16:00:00,2429A,110.78,32.6494,十堰市,滨河新村,,46,16,31,13,17,147,147,109,109,1,5,4,4,0.5,0.6
2023-06-13T16:00:00,2430A,110.7258,32.6389,十堰市,刘家沟,,50,17,27,8,14,157,157,108,108,4,5,8,8,0.3,0.4
2023-06-13T16:00:00,2431A,110.8839,32.5714,十堰市,铁二处,臭氧1小时,79,14,25,17,11,183,183,132,132,1,5,7,6,0.5,0.6
2023-06-13T16:00:00,2432A,112.155,32.0197,襄阳市,襄城运动路,,50,28,28,10,15,182,160,148,148,8,10,8,9,0.6,0.6
2023-06-13T16:00:00,2433A,112.1392,32.0564,襄阳市,樊城新华路,臭氧1小时,54,21,28,14,16,184,163,150,150,9,10,8,9,0.6,0.6
