timepoint,stationcode,longitude,latitude,area,positionname,primarypollutant,aqi,pm10,pm10_24h,pm2_5,pm2_5_24h,o3,o3_24h,o3_8h,o3_8h_24h,no2,no2_24h,so2,so2_24h,co,co_24h
2022-04-09T23:00:00,1001A,116.3621,39.8784,北京市,万寿西宫,细颗粒物(PM2.5),108,162,164,81,96,162,115,147,128,30,36,4,3,0.8,0.9
2022-04-09T23:00:00,1002A,116.2202,40.2915,北京市,定陵(对照点),颗粒物(PM10),74,98,143,38,76,189,86,179,139,20,20,1,2,0.7,0.8
2022-04-09T23:00:00,1003A,116.4174,39.9289,北京市,东四,颗粒物(PM10),102,154,163,75,91,159,120,153,140,33,39,3,4,0.8,0.7
2022-04-09T23:00:00,1004A,116.4072,39.8863,北京市,天坛,细颗粒物(PM2.5),109,163,154,82,85,157,109,146,132,27,29,4,3,1.0,1
2022-04-09T23:00:00,1005A,116.462,39.9365,北京市,农展馆,细颗粒物(PM2.5),120,178,167,91,96,160,102,147,132,29,39,4,3,1.0,0.9
2022-04-09T23:00:00,1006A,116.3392,39.9295,北京市,官园,细颗粒物(PM2.5),110,156,161,83,93,150,99,141,126,27,32,6,6,0.8,0.9
2022-04-09T23:00:00,1007A,116.2878,39.9611,北京市,海淀万柳,颗粒物(PM10),100,149,165,69,89,158,95,146,127,35,37,4,4,0.8,0.9
2022-04-09T23:00:00,1008A,116.6636,40.135,北京市,顺义新城,细颗粒物(PM2.5),84,106,162,62,97,168,95,154,130,21,26,3,4,0.6,0.9
2022-04-09T23:00:00,1009A,116.6275,40.3275,北京市,怀柔镇,"颗粒物(PM10),细颗粒物(PM2.5)",83,115,137,61,92,182,105,173,140,21,20,4,4,0.6,0.9
2022-04-09T23:00:00,1010A,116.2296,40.217,北京市,昌平镇,颗粒物(PM10),92,134,255,47,84,185,85,175,135,37,26,3,4,0.7,0.9
2022-04-09T23:00:00,1011A,116.3966,39.9821,北京市,奥体中心,细颗粒物(PM2.5),108,161,162,81,95,285,109,161,131,28,37,8,7,0.9,0.9
2022-04-09T23:00:00,1012A,116.184,39.9136,北京市,古城,颗粒物(PM10),109,167,175,78,93,169,86,137,115,39,38,3,3,0.7,0.9
2022-04-09T23:00:00,1015A,117.1444,39.1661,天津市,勤俭道,细颗粒物(PM2.5),109,151,135,82,77,157,93,148,130,42,31,29,15,1.5,1
2022-04-09T23:00:00,1017A,117.237,39.1082,天津市,大直沽八号路,颗粒物(PM10),100,150,138,73,63,154,87,146,123,44,34,26,15,2.0,1
2022-04-09T23:00:00,1018A,117.202,39.0927,天津市,前进道,颗粒物(PM10),96,142,119,67,59,157,85,146,120,41,33,30,12,2.2,1.2
2022-04-09T23:00:00,1019A,117.1837,39.2133,天津市,淮河道,细颗粒物(PM2.5),127,161,142,96,86,148,65,140,119,52,33,14,14,1.8,1.3
2022-04-09T23:00:00,1023A,117.707,39.0343,天津市,第四大街,细颗粒物(PM2.5),87,114,129,64,78,137,0,127,80,113,51,8,10,0.5,0.9
2022-04-09T23:00:00,1024A,117.457,38.8394,天津市,永明路,细颗粒物(PM2.5),83,97,119,61,75,162,77,143,111,30,32,8,12,0.5,0.9
2022-04-09T23:00:00,1026A,117.764,39.1587,天津市,汉北路,"颗粒物(PM10),细颗粒物(PM2.5)",69,87,107,50,70,151,82,142,125,30,28,8,9,0.7,1
2022-04-09T23:00:00,1027A,117.157,38.9194,天津市,团泊洼(对照点),,,,47,57,76,156,72,134,105,35,42,10,14,1.2,1.3
2022-04-09T23:00:00,1029A,114.4422,38.0444,石家庄市,职工医院,细颗粒物(PM2.5),117,169,181,88,84,209,100,190,155,39,52,8,11,0.9,1
2022-04-09T23:00:00,1030A,114.6063,38.0266,石家庄市,高新区,细颗粒物(PM2.5),123,181,170,93,87,200,125,179,161,19,38,14,14,1.3,1.2
2022-04-09T23:00:00,1031A,114.4898,38.1328,石家庄市,西北水源,细颗粒物(PM2.5),156,179,200,119,100,189,130,173,150,14,40,14,12,1.0,1.2
2022-04-09T23:00:00,1032A,114.4586,38.0058,石家庄市,西南高教,细颗粒物(PM2.5),144,193,162,110,85,201,134,180,155,16,28,7,8,1.2,1.2
2022-04-09T23:00:00,1033A,114.5331,38.0178,石家庄市,世纪公园,细颗粒物(PM2.5),134,129,139,102,90,199,128,193,153,16,30,11,11,1.1,1
2022-04-09T23:00:00,1034A,114.509,38.0457,石家庄市,人民会堂,细颗粒物(PM2.5),153,170,186,117,102,220,144,203,185,25,46,14,13,1.1,1.1
2022-04-09T23:00:00,1035A,114.3524,37.8911,石家庄市,封龙山(对照点),细颗粒物(PM2.5),144,198,145,110,60,235,166,223,212,19,17,11,21,0.9,0.7
2022-04-09T23:00:00,1037A,118.131,39.6363,唐山市,雷达站,细颗粒物(PM2.5),113,122,162,85,114,144,129,135,134,20,26,9,8,1.2,1.1
2022-04-09T23:00:00,1038A,118.1725,39.6334,唐山市,物资局,细颗粒物(PM2.5),123,134,177,93,103,139,102,132,127,34,37,10,11,0.9,1.2
2022-04-09T23:00:00,1040A,118.1705,39.6506,唐山市,十二中,细颗粒物(PM2.5),113,149,171,85,114,137,98,129,123,28,32,8,11,0.7,1.1
2022-04-09T23:00:00,1041A,118.1869,39.622,唐山市,小山,细颗粒物(PM2.5),119,154,179,90,92,146,97,137,131,34,33,8,10,0.8,1.1
2022-04-09T23:00:00,1042A,119.5134,39.8207,秦皇岛市,北戴河环保局,细颗粒物(PM2.5),78,91,104,57,69,144,116,132,107,22,21,8,9,0.7,0.9
2022-04-09T23:00:00,1043A,119.7493,40.0116,秦皇岛市,第一关,细颗粒物(PM2.5),92,109,114,68,78,140,98,119,88,28,32,17,14,0.6,0.6
2022-04-09T23:00:00,1044A,119.5897,39.9499,秦皇岛市,监测站,细颗粒物(PM2.5),132,151,117,100,74,137,48,135,98,86,46,8,9,1.1,1
2022-04-09T23:00:00,1046A,119.5251,39.9041,秦皇岛市,建设大厦,细颗粒物(PM2.5),110,151,116,83,71,150,37,145,104,95,35,6,8,1.0,0.9
2022-04-09T23:00:00,1048A,114.5302,36.6116,邯郸市,东污水处理厂,,,108,119,40,61,152,90,139,120,14,23,,31,0.6,0.5
2022-04-09T23:00:00,1049A,114.4918,36.5713,邯郸市,矿院,颗粒物(PM10),77,103,125,37,57,160,97,143,128,2,20,8,10,0.4,0.7
2022-04-09T23:00:00,1050A,114.484,36.6133,邯郸市,丛台公园,颗粒物(PM10),74,98,114,40,61,165,105,150,135,10,22,9,13,0.5,1
2022-04-09T23:00:00,1051A,115.493,38.8632,保定市,游泳馆,细颗粒物(PM2.5),118,148,164,89,102,200,108,180,164,30,34,23,19,0.9,0.8
2022-04-09T23:00:00,1053A,115.4713,38.9108,保定市,接待中心,"颗粒物(PM10),细颗粒物(PM2.5)",115,180,203,87,122,208,111,183,161,39,55,16,14,1.4,1.4
2022-04-09T23:00:00,1054A,115.4612,38.8416,保定市,地表水厂,细颗粒物(PM2.5),124,179,197,94,99,200,115,191,174,28,38,12,10,1.1,1
2022-04-09T23:00:00,1055A,115.4323,38.8697,保定市,胶片厂,细颗粒物(PM2.5),122,163,171,92,111,198,117,180,167,22,36,15,15,1.4,1.2
2022-04-09T23:00:00,1056A,115.5086,38.8639,保定市,监测站,细颗粒物(PM2.5),145,149,171,111,131,208,98,181,162,36,39,11,10,1.2,1.1
2022-04-09T23:00:00,1057A,114.8883,40.8336,张家口市,人民公园,颗粒物(PM10),97,143,84,63,28,168,122,157,154,20,13,6,5,0.8,0.4
2022-04-09T23:00:00,1059A,114.8687,40.8042,张家口市,五金库,细颗粒物(PM2.5),102,139,95,76,38,173,165,166,166,20,19,10,8,0.9,0.6
2022-04-09T23:00:00,1060A,114.8902,40.762,张家口市,世纪豪园,细颗粒物(PM2.5),115,149,103,87,44,176,161,166,166,23,22,7,7,1.0,0.7
2022-04-09T23:00:00,1061A,114.8916,40.8661,张家口市,北泵房(对照点),细颗粒物(PM2.5),89,122,75,66,30,168,92,144,131,18,10,9,8,0.8,0.5
2022-04-09T23:00:00,1062A,117.9531,40.9081,承德市,铁路,颗粒物(PM10),84,117,104,46,47,134,94,124,115,37,41,9,8,0.7,0.6
2022-04-09T23:00:00,1063A,117.9392,40.9763,承德市,中国银行,颗粒物(PM10),79,107,106,51,54,137,89,129,122,35,28,7,6,0.9,0.6
2022-04-09T23:00:00,1064A,117.9503,40.928,承德市,开发区,颗粒物(PM10),71,92,97,49,53,143,109,135,129,28,34,11,10,0.7,0.7
2022-04-09T23:00:00,1065A,117.8051,40.9655,承德市,文化中心,细颗粒物(PM2.5),120,122,103,91,66,152,70,143,128,35,29,9,5,1.1,0.7
2022-04-09T23:00:00,1066A,117.9268,41.0026,承德市,离宫(对照点),细颗粒物(PM2.5),107,114,90,80,50,141,109,127,117,24,25,8,5,1.0,0.6
2022-04-09T23:00:00,1067A,116.6708,39.5111,廊坊市,药材公司,细颗粒物(PM2.5),108,146,171,81,95,161,112,145,138,39,38,8,7,1.2,1
2022-04-09T23:00:00,1068A,116.7214,39.5589,廊坊市,开发区,细颗粒物(PM2.5),123,140,165,93,100,163,107,147,138,34,35,8,7,1.0,0.8
2022-04-09T23:00:00,1070A,116.7244,39.5269,廊坊市,北华航天学院,细颗粒物(PM2.5),122,148,181,92,111,158,96,139,130,41,35,10,10,1.1,0.9
2022-04-09T23:00:00,1071A,116.8842,38.2991,沧州市,沧县城建局,细颗粒物(PM2.5),119,113,90,90,69,150,61,134,102,38,27,7,6,0.8,0.8
2022-04-09T23:00:00,1072A,116.8584,38.3254,沧州市,电视转播站,细颗粒物(PM2.5),105,134,89,79,57,140,30,127,96,57,26,3,9,0.8,0.6
2022-04-09T23:00:00,1073A,116.8709,38.3228,沧州市,市环保局,细颗粒物(PM2.5),123,107,93,93,70,167,57,144,110,39,23,9,12,0.8,0.8
2022-04-09T23:00:00,1074A,115.6838,37.7541,衡水市,电机北厂,颗粒物(PM10),86,122,130,56,64,224,108,195,161,28,21,13,11,0.4,0.6
2022-04-09T23:00:00,1075A,115.6303,37.7316,衡水市,市监测站,颗粒物(PM10),93,135,138,48,58,225,110,189,161,17,15,24,24,0.5,0.7
2022-04-09T23:00:00,1077A,114.4704,37.0886,邢台市,达活泉,,,127,176,,74,203,97,178,163,22,25,11,19,0.7,1.5
2022-04-09T23:00:00,1078A,114.5062,37.0349,邢台市,邢师高专,颗粒物(PM10),84,117,149,44,63,186,84,162,142,35,29,9,9,0.7,1.3
2022-04-09T23:00:00,1079A,114.5237,37.0851,邢台市,路桥公司,颗粒物(PM10),78,105,154,46,74,207,94,181,164,23,24,10,11,0.8,1.5
2022-04-09T23:00:00,1080A,114.4725,37.0719,邢台市,市环保局,颗粒物(PM10),84,118,159,41,77,193,93,172,156,27,29,8,10,0.5,1.4
2022-04-09T23:00:00,1081A,112.5139,37.8873,太原市,尖草坪,颗粒物(PM10),111,171,121,63,51,161,9,142,94,84,49,5,13,0.7,0.6
2022-04-09T23:00:00,1083A,112.434,38.0108,太原市,上兰(对照点),颗粒物(PM10),70,90,88,50,38,162,100,140,124,8,14,6,14,0.2,0.4
2022-04-09T23:00:00,1084A,112.469,37.7124,太原市,晋源,细颗粒物(PM2.5),74,96,109,54,51,170,64,147,108,47,42,9,18,0.4,0.7
2022-04-09T23:00:00,1085A,112.5583,37.7394,太原市,小店,细颗粒物(PM2.5),95,130,124,71,63,162,48,144,109,46,38,16,27,0.5,0.8
2022-04-09T23:00:00,1086A,112.5369,37.8692,太原市,桃园,颗粒物(PM10),101,152,116,68,46,157,11,143,96,85,51,2,11,0.8,0.6
2022-04-09T23:00:00,1087A,112.57,37.8195,太原市,坞城,颗粒物(PM10),76,101,117,41,51,160,32,147,101,62,41,9,22,0.5,0.8
2022-04-09T23:00:00,1088A,112.549,37.9854,太原市,南寨,颗粒物(PM10),103,155,143,42,44,158,3,137,89,83,48,7,15,1.0,0.8
2022-04-09T23:00:00,1090A,111.6507,40.7517,呼和浩特市,呼市一监,,,,132,,60,144,88,141,110,108,31,33,13,2.5,0.7
2022-04-09T23:00:00,1091A,111.6572,40.8033,呼和浩特市,小召,颗粒物(PM10),111,171,92,71,39,127,7,114,78,104,35,15,11,1.1,0.5
2022-04-09T23:00:00,1094A,111.7516,40.8369,呼和浩特市,如意水处理厂,颗粒物(PM10),94,137,79,61,38,138,7,127,83,92,32,12,13,0.7,0.5
2022-04-09T23:00:00,1095A,111.7276,40.8062,呼和浩特市,二十九中,颗粒物(PM10),124,197,95,92,45,139,16,127,91,84,31,16,14,1.1,0.6
2022-04-09T23:00:00,1096A,111.5512,40.7866,呼和浩特市,工大金川校区,颗粒物(PM10),88,126,95,42,38,121,21,112,82,58,22,14,12,0.6,0.5
2022-04-09T23:00:00,1097A,111.717,40.7612,呼和浩特市,化肥厂生活区,细颗粒物(PM2.5),196,232,136,147,73,122,12,116,82,80,31,19,17,1.3,0.7
2022-04-09T23:00:00,1098A,123.6836,41.9339,沈阳市,森林路(对照点),颗粒物(PM10),64,78,94,41,57,183,117,166,130,28,25,22,17,1.2,1.2
2022-04-09T23:00:00,1099A,123.505,41.7406,沈阳市,浑南东路,颗粒物(PM10),65,80,88,38,54,174,84,151,110,43,22,23,23,1.1,1.1
2022-04-09T23:00:00,1100A,123.4231,41.6989,沈阳市,新秀街,"颗粒物(PM10),细颗粒物(PM2.5)",63,76,102,45,61,170,122,151,127,25,23,20,24,1.1,1.2
2022-04-09T23:00:00,1102A,123.5903,41.8411,沈阳市,东陵路,颗粒物(PM10),66,82,86,47,62,164,103,148,117,19,19,20,20,1.1,1.2
2022-04-09T23:00:00,1103A,123.4264,41.8467,沈阳市,陵东街,颗粒物(PM10),66,82,99,44,55,170,104,155,129,28,21,14,14,1.2,1.1
2022-04-09T23:00:00,1104A,123.4114,41.7653,沈阳市,文化路,细颗粒物(PM2.5),65,73,98,47,66,181,131,162,139,15,15,13,16,1.2,1.3
2022-04-09T23:00:00,1105A,123.4678,41.7867,沈阳市,小河沿,颗粒物(PM10),66,81,98,42,59,164,102,146,118,27,19,17,16,1.2,1.1
2022-04-09T23:00:00,1106A,123.4017,41.7972,沈阳市,太原街,颗粒物(PM10),76,102,112,45,65,179,136,162,140,15,15,14,16,0.9,0.9
2022-04-09T23:00:00,1108A,123.3783,41.9228,沈阳市,京沈街,细颗粒物(PM2.5),64,66,110,46,67,178,123,163,141,18,17,15,16,1.1,1.1
2022-04-09T23:00:00,1109A,121.612,38.9741,大连市,甘井子,颗粒物(PM10),76,102,84,47,49,109,68,97,79,47,33,7,6,0.6,0.6
2022-04-09T23:00:00,1110A,121.565,38.9511,大连市,周水子,颗粒物(PM10),67,84,81,38,41,136,87,115,97,32,21,10,5,0.6,0.6
2022-04-09T23:00:00,1111A,121.5637,38.8845,大连市,星海三站,颗粒物(PM10),57,64,65,38,46,119,109,106,106,30,30,5,5,0.5,0.5
2022-04-09T23:00:00,1112A,121.6302,38.9117,大连市,青泥洼桥,颗粒物(PM10),65,80,77,41,42,135,116,119,118,25,18,8,8,0.8,0.7
2022-04-09T23:00:00,1113A,121.6251,38.8638,大连市,傅家庄,颗粒物(PM10),57,64,67,25,35,150,119,124,124,25,22,5,6,0.2,0.2
2022-04-09T23:00:00,1114A,121.5213,38.8661,大连市,七贤岭,颗粒物(PM10),65,79,71,30,34,121,101,111,103,36,28,13,13,0.8,0.7
2022-04-09T23:00:00,1115A,121.2529,38.8061,大连市,旅顺,颗粒物(PM10),51,51,53,31,42,158,139,124,124,19,17,10,10,0.4,0.5
2022-04-09T23:00:00,1116A,121.7485,39.1311,大连市,金州,颗粒物(PM10),52,53,62,34,42,122,90,117,104,20,16,4,5,0.8,0.8
2022-04-09T23:00:00,1117A,121.7811,39.0496,大连市,开发区,颗粒物(PM10),57,64,67,34,41,113,95,107,86,20,27,6,7,0.4,0.4
2022-04-09T23:00:00,1118A,121.9762,39.0631,大连市,双D港,颗粒物(PM10),52,54,53,24,32,100,92,96,88,23,24,5,4,0.2,0.3
2022-04-09T23:00:00,1119A,125.3325,43.9166,长春市,食品厂,颗粒物(PM10),54,57,84,29,57,113,88,110,87,18,14,7,9,0.5,0.7
2022-04-09T23:00:00,1120A,125.2863,43.9027,长春市,客车厂,颗粒物(PM10),56,62,81,29,56,118,93,115,85,19,18,7,10,0.9,1
2022-04-09T23:00:00,1121A,125.2841,43.8463,长春市,邮电学院,颗粒物(PM10),62,74,95,29,57,120,91,116,98,16,12,3,5,0.7,0.8
2022-04-09T23:00:00,1122A,125.3716,43.8772,长春市,劳动公园,,,76,82,28,55,122,98,122,98,,12,5,7,0.6,0.7
2022-04-09T23:00:00,1123A,125.3297,43.8805,长春市,园林处,,,81,77,,,116,102,115,97,17,16,6,8,0.4,0.6
2022-04-09T23:00:00,1124A,125.4605,43.79,长春市,净月潭,,,45,67,,,124,99,123,110,10,9,7,8,0.6,0.7
2022-04-09T23:00:00,1125A,125.7194,43.515,长春市,甩湾子(对照点),细颗粒物(PM2.5),77,86,119,56,49,126,52,118,89,19,9,10,10,0.9,0.6
2022-04-09T23:00:00,1126A,125.3863,43.8447,长春市,经开区环卫处,,,49,76,30,55,117,65,114,88,,,9,11,0.8,0.9
2022-04-09T23:00:00,1127A,125.245,43.7783,长春市,高新区管委会,,41,41,73,27,55,125,86,120,90,17,12,5,7,0.5,0.7
2022-04-09T23:00:00,1128A,125.1761,43.8325,长春市,岱山公园,颗粒物(PM10),54,57,72,22,50,109,85,106,96,18,12,10,7,0.5,0.7
2022-04-09T23:00:00,1129A,126.5422,45.755,哈尔滨市,岭北(对照点),颗粒物(PM10),54,58,79,19,31,126,82,120,101,27,17,18,13,0.4,0.4
2022-04-09T23:00:00,1130A,126.561,45.8167,哈尔滨市,松北商大,颗粒物(PM10),55,60,63,32,37,122,75,120,74,33,22,8,6,0.8,0.7
2022-04-09T23:00:00,1131A,126.979,45.5419,哈尔滨市,阿城会宁,颗粒物(PM10),60,69,120,41,48,126,70,118,87,22,27,16,19,0.7,0.9
2022-04-09T23:00:00,1132A,126.599,45.7222,哈尔滨市,南岗学府路,,45,45,72,25,33,116,87,111,94,18,25,17,16,0.6,0.7
2022-04-09T23:00:00,1133A,126.689,45.7733,哈尔滨市,太平宏伟公园,颗粒物(PM10),63,76,97,36,46,125,66,117,89,40,35,17,15,0.8,0.7
2022-04-09T23:00:00,1134A,126.635,45.7667,哈尔滨市,道外承德广场,颗粒物(PM10),53,56,89,28,50,121,85,112,91,24,32,21,21,0.6,0.6
2022-04-09T23:00:00,1135A,126.685,45.7319,哈尔滨市,香坊红旗大街,颗粒物(PM10),87,124,102,29,40,117,66,112,80,43,32,19,23,0.6,0.7
2022-04-09T23:00:00,1136A,126.6411,45.7258,哈尔滨市,动力和平路,颗粒物(PM10),55,60,81,29,39,116,56,111,82,47,28,15,13,0.7,0.7
2022-04-09T23:00:00,1137A,126.593,45.7478,哈尔滨市,道里建国路,颗粒物(PM10),54,57,82,26,42,114,80,108,87,33,33,18,19,1.1,0.9
2022-04-09T23:00:00,1138A,126.615,45.61,哈尔滨市,平房东轻厂,颗粒物(PM10),60,69,96,40,54,117,73,109,94,30,35,43,29,0.2,0.1
2022-04-09T23:00:00,1139A,126.595,45.9855,哈尔滨市,呼兰师专,细颗粒物(PM2.5),87,69,63,64,50,125,88,116,98,27,19,16,12,0.7,0.7
2022-04-09T23:00:00,1140A,126.6206,45.6842,哈尔滨市,省农科院,颗粒物(PM10),52,54,92,27,39,119,63,113,86,30,30,24,18,0.6,0.8
2022-04-09T23:00:00,1141A,121.4,31.238,上海市,普陀,,44,44,50,20,19,201,112,189,158,16,21,3,14,1.1,1.1
2022-04-09T23:00:00,1142A,121.478,31.2036,上海市,十五厂,,35,35,45,23,24,186,99,172,142,15,17,5,8,0.7,0.7
2022-04-09T23:00:00,1143A,121.467,31.3008,上海市,虹口,,48,48,50,23,21,180,103,169,141,17,21,3,6,0.6,0.6
2022-04-09T23:00:00,1144A,121.412,31.1654,上海市,徐汇上师大,,48,48,52,32,28,189,101,173,143,16,22,19,17,1.1,1.1
2022-04-09T23:00:00,1145A,121.536,31.2659,上海市,杨浦四漂,,41,41,49,28,22,191,103,176,147,11,14,8,9,0.7,0.7
2022-04-09T23:00:00,1147A,121.425,31.2261,上海市,静安监测站,颗粒物(PM10),51,52,53,26,24,184,102,174,145,18,23,5,18,0.1,0.1
2022-04-09T23:00:00,1148A,121.703,31.1907,上海市,浦东川沙,,34,34,44,21,22,192,104,170,142,18,18,5,5,0.7,0.7
2022-04-09T23:00:00,1149A,121.533,31.2284,上海市,浦东新区监测站,,50,50,49,26,21,188,105,171,146,16,18,5,6,0.6,0.6
2022-04-09T23:00:00,1150A,121.577,31.2071,上海市,浦东张江,,48,48,48,26,22,176,95,160,135,16,19,4,5,0.7,0.7
2022-04-09T23:00:00,1151A,118.8086,32.1065,南京市,迈皋桥,颗粒物(PM10),54,58,72,12,25,174,124,165,142,26,25,3,6,0.4,0.5
2022-04-09T23:00:00,1152A,118.7538,32.0551,南京市,草场门,颗粒物(PM10),63,75,82,27,30,177,129,168,148,46,45,10,13,0.1,0.3
2022-04-09T23:00:00,1153A,118.7794,32.0745,南京市,山西路,颗粒物(PM10),69,88,90,22,31,175,153,169,159,13,18,4,6,0.3,0.4
2022-04-09T23:00:00,1154A,118.7752,32.0023,南京市,中华门,颗粒物(PM10),60,70,89,24,29,185,136,174,156,21,29,3,4,0.3,0.3
2022-04-09T23:00:00,1155A,118.8109,32.0309,南京市,瑞金路,颗粒物(PM10),56,62,72,29,34,186,141,169,146,22,27,4,6,0.4,0.4
2022-04-09T23:00:00,1156A,118.7997,32.0754,南京市,玄武湖,颗粒物(PM10),55,60,71,14,29,184,150,171,159,13,20,4,4,0.4,0.5
2022-04-09T23:00:00,1157A,118.6414,32.0931,南京市,浦口,颗粒物(PM10),64,78,86,19,22,183,132,170,146,23,28,5,11,0.5,0.7
2022-04-09T23:00:00,1158A,118.7356,31.9996,南京市,奥体中心,颗粒物(PM10),58,66,80,24,29,184,130,172,150,28,31,6,9,0.4,0.5
2022-04-09T23:00:00,1159A,118.9125,32.1028,南京市,仙林大学城,颗粒物(PM10),56,61,76,24,30,190,159,182,170,16,22,6,8,0.6,0.6
2022-04-09T23:00:00,1160A,120.561,31.2472,苏州市,上方山(对照点),颗粒物(PM10),63,76,56,29,30,184,88,176,142,15,26,6,7,0.6,0.5
2022-04-09T23:00:00,1162A,120.591,31.3019,苏州市,彩香,,50,44,52,35,28,188,100,182,154,14,24,6,9,0.6,0.6
2022-04-09T23:00:00,1163A,120.596,31.3264,苏州市,轧钢厂,,,,59,33,27,190,102,181,156,13,22,6,9,0.6,0.5
2022-04-09T23:00:00,1164A,120.613,31.2703,苏州市,吴中区,细颗粒物(PM2.5),53,50,58,37,26,184,93,180,147,17,28,5,8,0.4,0.4
2022-04-09T23:00:00,1165A,120.543,31.2994,苏州市,苏州新区,颗粒物(PM10),56,61,60,34,28,191,100,184,156,12,21,8,10,0.7,0.6
2022-04-09T23:00:00,1166A,120.669,31.3097,苏州市,苏州工业园区,,47,47,52,23,28,182,96,174,147,17,25,8,10,0.5,0.5
2022-04-09T23:00:00,1167A,120.641,31.3708,苏州市,相城区,颗粒物(PM10),56,62,68,31,27,179,88,168,136,20,29,5,7,0.6,0.5
2022-04-09T23:00:00,1168A,120.9098,31.9663,南通市,狼山街道,颗粒物(PM10),59,68,61,24,24,203,103,191,162,36,43,10,10,0.1,0.2
2022-04-09T23:00:00,1169A,120.86,32.0005,南通市,虹桥,颗粒物(PM10),51,51,61,33,25,180,105,169,150,30,30,11,12,0.5,0.5
2022-04-09T23:00:00,1170A,120.87,32.02,南通市,城中,颗粒物(PM10),54,58,60,26,19,186,113,176,154,25,29,5,7,0.6,0.7
2022-04-09T23:00:00,1171A,120.94,31.93,南通市,星湖花园,颗粒物(PM10),58,65,57,29,23,198,76,183,144,51,35,8,8,0.3,0.3
2022-04-09T23:00:00,1172A,120.81,32.0417,南通市,紫琅学院,颗粒物(PM10),60,70,63,24,23,198,116,184,160,28,30,11,10,0.5,0.4
2022-04-09T23:00:00,1173A,119.176,34.5885,连云港市,市环境监测站,颗粒物(PM10),62,73,86,31,33,164,130,157,146,14,12,8,9,0.5,0.6
2022-04-09T23:00:00,1177A,117.179,34.2761,徐州市,黄河新村,颗粒物(PM10),62,73,81,37,34,164,126,160,147,10,10,12,11,0.7,0.6
2022-04-09T23:00:00,1178A,117.1918,34.2384,徐州市,淮塔,颗粒物(PM10),66,81,78,29,30,159,122,156,141,17,16,17,14,0.7,0.6
2022-04-09T23:00:00,1180A,117.256,34.2153,徐州市,新城区,颗粒物(PM10),66,81,83,33,28,154,117,148,136,16,15,8,9,0.8,0.7
2022-04-09T23:00:00,1181A,117.244,34.2911,徐州市,桃园路,颗粒物(PM10),62,73,79,30,25,158,117,154,138,12,12,13,14,0.5,0.5
2022-04-09T23:00:00,1182A,117.2933,34.2778,徐州市,农科院,颗粒物(PM10),60,70,71,22,18,154,108,148,134,11,7,11,12,0.7,0.7
2022-04-09T23:00:00,1186A,119.389,32.3761,扬州市,邗江监测站,颗粒物(PM10),69,88,89,40,33,172,88,157,127,49,29,11,12,0.5,0.5
2022-04-09T23:00:00,1188A,120.269,31.4867,无锡市,雪浪,颗粒物(PM10),53,56,72,17,21,216,103,190,154,21,19,7,8,0.3,0.2
2022-04-09T23:00:00,1189A,120.275,31.6219,无锡市,黄巷,颗粒物(PM10),54,57,68,24,25,205,116,187,161,29,29,8,8,0.3,0.4
2022-04-09T23:00:00,1190A,120.294,31.56,无锡市,曹张,颗粒物(PM10),52,53,56,19,24,199,106,183,155,16,24,9,9,0.6,0.7
2022-04-09T23:00:00,1191A,120.242,31.5031,无锡市,漆塘,颗粒物(PM10),53,56,63,25,30,202,102,179,150,17,15,7,8,0.3,0.3
2022-04-09T23:00:00,1192A,120.3489,31.5863,无锡市,东亭,颗粒物(PM10),51,51,67,22,23,206,108,188,154,28,41,7,8,0.5,0.5
2022-04-09T23:00:00,1193A,120.354,31.5475,无锡市,旺庄,颗粒物(PM10),57,63,68,22,29,191,108,174,151,16,32,7,8,0.6,0.6
2022-04-09T23:00:00,1194A,120.245,31.5631,无锡市,荣巷,颗粒物(PM10),54,58,62,24,26,206,99,183,149,27,21,10,9,0.4,0.4
2022-04-09T23:00:00,1195A,120.299,31.6817,无锡市,堰桥,颗粒物(PM10),58,66,76,29,29,178,113,159,139,23,42,7,8,0.6,0.6
2022-04-09T23:00:00,1196A,119.9633,31.762,常州市,市监测站,颗粒物(PM10),57,64,68,29,26,175,111,160,128,26,25,9,9,0.4,0.5
2022-04-09T23:00:00,1200A,119.9468,31.7069,常州市,武进监测站,颗粒物(PM10),57,63,69,30,34,205,120,181,160,20,25,5,8,0.5,0.5
2022-04-09T23:00:00,1201A,119.9255,31.9087,常州市,安家,颗粒物(PM10),63,75,67,36,34,192,102,172,136,36,33,6,7,0.5,0.5
2022-04-09T23:00:00,1203A,119.6707,32.1875,镇江市,新区办事处,颗粒物(PM10),74,98,75,36,29,186,102,174,140,52,37,4,9,1.1,0.8
2022-04-09T23:00:00,1204A,119.4974,32.1968,镇江市,职教中心,颗粒物(PM10),65,79,73,29,31,185,98,173,143,48,29,13,8,0.1,0.3
2022-04-09T23:00:00,1205A,119.4303,32.1328,镇江市,丹徒区监测站,颗粒物(PM10),60,70,70,27,30,200,147,181,162,31,29,6,11,0.3,0.4
2022-04-09T23:00:00,1206A,119.905,32.4878,泰州市,公园路,颗粒物(PM10),74,97,79,44,32,202,101,187,150,38,32,13,8,1.6,1
2022-04-09T23:00:00,1207A,119.9189,32.4625,泰州市,莲花,颗粒物(PM10),73,95,81,41,38,197,97,187,150,35,26,16,8,1.8,1
2022-04-09T23:00:00,1209A,119.888,32.4639,泰州市,留学生创业园,颗粒物(PM10),71,92,82,32,32,199,110,185,154,38,34,19,13,1.6,0.9
2022-04-09T23:00:00,1210A,119.036,33.5981,淮安市,钵池山,颗粒物(PM10),67,84,79,34,30,167,110,152,138,29,22,15,15,0.6,0.6
2022-04-09T23:00:00,1211A,119.007,33.575,淮安市,北京南路,颗粒物(PM10),62,73,83,30,30,188,119,164,149,29,26,12,13,0.6,0.7
2022-04-09T23:00:00,1212A,118.989,33.6067,淮安市,市监测站,颗粒物(PM10),60,70,89,27,36,190,127,171,156,26,28,14,19,0.6,1.2
2022-04-09T23:00:00,1213A,119.135,33.5039,淮安市,楚州区监测站,颗粒物(PM10),73,96,91,17,22,183,108,165,138,39,38,20,14,0.6,0.7
2022-04-09T23:00:00,1214A,119.0186,33.6297,淮安市,淮阴区监测站,颗粒物(PM10),60,69,84,28,32,180,121,163,151,27,24,15,16,0.8,0.9
2022-04-09T23:00:00,1215A,120.118,33.4022,盐城市,盐城电厂,颗粒物(PM10),60,70,80,37,39,225,150,205,186,8,18,9,13,0.4,0.6
2022-04-09T23:00:00,1216A,120.156,33.3942,盐城市,市监测站,颗粒物(PM10),55,59,71,34,33,219,115,190,165,17,21,9,11,0.4,0.5
2022-04-09T23:00:00,1218A,120.2144,33.38,盐城市,开发区管委会,,48,48,55,32,31,232,116,192,163,19,20,5,8,0.5,0.7
2022-04-09T23:00:00,1220A,118.293,33.9528,宿迁市,宿迁学院,颗粒物(PM10),62,74,62,32,28,155,86,145,130,57,17,9,7,0.5,0.4
2022-04-09T23:00:00,1221A,118.2442,33.9592,宿迁市,宿迁中学,颗粒物(PM10),60,70,56,27,26,163,135,148,144,12,11,9,6,0.7,0.5
2022-04-09T23:00:00,1223A,120.2072,30.2111,杭州市,滨江,颗粒物(PM10),92,134,85,52,35,181,33,170,125,92,43,11,8,0.7,0.5
2022-04-09T23:00:00,1224A,120.0633,30.2747,杭州市,西溪,颗粒物(PM10),71,92,67,38,32,188,62,172,141,56,40,6,5,0.5,0.4
2022-04-09T23:00:00,1226A,120.3461,30.3153,杭州市,下沙,颗粒物(PM10),74,98,90,43,33,180,84,170,137,50,46,12,10,0.5,0.5
2022-04-09T23:00:00,1227A,120.1269,30.2456,杭州市,卧龙桥,"颗粒物(PM10),细颗粒物(PM2.5)",58,65,54,41,30,181,48,160,106,34,26,5,5,0.6,0.5
2022-04-09T23:00:00,1228A,120.1903,30.2692,杭州市,浙江农大,颗粒物(PM10),89,127,78,53,36,200,32,183,133,80,38,10,8,0.6,0.6
2022-04-09T23:00:00,1230A,120.1197,30.3119,杭州市,和睦小学,颗粒物(PM10),85,120,89,52,37,190,50,173,136,61,42,7,5,0.7,0.7
2022-04-09T23:00:00,1231A,120.3019,30.4183,杭州市,临平镇,颗粒物(PM10),79,108,94,38,35,187,87,174,148,33,41,6,6,0.6,0.5
2022-04-09T23:00:00,1232A,120.2697,30.1819,杭州市,城厢镇,颗粒物(PM10),81,111,80,41,25,165,77,156,121,53,36,9,8,0.6,0.5
2022-04-09T23:00:00,1233A,120.0883,30.1808,杭州市,云栖,颗粒物(PM10),67,83,71,30,27,190,19,160,93,66,39,6,7,0.6,0.5
2022-04-09T23:00:00,1234A,121.8358,29.911,宁波市,区环保大楼,,42,42,52,18,20,138,108,132,116,6,18,6,9,0.6,0.6
2022-04-09T23:00:00,1235A,121.56,29.82,宁波市,万里学院,颗粒物(PM10),51,51,47,28,19,163,100,158,132,17,16,9,10,0.5,0.4
2022-04-09T23:00:00,1236A,121.713,29.9572,宁波市,龙赛医院,,,66,48,,20,151,106,139,122,11,33,5,8,0.4,0.5
2022-04-09T23:00:00,1239A,121.633,29.7733,宁波市,钱湖水厂,,38,38,39,24,24,157,105,150,129,5,8,3,5,0.4,0.4
2022-04-09T23:00:00,1240A,121.5856,29.8635,宁波市,太古小学,,50,50,49,30,22,147,87,132,105,14,18,7,9,0.5,0.5
2022-04-09T23:00:00,1241A,121.524,29.8674,宁波市,市环境监测中心,,45,45,48,22,18,164,111,159,133,11,20,7,11,0.5,0.5
2022-04-09T23:00:00,1242A,120.634,28.0089,温州市,瓯海,细颗粒物(PM2.5),70,77,77,51,31,148,86,121,102,24,39,5,6,0.4,0.4
2022-04-09T23:00:00,1243A,120.6748,27.9939,温州市,南浦,颗粒物(PM10),70,89,85,44,34,143,80,117,98,28,40,6,8,0.5,0.4
2022-04-09T23:00:00,1244A,120.76,27.9747,温州市,龙湾,颗粒物(PM10),83,116,93,39,28,124,46,118,100,53,39,4,5,0.4,0.4
2022-04-09T23:00:00,1245A,120.6709,28.0167,温州市,市站,颗粒物(PM10),88,126,78,45,28,148,76,122,104,31,34,5,6,0.5,0.4
2022-04-09T23:00:00,1247A,120.6053,29.9928,绍兴市,城东开发委,颗粒物(PM10),55,59,60,33,24,172,113,162,141,14,19,5,7,0.5,0.4
2022-04-09T23:00:00,1250A,120.0751,30.8669,湖州市,城西水厂,颗粒物(PM10),61,71,77,27,29,181,85,167,144,36,44,11,10,0.5,0.5
2022-04-09T23:00:00,1252A,120.7436,30.778,嘉兴市,清河小学,颗粒物(PM10),61,72,62,22,22,184,91,162,128,27,27,8,8,0.6,0.4
2022-04-09T23:00:00,1253A,120.726,30.7478,嘉兴市,嘉兴学院,颗粒物(PM10),61,72,62,38,23,179,87,159,128,22,22,12,12,1.0,0.9
2022-04-09T23:00:00,1255A,121.273,28.6459,台州市,黄岩环保大楼,颗粒物(PM10),56,61,58,20,20,138,98,127,110,6,18,6,6,0.3,0.3
2022-04-09T23:00:00,1256A,121.419,28.6542,台州市,台州环保大楼,颗粒物(PM10),59,68,78,38,30,150,93,136,114,13,22,6,7,0.3,0.3
2022-04-09T23:00:00,1257A,121.377,28.5773,台州市,路桥田洋王,细颗粒物(PM2.5),54,50,63,38,29,133,89,120,101,11,29,6,8,0.3,0.4
2022-04-09T23:00:00,1258A,122.122,30.0203,舟山市,定海檀枫,,34,34,32,16,15,112,80,107,93,15,16,1,2,0.3,0.3
2022-04-09T23:00:00,1259A,122.3094,29.9558,舟山市,普陀东港,,29,29,32,12,16,124,87,108,91,15,22,4,4,0.3,0.3
2022-04-09T23:00:00,1260A,122.19,29.9944,舟山市,临城新区,,27,27,30,14,13,126,75,120,93,22,18,4,3,0.3,0.3
2022-04-09T23:00:00,1262A,119.647,29.077,金华市,十五中,颗粒物(PM10),63,76,66,27,26,169,94,154,116,26,27,6,7,0.5,0.5
2022-04-09T23:00:00,1263A,119.686,29.1029,金华市,监测站,颗粒物(PM10),61,72,67,31,24,163,98,151,105,22,36,5,7,0.4,0.4
2022-04-09T23:00:00,1264A,118.8692,28.9398,衢州市,环保大楼,颗粒物(PM10),60,69,73,28,28,167,106,153,125,26,38,12,16,0.8,0.7
2022-04-09T23:00:00,1265A,118.8709,28.9666,衢州市,实验学校,颗粒物(PM10),64,77,64,36,26,414,56,196,84,36,34,5,19,0.6,0.5
2022-04-09T23:00:00,1266A,118.8621,28.9808,衢州市,衢州学院,颗粒物(PM10),63,76,69,30,26,168,8,150,94,92,49,8,10,0.7,0.6
2022-04-09T23:00:00,1267A,119.914,28.4514,丽水市,监测站大楼,颗粒物(PM10),57,64,50,30,20,142,85,137,117,11,18,5,7,0.4,0.3
2022-04-09T23:00:00,1268A,119.93,28.4586,丽水市,莲都小学,,47,47,60,25,19,145,103,138,126,8,21,6,7,0.4,0.3
2022-04-09T23:00:00,1269A,119.879,28.4231,丽水市,余庄前,,47,47,51,22,25,145,93,140,124,11,16,5,5,0.3,0.2
2022-04-09T23:00:00,1270A,117.1959,31.7848,合肥市,明珠广场,颗粒物(PM10),59,68,75,24,26,158,92,138,112,34,46,7,8,0.5,0.5
2022-04-09T23:00:00,1271A,117.3072,31.8764,合肥市,三里街,颗粒物(PM10),70,90,86,29,30,154,62,139,106,62,48,9,9,0.4,0.5
2022-04-09T23:00:00,1272A,117.2588,31.8707,合肥市,琥珀山庄,颗粒物(PM10),58,66,73,22,21,154,60,137,112,50,39,6,6,0.5,0.5
2022-04-09T23:00:00,1273A,117.1604,31.9052,合肥市,董铺水库(对照点),颗粒物(PM10),67,83,77,22,21,167,110,149,131,25,28,9,10,0.5,0.5
2022-04-09T23:00:00,1274A,117.25,31.8571,合肥市,长江中路,颗粒物(PM10),62,73,77,17,18,169,93,146,120,44,46,9,9,0.4,0.4
2022-04-09T23:00:00,1275A,117.266,31.9436,合肥市,庐阳区,颗粒物(PM10),62,73,82,17,19,153,67,138,115,71,46,9,10,0.9,0.8
2022-04-09T23:00:00,1276A,117.336,31.8586,合肥市,瑶海区,颗粒物(PM10),86,122,89,29,25,156,45,143,99,80,40,9,9,0.7,0.6
2022-04-09T23:00:00,1277A,117.3027,31.7964,合肥市,包河区,颗粒物(PM10),67,83,82,27,28,165,87,149,118,38,34,6,6,0.4,0.4
2022-04-09T23:00:00,1278A,117.2776,31.7385,合肥市,滨湖新区,颗粒物(PM10),63,75,76,22,25,168,110,152,132,16,18,4,4,0.2,0.2
2022-04-09T23:00:00,1279A,117.1318,31.8403,合肥市,高新区,颗粒物(PM10),58,66,72,22,25,172,118,152,133,24,31,11,12,0.5,0.5
2022-04-09T23:00:00,1280A,119.3903,26.0543,福州市,鼓山(对照点),,45,45,42,20,14,116,100,114,106,5,6,3,4,0.4,0.4
2022-04-09T23:00:00,1282A,119.2681,26.0504,福州市,师大,颗粒物(PM10),61,72,58,35,21,132,71,118,91,26,17,2,5,0.4,0.3
2022-04-09T23:00:00,1283A,119.2984,26.1028,福州市,五四北路,颗粒物(PM10),51,52,53,27,20,129,68,118,94,22,17,3,3,0.3,0.2
2022-04-09T23:00:00,1284A,119.2648,26.0768,福州市,杨桥西路,颗粒物(PM10),60,70,61,35,19,117,37,109,79,44,19,3,4,0.9,0.8
2022-04-09T23:00:00,1285A,119.317,26.0746,福州市,紫阳,颗粒物(PM10),54,58,51,25,21,120,55,113,88,34,18,4,5,0.6,0.5
2022-04-09T23:00:00,1286A,118.1608,24.8169,厦门市,溪东(对照点),,38,35,39,26,19,124,58,116,89,3,3,1,1,0.3,0.2
2022-04-09T23:00:00,1287A,118.1514,24.4767,厦门市,洪文,颗粒物(PM10),52,53,52,24,21,134,58,119,89,20,15,3,4,0.5,0.4
2022-04-09T23:00:00,1288A,118.0661,24.4444,厦门市,鼓浪屿,,44,44,55,25,27,130,52,112,97,39,33,2,6,0.3,0.4
2022-04-09T23:00:00,1290A,115.8931,28.6843,南昌市,省外办,颗粒物(PM10),68,85,81,38,33,172,11,154,116,95,44,8,11,0.9,0.7
2022-04-09T23:00:00,1291A,115.8886,28.7003,南昌市,省林业公司,颗粒物(PM10),65,80,82,35,31,185,52,166,133,57,50,3,12,0.9,0.9
2022-04-09T23:00:00,1292A,115.8126,28.7442,南昌市,林科所,颗粒物(PM10),52,53,60,18,22,183,76,166,136,42,46,11,13,0.5,0.4
2022-04-09T23:00:00,1294A,115.8518,28.687,南昌市,建工学校,颗粒物(PM10),62,74,78,34,31,174,52,154,123,50,53,12,14,0.6,0.5
2022-04-09T23:00:00,1295A,115.8921,28.6424,南昌市,象湖,颗粒物(PM10),84,118,99,30,34,179,67,156,122,39,41,7,10,0.9,0.9
2022-04-09T23:00:00,1296A,115.7423,28.7996,南昌市,武术学校(对照点),,37,37,40,24,23,170,61,153,117,16,10,19,17,0.6,0.6
2022-04-09T23:00:00,1298A,115.9314,28.6842,南昌市,省站,颗粒物(PM10),68,85,87,38,37,174,65,155,123,52,49,18,15,1.2,0.8
2022-04-09T23:00:00,1299A,116.9862,36.6114,济南市,科干所,,,75,90,27,30,462,,300,300,8,11,14,15,0.8,0.8
2022-04-09T23:00:00,1300A,116.9376,36.665,济南市,农科所,颗粒物(PM10),66,81,104,27,34,164,131,158,149,13,13,11,12,0.1,0.2
2022-04-09T23:00:00,1301A,117.1265,36.6734,济南市,开发区,颗粒物(PM10),57,63,73,25,27,171,148,167,162,5,7,11,12,0.4,0.4
2022-04-09T23:00:00,1303A,117.0624,36.6868,济南市,省种子仓库,颗粒物(PM10),62,73,82,24,30,180,156,173,166,2,5,13,14,0.7,0.7
2022-04-09T23:00:00,1304A,116.9489,36.6447,济南市,机床二厂,颗粒物(PM10),68,85,104,39,31,178,142,172,162,8,11,11,11,0.6,0.6
2022-04-09T23:00:00,1305A,117.0495,36.663,济南市,市监测站,颗粒物(PM10),67,83,86,27,26,174,155,169,163,2,6,14,14,0.4,0.4
2022-04-09T23:00:00,1306A,116.7675,36.5484,济南市,长清党校,颗粒物(PM10),70,90,91,29,29,173,137,164,155,11,14,12,14,0.8,0.8
2022-04-09T23:00:00,1307A,120.6659,36.2403,青岛市,仰口(对照点),细颗粒物(PM2.5),79,63,83,58,44,177,137,159,147,10,11,6,8,0.6,0.7
2022-04-09T23:00:00,1310A,120.4134,36.0658,青岛市,市南区东部子站,颗粒物(PM10),60,70,85,31,38,178,166,170,166,25,38,4,8,0.5,0.6
2022-04-09T23:00:00,1311A,120.3664,36.1032,青岛市,四方区子站,臭氧1小时,69,66,88,34,44,185,175,175,173,16,31,6,9,0.6,0.9
2022-04-09T23:00:00,1312A,120.2994,36.054,青岛市,市南区西部子站,臭氧1小时,78,66,80,29,39,196,182,186,186,21,31,6,9,0.5,0.7
2022-04-09T23:00:00,1313A,120.4581,36.0858,青岛市,崂山区子站,颗粒物(PM10),75,100,96,34,42,196,170,189,185,18,27,7,9,0.5,0.6
2022-04-09T23:00:00,1314A,120.1983,35.9608,青岛市,黄岛区子站,颗粒物(PM10),59,68,81,37,41,185,159,175,170,27,32,5,7,0.6,0.8
2022-04-09T23:00:00,1315A,120.3999,36.3083,青岛市,城阳区子站,颗粒物(PM10),65,80,102,27,30,178,162,168,162,16,26,6,10,0.6,0.9
2022-04-09T23:00:00,1316A,113.69031,34.76122,郑州市,烟厂,颗粒物(PM10),73,96,113,40,34,183,93,162,133,25,29,12,12,0.6,0.5
2022-04-09T23:00:00,1317A,113.65724,34.77134,郑州市,郑纺机,颗粒物(PM10),78,106,110,29,30,176,89,156,128,30,39,12,12,0.7,0.7
2022-04-09T23:00:00,1318A,113.67526,34.80246,郑州市,银行学校,颗粒物(PM10),72,94,107,29,36,184,100,166,140,24,31,10,9,0.7,0.6
2022-04-09T23:00:00,1319A,113.56746,34.81334,郑州市,供水公司,颗粒物(PM10),77,104,126,28,42,180,94,164,141,27,31,10,10,0.5,0.6
2022-04-09T23:00:00,1320A,113.7329,34.7178,郑州市,经开区管委,颗粒物(PM10),74,98,109,46,34,175,74,139,131,36,30,11,13,0.6,0.6
2022-04-09T23:00:00,1321A,113.73961,34.77172,郑州市,四十七中,颗粒物(PM10),77,103,103,47,36,200,91,171,141,24,23,11,11,0.7,0.6
2022-04-09T23:00:00,1322A,113.60532,34.74838,郑州市,市监测站,颗粒物(PM10),78,106,112,33,33,164,94,146,124,26,40,14,12,0.7,0.7
2022-04-09T23:00:00,1324A,113.51488,34.91089,郑州市,岗李水库(对照点),颗粒物(PM10),71,91,112,32,41,170,40,159,125,29,30,8,10,0.6,0.6
2022-04-09T23:00:00,1325A,114.3677,30.5584,武汉市,东湖梨园,颗粒物(PM10),65,80,71,46,38,159,49,147,104,67,49,10,10,0.8,0.7
2022-04-09T23:00:00,1326A,114.2529,30.558,武汉市,汉阳月湖,颗粒物(PM10),65,79,66,31,28,157,62,140,79,69,60,13,10,0.8,0.7
2022-04-09T23:00:00,1327A,114.282,30.6189,武汉市,汉口花桥,颗粒物(PM10),60,69,61,34,30,152,27,136,84,92,50,13,13,0.6,0.5
2022-04-09T23:00:00,1328A,114.3025,30.5332,武汉市,武昌紫阳,颗粒物(PM10),66,82,62,32,27,159,45,140,81,81,43,13,12,1.1,0.9
2022-04-09T23:00:00,1329A,114.3646,30.6217,武汉市,青山钢花,颗粒物(PM10),92,134,96,48,39,162,57,146,87,74,61,15,16,0.9,0.8
2022-04-09T23:00:00,1330A,114.1566,30.4825,武汉市,沌口新区,颗粒物(PM10),79,108,82,38,33,153,32,138,85,101,49,17,15,0.8,0.8
2022-04-09T23:00:00,1331A,114.3014,30.5944,武汉市,汉口江滩,颗粒物(PM10),72,93,75,34,33,155,18,131,71,121,76,10,11,1.0,0.8
2022-04-09T23:00:00,1333A,114.135,30.6319,武汉市,吴家山,颗粒物(PM10),83,115,82,44,30,154,25,144,86,102,60,12,13,0.9,0.8
2022-04-09T23:00:00,1334A,113.8454,30.2917,武汉市,沉湖七壕(对照点),颗粒物(PM10),58,66,56,27,25,154,54,147,109,58,33,6,7,0.5,0.6
2022-04-09T23:00:00,1335A,113.0833,28.2325,长沙市,经开区环保局,细颗粒物(PM2.5),90,78,59,67,42,176,37,154,112,92,33,9,10,0.6,0.5
2022-04-09T23:00:00,1336A,112.8872,28.2189,长沙市,高开区环保局,,,72,78,37,34,169,125,160,146,,39,13,15,0,0.6
2022-04-09T23:00:00,1337A,113.0792,28.2053,长沙市,马坡岭,颗粒物(PM10),95,139,86,67,42,192,23,166,101,89,38,12,13,0.6,0.5
2022-04-09T23:00:00,1338A,112.9394,28.19,长沙市,湖南师范大学,细颗粒物(PM2.5),53,54,57,37,38,168,87,154,123,20,25,5,8,0.3,0.4
2022-04-09T23:00:00,1339A,113.0178,28.1322,长沙市,雨花区环保局,颗粒物(PM10),57,64,65,37,31,178,96,167,142,48,30,12,12,0.6,0.4
2022-04-09T23:00:00,1340A,112.9792,28.2597,长沙市,伍家岭,颗粒物(PM10),88,126,99,52,41,175,5,153,88,88,47,7,8,1.3,0.8
2022-04-09T23:00:00,1341A,113.0014,28.1944,长沙市,火车新站,细颗粒物(PM2.5),95,96,88,71,39,164,6,149,96,121,59,10,12,1.0,0.5
2022-04-09T23:00:00,1342A,112.9844,28.1178,长沙市,天心区环保局,颗粒物(PM10),56,62,61,33,33,168,107,154,130,38,40,13,13,0.4,0.4
2022-04-09T23:00:00,1343A,112.8908,28.1308,长沙市,湖南中医药大学,,,99,82,56,42,165,3,147,76,91,49,6,12,0.6,0.6
2022-04-09T23:00:00,1344A,112.9581,28.3611,长沙市,沙坪(对照点),颗粒物(PM10),57,64,72,29,35,169,68,152,93,22,22,7,9,0.8,0.7
2022-04-09T23:00:00,1345A,113.2347,23.1423,广州市,广雅中学,颗粒物(PM10),57,64,61,22,25,227,74,203,161,49,30,8,8,0.8,0.7
2022-04-09T23:00:00,1346A,113.2612,23.105,广州市,市五中,颗粒物(PM10),54,57,55,24,26,233,74,210,165,44,29,6,6,0.6,0.6
2022-04-09T23:00:00,1348A,113.3478,23.0916,广州市,广东商学院,颗粒物(PM10),61,71,55,29,25,230,18,204,144,91,43,7,6,0.6,0.5
2022-04-09T23:00:00,1349A,113.4332,23.1047,广州市,市八十六中,,42,42,65,14,22,257,53,211,145,56,52,8,9,0.6,0.6
2022-04-09T23:00:00,1350A,113.3505,22.9483,广州市,番禺中学,颗粒物(PM10),51,52,55,17,21,213,55,185,136,46,30,10,10,0.8,0.7
2022-04-09T23:00:00,1351A,113.2146,23.3916,广州市,花都师范,颗粒物(PM10),72,94,77,41,34,248,79,227,198,73,45,5,6,0.7,0.6
2022-04-09T23:00:00,1352A,113.2597,23.1331,广州市,市监测站,颗粒物(PM10),51,51,56,22,25,238,86,216,174,41,32,7,7,0.8,0.7
2022-04-09T23:00:00,1353A,113.5618,23.312,广州市,九龙镇镇龙,颗粒物(PM10),105,160,108,64,40,249,31,200,108,74,64,6,6,0.8,0.7
2022-04-09T23:00:00,1354A,113.2765,23.1544,广州市,麓湖,颗粒物(PM10),57,63,55,29,24,208,51,183,129,62,41,8,8,0.8,0.7
2022-04-09T23:00:00,1355A,113.443,23.3035,广州市,帽峰山森林公园(对照点),颗粒物(PM10),57,63,54,27,26,215,69,192,163,44,25,7,6,0.8,0.8
2022-04-09T23:00:00,1356A,114.1063,22.5545,深圳市,通心岭子站,,36,36,32,14,12,126,113,111,106,8,8,3,3,0.2,0.2
2022-04-09T23:00:00,1357A,114.117,22.5625,深圳市,洪湖,,45,45,34,18,5,148,121,127,115,18,18,6,6,0.7,0.7
2022-04-09T23:00:00,1358A,113.987,22.5417,深圳市,华侨城,,37,37,32,15,11,126,68,97,77,41,22,5,5,0.5,0.5
2022-04-09T23:00:00,1359A,113.9181,22.5171,深圳市,南海子站,,41,41,39,17,13,110,85,98,88,22,22,4,4,0.6,0.5
2022-04-09T23:00:00,1360A,114.2458,22.5689,深圳市,盐田,,39,39,31,18,13,119,104,112,99,23,27,3,4,0.6,0.6
2022-04-09T23:00:00,1361A,114.2283,22.7244,深圳市,龙岗,颗粒物(PM10),52,53,46,18,16,192,90,153,114,35,25,2,3,0.5,0.4
2022-04-09T23:00:00,1363A,114.494,22.5422,深圳市,南澳,,32,32,29,12,12,139,81,126,113,9,7,5,5,0.4,0.4
2022-04-09T23:00:00,1364A,114.41,22.6342,深圳市,葵涌,,38,38,33,19,14,128,63,118,103,16,8,4,4,0.4,0.3
2022-04-09T23:00:00,1365A,114.297,22.5978,深圳市,梅沙,,40,40,34,16,12,134,112,127,121,9,10,5,5,0.5,0.5
2022-04-09T23:00:00,1366A,114.0678,22.738,深圳市,观澜,颗粒物(PM10),56,62,57,22,22,146,33,111,68,49,31,16,16,0.8,0.7
2022-04-09T23:00:00,1367A,113.5814,22.2618,珠海市,吉大,,38,38,41,23,15,122,96,116,111,15,12,10,10,0.4,0.3
2022-04-09T23:00:00,1368A,113.4881,22.2335,珠海市,前山,,48,48,36,12,14,127,84,112,98,40,24,10,10,0.5,0.4
2022-04-09T23:00:00,1369A,113.628,22.4251,珠海市,唐家,,34,34,33,14,14,137,107,126,121,17,17,11,10,0.3,0.3
2022-04-09T23:00:00,1370A,113.299,22.2281,珠海市,斗门,,48,48,36,11,14,144,114,129,122,16,14,8,8,0.4,0.3
2022-04-09T23:00:00,1371A,113.1294,23.0067,佛山市,湾梁,颗粒物(PM10),59,68,68,18,24,251,79,214,166,31,26,12,12,0.6,0.5
2022-04-09T23:00:00,1372A,113.1083,23.0478,佛山市,华材职中,颗粒物(PM10),62,73,62,24,25,244,79,215,170,35,26,6,7,0.6,0.5
2022-04-09T23:00:00,1373A,113.144,23.0453,佛山市,南海气象局,颗粒物(PM10),53,56,60,25,28,234,65,194,149,43,34,6,6,0.6,0.5
2022-04-09T23:00:00,1374A,113.2881,22.8094,佛山市,顺德苏岗,颗粒物(PM10),54,57,46,24,20,189,73,168,136,33,26,4,4,0.8,0.7
2022-04-09T23:00:00,1376A,112.8383,22.8678,佛山市,高明孔堂,,50,50,57,15,25,218,125,190,171,14,19,6,7,0.6,0.6
2022-04-09T23:00:00,1377A,112.8836,23.1588,佛山市,三水监测站,颗粒物(PM10),76,102,81,30,34,214,52,173,125,97,57,8,7,0.7,0.6
2022-04-09T23:00:00,1378A,112.867,23.185,佛山市,三水云东海,颗粒物(PM10),63,75,74,24,30,246,80,196,150,51,39,13,11,0.8,0.7
2022-04-09T23:00:00,1379A,113.3769,22.5211,中山市,华柏园,,34,34,38,18,19,150,83,137,117,24,20,4,4,0.6,0.5
2022-04-09T23:00:00,1380A,113.3881,22.5497,中山市,张溪,,28,26,48,19,22,158,72,138,117,29,19,4,4,0.5,0.3
2022-04-09T23:00:00,1381A,113.4075,22.5111,中山市,紫马岭,颗粒物(PM10),53,56,42,18,16,158,58,137,110,34,19,4,5,0.3,0.3
2022-04-09T23:00:00,1382A,113.4411,22.4853,中山市,长江旅游区(对照点),,21,20,30,12,18,153,65,131,110,16,16,3,3,0.4,0.4
2022-04-09T23:00:00,1383A,113.1064,22.6058,江门市,北街,,30,30,49,14,18,251,90,215,151,21,23,8,9,0.4,0.5
2022-04-09T23:00:00,1384A,113.0731,22.5835,江门市,西区,颗粒物(PM10),52,53,60,18,21,206,80,186,131,29,27,10,11,0.4,0.4
2022-04-09T23:00:00,1385A,113.0219,22.5311,江门市,圭峰西,颗粒物(PM10),52,53,52,10,14,190,91,169,132,24,21,8,8,0.4,0.3
2022-04-09T23:00:00,1386A,113.0828,22.5947,江门市,东湖,,48,48,57,19,24,218,84,197,139,25,22,7,9,0.4,0.4
2022-04-09T23:00:00,1389A,113.7547,23.0494,东莞市,莞城梨川,,44,44,58,17,25,259,86,240,172,35,29,10,10,0.6,0.6
2022-04-09T23:00:00,1390A,113.7944,23.0128,东莞市,东城石井,颗粒物(PM10),55,60,59,23,25,275,77,243,164,44,37,8,8,0.5,0.5
2022-04-09T23:00:00,1391A,113.7383,22.9658,东莞市,南城西平,颗粒物(PM10),52,53,56,24,25,277,82,226,164,36,36,9,8,0.5,0.5
2022-04-09T23:00:00,1392A,114.4183,23.0528,惠州市,河南岸金山湖子站,颗粒物(PM10),52,54,54,19,20,192,88,159,127,28,20,5,5,0.5,0.5
2022-04-09T23:00:00,1393A,114.4053,23.0822,惠州市,下埔横江三路子站,颗粒物(PM10),52,54,51,18,19,199,102,167,130,25,19,6,6,0.4,0.4
2022-04-09T23:00:00,1394A,114.4103,23.1142,惠州市,江北云山西路子站,,38,38,51,18,22,209,105,179,141,20,17,8,6,0.5,0.4
2022-04-09T23:00:00,1395A,114.4645,22.7833,惠州市,惠阳区承修路船湖子站,,44,44,50,20,18,168,114,142,127,13,17,4,5,0.6,0.5
2022-04-09T23:00:00,1396A,114.5317,22.7422,惠州市,大亚湾管委会子站,颗粒物(PM10),58,65,51,22,18,148,98,134,120,29,24,4,5,0.6,0.6
2022-04-09T23:00:00,1397A,112.4267,23.0706,肇庆市,睦岗子站,颗粒物(PM10),57,64,66,31,35,212,74,186,142,68,46,13,15,0.8,0.8
2022-04-09T23:00:00,1398A,112.4645,23.0475,肇庆市,城中子站,颗粒物(PM10),52,54,62,28,31,204,109,184,160,37,39,16,19,0.6,0.6
2022-04-09T23:00:00,1399A,112.5544,23.1522,肇庆市,坑口子站,颗粒物(PM10),53,56,54,35,32,212,126,195,173,23,18,13,12,0.5,0.5
2022-04-09T23:00:00,1400A,112.4753,23.1,肇庆市,七星岩子站(对照点),颗粒物(PM10),54,57,59,26,33,214,129,191,174,21,21,18,20,0.7,0.7
2022-04-09T23:00:00,1401A,108.3103,22.7881,南宁市,二十一中,颗粒物(PM10),54,57,79,27,45,191,106,170,149,31,22,16,12,1.0,0.9
2022-04-09T23:00:00,1402A,108.3141,22.8528,南宁市,北湖,颗粒物(PM10),54,57,83,24,48,183,113,168,148,22,27,16,15,0.8,0.9
2022-04-09T23:00:00,1403A,108.3206,22.8225,南宁市,市监测站,颗粒物(PM10),78,106,79,30,46,188,108,169,148,34,28,18,15,0.9,0.8
2022-04-09T23:00:00,1404A,108.3829,22.8037,南宁市,大自然花园,颗粒物(PM10),52,53,69,29,45,184,124,174,155,20,23,12,10,0.8,0.9
2022-04-09T23:00:00,1405A,108.4394,22.7904,南宁市,仙葫(对照点),,45,45,72,27,48,182,134,170,155,16,26,10,10,0.4,0.7
2022-04-09T23:00:00,1406A,108.2397,22.8467,南宁市,区农职院,颗粒物(PM10),55,59,77,23,47,184,114,169,148,32,34,12,13,0.8,0.9
2022-04-09T23:00:00,1407A,108.3275,22.735,南宁市,英华嘉园,颗粒物(PM10),64,77,86,27,49,158,77,147,121,51,45,15,12,1.0,0.9
2022-04-09T23:00:00,1408A,108.2257,22.7757,南宁市,沙井镇街道办,颗粒物(PM10),59,68,102,28,50,174,80,159,130,54,50,10,10,0.8,0.9
2022-04-09T23:00:00,1409A,110.576,19.9507,海口市,东寨港(对照点),,24,24,31,14,16,95,68,91,80,3,8,7,5,0.4,0.4
2022-04-09T23:00:00,1410A,110.3232,20.0574,海口市,海南大学,,33,33,34,14,15,111,62,98,81,4,4,3,4,0.4,0.4
2022-04-09T23:00:00,1411A,110.283,20.0053,海口市,秀英海南医院,,34,34,40,13,18,111,79,103,84,3,8,5,4,0.3,0.3
2022-04-09T23:00:00,1412A,110.338,19.9969,海口市,海南师范大学,,29,29,37,13,16,108,69,102,75,10,7,5,3,0.3,0.3
2022-04-09T23:00:00,1413A,110.33,20.0356,海口市,龙华路环保局宿舍,,26,26,35,13,15,113,78,113,88,6,7,3,5,0.4,0.4
2022-04-09T23:00:00,1414A,106.3787,29.8279,重庆市,缙云山(对照点),臭氧1小时,64,53,61,37,34,171,171,162,162,14,23,15,18,0.9,0.9
2022-04-09T23:00:00,1416A,106.4213,29.8253,重庆市,天生,颗粒物(PM10),75,100,87,53,51,141,22,117,91,72,58,11,17,1.0,0.9
2022-04-09T23:00:00,1417A,106.6263,29.7228,重庆市,两路,细颗粒物(PM2.5),109,139,79,82,43,127,18,107,72,143,80,18,21,1.4,1
2022-04-09T23:00:00,1418A,106.2953,29.5983,重庆市,虎溪,颗粒物(PM10),62,74,76,43,43,142,27,129,93,84,50,5,11,1.0,1
2022-04-09T23:00:00,1419A,106.5777,29.5102,重庆市,南坪,颗粒物(PM10),65,79,76,45,46,145,131,132,130,17,32,28,24,0.7,0.8
2022-04-09T23:00:00,1420A,106.6556,29.6277,重庆市,唐家沱,颗粒物(PM10),86,121,94,53,40,130,6,120,75,89,72,5,10,0.9,0.8
2022-04-09T23:00:00,1421A,106.6349,29.4906,重庆市,茶园,细颗粒物(PM2.5),67,80,88,48,41,154,46,144,100,68,60,11,12,1.1,1.1
2022-04-09T23:00:00,1422A,106.3754,29.4572,重庆市,白市驿,细颗粒物(PM2.5),53,47,91,37,44,162,159,146,146,10,31,16,21,0.9,1
2022-04-09T23:00:00,1425A,106.6205,29.7166,重庆市,空港,,,119,86,76,46,138,6,118,74,130,69,13,12,2.0,0.9
2022-04-09T23:00:00,1426A,106.4782,29.4875,重庆市,新山村,颗粒物(PM10),71,91,89,51,46,142,5,127,84,125,75,12,20,1.4,1
2022-04-09T23:00:00,1427A,106.5616,29.6453,重庆市,礼嘉,颗粒物(PM10),81,111,92,38,43,144,10,122,94,126,77,13,20,1.2,0.8
2022-04-09T23:00:00,1428A,106.4522,29.7091,重庆市,蔡家,颗粒物(PM10),84,117,86,52,42,152,44,128,99,64,50,3,7,0.9,0.8
2022-04-09T23:00:00,1429A,106.5093,29.3917,重庆市,鱼新街,细颗粒物(PM2.5),70,83,87,51,47,142,23,116,75,74,66,13,25,1.2,1.1
2022-04-09T23:00:00,1431A,103.9728,30.7236,成都市,金泉两河,细颗粒物(PM2.5),62,72,64,44,47,211,0,188,118,95,37,1,2,1.0,0.6
2022-04-09T23:00:00,1432A,104.1419,30.6764,成都市,十里店,颗粒物(PM10),81,111,93,49,48,188,20,175,127,116,45,5,5,0.7,0.6
2022-04-09T23:00:00,1433A,104.0594,30.5767,成都市,三瓦窑,细颗粒物(PM2.5),82,101,75,60,51,190,0,174,114,132,53,4,3,1.5,0.8
2022-04-09T23:00:00,1434A,104.1122,30.6306,成都市,沙河铺,细颗粒物(PM2.5),83,100,88,61,65,202,3,167,96,97,41,12,10,1.0,0.6
2022-04-09T23:00:00,1437A,104.0431,30.6556,成都市,君平街,细颗粒物(PM2.5),78,100,82,57,58,227,14,199,154,136,37,5,5,1.1,0.6
2022-04-09T23:00:00,1438A,103.6202,31.0201,成都市,灵岩寺(对照点),臭氧1小时,64,48,36,33,28,172,171,164,164,7,8,6,10,0.3,0.4
2022-04-09T23:00:00,1439A,106.6899,26.5998,贵阳市,马鞍山,细颗粒物(PM2.5),67,56,53,48,34,117,13,102,63,22,25,4,5,1.1,0.9
2022-04-09T23:00:00,1440A,106.6971,26.5694,贵阳市,市环保站,细颗粒物(PM2.5),90,84,78,67,41,117,52,103,80,37,49,4,9,0.6,0.5
2022-04-09T23:00:00,1441A,106.6243,26.6266,贵阳市,鉴湖路,细颗粒物(PM2.5),79,75,64,58,39,144,58,120,101,33,16,3,5,0.5,0.3
2022-04-09T23:00:00,1442A,106.7487,26.6343,贵阳市,燕子冲,细颗粒物(PM2.5),79,70,67,58,43,139,73,118,99,12,20,7,8,0.8,0.7
2022-04-09T23:00:00,1443A,106.6555,26.4365,贵阳市,碧云窝,细颗粒物(PM2.5),77,70,76,56,41,139,84,132,94,16,18,5,9,0.6,0.5
2022-04-09T23:00:00,1444A,106.694,26.5161,贵阳市,中院村,细颗粒物(PM2.5),83,73,76,61,45,129,71,119,84,25,50,6,13,0.6,0.7
2022-04-09T23:00:00,1445A,106.7109,26.6027,贵阳市,红边门,细颗粒物(PM2.5),103,105,76,77,43,131,46,118,90,46,48,4,11,0.6,0.5
2022-04-09T23:00:00,1446A,106.7164,26.5699,贵阳市,新华路,细颗粒物(PM2.5),83,83,73,61,41,128,57,117,93,37,44,5,10,0.5,0.5
2022-04-09T23:00:00,1447A,106.674,26.5424,贵阳市,太慈桥,细颗粒物(PM2.5),77,85,78,56,36,117,36,109,71,38,34,3,4,0.5,0.4
2022-04-09T23:00:00,1450A,102.8204,24.8886,昆明市,呈贡新区,细颗粒物(PM2.5),54,51,43,38,30,140,77,122,91,23,20,8,9,0.5,0.6
2022-04-09T23:00:00,1451A,102.6251,24.9608,昆明市,西山森林公园(对照点),,39,31,26,27,21,140,124,135,130,6,8,7,8,0.5,0.5
2022-04-09T23:00:00,1452A,102.7252,25.0902,昆明市,龙泉镇,,49,47,58,34,37,125,8,103,51,54,35,8,10,1.0,0.8
2022-04-09T23:00:00,1453A,102.7266,25.0375,昆明市,东风东路,细颗粒物(PM2.5),52,42,44,36,32,130,68,112,90,36,31,6,7,0.7,0.7
2022-04-09T23:00:00,1454A,102.6742,25.0669,昆明市,金鼎山,,40,40,47,26,32,124,58,109,88,33,34,6,9,0.6,0.6
2022-04-09T23:00:00,1455A,102.6644,25.0401,昆明市,碧鸡广场,,46,45,43,32,32,126,36,112,83,49,35,12,13,0.7,0.6
2022-04-09T23:00:00,1456A,91.1319,29.6514,拉萨市,八廓街,,25,24,24,17,12,95,55,91,83,24,15,6,6,0.5,0.4
2022-04-09T23:00:00,1457A,91.1221,29.6747,拉萨市,市环保局,,36,36,26,12,9,108,63,104,91,20,15,4,4,0.4,0.3
2022-04-09T23:00:00,1458A,91.0874,29.6475,拉萨市,区监测站,,30,30,25,10,11,102,59,97,86,25,20,6,6,0.4,0.4
2022-04-09T23:00:00,1459A,91.1774,29.6541,拉萨市,西藏大学,,22,22,22,10,8,97,64,93,86,20,11,5,5,0.4,0.3
2022-04-09T23:00:00,1460A,90.9798,29.6588,拉萨市,区辐射站,,42,42,26,16,11,99,43,95,80,48,27,6,7,0.4,0.4
2022-04-09T23:00:00,1461A,91.0834,29.6292,拉萨市,拉萨火车站,,26,26,33,5,9,102,70,98,94,18,23,5,5,0.4,0.4
2022-04-09T23:00:00,1462A,108.882,34.2749,西安市,高压开关厂,颗粒物(PM10),104,158,117,48,36,161,6,142,84,105,64,9,10,0.9,0.7
2022-04-09T23:00:00,1463A,108.993,34.2629,西安市,兴庆小区,颗粒物(PM10),104,158,103,36,34,161,43,142,86,54,63,12,8,0.3,0.5
2022-04-09T23:00:00,1464A,109.06,34.2572,西安市,纺织城,颗粒物(PM10),125,199,120,52,36,150,2,132,69,81,59,12,8,0.5,0.5
2022-04-09T23:00:00,1465A,108.9356,34.2173,西安市,小寨,颗粒物(PM10),75,100,106,36,39,156,34,138,83,64,68,6,5,0.5,0.6
2022-04-09T23:00:00,1466A,108.954,34.2713,西安市,市人民体育场,颗粒物(PM10),97,143,103,42,40,155,34,137,89,58,66,9,7,0.7,0.8
2022-04-09T23:00:00,1467A,108.8922,34.2322,西安市,高新西区,颗粒物(PM10),90,129,104,51,39,154,7,145,101,117,73,9,10,1.2,0.6
2022-04-09T23:00:00,1468A,108.935,34.3474,西安市,经开区,颗粒物(PM10),114,178,107,47,38,147,10,129,77,88,57,4,3,0.6,0.6
2022-04-09T23:00:00,1469A,108.906,34.1546,西安市,长安区,颗粒物(PM10),112,173,123,49,42,159,12,139,94,79,55,5,7,0.5,0.6
2022-04-09T23:00:00,1471A,109.2186,34.3731,西安市,临潼区,颗粒物(PM10),108,166,92,58,43,157,56,146,120,43,18,6,5,0.4,0.5
2022-04-09T23:00:00,1472A,108.869,34.378,西安市,草滩(对照点),颗粒物(PM10),84,117,135,39,37,135,7,117,68,63,47,5,6,0.7,0.7
2022-04-09T23:00:00,1473A,108.985,34.1978,西安市,曲江文化产业集团,颗粒物(PM10),85,120,121,35,34,147,1,125,64,97,76,6,5,0.8,0.7
2022-04-09T23:00:00,1474A,109.051,34.3213,西安市,广运潭,颗粒物(PM10),109,167,116,38,31,167,66,144,100,27,43,1,4,0.3,0.5
2022-04-09T23:00:00,1476A,103.631,36.1031,兰州市,兰炼宾馆,颗粒物(PM10),82,114,109,41,39,140,5,122,87,102,45,8,24,0.8,0.6
2022-04-09T23:00:00,1477A,104.1373,35.9454,兰州市,榆中兰大校区(对照点),颗粒物(PM10),82,113,81,27,23,135,85,129,121,32,20,6,8,0.9,0.7
2022-04-09T23:00:00,1478A,103.8412,36.0726,兰州市,生物制品所,颗粒物(PM10),93,136,115,35,27,135,4,114,68,94,62,12,17,0.8,0.7
2022-04-09T23:00:00,1479A,103.831,36.0464,兰州市,铁路设计院,颗粒物(PM10),84,118,117,47,36,123,7,101,61,110,73,10,21,1.2,1.1
2022-04-09T23:00:00,1483A,101.524,36.6867,西宁市,第五水厂(对照点),颗粒物(PM10),59,67,63,13,15,116,66,109,94,16,14,10,11,0.7,0.7
2022-04-09T23:00:00,1484A,105.9512,38.6016,银川市,贺兰山马莲口(对照点),颗粒物(PM10),68,85,136,25,34,106,98,104,101,2,3,7,8,0.3,0.3
2022-04-09T23:00:00,1488A,106.2328,38.4975,银川市,贺兰山东路,颗粒物(PM10),69,88,186,34,48,110,61,104,90,47,33,4,13,0.6,0.6
2022-04-09T23:00:00,1489A,106.1358,38.5036,银川市,学院路,颗粒物(PM10),69,88,183,41,42,110,36,108,85,60,32,7,10,0.6,0.5
2022-04-09T23:00:00,1490A,87.5801,43.8303,乌鲁木齐市,监测站,,44,44,102,12,18,93,68,88,83,31,16,6,7,0.5,0.5
2022-04-09T23:00:00,1491A,87.6046,43.768,乌鲁木齐市,收费所,,46,46,107,19,26,86,60,80,76,34,18,7,6,0.3,0.2
2022-04-09T23:00:00,1492A,87.4754,43.9469,乌鲁木齐市,新疆农科院农场(对照点),颗粒物(PM10),73,95,56,18,20,93,67,87,84,13,7,8,10,0.3,0.4
2022-04-09T23:00:00,1493A,87.5525,43.8711,乌鲁木齐市,铁路局,,42,42,100,19,23,90,69,86,82,28,14,5,6,0.6,0.6
2022-04-09T23:00:00,1494A,87.6432,43.831,乌鲁木齐市,三十一中学,,41,41,98,7,17,93,73,88,87,22,13,6,7,0.2,0.2
2022-04-09T23:00:00,1496A,87.7216,44.1747,乌鲁木齐市,米东区环保局,,,73,100,,16,100,76,95,92,5,2,6,7,0.1,0.2
2022-04-09T23:00:00,1508A,112.9433,27.8614,湘潭市,板塘,颗粒物(PM10),66,82,82,43,39,163,88,152,127,40,32,15,21,0.4,0.4
2022-04-09T23:00:00,1511A,112.9118,27.8403,湘潭市,市监测站,细颗粒物(PM2.5),74,78,72,54,43,143,75,131,104,50,35,15,20,1.4,1
2022-04-09T23:00:00,1512A,112.8937,27.8728,湘潭市,江麓,颗粒物(PM10),70,90,85,43,38,147,84,136,122,42,37,25,18,0.9,0.7
2022-04-09T23:00:00,1513A,112.9227,27.8159,湘潭市,岳塘,颗粒物(PM10),81,112,80,58,37,162,34,156,122,71,32,15,19,1.6,0.8
2022-04-09T23:00:00,1514A,112.9074,27.9119,湘潭市,科大,颗粒物(PM10),67,84,85,42,37,165,78,153,133,47,39,10,12,0.7,0.7
2022-04-09T23:00:00,1515A,113.135,27.8244,株洲市,天台山庄,细颗粒物(PM2.5),65,70,60,47,35,162,92,151,126,42,29,9,13,0.6,0.4
2022-04-09T23:00:00,1518A,113.095,27.8867,株洲市,株冶医院,细颗粒物(PM2.5),84,95,68,62,38,185,28,173,114,86,49,8,11,0.4,0.6
2022-04-09T23:00:00,1519A,113.167,27.8667,株洲市,市四中,细颗粒物(PM2.5),77,90,71,56,37,156,43,144,109,78,37,8,12,0.9,0.7
2022-04-09T23:00:00,1520A,113.143,27.8381,株洲市,火车站,细颗粒物(PM2.5),84,102,73,62,36,174,54,164,121,62,33,6,11,1.1,0.6
2022-04-09T23:00:00,1524A,113.13,27.8528,株洲市,市监测站,颗粒物(PM10),76,102,78,54,42,154,54,143,108,66,36,14,14,0.8,0.8
2022-04-09T23:00:00,1552A,106.805,26.3003,贵阳市,桐木岭(对照点),细颗粒物(PM2.5),70,63,63,51,37,144,133,142,128,5,5,12,11,0.5,0.4
2022-04-09T23:00:00,1559A,113.251,27.8336,株洲市,大京风景区(对照点),,43,39,37,30,28,161,72,151,108,5,7,8,9,0.4,0.4
2022-04-09T23:00:00,1562A,113.0048,27.9153,湘潭市,昭山,颗粒物(PM10),75,100,66,35,35,150,72,137,105,54,43,15,15,0.5,0.6
2022-04-09T23:00:00,1564A,112.4876,27.9164,湘潭市,韶山(对照点),细颗粒物(PM2.5),63,62,63,45,27,151,58,138,97,10,9,5,7,0.5,0.3
2022-04-09T23:00:00,1585A,109.8756,40.6532,包头市,市环境监测站,颗粒物(PM10),71,91,70,34,25,122,4,105,63,89,35,7,15,0.9,0.8
2022-04-09T23:00:00,1587A,109.9991,40.5842,包头市,包头八中,颗粒物(PM10),92,133,93,53,32,129,4,111,68,83,38,14,19,1.0,0.8
2022-04-09T23:00:00,1588A,109.8538,40.6821,包头市,青山宾馆,颗粒物(PM10),93,135,78,58,35,121,4,103,64,84,34,12,18,0.7,0.7
2022-04-09T23:00:00,1589A,109.8642,40.6288,包头市,惠龙物流,颗粒物(PM10),79,108,78,39,27,127,4,109,74,87,29,12,15,2.6,0.6
2022-04-09T23:00:00,1590A,110.0377,40.5546,包头市,东河鸿龙湾,颗粒物(PM10),94,138,75,64,27,137,9,116,79,86,31,16,17,1.2,0.6
2022-04-09T23:00:00,1591A,110.0023,39.8129,鄂尔多斯市,综合楼,颗粒物(PM10),97,144,95,56,38,121,45,115,91,62,26,10,8,0.7,0.5
2022-04-09T23:00:00,1592A,109.9486,39.8261,鄂尔多斯市,巴音孟克林场办事处,颗粒物(PM10),77,103,87,39,31,122,96,118,105,15,15,11,14,0.4,0.6
2022-04-09T23:00:00,1593A,109.7736,39.5986,鄂尔多斯市,康泽苑,颗粒物(PM10),91,132,99,36,26,130,42,124,104,43,12,6,5,0.6,0.4
2022-04-09T23:00:00,1594A,109.8119,39.5989,鄂尔多斯市,华泰汽车城,颗粒物(PM10),89,127,97,41,32,130,37,125,102,53,27,8,7,0.7,0.5
2022-04-09T23:00:00,1595A,109.9734,39.7884,鄂尔多斯市,奥林花园,颗粒物(PM10),102,154,100,44,32,117,10,113,68,93,43,8,8,0.7,0.4
2022-04-09T23:00:00,1597A,122.2703,40.7094,营口市,大庆路,细颗粒物(PM2.5),127,150,124,96,85,180,119,159,120,19,23,8,14,1.1,1.2
2022-04-09T23:00:00,1598A,122.215,40.6511,营口市,镜湖西路,颗粒物(PM10),93,136,108,62,45,167,116,148,131,25,20,11,8,1.3,0.9
2022-04-09T23:00:00,1599A,122.167,40.6655,营口市,西炮台,细颗粒物(PM2.5),84,85,74,62,54,160,96,152,124,29,19,6,7,0.9,0.8
2022-04-09T23:00:00,1600A,124.3303,40.0625,丹东市,江湾东路,颗粒物(PM10),60,70,53,36,26,142,117,133,127,14,11,10,9,0.7,0.6
2022-04-09T23:00:00,1601A,124.4256,40.1503,丹东市,临江后街,颗粒物(PM10),58,66,53,26,20,141,134,135,131,10,9,11,10,0.9,0.8
2022-04-09T23:00:00,1602A,124.3933,40.1461,丹东市,元宝山,颗粒物(PM10),58,66,57,31,24,134,129,131,129,14,13,12,12,0.9,0.8
2022-04-09T23:00:00,1603A,124.3633,40.1092,丹东市,民主桥,颗粒物(PM10),70,89,53,34,21,135,63,131,116,46,11,10,10,0.9,0.5
2022-04-09T23:00:00,1604A,122.0303,41.1489,盘锦市,开发区,细颗粒物(PM2.5),158,134,133,120,101,187,83,161,127,41,29,29,12,1.1,1.2
2022-04-09T23:00:00,1605A,122.0485,41.0883,盘锦市,兴隆台,细颗粒物(PM2.5),158,143,154,120,107,178,86,156,114,32,34,32,14,1.1,1.2
2022-04-09T23:00:00,1606A,121.8297,41.1028,盘锦市,新生街道,细颗粒物(PM2.5),147,130,111,112,78,190,66,155,121,32,28,22,17,1.0,1
2022-04-09T23:00:00,1607A,120.9092,40.7136,葫芦岛市,龙港区,细颗粒物(PM2.5),120,111,131,91,84,172,112,146,140,17,25,13,39,0.9,1.1
2022-04-09T23:00:00,1608A,120.8392,40.7514,葫芦岛市,化工街,颗粒物(PM10),88,126,122,63,55,174,108,149,142,25,22,9,13,1.0,0.8
2022-04-09T23:00:00,1609A,120.8341,40.7073,葫芦岛市,新区,细颗粒物(PM2.5),128,122,116,97,80,159,106,142,132,21,23,10,18,1.0,1
2022-04-09T23:00:00,1610A,120.8695,40.7677,葫芦岛市,东城区,细颗粒物(PM2.5),133,131,123,101,84,163,99,142,133,28,23,10,17,1.1,1.1
2022-04-09T23:00:00,1611A,118.5819,24.9117,泉州市,涂山街,,39,39,41,18,16,143,92,125,103,7,8,7,8,0.5,0.5
2022-04-09T23:00:00,1612A,118.5972,24.8978,泉州市,津头埔,,42,42,40,20,16,138,82,122,97,12,10,8,8,0.5,0.5
2022-04-09T23:00:00,1613A,118.6663,24.9424,泉州市,万安,,46,46,44,25,18,134,80,118,95,7,5,8,8,0.7,0.7
2022-04-09T23:00:00,1614A,118.6117,24.9604,泉州市,清源山(对照点),,38,38,42,16,17,140,93,126,105,8,7,8,8,0.6,0.6
2022-04-09T23:00:00,1616A,117.6795,36.229,济南市,技术学院,颗粒物(PM10),64,78,86,36,28,183,123,174,159,20,14,15,14,0.6,0.5
2022-04-09T23:00:00,1618A,118.3429,35.0532,临沂市,沂河小区,颗粒物(PM10),75,100,93,37,29,160,120,148,136,24,26,18,16,0.3,0.3
2022-04-09T23:00:00,1619A,118.295,35.0583,临沂市,鲁南制药厂,颗粒物(PM10),59,68,79,30,23,170,127,159,142,28,28,12,13,0.8,0.6
2022-04-09T23:00:00,1620A,118.2794,34.9976,临沂市,新光毛纺厂,颗粒物(PM10),90,129,92,33,25,153,113,143,129,23,23,8,13,0.6,0.5
2022-04-09T23:00:00,1621A,118.3956,35.0888,临沂市,河东保险公司,颗粒物(PM10),62,73,76,31,25,166,124,155,141,24,25,11,11,0.7,0.6
2022-04-09T23:00:00,1622A,116.3032,37.4674,德州市,儿童乐园,颗粒物(PM10),83,116,108,44,49,190,115,171,158,24,19,16,16,0.8,0.9
2022-04-09T23:00:00,1624A,116.2991,37.4451,德州市,监理站,,,124,112,49,44,187,,174,174,23,15,,22,0.5,0.5
2022-04-09T23:00:00,1625A,115.9848,36.4372,聊城市,区政府,颗粒物(PM10),70,90,100,36,36,176,103,154,137,20,16,20,16,0.7,0.7
2022-04-09T23:00:00,1628A,118.0062,37.3803,滨州市,市环保局,颗粒物(PM10),107,163,113,69,44,230,72,208,164,35,25,26,16,2.9,2.7
2022-04-09T23:00:00,1629A,118.0018,37.3617,滨州市,第二水厂,细颗粒物(PM2.5),104,145,104,78,40,190,54,173,134,40,21,22,14,1.0,0.8
2022-04-09T23:00:00,1630A,117.9776,37.393,滨州市,北中新校,细颗粒物(PM2.5),100,117,92,75,41,199,50,178,122,44,30,15,12,0.7,0.6
2022-04-09T23:00:00,1631A,118.0414,36.8103,淄博市,人民公园,颗粒物(PM10),68,85,95,28,32,176,138,163,143,9,12,8,10,0.2,0.3
2022-04-09T23:00:00,1633A,117.8525,36.4847,淄博市,双山,颗粒物(PM10),62,73,95,33,37,166,132,162,151,6,8,7,8,0.6,0.8
2022-04-09T23:00:00,1634A,117.9592,36.6331,淄博市,气象站,颗粒物(PM10),67,83,96,29,29,170,139,167,154,16,15,14,14,0.7,0.7
2022-04-09T23:00:00,1635A,118.3092,36.8194,淄博市,莆田园,颗粒物(PM10),76,102,109,34,36,174,132,168,136,11,13,12,13,1.1,0.8
2022-04-09T23:00:00,1637A,117.558,34.8438,枣庄市,市中区政府,颗粒物(PM10),63,75,91,24,29,177,118,167,142,18,22,20,13,0.7,0.7
2022-04-09T23:00:00,1638A,117.2852,34.7837,枣庄市,薛城环保局,颗粒物(PM10),72,93,87,31,29,159,112,155,132,20,16,12,12,0.3,0.3
2022-04-09T23:00:00,1639A,117.5852,34.7745,枣庄市,峄城区政府,颗粒物(PM10),64,78,85,24,26,171,116,153,129,18,22,10,16,0.4,0.4
2022-04-09T23:00:00,1640A,117.7276,34.5578,枣庄市,台儿庄区环保局,颗粒物(PM10),57,63,64,24,21,149,93,141,126,33,29,9,11,0.9,0.8
2022-04-09T23:00:00,1641A,117.4518,35.0992,枣庄市,山亭区环保局,,,75,72,22,26,168,153,165,149,33,34,16,19,,1.1
2022-04-09T23:00:00,1642A,121.2514,37.5639,烟台市,开发区,颗粒物(PM10),67,83,91,29,35,186,155,158,140,11,19,6,7,0.6,0.6
2022-04-09T23:00:00,1643A,121.3719,37.5433,烟台市,轴承厂,臭氧1小时,74,73,80,35,37,195,179,188,186,11,15,7,8,0.7,0.7
2022-04-09T23:00:00,1644A,121.3181,37.5436,烟台市,西郊化工站,,,68,80,,34,189,172,168,160,8,15,7,10,,0.5
2022-04-09T23:00:00,1645A,121.4478,37.4822,烟台市,莱山环保局,颗粒物(PM10),70,90,88,42,39,192,158,183,176,15,18,7,8,0.7,0.7
2022-04-09T23:00:00,1646A,121.2611,37.4967,烟台市,福山环保局,臭氧1小时,67,75,92,27,37,202,173,189,184,9,16,9,9,0.8,0.8
2022-04-09T23:00:00,1650A,119.1437,36.7023,潍坊市,环保局,颗粒物(PM10),70,90,88,35,36,181,129,163,146,12,18,6,8,0.5,0.6
2022-04-09T23:00:00,1653A,116.6251,35.4302,济宁市,火炬城,颗粒物(PM10),59,67,78,24,25,176,121,162,144,10,7,12,12,0.7,0.8
2022-04-09T23:00:00,1655A,116.5491,35.4042,济宁市,电化厂,颗粒物(PM10),66,81,79,27,31,171,126,156,137,11,15,9,9,0.8,0.7
2022-04-09T23:00:00,1656A,117.1437,36.1937,泰安市,监测站,颗粒物(PM10),63,75,84,30,25,187,134,171,156,7,11,13,14,0.3,0.3
2022-04-09T23:00:00,1657A,117.0885,36.2017,泰安市,人口学校,颗粒物(PM10),62,73,81,26,25,166,127,156,146,7,10,6,6,0.5,0.5
2022-04-09T23:00:00,1658A,117.1089,36.1758,泰安市,电力学校,颗粒物(PM10),59,68,74,28,27,174,123,166,151,13,14,12,12,0.6,0.5
2022-04-09T23:00:00,1659A,119.471,35.4209,日照市,监测站,颗粒物(PM10),62,73,102,22,34,149,132,140,136,16,33,6,7,0.3,0.6
2022-04-09T23:00:00,1660A,119.523,35.4216,日照市,市政府广场,颗粒物(PM10),63,75,97,32,36,178,131,156,146,27,32,11,10,0.6,0.7
2022-04-09T23:00:00,1661A,119.5587,35.4044,日照市,港务局,颗粒物(PM10),70,90,115,25,32,166,104,140,123,59,45,8,9,0.7,0.9
2022-04-09T23:00:00,1662A,122.1214,37.4236,威海市,华夏技校,臭氧1小时,93,68,74,31,41,202,194,198,198,14,18,5,6,0.4,0.5
2022-04-09T23:00:00,1663A,122.0508,37.5236,威海市,山大分校,,,59,62,,,200,192,194,194,10,16,7,8,0.4,0.4
2022-04-09T23:00:00,1664A,122.1067,37.5072,威海市,市监测站,臭氧1小时,90,71,76,23,32,210,192,200,200,8,15,7,9,0.4,0.5
2022-04-09T23:00:00,1666A,118.6614,37.4309,东营市,市环保局,颗粒物(PM10),67,83,105,44,42,230,70,204,155,25,25,10,23,0.6,0.7
2022-04-09T23:00:00,1669A,113.5824,24.7733,韶关市,市八中,,,73,57,38,28,343,,225,225,52,28,13,14,0.6,0.5
2022-04-09T23:00:00,1671A,113.5917,24.7972,韶关市,园林处,臭氧1小时,106,93,72,40,36,430,211,242,242,39,30,16,16,0.8,0.7
2022-04-09T23:00:00,1672A,113.6735,24.7791,韶关市,韶关学院,细颗粒物(PM2.5),67,73,57,48,36,219,92,197,167,20,24,12,18,0.7,0.8
2022-04-09T23:00:00,1673A,113.5971,24.6863,韶关市,曲江监测站,颗粒物(PM10),57,63,59,38,33,206,90,183,153,35,30,9,11,0.6,0.7
2022-04-09T23:00:00,1674A,116.6794,23.3667,汕头市,金平子站,颗粒物(PM10),53,55,66,21,25,157,110,139,124,16,24,9,16,0.5,0.6
2022-04-09T23:00:00,1675A,116.7244,23.3633,汕头市,龙湖子站,,36,36,52,20,21,142,107,125,116,14,23,6,10,0.5,0.6
2022-04-09T23:00:00,1676A,116.7258,23.2775,汕头市,濠江子站,,39,33,44,27,30,147,113,129,122,10,14,9,12,0.6,0.6
2022-04-09T23:00:00,1677A,116.7519,23.4714,汕头市,澄海子站,颗粒物(PM10),51,52,59,25,25,155,103,140,125,19,22,10,12,0.6,0.5
2022-04-09T23:00:00,1678A,116.6092,23.2539,汕头市,潮阳子站,,46,46,51,23,17,156,102,135,123,16,16,10,13,0.5,0.5
2022-04-09T23:00:00,1680A,110.3539,21.2706,湛江市,湛江影剧院,,39,39,54,17,21,122,77,110,96,9,15,5,7,0.5,0.6
2022-04-09T23:00:00,1681A,110.3928,21.2228,湛江市,市环境监测站,,37,37,44,19,21,126,91,119,100,5,11,5,7,0.5,0.5
2022-04-09T23:00:00,1682A,110.4019,21.1997,湛江市,环保局宿舍,,33,33,42,17,21,124,90,113,96,5,12,4,5,0.4,0.5
2022-04-09T23:00:00,1683A,110.4111,21.2028,湛江市,霞山游泳场,,29,29,39,16,22,115,89,109,93,6,13,5,7,0.4,0.4
2022-04-09T23:00:00,1684A,110.3316,21.2679,湛江市,麻章区环保局,颗粒物(PM10),52,53,61,34,29,141,72,118,95,12,18,6,10,0.5,0.5
2022-04-09T23:00:00,1685A,110.4558,21.2567,湛江市,坡头区环保局,,40,40,46,17,23,130,82,126,98,12,11,1,4,0.5,0.5
2022-04-09T23:00:00,1686A,111.0286,21.4688,茂名市,电白南海,,39,39,48,12,18,136,90,112,97,11,13,5,7,0.4,0.5
2022-04-09T23:00:00,1687A,110.9294,21.6533,茂名市,茂石化七小,,41,41,53,12,26,157,82,144,107,13,16,6,19,0.5,0.5
2022-04-09T23:00:00,1688A,110.9107,21.6687,茂名市,健康路,,39,39,53,18,24,164,86,151,113,9,11,8,20,0.5,0.6
2022-04-09T23:00:00,1689A,110.8592,21.6828,茂名市,高岭,,39,39,64,12,18,164,79,150,109,17,21,7,23,0.5,0.6
2022-04-09T23:00:00,1690A,116.1231,24.3284,梅州市,梅江月梅,颗粒物(PM10),57,64,56,31,26,164,60,153,134,55,25,9,10,0.5,0.4
2022-04-09T23:00:00,1692A,116.1248,24.2654,梅州市,环境监控中心,细颗粒物(PM2.5),57,49,54,40,26,158,38,149,107,74,36,8,9,0.6,0.5
2022-04-09T23:00:00,1693A,115.3653,22.775,汕尾市,市环保局,,32,29,36,19,16,122,100,118,115,13,10,8,8,0.6,0.5
2022-04-09T23:00:00,1694A,115.3706,22.7898,汕尾市,市政府,,36,36,43,23,18,142,93,134,124,19,10,8,6,0.5,0.4
2022-04-09T23:00:00,1695A,115.3622,22.7925,汕尾市,新城中学,,46,46,39,22,18,136,91,122,112,15,7,5,5,0.5,0.4
2022-04-09T23:00:00,1696A,114.6778,23.7569,河源市,源西(对照点),颗粒物(PM10),59,67,58,29,25,194,101,171,127,23,26,5,5,0.7,0.6
2022-04-09T23:00:00,1697A,114.6944,23.7586,河源市,东埔,颗粒物(PM10),68,86,58,43,28,175,87,159,125,33,23,5,5,0.8,0.7
2022-04-09T23:00:00,1698A,114.6892,23.7233,河源市,老城,颗粒物(PM10),63,76,60,32,27,214,109,187,131,28,26,5,4,0.7,0.6
2022-04-09T23:00:00,1699A,111.9797,21.8593,阳江市,鸳鸯湖(对照点),,37,31,44,18,24,158,116,144,112,4,13,6,7,0.3,0.4
2022-04-09T23:00:00,1701A,111.9491,21.8658,阳江市,马南垌,,39,39,46,23,24,157,106,131,108,7,16,5,6,0.5,0.5
2022-04-09T23:00:00,1702A,113.0426,23.691,清远市,环保大楼(对照点),细颗粒物(PM2.5),72,76,71,52,47,256,96,221,167,35,27,8,10,0.8,0.7
2022-04-09T23:00:00,1703A,113.0208,23.7106,清远市,凤城街办,颗粒物(PM10),62,73,69,35,38,226,87,190,154,49,32,8,10,1.0,0.8
2022-04-09T23:00:00,1705A,116.6367,23.6719,潮州市,西园路(对照点),颗粒物(PM10),56,62,56,30,27,162,79,145,113,20,16,21,17,0.7,0.6
2022-04-09T23:00:00,1706A,116.6447,23.6706,潮州市,档案局,"颗粒物(PM10),细颗粒物(PM2.5)",54,57,54,38,29,161,71,139,107,22,17,19,14,0.7,0.6
2022-04-09T23:00:00,1708A,116.3701,23.5345,揭阳市,新兴,颗粒物(PM10),58,65,59,36,33,177,92,148,112,16,22,10,12,0.8,0.8
2022-04-09T23:00:00,1709A,116.3264,23.5443,揭阳市,西马,颗粒物(PM10),62,74,68,28,31,174,86,150,118,15,19,6,10,0.7,0.6
2022-04-09T23:00:00,1710A,116.3611,23.5626,揭阳市,东兴,颗粒物(PM10),64,77,71,34,28,165,84,142,112,19,26,10,15,0.6,0.7
2022-04-09T23:00:00,1711A,116.4151,23.5294,揭阳市,渔湖,,48,46,49,33,26,174,83,138,104,10,19,10,11,0.5,0.5
2022-04-09T23:00:00,1712A,112.0392,22.9169,云浮市,新市府(对照点),,45,45,44,24,29,173,107,162,138,9,11,6,6,0.4,0.4
2022-04-09T23:00:00,1714A,112.0539,22.9539,云浮市,牧羊,颗粒物(PM10),76,101,71,40,33,190,96,175,144,31,27,13,12,0.5,0.5
2022-04-09T23:00:00,1715A,102.575,24.3711,玉溪市,东风水库,颗粒物(PM10),52,53,41,33,31,131,75,123,106,14,13,8,7,0.9,0.9
2022-04-09T23:00:00,1718A,115.4208,35.2464,菏泽市,气象局,颗粒物(PM10),72,94,105,36,33,152,121,144,133,15,15,8,11,0.5,0.4
2022-04-09T23:00:00,1719A,115.4747,35.2375,菏泽市,市政协,颗粒物(PM10),68,86,104,27,30,145,128,141,137,13,13,13,15,0.3,0.3
2022-04-09T23:00:00,1721A,113.3819,40.1097,大同市,果树场(对照点),颗粒物(PM10),78,105,97,47,32,130,31,115,82,41,18,13,15,0.6,0.5
2022-04-09T23:00:00,1723A,113.2994,40.0758,大同市,云冈宾馆,细颗粒物(PM2.5),97,137,119,72,49,129,58,117,86,41,32,32,21,0.7,0.8
2022-04-09T23:00:00,1724A,113.3444,40.0917,大同市,大同大学,颗粒物(PM10),113,176,120,51,31,125,16,117,90,86,25,26,23,0.5,0.3
2022-04-09T23:00:00,1725A,113.2661,40.1269,大同市,安家小村,颗粒物(PM10),102,154,127,24,27,126,22,123,98,72,20,45,23,1.1,0.6
2022-04-09T23:00:00,1726A,113.2711,40.0844,大同市,教育学院,颗粒物(PM10),111,171,144,53,32,118,55,104,75,35,31,34,21,0.4,0.5
2022-04-09T23:00:00,1727A,113.1147,36.1547,长治市,清华站,颗粒物(PM10),67,83,83,22,33,140,121,134,119,20,28,10,10,0.4,0.5
2022-04-09T23:00:00,1728A,113.1031,36.1989,长治市,监测站,颗粒物(PM10),60,70,80,22,34,142,128,137,120,12,16,8,9,0.7,0.7
2022-04-09T23:00:00,1730A,113.0886,36.2125,长治市,审计局,颗粒物(PM10),61,72,84,24,35,140,114,132,109,20,22,8,10,0.9,0.9
2022-04-09T23:00:00,1731A,113.0844,36.1856,长治市,长治八中,颗粒物(PM10),69,87,103,30,36,139,112,136,111,26,22,13,13,0.8,0.7
2022-04-09T23:00:00,1733A,111.5531,36.0783,临汾市,临钢医院,,,,97,63,50,175,8,153,110,86,39,9,18,1.2,1.1
2022-04-09T23:00:00,1734A,111.5028,36.0714,临汾市,技工学校,颗粒物(PM10),102,153,105,64,44,173,18,152,106,77,41,13,24,0.7,0.7
2022-04-09T23:00:00,1736A,111.5018,36.0855,临汾市,市委,颗粒物(PM10),94,138,97,48,39,164,11,143,99,81,42,10,22,1.3,1.2
2022-04-09T23:00:00,1738A,113.5758,37.8572,阳泉市,市中心,颗粒物(PM10),131,211,132,98,65,218,158,171,171,28,33,30,27,1.1,0.9
2022-04-09T23:00:00,1739A,113.4894,37.8731,阳泉市,赛鱼,细颗粒物(PM2.5),147,158,100,112,49,211,36,164,154,127,44,18,28,1.1,0.8
2022-04-09T23:00:00,1740A,113.5819,37.8486,阳泉市,南庄,颗粒物(PM10),144,237,141,89,52,231,162,178,178,27,36,32,28,1.0,0.9
2022-04-09T23:00:00,1742A,113.5614,37.8703,阳泉市,平坦,颗粒物(PM10),132,213,131,97,61,216,164,177,177,28,36,21,23,1.0,0.9
2022-04-09T23:00:00,1743A,113.5158,37.8392,阳泉市,大阳泉,细颗粒物(PM2.5),145,198,108,111,49,218,170,175,175,24,24,10,19,0.9,0.7
2022-04-09T23:00:00,1744A,118.9233,42.2816,赤峰市,松山一中,颗粒物(PM10),53,55,38,27,11,119,64,107,86,41,28,21,16,0.8,0.6
2022-04-09T23:00:00,1745A,118.9576,42.2728,赤峰市,哈达街,颗粒物(PM10),55,60,41,25,11,125,81,112,96,27,20,8,14,0.7,0.5
2022-04-09T23:00:00,1746A,118.8788,42.2554,赤峰市,天义路,颗粒物(PM10),53,55,37,17,10,123,15,113,80,76,26,11,12,1.0,0.6
2022-04-09T23:00:00,1748A,123.044,41.1196,鞍山市,深沟寺,颗粒物(PM10),56,61,71,29,45,159,156,139,139,8,11,8,9,0.7,0.8
2022-04-09T23:00:00,1749A,123.011,41.0931,鞍山市,太阳城,颗粒物(PM10),57,64,80,26,48,162,154,156,140,12,15,7,8,0.6,0.8
2022-04-09T23:00:00,1750A,123.0485,41.1442,鞍山市,太平,颗粒物(PM10),62,74,83,27,46,151,150,129,129,11,18,10,11,0.6,0.7
2022-04-09T23:00:00,1751A,122.9642,41.0971,鞍山市,铁西三道街,颗粒物(PM10),53,55,92,25,52,157,157,145,133,8,19,8,11,0.8,1.1
2022-04-09T23:00:00,1752A,122.9341,41.0833,鞍山市,铁西工业园区,颗粒物(PM10),53,56,95,29,56,165,151,151,149,12,18,10,13,0.7,1.3
2022-04-09T23:00:00,1753A,123.022,41.0821,鞍山市,明达新区,,50,48,78,24,46,158,158,151,139,7,11,8,8,0.7,0.8
2022-04-09T23:00:00,1754A,123.1289,41.0228,鞍山市,千山(对照点),,48,48,52,30,39,129,123,118,118,10,11,9,9,0.8,0.8
2022-04-09T23:00:00,1755A,123.7977,41.8491,抚顺市,望花区,颗粒物(PM10),86,122,98,42,65,161,106,135,112,19,18,23,20,0.6,0.9
2022-04-09T23:00:00,1756A,123.9161,41.8822,抚顺市,顺城区,颗粒物(PM10),70,89,94,45,60,150,94,139,116,29,22,11,10,0.6,0.8
2022-04-09T23:00:00,1757A,124.0436,41.8611,抚顺市,东洲区,颗粒物(PM10),69,87,92,38,52,148,121,140,129,10,13,7,8,0.7,0.8
2022-04-09T23:00:00,1758A,123.9247,41.8642,抚顺市,新抚区,细颗粒物(PM2.5),75,94,85,55,66,164,66,160,116,36,16,19,17,1.0,1
2022-04-09T23:00:00,1759A,124.0972,41.8961,抚顺市,大伙房水库,颗粒物(PM10),65,79,77,36,52,164,153,160,153,9,8,7,6,0.5,0.5
2022-04-09T23:00:00,1760A,123.7086,41.8391,抚顺市,沈抚新城,颗粒物(PM10),80,109,101,56,65,160,99,148,117,22,18,15,16,1.3,1.5
2022-04-09T23:00:00,1761A,123.8275,41.3064,本溪市,大峪,颗粒物(PM10),67,83,79,22,42,151,148,140,134,10,16,15,14,0.7,0.8
2022-04-09T23:00:00,1762A,123.7567,41.3325,本溪市,溪湖,颗粒物(PM10),57,63,81,28,47,139,138,128,128,20,30,16,23,0.8,1.2
2022-04-09T23:00:00,1763A,123.7169,41.3094,本溪市,彩屯,颗粒物(PM10),74,97,109,50,66,116,103,98,92,51,47,53,39,3.2,2.6
2022-04-09T23:00:00,1764A,123.7669,41.2864,本溪市,东明,颗粒物(PM10),54,57,57,22,32,149,149,137,135,9,13,8,7,0.7,0.7
2022-04-09T23:00:00,1765A,123.7992,41.2664,本溪市,新立屯,颗粒物(PM10),59,68,76,24,37,163,163,148,148,5,8,11,9,0.6,0.6
2022-04-09T23:00:00,1766A,123.8142,41.3472,本溪市,威宁,颗粒物(PM10),67,84,77,31,45,126,113,114,103,15,18,13,14,0.8,0.9
2022-04-09T23:00:00,1767A,121.1115,41.0879,锦州市,南山,细颗粒物(PM2.5),150,149,116,115,89,149,91,132,124,33,18,14,11,1.1,0.9
2022-04-09T23:00:00,1768A,121.0533,40.8434,锦州市,开发区,细颗粒物(PM2.5),142,192,128,108,80,169,67,125,106,68,27,25,14,1.0,0.8
2022-04-09T23:00:00,1769A,121.1836,41.1119,锦州市,百股街道,细颗粒物(PM2.5),140,126,113,107,89,161,113,140,136,23,20,12,10,1.1,0.9
2022-04-09T23:00:00,1770A,121.1178,41.1222,锦州市,天安街道,细颗粒物(PM2.5),137,161,122,104,82,170,114,148,142,29,25,15,12,1.3,1
2022-04-09T23:00:00,1771A,121.1303,41.1386,锦州市,北湖公园,细颗粒物(PM2.5),130,141,110,99,82,154,111,134,130,23,20,14,11,0.9,0.8
2022-04-09T23:00:00,1772A,126.54,43.8622,吉林市,哈达湾,颗粒物(PM10),52,54,85,31,43,144,98,137,109,16,12,5,6,0.6,0.6
2022-04-09T23:00:00,1773A,126.5844,43.8358,吉林市,东局子,颗粒物(PM10),56,61,85,37,46,142,86,136,105,17,11,4,6,0.7,0.7
2022-04-09T23:00:00,1774A,126.5052,43.8245,吉林市,电力学院,细颗粒物(PM2.5),113,129,100,85,50,156,42,145,96,34,15,12,12,1.2,0.8
2022-04-09T23:00:00,1775A,126.6133,43.8972,吉林市,江北,,,295,110,,53,142,36,134,85,58,16,19,12,1.5,0.8
2022-04-09T23:00:00,1776A,126.555,43.8306,吉林市,江南公园,,42,41,79,29,45,134,95,129,102,13,10,5,8,0.7,0.7
2022-04-09T23:00:00,1778A,126.7061,43.7133,吉林市,丰满(对照点),,38,36,66,26,42,146,82,144,105,7,7,5,6,0.5,0.7
2022-04-09T23:00:00,1779A,123.9305,47.3636,齐齐哈尔市,安居小区,细颗粒物(PM2.5),93,77,74,69,46,155,91,133,110,19,25,30,17,0.6,0.7
2022-04-09T23:00:00,1780A,123.9488,47.3386,齐齐哈尔市,中心广场,颗粒物(PM10),70,89,71,40,49,143,77,123,99,22,21,106,53,0.4,0.6
2022-04-09T23:00:00,1781A,123.9483,47.3227,齐齐哈尔市,农牧车辆厂,细颗粒物(PM2.5),73,66,79,53,44,142,95,125,113,11,22,13,23,0.3,0.4
2022-04-09T23:00:00,1783A,123.945,47.2988,齐齐哈尔市,市环境监测站,细颗粒物(PM2.5),75,54,75,55,56,124,78,112,97,11,21,5,12,0.6,0.7
2022-04-09T23:00:00,1784A,129.61,44.561,牡丹江市,环保大楼,颗粒物(PM10),51,51,69,23,30,116,58,111,89,16,12,4,4,0.5,0.5
2022-04-09T23:00:00,1785A,129.6115,44.5782,牡丹江市,文化广场,颗粒物(PM10),54,57,69,36,30,116,56,113,89,23,12,10,6,0.6,0.4
2022-04-09T23:00:00,1786A,129.5904,44.5963,牡丹江市,第一医院,细颗粒物(PM2.5),55,57,75,39,41,113,70,109,88,18,15,5,6,0.7,0.7
2022-04-09T23:00:00,1787A,129.6364,44.6075,牡丹江市,机车工厂,颗粒物(PM10),53,56,70,27,22,114,32,109,87,37,17,9,10,0.5,0.4
2022-04-09T23:00:00,1788A,129.6386,44.5462,牡丹江市,第一中学,,48,48,63,20,28,118,68,116,92,21,14,2,4,0.4,0.4
2022-04-09T23:00:00,1789A,124.81117,46.03138,大庆市,大同区,,46,44,75,32,55,135,75,116,95,12,14,4,6,1.0,1.1
2022-04-09T23:00:00,1790A,125.129,46.533,大庆市,龙凤区,,50,45,62,35,39,124,85,108,101,10,18,5,10,0.4,0.5
2022-04-09T23:00:00,1791A,124.902,46.408,大庆市,红岗区,,47,47,58,15,34,147,75,117,100,8,14,4,6,1.0,1.1
2022-04-09T23:00:00,1792A,125.153,46.586,大庆市,萨尔图区,细颗粒物(PM2.5),59,42,59,42,58,126,87,114,108,15,19,30,11,0.5,0.5
2022-04-09T23:00:00,1793A,124.9042,46.6215,大庆市,让胡路区,,44,44,57,23,34,135,91,123,113,12,19,6,6,0.9,1
2022-04-09T23:00:00,1794A,118.3606,31.3519,芜湖市,监测站,颗粒物(PM10),85,119,82,21,14,163,9,152,88,120,48,16,13,1.0,0.6
2022-04-09T23:00:00,1795A,118.3714,31.4134,芜湖市,科创中心,颗粒物(PM10),77,103,83,53,37,163,20,148,89,117,62,8,10,0.8,0.7
2022-04-09T23:00:00,1796A,118.3673,31.3131,芜湖市,四水厂,颗粒物(PM10),78,105,84,18,14,156,4,144,82,138,51,11,10,1.1,0.6
2022-04-09T23:00:00,1798A,118.5092,31.6837,马鞍山市,湖东路四小,颗粒物(PM10),58,66,67,32,32,184,142,166,141,20,20,14,11,0.6,0.7
2022-04-09T23:00:00,1799A,118.5024,31.6449,马鞍山市,开发区,颗粒物(PM10),79,108,93,30,29,174,73,155,106,76,54,12,11,0.7,0.9
2022-04-09T23:00:00,1800A,118.5228,31.7231,马鞍山市,慈湖,颗粒物(PM10),72,94,84,48,37,167,76,153,98,72,34,13,12,0.7,0.7
2022-04-09T23:00:00,1802A,118.6245,31.7241,马鞍山市,濮塘(对照点),,50,50,61,25,31,150,134,137,133,8,13,10,12,0.3,0.4
2022-04-09T23:00:00,1803A,115.9872,29.6815,九江市,十里,颗粒物(PM10),77,103,69,43,27,167,6,158,112,100,49,8,9,1.0,0.6
2022-04-09T23:00:00,1804A,115.9584,29.7046,九江市,茅山头,颗粒物(PM10),83,116,76,39,30,150,2,146,98,101,53,5,6,0.7,0.5
2022-04-09T23:00:00,1805A,115.9877,29.7295,九江市,西园,颗粒物(PM10),61,72,66,42,31,153,32,137,118,106,54,11,13,0.5,0.5
2022-04-09T23:00:00,1806A,116.0172,29.6547,九江市,五七二七厂,,50,50,51,20,20,162,117,148,143,8,13,7,8,0.3,0.4
2022-04-09T23:00:00,1808A,115.9114,29.6038,九江市,综合工业园,颗粒物(PM10),59,67,59,29,26,176,119,163,145,21,24,13,14,0.5,0.5
2022-04-09T23:00:00,1809A,116.0721,29.7535,九江市,石化总厂,颗粒物(PM10),61,72,63,34,24,184,115,160,149,29,30,20,21,0.3,0.3
2022-04-09T23:00:00,1810A,115.9773,29.5698,九江市,庐山气象台(对照点),,46,42,42,17,19,181,147,162,162,5,5,8,6,0.3,0.2
2022-04-09T23:00:00,1812A,112.3931,34.6516,洛阳市,市委党校,颗粒物(PM10),60,69,99,20,40,160,81,141,118,25,30,13,8,0.6,0.7
2022-04-09T23:00:00,1814A,112.4657,34.6871,洛阳市,豫西宾馆,颗粒物(PM10),59,67,106,27,46,168,83,149,123,26,37,16,11,0.8,0.9
2022-04-09T23:00:00,1815A,112.494,34.6886,洛阳市,河南林校,颗粒物(PM10),61,72,100,18,38,170,73,151,119,28,30,21,9,0.5,0.5
2022-04-09T23:00:00,1816A,112.3844,34.623,洛阳市,开发区管委会,颗粒物(PM10),55,60,91,22,39,153,59,134,105,38,29,11,7,0.4,0.4
2022-04-09T23:00:00,1817A,112.4267,34.6258,洛阳市,市委新办公区,颗粒物(PM10),60,69,96,22,36,156,84,148,118,26,21,15,7,0.5,0.5
2022-04-09T23:00:00,1818A,114.4839,36.0621,安阳市,棉研所(对照点),颗粒物(PM10),69,88,117,31,39,127,85,110,100,18,21,8,9,0.7,0.9
2022-04-09T23:00:00,1819A,114.3551,36.1017,安阳市,红庙街,颗粒物(PM10),78,106,140,40,57,153,86,137,123,26,39,10,20,0.5,1
2022-04-09T23:00:00,1820A,114.361,36.0681,安阳市,银杏小区,,,91,129,,,153,88,140,128,24,37,8,21,0.7,1.2
2022-04-09T23:00:00,1824A,114.3389,34.7781,开封市,肿瘤医院,颗粒物(PM10),70,90,91,34,34,173,95,155,128,13,13,8,14,0.5,0.5
2022-04-09T23:00:00,1826A,114.2885,34.7965,开封市,世纪星幼儿园,颗粒物(PM10),69,87,91,28,28,180,96,161,129,15,18,9,16,0.8,0.8
2022-04-09T23:00:00,1828A,113.2269,35.2127,焦作市,市环保局,颗粒物(PM10),64,77,103,29,55,181,112,174,140,23,20,8,13,0.6,0.8
2022-04-09T23:00:00,1829A,113.2467,35.176,焦作市,高新区政府,颗粒物(PM10),89,127,114,39,59,168,91,153,123,34,37,20,17,0.3,0.3
2022-04-09T23:00:00,1830A,113.1987,35.2703,焦作市,影视城(对照点),颗粒物(PM10),57,63,74,20,35,173,130,162,150,6,7,14,15,0.8,0.9
2022-04-09T23:00:00,1832A,113.3257,33.742,平顶山市,新华旅馆,颗粒物(PM10),63,76,86,40,41,177,150,162,145,9,12,5,5,0.4,0.4
2022-04-09T23:00:00,1833A,113.2919,33.737,平顶山市,规划设计院,颗粒物(PM10),64,78,80,33,28,173,137,157,139,11,9,6,6,0.3,0.3
2022-04-09T23:00:00,1834A,113.182,33.774,平顶山市,平顶山工学院,颗粒物(PM10),60,70,76,37,33,169,135,156,138,8,8,9,10,0.5,0.5
2022-04-09T23:00:00,1835A,111.1922,34.7752,三门峡市,市政府,颗粒物(PM10),73,96,101,27,37,168,47,143,91,50,44,6,12,0.5,0.7
2022-04-09T23:00:00,1836A,111.1587,34.7942,三门峡市,开发区,颗粒物(PM10),95,140,109,36,38,170,42,146,103,47,33,12,14,0.4,0.4
2022-04-09T23:00:00,1838A,111.143,34.7955,三门峡市,风景区(对照点),颗粒物(PM10),71,91,102,23,29,167,78,147,117,21,28,10,12,0.5,0.6
2022-04-09T23:00:00,1840A,111.2992,30.6981,宜昌市,白龙岗,颗粒物(PM10),62,73,65,31,25,163,84,137,115,39,33,9,7,0.3,0.3
2022-04-09T23:00:00,1841A,111.3549,30.6465,宜昌市,伍家岗,颗粒物(PM10),62,73,64,34,29,164,22,136,102,76,42,6,6,0.7,0.5
2022-04-09T23:00:00,1842A,111.2628,30.6961,宜昌市,点军区,颗粒物(PM10),72,93,71,34,28,163,40,145,120,54,32,10,9,0.6,0.5
2022-04-09T23:00:00,1843A,111.3275,30.7819,宜昌市,夷陵区,颗粒物(PM10),66,82,65,31,25,168,100,141,122,21,25,5,4,0.3,0.3
2022-04-09T23:00:00,1844A,112.2494,30.3197,荆州市,市图书馆,颗粒物(PM10),60,70,77,31,26,167,126,156,147,24,23,14,14,0.6,0.6
2022-04-09T23:00:00,1845A,112.2008,30.3544,荆州市,市委党校,颗粒物(PM10),64,78,69,37,38,169,120,159,152,32,21,13,14,0.6,0.5
2022-04-09T23:00:00,1847A,113.1094,29.3578,岳阳市,南湖风景区,颗粒物(PM10),76,101,65,39,28,158,50,150,112,90,37,32,14,0.7,0.5
2022-04-09T23:00:00,1848A,113.1493,29.4251,岳阳市,城陵矶,颗粒物(PM10),72,93,65,36,26,157,94,150,130,52,21,17,18,0.6,0.5
2022-04-09T23:00:00,1849A,113.1497,29.3575,岳阳市,开发区,颗粒物(PM10),86,122,88,40,28,171,96,167,135,44,20,14,15,0.5,0.4
2022-04-09T23:00:00,1850A,113.2621,29.4758,岳阳市,云溪区,颗粒物(PM10),58,66,54,37,24,157,141,148,142,14,13,12,11,0.4,0.3
2022-04-09T23:00:00,1851A,112.9943,29.4402,岳阳市,君山区,颗粒物(PM10),63,75,67,38,31,173,129,163,148,23,16,22,13,0.6,0.6
2022-04-09T23:00:00,1852A,113.2117,29.355,岳阳市,金凤水库(对照点),颗粒物(PM10),63,76,61,32,26,153,112,146,129,24,21,7,9,0.4,0.4
2022-04-09T23:00:00,1854A,111.6975,28.9703,常德市,市二中,,50,50,58,27,31,155,116,146,134,8,13,6,9,0.9,0.9
2022-04-09T23:00:00,1857A,111.7158,29.1456,常德市,白鹤山(对照点),颗粒物(PM10),52,54,67,26,28,151,128,144,136,7,8,5,7,0.5,0.5
2022-04-09T23:00:00,1858A,110.5319,29.1217,张家界市,永定新区,颗粒物(PM10),56,61,61,31,28,159,97,147,129,6,14,2,3,0.2,0.2
2022-04-09T23:00:00,1859A,110.4697,29.1242,张家界市,电业局,,38,38,43,26,24,144,86,134,118,14,13,6,7,0.2,0.2
2022-04-09T23:00:00,1860A,110.5594,29.3547,张家界市,未央路,,50,50,50,18,13,130,72,125,110,7,6,3,3,0.3,0.2
2022-04-09T23:00:00,1861A,110.4417,29.315,张家界市,袁家界(对照点),,39,36,45,14,17,148,124,143,139,2,3,4,5,0.1,0.1
2022-04-09T23:00:00,1862A,110.4144,25.3167,桂林市,电子科大尧山校区(对照点),细颗粒物(PM2.5),104,94,69,78,54,170,71,160,123,13,7,18,18,0.8,0.6
2022-04-09T23:00:00,1863A,110.2819,25.2697,桂林市,监测站,细颗粒物(PM2.5),94,80,85,70,59,166,118,159,148,22,16,10,17,0.9,0.8
2022-04-09T23:00:00,1864A,110.3089,25.2708,桂林市,龙隐路小学,细颗粒物(PM2.5),107,59,64,80,46,164,84,156,132,33,22,8,18,1.0,0.8
2022-04-09T23:00:00,1865A,110.2869,25.2178,桂林市,八中,细颗粒物(PM2.5),114,84,77,86,57,168,105,161,150,26,18,13,13,0.9,0.8
2022-04-09T23:00:00,1866A,109.2262,21.588,北海市,牛尾岭水库(对照点),颗粒物(PM10),52,53,49,31,29,161,78,142,105,22,13,8,8,0.6,0.7
2022-04-09T23:00:00,1867A,109.1436,21.4086,北海市,海滩公园,,45,45,49,17,25,163,133,149,137,9,11,6,9,0.4,0.5
2022-04-09T23:00:00,1868A,109.0981,21.4661,北海市,新市环保局,,45,45,48,24,32,156,135,145,130,8,9,5,7,0.5,0.6
2022-04-09T23:00:00,1869A,109.1778,21.5233,北海市,北海工业园,细颗粒物(PM2.5),53,53,59,37,34,171,121,148,125,12,15,6,15,0.7,0.7
2022-04-09T23:00:00,1870A,109.4856,24.3895,柳州市,柳东小学,细颗粒物(PM2.5),74,83,88,54,65,194,119,183,168,24,26,9,20,0.8,0.9
2022-04-09T23:00:00,1871A,109.4157,24.3277,柳州市,环保监测站,细颗粒物(PM2.5),77,80,88,56,51,187,80,176,146,53,39,8,11,0.9,0.8
2022-04-09T23:00:00,1872A,109.389,24.341,柳州市,河西水厂,细颗粒物(PM2.5),68,81,105,49,60,187,105,178,152,42,42,10,19,1.1,1.1
2022-04-09T23:00:00,1873A,109.4311,24.2921,柳州市,市四中,细颗粒物(PM2.5),80,100,92,59,47,184,67,173,138,56,37,8,10,1.1,0.8
2022-04-09T23:00:00,1874A,109.4006,24.3631,柳州市,市九中,颗粒物(PM10),79,108,111,46,43,174,52,166,123,58,37,6,12,0.8,0.6
2022-04-09T23:00:00,1875A,109.4958,24.3134,柳州市,古亭山,颗粒物(PM10),58,66,75,36,49,178,63,165,125,50,39,5,10,0.6,0.6
2022-04-09T23:00:00,1876A,109.5078,18.2489,三亚市,河东子站,,32,32,36,13,20,119,74,115,86,2,4,3,4,0.4,0.5
2022-04-09T23:00:00,1877A,109.4964,18.2681,三亚市,河西子站,,29,29,35,15,22,132,75,121,91,2,4,6,7,0.4,0.4
2022-04-09T23:00:00,1878A,104.7778,31.4741,绵阳市,富乐山,"颗粒物(PM10),细颗粒物(PM2.5)",59,68,64,42,39,176,102,158,147,23,27,6,6,1.0,0.9
2022-04-09T23:00:00,1879A,104.7563,31.4535,绵阳市,市人大,细颗粒物(PM2.5),108,14,67,81,43,165,,155,155,,48,,6,,0.6
2022-04-09T23:00:00,1880A,104.6697,31.4668,绵阳市,高新区自来水公司,颗粒物(PM10),105,160,84,55,45,179,3,157,131,129,48,10,8,1.0,0.8
2022-04-09T23:00:00,1881A,104.7287,31.5075,绵阳市,三水厂,颗粒物(PM10),80,109,79,56,46,171,4,150,110,111,43,5,5,1.3,0.9
2022-04-09T23:00:00,1882A,104.563,28.793,宜宾市,石马中学(对照点),细颗粒物(PM2.5),74,83,78,54,54,143,43,123,109,46,29,7,11,0.7,0.7
2022-04-09T23:00:00,1883A,104.6201,28.7728,宜宾市,市委,细颗粒物(PM2.5),78,94,87,57,54,143,4,115,92,87,50,8,11,1.0,0.8
2022-04-09T23:00:00,1884A,104.6055,28.793,宜宾市,宜宾四中,细颗粒物(PM2.5),82,99,94,60,56,145,9,120,95,92,45,8,11,1.0,0.7
2022-04-09T23:00:00,1885A,104.639,28.7562,宜宾市,市政府,细颗粒物(PM2.5),84,109,96,62,53,139,0,113,92,106,57,10,13,1.0,0.7
2022-04-09T23:00:00,1886A,104.5742,28.7199,宜宾市,黄金嘴,细颗粒物(PM2.5),78,87,77,57,49,137,28,115,91,49,39,9,13,0.9,0.7
2022-04-09T23:00:00,1888A,101.6891,26.571,攀枝花市,弄弄坪,颗粒物(PM10),56,61,71,36,39,143,72,129,116,37,30,13,17,1.1,1.8
2022-04-09T23:00:00,1889A,101.5769,26.5928,攀枝花市,河门口,,36,36,56,18,33,125,105,121,110,11,25,16,16,0.9,1.3
2022-04-09T23:00:00,1890A,101.7169,26.585,攀枝花市,炳草岗,颗粒物(PM10),62,74,61,40,44,136,60,116,99,59,51,21,21,1.5,1.6
2022-04-09T23:00:00,1891A,101.7369,26.5008,攀枝花市,仁和,细颗粒物(PM2.5),52,50,49,36,34,136,61,126,100,23,20,7,9,0.8,0.8
2022-04-09T23:00:00,1893A,105.4324,28.9634,泸州市,九狮山(对照点),颗粒物(PM10),64,77,81,38,44,147,52,127,99,28,23,9,14,0.5,0.5
2022-04-09T23:00:00,1894A,105.4427,28.9063,泸州市,小市上码头,颗粒物(PM10),66,82,89,42,53,146,71,129,113,36,34,23,22,0.6,0.7
2022-04-09T23:00:00,1895A,105.4241,28.8573,泸州市,兰田宪桥,颗粒物(PM10),70,89,88,34,44,146,27,132,101,60,27,11,17,0.9,0.7
2022-04-09T23:00:00,1896A,105.4379,28.8833,泸州市,市环监站,颗粒物(PM10),66,82,91,39,43,144,60,130,102,40,33,12,19,0.6,0.6
2022-04-09T23:00:00,1901A,104.4239,31.1208,德阳市,东山公园,颗粒物(PM10),89,127,90,58,50,192,71,173,151,81,35,10,9,0.8,0.6
2022-04-09T23:00:00,1902A,104.3826,31.1317,德阳市,西小区,颗粒物(PM10),105,159,98,77,54,196,24,171,126,110,50,12,10,1.2,0.7
2022-04-09T23:00:00,1904A,104.3553,31.1091,德阳市,耐火材料厂,颗粒物(PM10),137,223,125,103,69,203,18,176,133,113,50,15,11,0.9,0.6
2022-04-09T23:00:00,1905A,106.056,30.8064,南充市,西山风景区(对照点),颗粒物(PM10),76,101,65,50,38,147,131,136,133,11,13,16,8,0.9,0.7
2022-04-09T23:00:00,1906A,106.0789,30.8023,南充市,南充市委,细颗粒物(PM2.5),79,92,71,58,38,142,112,129,122,16,16,18,6,0.7,0.5
2022-04-09T23:00:00,1907A,106.1031,30.8217,南充市,南充炼油厂,细颗粒物(PM2.5),87,110,79,64,37,182,120,159,146,18,16,21,6,0.7,0.5
2022-04-09T23:00:00,1908A,106.1064,30.7856,南充市,高坪区监测站,细颗粒物(PM2.5),99,87,68,74,43,146,104,135,127,14,31,29,8,0.7,0.6
2022-04-09T23:00:00,1909A,106.0642,30.7636,南充市,嘉陵区环保局,细颗粒物(PM2.5),87,82,59,64,38,146,124,136,130,9,21,20,10,0.7,0.6
2022-04-09T23:00:00,1910A,106.1087,30.8388,南充市,市环境监测站,细颗粒物(PM2.5),90,102,69,67,40,143,91,125,114,41,18,17,5,0.6,0.4
2022-04-09T23:00:00,1911A,106.9222,27.6869,遵义市,丁字口,颗粒物(PM10),62,73,49,43,31,106,16,87,67,37,29,12,9,0.7,0.6
2022-04-09T23:00:00,1912A,106.9242,27.7019,遵义市,凤凰山,颗粒物(PM10),59,68,42,32,26,128,38,127,80,33,22,10,8,0.5,0.4
2022-04-09T23:00:00,1913A,106.8906,27.6486,遵义市,忠庄,颗粒物(PM10),60,69,60,29,31,108,20,91,75,43,28,3,3,0.5,0.4
2022-04-09T23:00:00,1914A,106.9231,27.6506,遵义市,舟水桥,细颗粒物(PM2.5),52,41,39,36,28,109,16,90,60,25,24,3,4,0.4,0.4
2022-04-09T23:00:00,1915A,106.9178,27.72,遵义市,干田坝,细颗粒物(PM2.5),57,59,44,40,24,109,13,87,68,41,28,8,8,0.7,0.6
2022-04-09T23:00:00,1916A,103.7897,25.5035,曲靖市,环境监测站,,37,37,50,19,30,141,77,126,95,32,22,10,9,1.0,0.8
2022-04-09T23:00:00,1917A,103.8,25.5364,曲靖市,烟厂办公区,,41,41,55,24,30,153,76,137,106,25,24,9,8,1.1,0.9
2022-04-09T23:00:00,1918A,108.7197,34.3956,咸阳市,气象站(对照点),,,168,108,51,35,154,4,134,97,125,48,7,7,0.8,0.7
2022-04-09T23:00:00,1919A,108.673,34.3155,咸阳市,实验中学,颗粒物(PM10),94,138,110,63,52,159,29,144,94,75,44,3,5,0.7,0.7
2022-04-09T23:00:00,1920A,108.7233,34.3617,咸阳市,师范学院,颗粒物(PM10),109,167,108,59,41,158,29,136,98,58,39,4,5,0.9,1
2022-04-09T23:00:00,1922A,109.0656,35.0994,铜川市,党校(对照点),颗粒物(PM10),93,136,82,44,27,121,18,102,72,88,44,6,7,0.5,0.3
2022-04-09T23:00:00,1923A,109.0697,35.0697,铜川市,王益区政府,颗粒物(PM10),82,114,79,42,27,133,27,121,91,55,29,12,10,0.4,0.3
2022-04-09T23:00:00,1924A,108.9344,34.9058,铜川市,新区管委会,颗粒物(PM10),81,111,66,35,27,142,65,130,101,39,20,7,9,0.4,0.3
2022-04-09T23:00:00,1926A,109.4131,36.6275,延安市,枣园(对照点),颗粒物(PM10),98,146,108,41,30,124,4,113,64,64,33,2,2,0.2,0.1
2022-04-09T23:00:00,1927A,109.4761,36.6028,延安市,延大医附院,颗粒物(PM10),105,160,123,49,36,125,3,114,63,71,38,7,4,0.7,0.6
2022-04-09T23:00:00,1929A,109.5056,36.6106,延安市,百米大道,颗粒物(PM10),115,180,129,55,47,114,4,105,58,82,47,3,3,0.7,0.2
2022-04-09T23:00:00,1930A,107.185,34.3063,宝鸡市,庙沟村(对照点),颗粒物(PM10),62,73,54,30,24,128,74,118,102,28,8,5,4,0.4,0.4
2022-04-09T23:00:00,1931A,107.0708,34.3017,宝鸡市,竹园沟,,50,50,59,26,28,134,56,128,95,24,12,6,6,0.4,0.4
2022-04-09T23:00:00,1932A,107.1906,34.3672,宝鸡市,三陆医院,颗粒物(PM10),69,88,76,45,37,132,26,123,98,71,32,7,8,0.7,0.6
2022-04-09T23:00:00,1933A,107.1431,34.3547,宝鸡市,监测站,颗粒物(PM10),74,97,71,42,33,126,37,120,82,43,29,4,4,0.6,0.6
2022-04-09T23:00:00,1934A,107.1186,34.3739,宝鸡市,技工学校,颗粒物(PM10),82,113,78,42,32,127,56,120,92,35,20,5,5,0.5,0.5
2022-04-09T23:00:00,1935A,107.3906,34.3528,宝鸡市,陈仓区环保局家属楼,颗粒物(PM10),114,177,89,39,38,144,14,127,89,80,28,9,32,0.9,1.1
2022-04-09T23:00:00,1936A,107.2058,34.3497,宝鸡市,文理学院,,50,0,26,35,35,135,53,129,102,45,26,7,7,1.1,1.1
2022-04-09T23:00:00,1937A,107.2386,34.3622,宝鸡市,三迪小学,颗粒物(PM10),74,98,76,38,36,134,40,120,94,56,34,8,8,0.5,0.5
2022-04-09T23:00:00,1938A,109.5293,34.5101,渭南市,农科所(对照点),颗粒物(PM10),102,153,112,46,35,149,70,134,101,23,32,7,10,0.2,0.4
2022-04-09T23:00:00,1939A,109.4974,34.4877,渭南市,日报社,颗粒物(PM10),100,149,108,41,32,150,36,135,85,55,36,13,11,0.4,0.4
2022-04-09T23:00:00,1940A,109.4636,34.493,渭南市,体育馆,颗粒物(PM10),106,161,110,32,30,162,83,143,101,20,37,8,13,0.2,0.4
2022-04-09T23:00:00,1941A,109.4259,34.5023,渭南市,高新一小,颗粒物(PM10),118,185,139,53,38,377,27,181,130,62,39,13,10,0.5,0.5
2022-04-09T23:00:00,1943A,102.1725,38.5339,金昌市,新川苑,颗粒物(PM10),67,83,152,23,38,112,89,104,92,10,18,8,17,0.4,0.5
2022-04-09T23:00:00,1944A,102.1692,38.5167,金昌市,天庆家园,颗粒物(PM10),61,72,140,15,35,113,93,107,97,8,19,14,21,0.4,0.5
2022-04-09T23:00:00,1945A,98.2908,39.7711,嘉峪关市,气象局,颗粒物(PM10),59,68,100,24,33,107,67,101,86,30,16,17,10,0.5,0.7
2022-04-09T23:00:00,1947A,106.3394,38.817,石嘴山市,沙湖旅游区(对照点),颗粒物(PM10),105,160,222,48,43,117,32,109,82,41,32,8,8,0.3,0.2
2022-04-09T23:00:00,1948A,106.3668,39.0145,石嘴山市,大武口朝阳西街,颗粒物(PM10),72,94,131,34,42,115,92,109,103,10,28,2,7,0.3,0.6
2022-04-09T23:00:00,1949A,106.7704,39.2282,石嘴山市,惠农南大街,颗粒物(PM10),109,168,160,49,44,106,5,94,70,72,38,45,28,0.7,0.7
2022-04-09T23:00:00,1950A,106.7099,39.1325,石嘴山市,红果子镇惠新街,颗粒物(PM10),132,213,202,59,48,104,10,95,68,75,32,13,16,0.7,0.8
2022-04-09T23:00:00,1951A,84.895,45.6094,克拉玛依市,长征新村,颗粒物(PM10),54,58,37,12,4,102,61,95,89,28,8,8,8,0.3,0.2
2022-04-09T23:00:00,1952A,84.8988,45.5893,克拉玛依市,南林小区,颗粒物(PM10),57,64,44,16,10,109,33,101,87,61,13,6,6,0.6,0.3
2022-04-09T23:00:00,1954A,84.905,44.3396,克拉玛依市,独山子区,颗粒物(PM10),79,108,91,24,25,108,76,101,97,13,9,5,5,0.4,0.4
2022-04-09T23:00:00,1955A,85.6979,46.098,克拉玛依市,乌尔禾区商贸楼,细颗粒物(PM2.5),67,79,33,48,10,94,63,92,83,17,5,10,9,0.5,0.4
2022-04-09T23:00:00,1956A,86.1472,41.7538,巴音郭楞州,孔雀公园,颗粒物(PM10),69,88,89,29,26,126,84,116,108,9,11,4,3,0.4,0.3
2022-04-09T23:00:00,1957A,86.1972,41.7166,巴音郭楞州,棉纺厂,颗粒物(PM10),66,82,67,26,22,119,64,111,100,21,12,2,2,0.4,0.3
2022-04-09T23:00:00,1958A,86.2357,41.7173,巴音郭楞州,经济开发区,颗粒物(PM10),78,106,92,11,22,124,78,117,103,10,7,2,2,0.4,0.4
2022-04-09T23:00:00,1961A,117.532,36.6868,济南市,东山小学,颗粒物(PM10),78,105,103,24,25,144,119,140,131,9,11,13,14,0.3,0.4
2022-04-09T23:00:00,1966A,120.0405,35.8735,青岛市,黄岛区4号,颗粒物(PM10),63,75,85,29,36,185,162,175,173,21,31,7,9,0.4,0.6
2022-04-09T23:00:00,1982A,122.0693,37.2174,威海市,文登开发区,,,73,80,29,35,211,186,198,198,12,17,5,6,,0
2022-04-09T23:00:00,2031A,113.1817,27.9958,株洲市,云田中学,颗粒物(PM10),57,63,62,35,30,181,105,165,141,19,14,7,9,0.4,0.3
2022-04-09T23:00:00,2054A,114.1099,32.1059,信阳市,平桥分局,颗粒物(PM10),54,57,63,35,33,168,137,162,151,17,17,12,12,0.5,0.5
2022-04-09T23:00:00,2064A,113.9956,32.1271,信阳市,南湾水厂,颗粒物(PM10),61,72,75,27,28,178,156,172,164,10,12,10,12,0.4,0.4
2022-04-09T23:00:00,2065A,114.0775,32.1195,信阳市,市酿酒公司,颗粒物(PM10),55,59,59,29,27,165,128,159,150,19,16,10,11,0.5,0.5
2022-04-09T23:00:00,2066A,114.0609,32.1399,信阳市,审计局,颗粒物(PM10),59,68,66,34,32,159,128,153,144,14,12,10,12,0,0.3
2022-04-09T23:00:00,2067A,114.6613,33.6128,周口市,市环境监测站,颗粒物(PM10),64,78,82,30,21,169,116,154,140,25,12,12,10,0.7,0.7
2022-04-09T23:00:00,2068A,114.6758,33.6347,周口市,周口师范,颗粒物(PM10),62,74,79,33,24,161,116,152,138,13,12,9,10,0.6,0.6
2022-04-09T23:00:00,2069A,114.6546,33.5979,周口市,市运管处,颗粒物(PM10),64,77,79,35,25,159,110,146,132,17,16,8,8,0.5,0.5
2022-04-09T23:00:00,2070A,114.6369,33.6406,周口市,川汇区环保局,颗粒物(PM10),64,78,75,30,25,165,121,153,142,11,10,4,6,0.5,0.5
2022-04-09T23:00:00,2075A,117.6336,24.4674,漳州市,九湖(对照点),,49,49,63,23,29,164,92,142,116,8,22,7,10,0.4,0.4
2022-04-09T23:00:00,2160A,112.85,35.5051,晋城市,自来水公司,颗粒物(PM10),122,194,108,29,34,156,7,145,111,105,44,11,13,1.4,1.2
2022-04-09T23:00:00,2161A,112.8318,35.4936,晋城市,白云商贸,颗粒物(PM10),98,146,98,27,35,158,7,146,106,98,40,7,7,1.0,1
2022-04-09T23:00:00,2162A,112.8508,35.4887,晋城市,市环保局,颗粒物(PM10),80,109,99,31,35,156,12,144,110,101,50,10,12,1.2,1.1
2022-04-09T23:00:00,2163A,112.8676,35.4897,晋城市,技术学院,颗粒物(PM10),65,80,94,24,36,146,69,135,119,56,39,6,8,0.8,0.9
2022-04-09T23:00:00,2165A,112.8453,35.546,晋城市,白马寺 (对照点),颗粒物(PM10),68,85,86,14,25,166,130,159,123,20,16,6,9,0.5,0.7
2022-04-09T23:00:00,2166A,112.4397,39.3522,朔州市,平朔,颗粒物(PM10),102,153,140,53,42,125,90,119,107,18,27,7,10,0.5,0.5
2022-04-09T23:00:00,2167A,112.4575,39.3617,朔州市,朔唯,颗粒物(PM10),112,173,158,48,36,129,98,123,112,17,30,4,7,0.3,0.4
2022-04-09T23:00:00,2168A,112.4258,39.3197,朔州市,区政府,颗粒物(PM10),106,161,127,39,35,127,93,120,104,18,22,12,10,0.5,0.6
2022-04-09T23:00:00,2169A,112.4072,39.3278,朔州市,市环保局,颗粒物(PM10),102,153,146,41,37,109,79,106,96,25,27,7,10,0.6,0.5
2022-04-09T23:00:00,2170A,112.4272,39.3681,朔州市,市二中,颗粒物(PM10),107,164,150,56,41,132,97,126,113,14,25,6,10,0.3,0.4
2022-04-09T23:00:00,2171A,112.7532,37.6945,晋中市,锦纶小区,颗粒物(PM10),127,204,144,63,56,163,42,144,105,54,32,14,15,0.6,0.7
2022-04-09T23:00:00,2173A,112.7249,37.7067,晋中市,南都小区,颗粒物(PM10),111,172,152,55,70,164,44,145,105,52,37,15,23,0.7,0.7
2022-04-09T23:00:00,2174A,112.6991,37.6982,晋中市,榆次区政府,颗粒物(PM10),125,199,137,70,58,160,50,144,107,52,33,17,23,3.3,3.1
2022-04-09T23:00:00,2175A,110.9956,35.0147,运城市,运城中学,颗粒物(PM10),71,92,96,32,34,168,38,144,116,58,22,5,20,0.7,0.5
2022-04-09T23:00:00,2178A,110.9686,35.0303,运城市,地区技校,颗粒物(PM10),71,92,105,28,28,158,41,145,107,60,28,5,9,0.8,0.6
2022-04-09T23:00:00,2179A,111.0414,35.1147,运城市,空港新区,颗粒物(PM10),95,140,110,38,37,151,57,142,99,42,29,6,8,0.4,0.5
2022-04-09T23:00:00,2181A,112.7383,38.4519,忻州市,开发区,颗粒物(PM10),82,113,90,44,26,127,127,114,106,17,18,18,19,0.8,0.5
2022-04-09T23:00:00,2182A,112.7003,38.4928,忻州市,会展中心,颗粒物(PM10),83,115,90,36,26,130,130,114,109,21,28,13,13,0.6,0.4
2022-04-09T23:00:00,2183A,111.1406,37.5211,吕梁市,环保局,颗粒物(PM10),103,155,130,31,28,117,5,110,55,81,51,6,8,0.3,0.4
2022-04-09T23:00:00,2185A,111.1297,37.5136,吕梁市,自来水公司,颗粒物(PM10),108,165,169,36,32,116,5,112,56,78,50,3,5,0.4,0.4
2022-04-09T23:00:00,2187A,106.8174,39.6973,乌海市,市林业局,细颗粒物(PM2.5),108,155,139,81,47,116,23,110,91,60,38,8,52,0.8,0.9
2022-04-09T23:00:00,2188A,106.7907,39.6667,乌海市,中海勃湾学校,颗粒物(PM10),76,102,136,38,43,119,53,113,98,44,46,13,40,0.6,0.9
2022-04-09T23:00:00,2191A,122.2532,43.6801,通辽市,艺术职业学校,细颗粒物(PM2.5),74,67,37,54,28,126,109,117,108,22,16,9,7,0.6,0.5
2022-04-09T23:00:00,2192A,119.7594,49.2261,呼伦贝尔市,区环保局,,35,35,25,7,17,111,90,107,99,7,7,5,5,0.5,0.4
2022-04-09T23:00:00,2195A,107.4212,40.761,巴彦淖尔市,附二中,颗粒物(PM10),91,131,132,40,36,116,94,109,100,9,16,15,9,0.4,0.4
2022-04-09T23:00:00,2196A,107.37,40.7372,巴彦淖尔市,市环保大楼,颗粒物(PM10),77,103,113,44,36,122,99,113,105,6,14,6,5,0.5,0.6
2022-04-09T23:00:00,2197A,113.1306,40.9923,乌兰察布市,集宁新区,颗粒物(PM10),77,104,58,34,20,124,98,118,112,17,10,11,9,0.3,0.3
2022-04-09T23:00:00,2200A,122.0392,46.0656,兴安盟,胜华新制药厂,细颗粒物(PM2.5),500,594,78,542,57,103,50,98,86,65,14,20,5,3.3,0.4
2022-04-09T23:00:00,2201A,121.9504,46.0741,兴安盟,科右前旗环保局,细颗粒物(PM2.5),500,567,72,545,60,108,70,103,92,61,15,21,5,3.5,0.5
2022-04-09T23:00:00,2202A,116.1042,43.9317,锡林郭勒盟,市环保监测站,颗粒物(PM10),90,130,42,26,10,100,73,90,80,3,9,7,9,0.6,0.5
2022-04-09T23:00:00,2203A,116.0781,43.9311,锡林郭勒盟,市政府,颗粒物(PM10),78,105,35,25,8,96,70,87,77,5,10,6,7,0.3,0.3
2022-04-09T23:00:00,2204A,105.6467,38.8363,阿拉善盟,西城区西花园(对照点),颗粒物(PM10),80,109,144,37,46,118,81,114,97,16,9,5,5,0.4,0.3
2022-04-09T23:00:00,2205A,105.6985,38.8411,阿拉善盟,蒙二幼,颗粒物(PM10),73,95,145,40,48,116,93,113,99,6,8,6,6,0.3,0.3
2022-04-09T23:00:00,2206A,105.724,38.8516,阿拉善盟,环保局新楼,细颗粒物(PM2.5),67,67,112,48,49,113,105,111,106,4,6,7,7,0.3,0.3
2022-04-09T23:00:00,2207A,121.6094,41.998,阜新市,工业园区,细颗粒物(PM2.5),122,169,104,92,69,149,137,138,138,23,25,20,15,1.0,0.9
2022-04-09T23:00:00,2208A,121.6697,42.0279,阜新市,长青街,细颗粒物(PM2.5),125,132,87,95,62,168,138,144,144,18,16,27,17,0.9,0.7
2022-04-09T23:00:00,2209A,121.6673,42.0705,阜新市,农业园区,细颗粒物(PM2.5),133,157,79,101,57,159,140,136,136,17,17,18,16,0.9,0.6
2022-04-09T23:00:00,2210A,121.6717,42.0224,阜新市,东苑,颗粒物(PM10),111,171,92,79,53,172,139,150,150,24,21,28,24,0.9,0.8
2022-04-09T23:00:00,2211A,121.6506,42.0498,阜新市,玉龙新城,颗粒物(PM10),107,163,74,77,40,158,138,143,143,14,15,20,18,0.9,0.7
2022-04-09T23:00:00,2212A,123.2,41.1953,辽阳市,宏伟区,"颗粒物(PM10),臭氧1小时",52,53,58,25,41,161,161,140,140,10,12,10,10,0.6,0.6
2022-04-09T23:00:00,2213A,123.1683,41.2495,辽阳市,新华园,颗粒物(PM10),65,79,70,28,52,150,150,131,130,12,15,6,7,0.4,0.5
2022-04-09T23:00:00,2214A,123.2354,41.2639,辽阳市,滨河路,颗粒物(PM10),59,67,69,32,54,144,144,130,123,9,12,9,10,0.5,0.5
2022-04-09T23:00:00,2215A,123.149,41.2991,辽阳市,铁西工业园,颗粒物(PM10),61,72,75,29,51,158,158,140,136,11,17,12,13,0.4,0.5
2022-04-09T23:00:00,2216A,123.8139,42.3022,铁岭市,汇工街西,颗粒物(PM10),91,132,109,49,79,170,117,160,128,18,35,20,20,0.8,1
2022-04-09T23:00:00,2217A,123.8649,42.2923,铁岭市,水上乐园,细颗粒物(PM2.5),103,116,89,77,63,177,100,164,126,29,26,15,12,0.6,0.7
2022-04-09T23:00:00,2218A,123.8486,42.2867,铁岭市,银州路东段,颗粒物(PM10),94,138,99,60,66,164,111,153,119,19,27,11,11,0.7,0.8
2022-04-09T23:00:00,2219A,123.7153,42.2217,铁岭市,金沙江路北,颗粒物(PM10),85,120,113,37,58,170,110,156,119,24,30,15,13,1.0,1.1
2022-04-09T23:00:00,2220A,120.4318,41.5881,朝阳市,西梁,细颗粒物(PM2.5),100,116,83,75,55,172,126,156,129,18,15,16,16,0.9,0.9
2022-04-09T23:00:00,2221A,120.4521,41.5646,朝阳市,河畔小区,细颗粒物(PM2.5),92,116,88,68,53,159,130,148,132,16,13,16,15,0.8,0.8
2022-04-09T23:00:00,2222A,120.4176,41.5648,朝阳市,八里堡,细颗粒物(PM2.5),92,106,79,68,49,170,122,161,125,19,17,16,14,0.9,0.8
2022-04-09T23:00:00,2223A,120.3806,41.5969,朝阳市,农业园区,细颗粒物(PM2.5),113,171,72,85,42,164,87,151,120,41,17,15,14,0.9,0.6
2022-04-09T23:00:00,2225A,124.4002,43.1713,四平市,一商场,细颗粒物(PM2.5),297,267,87,247,70,138,58,127,90,75,21,41,15,1.4,0.7
2022-04-09T23:00:00,2226A,124.388,43.193,四平市,境园,细颗粒物(PM2.5),397,227,84,347,66,139,30,133,85,66,16,26,11,2.0,0.7
2022-04-09T23:00:00,2227A,125.1358,42.8845,辽源市,环保局,细颗粒物(PM2.5),316,296,91,266,78,205,56,180,130,112,22,47,13,3.1,1
2022-04-09T23:00:00,2229A,125.9358,41.7173,通化市,光明,颗粒物(PM10),52,54,52,32,26,175,74,175,121,22,9,16,12,0.6,0.5
2022-04-09T23:00:00,2230A,125.9446,41.7325,通化市,铁路,颗粒物(PM10),57,63,52,35,29,152,45,152,106,34,11,14,12,0.9,0.7
2022-04-09T23:00:00,2231A,126.4219,41.9171,白山市,喜丰,颗粒物(PM10),83,116,91,45,31,166,68,166,124,32,18,11,10,1.5,1.2
2022-04-09T23:00:00,2232A,126.4077,41.9419,白山市,环保局,细颗粒物(PM2.5),72,90,66,52,33,4,4,4,4,27,18,12,12,2.8,2.6
2022-04-09T23:00:00,2233A,124.8006,45.1214,松原市,江南,,40,40,96,15,52,111,80,105,83,27,21,12,11,0.5,0.4
2022-04-09T23:00:00,2234A,124.7965,45.1722,松原市,江北,,29,27,82,13,54,111,90,106,101,12,13,2,2,0.3,0.5
2022-04-09T23:00:00,2236A,122.8738,45.5725,白城市,市环保局,细颗粒物(PM2.5),236,210,215,186,184,121,10,111,54,114,56,19,16,1.7,0.8
2022-04-09T23:00:00,2237A,129.47,42.8883,延边朝鲜族自治州,妇幼医院,细颗粒物(PM2.5),68,79,64,49,39,143,50,136,82,23,18,10,8,0.8,0.7
2022-04-09T23:00:00,2238A,129.5055,42.9108,延边朝鲜族自治州,延边医院,颗粒物(PM10),55,59,65,38,41,155,73,143,92,16,16,10,10,0.7,0.8
2022-04-09T23:00:00,2239A,129.3964,42.8881,延边朝鲜族自治州,朝阳川镇医院,颗粒物(PM10),59,67,71,37,43,149,41,141,73,18,17,7,9,0.6,0.6
2022-04-09T23:00:00,2240A,130.9762,45.3001,鸡西市,环保局,颗粒物(PM10),56,61,106,38,73,87,56,78,67,24,34,5,8,0.3,0.5
2022-04-09T23:00:00,2243A,130.9429,45.3039,鸡西市,第一中学,颗粒物(PM10),62,73,110,42,68,99,63,92,78,26,31,9,7,0.3,0.5
2022-04-09T23:00:00,2244A,130.2537,47.3416,鹤岗市,哈啤分公司,,42,37,52,29,31,104,79,92,86,10,14,11,12,0.4,0.4
2022-04-09T23:00:00,2245A,130.2684,47.3086,鹤岗市,斯达机电,,45,45,48,31,34,103,77,93,83,12,16,6,8,0.4,0.5
2022-04-09T23:00:00,2246A,130.3114,47.3388,鹤岗市,东山纸板厂,,45,45,58,24,28,97,78,89,81,9,17,8,11,0.4,0.6
2022-04-09T23:00:00,2248A,131.1511,46.6937,双鸭山市,双合村,颗粒物(PM10),84,117,81,42,43,101,56,92,77,23,19,16,10,1.4,0.4
2022-04-09T23:00:00,2249A,131.1652,46.6191,双鸭山市,南小市,,48,39,70,33,38,106,76,104,86,10,16,2,3,0.5,0.6
2022-04-09T23:00:00,2250A,131.1524,46.6554,双鸭山市,环保局,颗粒物(PM10),54,58,69,32,40,105,68,97,84,20,20,9,6,0.5,0.5
2022-04-09T23:00:00,2251A,131.12,46.5656,双鸭山市,苗圃(对照点),,43,36,56,30,43,113,58,105,88,10,17,3,3,0.5,0.7
2022-04-09T23:00:00,2252A,128.5159,47.4311,伊春市,环保局,,25,25,35,17,26,99,66,95,82,15,14,5,5,0.4,0.5
2022-04-09T23:00:00,2253A,128.9102,47.7412,伊春市,电力嘉园,,26,22,38,18,20,100,59,95,78,16,11,5,5,0.5,0.6
2022-04-09T23:00:00,2254A,129.5029,48.471,伊春市,汤旺河国家公园(对照点),,11,10,16,6,14,94,34,93,57,7,13,4,6,0.1,0.3
2022-04-09T23:00:00,2255A,130.2751,46.8028,佳木斯市,佳纺,"颗粒物(PM10),细颗粒物(PM2.5)",58,65,54,41,31,111,46,99,66,10,14,2,5,0.5,0.5
2022-04-09T23:00:00,2256A,130.3995,46.8307,佳木斯市,发电厂,细颗粒物(PM2.5),52,44,35,36,26,102,44,94,71,3,4,3,3,0.5,0.4
2022-04-09T23:00:00,2257A,130.3258,46.7975,佳木斯市,环保局,细颗粒物(PM2.5),60,65,45,43,30,109,48,97,65,11,14,4,7,0.5,0.5
2022-04-09T23:00:00,2258A,130.3648,46.8032,佳木斯市,十一中,细颗粒物(PM2.5),64,56,38,46,32,105,55,94,69,11,14,8,8,0.6,0.5
2022-04-09T23:00:00,2259A,130.3794,46.7588,佳木斯市,四丰(对照点),细颗粒物(PM2.5),59,48,48,42,37,104,28,91,62,22,20,4,6,0.6,0.6
2022-04-09T23:00:00,2262A,131.0518,45.8751,七台河市,新一中(对照点),,40,40,45,26,26,115,79,109,94,10,11,7,7,0.7,0.7
2022-04-09T23:00:00,2263A,127.4833,50.2524,黑河市,交通局,,28,23,30,19,23,83,51,78,62,9,12,5,6,0.2,0.3
2022-04-09T23:00:00,2264A,127.5144,50.2341,黑河市,环保局,,26,21,31,18,26,92,59,88,74,6,10,4,5,0.5,0.5
2022-04-09T23:00:00,2265A,127.5291,50.2472,黑河市,大黑河岛(对照点),,15,9,29,8,24,92,48,89,72,14,12,5,5,0.5,0.5
2022-04-09T23:00:00,2266A,126.9785,46.6365,绥化市,人和东街,细颗粒物(PM2.5),72,53,67,52,66,104,81,92,83,16,17,7,9,0.5,0.5
2022-04-09T23:00:00,2267A,126.964,46.6528,绥化市,党政办公中心,,41,41,51,26,31,100,83,91,85,15,16,5,6,0.4,0.4
2022-04-09T23:00:00,2269A,124.1069,50.4097,大兴安岭地区,科技局,,22,22,10,15,11,98,56,93,77,11,5,10,4,0.4,0.3
2022-04-09T23:00:00,2270A,117.396,32.939,蚌埠市,工人疗养院,颗粒物(PM10),61,72,75,32,28,184,131,165,155,12,15,10,10,0.3,0.4
2022-04-09T23:00:00,2271A,117.3605,32.9427,蚌埠市,百货大楼,颗粒物(PM10),74,98,93,21,20,187,134,167,158,15,18,8,11,0.4,0.5
2022-04-09T23:00:00,2273A,117.4185,32.8911,蚌埠市,蚌埠学院,颗粒物(PM10),64,78,78,27,25,181,115,162,144,18,16,17,16,0.4,0.5
2022-04-09T23:00:00,2274A,117.3533,32.9673,蚌埠市,淮上区政府,颗粒物(PM10),63,75,76,22,24,176,120,160,148,20,17,10,13,0.3,0.3
2022-04-09T23:00:00,2275A,117.3145,32.8977,蚌埠市,高新区,颗粒物(PM10),65,80,88,29,30,181,126,164,151,16,23,14,15,0.4,0.5
2022-04-09T23:00:00,2277A,116.8305,32.7727,淮南市,潘集区政府,颗粒物(PM10),68,85,71,42,33,153,110,142,134,14,8,8,5,0.3,0.3
2022-04-09T23:00:00,2278A,117.0067,32.6524,淮南市,师范学院,颗粒物(PM10),62,74,53,39,26,175,115,156,145,12,8,11,8,0.3,0.3
2022-04-09T23:00:00,2279A,116.8569,32.5951,淮南市,谢家集区政府,颗粒物(PM10),68,85,63,27,23,169,103,150,139,36,19,37,10,0.4,0.2
2022-04-09T23:00:00,2280A,116.8281,32.633,淮南市,八公山区政府,颗粒物(PM10),62,74,63,38,25,164,108,145,137,12,9,13,4,0.2,0.2
2022-04-09T23:00:00,2281A,116.6325,32.6201,淮南市,焦岗湖风景区管理处(对照点),颗粒物(PM10),62,74,57,25,26,150,107,141,131,2,2,9,6,0.2,0.2
2022-04-09T23:00:00,2282A,116.8004,33.975,淮北市,监测站,颗粒物(PM10),77,104,88,36,26,140,114,133,125,23,13,10,6,0.5,0.4
2022-04-09T23:00:00,2283A,116.8091,33.9007,淮北市,烈山区政府,颗粒物(PM10),81,112,86,34,31,144,126,136,132,25,18,15,7,0.5,0.5
2022-04-09T23:00:00,2284A,116.7856,33.9477,淮北市,职业技术学院,颗粒物(PM10),77,104,88,42,29,129,111,124,119,23,12,11,7,0.6,0.5
2022-04-09T23:00:00,2285A,117.8177,30.9412,铜陵市,市第四中学,颗粒物(PM10),53,56,62,26,28,164,110,154,139,26,43,38,22,1.4,0.7
2022-04-09T23:00:00,2286A,117.8059,30.9273,铜陵市,市公路局,颗粒物(PM10),58,66,86,30,23,151,102,141,130,28,37,32,23,0.9,0.8
2022-04-09T23:00:00,2287A,117.7807,30.9413,铜陵市,市新民污水厂,颗粒物(PM10),74,98,67,37,31,157,97,146,126,35,52,93,27,0.6,0.7
2022-04-09T23:00:00,2288A,117.7439,30.8792,铜陵市,市第九中学,颗粒物(PM10),65,79,78,34,33,139,45,122,101,56,46,9,10,0.5,0.7
2022-04-09T23:00:00,2289A,117.846,30.9413,铜陵市,车站新区,颗粒物(PM10),58,66,66,14,23,142,99,136,123,19,25,8,10,0.5,0.6
2022-04-09T23:00:00,2290A,117.8483,30.97,铜陵市,市职教基地,颗粒物(PM10),61,72,63,28,25,155,93,144,125,24,26,15,15,0.8,0.8
2022-04-09T23:00:00,2291A,117.0809,30.5177,安庆市,环科院,颗粒物(PM10),57,63,61,16,16,145,25,132,96,75,41,14,8,0.6,0.5
2022-04-09T23:00:00,2292A,117.0331,30.5119,安庆市,马山宾馆,颗粒物(PM10),59,67,58,15,12,148,73,135,102,28,29,8,9,0.5,0.5
2022-04-09T23:00:00,2294A,116.9896,30.6145,安庆市,安庆大学,颗粒物(PM10),59,68,70,26,31,159,90,149,122,37,34,6,8,0.4,0.6
2022-04-09T23:00:00,2295A,118.2903,29.6963,黄山市,延安路89号,颗粒物(PM10),54,58,49,32,26,155,65,145,111,13,10,12,12,0.5,0.5
2022-04-09T23:00:00,2296A,118.327,29.7178,黄山市,黄山东路89号,颗粒物(PM10),53,55,47,33,26,145,40,133,81,20,14,4,5,0.4,0.4
2022-04-09T23:00:00,2297A,118.1371,30.2756,黄山市,黄山区政府5号楼,颗粒物(PM10),75,100,56,48,27,146,38,138,90,15,9,9,9,0.6,0.3
2022-04-09T23:00:00,2298A,118.3093,32.3153,滁州市,老年大学,颗粒物(PM10),76,102,107,44,34,185,80,172,114,52,34,12,17,0.5,0.6
2022-04-09T23:00:00,2299A,118.3244,32.2786,滁州市,人大宾馆,颗粒物(PM10),89,128,94,43,35,179,45,164,104,81,44,7,13,0.7,0.6
2022-04-09T23:00:00,2301A,115.8277,32.8929,阜阳市,市监测站,颗粒物(PM10),61,72,60,29,24,154,117,146,120,14,12,9,9,0.4,0.4
2022-04-09T23:00:00,2303A,115.8554,32.8605,阜阳市,开发区,颗粒物(PM10),65,79,70,22,24,149,120,141,130,15,12,7,6,0.3,0.3
2022-04-09T23:00:00,2307A,116.5079,31.737,六安市,监测大楼,颗粒物(PM10),54,58,48,28,21,170,124,147,141,7,8,8,6,0.3,0.2
2022-04-09T23:00:00,2308A,116.4738,31.7643,六安市,皖西学院,颗粒物(PM10),56,61,54,19,14,170,134,152,146,7,7,9,8,0.2,0.2
2022-04-09T23:00:00,2309A,116.4996,31.7905,六安市,朝阳厂,颗粒物(PM10),57,64,47,14,18,163,125,145,139,10,7,8,8,0.3,0.3
2022-04-09T23:00:00,2310A,116.5567,31.7886,六安市,开发区,颗粒物(PM10),70,89,63,32,24,163,118,152,136,12,18,8,10,0.4,0.3
2022-04-09T23:00:00,2311A,115.8072,33.8399,亳州市,污水处理厂,颗粒物(PM10),61,72,78,27,24,158,108,147,130,13,12,8,8,0.4,0.4
2022-04-09T23:00:00,2312A,115.7789,33.8518,亳州市,三国揽胜宫,颗粒物(PM10),60,70,74,28,29,160,119,151,137,13,11,8,9,0.4,0.4
2022-04-09T23:00:00,2314A,117.47,30.6618,池州市,池州学院,颗粒物(PM10),64,78,61,36,27,155,73,145,123,38,22,7,7,0.6,0.6
2022-04-09T23:00:00,2316A,118.7581,30.9454,宣城市,鳌峰子站,颗粒物(PM10),69,87,60,38,26,128,59,123,101,48,20,9,9,0.5,0.4
2022-04-09T23:00:00,2317A,118.7385,30.9743,宣城市,敬亭山子站,颗粒物(PM10),57,63,56,32,26,132,113,125,120,11,15,5,7,0.4,0.4
2022-04-09T23:00:00,2318A,118.7173,30.9427,宣城市,开发区子站,颗粒物(PM10),69,87,60,42,26,132,37,124,104,98,28,7,7,0.6,0.6
2022-04-09T23:00:00,2319A,119.0141,25.4325,莆田市,荔城区仓后路,,38,38,46,23,16,123,77,112,92,10,7,3,4,0.6,0.5
2022-04-09T23:00:00,2320A,119.0015,25.4553,莆田市,莆田市监测站,,43,40,38,30,20,124,71,113,91,5,4,4,4,0.5,0.4
2022-04-09T23:00:00,2321A,119.1119,25.4561,莆田市,涵江区六中,,44,44,42,28,23,124,80,113,97,8,5,6,6,0.5,0.4
2022-04-09T23:00:00,2322A,119.1013,25.3215,莆田市,秀屿区政府,颗粒物(PM10),52,53,48,34,24,117,74,107,92,16,14,6,7,0.6,0.6
2022-04-09T23:00:00,2323A,118.981,25.4792,莆田市,东圳水库(对照点),,29,25,32,20,14,127,60,114,90,6,5,3,5,0.4,0.3
2022-04-09T23:00:00,2324A,117.6211,26.2625,三明市,三钢,,44,44,46,28,26,137,46,130,88,38,25,4,4,0.6,0.6
2022-04-09T23:00:00,2325A,117.635,26.2714,三明市,三明二中,,42,42,44,26,24,141,41,130,76,37,25,7,8,0.6,0.6
2022-04-09T23:00:00,2326A,117.6028,26.2378,三明市,三元区政府,颗粒物(PM10),65,80,60,46,31,142,15,129,73,66,32,6,6,1.7,0.9
2022-04-09T23:00:00,2327A,117.7275,26.3108,三明市,洋溪(对照点),,45,45,47,28,23,148,70,139,105,16,11,6,6,0.6,0.5
2022-04-09T23:00:00,2331A,118.0966,26.6761,南平市,茫荡山(对照点),,37,37,34,25,17,126,102,123,109,5,3,5,5,0.5,0.5
2022-04-09T23:00:00,2332A,118.1681,26.6369,南平市,南平市监测站,颗粒物(PM10),51,52,44,26,22,150,28,136,85,42,16,9,7,1.0,0.6
2022-04-09T23:00:00,2333A,118.1825,26.6489,南平市,南平铝业有限公司,,43,43,43,24,23,147,39,137,88,32,15,14,8,0.7,0.6
2022-04-09T23:00:00,2334A,118.1756,26.6272,南平市,南平七中,,46,46,42,30,22,146,48,135,88,25,12,5,4,0.7,0.5
2022-04-09T23:00:00,2335A,117.0189,25.1181,龙岩市,龙岩师专(对照点),颗粒物(PM10),58,66,50,39,28,158,78,148,124,35,18,14,11,0.5,0.3
2022-04-09T23:00:00,2336A,117.0217,25.1033,龙岩市,龙岩市监测站,颗粒物(PM10),54,57,54,37,25,158,62,148,131,42,23,14,12,0.5,0.3
2022-04-09T23:00:00,2337A,117.0258,25.0661,龙岩市,闽西职业技术学院,颗粒物(PM10),60,69,62,30,23,158,101,146,128,28,36,20,13,0.4,0.4
2022-04-09T23:00:00,2338A,117.0196,25.0306,龙岩市,龙岩学院,,45,45,46,24,21,154,98,144,130,21,19,8,7,0.3,0.3
2022-04-09T23:00:00,2339A,119.5001,26.6946,宁德市,金涵水库(对照点),,32,29,44,22,17,114,39,106,82,13,12,6,7,0.5,0.4
2022-04-09T23:00:00,2341A,119.5388,26.6612,宁德市,宁德市监测站,,42,42,44,26,18,116,68,105,96,10,12,7,8,0.6,0.5
2022-04-09T23:00:00,2342A,117.3102,29.3867,景德镇市,王港中学(对照点),颗粒物(PM10),68,86,54,40,24,168,63,155,97,2,6,5,4,0.6,0.7
2022-04-09T23:00:00,2343A,117.2117,29.2933,景德镇市,老干部活动中心,颗粒物(PM10),75,100,74,46,32,157,16,144,100,62,26,8,8,0.7,0.6
2022-04-09T23:00:00,2344A,117.1894,29.2789,景德镇市,兽医站,细颗粒物(PM2.5),57,60,60,40,28,162,25,149,105,60,29,8,10,0.6,0.4
2022-04-09T23:00:00,2345A,117.1547,29.2617,景德镇市,台达陶瓷,颗粒物(PM10),90,130,84,57,31,146,21,134,83,73,40,11,20,0.5,0.4
2022-04-09T23:00:00,2346A,117.2461,29.2956,景德镇市,陶研所,颗粒物(PM10),63,75,64,35,24,144,22,136,88,53,23,8,8,0.4,0.4
2022-04-09T23:00:00,2347A,114.0997,27.5002,萍乡市,武功山(对照点),,30,30,27,19,15,153,76,140,112,16,6,9,10,0.7,0.6
2022-04-09T23:00:00,2348A,113.8385,27.6434,萍乡市,中医院,细颗粒物(PM2.5),74,95,63,54,32,148,17,139,95,68,38,9,14,1.0,1
2022-04-09T23:00:00,2349A,113.8493,27.6253,萍乡市,市政府车库,颗粒物(PM10),66,82,76,34,30,150,43,143,96,54,38,9,15,1.0,1.6
2022-04-09T23:00:00,2350A,113.8676,27.6435,萍乡市,市环保局,细颗粒物(PM2.5),69,77,59,50,38,152,43,146,122,45,35,15,22,0.9,0.9
2022-04-09T23:00:00,2351A,113.866,27.6198,萍乡市,安源区政府,细颗粒物(PM2.5),62,69,65,44,32,151,42,149,100,41,31,20,25,0.9,1.7
2022-04-09T23:00:00,2352A,115.0861,27.9317,新余市,北岗(对照点),颗粒物(PM10),63,76,46,30,27,148,54,140,104,19,17,4,8,0.2,0.2
2022-04-09T23:00:00,2353A,114.9886,27.8431,新余市,飞宇,颗粒物(PM10),58,66,67,36,32,135,27,127,93,76,37,12,26,0.5,0.5
