timepoint,stationcode,longitude,latitude,area,positionname,primarypollutant,aqi,pm10,pm10_24h,pm2_5,pm2_5_24h,o3,o3_24h,o3_8h,o3_8h_24h,no2,no2_24h,so2,so2_24h,co,co_24h
2022-04-09T22:00:00,1001A,116.3621,39.8784,北京市,万寿西宫,颗粒物(PM10),100,150,166,74,97,162,108,147,133,32,38,5,3,0.7,0.9
2022-04-09T22:00:00,1002A,116.2202,40.2915,北京市,定陵(对照点),颗粒物(PM10),76,102,145,39,78,189,101,179,152,21,20,1,2,0.7,0.8
2022-04-09T22:00:00,1003A,116.4174,39.9289,北京市,东四,颗粒物(PM10),99,147,165,67,93,159,124,153,145,32,40,4,4,0.7,0.7
2022-04-09T22:00:00,1004A,116.4072,39.8863,北京市,天坛,颗粒物(PM10),99,148,155,73,86,157,110,146,136,26,30,4,3,0.8,1
2022-04-09T22:00:00,1005A,116.462,39.9365,北京市,农展馆,颗粒物(PM10),107,164,168,78,97,160,108,147,139,30,41,3,3,0.8,0.9
2022-04-09T22:00:00,1006A,116.3392,39.9295,北京市,官园,颗粒物(PM10),95,140,163,69,95,150,102,141,132,25,34,7,6,0.7,0.9
2022-04-09T22:00:00,1007A,116.2878,39.9611,北京市,海淀万柳,颗粒物(PM10),92,133,168,60,90,158,104,146,134,28,39,4,4,0.7,0.9
2022-04-09T22:00:00,1008A,116.6636,40.135,北京市,顺义新城,颗粒物(PM10),72,93,168,51,101,168,101,154,139,20,26,3,4,0.6,0.9
2022-04-09T22:00:00,1009A,116.6275,40.3275,北京市,怀柔镇,颗粒物(PM10),77,103,139,54,94,182,112,173,149,22,20,4,4,0.7,0.9
2022-04-09T22:00:00,1010A,116.2296,40.217,北京市,昌平镇,颗粒物(PM10),86,121,266,43,87,185,97,175,148,32,25,3,4,0.8,0.9
2022-04-09T22:00:00,1011A,116.3966,39.9821,北京市,奥体中心,颗粒物(PM10),99,148,164,69,97,285,112,161,135,28,39,8,7,0.7,0.9
2022-04-09T22:00:00,1012A,116.184,39.9136,北京市,古城,颗粒物(PM10),95,139,177,61,94,169,92,137,121,39,41,3,3,0.7,0.9
2022-04-09T22:00:00,1015A,117.1444,39.1661,天津市,勤俭道,细颗粒物(PM2.5),107,150,135,80,78,157,95,148,137,43,30,23,14,1.6,1
2022-04-09T22:00:00,1017A,117.237,39.1082,天津市,大直沽八号路,颗粒物(PM10),101,152,138,74,62,154,98,146,131,41,33,41,15,1.5,1
2022-04-09T22:00:00,1018A,117.202,39.0927,天津市,前进道,颗粒物(PM10),103,155,118,72,58,157,71,146,128,52,33,22,11,1.6,1.1
2022-04-09T22:00:00,1019A,117.1837,39.2133,天津市,淮河道,细颗粒物(PM2.5),122,154,142,92,86,148,87,140,129,42,32,11,14,1.2,1.2
2022-04-09T22:00:00,1023A,117.707,39.0343,天津市,第四大街,细颗粒物(PM2.5),88,114,130,65,79,137,16,127,97,102,47,8,10,0.5,0.9
2022-04-09T22:00:00,1024A,117.457,38.8394,天津市,永明路,细颗粒物(PM2.5),87,103,120,64,76,162,85,143,120,28,32,9,12,0.5,0.9
2022-04-09T22:00:00,1026A,117.764,39.1587,天津市,汉北路,细颗粒物(PM2.5),83,104,108,61,71,151,88,142,134,30,28,11,9,1.0,1
2022-04-09T22:00:00,1027A,117.157,38.9194,天津市,团泊洼(对照点),,,,69,52,77,156,87,134,114,32,42,13,14,1.3,1.2
2022-04-09T22:00:00,1029A,114.4422,38.0444,石家庄市,职工医院,颗粒物(PM10),131,212,180,97,82,209,78,190,168,58,52,8,11,0.9,1
2022-04-09T22:00:00,1030A,114.6063,38.0266,石家庄市,高新区,细颗粒物(PM2.5),123,181,168,93,85,200,124,179,168,24,38,12,14,1.2,1.2
2022-04-09T22:00:00,1031A,114.4898,38.1328,石家庄市,西北水源,细颗粒物(PM2.5),147,182,199,112,97,189,120,173,157,20,41,13,13,0.9,1.2
2022-04-09T22:00:00,1032A,114.4586,38.0058,石家庄市,西南高教,细颗粒物(PM2.5),130,182,160,99,83,201,137,180,164,17,28,6,8,1.1,1.2
2022-04-09T22:00:00,1033A,114.5331,38.0178,石家庄市,世纪公园,细颗粒物(PM2.5),113,152,138,85,89,199,132,193,176,19,30,10,11,0.9,1
2022-04-09T22:00:00,1034A,114.509,38.0457,石家庄市,人民会堂,细颗粒物(PM2.5),156,181,186,119,101,220,150,203,193,27,47,12,14,1.0,1.1
2022-04-09T22:00:00,1035A,114.3524,37.8911,石家庄市,封龙山(对照点),颗粒物(PM10),138,225,141,103,57,235,180,223,218,19,16,11,21,0.9,0.7
2022-04-09T22:00:00,1037A,118.131,39.6363,唐山市,雷达站,细颗粒物(PM2.5),107,121,166,80,118,144,144,135,135,18,27,5,8,0.7,1.1
2022-04-09T22:00:00,1038A,118.1725,39.6334,唐山市,物资局,细颗粒物(PM2.5),107,128,181,80,105,139,123,132,131,30,37,9,11,0.6,1.2
2022-04-09T22:00:00,1040A,118.1705,39.6506,唐山市,十二中,细颗粒物(PM2.5),115,124,174,87,117,137,109,129,127,24,32,7,11,0.5,1.1
2022-04-09T22:00:00,1041A,118.1869,39.622,唐山市,小山,颗粒物(PM10),89,128,182,64,95,146,126,137,136,30,34,7,10,0.6,1.2
2022-04-09T22:00:00,1042A,119.5134,39.8207,秦皇岛市,北戴河环保局,细颗粒物(PM2.5),80,93,104,59,69,146,100,132,108,29,21,8,9,0.8,0.9
2022-04-09T22:00:00,1043A,119.7493,40.0116,秦皇岛市,第一关,细颗粒物(PM2.5),100,122,115,75,80,151,58,119,92,74,31,14,14,0.7,0.6
2022-04-09T22:00:00,1044A,119.5897,39.9499,秦皇岛市,监测站,细颗粒物(PM2.5),128,156,116,97,74,152,26,135,108,112,44,8,8,1.1,1
2022-04-09T22:00:00,1046A,119.5251,39.9041,秦皇岛市,建设大厦,细颗粒物(PM2.5),108,143,115,81,72,150,41,145,117,93,32,6,8,1.0,0.9
2022-04-09T22:00:00,1048A,114.5302,36.6116,邯郸市,东污水处理厂,,,98,119,47,62,152,91,139,128,18,23,,31,0.6,0.4
2022-04-09T22:00:00,1049A,114.4918,36.5713,邯郸市,矿院,颗粒物(PM10),76,102,125,41,58,160,109,143,136,1,20,13,10,0.4,0.7
2022-04-09T22:00:00,1050A,114.484,36.6133,邯郸市,丛台公园,颗粒物(PM10),74,98,114,47,62,165,116,150,143,10,22,12,13,0.5,1.1
2022-04-09T22:00:00,1051A,115.493,38.8632,保定市,游泳馆,细颗粒物(PM2.5),120,171,167,91,104,200,124,180,172,31,37,24,19,1.0,0.8
2022-04-09T22:00:00,1053A,115.4713,38.9108,保定市,接待中心,细颗粒物(PM2.5),115,178,206,87,123,208,110,183,171,56,59,16,14,1.5,1.4
2022-04-09T22:00:00,1054A,115.4612,38.8416,保定市,地表水厂,颗粒物(PM10),122,194,199,79,99,200,130,191,183,30,41,12,10,1.2,1
2022-04-09T22:00:00,1055A,115.4323,38.8697,保定市,胶片厂,颗粒物(PM10),111,172,173,79,112,198,136,180,175,23,39,15,15,1.7,1.2
2022-04-09T22:00:00,1056A,115.5086,38.8639,保定市,监测站,细颗粒物(PM2.5),160,163,176,122,131,208,116,181,172,36,41,12,10,1.2,1.1
2022-04-09T22:00:00,1057A,114.8883,40.8336,张家口市,人民公园,颗粒物(PM10),102,153,82,75,27,168,153,157,157,18,12,7,5,0.8,0.4
2022-04-09T22:00:00,1059A,114.8687,40.8042,张家口市,五金库,细颗粒物(PM2.5),98,144,95,73,37,173,170,165,165,18,20,9,8,0.9,0.6
2022-04-09T22:00:00,1060A,114.8902,40.762,张家口市,世纪豪园,细颗粒物(PM2.5),129,156,104,98,45,176,163,166,166,24,23,8,7,1.1,0.7
2022-04-09T22:00:00,1061A,114.8916,40.8661,张家口市,北泵房(对照点),细颗粒物(PM2.5),89,118,73,66,29,168,96,144,138,19,10,9,8,0.8,0.5
2022-04-09T22:00:00,1062A,117.9531,40.9081,承德市,铁路,颗粒物(PM10),78,105,105,46,48,134,110,124,120,34,42,9,8,0.7,0.7
2022-04-09T22:00:00,1063A,117.9392,40.9763,承德市,中国银行,颗粒物(PM10),84,117,108,47,54,137,124,129,128,23,29,7,6,0.7,0.6
2022-04-09T22:00:00,1064A,117.9503,40.928,承德市,开发区,颗粒物(PM10),75,99,98,50,55,143,124,135,133,27,34,11,10,0.7,0.7
2022-04-09T22:00:00,1065A,117.8051,40.9655,承德市,文化中心,细颗粒物(PM2.5),127,139,102,96,65,152,97,143,137,29,29,11,5,1.2,0.7
2022-04-09T22:00:00,1066A,117.9268,41.0026,承德市,离宫(对照点),颗粒物(PM10),78,105,90,51,50,141,108,127,121,22,26,5,4,0.8,0.6
2022-04-09T22:00:00,1067A,116.6708,39.5111,廊坊市,药材公司,细颗粒物(PM2.5),110,141,172,83,96,161,122,145,143,40,38,10,7,1.2,0.9
2022-04-09T22:00:00,1068A,116.7214,39.5589,廊坊市,开发区,细颗粒物(PM2.5),127,142,166,96,101,163,116,147,143,35,35,8,7,0.9,0.8
2022-04-09T22:00:00,1070A,116.7244,39.5269,廊坊市,北华航天学院,细颗粒物(PM2.5),124,155,183,94,112,158,113,139,135,36,35,11,10,1.1,0.9
2022-04-09T22:00:00,1071A,116.8842,38.2991,沧州市,沧县城建局,细颗粒物(PM2.5),119,122,89,90,68,150,62,134,114,42,26,7,6,0.8,0.8
2022-04-09T22:00:00,1072A,116.8584,38.3254,沧州市,电视转播站,细颗粒物(PM2.5),103,124,87,77,56,140,60,127,105,40,25,2,9,0.6,0.6
2022-04-09T22:00:00,1073A,116.8709,38.3228,沧州市,市环保局,细颗粒物(PM2.5),120,114,92,91,69,167,72,144,124,35,22,10,12,0.8,0.8
2022-04-09T22:00:00,1074A,115.6838,37.7541,衡水市,电机北厂,颗粒物(PM10),90,129,129,57,64,224,128,195,175,27,20,13,12,0.5,0.6
2022-04-09T22:00:00,1075A,115.6303,37.7316,衡水市,市监测站,颗粒物(PM10),97,143,137,48,58,225,130,189,175,15,15,26,25,0.5,0.7
2022-04-09T22:00:00,1077A,114.4704,37.0886,邢台市,达活泉,颗粒物(PM10),119,188,178,,74,203,108,178,172,32,25,10,20,1.2,1.5
2022-04-09T22:00:00,1078A,114.5062,37.0349,邢台市,邢师高专,颗粒物(PM10),100,150,151,46,65,186,107,162,154,26,29,9,9,0.7,1.3
2022-04-09T22:00:00,1079A,114.5237,37.0851,邢台市,路桥公司,颗粒物(PM10),98,146,156,58,76,207,113,181,174,24,24,10,12,1.0,1.5
2022-04-09T22:00:00,1080A,114.4725,37.0719,邢台市,市环保局,颗粒物(PM10),92,133,161,51,79,193,107,172,166,27,29,8,10,0.7,1.5
2022-04-09T22:00:00,1081A,112.5139,37.8873,太原市,尖草坪,颗粒物(PM10),91,131,118,52,51,161,33,142,110,63,49,5,13,0.6,0.6
2022-04-09T22:00:00,1083A,112.434,38.0108,太原市,上兰(对照点),颗粒物(PM10),72,93,87,42,37,162,107,140,130,6,14,5,14,0.2,0.4
2022-04-09T22:00:00,1084A,112.469,37.7124,太原市,晋源,颗粒物(PM10),72,93,107,44,50,170,53,147,118,53,42,6,18,0.4,0.7
2022-04-09T22:00:00,1085A,112.5583,37.7394,太原市,小店,"颗粒物(PM10),细颗粒物(PM2.5)",80,110,123,59,62,162,79,144,120,27,38,15,27,0.4,0.8
2022-04-09T22:00:00,1086A,112.5369,37.8692,太原市,桃园,细颗粒物(PM2.5),93,134,115,69,45,157,32,143,112,65,51,2,11,0.7,0.6
2022-04-09T22:00:00,1087A,112.57,37.8195,太原市,坞城,颗粒物(PM10),82,113,117,46,50,160,24,147,115,69,41,5,22,0.6,0.8
2022-04-09T22:00:00,1088A,112.549,37.9854,太原市,南寨,颗粒物(PM10),101,152,142,43,44,158,4,137,106,81,48,7,15,0.7,0.8
2022-04-09T22:00:00,1090A,111.6507,40.7517,呼和浩特市,呼市一监,颗粒物(PM10),159,268,131,120,59,144,46,141,116,77,28,19,12,1.3,0.6
2022-04-09T22:00:00,1091A,111.6572,40.8033,呼和浩特市,小召,颗粒物(PM10),108,166,89,63,37,127,28,114,92,86,31,13,11,1.1,0.5
2022-04-09T22:00:00,1094A,111.7516,40.8369,呼和浩特市,如意水处理厂,颗粒物(PM10),91,131,78,54,36,138,10,127,99,95,29,15,13,0.7,0.5
2022-04-09T22:00:00,1095A,111.7276,40.8062,呼和浩特市,二十九中,颗粒物(PM10),106,161,91,61,42,139,31,127,106,79,28,16,14,1.0,0.6
2022-04-09T22:00:00,1096A,111.5512,40.7866,呼和浩特市,工大金川校区,颗粒物(PM10),102,153,94,39,37,121,42,112,94,47,20,12,12,0.6,0.5
2022-04-09T22:00:00,1097A,111.717,40.7612,呼和浩特市,化肥厂生活区,细颗粒物(PM2.5),149,198,131,114,68,122,45,116,95,63,28,22,17,1.2,0.6
2022-04-09T22:00:00,1098A,123.6836,41.9339,沈阳市,森林路(对照点),颗粒物(PM10),67,84,96,46,58,183,107,166,138,34,25,24,16,1.4,1.2
2022-04-09T22:00:00,1099A,123.505,41.7406,沈阳市,浑南东路,颗粒物(PM10),69,88,89,40,55,174,55,151,121,58,21,26,22,1.3,1.1
2022-04-09T22:00:00,1100A,123.4231,41.6989,沈阳市,新秀街,细颗粒物(PM2.5),77,93,103,56,62,170,117,151,133,28,22,18,24,1.0,1.2
2022-04-09T22:00:00,1102A,123.5903,41.8411,沈阳市,东陵路,颗粒物(PM10),73,96,86,50,62,164,95,148,124,21,18,20,20,1.2,1.2
2022-04-09T22:00:00,1103A,123.4264,41.8467,沈阳市,陵东街,颗粒物(PM10),67,83,100,45,56,170,103,155,137,26,20,12,14,1.0,1.1
2022-04-09T22:00:00,1104A,123.4114,41.7653,沈阳市,文化路,细颗粒物(PM2.5),68,71,100,49,67,181,128,162,145,14,15,11,16,1.1,1.3
2022-04-09T22:00:00,1105A,123.4678,41.7867,沈阳市,小河沿,颗粒物(PM10),68,86,99,46,59,164,89,146,125,29,19,15,16,1.1,1.1
2022-04-09T22:00:00,1106A,123.4017,41.7972,沈阳市,太原街,颗粒物(PM10),73,95,114,45,66,179,125,162,145,16,15,12,16,0.8,0.9
2022-04-09T22:00:00,1108A,123.3783,41.9228,沈阳市,京沈街,细颗粒物(PM2.5),64,65,113,46,67,178,118,163,147,18,16,17,16,1.2,1.1
2022-04-09T22:00:00,1109A,121.612,38.9741,大连市,甘井子,颗粒物(PM10),76,102,84,51,49,109,77,97,83,42,32,6,6,0.7,0.6
2022-04-09T22:00:00,1110A,121.565,38.9511,大连市,周水子,颗粒物(PM10),69,87,82,41,42,141,87,115,101,33,20,10,5,0.7,0.6
2022-04-09T22:00:00,1111A,121.5637,38.8845,大连市,星海三站,"颗粒物(PM10),细颗粒物(PM2.5)",58,66,65,41,46,119,119,106,106,30,30,5,5,0.6,0.5
2022-04-09T22:00:00,1112A,121.6302,38.9117,大连市,青泥洼桥,颗粒物(PM10),69,87,77,42,42,135,122,119,118,26,18,9,8,0.8,0.7
2022-04-09T22:00:00,1113A,121.6251,38.8638,大连市,傅家庄,颗粒物(PM10),57,64,67,26,35,150,130,123,123,25,22,5,6,0.2,0.2
2022-04-09T22:00:00,1114A,121.5213,38.8661,大连市,七贤岭,颗粒物(PM10),67,83,72,35,34,121,106,111,104,40,27,12,13,0.9,0.7
2022-04-09T22:00:00,1115A,121.2529,38.8061,大连市,旅顺,细颗粒物(PM2.5),52,51,53,36,43,158,158,123,123,18,17,11,10,0.5,0.5
2022-04-09T22:00:00,1116A,121.7485,39.1311,大连市,金州,颗粒物(PM10),52,53,64,34,43,125,96,117,107,19,16,3,5,0.7,0.8
2022-04-09T22:00:00,1117A,121.7811,39.0496,大连市,开发区,颗粒物(PM10),58,66,67,36,41,113,101,107,85,21,28,6,7,0.5,0.4
2022-04-09T22:00:00,1118A,121.9762,39.0631,大连市,双D港,颗粒物(PM10),53,55,53,26,32,100,91,96,87,26,24,5,4,0.2,0.3
2022-04-09T22:00:00,1119A,125.3325,43.9166,长春市,食品厂,颗粒物(PM10),67,84,87,40,59,125,74,110,90,26,14,8,9,0.7,0.7
2022-04-09T22:00:00,1120A,125.2863,43.9027,长春市,客车厂,颗粒物(PM10),59,68,84,35,58,132,59,115,88,38,18,7,10,1.0,1
2022-04-09T22:00:00,1121A,125.2841,43.8463,长春市,邮电学院,颗粒物(PM10),53,55,99,28,60,122,76,116,102,24,12,2,6,0.7,0.8
2022-04-09T22:00:00,1122A,125.3716,43.8772,长春市,劳动公园,,,141,85,28,57,130,99,122,101,,12,4,7,0.6,0.7
2022-04-09T22:00:00,1123A,125.3297,43.8805,长春市,园林处,,,108,79,,,126,101,115,98,20,16,6,9,0.4,0.6
2022-04-09T22:00:00,1124A,125.4605,43.79,长春市,净月潭,,,38,70,,,124,105,123,113,8,10,6,8,0.5,0.7
2022-04-09T22:00:00,1125A,125.7194,43.515,长春市,甩湾子(对照点),细颗粒物(PM2.5),83,59,119,61,49,126,45,118,97,16,8,9,10,0.9,0.6
2022-04-09T22:00:00,1126A,125.3863,43.8447,长春市,经开区环卫处,,,48,80,23,57,117,97,114,93,,,8,12,0.7,0.9
2022-04-09T22:00:00,1127A,125.245,43.7783,长春市,高新区管委会,,49,49,77,28,58,125,85,120,95,17,12,5,7,0.5,0.7
2022-04-09T22:00:00,1128A,125.1761,43.8325,长春市,岱山公园,,40,40,74,21,53,117,90,106,99,15,12,6,7,0.5,0.7
2022-04-09T22:00:00,1129A,126.5422,45.755,哈尔滨市,岭北(对照点),颗粒物(PM10),61,71,84,28,32,126,82,120,106,32,18,32,12,0.5,0.4
2022-04-09T22:00:00,1130A,126.561,45.8167,哈尔滨市,松北商大,细颗粒物(PM2.5),74,75,65,54,38,122,65,120,74,48,22,9,6,0.8,0.7
2022-04-09T22:00:00,1131A,126.979,45.5419,哈尔滨市,阿城会宁,颗粒物(PM10),75,99,136,44,51,126,60,118,94,31,28,16,19,0.7,0.9
2022-04-09T22:00:00,1132A,126.599,45.7222,哈尔滨市,南岗学府路,颗粒物(PM10),53,55,77,30,35,116,84,111,97,23,27,18,16,0.6,0.7
2022-04-09T22:00:00,1133A,126.689,45.7733,哈尔滨市,太平宏伟公园,,,97,102,46,47,125,,117,98,39,36,18,14,0.8,0.7
2022-04-09T22:00:00,1134A,126.635,45.7667,哈尔滨市,道外承德广场,细颗粒物(PM2.5),62,69,95,44,52,121,80,112,95,31,34,23,21,0.6,0.6
2022-04-09T22:00:00,1135A,126.685,45.7319,哈尔滨市,香坊红旗大街,颗粒物(PM10),89,127,109,46,41,117,46,112,86,67,33,24,23,0.7,0.7
2022-04-09T22:00:00,1136A,126.6411,45.7258,哈尔滨市,动力和平路,颗粒物(PM10),67,84,85,35,40,116,53,111,90,51,28,46,14,0.7,0.8
2022-04-09T22:00:00,1137A,126.593,45.7478,哈尔滨市,道里建国路,颗粒物(PM10),64,78,88,36,44,114,63,108,91,54,35,27,20,2.4,0.9
2022-04-09T22:00:00,1138A,126.615,45.61,哈尔滨市,平房东轻厂,细颗粒物(PM2.5),59,66,107,42,54,117,84,109,99,24,37,30,29,0.1,0.1
2022-04-09T22:00:00,1139A,126.595,45.9855,哈尔滨市,呼兰师专,细颗粒物(PM2.5),67,53,64,48,50,125,98,116,103,18,19,11,12,0.7,0.7
2022-04-09T22:00:00,1140A,126.6206,45.6842,哈尔滨市,省农科院,颗粒物(PM10),65,80,98,34,41,119,70,113,92,37,32,18,18,0.9,0.9
2022-04-09T22:00:00,1141A,121.4,31.238,上海市,普陀,颗粒物(PM10),51,51,50,21,18,201,119,189,169,17,21,4,14,1.1,1.1
2022-04-09T22:00:00,1142A,121.478,31.2036,上海市,十五厂,,38,38,45,26,24,186,105,172,152,15,17,6,8,0.7,0.7
2022-04-09T22:00:00,1143A,121.467,31.3008,上海市,虹口,,48,48,49,22,21,180,106,169,151,21,21,4,6,0.6,0.6
2022-04-09T22:00:00,1144A,121.412,31.1654,上海市,徐汇上师大,,49,49,52,33,27,189,106,173,152,16,22,10,18,1.1,1
2022-04-09T22:00:00,1145A,121.536,31.2659,上海市,杨浦四漂,,48,48,49,31,21,191,110,176,157,10,14,8,9,0.7,0.7
2022-04-09T22:00:00,1147A,121.425,31.2261,上海市,静安监测站,颗粒物(PM10),53,55,53,28,24,184,106,174,155,20,23,5,18,0.1,0.1
2022-04-09T22:00:00,1148A,121.703,31.1907,上海市,浦东川沙,,47,47,44,25,22,192,110,170,151,18,19,4,5,0.7,0.7
2022-04-09T22:00:00,1149A,121.533,31.2284,上海市,浦东新区监测站,颗粒物(PM10),51,52,49,26,21,188,109,171,154,17,18,5,6,0.6,0.6
2022-04-09T22:00:00,1150A,121.577,31.2071,上海市,浦东张江,,50,50,47,27,22,176,101,160,144,16,20,4,5,0.7,0.7
2022-04-09T22:00:00,1151A,118.8086,32.1065,南京市,迈皋桥,颗粒物(PM10),57,64,73,17,25,174,134,165,148,26,25,2,6,0.4,0.5
2022-04-09T22:00:00,1152A,118.7538,32.0551,南京市,草场门,颗粒物(PM10),60,70,83,29,30,177,130,168,154,51,46,9,13,0.1,0.3
2022-04-09T22:00:00,1153A,118.7794,32.0745,南京市,山西路,颗粒物(PM10),67,83,91,22,32,175,160,169,162,14,19,5,6,0.3,0.4
2022-04-09T22:00:00,1154A,118.7752,32.0023,南京市,中华门,颗粒物(PM10),62,73,90,17,29,185,144,174,161,20,30,4,4,0.3,0.3
2022-04-09T22:00:00,1155A,118.8109,32.0309,南京市,瑞金路,颗粒物(PM10),54,58,73,34,35,186,131,169,151,30,28,3,6,0.4,0.4
2022-04-09T22:00:00,1156A,118.7997,32.0754,南京市,玄武湖,颗粒物(PM10),54,58,72,24,30,184,159,171,163,11,20,5,4,0.4,0.5
2022-04-09T22:00:00,1157A,118.6414,32.0931,南京市,浦口,颗粒物(PM10),64,78,86,24,23,183,120,170,151,32,29,5,11,0.5,0.7
2022-04-09T22:00:00,1158A,118.7356,31.9996,南京市,奥体中心,颗粒物(PM10),60,70,81,27,29,184,131,172,156,33,32,6,9,0.4,0.6
2022-04-09T22:00:00,1159A,118.9125,32.1028,南京市,仙林大学城,臭氧1小时,58,61,77,27,31,190,166,182,173,16,22,6,8,0.6,0.6
2022-04-09T22:00:00,1160A,120.561,31.2472,苏州市,上方山(对照点),颗粒物(PM10),57,63,55,28,30,184,96,176,154,16,26,5,7,0.6,0.5
2022-04-09T22:00:00,1162A,120.591,31.3019,苏州市,彩香,,50,50,52,32,28,188,108,182,165,16,24,7,9,0.6,0.6
2022-04-09T22:00:00,1163A,120.596,31.3264,苏州市,轧钢厂,,,,59,28,26,190,112,181,166,14,23,7,9,0.6,0.5
2022-04-09T22:00:00,1164A,120.613,31.2703,苏州市,吴中区,颗粒物(PM10),53,56,58,32,25,184,102,180,158,19,28,5,8,0.4,0.4
2022-04-09T22:00:00,1165A,120.543,31.2994,苏州市,苏州新区,颗粒物(PM10),55,59,60,32,27,191,112,184,167,13,22,9,10,0.7,0.6
2022-04-09T22:00:00,1166A,120.669,31.3097,苏州市,苏州工业园区,颗粒物(PM10),51,51,52,23,28,182,104,174,157,19,25,8,10,0.5,0.5
2022-04-09T22:00:00,1167A,120.641,31.3708,苏州市,相城区,颗粒物(PM10),55,59,68,29,27,179,91,168,148,28,30,5,7,0.6,0.5
2022-04-09T22:00:00,1168A,120.9098,31.9663,南通市,狼山街道,颗粒物(PM10),60,70,61,27,24,203,121,191,174,36,46,10,10,0.2,0.2
2022-04-09T22:00:00,1169A,120.86,32.0005,南通市,虹桥,颗粒物(PM10),55,60,62,31,24,180,115,169,159,36,31,11,12,0.5,0.5
2022-04-09T22:00:00,1170A,120.87,32.02,南通市,城中,颗粒物(PM10),52,54,61,25,19,186,122,176,163,27,30,6,8,0.6,0.7
2022-04-09T22:00:00,1171A,120.94,31.93,南通市,星湖花园,颗粒物(PM10),57,63,57,31,23,198,96,183,159,45,35,8,8,0.3,0.3
2022-04-09T22:00:00,1172A,120.81,32.0417,南通市,紫琅学院,颗粒物(PM10),58,65,63,27,23,198,121,184,171,34,31,11,10,0.5,0.4
2022-04-09T22:00:00,1173A,119.176,34.5885,连云港市,市环境监测站,颗粒物(PM10),62,73,87,27,34,164,131,157,150,14,13,8,9,0.5,0.6
2022-04-09T22:00:00,1177A,117.179,34.2761,徐州市,黄河新村,颗粒物(PM10),68,85,81,35,34,164,133,160,151,10,10,12,11,0.6,0.6
2022-04-09T22:00:00,1178A,117.1918,34.2384,徐州市,淮塔,颗粒物(PM10),64,77,78,29,30,159,124,156,146,16,16,14,14,0.6,0.6
2022-04-09T22:00:00,1180A,117.256,34.2153,徐州市,新城区,颗粒物(PM10),68,85,84,38,27,154,121,148,140,16,15,8,9,0.7,0.8
2022-04-09T22:00:00,1181A,117.244,34.2911,徐州市,桃园路,颗粒物(PM10),63,75,80,33,25,158,122,154,143,12,12,13,15,0.5,0.5
2022-04-09T22:00:00,1182A,117.2933,34.2778,徐州市,农科院,颗粒物(PM10),67,83,71,22,17,154,121,148,140,9,7,12,12,0.7,0.7
2022-04-09T22:00:00,1186A,119.389,32.3761,扬州市,邗江监测站,颗粒物(PM10),65,80,90,35,33,172,108,157,137,42,28,12,12,0.4,0.5
2022-04-09T22:00:00,1188A,120.269,31.4867,无锡市,雪浪,颗粒物(PM10),54,58,74,14,21,216,120,190,166,22,19,7,8,0.2,0.2
2022-04-09T22:00:00,1189A,120.275,31.6219,无锡市,黄巷,颗粒物(PM10),62,74,70,27,25,205,134,187,171,29,29,8,8,0.3,0.4
2022-04-09T22:00:00,1190A,120.294,31.56,无锡市,曹张,颗粒物(PM10),55,59,56,17,24,199,126,183,166,14,24,8,9,0.6,0.7
2022-04-09T22:00:00,1191A,120.242,31.5031,无锡市,漆塘,颗粒物(PM10),59,68,64,28,31,202,122,179,160,16,16,7,8,0.3,0.3
2022-04-09T22:00:00,1192A,120.3489,31.5863,无锡市,东亭,颗粒物(PM10),56,61,67,19,23,206,126,188,166,26,43,7,8,0.5,0.5
2022-04-09T22:00:00,1193A,120.354,31.5475,无锡市,旺庄,颗粒物(PM10),60,70,68,31,29,191,119,174,161,20,33,7,8,0.6,0.6
2022-04-09T22:00:00,1194A,120.245,31.5631,无锡市,荣巷,颗粒物(PM10),59,68,63,27,26,206,122,183,162,25,22,9,9,0.4,0.4
2022-04-09T22:00:00,1195A,120.299,31.6817,无锡市,堰桥,颗粒物(PM10),64,78,77,36,29,178,136,159,146,20,42,7,8,0.5,0.6
2022-04-09T22:00:00,1196A,119.9633,31.762,常州市,市监测站,颗粒物(PM10),65,80,69,34,27,175,105,160,136,37,26,9,9,0.5,0.5
2022-04-09T22:00:00,1200A,119.9468,31.7069,常州市,武进监测站,,,68,69,31,34,205,,181,174,21,25,5,8,0.6,0.5
2022-04-09T22:00:00,1201A,119.9255,31.9087,常州市,安家,颗粒物(PM10),62,74,66,35,33,192,112,172,147,38,33,7,7,0.5,0.5
2022-04-09T22:00:00,1203A,119.6707,32.1875,镇江市,新区办事处,颗粒物(PM10),79,108,73,34,28,186,96,174,148,63,37,4,9,1.2,0.8
2022-04-09T22:00:00,1204A,119.4974,32.1968,镇江市,职教中心,颗粒物(PM10),64,77,74,29,31,185,103,173,152,47,28,13,8,0.1,0.3
2022-04-09T22:00:00,1205A,119.4303,32.1328,镇江市,丹徒区监测站,颗粒物(PM10),60,70,71,29,31,200,142,181,166,35,29,5,11,0.3,0.4
2022-04-09T22:00:00,1206A,119.905,32.4878,泰州市,公园路,颗粒物(PM10),73,95,80,46,32,202,103,187,160,39,31,17,7,1.9,0.9
2022-04-09T22:00:00,1207A,119.9189,32.4625,泰州市,莲花,颗粒物(PM10),72,93,82,51,39,197,103,187,161,34,26,19,8,1.9,0.9
2022-04-09T22:00:00,1209A,119.888,32.4639,泰州市,留学生创业园,颗粒物(PM10),76,101,82,37,32,199,109,185,162,44,34,28,12,2.2,0.9
2022-04-09T22:00:00,1210A,119.036,33.5981,淮安市,钵池山,颗粒物(PM10),65,80,79,36,30,167,109,152,143,28,22,20,15,0.8,0.6
2022-04-09T22:00:00,1211A,119.007,33.575,淮安市,北京南路,颗粒物(PM10),62,73,84,28,30,188,116,164,155,32,26,15,14,0.5,0.7
2022-04-09T22:00:00,1212A,118.989,33.6067,淮安市,市监测站,颗粒物(PM10),58,66,90,27,36,190,126,171,161,28,28,15,19,0.6,1.2
2022-04-09T22:00:00,1213A,119.135,33.5039,淮安市,楚州区监测站,颗粒物(PM10),84,117,90,16,22,183,111,165,146,44,37,21,14,0.6,0.7
2022-04-09T22:00:00,1214A,119.0186,33.6297,淮安市,淮阴区监测站,颗粒物(PM10),59,68,84,30,32,180,121,163,155,28,24,19,16,0.8,0.9
2022-04-09T22:00:00,1215A,120.118,33.4022,盐城市,盐城电厂,颗粒物(PM10),62,73,81,38,39,225,150,205,193,12,18,10,13,0.5,0.6
2022-04-09T22:00:00,1216A,120.156,33.3942,盐城市,市监测站,颗粒物(PM10),58,66,73,32,34,219,120,190,174,20,21,9,11,0.4,0.5
2022-04-09T22:00:00,1218A,120.2144,33.38,盐城市,开发区管委会,,45,45,56,30,32,232,121,192,172,22,20,5,8,0.6,0.7
2022-04-09T22:00:00,1220A,118.293,33.9528,宿迁市,宿迁学院,颗粒物(PM10),65,79,61,27,28,155,111,145,139,32,16,8,7,0.4,0.3
2022-04-09T22:00:00,1221A,118.2442,33.9592,宿迁市,宿迁中学,颗粒物(PM10),59,68,55,24,26,163,131,148,145,12,11,8,6,0.6,0.5
2022-04-09T22:00:00,1223A,120.2072,30.2111,杭州市,滨江,颗粒物(PM10),100,149,84,64,35,181,46,170,143,86,41,11,8,0.7,0.5
2022-04-09T22:00:00,1224A,120.0633,30.2747,杭州市,西溪,颗粒物(PM10),72,93,66,38,32,188,97,172,156,48,39,7,5,0.5,0.4
2022-04-09T22:00:00,1226A,120.3461,30.3153,杭州市,下沙,颗粒物(PM10),74,98,91,40,33,180,95,170,148,50,48,11,10,0.6,0.5
2022-04-09T22:00:00,1227A,120.1269,30.2456,杭州市,卧龙桥,细颗粒物(PM2.5),57,62,54,40,30,181,58,160,121,34,25,5,5,0.6,0.5
2022-04-09T22:00:00,1228A,120.1903,30.2692,杭州市,浙江农大,颗粒物(PM10),88,126,78,46,36,200,57,183,153,70,39,11,8,0.6,0.6
2022-04-09T22:00:00,1230A,120.1197,30.3119,杭州市,和睦小学,颗粒物(PM10),85,120,89,52,37,190,66,173,152,62,44,7,5,0.7,0.7
2022-04-09T22:00:00,1231A,120.3019,30.4183,杭州市,临平镇,颗粒物(PM10),76,101,95,33,35,187,98,174,159,29,42,6,6,0.6,0.6
2022-04-09T22:00:00,1232A,120.2697,30.1819,杭州市,城厢镇,颗粒物(PM10),83,115,80,41,25,165,61,156,132,69,35,10,8,0.7,0.5
2022-04-09T22:00:00,1233A,120.0883,30.1808,杭州市,云栖,颗粒物(PM10),67,83,71,26,27,190,31,160,113,64,39,6,7,0.6,0.5
2022-04-09T22:00:00,1234A,121.8358,29.911,宁波市,区环保大楼,,46,46,53,19,20,138,97,132,119,15,19,6,9,0.6,0.6
2022-04-09T22:00:00,1235A,121.56,29.82,宁波市,万里学院,,50,50,47,25,18,163,110,158,140,14,17,9,10,0.5,0.4
2022-04-09T22:00:00,1236A,121.713,29.9572,宁波市,龙赛医院,,,,47,,20,151,,139,127,,33,,8,,0.5
2022-04-09T22:00:00,1239A,121.633,29.7733,宁波市,钱湖水厂,,43,43,39,25,23,157,104,150,135,6,8,3,5,0.4,0.4
2022-04-09T22:00:00,1240A,121.5856,29.8635,宁波市,太古小学,颗粒物(PM10),53,55,49,32,22,147,88,132,111,15,18,7,9,0.5,0.5
2022-04-09T22:00:00,1241A,121.524,29.8674,宁波市,市环境监测中心,,49,49,48,24,18,164,116,159,140,12,21,6,11,0.5,0.5
2022-04-09T22:00:00,1242A,120.634,28.0089,温州市,瓯海,细颗粒物(PM2.5),63,72,78,45,30,148,94,121,107,22,42,5,7,0.4,0.4
2022-04-09T22:00:00,1243A,120.6748,27.9939,温州市,南浦,颗粒物(PM10),69,88,84,43,34,143,85,117,103,28,42,6,8,0.5,0.4
2022-04-09T22:00:00,1244A,120.76,27.9747,温州市,龙湾,颗粒物(PM10),86,122,93,46,27,124,79,118,109,29,40,4,5,0.4,0.4
2022-04-09T22:00:00,1245A,120.6709,28.0167,温州市,市站,颗粒物(PM10),77,103,76,36,27,148,88,122,110,27,36,5,6,0.5,0.4
2022-04-09T22:00:00,1247A,120.6053,29.9928,绍兴市,城东开发委,颗粒物(PM10),59,68,59,37,23,172,121,162,149,15,19,6,7,0.5,0.4
2022-04-09T22:00:00,1250A,120.0751,30.8669,湖州市,城西水厂,颗粒物(PM10),59,67,78,27,29,181,89,167,153,43,44,10,10,0.5,0.5
2022-04-09T22:00:00,1252A,120.7436,30.778,嘉兴市,清河小学,颗粒物(PM10),62,74,62,21,22,184,84,162,137,36,27,9,8,0.6,0.4
2022-04-09T22:00:00,1253A,120.726,30.7478,嘉兴市,嘉兴学院,颗粒物(PM10),59,68,62,33,22,179,93,159,137,24,23,13,12,1.0,0.9
2022-04-09T22:00:00,1255A,121.273,28.6459,台州市,黄岩环保大楼,颗粒物(PM10),59,67,58,24,20,138,96,127,114,9,18,6,6,0.4,0.3
2022-04-09T22:00:00,1256A,121.419,28.6542,台州市,台州环保大楼,颗粒物(PM10),61,71,79,37,29,150,98,136,119,13,23,6,7,0.3,0.4
2022-04-09T22:00:00,1257A,121.377,28.5773,台州市,路桥田洋王,细颗粒物(PM2.5),54,52,64,38,29,133,86,120,105,18,30,10,8,0.5,0.4
2022-04-09T22:00:00,1258A,122.122,30.0203,舟山市,定海檀枫,,36,36,31,17,15,112,83,107,97,16,16,2,2,0.3,0.3
2022-04-09T22:00:00,1259A,122.3094,29.9558,舟山市,普陀东港,,31,31,31,13,16,124,85,108,93,20,22,4,4,0.3,0.3
2022-04-09T22:00:00,1260A,122.19,29.9944,舟山市,临城新区,,37,37,30,16,13,126,76,120,99,21,19,3,3,0.3,0.3
2022-04-09T22:00:00,1262A,119.647,29.077,金华市,十五中,颗粒物(PM10),67,83,66,25,26,169,82,154,124,36,27,6,7,0.6,0.5
2022-04-09T22:00:00,1263A,119.686,29.1029,金华市,监测站,颗粒物(PM10),69,87,67,37,23,163,43,151,112,66,37,5,7,0.4,0.4
2022-04-09T22:00:00,1264A,118.8692,28.9398,衢州市,环保大楼,颗粒物(PM10),72,93,73,36,28,167,93,153,132,38,38,29,16,0.8,0.7
2022-04-09T22:00:00,1265A,118.8709,28.9666,衢州市,实验学校,颗粒物(PM10),61,72,64,34,25,414,65,196,94,31,34,5,19,0.6,0.5
2022-04-09T22:00:00,1266A,118.8621,28.9808,衢州市,衢州学院,颗粒物(PM10),64,78,70,31,27,168,43,150,112,66,48,8,10,0.7,0.6
2022-04-09T22:00:00,1267A,119.914,28.4514,丽水市,监测站大楼,颗粒物(PM10),54,57,50,29,20,142,93,137,124,11,18,6,7,0.4,0.3
2022-04-09T22:00:00,1268A,119.93,28.4586,丽水市,莲都小学,颗粒物(PM10),51,52,60,24,19,145,109,138,131,8,21,6,7,0.4,0.3
2022-04-09T22:00:00,1269A,119.879,28.4231,丽水市,余庄前,颗粒物(PM10),52,53,51,30,25,145,101,140,131,12,16,5,5,0.4,0.2
2022-04-09T22:00:00,1270A,117.1959,31.7848,合肥市,明珠广场,颗粒物(PM10),64,78,75,19,26,158,92,138,120,37,47,7,8,0.5,0.5
2022-04-09T22:00:00,1271A,117.3072,31.8764,合肥市,三里街,颗粒物(PM10),67,83,87,31,30,154,68,139,117,61,49,10,9,0.5,0.5
2022-04-09T22:00:00,1272A,117.2588,31.8707,合肥市,琥珀山庄,颗粒物(PM10),58,66,73,17,21,154,82,137,123,36,39,6,6,0.4,0.5
2022-04-09T22:00:00,1273A,117.1604,31.9052,合肥市,董铺水库(对照点),颗粒物(PM10),60,70,76,22,21,167,112,149,138,25,28,9,10,0.5,0.5
2022-04-09T22:00:00,1274A,117.25,31.8571,合肥市,长江中路,颗粒物(PM10),59,68,76,19,18,169,96,146,130,46,47,9,9,0.4,0.4
2022-04-09T22:00:00,1275A,117.266,31.9436,合肥市,庐阳区,颗粒物(PM10),63,75,82,17,19,153,96,138,126,43,45,9,10,0.8,0.8
2022-04-09T22:00:00,1276A,117.336,31.8586,合肥市,瑶海区,颗粒物(PM10),70,90,89,29,25,156,56,143,112,72,40,9,9,0.7,0.6
2022-04-09T22:00:00,1277A,117.3027,31.7964,合肥市,包河区,颗粒物(PM10),62,73,82,29,28,165,83,149,128,45,36,6,6,0.4,0.4
2022-04-09T22:00:00,1278A,117.2776,31.7385,合肥市,滨湖新区,颗粒物(PM10),62,73,75,22,25,168,113,152,139,17,18,4,4,0.2,0.2
2022-04-09T22:00:00,1279A,117.1318,31.8403,合肥市,高新区,颗粒物(PM10),60,70,72,24,25,172,119,152,140,24,32,11,12,0.5,0.5
2022-04-09T22:00:00,1280A,119.3903,26.0543,福州市,鼓山(对照点),,45,45,42,20,14,116,104,114,108,3,6,3,4,0.4,0.4
2022-04-09T22:00:00,1282A,119.2681,26.0504,福州市,师大,颗粒物(PM10),66,81,57,35,20,132,71,118,97,31,17,2,5,0.4,0.3
2022-04-09T22:00:00,1283A,119.2984,26.1028,福州市,五四北路,颗粒物(PM10),51,52,52,29,19,129,77,118,100,17,17,2,3,0.3,0.2
2022-04-09T22:00:00,1284A,119.2648,26.0768,福州市,杨桥西路,颗粒物(PM10),70,90,60,34,19,117,47,109,89,39,19,3,4,0.9,0.8
2022-04-09T22:00:00,1285A,119.317,26.0746,福州市,紫阳,颗粒物(PM10),59,67,50,27,21,120,58,113,95,34,18,4,5,0.6,0.5
2022-04-09T22:00:00,1286A,118.1608,24.8169,厦门市,溪东(对照点),,39,36,38,27,18,124,61,116,96,3,3,1,1,0.3,0.2
2022-04-09T22:00:00,1287A,118.1514,24.4767,厦门市,洪文,颗粒物(PM10),54,57,52,28,21,134,68,119,99,17,15,3,4,0.5,0.4
2022-04-09T22:00:00,1288A,118.0661,24.4444,厦门市,鼓浪屿,,44,44,55,25,26,130,73,112,105,21,32,2,7,0.3,0.4
2022-04-09T22:00:00,1290A,115.8931,28.6843,南昌市,省外办,颗粒物(PM10),65,79,81,33,33,172,61,154,134,55,44,10,11,0.6,0.7
2022-04-09T22:00:00,1291A,115.8886,28.7003,南昌市,省林业公司,颗粒物(PM10),68,85,83,32,30,185,71,166,148,43,51,8,12,1.1,0.9
2022-04-09T22:00:00,1292A,115.8126,28.7442,南昌市,林科所,颗粒物(PM10),52,53,60,16,23,183,98,166,147,32,49,12,13,0.4,0.4
2022-04-09T22:00:00,1294A,115.8518,28.687,南昌市,建工学校,颗粒物(PM10),65,80,79,35,31,174,62,154,136,44,54,12,14,0.6,0.5
2022-04-09T22:00:00,1295A,115.8921,28.6424,南昌市,象湖,颗粒物(PM10),72,93,99,30,34,179,85,156,135,34,43,5,10,0.8,0.9
2022-04-09T22:00:00,1296A,115.7423,28.7996,南昌市,武术学校(对照点),,39,39,40,24,23,170,67,153,129,16,10,19,17,0.6,0.6
2022-04-09T22:00:00,1298A,115.9314,28.6842,南昌市,省站,颗粒物(PM10),70,89,87,41,37,174,80,155,135,49,51,28,15,1.4,0.8
2022-04-09T22:00:00,1299A,116.9862,36.6114,济南市,科干所,,,85,90,22,30,462,,300,300,8,11,14,15,0.8,0.8
2022-04-09T22:00:00,1300A,116.9376,36.665,济南市,农科所,细颗粒物(PM2.5),74,93,104,54,34,164,137,158,153,11,13,12,12,0.2,0.2
2022-04-09T22:00:00,1301A,117.1265,36.6734,济南市,开发区,颗粒物(PM10),61,71,74,30,27,171,154,167,165,7,7,11,12,0.4,0.4
2022-04-09T22:00:00,1303A,117.0624,36.6868,济南市,省种子仓库,颗粒物(PM10),65,80,83,32,30,180,158,173,170,4,5,13,14,0.7,0.7
2022-04-09T22:00:00,1304A,116.9489,36.6447,济南市,机床二厂,颗粒物(PM10),81,112,105,29,30,178,145,172,165,8,11,11,11,0.6,0.6
2022-04-09T22:00:00,1305A,117.0495,36.663,济南市,市监测站,颗粒物(PM10),72,93,86,26,26,174,155,169,166,4,6,14,14,0.4,0.4
2022-04-09T22:00:00,1306A,116.7675,36.5484,济南市,长清党校,颗粒物(PM10),70,90,91,29,29,173,137,164,159,12,14,13,14,0.8,0.8
2022-04-09T22:00:00,1307A,120.6659,36.2403,青岛市,仰口(对照点),细颗粒物(PM2.5),62,68,84,44,44,182,131,159,151,10,11,7,8,0.6,0.7
2022-04-09T22:00:00,1310A,120.4134,36.0658,青岛市,市南区东部子站,颗粒物(PM10),56,61,84,34,38,178,155,170,168,38,39,5,8,0.5,0.6
2022-04-09T22:00:00,1311A,120.3664,36.1032,青岛市,四方区子站,颗粒物(PM10),59,68,88,31,44,185,166,175,174,24,32,6,9,0.7,0.9
2022-04-09T22:00:00,1312A,120.2994,36.054,青岛市,市南区西部子站,臭氧1小时,80,68,79,24,38,196,184,186,186,20,32,6,9,0.6,0.7
2022-04-09T22:00:00,1313A,120.4581,36.0858,青岛市,崂山区子站,臭氧1小时,75,88,94,31,41,196,180,189,189,17,28,7,9,0.5,0.6
2022-04-09T22:00:00,1314A,120.1983,35.9608,青岛市,黄岛区子站,颗粒物(PM10),58,66,80,34,41,185,164,175,173,27,33,5,7,0.6,0.8
2022-04-09T22:00:00,1315A,120.3999,36.3083,青岛市,城阳区子站,颗粒物(PM10),64,78,103,27,30,178,159,168,164,20,26,6,10,0.6,0.9
2022-04-09T22:00:00,1316A,113.69031,34.76122,郑州市,烟厂,颗粒物(PM10),77,104,113,40,34,183,84,162,144,31,29,12,11,0.6,0.5
2022-04-09T22:00:00,1317A,113.65724,34.77134,郑州市,郑纺机,颗粒物(PM10),81,111,109,30,30,176,79,156,138,39,38,12,12,0.8,0.7
2022-04-09T22:00:00,1318A,113.67526,34.80246,郑州市,银行学校,颗粒物(PM10),79,108,106,27,36,184,91,166,149,32,31,9,9,0.8,0.5
2022-04-09T22:00:00,1319A,113.56746,34.81334,郑州市,供水公司,颗粒物(PM10),76,102,125,26,41,180,105,164,150,29,30,9,10,0.5,0.6
2022-04-09T22:00:00,1320A,113.7329,34.7178,郑州市,经开区管委,颗粒物(PM10),81,112,108,44,32,175,96,139,139,26,29,12,13,0.6,0.6
2022-04-09T22:00:00,1321A,113.73961,34.77172,郑州市,四十七中,颗粒物(PM10),75,100,103,46,36,200,97,171,154,25,22,11,11,0.7,0.6
2022-04-09T22:00:00,1322A,113.60532,34.74838,郑州市,市监测站,颗粒物(PM10),81,111,112,37,32,164,84,146,132,39,40,12,12,0.7,0.6
2022-04-09T22:00:00,1324A,113.51488,34.91089,郑州市,岗李水库(对照点),颗粒物(PM10),69,88,112,32,41,170,69,159,141,30,30,9,10,0.6,0.6
2022-04-09T22:00:00,1325A,114.3677,30.5584,武汉市,东湖梨园,细颗粒物(PM2.5),79,69,70,58,38,159,62,147,118,58,49,8,10,0.7,0.7
2022-04-09T22:00:00,1326A,114.2529,30.558,武汉市,汉阳月湖,颗粒物(PM10),66,82,66,32,28,157,11,140,90,128,61,8,10,0.8,0.7
2022-04-09T22:00:00,1327A,114.282,30.6189,武汉市,汉口花桥,颗粒物(PM10),58,66,61,39,30,152,28,136,99,91,51,11,13,0.6,0.5
2022-04-09T22:00:00,1328A,114.3025,30.5332,武汉市,武昌紫阳,颗粒物(PM10),63,76,62,36,27,159,15,140,96,110,44,10,12,1.1,0.9
2022-04-09T22:00:00,1329A,114.3646,30.6217,武汉市,青山钢花,颗粒物(PM10),94,138,96,48,39,162,51,146,100,86,60,15,16,0.9,0.8
2022-04-09T22:00:00,1330A,114.1566,30.4825,武汉市,沌口新区,颗粒物(PM10),72,94,82,37,33,153,20,138,99,125,50,15,15,0.7,0.8
2022-04-09T22:00:00,1331A,114.3014,30.5944,武汉市,汉口江滩,二氧化氮,68,80,74,33,33,155,12,131,88,135,76,9,11,0.9,0.8
2022-04-09T22:00:00,1333A,114.135,30.6319,武汉市,吴家山,颗粒物(PM10),81,112,83,49,30,154,15,144,102,117,61,11,13,1.1,0.8
2022-04-09T22:00:00,1334A,113.8454,30.2917,武汉市,沉湖七壕(对照点),颗粒物(PM10),58,66,56,27,25,154,42,147,121,66,33,6,7,0.6,0.6
2022-04-09T22:00:00,1335A,113.0833,28.2325,长沙市,经开区环保局,细颗粒物(PM2.5),89,63,59,66,42,176,82,154,129,56,33,10,10,0.5,0.6
2022-04-09T22:00:00,1336A,112.8872,28.2189,长沙市,高开区环保局,颗粒物(PM10),58,65,79,34,34,169,127,160,152,24,41,11,14,0.2,0.6
2022-04-09T22:00:00,1337A,113.0792,28.2053,长沙市,马坡岭,细颗粒物(PM2.5),115,132,86,87,42,192,23,166,122,85,39,12,13,0.7,0.5
2022-04-09T22:00:00,1338A,112.9394,28.19,长沙市,湖南师范大学,细颗粒物(PM2.5),52,52,57,36,37,168,90,154,133,17,25,4,8,0.3,0.4
2022-04-09T22:00:00,1339A,113.0178,28.1322,长沙市,雨花区环保局,颗粒物(PM10),57,63,65,34,31,178,124,167,153,33,30,12,12,0.5,0.4
2022-04-09T22:00:00,1340A,112.9792,28.2597,长沙市,伍家岭,颗粒物(PM10),81,112,100,40,40,175,6,153,109,100,47,6,8,1.5,0.8
2022-04-09T22:00:00,1341A,113.0014,28.1944,长沙市,火车新站,细颗粒物(PM2.5),78,84,88,57,39,164,22,149,116,105,59,9,12,0.8,0.5
2022-04-09T22:00:00,1342A,112.9844,28.1178,长沙市,天心区环保局,颗粒物(PM10),57,63,61,34,33,168,109,154,137,35,40,11,12,0.4,0.4
2022-04-09T22:00:00,1343A,112.8908,28.1308,长沙市,湖南中医药大学,细颗粒物(PM2.5),99,97,82,74,42,165,5,147,96,93,48,6,12,0.6,0.6
2022-04-09T22:00:00,1344A,112.9581,28.3611,长沙市,沙坪(对照点),颗粒物(PM10),62,74,73,16,35,169,80,152,114,19,22,7,9,0.7,0.7
2022-04-09T22:00:00,1345A,113.2347,23.1423,广州市,广雅中学,颗粒物(PM10),60,70,62,25,26,227,89,203,180,53,30,8,8,0.9,0.7
2022-04-09T22:00:00,1346A,113.2612,23.105,广州市,市五中,颗粒物(PM10),57,64,56,31,26,233,95,210,185,44,29,6,6,0.7,0.6
2022-04-09T22:00:00,1348A,113.3478,23.0916,广州市,广东商学院,颗粒物(PM10),60,69,54,29,25,230,52,204,170,73,42,6,6,0.6,0.5
2022-04-09T22:00:00,1349A,113.4332,23.1047,广州市,市八十六中,,49,49,66,16,22,257,54,211,170,63,52,8,9,0.6,0.6
2022-04-09T22:00:00,1350A,113.3505,22.9483,广州市,番禺中学,颗粒物(PM10),55,60,55,20,21,213,57,185,155,47,29,11,10,0.8,0.7
2022-04-09T22:00:00,1351A,113.2146,23.3916,广州市,花都师范,颗粒物(PM10),84,118,78,57,35,248,144,227,218,53,46,6,6,0.8,0.6
2022-04-09T22:00:00,1352A,113.2597,23.1331,广州市,市监测站,颗粒物(PM10),57,63,57,31,25,238,94,216,193,54,32,8,7,0.8,0.7
2022-04-09T22:00:00,1353A,113.5618,23.312,广州市,九龙镇镇龙,颗粒物(PM10),111,171,108,57,40,249,13,200,135,125,66,5,6,0.8,0.7
2022-04-09T22:00:00,1354A,113.2765,23.1544,广州市,麓湖,颗粒物(PM10),56,62,55,32,24,208,71,183,148,58,41,8,8,0.8,0.7
2022-04-09T22:00:00,1355A,113.443,23.3035,广州市,帽峰山森林公园(对照点),颗粒物(PM10),59,67,54,30,26,215,101,192,180,34,24,6,6,0.8,0.8
2022-04-09T22:00:00,1356A,114.1063,22.5545,深圳市,通心岭子站,,35,35,32,14,12,126,103,111,106,13,8,3,3,0.2,0.2
2022-04-09T22:00:00,1357A,114.117,22.5625,深圳市,洪湖,,41,41,34,6,4,148,110,127,119,24,18,6,6,0.7,0.7
2022-04-09T22:00:00,1358A,113.987,22.5417,深圳市,华侨城,,37,37,32,14,11,126,70,97,79,36,21,5,5,0.5,0.5
2022-04-09T22:00:00,1359A,113.9181,22.5171,深圳市,南海子站,,,46,39,19,13,110,,98,83,53,22,4,4,,0.5
2022-04-09T22:00:00,1360A,114.2458,22.5689,深圳市,盐田,,40,40,31,18,13,119,104,112,100,36,28,5,4,0.6,0.6
2022-04-09T22:00:00,1361A,114.2283,22.7244,深圳市,龙岗,颗粒物(PM10),54,58,45,20,16,192,83,153,126,41,25,3,3,0.5,0.4
2022-04-09T22:00:00,1363A,114.494,22.5422,深圳市,南澳,,32,32,29,12,12,139,86,126,118,10,7,5,5,0.5,0.4
2022-04-09T22:00:00,1364A,114.41,22.6342,深圳市,葵涌,,43,43,33,21,14,128,62,118,110,23,8,4,4,0.4,0.3
2022-04-09T22:00:00,1365A,114.297,22.5978,深圳市,梅沙,,39,39,34,16,12,134,107,127,123,13,10,4,5,0.5,0.5
2022-04-09T22:00:00,1366A,114.0678,22.738,深圳市,观澜,颗粒物(PM10),58,66,56,23,22,146,29,111,82,57,30,16,16,0.8,0.7
2022-04-09T22:00:00,1367A,113.5814,22.2618,珠海市,吉大,,35,35,41,17,14,122,106,116,114,12,12,10,10,0.4,0.3
2022-04-09T22:00:00,1368A,113.4881,22.2335,珠海市,前山,,42,42,35,11,14,127,90,112,104,34,23,10,10,0.5,0.4
2022-04-09T22:00:00,1369A,113.628,22.4251,珠海市,唐家,,35,35,33,17,14,137,109,126,125,19,17,10,9,0.3,0.3
2022-04-09T22:00:00,1370A,113.299,22.2281,珠海市,斗门,,49,49,36,16,14,144,112,129,125,18,14,8,8,0.4,0.3
2022-04-09T22:00:00,1371A,113.1294,23.0067,佛山市,湾梁,颗粒物(PM10),64,78,70,18,24,251,94,214,187,28,26,11,12,0.6,0.5
2022-04-09T22:00:00,1372A,113.1083,23.0478,佛山市,华材职中,颗粒物(PM10),60,70,63,25,25,244,91,215,190,35,27,6,7,0.5,0.5
2022-04-09T22:00:00,1373A,113.144,23.0453,佛山市,南海气象局,颗粒物(PM10),55,60,61,25,28,234,90,194,170,34,34,5,6,0.6,0.5
2022-04-09T22:00:00,1374A,113.2881,22.8094,佛山市,顺德苏岗,颗粒物(PM10),56,61,47,22,20,189,76,168,149,39,26,4,4,0.9,0.7
2022-04-09T22:00:00,1376A,112.8383,22.8678,佛山市,高明孔堂,颗粒物(PM10),53,55,57,14,25,218,126,190,180,15,19,5,7,0.6,0.6
2022-04-09T22:00:00,1377A,112.8836,23.1588,佛山市,三水监测站,颗粒物(PM10),89,127,80,44,35,214,60,173,145,78,60,8,8,0.8,0.7
2022-04-09T22:00:00,1378A,112.867,23.185,佛山市,三水云东海,颗粒物(PM10),70,90,74,34,30,246,84,196,169,60,41,13,11,0.8,0.7
2022-04-09T22:00:00,1379A,113.3769,22.5211,中山市,华柏园,,37,37,38,17,19,150,83,137,125,29,20,4,4,0.6,0.5
2022-04-09T22:00:00,1380A,113.3881,22.5497,中山市,张溪,,36,36,48,15,22,158,78,138,126,28,19,4,4,0.4,0.3
2022-04-09T22:00:00,1381A,113.4075,22.5111,中山市,紫马岭,颗粒物(PM10),55,59,42,19,17,158,62,137,120,38,18,4,5,0.3,0.3
2022-04-09T22:00:00,1382A,113.4411,22.4853,中山市,长江旅游区(对照点),,24,24,31,13,19,153,72,131,119,18,16,3,3,0.4,0.4
2022-04-09T22:00:00,1383A,113.1064,22.6058,江门市,北街,,31,31,50,12,18,251,95,215,171,22,23,8,9,0.4,0.5
2022-04-09T22:00:00,1384A,113.0731,22.5835,江门市,西区,颗粒物(PM10),57,64,61,20,21,206,79,186,147,35,27,10,11,0.4,0.4
2022-04-09T22:00:00,1385A,113.0219,22.5311,江门市,圭峰西,颗粒物(PM10),53,56,51,9,14,190,100,169,144,22,21,8,8,0.5,0.3
2022-04-09T22:00:00,1386A,113.0828,22.5947,江门市,东湖,颗粒物(PM10),53,55,57,21,24,218,80,197,156,30,22,8,9,0.4,0.4
2022-04-09T22:00:00,1389A,113.7547,23.0494,东莞市,莞城梨川,,44,44,59,18,26,259,92,240,194,37,29,10,10,0.6,0.6
2022-04-09T22:00:00,1390A,113.7944,23.0128,东莞市,东城石井,,46,46,59,18,25,275,85,243,188,38,37,8,8,0.5,0.5
2022-04-09T22:00:00,1391A,113.7383,22.9658,东莞市,南城西平,,48,48,57,23,26,277,103,226,185,28,37,8,8,0.4,0.5
2022-04-09T22:00:00,1392A,114.4183,23.0528,惠州市,河南岸金山湖子站,颗粒物(PM10),54,58,54,25,20,192,85,159,140,32,20,5,5,0.5,0.5
2022-04-09T22:00:00,1393A,114.4053,23.0822,惠州市,下埔横江三路子站,,,50,51,16,19,199,70,167,142,,19,6,6,0.4,0.4
2022-04-09T22:00:00,1394A,114.4103,23.1142,惠州市,江北云山西路子站,,33,28,50,22,22,209,104,179,154,23,17,8,6,0.5,0.4
2022-04-09T22:00:00,1395A,114.4645,22.7833,惠州市,惠阳区承修路船湖子站,,49,49,50,19,18,168,125,142,132,13,17,4,5,0.6,0.5
2022-04-09T22:00:00,1396A,114.5317,22.7422,惠州市,大亚湾管委会子站,颗粒物(PM10),58,66,50,23,18,148,88,134,124,44,24,4,5,0.7,0.6
2022-04-09T22:00:00,1397A,112.4267,23.0706,肇庆市,睦岗子站,颗粒物(PM10),63,76,66,40,36,212,49,186,160,103,47,12,15,1.0,0.8
2022-04-09T22:00:00,1398A,112.4645,23.0475,肇庆市,城中子站,颗粒物(PM10),62,73,62,38,31,204,127,184,172,39,43,15,18,0.7,0.6
2022-04-09T22:00:00,1399A,112.5544,23.1522,肇庆市,坑口子站,颗粒物(PM10),52,53,53,35,31,212,151,195,183,14,18,8,12,0.5,0.5
2022-04-09T22:00:00,1400A,112.4753,23.1,肇庆市,七星岩子站(对照点),颗粒物(PM10),59,68,59,36,34,214,161,191,184,19,22,23,19,0.7,0.7
2022-04-09T22:00:00,1401A,108.3103,22.7881,南宁市,二十一中,颗粒物(PM10),57,63,80,27,46,191,115,170,156,27,21,15,12,0.7,0.9
2022-04-09T22:00:00,1402A,108.3141,22.8528,南宁市,北湖,颗粒物(PM10),56,61,84,22,50,183,120,168,154,18,28,15,15,0.7,0.9
2022-04-09T22:00:00,1403A,108.3206,22.8225,南宁市,市监测站,颗粒物(PM10),56,62,77,26,47,188,121,169,155,26,28,16,15,0.7,0.8
2022-04-09T22:00:00,1404A,108.3829,22.8037,南宁市,大自然花园,颗粒物(PM10),51,52,70,29,46,184,126,174,162,20,23,12,10,0.8,0.9
2022-04-09T22:00:00,1405A,108.4394,22.7904,南宁市,仙葫(对照点),,48,48,74,30,50,182,141,170,161,17,27,10,10,0.3,0.7
2022-04-09T22:00:00,1406A,108.2397,22.8467,南宁市,区农职院,颗粒物(PM10),57,64,78,23,48,184,115,169,155,33,34,14,13,0.8,0.9
2022-04-09T22:00:00,1407A,108.3275,22.735,南宁市,英华嘉园,颗粒物(PM10),66,81,87,29,50,158,86,147,130,50,45,16,12,0.9,0.9
2022-04-09T22:00:00,1408A,108.2257,22.7757,南宁市,沙井镇街道办,颗粒物(PM10),61,71,103,28,51,174,98,159,139,38,50,11,10,0.9,0.9
2022-04-09T22:00:00,1409A,110.576,19.9507,海口市,东寨港(对照点),,23,22,32,12,16,95,72,91,83,3,8,11,5,0.4,0.4
2022-04-09T22:00:00,1410A,110.3232,20.0574,海口市,海南大学,,32,32,34,14,15,111,70,98,84,3,4,4,4,0.4,0.4
2022-04-09T22:00:00,1411A,110.283,20.0053,海口市,秀英海南医院,,36,36,40,17,18,111,78,103,86,4,8,3,4,0.3,0.3
2022-04-09T22:00:00,1412A,110.338,19.9969,海口市,海南师范大学,,23,21,37,12,16,108,71,102,76,10,7,3,3,0.3,0.4
2022-04-09T22:00:00,1413A,110.33,20.0356,海口市,龙华路环保局宿舍,,28,28,36,14,15,115,79,113,89,8,7,5,5,0.4,0.4
2022-04-09T22:00:00,1414A,106.3787,29.8279,重庆市,缙云山(对照点),臭氧1小时,64,65,60,43,34,172,171,158,158,18,22,16,19,1.0,0.9
2022-04-09T22:00:00,1416A,106.4213,29.8253,重庆市,天生,颗粒物(PM10),72,93,86,49,51,141,31,117,103,73,58,9,18,1.0,0.9
2022-04-09T22:00:00,1417A,106.6263,29.7228,重庆市,两路,细颗粒物(PM2.5),89,114,76,66,40,127,33,107,83,119,76,19,21,1.3,0.9
2022-04-09T22:00:00,1418A,106.2953,29.5983,重庆市,虎溪,颗粒物(PM10),67,83,75,46,42,142,25,129,107,87,51,5,11,1.0,1
2022-04-09T22:00:00,1419A,106.5777,29.5102,重庆市,南坪,细颗粒物(PM2.5),68,81,75,49,45,145,130,132,131,21,34,18,23,0.7,0.8
2022-04-09T22:00:00,1420A,106.6556,29.6277,重庆市,唐家沱,颗粒物(PM10),87,123,93,53,40,130,13,120,89,91,74,5,10,0.9,0.8
2022-04-09T22:00:00,1421A,106.6349,29.4906,重庆市,茶园,颗粒物(PM10),70,89,90,49,40,154,57,144,113,71,63,13,12,1.1,1.1
2022-04-09T22:00:00,1422A,106.3754,29.4572,重庆市,白市驿,颗粒物(PM10),54,58,91,37,43,162,162,144,144,12,32,15,21,0.9,1
2022-04-09T22:00:00,1425A,106.6205,29.7166,重庆市,空港,细颗粒物(PM2.5),99,120,84,74,44,138,8,118,88,122,65,12,12,1.6,0.8
2022-04-09T22:00:00,1426A,106.4782,29.4875,重庆市,新山村,颗粒物(PM10),68,85,89,44,46,142,21,127,101,116,77,12,20,1.3,1
2022-04-09T22:00:00,1427A,106.5616,29.6453,重庆市,礼嘉,颗粒物(PM10),76,102,90,44,43,144,36,122,108,106,74,14,20,1.2,0.7
2022-04-09T22:00:00,1428A,106.4522,29.7091,重庆市,蔡家,颗粒物(PM10),107,163,84,51,41,152,49,128,111,64,51,4,7,1.0,0.8
2022-04-09T22:00:00,1429A,106.5093,29.3917,重庆市,鱼新街,颗粒物(PM10),78,106,88,51,47,142,8,116,90,93,67,15,26,1.4,1.1
2022-04-09T22:00:00,1431A,103.9728,30.7236,成都市,金泉两河,颗粒物(PM10),57,63,64,38,47,211,20,188,142,76,33,1,2,0.8,0.6
2022-04-09T22:00:00,1432A,104.1419,30.6764,成都市,十里店,颗粒物(PM10),83,116,93,53,48,188,24,175,147,110,42,5,5,0.7,0.6
2022-04-09T22:00:00,1433A,104.0594,30.5767,成都市,三瓦窑,二氧化氮,72,77,74,51,50,190,8,174,137,144,49,3,3,1.5,0.8
2022-04-09T22:00:00,1434A,104.1122,30.6306,成都市,沙河铺,细颗粒物(PM2.5),82,97,87,60,65,202,10,167,120,85,38,20,10,0.9,0.6
2022-04-09T22:00:00,1437A,104.0431,30.6556,成都市,君平街,细颗粒物(PM2.5),70,86,81,51,58,227,78,199,180,77,33,4,5,0.9,0.6
2022-04-09T22:00:00,1438A,103.6202,31.0201,成都市,灵岩寺(对照点),臭氧1小时,59,44,37,31,30,172,167,160,160,7,8,5,10,0.3,0.4
2022-04-09T22:00:00,1439A,106.6899,26.5998,贵阳市,马鞍山,细颗粒物(PM2.5),64,63,52,46,33,117,19,102,76,19,25,5,5,1.1,0.9
2022-04-09T22:00:00,1440A,106.6971,26.5694,贵阳市,市环保站,细颗粒物(PM2.5),70,69,78,51,40,117,30,103,88,62,51,3,9,0.6,0.5
2022-04-09T22:00:00,1441A,106.6243,26.6266,贵阳市,鉴湖路,细颗粒物(PM2.5),77,70,63,56,38,144,57,120,111,38,15,4,5,0.5,0.2
2022-04-09T22:00:00,1442A,106.7487,26.6343,贵阳市,燕子冲,细颗粒物(PM2.5),79,68,66,58,42,139,62,118,106,13,20,7,8,0.8,0.7
2022-04-09T22:00:00,1443A,106.6555,26.4365,贵阳市,碧云窝,细颗粒物(PM2.5),67,66,76,48,40,139,67,132,100,26,19,5,9,0.6,0.5
2022-04-09T22:00:00,1444A,106.694,26.5161,贵阳市,中院村,细颗粒物(PM2.5),79,78,76,58,45,129,35,119,90,50,53,8,13,0.7,0.7
2022-04-09T22:00:00,1445A,106.7109,26.6027,贵阳市,红边门,细颗粒物(PM2.5),84,85,74,62,42,131,57,118,100,46,50,5,12,0.5,0.5
2022-04-09T22:00:00,1446A,106.7164,26.5699,贵阳市,新华路,细颗粒物(PM2.5),79,73,72,58,40,128,54,117,101,40,46,6,10,0.5,0.5
2022-04-09T22:00:00,1447A,106.674,26.5424,贵阳市,太慈桥,颗粒物(PM10),95,139,81,61,35,117,19,109,81,61,35,4,4,0.5,0.4
2022-04-09T22:00:00,1450A,102.8204,24.8886,昆明市,呈贡新区,,50,36,45,35,31,140,60,122,98,40,22,16,9,0.6,0.6
2022-04-09T22:00:00,1451A,102.6251,24.9608,昆明市,西山森林公园(对照点),,35,24,27,22,21,140,112,135,131,9,9,7,9,0.5,0.5
2022-04-09T22:00:00,1452A,102.7252,25.0902,昆明市,龙泉镇,,45,42,59,31,38,125,16,103,66,51,35,8,10,0.9,0.8
2022-04-09T22:00:00,1453A,102.7266,25.0375,昆明市,东风东路,,42,34,46,29,33,130,84,112,98,28,33,5,7,0.7,0.7
2022-04-09T22:00:00,1454A,102.6742,25.0669,昆明市,金鼎山,,36,36,49,24,33,124,79,109,96,31,36,4,9,0.6,0.6
2022-04-09T22:00:00,1455A,102.6644,25.0401,昆明市,碧鸡广场,,43,35,46,30,33,126,55,112,94,46,36,8,13,0.7,0.7
2022-04-09T22:00:00,1456A,91.1319,29.6514,拉萨市,八廓街,,23,18,25,13,12,95,71,91,87,19,15,6,6,0.4,0.4
2022-04-09T22:00:00,1457A,91.1221,29.6747,拉萨市,市环保局,,31,31,27,12,9,108,61,104,96,25,16,5,4,0.5,0.3
2022-04-09T22:00:00,1458A,91.0874,29.6475,拉萨市,区监测站,,26,26,26,10,11,102,67,97,91,27,20,6,6,0.3,0.4
2022-04-09T22:00:00,1459A,91.1774,29.6541,拉萨市,西藏大学,,24,21,22,7,8,97,76,93,90,14,12,5,5,0.3,0.3
2022-04-09T22:00:00,1460A,90.9798,29.6588,拉萨市,区辐射站,,40,40,26,21,11,99,58,95,86,34,26,6,7,0.4,0.4
2022-04-09T22:00:00,1461A,91.0834,29.6292,拉萨市,拉萨火车站,,27,23,34,1,9,102,86,98,97,8,24,5,5,0.3,0.4
2022-04-09T22:00:00,1462A,108.882,34.2749,西安市,高压开关厂,颗粒物(PM10),96,141,118,44,36,161,16,142,103,108,66,8,10,0.8,0.7
2022-04-09T22:00:00,1463A,108.993,34.2629,西安市,兴庆小区,颗粒物(PM10),118,185,101,42,34,161,25,142,101,73,63,10,8,0.3,0.5
2022-04-09T22:00:00,1464A,109.06,34.2572,西安市,纺织城,颗粒物(PM10),130,210,119,53,36,150,3,132,87,84,61,10,8,0.5,0.5
2022-04-09T22:00:00,1465A,108.9356,34.2173,西安市,小寨,颗粒物(PM10),94,137,108,47,39,156,6,138,98,103,71,4,5,0.7,0.6
2022-04-09T22:00:00,1466A,108.954,34.2713,西安市,市人民体育场,颗粒物(PM10),103,155,103,54,41,155,11,137,104,98,70,7,7,0.9,0.8
2022-04-09T22:00:00,1467A,108.8922,34.2322,西安市,高新西区,,,122,105,43,38,154,,145,124,97,74,9,10,0.8,0.6
2022-04-09T22:00:00,1468A,108.935,34.3474,西安市,经开区,颗粒物(PM10),110,169,107,48,39,147,20,129,93,84,58,2,3,0.8,0.6
2022-04-09T22:00:00,1469A,108.906,34.1546,西安市,长安区,颗粒物(PM10),109,168,121,50,42,159,39,139,112,51,55,7,7,0.5,0.6
2022-04-09T22:00:00,1471A,109.2186,34.3731,西安市,临潼区,颗粒物(PM10),88,125,91,49,42,157,123,146,132,6,19,3,5,0.4,0.6
2022-04-09T22:00:00,1472A,108.869,34.378,西安市,草滩(对照点),颗粒物(PM10),77,104,133,43,37,135,7,117,83,78,48,6,6,0.8,0.7
2022-04-09T22:00:00,1473A,108.985,34.1978,西安市,曲江文化产业集团,颗粒物(PM10),122,194,122,46,34,147,1,125,81,100,77,7,5,0.8,0.7
2022-04-09T22:00:00,1474A,109.051,34.3213,西安市,广运潭,颗粒物(PM10),112,173,115,40,31,167,58,144,111,36,47,2,4,0.3,0.5
2022-04-09T22:00:00,1476A,103.631,36.1031,兰州市,兰炼宾馆,颗粒物(PM10),77,103,108,35,39,140,47,122,103,58,43,6,24,0.5,0.5
2022-04-09T22:00:00,1477A,104.1373,35.9454,兰州市,榆中兰大校区(对照点),颗粒物(PM10),68,86,80,24,23,135,107,129,126,22,19,4,8,0.7,0.7
2022-04-09T22:00:00,1478A,103.8412,36.0726,兰州市,生物制品所,颗粒物(PM10),93,135,114,37,27,135,6,114,84,94,62,10,17,1.3,0.7
2022-04-09T22:00:00,1479A,103.831,36.0464,兰州市,铁路设计院,颗粒物(PM10),94,137,118,50,36,123,8,101,75,121,73,13,21,1.4,1.2
2022-04-09T22:00:00,1483A,101.524,36.6867,西宁市,第五水厂(对照点),颗粒物(PM10),65,80,63,19,16,116,70,109,99,18,14,10,11,0.7,0.7
2022-04-09T22:00:00,1484A,105.9512,38.6016,银川市,贺兰山马莲口(对照点),颗粒物(PM10),67,84,140,25,35,106,98,104,102,2,3,7,8,0.3,0.3
2022-04-09T22:00:00,1488A,106.2328,38.4975,银川市,贺兰山东路,颗粒物(PM10),76,102,190,29,49,110,72,104,96,34,34,4,13,0.4,0.6
2022-04-09T22:00:00,1489A,106.1358,38.5036,银川市,学院路,颗粒物(PM10),72,94,186,40,41,110,63,108,94,39,31,7,10,0.5,0.5
2022-04-09T22:00:00,1490A,87.5801,43.8303,乌鲁木齐市,监测站,,42,42,104,7,19,93,65,88,86,34,16,5,7,0.5,0.5
2022-04-09T22:00:00,1491A,87.6046,43.768,乌鲁木齐市,收费所,,45,45,109,9,27,86,64,80,78,34,19,6,6,0.3,0.2
2022-04-09T22:00:00,1492A,87.4754,43.9469,乌鲁木齐市,新疆农科院农场(对照点),颗粒物(PM10),87,124,57,26,21,93,68,87,86,14,7,10,10,0.4,0.4
2022-04-09T22:00:00,1493A,87.5525,43.8711,乌鲁木齐市,铁路局,,43,43,104,20,24,90,70,86,84,27,14,5,7,0.6,0.6
2022-04-09T22:00:00,1494A,87.6432,43.831,乌鲁木齐市,三十一中学,,35,35,101,2,18,93,81,88,88,18,14,6,7,0.2,0.2
2022-04-09T22:00:00,1496A,87.7216,44.1747,乌鲁木齐市,米东区环保局,,36,36,111,7,17,100,81,95,94,2,2,6,7,0.1,0.2
2022-04-09T22:00:00,1508A,112.9433,27.8614,湘潭市,板塘,颗粒物(PM10),66,82,82,43,40,163,90,152,136,45,34,15,21,0.4,0.4
2022-04-09T22:00:00,1511A,112.9118,27.8403,湘潭市,市监测站,细颗粒物(PM2.5),69,81,72,50,43,143,75,131,112,60,37,15,21,1.3,1
2022-04-09T22:00:00,1512A,112.8937,27.8728,湘潭市,江麓,颗粒物(PM10),65,80,85,37,37,147,105,136,130,33,38,22,18,0.9,0.7
2022-04-09T22:00:00,1513A,112.9227,27.8159,湘潭市,岳塘,细颗粒物(PM2.5),83,97,80,61,37,162,77,156,138,42,31,16,18,1.7,0.8
2022-04-09T22:00:00,1514A,112.9074,27.9119,湘潭市,科大,颗粒物(PM10),69,87,85,39,37,165,114,153,144,30,40,10,13,0.7,0.7
2022-04-09T22:00:00,1515A,113.135,27.8244,株洲市,天台山庄,细颗粒物(PM2.5),75,69,62,55,36,162,90,151,134,44,31,12,13,0.6,0.5
2022-04-09T22:00:00,1518A,113.095,27.8867,株洲市,株冶医院,细颗粒物(PM2.5),85,106,71,63,38,185,31,173,133,78,49,7,12,0.5,0.6
2022-04-09T22:00:00,1519A,113.167,27.8667,株洲市,市四中,颗粒物(PM10),76,102,74,55,37,156,79,144,123,55,37,9,12,0.8,0.7
2022-04-09T22:00:00,1520A,113.143,27.8381,株洲市,火车站,细颗粒物(PM2.5),87,92,75,64,37,174,63,164,136,60,34,6,11,1.1,0.6
2022-04-09T22:00:00,1524A,113.13,27.8528,株洲市,市监测站,,,92,79,60,43,154,43,143,120,80,37,15,14,,0.8
2022-04-09T22:00:00,1552A,106.805,26.3003,贵阳市,桐木岭(对照点),细颗粒物(PM2.5),79,80,62,58,36,144,122,142,128,6,5,12,11,0.5,0.4
2022-04-09T22:00:00,1559A,113.251,27.8336,株洲市,大京风景区(对照点),,46,46,37,32,28,161,75,151,119,5,7,8,9,0.4,0.4
2022-04-09T22:00:00,1562A,113.0048,27.9153,湘潭市,昭山,细颗粒物(PM2.5),69,68,64,50,37,150,39,137,115,83,44,11,15,0.6,0.6
2022-04-09T22:00:00,1564A,112.4876,27.9164,湘潭市,韶山(对照点),细颗粒物(PM2.5),69,84,64,50,27,151,60,138,108,11,9,5,7,0.5,0.3
2022-04-09T22:00:00,1585A,109.8756,40.6532,包头市,市环境监测站,颗粒物(PM10),62,74,70,26,25,122,5,105,78,95,32,11,15,1.3,0.8
2022-04-09T22:00:00,1587A,109.9991,40.5842,包头市,包头八中,颗粒物(PM10),82,114,93,49,31,129,6,111,84,90,38,15,19,1.2,0.8
2022-04-09T22:00:00,1588A,109.8538,40.6821,包头市,青山宾馆,颗粒物(PM10),71,91,77,45,34,121,4,103,79,90,31,11,18,0.6,0.7
2022-04-09T22:00:00,1589A,109.8642,40.6288,包头市,惠龙物流,颗粒物(PM10),71,91,77,24,26,127,23,109,90,70,26,16,15,0.5,0.4
2022-04-09T22:00:00,1590A,110.0377,40.5546,包头市,东河鸿龙湾,颗粒物(PM10),67,84,75,37,26,137,18,116,95,78,29,17,17,1.2,0.5
2022-04-09T22:00:00,1591A,110.0023,39.8129,鄂尔多斯市,综合楼,颗粒物(PM10),82,114,94,46,38,121,34,115,100,79,25,12,8,0.8,0.5
2022-04-09T22:00:00,1592A,109.9486,39.8261,鄂尔多斯市,巴音孟克林场办事处,颗粒物(PM10),84,117,87,42,31,122,74,118,108,33,15,22,14,0.7,0.6
2022-04-09T22:00:00,1593A,109.7736,39.5986,鄂尔多斯市,康泽苑,颗粒物(PM10),95,139,98,39,26,130,70,124,115,32,11,6,4,0.6,0.4
2022-04-09T22:00:00,1594A,109.8119,39.5989,鄂尔多斯市,华泰汽车城,颗粒物(PM10),91,132,96,41,32,130,77,125,113,28,26,8,7,0.5,0.5
2022-04-09T22:00:00,1595A,109.9734,39.7884,鄂尔多斯市,奥林花园,颗粒物(PM10),82,114,99,34,32,117,5,113,81,103,42,16,9,0.8,0.4
2022-04-09T22:00:00,1597A,122.2703,40.7094,营口市,大庆路,细颗粒物(PM2.5),137,163,121,104,83,180,100,159,127,28,23,9,14,1.2,1.2
2022-04-09T22:00:00,1598A,122.215,40.6511,营口市,镜湖西路,颗粒物(PM10),92,133,106,59,44,167,113,148,137,31,20,9,8,1.2,0.9
2022-04-09T22:00:00,1599A,122.167,40.6655,营口市,西炮台,细颗粒物(PM2.5),88,86,74,65,53,165,121,152,129,20,19,7,7,0.9,0.8
2022-04-09T22:00:00,1600A,124.3303,40.0625,丹东市,江湾东路,颗粒物(PM10),64,78,52,39,26,142,113,133,129,20,10,13,9,0.8,0.6
2022-04-09T22:00:00,1601A,124.4256,40.1503,丹东市,临江后街,颗粒物(PM10),61,72,52,29,19,141,120,135,131,20,9,13,10,1.1,0.8
2022-04-09T22:00:00,1602A,124.3933,40.1461,丹东市,元宝山,颗粒物(PM10),61,72,56,34,23,134,124,131,130,16,13,13,12,1.1,0.8
2022-04-09T22:00:00,1603A,124.3633,40.1092,丹东市,民主桥,颗粒物(PM10),68,86,51,32,20,135,96,131,125,25,10,10,10,0.8,0.5
2022-04-09T22:00:00,1604A,122.0303,41.1489,盘锦市,开发区,细颗粒物(PM2.5),169,147,131,128,98,187,86,161,139,47,28,9,11,1.3,1.2
2022-04-09T22:00:00,1605A,122.0485,41.0883,盘锦市,兴隆台,细颗粒物(PM2.5),159,174,150,121,104,178,83,156,125,38,34,11,13,1.3,1.2
2022-04-09T22:00:00,1606A,121.8297,41.1028,盘锦市,新生街道,细颗粒物(PM2.5),139,143,109,106,76,190,78,155,134,36,27,67,17,1.1,1
2022-04-09T22:00:00,1607A,120.9092,40.7136,葫芦岛市,龙港区,细颗粒物(PM2.5),117,118,131,88,84,172,127,146,145,17,25,14,39,0.9,1.1
2022-04-09T22:00:00,1608A,120.8392,40.7514,葫芦岛市,化工街,颗粒物(PM10),88,126,122,57,56,174,121,149,147,18,22,9,14,0.9,0.8
2022-04-09T22:00:00,1609A,120.8341,40.7073,葫芦岛市,新区,细颗粒物(PM2.5),120,124,116,91,80,159,113,142,137,24,23,12,18,1.0,1
2022-04-09T22:00:00,1610A,120.8695,40.7677,葫芦岛市,东城区,细颗粒物(PM2.5),133,136,123,101,84,163,110,142,139,26,22,11,17,1.1,1.1
2022-04-09T22:00:00,1611A,118.5819,24.9117,泉州市,涂山街,,46,46,40,22,16,143,88,125,109,11,8,9,8,0.6,0.5
2022-04-09T22:00:00,1612A,118.5972,24.8978,泉州市,津头埔,颗粒物(PM10),51,52,40,25,15,138,79,122,104,16,10,10,8,0.6,0.5
2022-04-09T22:00:00,1613A,118.6663,24.9424,泉州市,万安,颗粒物(PM10),55,60,43,31,18,134,79,118,101,9,5,10,8,0.7,0.6
2022-04-09T22:00:00,1614A,118.6117,24.9604,泉州市,清源山(对照点),,46,46,43,19,17,140,92,126,111,10,7,8,8,0.6,0.6
2022-04-09T22:00:00,1616A,117.6795,36.229,济南市,技术学院,颗粒物(PM10),59,68,87,29,28,183,142,174,165,12,14,14,14,0.5,0.5
2022-04-09T22:00:00,1618A,118.3429,35.0532,临沂市,沂河小区,颗粒物(PM10),65,80,93,35,29,160,132,148,141,19,26,19,15,0.4,0.3
2022-04-09T22:00:00,1619A,118.295,35.0583,临沂市,鲁南制药厂,颗粒物(PM10),64,78,80,31,23,170,131,159,148,30,29,12,13,0.7,0.6
2022-04-09T22:00:00,1620A,118.2794,34.9976,临沂市,新光毛纺厂,颗粒物(PM10),68,85,92,32,25,153,128,143,134,19,24,8,14,0.6,0.5
2022-04-09T22:00:00,1621A,118.3956,35.0888,临沂市,河东保险公司,颗粒物(PM10),60,70,77,25,25,166,136,155,146,20,25,9,11,0.6,0.6
2022-04-09T22:00:00,1622A,116.3032,37.4674,德州市,儿童乐园,颗粒物(PM10),87,124,107,51,49,190,126,171,166,23,18,15,16,0.8,0.9
2022-04-09T22:00:00,1624A,116.2991,37.4451,德州市,监理站,,,128,111,48,44,187,,174,174,21,15,21,22,0.5,0.5
2022-04-09T22:00:00,1625A,115.9848,36.4372,聊城市,区政府,颗粒物(PM10),75,100,101,39,36,176,104,154,145,23,16,17,17,0.7,0.7
2022-04-09T22:00:00,1628A,118.0062,37.3803,滨州市,市环保局,颗粒物(PM10),104,158,111,67,43,230,81,208,182,41,24,22,16,2.9,2.7
2022-04-09T22:00:00,1629A,118.0018,37.3617,滨州市,第二水厂,颗粒物(PM10),91,131,102,61,38,190,67,173,150,43,21,15,14,1.1,0.8
2022-04-09T22:00:00,1630A,117.9776,37.393,滨州市,北中新校,细颗粒物(PM2.5),92,125,90,68,39,199,62,178,139,48,29,9,12,0.7,0.6
2022-04-09T22:00:00,1631A,118.0414,36.8103,淄博市,人民公园,颗粒物(PM10),64,78,95,32,32,176,131,163,148,14,12,8,10,0.3,0.3
2022-04-09T22:00:00,1633A,117.8525,36.4847,淄博市,双山,颗粒物(PM10),63,75,95,35,37,166,140,162,154,5,8,6,8,0.7,0.8
2022-04-09T22:00:00,1634A,117.9592,36.6331,淄博市,气象站,颗粒物(PM10),68,85,96,31,29,170,143,167,158,14,15,14,14,0.7,0.7
2022-04-09T22:00:00,1635A,118.3092,36.8194,淄博市,莆田园,颗粒物(PM10),69,88,110,34,37,174,127,168,142,13,14,11,13,1.0,0.8
2022-04-09T22:00:00,1637A,117.558,34.8438,枣庄市,市中区政府,颗粒物(PM10),68,85,91,27,29,177,113,167,149,21,22,30,12,0.7,0.7
2022-04-09T22:00:00,1638A,117.2852,34.7837,枣庄市,薛城环保局,颗粒物(PM10),68,85,87,31,29,159,110,155,138,22,16,10,12,0.3,0.3
2022-04-09T22:00:00,1639A,117.5852,34.7745,枣庄市,峄城区政府,颗粒物(PM10),67,83,86,29,26,171,115,153,136,19,22,11,16,0.4,0.4
2022-04-09T22:00:00,1640A,117.7276,34.5578,枣庄市,台儿庄区环保局,颗粒物(PM10),57,63,65,19,21,149,110,141,133,33,29,10,11,0.9,0.8
2022-04-09T22:00:00,1641A,117.4518,35.0992,枣庄市,山亭区环保局,,,70,71,24,26,168,142,165,148,36,34,15,19,,1.1
2022-04-09T22:00:00,1642A,121.2514,37.5639,烟台市,开发区,颗粒物(PM10),68,85,92,34,36,186,158,158,143,13,18,7,7,0.6,0.6
2022-04-09T22:00:00,1643A,121.3719,37.5433,烟台市,轴承厂,臭氧1小时,74,83,81,37,38,195,179,188,188,12,15,8,8,0.7,0.7
2022-04-09T22:00:00,1644A,121.3181,37.5436,烟台市,西郊化工站,,,,81,,35,189,172,168,161,10,15,9,10,,0.5
2022-04-09T22:00:00,1645A,121.4478,37.4822,烟台市,莱山环保局,颗粒物(PM10),70,90,88,41,39,192,160,183,180,17,18,7,8,0.7,0.7
2022-04-09T22:00:00,1646A,121.2611,37.4967,烟台市,福山环保局,臭氧1小时,75,80,93,34,39,202,180,189,189,8,17,9,9,0.8,0.8
2022-04-09T22:00:00,1650A,119.1437,36.7023,潍坊市,环保局,颗粒物(PM10),70,90,89,30,37,181,134,163,150,15,18,8,8,0.5,0.7
2022-04-09T22:00:00,1653A,116.6251,35.4302,济宁市,火炬城,颗粒物(PM10),62,74,78,24,25,176,126,162,150,11,7,13,11,0.6,0.8
2022-04-09T22:00:00,1655A,116.5491,35.4042,济宁市,电化厂,颗粒物(PM10),63,75,79,27,31,171,128,156,142,14,15,8,9,0.7,0.7
2022-04-09T22:00:00,1656A,117.1437,36.1937,泰安市,监测站,颗粒物(PM10),63,75,84,29,25,187,128,171,162,10,11,14,14,0.3,0.3
2022-04-09T22:00:00,1657A,117.0885,36.2017,泰安市,人口学校,颗粒物(PM10),64,78,82,24,25,166,127,156,150,8,10,5,6,0.5,0.5
2022-04-09T22:00:00,1658A,117.1089,36.1758,泰安市,电力学校,颗粒物(PM10),62,73,75,28,27,174,121,166,159,14,14,12,12,0.6,0.5
2022-04-09T22:00:00,1659A,119.471,35.4209,日照市,监测站,颗粒物(PM10),64,78,105,27,37,149,134,140,138,18,35,6,7,0.4,0.6
2022-04-09T22:00:00,1660A,119.523,35.4216,日照市,市政府广场,颗粒物(PM10),60,70,97,34,37,178,136,156,149,27,32,8,10,0.7,0.7
2022-04-09T22:00:00,1661A,119.5587,35.4044,日照市,港务局,颗粒物(PM10),69,88,114,30,33,166,115,140,129,52,43,7,8,0.8,0.9
2022-04-09T22:00:00,1662A,122.1214,37.4236,威海市,华夏技校,臭氧1小时,93,66,73,41,41,202,194,197,197,15,18,5,6,0.5,0.5
2022-04-09T22:00:00,1663A,122.0508,37.5236,威海市,山大分校,,,51,62,,,200,192,193,193,11,16,7,8,0.4,0.4
2022-04-09T22:00:00,1664A,122.1067,37.5072,威海市,市监测站,臭氧1小时,93,63,77,28,33,220,194,199,199,8,15,8,9,0.5,0.5
2022-04-09T22:00:00,1666A,118.6614,37.4309,东营市,市环保局,颗粒物(PM10),68,85,105,46,41,230,93,204,175,22,25,11,23,0.6,0.7
2022-04-09T22:00:00,1669A,113.5824,24.7733,韶关市,市八中,臭氧1小时,148,76,57,33,28,343,296,218,218,35,27,16,14,0.5,0.5
2022-04-09T22:00:00,1671A,113.5917,24.7972,韶关市,园林处,臭氧1小时,208,92,72,36,36,430,430,238,238,34,30,19,16,0.7,0.7
2022-04-09T22:00:00,1672A,113.6735,24.7791,韶关市,韶关学院,细颗粒物(PM2.5),69,82,57,50,36,219,113,197,179,24,24,13,18,0.7,0.8
2022-04-09T22:00:00,1673A,113.5971,24.6863,韶关市,曲江监测站,颗粒物(PM10),59,67,59,39,33,206,132,183,163,24,30,9,11,0.6,0.7
2022-04-09T22:00:00,1674A,116.6794,23.3667,汕头市,金平子站,颗粒物(PM10),54,57,66,19,25,157,109,139,128,15,24,8,16,0.5,0.6
2022-04-09T22:00:00,1675A,116.7244,23.3633,汕头市,龙湖子站,,34,30,52,20,20,142,107,125,118,15,23,6,10,0.5,0.5
2022-04-09T22:00:00,1676A,116.7258,23.2775,汕头市,濠江子站,,40,30,44,28,29,147,116,129,125,10,14,9,12,0.5,0.6
2022-04-09T22:00:00,1677A,116.7519,23.4714,汕头市,澄海子站,,44,44,59,24,25,155,110,140,130,16,22,8,12,0.5,0.5
2022-04-09T22:00:00,1678A,116.6092,23.2539,汕头市,潮阳子站,,46,46,50,19,16,156,111,135,128,15,16,10,13,0.4,0.5
2022-04-09T22:00:00,1680A,110.3539,21.2706,湛江市,湛江影剧院,,35,35,54,19,21,122,76,110,101,9,15,5,7,0.5,0.6
2022-04-09T22:00:00,1681A,110.3928,21.2228,湛江市,市环境监测站,,29,28,44,19,21,126,91,119,104,5,12,5,7,0.5,0.5
2022-04-09T22:00:00,1682A,110.4019,21.1997,湛江市,环保局宿舍,,34,34,43,17,21,124,91,113,100,4,13,3,5,0.4,0.5
2022-04-09T22:00:00,1683A,110.4111,21.2028,湛江市,霞山游泳场,,31,31,39,16,22,122,92,109,96,4,13,5,7,0.4,0.4
2022-04-09T22:00:00,1684A,110.3316,21.2679,湛江市,麻章区环保局,,,48,61,31,28,141,72,118,102,,18,6,10,0.5,0.5
2022-04-09T22:00:00,1685A,110.4558,21.2567,湛江市,坡头区环保局,,28,25,46,18,23,137,88,126,102,9,11,1,4,0.5,0.5
2022-04-09T22:00:00,1686A,111.0286,21.4688,茂名市,电白南海,,37,37,48,12,18,142,94,112,99,9,14,5,7,0.4,0.5
2022-04-09T22:00:00,1687A,110.9294,21.6533,茂名市,茂石化七小,,44,44,53,14,27,157,82,144,115,15,16,6,19,0.5,0.5
2022-04-09T22:00:00,1688A,110.9107,21.6687,茂名市,健康路,,46,46,53,20,24,164,87,151,122,8,12,8,20,0.5,0.6
2022-04-09T22:00:00,1689A,110.8592,21.6828,茂名市,高岭,,46,46,64,9,18,164,79,150,119,13,22,8,23,0.6,0.6
2022-04-09T22:00:00,1690A,116.1231,24.3284,梅州市,梅江月梅,颗粒物(PM10),60,70,56,29,26,164,128,153,146,21,25,15,10,0.5,0.4
2022-04-09T22:00:00,1691A,116.0797,24.2719,梅州市,梅县新城,,48,48,57,29,28,159,85,148,120,40,34,8,6,0.6,0.5
2022-04-09T22:00:00,1692A,116.1248,24.2654,梅州市,环境监控中心,颗粒物(PM10),52,54,55,29,27,158,80,149,121,41,36,7,9,0.6,0.5
2022-04-09T22:00:00,1693A,115.3653,22.775,汕尾市,市环保局,,35,26,36,16,16,122,109,118,117,8,10,7,8,0.5,0.5
2022-04-09T22:00:00,1694A,115.3706,22.7898,汕尾市,市政府,,45,45,43,21,18,142,101,134,130,18,9,6,6,0.4,0.4
2022-04-09T22:00:00,1695A,115.3622,22.7925,汕尾市,新城中学,,43,43,38,22,18,136,94,122,116,13,7,5,5,0.5,0.4
2022-04-09T22:00:00,1696A,114.6778,23.7569,河源市,源西(对照点),颗粒物(PM10),65,79,57,36,25,194,78,171,138,47,25,4,5,0.8,0.6
2022-04-09T22:00:00,1697A,114.6944,23.7586,河源市,东埔,颗粒物(PM10),74,97,57,44,27,175,84,159,136,45,23,5,5,0.9,0.7
2022-04-09T22:00:00,1698A,114.6892,23.7233,河源市,老城,颗粒物(PM10),83,116,59,39,26,214,80,187,143,55,26,4,4,0.8,0.6
2022-04-09T22:00:00,1699A,111.9797,21.8593,阳江市,鸳鸯湖(对照点),,36,29,45,20,24,159,113,144,113,4,13,6,7,0.3,0.4
2022-04-09T22:00:00,1701A,111.9491,21.8658,阳江市,马南垌,,44,44,46,24,24,157,104,131,111,7,16,5,6,0.5,0.5
2022-04-09T22:00:00,1702A,113.0426,23.691,清远市,环保大楼(对照点),细颗粒物(PM2.5),72,77,71,52,47,256,86,221,187,53,27,9,10,0.9,0.7
2022-04-09T22:00:00,1703A,113.0208,23.7106,清远市,凤城街办,颗粒物(PM10),63,76,69,36,38,226,94,190,158,43,31,8,10,1.1,0.8
2022-04-09T22:00:00,1705A,116.6367,23.6719,潮州市,西园路(对照点),颗粒物(PM10),64,77,56,30,27,162,86,145,123,20,16,18,17,0.8,0.6
2022-04-09T22:00:00,1706A,116.6447,23.6706,潮州市,档案局,颗粒物(PM10),62,73,54,35,28,161,82,139,117,22,17,16,14,0.8,0.6
2022-04-09T22:00:00,1708A,116.3701,23.5345,揭阳市,新兴,细颗粒物(PM2.5),67,67,58,48,32,177,82,148,122,23,22,9,12,0.9,0.8
2022-04-09T22:00:00,1709A,116.3264,23.5443,揭阳市,西马,颗粒物(PM10),62,73,68,28,31,174,89,150,128,16,19,8,10,0.7,0.6
2022-04-09T22:00:00,1710A,116.3611,23.5626,揭阳市,东兴,颗粒物(PM10),64,78,70,32,27,165,81,142,121,23,26,9,15,0.7,0.7
2022-04-09T22:00:00,1711A,116.4151,23.5294,揭阳市,渔湖,,50,50,48,28,26,174,79,138,115,14,20,8,11,0.5,0.5
2022-04-09T22:00:00,1712A,112.0392,22.9169,云浮市,新市府(对照点),,46,46,43,25,29,173,102,162,144,11,11,6,6,0.4,0.4
2022-04-09T22:00:00,1714A,112.0539,22.9539,云浮市,牧羊,颗粒物(PM10),81,112,70,38,33,190,82,175,153,60,27,14,12,0.5,0.5
2022-04-09T22:00:00,1715A,102.575,24.3711,玉溪市,东风水库,颗粒物(PM10),56,61,41,35,30,131,84,123,112,14,13,8,7,0.9,0.9
2022-04-09T22:00:00,1718A,115.4208,35.2464,菏泽市,气象局,颗粒物(PM10),73,96,106,35,33,152,122,144,136,16,15,8,11,0.5,0.4
2022-04-09T22:00:00,1719A,115.4747,35.2375,菏泽市,市政协,颗粒物(PM10),72,94,105,33,31,145,128,141,138,13,14,12,15,0.3,0.3
2022-04-09T22:00:00,1721A,113.3819,40.1097,大同市,果树场(对照点),颗粒物(PM10),83,116,99,31,33,130,44,115,93,41,18,14,15,0.6,0.5
2022-04-09T22:00:00,1723A,113.2994,40.0758,大同市,云冈宾馆,颗粒物(PM10),88,126,120,56,47,129,38,117,94,62,32,23,21,0.9,0.8
2022-04-09T22:00:00,1724A,113.3444,40.0917,大同市,大同大学,颗粒物(PM10),93,136,119,40,30,125,67,117,103,43,23,26,23,0.3,0.3
2022-04-09T22:00:00,1725A,113.2661,40.1269,大同市,安家小村,颗粒物(PM10),84,117,127,22,27,126,70,123,110,41,18,62,22,0.4,0.6
2022-04-09T22:00:00,1726A,113.2711,40.0844,大同市,教育学院,颗粒物(PM10),112,173,143,44,32,118,28,104,81,68,30,30,21,0.7,0.5
2022-04-09T22:00:00,1727A,113.1147,36.1547,长治市,清华站,颗粒物(PM10),73,96,83,22,34,140,125,134,122,19,28,11,10,0.4,0.5
2022-04-09T22:00:00,1728A,113.1031,36.1989,长治市,监测站,颗粒物(PM10),69,88,80,24,35,142,126,137,122,12,16,9,9,0.7,0.7
2022-04-09T22:00:00,1730A,113.0886,36.2125,长治市,审计局,颗粒物(PM10),70,90,84,22,35,140,114,132,112,18,22,9,10,0.8,0.9
2022-04-09T22:00:00,1731A,113.0844,36.1856,长治市,长治八中,颗粒物(PM10),82,114,103,37,36,139,114,136,114,22,22,12,13,0.7,0.7
2022-04-09T22:00:00,1733A,111.5531,36.0783,临汾市,临钢医院,颗粒物(PM10),103,155,97,63,49,175,58,153,130,,38,10,18,1.2,1.1
2022-04-09T22:00:00,1734A,111.5028,36.0714,临汾市,技工学校,颗粒物(PM10),97,144,103,64,44,173,34,152,124,70,41,14,25,0.6,0.7
2022-04-09T22:00:00,1736A,111.5018,36.0855,临汾市,市委,颗粒物(PM10),86,122,96,48,39,164,38,143,117,60,41,12,23,1.1,1.2
2022-04-09T22:00:00,1738A,113.5758,37.8572,阳泉市,市中心,细颗粒物(PM2.5),149,222,130,114,63,218,166,166,166,31,36,39,26,1.2,0.8
2022-04-09T22:00:00,1739A,113.4894,37.8731,阳泉市,赛鱼,细颗粒物(PM2.5),124,146,99,94,46,211,164,164,164,33,42,20,28,0.9,0.8
2022-04-09T22:00:00,1740A,113.5819,37.8486,阳泉市,南庄,颗粒物(PM10),135,220,139,94,51,231,178,172,172,26,39,24,27,1.0,0.9
2022-04-09T22:00:00,1742A,113.5614,37.8703,阳泉市,平坦,细颗粒物(PM2.5),147,220,127,112,59,216,178,171,171,27,37,12,22,1.1,0.9
2022-04-09T22:00:00,1743A,113.5158,37.8392,阳泉市,大阳泉,细颗粒物(PM2.5),163,189,104,124,46,218,177,168,168,25,24,14,19,0.9,0.6
2022-04-09T22:00:00,1744A,118.9233,42.2816,赤峰市,松山一中,,45,45,39,23,11,119,64,107,92,40,27,16,16,0.8,0.6
2022-04-09T22:00:00,1745A,118.9576,42.2728,赤峰市,哈达街,颗粒物(PM10),53,56,41,20,11,125,83,112,102,23,19,9,14,0.7,0.5
2022-04-09T22:00:00,1746A,118.8788,42.2554,赤峰市,天义路,,48,48,37,12,10,123,45,113,93,55,24,12,12,0.9,0.6
2022-04-09T22:00:00,1748A,123.044,41.1196,鞍山市,深沟寺,颗粒物(PM10),56,62,72,29,46,159,159,138,138,8,11,8,9,0.7,0.8
2022-04-09T22:00:00,1749A,123.011,41.0931,鞍山市,太阳城,颗粒物(PM10),58,66,81,27,48,162,162,156,139,12,15,7,8,0.6,0.8
2022-04-09T22:00:00,1750A,123.0485,41.1442,鞍山市,太平,颗粒物(PM10),63,76,84,27,47,151,151,126,126,11,18,11,11,0.6,0.7
2022-04-09T22:00:00,1751A,122.9642,41.0971,鞍山市,铁西三道街,颗粒物(PM10),53,56,94,26,53,152,149,145,132,13,19,9,11,0.8,1.1
2022-04-09T22:00:00,1752A,122.9341,41.0833,鞍山市,铁西工业园区,臭氧1小时,57,54,97,27,57,165,165,151,151,9,18,10,13,0.7,1.4
2022-04-09T22:00:00,1753A,123.022,41.0821,鞍山市,明达新区,,50,50,79,25,47,158,158,151,136,7,11,8,8,0.7,0.8
2022-04-09T22:00:00,1754A,123.1289,41.0228,鞍山市,千山(对照点),,47,47,52,31,39,129,129,117,117,10,11,9,9,0.8,0.8
2022-04-09T22:00:00,1755A,123.7977,41.8491,抚顺市,望花区,颗粒物(PM10),72,94,95,48,65,161,96,135,119,24,17,27,20,0.6,0.9
2022-04-09T22:00:00,1756A,123.9161,41.8822,抚顺市,顺城区,颗粒物(PM10),77,103,92,49,60,150,104,139,123,22,21,12,10,0.6,0.8
2022-04-09T22:00:00,1757A,124.0436,41.8611,抚顺市,东洲区,颗粒物(PM10),72,94,91,42,53,148,125,140,131,9,13,6,8,0.7,0.8
2022-04-09T22:00:00,1758A,123.9247,41.8642,抚顺市,新抚区,细颗粒物(PM2.5),77,96,84,56,66,164,85,160,128,26,15,22,17,1.0,1
2022-04-09T22:00:00,1759A,124.0972,41.8961,抚顺市,大伙房水库,颗粒物(PM10),67,84,76,44,53,164,146,160,154,10,8,8,6,0.5,0.5
2022-04-09T22:00:00,1760A,123.7086,41.8391,抚顺市,沈抚新城,颗粒物(PM10),79,108,99,56,65,160,107,148,124,16,18,16,16,1.4,1.5
2022-04-09T22:00:00,1761A,123.8275,41.3064,本溪市,大峪,颗粒物(PM10),63,75,78,24,43,151,144,140,132,12,16,15,14,0.7,0.8
2022-04-09T22:00:00,1762A,123.7567,41.3325,本溪市,溪湖,颗粒物(PM10),56,61,82,27,48,139,138,124,124,19,31,16,23,0.8,1.3
2022-04-09T22:00:00,1763A,123.7169,41.3094,本溪市,彩屯,颗粒物(PM10),73,96,110,50,67,116,95,98,93,56,46,48,38,3.7,2.5
2022-04-09T22:00:00,1764A,123.7669,41.2864,本溪市,东明,颗粒物(PM10),53,56,57,22,33,148,148,137,133,9,13,8,7,0.7,0.7
2022-04-09T22:00:00,1765A,123.7992,41.2664,本溪市,新立屯,颗粒物(PM10),55,60,76,24,38,162,160,145,145,5,8,10,9,0.6,0.6
2022-04-09T22:00:00,1766A,123.8142,41.3472,本溪市,威宁,颗粒物(PM10),70,90,77,36,45,126,114,114,105,17,18,13,14,0.8,0.9
2022-04-09T22:00:00,1767A,121.1115,41.0879,锦州市,南山,细颗粒物(PM2.5),158,147,116,120,89,149,101,132,128,25,17,12,10,1.0,0.9
2022-04-09T22:00:00,1768A,121.0533,40.8434,锦州市,开发区,细颗粒物(PM2.5),132,161,126,100,80,169,83,125,117,48,25,19,13,0.9,0.8
2022-04-09T22:00:00,1769A,121.1836,41.1119,锦州市,百股街道,细颗粒物(PM2.5),139,122,113,106,90,161,116,140,138,20,19,11,11,1.1,0.9
2022-04-09T22:00:00,1770A,121.1178,41.1222,锦州市,天安街道,细颗粒物(PM2.5),143,168,122,109,82,170,121,148,146,27,24,15,12,1.2,1
2022-04-09T22:00:00,1771A,121.1303,41.1386,锦州市,北湖公园,细颗粒物(PM2.5),147,140,110,112,83,154,112,134,132,25,20,15,11,1.0,0.8
2022-04-09T22:00:00,1772A,126.54,43.8622,吉林市,哈达湾,颗粒物(PM10),52,54,88,30,44,144,98,137,112,17,12,5,6,0.6,0.6
2022-04-09T22:00:00,1773A,126.5844,43.8358,吉林市,东局子,颗粒物(PM10),56,61,87,37,46,142,90,136,110,17,11,5,6,0.7,0.7
2022-04-09T22:00:00,1774A,126.5052,43.8245,吉林市,电力学院,细颗粒物(PM2.5),169,179,99,128,48,156,44,145,108,38,14,14,12,1.5,0.8
2022-04-09T22:00:00,1775A,126.6133,43.8972,吉林市,江北,细颗粒物(PM2.5),70,83,103,51,53,142,57,134,95,25,14,10,12,0.9,0.7
2022-04-09T22:00:00,1776A,126.555,43.8306,吉林市,江南公园,,43,43,82,30,46,134,93,129,105,15,10,6,8,0.7,0.7
2022-04-09T22:00:00,1778A,126.7061,43.7133,吉林市,丰满(对照点),,35,34,67,24,42,146,87,144,111,7,7,5,6,0.5,0.7
2022-04-09T22:00:00,1779A,123.9305,47.3636,齐齐哈尔市,安居小区,细颗粒物(PM2.5),97,106,76,72,46,155,98,133,118,22,26,30,16,0.6,0.7
2022-04-09T22:00:00,1780A,123.9488,47.3386,齐齐哈尔市,中心广场,细颗粒物(PM2.5),102,112,72,76,50,143,83,123,107,23,21,104,50,0.5,0.6
2022-04-09T22:00:00,1781A,123.9483,47.3227,齐齐哈尔市,农牧车辆厂,细颗粒物(PM2.5),92,95,81,68,45,142,103,125,118,10,24,6,24,0.3,0.5
2022-04-09T22:00:00,1783A,123.945,47.2988,齐齐哈尔市,市环境监测站,细颗粒物(PM2.5),90,89,78,67,58,124,82,112,103,14,22,5,13,0.6,0.7
2022-04-09T22:00:00,1784A,129.61,44.561,牡丹江市,环保大楼,颗粒物(PM10),52,53,72,28,31,116,74,111,96,14,12,3,4,0.4,0.5
2022-04-09T22:00:00,1785A,129.6115,44.5782,牡丹江市,文化广场,颗粒物(PM10),61,71,71,40,30,116,59,113,96,23,12,10,6,0.6,0.4
2022-04-09T22:00:00,1786A,129.5904,44.5963,牡丹江市,第一医院,颗粒物(PM10),61,71,77,42,41,113,70,109,93,20,15,5,6,0.8,0.7
2022-04-09T22:00:00,1787A,129.6364,44.6075,牡丹江市,机车工厂,颗粒物(PM10),52,53,72,21,22,114,59,109,96,22,16,8,11,0.5,0.4
2022-04-09T22:00:00,1788A,129.6386,44.5462,牡丹江市,第一中学,颗粒物(PM10),52,53,65,23,29,118,82,116,98,13,14,2,4,0.4,0.4
2022-04-09T22:00:00,1789A,124.81117,46.03138,大庆市,大同区,细颗粒物(PM2.5),57,44,78,40,56,135,75,116,103,14,14,5,6,1.0,1.1
2022-04-09T22:00:00,1790A,125.129,46.533,大庆市,龙凤区,细颗粒物(PM2.5),60,53,64,43,39,124,85,108,104,12,18,5,10,0.4,0.5
2022-04-09T22:00:00,1791A,124.902,46.408,大庆市,红岗区,颗粒物(PM10),52,53,59,23,35,147,75,117,106,7,15,4,6,1.0,1.2
2022-04-09T22:00:00,1792A,125.153,46.586,大庆市,萨尔图区,细颗粒物(PM2.5),69,40,60,50,59,126,83,114,110,23,19,13,10,0.4,0.5
2022-04-09T22:00:00,1793A,124.9042,46.6215,大庆市,让胡路区,,50,50,59,25,35,135,90,123,118,12,20,5,6,0.9,1
2022-04-09T22:00:00,1794A,118.3606,31.3519,芜湖市,监测站,颗粒物(PM10),88,126,80,20,14,163,12,152,108,126,47,16,13,0.9,0.6
2022-04-09T22:00:00,1795A,118.3714,31.4134,芜湖市,科创中心,颗粒物(PM10),77,103,84,53,37,163,41,148,107,88,64,8,10,0.8,0.7
2022-04-09T22:00:00,1796A,118.3673,31.3131,芜湖市,四水厂,颗粒物(PM10),78,105,83,18,14,156,18,144,100,130,48,14,10,1.0,0.6
2022-04-09T22:00:00,1798A,118.5092,31.6837,马鞍山市,湖东路四小,颗粒物(PM10),60,70,68,30,32,184,136,166,146,24,21,12,11,0.6,0.7
2022-04-09T22:00:00,1799A,118.5024,31.6449,马鞍山市,开发区,颗粒物(PM10),65,80,95,33,29,174,78,155,119,75,56,12,11,0.7,0.9
2022-04-09T22:00:00,1800A,118.5228,31.7231,马鞍山市,慈湖,颗粒物(PM10),81,112,84,50,36,167,53,153,109,94,32,15,12,0.7,0.7
2022-04-09T22:00:00,1802A,118.6245,31.7241,马鞍山市,濮塘(对照点),,49,49,62,22,31,150,135,137,135,7,13,9,12,0.2,0.4
2022-04-09T22:00:00,1803A,115.9872,29.6815,九江市,十里,颗粒物(PM10),74,98,69,42,26,167,17,158,131,92,49,8,9,1.2,0.6
2022-04-09T22:00:00,1804A,115.9584,29.7046,九江市,茅山头,颗粒物(PM10),90,130,74,39,30,150,10,146,116,102,51,5,6,0.7,0.5
2022-04-09T22:00:00,1805A,115.9877,29.7295,九江市,西园,颗粒物(PM10),61,72,66,34,31,153,88,137,130,49,54,12,13,0.4,0.6
2022-04-09T22:00:00,1806A,116.0172,29.6547,九江市,五七二七厂,颗粒物(PM10),52,54,51,20,20,162,123,148,146,3,13,7,7,0.4,0.4
2022-04-09T22:00:00,1808A,115.9114,29.6038,九江市,综合工业园,颗粒物(PM10),67,83,60,31,26,176,113,163,150,30,28,13,14,0.4,0.5
2022-04-09T22:00:00,1809A,116.0721,29.7535,九江市,石化总厂,颗粒物(PM10),65,79,63,35,24,184,119,160,154,40,30,30,20,0.3,0.3
2022-04-09T22:00:00,1810A,115.9773,29.5698,九江市,庐山气象台(对照点),,49,49,42,20,19,181,156,162,162,7,5,10,6,0.3,0.2
2022-04-09T22:00:00,1812A,112.3931,34.6516,洛阳市,市委党校,颗粒物(PM10),56,62,104,20,42,160,87,141,126,22,31,14,7,0.6,0.7
2022-04-09T22:00:00,1814A,112.4657,34.6871,洛阳市,豫西宾馆,,49,49,110,30,48,168,90,149,133,23,38,14,11,0.8,1
2022-04-09T22:00:00,1815A,112.494,34.6886,洛阳市,河南林校,颗粒物(PM10),56,62,104,17,40,170,90,151,130,20,30,10,9,0.4,0.5
2022-04-09T22:00:00,1816A,112.3844,34.623,洛阳市,开发区管委会,颗粒物(PM10),51,52,95,22,41,153,67,134,115,36,28,11,7,0.3,0.4
2022-04-09T22:00:00,1817A,112.4267,34.6258,洛阳市,市委新办公区,颗粒物(PM10),58,66,101,19,39,156,87,148,127,23,23,12,7,0.4,0.5
2022-04-09T22:00:00,1818A,114.4839,36.0621,安阳市,棉研所(对照点),颗粒物(PM10),71,92,117,33,39,127,82,110,103,19,21,7,9,0.7,0.9
2022-04-09T22:00:00,1819A,114.3551,36.1017,安阳市,红庙街,颗粒物(PM10),81,112,141,39,58,153,102,137,133,21,40,12,20,0.5,1
2022-04-09T22:00:00,1820A,114.361,36.0681,安阳市,银杏小区,,,94,130,,,153,104,140,136,19,38,10,21,0.7,1.2
2022-04-09T22:00:00,1824A,114.3389,34.7781,开封市,肿瘤医院,颗粒物(PM10),71,91,91,28,34,173,98,155,137,11,13,8,14,0.5,0.5
2022-04-09T22:00:00,1826A,114.2885,34.7965,开封市,世纪星幼儿园,颗粒物(PM10),71,92,91,26,27,180,94,161,140,16,19,8,17,0.8,0.8
2022-04-09T22:00:00,1828A,113.2269,35.2127,焦作市,市环保局,颗粒物(PM10),66,82,104,36,56,181,107,174,148,29,19,9,13,0.8,0.8
2022-04-09T22:00:00,1829A,113.2467,35.176,焦作市,高新区政府,颗粒物(PM10),77,104,117,46,61,168,80,153,132,45,38,20,16,0.2,0.3
2022-04-09T22:00:00,1830A,113.1987,35.2703,焦作市,影视城(对照点),颗粒物(PM10),60,70,75,17,37,173,136,162,155,6,7,14,15,0.8,0.9
2022-04-09T22:00:00,1832A,113.3257,33.742,平顶山市,新华旅馆,颗粒物(PM10),67,84,86,46,42,177,143,162,148,13,12,5,5,0.4,0.4
2022-04-09T22:00:00,1833A,113.2919,33.737,平顶山市,规划设计院,颗粒物(PM10),64,78,79,33,28,173,130,157,144,12,9,6,6,0.4,0.3
2022-04-09T22:00:00,1834A,113.182,33.774,平顶山市,平顶山工学院,颗粒物(PM10),62,73,76,40,33,169,136,156,143,9,8,9,10,0.5,0.5
2022-04-09T22:00:00,1835A,111.1922,34.7752,三门峡市,市政府,颗粒物(PM10),84,118,101,31,37,168,55,143,106,45,44,7,12,0.5,0.7
2022-04-09T22:00:00,1836A,111.1587,34.7942,三门峡市,开发区,颗粒物(PM10),99,148,108,39,38,170,36,146,118,62,33,11,14,0.5,0.4
2022-04-09T22:00:00,1838A,111.143,34.7955,三门峡市,风景区(对照点),颗粒物(PM10),78,105,102,24,28,167,70,147,128,31,28,8,12,0.5,0.6
2022-04-09T22:00:00,1840A,111.2992,30.6981,宜昌市,白龙岗,颗粒物(PM10),60,70,65,36,26,163,102,137,122,32,33,9,7,0.3,0.3
2022-04-09T22:00:00,1841A,111.3549,30.6465,宜昌市,伍家岗,颗粒物(PM10),61,71,64,34,29,164,61,136,116,53,43,7,6,0.6,0.5
2022-04-09T22:00:00,1842A,111.2628,30.6961,宜昌市,点军区,颗粒物(PM10),70,89,70,27,28,163,81,145,133,48,31,11,9,0.5,0.5
2022-04-09T22:00:00,1843A,111.3275,30.7819,宜昌市,夷陵区,颗粒物(PM10),66,81,66,24,25,168,94,141,130,28,25,5,4,0.3,0.3
2022-04-09T22:00:00,1844A,112.2494,30.3197,荆州市,市图书馆,颗粒物(PM10),63,76,78,31,26,167,133,156,152,26,23,21,14,0.6,0.6
2022-04-09T22:00:00,1845A,112.2008,30.3544,荆州市,市委党校,颗粒物(PM10),66,81,69,36,38,169,134,159,157,31,21,16,14,0.6,0.6
2022-04-09T22:00:00,1847A,113.1094,29.3578,岳阳市,南湖风景区,颗粒物(PM10),75,100,64,48,28,158,82,150,125,70,37,18,13,0.7,0.5
2022-04-09T22:00:00,1848A,113.1493,29.4251,岳阳市,城陵矶,颗粒物(PM10),62,74,65,32,25,157,61,150,137,87,23,25,18,0.7,0.5
2022-04-09T22:00:00,1849A,113.1497,29.3575,岳阳市,开发区,颗粒物(PM10),78,106,88,34,28,171,90,167,144,50,20,22,14,0.6,0.4
2022-04-09T22:00:00,1850A,113.2621,29.4758,岳阳市,云溪区,颗粒物(PM10),59,67,54,35,25,157,144,148,144,14,13,11,11,0.4,0.3
2022-04-09T22:00:00,1851A,112.9943,29.4402,岳阳市,君山区,颗粒物(PM10),62,74,66,34,30,173,133,163,153,25,16,21,13,0.6,0.6
2022-04-09T22:00:00,1852A,113.2117,29.355,岳阳市,金凤水库(对照点),颗粒物(PM10),65,80,61,29,26,153,119,146,133,23,21,7,10,0.4,0.4
2022-04-09T22:00:00,1854A,111.6975,28.9703,常德市,市二中,,50,50,59,29,31,155,120,146,138,7,13,6,10,0.9,0.9
2022-04-09T22:00:00,1857A,111.7158,29.1456,常德市,白鹤山(对照点),颗粒物(PM10),63,76,68,33,28,151,134,144,139,7,8,10,7,0.5,0.5
2022-04-09T22:00:00,1858A,110.5319,29.1217,张家界市,永定新区,颗粒物(PM10),57,64,61,31,28,159,101,147,137,14,15,2,3,0.2,0.2
2022-04-09T22:00:00,1859A,110.4697,29.1242,张家界市,电业局,,44,44,44,28,25,144,98,134,125,12,13,6,7,0.2,0.2
2022-04-09T22:00:00,1860A,110.5594,29.3547,张家界市,未央路,颗粒物(PM10),53,56,49,21,13,130,92,125,117,6,6,3,3,0.3,0.2
2022-04-09T22:00:00,1861A,110.4417,29.315,张家界市,袁家界(对照点),,41,41,45,22,17,148,130,143,141,2,3,5,5,0.2,0.1
2022-04-09T22:00:00,1862A,110.4144,25.3167,桂林市,电子科大尧山校区(对照点),细颗粒物(PM2.5),104,91,68,78,52,170,81,160,135,13,7,17,17,0.8,0.6
2022-04-09T22:00:00,1863A,110.2819,25.2697,桂林市,监测站,细颗粒物(PM2.5),94,81,86,70,59,166,145,159,154,15,17,8,17,0.8,0.8
2022-04-09T22:00:00,1864A,110.3089,25.2708,桂林市,龙隐路小学,细颗粒物(PM2.5),85,84,64,63,44,164,113,156,140,20,22,7,18,0.9,0.8
2022-04-09T22:00:00,1865A,110.2869,25.2178,桂林市,八中,细颗粒物(PM2.5),87,63,77,64,56,168,133,161,157,23,19,8,13,0.8,0.8
2022-04-09T22:00:00,1866A,109.2262,21.588,北海市,牛尾岭水库(对照点),颗粒物(PM10),51,52,48,27,30,161,69,142,115,21,13,5,8,0.6,0.7
2022-04-09T22:00:00,1867A,109.1436,21.4086,北海市,海滩公园,,43,41,49,15,25,163,136,149,141,9,11,6,9,0.4,0.5
2022-04-09T22:00:00,1868A,109.0981,21.4661,北海市,新市环保局,,50,50,49,24,32,156,127,145,132,10,9,5,7,0.5,0.6
2022-04-09T22:00:00,1869A,109.1778,21.5233,北海市,北海工业园,颗粒物(PM10),56,61,61,32,35,171,113,148,131,15,15,8,15,0.7,0.7
2022-04-09T22:00:00,1870A,109.4856,24.3895,柳州市,柳东小学,细颗粒物(PM2.5),67,81,88,48,64,194,161,183,178,13,26,8,20,0.8,0.9
2022-04-09T22:00:00,1871A,109.4157,24.3277,柳州市,环保监测站,细颗粒物(PM2.5),70,72,89,51,51,187,111,176,159,35,41,8,11,0.8,0.8
2022-04-09T22:00:00,1872A,109.389,24.341,柳州市,河西水厂,颗粒物(PM10),65,79,107,46,60,187,125,178,162,31,44,10,20,1.0,1.1
2022-04-09T22:00:00,1873A,109.4311,24.2921,柳州市,市四中,细颗粒物(PM2.5),73,87,93,53,47,184,105,173,153,37,38,8,10,0.9,0.8
2022-04-09T22:00:00,1874A,109.4006,24.3631,柳州市,市九中,颗粒物(PM10),85,119,111,17,43,174,61,166,138,61,37,7,12,0.8,0.6
2022-04-09T22:00:00,1875A,109.4958,24.3134,柳州市,古亭山,颗粒物(PM10),58,66,75,37,49,178,82,165,139,36,40,5,10,0.6,0.6
2022-04-09T22:00:00,1876A,109.5078,18.2489,三亚市,河东子站,,32,32,36,16,20,132,69,115,92,4,4,4,4,0.5,0.5
2022-04-09T22:00:00,1877A,109.4964,18.2681,三亚市,河西子站,,28,28,35,19,23,132,74,121,97,4,4,6,7,0.4,0.4
2022-04-09T22:00:00,1878A,104.7778,31.4741,绵阳市,富乐山,颗粒物(PM10),58,66,64,39,39,176,125,158,155,35,28,6,6,1.0,0.9
2022-04-09T22:00:00,1879A,104.7563,31.4535,绵阳市,市人大,,,,70,,42,165,,155,155,143,51,8,6,1.4,0.6
2022-04-09T22:00:00,1880A,104.6697,31.4668,绵阳市,高新区自来水公司,颗粒物(PM10),101,152,81,48,44,179,,157,157,126,44,11,8,1.1,0.8
2022-04-09T22:00:00,1881A,104.7287,31.5075,绵阳市,三水厂,颗粒物(PM10),72,93,79,49,46,171,16,150,129,109,42,5,5,1.3,0.9
2022-04-09T22:00:00,1882A,104.563,28.793,宜宾市,石马中学(对照点),细颗粒物(PM2.5),72,78,79,52,54,143,62,123,117,39,30,9,11,0.7,0.7
2022-04-09T22:00:00,1883A,104.6201,28.7728,宜宾市,市委,细颗粒物(PM2.5),80,96,87,59,54,143,4,115,104,94,50,8,11,1.2,0.8
2022-04-09T22:00:00,1884A,104.6055,28.793,宜宾市,宜宾四中,细颗粒物(PM2.5),80,98,95,59,56,145,33,120,108,85,46,10,11,1.0,0.8
2022-04-09T22:00:00,1885A,104.639,28.7562,宜宾市,市政府,细颗粒物(PM2.5),80,100,97,59,53,139,8,113,103,105,58,12,13,1.0,0.7
2022-04-09T22:00:00,1886A,104.5742,28.7199,宜宾市,黄金嘴,细颗粒物(PM2.5),77,86,77,56,49,137,33,115,100,55,40,10,13,0.8,0.7
2022-04-09T22:00:00,1888A,101.6891,26.571,攀枝花市,弄弄坪,细颗粒物(PM2.5),53,53,71,37,39,143,84,129,124,27,29,14,17,1.0,1.8
2022-04-09T22:00:00,1889A,101.5769,26.5928,攀枝花市,河门口,颗粒物(PM10),56,62,57,34,34,125,73,121,113,42,26,24,16,2.1,1.4
2022-04-09T22:00:00,1890A,101.7169,26.585,攀枝花市,炳草岗,细颗粒物(PM2.5),64,75,60,46,44,136,42,116,107,76,51,17,21,1.5,1.6
2022-04-09T22:00:00,1891A,101.7369,26.5008,攀枝花市,仁和,细颗粒物(PM2.5),52,50,49,36,34,136,64,126,110,26,20,6,9,0.8,0.8
2022-04-09T22:00:00,1893A,105.4324,28.9634,泸州市,九狮山(对照点),颗粒物(PM10),64,78,84,43,45,147,46,127,108,30,22,8,14,0.5,0.5
2022-04-09T22:00:00,1894A,105.4427,28.9063,泸州市,小市上码头,颗粒物(PM10),67,83,91,40,54,146,70,129,121,42,35,17,22,0.6,0.7
2022-04-09T22:00:00,1895A,105.4241,28.8573,泸州市,兰田宪桥,颗粒物(PM10),70,89,91,27,45,146,34,132,115,57,27,10,17,0.9,0.7
2022-04-09T22:00:00,1896A,105.4379,28.8833,泸州市,市环监站,,,74,94,33,45,144,56,130,112,,33,10,21,0.7,0.6
2022-04-09T22:00:00,1901A,104.4239,31.1208,德阳市,东山公园,颗粒物(PM10),86,122,89,52,49,192,85,173,163,59,33,11,9,0.8,0.6
2022-04-09T22:00:00,1902A,104.3826,31.1317,德阳市,西小区,颗粒物(PM10),98,146,95,70,53,196,22,171,143,136,47,14,9,1.4,0.7
2022-04-09T22:00:00,1904A,104.3553,31.1091,德阳市,耐火材料厂,颗粒物(PM10),158,266,120,103,67,203,22,176,152,132,46,9,10,0.9,0.6
2022-04-09T22:00:00,1905A,106.056,30.8064,南充市,西山风景区(对照点),颗粒物(PM10),67,84,63,45,38,147,125,136,134,13,13,15,7,0.8,0.6
2022-04-09T22:00:00,1906A,106.0789,30.8023,南充市,南充市委,细颗粒物(PM2.5),73,83,70,53,37,142,107,129,125,22,16,13,5,0.6,0.5
2022-04-09T22:00:00,1907A,106.1031,30.8217,南充市,南充炼油厂,颗粒物(PM10),70,90,77,45,36,182,128,159,153,19,16,14,5,0.6,0.5
2022-04-09T22:00:00,1908A,106.1064,30.7856,南充市,高坪区监测站,细颗粒物(PM2.5),82,78,67,60,42,146,118,135,132,14,31,26,7,0.7,0.6
2022-04-09T22:00:00,1909A,106.0642,30.7636,南充市,嘉陵区环保局,细颗粒物(PM2.5),74,71,58,54,38,146,121,136,132,13,21,19,9,0.7,0.6
2022-04-09T22:00:00,1910A,106.1087,30.8388,南充市,市环境监测站,"颗粒物(PM10),细颗粒物(PM2.5)",65,80,68,47,39,143,99,125,120,34,17,4,4,0.6,0.4
2022-04-09T22:00:00,1911A,106.9222,27.6869,遵义市,丁字口,细颗粒物(PM2.5),58,63,49,41,31,106,25,87,78,36,30,13,10,0.8,0.6
2022-04-09T22:00:00,1912A,106.9242,27.7019,遵义市,凤凰山,,50,48,41,35,26,128,54,127,86,32,21,12,8,0.6,0.4
2022-04-09T22:00:00,1913A,106.8906,27.6486,遵义市,忠庄,颗粒物(PM10),67,84,60,36,31,108,36,91,84,38,28,3,3,0.5,0.4
2022-04-09T22:00:00,1914A,106.9231,27.6506,遵义市,舟水桥,颗粒物(PM10),57,64,40,38,28,109,27,90,73,26,25,3,4,0.4,0.5
2022-04-09T22:00:00,1915A,106.9178,27.72,遵义市,干田坝,"颗粒物(PM10),细颗粒物(PM2.5)",59,67,44,42,23,109,31,87,78,33,29,10,9,0.7,0.6
2022-04-09T22:00:00,1916A,103.7897,25.5035,曲靖市,环境监测站,,50,50,51,28,30,141,69,126,103,43,22,12,9,1.2,0.8
2022-04-09T22:00:00,1917A,103.8,25.5364,曲靖市,烟厂办公区,,41,41,56,28,30,153,74,137,116,30,23,11,8,1.3,0.9
2022-04-09T22:00:00,1918A,108.7197,34.3956,咸阳市,气象站(对照点),颗粒物(PM10),94,137,106,47,35,154,35,134,114,90,46,6,7,0.8,0.7
2022-04-09T22:00:00,1919A,108.673,34.3155,咸阳市,实验中学,颗粒物(PM10),96,141,114,68,52,159,46,144,116,68,46,3,5,0.6,0.7
2022-04-09T22:00:00,1920A,108.7233,34.3617,咸阳市,师范学院,颗粒物(PM10),114,178,107,71,40,158,42,136,113,64,39,5,5,1.6,1
2022-04-09T22:00:00,1922A,109.0656,35.0994,铜川市,党校(对照点),颗粒物(PM10),105,159,80,59,26,121,5,102,82,105,43,8,7,0.6,0.3
2022-04-09T22:00:00,1923A,109.0697,35.0697,铜川市,王益区政府,颗粒物(PM10),84,118,78,44,26,133,36,121,103,52,29,14,10,0.4,0.3
2022-04-09T22:00:00,1924A,108.9344,34.9058,铜川市,新区管委会,颗粒物(PM10),98,145,66,45,26,142,35,130,111,84,20,33,9,0.6,0.3
2022-04-09T22:00:00,1926A,109.4131,36.6275,延安市,枣园(对照点),颗粒物(PM10),103,156,107,45,29,124,4,113,78,74,33,3,2,0.2,0.1
2022-04-09T22:00:00,1927A,109.4761,36.6028,延安市,延大医附院,颗粒物(PM10),106,161,122,49,35,125,4,114,78,77,38,7,4,0.8,0.6
2022-04-09T22:00:00,1929A,109.5056,36.6106,延安市,百米大道,颗粒物(PM10),113,176,127,58,48,114,6,105,70,87,48,4,3,0.8,0.2
2022-04-09T22:00:00,1930A,107.185,34.3063,宝鸡市,庙沟村(对照点),颗粒物(PM10),55,60,53,26,24,128,81,118,108,25,7,5,4,0.4,0.4
2022-04-09T22:00:00,1931A,107.0708,34.3017,宝鸡市,竹园沟,颗粒物(PM10),52,53,59,27,28,134,67,128,104,17,11,5,6,0.4,0.4
2022-04-09T22:00:00,1932A,107.1906,34.3672,宝鸡市,三陆医院,颗粒物(PM10),63,75,75,36,37,132,84,123,111,37,32,5,8,0.5,0.6
2022-04-09T22:00:00,1933A,107.1431,34.3547,宝鸡市,监测站,颗粒物(PM10),80,109,69,38,32,126,31,120,93,54,28,4,4,0.7,0.6
2022-04-09T22:00:00,1934A,107.1186,34.3739,宝鸡市,技工学校,颗粒物(PM10),92,133,76,45,31,127,46,120,101,51,19,7,5,0.5,0.5
2022-04-09T22:00:00,1935A,107.3906,34.3528,宝鸡市,陈仓区环保局家属楼,颗粒物(PM10),85,120,87,45,38,144,37,127,105,65,28,8,32,0.8,1.1
2022-04-09T22:00:00,1936A,107.2058,34.3497,宝鸡市,文理学院,,50,0,29,35,35,135,64,129,112,45,25,8,7,1.1,1.1
2022-04-09T22:00:00,1937A,107.2386,34.3622,宝鸡市,三迪小学,颗粒物(PM10),71,92,76,37,36,134,79,120,105,43,35,9,8,0.5,0.5
2022-04-09T22:00:00,1938A,109.5293,34.5101,渭南市,农科所(对照点),颗粒物(PM10),98,146,111,44,35,149,85,134,111,15,33,7,10,0.2,0.4
2022-04-09T22:00:00,1939A,109.4974,34.4877,渭南市,日报社,颗粒物(PM10),101,151,108,41,32,150,60,135,99,32,36,10,11,0.3,0.4
2022-04-09T22:00:00,1940A,109.4636,34.493,渭南市,体育馆,颗粒物(PM10),102,153,107,37,30,162,81,143,110,26,39,11,13,0.2,0.4
2022-04-09T22:00:00,1941A,109.4259,34.5023,渭南市,高新一小,颗粒物(PM10),105,160,138,48,37,377,65,181,144,30,39,20,10,0.5,0.5
2022-04-09T22:00:00,1943A,102.1725,38.5339,金昌市,新川苑,颗粒物(PM10),64,77,159,20,39,112,85,104,95,10,18,7,17,0.4,0.5
2022-04-09T22:00:00,1944A,102.1692,38.5167,金昌市,天庆家园,颗粒物(PM10),61,71,145,21,37,113,92,107,100,8,19,14,21,0.4,0.5
2022-04-09T22:00:00,1945A,98.2908,39.7711,嘉峪关市,气象局,颗粒物(PM10),64,78,104,29,34,107,55,101,90,45,16,3,9,0.6,0.7
2022-04-09T22:00:00,1947A,106.3394,38.817,石嘴山市,沙湖旅游区(对照点),颗粒物(PM10),124,197,221,33,42,117,48,109,92,50,31,5,8,0.2,0.2
2022-04-09T22:00:00,1948A,106.3668,39.0145,石嘴山市,大武口朝阳西街,颗粒物(PM10),78,106,130,34,42,115,88,109,106,15,29,2,7,0.3,0.6
2022-04-09T22:00:00,1949A,106.7704,39.2282,石嘴山市,惠农南大街,颗粒物(PM10),98,146,156,51,43,106,29,94,83,55,37,18,32,0.7,0.7
2022-04-09T22:00:00,1950A,106.7099,39.1325,石嘴山市,红果子镇惠新街,颗粒物(PM10),126,202,198,52,47,104,30,95,80,63,31,14,17,0.6,0.9
2022-04-09T22:00:00,1951A,84.895,45.6094,克拉玛依市,长征新村,颗粒物(PM10),53,55,36,2,4,102,71,95,93,25,7,8,8,0.3,0.2
2022-04-09T22:00:00,1952A,84.8988,45.5893,克拉玛依市,南林小区,颗粒物(PM10),55,59,45,12,10,109,63,101,96,37,11,6,6,0.4,0.3
2022-04-09T22:00:00,1954A,84.905,44.3396,克拉玛依市,独山子区,颗粒物(PM10),74,97,93,23,25,108,82,101,100,16,9,5,5,0.4,0.4
2022-04-09T22:00:00,1955A,85.6979,46.098,克拉玛依市,乌尔禾区商贸楼,颗粒物(PM10),56,62,32,15,8,94,61,92,86,20,4,10,9,0.6,0.4
2022-04-09T22:00:00,1956A,86.1472,41.7538,巴音郭楞州,孔雀公园,颗粒物(PM10),80,109,93,38,27,126,87,116,112,12,11,2,3,0.3,0.3
2022-04-09T22:00:00,1957A,86.1972,41.7166,巴音郭楞州,棉纺厂,颗粒物(PM10),62,73,71,26,23,119,66,111,105,28,12,2,2,0.4,0.3
2022-04-09T22:00:00,1958A,86.2357,41.7173,巴音郭楞州,经济开发区,颗粒物(PM10),75,100,98,33,24,124,73,117,108,21,7,2,2,0.4,0.4
2022-04-09T22:00:00,1961A,117.532,36.6868,济南市,东山小学,颗粒物(PM10),85,120,104,27,25,144,117,140,134,11,11,14,14,0.3,0.4
2022-04-09T22:00:00,1966A,120.0405,35.8735,青岛市,黄岛区4号,颗粒物(PM10),59,68,84,31,36,185,166,175,175,21,31,7,9,0.4,0.6
2022-04-09T22:00:00,1982A,122.0693,37.2174,威海市,文登开发区,,,70,79,29,35,211,190,198,198,13,17,5,6,,0
2022-04-09T22:00:00,2031A,113.1817,27.9958,株洲市,云田中学,颗粒物(PM10),58,66,64,34,30,181,125,165,151,14,15,7,9,0.3,0.3
2022-04-09T22:00:00,2054A,114.1099,32.1059,信阳市,平桥分局,颗粒物(PM10),57,64,64,34,33,168,137,162,154,18,17,11,12,0.5,0.5
2022-04-09T22:00:00,2064A,113.9956,32.1271,信阳市,南湾水厂,颗粒物(PM10),59,67,75,27,28,178,150,172,166,12,12,10,12,0.4,0.4
2022-04-09T22:00:00,2065A,114.0775,32.1195,信阳市,市酿酒公司,颗粒物(PM10),52,54,59,29,27,165,139,159,154,16,16,11,11,0.5,0.5
2022-04-09T22:00:00,2066A,114.0609,32.1399,信阳市,审计局,颗粒物(PM10),66,81,66,31,32,159,128,153,148,16,12,10,12,0.0,0.3
2022-04-09T22:00:00,2067A,114.6613,33.6128,周口市,市环境监测站,颗粒物(PM10),65,80,82,31,20,169,121,154,147,16,11,10,10,0.7,0.6
2022-04-09T22:00:00,2068A,114.6758,33.6347,周口市,周口师范,颗粒物(PM10),68,85,79,35,23,161,124,152,146,13,12,9,10,0.7,0.6
2022-04-09T22:00:00,2069A,114.6546,33.5979,周口市,市运管处,颗粒物(PM10),67,84,78,36,24,159,113,146,138,20,15,9,7,0.6,0.5
2022-04-09T22:00:00,2070A,114.6369,33.6406,周口市,川汇区环保局,颗粒物(PM10),67,84,74,32,25,165,126,153,148,13,10,4,6,0.6,0.5
2022-04-09T22:00:00,2075A,117.6336,24.4674,漳州市,九湖(对照点),颗粒物(PM10),51,51,63,27,29,164,92,142,124,11,22,8,10,0.4,0.4
2022-04-09T22:00:00,2160A,112.85,35.5051,晋城市,自来水公司,颗粒物(PM10),76,101,105,24,34,156,63,145,127,67,43,11,13,1.0,1.1
2022-04-09T22:00:00,2161A,112.8318,35.4936,晋城市,白云商贸,颗粒物(PM10),70,90,97,46,36,158,81,146,123,56,38,7,7,0.8,1.1
2022-04-09T22:00:00,2162A,112.8508,35.4887,晋城市,市环保局,颗粒物(PM10),63,76,99,36,36,156,73,144,126,67,48,11,12,0.9,1.1
2022-04-09T22:00:00,2163A,112.8676,35.4897,晋城市,技术学院,颗粒物(PM10),66,81,95,22,37,146,109,135,126,29,39,7,8,0.6,1
2022-04-09T22:00:00,2165A,112.8453,35.546,晋城市,白马寺 (对照点),颗粒物(PM10),71,91,87,19,26,166,113,159,122,27,16,6,9,0.5,0.7
2022-04-09T22:00:00,2166A,112.4397,39.3522,朔州市,平朔,颗粒物(PM10),106,161,138,52,41,125,84,119,111,25,26,8,10,0.6,0.5
2022-04-09T22:00:00,2167A,112.4575,39.3617,朔州市,朔唯,颗粒物(PM10),113,175,157,51,35,129,95,123,115,22,30,4,7,0.4,0.4
2022-04-09T22:00:00,2168A,112.4258,39.3197,朔州市,区政府,颗粒物(PM10),120,189,125,46,34,127,81,120,107,26,22,10,10,1.3,0.6
2022-04-09T22:00:00,2169A,112.4072,39.3278,朔州市,市环保局,颗粒物(PM10),98,145,144,41,36,109,79,106,100,24,26,6,10,0.6,0.5
2022-04-09T22:00:00,2170A,112.4272,39.3681,朔州市,市二中,颗粒物(PM10),110,170,149,64,40,132,89,126,116,21,25,11,10,0.4,0.4
2022-04-09T22:00:00,2171A,112.7532,37.6945,晋中市,锦纶小区,颗粒物(PM10),112,173,142,56,56,163,74,144,118,35,31,10,15,0.6,0.7
2022-04-09T22:00:00,2173A,112.7249,37.7067,晋中市,南都小区,颗粒物(PM10),108,166,152,48,70,164,69,145,118,39,36,12,24,0.6,0.7
2022-04-09T22:00:00,2174A,112.6991,37.6982,晋中市,榆次区政府,颗粒物(PM10),104,157,135,56,58,160,75,144,119,34,32,13,23,2.8,3.1
2022-04-09T22:00:00,2175A,110.9956,35.0147,运城市,运城中学,颗粒物(PM10),67,83,97,33,34,168,123,144,132,16,22,5,22,0.4,0.4
2022-04-09T22:00:00,2178A,110.9686,35.0303,运城市,地区技校,颗粒物(PM10),63,76,106,25,29,158,52,145,121,63,29,5,9,0.8,0.6
2022-04-09T22:00:00,2179A,111.0414,35.1147,运城市,空港新区,颗粒物(PM10),93,136,109,39,38,151,54,142,111,41,29,8,9,0.4,0.5
2022-04-09T22:00:00,2181A,112.7383,38.4519,忻州市,开发区,颗粒物(PM10),81,112,88,36,25,120,69,114,104,23,17,22,18,0.4,0.5
2022-04-09T22:00:00,2182A,112.7003,38.4928,忻州市,会展中心,颗粒物(PM10),76,102,88,24,25,123,85,114,107,26,29,7,13,0.3,0.4
2022-04-09T22:00:00,2183A,111.1406,37.5211,吕梁市,环保局,颗粒物(PM10),114,177,129,38,28,117,4,110,68,86,50,6,8,0.3,0.4
2022-04-09T22:00:00,2185A,111.1297,37.5136,吕梁市,自来水公司,颗粒物(PM10),121,191,168,45,32,116,10,112,70,81,50,2,5,0.4,0.4
2022-04-09T22:00:00,2187A,106.8174,39.6973,乌海市,市林业局,颗粒物(PM10),69,87,137,39,45,116,58,110,103,36,38,24,51,0.7,0.9
2022-04-09T22:00:00,2188A,106.7907,39.6667,乌海市,中海勃湾学校,颗粒物(PM10),81,111,134,34,43,119,60,113,106,41,47,16,40,0.5,0.9
2022-04-09T22:00:00,2191A,122.2532,43.6801,通辽市,艺术职业学校,颗粒物(PM10),60,70,36,32,28,126,109,117,110,20,15,7,7,0.5,0.5
2022-04-09T22:00:00,2192A,119.7594,49.2261,呼伦贝尔市,区环保局,,29,26,25,10,17,111,92,107,101,5,8,5,5,0.5,0.4
2022-04-09T22:00:00,2195A,107.4212,40.761,巴彦淖尔市,附二中,颗粒物(PM10),98,146,133,43,36,116,95,109,103,11,18,8,8,0.4,0.5
2022-04-09T22:00:00,2196A,107.37,40.7372,巴彦淖尔市,市环保大楼,颗粒物(PM10),89,127,113,43,36,122,100,113,108,5,14,4,5,0.5,0.6
2022-04-09T22:00:00,2197A,113.1306,40.9923,乌兰察布市,集宁新区,颗粒物(PM10),79,108,56,32,20,124,96,118,115,18,9,11,9,0.3,0.3
2022-04-09T22:00:00,2200A,122.0392,46.0656,兴安盟,胜华新制药厂,细颗粒物(PM2.5),266,256,55,216,35,103,68,98,92,32,12,11,4,1.3,0.3
2022-04-09T22:00:00,2201A,121.9504,46.0741,兴安盟,科右前旗环保局,细颗粒物(PM2.5),320,286,50,270,38,108,82,103,96,38,12,13,4,1.6,0.4
2022-04-09T22:00:00,2202A,116.1042,43.9317,锡林郭勒盟,市环保监测站,颗粒物(PM10),82,113,38,23,9,100,71,90,82,4,9,7,9,0.6,0.5
2022-04-09T22:00:00,2203A,116.0781,43.9311,锡林郭勒盟,市政府,颗粒物(PM10),74,97,31,20,7,96,67,87,79,8,10,6,7,0.3,0.3
2022-04-09T22:00:00,2204A,105.6467,38.8363,阿拉善盟,西城区西花园(对照点),细颗粒物(PM2.5),80,108,145,59,47,118,73,114,101,21,9,5,5,0.4,0.3
2022-04-09T22:00:00,2205A,105.6985,38.8411,阿拉善盟,蒙二幼,细颗粒物(PM2.5),79,106,146,58,48,116,88,113,102,8,9,6,6,0.4,0.3
2022-04-09T22:00:00,2206A,105.724,38.8516,阿拉善盟,环保局新楼,细颗粒物(PM2.5),63,66,113,45,49,113,105,111,107,4,7,6,7,0.3,0.3
2022-04-09T22:00:00,2207A,121.6094,41.998,阜新市,工业园区,细颗粒物(PM2.5),159,204,104,121,70,157,144,137,136,35,25,28,15,1.6,0.9
2022-04-09T22:00:00,2208A,121.6697,42.0279,阜新市,长青街,细颗粒物(PM2.5),165,156,89,125,63,168,150,141,141,25,16,18,17,1.0,0.7
2022-04-09T22:00:00,2209A,121.6673,42.0705,阜新市,农业园区,细颗粒物(PM2.5),190,167,79,143,59,159,152,133,133,23,17,17,16,1.1,0.6
2022-04-09T22:00:00,2210A,121.6717,42.0224,阜新市,东苑,细颗粒物(PM2.5),133,172,93,101,54,172,164,148,148,22,20,25,24,1.1,0.8
2022-04-09T22:00:00,2211A,121.6506,42.0498,阜新市,玉龙新城,细颗粒物(PM2.5),138,182,73,105,41,158,146,141,141,25,15,30,18,1.3,0.9
2022-04-09T22:00:00,2212A,123.2,41.1953,辽阳市,宏伟区,颗粒物(PM10),54,58,57,27,41,158,158,138,138,10,12,11,10,0.6,0.6
2022-04-09T22:00:00,2213A,123.1683,41.2495,辽阳市,新华园,颗粒物(PM10),57,63,68,30,53,147,147,131,128,12,15,7,7,0.4,0.5
2022-04-09T22:00:00,2214A,123.2354,41.2639,辽阳市,滨河路,颗粒物(PM10),59,68,69,34,55,142,142,130,122,8,12,9,9,0.5,0.5
2022-04-09T22:00:00,2215A,123.149,41.2991,辽阳市,铁西工业园,颗粒物(PM10),65,79,74,30,51,157,157,140,135,12,17,12,13,0.4,0.5
2022-04-09T22:00:00,2216A,123.8139,42.3022,铁岭市,汇工街西,颗粒物(PM10),133,216,106,97,79,170,94,160,136,36,35,26,20,1.1,1
2022-04-09T22:00:00,2217A,123.8649,42.2923,铁岭市,水上乐园,细颗粒物(PM2.5),119,142,87,90,62,177,79,164,135,36,25,10,12,0.8,0.7
2022-04-09T22:00:00,2218A,123.8486,42.2867,铁岭市,银州路东段,细颗粒物(PM2.5),119,173,97,90,65,164,80,153,126,47,29,13,11,1.0,0.8
2022-04-09T22:00:00,2219A,123.7153,42.2217,铁岭市,金沙江路北,颗粒物(PM10),158,266,112,109,58,170,61,156,126,61,31,19,13,1.6,1.2
2022-04-09T22:00:00,2220A,120.4318,41.5881,朝阳市,西梁,细颗粒物(PM2.5),115,128,85,87,57,172,130,156,128,21,15,16,16,1.0,0.9
2022-04-09T22:00:00,2221A,120.4521,41.5646,朝阳市,河畔小区,细颗粒物(PM2.5),103,126,89,77,55,164,135,148,130,17,13,16,15,0.8,0.8
2022-04-09T22:00:00,2222A,120.4176,41.5648,朝阳市,八里堡,细颗粒物(PM2.5),100,128,82,75,50,170,127,161,124,19,17,15,14,1.0,0.9
2022-04-09T22:00:00,2223A,120.3806,41.5969,朝阳市,农业园区,细颗粒物(PM2.5),119,115,71,90,43,169,116,151,124,28,16,16,14,0.8,0.6
2022-04-09T22:00:00,2225A,124.4002,43.1713,四平市,一商场,细颗粒物(PM2.5),224,194,80,174,61,138,44,127,99,80,18,50,14,1.8,0.7
2022-04-09T22:00:00,2226A,124.388,43.193,四平市,境园,细颗粒物(PM2.5),220,136,78,170,54,139,39,133,98,74,14,25,11,2.4,0.7
2022-04-09T22:00:00,2227A,125.1358,42.8845,辽源市,环保局,细颗粒物(PM2.5),223,192,80,173,69,205,66,180,148,101,17,35,12,3.0,0.9
2022-04-09T22:00:00,2229A,125.9358,41.7173,通化市,光明,颗粒物(PM10),57,63,52,29,26,175,82,175,131,22,9,15,12,0.6,0.5
2022-04-09T22:00:00,2230A,125.9446,41.7325,通化市,铁路,颗粒物(PM10),54,58,51,24,29,152,70,152,117,23,10,16,12,0.9,0.7
2022-04-09T22:00:00,2231A,126.4219,41.9171,白山市,喜丰,颗粒物(PM10),81,112,89,41,30,166,90,166,134,29,17,11,10,1.5,1.2
2022-04-09T22:00:00,2232A,126.4077,41.9419,白山市,环保局,颗粒物(PM10),69,88,64,46,32,4,4,4,4,28,17,12,12,2.8,2.5
2022-04-09T22:00:00,2233A,124.8006,45.1214,松原市,江南,,47,47,105,14,54,111,82,105,87,24,20,26,10,0.3,0.4
2022-04-09T22:00:00,2234A,124.7965,45.1722,松原市,江北,,30,30,90,13,56,111,93,106,103,11,13,1,2,0.3,0.5
2022-04-09T22:00:00,2236A,122.8738,45.5725,白城市,市环保局,细颗粒物(PM2.5),425,444,208,387,178,121,2,111,67,110,52,17,15,1.7,0.7
2022-04-09T22:00:00,2237A,129.47,42.8883,延边朝鲜族自治州,妇幼医院,细颗粒物(PM2.5),84,73,64,62,39,143,52,136,92,28,18,10,8,0.9,0.7
2022-04-09T22:00:00,2238A,129.5055,42.9108,延边朝鲜族自治州,延边医院,颗粒物(PM10),63,76,65,42,41,155,75,143,100,18,16,9,10,0.7,0.8
2022-04-09T22:00:00,2239A,129.3964,42.8881,延边朝鲜族自治州,朝阳川镇医院,颗粒物(PM10),74,98,70,39,43,149,42,141,84,21,18,7,9,0.7,0.6
2022-04-09T22:00:00,2240A,130.9762,45.3001,鸡西市,环保局,颗粒物(PM10),58,65,110,39,73,87,51,78,70,26,36,5,8,0.4,0.6
2022-04-09T22:00:00,2243A,130.9429,45.3039,鸡西市,第一中学,颗粒物(PM10),59,67,116,39,69,99,63,92,82,27,33,8,8,0.3,0.5
2022-04-09T22:00:00,2244A,130.2537,47.3416,鹤岗市,哈啤分公司,,50,44,53,35,31,104,79,92,89,9,14,11,12,0.4,0.4
2022-04-09T22:00:00,2245A,130.2684,47.3086,鹤岗市,斯达机电,细颗粒物(PM2.5),54,44,48,38,34,103,74,93,86,15,16,7,8,0.5,0.5
2022-04-09T22:00:00,2246A,130.3114,47.3388,鹤岗市,东山纸板厂,,49,49,61,25,28,97,76,89,82,10,18,8,11,0.4,0.6
2022-04-09T22:00:00,2248A,131.1511,46.6937,双鸭山市,双合村,,,,88,48,44,101,65,92,83,16,20,10,9,0.3,0.4
2022-04-09T22:00:00,2249A,131.1652,46.6191,双鸭山市,南小市,颗粒物(PM10),54,58,73,36,39,106,69,104,89,14,17,3,3,0.6,0.6
2022-04-09T22:00:00,2250A,131.1524,46.6554,双鸭山市,环保局,,49,49,73,33,40,105,71,97,89,17,22,6,6,0.4,0.5
2022-04-09T22:00:00,2251A,131.12,46.5656,双鸭山市,苗圃(对照点),细颗粒物(PM2.5),53,39,57,37,44,113,67,105,94,10,18,1,3,0.5,0.8
2022-04-09T22:00:00,2252A,128.5159,47.4311,伊春市,环保局,,28,24,36,19,27,99,66,95,85,14,15,4,5,0.4,0.5
2022-04-09T22:00:00,2253A,128.9102,47.7412,伊春市,电力嘉园,,31,31,40,16,21,100,66,95,83,11,11,5,5,0.5,0.6
2022-04-09T22:00:00,2254A,129.5029,48.471,伊春市,汤旺河国家公园(对照点),,12,9,17,7,15,94,37,93,64,7,13,5,6,0.2,0.3
2022-04-09T22:00:00,2255A,130.2751,46.8028,佳木斯市,佳纺,颗粒物(PM10),64,77,54,45,30,111,41,99,74,14,14,3,5,0.5,0.5
2022-04-09T22:00:00,2256A,130.3995,46.8307,佳木斯市,发电厂,细颗粒物(PM2.5),53,48,34,37,26,102,50,94,78,6,4,4,3,0.5,0.4
2022-04-09T22:00:00,2257A,130.3258,46.7975,佳木斯市,环保局,颗粒物(PM10),60,69,44,42,30,109,35,97,73,29,14,6,7,0.7,0.5
2022-04-09T22:00:00,2258A,130.3648,46.8032,佳木斯市,十一中,细颗粒物(PM2.5),70,59,38,51,31,105,51,94,75,22,14,9,8,0.7,0.5
2022-04-09T22:00:00,2259A,130.3794,46.7588,佳木斯市,四丰(对照点),细颗粒物(PM2.5),57,49,48,40,36,104,31,91,71,29,20,3,6,0.6,0.6
2022-04-09T22:00:00,2262A,131.0518,45.8751,七台河市,新一中(对照点),颗粒物(PM10),53,56,47,24,27,115,80,109,98,11,11,7,7,0.7,0.7
2022-04-09T22:00:00,2263A,127.4833,50.2524,黑河市,交通局,,30,27,31,21,23,83,51,78,66,9,13,5,6,0.2,0.3
2022-04-09T22:00:00,2264A,127.5144,50.2341,黑河市,环保局,,32,32,32,19,26,92,59,88,78,6,10,4,5,0.5,0.5
2022-04-09T22:00:00,2265A,127.5291,50.2472,黑河市,大黑河岛(对照点),,22,17,31,15,25,92,51,89,78,6,12,5,5,0.5,0.5
2022-04-09T22:00:00,2266A,126.9785,46.6365,绥化市,人和东街,细颗粒物(PM2.5),112,84,69,84,67,104,73,92,85,21,17,7,9,0.5,0.5
2022-04-09T22:00:00,2267A,126.964,46.6528,绥化市,党政办公中心,"颗粒物(PM10),细颗粒物(PM2.5)",53,56,53,37,31,100,71,91,86,26,16,9,6,0.4,0.4
2022-04-09T22:00:00,2269A,124.1069,50.4097,大兴安岭地区,科技局,,20,15,10,14,11,98,51,93,82,16,5,8,3,0.5,0.3
2022-04-09T22:00:00,2270A,117.396,32.939,蚌埠市,工人疗养院,颗粒物(PM10),65,79,75,25,27,184,136,165,159,12,15,7,10,0.3,0.4
2022-04-09T22:00:00,2271A,117.3605,32.9427,蚌埠市,百货大楼,颗粒物(PM10),74,98,94,23,20,187,140,167,163,15,18,8,11,0.4,0.5
2022-04-09T22:00:00,2273A,117.4185,32.8911,蚌埠市,蚌埠学院,颗粒物(PM10),65,80,78,29,24,181,123,162,152,16,16,10,16,0.5,0.5
2022-04-09T22:00:00,2274A,117.3533,32.9673,蚌埠市,淮上区政府,颗粒物(PM10),64,78,77,24,24,176,128,160,154,18,17,11,14,0.3,0.3
2022-04-09T22:00:00,2275A,117.3145,32.8977,蚌埠市,高新区,颗粒物(PM10),64,78,88,24,30,181,131,164,156,16,24,9,14,0.4,0.5
2022-04-09T22:00:00,2277A,116.8305,32.7727,淮南市,潘集区政府,颗粒物(PM10),70,89,71,45,33,153,118,142,138,14,8,7,5,0.4,0.3
2022-04-09T22:00:00,2278A,117.0067,32.6524,淮南市,师范学院,颗粒物(PM10),67,84,52,45,25,175,119,156,150,13,7,11,7,0.3,0.3
2022-04-09T22:00:00,2279A,116.8569,32.5951,淮南市,谢家集区政府,颗粒物(PM10),72,94,61,29,23,169,119,150,145,37,18,34,9,0.4,0.2
2022-04-09T22:00:00,2280A,116.8281,32.633,淮南市,八公山区政府,颗粒物(PM10),69,87,63,32,24,164,120,145,142,12,9,12,4,0.2,0.2
2022-04-09T22:00:00,2281A,116.6325,32.6201,淮南市,焦岗湖风景区管理处(对照点),颗粒物(PM10),63,76,56,38,26,150,118,141,136,4,2,9,6,0.2,0.2
2022-04-09T22:00:00,2282A,116.8004,33.975,淮北市,监测站,颗粒物(PM10),78,106,86,37,25,140,120,133,128,23,12,11,5,0.5,0.4
2022-04-09T22:00:00,2283A,116.8091,33.9007,淮北市,烈山区政府,颗粒物(PM10),77,103,85,36,31,144,128,136,134,28,18,17,7,0.6,0.5
2022-04-09T22:00:00,2284A,116.7856,33.9477,淮北市,职业技术学院,颗粒物(PM10),75,99,86,47,28,129,120,124,122,23,12,13,7,0.6,0.5
2022-04-09T22:00:00,2285A,117.8177,30.9412,铜陵市,市第四中学,颗粒物(PM10),54,57,63,25,28,164,126,154,146,20,44,29,21,0.9,0.7
2022-04-09T22:00:00,2286A,117.8059,30.9273,铜陵市,市公路局,细颗粒物(PM2.5),64,73,86,46,22,151,119,141,136,23,37,18,22,0.5,0.8
2022-04-09T22:00:00,2287A,117.7807,30.9413,铜陵市,市新民污水厂,颗粒物(PM10),68,85,66,37,31,157,86,146,133,55,56,75,24,0.6,0.7
2022-04-09T22:00:00,2288A,117.7439,30.8792,铜陵市,市第九中学,颗粒物(PM10),60,70,81,38,34,139,73,122,112,61,47,11,10,0.5,0.7
2022-04-09T22:00:00,2289A,117.846,30.9413,铜陵市,车站新区,颗粒物(PM10),57,64,66,22,23,142,97,136,128,24,25,6,10,0.5,0.6
2022-04-09T22:00:00,2290A,117.8483,30.97,铜陵市,市职教基地,颗粒物(PM10),55,59,64,18,25,155,93,144,133,26,26,15,15,0.7,0.8
2022-04-09T22:00:00,2291A,117.0809,30.5177,安庆市,环科院,颗粒物(PM10),59,68,62,15,16,145,47,132,110,66,39,14,8,0.5,0.5
2022-04-09T22:00:00,2292A,117.0331,30.5119,安庆市,马山宾馆,颗粒物(PM10),56,61,58,12,12,148,58,135,112,47,29,9,9,0.5,0.5
2022-04-09T22:00:00,2294A,116.9896,30.6145,安庆市,安庆大学,颗粒物(PM10),69,88,70,31,32,159,100,149,130,28,33,6,8,0.5,0.6
2022-04-09T22:00:00,2295A,118.2903,29.6963,黄山市,延安路89号,颗粒物(PM10),62,73,50,42,26,155,76,145,122,13,10,12,12,0.5,0.5
2022-04-09T22:00:00,2296A,118.327,29.7178,黄山市,黄山东路89号,颗粒物(PM10),51,51,47,30,26,145,36,133,94,31,14,4,5,0.5,0.4
2022-04-09T22:00:00,2297A,118.1371,30.2756,黄山市,黄山区政府5号楼,颗粒物(PM10),65,79,56,44,27,146,38,138,104,14,9,9,9,0.6,0.3
2022-04-09T22:00:00,2298A,118.3093,32.3153,滁州市,老年大学,颗粒物(PM10),86,121,107,45,33,185,60,172,127,69,33,12,17,0.6,0.6
2022-04-09T22:00:00,2299A,118.3244,32.2786,滁州市,人大宾馆,颗粒物(PM10),93,136,92,42,35,179,50,164,120,83,43,8,13,0.6,0.6
2022-04-09T22:00:00,2301A,115.8277,32.8929,阜阳市,市监测站,颗粒物(PM10),62,73,60,31,24,162,114,146,124,15,12,10,9,0.5,0.4
2022-04-09T22:00:00,2303A,115.8554,32.8605,阜阳市,开发区,颗粒物(PM10),64,77,70,28,24,149,126,141,134,17,12,8,6,0.3,0.3
2022-04-09T22:00:00,2307A,116.5079,31.737,六安市,监测大楼,颗粒物(PM10),57,64,48,26,21,170,124,147,143,7,8,7,6,0.3,0.2
2022-04-09T22:00:00,2308A,116.4738,31.7643,六安市,皖西学院,颗粒物(PM10),65,80,54,23,14,170,130,152,147,8,7,9,8,0.3,0.2
2022-04-09T22:00:00,2309A,116.4996,31.7905,六安市,朝阳厂,颗粒物(PM10),54,57,46,22,19,163,123,145,141,12,7,9,8,0.4,0.3
2022-04-09T22:00:00,2310A,116.5567,31.7886,六安市,开发区,颗粒物(PM10),67,83,62,27,24,163,124,152,140,14,18,8,10,0.4,0.3
2022-04-09T22:00:00,2311A,115.8072,33.8399,亳州市,污水处理厂,颗粒物(PM10),61,72,78,26,24,158,102,147,135,14,12,7,8,0.4,0.4
2022-04-09T22:00:00,2312A,115.7789,33.8518,亳州市,三国揽胜宫,颗粒物(PM10),63,75,74,29,29,160,113,151,141,14,11,6,9,0.4,0.4
2022-04-09T22:00:00,2314A,117.47,30.6618,池州市,池州学院,颗粒物(PM10),61,72,60,32,27,155,104,145,133,25,21,6,7,0.3,0.6
2022-04-09T22:00:00,2316A,118.7581,30.9454,宣城市,鳌峰子站,颗粒物(PM10),75,100,59,36,26,128,62,123,109,64,19,7,9,0.5,0.4
2022-04-09T22:00:00,2317A,118.7385,30.9743,宣城市,敬亭山子站,颗粒物(PM10),56,62,56,30,26,132,125,125,122,8,16,5,7,0.4,0.4
2022-04-09T22:00:00,2318A,118.7173,30.9427,宣城市,开发区子站,颗粒物(PM10),64,77,60,31,26,132,102,124,115,24,26,6,7,0.6,0.5
2022-04-09T22:00:00,2319A,119.0141,25.4325,莆田市,荔城区仓后路,,50,50,45,24,16,123,81,112,96,10,7,4,4,0.6,0.5
2022-04-09T22:00:00,2320A,119.0015,25.4553,莆田市,莆田市监测站,,40,40,38,27,19,124,74,113,97,5,4,4,4,0.5,0.4
2022-04-09T22:00:00,2321A,119.1119,25.4561,莆田市,涵江区六中,,45,45,41,25,22,124,96,113,102,2,5,6,7,0.4,0.4
2022-04-09T22:00:00,2322A,119.1013,25.3215,莆田市,秀屿区政府,细颗粒物(PM2.5),55,52,47,39,23,117,79,107,96,16,14,6,7,0.6,0.6
2022-04-09T22:00:00,2323A,118.981,25.4792,莆田市,东圳水库(对照点),,30,30,31,21,14,127,71,114,98,6,5,4,5,0.4,0.3
2022-04-09T22:00:00,2324A,117.6211,26.2625,三明市,三钢,,49,49,46,30,26,137,53,130,99,37,26,3,4,0.6,0.6
2022-04-09T22:00:00,2325A,117.635,26.2714,三明市,三明二中,颗粒物(PM10),55,59,44,26,24,141,41,130,88,40,24,7,8,0.7,0.6
2022-04-09T22:00:00,2326A,117.6028,26.2378,三明市,三元区政府,颗粒物(PM10),65,80,59,42,30,142,23,129,91,64,31,5,6,1.1,0.8
2022-04-09T22:00:00,2327A,117.7275,26.3108,三明市,洋溪(对照点),,48,47,47,33,22,148,56,139,114,15,10,6,6,0.7,0.5
2022-04-09T22:00:00,2331A,118.0966,26.6761,南平市,茫荡山(对照点),,37,37,34,22,17,126,107,123,111,5,3,5,5,0.5,0.5
2022-04-09T22:00:00,2332A,118.1681,26.6369,南平市,南平市监测站,颗粒物(PM10),52,53,44,28,22,150,36,136,100,41,15,9,7,1.0,0.6
2022-04-09T22:00:00,2333A,118.1825,26.6489,南平市,南平铝业有限公司,,48,48,43,27,23,147,44,137,102,32,15,13,8,0.7,0.6
2022-04-09T22:00:00,2334A,118.1756,26.6272,南平市,南平七中,,46,42,42,32,22,146,56,135,101,21,12,4,5,0.7,0.5
2022-04-09T22:00:00,2335A,117.0189,25.1181,龙岩市,龙岩师专(对照点),颗粒物(PM10),58,65,50,32,28,158,121,148,134,27,18,14,10,0.4,0.3
2022-04-09T22:00:00,2336A,117.0217,25.1033,龙岩市,龙岩市监测站,颗粒物(PM10),58,66,54,28,24,158,121,148,143,27,22,13,11,0.2,0.2
2022-04-09T22:00:00,2337A,117.0258,25.0661,龙岩市,闽西职业技术学院,颗粒物(PM10),60,70,63,27,23,158,113,146,135,28,39,17,13,0.4,0.4
2022-04-09T22:00:00,2338A,117.0196,25.0306,龙岩市,龙岩学院,颗粒物(PM10),51,52,46,23,21,154,110,144,137,19,19,9,7,0.3,0.3
2022-04-09T22:00:00,2339A,119.5001,26.6946,宁德市,金涵水库(对照点),,35,35,44,23,16,114,53,106,91,11,12,6,7,0.5,0.4
2022-04-09T22:00:00,2341A,119.5388,26.6612,宁德市,宁德市监测站,,46,37,43,32,18,116,85,105,101,12,12,7,8,0.6,0.5
2022-04-09T22:00:00,2342A,117.3102,29.3867,景德镇市,王港中学(对照点),颗粒物(PM10),75,99,53,30,22,168,46,155,110,2,6,4,4,0.7,0.7
2022-04-09T22:00:00,2343A,117.2117,29.2933,景德镇市,老干部活动中心,细颗粒物(PM2.5),74,86,73,54,32,157,36,144,117,49,26,5,8,0.8,0.6
2022-04-09T22:00:00,2344A,117.1894,29.2789,景德镇市,兽医站,颗粒物(PM10),63,76,60,43,28,162,64,149,122,35,29,9,10,0.5,0.4
2022-04-09T22:00:00,2345A,117.1547,29.2617,景德镇市,台达陶瓷,颗粒物(PM10),90,130,87,49,31,146,21,134,97,79,40,36,21,0.6,0.4
2022-04-09T22:00:00,2346A,117.2461,29.2956,景德镇市,陶研所,颗粒物(PM10),71,92,64,35,23,144,44,136,103,37,23,13,8,0.4,0.4
2022-04-09T22:00:00,2347A,114.0997,27.5002,萍乡市,武功山(对照点),,28,28,26,15,14,153,87,140,121,10,5,9,10,0.7,0.6
2022-04-09T22:00:00,2348A,113.8385,27.6434,萍乡市,中医院,颗粒物(PM10),62,73,62,36,32,148,46,139,110,57,38,10,14,1.0,1
2022-04-09T22:00:00,2349A,113.8493,27.6253,萍乡市,市政府车库,颗粒物(PM10),76,101,76,39,30,150,55,143,110,47,39,9,15,1.0,1.6
2022-04-09T22:00:00,2350A,113.8676,27.6435,萍乡市,市环保局,,,75,59,53,38,152,,146,143,51,36,33,22,1.0,0.9
2022-04-09T22:00:00,2351A,113.866,27.6198,萍乡市,安源区政府,细颗粒物(PM2.5),64,75,65,46,31,151,42,149,114,38,31,15,25,0.9,1.7
