timepoint,stationcode,longitude,latitude,area,positionname,primarypollutant,aqi,pm10,pm10_24h,pm2_5,pm2_5_24h,o3,o3_24h,o3_8h,o3_8h_24h,no2,no2_24h,so2,so2_24h,co,co_24h
2022-04-09T07:00:00,1001A,116.3621,39.8784,北京市,万寿西宫,细颗粒物(PM2.5),165,196,183,125,110,200,127,86,86,35,46,2,5,0.9,1.1
2022-04-09T07:00:00,1002A,116.2202,40.2915,北京市,定陵(对照点),细颗粒物(PM2.5),127,152,157,96,93,214,146,132,132,20,26,2,4,0.8,0.9
2022-04-09T07:00:00,1003A,116.4174,39.9289,北京市,东四,细颗粒物(PM2.5),156,199,185,119,106,203,137,86,86,33,45,3,5,0.5,0.9
2022-04-09T07:00:00,1004A,116.4072,39.8863,北京市,天坛,细颗粒物(PM2.5),158,195,170,120,99,198,121,66,66,30,34,2,5,1.0,1.1
2022-04-09T07:00:00,1005A,116.462,39.9365,北京市,农展馆,细颗粒物(PM2.5),172,202,187,130,111,195,110,63,63,35,48,2,6,1.0,1.1
2022-04-09T07:00:00,1006A,116.3392,39.9295,北京市,官园,细颗粒物(PM2.5),156,195,181,119,108,190,103,74,74,36,41,5,8,1.0,1.1
2022-04-09T07:00:00,1007A,116.2878,39.9611,北京市,海淀万柳,细颗粒物(PM2.5),152,203,187,116,103,183,47,84,62,72,49,2,6,1.0,1.1
2022-04-09T07:00:00,1008A,116.6636,40.135,北京市,顺义新城,细颗粒物(PM2.5),170,203,192,129,109,192,116,76,71,21,37,2,6,0.8,1
2022-04-09T07:00:00,1009A,116.6275,40.3275,北京市,怀柔镇,细颗粒物(PM2.5),156,164,152,119,100,203,85,127,107,26,20,1,5,0.9,1.1
2022-04-09T07:00:00,1010A,116.2296,40.217,北京市,昌平镇,颗粒物(PM10),250,385,357,100,122,207,141,130,119,17,31,3,4,0.8,1
2022-04-09T07:00:00,1011A,116.3966,39.9821,北京市,奥体中心,细颗粒物(PM2.5),169,201,183,128,109,196,120,72,72,29,48,6,10,1.0,1.1
2022-04-09T07:00:00,1012A,116.184,39.9136,北京市,古城,细颗粒物(PM2.5),156,212,197,119,103,186,74,66,66,51,46,1,4,1.1,1
2022-04-09T07:00:00,1015A,117.1444,39.1661,天津市,勤俭道,细颗粒物(PM2.5),112,130,148,84,89,186,19,102,74,66,25,9,11,0.9,0.8
2022-04-09T07:00:00,1017A,117.237,39.1082,天津市,大直沽八号路,颗粒物(PM10),91,132,151,57,70,187,31,117,68,57,27,12,13,1.0,0.9
2022-04-09T07:00:00,1018A,117.202,39.0927,天津市,前进道,颗粒物(PM10),72,94,118,51,62,182,35,105,67,49,25,8,9,1.1,1
2022-04-09T07:00:00,1019A,117.1837,39.2133,天津市,淮河道,细颗粒物(PM2.5),135,158,155,103,94,186,5,97,66,72,29,10,12,1.2,1.1
2022-04-09T07:00:00,1021A,117.307,39.0877,天津市,跃进路,,,140,145,59,66,185,3,113,63,74,27,,8,0.9,0.8
2022-04-09T07:00:00,1023A,117.707,39.0343,天津市,第四大街,,,154,157,97,97,145,0,108,72,85,50,10,7,0.9,0.8
2022-04-09T07:00:00,1024A,117.457,38.8394,天津市,永明路,细颗粒物(PM2.5),114,127,130,86,78,184,17,86,58,56,23,10,10,1.0,1
2022-04-09T07:00:00,1026A,117.764,39.1587,天津市,汉北路,细颗粒物(PM2.5),118,121,152,89,109,201,7,104,36,58,39,8,9,1.0,1.1
2022-04-09T07:00:00,1027A,117.157,38.9194,天津市,团泊洼(对照点),细颗粒物(PM2.5),109,,126,82,85,180,20,91,56,73,30,9,9,1.0,0.8
2022-04-09T07:00:00,1029A,114.4422,38.0444,石家庄市,职工医院,颗粒物(PM10),116,182,159,85,68,199,2,10,3,87,51,11,14,1.3,1
2022-04-09T07:00:00,1030A,114.6063,38.0266,石家庄市,高新区,颗粒物(PM10),105,160,148,76,67,180,3,52,20,66,37,13,17,1.3,1.2
2022-04-09T07:00:00,1031A,114.4898,38.1328,石家庄市,西北水源,细颗粒物(PM2.5),140,204,178,107,90,192,28,46,26,64,43,7,15,1.7,1.1
2022-04-09T07:00:00,1032A,114.4586,38.0058,石家庄市,西南高教,细颗粒物(PM2.5),94,135,159,70,72,188,5,7,5,18,28,7,10,1.3,1.2
2022-04-09T07:00:00,1033A,114.5331,38.0178,石家庄市,世纪公园,细颗粒物(PM2.5),97,105,122,72,77,180,0,30,8,50,28,8,13,1.2,1.1
2022-04-09T07:00:00,1034A,114.509,38.0457,石家庄市,人民会堂,颗粒物(PM10),123,195,161,88,87,201,7,63,21,94,44,13,15,1.6,1.1
2022-04-09T07:00:00,1035A,114.3524,37.8911,石家庄市,封龙山(对照点),颗粒物(PM10),74,97,116,31,46,208,102,114,105,14,18,30,29,0.5,0.8
2022-04-09T07:00:00,1037A,118.131,39.6363,唐山市,雷达站,细颗粒物(PM2.5),245,239,186,195,143,207,27,60,38,49,30,13,10,2.6,1.3
2022-04-09T07:00:00,1038A,118.1725,39.6334,唐山市,物资局,细颗粒物(PM2.5),248,271,185,198,130,200,29,55,35,66,43,22,14,3.8,1.4
2022-04-09T07:00:00,1040A,118.1705,39.6506,唐山市,十二中,细颗粒物(PM2.5),248,247,194,198,148,198,17,55,29,58,36,15,14,2.6,1.3
2022-04-09T07:00:00,1041A,118.1869,39.622,唐山市,小山,细颗粒物(PM2.5),232,284,198,182,114,211,34,49,33,55,39,29,13,4.3,1.3
2022-04-09T07:00:00,1042A,119.5134,39.8207,秦皇岛市,北戴河环保局,细颗粒物(PM2.5),122,125,95,92,63,146,104,132,98,18,25,8,9,0.8,1.2
2022-04-09T07:00:00,1043A,119.7493,40.0116,秦皇岛市,第一关,细颗粒物(PM2.5),98,106,139,73,104,160,93,111,86,21,30,13,15,0.6,0.8
2022-04-09T07:00:00,1044A,119.5897,39.9499,秦皇岛市,监测站,颗粒物(PM10),72,93,133,48,96,181,101,135,107,36,37,8,10,0.7,1.2
2022-04-09T07:00:00,1046A,119.5251,39.9041,秦皇岛市,建设大厦,颗粒物(PM10),65,79,145,40,94,192,107,145,115,23,30,6,13,0.6,1.3
2022-04-09T07:00:00,1048A,114.5302,36.6116,邯郸市,东污水处理厂,细颗粒物(PM2.5),112,138,121,84,82,159,25,64,46,47,17,24,22,0.5,0.2
2022-04-09T07:00:00,1049A,114.4918,36.5713,邯郸市,矿院,细颗粒物(PM2.5),107,152,134,80,72,163,24,74,46,39,15,6,7,0.9,0.6
2022-04-09T07:00:00,1050A,114.484,36.6133,邯郸市,丛台公园,细颗粒物(PM2.5),98,134,122,73,72,165,46,90,71,35,20,13,11,1.6,0.9
2022-04-09T07:00:00,1053A,115.4713,38.9108,保定市,接待中心,细颗粒物(PM2.5),199,199,189,149,97,218,50,20,20,57,67,12,15,1.2,1.3
2022-04-09T07:00:00,1054A,115.4612,38.8416,保定市,地表水厂,细颗粒物(PM2.5),169,236,180,128,81,220,55,55,49,52,45,9,12,1.0,1
2022-04-09T07:00:00,1055A,115.4323,38.8697,保定市,胶片厂,细颗粒物(PM2.5),206,207,158,156,89,216,56,29,29,45,46,13,16,1.1,1.2
2022-04-09T07:00:00,1056A,115.5086,38.8639,保定市,监测站,细颗粒物(PM2.5),229,210,172,179,102,214,37,42,39,59,53,10,11,1.2,1.1
2022-04-09T07:00:00,1057A,114.8883,40.8336,张家口市,人民公园,颗粒物(PM10),60,70,77,18,23,180,58,74,69,10,15,4,6,0.2,0.3
2022-04-09T07:00:00,1059A,114.8687,40.8042,张家口市,五金库,颗粒物(PM10),56,61,86,19,31,181,62,67,66,10,26,6,8,0.4,0.6
2022-04-09T07:00:00,1060A,114.8902,40.762,张家口市,世纪豪园,颗粒物(PM10),55,60,95,14,36,180,61,83,71,14,27,4,6,0.4,0.6
2022-04-09T07:00:00,1061A,114.8916,40.8661,张家口市,北泵房(对照点),颗粒物(PM10),56,62,67,26,25,184,60,68,66,6,12,7,9,0.3,0.5
2022-04-09T07:00:00,1062A,117.9531,40.9081,承德市,铁路,细颗粒物(PM2.5),109,141,115,82,53,171,14,57,42,73,41,6,10,0.8,0.8
2022-04-09T07:00:00,1063A,117.9392,40.9763,承德市,中国银行,细颗粒物(PM2.5),119,136,122,90,55,167,36,54,47,38,32,4,8,0.8,0.8
2022-04-09T07:00:00,1064A,117.9503,40.928,承德市,开发区,细颗粒物(PM2.5),115,123,103,87,54,186,37,68,56,52,34,8,12,0.9,0.8
2022-04-09T07:00:00,1065A,117.8051,40.9655,承德市,文化中心,细颗粒物(PM2.5),139,139,107,106,58,182,43,71,60,50,36,3,11,0.9,0.9
2022-04-09T07:00:00,1066A,117.9268,41.0026,承德市,离宫(对照点),细颗粒物(PM2.5),117,124,102,88,53,176,64,88,75,33,27,4,7,0.7,0.7
2022-04-09T07:00:00,1067A,116.6708,39.5111,廊坊市,药材公司,细颗粒物(PM2.5),221,249,162,171,96,214,23,101,55,57,38,4,9,1.1,0.9
2022-04-09T07:00:00,1068A,116.7214,39.5589,廊坊市,开发区,细颗粒物(PM2.5),216,229,160,166,98,222,24,106,44,40,35,4,8,1.0,0.9
2022-04-09T07:00:00,1070A,116.7244,39.5269,廊坊市,北华航天学院,细颗粒物(PM2.5),244,244,175,194,115,213,21,105,50,51,35,7,11,1.1,1
2022-04-09T07:00:00,1071A,116.8842,38.2991,沧州市,沧县城建局,细颗粒物(PM2.5),72,75,91,52,72,156,51,105,82,34,19,4,6,0.9,0.8
2022-04-09T07:00:00,1072A,116.8584,38.3254,沧州市,电视转播站,颗粒物(PM10),62,74,107,42,63,152,65,90,79,23,19,10,13,0.5,0.5
2022-04-09T07:00:00,1073A,116.8709,38.3228,沧州市,市环保局,细颗粒物(PM2.5),74,69,95,54,73,161,71,101,86,23,17,12,13,0.9,0.8
2022-04-09T07:00:00,1074A,115.6838,37.7541,衡水市,电机北厂,细颗粒物(PM2.5),82,105,109,60,72,159,50,105,77,24,15,8,12,0.4,0.4
2022-04-09T07:00:00,1075A,115.6303,37.7316,衡水市,市监测站,颗粒物(PM10),84,117,142,58,67,159,47,99,72,16,12,23,23,0.6,0.7
2022-04-09T07:00:00,1077A,114.4704,37.0886,邢台市,达活泉,细颗粒物(PM2.5),122,180,180,92,81,155,57,76,70,25,22,20,22,1.4,1.4
2022-04-09T07:00:00,1078A,114.5062,37.0349,邢台市,邢师高专,细颗粒物(PM2.5),119,167,156,90,79,155,24,79,50,46,27,5,12,1.5,1.3
2022-04-09T07:00:00,1079A,114.5237,37.0851,邢台市,路桥公司,细颗粒物(PM2.5),128,177,157,97,82,156,53,90,68,31,23,10,14,1.7,1.4
2022-04-09T07:00:00,1080A,114.4725,37.0719,邢台市,市环保局,细颗粒物(PM2.5),132,178,168,100,88,149,51,79,65,35,26,9,12,1.5,1.3
2022-04-09T07:00:00,1081A,112.5139,37.8873,太原市,尖草坪,颗粒物(PM10),87,123,106,42,46,184,5,10,5,76,47,8,13,0.5,0.6
2022-04-09T07:00:00,1083A,112.434,38.0108,太原市,上兰(对照点),颗粒物(PM10),61,71,77,27,31,197,76,91,80,13,15,12,17,0.3,0.4
2022-04-09T07:00:00,1084A,112.469,37.7124,太原市,晋源,颗粒物(PM10),92,134,93,62,44,204,26,25,24,60,41,24,17,1.0,0.7
2022-04-09T07:00:00,1085A,112.5583,37.7394,太原市,小店,颗粒物(PM10),103,156,118,74,57,196,17,49,23,66,38,43,26,1.2,0.8
2022-04-09T07:00:00,1086A,112.5369,37.8692,太原市,桃园,颗粒物(PM10),78,106,106,34,44,185,10,6,5,78,50,8,10,0.4,0.7
2022-04-09T07:00:00,1087A,112.57,37.8195,太原市,坞城,颗粒物(PM10),103,156,112,75,50,194,11,28,25,73,39,23,21,1.2,0.7
2022-04-09T07:00:00,1088A,112.549,37.9854,太原市,南寨,颗粒物(PM10),101,151,141,37,45,175,4,3,3,50,50,7,16,0.5,0.8
2022-04-09T07:00:00,1090A,111.6507,40.7517,呼和浩特市,呼市一监,细颗粒物(PM2.5),152,197,120,116,40,160,22,80,41,50,24,11,10,1.0,0.5
2022-04-09T07:00:00,1091A,111.6572,40.8033,呼和浩特市,小召,细颗粒物(PM2.5),87,80,90,64,33,142,13,69,42,54,29,10,10,0.6,0.5
2022-04-09T07:00:00,1094A,111.7516,40.8369,呼和浩特市,如意水处理厂,,42,42,74,20,31,147,18,80,40,46,25,8,12,0.4,0.4
2022-04-09T07:00:00,1095A,111.7276,40.8062,呼和浩特市,二十九中,细颗粒物(PM2.5),65,65,92,47,36,149,19,69,40,41,25,10,12,0.6,0.6
2022-04-09T07:00:00,1096A,111.5512,40.7866,呼和浩特市,工大金川校区,,50,50,79,19,32,144,22,67,47,30,16,11,12,0.6,0.4
2022-04-09T07:00:00,1097A,111.717,40.7612,呼和浩特市,化肥厂生活区,细颗粒物(PM2.5),115,131,117,87,51,133,19,53,28,38,26,15,15,0.8,0.6
2022-04-09T07:00:00,1098A,123.6836,41.9339,沈阳市,森林路(对照点),细颗粒物(PM2.5),90,110,109,67,53,186,95,124,111,27,21,14,14,1.2,1
2022-04-09T07:00:00,1099A,123.505,41.7406,沈阳市,浑南东路,细颗粒物(PM2.5),93,105,104,69,54,188,60,128,108,40,15,36,19,0.8,0.9
2022-04-09T07:00:00,1100A,123.4231,41.6989,沈阳市,新秀街,细颗粒物(PM2.5),82,100,133,60,61,178,85,124,113,37,20,37,23,1.0,1
2022-04-09T07:00:00,1102A,123.5903,41.8411,沈阳市,东陵路,细颗粒物(PM2.5),108,91,105,81,56,179,86,116,105,22,15,19,17,1.3,1
2022-04-09T07:00:00,1103A,123.4264,41.8467,沈阳市,陵东街,颗粒物(PM10),72,93,162,50,59,185,100,131,120,18,17,8,13,0.8,0.9
2022-04-09T07:00:00,1104A,123.4114,41.7653,沈阳市,文化路,细颗粒物(PM2.5),75,83,147,55,65,192,112,134,124,16,13,16,14,1.0,1.1
2022-04-09T07:00:00,1105A,123.4678,41.7867,沈阳市,小河沿,细颗粒物(PM2.5),74,86,127,54,58,170,97,123,116,19,14,13,14,0.8,0.9
2022-04-09T07:00:00,1106A,123.4017,41.7972,沈阳市,太原街,"颗粒物(PM10),细颗粒物(PM2.5)",79,108,168,58,71,192,113,137,127,15,13,12,14,0.7,0.8
2022-04-09T07:00:00,1108A,123.3783,41.9228,沈阳市,京沈街,细颗粒物(PM2.5),93,118,272,69,86,183,109,138,123,19,15,13,14,1.0,1
2022-04-09T07:00:00,1109A,121.612,38.9741,大连市,甘井子,细颗粒物(PM2.5),72,89,110,52,62,149,83,84,81,31,35,5,5,0.6,0.6
2022-04-09T07:00:00,1110A,121.565,38.9511,大连市,周水子,颗粒物(PM10),75,100,110,52,55,210,113,115,112,18,24,3,4,0.7,0.6
2022-04-09T07:00:00,1111A,121.5637,38.8845,大连市,星海三站,细颗粒物(PM2.5),79,76,76,58,57,158,80,99,87,27,32,5,5,0.6,0.5
2022-04-09T07:00:00,1112A,121.6302,38.9117,大连市,青泥洼桥,颗粒物(PM10),68,85,90,43,46,179,106,102,89,15,19,7,8,0.6,0.7
2022-04-09T07:00:00,1113A,121.6251,38.8638,大连市,傅家庄,颗粒物(PM10),62,73,76,42,46,171,98,100,95,22,31,7,7,0.2,0.2
2022-04-09T07:00:00,1114A,121.5213,38.8661,大连市,七贤岭,颗粒物(PM10),70,90,88,46,48,164,76,96,88,29,31,13,14,0.8,0.7
2022-04-09T07:00:00,1115A,121.2529,38.8061,大连市,旅顺,细颗粒物(PM2.5),74,61,73,54,65,169,96,123,114,18,28,10,9,0.5,0.5
2022-04-09T07:00:00,1116A,121.7485,39.1311,大连市,金州,细颗粒物(PM2.5),59,63,90,42,57,175,93,117,94,15,20,4,8,0.7,0.8
2022-04-09T07:00:00,1117A,121.7811,39.0496,大连市,开发区,细颗粒物(PM2.5),64,73,76,46,46,155,87,107,86,23,27,5,7,0.4,0.5
2022-04-09T07:00:00,1118A,121.9762,39.0631,大连市,双D港,颗粒物(PM10),59,68,66,18,34,135,98,85,85,22,33,3,3,0.3,0.3
2022-04-09T07:00:00,1119A,125.3325,43.9166,长春市,食品厂,细颗粒物(PM2.5),200,172,302,150,79,162,64,110,94,16,12,9,13,1.1,0.8
2022-04-09T07:00:00,1120A,125.2863,43.9027,长春市,客车厂,细颗粒物(PM2.5),163,157,311,124,72,163,64,114,95,22,14,17,12,1.4,1.1
2022-04-09T07:00:00,1121A,125.2841,43.8463,长春市,邮电学院,细颗粒物(PM2.5),188,185,358,141,79,163,67,114,96,16,13,6,12,1.1,0.9
2022-04-09T07:00:00,1122A,125.3716,43.8772,长春市,劳动公园,细颗粒物(PM2.5),188,162,275,141,75,172,69,122,103,22,14,20,10,1.1,0.9
2022-04-09T07:00:00,1123A,125.3297,43.8805,长春市,园林处,颗粒物(PM10),104,158,246,,,167,67,115,98,26,16,21,10,1.0,0.7
2022-04-09T07:00:00,1124A,125.4605,43.79,长春市,净月潭,,,100,244,,,172,71,123,104,15,12,8,10,0.9,0.8
2022-04-09T07:00:00,1125A,125.7194,43.515,长春市,甩湾子(对照点),细颗粒物(PM2.5),118,99,135,89,53,159,79,116,105,12,9,12,13,0.9,0.7
2022-04-09T07:00:00,1126A,125.3863,43.8447,长春市,经开区环卫处,细颗粒物(PM2.5),180,139,278,136,74,158,59,114,95,,8,31,15,1.2,1
2022-04-09T07:00:00,1127A,125.245,43.7783,长春市,高新区管委会,细颗粒物(PM2.5),165,121,293,125,71,169,70,120,101,15,12,8,10,0.9,0.8
2022-04-09T07:00:00,1128A,125.1761,43.8325,长春市,岱山公园,细颗粒物(PM2.5),144,115,282,110,69,156,54,106,87,22,13,7,9,0.9,0.8
2022-04-09T07:00:00,1129A,126.5422,45.755,哈尔滨市,岭北(对照点),颗粒物(PM10),66,81,128,27,34,114,58,78,69,16,24,10,10,0.3,0.5
2022-04-09T07:00:00,1130A,126.561,45.8167,哈尔滨市,松北商大,"颗粒物(PM10),细颗粒物(PM2.5)",60,69,134,43,47,125,46,72,61,38,26,5,5,0.9,0.9
2022-04-09T07:00:00,1131A,126.979,45.5419,哈尔滨市,阿城会宁,细颗粒物(PM2.5),97,106,275,72,55,128,36,48,47,39,31,18,17,1.1,1
2022-04-09T07:00:00,1132A,126.599,45.7222,哈尔滨市,南岗学府路,颗粒物(PM10),66,81,214,46,46,113,45,74,62,41,32,14,11,0.6,1
2022-04-09T07:00:00,1133A,126.689,45.7733,哈尔滨市,太平宏伟公园,颗粒物(PM10),72,93,259,48,58,122,52,70,60,35,38,14,10,0.8,0.8
2022-04-09T07:00:00,1134A,126.635,45.7667,哈尔滨市,道外承德广场,颗粒物(PM10),85,119,234,54,65,109,44,60,55,40,40,20,20,0.7,0.8
2022-04-09T07:00:00,1135A,126.685,45.7319,哈尔滨市,香坊红旗大街,颗粒物(PM10),87,124,199,40,54,114,45,70,63,38,36,23,19,0.8,0.8
2022-04-09T07:00:00,1136A,126.6411,45.7258,哈尔滨市,动力和平路,颗粒物(PM10),74,97,251,47,52,114,35,79,64,49,30,8,17,0.8,0.8
2022-04-09T07:00:00,1137A,126.593,45.7478,哈尔滨市,道里建国路,颗粒物(PM10),71,92,225,48,56,108,32,67,55,51,40,18,18,0.8,1
2022-04-09T07:00:00,1138A,126.615,45.61,哈尔滨市,平房东轻厂,细颗粒物(PM2.5),90,93,268,67,64,112,9,56,35,65,38,36,27,0.0,0.2
2022-04-09T07:00:00,1139A,126.595,45.9855,哈尔滨市,呼兰师专,细颗粒物(PM2.5),84,71,108,62,61,114,55,79,65,25,22,11,11,0.8,0.8
2022-04-09T07:00:00,1140A,126.6206,45.6842,哈尔滨市,省农科院,颗粒物(PM10),76,102,236,44,58,113,38,76,62,47,35,18,18,0.6,1
2022-04-09T07:00:00,1141A,121.4,31.238,上海市,普陀,颗粒物(PM10),51,51,52,21,20,200,103,110,104,26,22,18,14,1.2,1.1
2022-04-09T07:00:00,1142A,121.478,31.2036,上海市,十五厂,,44,44,44,24,24,183,94,100,92,20,18,7,7,0.7,0.7
2022-04-09T07:00:00,1143A,121.467,31.3008,上海市,虹口,,46,46,53,21,22,182,98,104,98,22,21,4,5,0.6,0.6
2022-04-09T07:00:00,1144A,121.412,31.1654,上海市,徐汇上师大,,49,49,52,27,26,181,82,93,84,30,24,14,19,1.2,1
2022-04-09T07:00:00,1145A,121.536,31.2659,上海市,杨浦四漂,,44,44,50,22,20,188,100,102,99,20,15,10,9,0.7,0.7
2022-04-09T07:00:00,1147A,121.425,31.2261,上海市,静安监测站,,50,50,52,25,24,182,92,102,94,29,25,44,16,0.2,0.1
2022-04-09T07:00:00,1148A,121.703,31.1907,上海市,浦东川沙,,42,42,42,23,21,193,110,113,111,20,22,5,6,0.7,0.7
2022-04-09T07:00:00,1149A,121.533,31.2284,上海市,浦东新区监测站,,47,47,48,22,21,187,105,105,102,20,18,6,6,0.7,0.6
2022-04-09T07:00:00,1150A,121.577,31.2071,上海市,浦东张江,,41,41,47,24,23,170,100,98,97,21,21,5,5,0.7,0.6
2022-04-09T07:00:00,1151A,118.8086,32.1065,南京市,迈皋桥,颗粒物(PM10),61,72,85,31,31,185,96,145,119,28,36,10,7,0.6,0.6
2022-04-09T07:00:00,1152A,118.7538,32.0551,南京市,草场门,颗粒物(PM10),67,83,93,41,34,184,77,106,89,54,51,14,12,0.4,0.4
2022-04-09T07:00:00,1153A,118.7794,32.0745,南京市,山西路,颗粒物(PM10),73,95,102,39,37,190,84,137,110,18,26,5,6,0.5,0.5
2022-04-09T07:00:00,1154A,118.7752,32.0023,南京市,中华门,颗粒物(PM10),79,107,100,39,34,184,67,108,85,46,37,4,5,0.4,0.4
2022-04-09T07:00:00,1155A,118.8109,32.0309,南京市,瑞金路,颗粒物(PM10),67,84,78,44,38,188,71,124,87,40,35,7,6,0.4,0.5
2022-04-09T07:00:00,1156A,118.7997,32.0754,南京市,玄武湖,颗粒物(PM10),68,85,77,41,33,194,96,144,119,28,26,4,4,0.6,0.6
2022-04-09T07:00:00,1157A,118.6414,32.0931,南京市,浦口,颗粒物(PM10),71,92,92,29,25,183,75,114,100,36,30,21,9,1.0,0.6
2022-04-09T07:00:00,1158A,118.7356,31.9996,南京市,奥体中心,颗粒物(PM10),67,83,92,34,34,185,71,123,89,42,37,11,10,0.7,0.7
2022-04-09T07:00:00,1159A,118.9125,32.1028,南京市,仙林大学城,颗粒物(PM10),69,88,85,44,35,215,80,153,116,43,24,9,8,0.7,0.6
2022-04-09T07:00:00,1160A,120.561,31.2472,苏州市,上方山(对照点),颗粒物(PM10),52,53,60,34,38,220,28,42,31,48,32,8,9,0.4,0.5
2022-04-09T07:00:00,1162A,120.591,31.3019,苏州市,彩香,颗粒物(PM10),54,57,57,36,29,235,46,65,51,41,27,12,11,0.6,0.6
2022-04-09T07:00:00,1163A,120.596,31.3264,苏州市,轧钢厂,颗粒物(PM10),55,59,67,32,27,236,50,74,57,38,28,14,10,0.5,0.5
2022-04-09T07:00:00,1164A,120.613,31.2703,苏州市,吴中区,颗粒物(PM10),54,57,62,30,28,231,42,64,47,46,33,14,9,0.5,0.5
2022-04-09T07:00:00,1165A,120.543,31.2994,苏州市,苏州新区,颗粒物(PM10),60,70,63,34,30,237,51,66,57,44,26,13,12,0.6,0.6
2022-04-09T07:00:00,1166A,120.669,31.3097,苏州市,苏州工业园区,,46,46,53,27,28,229,69,74,69,27,27,11,10,0.5,0.5
2022-04-09T07:00:00,1167A,120.641,31.3708,苏州市,相城区,颗粒物(PM10),58,66,68,29,28,213,52,59,51,36,34,9,7,0.6,0.6
2022-04-09T07:00:00,1168A,120.9098,31.9663,南通市,狼山街道,颗粒物(PM10),52,54,64,24,29,221,50,39,36,51,54,10,11,0.2,0.3
2022-04-09T07:00:00,1169A,120.86,32.0005,南通市,虹桥,颗粒物(PM10),52,53,66,21,25,201,70,82,74,37,37,12,13,0.5,0.6
2022-04-09T07:00:00,1170A,120.87,32.02,南通市,城中,颗粒物(PM10),53,55,66,14,23,210,78,86,78,33,35,8,8,0.6,0.6
2022-04-09T07:00:00,1171A,120.94,31.93,南通市,星湖花园,颗粒物(PM10),52,53,60,24,27,216,62,80,72,45,41,8,9,0.3,0.4
2022-04-09T07:00:00,1172A,120.81,32.0417,南通市,紫琅学院,颗粒物(PM10),53,56,66,19,28,222,55,89,72,49,36,11,11,0.4,0.5
2022-04-09T07:00:00,1173A,119.176,34.5885,连云港市,市环境监测站,颗粒物(PM10),76,102,94,48,42,196,116,122,120,18,13,11,9,0.8,0.7
2022-04-09T07:00:00,1177A,117.179,34.2761,徐州市,黄河新村,颗粒物(PM10),68,85,85,34,41,167,77,108,89,17,10,13,10,0.7,0.7
2022-04-09T07:00:00,1178A,117.1918,34.2384,徐州市,淮塔,颗粒物(PM10),61,71,81,31,36,162,72,96,78,22,15,14,13,0.7,0.7
2022-04-09T07:00:00,1180A,117.256,34.2153,徐州市,新城区,颗粒物(PM10),61,71,86,31,36,163,81,91,82,17,14,9,8,0.7,0.8
2022-04-09T07:00:00,1181A,117.244,34.2911,徐州市,桃园路,颗粒物(PM10),59,68,83,29,39,164,85,96,87,14,11,16,13,0.9,0.6
2022-04-09T07:00:00,1182A,117.2933,34.2778,徐州市,农科院,颗粒物(PM10),54,58,73,17,31,160,83,98,88,10,7,12,11,0.7,0.7
2022-04-09T07:00:00,1186A,119.389,32.3761,扬州市,邗江监测站,颗粒物(PM10),74,97,104,44,35,204,44,126,83,48,29,13,11,0.8,0.6
2022-04-09T07:00:00,1188A,120.269,31.4867,无锡市,雪浪,颗粒物(PM10),65,80,86,24,29,244,53,68,64,35,22,8,9,0.3,0.3
2022-04-09T07:00:00,1189A,120.275,31.6219,无锡市,黄巷,颗粒物(PM10),61,72,85,24,30,238,53,74,68,54,34,10,11,0.5,0.4
2022-04-09T07:00:00,1190A,120.294,31.56,无锡市,曹张,颗粒物(PM10),57,63,67,36,30,236,35,62,48,57,29,10,10,0.8,0.7
2022-04-09T07:00:00,1191A,120.242,31.5031,无锡市,漆塘,颗粒物(PM10),56,61,77,38,36,241,70,71,68,22,20,9,9,0.3,0.3
2022-04-09T07:00:00,1192A,120.3489,31.5863,无锡市,东亭,颗粒物(PM10),62,73,78,34,27,241,21,49,34,71,48,8,9,0.7,0.6
2022-04-09T07:00:00,1193A,120.354,31.5475,无锡市,旺庄,颗粒物(PM10),60,70,78,36,35,230,24,41,30,66,39,11,11,0.8,0.6
2022-04-09T07:00:00,1194A,120.245,31.5631,无锡市,荣巷,颗粒物(PM10),53,56,72,29,33,230,69,67,66,27,25,10,11,0.5,0.5
2022-04-09T07:00:00,1195A,120.299,31.6817,无锡市,堰桥,颗粒物(PM10),59,68,81,34,33,226,31,57,48,60,35,10,10,0.9,0.6
2022-04-09T07:00:00,1196A,119.9633,31.762,常州市,市监测站,颗粒物(PM10),74,98,75,34,35,228,36,75,53,46,25,10,9,0.7,0.5
2022-04-09T07:00:00,1200A,119.9468,31.7069,常州市,武进监测站,颗粒物(PM10),68,86,73,38,39,246,55,86,63,38,26,9,9,0.6,0.6
2022-04-09T07:00:00,1201A,119.9255,31.9087,常州市,安家,"颗粒物(PM10),细颗粒物(PM2.5)",80,109,63,59,37,236,33,91,63,51,37,9,9,0.7,0.6
2022-04-09T07:00:00,1204A,119.4974,32.1968,镇江市,职教中心,颗粒物(PM10),70,89,77,46,37,227,54,118,75,37,29,10,7,0.5,0.4
2022-04-09T07:00:00,1205A,119.4303,32.1328,镇江市,丹徒区监测站,颗粒物(PM10),70,89,74,46,40,246,50,111,72,40,29,10,8,0.6,0.4
2022-04-09T07:00:00,1206A,119.905,32.4878,泰州市,公园路,颗粒物(PM10),69,88,93,36,42,244,53,110,72,54,31,10,8,1.1,0.9
2022-04-09T07:00:00,1207A,119.9189,32.4625,泰州市,莲花,颗粒物(PM10),63,76,95,41,48,246,42,106,65,50,26,12,8,1.2,0.9
2022-04-09T07:00:00,1209A,119.888,32.4639,泰州市,留学生创业园,颗粒物(PM10),76,101,83,41,36,251,48,106,69,54,33,13,12,1.0,0.8
2022-04-09T07:00:00,1212A,118.989,33.6067,淮安市,市监测站,颗粒物(PM10),82,114,103,53,47,205,97,141,120,40,29,23,20,1.0,1.1
2022-04-09T07:00:00,1213A,119.135,33.5039,淮安市,楚州区监测站,颗粒物(PM10),72,93,98,41,38,213,77,155,120,51,36,12,13,0.9,0.8
2022-04-09T07:00:00,1214A,119.0186,33.6297,淮安市,淮阴区监测站,细颗粒物(PM2.5),85,101,93,63,41,189,97,153,127,33,25,18,15,1.0,0.9
2022-04-09T07:00:00,1215A,120.118,33.4022,盐城市,盐城电厂,颗粒物(PM10),65,80,94,40,46,249,70,157,99,28,18,15,13,0.7,0.6
2022-04-09T07:00:00,1216A,120.156,33.3942,盐城市,市监测站,颗粒物(PM10),58,66,80,40,42,240,64,148,92,31,22,12,10,0.6,0.6
2022-04-09T07:00:00,1218A,120.2144,33.38,盐城市,开发区管委会,颗粒物(PM10),55,59,64,34,30,262,59,139,89,28,20,9,8,0.8,0.8
2022-04-09T07:00:00,1220A,118.293,33.9528,宿迁市,宿迁学院,颗粒物(PM10),57,63,68,39,33,168,90,104,99,16,16,9,7,0.4,0.5
2022-04-09T07:00:00,1221A,118.2442,33.9592,宿迁市,宿迁中学,颗粒物(PM10),56,62,46,28,30,164,86,99,94,17,12,6,6,0.5,0.6
2022-04-09T07:00:00,1223A,120.2072,30.2111,杭州市,滨江,颗粒物(PM10),65,80,93,35,39,201,42,120,81,57,46,8,9,0.6,0.6
2022-04-09T07:00:00,1224A,120.0633,30.2747,杭州市,西溪,颗粒物(PM10),54,58,69,36,38,198,6,21,7,41,42,4,5,0.5,0.4
2022-04-09T07:00:00,1226A,120.3461,30.3153,杭州市,下沙,颗粒物(PM10),66,81,101,28,38,231,77,78,78,51,54,9,11,0.4,0.5
2022-04-09T07:00:00,1227A,120.1269,30.2456,杭州市,卧龙桥,,45,44,54,31,32,186,21,61,40,25,26,4,5,0.8,0.6
2022-04-09T07:00:00,1228A,120.1903,30.2692,杭州市,浙江农大,颗粒物(PM10),65,80,85,31,42,226,56,120,79,48,43,7,8,0.6,0.6
2022-04-09T07:00:00,1230A,120.1197,30.3119,杭州市,和睦小学,颗粒物(PM10),68,86,101,40,42,196,47,107,41,50,51,4,5,0.8,0.7
2022-04-09T07:00:00,1231A,120.3019,30.4183,杭州市,临平镇,颗粒物(PM10),67,83,111,30,46,248,74,45,45,46,50,6,7,0.5,0.6
2022-04-09T07:00:00,1232A,120.2697,30.1819,杭州市,城厢镇,颗粒物(PM10),63,76,92,14,32,200,81,126,106,37,38,7,8,0.5,0.6
2022-04-09T07:00:00,1233A,120.0883,30.1808,杭州市,云栖,颗粒物(PM10),57,63,77,31,31,200,10,42,31,44,41,6,7,0.5,0.5
2022-04-09T07:00:00,1234A,121.8358,29.911,宁波市,区环保大楼,颗粒物(PM10),56,61,49,20,19,128,38,114,92,64,30,11,8,0.6,0.5
2022-04-09T07:00:00,1235A,121.56,29.82,宁波市,万里学院,,47,47,45,18,19,164,75,100,95,36,21,11,10,0.4,0.4
2022-04-09T07:00:00,1236A,121.713,29.9572,宁波市,龙赛医院,颗粒物(PM10),51,52,46,23,21,157,37,78,58,68,40,15,9,0.5,0.5
2022-04-09T07:00:00,1239A,121.633,29.7733,宁波市,钱湖水厂,,33,26,32,18,15,146,104,108,105,5,12,5,5,0.4,0.4
2022-04-09T07:00:00,1240A,121.5856,29.8635,宁波市,太古小学,,47,47,42,21,18,136,58,93,81,45,22,11,10,0.6,0.5
2022-04-09T07:00:00,1241A,121.524,29.8674,宁波市,市环境监测中心,颗粒物(PM10),51,52,49,21,17,161,54,89,81,47,25,37,11,0.5,0.5
2022-04-09T07:00:00,1242A,120.634,28.0089,温州市,瓯海,颗粒物(PM10),90,129,71,52,24,120,11,4,4,55,46,9,7,0.4,0.4
2022-04-09T07:00:00,1243A,120.6748,27.9939,温州市,南浦,细颗粒物(PM2.5),92,129,75,68,29,115,18,12,12,54,47,10,8,0.3,0.3
2022-04-09T07:00:00,1244A,120.76,27.9747,温州市,龙湾,颗粒物(PM10),93,136,82,48,21,123,9,4,4,61,49,6,5,0.4,0.3
2022-04-09T07:00:00,1245A,120.6709,28.0167,温州市,市站,颗粒物(PM10),52,54,59,23,22,115,33,16,16,34,39,6,7,0.2,0.3
2022-04-09T07:00:00,1247A,120.6053,29.9928,绍兴市,城东开发委,,48,48,64,23,26,191,64,124,97,35,24,5,7,0.5,0.5
2022-04-09T07:00:00,1250A,120.0751,30.8669,湖州市,城西水厂,颗粒物(PM10),72,93,90,45,38,211,30,52,28,81,49,13,12,0.7,0.6
2022-04-09T07:00:00,1252A,120.7436,30.778,嘉兴市,清河小学,颗粒物(PM10),54,58,54,26,24,215,75,88,81,32,31,8,10,0.4,0.5
2022-04-09T07:00:00,1253A,120.726,30.7478,嘉兴市,嘉兴学院,颗粒物(PM10),53,56,55,24,25,207,80,95,86,27,26,12,15,0.9,1
2022-04-09T07:00:00,1255A,121.273,28.6459,台州市,黄岩环保大楼,,48,48,54,16,17,167,43,33,33,24,22,6,6,0.3,0.3
2022-04-09T07:00:00,1256A,121.419,28.6542,台州市,台州环保大楼,颗粒物(PM10),56,62,72,22,24,159,22,46,25,44,30,6,5,0.4,0.3
2022-04-09T07:00:00,1257A,121.377,28.5773,台州市,路桥田洋王,颗粒物(PM10),63,76,63,27,25,153,14,8,6,45,34,7,8,0.4,0.4
2022-04-09T07:00:00,1258A,122.122,30.0203,舟山市,定海檀枫,,26,26,25,12,10,105,77,79,79,17,21,1,2,0.2,0.2
2022-04-09T07:00:00,1259A,122.3094,29.9558,舟山市,普陀东港,,27,26,22,12,11,110,84,106,100,24,23,4,4,0.3,0.3
2022-04-09T07:00:00,1260A,122.19,29.9944,舟山市,临城新区,,25,23,22,10,10,106,80,86,84,26,26,4,4,0.2,0.2
2022-04-09T07:00:00,1262A,119.647,29.077,金华市,十五中,颗粒物(PM10),53,56,75,24,32,172,71,107,90,34,31,7,7,0.4,0.5
2022-04-09T07:00:00,1263A,119.686,29.1029,金华市,监测站,颗粒物(PM10),61,72,75,20,24,180,21,115,61,69,39,6,6,0.5,0.3
2022-04-09T07:00:00,1264A,118.8692,28.9398,衢州市,环保大楼,颗粒物(PM10),54,58,73,28,28,170,5,23,13,54,41,30,13,0.6,0.6
2022-04-09T07:00:00,1265A,118.8709,28.9666,衢州市,实验学校,颗粒物(PM10),57,64,64,21,24,174,4,21,18,42,35,13,8,0.5,0.5
2022-04-09T07:00:00,1266A,118.8621,28.9808,衢州市,衢州学院,颗粒物(PM10),63,75,69,25,28,159,4,3,3,61,47,10,8,0.5,0.5
2022-04-09T07:00:00,1267A,119.914,28.4514,丽水市,监测站大楼,,34,34,53,17,23,151,34,59,34,25,20,7,7,0.3,0.3
2022-04-09T07:00:00,1268A,119.93,28.4586,丽水市,莲都小学,,37,37,61,11,19,161,47,61,53,26,21,7,7,0.3,0.3
2022-04-09T07:00:00,1269A,119.879,28.4231,丽水市,余庄前,,43,43,47,28,24,143,15,57,31,15,17,5,7,0.2,0.2
2022-04-09T07:00:00,1270A,117.1959,31.7848,合肥市,明珠广场,颗粒物(PM10),52,53,81,22,27,137,73,34,34,31,52,9,7,0.5,0.6
2022-04-09T07:00:00,1271A,117.3072,31.8764,合肥市,三里街,颗粒物(PM10),67,83,90,29,30,128,46,32,32,63,58,10,9,0.5,0.5
2022-04-09T07:00:00,1272A,117.2588,31.8707,合肥市,琥珀山庄,颗粒物(PM10),56,61,76,24,22,161,68,30,30,33,38,7,6,0.6,0.6
2022-04-09T07:00:00,1273A,117.1604,31.9052,合肥市,董铺水库(对照点),颗粒物(PM10),56,61,81,22,21,136,89,114,80,28,27,10,9,0.5,0.5
2022-04-09T07:00:00,1274A,117.25,31.8571,合肥市,长江中路,颗粒物(PM10),54,58,87,17,19,148,80,57,50,40,49,10,9,0.4,0.3
2022-04-09T07:00:00,1275A,117.266,31.9436,合肥市,庐阳区,颗粒物(PM10),59,68,92,19,23,136,73,81,56,47,43,10,9,0.7,0.5
2022-04-09T07:00:00,1276A,117.336,31.8586,合肥市,瑶海区,颗粒物(PM10),59,68,97,24,26,145,64,52,52,40,42,10,9,0.7,0.6
2022-04-09T07:00:00,1277A,117.3027,31.7964,合肥市,包河区,颗粒物(PM10),58,66,94,24,30,154,75,43,43,30,42,7,5,0.4,0.4
2022-04-09T07:00:00,1278A,117.2776,31.7385,合肥市,滨湖新区,颗粒物(PM10),56,61,76,24,24,152,86,72,72,19,19,5,3,0.3,0.2
2022-04-09T07:00:00,1279A,117.1318,31.8403,合肥市,高新区,颗粒物(PM10),58,66,73,27,24,138,92,107,81,28,30,13,11,0.5,0.5
2022-04-09T07:00:00,1280A,119.3903,26.0543,福州市,鼓山(对照点),,35,33,38,9,11,149,109,114,112,4,5,5,4,0.4,0.3
2022-04-09T07:00:00,1282A,119.2681,26.0504,福州市,师大,颗粒物(PM10),56,62,47,20,15,148,56,56,56,26,21,15,5,0.4,0.3
2022-04-09T07:00:00,1283A,119.2984,26.1028,福州市,五四北路,颗粒物(PM10),53,55,40,14,14,145,43,48,47,25,17,5,3,0.3,0.2
2022-04-09T07:00:00,1284A,119.2648,26.0768,福州市,杨桥西路,颗粒物(PM10),53,56,47,16,15,140,40,45,40,29,19,9,5,0.9,0.8
2022-04-09T07:00:00,1285A,119.317,26.0746,福州市,紫阳,颗粒物(PM10),52,54,39,21,16,142,50,48,48,24,16,8,5,0.5,0.4
2022-04-09T07:00:00,1286A,118.1608,24.8169,厦门市,溪东(对照点),,30,30,31,15,18,146,91,104,98,2,3,1,2,0.2,0.2
2022-04-09T07:00:00,1287A,118.1514,24.4767,厦门市,洪文,颗粒物(PM10),54,57,50,25,16,127,40,86,69,40,16,4,4,0.4,0.4
2022-04-09T07:00:00,1288A,118.0661,24.4444,厦门市,鼓浪屿,颗粒物(PM10),63,76,62,42,21,141,13,94,40,65,26,18,5,0.5,0.3
2022-04-09T07:00:00,1290A,115.8931,28.6843,南昌市,省外办,颗粒物(PM10),65,80,84,32,32,171,6,4,4,70,56,7,7,1.1,0.8
2022-04-09T07:00:00,1291A,115.8886,28.7003,南昌市,省林业公司,颗粒物(PM10),88,126,88,35,31,185,1,7,4,72,58,4,10,1.1,1
2022-04-09T07:00:00,1292A,115.8126,28.7442,南昌市,林科所,,46,46,61,25,22,187,84,35,35,30,50,8,12,0.4,0.5
2022-04-09T07:00:00,1294A,115.8518,28.687,南昌市,建工学校,颗粒物(PM10),63,76,83,29,30,190,7,15,10,66,48,11,14,0.6,0.6
2022-04-09T07:00:00,1295A,115.8921,28.6424,南昌市,象湖,颗粒物(PM10),81,111,103,39,35,182,6,2,1,68,50,14,7,1.1,0.9
2022-04-09T07:00:00,1296A,115.7423,28.7996,南昌市,武术学校(对照点),,26,26,43,14,20,184,30,57,44,5,8,8,14,0.5,0.6
2022-04-09T07:00:00,1298A,115.9314,28.6842,南昌市,省站,颗粒物(PM10),77,104,89,42,39,177,9,4,4,91,55,16,12,1.1,0.8
2022-04-09T07:00:00,1299A,116.9862,36.6114,济南市,科干所,颗粒物(PM10),67,83,96,42,42,173,138,162,144,11,9,14,13,0.8,0.9
2022-04-09T07:00:00,1300A,116.9376,36.665,济南市,农科所,颗粒物(PM10),68,85,113,27,36,155,118,139,124,15,13,12,11,0.2,0.3
2022-04-09T07:00:00,1301A,117.1265,36.6734,济南市,开发区,颗粒物(PM10),63,76,80,25,35,170,140,162,146,4,7,12,10,0.4,0.5
2022-04-09T07:00:00,1303A,117.0624,36.6868,济南市,省种子仓库,颗粒物(PM10),62,73,94,24,42,174,137,166,148,5,9,13,12,0.7,0.8
2022-04-09T07:00:00,1304A,116.9489,36.6447,济南市,机床二厂,颗粒物(PM10),73,95,110,27,40,165,130,151,135,10,11,12,10,0.6,0.7
2022-04-09T07:00:00,1305A,117.0495,36.663,济南市,市监测站,颗粒物(PM10),66,81,93,26,38,171,135,162,145,5,7,14,13,0.3,0.4
2022-04-09T07:00:00,1306A,116.7675,36.5484,济南市,长清党校,颗粒物(PM10),62,73,101,29,42,166,124,140,127,15,12,13,12,0.8,0.9
2022-04-09T07:00:00,1307A,120.6659,36.2403,青岛市,仰口(对照点),细颗粒物(PM2.5),85,90,66,63,45,190,123,159,125,9,14,5,6,0.6,0.7
2022-04-09T07:00:00,1310A,120.4134,36.0658,青岛市,市南区东部子站,颗粒物(PM10),73,95,46,46,24,123,95,75,75,32,26,7,5,0.5,0.4
2022-04-09T07:00:00,1311A,120.3664,36.1032,青岛市,四方区子站,颗粒物(PM10),70,90,61,41,37,116,96,93,93,31,25,11,7,1.0,0.7
2022-04-09T07:00:00,1312A,120.2994,36.054,青岛市,市南区西部子站,颗粒物(PM10),69,88,39,44,20,143,114,86,86,23,25,9,7,0.7,0.5
2022-04-09T07:00:00,1313A,120.4581,36.0858,青岛市,崂山区子站,颗粒物(PM10),73,95,47,51,25,144,100,72,72,28,22,9,7,0.6,0.5
2022-04-09T07:00:00,1314A,120.1983,35.9608,青岛市,黄岛区子站,颗粒物(PM10),68,85,40,46,26,132,100,81,81,35,23,7,4,0.8,0.7
2022-04-09T07:00:00,1315A,120.3999,36.3083,青岛市,城阳区子站,颗粒物(PM10),69,88,95,32,37,161,91,128,105,33,27,12,8,1.1,0.9
2022-04-09T07:00:00,1316A,113.69031,34.76122,郑州市,烟厂,颗粒物(PM10),84,118,128,32,42,180,28,112,77,57,27,10,12,0.7,0.6
2022-04-09T07:00:00,1317A,113.65724,34.77134,郑州市,郑纺机,颗粒物(PM10),91,132,121,49,38,180,23,91,55,64,37,12,12,0.9,0.8
2022-04-09T07:00:00,1318A,113.67526,34.80246,郑州市,银行学校,颗粒物(PM10),103,155,116,71,45,187,45,103,73,43,28,10,9,0.7,0.5
2022-04-09T07:00:00,1319A,113.56746,34.81334,郑州市,供水公司,颗粒物(PM10),122,194,139,84,51,195,46,93,73,48,30,9,10,1.0,0.7
2022-04-09T07:00:00,1320A,113.7329,34.7178,郑州市,经开区管委,颗粒物(PM10),75,100,115,35,37,175,18,63,43,54,31,12,11,0.7,0.7
2022-04-09T07:00:00,1321A,113.73961,34.77172,郑州市,四十七中,颗粒物(PM10),73,96,116,31,40,179,46,127,93,33,23,9,10,0.7,0.7
2022-04-09T07:00:00,1322A,113.60532,34.74838,郑州市,市监测站,颗粒物(PM10),86,121,129,53,39,168,25,102,55,70,36,14,13,0.8,0.7
2022-04-09T07:00:00,1324A,113.51488,34.91089,郑州市,岗李水库(对照点),细颗粒物(PM2.5),99,114,128,74,47,219,7,24,9,40,29,7,11,0.8,0.7
2022-04-09T07:00:00,1325A,114.3677,30.5584,武汉市,东湖梨园,颗粒物(PM10),77,103,74,44,41,152,6,45,18,80,49,10,10,1.0,0.8
2022-04-09T07:00:00,1326A,114.2529,30.558,武汉市,汉阳月湖,颗粒物(PM10),53,56,69,27,28,154,40,36,36,69,61,10,10,0.7,0.8
2022-04-09T07:00:00,1327A,114.282,30.6189,武汉市,汉口花桥,颗粒物(PM10),53,55,63,32,32,148,42,41,41,62,53,14,12,0.5,0.6
2022-04-09T07:00:00,1328A,114.3025,30.5332,武汉市,武昌紫阳,,49,49,69,26,27,148,57,74,69,50,45,16,12,1.0,1
2022-04-09T07:00:00,1329A,114.3646,30.6217,武汉市,青山钢花,颗粒物(PM10),83,115,98,51,40,155,16,30,21,88,59,22,16,1.2,0.8
2022-04-09T07:00:00,1330A,114.1566,30.4825,武汉市,沌口新区,颗粒物(PM10),66,81,88,35,35,151,33,36,34,66,60,13,14,0.8,0.8
2022-04-09T07:00:00,1331A,114.3014,30.5944,武汉市,汉口江滩,颗粒物(PM10),61,72,75,36,34,154,10,25,23,102,79,11,11,0.8,0.8
2022-04-09T07:00:00,1333A,114.135,30.6319,武汉市,吴家山,颗粒物(PM10),61,72,89,29,33,158,32,31,31,79,63,12,13,0.8,0.8
2022-04-09T07:00:00,1334A,113.8454,30.2917,武汉市,沉湖七壕(对照点),颗粒物(PM10),51,52,60,25,21,163,17,48,28,64,34,6,7,0.6,0.6
2022-04-09T07:00:00,1335A,113.0833,28.2325,长沙市,经开区环保局,细颗粒物(PM2.5),55,49,62,39,38,182,81,85,84,24,32,9,9,0.5,0.5
2022-04-09T07:00:00,1336A,112.8872,28.2189,长沙市,高开区环保局,颗粒物(PM10),64,78,87,32,34,180,52,34,34,49,48,14,11,0.7,0.5
2022-04-09T07:00:00,1337A,113.0792,28.2053,长沙市,马坡岭,颗粒物(PM10),57,64,87,33,39,184,63,43,43,28,38,11,11,0.4,0.4
2022-04-09T07:00:00,1338A,112.9394,28.19,长沙市,湖南师范大学,颗粒物(PM10),53,55,58,33,39,174,43,51,50,36,26,6,5,0.5,0.4
2022-04-09T07:00:00,1339A,113.0178,28.1322,长沙市,雨花区环保局,颗粒物(PM10),54,57,70,29,29,176,82,98,80,34,32,11,9,0.3,0.3
2022-04-09T07:00:00,1340A,112.9792,28.2597,长沙市,伍家岭,颗粒物(PM10),79,107,101,55,40,174,4,5,4,37,48,6,7,0.7,0.8
2022-04-09T07:00:00,1341A,113.0014,28.1944,长沙市,火车新站,颗粒物(PM10),75,100,89,35,38,164,12,20,13,94,58,10,9,0.5,0.5
2022-04-09T07:00:00,1342A,112.9844,28.1178,长沙市,天心区环保局,颗粒物(PM10),56,62,62,36,29,170,5,64,35,88,38,10,10,0.6,0.4
2022-04-09T07:00:00,1343A,112.8908,28.1308,长沙市,湖南中医药大学,颗粒物(PM10),63,76,85,37,38,176,3,4,3,41,47,5,8,0.8,0.5
2022-04-09T07:00:00,1344A,112.9581,28.3611,长沙市,沙坪(对照点),颗粒物(PM10),56,62,76,34,32,170,70,64,64,16,22,6,8,0.7,0.6
2022-04-09T07:00:00,1345A,113.2347,23.1423,广州市,广雅中学,,42,42,74,17,36,250,60,101,78,30,46,8,9,0.7,0.8
2022-04-09T07:00:00,1346A,113.2612,23.105,广州市,市五中,,42,42,62,18,33,273,55,102,76,34,37,6,7,0.6,0.7
2022-04-09T07:00:00,1348A,113.3478,23.0916,广州市,广东商学院,,42,42,61,17,30,238,21,71,46,68,54,4,6,0.5,0.6
2022-04-09T07:00:00,1349A,113.4332,23.1047,广州市,市八十六中,颗粒物(PM10),51,52,75,17,28,234,13,52,27,70,62,8,9,0.5,0.6
2022-04-09T07:00:00,1350A,113.3505,22.9483,广州市,番禺中学,,41,41,58,14,25,235,57,76,64,30,34,8,11,0.7,0.7
2022-04-09T07:00:00,1351A,113.2146,23.3916,广州市,花都师范,颗粒物(PM10),65,80,76,34,39,219,9,84,58,90,50,5,6,0.7,0.7
2022-04-09T07:00:00,1352A,113.2597,23.1331,广州市,市监测站,,43,43,70,16,33,270,53,99,77,36,46,7,8,0.6,0.8
2022-04-09T07:00:00,1353A,113.5618,23.312,广州市,九龙镇镇龙,颗粒物(PM10),64,77,106,33,41,185,5,31,26,55,66,5,6,0.6,0.7
2022-04-09T07:00:00,1354A,113.2765,23.1544,广州市,麓湖,,44,44,62,16,30,231,8,91,49,76,49,7,8,0.7,0.7
2022-04-09T07:00:00,1355A,113.443,23.3035,广州市,帽峰山森林公园(对照点),,47,47,54,22,28,202,21,85,50,38,23,5,6,0.7,0.8
2022-04-09T07:00:00,1356A,114.1063,22.5545,深圳市,通心岭子站,,27,27,46,9,21,236,79,90,81,3,16,2,3,0.2,0.3
2022-04-09T07:00:00,1357A,114.117,22.5625,深圳市,洪湖,,28,28,51,3,24,243,77,98,84,16,28,5,6,0.7,0.7
2022-04-09T07:00:00,1358A,113.987,22.5417,深圳市,华侨城,,25,23,44,6,21,261,77,91,81,5,26,5,5,0.4,0.5
2022-04-09T07:00:00,1359A,113.9181,22.5171,深圳市,南海子站,,26,26,56,8,24,307,80,98,85,6,27,3,4,0.5,0.6
2022-04-09T07:00:00,1360A,114.2458,22.5689,深圳市,盐田,,27,27,36,12,18,168,38,71,55,44,25,4,4,0.6,0.6
2022-04-09T07:00:00,1361A,114.2283,22.7244,深圳市,龙岗,,31,31,54,9,24,198,63,92,74,28,27,2,3,0.4,0.5
2022-04-09T07:00:00,1363A,114.494,22.5422,深圳市,南澳,,27,22,34,9,15,176,86,94,92,5,13,5,5,0.4,0.4
2022-04-09T07:00:00,1364A,114.41,22.6342,深圳市,葵涌,,24,24,39,10,17,169,55,92,70,11,10,4,4,0.3,0.4
2022-04-09T07:00:00,1365A,114.297,22.5978,深圳市,梅沙,,27,27,42,8,16,178,66,97,79,13,18,5,5,0.5,0.5
2022-04-09T07:00:00,1366A,114.0678,22.738,深圳市,观澜,颗粒物(PM10),53,56,68,25,30,184,24,48,40,29,34,16,16,0.7,0.6
2022-04-09T07:00:00,1367A,113.5814,22.2618,珠海市,吉大,,46,46,43,11,18,212,66,90,78,12,19,9,10,0.3,0.4
2022-04-09T07:00:00,1368A,113.4881,22.2335,珠海市,前山,,30,30,40,14,19,198,61,97,83,33,28,9,10,0.4,0.4
2022-04-09T07:00:00,1369A,113.628,22.4251,珠海市,唐家,,30,30,39,10,22,266,53,101,75,19,22,8,10,0.3,0.3
2022-04-09T07:00:00,1370A,113.299,22.2281,珠海市,斗门,,35,35,41,14,20,220,75,103,91,17,18,6,8,0.3,0.4
2022-04-09T07:00:00,1371A,113.1294,23.0067,佛山市,湾梁,颗粒物(PM10),51,51,72,22,27,266,56,114,79,31,29,10,12,0.5,0.6
2022-04-09T07:00:00,1372A,113.1083,23.0478,佛山市,华材职中,颗粒物(PM10),52,53,73,21,32,264,64,121,84,28,35,6,8,0.5,0.6
2022-04-09T07:00:00,1373A,113.144,23.0453,佛山市,南海气象局,,48,48,66,25,32,256,37,97,69,54,39,5,6,0.5,0.6
2022-04-09T07:00:00,1374A,113.2881,22.8094,佛山市,顺德苏岗,,35,35,51,14,26,238,55,101,77,28,30,2,4,0.7,0.7
2022-04-09T07:00:00,1376A,112.8383,22.8678,佛山市,高明孔堂,,44,44,54,22,27,200,61,112,90,17,20,6,8,0.6,0.6
2022-04-09T07:00:00,1377A,112.8836,23.1588,佛山市,三水监测站,颗粒物(PM10),57,63,81,28,38,200,35,67,52,70,74,6,8,0.6,0.7
2022-04-09T07:00:00,1378A,112.867,23.185,佛山市,三水云东海,颗粒物(PM10),55,59,72,24,31,222,29,95,68,49,43,6,9,0.7,0.7
2022-04-09T07:00:00,1379A,113.3769,22.5211,中山市,华柏园,,32,31,48,22,23,252,54,107,81,23,26,4,5,0.5,0.6
2022-04-09T07:00:00,1380A,113.3881,22.5497,中山市,张溪,,40,40,60,27,25,232,45,102,73,27,26,2,4,0.4,0.4
2022-04-09T07:00:00,1381A,113.4075,22.5111,中山市,紫马岭,,27,27,53,14,22,252,21,96,62,33,24,4,5,0.3,0.3
2022-04-09T07:00:00,1382A,113.4411,22.4853,中山市,长江旅游区(对照点),,25,25,40,17,22,260,32,79,54,15,20,3,4,0.3,0.4
2022-04-09T07:00:00,1383A,113.1064,22.6058,江门市,北街,,30,30,52,15,20,288,62,106,80,17,27,7,10,0.4,0.5
2022-04-09T07:00:00,1384A,113.0731,22.5835,江门市,西区,颗粒物(PM10),55,59,64,17,25,272,56,96,76,32,31,9,10,0.4,0.5
2022-04-09T07:00:00,1385A,113.0219,22.5311,江门市,圭峰西,,41,41,56,21,26,276,57,108,78,22,26,7,9,0.3,0.4
2022-04-09T07:00:00,1386A,113.0828,22.5947,江门市,东湖,颗粒物(PM10),54,58,57,20,23,277,58,110,78,20,24,6,8,0.4,0.4
2022-04-09T07:00:00,1389A,113.7547,23.0494,东莞市,莞城梨川,颗粒物(PM10),59,67,57,27,26,187,52,81,71,33,30,10,10,0.6,0.5
2022-04-09T07:00:00,1390A,113.7944,23.0128,东莞市,东城石井,,46,46,53,18,24,203,38,71,50,31,35,6,8,0.5,0.5
2022-04-09T07:00:00,1391A,113.7383,22.9658,东莞市,南城西平,颗粒物(PM10),51,52,62,22,30,217,41,57,55,50,40,7,9,0.5,0.6
2022-04-09T07:00:00,1392A,114.4183,23.0528,惠州市,河南岸金山湖子站,颗粒物(PM10),52,53,54,22,21,160,37,87,60,35,22,5,5,0.5,0.5
2022-04-09T07:00:00,1393A,114.4053,23.0822,惠州市,下埔横江三路子站,,41,41,50,19,20,160,56,88,77,24,21,7,6,0.4,0.4
2022-04-09T07:00:00,1394A,114.4103,23.1142,惠州市,江北云山西路子站,颗粒物(PM10),51,51,53,25,25,179,38,92,72,33,20,8,7,0.5,0.4
2022-04-09T07:00:00,1395A,114.4645,22.7833,惠州市,惠阳区承修路船湖子站,,41,41,52,19,20,173,44,89,72,30,16,4,5,0.6,0.6
2022-04-09T07:00:00,1396A,114.5317,22.7422,惠州市,大亚湾管委会子站,颗粒物(PM10),57,64,56,19,22,176,45,90,54,40,26,4,5,0.6,0.6
2022-04-09T07:00:00,1397A,112.4267,23.0706,肇庆市,睦岗子站,颗粒物(PM10),60,70,66,42,35,198,17,66,53,68,50,13,15,0.8,0.8
2022-04-09T07:00:00,1398A,112.4645,23.0475,肇庆市,城中子站,颗粒物(PM10),59,67,57,34,30,198,109,73,73,28,47,28,19,0.6,0.6
2022-04-09T07:00:00,1399A,112.5544,23.1522,肇庆市,坑口子站,,50,50,47,30,30,193,94,116,105,20,18,14,11,0.4,0.5
2022-04-09T07:00:00,1400A,112.4753,23.1,肇庆市,七星岩子站(对照点),,47,47,53,25,33,201,116,107,107,15,22,24,18,0.7,0.7
2022-04-09T07:00:00,1401A,108.3103,22.7881,南宁市,二十一中,细颗粒物(PM2.5),80,75,87,59,57,205,105,120,100,20,29,10,13,1.0,0.9
2022-04-09T07:00:00,1402A,108.3141,22.8528,南宁市,北湖,细颗粒物(PM2.5),85,72,92,63,58,204,94,44,44,18,34,18,15,0.9,0.9
2022-04-09T07:00:00,1403A,108.3206,22.8225,南宁市,市监测站,细颗粒物(PM2.5),98,85,86,73,53,208,78,132,97,31,37,18,16,0.9,0.8
2022-04-09T07:00:00,1404A,108.3829,22.8037,南宁市,大自然花园,细颗粒物(PM2.5),79,72,75,58,52,186,43,104,90,43,27,7,10,1.0,0.9
2022-04-09T07:00:00,1405A,108.4394,22.7904,南宁市,仙葫(对照点),细颗粒物(PM2.5),92,73,86,68,57,185,10,118,79,70,30,8,10,0.9,0.8
2022-04-09T07:00:00,1406A,108.2397,22.8467,南宁市,区农职院,细颗粒物(PM2.5),92,101,86,68,56,233,47,42,40,45,42,15,15,1.0,0.9
2022-04-09T07:00:00,1407A,108.3275,22.735,南宁市,英华嘉园,细颗粒物(PM2.5),90,79,108,67,66,169,91,85,62,23,55,9,12,0.9,1
2022-04-09T07:00:00,1408A,108.2257,22.7757,南宁市,沙井镇街道办,细颗粒物(PM2.5),98,130,117,73,63,194,16,62,28,81,61,10,16,1.0,0.9
2022-04-09T07:00:00,1409A,110.576,19.9507,海口市,东寨港(对照点),,26,17,30,18,15,116,26,55,24,19,8,4,6,0.5,0.4
2022-04-09T07:00:00,1410A,110.3232,20.0574,海口市,海南大学,,34,34,32,16,16,111,81,98,94,12,5,4,4,0.5,0.4
2022-04-09T07:00:00,1411A,110.283,20.0053,海口市,秀英海南医院,细颗粒物(PM2.5),55,43,38,39,16,113,62,94,79,32,8,4,5,0.4,0.3
2022-04-09T07:00:00,1412A,110.338,19.9969,海口市,海南师范大学,,33,33,36,12,16,108,77,102,95,15,6,4,3,0.4,0.4
2022-04-09T07:00:00,1413A,110.33,20.0356,海口市,龙华路环保局宿舍,,37,37,33,14,16,124,97,113,106,12,6,5,5,0.4,0.4
2022-04-09T07:00:00,1414A,106.3787,29.8279,重庆市,缙云山(对照点),颗粒物(PM10),63,75,40,34,21,198,113,144,117,23,19,27,15,1.0,0.8
2022-04-09T07:00:00,1416A,106.4213,29.8253,重庆市,天生,细颗粒物(PM2.5),67,76,63,48,33,143,2,6,4,66,49,10,14,0.9,0.8
2022-04-09T07:00:00,1417A,106.6263,29.7228,重庆市,两路,颗粒物(PM10),71,92,50,43,23,157,35,88,47,90,51,26,16,0.9,0.7
2022-04-09T07:00:00,1418A,106.2953,29.5983,重庆市,虎溪,细颗粒物(PM2.5),73,85,59,53,30,162,34,26,26,46,57,9,6,0.9,1.1
2022-04-09T07:00:00,1419A,106.5777,29.5102,重庆市,南坪,细颗粒物(PM2.5),77,88,62,56,32,176,126,107,107,16,33,32,15,0.8,0.8
2022-04-09T07:00:00,1420A,106.6556,29.6277,重庆市,唐家沱,颗粒物(PM10),54,58,72,33,29,182,12,7,7,58,60,4,7,0.6,0.8
2022-04-09T07:00:00,1421A,106.6349,29.4906,重庆市,茶园,颗粒物(PM10),84,118,83,49,34,190,10,35,28,84,70,10,13,1.3,1.2
2022-04-09T07:00:00,1422A,106.3754,29.4572,重庆市,白市驿,细颗粒物(PM2.5),69,79,69,50,32,170,143,124,124,15,35,21,17,1.0,0.9
2022-04-09T07:00:00,1425A,106.6205,29.7166,重庆市,空港,"颗粒物(PM10),细颗粒物(PM2.5)",70,90,61,51,25,176,31,102,57,91,40,13,10,0.8,0.6
2022-04-09T07:00:00,1426A,106.4782,29.4875,重庆市,新山村,细颗粒物(PM2.5),82,110,78,60,37,169,42,32,32,66,94,23,16,0.9,1.1
2022-04-09T07:00:00,1427A,106.5616,29.6453,重庆市,礼嘉,颗粒物(PM10),83,115,69,58,30,180,14,41,22,99,65,27,15,0.8,0.6
2022-04-09T07:00:00,1428A,106.4522,29.7091,重庆市,蔡家,颗粒物(PM10),62,73,62,42,29,164,18,46,31,55,50,5,5,0.8,0.7
2022-04-09T07:00:00,1429A,106.5093,29.3917,重庆市,鱼新街,细颗粒物(PM2.5),72,86,80,52,38,172,12,16,15,65,74,16,19,1.1,1.3
2022-04-09T07:00:00,1431A,103.9728,30.7236,成都市,金泉两河,细颗粒物(PM2.5),83,77,72,61,50,195,0,70,31,41,31,3,4,0.7,0.6
2022-04-09T07:00:00,1432A,104.1419,30.6764,成都市,十里店,颗粒物(PM10),78,105,98,55,45,171,10,82,47,68,36,4,7,0.6,0.6
2022-04-09T07:00:00,1433A,104.0594,30.5767,成都市,三瓦窑,细颗粒物(PM2.5),87,90,82,64,53,186,6,69,44,70,40,2,4,0.6,0.6
2022-04-09T07:00:00,1434A,104.1122,30.6306,成都市,沙河铺,细颗粒物(PM2.5),117,113,88,88,67,181,31,79,53,27,29,1,3,0.5,0.5
2022-04-09T07:00:00,1437A,104.0431,30.6556,成都市,君平街,细颗粒物(PM2.5),113,108,91,85,65,196,58,91,70,36,33,4,7,0.6,0.6
2022-04-09T07:00:00,1438A,103.6202,31.0201,成都市,灵岩寺(对照点),,28,19,55,19,47,167,64,114,82,7,10,14,11,0.4,0.4
2022-04-09T07:00:00,1439A,106.6899,26.5998,贵阳市,马鞍山,,46,46,48,27,26,117,17,27,22,21,28,4,6,0.9,0.6
2022-04-09T07:00:00,1440A,106.6971,26.5694,贵阳市,市环保站,颗粒物(PM10),63,75,77,40,34,108,15,15,8,61,54,11,7,0.5,0.6
2022-04-09T07:00:00,1441A,106.6243,26.6266,贵阳市,鉴湖路,细颗粒物(PM2.5),55,56,60,39,30,131,54,49,49,9,18,5,5,0.1,0.2
2022-04-09T07:00:00,1442A,106.7487,26.6343,贵阳市,燕子冲,细颗粒物(PM2.5),55,53,54,39,32,135,37,64,54,29,16,9,8,0.7,0.6
2022-04-09T07:00:00,1443A,106.6555,26.4365,贵阳市,碧云窝,颗粒物(PM10),57,63,68,36,31,128,35,88,56,17,18,7,7,0.4,0.4
2022-04-09T07:00:00,1444A,106.694,26.5161,贵阳市,中院村,颗粒物(PM10),65,80,70,46,38,118,6,7,6,62,50,20,12,0.9,0.6
2022-04-09T07:00:00,1445A,106.7109,26.6027,贵阳市,红边门,颗粒物(PM10),56,61,70,34,34,127,29,13,13,54,53,14,12,0.5,0.5
2022-04-09T07:00:00,1446A,106.7164,26.5699,贵阳市,新华路,"颗粒物(PM10),细颗粒物(PM2.5)",58,66,69,41,30,125,19,7,7,69,46,12,10,0.4,0.4
2022-04-09T07:00:00,1447A,106.674,26.5424,贵阳市,太慈桥,颗粒物(PM10),53,56,79,29,28,113,31,29,24,22,29,2,4,0.3,0.4
2022-04-09T07:00:00,1450A,102.8204,24.8886,昆明市,呈贡新区,细颗粒物(PM2.5),52,43,54,36,36,143,71,88,84,20,33,9,9,0.8,0.6
2022-04-09T07:00:00,1451A,102.6251,24.9608,昆明市,西山森林公园(对照点),,28,16,34,18,26,136,89,116,97,5,12,8,11,0.5,0.5
2022-04-09T07:00:00,1452A,102.7252,25.0902,昆明市,龙泉镇,细颗粒物(PM2.5),67,67,68,48,42,137,3,3,3,40,42,9,11,0.8,0.8
2022-04-09T07:00:00,1453A,102.7266,25.0375,昆明市,东风东路,"颗粒物(PM10),细颗粒物(PM2.5)",52,54,58,36,37,142,3,76,45,67,41,7,8,0.9,0.8
2022-04-09T07:00:00,1454A,102.6742,25.0669,昆明市,金鼎山,细颗粒物(PM2.5),65,57,63,47,39,141,26,48,36,44,42,9,11,0.7,0.7
2022-04-09T07:00:00,1455A,102.6644,25.0401,昆明市,碧鸡广场,细颗粒物(PM2.5),58,55,63,41,38,137,30,43,41,49,47,18,15,0.8,0.7
2022-04-09T07:00:00,1456A,91.1319,29.6514,拉萨市,八廓街,,19,19,31,8,9,102,58,52,52,12,12,6,6,0.3,0.4
2022-04-09T07:00:00,1457A,91.1221,29.6747,拉萨市,市环保局,,23,23,35,8,12,108,51,39,39,12,15,4,4,0.2,0.3
2022-04-09T07:00:00,1458A,91.0874,29.6475,拉萨市,区监测站,,19,17,31,6,12,106,60,41,41,11,19,6,6,0.4,0.4
2022-04-09T07:00:00,1459A,91.1774,29.6541,拉萨市,西藏大学,,18,18,31,6,10,96,53,59,57,10,13,5,11,0.2,0.6
2022-04-09T07:00:00,1460A,90.9798,29.6588,拉萨市,区辐射站,,22,22,29,11,12,105,34,53,48,30,23,7,6,0.5,0.5
2022-04-09T07:00:00,1461A,91.0834,29.6292,拉萨市,拉萨火车站,,25,25,36,8,8,100,27,33,29,36,20,5,5,0.4,0.4
2022-04-09T07:00:00,1462A,108.882,34.2749,西安市,高压开关厂,颗粒物(PM10),80,109,151,38,53,174,25,14,14,62,83,12,13,0.6,0.8
2022-04-09T07:00:00,1463A,108.993,34.2629,西安市,兴庆小区,颗粒物(PM10),79,107,121,34,48,153,12,13,9,79,75,8,12,0.5,0.9
2022-04-09T07:00:00,1464A,109.06,34.2572,西安市,纺织城,颗粒物(PM10),80,110,144,32,52,154,4,13,6,71,75,9,12,0.5,0.7
2022-04-09T07:00:00,1465A,108.9356,34.2173,西安市,小寨,颗粒物(PM10),94,137,151,42,59,162,3,4,3,91,94,5,8,0.8,0.8
2022-04-09T07:00:00,1466A,108.954,34.2713,西安市,市人民体育场,颗粒物(PM10),83,116,127,40,56,156,4,5,4,91,80,6,11,0.9,0.9
2022-04-09T07:00:00,1467A,108.8922,34.2322,西安市,高新西区,颗粒物(PM10),74,98,155,36,53,174,23,8,8,71,97,12,12,0.5,0.7
2022-04-09T07:00:00,1468A,108.935,34.3474,西安市,经开区,颗粒物(PM10),84,117,126,42,54,154,12,8,8,79,69,4,8,0.7,0.7
2022-04-09T07:00:00,1469A,108.906,34.1546,西安市,长安区,颗粒物(PM10),93,136,152,39,56,158,5,6,5,88,67,7,8,0.6,0.7
2022-04-09T07:00:00,1471A,109.2186,34.3731,西安市,临潼区,颗粒物(PM10),67,83,114,39,51,180,77,86,79,26,40,5,10,0.6,0.7
2022-04-09T07:00:00,1472A,108.869,34.378,西安市,草滩(对照点),颗粒物(PM10),105,159,145,46,48,100,5,6,5,56,69,4,8,1.0,0.8
2022-04-09T07:00:00,1473A,108.985,34.1978,西安市,曲江文化产业集团,颗粒物(PM10),113,176,155,43,52,150,6,3,2,84,96,5,8,0.8,0.8
2022-04-09T07:00:00,1474A,109.051,34.3213,西安市,广运潭,颗粒物(PM10),75,100,135,29,47,150,12,16,14,58,56,3,9,0.5,0.6
2022-04-09T07:00:00,1476A,103.631,36.1031,兰州市,兰炼宾馆,颗粒物(PM10),96,141,107,53,39,133,2,19,12,63,41,35,21,0.7,0.5
2022-04-09T07:00:00,1477A,104.1373,35.9454,兰州市,榆中兰大校区(对照点),颗粒物(PM10),63,76,81,26,23,134,83,85,84,21,17,6,12,0.7,0.6
2022-04-09T07:00:00,1478A,103.8412,36.0726,兰州市,生物制品所,颗粒物(PM10),97,144,108,32,26,131,4,4,4,63,52,11,13,0.8,0.6
2022-04-09T07:00:00,1479A,103.831,36.0464,兰州市,铁路设计院,颗粒物(PM10),96,142,111,37,33,121,5,8,7,70,61,20,16,1.5,0.9
2022-04-09T07:00:00,1483A,101.524,36.6867,西宁市,第五水厂(对照点),颗粒物(PM10),53,56,64,15,16,115,38,68,54,22,13,11,11,0.7,0.7
2022-04-09T07:00:00,1484A,105.9512,38.6016,银川市,贺兰山马莲口(对照点),颗粒物(PM10),112,173,116,37,26,106,102,97,97,2,4,8,8,0.3,0.3
2022-04-09T07:00:00,1488A,106.2328,38.4975,银川市,贺兰山东路,颗粒物(PM10),156,261,147,61,40,107,49,28,28,29,38,55,13,0.7,0.6
2022-04-09T07:00:00,1489A,106.1358,38.5036,银川市,学院路,颗粒物(PM10),160,270,155,53,34,110,36,18,18,30,32,23,10,0.5,0.5
2022-04-09T07:00:00,1490A,87.5801,43.8303,乌鲁木齐市,监测站,颗粒物(PM10),63,76,153,16,28,140,81,84,81,7,17,6,6,0.5,0.5
2022-04-09T07:00:00,1491A,87.6046,43.768,乌鲁木齐市,收费所,颗粒物(PM10),72,94,150,25,35,127,64,73,70,14,22,7,6,0.2,0.3
2022-04-09T07:00:00,1492A,87.4754,43.9469,乌鲁木齐市,新疆农科院农场(对照点),,24,24,87,13,31,115,70,70,67,4,8,10,9,0.3,0.3
2022-04-09T07:00:00,1493A,87.5525,43.8711,乌鲁木齐市,铁路局,颗粒物(PM10),57,64,160,17,33,130,75,77,75,9,14,13,6,0.5,0.6
2022-04-09T07:00:00,1494A,87.6432,43.831,乌鲁木齐市,三十一中学,颗粒物(PM10),65,80,149,13,27,130,70,79,75,9,17,6,7,0.2,0.3
2022-04-09T07:00:00,1496A,87.7216,44.1747,乌鲁木齐市,米东区环保局,,45,45,245,17,31,126,64,79,72,2,8,8,8,0.2,0.3
2022-04-09T07:00:00,1508A,112.9433,27.8614,湘潭市,板塘,细颗粒物(PM2.5),62,69,86,44,39,156,48,39,39,41,40,38,20,0.6,0.6
2022-04-09T07:00:00,1511A,112.9118,27.8403,湘潭市,市监测站,细颗粒物(PM2.5),62,71,75,44,42,144,22,63,42,48,42,12,17,1.0,1
2022-04-09T07:00:00,1512A,112.8937,27.8728,湘潭市,江麓,颗粒物(PM10),70,89,90,45,36,139,14,7,7,43,41,14,17,0.8,0.8
2022-04-09T07:00:00,1513A,112.9227,27.8159,湘潭市,岳塘,颗粒物(PM10),65,80,85,38,36,161,33,32,32,35,35,13,17,0.7,0.7
2022-04-09T07:00:00,1514A,112.9074,27.9119,湘潭市,科大,颗粒物(PM10),71,91,92,50,40,158,13,14,13,56,45,11,12,0.8,0.7
2022-04-09T07:00:00,1515A,113.135,27.8244,株洲市,天台山庄,颗粒物(PM10),58,65,66,38,36,166,49,71,60,31,40,14,11,0.5,0.8
2022-04-09T07:00:00,1518A,113.095,27.8867,株洲市,株冶医院,"颗粒物(PM10),细颗粒物(PM2.5)",60,70,82,43,41,186,8,27,21,68,50,11,13,0.8,0.6
2022-04-09T07:00:00,1519A,113.167,27.8667,株洲市,市四中,颗粒物(PM10),60,70,84,33,44,157,50,60,36,33,44,22,11,0.8,0.8
2022-04-09T07:00:00,1520A,113.143,27.8381,株洲市,火车站,颗粒物(PM10),67,83,85,40,38,179,36,60,48,41,38,13,13,0.7,0.8
2022-04-09T07:00:00,1524A,113.13,27.8528,株洲市,市监测站,细颗粒物(PM2.5),70,75,85,51,46,162,21,56,40,50,43,15,10,1.0,0.9
2022-04-09T07:00:00,1552A,106.805,26.3003,贵阳市,桐木岭(对照点),颗粒物(PM10),53,56,55,34,25,143,143,139,139,4,5,12,8,0.3,0.3
2022-04-09T07:00:00,1559A,113.251,27.8336,株洲市,大京风景区(对照点),,39,25,34,27,24,174,32,69,52,7,7,5,7,0.4,0.4
2022-04-09T07:00:00,1562A,113.0048,27.9153,湘潭市,昭山,颗粒物(PM10),62,73,69,41,35,147,21,27,19,54,46,20,13,0.8,0.6
2022-04-09T07:00:00,1564A,112.4876,27.9164,湘潭市,韶山(对照点),,40,40,66,19,28,159,53,75,63,6,8,4,7,0.3,0.3
2022-04-09T07:00:00,1585A,109.8756,40.6532,包头市,市环境监测站,,,39,87,16,28,127,,55,48,45,27,7,12,0.5,0.6
2022-04-09T07:00:00,1587A,109.9991,40.5842,包头市,包头八中,颗粒物(PM10),61,71,109,39,33,134,5,54,21,50,36,36,19,1.6,0.8
2022-04-09T07:00:00,1588A,109.8538,40.6821,包头市,青山宾馆,,46,46,102,11,43,119,8,56,36,39,29,12,16,0.6,0.8
2022-04-09T07:00:00,1589A,109.8642,40.6288,包头市,惠龙物流,,50,50,87,9,27,133,14,60,40,36,24,8,15,0.5,0.6
2022-04-09T07:00:00,1590A,110.0377,40.5546,包头市,东河鸿龙湾,颗粒物(PM10),56,62,86,19,30,135,10,44,15,40,28,14,16,0.6,0.5
2022-04-09T07:00:00,1591A,110.0023,39.8129,鄂尔多斯市,综合楼,颗粒物(PM10),70,90,97,44,35,115,65,93,75,26,22,16,8,0.6,0.5
2022-04-09T07:00:00,1592A,109.9486,39.8261,鄂尔多斯市,巴音孟克林场办事处,颗粒物(PM10),64,78,91,31,28,117,52,84,71,37,15,27,12,0.9,0.5
2022-04-09T07:00:00,1593A,109.7736,39.5986,鄂尔多斯市,康泽苑,颗粒物(PM10),59,68,90,17,20,127,56,78,62,10,12,4,4,0.4,0.5
2022-04-09T07:00:00,1594A,109.8119,39.5989,鄂尔多斯市,华泰汽车城,颗粒物(PM10),59,68,88,24,26,127,18,38,19,38,25,6,7,0.5,0.4
2022-04-09T07:00:00,1595A,109.9734,39.7884,鄂尔多斯市,奥林花园,颗粒物(PM10),76,102,104,36,30,116,12,60,32,71,35,16,8,0.6,0.3
2022-04-09T07:00:00,1597A,122.2703,40.7094,营口市,大庆路,细颗粒物(PM2.5),87,90,108,64,67,174,98,139,115,13,17,6,11,0.8,1
2022-04-09T07:00:00,1598A,122.215,40.6511,营口市,镜湖西路,颗粒物(PM10),75,99,104,45,44,177,102,146,125,15,17,4,8,0.7,0.9
2022-04-09T07:00:00,1599A,122.167,40.6655,营口市,西炮台,细颗粒物(PM2.5),78,75,89,57,58,172,101,152,128,19,19,6,9,0.7,0.8
2022-04-09T07:00:00,1600A,124.3303,40.0625,丹东市,江湾东路,,43,43,54,22,29,132,100,126,113,11,11,9,9,0.6,0.6
2022-04-09T07:00:00,1601A,124.4256,40.1503,丹东市,临江后街,,50,50,52,20,24,129,96,119,109,12,8,13,9,1.1,0.8
2022-04-09T07:00:00,1602A,124.3933,40.1461,丹东市,元宝山,,48,48,55,22,26,125,93,121,109,16,13,14,11,1.0,0.7
2022-04-09T07:00:00,1603A,124.3633,40.1092,丹东市,民主桥,,44,44,51,19,24,128,92,122,106,11,9,10,10,0.6,0.5
2022-04-09T07:00:00,1604A,122.0303,41.1489,盘锦市,开发区,细颗粒物(PM2.5),124,93,117,94,84,159,60,130,101,44,21,9,10,1.0,0.9
2022-04-09T07:00:00,1605A,122.0485,41.0883,盘锦市,兴隆台,细颗粒物(PM2.5),112,126,121,84,78,158,47,128,95,62,23,16,10,1.0,1
2022-04-09T07:00:00,1606A,121.8297,41.1028,盘锦市,新生街道,细颗粒物(PM2.5),98,88,95,73,71,170,64,119,91,42,23,35,12,1.0,0.9
2022-04-09T07:00:00,1607A,120.9092,40.7136,葫芦岛市,龙港区,细颗粒物(PM2.5),213,290,142,163,101,162,56,127,90,46,21,85,24,2.2,1.2
2022-04-09T07:00:00,1608A,120.8392,40.7514,葫芦岛市,化工街,颗粒物(PM10),97,143,137,58,57,185,59,148,101,42,24,11,13,1.1,1
2022-04-09T07:00:00,1609A,120.8341,40.7073,葫芦岛市,新区,细颗粒物(PM2.5),188,176,133,141,101,185,80,142,106,31,21,20,12,1.6,1
2022-04-09T07:00:00,1610A,120.8695,40.7677,葫芦岛市,东城区,细颗粒物(PM2.5),180,160,132,136,102,165,43,140,92,50,22,11,10,1.4,1.1
2022-04-09T07:00:00,1611A,118.5819,24.9117,泉州市,涂山街,,40,40,39,14,12,144,83,96,88,12,9,8,7,0.5,0.4
2022-04-09T07:00:00,1612A,118.5972,24.8978,泉州市,津头埔,,39,39,38,12,13,139,79,92,84,13,12,9,8,0.5,0.5
2022-04-09T07:00:00,1613A,118.6663,24.9424,泉州市,万安,,36,36,43,16,14,133,84,94,87,8,6,8,8,0.7,0.6
2022-04-09T07:00:00,1614A,118.6117,24.9604,泉州市,清源山(对照点),,33,33,42,10,11,146,104,103,103,5,6,7,8,0.5,0.5
2022-04-09T07:00:00,1616A,117.6795,36.229,济南市,技术学院,颗粒物(PM10),64,78,102,27,47,178,138,128,128,14,15,13,14,0.5,0.7
2022-04-09T07:00:00,1618A,118.3429,35.0532,临沂市,沂河小区,颗粒物(PM10),75,100,101,42,43,182,53,79,72,45,27,24,14,0.5,0.5
2022-04-09T07:00:00,1619A,118.295,35.0583,临沂市,鲁南制药厂,颗粒物(PM10),59,68,91,24,31,192,74,87,81,35,30,17,13,0.6,0.7
2022-04-09T07:00:00,1620A,118.2794,34.9976,临沂市,新光毛纺厂,颗粒物(PM10),70,90,102,28,33,176,58,79,72,38,25,20,14,0.6,0.6
2022-04-09T07:00:00,1621A,118.3956,35.0888,临沂市,河东保险公司,颗粒物(PM10),64,78,92,30,39,186,64,97,83,43,27,18,10,0.7,0.7
2022-04-09T07:00:00,1622A,116.3032,37.4674,德州市,儿童乐园,颗粒物(PM10),70,90,112,41,70,167,75,106,93,21,16,14,13,0.9,1.1
2022-04-09T07:00:00,1624A,116.2991,37.4451,德州市,监理站,颗粒物(PM10),71,92,122,36,52,162,74,105,92,19,13,21,18,0.4,0.5
2022-04-09T07:00:00,1625A,115.9848,36.4372,聊城市,区政府,颗粒物(PM10),66,81,114,35,54,157,89,107,97,19,15,14,15,0.6,0.8
2022-04-09T07:00:00,1628A,118.0062,37.3803,滨州市,市环保局,颗粒物(PM10),70,89,132,34,63,224,90,116,110,34,26,15,16,2.7,2.8
2022-04-09T07:00:00,1629A,118.0018,37.3617,滨州市,第二水厂,颗粒物(PM10),68,85,123,31,59,187,77,88,86,30,24,12,15,0.7,0.9
2022-04-09T07:00:00,1630A,117.9776,37.393,滨州市,北中新校,颗粒物(PM10),66,82,101,27,57,189,80,92,89,41,27,12,11,0.6,0.7
2022-04-09T07:00:00,1631A,118.0414,36.8103,淄博市,人民公园,颗粒物(PM10),80,110,108,33,38,178,132,145,139,9,11,8,7,0.2,0.4
2022-04-09T07:00:00,1633A,117.8525,36.4847,淄博市,双山,颗粒物(PM10),69,88,104,28,59,167,132,140,135,8,7,6,8,0.6,0.8
2022-04-09T07:00:00,1634A,117.9592,36.6331,淄博市,气象站,颗粒物(PM10),76,101,107,24,42,175,140,154,145,16,15,13,13,0.7,0.9
2022-04-09T07:00:00,1635A,118.3092,36.8194,淄博市,莆田园,,,112,116,29,46,176,,145,138,12,11,11,10,0.9,0.9
2022-04-09T07:00:00,1637A,117.558,34.8438,枣庄市,市中区政府,颗粒物(PM10),79,107,101,34,32,182,51,111,64,40,21,12,9,0.8,0.8
2022-04-09T07:00:00,1638A,117.2852,34.7837,枣庄市,薛城环保局,颗粒物(PM10),67,83,98,27,50,192,95,100,99,21,15,14,11,0.7,0.4
2022-04-09T07:00:00,1639A,117.5852,34.7745,枣庄市,峄城区政府,颗粒物(PM10),67,83,97,22,44,170,76,103,89,28,21,15,14,0.4,0.4
2022-04-09T07:00:00,1640A,117.7276,34.5578,枣庄市,台儿庄区环保局,颗粒物(PM10),57,63,72,24,34,157,63,89,76,29,27,11,10,0.7,0.8
2022-04-09T07:00:00,1641A,117.4518,35.0992,枣庄市,山亭区环保局,颗粒物(PM10),57,63,79,24,38,199,143,138,138,22,33,20,17,0.9,1.2
2022-04-09T07:00:00,1642A,121.2514,37.5639,烟台市,开发区,颗粒物(PM10),65,80,94,39,42,181,75,146,109,31,15,8,5,0.6,0.7
2022-04-09T07:00:00,1643A,121.3719,37.5433,烟台市,轴承厂,颗粒物(PM10),62,73,77,41,47,203,100,148,118,24,13,8,7,0.8,0.7
2022-04-09T07:00:00,1644A,121.3181,37.5436,烟台市,西郊化工站,颗粒物(PM10),59,68,80,31,42,198,116,164,139,17,15,9,8,0.5,0.5
2022-04-09T07:00:00,1645A,121.4478,37.4822,烟台市,莱山环保局,颗粒物(PM10),63,75,74,38,40,189,81,112,96,20,14,6,6,0.6,0.6
2022-04-09T07:00:00,1646A,121.2611,37.4967,烟台市,福山环保局,颗粒物(PM10),75,100,91,46,45,191,66,139,102,37,16,8,7,0.9,0.8
2022-04-09T07:00:00,1650A,119.1437,36.7023,潍坊市,环保局,颗粒物(PM10),69,88,102,30,54,188,98,117,106,22,16,8,7,0.7,0.8
2022-04-09T07:00:00,1653A,116.6251,35.4302,济宁市,火炬城,颗粒物(PM10),60,70,87,22,48,178,121,132,128,8,5,11,11,0.8,0.9
2022-04-09T07:00:00,1655A,116.5491,35.4042,济宁市,电化厂,颗粒物(PM10),60,70,94,34,49,173,108,111,110,21,14,9,9,0.7,0.9
2022-04-09T07:00:00,1656A,117.1437,36.1937,泰安市,监测站,颗粒物(PM10),64,78,97,22,35,190,126,138,132,14,9,15,13,0.4,0.4
2022-04-09T07:00:00,1657A,117.0885,36.2017,泰安市,人口学校,颗粒物(PM10),63,75,96,25,36,168,111,131,123,12,9,6,5,0.6,0.6
2022-04-09T07:00:00,1658A,117.1089,36.1758,泰安市,电力学校,颗粒物(PM10),60,70,90,27,42,177,123,129,123,15,13,11,11,0.5,0.6
2022-04-09T07:00:00,1659A,119.471,35.4209,日照市,监测站,颗粒物(PM10),70,90,104,34,58,114,59,30,30,38,56,8,6,0.4,0.8
2022-04-09T07:00:00,1660A,119.523,35.4216,日照市,市政府广场,颗粒物(PM10),65,80,80,34,43,129,88,68,68,28,39,10,7,0.7,0.8
2022-04-09T07:00:00,1661A,119.5587,35.4044,日照市,港务局,颗粒物(PM10),69,88,54,34,29,140,73,71,60,41,23,9,5,0.9,0.8
2022-04-09T07:00:00,1662A,122.1214,37.4236,威海市,华夏技校,颗粒物(PM10),60,70,57,41,38,196,120,120,120,20,15,6,4,0.4,0.4
2022-04-09T07:00:00,1663A,122.0508,37.5236,威海市,山大分校,,,54,55,,,185,123,138,132,17,13,8,6,0.3,0.4
2022-04-09T07:00:00,1664A,122.1067,37.5072,威海市,市监测站,颗粒物(PM10),61,71,65,31,33,223,115,178,150,21,12,8,8,0.5,0.5
2022-04-09T07:00:00,1666A,118.6614,37.4309,东营市,市环保局,颗粒物(PM10),69,88,105,41,50,220,78,90,87,26,23,20,18,0.8,0.7
2022-04-09T07:00:00,1669A,113.5824,24.7733,韶关市,市八中,,45,45,54,18,27,174,48,62,55,26,25,10,17,0.5,0.5
2022-04-09T07:00:00,1671A,113.5917,24.7972,韶关市,园林处,颗粒物(PM10),56,61,70,36,34,160,0,23,6,38,30,15,19,0.8,0.7
2022-04-09T07:00:00,1672A,113.6735,24.7791,韶关市,韶关学院,,44,44,48,27,33,166,5,23,11,28,19,11,21,0.5,0.5
2022-04-09T07:00:00,1673A,113.5971,24.6863,韶关市,曲江监测站,颗粒物(PM10),52,53,58,25,31,172,16,60,40,40,30,10,17,0.7,0.8
2022-04-09T07:00:00,1674A,116.6794,23.3667,汕头市,金平子站,颗粒物(PM10),83,116,75,56,27,163,22,85,44,50,26,38,19,0.9,0.6
2022-04-09T07:00:00,1675A,116.7244,23.3633,汕头市,龙湖子站,颗粒物(PM10),63,75,58,36,21,148,33,80,49,38,24,16,11,0.7,0.6
2022-04-09T07:00:00,1676A,116.7258,23.2775,汕头市,濠江子站,细颗粒物(PM2.5),62,60,48,44,26,145,27,93,58,33,14,18,12,0.9,0.6
2022-04-09T07:00:00,1677A,116.7519,23.4714,汕头市,澄海子站,颗粒物(PM10),58,65,57,28,26,159,53,64,54,27,25,14,12,0.6,0.5
2022-04-09T07:00:00,1678A,116.6092,23.2539,汕头市,潮阳子站,颗粒物(PM10),52,54,50,17,16,164,44,95,67,25,16,16,13,0.7,0.5
2022-04-09T07:00:00,1680A,110.3539,21.2706,湛江市,湛江影剧院,颗粒物(PM10),53,56,48,25,19,146,83,84,82,19,15,14,8,0.6,0.6
2022-04-09T07:00:00,1681A,110.3928,21.2228,湛江市,市环境监测站,,46,46,40,25,19,145,97,119,112,21,14,11,7,0.6,0.5
2022-04-09T07:00:00,1682A,110.4019,21.1997,湛江市,环保局宿舍,,48,48,40,29,21,141,97,113,110,26,16,10,6,0.5,0.5
2022-04-09T07:00:00,1683A,110.4111,21.2028,湛江市,霞山游泳场,,45,44,37,31,22,142,84,109,100,30,15,14,8,0.5,0.4
2022-04-09T07:00:00,1684A,110.3316,21.2679,湛江市,麻章区环保局,颗粒物(PM10),64,77,58,40,28,154,66,108,60,27,19,20,10,0.6,0.5
2022-04-09T07:00:00,1685A,110.4558,21.2567,湛江市,坡头区环保局,颗粒物(PM10),59,68,43,38,23,149,91,126,105,20,11,12,5,0.6,0.5
2022-04-09T07:00:00,1686A,111.0286,21.4688,茂名市,电白南海,,49,49,49,24,20,152,72,110,99,19,15,14,8,0.6,0.5
2022-04-09T07:00:00,1687A,110.9294,21.6533,茂名市,茂石化七小,细颗粒物(PM2.5),67,69,56,48,32,162,91,123,113,19,17,40,22,0.5,0.5
2022-04-09T07:00:00,1688A,110.9107,21.6687,茂名市,健康路,颗粒物(PM10),57,63,54,30,28,170,96,133,115,15,12,85,17,0.7,0.6
2022-04-09T07:00:00,1689A,110.8592,21.6828,茂名市,高岭,颗粒物(PM10),74,97,65,27,22,168,52,74,60,31,22,54,22,0.8,0.7
2022-04-09T07:00:00,1690A,116.1231,24.3284,梅州市,梅江月梅,颗粒物(PM10),54,57,56,30,26,150,23,67,41,40,21,10,8,0.4,0.4
2022-04-09T07:00:00,1691A,116.0797,24.2719,梅州市,梅县新城,,39,39,57,26,28,152,18,49,29,37,33,5,6,0.6,0.5
2022-04-09T07:00:00,1692A,116.1248,24.2654,梅州市,环境监控中心,,43,43,58,25,28,151,23,38,36,53,37,10,10,0.5,0.5
2022-04-09T07:00:00,1693A,115.3653,22.775,汕尾市,市环保局,,36,36,37,20,17,136,64,83,72,14,11,9,9,0.6,0.5
2022-04-09T07:00:00,1694A,115.3706,22.7898,汕尾市,市政府,,32,32,44,18,21,172,62,74,69,12,11,6,7,0.4,0.4
2022-04-09T07:00:00,1695A,115.3622,22.7925,汕尾市,新城中学,,35,35,40,24,20,160,62,85,73,12,9,6,6,0.4,0.4
2022-04-09T07:00:00,1696A,114.6778,23.7569,河源市,源西(对照点),细颗粒物(PM2.5),54,53,56,38,24,156,31,114,64,41,25,4,5,0.6,0.6
2022-04-09T07:00:00,1697A,114.6944,23.7586,河源市,东埔,颗粒物(PM10),51,52,54,29,24,155,40,104,76,31,22,5,6,0.6,0.7
2022-04-09T07:00:00,1698A,114.6892,23.7233,河源市,老城,,37,37,60,24,29,169,51,123,84,33,26,3,5,0.6,0.7
2022-04-09T07:00:00,1699A,111.9797,21.8593,阳江市,鸳鸯湖(对照点),,42,37,44,29,23,179,68,144,93,29,14,8,8,0.4,0.4
2022-04-09T07:00:00,1701A,111.9491,21.8658,阳江市,马南垌,细颗粒物(PM2.5),55,45,46,39,23,170,19,105,75,44,19,5,6,0.7,0.6
2022-04-09T07:00:00,1702A,113.0426,23.691,清远市,环保大楼(对照点),细颗粒物(PM2.5),97,98,58,72,39,191,30,79,54,36,25,10,9,0.7,0.6
2022-04-09T07:00:00,1703A,113.0208,23.7106,清远市,凤城街办,颗粒物(PM10),64,77,58,44,33,187,46,82,68,38,27,9,9,0.8,0.8
2022-04-09T07:00:00,1705A,116.6367,23.6719,潮州市,西园路(对照点),,41,41,57,27,28,163,44,69,52,16,16,15,14,0.5,0.6
2022-04-09T07:00:00,1706A,116.6447,23.6706,潮州市,档案局,,39,39,55,22,27,156,44,59,52,16,17,11,13,0.5,0.6
2022-04-09T07:00:00,1708A,116.3701,23.5345,揭阳市,新兴,细颗粒物(PM2.5),64,62,62,46,31,180,29,53,40,33,25,14,13,0.8,0.8
2022-04-09T07:00:00,1709A,116.3264,23.5443,揭阳市,西马,颗粒物(PM10),58,65,74,37,31,178,26,42,35,28,21,14,11,0.6,0.6
2022-04-09T07:00:00,1710A,116.3611,23.5626,揭阳市,东兴,颗粒物(PM10),60,70,79,29,28,173,17,30,23,37,26,22,15,0.8,0.8
2022-04-09T07:00:00,1711A,116.4151,23.5294,揭阳市,渔湖,颗粒物(PM10),54,58,54,37,29,164,11,52,29,39,22,12,10,0.6,0.5
2022-04-09T07:00:00,1712A,112.0392,22.9169,云浮市,新市府(对照点),,48,45,46,33,33,165,36,107,72,19,12,5,7,0.5,0.5
2022-04-09T07:00:00,1714A,112.0539,22.9539,云浮市,牧羊,细颗粒物(PM2.5),58,62,73,41,36,179,45,68,61,32,27,11,17,0.5,0.5
2022-04-09T07:00:00,1715A,102.575,24.3711,玉溪市,东风水库,,46,35,37,32,24,132,22,81,46,12,14,6,7,0.9,0.8
2022-04-09T07:00:00,1718A,115.4208,35.2464,菏泽市,气象局,颗粒物(PM10),71,92,109,31,49,155,94,105,103,19,15,16,10,0.5,0.4
2022-04-09T07:00:00,1719A,115.4747,35.2375,菏泽市,市政协,颗粒物(PM10),69,88,108,28,44,152,100,110,106,15,14,19,13,0.3,0.4
2022-04-09T07:00:00,1721A,113.3819,40.1097,大同市,果树场(对照点),颗粒物(PM10),53,55,105,25,35,138,42,83,68,18,22,14,14,0.5,0.5
2022-04-09T07:00:00,1723A,113.2994,40.0758,大同市,云冈宾馆,颗粒物(PM10),101,151,136,50,43,128,22,76,42,35,32,26,19,0.9,0.7
2022-04-09T07:00:00,1724A,113.3444,40.0917,大同市,大同大学,颗粒物(PM10),76,102,121,31,30,140,46,73,57,22,30,17,21,0.3,0.4
2022-04-09T07:00:00,1725A,113.2661,40.1269,大同市,安家小村,颗粒物(PM10),89,127,124,27,25,130,25,77,46,29,18,27,20,1.2,0.6
2022-04-09T07:00:00,1726A,113.2711,40.0844,大同市,教育学院,颗粒物(PM10),103,156,138,38,31,117,18,76,41,47,37,40,21,0.7,0.6
2022-04-09T07:00:00,1727A,113.1147,36.1547,长治市,清华站,细颗粒物(PM2.5),73,86,92,53,42,156,54,122,87,52,33,9,14,0.7,0.7
2022-04-09T07:00:00,1728A,113.1031,36.1989,长治市,监测站,颗粒物(PM10),67,83,85,46,44,159,94,109,106,20,21,9,15,0.9,0.9
2022-04-09T07:00:00,1730A,113.0886,36.2125,长治市,审计局,颗粒物(PM10),60,69,82,41,39,158,104,112,111,13,21,8,16,1.0,1
2022-04-09T07:00:00,1731A,113.0844,36.1856,长治市,长治八中,颗粒物(PM10),86,122,105,46,46,157,78,110,98,28,24,10,22,0.9,0.8
2022-04-09T07:00:00,1733A,111.5531,36.0783,临汾市,临钢医院,细颗粒物(PM2.5),73,89,98,53,46,192,34,23,23,40,36,27,17,0.9,1
2022-04-09T07:00:00,1734A,111.5028,36.0714,临汾市,技工学校,颗粒物(PM10),78,106,107,53,43,185,30,30,27,45,39,32,23,0.6,0.7
2022-04-09T07:00:00,1736A,111.5018,36.0855,临汾市,市委,颗粒物(PM10),68,85,93,43,38,176,27,26,23,46,39,30,21,1.1,1.2
2022-04-09T07:00:00,1738A,113.5758,37.8572,阳泉市,市中心,颗粒物(PM10),88,125,116,62,43,142,68,78,72,48,47,37,27,1.1,0.8
2022-04-09T07:00:00,1739A,113.4894,37.8731,阳泉市,赛鱼,颗粒物(PM10),77,104,87,49,31,143,55,50,50,59,53,50,26,1.0,0.7
2022-04-09T07:00:00,1740A,113.5819,37.8486,阳泉市,南庄,颗粒物(PM10),105,160,123,56,36,143,27,88,67,71,44,33,32,1.7,0.9
2022-04-09T07:00:00,1742A,113.5614,37.8703,阳泉市,平坦,颗粒物(PM10),89,128,115,54,43,144,53,62,57,56,47,40,26,1.1,0.9
2022-04-09T07:00:00,1743A,113.5158,37.8392,阳泉市,大阳泉,颗粒物(PM10),74,98,79,44,30,150,94,111,96,32,22,33,16,0.8,0.6
2022-04-09T07:00:00,1744A,118.9233,42.2816,赤峰市,松山一中,,40,40,52,13,17,147,13,52,38,40,23,30,13,0.9,0.6
2022-04-09T07:00:00,1745A,118.9576,42.2728,赤峰市,哈达街,,43,43,53,10,15,145,30,60,52,36,19,19,14,0.5,0.5
2022-04-09T07:00:00,1746A,118.8788,42.2554,赤峰市,天义路,,39,39,49,4,17,146,10,63,32,39,19,12,10,0.7,0.6
2022-04-09T07:00:00,1748A,123.044,41.1196,鞍山市,深沟寺,细颗粒物(PM2.5),58,64,86,41,50,182,104,137,122,10,11,7,8,0.7,0.8
2022-04-09T07:00:00,1749A,123.011,41.0931,鞍山市,太阳城,颗粒物(PM10),61,72,89,43,49,173,86,156,127,18,14,6,8,0.8,0.8
2022-04-09T07:00:00,1750A,123.0485,41.1442,鞍山市,太平,细颗粒物(PM2.5),64,75,102,46,52,169,87,125,105,28,17,10,11,0.6,0.7
2022-04-09T07:00:00,1751A,122.9642,41.0971,鞍山市,铁西三道街,"颗粒物(PM10),细颗粒物(PM2.5)",69,88,118,50,54,173,70,145,114,39,23,9,12,1.3,1.2
2022-04-09T07:00:00,1752A,122.9341,41.0833,鞍山市,铁西工业园区,细颗粒物(PM2.5),107,132,117,80,60,175,72,139,117,38,17,12,12,1.8,1.2
2022-04-09T07:00:00,1753A,123.022,41.0821,鞍山市,明达新区,颗粒物(PM10),59,67,101,39,48,163,94,151,126,10,11,6,8,0.8,0.8
2022-04-09T07:00:00,1754A,123.1289,41.0228,鞍山市,千山(对照点),,48,44,60,33,40,154,72,116,91,10,12,8,9,0.6,0.7
2022-04-09T07:00:00,1755A,123.7977,41.8491,抚顺市,望花区,细颗粒物(PM2.5),103,109,130,77,58,157,82,130,102,33,17,30,21,1.5,0.9
2022-04-09T07:00:00,1756A,123.9161,41.8822,抚顺市,顺城区,细颗粒物(PM2.5),83,87,108,61,54,150,94,129,109,28,21,11,8,0.8,0.7
2022-04-09T07:00:00,1757A,124.0436,41.8611,抚顺市,东洲区,细颗粒物(PM2.5),82,95,111,60,46,157,106,137,124,19,14,9,9,0.8,0.9
2022-04-09T07:00:00,1758A,123.9247,41.8642,抚顺市,新抚区,,,77,117,70,59,160,,138,138,23,13,18,13,1.0,0.9
2022-04-09T07:00:00,1759A,124.0972,41.8961,抚顺市,大伙房水库,细颗粒物(PM2.5),70,61,91,51,46,177,142,160,154,7,9,5,7,0.4,0.6
2022-04-09T07:00:00,1760A,123.7086,41.8391,抚顺市,沈抚新城,细颗粒物(PM2.5),114,113,134,86,58,158,82,122,103,32,16,20,13,2.2,1.4
2022-04-09T07:00:00,1761A,123.8275,41.3064,本溪市,大峪,细颗粒物(PM2.5),68,71,82,49,41,151,99,140,126,23,11,13,13,0.8,0.7
2022-04-09T07:00:00,1762A,123.7567,41.3325,本溪市,溪湖,细颗粒物(PM2.5),68,81,102,49,51,137,87,117,101,36,29,25,21,1.3,1.2
2022-04-09T07:00:00,1763A,123.7169,41.3094,本溪市,彩屯,细颗粒物(PM2.5),105,120,130,79,69,124,58,88,78,61,37,37,50,2.9,2.2
2022-04-09T07:00:00,1764A,123.7669,41.2864,本溪市,东明,,49,43,76,34,41,146,110,137,128,15,12,6,7,0.7,0.7
2022-04-09T07:00:00,1765A,123.7992,41.2664,本溪市,新立屯,细颗粒物(PM2.5),58,60,86,41,40,148,122,144,136,8,8,8,10,0.6,0.6
2022-04-09T07:00:00,1766A,123.8142,41.3472,本溪市,威宁,细颗粒物(PM2.5),79,70,80,58,37,135,73,112,98,27,12,13,14,0.8,0.8
2022-04-09T07:00:00,1767A,121.1115,41.0879,锦州市,南山,细颗粒物(PM2.5),150,142,154,115,114,151,62,123,93,22,19,8,13,1.0,1
2022-04-09T07:00:00,1768A,121.0533,40.8434,锦州市,开发区,细颗粒物(PM2.5),209,163,158,159,109,154,76,123,96,24,21,16,10,1.4,0.9
2022-04-09T07:00:00,1769A,121.1836,41.1119,锦州市,百股街道,细颗粒物(PM2.5),166,140,147,126,105,172,64,119,92,28,21,13,14,1.3,1
2022-04-09T07:00:00,1770A,121.1178,41.1222,锦州市,天安街道,细颗粒物(PM2.5),149,150,160,114,106,182,39,140,93,61,24,10,15,1.4,1.2
2022-04-09T07:00:00,1771A,121.1303,41.1386,锦州市,北湖公园,细颗粒物(PM2.5),142,129,139,108,112,172,45,125,88,48,21,11,14,1.1,1
2022-04-09T07:00:00,1772A,126.54,43.8622,吉林市,哈达湾,细颗粒物(PM2.5),125,165,119,95,50,176,112,137,131,16,11,8,7,0.9,0.6
2022-04-09T07:00:00,1773A,126.5844,43.8358,吉林市,东局子,细颗粒物(PM2.5),129,176,122,98,47,178,114,136,131,12,9,10,7,0.9,0.7
2022-04-09T07:00:00,1774A,126.5052,43.8245,吉林市,电力学院,颗粒物(PM10),114,177,124,85,43,188,124,145,140,13,10,17,13,0.9,0.7
2022-04-09T07:00:00,1775A,126.6133,43.8972,吉林市,江北,细颗粒物(PM2.5),135,183,136,103,51,172,107,134,128,15,11,16,12,0.9,0.7
2022-04-09T07:00:00,1776A,126.555,43.8306,吉林市,江南公园,细颗粒物(PM2.5),132,172,124,100,51,168,108,129,124,11,8,14,9,0.9,0.7
2022-04-09T07:00:00,1778A,126.7061,43.7133,吉林市,丰满(对照点),细颗粒物(PM2.5),128,158,92,97,48,176,126,144,139,11,7,9,7,1.0,0.8
2022-04-09T07:00:00,1779A,123.9305,47.3636,齐齐哈尔市,安居小区,,50,49,100,35,63,182,33,58,42,31,30,3,5,0.7,0.8
2022-04-09T07:00:00,1780A,123.9488,47.3386,齐齐哈尔市,中心广场,,50,50,114,33,69,172,32,55,41,25,25,18,41,0.6,0.7
2022-04-09T07:00:00,1781A,123.9483,47.3227,齐齐哈尔市,农牧车辆厂,,48,48,104,33,59,189,22,51,38,40,28,70,16,0.5,0.6
2022-04-09T07:00:00,1783A,123.945,47.2988,齐齐哈尔市,市环境监测站,颗粒物(PM10),56,61,105,38,78,164,14,44,34,46,25,51,14,0.7,0.7
2022-04-09T07:00:00,1784A,129.61,44.561,牡丹江市,环保大楼,颗粒物(PM10),57,63,80,31,31,139,96,97,95,12,12,7,6,0.5,0.5
2022-04-09T07:00:00,1785A,129.6115,44.5782,牡丹江市,文化广场,细颗粒物(PM2.5),52,50,81,36,35,138,97,89,89,14,14,7,7,0.4,0.4
2022-04-09T07:00:00,1786A,129.5904,44.5963,牡丹江市,第一医院,颗粒物(PM10),64,77,76,41,38,130,70,75,65,32,16,9,7,0.8,0.7
2022-04-09T07:00:00,1787A,129.6364,44.6075,牡丹江市,机车工厂,颗粒物(PM10),72,93,75,31,23,134,38,62,49,45,18,14,11,0.5,0.4
2022-04-09T07:00:00,1788A,129.6386,44.5462,牡丹江市,第一中学,颗粒物(PM10),55,59,76,30,27,139,102,103,100,17,15,10,4,0.5,0.4
2022-04-09T07:00:00,1789A,124.81117,46.03138,大庆市,大同区,细颗粒物(PM2.5),85,94,99,63,51,102,44,72,55,24,16,6,6,1.2,1.2
2022-04-09T07:00:00,1790A,125.129,46.533,大庆市,龙凤区,颗粒物(PM10),61,72,74,39,34,107,50,73,61,29,19,12,6,0.7,0.6
2022-04-09T07:00:00,1791A,124.902,46.408,大庆市,红岗区,颗粒物(PM10),65,79,67,41,36,138,44,67,51,23,14,7,5,1.3,1.3
2022-04-09T07:00:00,1792A,125.153,46.586,大庆市,萨尔图区,细颗粒物(PM2.5),74,61,70,54,56,109,44,83,67,34,18,8,10,0.7,0.6
2022-04-09T07:00:00,1793A,124.9042,46.6215,大庆市,让胡路区,细颗粒物(PM2.5),58,60,72,41,37,126,45,63,46,38,21,8,6,1.1,1.1
2022-04-09T07:00:00,1794A,118.3606,31.3519,芜湖市,监测站,颗粒物(PM10),54,58,76,12,14,173,80,69,68,30,41,12,12,0.6,0.6
2022-04-09T07:00:00,1795A,118.3714,31.4134,芜湖市,科创中心,颗粒物(PM10),54,58,84,35,37,167,40,12,12,47,65,7,9,0.7,0.8
2022-04-09T07:00:00,1796A,118.3673,31.3131,芜湖市,四水厂,颗粒物(PM10),58,66,80,13,14,151,60,76,54,29,45,7,9,0.6,0.6
2022-04-09T07:00:00,1798A,118.5092,31.6837,马鞍山市,湖东路四小,"颗粒物(PM10),细颗粒物(PM2.5)",57,64,74,40,35,177,74,136,99,25,30,12,11,1.0,0.8
2022-04-09T07:00:00,1799A,118.5024,31.6449,马鞍山市,开发区,颗粒物(PM10),63,76,104,33,34,171,46,71,56,54,60,11,12,1.2,0.9
2022-04-09T07:00:00,1800A,118.5228,31.7231,马鞍山市,慈湖,颗粒物(PM10),61,71,88,35,35,170,64,125,95,38,31,13,12,1.1,0.8
2022-04-09T07:00:00,1802A,118.6245,31.7241,马鞍山市,濮塘(对照点),颗粒物(PM10),62,74,65,31,33,154,77,127,97,10,13,16,13,0.5,0.5
2022-04-09T07:00:00,1803A,115.9872,29.6815,九江市,十里,颗粒物(PM10),54,58,67,19,27,165,16,10,10,56,48,10,8,0.7,0.7
2022-04-09T07:00:00,1804A,115.9584,29.7046,九江市,茅山头,颗粒物(PM10),63,75,85,30,30,43,6,3,3,65,74,8,5,0.8,0.6
2022-04-09T07:00:00,1805A,115.9877,29.7295,九江市,西园,颗粒物(PM10),58,65,64,32,30,146,48,12,12,37,56,17,12,0.6,0.5
2022-04-09T07:00:00,1806A,116.0172,29.6547,九江市,五七二七厂,,50,50,46,23,17,153,67,104,87,26,14,8,6,0.3,0.4
2022-04-09T07:00:00,1808A,115.9114,29.6038,九江市,综合工业园,颗粒物(PM10),53,55,58,24,26,155,74,90,79,33,32,14,12,0.5,0.5
2022-04-09T07:00:00,1809A,116.0721,29.7535,九江市,石化总厂,颗粒物(PM10),54,57,66,20,23,156,73,59,58,27,34,26,14,0.3,0.4
2022-04-09T07:00:00,1810A,115.9773,29.5698,九江市,庐山气象台(对照点),,45,43,39,26,16,152,144,150,145,4,3,7,5,0.3,0.2
2022-04-09T07:00:00,1812A,112.3931,34.6516,洛阳市,市委党校,颗粒物(PM10),70,90,145,40,68,202,55,39,39,23,38,6,11,0.7,1
2022-04-09T07:00:00,1814A,112.4657,34.6871,洛阳市,豫西宾馆,细颗粒物(PM2.5),90,117,148,67,77,206,25,15,15,56,45,11,14,1.3,1.2
2022-04-09T07:00:00,1815A,112.494,34.6886,洛阳市,河南林校,颗粒物(PM10),81,112,149,48,67,217,38,31,31,34,37,8,10,0.6,0.7
2022-04-09T07:00:00,1816A,112.3844,34.623,洛阳市,开发区管委会,颗粒物(PM10),68,86,128,45,68,199,32,35,33,31,31,6,11,0.5,0.7
2022-04-09T07:00:00,1817A,112.4267,34.6258,洛阳市,市委新办公区,颗粒物(PM10),76,101,141,42,66,188,46,60,55,28,28,5,11,0.7,0.8
2022-04-09T07:00:00,1818A,114.4839,36.0621,安阳市,棉研所(对照点),颗粒物(PM10),78,106,117,32,43,159,22,55,37,27,18,7,10,0.8,0.8
2022-04-09T07:00:00,1819A,114.3551,36.1017,安阳市,红庙街,颗粒物(PM10),87,124,137,59,69,180,19,80,46,59,33,53,17,1.2,0.8
2022-04-09T07:00:00,1820A,114.361,36.0681,安阳市,银杏小区,,,127,125,,62,186,24,82,45,52,30,29,18,1.5,0.9
2022-04-09T07:00:00,1824A,114.3389,34.7781,开封市,肿瘤医院,颗粒物(PM10),64,78,98,36,47,162,68,87,80,22,14,10,13,0.4,0.6
2022-04-09T07:00:00,1826A,114.2885,34.7965,开封市,世纪星幼儿园,颗粒物(PM10),65,79,98,34,36,173,78,74,72,21,18,22,14,0.8,0.7
2022-04-09T07:00:00,1828A,113.2269,35.2127,焦作市,市环保局,,,124,125,75,78,211,87,103,84,,24,30,15,0.8,1
2022-04-09T07:00:00,1829A,113.2467,35.176,焦作市,高新区政府,细颗粒物(PM2.5),94,116,148,70,90,189,71,41,41,30,41,18,18,0.4,0.5
2022-04-09T07:00:00,1830A,113.1987,35.2703,焦作市,影视城(对照点),细颗粒物(PM2.5),74,84,109,54,59,184,117,160,150,5,10,14,18,0.9,1.2
2022-04-09T07:00:00,1832A,113.3257,33.742,平顶山市,新华旅馆,颗粒物(PM10),68,85,90,37,44,157,126,157,146,13,12,6,7,0.4,0.4
2022-04-09T07:00:00,1833A,113.2919,33.737,平顶山市,规划设计院,颗粒物(PM10),60,70,88,26,36,154,123,154,140,12,10,7,6,0.3,0.3
2022-04-09T07:00:00,1834A,113.182,33.774,平顶山市,平顶山工学院,颗粒物(PM10),61,71,82,33,36,155,129,155,143,8,10,11,9,0.5,0.5
2022-04-09T07:00:00,1835A,111.1922,34.7752,三门峡市,市政府,颗粒物(PM10),76,101,98,48,42,176,18,45,24,54,37,14,13,0.8,0.7
2022-04-09T07:00:00,1836A,111.1587,34.7942,三门峡市,开发区,颗粒物(PM10),84,118,109,41,42,168,30,40,24,28,28,18,15,0.5,0.5
2022-04-09T07:00:00,1838A,111.143,34.7955,三门峡市,风景区(对照点),颗粒物(PM10),70,89,103,27,36,168,39,40,25,17,25,13,14,0.6,0.7
2022-04-09T07:00:00,1840A,111.2992,30.6981,宜昌市,白龙岗,颗粒物(PM10),51,51,64,34,28,164,50,54,53,25,35,5,7,0.6,0.3
2022-04-09T07:00:00,1841A,111.3549,30.6465,宜昌市,伍家岗,,45,44,61,31,30,169,6,33,19,50,41,4,6,0.6,0.5
2022-04-09T07:00:00,1842A,111.2628,30.6961,宜昌市,点军区,颗粒物(PM10),53,56,75,34,30,195,28,42,36,20,30,6,9,0.5,0.5
2022-04-09T07:00:00,1843A,111.3275,30.7819,宜昌市,夷陵区,颗粒物(PM10),53,56,65,27,26,175,26,76,48,27,26,3,4,0.4,0.3
2022-04-09T07:00:00,1844A,112.2494,30.3197,荆州市,市图书馆,颗粒物(PM10),53,55,77,21,29,162,75,112,96,31,25,18,13,0.6,0.6
2022-04-09T07:00:00,1845A,112.2008,30.3544,荆州市,市委党校,颗粒物(PM10),56,62,72,26,36,165,83,118,99,22,21,22,13,0.6,0.6
2022-04-09T07:00:00,1847A,113.1094,29.3578,岳阳市,南湖风景区,颗粒物(PM10),53,56,64,28,30,171,81,82,81,37,38,24,12,0.5,0.5
2022-04-09T07:00:00,1848A,113.1493,29.4251,岳阳市,城陵矶,颗粒物(PM10),52,53,70,25,27,173,100,118,112,24,24,23,17,0.5,0.6
2022-04-09T07:00:00,1849A,113.1497,29.3575,岳阳市,开发区,颗粒物(PM10),67,83,90,29,29,198,82,114,106,32,19,33,13,0.5,0.4
2022-04-09T07:00:00,1850A,113.2621,29.4758,岳阳市,云溪区,,48,48,60,23,27,171,130,141,122,8,17,11,12,0.3,0.4
2022-04-09T07:00:00,1851A,112.9943,29.4402,岳阳市,君山区,颗粒物(PM10),51,52,56,25,33,169,113,117,109,15,16,11,12,0.5,0.6
2022-04-09T07:00:00,1852A,113.2117,29.355,岳阳市,金凤水库(对照点),颗粒物(PM10),61,71,62,29,26,174,66,86,81,28,20,11,8,0.4,0.4
2022-04-09T07:00:00,1854A,111.6975,28.9703,常德市,市二中,,46,46,65,32,31,159,44,111,82,20,18,7,11,0.9,0.9
2022-04-09T07:00:00,1857A,111.7158,29.1456,常德市,白鹤山(对照点),颗粒物(PM10),58,66,71,29,29,181,73,117,101,8,11,12,8,0.5,0.5
2022-04-09T07:00:00,1858A,110.5319,29.1217,张家界市,永定新区,,49,49,60,27,25,149,30,50,45,24,16,2,3,0.2,0.2
2022-04-09T07:00:00,1859A,110.4697,29.1242,张家界市,电业局,,35,35,45,23,21,133,23,41,37,14,17,6,6,0.2,0.2
2022-04-09T07:00:00,1860A,110.5594,29.3547,张家界市,未央路,,30,30,53,14,12,118,55,59,57,4,6,2,3,0.1,0.2
2022-04-09T07:00:00,1861A,110.4417,29.315,张家界市,袁家界(对照点),,40,38,44,14,14,137,127,133,132,1,2,4,5,0.1,0.1
2022-04-09T07:00:00,1862A,110.4144,25.3167,桂林市,电子科大尧山校区(对照点),细颗粒物(PM2.5),67,59,63,48,39,168,27,43,34,6,7,10,15,0.5,0.5
2022-04-09T07:00:00,1863A,110.2819,25.2697,桂林市,监测站,细颗粒物(PM2.5),68,76,84,49,53,159,61,55,55,12,22,26,16,0.8,0.8
2022-04-09T07:00:00,1864A,110.3089,25.2708,桂林市,龙隐路小学,颗粒物(PM10),57,63,74,34,43,161,46,47,46,24,25,19,17,0.7,0.7
2022-04-09T07:00:00,1865A,110.2869,25.2178,桂林市,八中,细颗粒物(PM2.5),70,57,76,51,53,161,34,52,48,25,25,23,14,0.9,0.8
2022-04-09T07:00:00,1866A,109.2262,21.588,北海市,牛尾岭水库(对照点),,39,32,54,27,39,167,71,81,77,12,16,11,11,0.8,0.8
2022-04-09T07:00:00,1867A,109.1436,21.4086,北海市,海滩公园,,49,49,52,29,29,175,80,141,114,18,12,10,8,0.5,0.6
2022-04-09T07:00:00,1868A,109.0981,21.4661,北海市,新市环保局,,45,40,49,31,39,168,90,145,124,14,10,6,7,0.6,0.6
2022-04-09T07:00:00,1869A,109.1778,21.5233,北海市,北海工业园,颗粒物(PM10),54,57,73,34,44,178,65,116,82,25,20,17,18,0.8,0.8
2022-04-09T07:00:00,1870A,109.4856,24.3895,柳州市,柳东小学,细颗粒物(PM2.5),99,91,77,74,52,186,23,46,36,37,26,23,20,1.0,0.8
2022-04-09T07:00:00,1871A,109.4157,24.3277,柳州市,环保监测站,细颗粒物(PM2.5),88,103,89,65,48,193,14,25,19,55,46,13,15,0.8,0.7
2022-04-09T07:00:00,1872A,109.389,24.341,柳州市,河西水厂,细颗粒物(PM2.5),99,123,105,74,57,199,15,8,8,53,49,32,26,1.1,1.2
2022-04-09T07:00:00,1873A,109.4311,24.2921,柳州市,市四中,颗粒物(PM10),78,106,91,47,46,200,8,18,13,64,45,10,13,0.9,0.9
2022-04-09T07:00:00,1874A,109.4006,24.3631,柳州市,市九中,颗粒物(PM10),94,138,110,65,37,182,8,36,17,53,42,19,19,0.7,0.7
2022-04-09T07:00:00,1875A,109.4958,24.3134,柳州市,古亭山,细颗粒物(PM2.5),90,80,70,67,42,167,9,22,20,59,41,13,11,0.6,0.5
2022-04-09T07:00:00,1876A,109.5078,18.2489,三亚市,河东子站,,41,41,40,26,24,151,70,95,82,6,5,5,5,0.6,0.5
2022-04-09T07:00:00,1877A,109.4964,18.2681,三亚市,河西子站,,41,41,39,28,27,157,65,90,74,5,4,8,7,0.5,0.5
2022-04-09T07:00:00,1878A,104.7778,31.4741,绵阳市,富乐山,"颗粒物(PM10),细颗粒物(PM2.5)",60,69,61,43,39,138,16,56,39,31,26,4,5,1.0,0.9
2022-04-09T07:00:00,1879A,104.7563,31.4535,绵阳市,市人大,细颗粒物(PM2.5),70,77,76,51,47,132,12,36,23,50,54,5,6,0.7,0.8
2022-04-09T07:00:00,1880A,104.6697,31.4668,绵阳市,高新区自来水公司,细颗粒物(PM2.5),77,89,75,56,50,150,4,59,28,47,37,7,7,0.9,0.7
2022-04-09T07:00:00,1881A,104.7287,31.5075,绵阳市,三水厂,细颗粒物(PM2.5),80,89,88,59,55,135,2,45,17,43,43,5,4,1.2,0.9
2022-04-09T07:00:00,1882A,104.563,28.793,宜宾市,石马中学(对照点),细颗粒物(PM2.5),92,95,79,68,49,155,31,37,36,30,29,10,10,0.7,0.7
2022-04-09T07:00:00,1883A,104.6201,28.7728,宜宾市,市委,细颗粒物(PM2.5),83,93,80,61,48,160,12,16,15,52,46,11,11,0.9,0.8
2022-04-09T07:00:00,1884A,104.6055,28.793,宜宾市,宜宾四中,细颗粒物(PM2.5),88,103,90,65,51,156,25,48,45,56,46,12,12,0.9,0.7
2022-04-09T07:00:00,1885A,104.639,28.7562,宜宾市,市政府,细颗粒物(PM2.5),87,104,98,64,50,166,13,11,11,54,58,14,13,0.8,0.7
2022-04-09T07:00:00,1886A,104.5742,28.7199,宜宾市,黄金嘴,细颗粒物(PM2.5),74,82,76,54,47,163,6,17,13,52,39,14,14,0.8,0.6
2022-04-09T07:00:00,1888A,101.6891,26.571,攀枝花市,弄弄坪,"颗粒物(PM10),细颗粒物(PM2.5)",65,80,75,47,39,111,32,48,26,26,36,16,18,1.6,1.7
2022-04-09T07:00:00,1889A,101.5769,26.5928,攀枝花市,河门口,颗粒物(PM10),64,78,65,42,34,114,11,53,28,37,38,13,36,1.5,2.2
2022-04-09T07:00:00,1890A,101.7169,26.585,攀枝花市,炳草岗,细颗粒物(PM2.5),72,64,60,52,39,113,3,7,5,56,51,18,26,1.3,1.4
2022-04-09T07:00:00,1891A,101.7369,26.5008,攀枝花市,仁和,细颗粒物(PM2.5),52,49,51,36,32,117,31,46,42,21,24,5,15,0.7,0.9
2022-04-09T07:00:00,1893A,105.4324,28.9634,泸州市,九狮山(对照点),颗粒物(PM10),71,91,90,48,52,177,14,39,22,18,21,6,16,0.4,0.5
2022-04-09T07:00:00,1894A,105.4427,28.9063,泸州市,小市上码头,细颗粒物(PM2.5),89,104,109,66,56,154,51,67,61,37,46,19,25,0.7,0.8
2022-04-09T07:00:00,1895A,105.4241,28.8573,泸州市,兰田宪桥,细颗粒物(PM2.5),73,82,101,53,47,184,61,64,63,24,28,20,30,0.7,0.7
2022-04-09T07:00:00,1896A,105.4379,28.8833,泸州市,市环监站,颗粒物(PM10),73,95,103,46,49,184,75,82,77,29,39,20,24,0.5,0.6
2022-04-09T07:00:00,1901A,104.4239,31.1208,德阳市,东山公园,细颗粒物(PM2.5),82,92,79,60,48,139,71,67,59,23,26,11,7,0.7,0.6
2022-04-09T07:00:00,1902A,104.3826,31.1317,德阳市,西小区,,,92,85,57,49,141,,,,48,30,8,9,0.8,0.6
2022-04-09T07:00:00,1904A,104.3553,31.1091,德阳市,耐火材料厂,细颗粒物(PM2.5),104,119,92,78,56,143,5,56,22,47,34,9,9,0.7,0.5
2022-04-09T07:00:00,1905A,106.056,30.8064,南充市,西山风景区(对照点),颗粒物(PM10),52,53,53,34,36,149,87,118,105,15,12,18,4,0.6,0.6
2022-04-09T07:00:00,1906A,106.0789,30.8023,南充市,南充市委,颗粒物(PM10),52,54,66,29,35,141,52,65,63,11,21,1,2,0.5,0.5
2022-04-09T07:00:00,1907A,106.1031,30.8217,南充市,南充炼油厂,颗粒物(PM10),57,64,66,34,32,171,37,71,59,34,15,2,6,0.5,0.5
2022-04-09T07:00:00,1908A,106.1064,30.7856,南充市,高坪区监测站,细颗粒物(PM2.5),54,46,64,38,36,144,73,42,42,32,26,3,2,0.6,0.5
2022-04-09T07:00:00,1909A,106.0642,30.7636,南充市,嘉陵区环保局,,43,32,53,30,31,145,70,74,74,28,26,7,5,0.7,0.6
2022-04-09T07:00:00,1910A,106.1087,30.8388,南充市,市环境监测站,颗粒物(PM10),56,62,64,30,37,138,53,76,65,10,15,4,7,0.4,0.4
2022-04-09T07:00:00,1911A,106.9222,27.6869,遵义市,丁字口,,42,36,49,29,24,156,33,38,37,21,33,8,13,0.4,0.5
2022-04-09T07:00:00,1912A,106.9242,27.7019,遵义市,凤凰山,,44,44,42,26,21,160,90,127,98,14,19,12,9,0.4,0.3
2022-04-09T07:00:00,1913A,106.8906,27.6486,遵义市,忠庄,,46,46,65,31,30,149,21,39,26,26,29,2,5,0.4,0.4
2022-04-09T07:00:00,1914A,106.9231,27.6506,遵义市,舟水桥,,43,31,44,30,24,155,32,34,28,24,25,3,5,0.4,0.4
2022-04-09T07:00:00,1915A,106.9178,27.72,遵义市,干田坝,,40,40,47,21,19,158,20,35,32,30,28,9,9,0.6,0.6
2022-04-09T07:00:00,1916A,103.7897,25.5035,曲靖市,环境监测站,颗粒物(PM10),55,59,50,37,26,158,51,84,73,30,23,10,9,0.8,0.8
2022-04-09T07:00:00,1917A,103.8,25.5364,曲靖市,烟厂办公区,颗粒物(PM10),61,72,63,36,29,139,45,75,35,29,27,6,10,0.9,0.8
2022-04-09T07:00:00,1918A,108.7197,34.3956,咸阳市,气象站(对照点),颗粒物(PM10),70,89,115,34,42,156,29,24,24,50,54,6,10,0.6,0.7
2022-04-09T07:00:00,1919A,108.673,34.3155,咸阳市,实验中学,颗粒物(PM10),82,114,139,48,57,170,12,74,33,52,57,3,7,0.8,0.8
2022-04-09T07:00:00,1920A,108.7233,34.3617,咸阳市,师范学院,颗粒物(PM10),67,84,118,38,48,162,20,62,39,48,41,4,8,0.9,0.9
2022-04-09T07:00:00,1922A,109.0656,35.0994,铜川市,党校(对照点),,49,49,78,16,26,136,8,83,34,65,48,5,9,0.2,0.4
2022-04-09T07:00:00,1923A,109.0697,35.0697,铜川市,王益区政府,,38,38,78,22,32,154,26,92,46,30,31,6,10,0.3,0.4
2022-04-09T07:00:00,1924A,108.9344,34.9058,铜川市,新区管委会,,43,43,70,16,29,156,67,106,79,16,18,10,10,0.2,0.4
2022-04-09T07:00:00,1926A,109.4131,36.6275,延安市,枣园(对照点),颗粒物(PM10),57,63,74,19,21,149,12,12,12,33,35,2,2,0.1,0.1
2022-04-09T07:00:00,1927A,109.4761,36.6028,延安市,延大医附院,颗粒物(PM10),63,75,88,24,27,160,10,6,6,36,40,4,4,0.5,0.6
2022-04-09T07:00:00,1929A,109.5056,36.6106,延安市,百米大道,颗粒物(PM10),71,91,96,42,41,143,4,3,3,51,50,4,4,0,0.2
2022-04-09T07:00:00,1930A,107.185,34.3063,宝鸡市,庙沟村(对照点),,36,36,56,22,27,156,103,110,108,5,13,4,6,0.4,0.5
2022-04-09T07:00:00,1931A,107.0708,34.3017,宝鸡市,竹园沟,,42,42,61,23,31,172,93,82,80,9,16,6,8,0.5,0.5
2022-04-09T07:00:00,1932A,107.1906,34.3672,宝鸡市,三陆医院,细颗粒物(PM2.5),60,61,82,43,45,163,5,50,31,66,41,15,13,0.7,0.7
2022-04-09T07:00:00,1933A,107.1431,34.3547,宝鸡市,监测站,细颗粒物(PM2.5),59,55,74,42,36,163,17,70,48,47,34,8,8,0.7,0.6
2022-04-09T07:00:00,1934A,107.1186,34.3739,宝鸡市,技工学校,颗粒物(PM10),58,66,80,32,36,168,39,70,58,34,25,5,9,0.6,0.6
2022-04-09T07:00:00,1935A,107.3906,34.3528,宝鸡市,陈仓区环保局家属楼,细颗粒物(PM2.5),88,85,92,65,40,155,38,48,42,31,34,112,35,1.9,1.3
2022-04-09T07:00:00,1936A,107.2058,34.3497,宝鸡市,文理学院,,43,42,73,30,40,170,49,77,67,34,33,8,12,1.1,1.2
2022-04-09T07:00:00,1937A,107.2386,34.3622,宝鸡市,三迪小学,颗粒物(PM10),55,59,85,37,44,158,14,58,36,51,45,8,11,0.5,0.7
2022-04-09T07:00:00,1938A,109.5293,34.5101,渭南市,农科所(对照点),颗粒物(PM10),75,100,122,34,41,161,47,75,59,42,38,10,13,0.4,0.5
2022-04-09T07:00:00,1939A,109.4974,34.4877,渭南市,日报社,颗粒物(PM10),73,95,112,34,38,164,33,77,60,61,37,13,20,0.4,0.5
2022-04-09T07:00:00,1940A,109.4636,34.493,渭南市,体育馆,颗粒物(PM10),76,102,118,37,38,163,40,72,54,55,40,18,22,0.4,0.5
2022-04-09T07:00:00,1941A,109.4259,34.5023,渭南市,高新一小,颗粒物(PM10),91,131,129,36,44,161,28,70,47,67,40,9,13,0.6,0.6
2022-04-09T07:00:00,1943A,102.1725,38.5339,金昌市,新川苑,颗粒物(PM10),117,183,193,45,39,109,50,98,82,25,12,40,10,0.6,0.5
2022-04-09T07:00:00,1944A,102.1692,38.5167,金昌市,天庆家园,颗粒物(PM10),104,157,178,42,36,110,48,94,77,37,13,12,10,0.6,0.4
2022-04-09T07:00:00,1945A,98.2908,39.7711,嘉峪关市,气象局,颗粒物(PM10),74,97,154,29,42,117,84,85,85,6,12,2,4,0.5,0.4
2022-04-09T07:00:00,1947A,106.3394,38.817,石嘴山市,沙湖旅游区(对照点),颗粒物(PM10),146,242,165,54,33,114,5,34,13,58,32,8,8,0.3,0.3
2022-04-09T07:00:00,1948A,106.3668,39.0145,石嘴山市,大武口朝阳西街,颗粒物(PM10),78,106,101,40,32,126,8,100,42,61,30,11,5,1.1,0.6
2022-04-09T07:00:00,1949A,106.7704,39.2282,石嘴山市,惠农南大街,颗粒物(PM10),90,129,109,44,29,118,6,8,8,43,34,18,29,0.7,0.6
2022-04-09T07:00:00,1950A,106.7099,39.1325,石嘴山市,红果子镇惠新街,颗粒物(PM10),100,149,164,36,38,112,11,27,18,32,27,9,16,0.7,0.8
2022-04-09T07:00:00,1951A,84.895,45.6094,克拉玛依市,长征新村,,28,16,62,9,8,106,88,92,89,2,5,8,8,0.1,0.2
2022-04-09T07:00:00,1952A,84.8988,45.5893,克拉玛依市,南林小区,,29,26,83,7,16,109,92,99,94,5,9,6,6,0.2,0.3
2022-04-09T07:00:00,1954A,84.905,44.3396,克拉玛依市,独山子区,颗粒物(PM10),106,161,116,54,27,134,74,70,70,6,9,6,5,0.3,0.4
2022-04-09T07:00:00,1955A,85.6979,46.098,克拉玛依市,乌尔禾区商贸楼,,25,25,89,15,17,99,63,75,72,12,3,9,10,0.4,0.4
2022-04-09T07:00:00,1956A,86.1472,41.7538,巴音郭楞州,孔雀公园,颗粒物(PM10),59,67,166,24,44,128,94,89,89,5,24,2,4,0.3,0.4
2022-04-09T07:00:00,1957A,86.1972,41.7166,巴音郭楞州,棉纺厂,,36,36,151,20,47,113,84,87,86,7,21,2,3,0.3,0.4
2022-04-09T07:00:00,1958A,86.2357,41.7173,巴音郭楞州,经济开发区,颗粒物(PM10),56,61,184,12,44,117,92,96,95,4,16,2,3,0.3,0.3
2022-04-09T07:00:00,1961A,117.532,36.6868,济南市,东山小学,颗粒物(PM10),75,100,113,24,40,136,122,129,124,10,10,13,12,0.4,0.4
2022-04-09T07:00:00,1966A,120.0405,35.8735,青岛市,黄岛区4号,颗粒物(PM10),67,83,46,29,26,140,93,91,84,35,22,11,7,0.9,0.5
2022-04-09T07:00:00,1982A,122.0693,37.2174,威海市,文登开发区,,,73,55,36,29,174,109,109,108,19,15,6,4,,0.1
2022-04-09T07:00:00,2031A,113.1817,27.9958,株洲市,云田中学,颗粒物(PM10),52,53,68,27,30,174,63,109,92,31,18,9,8,0.3,0.3
2022-04-09T07:00:00,2054A,114.1099,32.1059,信阳市,平桥分局,颗粒物(PM10),55,59,71,30,30,181,121,134,124,18,17,14,12,0.6,0.6
2022-04-09T07:00:00,2064A,113.9956,32.1271,信阳市,南湾水厂,颗粒物(PM10),60,69,80,32,29,186,130,154,144,16,13,15,12,0.5,0.5
2022-04-09T07:00:00,2065A,114.0775,32.1195,信阳市,市酿酒公司,颗粒物(PM10),61,72,58,27,24,174,113,127,122,24,16,12,11,0.6,0.5
2022-04-09T07:00:00,2066A,114.0609,32.1399,信阳市,审计局,颗粒物(PM10),55,60,75,32,30,170,111,140,124,16,13,13,11,0.4,0.4
2022-04-09T07:00:00,2067A,114.6613,33.6128,周口市,市环境监测站,颗粒物(PM10),62,74,87,19,25,181,115,135,126,12,10,10,10,0.6,0.7
2022-04-09T07:00:00,2068A,114.6758,33.6347,周口市,周口师范,颗粒物(PM10),60,70,85,21,22,171,110,130,119,15,11,11,11,0.5,0.6
2022-04-09T07:00:00,2069A,114.6546,33.5979,周口市,市运管处,颗粒物(PM10),58,65,83,18,21,172,105,126,117,18,13,7,7,0.5,0.5
2022-04-09T07:00:00,2070A,114.6369,33.6406,周口市,川汇区环保局,颗粒物(PM10),55,60,77,20,26,171,116,136,131,14,9,6,6,0.5,0.5
2022-04-09T07:00:00,2075A,117.6336,24.4674,漳州市,九湖(对照点),颗粒物(PM10),63,75,70,42,29,180,10,41,28,46,25,12,10,0.5,0.5
2022-04-09T07:00:00,2160A,112.85,35.5051,晋城市,自来水公司,颗粒物(PM10),98,145,119,56,48,192,40,40,40,53,43,14,12,1.5,1.2
2022-04-09T07:00:00,2161A,112.8318,35.4936,晋城市,白云商贸,颗粒物(PM10),95,139,110,46,46,184,48,52,48,44,35,8,7,1.5,1.1
2022-04-09T07:00:00,2162A,112.8508,35.4887,晋城市,市环保局,颗粒物(PM10),90,130,114,51,48,192,19,20,19,72,48,11,12,1.0,1.1
2022-04-09T07:00:00,2163A,112.8676,35.4897,晋城市,技术学院,颗粒物(PM10),88,125,111,48,51,177,32,47,40,60,40,7,8,0.9,1
2022-04-09T07:00:00,2165A,112.8453,35.546,晋城市,白马寺 (对照点),颗粒物(PM10),68,85,108,36,44,175,105,159,140,17,18,13,9,0.8,1
2022-04-09T07:00:00,2166A,112.4397,39.3522,朔州市,平朔,颗粒物(PM10),123,195,120,52,32,128,25,70,40,49,23,13,9,0.6,0.5
2022-04-09T07:00:00,2167A,112.4575,39.3617,朔州市,朔唯,颗粒物(PM10),131,212,140,37,31,134,13,66,34,62,27,13,6,0.4,0.3
2022-04-09T07:00:00,2168A,112.4258,39.3197,朔州市,区政府,颗粒物(PM10),112,173,102,44,24,131,23,70,50,47,16,16,9,1.1,0.6
2022-04-09T07:00:00,2169A,112.4072,39.3278,朔州市,市环保局,颗粒物(PM10),114,177,134,46,28,117,42,74,52,41,20,21,8,0.6,0.4
2022-04-09T07:00:00,2170A,112.4272,39.3681,朔州市,市二中,颗粒物(PM10),131,212,121,45,32,136,17,72,48,75,21,17,9,0.8,0.3
2022-04-09T07:00:00,2171A,112.7532,37.6945,晋中市,锦纶小区,颗粒物(PM10),105,160,129,72,51,178,32,36,32,32,31,15,13,0.9,0.7
2022-04-09T07:00:00,2173A,112.7249,37.7067,晋中市,南都小区,颗粒物(PM10),132,213,139,81,52,180,6,72,33,69,36,21,21,1.0,0.8
2022-04-09T07:00:00,2174A,112.6991,37.6982,晋中市,榆次区政府,颗粒物(PM10),97,144,124,69,54,180,24,72,41,47,31,21,20,3.3,3.1
2022-04-09T07:00:00,2175A,110.9956,35.0147,运城市,运城中学,颗粒物(PM10),85,120,115,29,47,183,68,64,62,19,24,25,24,0.4,0.6
2022-04-09T07:00:00,2178A,110.9686,35.0303,运城市,地区技校,颗粒物(PM10),91,132,118,35,38,173,54,59,53,29,31,7,12,0.6,0.7
2022-04-09T07:00:00,2179A,111.0414,35.1147,运城市,空港新区,颗粒物(PM10),87,123,118,42,49,163,36,38,35,30,29,8,11,0.6,0.8
2022-04-09T07:00:00,2181A,112.7383,38.4519,忻州市,开发区,颗粒物(PM10),74,98,80,22,22,142,37,95,77,38,16,26,19,0.6,0.5
2022-04-09T07:00:00,2182A,112.7003,38.4928,忻州市,会展中心,颗粒物(PM10),67,83,76,32,22,141,76,81,67,51,29,32,14,0.6,0.4
2022-04-09T07:00:00,2183A,111.1406,37.5211,吕梁市,环保局,颗粒物(PM10),91,131,101,26,23,136,1,3,1,64,49,8,8,0.4,0.4
2022-04-09T07:00:00,2185A,111.1297,37.5136,吕梁市,自来水公司,颗粒物(PM10),129,207,136,29,23,133,3,2,2,55,45,7,5,0.4,0.4
2022-04-09T07:00:00,2187A,106.8174,39.6973,乌海市,市林业局,颗粒物(PM10),105,160,117,66,37,118,7,46,24,72,37,90,45,1.4,0.8
2022-04-09T07:00:00,2188A,106.7907,39.6667,乌海市,中海勃湾学校,颗粒物(PM10),84,117,112,45,37,128,14,14,14,66,43,52,34,1.4,0.8
2022-04-09T07:00:00,2191A,122.2532,43.6801,通辽市,艺术职业学校,,37,37,107,24,43,166,66,98,85,32,18,8,9,0.6,0.6
2022-04-09T07:00:00,2192A,119.7594,49.2261,呼伦贝尔市,区环保局,,28,21,31,19,19,107,76,75,72,11,8,5,5,0.3,0.5
2022-04-09T07:00:00,2195A,107.4212,40.761,巴彦淖尔市,附二中,颗粒物(PM10),68,85,109,30,30,121,84,50,50,5,20,4,8,0.4,0.5
2022-04-09T07:00:00,2196A,107.37,40.7372,巴彦淖尔市,市环保大楼,颗粒物(PM10),64,78,90,33,30,126,76,52,52,11,16,3,3,0.6,0.4
2022-04-09T07:00:00,2197A,113.1306,40.9923,乌兰察布市,集宁新区,,26,26,49,13,21,127,40,72,57,17,12,9,10,0.3,0.2
2022-04-09T07:00:00,2200A,122.0392,46.0656,兴安盟,胜华新制药厂,"颗粒物(PM10),细颗粒物(PM2.5)",73,96,49,53,30,98,44,86,61,26,11,11,3,0.6,0.3
2022-04-09T07:00:00,2201A,121.9504,46.0741,兴安盟,科右前旗环保局,细颗粒物(PM2.5),124,103,43,94,32,92,38,74,57,32,13,5,4,0.8,0.3
2022-04-09T07:00:00,2203A,116.0781,43.9311,锡林郭勒盟,市政府,,21,21,36,4,9,80,45,49,42,14,9,7,7,0.4,0.4
2022-04-09T07:00:00,2204A,105.6467,38.8363,阿拉善盟,西城区西花园(对照点),颗粒物(PM10),132,214,128,63,41,120,101,101,100,5,8,5,5,0.3,0.3
2022-04-09T07:00:00,2205A,105.6985,38.8411,阿拉善盟,蒙二幼,颗粒物(PM10),136,222,117,61,36,121,100,100,100,6,7,6,6,0.3,0.3
2022-04-09T07:00:00,2206A,105.724,38.8516,阿拉善盟,环保局新楼,颗粒物(PM10),116,181,94,66,38,118,107,111,110,6,7,7,7,0.4,0.3
2022-04-09T07:00:00,2207A,121.6094,41.998,阜新市,工业园区,细颗粒物(PM2.5),168,132,178,127,90,190,47,137,84,38,24,12,15,1.2,1
2022-04-09T07:00:00,2208A,121.6697,42.0279,阜新市,长青街,细颗粒物(PM2.5),82,100,151,60,87,178,45,131,73,20,18,16,18,1.0,1.1
2022-04-09T07:00:00,2209A,121.6673,42.0705,阜新市,农业园区,,24,16,141,6,85,179,75,128,91,14,17,15,15,0.3,0.8
2022-04-09T07:00:00,2210A,121.6717,42.0224,阜新市,东苑,颗粒物(PM10),87,124,173,42,70,182,55,139,99,32,22,48,24,1.1,1
2022-04-09T07:00:00,2211A,121.6506,42.0498,阜新市,玉龙新城,,18,17,132,12,66,180,50,120,76,29,16,11,17,0.5,0.8
2022-04-09T07:00:00,2212A,123.2,41.1953,辽阳市,宏伟区,细颗粒物(PM2.5),77,58,70,56,43,165,86,132,117,22,13,10,9,0.7,0.6
2022-04-09T07:00:00,2213A,123.1683,41.2495,辽阳市,新华园,细颗粒物(PM2.5),84,66,95,62,54,166,99,131,114,19,16,6,6,0.5,0.5
2022-04-09T07:00:00,2214A,123.2354,41.2639,辽阳市,滨河路,细颗粒物(PM2.5),89,61,88,66,56,168,98,130,115,16,16,8,12,0.6,0.5
2022-04-09T07:00:00,2215A,123.149,41.2991,辽阳市,铁西工业园,细颗粒物(PM2.5),82,71,107,60,55,168,85,136,107,27,17,12,13,0.6,0.6
2022-04-09T07:00:00,2216A,123.8139,42.3022,铁岭市,汇工街西,细颗粒物(PM2.5),143,98,238,109,71,170,81,131,102,27,22,28,17,1.1,0.8
2022-04-09T07:00:00,2217A,123.8649,42.2923,铁岭市,水上乐园,细颗粒物(PM2.5),90,77,143,67,59,188,66,148,115,44,18,10,12,0.7,0.6
2022-04-09T07:00:00,2218A,123.8486,42.2867,铁岭市,银州路东段,细颗粒物(PM2.5),92,80,242,68,60,182,85,145,114,21,52,8,11,0.8,0.7
2022-04-09T07:00:00,2219A,123.7153,42.2217,铁岭市,金沙江路北,细颗粒物(PM2.5),74,82,214,54,57,152,78,124,106,29,27,7,13,0.9,1
2022-04-09T07:00:00,2220A,120.4318,41.5881,朝阳市,西梁,细颗粒物(PM2.5),102,102,133,76,69,172,59,156,97,33,23,32,19,1.1,1.2
2022-04-09T07:00:00,2221A,120.4521,41.5646,朝阳市,河畔小区,细颗粒物(PM2.5),94,106,123,70,65,167,73,148,104,18,14,20,13,0.9,1
2022-04-09T07:00:00,2222A,120.4176,41.5648,朝阳市,八里堡,细颗粒物(PM2.5),79,92,129,58,56,170,45,161,99,42,28,20,21,1.0,1.4
2022-04-09T07:00:00,2223A,120.3806,41.5969,朝阳市,农业园区,颗粒物(PM10),51,52,103,18,56,187,52,151,90,33,15,12,13,0.5,0.8
2022-04-09T07:00:00,2225A,124.4002,43.1713,四平市,一商场,细颗粒物(PM2.5),74,75,240,54,47,171,83,117,101,14,9,12,12,0.6,0.5
2022-04-09T07:00:00,2226A,124.388,43.193,四平市,境园,细颗粒物(PM2.5),70,76,243,51,45,182,85,124,106,14,7,9,11,0.6,0.5
2022-04-09T07:00:00,2227A,125.1358,42.8845,辽源市,环保局,细颗粒物(PM2.5),74,64,100,54,52,185,119,150,140,11,8,11,8,0.9,0.7
2022-04-09T07:00:00,2229A,125.9358,41.7173,通化市,光明,,45,44,60,26,22,175,143,175,160,7,7,10,16,0.5,0.7
2022-04-09T07:00:00,2230A,125.9446,41.7325,通化市,铁路,,49,49,53,34,25,152,123,152,139,10,9,10,15,0.6,0.7
2022-04-09T07:00:00,2231A,126.4219,41.9171,白山市,喜丰,颗粒物(PM10),64,78,87,25,20,166,136,166,150,17,14,13,16,1.4,1.1
2022-04-09T07:00:00,2232A,126.4077,41.9419,白山市,环保局,颗粒物(PM10),54,57,57,31,22,4,4,4,4,21,15,21,30,3.2,2.4
2022-04-09T07:00:00,2233A,124.8006,45.1214,松原市,江南,细颗粒物(PM2.5),203,207,177,153,51,129,32,52,44,31,18,5,5,1.1,0.5
2022-04-09T07:00:00,2234A,124.7965,45.1722,松原市,江北,细颗粒物(PM2.5),227,193,157,177,55,134,40,47,45,18,16,1,3,1.0,0.6
2022-04-09T07:00:00,2236A,122.8738,45.5725,白城市,市环保局,细颗粒物(PM2.5),77,82,96,56,57,94,54,79,64,24,23,8,7,0.6,0.5
2022-04-09T07:00:00,2237A,129.47,42.8883,延边朝鲜族自治州,妇幼医院,细颗粒物(PM2.5),64,75,49,46,26,118,41,80,65,38,18,14,9,0.8,0.6
2022-04-09T07:00:00,2238A,129.5055,42.9108,延边朝鲜族自治州,延边医院,细颗粒物(PM2.5),63,59,49,45,27,118,42,84,71,34,18,13,11,0.8,0.7
2022-04-09T07:00:00,2239A,129.3964,42.8881,延边朝鲜族自治州,朝阳川镇医院,细颗粒物(PM2.5),70,73,52,51,31,123,60,72,62,31,15,12,10,0.7,0.5
2022-04-09T07:00:00,2240A,130.9762,45.3001,鸡西市,环保局,细颗粒物(PM2.5),88,79,86,65,44,142,21,41,35,47,36,4,5,0.6,0.4
2022-04-09T07:00:00,2243A,130.9429,45.3039,鸡西市,第一中学,细颗粒物(PM2.5),97,94,106,72,43,113,31,50,42,42,26,5,6,0.5,0.3
2022-04-09T07:00:00,2244A,130.2537,47.3416,鹤岗市,哈啤分公司,颗粒物(PM10),51,52,61,31,32,82,47,54,52,16,21,12,14,0.5,0.5
2022-04-09T07:00:00,2245A,130.2684,47.3086,鹤岗市,斯达机电,颗粒物(PM10),55,59,61,37,34,80,44,55,49,25,22,10,9,0.7,0.5
2022-04-09T07:00:00,2246A,130.3114,47.3388,鹤岗市,东山纸板厂,颗粒物(PM10),57,63,84,30,31,82,43,28,28,18,25,14,12,0.7,0.7
2022-04-09T07:00:00,2248A,131.1511,46.6937,双鸭山市,双合村,细颗粒物(PM2.5),85,88,89,63,42,85,48,15,15,20,26,11,10,0.4,0.4
2022-04-09T07:00:00,2249A,131.1652,46.6191,双鸭山市,南小市,颗粒物(PM10),60,70,81,41,42,92,66,39,39,20,23,5,3,0.5,0.6
2022-04-09T07:00:00,2250A,131.1524,46.6554,双鸭山市,环保局,细颗粒物(PM2.5),65,70,78,47,35,89,52,28,28,21,28,5,7,0.5,0.6
2022-04-09T07:00:00,2251A,131.12,46.5656,双鸭山市,苗圃(对照点),细颗粒物(PM2.5),74,70,53,54,39,106,34,21,21,27,20,3,3,0.7,0.7
2022-04-09T07:00:00,2252A,128.5159,47.4311,伊春市,环保局,细颗粒物(PM2.5),57,45,55,40,35,96,35,44,36,16,16,5,6,0.6,0.6
2022-04-09T07:00:00,2253A,128.9102,47.7412,伊春市,电力嘉园,颗粒物(PM10),52,54,56,29,28,98,32,36,34,15,13,5,6,0.7,0.7
2022-04-09T07:00:00,2254A,129.5029,48.471,伊春市,汤旺河国家公园(对照点),,29,23,28,20,25,90,86,41,41,16,16,5,6,0.3,0.4
2022-04-09T07:00:00,2255A,130.2751,46.8028,佳木斯市,佳纺,,43,43,66,28,41,95,44,44,42,14,14,3,4,0.5,0.5
2022-04-09T07:00:00,2256A,130.3995,46.8307,佳木斯市,发电厂,,35,23,40,24,36,94,46,40,40,2,7,3,3,0.4,0.5
2022-04-09T07:00:00,2257A,130.3258,46.7975,佳木斯市,环保局,,40,30,56,28,39,98,53,49,49,9,13,4,5,0.5,0.5
2022-04-09T07:00:00,2258A,130.3648,46.8032,佳木斯市,十一中,,40,27,43,28,38,93,53,49,49,12,15,9,7,0.5,0.5
2022-04-09T07:00:00,2259A,130.3794,46.7588,佳木斯市,四丰(对照点),细颗粒物(PM2.5),68,60,52,49,41,95,36,29,29,22,21,5,5,0.5,0.6
2022-04-09T07:00:00,2262A,131.0518,45.8751,七台河市,新一中(对照点),,45,45,58,27,28,117,50,71,57,14,13,6,9,0.7,0.6
2022-04-09T07:00:00,2263A,127.4833,50.2524,黑河市,交通局,,46,36,36,32,31,79,51,36,36,10,13,6,6,0.3,0.4
2022-04-09T07:00:00,2264A,127.5144,50.2341,黑河市,环保局,细颗粒物(PM2.5),54,41,38,38,33,86,52,44,43,8,12,4,5,0.5,0.3
2022-04-09T07:00:00,2265A,127.5291,50.2472,黑河市,大黑河岛(对照点),,46,41,40,32,32,84,52,44,43,13,16,7,5,0.5,0.6
2022-04-09T07:00:00,2266A,126.9785,46.6365,绥化市,人和东街,细颗粒物(PM2.5),120,93,101,91,69,99,41,62,53,23,17,13,9,0.6,0.6
2022-04-09T07:00:00,2267A,126.964,46.6528,绥化市,党政办公中心,细颗粒物(PM2.5),65,77,100,47,48,95,35,65,49,26,16,6,6,0.5,0.5
2022-04-09T07:00:00,2269A,124.1069,50.4097,大兴安岭地区,科技局,,22,9,14,9,11,88,69,63,63,3,6,3,4,0.3,0.3
2022-04-09T07:00:00,2270A,117.396,32.939,蚌埠市,工人疗养院,颗粒物(PM10),55,59,80,24,32,158,103,117,112,21,16,9,8,0.4,0.4
2022-04-09T07:00:00,2271A,117.3605,32.9427,蚌埠市,百货大楼,颗粒物(PM10),63,75,112,17,26,160,101,118,114,25,20,15,10,0.5,0.5
2022-04-09T07:00:00,2273A,117.4185,32.8911,蚌埠市,蚌埠学院,颗粒物(PM10),58,66,82,27,26,170,99,121,111,22,18,23,14,0.6,0.5
2022-04-09T07:00:00,2274A,117.3533,32.9673,蚌埠市,淮上区政府,颗粒物(PM10),53,56,80,19,26,158,99,118,114,22,16,15,12,0.3,0.4
2022-04-09T07:00:00,2275A,117.3145,32.8977,蚌埠市,高新区,颗粒物(PM10),65,80,86,27,29,148,51,93,81,53,22,20,13,0.6,0.5
2022-04-09T07:00:00,2277A,116.8305,32.7727,淮南市,潘集区政府,颗粒物(PM10),51,52,75,27,38,145,100,112,106,10,8,4,5,0.3,0.3
2022-04-09T07:00:00,2278A,117.0067,32.6524,淮南市,师范学院,,37,35,59,19,23,152,117,127,125,5,7,8,8,0.3,0.3
2022-04-09T07:00:00,2279A,116.8569,32.5951,淮南市,谢家集区政府,,49,49,68,25,28,148,102,102,102,13,14,6,7,0.1,0.2
2022-04-09T07:00:00,2280A,116.8281,32.633,淮南市,八公山区政府,,44,44,67,19,30,136,100,112,106,7,8,1,3,0.1,0.2
2022-04-09T07:00:00,2281A,116.6325,32.6201,淮南市,焦岗湖风景区管理处(对照点),,43,43,60,23,30,138,94,98,96,2,2,6,6,0.1,0.2
2022-04-09T07:00:00,2282A,116.8004,33.975,淮北市,监测站,颗粒物(PM10),64,77,84,23,25,137,90,100,96,15,11,4,4,0.4,0.5
2022-04-09T07:00:00,2283A,116.8091,33.9007,淮北市,烈山区政府,颗粒物(PM10),61,72,96,29,42,144,84,89,86,23,18,5,6,0.4,0.5
2022-04-09T07:00:00,2284A,116.7856,33.9477,淮北市,职业技术学院,颗粒物(PM10),58,65,81,24,25,125,87,95,92,13,11,6,6,0.5,0.6
2022-04-09T07:00:00,2285A,117.8177,30.9412,铜陵市,市第四中学,颗粒物(PM10),57,63,72,27,31,181,8,95,27,87,44,20,19,0.8,0.8
2022-04-09T07:00:00,2286A,117.8059,30.9273,铜陵市,市公路局,颗粒物(PM10),73,96,92,16,23,171,3,127,49,76,35,26,21,0.9,0.8
2022-04-09T07:00:00,2287A,117.7807,30.9413,铜陵市,市新民污水厂,颗粒物(PM10),58,66,67,33,33,168,8,3,3,71,64,15,18,1.3,0.7
2022-04-09T07:00:00,2288A,117.7439,30.8792,铜陵市,市第九中学,颗粒物(PM10),56,61,89,36,35,135,53,91,65,45,58,9,9,1.8,0.7
2022-04-09T07:00:00,2289A,117.846,30.9413,铜陵市,车站新区,,48,48,71,13,23,157,50,118,92,37,23,6,10,0.6,0.8
2022-04-09T07:00:00,2290A,117.8483,30.97,铜陵市,市职教基地,颗粒物(PM10),61,71,67,43,30,161,41,109,70,30,29,11,16,0.7,0.9
2022-04-09T07:00:00,2291A,117.0809,30.5177,安庆市,环科院,颗粒物(PM10),52,53,63,18,17,141,3,17,9,63,41,7,7,0.6,0.5
2022-04-09T07:00:00,2292A,117.0331,30.5119,安庆市,马山宾馆,颗粒物(PM10),53,55,61,14,14,141,46,58,50,41,29,8,8,0.6,0.6
2022-04-09T07:00:00,2294A,116.9896,30.6145,安庆市,安庆大学,颗粒物(PM10),56,61,68,36,32,151,21,30,24,35,33,5,7,0.7,0.6
2022-04-09T07:00:00,2295A,118.2903,29.6963,黄山市,延安路89号,,40,40,48,24,26,155,16,47,32,14,11,12,11,0.5,0.5
2022-04-09T07:00:00,2296A,118.327,29.7178,黄山市,黄山东路89号,,44,44,45,30,23,144,15,45,26,13,12,4,7,0.4,0.4
2022-04-09T07:00:00,2297A,118.1371,30.2756,黄山市,黄山区政府5号楼,,47,47,56,16,28,152,21,38,28,8,9,8,9,0.4,0.3
2022-04-09T07:00:00,2298A,118.3093,32.3153,滁州市,老年大学,颗粒物(PM10),88,125,102,38,34,174,59,88,77,47,27,22,17,0.7,0.5
2022-04-09T07:00:00,2299A,118.3244,32.2786,滁州市,人大宾馆,细颗粒物(PM2.5),62,69,93,44,38,177,48,80,64,58,40,16,13,0.8,0.6
2022-04-09T07:00:00,2301A,115.8277,32.8929,阜阳市,市监测站,颗粒物(PM10),56,62,65,22,31,162,117,144,131,10,11,8,8,0.4,0.4
2022-04-09T07:00:00,2303A,115.8554,32.8605,阜阳市,开发区,,,57,73,25,29,155,,129,119,12,10,5,6,0.3,0.4
2022-04-09T07:00:00,2307A,116.5079,31.737,六安市,监测大楼,,39,36,53,15,23,146,122,133,127,10,9,5,6,0.2,0.2
2022-04-09T07:00:00,2308A,116.4738,31.7643,六安市,皖西学院,,43,43,59,9,17,148,124,139,131,5,7,8,8,0.1,0.2
2022-04-09T07:00:00,2309A,116.4996,31.7905,六安市,朝阳厂,,40,40,50,11,19,140,119,132,126,3,8,6,7,0.2,0.3
2022-04-09T07:00:00,2310A,116.5567,31.7886,六安市,开发区,颗粒物(PM10),52,54,67,23,32,147,111,132,120,16,16,6,8,0.2,0.3
2022-04-09T07:00:00,2311A,115.8072,33.8399,亳州市,污水处理厂,颗粒物(PM10),58,66,91,24,35,170,116,139,127,13,11,11,7,0.3,0.5
2022-04-09T07:00:00,2312A,115.7789,33.8518,亳州市,三国揽胜宫,颗粒物(PM10),59,68,78,32,40,176,124,138,130,13,12,12,8,0.5,0.5
2022-04-09T07:00:00,2314A,117.47,30.6618,池州市,池州学院,颗粒物(PM10),54,58,61,29,28,153,29,96,68,44,22,5,6,0.9,0.6
2022-04-09T07:00:00,2316A,118.7581,30.9454,宣城市,鳌峰子站,颗粒物(PM10),52,54,65,31,28,134,70,88,83,24,18,20,10,0.5,0.5
2022-04-09T07:00:00,2317A,118.7385,30.9743,宣城市,敬亭山子站,,47,47,61,30,28,138,83,91,90,16,19,13,8,0.4,0.4
2022-04-09T07:00:00,2318A,118.7173,30.9427,宣城市,开发区子站,颗粒物(PM10),55,60,68,29,28,134,68,57,57,25,29,11,8,0.6,0.6
2022-04-09T07:00:00,2319A,119.0141,25.4325,莆田市,荔城区仓后路,,34,34,36,10,12,131,92,94,93,7,7,4,4,0.5,0.4
2022-04-09T07:00:00,2320A,119.0015,25.4553,莆田市,莆田市监测站,,29,27,35,16,15,133,92,91,91,4,4,4,4,0.4,0.4
2022-04-09T07:00:00,2321A,119.1119,25.4561,莆田市,涵江区六中,,29,29,37,18,17,121,79,92,85,9,5,7,6,0.5,0.4
2022-04-09T07:00:00,2322A,119.1013,25.3215,莆田市,秀屿区政府,,36,36,45,19,15,117,60,69,65,20,13,6,6,0.5,0.5
2022-04-09T07:00:00,2323A,118.981,25.4792,莆田市,东圳水库(对照点),,17,14,25,8,12,138,52,72,62,5,4,6,6,0.3,0.2
2022-04-09T07:00:00,2324A,117.6211,26.2625,三明市,三钢,,49,36,47,34,24,144,31,54,49,31,26,5,4,0.9,0.6
2022-04-09T07:00:00,2325A,117.635,26.2714,三明市,三明二中,,33,32,42,23,23,145,39,51,48,22,19,8,7,0.5,0.5
2022-04-09T07:00:00,2326A,117.6028,26.2378,三明市,三元区政府,细颗粒物(PM2.5),64,53,56,46,27,145,35,46,37,22,27,4,6,0.8,0.7
2022-04-09T07:00:00,2327A,117.7275,26.3108,三明市,洋溪(对照点),,46,46,45,29,19,155,42,109,59,14,9,5,6,0.7,0.5
2022-04-09T07:00:00,2331A,118.0966,26.6761,南平市,茫荡山(对照点),,33,30,38,16,17,129,105,123,116,2,4,4,5,0.4,0.5
2022-04-09T07:00:00,2332A,118.1681,26.6369,南平市,南平市监测站,颗粒物(PM10),51,52,43,18,22,154,56,73,65,15,14,8,8,0.6,0.6
2022-04-09T07:00:00,2333A,118.1825,26.6489,南平市,南平铝业有限公司,,43,43,44,28,22,153,58,72,65,13,13,8,9,0.6,0.5
2022-04-09T07:00:00,2334A,118.1756,26.6272,南平市,南平七中,,38,28,43,26,22,153,53,79,69,12,10,5,5,0.5,0.5
2022-04-09T07:00:00,2335A,117.0189,25.1181,龙岩市,龙岩师专(对照点),,46,46,52,31,28,146,48,58,50,17,20,8,9,0.3,0.3
2022-04-09T07:00:00,2336A,117.0217,25.1033,龙岩市,龙岩市监测站,,49,49,53,31,24,147,48,54,47,27,24,19,10,0.5,0.3
2022-04-09T07:00:00,2337A,117.0258,25.0661,龙岩市,闽西职业技术学院,颗粒物(PM10),56,61,64,24,23,146,8,28,14,56,41,15,11,0.4,0.4
2022-04-09T07:00:00,2338A,117.0196,25.0306,龙岩市,龙岩学院,,44,44,48,25,22,142,42,74,58,25,17,5,6,0.3,0.3
2022-04-09T07:00:00,2339A,119.5001,26.6946,宁德市,金涵水库(对照点),,18,17,40,12,16,124,39,68,57,20,12,6,8,0.3,0.4
2022-04-09T07:00:00,2341A,119.5388,26.6612,宁德市,宁德市监测站,颗粒物(PM10),72,93,36,14,14,113,39,62,46,16,12,8,9,0.5,0.5
2022-04-09T07:00:00,2342A,117.3102,29.3867,景德镇市,王港中学(对照点),,31,31,42,13,21,149,23,48,30,9,8,5,4,0.8,0.6
2022-04-09T07:00:00,2343A,117.2117,29.2933,景德镇市,老干部活动中心,颗粒物(PM10),59,68,73,22,27,143,47,38,38,20,26,4,7,0.6,0.6
2022-04-09T07:00:00,2344A,117.1894,29.2789,景德镇市,兽医站,,43,43,59,19,30,148,39,41,36,23,32,7,12,0.4,0.5
2022-04-09T07:00:00,2345A,117.1547,29.2617,景德镇市,台达陶瓷,颗粒物(PM10),53,56,79,21,28,136,37,33,33,33,38,10,20,0.3,0.4
2022-04-09T07:00:00,2346A,117.2461,29.2956,景德镇市,陶研所,颗粒物(PM10),56,61,58,21,20,146,25,24,24,28,21,9,7,0.4,0.4
2022-04-09T07:00:00,2347A,114.0997,27.5002,萍乡市,武功山(对照点),,25,25,27,15,13,161,67,84,75,5,5,9,9,0.5,0.6
2022-04-09T07:00:00,2348A,113.8385,27.6434,萍乡市,中医院,颗粒物(PM10),53,55,59,34,30,144,22,27,26,42,43,15,11,0.8,1
2022-04-09T07:00:00,2349A,113.8493,27.6253,萍乡市,市政府车库,颗粒物(PM10),65,79,75,34,27,148,11,24,18,50,39,18,15,3.1,1.8
2022-04-09T07:00:00,2350A,113.8676,27.6435,萍乡市,市环保局,细颗粒物(PM2.5),57,59,58,40,34,154,19,33,22,54,34,26,21,0.7,1.1
2022-04-09T07:00:00,2351A,113.866,27.6198,萍乡市,安源区政府,颗粒物(PM10),52,54,65,32,29,152,8,28,21,50,31,29,23,3.3,2
2022-04-09T07:00:00,2352A,115.0861,27.9317,新余市,北岗(对照点),,36,36,54,25,29,157,16,42,28,16,17,4,14,0.3,0.3
2022-04-09T07:00:00,2353A,114.9886,27.8431,新余市,飞宇,颗粒物(PM10),61,71,77,33,35,139,8,41,21,58,46,42,35,0.7,0.6
2022-04-09T07:00:00,2354A,114.9231,27.8246,新余市,第二水厂,颗粒物(PM10),62,74,90,42,40,150,14,26,21,38,39,25,30,1.0,1
2022-04-09T07:00:00,2355A,114.9308,27.8036,新余市,市气象局,颗粒物(PM10),59,67,73,36,40,156,20,51,32,34,43,15,22,0.8,0.8
2022-04-09T07:00:00,2357A,116.9822,28.1136,鹰潭市,龙虎山(对照点),,36,36,44,15,19,171,43,97,70,1,2,1,4,0.2,0.3
2022-04-09T07:00:00,2358A,117.0564,28.2642,鹰潭市,新监测站,颗粒物(PM10),57,64,62,34,29,173,37,95,65,27,22,50,41,0.4,0.4
2022-04-09T07:00:00,2359A,117.0311,28.2475,鹰潭市,财苑宾馆,颗粒物(PM10),55,60,68,34,28,176,25,81,54,27,24,82,31,0.5,0.4
2022-04-09T07:00:00,2360A,117.0222,28.2264,鹰潭市,体育馆,颗粒物(PM10),79,108,61,46,26,166,35,92,67,50,16,81,13,1.4,0.4
2022-04-09T07:00:00,2361A,117.0017,28.2131,鹰潭市,三川水表,颗粒物(PM10),51,51,60,24,25,170,34,79,55,9,11,9,12,0.3,0.3
2022-04-09T07:00:00,2362A,114.9017,25.9149,赣州市,通天岩(对照点),,34,34,54,12,27,175,46,83,67,10,15,7,12,0.5,0.5
2022-04-09T07:00:00,2363A,114.9367,25.8664,赣州市,地委,颗粒物(PM10),55,60,69,30,30,176,20,51,28,47,47,6,9,0.8,0.8
2022-04-09T07:00:00,2364A,114.9461,25.8481,赣州市,气象台,,50,50,60,15,28,187,25,17,17,30,36,8,9,0.7,0.7
2022-04-09T07:00:00,2365A,114.9322,25.8333,赣州市,市图书馆,颗粒物(PM10),51,51,63,29,33,185,8,8,8,47,45,5,7,0.7,0.9
2022-04-09T07:00:00,2366A,114.8905,25.8471,赣州市,华坚鞋城,细颗粒物(PM2.5),70,84,86,51,39,178,29,33,30,53,55,68,24,0.8,0.7
2022-04-09T07:00:00,2367A,114.9754,27.0803,吉安市,红声器材厂,颗粒物(PM10),54,58,71,29,33,194,55,54,54,12,23,8,11,0.4,0.4
2022-04-09T07:00:00,2368A,114.9658,27.0999,吉安市,市森林工业局,颗粒物(PM10),54,57,71,30,35,174,53,42,42,17,31,5,6,0.4,0.4
2022-04-09T07:00:00,2369A,114.99,27.1312,吉安市,市环境监测站,颗粒物(PM10),55,60,74,28,30,174,28,42,40,29,27,11,13,0.6,0.6
