timepoint,stationcode,longitude,latitude,area,positionname,primarypollutant,aqi,pm10,pm10_24h,pm2_5,pm2_5_24h,o3,o3_24h,o3_8h,o3_8h_24h,no2,no2_24h,so2,so2_24h,co,co_24h
2025-09-14T2300,2566A,102.1879,31.914,阿坝藏族羌族自治州,州农科所,,24,24,28,7,10,33,,62,50,9,6,3,3,0.2,0.2
2025-09-14T2300,2568A,102.2502,31.8896,阿坝藏族羌族自治州,马师校,,24,24,22,13,13,21,,71,47,17,9,8,8,0.5,0.4
2025-09-14T2300,3994A,102.2165,31.9024,阿坝藏族羌族自治州,马尔康中学西区,,40,40,31,21,17,37,,83,63,6,5,9,9,0.4,0.4
2025-09-14T2300,2695A,80.292,41.1694,阿克苏地区,电视台,颗粒物(PM10),125,200,183,67,62,,,119,,38,20,6,6,0.8,0.7
2025-09-14T2300,2696A,80.2613,41.1551,阿克苏地区,艺术中心,颗粒物(PM10),130,210,171,68,62,4,,115,89,72,26,4,4,1.1,0.6
2025-09-14T2300,2204A,105.6467,38.8363,阿拉善盟,西城区西花园,颗粒物(PM10),75,100,62,29,22,78,,75,75,8,10,10,9,0.7,0.7
2025-09-14T2300,2205A,105.6985,38.8411,阿拉善盟,蒙二幼,,,91,71,26,21,,,126,126,4,5,9,8,0.3,0.4
2025-09-14T2300,2206A,105.724,38.8516,阿拉善盟,环保局新楼,颗粒物(PM10),64,78,64,26,21,134,,133,133,5,4,10,8,0.4,0.3
2025-09-14T2300,2708A,88.1264,47.8517,阿勒泰地区,市站,,41,41,25,3,6,24,,67,43,22,11,3,3,0.4,0.4
2025-09-14T2300,2630A,80.1161,32.5,阿里地区,阿里监测站,,25,6,3,3,3,77,,111,106,26,15,6,5,0.4,0.3
2025-09-14T2300,3192A,80.0903,32.5028,阿里地区,阿里藏医院,,33,33,24,13,5,76,,119,114,29,5,7,7,0.6,0.2
2025-09-14T2300,2642A,109.0318,32.6537,安康市,香溪洞,,34,34,15,7,5,43,,73,67,11,6,7,7,0.6,0.5
2025-09-14T2300,2644A,109.0072,32.6975,安康市,汉滨区检察院,,18,18,22,7,7,17,,64,50,9,7,3,4,0.6,0.6
2025-09-14T2300,4054A,109.0325,32.6913,安康市,市邮政管理局,,30,30,28,14,7,12,,47,33,15,11,5,6,0.8,0.7
2025-09-14T2300,2291A,117.0809,30.5177,安庆市,环科院,,16,15,23,6,15,49,,91,66,14,14,16,8,0.9,0.7
2025-09-14T2300,2292A,117.0331,30.5119,安庆市,马山宾馆,,15,12,21,3,13,45,,91,63,18,16,11,6,1.0,1
2025-09-14T2300,2294A,116.9896,30.6145,安庆市,安庆大学,,23,22,24,16,14,33,,90,56,15,14,4,5,0.8,0.6
2025-09-14T2300,3173A,117.0598,30.5351,安庆市,市人大,,17,17,23,6,15,48,,92,66,16,13,18,8,1.2,0.7
2025-09-14T2300,3123A,105.9408,26.2431,安顺市,凤凰山,,20,,9,14,10,42,,52,49,8,5,6,6,0.4,0.4
2025-09-14T2300,3124A,105.9439,26.2564,安顺市,金钟山,,15,13,11,10,8,45,,55,52,5,4,6,6,0.5,0.5
2025-09-14T2300,3125A,105.8983,26.2481,安顺市,娄家坡,,15,13,9,8,9,46,,51,48,2,2,6,6,0.5,0.5
2025-09-14T2300,1819A,114.3551,36.1017,安阳市,红庙街,颗粒物(PM10),58,65,55,21,29,82,,153,130,22,16,6,8,0.4,0.5
2025-09-14T2300,1820A,114.361,36.0681,安阳市,银杏小区,颗粒物(PM10),54,58,55,25,36,84,,157,133,25,18,8,9,0.5,0.7
2025-09-14T2300,3141A,114.3922,36.0878,安阳市,信访局,,50,50,54,16,27,98,,167,143,19,19,6,8,0.6,0.7
2025-09-14T2300,3669A,114.4705,36.0637,安阳市,左辅环卫站,,45,45,54,19,32,95,,156,130,15,14,8,9,0.5,0.5
2025-09-14T2300,3703A,114.2917,36.0949,安阳市,安钢职工学校,颗粒物(PM10),51,52,60,19,34,87,,151,132,14,12,5,8,0.6,0.7
2025-09-14T2300,1748A,123.044,41.1196,鞍山市,深沟寺,,26,26,39,7,24,43,,155,124,13,10,7,8,0.6,0.9
2025-09-14T2300,1749A,123.011,41.0931,鞍山市,太阳城,,18,18,40,7,24,36,,152,122,14,11,7,9,0.4,0.7
2025-09-14T2300,1750A,123.0485,41.1442,鞍山市,太平,,23,23,48,8,26,43,,142,112,18,11,8,9,0.6,0.9
2025-09-14T2300,1751A,122.9642,41.0971,鞍山市,铁西三道街,,21,21,54,9,27,49,,147,112,16,18,10,10,0.5,1.1
2025-09-14T2300,1753A,123.022,41.0821,鞍山市,明达新区,,18,18,40,6,21,46,,148,119,14,9,8,9,0.5,0.8
2025-09-14T2300,4201A,122.9446,41.0826,鞍山市,兴盛南路290号,,17,17,52,6,25,49,,152,115,16,17,14,11,0.6,1.1
2025-09-14T2300,2195A,107.4212,40.761,巴彦淖尔市,附二中,颗粒物(PM10),59,68,49,19,17,22,,82,64,33,11,12,12,0.4,0.3
2025-09-14T2300,2196A,107.37,40.7372,巴彦淖尔市,市环保大楼,颗粒物(PM10),52,53,47,17,16,46,,75,68,25,12,12,10,0.5,0.4
2025-09-14T2300,1956A,86.1472,41.7538,巴音郭楞蒙古自治州,孔雀公园,,31,31,55,13,18,91,,103,99,7,19,6,7,0.1,0.3
2025-09-14T2300,1957A,86.1972,41.7166,巴音郭楞蒙古自治州,棉纺厂,,43,43,64,8,14,98,,116,112,4,14,5,5,0.1,0.1
2025-09-14T2300,1958A,86.2357,41.7173,巴音郭楞蒙古自治州,经济开发区,,33,33,48,3,10,95,,112,108,1,5,5,6,0.1,0.1
2025-09-14T2300,2914A,106.7677,31.8794,巴中市,苏山坪,,24,16,18,11,11,76,,79,75,4,4,3,3,0.4,0.4
2025-09-14T2300,3181A,106.7768,31.8526,巴中市,市五中,,36,36,28,17,15,21,,85,57,18,11,7,7,0.6,0.6
2025-09-14T2300,3183A,106.7418,31.8654,巴中市,圣泉水务公司,,30,30,23,19,14,15,,88,52,24,11,6,6,0.5,0.4
2025-09-14T2300,3616A,106.7616,31.8344,巴中市,市中心医院,,45,45,28,31,19,9,,78,47,30,16,8,8,0.8,0.6
2025-09-14T2300,2235A,122.7911,45.6077,白城市,洮北区环保局,,20,20,24,3,9,52,,70,56,2,3,3,3,0.2,0.3
2025-09-14T2300,2236A,122.8738,45.5725,白城市,市环保局,,18,9,24,6,9,56,,80,64,1,2,3,4,0.4,0.4
2025-09-14T2300,2231A,126.4219,41.9171,白山市,喜丰,,26,26,50,7,19,70,,100,91,6,9,5,6,0.6,0.7
2025-09-14T2300,2232A,126.4077,41.9419,白山市,环保局,,25,,37,13,21,77,,101,95,4,8,6,7,0.6,0.7
2025-09-14T2300,2647A,104.1724,36.5446,白银市,第三小学,,45,43,82,31,29,44,,91,78,25,22,10,45,0.4,0.3
2025-09-14T2300,2648A,104.1465,36.5482,白银市,动力公司,,42,42,95,15,28,48,,94,85,21,19,9,16,0.6,0.5
2025-09-14T2300,2512A,106.6103,23.9011,百色市,市监测站,,28,28,33,14,16,30,,86,65,16,15,6,9,0.5,0.5
2025-09-14T2300,2513A,106.6538,23.8859,百色市,市中心血站,,46,46,36,26,19,35,,83,70,24,16,13,11,0.7,0.6
2025-09-14T2300,3406A,106.6085,23.8798,百色市,祈福高中,颗粒物(PM10),53,56,45,29,18,10,,83,59,32,17,9,9,0.7,0.6
2025-09-14T2300,2270A,117.396,32.939,蚌埠市,工人疗养院,,33,33,33,12,10,25,,69,38,25,16,7,5,0.4,0.4
2025-09-14T2300,2271A,117.3605,32.9427,蚌埠市,百货大楼,,22,22,25,14,12,32,,69,39,17,17,6,6,0.6,0.7
2025-09-14T2300,2273A,117.4185,32.8911,蚌埠市,蚌埠学院,,15,12,21,10,12,35,,73,49,8,8,6,6,0.5,0.4
2025-09-14T2300,2274A,117.3533,32.9673,蚌埠市,淮上区政府,,27,27,29,18,17,28,,75,46,28,19,7,7,0.4,0.5
2025-09-14T2300,2275A,117.3145,32.8977,蚌埠市,高新区,,22,22,25,11,13,31,,73,46,12,13,5,6,0.6,0.6
2025-09-14T2300,3715A,117.3092,32.9314,蚌埠市,蚌埠田家炳中学,,25,25,26,9,12,38,,77,53,8,10,4,7,0.4,0.5
2025-09-14T2300,1585A,109.8756,40.6532,包头市,市环境监测站,,46,46,56,22,17,18,,92,58,61,34,7,10,0.5,0.4
2025-09-14T2300,1587A,109.9991,40.5842,包头市,包头八中,,46,46,50,14,14,66,,85,76,27,30,32,12,1.2,0.5
2025-09-14T2300,1588A,109.8538,40.6821,包头市,青山宾馆,,35,35,47,11,16,35,,86,55,42,33,8,7,0.7,0.6
2025-09-14T2300,1589A,109.8642,40.6288,包头市,惠龙物流,,28,28,49,9,16,57,,90,73,30,25,14,13,0.5,0.5
2025-09-14T2300,1590A,110.0377,40.5546,包头市,东河鸿龙湾,,39,39,49,8,11,29,,92,68,69,32,11,13,0.5,0.6
2025-09-14T2300,3283A,109.9154,40.5685,包头市,滨河大厦,,31,31,50,8,17,41,,93,77,38,26,7,9,0.4,0.4
2025-09-14T2300,3419A,109.9447,40.6261,包头市,包头市委党校,,32,32,37,3,10,64,,90,71,31,29,7,9,0.4,0.5
2025-09-14T2300,3683A,109.8331,40.6576,包头市,昆区政府,,33,33,57,12,20,50,,92,74,41,27,8,17,0.5,0.7
2025-09-14T2300,1930A,107.185,34.3063,宝鸡市,庙沟村,,32,32,36,12,13,71,,112,94,17,10,5,5,0.5,0.5
2025-09-14T2300,1931A,107.0708,34.3017,宝鸡市,竹园沟,,34,34,35,18,15,40,,106,82,14,8,8,8,0.4,0.4
2025-09-14T2300,1932A,107.1906,34.3672,宝鸡市,三陆医院,颗粒物(PM10),51,51,44,19,24,52,,121,102,24,23,6,8,0.8,0.8
2025-09-14T2300,1933A,107.1431,34.3547,宝鸡市,监测站,,44,44,43,19,18,52,,119,90,18,14,4,5,0.7,0.7
2025-09-14T2300,1934A,107.1186,34.3739,宝鸡市,技工学校,,32,29,45,22,24,56,,117,94,12,11,6,7,0.6,0.6
2025-09-14T2300,1936A,107.2058,34.3497,宝鸡市,文理学院,颗粒物(PM10),52,54,43,20,21,37,,126,97,30,16,7,8,0.6,0.5
2025-09-14T2300,1937A,107.2386,34.3622,宝鸡市,三迪小学,,46,46,48,22,24,43,,123,99,33,22,5,7,0.6,0.6
2025-09-14T2300,4308A,107.3898,34.3601,宝鸡市,陈仓区北开路21号,颗粒物(PM10),52,53,43,26,21,48,,127,103,25,13,6,10,0.5,0.5
2025-09-14T2300,1052A,115.5213,38.8959,保定市,华电二区,颗粒物(PM10),61,71,59,36,28,65,,168,125,43,22,4,2,0.2,0.2
2025-09-14T2300,1053A,115.4713,38.9108,保定市,接待中心,颗粒物(PM10),65,79,60,25,28,66,,157,118,39,17,4,4,0.3,0.4
2025-09-14T2300,1054A,115.4612,38.8416,保定市,地表水厂,颗粒物(PM10),80,110,82,29,24,101,,138,,31,27,7,7,0.2,0.4
2025-09-14T2300,3581A,115.31981,38.95208,保定市,满城区生态环境分局,颗粒物(PM10),67,83,82,24,33,105,,172,133,31,27,4,2,0.3,0.4
2025-09-14T2300,3582A,115.47694,38.76408,保定市,清苑区第二中学,颗粒物(PM10),81,111,90,38,31,89,,167,132,34,23,4,4,0.4,0.4
2025-09-14T2300,3583A,115.62909,39.02311,保定市,徐水物探局,颗粒物(PM10),68,85,62,34,31,68,,160,130,37,22,7,7,0.5,0.5
2025-09-14T2300,4004A,115.4202,38.8656,保定市,双鹰农机,颗粒物(PM10),72,93,67,36,28,91,,178,144,38,19,5,5,0.2,0.4
2025-09-14T2300,4034A,115.5150,38.8590,保定市,植保所站,颗粒物(PM10),75,100,79,36,37,98,,160,128,32,30,6,5,0.3,0.3
2025-09-14T2300,2594A,99.1678,25.1081,保山市,市环境监测站,,40,,11,28,14,18,,52,41,6,8,5,7,0.4,0.4
2025-09-14T2300,2595A,99.1711,25.1328,保山市,市环保局,,14,14,12,3,8,28,,59,49,4,4,8,7,0.2,0.3
2025-09-14T2300,1867A,109.1436,21.4086,北海市,海滩公园,,17,10,15,3,2,52,,57,55,5,4,4,4,0.5,0.5
2025-09-14T2300,1868A,109.0981,21.4661,北海市,新市环保局,,20,,10,14,11,48,,52,50,6,5,4,4,0.5,0.5
2025-09-14T2300,1869A,109.1778,21.5233,北海市,北海工业园,,9,9,19,3,9,27,,55,49,16,8,3,7,0.4,0.4
2025-09-14T2300,3400A,109.1911,21.4415,北海市,龙潭自来水厂,,16,12,10,3,6,49,,58,54,4,4,4,4,0.4,0.4
2025-09-14T2300,1001A,116.3621,39.8784,北京市,万寿西宫,,24,22,31,8,17,35,,97,76,48,31,3,3,0.5,0.5
2025-09-14T2300,1002A,116.2202,40.2915,北京市,定陵,,11,6,14,3,8,35,,84,55,3,2,5,6,0.2,0.3
2025-09-14T2300,1003A,116.4174,39.9289,北京市,东四,,20,16,32,3,17,36,,99,74,39,27,4,4,0.4,0.4
2025-09-14T2300,1004A,116.4072,39.8863,北京市,天坛,,25,25,28,11,16,8,,92,52,30,22,3,4,0.7,0.5
2025-09-14T2300,1005A,116.462,39.9365,北京市,农展馆,,25,17,27,7,16,9,,88,59,50,25,3,3,0.4,0.4
2025-09-14T2300,1006A,116.3392,39.9295,北京市,官园,,27,25,32,10,18,20,,96,72,53,26,4,4,0.5,0.4
2025-09-14T2300,1007A,116.2878,39.9611,北京市,海淀万柳,,25,15,29,3,16,12,,85,58,49,27,3,3,0.4,0.5
2025-09-14T2300,1009A,116.6275,40.3275,北京市,怀柔镇,,11,6,17,3,10,35,,81,54,13,11,1,1,0.4,0.6
2025-09-14T2300,1010A,116.2296,40.217,北京市,昌平镇,,11,7,17,3,9,35,,76,57,15,13,2,2,0.4,0.5
2025-09-14T2300,1011A,116.3966,39.9821,北京市,奥体中心,,24,13,26,3,14,19,,70,51,48,25,4,4,0.3,0.4
2025-09-14T2300,3281A,115.9718,40.4529,北京市,延庆夏都,,17,13,18,3,11,12,,73,46,33,19,3,3,0.4,0.4
2025-09-14T2300,3418A,116.8336,40.4095,北京市,密云新城,,14,6,17,3,11,44,,84,59,8,8,3,3,0.2,0.4
2025-09-14T2300,3671A,116.088,39.9726,北京市,门头沟三家店,,16,16,24,3,10,47,,83,64,14,14,3,4,0.4,0.4
2025-09-14T2300,3672A,116.1541,39.8204,北京市,丰台云岗,,23,23,32,3,15,29,,92,65,33,24,2,2,0.4,0.4
2025-09-14T2300,3673A,116.6804,39.9081,北京市,通州东关,,42,42,39,12,17,5,,84,43,66,35,4,4,0.5,0.4
2025-09-14T2300,3674A,115.9577,39.7603,北京市,房山燕山,,31,31,40,10,21,56,,121,90,15,14,2,2,0.3,0.4
2025-09-14T2300,3675A,116.4672,39.7733,北京市,大兴旧宫,,25,25,28,8,14,9,,91,55,27,25,2,3,0.6,0.5
2025-09-14T2300,3694A,115.986,40.4563,北京市,延庆石河营,,14,12,18,3,10,2,,68,37,28,13,2,2,0.3,0.3
2025-09-14T2300,3695A,116.6151,40.3053,北京市,怀柔新城,,13,6,16,3,10,40,,80,56,8,6,3,4,0.3,0.4
2025-09-14T2300,3696A,116.2545,39.8768,北京市,丰台小屯,,32,32,32,9,17,4,,85,52,58,26,1,2,0.7,0.6
2025-09-14T2300,3697A,116.84,40.3844,北京市,密云镇,,15,6,19,3,12,46,,89,61,13,16,3,4,0.3,0.5
2025-09-14T2300,4182A,116.1942,39.9158,北京市,八角北路9号,,20,20,34,6,18,24,,97,76,32,20,2,2,0.2,0.3
2025-09-14T2300,4194A,117.0790,40.1518,北京市,洳河巡河路,,15,15,27,6,14,23,,92,60,13,8,1,1,0.4,0.5
2025-09-14T2300,1761A,123.8275,41.3064,本溪市,大峪,,25,25,32,7,14,33,,120,90,8,10,6,6,0.6,0.6
2025-09-14T2300,1762A,123.7567,41.3325,本溪市,溪湖,,31,31,43,10,16,41,,120,97,12,16,6,9,0.8,1.3
2025-09-14T2300,1763A,123.7169,41.3094,本溪市,彩屯,,29,29,43,17,26,18,,115,88,22,22,6,9,0.4,1.4
2025-09-14T2300,1764A,123.7669,41.2864,本溪市,东明,,21,21,34,12,15,37,,120,93,20,10,6,6,1.4,0.8
2025-09-14T2300,1765A,123.7992,41.2664,本溪市,新立屯,,21,21,30,8,14,39,,114,80,15,9,6,6,0.4,0.5
2025-09-14T2300,1766A,123.8142,41.3472,本溪市,威宁,,18,18,39,12,17,36,,119,89,17,13,4,5,0.4,0.5
2025-09-14T2300,2587A,105.2864,27.3125,毕节市,八中,,,,18,25,18,40,,76,68,14,7,8,6,0.5,0.5
2025-09-14T2300,2588A,105.31,27.2944,毕节市,师专,,32,28,21,22,13,44,,80,69,17,10,10,7,0.6,0.6
2025-09-14T2300,4263A,105.3688,27.3598,毕节市,工业大道,,25,25,23,16,15,46,,76,68,12,10,7,7,0.6,0.7
2025-09-14T2300,1629A,118.0018,37.3617,滨州市,第二水厂,颗粒物(PM10),69,88,65,47,42,74,,152,134,42,24,5,5,0.8,0.7
2025-09-14T2300,1630A,117.9776,37.393,滨州市,北中新校,细颗粒物(PM2.5),62,70,58,44,38,69,,164,130,47,25,5,7,0.6,0.5
2025-09-14T2300,3514A,117.9378,37.3956,滨州市,中海酒店,细颗粒物(PM2.5),62,68,58,44,35,88,,162,134,27,17,3,5,0.7,0.7
2025-09-14T2300,3515A,117.9378,37.3553,滨州市,开发区一中,细颗粒物(PM2.5),70,83,68,51,40,105,,165,146,26,24,7,7,0.9,0.7
2025-09-14T2300,3516A,118.0917,37.694,滨州市,金海六路,细颗粒物(PM2.5),79,61,66,58,49,116,,162,151,12,21,4,6,0.4,0.3
2025-09-14T2300,4028A,117.9956,37.3753,滨州市,滨州市西街道办事处,细颗粒物(PM2.5),64,75,58,46,39,77,,158,138,36,21,4,5,0.6,0.5
2025-09-14T2300,2311A,115.8072,33.8399,亳州市,污水处理厂,,33,23,20,23,21,29,,68,46,16,11,5,6,0.6,0.5
2025-09-14T2300,2312A,115.7789,33.8518,亳州市,三国揽胜宫,,29,27,26,20,20,39,,72,54,17,6,5,5,0.6,0.5
2025-09-14T2300,3332A,115.7633,33.8034,亳州市,亳州学院,,39,,21,27,29,48,,79,66,13,6,10,8,0.5,0.5
2025-09-14T2300,2693A,82.0485,44.8556,博尔塔拉蒙古自治州,市党校,,23,23,21,16,15,54,,64,64,13,7,3,3,0.2,0.1
2025-09-14T2300,2694A,82.0806,44.8969,博尔塔拉蒙古自治州,市环保局,,39,39,28,16,13,60,,71,66,14,10,3,3,0.2,0.2
2025-09-14T2300,1071A,116.8842,38.2991,沧州市,沧县城建局,颗粒物(PM10),72,94,64,51,42,138,,183,176,24,16,6,6,0.8,0.6
2025-09-14T2300,1072A,116.8584,38.3254,沧州市,电视转播站,颗粒物(PM10),83,115,74,44,41,134,,168,162,24,14,4,4,0.6,0.6
2025-09-14T2300,1073A,116.8709,38.3228,沧州市,市环保局,细颗粒物(PM2.5),77,100,80,56,43,126,,174,163,23,14,7,6,0.5,0.5
2025-09-14T2300,3324A,116.8136,38.3004,沧州市,河北水利电力学院,颗粒物(PM10),69,88,69,47,45,155,,185,181,15,13,11,9,0.7,0.5
2025-09-14T2300,2622A,97.1806,31.1273,昌都市,昌都监测站,,31,31,14,14,8,26,,83,64,29,10,5,4,0.5,0.3
2025-09-14T2300,3719A,97.1714,31.1406,昌都市,昌都会议中心,,,,15,,15,,,99,,,6,,4,,0.1
2025-09-14T2300,2690A,88.1236,43.8886,昌吉回族自治州,天山天池,,7,6,15,3,5,21,,48,29,6,7,6,6,0.4,0.4
2025-09-14T2300,2692A,87.2717,44.0297,昌吉回族自治州,新区政务中心,,,12,17,10,9,35,,80,72,31,12,7,7,,0.3
2025-09-14T2300,3613A,87.3095,44.0142,昌吉回族自治州,亚心广场,,31,31,19,3,4,28,,82,74,46,14,6,7,0.4,0.4
2025-09-14T2300,1120A,125.2863,43.9027,长春市,客车厂,,20,20,40,6,17,57,,105,68,6,11,4,5,0.1,0.4
2025-09-14T2300,1121A,125.2841,43.8463,长春市,邮电学院,,23,23,40,12,19,47,,109,68,14,10,4,5,0.2,0.5
2025-09-14T2300,1122A,125.3716,43.8772,长春市,劳动公园,,25,25,50,3,17,49,,106,70,12,11,8,9,0.2,0.5
2025-09-14T2300,1123A,125.3297,43.8805,长春市,园林处,,16,16,35,3,17,51,,109,69,12,13,5,5,0.5,0.6
2025-09-14T2300,1124A,125.4605,43.79,长春市,净月潭,,24,24,34,3,15,46,,107,70,9,8,4,4,0.2,0.5
2025-09-14T2300,1126A,125.3863,43.8447,长春市,经开区环卫处,,17,15,39,6,16,52,,96,,10,11,5,5,0.4,0.6
2025-09-14T2300,1127A,125.245,43.7783,长春市,高新区管委会,,15,14,33,7,18,46,,108,66,8,7,6,6,0.3,0.5
2025-09-14T2300,1128A,125.1761,43.8325,长春市,岱山公园,,16,15,36,3,20,50,,106,66,10,12,3,4,0.2,0.4
2025-09-14T2300,4281A,125.3346,43.9164,长春市,北亚泰大街1068号,,18,,43,7,18,56,,104,66,7,12,7,8,0.2,0.5
2025-09-14T2300,1335A,113.0833,28.2325,长沙市,经开区环保局,,23,23,37,12,22,66,,118,76,10,15,4,5,0.3,0.4
2025-09-14T2300,1336A,112.8872,28.2189,长沙市,高开区环保局,,38,38,49,12,24,63,,115,87,13,9,4,4,0.3,0.3
2025-09-14T2300,1337A,113.0792,28.2053,长沙市,马坡岭,,32,32,37,13,18,53,,121,76,17,14,5,5,0.5,0.5
2025-09-14T2300,1338A,112.9394,28.19,长沙市,湖南师范大学,,24,24,39,13,23,67,,121,80,13,13,3,4,0.6,0.7
2025-09-14T2300,1339A,113.0178,28.1322,长沙市,雨花区环保局,,28,28,37,15,18,52,,110,73,22,16,6,7,0.6,0.6
2025-09-14T2300,1340A,112.9792,28.2597,长沙市,伍家岭,,28,28,41,14,21,58,,118,72,13,12,2,2,0.3,0.4
2025-09-14T2300,1341A,113.0014,28.1944,长沙市,火车新站,,32,32,37,12,19,63,,112,74,15,12,6,6,0.2,0.5
2025-09-14T2300,1342A,112.9844,28.1178,长沙市,天心区环保局,,29,29,35,18,23,67,,108,79,16,15,3,4,0.3,0.3
2025-09-14T2300,1343A,112.8908,28.1308,长沙市,湖南中医药大学,,33,33,42,18,29,61,,110,85,16,9,3,4,0.2,0.2
2025-09-14T2300,1344A,112.9581,28.3611,长沙市,沙坪,,46,46,48,12,21,24,,132,71,13,10,3,4,0.5,0.5
2025-09-14T2300,1727A,113.1147,36.1547,长治市,清华站,,50,50,38,24,20,66,,125,106,14,16,8,9,0.7,0.8
2025-09-14T2300,1730A,113.0886,36.2125,长治市,审计局,,47,47,35,22,20,78,,133,120,14,16,6,7,0.9,0.9
2025-09-14T2300,1731A,113.0844,36.1856,长治市,长治八中,颗粒物(PM10),58,65,44,34,27,85,,130,117,8,11,10,9,0.9,0.9
2025-09-14T2300,2845A,113.1569,36.1911,长治市,德盛苑,,45,45,33,17,15,69,,133,109,8,8,8,8,1.1,0.8
2025-09-14T2300,3568A,113.06,36.0464,长治市,向阳小学,颗粒物(PM10),65,80,59,39,31,64,,120,105,23,14,6,6,0.8,0.8
2025-09-14T2300,3569A,112.8792,36.3144,长治市,屯留一中,细颗粒物(PM2.5),58,52,42,41,30,102,,144,139,10,18,8,10,1.3,1.2
2025-09-14T2300,4189A,113.1131,36.19948,长治市,英华南巷50号,,50,50,43,22,23,61,,127,108,16,15,8,9,0.8,0.9
2025-09-14T2300,4190A,113.2367,36.3344,长治市,学府街1号,颗粒物(PM10),54,57,56,23,28,112,,133,120,15,15,3,3,0.8,1.3
2025-09-14T2300,1854A,111.6975,28.9703,常德市,市二中,,30,24,21,21,18,34,,60,52,10,8,4,4,0.5,0.4
2025-09-14T2300,3138A,111.7153,29.0289,常德市,武陵区永安,,24,24,20,16,13,31,,61,51,10,6,4,4,0.8,0.8
2025-09-14T2300,3139A,111.6892,28.9881,常德市,鼎城区玉霞,,26,22,22,18,17,39,,61,55,6,5,1,2,0.6,0.6
2025-09-14T2300,3140A,111.6625,29.0531,常德市,武陵区长庚,,25,17,18,17,12,37,,59,56,10,8,5,5,0.8,0.8
2025-09-14T2300,1196A,119.9633,31.762,常州市,市监测站,,22,8,41,6,24,70,,137,104,10,17,8,9,0.6,0.7
2025-09-14T2300,1201A,119.9255,31.9087,常州市,安家,,23,23,46,6,28,66,,164,128,12,24,10,12,0.6,0.8
2025-09-14T2300,3002A,119.9805,31.8174,常州市,行政中心,,22,6,38,3,27,69,,147,114,11,21,1,3,0.6,0.8
2025-09-14T2300,3003A,120.0522,31.7748,常州市,经开区,,22,11,52,3,25,69,,150,113,9,26,3,7,0.9,1.1
2025-09-14T2300,3010A,119.9025,31.7964,常州市,钟楼,,21,21,43,3,24,66,,130,108,12,23,6,8,0.6,0.8
2025-09-14T2300,3429A,119.8598,31.7066,常州市,武进经发区,,19,6,42,3,23,58,,141,112,7,17,8,10,0.6,0.9
2025-09-14T2300,3430A,119.5826,31.7245,常州市,金坛城区,,20,6,32,3,20,62,,134,106,9,15,7,9,0.4,0.7
2025-09-14T2300,2220A,120.4318,41.5881,朝阳市,西梁,,18,18,30,9,23,36,,103,56,19,15,5,6,0.4,0.7
2025-09-14T2300,2221A,120.4521,41.5646,朝阳市,河畔小区,,13,12,32,6,17,41,,114,61,14,10,6,6,0.3,0.5
2025-09-14T2300,2222A,120.4176,41.5648,朝阳市,八里堡,,12,12,38,6,19,35,,110,61,19,13,8,8,0.5,0.7
2025-09-14T2300,2223A,120.3806,41.5969,朝阳市,农业园区,,11,7,26,3,19,34,,104,59,18,10,5,5,0.2,0.5
2025-09-14T2300,1705A,116.6367,23.6719,潮州市,西园路,,33,33,30,12,16,33,,105,60,18,13,6,5,0.4,0.5
2025-09-14T2300,3026A,116.6183,23.6608,潮州市,市政府,,18,15,33,12,15,44,,98,60,13,14,11,10,0.6,0.7
2025-09-14T2300,4036A,116.6461,23.6761,潮州市,金山,,24,24,27,13,13,20,,102,52,15,12,7,7,0.6,0.6
2025-09-14T2300,2472A,113.0073,25.9061,郴州市,马头岭,,37,37,34,19,12,94,,115,89,11,13,5,5,0.4,0.4
2025-09-14T2300,2473A,113.0116,25.8226,郴州市,市职中,,,30,26,30,22,,,116,,6,10,5,4,0.5,0.5
2025-09-14T2300,2475A,113.0383,25.8071,郴州市,市审计局,,44,44,27,28,19,94,,115,100,11,10,7,6,0.5,0.5
2025-09-14T2300,2476A,113.0348,25.7759,郴州市,市环保局,,39,35,27,27,20,97,,115,103,11,10,5,5,0.4,0.3
2025-09-14T2300,4252A,113.0138,25.8011,郴州市,好美居路49号,,36,26,25,20,17,114,,119,109,12,10,7,6,0.4,0.4
2025-09-14T2300,1431A,103.9728,30.7236,成都市,金泉两河,细颗粒物(PM2.5),53,41,32,37,18,19,,117,88,45,21,3,3,1.0,0.7
2025-09-14T2300,1432A,104.176,30.6872,成都市,十里店,,41,41,30,12,12,55,,118,98,34,22,2,2,0.6,0.6
2025-09-14T2300,1433A,104.079,30.5706,成都市,三瓦窑,细颗粒物(PM2.5),52,48,26,36,13,8,,122,85,74,28,3,3,0.9,0.6
2025-09-14T2300,1434A,104.1114,30.63,成都市,沙河铺,颗粒物(PM10),51,51,30,33,14,32,,90,74,25,12,3,2,1.0,0.9
2025-09-14T2300,1437A,104.0786,30.6531,成都市,君平街,细颗粒物(PM2.5),69,61,35,50,19,101,,130,118,20,17,2,2,0.8,0.7
2025-09-14T2300,2880A,104.0239,30.65639,成都市,大石西路,细颗粒物(PM2.5),67,60,35,48,23,77,,110,94,26,23,3,2,0.9,0.8
2025-09-14T2300,3136A,104.2725,30.5589,成都市,龙泉驿区区政府,,22,22,16,12,6,47,,110,87,19,14,5,5,0.6,0.5
2025-09-14T2300,3357A,104.0106,30.6931,成都市,金博路,,49,49,28,34,18,48,,116,100,44,21,6,6,0.7,0.6
2025-09-14T2300,3359A,104.0578,30.5225,成都市,华阳,细颗粒物(PM2.5),52,39,25,36,19,48,,120,94,35,18,2,2,0.8,0.7
2025-09-14T2300,3488A,104.3853,30.7453,成都市,青白江技师分院,,28,26,23,19,12,44,,104,83,18,13,2,2,0.7,0.6
2025-09-14T2300,3489A,104.0789,30.4072,成都市,科学城,,41,41,24,24,14,26,,104,85,29,12,4,4,0.8,0.7
2025-09-14T2300,4011A,103.8506,30.6947,成都市,光华大道三段,细颗粒物(PM2.5),74,63,50,54,37,29,,123,91,47,21,2,3,1.1,0.8
2025-09-14T2300,4224A,104.2433,30.5353,成都市,鲸龙路1057号,颗粒物(PM10),52,53,26,35,16,14,,113,69,54,25,4,4,0.8,0.6
2025-09-14T2300,1062A,117.9531,40.9081,承德市,铁路,,11,11,26,3,10,16,,76,45,20,15,1,3,0.1,0.2
2025-09-14T2300,1063A,117.9392,40.9763,承德市,中国银行,,27,27,25,12,12,11,,74,44,17,11,1,2,0.1,0.2
2025-09-14T2300,1064A,117.9503,40.928,承德市,开发区,,25,25,32,14,16,19,,81,54,23,14,2,5,0.2,0.3
2025-09-14T2300,1066A,117.9268,41.0026,承德市,离宫,,15,15,20,6,14,21,,77,48,13,6,4,5,0.2,0.3
2025-09-14T2300,4274A,117.7994,40.9605,承德市,滨河大街98号,,12,12,20,7,10,11,,77,43,15,5,3,3,0.2,0.3
2025-09-14T2300,2314A,117.47,30.6618,池州市,池州学院,,18,9,21,3,14,57,,96,70,7,9,5,7,0.5,0.7
2025-09-14T2300,3237A,117.4918,30.6617,池州市,展览馆,,14,8,23,3,13,44,,98,67,8,10,5,6,0.6,0.7
2025-09-14T2300,3333A,117.5627,30.695,池州市,第八中学,,17,7,22,3,14,53,,101,69,3,8,5,6,0.6,0.8
2025-09-14T2300,3334A,117.5038,30.6243,池州市,第十二中学,,12,12,24,3,12,33,,100,70,23,14,4,5,0.7,0.9
2025-09-14T2300,1744A,118.9233,42.2816,赤峰市,松山一中,,14,8,16,3,7,44,,78,52,11,13,5,7,0.4,0.4
2025-09-14T2300,1745A,118.9576,42.2728,赤峰市,哈达街,,12,12,16,6,9,35,,69,52,19,17,13,12,0.3,0.4
2025-09-14T2300,1746A,118.8788,42.2554,赤峰市,天义路,,14,6,8,3,7,43,,78,48,8,12,7,6,0.4,0.4
2025-09-14T2300,3058A,119.2658,42.0353,赤峰市,银河街,,16,16,18,6,11,29,,65,44,13,8,22,12,0.5,0.5
2025-09-14T2300,3286A,118.9359,42.3147,赤峰市,桥北物流园区,,38,38,22,3,8,25,,59,37,17,11,7,7,0.5,0.5
2025-09-14T2300,2521A,107.3476,22.4136,崇左市,市环保局江州分局,,22,22,24,11,10,38,,80,64,13,10,1,3,0.9,0.7
2025-09-14T2300,4256A,107.3750,22.3736,崇左市,石景林东路7号,,19,18,21,13,10,49,,78,68,8,9,4,4,0.4,0.4
2025-09-14T2300,2298A,118.3093,32.3153,滁州市,老年大学,,16,16,24,8,18,33,,86,56,7,6,5,5,0.2,0.4
2025-09-14T2300,2299A,118.3244,32.2786,滁州市,人大宾馆,,13,,15,3,18,39,,92,64,8,9,4,4,0.4,0.5
2025-09-14T2300,3207A,118.3118,32.3038,滁州市,市政府原办公楼,,26,,21,18,27,30,,86,56,13,11,6,6,0.4,0.6
2025-09-14T2300,3331A,118.3267,32.2634,滁州市,图书馆,,14,7,17,3,15,43,,90,63,6,8,10,10,0.4,0.5
2025-09-14T2300,2605A,101.5482,25.0441,楚雄彝族自治州,州环境监测站,,12,,6,8,4,16,,33,22,4,3,7,7,0.6,0.6
2025-09-14T2300,2606A,101.538,25.0492,楚雄彝族自治州,市经济开发区,,20,20,12,12,6,16,,33,22,7,6,7,7,0.9,0.8
2025-09-14T2300,2548A,107.5277,31.2827,达州市,达州职业技术学院,颗粒物(PM10),58,66,37,24,6,8,,62,37,19,12,7,7,0.6,0.5
2025-09-14T2300,2549A,107.5086,31.2186,达州市,市环境监测站,,42,42,33,19,6,10,,87,53,42,25,6,6,0.6,0.5
2025-09-14T2300,2550A,107.4988,31.2132,达州市,凤凰小区,,48,48,31,24,10,12,,95,63,41,22,5,5,0.6,0.5
2025-09-14T2300,2551A,107.5082,31.1986,达州市,达县机关宾馆,颗粒物(PM10),53,56,31,7,8,3,,82,40,46,27,5,5,0.4,0.4
2025-09-14T2300,2552A,107.4644,31.2124,达州市,市政中心,颗粒物(PM10),51,52,40,24,8,8,,99,60,46,23,3,4,0.5,0.4
2025-09-14T2300,2614A,100.1542,25.7054,大理白族自治州,大理市环境监测站,,23,,9,16,14,42,,55,48,6,11,4,4,0.7,0.7
2025-09-14T2300,2615A,100.2171,25.5811,大理白族自治州,大理古城,,25,,13,17,7,25,,66,48,11,9,6,6,0.6,0.6
2025-09-14T2300,1109A,121.612,38.9741,大连市,甘井子,细颗粒物(PM2.5),67,64,42,48,31,116,,162,153,29,18,8,8,0.6,0.6
2025-09-14T2300,1110A,121.565,38.9511,大连市,周水子,细颗粒物(PM2.5),64,,34,46,31,130,,159,153,13,11,6,6,0.6,0.4
2025-09-14T2300,1111A,121.5637,38.8845,大连市,星海三站,细颗粒物(PM2.5),68,59,39,49,35,106,,178,160,25,17,6,6,0.5,0.4
2025-09-14T2300,1112A,121.6302,38.9117,大连市,青泥洼桥,,49,34,44,34,32,107,,173,155,13,12,9,10,0.6,0.6
2025-09-14T2300,1113A,121.6251,38.8638,大连市,傅家庄,细颗粒物(PM2.5),54,39,33,38,34,131,,185,175,16,14,13,11,0.7,0.6
2025-09-14T2300,1114A,121.5213,38.8661,大连市,七贤岭,细颗粒物(PM2.5),57,51,34,40,31,88,,182,158,19,12,6,7,0.7,0.6
2025-09-14T2300,1115A,121.2529,38.8061,大连市,旅顺,,49,,35,34,29,125,,169,160,19,15,9,8,0.5,0.4
2025-09-14T2300,1116A,121.7485,39.1311,大连市,金州,细颗粒物(PM2.5),68,77,48,49,31,126,,158,152,20,17,12,11,0.5,0.4
2025-09-14T2300,1117A,121.7811,39.0496,大连市,开发区,细颗粒物(PM2.5),60,47,35,43,32,127,,163,156,15,15,8,7,0.6,0.5
2025-09-14T2300,1118A,121.9762,39.0631,大连市,双D港,,36,30,31,25,28,109,,158,142,12,11,7,8,0.6,0.5
2025-09-14T2300,1789A,124.81117,46.03138,大庆市,大同区,,16,12,32,6,11,51,,82,57,5,6,9,9,0.6,0.7
2025-09-14T2300,1790A,125.129,46.533,大庆市,龙凤区,,30,30,34,13,14,44,,85,57,11,9,7,6,0.7,0.7
2025-09-14T2300,1791A,124.902,46.408,大庆市,红岗区,,30,30,31,20,16,52,,92,61,4,6,6,6,0.4,0.5
2025-09-14T2300,1792A,125.153,46.586,大庆市,萨尔图区,,25,25,32,7,11,48,,78,56,5,8,10,10,0.5,0.6
2025-09-14T2300,1793A,124.9042,46.6215,大庆市,让胡路区,,30,30,27,18,14,48,,90,61,3,6,5,5,0.4,0.5
2025-09-14T2300,3481A,125.141,46.634,大庆市,萨区政府监测点,,20,20,32,3,9,49,,93,63,5,6,8,8,0.4,0.5
2025-09-14T2300,1723A,113.2994,40.0758,大同市,云冈宾馆,颗粒物(PM10),58,65,51,14,13,6,,93,59,45,21,4,6,1.1,0.8
2025-09-14T2300,1724A,113.3444,40.0917,大同市,大同大学,颗粒物(PM10),58,65,51,12,15,19,,90,58,34,21,6,8,0.7,0.7
2025-09-14T2300,1725A,113.2661,40.1269,大同市,安家小村,,29,29,49,14,13,38,,93,69,29,19,4,5,0.9,1.4
2025-09-14T2300,1726A,113.2711,40.0844,大同市,教育学院,颗粒物(PM10),55,60,50,16,15,5,,90,59,62,24,8,8,1.2,0.8
2025-09-14T2300,3282A,113.3397,40.0597,大同市,大同市卫生学校,,34,34,48,9,15,41,,91,69,29,21,8,8,0.5,0.6
2025-09-14T2300,3565A,113.1367,40.1122,大同市,云冈站,颗粒物(PM10),53,56,48,19,12,6,,90,56,37,14,5,5,0.4,0.4
2025-09-14T2300,3566A,113.1186,40.2556,大同市,图书馆,,25,25,36,8,12,14,,86,52,10,8,3,3,0.4,0.4
2025-09-14T2300,3567A,113.5931,40.0461,大同市,区一中,,23,7,43,3,13,71,,97,86,8,16,5,7,0.4,0.5
2025-09-14T2300,4199A,113.2798,40.0997,大同市,魏都大道141号,颗粒物(PM10),57,63,50,14,15,24,,92,65,39,22,5,4,1.4,1
2025-09-14T2300,2269A,124.1069,50.4097,大兴安岭地区,科技局,,17,17,18,7,8,37,,54,48,2,4,6,5,0.2,0.2
2025-09-14T2300,3663A,124.1164,50.4278,大兴安岭地区,红旗社区,,12,6,2,3,2,36,,56,46,2,3,4,4,0.2,0.2
2025-09-14T2300,1600A,124.3303,40.0625,丹东市,江湾东路,,27,22,27,10,15,86,,102,95,9,8,9,10,0.6,0.7
2025-09-14T2300,1601A,124.4256,40.1503,丹东市,临江后街,,35,35,47,10,15,74,,102,91,11,11,8,7,0.8,0.8
2025-09-14T2300,1602A,124.3933,40.1461,丹东市,元宝山,,28,20,30,10,15,89,,99,94,7,10,6,7,0.7,0.8
2025-09-14T2300,1603A,124.3633,40.1092,丹东市,民主桥,,28,22,31,11,15,87,,102,96,8,10,7,8,0.5,0.6
2025-09-14T2300,3541A,109.5726,19.5167,儋州市,第一中学子站,,11,11,11,6,5,25,,40,37,7,4,6,6,0.4,0.4
2025-09-14T2300,2616A,98.5842,24.428,德宏傣族景颇族自治州,德宏州监测站,,13,13,14,6,8,22,,56,38,9,7,6,9,0.6,0.6
2025-09-14T2300,3677A,98.5881,24.4368,德宏傣族景颇族自治州,芒市人民政府综合楼,,25,25,22,3,7,22,,54,37,7,7,6,7,0.4,0.5
2025-09-14T2300,1901A,104.4239,31.1208,德阳市,东山公园,,39,39,15,25,13,63,,120,104,16,11,4,5,0.8,0.7
2025-09-14T2300,1902A,104.3826,31.1317,德阳市,西小区,,46,46,30,31,18,46,,130,108,32,23,2,2,0.8,0.7
2025-09-14T2300,1904A,104.3553,31.1091,德阳市,耐火材料厂,,,60,36,36,20,46,,143,114,30,23,,9,0.9,0.8
2025-09-14T2300,3639A,104.4019,31.1244,德阳市,市教育局,颗粒物(PM10),52,53,29,32,15,45,,127,102,33,18,4,4,0.9,0.8
2025-09-14T2300,1622A,116.3032,37.4674,德州市,儿童乐园,,48,48,49,31,33,133,,162,155,17,12,11,10,0.7,0.7
2025-09-14T2300,1624A,116.2991,37.4451,德州市,监理站,,46,46,48,27,28,130,,158,149,20,16,16,14,0.5,0.5
2025-09-14T2300,3066A,116.2721,37.4379,德州市,九衢泉纯净水厂,颗粒物(PM10),57,63,57,34,30,100,,149,132,27,32,7,8,0.7,0.7
2025-09-14T2300,3371A,116.3728,37.4403,德州市,开发区人民医院,颗粒物(PM10),52,53,51,29,26,103,,155,142,25,12,10,10,0.7,0.6
2025-09-14T2300,3511A,116.5652,37.3319,德州市,陵城艺术中心,颗粒物(PM10),51,51,72,27,39,135,,169,165,22,36,13,9,1.2,1
2025-09-14T2300,4292A,116.3525,37.4209,德州市,新河东路,颗粒物(PM10),54,58,54,34,31,88,,149,127,39,19,10,9,0.8,0.8
2025-09-14T2300,2621A,99.7056,27.8317,迪庆藏族自治州,迪庆州站,,37,37,22,17,14,75,,83,78,6,6,7,7,0.4,0.4
2025-09-14T2300,3180A,99.7136,27.8094,迪庆藏族自治州,质量技术监督局,,24,24,23,15,9,72,,84,77,11,8,6,7,0.4,0.4
2025-09-14T2300,4257A,104.6092,35.5962,定西市,将台街,,,36,29,12,15,73,,89,,,12,36,9,0.4,0.4
2025-09-14T2300,4309A,104.6159,35.5701,定西市,正龙路62号,,39,39,38,17,18,66,,80,74,5,8,5,5,0.3,0.2
2025-09-14T2300,1389A,113.7547,23.0494,东莞市,莞城梨川,,17,6,13,3,8,54,,161,123,21,21,5,5,0.4,0.4
2025-09-14T2300,1390A,113.7944,23.0128,东莞市,东城石井,,18,18,32,8,13,29,,156,108,26,22,5,5,0.5,0.5
2025-09-14T2300,1391A,113.7383,22.9658,东莞市,南城西平,,20,20,18,3,8,56,,138,103,22,23,4,4,0.3,0.4
2025-09-14T2300,3319A,113.7338,23.0381,东莞市,万江金泰,,17,16,20,6,11,52,,158,119,22,20,6,6,0.5,0.6
2025-09-14T2300,3626A,113.7533,23.0202,东莞市,南城元岭,,17,6,20,3,12,53,,156,115,24,23,5,5,0.3,0.3
2025-09-14T2300,3627A,113.7875,23.0457,东莞市,东城主山,,17,11,16,6,7,53,,164,117,25,30,8,8,0.4,0.4
2025-09-14T2300,1666A,118.6614,37.4309,东营市,市环保局,颗粒物(PM10),56,61,50,31,28,115,,194,167,20,24,24,12,0.6,0.5
2025-09-14T2300,3036A,118.6904,37.4338,东营市,开发区管委会,细颗粒物(PM2.5),64,76,63,46,32,119,,197,169,22,24,25,11,0.7,0.6
2025-09-14T2300,3365A,118.5719,37.565,东营市,垦利区民丰路,细颗粒物(PM2.5),58,63,63,41,36,78,,183,146,32,24,6,6,0.7,0.8
2025-09-14T2300,3498A,118.5055,37.8612,东营市,河口城区,细颗粒物(PM2.5),55,58,59,39,30,137,,176,167,17,20,6,8,0.9,0.9
2025-09-14T2300,3646A,118.4978,37.4623,东营市,胜利站,颗粒物(PM10),60,70,65,29,32,121,,187,168,24,32,9,9,0.8,0.7
2025-09-14T2300,3734A,118.35,37.26,东营市,理想之城,细颗粒物(PM2.5),62,66,56,44,37,112,,198,168,26,30,16,9,0.7,0.7
2025-09-14T2300,1591A,110.0023,39.8129,鄂尔多斯市,综合楼,颗粒物(PM10),58,66,68,17,17,66,,84,75,25,13,6,5,0.4,0.2
2025-09-14T2300,1592A,109.9486,39.8261,鄂尔多斯市,巴音孟克林场办事处,颗粒物(PM10),67,83,89,17,20,77,,82,82,24,17,8,6,0.6,0.5
2025-09-14T2300,1593A,109.7736,39.5986,鄂尔多斯市,康泽苑,颗粒物(PM10),75,100,74,27,18,31,,92,72,40,15,8,6,0.5,0.3
2025-09-14T2300,1594A,109.8119,39.5989,鄂尔多斯市,华泰汽车城,颗粒物(PM10),78,105,64,29,19,18,,86,62,40,19,6,6,0.6,0.4
2025-09-14T2300,1595A,109.9734,39.7884,鄂尔多斯市,奥林花园,颗粒物(PM10),69,88,82,17,19,55,,74,69,39,23,7,6,0.6,0.4
2025-09-14T2300,2436A,114.8938,30.3994,鄂州市,市政府,,,13,33,,20,21,,38,33,17,15,6,6,0.6,0.7
2025-09-14T2300,2437A,114.8989,30.3714,鄂州市,赵家坝,,27,27,38,3,10,18,,45,34,13,11,7,6,0.6,0.8
2025-09-14T2300,3654A,114.8094,30.4089,鄂州市,精准医疗中心,,27,27,33,3,15,23,,45,35,22,22,7,6,0.6,0.8
2025-09-14T2300,2454A,109.4978,30.2981,恩施土家族苗族自治州,湖北民院,,17,17,11,3,7,45,,65,57,7,7,5,5,0.5,0.4
2025-09-14T2300,2455A,109.4707,30.2798,恩施土家族苗族自治州,州电力总公司,,13,13,10,3,5,33,,59,50,6,5,5,5,0.5,0.5
2025-09-14T2300,3549A,109.5061,30.3772,恩施土家族苗族自治州,龙凤新区,,16,16,13,10,5,30,,68,52,3,3,6,6,0.5,0.5
2025-09-14T2300,2499A,108.3411,21.6158,防城港市,沙万,,33,33,29,12,11,34,,47,44,19,11,5,4,0.5,0.6
2025-09-14T2300,2500A,108.3514,21.7731,防城港市,防城档案局,,42,42,33,11,12,23,,46,41,15,14,3,4,0.7,0.7
2025-09-14T2300,2501A,108.3506,21.6414,防城港市,大海花园,,,26,21,12,10,,,51,51,12,8,4,6,0.3,0.3
2025-09-14T2300,1371A,113.1294,23.0067,佛山市,湾梁,,22,22,22,8,11,36,,138,96,20,19,6,7,0.6,0.6
2025-09-14T2300,1372A,113.1083,23.0478,佛山市,华材职中,,22,22,19,15,10,44,,144,104,11,12,4,5,0.5,0.4
2025-09-14T2300,1373A,113.144,23.0453,佛山市,南海气象局,,22,21,22,15,10,39,,148,106,14,13,6,6,0.7,0.6
2025-09-14T2300,1374A,113.2881,22.8094,佛山市,顺德苏岗,,14,14,21,7,6,29,,94,67,14,15,6,7,0.6,0.6
2025-09-14T2300,1376A,112.8383,22.8678,佛山市,高明孔堂,,25,25,21,8,8,46,,107,90,10,8,2,3,0.3,0.3
2025-09-14T2300,1377A,112.8836,23.1588,佛山市,三水监测站,,22,22,23,11,14,21,,117,84,25,18,7,7,0.5,0.4
2025-09-14T2300,1378A,112.867,23.185,佛山市,三水云东海,,32,32,26,15,14,31,,127,94,29,18,3,4,0.6,0.5
2025-09-14T2300,3625A,113.2544,22.7642,佛山市,容桂街道办,,14,14,14,7,10,34,,113,74,18,18,7,9,0.7,0.6
2025-09-14T2300,1282A,119.2681,26.0504,福州市,师大,,29,,29,3,14,90,,154,111,7,11,5,6,0.3,0.3
2025-09-14T2300,1283A,119.2984,26.1028,福州市,五四北路,,,,30,7,17,87,,149,112,8,10,4,4,0.2,0.3
2025-09-14T2300,1284A,119.2648,26.0768,福州市,杨桥西路,,28,6,28,3,16,89,,149,113,4,6,3,4,0.3,0.3
2025-09-14T2300,1285A,119.317,26.0746,福州市,紫阳,,26,,36,9,15,82,,134,99,7,15,4,4,0.1,0.2
2025-09-14T2300,3048A,119.5799,26.0936,福州市,九龙,,26,10,30,8,21,83,,133,88,6,9,3,4,0.3,0.4
2025-09-14T2300,3526A,119.5189,25.9664,福州市,吴航,,26,26,32,14,18,60,,139,86,11,13,5,6,0.1,0.4
2025-09-14T2300,1756A,123.9161,41.8822,抚顺市,顺城区,,32,30,50,22,20,9,,136,89,43,18,5,8,0.9,0.9
2025-09-14T2300,1757A,124.0436,41.8611,抚顺市,东洲区,,26,26,41,18,20,34,,129,91,15,13,8,7,0.4,0.5
2025-09-14T2300,1758A,123.9247,41.8642,抚顺市,新抚区,,,33,51,19,19,,,135,106,30,19,6,7,1.3,1.2
2025-09-14T2300,1759A,124.0972,41.8961,抚顺市,大伙房水库,,29,28,36,20,21,49,,127,94,15,12,10,10,0.8,0.7
2025-09-14T2300,1760A,123.7086,41.8391,抚顺市,沈抚新城,,28,28,44,14,20,14,,141,90,35,17,6,8,0.8,0.8
2025-09-14T2300,2376A,116.2127,28.0814,抚州市,桐源党溪,,29,29,26,16,12,22,,89,44,1,17,5,7,0.6,0.7
2025-09-14T2300,2377A,116.3544,27.9831,抚州市,市站,,36,36,26,19,13,62,,101,74,12,8,6,7,0.7,0.7
2025-09-14T2300,2378A,116.3565,27.963,抚州市,血防站,,35,35,28,23,14,45,,96,68,17,9,5,6,0.6,0.5
2025-09-14T2300,2379A,116.3564,28.0007,抚州市,采茶剧团,,44,44,29,24,13,53,,90,65,6,6,5,11,0.6,0.6
2025-09-14T2300,2380A,116.385,27.9647,抚州市,医学分院,,37,37,33,18,14,42,,96,62,20,9,4,5,0.6,0.6
2025-09-14T2300,2207A,121.6094,41.998,阜新市,工业园区,,14,14,37,3,17,42,,115,63,18,12,6,9,0.3,0.6
2025-09-14T2300,2208A,121.6697,42.0279,阜新市,长青街,,14,12,34,3,15,44,,113,62,12,10,6,10,0.2,0.5
2025-09-14T2300,2209A,121.6673,42.0705,阜新市,农业园区,,16,10,32,3,15,50,,111,64,12,11,3,5,0.3,0.7
2025-09-14T2300,2210A,121.6717,42.0224,阜新市,东苑,,22,22,40,3,15,46,,108,62,16,12,2,7,0.3,0.6
2025-09-14T2300,2211A,121.6506,42.0498,阜新市,玉龙新城,,28,28,35,3,12,39,,107,62,18,11,8,11,0.3,0.6
2025-09-14T2300,2301A,115.8277,32.8929,阜阳市,市监测站,,22,22,29,12,18,40,,67,52,9,11,4,4,0.4,0.5
2025-09-14T2300,2303A,115.8554,32.8605,阜阳市,开发区,,15,,21,10,12,42,,67,,12,11,6,6,0.3,0.4
2025-09-14T2300,2875A,115.784,32.8892,阜阳市,阜阳职业技术学院,,20,14,24,14,12,52,,72,60,8,9,5,6,0.3,0.4
2025-09-14T2300,3468A,115.7901,32.8613,阜阳市,市规划展馆,,15,15,30,9,16,40,,72,55,7,5,3,3,0.5,0.6
2025-09-14T2300,3469A,115.836,32.9183,阜阳市,枣园社区,,22,22,30,10,18,50,,69,54,9,13,4,4,0.4,0.5
2025-09-14T2300,2669A,102.9099,34.9841,甘南藏族自治州,州政府,,27,24,45,15,21,86,,86,82,6,17,6,7,0.2,0.3
2025-09-14T2300,3380A,102.8914,34.9617,甘南藏族自治州,甘肃民族师范学院,,33,,56,9,22,103,,104,100,10,22,4,5,0.2,0.3
2025-09-14T2300,2570A,101.9603,30.0475,甘孜藏族自治州,水桥子,,34,34,26,13,10,17,,81,63,38,20,6,7,0.3,0.3
2025-09-14T2300,3065A,101.9533,29.9972,甘孜藏族自治州,州环保局,,25,25,24,6,7,11,,83,57,44,12,5,5,0.4,0.4
2025-09-14T2300,3414A,115.8347,28.932,赣江新区,桑海产业园,,17,17,17,3,6,36,,116,73,17,12,4,6,0.3,0.5
2025-09-14T2300,2363A,114.9367,25.8664,赣州市,地委,,29,27,26,16,22,90,,116,107,11,12,7,8,0.5,0.5
2025-09-14T2300,2364A,114.9461,25.8481,赣州市,气象台,,27,27,27,11,14,85,,111,102,6,7,8,9,0.4,0.5
2025-09-14T2300,2365A,114.9322,25.8333,赣州市,市图书馆,,28,20,25,19,18,79,,105,97,11,10,7,9,0.6,0.6
2025-09-14T2300,2366A,114.8905,25.8471,赣州市,华坚鞋城,,33,33,33,18,19,72,,101,87,15,14,5,7,0.4,0.4
2025-09-14T2300,3109A,115.0093,25.8613,赣州市,赣县区卫计委,,46,,20,32,17,45,,100,88,16,12,6,6,0.4,0.4
2025-09-14T2300,2684A,106.2792,36.0022,固原市,监测站,,44,44,34,10,12,21,,93,55,37,18,8,7,0.3,0.3
2025-09-14T2300,2685A,106.2375,36.0211,固原市,新区,,31,31,36,10,14,33,,89,60,24,16,5,6,0.3,0.3
2025-09-14T2300,3522A,106.2177,35.9959,固原市,原州区十五小,,36,36,38,17,16,46,,92,69,19,10,10,10,0.2,0.2
2025-09-14T2300,2544A,106.6303,30.4576,广安市,市委,细颗粒物(PM2.5),52,50,29,36,19,31,,110,80,32,18,7,8,0.8,0.6
2025-09-14T2300,2545A,106.6271,30.4663,广安市,友谊中学,,34,34,24,20,13,46,,120,95,23,15,5,5,0.8,0.7
2025-09-14T2300,2547A,106.6388,30.4551,广安市,广电花园,,50,50,26,22,12,12,,102,70,56,17,4,5,1.0,0.7
2025-09-14T2300,2902A,106.6351,30.4865,广安市,北辰小学,颗粒物(PM10),61,71,26,42,12,41,,120,103,17,10,4,8,0.8,0.7
2025-09-14T2300,2523A,105.8945,32.4535,广元市,黑石坡,,35,24,25,24,10,53,,72,66,4,6,8,9,0.3,0.4
2025-09-14T2300,2524A,105.821,32.4444,广元市,老城,,23,23,16,7,6,14,,95,58,45,22,6,8,0.8,0.8
2025-09-14T2300,2526A,105.8628,32.4287,广元市,监测站,,45,,15,31,12,38,,81,65,13,13,6,7,0.7,0.8
2025-09-14T2300,3617A,105.8047,32.4166,广元市,经开区,,29,29,30,15,15,14,,80,57,38,20,5,10,0.7,0.8
2025-09-14T2300,1345A,113.2347,23.1423,广州市,广雅中学,,27,27,26,12,12,40,,140,108,27,20,6,4,0.4,0.4
2025-09-14T2300,1346A,113.2612,23.105,广州市,市五中,,20,20,23,11,12,47,,148,113,22,19,5,5,0.3,0.2
2025-09-14T2300,1348A,113.3478,23.0916,广州市,广东商学院,,24,24,22,11,9,43,,138,104,29,21,4,4,0.2,0.2
2025-09-14T2300,1349A,113.4332,23.1047,广州市,市八十六中,,20,16,19,9,10,37,,131,94,40,32,4,4,0.5,0.5
2025-09-14T2300,1350A,113.3505,22.9483,广州市,番禺中学,,22,22,19,10,9,43,,120,87,22,16,5,6,0.6,0.6
2025-09-14T2300,1351A,113.2146,23.3916,广州市,花都师范,颗粒物(PM10),53,56,42,14,17,58,,176,150,35,29,5,6,0.5,0.6
2025-09-14T2300,1352A,113.2597,23.1331,广州市,市监测站,,27,27,25,12,11,43,,135,106,20,17,5,6,0.5,0.4
2025-09-14T2300,1353A,113.5618,23.312,广州市,九龙镇镇龙,,45,45,42,26,23,32,,181,145,38,26,8,8,0.5,0.5
2025-09-14T2300,1354A,113.2765,23.1544,广州市,麓湖,,22,22,22,12,12,43,,115,91,23,20,4,4,0.3,0.3
2025-09-14T2300,1355A,113.443,23.3035,广州市,帽峰山森林公园,,23,23,18,14,11,38,,153,118,40,21,11,7,0.5,0.5
2025-09-14T2300,2846A,113.3221,23.1322,广州市,体育西,,26,26,26,14,12,34,,136,103,34,21,5,6,0.4,0.4
2025-09-14T2300,3298A,113.5717,23.5491,广州市,从化街口,,48,48,38,31,25,109,,180,160,24,21,8,8,0.8,0.7
2025-09-14T2300,3299A,113.3472,23.3692,广州市,白云竹料,,31,31,31,14,15,47,,160,135,34,28,5,5,0.4,0.5
2025-09-14T2300,3300A,113.2981,23.237,广州市,白云嘉禾,,31,31,32,13,15,34,,145,111,39,30,4,4,0.4,0.4
2025-09-14T2300,3301A,113.4256,23.1716,广州市,黄埔科学城,,27,27,26,11,12,36,,148,108,25,20,4,4,0.6,0.6
2025-09-14T2300,3302A,113.3942,23.0483,广州市,番禺大学城,,18,15,23,12,12,43,,132,100,25,21,6,6,0.4,0.4
2025-09-14T2300,3303A,113.4922,22.8168,广州市,南沙黄阁,,17,15,20,3,4,54,,102,81,12,16,5,5,0.5,0.4
2025-09-14T2300,3304A,113.5342,22.7896,广州市,南沙街,,19,16,17,3,7,60,,100,80,11,15,6,6,0.4,0.3
2025-09-14T2300,3443A,113.2902,23.5544,广州市,花都梯面,,45,45,35,23,18,58,,160,116,17,20,5,6,0.5,0.5
2025-09-14T2300,3445A,113.7858,23.7478,广州市,从化良口,,29,29,26,19,18,92,,114,96,12,11,5,5,0.5,0.5
2025-09-14T2300,3446A,113.8051,23.2614,广州市,增城荔城,,39,39,42,21,27,39,,203,148,26,20,9,9,0.7,0.7
2025-09-14T2300,2506A,109.6047,23.0666,贵港市,江南子站,颗粒物(PM10),59,68,37,23,20,8,,71,52,37,16,7,5,0.8,0.6
2025-09-14T2300,2508A,109.5669,23.1065,贵港市,荷城子站,,29,29,24,12,10,32,,70,59,20,15,7,4,0.6,0.5
2025-09-14T2300,3405A,109.5886,23.1172,贵港市,新世纪学校,,27,27,27,13,16,30,,77,60,18,18,6,6,0.5,0.4
2025-09-14T2300,4260A,109.5933,23.0951,贵港市,中山路155-3号,颗粒物(PM10),53,55,36,24,20,24,,79,60,27,17,12,6,0.7,0.6
2025-09-14T2300,1439A,106.6899,26.5998,贵阳市,马鞍山,,20,17,14,14,13,18,,35,33,8,8,3,3,0.2,0.2
2025-09-14T2300,1441A,106.6243,26.6266,贵阳市,鉴湖路,,24,24,22,9,6,31,,34,34,14,14,6,6,0.4,0.4
2025-09-14T2300,1442A,106.7487,26.6343,贵阳市,燕子冲,,22,22,12,14,14,23,,35,31,14,11,5,5,0.4,0.3
2025-09-14T2300,1443A,106.6555,26.4365,贵阳市,碧云窝,,27,27,26,7,7,29,,37,33,9,6,5,5,0.3,0.3
2025-09-14T2300,1445A,106.7109,26.6027,贵阳市,红边门,,25,24,19,17,15,24,,31,29,16,11,3,3,0.3,0.2
2025-09-14T2300,1446A,106.7164,26.5699,贵阳市,新华路,,22,22,20,7,8,22,,34,30,21,14,5,5,0.4,0.3
2025-09-14T2300,1447A,106.674,26.5424,贵阳市,太慈桥,,24,24,13,7,7,17,,38,30,16,10,5,5,0.0,0
2025-09-14T2300,4230A,106.6882,26.5695,贵阳市,花果园大街66号,,20,,5,14,12,19,,29,26,11,9,3,3,0.3,0.2
2025-09-14T2300,4231A,106.6873,26.5169,贵阳市,漓江路57号,,22,22,15,9,9,23,,37,32,12,9,5,5,0.4,0.3
2025-09-14T2300,1864A,110.3089,25.2708,桂林市,龙隐路小学,,38,37,31,26,18,35,,81,62,12,10,6,6,0.3,0.3
2025-09-14T2300,1865A,110.2869,25.2178,桂林市,八中,,40,39,31,28,18,28,,83,63,15,11,8,7,0.5,0.3
2025-09-14T2300,3531A,110.296,25.1253,桂林市,旅游学院,,39,34,26,27,15,21,,81,53,14,11,10,7,0.4,0.4
2025-09-14T2300,4222A,110.1835,25.2444,桂林市,环湖路276号,,44,44,30,24,18,52,,83,74,15,22,11,6,0.3,0.3
2025-09-14T2300,4301A,110.2803,25.2773,桂林市,信义路13号,细颗粒物(PM2.5),63,,31,45,28,32,,83,67,14,11,6,7,0.5,0.4
2025-09-14T2300,2674A,100.2561,34.4714,果洛藏族自治州,玛沁县大武镇,,36,31,36,25,20,71,,105,98,7,10,11,11,0.4,0.5
2025-09-14T2300,1129A,126.5422,45.755,哈尔滨市,岭北,,23,17,35,3,17,73,,127,89,5,11,9,7,0.0,0.7
2025-09-14T2300,1130A,126.561,45.8167,哈尔滨市,松北商大,,27,27,41,3,16,59,,105,71,2,8,6,7,0.3,0.5
2025-09-14T2300,1131A,126.979,45.5419,哈尔滨市,阿城会宁,,20,20,41,3,18,59,,101,75,5,8,6,7,0.3,0.5
2025-09-14T2300,1132A,126.599,45.7222,哈尔滨市,南岗学府路,,32,32,51,3,15,59,,107,73,6,10,8,9,0.3,0.5
2025-09-14T2300,1133A,126.689,45.7733,哈尔滨市,太平宏伟公园,,31,31,47,3,17,58,,107,76,4,10,7,8,0.2,0.5
2025-09-14T2300,1134A,126.635,45.7667,哈尔滨市,道外承德广场,,43,43,60,11,15,54,,101,69,7,11,7,8,0.3,0.4
2025-09-14T2300,1135A,126.685,45.7319,哈尔滨市,香坊红旗大街,,34,34,51,3,19,58,,105,74,11,18,5,7,0.4,0.6
2025-09-14T2300,1136A,126.6411,45.7258,哈尔滨市,动力和平路,,28,28,47,3,19,59,,106,76,5,12,4,5,0.4,0.6
2025-09-14T2300,1137A,126.593,45.7478,哈尔滨市,道里建国路,,18,13,42,3,18,55,,104,71,9,15,5,8,0.2,0.9
2025-09-14T2300,1138A,126.615,45.61,哈尔滨市,平房东轻厂,,17,17,43,3,16,54,,104,69,8,8,8,9,0.3,0.4
2025-09-14T2300,1139A,126.595,45.9855,哈尔滨市,呼兰师专,,28,28,44,3,18,52,,98,66,5,13,7,7,0.3,0.5
2025-09-14T2300,1140A,126.6206,45.6842,哈尔滨市,省农科院,,35,35,76,3,15,48,,102,72,10,16,7,7,0.5,0.8
2025-09-14T2300,2688A,93.5128,42.8172,哈密市,地区监测站,,25,14,72,10,33,80,,92,90,6,25,3,4,0.0,0.4
2025-09-14T2300,2689A,93.4961,42.8328,哈密市,哈密师范学校,,27,15,60,6,21,85,,92,92,6,34,4,7,0.2,0.5
2025-09-14T2300,2671A,100.9048,36.9639,海北藏族自治州,海晏县西海镇,,39,39,55,25,23,69,,115,95,9,5,10,11,0.4,0.4
2025-09-14T2300,3867A,102.0738,36.5056,海东市,平安区公安北苑,颗粒物(PM10),56,62,102,35,43,68,,127,104,3,8,8,13,0.6,0.8
2025-09-14T2300,1410A,110.3232,20.0574,海口市,海南大学,,26,26,15,10,6,6,,39,24,24,7,3,3,0.4,0.3
2025-09-14T2300,1411A,110.283,20.0053,海口市,秀英海南医院,,,32,14,17,8,4,,37,18,,10,6,6,0.4,0.2
2025-09-14T2300,1412A,110.338,19.9969,海口市,海南师范大学,,21,21,14,12,7,4,,39,23,25,8,4,4,0.4,0.3
2025-09-14T2300,1413A,110.33,20.0356,海口市,龙华路环保局宿舍,,19,19,14,8,6,15,,38,24,19,9,6,6,0.2,0.1
2025-09-14T2300,3539A,110.5111,19.9736,海口市,桂林洋子站,,34,34,18,17,8,9,,34,20,15,8,4,4,0.2,0.2
2025-09-14T2300,2673A,100.6188,36.2866,海南藏族自治州,共和县恰卜恰镇,,49,36,45,34,19,65,,126,100,24,11,17,12,0.4,0.5
2025-09-14T2300,2676A,97.3731,37.3753,海西蒙古族藏族自治州,德令哈市,颗粒物(PM10),60,69,36,19,12,83,,123,110,9,5,7,8,0.5,0.4
2025-09-14T2300,1048A,114.5302,36.6116,邯郸市,东污水处理厂,,45,45,56,30,40,91,,168,127,18,11,5,10,0.3,0.6
2025-09-14T2300,1049A,114.4918,36.5713,邯郸市,矿院,,42,35,44,29,40,95,,168,131,14,10,8,9,0.4,0.6
2025-09-14T2300,1050A,114.484,36.6133,邯郸市,丛台公园,,36,34,51,22,35,113,,175,139,11,13,7,11,0.4,0.7
2025-09-14T2300,3458A,114.7895,36.5593,邯郸市,香泉濮院小区,,,,52,,22,,,148,140,,8,,5,,0.4
2025-09-14T2300,3579A,114.50634,36.77178,邯郸市,永年区实验高中,颗粒物(PM10),54,57,62,27,35,96,,183,138,18,13,4,8,0.8,1.2
2025-09-14T2300,3580A,114.20016,36.44293,邯郸市,峰峰矿区临水派出所,颗粒物(PM10),55,60,61,31,37,107,,200,158,19,18,9,14,0.3,0.9
2025-09-14T2300,2634A,106.9893,33.1842,汉中市,汉川机床厂子校,,33,,19,23,9,40,,82,71,12,9,3,4,0.5,0.5
2025-09-14T2300,2635A,107.0154,33.0706,汉中市,市监测站,,42,42,24,27,10,21,,82,65,10,6,6,6,0.7,0.6
2025-09-14T2300,2636A,107.0089,33.1138,汉中市,鑫源开发区,,49,49,24,22,8,20,,81,67,24,10,6,6,0.6,0.5
2025-09-14T2300,2637A,107.007,33.0323,汉中市,南郑大河坎水厂,,42,42,22,25,10,14,,75,52,13,8,6,6,0.6,0.5
2025-09-14T2300,1223A,120.2072,30.2111,杭州市,滨江,,17,9,16,8,9,53,,140,108,14,15,7,7,0.3,0.4
2025-09-14T2300,1224A,120.0633,30.2747,杭州市,西溪,,14,14,15,6,9,29,,105,75,16,12,6,6,0.4,0.5
2025-09-14T2300,1226A,120.3417,30.3150,杭州市,下沙,,17,16,15,7,8,35,,122,95,34,14,5,6,0.3,0.4
2025-09-14T2300,1227A,120.1269,30.2456,杭州市,卧龙桥,,13,13,16,3,7,29,,108,77,10,7,8,11,0.5,0.6
2025-09-14T2300,1228A,120.1903,30.2692,杭州市,浙江农大,,16,12,16,10,10,29,,100,69,31,22,6,5,0.6,0.6
2025-09-14T2300,1230A,120.1197,30.3119,杭州市,和睦小学,,15,12,16,8,11,47,,125,92,11,11,5,5,0.4,0.5
2025-09-14T2300,1231A,120.3019,30.4183,杭州市,临平镇,,17,10,12,10,11,54,,133,101,15,14,5,6,0.4,0.5
2025-09-14T2300,1232A,120.2753,30.1839,杭州市,城厢镇,,22,22,23,9,9,49,,126,97,23,6,3,4,0.5,0.5
2025-09-14T2300,1233A,120.0883,30.1808,杭州市,云栖,,,13,16,,26,41,,112,75,13,13,4,5,0.7,0.8
2025-09-14T2300,3557A,119.9464,30.0494,杭州市,镇二中,,19,13,13,13,9,36,,108,79,19,12,4,4,0.6,0.6
2025-09-14T2300,3558A,119.7183,30.2367,杭州市,市府大楼,,9,8,11,6,7,27,,84,53,11,9,8,8,0.3,0.4
2025-09-14T2300,3656A,120.1556,30.2864,杭州市,消防大队,,16,16,18,7,9,44,,120,89,14,11,7,7,0.6,0.7
2025-09-14T2300,1270A,117.1959,31.7848,合肥市,明珠广场,,10,6,20,3,13,25,,78,30,20,19,6,6,0.5,0.6
2025-09-14T2300,1271A,117.3072,31.8764,合肥市,三里街,,14,9,24,3,14,16,,67,30,27,20,5,5,0.5,0.6
2025-09-14T2300,1272A,117.2588,31.8707,合肥市,琥珀山庄,,12,9,25,6,12,25,,81,36,24,16,8,8,0.6,0.7
2025-09-14T2300,1273A,117.1604,31.9052,合肥市,董铺水库,,17,17,24,7,11,18,,76,39,29,10,4,4,0.3,0.3
2025-09-14T2300,1274A,117.25,31.8571,合肥市,长江中路,,9,7,23,3,11,27,,78,36,17,15,6,6,0.6,0.7
2025-09-14T2300,1275A,117.266,31.9436,合肥市,庐阳区,,17,17,26,3,13,20,,84,31,34,26,6,6,0.6,0.6
2025-09-14T2300,1276A,117.3453,31.8616,合肥市,瑶海区,,12,,24,3,11,22,,71,29,24,24,6,7,0.6,0.7
2025-09-14T2300,1277A,117.3027,31.7964,合肥市,包河区,,10,7,21,3,11,32,,74,27,15,24,9,9,0.5,0.6
2025-09-14T2300,1278A,117.2776,31.7385,合肥市,滨湖新区,,11,6,17,3,14,34,,78,37,9,13,4,5,0.6,0.6
2025-09-14T2300,1279A,117.1318,31.8403,合肥市,高新区,,12,9,21,7,13,28,,89,35,24,18,5,5,0.6,0.6
2025-09-14T2300,3464A,117.3803,31.9147,合肥市,高教基地,,16,12,23,3,12,9,,65,24,31,17,6,6,0.4,0.5
2025-09-14T2300,3614A,79.924,37.0877,和田地区,地区环保局,颗粒物(PM10),163,276,273,85,82,94,,99,98,13,10,2,5,0.8,0.7
2025-09-14T2300,3615A,79.9131,37.113,和田地区,市环保局,颗粒物(PM10),230,371,258,111,65,14,,99,72,83,28,5,4,1.6,0.4
2025-09-14T2300,2517A,108.0497,24.6947,河池市,市环保站,,18,16,21,12,11,21,,68,53,14,9,8,6,0.6,0.6
2025-09-14T2300,2518A,108.0983,24.6989,河池市,市疾控中心,,36,36,24,15,12,9,,71,47,32,17,7,7,0.6,0.6
2025-09-14T2300,1696A,114.6778,23.7569,河源市,源西,,27,27,19,16,12,17,,91,57,42,20,4,5,0.7,0.6
2025-09-14T2300,1697A,114.6944,23.7586,河源市,东埔,,23,,25,16,11,42,,86,67,17,14,6,5,0.8,0.6
2025-09-14T2300,1698A,114.6892,23.7233,河源市,老城,,30,30,25,3,10,30,,97,71,29,12,5,6,0.7,0.7
2025-09-14T2300,1718A,115.4208,35.2464,菏泽市,气象局,,,33,42,20,23,,,137,,12,11,2,2,0.3,0.3
2025-09-14T2300,3374A,115.5564,35.0891,菏泽市,定陶老年大学,,27,27,30,14,14,53,,110,88,10,9,4,4,0.3,0.2
2025-09-14T2300,4184A,115.4797,35.24401,菏泽市,永昌路1号,,40,40,41,25,23,56,,128,100,15,9,7,7,0.1,0.1
2025-09-14T2300,4193A,115.4715,35.2800,菏泽市,长城路999号,,38,38,37,20,18,63,,137,111,21,14,9,11,0.3,0.3
2025-09-14T2300,2514A,111.5264,24.4172,贺州市,环保小区,,34,34,24,18,15,34,,99,64,20,12,15,14,0.9,0.8
2025-09-14T2300,2515A,111.5608,24.4078,贺州市,政协大楼,,44,44,22,17,16,34,,87,52,23,13,17,11,0.7,0.6
2025-09-14T2300,3534A,111.4744,24.4553,贺州市,西湾,,39,32,26,27,15,14,,94,61,26,13,10,12,0.4,0.4
2025-09-14T2300,2385A,114.17,35.9019,鹤壁市,市监测站,,47,47,53,28,34,83,,144,127,18,16,5,6,0.5,0.6
2025-09-14T2300,2386A,114.2956,35.7511,鹤壁市,市交警支队,颗粒物(PM10),56,62,64,29,37,71,,144,120,20,16,3,3,0.7,0.7
2025-09-14T2300,2387A,114.2878,35.7306,鹤壁市,迎宾馆,颗粒物(PM10),59,68,67,22,36,63,,147,120,25,16,6,7,0.6,0.7
2025-09-14T2300,3474A,114.2617,35.6822,鹤壁市,大新区,,40,40,55,14,25,52,,139,107,26,19,5,7,0.6,0.7
2025-09-14T2300,3596A,114.1572,35.9603,鹤壁市,南山宾馆,,40,40,52,19,34,95,,156,139,18,15,4,5,0.6,0.6
2025-09-14T2300,2244A,130.2537,47.3416,鹤岗市,哈啤分公司,,,,24,,15,,,102,102,,11,,13,,0.3
2025-09-14T2300,2245A,130.2684,47.3086,鹤岗市,斯达机电,,28,21,26,19,16,80,,98,98,9,12,12,13,0.3,0.4
2025-09-14T2300,2246A,130.3114,47.3388,鹤岗市,东山纸板厂,,25,17,18,17,15,66,,90,89,10,15,13,14,0.4,0.7
2025-09-14T2300,2263A,127.4833,50.2524,黑河市,交通局,,23,16,17,10,10,71,,55,55,6,11,6,6,0.5,0.5
2025-09-14T2300,2264A,127.5144,50.2341,黑河市,环保局,,25,,16,16,12,79,,64,64,6,9,5,4,0.5,0.5
2025-09-14T2300,1074A,115.6838,37.7541,衡水市,电机北厂,颗粒物(PM10),52,54,61,29,31,128,,167,144,12,11,7,8,0.4,0.5
2025-09-14T2300,1075A,115.6303,37.7316,衡水市,市监测站,颗粒物(PM10),60,70,63,26,28,99,,163,141,20,11,9,9,0.4,0.3
2025-09-14T2300,3188A,115.6683,37.7217,衡水市,市城管局,颗粒物(PM10),59,68,63,31,29,95,,168,139,28,12,10,11,0.4,0.5
2025-09-14T2300,3459A,115.5989,37.5491,衡水市,地表水厂,颗粒物(PM10),60,70,73,31,29,89,,149,110,31,22,3,4,0.4,0.4
2025-09-14T2300,2456A,112.5003,26.9167,衡阳市,原169医院,颗粒物(PM10),52,54,43,35,23,37,,107,73,26,15,8,9,0.8,0.7
2025-09-14T2300,2457A,112.6194,26.9258,衡阳市,衡阳化工总厂,细颗粒物(PM2.5),73,62,34,53,20,37,,112,81,23,10,11,8,1.2,0.9
2025-09-14T2300,2458A,112.6211,26.8956,衡阳市,珠晖区环保局,,37,37,31,17,17,60,,114,86,12,11,18,13,0.7,0.7
2025-09-14T2300,2459A,112.6197,26.8733,衡阳市,市委党校,,42,42,30,21,16,37,,111,76,26,10,14,10,0.7,0.5
2025-09-14T2300,2460A,112.6006,26.8919,衡阳市,市监测站,,48,48,33,30,20,50,,110,88,20,10,26,8,0.7,0.7
2025-09-14T2300,2461A,112.5664,26.9056,衡阳市,真空机电公司,,27,27,28,18,19,61,,106,82,8,8,18,8,0.8,0.9
2025-09-14T2300,3399A,112.6703,26.882,衡阳市,师范学院,颗粒物(PM10),51,52,45,25,20,42,,110,69,18,13,14,9,1.0,0.8
2025-09-14T2300,2608A,103.3772,23.3993,红河哈尼族彝族自治州,污水处理厂,,17,17,17,10,15,36,,45,37,6,7,8,12,0.3,0.3
2025-09-14T2300,2609A,103.3861,23.35,红河哈尼族彝族自治州,监测站,,19,19,21,10,8,39,,48,42,6,4,13,11,0.2,0.2
2025-09-14T2300,3038A,103.3758,23.368,红河哈尼族彝族自治州,州图书馆,,29,,14,20,17,49,,49,44,6,6,2,2,0.2,0.2
2025-09-14T2300,1090A,111.6507,40.7517,呼和浩特市,呼市一监,,31,31,46,12,16,17,,77,58,43,21,6,7,0.3,0.3
2025-09-14T2300,1091A,111.6572,40.8033,呼和浩特市,小召,,44,44,49,19,15,15,,85,66,59,30,5,6,0.6,0.4
2025-09-14T2300,1094A,111.7516,40.8369,呼和浩特市,如意水处理厂,,34,34,42,9,11,14,,84,58,47,28,6,6,0.3,0.3
2025-09-14T2300,1095A,111.7276,40.8062,呼和浩特市,二十九中,,36,36,47,9,12,17,,87,66,46,28,6,7,0.5,0.5
2025-09-14T2300,1096A,111.5512,40.7866,呼和浩特市,工大金川校区,,42,42,64,11,16,14,,78,56,58,38,6,8,0.5,0.5
2025-09-14T2300,1097A,111.717,40.7612,呼和浩特市,化肥厂生活区,,27,27,48,8,13,16,,81,54,53,32,5,6,0.3,0.3
2025-09-14T2300,3698A,111.5968,40.8178,呼和浩特市,红旗小学,,41,41,48,10,12,18,,82,62,62,31,3,5,0.3,0.2
2025-09-14T2300,3699A,111.6518,40.8389,呼和浩特市,海东办,,41,41,43,14,10,2,,87,58,64,28,5,6,0.5,0.4
2025-09-14T2300,2192A,119.7594,49.2261,呼伦贝尔市,区环保局,,28,,23,19,16,46,,59,47,3,8,4,4,0.5,0.5
2025-09-14T2300,3061A,119.7512,49.1577,呼伦贝尔市,国华电力东,,20,14,16,14,10,50,,58,52,4,6,6,6,0.2,0.2
2025-09-14T2300,1250A,120.0751,30.8669,湖州市,城西水厂,,17,8,27,3,19,54,,138,98,15,19,6,7,0.3,0.4
2025-09-14T2300,2873A,120.0830,30.8929,湖州市,仁皇山新区,,12,6,27,3,17,38,,129,89,19,14,4,4,0.4,0.6
2025-09-14T2300,2907A,120.1844,30.8596,湖州市,吴兴区站,,16,16,24,3,15,50,,126,91,6,12,7,8,0.5,0.7
2025-09-14T2300,3562A,120.4148,30.8538,湖州市,南浔区站,,17,17,23,8,18,46,,107,82,11,10,7,6,0.8,0.8
2025-09-14T2300,1607A,120.9049,40.7211,葫芦岛市,龙港区,,13,6,45,3,26,40,,179,110,24,14,20,8,0.3,0.7
2025-09-14T2300,1608A,120.8392,40.7514,葫芦岛市,化工街,,17,17,39,9,20,47,,138,93,20,21,13,10,0.4,0.7
2025-09-14T2300,1609A,120.8341,40.7073,葫芦岛市,新区,,16,15,40,3,30,50,,156,106,20,17,15,7,0.3,0.7
2025-09-14T2300,1610A,120.8695,40.7677,葫芦岛市,东城区,,15,14,40,3,26,48,,147,96,29,24,21,8,0.4,0.7
2025-09-14T2300,2482A,109.5981,27.5721,怀化市,林科所,,29,29,21,11,6,25,,73,48,8,8,4,4,0.8,0.7
2025-09-14T2300,2483A,109.9453,27.5444,怀化市,河西地税局,,39,36,23,27,16,27,,61,42,10,9,14,6,0.4,0.3
2025-09-14T2300,2484A,109.9781,27.5342,怀化市,市四医院,,23,23,29,16,19,39,,70,54,4,7,8,12,0.5,0.5
2025-09-14T2300,2485A,109.9972,27.5578,怀化市,监测楼,,25,21,27,17,16,44,,76,58,5,8,4,8,0.1,0.1
2025-09-14T2300,2486A,110.0394,27.583,怀化市,市委党校,,28,22,23,19,16,24,,69,47,12,8,4,9,0.3,0.3
2025-09-14T2300,1210A,119.036,33.5981,淮安市,钵池山,,28,22,21,19,17,45,,78,66,26,14,6,7,0.9,0.9
2025-09-14T2300,1211A,119.007,33.575,淮安市,北京南路,,35,27,25,24,20,40,,76,66,34,17,7,9,0.9,0.8
2025-09-14T2300,1212A,118.989,33.6067,淮安市,市监测站,,39,39,32,24,21,57,,70,65,21,23,10,10,0.7,0.5
2025-09-14T2300,1213A,119.135,33.5039,淮安市,楚州区监测站,,37,37,34,17,15,38,,79,66,28,22,8,8,0.7,0.7
2025-09-14T2300,3426A,118.8755,33.2894,淮安市,新华书店,,25,25,19,17,13,52,,73,67,20,13,6,6,0.8,0.8
2025-09-14T2300,4206A,119.0288,33.6319,淮安市,承德北路606号,,44,44,38,22,19,37,,68,54,31,18,6,7,0.5,0.6
2025-09-14T2300,2282A,116.8004,33.975,淮北市,监测站,,32,29,34,22,24,46,,80,62,13,12,7,7,0.6,0.6
2025-09-14T2300,2283A,116.8091,33.9007,淮北市,烈山区政府,,,51,49,15,16,67,,83,70,,13,8,8,0.5,0.5
2025-09-14T2300,3330A,116.8873,33.9836,淮北市,杜集区检察院,,38,,35,26,30,63,,86,68,1,5,8,9,0.7,0.7
2025-09-14T2300,4017A,116.7923,33.9535,淮北市,市博物馆,,28,27,32,19,21,61,,83,68,13,13,6,7,0.6,0.6
2025-09-14T2300,2277A,116.8305,32.7727,淮南市,潘集区政府,,22,22,22,15,12,33,,85,58,12,9,4,4,0.4,0.4
2025-09-14T2300,2280A,116.8281,32.633,淮南市,八公山区政府,,11,11,17,3,12,34,,70,49,8,9,6,6,0.2,0.3
2025-09-14T2300,2894A,117.0566,32.6531,淮南市,经济技术开发区消防队,,16,16,12,3,5,28,,70,45,13,12,8,8,0.1,0.2
2025-09-14T2300,3329A,117.0108,32.5893,淮南市,山南新区,,12,10,10,8,6,31,,69,44,17,11,5,4,0.2,0.3
2025-09-14T2300,4209A,117.0031,32.6445,淮南市,国庆中路369号,,40,40,21,9,17,40,,72,49,9,9,4,5,0.3,0.4
2025-09-14T2300,2446A,114.9028,30.4742,黄冈市,职工中心,,14,14,28,6,16,31,,50,42,11,12,6,6,0.6,0.7
2025-09-14T2300,2929A,114.8858,30.4519,黄冈市,红卫路,,17,17,29,10,17,13,,46,32,28,16,5,5,0.6,0.6
2025-09-14T2300,3398A,114.9136,30.4445,黄冈市,市林业局,,19,19,28,3,15,18,,47,32,21,16,4,5,0.4,0.6
2025-09-14T2300,2672A,102.0199,35.5102,黄南藏族自治州,同仁县隆务镇,颗粒物(PM10),57,63,43,24,17,75,,104,96,2,6,9,10,0.3,0.2
2025-09-14T2300,2295A,118.2903,29.6963,黄山市,延安路89号,,18,18,25,8,6,51,,71,46,2,4,3,3,0.4,0.5
2025-09-14T2300,2297A,118.1371,30.2756,黄山市,黄山区政府5号楼,,20,20,19,3,9,45,,60,53,2,2,4,4,0.4,0.4
2025-09-14T2300,4210A,118.3354,29.7203,黄山市,滨江东路7-2号,,15,12,22,6,5,47,,69,42,2,4,2,2,0.3,0.3
2025-09-14T2300,2423A,115.0601,30.2313,黄石市,沈家营,,42,42,60,6,13,0,,43,21,28,16,6,7,0.5,0.7
2025-09-14T2300,2426A,114.8988,30.2019,黄石市,铁山,,26,26,31,3,14,19,,36,24,17,10,3,4,0.7,0.5
2025-09-14T2300,2427A,115.0307,30.2092,黄石市,团城山,,28,28,43,3,15,11,,40,25,16,11,9,8,0.8,0.8
2025-09-14T2300,3149A,115.0235,30.1578,黄石市,笔架山北路,,27,27,36,3,10,19,,44,29,7,6,9,8,0.9,0.9
2025-09-14T2300,4185A,115.0780,30.21118,黄石市,磁湖东路29号,,37,37,61,9,16,6,,46,25,36,15,12,9,0.8,0.7
2025-09-14T2300,1392A,114.4183,23.0528,惠州市,河南岸金山湖子站,,16,16,19,3,8,22,,93,51,21,13,9,9,0.5,0.4
2025-09-14T2300,1393A,114.4053,23.0822,惠州市,下埔横江三路子站,,,16,19,8,8,,,101,62,19,12,8,7,0.5,0.5
2025-09-14T2300,1394A,114.4103,23.1142,惠州市,江北云山西路子站,,14,14,18,3,8,39,,107,67,12,14,9,9,0.4,0.4
2025-09-14T2300,1395A,114.4645,22.7833,惠州市,惠阳区承修路船湖子站,,17,17,18,6,7,49,,65,56,14,12,7,8,0.5,0.5
2025-09-14T2300,1396A,114.5317,22.7422,惠州市,大亚湾管委会子站,,20,20,14,3,5,55,,66,63,12,12,8,8,0.4,0.4
2025-09-14T2300,3314A,114.4338,22.8134,惠州市,惠阳秋长,,18,12,18,3,7,57,,82,61,9,13,10,9,0.4,0.4
2025-09-14T2300,3452A,114.6517,22.775,惠州市,大亚湾霞涌,,11,,9,3,4,19,,67,53,21,11,7,8,0.6,0.5
2025-09-14T2300,2240A,130.9762,45.3001,鸡西市,环保局,,27,18,38,8,19,84,,67,67,7,19,6,8,0.6,0.7
2025-09-14T2300,2243A,130.9429,45.3039,鸡西市,第一中学,,27,11,35,8,16,84,,73,73,4,16,9,10,0.7,0.7
2025-09-14T2300,3707A,131.0207,45.3073,鸡西市,欧美日汽修厂,,27,6,38,3,19,84,,64,64,4,15,8,8,0.8,0.9
2025-09-14T2300,3709A,130.9967,45.3106,鸡西市,市政设施管理处,,30,17,38,10,18,94,,67,66,8,21,8,9,0.8,0.9
2025-09-14T2300,2367A,114.9754,27.0803,吉安市,红声器材厂,,35,35,32,18,15,63,,107,87,5,8,11,10,0.2,0.3
2025-09-14T2300,2368A,114.9658,27.0999,吉安市,市森林工业局,,38,38,31,23,17,60,,107,86,5,8,11,11,0.4,0.4
2025-09-14T2300,2369A,114.99,27.1312,吉安市,市环境监测站,,33,33,27,19,13,65,,120,93,6,6,7,32,0.5,0.5
2025-09-14T2300,2370A,115.0093,27.0968,吉安市,青原区法院,,29,29,30,16,15,65,,111,84,7,8,13,11,0.3,0.4
2025-09-14T2300,1772A,126.54,43.8622,吉林市,哈达湾,,20,18,32,9,20,64,,112,92,4,8,4,4,0.1,0.3
2025-09-14T2300,1773A,126.5844,43.8358,吉林市,东局子,,20,11,35,3,17,61,,106,88,6,10,5,6,0.2,0.5
2025-09-14T2300,1774A,126.5052,43.8245,吉林市,电力学院,,19,13,29,6,16,60,,105,87,4,10,6,6,0.5,0.7
2025-09-14T2300,1775A,126.6133,43.8972,吉林市,江北,,25,25,35,3,16,55,,96,76,6,8,7,7,0.7,0.9
2025-09-14T2300,1776A,126.555,43.8306,吉林市,江南公园,,20,18,35,6,19,62,,108,89,3,6,2,3,0.2,0.4
2025-09-14T2300,2868A,126.4739,43.953,吉林市,九站,,18,16,36,11,22,56,,104,83,8,10,5,5,0.3,0.5
2025-09-14T2300,1299A,116.9862,36.6114,济南市,科干所,,46,46,46,32,28,127,,145,142,18,10,7,7,0.6,0.6
2025-09-14T2300,1300A,116.9376,36.665,济南市,农科所,颗粒物(PM10),53,56,46,29,25,94,,135,125,26,16,8,9,0.3,0.4
2025-09-14T2300,1301A,117.1265,36.6734,济南市,开发区,,49,49,42,32,29,121,,143,140,19,14,8,8,0.8,0.7
2025-09-14T2300,1303A,117.0624,36.6868,济南市,省种子仓库,颗粒物(PM10),54,58,51,29,26,142,,148,146,14,12,6,5,0.8,0.7
2025-09-14T2300,1304A,116.9489,36.6447,济南市,机床二厂,颗粒物(PM10),56,61,53,37,30,108,,144,133,22,13,10,10,0.4,0.3
2025-09-14T2300,1305A,117.0495,36.663,济南市,市监测站,,49,49,44,32,26,130,,136,135,13,11,4,3,0.8,0.7
2025-09-14T2300,1306A,116.7675,36.5484,济南市,长清党校,,46,46,47,22,30,100,,142,136,21,14,9,8,0.7,0.6
2025-09-14T2300,1616A,117.6795,36.229,济南市,技术学院,细颗粒物(PM2.5),62,66,53,44,36,94,,154,129,28,22,13,15,1.0,1
2025-09-14T2300,1961A,117.532,36.6868,济南市,东山小学,细颗粒物(PM2.5),68,63,55,49,35,84,,146,130,24,13,6,7,0.4,0.5
2025-09-14T2300,3059A,117.7161,36.2049,济南市,泰兴公司,细颗粒物(PM2.5),70,80,60,51,39,63,,150,118,51,33,12,15,1.0,0.9
2025-09-14T2300,3064A,117.6867,36.2171,济南市,莱芜战役纪念馆,细颗粒物(PM2.5),77,73,57,56,43,90,,148,127,34,27,10,13,1.1,1
2025-09-14T2300,3494A,117.1673,36.9782,济南市,济阳区政府,颗粒物(PM10),72,93,66,42,30,43,,163,137,88,22,9,9,0.6,0.5
2025-09-14T2300,3495A,117.1171,36.63,济南市,锦屏中学,颗粒物(PM10),56,61,44,27,22,83,,128,98,28,18,11,11,1.0,0.9
2025-09-14T2300,3682A,116.9814,36.6819,济南市,济南四建,颗粒物(PM10),52,53,43,32,29,118,,151,143,20,9,6,6,0.8,0.7
2025-09-14T2300,1653A,116.6251,35.4302,济宁市,火炬城,,33,33,50,14,24,60,,127,100,8,7,4,5,0.3,0.3
2025-09-14T2300,1655A,116.5491,35.4042,济宁市,电化厂,,32,31,47,22,30,64,,136,103,10,10,2,3,0.6,0.5
2025-09-14T2300,3500A,116.5814,35.3707,济宁市,北湖一中,,30,30,43,14,25,62,,125,103,5,5,4,5,0.4,0.4
2025-09-14T2300,3501A,116.8249,35.5593,济宁市,服务中心,,48,48,51,17,26,66,,130,104,15,12,4,6,0.3,0.4
2025-09-14T2300,3678A,116.5907,35.4054,济宁市,市第七中学,,36,36,55,9,19,61,,127,101,10,7,6,6,0.3,0.4
2025-09-14T2300,2255A,130.2751,46.8028,佳木斯市,佳纺,,24,23,40,12,19,76,,67,62,5,16,6,6,0.6,0.6
2025-09-14T2300,2256A,130.3995,46.8307,佳木斯市,发电厂,,28,24,44,19,26,77,,61,59,6,18,7,8,0.6,0.6
2025-09-14T2300,2257A,130.3258,46.7975,佳木斯市,环保局,,25,19,41,14,25,78,,70,68,5,20,8,8,0.5,0.6
2025-09-14T2300,2258A,130.3648,46.8032,佳木斯市,十一中,,23,23,44,14,27,73,,60,59,7,24,9,10,0.5,0.6
2025-09-14T2300,2259A,130.3794,46.7588,佳木斯市,四丰,,10,10,11,3,8,11,,11,5,5,12,1,75,0.3,0.3
2025-09-14T2300,1252A,120.7436,30.778,嘉兴市,清河小学,,18,14,24,9,14,57,,124,102,12,15,6,6,0.6,0.7
2025-09-14T2300,1253A,120.726,30.7478,嘉兴市,嘉兴学院,,18,13,20,9,16,57,,129,104,12,14,3,4,0.4,0.5
2025-09-14T2300,2872A,120.7846,30.7525,嘉兴市,南湖区残联,,21,14,21,12,19,65,,126,107,10,14,5,6,0.5,0.7
2025-09-14T2300,3407A,120.6916,30.7739,嘉兴市,秀洲住建,,17,17,22,8,15,53,,136,104,14,17,6,6,0.5,0.6
2025-09-14T2300,1945A,98.2908,39.7711,嘉峪关市,气象局,颗粒物(PM10),420,520,169,80,30,78,,130,114,19,15,52,13,1.6,0.7
2025-09-14T2300,2884A,98.2672,39.7978,嘉峪关市,酒钢宾馆,颗粒物(PM10),408,508,183,83,40,86,,134,122,24,18,40,35,1.1,1
2025-09-14T2300,3248A,98.2643,39.7724,嘉峪关市,雄关区,颗粒物(PM10),242,379,128,78,31,68,,122,106,,19,37,19,,0.4
2025-09-14T2300,1383A,113.1064,22.6058,江门市,北街,,12,7,17,3,7,37,,94,66,9,9,6,4,0.5,0.5
2025-09-14T2300,1384A,113.0731,22.5835,江门市,西区,,36,36,21,3,7,30,,90,60,16,13,12,9,0.4,0.5
2025-09-14T2300,1385A,113.0219,22.5311,江门市,圭峰西,,10,,19,7,10,25,,89,54,18,9,4,4,0.5,0.5
2025-09-14T2300,1386A,113.0828,22.5947,江门市,东湖,,13,13,19,8,10,29,,80,56,13,12,9,7,0.5,0.5
2025-09-14T2300,3311A,113.1075,22.5647,江门市,江海富民,,23,23,27,8,10,34,,91,62,16,15,6,5,0.5,0.4
2025-09-14T2300,3449A,113.05,22.4667,江门市,新会银湖,,16,16,20,10,11,26,,80,46,11,11,2,3,0.4,0.5
2025-09-14T2300,3335A,113.3137,35.2641,焦作市,马村街道办,颗粒物(PM10),52,53,41,28,27,82,,144,123,13,11,3,4,0.5,0.5
2025-09-14T2300,3336A,113.2465,35.2373,焦作市,焦作技师学院,颗粒物(PM10),53,56,48,17,18,79,,134,117,18,14,6,7,0.5,0.6
2025-09-14T2300,3477A,113.1656,35.2539,焦作市,中站许衡医院,细颗粒物(PM2.5),62,,37,44,29,100,,149,135,18,15,6,9,0.6,0.7
2025-09-14T2300,3981A,113.2449,35.1803,焦作市,原李万街道办,颗粒物(PM10),51,51,47,19,18,85,,141,124,20,19,8,12,0.4,0.6
2025-09-14T2300,4264A,113.2340,35.2190,焦作市,新安路1731号,颗粒物(PM10),57,63,51,20,23,91,,146,130,16,14,7,8,0.4,0.6
2025-09-14T2300,4295A,113.2722,35.2121,焦作市,人民路3066号,,49,49,46,11,15,83,,140,124,12,11,3,5,0.5,0.7
2025-09-14T2300,1708A,116.3701,23.5345,揭阳市,新兴,,20,20,26,14,15,31,,82,55,15,11,6,6,0.5,0.5
2025-09-14T2300,1709A,116.3264,23.5443,揭阳市,西马,,33,33,27,10,14,32,,81,58,13,10,4,4,0.5,0.4
2025-09-14T2300,1710A,116.3611,23.5626,揭阳市,东兴,,30,30,26,10,11,34,,81,57,10,10,6,7,0.6,0.6
2025-09-14T2300,1711A,116.4151,23.5294,揭阳市,渔湖,,18,,27,12,13,39,,94,61,6,7,4,6,0.5,0.5
2025-09-14T2300,3320A,116.403,23.5699,揭阳市,曲溪,,38,38,26,14,14,39,,94,64,11,9,5,6,0.6,0.4
2025-09-14T2300,1944A,102.1692,38.5167,金昌市,天庆家园,颗粒物(PM10),85,119,159,45,54,63,,114,85,27,25,8,30,0.5,0.4
2025-09-14T2300,4022A,102.1647,38.5371,金昌市,金川区人防中心,颗粒物(PM10),69,88,139,37,53,78,,110,81,12,25,21,36,0.5,0.6
2025-09-14T2300,4239A,102.1930,38.5319,金昌市,长春路96号,颗粒物(PM10),69,87,154,34,51,61,,103,87,19,20,13,51,0.9,0.8
2025-09-14T2300,1262A,119.647,29.077,金华市,十五中,,22,22,21,14,11,58,,142,94,12,11,3,2,0.5,0.5
2025-09-14T2300,1263A,119.686,29.1029,金华市,监测站,,31,31,16,16,10,28,,123,72,16,11,5,3,0.5,0.5
2025-09-14T2300,3659A,119.656,29.1131,金华市,气象局,,26,26,18,15,11,27,,123,73,24,15,4,3,0.5,0.4
2025-09-14T2300,1767A,121.1115,41.0879,锦州市,南山,,18,9,33,6,22,56,,114,76,11,12,5,6,0.3,0.6
2025-09-14T2300,1768A,121.0604,40.8428,锦州市,开发区,,22,22,46,6,25,26,,156,100,42,21,7,15,0.4,0.8
2025-09-14T2300,1769A,121.1836,41.1119,锦州市,百股街道,,16,16,30,3,15,50,,116,75,16,13,6,5,0.3,0.6
2025-09-14T2300,1770A,121.1178,41.1222,锦州市,天安街道,,17,15,35,3,19,52,,116,78,16,13,7,10,0.4,0.7
2025-09-14T2300,1771A,121.1303,41.1386,锦州市,北湖公园,,18,13,35,3,17,56,,107,74,10,11,5,7,0.4,0.7
2025-09-14T2300,2160A,112.85,35.5051,晋城市,自来水公司,颗粒物(PM10),53,55,48,19,27,121,,136,132,13,17,3,3,0.7,1.1
2025-09-14T2300,2161A,112.8318,35.4936,晋城市,白云商贸,,,54,56,19,20,,,138,138,14,22,3,3,0.5,0.6
2025-09-14T2300,2162A,112.8508,35.4887,晋城市,市环保局,,45,45,43,24,22,103,,123,118,11,14,3,4,0.4,0.7
2025-09-14T2300,2163A,112.8676,35.4897,晋城市,技术学院,,37,37,47,17,20,117,,129,126,10,17,4,5,0.6,1
2025-09-14T2300,3620A,112.8271,35.4828,晋城市,泽州一中,,45,45,51,22,20,122,,137,136,11,12,3,3,0.7,0.9
2025-09-14T2300,2173A,112.7249,37.7067,晋中市,南都小区,颗粒物(PM10),69,88,65,31,31,134,,150,134,14,20,7,11,0.9,1
2025-09-14T2300,2174A,112.6991,37.6982,晋中市,榆次区政府,颗粒物(PM10),62,73,69,22,29,134,,142,129,15,25,8,11,0.6,0.8
2025-09-14T2300,2865A,112.7195,37.6828,晋中市,榆次三中,颗粒物(PM10),57,63,64,31,26,141,,148,136,8,19,9,12,0.6,0.6
2025-09-14T2300,4200A,112.7478,37.6954,晋中市,迎宾街26号,颗粒物(PM10),60,70,57,31,24,142,,153,139,14,20,7,9,0.9,0.9
2025-09-14T2300,2439A,112.2014,31.0481,荆门市,竹园小学,,18,18,33,12,29,56,,74,69,11,14,3,2,0.2,0.4
2025-09-14T2300,2440A,112.1969,30.9891,荆门市,掇刀,,24,24,25,15,29,43,,70,65,17,12,1,1,0.5,0.6
2025-09-14T2300,2441A,112.2213,31.0386,荆门市,石化一小,,19,19,34,13,27,45,,68,64,14,17,3,5,0.5,0.6
2025-09-14T2300,3012A,112.1849,31.0362,荆门市,西山林语,,15,,28,10,23,38,,66,55,6,10,1,2,0.3,0.4
2025-09-14T2300,3547A,112.1632,31.0138,荆门市,龙泉中学南校,,17,17,21,9,14,31,,73,65,11,12,2,2,0.4,0.4
2025-09-14T2300,1844A,112.2494,30.3197,荆州市,市图书馆,,21,21,15,8,10,38,,67,61,15,13,5,4,0.5,0.6
2025-09-14T2300,1845A,112.2008,30.3544,荆州市,市委党校,,16,16,17,10,14,30,,64,56,17,15,6,6,0.5,0.6
2025-09-14T2300,3194A,112.2747,30.3122,荆州市,管委会,,24,24,18,12,14,32,,63,56,15,12,2,1,0.5,0.6
2025-09-14T2300,4268A,112.1722,30.3366,荆州市,学苑路85号,,19,13,16,13,16,29,,69,60,13,12,4,4,0.5,0.5
2025-09-14T2300,2343A,117.2117,29.2933,景德镇市,老干部活动中心,,30,27,18,21,11,31,,103,64,23,10,8,8,0.5,0.4
2025-09-14T2300,2344A,117.1894,29.2789,景德镇市,兽医站,,25,25,24,13,11,32,,105,68,12,7,6,5,0.9,0.8
2025-09-14T2300,2346A,117.2461,29.2956,景德镇市,陶研所,,28,25,23,19,13,35,,98,70,7,7,5,5,0.7,0.6
2025-09-14T2300,4289A,117.1542,29.2566,景德镇市,青少年活动中心,,25,22,19,17,12,41,,106,74,13,8,2,5,0.8,0.7
2025-09-14T2300,1803A,115.9872,29.6815,九江市,十里,,25,,13,17,13,31,,87,52,22,17,7,5,0.6,0.6
2025-09-14T2300,1804A,115.9584,29.7046,九江市,茅山头,,21,21,18,12,13,21,,78,46,26,14,4,4,0.5,0.5
2025-09-14T2300,1805A,115.9877,29.7295,九江市,西园,,20,7,16,6,8,26,,95,43,40,27,4,6,0.7,0.8
2025-09-14T2300,1808A,115.9114,29.6038,九江市,综合工业园,,17,12,18,3,7,15,,76,36,33,25,8,7,0.6,0.7
2025-09-14T2300,1809A,116.0721,29.7535,九江市,石化总厂,,18,9,19,3,11,21,,94,43,36,18,3,5,0.7,0.6
2025-09-14T2300,3190A,116.0254,29.6994,九江市,外国语学校,,30,,14,21,15,28,,89,47,26,16,4,6,0.8,0.8
2025-09-14T2300,4253A,116.0102,29.6594,九江市,莲花大道8号,,12,11,14,3,7,38,,75,50,7,5,5,4,0.5,0.5
2025-09-14T2300,4240A,98.4958,39.7339,酒泉市,玉门东路5号,颗粒物(PM10),500,647,172,104,41,91,,121,112,2,12,7,13,0.2,0.2
2025-09-14T2300,4241A,98.5099,39.7506,酒泉市,北大街108号,颗粒物(PM10),464,564,159,83,36,85,,115,107,2,6,10,13,0.2,0.4
2025-09-14T2300,2698A,76.0072,39.4467,喀什地区,巡警大队,颗粒物(PM10),90,129,194,45,59,70,,128,118,52,36,8,8,0.7,0.4
2025-09-14T2300,2699A,75.9755,39.4694,喀什地区,吾办,颗粒物(PM10),117,184,189,54,59,38,,125,110,57,23,7,9,0.7,0.3
2025-09-14T2300,4027A,75.9483,39.4689,喀什地区,老干局,颗粒物(PM10),101,152,151,62,36,23,,115,98,75,21,5,5,0.8,0.3
2025-09-14T2300,1824A,114.3389,34.7781,开封市,肿瘤医院,颗粒物(PM10),57,64,46,23,23,63,,125,101,24,16,4,4,0.7,0.7
2025-09-14T2300,1826A,114.2885,34.7965,开封市,世纪星幼儿园,颗粒物(PM10),53,56,45,22,26,86,,139,120,16,12,5,5,0.8,0.8
2025-09-14T2300,3147A,114.3438,34.8106,开封市,龙亭公园,,50,50,43,21,20,69,,128,106,17,10,6,6,0.8,0.8
2025-09-14T2300,3210A,114.3644,34.7964,开封市,汴京公园,颗粒物(PM10),55,60,48,28,27,54,,129,103,28,12,5,5,0.9,0.8
2025-09-14T2300,3473A,114.2485,34.8306,开封市,技师学院,,35,35,43,22,25,87,,125,110,8,8,6,7,0.8,0.9
2025-09-14T2300,3592A,114.4644,34.7556,开封市,祥符区生态环境局,颗粒物(PM10),53,55,39,20,20,40,,115,86,35,15,3,4,0.7,0.7
2025-09-14T2300,1951A,84.895,45.6094,克拉玛依市,长征新村,,20,20,15,8,6,56,,72,67,1,3,4,3,0.1,0.1
2025-09-14T2300,1952A,84.8988,45.5893,克拉玛依市,南林小区,,18,16,15,8,8,57,,70,65,1,5,6,6,0.2,0.2
2025-09-14T2300,1954A,84.905,44.3396,克拉玛依市,独山子区,,43,43,23,15,11,31,,62,51,26,12,4,4,0.7,0.5
2025-09-14T2300,1955A,85.6979,46.098,克拉玛依市,乌尔禾区商贸楼,颗粒物(PM10),60,70,20,3,7,56,,74,71,2,2,2,3,0.2,0.1
2025-09-14T2300,3612A,85.1045,45.6899,克拉玛依市,白碱滩区新站,,42,42,39,3,9,68,,79,78,2,3,4,4,0.1,0.1
2025-09-14T2300,2697A,76.1454,39.7142,克孜勒苏柯尔克孜自治州,市人民政府,颗粒物(PM10),86,122,127,37,46,62,,138,122,42,11,8,18,0.2,0.1
2025-09-14T2300,3665A,76.1658,39.7157,克孜勒苏柯尔克孜自治州,克州文化中心,颗粒物(PM10),99,147,129,46,41,75,,136,124,43,7,9,26,0.5,0.2
2025-09-14T2300,1450A,102.8204,24.8886,昆明市,呈贡新区,,30,,3,21,7,14,,45,32,20,12,8,3,0.6,0.4
2025-09-14T2300,1452A,102.7252,25.0902,昆明市,龙泉镇,,31,31,13,7,4,2,,30,19,14,16,1,1,0.6,0.4
2025-09-14T2300,1453A,102.7266,25.0375,昆明市,东风东路,,36,36,14,22,10,3,,34,25,26,20,3,3,0.6,0.4
2025-09-14T2300,1454A,102.6742,25.0669,昆明市,金鼎山,,31,31,14,12,6,1,,35,22,21,12,2,2,0.5,0.3
2025-09-14T2300,1455A,102.6644,25.0401,昆明市,碧鸡广场,,40,38,16,28,7,2,,32,20,24,16,8,7,0.7,0.5
2025-09-14T2300,3179A,102.7494,25.0119,昆明市,官渡区博物馆,,21,21,11,8,6,2,,37,24,21,18,2,1,0.8,0.4
2025-09-14T2300,3375A,102.8017,24.8336,昆明市,青年创业园,,19,19,9,8,5,0,,42,23,17,12,2,2,0.5,0.4
2025-09-14T2300,3550A,102.7997,24.9786,昆明市,昆明学院,,32,32,11,16,6,0,,36,22,24,13,8,7,0.7,0.5
2025-09-14T2300,3551A,102.5967,24.6736,昆明市,晋宁区生态环境分局,,23,23,14,12,5,26,,44,34,10,9,3,2,0.5,0.4
2025-09-14T2300,3552A,102.6678,24.9856,昆明市,云天化总部,,16,16,11,10,7,2,,35,24,26,16,5,5,0.7,0.6
2025-09-14T2300,1456A,91.1319,29.6514,拉萨市,八廓街,,25,8,9,3,6,80,,111,99,4,10,5,6,0.2,0.2
2025-09-14T2300,1457A,91.1221,29.6747,拉萨市,市环保局,,26,14,11,10,6,81,,115,101,7,11,7,7,0.4,0.4
2025-09-14T2300,1458A,91.0874,29.6475,拉萨市,区监测站,,26,10,9,7,6,82,,105,96,6,14,4,4,0.3,0.3
2025-09-14T2300,1459A,91.1774,29.6541,拉萨市,西藏大学,,23,16,9,8,6,72,,105,92,11,12,6,6,0.1,0.2
2025-09-14T2300,1460A,90.9798,29.6588,拉萨市,区辐射站,,21,11,12,9,11,66,,100,90,11,14,5,6,0.3,0.3
2025-09-14T2300,1461A,91.0834,29.6292,拉萨市,拉萨火车站,,25,10,10,7,7,80,,105,98,4,11,5,5,0.4,0.4
2025-09-14T2300,2520A,109.2203,23.7256,来宾市,来宾技工学校,,30,26,29,21,20,53,,71,65,11,12,7,9,0.7,0.7
2025-09-14T2300,3535A,109.1781,23.7297,来宾市,兴宾区政府,,,37,21,36,13,,,79,,17,8,12,8,0.6,0.6
2025-09-14T2300,4002A,109.2416,23.7461,来宾市,中南小学,,36,36,32,16,15,57,,78,69,14,14,12,13,0.5,0.6
2025-09-14T2300,1479A,103.831,36.0464,兰州市,铁路设计院,颗粒物(PM10),51,52,91,24,36,43,,137,91,26,41,9,13,0.5,0.6
2025-09-14T2300,3241A,103.7439,36.0842,兰州市,百合公园,颗粒物(PM10),56,61,100,28,31,46,,150,117,17,30,4,11,0.1,0.5
2025-09-14T2300,3242A,103.9611,35.998,兰州市,和平,,40,40,73,21,25,59,,117,90,9,12,7,8,0.5,0.4
2025-09-14T2300,4236A,103.6293,36.0938,兰州市,庄浪东路808号,颗粒物(PM10),74,97,119,40,43,60,,130,110,68,41,14,25,0.5,0.4
2025-09-14T2300,4237A,103.7251,36.1043,兰州市,安宁西路88号,颗粒物(PM10),57,63,126,19,40,59,,175,141,15,28,4,12,0.3,0.4
2025-09-14T2300,4238A,103.8470,36.0676,兰州市,北滨河东路1号,颗粒物(PM10),52,54,89,32,34,59,,158,115,16,30,9,11,0.4,0.4
2025-09-14T2300,3245A,103.6633,36.533,兰州新区,新区管委会,"颗粒物(PM10),细颗粒物(PM2.5)",63,76,78,45,38,72,,136,122,39,14,4,22,0.4,0.3
2025-09-14T2300,3246A,103.6975,36.4789,兰州新区,舟曲中学,颗粒物(PM10),65,79,102,28,37,89,,124,118,17,15,9,20,0.4,0.4
2025-09-14T2300,1067A,116.6708,39.5111,廊坊市,药材公司,颗粒物(PM10),68,86,62,32,22,14,,137,88,62,32,5,5,0.7,0.4
2025-09-14T2300,1068A,116.7214,39.5589,廊坊市,开发区,,47,47,45,20,18,35,,129,79,33,26,2,2,0.4,0.3
2025-09-14T2300,1070A,116.7244,39.5269,廊坊市,北华航天学院,颗粒物(PM10),66,81,50,27,20,14,,137,79,48,24,6,5,0.5,0.3
2025-09-14T2300,2919A,116.7022,39.5453,廊坊市,河北工业大学,颗粒物(PM10),55,60,43,24,21,20,,135,88,62,28,4,3,0.6,0.4
2025-09-14T2300,2535A,103.7723,29.5462,乐山市,花湖湾,细颗粒物(PM2.5),77,77,35,56,26,56,,106,100,26,11,8,7,0.7,0.6
2025-09-14T2300,2536A,103.7627,29.5844,乐山市,牛耳桥,细颗粒物(PM2.5),79,80,32,58,22,21,,108,77,37,20,6,6,1.0,0.7
2025-09-14T2300,2537A,103.7508,29.6006,乐山市,市第三水厂,细颗粒物(PM2.5),89,72,31,66,24,21,,107,86,37,17,4,4,1.1,0.7
2025-09-14T2300,2538A,103.7571,29.5664,乐山市,市监测站,细颗粒物(PM2.5),54,55,34,38,20,42,,107,92,30,14,7,8,1.0,0.8
2025-09-14T2300,3361A,103.7311,29.5628,乐山市,理工大学,细颗粒物(PM2.5),53,49,43,37,27,26,,114,86,40,18,7,8,0.9,0.8
2025-09-14T2300,2599A,100.2497,26.8802,丽江市,丽江古城,,39,39,25,15,9,45,,79,68,16,11,10,10,0.5,0.5
2025-09-14T2300,2600A,100.2203,26.8906,丽江市,市中心,,16,16,16,11,10,50,,84,74,14,11,11,11,0.6,0.6
2025-09-14T2300,1267A,119.914,28.4514,丽水市,监测站大楼,,19,19,16,6,6,22,,93,53,13,9,5,4,0.4,0.4
2025-09-14T2300,1268A,119.93,28.4586,丽水市,莲都小学,,21,21,15,13,6,18,,90,53,29,10,4,4,0.3,0.3
2025-09-14T2300,1269A,119.879,28.4231,丽水市,余庄前,,19,19,16,9,8,7,,97,40,13,11,4,4,0.4,0.4
2025-09-14T2300,1173A,119.176,34.5885,连云港市,市环境监测站,,45,41,33,31,26,58,,109,89,17,15,5,5,0.8,0.7
2025-09-14T2300,3000A,119.3581,34.6972,连云港市,德源药业,,44,44,40,22,23,30,,116,80,29,21,4,4,0.8,0.7
2025-09-14T2300,3007A,119.178,34.844,连云港市,新城一中,,32,32,32,16,23,55,,124,93,16,24,3,3,0.7,0.6
2025-09-14T2300,3008A,119.3608,34.7519,连云港市,胡沟管理处,,24,24,31,14,20,74,,118,99,13,15,5,5,0.9,0.9
2025-09-14T2300,3009A,119.1478,34.5911,连云港市,矿山设计院,,42,41,32,29,24,50,,98,83,18,14,6,6,1.0,0.8
2025-09-14T2300,3434A,119.2413,34.6539,连云港市,工贸学校,,25,25,30,15,19,65,,114,93,5,7,6,7,0.9,0.8
2025-09-14T2300,3664A,119.4172,34.7341,连云港市,连云街道,,21,21,32,7,15,60,,122,106,5,12,4,5,0.5,0.5
2025-09-14T2300,2571A,102.3431,27.8099,凉山彝族自治州,青龙寺,,32,32,25,9,9,44,,108,87,8,6,4,6,0.5,0.7
2025-09-14T2300,2572A,102.2721,27.8415,凉山彝族自治州,邛海宾馆,,29,29,29,16,15,44,,124,91,20,13,9,14,0.6,0.9
2025-09-14T2300,2573A,102.2625,27.898,凉山彝族自治州,西昌市政府,,25,25,28,16,19,57,,109,93,7,11,10,13,0.7,0.8
2025-09-14T2300,2574A,102.2685,27.8851,凉山彝族自治州,凉山州政府,,40,37,37,28,24,53,,116,95,13,14,10,13,1.0,1.1
2025-09-14T2300,4229A,102.2342,27.8859,凉山彝族自治州,凯乐南路30号,,31,31,36,16,17,55,,108,90,8,19,10,14,0.9,1
2025-09-14T2300,2212A,123.2,41.1953,辽阳市,宏伟区,,18,,44,12,24,27,,139,102,9,11,3,4,0.5,0.6
2025-09-14T2300,2213A,123.1683,41.2495,辽阳市,新华园,,29,29,48,3,19,43,,148,112,15,12,2,4,0.4,0.6
2025-09-14T2300,2214A,123.2354,41.2639,辽阳市,滨河路,,24,24,41,16,18,29,,146,103,20,11,4,6,0.4,0.6
2025-09-14T2300,2215A,123.149,41.2991,辽阳市,铁西工业园,,9,6,52,3,19,26,,145,100,13,12,3,5,0.5,0.8
2025-09-14T2300,2227A,125.1358,42.8845,辽源市,环保局,,36,36,41,3,12,51,,125,77,2,6,9,9,0.2,0.5
2025-09-14T2300,3239A,125.0764,42.9078,辽源市,银鹰制药,,19,19,32,6,16,46,,124,77,16,14,10,26,0.3,0.5
2025-09-14T2300,1625A,115.9848,36.4372,聊城市,区政府,,39,38,43,27,23,88,,135,125,16,13,10,10,0.7,0.7
2025-09-14T2300,2878A,116.0072,36.4343,聊城市,聊大东校,,44,44,47,27,27,91,,137,127,16,15,9,10,0.7,0.7
2025-09-14T2300,3200A,115.9819,36.4978,聊城市,监控中心,,40,40,45,17,22,97,,142,133,13,11,9,9,0.8,0.7
2025-09-14T2300,3513A,116.0445,36.4361,聊城市,九州社区,,48,48,63,31,28,95,,129,122,11,9,7,5,0.6,0.6
2025-09-14T2300,4018A,116.0567,36.4608,聊城市,星美广场,,44,44,48,28,26,100,,142,131,9,7,3,3,0.6,0.6
2025-09-14T2300,2632A,94.3681,29.6376,林芝市,林芝监测站,,20,8,9,6,5,63,,84,79,4,4,3,4,0.4,0.4
2025-09-14T2300,2633A,94.3616,29.6616,林芝市,林芝人民医院,,18,14,11,6,4,56,,78,73,4,2,6,6,0.5,0.5
2025-09-14T2300,2603A,100.0781,23.8982,临沧市,市环保局,,26,,14,18,22,5,,34,19,7,7,1,3,0.7,0.7
2025-09-14T2300,2604A,100.0894,23.8822,临沧市,市气象局,,22,,14,15,12,7,,31,20,9,8,7,7,0.6,0.6
2025-09-14T2300,1733A,111.5531,36.0783,临汾市,临钢医院,颗粒物(PM10),63,75,65,25,21,55,,144,110,22,20,5,7,1.3,1.3
2025-09-14T2300,1734A,111.5028,36.0714,临汾市,技工学校,颗粒物(PM10),71,92,69,43,39,39,,146,107,38,21,6,8,1.0,1.2
2025-09-14T2300,1736A,111.5018,36.0855,临汾市,市委,颗粒物(PM10),75,99,76,23,23,43,,152,111,39,25,5,7,1.0,1.2
2025-09-14T2300,3018A,111.505,36.1014,临汾市,唐尧大酒店,颗粒物(PM10),63,76,72,23,25,39,,148,105,35,22,6,8,1.0,1.2
2025-09-14T2300,4244A,111.4879,36.0530,临汾市,启星学校,颗粒物(PM10),68,85,64,40,35,21,,152,112,55,26,4,6,1.0,1.3
2025-09-14T2300,4271A,103.2464,35.6123,临夏回族自治州,滨河东路1号,颗粒物(PM10),93,136,104,60,38,11,,87,53,35,21,9,10,0.5,0.4
2025-09-14T2300,4310A,103.2093,35.5995,临夏回族自治州,新华街21号,颗粒物(PM10),82,114,98,59,40,46,,106,84,22,17,6,8,0.4,0.4
2025-09-14T2300,1618A,118.3429,35.0532,临沂市,沂河小区,,49,46,60,34,38,66,,152,111,21,26,11,12,0.5,0.6
2025-09-14T2300,1619A,118.295,35.0583,临沂市,鲁南制药厂,细颗粒物(PM2.5),55,56,58,39,35,64,,157,116,22,21,14,14,0.6,0.7
2025-09-14T2300,1620A,118.2794,34.9976,临沂市,新光毛纺厂,,40,36,53,28,34,59,,154,109,22,28,15,14,0.6,0.7
2025-09-14T2300,1621A,118.3956,35.0888,临沂市,河东保险公司,,,61,59,36,36,,,164,126,40,28,8,9,0.6,0.5
2025-09-14T2300,3370A,118.3564,35.0215,临沂市,十里堡居委,"颗粒物(PM10),细颗粒物(PM2.5)",52,53,56,36,42,59,,155,110,26,26,15,12,0.5,0.6
2025-09-14T2300,3496A,118.3604,35.1084,临沂市,南坊新区,,48,48,58,27,33,66,,172,120,45,22,10,12,0.7,0.7
2025-09-14T2300,3860A,118.3920,35.0300,临沂市,皇山花园小区,颗粒物(PM10),54,58,55,30,34,57,,155,105,30,24,11,13,0.5,0.5
2025-09-14T2300,1870A,109.4856,24.3895,柳州市,柳东小学,,25,25,29,16,17,48,,92,76,11,14,42,8,0.4,0.4
2025-09-14T2300,1871A,109.4157,24.3277,柳州市,环保监测站,,22,22,32,10,17,47,,85,74,17,13,7,8,0.6,0.6
2025-09-14T2300,1872A,109.389,24.341,柳州市,河西水厂,,29,29,44,14,22,56,,84,75,17,18,6,7,0.6,0.7
2025-09-14T2300,1873A,109.4311,24.2921,柳州市,市四中,,32,32,34,19,16,43,,88,76,24,19,8,7,0.8,0.8
2025-09-14T2300,1874A,109.4006,24.3631,柳州市,市九中,,33,33,47,19,25,50,,84,76,15,18,3,4,0.6,0.7
2025-09-14T2300,1875A,109.4958,24.3134,柳州市,古亭山,,19,19,30,12,21,30,,85,62,24,17,5,5,0.5,0.5
2025-09-14T2300,3402A,109.5422,24.3996,柳州市,市二中,,20,20,31,12,14,43,,91,74,21,19,6,7,0.6,0.7
2025-09-14T2300,2307A,116.5079,31.737,六安市,监测大楼,,11,,14,7,13,35,,62,30,5,8,4,4,0.3,0.2
2025-09-14T2300,2308A,116.4738,31.7643,六安市,皖西学院,,15,,14,10,12,38,,75,35,4,7,3,3,0.3,0.4
2025-09-14T2300,2309A,116.4996,31.7905,六安市,朝阳厂,,13,13,14,9,12,34,,70,31,9,14,5,6,0.4,0.5
2025-09-14T2300,2310A,116.5567,31.7886,六安市,开发区,,19,,9,13,14,24,,62,28,11,19,2,2,0.3,0.4
2025-09-14T2300,2577A,104.83,26.5917,六盘水市,黄土坡,,14,14,19,7,12,43,,77,64,10,10,3,4,0.1,0.2
2025-09-14T2300,2578A,104.89,26.5939,六盘水市,水钢,,42,42,33,13,19,46,,77,64,5,6,1,2,0.1,0.2
2025-09-14T2300,2579A,104.8475,26.5894,六盘水市,民中,,15,15,17,3,9,42,,77,62,10,11,2,3,0.3,0.4
2025-09-14T2300,2580A,104.9544,26.5506,六盘水市,双水,,20,,13,14,9,39,,70,59,5,7,3,3,0,0.1
2025-09-14T2300,2336A,117.0217,25.1033,龙岩市,龙岩市监测站,,19,15,24,3,14,58,,100,65,12,13,10,9,0.5,0.6
2025-09-14T2300,2337A,117.0258,25.0661,龙岩市,闽西职业技术学院,,28,28,32,14,17,36,,91,51,14,14,6,10,0.5,0.5
2025-09-14T2300,2338A,117.0196,25.0306,龙岩市,龙岩学院,,23,19,25,16,16,25,,84,52,19,10,6,6,0.6,0.5
2025-09-14T2300,2885A,104.9339,33.3826,陇南市,滨江中学,,43,43,35,20,15,90,,84,84,3,4,5,5,0.7,0.7
2025-09-14T2300,3247A,104.955,33.371,陇南市,市总工会,,42,42,42,16,11,90,,84,84,6,6,7,7,0.4,0.4
2025-09-14T2300,2487A,111.9589,27.8901,娄底市,电视发射台,,47,47,43,25,16,51,,96,76,5,6,5,5,0.4,0.4
2025-09-14T2300,2488A,111.9975,27.725,娄底市,市监测站,细颗粒物(PM2.5),54,42,33,38,21,73,,101,89,14,10,7,8,0.7,0.6
2025-09-14T2300,2489A,112.0194,27.7314,娄底市,市委党校,细颗粒物(PM2.5),57,50,31,40,25,79,,100,88,8,8,5,6,0.6,0.5
2025-09-14T2300,2490A,111.9561,27.7569,娄底市,涟钢,细颗粒物(PM2.5),52,51,36,36,19,67,,88,79,8,13,2,8,0.9,1.3
2025-09-14T2300,2491A,111.9892,27.7044,娄底市,市政府,细颗粒物(PM2.5),59,,27,42,23,82,,106,93,6,6,6,7,1.0,0.9
2025-09-14T2300,1893A,105.4324,28.9634,泸州市,九狮山,,42,42,30,7,7,20,,93,61,12,8,6,6,0.4,0.4
2025-09-14T2300,1894A,105.4427,28.9063,泸州市,小市上码头,,26,26,24,17,12,55,,83,71,12,11,4,4,0.6,0.5
2025-09-14T2300,1895A,105.4241,28.8573,泸州市,兰田宪桥,,32,32,29,16,11,24,,122,85,19,22,4,5,0.8,0.7
2025-09-14T2300,1896A,105.4379,28.8833,泸州市,市环监站,,,27,29,19,16,,,97,,32,17,6,6,0.6,0.5
2025-09-14T2300,4272A,105.3689,28.7783,泸州市,纳溪中医医院,,44,44,32,30,20,17,,127,78,33,22,2,2,0.8,0.7
2025-09-14T2300,2183A,111.1406,37.5211,吕梁市,环保局,颗粒物(PM10),76,102,65,24,21,54,,116,67,38,28,2,3,0.7,0.6
2025-09-14T2300,2185A,111.1297,37.5136,吕梁市,自来水公司,颗粒物(PM10),86,121,64,24,19,16,,107,74,42,22,4,4,0.5,0.6
2025-09-14T2300,2867A,111.1283,37.51,吕梁市,马茂庄小学,颗粒物(PM10),89,128,73,22,21,24,,116,65,45,30,5,5,0.6,0.7
2025-09-14T2300,1812A,112.3931,34.6516,洛阳市,市委党校,,29,29,32,13,15,92,,110,107,7,9,6,6,0.4,0.5
2025-09-14T2300,1815A,112.494,34.6886,洛阳市,河南林校,,43,43,40,17,18,71,,115,100,21,16,6,7,0.6,0.6
2025-09-14T2300,1816A,112.3844,34.623,洛阳市,开发区管委会,,33,21,30,16,18,103,,124,120,4,9,5,7,0.5,0.6
2025-09-14T2300,1817A,112.4267,34.6258,洛阳市,市委新办公区,,30,27,28,20,21,93,,111,108,5,8,8,9,0.5,0.6
2025-09-14T2300,3340A,112.6005,34.6326,洛阳市,伊滨,,41,41,37,19,19,64,,106,97,21,16,6,6,0.6,0.7
2025-09-14T2300,3341A,112.4951,34.6332,洛阳市,中移产业园,,31,31,30,16,17,78,,106,98,17,15,6,7,0.7,0.7
2025-09-14T2300,3593A,112.5736,34.8993,洛阳市,吉利监测站,,49,49,40,27,18,71,,122,93,14,11,6,6,0.6,0.5
2025-09-14T2300,3635A,112.3677,34.662,洛阳市,河科大西苑校区,,31,30,36,10,12,97,,115,112,10,17,8,9,0.5,0.6
2025-09-14T2300,3636A,112.4388,34.6781,洛阳市,英才小学,,28,28,30,18,19,88,,112,102,11,14,7,7,0.5,0.6
2025-09-14T2300,4214A,112.4600,34.6949,洛阳市,春都路1号院,,37,37,36,12,15,67,,106,89,19,18,8,9,0.5,0.5
2025-09-14T2300,2399A,114.051,33.5699,漯河市,三五一五工厂,,37,37,31,16,18,40,,107,79,20,14,9,7,0.7,0.6
2025-09-14T2300,2400A,114.0055,33.5698,漯河市,漯河大学,,26,26,29,9,17,51,,112,86,11,12,5,6,0.5,0.6
2025-09-14T2300,2401A,114.0138,33.5828,漯河市,市水利局,,25,22,30,17,18,48,,111,86,12,10,5,7,0.6,0.7
2025-09-14T2300,2402A,114.0261,33.5698,漯河市,市广电局,,27,27,32,18,19,46,,118,89,13,12,3,4,0.6,0.6
2025-09-14T2300,3478A,113.9749,33.5664,漯河市,市图书馆,,25,24,31,17,15,44,,107,84,15,12,5,6,0.5,0.5
2025-09-14T2300,4250A,114.0892,33.5882,漯河市,韶山路11号,,33,33,29,14,16,38,,114,81,19,12,4,6,0.5,0.5
2025-09-14T2300,1798A,118.5092,31.6837,马鞍山市,湖东路四小,,13,13,37,7,23,36,,105,69,18,22,6,7,0.5,1
2025-09-14T2300,1799A,118.5024,31.6449,马鞍山市,开发区,,15,11,39,3,20,47,,107,69,11,24,5,5,0.5,0.9
2025-09-14T2300,1802A,118.6245,31.7241,马鞍山市,濮塘,,18,12,27,8,20,56,,104,78,6,10,9,8,0.8,1.1
2025-09-14T2300,3633A,118.4918,31.6809,马鞍山市,雨山,,12,12,35,3,17,36,,97,64,20,23,9,10,0.3,0.7
2025-09-14T2300,4191A,118.5274,31.72227,马鞍山市,慈湖高新区,,13,9,43,7,22,39,,103,72,17,24,5,6,0.3,0.8
2025-09-14T2300,1686A,111.0286,21.4688,茂名市,电白南海,,14,14,18,9,13,42,,51,49,3,6,3,4,0.4,0.5
2025-09-14T2300,1687A,110.9294,21.6533,茂名市,茂石化七小,,18,14,16,12,7,33,,50,42,10,8,7,6,0.4,0.4
2025-09-14T2300,1688A,110.9107,21.6687,茂名市,健康路,,14,9,11,9,9,42,,54,48,8,8,4,5,0.6,0.6
2025-09-14T2300,1689A,110.8592,21.6828,茂名市,高岭,,22,22,25,3,3,29,,44,40,18,10,6,9,0.7,0.6
2025-09-14T2300,3450A,111.01,21.5165,茂名市,电白水东,,14,6,12,3,6,42,,49,48,5,8,5,7,0.6,0.6
2025-09-14T2300,2539A,104.0308,30.0478,眉山市,黑龙滩水库,,22,22,13,12,8,58,,114,97,4,2,3,3,0.3,0.3
2025-09-14T2300,2540A,103.8416,30.0874,眉山市,气象局,细颗粒物(PM2.5),144,142,40,110,22,25,,119,97,42,19,9,8,0.8,0.4
2025-09-14T2300,3137A,103.8578,30.0744,眉山市,市委党校,细颗粒物(PM2.5),92,95,21,68,10,14,,107,92,52,17,8,7,1.1,0.7
2025-09-14T2300,3148A,103.8291,30.0564,眉山市,区人社局,细颗粒物(PM2.5),110,126,44,83,19,36,,111,94,37,14,8,8,1.4,1
2025-09-14T2300,1690A,116.1231,24.3284,梅州市,梅江月梅,,33,33,26,10,15,44,,92,65,24,14,9,9,0.5,0.5
2025-09-14T2300,1691A,116.0797,24.2719,梅州市,梅县新城,,31,31,28,15,13,25,,84,60,22,15,8,8,0.7,0.6
2025-09-14T2300,1692A,116.1248,24.2654,梅州市,环境监控中心,,19,19,24,11,14,14,,81,48,38,17,4,6,0.6,0.5
2025-09-14T2300,3315A,116.1233,24.2991,梅州市,梅龙,,34,34,24,18,13,61,,86,64,11,12,11,11,0.8,0.7
2025-09-14T2300,1878A,104.7778,31.4741,绵阳市,富乐山,,30,30,28,14,17,59,,101,82,10,14,8,9,0.7,0.7
2025-09-14T2300,1880A,104.6697,31.4668,绵阳市,高新区自来水公司,颗粒物(PM10),55,60,41,27,16,4,,92,72,65,28,10,10,0.9,0.7
2025-09-14T2300,1881A,104.7287,31.5075,绵阳市,三水厂,颗粒物(PM10),52,54,40,28,23,9,,102,66,45,26,11,11,0.8,0.7
2025-09-14T2300,3491A,104.69,31.5322,绵阳市,西科大附属小学,颗粒物(PM10),62,74,47,36,23,12,,106,75,52,28,8,8,0.8,0.6
2025-09-14T2300,3492A,104.5648,31.5343,绵阳市,安州区旅游局,,49,48,30,34,19,14,,94,69,28,16,10,9,0.9,0.8
2025-09-14T2300,4226A,104.7651,31.4531,绵阳市,绵阳市气象局,,43,43,33,18,17,40,,97,86,35,21,7,7,0.7,0.6
2025-09-14T2300,1784A,129.61,44.561,牡丹江市,环保大楼,,30,22,24,15,17,93,,83,63,6,18,5,5,0.2,0.4
2025-09-14T2300,1785A,129.6115,44.5782,牡丹江市,文化广场,,30,29,36,21,25,93,,78,59,7,22,6,7,0.4,0.5
2025-09-14T2300,1786A,129.5904,44.5963,牡丹江市,第一医院,,39,32,43,27,28,88,,82,62,9,21,8,9,0.3,0.4
2025-09-14T2300,1787A,129.6364,44.6075,牡丹江市,机车工厂,,34,34,47,21,20,79,,77,56,14,17,5,6,0.3,0.5
2025-09-14T2300,1788A,129.6386,44.5462,牡丹江市,第一中学,,33,33,29,16,16,97,,81,60,6,15,5,5,0.3,0.3
2025-09-14T2300,2531A,105.0703,29.61,内江市,市监测站,,44,44,18,24,14,12,,99,54,32,17,4,4,0.6,0.5
2025-09-14T2300,2532A,105.0717,29.5947,内江市,东兴区政府,,25,25,11,13,8,34,,101,77,27,13,6,6,0.6,0.5
2025-09-14T2300,2533A,105.0653,29.5817,内江市,内江二中,,35,34,15,24,15,13,,104,71,40,18,3,3,0.9,0.8
2025-09-14T2300,2534A,105.0406,29.5822,内江市,内江日报社,,40,33,18,22,15,7,,118,77,80,27,7,6,0.9,0.7
2025-09-14T2300,4243A,92.0515,31.4787,那曲市,那曲市委宣传部,,38,12,32,3,10,120,,107,107,4,15,6,5,0.3,0.4
2025-09-14T2300,1290A,115.8931,28.6843,南昌市,省外办,,18,16,21,12,16,52,,78,64,2,6,4,5,0.8,0.9
2025-09-14T2300,1291A,115.8886,28.7003,南昌市,省林业公司,,15,9,15,9,12,47,,114,78,9,8,2,3,0.6,0.6
2025-09-14T2300,1292A,115.8126,28.7442,南昌市,林科所,,20,6,9,3,5,61,,119,84,12,9,5,5,0.9,0.7
2025-09-14T2300,1294A,115.8518,28.687,南昌市,建工学校,,18,15,19,6,11,57,,117,81,12,14,7,7,0.7,0.8
2025-09-14T2300,1295A,115.8921,28.6424,南昌市,象湖,,18,,16,7,8,57,,130,89,12,14,6,8,0.6,0.9
2025-09-14T2300,1296A,115.7423,28.7996,南昌市,武术学校,,11,11,15,7,10,17,,59,35,8,7,9,10,0.0,0.1
2025-09-14T2300,3046A,115.9084,28.6062,南昌市,机电学校,,25,25,24,12,10,54,,129,91,16,14,7,7,0.5,0.5
2025-09-14T2300,3690A,115.9721,28.7031,南昌市,外国语学校,,15,15,20,6,8,48,,121,78,10,10,5,7,0.3,0.4
2025-09-14T2300,4192A,115.9316,28.68677,南昌市,南京东路235号,,19,18,24,7,9,58,,131,88,11,11,10,11,0.7,0.8
2025-09-14T2300,1906A,106.0789,30.8023,南充市,南充市委,,37,37,29,20,18,20,,95,68,35,17,3,4,0.6,0.5
2025-09-14T2300,1907A,106.1031,30.8217,南充市,南充炼油厂,,44,44,34,23,17,28,,95,71,35,16,5,5,0.4,0.3
2025-09-14T2300,4227A,106.1083,30.7884,南充市,梨树横街98号,,45,42,29,31,21,32,,108,81,38,17,3,3,0.5,0.4
2025-09-14T2300,4304A,106.1172,30.843,南充市,清泉寺北路188号,,45,45,28,30,18,28,,100,79,36,15,4,4,0.5,0.3
2025-09-14T2300,4305A,106.067,30.7616,南充市,同庆路1号,,50,50,26,27,14,20,,102,76,40,16,5,6,0.5,0.4
2025-09-14T2300,1151A,118.8086,32.1065,南京市,迈皋桥,,14,7,25,3,20,42,,102,74,1,16,4,4,0.6,1
2025-09-14T2300,1152A,118.7538,32.0551,南京市,草场门,,13,6,32,3,19,40,,96,73,14,26,3,5,0.6,0.9
2025-09-14T2300,1153A,118.7794,32.0745,南京市,山西路,,13,12,36,3,14,41,,106,81,20,30,4,3,0.5,0.9
2025-09-14T2300,1154A,118.7752,32.0023,南京市,中华门,,13,6,25,3,19,39,,103,74,19,25,4,4,0.4,1.1
2025-09-14T2300,1155A,118.8109,32.0309,南京市,瑞金路,,10,6,28,3,20,29,,100,73,17,16,6,6,0.5,0.6
2025-09-14T2300,1156A,118.7997,32.0754,南京市,玄武湖,,,10,34,,15,36,,91,70,7,9,4,4,0.4,0.8
2025-09-14T2300,1157A,118.6414,32.0931,南京市,浦口,,8,8,25,3,11,23,,91,62,12,16,5,6,0.4,0.6
2025-09-14T2300,1158A,118.7356,31.9996,南京市,奥体中心,,15,6,32,3,21,46,,116,87,12,20,5,8,0.4,0.9
2025-09-14T2300,1159A,118.9125,32.1028,南京市,仙林大学城,,14,14,34,3,15,36,,111,83,18,19,6,8,0.7,1
2025-09-14T2300,3422A,118.8436,31.9198,南京市,江宁彩虹桥,,15,8,31,3,19,46,,120,87,11,16,6,7,0.5,1
2025-09-14T2300,3427A,118.8554,32.3578,南京市,六合雄州,,28,28,42,17,27,34,,121,86,22,22,6,7,0.9,1
2025-09-14T2300,4249A,118.8708,31.3402,南京市,汶溪路181号,,24,6,25,3,23,75,,117,102,8,12,5,6,0.6,0.9
2025-09-14T2300,4312A,119.019,31.6512,南京市,中山西路1号,,16,6,21,3,18,50,,96,79,8,15,4,4,0.4,0.8
2025-09-14T2300,1401A,108.3103,22.7881,南宁市,二十一中,,24,24,22,11,11,44,,64,58,11,11,5,5,0.4,0.5
2025-09-14T2300,1402A,108.3141,22.8528,南宁市,北湖,,22,22,27,7,15,49,,74,64,9,13,3,6,0.4,0.5
2025-09-14T2300,1403A,108.3206,22.8225,南宁市,市监测站,,18,16,20,12,11,42,,65,56,10,8,4,4,0.4,0.4
2025-09-14T2300,1404A,108.3829,22.8037,南宁市,大自然花园,,21,21,22,12,12,46,,62,57,7,10,6,5,0.5,0.5
2025-09-14T2300,1406A,108.2397,22.8467,南宁市,区农职院,,24,24,25,12,14,40,,69,58,14,16,7,9,0.4,0.5
2025-09-14T2300,1407A,108.3275,22.735,南宁市,英华嘉园,,26,26,24,9,12,37,,58,51,15,18,3,2,0.4,0.4
2025-09-14T2300,3401A,108.4834,22.7618,南宁市,红星社区,,19,19,26,12,15,44,,62,55,9,13,5,4,0.3,0.4
2025-09-14T2300,4221A,108.2177,22.7774,南宁市,乐贤路16号,,18,18,29,10,15,26,,58,42,22,20,6,6,0.5,0.5
2025-09-14T2300,2332A,118.1681,26.6369,南平市,南平市监测站,,18,18,17,11,8,31,,84,55,14,9,7,5,0.6,0.5
2025-09-14T2300,2333A,118.1825,26.6489,南平市,南平铝业有限公司,,29,29,19,3,7,34,,91,73,30,10,10,6,0.7,0.6
2025-09-14T2300,2334A,118.1756,26.6272,南平市,南平七中,,32,32,19,10,9,26,,86,56,14,6,5,4,0.6,0.5
2025-09-14T2300,1168A,120.9098,31.9663,南通市,狼山街道,,30,24,31,21,23,35,,125,81,41,18,4,5,1.4,0.9
2025-09-14T2300,1169A,120.86,32.0005,南通市,虹桥,,36,33,32,25,25,48,,132,97,37,23,5,5,1.4,1
2025-09-14T2300,1170A,120.87,32.02,南通市,城中,,35,25,38,24,22,49,,128,98,35,20,3,3,1.0,0.8
2025-09-14T2300,1171A,120.94,31.93,南通市,星湖花园,,36,32,31,25,24,27,,137,94,69,20,4,4,1.0,0.6
2025-09-14T2300,1172A,120.81,32.0417,南通市,紫琅学院,,39,,34,27,24,45,,118,85,31,23,4,5,1.3,1
2025-09-14T2300,3291A,121.067,32.062,南通市,通州监测站,,18,17,25,12,20,54,,120,89,11,11,1,2,0.9,0.9
2025-09-14T2300,3432A,120.9348,31.9883,南通市,环境教育馆,,42,31,38,29,25,52,,140,94,31,18,4,5,0.8,0.6
2025-09-14T2300,2404A,112.5224,33.0122,南阳市,瓦房庄,,36,36,36,14,13,47,,99,85,8,9,7,7,0.5,0.5
2025-09-14T2300,2405A,112.5003,32.9735,南阳市,汉画馆,,34,34,30,14,16,37,,92,77,17,13,8,8,0.6,0.6
2025-09-14T2300,2406A,112.5573,33.027,南阳市,气象站,,30,30,26,7,14,52,,107,92,7,7,5,6,0.6,0.6
2025-09-14T2300,2407A,112.5481,32.9689,南阳市,理工学院,,35,35,33,3,6,33,,98,81,22,12,11,9,0.6,0.6
2025-09-14T2300,4008A,112.5234,32.9922,南阳市,卧龙区政府,,30,30,29,16,17,41,,97,82,16,12,6,6,0.7,0.7
2025-09-14T2300,1234A,121.8358,29.911,宁波市,区环保大楼,,28,28,23,12,10,53,,135,88,23,19,5,6,0.5,0.5
2025-09-14T2300,1235A,121.56,29.82,宁波市,万里学院,,26,26,17,18,12,79,,126,115,11,9,8,7,0.6,0.6
2025-09-14T2300,1236A,121.713,29.9572,宁波市,龙赛医院,,32,32,29,14,10,67,,160,109,16,16,5,6,0.5,0.5
2025-09-14T2300,1239A,121.633,29.7733,宁波市,钱湖水厂,,21,20,19,12,11,66,,132,109,5,5,6,6,0.5,0.6
2025-09-14T2300,1240A,121.5856,29.8635,宁波市,太古小学,,27,27,20,11,9,74,,127,117,10,9,2,3,0.6,0.6
2025-09-14T2300,1241A,121.524,29.8674,宁波市,市环境监测中心,,25,25,20,16,9,77,,129,121,10,12,7,7,0.6,0.6
2025-09-14T2300,2871A,121.6147,29.9017,宁波市,万里国际学校,,27,26,22,12,11,85,,156,135,4,9,4,5,0.5,0.6
2025-09-14T2300,3710A,121.5594,29.8975,宁波市,白沙活动中心,,27,21,15,13,8,84,,151,141,14,14,8,7,0.5,0.5
2025-09-14T2300,2341A,119.5388,26.6612,宁德市,宁德市监测站,,23,,25,16,17,61,,144,110,17,11,4,4,0.6,0.7
2025-09-14T2300,3209A,119.5231,26.6562,宁德市,宁德一中,,30,,26,21,16,69,,143,113,8,8,4,5,0.4,0.6
2025-09-14T2300,2618A,98.8601,25.8567,怒江傈僳族自治州,州监测站,,30,30,17,13,11,11,,47,34,11,6,7,7,0.5,0.4
2025-09-14T2300,2619A,98.8546,25.8417,怒江傈僳族自治州,泸水一中,,9,9,13,6,8,1,,40,22,12,9,4,4,0.6,0.5
2025-09-14T2300,1888A,101.6891,26.571,攀枝花市,弄弄坪,,47,47,35,12,16,36,,133,119,25,20,4,13,1.0,1.6
2025-09-14T2300,1889A,101.5769,26.5928,攀枝花市,河门口,,45,45,29,22,13,36,,96,88,22,12,11,10,1.1,0.8
2025-09-14T2300,1890A,101.7169,26.585,攀枝花市,炳草岗,,28,28,42,10,16,35,,134,112,23,22,8,13,0.7,1.2
2025-09-14T2300,1891A,101.7369,26.5008,攀枝花市,仁和,,13,13,22,6,12,37,,113,93,7,12,8,12,0.6,1.1
2025-09-14T2300,2835A,101.7227,26.567,攀枝花市,四十中小,,27,27,29,13,16,38,,136,108,19,20,10,19,0.8,1.5
2025-09-14T2300,1604A,122.0303,41.1489,盘锦市,开发区,,17,14,32,3,24,54,,156,115,14,12,9,9,0.5,0.7
2025-09-14T2300,1605A,122.0485,41.0883,盘锦市,兴隆台,,20,14,35,3,19,63,,169,130,13,11,9,8,0.2,0.4
2025-09-14T2300,1606A,121.8297,41.1028,盘锦市,新生街道,,14,11,30,3,21,42,,151,101,19,21,6,5,0.3,0.5
2025-09-14T2300,1832A,113.3257,33.742,平顶山市,新华旅馆,颗粒物(PM10),53,55,40,26,17,35,,109,79,36,15,5,5,0.4,0.4
2025-09-14T2300,1833A,113.2919,33.737,平顶山市,规划设计院,,50,50,30,28,18,39,,104,84,32,12,5,4,0.8,0.7
2025-09-14T2300,1834A,113.182,33.774,平顶山市,平顶山工学院,,41,41,26,22,14,44,,103,91,32,10,7,6,0.5,0.4
2025-09-14T2300,3204A,113.3025,33.73,平顶山市,规划局,颗粒物(PM10),51,51,35,14,13,64,,107,90,23,13,5,4,0.6,0.5
2025-09-14T2300,3594A,112.8867,33.9116,平顶山市,石龙区,颗粒物(PM10),54,58,46,23,22,45,,108,80,34,22,6,6,0.5,0.5
2025-09-14T2300,2656A,106.6692,35.5461,平凉市,聚贤嘉苑,,45,45,36,23,16,65,,82,75,26,18,11,11,0.8,0.8
2025-09-14T2300,2657A,106.7021,35.5307,平凉市,博物馆,颗粒物(PM10),52,53,46,17,15,88,,83,83,13,17,10,10,0.6,0.6
2025-09-14T2300,2347A,114.0997,27.5002,萍乡市,武功山,,14,14,11,3,7,38,,84,62,8,4,11,11,0.6,0.6
2025-09-14T2300,2348A,113.8385,27.6434,萍乡市,中医院,,32,,30,22,17,69,,120,99,18,15,4,11,0.8,0.9
2025-09-14T2300,2349A,113.8493,27.6253,萍乡市,市政府车库,,24,21,26,15,23,74,,114,96,17,18,12,15,0.6,1.4
2025-09-14T2300,2350A,113.8676,27.6435,萍乡市,市环保局,,22,22,35,15,20,70,,122,98,11,13,7,15,0.4,1.1
2025-09-14T2300,2351A,113.866,27.6198,萍乡市,安源区政府,,35,34,31,24,20,36,,108,85,26,15,13,15,2.1,0.8
2025-09-14T2300,2319A,119.0141,25.4325,莆田市,荔城区仓后路,,33,33,41,14,22,38,,155,72,21,15,10,10,0.6,0.6
2025-09-14T2300,2320A,119.0015,25.4553,莆田市,莆田市监测站,,29,29,36,15,21,43,,160,81,15,12,8,8,0.6,0.6
2025-09-14T2300,2321A,119.1119,25.4561,莆田市,涵江区六中,,24,24,38,12,22,45,,143,72,15,16,7,7,0.3,0.5
2025-09-14T2300,2322A,119.1013,25.3215,莆田市,秀屿区政府,,15,13,29,10,18,46,,125,67,15,15,5,8,0.4,0.4
2025-09-14T2300,2392A,115.0312,35.7636,濮阳市,环保局,,35,35,36,24,26,75,,122,108,14,10,5,5,0.6,0.6
2025-09-14T2300,2394A,115.0574,35.7609,濮阳市,油田运输公司,,38,38,43,17,24,76,,128,110,14,10,4,4,0.7,0.7
2025-09-14T2300,3021A,115,35.7668,濮阳市,濮水河管理处,颗粒物(PM10),52,53,43,22,21,75,,124,108,18,14,9,4,0.4,0.4
2025-09-14T2300,4216A,115.0924,35.7686,濮阳市,任丘路479号,,47,47,49,22,26,73,,123,106,12,9,4,5,0.6,0.6
2025-09-14T2300,2601A,100.98,22.7633,普洱市,市环保局,,21,21,19,8,11,12,,28,22,5,3,6,6,0.6,0.5
2025-09-14T2300,2602A,100.9817,22.8322,普洱市,普洱第二中学,,31,31,22,12,11,5,,32,20,10,8,6,6,0.5,0.4
2025-09-14T2300,2262A,131.0518,45.8751,七台河市,新一中,,33,23,29,10,16,104,,92,92,7,13,10,10,0.8,1
2025-09-14T2300,3345A,131.0577,45.7879,七台河市,中波台,,23,16,32,8,9,73,,62,62,9,20,7,8,0.6,0.7
2025-09-14T2300,3637A,131.0176,45.7761,七台河市,人民广场,,30,21,36,11,13,93,,79,79,7,18,11,12,0.5,0.7
2025-09-14T2300,3684A,130.8781,45.8222,七台河市,新建矿广场,,26,,34,12,12,83,,71,70,4,20,10,12,0.5,0.7
2025-09-14T2300,1779A,123.9305,47.3636,齐齐哈尔市,安居小区,,12,11,26,3,10,38,,73,45,3,10,7,8,0.4,0.5
2025-09-14T2300,1780A,123.9488,47.3386,齐齐哈尔市,中心广场,,15,9,23,3,6,45,,82,50,4,8,5,6,0.3,0.4
2025-09-14T2300,1781A,123.9483,47.3227,齐齐哈尔市,农牧车辆厂,,12,9,28,3,10,36,,76,45,5,7,4,4,0.4,0.4
2025-09-14T2300,1783A,123.945,47.2988,齐齐哈尔市,市环境监测站,,12,7,21,6,11,37,,76,47,5,6,5,6,0.2,0.3
2025-09-14T2300,3662A,123.6333,47.2075,齐齐哈尔市,富区青少年活动中心,,18,,27,12,15,24,,64,39,20,10,6,7,0.5,0.6
2025-09-14T2300,2591A,107.9783,26.5747,黔东南苗族侗族自治州,市环境监测站,,19,,12,13,13,35,,52,46,8,4,2,3,0.4,0.4
2025-09-14T2300,2881A,107.8908,26.5311,黔东南苗族侗族自治州,凯里学院,,10,,10,7,11,27,,52,41,14,8,6,6,0.4,0.4
2025-09-14T2300,2593A,107.5228,26.2403,黔南布依族苗族自治州,小围寨,,12,12,8,3,2,20,,47,38,3,3,1,2,0.3,0.3
2025-09-14T2300,3538A,107.5175,26.2978,黔南布依族苗族自治州,沙坝,,19,19,13,7,5,17,,49,39,13,5,3,4,0.4,0.3
2025-09-14T2300,2589A,104.9022,25.0925,黔西南布依族苗族自治州,场坝街,,15,13,13,9,6,45,,43,43,6,7,5,5,0.3,0.3
2025-09-14T2300,2590A,104.8811,25.0992,黔西南布依族苗族自治州,坪东大道,,14,14,20,3,7,36,,38,35,5,8,2,2,0.5,0.5
2025-09-14T2300,2502A,108.6236,21.9667,钦州市,市环保站,,17,14,19,3,6,53,,55,53,9,12,2,4,0.4,0.4
2025-09-14T2300,2503A,108.6549,21.9481,钦州市,沙埠小学,,32,32,29,10,12,32,,54,46,19,13,1,3,0.5,0.5
2025-09-14T2300,2504A,108.5989,21.7431,钦州市,港区一小,,39,39,38,13,11,24,,44,42,31,17,6,6,0.4,0.5
2025-09-14T2300,3404A,108.5959,21.9633,钦州市,北职校,,16,16,22,8,9,49,,56,51,9,11,2,4,0.4,0.4
2025-09-14T2300,1043A,119.7493,40.0116,秦皇岛市,第一关,,41,32,49,26,25,7,,137,53,82,37,6,7,0.3,0.5
2025-09-14T2300,1044A,119.5897,39.9499,秦皇岛市,监测站,,43,43,52,14,17,64,,147,84,19,25,6,8,0.4,0.6
2025-09-14T2300,1046A,119.5251,39.9041,秦皇岛市,建设大厦,,46,46,55,10,15,28,,141,73,47,24,6,8,0.4,0.6
2025-09-14T2300,3132A,119.610547,39.943889,秦皇岛市,文明里,,25,22,51,17,19,64,,140,84,19,24,8,9,0.3,0.5
2025-09-14T2300,4198A,119.5090,39.8253,秦皇岛市,北戴河轮滑馆,颗粒物(PM10),59,68,56,20,21,22,,136,81,52,16,3,4,0.4,0.5
2025-09-14T2300,1307A,120.6659,36.2403,青岛市,仰口,,26,13,12,8,7,81,,93,84,6,7,11,10,0.7,0.7
2025-09-14T2300,1310A,120.4134,36.0658,青岛市,市南区东部子站,,35,12,22,9,17,109,,153,129,2,5,6,8,0.2,0.4
2025-09-14T2300,1311A,120.3664,36.1032,青岛市,四方区子站,,33,,26,14,20,103,,140,121,1,6,2,4,0.3,0.5
2025-09-14T2300,1312A,120.2994,36.054,青岛市,市南区西部子站,,36,17,23,10,16,115,,134,127,7,21,6,7,0.7,0.8
2025-09-14T2300,1313A,120.4581,36.0858,青岛市,崂山区子站,,29,9,18,7,12,91,,138,118,2,7,7,9,0.2,0.4
2025-09-14T2300,1315A,120.3999,36.3083,青岛市,城阳区子站,,30,17,29,10,14,96,,143,113,12,17,4,5,0.5,0.6
2025-09-14T2300,3362A,120.5014,36.4034,青岛市,即墨2号,,,,22,51,21,89,,61,,12,12,,5,0.3,0.3
2025-09-14T2300,3642A,120.3503,36.0736,青岛市,市北区南部,,30,19,23,9,15,96,,133,115,5,10,6,7,0.8,0.9
2025-09-14T2300,3643A,120.3948,36.1805,青岛市,李沧区北部,,25,,19,17,17,70,,117,94,12,14,5,6,0.4,0.5
2025-09-14T2300,4290A,120.1969,35.9546,青岛市,珠江路669号,,37,,19,15,19,117,,148,128,4,8,6,9,0.5,0.8
2025-09-14T2300,1702A,113.0426,23.691,清远市,环保大楼,颗粒物(PM10),51,51,45,22,25,116,,164,152,18,17,10,13,0.7,0.6
2025-09-14T2300,1703A,113.0208,23.7106,清远市,凤城街办,,39,39,37,19,20,121,,151,143,21,21,8,10,0.6,0.5
2025-09-14T2300,3025A,113.0477,23.6344,清远市,技师学院,颗粒物(PM10),52,54,42,31,22,108,,162,149,25,25,8,11,0.6,0.5
2025-09-14T2300,3318A,112.9903,23.7403,清远市,清新太和,,41,41,36,25,20,127,,140,135,19,19,6,6,0.6,0.6
2025-09-14T2300,3455A,113.076,23.7198,清远市,清城东城,,36,36,37,16,20,103,,150,139,15,16,8,9,0.6,0.6
2025-09-14T2300,2661A,107.6325,35.7357,庆阳市,庆阳五中,,42,42,36,21,17,114,,94,94,8,11,8,8,0.5,0.5
2025-09-14T2300,2662A,107.6364,35.7067,庆阳市,市环保局,,47,47,32,27,25,114,,97,97,9,10,4,4,0.5,0.5
2025-09-14T2300,1916A,103.7897,25.5035,曲靖市,环境监测站,,16,16,12,3,6,29,,56,47,7,8,3,4,0.4,0.4
2025-09-14T2300,1917A,103.8,25.5364,曲靖市,烟厂办公区,,12,12,12,3,5,35,,60,53,8,6,4,4,0.5,0.5
2025-09-14T2300,3376A,103.7947,25.462,曲靖市,南苑二区,,8,7,9,3,5,24,,58,49,11,6,4,4,0.6,0.6
2025-09-14T2300,3377A,103.7444,25.5261,曲靖市,曲靖师范学院,,13,13,10,6,5,36,,62,55,6,6,1,2,0.3,0.3
2025-09-14T2300,1264A,118.8692,28.9398,衢州市,环保大楼,,27,27,19,16,12,40,,94,72,16,8,3,3,0.4,0.4
2025-09-14T2300,1265A,118.8709,28.9666,衢州市,实验学校,,27,27,19,13,10,41,,102,74,13,9,5,4,0.4,0.3
2025-09-14T2300,1266A,118.8621,28.9808,衢州市,衢州学院,,23,23,18,13,11,42,,102,72,15,11,4,4,0.4,0.3
2025-09-14T2300,1611A,118.5819,24.9117,泉州市,涂山街,,29,29,33,12,17,34,,152,63,22,14,5,3,0.4,0.5
2025-09-14T2300,1612A,118.5972,24.8978,泉州市,津头埔,,29,29,31,7,16,35,,150,63,19,13,5,4,0.5,0.5
2025-09-14T2300,1613A,118.6663,24.9424,泉州市,万安,,39,39,33,13,16,17,,138,58,28,16,2,3,0.6,0.5
2025-09-14T2300,3529A,118.6333,24.9264,泉州市,城华南路,,19,19,29,9,16,26,,130,58,16,15,4,4,0.4,0.4
2025-09-14T2300,2626A,88.8876,29.2718,日喀则市,日喀则监测站,,29,8,11,3,2,90,,90,86,2,9,9,10,0,0.1
2025-09-14T2300,3726A,88.8781,29.2426,日喀则市,林业技术推广中心,,29,7,14,3,3,91,,90,86,3,5,6,6,0.0,0.1
2025-09-14T2300,1659A,119.471,35.4209,日照市,监测站,,32,27,36,22,30,64,,159,120,17,25,6,9,0.7,0.9
2025-09-14T2300,1660A,119.523,35.4216,日照市,市政府广场,,27,27,40,17,27,78,,161,126,31,21,7,9,0.8,1.1
2025-09-14T2300,1661A,119.5587,35.4044,日照市,港务局,,,34,43,,41,90,,162,126,23,21,4,7,0.8,1.1
2025-09-14T2300,3507A,119.5328,35.4625,日照市,职业技术学院,,44,44,43,27,28,72,,164,119,16,20,4,8,0.8,1.1
2025-09-14T2300,3604A,119.3266,35.1044,日照市,岚山环保分局,,27,27,36,13,18,78,,149,127,15,18,8,10,0.7,0.8
2025-09-14T2300,1835A,111.1922,34.7752,三门峡市,市政府,,31,26,33,14,12,98,,107,98,12,17,6,8,0.4,0.4
2025-09-14T2300,1836A,111.1587,34.7942,三门峡市,开发区,,34,34,32,15,15,81,,98,88,17,14,6,6,0.4,0.4
2025-09-14T2300,3039A,111.1911,34.7829,三门峡市,三门峡市第一小学,,30,20,32,16,13,94,,102,94,8,12,3,6,0.5,0.5
2025-09-14T2300,3598A,111.1,34.7167,三门峡市,富达温泉假日酒店,,33,33,32,20,20,87,,107,96,14,16,6,9,0.4,0.4
2025-09-14T2300,2324A,117.6211,26.2625,三明市,三钢,,25,25,18,14,15,29,,87,62,17,10,8,5,0.6,0.9
2025-09-14T2300,2325A,117.635,26.2714,三明市,三明二中,,25,,28,17,11,29,,79,60,12,7,3,3,0.8,0.7
2025-09-14T2300,2326A,117.6028,26.2378,三明市,三元区政府,,26,21,18,18,9,28,,97,66,9,11,1,4,0.4,0.9
2025-09-14T2300,1876A,109.5078,18.2489,三亚市,河东子站,,14,14,10,6,7,17,,26,22,9,8,2,2,0.7,0.7
2025-09-14T2300,1877A,109.4964,18.2681,三亚市,河西子站,,11,11,10,6,3,14,,27,23,9,6,4,4,0.5,0.5
2025-09-14T2300,3540A,109.7348,18.3443,三亚市,君悦子站,,18,18,12,7,4,12,,37,30,14,6,3,3,0.4,0.4
2025-09-14T2300,2624A,91.7608,29.2313,山南市,山南监测站,,29,6,6,3,3,91,,88,88,1,6,3,3,0.2,0.2
2025-09-14T2300,2625A,91.7706,29.2436,山南市,山南人民医院,,28,6,8,3,4,88,,87,87,1,5,3,3,0.2,0.2
2025-09-14T2300,1674A,116.6794,23.3667,汕头市,金平子站,,16,,16,9,9,51,,77,58,10,11,2,4,0.5,0.6
2025-09-14T2300,1675A,116.7244,23.3633,汕头市,龙湖子站,,17,14,17,3,7,52,,78,64,9,10,7,8,0.6,0.7
2025-09-14T2300,1676A,116.7258,23.2775,汕头市,濠江子站,,13,,18,7,7,39,,86,70,13,8,5,6,0.6,0.7
2025-09-14T2300,1677A,116.7519,23.4714,汕头市,澄海子站,,18,9,22,8,12,56,,94,57,8,12,4,6,0.6,0.7
2025-09-14T2300,1678A,116.6092,23.2539,汕头市,潮阳子站,,17,,18,8,8,52,,73,63,4,5,5,6,0.5,0.5
2025-09-14T2300,3444A,116.454,23.2684,汕头市,潮南峡山,,26,26,18,17,11,39,,74,53,8,7,6,7,0.5,0.4
2025-09-14T2300,3624A,116.4069,23.2533,汕头市,潮南子站,,19,19,20,9,9,36,,65,48,7,6,4,5,0.6,0.6
2025-09-14T2300,1693A,115.3653,22.775,汕尾市,市环保局,,15,6,7,3,5,48,,52,52,8,7,3,4,0.4,0.3
2025-09-14T2300,1694A,115.3706,22.7898,汕尾市,市政府,,15,12,8,8,3,46,,50,49,9,6,4,4,0.4,0.3
2025-09-14T2300,1695A,115.3622,22.7925,汕尾市,新城中学,,17,17,10,9,6,30,,49,41,16,9,5,5,0.6,0.4
2025-09-14T2300,2645A,109.9154,33.8715,商洛市,监测站,,22,22,26,10,8,38,,82,58,17,13,4,20,0.5,0.6
2025-09-14T2300,3045A,109.9643,33.8471,商洛市,商州区中学,,31,31,31,10,7,26,,79,49,23,14,5,19,0.3,0.4
2025-09-14T2300,2408A,115.6702,34.4285,商丘市,环境监测站,,36,36,29,17,15,40,,93,72,20,7,4,4,0.5,0.5
2025-09-14T2300,2409A,115.6458,34.4045,商丘市,粮食局,,30,30,31,16,14,52,,91,73,13,8,3,4,0.1,0.2
2025-09-14T2300,2410A,115.6293,34.3948,商丘市,睢阳区环保局,,40,40,32,16,17,48,,87,70,11,7,4,4,0.4,0.4
2025-09-14T2300,3171A,115.6071,34.4465,商丘市,梁园区档案局,,38,38,27,17,17,53,,91,75,10,6,4,4,0.8,0.7
2025-09-14T2300,1141A,121.4,31.238,上海市,普陀,,35,22,30,19,26,112,,130,111,18,19,6,6,0.6,0.7
2025-09-14T2300,1142A,121.478,31.2036,上海市,十五厂,,39,33,31,25,26,122,,137,117,22,17,9,8,0.7,0.8
2025-09-14T2300,1143A,121.467,31.3008,上海市,虹口,,37,28,34,15,27,118,,120,94,17,19,8,7,1.0,0.4
2025-09-14T2300,1147A,121.425,31.2261,上海市,静安监测站,,41,25,30,23,27,129,,139,122,18,18,4,4,0.7,0.8
2025-09-14T2300,1148A,121.703,31.1907,上海市,浦东川沙,,46,42,30,32,29,97,,108,107,21,19,8,7,0.8,0.9
2025-09-14T2300,1149A,121.533,31.2284,上海市,浦东新区监测站,,37,30,28,24,21,118,,134,116,17,15,5,5,0.4,0.5
2025-09-14T2300,1150A,121.577,31.2071,上海市,浦东张江,,50,39,30,35,32,112,,129,120,25,21,6,6,0.7,0.8
2025-09-14T2300,3265A,121.4316,31.3322,上海市,宝山庙行,,31,22,40,16,31,97,,133,94,18,23,8,8,0.4,0.6
2025-09-14T2300,3266A,121.8791,31.4662,上海市,崇明上实东滩,,35,19,22,14,18,111,,142,128,11,7,5,4,0.4,0.5
2025-09-14T2300,3268A,121.3162,31.2838,上海市,嘉定南翔,,32,21,31,14,31,102,,127,100,22,25,4,4,0.3,0.4
2025-09-14T2300,3269A,121.3359,30.7456,上海市,金山新城,,34,20,20,17,22,106,,134,132,11,10,4,4,0.8,0.8
2025-09-14T2300,3270A,121.4996,31.0739,上海市,闵行浦江,,35,28,29,21,23,110,,121,115,12,12,4,4,1.2,1.2
2025-09-14T2300,3271A,121.2886,31.1663,上海市,青浦徐泾,,37,27,27,23,26,118,,127,110,18,13,6,7,0.7,0.8
2025-09-14T2300,3272A,121.2186,31.0378,上海市,松江图书馆,,34,,27,21,26,107,,123,114,18,16,4,4,0.7,0.7
2025-09-14T2300,3273A,121.3902,31.2059,上海市,长宁仙霞,,35,24,29,20,25,111,,119,103,19,19,7,7,0.6,0.7
2025-09-14T2300,3274A,121.7965,31.0507,上海市,浦东惠南,,23,23,25,12,20,66,,128,121,25,19,6,6,0.7,0.7
2025-09-14T2300,3544A,121.4891,30.925,上海市,奉贤南桥新城,,33,,27,18,24,105,,120,114,11,14,5,6,0.7,0.8
2025-09-14T2300,4183A,121.4174,31.16637,上海市,冠生园路458号,,32,24,27,22,25,101,,119,106,19,18,4,4,0.8,0.8
2025-09-14T2300,4205A,121.5419,31.2683,上海市,宁武路151号,,35,32,33,24,24,104,,116,96,28,27,4,4,0.6,0.8
2025-09-14T2300,2382A,117.9756,28.4436,上饶市,市监测站,,38,38,22,20,10,32,,93,51,15,7,35,9,0.4,0.3
2025-09-14T2300,2383A,117.9519,28.4628,上饶市,凤凰光学,,39,39,24,20,12,20,,92,47,24,9,13,11,0.2,0.2
2025-09-14T2300,3685A,117.897,28.4315,上饶市,双创科技城,,30,30,22,21,13,38,,91,51,15,14,26,10,0.4,0.3
2025-09-14T2300,4211A,118.1904,28.4448,上饶市,裕丰大道,,31,31,23,6,9,20,,77,47,22,10,10,8,0.5,0.5
2025-09-14T2300,1669A,113.5824,24.7733,韶关市,市八中,,38,38,56,21,30,105,,150,134,17,12,8,10,0.7,0.6
2025-09-14T2300,1671A,113.5917,24.7972,韶关市,园林处,,49,48,34,34,26,107,,153,134,19,15,14,14,0.7,0.7
2025-09-14T2300,1673A,113.5971,24.6863,韶关市,曲江监测站,,37,37,37,20,23,70,,150,122,25,17,11,14,0.7,0.7
2025-09-14T2300,2809A,113.6668,24.7756,韶关市,大学路288号,,43,31,38,30,24,78,,151,122,11,12,6,10,0.5,0.6
2025-09-14T2300,3622A,113.5556,24.8082,韶关市,碧湖山庄,颗粒物(PM10),51,52,38,30,22,92,,158,141,21,14,6,7,0.8,0.7
2025-09-14T2300,2464A,111.5283,27.2442,邵阳市,市化工厂,,,48,33,27,26,,,93,,20,16,6,5,0.5,0.4
2025-09-14T2300,2466A,111.4328,27.2272,邵阳市,市环保局,,49,48,35,34,20,58,,86,80,16,13,10,6,0.8,0.7
2025-09-14T2300,4218A,111.4460,27.2472,邵阳市,北塔二期4-26地块,,49,40,35,34,20,29,,70,63,20,13,7,7,0.7,0.5
2025-09-14T2300,4219A,111.4739,27.2282,邵阳市,邵水西路287号,细颗粒物(PM2.5),53,46,41,37,25,59,,90,79,17,17,14,11,0.5,0.5
2025-09-14T2300,1247A,120.6053,29.9928,绍兴市,城东开发委,,22,22,14,10,9,55,,109,96,19,10,6,5,0.3,0.3
2025-09-14T2300,2921A,120.5483,30.0003,绍兴市,树下王站,,23,23,12,11,3,62,,123,109,16,8,5,5,0.3,0.3
2025-09-14T2300,3408A,120.5683,29.9361,绍兴市,绍兴中专,,17,17,13,11,10,45,,113,97,30,12,6,6,0.4,0.3
2025-09-14T2300,3409A,120.4906,30.0861,绍兴市,柯桥区政府,,15,13,19,9,11,46,,128,104,24,12,12,7,0.5,0.5
2025-09-14T2300,3410A,120.8752,30.0249,绍兴市,重华小学,,27,22,16,12,11,84,,124,124,12,10,8,8,0.2,0.2
2025-09-14T2300,3411A,120.8369,30.0137,绍兴市,上虞中学,,26,24,15,14,11,82,,133,130,16,10,7,6,0.5,0.5
2025-09-14T2300,3560A,120.4722,30.0415,绍兴市,柯桥妇保,,19,19,17,12,11,54,,134,113,15,9,4,4,0.5,0.5
2025-09-14T2300,3658A,120.6153,30.0764,绍兴市,袍江中学,,17,12,13,7,7,54,,131,110,16,11,6,5,0.6,0.6
2025-09-14T2300,1356A,114.1063,22.5545,深圳市,通心岭子站,,15,10,11,3,3,45,,84,70,18,11,8,8,0.5,0.5
2025-09-14T2300,1357A,114.117,22.5625,深圳市,洪湖,,20,11,13,3,4,62,,76,68,10,13,7,7,0.5,0.6
2025-09-14T2300,1358A,113.987,22.5417,深圳市,华侨城,,20,13,13,6,6,21,,73,54,39,21,8,8,0.6,0.5
2025-09-14T2300,1359A,113.9181,22.5171,深圳市,南海子站,,17,15,14,8,7,28,,68,58,33,18,6,7,0.5,0.5
2025-09-14T2300,1360A,114.2458,22.5689,深圳市,盐田,,17,11,12,3,4,54,,54,54,6,11,6,7,0.5,0.5
2025-09-14T2300,1361A,114.2283,22.7244,深圳市,龙岗,,17,6,10,3,3,52,,67,62,8,11,7,6,0.9,0.9
2025-09-14T2300,1363A,114.494,22.5422,深圳市,南澳,,14,9,6,3,2,42,,63,56,3,5,6,6,0.6,0.5
2025-09-14T2300,1364A,114.41,22.6342,深圳市,葵涌,,18,18,11,9,4,16,,64,50,20,11,6,6,0.6,0.5
2025-09-14T2300,1365A,114.297,22.5978,深圳市,梅沙,,15,11,10,3,2,46,,63,56,4,9,6,6,0.3,0.4
