timepoint,stationcode,longitude,latitude,area,positionname,primarypollutant,aqi,pm10,pm10_24h,pm2_5,pm2_5_24h,o3,o3_24h,o3_8h,o3_8h_24h,no2,no2_24h,so2,so2_24h,co,co_24h
2024-08-26T0600,2566A,102.1879,31.914,阿坝藏族羌族自治州,州农科所,,12,12,35,3,9,32,,,,7,18,6,10,0,0
2024-08-26T0600,2568A,102.2502,31.8896,阿坝藏族羌族自治州,马师校,,15,11,18,10,11,36,,,,10,10,4,3,0.4,0.4
2024-08-26T0600,3994A,102.2165,31.9024,阿坝藏族羌族自治州,马尔康中学西区,,19,17,20,13,16,40,,,,10,9,5,4,0.4,0.4
2024-08-26T0600,2695A,80.292,41.1694,阿克苏地区,电视台,颗粒物(PM10),57,63,73,30,23,58,,,,23,18,2,3,0.5,0.5
2024-08-26T0600,2696A,80.2613,41.1551,阿克苏地区,艺术中心,颗粒物(PM10),58,65,69,22,19,27,,,,26,26,5,4,0.6,0.6
2024-08-26T0600,2204A,105.6467,38.8363,阿拉善盟,西城区西花园,,33,30,41,14,19,103,,,,6,9,6,8,1.3,1.3
2024-08-26T0600,2205A,105.6985,38.8411,阿拉善盟,蒙二幼,,30,7,20,6,10,96,,,,3,6,8,8,0.5,0.6
2024-08-26T0600,2206A,105.724,38.8516,阿拉善盟,环保局新楼,,33,8,12,6,7,105,,,,4,6,9,9,0.4,0.5
2024-08-26T0600,2708A,88.1264,47.8517,阿勒泰地区,市站,,20,9,15,3,7,62,,,,5,14,7,7,0.5,0.5
2024-08-26T0600,2630A,80.1161,32.5,阿里地区,阿里监测站,,28,,5,3,2,89,,,,2,6,6,7,0.3,0.3
2024-08-26T0600,3192A,80.0903,32.5028,阿里地区,阿里藏医院,,27,7,10,3,3,85,,,,3,4,7,7,0.3,0.3
2024-08-26T0600,2642A,109.0318,32.6537,安康市,香溪洞,,22,20,28,15,14,48,,,,4,11,6,6,0.4,0.4
2024-08-26T0600,2643A,109.0281,32.6939,安康市,安康市监测站,,31,31,29,17,15,27,,,,8,7,20,10,0.5,0.5
2024-08-26T0600,2644A,109.0072,32.6975,安康市,汉滨区检察院,,20,20,20,8,10,39,,,,7,8,8,10,0.6,0.5
2024-08-26T0600,2291A,117.0809,30.5177,安庆市,环科院,,29,28,42,20,28,62,,,,14,21,6,9,0.6,0.7
2024-08-26T0600,2292A,117.0331,30.5119,安庆市,马山宾馆,,35,30,42,24,28,55,,,,18,24,9,10,0.6,0.7
2024-08-26T0600,2294A,116.9896,30.6145,安庆市,安庆大学,,46,40,41,32,31,46,,,,22,14,8,8,0.7,0.7
2024-08-26T0600,3173A,117.0598,30.5351,安庆市,市人大,,46,46,44,28,30,41,,,,27,15,8,8,0.8,0.9
2024-08-26T0600,3122A,105.9606,26.2611,安顺市,伍家关,,,,,,,,,,,,,,,,
2024-08-26T0600,3123A,105.9408,26.2431,安顺市,凤凰山,,15,9,9,3,6,47,,,,3,3,8,8,0.4,0.4
2024-08-26T0600,3124A,105.9439,26.2564,安顺市,金钟山,,16,12,11,3,6,49,,,,3,3,6,5,0.3,0.3
2024-08-26T0600,3125A,105.8983,26.2481,安顺市,娄家坡,,15,6,8,3,5,47,,,,3,3,7,7,0.5,0.5
2024-08-26T0600,1818A,114.4839,36.0621,安阳市,棉研所,,,,,,,,,,,,,,,,
2024-08-26T0600,1819A,114.3551,36.1017,安阳市,红庙街,,34,34,54,19,27,58,,,,2,8,2,4,0.3,0.6
2024-08-26T0600,1820A,114.361,36.0681,安阳市,银杏小区,,,37,46,,14,48,,,,2,5,1,2,0.3,0.5
2024-08-26T0600,3141A,114.3922,36.0878,安阳市,信访局,,37,37,47,18,22,56,,,,2,8,2,2,0.5,0.6
2024-08-26T0600,3669A,114.4705,36.0637,安阳市,左辅环卫站,,46,,48,32,31,40,,,,8,9,6,7,0.5,0.6
2024-08-26T0600,3703A,114.2917,36.0949,安阳市,安钢职工学校,,46,35,62,32,35,51,,,,6,14,4,7,0.5,1.1
2024-08-26T0600,1748A,123.044,41.1196,鞍山市,深沟寺,,18,18,36,8,20,52,,,,11,15,4,6,0.6,0.9
2024-08-26T0600,1749A,123.011,41.0931,鞍山市,太阳城,,19,19,33,11,20,52,,,,11,16,5,7,0.5,0.8
2024-08-26T0600,1750A,123.0485,41.1442,鞍山市,太平,,23,23,41,9,22,46,,,,27,23,6,7,0.5,0.8
2024-08-26T0600,1751A,122.9642,41.0971,鞍山市,铁西三道街,,36,36,49,9,22,18,,,,37,34,4,11,0.7,1.3
2024-08-26T0600,1752A,122.9341,41.0833,鞍山市,铁西工业园区,,50,50,54,13,23,11,,,,35,33,7,11,0.6,1
2024-08-26T0600,1753A,123.022,41.0821,鞍山市,明达新区,,17,17,34,8,22,51,,,,9,18,4,6,0.5,0.8
2024-08-26T0600,1754A,123.1289,41.0228,鞍山市,千山,,,,,,,,,,,,,,,,
2024-08-26T0600,2195A,107.4212,40.761,巴彦淖尔市,附二中,,40,,29,28,20,86,,,,6,7,5,4,0.5,0.5
2024-08-26T0600,2196A,107.37,40.7372,巴彦淖尔市,市环保大楼,,32,32,40,13,12,98,,,,3,5,6,3,0.3,0.4
2024-08-26T0600,1956A,86.1472,41.7538,巴音郭楞蒙古自治州,孔雀公园,,47,47,97,3,31,73,,,,17,25,6,6,0.3,0.3
2024-08-26T0600,1957A,86.1972,41.7166,巴音郭楞蒙古自治州,棉纺厂,,44,44,107,18,36,57,,,,36,23,5,5,0.2,0.2
2024-08-26T0600,1958A,86.2357,41.7173,巴音郭楞蒙古自治州,经济开发区,颗粒物(PM10),52,53,93,17,36,90,,,,5,9,6,6,0.2,0.2
2024-08-26T0600,2914A,106.7677,31.8794,巴中市,苏山坪,,27,22,26,18,20,84,,,,10,7,3,4,0.4,0.5
2024-08-26T0600,3182A,106.7656,31.8545,巴中市,丽阳花园,,28,25,32,19,26,47,,,,12,16,4,4,0.5,0.5
2024-08-26T0600,3183A,106.7418,31.8654,巴中市,圣泉水务公司,,20,20,28,14,21,59,,,,8,12,4,4,0.5,0.6
2024-08-26T0600,3616A,106.7616,31.8344,巴中市,市中心医院,,35,30,34,24,26,25,,,,19,16,5,6,0.7,0.7
2024-08-26T0600,2235A,122.7911,45.6077,白城市,洮北区环保局,,15,9,17,6,10,47,,,,4,5,5,7,0.5,0.5
2024-08-26T0600,2236A,122.8738,45.5725,白城市,市环保局,,15,15,20,3,6,42,,,,9,8,2,4,0.4,0.5
2024-08-26T0600,2231A,126.4219,41.9171,白山市,喜丰,颗粒物(PM10),62,74,52,24,24,11,,,,18,17,12,11,0.8,0.9
2024-08-26T0600,2232A,126.4077,41.9419,白山市,环保局,,47,47,47,24,29,21,,,,12,17,14,14,0.6,0.7
2024-08-26T0600,2647A,104.1724,36.5446,白银市,第三小学,颗粒物(PM10),80,109,58,35,23,86,,,,6,11,4,8,0.5,0.6
2024-08-26T0600,2648A,104.1465,36.5482,白银市,动力公司,颗粒物(PM10),71,91,51,36,25,80,,,,4,7,4,6,0.5,0.5
2024-08-26T0600,2512A,106.6103,23.9011,百色市,市监测站,,31,31,24,11,11,8,,,,9,10,4,8,0.6,0.7
2024-08-26T0600,2513A,106.6538,23.8859,百色市,市中心血站,,41,41,27,14,12,6,,,,14,12,3,7,0.6,0.7
2024-08-26T0600,3406A,106.6085,23.8798,百色市,祈福高中,,46,46,31,10,10,6,,,,12,13,3,5,0.8,0.8
2024-08-26T0600,2270A,117.396,32.939,蚌埠市,工人疗养院,,39,39,47,12,20,40,,,,11,18,10,10,0.3,0.5
2024-08-26T0600,2271A,117.3605,32.9427,蚌埠市,百货大楼,,38,38,47,14,24,41,,,,5,10,7,7,0.4,0.6
2024-08-26T0600,2273A,117.4185,32.8911,蚌埠市,蚌埠学院,,27,27,37,15,21,37,,,,12,12,6,6,0.4,0.6
2024-08-26T0600,2274A,117.3533,32.9673,蚌埠市,淮上区政府,,39,39,47,17,27,38,,,,16,12,8,8,0.7,0.8
2024-08-26T0600,2275A,117.3145,32.8977,蚌埠市,高新区,,31,31,40,16,22,42,,,,8,9,7,6,0.5,0.7
2024-08-26T0600,3715A,117.3092,32.9314,蚌埠市,蚌埠田家炳中学,,33,33,42,15,25,40,,,,3,6,4,5,0.4,0.6
2024-08-26T0600,1585A,109.8756,40.6532,包头市,市环境监测站,,34,8,18,3,8,108,,,,8,21,6,7,0.3,0.5
2024-08-26T0600,1587A,109.9991,40.5842,包头市,包头八中,,31,11,25,3,14,97,,,,7,23,3,22,0.5,0.9
2024-08-26T0600,1588A,109.8538,40.6821,包头市,青山宾馆,,34,6,12,3,9,107,,,,4,20,4,6,0.5,0.6
2024-08-26T0600,1589A,109.8642,40.6288,包头市,惠龙物流,,34,8,16,3,10,108,,,,7,19,6,9,0.5,0.7
2024-08-26T0600,1590A,110.0377,40.5546,包头市,东河鸿龙湾,,29,9,12,3,6,91,,,,7,16,4,10,0.7,0.8
2024-08-26T0600,3283A,109.9154,40.5685,包头市,滨河大厦,,30,6,9,3,7,93,,,,13,16,7,11,0.4,0.5
2024-08-26T0600,3419A,109.9447,40.6261,包头市,包头市委党校,,32,,16,6,7,102,,,,6,19,4,6,0.3,0.5
2024-08-26T0600,3683A,109.8331,40.6576,包头市,昆区政府,,33,8,14,3,10,104,,,,6,19,4,6,0.4,0.5
2024-08-26T0600,1930A,107.185,34.3063,宝鸡市,庙沟村,,25,25,45,15,27,50,,,,5,9,7,7,0.3,0.4
2024-08-26T0600,1931A,107.0708,34.3017,宝鸡市,竹园沟,,24,24,47,15,27,42,,,,8,13,8,8,0.5,0.6
2024-08-26T0600,1932A,107.1906,34.3672,宝鸡市,三陆医院,,25,25,48,13,27,55,,,,16,16,9,9,0.7,0.8
2024-08-26T0600,1933A,107.1431,34.3547,宝鸡市,监测站,,19,13,62,13,29,48,,,,16,20,7,8,0.4,0.5
2024-08-26T0600,1934A,107.1186,34.3739,宝鸡市,技工学校,,22,20,49,15,32,57,,,,10,14,8,9,0.6,0.7
2024-08-26T0600,1935A,107.3906,34.3528,宝鸡市,陈仓区环保局家属楼,,28,28,44,16,23,66,,,,9,15,7,8,0.6,0.6
2024-08-26T0600,1936A,107.2058,34.3497,宝鸡市,文理学院,,22,22,44,9,22,54,,,,10,15,9,10,0.6,0.7
2024-08-26T0600,1937A,107.2386,34.3622,宝鸡市,三迪小学,,21,21,47,9,24,61,,,,4,11,8,9,0.6,0.7
2024-08-26T0600,1051A,115.493,38.8632,保定市,游泳馆,,35,12,23,6,9,110,,,,5,11,1,3,0.3,0.2
2024-08-26T0600,1052A,115.5213,38.8959,保定市,华电二区,,36,14,21,13,13,114,,,,2,8,2,3,0.2,0.2
2024-08-26T0600,1053A,115.4713,38.9108,保定市,接待中心,,33,18,27,3,9,105,,,,2,5,3,2,0.6,0.5
2024-08-26T0600,1054A,115.4612,38.8416,保定市,地表水厂,,35,25,33,3,9,109,,,,2,5,3,2,0.4,0.4
2024-08-26T0600,3581A,115.31981,38.95208,保定市,满城区生态环境分局,,,7,16,,14,109,,,,3,10,4,4,0.4,0.3
2024-08-26T0600,3582A,115.47694,38.76408,保定市,清苑区第二中学,,35,24,30,18,17,109,,,,3,12,6,5,0.5,0.4
2024-08-26T0600,3583A,115.62909,39.02311,保定市,徐水物探局,,34,11,21,7,7,107,,,,2,9,4,3,0.5,0.4
2024-08-26T0600,4004A,115.4202,38.8656,保定市,双鹰农机,,39,11,22,6,9,124,,,,1,6,2,2,0.8,0.4
2024-08-26T0600,4034A,115.5150,38.8590,保定市,植保所站,,40,8,20,8,11,126,,,,2,7,1,2,0.1,0.1
2024-08-26T0600,2594A,99.1678,25.1081,保山市,市环境监测站,,35,35,27,13,12,31,,,,7,9,5,6,0.5,0.5
2024-08-26T0600,2595A,99.1711,25.1328,保山市,市环保局,,31,31,26,8,10,48,,,,4,6,5,6,0.5,0.5
2024-08-26T0600,1866A,109.2262,21.588,北海市,牛尾岭水库,,,,,,,,,,,,,,,,
2024-08-26T0600,1867A,109.1436,21.4086,北海市,海滩公园,,15,15,18,3,5,47,,,,5,5,4,4,0.6,0.7
2024-08-26T0600,1868A,109.0981,21.4661,北海市,新市环保局,,17,8,15,7,10,53,,,,6,7,3,3,0.4,0.4
2024-08-26T0600,1869A,109.1778,21.5233,北海市,北海工业园,,15,6,23,3,12,47,,,,5,7,4,4,0.4,0.4
2024-08-26T0600,3400A,109.1911,21.4415,北海市,龙潭自来水厂,,15,6,16,3,11,47,,,,4,7,4,4,0.4,0.5
2024-08-26T0600,1001A,116.3621,39.8784,北京市,万寿西宫,,25,14,33,10,20,79,,,,7,14,3,3,0.6,0.7
2024-08-26T0600,1002A,116.2202,40.2915,北京市,定陵,,31,12,20,7,9,98,,,,1,3,2,2,0.4,0.4
2024-08-26T0600,1003A,116.4174,39.9289,北京市,东四,,26,11,35,8,19,83,,,,11,18,3,3,0.6,0.6
2024-08-26T0600,1004A,116.4072,39.8863,北京市,天坛,,26,13,30,11,18,82,,,,10,15,3,3,0.6,0.6
2024-08-26T0600,1005A,116.462,39.9365,北京市,农展馆,,24,12,35,9,20,76,,,,5,11,3,3,0.5,0.6
2024-08-26T0600,1006A,116.3392,39.9295,北京市,官园,,25,13,33,9,18,80,,,,6,14,3,3,0.5,0.6
2024-08-26T0600,1007A,116.2878,39.9611,北京市,海淀万柳,,26,12,32,8,16,83,,,,4,14,2,2,0.3,0.4
2024-08-26T0600,1008A,116.6636,40.135,北京市,顺义新城,,29,7,29,6,19,91,,,,3,7,3,3,0.3,0.5
2024-08-26T0600,1009A,116.6275,40.3275,北京市,怀柔镇,,35,6,22,3,14,112,,,,4,8,5,5,0.4,0.5
2024-08-26T0600,1010A,116.2296,40.217,北京市,昌平镇,,24,16,25,10,12,74,,,,5,12,4,4,0.5,0.4
2024-08-26T0600,1011A,116.3966,39.9821,北京市,奥体中心,,26,10,32,8,17,83,,,,11,18,1,2,0.4,0.6
2024-08-26T0600,1012A,116.184,39.9136,北京市,古城,,26,18,36,11,15,81,,,,7,19,1,1,0.4,0.5
2024-08-26T0600,3281A,115.9718,40.4529,北京市,延庆夏都,,35,7,17,3,8,111,,,,1,8,3,3,0.3,0.4
2024-08-26T0600,3417A,117.0709,40.1465,北京市,平谷新城,,23,22,36,16,23,65,,,,3,7,3,3,0.7,0.7
2024-08-26T0600,3418A,116.8336,40.4095,北京市,密云新城,,34,6,21,3,11,106,,,,2,4,3,3,0.3,0.4
2024-08-26T0600,3671A,116.088,39.9726,北京市,门头沟三家店,,30,6,27,3,13,94,,,,3,12,1,1,0.5,0.5
2024-08-26T0600,3672A,116.1541,39.8204,北京市,丰台云岗,,26,16,33,11,16,81,,,,5,16,3,3,0.5,0.5
2024-08-26T0600,3673A,116.6804,39.9081,北京市,通州东关,颗粒物(PM10),52,54,50,33,29,75,,,,5,11,3,3,0.7,0.7
2024-08-26T0600,3674A,115.9577,39.7603,北京市,房山燕山,,29,14,26,11,15,90,,,,5,10,3,3,0.5,0.4
2024-08-26T0600,3675A,116.4672,39.7733,北京市,大兴旧宫,,24,20,31,16,19,76,,,,3,10,3,3,0.8,0.6
2024-08-26T0600,3694A,115.986,40.4563,北京市,延庆石河营,,32,6,15,3,10,102,,,,1,7,3,3,0.3,0.3
2024-08-26T0600,3695A,116.6151,40.3053,北京市,怀柔新城,,35,6,22,3,14,110,,,,2,5,3,3,0.4,0.5
2024-08-26T0600,3696A,116.2545,39.8768,北京市,丰台小屯,,27,13,31,8,15,84,,,,4,16,6,6,0.5,0.5
2024-08-26T0600,3697A,116.84,40.3844,北京市,密云镇,,31,9,22,3,12,97,,,,1,6,3,2,0.3,0.5
2024-08-26T0600,1761A,123.8275,41.3064,本溪市,大峪,,40,40,43,14,19,10,,,,28,19,7,8,0.9,0.9
2024-08-26T0600,1762A,123.7567,41.3325,本溪市,溪湖,,39,39,50,14,21,7,,,,30,23,3,4,1.1,1
2024-08-26T0600,1763A,123.7169,41.3094,本溪市,彩屯,颗粒物(PM10),73,96,64,51,28,8,,,,28,25,7,7,1.8,1.2
2024-08-26T0600,1764A,123.7669,41.2864,本溪市,东明,,38,38,48,13,22,17,,,,33,26,6,6,1.1,1.1
2024-08-26T0600,1765A,123.7992,41.2664,本溪市,新立屯,,18,18,44,8,17,29,,,,27,27,4,4,1.0,1.1
2024-08-26T0600,1766A,123.8142,41.3472,本溪市,威宁,,43,43,45,19,24,15,,,,22,21,8,9,0.9,1
2024-08-26T0600,2587A,105.2864,27.3125,毕节市,八中,,20,,21,14,16,11,,,,17,11,6,8,0.4,0.3
2024-08-26T0600,2588A,105.31,27.2944,毕节市,师专,,18,18,21,12,13,25,,,,18,13,10,8,0.5,0.5
2024-08-26T0600,3537A,105.3631,27.3533,毕节市,长征村,,12,10,18,8,15,35,,,,6,6,6,7,0.4,0.4
2024-08-26T0600,1629A,118.0018,37.3617,滨州市,第二水厂,细颗粒物(PM2.5),62,63,58,44,34,32,,,,27,19,4,8,1.2,1
2024-08-26T0600,1630A,117.9776,37.393,滨州市,北中新校,"颗粒物(PM10),细颗粒物(PM2.5)",62,73,64,44,36,52,,,,33,22,7,11,1.1,0.8
2024-08-26T0600,3514A,117.9378,37.3956,滨州市,中海酒店,颗粒物(PM10),57,63,59,34,30,53,,,,27,18,8,14,1.0,0.9
2024-08-26T0600,3515A,117.9378,37.3553,滨州市,开发区一中,颗粒物(PM10),63,75,64,44,36,35,,,,34,23,10,11,1.0,0.8
2024-08-26T0600,3516A,118.0917,37.694,滨州市,金海六路,,34,34,47,22,23,89,,,,6,9,4,6,0.6,0.6
2024-08-26T0600,4028A,117.9956,37.3753,滨州市,滨州市西街道办事处,细颗粒物(PM2.5),64,63,60,46,35,34,,,,26,16,5,12,1.4,1
2024-08-26T0600,2311A,115.8072,33.8399,亳州市,污水处理厂,,43,39,39,30,26,56,,,,10,9,7,15,0.8,0.8
2024-08-26T0600,2312A,115.7789,33.8518,亳州市,三国揽胜宫,,42,37,44,29,31,69,,,,6,5,5,13,0.7,0.7
2024-08-26T0600,3332A,115.7633,33.8034,亳州市,亳州学院,,36,36,36,23,26,74,,,,9,7,13,7,0.5,0.6
2024-08-26T0600,2693A,82.0485,44.8556,博尔塔拉蒙古自治州,市党校,,22,22,28,15,11,53,,,,9,7,7,7,0.3,0.4
2024-08-26T0600,2694A,82.0806,44.8969,博尔塔拉蒙古自治州,市环保局,,26,26,30,8,10,65,,,,8,10,6,5,0.4,0.4
2024-08-26T0600,1071A,116.8842,38.2991,沧州市,沧县城建局,,35,32,31,14,21,109,,,,5,15,3,3,0.8,0.8
2024-08-26T0600,1072A,116.8584,38.3254,沧州市,电视转播站,,34,29,34,12,20,107,,,,7,15,1,4,0.6,0.6
2024-08-26T0600,1073A,116.8709,38.3228,沧州市,市环保局,,34,23,33,16,21,106,,,,6,14,2,6,0.6,0.5
2024-08-26T0600,3324A,116.8136,38.3004,沧州市,河北水利电力学院,,35,,34,14,17,111,,,,5,15,5,7,0.4,0.5
2024-08-26T0600,2622A,97.1806,31.1273,昌都市,昌都监测站,,23,,15,10,10,71,,,,8,8,6,6,0.4,0.4
2024-08-26T0600,3719A,97.1714,31.1406,昌都市,昌都会议中心,,25,11,15,8,8,78,,,,4,5,7,7,0.4,0.4
2024-08-26T0600,2690A,88.1236,43.8886,昌吉回族自治州,天山天池,,23,17,29,3,12,71,,,,3,4,14,16,0.4,0.5
2024-08-26T0600,2692A,87.2717,44.0297,昌吉回族自治州,新区政务中心,,24,24,34,13,12,71,,,,16,17,9,11,0.6,0.6
2024-08-26T0600,3613A,87.3095,44.0142,昌吉回族自治州,亚心广场,,24,24,39,12,9,74,,,,20,19,7,6,0.3,0.3
2024-08-26T0600,1119A,125.3325,43.9166,长春市,食品厂,,23,23,29,13,16,37,,,,26,21,5,4,0.4,0.4
2024-08-26T0600,1120A,125.2863,43.9027,长春市,客车厂,,23,23,28,8,17,39,,,,22,16,7,7,0.6,0.5
2024-08-26T0600,1121A,125.2841,43.8463,长春市,邮电学院,,23,23,25,13,13,44,,,,18,17,7,6,0.5,0.4
2024-08-26T0600,1122A,125.3716,43.8772,长春市,劳动公园,,25,25,29,10,12,37,,,,25,16,8,7,0.5,0.5
2024-08-26T0600,1123A,125.3297,43.8805,长春市,园林处,,20,20,24,12,12,45,,,,20,13,5,4,0.6,0.5
2024-08-26T0600,1124A,125.4605,43.79,长春市,净月潭,,17,17,22,9,10,15,,,,7,8,5,5,0.3,0.3
2024-08-26T0600,1125A,125.7194,43.515,长春市,甩湾子,,,,,,,,,,,,,,,,
2024-08-26T0600,1126A,125.3863,43.8447,长春市,经开区环卫处,,17,17,27,11,13,38,,,,21,17,6,6,0.5,0.5
2024-08-26T0600,1127A,125.245,43.7783,长春市,高新区管委会,,19,19,27,8,15,29,,,,24,14,3,3,0.5,0.5
2024-08-26T0600,1128A,125.1761,43.8325,长春市,岱山公园,,25,25,27,14,14,28,,,,28,20,4,3,0.4,0.4
2024-08-26T0600,1335A,113.0833,28.2325,长沙市,经开区环保局,,42,42,38,21,21,31,,,,21,15,1,2,0.4,0.4
2024-08-26T0600,1336A,112.8872,28.2189,长沙市,高开区环保局,,34,34,37,20,17,59,,,,13,11,5,4,0.7,0.7
2024-08-26T0600,1337A,113.0792,28.2053,长沙市,马坡岭,,46,36,36,32,22,23,,,,15,10,3,4,0.6,0.6
2024-08-26T0600,1338A,112.9394,28.19,长沙市,湖南师范大学,颗粒物(PM10),54,57,45,22,24,33,,,,15,13,5,7,0.6,0.6
2024-08-26T0600,1339A,113.0178,28.1322,长沙市,雨花区环保局,,35,35,36,17,16,52,,,,13,10,6,7,0.4,0.4
2024-08-26T0600,1340A,112.9792,28.2597,长沙市,伍家岭,,45,45,40,25,20,28,,,,26,11,4,3,0.6,0.5
2024-08-26T0600,1341A,113.0014,28.1944,长沙市,火车新站,,32,30,38,22,21,57,,,,12,10,5,5,0.4,0.4
2024-08-26T0600,1342A,112.9844,28.1178,长沙市,天心区环保局,,37,37,39,23,22,51,,,,17,16,4,4,0.2,0.2
2024-08-26T0600,1343A,112.8908,28.1308,长沙市,湖南中医药大学,,44,44,38,18,17,42,,,,21,12,7,7,0.6,0.3
2024-08-26T0600,1344A,112.9581,28.3611,长沙市,沙坪,,23,23,19,15,19,37,,,,12,10,6,8,0.7,0.6
2024-08-26T0600,1727A,113.1147,36.1547,长治市,清华站,,,,31,,18,,,105,,,8,,6,,0.6
2024-08-26T0600,1728A,113.1031,36.1989,长治市,监测站,,31,31,39,17,18,99,,,,7,11,7,7,0.8,1
2024-08-26T0600,1730A,113.0886,36.2125,长治市,审计局,,32,28,33,22,18,98,,,,1,5,4,5,0.5,0.7
2024-08-26T0600,1731A,113.0844,36.1856,长治市,长治八中,,32,28,37,19,20,101,,,,4,8,4,5,0.5,0.7
2024-08-26T0600,2845A,113.1569,36.1911,长治市,德盛苑,,33,26,34,19,19,103,,,,2,5,6,7,0.6,0.8
2024-08-26T0600,3568A,113.06,36.0464,长治市,向阳小学,细颗粒物(PM2.5),52,50,52,36,32,105,,,,5,6,7,7,0.5,0.5
2024-08-26T0600,3569A,112.8792,36.3144,长治市,屯留一中,,41,41,45,27,31,112,,,,4,7,7,8,0.6,0.6
2024-08-26T0600,3570A,113.235,36.3489,长治市,潞城四中,,34,24,37,20,28,107,,,,5,11,8,7,0.4,0.7
2024-08-26T0600,1854A,111.6975,28.9703,常德市,市二中,细颗粒物(PM2.5),70,,32,51,27,15,,,,18,16,10,9,0.6,0.5
2024-08-26T0600,1857A,111.7158,29.1456,常德市,白鹤山,,,,,,,,,,,,,,,,
2024-08-26T0600,3138A,111.7153,29.0289,常德市,武陵区永安,,45,44,37,31,23,30,,,,18,15,14,9,0.6,0.6
2024-08-26T0600,3139A,111.6892,28.9881,常德市,鼎城区玉霞,细颗粒物(PM2.5),58,50,40,41,30,11,,,,19,17,6,6,0.8,0.6
2024-08-26T0600,3140A,111.6625,29.0531,常德市,武陵区长庚,,42,32,39,29,28,42,,,,10,12,17,9,0.6,0.6
2024-08-26T0600,1196A,119.9633,31.762,常州市,市监测站,,33,33,38,19,22,19,,,,25,18,5,7,0.4,0.7
2024-08-26T0600,1200A,119.9468,31.7069,常州市,武进监测站,,36,36,35,16,21,16,,,,26,15,9,9,0.9,1.1
2024-08-26T0600,1201A,119.9255,31.9087,常州市,安家,,30,30,31,20,23,10,,,,28,23,5,6,0.7,0.9
2024-08-26T0600,3002A,119.9805,31.8174,常州市,行政中心,,29,29,29,19,24,20,,,,25,21,9,9,0.3,0.7
2024-08-26T0600,3003A,120.0522,31.7748,常州市,经开区,,32,32,30,17,19,15,,,,24,17,10,10,0.5,0.8
2024-08-26T0600,3010A,119.9025,31.7964,常州市,钟楼,,27,27,34,16,20,17,,,,29,20,8,9,0.5,0.7
2024-08-26T0600,3429A,119.8598,31.7066,常州市,武进经发区,,39,39,35,19,21,17,,,,32,22,10,11,0.6,0.8
2024-08-26T0600,3430A,119.5826,31.7245,常州市,金坛城区,,35,35,36,20,21,20,,,,31,21,9,10,0.6,0.7
2024-08-26T0600,2220A,120.4318,41.5881,朝阳市,西梁,,35,35,30,14,14,14,,,,28,16,13,11,0.6,0.5
2024-08-26T0600,2221A,120.4521,41.5646,朝阳市,河畔小区,,27,27,23,8,5,23,,,,13,9,8,7,0.8,0.6
2024-08-26T0600,2222A,120.4176,41.5648,朝阳市,八里堡,,48,48,36,14,11,16,,,,23,18,8,8,0.8,0.7
2024-08-26T0600,2223A,120.3806,41.5969,朝阳市,农业园区,,26,26,25,11,10,18,,,,13,12,5,4,0.6,0.6
2024-08-26T0600,1705A,116.6367,23.6719,潮州市,西园路,,24,24,32,16,21,16,,,,8,12,3,5,0.3,0.4
2024-08-26T0600,3026A,116.6183,23.6608,潮州市,市政府,,35,35,41,16,22,23,,,,8,14,8,14,0.6,0.7
2024-08-26T0600,4036A,116.6461,23.6761,潮州市,金山,,23,23,31,13,18,23,,,,7,10,6,7,0.6,0.7
2024-08-26T0600,2472A,113.0073,25.9061,郴州市,马头岭,,27,27,26,3,9,23,,,,12,9,8,8,0.4,0.4
2024-08-26T0600,2473A,113.0116,25.8226,郴州市,市职中,,26,26,24,17,17,16,,,,15,13,10,8,0.5,0.5
2024-08-26T0600,2474A,113.0161,25.8001,郴州市,兴隆步行街,,24,24,28,9,13,22,,,,16,12,6,6,0.5,0.5
2024-08-26T0600,2475A,113.0383,25.8071,郴州市,市审计局,,20,20,20,7,13,24,,,,13,10,3,3,0.4,0.4
2024-08-26T0600,2476A,113.0348,25.7759,郴州市,市环保局,,19,18,23,13,13,20,,,,18,14,4,4,0.4,0.4
2024-08-26T0600,1431A,103.9728,30.7236,成都市,金泉两河,,34,6,42,3,30,107,,,,4,10,2,2,0.4,0.5
2024-08-26T0600,1432A,104.176,30.6872,成都市,十里店,,30,22,51,6,33,96,,,,3,12,3,3,0.6,0.8
2024-08-26T0600,1433A,104.079,30.5706,成都市,三瓦窑,,38,,46,26,34,115,,,,7,25,2,2,0.3,0.5
2024-08-26T0600,1434A,104.1114,30.63,成都市,沙河铺,,38,26,51,14,30,119,,,,8,19,5,5,0.4,0.6
2024-08-26T0600,1437A,104.0786,30.6531,成都市,君平街,,40,21,51,13,34,126,,,,6,20,4,5,0.5,0.6
2024-08-26T0600,1438A,103.613,31.0283,成都市,灵岩寺,,,,,,,,,,,,,,,,
2024-08-26T0600,2880A,104.0239,30.65639,成都市,大石西路,,34,17,48,7,33,107,,,,6,17,5,5,0.4,0.6
2024-08-26T0600,3136A,104.2725,30.5589,成都市,龙泉驿区区政府,,32,27,40,22,27,84,,,,14,15,4,5,0.6,0.6
2024-08-26T0600,3357A,104.0106,30.6931,成都市,金博路,,29,6,41,3,28,92,,,,2,6,1,1,0.6,0.8
2024-08-26T0600,3359A,104.0578,30.5225,成都市,华阳,,33,24,44,12,23,105,,,,8,20,3,3,0.5,0.7
2024-08-26T0600,3487A,104.2394,30.5319,成都市,车城东七路,,30,22,49,15,33,96,,,,12,19,3,4,0.6,0.6
2024-08-26T0600,3488A,104.3853,30.7453,成都市,青白江技师分院,,28,28,43,15,32,56,,,,29,23,2,2,0.9,0.9
2024-08-26T0600,3489A,104.0789,30.4072,成都市,科学城,,31,27,41,21,32,99,,,,7,11,3,4,0.4,0.6
2024-08-26T0600,4011A,103.8506,30.6947,成都市,光华大道三段,,33,17,46,3,26,105,,,,2,9,2,3,0.4,0.6
2024-08-26T0600,1062A,117.9531,40.9081,承德市,铁路,,24,12,27,3,14,76,,,,12,20,7,8,0.4,0.4
2024-08-26T0600,1063A,117.9392,40.9763,承德市,中国银行,,28,14,27,10,13,87,,,,7,15,4,4,0.3,0.4
2024-08-26T0600,1064A,117.9503,40.928,承德市,开发区,,27,15,28,11,11,85,,,,6,16,5,6,0.4,0.4
2024-08-26T0600,1065A,117.8051,40.9655,承德市,文化中心,,30,21,30,6,11,95,,,,5,19,6,6,0.3,0.4
2024-08-26T0600,1066A,117.9268,41.0026,承德市,离宫,,19,18,25,3,7,60,,,,2,8,2,2,0.3,0.4
2024-08-26T0600,2314A,117.47,30.6618,池州市,池州学院,,33,33,42,22,27,59,,,,12,13,6,8,1.3,1
2024-08-26T0600,3237A,117.4918,30.6617,池州市,展览馆,,33,33,41,22,26,48,,,,10,11,5,6,1.3,0.9
2024-08-26T0600,3333A,117.5627,30.695,池州市,第八中学,,44,44,42,28,25,52,,,,13,12,4,4,1.1,0.8
2024-08-26T0600,3334A,117.5038,30.6243,池州市,第十二中学,,36,34,39,25,27,36,,,,24,16,5,4,1.5,1.1
2024-08-26T0600,1744A,118.9233,42.2816,赤峰市,松山一中,,12,12,20,3,5,35,,,,17,19,8,9,0.5,0.5
2024-08-26T0600,1745A,118.9576,42.2728,赤峰市,哈达街,,12,8,17,7,7,37,,,,12,14,8,11,0.3,0.4
2024-08-26T0600,1746A,118.8788,42.2554,赤峰市,天义路,,12,6,17,6,11,37,,,,17,18,7,10,0.1,0.2
2024-08-26T0600,3058A,119.2658,42.0353,赤峰市,银河街,,33,33,22,16,10,17,,,,24,13,35,15,0.4,0.4
2024-08-26T0600,3286A,118.9359,42.3147,赤峰市,桥北物流园区,,13,,17,9,8,30,,,,12,19,7,8,0.4,0.5
2024-08-26T0600,2521A,107.3476,22.4136,崇左市,市环保局江州分局,,19,19,22,8,8,18,,,,5,6,6,6,0.5,0.5
2024-08-26T0600,2522A,107.3702,22.3707,崇左市,城南新区,,23,23,16,3,7,15,,,,6,5,4,4,0.5,0.5
2024-08-26T0600,2298A,118.3093,32.3153,滁州市,老年大学,,30,30,36,17,22,30,,,,17,14,12,11,0.4,0.5
2024-08-26T0600,2299A,118.3244,32.2786,滁州市,人大宾馆,,40,39,42,28,26,25,,,,19,15,6,6,0.5,0.6
2024-08-26T0600,3207A,118.3118,32.3038,滁州市,市政府原办公楼,,33,33,36,22,26,29,,,,21,15,9,8,0.6,0.6
2024-08-26T0600,3331A,118.3267,32.2634,滁州市,图书馆,,43,38,43,30,25,28,,,,18,13,4,5,0.3,0.4
2024-08-26T0600,2605A,101.5482,25.0441,楚雄彝族自治州,州环境监测站,,38,,20,26,19,8,,,,23,15,6,5,0.6,0.5
2024-08-26T0600,2606A,101.538,25.0492,楚雄彝族自治州,市经济开发区,,25,19,22,17,15,12,,,,19,15,7,6,0.7,0.7
2024-08-26T0600,2548A,107.5277,31.2827,达州市,达州职业技术学院,细颗粒物(PM2.5),53,48,57,37,35,10,,,,12,13,6,7,0.7,0.7
2024-08-26T0600,2549A,107.5086,31.2186,达州市,市环境监测站,,49,46,42,34,22,18,,,,27,24,8,8,0.6,0.5
2024-08-26T0600,2550A,107.4988,31.2132,达州市,凤凰小区,,46,46,38,31,23,26,,,,22,20,10,8,0.6,0.5
2024-08-26T0600,2551A,107.5082,31.1986,达州市,达县机关宾馆,颗粒物(PM10),53,56,50,35,25,20,,,,32,33,10,6,0.5,0.4
2024-08-26T0600,2552A,107.4644,31.2124,达州市,市政中心,颗粒物(PM10),52,53,48,31,23,32,,,,23,24,8,6,0.7,0.7
2024-08-26T0600,2614A,100.1542,25.7054,大理白族自治州,大理市环境监测站,,20,20,24,14,13,52,,,,10,12,4,4,0.5,0.5
2024-08-26T0600,2615A,100.2171,25.5811,大理白族自治州,大理古城,,25,24,25,17,16,53,,,,7,12,7,7,0.7,0.7
2024-08-26T0600,1109A,121.612,38.9741,大连市,甘井子,,46,38,38,32,30,55,,,,37,22,7,7,0.8,0.9
2024-08-26T0600,1110A,121.565,38.9511,大连市,周水子,细颗粒物(PM2.5),63,,36,45,32,53,,,,36,23,5,5,0.8,0.9
2024-08-26T0600,1111A,121.5637,38.8845,大连市,星海三站,,46,36,33,32,29,83,,,,6,10,5,7,0.5,0.5
2024-08-26T0600,1112A,121.6302,38.9117,大连市,青泥洼桥,细颗粒物(PM2.5),59,48,34,42,27,81,,,,11,11,8,8,0.7,0.8
2024-08-26T0600,1113A,121.6251,38.8638,大连市,傅家庄,,48,,27,33,29,86,,,,11,10,7,8,0.6,0.7
2024-08-26T0600,1114A,121.5213,38.8661,大连市,七贤岭,,50,39,32,35,28,33,,,,16,10,6,7,0.6,0.5
2024-08-26T0600,1115A,121.2529,38.8061,大连市,旅顺,,36,22,34,20,26,114,,,,8,12,8,8,0.6,0.6
2024-08-26T0600,1116A,121.7485,39.1311,大连市,金州,,40,31,34,28,30,48,,,,11,13,7,7,1.0,0.7
2024-08-26T0600,1117A,121.7811,39.0496,大连市,开发区,,49,39,35,34,27,55,,,,13,14,8,9,0.6,0.6
2024-08-26T0600,1118A,121.9762,39.0631,大连市,双D港,,26,24,26,18,22,47,,,,11,10,6,6,0.6,0.6
2024-08-26T0600,1789A,124.81117,46.03138,大庆市,大同区,,18,18,22,9,20,31,,,,12,5,9,9,0.3,0.4
2024-08-26T0600,1790A,125.129,46.533,大庆市,龙凤区,,26,26,42,12,15,34,,,,18,14,4,5,0.4,0.6
2024-08-26T0600,1791A,124.902,46.408,大庆市,红岗区,,24,24,27,14,17,28,,,,14,11,8,8,0.3,0.4
2024-08-26T0600,1792A,125.153,46.586,大庆市,萨尔图区,,16,16,26,7,15,38,,,,10,11,6,7,0.2,0.4
2024-08-26T0600,1793A,124.9042,46.6215,大庆市,让胡路区,,20,20,27,7,14,42,,,,6,7,5,5,0.3,0.3
2024-08-26T0600,3481A,125.141,46.634,大庆市,萨区政府监测点,,17,17,27,7,13,33,,,,8,9,7,7,0.2,0.3
2024-08-26T0600,1721A,113.3819,40.1097,大同市,果树场,,,,,,,,,,,,,,,,
2024-08-26T0600,1723A,113.2994,40.0758,大同市,云冈宾馆,,27,,21,3,8,86,,,,5,17,6,8,0.4,0.6
2024-08-26T0600,1724A,113.3444,40.0917,大同市,大同大学,,27,,16,3,9,85,,,,6,18,6,8,0.5,0.5
2024-08-26T0600,1725A,113.2661,40.1269,大同市,安家小村,,30,,23,3,5,95,,,,3,15,8,10,0.5,0.6
2024-08-26T0600,1726A,113.2711,40.0844,大同市,教育学院,,28,,21,3,9,87,,,,8,23,9,11,0.5,0.7
2024-08-26T0600,3282A,113.3397,40.0597,大同市,大同市卫生学校,,31,,17,7,10,99,,,,7,17,6,8,0.6,0.6
2024-08-26T0600,3565A,113.1367,40.1122,大同市,云冈站,,,,28,,12,,,46,,,26,,11,,0.7
2024-08-26T0600,3566A,113.1186,40.2556,大同市,图书馆,,32,6,19,3,12,101,,,,6,14,7,10,0.6,0.6
2024-08-26T0600,3567A,113.5931,40.0461,大同市,区一中,,30,7,13,3,5,94,,,,5,8,3,5,0.5,0.5
2024-08-26T0600,3676A,113.2802,40.0995,大同市,第二人民医院,,25,21,21,3,10,78,,,,6,18,8,11,0.3,0.6
2024-08-26T0600,2269A,124.1069,50.4097,大兴安岭地区,科技局,,18,,17,12,15,26,,,,4,3,1,2,0.3,0.3
2024-08-26T0600,3663A,124.1164,50.4278,大兴安岭地区,红旗社区,,8,6,6,3,5,23,,,,3,4,6,6,0.4,0.4
2024-08-26T0600,1600A,124.3303,40.0625,丹东市,江湾东路,,30,30,24,19,17,46,,,,8,9,3,2,0.9,0.9
2024-08-26T0600,1601A,124.4256,40.1503,丹东市,临江后街,,22,22,22,14,13,27,,,,12,9,5,5,0.8,0.7
2024-08-26T0600,1602A,124.3933,40.1461,丹东市,元宝山,,29,29,22,15,14,26,,,,12,11,1,2,0.7,0.6
2024-08-26T0600,1603A,124.3633,40.1092,丹东市,民主桥,,28,28,29,14,13,43,,,,11,12,2,2,0.7,0.7
2024-08-26T0600,3541A,109.5726,19.5167,儋州市,第一中学子站,,23,23,16,8,7,7,,,,7,4,6,4,0.7,0.5
2024-08-26T0600,3542A,109.5567,19.5187,儋州市,东坡学校子站,,16,16,15,7,8,9,,,,4,4,4,4,0.5,0.5
2024-08-26T0600,2616A,98.5842,24.428,德宏傣族景颇族自治州,德宏州监测站,,16,16,19,6,8,16,,,,8,8,10,12,0.6,0.6
2024-08-26T0600,3677A,98.5881,24.4368,德宏傣族景颇族自治州,芒市人民政府综合楼,,12,12,17,8,10,12,,,,10,11,7,11,0.7,0.6
2024-08-26T0600,1901A,104.4239,31.1208,德阳市,东山公园,细颗粒物(PM2.5),59,58,50,42,35,35,,,,18,17,7,9,0.8,0.7
2024-08-26T0600,1902A,104.3826,31.1317,德阳市,西小区,,44,44,47,28,33,53,,,,18,16,29,10,0.8,0.8
2024-08-26T0600,1904A,104.3553,31.1091,德阳市,耐火材料厂,,46,46,51,30,33,47,,,,19,24,18,14,0.6,0.6
2024-08-26T0600,3639A,104.4019,31.1244,德阳市,市教育局,,50,50,51,33,32,43,,,,19,16,13,9,0.7,0.7
2024-08-26T0600,1622A,116.3032,37.4674,德州市,儿童乐园,,37,24,61,24,38,117,,,,3,18,7,9,0.6,0.9
2024-08-26T0600,1624A,116.2991,37.4451,德州市,监理站,,39,24,64,24,40,122,,,,2,14,9,10,0.6,0.9
2024-08-26T0600,3066A,116.2721,37.4379,德州市,九衢泉纯净水厂,,36,24,61,22,39,114,,,,5,17,7,9,0.7,1
2024-08-26T0600,3371A,116.3728,37.4403,德州市,开发区人民医院,,36,31,61,22,34,113,,,,4,16,6,9,0.6,0.9
2024-08-26T0600,3372A,116.3572,37.4094,德州市,太阳城中学,,37,27,54,19,38,118,,,,7,19,8,11,0.6,0.9
2024-08-26T0600,3511A,116.5652,37.3319,德州市,陵城艺术中心,,32,29,57,22,31,98,,,,16,22,8,11,0.7,0.8
2024-08-26T0600,2621A,99.7056,27.8317,迪庆藏族自治州,迪庆州站,,27,27,33,13,16,46,,,,8,11,9,9,0.4,0.4
2024-08-26T0600,3180A,99.7136,27.8094,迪庆藏族自治州,质量技术监督局,,23,23,28,16,15,46,,,,10,13,8,10,0.6,0.6
2024-08-26T0600,2663A,104.6241,35.5734,定西市,东关小学,,46,46,43,30,27,91,,,,6,7,2,2,0.2,0.2
2024-08-26T0600,2664A,104.6194,35.5934,定西市,供电公司,颗粒物(PM10),56,61,47,24,26,88,,,,7,6,5,6,0.2,0.2
2024-08-26T0600,1389A,113.7547,23.0494,东莞市,莞城梨川,颗粒物(PM10),52,54,39,30,22,20,,,,34,28,4,4,0.9,0.9
2024-08-26T0600,1390A,113.7944,23.0128,东莞市,东城石井,,48,48,36,31,21,6,,,,29,25,4,5,0.7,0.6
2024-08-26T0600,1391A,113.7383,22.9658,东莞市,南城西平,细颗粒物(PM2.5),59,60,41,42,29,6,,,,48,28,5,5,0.9,0.7
2024-08-26T0600,3319A,113.7338,23.0381,东莞市,万江金泰,颗粒物(PM10),56,62,42,38,24,10,,,,39,30,6,6,0.8,0.7
2024-08-26T0600,3626A,113.7533,23.0202,东莞市,南城元岭,颗粒物(PM10),52,53,41,33,23,5,,,,44,31,6,6,0.8,0.7
2024-08-26T0600,3627A,113.7875,23.0457,东莞市,东城主山,颗粒物(PM10),55,59,42,36,24,14,,,,35,26,8,8,0.7,0.6
2024-08-26T0600,1666A,118.6614,37.4309,东营市,市环保局,,49,48,53,34,32,77,,,,15,14,6,7,0.7,0.5
2024-08-26T0600,3036A,118.6904,37.4338,东营市,开发区管委会,细颗粒物(PM2.5),55,50,57,39,34,77,,,,15,12,6,7,0.5,0.5
2024-08-26T0600,3365A,118.5719,37.565,东营市,垦利区民丰路,细颗粒物(PM2.5),55,56,49,39,31,75,,,,10,8,7,7,0.7,0.4
2024-08-26T0600,3498A,118.5055,37.8612,东营市,河口城区,,34,19,31,15,19,107,,,,2,6,5,5,0.7,0.7
2024-08-26T0600,3646A,118.4978,37.4623,东营市,胜利站,细颗粒物(PM2.5),55,53,48,39,35,57,,,,25,22,7,7,1.0,0.9
2024-08-26T0600,3734A,118.35,37.26,东营市,理想之城,细颗粒物(PM2.5),55,53,52,39,36,57,,,,17,16,7,7,0.7,0.5
2024-08-26T0600,1591A,110.0023,39.8129,鄂尔多斯市,综合楼,,,7,16,,12,102,,,,5,15,6,6,0.5,0.7
2024-08-26T0600,1592A,109.9486,39.8261,鄂尔多斯市,巴音孟克林场办事处,,31,6,15,3,10,97,,,,5,15,5,6,0.5,0.6
2024-08-26T0600,1593A,109.7736,39.5986,鄂尔多斯市,康泽苑,,30,19,24,7,9,93,,,,3,15,5,6,0.5,0.7
2024-08-26T0600,1594A,109.8119,39.5989,鄂尔多斯市,华泰汽车城,,28,17,23,12,18,89,,,,4,14,8,7,0.5,0.7
2024-08-26T0600,1595A,109.9734,39.7884,鄂尔多斯市,奥林花园,,30,14,18,3,9,95,,,,7,15,4,5,0.6,0.7
2024-08-26T0600,2436A,114.8938,30.3994,鄂州市,市政府,颗粒物(PM10),63,75,57,33,26,70,,,,21,13,6,6,0.9,0.9
2024-08-26T0600,2437A,114.8989,30.3714,鄂州市,赵家坝,颗粒物(PM10),62,74,52,39,26,54,,,,29,18,17,13,0.9,0.7
2024-08-26T0600,3654A,114.8094,30.4089,鄂州市,精准医疗中心,细颗粒物(PM2.5),65,61,44,47,24,59,,,,27,14,14,10,0.9,0.7
2024-08-26T0600,2454A,109.4978,30.2981,恩施土家族苗族自治州,湖北民院,,26,,24,18,16,30,,,,17,17,8,8,0.6,0.6
2024-08-26T0600,2455A,109.4707,30.2798,恩施土家族苗族自治州,州电力总公司,,19,19,19,13,14,20,,,,20,18,7,7,0.6,0.6
2024-08-26T0600,3549A,109.5061,30.3772,恩施土家族苗族自治州,龙凤新区,,19,17,21,13,15,28,,,,6,7,6,6,0.6,0.6
2024-08-26T0600,2499A,108.3411,21.6158,防城港市,沙万,,14,6,23,6,9,42,,,,7,18,12,12,0.6,0.6
2024-08-26T0600,2500A,108.3514,21.7731,防城港市,防城档案局,,40,40,18,9,10,3,,,,20,11,7,9,0.7,0.8
2024-08-26T0600,2501A,108.3506,21.6414,防城港市,大海花园,,16,8,18,3,6,49,,,,5,11,7,9,0.5,0.7
2024-08-26T0600,1371A,113.1294,23.0067,佛山市,湾梁,,27,27,25,18,18,4,,,,37,23,8,7,0.8,0.7
2024-08-26T0600,1372A,113.1083,23.0478,佛山市,华材职中,,48,48,29,23,18,3,,,,54,30,8,7,0.5,0.4
2024-08-26T0600,1373A,113.144,23.0453,佛山市,南海气象局,,39,39,27,17,17,2,,,,39,20,6,5,0.7,0.6
2024-08-26T0600,1374A,113.2881,22.8094,佛山市,顺德苏岗,,35,35,25,19,17,0,,,,44,23,6,7,1.0,0.7
2024-08-26T0600,1376A,112.8383,22.8678,佛山市,高明孔堂,,36,36,31,19,16,28,,,,14,11,8,8,0.6,0.6
2024-08-26T0600,1377A,112.8836,23.1588,佛山市,三水监测站,,39,39,30,18,19,2,,,,48,30,6,6,0.6,0.5
2024-08-26T0600,1378A,112.867,23.185,佛山市,三水云东海,,40,38,27,28,20,0,,,,38,26,7,9,0.6,0.6
2024-08-26T0600,3625A,113.2544,22.7642,佛山市,容桂街道办,,34,34,27,17,19,7,,,,44,31,6,7,0.8,0.8
2024-08-26T0600,1280A,119.3903,26.0543,福州市,鼓山,,,,,,,,,,,,,,,,
2024-08-26T0600,1282A,119.2681,26.0504,福州市,师大,,46,38,32,32,20,59,,,,8,8,4,4,0.5,0.4
2024-08-26T0600,1283A,119.2984,26.1028,福州市,五四北路,,,,,19,17,48,,,,16,8,3,3,0.4,0.4
2024-08-26T0600,1284A,119.2648,26.0768,福州市,杨桥西路,,50,,32,35,22,61,,,,10,9,6,4,0.5,0.5
2024-08-26T0600,1285A,119.317,26.0746,福州市,紫阳,,36,27,29,25,18,51,,,,18,12,7,7,0.4,0.4
2024-08-26T0600,3048A,119.5799,26.0936,福州市,九龙,,21,21,21,12,13,31,,,,4,4,5,5,0.3,0.3
2024-08-26T0600,3526A,119.5189,25.9664,福州市,吴航,,29,29,26,20,18,42,,,,7,5,5,6,0.6,0.5
2024-08-26T0600,1755A,123.7977,41.8491,抚顺市,望花区,,44,44,39,13,15,8,,,,23,21,10,10,0.6,0.6
2024-08-26T0600,1756A,123.9161,41.8822,抚顺市,顺城区,,,,41,,16,,,94,,,24,,5,,0.5
2024-08-26T0600,1757A,124.0436,41.8611,抚顺市,东洲区,,,,28,,16,,,90,,,13,,7,,0.5
2024-08-26T0600,1758A,123.9247,41.8642,抚顺市,新抚区,,29,29,29,12,12,6,,,,24,23,9,8,0.4,0.3
2024-08-26T0600,1759A,124.0972,41.8961,抚顺市,大伙房水库,,,,26,,12,,,94,,,12,,4,,0.7
2024-08-26T0600,1760A,123.7086,41.8391,抚顺市,沈抚新城,,46,39,25,32,14,7,,,,31,19,9,7,1.7,0.5
2024-08-26T0600,2376A,116.2127,28.0814,抚州市,桐源党溪,,38,38,39,19,20,2,,,,9,6,6,8,0.8,0.7
2024-08-26T0600,2377A,116.3544,27.9831,抚州市,市站,,30,30,33,17,18,27,,,,9,6,8,5,0.6,0.6
2024-08-26T0600,2378A,116.3565,27.963,抚州市,血防站,,31,31,34,19,18,23,,,,7,6,8,6,0.7,0.6
2024-08-26T0600,2379A,116.3564,28.0007,抚州市,采茶剧团,,31,31,30,16,18,14,,,,11,5,5,5,0.7,0.6
2024-08-26T0600,2380A,116.385,27.9647,抚州市,医学分院,,30,30,32,17,18,15,,,,10,7,5,5,0.9,0.8
2024-08-26T0600,2207A,121.6094,41.998,阜新市,工业园区,,22,22,30,8,9,4,,,,24,23,4,5,0.6,0.6
2024-08-26T0600,2208A,121.6697,42.0279,阜新市,长青街,,42,42,28,12,11,10,,,,22,19,8,9,0.8,0.6
2024-08-26T0600,2209A,121.6673,42.0705,阜新市,农业园区,,15,10,14,7,4,47,,,,13,9,12,8,0.6,0.5
2024-08-26T0600,2210A,121.6717,42.0224,阜新市,东苑,颗粒物(PM10),51,51,31,16,7,15,,,,24,20,22,14,0.6,0.4
2024-08-26T0600,2211A,121.6506,42.0498,阜新市,玉龙新城,,27,27,26,8,10,7,,,,22,23,6,5,0.8,0.7
2024-08-26T0600,2301A,115.8277,32.8929,阜阳市,市监测站,,42,41,42,29,27,87,,,,9,9,7,7,0.7,0.7
2024-08-26T0600,2303A,115.8554,32.8605,阜阳市,开发区,,50,48,50,35,29,104,,,,13,12,6,4,0.7,0.7
2024-08-26T0600,2875A,115.784,32.8892,阜阳市,阜阳职业技术学院,颗粒物(PM10),52,53,42,23,24,119,,,,7,9,7,6,0.7,0.6
2024-08-26T0600,3468A,115.7901,32.8613,阜阳市,市规划展馆,细颗粒物(PM2.5),63,48,49,45,32,99,,,,10,10,6,6,0.9,0.8
2024-08-26T0600,3469A,115.836,32.9183,阜阳市,枣园社区,,50,50,48,35,31,91,,,,11,12,5,5,0.8,0.8
2024-08-26T0600,2669A,102.9099,34.9841,甘南藏族自治州,州政府,,,,,,,,,,,,,,,,
2024-08-26T0600,3380A,102.8914,34.9617,甘南藏族自治州,甘肃民族师范学院,,26,,20,16,13,82,,,,2,6,4,4,0.4,0.4
2024-08-26T0600,2570A,101.9603,30.0475,甘孜藏族自治州,水桥子,,26,21,26,18,18,33,,,,18,15,4,4,0.2,0.3
2024-08-26T0600,3065A,101.9533,29.9972,甘孜藏族自治州,州环保局,,32,32,28,13,11,23,,,,32,21,2,3,0.2,0.3
2024-08-26T0600,3414A,115.8347,28.932,赣江新区,桑海产业园,,44,44,32,26,19,20,,,,20,22,11,10,0.3,0.3
2024-08-26T0600,2362A,114.9017,25.9149,赣州市,通天岩,,,,,,,,,,,,,,,,
2024-08-26T0600,2363A,114.9367,25.8664,赣州市,地委,,24,24,26,16,17,26,,,,14,12,3,4,0.9,0.9
2024-08-26T0600,2364A,114.9461,25.8481,赣州市,气象台,,31,31,29,17,16,29,,,,17,12,7,7,0.4,0.4
2024-08-26T0600,2365A,114.9322,25.8333,赣州市,市图书馆,,,,22,,13,,,78,,,8,,4,,0.9
2024-08-26T0600,2366A,114.8905,25.8471,赣州市,华坚鞋城,,25,25,35,15,16,36,,,,12,10,6,3,0.4,0.4
2024-08-26T0600,3109A,115.0093,25.8613,赣州市,赣县区卫计委,,27,27,23,15,14,30,,,,11,11,6,6,0.5,0.5
2024-08-26T0600,2683A,106.2319,36.1417,固原市,马园,,25,19,51,8,12,78,,,,7,16,5,5,0.7,0.7
2024-08-26T0600,2684A,106.2792,36.0022,固原市,监测站,,25,,32,17,17,80,,,,4,8,5,6,0.2,0.2
2024-08-26T0600,2685A,106.2375,36.0211,固原市,新区,,24,16,32,14,15,76,,,,3,8,7,7,0.3,0.4
2024-08-26T0600,3522A,106.2177,35.9959,固原市,原州区十五小,,26,24,25,14,15,81,,,,6,9,9,9,0.5,0.5
2024-08-26T0600,2543A,106.6308,30.5278,广安市,小平旧居,,,,,,,,,,,,,,,,
2024-08-26T0600,2544A,106.6303,30.4576,广安市,市委,,36,31,19,25,14,37,,,,20,13,8,8,0.4,0.3
2024-08-26T0600,2545A,106.6271,30.4663,广安市,友谊中学,,30,30,21,21,13,32,,,,20,15,6,6,0.6,0.4
2024-08-26T0600,2547A,106.6388,30.4551,广安市,广电花园,,,35,22,23,13,32,,,,17,14,,8,0.5,0.4
2024-08-26T0600,2902A,106.6351,30.4865,广安市,北辰小学,颗粒物(PM10),51,51,31,30,14,31,,,,19,14,9,9,0.5,0.3
2024-08-26T0600,2523A,105.8945,32.4535,广元市,黑石坡,,20,18,21,14,17,47,,,,9,7,7,7,0.3,0.4
2024-08-26T0600,2524A,105.821,32.4444,广元市,老城,,29,29,27,14,12,36,,,,14,24,1,2,0.6,0.7
2024-08-26T0600,2526A,105.8628,32.4287,广元市,监测站,,26,26,20,8,14,39,,,,14,12,2,3,0.5,0.6
2024-08-26T0600,3617A,105.8047,32.4166,广元市,经开区,,37,37,38,23,23,24,,,,26,22,3,6,0.5,0.5
2024-08-26T0600,1345A,113.2347,23.1423,广州市,广雅中学,,34,34,31,21,18,4,,,,54,33,6,5,0.6,0.6
2024-08-26T0600,1346A,113.2612,23.105,广州市,市五中,,35,32,28,24,21,6,,,,48,25,4,3,0.7,0.6
2024-08-26T0600,1348A,113.3478,23.0916,广州市,广东商学院,,34,34,28,21,17,3,,,,57,32,4,4,0.8,0.7
2024-08-26T0600,1349A,113.4332,23.1047,广州市,市八十六中,颗粒物(PM10),52,53,35,28,19,5,,,,52,41,4,4,0.7,0.6
2024-08-26T0600,1350A,113.3505,22.9483,广州市,番禺中学,,37,37,28,22,15,24,,,,36,20,4,4,0.9,0.7
2024-08-26T0600,1351A,113.2146,23.3916,广州市,花都师范,,41,41,38,18,20,7,,,,43,35,9,9,0.4,0.5
2024-08-26T0600,1352A,113.2597,23.1331,广州市,市监测站,,31,31,27,18,16,3,,,,49,28,7,5,0.5,0.4
2024-08-26T0600,1353A,113.5618,23.312,广州市,九龙镇镇龙,,39,39,34,24,20,7,,,,27,26,6,6,0.6,0.6
2024-08-26T0600,1354A,113.2765,23.1544,广州市,麓湖,,30,30,28,18,17,2,,,,39,29,5,4,0.7,0.7
2024-08-26T0600,1355A,113.443,23.3035,广州市,帽峰山森林公园,,22,22,24,14,13,16,,,,15,10,3,3,0.4,0.4
2024-08-26T0600,2846A,113.3221,23.1322,广州市,体育西,,26,26,28,17,18,4,,,,41,22,6,5,0.8,0.7
2024-08-26T0600,3298A,113.5717,23.5491,广州市,从化街口,,31,31,31,13,18,7,,,,20,19,6,6,0.7,0.7
2024-08-26T0600,3299A,113.3472,23.3692,广州市,白云竹料,,47,47,37,23,19,3,,,,33,28,4,4,0.8,0.8
2024-08-26T0600,3300A,113.2981,23.237,广州市,白云嘉禾,,45,45,32,23,19,3,,,,50,35,7,5,0.8,0.8
2024-08-26T0600,3301A,113.4256,23.1716,广州市,黄埔科学城,,35,35,32,18,17,4,,,,31,26,6,6,0.7,0.7
2024-08-26T0600,3302A,113.3942,23.0483,广州市,番禺大学城,,38,33,30,26,18,1,,,,46,27,7,7,0.7,0.6
2024-08-26T0600,3303A,113.4922,22.8168,广州市,南沙黄阁,,25,25,30,15,18,34,,,,26,28,5,5,0.7,0.7
2024-08-26T0600,3304A,113.5342,22.7896,广州市,南沙街,,33,33,29,18,17,21,,,,25,22,4,4,0.7,0.7
2024-08-26T0600,3443A,113.2902,23.5544,广州市,花都梯面,,37,37,42,21,24,2,,,,27,26,4,5,0.7,0.7
2024-08-26T0600,3445A,113.7858,23.7478,广州市,从化良口,,26,26,23,13,14,15,,,,11,10,6,6,0.8,0.8
2024-08-26T0600,3446A,113.8051,23.2614,广州市,增城荔城,,32,32,36,20,22,14,,,,17,17,7,8,0.6,0.6
2024-08-26T0600,2505A,109.568,23.1478,贵港市,德智高中,,,,,,,,,,,,,,,,
2024-08-26T0600,2506A,109.6047,23.0666,贵港市,江南子站,,42,36,42,29,23,29,,,,19,17,9,8,0.6,0.7
2024-08-26T0600,2507A,109.6014,23.0948,贵港市,贵城子站,,44,44,41,27,24,35,,,,16,16,8,10,0.6,0.7
2024-08-26T0600,2508A,109.5669,23.1065,贵港市,荷城子站,,32,24,32,22,14,46,,,,11,13,11,12,0.4,0.5
2024-08-26T0600,3405A,109.5886,23.1172,贵港市,新世纪学校,,34,34,36,16,17,47,,,,11,13,10,10,0.6,0.7
2024-08-26T0600,1439A,106.6899,26.5998,贵阳市,马鞍山,,9,7,6,3,0,28,,,,5,5,2,4,0.3,0.3
2024-08-26T0600,1440A,106.6971,26.5694,贵阳市,市环保站,,20,14,31,14,11,37,,,,7,15,4,4,0.3,0.2
2024-08-26T0600,1441A,106.6243,26.6266,贵阳市,鉴湖路,,17,17,12,3,3,40,,,,4,5,11,7,0.3,0.3
2024-08-26T0600,1442A,106.7487,26.6343,贵阳市,燕子冲,,13,9,4,9,6,35,,,,8,6,7,6,0.4,0.4
2024-08-26T0600,1443A,106.6555,26.4365,贵阳市,碧云窝,,19,19,17,7,3,25,,,,10,6,8,7,0.3,0.3
2024-08-26T0600,1444A,106.694,26.5161,贵阳市,中院村,,29,29,15,14,6,29,,,,12,10,12,8,0.6,0.3
2024-08-26T0600,1445A,106.7109,26.6027,贵阳市,红边门,,22,22,14,14,12,37,,,,11,11,6,4,0.3,0.3
2024-08-26T0600,1446A,106.7164,26.5699,贵阳市,新华路,,27,27,14,9,5,33,,,,12,9,6,3,0.6,0.5
2024-08-26T0600,1447A,106.674,26.5424,贵阳市,太慈桥,,5,6,6,3,2,10,,,,10,8,2,3,0.3,0.4
2024-08-26T0600,1552A,106.805,26.3003,贵阳市,桐木岭,,,,,,,,,,,,,,,,
2024-08-26T0600,1862A,110.4144,25.3167,桂林市,电子科大尧山校区,,38,38,37,18,17,11,,,,10,8,12,11,0.5,0.5
2024-08-26T0600,1863A,110.2819,25.2697,桂林市,监测站,,34,34,27,13,14,11,,,,14,10,6,7,0.6,0.5
2024-08-26T0600,1864A,110.3089,25.2708,桂林市,龙隐路小学,,28,28,24,15,15,24,,,,9,8,7,7,0.3,0.3
2024-08-26T0600,1865A,110.2869,25.2178,桂林市,八中,,26,26,26,12,12,11,,,,11,9,6,6,0.5,0.4
2024-08-26T0600,3403A,110.1764,25.2381,桂林市,创业大厦,,28,22,22,19,18,4,,,,28,17,7,7,0.3,0.3
2024-08-26T0600,3531A,110.296,25.1253,桂林市,旅游学院,,20,17,15,14,12,15,,,,11,10,14,7,0.4,0.4
2024-08-26T0600,2674A,100.2561,34.4714,果洛藏族自治州,玛沁县大武镇,,16,13,14,3,12,49,,,,1,3,8,6,0.4,0.4
2024-08-26T0600,1129A,126.5422,45.755,哈尔滨市,岭北,,17,17,24,11,16,51,,,,15,12,11,11,0.3,0.5
2024-08-26T0600,1130A,126.561,45.8167,哈尔滨市,松北商大,,20,20,28,11,12,24,,,,21,16,8,8,0.6,0.6
2024-08-26T0600,1131A,126.979,45.5419,哈尔滨市,阿城会宁,,20,18,34,14,20,35,,,,9,12,5,7,0.7,0.7
2024-08-26T0600,1132A,126.599,45.7222,哈尔滨市,南岗学府路,,31,31,38,12,14,37,,,,15,12,7,6,0.4,0.5
2024-08-26T0600,1133A,126.689,45.7733,哈尔滨市,太平宏伟公园,,30,30,34,17,14,29,,,,24,17,5,6,0.5,0.5
2024-08-26T0600,1134A,126.635,45.7667,哈尔滨市,道外承德广场,,33,33,35,8,7,24,,,,33,22,12,12,0.5,0.5
2024-08-26T0600,1135A,126.685,45.7319,哈尔滨市,香坊红旗大街,,34,34,40,15,21,17,,,,41,24,7,6,0.7,0.8
2024-08-26T0600,1136A,126.6411,45.7258,哈尔滨市,动力和平路,,20,17,26,14,43,22,,,,32,20,6,6,0.5,0.5
2024-08-26T0600,1137A,126.593,45.7478,哈尔滨市,道里建国路,,26,26,31,12,15,28,,,,21,16,13,13,0.3,0.5
2024-08-26T0600,1138A,126.615,45.61,哈尔滨市,平房东轻厂,,17,17,27,11,12,35,,,,13,18,5,6,0.2,0.2
2024-08-26T0600,1139A,126.595,45.9855,哈尔滨市,呼兰师专,,22,22,25,3,11,40,,,,12,14,10,10,0.5,0.6
2024-08-26T0600,1140A,126.6206,45.6842,哈尔滨市,省农科院,,26,26,40,11,15,16,,,,31,32,7,8,0.5,0.6
2024-08-26T0600,2688A,93.5128,42.8172,哈密市,地区监测站,,43,43,44,21,22,82,,,,6,12,3,5,0.2,0.3
2024-08-26T0600,2689A,93.4961,42.8328,哈密市,哈密师范学校,颗粒物(PM10),55,60,46,20,20,88,,,,6,19,5,5,0.5,0.7
2024-08-26T0600,2671A,100.9048,36.9639,海北藏族自治州,海晏县西海镇,,33,,21,23,17,59,,,,8,11,12,14,0.5,0.6
2024-08-26T0600,3867A,102.0738,36.5056,海东市,平安区公安北苑,,46,44,28,32,18,61,,,,10,15,13,10,1.1,0.8
2024-08-26T0600,1409A,110.576,19.9507,海口市,东寨港,,,,,,,,,,,,,,,,
2024-08-26T0600,1410A,110.3232,20.0574,海口市,海南大学,,20,20,17,10,9,37,,,,10,9,6,6,0.4,0.4
2024-08-26T0600,1411A,110.283,20.0053,海口市,秀英海南医院,,21,21,18,10,11,29,,,,17,11,7,7,0.3,0.3
2024-08-26T0600,1412A,110.338,19.9969,海口市,海南师范大学,,22,20,17,15,10,31,,,,10,8,8,7,0.4,0.4
2024-08-26T0600,1413A,110.33,20.0356,海口市,龙华路环保局宿舍,,19,19,16,8,9,38,,,,8,6,8,8,0.3,0.3
2024-08-26T0600,3539A,110.5111,19.9736,海口市,桂林洋子站,,27,27,20,7,8,15,,,,12,8,6,6,0.3,0.3
2024-08-26T0600,2673A,100.6188,36.2866,海南藏族自治州,共和县恰卜恰镇,,25,,28,17,12,70,,,,4,9,8,12,0.6,0.6
2024-08-26T0600,2676A,97.3731,37.3753,海西蒙古族藏族自治州,德令哈市,,22,15,43,11,16,70,,,,4,7,8,7,0.4,0.5
2024-08-26T0600,1048A,114.5302,36.6116,邯郸市,东污水处理厂,,35,35,46,22,27,64,,,,6,10,2,2,0.4,0.6
2024-08-26T0600,1049A,114.4918,36.5713,邯郸市,矿院,细颗粒物(PM2.5),52,52,49,36,30,48,,,,2,5,1,2,0.6,0.6
2024-08-26T0600,1050A,114.484,36.6133,邯郸市,丛台公园,,38,27,45,26,27,56,,,,2,8,3,3,0.6,0.6
2024-08-26T0600,3458A,114.7895,36.5593,邯郸市,香泉濮院小区,,40,40,42,14,16,66,,,,3,6,3,2,0.4,0.5
2024-08-26T0600,3579A,114.50634,36.77178,邯郸市,永年区实验高中,,42,37,56,29,29,78,,,,2,10,2,3,0.5,0.5
2024-08-26T0600,3580A,114.20016,36.44293,邯郸市,峰峰矿区临水派出所,,49,38,38,34,29,46,,,,6,9,3,3,0.9,0.8
2024-08-26T0600,2634A,106.9893,33.1842,汉中市,汉川机床厂子校,,16,14,24,11,15,40,,,,8,8,4,4,0.5,0.6
2024-08-26T0600,2635A,107.0154,33.0706,汉中市,市监测站,,30,27,35,21,19,48,,,,6,7,7,7,0.6,0.7
2024-08-26T0600,2636A,107.0089,33.1138,汉中市,鑫源开发区,,44,44,47,23,19,25,,,,20,13,16,12,0.6,0.5
2024-08-26T0600,2637A,107.007,33.0323,汉中市,南郑大河坎水厂,,22,22,30,15,19,49,,,,4,7,8,8,0.4,0.5
2024-08-26T0600,1223A,120.2072,30.2111,杭州市,滨江,颗粒物(PM10),51,52,45,27,26,43,,,,22,17,4,5,0.7,0.7
2024-08-26T0600,1224A,120.0633,30.2747,杭州市,西溪,颗粒物(PM10),52,54,46,27,30,32,,,,28,18,6,6,0.7,0.6
2024-08-26T0600,1226A,120.3461,30.3153,杭州市,下沙,颗粒物(PM10),54,58,47,31,24,20,,,,49,18,6,6,0.9,0.8
2024-08-26T0600,1227A,120.1269,30.2456,杭州市,卧龙桥,,43,37,40,30,30,24,,,,19,16,5,5,0.7,0.7
2024-08-26T0600,1228A,120.1903,30.2692,杭州市,浙江农大,,39,39,39,27,25,29,,,,28,20,8,8,0.7,0.6
2024-08-26T0600,1230A,120.1197,30.3119,杭州市,和睦小学,,34,34,37,22,24,32,,,,33,19,6,6,0.6,0.6
2024-08-26T0600,1231A,120.3019,30.4183,杭州市,临平镇,,38,38,40,20,18,24,,,,25,12,5,4,0.7,0.7
2024-08-26T0600,1232A,120.2697,30.1819,杭州市,城厢镇,细颗粒物(PM2.5),62,54,45,44,30,61,,,,22,17,6,6,0.8,0.7
2024-08-26T0600,1233A,120.0883,30.1808,杭州市,云栖,,31,31,35,21,23,7,,,,27,22,8,8,0.8,0.7
2024-08-26T0600,3557A,119.9464,30.0494,杭州市,镇二中,细颗粒物(PM2.5),53,52,49,37,36,50,,,,29,24,9,8,0.9,0.8
2024-08-26T0600,3558A,119.7183,30.2367,杭州市,市府大楼,,46,37,40,32,30,66,,,,18,15,6,6,0.7,0.6
2024-08-26T0600,3656A,120.1556,30.2864,杭州市,消防大队,,49,49,43,33,28,46,,,,23,14,8,8,0.8,0.8
2024-08-26T0600,1270A,117.1959,31.7848,合肥市,明珠广场,颗粒物(PM10),51,51,45,34,31,75,,,,24,17,12,9,0.7,0.6
2024-08-26T0600,1271A,117.3072,31.8764,合肥市,三里街,,42,39,47,29,28,65,,,,25,18,11,8,0.9,0.8
2024-08-26T0600,1272A,117.2588,31.8707,合肥市,琥珀山庄,细颗粒物(PM2.5),64,53,53,46,36,66,,,,31,17,9,8,0.9,0.7
2024-08-26T0600,1273A,117.1604,31.9052,合肥市,董铺水库,,45,41,56,31,31,62,,,,16,12,5,4,0.6,0.6
2024-08-26T0600,1274A,117.25,31.8571,合肥市,长江中路,,48,48,55,33,35,76,,,,30,19,14,10,1.0,0.9
2024-08-26T0600,1275A,117.266,31.9436,合肥市,庐阳区,,46,46,50,24,26,51,,,,34,19,6,5,0.8,0.7
2024-08-26T0600,1276A,117.336,31.8586,合肥市,瑶海区,颗粒物(PM10),53,56,54,31,30,61,,,,26,21,11,10,1.0,0.9
2024-08-26T0600,1277A,117.3027,31.7964,合肥市,包河区,颗粒物(PM10),56,61,56,36,35,18,,,,66,28,10,9,0.8,0.7
2024-08-26T0600,1278A,117.2776,31.7385,合肥市,滨湖新区,,41,41,44,27,28,66,,,,17,13,10,9,0.9,0.8
2024-08-26T0600,1279A,117.1318,31.8403,合肥市,高新区,,48,39,46,33,32,76,,,,25,15,12,11,0.8,0.8
2024-08-26T0600,3464A,117.3803,31.9147,合肥市,高教基地,,39,27,46,27,28,38,,,,11,15,9,10,0.5,0.6
2024-08-26T0600,3614A,79.924,37.0877,和田地区,地区环保局,颗粒物(PM10),414,514,525,120,118,54,,,,10,11,7,8,0.5,0.6
2024-08-26T0600,3615A,79.9131,37.113,和田地区,市环保局,颗粒物(PM10),400,500,515,111,100,39,,,,15,17,9,8,0.4,0.5
2024-08-26T0600,2516A,108.2011,24.715,河池市,东仁乐园,,25,20,28,17,22,7,,,,9,9,3,4,0.7,0.7
2024-08-26T0600,2517A,108.0497,24.6947,河池市,市环保站,,25,25,24,11,13,8,,,,12,11,8,9,0.5,0.5
2024-08-26T0600,2518A,108.0983,24.6989,河池市,市疾控中心,,31,31,26,13,13,5,,,,16,14,8,9,0.6,0.6
2024-08-26T0600,1696A,114.6778,23.7569,河源市,源西,,22,16,14,15,10,18,,,,16,15,5,4,0.6,0.6
2024-08-26T0600,1697A,114.6944,23.7586,河源市,东埔,,15,13,18,10,14,26,,,,14,14,6,3,0.6,0.6
2024-08-26T0600,1698A,114.6892,23.7233,河源市,老城,,21,21,23,7,10,23,,,,10,10,9,6,0.5,0.5
2024-08-26T0600,1718A,115.4208,35.2464,菏泽市,气象局,,44,44,51,27,29,94,,,,8,10,4,4,0.6,0.5
2024-08-26T0600,1719A,115.4747,35.2375,菏泽市,市政协,,44,44,51,25,31,92,,,,4,7,5,5,0.4,0.4
2024-08-26T0600,3374A,115.5564,35.0891,菏泽市,定陶老年大学,,36,36,45,17,22,80,,,,6,7,4,5,0.7,0.6
2024-08-26T0600,3647A,115.4702,35.2706,菏泽市,菏泽医专,,46,46,54,20,27,100,,,,6,10,6,7,0.8,0.7
2024-08-26T0600,2514A,111.5264,24.4172,贺州市,环保小区,,30,30,29,9,15,6,,,,20,15,11,9,0.6,0.6
2024-08-26T0600,2515A,111.5608,24.4078,贺州市,政协大楼,,40,40,31,23,16,6,,,,19,16,11,9,0.6,0.6
2024-08-26T0600,3534A,111.4744,24.4553,贺州市,西湾,,31,31,28,11,14,6,,,,15,15,8,7,0.6,0.6
2024-08-26T0600,2385A,114.17,35.9019,鹤壁市,市监测站,,43,31,39,30,30,40,,,,11,8,1,3,0.5,0.6
2024-08-26T0600,2386A,114.2956,35.7511,鹤壁市,市交警支队,细颗粒物(PM2.5),58,49,40,41,27,44,,,,15,11,12,5,0.6,0.6
2024-08-26T0600,2387A,114.2878,35.7306,鹤壁市,迎宾馆,,46,46,35,24,24,44,,,,19,13,13,6,0.7,0.7
2024-08-26T0600,3474A,114.2617,35.6822,鹤壁市,大新区,,,41,38,,,42,,,,14,10,5,3,0.5,0.4
2024-08-26T0600,3596A,114.1572,35.9603,鹤壁市,南山宾馆,,40,,23,28,23,28,,,,7,5,3,2,0.5,0.5
2024-08-26T0600,2244A,130.2537,47.3416,鹤岗市,哈啤分公司,,24,24,23,15,17,15,,,,11,10,12,12,0.5,0.5
2024-08-26T0600,2245A,130.2684,47.3086,鹤岗市,斯达机电,,23,23,22,15,15,17,,,,14,11,14,14,0.4,0.3
2024-08-26T0600,2246A,130.3114,47.3388,鹤岗市,东山纸板厂,,35,,17,24,15,16,,,,20,11,16,17,0.5,0.2
2024-08-26T0600,2247A,130.1097,47.3382,鹤岗市,五号水库,,10,10,9,3,5,16,,,,4,7,11,11,0.1,0.1
2024-08-26T0600,2263A,127.4833,50.2524,黑河市,交通局,,16,16,22,8,12,40,,,,5,7,6,7,0.4,0.4
2024-08-26T0600,2264A,127.5144,50.2341,黑河市,环保局,,17,17,16,11,11,40,,,,3,4,4,4,0.3,0.3
2024-08-26T0600,2265A,127.5291,50.2472,黑河市,大黑河岛,,,12,8,11,10,,,,,5,9,2,2,,
2024-08-26T0600,1074A,115.6838,37.7541,衡水市,电机北厂,,35,,37,10,26,112,,,,2,12,3,4,0.4,0.5
2024-08-26T0600,1075A,115.6303,37.7316,衡水市,市监测站,,36,18,42,8,27,114,,,,4,13,3,4,0.5,0.6
2024-08-26T0600,3188A,115.6683,37.7217,衡水市,市城管局,,36,19,41,16,29,113,,,,2,12,2,4,0.5,0.6
2024-08-26T0600,3459A,115.5989,37.5491,衡水市,地表水厂,,34,,51,9,31,107,,,,2,7,2,2,0.5,0.6
2024-08-26T0600,2456A,112.5003,26.9167,衡阳市,原169医院,,37,37,41,24,23,20,,,,15,12,9,10,0.5,0.6
2024-08-26T0600,2457A,112.6194,26.9258,衡阳市,衡阳化工总厂,,,31,42,,,32,,,,9,10,10,12,0.6,0.6
2024-08-26T0600,2458A,112.6211,26.8956,衡阳市,珠晖区环保局,,,31,41,,,32,,,,14,11,10,13,0.7,0.8
2024-08-26T0600,2459A,112.6197,26.8733,衡阳市,市委党校,,23,23,43,16,23,36,,,,12,11,13,17,0.6,0.7
2024-08-26T0600,2460A,112.6006,26.8919,衡阳市,市监测站,,23,23,37,16,25,38,,,,9,11,9,12,0.7,0.8
2024-08-26T0600,2461A,112.5664,26.9056,衡阳市,真空机电公司,,36,35,44,25,27,32,,,,12,13,10,13,0.6,1
2024-08-26T0600,3399A,112.6703,26.882,衡阳市,师范学院,,36,36,38,16,20,24,,,,12,10,10,10,0.6,0.6
2024-08-26T0600,2608A,103.3772,23.3993,红河哈尼族彝族自治州,污水处理厂,,19,,10,13,11,29,,,,6,5,8,6,0.3,0.3
2024-08-26T0600,2609A,103.3861,23.35,红河哈尼族彝族自治州,监测站,,10,7,15,6,12,31,,,,3,6,8,13,0.3,0.3
2024-08-26T0600,3038A,103.3758,23.368,红河哈尼族彝族自治州,州图书馆,,10,6,12,3,7,30,,,,3,6,5,16,0.3,0.3
2024-08-26T0600,1090A,111.6507,40.7517,呼和浩特市,呼市一监,,37,6,11,3,7,118,,,,3,10,8,8,0.5,0.6
2024-08-26T0600,1091A,111.6572,40.8033,呼和浩特市,小召,,,,10,0,6,104,,,,6,15,5,5,0.5,0.5
2024-08-26T0600,1094A,111.7516,40.8369,呼和浩特市,如意水处理厂,,34,6,15,3,5,106,,,,5,18,5,6,0.3,0.4
2024-08-26T0600,1095A,111.7276,40.8062,呼和浩特市,二十九中,,36,6,15,3,6,114,,,,7,18,3,4,0.5,0.6
2024-08-26T0600,1096A,111.5512,40.7866,呼和浩特市,工大金川校区,,33,6,17,3,7,103,,,,9,23,2,2,0.4,0.5
2024-08-26T0600,1097A,111.717,40.7612,呼和浩特市,化肥厂生活区,,39,6,17,3,6,124,,,,2,10,7,8,0.3,0.4
2024-08-26T0600,3698A,111.5968,40.8178,呼和浩特市,红旗小学,,33,,17,3,8,103,,,,9,23,2,3,0.3,0.4
2024-08-26T0600,3699A,111.6518,40.8389,呼和浩特市,海东办,,34,6,16,3,7,107,,,,7,22,6,5,0.6,0.6
2024-08-26T0600,2192A,119.7594,49.2261,呼伦贝尔市,区环保局,,28,28,34,18,23,43,,,,10,10,4,4,0.3,0.3
2024-08-26T0600,3061A,119.7512,49.1577,呼伦贝尔市,国华电力东,,28,25,30,19,19,41,,,,5,4,4,4,0.3,0.3
2024-08-26T0600,1250A,120.0751,30.8669,湖州市,城西水厂,,29,29,26,19,17,32,,,,19,12,5,5,0.4,0.4
2024-08-26T0600,2873A,120.0875,30.8955,湖州市,仁皇山新区,,26,26,25,17,17,30,,,,24,17,7,7,0.6,0.7
2024-08-26T0600,2907A,120.1844,30.8596,湖州市,吴兴区站,,26,26,26,15,16,26,,,,14,9,7,7,0.4,0.5
2024-08-26T0600,3562A,120.4148,30.8538,湖州市,南浔区站,,26,24,27,18,17,21,,,,21,13,5,4,0.6,0.6
2024-08-26T0600,1607A,120.9092,40.7136,葫芦岛市,龙港区,颗粒物(PM10),59,68,43,34,23,19,,,,39,26,48,23,1.2,0.8
2024-08-26T0600,1608A,120.8392,40.7514,葫芦岛市,化工街,,41,41,39,19,17,9,,,,41,28,15,22,0.7,0.5
2024-08-26T0600,1609A,120.8341,40.7073,葫芦岛市,新区,,45,45,37,19,17,20,,,,39,29,17,15,1.0,0.5
2024-08-26T0600,1610A,120.8695,40.7677,葫芦岛市,东城区,,28,28,39,17,16,32,,,,26,29,20,14,0.3,0.1
2024-08-26T0600,2482A,109.5981,27.5721,怀化市,林科所,,15,15,13,8,9,28,,,,16,14,9,6,0.2,0.3
2024-08-26T0600,2483A,109.9453,27.5444,怀化市,河西地税局,,18,18,18,11,11,8,,,,12,9,1,2,0.5,0.5
2024-08-26T0600,2484A,109.9781,27.5342,怀化市,市四医院,,26,24,22,18,13,15,,,,13,9,7,5,0.6,0.6
2024-08-26T0600,2485A,109.9972,27.5578,怀化市,监测楼,,21,21,24,13,10,19,,,,15,8,6,5,0.7,0.6
2024-08-26T0600,2486A,110.0394,27.583,怀化市,市委党校,,22,22,19,8,10,7,,,,18,8,8,6,0.5,0.5
2024-08-26T0600,1210A,119.036,33.5981,淮安市,钵池山,,25,,20,17,20,44,,,,16,13,7,7,0.5,0.6
2024-08-26T0600,1211A,119.007,33.575,淮安市,北京南路,,26,19,24,18,17,46,,,,9,8,5,4,0.7,0.7
2024-08-26T0600,1212A,118.989,33.6067,淮安市,市监测站,,20,19,25,14,20,50,,,,10,10,6,6,0.6,0.6
2024-08-26T0600,1213A,119.135,33.5039,淮安市,楚州区监测站,,32,32,34,17,17,39,,,,16,13,5,5,0.5,0.6
2024-08-26T0600,1214A,119.0186,33.6297,淮安市,淮阴区监测站,,22,22,29,15,19,50,,,,11,12,4,4,0.3,0.4
2024-08-26T0600,3426A,118.8755,33.2894,淮安市,新华书店,,33,26,24,23,18,46,,,,12,11,6,6,0.5,0.6
2024-08-26T0600,2282A,116.8004,33.975,淮北市,监测站,,33,33,40,21,27,62,,,,5,6,5,5,0.6,0.7
2024-08-26T0600,2283A,116.8091,33.9007,淮北市,烈山区政府,,35,35,46,21,29,57,,,,7,6,6,6,0.6,0.7
2024-08-26T0600,3330A,116.8873,33.9836,淮北市,杜集区检察院,,33,25,41,23,31,67,,,,4,4,2,2,0.4,0.6
2024-08-26T0600,4017A,116.7923,33.9535,淮北市,市博物馆,,30,28,41,21,27,54,,,,13,9,4,4,0.7,0.9
2024-08-26T0600,2277A,116.8305,32.7727,淮南市,潘集区政府,,45,40,48,31,29,54,,,,16,12,6,6,0.9,0.8
2024-08-26T0600,2278A,117.0067,32.6524,淮南市,师范学院,,38,38,48,18,24,62,,,,8,7,7,6,0.5,0.6
2024-08-26T0600,2279A,116.8569,32.5951,淮南市,谢家集区政府,,45,,36,31,28,58,,,,14,12,8,7,0.5,0.6
2024-08-26T0600,2280A,116.8281,32.633,淮南市,八公山区政府,,44,44,49,26,27,70,,,,11,11,8,7,0.5,0.5
2024-08-26T0600,2281A,116.6325,32.6201,淮南市,焦岗湖风景区管理处,,26,26,38,13,16,53,,,,12,14,5,6,0.3,0.4
2024-08-26T0600,2894A,117.0566,32.6531,淮南市,经济技术开发区消防队,,38,29,36,26,18,43,,,,14,10,5,6,0.4,0.6
2024-08-26T0600,3329A,117.0108,32.5893,淮南市,山南新区,,36,36,50,24,31,55,,,,13,12,5,5,0.6,0.7
2024-08-26T0600,2446A,114.9028,30.4742,黄冈市,职工中心,,49,45,47,34,31,63,,,,12,15,9,12,0.5,0.5
2024-08-26T0600,2929A,114.8858,30.4519,黄冈市,红卫路,细颗粒物(PM2.5),52,46,49,36,33,72,,,,11,15,9,12,0.5,0.5
2024-08-26T0600,3398A,114.9136,30.4445,黄冈市,市林业局,颗粒物(PM10),57,64,56,18,17,74,,,,7,15,8,9,0.5,0.5
2024-08-26T0600,2672A,102.0199,35.5102,黄南藏族自治州,同仁县隆务镇,,21,21,23,11,10,66,,,,2,3,8,8,0.5,0.5
2024-08-26T0600,2295A,118.2903,29.6963,黄山市,延安路89号,,44,44,44,3,16,17,,,,11,8,5,5,0.6,0.6
2024-08-26T0600,2296A,118.327,29.7178,黄山市,黄山东路89号,,34,34,31,3,14,17,,,,13,7,4,4,0.5,0.5
2024-08-26T0600,2297A,118.1371,30.2756,黄山市,黄山区政府5号楼,,44,44,36,25,22,14,,,,7,6,6,6,0.5,0.5
2024-08-26T0600,2423A,115.0601,30.2313,黄石市,沈家营,颗粒物(PM10),79,108,69,38,27,53,,,,25,21,9,15,0.7,0.8
2024-08-26T0600,2424A,115.0817,30.2006,黄石市,陈家湾,颗粒物(PM10),69,88,59,30,26,42,,,,28,14,10,12,0.8,0.7
2024-08-26T0600,2426A,114.8988,30.2019,黄石市,铁山,颗粒物(PM10),53,56,48,29,24,60,,,,17,14,13,11,0.4,0.4
2024-08-26T0600,2427A,115.0307,30.2092,黄石市,团城山,颗粒物(PM10),64,78,48,31,24,46,,,,25,15,13,15,0.7,0.6
2024-08-26T0600,3149A,115.0235,30.1578,黄石市,笔架山北路,颗粒物(PM10),74,98,48,26,21,60,,,,16,14,7,10,0.2,0.3
2024-08-26T0600,1392A,114.4183,23.0528,惠州市,河南岸金山湖子站,,42,42,32,24,20,20,,,,15,13,4,4,0.7,0.7
2024-08-26T0600,1393A,114.4053,23.0822,惠州市,下埔横江三路子站,颗粒物(PM10),53,55,34,34,20,21,,,,21,15,3,4,0.7,0.6
2024-08-26T0600,1394A,114.4103,23.1142,惠州市,江北云山西路子站,颗粒物(PM10),56,61,34,20,16,28,,,,14,16,5,4,0.8,0.7
2024-08-26T0600,1395A,114.4645,22.7833,惠州市,惠阳区承修路船湖子站,颗粒物(PM10),53,56,37,32,19,10,,,,30,26,7,6,0.8,0.7
2024-08-26T0600,1396A,114.5317,22.7422,惠州市,大亚湾管委会子站,,34,34,29,14,15,18,,,,28,28,6,7,0.4,0.3
2024-08-26T0600,3314A,114.4338,22.8134,惠州市,惠阳秋长,,34,34,29,18,15,25,,,,22,21,6,6,0.5,0.4
2024-08-26T0600,3452A,114.6517,22.775,惠州市,大亚湾霞涌,,39,39,29,26,14,30,,,,15,14,5,4,0.6,0.5
2024-08-26T0600,2240A,130.9762,45.3001,鸡西市,环保局,,26,26,33,13,18,24,,,,13,10,5,6,0.4,0.4
2024-08-26T0600,2243A,130.9429,45.3039,鸡西市,第一中学,,28,28,37,12,16,28,,,,6,12,4,5,0.2,0.3
2024-08-26T0600,3707A,131.0207,45.3073,鸡西市,欧美日汽修厂,,22,22,24,15,17,11,,,,23,12,4,4,0.3,0.2
2024-08-26T0600,3709A,130.9967,45.3106,鸡西市,市政设施管理处,,28,28,36,19,17,20,,,,15,12,6,6,0.3,0.3
2024-08-26T0600,2367A,114.9754,27.0803,吉安市,红声器材厂,,35,35,34,18,18,20,,,,15,13,10,10,0.6,0.6
2024-08-26T0600,2368A,114.9658,27.0999,吉安市,市森林工业局,,32,29,31,22,19,26,,,,13,13,8,9,0.4,0.4
2024-08-26T0600,2369A,114.99,27.1312,吉安市,市环境监测站,,28,28,31,15,16,29,,,,12,12,12,12,0.7,0.6
2024-08-26T0600,2370A,115.0093,27.0968,吉安市,青原区法院,,33,33,31,20,20,25,,,,16,14,8,9,0.5,0.5
2024-08-26T0600,1772A,126.54,43.8622,吉林市,哈达湾,,17,17,19,7,11,37,,,,15,11,5,5,0.5,0.5
2024-08-26T0600,1773A,126.5844,43.8358,吉林市,东局子,,19,18,26,13,17,41,,,,8,14,4,5,0.4,0.5
2024-08-26T0600,1774A,126.5052,43.8245,吉林市,电力学院,,26,26,29,11,17,26,,,,18,11,4,4,0.8,0.7
2024-08-26T0600,1775A,126.6133,43.8972,吉林市,江北,,18,18,28,10,18,36,,,,10,12,6,6,0.4,0.5
2024-08-26T0600,1776A,126.555,43.8306,吉林市,江南公园,,13,13,22,8,15,33,,,,18,12,4,5,0.6,0.6
2024-08-26T0600,1778A,126.7061,43.7133,吉林市,丰满,,,,,,,,,,,,,,,,
2024-08-26T0600,2868A,126.4739,43.953,吉林市,九站,,16,16,21,11,13,21,,,,21,14,6,6,0.6,0.6
2024-08-26T0600,1299A,116.9862,36.6114,济南市,科干所,,37,34,49,24,32,116,,,,7,15,6,6,0.7,0.9
2024-08-26T0600,1300A,116.9376,36.665,济南市,农科所,,49,,52,34,34,62,,,,14,24,6,7,0.6,0.7
2024-08-26T0600,1301A,117.1265,36.6734,济南市,开发区,,42,,53,29,26,113,,,,5,24,7,8,0.6,0.7
2024-08-26T0600,1303A,117.0624,36.6868,济南市,省种子仓库,,35,34,64,24,30,106,,,,7,36,5,6,0.6,0.8
2024-08-26T0600,1304A,116.9489,36.6447,济南市,机床二厂,,34,27,55,12,25,106,,,,8,24,7,8,0.7,0.8
2024-08-26T0600,1305A,117.0495,36.663,济南市,市监测站,,39,29,57,27,32,111,,,,7,25,9,8,0.7,0.8
2024-08-26T0600,1306A,116.7675,36.5484,济南市,长清党校,,40,29,47,17,33,128,,,,6,13,9,10,0.8,0.9
2024-08-26T0600,1616A,117.6795,36.229,济南市,技术学院,,41,41,49,27,29,84,,,,14,15,15,13,1.5,1.3
2024-08-26T0600,1961A,117.532,36.6868,济南市,东山小学,,35,32,56,24,25,108,,,,14,27,8,9,1.0,1.1
2024-08-26T0600,3059A,117.7161,36.2049,济南市,泰兴公司,,48,48,49,22,28,80,,,,23,26,13,12,1.1,1.1
2024-08-26T0600,3064A,117.6867,36.2171,济南市,莱芜战役纪念馆,,41,41,48,22,26,78,,,,14,16,10,11,1.1,1
2024-08-26T0600,3494A,117.1673,36.9782,济南市,济阳区政府,颗粒物(PM10),56,61,75,37,35,76,,,,16,25,10,12,1.0,0.9
2024-08-26T0600,3495A,117.1171,36.63,济南市,锦屏中学,,36,32,43,22,26,113,,,,8,14,11,12,0.6,0.7
2024-08-26T0600,3682A,116.9814,36.6819,济南市,济南四建,,36,36,54,24,32,97,,,,10,26,7,8,0.8,0.9
2024-08-26T0600,1653A,116.6251,35.4302,济宁市,火炬城,,45,45,61,22,35,61,,,,13,12,11,11,1.1,1.1
2024-08-26T0600,1655A,116.5491,35.4042,济宁市,电化厂,,45,44,59,31,40,67,,,,11,11,8,9,1.0,1.1
2024-08-26T0600,3500A,116.5814,35.3707,济宁市,北湖一中,,43,43,59,24,34,63,,,,9,9,9,7,0.7,0.7
2024-08-26T0600,3501A,116.8249,35.5593,济宁市,服务中心,,38,36,51,26,31,68,,,,9,10,7,5,0.6,0.6
2024-08-26T0600,3678A,116.5907,35.4054,济宁市,市第七中学,,37,37,59,19,35,59,,,,13,13,7,7,0.9,0.9
2024-08-26T0600,2255A,130.2751,46.8028,佳木斯市,佳纺,,19,19,27,13,15,44,,,,7,14,7,7,0.6,0.6
2024-08-26T0600,2256A,130.3995,46.8307,佳木斯市,发电厂,,21,21,29,13,17,44,,,,10,14,4,6,0.6,0.6
2024-08-26T0600,2257A,130.3258,46.7975,佳木斯市,环保局,,18,17,29,12,19,47,,,,5,15,8,9,0.6,0.7
2024-08-26T0600,2258A,130.3648,46.8032,佳木斯市,十一中,,22,21,30,15,21,40,,,,14,17,7,8,0.5,0.5
2024-08-26T0600,2259A,130.3794,46.7588,佳木斯市,四丰,,,14,19,8,11,46,,,,,,1,1,0.5,0.5
2024-08-26T0600,1252A,120.7436,30.778,嘉兴市,清河小学,,22,22,23,12,13,36,,,,20,15,4,4,0.7,0.7
2024-08-26T0600,1253A,120.726,30.7478,嘉兴市,嘉兴学院,,20,,2,14,15,35,,,,19,15,2,2,0.5,0.5
2024-08-26T0600,2872A,120.7846,30.7525,嘉兴市,南湖区残联,,24,24,25,16,16,51,,,,17,11,4,4,0.4,0.5
2024-08-26T0600,3407A,120.6916,30.7739,嘉兴市,秀洲住建,,22,22,26,14,16,24,,,,19,11,4,4,0.5,0.6
2024-08-26T0600,1945A,98.2908,39.7711,嘉峪关市,气象局,颗粒物(PM10),57,63,102,12,30,90,,,,5,8,6,11,0.4,0.4
2024-08-26T0600,2884A,98.2672,39.7978,嘉峪关市,酒钢宾馆,颗粒物(PM10),69,88,113,29,37,69,,,,19,11,20,30,0.4,0.5
2024-08-26T0600,3248A,98.2643,39.7724,嘉峪关市,雄关区,颗粒物(PM10),60,70,94,15,27,5,,,,62,16,8,11,0.2,0.5
2024-08-26T0600,1383A,113.1064,22.6058,江门市,北街,,31,31,24,17,14,20,,,,32,22,4,4,0.7,0.6
2024-08-26T0600,1384A,113.0731,22.5835,江门市,西区,,24,24,22,14,15,6,,,,44,23,5,5,0.5,0.5
2024-08-26T0600,1385A,113.0219,22.5311,江门市,圭峰西,,50,40,28,35,20,30,,,,12,12,3,3,0.8,0.7
2024-08-26T0600,1386A,113.0828,22.5947,江门市,东湖,,37,37,26,13,14,8,,,,34,18,5,5,0.5,0.5
2024-08-26T0600,3311A,113.1075,22.5647,江门市,江海富民,,47,47,36,25,19,13,,,,39,24,6,6,0.6,0.5
2024-08-26T0600,3449A,113.05,22.4667,江门市,新会银湖,,36,28,27,25,18,7,,,,25,13,6,7,0.7,0.6
2024-08-26T0600,1828A,113.227,35.2125,焦作市,市环保局,,41,41,38,26,25,65,,,,15,14,4,3,0.5,0.5
2024-08-26T0600,1830A,113.1992,35.2590,焦作市,影视城,,,,,,,,,,,,,,,,
2024-08-26T0600,3169A,113.2725,35.2067,焦作市,太极体育中心,,41,41,48,26,25,77,,,,8,12,2,3,0.6,0.6
2024-08-26T0600,3335A,113.3137,35.2641,焦作市,马村街道办,,46,39,35,32,27,68,,,,13,12,3,3,0.6,0.6
2024-08-26T0600,3336A,113.2465,35.2373,焦作市,焦作技师学院,,42,39,43,29,23,66,,,,14,12,3,2,0.8,0.7
2024-08-26T0600,3477A,113.1656,35.2539,焦作市,中站许衡医院,,35,29,29,24,25,65,,,,16,9,3,3,0.7,0.5
2024-08-26T0600,3981A,113.2449,35.1803,焦作市,原李万街道办,细颗粒物(PM2.5),52,47,46,36,27,73,,,,10,12,15,9,0.9,0.9
2024-08-26T0600,1708A,116.3701,23.5345,揭阳市,新兴,颗粒物(PM10),52,53,39,34,25,24,,,,15,17,4,5,0.7,0.8
2024-08-26T0600,1709A,116.3264,23.5443,揭阳市,西马,,48,40,40,33,21,28,,,,10,11,5,5,0.6,0.7
2024-08-26T0600,1710A,116.3611,23.5626,揭阳市,东兴,颗粒物(PM10),53,56,44,28,20,29,,,,12,16,4,5,0.8,0.9
2024-08-26T0600,1711A,116.4151,23.5294,揭阳市,渔湖,,49,49,40,17,16,16,,,,22,24,5,6,0.6,0.6
2024-08-26T0600,3320A,116.403,23.5699,揭阳市,曲溪,,31,31,32,20,20,22,,,,21,23,2,4,0.8,0.8
2024-08-26T0600,1944A,102.1692,38.5167,金昌市,天庆家园,颗粒物(PM10),102,154,141,61,61,71,,,,6,10,10,9,0.6,0.5
2024-08-26T0600,3170A,102.1864,38.5253,金昌市,市委党校,颗粒物(PM10),114,178,178,44,58,56,,,,10,14,7,10,0.8,0.7
2024-08-26T0600,4022A,102.1647,38.5371,金昌市,金川区人防中心,颗粒物(PM10),119,188,159,31,48,65,,,,5,7,9,9,0.7,0.6
2024-08-26T0600,1262A,119.647,29.077,金华市,十五中,颗粒物(PM10),53,55,58,30,34,66,,,,22,18,3,3,0.2,0.2
2024-08-26T0600,1263A,119.686,29.1029,金华市,监测站,,50,50,57,32,37,70,,,,20,20,4,3,0.5,0.6
2024-08-26T0600,3659A,119.656,29.1131,金华市,气象局,,41,41,57,20,31,74,,,,15,22,5,6,0.7,0.7
2024-08-26T0600,1767A,121.1115,41.0879,锦州市,南山,,31,31,25,15,13,19,,,,23,18,27,11,0.6,0.6
2024-08-26T0600,1768A,121.0533,40.8434,锦州市,开发区,,30,30,43,20,20,16,,,,33,26,9,10,0.9,0.9
2024-08-26T0600,1769A,121.1836,41.1119,锦州市,百股街道,,33,33,28,17,9,10,,,,28,18,29,13,0.8,0.7
2024-08-26T0600,1770A,121.1178,41.1222,锦州市,天安街道,,25,25,27,17,18,24,,,,25,18,27,13,1.0,0.8
2024-08-26T0600,1771A,121.1303,41.1386,锦州市,北湖公园,,26,26,27,13,12,26,,,,16,13,15,9,0.7,0.7
2024-08-26T0600,2160A,112.85,35.5051,晋城市,自来水公司,颗粒物(PM10),51,51,43,22,22,103,,,,8,9,7,6,0.7,0.7
2024-08-26T0600,2161A,112.8318,35.4936,晋城市,白云商贸,,39,39,38,22,19,96,,,,10,11,8,8,0.8,0.8
2024-08-26T0600,2162A,112.8508,35.4887,晋城市,市环保局,,45,45,53,24,23,97,,,,8,9,8,7,0.7,0.7
2024-08-26T0600,2163A,112.8676,35.4897,晋城市,技术学院,,39,35,38,27,24,99,,,,11,13,8,7,0.8,0.7
2024-08-26T0600,2165A,112.8453,35.546,晋城市,白马寺,,,,,,,,,,,,,,,,
2024-08-26T0600,3620A,112.8271,35.4828,晋城市,泽州一中,颗粒物(PM10),52,54,36,24,20,88,,,,10,12,7,7,1.0,0.8
2024-08-26T0600,2171A,112.7532,37.6945,晋中市,锦纶小区,,19,19,44,12,25,57,,,,11,8,8,9,0.8,0.7
2024-08-26T0600,2173A,112.7249,37.7067,晋中市,南都小区,,32,32,47,18,31,60,,,,12,10,4,5,1.1,0.9
2024-08-26T0600,2174A,112.6991,37.6982,晋中市,榆次区政府,,19,17,43,13,27,59,,,,12,10,7,8,0.6,0.4
2024-08-26T0600,2865A,112.7195,37.6828,晋中市,榆次三中,,24,24,45,14,25,55,,,,14,9,6,6,1.9,0.9
2024-08-26T0600,2439A,112.2014,31.0481,荆门市,竹园小学,,45,43,35,31,18,75,,,,15,14,13,14,0.7,0.6
2024-08-26T0600,2440A,112.1969,30.9891,荆门市,掇刀,颗粒物(PM10),51,52,34,32,19,83,,,,16,15,9,11,0.6,0.5
2024-08-26T0600,2441A,112.2213,31.0386,荆门市,石化一小,,46,46,36,23,15,16,,,,41,16,14,17,0.7,0.5
2024-08-26T0600,3012A,112.1849,31.0362,荆门市,西山林语,,43,35,29,30,18,71,,,,12,13,10,11,0.7,0.6
2024-08-26T0600,3547A,112.1632,31.0138,荆门市,龙泉中学南校,,40,40,32,25,17,47,,,,16,14,8,11,0.5,0.5
2024-08-26T0600,1844A,112.2494,30.3197,荆州市,市图书馆,细颗粒物(PM2.5),52,49,29,36,19,50,,,,23,15,6,8,0.9,0.7
2024-08-26T0600,1845A,112.2008,30.3544,荆州市,市委党校,,50,43,29,35,22,56,,,,26,15,11,12,0.7,0.6
2024-08-26T0600,3194A,112.2747,30.3122,荆州市,管委会,颗粒物(PM10),54,58,29,36,23,59,,,,16,13,13,9,0.7,0.6
2024-08-26T0600,3548A,112.1655,30.3364,荆州市,学苑路,细颗粒物(PM2.5),69,55,35,50,27,35,,,,31,20,6,9,0.8,0.7
2024-08-26T0600,2342A,117.3102,29.3867,景德镇市,王港中学,,,,,,,,,,,,,,,,
2024-08-26T0600,2343A,117.2117,29.2933,景德镇市,老干部活动中心,,46,46,36,14,24,22,,,,14,12,6,7,0.5,0.5
2024-08-26T0600,2344A,117.1894,29.2789,景德镇市,兽医站,,49,49,40,27,26,16,,,,16,13,8,10,0.7,0.7
2024-08-26T0600,2345A,117.1547,29.2617,景德镇市,台达陶瓷,,42,42,50,22,31,20,,,,19,24,7,31,0.4,0.5
2024-08-26T0600,2346A,117.2461,29.2956,景德镇市,陶研所,,43,43,43,28,21,13,,,,16,13,8,12,0.4,0.4
2024-08-26T0600,1803A,115.9872,29.6815,九江市,十里,,43,38,41,30,28,46,,,,22,18,11,9,0.8,0.8
2024-08-26T0600,1804A,115.9584,29.7046,九江市,茅山头,,36,36,37,24,28,35,,,,33,24,10,9,0.7,0.7
2024-08-26T0600,1805A,115.9877,29.7295,九江市,西园,细颗粒物(PM2.5),64,46,40,46,27,41,,,,26,22,10,12,0.6,0.5
2024-08-26T0600,1806A,116.0172,29.6547,九江市,五七二七厂,,33,,27,23,29,33,,,,22,12,6,8,0.4,0.5
2024-08-26T0600,1808A,115.9114,29.6038,九江市,综合工业园,,38,38,36,26,28,55,,,,29,26,7,9,0.4,0.5
2024-08-26T0600,1809A,116.0721,29.7535,九江市,石化总厂,细颗粒物(PM2.5),67,56,50,48,27,12,,,,44,30,14,13,1.1,1
2024-08-26T0600,1810A,115.9773,29.5698,九江市,庐山气象台,,45,34,31,25,25,144,,,,2,3,6,11,0.6,0.8
2024-08-26T0600,3190A,116.0254,29.6994,九江市,外国语学校,,50,47,42,35,30,38,,,,33,23,37,14,0.9,0.9
2024-08-26T0600,2658A,98.5061,39.7443,酒泉市,仓门街子站,颗粒物(PM10),54,58,106,15,26,81,,,,9,7,8,9,0.2,0.2
2024-08-26T0600,2659A,98.4989,39.7256,酒泉市,油田生活基地,颗粒物(PM10),56,61,101,9,17,50,,,,16,10,8,14,0.1,0.2
2024-08-26T0600,2698A,76.0072,39.4467,喀什地区,巡警大队,颗粒物(PM10),68,86,90,3,14,48,,,,22,30,4,4,0.4,0.4
2024-08-26T0600,2699A,75.9755,39.4694,喀什地区,吾办,颗粒物(PM10),62,74,76,27,28,52,,,,16,24,4,5,0.6,0.6
2024-08-26T0600,4027A,75.9483,39.4689,喀什地区,老干局,颗粒物(PM10),63,75,96,14,15,54,,,,11,20,5,5,0.5,0.5
2024-08-26T0600,1824A,114.3389,34.7781,开封市,肿瘤医院,颗粒物(PM10),53,56,53,30,23,43,,,,10,10,4,4,0.6,0.5
2024-08-26T0600,1826A,114.2885,34.7965,开封市,世纪星幼儿园,,,58,50,,4,56,,,,12,15,4,4,0.7,0.7
2024-08-26T0600,3147A,114.3438,34.8106,开封市,龙亭公园,颗粒物(PM10),55,59,58,29,26,51,,,,11,15,2,2,0.8,0.8
2024-08-26T0600,3210A,114.3644,34.7964,开封市,汴京公园,细颗粒物(PM2.5),63,71,59,45,27,51,,,,14,15,4,4,0.6,0.5
2024-08-26T0600,3473A,114.2485,34.8306,开封市,技师学院,,,,41,,20,,,81,,,15,,2,,1.0
2024-08-26T0600,3592A,114.4644,34.7556,开封市,祥符区生态环境局,细颗粒物(PM2.5),52,52,41,36,27,54,,,,12,20,4,4,0.8,0.6
2024-08-26T0600,1951A,84.895,45.6094,克拉玛依市,长征新村,,20,12,18,10,3,63,,,,3,5,6,6,0.2,0.2
2024-08-26T0600,1952A,84.8988,45.5893,克拉玛依市,南林小区,,21,12,20,10,11,65,,,,4,9,9,9,0.2,0.2
2024-08-26T0600,1954A,84.905,44.3396,克拉玛依市,独山子区,,25,25,27,7,10,68,,,,5,7,7,8,0.2,0.3
2024-08-26T0600,1955A,85.6979,46.098,克拉玛依市,乌尔禾区商贸楼,,25,,18,3,8,80,,,,3,4,5,7,0.2,0.2
2024-08-26T0600,3612A,85.1045,45.6899,克拉玛依市,白碱滩区新站,,27,27,27,11,8,69,,,,4,4,10,8,0.3,0.3
2024-08-26T0600,2697A,76.1454,39.7142,克孜勒苏柯尔克孜自治州,市人民政府,颗粒物(PM10),55,59,58,16,22,89,,,,5,12,2,4,0.2,0.3
2024-08-26T0600,3665A,76.1658,39.7157,克孜勒苏柯尔克孜自治州,克州文化中心,颗粒物(PM10),51,52,55,3,20,86,,,,5,8,5,9,0.3,0.3
2024-08-26T0600,1450A,102.8204,24.8886,昆明市,呈贡新区,,11,8,23,3,10,34,,,,6,9,6,6,0.6,0.6
2024-08-26T0600,1451A,102.6251,24.9608,昆明市,西山森林公园,,,,,,,,,,,,,,,,
2024-08-26T0600,1452A,102.7252,25.0902,昆明市,龙泉镇,,10,9,18,3,11,30,,,,10,11,6,7,0.5,0.6
2024-08-26T0600,1453A,102.7266,25.0375,昆明市,东风东路,,10,6,17,3,12,31,,,,11,15,4,6,0.4,0.5
2024-08-26T0600,1454A,102.6742,25.0669,昆明市,金鼎山,,12,8,20,3,10,36,,,,8,12,5,7,0.2,0.3
2024-08-26T0600,1455A,102.6644,25.0401,昆明市,碧鸡广场,,11,9,21,3,11,34,,,,7,13,3,4,0.3,0.4
2024-08-26T0600,3179A,102.7494,25.0119,昆明市,官渡区博物馆,,10,7,18,7,12,27,,,,12,14,6,7,0.2,0.2
2024-08-26T0600,3375A,102.8017,24.8336,昆明市,青年创业园,,12,12,17,3,10,32,,,,6,8,2,3,0.4,0.4
2024-08-26T0600,3550A,102.7997,24.9786,昆明市,昆明学院,,12,8,22,3,13,37,,,,7,15,4,6,0.4,0.4
2024-08-26T0600,3551A,102.5967,24.6736,昆明市,晋宁区生态环境分局,,,,21,,9,,,55,,,10,,4,,0.4
2024-08-26T0600,3552A,102.6678,24.9856,昆明市,云天化总部,,12,8,19,3,13,37,,,,6,11,5,6,0.4,0.6
2024-08-26T0600,1456A,91.1319,29.6514,拉萨市,八廓街,,32,7,11,3,7,101,,,,8,11,6,7,0.1,0.3
2024-08-26T0600,1457A,91.1221,29.6747,拉萨市,市环保局,,32,9,14,6,6,100,,,,10,15,7,7,0.1,0.2
2024-08-26T0600,1458A,91.0874,29.6475,拉萨市,区监测站,,30,6,11,3,7,93,,,,12,14,8,8,0.1,0.3
2024-08-26T0600,1459A,91.1774,29.6541,拉萨市,西藏大学,,33,10,9,7,6,105,,,,4,7,8,7,0.2,0.2
2024-08-26T0600,1460A,90.9798,29.6588,拉萨市,区辐射站,,30,8,12,3,7,96,,,,7,14,8,8,0.1,0.2
2024-08-26T0600,1461A,91.0834,29.6292,拉萨市,拉萨火车站,,29,7,10,3,7,92,,,,6,10,5,5,0.3,0.2
2024-08-26T0600,2520A,109.2203,23.7256,来宾市,来宾技工学校,颗粒物(PM10),63,75,35,24,16,0,,,,26,13,24,17,0.8,0.7
2024-08-26T0600,3535A,109.1781,23.7297,来宾市,兴宾区政府,,33,33,24,13,10,15,,,,10,7,5,7,0.7,0.7
2024-08-26T0600,4002A,109.2416,23.7461,来宾市,中南小学,颗粒物(PM10),55,60,34,24,18,10,,,,24,14,33,13,1.0,0.8
2024-08-26T0600,1476A,103.631,36.1031,兰州市,兰炼宾馆,细颗粒物(PM2.5),53,53,37,37,23,77,,,,6,14,8,8,0.3,0.3
2024-08-26T0600,1477A,104.1373,35.9454,兰州市,榆中兰大校区,,,,,,,,,,,,,,,,
2024-08-26T0600,1478A,103.8412,36.0726,兰州市,生物制品所,颗粒物(PM10),55,60,36,30,21,79,,,,7,15,7,6,0.4,0.5
2024-08-26T0600,1479A,103.831,36.0464,兰州市,铁路设计院,颗粒物(PM10),56,62,38,28,24,86,,,,8,29,10,9,0.5,0.6
2024-08-26T0600,3186A,103.7158,36.1058,兰州市,教育港,颗粒物(PM10),58,66,50,34,28,80,,,,3,14,6,5,0.3,0.3
2024-08-26T0600,3241A,103.7439,36.0842,兰州市,百合公园,,47,47,38,22,19,80,,,,8,18,8,8,0.4,0.5
2024-08-26T0600,3242A,103.9611,35.998,兰州市,和平,颗粒物(PM10),54,57,39,29,19,92,,,,6,15,8,9,0.4,0.8
2024-08-26T0600,3245A,103.6633,36.533,兰州新区,新区管委会,颗粒物(PM10),78,105,52,27,24,81,,,,4,6,8,6,0.4,0.5
2024-08-26T0600,3246A,103.6975,36.4789,兰州新区,舟曲中学,颗粒物(PM10),74,98,48,39,23,90,,,,4,5,9,10,0.5,0.5
2024-08-26T0600,1067A,116.6708,39.5111,廊坊市,药材公司,,32,32,37,17,15,72,,,,8,18,3,3,0.8,0.5
2024-08-26T0600,1068A,116.7214,39.5589,廊坊市,开发区,,32,31,37,22,22,70,,,,8,15,1,2,0.9,0.6
2024-08-26T0600,1070A,116.7244,39.5269,廊坊市,北华航天学院,,44,44,48,21,17,71,,,,5,15,1,2,0.9,0.6
2024-08-26T0600,2919A,116.7022,39.5453,廊坊市,河北工业大学,,41,41,36,25,21,70,,,,7,14,1,1,0.8,0.5
2024-08-26T0600,2535A,103.7723,29.5462,乐山市,花湖湾,,45,38,45,31,42,95,,,,16,17,6,5,0.4,0.6
2024-08-26T0600,2536A,103.7627,29.5844,乐山市,牛耳桥,,36,32,50,25,39,106,,,,13,20,3,2,0.5,0.7
2024-08-26T0600,2537A,103.7508,29.6006,乐山市,市第三水厂,,43,33,52,30,37,109,,,,14,20,4,3,0.7,0.9
2024-08-26T0600,2538A,103.7571,29.5664,乐山市,市监测站,,38,34,47,26,37,108,,,,12,14,5,5,1.0,1.1
2024-08-26T0600,3361A,103.7311,29.5628,乐山市,理工大学,细颗粒物(PM2.5),55,47,53,39,42,65,,,,24,17,6,6,0.6,0.7
2024-08-26T0600,2598A,100.2143,26.8576,丽江市,西南郊,,,,,,,,,,,,,,,,
2024-08-26T0600,2599A,100.2497,26.8802,丽江市,丽江古城,,24,18,23,15,16,76,,,,8,12,9,9,0.7,0.6
2024-08-26T0600,2600A,100.2203,26.8906,丽江市,市中心,,24,,20,16,17,74,,,,11,13,8,8,0.6,0.8
2024-08-26T0600,1267A,119.914,28.4514,丽水市,监测站大楼,,18,14,32,10,20,57,,,,8,8,2,2,0.2,0.2
2024-08-26T0600,1268A,119.93,28.4586,丽水市,莲都小学,,18,16,31,12,19,51,,,,13,8,4,4,0.1,0.2
2024-08-26T0600,1269A,119.879,28.4231,丽水市,余庄前,,19,18,35,13,23,30,,,,10,9,3,3,0.3,0.4
2024-08-26T0600,1173A,119.176,34.5885,连云港市,市环境监测站,,20,14,23,3,11,62,,,,8,9,7,7,0.2,0.4
2024-08-26T0600,3000A,119.3581,34.6972,连云港市,德源药业,,36,36,25,14,10,49,,,,12,9,8,6,0.6,0.5
2024-08-26T0600,3007A,119.178,34.844,连云港市,新城一中,,21,21,28,10,14,52,,,,15,13,3,4,0.8,0.8
2024-08-26T0600,3008A,119.3608,34.7519,连云港市,胡沟管理处,,21,12,27,9,13,67,,,,3,11,7,10,0.8,0.9
2024-08-26T0600,3009A,119.1478,34.5911,连云港市,矿山设计院,,19,19,27,7,12,58,,,,10,12,3,3,0.5,0.6
2024-08-26T0600,3434A,119.2413,34.6539,连云港市,工贸学校,,23,17,25,11,16,73,,,,2,4,6,6,0.5,0.7
2024-08-26T0600,3664A,119.4172,34.7341,连云港市,连云街道,,24,18,30,10,16,74,,,,8,18,2,5,0.4,0.6
2024-08-26T0600,2571A,102.3431,27.8099,凉山彝族自治州,青龙寺,,29,,13,20,20,53,,,,8,6,5,9,0.1,0.3
2024-08-26T0600,2572A,102.2721,27.8415,凉山彝族自治州,邛海宾馆,,25,23,33,17,23,54,,,,16,12,13,14,0.7,0.7
2024-08-26T0600,2573A,102.2625,27.898,凉山彝族自治州,西昌市政府,,26,26,43,11,23,64,,,,8,10,10,13,0.7,0.8
2024-08-26T0600,2574A,102.2685,27.8851,凉山彝族自治州,凉山州政府,,29,29,44,17,24,56,,,,15,12,10,10,0.8,0.8
2024-08-26T0600,2575A,102.237,27.8914,凉山彝族自治州,长安,,33,33,42,22,24,39,,,,27,16,12,12,1.0,0.9
2024-08-26T0600,2212A,123.2,41.1953,辽阳市,宏伟区,,18,17,35,8,20,57,,,,9,19,7,9,0.6,0.8
2024-08-26T0600,2213A,123.1683,41.2495,辽阳市,新华园,,43,43,43,21,21,25,,,,18,24,6,8,0.7,0.7
2024-08-26T0600,2214A,123.2354,41.2639,辽阳市,滨河路,,32,32,36,16,18,24,,,,22,20,9,9,0.5,0.5
2024-08-26T0600,2215A,123.149,41.2991,辽阳市,铁西工业园,,42,42,40,16,18,9,,,,20,21,8,9,1.1,1
2024-08-26T0600,2227A,125.1358,42.8845,辽源市,环保局,,22,22,16,9,7,14,,,,15,7,6,5,0.6,0.5
2024-08-26T0600,3239A,125.0764,42.9078,辽源市,银鹰制药,,19,15,20,13,8,9,,,,25,16,5,4,0.7,0.7
2024-08-26T0600,1625A,115.9848,36.4372,聊城市,区政府,,36,17,39,16,21,114,,,,8,21,25,24,0.6,0.7
2024-08-26T0600,2878A,116.0072,36.4343,聊城市,聊大东校,,38,,53,22,39,120,,,,6,15,7,8,0.4,0.6
2024-08-26T0600,3200A,115.9819,36.4978,聊城市,监控中心,,37,33,56,24,32,117,,,,5,17,5,6,0.6,0.6
2024-08-26T0600,3513A,116.0445,36.4361,聊城市,九州社区,,35,31,57,20,36,111,,,,2,12,10,11,0.5,0.5
2024-08-26T0600,4018A,116.0567,36.4608,聊城市,星美广场,,36,,60,25,34,106,,,,7,16,5,6,0.4,0.6
2024-08-26T0600,2632A,94.3681,29.6376,林芝市,林芝监测站,,13,,11,3,7,40,,,,2,3,9,9,0.3,0.3
2024-08-26T0600,2633A,94.3616,29.6616,林芝市,林芝人民医院,,12,6,13,3,6,38,,,,4,5,7,7,0.2,0.2
2024-08-26T0600,2603A,100.0781,23.8982,临沧市,市环保局,,28,28,20,15,19,17,,,,10,10,5,5,0.3,0.3
2024-08-26T0600,2604A,100.0894,23.8822,临沧市,市气象局,,22,19,15,15,12,16,,,,10,9,6,5,0.3,0.2
2024-08-26T0600,1733A,111.5531,36.0783,临汾市,临钢医院,,22,14,50,11,25,70,,,,5,8,6,6,0.9,0.7
2024-08-26T0600,1734A,111.5028,36.0714,临汾市,技工学校,,22,19,52,13,19,69,,,,11,13,7,5,0.9,0.8
2024-08-26T0600,1736A,111.5018,36.0855,临汾市,市委,,23,23,47,11,27,68,,,,10,11,5,4,1.2,1
2024-08-26T0600,3018A,111.505,36.1014,临汾市,唐尧大酒店,,30,30,40,12,23,67,,,,11,16,5,3,0.9,0.7
2024-08-26T0600,3668A,111.5036,36.0414,临汾市,城南,,25,25,47,15,23,68,,,,4,8,4,3,1.0,0.9
2024-08-26T0600,2667A,103.2069,35.5993,临夏回族自治州,环保局,,41,41,27,3,16,71,,,,2,3,6,6,0.3,0.3
2024-08-26T0600,2668A,103.2417,35.6057,临夏回族自治州,建设大厦,,28,25,22,19,17,63,,,,7,7,4,4,0.4,0.3
2024-08-26T0600,1618A,118.3429,35.0532,临沂市,沂河小区,,24,24,41,16,25,51,,,,7,11,7,8,0.3,0.5
2024-08-26T0600,1619A,118.295,35.0583,临沂市,鲁南制药厂,,26,,33,18,22,60,,,,10,10,4,5,0.3,0.5
2024-08-26T0600,1620A,118.2794,34.9976,临沂市,新光毛纺厂,,19,14,32,13,23,47,,,,21,15,6,7,0.4,0.7
2024-08-26T0600,1621A,118.3956,35.0888,临沂市,河东保险公司,,26,24,35,18,22,41,,,,15,16,6,8,0.3,0.6
2024-08-26T0600,3370A,118.3564,35.0215,临沂市,十里堡居委,,18,,29,12,24,46,,,,10,11,7,8,0.6,0.8
2024-08-26T0600,3496A,118.3604,35.1084,临沂市,南坊新区,,24,24,42,14,21,44,,,,11,13,7,10,0.5,0.8
2024-08-26T0600,3860A,118.3920,35.0300,临沂市,皇山花园小区,,24,24,38,13,26,43,,,,18,17,7,7,0.5,0.7
2024-08-26T0600,1870A,109.4856,24.3895,柳州市,柳东小学,,36,36,23,18,13,7,,,,33,15,15,9,0.8,0.7
2024-08-26T0600,1871A,109.4157,24.3277,柳州市,环保监测站,颗粒物(PM10),51,52,26,20,18,11,,,,24,12,9,8,1.1,0.9
2024-08-26T0600,1872A,109.389,24.341,柳州市,河西水厂,,46,46,37,18,16,12,,,,25,15,13,7,1.1,0.9
2024-08-26T0600,1873A,109.4311,24.2921,柳州市,市四中,颗粒物(PM10),52,54,31,20,19,18,,,,25,13,6,6,0.8,0.8
2024-08-26T0600,1874A,109.4006,24.3631,柳州市,市九中,颗粒物(PM10),54,58,43,30,17,9,,,,26,15,7,7,0.7,0.6
2024-08-26T0600,1875A,109.4958,24.3134,柳州市,古亭山,,33,33,25,13,14,10,,,,29,19,11,8,0.9,0.9
2024-08-26T0600,3402A,109.5422,24.3996,柳州市,市二中,,44,44,26,18,14,3,,,,27,16,8,10,0.7,0.7
2024-08-26T0600,2307A,116.5079,31.737,六安市,监测大楼,,28,28,30,19,20,89,,,,10,8,8,7,0.6,0.5
2024-08-26T0600,2308A,116.4738,31.7643,六安市,皖西学院,,40,40,41,23,20,108,,,,7,7,6,5,0.4,0.4
2024-08-26T0600,2309A,116.4996,31.7905,六安市,朝阳厂,,42,32,31,21,20,132,,,,5,5,3,3,0.5,0.4
2024-08-26T0600,2310A,116.5567,31.7886,六安市,开发区,,45,44,41,31,25,99,,,,11,9,3,3,0.5,0.5
2024-08-26T0600,2576A,104.8,26.5892,六盘水市,窑上,,,,,,,,,,,,,,,,
2024-08-26T0600,2577A,104.83,26.5917,六盘水市,黄土坡,,18,13,13,12,9,29,,,,8,6,5,6,0.3,0.3
2024-08-26T0600,2578A,104.89,26.5939,六盘水市,水钢,,20,20,17,7,4,44,,,,6,5,6,6,0.3,0.3
2024-08-26T0600,2579A,104.8475,26.5894,六盘水市,民中,,14,10,11,3,4,44,,,,6,5,7,7,0.2,0.3
2024-08-26T0600,2580A,104.9544,26.5506,六盘水市,双水,,16,9,12,3,6,50,,,,3,4,6,6,0.3,0.3
2024-08-26T0600,2335A,117.0189,25.1181,龙岩市,龙岩师专,,,,,,,,,,,,,,,,
2024-08-26T0600,2336A,117.0217,25.1033,龙岩市,龙岩市监测站,,28,27,22,19,13,6,,,,22,14,8,5,0.5,0.4
2024-08-26T0600,2337A,117.0258,25.0661,龙岩市,闽西职业技术学院,颗粒物(PM10),54,58,34,25,20,8,,,,20,21,18,11,0.4,0.5
2024-08-26T0600,2338A,117.0196,25.0306,龙岩市,龙岩学院,,30,30,25,11,13,16,,,,7,8,3,3,0.4,0.4
2024-08-26T0600,2665A,105.0822,33.3261,陇南市,汉王镇固水子,,,,,,,,,,,,,,,,
2024-08-26T0600,2885A,104.9339,33.3826,陇南市,滨江中学,,45,45,43,17,21,75,,,,10,8,5,5,0.4,0.3
2024-08-26T0600,3247A,104.955,33.371,陇南市,市总工会,,23,14,41,3,14,72,,,,3,6,7,7,0.2,0.2
2024-08-26T0600,2487A,111.9589,27.8901,娄底市,电视发射台,,29,29,41,17,21,18,,,,5,8,6,9,0.5,0.8
2024-08-26T0600,2488A,111.9975,27.725,娄底市,市监测站,颗粒物(PM10),56,62,58,39,35,13,,,,26,18,13,14,1.3,1.1
2024-08-26T0600,2489A,112.0194,27.7314,娄底市,市委党校,细颗粒物(PM2.5),52,47,49,36,33,16,,,,12,12,8,11,0.9,0.8
2024-08-26T0600,2490A,111.9561,27.7569,娄底市,涟钢,"颗粒物(PM10),细颗粒物(PM2.5)",53,55,53,37,33,12,,,,26,19,12,12,0.6,1.1
2024-08-26T0600,2491A,111.9892,27.7044,娄底市,市政府,细颗粒物(PM2.5),85,,44,63,34,8,,,,13,10,6,6,0.7,0.5
2024-08-26T0600,1893A,105.4324,28.9634,泸州市,九狮山,,24,24,19,16,13,25,,,,2,5,6,5,0.2,0.3
2024-08-26T0600,1894A,105.4427,28.9063,泸州市,小市上码头,,14,10,19,8,9,43,,,,11,12,22,10,0.3,0.2
2024-08-26T0600,1895A,105.4241,28.8573,泸州市,兰田宪桥,,17,17,19,11,11,28,,,,17,16,7,7,0.3,0.3
2024-08-26T0600,1896A,105.4379,28.8833,泸州市,市环监站,,18,16,19,12,13,36,,,,17,12,7,7,0.3,0.3
2024-08-26T0600,3490A,105.3617,28.7703,泸州市,纳溪区环保局,,33,,24,23,18,20,,,,26,19,6,6,0.4,0.3
2024-08-26T0600,2183A,111.1406,37.5211,吕梁市,环保局,,22,,45,6,28,69,,,,4,13,4,5,0.5,0.6
2024-08-26T0600,2185A,111.1297,37.5136,吕梁市,自来水公司,,,,45,7,27,71,,,,4,12,3,4,0.5,0.7
2024-08-26T0600,2867A,111.1283,37.51,吕梁市,马茂庄小学,,22,,47,12,29,68,,,,10,19,2,3,0.4,0.6
2024-08-26T0600,1812A,112.3931,34.6516,洛阳市,市委党校,,42,33,34,29,26,38,,,,15,11,4,3,0.9,0.8
2024-08-26T0600,1814A,112.4657,34.6871,洛阳市,豫西宾馆,,35,35,36,24,21,42,,,,11,10,4,4,0.7,0.7
2024-08-26T0600,1815A,112.494,34.6886,洛阳市,河南林校,,29,,25,20,21,44,,,,13,11,4,4,0.6,0.5
2024-08-26T0600,1816A,112.3844,34.623,洛阳市,开发区管委会,,32,31,32,22,23,30,,,,17,11,2,2,0.6,0.6
2024-08-26T0600,1817A,112.4267,34.6258,洛阳市,市委新办公区,,35,29,29,24,26,44,,,,7,6,4,4,0.7,0.7
2024-08-26T0600,3340A,112.6005,34.6326,洛阳市,伊滨,,40,32,37,28,26,37,,,,7,8,6,5,0.7,0.7
2024-08-26T0600,3341A,112.4951,34.6332,洛阳市,中移产业园,,39,38,34,27,24,38,,,,11,8,6,4,0.9,0.9
2024-08-26T0600,3593A,112.5736,34.8993,洛阳市,吉利监测站,,41,41,40,28,26,31,,,,16,10,1,2,0.9,0.8
2024-08-26T0600,3635A,112.3677,34.662,洛阳市,河科大西苑校区,,28,28,28,17,17,35,,,,13,8,6,6,0.8,0.8
2024-08-26T0600,3636A,112.4388,34.6781,洛阳市,英才小学,,43,31,24,30,28,37,,,,9,6,5,3,0.8,0.7
2024-08-26T0600,2399A,114.051,33.5699,漯河市,三五一五工厂,细颗粒物(PM2.5),58,51,47,41,30,34,,,,21,17,6,6,0.7,0.7
2024-08-26T0600,2400A,114.0055,33.5698,漯河市,漯河大学,颗粒物(PM10),51,52,49,34,27,42,,,,16,14,10,10,0.8,0.7
2024-08-26T0600,2401A,114.0138,33.5828,漯河市,市水利局,颗粒物(PM10),56,61,52,31,27,33,,,,19,14,8,7,0.8,0.8
2024-08-26T0600,2402A,114.0261,33.5698,漯河市,市广电局,细颗粒物(PM2.5),58,61,46,41,27,33,,,,20,13,9,9,0.8,0.7
2024-08-26T0600,3478A,113.9749,33.5664,漯河市,市图书馆,细颗粒物(PM2.5),60,47,50,43,31,41,,,,15,15,7,6,0.7,0.7
2024-08-26T0600,3479A,114.0967,33.5906,漯河市,召陵区卫健委,颗粒物(PM10),58,66,53,35,33,25,,,,21,14,3,3,0.7,0.7
2024-08-26T0600,1798A,118.5092,31.6837,马鞍山市,湖东路四小,,42,32,42,29,25,58,,,,18,20,9,8,0.8,0.8
2024-08-26T0600,1799A,118.5024,31.6449,马鞍山市,开发区,,50,50,49,28,26,34,,,,27,25,4,4,0.8,0.8
2024-08-26T0600,1800A,118.5228,31.7231,马鞍山市,慈湖,颗粒物(PM10),52,54,41,27,24,49,,,,16,15,6,6,0.8,0.8
2024-08-26T0600,1802A,118.6245,31.7241,马鞍山市,濮塘,,30,24,31,21,24,44,,,,20,16,5,5,0.7,0.8
2024-08-26T0600,3633A,118.4918,31.6809,马鞍山市,雨山,,38,38,39,22,22,60,,,,14,11,7,6,0.3,0.4
2024-08-26T0600,1686A,111.0286,21.4688,茂名市,电白南海,,12,9,18,3,12,37,,,,8,7,7,7,0.5,0.5
2024-08-26T0600,1687A,110.9294,21.6533,茂名市,茂石化七小,,13,9,19,9,18,30,,,,6,9,5,7,0.3,0.3
2024-08-26T0600,1688A,110.9107,21.6687,茂名市,健康路,,11,9,19,3,9,33,,,,6,9,10,12,0.4,0.5
2024-08-26T0600,1689A,110.8592,21.6828,茂名市,高岭,,14,14,27,3,15,15,,,,12,10,10,18,0.3,0.5
2024-08-26T0600,3450A,111.01,21.5165,茂名市,电白水东,,13,,12,9,10,33,,,,5,6,4,5,0.4,0.4
2024-08-26T0600,2539A,104.0308,30.0478,眉山市,黑龙滩水库,,40,40,43,28,28,95,,,,6,7,5,5,0.4,0.5
2024-08-26T0600,2540A,103.8416,30.0874,眉山市,气象局,,34,34,52,17,33,95,,,,15,24,9,9,0.5,0.6
2024-08-26T0600,3137A,103.8578,30.0744,眉山市,市委党校,,32,27,49,17,31,102,,,,12,19,7,11,0.3,0.5
2024-08-26T0600,3148A,103.8291,30.0564,眉山市,区人社局,,34,27,46,17,30,107,,,,11,22,8,10,0.5,0.6
2024-08-26T0600,1690A,116.1231,24.3284,梅州市,梅江月梅,,29,29,25,11,11,11,,,,18,10,6,6,0.4,0.4
2024-08-26T0600,1691A,116.0797,24.2719,梅州市,梅县新城,,23,23,23,13,12,28,,,,6,10,6,4,0.5,0.5
2024-08-26T0600,1692A,116.1248,24.2654,梅州市,环境监控中心,,26,26,23,14,14,21,,,,17,13,4,4,0.4,0.4
2024-08-26T0600,3315A,116.1233,24.2991,梅州市,梅龙,,29,,16,20,15,40,,,,9,11,8,8,0.5,0.5
2024-08-26T0600,1878A,104.7778,31.4741,绵阳市,富乐山,,38,32,38,26,29,58,,,,11,10,3,3,0.7,0.7
2024-08-26T0600,1879A,104.7563,31.4535,绵阳市,市人大,,40,39,42,28,27,55,,,,16,18,10,11,0.6,0.6
2024-08-26T0600,1880A,104.6697,31.4668,绵阳市,高新区自来水公司,,41,41,42,22,23,64,,,,15,16,3,3,0.7,0.6
2024-08-26T0600,1881A,104.7287,31.5075,绵阳市,三水厂,,50,48,44,35,33,35,,,,25,21,5,4,0.9,0.9
2024-08-26T0600,3491A,104.69,31.5322,绵阳市,西科大附属小学,,44,44,40,26,29,52,,,,20,18,11,10,0.7,0.7
2024-08-26T0600,3492A,104.5648,31.5343,绵阳市,安州区旅游局,,36,36,42,24,31,61,,,,12,12,8,7,0.6,0.6
2024-08-26T0600,1784A,129.61,44.561,牡丹江市,环保大楼,,46,46,31,17,21,12,,,,16,13,7,8,0.5,0.4
2024-08-26T0600,1785A,129.6115,44.5782,牡丹江市,文化广场,,32,32,43,20,30,14,,,,16,16,7,9,0.4,0.5
2024-08-26T0600,1786A,129.5904,44.5963,牡丹江市,第一医院,,36,,33,25,28,12,,,,20,14,6,6,0.6,0.5
2024-08-26T0600,1787A,129.6364,44.6075,牡丹江市,机车工厂,,33,29,33,23,20,5,,,,20,12,6,6,0.4,0.4
2024-08-26T0600,1788A,129.6386,44.5462,牡丹江市,第一中学,,26,21,25,18,18,8,,,,12,11,6,6,0.4,0.4
2024-08-26T0600,2531A,105.0703,29.61,内江市,市监测站,细颗粒物(PM2.5),53,,28,37,26,29,,,,20,20,12,13,0.6,0.4
2024-08-26T0600,2532A,105.0717,29.5947,内江市,东兴区政府,,37,37,23,21,21,47,,,,16,19,11,11,0.5,0.4
2024-08-26T0600,2533A,105.0653,29.5817,内江市,内江二中,,49,,24,34,25,40,,,,18,17,8,8,0.3,0.3
2024-08-26T0600,2534A,105.0406,29.5822,内江市,内江日报社,细颗粒物(PM2.5),59,,28,42,24,16,,,,32,26,9,9,0.5,0.3
2024-08-26T0600,2628A,92.0657,31.4846,那曲市,那曲监测站,,26,24,33,12,15,81,,,,6,7,6,7,0.3,0.4
2024-08-26T0600,3128A,92.0506,31.4797,那曲市,那曲会议中心,,24,20,30,7,16,75,,,,7,12,4,4,0.4,0.4
2024-08-26T0600,1290A,115.8931,28.6843,南昌市,省外办,细颗粒物(PM2.5),55,53,44,39,29,49,,,,20,16,14,10,0.7,0.5
2024-08-26T0600,1291A,115.8886,28.7003,南昌市,省林业公司,颗粒物(PM10),51,51,43,31,24,24,,,,32,20,9,8,0.8,0.8
2024-08-26T0600,1292A,115.8126,28.7442,南昌市,林科所,,32,24,32,22,19,42,,,,12,16,10,10,0.3,0.3
2024-08-26T0600,1294A,115.8518,28.687,南昌市,建工学校,颗粒物(PM10),54,58,40,32,19,22,,,,40,21,13,10,0.6,0.5
2024-08-26T0600,1295A,115.8921,28.6424,南昌市,象湖,颗粒物(PM10),54,58,36,34,25,37,,,,26,17,13,6,0.8,0.8
2024-08-26T0600,1296A,115.7423,28.7996,南昌市,武术学校,,27,27,26,10,16,10,,,,3,4,3,3,0.9,0.8
2024-08-26T0600,1298A,115.9314,28.6842,南昌市,省站,细颗粒物(PM2.5),53,47,34,37,27,43,,,,23,16,14,10,0.8,0.7
2024-08-26T0600,3046A,115.9084,28.6062,南昌市,机电学校,颗粒物(PM10),58,66,49,34,23,30,,,,24,15,17,11,0.8,0.8
2024-08-26T0600,3690A,115.9721,28.7031,南昌市,外国语学校,颗粒物(PM10),58,66,41,21,20,16,,,,50,14,8,7,0.7,0.6
2024-08-26T0600,1905A,106.056,30.8064,南充市,西山风景区,细颗粒物(PM2.5),64,,22,46,22,32,,,,19,10,3,3,1.0,0.8
2024-08-26T0600,1906A,106.0789,30.8023,南充市,南充市委,,38,34,32,26,21,26,,,,23,16,7,8,0.5,0.4
2024-08-26T0600,1907A,106.1031,30.8217,南充市,南充炼油厂,细颗粒物(PM2.5),78,79,48,57,32,22,,,,25,14,7,8,0.7,0.4
2024-08-26T0600,1908A,106.1064,30.7856,南充市,高坪区监测站,细颗粒物(PM2.5),74,62,36,54,23,29,,,,25,19,8,7,0.7,0.5
2024-08-26T0600,1909A,106.0642,30.7636,南充市,嘉陵区环保局,细颗粒物(PM2.5),67,60,34,48,20,28,,,,32,19,6,6,0.6,0.4
2024-08-26T0600,1910A,106.1087,30.8388,南充市,市环境监测站,细颗粒物(PM2.5),58,55,44,41,29,31,,,,22,16,6,7,0.4,0.3
2024-08-26T0600,1151A,118.8086,32.1065,南京市,迈皋桥,,25,23,29,17,18,31,,,,25,22,6,6,0.3,0.4
2024-08-26T0600,1152A,118.7538,32.0551,南京市,草场门,,29,29,34,12,16,39,,,,22,17,7,7,0.5,0.5
2024-08-26T0600,1153A,118.7794,32.0745,南京市,山西路,,31,31,39,17,19,46,,,,16,18,4,4,0.4,0.5
2024-08-26T0600,1154A,118.7752,32.0023,南京市,中华门,,29,29,32,14,18,33,,,,20,13,4,4,0.5,0.5
2024-08-26T0600,1155A,118.8109,32.0309,南京市,瑞金路,,29,29,36,17,20,37,,,,8,7,5,4,0.5,0.6
2024-08-26T0600,1156A,118.7997,32.0754,南京市,玄武湖,,27,27,37,9,15,46,,,,2,11,4,4,0.6,0.7
2024-08-26T0600,1157A,118.6414,32.0931,南京市,浦口,,33,33,36,14,18,42,,,,16,18,7,8,0.3,0.4
2024-08-26T0600,1158A,118.7356,31.9996,南京市,奥体中心,,31,31,36,17,22,40,,,,20,15,6,5,0.3,0.4
2024-08-26T0600,1159A,118.9125,32.1028,南京市,仙林大学城,,22,22,30,12,16,35,,,,18,13,8,8,0.6,0.7
2024-08-26T0600,3422A,118.8436,31.9198,南京市,江宁彩虹桥,,27,27,35,14,19,21,,,,20,10,3,4,0.6,0.5
2024-08-26T0600,3423A,119.0138,31.6494,南京市,溧水永阳,,27,27,30,17,19,54,,,,15,12,4,4,0.5,0.6
2024-08-26T0600,3424A,118.879,31.3302,南京市,高淳老职中,,35,35,36,22,24,79,,,,14,12,9,6,0.7,0.7
2024-08-26T0600,3427A,118.8554,32.3578,南京市,六合雄州,,39,39,32,18,19,13,,,,28,20,5,5,0.9,0.7
2024-08-26T0600,1401A,108.3103,22.7881,南宁市,二十一中,,19,15,23,13,13,30,,,,18,12,8,4,0.7,0.7
2024-08-26T0600,1402A,108.3141,22.8528,南宁市,北湖,,38,38,22,20,14,4,,,,35,14,7,4,0.9,0.8
2024-08-26T0600,1403A,108.3206,22.8225,南宁市,市监测站,,19,,21,13,12,35,,,,17,15,9,7,0.6,0.6
2024-08-26T0600,1404A,108.3829,22.8037,南宁市,大自然花园,,22,22,22,14,14,21,,,,17,13,6,5,0.7,0.7
2024-08-26T0600,1405A,108.4394,22.7904,南宁市,仙葫,,20,16,25,14,15,32,,,,12,10,8,7,0.7,0.6
2024-08-26T0600,1406A,108.2397,22.8467,南宁市,区农职院,,25,25,29,14,14,4,,,,23,15,10,8,1.0,0.8
2024-08-26T0600,1407A,108.3275,22.735,南宁市,英华嘉园,,30,30,27,14,13,15,,,,33,20,12,8,0.6,0.5
2024-08-26T0600,1408A,108.2257,22.7757,南宁市,沙井镇街道办,颗粒物(PM10),66,81,42,17,14,4,,,,39,24,4,3,0.6,0.5
2024-08-26T0600,3401A,108.4834,22.7618,南宁市,红星社区,,27,27,24,11,14,30,,,,15,11,9,6,0.8,0.7
2024-08-26T0600,2331A,118.0966,26.6761,南平市,茫荡山,,,,,,,,,,,,,,,,
2024-08-26T0600,2332A,118.1681,26.6369,南平市,南平市监测站,,21,21,23,11,12,14,,,,11,9,4,4,0.6,0.7
2024-08-26T0600,2333A,118.1825,26.6489,南平市,南平铝业有限公司,,20,20,23,14,13,18,,,,10,11,6,7,0.6,0.6
2024-08-26T0600,2334A,118.1756,26.6272,南平市,南平七中,,24,24,24,11,12,13,,,,11,6,6,4,0.6,0.5
2024-08-26T0600,1168A,120.9098,31.9663,南通市,狼山街道,,11,11,13,3,8,30,,,,10,6,6,6,0.4,0.4
2024-08-26T0600,1169A,120.86,32.0005,南通市,虹桥,,13,12,16,6,7,31,,,,8,6,6,5,1.3,1.2
2024-08-26T0600,1170A,120.87,32.02,南通市,城中,,14,14,19,6,6,32,,,,16,13,6,5,0.6,0.6
2024-08-26T0600,1171A,120.94,31.93,南通市,星湖花园,,9,6,8,3,4,28,,,,15,10,5,4,0.6,0.6
2024-08-26T0600,1172A,120.81,32.0417,南通市,紫琅学院,,9,6,11,3,6,26,,,,18,11,7,7,0.8,0.8
2024-08-26T0600,3291A,121.067,32.062,南通市,通州监测站,,19,19,16,3,7,34,,,,10,6,3,3,0.5,0.6
2024-08-26T0600,3432A,120.9348,31.9883,南通市,环境教育馆,,17,17,20,3,6,19,,,,15,7,4,4,0.4,0.4
2024-08-26T0600,2404A,112.5224,33.0122,南阳市,瓦房庄,,36,36,43,22,24,50,,,,15,12,6,5,0.5,0.5
2024-08-26T0600,2405A,112.5003,32.9735,南阳市,汉画馆,,36,36,41,24,23,37,,,,18,13,5,5,0.6,0.6
2024-08-26T0600,2406A,112.5573,33.027,南阳市,气象站,,44,44,49,24,22,47,,,,13,11,5,5,0.7,0.7
2024-08-26T0600,2407A,112.5481,32.9689,南阳市,理工学院,,35,35,35,18,22,40,,,,19,13,6,5,0.6,0.6
2024-08-26T0600,4008A,112.5234,32.9922,南阳市,卧龙区政府,,42,42,43,24,25,51,,,,16,16,5,4,0.7,0.7
2024-08-26T0600,1234A,121.8358,29.911,宁波市,区环保大楼,,20,19,22,14,12,50,,,,10,7,8,7,0.7,0.6
2024-08-26T0600,1235A,121.56,29.82,宁波市,万里学院,,23,23,29,15,17,47,,,,12,10,10,10,0.6,0.6
2024-08-26T0600,1236A,121.713,29.9572,宁波市,龙赛医院,,16,16,22,10,11,50,,,,14,11,10,9,0.5,0.6
2024-08-26T0600,1239A,121.633,29.7733,宁波市,钱湖水厂,,16,16,19,11,13,43,,,,7,6,8,7,0.6,0.6
2024-08-26T0600,1240A,121.5856,29.8635,宁波市,太古小学,,19,19,23,8,14,45,,,,13,10,6,6,0.8,0.8
2024-08-26T0600,1241A,121.524,29.8674,宁波市,市环境监测中心,,17,17,24,7,12,52,,,,12,11,6,5,0.5,0.6
2024-08-26T0600,2871A,121.6147,29.9017,宁波市,万里国际学校,,18,14,19,11,16,57,,,,8,8,7,6,0.4,0.4
2024-08-26T0600,3710A,121.5594,29.8975,宁波市,白沙活动中心,,20,20,28,9,11,50,,,,13,10,8,8,0.6,0.6
2024-08-26T0600,2339A,119.5001,26.6946,宁德市,金涵水库,,,,,,,,,,,,,,,,
2024-08-26T0600,2341A,119.5388,26.6612,宁德市,宁德市监测站,,18,18,30,11,19,24,,,,8,9,6,6,0.7,0.7
2024-08-26T0600,3209A,119.5231,26.6562,宁德市,宁德一中,,21,21,30,9,18,21,,,,6,7,5,6,0.7,0.6
2024-08-26T0600,2618A,98.8601,25.8567,怒江傈僳族自治州,州监测站,,26,26,22,16,15,23,,,,15,12,6,6,0.4,0.4
2024-08-26T0600,2619A,98.8546,25.8417,怒江傈僳族自治州,泸水一中,,18,18,19,6,10,10,,,,20,16,5,5,0.4,0.4
2024-08-26T0600,1888A,101.6891,26.571,攀枝花市,弄弄坪,,49,49,43,14,21,76,,,,10,16,10,17,0.8,1.1
2024-08-26T0600,1889A,101.5769,26.5928,攀枝花市,河门口,,26,23,32,14,20,83,,,,10,14,5,7,0.7,0.8
2024-08-26T0600,1890A,101.7169,26.585,攀枝花市,炳草岗,,46,46,45,19,25,51,,,,16,21,14,20,0.6,0.8
2024-08-26T0600,1891A,101.7369,26.5008,攀枝花市,仁和,,41,41,39,24,25,59,,,,18,17,13,18,2.2,1.3
2024-08-26T0600,2835A,101.7227,26.567,攀枝花市,四十中小,,35,35,38,18,23,88,,,,9,17,7,18,0.7,0.9
2024-08-26T0600,1604A,122.0303,41.1489,盘锦市,开发区,,32,32,28,14,12,28,,,,25,17,6,8,0.5,0.4
2024-08-26T0600,1605A,122.0485,41.0883,盘锦市,兴隆台,,20,20,29,13,11,35,,,,23,17,8,6,0.6,0.6
2024-08-26T0600,1606A,121.8297,41.1028,盘锦市,新生街道,,20,16,23,14,11,18,,,,26,18,7,6,0.8,0.7
2024-08-26T0600,1832A,113.3257,33.742,平顶山市,新华旅馆,颗粒物(PM10),67,83,52,46,28,14,,,,41,31,5,5,0.6,0.5
2024-08-26T0600,1833A,113.2919,33.737,平顶山市,规划设计院,,50,42,32,35,23,26,,,,24,22,7,6,1.0,0.9
2024-08-26T0600,1834A,113.182,33.774,平顶山市,平顶山工学院,,38,38,33,19,17,39,,,,26,21,7,6,0.9,0.9
2024-08-26T0600,3204A,113.3025,33.73,平顶山市,规划局,,46,41,38,32,25,30,,,,22,23,2,2,0.9,0.9
2024-08-26T0600,3594A,112.8867,33.9116,平顶山市,石龙区,颗粒物(PM10),70,89,60,30,19,9,,,,44,26,8,8,0.8,0.6
2024-08-26T0600,2656A,106.6692,35.5461,平凉市,聚贤嘉苑,,29,25,42,12,17,92,,,,8,22,6,8,0.3,0.4
2024-08-26T0600,2657A,106.7021,35.5307,平凉市,博物馆,,28,23,42,3,14,87,,,,17,30,7,7,0.4,0.5
2024-08-26T0600,2347A,114.0997,27.5002,萍乡市,武功山,,18,18,11,3,4,25,,,,3,4,8,8,0.3,0.3
2024-08-26T0600,2348A,113.8385,27.6434,萍乡市,中医院,,42,42,32,28,19,8,,,,21,13,15,11,1.2,0.9
2024-08-26T0600,2349A,113.8493,27.6253,萍乡市,市政府车库,,37,37,36,22,18,14,,,,12,12,18,19,0.9,1.5
2024-08-26T0600,2350A,113.8676,27.6435,萍乡市,市环保局,,42,42,35,20,21,6,,,,19,12,22,19,1.1,1
2024-08-26T0600,2351A,113.866,27.6198,萍乡市,安源区政府,,31,31,34,21,13,12,,,,13,15,12,16,0.5,1.4
2024-08-26T0600,2319A,119.0141,25.4325,莆田市,荔城区仓后路,,38,38,37,26,18,34,,,,16,12,7,7,0.7,0.7
2024-08-26T0600,2320A,119.0015,25.4553,莆田市,莆田市监测站,,34,34,33,20,18,39,,,,6,8,6,6,0.5,0.5
2024-08-26T0600,2321A,119.1119,25.4561,莆田市,涵江区六中,,36,36,33,22,19,50,,,,14,12,6,6,0.6,0.5
2024-08-26T0600,2322A,119.1013,25.3215,莆田市,秀屿区政府,细颗粒物(PM2.5),67,71,28,48,26,61,,,,15,8,8,7,0.7,0.6
2024-08-26T0600,2323A,118.981,25.4792,莆田市,东圳水库,,,,,,,,,,,,,,,,
2024-08-26T0600,2392A,115.0312,35.7636,濮阳市,环保局,,45,40,42,31,32,69,,,,8,11,4,5,0.8,0.8
2024-08-26T0600,2394A,115.0574,35.7609,濮阳市,油田运输公司,,42,42,44,12,25,78,,,,5,11,1,2,0.7,0.7
2024-08-26T0600,2395A,115.0866,35.7754,濮阳市,油田物探公司,细颗粒物(PM2.5),52,38,47,36,39,77,,,,5,9,4,5,0.6,0.6
2024-08-26T0600,3021A,115,35.7668,濮阳市,濮水河管理处,细颗粒物(PM2.5),53,47,42,37,33,68,,,,8,10,2,2,0.8,0.7
2024-08-26T0600,2601A,100.98,22.7633,普洱市,市环保局,,15,15,18,10,14,21,,,,3,6,5,6,0.4,0.4
2024-08-26T0600,2602A,100.9817,22.8322,普洱市,普洱第二中学,,20,18,19,14,13,16,,,,7,6,7,7,0.4,0.4
2024-08-26T0600,2262A,131.0518,45.8751,七台河市,新一中,,20,20,22,12,15,53,,,,11,10,9,10,0.9,0.9
2024-08-26T0600,3345A,131.0577,45.7879,七台河市,中波台,,15,12,17,3,8,48,,,,11,15,10,10,0.7,0.7
2024-08-26T0600,3637A,131.0176,45.7761,七台河市,人民广场,,15,13,28,10,19,46,,,,7,12,8,8,0.4,0.4
2024-08-26T0600,3684A,130.8781,45.8222,七台河市,新建矿广场,,39,39,38,17,19,25,,,,26,21,8,9,0.6,0.5
2024-08-26T0600,1779A,123.9305,47.3636,齐齐哈尔市,安居小区,,14,14,29,8,16,44,,,,5,8,10,10,0.4,0.5
2024-08-26T0600,1780A,123.9488,47.3386,齐齐哈尔市,中心广场,,20,,41,14,17,43,,,,4,9,2,4,0.3,0.4
2024-08-26T0600,1781A,123.9483,47.3227,齐齐哈尔市,农牧车辆厂,,19,19,33,10,19,45,,,,4,10,8,10,0.2,0.3
2024-08-26T0600,1783A,123.945,47.2988,齐齐哈尔市,市环境监测站,,15,10,20,6,13,47,,,,6,7,7,7,0.2,0.2
2024-08-26T0600,3662A,123.6333,47.2075,齐齐哈尔市,富区青少年活动中心,,22,22,44,3,22,41,,,,11,12,6,12,0.6,0.7
2024-08-26T0600,2591A,107.9783,26.5747,黔东南苗族侗族自治州,市环境监测站,,18,15,13,12,9,30,,,,9,8,3,3,0.4,0.4
2024-08-26T0600,2881A,107.8908,26.5311,黔东南苗族侗族自治州,凯里学院,,16,,12,11,8,19,,,,9,10,3,3,0.6,0.6
2024-08-26T0600,2593A,107.5228,26.2403,黔南布依族苗族自治州,小围寨,,7,7,5,3,3,6,,,,11,5,4,4,0.4,0.4
2024-08-26T0600,3538A,107.5175,26.2978,黔南布依族苗族自治州,沙坝,,14,14,8,7,4,3,,,,6,4,3,3,0.5,0.4
2024-08-26T0600,2589A,104.9022,25.0925,黔西南布依族苗族自治州,场坝街,,13,13,15,9,9,36,,,,3,4,2,2,0.3,0.3
2024-08-26T0600,2590A,104.8811,25.0992,黔西南布依族苗族自治州,坪东大道,,16,16,15,6,8,32,,,,2,3,6,6,0.2,0.2
2024-08-26T0600,2502A,108.6236,21.9667,钦州市,市环保站,,,17,22,,6,44,,,,13,14,8,8,0.6,0.6
2024-08-26T0600,2503A,108.6549,21.9481,钦州市,沙埠小学,,12,10,23,3,9,37,,,,16,15,4,5,0.4,0.5
2024-08-26T0600,2504A,108.5989,21.7431,钦州市,港区一小,,25,25,26,3,9,40,,,,11,14,11,12,0.7,0.7
2024-08-26T0600,3404A,108.5959,21.9633,钦州市,北职校,,30,30,26,10,10,26,,,,17,14,7,7,0.5,0.5
2024-08-26T0600,1042A,119.5134,39.8207,秦皇岛市,北戴河环保局,,32,32,38,7,10,86,,,,7,10,2,2,0.4,0.5
2024-08-26T0600,1043A,119.7493,40.0116,秦皇岛市,第一关,,33,33,34,14,20,83,,,,13,22,3,2,0.3,0.4
2024-08-26T0600,1044A,119.5897,39.9499,秦皇岛市,监测站,,30,23,49,21,31,70,,,,8,26,3,3,0.4,0.5
2024-08-26T0600,1046A,119.5251,39.9041,秦皇岛市,建设大厦,,31,31,40,9,10,58,,,,19,16,3,4,0.3,0.5
2024-08-26T0600,3132A,119.610547,39.943889,秦皇岛市,文明里,,24,24,33,12,13,76,,,,8,14,3,2,0.4,0.5
2024-08-26T0600,1307A,120.6659,36.2403,青岛市,仰口,,35,28,41,24,34,97,,,,4,8,6,6,0.1,0.3
2024-08-26T0600,1310A,120.4134,36.0658,青岛市,市南区东部子站,,17,12,20,3,8,54,,,,25,11,8,7,0.5,0.6
2024-08-26T0600,1311A,120.3664,36.1032,青岛市,四方区子站,,39,,23,27,16,76,,,,6,6,9,10,0.6,0.7
2024-08-26T0600,1312A,120.2994,36.054,青岛市,市南区西部子站,,16,14,23,3,10,51,,,,20,20,8,8,0.6,0.8
2024-08-26T0600,1313A,120.4581,36.0858,青岛市,崂山区子站,,20,14,21,7,12,61,,,,24,15,8,9,0.5,0.5
2024-08-26T0600,1314A,120.1983,35.9608,青岛市,黄岛区子站,,24,9,17,7,15,74,,,,10,12,8,8,0.5,0.7
2024-08-26T0600,1315A,120.3999,36.3083,青岛市,城阳区子站,,23,17,40,7,22,73,,,,15,20,6,8,0.5,0.7
2024-08-26T0600,1966A,120.0405,35.8735,青岛市,黄岛区4号,,22,7,16,3,9,68,,,,8,8,10,10,0.5,0.6
2024-08-26T0600,3362A,120.5014,36.4034,青岛市,即墨2号,,38,38,52,21,33,70,,,,11,12,6,8,0.4,0.6
2024-08-26T0600,3642A,120.3503,36.0736,青岛市,市北区南部,,24,24,22,9,12,58,,,,20,14,6,7,0.6,0.7
2024-08-26T0600,3643A,120.3948,36.1805,青岛市,李沧区北部,,25,17,32,14,20,78,,,,16,18,8,8,0.5,0.7
2024-08-26T0600,1702A,113.0426,23.691,清远市,环保大楼,,46,46,31,21,21,8,,,,25,18,15,7,0.8,0.7
2024-08-26T0600,1703A,113.0208,23.7106,清远市,凤城街办,,39,39,35,19,22,6,,,,20,20,6,5,0.6,0.6
2024-08-26T0600,3025A,113.0477,23.6344,清远市,技师学院,,28,28,41,14,21,12,,,,16,21,15,8,0.9,0.5
2024-08-26T0600,3318A,112.9903,23.7403,清远市,清新太和,,43,43,41,21,23,12,,,,14,13,5,4,0.8,0.8
2024-08-26T0600,3455A,113.076,23.7198,清远市,清城东城,,37,37,38,23,25,6,,,,20,14,9,7,0.5,0.5
2024-08-26T0600,2661A,107.6325,35.7357,庆阳市,庆阳五中,,25,25,36,12,16,68,,,,3,5,5,5,0.5,0.5
2024-08-26T0600,2662A,107.6364,35.7067,庆阳市,市环保局,,28,28,32,13,17,68,,,,4,7,8,9,0.6,0.6
2024-08-26T0600,1916A,103.7897,25.5035,曲靖市,环境监测站,,20,20,20,10,9,32,,,,10,12,7,5,0.7,0.6
2024-08-26T0600,1917A,103.8,25.5364,曲靖市,烟厂办公区,,10,8,17,7,9,29,,,,12,10,4,4,0.3,0.4
2024-08-26T0600,3376A,103.7947,25.462,曲靖市,南苑二区,,19,19,15,7,9,27,,,,12,10,9,8,0.6,0.5
2024-08-26T0600,3377A,103.7444,25.5261,曲靖市,曲靖师范学院,,26,,19,18,12,35,,,,9,11,10,10,0.4,0.4
2024-08-26T0600,1264A,118.8692,28.9398,衢州市,环保大楼,,44,44,44,29,29,70,,,,13,18,4,4,0.5,0.5
2024-08-26T0600,1265A,118.8709,28.9666,衢州市,实验学校,细颗粒物(PM2.5),53,52,47,37,31,63,,,,16,20,6,8,0.4,0.4
2024-08-26T0600,1266A,118.8621,28.9808,衢州市,衢州学院,细颗粒物(PM2.5),54,54,49,38,32,35,,,,36,28,5,6,0.5,0.5
2024-08-26T0600,1611A,118.5819,24.9117,泉州市,涂山街,细颗粒物(PM2.5),57,,37,40,25,43,,,,18,16,2,2,0.7,0.7
2024-08-26T0600,1612A,118.5972,24.8978,泉州市,津头埔,细颗粒物(PM2.5),60,,40,43,26,60,,,,15,19,4,4,0.6,0.6
2024-08-26T0600,1613A,118.6663,24.9424,泉州市,万安,,50,42,34,35,24,23,,,,26,14,3,4,0.6,0.6
2024-08-26T0600,1614A,118.6117,24.9604,泉州市,清源山,,,,,,,,,,,,,,,,
2024-08-26T0600,3529A,118.6333,24.9264,泉州市,城华南路,细颗粒物(PM2.5),58,42,30,41,23,38,,,,7,9,3,3,0.5,0.6
2024-08-26T0600,2626A,88.8876,29.2718,日喀则市,日喀则监测站,,35,7,9,3,4,111,,,,7,6,6,5,0.3,0.3
2024-08-26T0600,3726A,88.8781,29.2426,日喀则市,林业技术推广中心,,34,,6,3,5,108,,,,4,6,7,7,0.5,0.5
2024-08-26T0600,1659A,119.471,35.4209,日照市,监测站,,,,31,10,19,49,,,,22,23,9,10,0.3,0.5
2024-08-26T0600,1660A,119.523,35.4216,日照市,市政府广场,,19,7,21,3,13,59,,,,15,7,11,10,0.4,0.6
2024-08-26T0600,1661A,119.5587,35.4044,日照市,港务局,,22,17,20,10,18,68,,,,6,5,8,7,0.3,0.5
2024-08-26T0600,3507A,119.5328,35.4625,日照市,职业技术学院,,21,7,19,7,14,66,,,,11,13,9,9,0.5,0.7
2024-08-26T0600,3604A,119.3266,35.1044,日照市,岚山环保分局,,27,27,36,7,11,48,,,,16,17,10,12,0.6,0.6
2024-08-26T0600,1835A,111.1922,34.7752,三门峡市,市政府,,25,20,43,17,26,66,,,,9,9,9,8,0.6,0.7
2024-08-26T0600,1836A,111.1587,34.7942,三门峡市,开发区,,24,16,48,12,31,75,,,,7,11,8,9,0.5,0.7
2024-08-26T0600,1838A,111.143,34.7955,三门峡市,风景区,,,,,,,,,,,,,,,,
2024-08-26T0600,3039A,111.1911,34.7829,三门峡市,三门峡市第一小学,,27,27,44,11,25,68,,,,8,9,9,7,0.6,0.7
2024-08-26T0600,3598A,111.1,34.7167,三门峡市,富达温泉假日酒店,,33,33,34,15,27,75,,,,10,8,8,6,0.7,0.7
2024-08-26T0600,2324A,117.6211,26.2625,三明市,三钢,,33,33,32,22,23,9,,,,15,14,6,8,1.0,1
2024-08-26T0600,2325A,117.635,26.2714,三明市,三明二中,,23,20,30,16,19,13,,,,12,14,2,5,0.4,0.6
2024-08-26T0600,2326A,117.6028,26.2378,三明市,三元区政府,,38,38,35,23,22,7,,,,13,13,1,3,0.5,0.6
2024-08-26T0600,2327A,117.7275,26.3108,三明市,洋溪,,,,,,,,,,,,,,,,
2024-08-26T0600,1876A,109.5078,18.2489,三亚市,河东子站,,15,15,18,8,8,16,,,,8,7,3,3,0.4,0.3
2024-08-26T0600,1877A,109.4964,18.2681,三亚市,河西子站,,11,11,15,3,7,12,,,,8,9,3,2,0.3,0.3
2024-08-26T0600,3540A,109.7348,18.3443,三亚市,君悦子站,,22,22,20,6,6,8,,,,6,10,1,1,0.3,0.3
2024-08-26T0600,2624A,91.7608,29.2313,山南市,山南监测站,,,,22,2,5,100,,,,2,5,8,8,0.2,0.2
2024-08-26T0600,2625A,91.7706,29.2436,山南市,山南人民医院,,30,6,14,3,8,96,,,,4,8,8,7,0.4,0.3
2024-08-26T0600,1674A,116.6794,23.3667,汕头市,金平子站,,32,32,28,12,19,30,,,,13,14,4,5,0.7,0.9
2024-08-26T0600,1675A,116.7244,23.3633,汕头市,龙湖子站,,17,17,30,8,19,34,,,,14,15,6,7,0.7,0.8
2024-08-26T0600,1676A,116.7258,23.2775,汕头市,濠江子站,,29,27,27,20,25,17,,,,19,16,6,6,0.8,0.8
2024-08-26T0600,1677A,116.7519,23.4714,汕头市,澄海子站,颗粒物(PM10),52,54,41,34,32,15,,,,34,20,13,8,1.1,1
2024-08-26T0600,1678A,116.6092,23.2539,汕头市,潮阳子站,,28,28,32,8,17,24,,,,14,9,5,6,0.8,0.7
2024-08-26T0600,3444A,116.454,23.2684,汕头市,潮南峡山,,44,44,40,22,23,17,,,,12,8,5,5,0.8,0.8
2024-08-26T0600,3624A,116.4069,23.2533,汕头市,潮南子站,细颗粒物(PM2.5),57,61,50,40,29,20,,,,19,17,4,4,0.8,0.8
2024-08-26T0600,1693A,115.3653,22.775,汕尾市,市环保局,,29,29,22,18,14,34,,,,13,15,6,6,0.7,0.6
2024-08-26T0600,1694A,115.3706,22.7898,汕尾市,市政府,,29,26,23,20,15,27,,,,10,13,6,6,0.5,0.5
2024-08-26T0600,1695A,115.3622,22.7925,汕尾市,新城中学,,29,29,26,17,13,27,,,,10,11,6,6,0.7,0.7
2024-08-26T0600,2645A,109.9154,33.8715,商洛市,监测站,,33,33,34,19,20,40,,,,12,10,2,3,0.6,0.7
2024-08-26T0600,3045A,109.9643,33.8471,商洛市,商州区中学,,40,40,38,19,22,36,,,,14,12,4,4,0.6,0.7
2024-08-26T0600,2408A,115.6702,34.4285,商丘市,环境监测站,,45,45,54,27,27,84,,,,8,9,8,5,0.6,0.7
2024-08-26T0600,2409A,115.6458,34.4045,商丘市,粮食局,,46,46,48,29,30,88,,,,6,6,8,6,0.7,0.7
2024-08-26T0600,2410A,115.6293,34.3948,商丘市,睢阳区环保局,,49,49,53,28,29,84,,,,6,7,10,6,0.5,0.6
2024-08-26T0600,3171A,115.6071,34.4465,商丘市,梁园区档案局,,44,44,46,26,27,96,,,,5,6,11,7,0.6,0.6
2024-08-26T0600,1141A,121.4,31.238,上海市,普陀,,21,21,28,9,13,37,,,,15,16,5,5,0.3,0.3
2024-08-26T0600,1142A,121.478,31.2036,上海市,十五厂,,21,21,26,11,16,27,,,,20,15,8,8,0.4,0.4
2024-08-26T0600,1143A,121.467,31.3008,上海市,虹口,,21,21,27,8,14,33,,,,16,16,8,8,0.5,0.6
2024-08-26T0600,1144A,121.412,31.1654,上海市,徐汇上师大,,22,22,34,7,18,36,,,,18,18,5,5,0.7,0.7
2024-08-26T0600,1145A,121.536,31.2659,上海市,杨浦四漂,,24,24,32,12,13,26,,,,18,17,6,7,0.6,0.4
2024-08-26T0600,1147A,121.425,31.2261,上海市,静安监测站,,21,21,25,10,14,35,,,,15,15,6,6,0.6,0.6
2024-08-26T0600,1148A,121.703,31.1907,上海市,浦东川沙,,,33,26,,14,11,,,,39,21,8,6,0.6,0.6
2024-08-26T0600,1149A,121.533,31.2284,上海市,浦东新区监测站,,20,19,24,14,14,26,,,,20,18,6,6,0.4,0.4
2024-08-26T0600,1150A,121.577,31.2071,上海市,浦东张江,,24,24,27,12,19,23,,,,20,19,5,5,0.7,0.8
2024-08-26T0600,3265A,121.4316,31.3322,上海市,宝山庙行,,18,18,23,11,14,38,,,,16,17,6,7,0.4,0.4
2024-08-26T0600,3266A,121.8791,31.4662,上海市,崇明上实东滩,,11,11,13,7,8,31,,,,18,12,8,8,0.7,0.7
2024-08-26T0600,3268A,121.3162,31.2838,上海市,嘉定南翔,,19,19,25,8,14,34,,,,18,19,7,6,0.5,0.5
2024-08-26T0600,3269A,121.3359,30.7456,上海市,金山新城,,18,18,20,9,14,54,,,,14,11,5,6,0.6,0.6
2024-08-26T0600,3270A,121.4996,31.0739,上海市,闵行浦江,,23,23,24,13,17,24,,,,22,15,6,6,0.7,0.7
2024-08-26T0600,3271A,121.2886,31.1663,上海市,青浦徐泾,,20,20,25,14,16,31,,,,20,15,8,7,0.5,0.5
2024-08-26T0600,3272A,121.2186,31.0378,上海市,松江图书馆,,23,23,25,12,15,34,,,,18,16,6,6,0.6,0.6
2024-08-26T0600,3273A,121.3902,31.2059,上海市,长宁仙霞,,19,19,25,12,14,40,,,,14,14,8,8,0.6,0.6
2024-08-26T0600,3274A,121.7965,31.0507,上海市,浦东惠南,,33,33,26,19,15,23,,,,13,10,8,7,0.5,0.5
2024-08-26T0600,3544A,121.4891,30.925,上海市,奉贤南桥新城,,23,23,21,12,15,32,,,,19,16,8,8,0.5,0.5
2024-08-26T0600,2381A,118.005,28.4572,上饶市,百草园,颗粒物(PM10),53,56,44,36,28,37,,,,19,10,8,14,0.9,0.9
2024-08-26T0600,2382A,117.9756,28.4436,上饶市,市监测站,细颗粒物(PM2.5),64,67,50,46,32,8,,,,26,16,7,17,0.8,0.8
2024-08-26T0600,2383A,117.9519,28.4628,上饶市,凤凰光学,颗粒物(PM10),51,51,46,30,29,23,,,,24,13,18,30,1.0,1
2024-08-26T0600,3413A,118.1953,28.4401,上饶市,广丰区教体局,,29,28,30,20,19,50,,,,6,7,4,3,0.7,0.8
2024-08-26T0600,3685A,117.897,28.4315,上饶市,双创科技城,颗粒物(PM10),51,51,47,30,28,8,,,,32,20,10,22,0.9,0.8
2024-08-26T0600,1669A,113.5824,24.7733,韶关市,市八中,,31,31,32,19,19,10,,,,20,13,14,15,0.6,0.7
2024-08-26T0600,1671A,113.5917,24.7972,韶关市,园林处,,33,33,27,23,19,14,,,,18,12,16,15,0.5,0.6
2024-08-26T0600,1672A,113.6735,24.7791,韶关市,韶关学院,,26,26,35,16,22,12,,,,8,11,12,15,0.5,0.7
2024-08-26T0600,1673A,113.5971,24.6863,韶关市,曲江监测站,,40,40,34,20,18,6,,,,24,14,14,16,0.5,0.6
2024-08-26T0600,3622A,113.5556,24.8082,韶关市,碧湖山庄,,26,26,32,14,18,4,,,,10,9,10,14,0.3,0.4
2024-08-26T0600,2462A,111.5239,27.3033,邵阳市,市水土所,,32,32,40,22,29,2,,,,5,6,3,7,0.6,0.5
2024-08-26T0600,2463A,111.4733,27.2317,邵阳市,市一中,"颗粒物(PM10),细颗粒物(PM2.5)",55,60,44,39,28,25,,,,10,11,48,15,0.4,0.3
2024-08-26T0600,2464A,111.5283,27.2442,邵阳市,市化工厂,,45,38,41,31,27,20,,,,12,11,18,12,0.6,0.5
2024-08-26T0600,2465A,111.4503,27.2537,邵阳市,市罐头厂,细颗粒物(PM2.5),59,48,42,42,30,17,,,,13,9,43,10,0.5,0.4
2024-08-26T0600,2466A,111.4328,27.2272,邵阳市,市环保局,细颗粒物(PM2.5),74,62,45,54,34,14,,,,12,9,46,15,0.5,0.4
2024-08-26T0600,1247A,120.6053,29.9928,绍兴市,城东开发委,,33,33,47,19,31,41,,,,15,14,6,6,0.7,0.8
2024-08-26T0600,2921A,120.5483,30.0003,绍兴市,树下王站,,38,38,44,26,30,50,,,,17,12,4,5,0.6,0.6
2024-08-26T0600,3408A,120.5683,29.9361,绍兴市,绍兴中专,细颗粒物(PM2.5),54,43,46,38,35,37,,,,22,16,4,3,0.7,0.8
2024-08-26T0600,3409A,120.4906,30.0861,绍兴市,柯桥区政府,,40,40,44,26,28,76,,,,12,14,5,5,0.7,0.8
2024-08-26T0600,3410A,120.8752,30.0249,绍兴市,重华小学,,19,19,40,12,29,48,,,,13,15,10,7,0.6,0.7
2024-08-26T0600,3411A,120.8369,30.0137,绍兴市,上虞中学,,25,24,45,17,34,27,,,,22,14,11,9,0.7,0.8
2024-08-26T0600,3560A,120.4722,30.0415,绍兴市,柯桥妇保,,48,46,50,33,36,40,,,,14,14,6,7,0.6,0.7
2024-08-26T0600,3658A,120.6153,30.0764,绍兴市,袍江中学,,28,28,40,19,26,54,,,,13,13,4,4,0.5,0.6
2024-08-26T0600,1356A,114.1063,22.5545,深圳市,通心岭子站,,16,12,17,6,9,5,,,,31,18,5,5,0.4,0.5
2024-08-26T0600,1357A,114.117,22.5625,深圳市,洪湖,,22,22,27,8,12,10,,,,29,24,6,7,0.3,0.3
2024-08-26T0600,1358A,113.987,22.5417,深圳市,华侨城,,15,15,19,3,7,18,,,,15,20,7,7,0.6,0.7
2024-08-26T0600,1359A,113.9181,22.5171,深圳市,南海子站,,19,11,22,3,10,2,,,,38,31,8,8,0.4,0.4
2024-08-26T0600,1360A,114.2458,22.5689,深圳市,盐田,,25,25,22,11,10,6,,,,27,24,6,7,0.5,0.5
2024-08-26T0600,1361A,114.2283,22.7244,深圳市,龙岗,,47,47,33,31,19,2,,,,41,29,5,5,0.9,0.7
2024-08-26T0600,1363A,114.494,22.5422,深圳市,南澳,,18,18,15,10,9,13,,,,8,9,8,8,0.4,0.3
2024-08-26T0600,1364A,114.41,22.6342,深圳市,葵涌,,24,24,23,13,12,7,,,,12,16,6,6,0.6,0.6
2024-08-26T0600,1365A,114.297,22.5978,深圳市,梅沙,,26,26,23,11,11,0,,,,29,23,6,6,0.4,0.4
2024-08-26T0600,1366A,114.0678,22.738,深圳市,观澜,颗粒物(PM10),69,88,58,42,25,12,,,,24,19,5,6,0.8,0.6
2024-08-26T0600,3305A,114.0731,22.559,深圳市,莲花,,12,12,19,6,10,14,,,,13,14,6,6,0.4,0.5
2024-08-26T0600,3306A,114.0261,22.6198,深圳市,民治,,18,11,27,3,10,1,,,,36,31,6,6,0.6,0.6
2024-08-26T0600,3307A,114.1871,22.6451,深圳市,横岗,,19,19,27,11,14,5,,,,34,29,7,7,0.5,0.6
2024-08-26T0600,3447A,114.3551,22.7151,深圳市,坪山,,49,49,35,27,19,5,,,,41,30,5,5,0.6,0.5
2024-08-26T0600,3623A,113.8953,22.5861,深圳市,西乡,,15,10,21,3,7,12,,,,30,27,7,8,0.3,0.4
2024-08-26T0600,1098A,123.6836,41.9339,沈阳市,森林路,,,,,,,,,,,,,,,,
2024-08-26T0600,1099A,123.505,41.7406,沈阳市,浑南东路,,38,38,31,14,13,10,,,,27,33,8,8,0.6,0.6
2024-08-26T0600,1100A,123.4231,41.6989,沈阳市,新秀街,,38,38,31,15,15,7,,,,34,37,6,6,0.7,0.7
2024-08-26T0600,1102A,123.5903,41.8411,沈阳市,东陵路,,26,26,25,12,10,6,,,,26,24,12,12,0.7,0.6
2024-08-26T0600,1103A,123.4264,41.8467,沈阳市,陵东街,,33,33,23,15,12,5,,,,37,29,7,7,1.1,0.7
2024-08-26T0600,1104A,123.4114,41.7653,沈阳市,文化路,,50,50,31,30,13,13,,,,32,23,13,10,1.2,0.7
2024-08-26T0600,1105A,123.4678,41.7867,沈阳市,小河沿,,33,33,27,15,10,14,,,,26,28,8,9,1.5,0.9
2024-08-26T0600,1106A,123.4017,41.7972,沈阳市,太原街,,39,37,28,27,15,8,,,,35,32,8,6,1.2,0.8
2024-08-26T0600,1108A,123.3783,41.9228,沈阳市,京沈街,细颗粒物(PM2.5),55,42,21,39,20,4,,,,39,28,15,11,1.2,0.7
2024-08-26T0600,2897A,123.2444,41.7347,沈阳市,沈辽西路,颗粒物(PM10),66,81,46,26,15,6,,,,39,34,10,10,0.8,0.7
2024-08-26T0600,2900A,123.5953,41.9086,沈阳市,裕农路,,21,21,19,9,9,13,,,,22,22,6,6,0.8,0.7
2024-08-26T0600,2428A,111.0419,32.395,十堰市,武当山,,32,32,27,20,20,69,,,,5,5,11,12,0.8,0.8
2024-08-26T0600,2429A,110.78,32.6494,十堰市,滨河新村,,29,29,36,17,19,37,,,,22,10,9,8,0.8,0.7
2024-08-26T0600,2430A,110.7258,32.6389,十堰市,刘家沟,,50,35,38,35,23,28,,,,11,9,4,3,1.6,0.8
2024-08-26T0600,2431A,110.8839,32.5714,十堰市,铁二处,,38,,29,26,27,27,,,,9,10,8,8,0.6,0.4
2024-08-26T0600,3545A,110.8054,32.8401,十堰市,郧阳区金沙路,,29,,25,20,21,46,,,,9,8,4,7,0.6,0.7
