timepoint,stationcode,longitude,latitude,area,positionname,primarypollutant,aqi,pm10,pm10_24h,pm2_5,pm2_5_24h,o3,o3_24h,o3_8h,o3_8h_24h,no2,no2_24h,so2,so2_24h,co,co_24h
2024-08-26T0300,2566A,102.1879,31.914,阿坝藏族羌族自治州,州农科所,,20,20,38,8,10,43,,,,6,19,7,10,0,0
2024-08-26T0300,2568A,102.2502,31.8896,阿坝藏族羌族自治州,马师校,,20,20,19,8,11,48,,,,6,10,3,3,0.4,0.4
2024-08-26T0300,3994A,102.2165,31.9024,阿坝藏族羌族自治州,马尔康中学西区,,23,,20,16,16,50,,,,10,9,4,4,0.4,0.4
2024-08-26T0300,2695A,80.292,41.1694,阿克苏地区,电视台,颗粒物(PM10),71,91,67,32,22,88,,,,18,17,3,3,0.5,0.5
2024-08-26T0300,2696A,80.2613,41.1551,阿克苏地区,艺术中心,颗粒物(PM10),66,82,63,18,17,15,,,,53,21,4,4,1.1,0.5
2024-08-26T0300,2204A,105.6467,38.8363,阿拉善盟,西城区西花园,,34,21,59,17,25,107,,,,6,9,7,8,1.3,1.3
2024-08-26T0300,2205A,105.6985,38.8411,阿拉善盟,蒙二幼,,31,8,44,8,18,98,,,,4,6,8,8,0.6,0.7
2024-08-26T0300,2206A,105.724,38.8516,阿拉善盟,环保局新楼,,33,11,22,9,12,105,,,,4,6,9,9,0.4,0.5
2024-08-26T0300,2708A,88.1264,47.8517,阿勒泰地区,市站,,20,7,18,3,8,61,,,,7,14,7,7,0.5,0.5
2024-08-26T0300,2630A,80.1161,32.5,阿里地区,阿里监测站,,27,6,5,3,2,86,,,,2,6,6,6,0.3,0.3
2024-08-26T0300,3192A,80.0903,32.5028,阿里地区,阿里藏医院,,26,15,10,3,3,81,,,,3,4,7,7,0.4,0.3
2024-08-26T0300,2642A,109.0318,32.6537,安康市,香溪洞,,23,20,26,16,13,68,,,,4,11,5,5,0.4,0.4
2024-08-26T0300,2643A,109.0281,32.6939,安康市,安康市监测站,,24,19,28,15,15,74,,,,5,7,12,8,0.5,0.5
2024-08-26T0300,2644A,109.0072,32.6975,安康市,汉滨区检察院,,20,20,19,7,10,63,,,,5,8,12,10,0.6,0.5
2024-08-26T0300,2291A,117.0809,30.5177,安庆市,环科院,,39,34,43,27,29,43,,,,45,26,8,9,0.9,0.7
2024-08-26T0300,2292A,117.0331,30.5119,安庆市,马山宾馆,,41,41,43,28,28,38,,,,47,25,8,10,0.7,0.7
2024-08-26T0300,2294A,116.9896,30.6145,安庆市,安庆大学,,43,39,42,30,31,72,,,,18,14,8,8,0.7,0.7
2024-08-26T0300,3173A,117.0598,30.5351,安庆市,市人大,,45,42,43,31,29,113,,,,8,15,8,7,0.9,0.9
2024-08-26T0300,3122A,105.9606,26.2611,安顺市,伍家关,,,,,,,,,,,,,,,,
2024-08-26T0300,3123A,105.9408,26.2431,安顺市,凤凰山,,16,10,9,3,6,51,,,,2,3,7,8,0.4,0.4
2024-08-26T0300,3124A,105.9439,26.2564,安顺市,金钟山,,17,12,10,6,6,52,,,,2,3,5,5,0.3,0.3
2024-08-26T0300,3125A,105.8983,26.2481,安顺市,娄家坡,,16,6,8,3,5,50,,,,2,3,7,7,0.5,0.5
2024-08-26T0300,1818A,114.4839,36.0621,安阳市,棉研所,,,,,,,,,,,,,,,,
2024-08-26T0300,1819A,114.3551,36.1017,安阳市,红庙街,,31,31,62,15,30,72,,,,2,10,2,4,0.3,0.7
2024-08-26T0300,1820A,114.361,36.0681,安阳市,银杏小区,,,27,51,,14,74,,,,2,6,2,2,0.3,0.5
2024-08-26T0300,3141A,114.3922,36.0878,安阳市,信访局,,25,25,53,16,26,70,,,,2,9,1,3,0.5,0.6
2024-08-26T0300,3669A,114.4705,36.0637,安阳市,左辅环卫站,,38,29,56,26,35,64,,,,5,12,7,7,0.5,0.6
2024-08-26T0300,3703A,114.2917,36.0949,安阳市,安钢职工学校,,38,37,70,26,38,61,,,,8,17,4,7,0.5,1.1
2024-08-26T0300,1748A,123.044,41.1196,鞍山市,深沟寺,,19,19,40,9,23,55,,,,9,15,4,6,0.6,0.9
2024-08-26T0300,1749A,123.011,41.0931,鞍山市,太阳城,,22,22,38,12,24,52,,,,14,16,4,7,0.4,0.9
2024-08-26T0300,1750A,123.0485,41.1442,鞍山市,太平,,21,16,46,7,25,66,,,,11,23,5,6,0.5,0.8
2024-08-26T0300,1751A,122.9642,41.0971,鞍山市,铁西三道街,,43,43,56,13,27,18,,,,36,35,3,11,0.7,1.4
2024-08-26T0300,1752A,122.9341,41.0833,鞍山市,铁西工业园区,颗粒物(PM10),54,58,57,15,26,6,,,,45,32,7,12,0.6,1
2024-08-26T0300,1753A,123.022,41.0821,鞍山市,明达新区,,22,22,38,9,27,38,,,,19,18,3,6,0.4,0.9
2024-08-26T0300,1754A,123.1289,41.0228,鞍山市,千山,,,,,,,,,,,,,,,,
2024-08-26T0300,2195A,107.4212,40.761,巴彦淖尔市,附二中,,28,18,34,11,21,87,,,,3,7,3,4,0.5,0.5
2024-08-26T0300,2196A,107.37,40.7372,巴彦淖尔市,市环保大楼,,28,28,43,8,12,89,,,,3,6,4,3,0.3,0.4
2024-08-26T0300,1956A,86.1472,41.7538,巴音郭楞蒙古自治州,孔雀公园,颗粒物(PM10),67,83,101,30,32,22,,,,53,30,5,6,0.6,0.3
2024-08-26T0300,1957A,86.1972,41.7166,巴音郭楞蒙古自治州,棉纺厂,颗粒物(PM10),53,55,111,23,38,91,,,,14,26,4,5,0.2,0.2
2024-08-26T0300,1958A,86.2357,41.7173,巴音郭楞蒙古自治州,经济开发区,,40,40,105,23,39,101,,,,5,11,6,6,0.3,0.2
2024-08-26T0300,2914A,106.7677,31.8794,巴中市,苏山坪,,33,19,26,15,20,105,,,,6,7,4,4,0.4,0.5
2024-08-26T0300,3182A,106.7656,31.8545,巴中市,丽阳花园,,30,29,33,21,26,45,,,,16,16,4,4,0.5,0.6
2024-08-26T0300,3183A,106.7418,31.8654,巴中市,圣泉水务公司,,23,23,29,15,21,58,,,,8,13,3,4,0.5,0.6
2024-08-26T0300,3616A,106.7616,31.8344,巴中市,市中心医院,,39,34,36,27,28,27,,,,23,16,5,6,0.7,0.7
2024-08-26T0300,2235A,122.7911,45.6077,白城市,洮北区环保局,,17,11,18,10,10,52,,,,3,5,4,7,0.5,0.5
2024-08-26T0300,2236A,122.8738,45.5725,白城市,市环保局,,25,25,21,3,6,47,,,,6,8,3,4,0.4,0.5
2024-08-26T0300,2231A,126.4219,41.9171,白山市,喜丰,,47,47,51,24,23,8,,,,18,16,15,11,0.8,0.9
2024-08-26T0300,2232A,126.4077,41.9419,白山市,环保局,,36,36,49,19,29,17,,,,11,17,14,14,0.6,0.7
2024-08-26T0300,2647A,104.1724,36.5446,白银市,第三小学,颗粒物(PM10),68,86,47,31,19,84,,,,8,10,7,8,0.5,0.6
2024-08-26T0300,2648A,104.1465,36.5482,白银市,动力公司,颗粒物(PM10),62,74,40,30,21,83,,,,5,7,4,6,0.4,0.5
2024-08-26T0300,2512A,106.6103,23.9011,百色市,市监测站,,28,28,24,12,11,14,,,,12,10,6,8,0.7,0.7
2024-08-26T0300,2513A,106.6538,23.8859,百色市,市中心血站,,33,33,26,14,12,10,,,,14,12,4,7,0.6,0.6
2024-08-26T0300,3406A,106.6085,23.8798,百色市,祈福高中,,36,36,29,12,10,8,,,,12,12,4,5,0.7,0.8
2024-08-26T0300,2270A,117.396,32.939,蚌埠市,工人疗养院,,39,39,50,12,22,53,,,,24,18,10,10,0.3,0.5
2024-08-26T0300,2271A,117.3605,32.9427,蚌埠市,百货大楼,,35,35,50,19,26,56,,,,16,12,9,6,0.4,0.6
2024-08-26T0300,2273A,117.4185,32.8911,蚌埠市,蚌埠学院,,29,,39,20,22,74,,,,7,13,6,6,0.4,0.6
2024-08-26T0300,2274A,117.3533,32.9673,蚌埠市,淮上区政府,,41,41,49,20,28,64,,,,15,11,8,7,0.7,0.9
2024-08-26T0300,2275A,117.3145,32.8977,蚌埠市,高新区,,29,29,42,19,24,75,,,,5,10,6,6,0.5,0.7
2024-08-26T0300,3715A,117.3092,32.9314,蚌埠市,蚌埠田家炳中学,,28,28,45,15,27,73,,,,2,9,4,5,0.4,0.6
2024-08-26T0300,1585A,109.8756,40.6532,包头市,市环境监测站,,30,8,21,3,10,93,,,,9,25,7,10,0.3,0.5
2024-08-26T0300,1587A,109.9991,40.5842,包头市,包头八中,,31,6,30,3,15,99,,,,6,25,4,33,0.5,1
2024-08-26T0300,1588A,109.8538,40.6821,包头市,青山宾馆,,27,,14,3,10,84,,,,5,22,4,6,0.5,0.6
2024-08-26T0300,1589A,109.8642,40.6288,包头市,惠龙物流,,30,6,20,3,11,94,,,,8,22,6,15,0.6,0.8
2024-08-26T0300,1590A,110.0377,40.5546,包头市,东河鸿龙湾,,30,6,14,3,6,93,,,,5,17,4,13,0.7,0.8
2024-08-26T0300,3283A,109.9154,40.5685,包头市,滨河大厦,,31,,11,3,7,99,,,,5,18,8,14,0.4,0.5
2024-08-26T0300,3419A,109.9447,40.6261,包头市,包头市委党校,,31,6,19,3,9,99,,,,6,22,3,10,0.3,0.5
2024-08-26T0300,3683A,109.8331,40.6576,包头市,昆区政府,,30,,15,6,11,94,,,,5,21,4,6,0.4,0.5
2024-08-26T0300,1930A,107.185,34.3063,宝鸡市,庙沟村,,27,27,49,17,30,58,,,,9,10,7,7,0.3,0.5
2024-08-26T0300,1931A,107.0708,34.3017,宝鸡市,竹园沟,,31,31,49,15,29,74,,,,7,14,8,8,0.5,0.6
2024-08-26T0300,1932A,107.1906,34.3672,宝鸡市,三陆医院,,36,36,52,15,30,61,,,,17,18,9,9,0.7,0.8
2024-08-26T0300,1933A,107.1431,34.3547,宝鸡市,监测站,,34,34,67,18,32,60,,,,12,21,7,8,0.4,0.5
2024-08-26T0300,1934A,107.1186,34.3739,宝鸡市,技工学校,,33,33,55,19,37,78,,,,9,15,9,9,0.5,0.7
2024-08-26T0300,1935A,107.3906,34.3528,宝鸡市,陈仓区环保局家属楼,,33,33,47,16,32,70,,,,10,17,8,8,0.5,0.6
2024-08-26T0300,1936A,107.2058,34.3497,宝鸡市,文理学院,,39,39,48,12,25,59,,,,12,16,10,10,0.6,0.7
2024-08-26T0300,1937A,107.2386,34.3622,宝鸡市,三迪小学,,34,34,50,9,28,63,,,,7,12,9,10,0.6,0.7
2024-08-26T0300,1051A,115.493,38.8632,保定市,游泳馆,,29,17,29,11,12,90,,,,8,13,1,3,0.2,0.2
2024-08-26T0300,1052A,115.5213,38.8959,保定市,华电二区,,27,19,26,9,16,85,,,,5,9,3,3,0.3,0.2
2024-08-26T0300,1053A,115.4713,38.9108,保定市,接待中心,,25,19,32,9,11,79,,,,1,7,3,2,0.5,0.5
2024-08-26T0300,1054A,115.4612,38.8416,保定市,地表水厂,,29,17,39,3,11,92,,,,2,6,2,2,0.3,0.4
2024-08-26T0300,3581A,115.31981,38.95208,保定市,满城区生态环境分局,,28,,23,12,17,89,,,,7,12,3,4,0.3,0.3
2024-08-26T0300,3582A,115.47694,38.76408,保定市,清苑区第二中学,,32,29,38,12,21,100,,,,5,15,5,5,0.4,0.4
2024-08-26T0300,3583A,115.62909,39.02311,保定市,徐水物探局,,27,22,24,7,8,84,,,,6,11,4,3,0.5,0.4
2024-08-26T0300,4004A,115.4202,38.8656,保定市,双鹰农机,,30,12,27,6,12,96,,,,4,8,2,2,0.3,0.3
2024-08-26T0300,4034A,115.5150,38.8590,保定市,植保所站,,33,,26,10,14,105,,,,4,8,2,3,0.1,0.2
2024-08-26T0300,2594A,99.1678,25.1081,保山市,市环境监测站,,32,32,26,13,11,38,,,,8,10,6,6,0.5,0.5
2024-08-26T0300,2595A,99.1711,25.1328,保山市,市环保局,,28,28,25,10,9,58,,,,4,7,5,6,0.5,0.5
2024-08-26T0300,1866A,109.2262,21.588,北海市,牛尾岭水库,,,,,,,,,,,,,,,,
2024-08-26T0300,1867A,109.1436,21.4086,北海市,海滩公园,,20,14,19,3,6,61,,,,6,5,3,4,0.7,0.7
2024-08-26T0300,1868A,109.0981,21.4661,北海市,新市环保局,,19,10,16,7,10,59,,,,8,7,3,3,0.4,0.5
2024-08-26T0300,1869A,109.1778,21.5233,北海市,北海工业园,,20,17,24,10,13,62,,,,6,9,4,4,0.3,0.4
2024-08-26T0300,3400A,109.1911,21.4415,北海市,龙潭自来水厂,,21,13,17,8,12,65,,,,10,7,4,4,0.5,0.5
2024-08-26T0300,1001A,116.3621,39.8784,北京市,万寿西宫,,42,42,33,27,19,71,,,,12,18,3,3,0.8,0.6
2024-08-26T0300,1002A,116.2202,40.2915,北京市,定陵,,29,16,21,9,9,92,,,,1,4,1,2,0.6,0.4
2024-08-26T0300,1003A,116.4174,39.9289,北京市,东四,,35,34,35,24,19,77,,,,18,21,2,3,0.7,0.6
2024-08-26T0300,1004A,116.4072,39.8863,北京市,天坛,,39,37,30,27,18,73,,,,13,17,3,3,0.7,0.6
2024-08-26T0300,1005A,116.462,39.9365,北京市,农展馆,,40,40,36,28,20,53,,,,17,15,3,3,0.7,0.6
2024-08-26T0300,1006A,116.3392,39.9295,北京市,官园,,33,31,34,23,18,76,,,,10,18,3,3,0.7,0.6
2024-08-26T0300,1007A,116.2878,39.9611,北京市,海淀万柳,,38,38,34,23,16,68,,,,16,18,2,2,0.4,0.4
2024-08-26T0300,1008A,116.6636,40.135,北京市,顺义新城,,35,30,31,24,21,75,,,,8,8,3,3,0.6,0.5
2024-08-26T0300,1009A,116.6275,40.3275,北京市,怀柔镇,,30,24,24,18,15,93,,,,8,9,5,5,0.6,0.5
2024-08-26T0300,1010A,116.2296,40.217,北京市,昌平镇,,25,15,25,9,12,80,,,,4,14,4,4,0.5,0.4
2024-08-26T0300,1011A,116.3966,39.9821,北京市,奥体中心,,41,41,32,20,17,74,,,,18,23,3,2,0.7,0.5
2024-08-26T0300,1012A,116.184,39.9136,北京市,古城,,28,24,36,11,15,89,,,,8,20,1,1,0.5,0.5
2024-08-26T0300,3281A,115.9718,40.4529,北京市,延庆夏都,,31,10,19,3,9,98,,,,2,9,3,3,0.3,0.4
2024-08-26T0300,3417A,117.0709,40.1465,北京市,平谷新城,,42,42,37,29,24,54,,,,3,7,3,3,0.8,0.7
2024-08-26T0300,3418A,116.8336,40.4095,北京市,密云新城,,25,22,23,13,12,78,,,,2,5,3,3,0.5,0.4
2024-08-26T0300,3671A,116.088,39.9726,北京市,门头沟三家店,,31,,28,6,13,99,,,,4,12,1,1,0.6,0.5
2024-08-26T0300,3672A,116.1541,39.8204,北京市,丰台云岗,,29,28,32,20,15,75,,,,9,18,3,3,0.6,0.4
2024-08-26T0300,3673A,116.6804,39.9081,北京市,通州东关,细颗粒物(PM2.5),73,91,44,53,26,61,,,,12,14,3,3,0.7,0.7
2024-08-26T0300,3674A,115.9577,39.7603,北京市,房山燕山,,30,14,26,9,15,96,,,,4,10,3,3,0.5,0.4
2024-08-26T0300,3675A,116.4672,39.7733,北京市,大兴旧宫,,42,40,32,29,18,66,,,,3,13,3,3,0.8,0.6
2024-08-26T0300,3694A,115.986,40.4563,北京市,延庆石河营,,27,9,17,6,10,85,,,,3,8,3,3,0.3,0.3
2024-08-26T0300,3695A,116.6151,40.3053,北京市,怀柔新城,,29,24,24,18,15,90,,,,4,5,3,3,0.6,0.5
2024-08-26T0300,3696A,116.2545,39.8768,北京市,丰台小屯,,34,34,32,20,15,67,,,,11,20,6,6,0.6,0.5
2024-08-26T0300,3697A,116.84,40.3844,北京市,密云镇,,26,26,25,15,13,77,,,,2,7,3,2,0.6,0.5
2024-08-26T0300,1761A,123.8275,41.3064,本溪市,大峪,,39,39,45,15,20,18,,,,24,19,6,8,0.9,0.8
2024-08-26T0300,1762A,123.7567,41.3325,本溪市,溪湖,,40,40,53,13,23,16,,,,22,23,3,4,0.7,1
2024-08-26T0300,1763A,123.7169,41.3094,本溪市,彩屯,颗粒物(PM10),51,51,63,24,29,14,,,,30,25,6,7,0.9,1.3
2024-08-26T0300,1764A,123.7669,41.2864,本溪市,东明,,41,41,50,15,24,28,,,,28,25,6,6,1.1,1.1
2024-08-26T0300,1765A,123.7992,41.2664,本溪市,新立屯,,33,33,47,14,18,24,,,,45,28,5,4,1.7,1
2024-08-26T0300,1766A,123.8142,41.3472,本溪市,威宁,,28,28,47,17,26,10,,,,22,20,8,9,1.0,1.1
2024-08-26T0300,2587A,105.2864,27.3125,毕节市,八中,,15,12,23,8,18,46,,,,7,11,7,8,0.3,0.3
2024-08-26T0300,2588A,105.31,27.2944,毕节市,师专,,15,12,24,10,15,42,,,,10,14,9,8,0.4,0.5
2024-08-26T0300,3537A,105.3631,27.3533,毕节市,长征村,,16,8,20,7,17,50,,,,6,7,10,7,0.4,0.4
2024-08-26T0300,1629A,118.0018,37.3617,滨州市,第二水厂,"颗粒物(PM10),细颗粒物(PM2.5)",52,53,54,36,32,52,,,,26,19,9,8,1.2,1
2024-08-26T0300,1630A,117.9776,37.393,滨州市,北中新校,"颗粒物(PM10),细颗粒物(PM2.5)",62,73,60,44,34,71,,,,28,22,20,12,1.3,0.8
2024-08-26T0300,3514A,117.9378,37.3956,滨州市,中海酒店,颗粒物(PM10),56,61,56,39,29,77,,,,25,18,22,14,1.4,0.9
2024-08-26T0300,3515A,117.9378,37.3553,滨州市,开发区一中,颗粒物(PM10),63,75,61,44,35,56,,,,34,24,18,12,1.0,0.8
2024-08-26T0300,3516A,118.0917,37.694,滨州市,金海六路,,41,41,44,24,21,85,,,,5,10,3,6,0.5,0.6
2024-08-26T0300,4028A,117.9956,37.3753,滨州市,滨州市西街道办事处,颗粒物(PM10),56,61,56,39,32,66,,,,20,16,19,12,1.4,1
2024-08-26T0300,2311A,115.8072,33.8399,亳州市,污水处理厂,,33,33,40,21,27,75,,,,8,9,11,22,0.7,0.8
2024-08-26T0300,2312A,115.7789,33.8518,亳州市,三国揽胜宫,,43,43,43,27,33,88,,,,5,6,6,18,0.7,0.7
2024-08-26T0300,3332A,115.7633,33.8034,亳州市,亳州学院,,35,29,36,24,27,93,,,,7,7,8,7,0.5,0.6
2024-08-26T0300,2693A,82.0485,44.8556,博尔塔拉蒙古自治州,市党校,,35,35,30,14,10,73,,,,6,8,8,7,0.4,0.4
2024-08-26T0300,2694A,82.0806,44.8969,博尔塔拉蒙古自治州,市环保局,,41,41,31,15,10,66,,,,8,11,6,5,0.4,0.4
2024-08-26T0300,1071A,116.8842,38.2991,沧州市,沧县城建局,,35,32,32,22,23,111,,,,3,17,3,3,0.8,0.8
2024-08-26T0300,1072A,116.8584,38.3254,沧州市,电视转播站,,39,34,36,27,22,97,,,,6,16,2,4,0.6,0.6
2024-08-26T0300,1073A,116.8709,38.3228,沧州市,市环保局,,38,38,35,26,23,98,,,,3,16,2,7,0.5,0.5
2024-08-26T0300,3324A,116.8136,38.3004,沧州市,河北水利电力学院,,36,31,38,23,18,113,,,,5,17,5,7,0.5,0.5
2024-08-26T0300,2622A,97.1806,31.1273,昌都市,昌都监测站,,28,9,16,8,10,87,,,,5,8,6,6,0.4,0.4
2024-08-26T0300,3719A,97.1714,31.1406,昌都市,昌都会议中心,,28,12,15,7,9,88,,,,4,4,7,7,0.4,0.4
2024-08-26T0300,2690A,88.1236,43.8886,昌吉回族自治州,天山天池,,23,15,32,8,13,71,,,,3,4,15,17,0.4,0.5
2024-08-26T0300,2692A,87.2717,44.0297,昌吉回族自治州,新区政务中心,,30,30,38,13,12,49,,,,26,16,10,11,0.7,0.6
2024-08-26T0300,3613A,87.3095,44.0142,昌吉回族自治州,亚心广场,,44,44,46,19,9,63,,,,25,19,5,6,0.3,0.3
2024-08-26T0300,1119A,125.3325,43.9166,长春市,食品厂,,30,30,29,14,17,38,,,,29,20,4,3,0.3,0.4
2024-08-26T0300,1120A,125.2863,43.9027,长春市,客车厂,,27,27,28,11,18,46,,,,21,15,7,7,0.5,0.5
2024-08-26T0300,1121A,125.2841,43.8463,长春市,邮电学院,,24,24,25,14,13,33,,,,23,16,7,6,0.4,0.4
2024-08-26T0300,1122A,125.3716,43.8772,长春市,劳动公园,,,36,27,14,12,,,,,32,14,7,7,0.4,0.5
2024-08-26T0300,1123A,125.3297,43.8805,长春市,园林处,,21,21,24,13,13,50,,,,20,12,4,3,0.5,0.5
2024-08-26T0300,1124A,125.4605,43.79,长春市,净月潭,,25,25,22,12,10,20,,,,8,7,5,5,0.3,0.4
2024-08-26T0300,1125A,125.7194,43.515,长春市,甩湾子,,,,,,,,,,,,,,,,
2024-08-26T0300,1126A,125.3863,43.8447,长春市,经开区环卫处,,27,27,27,15,13,45,,,,17,16,7,6,0.4,0.5
2024-08-26T0300,1127A,125.245,43.7783,长春市,高新区管委会,,29,29,26,14,15,30,,,,25,12,3,3,0.5,0.5
2024-08-26T0300,1128A,125.1761,43.8325,长春市,岱山公园,,30,30,25,19,15,21,,,,37,17,4,3,0.3,0.3
2024-08-26T0300,1335A,113.0833,28.2325,长沙市,经开区环保局,,37,37,37,21,20,54,,,,15,15,2,2,0.4,0.4
2024-08-26T0300,1336A,112.8872,28.2189,长沙市,高开区环保局,,44,44,38,20,16,63,,,,17,13,4,5,0.7,0.7
2024-08-26T0300,1337A,113.0792,28.2053,长沙市,马坡岭,,37,37,37,23,22,43,,,,12,11,3,4,0.6,0.6
2024-08-26T0300,1338A,112.9394,28.19,长沙市,湖南师范大学,,49,49,42,27,24,33,,,,22,15,6,8,0.7,0.6
2024-08-26T0300,1339A,113.0178,28.1322,长沙市,雨花区环保局,,30,30,36,17,16,65,,,,11,11,7,6,0.4,0.4
2024-08-26T0300,1340A,112.9792,28.2597,长沙市,伍家岭,,39,39,39,14,20,65,,,,12,11,5,3,0.5,0.5
2024-08-26T0300,1341A,113.0014,28.1944,长沙市,火车新站,,32,29,39,22,22,73,,,,11,11,7,5,0.4,0.4
2024-08-26T0300,1342A,112.9844,28.1178,长沙市,天心区环保局,,36,36,39,23,22,59,,,,17,17,4,4,0.1,0.2
2024-08-26T0300,1343A,112.8908,28.1308,长沙市,湖南中医药大学,,44,44,36,17,17,53,,,,20,14,7,7,0.6,0.2
2024-08-26T0300,1344A,112.9581,28.3611,长沙市,沙坪,,33,23,19,23,18,39,,,,16,9,6,8,0.7,0.6
2024-08-26T0300,1727A,113.1147,36.1547,长治市,清华站,,,24,34,17,19,,,,,,10,8,6,0.4,0.7
2024-08-26T0300,1728A,113.1031,36.1989,长治市,监测站,,35,32,42,14,20,112,,,,6,13,7,7,0.8,1.1
2024-08-26T0300,1730A,113.0886,36.2125,长治市,审计局,,34,28,36,14,19,108,,,,2,7,4,5,0.5,0.9
2024-08-26T0300,1731A,113.0844,36.1856,长治市,长治八中,,35,28,42,19,22,111,,,,6,10,4,5,0.5,0.9
2024-08-26T0300,2845A,113.1569,36.1911,长治市,德盛苑,,36,27,36,19,20,114,,,,2,6,7,7,0.7,0.9
2024-08-26T0300,3568A,113.06,36.0464,长治市,向阳小学,颗粒物(PM10),55,59,54,37,32,120,,,,4,6,7,7,0.5,0.5
2024-08-26T0300,3569A,112.8792,36.3144,长治市,屯留一中,细颗粒物(PM2.5),52,38,48,36,33,122,,,,5,8,8,8,0.7,0.6
2024-08-26T0300,3570A,113.235,36.3489,长治市,潞城四中,,43,36,42,30,33,49,,,,15,12,6,7,0.7,0.8
2024-08-26T0300,1854A,111.6975,28.9703,常德市,市二中,,39,,30,27,24,7,,,,28,15,6,9,0.6,0.5
2024-08-26T0300,1857A,111.7158,29.1456,常德市,白鹤山,,,,,,,,,,,,,,,,
2024-08-26T0300,3138A,111.7153,29.0289,常德市,武陵区永安,,43,40,36,30,21,26,,,,31,14,9,8,0.7,0.5
2024-08-26T0300,3139A,111.6892,28.9881,常德市,鼎城区玉霞,细颗粒物(PM2.5),55,46,37,39,27,5,,,,32,16,6,6,0.8,0.6
2024-08-26T0300,3140A,111.6625,29.0531,常德市,武陵区长庚,,48,39,38,33,27,28,,,,24,12,8,9,0.7,0.6
2024-08-26T0300,1196A,119.9633,31.762,常州市,市监测站,,37,37,41,18,23,23,,,,29,17,5,7,0.5,0.7
2024-08-26T0300,1200A,119.9468,31.7069,常州市,武进监测站,,32,32,36,21,22,20,,,,30,15,10,9,1.2,1.2
2024-08-26T0300,1201A,119.9255,31.9087,常州市,安家,,23,23,34,15,24,12,,,,32,22,5,6,0.8,1
2024-08-26T0300,3002A,119.9805,31.8174,常州市,行政中心,,25,23,32,17,26,20,,,,30,21,9,9,0.4,0.7
2024-08-26T0300,3003A,120.0522,31.7748,常州市,经开区,,25,25,32,16,20,20,,,,26,17,10,10,0.5,0.8
2024-08-26T0300,3010A,119.9025,31.7964,常州市,钟楼,,30,30,37,18,21,20,,,,30,20,9,9,0.6,0.8
2024-08-26T0300,3429A,119.8598,31.7066,常州市,武进经发区,,34,34,38,17,22,20,,,,37,22,12,11,0.7,0.8
2024-08-26T0300,3430A,119.5826,31.7245,常州市,金坛城区,,30,30,37,16,22,38,,,,25,22,10,10,0.6,0.7
2024-08-26T0300,2220A,120.4318,41.5881,朝阳市,西梁,,18,18,29,12,14,18,,,,26,15,16,10,0.4,0.5
2024-08-26T0300,2221A,120.4521,41.5646,朝阳市,河畔小区,,22,22,21,3,5,23,,,,13,8,7,7,0.6,0.6
2024-08-26T0300,2222A,120.4176,41.5648,朝阳市,八里堡,,29,29,36,12,11,22,,,,20,17,10,7,0.6,0.7
2024-08-26T0300,2223A,120.3806,41.5969,朝阳市,农业园区,,28,28,26,11,10,17,,,,12,12,4,4,0.6,0.6
2024-08-26T0300,1705A,116.6367,23.6719,潮州市,西园路,,18,,33,12,22,30,,,,8,13,3,5,0.3,0.4
2024-08-26T0300,3026A,116.6183,23.6608,潮州市,市政府,,24,24,40,16,21,41,,,,9,12,8,12,0.6,0.7
2024-08-26T0300,4036A,116.6461,23.6761,潮州市,金山,,16,13,32,11,19,29,,,,8,11,5,7,0.6,0.7
2024-08-26T0300,2472A,113.0073,25.9061,郴州市,马头岭,,18,18,26,7,10,22,,,,10,9,7,7,0.4,0.4
2024-08-26T0300,2473A,113.0116,25.8226,郴州市,市职中,,28,28,25,19,17,13,,,,16,13,8,9,0.5,0.5
2024-08-26T0300,2474A,113.0161,25.8001,郴州市,兴隆步行街,,31,31,29,17,14,24,,,,17,13,6,6,0.5,0.5
2024-08-26T0300,2475A,113.0383,25.8071,郴州市,市审计局,,19,16,21,13,14,37,,,,12,11,3,3,0.4,0.4
2024-08-26T0300,2476A,113.0348,25.7759,郴州市,市环保局,,19,18,24,13,14,30,,,,16,14,3,4,0.4,0.4
2024-08-26T0300,1431A,103.9728,30.7236,成都市,金泉两河,,34,23,45,18,32,108,,,,3,11,2,2,0.4,0.5
2024-08-26T0300,1432A,104.176,30.6872,成都市,十里店,,35,27,55,24,36,109,,,,4,14,3,3,0.6,0.8
2024-08-26T0300,1433A,104.079,30.5706,成都市,三瓦窑,细颗粒物(PM2.5),52,,49,36,35,130,,,,9,30,2,2,0.4,0.5
2024-08-26T0300,1434A,104.1114,30.63,成都市,沙河铺,,40,40,54,20,33,127,,,,10,21,5,5,0.5,0.6
2024-08-26T0300,1437A,104.0786,30.6531,成都市,君平街,,38,34,54,25,36,120,,,,11,22,4,5,0.5,0.7
2024-08-26T0300,1438A,103.613,31.0283,成都市,灵岩寺,,,,,,,,,,,,,,,,
2024-08-26T0300,2880A,104.0239,30.65639,成都市,大石西路,,35,27,51,10,35,112,,,,8,19,4,5,0.4,0.6
2024-08-26T0300,3136A,104.2725,30.5589,成都市,龙泉驿区区政府,细颗粒物(PM2.5),58,61,41,41,28,79,,,,19,15,8,5,0.7,0.7
2024-08-26T0300,3357A,104.0106,30.6931,成都市,金博路,,32,26,44,17,31,101,,,,2,7,2,2,0.7,0.9
2024-08-26T0300,3359A,104.0578,30.5225,成都市,华阳,,40,29,47,17,25,127,,,,9,22,3,3,0.6,0.7
2024-08-26T0300,3487A,104.2394,30.5319,成都市,车城东七路,颗粒物(PM10),54,57,52,36,35,79,,,,21,19,6,5,0.7,0.6
2024-08-26T0300,3488A,104.3853,30.7453,成都市,青白江技师分院,颗粒物(PM10),51,51,46,29,34,67,,,,30,25,2,2,1.0,0.9
2024-08-26T0300,3489A,104.0789,30.4072,成都市,科学城,,42,38,45,29,34,114,,,,10,13,4,4,0.5,0.6
2024-08-26T0300,4011A,103.8506,30.6947,成都市,光华大道三段,,37,27,47,20,27,118,,,,2,10,2,3,0.5,0.6
2024-08-26T0300,1062A,117.9531,40.9081,承德市,铁路,,42,42,29,28,14,64,,,,14,22,7,8,0.6,0.4
2024-08-26T0300,1063A,117.9392,40.9763,承德市,中国银行,颗粒物(PM10),51,52,28,27,12,60,,,,13,16,4,4,0.6,0.4
2024-08-26T0300,1064A,117.9503,40.928,承德市,开发区,,32,32,30,13,11,76,,,,8,17,5,6,0.5,0.5
2024-08-26T0300,1065A,117.8051,40.9655,承德市,文化中心,,36,36,33,25,12,48,,,,14,21,7,6,0.5,0.4
2024-08-26T0300,1066A,117.9268,41.0026,承德市,离宫,,44,44,27,3,8,42,,,,7,8,1,2,0.5,0.4
2024-08-26T0300,2314A,117.47,30.6618,池州市,池州学院,,35,34,41,24,27,76,,,,13,13,7,8,1.3,1
2024-08-26T0300,3237A,117.4918,30.6617,池州市,展览馆,,34,34,40,22,26,76,,,,11,10,6,6,1.3,0.9
2024-08-26T0300,3333A,117.5627,30.695,池州市,第八中学,,47,47,43,29,25,77,,,,11,12,4,4,0.8,0.8
2024-08-26T0300,3334A,117.5038,30.6243,池州市,第十二中学,,35,33,38,24,27,51,,,,19,16,4,4,1.7,1.1
2024-08-26T0300,1744A,118.9233,42.2816,赤峰市,松山一中,,10,7,22,3,5,32,,,,18,20,8,9,0.5,0.6
2024-08-26T0300,1745A,118.9576,42.2728,赤峰市,哈达街,,13,7,19,6,8,39,,,,12,14,9,11,0.3,0.4
2024-08-26T0300,1746A,118.8788,42.2554,赤峰市,天义路,,29,22,17,20,10,28,,,,20,18,7,11,0.2,0.2
2024-08-26T0300,3058A,119.2658,42.0353,赤峰市,银河街,,21,21,23,7,11,30,,,,11,12,12,13,0.3,0.4
2024-08-26T0300,3286A,118.9359,42.3147,赤峰市,桥北物流园区,,17,17,17,3,8,24,,,,18,20,7,8,0.5,0.5
2024-08-26T0300,2521A,107.3476,22.4136,崇左市,市环保局江州分局,,29,29,23,8,8,18,,,,7,6,6,6,0.5,0.5
2024-08-26T0300,2522A,107.3702,22.3707,崇左市,城南新区,,17,17,17,7,7,29,,,,6,6,4,4,0.5,0.5
2024-08-26T0300,2298A,118.3093,32.3153,滁州市,老年大学,,31,31,39,16,24,45,,,,13,15,11,11,0.3,0.5
2024-08-26T0300,2299A,118.3244,32.2786,滁州市,人大宾馆,,35,33,46,24,29,40,,,,18,17,6,6,0.4,0.6
2024-08-26T0300,3207A,118.3118,32.3038,滁州市,市政府原办公楼,,39,33,39,27,29,40,,,,14,16,8,8,0.4,0.6
2024-08-26T0300,3331A,118.3267,32.2634,滁州市,图书馆,,39,39,47,24,29,36,,,,20,14,5,6,0.2,0.4
2024-08-26T0300,2605A,101.5482,25.0441,楚雄彝族自治州,州环境监测站,,45,,19,31,17,9,,,,26,14,5,5,0.6,0.5
2024-08-26T0300,2606A,101.538,25.0492,楚雄彝族自治州,市经济开发区,,26,24,23,18,15,8,,,,25,14,6,7,0.8,0.7
2024-08-26T0300,2548A,107.5277,31.2827,达州市,达州职业技术学院,细颗粒物(PM2.5),58,56,63,41,40,13,,,,15,13,6,7,0.8,0.7
2024-08-26T0300,2549A,107.5086,31.2186,达州市,市环境监测站,"颗粒物(PM10),细颗粒物(PM2.5)",52,53,47,36,27,26,,,,26,24,7,8,0.6,0.6
2024-08-26T0300,2550A,107.4988,31.2132,达州市,凤凰小区,,49,46,44,34,29,31,,,,23,21,8,8,0.6,0.5
2024-08-26T0300,2551A,107.5082,31.1986,达州市,达县机关宾馆,细颗粒物(PM2.5),63,61,57,45,31,29,,,,29,34,6,7,0.5,0.5
2024-08-26T0300,2552A,107.4644,31.2124,达州市,市政中心,"颗粒物(PM10),细颗粒物(PM2.5)",52,54,54,36,28,37,,,,25,25,6,7,0.7,0.7
2024-08-26T0300,2614A,100.1542,25.7054,大理白族自治州,大理市环境监测站,,28,17,23,16,12,88,,,,7,12,4,4,0.5,0.5
2024-08-26T0300,2615A,100.2171,25.5811,大理白族自治州,大理古城,,23,23,25,8,16,66,,,,10,11,7,7,0.7,0.7
2024-08-26T0300,1109A,121.612,38.9741,大连市,甘井子,细颗粒物(PM2.5),55,47,37,39,30,62,,,,20,21,6,7,1.0,0.9
2024-08-26T0300,1110A,121.565,38.9511,大连市,周水子,细颗粒物(PM2.5),57,44,34,40,31,61,,,,18,24,6,5,1.0,0.9
2024-08-26T0300,1111A,121.5637,38.8845,大连市,星海三站,,43,35,32,30,28,83,,,,8,10,5,7,0.6,0.5
2024-08-26T0300,1112A,121.6302,38.9117,大连市,青泥洼桥,,40,32,34,28,27,95,,,,4,12,8,8,0.8,0.8
2024-08-26T0300,1113A,121.6251,38.8638,大连市,傅家庄,,44,,27,29,30,138,,,,5,10,8,8,0.6,0.7
2024-08-26T0300,1114A,121.5213,38.8661,大连市,七贤岭,,42,33,30,29,27,46,,,,10,10,6,7,0.6,0.5
2024-08-26T0300,1115A,121.2529,38.8061,大连市,旅顺,,36,33,35,25,26,86,,,,12,14,8,9,0.7,0.6
2024-08-26T0300,1116A,121.7485,39.1311,大连市,金州,细颗粒物(PM2.5),64,,34,46,30,50,,,,13,13,7,7,0.5,0.6
2024-08-26T0300,1117A,121.7811,39.0496,大连市,开发区,细颗粒物(PM2.5),63,48,35,45,27,54,,,,17,14,10,9,0.6,0.6
2024-08-26T0300,1118A,121.9762,39.0631,大连市,双D港,,32,,27,22,24,33,,,,8,10,6,6,0.6,0.6
2024-08-26T0300,1789A,124.81117,46.03138,大庆市,大同区,,19,,22,13,21,39,,,,5,6,8,9,0.3,0.4
2024-08-26T0300,1790A,125.129,46.533,大庆市,龙凤区,,27,27,42,12,16,29,,,,13,14,4,5,0.5,0.6
2024-08-26T0300,1791A,124.902,46.408,大庆市,红岗区,,25,25,28,16,17,37,,,,8,11,8,8,0.4,0.4
2024-08-26T0300,1792A,125.153,46.586,大庆市,萨尔图区,,22,22,27,10,16,37,,,,10,11,6,7,0.3,0.4
2024-08-26T0300,1793A,124.9042,46.6215,大庆市,让胡路区,,21,21,29,10,14,33,,,,6,8,5,5,0.3,0.3
2024-08-26T0300,3481A,125.141,46.634,大庆市,萨区政府监测点,,22,22,29,12,14,35,,,,8,9,7,7,0.3,0.3
2024-08-26T0300,1721A,113.3819,40.1097,大同市,果树场,,,,,,,,,,,,,,,,
2024-08-26T0300,1723A,113.2994,40.0758,大同市,云冈宾馆,,29,6,24,3,9,92,,,,5,20,6,9,0.4,0.6
2024-08-26T0300,1724A,113.3444,40.0917,大同市,大同大学,,29,,19,3,9,92,,,,5,20,6,8,0.4,0.5
2024-08-26T0300,1725A,113.2661,40.1269,大同市,安家小村,,32,8,29,3,6,101,,,,6,17,9,10,0.6,0.6
2024-08-26T0300,1726A,113.2711,40.0844,大同市,教育学院,,30,,25,3,10,95,,,,7,25,9,12,0.5,0.7
2024-08-26T0300,3282A,113.3397,40.0597,大同市,大同市卫生学校,,28,,19,6,11,89,,,,6,18,6,8,0.5,0.6
2024-08-26T0300,3565A,113.1367,40.1122,大同市,云冈站,,,,28,,12,,,46,,,26,,12,,0.7
2024-08-26T0300,3566A,113.1186,40.2556,大同市,图书馆,,25,6,20,3,13,80,,,,12,15,8,11,0.7,0.6
2024-08-26T0300,3567A,113.5931,40.0461,大同市,区一中,,27,6,15,3,5,84,,,,6,9,4,5,0.6,0.5
2024-08-26T0300,3676A,113.2802,40.0995,大同市,第二人民医院,,31,,24,7,11,98,,,,6,20,8,11,0.4,0.6
2024-08-26T0300,2269A,124.1069,50.4097,大兴安岭地区,科技局,,22,,19,15,16,26,,,,2,3,3,2,0.3,0.3
2024-08-26T0300,3663A,124.1164,50.4278,大兴安岭地区,红旗社区,,9,,7,3,8,26,,,,2,4,6,6,0.4,0.4
2024-08-26T0300,1600A,124.3303,40.0625,丹东市,江湾东路,,28,28,23,19,17,24,,,,14,10,2,2,0.9,0.9
2024-08-26T0300,1601A,124.4256,40.1503,丹东市,临江后街,,20,20,22,12,12,31,,,,9,8,5,5,0.7,0.8
2024-08-26T0300,1602A,124.3933,40.1461,丹东市,元宝山,,22,22,21,13,13,16,,,,14,10,1,2,0.6,0.6
2024-08-26T0300,1603A,124.3633,40.1092,丹东市,民主桥,,28,28,29,13,13,33,,,,9,12,1,2,0.6,0.7
2024-08-26T0300,3541A,109.5726,19.5167,儋州市,第一中学子站,,13,13,16,3,7,14,,,,3,4,4,4,0.5,0.5
2024-08-26T0300,3542A,109.5567,19.5187,儋州市,东坡学校子站,,13,13,15,3,8,14,,,,3,4,4,3,0.5,0.5
2024-08-26T0300,2616A,98.5842,24.428,德宏傣族景颇族自治州,德宏州监测站,,15,15,20,6,8,31,,,,7,9,7,13,0.6,0.6
2024-08-26T0300,3677A,98.5881,24.4368,德宏傣族景颇族自治州,芒市人民政府综合楼,,14,14,18,3,10,22,,,,11,11,16,12,0.6,0.6
2024-08-26T0300,1901A,104.4239,31.1208,德阳市,东山公园,细颗粒物(PM2.5),68,74,49,49,33,68,,,,18,17,12,10,0.8,0.7
2024-08-26T0300,1902A,104.3826,31.1317,德阳市,西小区,细颗粒物(PM2.5),60,54,48,43,34,56,,,,17,16,14,9,0.9,0.8
2024-08-26T0300,1904A,104.3553,31.1091,德阳市,耐火材料厂,颗粒物(PM10),52,53,53,35,34,63,,,,17,24,11,14,0.6,0.7
2024-08-26T0300,3639A,104.4019,31.1244,德阳市,市教育局,细颗粒物(PM2.5),72,68,51,52,32,52,,,,25,16,15,8,0.8,0.7
2024-08-26T0300,1622A,116.3032,37.4674,德州市,儿童乐园,,29,22,66,19,42,92,,,,8,20,8,9,0.8,0.9
2024-08-26T0300,1624A,116.2991,37.4451,德州市,监理站,,30,24,72,19,44,94,,,,6,15,9,11,0.8,0.9
2024-08-26T0300,3066A,116.2721,37.4379,德州市,九衢泉纯净水厂,,30,22,68,12,43,93,,,,8,19,8,9,0.9,1
2024-08-26T0300,3371A,116.3728,37.4403,德州市,开发区人民医院,,33,24,66,19,37,103,,,,6,18,5,10,0.7,0.9
2024-08-26T0300,3372A,116.3572,37.4094,德州市,太阳城中学,,32,19,60,17,41,102,,,,10,20,8,12,0.8,0.9
2024-08-26T0300,3511A,116.5652,37.3319,德州市,陵城艺术中心,,34,34,61,22,33,104,,,,17,23,9,11,0.7,0.8
2024-08-26T0300,2621A,99.7056,27.8317,迪庆藏族自治州,迪庆州站,,35,35,33,11,16,64,,,,8,11,9,9,0.4,0.4
2024-08-26T0300,3180A,99.7136,27.8094,迪庆藏族自治州,质量技术监督局,,35,24,29,24,15,62,,,,10,13,9,10,0.6,0.6
2024-08-26T0300,2663A,104.6241,35.5734,定西市,东关小学,颗粒物(PM10),51,51,40,22,27,97,,,,4,7,2,2,0.2,0.2
2024-08-26T0300,2664A,104.6194,35.5934,定西市,供电公司,颗粒物(PM10),56,61,44,24,27,99,,,,1,6,5,6,0.2,0.2
2024-08-26T0300,1389A,113.7547,23.0494,东莞市,莞城梨川,细颗粒物(PM2.5),57,57,35,40,19,22,,,,39,27,4,4,0.9,0.8
2024-08-26T0300,1390A,113.7944,23.0128,东莞市,东城石井,,47,47,32,30,18,12,,,,32,24,4,5,0.7,0.6
2024-08-26T0300,1391A,113.7383,22.9658,东莞市,南城西平,细颗粒物(PM2.5),63,61,36,45,25,4,,,,55,26,4,5,0.9,0.7
2024-08-26T0300,3319A,113.7338,23.0381,东莞市,万江金泰,颗粒物(PM10),55,60,37,34,20,14,,,,49,29,6,6,0.8,0.7
2024-08-26T0300,3626A,113.7533,23.0202,东莞市,南城元岭,颗粒物(PM10),53,56,36,33,20,11,,,,47,29,7,7,0.8,0.7
2024-08-26T0300,3627A,113.7875,23.0457,东莞市,东城主山,颗粒物(PM10),53,56,37,34,20,29,,,,34,25,7,8,0.7,0.6
2024-08-26T0300,1666A,118.6614,37.4309,东营市,市环保局,细颗粒物(PM2.5),67,70,48,48,29,58,,,,24,13,14,7,0.6,0.5
2024-08-26T0300,3036A,118.6904,37.4338,东营市,开发区管委会,细颗粒物(PM2.5),67,74,53,48,29,72,,,,18,12,10,7,0.8,0.5
2024-08-26T0300,3365A,118.5719,37.565,东营市,垦利区民丰路,细颗粒物(PM2.5),62,68,44,44,26,77,,,,10,8,8,7,0.6,0.4
2024-08-26T0300,3498A,118.5055,37.8612,东营市,河口城区,,39,39,31,24,18,109,,,,4,7,5,5,0.8,0.8
2024-08-26T0300,3646A,118.4978,37.4623,东营市,胜利站,细颗粒物(PM2.5),64,55,43,46,30,66,,,,28,20,7,7,1.0,0.8
2024-08-26T0300,3734A,118.35,37.26,东营市,理想之城,细颗粒物(PM2.5),64,68,47,46,31,56,,,,23,15,8,6,0.5,0.5
2024-08-26T0300,1591A,110.0023,39.8129,鄂尔多斯市,综合楼,,30,7,22,3,13,93,,,,11,18,8,7,0.7,0.7
2024-08-26T0300,1592A,109.9486,39.8261,鄂尔多斯市,巴音孟克林场办事处,,29,,21,7,13,92,,,,8,20,5,7,0.7,0.7
2024-08-26T0300,1593A,109.7736,39.5986,鄂尔多斯市,康泽苑,,29,12,31,3,11,92,,,,2,19,5,6,0.5,0.8
2024-08-26T0300,1594A,109.8119,39.5989,鄂尔多斯市,华泰汽车城,,29,12,30,3,21,90,,,,3,18,8,7,0.5,0.7
2024-08-26T0300,1595A,109.9734,39.7884,鄂尔多斯市,奥林花园,,30,9,22,3,11,95,,,,7,17,4,6,0.7,0.7
2024-08-26T0300,2436A,114.8938,30.3994,鄂州市,市政府,颗粒物(PM10),57,63,53,32,24,96,,,,12,12,5,6,1.0,0.8
2024-08-26T0300,2437A,114.8989,30.3714,鄂州市,赵家坝,颗粒物(PM10),56,61,49,26,24,80,,,,17,18,10,12,0.7,0.6
2024-08-26T0300,3654A,114.8094,30.4089,鄂州市,精准医疗中心,颗粒物(PM10),52,53,40,28,22,75,,,,22,14,18,9,0.9,0.7
2024-08-26T0300,2454A,109.4978,30.2981,恩施土家族苗族自治州,湖北民院,,29,29,25,15,15,39,,,,14,17,8,8,0.6,0.6
2024-08-26T0300,2455A,109.4707,30.2798,恩施土家族苗族自治州,州电力总公司,,24,24,19,15,14,20,,,,25,18,7,7,0.6,0.6
2024-08-26T0300,3549A,109.5061,30.3772,恩施土家族苗族自治州,龙凤新区,,28,19,21,19,15,36,,,,6,7,6,6,0.6,0.6
2024-08-26T0300,2499A,108.3411,21.6158,防城港市,沙万,,13,10,24,9,9,34,,,,22,19,10,12,0.6,0.7
2024-08-26T0300,2500A,108.3514,21.7731,防城港市,防城档案局,,11,11,17,3,9,30,,,,7,10,7,9,0.6,0.8
2024-08-26T0300,2501A,108.3506,21.6414,防城港市,大海花园,,17,6,19,3,6,52,,,,6,11,5,9,0.5,0.7
2024-08-26T0300,1371A,113.1294,23.0067,佛山市,湾梁,,26,24,23,18,18,16,,,,34,20,7,7,0.8,0.7
2024-08-26T0300,1372A,113.1083,23.0478,佛山市,华材职中,,41,41,26,19,17,3,,,,53,26,7,7,0.5,0.3
2024-08-26T0300,1373A,113.144,23.0453,佛山市,南海气象局,,24,24,25,15,17,9,,,,32,16,5,6,0.6,0.6
2024-08-26T0300,1374A,113.2881,22.8094,佛山市,顺德苏岗,,32,26,22,22,15,11,,,,35,19,6,7,0.8,0.6
2024-08-26T0300,1376A,112.8383,22.8678,佛山市,高明孔堂,颗粒物(PM10),62,74,28,30,15,24,,,,18,10,7,8,0.7,0.6
2024-08-26T0300,1377A,112.8836,23.1588,佛山市,三水监测站,,36,36,29,18,19,2,,,,49,30,5,6,0.5,0.5
2024-08-26T0300,1378A,112.867,23.185,佛山市,三水云东海,,38,30,26,26,19,0,,,,42,25,7,9,0.6,0.6
2024-08-26T0300,3625A,113.2544,22.7642,佛山市,容桂街道办,,39,39,24,27,18,10,,,,58,27,8,7,1.0,0.8
2024-08-26T0300,1280A,119.3903,26.0543,福州市,鼓山,,,,,,,,,,,,,,,,
2024-08-26T0300,1282A,119.2681,26.0504,福州市,师大,,30,30,31,21,20,70,,,,8,8,4,4,0.4,0.4
2024-08-26T0300,1283A,119.2984,26.1028,福州市,五四北路,,,,,13,18,61,,,,8,8,3,3,0.3,0.4
2024-08-26T0300,1284A,119.2648,26.0768,福州市,杨桥西路,,40,28,32,28,21,76,,,,9,9,5,4,0.5,0.5
2024-08-26T0300,1285A,119.317,26.0746,福州市,紫阳,,32,26,27,22,17,64,,,,11,12,7,7,0.4,0.4
2024-08-26T0300,3048A,119.5799,26.0936,福州市,九龙,,23,23,21,16,14,46,,,,9,4,5,5,0.3,0.3
2024-08-26T0300,3526A,119.5189,25.9664,福州市,吴航,,31,31,26,21,18,54,,,,5,5,6,6,0.5,0.6
2024-08-26T0300,1755A,123.7977,41.8491,抚顺市,望花区,颗粒物(PM10),53,56,37,12,15,6,,,,29,20,9,10,0.6,0.6
2024-08-26T0300,1756A,123.9161,41.8822,抚顺市,顺城区,,,,38,,16,,,94,,,23,,5,,0.5
2024-08-26T0300,1757A,124.0436,41.8611,抚顺市,东洲区,,,,27,,15,,,90,,,14,,6,,0.5
2024-08-26T0300,1758A,123.9247,41.8642,抚顺市,新抚区,,39,39,27,14,11,6,,,,28,23,9,8,0.3,0.3
2024-08-26T0300,1759A,124.0972,41.8961,抚顺市,大伙房水库,,,,25,,12,,,94,,,11,,4,,0.7
2024-08-26T0300,1760A,123.7086,41.8391,抚顺市,沈抚新城,,29,29,22,12,13,6,,,,26,17,6,7,0.5,0.5
2024-08-26T0300,2376A,116.2127,28.0814,抚州市,桐源党溪,,37,37,39,22,21,18,,,,2,6,6,8,0.7,0.7
2024-08-26T0300,2377A,116.3544,27.9831,抚州市,市站,,24,24,33,13,18,39,,,,6,6,6,5,0.5,0.5
2024-08-26T0300,2378A,116.3565,27.963,抚州市,血防站,,34,34,34,18,18,29,,,,7,6,10,6,0.7,0.6
2024-08-26T0300,2379A,116.3564,28.0007,抚州市,采茶剧团,,26,26,30,12,18,39,,,,4,5,5,5,0.6,0.6
2024-08-26T0300,2380A,116.385,27.9647,抚州市,医学分院,,27,27,33,17,18,30,,,,6,7,6,5,0.9,0.7
2024-08-26T0300,2207A,121.6094,41.998,阜新市,工业园区,,27,27,31,8,9,2,,,,32,23,4,5,0.6,0.7
2024-08-26T0300,2208A,121.6697,42.0279,阜新市,长青街,,43,43,27,13,12,13,,,,26,18,13,9,0.7,0.6
2024-08-26T0300,2209A,121.6673,42.0705,阜新市,农业园区,,18,10,16,9,6,55,,,,11,9,50,7,0.6,0.6
2024-08-26T0300,2210A,121.6717,42.0224,阜新市,东苑,,47,47,30,12,7,16,,,,26,19,19,14,0.6,0.4
2024-08-26T0300,2211A,121.6506,42.0498,阜新市,玉龙新城,,21,21,27,9,11,6,,,,32,24,5,5,1.1,0.8
2024-08-26T0300,2301A,115.8277,32.8929,阜阳市,市监测站,,40,32,44,28,26,104,,,,8,10,6,7,0.7,0.7
2024-08-26T0300,2303A,115.8554,32.8605,阜阳市,开发区,,43,,51,30,30,111,,,,12,13,5,4,0.6,0.6
2024-08-26T0300,2875A,115.784,32.8892,阜阳市,阜阳职业技术学院,,38,36,42,24,24,120,,,,8,9,6,6,0.7,0.6
2024-08-26T0300,3468A,115.7901,32.8613,阜阳市,市规划展馆,颗粒物(PM10),51,51,49,34,32,119,,,,10,10,6,6,0.8,0.8
2024-08-26T0300,3469A,115.836,32.9183,阜阳市,枣园社区,,46,43,48,32,32,96,,,,11,12,5,5,0.8,0.8
2024-08-26T0300,2669A,102.9099,34.9841,甘南藏族自治州,州政府,,,,,,,,,,,,,,,,
2024-08-26T0300,3380A,102.8914,34.9617,甘南藏族自治州,甘肃民族师范学院,,22,11,25,6,16,70,,,,6,9,4,4,0.4,0.4
2024-08-26T0300,2570A,101.9603,30.0475,甘孜藏族自治州,水桥子,,37,37,27,21,18,19,,,,42,15,4,4,0.3,0.3
2024-08-26T0300,3065A,101.9533,29.9972,甘孜藏族自治州,州环保局,,37,37,29,3,12,13,,,,66,21,3,3,0.3,0.3
2024-08-26T0300,3414A,115.8347,28.932,赣江新区,桑海产业园,,31,31,30,20,18,49,,,,15,22,11,10,0.3,0.2
2024-08-26T0300,2362A,114.9017,25.9149,赣州市,通天岩,,,,,,,,,,,,,,,,
2024-08-26T0300,2363A,114.9367,25.8664,赣州市,地委,,24,24,26,16,17,46,,,,14,12,2,4,0.9,0.9
2024-08-26T0300,2364A,114.9461,25.8481,赣州市,气象台,,23,22,28,16,16,44,,,,11,12,5,7,0.4,0.4
2024-08-26T0300,2365A,114.9322,25.8333,赣州市,市图书馆,,,,22,,13,,,78,,,9,,4,,0.9
2024-08-26T0300,2366A,114.8905,25.8471,赣州市,华坚鞋城,,26,26,34,16,15,42,,,,10,9,1,2,0.4,0.4
2024-08-26T0300,3109A,115.0093,25.8613,赣州市,赣县区卫计委,,24,24,22,10,13,46,,,,11,10,5,6,0.5,0.5
2024-08-26T0300,2683A,106.2319,36.1417,固原市,马园,,42,42,57,8,14,69,,,,5,17,5,5,0.7,0.7
2024-08-26T0300,2684A,106.2792,36.0022,固原市,监测站,,27,27,35,10,19,80,,,,6,8,6,7,0.2,0.2
2024-08-26T0300,2685A,106.2375,36.0211,固原市,新区,,24,23,35,9,19,74,,,,4,8,7,7,0.3,0.4
2024-08-26T0300,3522A,106.2177,35.9959,固原市,原州区十五小,,28,21,27,10,16,87,,,,6,9,9,9,0.5,0.6
2024-08-26T0300,2543A,106.6308,30.5278,广安市,小平旧居,,,,,,,,,,,,,,,,
2024-08-26T0300,2544A,106.6303,30.4576,广安市,市委,,26,25,19,18,13,41,,,,20,12,8,8,0.4,0.3
2024-08-26T0300,2545A,106.6271,30.4663,广安市,友谊中学,,26,26,22,15,13,39,,,,20,15,6,7,0.4,0.4
2024-08-26T0300,2547A,106.6388,30.4551,广安市,广电花园,,,27,22,20,13,40,,,,16,13,,8,0.5,0.4
2024-08-26T0300,2902A,106.6351,30.4865,广安市,北辰小学,,34,34,30,20,13,40,,,,18,13,9,9,0.4,0.3
2024-08-26T0300,2523A,105.8945,32.4535,广元市,黑石坡,,24,24,22,16,19,56,,,,8,7,7,7,0.3,0.4
2024-08-26T0300,2524A,105.821,32.4444,广元市,老城,,14,14,27,8,12,31,,,,27,26,1,2,0.7,0.8
2024-08-26T0300,2526A,105.8628,32.4287,广元市,监测站,,18,18,19,12,14,47,,,,12,11,2,3,0.5,0.6
2024-08-26T0300,3617A,105.8047,32.4166,广元市,经开区,,37,37,39,23,24,24,,,,29,22,3,7,0.4,0.5
2024-08-26T0300,1345A,113.2347,23.1423,广州市,广雅中学,,28,28,31,17,17,15,,,,45,29,6,5,0.6,0.6
2024-08-26T0300,1346A,113.2612,23.105,广州市,市五中,,32,29,27,22,20,15,,,,43,23,3,3,0.6,0.6
2024-08-26T0300,1348A,113.3478,23.0916,广州市,广东商学院,,33,30,27,17,16,4,,,,65,29,4,4,0.7,0.6
2024-08-26T0300,1349A,113.4332,23.1047,广州市,市八十六中,,49,49,32,26,17,8,,,,61,39,4,4,0.6,0.6
2024-08-26T0300,1350A,113.3505,22.9483,广州市,番禺中学,,31,31,25,17,14,51,,,,23,18,4,4,0.7,0.7
2024-08-26T0300,1351A,113.2146,23.3916,广州市,花都师范,,46,46,37,20,19,4,,,,63,33,7,9,0.5,0.5
2024-08-26T0300,1352A,113.2597,23.1331,广州市,市监测站,,26,25,26,15,15,7,,,,52,25,6,5,0.5,0.4
2024-08-26T0300,1353A,113.5618,23.312,广州市,九龙镇镇龙,,32,32,33,19,19,6,,,,29,26,6,6,0.6,0.6
2024-08-26T0300,1354A,113.2765,23.1544,广州市,麓湖,,29,29,28,17,17,4,,,,40,27,4,5,0.7,0.6
2024-08-26T0300,1355A,113.443,23.3035,广州市,帽峰山森林公园,,28,28,24,18,13,21,,,,14,12,3,3,0.4,0.4
2024-08-26T0300,2846A,113.3221,23.1322,广州市,体育西,,20,20,28,13,17,18,,,,32,20,5,5,0.7,0.7
2024-08-26T0300,3298A,113.5717,23.5491,广州市,从化街口,,32,32,32,14,18,5,,,,25,19,6,6,0.7,0.7
2024-08-26T0300,3299A,113.3472,23.3692,广州市,白云竹料,,38,38,38,19,20,3,,,,38,29,4,4,0.8,0.8
2024-08-26T0300,3300A,113.2981,23.237,广州市,白云嘉禾,,39,39,30,23,18,7,,,,47,34,5,5,0.9,0.8
2024-08-26T0300,3301A,113.4256,23.1716,广州市,黄埔科学城,,38,38,31,20,17,10,,,,37,26,6,6,0.7,0.7
2024-08-26T0300,3302A,113.3942,23.0483,广州市,番禺大学城,,40,32,30,28,16,6,,,,50,24,7,6,0.7,0.6
2024-08-26T0300,3303A,113.4922,22.8168,广州市,南沙黄阁,,32,32,30,19,17,16,,,,47,29,5,5,0.7,0.7
2024-08-26T0300,3304A,113.5342,22.7896,广州市,南沙街,,34,34,28,19,16,13,,,,39,21,4,5,0.8,0.7
2024-08-26T0300,3443A,113.2902,23.5544,广州市,花都梯面,,33,33,44,16,25,3,,,,26,26,4,5,0.6,0.7
2024-08-26T0300,3445A,113.7858,23.7478,广州市,从化良口,,25,25,24,12,14,3,,,,18,10,6,6,0.8,0.8
2024-08-26T0300,3446A,113.8051,23.2614,广州市,增城荔城,,47,47,34,30,21,37,,,,22,17,8,8,0.6,0.6
2024-08-26T0300,2505A,109.568,23.1478,贵港市,德智高中,,,,,,,,,,,,,,,,
2024-08-26T0300,2506A,109.6047,23.0666,贵港市,江南子站,,48,48,45,30,22,22,,,,25,19,8,8,0.7,0.7
2024-08-26T0300,2507A,109.6014,23.0948,贵港市,贵城子站,,45,45,39,27,22,34,,,,19,16,8,10,0.6,0.7
2024-08-26T0300,2508A,109.5669,23.1065,贵港市,荷城子站,,34,34,32,17,12,36,,,,16,14,10,11,0.5,0.5
2024-08-26T0300,3405A,109.5886,23.1172,贵港市,新世纪学校,,36,36,34,22,16,36,,,,17,13,10,10,0.7,0.7
2024-08-26T0300,1439A,106.6899,26.5998,贵阳市,马鞍山,,13,6,6,3,0,40,,,,6,5,2,5,0.3,0.3
2024-08-26T0300,1440A,106.6971,26.5694,贵阳市,市环保站,,20,,30,14,10,41,,,,8,14,5,4,0.2,0.2
2024-08-26T0300,1441A,106.6243,26.6266,贵阳市,鉴湖路,,17,17,12,7,3,40,,,,6,5,17,6,0.4,0.3
2024-08-26T0300,1442A,106.7487,26.6343,贵阳市,燕子冲,,14,,3,9,6,42,,,,8,6,8,6,0.4,0.4
2024-08-26T0300,1443A,106.6555,26.4365,贵阳市,碧云窝,,24,24,18,3,3,36,,,,8,5,14,7,0.3,0.3
2024-08-26T0300,1444A,106.694,26.5161,贵阳市,中院村,,18,14,13,12,5,30,,,,15,9,10,7,0.4,0.3
2024-08-26T0300,1445A,106.7109,26.6027,贵阳市,红边门,,25,17,13,17,12,41,,,,10,11,7,4,0.3,0.3
2024-08-26T0300,1446A,106.7164,26.5699,贵阳市,新华路,,22,22,13,12,4,36,,,,11,8,6,3,0.6,0.5
2024-08-26T0300,1447A,106.674,26.5424,贵阳市,太慈桥,,8,,6,3,2,21,,,,12,7,3,4,0.3,0.4
2024-08-26T0300,1552A,106.805,26.3003,贵阳市,桐木岭,,,,,,,,,,,,,,,,
2024-08-26T0300,1862A,110.4144,25.3167,桂林市,电子科大尧山校区,,43,43,36,21,16,15,,,,14,8,15,11,0.5,0.5
2024-08-26T0300,1863A,110.2819,25.2697,桂林市,监测站,,25,25,27,13,14,22,,,,17,10,6,8,0.5,0.5
2024-08-26T0300,1864A,110.3089,25.2708,桂林市,龙隐路小学,,25,25,26,16,15,22,,,,11,8,6,8,0.4,0.3
2024-08-26T0300,1865A,110.2869,25.2178,桂林市,八中,,31,31,27,14,12,11,,,,14,9,6,7,0.5,0.4
2024-08-26T0300,3403A,110.1764,25.2381,桂林市,创业大厦,,29,29,22,19,17,4,,,,36,15,6,7,0.3,0.3
2024-08-26T0300,3531A,110.296,25.1253,桂林市,旅游学院,,20,19,14,14,11,19,,,,13,10,11,7,0.4,0.4
2024-08-26T0300,2674A,100.2561,34.4714,果洛藏族自治州,玛沁县大武镇,,24,6,14,6,12,75,,,,1,3,8,6,0.4,0.4
2024-08-26T0300,1129A,126.5422,45.755,哈尔滨市,岭北,,22,19,26,15,17,56,,,,14,12,10,11,0.6,0.5
2024-08-26T0300,1130A,126.561,45.8167,哈尔滨市,松北商大,,28,28,29,12,12,22,,,,18,16,7,8,0.6,0.7
2024-08-26T0300,1131A,126.979,45.5419,哈尔滨市,阿城会宁,,28,,35,19,20,33,,,,9,13,5,7,0.7,0.7
2024-08-26T0300,1132A,126.599,45.7222,哈尔滨市,南岗学府路,,34,34,38,16,14,37,,,,17,12,7,6,0.5,0.5
2024-08-26T0300,1133A,126.689,45.7733,哈尔滨市,太平宏伟公园,,47,47,35,17,14,18,,,,33,17,6,6,0.5,0.5
2024-08-26T0300,1134A,126.635,45.7667,哈尔滨市,道外承德广场,,30,30,35,3,7,25,,,,35,21,12,12,0.5,0.5
2024-08-26T0300,1135A,126.685,45.7319,哈尔滨市,香坊红旗大街,,41,41,39,21,21,23,,,,37,22,6,6,0.8,0.8
2024-08-26T0300,1136A,126.6411,45.7258,哈尔滨市,动力和平路,,40,28,26,28,48,27,,,,32,17,6,6,0.5,0.5
2024-08-26T0300,1137A,126.593,45.7478,哈尔滨市,道里建国路,,34,34,32,14,15,29,,,,24,16,13,14,0.8,0.8
2024-08-26T0300,1138A,126.615,45.61,哈尔滨市,平房东轻厂,,24,24,27,11,11,44,,,,17,18,6,6,0.3,0.2
2024-08-26T0300,1139A,126.595,45.9855,哈尔滨市,呼兰师专,,17,10,24,8,11,53,,,,14,14,10,10,0.6,0.6
2024-08-26T0300,1140A,126.6206,45.6842,哈尔滨市,省农科院,颗粒物(PM10),69,87,38,20,15,6,,,,57,32,7,8,0.6,0.6
2024-08-26T0300,2688A,93.5128,42.8172,哈密市,地区监测站,颗粒物(PM10),57,63,40,28,21,99,,,,8,12,3,5,0.2,0.3
2024-08-26T0300,2689A,93.4961,42.8328,哈密市,哈密师范学校,,35,33,42,24,18,96,,,,8,19,5,5,0.5,0.7
2024-08-26T0300,2671A,100.9048,36.9639,海北藏族自治州,海晏县西海镇,,30,,21,21,16,78,,,,8,11,12,14,0.5,0.5
2024-08-26T0300,3867A,102.0738,36.5056,海东市,平安区公安北苑,,38,35,25,26,16,62,,,,9,14,10,9,0.6,0.8
2024-08-26T0300,1409A,110.576,19.9507,海口市,东寨港,,,,,,,,,,,,,,,,
2024-08-26T0300,1410A,110.3232,20.0574,海口市,海南大学,,21,21,16,10,8,41,,,,8,8,6,6,0.4,0.4
2024-08-26T0300,1411A,110.283,20.0053,海口市,秀英海南医院,,20,20,18,13,11,36,,,,9,11,7,7,0.3,0.3
2024-08-26T0300,1412A,110.338,19.9969,海口市,海南师范大学,,19,19,16,13,10,34,,,,8,8,8,7,0.4,0.4
2024-08-26T0300,1413A,110.33,20.0356,海口市,龙华路环保局宿舍,,18,18,16,10,9,38,,,,7,6,8,8,0.3,0.2
2024-08-26T0300,3539A,110.5111,19.9736,海口市,桂林洋子站,,23,23,21,7,7,18,,,,10,9,6,6,0.3,0.3
2024-08-26T0300,2673A,100.6188,36.2866,海南藏族自治州,共和县恰卜恰镇,,25,16,28,12,11,78,,,,3,10,11,12,0.7,0.5
2024-08-26T0300,2676A,97.3731,37.3753,海西蒙古族藏族自治州,德令哈市,,25,25,47,13,18,64,,,,5,8,8,7,0.5,0.5
2024-08-26T0300,1048A,114.5302,36.6116,邯郸市,东污水处理厂,细颗粒物(PM2.5),55,,49,39,28,71,,,,4,11,2,2,0.5,0.6
2024-08-26T0300,1049A,114.4918,36.5713,邯郸市,矿院,,42,32,52,29,31,73,,,,2,7,1,2,0.5,0.6
2024-08-26T0300,1050A,114.484,36.6133,邯郸市,丛台公园,,36,36,49,23,28,61,,,,3,9,2,3,0.5,0.6
2024-08-26T0300,3458A,114.7895,36.5593,邯郸市,香泉濮院小区,,33,17,48,9,19,103,,,,1,8,3,2,0.4,0.6
2024-08-26T0300,3579A,114.50634,36.77178,邯郸市,永年区实验高中,,28,23,65,19,33,80,,,,2,15,2,3,0.5,0.5
2024-08-26T0300,3580A,114.20016,36.44293,邯郸市,峰峰矿区临水派出所,细颗粒物(PM2.5),60,46,42,43,31,54,,,,9,11,4,3,1.5,0.8
2024-08-26T0300,2634A,106.9893,33.1842,汉中市,汉川机床厂子校,,20,17,23,14,15,31,,,,13,7,4,4,0.5,0.6
2024-08-26T0300,2635A,107.0154,33.0706,汉中市,市监测站,,38,38,34,24,18,43,,,,10,7,8,7,0.6,0.6
2024-08-26T0300,2636A,107.0089,33.1138,汉中市,鑫源开发区,,46,46,47,20,17,31,,,,25,12,20,10,0.8,0.5
2024-08-26T0300,2637A,107.007,33.0323,汉中市,南郑大河坎水厂,,28,28,31,18,19,45,,,,9,7,8,8,0.5,0.5
2024-08-26T0300,1223A,120.2072,30.2111,杭州市,滨江,,48,48,44,23,26,41,,,,26,15,5,5,0.7,0.7
2024-08-26T0300,1224A,120.0633,30.2747,杭州市,西溪,,46,46,44,29,30,55,,,,28,19,6,6,0.6,0.6
2024-08-26T0300,1226A,120.3461,30.3153,杭州市,下沙,颗粒物(PM10),53,55,47,27,24,49,,,,24,17,6,6,0.8,0.8
2024-08-26T0300,1227A,120.1269,30.2456,杭州市,卧龙桥,,38,36,39,26,30,44,,,,19,16,5,5,0.7,0.7
2024-08-26T0300,1228A,120.1903,30.2692,杭州市,浙江农大,,39,39,39,23,25,43,,,,25,19,10,8,0.7,0.6
2024-08-26T0300,1230A,120.1197,30.3119,杭州市,和睦小学,,30,29,38,21,25,51,,,,25,18,7,6,0.5,0.6
2024-08-26T0300,1231A,120.3019,30.4183,杭州市,临平镇,,34,34,45,18,19,34,,,,21,10,5,4,0.7,0.7
2024-08-26T0300,1232A,120.2697,30.1819,杭州市,城厢镇,细颗粒物(PM2.5),58,54,44,41,29,68,,,,20,16,7,6,0.8,0.7
2024-08-26T0300,1233A,120.0883,30.1808,杭州市,云栖,,29,29,35,19,23,21,,,,30,22,7,8,0.8,0.7
2024-08-26T0300,3557A,119.9464,30.0494,杭州市,镇二中,细颗粒物(PM2.5),54,46,48,38,36,40,,,,45,25,8,8,0.9,0.8
2024-08-26T0300,3558A,119.7183,30.2367,杭州市,市府大楼,,49,48,40,34,30,73,,,,21,15,6,6,0.8,0.6
2024-08-26T0300,3656A,120.1556,30.2864,杭州市,消防大队,,41,41,42,26,27,52,,,,22,12,8,7,0.8,0.8
2024-08-26T0300,1270A,117.1959,31.7848,合肥市,明珠广场,,49,41,45,34,31,105,,,,18,18,11,9,0.6,0.6
2024-08-26T0300,1271A,117.3072,31.8764,合肥市,三里街,,41,41,48,22,28,83,,,,23,18,8,7,0.8,0.7
2024-08-26T0300,1272A,117.2588,31.8707,合肥市,琥珀山庄,细颗粒物(PM2.5),59,44,53,42,35,103,,,,20,17,9,8,0.8,0.7
2024-08-26T0300,1273A,117.1604,31.9052,合肥市,董铺水库,,44,44,57,24,32,109,,,,14,13,4,4,0.6,0.6
2024-08-26T0300,1274A,117.25,31.8571,合肥市,长江中路,颗粒物(PM10),52,53,55,35,36,102,,,,22,19,12,10,1.0,0.9
2024-08-26T0300,1275A,117.266,31.9436,合肥市,庐阳区,颗粒物(PM10),52,53,51,24,27,83,,,,24,20,6,5,0.8,0.7
2024-08-26T0300,1276A,117.336,31.8586,合肥市,瑶海区,,44,44,53,24,31,76,,,,24,22,11,10,0.9,0.8
2024-08-26T0300,1277A,117.3027,31.7964,合肥市,包河区,颗粒物(PM10),56,61,55,39,34,50,,,,64,30,9,9,0.7,0.6
2024-08-26T0300,1278A,117.2776,31.7385,合肥市,滨湖新区,,39,39,45,22,29,101,,,,12,14,9,9,0.8,0.8
2024-08-26T0300,1279A,117.1318,31.8403,合肥市,高新区,,45,34,45,31,31,111,,,,12,16,14,11,0.8,0.8
2024-08-26T0300,3464A,117.3803,31.9147,合肥市,高教基地,,38,35,47,26,28,73,,,,16,15,10,10,0.7,0.6
2024-08-26T0300,3614A,79.924,37.0877,和田地区,地区环保局,颗粒物(PM10),465,565,504,134,114,40,,,,23,12,8,7,0.6,0.6
2024-08-26T0300,3615A,79.9131,37.113,和田地区,市环保局,颗粒物(PM10),394,495,494,119,97,16,,,,49,16,8,8,0.6,0.5
2024-08-26T0300,2516A,108.2011,24.715,河池市,东仁乐园,,29,25,29,20,25,9,,,,11,9,3,4,0.7,0.7
2024-08-26T0300,2517A,108.0497,24.6947,河池市,市环保站,,22,22,25,11,14,8,,,,16,11,7,9,0.5,0.5
2024-08-26T0300,2518A,108.0983,24.6989,河池市,市疾控中心,,24,24,28,11,13,8,,,,19,14,8,9,0.6,0.6
2024-08-26T0300,1696A,114.6778,23.7569,河源市,源西,,13,13,14,3,10,20,,,,21,16,4,4,0.5,0.6
2024-08-26T0300,1697A,114.6944,23.7586,河源市,东埔,,15,,19,10,14,26,,,,16,14,2,2,0.6,0.6
2024-08-26T0300,1698A,114.6892,23.7233,河源市,老城,,23,23,23,3,10,30,,,,10,10,6,5,0.5,0.5
2024-08-26T0300,1718A,115.4208,35.2464,菏泽市,气象局,,49,49,53,25,30,114,,,,9,12,4,5,0.6,0.5
2024-08-26T0300,1719A,115.4747,35.2375,菏泽市,市政协,,48,48,54,28,33,94,,,,5,8,4,5,0.4,0.4
2024-08-26T0300,3374A,115.5564,35.0891,菏泽市,定陶老年大学,,39,39,48,22,23,91,,,,6,8,5,5,0.7,0.6
2024-08-26T0300,3647A,115.4702,35.2706,菏泽市,菏泽医专,,50,50,58,25,29,104,,,,7,13,5,7,0.8,0.7
2024-08-26T0300,2514A,111.5264,24.4172,贺州市,环保小区,,27,27,29,15,15,7,,,,17,14,12,9,0.6,0.6
2024-08-26T0300,2515A,111.5608,24.4078,贺州市,政协大楼,,34,34,31,11,16,9,,,,15,16,11,9,0.6,0.6
2024-08-26T0300,3534A,111.4744,24.4553,贺州市,西湾,,25,25,28,14,15,7,,,,14,15,7,7,0.5,0.6
2024-08-26T0300,2385A,114.17,35.9019,鹤壁市,市监测站,,39,38,41,27,32,34,,,,15,7,3,3,0.7,0.6
2024-08-26T0300,2386A,114.2956,35.7511,鹤壁市,市交警支队,,39,39,43,21,29,60,,,,11,11,5,4,0.5,0.6
2024-08-26T0300,2387A,114.2878,35.7306,鹤壁市,迎宾馆,颗粒物(PM10),52,54,36,20,26,64,,,,11,12,6,6,0.6,0.7
2024-08-26T0300,3474A,114.2617,35.6822,鹤壁市,大新区,,,33,40,,,55,,,,10,10,3,3,0.4,0.5
2024-08-26T0300,3596A,114.1572,35.9603,鹤壁市,南山宾馆,,39,27,26,27,25,41,,,,8,4,3,2,0.6,0.5
2024-08-26T0300,2244A,130.2537,47.3416,鹤岗市,哈啤分公司,,28,28,23,18,16,12,,,,24,10,12,12,0.6,0.5
2024-08-26T0300,2245A,130.2684,47.3086,鹤岗市,斯达机电,,24,24,21,15,14,28,,,,10,11,14,14,0.3,0.3
2024-08-26T0300,2246A,130.3114,47.3388,鹤岗市,东山纸板厂,,26,,18,18,15,21,,,,12,10,16,17,0.3,0.2
2024-08-26T0300,2247A,130.1097,47.3382,鹤岗市,五号水库,,11,11,8,3,5,18,,,,7,7,12,11,0.1,0.1
2024-08-26T0300,2263A,127.4833,50.2524,黑河市,交通局,,12,9,23,7,12,37,,,,3,7,6,7,0.4,0.4
2024-08-26T0300,2264A,127.5144,50.2341,黑河市,环保局,,15,,16,10,11,31,,,,3,4,4,3,0.4,0.3
2024-08-26T0300,2265A,127.5291,50.2472,黑河市,大黑河岛,,,,8,3,10,,,,,4,10,2,2,,
2024-08-26T0300,1074A,115.6838,37.7541,衡水市,电机北厂,,43,,45,30,32,68,,,,8,14,3,4,0.5,0.5
2024-08-26T0300,1075A,115.6303,37.7316,衡水市,市监测站,,40,31,48,28,31,76,,,,10,14,3,4,0.5,0.6
2024-08-26T0300,3188A,115.6683,37.7217,衡水市,市城管局,,32,,48,22,32,77,,,,8,13,3,5,0.5,0.6
2024-08-26T0300,3459A,115.5989,37.5491,衡水市,地表水厂,,29,24,59,3,35,90,,,,2,8,3,2,0.5,0.6
2024-08-26T0300,2456A,112.5003,26.9167,衡阳市,原169医院,颗粒物(PM10),52,53,40,26,22,22,,,,14,12,9,11,0.6,0.6
2024-08-26T0300,2457A,112.6194,26.9258,衡阳市,衡阳化工总厂,,,34,43,,,34,,,,11,10,8,12,0.5,0.6
2024-08-26T0300,2458A,112.6211,26.8956,衡阳市,珠晖区环保局,,,39,42,,,33,,,,13,11,8,13,0.7,0.8
2024-08-26T0300,2459A,112.6197,26.8733,衡阳市,市委党校,,36,36,44,22,24,37,,,,10,11,12,17,0.8,0.7
2024-08-26T0300,2460A,112.6006,26.8919,衡阳市,市监测站,,43,37,39,30,27,30,,,,14,11,8,12,0.8,0.8
2024-08-26T0300,2461A,112.5664,26.9056,衡阳市,真空机电公司,,43,40,46,30,26,30,,,,16,14,13,14,0.8,1
2024-08-26T0300,3399A,112.6703,26.882,衡阳市,师范学院,,34,34,39,19,20,40,,,,10,10,8,10,0.5,0.6
2024-08-26T0300,2608A,103.3772,23.3993,红河哈尼族彝族自治州,污水处理厂,,10,,10,7,11,31,,,,6,5,6,6,0.3,0.3
2024-08-26T0300,2609A,103.3861,23.35,红河哈尼族彝族自治州,监测站,,25,,15,17,12,34,,,,4,6,8,13,0.3,0.3
2024-08-26T0300,3038A,103.3758,23.368,红河哈尼族彝族自治州,州图书馆,,11,,12,7,7,35,,,,4,6,5,20,0.3,0.3
2024-08-26T0300,1090A,111.6507,40.7517,呼和浩特市,呼市一监,,36,6,11,3,8,114,,,,3,10,9,8,0.5,0.6
2024-08-26T0300,1091A,111.6572,40.8033,呼和浩特市,小召,,,,9,1,7,111,,,,5,15,5,5,0.4,0.5
2024-08-26T0300,1094A,111.7516,40.8369,呼和浩特市,如意水处理厂,,33,6,16,3,6,103,,,,4,19,6,6,0.3,0.4
2024-08-26T0300,1095A,111.7276,40.8062,呼和浩特市,二十九中,,35,6,17,3,6,109,,,,6,19,3,4,0.5,0.6
2024-08-26T0300,1096A,111.5512,40.7866,呼和浩特市,工大金川校区,,35,6,19,3,8,109,,,,6,26,2,2,0.4,0.4
2024-08-26T0300,1097A,111.717,40.7612,呼和浩特市,化肥厂生活区,,35,6,19,3,7,112,,,,3,10,7,8,0.3,0.4
2024-08-26T0300,3698A,111.5968,40.8178,呼和浩特市,红旗小学,,34,,19,3,9,108,,,,5,26,2,3,0.3,0.4
2024-08-26T0300,3699A,111.6518,40.8389,呼和浩特市,海东办,,35,6,18,3,8,110,,,,5,24,5,5,0.6,0.6
2024-08-26T0300,2192A,119.7594,49.2261,呼伦贝尔市,区环保局,,44,44,32,22,22,42,,,,9,10,4,4,0.3,0.3
2024-08-26T0300,3061A,119.7512,49.1577,呼伦贝尔市,国华电力东,,24,24,29,16,19,50,,,,5,4,4,3,0.3,0.3
2024-08-26T0300,1250A,120.0751,30.8669,湖州市,城西水厂,,26,23,29,18,20,37,,,,14,11,5,5,0.4,0.4
2024-08-26T0300,2873A,120.0875,30.8955,湖州市,仁皇山新区,,22,22,29,13,20,37,,,,21,16,7,7,0.7,0.7
2024-08-26T0300,2907A,120.1844,30.8596,湖州市,吴兴区站,,23,23,29,12,18,27,,,,15,9,7,7,0.5,0.5
2024-08-26T0300,3562A,120.4148,30.8538,湖州市,南浔区站,,22,22,30,14,19,19,,,,21,13,4,4,0.6,0.6
2024-08-26T0300,1607A,120.9092,40.7136,葫芦岛市,龙港区,颗粒物(PM10),57,63,39,33,21,19,,,,41,25,26,22,1.7,0.7
2024-08-26T0300,1608A,120.8392,40.7514,葫芦岛市,化工街,,39,39,39,19,17,13,,,,42,27,31,28,0.6,0.5
2024-08-26T0300,1609A,120.8341,40.7073,葫芦岛市,新区,,38,27,34,26,16,34,,,,40,26,20,14,0.8,0.5
2024-08-26T0300,1610A,120.8695,40.7677,葫芦岛市,东城区,,34,34,37,22,15,11,,,,47,27,10,13,0.2,0.1
2024-08-26T0300,2482A,109.5981,27.5721,怀化市,林科所,,12,11,13,6,9,38,,,,14,14,6,6,0.2,0.3
2024-08-26T0300,2483A,109.9453,27.5444,怀化市,河西地税局,,19,19,18,10,11,14,,,,10,9,1,2,0.5,0.5
2024-08-26T0300,2484A,109.9781,27.5342,怀化市,市四医院,,24,24,23,12,14,26,,,,12,9,6,5,0.6,0.6
2024-08-26T0300,2485A,109.9972,27.5578,怀化市,监测楼,,26,26,24,14,10,23,,,,12,7,9,5,0.6,0.6
2024-08-26T0300,2486A,110.0394,27.583,怀化市,市委党校,,18,18,18,10,10,19,,,,17,8,3,6,0.5,0.5
2024-08-26T0300,1210A,119.036,33.5981,淮安市,钵池山,,26,,21,18,21,48,,,,17,13,6,7,0.5,0.6
2024-08-26T0300,1211A,119.007,33.575,淮安市,北京南路,,25,,25,17,17,54,,,,7,8,5,4,0.6,0.7
2024-08-26T0300,1212A,118.989,33.6067,淮安市,市监测站,,28,19,25,19,20,63,,,,7,10,6,6,0.6,0.7
2024-08-26T0300,1213A,119.135,33.5039,淮安市,楚州区监测站,,27,27,35,17,17,46,,,,15,13,5,5,0.5,0.6
2024-08-26T0300,1214A,119.0186,33.6297,淮安市,淮阴区监测站,,23,22,30,16,20,55,,,,10,12,4,4,0.4,0.5
2024-08-26T0300,3426A,118.8755,33.2894,淮安市,新华书店,,26,,25,18,18,55,,,,11,11,6,6,0.5,0.6
2024-08-26T0300,2282A,116.8004,33.975,淮北市,监测站,,44,44,41,24,28,105,,,,2,6,5,5,0.7,0.8
2024-08-26T0300,2283A,116.8091,33.9007,淮北市,烈山区政府,,41,41,47,24,30,99,,,,6,6,6,6,0.6,0.7
2024-08-26T0300,3330A,116.8873,33.9836,淮北市,杜集区检察院,,45,40,45,31,35,104,,,,4,5,2,2,0.5,0.7
2024-08-26T0300,4017A,116.7923,33.9535,淮北市,市博物馆,,33,28,43,23,28,99,,,,9,8,4,4,0.9,0.9
2024-08-26T0300,2277A,116.8305,32.7727,淮南市,潘集区政府,,50,50,49,24,29,70,,,,16,12,7,5,0.9,0.8
2024-08-26T0300,2278A,117.0067,32.6524,淮南市,师范学院,,38,38,49,16,26,92,,,,6,7,7,5,0.5,0.7
2024-08-26T0300,2279A,116.8569,32.5951,淮南市,谢家集区政府,,36,25,37,25,29,82,,,,10,12,7,8,0.4,0.6
2024-08-26T0300,2280A,116.8281,32.633,淮南市,八公山区政府,,41,41,50,22,28,95,,,,8,11,8,7,0.4,0.6
2024-08-26T0300,2281A,116.6325,32.6201,淮南市,焦岗湖风景区管理处,,26,26,39,14,16,74,,,,13,14,6,6,0.4,0.4
2024-08-26T0300,2894A,117.0566,32.6531,淮南市,经济技术开发区消防队,,31,31,37,21,18,74,,,,10,11,4,6,0.5,0.6
2024-08-26T0300,3329A,117.0108,32.5893,淮南市,山南新区,,41,41,53,24,33,84,,,,10,12,5,5,0.6,0.7
2024-08-26T0300,2446A,114.9028,30.4742,黄冈市,职工中心,细颗粒物(PM2.5),62,60,44,44,29,91,,,,19,14,22,11,0.6,0.5
2024-08-26T0300,2929A,114.8858,30.4519,黄冈市,红卫路,细颗粒物(PM2.5),59,64,45,42,31,84,,,,27,14,19,11,0.5,0.5
2024-08-26T0300,3398A,114.9136,30.4445,黄冈市,市林业局,颗粒物(PM10),58,65,50,17,17,81,,,,30,14,13,8,0.5,0.5
2024-08-26T0300,2672A,102.0199,35.5102,黄南藏族自治州,同仁县隆务镇,,22,18,22,9,10,70,,,,2,4,8,8,0.5,0.5
2024-08-26T0300,2295A,118.2903,29.6963,黄山市,延安路89号,,32,32,44,12,16,25,,,,11,7,5,5,0.6,0.6
2024-08-26T0300,2296A,118.327,29.7178,黄山市,黄山东路89号,,36,36,30,12,14,29,,,,11,6,4,4,0.5,0.5
2024-08-26T0300,2297A,118.1371,30.2756,黄山市,黄山区政府5号楼,,33,33,35,21,20,30,,,,6,7,6,6,0.5,0.5
2024-08-26T0300,2423A,115.0601,30.2313,黄石市,沈家营,颗粒物(PM10),86,121,65,39,26,28,,,,64,19,17,15,0.8,0.7
2024-08-26T0300,2424A,115.0817,30.2006,黄石市,陈家湾,颗粒物(PM10),62,74,59,28,25,65,,,,19,15,19,12,0.9,0.7
2024-08-26T0300,2426A,114.8988,30.2019,黄石市,铁山,颗粒物(PM10),55,60,47,33,23,62,,,,25,13,11,11,0.4,0.4
2024-08-26T0300,2427A,115.0307,30.2092,黄石市,团城山,颗粒物(PM10),55,60,46,31,23,63,,,,24,15,20,16,0.7,0.6
2024-08-26T0300,3149A,115.0235,30.1578,黄石市,笔架山北路,颗粒物(PM10),65,80,41,34,19,58,,,,25,14,20,10,0.6,0.3
2024-08-26T0300,1392A,114.4183,23.0528,惠州市,河南岸金山湖子站,,38,38,30,23,19,35,,,,13,15,4,4,0.7,0.7
2024-08-26T0300,1393A,114.4053,23.0822,惠州市,下埔横江三路子站,,37,37,32,24,18,45,,,,17,14,4,4,0.6,0.6
2024-08-26T0300,1394A,114.4103,23.1142,惠州市,江北云山西路子站,,43,43,32,22,15,18,,,,32,15,4,5,0.8,0.7
2024-08-26T0300,1395A,114.4645,22.7833,惠州市,惠阳区承修路船湖子站,,46,46,37,24,20,30,,,,26,26,8,6,0.8,0.7
2024-08-26T0300,1396A,114.5317,22.7422,惠州市,大亚湾管委会子站,,32,32,29,15,16,30,,,,26,28,7,7,0.4,0.3
2024-08-26T0300,3314A,114.4338,22.8134,惠州市,惠阳秋长,,29,29,30,15,16,41,,,,17,21,6,6,0.5,0.4
2024-08-26T0300,3452A,114.6517,22.775,惠州市,大亚湾霞涌,,30,30,29,7,13,26,,,,15,14,3,4,0.5,0.5
2024-08-26T0300,2240A,130.9762,45.3001,鸡西市,环保局,,24,24,32,11,18,37,,,,6,10,5,6,0.4,0.4
2024-08-26T0300,2243A,130.9429,45.3039,鸡西市,第一中学,,39,39,37,13,16,34,,,,16,13,4,5,0.2,0.3
2024-08-26T0300,3707A,131.0207,45.3073,鸡西市,欧美日汽修厂,,14,14,23,9,17,27,,,,18,11,3,4,0.2,0.3
2024-08-26T0300,3709A,130.9967,45.3106,鸡西市,市政设施管理处,,29,29,36,12,16,30,,,,14,11,5,6,0.3,0.3
2024-08-26T0300,2367A,114.9754,27.0803,吉安市,红声器材厂,,35,35,33,18,17,36,,,,17,12,10,10,0.6,0.6
2024-08-26T0300,2368A,114.9658,27.0999,吉安市,市森林工业局,,25,25,32,16,19,35,,,,17,13,10,9,0.5,0.4
2024-08-26T0300,2369A,114.99,27.1312,吉安市,市环境监测站,,33,33,32,15,15,37,,,,14,11,12,13,0.5,0.6
2024-08-26T0300,2370A,115.0093,27.0968,吉安市,青原区法院,,29,29,31,20,19,42,,,,14,13,9,10,0.5,0.5
2024-08-26T0300,1772A,126.54,43.8622,吉林市,哈达湾,,20,20,20,10,12,34,,,,12,11,5,5,0.5,0.6
2024-08-26T0300,1773A,126.5844,43.8358,吉林市,东局子,,20,18,27,14,17,40,,,,10,14,4,5,0.4,0.5
2024-08-26T0300,1774A,126.5052,43.8245,吉林市,电力学院,,26,26,29,14,18,31,,,,12,11,4,4,0.7,0.7
2024-08-26T0300,1775A,126.6133,43.8972,吉林市,江北,,17,17,29,11,19,37,,,,7,12,6,6,0.5,0.4
2024-08-26T0300,1776A,126.555,43.8306,吉林市,江南公园,,15,13,23,10,16,33,,,,13,12,4,5,0.6,0.6
2024-08-26T0300,1778A,126.7061,43.7133,吉林市,丰满,,,,,,,,,,,,,,,,
2024-08-26T0300,2868A,126.4739,43.953,吉林市,九站,,18,18,22,12,14,30,,,,20,14,7,6,0.6,0.6
2024-08-26T0300,1299A,116.9862,36.6114,济南市,科干所,,44,44,52,29,33,124,,,,11,17,8,6,0.8,0.9
2024-08-26T0300,1300A,116.9376,36.665,济南市,农科所,,49,44,56,34,35,105,,,,16,27,8,7,0.7,0.7
2024-08-26T0300,1301A,117.1265,36.6734,济南市,开发区,,42,34,56,29,27,125,,,,11,25,9,8,0.6,0.7
2024-08-26T0300,1303A,117.0624,36.6868,济南市,省种子仓库,颗粒物(PM10),59,68,68,27,32,108,,,,22,43,7,6,0.8,0.8
2024-08-26T0300,1304A,116.9489,36.6447,济南市,机床二厂,,46,46,60,22,27,119,,,,13,27,8,8,0.8,0.8
2024-08-26T0300,1305A,117.0495,36.663,济南市,市监测站,,46,46,62,27,35,119,,,,15,29,9,8,0.8,0.8
2024-08-26T0300,1306A,116.7675,36.5484,济南市,长清党校,,49,42,51,34,35,125,,,,11,15,10,11,0.9,0.9
2024-08-26T0300,1616A,117.6795,36.229,济南市,技术学院,,44,44,49,24,30,99,,,,11,16,12,12,1.3,1.3
2024-08-26T0300,1961A,117.532,36.6868,济南市,东山小学,,42,42,59,24,27,127,,,,15,27,10,9,1.2,1.1
2024-08-26T0300,3059A,117.7161,36.2049,济南市,泰兴公司,,42,41,49,29,28,96,,,,18,29,11,12,1.1,1
2024-08-26T0300,3064A,117.6867,36.2171,济南市,莱芜战役纪念馆,,44,44,49,22,27,96,,,,10,17,10,10,1.1,1
2024-08-26T0300,3494A,117.1673,36.9782,济南市,济阳区政府,颗粒物(PM10),55,59,80,34,37,69,,,,27,27,13,13,1.1,1
2024-08-26T0300,3495A,117.1171,36.63,济南市,锦屏中学,,43,34,46,24,28,136,,,,9,15,12,12,0.7,0.8
2024-08-26T0300,3682A,116.9814,36.6819,济南市,济南四建,,41,41,58,27,34,117,,,,11,31,9,8,0.8,0.9
2024-08-26T0300,1653A,116.6251,35.4302,济宁市,火炬城,颗粒物(PM10),59,68,63,34,38,87,,,,11,13,11,11,1.1,1.2
2024-08-26T0300,1655A,116.5491,35.4042,济宁市,电化厂,细颗粒物(PM2.5),52,52,61,36,42,96,,,,11,12,11,9,1.1,1.1
2024-08-26T0300,3500A,116.5814,35.3707,济宁市,北湖一中,颗粒物(PM10),55,59,61,27,37,90,,,,9,10,9,7,0.7,0.8
2024-08-26T0300,3501A,116.8249,35.5593,济宁市,服务中心,颗粒物(PM10),57,64,54,39,33,93,,,,8,11,6,5,0.6,0.7
2024-08-26T0300,3678A,116.5907,35.4054,济宁市,市第七中学,颗粒物(PM10),52,54,60,34,37,87,,,,12,14,7,7,0.9,1
2024-08-26T0300,2255A,130.2751,46.8028,佳木斯市,佳纺,,26,26,26,18,14,44,,,,10,16,7,7,0.5,0.6
2024-08-26T0300,2256A,130.3995,46.8307,佳木斯市,发电厂,,33,33,27,19,17,40,,,,7,14,5,7,0.6,0.6
2024-08-26T0300,2257A,130.3258,46.7975,佳木斯市,环保局,,27,27,28,13,18,51,,,,6,17,8,9,0.6,0.7
2024-08-26T0300,2258A,130.3648,46.8032,佳木斯市,十一中,,30,24,30,21,21,43,,,,9,18,6,8,0.5,0.5
2024-08-26T0300,2259A,130.3794,46.7588,佳木斯市,四丰,,,19,18,10,10,46,,,,,,1,1,0.5,0.5
2024-08-26T0300,1252A,120.7436,30.778,嘉兴市,清河小学,,22,22,26,12,14,46,,,,16,15,5,4,0.6,0.7
2024-08-26T0300,1253A,120.726,30.7478,嘉兴市,嘉兴学院,,20,,2,14,16,43,,,,13,14,2,2,0.4,0.5
2024-08-26T0300,2872A,120.7846,30.7525,嘉兴市,南湖区残联,,23,23,26,15,16,64,,,,12,11,4,4,0.5,0.5
2024-08-26T0300,3407A,120.6916,30.7739,嘉兴市,秀洲住建,,22,22,28,14,17,42,,,,11,12,4,4,0.5,0.6
2024-08-26T0300,1945A,98.2908,39.7711,嘉峪关市,气象局,颗粒物(PM10),56,61,105,17,33,101,,,,6,9,8,12,0.4,0.4
2024-08-26T0300,2884A,98.2672,39.7978,嘉峪关市,酒钢宾馆,颗粒物(PM10),75,100,110,31,36,107,,,,7,11,19,29,0.3,0.5
2024-08-26T0300,3248A,98.2643,39.7724,嘉峪关市,雄关区,颗粒物(PM10),57,64,97,17,29,94,,,,9,14,7,11,0.2,0.8
2024-08-26T0300,1383A,113.1064,22.6058,江门市,北街,,23,23,22,13,12,22,,,,32,18,4,4,0.7,0.6
2024-08-26T0300,1384A,113.0731,22.5835,江门市,西区,,27,27,20,16,14,9,,,,40,19,4,5,0.5,0.4
2024-08-26T0300,1385A,113.0219,22.5311,江门市,圭峰西,,32,29,26,22,18,30,,,,15,12,3,3,0.7,0.6
2024-08-26T0300,1386A,113.0828,22.5947,江门市,东湖,,29,29,24,14,13,9,,,,30,15,6,5,0.6,0.5
2024-08-26T0300,3311A,113.1075,22.5647,江门市,江海富民,,49,45,33,34,16,17,,,,38,20,6,6,0.6,0.5
2024-08-26T0300,3449A,113.05,22.4667,江门市,新会银湖,,39,37,26,27,16,7,,,,22,11,6,7,0.6,0.6
2024-08-26T0300,1828A,113.227,35.2125,焦作市,市环保局,,32,32,41,20,27,66,,,,17,13,4,2,0.8,0.5
2024-08-26T0300,1830A,113.1992,35.2590,焦作市,影视城,,,,,,,,,,,,,,,,
2024-08-26T0300,3169A,113.2725,35.2067,焦作市,太极体育中心,,39,39,52,19,27,66,,,,15,13,4,3,0.6,0.6
2024-08-26T0300,3335A,113.3137,35.2641,焦作市,马村街道办,,30,30,38,21,28,63,,,,14,12,1,3,0.8,0.6
2024-08-26T0300,3336A,113.2465,35.2373,焦作市,焦作技师学院,,41,41,47,19,24,53,,,,18,12,2,2,1.0,0.7
2024-08-26T0300,3477A,113.1656,35.2539,焦作市,中站许衡医院,,32,,31,22,27,95,,,,8,8,3,3,0.5,0.5
2024-08-26T0300,3981A,113.2449,35.1803,焦作市,原李万街道办,,35,28,47,24,29,65,,,,14,12,13,9,0.9,0.9
2024-08-26T0300,1708A,116.3701,23.5345,揭阳市,新兴,,37,37,38,25,24,24,,,,20,19,5,5,0.8,0.8
2024-08-26T0300,1709A,116.3264,23.5443,揭阳市,西马,,33,33,40,18,20,22,,,,16,12,4,5,0.6,0.7
2024-08-26T0300,1710A,116.3611,23.5626,揭阳市,东兴,,36,36,43,20,19,21,,,,20,18,4,5,0.9,0.9
2024-08-26T0300,1711A,116.4151,23.5294,揭阳市,渔湖,,33,33,40,10,16,14,,,,34,26,10,6,0.6,0.7
2024-08-26T0300,3320A,116.403,23.5699,揭阳市,曲溪,,39,39,32,15,20,10,,,,29,26,2,4,0.9,0.8
2024-08-26T0300,1944A,102.1692,38.5167,金昌市,天庆家园,颗粒物(PM10),118,186,123,71,56,76,,,,9,10,11,8,0.7,0.5
2024-08-26T0300,3170A,102.1864,38.5253,金昌市,市委党校,颗粒物(PM10),161,272,156,70,53,60,,,,16,13,8,10,0.8,0.7
2024-08-26T0300,4022A,102.1647,38.5371,金昌市,金川区人防中心,颗粒物(PM10),136,222,140,53,44,69,,,,8,8,9,9,0.8,0.6
2024-08-26T0300,1262A,119.647,29.077,金华市,十五中,,47,47,60,26,34,93,,,,15,20,5,3,0.1,0.2
2024-08-26T0300,1263A,119.686,29.1029,金华市,监测站,,39,39,59,26,38,106,,,,12,22,2,3,0.5,0.6
2024-08-26T0300,3659A,119.656,29.1131,金华市,气象局,,38,38,58,19,31,100,,,,12,26,5,6,0.7,0.7
2024-08-26T0300,1767A,121.1115,41.0879,锦州市,南山,,23,23,24,13,12,27,,,,26,17,14,7,0.6,0.6
2024-08-26T0300,1768A,121.0533,40.8434,锦州市,开发区,颗粒物(PM10),53,56,42,27,19,12,,,,45,25,16,12,1.1,1
2024-08-26T0300,1769A,121.1836,41.1119,锦州市,百股街道,,24,24,27,9,9,15,,,,26,18,22,9,0.7,0.7
2024-08-26T0300,1770A,121.1178,41.1222,锦州市,天安街道,,26,26,27,13,18,22,,,,30,16,23,10,0.9,0.8
2024-08-26T0300,1771A,121.1303,41.1386,锦州市,北湖公园,,26,26,26,13,12,22,,,,23,11,12,7,0.7,0.7
2024-08-26T0300,2160A,112.85,35.5051,晋城市,自来水公司,,49,49,45,22,23,119,,,,7,11,6,6,0.7,0.7
2024-08-26T0300,2161A,112.8318,35.4936,晋城市,白云商贸,,36,29,42,19,20,114,,,,9,12,8,8,0.8,0.8
2024-08-26T0300,2162A,112.8508,35.4887,晋城市,市环保局,颗粒物(PM10),53,55,56,24,24,113,,,,7,11,7,7,0.7,0.7
2024-08-26T0300,2163A,112.8676,35.4897,晋城市,技术学院,,37,37,40,24,25,111,,,,10,15,7,7,0.8,0.7
2024-08-26T0300,2165A,112.8453,35.546,晋城市,白马寺,,,,,,,,,,,,,,,,
2024-08-26T0300,3620A,112.8271,35.4828,晋城市,泽州一中,,35,29,39,24,21,96,,,,9,14,7,7,0.8,0.8
2024-08-26T0300,2171A,112.7532,37.6945,晋中市,锦纶小区,,36,36,50,22,29,80,,,,8,8,8,9,0.5,0.8
2024-08-26T0300,2173A,112.7249,37.7067,晋中市,南都小区,,40,37,52,28,34,77,,,,12,10,5,5,0.8,0.9
2024-08-26T0300,2174A,112.6991,37.6982,晋中市,榆次区政府,,41,41,49,21,29,68,,,,14,10,7,8,0.4,0.5
2024-08-26T0300,2865A,112.7195,37.6828,晋中市,榆次三中,,32,31,51,22,29,74,,,,13,9,6,6,0.8,0.8
2024-08-26T0300,2439A,112.2014,31.0481,荆门市,竹园小学,,33,33,34,19,17,66,,,,14,14,10,14,0.5,0.6
2024-08-26T0300,2440A,112.1969,30.9891,荆门市,掇刀,,36,36,31,19,18,71,,,,16,14,8,11,0.5,0.5
2024-08-26T0300,2441A,112.2213,31.0386,荆门市,石化一小,,33,33,34,11,14,73,,,,13,15,12,17,0.5,0.5
2024-08-26T0300,3012A,112.1849,31.0362,荆门市,西山林语,,35,35,27,19,16,61,,,,14,13,9,11,0.6,0.6
2024-08-26T0300,3547A,112.1632,31.0138,荆门市,龙泉中学南校,,44,44,30,21,16,46,,,,23,13,9,12,0.5,0.5
2024-08-26T0300,1844A,112.2494,30.3197,荆州市,市图书馆,,38,37,25,26,17,61,,,,19,15,18,9,0.9,0.7
2024-08-26T0300,1845A,112.2008,30.3544,荆州市,市委党校,,40,38,26,28,20,66,,,,18,14,18,12,0.7,0.6
2024-08-26T0300,3194A,112.2747,30.3122,荆州市,管委会,,48,46,27,33,22,71,,,,15,15,14,8,0.8,0.6
2024-08-26T0300,3548A,112.1655,30.3364,荆州市,学苑路,细颗粒物(PM2.5),54,52,32,38,24,50,,,,25,18,11,9,0.8,0.7
2024-08-26T0300,2342A,117.3102,29.3867,景德镇市,王港中学,,,,,,,,,,,,,,,,
2024-08-26T0300,2343A,117.2117,29.2933,景德镇市,老干部活动中心,,36,34,36,25,24,48,,,,16,12,9,7,0.4,0.5
2024-08-26T0300,2344A,117.1894,29.2789,景德镇市,兽医站,,46,44,37,32,25,31,,,,21,13,11,10,0.8,0.7
2024-08-26T0300,2345A,117.1547,29.2617,景德镇市,台达陶瓷,颗粒物(PM10),53,56,48,28,31,27,,,,24,23,10,31,0.5,0.4
2024-08-26T0300,2346A,117.2461,29.2956,景德镇市,陶研所,,43,43,42,24,20,23,,,,17,14,8,12,0.4,0.4
2024-08-26T0300,1803A,115.9872,29.6815,九江市,十里,,39,37,41,27,27,47,,,,20,19,8,10,0.8,0.8
2024-08-26T0300,1804A,115.9584,29.7046,九江市,茅山头,,38,29,38,26,29,70,,,,16,24,8,9,0.7,0.7
2024-08-26T0300,1805A,115.9877,29.7295,九江市,西园,,42,42,38,22,25,32,,,,51,22,10,12,0.4,0.5
2024-08-26T0300,1806A,116.0172,29.6547,九江市,五七二七厂,,30,27,27,21,30,84,,,,9,12,7,8,0.4,0.5
2024-08-26T0300,1808A,115.9114,29.6038,九江市,综合工业园,,43,43,37,25,28,75,,,,16,27,7,9,0.4,0.6
2024-08-26T0300,1809A,116.0721,29.7535,九江市,石化总厂,颗粒物(PM10),52,54,48,29,25,6,,,,64,31,11,14,0.8,1
2024-08-26T0300,1810A,115.9773,29.5698,九江市,庐山气象台,,48,,31,30,25,151,,,,3,3,7,12,0.6,0.8
2024-08-26T0300,3190A,116.0254,29.6994,九江市,外国语学校,,49,44,41,34,29,35,,,,34,21,11,13,0.9,0.9
2024-08-26T0300,2658A,98.5061,39.7443,酒泉市,仓门街子站,颗粒物(PM10),59,68,110,14,28,94,,,,7,6,8,9,0.2,0.2
2024-08-26T0300,2659A,98.4989,39.7256,酒泉市,油田生活基地,颗粒物(PM10),58,66,106,11,19,95,,,,7,8,10,14,0.2,0.2
2024-08-26T0300,2698A,76.0072,39.4467,喀什地区,巡警大队,颗粒物(PM10),140,230,79,33,13,4,,,,80,26,4,4,0.8,0.4
2024-08-26T0300,2699A,75.9755,39.4694,喀什地区,吾办,颗粒物(PM10),100,150,70,55,26,3,,,,72,22,5,5,1.1,0.6
2024-08-26T0300,4027A,75.9483,39.4689,喀什地区,老干局,颗粒物(PM10),118,186,92,32,13,21,,,,50,19,5,5,0.8,0.5
2024-08-26T0300,1824A,114.3389,34.7781,开封市,肿瘤医院,,48,48,52,16,26,46,,,,10,12,5,4,0.5,0.5
2024-08-26T0300,1826A,114.2885,34.7965,开封市,世纪星幼儿园,,,51,52,,4,53,,,,15,17,4,4,0.6,0.7
2024-08-26T0300,3147A,114.3438,34.8106,开封市,龙亭公园,颗粒物(PM10),53,55,61,23,29,50,,,,16,19,2,2,0.8,0.8
2024-08-26T0300,3210A,114.3644,34.7964,开封市,汴京公园,颗粒物(PM10),53,56,62,34,27,51,,,,16,17,4,4,0.5,0.6
2024-08-26T0300,3473A,114.2485,34.8306,开封市,技师学院,,,,47,,24,,,81,,,16,,2,,1.0
2024-08-26T0300,3592A,114.4644,34.7556,开封市,祥符区生态环境局,,50,50,43,32,27,38,,,,22,22,4,4,0.7,0.6
2024-08-26T0300,1951A,84.895,45.6094,克拉玛依市,长征新村,,24,20,19,3,3,75,,,,1,5,6,6,0.2,0.2
2024-08-26T0300,1952A,84.8988,45.5893,克拉玛依市,南林小区,,25,15,21,10,11,78,,,,1,9,8,9,0.2,0.2
2024-08-26T0300,1954A,84.905,44.3396,克拉玛依市,独山子区,,28,28,27,13,10,78,,,,5,6,8,7,0.2,0.3
2024-08-26T0300,1955A,85.6979,46.098,克拉玛依市,乌尔禾区商贸楼,,22,,20,3,8,69,,,,2,4,36,7,0.0,0.2
2024-08-26T0300,3612A,85.1045,45.6899,克拉玛依市,白碱滩区新站,,26,19,26,11,8,81,,,,2,3,8,9,0.2,0.3
2024-08-26T0300,2697A,76.1454,39.7142,克孜勒苏柯尔克孜自治州,市人民政府,颗粒物(PM10),74,98,54,34,21,69,,,,12,11,12,4,0.3,0.3
2024-08-26T0300,3665A,76.1658,39.7157,克孜勒苏柯尔克孜自治州,克州文化中心,颗粒物(PM10),69,88,52,36,19,85,,,,13,8,66,8,0.4,0.3
2024-08-26T0300,1450A,102.8204,24.8886,昆明市,呈贡新区,,12,8,25,6,11,37,,,,6,10,6,6,0.6,0.6
2024-08-26T0300,1451A,102.6251,24.9608,昆明市,西山森林公园,,,,,,,,,,,,,,,,
2024-08-26T0300,1452A,102.7252,25.0902,昆明市,龙泉镇,,13,,20,3,13,40,,,,9,12,6,7,0.5,0.6
2024-08-26T0300,1453A,102.7266,25.0375,昆明市,东风东路,,12,7,20,6,13,38,,,,9,16,4,6,0.4,0.5
2024-08-26T0300,1454A,102.6742,25.0669,昆明市,金鼎山,,14,6,21,3,11,44,,,,7,12,6,7,0.3,0.3
2024-08-26T0300,1455A,102.6644,25.0401,昆明市,碧鸡广场,,13,10,24,6,13,40,,,,7,14,4,4,0.3,0.4
2024-08-26T0300,3179A,102.7494,25.0119,昆明市,官渡区博物馆,,11,8,20,6,12,35,,,,11,16,6,7,0.2,0.3
2024-08-26T0300,3375A,102.8017,24.8336,昆明市,青年创业园,,17,17,17,3,10,38,,,,6,9,2,3,0.4,0.4
2024-08-26T0300,3550A,102.7997,24.9786,昆明市,昆明学院,,18,18,24,10,15,35,,,,12,16,5,6,0.4,0.5
2024-08-26T0300,3551A,102.5967,24.6736,昆明市,晋宁区生态环境分局,,14,14,22,3,10,33,,,,7,11,3,4,0.3,0.4
2024-08-26T0300,3552A,102.6678,24.9856,昆明市,云天化总部,,13,13,21,8,14,38,,,,9,12,6,6,0.5,0.6
2024-08-26T0300,1456A,91.1319,29.6514,拉萨市,八廓街,,41,9,11,7,7,130,,,,7,12,7,7,0.2,0.3
2024-08-26T0300,1457A,91.1221,29.6747,拉萨市,市环保局,,38,12,14,6,7,119,,,,10,16,6,7,0.1,0.2
2024-08-26T0300,1458A,91.0874,29.6475,拉萨市,区监测站,,35,14,12,8,7,111,,,,11,15,8,8,0.2,0.3
2024-08-26T0300,1459A,91.1774,29.6541,拉萨市,西藏大学,,40,8,9,3,6,128,,,,3,7,6,6,0.2,0.1
2024-08-26T0300,1460A,90.9798,29.6588,拉萨市,区辐射站,,35,10,13,7,8,111,,,,9,15,8,8,0.2,0.2
2024-08-26T0300,1461A,91.0834,29.6292,拉萨市,拉萨火车站,,35,11,11,7,7,110,,,,7,11,5,5,0.1,0.2
2024-08-26T0300,2520A,109.2203,23.7256,来宾市,来宾技工学校,,29,29,31,14,15,7,,,,17,12,12,17,0.7,0.7
2024-08-26T0300,3535A,109.1781,23.7297,来宾市,兴宾区政府,,31,31,22,9,9,16,,,,11,6,5,7,0.7,0.7
2024-08-26T0300,4002A,109.2416,23.7461,来宾市,中南小学,,36,36,31,18,16,17,,,,21,13,13,11,0.9,0.8
2024-08-26T0300,1476A,103.631,36.1031,兰州市,兰炼宾馆,颗粒物(PM10),59,67,34,35,20,76,,,,9,14,8,8,0.3,0.3
2024-08-26T0300,1477A,104.1373,35.9454,兰州市,榆中兰大校区,,,,,,,,,,,,,,,,
2024-08-26T0300,1478A,103.8412,36.0726,兰州市,生物制品所,颗粒物(PM10),55,60,33,27,20,68,,,,14,15,7,6,0.4,0.4
2024-08-26T0300,1479A,103.831,36.0464,兰州市,铁路设计院,,41,41,35,28,24,86,,,,10,29,9,9,0.5,0.6
2024-08-26T0300,3186A,103.7158,36.1058,兰州市,教育港,颗粒物(PM10),70,89,45,40,26,78,,,,6,14,5,5,0.3,0.3
2024-08-26T0300,3241A,103.7439,36.0842,兰州市,百合公园,颗粒物(PM10),55,59,34,25,17,78,,,,12,18,8,7,0.4,0.5
2024-08-26T0300,3242A,103.9611,35.998,兰州市,和平,颗粒物(PM10),59,67,36,30,18,94,,,,7,15,8,9,0.5,0.8
2024-08-26T0300,3245A,103.6633,36.533,兰州新区,新区管委会,颗粒物(PM10),56,61,45,27,22,81,,,,6,6,6,6,0.4,0.5
2024-08-26T0300,3246A,103.6975,36.4789,兰州新区,舟曲中学,颗粒物(PM10),53,55,39,24,19,95,,,,4,6,9,9,0.5,0.5
2024-08-26T0300,1067A,116.6708,39.5111,廊坊市,药材公司,,28,28,40,12,17,82,,,,10,22,3,3,0.6,0.5
2024-08-26T0300,1068A,116.7214,39.5589,廊坊市,开发区,,34,34,40,21,23,67,,,,10,19,1,2,0.6,0.6
2024-08-26T0300,1070A,116.7244,39.5269,廊坊市,北华航天学院,,37,37,53,22,19,71,,,,8,20,1,2,0.6,0.5
2024-08-26T0300,2919A,116.7022,39.5453,廊坊市,河北工业大学,,30,27,39,21,22,76,,,,7,20,1,1,0.6,0.5
2024-08-26T0300,2535A,103.7723,29.5462,乐山市,花湖湾,细颗粒物(PM2.5),63,68,49,45,45,68,,,,23,18,6,5,0.6,0.7
2024-08-26T0300,2536A,103.7627,29.5844,乐山市,牛耳桥,细颗粒物(PM2.5),72,58,56,52,44,66,,,,28,21,3,2,0.7,0.7
2024-08-26T0300,2537A,103.7508,29.6006,乐山市,市第三水厂,细颗粒物(PM2.5),67,58,56,48,41,78,,,,28,20,5,3,0.9,0.9
2024-08-26T0300,2538A,103.7571,29.5664,乐山市,市监测站,颗粒物(PM10),53,56,51,35,40,78,,,,22,15,5,5,1.1,1.1
2024-08-26T0300,3361A,103.7311,29.5628,乐山市,理工大学,细颗粒物(PM2.5),64,62,56,46,45,64,,,,25,17,6,6,0.7,0.8
2024-08-26T0300,2598A,100.2143,26.8576,丽江市,西南郊,,,,,,,,,,,,,,,,
2024-08-26T0300,2599A,100.2497,26.8802,丽江市,丽江古城,,40,,23,28,17,44,,,,14,12,9,9,0.6,0.6
2024-08-26T0300,2600A,100.2203,26.8906,丽江市,市中心,,29,23,21,20,17,52,,,,10,13,8,8,0.6,0.8
2024-08-26T0300,1267A,119.914,28.4514,丽水市,监测站大楼,,21,21,34,11,21,66,,,,9,8,2,2,0.1,0.3
2024-08-26T0300,1268A,119.93,28.4586,丽水市,莲都小学,,20,15,33,10,21,64,,,,7,8,4,4,0.1,0.2
2024-08-26T0300,1269A,119.879,28.4231,丽水市,余庄前,,26,23,37,18,25,56,,,,11,9,4,3,0.3,0.4
2024-08-26T0300,1173A,119.176,34.5885,连云港市,市环境监测站,,20,12,25,9,13,63,,,,6,9,7,7,0.2,0.4
2024-08-26T0300,3000A,119.3581,34.6972,连云港市,德源药业,,20,17,28,3,12,62,,,,7,12,4,6,0.4,0.5
2024-08-26T0300,3007A,119.178,34.844,连云港市,新城一中,,23,23,30,7,15,55,,,,13,13,2,4,0.6,0.8
2024-08-26T0300,3008A,119.3608,34.7519,连云港市,胡沟管理处,,21,9,31,3,16,67,,,,3,13,7,10,1.1,1
2024-08-26T0300,3009A,119.1478,34.5911,连云港市,矿山设计院,,20,12,28,9,13,61,,,,9,12,3,3,0.5,0.6
2024-08-26T0300,3434A,119.2413,34.6539,连云港市,工贸学校,,24,13,26,8,17,74,,,,1,4,6,7,0.6,0.8
2024-08-26T0300,3664A,119.4172,34.7341,连云港市,连云街道,,22,18,32,10,18,68,,,,11,19,3,5,0.5,0.6
2024-08-26T0300,2571A,102.3431,27.8099,凉山彝族自治州,青龙寺,,29,,13,20,20,72,,,,5,6,5,9,0,0.3
2024-08-26T0300,2572A,102.2721,27.8415,凉山彝族自治州,邛海宾馆,,23,22,33,16,24,69,,,,10,12,11,14,0.5,0.8
2024-08-26T0300,2573A,102.2625,27.898,凉山彝族自治州,西昌市政府,,25,18,45,3,25,79,,,,4,12,9,13,0.6,0.8
2024-08-26T0300,2574A,102.2685,27.8851,凉山彝族自治州,凉山州政府,,26,26,45,15,24,71,,,,8,12,6,10,0.7,0.8
2024-08-26T0300,2575A,102.237,27.8914,凉山彝族自治州,长安,,29,29,43,18,25,46,,,,21,17,8,12,0.9,0.9
2024-08-26T0300,2212A,123.2,41.1953,辽阳市,宏伟区,,20,20,39,10,23,48,,,,11,20,7,9,0.6,0.8
2024-08-26T0300,2213A,123.1683,41.2495,辽阳市,新华园,颗粒物(PM10),56,61,47,18,23,25,,,,26,26,6,8,0.6,0.8
2024-08-26T0300,2214A,123.2354,41.2639,辽阳市,滨河路,,41,41,38,17,20,33,,,,20,20,9,9,0.4,0.5
2024-08-26T0300,2215A,123.149,41.2991,辽阳市,铁西工业园,颗粒物(PM10),54,57,41,21,19,0,,,,23,21,8,9,1.1,1.1
2024-08-26T0300,2227A,125.1358,42.8845,辽源市,环保局,,13,13,15,6,7,19,,,,6,6,5,5,0.5,0.5
2024-08-26T0300,3239A,125.0764,42.9078,辽源市,银鹰制药,,20,20,20,8,9,9,,,,21,15,6,4,0.7,0.7
2024-08-26T0300,1625A,115.9848,36.4372,聊城市,区政府,,37,7,48,3,23,117,,,,6,26,25,24,0.6,0.7
2024-08-26T0300,2878A,116.0072,36.4343,聊城市,聊大东校,,43,7,61,6,43,137,,,,4,19,5,8,0.5,0.6
2024-08-26T0300,3200A,115.9819,36.4978,聊城市,监控中心,,40,9,64,3,36,125,,,,3,22,6,6,0.5,0.7
2024-08-26T0300,3513A,116.0445,36.4361,聊城市,九州社区,,39,15,65,11,40,123,,,,2,16,13,11,0.5,0.5
2024-08-26T0300,4018A,116.0567,36.4608,聊城市,星美广场,,39,34,68,7,37,123,,,,5,20,8,7,0.4,0.6
2024-08-26T0300,2632A,94.3681,29.6376,林芝市,林芝监测站,,18,11,11,3,7,56,,,,1,3,10,9,0.3,0.3
2024-08-26T0300,2633A,94.3616,29.6616,林芝市,林芝人民医院,,17,,13,6,6,52,,,,3,5,7,7,0.2,0.2
2024-08-26T0300,2603A,100.0781,23.8982,临沧市,市环保局,,23,23,18,14,19,17,,,,11,10,10,5,0.3,0.3
2024-08-26T0300,2604A,100.0894,23.8822,临沧市,市气象局,,23,17,15,16,11,17,,,,10,9,4,4,0.3,0.2
2024-08-26T0300,1733A,111.5531,36.0783,临汾市,临钢医院,,43,43,54,28,27,78,,,,7,9,6,6,0.9,0.7
2024-08-26T0300,1734A,111.5028,36.0714,临汾市,技工学校,颗粒物(PM10),51,52,57,20,20,78,,,,13,13,5,5,1.0,0.8
2024-08-26T0300,1736A,111.5018,36.0855,临汾市,市委,,40,40,49,24,28,87,,,,8,11,3,4,1.1,1
2024-08-26T0300,3018A,111.505,36.1014,临汾市,唐尧大酒店,,31,31,44,18,25,88,,,,9,16,2,3,0.7,0.7
2024-08-26T0300,3668A,111.5036,36.0414,临汾市,城南,,45,45,50,26,24,75,,,,6,10,3,3,1.2,0.8
2024-08-26T0300,2667A,103.2069,35.5993,临夏回族自治州,环保局,,27,27,26,3,19,74,,,,2,3,5,6,0.3,0.3
2024-08-26T0300,2668A,103.2417,35.6057,临夏回族自治州,建设大厦,,34,34,23,16,17,76,,,,5,7,4,5,0.4,0.3
2024-08-26T0300,1618A,118.3429,35.0532,临沂市,沂河小区,,27,27,48,16,28,50,,,,9,12,7,8,0.3,0.6
2024-08-26T0300,1619A,118.295,35.0583,临沂市,鲁南制药厂,,25,,40,17,26,60,,,,8,11,5,5,0.3,0.5
2024-08-26T0300,1620A,118.2794,34.9976,临沂市,新光毛纺厂,,23,17,38,16,26,49,,,,25,15,12,7,0.5,0.7
2024-08-26T0300,1621A,118.3956,35.0888,临沂市,河东保险公司,,27,27,41,12,27,41,,,,20,18,6,9,0.3,0.6
2024-08-26T0300,3370A,118.3564,35.0215,临沂市,十里堡居委,,20,,34,14,28,47,,,,9,11,8,8,0.5,0.8
2024-08-26T0300,3496A,118.3604,35.1084,临沂市,南坊新区,,29,29,48,12,25,44,,,,15,14,8,14,0.5,0.9
2024-08-26T0300,3860A,118.3920,35.0300,临沂市,皇山花园小区,,22,19,43,15,32,47,,,,19,17,7,8,0.5,0.7
2024-08-26T0300,1870A,109.4856,24.3895,柳州市,柳东小学,,38,38,22,16,13,12,,,,39,13,10,9,0.8,0.7
2024-08-26T0300,1871A,109.4157,24.3277,柳州市,环保监测站,,34,34,26,20,18,41,,,,13,12,8,8,0.9,0.9
2024-08-26T0300,1872A,109.389,24.341,柳州市,河西水厂,颗粒物(PM10),59,68,37,27,16,9,,,,34,15,7,7,1.3,0.9
2024-08-26T0300,1873A,109.4311,24.2921,柳州市,市四中,,35,35,30,24,19,26,,,,24,13,6,6,0.8,0.8
2024-08-26T0300,1874A,109.4006,24.3631,柳州市,市九中,,46,43,40,32,16,28,,,,19,14,6,7,0.6,0.6
2024-08-26T0300,1875A,109.4958,24.3134,柳州市,古亭山,,28,28,25,12,14,13,,,,33,19,11,7,0.9,0.8
2024-08-26T0300,3402A,109.5422,24.3996,柳州市,市二中,,46,46,26,23,13,9,,,,35,16,12,10,0.7,0.7
2024-08-26T0300,2307A,116.5079,31.737,六安市,监测大楼,,38,27,30,26,20,100,,,,7,8,6,7,0.5,0.5
2024-08-26T0300,2308A,116.4738,31.7643,六安市,皖西学院,,45,42,40,23,19,143,,,,6,8,5,5,0.4,0.4
2024-08-26T0300,2309A,116.4996,31.7905,六安市,朝阳厂,,41,31,31,23,20,130,,,,4,6,2,3,0.4,0.4
2024-08-26T0300,2310A,116.5567,31.7886,六安市,开发区,,38,38,41,26,25,113,,,,9,9,3,3,0.5,0.5
2024-08-26T0300,2576A,104.8,26.5892,六盘水市,窑上,,,,,,,,,,,,,,,,
2024-08-26T0300,2577A,104.83,26.5917,六盘水市,黄土坡,,16,12,13,3,9,51,,,,3,6,5,6,0.2,0.3
2024-08-26T0300,2578A,104.89,26.5939,六盘水市,水钢,,16,11,17,3,4,51,,,,3,5,5,6,0.3,0.3
2024-08-26T0300,2579A,104.8475,26.5894,六盘水市,民中,,17,6,11,3,4,52,,,,3,5,7,7,0.2,0.3
2024-08-26T0300,2580A,104.9544,26.5506,六盘水市,双水,,16,9,11,3,6,51,,,,3,4,6,6,0.3,0.3
2024-08-26T0300,2335A,117.0189,25.1181,龙岩市,龙岩师专,,,,,,,,,,,,,,,,
2024-08-26T0300,2336A,117.0217,25.1033,龙岩市,龙岩市监测站,,18,16,22,12,12,11,,,,18,14,4,5,0.4,0.4
2024-08-26T0300,2337A,117.0258,25.0661,龙岩市,闽西职业技术学院,,48,48,33,22,20,19,,,,18,21,13,10,0.4,0.4
2024-08-26T0300,2338A,117.0196,25.0306,龙岩市,龙岩学院,,24,24,25,10,13,22,,,,5,10,3,3,0.4,0.4
2024-08-26T0300,2665A,105.0822,33.3261,陇南市,汉王镇固水子,,,,,,,,,,,,,,,,
2024-08-26T0300,2885A,104.9339,33.3826,陇南市,滨江中学,,45,45,44,19,22,102,,,,4,8,4,5,0.3,0.3
2024-08-26T0300,3247A,104.955,33.371,陇南市,市总工会,,34,34,44,10,16,99,,,,2,6,7,7,0.2,0.2
2024-08-26T0300,2487A,111.9589,27.8901,娄底市,电视发射台,,38,38,41,18,21,30,,,,6,8,7,9,0.5,0.8
2024-08-26T0300,2488A,111.9975,27.725,娄底市,市监测站,细颗粒物(PM2.5),77,75,55,56,33,30,,,,24,18,25,13,1.3,1
2024-08-26T0300,2489A,112.0194,27.7314,娄底市,市委党校,细颗粒物(PM2.5),69,68,47,50,32,24,,,,14,12,10,11,0.9,0.7
2024-08-26T0300,2490A,111.9561,27.7569,娄底市,涟钢,细颗粒物(PM2.5),78,57,50,57,32,25,,,,13,17,12,12,0.9,1.2
2024-08-26T0300,2491A,111.9892,27.7044,娄底市,市政府,,,59,41,,31,16,,,,12,10,6,6,0.7,0.5
2024-08-26T0300,1893A,105.4324,28.9634,泸州市,九狮山,,29,,19,20,12,29,,,,2,5,6,5,0.4,0.3
2024-08-26T0300,1894A,105.4427,28.9063,泸州市,小市上码头,,18,16,19,10,10,55,,,,12,12,13,10,0.2,0.2
2024-08-26T0300,1895A,105.4241,28.8573,泸州市,兰田宪桥,,19,19,19,12,11,39,,,,15,16,6,7,0.3,0.2
2024-08-26T0300,1896A,105.4379,28.8833,泸州市,市环监站,,20,17,19,12,13,62,,,,6,11,6,8,0.3,0.3
2024-08-26T0300,3490A,105.3617,28.7703,泸州市,纳溪区环保局,,33,33,24,21,17,33,,,,24,19,6,6,0.3,0.3
2024-08-26T0300,2183A,111.1406,37.5211,吕梁市,环保局,,16,11,53,11,31,50,,,,27,15,5,5,0.5,0.7
2024-08-26T0300,2185A,111.1297,37.5136,吕梁市,自来水公司,,18,14,53,12,30,51,,,,35,14,3,4,0.6,0.7
2024-08-26T0300,2867A,111.1283,37.51,吕梁市,马茂庄小学,,21,15,58,12,31,43,,,,41,23,2,3,0.6,0.6
2024-08-26T0300,1812A,112.3931,34.6516,洛阳市,市委党校,,40,34,37,28,27,54,,,,12,12,4,3,0.8,0.8
2024-08-26T0300,1814A,112.4657,34.6871,洛阳市,豫西宾馆,,32,32,39,20,22,52,,,,10,11,4,4,0.7,0.7
2024-08-26T0300,1815A,112.494,34.6886,洛阳市,河南林校,,38,,28,26,23,57,,,,10,13,4,4,0.5,0.5
2024-08-26T0300,1816A,112.3844,34.623,洛阳市,开发区管委会,,40,34,33,28,24,49,,,,13,11,2,2,0.6,0.5
2024-08-26T0300,1817A,112.4267,34.6258,洛阳市,市委新办公区,,32,32,30,22,27,54,,,,4,7,4,4,0.7,0.7
2024-08-26T0300,3340A,112.6005,34.6326,洛阳市,伊滨,,38,,39,26,27,40,,,,9,9,6,5,0.7,0.7
2024-08-26T0300,3341A,112.4951,34.6332,洛阳市,中移产业园,,38,30,37,26,26,47,,,,7,10,5,4,0.9,0.9
2024-08-26T0300,3593A,112.5736,34.8993,洛阳市,吉利监测站,,42,36,42,29,27,56,,,,10,11,2,2,0.9,0.8
2024-08-26T0300,3635A,112.3677,34.662,洛阳市,河科大西苑校区,,23,22,31,16,18,58,,,,12,11,7,5,0.8,0.8
2024-08-26T0300,3636A,112.4388,34.6781,洛阳市,英才小学,,45,,26,31,29,51,,,,7,7,5,3,0.7,0.7
2024-08-26T0300,2399A,114.051,33.5699,漯河市,三五一五工厂,细颗粒物(PM2.5),54,56,47,38,29,49,,,,15,17,6,6,0.7,0.7
2024-08-26T0300,2400A,114.0055,33.5698,漯河市,漯河大学,"颗粒物(PM10),细颗粒物(PM2.5)",52,53,49,36,26,56,,,,13,14,10,10,0.8,0.7
2024-08-26T0300,2401A,114.0138,33.5828,漯河市,市水利局,颗粒物(PM10),53,56,51,34,27,57,,,,12,14,7,7,0.8,0.8
2024-08-26T0300,2402A,114.0261,33.5698,漯河市,市广电局,,49,46,45,34,27,60,,,,13,12,8,9,0.7,0.7
2024-08-26T0300,3478A,113.9749,33.5664,漯河市,市图书馆,颗粒物(PM10),62,74,50,43,30,28,,,,28,16,8,6,0.7,0.7
2024-08-26T0300,3479A,114.0967,33.5906,漯河市,召陵区卫健委,细颗粒物(PM2.5),55,53,52,39,33,45,,,,14,16,3,3,0.7,0.7
2024-08-26T0300,1798A,118.5092,31.6837,马鞍山市,湖东路四小,,49,37,43,34,25,75,,,,18,21,8,8,0.8,0.8
2024-08-26T0300,1799A,118.5024,31.6449,马鞍山市,开发区,,49,49,51,34,27,62,,,,19,26,4,4,0.8,0.8
2024-08-26T0300,1800A,118.5228,31.7231,马鞍山市,慈湖,,47,47,41,25,25,70,,,,14,15,6,6,0.7,0.8
2024-08-26T0300,1802A,118.6245,31.7241,马鞍山市,濮塘,,35,25,32,24,24,61,,,,21,16,6,6,0.7,0.8
2024-08-26T0300,3633A,118.4918,31.6809,马鞍山市,雨山,,41,41,40,23,22,76,,,,12,11,7,6,0.3,0.4
2024-08-26T0300,1686A,111.0286,21.4688,茂名市,电白南海,,13,12,19,7,14,39,,,,6,7,7,8,0.5,0.5
2024-08-26T0300,1687A,110.9294,21.6533,茂名市,茂石化七小,,20,,21,14,19,24,,,,10,10,9,8,0.3,0.3
2024-08-26T0300,1688A,110.9107,21.6687,茂名市,健康路,,12,12,20,3,10,30,,,,9,9,12,13,0.4,0.5
2024-08-26T0300,1689A,110.8592,21.6828,茂名市,高岭,,10,9,29,7,17,31,,,,8,11,14,18,0.3,0.5
2024-08-26T0300,3450A,111.01,21.5165,茂名市,电白水东,,10,6,14,3,11,32,,,,5,8,4,6,0.4,0.4
2024-08-26T0300,2539A,104.0308,30.0478,眉山市,黑龙滩水库,,49,49,44,13,28,89,,,,10,8,5,5,0.4,0.5
2024-08-26T0300,2540A,103.8416,30.0874,眉山市,气象局,,37,33,56,22,37,118,,,,14,28,9,9,0.5,0.7
2024-08-26T0300,3137A,103.8578,30.0744,眉山市,市委党校,,40,34,52,19,34,128,,,,9,21,9,11,0.4,0.5
2024-08-26T0300,3148A,103.8291,30.0564,眉山市,区人社局,,39,38,49,22,33,122,,,,11,24,15,10,0.6,0.6
2024-08-26T0300,1690A,116.1231,24.3284,梅州市,梅江月梅,,36,36,23,16,10,8,,,,16,10,6,6,0.4,0.4
2024-08-26T0300,1691A,116.0797,24.2719,梅州市,梅县新城,,27,27,22,12,11,16,,,,23,10,4,4,0.5,0.5
2024-08-26T0300,1692A,116.1248,24.2654,梅州市,环境监控中心,,23,23,23,11,13,44,,,,11,12,6,4,0.4,0.4
2024-08-26T0300,3315A,116.1233,24.2991,梅州市,梅龙,,27,27,15,15,14,16,,,,21,10,8,8,0.6,0.5
2024-08-26T0300,1878A,104.7778,31.4741,绵阳市,富乐山,,40,37,40,28,29,61,,,,11,11,3,3,0.7,0.7
2024-08-26T0300,1879A,104.7563,31.4535,绵阳市,市人大,,45,43,44,31,28,51,,,,19,19,11,11,0.6,0.6
2024-08-26T0300,1880A,104.6697,31.4668,绵阳市,高新区自来水公司,,39,39,44,22,24,63,,,,18,17,4,3,0.6,0.6
2024-08-26T0300,1881A,104.7287,31.5075,绵阳市,三水厂,细颗粒物(PM2.5),60,56,46,43,34,42,,,,23,21,4,4,1.0,0.9
2024-08-26T0300,3491A,104.69,31.5322,绵阳市,西科大附属小学,,46,46,42,28,30,48,,,,27,19,12,10,0.8,0.7
2024-08-26T0300,3492A,104.5648,31.5343,绵阳市,安州区旅游局,,42,30,43,29,32,93,,,,8,12,7,6,0.6,0.7
2024-08-26T0300,1784A,129.61,44.561,牡丹江市,环保大楼,,39,39,29,22,20,6,,,,22,12,7,8,0.3,0.4
2024-08-26T0300,1785A,129.6115,44.5782,牡丹江市,文化广场,,47,47,42,18,30,11,,,,19,15,7,9,0.4,0.5
2024-08-26T0300,1786A,129.5904,44.5963,牡丹江市,第一医院,,38,35,32,26,27,13,,,,14,13,5,6,0.5,0.5
2024-08-26T0300,1787A,129.6364,44.6075,牡丹江市,机车工厂,,33,28,34,23,20,4,,,,14,11,5,6,0.5,0.4
2024-08-26T0300,1788A,129.6386,44.5462,牡丹江市,第一中学,,30,30,26,16,18,6,,,,12,11,5,6,0.4,0.4
2024-08-26T0300,2531A,105.0703,29.61,内江市,市监测站,细颗粒物(PM2.5),53,,28,37,25,57,,,,15,20,13,13,0.5,0.4
2024-08-26T0300,2532A,105.0717,29.5947,内江市,东兴区政府,,49,,23,34,22,59,,,,19,19,12,11,0.5,0.4
2024-08-26T0300,2533A,105.0653,29.5817,内江市,内江二中,细颗粒物(PM2.5),55,39,26,39,26,52,,,,18,17,9,8,0.4,0.3
2024-08-26T0300,2534A,105.0406,29.5822,内江市,内江日报社,细颗粒物(PM2.5),62,44,27,44,24,35,,,,31,26,11,9,0.5,0.3
2024-08-26T0300,2628A,92.0657,31.4846,那曲市,那曲监测站,,42,42,33,16,17,49,,,,8,7,7,7,0.5,0.4
2024-08-26T0300,3128A,92.0506,31.4797,那曲市,那曲会议中心,,49,49,28,24,15,42,,,,31,11,4,4,0.4,0.4
2024-08-26T0300,1290A,115.8931,28.6843,南昌市,省外办,,47,47,42,31,27,69,,,,21,16,14,10,0.6,0.5
2024-08-26T0300,1291A,115.8886,28.7003,南昌市,省林业公司,,44,44,41,29,23,55,,,,23,20,12,8,0.8,0.7
2024-08-26T0300,1292A,115.8126,28.7442,南昌市,林科所,,34,34,31,22,18,9,,,,26,15,9,10,0.3,0.3
2024-08-26T0300,1294A,115.8518,28.687,南昌市,建工学校,,38,38,40,23,17,50,,,,25,22,12,9,0.5,0.5
2024-08-26T0300,1295A,115.8921,28.6424,南昌市,象湖,,39,39,33,27,23,68,,,,22,16,10,5,0.7,0.8
2024-08-26T0300,1296A,115.7423,28.7996,南昌市,武术学校,,22,22,27,10,16,18,,,,2,4,3,3,0.8,0.8
2024-08-26T0300,1298A,115.9314,28.6842,南昌市,省站,,45,,33,31,25,61,,,,19,15,14,9,0.7,0.7
2024-08-26T0300,3046A,115.9084,28.6062,南昌市,机电学校,,50,50,47,29,22,67,,,,16,15,15,10,0.8,0.8
2024-08-26T0300,3690A,115.9721,28.7031,南昌市,外国语学校,,44,44,39,18,19,69,,,,17,12,7,7,0.6,0.6
2024-08-26T0300,1905A,106.056,30.8064,南充市,西山风景区,,42,39,19,29,19,66,,,,11,9,3,3,0.9,0.7
2024-08-26T0300,1906A,106.0789,30.8023,南充市,南充市委,,43,41,30,30,20,37,,,,23,14,7,8,0.5,0.3
2024-08-26T0300,1907A,106.1031,30.8217,南充市,南充炼油厂,颗粒物(PM10),57,63,45,35,29,46,,,,20,14,7,8,0.5,0.4
2024-08-26T0300,1908A,106.1064,30.7856,南充市,高坪区监测站,细颗粒物(PM2.5),73,71,31,53,20,27,,,,33,18,8,7,0.7,0.4
2024-08-26T0300,1909A,106.0642,30.7636,南充市,嘉陵区环保局,细颗粒物(PM2.5),62,71,30,44,17,33,,,,36,18,6,6,0.6,0.3
2024-08-26T0300,1910A,106.1087,30.8388,南充市,市环境监测站,,50,50,41,34,27,55,,,,19,16,7,7,0.4,0.3
2024-08-26T0300,1151A,118.8086,32.1065,南京市,迈皋桥,,26,26,30,9,19,49,,,,20,23,5,7,0.3,0.4
2024-08-26T0300,1152A,118.7538,32.0551,南京市,草场门,,27,27,35,12,17,59,,,,18,18,7,7,0.4,0.5
2024-08-26T0300,1153A,118.7794,32.0745,南京市,山西路,,31,31,39,14,19,58,,,,19,19,4,4,0.4,0.5
2024-08-26T0300,1154A,118.7752,32.0023,南京市,中华门,,27,27,33,17,19,52,,,,14,13,4,4,0.5,0.5
2024-08-26T0300,1155A,118.8109,32.0309,南京市,瑞金路,,24,24,37,14,20,53,,,,6,7,4,4,0.5,0.6
2024-08-26T0300,1156A,118.7997,32.0754,南京市,玄武湖,,36,36,38,12,16,48,,,,4,12,4,4,0.6,0.7
2024-08-26T0300,1157A,118.6414,32.0931,南京市,浦口,,29,29,37,18,19,49,,,,17,19,7,8,0.3,0.4
2024-08-26T0300,1158A,118.7356,31.9996,南京市,奥体中心,,30,30,38,17,23,58,,,,17,15,5,4,0.3,0.4
2024-08-26T0300,1159A,118.9125,32.1028,南京市,仙林大学城,,20,19,31,14,17,54,,,,14,14,8,8,0.6,0.7
2024-08-26T0300,3422A,118.8436,31.9198,南京市,江宁彩虹桥,,40,40,35,17,20,47,,,,12,10,5,4,0.5,0.6
2024-08-26T0300,3423A,119.0138,31.6494,南京市,溧水永阳,,28,24,30,19,19,84,,,,11,12,4,4,0.5,0.6
2024-08-26T0300,3424A,118.879,31.3302,南京市,高淳老职中,,43,30,35,30,24,122,,,,13,12,5,5,0.6,0.7
2024-08-26T0300,3427A,118.8554,32.3578,南京市,六合雄州,,34,34,34,12,20,34,,,,20,21,4,6,0.6,0.7
2024-08-26T0300,1401A,108.3103,22.7881,南宁市,二十一中,,23,23,23,13,13,38,,,,18,11,10,4,1.0,0.7
2024-08-26T0300,1402A,108.3141,22.8528,南宁市,北湖,,20,15,21,14,13,43,,,,15,13,8,4,0.9,0.8
2024-08-26T0300,1403A,108.3206,22.8225,南宁市,市监测站,,23,23,22,13,13,42,,,,17,15,13,6,0.9,0.6
2024-08-26T0300,1404A,108.3829,22.8037,南宁市,大自然花园,,20,15,21,14,14,41,,,,17,12,7,5,0.8,0.7
2024-08-26T0300,1405A,108.4394,22.7904,南宁市,仙葫,,23,20,26,16,14,46,,,,8,10,8,7,0.6,0.6
2024-08-26T0300,1406A,108.2397,22.8467,南宁市,区农职院,,19,18,29,13,14,30,,,,21,14,13,8,1.1,0.8
2024-08-26T0300,1407A,108.3275,22.735,南宁市,英华嘉园,,35,35,24,15,13,23,,,,34,18,13,7,0.6,0.5
2024-08-26T0300,1408A,108.2257,22.7757,南宁市,沙井镇街道办,颗粒物(PM10),55,60,39,17,13,11,,,,37,23,5,3,0.6,0.5
2024-08-26T0300,3401A,108.4834,22.7618,南宁市,红星社区,,20,17,23,14,14,40,,,,11,12,8,6,0.7,0.7
2024-08-26T0300,2331A,118.0966,26.6761,南平市,茫荡山,,,,,,,,,,,,,,,,
2024-08-26T0300,2332A,118.1681,26.6369,南平市,南平市监测站,,18,18,24,7,13,19,,,,11,10,4,5,0.6,0.7
2024-08-26T0300,2333A,118.1825,26.6489,南平市,南平铝业有限公司,,22,22,25,11,13,8,,,,20,12,8,7,0.6,0.6
2024-08-26T0300,2334A,118.1756,26.6272,南平市,南平七中,,21,21,25,8,13,19,,,,7,6,4,4,0.4,0.5
2024-08-26T0300,1168A,120.9098,31.9663,南通市,狼山街道,,15,8,13,3,8,47,,,,7,6,6,6,0.4,0.4
2024-08-26T0300,1169A,120.86,32.0005,南通市,虹桥,,15,10,17,3,8,45,,,,5,5,5,5,1.3,1.1
2024-08-26T0300,1170A,120.87,32.02,南通市,城中,,15,12,20,3,7,48,,,,13,12,5,5,0.5,0.6
2024-08-26T0300,1171A,120.94,31.93,南通市,星湖花园,,15,6,9,3,4,45,,,,11,10,4,4,0.6,0.6
2024-08-26T0300,1172A,120.81,32.0417,南通市,紫琅学院,,15,6,12,3,7,46,,,,11,11,7,7,0.7,0.8
2024-08-26T0300,3291A,121.067,32.062,南通市,通州监测站,,16,9,16,3,8,50,,,,6,6,3,3,0.5,0.6
2024-08-26T0300,3432A,120.9348,31.9883,南通市,环境教育馆,,15,9,21,3,7,45,,,,8,7,4,4,0.3,0.4
2024-08-26T0300,2404A,112.5224,33.0122,南阳市,瓦房庄,,36,36,44,22,25,63,,,,13,12,5,5,0.5,0.5
2024-08-26T0300,2405A,112.5003,32.9735,南阳市,汉画馆,,37,37,42,22,24,60,,,,13,13,5,5,0.6,0.6
2024-08-26T0300,2406A,112.5573,33.027,南阳市,气象站,,37,37,49,22,22,60,,,,10,10,5,5,0.7,0.7
2024-08-26T0300,2407A,112.5481,32.9689,南阳市,理工学院,,33,33,36,22,23,56,,,,16,12,5,5,0.5,0.6
2024-08-26T0300,4008A,112.5234,32.9922,南阳市,卧龙区政府,,39,39,44,23,26,58,,,,15,15,4,4,0.7,0.7
2024-08-26T0300,1234A,121.8358,29.911,宁波市,区环保大楼,,18,15,21,10,12,56,,,,2,8,8,7,0.6,0.6
2024-08-26T0300,1235A,121.56,29.82,宁波市,万里学院,,26,26,30,18,18,50,,,,12,10,11,10,0.7,0.6
2024-08-26T0300,1236A,121.713,29.9572,宁波市,龙赛医院,,17,16,23,8,12,54,,,,6,11,9,9,0.5,0.6
2024-08-26T0300,1239A,121.633,29.7733,宁波市,钱湖水厂,,15,14,19,9,12,47,,,,6,6,7,7,0.5,0.6
2024-08-26T0300,1240A,121.5856,29.8635,宁波市,太古小学,,17,16,22,7,14,52,,,,9,10,6,6,0.9,0.8
2024-08-26T0300,1241A,121.524,29.8674,宁波市,市环境监测中心,,19,18,24,8,13,60,,,,7,11,6,4,0.5,0.6
2024-08-26T0300,2871A,121.6147,29.9017,宁波市,万里国际学校,,18,17,19,12,16,57,,,,6,8,6,6,0.4,0.4
2024-08-26T0300,3710A,121.5594,29.8975,宁波市,白沙活动中心,,21,21,29,8,12,59,,,,9,10,8,8,0.6,0.6
2024-08-26T0300,2339A,119.5001,26.6946,宁德市,金涵水库,,,,,,,,,,,,,,,,
2024-08-26T0300,2341A,119.5388,26.6612,宁德市,宁德市监测站,,20,20,31,14,20,31,,,,8,9,6,6,0.5,0.7
2024-08-26T0300,3209A,119.5231,26.6562,宁德市,宁德一中,,20,20,32,6,19,31,,,,5,7,5,6,0.5,0.7
2024-08-26T0300,2618A,98.8601,25.8567,怒江傈僳族自治州,州监测站,,26,23,23,18,15,28,,,,19,13,5,6,0.4,0.5
2024-08-26T0300,2619A,98.8546,25.8417,怒江傈僳族自治州,泸水一中,,16,14,21,11,10,15,,,,22,16,5,5,0.4,0.4
2024-08-26T0300,1888A,101.6891,26.571,攀枝花市,弄弄坪,,45,45,43,13,21,84,,,,9,17,12,18,0.8,1.1
2024-08-26T0300,1889A,101.5769,26.5928,攀枝花市,河门口,,27,27,31,16,20,74,,,,13,15,6,8,0.9,0.8
2024-08-26T0300,1890A,101.7169,26.585,攀枝花市,炳草岗,,39,34,46,27,27,70,,,,16,23,16,22,0.5,0.8
2024-08-26T0300,1891A,101.7369,26.5008,攀枝花市,仁和,,42,42,37,24,24,66,,,,29,16,69,15,3.5,1
2024-08-26T0300,2835A,101.7227,26.567,攀枝花市,四十中小,,39,39,40,24,23,80,,,,15,19,10,20,0.6,0.9
2024-08-26T0300,1604A,122.0303,41.1489,盘锦市,开发区,,25,25,33,15,17,32,,,,30,16,32,8,0.5,0.5
2024-08-26T0300,1605A,122.0485,41.0883,盘锦市,兴隆台,,19,19,32,10,16,56,,,,12,16,9,5,0.6,0.7
2024-08-26T0300,1606A,121.8297,41.1028,盘锦市,新生街道,,22,22,26,10,14,12,,,,38,16,8,6,0.8,0.7
2024-08-26T0300,1832A,113.3257,33.742,平顶山市,新华旅馆,颗粒物(PM10),58,66,51,31,27,8,,,,53,30,6,5,0.5,0.5
2024-08-26T0300,1833A,113.2919,33.737,平顶山市,规划设计院,,45,37,33,31,22,51,,,,18,24,6,6,0.9,0.9
2024-08-26T0300,1834A,113.182,33.774,平顶山市,平顶山工学院,,38,38,35,19,18,24,,,,35,21,7,6,0.9,0.9
2024-08-26T0300,3204A,113.3025,33.73,平顶山市,规划局,,42,41,39,29,26,41,,,,22,25,2,2,0.8,0.9
2024-08-26T0300,3594A,112.8867,33.9116,平顶山市,石龙区,颗粒物(PM10),62,73,62,26,21,25,,,,41,27,7,8,0.6,0.6
2024-08-26T0300,2656A,106.6692,35.5461,平凉市,聚贤嘉苑,,40,40,46,15,20,82,,,,14,24,7,8,0.3,0.4
2024-08-26T0300,2657A,106.7021,35.5307,平凉市,博物馆,,41,41,45,8,18,96,,,,18,32,8,7,0.3,0.5
2024-08-26T0300,2347A,114.0997,27.5002,萍乡市,武功山,,17,17,11,8,4,29,,,,3,4,8,8,0.3,0.3
2024-08-26T0300,2348A,113.8385,27.6434,萍乡市,中医院,,28,23,32,19,19,7,,,,24,13,13,12,0.8,1
2024-08-26T0300,2349A,113.8493,27.6253,萍乡市,市政府车库,,42,42,35,19,18,13,,,,12,12,17,19,0.9,1.5
2024-08-26T0300,2350A,113.8676,27.6435,萍乡市,市环保局,,40,38,35,28,22,8,,,,24,12,18,20,1.0,1.1
2024-08-26T0300,2351A,113.866,27.6198,萍乡市,安源区政府,,32,32,35,9,13,10,,,,16,16,10,17,1.0,1.4
2024-08-26T0300,2319A,119.0141,25.4325,莆田市,荔城区仓后路,,42,42,36,28,19,46,,,,14,11,7,7,0.7,0.7
2024-08-26T0300,2320A,119.0015,25.4553,莆田市,莆田市监测站,,31,31,35,20,19,45,,,,8,8,6,6,0.5,0.5
2024-08-26T0300,2321A,119.1119,25.4561,莆田市,涵江区六中,,38,38,33,25,21,66,,,,13,12,6,6,0.6,0.5
2024-08-26T0300,2322A,119.1013,25.3215,莆田市,秀屿区政府,细颗粒物(PM2.5),85,,30,63,26,97,,,,8,7,8,7,0.6,0.6
2024-08-26T0300,2323A,118.981,25.4792,莆田市,东圳水库,,,,,,,,,,,,,,,,
2024-08-26T0300,2392A,115.0312,35.7636,濮阳市,环保局,,40,33,46,28,35,63,,,,8,12,5,5,0.7,0.8
2024-08-26T0300,2394A,115.0574,35.7609,濮阳市,油田运输公司,,33,33,49,12,30,72,,,,5,13,2,2,0.7,0.8
2024-08-26T0300,2395A,115.0866,35.7754,濮阳市,油田物探公司,,49,34,52,34,42,74,,,,5,10,4,5,0.6,0.6
2024-08-26T0300,3021A,115,35.7668,濮阳市,濮水河管理处,,48,41,44,33,35,36,,,,6,11,2,2,0.7,0.7
2024-08-26T0300,2601A,100.98,22.7633,普洱市,市环保局,,16,16,19,10,13,21,,,,6,6,6,6,0.4,0.4
2024-08-26T0300,2602A,100.9817,22.8322,普洱市,普洱第二中学,,15,15,19,10,13,19,,,,5,6,7,7,0.4,0.4
2024-08-26T0300,2262A,131.0518,45.8751,七台河市,新一中,,35,,20,24,14,32,,,,13,10,10,10,0.9,0.9
2024-08-26T0300,3345A,131.0577,45.7879,七台河市,中波台,,16,14,16,8,8,49,,,,8,16,10,10,0.7,0.7
2024-08-26T0300,3637A,131.0176,45.7761,七台河市,人民广场,,26,18,28,18,19,35,,,,7,13,8,8,0.3,0.4
2024-08-26T0300,3684A,130.8781,45.8222,七台河市,新建矿广场,,32,22,37,22,19,24,,,,18,22,8,10,0.4,0.5
2024-08-26T0300,1779A,123.9305,47.3636,齐齐哈尔市,安居小区,,18,16,28,12,16,50,,,,5,8,9,10,0.4,0.5
2024-08-26T0300,1780A,123.9488,47.3386,齐齐哈尔市,中心广场,,19,19,41,7,16,48,,,,6,10,2,4,0.2,0.4
2024-08-26T0300,1781A,123.9483,47.3227,齐齐哈尔市,农牧车辆厂,,22,22,34,8,19,46,,,,7,11,8,10,0.3,0.3
2024-08-26T0300,1783A,123.945,47.2988,齐齐哈尔市,市环境监测站,,21,21,20,8,14,42,,,,8,7,8,7,0.2,0.3
2024-08-26T0300,3662A,123.6333,47.2075,齐齐哈尔市,富区青少年活动中心,,21,21,43,3,22,44,,,,11,12,7,12,0.5,0.7
2024-08-26T0300,2591A,107.9783,26.5747,黔东南苗族侗族自治州,市环境监测站,,18,16,12,12,8,37,,,,4,8,3,3,0.4,0.4
2024-08-26T0300,2881A,107.8908,26.5311,黔东南苗族侗族自治州,凯里学院,,17,17,11,10,8,12,,,,13,9,3,3,0.6,0.6
2024-08-26T0300,2593A,107.5228,26.2403,黔南布依族苗族自治州,小围寨,,12,12,5,7,2,12,,,,8,4,4,3,0.4,0.4
2024-08-26T0300,3538A,107.5175,26.2978,黔南布依族苗族自治州,沙坝,,14,14,8,3,4,7,,,,6,4,3,3,0.5,0.4
2024-08-26T0300,2589A,104.9022,25.0925,黔西南布依族苗族自治州,场坝街,,14,14,15,6,9,40,,,,2,4,2,3,0.2,0.3
2024-08-26T0300,2590A,104.8811,25.0992,黔西南布依族苗族自治州,坪东大道,,41,41,15,26,7,39,,,,3,3,6,6,0.3,0.2
2024-08-26T0300,2502A,108.6236,21.9667,钦州市,市环保站,,27,27,25,3,6,42,,,,15,17,6,8,0.6,0.6
2024-08-26T0300,2503A,108.6549,21.9481,钦州市,沙埠小学,,16,12,26,6,9,50,,,,12,18,4,5,0.4,0.5
2024-08-26T0300,2504A,108.5989,21.7431,钦州市,港区一小,,24,24,26,7,9,46,,,,12,14,12,11,0.9,0.6
2024-08-26T0300,3404A,108.5959,21.9633,钦州市,北职校,,46,46,26,12,11,23,,,,24,15,8,7,0.5,0.6
2024-08-26T0300,1042A,119.5134,39.8207,秦皇岛市,北戴河环保局,,32,32,42,7,11,92,,,,11,11,2,2,0.4,0.5
2024-08-26T0300,1043A,119.7493,40.0116,秦皇岛市,第一关,,31,19,36,17,21,97,,,,12,26,3,2,0.3,0.4
2024-08-26T0300,1044A,119.5897,39.9499,秦皇岛市,监测站,,32,24,54,22,33,75,,,,13,31,3,3,0.4,0.6
2024-08-26T0300,1046A,119.5251,39.9041,秦皇岛市,建设大厦,,44,44,43,10,11,57,,,,18,19,3,4,0.4,0.5
2024-08-26T0300,3132A,119.610547,39.943889,秦皇岛市,文明里,,32,32,36,11,15,84,,,,10,16,1,2,0.5,0.5
2024-08-26T0300,1307A,120.6659,36.2403,青岛市,仰口,,35,34,42,24,35,105,,,,5,8,6,6,0.2,0.3
2024-08-26T0300,1310A,120.4134,36.0658,青岛市,市南区东部子站,,25,12,21,3,8,79,,,,14,10,7,7,0.5,0.6
2024-08-26T0300,1311A,120.3664,36.1032,青岛市,四方区子站,,30,14,24,9,16,95,,,,1,6,10,10,0.6,0.7
2024-08-26T0300,1312A,120.2994,36.054,青岛市,市南区西部子站,,24,14,24,7,11,74,,,,13,22,8,9,0.6,0.8
2024-08-26T0300,1313A,120.4581,36.0858,青岛市,崂山区子站,,26,14,22,7,12,82,,,,16,15,8,9,0.5,0.6
2024-08-26T0300,1314A,120.1983,35.9608,青岛市,黄岛区子站,,28,12,19,10,16,88,,,,9,12,7,8,0.6,0.7
2024-08-26T0300,1315A,120.3999,36.3083,青岛市,城阳区子站,,27,27,43,12,23,79,,,,14,20,7,8,0.6,0.8
2024-08-26T0300,1966A,120.0405,35.8735,青岛市,黄岛区4号,,24,14,19,9,11,75,,,,7,9,10,10,0.5,0.6
2024-08-26T0300,3362A,120.5014,36.4034,青岛市,即墨2号,,41,41,53,27,34,86,,,,10,12,6,8,0.5,0.7
2024-08-26T0300,3642A,120.3503,36.0736,青岛市,市北区南部,,22,21,23,9,13,68,,,,21,14,7,7,0.7,0.8
2024-08-26T0300,3643A,120.3948,36.1805,青岛市,李沧区北部,,30,14,34,12,21,94,,,,9,19,8,8,0.5,0.7
2024-08-26T0300,1702A,113.0426,23.691,清远市,环保大楼,,48,48,32,24,22,25,,,,27,18,9,6,0.7,0.7
2024-08-26T0300,1703A,113.0208,23.7106,清远市,凤城街办,,27,27,38,13,24,11,,,,21,19,6,5,0.6,0.6
2024-08-26T0300,3025A,113.0477,23.6344,清远市,技师学院,,24,24,47,11,24,18,,,,20,22,10,8,0.5,0.5
2024-08-26T0300,3318A,112.9903,23.7403,清远市,清新太和,,40,40,44,22,25,18,,,,12,14,3,3,0.8,0.8
2024-08-26T0300,3455A,113.076,23.7198,清远市,清城东城,,30,30,39,19,25,14,,,,16,13,8,7,0.5,0.5
2024-08-26T0300,2661A,107.6325,35.7357,庆阳市,庆阳五中,,44,44,37,16,18,63,,,,2,5,5,5,0.4,0.5
2024-08-26T0300,2662A,107.6364,35.7067,庆阳市,市环保局,,46,46,33,21,18,63,,,,6,7,13,9,0.6,0.6
2024-08-26T0300,1916A,103.7897,25.5035,曲靖市,环境监测站,,11,7,21,7,10,35,,,,11,13,4,6,0.5,0.6
2024-08-26T0300,1917A,103.8,25.5364,曲靖市,烟厂办公区,,14,6,20,3,11,43,,,,5,11,4,4,0.2,0.4
2024-08-26T0300,3376A,103.7947,25.462,曲靖市,南苑二区,,13,10,16,3,9,39,,,,8,10,5,9,0.5,0.5
2024-08-26T0300,3377A,103.7444,25.5261,曲靖市,曲靖师范学院,,16,14,20,11,13,28,,,,15,13,9,11,0.4,0.5
2024-08-26T0300,1264A,118.8692,28.9398,衢州市,环保大楼,,38,38,45,26,30,72,,,,18,20,4,4,0.6,0.5
2024-08-26T0300,1265A,118.8709,28.9666,衢州市,实验学校,,48,48,48,31,31,89,,,,12,23,8,8,0.4,0.4
2024-08-26T0300,1266A,118.8621,28.9808,衢州市,衢州学院,颗粒物(PM10),51,51,49,34,32,39,,,,43,30,6,6,0.5,0.5
2024-08-26T0300,1611A,118.5819,24.9117,泉州市,涂山街,细颗粒物(PM2.5),53,,37,37,25,54,,,,16,15,2,2,0.7,0.6
2024-08-26T0300,1612A,118.5972,24.8978,泉州市,津头埔,,45,38,40,31,27,36,,,,25,19,3,4,0.7,0.6
2024-08-26T0300,1613A,118.6663,24.9424,泉州市,万安,,36,34,34,25,26,24,,,,29,12,5,4,0.6,0.6
2024-08-26T0300,1614A,118.6117,24.9604,泉州市,清源山,,,,,,,,,,,,,,,,
2024-08-26T0300,3529A,118.6333,24.9264,泉州市,城华南路,,46,36,30,32,23,36,,,,15,9,4,3,0.6,0.6
2024-08-26T0300,2626A,88.8876,29.2718,日喀则市,日喀则监测站,,36,9,8,3,4,113,,,,5,6,6,5,0.3,0.3
2024-08-26T0300,3726A,88.8781,29.2426,日喀则市,林业技术推广中心,,37,6,6,3,5,117,,,,4,6,7,7,0.5,0.5
2024-08-26T0300,1659A,119.471,35.4209,日照市,监测站,,16,12,32,7,22,46,,,,31,24,8,10,0.3,0.6
2024-08-26T0300,1660A,119.523,35.4216,日照市,市政府广场,,22,,22,10,15,69,,,,8,6,10,10,0.4,0.6
2024-08-26T0300,1661A,119.5587,35.4044,日照市,港务局,,26,12,22,12,19,81,,,,3,5,3,7,0.3,0.5
2024-08-26T0300,3507A,119.5328,35.4625,日照市,职业技术学院,,24,12,21,9,15,75,,,,9,14,8,9,0.5,0.7
2024-08-26T0300,3604A,119.3266,35.1044,日照市,岚山环保分局,,22,22,39,3,13,50,,,,21,16,9,12,0.5,0.6
2024-08-26T0300,1835A,111.1922,34.7752,三门峡市,市政府,,50,50,44,35,27,79,,,,8,9,8,8,0.7,0.7
2024-08-26T0300,1836A,111.1587,34.7942,三门峡市,开发区,"颗粒物(PM10),细颗粒物(PM2.5)",60,69,52,43,34,75,,,,10,11,9,9,0.8,0.7
2024-08-26T0300,1838A,111.143,34.7955,三门峡市,风景区,,,,,,,,,,,,,,,,
2024-08-26T0300,3039A,111.1911,34.7829,三门峡市,三门峡市第一小学,,40,40,44,28,26,79,,,,8,9,7,8,0.8,0.7
2024-08-26T0300,3598A,111.1,34.7167,三门峡市,富达温泉假日酒店,细颗粒物(PM2.5),65,53,34,47,28,79,,,,10,8,7,6,0.8,0.7
2024-08-26T0300,2324A,117.6211,26.2625,三明市,三钢,,29,29,32,19,23,16,,,,18,14,6,9,0.9,1.1
2024-08-26T0300,2325A,117.635,26.2714,三明市,三明二中,,23,18,31,16,19,20,,,,14,14,2,6,0.3,0.7
2024-08-26T0300,2326A,117.6028,26.2378,三明市,三元区政府,,36,36,35,19,21,15,,,,13,12,1,3,0.5,0.5
2024-08-26T0300,2327A,117.7275,26.3108,三明市,洋溪,,,,,,,,,,,,,,,,
2024-08-26T0300,1876A,109.5078,18.2489,三亚市,河东子站,,22,22,18,10,8,21,,,,7,6,3,3,0.4,0.3
2024-08-26T0300,1877A,109.4964,18.2681,三亚市,河西子站,,20,20,15,6,7,11,,,,12,8,2,2,0.3,0.3
2024-08-26T0300,3540A,109.7348,18.3443,三亚市,君悦子站,,20,20,19,6,5,17,,,,8,10,3,1,0.3,0.3
2024-08-26T0300,2624A,91.7608,29.2313,山南市,山南监测站,,34,16,18,6,5,107,,,,5,5,8,8,0.3,0.2
2024-08-26T0300,2625A,91.7706,29.2436,山南市,山南人民医院,,,,14,,8,,,109,,,8,,7,,0.3
2024-08-26T0300,1674A,116.6794,23.3667,汕头市,金平子站,,18,18,31,12,21,43,,,,10,15,5,5,0.7,0.9
2024-08-26T0300,1675A,116.7244,23.3633,汕头市,龙湖子站,,20,20,33,8,21,44,,,,11,17,8,7,0.9,0.8
2024-08-26T0300,1676A,116.7258,23.2775,汕头市,濠江子站,,32,,28,22,26,41,,,,16,15,6,6,0.7,0.8
2024-08-26T0300,1677A,116.7519,23.4714,汕头市,澄海子站,,39,32,43,27,34,40,,,,28,23,10,8,1.0,1
2024-08-26T0300,1678A,116.6092,23.2539,汕头市,潮阳子站,,35,35,32,7,18,38,,,,13,9,6,6,0.7,0.8
2024-08-26T0300,3444A,116.454,23.2684,汕头市,潮南峡山,,37,37,40,16,23,24,,,,10,8,5,5,0.7,0.8
2024-08-26T0300,3624A,116.4069,23.2533,汕头市,潮南子站,颗粒物(PM10),53,55,51,35,28,21,,,,19,17,5,4,0.9,0.8
2024-08-26T0300,1693A,115.3653,22.775,汕尾市,市环保局,,26,26,21,16,14,44,,,,12,15,6,6,0.6,0.6
2024-08-26T0300,1694A,115.3706,22.7898,汕尾市,市政府,,27,27,23,17,15,39,,,,10,13,5,6,0.5,0.4
2024-08-26T0300,1695A,115.3622,22.7925,汕尾市,新城中学,,28,28,26,12,13,35,,,,7,12,6,6,0.7,0.6
2024-08-26T0300,2645A,109.9154,33.8715,商洛市,监测站,,31,31,34,18,20,66,,,,12,9,3,3,0.6,0.7
2024-08-26T0300,3045A,109.9643,33.8471,商洛市,商州区中学,,30,30,39,19,22,47,,,,17,12,5,4,0.7,0.7
2024-08-26T0300,2408A,115.6702,34.4285,商丘市,环境监测站,,50,50,57,23,28,96,,,,9,10,8,5,0.6,0.7
2024-08-26T0300,2409A,115.6458,34.4045,商丘市,粮食局,,40,40,51,28,30,106,,,,4,7,7,6,0.7,0.7
2024-08-26T0300,2410A,115.6293,34.3948,商丘市,睢阳区环保局,,47,47,56,30,30,103,,,,5,7,6,5,0.6,0.6
2024-08-26T0300,3171A,115.6071,34.4465,商丘市,梁园区档案局,,44,44,48,28,28,118,,,,3,7,8,6,0.6,0.6
2024-08-26T0300,1141A,121.4,31.238,上海市,普陀,,22,22,28,11,14,40,,,,14,16,5,5,0.3,0.4
2024-08-26T0300,1142A,121.478,31.2036,上海市,十五厂,,20,20,26,12,16,40,,,,14,15,8,8,0.4,0.4
2024-08-26T0300,1143A,121.467,31.3008,上海市,虹口,,22,22,27,10,15,41,,,,14,15,9,9,0.5,0.6
2024-08-26T0300,1144A,121.412,31.1654,上海市,徐汇上师大,,24,24,34,10,19,39,,,,18,18,5,5,0.7,0.7
2024-08-26T0300,1145A,121.536,31.2659,上海市,杨浦四漂,,18,18,32,8,14,40,,,,15,17,6,7,0.6,0.4
2024-08-26T0300,1147A,121.425,31.2261,上海市,静安监测站,,20,20,25,12,14,42,,,,12,14,6,6,0.6,0.6
2024-08-26T0300,1148A,121.703,31.1907,上海市,浦东川沙,,,35,26,,14,36,,,,18,21,6,6,0.5,0.6
2024-08-26T0300,1149A,121.533,31.2284,上海市,浦东新区监测站,,23,22,24,16,14,39,,,,17,18,6,6,0.4,0.4
2024-08-26T0300,1150A,121.577,31.2071,上海市,浦东张江,,26,26,27,13,19,38,,,,15,19,5,5,0.7,0.8
2024-08-26T0300,3265A,121.4316,31.3322,上海市,宝山庙行,,17,17,23,9,14,46,,,,14,17,6,7,0.4,0.4
2024-08-26T0300,3266A,121.8791,31.4662,上海市,崇明上实东滩,,12,12,14,7,9,38,,,,18,11,9,8,0.7,0.7
2024-08-26T0300,3268A,121.3162,31.2838,上海市,嘉定南翔,,21,21,26,10,15,35,,,,20,19,7,6,0.5,0.5
2024-08-26T0300,3269A,121.3359,30.7456,上海市,金山新城,,18,17,21,12,14,47,,,,14,11,7,6,0.8,0.6
2024-08-26T0300,3270A,121.4996,31.0739,上海市,闵行浦江,,22,18,24,15,17,42,,,,13,16,6,6,0.7,0.7
2024-08-26T0300,3271A,121.2886,31.1663,上海市,青浦徐泾,,17,17,26,11,17,43,,,,12,16,6,7,0.4,0.5
2024-08-26T0300,3272A,121.2186,31.0378,上海市,松江图书馆,,19,19,25,11,16,39,,,,13,16,6,6,0.6,0.6
2024-08-26T0300,3273A,121.3902,31.2059,上海市,长宁仙霞,,21,21,25,10,15,43,,,,14,15,7,8,0.6,0.6
2024-08-26T0300,3274A,121.7965,31.0507,上海市,浦东惠南,,25,25,25,16,14,39,,,,10,10,7,7,0.5,0.5
2024-08-26T0300,3544A,121.4891,30.925,上海市,奉贤南桥新城,,16,16,21,9,15,44,,,,12,16,8,8,0.4,0.5
2024-08-26T0300,2381A,118.005,28.4572,上饶市,百草园,细颗粒物(PM2.5),65,59,40,47,26,48,,,,14,9,13,13,0.9,0.9
2024-08-26T0300,2382A,117.9756,28.4436,上饶市,市监测站,细颗粒物(PM2.5),64,68,45,46,29,36,,,,23,14,46,16,0.8,0.7
2024-08-26T0300,2383A,117.9519,28.4628,上饶市,凤凰光学,细颗粒物(PM2.5),52,47,45,36,27,61,,,,15,13,47,28,1.0,0.9
2024-08-26T0300,3413A,118.1953,28.4401,上饶市,广丰区教体局,,22,22,29,14,18,58,,,,7,7,4,3,0.7,0.8
2024-08-26T0300,3685A,117.897,28.4315,上饶市,双创科技城,,49,49,47,32,27,49,,,,34,20,27,21,0.9,0.8
2024-08-26T0300,1669A,113.5824,24.7733,韶关市,市八中,,17,17,30,8,18,8,,,,8,11,10,15,0.6,0.7
2024-08-26T0300,1671A,113.5917,24.7972,韶关市,园林处,,21,21,26,12,18,14,,,,10,10,13,15,0.5,0.6
2024-08-26T0300,1672A,113.6735,24.7791,韶关市,韶关学院,,25,24,34,17,21,17,,,,8,11,10,15,0.4,0.7
2024-08-26T0300,1673A,113.5971,24.6863,韶关市,曲江监测站,,32,32,34,16,19,6,,,,20,14,14,16,0.5,0.7
2024-08-26T0300,3622A,113.5556,24.8082,韶关市,碧湖山庄,,21,21,34,11,19,7,,,,12,8,10,14,0.3,0.4
2024-08-26T0300,2462A,111.5239,27.3033,邵阳市,市水土所,,38,37,39,26,28,1,,,,5,6,4,7,0.6,0.5
2024-08-26T0300,2463A,111.4733,27.2317,邵阳市,市一中,,39,38,42,27,26,39,,,,12,12,9,11,0.4,0.3
2024-08-26T0300,2464A,111.5283,27.2442,邵阳市,市化工厂,,48,34,42,33,28,33,,,,9,12,8,12,0.5,0.5
2024-08-26T0300,2465A,111.4503,27.2537,邵阳市,市罐头厂,,25,24,41,17,29,37,,,,5,8,5,7,0.4,0.4
2024-08-26T0300,2466A,111.4328,27.2272,邵阳市,市环保局,,36,34,44,25,32,40,,,,6,9,5,11,0.4,0.4
2024-08-26T0300,1247A,120.6053,29.9928,绍兴市,城东开发委,,25,25,51,16,34,71,,,,8,15,6,7,0.7,0.8
2024-08-26T0300,2921A,120.5483,30.0003,绍兴市,树下王站,,28,28,45,19,31,73,,,,9,14,5,5,0.5,0.6
2024-08-26T0300,3408A,120.5683,29.9361,绍兴市,绍兴中专,,32,25,48,22,37,70,,,,12,16,3,3,0.7,0.8
2024-08-26T0300,3409A,120.4906,30.0861,绍兴市,柯桥区政府,,36,36,46,23,29,84,,,,10,14,5,5,0.7,0.8
2024-08-26T0300,3410A,120.8752,30.0249,绍兴市,重华小学,,21,21,43,14,32,56,,,,15,17,6,7,0.6,0.7
2024-08-26T0300,3411A,120.8369,30.0137,绍兴市,上虞中学,,25,23,49,17,37,43,,,,17,18,9,11,0.7,0.8
2024-08-26T0300,3560A,120.4722,30.0415,绍兴市,柯桥妇保,细颗粒物(PM2.5),54,55,52,38,37,45,,,,17,14,6,7,0.7,0.7
2024-08-26T0300,3658A,120.6153,30.0764,绍兴市,袍江中学,,32,32,44,21,28,79,,,,10,13,3,4,0.5,0.6
2024-08-26T0300,1356A,114.1063,22.5545,深圳市,通心岭子站,,18,18,16,9,9,20,,,,27,18,5,5,0.5,0.5
2024-08-26T0300,1357A,114.117,22.5625,深圳市,洪湖,,23,23,26,9,11,26,,,,25,23,7,7,0.3,0.3
2024-08-26T0300,1358A,113.987,22.5417,深圳市,华侨城,,20,20,19,3,7,13,,,,28,19,7,7,0.6,0.7
2024-08-26T0300,1359A,113.9181,22.5171,深圳市,南海子站,,15,12,22,3,10,13,,,,30,28,8,8,0.3,0.4
2024-08-26T0300,1360A,114.2458,22.5689,深圳市,盐田,,26,26,21,14,9,18,,,,20,23,6,7,0.5,0.5
2024-08-26T0300,1361A,114.2283,22.7244,深圳市,龙岗,,47,47,28,30,15,1,,,,49,27,5,5,0.9,0.6
2024-08-26T0300,1363A,114.494,22.5422,深圳市,南澳,,19,19,15,11,10,21,,,,7,10,8,8,0.4,0.3
2024-08-26T0300,1364A,114.41,22.6342,深圳市,葵涌,,27,27,24,17,13,25,,,,13,17,6,6,0.6,0.6
2024-08-26T0300,1365A,114.297,22.5978,深圳市,梅沙,,27,27,23,12,11,8,,,,32,23,5,6,0.3,0.4
2024-08-26T0300,1366A,114.0678,22.738,深圳市,观澜,颗粒物(PM10),77,104,46,39,19,16,,,,27,17,5,6,0.8,0.6
2024-08-26T0300,3305A,114.0731,22.559,深圳市,莲花,,22,22,18,12,10,16,,,,22,13,6,6,0.5,0.5
2024-08-26T0300,3306A,114.0261,22.6198,深圳市,民治,,39,39,25,14,9,3,,,,53,30,6,6,0.8,0.6
2024-08-26T0300,3307A,114.1871,22.6451,深圳市,横岗,,30,30,27,15,14,24,,,,34,29,7,7,0.6,0.6
2024-08-26T0300,3447A,114.3551,22.7151,深圳市,坪山,,45,45,33,23,18,11,,,,36,29,5,5,0.6,0.5
2024-08-26T0300,3623A,113.8953,22.5861,深圳市,西乡,,14,11,21,3,7,16,,,,28,26,7,8,0.3,0.4
2024-08-26T0300,1098A,123.6836,41.9339,沈阳市,森林路,,,,,,,,,,,,,,,,
2024-08-26T0300,1099A,123.505,41.7406,沈阳市,浑南东路,,38,38,31,13,13,6,,,,44,32,9,8,0.8,0.6
2024-08-26T0300,1100A,123.4231,41.6989,沈阳市,新秀街,,33,33,29,15,15,4,,,,46,35,6,6,0.6,0.7
2024-08-26T0300,1102A,123.5903,41.8411,沈阳市,东陵路,,27,27,25,10,10,9,,,,28,23,11,12,0.6,0.6
2024-08-26T0300,1103A,123.4264,41.8467,沈阳市,陵东街,,32,32,21,16,11,4,,,,34,28,7,7,0.8,0.7
2024-08-26T0300,1104A,123.4114,41.7653,沈阳市,文化路,,43,43,28,16,11,6,,,,42,21,10,9,0.8,0.6
2024-08-26T0300,1105A,123.4678,41.7867,沈阳市,小河沿,,29,29,26,12,10,8,,,,38,26,8,9,1.0,0.9
2024-08-26T0300,1106A,123.4017,41.7972,沈阳市,太原街,,33,32,27,23,13,7,,,,51,31,7,6,1.1,0.7
2024-08-26T0300,1108A,123.3783,41.9228,沈阳市,京沈街,细颗粒物(PM2.5),54,,18,38,16,3,,,,55,25,14,10,1.0,0.7
2024-08-26T0300,2897A,123.2444,41.7347,沈阳市,沈辽西路,颗粒物(PM10),66,81,39,26,14,6,,,,52,32,15,9,0.8,0.6
2024-08-26T0300,2900A,123.5953,41.9086,沈阳市,裕农路,,22,22,19,9,9,13,,,,26,22,6,6,0.8,0.6
2024-08-26T0300,2428A,111.0419,32.395,十堰市,武当山,,26,19,27,18,21,78,,,,5,5,11,12,0.8,0.8
2024-08-26T0300,2429A,110.78,32.6494,十堰市,滨河新村,,34,34,38,14,20,59,,,,12,9,9,8,0.8,0.6
2024-08-26T0300,2430A,110.7258,32.6389,十堰市,刘家沟,,,38,38,,23,44,,,,10,9,3,3,0.8,0.8
2024-08-26T0300,2431A,110.8839,32.5714,十堰市,铁二处,,40,,29,28,26,38,,,,8,10,8,8,0.6,0.4
