timepoint,stationcode,longitude,latitude,area,positionname,primarypollutant,aqi,pm10,pm10_24h,pm2_5,pm2_5_24h,o3,o3_24h,o3_8h,o3_8h_24h,no2,no2_24h,so2,so2_24h,co,co_24h
2022-03-10T02:00:00,1001A,116.3621,39.8784,北京市,万寿西宫,细颗粒物(PM2.5),209,238,186,159,120,117,35,30,30,53,61,3,7,1.1,1.1
2022-03-10T02:00:00,1002A,116.2202,40.2915,北京市,定陵(对照点),细颗粒物(PM2.5),180,200,163,136,105,153,76,82,79,21,28,3,8,1.1,1
2022-03-10T02:00:00,1003A,116.4174,39.9289,北京市,东四,细颗粒物(PM2.5),198,253,191,148,113,132,26,26,26,57,55,6,9,1.1,1.1
2022-03-10T02:00:00,1004A,116.4072,39.8863,北京市,天坛,细颗粒物(PM2.5),208,238,187,158,116,132,38,36,36,44,56,3,7,1.3,1.2
2022-03-10T02:00:00,1005A,116.462,39.9365,北京市,农展馆,细颗粒物(PM2.5),204,255,195,154,118,141,28,27,27,58,63,6,8,1.3,1.2
2022-03-10T02:00:00,1006A,116.3392,39.9295,北京市,官园,细颗粒物(PM2.5),209,255,190,159,118,132,22,27,24,62,64,6,10,1.3,1.2
2022-03-10T02:00:00,1007A,116.2878,39.9611,北京市,海淀万柳,细颗粒物(PM2.5),193,237,189,145,112,128,10,17,14,88,72,1,7,1.3,1.2
2022-03-10T02:00:00,1008A,116.6636,40.135,北京市,顺义新城,细颗粒物(PM2.5),189,237,188,142,108,140,67,76,72,33,44,5,7,1.2,1
2022-03-10T02:00:00,1009A,116.6275,40.3275,北京市,怀柔镇,,,,144,135,104,154,76,81,78,22,30,5,6,1.0,0.9
2022-03-10T02:00:00,1010A,116.2296,40.217,北京市,昌平镇,细颗粒物(PM2.5),190,222,172,143,111,154,71,82,76,31,39,3,7,1.1,1.2
2022-03-10T02:00:00,1011A,116.3966,39.9821,北京市,奥体中心,细颗粒物(PM2.5),216,252,187,166,120,137,19,22,20,73,67,3,8,1.4,1.2
2022-03-10T02:00:00,1012A,116.184,39.9136,北京市,古城,细颗粒物(PM2.5),203,255,186,153,105,139,20,17,17,78,58,3,6,1.4,1.1
2022-03-10T02:00:00,1015A,117.1444,39.1661,天津市,勤俭道,细颗粒物(PM2.5),132,170,204,100,116,116,1,1,1,89,83,9,15,1.2,1.4
2022-03-10T02:00:00,1017A,117.237,39.1082,天津市,大直沽八号路,细颗粒物(PM2.5),137,164,184,104,115,117,0,1,0,95,82,12,16,1.9,1.4
2022-03-10T02:00:00,1018A,117.202,39.0927,天津市,前进道,细颗粒物(PM2.5),133,173,191,101,112,103,2,2,2,97,84,9,14,1.1,1.3
2022-03-10T02:00:00,1019A,117.1837,39.2133,天津市,淮河道,细颗粒物(PM2.5),150,177,204,115,123,109,1,3,2,83,88,8,15,1.2,1.4
2022-03-10T02:00:00,1021A,117.307,39.0877,天津市,跃进路,细颗粒物(PM2.5),145,168,188,111,118,104,0,2,1,89,81,9,13,1.3,1.2
2022-03-10T02:00:00,1023A,117.707,39.0343,天津市,第四大街,细颗粒物(PM2.5),148,177,156,113,99,45,0,1,0,90,90,11,13,0.9,1
2022-03-10T02:00:00,1024A,117.457,38.8394,天津市,永明路,细颗粒物(PM2.5),158,180,142,120,99,80,0,2,1,91,59,10,10,0.8,0.8
2022-03-10T02:00:00,1026A,117.764,39.1587,天津市,汉北路,细颗粒物(PM2.5),120,126,133,91,92,83,24,28,26,43,54,7,10,1.0,1.2
2022-03-10T02:00:00,1027A,117.157,38.9194,天津市,团泊洼(对照点),细颗粒物(PM2.5),147,160,166,112,105,122,0,0,0,88,78,8,11,1.0,1.1
2022-03-10T02:00:00,1029A,114.4422,38.0444,石家庄市,职工医院,细颗粒物(PM2.5),144,223,198,110,98,143,6,12,9,128,67,8,10,0.9,0.8
2022-03-10T02:00:00,1030A,114.6063,38.0266,石家庄市,高新区,细颗粒物(PM2.5),172,230,194,130,84,141,51,69,60,72,48,14,13,1.1,0.9
2022-03-10T02:00:00,1031A,114.4898,38.1328,石家庄市,西北水源,颗粒物(PM10),153,256,210,110,93,141,35,45,40,73,50,10,10,1.1,1
2022-03-10T02:00:00,1032A,114.4586,38.0058,石家庄市,西南高教,颗粒物(PM10),129,208,191,96,87,136,4,30,17,100,55,8,9,1.1,1
2022-03-10T02:00:00,1033A,114.5331,38.0178,石家庄市,世纪公园,细颗粒物(PM2.5),147,193,180,112,93,138,58,78,68,46,45,12,13,1.0,0.8
2022-03-10T02:00:00,1034A,114.509,38.0457,石家庄市,人民会堂,细颗粒物(PM2.5),149,214,184,114,96,144,43,76,60,69,48,13,12,1.1,0.9
2022-03-10T02:00:00,1035A,114.3524,37.8911,石家庄市,封龙山(对照点),颗粒物(PM10),115,180,180,66,77,152,130,134,132,17,25,16,17,1.2,1
2022-03-10T02:00:00,1037A,118.131,39.6363,唐山市,雷达站,细颗粒物(PM2.5),140,141,154,107,105,155,62,60,60,28,42,12,14,2.3,1.8
2022-03-10T02:00:00,1038A,118.1725,39.6334,唐山市,物资局,细颗粒物(PM2.5),128,140,152,97,97,141,52,57,54,38,54,18,19,2.4,1.8
2022-03-10T02:00:00,1040A,118.1705,39.6506,唐山市,十二中,细颗粒物(PM2.5),156,183,186,119,110,134,32,52,42,38,49,12,14,2.7,1.7
2022-03-10T02:00:00,1041A,118.1869,39.622,唐山市,小山,细颗粒物(PM2.5),110,146,158,83,90,159,51,60,56,49,57,12,14,2.2,1.7
2022-03-10T02:00:00,1042A,119.5134,39.8207,秦皇岛市,北戴河环保局,细颗粒物(PM2.5),79,77,84,58,66,113,105,100,100,22,41,7,7,0.7,0.9
2022-03-10T02:00:00,1043A,119.7493,40.0116,秦皇岛市,第一关,细颗粒物(PM2.5),113,138,124,85,94,100,100,88,88,39,56,14,20,0.4,0.7
2022-03-10T02:00:00,1044A,119.5897,39.9499,秦皇岛市,监测站,细颗粒物(PM2.5),104,126,122,78,89,91,64,34,34,61,62,12,9,0.5,0.7
2022-03-10T02:00:00,1046A,119.5251,39.9041,秦皇岛市,建设大厦,颗粒物(PM10),87,124,123,60,80,114,114,86,86,33,56,6,8,0.5,0.9
2022-03-10T02:00:00,1048A,114.5302,36.6116,邯郸市,东污水处理厂,颗粒物(PM10),109,168,180,65,76,134,74,72,72,29,36,12,9,0.8,0.5
2022-03-10T02:00:00,1049A,114.4918,36.5713,邯郸市,矿院,颗粒物(PM10),121,191,204,63,74,144,71,68,68,26,33,8,9,0.8,0.6
2022-03-10T02:00:00,1050A,114.484,36.6133,邯郸市,丛台公园,颗粒物(PM10),114,177,192,52,65,141,92,87,87,15,28,8,7,0.6,0.6
2022-03-10T02:00:00,1051A,115.493,38.8632,保定市,游泳馆,细颗粒物(PM2.5),183,269,204,138,109,146,2,8,5,128,60,16,15,0.8,0.7
2022-03-10T02:00:00,1052A,115.5213,38.8959,保定市,华电二区,颗粒物(PM10),189,327,248,115,101,146,3,10,6,120,54,17,15,1.0,0.9
2022-03-10T02:00:00,1053A,115.4713,38.9108,保定市,接待中心,颗粒物(PM10),146,241,183,100,96,150,38,53,46,81,57,11,13,1.4,1.2
2022-03-10T02:00:00,1054A,115.4612,38.8416,保定市,地表水厂,颗粒物(PM10),175,300,208,111,83,153,7,6,6,135,68,16,16,1.0,0.8
2022-03-10T02:00:00,1055A,115.4323,38.8697,保定市,胶片厂,细颗粒物(PM2.5),179,273,214,135,97,153,2,14,8,107,58,14,13,1.1,1
2022-03-10T02:00:00,1056A,115.5086,38.8639,保定市,监测站,细颗粒物(PM2.5),170,278,190,129,100,146,4,6,5,130,63,14,11,1.2,1
2022-03-10T02:00:00,1057A,114.8883,40.8336,张家口市,人民公园,颗粒物(PM10),88,126,107,64,48,153,95,92,92,18,22,6,9,0.9,0.9
2022-03-10T02:00:00,1059A,114.8687,40.8042,张家口市,五金库,细颗粒物(PM2.5),89,122,112,66,52,156,97,94,94,22,29,9,10,0.9,0.9
2022-03-10T02:00:00,1060A,114.8902,40.762,张家口市,世纪豪园,细颗粒物(PM2.5),95,126,115,71,62,152,96,94,94,22,27,5,7,0.7,0.7
2022-03-10T02:00:00,1061A,114.8916,40.8661,张家口市,北泵房(对照点),细颗粒物(PM2.5),85,116,97,63,54,158,94,93,93,17,19,8,12,0.6,0.7
2022-03-10T02:00:00,1062A,117.9531,40.9081,承德市,铁路,颗粒物(PM10),101,151,112,75,49,156,39,36,36,50,43,9,10,1.1,0.8
2022-03-10T02:00:00,1063A,117.9392,40.9763,承德市,中国银行,细颗粒物(PM2.5),112,163,117,84,52,159,24,29,26,51,36,6,7,1.2,0.8
2022-03-10T02:00:00,1064A,117.9503,40.928,承德市,开发区,颗粒物(PM10),98,146,102,66,44,170,46,38,38,45,42,10,11,1.2,0.9
2022-03-10T02:00:00,1065A,117.8051,40.9655,承德市,文化中心,细颗粒物(PM2.5),120,175,118,91,55,153,44,44,44,40,36,6,9,1.4,0.9
2022-03-10T02:00:00,1066A,117.9268,41.0026,承德市,离宫(对照点),颗粒物(PM10),107,163,102,76,45,167,66,76,71,35,20,11,12,0.9,0.6
2022-03-10T02:00:00,1067A,116.6708,39.5111,廊坊市,药材公司,细颗粒物(PM2.5),156,173,199,119,116,120,10,9,9,79,86,8,13,1.2,1.4
2022-03-10T02:00:00,1068A,116.7214,39.5589,廊坊市,开发区,细颗粒物(PM2.5),166,169,194,126,119,107,22,22,22,55,86,7,11,1.1,1.2
2022-03-10T02:00:00,1070A,116.7244,39.5269,廊坊市,北华航天学院,细颗粒物(PM2.5),175,186,207,132,129,112,17,16,16,62,81,7,13,1.1,1.3
2022-03-10T02:00:00,1071A,116.8842,38.2991,沧州市,沧县城建局,颗粒物(PM10),96,142,151,48,68,140,77,75,75,29,39,8,9,0.4,0.4
2022-03-10T02:00:00,1072A,116.8584,38.3254,沧州市,电视转播站,颗粒物(PM10),104,157,165,42,65,138,88,94,91,26,41,9,12,0.5,0.5
2022-03-10T02:00:00,1073A,116.8709,38.3228,沧州市,市环保局,颗粒物(PM10),84,118,137,48,68,141,77,89,83,28,38,10,13,0.5,0.6
2022-03-10T02:00:00,1074A,115.6838,37.7541,衡水市,电机北厂,颗粒物(PM10),90,130,162,50,58,138,113,110,110,18,39,6,8,0.5,0.4
2022-03-10T02:00:00,1075A,115.6303,37.7316,衡水市,市监测站,颗粒物(PM10),118,186,238,47,56,134,94,92,92,16,30,12,16,0.3,0.4
2022-03-10T02:00:00,1077A,114.4704,37.0886,邢台市,达活泉,颗粒物(PM10),144,238,218,65,80,139,60,71,66,45,32,19,14,1.8,0.9
2022-03-10T02:00:00,1078A,114.5062,37.0349,邢台市,邢师高专,颗粒物(PM10),135,219,211,68,84,143,71,79,75,33,33,9,11,1.2,0.8
2022-03-10T02:00:00,1079A,114.5237,37.0851,邢台市,路桥公司,颗粒物(PM10),121,191,185,61,73,143,75,83,79,31,31,12,12,1.4,0.8
2022-03-10T02:00:00,1080A,114.4725,37.0719,邢台市,市环保局,颗粒物(PM10),116,181,186,61,78,141,62,70,66,45,31,12,9,1.6,0.8
2022-03-10T02:00:00,1081A,112.5139,37.8873,太原市,尖草坪,细颗粒物(PM2.5),159,227,188,121,95,135,6,8,7,108,71,15,15,1.3,1
2022-03-10T02:00:00,1083A,112.434,38.0108,太原市,上兰(对照点),细颗粒物(PM2.5),84,116,116,62,64,117,79,82,80,25,30,12,12,0.8,0.7
2022-03-10T02:00:00,1084A,112.469,37.7124,太原市,晋源,细颗粒物(PM2.5),166,225,184,126,92,114,7,8,8,107,83,22,22,1.9,1.3
2022-03-10T02:00:00,1085A,112.5583,37.7394,太原市,小店,细颗粒物(PM2.5),183,259,187,138,91,126,2,2,2,125,83,18,20,1.5,1.4
2022-03-10T02:00:00,1086A,112.5369,37.8692,太原市,桃园,细颗粒物(PM2.5),178,267,183,134,82,135,6,6,6,130,81,16,18,1.6,1.1
2022-03-10T02:00:00,1087A,112.57,37.8195,太原市,坞城,细颗粒物(PM2.5),149,210,164,114,86,136,8,9,8,121,71,20,18,1.5,1.1
2022-03-10T02:00:00,1088A,112.549,37.9854,太原市,南寨,颗粒物(PM10),136,222,163,92,70,128,2,2,2,93,70,9,12,1.3,1.2
2022-03-10T02:00:00,1090A,111.6507,40.7517,呼和浩特市,呼市一监,细颗粒物(PM2.5),127,197,131,96,57,112,12,12,12,91,56,17,21,1.2,0.9
2022-03-10T02:00:00,1091A,111.6572,40.8033,呼和浩特市,小召,细颗粒物(PM2.5),115,156,120,87,61,111,21,23,22,81,61,16,19,1.1,0.9
2022-03-10T02:00:00,1094A,111.7516,40.8369,呼和浩特市,如意水处理厂,细颗粒物(PM2.5),97,134,92,72,44,119,8,25,16,91,61,15,17,1.1,0.7
2022-03-10T02:00:00,1095A,111.7276,40.8062,呼和浩特市,二十九中,颗粒物(PM10),115,179,124,75,48,108,34,30,30,59,47,14,19,1.1,0.9
2022-03-10T02:00:00,1096A,111.5512,40.7866,呼和浩特市,工大金川校区,细颗粒物(PM2.5),117,175,120,88,52,131,32,31,31,,39,16,21,0.8,0.7
2022-03-10T02:00:00,1097A,111.717,40.7612,呼和浩特市,化肥厂生活区,颗粒物(PM10),119,188,126,83,70,103,18,17,17,69,49,18,26,1.5,1.2
2022-03-10T02:00:00,1098A,123.6836,41.9339,沈阳市,森林路(对照点),颗粒物(PM10),60,69,121,39,78,102,102,102,102,25,44,17,26,1.0,1.5
2022-03-10T02:00:00,1099A,123.505,41.7406,沈阳市,浑南东路,颗粒物(PM10),70,89,127,47,86,108,105,108,106,22,49,14,27,0.7,1.4
2022-03-10T02:00:00,1100A,123.4231,41.6989,沈阳市,新秀街,颗粒物(PM10),69,88,123,43,77,111,111,110,110,21,53,13,29,0.7,1.4
2022-03-10T02:00:00,1102A,123.5903,41.8411,沈阳市,东陵路,颗粒物(PM10),66,81,118,40,81,99,99,94,94,22,46,16,26,0.9,1.5
2022-03-10T02:00:00,1103A,123.4264,41.8467,沈阳市,陵东街,颗粒物(PM10),60,70,109,36,69,125,125,123,123,19,57,11,22,0.6,1.4
2022-03-10T02:00:00,1104A,123.4114,41.7653,沈阳市,文化路,颗粒物(PM10),71,92,128,49,88,125,125,122,122,14,44,11,25,0.7,1.5
2022-03-10T02:00:00,1105A,123.4678,41.7867,沈阳市,小河沿,颗粒物(PM10),67,84,128,43,80,102,102,100,100,22,52,17,25,0.9,1.5
2022-03-10T02:00:00,1106A,123.4017,41.7972,沈阳市,太原街,颗粒物(PM10),70,89,130,50,89,118,118,117,117,18,53,13,31,0.6,1.4
2022-03-10T02:00:00,1108A,123.3783,41.9228,沈阳市,京沈街,颗粒物(PM10),68,86,127,45,84,124,124,122,122,22,49,16,28,0.8,1.4
2022-03-10T02:00:00,1109A,121.612,38.9741,大连市,甘井子,细颗粒物(PM2.5),60,65,73,43,51,113,74,81,78,30,29,4,5,0.6,0.6
2022-03-10T02:00:00,1110A,121.565,38.9511,大连市,周水子,颗粒物(PM10),76,102,98,45,56,106,75,88,82,19,24,7,10,0.5,0.6
2022-03-10T02:00:00,1111A,121.5637,38.8845,大连市,星海三站,细颗粒物(PM2.5),88,85,82,65,66,113,93,93,93,21,26,5,7,0.6,0.7
2022-03-10T02:00:00,1112A,121.6302,38.9117,大连市,青泥洼桥,细颗粒物(PM2.5),69,85,76,50,50,121,74,87,80,26,25,9,9,0.8,0.8
2022-03-10T02:00:00,1113A,121.6251,38.8638,大连市,傅家庄,细颗粒物(PM2.5),79,78,66,58,50,113,87,86,86,25,21,8,6,0.6,0.5
2022-03-10T02:00:00,1114A,121.5213,38.8661,大连市,七贤岭,细颗粒物(PM2.5),69,83,86,50,59,127,89,93,91,20,22,11,12,0.7,0.7
2022-03-10T02:00:00,1115A,121.2529,38.8061,大连市,旅顺,细颗粒物(PM2.5),67,72,57,48,51,123,105,104,104,22,18,10,7,1.0,1
2022-03-10T02:00:00,1116A,121.7485,39.1311,大连市,金州,细颗粒物(PM2.5),72,69,71,52,48,115,83,91,87,21,30,4,6,0.7,0.8
2022-03-10T02:00:00,1117A,121.7811,39.0496,大连市,开发区,细颗粒物(PM2.5),62,66,69,44,52,106,73,79,76,24,28,5,5,0.5,0.6
2022-03-10T02:00:00,1118A,121.9762,39.0631,大连市,双D港,颗粒物(PM10),58,65,60,33,44,114,73,81,77,29,26,5,6,0.8,0.9
2022-03-10T02:00:00,1119A,125.3325,43.9166,长春市,食品厂,颗粒物(PM10),53,55,103,35,75,104,72,74,73,20,47,13,19,0.6,0.9
2022-03-10T02:00:00,1120A,125.2863,43.9027,长春市,客车厂,颗粒物(PM10),53,55,101,31,69,103,72,70,70,16,40,10,19,0.7,0.8
2022-03-10T02:00:00,1121A,125.2841,43.8463,长春市,邮电学院,颗粒物(PM10),58,66,117,32,65,107,60,64,62,29,46,7,10,0.8,1
2022-03-10T02:00:00,1122A,125.3716,43.8772,长春市,劳动公园,颗粒物(PM10),52,53,109,31,75,104,75,76,76,17,49,6,10,0.5,1
2022-03-10T02:00:00,1123A,125.3297,43.8805,长春市,园林处,颗粒物(PM10),53,56,94,31,67,108,78,79,78,17,41,11,12,0.6,0.9
2022-03-10T02:00:00,1124A,125.4605,43.79,长春市,净月潭,,50,50,73,25,56,125,80,79,79,15,26,8,8,0.5,0.7
2022-03-10T02:00:00,1125A,125.7194,43.515,长春市,甩湾子(对照点),,40,40,96,19,60,110,83,83,83,8,18,9,10,0.5,0.8
2022-03-10T02:00:00,1126A,125.3863,43.8447,长春市,经开区环卫处,,46,46,90,29,60,107,75,72,72,9,34,13,12,0.6,0.8
2022-03-10T02:00:00,1127A,125.245,43.7783,长春市,高新区管委会,细颗粒物(PM2.5),53,50,86,37,69,126,65,64,64,19,36,7,7,0.5,0.7
2022-03-10T02:00:00,1128A,125.1761,43.8325,长春市,岱山公园,颗粒物(PM10),55,60,104,31,66,112,72,72,72,20,39,6,7,0.4,0.7
2022-03-10T02:00:00,1129A,126.5422,45.755,哈尔滨市,岭北(对照点),细颗粒物(PM2.5),62,69,101,44,73,130,94,100,97,22,44,11,17,0.5,0.8
2022-03-10T02:00:00,1130A,126.561,45.8167,哈尔滨市,松北商大,,50,48,78,35,68,126,98,105,102,16,46,8,12,0.7,1
2022-03-10T02:00:00,1131A,126.979,45.5419,哈尔滨市,阿城会宁,,48,48,74,26,52,121,102,105,104,13,29,12,19,1.3,1.6
2022-03-10T02:00:00,1132A,126.599,45.7222,哈尔滨市,南岗学府路,细颗粒物(PM2.5),59,56,102,42,87,103,89,92,90,22,56,15,26,0.3,0.5
2022-03-10T02:00:00,1133A,126.689,45.7733,哈尔滨市,太平宏伟公园,颗粒物(PM10),55,60,127,30,118,99,90,94,92,22,50,13,29,0.7,1.5
2022-03-10T02:00:00,1134A,126.635,45.7667,哈尔滨市,道外承德广场,颗粒物(PM10),53,56,117,32,82,105,90,90,90,21,59,16,34,0.7,1.4
2022-03-10T02:00:00,1135A,126.685,45.7319,哈尔滨市,香坊红旗大街,颗粒物(PM10),65,80,131,31,76,94,90,92,91,18,53,15,26,0.7,1.3
2022-03-10T02:00:00,1136A,126.6411,45.7258,哈尔滨市,动力和平路,颗粒物(PM10),52,53,92,31,75,96,85,88,86,20,46,20,26,0.5,1
2022-03-10T02:00:00,1137A,126.593,45.7478,哈尔滨市,道里建国路,颗粒物(PM10),51,52,101,34,81,101,95,94,94,17,59,22,31,0.8,1.5
2022-03-10T02:00:00,1138A,126.615,45.61,哈尔滨市,平房东轻厂,细颗粒物(PM2.5),52,52,81,36,68,117,94,98,96,10,23,17,26,0.9,1.1
2022-03-10T02:00:00,1139A,126.595,45.9855,哈尔滨市,呼兰师专,颗粒物(PM10),53,56,105,35,102,107,82,86,84,22,51,14,21,0.9,1.4
2022-03-10T02:00:00,1140A,126.6206,45.6842,哈尔滨市,省农科院,颗粒物(PM10),60,69,112,30,90,111,88,93,90,16,45,13,20,0.8,1.2
2022-03-10T02:00:00,1141A,121.4,31.238,上海市,普陀,颗粒物(PM10),67,83,82,32,35,141,133,133,133,19,36,3,9,0.7,0.7
2022-03-10T02:00:00,1142A,121.478,31.2036,上海市,十五厂,颗粒物(PM10),72,93,91,36,43,130,123,122,122,19,38,5,6,0.5,0.6
2022-03-10T02:00:00,1143A,121.467,31.3008,上海市,虹口,颗粒物(PM10),69,88,82,34,35,120,120,120,120,14,31,5,5,0.6,0.7
2022-03-10T02:00:00,1144A,121.412,31.1654,上海市,徐汇上师大,颗粒物(PM10),66,82,84,35,38,136,124,125,124,17,38,6,9,0.6,0.6
2022-03-10T02:00:00,1145A,121.536,31.2659,上海市,杨浦四漂,颗粒物(PM10),64,78,79,38,40,115,110,108,108,27,42,6,7,0.4,0.5
2022-03-10T02:00:00,1147A,121.425,31.2261,上海市,静安监测站,颗粒物(PM10),69,87,83,35,37,132,127,127,127,19,38,5,7,0.4,0.5
2022-03-10T02:00:00,1148A,121.703,31.1907,上海市,浦东川沙,颗粒物(PM10),65,79,80,40,41,127,119,115,115,25,46,4,5,0.4,0.4
2022-03-10T02:00:00,1149A,121.533,31.2284,上海市,浦东新区监测站,颗粒物(PM10),70,90,80,37,38,127,114,115,114,25,34,5,5,0.5,0.5
2022-03-10T02:00:00,1150A,121.577,31.2071,上海市,浦东张江,颗粒物(PM10),68,85,81,34,40,110,102,102,102,30,40,4,5,0.6,0.6
2022-03-10T02:00:00,1151A,118.8086,32.1065,南京市,迈皋桥,颗粒物(PM10),64,77,95,19,31,176,79,89,84,26,41,5,4,0.3,0.5
2022-03-10T02:00:00,1152A,118.7538,32.0551,南京市,草场门,颗粒物(PM10),56,61,83,17,30,170,80,95,88,22,38,6,7,0.4,0.5
2022-03-10T02:00:00,1153A,118.7794,32.0745,南京市,山西路,颗粒物(PM10),59,68,90,24,32,179,94,104,99,24,28,3,4,0.2,0.3
2022-03-10T02:00:00,1154A,118.7752,32.0023,南京市,中华门,颗粒物(PM10),59,67,98,22,34,168,84,95,90,18,27,4,4,0.6,0.7
2022-03-10T02:00:00,1155A,118.8109,32.0309,南京市,瑞金路,颗粒物(PM10),58,65,90,24,36,172,84,95,90,25,35,5,5,0.3,0.4
2022-03-10T02:00:00,1156A,118.7997,32.0754,南京市,玄武湖,颗粒物(PM10),60,69,79,24,30,180,77,100,88,39,29,4,4,0.8,0.8
2022-03-10T02:00:00,1157A,118.6414,32.0931,南京市,浦口,颗粒物(PM10),60,70,95,14,26,161,80,77,77,49,56,2,2,0.9,1
2022-03-10T02:00:00,1158A,118.7356,31.9996,南京市,奥体中心,颗粒物(PM10),56,61,95,29,37,174,88,99,94,20,30,6,8,0.4,0.5
2022-03-10T02:00:00,1159A,118.9125,32.1028,南京市,仙林大学城,颗粒物(PM10),53,56,90,22,34,198,89,102,96,22,26,6,8,0.5,0.6
2022-03-10T02:00:00,1160A,120.561,31.2472,苏州市,上方山(对照点),细颗粒物(PM2.5),60,67,72,43,45,158,101,102,102,15,29,5,6,0.6,0.6
2022-03-10T02:00:00,1162A,120.591,31.3019,苏州市,彩香,颗粒物(PM10),53,56,59,32,35,160,111,110,110,12,28,6,7,0.6,0.6
2022-03-10T02:00:00,1163A,120.596,31.3264,苏州市,轧钢厂,颗粒物(PM10),66,81,75,41,38,150,111,110,110,12,31,5,8,0.5,0.6
2022-03-10T02:00:00,1164A,120.613,31.2703,苏州市,吴中区,细颗粒物(PM2.5),57,58,63,40,36,157,108,107,107,12,31,3,5,0.5,0.5
2022-03-10T02:00:00,1165A,120.543,31.2994,苏州市,苏州新区,颗粒物(PM10),70,90,76,40,38,162,109,108,108,10,26,8,9,0.4,0.7
2022-03-10T02:00:00,1166A,120.669,31.3097,苏州市,苏州工业园区,颗粒物(PM10),53,55,59,31,34,147,109,108,108,16,33,6,8,0.5,0.6
2022-03-10T02:00:00,1167A,120.641,31.3708,苏州市,相城区,颗粒物(PM10),68,85,76,40,35,131,104,107,106,18,42,5,6,0.7,0.7
2022-03-10T02:00:00,1168A,120.9098,31.9663,南通市,狼山街道,颗粒物(PM10),62,73,81,27,35,160,98,96,96,27,37,6,7,0.5,0.5
2022-03-10T02:00:00,1169A,120.86,32.0005,南通市,虹桥,颗粒物(PM10),61,72,85,35,36,142,87,84,84,26,39,5,8,0.5,0.5
2022-03-10T02:00:00,1170A,120.87,32.02,南通市,城中,颗粒物(PM10),66,81,92,33,34,141,84,82,82,23,31,9,11,0.5,0.5
2022-03-10T02:00:00,1171A,120.94,31.93,南通市,星湖花园,颗粒物(PM10),65,80,76,41,36,155,89,88,88,33,45,3,5,0.4,0.5
2022-03-10T02:00:00,1172A,120.81,32.0417,南通市,紫琅学院,颗粒物(PM10),54,57,68,29,34,139,91,91,91,27,42,7,9,0.4,0.4
2022-03-10T02:00:00,1173A,119.176,34.5885,连云港市,市环境监测站,颗粒物(PM10),68,85,141,41,66,179,129,144,136,15,22,7,10,0.5,0.6
2022-03-10T02:00:00,1177A,117.179,34.2761,徐州市,黄河新村,颗粒物(PM10),91,132,169,63,55,171,108,122,115,31,39,10,11,0.6,0.7
2022-03-10T02:00:00,1178A,117.1918,34.2384,徐州市,淮塔,颗粒物(PM10),93,136,176,61,55,167,93,104,98,32,35,13,13,0.8,0.8
2022-03-10T02:00:00,1180A,117.256,34.2153,徐州市,新城区,颗粒物(PM10),90,129,166,59,50,164,95,102,98,33,43,10,12,0.8,0.8
2022-03-10T02:00:00,1181A,117.244,34.2911,徐州市,桃园路,颗粒物(PM10),109,168,174,70,47,174,71,120,96,50,40,15,15,0.8,0.8
2022-03-10T02:00:00,1182A,117.2933,34.2778,徐州市,农科院,细颗粒物(PM2.5),107,151,168,80,58,165,51,83,67,68,55,14,15,0.9,0.9
2022-03-10T02:00:00,1186A,119.389,32.3761,扬州市,邗江监测站,颗粒物(PM10),70,90,117,35,50,163,37,39,38,52,51,12,16,0.9,0.9
2022-03-10T02:00:00,1188A,120.269,31.4867,无锡市,雪浪,颗粒物(PM10),60,70,83,22,29,156,112,110,110,16,39,6,8,0.8,0.9
2022-03-10T02:00:00,1189A,120.275,31.6219,无锡市,黄巷,颗粒物(PM10),58,66,90,17,33,141,101,99,99,25,66,6,9,0.6,0.6
2022-03-10T02:00:00,1190A,120.294,31.56,无锡市,曹张,颗粒物(PM10),54,57,68,29,33,137,92,95,94,15,33,8,10,0.7,0.7
2022-03-10T02:00:00,1191A,120.242,31.5031,无锡市,漆塘,颗粒物(PM10),59,68,76,28,36,155,96,99,98,20,42,6,8,0.6,0.6
2022-03-10T02:00:00,1193A,120.354,31.5475,无锡市,旺庄,颗粒物(PM10),59,68,81,27,35,138,99,96,96,23,51,4,5,0.5,0.6
2022-03-10T02:00:00,1194A,120.245,31.5631,无锡市,荣巷,颗粒物(PM10),52,53,74,34,34,143,89,94,92,26,45,10,9,0.5,0.6
2022-03-10T02:00:00,1195A,120.299,31.6817,无锡市,堰桥,颗粒物(PM10),62,73,95,22,38,147,98,99,98,23,45,7,9,1.0,0.9
2022-03-10T02:00:00,1196A,119.9633,31.762,常州市,市监测站,颗粒物(PM10),76,102,110,29,46,142,77,74,74,22,54,8,11,0.7,1
2022-03-10T02:00:00,1200A,119.9468,31.7069,常州市,武进监测站,颗粒物(PM10),70,90,97,41,46,154,84,85,84,19,47,9,11,0.6,0.8
2022-03-10T02:00:00,1201A,119.9255,31.9087,常州市,安家,颗粒物(PM10),78,106,102,34,40,168,70,71,70,29,51,6,8,0.8,0.8
2022-03-10T02:00:00,1203A,119.6707,32.1875,镇江市,新区办事处,颗粒物(PM10),65,79,109,40,51,154,39,32,32,65,74,5,9,0.4,0.7
2022-03-10T02:00:00,1204A,119.4974,32.1968,镇江市,职教中心,颗粒物(PM10),65,79,110,39,53,158,56,52,52,38,59,6,19,0.6,0.8
2022-03-10T02:00:00,1205A,119.4303,32.1328,镇江市,丹徒区监测站,颗粒物(PM10),73,96,115,46,58,188,49,46,46,49,53,8,10,0.5,0.5
2022-03-10T02:00:00,1206A,119.905,32.4878,泰州市,公园路,细颗粒物(PM2.5),73,90,103,53,51,167,46,50,48,35,41,10,12,1.0,0.9
2022-03-10T02:00:00,1207A,119.9189,32.4625,泰州市,莲花,"颗粒物(PM10),细颗粒物(PM2.5)",64,78,112,46,51,170,43,48,46,38,44,5,7,0.8,0.8
2022-03-10T02:00:00,1209A,119.888,32.4639,泰州市,留学生创业园,颗粒物(PM10),95,139,120,58,48,165,48,48,48,39,41,14,14,1.1,0.9
2022-03-10T02:00:00,1210A,119.036,33.5981,淮安市,钵池山,颗粒物(PM10),61,72,121,36,59,167,62,75,68,32,34,8,10,0.6,0.8
2022-03-10T02:00:00,1211A,119.007,33.575,淮安市,北京南路,颗粒物(PM10),64,78,131,34,55,174,71,83,77,27,39,10,11,0.7,0.9
2022-03-10T02:00:00,1212A,118.989,33.6067,淮安市,市监测站,颗粒物(PM10),72,93,159,24,47,180,74,91,82,29,36,13,13,0.5,0.6
2022-03-10T02:00:00,1213A,119.135,33.5039,淮安市,楚州区监测站,颗粒物(PM10),62,73,136,26,57,176,62,74,68,26,29,9,12,0.5,0.7
2022-03-10T02:00:00,1214A,119.0186,33.6297,淮安市,淮阴区监测站,颗粒物(PM10),56,61,113,37,55,169,68,82,75,30,37,10,11,0.4,0.6
2022-03-10T02:00:00,1215A,120.118,33.4022,盐城市,盐城电厂,颗粒物(PM10),59,68,112,26,55,186,105,105,105,11,27,7,9,0.6,0.8
2022-03-10T02:00:00,1216A,120.156,33.3942,盐城市,市监测站,颗粒物(PM10),53,56,100,19,58,174,96,94,94,18,36,13,16,0.3,0.5
2022-03-10T02:00:00,1218A,120.2144,33.38,盐城市,开发区管委会,,48,48,87,23,53,166,97,95,95,17,29,4,6,0.4,0.6
2022-03-10T02:00:00,1220A,118.293,33.9528,宿迁市,宿迁学院,细颗粒物(PM2.5),89,117,139,66,67,188,77,77,77,33,41,6,9,0.9,0.9
2022-03-10T02:00:00,1221A,118.2442,33.9592,宿迁市,宿迁中学,颗粒物(PM10),92,133,159,53,61,184,86,96,91,26,33,8,10,0.5,0.6
2022-03-10T02:00:00,1223A,120.2072,30.2111,杭州市,滨江,颗粒物(PM10),61,71,75,22,29,140,2,4,3,93,62,6,7,0.7,0.7
2022-03-10T02:00:00,1224A,120.0633,30.2747,杭州市,西溪,颗粒物(PM10),51,51,65,28,35,155,5,6,6,63,55,3,4,0.4,0.4
2022-03-10T02:00:00,1226A,120.3461,30.3153,杭州市,下沙,颗粒物(PM10),78,105,89,49,40,156,5,4,4,97,70,8,8,0.6,0.7
2022-03-10T02:00:00,1227A,120.1269,30.2456,杭州市,卧龙桥,颗粒物(PM10),56,61,75,31,40,142,2,2,2,43,40,6,7,0.6,0.6
2022-03-10T02:00:00,1228A,120.1903,30.2692,杭州市,浙江农大,颗粒物(PM10),68,85,78,32,39,152,4,4,4,77,55,6,7,0.6,0.6
2022-03-10T02:00:00,1230A,120.1197,30.3119,杭州市,和睦小学,颗粒物(PM10),79,108,93,39,38,144,3,3,3,79,58,5,5,0.7,0.7
2022-03-10T02:00:00,1231A,120.3019,30.4183,杭州市,临平镇,颗粒物(PM10),77,104,104,36,47,153,33,50,42,50,47,4,5,0.7,0.8
2022-03-10T02:00:00,1232A,120.2697,30.1819,杭州市,城厢镇,颗粒物(PM10),83,115,85,39,30,137,3,3,3,89,68,6,8,0.9,0.7
2022-03-10T02:00:00,1233A,120.0883,30.1808,杭州市,云栖,颗粒物(PM10),63,75,75,33,29,133,9,10,10,44,44,6,7,0.5,0.6
2022-03-10T02:00:00,1234A,121.8358,29.911,宁波市,区环保大楼,颗粒物(PM10),58,66,49,25,16,132,132,130,130,11,25,5,7,0.5,0.6
2022-03-10T02:00:00,1235A,121.56,29.82,宁波市,万里学院,颗粒物(PM10),62,73,46,36,21,140,114,119,116,17,17,9,11,0.5,0.4
2022-03-10T02:00:00,1236A,121.713,29.9572,宁波市,龙赛医院,颗粒物(PM10),56,62,54,23,24,134,125,130,128,21,28,8,8,0.5,0.6
2022-03-10T02:00:00,1239A,121.633,29.7733,宁波市,钱湖水厂,,50,50,39,19,15,137,126,129,128,8,13,7,8,0.6,0.5
2022-03-10T02:00:00,1240A,121.5856,29.8635,宁波市,太古小学,颗粒物(PM10),60,69,53,30,24,113,106,110,108,16,26,7,8,0.6,0.6
2022-03-10T02:00:00,1241A,121.524,29.8674,宁波市,市环境监测中心,颗粒物(PM10),56,62,47,21,16,129,113,122,118,14,23,8,17,0.5,0.4
2022-03-10T02:00:00,1242A,120.634,28.0089,温州市,瓯海,颗粒物(PM10),95,139,82,65,34,122,4,4,4,90,59,9,7,0.6,0.5
2022-03-10T02:00:00,1243A,120.6748,27.9939,温州市,南浦,颗粒物(PM10),89,128,85,42,31,125,5,6,6,92,54,10,8,0.8,0.5
2022-03-10T02:00:00,1244A,120.76,27.9747,温州市,龙湾,颗粒物(PM10),86,121,90,29,25,120,3,3,3,94,69,6,6,0.7,0.5
2022-03-10T02:00:00,1245A,120.6709,28.0167,温州市,市站,颗粒物(PM10),77,103,75,32,24,129,21,39,30,68,48,9,7,0.6,0.5
2022-03-10T02:00:00,1247A,120.6053,29.9928,绍兴市,城东开发委,,41,41,67,8,27,142,106,106,106,7,37,4,5,0.5,0.6
2022-03-10T02:00:00,1250A,120.0751,30.8669,湖州市,城西水厂,颗粒物(PM10),53,56,72,31,45,152,58,60,59,32,48,5,10,0.7,0.7
2022-03-10T02:00:00,1252A,120.7436,30.778,嘉兴市,清河小学,颗粒物(PM10),55,60,60,25,29,138,83,83,83,26,40,11,11,0.6,0.4
2022-03-10T02:00:00,1253A,120.726,30.7478,嘉兴市,嘉兴学院,颗粒物(PM10),59,68,62,33,27,157,93,92,92,21,34,11,13,0.5,0.5
2022-03-10T02:00:00,1255A,121.273,28.6459,台州市,黄岩环保大楼,颗粒物(PM10),67,83,70,39,22,123,17,26,22,47,27,6,7,0.4,0.3
2022-03-10T02:00:00,1256A,121.419,28.6542,台州市,台州环保大楼,颗粒物(PM10),74,98,78,46,31,133,42,54,48,38,35,6,7,0.5,0.5
2022-03-10T02:00:00,1257A,121.377,28.5773,台州市,路桥田洋王,"颗粒物(PM10),细颗粒物(PM2.5)",79,108,71,58,38,122,4,38,21,69,38,6,8,0.4,0.3
2022-03-10T02:00:00,1258A,122.122,30.0203,舟山市,定海檀枫,颗粒物(PM10),58,65,40,31,16,122,85,101,93,25,24,5,5,0.6,0.5
2022-03-10T02:00:00,1259A,122.3094,29.9558,舟山市,普陀东港,颗粒物(PM10),57,63,42,29,21,130,116,118,117,21,22,4,4,0.4,0.4
2022-03-10T02:00:00,1260A,122.19,29.9944,舟山市,临城新区,颗粒物(PM10),56,62,37,28,20,124,110,110,110,20,22,4,4,0.4,0.3
2022-03-10T02:00:00,1262A,119.647,29.077,金华市,十五中,颗粒物(PM10),53,56,76,24,34,151,82,76,76,17,48,5,6,0.3,0.5
2022-03-10T02:00:00,1263A,119.686,29.1029,金华市,监测站,颗粒物(PM10),56,61,77,22,36,135,78,68,68,20,53,5,6,0.3,0.5
2022-03-10T02:00:00,1264A,118.8692,28.9398,衢州市,环保大楼,颗粒物(PM10),56,62,60,32,25,122,14,23,18,57,43,7,7,0.7,0.6
2022-03-10T02:00:00,1265A,118.8709,28.9666,衢州市,实验学校,颗粒物(PM10),51,52,51,20,22,136,12,15,14,45,32,6,7,0.7,0.6
2022-03-10T02:00:00,1266A,118.8621,28.9808,衢州市,衢州学院,颗粒物(PM10),53,56,57,21,23,129,31,44,38,59,39,5,6,0.8,0.8
2022-03-10T02:00:00,1267A,119.914,28.4514,丽水市,监测站大楼,,44,44,49,17,20,116,65,95,80,17,20,5,7,0.3,0.3
2022-03-10T02:00:00,1268A,119.93,28.4586,丽水市,莲都小学,,39,39,53,15,18,108,72,93,82,10,19,6,7,0.3,0.3
2022-03-10T02:00:00,1269A,119.879,28.4231,丽水市,余庄前,,47,47,44,7,21,130,78,111,94,16,18,7,9,0.4,0.4
2022-03-10T02:00:00,1270A,117.1959,31.7848,合肥市,明珠广场,颗粒物(PM10),90,129,93,53,28,115,44,52,48,87,47,11,12,0.6,0.5
2022-03-10T02:00:00,1271A,117.3072,31.8764,合肥市,三里街,颗粒物(PM10),79,107,97,36,26,100,24,52,38,95,51,16,12,0.7,0.6
2022-03-10T02:00:00,1272A,117.2588,31.8707,合肥市,琥珀山庄,颗粒物(PM10),91,132,99,46,28,112,64,56,56,57,46,16,13,0.6,0.5
2022-03-10T02:00:00,1273A,117.1604,31.9052,合肥市,董铺水库(对照点),颗粒物(PM10),104,158,100,41,23,100,46,39,39,63,39,11,10,0.6,0.6
2022-03-10T02:00:00,1274A,117.25,31.8571,合肥市,长江中路,颗粒物(PM10),89,127,104,51,30,108,91,83,83,49,50,15,14,0.6,0.5
2022-03-10T02:00:00,1275A,117.266,31.9436,合肥市,庐阳区,颗粒物(PM10),86,122,108,36,22,106,19,48,34,96,49,10,11,0.7,0.6
2022-03-10T02:00:00,1276A,117.336,31.8586,合肥市,瑶海区,颗粒物(PM10),86,122,107,41,29,119,4,26,15,125,49,21,13,0.7,0.7
2022-03-10T02:00:00,1277A,117.3027,31.7964,合肥市,包河区,细颗粒物(PM2.5),83,110,93,61,34,129,33,90,62,86,39,9,10,0.6,0.5
2022-03-10T02:00:00,1278A,117.2776,31.7385,合肥市,滨湖新区,颗粒物(PM10),81,112,91,51,30,135,109,112,110,31,27,16,13,0.6,0.9
2022-03-10T02:00:00,1279A,117.1318,31.8403,合肥市,高新区,颗粒物(PM10),82,114,86,53,26,125,73,77,75,63,39,15,13,0.8,0.7
2022-03-10T02:00:00,1280A,119.3903,26.0543,福州市,鼓山(对照点),颗粒物(PM10),57,63,45,13,12,126,125,125,125,5,8,4,4,0.2,0.2
2022-03-10T02:00:00,1282A,119.2681,26.0504,福州市,师大,颗粒物(PM10),53,55,53,18,17,120,61,67,64,22,23,3,5,0.4,0.4
2022-03-10T02:00:00,1283A,119.2984,26.1028,福州市,五四北路,颗粒物(PM10),54,58,50,21,15,122,56,98,77,28,18,3,3,0.3,0.3
2022-03-10T02:00:00,1284A,119.2648,26.0768,福州市,杨桥西路,颗粒物(PM10),58,66,55,16,15,114,38,38,38,39,26,4,5,0.6,0.6
2022-03-10T02:00:00,1285A,119.317,26.0746,福州市,紫阳,颗粒物(PM10),55,60,51,19,18,121,101,110,106,14,20,5,6,0.4,0.5
2022-03-10T02:00:00,1286A,118.1608,24.8169,厦门市,溪东(对照点),,28,24,33,19,15,150,46,50,48,4,4,1,2,0.3,0.2
2022-03-10T02:00:00,1287A,118.1514,24.4767,厦门市,洪文,颗粒物(PM10),59,68,48,32,19,112,10,10,10,62,27,4,4,0.4,0.3
2022-03-10T02:00:00,1288A,118.0661,24.4444,厦门市,鼓浪屿,颗粒物(PM10),56,62,49,27,16,127,7,4,4,83,31,6,4,0.5,0.4
2022-03-10T02:00:00,1290A,115.8931,28.6843,南昌市,省外办,颗粒物(PM10),65,79,82,45,33,129,5,4,4,77,51,8,9,1.4,1.3
2022-03-10T02:00:00,1291A,115.8886,28.7003,南昌市,省林业公司,颗粒物(PM10),62,74,79,25,23,124,5,27,16,94,53,6,8,0.9,0.7
2022-03-10T02:00:00,1292A,115.8126,28.7442,南昌市,林科所,,36,36,39,18,17,129,61,50,50,59,31,8,9,0.3,0.3
2022-03-10T02:00:00,1294A,115.8518,28.687,南昌市,建工学校,颗粒物(PM10),66,82,68,30,25,120,3,3,3,90,56,11,10,1.0,0.6
2022-03-10T02:00:00,1295A,115.8921,28.6424,南昌市,象湖,,,163,78,45,28,127,1,2,2,64,50,10,7,1.3,0.8
2022-03-10T02:00:00,1296A,115.7423,28.7996,南昌市,武术学校(对照点),,26,26,30,12,13,124,22,26,24,8,13,6,6,0.5,0.4
2022-03-10T02:00:00,1298A,115.9314,28.6842,南昌市,省站,颗粒物(PM10),71,92,76,38,34,132,3,4,4,88,52,8,9,1.0,0.7
2022-03-10T02:00:00,1299A,116.9862,36.6114,济南市,科干所,颗粒物(PM10),100,149,176,49,39,161,151,150,150,10,10,15,12,0.8,0.7
2022-03-10T02:00:00,1300A,116.9376,36.665,济南市,农科所,颗粒物(PM10),106,161,190,46,39,156,126,124,124,30,29,12,12,0.8,0.9
2022-03-10T02:00:00,1301A,117.1265,36.6734,济南市,开发区,颗粒物(PM10),96,142,167,53,44,169,142,147,144,17,21,14,11,0.6,0.5
2022-03-10T02:00:00,1303A,117.0624,36.6868,济南市,省种子仓库,颗粒物(PM10),102,153,190,56,54,164,151,156,154,15,40,14,13,0.9,1.1
2022-03-10T02:00:00,1304A,116.9489,36.6447,济南市,机床二厂,颗粒物(PM10),109,168,194,54,61,162,128,130,129,23,30,10,11,0.6,0.6
2022-03-10T02:00:00,1305A,117.0495,36.663,济南市,市监测站,颗粒物(PM10),103,156,175,51,40,164,159,159,159,15,37,15,13,0.4,0.5
2022-03-10T02:00:00,1306A,116.7675,36.5484,济南市,长清党校,颗粒物(PM10),112,173,192,44,38,164,139,138,138,29,29,16,14,0.8,0.7
2022-03-10T02:00:00,1307A,120.6659,36.2403,青岛市,仰口(对照点),细颗粒物(PM2.5),77,70,66,56,53,113,59,58,58,29,27,2,2,0.8,0.8
2022-03-10T02:00:00,1310A,120.4134,36.0658,青岛市,市南区东部子站,细颗粒物(PM2.5),55,56,101,39,52,133,90,89,89,17,36,5,8,0.5,0.6
2022-03-10T02:00:00,1311A,120.3664,36.1032,青岛市,四方区子站,细颗粒物(PM2.5),70,73,105,51,60,145,111,108,108,20,40,5,6,0.7,0.8
2022-03-10T02:00:00,1312A,120.2994,36.054,青岛市,市南区西部子站,,46,39,82,32,58,142,101,98,98,17,30,5,8,0.6,0.7
2022-03-10T02:00:00,1313A,120.4581,36.0858,青岛市,崂山区子站,细颗粒物(PM2.5),52,46,91,36,55,147,100,98,98,26,35,7,9,0.8,0.9
2022-03-10T02:00:00,1314A,120.1983,35.9608,青岛市,黄岛区子站,细颗粒物(PM2.5),62,58,110,44,76,138,84,89,86,33,43,4,6,0.8,0.9
2022-03-10T02:00:00,1315A,120.3999,36.3083,青岛市,城阳区子站,颗粒物(PM10),70,90,134,39,45,150,104,110,107,49,50,6,8,0.6,0.8
2022-03-10T02:00:00,1316A,113.69031,34.76122,郑州市,烟厂,颗粒物(PM10),82,113,158,36,41,146,51,62,56,50,41,7,8,0.6,0.5
2022-03-10T02:00:00,1317A,113.65724,34.77134,郑州市,郑纺机,颗粒物(PM10),85,120,160,40,44,143,48,61,54,58,46,9,9,0.8,0.7
2022-03-10T02:00:00,1318A,113.67526,34.80246,郑州市,银行学校,颗粒物(PM10),82,113,146,37,44,150,40,79,60,51,41,9,11,0.7,0.6
2022-03-10T02:00:00,1319A,113.56746,34.81334,郑州市,供水公司,颗粒物(PM10),89,128,156,38,44,150,52,47,47,56,51,7,7,0.5,0.6
2022-03-10T02:00:00,1320A,113.7329,34.7178,郑州市,经开区管委,颗粒物(PM10),96,141,151,45,44,144,3,14,8,103,48,7,7,0.8,0.6
2022-03-10T02:00:00,1321A,113.73961,34.77172,郑州市,四十七中,颗粒物(PM10),89,128,155,33,40,149,8,41,24,99,48,6,7,0.5,0.6
2022-03-10T02:00:00,1322A,113.60532,34.74838,郑州市,市监测站,颗粒物(PM10),98,145,164,43,36,151,35,32,32,74,49,12,11,0.7,0.8
2022-03-10T02:00:00,1323A,113.64164,34.7525,郑州市,河医大,颗粒物(PM10),86,121,166,42,48,142,22,49,36,83,43,4,4,0.8,0.6
2022-03-10T02:00:00,1324A,113.51488,34.91089,郑州市,岗李水库(对照点),颗粒物(PM10),72,93,168,31,44,139,23,31,27,27,26,7,9,0.8,0.9
2022-03-10T02:00:00,1325A,114.3677,30.5584,武汉市,东湖梨园,颗粒物(PM10),66,81,61,37,24,126,27,30,28,70,41,12,11,0.9,0.7
2022-03-10T02:00:00,1326A,114.2529,30.558,武汉市,汉阳月湖,颗粒物(PM10),57,64,64,29,23,126,19,20,20,78,55,7,11,0.9,0.8
2022-03-10T02:00:00,1327A,114.282,30.6189,武汉市,汉口花桥,颗粒物(PM10),58,65,60,29,25,119,48,51,50,47,40,12,14,0.8,0.8
2022-03-10T02:00:00,1328A,114.3025,30.5332,武汉市,武昌紫阳,颗粒物(PM10),61,71,61,24,24,119,13,11,11,87,49,11,14,1.1,1
2022-03-10T02:00:00,1329A,114.3646,30.6217,武汉市,青山钢花,颗粒物(PM10),65,79,76,36,32,118,52,43,43,50,52,15,16,0.9,0.9
2022-03-10T02:00:00,1330A,114.1566,30.4825,武汉市,沌口新区,细颗粒物(PM2.5),78,89,74,57,34,116,28,26,26,77,53,18,15,1.0,0.9
2022-03-10T02:00:00,1331A,114.3014,30.5944,武汉市,汉口江滩,颗粒物(PM10),59,68,65,28,25,116,24,26,25,90,60,12,14,0.9,0.8
2022-03-10T02:00:00,1333A,114.135,30.6319,武汉市,吴家山,颗粒物(PM10),73,95,82,27,23,114,22,21,21,76,59,12,15,0.9,1.1
2022-03-10T02:00:00,1334A,113.8454,30.2917,武汉市,沉湖七壕(对照点),颗粒物(PM10),66,81,96,27,39,110,43,38,38,37,43,12,12,0.7,0.7
2022-03-10T02:00:00,1335A,113.0833,28.2325,长沙市,经开区环保局,细颗粒物(PM2.5),72,63,57,52,38,150,25,27,26,82,53,12,11,0.7,0.6
2022-03-10T02:00:00,1336A,112.8872,28.2189,长沙市,高开区环保局,细颗粒物(PM2.5),64,74,53,46,28,151,3,4,4,104,45,6,9,1.2,0.9
2022-03-10T02:00:00,1337A,113.0792,28.2053,长沙市,马坡岭,细颗粒物(PM2.5),77,85,66,56,33,157,5,11,8,95,44,10,10,0.7,0.6
2022-03-10T02:00:00,1338A,112.9394,28.19,长沙市,湖南师范大学,颗粒物(PM10),51,51,52,24,30,150,47,46,46,30,26,8,9,0.8,0.7
2022-03-10T02:00:00,1339A,113.0178,28.1322,长沙市,雨花区环保局,颗粒物(PM10),52,54,51,31,26,154,74,94,84,43,26,12,12,0.6,0.6
2022-03-10T02:00:00,1340A,112.9792,28.2597,长沙市,伍家岭,颗粒物(PM10),72,93,78,45,33,145,4,5,4,93,60,7,6,0.9,0.8
2022-03-10T02:00:00,1341A,113.0014,28.1944,长沙市,火车新站,细颗粒物(PM2.5),67,72,63,48,34,138,3,8,6,111,55,8,9,0.9,0.7
2022-03-10T02:00:00,1342A,112.9844,28.1178,长沙市,天心区环保局,颗粒物(PM10),51,52,53,27,28,145,36,89,62,74,28,9,9,0.6,0.6
2022-03-10T02:00:00,1343A,112.8908,28.1308,长沙市,湖南中医药大学,细颗粒物(PM2.5),58,52,52,41,29,143,9,36,22,73,49,5,7,0.8,0.5
2022-03-10T02:00:00,1344A,112.9581,28.3611,长沙市,沙坪(对照点),,42,42,50,24,25,148,59,65,62,12,18,8,10,0.7,0.6
2022-03-10T02:00:00,1345A,113.2347,23.1423,广州市,广雅中学,颗粒物(PM10),52,54,53,21,23,219,24,37,30,74,49,9,8,0.7,0.7
2022-03-10T02:00:00,1346A,113.2612,23.105,广州市,市五中,,50,50,52,24,24,237,27,37,32,68,49,7,7,0.6,0.6
2022-03-10T02:00:00,1348A,113.3478,23.0916,广州市,广东商学院,颗粒物(PM10),55,59,51,27,21,222,3,3,3,101,67,6,6,0.7,0.6
2022-03-10T02:00:00,1349A,113.4332,23.1047,广州市,市八十六中,颗粒物(PM10),66,81,60,20,21,204,6,4,4,98,66,9,9,0.8,0.8
2022-03-10T02:00:00,1350A,113.3505,22.9483,广州市,番禺中学,颗粒物(PM10),54,57,50,21,21,246,21,34,28,71,47,10,10,0.6,0.5
2022-03-10T02:00:00,1351A,113.2146,23.3916,广州市,花都师范,颗粒物(PM10),85,119,67,58,30,163,5,9,7,135,64,4,5,0.8,0.7
2022-03-10T02:00:00,1352A,113.2597,23.1331,广州市,市监测站,,45,45,50,17,21,229,37,28,28,62,50,7,7,0.7,0.7
2022-03-10T02:00:00,1353A,113.5618,23.312,广州市,九龙镇镇龙,颗粒物(PM10),80,109,74,44,29,173,0,1,0,64,53,5,5,0.7,0.6
2022-03-10T02:00:00,1354A,113.2765,23.1544,广州市,麓湖,,,69,48,25,20,217,3,3,3,96,66,8,8,0.9,0.7
2022-03-10T02:00:00,1355A,113.443,23.3035,广州市,帽峰山森林公园(对照点),,50,50,40,24,20,202,19,19,19,80,38,12,9,0.7,0.7
2022-03-10T02:00:00,1356A,114.1063,22.5545,深圳市,通心岭子站,,31,31,25,11,8,110,85,86,86,11,9,3,3,0.5,0.5
2022-03-10T02:00:00,1357A,114.117,22.5625,深圳市,洪湖,,39,39,33,10,9,123,98,96,96,20,22,5,5,0.5,0.5
2022-03-10T02:00:00,1358A,113.987,22.5417,深圳市,华侨城,,31,31,27,10,10,129,95,95,95,9,19,6,6,0.5,0.5
2022-03-10T02:00:00,1359A,113.9181,22.5171,深圳市,南海子站,,39,39,34,11,11,118,88,88,88,21,28,3,4,0.4,0.4
2022-03-10T02:00:00,1360A,114.2458,22.5689,深圳市,盐田,,32,29,24,12,9,113,101,94,94,16,28,2,4,0.7,0.6
2022-03-10T02:00:00,1361A,114.2283,22.7244,深圳市,龙岗,,34,34,34,10,11,129,98,102,100,24,29,2,3,0.3,0.3
2022-03-10T02:00:00,1363A,114.494,22.5422,深圳市,南澳,,26,26,26,8,8,104,76,77,76,8,10,3,4,0.6,0.5
2022-03-10T02:00:00,1364A,114.41,22.6342,深圳市,葵涌,,31,31,26,10,8,120,79,117,98,17,16,4,3,0.3,0.3
2022-03-10T02:00:00,1365A,114.297,22.5978,深圳市,梅沙,,38,33,27,10,8,130,120,114,114,8,14,8,8,0.4,0.4
2022-03-10T02:00:00,1366A,114.0678,22.738,深圳市,观澜,颗粒物(PM10),56,62,50,23,18,133,42,41,41,59,41,5,6,0.8,0.8
2022-03-10T02:00:00,1367A,113.5814,22.2618,珠海市,吉大,,30,30,23,16,10,104,63,80,72,23,22,9,9,0.4,0.4
2022-03-10T02:00:00,1368A,113.4881,22.2335,珠海市,前山,,31,31,29,12,11,116,77,83,80,32,36,12,11,0.3,0.2
2022-03-10T02:00:00,1369A,113.628,22.4251,珠海市,唐家,,27,27,22,12,11,126,33,70,52,48,21,8,8,0.2,0.2
2022-03-10T02:00:00,1370A,113.299,22.2281,珠海市,斗门,,26,26,26,15,12,129,60,60,60,28,26,6,8,0.3,0.3
2022-03-10T02:00:00,1371A,113.1294,23.0067,佛山市,湾梁,颗粒物(PM10),57,63,55,21,22,229,50,37,37,43,53,8,7,0.5,0.5
2022-03-10T02:00:00,1372A,113.1083,23.0478,佛山市,华材职中,颗粒物(PM10),53,56,45,18,19,228,51,42,42,36,35,10,9,0.4,0.4
2022-03-10T02:00:00,1373A,113.144,23.0453,佛山市,南海气象局,颗粒物(PM10),53,56,48,25,22,198,24,18,18,62,49,8,6,0.5,0.5
2022-03-10T02:00:00,1374A,113.2881,22.8094,佛山市,顺德苏岗,,35,35,35,14,14,180,14,27,20,70,47,4,3,0.8,0.7
2022-03-10T02:00:00,1376A,112.8383,22.8678,佛山市,高明孔堂,,28,28,41,12,19,208,69,82,76,16,28,5,6,0.4,0.5
2022-03-10T02:00:00,1377A,112.8836,23.1588,佛山市,三水监测站,颗粒物(PM10),63,75,63,29,29,180,6,11,8,88,65,5,7,0.6,0.6
2022-03-10T02:00:00,1378A,112.867,23.185,佛山市,三水云东海,,47,47,49,17,21,193,10,18,14,66,49,5,7,0.4,0.3
2022-03-10T02:00:00,1379A,113.3769,22.5211,中山市,华柏园,,37,37,30,14,12,125,50,65,58,28,23,5,4,0.3,0.3
2022-03-10T02:00:00,1380A,113.3881,22.5497,中山市,张溪,,40,40,47,12,15,133,30,48,39,46,25,4,4,0.3,0.3
2022-03-10T02:00:00,1381A,113.4075,22.5111,中山市,紫马岭,,25,25,33,14,15,128,38,48,43,29,23,6,6,0.4,0.4
2022-03-10T02:00:00,1382A,113.4411,22.4853,中山市,长江旅游区(对照点),,28,14,19,19,13,128,40,46,43,13,15,3,4,0.3,0.3
2022-03-10T02:00:00,1383A,113.1064,22.6058,江门市,北街,,24,24,39,12,17,177,49,55,52,38,39,8,10,0.4,0.4
2022-03-10T02:00:00,1384A,113.0731,22.5835,江门市,西区,,47,47,49,16,28,185,50,48,48,40,36,6,7,0.4,0.4
2022-03-10T02:00:00,1385A,113.0219,22.5311,江门市,圭峰西,,28,28,39,11,18,185,73,70,70,20,28,6,6,0.3,0.4
2022-03-10T02:00:00,1386A,113.0828,22.5947,江门市,东湖,,38,38,42,18,26,187,45,53,49,37,32,7,8,0.3,0.3
2022-03-10T02:00:00,1389A,113.7547,23.0494,东莞市,莞城梨川,,38,38,50,13,20,222,73,66,66,30,36,8,10,0.5,0.5
2022-03-10T02:00:00,1390A,113.7944,23.0128,东莞市,东城石井,,33,33,40,13,17,230,44,43,43,44,39,7,8,0.4,0.4
2022-03-10T02:00:00,1391A,113.7383,22.9658,东莞市,南城西平,颗粒物(PM10),58,66,54,32,25,220,3,4,4,90,54,9,9,0.7,0.6
2022-03-10T02:00:00,1392A,114.4183,23.0528,惠州市,河南岸金山湖子站,,24,24,34,13,14,138,73,87,80,24,21,4,3,0.4,0.4
2022-03-10T02:00:00,1393A,114.4053,23.0822,惠州市,下埔横江三路子站,,36,36,37,12,13,141,97,101,99,17,22,6,6,0.4,0.4
2022-03-10T02:00:00,1394A,114.4103,23.1142,惠州市,江北云山西路子站,,34,34,35,13,15,145,100,100,100,13,18,7,6,0.5,0.5
2022-03-10T02:00:00,1395A,114.4645,22.7833,惠州市,惠阳区承修路船湖子站,,39,36,38,27,11,123,75,89,82,24,21,6,5,0.5,0.4
2022-03-10T02:00:00,1396A,114.5317,22.7422,惠州市,大亚湾管委会子站,颗粒物(PM10),55,59,35,15,13,119,34,80,57,50,26,5,6,0.6,0.5
2022-03-10T02:00:00,1397A,112.4267,23.0706,肇庆市,睦岗子站,颗粒物(PM10),58,65,49,34,24,191,21,18,18,105,57,10,11,0.8,0.7
2022-03-10T02:00:00,1398A,112.4645,23.0475,肇庆市,城中子站,,,63,52,27,24,201,28,73,50,,48,16,12,0.5,0.5
2022-03-10T02:00:00,1399A,112.5544,23.1522,肇庆市,坑口子站,,34,34,42,15,21,200,82,101,92,22,29,6,9,0.4,0.4
2022-03-10T02:00:00,1400A,112.4753,23.1,肇庆市,七星岩子站(对照点),颗粒物(PM10),55,59,42,30,22,199,95,101,98,32,28,15,12,0.7,0.6
2022-03-10T02:00:00,1401A,108.3103,22.7881,南宁市,二十一中,,44,44,47,20,24,144,86,93,90,21,16,12,9,0.6,0.6
2022-03-10T02:00:00,1402A,108.3141,22.8528,南宁市,北湖,,46,46,50,24,27,135,90,88,88,16,15,12,11,0.6,0.6
2022-03-10T02:00:00,1403A,108.3206,22.8225,南宁市,市监测站,,43,43,47,24,21,137,93,90,90,19,20,13,11,0.6,0.6
2022-03-10T02:00:00,1404A,108.3829,22.8037,南宁市,大自然花园,,43,43,42,23,24,124,85,89,87,15,14,8,7,0.7,0.6
2022-03-10T02:00:00,1405A,108.4394,22.7904,南宁市,仙葫(对照点),,42,42,44,29,28,129,96,98,97,12,13,7,7,0.5,0.5
2022-03-10T02:00:00,1406A,108.2397,22.8467,南宁市,区农职院,,48,48,47,19,22,136,86,84,84,32,25,10,9,0.7,0.6
2022-03-10T02:00:00,1407A,108.3275,22.735,南宁市,英华嘉园,颗粒物(PM10),54,57,48,30,28,125,67,67,67,30,26,11,8,0.5,0.5
2022-03-10T02:00:00,1408A,108.2257,22.7757,南宁市,沙井镇街道办,颗粒物(PM10),57,64,54,23,26,127,65,65,65,44,30,10,8,0.7,0.6
2022-03-10T02:00:00,1409A,110.576,19.9507,海口市,东寨港(对照点),,28,22,47,4,14,104,88,88,88,3,13,5,7,0.3,0.5
2022-03-10T02:00:00,1410A,110.3232,20.0574,海口市,海南大学,,31,31,30,11,13,102,87,84,84,3,4,3,3,0.4,0.4
2022-03-10T02:00:00,1411A,110.283,20.0053,海口市,秀英海南医院,,36,36,32,11,13,109,95,92,92,2,3,3,4,0.3,0.3
2022-03-10T02:00:00,1412A,110.338,19.9969,海口市,海南师范大学,,32,32,31,17,15,100,83,82,82,6,6,3,3,0.4,0.4
2022-03-10T02:00:00,1413A,110.33,20.0356,海口市,龙华路环保局宿舍,,27,26,30,16,13,110,85,86,86,8,6,4,5,0.4,0.4
2022-03-10T02:00:00,1414A,106.3787,29.8279,重庆市,缙云山(对照点),臭氧1小时,54,49,56,28,31,199,163,163,163,15,22,12,15,0.6,0.7
2022-03-10T02:00:00,1416A,106.4213,29.8253,重庆市,天生,细颗粒物(PM2.5),79,103,93,58,53,202,7,20,14,89,55,10,14,1.2,1
2022-03-10T02:00:00,1417A,106.6263,29.7228,重庆市,两路,颗粒物(PM10),70,89,80,46,38,176,57,86,72,106,78,18,16,1.1,1.1
2022-03-10T02:00:00,1418A,106.2953,29.5983,重庆市,虎溪,细颗粒物(PM2.5),69,83,73,50,44,187,12,17,14,115,66,10,17,1.1,1
2022-03-10T02:00:00,1419A,106.5777,29.5102,重庆市,南坪,细颗粒物(PM2.5),77,86,74,56,44,197,81,80,80,53,56,40,18,1.0,0.9
2022-03-10T02:00:00,1420A,106.6556,29.6277,重庆市,唐家沱,颗粒物(PM10),80,110,89,53,43,171,5,5,5,86,62,6,9,1.0,0.8
2022-03-10T02:00:00,1421A,106.6349,29.4906,重庆市,茶园,颗粒物(PM10),78,106,90,55,41,198,51,38,38,71,70,13,12,0.8,0.9
2022-03-10T02:00:00,1422A,106.3754,29.4572,重庆市,白市驿,颗粒物(PM10),79,107,90,47,42,212,96,107,102,37,32,29,22,1.1,0.9
2022-03-10T02:00:00,1425A,106.6205,29.7166,重庆市,空港,颗粒物(PM10),79,108,90,55,45,174,8,8,8,130,75,11,12,1.4,1
2022-03-10T02:00:00,1426A,106.4782,29.4875,重庆市,新山村,颗粒物(PM10),79,107,98,55,49,147,7,8,8,139,97,15,18,1.5,1.2
2022-03-10T02:00:00,1427A,106.5616,29.6453,重庆市,礼嘉,颗粒物(PM10),97,143,100,52,35,198,5,17,11,148,84,15,15,1.4,1.1
2022-03-10T02:00:00,1428A,106.4522,29.7091,重庆市,蔡家,细颗粒物(PM2.5),72,66,90,52,50,206,26,40,33,66,65,6,11,0.9,1.1
2022-03-10T02:00:00,1429A,106.5093,29.3917,重庆市,鱼新街,细颗粒物(PM2.5),94,125,97,70,46,184,19,15,15,79,73,32,22,1.1,1.2
2022-03-10T02:00:00,1431A,103.9728,30.7236,成都市,金泉两河,"颗粒物(PM10),细颗粒物(PM2.5)",77,103,91,56,56,145,0,8,4,68,57,6,6,0.7,0.7
2022-03-10T02:00:00,1432A,104.1419,30.6764,成都市,十里店,颗粒物(PM10),86,122,131,55,61,136,2,5,4,81,74,6,6,0.8,0.7
2022-03-10T02:00:00,1433A,104.0594,30.5767,成都市,三瓦窑,颗粒物(PM10),76,102,119,52,66,130,0,1,0,107,91,6,6,0.9,0.9
2022-03-10T02:00:00,1434A,104.1122,30.6306,成都市,沙河铺,颗粒物(PM10),70,90,116,49,68,137,0,1,0,82,75,4,6,0.8,0.9
2022-03-10T02:00:00,1437A,104.0431,30.6556,成都市,君平街,细颗粒物(PM2.5),88,111,101,65,62,132,4,14,9,88,77,9,8,0.9,1
2022-03-10T02:00:00,1438A,103.6202,31.0201,成都市,灵岩寺(对照点),颗粒物(PM10),56,61,61,39,37,155,118,115,115,9,13,14,15,0.6,0.6
2022-03-10T02:00:00,1439A,106.6899,26.5998,贵阳市,马鞍山,细颗粒物(PM2.5),70,68,63,51,38,151,23,36,30,28,19,4,6,0.5,0.5
2022-03-10T02:00:00,1440A,106.6971,26.5694,贵阳市,市环保站,颗粒物(PM10),78,105,71,0,24,142,52,46,46,46,32,6,6,0.6,0.5
2022-03-10T02:00:00,1441A,106.6243,26.6266,贵阳市,鉴湖路,"颗粒物(PM10),细颗粒物(PM2.5)",64,78,74,46,34,148,81,85,83,21,16,5,5,0.5,0.5
2022-03-10T02:00:00,1442A,106.7487,26.6343,贵阳市,燕子冲,细颗粒物(PM2.5),67,78,72,48,42,160,50,52,51,29,20,7,9,0.4,0.4
2022-03-10T02:00:00,1443A,106.6555,26.4365,贵阳市,碧云窝,"颗粒物(PM10),细颗粒物(PM2.5)",64,78,77,46,36,141,85,90,88,17,15,2,5,0.6,0.6
2022-03-10T02:00:00,1444A,106.694,26.5161,贵阳市,中院村,细颗粒物(PM2.5),85,97,71,63,38,133,48,44,44,47,34,12,10,0.7,0.6
2022-03-10T02:00:00,1445A,106.7109,26.6027,贵阳市,红边门,颗粒物(PM10),62,73,75,39,40,106,67,67,67,35,38,14,12,0.4,0.4
2022-03-10T02:00:00,1446A,106.7164,26.5699,贵阳市,新华路,细颗粒物(PM2.5),64,59,74,46,38,142,94,95,94,14,21,8,8,0.3,0.4
2022-03-10T02:00:00,1447A,106.674,26.5424,贵阳市,太慈桥,颗粒物(PM10),74,97,79,44,32,147,10,13,12,49,30,3,5,0.4,0.3
2022-03-10T02:00:00,1450A,102.8204,24.8886,昆明市,呈贡新区,,40,40,32,25,21,132,68,85,76,23,14,13,10,0.4,0.3
2022-03-10T02:00:00,1451A,102.6251,24.9608,昆明市,西山森林公园(对照点),,39,39,34,20,17,130,87,84,84,18,14,15,13,0.8,0.5
2022-03-10T02:00:00,1452A,102.7252,25.0902,昆明市,龙泉镇,,,109,44,45,22,129,9,8,8,70,32,18,12,0.7,0.5
2022-03-10T02:00:00,1453A,102.7266,25.0375,昆明市,东风东路,,44,44,35,28,22,122,53,69,61,42,24,12,10,0.9,0.5
2022-03-10T02:00:00,1454A,102.6742,25.0669,昆明市,金鼎山,,40,36,31,28,19,122,96,99,98,9,17,10,10,0.4,0.5
2022-03-10T02:00:00,1455A,102.6644,25.0401,昆明市,碧鸡广场,,46,46,33,25,24,131,85,89,87,24,27,14,12,0.7,0.5
2022-03-10T02:00:00,1456A,91.1319,29.6514,拉萨市,八廓街,,30,30,23,20,15,79,48,46,46,21,18,6,6,0.6,0.5
2022-03-10T02:00:00,1457A,91.1221,29.6747,拉萨市,市环保局,,25,25,24,8,12,75,60,62,61,8,16,4,4,0.4,0.5
2022-03-10T02:00:00,1458A,91.0874,29.6475,拉萨市,区监测站,,23,21,19,7,13,87,72,70,70,5,20,5,6,0.3,0.4
2022-03-10T02:00:00,1459A,91.1774,29.6541,拉萨市,西藏大学,,26,26,16,11,7,78,50,57,54,19,15,5,5,0.5,0.4
2022-03-10T02:00:00,1460A,90.9798,29.6588,拉萨市,区辐射站,,29,29,20,13,10,84,43,53,48,28,18,6,6,0.6,0.5
2022-03-10T02:00:00,1461A,91.0834,29.6292,拉萨市,拉萨火车站,,28,28,21,5,6,89,72,73,72,9,16,7,7,0.5,0.5
2022-03-10T02:00:00,1462A,108.882,34.2749,西安市,高压开关厂,颗粒物(PM10),147,243,235,72,93,122,3,3,3,116,72,14,14,0.9,0.9
2022-03-10T02:00:00,1463A,108.993,34.2629,西安市,兴庆小区,颗粒物(PM10),143,236,207,73,72,130,2,12,7,109,72,12,11,1.0,1.2
2022-03-10T02:00:00,1464A,109.06,34.2572,西安市,纺织城,颗粒物(PM10),138,225,220,96,88,131,2,2,2,92,71,9,11,0.8,0.8
2022-03-10T02:00:00,1465A,108.9356,34.2173,西安市,小寨,颗粒物(PM10),127,204,200,83,87,109,2,2,2,123,79,11,13,1.1,0.9
2022-03-10T02:00:00,1466A,108.954,34.2713,西安市,市人民体育场,颗粒物(PM10),128,205,202,76,88,128,2,3,2,122,78,8,8,1.1,1
2022-03-10T02:00:00,1467A,108.8922,34.2322,西安市,高新西区,颗粒物(PM10),136,221,208,69,93,115,5,5,5,123,76,12,14,1.3,1
2022-03-10T02:00:00,1468A,108.935,34.3474,西安市,经开区,颗粒物(PM10),125,200,188,67,77,131,5,5,5,127,69,7,8,0.9,0.7
2022-03-10T02:00:00,1469A,108.906,34.1546,西安市,长安区,颗粒物(PM10),142,234,221,91,84,122,4,6,5,108,68,11,13,0.9,0.8
2022-03-10T02:00:00,1471A,109.2186,34.3731,西安市,临潼区,颗粒物(PM10),120,190,182,62,66,140,56,50,50,49,43,9,12,1.1,1.1
2022-03-10T02:00:00,1472A,108.869,34.378,西安市,草滩(对照点),颗粒物(PM10),130,209,190,87,78,141,7,6,6,86,60,10,12,0.8,0.7
2022-03-10T02:00:00,1473A,108.985,34.1978,西安市,曲江文化产业集团,颗粒物(PM10),145,240,217,83,82,117,3,3,3,106,80,6,9,1.0,0.9
2022-03-10T02:00:00,1474A,109.051,34.3213,西安市,广运潭,颗粒物(PM10),160,270,214,76,78,141,2,2,2,106,66,8,8,0.9,0.7
2022-03-10T02:00:00,1476A,103.631,36.1031,兰州市,兰炼宾馆,颗粒物(PM10),104,158,175,63,64,120,1,2,2,86,58,12,11,1.8,1.3
2022-03-10T02:00:00,1478A,103.8412,36.0726,兰州市,生物制品所,颗粒物(PM10),110,170,182,40,45,127,4,4,4,110,90,17,13,1.7,1.3
2022-03-10T02:00:00,1479A,103.831,36.0464,兰州市,铁路设计院,颗粒物(PM10),111,172,188,47,63,104,5,5,5,87,74,17,18,1.1,1.4
2022-03-10T02:00:00,1483A,101.524,36.6867,西宁市,第五水厂(对照点),颗粒物(PM10),54,58,87,15,26,126,48,49,48,6,11,5,8,0.8,0.7
2022-03-10T02:00:00,1484A,105.9512,38.6016,银川市,贺兰山马莲口(对照点),颗粒物(PM10),94,138,139,44,46,128,98,102,100,19,26,16,27,0.5,0.8
2022-03-10T02:00:00,1488A,106.2328,38.4975,银川市,贺兰山东路,颗粒物(PM10),137,223,190,91,65,110,9,12,10,126,83,19,20,2.5,1.3
2022-03-10T02:00:00,1489A,106.1358,38.5036,银川市,学院路,颗粒物(PM10),138,225,188,73,50,115,7,6,6,118,75,20,27,1.6,1.3
2022-03-10T02:00:00,1490A,87.5801,43.8303,乌鲁木齐市,监测站,,29,29,66,20,39,104,56,48,48,19,39,7,10,0.7,1.2
2022-03-10T02:00:00,1491A,87.6046,43.768,乌鲁木齐市,收费所,,39,26,69,27,46,97,66,58,58,14,42,5,6,0.3,0.8
2022-03-10T02:00:00,1492A,87.4754,43.9469,乌鲁木齐市,新疆农科院农场(对照点),颗粒物(PM10),60,70,114,28,47,96,1,16,8,66,47,12,13,0.5,0.6
2022-03-10T02:00:00,1493A,87.5525,43.8711,乌鲁木齐市,铁路局,,32,32,68,19,45,102,55,37,37,25,48,4,8,0.6,1.1
2022-03-10T02:00:00,1494A,87.6432,43.831,乌鲁木齐市,三十一中学,,42,42,92,20,47,75,24,24,24,38,45,6,8,0.6,1
2022-03-10T02:00:00,1496A,87.7216,44.1747,乌鲁木齐市,米东区环保局,,34,34,73,0,80,85,23,40,32,32,22,8,9,0.7,0.9
2022-03-10T02:00:00,1508A,112.9433,27.8614,湘潭市,板塘,颗粒物(PM10),70,89,72,49,39,133,19,12,12,67,44,1,3,0.4,0.3
2022-03-10T02:00:00,1511A,112.9118,27.8403,湘潭市,市监测站,颗粒物(PM10),73,95,56,47,35,124,18,11,11,73,53,11,12,0.6,0.5
2022-03-10T02:00:00,1512A,112.8937,27.8728,湘潭市,江麓,颗粒物(PM10),68,86,69,29,32,120,42,24,24,40,45,14,13,0.6,0.5
2022-03-10T02:00:00,1513A,112.9227,27.8159,湘潭市,岳塘,颗粒物(PM10),75,99,66,46,29,146,17,14,14,78,37,11,15,0.8,0.6
2022-03-10T02:00:00,1514A,112.9074,27.9119,湘潭市,科大,颗粒物(PM10),60,69,67,36,29,139,57,50,50,37,47,9,9,0.7,0.8
2022-03-10T02:00:00,1515A,113.135,27.8244,株洲市,天台山庄,细颗粒物(PM2.5),53,52,49,37,32,144,34,48,41,66,43,12,11,0.3,0.4
2022-03-10T02:00:00,1518A,113.095,27.8867,株洲市,株冶医院,颗粒物(PM10),52,53,48,28,26,166,59,60,60,62,38,10,10,0.7,0.4
2022-03-10T02:00:00,1519A,113.167,27.8667,株洲市,市四中,,43,43,43,30,31,140,68,78,73,34,36,8,11,0.5,0.6
2022-03-10T02:00:00,1520A,113.143,27.8381,株洲市,火车站,颗粒物(PM10),56,62,62,38,34,158,36,46,41,66,38,9,12,0.6,0.7
2022-03-10T02:00:00,1524A,113.13,27.8528,株洲市,市监测站,颗粒物(PM10),58,66,58,39,34,142,49,43,43,56,47,13,13,0.7,0.8
2022-03-10T02:00:00,1552A,106.805,26.3003,贵阳市,桐木岭(对照点),细颗粒物(PM2.5),62,66,79,44,45,125,107,108,108,7,9,7,9,0.4,0.5
2022-03-10T02:00:00,1559A,113.251,27.8336,株洲市,大京风景区(对照点),,29,27,38,16,23,151,92,107,100,6,9,7,8,0.3,0.4
2022-03-10T02:00:00,1562A,113.0048,27.9153,湘潭市,昭山,颗粒物(PM10),52,53,48,34,27,130,30,30,30,61,48,9,10,0.5,0.5
2022-03-10T02:00:00,1564A,112.4876,27.9164,湘潭市,韶山(对照点),,45,45,56,22,22,129,48,62,55,7,13,3,5,0.4,0.5
2022-03-10T02:00:00,1585A,109.8756,40.6532,包头市,市环境监测站,颗粒物(PM10),114,178,140,78,67,111,5,9,7,85,67,22,28,1.4,1.5
2022-03-10T02:00:00,1587A,109.9991,40.5842,包头市,包头八中,颗粒物(PM10),118,186,157,88,79,122,10,19,14,78,60,32,30,2.4,1.5
2022-03-10T02:00:00,1588A,109.8538,40.6821,包头市,青山宾馆,细颗粒物(PM2.5),133,186,154,101,102,99,17,12,12,59,71,14,30,1.0,1.7
2022-03-10T02:00:00,1589A,109.8642,40.6288,包头市,惠龙物流,颗粒物(PM10),127,204,146,86,72,114,10,6,6,82,58,33,28,1.9,1.4
2022-03-10T02:00:00,1590A,110.0377,40.5546,包头市,东河鸿龙湾,细颗粒物(PM2.5),158,182,166,120,97,126,10,11,10,88,58,26,24,2.6,1.6
2022-03-10T02:00:00,1591A,110.0023,39.8129,鄂尔多斯市,综合楼,颗粒物(PM10),98,146,135,53,48,121,66,63,63,40,48,16,16,0.9,0.7
2022-03-10T02:00:00,1592A,109.9486,39.8261,鄂尔多斯市,巴音孟克林场办事处,颗粒物(PM10),95,139,118,39,29,120,85,90,88,18,31,16,18,0.6,0.7
2022-03-10T02:00:00,1593A,109.7736,39.5986,鄂尔多斯市,康泽苑,颗粒物(PM10),86,122,114,44,34,136,44,36,36,38,37,5,8,0.7,0.7
2022-03-10T02:00:00,1594A,109.8119,39.5989,鄂尔多斯市,华泰汽车城,颗粒物(PM10),87,124,112,48,37,138,6,13,10,77,43,8,11,0.7,0.6
2022-03-10T02:00:00,1595A,109.9734,39.7884,鄂尔多斯市,奥林花园,颗粒物(PM10),100,149,130,39,37,124,41,27,27,55,51,13,14,0.9,0.8
2022-03-10T02:00:00,1597A,122.2703,40.7094,营口市,大庆路,细颗粒物(PM2.5),73,80,138,53,91,130,96,112,104,31,47,9,20,0.7,1.5
2022-03-10T02:00:00,1598A,122.215,40.6511,营口市,镜湖西路,颗粒物(PM10),71,91,121,47,70,137,111,118,114,20,41,5,11,0.6,1
2022-03-10T02:00:00,1599A,122.167,40.6655,营口市,西炮台,细颗粒物(PM2.5),79,98,120,58,76,122,93,95,94,34,52,5,9,0.6,1
2022-03-10T02:00:00,1600A,124.3303,40.0625,丹东市,江湾东路,细颗粒物(PM2.5),73,68,94,53,74,111,106,108,107,13,20,8,13,0.6,0.8
2022-03-10T02:00:00,1601A,124.4256,40.1503,丹东市,临江后街,细颗粒物(PM2.5),69,64,87,50,64,113,100,100,100,13,19,6,10,0.9,0.9
2022-03-10T02:00:00,1602A,124.3933,40.1461,丹东市,元宝山,细颗粒物(PM2.5),72,66,88,52,66,114,91,93,92,11,18,7,11,0.9,1
2022-03-10T02:00:00,1603A,124.3633,40.1092,丹东市,民主桥,细颗粒物(PM2.5),70,70,91,51,65,108,96,96,96,13,19,7,11,0.6,0.8
2022-03-10T02:00:00,1604A,122.0303,41.1489,盘锦市,开发区,细颗粒物(PM2.5),84,72,106,62,87,132,95,99,97,13,43,6,16,0.7,1.3
2022-03-10T02:00:00,1605A,122.0485,41.0883,盘锦市,兴隆台,细颗粒物(PM2.5),83,84,117,61,84,126,86,93,90,15,46,5,13,0.7,1.2
2022-03-10T02:00:00,1606A,121.8297,41.1028,盘锦市,新生街道,细颗粒物(PM2.5),82,67,77,60,70,149,82,82,82,16,35,5,16,0.8,1
2022-03-10T02:00:00,1607A,120.9092,40.7136,葫芦岛市,龙港区,细颗粒物(PM2.5),79,78,145,58,104,140,98,97,97,7,33,12,70,0.6,1.4
2022-03-10T02:00:00,1608A,120.8392,40.7514,葫芦岛市,化工街,颗粒物(PM10),71,91,180,40,77,154,94,97,96,16,45,16,32,0.9,1.5
2022-03-10T02:00:00,1609A,120.8341,40.7073,葫芦岛市,新区,细颗粒物(PM2.5),70,76,128,51,91,161,105,106,106,14,37,12,30,0.6,1.2
2022-03-10T02:00:00,1610A,120.8695,40.7677,葫芦岛市,东城区,细颗粒物(PM2.5),73,82,151,53,92,150,93,93,93,14,43,14,26,0.3,1
2022-03-10T02:00:00,1611A,118.5819,24.9117,泉州市,涂山街,颗粒物(PM10),52,54,50,25,15,145,63,66,64,23,18,7,8,0.5,0.4
2022-03-10T02:00:00,1612A,118.5972,24.8978,泉州市,津头埔,颗粒物(PM10),51,51,54,20,17,150,70,68,68,22,23,7,7,0.5,0.5
2022-03-10T02:00:00,1613A,118.6663,24.9424,泉州市,万安,,42,42,48,18,17,141,83,79,79,10,12,8,8,0.4,0.4
2022-03-10T02:00:00,1614A,118.6117,24.9604,泉州市,清源山(对照点),,37,37,43,12,12,153,103,102,102,6,9,5,6,0.3,0.3
2022-03-10T02:00:00,1616A,117.6795,36.229,济南市,技术学院,细颗粒物(PM2.5),102,146,205,76,77,170,126,135,130,20,39,14,12,1.0,1.1
2022-03-10T02:00:00,1618A,118.3429,35.0532,临沂市,沂河小区,细颗粒物(PM2.5),98,127,170,73,90,179,124,129,126,31,43,13,15,0.6,0.8
2022-03-10T02:00:00,1619A,118.295,35.0583,临沂市,鲁南制药厂,细颗粒物(PM2.5),99,119,166,74,81,177,130,133,132,31,48,14,16,0.7,1
2022-03-10T02:00:00,1620A,118.2794,34.9976,临沂市,新光毛纺厂,细颗粒物(PM2.5),107,124,160,80,82,167,111,110,110,57,51,22,14,0.7,0.9
2022-03-10T02:00:00,1621A,118.3956,35.0888,临沂市,河东保险公司,细颗粒物(PM2.5),105,129,164,79,82,172,80,78,78,40,47,7,10,0.7,1.1
2022-03-10T02:00:00,1622A,116.3032,37.4674,德州市,儿童乐园,颗粒物(PM10),100,150,210,53,56,150,133,131,131,27,37,10,13,0.8,0.9
2022-03-10T02:00:00,1624A,116.2991,37.4451,德州市,监理站,颗粒物(PM10),103,156,223,56,57,142,120,118,118,12,28,18,16,0.5,0.6
2022-03-10T02:00:00,1625A,115.9848,36.4372,聊城市,区政府,颗粒物(PM10),108,166,191,51,42,154,129,132,130,27,29,10,11,0.7,0.7
2022-03-10T02:00:00,1628A,118.0062,37.3803,滨州市,市环保局,颗粒物(PM10),121,191,231,66,81,240,83,82,82,47,71,18,19,0.7,1.2
2022-03-10T02:00:00,1629A,118.0018,37.3617,滨州市,第二水厂,颗粒物(PM10),129,208,225,69,80,203,51,50,50,64,66,21,18,0.8,0.8
2022-03-10T02:00:00,1630A,117.9776,37.393,滨州市,北中新校,颗粒物(PM10),116,181,208,69,67,221,85,92,88,42,74,18,21,0.8,1.1
2022-03-10T02:00:00,1631A,118.0414,36.8103,淄博市,人民公园,细颗粒物(PM2.5),127,151,190,96,64,165,143,144,144,26,51,8,12,0.4,0.7
2022-03-10T02:00:00,1633A,117.8525,36.4847,淄博市,双山,细颗粒物(PM2.5),97,130,164,72,59,168,144,147,146,19,24,6,7,0.5,0.5
2022-03-10T02:00:00,1634A,117.9592,36.6331,淄博市,气象站,颗粒物(PM10),93,135,179,66,53,159,141,144,142,21,32,12,15,0.7,0.7
2022-03-10T02:00:00,1635A,118.3092,36.8194,淄博市,莆田园,颗粒物(PM10),111,171,173,73,61,184,96,113,104,24,27,14,15,0.6,0.9
2022-03-10T02:00:00,1637A,117.558,34.8438,枣庄市,市中区政府,颗粒物(PM10),106,161,183,78,57,189,96,93,93,32,42,11,12,0.9,0.8
2022-03-10T02:00:00,1638A,117.2852,34.7837,枣庄市,薛城环保局,颗粒物(PM10),103,156,172,75,58,176,103,104,104,32,33,32,22,0.7,0.7
2022-03-10T02:00:00,1639A,117.5852,34.7745,枣庄市,峄城区政府,颗粒物(PM10),92,134,185,63,62,181,116,114,114,21,43,15,16,0.7,0.7
2022-03-10T02:00:00,1640A,117.7276,34.5578,枣庄市,台儿庄区环保局,细颗粒物(PM2.5),98,134,169,73,66,180,68,98,83,79,50,10,14,0.9,0.8
2022-03-10T02:00:00,1641A,117.4518,35.0992,枣庄市,山亭区环保局,颗粒物(PM10),92,134,152,61,48,184,132,134,133,16,18,16,16,0.9,0.9
2022-03-10T02:00:00,1642A,121.2514,37.5639,烟台市,开发区,颗粒物(PM10),65,80,126,39,64,147,137,138,138,13,45,7,12,0.4,0.6
2022-03-10T02:00:00,1643A,121.3719,37.5433,烟台市,轴承厂,细颗粒物(PM2.5),69,70,96,50,64,169,143,142,142,10,37,4,8,0.7,0.9
2022-03-10T02:00:00,1644A,121.3181,37.5436,烟台市,西郊化工站,颗粒物(PM10),62,73,119,39,64,170,142,140,140,15,46,7,13,0.8,1.1
2022-03-10T02:00:00,1645A,121.4478,37.4822,烟台市,莱山环保局,颗粒物(PM10),57,63,96,36,57,148,118,117,117,14,30,6,8,0.6,0.6
2022-03-10T02:00:00,1646A,121.2611,37.4967,烟台市,福山环保局,颗粒物(PM10),62,73,129,39,64,170,130,141,136,10,35,6,10,0.8,1.1
2022-03-10T02:00:00,1650A,119.1437,36.7023,潍坊市,环保局,颗粒物(PM10),92,134,186,55,79,184,133,138,136,26,36,6,10,0.7,1.1
2022-03-10T02:00:00,1653A,116.6251,35.4302,济宁市,火炬城,颗粒物(PM10),112,174,154,80,47,157,100,126,113,26,23,19,14,0.8,0.7
2022-03-10T02:00:00,1655A,116.5491,35.4042,济宁市,电化厂,颗粒物(PM10),107,164,152,68,50,172,115,140,128,30,24,12,12,0.9,0.8
2022-03-10T02:00:00,1656A,117.1437,36.1937,泰安市,监测站,细颗粒物(PM2.5),132,163,180,100,68,180,97,119,108,29,31,10,12,0.7,0.9
2022-03-10T02:00:00,1657A,117.0885,36.2017,泰安市,人口学校,细颗粒物(PM2.5),122,156,183,92,58,166,121,120,120,20,32,13,13,0.6,0.7
2022-03-10T02:00:00,1658A,117.1089,36.1758,泰安市,电力学校,细颗粒物(PM2.5),127,139,177,96,73,173,119,118,118,22,37,10,12,1.1,1.1
2022-03-10T02:00:00,1659A,119.471,35.4209,日照市,监测站,颗粒物(PM10),75,100,140,53,73,128,39,55,47,53,49,6,8,0.7,0.9
2022-03-10T02:00:00,1660A,119.523,35.4216,日照市,市政府广场,颗粒物(PM10),69,88,127,34,67,127,127,124,124,18,35,5,6,0.5,1.2
2022-03-10T02:00:00,1661A,119.5587,35.4044,日照市,港务局,颗粒物(PM10),64,78,118,36,67,116,94,112,103,17,30,4,6,0.5,0.7
2022-03-10T02:00:00,1662A,122.1214,37.4236,威海市,华夏技校,细颗粒物(PM2.5),62,48,77,44,60,161,143,141,141,8,19,2,5,0.5,0.6
2022-03-10T02:00:00,1663A,122.0508,37.5236,威海市,山大分校,,49,49,63,27,44,166,153,150,150,14,26,4,6,0.2,0.3
2022-03-10T02:00:00,1664A,122.1067,37.5072,威海市,市监测站,颗粒物(PM10),52,54,74,23,41,176,157,152,152,11,27,5,6,0.4,0.5
2022-03-10T02:00:00,1666A,118.6614,37.4309,东营市,市环保局,颗粒物(PM10),104,158,191,63,93,192,100,104,102,23,36,30,30,0.7,1.1
2022-03-10T02:00:00,1669A,113.5824,24.7733,韶关市,市八中,,43,43,50,17,23,171,73,72,72,26,34,9,15,0.5,0.6
2022-03-10T02:00:00,1671A,113.5917,24.7972,韶关市,园林处,颗粒物(PM10),60,69,54,36,33,168,40,39,39,36,36,24,12,0.7,0.7
2022-03-10T02:00:00,1672A,113.6735,24.7791,韶关市,韶关学院,,50,50,43,29,24,170,42,42,42,21,23,10,13,0.4,0.5
2022-03-10T02:00:00,1673A,113.5971,24.6863,韶关市,曲江监测站,颗粒物(PM10),52,53,53,15,23,147,30,40,35,58,38,9,12,0.4,0.5
2022-03-10T02:00:00,1674A,116.6794,23.3667,汕头市,金平子站,颗粒物(PM10),51,52,51,17,16,134,104,116,110,21,22,9,10,0.6,0.6
2022-03-10T02:00:00,1675A,116.7244,23.3633,汕头市,龙湖子站,,44,44,41,20,13,122,102,111,106,19,22,7,8,0.4,0.4
2022-03-10T02:00:00,1676A,116.7258,23.2775,汕头市,濠江子站,,38,38,38,16,13,132,92,117,104,14,13,9,10,0.6,0.5
2022-03-10T02:00:00,1677A,116.7519,23.4714,汕头市,澄海子站,颗粒物(PM10),51,52,41,23,16,132,85,104,94,25,20,11,11,0.6,0.6
2022-03-10T02:00:00,1678A,116.6092,23.2539,汕头市,潮阳子站,颗粒物(PM10),52,53,41,14,13,138,100,108,104,15,17,10,11,0.5,0.4
2022-03-10T02:00:00,1680A,110.3539,21.2706,湛江市,湛江影剧院,,33,32,29,9,12,108,103,104,104,6,8,5,5,0.4,0.4
2022-03-10T02:00:00,1681A,110.3928,21.2228,湛江市,市环境监测站,,35,35,28,13,15,121,111,111,111,8,8,5,5,0.3,0.3
2022-03-10T02:00:00,1682A,110.4019,21.1997,湛江市,环保局宿舍,,34,29,29,13,15,114,107,110,108,7,7,5,5,0.4,0.4
2022-03-10T02:00:00,1683A,110.4111,21.2028,湛江市,霞山游泳场,,31,24,25,15,14,112,99,103,101,7,6,5,5,0.4,0.4
2022-03-10T02:00:00,1684A,110.3316,21.2679,湛江市,麻章区环保局,,33,27,31,10,14,108,103,105,104,5,6,4,5,0.4,0.4
2022-03-10T02:00:00,1685A,110.4558,21.2567,湛江市,坡头区环保局,,34,29,28,15,15,119,108,109,108,5,7,5,6,0.3,0.4
2022-03-10T02:00:00,1686A,111.0286,21.4688,茂名市,电白南海,,28,24,28,5,9,119,88,100,94,17,10,8,9,0.4,0.4
2022-03-10T02:00:00,1687A,110.9294,21.6533,茂名市,茂石化七小,,34,34,34,9,14,107,84,89,86,9,9,13,10,0.4,0.4
2022-03-10T02:00:00,1688A,110.9107,21.6687,茂名市,健康路,,29,27,30,3,6,115,91,98,94,11,9,13,9,0.5,0.5
2022-03-10T02:00:00,1689A,110.8592,21.6828,茂名市,高岭,,29,29,34,7,9,117,88,99,94,14,13,19,15,0.6,0.6
2022-03-10T02:00:00,1690A,116.1231,24.3284,梅州市,梅江月梅,,44,44,37,22,20,144,35,40,38,51,27,10,11,0.4,0.4
2022-03-10T02:00:00,1691A,116.0797,24.2719,梅州市,梅县新城,,36,35,38,25,22,146,53,55,54,34,26,6,6,0.6,0.6
2022-03-10T02:00:00,1692A,116.1248,24.2654,梅州市,环境监控中心,颗粒物(PM10),55,60,37,28,20,149,4,5,4,77,34,7,8,0.5,0.5
2022-03-10T02:00:00,1693A,115.3653,22.775,汕尾市,市环保局,,46,46,31,22,12,124,99,100,100,14,13,8,8,0.4,0.4
2022-03-10T02:00:00,1694A,115.3706,22.7898,汕尾市,市政府,,44,44,31,28,15,126,95,94,94,13,12,8,7,0.5,0.4
2022-03-10T02:00:00,1695A,115.3622,22.7925,汕尾市,新城中学,,50,50,34,24,14,127,101,101,101,10,10,8,6,0.4,0.3
2022-03-10T02:00:00,1696A,114.6778,23.7569,河源市,源西(对照点),,50,50,40,23,20,129,11,12,12,56,39,4,4,0.6,0.7
2022-03-10T02:00:00,1697A,114.6944,23.7586,河源市,东埔,颗粒物(PM10),52,54,38,20,20,130,13,12,12,59,34,4,4,0.7,0.7
2022-03-10T02:00:00,1698A,114.6892,23.7233,河源市,老城,,42,42,37,18,18,133,19,14,14,59,33,4,4,0.6,0.6
2022-03-10T02:00:00,1701A,111.9491,21.8658,阳江市,马南垌,,31,31,33,14,17,135,81,84,82,20,14,6,6,0.3,0.4
2022-03-10T02:00:00,1702A,113.0426,23.691,清远市,环保大楼(对照点),细颗粒物(PM2.5),55,47,51,39,34,192,91,102,96,28,36,7,8,0.5,0.6
2022-03-10T02:00:00,1703A,113.0208,23.7106,清远市,凤城街办,,39,39,47,23,28,185,100,94,94,28,38,6,9,0.7,0.7
2022-03-10T02:00:00,1705A,116.6367,23.6719,潮州市,西园路(对照点),,46,43,39,32,22,135,47,66,56,20,17,15,11,0.6,0.5
2022-03-10T02:00:00,1706A,116.6447,23.6706,潮州市,档案局,,46,46,40,24,22,139,46,57,52,20,17,15,11,0.6,0.5
2022-03-10T02:00:00,1708A,116.3701,23.5345,揭阳市,新兴,颗粒物(PM10),54,57,48,27,23,146,91,95,93,24,28,13,13,0.6,0.6
2022-03-10T02:00:00,1709A,116.3264,23.5443,揭阳市,西马,颗粒物(PM10),66,82,58,40,25,150,71,76,74,29,27,9,9,0.7,0.6
2022-03-10T02:00:00,1710A,116.3611,23.5626,揭阳市,东兴,颗粒物(PM10),60,69,56,26,19,142,75,83,79,29,26,13,11,0.7,0.7
2022-03-10T02:00:00,1711A,116.4151,23.5294,揭阳市,渔湖,,29,29,36,19,21,140,85,87,86,23,28,13,13,0.5,0.5
2022-03-10T02:00:00,1712A,112.0392,22.9169,云浮市,新市府(对照点),,35,34,29,24,19,141,64,68,66,11,10,5,7,0.4,0.4
2022-03-10T02:00:00,1714A,112.0539,22.9539,云浮市,牧羊,颗粒物(PM10),59,68,46,22,19,160,68,89,78,29,27,12,10,0.6,0.5
2022-03-10T02:00:00,1715A,102.575,24.3711,玉溪市,东风水库,,49,40,32,34,20,109,45,70,58,30,13,6,7,0.8,0.6
2022-03-10T02:00:00,1718A,115.4208,35.2464,菏泽市,气象局,颗粒物(PM10),106,161,178,55,44,149,124,119,119,26,27,8,8,0.4,0.5
2022-03-10T02:00:00,1719A,115.4747,35.2375,菏泽市,市政协,颗粒物(PM10),107,164,188,44,43,162,126,117,117,29,33,10,14,0.5,0.5
2022-03-10T02:00:00,1721A,113.3819,40.1097,大同市,果树场(对照点),颗粒物(PM10),91,132,102,58,44,133,20,27,24,49,37,20,17,1.2,0.7
2022-03-10T02:00:00,1723A,113.2994,40.0758,大同市,云冈宾馆,颗粒物(PM10),153,255,159,95,56,124,0,0,0,83,55,21,22,1.2,1.1
2022-03-10T02:00:00,1724A,113.3444,40.0917,大同市,大同大学,颗粒物(PM10),124,198,121,66,40,134,17,21,19,90,46,26,23,1.4,0.8
2022-03-10T02:00:00,1725A,113.2661,40.1269,大同市,安家小村,颗粒物(PM10),131,211,153,39,39,122,20,29,24,72,48,27,34,1.2,1.5
2022-03-10T02:00:00,1726A,113.2711,40.0844,大同市,教育学院,颗粒物(PM10),139,228,147,39,46,118,9,20,14,81,53,25,34,0.9,1.2
2022-03-10T02:00:00,1727A,113.1147,36.1547,长治市,清华站,颗粒物(PM10),82,114,135,34,46,134,104,113,108,23,40,9,9,0.7,1.1
2022-03-10T02:00:00,1728A,113.1031,36.1989,长治市,监测站,颗粒物(PM10),74,97,119,36,48,130,94,105,100,22,31,10,10,0.7,1.3
2022-03-10T02:00:00,1730A,113.0886,36.2125,长治市,审计局,颗粒物(PM10),79,107,127,36,52,128,102,102,102,27,39,9,9,0.5,0.8
2022-03-10T02:00:00,1731A,113.0844,36.1856,长治市,长治八中,颗粒物(PM10),94,137,156,37,46,131,83,99,91,35,38,9,11,0.5,0.9
2022-03-10T02:00:00,1733A,111.5531,36.0783,临汾市,临钢医院,颗粒物(PM10),88,125,140,52,57,149,6,15,10,80,56,7,14,1.1,1.3
2022-03-10T02:00:00,1734A,111.5028,36.0714,临汾市,技工学校,颗粒物(PM10),97,144,158,60,65,153,34,26,26,61,48,10,18,0.9,1.1
2022-03-10T02:00:00,1736A,111.5018,36.0855,临汾市,市委,颗粒物(PM10),87,124,146,57,57,145,32,28,28,61,54,8,14,1.2,1.3
2022-03-10T02:00:00,1738A,113.5758,37.8572,阳泉市,市中心,细颗粒物(PM2.5),168,236,208,127,102,135,30,32,31,70,77,14,18,1.3,1.2
2022-03-10T02:00:00,1739A,113.4894,37.8731,阳泉市,赛鱼,细颗粒物(PM2.5),110,157,148,83,74,136,8,7,7,106,79,17,20,1.3,1.1
2022-03-10T02:00:00,1740A,113.5819,37.8486,阳泉市,南庄,颗粒物(PM10),132,213,219,94,85,146,33,41,37,60,56,16,22,1.1,0.9
2022-03-10T02:00:00,1742A,113.5614,37.8703,阳泉市,平坦,细颗粒物(PM2.5),172,251,210,130,102,138,16,41,28,101,81,19,23,1.3,0.9
2022-03-10T02:00:00,1743A,113.5158,37.8392,阳泉市,大阳泉,颗粒物(PM10),85,120,180,57,87,148,105,94,94,30,38,18,21,0.9,1
2022-03-10T02:00:00,1744A,118.9233,42.2816,赤峰市,松山一中,颗粒物(PM10),86,122,79,59,36,146,140,145,142,19,34,16,20,0.9,0.9
2022-03-10T02:00:00,1745A,118.9576,42.2728,赤峰市,哈达街,颗粒物(PM10),91,131,82,59,40,142,142,140,140,16,32,15,18,1.0,1.1
2022-03-10T02:00:00,1746A,118.8788,42.2554,赤峰市,天义路,颗粒物(PM10),85,120,71,57,30,149,140,146,143,22,31,8,9,0.8,0.7
2022-03-10T02:00:00,1748A,123.044,41.1196,鞍山市,深沟寺,细颗粒物(PM2.5),69,86,83,50,54,149,149,146,146,13,29,6,13,0.6,1.1
2022-03-10T02:00:00,1749A,123.011,41.0931,鞍山市,太阳城,颗粒物(PM10),71,92,92,48,57,149,148,148,148,14,29,9,14,0.6,1.2
2022-03-10T02:00:00,1750A,123.0485,41.1442,鞍山市,太平,细颗粒物(PM2.5),70,85,88,51,57,139,139,138,138,15,38,10,15,0.6,1.3
2022-03-10T02:00:00,1751A,122.9642,41.0971,鞍山市,铁西三道街,颗粒物(PM10),81,111,127,51,66,135,135,128,128,21,54,10,20,1.0,1.8
2022-03-10T02:00:00,1752A,122.9341,41.0833,鞍山市,铁西工业园区,颗粒物(PM10),75,99,118,52,74,152,152,150,150,10,49,8,16,0.7,1.4
2022-03-10T02:00:00,1753A,123.022,41.0821,鞍山市,明达新区,颗粒物(PM10),73,95,87,47,51,154,154,153,153,10,27,8,13,0.5,1.1
2022-03-10T02:00:00,1754A,123.1289,41.0228,鞍山市,千山(对照点),细颗粒物(PM2.5),65,69,55,47,39,134,133,132,132,14,16,8,8,0.7,0.9
2022-03-10T02:00:00,1755A,123.7977,41.8491,抚顺市,望花区,颗粒物(PM10),66,82,138,29,84,119,119,116,116,15,42,17,27,0.6,1.4
2022-03-10T02:00:00,1756A,123.9161,41.8822,抚顺市,顺城区,颗粒物(PM10),63,75,155,33,87,116,116,114,114,11,46,7,14,0.6,1.5
2022-03-10T02:00:00,1757A,124.0436,41.8611,抚顺市,东洲区,颗粒物(PM10),61,71,104,31,65,142,122,120,120,9,28,10,14,1.7,1.3
2022-03-10T02:00:00,1758A,123.9247,41.8642,抚顺市,新抚区,颗粒物(PM10),61,72,120,34,73,109,109,105,105,23,53,8,13,0.9,1.4
2022-03-10T02:00:00,1759A,124.0972,41.8961,抚顺市,大伙房水库,颗粒物(PM10),57,64,82,30,57,142,119,119,119,8,24,11,13,0.6,1.1
2022-03-10T02:00:00,1760A,123.7086,41.8391,抚顺市,沈抚新城,颗粒物(PM10),73,95,133,31,80,118,118,112,112,16,43,14,21,1.0,1.6
2022-03-10T02:00:00,1761A,123.8275,41.3064,本溪市,大峪,颗粒物(PM10),66,81,85,26,50,118,118,118,118,14,38,14,20,0.3,1.7
2022-03-10T02:00:00,1762A,123.7567,41.3325,本溪市,溪湖,颗粒物(PM10),66,82,116,40,54,105,102,105,104,37,48,34,37,1.1,2.1
2022-03-10T02:00:00,1763A,123.7169,41.3094,本溪市,彩屯,细颗粒物(PM2.5),102,118,134,76,80,86,81,79,79,55,56,31,42,3.2,3.3
2022-03-10T02:00:00,1764A,123.7669,41.2864,本溪市,东明,颗粒物(PM10),62,74,88,32,47,124,124,124,124,19,37,13,23,0.5,1.7
2022-03-10T02:00:00,1765A,123.7992,41.2664,本溪市,新立屯,颗粒物(PM10),65,79,73,34,44,131,131,128,128,8,31,12,18,0.6,1.8
2022-03-10T02:00:00,1766A,123.8142,41.3472,本溪市,威宁,颗粒物(PM10),63,75,91,24,42,96,96,91,91,17,30,8,10,0.6,1.3
2022-03-10T02:00:00,1767A,121.1115,41.0879,锦州市,南山,细颗粒物(PM2.5),97,96,135,72,95,136,79,85,82,19,36,13,19,0.8,1.3
2022-03-10T02:00:00,1768A,121.0533,40.8434,锦州市,开发区,细颗粒物(PM2.5),85,88,172,63,111,121,80,82,81,27,50,12,32,0.7,1.3
2022-03-10T02:00:00,1769A,121.1836,41.1119,锦州市,百股街道,细颗粒物(PM2.5),95,89,124,71,88,144,95,100,98,18,39,20,26,0.9,1.4
2022-03-10T02:00:00,1770A,121.1178,41.1222,锦州市,天安街道,细颗粒物(PM2.5),89,70,106,66,83,129,85,90,88,20,42,20,30,0.7,1.4
2022-03-10T02:00:00,1771A,121.1303,41.1386,锦州市,北湖公园,细颗粒物(PM2.5),92,88,120,68,75,142,94,100,97,20,37,13,24,0.7,1.1
2022-03-10T02:00:00,1772A,126.54,43.8622,吉林市,哈达湾,,37,37,57,21,37,122,101,100,100,10,18,7,10,0.5,0.7
2022-03-10T02:00:00,1773A,126.5844,43.8358,吉林市,东局子,,39,39,51,25,34,117,102,102,102,10,16,6,8,0.6,0.7
2022-03-10T02:00:00,1774A,126.5052,43.8245,吉林市,电力学院,,38,38,66,26,46,123,92,90,90,12,21,8,12,0.6,0.8
2022-03-10T02:00:00,1775A,126.6133,43.8972,吉林市,江北,,37,37,56,22,38,119,105,105,105,8,18,6,10,0.6,0.8
2022-03-10T02:00:00,1776A,126.555,43.8306,吉林市,江南公园,,39,37,56,27,43,114,94,94,94,9,16,7,10,0.5,0.7
2022-03-10T02:00:00,1778A,126.7061,43.7133,吉林市,丰满(对照点),,46,43,48,32,39,121,80,83,82,6,7,5,7,0.7,0.7
2022-03-10T02:00:00,1779A,123.9305,47.3636,齐齐哈尔市,安居小区,颗粒物(PM10),63,75,74,42,40,91,70,72,71,16,23,6,19,0.3,0.5
2022-03-10T02:00:00,1780A,123.9488,47.3386,齐齐哈尔市,中心广场,"颗粒物(PM10),细颗粒物(PM2.5)",64,77,76,46,45,89,70,67,67,13,24,22,51,0.7,0.8
2022-03-10T02:00:00,1781A,123.9483,47.3227,齐齐哈尔市,农牧车辆厂,颗粒物(PM10),68,85,74,26,37,99,54,63,58,30,20,33,11,0.6,0.6
2022-03-10T02:00:00,1783A,123.945,47.2988,齐齐哈尔市,市环境监测站,细颗粒物(PM2.5),67,79,78,48,45,94,66,68,67,17,17,4,4,0.5,0.5
2022-03-10T02:00:00,1784A,129.61,44.561,牡丹江市,环保大楼,细颗粒物(PM2.5),78,78,68,57,41,111,26,20,20,38,41,7,7,1.1,0.9
2022-03-10T02:00:00,1785A,129.6115,44.5782,牡丹江市,文化广场,细颗粒物(PM2.5),85,92,84,63,44,101,5,5,5,58,50,11,15,1.5,1.2
2022-03-10T02:00:00,1787A,129.6364,44.6075,牡丹江市,机车工厂,细颗粒物(PM2.5),78,92,79,57,46,107,8,14,11,55,40,70,16,1.1,0.9
2022-03-10T02:00:00,1788A,129.6386,44.5462,牡丹江市,第一中学,,42,36,54,29,31,112,24,21,21,34,28,3,5,0.8,0.8
2022-03-10T02:00:00,1789A,124.81117,46.03138,大庆市,大同区,细颗粒物(PM2.5),68,72,111,49,92,115,69,68,68,18,28,6,7,0.7,0.9
2022-03-10T02:00:00,1790A,125.129,46.533,大庆市,龙凤区,颗粒物(PM10),56,61,128,37,92,114,64,66,65,18,34,7,20,0.7,1
2022-03-10T02:00:00,1791A,124.902,46.408,大庆市,红岗区,细颗粒物(PM2.5),58,51,89,41,68,120,68,66,66,19,28,4,6,0.9,0.9
2022-03-10T02:00:00,1792A,125.153,46.586,大庆市,萨尔图区,细颗粒物(PM2.5),65,67,112,47,100,120,64,65,64,20,40,8,11,0.6,0.8
2022-03-10T02:00:00,1793A,124.9042,46.6215,大庆市,让胡路区,,,71,103,34,73,113,72,70,70,24,35,18,9,,
2022-03-10T02:00:00,1794A,118.3606,31.3519,芜湖市,监测站,颗粒物(PM10),71,91,97,32,42,157,88,94,91,38,44,9,9,0.5,0.6
2022-03-10T02:00:00,1795A,118.3714,31.4134,芜湖市,科创中心,颗粒物(PM10),70,90,97,39,48,163,82,88,85,38,40,9,10,0.6,0.7
2022-03-10T02:00:00,1796A,118.3673,31.3131,芜湖市,四水厂,颗粒物(PM10),73,95,100,37,47,164,89,93,91,28,34,9,10,0.6,0.7
2022-03-10T02:00:00,1798A,118.5092,31.6837,马鞍山市,湖东路四小,颗粒物(PM10),56,61,77,37,42,159,72,97,84,38,32,8,10,0.5,0.5
2022-03-10T02:00:00,1799A,118.5024,31.6449,马鞍山市,开发区,颗粒物(PM10),64,78,87,32,38,151,81,88,84,36,39,11,12,0.7,0.8
2022-03-10T02:00:00,1800A,118.5228,31.7231,马鞍山市,慈湖,颗粒物(PM10),71,91,108,45,58,140,64,61,61,46,48,30,24,0.6,0.7
2022-03-10T02:00:00,1802A,118.6245,31.7241,马鞍山市,濮塘(对照点),颗粒物(PM10),58,65,65,31,36,142,76,82,79,23,22,8,7,0.4,0.5
2022-03-10T02:00:00,1803A,115.9872,29.6815,九江市,十里,颗粒物(PM10),52,54,52,21,20,120,2,5,4,78,48,8,9,0.6,0.6
2022-03-10T02:00:00,1804A,115.9584,29.7046,九江市,茅山头,颗粒物(PM10),63,76,55,28,23,117,2,2,2,76,51,6,7,0.4,0.5
2022-03-10T02:00:00,1805A,115.9877,29.7295,九江市,西园,,,62,43,28,21,117,1,18,10,86,43,8,9,0.7,0.6
2022-03-10T02:00:00,1806A,116.0172,29.6547,九江市,五七二七厂,,29,29,40,12,12,116,79,77,77,8,8,4,6,0.3,0.4
2022-03-10T02:00:00,1808A,115.9114,29.6038,九江市,综合工业园,颗粒物(PM10),69,87,58,29,28,112,19,13,13,73,44,7,9,0.3,0.5
2022-03-10T02:00:00,1809A,116.0721,29.7535,九江市,石化总厂,,,62,50,33,22,116,1,32,16,120,48,19,15,0.3,0.2
2022-03-10T02:00:00,1810A,115.9773,29.5698,九江市,庐山气象台(对照点),,37,16,27,13,13,129,118,121,120,3,4,5,3,0.1,0.1
2022-03-10T02:00:00,1812A,112.3931,34.6516,洛阳市,市委党校,颗粒物(PM10),121,191,205,70,63,144,24,26,25,80,50,9,9,0.7,0.8
2022-03-10T02:00:00,1814A,112.4657,34.6871,洛阳市,豫西宾馆,颗粒物(PM10),110,170,201,55,57,132,30,48,39,63,36,10,11,0.8,0.8
2022-03-10T02:00:00,1815A,112.494,34.6886,洛阳市,河南林校,颗粒物(PM10),113,175,201,46,53,145,61,66,64,38,37,6,7,0.8,0.8
2022-03-10T02:00:00,1816A,112.3844,34.623,洛阳市,开发区管委会,颗粒物(PM10),106,162,172,53,59,150,51,54,52,48,39,5,6,0.5,0.6
2022-03-10T02:00:00,1817A,112.4267,34.6258,洛阳市,市委新办公区,颗粒物(PM10),114,177,186,60,58,134,23,39,31,62,38,4,5,0.6,0.5
2022-03-10T02:00:00,1818A,114.4839,36.0621,安阳市,棉研所(对照点),颗粒物(PM10),121,191,217,84,69,136,45,54,50,41,43,7,9,0.7,0.7
2022-03-10T02:00:00,1819A,114.3551,36.1017,安阳市,红庙街,颗粒物(PM10),119,187,219,57,65,144,48,45,45,52,46,10,12,0.6,0.9
2022-03-10T02:00:00,1820A,114.361,36.0681,安阳市,银杏小区,颗粒物(PM10),123,196,226,73,80,138,42,42,42,60,49,7,9,0.6,0.9
2022-03-10T02:00:00,1824A,114.3389,34.7781,开封市,肿瘤医院,颗粒物(PM10),99,147,162,47,50,138,87,77,77,29,35,5,8,0.4,0.5
2022-03-10T02:00:00,1826A,114.2885,34.7965,开封市,世纪星幼儿园,颗粒物(PM10),93,136,152,40,38,145,108,98,98,26,36,9,10,0.6,0.7
2022-03-10T02:00:00,1828A,113.2269,35.2127,焦作市,市环保局,颗粒物(PM10),81,112,142,36,46,147,109,115,112,10,17,5,7,0.8,0.9
2022-03-10T02:00:00,1829A,113.2467,35.176,焦作市,高新区政府,颗粒物(PM10),92,134,163,39,47,151,100,114,107,18,21,8,12,0.5,0.6
2022-03-10T02:00:00,1830A,113.1987,35.2703,焦作市,影视城(对照点),颗粒物(PM10),71,91,130,35,36,148,114,118,116,8,10,6,8,0.6,0.6
2022-03-10T02:00:00,1832A,113.3257,33.742,平顶山市,新华旅馆,颗粒物(PM10),92,133,166,52,52,151,21,53,37,72,47,3,6,0.3,0.3
2022-03-10T02:00:00,1833A,113.2919,33.737,平顶山市,规划设计院,颗粒物(PM10),118,185,163,50,52,141,9,24,16,79,41,3,5,0.2,0.3
2022-03-10T02:00:00,1834A,113.182,33.774,平顶山市,平顶山工学院,颗粒物(PM10),110,170,160,51,53,146,51,54,52,37,29,5,5,0.4,0.4
2022-03-10T02:00:00,1835A,111.1922,34.7752,三门峡市,市政府,颗粒物(PM10),96,141,164,48,54,144,99,107,103,21,18,9,10,0.6,0.7
2022-03-10T02:00:00,1836A,111.1587,34.7942,三门峡市,开发区,颗粒物(PM10),114,178,180,60,53,137,81,94,88,26,22,10,8,0.5,0.6
2022-03-10T02:00:00,1838A,111.143,34.7955,三门峡市,风景区(对照点),颗粒物(PM10),112,173,169,60,55,139,89,101,95,22,20,23,13,0.6,0.6
2022-03-10T02:00:00,1840A,111.2992,30.6981,宜昌市,白龙岗,颗粒物(PM10),64,78,77,39,31,139,46,42,42,33,35,5,7,0.4,0.4
2022-03-10T02:00:00,1841A,111.3549,30.6465,宜昌市,伍家岗,颗粒物(PM10),69,88,83,41,34,129,22,21,21,54,44,6,8,0.8,0.8
2022-03-10T02:00:00,1842A,111.2628,30.6961,宜昌市,点军区,细颗粒物(PM2.5),79,106,87,58,38,148,42,40,40,24,28,6,9,0.7,0.6
2022-03-10T02:00:00,1843A,111.3275,30.7819,宜昌市,夷陵区,颗粒物(PM10),71,92,91,44,35,148,28,25,25,46,36,4,6,0.5,0.5
2022-03-10T02:00:00,1844A,112.2494,30.3197,荆州市,市图书馆,颗粒物(PM10),69,87,83,39,31,135,4,5,4,96,54,19,26,1.2,1
2022-03-10T02:00:00,1845A,112.2008,30.3544,荆州市,市委党校,颗粒物(PM10),76,101,91,51,39,131,51,59,55,44,44,19,23,0.8,0.8
2022-03-10T02:00:00,1847A,113.1094,29.3578,岳阳市,南湖风景区,颗粒物(PM10),63,75,61,36,27,144,70,53,53,52,45,15,13,0.7,0.7
2022-03-10T02:00:00,1848A,113.1493,29.4251,岳阳市,城陵矶,颗粒物(PM10),92,134,76,44,33,133,13,10,10,96,60,16,16,0.6,0.6
2022-03-10T02:00:00,1849A,113.1497,29.3575,岳阳市,开发区,颗粒物(PM10),67,84,54,30,21,152,86,66,66,32,39,10,10,0.6,0.5
2022-03-10T02:00:00,1850A,113.2621,29.4758,岳阳市,云溪区,细颗粒物(PM2.5),74,75,62,54,37,154,63,52,52,34,29,10,9,0.9,0.7
2022-03-10T02:00:00,1851A,112.9943,29.4402,岳阳市,君山区,颗粒物(PM10),59,68,66,32,28,146,55,71,63,58,46,12,8,0.7,0.6
2022-03-10T02:00:00,1852A,113.2117,29.355,岳阳市,金凤水库(对照点),颗粒物(PM10),56,62,52,31,24,148,55,56,56,53,25,10,11,0.6,0.5
2022-03-10T02:00:00,1854A,111.6975,28.9703,常德市,市二中,细颗粒物(PM2.5),79,90,78,58,41,147,70,66,66,25,27,17,14,0.9,0.8
2022-03-10T02:00:00,1857A,111.7158,29.1456,常德市,白鹤山(对照点),颗粒物(PM10),55,59,64,28,35,149,119,108,108,10,12,10,13,0.5,0.5
2022-03-10T02:00:00,1858A,110.5319,29.1217,张家界市,永定新区,颗粒物(PM10),61,71,83,34,39,144,77,76,76,8,15,3,2,0.3,0.4
2022-03-10T02:00:00,1859A,110.4697,29.1242,张家界市,电业局,颗粒物(PM10),54,58,65,36,26,81,58,60,59,15,18,4,5,0.3,0.3
2022-03-10T02:00:00,1860A,110.5594,29.3547,张家界市,未央路,颗粒物(PM10),56,61,72,30,20,125,41,41,41,6,9,3,4,0.5,0.4
2022-03-10T02:00:00,1861A,110.4417,29.315,张家界市,袁家界(对照点),颗粒物(PM10),58,66,72,37,41,145,134,134,134,16,12,3,3,0.3,0.2
2022-03-10T02:00:00,1862A,110.4144,25.3167,桂林市,电子科大尧山校区(对照点),细颗粒物(PM2.5),54,50,50,38,31,164,60,64,62,7,7,6,6,0.4,0.4
2022-03-10T02:00:00,1863A,110.2819,25.2697,桂林市,监测站,细颗粒物(PM2.5),72,68,79,52,46,144,65,74,70,22,32,11,15,1.0,0.8
2022-03-10T02:00:00,1864A,110.3089,25.2708,桂林市,龙隐路小学,细颗粒物(PM2.5),80,76,68,59,47,155,45,52,48,34,30,9,17,1.1,1
2022-03-10T02:00:00,1865A,110.2869,25.2178,桂林市,八中,,,82,71,,29,147,58,55,55,29,27,17,9,0.8,0.6
2022-03-10T02:00:00,1866A,109.2262,21.588,北海市,牛尾岭水库(对照点),细颗粒物(PM2.5),52,51,46,36,37,116,50,53,52,14,11,7,8,0.5,0.6
2022-03-10T02:00:00,1867A,109.1436,21.4086,北海市,海滩公园,,49,46,36,34,18,135,96,93,93,12,12,10,7,0.9,0.7
2022-03-10T02:00:00,1868A,109.0981,21.4661,北海市,新市环保局,,43,43,35,27,22,126,92,90,90,7,8,9,6,0.6,0.5
2022-03-10T02:00:00,1869A,109.1778,21.5233,北海市,北海工业园,细颗粒物(PM2.5),53,49,59,37,34,128,82,76,76,10,15,7,8,0.6,0.6
2022-03-10T02:00:00,1870A,109.4856,24.3895,柳州市,柳东小学,颗粒物(PM10),63,76,65,41,42,165,98,74,74,26,21,10,12,0.7,0.7
2022-03-10T02:00:00,1871A,109.4157,24.3277,柳州市,环保监测站,细颗粒物(PM2.5),94,108,72,70,44,156,5,14,10,98,31,8,9,1.1,0.7
2022-03-10T02:00:00,1872A,109.389,24.341,柳州市,河西水厂,细颗粒物(PM2.5),109,128,72,82,39,150,44,38,38,66,34,14,14,1.2,1
2022-03-10T02:00:00,1873A,109.4311,24.2921,柳州市,市四中,颗粒物(PM10),90,129,80,47,35,149,5,5,5,79,35,10,10,1.0,0.7
2022-03-10T02:00:00,1874A,109.4006,24.3631,柳州市,市九中,细颗粒物(PM2.5),84,105,70,62,37,148,50,41,41,52,30,8,8,1.1,0.9
2022-03-10T02:00:00,1875A,109.4958,24.3134,柳州市,古亭山,,43,43,54,25,29,162,18,35,26,71,31,5,6,0.5,0.5
2022-03-10T02:00:00,1876A,109.5078,18.2489,三亚市,河东子站,,34,34,30,10,12,113,88,86,86,5,7,3,3,0.5,0.4
2022-03-10T02:00:00,1877A,109.4964,18.2681,三亚市,河西子站,,29,24,27,12,11,119,90,86,86,3,5,4,4,0.3,0.4
2022-03-10T02:00:00,1878A,104.7778,31.4741,绵阳市,富乐山,,,65,60,,36,115,30,30,30,37,26,6,7,0.7,0.6
2022-03-10T02:00:00,1879A,104.7563,31.4535,绵阳市,市人大,颗粒物(PM10),64,77,72,37,39,118,3,14,8,70,54,8,8,0.9,0.9
2022-03-10T02:00:00,1880A,104.6697,31.4668,绵阳市,高新区自来水公司,颗粒物(PM10),77,104,86,49,47,111,5,5,5,68,53,3,3,0.9,0.9
2022-03-10T02:00:00,1881A,104.7287,31.5075,绵阳市,三水厂,颗粒物(PM10),72,94,86,44,46,113,1,3,2,68,53,4,4,1.0,1.1
2022-03-10T02:00:00,1882A,104.563,28.793,宜宾市,石马中学(对照点),细颗粒物(PM2.5),118,121,99,89,72,167,23,39,31,47,30,12,10,1.0,0.9
2022-03-10T02:00:00,1883A,104.6201,28.7728,宜宾市,市委,细颗粒物(PM2.5),113,129,105,85,68,169,29,36,32,56,49,16,14,0.9,0.8
2022-03-10T02:00:00,1884A,104.6055,28.793,宜宾市,宜宾四中,细颗粒物(PM2.5),108,122,108,81,72,170,48,46,46,46,51,22,15,0.9,0.9
2022-03-10T02:00:00,1886A,104.5742,28.7199,宜宾市,黄金嘴,细颗粒物(PM2.5),108,122,101,81,66,175,21,17,17,61,39,9,11,0.8,0.8
2022-03-10T02:00:00,1888A,101.6891,26.571,攀枝花市,弄弄坪,细颗粒物(PM2.5),89,110,61,66,43,112,4,4,4,78,43,37,24,4.6,1.5
2022-03-10T02:00:00,1889A,101.5769,26.5928,攀枝花市,河门口,细颗粒物(PM2.5),59,63,42,42,22,117,32,37,34,39,22,38,24,1.4,0.9
2022-03-10T02:00:00,1890A,101.7169,26.585,攀枝花市,炳草岗,细颗粒物(PM2.5),75,82,55,55,35,108,3,3,3,82,56,29,24,1.5,1.5
2022-03-10T02:00:00,1891A,101.7369,26.5008,攀枝花市,仁和,,39,39,34,25,20,118,53,56,54,17,20,5,6,0.6,0.6
2022-03-10T02:00:00,1893A,105.4324,28.9634,泸州市,九狮山(对照点),颗粒物(PM10),76,101,96,53,53,177,44,43,43,23,23,8,14,0.5,0.5
2022-03-10T02:00:00,1894A,105.4427,28.9063,泸州市,小市上码头,颗粒物(PM10),84,118,105,57,54,162,10,13,12,94,58,18,20,1.1,1
2022-03-10T02:00:00,1895A,105.4241,28.8573,泸州市,兰田宪桥,细颗粒物(PM2.5),78,0,92,57,47,165,17,16,16,62,36,12,16,0.8,0.7
2022-03-10T02:00:00,1896A,105.4379,28.8833,泸州市,市环监站,颗粒物(PM10),88,125,99,53,47,161,31,77,54,62,38,23,22,0.9,0.7
2022-03-10T02:00:00,1901A,104.4239,31.1208,德阳市,东山公园,颗粒物(PM10),69,87,82,35,43,124,17,51,34,73,44,8,11,0.8,0.7
2022-03-10T02:00:00,1902A,104.3826,31.1317,德阳市,西小区,颗粒物(PM10),73,95,101,48,52,121,3,9,6,69,55,8,11,0.8,0.9
2022-03-10T02:00:00,1904A,104.3553,31.1091,德阳市,耐火材料厂,颗粒物(PM10),107,164,110,58,55,111,6,21,14,68,60,12,12,0.6,0.7
2022-03-10T02:00:00,1905A,106.056,30.8064,南充市,西山风景区(对照点),细颗粒物(PM2.5),62,64,77,44,44,169,98,109,104,14,14,2,11,0.8,0.8
2022-03-10T02:00:00,1906A,106.0789,30.8023,南充市,南充市委,细颗粒物(PM2.5),89,106,95,66,61,160,71,54,54,19,43,2,5,0.7,0.9
2022-03-10T02:00:00,1907A,106.1031,30.8217,南充市,南充炼油厂,"颗粒物(PM10),细颗粒物(PM2.5)",80,110,102,59,47,153,51,46,46,31,42,2,8,0.9,1
2022-03-10T02:00:00,1908A,106.1064,30.7856,南充市,高坪区监测站,细颗粒物(PM2.5),112,140,101,84,61,178,57,40,40,46,46,1,6,0.9,1.1
2022-03-10T02:00:00,1909A,106.0642,30.7636,南充市,嘉陵区环保局,细颗粒物(PM2.5),84,105,83,62,57,169,76,55,55,34,49,8,11,0.7,1.1
2022-03-10T02:00:00,1910A,106.1087,30.8388,南充市,市环境监测站,颗粒物(PM10),67,83,82,47,48,157,63,62,62,33,28,3,6,0.6,0.6
2022-03-10T02:00:00,1911A,106.9222,27.6869,遵义市,丁字口,细颗粒物(PM2.5),60,66,65,43,34,152,57,47,47,36,32,28,21,0.9,0.8
2022-03-10T02:00:00,1912A,106.9242,27.7019,遵义市,凤凰山,细颗粒物(PM2.5),60,63,60,43,35,170,118,120,119,13,13,10,11,0.6,0.5
2022-03-10T02:00:00,1913A,106.8906,27.6486,遵义市,忠庄,颗粒物(PM10),59,68,62,41,32,153,109,108,108,17,17,9,8,0.4,0.4
2022-03-10T02:00:00,1914A,106.9231,27.6506,遵义市,舟水桥,细颗粒物(PM2.5),69,72,72,50,42,147,46,45,45,33,23,8,9,0.4,0.4
2022-03-10T02:00:00,1915A,106.9178,27.72,遵义市,干田坝,细颗粒物(PM2.5),67,74,59,48,36,156,56,75,66,30,24,15,14,0.6,0.7
2022-03-10T02:00:00,1916A,103.7897,25.5035,曲靖市,环境监测站,颗粒物(PM10),59,68,34,25,15,128,88,91,90,25,23,16,6,1.1,0.6
2022-03-10T02:00:00,1917A,103.8,25.5364,曲靖市,烟厂办公区,颗粒物(PM10),59,68,35,24,17,134,92,94,93,17,16,15,7,1.0,0.5
2022-03-10T02:00:00,1918A,108.7197,34.3956,咸阳市,气象站(对照点),颗粒物(PM10),126,202,197,84,73,150,4,4,4,109,78,8,11,0.9,0.8
2022-03-10T02:00:00,1919A,108.673,34.3155,咸阳市,实验中学,颗粒物(PM10),129,207,210,82,90,149,6,39,22,108,63,11,13,0.9,0.9
2022-03-10T02:00:00,1920A,108.7233,34.3617,咸阳市,师范学院,颗粒物(PM10),135,220,196,87,81,158,18,10,10,90,65,10,13,0.9,0.8
2022-03-10T02:00:00,1922A,109.0656,35.0994,铜川市,党校(对照点),细颗粒物(PM2.5),100,148,143,75,55,129,14,12,12,91,51,18,22,0.9,0.7
2022-03-10T02:00:00,1923A,109.0697,35.0697,铜川市,王益区政府,颗粒物(PM10),95,140,152,68,58,123,20,24,22,59,49,12,14,0.6,0.7
2022-03-10T02:00:00,1924A,108.9344,34.9058,铜川市,新区管委会,颗粒物(PM10),96,141,153,62,59,149,77,76,76,23,30,14,18,0.7,0.8
2022-03-10T02:00:00,1926A,109.4131,36.6275,延安市,枣园(对照点),颗粒物(PM10),76,102,109,40,43,138,5,4,4,55,49,3,3,1.1,1
2022-03-10T02:00:00,1927A,109.4761,36.6028,延安市,延大医附院,颗粒物(PM10),80,109,165,46,61,106,2,2,2,61,59,5,6,1.3,1.5
2022-03-10T02:00:00,1929A,109.5056,36.6106,延安市,百米大道,颗粒物(PM10),98,145,147,57,57,97,2,3,2,82,77,11,12,2.0,1.5
2022-03-10T02:00:00,1930A,107.185,34.3063,宝鸡市,庙沟村(对照点),颗粒物(PM10),96,141,122,67,58,129,82,96,89,27,23,6,8,0.8,0.7
2022-03-10T02:00:00,1931A,107.0708,34.3017,宝鸡市,竹园沟,细颗粒物(PM2.5),90,112,123,67,67,128,50,52,51,26,30,4,8,0.6,0.7
2022-03-10T02:00:00,1932A,107.1906,34.3672,宝鸡市,三陆医院,细颗粒物(PM2.5),120,180,149,91,74,132,28,26,26,68,52,22,17,1.0,0.9
2022-03-10T02:00:00,1933A,107.1431,34.3547,宝鸡市,监测站,细颗粒物(PM2.5),98,128,126,73,71,132,36,34,34,37,38,4,6,0.8,0.8
2022-03-10T02:00:00,1934A,107.1186,34.3739,宝鸡市,技工学校,颗粒物(PM10),112,174,141,74,64,124,59,58,58,26,35,9,9,1.0,1
2022-03-10T02:00:00,1935A,107.3906,34.3528,宝鸡市,陈仓区环保局家属楼,细颗粒物(PM2.5),140,210,162,107,78,129,14,22,18,61,47,10,28,1.1,1.8
2022-03-10T02:00:00,1936A,107.2058,34.3497,宝鸡市,文理学院,细颗粒物(PM2.5),119,160,138,90,71,132,42,44,43,48,41,12,12,1.1,1
2022-03-10T02:00:00,1937A,107.2386,34.3622,宝鸡市,三迪小学,细颗粒物(PM2.5),119,164,142,90,72,131,29,33,31,56,47,13,13,0.9,0.8
2022-03-10T02:00:00,1938A,109.5293,34.5101,渭南市,农科所(对照点),颗粒物(PM10),104,158,178,61,59,145,41,32,32,40,39,7,10,0.9,0.9
2022-03-10T02:00:00,1939A,109.4974,34.4877,渭南市,日报社,颗粒物(PM10),114,178,182,66,63,158,6,4,4,80,54,10,13,0.8,0.9
2022-03-10T02:00:00,1940A,109.4636,34.493,渭南市,体育馆,颗粒物(PM10),113,175,189,61,63,158,2,8,5,93,55,11,12,0.8,0.8
2022-03-10T02:00:00,1941A,109.4259,34.5023,渭南市,高新一小,颗粒物(PM10),142,233,199,92,79,147,6,6,6,93,52,11,10,0.9,0.7
2022-03-10T02:00:00,1943A,102.1725,38.5339,金昌市,新川苑,颗粒物(PM10),213,359,434,111,122,125,70,64,64,5,18,3,25,0.4,0.5
2022-03-10T02:00:00,1944A,102.1692,38.5167,金昌市,天庆家园,颗粒物(PM10),225,367,425,101,106,122,57,57,57,24,20,6,25,0.8,0.8
2022-03-10T02:00:00,1945A,98.2908,39.7711,嘉峪关市,气象局,颗粒物(PM10),148,246,416,75,125,117,33,42,38,48,35,4,6,0.3,0.4
2022-03-10T02:00:00,1947A,106.3394,38.817,石嘴山市,沙湖旅游区(对照点),颗粒物(PM10),161,272,254,121,82,138,8,8,8,76,48,19,40,1.1,1.3
2022-03-10T02:00:00,1948A,106.3668,39.0145,石嘴山市,大武口朝阳西街,颗粒物(PM10),124,198,201,88,84,135,31,33,32,76,62,20,58,1.1,1.3
2022-03-10T02:00:00,1949A,106.7704,39.2282,石嘴山市,惠农南大街,颗粒物(PM10),139,227,222,102,80,127,20,13,13,71,69,26,44,1.4,1.8
2022-03-10T02:00:00,1950A,106.7099,39.1325,石嘴山市,红果子镇惠新街,颗粒物(PM10),173,296,235,126,98,132,23,21,21,65,58,25,46,1.4,1.7
2022-03-10T02:00:00,1951A,84.895,45.6094,克拉玛依市,长征新村,,21,21,31,7,14,80,57,54,54,16,19,6,7,0.3,0.3
2022-03-10T02:00:00,1952A,84.8988,45.5893,克拉玛依市,南林小区,,30,30,39,15,13,83,40,33,33,32,25,3,4,0.5,0.4
2022-03-10T02:00:00,1954A,84.905,44.3396,克拉玛依市,独山子区,,38,38,48,23,24,89,59,58,58,7,16,3,5,0.5,0.6
2022-03-10T02:00:00,1955A,85.6979,46.098,克拉玛依市,乌尔禾区商贸楼,,30,30,38,10,17,90,36,32,32,23,19,9,9,0.3,0.4
2022-03-10T02:00:00,1956A,86.1472,41.7538,巴音郭楞州,孔雀公园,颗粒物(PM10),77,104,144,26,39,116,91,80,80,21,23,9,4,0.2,0.2
2022-03-10T02:00:00,1957A,86.1972,41.7166,巴音郭楞州,棉纺厂,颗粒物(PM10),75,100,118,41,31,112,64,72,68,43,27,7,7,0.3,0.3
2022-03-10T02:00:00,1958A,86.2357,41.7173,巴音郭楞州,经济开发区,颗粒物(PM10),76,102,123,26,34,118,110,107,107,10,11,3,3,0.1,0.1
2022-03-10T02:00:00,1961A,117.532,36.6868,济南市,东山小学,颗粒物(PM10),109,168,193,61,61,170,140,138,138,23,36,15,12,0.8,0.6
2022-03-10T02:00:00,1966A,120.0405,35.8735,青岛市,黄岛区4号,细颗粒物(PM2.5),58,53,87,41,63,126,93,90,90,37,44,5,7,0.8,0.8
2022-03-10T02:00:00,1982A,122.0693,37.2174,威海市,文登开发区,,45,36,93,31,53,160,127,129,128,4,19,2,4,0.6,0.9
2022-03-10T02:00:00,2031A,113.1817,27.9958,株洲市,云田中学,,39,36,43,21,23,154,123,127,125,10,14,12,10,0.5,0.5
2022-03-10T02:00:00,2054A,114.1099,32.1059,信阳市,平桥分局,颗粒物(PM10),75,99,103,48,41,153,46,54,50,27,30,6,9,0.5,0.6
2022-03-10T02:00:00,2064A,113.9956,32.1271,信阳市,南湾水厂,颗粒物(PM10),75,100,99,26,31,159,65,80,72,15,14,6,7,0.6,0.6
2022-03-10T02:00:00,2065A,114.0775,32.1195,信阳市,市酿酒公司,颗粒物(PM10),68,86,92,35,38,150,30,20,20,48,38,7,7,0.5,0.6
2022-03-10T02:00:00,2066A,114.0609,32.1399,信阳市,审计局,颗粒物(PM10),71,92,105,37,37,154,25,19,19,46,41,6,7,0.4,0.5
2022-03-10T02:00:00,2067A,114.6613,33.6128,周口市,市环境监测站,颗粒物(PM10),95,140,148,45,47,137,92,90,90,22,28,7,11,0.4,0.6
2022-03-10T02:00:00,2068A,114.6758,33.6347,周口市,周口师范,颗粒物(PM10),92,133,142,44,41,141,94,101,98,23,25,7,10,0.7,0.7
2022-03-10T02:00:00,2069A,114.6546,33.5979,周口市,市运管处,颗粒物(PM10),93,135,138,50,46,135,87,86,86,38,38,10,13,0.6,0.6
2022-03-10T02:00:00,2070A,114.6369,33.6406,周口市,川汇区环保局,颗粒物(PM10),93,135,140,45,43,144,96,101,98,16,24,4,7,0.6,0.6
2022-03-10T02:00:00,2075A,117.6336,24.4674,漳州市,九湖(对照点),颗粒物(PM10),66,81,60,38,28,156,21,38,30,53,29,7,11,0.6,0.5
2022-03-10T02:00:00,2160A,112.85,35.5051,晋城市,自来水公司,颗粒物(PM10),85,120,136,34,38,160,63,80,72,46,37,8,11,0.9,1.2
2022-03-10T02:00:00,2161A,112.8318,35.4936,晋城市,白云商贸,颗粒物(PM10),100,149,168,36,44,158,66,84,75,31,24,8,9,0.6,0.9
2022-03-10T02:00:00,2162A,112.8508,35.4887,晋城市,市环保局,颗粒物(PM10),100,150,164,39,43,160,51,79,65,49,32,9,11,0.6,0.9
2022-03-10T02:00:00,2163A,112.8676,35.4897,晋城市,技术学院,颗粒物(PM10),97,143,148,31,41,153,37,70,54,68,39,8,10,0.5,0.8
2022-03-10T02:00:00,2165A,112.8453,35.546,晋城市,白马寺 (对照点),颗粒物(PM10),90,129,143,27,34,156,132,135,134,16,23,11,12,0.6,0.8
2022-03-10T02:00:00,2166A,112.4397,39.3522,朔州市,平朔,颗粒物(PM10),89,127,121,54,48,129,32,51,42,50,43,15,13,0.8,0.8
2022-03-10T02:00:00,2167A,112.4575,39.3617,朔州市,朔唯,颗粒物(PM10),87,124,132,49,44,130,29,50,40,51,45,13,19,0.6,0.5
2022-03-10T02:00:00,2168A,112.4258,39.3197,朔州市,区政府,颗粒物(PM10),81,111,119,44,39,126,47,73,60,36,36,14,16,0.7,0.7
2022-03-10T02:00:00,2169A,112.4072,39.3278,朔州市,市环保局,颗粒物(PM10),82,114,119,41,36,132,46,54,50,38,37,11,13,0.6,0.6
2022-03-10T02:00:00,2170A,112.4272,39.3681,朔州市,市二中,颗粒物(PM10),87,124,120,52,45,134,30,48,39,51,39,15,15,0.8,0.7
2022-03-10T02:00:00,2171A,112.7532,37.6945,晋中市,锦纶小区,细颗粒物(PM2.5),144,229,197,110,89,137,11,24,18,78,49,12,13,1.0,0.8
2022-03-10T02:00:00,2173A,112.7249,37.7067,晋中市,南都小区,细颗粒物(PM2.5),144,175,186,110,89,141,33,49,41,60,48,13,14,0.9,0.9
2022-03-10T02:00:00,2174A,112.6991,37.6982,晋中市,榆次区政府,颗粒物(PM10),181,312,194,124,90,138,4,17,10,112,53,28,17,1.4,0.9
2022-03-10T02:00:00,2175A,110.9956,35.0147,运城市,运城中学,颗粒物(PM10),91,132,137,55,46,151,132,136,134,13,12,9,10,0.6,0.6
2022-03-10T02:00:00,2178A,110.9686,35.0303,运城市,地区技校,颗粒物(PM10),86,122,133,37,33,138,122,123,122,14,14,7,8,0.4,0.4
2022-03-10T02:00:00,2179A,111.0414,35.1147,运城市,空港新区,颗粒物(PM10),99,147,154,49,48,145,72,123,98,43,18,10,12,0.7,0.7
2022-03-10T02:00:00,2181A,112.7383,38.4519,忻州市,开发区,细颗粒物(PM2.5),123,150,131,93,72,97,31,21,21,39,43,14,15,1.0,0.8
2022-03-10T02:00:00,2182A,112.7003,38.4928,忻州市,会展中心,细颗粒物(PM2.5),155,186,133,118,72,88,8,10,9,60,55,10,14,1.0,0.8
2022-03-10T02:00:00,2183A,111.1406,37.5211,吕梁市,环保局,颗粒物(PM10),99,147,174,48,48,71,5,2,2,81,77,12,16,0.6,0.7
2022-03-10T02:00:00,2185A,111.1297,37.5136,吕梁市,自来水公司,颗粒物(PM10),113,176,184,49,52,77,2,10,6,79,77,12,14,0.8,0.7
2022-03-10T02:00:00,2187A,106.8174,39.6973,乌海市,市林业局,颗粒物(PM10),164,277,158,104,50,108,4,18,11,114,38,136,31,2.8,1
2022-03-10T02:00:00,2188A,106.7907,39.6667,乌海市,中海勃湾学校,颗粒物(PM10),189,327,165,118,48,113,14,16,15,120,51,127,32,3.1,1
2022-03-10T02:00:00,2191A,122.2532,43.6801,通辽市,艺术职业学校,"颗粒物(PM10),细颗粒物(PM2.5)",80,109,74,59,32,124,103,112,108,30,27,22,23,0.7,0.6
2022-03-10T02:00:00,2192A,119.7594,49.2261,呼伦贝尔市,区环保局,,33,33,29,16,15,99,80,80,80,4,8,5,5,0.4,0.5
2022-03-10T02:00:00,2195A,107.4212,40.761,巴彦淖尔市,附二中,颗粒物(PM10),117,184,189,74,63,107,34,25,25,37,29,10,11,0.6,0.7
2022-03-10T02:00:00,2196A,107.37,40.7372,巴彦淖尔市,市环保大楼,细颗粒物(PM2.5),115,146,164,87,67,113,41,30,30,29,24,8,9,0.7,0.7
2022-03-10T02:00:00,2197A,113.1306,40.9923,乌兰察布市,集宁新区,颗粒物(PM10),88,126,94,50,36,146,74,74,74,37,33,16,18,0.8,0.7
2022-03-10T02:00:00,2200A,122.0392,46.0656,兴安盟,胜华新制药厂,细颗粒物(PM2.5),109,143,100,82,62,84,40,44,42,22,23,5,8,0.7,0.7
2022-03-10T02:00:00,2201A,121.9504,46.0741,兴安盟,科右前旗环保局,细颗粒物(PM2.5),202,203,113,152,81,89,22,26,24,36,26,8,7,1.3,0.8
2022-03-10T02:00:00,2202A,116.1042,43.9317,锡林郭勒盟,市环保监测站,颗粒物(PM10),51,52,45,14,12,101,50,42,42,15,17,10,10,0.8,0.8
2022-03-10T02:00:00,2203A,116.0781,43.9311,锡林郭勒盟,市政府,,41,41,32,12,13,102,49,48,48,13,16,6,8,0.6,0.7
2022-03-10T02:00:00,2204A,105.6467,38.8363,阿拉善盟,西城区西花园(对照点),颗粒物(PM10),102,154,172,45,47,111,88,95,92,11,16,7,7,0.5,0.5
2022-03-10T02:00:00,2205A,105.6985,38.8411,阿拉善盟,蒙二幼,颗粒物(PM10),99,147,165,43,47,110,94,93,93,6,15,9,8,0.2,0.4
2022-03-10T02:00:00,2206A,105.724,38.8516,阿拉善盟,环保局新楼,颗粒物(PM10),81,112,119,45,46,115,105,106,106,8,11,5,6,0.2,0.3
2022-03-10T02:00:00,2207A,121.6094,41.998,阜新市,工业园区,细颗粒物(PM2.5),97,98,143,72,49,146,111,125,118,32,33,18,18,0.7,0.6
2022-03-10T02:00:00,2208A,121.6697,42.0279,阜新市,长青街,颗粒物(PM10),115,179,138,83,49,134,90,94,92,23,31,23,21,0.7,0.8
2022-03-10T02:00:00,2209A,121.6673,42.0705,阜新市,农业园区,细颗粒物(PM2.5),114,101,110,86,54,140,93,101,97,23,19,18,34,0.7,0.6
2022-03-10T02:00:00,2210A,121.6717,42.0224,阜新市,东苑,细颗粒物(PM2.5),113,115,163,85,60,140,95,99,97,26,34,29,26,1.0,0.9
2022-03-10T02:00:00,2211A,121.6506,42.0498,阜新市,玉龙新城,细颗粒物(PM2.5),97,92,99,72,43,138,93,95,94,18,27,19,24,0.6,0.7
2022-03-10T02:00:00,2212A,123.2,41.1953,辽阳市,宏伟区,颗粒物(PM10),69,88,91,45,57,142,136,142,139,12,39,9,14,0.6,1.1
2022-03-10T02:00:00,2213A,123.1683,41.2495,辽阳市,新华园,细颗粒物(PM2.5),78,91,105,57,70,143,137,143,140,16,37,8,15,0.5,1.1
2022-03-10T02:00:00,2214A,123.2354,41.2639,辽阳市,滨河路,细颗粒物(PM2.5),85,82,94,63,64,136,127,136,132,15,37,11,17,0.3,0.9
2022-03-10T02:00:00,2215A,123.149,41.2991,辽阳市,铁西工业园,颗粒物(PM10),73,96,114,52,78,126,125,126,126,10,41,12,22,0.8,1.7
2022-03-10T02:00:00,2216A,123.8139,42.3022,铁岭市,汇工街西,颗粒物(PM10),74,97,110,41,68,112,112,99,99,24,43,14,23,0.9,1.3
2022-03-10T02:00:00,2217A,123.8649,42.2923,铁岭市,水上乐园,颗粒物(PM10),69,88,76,42,53,110,110,107,107,28,37,13,14,0.5,0.7
2022-03-10T02:00:00,2218A,123.8486,42.2867,铁岭市,银州路东段,颗粒物(PM10),79,107,97,46,58,118,118,114,114,31,33,12,13,0.6,0.8
2022-03-10T02:00:00,2219A,123.7153,42.2217,铁岭市,金沙江路北,颗粒物(PM10),78,106,115,47,61,94,82,94,88,53,54,17,17,1.0,1.1
2022-03-10T02:00:00,2220A,120.4318,41.5881,朝阳市,西梁,细颗粒物(PM2.5),122,171,111,92,71,143,123,130,126,17,29,15,15,1.0,1.1
2022-03-10T02:00:00,2221A,120.4521,41.5646,朝阳市,河畔小区,颗粒物(PM10),105,159,95,69,45,155,117,124,120,20,22,10,9,1.0,0.9
2022-03-10T02:00:00,2222A,120.4176,41.5648,朝阳市,八里堡,颗粒物(PM10),100,149,97,62,45,140,124,122,122,19,29,13,13,1.3,1.3
2022-03-10T02:00:00,2223A,120.3806,41.5969,朝阳市,农业园区,颗粒物(PM10),98,145,125,63,60,138,117,124,120,16,30,11,14,1.0,1.2
2022-03-10T02:00:00,2225A,124.4002,43.1713,四平市,一商场,颗粒物(PM10),65,80,103,32,49,117,117,108,108,12,36,11,14,0.4,0.8
2022-03-10T02:00:00,2226A,124.388,43.193,四平市,境园,颗粒物(PM10),56,61,80,29,49,115,115,106,106,21,48,14,12,0.6,0.8
2022-03-10T02:00:00,2227A,125.1358,42.8845,辽源市,环保局,,48,48,90,32,70,105,69,69,69,18,23,8,8,0.4,0.6
2022-03-10T02:00:00,2229A,125.9358,41.7173,通化市,光明,颗粒物(PM10),55,60,57,30,31,117,36,43,40,30,29,16,16,0.9,0.9
2022-03-10T02:00:00,2230A,125.9446,41.7325,通化市,铁路,颗粒物(PM10),60,69,61,34,35,107,17,15,15,39,36,21,18,1.1,0.8
2022-03-10T02:00:00,2231A,126.4219,41.9171,白山市,喜丰,颗粒物(PM10),79,107,108,41,39,124,20,39,30,51,38,15,27,1.4,1.2
2022-03-10T02:00:00,2232A,126.4077,41.9419,白山市,环保局,颗粒物(PM10),63,76,87,32,40,112,38,39,38,30,38,11,24,0.8,0.9
2022-03-10T02:00:00,2233A,124.8006,45.1214,松原市,江南,颗粒物(PM10),58,65,98,27,58,105,73,76,74,18,37,3,7,0.3,0.7
2022-03-10T02:00:00,2234A,124.7965,45.1722,松原市,江北,颗粒物(PM10),53,56,76,36,50,112,80,81,80,12,23,4,5,0.6,0.8
2022-03-10T02:00:00,2235A,122.7911,45.6077,白城市,洮北区环保局,颗粒物(PM10),68,85,62,39,30,84,62,66,64,16,17,5,9,0.6,0.5
2022-03-10T02:00:00,2236A,122.8738,45.5725,白城市,市环保局,颗粒物(PM10),66,81,59,44,35,81,56,59,58,34,34,7,7,0.4,0.4
2022-03-10T02:00:00,2237A,129.47,42.8883,延边朝鲜族自治州,妇幼医院,颗粒物(PM10),58,66,58,39,36,116,30,39,34,20,20,7,13,0.8,0.8
2022-03-10T02:00:00,2238A,129.5055,42.9108,延边朝鲜族自治州,延边医院,颗粒物(PM10),58,66,60,34,36,116,44,52,48,20,27,9,15,0.8,0.8
2022-03-10T02:00:00,2239A,129.3964,42.8881,延边朝鲜族自治州,朝阳川镇医院,颗粒物(PM10),57,64,68,29,42,117,36,32,32,13,20,5,8,0.6,0.7
2022-03-10T02:00:00,2240A,130.9762,45.3001,鸡西市,环保局,细颗粒物(PM2.5),109,110,75,82,50,102,5,6,6,74,47,13,12,1.4,0.7
2022-03-10T02:00:00,2243A,130.9429,45.3039,鸡西市,第一中学,细颗粒物(PM2.5),88,105,69,65,43,106,23,21,21,68,42,17,13,0.6,0.4
2022-03-10T02:00:00,2244A,130.2537,47.3416,鹤岗市,哈啤分公司,颗粒物(PM10),70,89,80,41,38,109,65,63,63,34,35,15,17,0.6,0.6
2022-03-10T02:00:00,2245A,130.2684,47.3086,鹤岗市,斯达机电,"颗粒物(PM10),细颗粒物(PM2.5)",54,58,58,38,37,120,80,88,84,21,22,5,6,0.6,0.5
2022-03-10T02:00:00,2246A,130.3114,47.3388,鹤岗市,东山纸板厂,细颗粒物(PM2.5),105,108,82,79,46,110,31,43,37,41,36,19,15,7.2,1.3
2022-03-10T02:00:00,2248A,131.1511,46.6937,双鸭山市,双合村,颗粒物(PM10),77,103,72,35,40,115,59,65,62,24,23,12,16,0.9,0.9
2022-03-10T02:00:00,2249A,131.1652,46.6191,双鸭山市,南小市,,31,31,43,20,25,113,90,89,89,11,15,6,8,0.7,0.7
2022-03-10T02:00:00,2250A,131.1524,46.6554,双鸭山市,环保局,,35,35,40,23,30,123,107,102,102,11,22,5,5,0.4,0.5
2022-03-10T02:00:00,2251A,131.12,46.5656,双鸭山市,苗圃(对照点),,49,29,36,34,37,182,104,100,100,9,8,4,4,0.5,0.5
2022-03-10T02:00:00,2252A,128.5159,47.4311,伊春市,环保局,,43,41,39,30,31,116,104,102,102,15,25,22,10,0.8,0.7
2022-03-10T02:00:00,2253A,128.9102,47.7412,伊春市,电力嘉园,,35,35,35,23,24,111,105,98,98,13,27,19,9,0.9,0.8
2022-03-10T02:00:00,2254A,129.5029,48.471,伊春市,汤旺河国家公园(对照点),,39,26,26,19,29,124,124,122,122,5,5,9,7,0.4,0.4
2022-03-10T02:00:00,2255A,130.2751,46.8028,佳木斯市,佳纺,颗粒物(PM10),54,57,56,28,41,119,76,68,68,12,24,5,7,0.5,0.6
2022-03-10T02:00:00,2256A,130.3995,46.8307,佳木斯市,发电厂,,48,48,48,28,40,115,80,78,78,15,28,9,8,0.5,0.6
2022-03-10T02:00:00,2257A,130.3258,46.7975,佳木斯市,环保局,,38,38,50,24,37,128,87,92,90,17,22,6,7,0.5,0.7
2022-03-10T02:00:00,2258A,130.3648,46.8032,佳木斯市,十一中,,42,38,46,29,41,109,77,80,78,20,38,8,10,0.5,0.7
2022-03-10T02:00:00,2259A,130.3794,46.7588,佳木斯市,四丰(对照点),,46,26,34,32,35,120,89,89,89,9,9,8,6,0.5,0.5
2022-03-10T02:00:00,2262A,131.0518,45.8751,七台河市,新一中(对照点),,40,40,39,18,23,111,65,68,66,15,18,4,4,0.6,0.6
2022-03-10T02:00:00,2263A,127.4833,50.2524,黑河市,交通局,细颗粒物(PM2.5),58,49,33,41,26,123,109,112,110,10,14,7,7,0.7,0.6
2022-03-10T02:00:00,2264A,127.5144,50.2341,黑河市,环保局,细颗粒物(PM2.5),68,57,39,49,30,135,111,111,111,15,11,9,8,0.7,0.5
2022-03-10T02:00:00,2265A,127.5291,50.2472,黑河市,大黑河岛(对照点),颗粒物(PM10),64,78,47,31,28,130,102,105,104,17,14,8,19,0.8,0.6
2022-03-10T02:00:00,2266A,126.9785,46.6365,绥化市,人和东街,细颗粒物(PM2.5),62,69,109,44,75,107,81,93,87,22,33,41,27,0.6,0.7
2022-03-10T02:00:00,2267A,126.964,46.6528,绥化市,党政办公中心,细颗粒物(PM2.5),63,66,102,45,79,99,86,89,88,16,32,9,20,0.4,0.6
2022-03-10T02:00:00,2269A,124.1069,50.4097,大兴安岭地区,科技局,,43,42,31,30,22,94,78,78,78,12,10,4,4,0.8,0.7
2022-03-10T02:00:00,2270A,117.396,32.939,蚌埠市,工人疗养院,颗粒物(PM10),105,160,130,67,44,168,84,65,65,41,52,13,11,0.7,0.5
2022-03-10T02:00:00,2271A,117.3605,32.9427,蚌埠市,百货大楼,颗粒物(PM10),114,178,149,69,39,168,90,76,76,38,49,14,11,0.7,0.6
2022-03-10T02:00:00,2273A,117.4185,32.8911,蚌埠市,蚌埠学院,颗粒物(PM10),97,144,126,58,38,170,91,93,92,30,30,12,11,0.6,0.5
2022-03-10T02:00:00,2274A,117.3533,32.9673,蚌埠市,淮上区政府,颗粒物(PM10),102,153,138,70,44,163,61,71,66,69,48,21,14,0.6,0.5
2022-03-10T02:00:00,2275A,117.3145,32.8977,蚌埠市,高新区,颗粒物(PM10),92,134,128,61,36,157,92,104,98,29,27,10,9,0.7,0.5
2022-03-10T02:00:00,2277A,116.8305,32.7727,淮南市,潘集区政府,颗粒物(PM10),114,178,118,65,48,131,82,82,82,31,21,6,10,0.7,0.5
2022-03-10T02:00:00,2278A,117.0067,32.6524,淮南市,师范学院,颗粒物(PM10),100,150,111,61,39,125,103,97,97,17,22,12,11,0.4,0.5
2022-03-10T02:00:00,2279A,116.8569,32.5951,淮南市,谢家集区政府,颗粒物(PM10),82,114,97,50,35,128,101,99,99,22,21,11,16,0.4,0.5
2022-03-10T02:00:00,2280A,116.8281,32.633,淮南市,八公山区政府,颗粒物(PM10),79,108,92,43,36,130,102,103,102,22,18,16,14,0.5,0.5
2022-03-10T02:00:00,2281A,116.6325,32.6201,淮南市,焦岗湖风景区管理处(对照点),颗粒物(PM10),75,99,90,33,32,141,92,92,92,18,19,12,12,0.5,0.4
2022-03-10T02:00:00,2282A,116.8004,33.975,淮北市,监测站,细颗粒物(PM2.5),94,118,148,70,56,154,133,148,140,14,22,8,7,0.7,0.6
2022-03-10T02:00:00,2283A,116.8091,33.9007,淮北市,烈山区政府,颗粒物(PM10),92,134,147,44,35,171,127,146,136,30,25,17,12,0.7,0.5
2022-03-10T02:00:00,2284A,116.7856,33.9477,淮北市,职业技术学院,"颗粒物(PM10),细颗粒物(PM2.5)",85,120,115,63,52,153,122,136,129,24,18,9,7,0.6,0.6
2022-03-10T02:00:00,2285A,117.8177,30.9412,铜陵市,市第四中学,颗粒物(PM10),74,97,75,51,34,133,6,8,7,96,47,11,12,0.8,0.7
2022-03-10T02:00:00,2286A,117.8059,30.9273,铜陵市,市公路局,颗粒物(PM10),71,92,80,43,36,123,13,32,22,82,49,16,18,0.8,0.9
2022-03-10T02:00:00,2287A,117.7807,30.9413,铜陵市,市新民污水厂,颗粒物(PM10),78,105,90,44,37,122,2,2,2,116,60,7,12,0.6,0.6
2022-03-10T02:00:00,2288A,117.7439,30.8792,铜陵市,市第九中学,颗粒物(PM10),89,128,108,58,42,87,5,5,5,127,79,9,15,0.7,0.8
2022-03-10T02:00:00,2289A,117.846,30.9413,铜陵市,车站新区,细颗粒物(PM2.5),75,92,78,55,30,112,26,46,36,69,48,8,9,0.5,0.5
2022-03-10T02:00:00,2290A,117.8483,30.97,铜陵市,市职教基地,颗粒物(PM10),74,97,75,52,32,124,7,62,34,114,36,9,10,0.9,0.7
2022-03-10T02:00:00,2291A,117.0809,30.5177,安庆市,环科院,,,89,59,25,14,126,4,6,5,104,61,14,10,0.7,0.7
2022-03-10T02:00:00,2292A,117.0331,30.5119,安庆市,马山宾馆,颗粒物(PM10),75,100,59,19,12,125,4,20,12,94,51,10,9,0.7,0.7
2022-03-10T02:00:00,2294A,116.9896,30.6145,安庆市,安庆大学,颗粒物(PM10),53,55,51,17,16,123,11,10,10,61,40,5,6,0.6,0.6
2022-03-10T02:00:00,2295A,118.2903,29.6963,黄山市,延安路89号,,44,44,40,22,24,120,15,22,18,19,12,8,9,0.2,0.2
2022-03-10T02:00:00,2296A,118.327,29.7178,黄山市,黄山东路89号,,38,38,44,23,24,113,32,30,30,11,16,8,8,0.4,0.4
2022-03-10T02:00:00,2297A,118.1371,30.2756,黄山市,黄山区政府5号楼,颗粒物(PM10),52,54,50,33,23,125,21,20,20,5,10,7,8,0.6,0.5
2022-03-10T02:00:00,2298A,118.3093,32.3153,滁州市,老年大学,颗粒物(PM10),92,134,139,62,48,168,33,32,32,75,61,13,11,0.7,0.5
2022-03-10T02:00:00,2299A,118.3244,32.2786,滁州市,人大宾馆,颗粒物(PM10),107,164,127,76,46,164,18,19,18,91,62,9,8,0.8,0.6
2022-03-10T02:00:00,2301A,115.8277,32.8929,阜阳市,市监测站,颗粒物(PM10),90,130,114,57,46,134,52,64,58,40,31,15,16,0.7,0.6
2022-03-10T02:00:00,2303A,115.8554,32.8605,阜阳市,开发区,颗粒物(PM10),102,153,132,57,46,133,66,60,60,34,37,18,14,0.5,0.5
2022-03-10T02:00:00,2307A,116.5079,31.737,六安市,监测大楼,颗粒物(PM10),76,101,66,44,26,128,93,106,100,27,21,9,6,0.5,0.3
2022-03-10T02:00:00,2308A,116.4738,31.7643,六安市,皖西学院,颗粒物(PM10),73,96,70,39,22,137,99,115,107,27,20,12,8,0.6,0.4
2022-03-10T02:00:00,2309A,116.4996,31.7905,六安市,朝阳厂,颗粒物(PM10),74,98,70,44,23,121,93,101,97,20,20,8,7,0.5,0.3
2022-03-10T02:00:00,2310A,116.5567,31.7886,六安市,开发区,颗粒物(PM10),85,120,86,52,28,134,83,78,78,30,30,9,10,0.5,0.4
2022-03-10T02:00:00,2311A,115.8072,33.8399,亳州市,污水处理厂,颗粒物(PM10),92,133,145,41,39,147,111,123,117,17,20,14,13,0.4,0.4
2022-03-10T02:00:00,2312A,115.7789,33.8518,亳州市,三国揽胜宫,颗粒物(PM10),90,129,142,45,40,143,114,124,119,18,20,7,8,0.6,0.5
2022-03-10T02:00:00,2314A,117.47,30.6618,池州市,池州学院,颗粒物(PM10),58,65,63,28,27,128,40,32,32,30,28,4,5,1.0,0.7
2022-03-10T02:00:00,2316A,118.7581,30.9454,宣城市,鳌峰子站,颗粒物(PM10),77,103,90,41,41,153,81,80,80,46,41,8,8,0.6,0.6
2022-03-10T02:00:00,2317A,118.7385,30.9743,宣城市,敬亭山子站,颗粒物(PM10),65,80,87,44,41,139,73,82,78,26,31,12,9,0.5,0.5
2022-03-10T02:00:00,2318A,118.7173,30.9427,宣城市,开发区子站,颗粒物(PM10),74,98,91,45,42,146,70,72,71,45,39,5,7,0.5,0.5
2022-03-10T02:00:00,2319A,119.0141,25.4325,莆田市,荔城区仓后路,,48,48,53,17,17,120,95,94,94,8,19,3,6,0.4,0.4
2022-03-10T02:00:00,2320A,119.0015,25.4553,莆田市,莆田市监测站,,41,41,40,20,16,126,99,98,98,6,10,4,5,0.3,0.3
2022-03-10T02:00:00,2321A,119.1119,25.4561,莆田市,涵江区六中,颗粒物(PM10),51,52,50,21,18,125,98,102,100,13,16,6,7,0.3,0.3
2022-03-10T02:00:00,2322A,119.1013,25.3215,莆田市,秀屿区政府,颗粒物(PM10),52,54,47,22,16,123,85,85,85,16,14,6,7,0.4,0.4
2022-03-10T02:00:00,2323A,118.981,25.4792,莆田市,东圳水库(对照点),,37,37,32,13,10,129,66,72,69,3,5,4,4,0.1,0.2
2022-03-10T02:00:00,2324A,117.6211,26.2625,三明市,三钢,,33,33,38,19,20,118,32,27,27,29,30,6,8,0.5,0.5
2022-03-10T02:00:00,2325A,117.635,26.2714,三明市,三明二中,,24,24,33,15,19,121,22,31,26,31,23,5,7,0.7,0.6
2022-03-10T02:00:00,2326A,117.6028,26.2378,三明市,三元区政府,颗粒物(PM10),63,76,53,40,26,112,4,4,4,52,32,15,13,2.5,1.2
2022-03-10T02:00:00,2327A,117.7275,26.3108,三明市,洋溪(对照点),颗粒物(PM10),64,77,37,35,17,124,59,63,61,22,13,13,9,0.7,0.7
2022-03-10T02:00:00,2331A,118.0966,26.6761,南平市,茫荡山(对照点),,28,23,26,11,11,101,89,88,88,2,3,4,5,0.2,0.2
2022-03-10T02:00:00,2332A,118.1681,26.6369,南平市,南平市监测站,,32,32,33,14,16,128,62,68,65,19,18,9,6,0.6,0.7
2022-03-10T02:00:00,2333A,118.1825,26.6489,南平市,南平铝业有限公司,,30,30,35,14,18,125,58,58,58,19,19,16,11,0.5,0.4
2022-03-10T02:00:00,2334A,118.1756,26.6272,南平市,南平七中,,36,36,37,20,19,124,63,69,66,17,19,10,6,0.5,0.6
2022-03-10T02:00:00,2335A,117.0189,25.1181,龙岩市,龙岩师专(对照点),细颗粒物(PM2.5),67,59,45,48,25,151,52,65,58,28,25,8,9,0.5,0.4
2022-03-10T02:00:00,2336A,117.0217,25.1033,龙岩市,龙岩市监测站,,47,47,44,28,23,153,44,45,44,36,29,5,8,0.4,0.4
2022-03-10T02:00:00,2337A,117.0258,25.0661,龙岩市,闽西职业技术学院,颗粒物(PM10),63,76,54,29,21,144,40,38,38,62,35,9,11,0.5,0.5
2022-03-10T02:00:00,2338A,117.0196,25.0306,龙岩市,龙岩学院,,37,37,37,19,18,160,96,106,101,12,19,5,7,0.3,0.4
2022-03-10T02:00:00,2339A,119.5001,26.6946,宁德市,金涵水库(对照点),颗粒物(PM10),52,54,59,16,14,110,48,49,48,13,17,7,7,0.6,0.6
2022-03-10T02:00:00,2341A,119.5388,26.6612,宁德市,宁德市监测站,,34,34,39,13,13,106,64,62,62,11,18,6,7,0.5,0.6
2022-03-10T02:00:00,2342A,117.3102,29.3867,景德镇市,王港中学(对照点),,31,31,44,15,18,124,18,18,18,6,10,7,9,0.4,0.5
2022-03-10T02:00:00,2343A,117.2117,29.2933,景德镇市,老干部活动中心,颗粒物(PM10),55,59,57,26,22,121,6,18,12,50,26,4,5,0.7,0.5
2022-03-10T02:00:00,2344A,117.1894,29.2789,景德镇市,兽医站,颗粒物(PM10),52,54,51,22,23,126,5,18,12,57,28,9,7,0.5,0.4
2022-03-10T02:00:00,2345A,117.1547,29.2617,景德镇市,台达陶瓷,颗粒物(PM10),75,100,67,36,24,116,2,2,2,66,38,30,21,0.5,0.5
2022-03-10T02:00:00,2346A,117.2461,29.2956,景德镇市,陶研所,颗粒物(PM10),57,63,50,25,17,114,3,22,12,40,22,5,4,0.4,0.4
2022-03-10T02:00:00,2347A,114.0997,27.5002,萍乡市,武功山(对照点),,22,11,19,7,10,145,68,74,71,9,10,12,11,0.4,0.4
2022-03-10T02:00:00,2348A,113.8385,27.6434,萍乡市,中医院,颗粒物(PM10),51,52,57,22,28,142,49,76,62,45,38,13,19,0.9,1
2022-03-10T02:00:00,2349A,113.8493,27.6253,萍乡市,市政府车库,颗粒物(PM10),57,64,69,22,27,136,25,29,27,41,35,10,19,0.8,2.2
2022-03-10T02:00:00,2350A,113.8676,27.6435,萍乡市,市环保局,颗粒物(PM10),54,58,54,35,33,153,34,33,33,60,37,19,23,1.2,0.9
2022-03-10T02:00:00,2351A,113.866,27.6198,萍乡市,安源区政府,颗粒物(PM10),58,66,58,26,26,143,42,51,46,34,33,19,27,0.8,1.6
2022-03-10T02:00:00,2352A,115.0861,27.9317,新余市,北岗(对照点),,39,39,41,22,22,119,38,40,39,22,17,16,13,0.3,0.3
2022-03-10T02:00:00,2353A,114.9886,27.8431,新余市,飞宇,颗粒物(PM10),59,67,60,27,24,121,3,5,4,113,51,26,16,0.3,0.2
2022-03-10T02:00:00,2354A,114.9231,27.8246,新余市,第二水厂,颗粒物(PM10),71,91,70,29,30,129,10,9,9,55,37,19,11,0.5,0.5
2022-03-10T02:00:00,2355A,114.9308,27.8036,新余市,市气象局,颗粒物(PM10),61,71,62,37,29,130,2,14,8,67,41,14,14,1.0,0.9
2022-03-10T02:00:00,2357A,116.9822,28.1136,鹰潭市,龙虎山(对照点),,22,22,33,13,14,137,56,60,58,2,5,1,4,0.2,0.3
2022-03-10T02:00:00,2358A,117.0564,28.2642,鹰潭市,新监测站,,34,34,56,17,27,178,89,80,80,11,26,15,59,0.3,0.5
2022-03-10T02:00:00,2359A,117.0311,28.2475,鹰潭市,财苑宾馆,,39,38,57,27,25,167,52,45,45,23,25,26,54,0.3,0.4
2022-03-10T02:00:00,2360A,117.0222,28.2264,鹰潭市,体育馆,,42,31,52,29,21,181,57,53,53,8,16,35,22,0.1,0.4
2022-03-10T02:00:00,2361A,117.0017,28.2131,鹰潭市,三川水表,,38,38,55,24,19,143,31,38,34,14,20,4,14,0.3,0.4
2022-03-10T02:00:00,2362A,114.9017,25.9149,赣州市,通天岩(对照点),,42,42,41,21,21,158,69,75,72,16,19,6,9,0.6,0.7
