timepoint,stationcode,longitude,latitude,area,positionname,primarypollutant,aqi,pm10,pm10_24h,pm2_5,pm2_5_24h,o3,o3_24h,o3_8h,o3_8h_24h,no2,no2_24h,so2,so2_24h,co,co_24h
2023-12-30T1700,2566A,102.1879,31.914,阿坝藏族羌族自治州,州农科所,,,,,6,13,23,,20,20,40,20,17,8,0.6,0.5
2023-12-30T1700,2568A,102.2502,31.8896,阿坝藏族羌族自治州,马师校,,22,10,16,6,17,70,,57,57,3,16,1,2,0.5,0.6
2023-12-30T1700,3994A,102.2165,31.9024,阿坝藏族羌族自治州,马尔康中学西区,,23,23,18,11,14,72,,62,62,2,11,4,4,0.3,0.3
2023-12-30T1700,2695A,80.292,41.1694,阿克苏地区,电视台,颗粒物(PM10),164,278,308,69,106,80,,37,37,23,57,9,11,0.8,2.8
2023-12-30T1700,2696A,80.2613,41.1551,阿克苏地区,艺术中心,颗粒物(PM10),158,265,291,64,98,86,,40,40,21,50,8,9,0.7,1.9
2023-12-30T1700,2204A,105.6467,38.8363,阿拉善盟,西城区西花园,,37,37,92,8,24,78,,76,74,12,17,8,8,0.3,0.4
2023-12-30T1700,2205A,105.6985,38.8411,阿拉善盟,蒙二幼,,34,34,107,7,21,83,,82,79,11,14,8,8,0.3,0.4
2023-12-30T1700,2206A,105.724,38.8516,阿拉善盟,环保局新楼,,28,28,93,9,21,82,,84,80,6,7,4,4,0.5,0.5
2023-12-30T1700,2708A,88.1264,47.8517,阿勒泰地区,市站,,27,27,16,15,11,43,,45,38,23,33,4,4,0.2,0.3
2023-12-30T1700,2630A,80.1161,32.5,阿里地区,阿里监测站,,26,12,14,7,6,82,,60,60,4,19,5,12,0.5,0.6
2023-12-30T1700,3192A,80.0903,32.5028,阿里地区,阿里藏医院,,27,5,18,1,9,86,,59,59,3,26,4,13,0.4,0.7
2023-12-30T1700,2642A,109.0318,32.6537,安康市,香溪洞,细颗粒物(PM2.5),85,80,89,63,79,92,,45,45,19,24,5,6,0.4,0.5
2023-12-30T1700,2643A,109.0281,32.6939,安康市,安康市监测站,细颗粒物(PM2.5),109,112,138,82,106,40,,25,25,54,41,10,11,1.3,1.3
2023-12-30T1700,2644A,109.0072,32.6975,安康市,汉滨区检察院,细颗粒物(PM2.5),107,101,121,80,99,72,,33,33,30,32,9,11,0.7,0.8
2023-12-30T1700,2291A,117.0809,30.5177,安庆市,环科院,细颗粒物(PM2.5),180,151,232,136,194,102,,80,80,36,58,8,9,1.3,1.8
2023-12-30T1700,2292A,117.0331,30.5119,安庆市,马山宾馆,细颗粒物(PM2.5),189,152,223,142,180,87,,84,84,62,61,6,8,1.0,1.5
2023-12-30T1700,2294A,116.9896,30.6145,安庆市,安庆大学,细颗粒物(PM2.5),147,149,218,112,177,106,,80,80,39,57,8,9,1.2,1.5
2023-12-30T1700,3173A,117.0598,30.5351,安庆市,市人大,细颗粒物(PM2.5),170,148,235,129,182,110,,85,85,37,59,5,5,1.1,1.6
2023-12-30T1700,3122A,105.9606,26.2611,安顺市,伍家关,,,,,,,,,,,,,,,,
2023-12-30T1700,3123A,105.9408,26.2431,安顺市,凤凰山,细颗粒物(PM2.5),55,47,62,39,53,102,,73,73,11,19,13,28,0.8,1
2023-12-30T1700,3124A,105.9439,26.2564,安顺市,金钟山,细颗粒物(PM2.5),55,52,65,39,54,101,,78,78,13,17,16,27,0.4,1
2023-12-30T1700,3125A,105.8983,26.2481,安顺市,娄家坡,细颗粒物(PM2.5),62,52,65,44,56,102,,76,76,10,13,12,19,0.6,0.7
2023-12-30T1700,1818A,114.4839,36.0621,安阳市,棉研所,,,,,,,,,,,,,,,,
2023-12-30T1700,1819A,114.3551,36.1017,安阳市,红庙街,细颗粒物(PM2.5),307,293,212,257,185,20,,30,30,77,59,7,8,2.4,1.8
2023-12-30T1700,1820A,114.361,36.0681,安阳市,银杏小区,细颗粒物(PM2.5),313,270,188,263,198,17,,24,24,75,64,3,3,2.7,2.1
2023-12-30T1700,3141A,114.3922,36.0878,安阳市,信访局,细颗粒物(PM2.5),309,319,212,259,191,16,,27,27,75,56,2,2,2.6,1.8
2023-12-30T1700,3669A,114.4705,36.0637,安阳市,左辅环卫站,细颗粒物(PM2.5),283,285,238,233,187,22,,30,30,68,53,3,3,2.2,1.4
2023-12-30T1700,3703A,114.2917,36.0949,安阳市,安钢职工学校,细颗粒物(PM2.5),321,350,237,271,180,23,,28,28,77,59,6,10,2.5,1.8
2023-12-30T1700,1748A,123.044,41.1196,鞍山市,深沟寺,,26,21,56,18,52,18,,60,49,44,20,7,8,1.0,1
2023-12-30T1700,1749A,123.011,41.0931,鞍山市,太阳城,,36,35,61,25,46,22,,64,51,34,22,7,10,1.1,0.9
2023-12-30T1700,1750A,123.0485,41.1442,鞍山市,太平,细颗粒物(PM2.5),54,48,63,38,49,9,,63,38,73,31,12,14,1.2,0.9
2023-12-30T1700,1751A,122.9642,41.0971,鞍山市,铁西三道街,细颗粒物(PM2.5),118,123,81,89,80,6,,47,35,77,48,9,16,2.2,1.2
2023-12-30T1700,1752A,122.9341,41.0833,鞍山市,铁西工业园区,细颗粒物(PM2.5),163,,83,124,65,5,,54,31,73,40,14,16,2.0,1.2
2023-12-30T1700,1753A,123.022,41.0821,鞍山市,明达新区,,38,38,60,24,47,52,,66,58,17,21,8,11,0.8,0.9
2023-12-30T1700,1754A,123.1289,41.0228,鞍山市,千山,,,,,,,,,,,,,,,,
2023-12-30T1700,2195A,107.4212,40.761,巴彦淖尔市,附二中,颗粒物(PM10),65,79,103,31,28,76,,71,71,16,18,18,6,0.4,0.5
2023-12-30T1700,2196A,107.37,40.7372,巴彦淖尔市,市环保大楼,,,53,100,16,27,83,,76,76,13,13,26,8,,0.3
2023-12-30T1700,1956A,86.1472,41.7538,巴音郭楞州,孔雀公园,颗粒物(PM10),138,226,298,67,79,60,,59,59,33,35,8,6,0.8,0.9
2023-12-30T1700,1957A,86.1972,41.7166,巴音郭楞州,棉纺厂,颗粒物(PM10),160,269,345,66,80,52,,53,53,42,42,6,4,1.0,1.1
2023-12-30T1700,1958A,86.2357,41.7173,巴音郭楞州,经济开发区,颗粒物(PM10),127,204,281,66,73,75,,74,65,26,35,7,6,0.7,0.9
2023-12-30T1700,2914A,106.7677,31.8794,巴中市,苏山坪,细颗粒物(PM2.5),85,82,165,63,130,88,,61,61,19,24,5,5,1.0,1.3
2023-12-30T1700,3182A,106.7656,31.8545,巴中市,丽阳花园,细颗粒物(PM2.5),88,76,162,65,135,77,,46,46,22,28,3,4,0.7,1
2023-12-30T1700,3183A,106.7418,31.8654,巴中市,圣泉水务公司,细颗粒物(PM2.5),84,71,157,62,141,79,,46,46,22,27,4,5,1.0,1.4
2023-12-30T1700,3616A,106.7616,31.8344,巴中市,市中心医院,细颗粒物(PM2.5),88,74,149,65,132,82,,55,55,23,24,3,3,0.7,0.9
2023-12-30T1700,2235A,122.7911,45.6077,白城市,洮北区环保局,,44,44,69,29,59,53,,52,52,13,17,5,5,0.5,0.7
2023-12-30T1700,2236A,122.8738,45.5725,白城市,市环保局,颗粒物(PM10),56,61,80,20,56,54,,54,53,12,17,8,9,0.5,0.7
2023-12-30T1700,2231A,126.4219,41.9171,白山市,喜丰,颗粒物(PM10),60,69,101,42,55,22,,21,21,56,53,23,20,1.5,1.6
2023-12-30T1700,2232A,126.4077,41.9419,白山市,环保局,细颗粒物(PM2.5),70,82,117,51,64,21,,19,19,67,62,15,22,1.6,1.9
2023-12-30T1700,2647A,104.1724,36.5446,白银市,第三小学,颗粒物(PM10),59,67,77,30,29,65,,63,63,29,38,54,98,0.8,1.4
2023-12-30T1700,2648A,104.1465,36.5482,白银市,动力公司,颗粒物(PM10),71,92,61,37,31,95,,80,80,30,31,230,55,0.9,0.9
2023-12-30T1700,2512A,106.6103,23.9011,百色市,市监测站,颗粒物(PM10),60,69,85,38,54,120,,82,82,19,29,27,14,0.9,1
2023-12-30T1700,2513A,106.6538,23.8859,百色市,市中心血站,细颗粒物(PM2.5),88,91,85,65,60,120,,79,79,25,38,46,19,1.3,1.1
2023-12-30T1700,3406A,106.6085,23.8798,百色市,祈福高中,颗粒物(PM10),58,66,79,38,58,110,,80,80,14,31,20,13,0.9,1
2023-12-30T1700,2270A,117.396,32.939,蚌埠市,工人疗养院,细颗粒物(PM2.5),212,184,164,162,141,67,,56,56,30,41,8,7,1.2,1
2023-12-30T1700,2271A,117.3605,32.9427,蚌埠市,百货大楼,细颗粒物(PM2.5),215,184,165,165,144,67,,54,54,34,45,4,4,1.2,1.1
2023-12-30T1700,2273A,117.4185,32.8911,蚌埠市,蚌埠学院,细颗粒物(PM2.5),221,180,153,171,134,72,,56,56,30,43,3,3,1.2,1
2023-12-30T1700,2274A,117.3533,32.9673,蚌埠市,淮上区政府,细颗粒物(PM2.5),226,185,159,176,147,61,,60,60,39,40,6,5,1.1,0.9
2023-12-30T1700,2275A,117.3145,32.8977,蚌埠市,高新区,细颗粒物(PM2.5),228,185,146,178,136,64,,54,54,46,57,9,7,1.4,1.2
2023-12-30T1700,3715A,117.3092,32.9314,蚌埠市,蚌埠田家炳中学,细颗粒物(PM2.5),234,200,169,184,142,54,,48,48,50,51,5,5,1.2,1
2023-12-30T1700,1585A,109.8756,40.6532,包头市,市环境监测站,,39,39,173,9,119,76,,76,76,12,59,10,21,0.7,1.9
2023-12-30T1700,1587A,109.9991,40.5842,包头市,包头八中,,44,44,208,8,143,77,,73,73,10,63,9,24,0.4,1.7
2023-12-30T1700,1588A,109.8538,40.6821,包头市,青山宾馆,,41,41,192,13,138,74,,75,75,21,65,12,18,0.6,2.3
2023-12-30T1700,1589A,109.8642,40.6288,包头市,惠龙物流,,41,41,176,20,117,72,,73,73,17,60,10,17,0.4,1.6
2023-12-30T1700,1590A,110.0377,40.5546,包头市,东河鸿龙湾,,,,170,,118,78,,72,72,12,62,11,13,0.4,1.5
2023-12-30T1700,3283A,109.9154,40.5685,包头市,滨河大厦,,38,38,163,19,129,76,,68,68,7,58,7,9,0.5,1.7
2023-12-30T1700,3419A,109.9447,40.6261,包头市,包头市委党校,,28,28,166,16,119,77,,75,75,9,62,10,19,0.5,1.8
2023-12-30T1700,3683A,109.8331,40.6576,包头市,昆区政府,,39,39,170,8,127,82,,81,81,17,63,8,24,0.3,1.7
2023-12-30T1700,1930A,107.185,34.3063,宝鸡市,庙沟村,颗粒物(PM10),65,79,57,36,45,77,,67,67,1,9,9,9,0.5,0.6
2023-12-30T1700,1931A,107.0708,34.3017,宝鸡市,竹园沟,颗粒物(PM10),53,55,57,28,45,90,,67,67,18,29,5,4,0.6,0.7
2023-12-30T1700,1932A,107.1906,34.3672,宝鸡市,三陆医院,颗粒物(PM10),72,94,120,49,87,74,,49,49,42,59,9,10,0.6,1.1
2023-12-30T1700,1933A,107.1431,34.3547,宝鸡市,监测站,细颗粒物(PM2.5),68,80,92,49,66,75,,50,50,37,50,8,6,0.7,1
2023-12-30T1700,1934A,107.1186,34.3739,宝鸡市,技工学校,,,81,97,38,77,73,,53,53,,49,9,8,0.6,0.9
2023-12-30T1700,1935A,107.3906,34.3528,宝鸡市,陈仓区环保局家属楼,颗粒物(PM10),72,94,161,45,134,86,,58,58,28,63,8,29,0.6,1.6
2023-12-30T1700,1936A,107.2058,34.3497,宝鸡市,文理学院,颗粒物(PM10),66,82,104,46,68,92,,59,59,28,51,9,8,0.7,1.1
2023-12-30T1700,1937A,107.2386,34.3622,宝鸡市,三迪小学,细颗粒物(PM2.5),78,103,120,57,84,73,,51,51,45,57,9,9,0.8,1.3
2023-12-30T1700,1051A,115.493,38.8632,保定市,游泳馆,细颗粒物(PM2.5),283,,193,233,193,14,,22,22,52,55,3,4,1.8,1.7
2023-12-30T1700,1052A,115.5213,38.8959,保定市,华电二区,细颗粒物(PM2.5),289,,167,239,190,14,,19,19,52,63,4,3,1.5,1.4
2023-12-30T1700,1053A,115.4713,38.9108,保定市,接待中心,细颗粒物(PM2.5),294,,192,244,198,12,,18,18,58,69,2,2,1.7,1.7
2023-12-30T1700,1054A,115.4612,38.8416,保定市,地表水厂,细颗粒物(PM2.5),294,,184,244,199,9,,16,16,70,74,3,3,1.2,1.3
2023-12-30T1700,1056A,115.5086,38.8639,保定市,监测站,细颗粒物(PM2.5),261,217,178,211,182,12,,19,19,70,73,3,3,0.5,0.5
2023-12-30T1700,3581A,115.31981,38.95208,保定市,满城区生态环境分局,细颗粒物(PM2.5),291,,158,241,187,6,,15,15,58,66,2,2,1.8,1.7
2023-12-30T1700,3582A,115.47694,38.76408,保定市,清苑区第二中学,细颗粒物(PM2.5),266,223,172,216,166,11,,24,24,62,62,1,1,1.5,1.4
2023-12-30T1700,3583A,115.62909,39.02311,保定市,徐水物探局,细颗粒物(PM2.5),272,261,184,222,168,14,,16,16,67,67,4,5,1.7,1.5
2023-12-30T1700,4004A,115.4202,38.8656,保定市,双鹰农机,细颗粒物(PM2.5),274,,170,224,173,10,,18,18,60,72,3,3,1.6,1.4
2023-12-30T1700,2594A,99.1678,25.1081,保山市,市环境监测站,,26,,18,6,12,82,,59,59,4,9,4,5,0.2,0.4
2023-12-30T1700,2595A,99.1711,25.1328,保山市,市环保局,,26,13,23,12,17,81,,59,59,3,6,4,5,0.4,0.5
2023-12-30T1700,1866A,109.2262,21.588,北海市,牛尾岭水库,,,,,,,,,,,,,,,,
2023-12-30T1700,1867A,109.1436,21.4086,北海市,海滩公园,"颗粒物(PM10),细颗粒物(PM2.5)",53,55,46,37,29,111,,91,91,18,17,9,10,0.5,0.5
2023-12-30T1700,1868A,109.0981,21.4661,北海市,新市环保局,细颗粒物(PM2.5),58,46,45,41,31,99,,92,92,27,20,11,10,0.7,0.5
2023-12-30T1700,1869A,109.1778,21.5233,北海市,北海工业园,细颗粒物(PM2.5),62,55,53,44,35,87,,86,86,26,18,12,11,0.6,0.4
2023-12-30T1700,3400A,109.1911,21.4415,北海市,龙潭自来水厂,细颗粒物(PM2.5),69,,44,50,34,99,,84,84,20,17,12,13,0.6,0.5
2023-12-30T1700,1001A,116.3621,39.8784,北京市,万寿西宫,细颗粒物(PM2.5),202,193,255,152,222,3,,8,8,105,102,3,2,1.6,1.7
2023-12-30T1700,1002A,116.2202,40.2915,北京市,定陵,细颗粒物(PM2.5),113,120,115,85,86,38,,27,27,27,48,7,3,0.8,0.9
2023-12-30T1700,1003A,116.4174,39.9289,北京市,东四,细颗粒物(PM2.5),152,163,253,116,206,5,,14,14,83,82,8,5,1.5,1.8
2023-12-30T1700,1004A,116.4072,39.8863,北京市,天坛,细颗粒物(PM2.5),213,191,229,163,207,7,,17,17,98,78,1,2,1.6,1.7
2023-12-30T1700,1005A,116.462,39.9365,北京市,农展馆,细颗粒物(PM2.5),145,147,237,111,202,17,,23,23,84,92,3,2,1.0,1.6
2023-12-30T1700,1006A,116.3392,39.9295,北京市,官园,细颗粒物(PM2.5),145,150,235,111,193,17,,20,20,68,81,6,2,1.2,1.7
2023-12-30T1700,1007A,116.2878,39.9611,北京市,海淀万柳,细颗粒物(PM2.5),166,176,204,126,161,9,,15,15,81,83,1,3,1.6,1.7
2023-12-30T1700,1008A,116.6636,40.135,北京市,顺义新城,细颗粒物(PM2.5),113,117,157,85,121,23,,23,23,50,75,1,2,0.8,1.3
2023-12-30T1700,1009A,116.6275,40.3275,北京市,怀柔镇,细颗粒物(PM2.5),82,90,109,60,77,24,,24,24,48,63,3,2,0.9,1.1
2023-12-30T1700,1010A,116.2296,40.217,北京市,昌平镇,颗粒物(PM10),93,135,133,68,84,42,,20,20,34,66,7,3,0.8,1
2023-12-30T1700,1011A,116.3966,39.9821,北京市,奥体中心,细颗粒物(PM2.5),150,144,209,115,179,8,,17,17,86,87,4,5,1.3,1.6
2023-12-30T1700,1012A,116.184,39.9136,北京市,古城,细颗粒物(PM2.5),206,205,216,156,172,5,,13,13,99,90,3,3,1.6,1.6
2023-12-30T1700,3281A,115.9718,40.4529,北京市,延庆夏都,细颗粒物(PM2.5),147,152,145,112,111,12,,18,18,64,56,10,6,1.1,1.4
2023-12-30T1700,3417A,117.0709,40.1465,北京市,平谷新城,细颗粒物(PM2.5),139,128,174,106,149,28,,28,28,62,72,2,2,0.9,1.5
2023-12-30T1700,3418A,116.8336,40.4095,北京市,密云新城,细颗粒物(PM2.5),59,66,101,42,68,58,,44,44,17,51,1,2,0.4,0.8
2023-12-30T1700,3671A,116.088,39.9726,北京市,门头沟三家店,,,,,,,,,,,,,,,,
2023-12-30T1700,3672A,116.1541,39.8204,北京市,丰台云岗,细颗粒物(PM2.5),238,233,201,188,161,5,,14,14,112,89,3,2,1.7,1.4
2023-12-30T1700,3673A,116.6804,39.9081,北京市,通州东关,细颗粒物(PM2.5),125,126,218,95,188,18,,23,23,64,89,5,2,0.9,1.5
2023-12-30T1700,3674A,115.9577,39.7603,北京市,房山燕山,细颗粒物(PM2.5),272,253,176,222,153,9,,18,18,124,89,3,3,1.9,1.4
2023-12-30T1700,3675A,116.4672,39.7733,北京市,大兴旧宫,细颗粒物(PM2.5),282,262,244,232,224,3,,7,7,142,114,1,1,2.0,1.7
2023-12-30T1700,3694A,115.986,40.4563,北京市,延庆石河营,细颗粒物(PM2.5),147,150,140,112,106,8,,16,16,64,56,5,4,1.3,1.6
2023-12-30T1700,3695A,116.6151,40.3053,北京市,怀柔新城,细颗粒物(PM2.5),114,119,103,86,76,20,,26,26,51,56,1,2,0.9,0.8
2023-12-30T1700,3696A,116.2545,39.8768,北京市,丰台小屯,细颗粒物(PM2.5),213,215,238,163,192,2,,8,8,93,92,1,2,1.7,1.8
2023-12-30T1700,3697A,116.84,40.3844,北京市,密云镇,细颗粒物(PM2.5),62,70,105,44,78,44,,35,35,23,55,3,3,0.5,0.9
2023-12-30T1700,1761A,123.8275,41.3064,本溪市,大峪,细颗粒物(PM2.5),77,79,70,56,49,21,,41,24,58,43,10,9,1.6,1.7
2023-12-30T1700,1762A,123.7567,41.3325,本溪市,溪湖,细颗粒物(PM2.5),84,87,74,62,52,20,,42,29,49,38,17,16,1.8,1.1
2023-12-30T1700,1763A,123.7169,41.3094,本溪市,彩屯,细颗粒物(PM2.5),114,109,112,86,84,13,,19,14,74,71,9,30,2.3,3.4
2023-12-30T1700,1764A,123.7669,41.2864,本溪市,东明,细颗粒物(PM2.5),89,,57,66,56,24,,48,29,56,41,11,14,1.1,0.9
2023-12-30T1700,1765A,123.7992,41.2664,本溪市,新立屯,细颗粒物(PM2.5),64,46,46,46,41,35,,72,36,46,30,10,11,1.0,0.8
2023-12-30T1700,1766A,123.8142,41.3472,本溪市,威宁,细颗粒物(PM2.5),75,70,102,55,63,10,,20,20,62,52,7,7,1.2,1.5
2023-12-30T1700,2587A,105.2864,27.3125,毕节市,八中,细颗粒物(PM2.5),57,51,63,40,52,88,,59,59,32,17,25,10,0.7,1
2023-12-30T1700,2588A,105.31,27.2944,毕节市,师专,细颗粒物(PM2.5),59,50,63,42,52,90,,48,48,31,26,20,11,0.7,1
2023-12-30T1700,3537A,105.3631,27.3533,毕节市,长征村,细颗粒物(PM2.5),54,38,57,38,54,105,,63,63,14,14,9,7,0.5,0.8
2023-12-30T1700,1629A,118.0018,37.3617,滨州市,第二水厂,细颗粒物(PM2.5),249,249,291,199,233,5,,10,10,74,86,9,24,2.4,2.6
2023-12-30T1700,1630A,117.9776,37.393,滨州市,北中新校,细颗粒物(PM2.5),262,263,300,212,240,2,,7,7,77,90,8,15,2.1,2.4
2023-12-30T1700,3514A,117.9378,37.3956,滨州市,中海酒店,细颗粒物(PM2.5),256,249,275,206,238,14,,19,18,74,93,14,20,2.1,2.3
2023-12-30T1700,3515A,117.9378,37.3553,滨州市,开发区一中,细颗粒物(PM2.5),261,274,304,211,242,8,,10,10,73,86,25,26,2.3,2.4
2023-12-30T1700,3516A,118.0917,37.694,滨州市,金海六路,细颗粒物(PM2.5),279,305,296,229,251,0,,4,3,73,87,9,12,2.0,2.3
2023-12-30T1700,4028A,117.9956,37.3753,滨州市,滨州市西街道办事处,细颗粒物(PM2.5),260,243,282,210,245,4,,11,11,67,78,10,22,2.3,2.6
2023-12-30T1700,2311A,115.8072,33.8399,亳州市,污水处理厂,细颗粒物(PM2.5),122,159,176,92,129,67,,63,63,39,34,6,5,1.1,1.4
2023-12-30T1700,2312A,115.7789,33.8518,亳州市,三国揽胜宫,颗粒物(PM10),118,185,216,85,110,74,,63,63,30,35,7,7,1.0,1.4
2023-12-30T1700,3332A,115.7633,33.8034,亳州市,亳州学院,细颗粒物(PM2.5),123,168,184,93,113,84,,68,68,26,33,5,4,0.8,1.3
2023-12-30T1700,2693A,82.0485,44.8556,博尔塔拉蒙古自治州,市党校,,30,30,51,8,29,47,,48,47,11,14,12,12,0.6,0.5
2023-12-30T1700,2694A,82.0806,44.8969,博尔塔拉蒙古自治州,市环保局,,31,31,57,13,32,38,,32,32,21,27,10,9,0.1,0.5
2023-12-30T1700,1071A,116.8842,38.2991,沧州市,沧县城建局,细颗粒物(PM2.5),280,,240,230,246,43,,19,19,54,79,4,6,1.5,1.8
2023-12-30T1700,1072A,116.8584,38.3254,沧州市,电视转播站,细颗粒物(PM2.5),240,229,238,190,212,32,,13,13,62,84,9,9,1.5,1.8
2023-12-30T1700,1073A,116.8709,38.3228,沧州市,市环保局,细颗粒物(PM2.5),255,208,233,205,220,37,,15,15,51,73,4,5,1.6,1.9
2023-12-30T1700,3324A,116.8136,38.3004,沧州市,河北水利电力学院,细颗粒物(PM2.5),251,229,251,201,218,32,,12,12,55,76,12,11,1.5,1.9
2023-12-30T1700,2622A,97.1806,31.1273,昌都市,昌都监测站,,21,12,35,4,16,65,,54,54,10,23,6,6,0.6,0.8
2023-12-30T1700,3719A,97.1714,31.1406,昌都市,昌都会议中心,,25,25,16,3,12,75,,64,64,2,6,4,4,0.3,0.5
2023-12-30T1700,2690A,88.1236,43.8886,昌吉州,天山天池,,,4,9,,5,62,,71,69,8,5,6,6,0.5,0.4
2023-12-30T1700,2692A,87.2717,44.0297,昌吉州,新区政务中心,,43,36,103,30,68,54,,39,39,21,50,5,4,0.5,1.1
2023-12-30T1700,3613A,87.3095,44.0142,昌吉州,亚心广场,,27,27,80,17,57,49,,35,35,24,51,7,6,0.6,1.1
2023-12-30T1700,1119A,125.3325,43.9166,长春市,食品厂,细颗粒物(PM2.5),277,,86,227,74,10,,25,24,78,59,10,22,2.2,1.2
2023-12-30T1700,1120A,125.2863,43.9027,长春市,客车厂,细颗粒物(PM2.5),285,,72,235,72,16,,26,19,84,63,11,21,2.3,1.2
2023-12-30T1700,1121A,125.2841,43.8463,长春市,邮电学院,细颗粒物(PM2.5),244,,82,194,74,12,,36,32,83,54,27,17,1.7,1
2023-12-30T1700,1122A,125.3716,43.8772,长春市,劳动公园,细颗粒物(PM2.5),220,,76,170,66,27,,34,31,70,59,13,21,1.6,1.2
2023-12-30T1700,1123A,125.3297,43.8805,长春市,园林处,细颗粒物(PM2.5),259,,68,209,69,16,,35,28,77,56,15,17,1.9,1.2
2023-12-30T1700,1124A,125.4605,43.79,长春市,净月潭,细颗粒物(PM2.5),94,,52,70,49,49,,56,56,18,14,7,8,0.9,0.8
2023-12-30T1700,1125A,125.7194,43.515,长春市,甩湾子,,,,,,,,,,,,,,,,
2023-12-30T1700,1126A,125.3863,43.8447,长春市,经开区环卫处,细颗粒物(PM2.5),132,,74,100,62,22,,34,32,53,49,10,16,1.1,1
2023-12-30T1700,1127A,125.245,43.7783,长春市,高新区管委会,细颗粒物(PM2.5),221,,76,171,84,20,,39,36,62,47,12,11,1.7,1.4
2023-12-30T1700,1128A,125.1761,43.8325,长春市,岱山公园,细颗粒物(PM2.5),344,,68,294,71,10,,27,18,84,60,7,11,2.2,1.1
2023-12-30T1700,1335A,113.0833,28.2325,长沙市,经开区环保局,细颗粒物(PM2.5),219,202,212,169,185,97,,62,62,40,36,7,6,1.1,1.1
2023-12-30T1700,1336A,112.8872,28.2189,长沙市,高开区环保局,细颗粒物(PM2.5),224,198,204,174,169,100,,74,74,36,29,10,5,1.6,1.1
2023-12-30T1700,1337A,113.0792,28.2053,长沙市,马坡岭,细颗粒物(PM2.5),236,198,210,186,189,84,,53,53,40,38,8,6,1.0,0.9
2023-12-30T1700,1338A,112.9394,28.19,长沙市,湖南师范大学,细颗粒物(PM2.5),233,229,215,183,183,96,,71,71,38,27,11,4,1.7,1.1
2023-12-30T1700,1339A,113.0178,28.1322,长沙市,雨花区环保局,细颗粒物(PM2.5),226,204,212,176,184,101,,67,67,41,34,11,4,1.9,1.4
2023-12-30T1700,1340A,112.9792,28.2597,长沙市,伍家岭,细颗粒物(PM2.5),236,224,222,186,174,68,,48,48,60,37,6,6,1.6,1.3
2023-12-30T1700,1341A,113.0014,28.1944,长沙市,火车新站,细颗粒物(PM2.5),218,195,212,168,175,89,,57,57,43,33,6,3,1.4,1.3
2023-12-30T1700,1342A,112.9844,28.1178,长沙市,天心区环保局,细颗粒物(PM2.5),211,211,206,161,160,100,,67,67,48,34,8,6,1.7,1.1
2023-12-30T1700,1343A,112.8908,28.1308,长沙市,湖南中医药大学,细颗粒物(PM2.5),240,246,204,190,177,101,,66,66,38,24,16,3,,0.9
2023-12-30T1700,1344A,112.9581,28.3611,长沙市,沙坪,细颗粒物(PM2.5),221,203,204,171,161,80,,62,62,53,30,6,5,1.6,1.4
2023-12-30T1700,1727A,113.1147,36.1547,长治市,清华站,颗粒物(PM10),62,73,109,34,94,80,,78,78,22,47,11,15,0.6,1.2
2023-12-30T1700,1728A,113.1031,36.1989,长治市,监测站,颗粒物(PM10),61,72,118,39,111,77,,76,76,28,64,10,15,0.5,1.3
2023-12-30T1700,1730A,113.0886,36.2125,长治市,审计局,颗粒物(PM10),60,70,122,39,115,80,,74,74,22,61,12,18,0.5,1.3
2023-12-30T1700,1731A,113.0844,36.1856,长治市,长治八中,颗粒物(PM10),68,86,138,40,99,80,,77,77,25,79,14,20,0.6,1.4
2023-12-30T1700,2845A,113.1569,36.1911,长治市,德盛苑,颗粒物(PM10),60,69,99,39,90,87,,85,85,15,28,12,17,0.4,0.9
2023-12-30T1700,3568A,113.06,36.0464,长治市,向阳小学,颗粒物(PM10),75,100,114,36,88,87,,89,89,27,42,7,18,0.6,1.3
2023-12-30T1700,3569A,112.8792,36.3144,长治市,屯留一中,颗粒物(PM10),69,87,133,43,115,78,,77,77,40,52,10,19,0.6,1.4
2023-12-30T1700,3570A,113.235,36.3489,长治市,潞城四中,颗粒物(PM10),62,73,164,10,135,80,,78,78,13,41,6,16,0.2,1.7
2023-12-30T1700,1854A,111.6975,28.9703,常德市,市二中,细颗粒物(PM2.5),85,,174,63,146,81,,63,63,26,29,6,6,0.9,1.2
2023-12-30T1700,1857A,111.7158,29.1456,常德市,白鹤山,细颗粒物(PM2.5),134,153,214,102,158,49,,32,32,19,18,4,4,1.0,1
2023-12-30T1700,3138A,111.7153,29.0289,常德市,武陵区永安,细颗粒物(PM2.5),133,125,188,101,163,75,,59,59,28,35,7,7,1.0,1.2
2023-12-30T1700,3139A,111.6892,28.9881,常德市,鼎城区玉霞,细颗粒物(PM2.5),115,,180,87,144,77,,60,60,27,33,8,8,1.0,1.3
2023-12-30T1700,3140A,111.6625,29.0531,常德市,武陵区长庚,细颗粒物(PM2.5),95,132,202,71,148,82,,56,56,26,30,6,5,1.0,1.2
2023-12-30T1700,1196A,119.9633,31.762,常州市,市监测站,细颗粒物(PM2.5),222,213,143,172,109,21,,14,14,92,76,9,8,1.6,1
2023-12-30T1700,1200A,119.9468,31.7069,常州市,武进监测站,细颗粒物(PM2.5),214,229,145,164,100,19,,12,12,69,61,10,9,1.6,1
2023-12-30T1700,1201A,119.9255,31.9087,常州市,安家,细颗粒物(PM2.5),235,211,142,185,117,38,,25,25,60,66,8,8,1.7,1.2
2023-12-30T1700,3002A,119.9805,31.8174,常州市,行政中心,细颗粒物(PM2.5),213,189,128,163,105,17,,15,15,76,68,15,13,1.6,1.2
2023-12-30T1700,3003A,120.0522,31.7748,常州市,经开区,细颗粒物(PM2.5),224,175,124,174,109,29,,18,18,64,61,6,7,1.5,1
2023-12-30T1700,3010A,119.9025,31.7964,常州市,钟楼,细颗粒物(PM2.5),233,207,132,183,114,24,,16,16,68,60,8,7,1.7,1
2023-12-30T1700,3429A,119.8598,31.7066,常州市,武进经发区,细颗粒物(PM2.5),135,192,129,103,64,35,,17,17,60,62,8,8,2.0,1.2
2023-12-30T1700,3430A,119.5826,31.7245,常州市,金坛城区,细颗粒物(PM2.5),173,173,124,131,100,49,,25,25,50,46,8,8,1.8,1
2023-12-30T1700,2220A,120.4318,41.5881,朝阳市,西梁,细颗粒物(PM2.5),127,131,185,96,134,22,,17,17,35,60,15,52,1.5,2.4
2023-12-30T1700,2221A,120.4521,41.5646,朝阳市,河畔小区,细颗粒物(PM2.5),149,126,164,114,141,18,,17,17,38,66,18,56,1.5,2.2
2023-12-30T1700,2222A,120.4176,41.5648,朝阳市,八里堡,细颗粒物(PM2.5),135,120,170,103,132,20,,17,17,40,62,12,43,1.5,2.5
2023-12-30T1700,2223A,120.3806,41.5969,朝阳市,农业园区,细颗粒物(PM2.5),133,126,179,101,126,25,,20,20,38,62,12,24,1.4,2.1
2023-12-30T1700,1705A,116.6367,23.6719,潮州市,西园路,颗粒物(PM10),61,71,55,35,39,153,,116,116,27,23,9,4,0.6,0.5
2023-12-30T1700,1706A,116.6447,23.6706,潮州市,档案局,细颗粒物(PM2.5),93,,53,69,42,145,,116,116,30,24,12,6,0.8,0.7
2023-12-30T1700,3026A,116.6183,23.6608,潮州市,市政府,细颗粒物(PM2.5),60,60,59,43,44,142,,120,120,36,30,14,12,0.9,0.8
2023-12-30T1700,2472A,113.0073,25.9061,郴州市,马头岭,细颗粒物(PM2.5),115,135,172,87,94,138,,109,109,31,49,13,15,1.3,1.4
2023-12-30T1700,2473A,113.0116,25.8226,郴州市,市职中,细颗粒物(PM2.5),138,115,135,105,115,157,,123,123,30,41,14,10,1.2,1.3
2023-12-30T1700,2474A,113.0161,25.8001,郴州市,兴隆步行街,细颗粒物(PM2.5),139,133,160,106,127,158,,125,125,29,44,11,9,1.2,1.3
2023-12-30T1700,2475A,113.0383,25.8071,郴州市,市审计局,细颗粒物(PM2.5),133,118,135,101,115,160,,122,122,20,35,16,12,1.0,1.3
2023-12-30T1700,2476A,113.0348,25.7759,郴州市,市环保局,细颗粒物(PM2.5),160,152,144,122,124,136,,114,114,37,51,16,14,1.2,1.3
2023-12-30T1700,1431A,103.9728,30.7236,成都市,金泉两河,细颗粒物(PM2.5),193,173,146,145,113,62,,35,35,38,57,1,2,1.1,1.7
2023-12-30T1700,1432A,104.176,30.6872,成都市,十里店,细颗粒物(PM2.5),216,186,143,166,120,72,,41,41,39,58,1,2,1.0,1.1
2023-12-30T1700,1433A,104.079,30.5706,成都市,三瓦窑,细颗粒物(PM2.5),206,194,152,156,129,72,,48,48,28,36,1,2,1.0,1
2023-12-30T1700,1434A,104.1114,30.63,成都市,沙河铺,细颗粒物(PM2.5),206,182,141,156,120,68,,33,33,42,52,3,3,0.9,1
2023-12-30T1700,1437A,104.0786,30.6531,成都市,君平街,细颗粒物(PM2.5),216,185,159,166,132,60,,38,38,50,65,4,4,0.8,1
2023-12-30T1700,1438A,103.613,31.0283,成都市,灵岩寺,细颗粒物(PM2.5),179,165,93,135,83,82,,74,73,34,24,8,14,1.5,1.2
2023-12-30T1700,2880A,104.0239,30.65639,成都市,大石西路,细颗粒物(PM2.5),223,186,151,173,123,60,,38,38,51,71,5,3,1.0,1.2
2023-12-30T1700,3136A,104.2725,30.5589,成都市,龙泉驿区区政府,细颗粒物(PM2.5),153,156,131,117,99,105,,63,63,12,26,2,1,0.9,0.9
2023-12-30T1700,3357A,104.0106,30.6931,成都市,金博路,,,,147,,117,,,34,,,66,,2,,1.4
2023-12-30T1700,3359A,104.0578,30.5225,成都市,华阳,细颗粒物(PM2.5),170,171,135,129,107,75,,59,59,43,55,1,2,1.0,1.1
2023-12-30T1700,3487A,104.2394,30.5319,成都市,车城东七路,细颗粒物(PM2.5),170,142,140,129,116,103,,61,61,,39,1,1,0.8,0.9
2023-12-30T1700,3488A,104.3853,30.7453,成都市,青白江技师分院,细颗粒物(PM2.5),212,169,137,162,131,97,,47,47,20,40,3,2,0.9,1
2023-12-30T1700,3489A,104.0789,30.4072,成都市,科学城,细颗粒物(PM2.5),155,136,120,118,103,111,,72,72,10,24,3,3,0.8,0.8
2023-12-30T1700,4011A,103.8506,30.6947,成都市,光华大道三段,细颗粒物(PM2.5),209,178,160,159,139,63,,46,46,49,52,1,2,1.0,1
2023-12-30T1700,1062A,117.9531,40.9081,承德市,铁路,颗粒物(PM10),76,102,139,53,92,19,,15,15,51,65,14,17,0.8,2.1
2023-12-30T1700,1063A,117.9392,40.9763,承德市,中国银行,细颗粒物(PM2.5),82,105,104,60,66,22,,21,21,52,56,3,4,1.1,1.5
2023-12-30T1700,1064A,117.9503,40.928,承德市,开发区,颗粒物(PM10),72,93,115,51,70,16,,18,18,62,59,13,15,0.8,1.7
2023-12-30T1700,1065A,117.8051,40.9655,承德市,文化中心,颗粒物(PM10),73,96,143,35,84,67,,31,31,16,57,9,35,0.3,1.7
2023-12-30T1700,1066A,117.9268,41.0026,承德市,离宫,细颗粒物(PM2.5),79,95,93,58,66,24,,14,14,31,46,5,6,0.6,1.2
2023-12-30T1700,2314A,117.47,30.6618,池州市,池州学院,细颗粒物(PM2.5),123,131,221,93,176,117,,90,90,19,52,7,9,1.0,1.4
2023-12-30T1700,3237A,117.4918,30.6617,池州市,展览馆,细颗粒物(PM2.5),133,136,229,101,174,118,,95,95,30,52,7,7,1.1,1.5
2023-12-30T1700,3333A,117.5627,30.695,池州市,第八中学,细颗粒物(PM2.5),100,86,178,75,128,120,,94,94,16,47,8,8,1.2,1.7
2023-12-30T1700,3334A,117.5038,30.6243,池州市,第十二中学,细颗粒物(PM2.5),117,103,180,88,155,119,,98,98,20,48,6,5,1.0,1.5
2023-12-30T1700,1744A,118.9233,42.2816,赤峰市,松山一中,细颗粒物(PM2.5),68,65,95,49,65,24,,24,24,40,58,11,39,1.1,1.8
2023-12-30T1700,1745A,118.9576,42.2728,赤峰市,哈达街,细颗粒物(PM2.5),69,63,112,50,70,31,,28,28,32,57,12,59,1.0,1.7
2023-12-30T1700,1746A,118.8788,42.2554,赤峰市,天义路,细颗粒物(PM2.5),77,59,54,56,40,36,,39,39,37,46,10,20,0.9,1.1
2023-12-30T1700,3058A,119.2658,42.0353,赤峰市,银河街,细颗粒物(PM2.5),75,71,143,55,106,37,,42,41,23,46,14,31,0.9,2.1
2023-12-30T1700,3286A,118.9359,42.3147,赤峰市,桥北物流园区,细颗粒物(PM2.5),93,,86,69,78,36,,39,39,37,58,15,37,1.2,1.6
2023-12-30T1700,2521A,107.3476,22.4136,崇左市,市环保局江州分局,细颗粒物(PM2.5),64,73,75,46,44,125,,100,100,18,30,11,9,0.8,0.8
2023-12-30T1700,2522A,107.3702,22.3707,崇左市,城南新区,细颗粒物(PM2.5),72,66,58,52,41,126,,97,97,18,27,12,9,0.6,0.5
2023-12-30T1700,2298A,118.3093,32.3153,滁州市,老年大学,细颗粒物(PM2.5),182,141,163,137,152,87,,71,71,46,48,8,7,1.1,1.4
2023-12-30T1700,2299A,118.3244,32.2786,滁州市,人大宾馆,细颗粒物(PM2.5),190,163,190,143,178,97,,68,68,48,60,6,6,0.9,1.4
2023-12-30T1700,3207A,118.3118,32.3038,滁州市,市政府原办公楼,细颗粒物(PM2.5),162,137,163,123,142,103,,70,70,34,50,7,6,0.6,1.1
2023-12-30T1700,3331A,118.3267,32.2634,滁州市,图书馆,细颗粒物(PM2.5),166,159,177,126,147,101,,69,69,56,63,6,6,1.2,1.5
2023-12-30T1700,2605A,101.5482,25.0441,楚雄州,州环境监测站,,22,17,26,7,20,68,,48,48,4,20,4,7,0.4,0.6
2023-12-30T1700,2606A,101.538,25.0492,楚雄州,市经济开发区,,22,22,30,8,20,64,,45,45,6,22,5,7,0.4,0.6
2023-12-30T1700,2548A,107.5277,31.2827,达州市,达州职业技术学院,细颗粒物(PM2.5),139,125,209,106,167,43,,24,24,27,27,7,8,1.0,1.4
2023-12-30T1700,2549A,107.5086,31.2186,达州市,市环境监测站,细颗粒物(PM2.5),156,136,204,119,174,31,,15,15,44,42,6,7,1.2,1.4
2023-12-30T1700,2550A,107.4988,31.2132,达州市,凤凰小区,细颗粒物(PM2.5),149,136,198,114,167,37,,21,21,44,42,6,10,1.2,1.4
2023-12-30T1700,2551A,107.5082,31.1986,达州市,达县机关宾馆,细颗粒物(PM2.5),143,132,188,109,156,28,,16,16,59,48,4,5,1.2,1.4
2023-12-30T1700,2552A,107.4644,31.2124,达州市,市政中心,细颗粒物(PM2.5),178,167,214,134,174,28,,19,19,56,45,9,6,1.5,1.4
2023-12-30T1700,2614A,100.1542,25.7054,大理州,大理市环境监测站,,24,17,19,12,15,76,,64,64,8,12,6,6,0.5,0.6
2023-12-30T1700,2615A,100.2171,25.5811,大理州,大理古城,,23,15,24,14,16,73,,63,63,17,18,6,6,1.0,1
2023-12-30T1700,1109A,121.612,38.9741,大连市,甘井子,细颗粒物(PM2.5),54,56,93,38,69,20,,34,34,58,46,6,11,0.9,0.8
2023-12-30T1700,1110A,121.565,38.9511,大连市,周水子,细颗粒物(PM2.5),64,51,103,46,86,4,,50,25,76,51,10,16,1.4,1.1
2023-12-30T1700,1111A,121.5637,38.8845,大连市,星海三站,,,130,105,,81,15,,69,31,61,34,7,9,1.5,1.1
2023-12-30T1700,1112A,121.6302,38.9117,大连市,青泥洼桥,细颗粒物(PM2.5),60,51,83,43,83,17,,59,40,77,45,8,15,1.6,1.2
2023-12-30T1700,1113A,121.6251,38.8638,大连市,傅家庄,,43,,71,30,69,45,,73,67,47,29,11,13,1.6,1.4
2023-12-30T1700,1114A,121.5213,38.8661,大连市,七贤岭,细颗粒物(PM2.5),60,46,113,43,91,11,,63,20,74,46,17,14,1.7,1.5
2023-12-30T1700,1115A,121.2529,38.8061,大连市,旅顺,细颗粒物(PM2.5),59,,127,42,99,28,,72,47,50,29,8,10,2.0,1.7
2023-12-30T1700,1116A,121.7485,39.1311,大连市,金州,细颗粒物(PM2.5),54,38,81,38,74,55,,56,56,23,30,6,9,1.2,1.4
2023-12-30T1700,1117A,121.7811,39.0496,大连市,开发区,,27,27,81,12,64,66,,59,59,22,47,5,7,0.8,1.1
2023-12-30T1700,1118A,121.9762,39.0631,大连市,双D港,,,36,63,,52,48,,73,69,24,22,8,7,1.5,1.2
2023-12-30T1700,1789A,124.81117,46.03138,大庆市,大同区,细颗粒物(PM2.5),62,,144,44,138,37,,39,35,27,32,10,9,0.6,1
2023-12-30T1700,1790A,125.129,46.533,大庆市,龙凤区,,33,,105,23,92,51,,47,47,16,33,4,8,0.4,0.9
2023-12-30T1700,1791A,124.902,46.408,大庆市,红岗区,,43,,91,30,84,48,,45,45,16,38,9,10,0.7,1.2
2023-12-30T1700,1792A,125.153,46.586,大庆市,萨尔图区,,28,22,113,19,102,58,,57,57,9,22,7,6,0.2,0.7
2023-12-30T1700,1793A,124.9042,46.6215,大庆市,让胡路区,,38,38,100,22,71,41,,42,42,12,26,6,5,0.4,1
2023-12-30T1700,3481A,125.141,46.634,大庆市,萨区政府监测点,,,16,107,16,94,50,,50,50,,20,8,7,0.4,0.8
2023-12-30T1700,1721A,113.3819,40.1097,大同市,果树场,,,,,,,,,,,,,,,,
2023-12-30T1700,1723A,113.2994,40.0758,大同市,云冈宾馆,颗粒物(PM10),62,73,191,33,113,58,,39,39,29,70,8,32,0.8,2.3
2023-12-30T1700,1724A,113.3444,40.0917,大同市,大同大学,颗粒物(PM10),81,111,169,44,94,58,,38,38,36,69,9,34,0.8,1.9
2023-12-30T1700,1725A,113.2661,40.1269,大同市,安家小村,颗粒物(PM10),73,96,166,35,92,68,,40,40,21,68,9,33,0.4,2
2023-12-30T1700,1726A,113.2711,40.0844,大同市,教育学院,颗粒物(PM10),81,111,199,31,95,50,,34,34,40,82,6,36,0.4,1.9
2023-12-30T1700,3282A,113.3397,40.0597,大同市,大同市卫生学校,颗粒物(PM10),84,117,179,51,113,51,,33,33,34,80,6,32,0.5,1.6
2023-12-30T1700,3565A,113.1367,40.1122,大同市,云冈站,细颗粒物(PM2.5),78,103,140,57,76,58,,43,43,28,60,5,44,0.4,1
2023-12-30T1700,3566A,113.1186,40.2556,大同市,图书馆,颗粒物(PM10),59,68,172,18,125,66,,46,46,28,65,7,28,0.7,2
2023-12-30T1700,3567A,113.5931,40.0461,大同市,区一中,颗粒物(PM10),85,119,235,60,133,50,,32,32,37,77,14,56,0.9,2.1
2023-12-30T1700,3676A,113.2802,40.0995,大同市,第二人民医院,颗粒物(PM10),80,110,187,34,100,60,,38,38,28,72,5,33,0.5,2.2
2023-12-30T1700,2269A,124.1069,50.4097,大兴安岭地区,科技局,,32,,22,22,20,40,,45,45,11,10,6,6,0.5,0.5
2023-12-30T1700,3663A,124.1164,50.4278,大兴安岭地区,红旗社区,,40,29,53,28,45,11,,26,26,47,37,7,12,0.6,0.7
2023-12-30T1700,1600A,124.3303,40.0625,丹东市,江湾东路,细颗粒物(PM2.5),63,51,67,45,55,47,,55,55,31,38,14,21,1.0,1.2
2023-12-30T1700,1601A,124.4256,40.1503,丹东市,临江后街,细颗粒物(PM2.5),147,,75,112,73,40,,48,48,35,45,11,18,1.3,1.4
2023-12-30T1700,1602A,124.3933,40.1461,丹东市,元宝山,细颗粒物(PM2.5),92,75,82,68,70,25,,30,30,44,43,13,18,1.4,1.6
2023-12-30T1700,1603A,124.3633,40.1092,丹东市,民主桥,,,79,78,,58,11,,23,16,65,57,15,18,1.4,1.3
2023-12-30T1700,3541A,109.5726,19.5167,儋州市,第一中学子站,,41,41,24,19,10,79,,62,62,6,3,4,4,0.7,0.6
2023-12-30T1700,3542A,109.5567,19.5187,儋州市,东坡学校子站,,44,44,28,23,10,86,,65,65,8,4,5,5,0.6,0.5
2023-12-30T1700,2616A,98.5842,24.428,德宏州,德宏州监测站,,22,10,31,5,22,69,,12,,18,23,36,13,0.2,0.5
2023-12-30T1700,3677A,98.5881,24.4368,德宏州,芒市人民政府综合楼,,37,37,32,19,19,79,,50,50,15,16,19,12,0.3,0.4
2023-12-30T1700,1901A,104.4239,31.1208,德阳市,东山公园,细颗粒物(PM2.5),218,169,121,168,111,48,,40,32,25,33,3,2,0.9,0.8
2023-12-30T1700,1902A,104.3826,31.1317,德阳市,西小区,细颗粒物(PM2.5),230,,136,180,134,43,,26,26,20,53,3,2,1.0,1.2
2023-12-30T1700,1904A,104.3553,31.1091,德阳市,耐火材料厂,细颗粒物(PM2.5),225,,139,175,127,46,,29,29,16,47,3,2,0.9,1
2023-12-30T1700,3639A,104.4019,31.1244,德阳市,市教育局,细颗粒物(PM2.5),216,,123,166,121,46,,29,29,21,52,3,2,1.0,1
2023-12-30T1700,1622A,116.3032,37.4674,德州市,儿童乐园,细颗粒物(PM2.5),230,222,212,180,172,37,,19,19,56,60,8,9,1.7,1.7
2023-12-30T1700,1624A,116.2991,37.4451,德州市,监理站,细颗粒物(PM2.5),243,226,215,193,184,41,,22,22,63,67,10,11,1.6,1.7
2023-12-30T1700,3066A,116.2721,37.4379,德州市,九衢泉纯净水厂,细颗粒物(PM2.5),243,234,211,193,166,29,,20,20,72,67,7,9,1.9,1.9
2023-12-30T1700,3371A,116.3728,37.4403,德州市,开发区人民医院,细颗粒物(PM2.5),228,239,229,178,174,37,,22,22,57,58,4,5,1.9,1.9
2023-12-30T1700,3372A,116.3572,37.4094,德州市,太阳城中学,细颗粒物(PM2.5),245,223,220,195,184,40,,22,22,50,55,5,7,1.9,1.9
2023-12-30T1700,3511A,116.5652,37.3319,德州市,陵城艺术中心,细颗粒物(PM2.5),235,229,243,185,193,32,,18,18,48,51,1,7,1.8,1.9
2023-12-30T1700,2621A,99.7056,27.8317,迪庆州,迪庆州站,,26,19,29,7,15,83,,73,73,8,14,7,9,0.3,0.6
2023-12-30T1700,3180A,99.7136,27.8094,迪庆州,质量技术监督局,,28,20,27,19,20,87,,74,74,6,15,7,7,0.5,0.7
2023-12-30T1700,2663A,104.6241,35.5734,定西市,东关小学,颗粒物(PM10),53,56,83,17,41,67,,51,51,7,25,8,16,0.4,0.9
2023-12-30T1700,2664A,104.6194,35.5934,定西市,供电公司,,37,37,53,15,43,62,,46,46,19,32,13,13,0.4,0.9
2023-12-30T1700,1389A,113.7547,23.0494,东莞市,莞城梨川,,,,96,,55,52,,77,77,87,69,8,8,1.0,0.8
2023-12-30T1700,1390A,113.7944,23.0128,东莞市,东城石井,细颗粒物(PM2.5),97,93,83,72,54,64,,82,82,65,53,10,9,0.9,0.7
2023-12-30T1700,1391A,113.7383,22.9658,东莞市,南城西平,"颗粒物(PM10),细颗粒物(PM2.5)",60,69,86,43,48,67,,72,72,60,69,8,7,0.8,0.8
2023-12-30T1700,3319A,113.7338,23.0381,东莞市,万江金泰,细颗粒物(PM2.5),119,110,110,90,67,55,,70,70,77,68,11,12,0.8,0.8
2023-12-30T1700,3626A,113.7533,23.0202,东莞市,南城元岭,细颗粒物(PM2.5),88,104,98,65,54,68,,81,81,68,65,8,8,1.0,1
2023-12-30T1700,3627A,113.7875,23.0457,东莞市,东城主山,细颗粒物(PM2.5),95,96,86,71,63,61,,82,82,79,67,8,8,0.9,0.9
2023-12-30T1700,1666A,118.6614,37.4309,东营市,市环保局,细颗粒物(PM2.5),313,329,261,263,228,8,,18,18,72,61,9,11,1.9,1.9
2023-12-30T1700,3036A,118.6904,37.4338,东营市,开发区管委会,细颗粒物(PM2.5),350,358,264,300,234,7,,19,18,84,74,7,8,2.0,2
2023-12-30T1700,3365A,118.5719,37.565,东营市,垦利区民丰路,细颗粒物(PM2.5),340,390,266,290,222,9,,11,11,64,69,8,9,2.0,2.3
2023-12-30T1700,3498A,118.5055,37.8612,东营市,河口城区,细颗粒物(PM2.5),294,385,292,244,228,7,,14,14,72,66,4,5,2.1,2.4
2023-12-30T1700,3646A,118.4978,37.4623,东营市,胜利站,细颗粒物(PM2.5),321,341,291,271,248,7,,12,12,86,77,9,13,2.0,2.1
2023-12-30T1700,3734A,118.35,37.26,东营市,理想之城,细颗粒物(PM2.5),301,322,261,251,205,7,,16,16,90,74,7,8,2.1,2.1
2023-12-30T1700,1591A,110.0023,39.8129,鄂尔多斯市,综合楼,颗粒物(PM10),58,66,117,12,34,78,,78,78,18,30,5,7,0.3,0.4
2023-12-30T1700,1592A,109.9486,39.8261,鄂尔多斯市,巴音孟克林场办事处,颗粒物(PM10),52,53,98,14,31,77,,76,76,13,25,7,9,0.4,0.5
2023-12-30T1700,1593A,109.7736,39.5986,鄂尔多斯市,康泽苑,,44,44,98,14,38,85,,81,81,13,29,8,8,0.4,0.6
2023-12-30T1700,1594A,109.8119,39.5989,鄂尔多斯市,华泰汽车城,,44,44,97,14,35,88,,86,86,12,37,8,8,0.3,0.5
2023-12-30T1700,1595A,109.9734,39.7884,鄂尔多斯市,奥林花园,颗粒物(PM10),56,61,111,12,33,77,,77,77,16,37,6,8,0.6,0.9
2023-12-30T1700,2436A,114.8938,30.3994,鄂州市,市政府,细颗粒物(PM2.5),207,,206,157,207,87,,66,66,36,49,8,7,1.9,1.8
2023-12-30T1700,2437A,114.8989,30.3714,鄂州市,赵家坝,细颗粒物(PM2.5),178,,194,134,196,107,,75,75,34,52,6,6,1.4,1.4
2023-12-30T1700,3654A,114.8094,30.4089,鄂州市,精准医疗中心,细颗粒物(PM2.5),185,172,246,139,193,113,,83,83,25,49,8,8,0.9,1.2
2023-12-30T1700,2499A,108.3411,21.6158,防城港市,沙万,,47,47,53,31,34,95,,73,73,22,26,7,8,0.7,0.8
2023-12-30T1700,2500A,108.3514,21.7731,防城港市,防城档案局,,27,27,75,12,37,83,,77,77,12,33,5,14,0.2,0.5
2023-12-30T1700,2501A,108.3506,21.6414,防城港市,大海花园,,49,44,42,34,34,86,,64,64,25,29,8,7,1.0,0.8
2023-12-30T1700,1371A,113.1294,23.0067,佛山市,湾梁,,44,44,99,22,44,26,,50,48,46,73,7,9,0.7,1
2023-12-30T1700,1372A,113.1083,23.0478,佛山市,华材职中,,45,41,93,31,64,12,,43,38,66,93,10,10,0.7,0.8
2023-12-30T1700,1373A,113.144,23.0453,佛山市,南海气象局,,40,34,85,28,57,14,,49,45,49,84,4,5,0.6,0.8
2023-12-30T1700,1374A,113.2881,22.8094,佛山市,顺德苏岗,,32,25,75,22,51,47,,65,65,38,71,8,9,0.6,0.9
2023-12-30T1700,1376A,112.8383,22.8678,佛山市,高明孔堂,,18,17,79,12,53,49,,60,60,13,37,5,9,0.4,0.6
2023-12-30T1700,1377A,112.8836,23.1588,佛山市,三水监测站,,42,,76,29,56,21,,31,28,53,85,4,6,0.7,0.8
2023-12-30T1700,1378A,112.867,23.185,佛山市,三水云东海,,43,43,63,29,51,13,,29,26,55,66,5,6,0.6,0.7
2023-12-30T1700,3625A,113.2544,22.7642,佛山市,容桂街道办,,42,41,91,29,47,40,,57,57,44,70,5,6,0.7,0.9
2023-12-30T1700,1280A,119.3903,26.0543,福州市,鼓山,,,,,,,,,,,,,,,,
2023-12-30T1700,1282A,119.2681,26.0504,福州市,师大,颗粒物(PM10),51,51,51,25,36,63,,61,61,42,34,6,7,0.6,0.5
2023-12-30T1700,1283A,119.2984,26.1028,福州市,五四北路,,45,45,49,25,40,57,,66,66,42,36,4,4,0.5,0.5
2023-12-30T1700,1284A,119.2648,26.0768,福州市,杨桥西路,颗粒物(PM10),51,52,54,23,34,64,,70,70,37,30,4,5,0.6,0.6
2023-12-30T1700,1285A,119.317,26.0746,福州市,紫阳,颗粒物(PM10),54,58,54,28,37,47,,62,62,47,34,6,6,0.8,0.7
2023-12-30T1700,3048A,119.5799,26.0936,福州市,九龙,颗粒物(PM10),55,59,45,32,35,99,,92,92,28,28,6,5,0.7,0.6
2023-12-30T1700,3526A,119.5189,25.9664,福州市,吴航,,42,42,58,29,32,89,,76,76,38,34,8,6,0.7,0.6
2023-12-30T1700,1755A,123.7977,41.8491,抚顺市,望花区,细颗粒物(PM2.5),79,61,75,58,53,23,,33,33,57,51,4,13,0.9,1
2023-12-30T1700,1756A,123.9161,41.8822,抚顺市,顺城区,细颗粒物(PM2.5),73,71,60,53,48,26,,48,46,54,39,10,9,0.8,0.8
2023-12-30T1700,1757A,124.0436,41.8611,抚顺市,东洲区,细颗粒物(PM2.5),64,62,53,46,44,70,,68,68,10,16,10,11,0.7,0.8
2023-12-30T1700,1758A,123.9247,41.8642,抚顺市,新抚区,细颗粒物(PM2.5),79,79,73,58,62,38,,50,50,43,46,10,10,0.7,0.8
2023-12-30T1700,1759A,124.0972,41.8961,抚顺市,大伙房水库,细颗粒物(PM2.5),67,57,47,48,41,64,,67,67,16,21,9,10,0.9,0.9
2023-12-30T1700,1760A,123.7086,41.8391,抚顺市,沈抚新城,细颗粒物(PM2.5),83,72,74,61,50,16,,40,39,68,43,10,14,0.8,1.2
2023-12-30T1700,2376A,116.2127,28.0814,抚州市,桐源党溪,细颗粒物(PM2.5),125,125,124,95,105,111,,102,102,46,28,73,10,2.1,1.5
2023-12-30T1700,2377A,116.3544,27.9831,抚州市,市站,,,,159,,120,134,,131,131,50,52,,35,1.8,1.5
2023-12-30T1700,2378A,116.3565,27.963,抚州市,血防站,细颗粒物(PM2.5),145,136,153,111,120,137,,104,104,40,54,15,16,1.4,1.5
2023-12-30T1700,2379A,116.3564,28.0007,抚州市,采茶剧团,细颗粒物(PM2.5),147,147,148,112,127,135,,101,101,37,44,20,14,1.5,1.5
2023-12-30T1700,2380A,116.385,27.9647,抚州市,医学分院,细颗粒物(PM2.5),134,152,167,102,110,134,,96,96,34,51,25,17,1.5,1.6
2023-12-30T1700,2207A,121.6094,41.998,阜新市,工业园区,细颗粒物(PM2.5),120,,206,91,102,33,,7,7,35,66,9,47,1.2,2.6
2023-12-30T1700,2208A,121.6697,42.0279,阜新市,长青街,细颗粒物(PM2.5),129,127,193,98,147,35,,13,13,30,58,6,33,0.9,2
2023-12-30T1700,2209A,121.6673,42.0705,阜新市,农业园区,细颗粒物(PM2.5),160,125,168,122,135,42,,23,23,27,51,9,26,0.9,1.6
2023-12-30T1700,2210A,121.6717,42.0224,阜新市,东苑,细颗粒物(PM2.5),98,107,168,73,130,43,,21,21,34,62,7,45,1.4,2.7
2023-12-30T1700,2211A,121.6506,42.0498,阜新市,玉龙新城,细颗粒物(PM2.5),100,96,152,75,121,39,,19,19,34,61,7,22,1.0,2.2
2023-12-30T1700,2301A,115.8277,32.8929,阜阳市,市监测站,细颗粒物(PM2.5),153,,189,117,174,84,,77,77,22,34,7,6,0.9,1.3
2023-12-30T1700,2303A,115.8554,32.8605,阜阳市,开发区,细颗粒物(PM2.5),134,147,203,102,146,88,,78,78,20,37,8,7,0.7,1.3
2023-12-30T1700,2875A,115.784,32.8892,阜阳市,阜阳职业技术学院,细颗粒物(PM2.5),134,129,192,102,150,87,,81,81,20,32,5,4,0.7,1.1
2023-12-30T1700,3468A,115.7901,32.8613,阜阳市,市规划展馆,细颗粒物(PM2.5),135,128,210,103,166,89,,83,83,23,36,5,4,0.9,1.3
2023-12-30T1700,3469A,115.836,32.9183,阜阳市,枣园社区,细颗粒物(PM2.5),139,127,201,106,167,92,,81,81,20,36,3,2,0.8,1.2
2023-12-30T1700,2669A,102.9099,34.9841,甘南州,州政府,,25,21,60,7,31,77,,57,57,9,34,9,22,0.3,1
2023-12-30T1700,3380A,102.8914,34.9617,甘南州,甘肃民族师范学院,,26,7,50,4,20,82,,56,56,2,32,11,16,0.5,1.1
2023-12-30T1700,2570A,101.9603,30.0475,甘孜藏族自治州,水桥子,,25,24,28,7,15,80,,56,56,8,27,9,9,0.2,0.4
2023-12-30T1700,3065A,101.9533,29.9972,甘孜藏族自治州,州环保局,,26,17,22,4,7,82,,74,74,8,11,8,8,0.2,0.3
2023-12-30T1700,3414A,115.8347,28.932,赣江新区,桑海产业园,细颗粒物(PM2.5),206,222,216,156,162,112,,90,90,62,75,10,9,1.0,1.1
2023-12-30T1700,2362A,114.9017,25.9149,赣州市,通天岩,,,,,,,,,,,,,,,,
2023-12-30T1700,2363A,114.9367,25.8664,赣州市,地委,臭氧1小时,95,82,114,64,62,196,,131,131,22,65,15,13,0.9,1.6
2023-12-30T1700,2364A,114.9461,25.8481,赣州市,气象台,臭氧1小时,98,86,121,64,69,198,,152,152,45,80,16,15,1.3,1.6
2023-12-30T1700,2365A,114.9322,25.8333,赣州市,市图书馆,细颗粒物(PM2.5),87,104,132,64,75,181,,152,152,65,82,11,14,0.9,1.3
2023-12-30T1700,2366A,114.8905,25.8471,赣州市,华坚鞋城,,,,154,,76,,,80,,,86,,19,,2.1
2023-12-30T1700,3109A,115.0093,25.8613,赣州市,赣县区卫计委,细颗粒物(PM2.5),74,72,99,54,70,130,,100,100,27,58,6,9,0.9,1.3
2023-12-30T1700,2683A,106.2319,36.1417,固原市,马园,,43,43,75,9,28,76,,62,62,14,34,4,7,0.6,1
2023-12-30T1700,2684A,106.2792,36.0022,固原市,监测站,,45,45,56,4,17,79,,76,76,16,26,4,7,0.5,0.7
2023-12-30T1700,2685A,106.2375,36.0211,固原市,新区,,41,41,56,8,20,73,,71,71,11,21,5,4,0.3,0.5
2023-12-30T1700,3522A,106.2177,35.9959,固原市,原州区十五小,,34,34,52,11,22,71,,72,70,11,16,4,6,0.2,0.5
2023-12-30T1700,2543A,106.6308,30.5278,广安市,小平旧居,,,,,,,,,,,,,,,,
2023-12-30T1700,2544A,106.6303,30.4576,广安市,市委,细颗粒物(PM2.5),198,,210,148,180,79,,42,42,20,30,8,7,1.0,1.3
2023-12-30T1700,2545A,106.6271,30.4663,广安市,友谊中学,细颗粒物(PM2.5),190,,193,143,174,75,,42,42,27,32,8,8,1.2,1.4
2023-12-30T1700,2547A,106.6388,30.4551,广安市,广电花园,细颗粒物(PM2.5),196,,186,147,172,74,,38,38,23,33,4,4,1.0,1.3
2023-12-30T1700,2902A,106.6351,30.4865,广安市,北辰小学,细颗粒物(PM2.5),176,135,195,133,171,74,,39,39,20,29,7,6,1.1,1.4
2023-12-30T1700,2523A,105.8945,32.4535,广元市,黑石坡,细颗粒物(PM2.5),103,114,81,77,63,79,,37,37,44,30,18,11,1.1,0.9
2023-12-30T1700,2524A,105.821,32.4444,广元市,老城,细颗粒物(PM2.5),150,162,122,115,76,34,,16,16,59,50,58,18,2.2,1.3
2023-12-30T1700,2526A,105.8628,32.4287,广元市,监测站,细颗粒物(PM2.5),176,156,100,133,78,22,,16,16,78,51,67,17,2.4,1.3
2023-12-30T1700,3617A,105.8047,32.4166,广元市,经开区,细颗粒物(PM2.5),160,175,130,122,86,20,,12,12,68,59,71,29,2.3,1.5
2023-12-30T1700,1345A,113.2347,23.1423,广州市,广雅中学,,42,40,106,29,61,23,,32,32,79,114,4,6,1.1,1.4
2023-12-30T1700,1346A,113.2612,23.105,广州市,市五中,,42,42,94,29,59,36,,50,50,60,93,7,8,0.9,1.1
2023-12-30T1700,1348A,113.3478,23.0916,广州市,广东商学院,,44,44,86,23,42,31,,50,50,49,84,5,7,0.9,1.1
2023-12-30T1700,1349A,113.4332,23.1047,广州市,市八十六中,,46,46,84,32,48,28,,55,55,68,92,5,7,1.0,1.1
2023-12-30T1700,1350A,113.3505,22.9483,广州市,番禺中学,,,33,75,23,46,62,,70,70,,70,5,6,0.6,0.8
2023-12-30T1700,1351A,113.2146,23.3916,广州市,花都师范,细颗粒物(PM2.5),60,58,106,43,64,36,,44,44,54,82,5,6,0.6,0.9
2023-12-30T1700,1352A,113.2597,23.1331,广州市,市监测站,,46,43,98,32,61,31,,36,36,78,114,4,5,0.7,1
2023-12-30T1700,1353A,113.5618,23.312,广州市,九龙镇镇龙,细颗粒物(PM2.5),67,64,107,48,53,50,,42,42,65,72,5,6,0.8,0.9
2023-12-30T1700,1354A,113.2765,23.1544,广州市,麓湖,,46,38,78,32,57,26,,38,38,50,83,4,5,0.6,0.9
2023-12-30T1700,1355A,113.443,23.3035,广州市,帽峰山森林公园,,43,43,76,27,42,16,,50,42,16,39,9,9,0.5,0.5
2023-12-30T1700,2846A,113.3221,23.1322,广州市,体育西,,46,43,98,32,59,51,,54,54,56,106,6,8,0.7,0.9
2023-12-30T1700,3298A,113.5717,23.5491,广州市,从化街口,细颗粒物(PM2.5),144,144,110,110,84,63,,65,65,60,54,7,6,1.1,1
2023-12-30T1700,3299A,113.3472,23.3692,广州市,白云竹料,细颗粒物(PM2.5),70,64,132,51,72,50,,52,52,61,80,6,7,0.7,0.9
2023-12-30T1700,3300A,113.2981,23.237,广州市,白云嘉禾,细颗粒物(PM2.5),90,77,140,67,83,34,,38,38,76,106,13,8,0.9,1.1
2023-12-30T1700,3301A,113.4256,23.1716,广州市,黄埔科学城,细颗粒物(PM2.5),100,79,97,75,68,39,,49,49,60,77,3,5,0.9,0.9
2023-12-30T1700,3302A,113.3942,23.0483,广州市,番禺大学城,颗粒物(PM10),58,65,116,24,42,63,,66,66,31,71,8,9,0.9,1
2023-12-30T1700,3303A,113.4922,22.8168,广州市,南沙黄阁,细颗粒物(PM2.5),55,54,76,39,50,72,,73,73,49,72,3,6,0.7,0.8
2023-12-30T1700,3304A,113.5342,22.7896,广州市,南沙街,,50,50,73,35,41,70,,73,73,53,72,5,6,0.7,0.7
2023-12-30T1700,3443A,113.2902,23.5544,广州市,花都梯面,细颗粒物(PM2.5),79,96,90,58,65,44,,50,50,47,66,5,6,0.8,0.8
2023-12-30T1700,3445A,113.7858,23.7478,广州市,从化良口,细颗粒物(PM2.5),97,80,42,72,36,72,,69,69,23,26,6,6,0.9,0.7
2023-12-30T1700,3446A,113.8051,23.2614,广州市,增城荔城,细颗粒物(PM2.5),107,100,92,80,62,94,,85,85,25,46,6,7,0.7,0.8
2023-12-30T1700,2505A,109.568,23.1478,贵港市,德智高中,,42,42,87,14,73,96,,93,93,27,43,5,9,0.7,1
2023-12-30T1700,2506A,109.6047,23.0666,贵港市,江南子站,,42,39,115,29,66,108,,97,97,11,40,9,11,0.5,0.8
2023-12-30T1700,2507A,109.6014,23.0948,贵港市,贵城子站,,30,19,96,15,71,96,,90,90,17,48,10,12,0.4,0.9
2023-12-30T1700,2508A,109.5669,23.1065,贵港市,荷城子站,,39,39,117,9,66,87,,85,85,14,45,10,13,0.5,1.6
2023-12-30T1700,3405A,109.5886,23.1172,贵港市,新世纪学校,,36,36,112,19,64,105,,96,96,20,61,14,11,0.8,1.2
2023-12-30T1700,1439A,106.6899,26.5998,贵阳市,马鞍山,细颗粒物(PM2.5),73,70,63,53,45,109,,59,59,25,25,28,12,0.8,1
2023-12-30T1700,1440A,106.6971,26.5694,贵阳市,市环保站,,,,,,,,,,,,,,,,
2023-12-30T1700,1441A,106.6243,26.6266,贵阳市,鉴湖路,细颗粒物(PM2.5),79,75,61,58,44,112,,70,70,28,28,18,11,0.6,0.7
2023-12-30T1700,1442A,106.7487,26.6343,贵阳市,燕子冲,细颗粒物(PM2.5),83,73,62,61,52,122,,69,69,20,24,36,18,0.7,0.9
2023-12-30T1700,1443A,106.6555,26.4365,贵阳市,碧云窝,细颗粒物(PM2.5),58,63,67,41,47,119,,86,86,14,25,15,21,0.7,0.9
2023-12-30T1700,1444A,106.694,26.5161,贵阳市,中院村,细颗粒物(PM2.5),79,80,70,58,52,101,,69,69,25,30,14,22,0.7,0.9
2023-12-30T1700,1445A,106.7109,26.6027,贵阳市,红边门,细颗粒物(PM2.5),83,78,72,61,57,118,,64,64,25,30,16,24,0.7,1
2023-12-30T1700,1446A,106.7164,26.5699,贵阳市,新华路,细颗粒物(PM2.5),83,78,68,61,56,118,,69,69,27,29,16,16,0.7,0.9
2023-12-30T1700,1447A,106.674,26.5424,贵阳市,太慈桥,细颗粒物(PM2.5),73,70,65,53,47,127,,74,74,21,29,15,13,0.6,0.8
2023-12-30T1700,1552A,106.805,26.3003,贵阳市,桐木岭,,,,,,,,,,,,,,,,
2023-12-30T1700,1862A,110.4144,25.3167,桂林市,电子科大尧山校区,细颗粒物(PM2.5),70,70,79,51,75,126,,116,116,13,15,13,15,0.7,0.8
2023-12-30T1700,1863A,110.2819,25.2697,桂林市,监测站,细颗粒物(PM2.5),108,109,145,81,109,127,,111,111,31,60,14,16,1.1,1.7
2023-12-30T1700,1864A,110.3089,25.2708,桂林市,龙隐路小学,细颗粒物(PM2.5),104,89,113,78,103,136,,118,118,24,46,13,16,1.1,1.4
2023-12-30T1700,1865A,110.2869,25.2178,桂林市,八中,细颗粒物(PM2.5),94,80,119,70,100,128,,105,105,21,47,14,16,0.9,1.2
2023-12-30T1700,3403A,110.1764,25.2381,桂林市,创业大厦,细颗粒物(PM2.5),100,102,132,75,99,130,,99,99,18,56,16,20,0.5,0.8
2023-12-30T1700,3531A,110.296,25.1253,桂林市,旅游学院,细颗粒物(PM2.5),100,95,112,75,87,136,,108,108,22,40,18,13,0.6,0.8
2023-12-30T1700,2674A,100.2561,34.4714,果洛藏族自治州,玛沁县大武镇,,27,14,32,10,16,84,,65,65,8,15,6,14,0.6,0.5
2023-12-30T1700,1129A,126.5422,45.755,哈尔滨市,岭北,细颗粒物(PM2.5),134,111,151,102,135,51,,40,40,40,52,19,16,0,0.6
2023-12-30T1700,1130A,126.561,45.8167,哈尔滨市,松北商大,细颗粒物(PM2.5),134,117,149,102,132,39,,36,36,51,56,9,11,1.0,1.2
2023-12-30T1700,1131A,126.979,45.5419,哈尔滨市,阿城会宁,细颗粒物(PM2.5),90,73,168,67,148,44,,33,33,30,57,9,13,0.7,1.7
2023-12-30T1700,1132A,126.599,45.7222,哈尔滨市,南岗学府路,细颗粒物(PM2.5),123,133,164,93,122,46,,29,29,46,59,13,14,1.0,1.3
2023-12-30T1700,1133A,126.689,45.7733,哈尔滨市,太平宏伟公园,细颗粒物(PM2.5),130,125,152,99,127,31,,39,39,58,51,10,12,0.8,1.1
2023-12-30T1700,1134A,126.635,45.7667,哈尔滨市,道外承德广场,细颗粒物(PM2.5),127,138,161,96,131,25,,28,28,66,64,19,19,1.0,1.1
2023-12-30T1700,1135A,126.685,45.7319,哈尔滨市,香坊红旗大街,细颗粒物(PM2.5),139,111,146,106,145,39,,31,31,51,63,21,26,1.0,1.5
2023-12-30T1700,1136A,126.6411,45.7258,哈尔滨市,动力和平路,细颗粒物(PM2.5),127,122,146,96,134,37,,26,26,48,57,17,18,1.0,1.3
2023-12-30T1700,1137A,126.593,45.7478,哈尔滨市,道里建国路,细颗粒物(PM2.5),140,111,143,107,146,25,,26,26,62,55,12,12,0.7,0.9
2023-12-30T1700,1138A,126.615,45.61,哈尔滨市,平房东轻厂,细颗粒物(PM2.5),119,137,165,90,147,26,,22,22,58,72,13,14,1.1,1.7
2023-12-30T1700,1139A,126.595,45.9855,哈尔滨市,呼兰师专,细颗粒物(PM2.5),153,120,157,117,151,36,,42,42,51,49,24,17,1.2,1.5
2023-12-30T1700,1140A,126.6206,45.6842,哈尔滨市,省农科院,细颗粒物(PM2.5),117,125,176,88,142,35,,31,31,62,70,26,32,1.2,1.7
2023-12-30T1700,2688A,93.5128,42.8172,哈密地区,地区监测站,颗粒物(PM10),131,211,254,80,71,64,,40,40,27,54,18,10,0.5,1.3
2023-12-30T1700,2689A,93.4961,42.8328,哈密地区,哈密师范学校,颗粒物(PM10),145,239,267,82,71,61,,37,37,26,50,22,12,1.1,1.8
2023-12-30T1700,2671A,100.9048,36.9639,海北藏族自治州,海晏县西海镇,,28,18,29,6,10,87,,74,74,2,4,9,10,0.2,0.3
2023-12-30T1700,3867A,102.0738,36.5056,海东地区,平安区公安北苑,,23,20,48,6,14,71,,52,52,15,36,9,15,0.4,0.7
2023-12-30T1700,1409A,110.576,19.9507,海口市,东寨港,,,,,,,,,,,,,,,,
2023-12-30T1700,1410A,110.3232,20.0574,海口市,海南大学,细颗粒物(PM2.5),59,44,38,42,18,155,,114,114,13,11,11,8,0.6,0.4
2023-12-30T1700,1411A,110.283,20.0053,海口市,秀英海南医院,,44,44,38,28,16,139,,105,105,14,10,9,7,0.5,0.4
2023-12-30T1700,1412A,110.338,19.9969,海口市,海南师范大学,,43,41,36,26,17,135,,106,106,10,7,8,6,0.5,0.4
2023-12-30T1700,1413A,110.33,20.0356,海口市,龙华路环保局宿舍,,48,42,36,33,16,150,,109,109,14,9,9,7,0.5,0.4
2023-12-30T1700,3539A,110.5111,19.9736,海口市,桂林洋子站,,45,45,33,22,14,130,,103,103,14,8,6,5,0.4,0.3
2023-12-30T1700,2673A,100.6188,36.2866,海南藏族自治州,共和县恰卜恰镇,,25,14,26,13,11,78,,70,70,10,20,12,14,0.5,0.5
2023-12-30T1700,2676A,97.3731,37.3753,海西蒙古族藏族自治州,德令哈市,,28,20,23,5,18,87,,83,83,2,8,8,13,0.4,0.5
2023-12-30T1700,1048A,114.5302,36.6116,邯郸市,东污水处理厂,细颗粒物(PM2.5),262,,212,212,212,7,,11,11,62,58,3,2,2.0,1.9
2023-12-30T1700,1049A,114.4918,36.5713,邯郸市,矿院,细颗粒物(PM2.5),263,247,214,213,202,6,,11,11,69,64,3,3,2.3,2
2023-12-30T1700,1050A,114.484,36.6133,邯郸市,丛台公园,细颗粒物(PM2.5),270,264,234,220,202,12,,18,18,68,60,3,3,2.2,2
2023-12-30T1700,3458A,114.7895,36.5593,邯郸市,香泉濮院小区,细颗粒物(PM2.5),268,248,257,218,216,35,,28,28,53,61,4,6,1.7,1.8
2023-12-30T1700,3579A,114.50634,36.77178,邯郸市,永年区实验高中,细颗粒物(PM2.5),265,265,234,215,197,9,,13,13,70,68,6,7,1.9,1.5
2023-12-30T1700,3580A,114.20016,36.44293,邯郸市,峰峰矿区临水派出所,细颗粒物(PM2.5),310,267,214,260,193,14,,18,18,58,52,9,10,4.1,2.7
2023-12-30T1700,2634A,106.9893,33.1842,汉中市,汉川机床厂子校,细颗粒物(PM2.5),160,,99,122,90,37,,25,25,27,23,3,3,1.2,1.1
2023-12-30T1700,2635A,107.0154,33.0706,汉中市,市监测站,细颗粒物(PM2.5),186,163,172,140,161,35,,19,19,38,42,8,10,1.8,2.4
2023-12-30T1700,2636A,107.0089,33.1138,汉中市,鑫源开发区,细颗粒物(PM2.5),185,,147,139,143,34,,19,19,25,33,7,10,1.4,2.2
2023-12-30T1700,2637A,107.007,33.0323,汉中市,南郑大河坎水厂,细颗粒物(PM2.5),193,154,174,145,154,35,,22,22,37,34,10,5,1.7,2.1
2023-12-30T1700,1223A,120.2072,30.2111,杭州市,滨江,细颗粒物(PM2.5),127,202,180,96,81,13,,27,27,135,90,10,10,1.2,1.1
2023-12-30T1700,1224A,120.0633,30.2747,杭州市,西溪,细颗粒物(PM2.5),193,183,175,145,132,41,,46,45,113,87,8,7,1.1,1.1
2023-12-30T1700,1226A,120.3461,30.3153,杭州市,下沙,细颗粒物(PM2.5),231,223,186,181,154,40,,27,27,119,104,8,6,1.3,1.1
2023-12-30T1700,1227A,120.1269,30.2456,杭州市,卧龙桥,细颗粒物(PM2.5),198,188,186,148,148,10,,38,38,133,75,7,5,1.1,1.1
2023-12-30T1700,1228A,120.1903,30.2692,杭州市,浙江农大,细颗粒物(PM2.5),210,237,224,160,148,16,,24,24,126,87,9,9,0.9,0.8
2023-12-30T1700,1230A,120.1197,30.3119,杭州市,和睦小学,细颗粒物(PM2.5),180,209,208,136,129,28,,27,27,105,85,6,6,0.9,0.9
2023-12-30T1700,1231A,120.3019,30.4183,杭州市,临平镇,细颗粒物(PM2.5),219,195,171,169,123,47,,32,32,66,72,8,6,1.3,1
2023-12-30T1700,1232A,120.2697,30.1819,杭州市,城厢镇,细颗粒物(PM2.5),204,166,133,154,125,18,,31,31,146,90,7,7,1.3,1.1
2023-12-30T1700,1233A,120.0883,30.1808,杭州市,云栖,细颗粒物(PM2.5),186,178,205,140,151,44,,36,36,116,85,8,7,1.1,1.1
2023-12-30T1700,3557A,119.9464,30.0494,杭州市,镇二中,细颗粒物(PM2.5),172,172,180,130,135,32,,32,32,121,100,6,6,1.4,1.3
2023-12-30T1700,3558A,119.7183,30.2367,杭州市,市府大楼,细颗粒物(PM2.5),196,185,189,147,145,68,,61,61,76,80,6,6,1.1,1.2
2023-12-30T1700,3656A,120.1556,30.2864,杭州市,消防大队,细颗粒物(PM2.5),222,210,203,172,158,14,,24,24,137,94,9,8,1.4,1.3
2023-12-30T1700,1270A,117.1959,31.7848,合肥市,明珠广场,细颗粒物(PM2.5),79,90,183,58,135,78,,50,50,36,58,6,6,0.9,1.5
2023-12-30T1700,1271A,117.3072,31.8764,合肥市,三里街,细颗粒物(PM2.5),98,122,204,73,163,79,,46,46,34,66,4,5,0.9,1.5
2023-12-30T1700,1272A,117.2588,31.8707,合肥市,琥珀山庄,细颗粒物(PM2.5),92,97,192,68,149,89,,63,63,34,67,5,6,1.0,1.6
2023-12-30T1700,1273A,117.1604,31.9052,合肥市,董铺水库,细颗粒物(PM2.5),84,84,194,62,137,100,,71,71,9,49,4,4,0.8,1.2
2023-12-30T1700,1274A,117.25,31.8571,合肥市,长江中路,细颗粒物(PM2.5),102,88,185,76,158,86,,55,55,28,60,7,7,1.1,1.7
2023-12-30T1700,1275A,117.266,31.9436,合肥市,庐阳区,细颗粒物(PM2.5),85,85,186,63,132,92,,62,62,34,57,10,6,0.5,1.2
2023-12-30T1700,1276A,117.336,31.8586,合肥市,瑶海区,细颗粒物(PM2.5),100,97,197,75,166,76,,44,44,40,68,3,3,0.9,1.5
2023-12-30T1700,1277A,117.3027,31.7964,合肥市,包河区,细颗粒物(PM2.5),208,183,195,158,171,57,,51,51,58,61,5,5,1.5,1.7
2023-12-30T1700,1278A,117.2776,31.7385,合肥市,滨湖新区,细颗粒物(PM2.5),206,190,205,156,163,55,,49,49,51,58,4,3,1.0,1
2023-12-30T1700,1279A,117.1318,31.8403,合肥市,高新区,细颗粒物(PM2.5),74,73,180,54,151,94,,62,62,25,61,7,8,0.8,1.3
2023-12-30T1700,3464A,117.3803,31.9147,合肥市,高教基地,细颗粒物(PM2.5),98,92,200,73,142,93,,57,57,42,73,4,4,0.8,1.3
2023-12-30T1700,3614A,79.924,37.0877,和田地区,地区环保局,颗粒物(PM10),157,263,297,69,66,98,,75,75,21,30,11,15,0.6,0.9
2023-12-30T1700,3615A,79.9131,37.113,和田地区,市环保局,颗粒物(PM10),144,238,286,69,70,93,,57,57,15,45,11,14,1.2,3.4
2023-12-30T1700,2516A,108.2011,24.715,河池市,东仁乐园,细颗粒物(PM2.5),73,67,65,53,55,106,,82,82,14,23,6,9,0.7,0.7
2023-12-30T1700,2517A,108.0497,24.6947,河池市,市环保站,颗粒物(PM10),66,82,91,44,65,106,,71,71,19,39,7,7,0.7,1
2023-12-30T1700,2518A,108.0983,24.6989,河池市,市疾控中心,细颗粒物(PM2.5),74,66,105,54,76,94,,77,77,42,49,7,8,0.9,1.1
2023-12-30T1700,1696A,114.6778,23.7569,河源市,源西,细颗粒物(PM2.5),53,43,68,37,40,47,,49,49,30,57,4,5,0.7,0.9
2023-12-30T1700,1697A,114.6944,23.7586,河源市,东埔,细颗粒物(PM2.5),67,69,76,48,53,62,,60,60,21,43,6,7,0.8,0.9
2023-12-30T1700,1698A,114.6892,23.7233,河源市,老城,细颗粒物(PM2.5),70,52,58,51,57,50,,58,58,25,33,5,6,0.9,0.8
2023-12-30T1700,1718A,115.4208,35.2464,菏泽市,气象局,细颗粒物(PM2.5),258,236,228,208,202,32,,28,28,39,48,1,1,1.3,1.5
2023-12-30T1700,1719A,115.4747,35.2375,菏泽市,市政协,细颗粒物(PM2.5),260,235,233,210,200,30,,27,27,44,50,4,4,1.5,1.6
2023-12-30T1700,3374A,115.5564,35.0891,菏泽市,定陶老年大学,细颗粒物(PM2.5),287,268,214,237,180,20,,27,27,54,48,2,2,1.4,1.5
2023-12-30T1700,3647A,115.4702,35.2706,菏泽市,菏泽医专,细颗粒物(PM2.5),244,234,227,194,191,30,,27,27,45,47,2,3,1.4,1.6
2023-12-30T1700,2514A,111.5264,24.4172,贺州市,环保小区,细颗粒物(PM2.5),59,51,90,42,54,132,,100,100,20,46,10,9,0.7,1
2023-12-30T1700,2515A,111.5608,24.4078,贺州市,政协大楼,颗粒物(PM10),52,54,87,24,48,141,,108,108,16,46,12,10,0.6,0.9
2023-12-30T1700,3534A,111.4744,24.4553,贺州市,西湾,颗粒物(PM10),57,64,84,32,57,140,,111,111,20,42,8,8,0.7,0.9
2023-12-30T1700,2385A,114.17,35.9019,鹤壁市,市监测站,细颗粒物(PM2.5),236,219,179,186,159,13,,17,17,59,56,3,4,1.9,1.6
2023-12-30T1700,2386A,114.2956,35.7511,鹤壁市,市交警支队,细颗粒物(PM2.5),202,192,189,152,146,8,,12,12,68,60,4,5,2.0,1.5
2023-12-30T1700,2387A,114.2878,35.7306,鹤壁市,迎宾馆,细颗粒物(PM2.5),195,157,160,146,139,9,,12,12,62,55,6,6,2.3,1.6
2023-12-30T1700,3474A,114.2617,35.6822,鹤壁市,大新区,细颗粒物(PM2.5),203,,143,153,148,11,,13,13,62,54,5,6,1.9,1.4
2023-12-30T1700,3596A,114.1572,35.9603,鹤壁市,南山宾馆,细颗粒物(PM2.5),224,206,165,174,125,17,,25,25,58,49,7,8,2.2,1.8
2023-12-30T1700,2244A,130.2537,47.3416,鹤岗市,哈啤分公司,,30,,33,21,30,59,,59,59,6,12,12,12,0.3,0.2
2023-12-30T1700,2245A,130.2684,47.3086,鹤岗市,斯达机电,,23,23,47,16,35,56,,57,57,10,22,8,10,0.1,0.3
2023-12-30T1700,2246A,130.3114,47.3388,鹤岗市,东山纸板厂,,32,28,46,22,37,49,,51,51,12,25,19,16,0.2,0.6
2023-12-30T1700,2247A,130.1097,47.3382,鹤岗市,五号水库,,20,18,34,14,31,64,,63,63,6,17,11,10,0.2,0.4
2023-12-30T1700,2263A,127.4833,50.2524,黑河市,交通局,,29,29,19,19,18,35,,45,45,23,11,7,5,0.6,0.5
2023-12-30T1700,2264A,127.5144,50.2341,黑河市,环保局,,42,,19,29,20,31,,44,43,28,15,10,5,0.5,0.4
2023-12-30T1700,2265A,127.5291,50.2472,黑河市,大黑河岛,,,24,16,15,14,22,,22,19,16,11,2,3,,
2023-12-30T1700,1074A,115.6838,37.7541,衡水市,电机北厂,细颗粒物(PM2.5),268,233,239,218,214,43,,27,27,39,53,2,3,1.8,1.8
2023-12-30T1700,1075A,115.6303,37.7316,衡水市,市监测站,细颗粒物(PM2.5),256,219,214,206,207,40,,25,25,53,64,6,6,1.9,1.9
2023-12-30T1700,3188A,115.6683,37.7217,衡水市,市城管局,细颗粒物(PM2.5),256,214,215,206,195,42,,26,26,47,60,5,5,2.0,1.8
2023-12-30T1700,3459A,115.5989,37.5491,衡水市,地表水厂,细颗粒物(PM2.5),284,256,224,234,199,45,,27,27,39,53,2,3,2.1,1.8
2023-12-30T1700,2456A,112.5003,26.9167,衡阳市,原169医院,,,,172,,163,,,68,,,43,,14,,1.3
2023-12-30T1700,2457A,112.6194,26.9258,衡阳市,衡阳化工总厂,细颗粒物(PM2.5),245,215,229,195,206,152,,108,108,29,26,9,23,1.4,1.4
2023-12-30T1700,2458A,112.6211,26.8956,衡阳市,珠晖区环保局,细颗粒物(PM2.5),235,210,198,185,197,142,,98,98,36,34,13,13,1.6,1.5
2023-12-30T1700,2459A,112.6197,26.8733,衡阳市,市委党校,细颗粒物(PM2.5),222,204,204,172,195,158,,107,107,26,29,10,9,1.4,1.4
2023-12-30T1700,2460A,112.6006,26.8919,衡阳市,市监测站,细颗粒物(PM2.5),264,244,240,214,210,156,,107,107,36,32,12,15,1.7,1.7
2023-12-30T1700,2461A,112.5664,26.9056,衡阳市,真空机电公司,细颗粒物(PM2.5),239,210,201,189,202,138,,84,84,39,35,12,15,1.6,1.6
2023-12-30T1700,3399A,112.6703,26.882,衡阳市,师范学院,细颗粒物(PM2.5),238,215,223,188,195,151,,108,108,23,25,13,13,1.5,1.5
2023-12-30T1700,2608A,103.3772,23.3993,红河州,污水处理厂,,27,22,35,15,26,85,,71,71,6,12,16,18,0.2,0.5
2023-12-30T1700,2609A,103.3861,23.35,红河州,监测站,,39,33,43,27,38,74,,62,58,10,14,8,7,0.5,0.6
2023-12-30T1700,3038A,103.3758,23.368,红河州,州图书馆,,46,,44,32,32,77,,60,58,8,12,10,9,0.3,0.5
2023-12-30T1700,1090A,111.6507,40.7517,呼和浩特市,呼市一监,细颗粒物(PM2.5),68,70,184,49,143,47,,27,27,33,74,14,15,0.7,1.6
2023-12-30T1700,1091A,111.6572,40.8033,呼和浩特市,小召,颗粒物(PM10),56,61,153,32,98,44,,42,42,42,78,9,14,0.4,1.1
2023-12-30T1700,1094A,111.7516,40.8369,呼和浩特市,如意水处理厂,,23,14,127,7,88,73,,60,60,16,70,10,12,0.2,1.2
2023-12-30T1700,1095A,111.7276,40.8062,呼和浩特市,二十九中,,49,,144,34,94,48,,60,60,35,55,10,15,0.5,1.1
2023-12-30T1700,1096A,111.5512,40.7866,呼和浩特市,工大金川校区,颗粒物(PM10),91,132,192,66,139,41,,23,23,43,79,8,12,0.6,1.4
2023-12-30T1700,1097A,111.717,40.7612,呼和浩特市,化肥厂生活区,颗粒物(PM10),54,57,181,36,120,58,,44,44,33,79,11,15,0.4,1.4
2023-12-30T1700,3698A,111.5968,40.8178,呼和浩特市,红旗小学,细颗粒物(PM2.5),85,105,155,63,106,38,,41,41,55,76,11,15,0.7,1.2
2023-12-30T1700,3699A,111.6518,40.8389,呼和浩特市,海东办,颗粒物(PM10),54,58,122,30,79,56,,64,64,43,73,9,14,0.2,0.8
2023-12-30T1700,2192A,119.7594,49.2261,呼伦贝尔市,区环保局,,41,41,40,28,34,34,,53,52,43,43,7,7,0.6,0.6
2023-12-30T1700,3061A,119.7512,49.1577,呼伦贝尔市,国华电力东,,29,29,32,20,26,56,,63,62,17,25,7,6,0.3,0.4
2023-12-30T1700,1250A,120.0751,30.8669,湖州市,城西水厂,细颗粒物(PM2.5),178,164,138,134,100,13,,13,13,90,79,6,6,1.2,0.8
2023-12-30T1700,2873A,120.0875,30.8955,湖州市,仁皇山新区,细颗粒物(PM2.5),198,175,145,148,120,8,,12,12,95,77,6,6,1.3,1
2023-12-30T1700,2907A,120.1844,30.8596,湖州市,吴兴区站,细颗粒物(PM2.5),206,179,138,156,88,10,,11,11,89,71,7,5,1.2,0.9
2023-12-30T1700,3562A,120.4148,30.8538,湖州市,南浔区站,细颗粒物(PM2.5),192,188,115,144,70,21,,22,19,84,60,8,6,1.4,0.9
2023-12-30T1700,1607A,120.9092,40.7136,葫芦岛市,龙港区,细颗粒物(PM2.5),225,180,161,175,163,28,,56,27,51,51,17,17,1.7,1.6
2023-12-30T1700,1608A,120.8392,40.7514,葫芦岛市,化工街,细颗粒物(PM2.5),206,185,181,156,142,24,,37,26,33,40,21,17,1.9,1.9
2023-12-30T1700,1609A,120.8341,40.7073,葫芦岛市,新区,细颗粒物(PM2.5),220,171,150,170,149,28,,48,29,58,64,17,15,1.8,1.6
2023-12-30T1700,1610A,120.8695,40.7677,葫芦岛市,东城区,细颗粒物(PM2.5),216,169,161,166,162,30,,40,27,41,56,28,21,2.2,2.3
2023-12-30T1700,2482A,109.5981,27.5721,怀化市,林科所,细颗粒物(PM2.5),97,75,99,72,99,112,,89,89,4,4,3,3,0.9,0.9
2023-12-30T1700,2483A,109.9453,27.5444,怀化市,河西地税局,细颗粒物(PM2.5),129,108,164,98,147,98,,81,81,32,25,4,4,0.9,0.9
2023-12-30T1700,2484A,109.9781,27.5342,怀化市,市四医院,细颗粒物(PM2.5),122,113,175,92,156,108,,84,84,27,34,7,8,0.7,1
2023-12-30T1700,2485A,109.9972,27.5578,怀化市,监测楼,细颗粒物(PM2.5),103,96,175,77,143,107,,77,77,16,24,7,7,0.8,1.1
2023-12-30T1700,2486A,110.0394,27.583,怀化市,市委党校,细颗粒物(PM2.5),117,102,188,88,161,113,,78,78,15,24,7,9,0.9,1.2
2023-12-30T1700,1210A,119.036,33.5981,淮安市,钵池山,细颗粒物(PM2.5),212,,138,162,129,59,,47,47,34,38,9,8,1.3,1
2023-12-30T1700,1211A,119.007,33.575,淮安市,北京南路,细颗粒物(PM2.5),210,,131,160,121,54,,45,45,40,41,9,6,2.3,1.3
2023-12-30T1700,1212A,118.989,33.6067,淮安市,市监测站,细颗粒物(PM2.5),203,163,145,153,129,60,,49,49,36,41,5,6,1.3,1.4
2023-12-30T1700,1213A,119.135,33.5039,淮安市,楚州区监测站,细颗粒物(PM2.5),200,159,131,150,118,66,,57,57,35,41,5,5,1.1,1
2023-12-30T1700,1214A,119.0186,33.6297,淮安市,淮阴区监测站,细颗粒物(PM2.5),209,188,166,159,124,59,,45,45,36,42,4,4,1.1,1.1
2023-12-30T1700,3426A,118.8755,33.2894,淮安市,新华书店,细颗粒物(PM2.5),227,184,151,177,135,64,,58,58,37,39,4,4,1.2,1.1
2023-12-30T1700,2282A,116.8004,33.975,淮北市,监测站,细颗粒物(PM2.5),210,216,170,160,134,80,,57,57,33,39,5,4,1.3,1.2
2023-12-30T1700,2283A,116.8091,33.9007,淮北市,烈山区政府,细颗粒物(PM2.5),196,171,135,147,109,85,,62,62,38,42,6,5,1.0,0.9
2023-12-30T1700,3330A,116.8873,33.9836,淮北市,杜集区检察院,细颗粒物(PM2.5),204,186,148,154,107,87,,63,63,36,40,8,6,1.4,1.2
2023-12-30T1700,4017A,116.7923,33.9535,淮北市,市博物馆,细颗粒物(PM2.5),208,201,163,158,127,84,,60,60,28,38,6,6,1.4,1.3
2023-12-30T1700,2277A,116.8305,32.7727,淮南市,潘集区政府,细颗粒物(PM2.5),218,194,165,168,135,54,,52,52,35,40,5,7,1.3,1
2023-12-30T1700,2278A,117.0067,32.6524,淮南市,师范学院,细颗粒物(PM2.5),206,190,198,156,157,63,,53,53,44,48,10,9,1.1,1.1
2023-12-30T1700,2279A,116.8569,32.5951,淮南市,谢家集区政府,细颗粒物(PM2.5),199,,138,149,100,75,,58,58,30,50,5,6,1.1,1.1
2023-12-30T1700,2280A,116.8281,32.633,淮南市,八公山区政府,细颗粒物(PM2.5),175,152,172,132,147,81,,64,64,19,37,7,6,0.9,1
2023-12-30T1700,2281A,116.6325,32.6201,淮南市,焦岗湖风景区管理处,细颗粒物(PM2.5),168,151,147,127,103,56,,46,46,16,28,2,2,0.3,0
2023-12-30T1700,2894A,117.0566,32.6531,淮南市,经济技术开发区消防队,细颗粒物(PM2.5),190,168,169,143,143,71,,62,62,32,39,5,5,0.9,0.9
2023-12-30T1700,3329A,117.0108,32.5893,淮南市,山南新区,细颗粒物(PM2.5),196,163,164,147,151,63,,55,55,41,41,5,4,1.2,1.2
2023-12-30T1700,2446A,114.9028,30.4742,黄冈市,职工中心,细颗粒物(PM2.5),199,184,221,149,183,91,,73,73,22,36,8,9,1.0,1.2
2023-12-30T1700,2929A,114.8858,30.4519,黄冈市,红卫路,细颗粒物(PM2.5),205,184,217,155,190,88,,74,74,24,48,6,7,1.2,1.4
2023-12-30T1700,3398A,114.9136,30.4445,黄冈市,市林业局,细颗粒物(PM2.5),201,165,201,151,185,95,,75,75,28,48,8,7,1.2,1.3
2023-12-30T1700,2672A,102.0199,35.5102,黄南藏族自治州,同仁县隆务镇,,39,39,45,6,19,68,,68,68,15,14,10,10,0.8,0.8
2023-12-30T1700,2295A,118.2903,29.6963,黄山市,延安路89号,颗粒物(PM10),67,83,79,37,46,108,,68,68,13,22,8,6,0.6,0.6
2023-12-30T1700,2296A,118.327,29.7178,黄山市,黄山东路89号,,,90,91,52,59,80,,62,62,32,35,8,5,,1.4
2023-12-30T1700,2297A,118.1371,30.2756,黄山市,黄山区政府5号楼,细颗粒物(PM2.5),63,65,82,45,56,124,,77,77,18,22,6,5,0.9,1
2023-12-30T1700,2423A,115.0601,30.2313,黄石市,沈家营,细颗粒物(PM2.5),160,157,215,122,165,93,,74,74,30,43,4,6,1.2,1.4
2023-12-30T1700,2424A,115.0817,30.2006,黄石市,陈家湾,细颗粒物(PM2.5),199,165,215,149,195,92,,65,65,36,48,8,9,1.0,1.5
2023-12-30T1700,2426A,114.8988,30.2019,黄石市,铁山,细颗粒物(PM2.5),179,,167,135,195,112,,87,87,22,39,7,11,1.3,1.7
2023-12-30T1700,2427A,115.0307,30.2092,黄石市,团城山,细颗粒物(PM2.5),185,146,198,139,183,104,,76,76,31,48,6,6,1.1,1.3
2023-12-30T1700,3149A,115.0235,30.1578,黄石市,笔架山北路,细颗粒物(PM2.5),173,137,204,131,186,92,,74,74,17,37,5,5,1.0,1.4
2023-12-30T1700,1392A,114.4183,23.0528,惠州市,河南岸金山湖子站,,29,29,72,16,40,82,,115,115,22,39,5,6,0.6,0.7
2023-12-30T1700,1393A,114.4053,23.0822,惠州市,下埔横江三路子站,,28,28,74,15,39,85,,109,109,17,36,9,12,0.5,0.6
2023-12-30T1700,1394A,114.4103,23.1142,惠州市,江北云山西路子站,,23,21,71,10,35,72,,103,103,13,34,8,10,0.6,0.7
2023-12-30T1700,1395A,114.4645,22.7833,惠州市,惠阳区承修路船湖子站,,29,27,55,13,25,91,,115,115,19,33,6,7,0.5,0.5
2023-12-30T1700,1396A,114.5317,22.7422,惠州市,大亚湾管委会子站,,,,61,16,23,99,,112,112,25,50,5,6,,0.8
2023-12-30T1700,3314A,114.4338,22.8134,惠州市,惠阳秋长,,36,36,60,15,27,99,,122,122,14,30,6,8,0.7,0.8
2023-12-30T1700,3452A,114.6517,22.775,惠州市,大亚湾霞涌,,44,44,46,21,28,111,,104,104,31,31,6,7,0.5,0.5
2023-12-30T1700,2240A,130.9762,45.3001,鸡西市,环保局,,29,29,72,18,60,45,,44,44,25,46,7,12,0.8,1.4
2023-12-30T1700,2243A,130.9429,45.3039,鸡西市,第一中学,颗粒物(PM10),58,66,94,39,70,50,,49,49,26,41,11,17,0.5,0.8
2023-12-30T1700,3707A,131.0207,45.3073,鸡西市,欧美日汽修厂,细颗粒物(PM2.5),64,59,138,46,107,52,,50,50,19,46,6,18,0.6,1.3
2023-12-30T1700,3709A,130.9967,45.3106,鸡西市,市政设施管理处,细颗粒物(PM2.5),72,63,96,52,101,52,,51,51,24,42,5,8,0.6,1.2
2023-12-30T1700,2367A,114.9754,27.0803,吉安市,红声器材厂,细颗粒物(PM2.5),102,107,120,76,81,144,,106,106,34,67,20,15,1.1,1.3
2023-12-30T1700,2368A,114.9658,27.0999,吉安市,市森林工业局,细颗粒物(PM2.5),119,125,125,90,93,134,,104,104,41,63,24,18,0.8,0.9
2023-12-30T1700,2369A,114.99,27.1312,吉安市,市环境监测站,细颗粒物(PM2.5),110,122,128,83,86,139,,103,103,45,66,20,16,1.4,1.3
2023-12-30T1700,2370A,115.0093,27.0968,吉安市,青原区法院,细颗粒物(PM2.5),109,85,108,82,78,143,,106,106,39,63,22,17,,1.3
2023-12-30T1700,1772A,126.54,43.8622,吉林市,哈达湾,细颗粒物(PM2.5),82,73,55,60,45,42,,57,57,48,36,11,12,1.1,1.1
2023-12-30T1700,1773A,126.5844,43.8358,吉林市,东局子,细颗粒物(PM2.5),78,74,51,57,40,39,,60,58,44,34,7,9,1.0,0.9
2023-12-30T1700,1774A,126.5052,43.8245,吉林市,电力学院,细颗粒物(PM2.5),79,71,74,58,59,40,,49,49,48,50,13,17,1.1,1.5
2023-12-30T1700,1775A,126.6133,43.8972,吉林市,江北,细颗粒物(PM2.5),100,93,68,75,51,66,,64,64,27,43,14,14,1.1,1.2
2023-12-30T1700,1776A,126.555,43.8306,吉林市,江南公园,细颗粒物(PM2.5),83,66,51,61,46,38,,54,54,45,31,10,12,1.2,1.1
2023-12-30T1700,1778A,126.7061,43.7133,吉林市,丰满,,,,,,,,,,,,,,,,
2023-12-30T1700,2868A,126.4739,43.953,吉林市,九站,细颗粒物(PM2.5),104,94,84,78,70,29,,33,33,54,54,12,24,1.2,1.2
2023-12-30T1700,1299A,116.9862,36.6114,济南市,科干所,细颗粒物(PM2.5),250,239,229,200,190,36,,35,20,49,71,8,13,1.6,2
2023-12-30T1700,1300A,116.9376,36.665,济南市,农科所,细颗粒物(PM2.5),245,242,232,195,184,25,,14,14,44,69,6,13,1.5,2.2
2023-12-30T1700,1301A,117.1265,36.6734,济南市,开发区,细颗粒物(PM2.5),243,217,213,193,188,33,,14,14,47,79,6,11,1.6,2.2
2023-12-30T1700,1303A,117.0624,36.6868,济南市,省种子仓库,细颗粒物(PM2.5),250,239,242,200,200,28,,16,16,41,69,4,10,1.6,2.2
2023-12-30T1700,1304A,116.9489,36.6447,济南市,机床二厂,细颗粒物(PM2.5),262,234,229,212,204,28,,18,18,51,82,6,14,1.6,2.3
2023-12-30T1700,1305A,117.0495,36.663,济南市,市监测站,细颗粒物(PM2.5),253,232,240,203,201,35,,19,19,45,74,12,18,1.3,2
2023-12-30T1700,1306A,116.7675,36.5484,济南市,长清党校,细颗粒物(PM2.5),260,254,192,210,160,43,,50,33,55,53,5,9,1.8,1.4
2023-12-30T1700,1616A,117.6795,36.229,济南市,技术学院,细颗粒物(PM2.5),230,210,202,180,179,36,,43,43,40,59,8,12,1.9,2.3
2023-12-30T1700,1961A,117.532,36.6868,济南市,东山小学,细颗粒物(PM2.5),238,234,202,188,109,29,,46,12,54,69,5,9,1.3,1.7
2023-12-30T1700,3059A,117.7161,36.2049,济南市,泰兴公司,细颗粒物(PM2.5),240,217,225,190,188,35,,36,36,55,68,5,8,1.6,1.9
2023-12-30T1700,3064A,117.6867,36.2171,济南市,莱芜战役纪念馆,细颗粒物(PM2.5),235,215,214,185,177,33,,37,37,50,67,9,12,1.6,1.9
2023-12-30T1700,3494A,117.1673,36.9782,济南市,济阳区政府,细颗粒物(PM2.5),221,237,228,171,179,12,,9,9,54,75,6,8,1.5,2.2
2023-12-30T1700,3495A,117.1171,36.63,济南市,锦屏中学,细颗粒物(PM2.5),236,210,206,186,183,42,,24,24,60,93,10,13,1.5,2.1
2023-12-30T1700,3682A,116.9814,36.6819,济南市,济南四建,细颗粒物(PM2.5),250,205,212,200,194,21,,14,14,60,80,8,16,1.6,2.3
2023-12-30T1700,1653A,116.6251,35.4302,济宁市,火炬城,细颗粒物(PM2.5),255,230,132,205,118,34,,30,30,44,39,3,3,1.6,1.3
2023-12-30T1700,1655A,116.5491,35.4042,济宁市,电化厂,细颗粒物(PM2.5),262,265,149,212,107,37,,35,35,42,36,3,3,1.6,1.2
2023-12-30T1700,3500A,116.5814,35.3707,济宁市,北湖一中,细颗粒物(PM2.5),282,236,128,232,108,36,,32,32,39,33,3,3,1.5,1.1
2023-12-30T1700,3501A,116.8249,35.5593,济宁市,服务中心,细颗粒物(PM2.5),254,262,182,204,126,39,,33,33,30,39,1,2,1.5,1.2
2023-12-30T1700,3678A,116.5907,35.4054,济宁市,市第七中学,细颗粒物(PM2.5),272,234,129,222,121,30,,32,32,,40,3,2,1.6,1.2
2023-12-30T1700,2255A,130.2751,46.8028,佳木斯市,佳纺,,29,29,86,19,75,36,,47,47,29,46,6,6,0.6,1
2023-12-30T1700,2256A,130.3995,46.8307,佳木斯市,发电厂,,31,31,103,15,75,32,,53,50,34,35,19,11,0.5,0.7
2023-12-30T1700,2257A,130.3258,46.7975,佳木斯市,环保局,,24,24,74,12,61,25,,44,42,39,38,6,8,0.7,0.7
2023-12-30T1700,2258A,130.3648,46.8032,佳木斯市,十一中,,33,30,73,23,64,32,,42,42,29,36,7,7,0.6,0.8
2023-12-30T1700,2259A,130.3794,46.7588,佳木斯市,四丰,,30,30,76,16,45,11,,38,36,50,35,1,1,0.8,1
2023-12-30T1700,1252A,120.7436,30.778,嘉兴市,清河小学,细颗粒物(PM2.5),145,166,88,111,58,20,,29,18,82,48,7,5,1.2,1
2023-12-30T1700,1253A,120.726,30.7478,嘉兴市,嘉兴学院,细颗粒物(PM2.5),185,191,110,139,74,11,,26,19,90,52,10,7,1.1,0.8
2023-12-30T1700,2872A,120.7846,30.7525,嘉兴市,南湖区残联,细颗粒物(PM2.5),183,194,103,138,62,12,,40,24,93,50,8,6,1.0,0.7
2023-12-30T1700,3407A,120.6916,30.7739,嘉兴市,秀洲住建,,,,61,,63,23,,24,19,77,49,14,7,1.1,1.1
2023-12-30T1700,1945A,98.2908,39.7711,嘉峪关市,气象局,,48,48,27,17,10,69,,66,66,19,31,7,10,0.4,0.4
2023-12-30T1700,2884A,98.2672,39.7978,嘉峪关市,酒钢宾馆,颗粒物(PM10),51,51,36,17,12,78,,66,66,13,20,11,16,0.4,0.4
2023-12-30T1700,3248A,98.2643,39.7724,嘉峪关市,雄关区,,,45,33,23,14,65,,53,53,16,33,6,9,,0.5
2023-12-30T1700,1383A,113.1064,22.6058,江门市,北街,,24,24,74,13,55,73,,91,91,25,60,7,8,0.6,0.9
2023-12-30T1700,1384A,113.0731,22.5835,江门市,西区,,23,,85,16,53,63,,87,87,20,61,6,9,0.5,0.8
2023-12-30T1700,1385A,113.0219,22.5311,江门市,圭峰西,,25,18,79,13,59,80,,111,111,23,50,6,8,0.6,1
2023-12-30T1700,1386A,113.0828,22.5947,江门市,东湖,,21,,91,14,73,65,,83,83,18,56,5,8,0.4,0.7
2023-12-30T1700,3311A,113.1075,22.5647,江门市,江海富民,细颗粒物(PM2.5),70,72,134,51,70,74,,94,94,27,63,7,10,0.7,0.9
2023-12-30T1700,3449A,113.05,22.4667,江门市,新会银湖,,22,21,66,15,58,68,,109,109,36,52,8,9,0.6,0.8
2023-12-30T1700,1828A,113.227,35.2125,焦作市,市环保局,颗粒物(PM10),67,84,160,16,122,87,,80,80,13,39,4,14,0.3,1.2
2023-12-30T1700,1830A,113.1992,35.2590,焦作市,影视城,,,,,,,,,,,,,,,,
2023-12-30T1700,3169A,113.2725,35.2067,焦作市,太极体育中心,颗粒物(PM10),59,67,164,20,129,94,,85,85,13,40,7,10,0.1,1.1
2023-12-30T1700,3335A,113.3137,35.2641,焦作市,马村街道办,颗粒物(PM10),71,91,187,24,142,90,,80,80,18,46,7,15,0.1,1.3
2023-12-30T1700,3336A,113.2465,35.2373,焦作市,焦作技师学院,颗粒物(PM10),58,66,174,22,133,90,,85,85,15,44,6,16,0.2,1.6
2023-12-30T1700,3477A,113.1656,35.2539,焦作市,中站许衡医院,颗粒物(PM10),62,73,148,28,106,75,,71,71,23,54,8,18,0,0.9
2023-12-30T1700,3981A,113.2449,35.1803,焦作市,原李万街道办,颗粒物(PM10),62,74,149,14,121,86,,76,76,15,33,7,10,0.2,1
2023-12-30T1700,1708A,116.3701,23.5345,揭阳市,新兴,臭氧1小时,89,90,79,56,58,191,,147,147,45,44,15,13,1.0,0.9
2023-12-30T1700,1709A,116.3264,23.5443,揭阳市,西马,臭氧1小时,101,97,79,38,45,201,,152,152,29,36,11,10,0.8,0.8
2023-12-30T1700,1710A,116.3611,23.5626,揭阳市,东兴,臭氧1小时,100,100,78,59,45,200,,165,165,36,39,16,14,0.9,0.8
2023-12-30T1700,1711A,116.4151,23.5294,揭阳市,渔湖,臭氧1小时,78,100,79,50,39,182,,140,140,33,42,18,13,0.7,0.7
2023-12-30T1700,3320A,116.403,23.5699,揭阳市,曲溪,,,101,74,,38,194,,143,143,35,36,14,7,0.7,0.7
2023-12-30T1700,1944A,102.1692,38.5167,金昌市,天庆家园,,45,45,107,21,22,75,,62,62,16,25,18,21,0.2,0.5
2023-12-30T1700,3170A,102.1864,38.5253,金昌市,市委党校,颗粒物(PM10),58,66,126,24,32,80,,70,70,20,27,70,32,1.5,0.9
2023-12-30T1700,4022A,102.1647,38.5371,金昌市,金川区人防中心,颗粒物(PM10),68,86,121,23,24,84,,75,75,18,21,204,43,0.4,0.6
2023-12-30T1700,1262A,119.647,29.077,金华市,十五中,细颗粒物(PM2.5),109,113,195,82,143,89,,82,82,63,86,8,3,1.2,1.4
2023-12-30T1700,1263A,119.686,29.1029,金华市,监测站,细颗粒物(PM2.5),102,119,209,76,140,86,,90,90,61,88,8,5,1.0,1.1
2023-12-30T1700,3659A,119.656,29.1131,金华市,气象局,细颗粒物(PM2.5),84,100,218,62,147,78,,80,80,47,88,9,5,1.0,1.2
2023-12-30T1700,1767A,121.1115,41.0879,锦州市,南山,细颗粒物(PM2.5),212,,167,162,174,34,,60,38,46,59,12,28,1.7,1.7
2023-12-30T1700,1768A,121.0533,40.8434,锦州市,开发区,细颗粒物(PM2.5),234,216,187,184,222,17,,40,23,48,64,18,23,1.9,1.7
2023-12-30T1700,1769A,121.1836,41.1119,锦州市,百股街道,细颗粒物(PM2.5),213,,144,163,148,27,,54,30,44,53,15,31,1.9,1.7
2023-12-30T1700,1770A,121.1178,41.1222,锦州市,天安街道,细颗粒物(PM2.5),206,163,174,156,181,30,,56,38,41,55,12,26,1.9,2
2023-12-30T1700,1771A,121.1303,41.1386,锦州市,北湖公园,细颗粒物(PM2.5),190,,141,143,183,35,,55,28,36,56,12,22,1.5,1.8
2023-12-30T1700,2160A,112.85,35.5051,晋城市,自来水公司,颗粒物(PM10),65,79,129,19,101,90,,94,94,17,39,1,5,0.3,1.4
2023-12-30T1700,2161A,112.8318,35.4936,晋城市,白云商贸,颗粒物(PM10),70,89,124,14,82,88,,90,90,19,33,3,6,0.4,1.2
2023-12-30T1700,2162A,112.8508,35.4887,晋城市,市环保局,颗粒物(PM10),69,87,136,22,94,87,,90,90,13,38,4,6,0.4,1.3
2023-12-30T1700,2163A,112.8676,35.4897,晋城市,技术学院,颗粒物(PM10),68,86,134,17,98,88,,90,90,21,53,5,9,0.4,1.4
2023-12-30T1700,2165A,112.8453,35.546,晋城市,白马寺,,,,,,,,,,,,,,,,
2023-12-30T1700,3620A,112.8271,35.4828,晋城市,泽州一中,颗粒物(PM10),68,85,124,12,77,88,,90,90,16,30,4,7,0.5,1.3
2023-12-30T1700,2171A,112.7532,37.6945,晋中市,锦纶小区,颗粒物(PM10),74,97,335,24,263,73,,49,49,18,90,6,23,0.2,2.5
2023-12-30T1700,2173A,112.7249,37.7067,晋中市,南都小区,颗粒物(PM10),71,91,367,45,255,70,,50,50,15,87,6,21,0.4,2.7
2023-12-30T1700,2174A,112.6991,37.6982,晋中市,榆次区政府,颗粒物(PM10),61,71,351,34,243,69,,47,47,22,95,16,23,0.4,2.9
2023-12-30T1700,2865A,112.7195,37.6828,晋中市,榆次三中,,,,358,,269,70,,45,45,19,90,4,21,0.3,2.5
2023-12-30T1700,2439A,112.2014,31.0481,荆门市,竹园小学,细颗粒物(PM2.5),228,207,205,178,179,27,,47,28,39,28,7,7,1.3,1.2
2023-12-30T1700,2440A,112.1969,30.9891,荆门市,掇刀,细颗粒物(PM2.5),217,202,195,167,166,38,,35,35,32,28,14,13,1.1,1.1
2023-12-30T1700,2441A,112.2213,31.0386,荆门市,石化一小,细颗粒物(PM2.5),230,225,208,180,175,41,,40,35,40,31,14,12,0.9,0.9
2023-12-30T1700,3012A,112.1849,31.0362,荆门市,西山林语,细颗粒物(PM2.5),219,188,190,169,170,33,,48,32,35,26,11,10,0.9,0.9
2023-12-30T1700,3547A,112.1632,31.0138,荆门市,龙泉中学南校,细颗粒物(PM2.5),224,201,199,174,166,38,,30,30,30,24,7,8,1.4,1.4
2023-12-30T1700,1844A,112.2494,30.3197,荆州市,市图书馆,细颗粒物(PM2.5),201,,139,151,170,40,,44,41,36,33,6,6,1.2,1.2
2023-12-30T1700,1845A,112.2008,30.3544,荆州市,市委党校,细颗粒物(PM2.5),189,152,165,142,160,38,,42,38,34,30,6,6,1.2,1.2
2023-12-30T1700,3194A,112.2747,30.3122,荆州市,管委会,细颗粒物(PM2.5),193,,146,145,163,37,,45,44,38,32,7,6,1.1,1.2
2023-12-30T1700,3548A,112.1655,30.3364,荆州市,学苑路,细颗粒物(PM2.5),206,,172,156,161,41,,39,38,26,22,6,8,1.0,1
2023-12-30T1700,2342A,117.3102,29.3867,景德镇市,王港中学,,,,,,,,,,,,,,,,
2023-12-30T1700,2343A,117.2117,29.2933,景德镇市,老干部活动中心,细颗粒物(PM2.5),113,109,103,85,77,110,,70,70,27,50,16,16,1.0,0.9
2023-12-30T1700,2344A,117.1894,29.2789,景德镇市,兽医站,细颗粒物(PM2.5),114,116,110,86,70,120,,77,77,27,50,16,17,1.3,1.2
2023-12-30T1700,2345A,117.1547,29.2617,景德镇市,台达陶瓷,细颗粒物(PM2.5),119,126,125,90,74,127,,79,79,37,60,15,23,1.3,1.3
2023-12-30T1700,2346A,117.2461,29.2956,景德镇市,陶研所,细颗粒物(PM2.5),110,108,94,83,62,127,,71,71,31,49,11,12,1.4,1.2
2023-12-30T1700,1803A,115.9872,29.6815,九江市,十里,细颗粒物(PM2.5),173,175,248,131,196,89,,77,77,41,64,9,12,1.5,1.8
2023-12-30T1700,1804A,115.9584,29.7046,九江市,茅山头,细颗粒物(PM2.5),180,173,238,136,197,64,,61,61,59,73,8,10,1.6,1.8
2023-12-30T1700,1805A,115.9877,29.7295,九江市,西园,细颗粒物(PM2.5),183,152,216,138,184,48,,30,,,64,9,13,1.5,1.6
2023-12-30T1700,1806A,116.0172,29.6547,九江市,五七二七厂,细颗粒物(PM2.5),201,163,246,151,196,82,,77,77,46,47,8,14,1.3,1.5
2023-12-30T1700,1808A,115.9114,29.6038,九江市,综合工业园,细颗粒物(PM2.5),239,,237,189,236,66,,68,68,62,78,12,16,1.8,2
2023-12-30T1700,1809A,116.0721,29.7535,九江市,石化总厂,细颗粒物(PM2.5),178,162,256,134,198,50,,68,68,86,73,11,15,1.4,1.8
2023-12-30T1700,1810A,115.9773,29.5698,九江市,庐山气象台,细颗粒物(PM2.5),79,65,40,58,37,112,,116,116,14,8,7,7,0.5,0.6
2023-12-30T1700,3190A,116.0254,29.6994,九江市,外国语学校,细颗粒物(PM2.5),166,142,222,126,189,67,,68,68,59,73,7,12,1.4,1.6
2023-12-30T1700,2658A,98.5061,39.7443,酒泉市,仓门街子站,颗粒物(PM10),56,61,60,22,27,69,,50,50,12,38,5,8,0.4,0.7
2023-12-30T1700,2659A,98.4989,39.7256,酒泉市,油田生活基地,颗粒物(PM10),56,61,60,19,27,67,,46,46,14,39,4,7,0.4,0.5
2023-12-30T1700,2698A,76.0072,39.4467,喀什地区,巡警大队,颗粒物(PM10),162,273,358,84,124,91,,35,35,34,73,11,9,1.5,3.3
2023-12-30T1700,2699A,75.9755,39.4694,喀什地区,吾办,颗粒物(PM10),172,293,352,113,143,82,,38,38,54,82,11,7,1.9,3
2023-12-30T1700,4027A,75.9483,39.4689,喀什地区,老干局,颗粒物(PM10),162,273,364,84,120,82,,42,42,46,61,14,8,1.7,3.5
2023-12-30T1700,1824A,114.3389,34.7781,开封市,肿瘤医院,细颗粒物(PM2.5),158,134,191,120,160,41,,50,50,42,39,4,3,1.2,1.2
2023-12-30T1700,1826A,114.2885,34.7965,开封市,世纪星幼儿园,细颗粒物(PM2.5),143,130,182,109,181,50,,50,50,,48,5,4,1.1,1.3
2023-12-30T1700,3147A,114.3438,34.8106,开封市,龙亭公园,细颗粒物(PM2.5),223,,195,173,186,32,,46,46,52,47,4,4,1.0,1.1
2023-12-30T1700,3210A,114.3644,34.7964,开封市,汴京公园,细颗粒物(PM2.5),238,192,216,188,186,28,,44,44,49,43,3,3,1.4,1.3
2023-12-30T1700,3473A,114.2485,34.8306,开封市,技师学院,细颗粒物(PM2.5),220,,200,170,198,32,,42,42,43,40,1,2,0.9,1.2
2023-12-30T1700,3592A,114.4644,34.7556,开封市,祥符区生态环境局,细颗粒物(PM2.5),234,227,219,184,181,24,,46,46,,44,6,4,0.8,1
2023-12-30T1700,1951A,84.895,45.6094,克拉玛依市,长征新村,细颗粒物(PM2.5),83,70,68,61,53,49,,58,46,40,36,10,10,1.0,0.9
2023-12-30T1700,1952A,84.8988,45.5893,克拉玛依市,南林小区,细颗粒物(PM2.5),69,79,72,50,50,45,,59,44,30,27,1,2,0.8,0.7
2023-12-30T1700,1954A,84.905,44.3396,克拉玛依市,独山子区,,20,20,27,8,22,55,,72,57,13,13,6,6,0.4,0.6
2023-12-30T1700,1955A,85.6979,46.098,克拉玛依市,乌尔禾区商贸楼,,44,44,43,29,39,47,,59,49,34,23,8,9,1.1,0.8
2023-12-30T1700,3612A,85.1045,45.6899,克拉玛依市,白碱滩区新站,细颗粒物(PM2.5),79,66,65,58,46,52,,61,53,28,27,8,9,0.7,0.7
2023-12-30T1700,2697A,76.1454,39.7142,克孜勒苏柯尔克孜自治州,市人民政府,颗粒物(PM10),103,156,194,76,86,97,,66,66,17,18,6,5,1.0,0.9
2023-12-30T1700,3665A,76.1658,39.7157,克孜勒苏柯尔克孜自治州,克州文化中心,细颗粒物(PM2.5),107,162,230,80,78,90,,58,58,20,29,10,9,1.0,1
2023-12-30T1700,1450A,102.8204,24.8886,昆明市,呈贡新区,,,13,37,5,23,71,,57,57,10,29,4,6,,0.4
2023-12-30T1700,1451A,102.6251,24.9608,昆明市,西山森林公园,,29,,16,20,12,77,,74,74,8,8,7,8,0.5,0.5
2023-12-30T1700,1452A,102.7252,25.0902,昆明市,龙泉镇,,22,20,33,15,29,68,,54,54,16,29,10,9,0.4,0.7
2023-12-30T1700,1453A,102.7266,25.0375,昆明市,东风东路,,27,27,36,17,22,63,,52,52,19,31,10,9,0.4,0.7
2023-12-30T1700,1454A,102.6742,25.0669,昆明市,金鼎山,,25,25,47,13,30,68,,54,54,18,33,12,71,0.5,0.7
2023-12-30T1700,1455A,102.6644,25.0401,昆明市,碧鸡广场,,23,23,38,14,24,67,,54,54,16,35,11,17,0.5,0.7
2023-12-30T1700,3179A,102.7494,25.0119,昆明市,官渡区博物馆,,22,22,42,12,30,70,,54,54,12,34,9,10,0.3,0.7
2023-12-30T1700,3375A,102.8017,24.8336,昆明市,青年创业园,,25,15,28,9,16,79,,63,63,5,24,9,12,0.5,0.7
2023-12-30T1700,3550A,102.7997,24.9786,昆明市,昆明学院,,24,18,42,8,25,75,,58,58,7,28,10,10,0.4,0.6
2023-12-30T1700,3551A,102.5967,24.6736,昆明市,晋宁区生态环境分局,,25,,30,17,21,76,,63,63,3,18,7,6,0.2,0.5
2023-12-30T1700,3552A,102.6678,24.9856,昆明市,云天化总部,,23,19,32,11,21,72,,59,59,9,32,9,16,0.7,0.8
2023-12-30T1700,1456A,91.1319,29.6514,拉萨市,八廓街,,27,18,22,10,13,86,,72,72,19,28,9,13,0.3,0.5
2023-12-30T1700,1457A,91.1221,29.6747,拉萨市,市环保局,,28,13,29,5,16,88,,70,70,12,26,7,12,0.5,0.7
2023-12-30T1700,1458A,91.0874,29.6475,拉萨市,区监测站,,28,13,18,5,11,88,,72,72,9,29,7,12,0.3,0.5
2023-12-30T1700,1459A,91.1774,29.6541,拉萨市,西藏大学,,29,12,17,6,9,90,,73,73,10,15,7,11,0.6,0.7
2023-12-30T1700,1460A,90.9798,29.6588,拉萨市,区辐射站,,24,16,23,7,15,74,,61,61,20,30,7,8,0.7,0.9
2023-12-30T1700,1461A,91.0834,29.6292,拉萨市,拉萨火车站,,26,15,20,6,12,83,,61,61,12,28,7,7,0.4,0.7
2023-12-30T1700,2520A,109.2203,23.7256,来宾市,来宾技工学校,,49,49,107,33,72,122,,107,107,20,39,11,14,0.7,1.1
2023-12-30T1700,3535A,109.1781,23.7297,来宾市,兴宾区政府,,,46,99,32,69,,,114,114,15,23,9,11,0.7,0.9
2023-12-30T1700,4002A,109.2416,23.7461,来宾市,中南小学,,49,49,126,29,79,126,,111,111,22,50,13,14,0.8,1.4
2023-12-30T1700,1476A,103.631,36.1031,兰州市,兰炼宾馆,细颗粒物(PM2.5),100,125,146,75,86,33,,35,35,94,92,30,38,2.0,2.1
2023-12-30T1700,1477A,104.1373,35.9454,兰州市,榆中兰大校区,,,,,,,,,,,,,,,,
2023-12-30T1700,1478A,103.8412,36.0726,兰州市,生物制品所,细颗粒物(PM2.5),77,93,120,56,69,26,,26,26,87,79,25,21,1.4,1.6
2023-12-30T1700,1479A,103.831,36.0464,兰州市,铁路设计院,细颗粒物(PM2.5),108,141,136,81,86,21,,21,21,112,94,30,31,2.4,2.7
2023-12-30T1700,3186A,103.7158,36.1058,兰州市,教育港,颗粒物(PM10),75,100,129,52,69,40,,28,28,72,90,24,26,1.5,2
2023-12-30T1700,3241A,103.7439,36.0842,兰州市,百合公园,细颗粒物(PM2.5),63,66,135,45,76,38,,26,26,78,88,20,21,1.5,2.1
2023-12-30T1700,3242A,103.9611,35.998,兰州市,和平,颗粒物(PM10),74,98,141,51,81,48,,40,40,66,76,26,29,2.0,2.2
2023-12-30T1700,3245A,103.6633,36.533,兰州新区,新区管委会,颗粒物(PM10),71,92,90,42,45,62,,48,48,31,36,32,22,0.8,0.9
2023-12-30T1700,3246A,103.6975,36.4789,兰州新区,舟曲中学,颗粒物(PM10),81,111,108,35,44,62,,48,48,42,47,41,22,0.7,0.8
2023-12-30T1700,1067A,116.6708,39.5111,廊坊市,药材公司,细颗粒物(PM2.5),268,274,219,218,176,8,,16,16,138,98,3,3,2.0,1.6
2023-12-30T1700,1068A,116.7214,39.5589,廊坊市,开发区,细颗粒物(PM2.5),278,252,212,228,195,3,,15,15,128,99,3,3,1.9,1.6
2023-12-30T1700,1070A,116.7244,39.5269,廊坊市,北华航天学院,细颗粒物(PM2.5),265,254,210,215,186,3,,18,18,114,82,3,5,1.9,1.5
2023-12-30T1700,2919A,116.7022,39.5453,廊坊市,河北工业大学,细颗粒物(PM2.5),262,260,223,212,182,2,,13,13,113,88,3,4,1.9,1.5
2023-12-30T1700,2535A,103.7723,29.5462,乐山市,花湖湾,细颗粒物(PM2.5),204,160,214,154,150,84,,34,34,22,33,4,3,0.8,0.9
2023-12-30T1700,2536A,103.7627,29.5844,乐山市,牛耳桥,细颗粒物(PM2.5),175,152,171,132,143,79,,36,36,32,41,4,3,1.2,1.4
2023-12-30T1700,2537A,103.7508,29.6006,乐山市,市第三水厂,细颗粒物(PM2.5),173,165,163,131,117,84,,42,42,31,41,4,4,1.1,1.3
2023-12-30T1700,2538A,103.7571,29.5664,乐山市,市监测站,细颗粒物(PM2.5),173,161,160,131,134,81,,38,38,25,37,7,6,1.0,1.2
2023-12-30T1700,3361A,103.7311,29.5628,乐山市,理工大学,细颗粒物(PM2.5),227,190,168,177,136,72,,39,39,42,40,8,7,1.2,1.4
2023-12-30T1700,2598A,100.2143,26.8576,丽江市,西南郊,,,,,,,,,,,,,,,,
2023-12-30T1700,2599A,100.2497,26.8802,丽江市,丽江古城,,33,33,36,13,17,85,,72,72,15,19,8,8,0.5,0.5
2023-12-30T1700,2600A,100.2203,26.8906,丽江市,市中心,,25,20,22,6,6,77,,67,67,16,17,6,6,0.6,0.7
2023-12-30T1700,1267A,119.914,28.4514,丽水市,监测站大楼,细颗粒物(PM2.5),57,54,71,40,51,40,,57,57,65,45,6,6,1.4,1.4
2023-12-30T1700,1268A,119.93,28.4586,丽水市,莲都小学,颗粒物(PM10),54,57,90,24,45,48,,56,56,54,43,4,4,0.8,0.8
2023-12-30T1700,1269A,119.879,28.4231,丽水市,余庄前,,42,41,63,29,45,45,,41,41,40,29,6,5,0.6,0.6
2023-12-30T1700,1173A,119.176,34.5885,连云港市,市环境监测站,细颗粒物(PM2.5),262,222,144,212,133,59,,55,55,37,36,9,9,1.2,0.8
2023-12-30T1700,3000A,119.3581,34.6972,连云港市,德源药业,细颗粒物(PM2.5),252,232,143,202,123,60,,55,55,37,36,5,6,1.2,1
2023-12-30T1700,3007A,119.178,34.844,连云港市,新城一中,细颗粒物(PM2.5),259,215,157,209,149,68,,62,62,40,42,8,8,1.3,1
2023-12-30T1700,3008A,119.3608,34.7519,连云港市,胡沟管理处,细颗粒物(PM2.5),238,195,130,188,128,47,,51,51,51,47,5,8,1.3,1.1
2023-12-30T1700,3009A,119.1478,34.5911,连云港市,矿山设计院,细颗粒物(PM2.5),245,234,160,195,131,53,,52,52,37,39,6,5,1.4,1.1
2023-12-30T1700,3434A,119.2413,34.6539,连云港市,工贸学校,细颗粒物(PM2.5),265,249,188,215,155,64,,60,60,38,39,8,9,1.8,1.2
2023-12-30T1700,3664A,119.4172,34.7341,连云港市,连云街道,细颗粒物(PM2.5),221,194,168,171,137,101,,65,65,26,61,3,10,1.2,1.2
2023-12-30T1700,2571A,102.3431,27.8099,凉山彝族自治州,青龙寺,,40,32,35,14,15,126,,84,84,9,10,14,8,1.0,0.8
2023-12-30T1700,2572A,102.2721,27.8415,凉山彝族自治州,邛海宾馆,颗粒物(PM10),52,53,49,31,36,99,,75,75,20,23,17,14,1.1,0.9
2023-12-30T1700,2573A,102.2625,27.898,凉山彝族自治州,西昌市政府,细颗粒物(PM2.5),63,67,49,45,34,121,,78,78,16,17,24,15,1.0,0.7
2023-12-30T1700,2574A,102.2685,27.8851,凉山彝族自治州,凉山州政府,细颗粒物(PM2.5),57,54,53,40,37,112,,74,74,13,20,18,12,0.9,0.8
2023-12-30T1700,2575A,102.237,27.8914,凉山彝族自治州,长安,颗粒物(PM10),54,58,52,36,32,115,,70,70,19,27,23,18,0.9,0.6
2023-12-30T1700,2212A,123.2,41.1953,辽阳市,宏伟区,细颗粒物(PM2.5),64,,44,46,44,15,,64,51,42,16,11,13,0.9,0.6
2023-12-30T1700,2213A,123.1683,41.2495,辽阳市,新华园,细颗粒物(PM2.5),68,,51,49,53,21,,63,48,54,25,4,8,1.2,1
2023-12-30T1700,2214A,123.2354,41.2639,辽阳市,滨河路,细颗粒物(PM2.5),107,,43,80,57,11,,61,48,58,22,8,11,1.4,0.9
2023-12-30T1700,2215A,123.149,41.2991,辽阳市,铁西工业园,细颗粒物(PM2.5),134,,58,102,72,14,,64,40,44,23,11,15,1.7,1
2023-12-30T1700,2227A,125.1358,42.8845,辽源市,环保局,细颗粒物(PM2.5),65,59,69,47,54,50,,40,40,36,48,12,16,1.2,1.5
2023-12-30T1700,3239A,125.0764,42.9078,辽源市,银鹰制药,细颗粒物(PM2.5),82,73,62,60,49,43,,46,46,43,39,10,19,1.1,1.2
2023-12-30T1700,1625A,115.9848,36.4372,聊城市,区政府,细颗粒物(PM2.5),254,256,214,204,167,34,,36,25,46,44,3,3,2.0,1.5
2023-12-30T1700,2878A,116.0072,36.4343,聊城市,聊大东校,细颗粒物(PM2.5),261,250,203,211,172,36,,39,29,33,29,3,3,1.4,1.1
2023-12-30T1700,3200A,115.9819,36.4978,聊城市,监控中心,细颗粒物(PM2.5),265,243,209,215,182,36,,37,22,44,41,3,3,1.6,1.3
2023-12-30T1700,3513A,116.0445,36.4361,聊城市,九州社区,细颗粒物(PM2.5),261,254,189,211,154,36,,40,32,40,34,1,2,1.9,1.3
2023-12-30T1700,4018A,116.0567,36.4608,聊城市,星美广场,细颗粒物(PM2.5),260,248,189,210,157,35,,39,29,33,28,3,3,1.5,1.1
2023-12-30T1700,2632A,94.3681,29.6376,林芝市,林芝监测站,,,8,10,5,9,78,,67,67,,12,7,7,0.2,0.4
2023-12-30T1700,2633A,94.3616,29.6616,林芝市,林芝人民医院,,26,10,14,2,10,81,,71,71,7,10,7,7,0.2,0.3
2023-12-30T1700,2603A,100.0781,23.8982,临沧市,市环保局,,25,18,26,17,21,74,,56,56,7,15,6,8,0.3,0.5
2023-12-30T1700,2604A,100.0894,23.8822,临沧市,市气象局,,24,22,35,16,25,76,,56,56,8,17,5,7,0.3,0.4
2023-12-30T1700,1733A,111.5531,36.0783,临汾市,临钢医院,颗粒物(PM10),66,81,337,13,253,79,,51,51,12,54,7,9,0.3,2.5
2023-12-30T1700,1734A,111.5028,36.0714,临汾市,技工学校,颗粒物(PM10),65,80,345,25,267,85,,49,49,6,60,6,11,0.3,2.5
2023-12-30T1700,1736A,111.5018,36.0855,临汾市,市委,颗粒物(PM10),64,77,352,9,268,94,,53,53,7,64,4,9,0.3,2.5
2023-12-30T1700,3018A,111.505,36.1014,临汾市,唐尧大酒店,颗粒物(PM10),64,77,315,8,262,80,,43,43,9,64,4,9,0.4,2.5
2023-12-30T1700,3668A,111.5036,36.0414,临汾市,城南,颗粒物(PM10),76,102,318,20,243,85,,54,54,7,55,4,8,0.3,2.3
2023-12-30T1700,2667A,103.2069,35.5993,临夏回族自治州,环保局,,46,46,89,30,36,63,,43,43,24,55,13,24,0.7,3.1
2023-12-30T1700,2668A,103.2417,35.6057,临夏回族自治州,建设大厦,,28,19,65,19,32,83,,56,56,9,36,8,13,0.6,1.6
2023-12-30T1700,1618A,118.3429,35.0532,临沂市,沂河小区,细颗粒物(PM2.5),243,222,182,193,162,42,,55,55,57,48,9,8,1.2,0.9
2023-12-30T1700,1619A,118.295,35.0583,临沂市,鲁南制药厂,细颗粒物(PM2.5),237,227,176,187,152,44,,59,59,58,45,11,10,1.4,1.2
2023-12-30T1700,1620A,118.2794,34.9976,临沂市,新光毛纺厂,细颗粒物(PM2.5),237,217,170,187,146,45,,56,56,51,48,4,7,1.3,1
2023-12-30T1700,1621A,118.3956,35.0888,临沂市,河东保险公司,细颗粒物(PM2.5),228,207,181,178,160,52,,59,59,47,45,5,6,1.5,1.3
2023-12-30T1700,3370A,118.3564,35.0215,临沂市,十里堡居委,细颗粒物(PM2.5),235,215,175,185,148,45,,56,56,58,48,6,4,1.4,1.1
2023-12-30T1700,3496A,118.3604,35.1084,临沂市,南坊新区,细颗粒物(PM2.5),225,200,172,175,148,50,,57,57,56,51,7,8,1.6,1.4
2023-12-30T1700,3860A,118.3920,35.0300,临沂市,皇山花园小区,细颗粒物(PM2.5),221,215,177,171,141,47,,56,56,74,63,5,6,1.5,1.3
2023-12-30T1700,1870A,109.4856,24.3895,柳州市,柳东小学,细颗粒物(PM2.5),102,90,84,76,71,155,,119,119,28,34,23,22,1.2,0.8
2023-12-30T1700,1871A,109.4157,24.3277,柳州市,环保监测站,细颗粒物(PM2.5),104,107,126,78,89,156,,100,100,33,55,20,19,1.4,1.4
2023-12-30T1700,1872A,109.389,24.341,柳州市,河西水厂,,,117,129,65,73,150,,100,100,34,51,20,21,,1.9
2023-12-30T1700,1873A,109.4311,24.2921,柳州市,市四中,细颗粒物(PM2.5),105,113,128,79,91,157,,112,112,37,59,21,17,1.7,1.6
2023-12-30T1700,1874A,109.4006,24.3631,柳州市,市九中,细颗粒物(PM2.5),99,128,137,74,82,138,,93,93,25,53,15,14,1.2,1.3
2023-12-30T1700,1875A,109.4958,24.3134,柳州市,古亭山,细颗粒物(PM2.5),100,103,82,75,64,156,,121,121,27,47,19,14,1.5,1
2023-12-30T1700,3402A,109.5422,24.3996,柳州市,市二中,细颗粒物(PM2.5),95,94,88,71,68,176,,129,129,19,34,18,14,1.2,0.8
2023-12-30T1700,2307A,116.5079,31.737,六安市,监测大楼,细颗粒物(PM2.5),127,98,167,96,159,96,,65,65,25,48,4,5,1.0,1.3
2023-12-30T1700,2308A,116.4738,31.7643,六安市,皖西学院,细颗粒物(PM2.5),114,120,185,86,149,98,,69,69,22,46,5,7,1.1,1.3
2023-12-30T1700,2309A,116.4996,31.7905,六安市,朝阳厂,细颗粒物(PM2.5),133,107,167,101,157,96,,67,67,25,46,8,6,0.8,1.2
2023-12-30T1700,2310A,116.5567,31.7886,六安市,开发区,细颗粒物(PM2.5),107,126,188,80,135,89,,61,61,33,50,5,6,0.9,1.2
2023-12-30T1700,2576A,104.8,26.5892,六盘水市,窑上,,,,,,,,,,,,,,,,
2023-12-30T1700,2577A,104.83,26.5917,六盘水市,黄土坡,颗粒物(PM10),52,53,99,33,75,94,,67,67,20,24,11,15,0.8,1.3
2023-12-30T1700,2578A,104.89,26.5939,六盘水市,水钢,细颗粒物(PM2.5),69,62,91,50,75,110,,76,76,12,24,6,12,0.5,1.2
2023-12-30T1700,2579A,104.8475,26.5894,六盘水市,民中,细颗粒物(PM2.5),58,44,86,41,76,96,,64,64,19,28,10,13,0.7,1.3
2023-12-30T1700,2580A,104.9544,26.5506,六盘水市,双水,细颗粒物(PM2.5),83,70,102,61,77,110,,73,73,16,23,10,10,0.8,1.3
2023-12-30T1700,2335A,117.0189,25.1181,龙岩市,龙岩师专,,,,,,,,,,,,,,,,
2023-12-30T1700,2336A,117.0217,25.1033,龙岩市,龙岩市监测站,颗粒物(PM10),58,65,50,40,30,37,,46,46,58,45,11,10,1.1,0.9
2023-12-30T1700,2337A,117.0258,25.0661,龙岩市,闽西职业技术学院,颗粒物(PM10),55,59,58,32,33,26,,39,39,52,43,10,8,0.9,0.9
2023-12-30T1700,2338A,117.0196,25.0306,龙岩市,龙岩学院,颗粒物(PM10),51,51,40,33,27,40,,44,44,36,25,12,7,0.4,0.4
2023-12-30T1700,2665A,105.0822,33.3261,陇南市,汉王镇固水子,,,,,,,,,,,,,,,,
2023-12-30T1700,2885A,104.9339,33.3826,陇南市,滨江中学,颗粒物(PM10),77,103,112,40,68,47,,45,45,54,56,18,45,1.4,2.7
2023-12-30T1700,3247A,104.955,33.371,陇南市,市总工会,颗粒物(PM10),59,68,92,0,57,65,,50,50,40,53,3,10,0.5,1
2023-12-30T1700,2487A,111.9589,27.8901,娄底市,电视发射台,细颗粒物(PM2.5),211,172,186,161,159,90,,70,70,48,32,14,7,3.1,1.8
2023-12-30T1700,2488A,111.9975,27.725,娄底市,市监测站,细颗粒物(PM2.5),209,174,224,159,200,107,,81,81,30,29,12,10,1.1,1.3
2023-12-30T1700,2489A,112.0194,27.7314,娄底市,市委党校,细颗粒物(PM2.5),200,175,224,150,190,94,,74,74,56,54,10,7,1.3,1.3
2023-12-30T1700,2490A,111.9561,27.7569,娄底市,涟钢,细颗粒物(PM2.5),230,206,238,180,210,91,,58,58,38,36,18,10,2.1,1.8
2023-12-30T1700,2491A,111.9892,27.7044,娄底市,市政府,细颗粒物(PM2.5),212,186,224,162,197,112,,84,84,47,45,12,9,1.1,1.2
2023-12-30T1700,1893A,105.4324,28.9634,泸州市,九狮山,细颗粒物(PM2.5),134,123,127,102,99,120,,63,63,24,26,5,5,0.4,0.6
2023-12-30T1700,1894A,105.4427,28.9063,泸州市,小市上码头,细颗粒物(PM2.5),129,120,134,98,104,98,,53,53,16,21,3,3,0.7,0.7
2023-12-30T1700,1895A,105.4241,28.8573,泸州市,兰田宪桥,细颗粒物(PM2.5),127,116,131,96,105,88,,49,49,17,31,4,4,0.8,1
2023-12-30T1700,1896A,105.4379,28.8833,泸州市,市环监站,细颗粒物(PM2.5),124,109,124,94,109,89,,45,45,15,28,4,4,0.6,0.7
2023-12-30T1700,3490A,105.3617,28.7703,泸州市,纳溪区环保局,细颗粒物(PM2.5),119,122,124,90,93,89,,40,40,22,31,4,3,0.8,0.9
2023-12-30T1700,2183A,111.1406,37.5211,吕梁市,环保局,颗粒物(PM10),70,89,154,14,79,73,,55,55,19,63,4,5,0.3,1.1
2023-12-30T1700,2185A,111.1297,37.5136,吕梁市,自来水公司,颗粒物(PM10),67,84,162,15,90,70,,54,54,19,64,4,9,0.3,1.1
2023-12-30T1700,2867A,111.1283,37.51,吕梁市,马茂庄小学,颗粒物(PM10),71,92,176,14,94,75,,56,56,15,60,1,5,0.3,1.2
2023-12-30T1700,1812A,112.3931,34.6516,洛阳市,市委党校,细颗粒物(PM2.5),78,94,160,57,131,88,,78,78,21,37,7,6,0.7,1.3
2023-12-30T1700,1814A,112.4657,34.6871,洛阳市,豫西宾馆,细颗粒物(PM2.5),80,107,188,59,128,92,,78,78,30,50,9,10,0.6,1.4
2023-12-30T1700,1815A,112.494,34.6886,洛阳市,河南林校,细颗粒物(PM2.5),82,105,163,60,124,97,,77,77,24,46,8,9,0.5,1.2
2023-12-30T1700,1816A,112.3844,34.623,洛阳市,开发区管委会,细颗粒物(PM2.5),74,79,145,54,115,95,,88,88,21,39,2,2,0.5,1.1
2023-12-30T1700,1817A,112.4267,34.6258,洛阳市,市委新办公区,细颗粒物(PM2.5),78,91,148,57,130,96,,89,89,16,30,5,6,0.7,1.2
2023-12-30T1700,3340A,112.6005,34.6326,洛阳市,伊滨,颗粒物(PM10),84,117,190,56,130,90,,75,75,20,38,3,3,0.7,1.3
2023-12-30T1700,3341A,112.4951,34.6332,洛阳市,中移产业园,细颗粒物(PM2.5),75,83,142,55,130,93,,86,86,33,39,6,6,0.8,1.3
2023-12-30T1700,3593A,112.5736,34.8993,洛阳市,吉利监测站,颗粒物(PM10),65,79,142,34,125,88,,74,74,18,39,5,4,0.5,1.3
2023-12-30T1700,3635A,112.3677,34.662,洛阳市,河科大西苑校区,颗粒物(PM10),73,96,168,52,127,88,,83,83,26,44,5,5,0.5,1
2023-12-30T1700,3636A,112.4388,34.6781,洛阳市,英才小学,细颗粒物(PM2.5),82,105,176,60,133,92,,82,82,26,40,7,8,0.8,1.4
2023-12-30T1700,2399A,114.051,33.5699,漯河市,三五一五工厂,颗粒物(PM10),80,110,194,57,181,90,,76,76,14,35,4,5,0.6,1.1
2023-12-30T1700,2400A,114.0055,33.5698,漯河市,漯河大学,,,104,188,56,165,,,76,76,22,44,5,7,,1.2
2023-12-30T1700,2401A,114.0138,33.5828,漯河市,市水利局,颗粒物(PM10),75,100,190,39,167,88,,79,79,14,29,7,9,0.6,1.2
2023-12-30T1700,2402A,114.0261,33.5698,漯河市,市广电局,细颗粒物(PM2.5),80,105,192,59,164,89,,77,77,19,36,2,4,0.6,1.1
2023-12-30T1700,3478A,113.9749,33.5664,漯河市,市图书馆,颗粒物(PM10),96,141,209,63,178,85,,73,73,23,28,7,8,0.2,1
2023-12-30T1700,3479A,114.0967,33.5906,漯河市,召陵区卫健委,颗粒物(PM10),81,112,211,54,178,89,,77,77,9,31,4,7,0.3,0.9
2023-12-30T1700,1798A,118.5092,31.6837,马鞍山市,湖东路四小,细颗粒物(PM2.5),224,220,240,174,176,65,,47,47,59,68,10,11,1.2,1.6
2023-12-30T1700,1799A,118.5024,31.6449,马鞍山市,开发区,细颗粒物(PM2.5),211,188,188,161,170,59,,46,46,72,67,10,10,0.7,1.2
2023-12-30T1700,1800A,118.5228,31.7231,马鞍山市,慈湖,细颗粒物(PM2.5),223,195,198,173,175,68,,42,42,50,65,9,10,1.7,2.3
2023-12-30T1700,1802A,118.6245,31.7241,马鞍山市,濮塘,细颗粒物(PM2.5),159,186,142,121,124,73,,44,44,37,45,6,6,1.2,1.4
2023-12-30T1700,3633A,118.4918,31.6809,马鞍山市,雨山,细颗粒物(PM2.5),214,,189,164,172,72,,51,51,50,63,8,10,1.2,1.5
2023-12-30T1700,1686A,111.0286,21.4688,茂名市,电白南海,细颗粒物(PM2.5),79,68,65,58,43,70,,88,88,28,24,10,14,0.6,0.6
2023-12-30T1700,1687A,110.9294,21.6533,茂名市,茂石化七小,细颗粒物(PM2.5),64,61,79,46,54,60,,66,59,22,21,12,19,0.7,0.8
2023-12-30T1700,1688A,110.9107,21.6687,茂名市,健康路,细颗粒物(PM2.5),62,48,76,44,51,61,,58,58,14,19,13,21,0.5,0.7
2023-12-30T1700,1689A,110.8592,21.6828,茂名市,高岭,细颗粒物(PM2.5),52,44,83,36,54,54,,56,56,25,34,10,29,0.4,0.6
2023-12-30T1700,3450A,111.01,21.5165,茂名市,电白水东,细颗粒物(PM2.5),77,78,68,56,42,62,,75,75,34,24,8,18,1.0,0.7
2023-12-30T1700,2539A,104.0308,30.0478,眉山市,黑龙滩水库,细颗粒物(PM2.5),127,143,126,96,80,119,,77,77,10,10,5,5,0.7,0.7
2023-12-30T1700,2540A,103.8416,30.0874,眉山市,气象局,细颗粒物(PM2.5),149,135,148,114,132,111,,71,71,18,41,7,7,0.8,1.2
2023-12-30T1700,3137A,103.8578,30.0744,眉山市,市委党校,细颗粒物(PM2.5),153,132,157,117,134,110,,63,63,22,48,9,8,0.6,0.9
2023-12-30T1700,3148A,103.8291,30.0564,眉山市,区人社局,,,,146,,156,,,37,,,55,,10,,1.2
2023-12-30T1700,1690A,116.1231,24.3284,梅州市,梅江月梅,细颗粒物(PM2.5),57,42,46,40,34,57,,58,58,32,38,10,10,0.6,0.5
2023-12-30T1700,1691A,116.0797,24.2719,梅州市,梅县新城,细颗粒物(PM2.5),89,,52,66,38,67,,60,60,29,42,6,6,0.8,0.8
2023-12-30T1700,1692A,116.1248,24.2654,梅州市,环境监控中心,,50,40,63,35,37,72,,65,65,37,48,7,8,0.6,0.6
2023-12-30T1700,3315A,116.1233,24.2991,梅州市,梅龙,,39,39,52,26,36,73,,56,56,28,37,8,8,0.6,0.7
2023-12-30T1700,1878A,104.7778,31.4741,绵阳市,富乐山,细颗粒物(PM2.5),188,162,126,141,106,63,,45,45,24,29,6,6,1.0,1
2023-12-30T1700,1879A,104.7563,31.4535,绵阳市,市人大,细颗粒物(PM2.5),198,174,145,148,123,50,,42,42,28,43,8,7,0.9,1
2023-12-30T1700,1880A,104.6697,31.4668,绵阳市,高新区自来水公司,细颗粒物(PM2.5),200,186,159,150,114,63,,39,39,25,42,6,8,0.9,1
2023-12-30T1700,1881A,104.7287,31.5075,绵阳市,三水厂,细颗粒物(PM2.5),192,175,146,144,105,63,,41,41,34,50,5,6,1.1,1.3
2023-12-30T1700,3491A,104.69,31.5322,绵阳市,西科大附属小学,细颗粒物(PM2.5),196,177,145,147,107,69,,39,39,29,54,3,4,1.3,1.3
2023-12-30T1700,3492A,104.5648,31.5343,绵阳市,安州区旅游局,细颗粒物(PM2.5),195,173,144,146,117,65,,43,43,32,50,8,8,0.8,1
2023-12-30T1700,1784A,129.61,44.561,牡丹江市,环保大楼,细颗粒物(PM2.5),85,88,128,63,92,31,,29,29,54,64,33,20,0.9,1.4
2023-12-30T1700,1785A,129.6115,44.5782,牡丹江市,文化广场,细颗粒物(PM2.5),108,93,132,81,102,32,,28,28,47,65,26,25,1.1,1.9
2023-12-30T1700,1786A,129.5904,44.5963,牡丹江市,第一医院,细颗粒物(PM2.5),103,91,130,77,105,34,,28,28,48,65,20,22,1.1,1.8
2023-12-30T1700,1787A,129.6364,44.6075,牡丹江市,机车工厂,细颗粒物(PM2.5),74,61,72,54,51,36,,37,37,47,52,18,23,1.0,1.3
2023-12-30T1700,1788A,129.6386,44.5462,牡丹江市,第一中学,细颗粒物(PM2.5),89,85,113,66,91,45,,38,38,39,53,17,15,1.0,1.5
2023-12-30T1700,2531A,105.0703,29.61,内江市,市监测站,细颗粒物(PM2.5),182,141,156,137,160,103,,58,58,24,44,7,9,1.0,1.4
2023-12-30T1700,2532A,105.0717,29.5947,内江市,东兴区政府,细颗粒物(PM2.5),142,140,160,108,148,104,,58,58,19,41,8,9,0.5,0.9
2023-12-30T1700,2533A,105.0653,29.5817,内江市,内江二中,细颗粒物(PM2.5),166,129,164,126,158,108,,57,57,19,45,7,7,0.8,1.3
2023-12-30T1700,2534A,105.0406,29.5822,内江市,内江日报社,细颗粒物(PM2.5),148,126,148,113,139,102,,57,57,27,51,11,10,0.8,1.3
2023-12-30T1700,1290A,115.8931,28.6843,南昌市,省外办,细颗粒物(PM2.5),247,251,254,197,199,120,,86,86,54,82,21,11,1.5,1.8
2023-12-30T1700,1291A,115.8886,28.7003,南昌市,省林业公司,细颗粒物(PM2.5),216,210,225,166,175,118,,92,92,87,93,25,15,1.5,1.4
2023-12-30T1700,1292A,115.8126,28.7442,南昌市,林科所,细颗粒物(PM2.5),208,205,159,158,124,141,,106,106,94,109,22,11,1.4,1.2
2023-12-30T1700,1294A,115.8518,28.687,南昌市,建工学校,细颗粒物(PM2.5),207,232,230,157,162,118,,93,93,58,81,33,19,1.5,1.5
2023-12-30T1700,1295A,115.8921,28.6424,南昌市,象湖,细颗粒物(PM2.5),238,199,204,188,185,126,,92,92,56,85,21,13,1.5,1.6
2023-12-30T1700,1296A,115.7423,28.7996,南昌市,武术学校,细颗粒物(PM2.5),137,112,81,104,72,71,,94,94,28,20,15,13,1.1,1
2023-12-30T1700,1298A,115.9314,28.6842,南昌市,省站,细颗粒物(PM2.5),228,242,260,178,188,130,,102,102,47,65,26,16,1.2,1.3
2023-12-30T1700,3046A,115.9084,28.6062,南昌市,机电学校,细颗粒物(PM2.5),240,239,251,190,187,151,,106,106,40,85,21,16,1.3,1.3
2023-12-30T1700,3690A,115.9721,28.7031,南昌市,外国语学校,细颗粒物(PM2.5),196,221,243,147,177,137,,94,94,45,65,20,12,1.3,1.3
2023-12-30T1700,1905A,106.056,30.8064,南充市,西山风景区,细颗粒物(PM2.5),207,,153,157,144,80,,36,36,18,31,4,6,1.0,1.1
2023-12-30T1700,1906A,106.0789,30.8023,南充市,南充市委,细颗粒物(PM2.5),178,166,169,134,138,60,,28,28,37,36,6,7,0.9,1
2023-12-30T1700,1907A,106.1031,30.8217,南充市,南充炼油厂,细颗粒物(PM2.5),203,183,187,153,152,69,,29,29,25,31,6,6,0.8,0.9
2023-12-30T1700,1908A,106.1064,30.7856,南充市,高坪区监测站,细颗粒物(PM2.5),201,175,197,151,157,77,,34,34,23,32,8,7,0.6,0.7
2023-12-30T1700,1909A,106.0642,30.7636,南充市,嘉陵区环保局,细颗粒物(PM2.5),178,182,202,134,149,64,,28,28,30,33,4,7,0.7,1
2023-12-30T1700,1910A,106.1087,30.8388,南充市,市环境监测站,细颗粒物(PM2.5),179,188,185,135,142,61,,30,30,28,29,6,7,0.8,1
2023-12-30T1700,1151A,118.8086,32.1065,南京市,迈皋桥,细颗粒物(PM2.5),206,191,153,156,124,47,,37,37,49,65,6,5,1.4,1.3
2023-12-30T1700,1152A,118.7538,32.0551,南京市,草场门,细颗粒物(PM2.5),211,183,136,161,113,61,,44,44,58,70,6,5,1.4,1.2
2023-12-30T1700,1153A,118.7794,32.0745,南京市,山西路,细颗粒物(PM2.5),238,230,176,188,145,63,,48,48,52,57,8,7,1.3,1.1
2023-12-30T1700,1154A,118.7752,32.0023,南京市,中华门,细颗粒物(PM2.5),206,207,149,156,114,53,,39,39,68,70,15,9,2.3,1.6
2023-12-30T1700,1155A,118.8109,32.0309,南京市,瑞金路,细颗粒物(PM2.5),203,219,166,153,111,59,,47,47,54,83,,5,1.8,1.1
2023-12-30T1700,1156A,118.7997,32.0754,南京市,玄武湖,细颗粒物(PM2.5),217,192,155,167,124,66,,44,44,43,59,9,7,1.5,1.3
2023-12-30T1700,1157A,118.6414,32.0931,南京市,浦口,细颗粒物(PM2.5),178,183,179,134,130,90,,56,56,51,61,4,4,0.8,0.7
2023-12-30T1700,1158A,118.7356,31.9996,南京市,奥体中心,细颗粒物(PM2.5),213,210,159,163,119,67,,44,44,67,74,11,7,1.6,1.3
2023-12-30T1700,1159A,118.9125,32.1028,南京市,仙林大学城,细颗粒物(PM2.5),201,166,138,151,123,77,,43,43,46,68,6,6,1.3,1.2
2023-12-30T1700,3422A,118.8436,31.9198,南京市,江宁彩虹桥,细颗粒物(PM2.5),185,210,162,139,113,81,,51,51,48,64,10,8,1.6,1.3
2023-12-30T1700,3423A,119.0138,31.6494,南京市,溧水永阳,细颗粒物(PM2.5),252,,126,202,126,64,,37,37,51,54,3,4,1.6,1.1
2023-12-30T1700,3424A,118.879,31.3302,南京市,高淳老职中,细颗粒物(PM2.5),228,198,150,178,125,53,,35,35,63,61,6,5,1.8,1.1
2023-12-30T1700,3427A,118.8554,32.3578,南京市,六合雄州,细颗粒物(PM2.5),165,143,139,125,97,94,,64,64,29,48,6,5,1.4,1.4
2023-12-30T1700,1401A,108.3103,22.7881,南宁市,二十一中,细颗粒物(PM2.5),64,65,64,46,45,165,,134,134,18,29,8,10,0.9,1
2023-12-30T1700,1402A,108.3141,22.8528,南宁市,北湖,颗粒物(PM10),58,65,88,35,64,155,,129,129,18,36,6,12,0.7,1.1
2023-12-30T1700,1403A,108.3206,22.8225,南宁市,市监测站,颗粒物(PM10),60,69,66,39,45,161,,131,131,29,39,7,10,0.9,0.9
2023-12-30T1700,1404A,108.3829,22.8037,南宁市,大自然花园,颗粒物(PM10),53,56,64,30,45,120,,122,122,18,26,7,9,0.6,0.7
2023-12-30T1700,1405A,108.4394,22.7904,南宁市,仙葫,,48,48,76,24,51,111,,119,119,20,38,6,7,0.6,0.8
2023-12-30T1700,1406A,108.2397,22.8467,南宁市,区农职院,颗粒物(PM10),54,58,76,32,43,144,,116,116,33,47,9,11,1.2,1.1
2023-12-30T1700,1407A,108.3275,22.735,南宁市,英华嘉园,颗粒物(PM10),56,62,70,38,45,127,,118,118,23,50,6,9,0.7,0.9
2023-12-30T1700,1408A,108.2257,22.7757,南宁市,沙井镇街道办,颗粒物(PM10),62,73,106,43,51,142,,114,114,32,67,8,11,0.8,0.8
2023-12-30T1700,3401A,108.4834,22.7618,南宁市,红星社区,,49,49,72,23,50,91,,92,92,16,29,7,8,0.6,0.8
2023-12-30T1700,2331A,118.0966,26.6761,南平市,茫荡山,,,,,,,,,,,,,,,,
2023-12-30T1700,2332A,118.1681,26.6369,南平市,南平市监测站,,43,38,42,30,33,66,,54,54,22,28,6,5,0.8,0.9
2023-12-30T1700,2333A,118.1825,26.6489,南平市,南平铝业有限公司,,43,43,39,29,26,64,,46,46,20,32,6,6,0.7,0.8
2023-12-30T1700,2334A,118.1756,26.6272,南平市,南平七中,颗粒物(PM10),55,59,37,33,26,48,,38,38,31,29,6,6,0.6,0.5
2023-12-30T1700,1168A,120.9098,31.9663,南通市,狼山街道,细颗粒物(PM2.5),188,144,73,141,70,5,,25,8,81,47,9,8,1.7,0.8
2023-12-30T1700,1169A,120.86,32.0005,南通市,虹桥,细颗粒物(PM2.5),205,170,96,155,78,3,,29,5,96,54,6,4,1.8,1
2023-12-30T1700,1170A,120.87,32.02,南通市,城中,细颗粒物(PM2.5),196,155,83,147,72,6,,30,8,92,51,9,6,1.6,0.8
2023-12-30T1700,1171A,120.94,31.93,南通市,星湖花园,细颗粒物(PM2.5),176,161,83,133,67,4,,28,6,93,51,10,6,1.5,0.6
2023-12-30T1700,1172A,120.81,32.0417,南通市,紫琅学院,细颗粒物(PM2.5),188,173,93,141,76,4,,23,6,95,59,10,7,1.4,0.7
2023-12-30T1700,3291A,121.067,32.062,南通市,通州监测站,细颗粒物(PM2.5),192,166,84,144,69,6,,43,9,93,40,9,7,1.6,1.1
2023-12-30T1700,3432A,120.9348,31.9883,南通市,环境教育馆,细颗粒物(PM2.5),183,141,70,138,68,5,,33,6,92,46,10,7,1.8,0.9
2023-12-30T1700,2404A,112.5224,33.0122,南阳市,瓦房庄,细颗粒物(PM2.5),176,134,173,133,170,48,,40,40,50,45,8,7,1.1,1.2
2023-12-30T1700,2405A,112.5003,32.9735,南阳市,汉画馆,细颗粒物(PM2.5),179,161,197,135,168,56,,45,45,39,42,10,8,1.3,1.2
2023-12-30T1700,2406A,112.5573,33.027,南阳市,气象站,细颗粒物(PM2.5),185,149,184,139,175,52,,47,47,44,39,7,6,1.2,1.3
2023-12-30T1700,2407A,112.5481,32.9689,南阳市,理工学院,细颗粒物(PM2.5),170,141,174,129,159,60,,50,50,46,44,11,7,0.7,0.9
2023-12-30T1700,4008A,112.5234,32.9922,南阳市,卧龙区政府,细颗粒物(PM2.5),172,152,187,130,165,44,,46,46,63,47,8,7,1.1,1.1
2023-12-30T1700,1234A,121.8358,29.911,宁波市,区环保大楼,细颗粒物(PM2.5),200,171,97,150,51,88,,72,72,68,72,8,7,1.0,0.9
2023-12-30T1700,1235A,121.56,29.82,宁波市,万里学院,细颗粒物(PM2.5),217,214,80,167,48,77,,64,64,95,73,8,6,1.0,0.7
2023-12-30T1700,1236A,121.713,29.9572,宁波市,龙赛医院,细颗粒物(PM2.5),120,179,64,91,33,76,,66,66,73,67,9,7,1.1,0.8
2023-12-30T1700,1239A,121.633,29.7733,宁波市,钱湖水厂,细颗粒物(PM2.5),233,,44,183,39,84,,71,71,75,33,11,8,1.0,0.6
2023-12-30T1700,1240A,121.5856,29.8635,宁波市,太古小学,细颗粒物(PM2.5),218,199,74,168,49,58,,57,57,102,65,10,8,1.0,0.7
2023-12-30T1700,1241A,121.524,29.8674,宁波市,市环境监测中心,细颗粒物(PM2.5),147,190,78,112,40,48,,64,64,124,74,14,10,1.2,0.9
2023-12-30T1700,2871A,121.6147,29.9017,宁波市,万里国际学校,细颗粒物(PM2.5),224,190,79,174,63,55,,54,54,100,66,12,8,1.1,0.8
2023-12-30T1700,3710A,121.5594,29.8975,宁波市,白沙活动中心,细颗粒物(PM2.5),172,163,57,130,39,59,,59,59,105,62,10,7,1.1,0.9
2023-12-30T1700,2339A,119.5001,26.6946,宁德市,金涵水库,,,,,,,,,,,,,,,,
2023-12-30T1700,2341A,119.5388,26.6612,宁德市,宁德市监测站,颗粒物(PM10),55,59,38,37,31,39,,53,53,50,22,7,5,0.7,0.6
2023-12-30T1700,3209A,119.5231,26.6562,宁德市,宁德一中,细颗粒物(PM2.5),64,68,41,46,25,30,,43,42,58,25,7,3,0.8,0.6
2023-12-30T1700,2618A,98.8601,25.8567,怒江州,州监测站,,27,27,29,14,17,79,,54,54,4,15,8,8,0.3,0.4
2023-12-30T1700,2619A,98.8546,25.8417,怒江州,泸水一中,,23,21,26,9,19,71,,45,45,9,20,7,7,0.3,0.5
2023-12-30T1700,1888A,101.6891,26.571,攀枝花市,弄弄坪,,38,37,64,26,37,101,,49,49,16,45,25,34,1.0,1.6
2023-12-30T1700,1889A,101.5769,26.5928,攀枝花市,河门口,,32,32,49,18,20,96,,62,62,14,30,9,16,0.8,1.3
2023-12-30T1700,1890A,101.7169,26.585,攀枝花市,炳草岗,,44,44,63,16,31,91,,51,51,28,51,31,37,1.2,1.6
2023-12-30T1700,1891A,101.7369,26.5008,攀枝花市,仁和,颗粒物(PM10),53,55,49,36,32,106,,67,67,18,27,41,18,1.1,1.3
2023-12-30T1700,2835A,101.7227,26.567,攀枝花市,四十中小,,38,33,61,26,33,103,,56,56,20,48,18,54,1.1,1.7
2023-12-30T1700,1604A,122.0303,41.1489,盘锦市,开发区,细颗粒物(PM2.5),165,,99,125,104,9,,34,9,64,59,20,20,1.8,1.7
2023-12-30T1700,1605A,122.0485,41.0883,盘锦市,兴隆台,细颗粒物(PM2.5),162,,98,123,103,12,,26,12,55,55,14,18,1.9,1.7
2023-12-30T1700,1606A,121.8297,41.1028,盘锦市,新生街道,细颗粒物(PM2.5),198,,83,148,108,9,,37,9,56,43,11,12,2.0,1.4
2023-12-30T1700,1832A,113.3257,33.742,平顶山市,新华旅馆,颗粒物(PM10),69,87,226,44,165,89,,72,72,11,39,5,8,0.3,1.1
2023-12-30T1700,1833A,113.2919,33.737,平顶山市,规划设计院,颗粒物(PM10),64,77,228,27,174,92,,71,71,16,47,7,9,0.4,1.4
2023-12-30T1700,1834A,113.182,33.774,平顶山市,平顶山工学院,颗粒物(PM10),62,73,224,22,163,90,,79,79,18,36,4,6,0.4,1.2
2023-12-30T1700,3204A,113.3025,33.73,平顶山市,规划局,颗粒物(PM10),71,92,216,38,173,87,,67,67,10,37,7,9,0.4,1.2
2023-12-30T1700,3594A,112.8867,33.9116,平顶山市,石龙区,颗粒物(PM10),51,52,164,31,135,97,,82,82,22,55,5,8,0.5,1
2023-12-30T1700,2656A,106.6692,35.5461,平凉市,聚贤嘉苑,,45,45,51,15,26,87,,75,75,16,34,6,8,0.3,0.5
2023-12-30T1700,2657A,106.7021,35.5307,平凉市,博物馆,,44,44,75,9,38,84,,67,67,13,34,4,16,0.3,1.1
2023-12-30T1700,2347A,114.0997,27.5002,萍乡市,武功山,细颗粒物(PM2.5),152,119,84,116,75,130,,108,108,21,15,8,5,1.2,0.8
2023-12-30T1700,2348A,113.8385,27.6434,萍乡市,中医院,细颗粒物(PM2.5),218,,223,168,178,101,,69,69,53,53,12,18,2.2,3.1
2023-12-30T1700,2349A,113.8493,27.6253,萍乡市,市政府车库,细颗粒物(PM2.5),159,152,201,121,148,113,,83,83,33,39,15,13,2.0,1.9
2023-12-30T1700,2350A,113.8676,27.6435,萍乡市,市环保局,细颗粒物(PM2.5),150,190,230,115,163,115,,84,84,46,53,16,13,2.0,2.6
2023-12-30T1700,2351A,113.866,27.6198,萍乡市,安源区政府,细颗粒物(PM2.5),155,176,229,118,184,112,,85,85,42,42,21,15,2.0,1.7
2023-12-30T1700,2319A,119.0141,25.4325,莆田市,荔城区仓后路,颗粒物(PM10),56,61,58,35,37,84,,93,93,45,30,7,7,0.9,0.7
2023-12-30T1700,2320A,119.0015,25.4553,莆田市,莆田市监测站,细颗粒物(PM2.5),62,61,47,44,34,93,,90,90,42,22,9,7,0.9,0.7
2023-12-30T1700,2321A,119.1119,25.4561,莆田市,涵江区六中,,48,48,57,30,35,91,,95,95,50,45,8,8,0.8,0.8
2023-12-30T1700,2322A,119.1013,25.3215,莆田市,秀屿区政府,细颗粒物(PM2.5),57,58,48,40,35,112,,120,120,37,28,12,11,0.8,0.7
2023-12-30T1700,2323A,118.981,25.4792,莆田市,东圳水库,,,,,,,,,,,,,,,,
2023-12-30T1700,2392A,115.0312,35.7636,濮阳市,环保局,细颗粒物(PM2.5),234,210,200,184,190,18,,19,19,54,49,3,3,1.5,1.5
2023-12-30T1700,2394A,115.0574,35.7609,濮阳市,油田运输公司,细颗粒物(PM2.5),238,228,228,188,198,24,,22,22,51,51,4,5,1.5,1.5
2023-12-30T1700,2395A,115.0866,35.7754,濮阳市,油田物探公司,细颗粒物(PM2.5),238,228,227,188,199,24,,22,22,50,49,2,2,1.5,1.5
2023-12-30T1700,3021A,115,35.7668,濮阳市,濮水河管理处,细颗粒物(PM2.5),241,223,219,191,193,28,,25,25,41,42,1,1,1.6,1.5
2023-12-30T1700,2601A,100.98,22.7633,普洱市,市环保局,,28,26,31,19,26,74,,52,52,11,14,6,4,0.4,0.5
2023-12-30T1700,2602A,100.9817,22.8322,普洱市,普洱第二中学,,,10,33,4,14,73,,52,52,8,21,,7,0.2,0.6
2023-12-30T1700,2262A,131.0518,45.8751,七台河市,新一中,,40,40,59,18,50,68,,66,66,11,24,16,13,0.5,0.9
2023-12-30T1700,3345A,131.0577,45.7879,七台河市,中波台,,43,38,69,30,59,54,,59,59,24,36,8,10,0.7,1
2023-12-30T1700,3637A,131.0176,45.7761,七台河市,人民广场,细颗粒物(PM2.5),57,,83,40,69,54,,58,58,28,44,7,8,0.5,0.8
2023-12-30T1700,3684A,130.8781,45.8222,七台河市,新建矿广场,细颗粒物(PM2.5),53,44,84,37,69,46,,47,47,29,54,10,31,0.5,0.9
2023-12-30T1700,1779A,123.9305,47.3636,齐齐哈尔市,安居小区,,29,27,55,20,48,44,,44,44,18,23,10,11,0.4,0.5
2023-12-30T1700,1780A,123.9488,47.3386,齐齐哈尔市,中心广场,,36,36,70,20,50,41,,41,41,20,25,7,9,0.5,0.6
2023-12-30T1700,1781A,123.9483,47.3227,齐齐哈尔市,农牧车辆厂,,36,36,58,21,48,44,,42,42,18,25,11,14,0.4,0.6
2023-12-30T1700,1783A,123.945,47.2988,齐齐哈尔市,市环境监测站,,33,30,63,23,50,46,,44,44,18,28,8,11,0.2,0.4
2023-12-30T1700,3662A,123.6333,47.2075,齐齐哈尔市,富区青少年活动中心,,32,32,53,12,39,55,,50,50,8,15,10,12,0.5,0.7
2023-12-30T1700,2591A,107.9783,26.5747,黔东南苗族侗族自治州,市环境监测站,细颗粒物(PM2.5),57,47,91,40,79,92,,61,61,26,30,8,7,0.7,0.9
2023-12-30T1700,2881A,107.8908,26.5311,黔东南苗族侗族自治州,凯里学院,细颗粒物(PM2.5),54,43,93,38,78,111,,76,76,13,27,5,5,0.6,0.9
