timepoint,stationcode,longitude,latitude,area,positionname,primarypollutant,aqi,pm10,pm10_24h,pm2_5,pm2_5_24h,o3,o3_24h,o3_8h,o3_8h_24h,no2,no2_24h,so2,so2_24h,co,co_24h
2022-05-30T12:00:00,1001A,116.3621,39.8784,北京市,万寿西宫,,34,24,19,7,7,107,107,63,58,6,14,3,3,0.2,0.2
2022-05-30T12:00:00,1002A,116.2202,40.2915,北京市,定陵(对照点),,31,20,13,5,4,100,98,66,66,7,7,1,3,0.2,0.1
2022-05-30T12:00:00,1003A,116.4174,39.9289,北京市,东四,,36,26,21,8,7,113,113,72,64,10,14,1,3,0.2,0.2
2022-05-30T12:00:00,1004A,116.4072,39.8863,北京市,天坛,,39,25,18,27,7,107,107,60,60,9,12,1,3,0.2,0.2
2022-05-30T12:00:00,1005A,116.462,39.9365,北京市,农展馆,,34,21,20,7,7,107,107,57,51,9,20,2,1,0.2,0.2
2022-05-30T12:00:00,1006A,116.3392,39.9295,北京市,官园,,36,26,18,8,7,114,114,65,65,5,8,4,3,0.2,0.2
2022-05-30T12:00:00,1007A,116.2878,39.9611,北京市,海淀万柳,,33,21,18,7,8,105,105,58,58,14,21,3,3,0.2,0.2
2022-05-30T12:00:00,1008A,116.6636,40.135,北京市,顺义新城,,28,24,26,8,8,88,87,62,40,10,12,1,3,0.2,0.2
2022-05-30T12:00:00,1009A,116.6275,40.3275,北京市,怀柔镇,,31,24,15,9,6,98,98,66,60,10,7,2,1,0.2,0.2
2022-05-30T12:00:00,1010A,116.2296,40.217,北京市,昌平镇,,28,28,19,10,7,90,89,59,55,8,11,2,3,0.2,0.2
2022-05-30T12:00:00,1011A,116.3966,39.9821,北京市,奥体中心,,36,26,20,18,14,113,113,63,53,7,20,1,2,0.2,0.3
2022-05-30T12:00:00,1012A,116.184,39.9136,北京市,古城,,36,23,21,9,8,114,114,64,64,9,17,3,3,0.3,0.2
2022-05-30T12:00:00,1015A,117.1444,39.1661,天津市,勤俭道,,40,39,33,9,10,125,125,84,84,9,15,7,6,0.3,0.4
2022-05-30T12:00:00,1017A,117.237,39.1082,天津市,大直沽八号路,,37,27,34,10,10,116,116,79,79,8,15,8,9,0.4,0.4
2022-05-30T12:00:00,1018A,117.202,39.0927,天津市,前进道,,36,31,31,11,10,115,115,76,76,10,15,7,8,0.4,0.5
2022-05-30T12:00:00,1019A,117.1837,39.2133,天津市,淮河道,颗粒物(PM10),52,54,38,11,10,127,127,82,82,8,22,8,8,0.5,0.6
2022-05-30T12:00:00,1021A,117.307,39.0877,天津市,跃进路,,37,31,37,14,10,117,117,76,76,6,18,8,8,0.3,0.4
2022-05-30T12:00:00,1023A,117.707,39.0343,天津市,第四大街,,32,32,36,8,16,121,102,65,65,13,26,7,7,0.4,0.5
2022-05-30T12:00:00,1024A,117.457,38.8394,天津市,永明路,,34,22,36,6,10,134,108,77,77,9,11,9,8,0.3,0.4
2022-05-30T12:00:00,1026A,117.764,39.1587,天津市,汉北路,,,22,31,8,10,122,,66,66,,16,6,7,0.5,0.7
2022-05-30T12:00:00,1027A,117.157,38.9194,天津市,团泊洼(对照点),,40,26,36,9,10,126,126,78,78,10,19,8,7,0.7,0.8
2022-05-30T12:00:00,1029A,114.4422,38.0444,石家庄市,职工医院,,36,31,65,5,19,118,114,61,61,2,24,6,4,0.5,0.5
2022-05-30T12:00:00,1030A,114.6063,38.0266,石家庄市,高新区,,38,34,71,23,32,119,119,57,57,9,38,5,5,0.2,0.3
2022-05-30T12:00:00,1031A,114.4898,38.1328,石家庄市,西北水源,,39,39,63,27,22,109,109,53,53,8,28,8,5,0.4,0.5
2022-05-30T12:00:00,1032A,114.4586,38.0058,石家庄市,西南高教,,38,22,56,26,26,118,113,59,59,9,36,7,5,0.3,0.5
2022-05-30T12:00:00,1033A,114.5331,38.0178,石家庄市,世纪公园,,38,38,61,12,24,121,120,61,61,6,31,5,4,0.4,0.6
2022-05-30T12:00:00,1034A,114.509,38.0457,石家庄市,人民会堂,,,28,59,18,23,117,114,68,55,14,31,,13,0.4,0.4
2022-05-30T12:00:00,1035A,114.3524,37.8911,石家庄市,封龙山(对照点),,35,35,45,14,19,117,102,111,100,1,3,14,13,0.5,0.5
2022-05-30T12:00:00,1037A,118.131,39.6363,唐山市,雷达站,,43,43,39,9,13,115,115,67,67,9,17,5,4,0.3,0.5
2022-05-30T12:00:00,1038A,118.1725,39.6334,唐山市,物资局,,41,41,42,7,20,110,110,67,67,10,17,7,7,0.3,0.5
2022-05-30T12:00:00,1040A,118.1705,39.6506,唐山市,十二中,,35,34,29,12,20,112,112,67,67,8,19,7,6,0.2,0.5
2022-05-30T12:00:00,1041A,118.1869,39.622,唐山市,小山,,36,33,38,19,11,115,115,66,66,9,27,9,7,0.0,0.4
2022-05-30T12:00:00,1042A,119.5134,39.8207,秦皇岛市,北戴河环保局,,50,49,43,35,21,189,76,56,51,14,9,10,7,0.8,0.8
2022-05-30T12:00:00,1043A,119.7493,40.0116,秦皇岛市,第一关,颗粒物(PM10),56,61,38,34,17,203,91,47,47,16,33,16,15,0.8,0.4
2022-05-30T12:00:00,1044A,119.5897,39.9499,秦皇岛市,监测站,"颗粒物(PM10),细颗粒物(PM2.5)",52,53,46,36,22,200,89,47,47,23,27,8,6,0.8,0.5
2022-05-30T12:00:00,1046A,119.5251,39.9041,秦皇岛市,建设大厦,颗粒物(PM10),53,55,42,28,27,204,108,57,56,12,15,11,6,1.3,0.9
2022-05-30T12:00:00,1048A,114.5302,36.6116,邯郸市,东污水处理厂,,,,52,,23,184,138,81,81,5,13,6,7,,0.4
2022-05-30T12:00:00,1049A,114.4918,36.5713,邯郸市,矿院,,45,27,49,17,24,189,141,80,80,8,14,6,6,0.3,0.5
2022-05-30T12:00:00,1050A,114.484,36.6133,邯郸市,丛台公园,,44,33,67,7,24,189,139,84,84,10,14,7,6,0.4,0.5
2022-05-30T12:00:00,1051A,115.493,38.8632,保定市,游泳馆,颗粒物(PM10),53,55,48,7,17,136,136,69,69,14,22,9,8,0.4,0.4
2022-05-30T12:00:00,1053A,115.4713,38.9108,保定市,接待中心,颗粒物(PM10),62,73,63,6,15,132,132,72,72,17,30,10,6,0.5,0.4
2022-05-30T12:00:00,1054A,115.4612,38.8416,保定市,地表水厂,颗粒物(PM10),68,85,71,25,21,135,135,60,60,13,26,13,10,0.4,0.3
2022-05-30T12:00:00,1055A,115.4323,38.8697,保定市,胶片厂,颗粒物(PM10),55,59,47,17,16,137,137,68,68,11,19,15,12,0.5,0.5
2022-05-30T12:00:00,1056A,115.5086,38.8639,保定市,监测站,颗粒物(PM10),93,135,74,18,28,130,130,66,60,14,22,9,7,0.3,0.3
2022-05-30T12:00:00,1057A,114.8883,40.8336,张家口市,人民公园,,32,18,23,1,3,102,102,68,68,5,6,6,4,0.3,0.3
2022-05-30T12:00:00,1059A,114.8687,40.8042,张家口市,五金库,,32,22,23,5,6,101,101,70,70,7,10,4,5,0.3,0.3
2022-05-30T12:00:00,1060A,114.8902,40.762,张家口市,世纪豪园,,32,19,23,2,7,101,101,68,68,8,11,4,3,0.2,0.2
2022-05-30T12:00:00,1061A,114.8916,40.8661,张家口市,北泵房(对照点),,,8,16,8,15,,,,,2,6,9,9,,
2022-05-30T12:00:00,1062A,117.9531,40.9081,承德市,铁路,,39,39,35,15,16,92,63,28,28,21,18,15,10,0.4,0.2
2022-05-30T12:00:00,1063A,117.9392,40.9763,承德市,中国银行,,,31,29,7,10,90,,26,26,12,17,6,3,,0.2
2022-05-30T12:00:00,1064A,117.9503,40.928,承德市,开发区,,42,42,30,9,11,96,68,28,28,21,21,12,7,0.5,0.3
2022-05-30T12:00:00,1065A,117.8051,40.9655,承德市,文化中心,,28,24,39,3,10,95,88,38,38,5,18,4,6,0.2,0.3
2022-05-30T12:00:00,1066A,117.9268,41.0026,承德市,离宫(对照点),,27,24,28,13,15,90,85,34,34,3,13,6,7,0.2,0.2
2022-05-30T12:00:00,1067A,116.6708,39.5111,廊坊市,药材公司,颗粒物(PM10),54,57,29,25,17,120,120,68,68,15,25,7,7,0.3,0.3
2022-05-30T12:00:00,1068A,116.7214,39.5589,廊坊市,开发区,颗粒物(PM10),58,65,38,6,11,116,116,69,69,15,26,8,7,0.4,0.3
2022-05-30T12:00:00,1070A,116.7244,39.5269,廊坊市,北华航天学院,颗粒物(PM10),63,75,39,1,16,117,117,70,70,14,24,8,9,0.2,0.2
2022-05-30T12:00:00,1071A,116.8842,38.2991,沧州市,沧县城建局,,36,30,52,10,17,151,114,69,69,12,27,10,12,0.2,0.3
2022-05-30T12:00:00,1072A,116.8584,38.3254,沧州市,电视转播站,,38,38,48,6,10,132,105,64,64,12,22,10,10,0.4,0.4
2022-05-30T12:00:00,1073A,116.8709,38.3228,沧州市,市环保局,,,27,53,6,15,154,,55,55,24,32,8,9,,0.5
2022-05-30T12:00:00,1074A,115.6838,37.7541,衡水市,电机北厂,,46,46,70,9,15,171,125,66,66,4,25,6,12,0.3,0.4
2022-05-30T12:00:00,1075A,115.6303,37.7316,衡水市,市监测站,,40,40,71,10,16,164,121,64,64,5,19,13,14,0.1,0.2
2022-05-30T12:00:00,1077A,114.4704,37.0886,邢台市,达活泉,,46,42,80,15,17,181,145,78,78,10,16,31,10,1.0,0.5
2022-05-30T12:00:00,1078A,114.5062,37.0349,邢台市,邢师高专,,48,44,80,15,20,191,152,68,68,8,18,26,5,1.0,0.5
2022-05-30T12:00:00,1079A,114.5237,37.0851,邢台市,路桥公司,颗粒物(PM10),51,52,77,17,20,182,148,81,81,10,19,27,10,0.8,0.5
2022-05-30T12:00:00,1081A,112.5139,37.8873,太原市,尖草坪,,35,29,49,7,15,125,111,69,69,7,30,5,7,0.3,0.5
2022-05-30T12:00:00,1083A,112.434,38.0108,太原市,上兰(对照点),,,29,26,,8,132,111,96,84,7,10,4,5,0.3,0.3
2022-05-30T12:00:00,1084A,112.469,37.7124,太原市,晋源,,,57,46,21,22,125,107,80,58,,28,13,9,0.3,0.4
2022-05-30T12:00:00,1085A,112.5583,37.7394,太原市,小店,颗粒物(PM10),52,54,47,16,14,126,118,68,68,18,34,13,7,0.5,0.4
2022-05-30T12:00:00,1086A,112.5369,37.8692,太原市,桃园,,,,46,,14,128,,48,44,,31,,6,,0.4
2022-05-30T12:00:00,1087A,112.57,37.8195,太原市,坞城,颗粒物(PM10),57,63,55,27,19,131,117,67,67,22,28,14,7,0.4,0.2
2022-05-30T12:00:00,1088A,112.549,37.9854,太原市,南寨,,38,38,53,12,18,125,110,50,50,9,32,7,7,0.4,0.5
2022-05-30T12:00:00,1090A,111.6507,40.7517,呼和浩特市,呼市一监,,32,27,34,7,13,101,101,50,50,5,20,8,9,0.3,0.3
2022-05-30T12:00:00,1091A,111.6572,40.8033,呼和浩特市,小召,,32,17,23,7,10,101,101,47,47,12,26,5,8,0.3,0.4
2022-05-30T12:00:00,1094A,111.7516,40.8369,呼和浩特市,如意水处理厂,,35,23,25,5,8,110,110,51,51,6,25,8,8,0.3,0.3
2022-05-30T12:00:00,1095A,111.7276,40.8062,呼和浩特市,二十九中,,,23,22,5,6,102,102,62,62,6,24,,8,0.1,0.3
2022-05-30T12:00:00,1096A,111.5512,40.7866,呼和浩特市,工大金川校区,,34,17,27,5,9,108,108,58,53,6,20,5,7,0.3,0.3
2022-05-30T12:00:00,1097A,111.717,40.7612,呼和浩特市,化肥厂生活区,,34,22,36,7,13,108,108,48,48,4,22,9,11,0.3,0.4
2022-05-30T12:00:00,1098A,123.6836,41.9339,沈阳市,森林路(对照点),,31,11,23,6,14,165,98,63,63,10,14,6,7,0.3,0.5
2022-05-30T12:00:00,1099A,123.505,41.7406,沈阳市,浑南东路,,,16,31,,18,170,97,67,58,8,12,11,14,0.4,0.5
2022-05-30T12:00:00,1100A,123.4231,41.6989,沈阳市,新秀街,,29,14,36,7,16,162,92,59,55,12,21,9,13,0.4,0.5
2022-05-30T12:00:00,1102A,123.5903,41.8411,沈阳市,东陵路,,32,32,28,12,16,162,86,55,47,16,14,10,9,0.5,0.6
2022-05-30T12:00:00,1103A,123.4264,41.8467,沈阳市,陵东街,,29,6,22,3,11,164,90,62,49,16,18,9,7,0.3,0.4
2022-05-30T12:00:00,1104A,123.4114,41.7653,沈阳市,文化路,,30,8,31,3,21,169,93,75,59,8,12,6,8,0.4,0.6
2022-05-30T12:00:00,1105A,123.4678,41.7867,沈阳市,小河沿,,30,9,30,4,15,168,94,57,55,12,13,6,8,0.3,0.4
2022-05-30T12:00:00,1106A,123.4017,41.7972,沈阳市,太原街,,31,12,36,8,18,177,98,83,60,15,19,6,8,0.3,0.4
2022-05-30T12:00:00,1108A,123.3783,41.9228,沈阳市,京沈街,,31,18,28,4,15,184,98,72,63,5,13,9,10,0.4,0.5
2022-05-30T12:00:00,1109A,121.612,38.9741,大连市,甘井子,,27,27,18,10,16,147,85,86,70,18,15,7,7,0.6,0.5
2022-05-30T12:00:00,1110A,121.565,38.9511,大连市,周水子,,27,22,28,4,14,145,85,80,60,10,12,4,5,0.5,0.8
2022-05-30T12:00:00,1111A,121.5637,38.8845,大连市,星海三站,,,18,28,10,15,176,,100,72,18,18,7,7,0.4,0.4
2022-05-30T12:00:00,1112A,121.6302,38.9117,大连市,青泥洼桥,,31,13,18,2,7,159,98,94,73,14,13,7,7,0.3,0.4
2022-05-30T12:00:00,1113A,121.6251,38.8638,大连市,傅家庄,,30,20,29,7,9,140,96,85,68,9,11,5,9,0.7,0.7
2022-05-30T12:00:00,1115A,121.2529,38.8061,大连市,旅顺,,26,21,28,10,9,169,82,89,68,21,12,6,5,0.4,0.5
2022-05-30T12:00:00,1116A,121.7485,39.1311,大连市,金州,,30,18,21,7,8,154,95,82,70,12,13,9,8,0.5,0.5
2022-05-30T12:00:00,1117A,121.7811,39.0496,大连市,开发区,,29,20,30,7,10,152,92,101,68,16,16,7,7,0.7,0.7
2022-05-30T12:00:00,1118A,121.9762,39.0631,大连市,双D港,,33,12,17,0,7,177,103,96,81,16,13,10,8,0.5,0.6
2022-05-30T12:00:00,1119A,125.3325,43.9166,长春市,食品厂,,23,11,29,3,14,166,73,61,56,14,18,5,6,0.3,0.4
2022-05-30T12:00:00,1120A,125.2863,43.9027,长春市,客车厂,,25,19,30,6,12,169,78,64,59,9,14,5,5,0.4,0.5
2022-05-30T12:00:00,1121A,125.2841,43.8463,长春市,邮电学院,,25,22,33,10,15,163,79,59,59,6,15,1,1,0.5,0.6
2022-05-30T12:00:00,1122A,125.3716,43.8772,长春市,劳动公园,,29,29,36,6,14,171,80,60,60,5,10,2,2,0.5,0.7
2022-05-30T12:00:00,1123A,125.3297,43.8805,长春市,园林处,,24,16,23,6,13,174,76,58,58,6,12,4,5,0.4,0.5
2022-05-30T12:00:00,1124A,125.4605,43.79,长春市,净月潭,,25,5,20,4,12,172,77,59,59,1,6,6,6,0.3,0.4
2022-05-30T12:00:00,1125A,125.7194,43.515,长春市,甩湾子(对照点),,24,13,21,2,11,166,74,64,60,4,7,6,6,0.2,0.4
2022-05-30T12:00:00,1126A,125.3863,43.8447,长春市,经开区环卫处,,24,10,24,5,12,156,75,53,53,3,8,7,7,0.2,0.3
2022-05-30T12:00:00,1127A,125.245,43.7783,长春市,高新区管委会,,,,26,,15,170,83,62,62,5,12,5,5,0.2,0.4
2022-05-30T12:00:00,1128A,125.1761,43.8325,长春市,岱山公园,,25,11,24,6,13,165,77,62,61,7,11,5,5,0.4,0.5
2022-05-30T12:00:00,1129A,126.5422,45.755,哈尔滨市,岭北(对照点),,24,18,24,12,16,161,75,61,61,8,11,10,10,0.2,0.2
2022-05-30T12:00:00,1130A,126.561,45.8167,哈尔滨市,松北商大,,25,6,16,3,8,154,77,63,63,2,5,3,5,1.0,1.1
2022-05-30T12:00:00,1131A,126.979,45.5419,哈尔滨市,阿城会宁,,26,11,24,9,16,160,82,63,63,6,12,12,13,0.4,0.5
2022-05-30T12:00:00,1132A,126.599,45.7222,哈尔滨市,南岗学府路,,,,28,,10,163,,64,60,7,9,7,6,0.6,0.6
2022-05-30T12:00:00,1133A,126.689,45.7733,哈尔滨市,太平宏伟公园,,25,17,33,10,15,158,77,64,62,9,12,12,10,0.5,0.6
2022-05-30T12:00:00,1134A,126.635,45.7667,哈尔滨市,道外承德广场,,27,16,29,10,12,170,84,70,66,11,17,14,12,0.1,0.3
2022-05-30T12:00:00,1135A,126.685,45.7319,哈尔滨市,香坊红旗大街,,24,24,33,10,18,150,68,60,50,18,22,5,5,0.4,0.5
2022-05-30T12:00:00,1136A,126.6411,45.7258,哈尔滨市,动力和平路,,26,26,36,6,15,159,76,65,59,11,12,4,4,0.6,0.6
2022-05-30T12:00:00,1137A,126.593,45.7478,哈尔滨市,道里建国路,,21,19,29,10,15,125,66,59,54,15,17,9,12,0.4,0.6
2022-05-30T12:00:00,1138A,126.615,45.61,哈尔滨市,平房东轻厂,,22,18,25,9,13,142,70,55,55,5,12,8,10,0.6,0.7
2022-05-30T12:00:00,1139A,126.595,45.9855,哈尔滨市,呼兰师专,,,,29,,20,136,,58,58,8,10,,10,0.5,0.6
2022-05-30T12:00:00,1140A,126.6206,45.6842,哈尔滨市,省农科院,,25,17,24,7,12,151,77,56,55,7,14,9,11,0.2,0.7
2022-05-30T12:00:00,1141A,121.4,31.238,上海市,普陀,臭氧1小时,78,44,35,32,30,182,182,70,70,13,28,6,3,1.6,1.5
2022-05-30T12:00:00,1142A,121.478,31.2036,上海市,十五厂,臭氧1小时,69,47,31,28,34,175,175,70,70,12,26,7,6,1.6,1.6
2022-05-30T12:00:00,1143A,121.467,31.3008,上海市,虹口,,49,41,26,26,27,154,154,60,60,22,28,3,3,0.7,0.6
2022-05-30T12:00:00,1144A,121.412,31.1654,上海市,徐汇上师大,臭氧1小时,62,42,41,33,36,169,169,65,65,21,34,6,4,1.4,1.1
2022-05-30T12:00:00,1145A,121.536,31.2659,上海市,杨浦四漂,臭氧1小时,62,34,20,31,29,169,169,73,73,7,18,8,7,0.4,0.5
2022-05-30T12:00:00,1147A,121.425,31.2261,上海市,静安监测站,臭氧1小时,68,50,40,37,34,174,174,69,69,25,34,9,5,0.6,0.4
2022-05-30T12:00:00,1148A,121.703,31.1907,上海市,浦东川沙,臭氧1小时,68,53,51,35,36,174,174,72,72,13,27,6,6,1.5,1.5
2022-05-30T12:00:00,1149A,121.533,31.2284,上海市,浦东新区监测站,,50,42,37,29,31,158,158,70,70,15,27,7,7,1.0,1
2022-05-30T12:00:00,1150A,121.577,31.2071,上海市,浦东张江,细颗粒物(PM2.5),54,37,28,38,37,158,158,67,67,13,24,5,5,1.1,1.2
2022-05-30T12:00:00,1151A,118.8086,32.1065,南京市,迈皋桥,,,50,38,22,17,119,86,45,45,17,25,,6,0.8,0.6
2022-05-30T12:00:00,1152A,118.7538,32.0551,南京市,草场门,,31,31,35,17,16,115,94,51,51,11,26,3,4,0.5,0.6
2022-05-30T12:00:00,1153A,118.7794,32.0745,南京市,山西路,颗粒物(PM10),62,73,42,22,21,118,93,55,55,14,32,3,3,0.5,0.5
2022-05-30T12:00:00,1154A,118.7752,32.0023,南京市,中华门,,34,34,38,14,12,129,101,56,56,6,20,4,4,0.6,0.7
2022-05-30T12:00:00,1155A,118.8109,32.0309,南京市,瑞金路,颗粒物(PM10),54,58,58,27,21,123,91,57,57,13,26,4,5,0.2,0.3
2022-05-30T12:00:00,1156A,118.7997,32.0754,南京市,玄武湖,颗粒物(PM10),51,52,32,31,20,121,89,56,56,13,23,4,4,0.5,0.7
2022-05-30T12:00:00,1157A,118.6414,32.0931,南京市,浦口,,31,31,39,12,17,123,99,67,67,7,16,7,5,0.4,0.5
2022-05-30T12:00:00,1158A,118.7356,31.9996,南京市,奥体中心,,44,44,41,19,19,126,98,54,54,13,31,2,5,0.4,0.7
2022-05-30T12:00:00,1159A,118.9125,32.1028,南京市,仙林大学城,细颗粒物(PM2.5),55,34,37,39,22,126,101,59,59,9,18,5,7,0.8,1.1
2022-05-30T12:00:00,1160A,120.561,31.2472,苏州市,上方山(对照点),颗粒物(PM10),54,57,32,30,15,130,130,45,45,20,20,5,5,1.1,0.8
2022-05-30T12:00:00,1162A,120.591,31.3019,苏州市,彩香,,,46,22,56,13,156,156,38,38,15,25,11,5,,0.8
2022-05-30T12:00:00,1163A,120.596,31.3264,苏州市,轧钢厂,颗粒物(PM10),53,55,29,35,15,146,146,53,53,17,25,6,5,1.0,0.8
2022-05-30T12:00:00,1164A,120.613,31.2703,苏州市,吴中区,细颗粒物(PM2.5),65,44,25,47,17,157,157,57,57,14,23,6,6,0.9,0.7
2022-05-30T12:00:00,1165A,120.543,31.2994,苏州市,苏州新区,细颗粒物(PM2.5),77,52,19,56,22,141,141,55,55,19,22,5,5,1.2,0.9
2022-05-30T12:00:00,1166A,120.669,31.3097,苏州市,苏州工业园区,细颗粒物(PM2.5),57,35,24,40,15,138,138,51,51,18,27,7,5,1.1,0.9
2022-05-30T12:00:00,1167A,120.641,31.3708,苏州市,相城区,细颗粒物(PM2.5),95,61,22,71,24,133,133,53,53,16,22,8,6,1.1,0.8
2022-05-30T12:00:00,1168A,120.9098,31.9663,南通市,狼山街道,,39,35,36,14,24,134,123,60,60,5,34,10,11,0.6,0.8
2022-05-30T12:00:00,1169A,120.86,32.0005,南通市,虹桥,,37,37,38,25,31,131,115,57,57,6,43,7,9,0.6,0.8
2022-05-30T12:00:00,1170A,120.87,32.02,南通市,城中,,38,37,40,26,38,131,106,56,56,8,39,9,9,0.5,0.8
2022-05-30T12:00:00,1171A,120.94,31.93,南通市,星湖花园,,48,48,34,17,23,136,117,55,55,6,39,6,7,0.7,0.9
2022-05-30T12:00:00,1172A,120.81,32.0417,南通市,紫琅学院,,33,25,44,19,26,127,104,56,56,9,48,7,10,0.6,0.9
2022-05-30T12:00:00,1173A,119.176,34.5885,连云港市,市环境监测站,,,,40,,14,140,106,94,87,5,12,2,7,,0.4
2022-05-30T12:00:00,1177A,117.179,34.2761,徐州市,黄河新村,颗粒物(PM10),52,53,59,7,14,167,132,99,94,14,20,3,5,0.3,0.5
2022-05-30T12:00:00,1178A,117.1918,34.2384,徐州市,淮塔,,44,43,50,7,16,160,138,105,101,11,16,9,10,0.4,0.6
2022-05-30T12:00:00,1180A,117.256,34.2153,徐州市,新城区,颗粒物(PM10),52,54,61,8,19,151,128,98,96,10,15,7,8,0.6,0.7
2022-05-30T12:00:00,1181A,117.244,34.2911,徐州市,桃园路,颗粒物(PM10),53,56,55,6,18,163,137,105,98,13,21,11,12,0.3,0.5
2022-05-30T12:00:00,1182A,117.2933,34.2778,徐州市,农科院,,41,41,56,2,11,153,126,97,89,23,33,6,6,0.4,0.6
2022-05-30T12:00:00,1186A,119.389,32.3761,扬州市,邗江监测站,,,61,60,28,27,154,,34,34,7,26,11,10,0.9,1
2022-05-30T12:00:00,1188A,120.269,31.4867,无锡市,雪浪,臭氧1小时,69,66,26,36,15,175,175,61,61,13,17,12,9,1.3,1.1
2022-05-30T12:00:00,1189A,120.275,31.6219,无锡市,黄巷,"颗粒物(PM10),细颗粒物(PM2.5),臭氧1小时",62,73,26,44,16,169,169,59,59,13,24,11,7,1.2,1.1
2022-05-30T12:00:00,1190A,120.294,31.56,无锡市,曹张,臭氧1小时,57,57,26,34,14,165,165,52,52,13,24,8,6,1.2,1
2022-05-30T12:00:00,1191A,120.242,31.5031,无锡市,漆塘,臭氧1小时,63,68,16,36,13,170,170,64,64,21,20,8,6,1.2,0.9
2022-05-30T12:00:00,1192A,120.3489,31.5863,无锡市,东亭,臭氧1小时,72,83,32,41,19,177,177,61,61,11,17,10,8,1.1,1
2022-05-30T12:00:00,1193A,120.354,31.5475,无锡市,旺庄,臭氧1小时,73,70,26,46,17,178,178,58,58,17,29,10,6,1.1,0.9
2022-05-30T12:00:00,1194A,120.245,31.5631,无锡市,荣巷,细颗粒物(PM2.5),67,70,23,48,17,167,167,61,61,16,18,13,10,1.0,0.7
2022-05-30T12:00:00,1195A,120.299,31.6817,无锡市,堰桥,臭氧1小时,64,63,29,41,16,171,171,71,71,6,22,12,7,1.2,1
2022-05-30T12:00:00,1196A,119.9633,31.762,常州市,市监测站,颗粒物(PM10),87,124,38,51,16,123,123,39,39,26,30,10,7,1.0,0.9
2022-05-30T12:00:00,1200A,119.9468,31.7069,常州市,武进监测站,细颗粒物(PM2.5),105,122,39,79,29,166,166,62,62,17,19,10,7,1.0,1
2022-05-30T12:00:00,1201A,119.9255,31.9087,常州市,安家,细颗粒物(PM2.5),95,109,46,71,30,142,134,59,59,8,25,8,8,0.9,1
2022-05-30T12:00:00,1203A,119.6707,32.1875,镇江市,新区办事处,,48,48,47,29,32,122,112,56,56,24,30,7,11,0.7,1.1
2022-05-30T12:00:00,1204A,119.4974,32.1968,镇江市,职教中心,颗粒物(PM10),57,64,38,32,20,126,118,62,59,13,20,5,5,1.0,1
2022-05-30T12:00:00,1205A,119.4303,32.1328,镇江市,丹徒区监测站,细颗粒物(PM2.5),85,58,34,63,30,145,135,71,71,13,20,7,5,0.8,0.9
2022-05-30T12:00:00,1206A,119.905,32.4878,泰州市,公园路,颗粒物(PM10),51,51,57,27,42,142,82,47,47,15,30,5,7,0.7,1.1
2022-05-30T12:00:00,1207A,119.9189,32.4625,泰州市,莲花,,49,49,52,29,42,142,92,55,55,9,24,5,6,0.8,1
2022-05-30T12:00:00,1209A,119.888,32.4639,泰州市,留学生创业园,颗粒物(PM10),52,53,55,34,41,151,98,56,56,8,32,6,8,0.5,0.8
2022-05-30T12:00:00,1210A,119.036,33.5981,淮安市,钵池山,颗粒物(PM10),57,63,42,7,20,150,123,92,92,10,19,7,7,0.5,0.7
2022-05-30T12:00:00,1211A,119.007,33.575,淮安市,北京南路,颗粒物(PM10),54,58,46,10,22,140,124,95,95,12,20,10,10,0.6,0.8
2022-05-30T12:00:00,1212A,118.989,33.6067,淮安市,市监测站,颗粒物(PM10),65,80,54,4,27,145,117,89,89,10,18,10,11,0.5,0.9
2022-05-30T12:00:00,1213A,119.135,33.5039,淮安市,楚州区监测站,颗粒物(PM10),51,52,33,9,27,133,109,89,89,8,14,8,9,0.4,0.7
2022-05-30T12:00:00,1214A,119.0186,33.6297,淮安市,淮阴区监测站,,49,49,40,5,21,133,117,85,85,9,22,8,9,0.4,0.8
2022-05-30T12:00:00,1215A,120.118,33.4022,盐城市,盐城电厂,颗粒物(PM10),52,53,51,11,41,160,125,98,98,11,16,4,4,0.5,0.8
2022-05-30T12:00:00,1216A,120.156,33.3942,盐城市,市监测站,,40,32,41,10,18,141,125,101,101,10,15,8,9,0.2,0.4
2022-05-30T12:00:00,1218A,120.2144,33.38,盐城市,开发区管委会,,43,43,44,4,29,148,114,88,88,6,13,5,5,0.2,0.5
2022-05-30T12:00:00,1220A,118.293,33.9528,宿迁市,宿迁学院,颗粒物(PM10),52,53,45,10,20,160,127,92,92,6,18,6,7,0.2,0.4
2022-05-30T12:00:00,1221A,118.2442,33.9592,宿迁市,宿迁中学,,42,23,31,6,13,154,132,97,97,8,11,7,8,0.6,0.6
2022-05-30T12:00:00,1223A,120.2072,30.2111,杭州市,滨江,,,30,24,,15,34,30,18,18,31,36,3,3,0.9,1
2022-05-30T12:00:00,1224A,120.0633,30.2747,杭州市,西溪,,,21,18,9,10,55,55,18,18,16,19,,8,0.7,0.9
2022-05-30T12:00:00,1226A,120.3461,30.3153,杭州市,下沙,,32,32,25,19,15,72,72,31,31,26,35,5,5,0.6,0.8
2022-05-30T12:00:00,1227A,120.1269,30.2456,杭州市,卧龙桥,,26,26,17,14,9,29,24,13,13,20,19,5,5,0.9,0.8
2022-05-30T12:00:00,1228A,120.1903,30.2692,杭州市,浙江农大,,19,19,19,13,16,46,46,22,22,21,29,4,4,0.7,0.9
2022-05-30T12:00:00,1230A,120.1197,30.3119,杭州市,和睦小学,,26,26,27,14,14,70,70,25,25,20,30,3,3,0.8,1.1
2022-05-30T12:00:00,1231A,120.3019,30.4183,杭州市,临平镇,,37,30,30,14,15,116,116,38,38,17,34,3,3,0.8,1.1
2022-05-30T12:00:00,1232A,120.2697,30.1819,杭州市,城厢镇,,36,33,22,25,17,34,31,19,19,27,32,6,7,0.7,0.8
2022-05-30T12:00:00,1233A,120.0883,30.1808,杭州市,云栖,,43,43,23,18,8,26,22,12,12,38,26,7,7,0.9,0.7
2022-05-30T12:00:00,1234A,121.8358,29.911,宁波市,区环保大楼,,43,39,39,30,29,23,10,2,2,53,60,7,8,0.7,0.8
2022-05-30T12:00:00,1235A,121.56,29.82,宁波市,万里学院,,40,36,33,28,27,27,16,7,7,41,41,15,10,1.0,0.9
2022-05-30T12:00:00,1236A,121.713,29.9572,宁波市,龙赛医院,细颗粒物(PM2.5),52,45,29,36,19,43,10,6,6,52,50,8,8,1.0,0.9
2022-05-30T12:00:00,1239A,121.633,29.7733,宁波市,钱湖水厂,,,37,24,37,23,43,,21,8,41,22,,6,1.0,0.8
2022-05-30T12:00:00,1240A,121.5856,29.8635,宁波市,太古小学,,50,42,34,35,24,33,15,7,7,54,47,15,11,1.0,1
2022-05-30T12:00:00,1241A,121.524,29.8674,宁波市,市环境监测中心,,48,48,40,32,24,23,4,1,1,52,45,14,9,0.9,0.9
2022-05-30T12:00:00,1242A,120.634,28.0089,温州市,瓯海,,27,27,71,14,46,171,22,7,7,29,56,5,6,0.6,1
2022-05-30T12:00:00,1243A,120.6748,27.9939,温州市,南浦,,33,33,84,22,48,166,27,10,10,37,61,7,7,0.8,1.2
2022-05-30T12:00:00,1244A,120.76,27.9747,温州市,龙湾,颗粒物(PM10),52,53,68,23,29,114,10,5,5,57,66,5,6,0.8,0.8
2022-05-30T12:00:00,1245A,120.6709,28.0167,温州市,市站,,32,32,78,14,46,170,28,10,10,27,55,6,6,0.6,1
2022-05-30T12:00:00,1247A,120.6053,29.9928,绍兴市,城东开发委,,22,22,25,12,19,42,42,26,20,11,18,6,6,0.7,0.7
2022-05-30T12:00:00,1250A,120.0751,30.8669,湖州市,城西水厂,,44,44,24,28,10,103,103,33,33,18,27,5,5,0.7,0.5
2022-05-30T12:00:00,1252A,120.7436,30.778,嘉兴市,清河小学,,40,29,15,14,11,128,128,52,52,8,28,8,7,0.6,0.7
2022-05-30T12:00:00,1253A,120.726,30.7478,嘉兴市,嘉兴学院,,40,30,24,27,19,127,127,51,51,12,34,6,5,0.7,0.7
2022-05-30T12:00:00,1255A,121.273,28.6459,台州市,黄岩环保大楼,,41,41,57,22,29,77,49,17,17,21,33,5,6,0.6,0.8
2022-05-30T12:00:00,1256A,121.419,28.6542,台州市,台州环保大楼,,48,48,75,27,44,80,28,13,13,30,48,4,5,0.7,1
2022-05-30T12:00:00,1257A,121.377,28.5773,台州市,路桥田洋王,,38,32,72,26,54,108,39,17,17,32,46,4,7,0.6,1.1
2022-05-30T12:00:00,1258A,122.122,30.0203,舟山市,定海檀枫,,42,39,26,29,18,41,26,10,10,40,45,4,3,0.7,0.7
2022-05-30T12:00:00,1259A,122.3094,29.9558,舟山市,普陀东港,,49,31,20,34,16,52,34,22,22,37,37,3,4,0.7,0.6
2022-05-30T12:00:00,1260A,122.19,29.9944,舟山市,临城新区,,43,43,26,25,15,52,16,13,8,52,43,2,3,0.7,0.6
2022-05-30T12:00:00,1262A,119.647,29.077,金华市,十五中,,26,17,53,18,37,84,23,9,9,22,29,5,9,0.6,1
2022-05-30T12:00:00,1263A,119.686,29.1029,金华市,监测站,,23,17,46,16,27,95,32,12,12,21,31,4,6,0.7,0.9
2022-05-30T12:00:00,1264A,118.8692,28.9398,衢州市,环保大楼,,15,3,39,10,18,48,44,18,11,15,22,5,10,0.5,0.7
2022-05-30T12:00:00,1265A,118.8709,28.9666,衢州市,实验学校,,15,15,30,9,18,41,35,15,7,19,25,2,3,0.6,0.6
2022-05-30T12:00:00,1266A,118.8621,28.9808,衢州市,衢州学院,,,9,29,7,14,64,,28,5,30,25,5,3,0.6,0.7
2022-05-30T12:00:00,1267A,119.914,28.4514,丽水市,监测站大楼,,15,13,32,7,14,96,47,17,17,15,16,5,5,0.5,0.6
2022-05-30T12:00:00,1268A,119.93,28.4586,丽水市,莲都小学,,18,7,40,5,14,105,57,18,18,12,15,5,6,0.3,0.4
2022-05-30T12:00:00,1269A,119.879,28.4231,丽水市,余庄前,,13,9,30,8,12,79,39,14,14,14,10,5,5,0.4,0.5
2022-05-30T12:00:00,1270A,117.1959,31.7848,合肥市,明珠广场,,33,24,38,14,14,106,103,56,56,22,30,5,6,0.7,0.7
2022-05-30T12:00:00,1271A,117.3072,31.8764,合肥市,三里街,,27,24,46,7,14,113,84,47,47,16,33,9,9,0.6,0.7
2022-05-30T12:00:00,1272A,117.2588,31.8707,合肥市,琥珀山庄,,30,21,39,9,13,124,93,52,52,19,30,8,8,0.7,0.8
2022-05-30T12:00:00,1273A,117.1604,31.9052,合肥市,董铺水库(对照点),,29,22,34,7,7,112,90,45,45,10,21,8,8,0.7,0.7
2022-05-30T12:00:00,1274A,117.25,31.8571,合肥市,长江中路,,33,24,44,7,17,126,105,65,65,17,34,7,7,0.6,0.7
2022-05-30T12:00:00,1276A,117.336,31.8586,合肥市,瑶海区,,,15,59,6,20,116,96,39,39,,30,6,7,0.6,0.7
2022-05-30T12:00:00,1277A,117.3027,31.7964,合肥市,包河区,,31,31,46,9,19,110,91,43,43,29,38,7,7,0.5,0.6
2022-05-30T12:00:00,1278A,117.2776,31.7385,合肥市,滨湖新区,,47,47,45,14,17,118,108,51,51,20,31,8,8,0.3,0.5
2022-05-30T12:00:00,1279A,117.1318,31.8403,合肥市,高新区,,34,28,40,9,15,116,107,52,52,15,26,8,8,0.9,0.9
2022-05-30T12:00:00,1280A,119.3903,26.0543,福州市,鼓山(对照点),,43,41,28,30,14,102,102,53,53,5,6,4,3,0.1,0.1
2022-05-30T12:00:00,1282A,119.2681,26.0504,福州市,师大,,28,27,31,16,12,88,88,40,40,4,13,3,3,0.2,0.3
2022-05-30T12:00:00,1283A,119.2984,26.1028,福州市,五四北路,,31,30,37,18,13,97,97,38,38,8,17,3,3,0.4,0.4
2022-05-30T12:00:00,1284A,119.2648,26.0768,福州市,杨桥西路,,,,33,20,13,95,95,30,30,8,17,,3,0.3,0.3
2022-05-30T12:00:00,1285A,119.317,26.0746,福州市,紫阳,,44,44,36,18,13,109,109,41,41,9,17,5,5,0.5,0.5
2022-05-30T12:00:00,1286A,118.1608,24.8169,厦门市,溪东(对照点),,30,23,26,21,26,80,80,31,31,8,7,2,2,0.5,0.4
2022-05-30T12:00:00,1287A,118.1514,24.4767,厦门市,洪文,,15,9,11,5,4,45,45,30,30,18,16,7,4,0.5,0.5
2022-05-30T12:00:00,1290A,115.8931,28.6843,南昌市,省外办,,25,23,40,17,33,62,62,26,26,14,19,2,3,0.8,1.1
2022-05-30T12:00:00,1291A,115.8886,28.7003,南昌市,省林业公司,,,13,42,0,12,74,74,34,34,,26,,11,0.9,1.1
2022-05-30T12:00:00,1292A,115.8126,28.7442,南昌市,林科所,,24,7,26,2,19,76,76,28,28,9,17,6,7,0.5,0.8
2022-05-30T12:00:00,1294A,115.8518,28.687,南昌市,建工学校,,30,20,37,21,32,72,72,25,25,10,26,8,8,0.5,0.9
2022-05-30T12:00:00,1295A,115.8921,28.6424,南昌市,象湖,,23,5,34,4,20,73,73,26,26,4,21,1,2,0.7,1
2022-05-30T12:00:00,1296A,115.7423,28.7996,南昌市,武术学校(对照点),,22,15,27,15,17,70,70,31,31,3,4,21,20,0.5,0.6
2022-05-30T12:00:00,1298A,115.9314,28.6842,南昌市,省站,,25,25,47,8,18,75,75,32,32,18,28,7,9,0.5,0.7
2022-05-30T12:00:00,1299A,116.9862,36.6114,济南市,科干所,,39,34,44,12,13,187,124,84,84,17,13,14,14,0.4,0.5
2022-05-30T12:00:00,1300A,116.9376,36.665,济南市,农科所,,34,29,60,5,12,176,107,58,54,16,30,10,12,0.3,0.4
2022-05-30T12:00:00,1301A,117.1265,36.6734,济南市,开发区,,36,34,55,5,14,187,114,64,64,20,24,12,12,0.3,0.4
2022-05-30T12:00:00,1303A,117.0624,36.6868,济南市,省种子仓库,,37,36,73,17,20,177,116,56,56,11,23,13,14,0.5,0.6
2022-05-30T12:00:00,1304A,116.9489,36.6447,济南市,机床二厂,颗粒物(PM10),59,68,75,7,12,177,114,62,62,17,23,8,9,0.4,0.4
2022-05-30T12:00:00,1305A,117.0495,36.663,济南市,市监测站,,37,32,51,0,9,184,118,66,66,16,24,9,10,0.4,0.5
2022-05-30T12:00:00,1306A,116.7675,36.5484,济南市,长清党校,,39,27,74,10,14,188,122,78,52,8,27,10,14,0.6,0.7
2022-05-30T12:00:00,1307A,120.6659,36.2403,青岛市,仰口(对照点),颗粒物(PM10),64,78,16,9,9,93,84,79,77,9,8,5,6,0,0.1
2022-05-30T12:00:00,1310A,120.4134,36.0658,青岛市,市南区东部子站,,34,34,15,5,5,105,97,84,82,13,8,6,5,0.3,0.2
2022-05-30T12:00:00,1311A,120.3664,36.1032,青岛市,四方区子站,,44,44,17,12,9,105,96,84,79,19,11,5,5,0.5,0.6
2022-05-30T12:00:00,1312A,120.2994,36.054,青岛市,市南区西部子站,,34,34,12,7,4,128,108,92,89,20,13,6,6,0.3,0.5
2022-05-30T12:00:00,1313A,120.4581,36.0858,青岛市,崂山区子站,颗粒物(PM10),62,73,17,5,4,115,102,91,88,10,14,7,7,0.3,0.3
2022-05-30T12:00:00,1314A,120.1983,35.9608,青岛市,黄岛区子站,,35,34,14,7,9,123,109,81,81,21,27,5,5,0.2,0.3
2022-05-30T12:00:00,1315A,120.3999,36.3083,青岛市,城阳区子站,,41,41,22,7,9,116,99,85,81,7,9,5,5,0.2,0.4
2022-05-30T12:00:00,1316A,113.69031,34.76122,郑州市,烟厂,,,60,84,,17,222,143,122,92,8,13,6,9,0.4,0.5
2022-05-30T12:00:00,1317A,113.65724,34.77134,郑州市,郑纺机,,45,39,86,12,21,208,143,118,94,7,11,8,10,0.5,0.7
2022-05-30T12:00:00,1318A,113.67526,34.80246,郑州市,银行学校,,46,34,75,6,29,224,146,124,95,10,15,8,10,0.4,0.6
2022-05-30T12:00:00,1319A,113.56746,34.81334,郑州市,供水公司,,44,38,85,6,16,208,139,125,96,11,16,7,9,0.2,0.4
2022-05-30T12:00:00,1320A,113.7329,34.7178,郑州市,经开区管委,,43,26,76,8,24,219,136,117,90,10,16,6,7,0.4,0.6
2022-05-30T12:00:00,1321A,113.73961,34.77172,郑州市,四十七中,,42,40,83,19,25,217,134,98,87,11,16,8,10,0.3,0.5
2022-05-30T12:00:00,1322A,113.60532,34.74838,郑州市,市监测站,,46,46,85,9,8,195,142,124,97,14,14,8,10,0.4,0.5
2022-05-30T12:00:00,1323A,113.64164,34.7525,郑州市,河医大,颗粒物(PM10),54,58,101,9,22,211,139,123,90,8,13,6,7,0.4,0.5
2022-05-30T12:00:00,1324A,113.51488,34.91089,郑州市,岗李水库(对照点),颗粒物(PM10),51,51,86,17,25,202,139,118,91,8,13,9,8,0.3,0.5
2022-05-30T12:00:00,1325A,114.3677,30.5584,武汉市,东湖梨园,颗粒物(PM10),59,68,27,32,15,118,118,44,44,8,18,8,7,1.0,1
2022-05-30T12:00:00,1326A,114.2529,30.558,武汉市,汉阳月湖,颗粒物(PM10),62,74,31,31,10,114,114,45,45,18,28,8,7,0.8,0.9
2022-05-30T12:00:00,1327A,114.282,30.6189,武汉市,汉口花桥,,,,23,,17,96,,65,65,,32,,10,,0.9
2022-05-30T12:00:00,1328A,114.3025,30.5332,武汉市,武昌紫阳,细颗粒物(PM2.5),93,65,35,69,16,104,95,40,40,25,30,6,7,0.8,0.8
2022-05-30T12:00:00,1329A,114.3646,30.6217,武汉市,青山钢花,颗粒物(PM10),58,66,36,31,19,120,118,40,40,12,30,9,8,0.8,0.9
2022-05-30T12:00:00,1330A,114.1566,30.4825,武汉市,沌口新区,"颗粒物(PM10),细颗粒物(PM2.5)",58,65,34,41,16,96,96,38,38,22,29,7,8,1.0,0.9
2022-05-30T12:00:00,1331A,114.3014,30.5944,武汉市,汉口江滩,颗粒物(PM10),62,74,37,43,16,110,110,26,26,20,51,8,7,0.8,0.9
2022-05-30T12:00:00,1333A,114.135,30.6319,武汉市,吴家山,颗粒物(PM10),59,68,33,34,13,114,114,50,50,13,22,8,7,0.9,0.8
2022-05-30T12:00:00,1334A,113.8454,30.2917,武汉市,沉湖七壕(对照点),,34,34,21,9,11,78,69,40,40,7,9,6,6,0.9,0.9
2022-05-30T12:00:00,1335A,113.0833,28.2325,长沙市,经开区环保局,,24,6,14,10,13,86,76,76,54,11,17,3,3,0.9,1
2022-05-30T12:00:00,1336A,112.8872,28.2189,长沙市,高开区环保局,,23,7,10,8,13,72,72,68,52,16,13,6,6,0.3,0.4
2022-05-30T12:00:00,1337A,113.0792,28.2053,长沙市,马坡岭,,22,5,14,5,7,95,68,67,51,14,17,3,3,0.5,0.5
2022-05-30T12:00:00,1338A,112.9394,28.19,长沙市,湖南师范大学,,28,7,13,3,3,89,89,78,55,14,11,3,2,0.6,0.5
2022-05-30T12:00:00,1339A,113.0178,28.1322,长沙市,雨花区环保局,,21,4,13,8,12,79,67,77,56,12,14,4,5,0.5,0.4
2022-05-30T12:00:00,1340A,112.9792,28.2597,长沙市,伍家岭,,,18,16,14,21,80,73,70,44,16,20,,6,0.7,0.7
2022-05-30T12:00:00,1341A,113.0014,28.1944,长沙市,火车新站,,26,8,16,18,9,73,61,71,41,20,19,5,5,0.4,0.4
2022-05-30T12:00:00,1342A,112.9844,28.1178,长沙市,天心区环保局,,22,11,16,6,9,81,70,81,62,7,8,4,4,0.6,0.6
2022-05-30T12:00:00,1343A,112.8908,28.1308,长沙市,湖南中医药大学,,22,8,19,12,17,70,70,69,53,13,13,2,2,0.6,0.7
2022-05-30T12:00:00,1345A,113.2347,23.1423,广州市,广雅中学,,26,26,25,13,11,114,74,37,37,12,17,4,4,0.7,0.7
2022-05-30T12:00:00,1346A,113.2612,23.105,广州市,市五中,,25,22,23,11,12,117,80,57,57,12,14,4,4,0.2,0.5
2022-05-30T12:00:00,1348A,113.3478,23.0916,广州市,广东商学院,,,18,21,10,10,91,,29,29,11,21,4,4,0.6,0.6
2022-05-30T12:00:00,1349A,113.4332,23.1047,广州市,市八十六中,,19,19,23,8,9,68,60,26,26,17,25,7,7,0.3,0.3
2022-05-30T12:00:00,1350A,113.3505,22.9483,广州市,番禺中学,,22,16,20,7,9,97,70,38,38,3,11,9,9,0.3,0.4
2022-05-30T12:00:00,1351A,113.2146,23.3916,广州市,花都师范,,29,27,28,14,13,130,92,36,36,14,21,3,3,0.5,0.5
2022-05-30T12:00:00,1352A,113.2597,23.1331,广州市,市监测站,,27,27,26,10,11,123,83,40,40,10,15,5,5,0.6,0.5
2022-05-30T12:00:00,1353A,113.5618,23.312,广州市,九龙镇镇龙,,36,36,37,15,14,89,63,23,23,22,29,6,6,0.5,0.6
2022-05-30T12:00:00,1354A,113.2765,23.1544,广州市,麓湖,,27,22,21,11,11,120,84,43,43,9,14,3,3,0.7,0.7
2022-05-30T12:00:00,1355A,113.443,23.3035,广州市,帽峰山森林公园(对照点),,27,20,19,13,10,99,84,39,39,12,17,5,5,0.7,0.7
2022-05-30T12:00:00,1356A,114.1063,22.5545,深圳市,通心岭子站,,,21,14,13,6,59,35,37,27,,8,3,3,,0.5
2022-05-30T12:00:00,1357A,114.117,22.5625,深圳市,洪湖,,30,30,17,14,7,63,26,40,26,26,13,6,6,0.4,0.3
2022-05-30T12:00:00,1358A,113.987,22.5417,深圳市,华侨城,,14,14,17,6,5,50,43,28,28,15,19,4,4,0.3,0.3
2022-05-30T12:00:00,1359A,113.9181,22.5171,深圳市,南海子站,,19,14,16,8,4,61,60,43,43,14,15,4,3,0.7,0.6
2022-05-30T12:00:00,1360A,114.2458,22.5689,深圳市,盐田,,15,10,14,7,5,71,48,26,24,11,15,2,2,0.6,0.6
2022-05-30T12:00:00,1361A,114.2283,22.7244,深圳市,龙岗,,21,21,19,6,6,72,46,37,32,17,21,4,4,0.6,0.5
2022-05-30T12:00:00,1363A,114.494,22.5422,深圳市,南澳,,18,10,14,4,5,64,56,42,42,4,6,8,7,0.4,0.3
2022-05-30T12:00:00,1364A,114.41,22.6342,深圳市,葵涌,,16,10,13,3,4,60,49,40,40,2,4,7,5,0.4,0.4
2022-05-30T12:00:00,1365A,114.297,22.5978,深圳市,梅沙,,18,18,21,5,5,75,52,35,35,12,12,5,5,0.3,0.3
2022-05-30T12:00:00,1366A,114.0678,22.738,深圳市,观澜,,42,42,26,25,12,58,32,20,14,20,19,6,5,0.6,0.5
2022-05-30T12:00:00,1367A,113.5814,22.2618,珠海市,吉大,,20,10,13,7,5,62,62,46,46,1,3,6,6,0.4,0.4
2022-05-30T12:00:00,1368A,113.4881,22.2335,珠海市,前山,,18,12,13,8,5,59,56,46,41,10,9,8,8,0.2,0.2
2022-05-30T12:00:00,1369A,113.628,22.4251,珠海市,唐家,,22,9,10,8,5,72,69,46,44,3,6,8,8,0.3,0.3
2022-05-30T12:00:00,1370A,113.299,22.2281,珠海市,斗门,,16,9,14,9,7,63,49,39,39,7,6,8,9,0.4,0.4
2022-05-30T12:00:00,1371A,113.1294,23.0067,佛山市,湾梁,,36,36,26,12,12,98,59,32,32,11,8,5,5,0.5,0.5
2022-05-30T12:00:00,1372A,113.1083,23.0478,佛山市,华材职中,,24,24,23,12,12,120,69,48,48,12,10,6,7,0.6,0.5
2022-05-30T12:00:00,1373A,113.144,23.0453,佛山市,南海气象局,,30,30,28,11,14,104,72,39,39,18,18,4,4,0.6,0.6
2022-05-30T12:00:00,1374A,113.2881,22.8094,佛山市,顺德苏岗,,,20,14,7,6,84,,30,26,12,12,5,4,0.7,0.7
2022-05-30T12:00:00,1376A,112.8383,22.8678,佛山市,高明孔堂,,30,30,23,12,9,88,88,44,44,8,8,5,6,0.5,0.5
2022-05-30T12:00:00,1377A,112.8836,23.1588,佛山市,三水监测站,,27,27,30,18,16,94,85,31,31,11,25,6,5,0.6,0.7
2022-05-30T12:00:00,1378A,112.867,23.185,佛山市,三水云东海,,34,27,29,9,7,109,106,39,39,13,22,5,5,0.4,0.5
2022-05-30T12:00:00,1379A,113.3769,22.5211,中山市,华柏园,,20,20,19,8,8,68,52,39,36,8,8,2,3,0.5,0.5
2022-05-30T12:00:00,1380A,113.3881,22.5497,中山市,张溪,,26,26,26,9,7,72,54,43,35,10,8,5,5,0.6,0.6
2022-05-30T12:00:00,1381A,113.4075,22.5111,中山市,紫马岭,,20,20,21,7,8,70,52,32,32,7,8,2,3,0.5,0.6
2022-05-30T12:00:00,1382A,113.4411,22.4853,中山市,长江旅游区(对照点),,17,2,13,6,7,72,52,31,25,6,5,3,3,0.4,0.4
2022-05-30T12:00:00,1383A,113.1064,22.6058,江门市,北街,,,,20,,7,74,41,39,39,10,9,,5,0.5,0.4
2022-05-30T12:00:00,1384A,113.0731,22.5835,江门市,西区,,22,22,22,11,11,74,62,43,43,11,9,4,4,0.4,0.4
2022-05-30T12:00:00,1385A,113.0219,22.5311,江门市,圭峰西,,,,23,11,13,66,57,40,40,6,10,4,3,0.4,0.4
2022-05-30T12:00:00,1386A,113.0828,22.5947,江门市,东湖,,20,19,22,6,9,78,62,45,45,10,9,5,6,0.4,0.4
2022-05-30T12:00:00,1389A,113.7547,23.0494,东莞市,莞城梨川,,29,21,22,11,10,92,92,43,43,14,19,7,7,0.6,0.6
2022-05-30T12:00:00,1390A,113.7944,23.0128,东莞市,东城石井,,33,20,21,11,9,104,104,38,38,14,18,4,4,0.5,0.5
2022-05-30T12:00:00,1391A,113.7383,22.9658,东莞市,南城西平,,30,25,21,6,7,93,93,40,40,13,19,1,2,0.6,0.6
2022-05-30T12:00:00,1392A,114.4183,23.0528,惠州市,河南岸金山湖子站,,,,20,,7,88,,27,27,9,7,2,2,0.5,0.5
2022-05-30T12:00:00,1393A,114.4053,23.0822,惠州市,下埔横江三路子站,,24,24,18,8,7,93,56,38,38,10,11,2,3,0.4,0.4
2022-05-30T12:00:00,1394A,114.4103,23.1142,惠州市,江北云山西路子站,,18,10,20,7,8,102,55,34,34,5,8,5,6,0.4,0.4
2022-05-30T12:00:00,1395A,114.4645,22.7833,惠州市,惠阳区承修路船湖子站,,,18,18,,5,34,30,20,20,12,11,3,3,0.6,0.5
2022-05-30T12:00:00,1396A,114.5317,22.7422,惠州市,大亚湾管委会子站,,29,29,21,6,8,62,62,35,35,6,13,5,5,0.2,0.2
2022-05-30T12:00:00,1397A,112.4267,23.0706,肇庆市,睦岗子站,,32,31,28,22,15,87,79,44,44,13,13,11,11,0.6,0.6
2022-05-30T12:00:00,1398A,112.4645,23.0475,肇庆市,城中子站,,26,26,28,13,13,76,65,34,34,16,14,10,12,0.5,0.5
2022-05-30T12:00:00,1399A,112.5544,23.1522,肇庆市,坑口子站,,33,33,28,16,14,93,84,46,42,5,7,6,7,0.5,0.5
2022-05-30T12:00:00,1400A,112.4753,23.1,肇庆市,七星岩子站(对照点),,26,26,25,15,13,85,79,43,43,2,6,11,14,0.6,0.6
2022-05-30T12:00:00,1401A,108.3103,22.7881,南宁市,二十一中,,37,37,35,22,19,98,82,51,51,10,10,6,6,0.6,0.6
2022-05-30T12:00:00,1402A,108.3141,22.8528,南宁市,北湖,,42,40,39,29,21,95,88,54,54,9,9,5,5,0.7,0.7
2022-05-30T12:00:00,1403A,108.3206,22.8225,南宁市,市监测站,,35,35,35,23,19,102,88,52,52,11,13,8,8,0.8,0.8
2022-05-30T12:00:00,1404A,108.3829,22.8037,南宁市,大自然花园,,41,41,32,20,18,94,86,56,56,8,9,7,7,0.7,0.7
2022-05-30T12:00:00,1405A,108.4394,22.7904,南宁市,仙葫(对照点),,36,36,37,17,20,91,77,49,48,8,15,4,4,0.4,0.5
2022-05-30T12:00:00,1406A,108.2397,22.8467,南宁市,区农职院,,38,37,35,26,21,104,96,57,57,15,17,6,6,0.7,0.8
2022-05-30T12:00:00,1407A,108.3275,22.735,南宁市,英华嘉园,,38,38,41,21,19,81,72,45,45,14,18,5,5,0.6,0.6
2022-05-30T12:00:00,1408A,108.2257,22.7757,南宁市,沙井镇街道办,,31,31,43,21,20,84,81,42,42,9,20,5,6,0.6,0.7
2022-05-30T12:00:00,1409A,110.576,19.9507,海口市,东寨港(对照点),颗粒物(PM10),56,62,23,15,10,40,40,16,16,3,3,2,3,0.1,0.3
2022-05-30T12:00:00,1410A,110.3232,20.0574,海口市,海南大学,,35,35,24,23,18,89,89,62,57,2,2,5,5,0.5,0.5
2022-05-30T12:00:00,1411A,110.283,20.0053,海口市,秀英海南医院,,27,27,26,16,12,93,67,39,39,7,16,3,3,0.3,0.3
2022-05-30T12:00:00,1412A,110.338,19.9969,海口市,海南师范大学,,21,19,25,10,10,75,66,37,37,2,2,3,2,0.4,0.4
2022-05-30T12:00:00,1413A,110.33,20.0356,海口市,龙华路环保局宿舍,,38,38,27,19,11,87,78,50,50,8,4,3,4,0.6,0.5
2022-05-30T12:00:00,1414A,106.3787,29.8279,重庆市,缙云山(对照点),,35,35,26,23,16,104,50,93,73,17,10,10,10,0.6,0.5
2022-05-30T12:00:00,1416A,106.4213,29.8253,重庆市,天生,,,,45,,23,88,59,15,14,21,32,10,6,,1.1
2022-05-30T12:00:00,1417A,106.6263,29.7228,重庆市,两路,,41,41,40,25,26,105,62,33,33,48,53,14,10,0.8,0.8
2022-05-30T12:00:00,1418A,106.2953,29.5983,重庆市,虎溪,,37,37,33,21,25,95,61,21,21,28,24,18,8,1.1,1
2022-05-30T12:00:00,1419A,106.5777,29.5102,重庆市,南坪,,,35,39,14,23,87,,66,24,46,30,13,10,0.8,0.6
2022-05-30T12:00:00,1420A,106.6556,29.6277,重庆市,唐家沱,,43,43,39,15,22,65,26,22,12,52,49,7,7,0.6,0.6
2022-05-30T12:00:00,1421A,106.6349,29.4906,重庆市,茶园,,27,27,34,7,19,100,59,43,32,29,36,11,8,0.5,0.5
2022-05-30T12:00:00,1422A,106.3754,29.4572,重庆市,白市驿,,44,44,32,25,20,76,65,66,34,25,20,29,9,1.1,1
2022-05-30T12:00:00,1425A,106.6205,29.7166,重庆市,空港,,,45,43,29,30,100,,29,28,44,43,9,6,1.0,1
2022-05-30T12:00:00,1426A,106.4782,29.4875,重庆市,新山村,,45,45,40,26,23,78,40,20,20,46,48,30,16,1.2,1.2
2022-05-30T12:00:00,1427A,106.5616,29.6453,重庆市,礼嘉,,42,35,40,22,23,66,26,17,17,84,68,13,10,0.7,0.7
2022-05-30T12:00:00,1428A,106.4522,29.7091,重庆市,蔡家,,40,40,27,23,17,87,40,18,14,43,29,13,6,0.7,0.6
2022-05-30T12:00:00,1429A,106.5093,29.3917,重庆市,鱼新街,,45,45,35,28,23,74,39,27,17,46,37,38,16,1.0,1
2022-05-30T12:00:00,1431A,103.9728,30.7236,成都市,金泉两河,,49,49,59,34,44,160,113,23,23,33,33,4,3,0.7,0.7
2022-05-30T12:00:00,1432A,104.1419,30.6764,成都市,十里店,颗粒物(PM10),69,88,85,40,44,139,42,13,13,54,41,5,4,0.9,0.8
2022-05-30T12:00:00,1433A,104.0594,30.5767,成都市,三瓦窑,,,47,57,24,38,106,,14,10,37,46,6,6,0.6,0.7
2022-05-30T12:00:00,1434A,104.1122,30.6306,成都市,沙河铺,,,66,71,,35,135,59,16,16,52,42,3,2,0.8,0.7
2022-05-30T12:00:00,1437A,104.0431,30.6556,成都市,君平街,细颗粒物(PM2.5),82,74,73,60,60,153,63,20,20,58,48,7,5,1.0,0.8
2022-05-30T12:00:00,1438A,103.6202,31.0201,成都市,灵岩寺(对照点),,46,46,24,19,27,83,83,52,52,8,9,3,11,0.6,0.6
2022-05-30T12:00:00,1439A,106.6899,26.5998,贵阳市,马鞍山,,20,17,25,12,15,90,62,55,50,6,9,4,4,0.6,0.6
2022-05-30T12:00:00,1440A,106.6971,26.5694,贵阳市,市环保站,,25,19,29,13,18,78,78,56,56,15,16,8,8,0.4,0.4
2022-05-30T12:00:00,1441A,106.6243,26.6266,贵阳市,鉴湖路,,29,29,29,7,14,83,80,64,64,5,7,3,4,0.5,0.5
2022-05-30T12:00:00,1442A,106.7487,26.6343,贵阳市,燕子冲,,32,31,31,22,26,96,74,51,51,9,9,7,7,0.6,0.6
2022-05-30T12:00:00,1443A,106.6555,26.4365,贵阳市,碧云窝,,39,39,37,17,19,74,74,58,58,18,12,4,4,0.6,0.6
2022-05-30T12:00:00,1444A,106.694,26.5161,贵阳市,中院村,,27,27,30,9,14,81,81,60,60,11,10,5,3,0.4,0.5
2022-05-30T12:00:00,1445A,106.7109,26.6027,贵阳市,红边门,,28,27,29,19,26,88,86,67,67,3,7,12,9,0.1,0.2
2022-05-30T12:00:00,1446A,106.7164,26.5699,贵阳市,新华路,,24,23,23,9,18,82,76,62,62,10,9,6,3,0.4,0.5
2022-05-30T12:00:00,1447A,106.674,26.5424,贵阳市,太慈桥,,24,24,31,7,12,82,76,54,53,11,11,4,3,0.6,0.7
2022-05-30T12:00:00,1450A,102.8204,24.8886,昆明市,呈贡新区,,32,17,37,8,17,133,100,78,65,9,17,11,11,0.6,0.6
2022-05-30T12:00:00,1451A,102.6251,24.9608,昆明市,西山森林公园(对照点),,43,43,32,12,18,136,116,98,78,8,7,8,9,0.5,0.5
2022-05-30T12:00:00,1452A,102.7252,25.0902,昆明市,龙泉镇,,31,8,38,11,22,122,99,56,56,6,20,9,9,0.5,0.6
2022-05-30T12:00:00,1453A,102.7266,25.0375,昆明市,东风东路,,34,20,34,12,20,129,107,64,64,11,19,5,6,0.4,0.5
2022-05-30T12:00:00,1454A,102.6742,25.0669,昆明市,金鼎山,,34,23,35,12,20,122,107,64,64,7,20,8,9,0.5,0.6
2022-05-30T12:00:00,1455A,102.6644,25.0401,昆明市,碧鸡广场,,,22,40,18,24,129,,54,54,10,28,9,10,0.4,0.6
2022-05-30T12:00:00,1456A,91.1319,29.6514,拉萨市,八廓街,,32,14,25,8,13,152,100,97,91,7,11,5,6,0.3,0.3
2022-05-30T12:00:00,1457A,91.1221,29.6747,拉萨市,市环保局,,32,11,17,6,6,148,100,94,84,7,11,4,4,0.2,0.2
2022-05-30T12:00:00,1458A,91.0874,29.6475,拉萨市,区监测站,,30,9,18,6,5,144,95,99,90,8,11,7,7,0.3,0.2
2022-05-30T12:00:00,1459A,91.1774,29.6541,拉萨市,西藏大学,,,,,5,8,150,102,96,86,8,11,7,8,0.2,0.2
2022-05-30T12:00:00,1460A,90.9798,29.6588,拉萨市,区辐射站,,30,12,15,6,7,147,95,97,87,9,12,7,8,0.2,0.2
2022-05-30T12:00:00,1461A,91.0834,29.6292,拉萨市,拉萨火车站,,30,10,24,2,5,141,95,100,93,5,8,8,8,0.2,0.2
2022-05-30T12:00:00,1462A,108.882,34.2749,西安市,高压开关厂,颗粒物(PM10),54,58,246,14,76,134,134,61,61,15,36,8,8,0.1,0.2
2022-05-30T12:00:00,1463A,108.993,34.2629,西安市,兴庆小区,颗粒物(PM10),58,66,206,24,61,128,128,57,57,18,31,8,6,1.1,0.5
2022-05-30T12:00:00,1464A,109.06,34.2572,西安市,纺织城,颗粒物(PM10),59,68,204,18,61,129,129,51,51,20,41,12,7,0.3,0.4
2022-05-30T12:00:00,1465A,108.9356,34.2173,西安市,小寨,颗粒物(PM10),61,72,199,22,64,130,130,58,58,17,36,5,3,0.2,0.3
2022-05-30T12:00:00,1466A,108.954,34.2713,西安市,市人民体育场,颗粒物(PM10),60,69,223,17,72,129,129,61,61,15,31,8,6,0.2,0.4
2022-05-30T12:00:00,1467A,108.8922,34.2322,西安市,高新西区,,,69,221,28,63,117,117,51,51,,36,11,10,0.3,0.4
2022-05-30T12:00:00,1468A,108.935,34.3474,西安市,经开区,颗粒物(PM10),51,51,217,13,68,121,121,54,54,15,34,7,5,0.2,0.3
2022-05-30T12:00:00,1469A,108.906,34.1546,西安市,长安区,颗粒物(PM10),96,141,231,46,71,116,116,47,47,33,31,10,7,0.5,0.4
2022-05-30T12:00:00,1471A,109.2186,34.3731,西安市,临潼区,颗粒物(PM10),52,54,195,25,59,131,131,76,76,10,26,9,6,0.5,0.5
2022-05-30T12:00:00,1472A,108.869,34.378,西安市,草滩(对照点),颗粒物(PM10),54,57,199,20,64,124,124,57,57,12,38,9,7,0.4,0.6
2022-05-30T12:00:00,1473A,108.985,34.1978,西安市,曲江文化产业集团,颗粒物(PM10),65,80,203,23,61,128,128,44,44,20,42,8,5,0.4,0.6
2022-05-30T12:00:00,1474A,109.051,34.3213,西安市,广运潭,颗粒物(PM10),53,55,188,16,66,127,127,57,57,15,30,13,7,0.3,0.3
2022-05-30T12:00:00,1476A,103.631,36.1031,兰州市,兰炼宾馆,,47,47,39,21,24,110,73,56,43,29,31,26,12,0.6,0.4
2022-05-30T12:00:00,1478A,103.8412,36.0726,兰州市,生物制品所,,,48,40,28,22,122,96,70,32,38,37,16,8,,0.8
2022-05-30T12:00:00,1479A,103.831,36.0464,兰州市,铁路设计院,,,,44,,16,107,92,60,40,51,43,,8,,0.5
2022-05-30T12:00:00,1483A,101.524,36.6867,西宁市,第五水厂(对照点),,36,27,18,18,12,139,113,69,69,11,11,18,11,0.6,0.7
2022-05-30T12:00:00,1484A,105.9512,38.6016,银川市,贺兰山马莲口(对照点),,37,26,35,11,12,129,117,92,92,5,8,10,12,0.3,0.4
2022-05-30T12:00:00,1488A,106.2328,38.4975,银川市,贺兰山东路,,46,46,33,15,12,121,113,72,72,10,20,11,10,0.4,0.4
2022-05-30T12:00:00,1489A,106.1358,38.5036,银川市,学院路,颗粒物(PM10),53,55,44,16,14,125,114,77,64,8,22,16,12,0.3,0.4
2022-05-30T12:00:00,1490A,87.5801,43.8303,乌鲁木齐市,监测站,,50,50,112,8,23,114,76,70,67,11,9,10,9,0.6,0.6
2022-05-30T12:00:00,1491A,87.6046,43.768,乌鲁木齐市,收费所,,43,43,112,30,34,120,75,74,69,9,6,7,7,0.2,0.2
2022-05-30T12:00:00,1492A,87.4754,43.9469,乌鲁木齐市,新疆农科院农场(对照点),颗粒物(PM10),57,64,115,12,23,102,77,65,57,5,6,13,9,0.4,0.4
2022-05-30T12:00:00,1493A,87.5525,43.8711,乌鲁木齐市,铁路局,颗粒物(PM10),54,58,120,34,40,113,80,71,68,11,9,10,8,0.4,0.4
2022-05-30T12:00:00,1494A,87.6432,43.831,乌鲁木齐市,三十一中学,,27,25,119,8,22,116,84,71,71,5,6,12,12,0.2,0.2
2022-05-30T12:00:00,1496A,87.7216,44.1747,乌鲁木齐市,米东区环保局,颗粒物(PM10),51,52,169,13,49,110,86,68,60,6,7,12,11,0.3,0.2
2022-05-30T12:00:00,1508A,112.9433,27.8614,湘潭市,板塘,,22,17,24,12,9,78,68,59,58,8,12,7,7,0.6,0.6
2022-05-30T12:00:00,1511A,112.9118,27.8403,湘潭市,市监测站,,26,2,18,18,10,68,60,55,54,8,16,8,14,0.6,1
2022-05-30T12:00:00,1512A,112.8937,27.8728,湘潭市,江麓,,50,16,21,35,7,73,63,64,57,10,11,6,6,0.7,0.7
2022-05-30T12:00:00,1513A,112.9227,27.8159,湘潭市,岳塘,颗粒物(PM10),54,58,39,9,10,65,54,57,53,17,16,10,10,0.5,0.7
2022-05-30T12:00:00,1514A,112.9074,27.9119,湘潭市,科大,,,8,11,,6,76,54,62,49,17,15,4,2,0.9,0.8
2022-05-30T12:00:00,1515A,113.135,27.8244,株洲市,天台山庄,,26,7,28,18,21,79,38,71,43,26,19,5,6,1.1,0.8
2022-05-30T12:00:00,1518A,113.095,27.8867,株洲市,株冶医院,,17,12,18,11,14,79,45,60,40,34,18,16,8,1.3,0.7
2022-05-30T12:00:00,1519A,113.167,27.8667,株洲市,市四中,,19,5,16,13,14,89,49,66,52,20,10,6,5,1.0,0.7
2022-05-30T12:00:00,1520A,113.143,27.8381,株洲市,火车站,,26,12,21,18,17,83,49,58,47,23,15,3,4,0.7,0.6
2022-05-30T12:00:00,1524A,113.13,27.8528,株洲市,市监测站,细颗粒物(PM2.5),52,17,20,36,18,93,44,65,49,30,15,10,8,0.9,0.5
2022-05-30T12:00:00,1552A,106.805,26.3003,贵阳市,桐木岭(对照点),,29,27,29,19,19,90,90,79,79,5,4,3,5,0.5,0.5
2022-05-30T12:00:00,1559A,113.251,27.8336,株洲市,大京风景区(对照点),,16,6,10,5,14,62,51,55,50,5,5,5,5,0.4,0.4
2022-05-30T12:00:00,1562A,113.0048,27.9153,湘潭市,昭山,,,12,13,,10,64,48,46,32,16,17,3,3,0.6,0.6
2022-05-30T12:00:00,1564A,112.4876,27.9164,湘潭市,韶山(对照点),,,,18,10,8,67,24,62,33,16,5,23,6,,0.6
2022-05-30T12:00:00,1585A,109.8756,40.6532,包头市,市环境监测站,,,26,30,11,16,101,,53,53,5,29,6,20,0.4,1.3
2022-05-30T12:00:00,1587A,109.9991,40.5842,包头市,包头八中,,34,26,25,6,15,108,107,64,56,8,28,8,15,0.4,0.7
2022-05-30T12:00:00,1588A,109.8538,40.6821,包头市,青山宾馆,,32,25,32,8,12,100,100,60,60,5,25,9,13,0.3,0.5
2022-05-30T12:00:00,1589A,109.8642,40.6288,包头市,惠龙物流,颗粒物(PM10),51,52,32,22,19,106,106,54,54,7,30,6,33,0.3,1
2022-05-30T12:00:00,1590A,110.0377,40.5546,包头市,东河鸿龙湾,,47,47,24,9,7,101,101,75,61,4,15,9,13,0.4,0.6
2022-05-30T12:00:00,1591A,110.0023,39.8129,鄂尔多斯市,综合楼,,34,32,21,4,6,106,106,103,90,13,15,5,7,0.5,0.5
2022-05-30T12:00:00,1592A,109.9486,39.8261,鄂尔多斯市,巴音孟克林场办事处,,36,31,34,7,14,114,114,98,98,5,12,5,9,0.3,0.4
2022-05-30T12:00:00,1593A,109.7736,39.5986,鄂尔多斯市,康泽苑,,37,31,24,5,9,118,118,92,92,5,7,4,4,0.4,0.3
2022-05-30T12:00:00,1594A,109.8119,39.5989,鄂尔多斯市,华泰汽车城,,41,41,26,7,12,118,118,90,82,2,8,7,6,0.4,0.4
2022-05-30T12:00:00,1595A,109.9734,39.7884,鄂尔多斯市,奥林花园,,35,34,29,9,9,110,110,98,75,6,15,5,7,0.5,0.6
2022-05-30T12:00:00,1597A,122.2703,40.7094,营口市,大庆路,细颗粒物(PM2.5),55,41,24,39,22,162,95,75,75,8,8,9,7,1.1,0.8
2022-05-30T12:00:00,1598A,122.215,40.6511,营口市,镜湖西路,,32,32,35,16,14,197,96,69,69,11,17,4,6,0.5,0.7
2022-05-30T12:00:00,1599A,122.167,40.6655,营口市,西炮台,,,21,26,14,16,187,,79,79,12,18,6,8,1.0,0.8
2022-05-30T12:00:00,1600A,124.3303,40.0625,丹东市,江湾东路,,30,5,9,3,7,128,96,98,85,10,8,8,6,0.4,0.4
2022-05-30T12:00:00,1601A,124.4256,40.1503,丹东市,临江后街,,,,,1,2,125,96,99,84,7,4,11,10,1.1,1.1
2022-05-30T12:00:00,1602A,124.3933,40.1461,丹东市,元宝山,,27,8,9,4,5,121,85,87,71,7,6,11,9,0.6,0.6
2022-05-30T12:00:00,1603A,124.3633,40.1092,丹东市,民主桥,,29,8,8,4,6,119,91,95,80,6,3,11,9,0.8,0.8
2022-05-30T12:00:00,1604A,122.0303,41.1489,盘锦市,开发区,,29,26,26,12,16,187,90,56,56,10,18,6,7,0.5,0.7
2022-05-30T12:00:00,1605A,122.0485,41.0883,盘锦市,兴隆台,,28,23,35,11,20,193,88,65,65,11,20,6,5,0.4,0.6
2022-05-30T12:00:00,1606A,121.8297,41.1028,盘锦市,新生街道,,34,34,23,9,13,179,82,54,54,14,23,4,8,0.5,0.6
2022-05-30T12:00:00,1607A,120.9092,40.7136,葫芦岛市,龙港区,颗粒物(PM10),56,61,28,29,19,181,71,45,45,17,26,4,18,0.7,0.6
2022-05-30T12:00:00,1608A,120.8392,40.7514,葫芦岛市,化工街,,33,33,36,19,24,181,80,50,50,18,30,6,6,0.2,0.3
2022-05-30T12:00:00,1609A,120.8341,40.7073,葫芦岛市,新区,,40,40,48,25,22,180,72,49,49,23,27,8,8,0.7,0.6
2022-05-30T12:00:00,1610A,120.8695,40.7677,葫芦岛市,东城区,,,,29,,20,175,,38,38,16,26,,7,0.5,0.3
2022-05-30T12:00:00,1611A,118.5819,24.9117,泉州市,涂山街,,42,42,28,11,9,84,84,40,40,13,15,6,6,0.3,0.3
2022-05-30T12:00:00,1612A,118.5972,24.8978,泉州市,津头埔,,40,40,24,14,9,75,75,36,36,16,16,4,4,0.2,0.2
2022-05-30T12:00:00,1613A,118.6663,24.9424,泉州市,万安,,33,33,20,13,7,88,88,38,38,12,12,6,6,0.5,0.4
2022-05-30T12:00:00,1614A,118.6117,24.9604,泉州市,清源山(对照点),,,43,21,16,8,89,89,36,36,12,11,8,9,,0.4
2022-05-30T12:00:00,1616A,117.6795,36.229,济南市,技术学院,,,,43,9,15,183,125,86,86,,15,12,14,0.3,0.5
2022-05-30T12:00:00,1618A,118.3429,35.0532,临沂市,沂河小区,,39,39,36,3,14,143,107,83,83,11,10,6,7,0.2,0.3
2022-05-30T12:00:00,1619A,118.295,35.0583,临沂市,鲁南制药厂,,40,22,31,5,12,154,128,99,99,11,15,4,6,0.3,0.4
2022-05-30T12:00:00,1620A,118.2794,34.9976,临沂市,新光毛纺厂,,38,27,38,6,14,138,119,92,92,5,7,3,5,0.4,0.5
2022-05-30T12:00:00,1621A,118.3956,35.0888,临沂市,河东保险公司,,38,24,30,5,13,146,119,89,89,10,14,4,5,0.2,0.2
2022-05-30T12:00:00,1622A,116.3032,37.4674,德州市,儿童乐园,,38,36,82,8,15,163,121,70,70,3,15,5,8,0.2,0.4
2022-05-30T12:00:00,1624A,116.2991,37.4451,德州市,监理站,,37,35,60,10,19,159,117,75,75,4,12,10,14,0.1,0.3
2022-05-30T12:00:00,1625A,115.9848,36.4372,聊城市,区政府,,,40,73,8,15,183,,76,62,13,18,,14,,0.7
2022-05-30T12:00:00,1628A,118.0062,37.3803,滨州市,市环保局,,42,30,45,22,16,199,132,94,94,5,9,13,18,0.1,0.1
2022-05-30T12:00:00,1629A,118.0018,37.3617,滨州市,第二水厂,,38,38,55,8,13,182,119,85,85,7,13,14,19,0.3,0.4
2022-05-30T12:00:00,1630A,117.9776,37.393,滨州市,北中新校,,37,37,39,7,15,179,117,80,80,7,13,12,12,0.3,0.4
2022-05-30T12:00:00,1631A,118.0414,36.8103,淄博市,人民公园,,40,31,55,7,19,188,126,87,85,6,15,11,13,0.3,0.2
2022-05-30T12:00:00,1633A,117.8525,36.4847,淄博市,双山,,38,34,44,7,21,177,119,70,70,5,18,9,18,0.4,0.4
2022-05-30T12:00:00,1634A,117.9592,36.6331,淄博市,气象站,,39,22,55,5,14,168,124,76,75,6,19,9,17,0.1,0.2
2022-05-30T12:00:00,1635A,118.3092,36.8194,淄博市,莆田园,,,27,48,7,15,203,,90,81,7,15,10,13,0.3,0.3
2022-05-30T12:00:00,1637A,117.558,34.8438,枣庄市,市中区政府,,42,22,46,2,12,187,133,125,105,8,14,7,16,0.2,0.3
2022-05-30T12:00:00,1638A,117.2852,34.7837,枣庄市,薛城环保局,,46,46,60,12,19,170,131,137,90,16,25,12,19,0.6,0.7
2022-05-30T12:00:00,1639A,117.5852,34.7745,枣庄市,峄城区政府,,,36,52,,12,168,128,118,102,14,15,8,8,0.3,0.4
2022-05-30T12:00:00,1640A,117.7276,34.5578,枣庄市,台儿庄区环保局,,40,22,38,2,11,144,126,119,94,12,20,9,9,0.3,0.6
2022-05-30T12:00:00,1641A,117.4518,35.0992,枣庄市,山亭区环保局,,40,27,36,10,17,178,128,115,100,8,14,9,10,0.4,0.6
2022-05-30T12:00:00,1642A,121.2514,37.5639,烟台市,开发区,,32,19,24,2,8,152,100,85,84,6,5,2,3,0.3,0.4
2022-05-30T12:00:00,1643A,121.3719,37.5433,烟台市,轴承厂,,28,27,25,2,14,155,87,87,76,15,10,6,6,0.4,0.5
2022-05-30T12:00:00,1644A,121.3181,37.5436,烟台市,西郊化工站,,27,27,21,5,9,127,86,73,70,8,8,3,3,0.4,0.5
2022-05-30T12:00:00,1645A,121.4478,37.4822,烟台市,莱山环保局,,29,14,17,2,9,140,90,102,83,6,6,6,6,0.2,0.3
2022-05-30T12:00:00,1646A,121.2611,37.4967,烟台市,福山环保局,,,41,28,24,11,145,,97,82,16,13,4,3,0.4,0.8
2022-05-30T12:00:00,1650A,119.1437,36.7023,潍坊市,环保局,,,39,44,14,20,201,,107,79,9,10,,8,0.5,0.6
2022-05-30T12:00:00,1653A,116.6251,35.4302,济宁市,火炬城,,42,32,43,5,10,160,133,85,85,10,16,11,12,0.5,0.7
2022-05-30T12:00:00,1655A,116.5491,35.4042,济宁市,电化厂,,44,31,47,5,13,162,138,88,88,24,20,7,7,0.6,0.9
2022-05-30T12:00:00,1656A,117.1437,36.1937,泰安市,监测站,,43,37,52,3,15,176,135,97,89,10,8,11,11,0.4,0.3
2022-05-30T12:00:00,1657A,117.0885,36.2017,泰安市,人口学校,,39,34,45,11,18,176,123,93,82,19,17,9,9,0.2,0.3
2022-05-30T12:00:00,1658A,117.1089,36.1758,泰安市,电力学校,,40,31,51,5,15,163,126,89,82,10,11,8,10,0.5,0.6
2022-05-30T12:00:00,1659A,119.471,35.4209,日照市,监测站,,35,17,26,10,17,143,110,91,85,8,10,10,11,0.2,0.2
2022-05-30T12:00:00,1660A,119.523,35.4216,日照市,市政府广场,,36,24,23,7,13,142,113,92,89,5,5,6,6,0.3,0.4
2022-05-30T12:00:00,1661A,119.5587,35.4044,日照市,港务局,,,,21,13,9,132,111,101,98,,2,4,3,,0.5
2022-05-30T12:00:00,1662A,122.1214,37.4236,威海市,华夏技校,,34,34,14,7,8,112,91,88,88,8,8,3,3,0.3,0.3
2022-05-30T12:00:00,1663A,122.0508,37.5236,威海市,山大分校,,26,12,11,10,5,131,83,105,92,16,7,7,6,0.3,0.3
2022-05-30T12:00:00,1664A,122.1067,37.5072,威海市,市监测站,,28,20,11,12,9,133,87,93,93,13,8,8,7,0.3,0.3
2022-05-30T12:00:00,1666A,118.6614,37.4309,东营市,市环保局,,39,34,35,9,13,209,122,90,85,8,6,11,7,0.4,0.4
2022-05-30T12:00:00,1669A,113.5824,24.7733,韶关市,市八中,,30,24,22,12,8,121,94,59,55,10,13,10,12,0.5,0.5
2022-05-30T12:00:00,1671A,113.5917,24.7972,韶关市,园林处,,27,25,22,10,12,112,86,45,45,6,10,10,10,0.6,0.6
2022-05-30T12:00:00,1672A,113.6735,24.7791,韶关市,韶关学院,,,,22,12,13,102,74,49,49,19,11,20,10,1.0,0.5
2022-05-30T12:00:00,1673A,113.5971,24.6863,韶关市,曲江监测站,,26,20,22,18,12,109,80,60,48,9,11,7,7,0.5,0.5
2022-05-30T12:00:00,1674A,116.6794,23.3667,汕头市,金平子站,,20,8,30,2,8,61,61,38,38,4,4,8,8,0.5,0.4
2022-05-30T12:00:00,1675A,116.7244,23.3633,汕头市,龙湖子站,,,13,18,,3,57,57,40,37,8,8,6,6,0.5,0.4
2022-05-30T12:00:00,1676A,116.7258,23.2775,汕头市,濠江子站,,,,23,2,7,60,60,39,39,4,10,9,9,0.5,0.5
2022-05-30T12:00:00,1677A,116.7519,23.4714,汕头市,澄海子站,,22,4,25,10,10,70,70,40,40,9,12,5,5,0.5,0.6
2022-05-30T12:00:00,1678A,116.6092,23.2539,汕头市,潮阳子站,,19,15,18,7,9,60,60,41,41,4,6,8,8,0.5,0.5
2022-05-30T12:00:00,1680A,110.3539,21.2706,湛江市,湛江影剧院,,27,27,28,9,10,90,64,52,52,7,6,5,5,0.5,0.5
2022-05-30T12:00:00,1681A,110.3928,21.2228,湛江市,市环境监测站,,23,17,25,12,12,94,71,60,60,4,5,5,5,0.4,0.5
2022-05-30T12:00:00,1682A,110.4019,21.1997,湛江市,环保局宿舍,,25,25,26,12,13,80,65,54,54,4,7,4,5,0.4,0.5
2022-05-30T12:00:00,1683A,110.4111,21.2028,湛江市,霞山游泳场,,33,33,25,10,11,77,58,58,53,5,5,5,6,0.5,0.5
2022-05-30T12:00:00,1684A,110.3316,21.2679,湛江市,麻章区环保局,,37,37,33,14,14,91,74,51,51,11,11,5,5,0.6,0.6
2022-05-30T12:00:00,1685A,110.4558,21.2567,湛江市,坡头区环保局,,31,31,25,12,12,77,70,60,60,3,4,5,5,0.5,0.5
2022-05-30T12:00:00,1686A,111.0286,21.4688,茂名市,电白南海,,31,31,30,12,11,58,53,48,48,10,8,4,4,0.6,0.5
2022-05-30T12:00:00,1687A,110.9294,21.6533,茂名市,茂石化七小,,36,36,30,19,15,68,68,44,43,8,8,5,5,0.5,0.5
2022-05-30T12:00:00,1688A,110.9107,21.6687,茂名市,健康路,,24,24,26,11,8,69,69,43,43,5,6,5,5,0.6,0.6
2022-05-30T12:00:00,1689A,110.8592,21.6828,茂名市,高岭,,,,17,7,5,60,60,40,40,6,8,6,6,0.6,0.5
2022-05-30T12:00:00,1690A,116.1231,24.3284,梅州市,梅江月梅,,18,18,20,7,7,55,55,25,25,5,8,2,2,0.4,0.5
2022-05-30T12:00:00,1691A,116.0797,24.2719,梅州市,梅县新城,,22,22,21,10,9,54,49,21,21,6,13,4,5,0.4,0.5
2022-05-30T12:00:00,1692A,116.1248,24.2654,梅州市,环境监控中心,,24,24,20,8,9,51,50,24,24,6,13,4,4,0.4,0.5
2022-05-30T12:00:00,1693A,115.3653,22.775,汕尾市,市环保局,,,,15,6,6,49,,40,40,7,6,4,4,0.5,0.5
2022-05-30T12:00:00,1694A,115.3706,22.7898,汕尾市,市政府,,17,12,12,5,11,54,54,43,43,4,5,5,5,0.5,0.4
2022-05-30T12:00:00,1695A,115.3622,22.7925,汕尾市,新城中学,,18,18,14,6,6,54,54,44,44,2,4,6,6,0.5,0.5
2022-05-30T12:00:00,1696A,114.6778,23.7569,河源市,源西(对照点),,21,14,22,5,7,98,65,35,35,3,12,4,4,0.4,0.5
2022-05-30T12:00:00,1697A,114.6944,23.7586,河源市,东埔,,19,11,21,6,8,94,58,34,34,6,14,3,4,0.6,0.6
2022-05-30T12:00:00,1698A,114.6892,23.7233,河源市,老城,,,,20,,8,95,,28,28,3,15,2,3,0.5,0.6
2022-05-30T12:00:00,1699A,111.9797,21.8593,阳江市,鸳鸯湖(对照点),,18,18,21,10,7,64,57,58,54,1,2,8,7,0.4,0.4
2022-05-30T12:00:00,1701A,111.9491,21.8658,阳江市,马南垌,,30,30,24,15,11,64,57,52,52,1,2,3,5,0.4,0.4
2022-05-30T12:00:00,1702A,113.0426,23.691,清远市,环保大楼(对照点),,31,31,25,17,14,145,92,33,33,8,11,2,2,0.3,0.3
2022-05-30T12:00:00,1703A,113.0208,23.7106,清远市,凤城街办,,36,36,24,17,10,137,86,34,34,5,12,4,4,0.6,0.6
2022-05-30T12:00:00,1705A,116.6367,23.6719,潮州市,西园路(对照点),,32,32,28,14,10,72,66,42,42,5,12,3,5,0.8,0.8
2022-05-30T12:00:00,1706A,116.6447,23.6706,潮州市,档案局,,33,33,27,11,16,71,61,32,32,6,15,7,10,0.6,0.7
2022-05-30T12:00:00,1708A,116.3701,23.5345,揭阳市,新兴,,37,37,41,16,11,85,85,34,34,4,9,4,4,0.7,0.8
2022-05-30T12:00:00,1709A,116.3264,23.5443,揭阳市,西马,,32,10,30,22,10,86,86,32,32,6,8,4,5,0.7,0.7
2022-05-30T12:00:00,1710A,116.3611,23.5626,揭阳市,东兴,,25,17,34,14,9,78,78,35,35,5,8,4,5,0.8,0.7
2022-05-30T12:00:00,1711A,116.4151,23.5294,揭阳市,渔湖,,22,22,32,11,11,65,65,29,29,2,8,5,5,0.5,0.5
2022-05-30T12:00:00,1714A,112.0539,22.9539,云浮市,牧羊,,26,26,30,15,10,69,62,40,38,6,9,8,9,0.4,0.4
2022-05-30T12:00:00,1715A,102.575,24.3711,玉溪市,东风水库,,31,30,36,19,19,110,98,56,50,9,13,10,9,0.6,0.7
2022-05-30T12:00:00,1718A,115.4208,35.2464,菏泽市,气象局,颗粒物(PM10),56,62,89,9,22,185,138,85,82,10,16,9,11,0.3,0.4
2022-05-30T12:00:00,1719A,115.4747,35.2375,菏泽市,市政协,颗粒物(PM10),51,51,96,5,17,180,140,85,85,8,14,9,12,0.3,0.4
2022-05-30T12:00:00,1721A,113.3819,40.1097,大同市,果树场(对照点),,42,42,31,22,16,113,113,80,80,6,16,10,20,0.5,0.6
2022-05-30T12:00:00,1723A,113.2994,40.0758,大同市,云冈宾馆,,41,41,37,3,5,108,108,75,75,5,14,6,11,0.3,0.4
2022-05-30T12:00:00,1724A,113.3444,40.0917,大同市,大同大学,,,,35,,6,109,109,67,67,5,18,7,13,,0.4
2022-05-30T12:00:00,1725A,113.2661,40.1269,大同市,安家小村,,36,34,32,6,7,114,114,79,79,6,14,6,9,0.2,0.4
2022-05-30T12:00:00,1726A,113.2711,40.0844,大同市,教育学院,,,40,32,4,10,107,107,72,72,10,17,8,14,,0.3
2022-05-30T12:00:00,1727A,113.1147,36.1547,长治市,清华站,,48,48,84,7,28,169,130,124,68,13,25,10,11,0.2,0.6
2022-05-30T12:00:00,1728A,113.1031,36.1989,长治市,监测站,,43,37,76,7,24,173,137,118,88,7,15,9,17,0.5,0.8
2022-05-30T12:00:00,1730A,113.0886,36.2125,长治市,审计局,,,30,67,7,26,168,134,110,86,6,17,,39,0.4,0.8
2022-05-30T12:00:00,1731A,113.0844,36.1856,长治市,长治八中,,45,45,84,16,23,166,132,117,81,9,20,13,19,0.3,1
2022-05-30T12:00:00,1733A,111.5531,36.0783,临汾市,临钢医院,,37,26,50,6,10,128,117,69,69,14,28,5,6,0.1,0.2
2022-05-30T12:00:00,1734A,111.5028,36.0714,临汾市,技工学校,,35,14,39,5,13,121,112,74,74,16,27,6,5,0.3,0.3
2022-05-30T12:00:00,1736A,111.5018,36.0855,临汾市,市委,,38,22,37,2,8,128,119,80,80,13,23,4,4,0.2,0.2
2022-05-30T12:00:00,1738A,113.5758,37.8572,阳泉市,市中心,,41,41,55,8,17,128,105,55,55,12,39,8,10,0.5,0.5
2022-05-30T12:00:00,1739A,113.4894,37.8731,阳泉市,赛鱼,,40,40,42,5,18,129,104,53,53,23,47,9,12,0.6,0.6
2022-05-30T12:00:00,1740A,113.5819,37.8486,阳泉市,南庄,颗粒物(PM10),51,51,64,13,23,131,108,55,55,16,39,7,10,0.5,0.5
2022-05-30T12:00:00,1742A,113.5614,37.8703,阳泉市,平坦,,35,35,49,5,15,127,102,53,53,16,44,8,12,0.6,0.6
2022-05-30T12:00:00,1743A,113.5158,37.8392,阳泉市,大阳泉,,33,33,25,6,15,128,104,101,86,16,18,11,11,0.4,0.3
2022-05-30T12:00:00,1744A,118.9233,42.2816,赤峰市,松山一中,,24,23,25,6,10,85,75,61,52,10,16,8,8,0.4,0.4
2022-05-30T12:00:00,1745A,118.9576,42.2728,赤峰市,哈达街,,23,20,24,4,4,82,72,57,56,18,21,12,11,0.4,0.4
2022-05-30T12:00:00,1746A,118.8788,42.2554,赤峰市,天义路,,,69,21,14,5,82,71,67,56,,14,8,9,0.4,0.4
2022-05-30T12:00:00,1748A,123.044,41.1196,鞍山市,深沟寺,,28,18,24,12,16,139,87,58,58,13,12,10,7,0.8,0.7
2022-05-30T12:00:00,1749A,123.011,41.0931,鞍山市,太阳城,,28,26,33,16,19,146,87,56,56,13,14,9,7,0.8,0.9
2022-05-30T12:00:00,1750A,123.0485,41.1442,鞍山市,太平,,25,22,31,12,21,135,80,80,51,21,16,22,13,1.3,1.3
2022-05-30T12:00:00,1751A,122.9642,41.0971,鞍山市,铁西三道街,,,33,39,22,24,144,90,63,63,13,17,9,7,,1.2
2022-05-30T12:00:00,1752A,122.9341,41.0833,鞍山市,铁西工业园区,,35,30,37,24,21,151,96,66,66,11,15,11,9,0.7,0.8
2022-05-30T12:00:00,1753A,123.022,41.0821,鞍山市,明达新区,,26,22,28,15,19,136,83,66,59,12,12,6,4,0.6,0.7
2022-05-30T12:00:00,1754A,123.1289,41.0228,鞍山市,千山(对照点),,24,10,16,8,13,122,76,50,45,8,7,3,2,0.8,0.8
2022-05-30T12:00:00,1755A,123.7977,41.8491,抚顺市,望花区,,45,45,38,25,22,165,86,63,59,18,14,6,7,0.4,0.5
2022-05-30T12:00:00,1756A,123.9161,41.8822,抚顺市,顺城区,,,,60,24,22,138,66,60,47,18,17,10,10,0.5,0.6
2022-05-30T12:00:00,1757A,124.0436,41.8611,抚顺市,东洲区,,30,30,32,18,22,157,87,63,63,13,14,7,7,0.7,0.9
2022-05-30T12:00:00,1758A,123.9247,41.8642,抚顺市,新抚区,颗粒物(PM10),52,54,33,17,16,146,82,62,58,12,11,8,7,0.4,0.5
2022-05-30T12:00:00,1759A,124.0972,41.8961,抚顺市,大伙房水库,,38,38,33,17,22,178,94,69,69,8,10,8,8,0.4,0.6
2022-05-30T12:00:00,1761A,123.8275,41.3064,本溪市,大峪,,,,27,,15,147,80,58,48,,16,9,6,,0.9
2022-05-30T12:00:00,1762A,123.7567,41.3325,本溪市,溪湖,,27,19,28,10,18,140,84,54,54,8,16,11,7,0.7,1
2022-05-30T12:00:00,1763A,123.7169,41.3094,本溪市,彩屯,,,24,38,20,24,108,90,60,60,10,20,,15,,1.2
2022-05-30T12:00:00,1764A,123.7669,41.2864,本溪市,东明,,30,30,31,14,16,139,80,74,53,21,21,24,14,1.0,1.1
2022-05-30T12:00:00,1765A,123.7992,41.2664,本溪市,新立屯,,26,22,28,13,18,145,83,59,47,14,14,15,8,1.0,1
2022-05-30T12:00:00,1766A,123.8142,41.3472,本溪市,威宁,,29,24,24,17,16,168,92,58,55,14,13,16,9,0.6,0.7
2022-05-30T12:00:00,1767A,121.1115,41.0879,锦州市,南山,,27,27,29,5,24,106,82,42,42,9,14,10,12,0.5,0.9
2022-05-30T12:00:00,1768A,121.0533,40.8434,锦州市,开发区,颗粒物(PM10),61,72,42,23,23,183,63,34,34,19,28,11,13,0.6,0.6
2022-05-30T12:00:00,1769A,121.1836,41.1119,锦州市,百股街道,,,33,22,23,18,117,90,46,46,9,16,12,17,,0.8
2022-05-30T12:00:00,1770A,121.1178,41.1222,锦州市,天安街道,,30,22,29,4,20,103,94,49,49,10,19,12,7,0.5,0.8
2022-05-30T12:00:00,1771A,121.1303,41.1386,锦州市,北湖公园,颗粒物(PM10),53,55,31,6,18,95,89,46,46,8,13,10,7,0.4,0.5
2022-05-30T12:00:00,1772A,126.54,43.8622,吉林市,哈达湾,,26,13,30,3,15,192,81,78,71,4,6,3,3,0.4,0.5
2022-05-30T12:00:00,1773A,126.5844,43.8358,吉林市,东局子,,25,14,29,6,21,187,80,73,69,8,10,5,5,0.5,0.7
2022-05-30T12:00:00,1774A,126.5052,43.8245,吉林市,电力学院,,,,41,6,16,200,92,82,80,5,8,11,11,,0.6
2022-05-30T12:00:00,1775A,126.6133,43.8972,吉林市,江北,,26,18,31,6,17,190,82,75,68,8,9,9,8,0.5,0.6
2022-05-30T12:00:00,1776A,126.555,43.8306,吉林市,江南公园,,,12,32,7,17,182,78,73,70,5,7,,4,0.4,0.5
2022-05-30T12:00:00,1778A,126.7061,43.7133,吉林市,丰满(对照点),,26,12,30,9,16,187,81,84,72,5,6,4,4,0.5,0.6
2022-05-30T12:00:00,1779A,123.9305,47.3636,齐齐哈尔市,安居小区,,20,20,16,2,7,72,60,42,37,6,11,3,4,0.6,0.7
2022-05-30T12:00:00,1780A,123.9488,47.3386,齐齐哈尔市,中心广场,,20,19,7,5,4,68,61,43,41,8,11,4,4,0.3,0.4
2022-05-30T12:00:00,1781A,123.9483,47.3227,齐齐哈尔市,农牧车辆厂,,31,31,19,8,6,76,63,41,41,7,10,3,3,0.2,0.3
2022-05-30T12:00:00,1783A,123.945,47.2988,齐齐哈尔市,市环境监测站,,21,19,11,13,10,78,67,45,45,6,9,4,4,0.5,0.5
2022-05-30T12:00:00,1784A,129.61,44.561,牡丹江市,环保大楼,,20,14,32,4,8,144,62,92,70,10,6,3,4,0.4,0.4
2022-05-30T12:00:00,1785A,129.6115,44.5782,牡丹江市,文化广场,,,13,24,6,12,127,56,89,64,13,9,2,3,,0.3
2022-05-30T12:00:00,1786A,129.5904,44.5963,牡丹江市,第一医院,,18,6,15,12,13,124,52,81,56,11,8,2,3,0.7,0.6
2022-05-30T12:00:00,1787A,129.6364,44.6075,牡丹江市,机车工厂,,18,9,21,12,13,139,54,84,62,13,9,12,9,0.3,0.2
2022-05-30T12:00:00,1788A,129.6386,44.5462,牡丹江市,第一中学,,,9,24,7,12,140,60,86,66,7,7,2,3,,0.4
2022-05-30T12:00:00,1789A,124.81117,46.03138,大庆市,大同区,,21,13,15,5,8,66,66,53,53,6,8,4,4,0.3,0.3
2022-05-30T12:00:00,1790A,125.129,46.533,大庆市,龙凤区,,20,15,15,9,9,63,63,54,54,7,12,2,3,0.4,0.5
2022-05-30T12:00:00,1791A,124.902,46.408,大庆市,红岗区,,,5,16,10,10,66,63,54,54,,8,,5,0.3,0.3
2022-05-30T12:00:00,1792A,125.153,46.586,大庆市,萨尔图区,,21,21,15,4,9,62,60,50,50,8,10,5,5,0.3,0.7
2022-05-30T12:00:00,1793A,124.9042,46.6215,大庆市,让胡路区,,30,21,18,21,14,71,68,56,56,5,10,12,12,0.3,0.3
2022-05-30T12:00:00,1794A,118.3606,31.3519,芜湖市,监测站,颗粒物(PM10),70,89,32,21,14,95,92,38,38,36,38,12,13,0.9,1
2022-05-30T12:00:00,1795A,118.3714,31.4134,芜湖市,科创中心,颗粒物(PM10),52,54,29,27,14,98,98,42,42,22,29,8,8,1.1,1
2022-05-30T12:00:00,1796A,118.3673,31.3131,芜湖市,四水厂,颗粒物(PM10),55,59,27,29,16,100,100,33,33,43,39,12,10,0.9,1.1
2022-05-30T12:00:00,1798A,118.5092,31.6837,马鞍山市,湖东路四小,颗粒物(PM10),69,88,31,32,19,122,117,54,54,18,18,6,4,0.8,0.8
2022-05-30T12:00:00,1799A,118.5024,31.6449,马鞍山市,开发区,颗粒物(PM10),77,104,35,30,14,119,116,51,51,25,27,10,7,1.1,0.9
2022-05-30T12:00:00,1800A,118.5228,31.7231,马鞍山市,慈湖,颗粒物(PM10),89,128,40,32,20,133,113,54,54,19,19,6,5,0.8,0.9
2022-05-30T12:00:00,1802A,118.6245,31.7241,马鞍山市,濮塘(对照点),颗粒物(PM10),62,73,32,38,16,124,124,57,57,9,13,10,9,1.0,0.8
2022-05-30T12:00:00,1803A,115.9872,29.6815,九江市,十里,,36,36,14,23,8,79,79,23,23,19,29,12,7,1.1,0.8
2022-05-30T12:00:00,1804A,115.9584,29.7046,九江市,茅山头,,,45,12,25,8,72,72,19,19,20,21,14,4,,0.6
2022-05-30T12:00:00,1805A,115.9877,29.7295,九江市,西园,,49,49,20,18,7,67,67,22,22,32,26,14,7,0.9,0.8
2022-05-30T12:00:00,1806A,116.0172,29.6547,九江市,五七二七厂,,34,34,19,15,6,83,83,48,48,6,6,10,6,0.8,0.6
2022-05-30T12:00:00,1808A,115.9114,29.6038,九江市,综合工业园,,35,35,15,19,4,75,75,28,28,16,30,8,6,0.8,0.8
2022-05-30T12:00:00,1809A,116.0721,29.7535,九江市,石化总厂,颗粒物(PM10),53,56,23,32,11,64,64,19,19,22,27,11,10,0.8,0.7
2022-05-30T12:00:00,1810A,115.9773,29.5698,九江市,庐山气象台(对照点),,29,20,6,18,5,96,90,85,85,6,4,10,9,0.5,0.3
2022-05-30T12:00:00,1812A,112.3931,34.6516,洛阳市,市委党校,颗粒物(PM10),57,63,87,12,26,192,158,125,106,5,10,8,10,0.4,0.6
2022-05-30T12:00:00,1814A,112.4657,34.6871,洛阳市,豫西宾馆,颗粒物(PM10),60,70,94,13,29,179,157,116,101,8,13,3,5,0.3,0.5
2022-05-30T12:00:00,1815A,112.494,34.6886,洛阳市,河南林校,颗粒物(PM10),52,54,87,10,26,178,153,130,101,8,14,4,6,0.3,0.4
2022-05-30T12:00:00,1816A,112.3844,34.623,洛阳市,开发区管委会,颗粒物(PM10),53,56,83,13,31,178,158,146,112,10,11,4,7,0.1,0.3
2022-05-30T12:00:00,1817A,112.4267,34.6258,洛阳市,市委新办公区,颗粒物(PM10),54,58,90,13,29,179,152,126,99,9,12,6,8,0.2,0.4
2022-05-30T12:00:00,1818A,114.4839,36.0621,安阳市,棉研所(对照点),,41,37,83,8,22,194,129,87,87,8,14,5,8,0.1,0.3
2022-05-30T12:00:00,1819A,114.3551,36.1017,安阳市,红庙街,,45,45,82,6,17,207,128,87,87,11,16,7,10,0.1,0.2
2022-05-30T12:00:00,1820A,114.361,36.0681,安阳市,银杏小区,颗粒物(PM10),52,53,91,5,11,233,138,96,96,12,15,6,9,0.1,0.3
2022-05-30T12:00:00,1824A,114.3389,34.7781,开封市,肿瘤医院,,42,41,79,10,22,247,133,103,81,5,9,10,11,0.3,0.5
2022-05-30T12:00:00,1826A,114.2885,34.7965,开封市,世纪星幼儿园,,44,37,71,30,17,247,140,114,86,8,12,7,8,0.4,0.5
2022-05-30T12:00:00,1828A,113.2269,35.2127,焦作市,市环保局,,46,40,91,17,38,226,145,122,88,10,17,5,7,0.2,0.5
2022-05-30T12:00:00,1829A,113.2467,35.176,焦作市,高新区政府,,45,41,94,14,31,211,141,91,91,15,22,5,10,0.3,0.4
2022-05-30T12:00:00,1830A,113.1987,35.2703,焦作市,影视城(对照点),颗粒物(PM10),52,53,74,19,33,201,146,123,99,10,14,12,11,0.4,0.7
2022-05-30T12:00:00,1832A,113.3257,33.742,平顶山市,新华旅馆,颗粒物(PM10),54,57,99,9,31,212,147,147,104,7,8,4,5,0.2,0.4
2022-05-30T12:00:00,1833A,113.2919,33.737,平顶山市,规划设计院,颗粒物(PM10),54,58,106,10,27,200,138,143,103,14,15,8,9,0.4,0.5
2022-05-30T12:00:00,1834A,113.182,33.774,平顶山市,平顶山工学院,颗粒物(PM10),59,67,110,13,35,189,140,137,107,10,13,5,7,0.3,0.5
2022-05-30T12:00:00,1835A,111.1922,34.7752,三门峡市,市政府,,50,50,84,27,26,155,142,64,64,6,28,11,11,0.4,0.5
2022-05-30T12:00:00,1836A,111.1587,34.7942,三门峡市,开发区,颗粒物(PM10),56,62,96,12,24,148,131,54,54,2,25,7,7,0.2,0.3
2022-05-30T12:00:00,1838A,111.143,34.7955,三门峡市,风景区(对照点),颗粒物(PM10),64,78,104,25,25,156,138,52,52,4,25,6,7,0.4,0.5
2022-05-30T12:00:00,1840A,111.2992,30.6981,宜昌市,白龙岗,颗粒物(PM10),53,56,32,14,13,118,63,24,24,28,29,8,9,0.5,0.6
2022-05-30T12:00:00,1841A,111.3549,30.6465,宜昌市,伍家岗,颗粒物(PM10),52,53,40,17,15,117,54,19,19,41,34,7,6,0.6,0.5
2022-05-30T12:00:00,1842A,111.2628,30.6961,宜昌市,点军区,颗粒物(PM10),55,60,38,24,14,123,36,23,23,46,26,6,5,0.5,0.4
2022-05-30T12:00:00,1843A,111.3275,30.7819,宜昌市,夷陵区,颗粒物(PM10),59,68,42,27,12,124,112,37,37,22,22,7,6,0.3,0.4
2022-05-30T12:00:00,1844A,112.2494,30.3197,荆州市,市图书馆,颗粒物(PM10),65,79,32,39,17,120,120,37,37,16,20,10,8,0.7,0.7
2022-05-30T12:00:00,1845A,112.2008,30.3544,荆州市,市委党校,颗粒物(PM10),70,89,33,30,17,140,140,40,40,13,20,12,10,0.7,0.7
2022-05-30T12:00:00,1847A,113.1094,29.3578,岳阳市,南湖风景区,,27,23,34,18,23,94,85,40,40,7,21,7,8,0.6,1
2022-05-30T12:00:00,1848A,113.1493,29.4251,岳阳市,城陵矶,,23,18,30,16,22,91,71,32,32,13,30,7,9,0.6,0.8
2022-05-30T12:00:00,1849A,113.1497,29.3575,岳阳市,开发区,,32,15,25,14,18,101,101,36,36,5,21,7,7,0.7,1
2022-05-30T12:00:00,1850A,113.2621,29.4758,岳阳市,云溪区,,30,20,23,11,17,96,96,43,43,13,13,18,11,0.9,1
2022-05-30T12:00:00,1851A,112.9943,29.4402,岳阳市,君山区,,23,15,26,10,21,106,71,36,36,5,14,5,5,0.7,0.9
2022-05-30T12:00:00,1852A,113.2117,29.355,岳阳市,金凤水库(对照点),,36,30,26,25,20,84,84,30,30,2,10,8,7,0.5,0.7
2022-05-30T12:00:00,1854A,111.6975,28.9703,常德市,市二中,,19,19,13,13,8,51,30,14,14,7,7,6,6,0.7,0.6
2022-05-30T12:00:00,1857A,111.7158,29.1456,常德市,白鹤山(对照点),颗粒物(PM10),60,70,19,40,11,86,86,28,28,6,3,10,7,0.5,0.5
2022-05-30T12:00:00,1858A,110.5319,29.1217,张家界市,永定新区,,31,31,18,14,8,86,31,14,14,15,11,3,1,0.8,0.7
2022-05-30T12:00:00,1859A,110.4697,29.1242,张家界市,电业局,,19,19,10,10,5,83,25,9,9,16,13,3,2,0.5,0.3
2022-05-30T12:00:00,1860A,110.5594,29.3547,张家界市,未央路,,13,10,10,2,4,56,40,22,22,12,5,3,2,0.4,0.3
2022-05-30T12:00:00,1861A,110.4417,29.315,张家界市,袁家界(对照点),颗粒物(PM10),55,59,19,12,5,110,110,83,83,5,3,7,7,0.3,0.4
2022-05-30T12:00:00,1862A,110.4144,25.3167,桂林市,电子科大尧山校区(对照点),,25,25,26,14,15,61,61,28,28,3,3,8,9,0.5,0.5
2022-05-30T12:00:00,1863A,110.2819,25.2697,桂林市,监测站,,32,32,31,20,19,70,56,24,24,9,12,2,2,0.6,0.6
2022-05-30T12:00:00,1864A,110.3089,25.2708,桂林市,龙隐路小学,,29,29,29,16,16,69,63,25,25,10,12,9,8,0.4,0.5
2022-05-30T12:00:00,1865A,110.2869,25.2178,桂林市,八中,,,,25,,,65,,23,23,5,13,,7,0.4,0.4
2022-05-30T12:00:00,1866A,109.2262,21.588,北海市,牛尾岭水库(对照点),,26,26,26,12,13,74,44,39,36,5,8,3,6,0.3,0.3
2022-05-30T12:00:00,1867A,109.1436,21.4086,北海市,海滩公园,,29,28,29,20,8,81,74,52,52,2,3,4,4,0.7,0.6
2022-05-30T12:00:00,1868A,109.0981,21.4661,北海市,新市环保局,,39,39,26,14,12,78,71,53,51,4,3,4,3,0.6,0.5
2022-05-30T12:00:00,1869A,109.1778,21.5233,北海市,北海工业园,,33,33,32,17,15,80,70,46,46,3,4,5,5,0.5,0.5
2022-05-30T12:00:00,1870A,109.4856,24.3895,柳州市,柳东小学,,33,29,28,23,20,109,81,83,69,5,6,5,6,0.7,0.7
2022-05-30T12:00:00,1871A,109.4157,24.3277,柳州市,环保监测站,,48,48,32,19,17,89,67,44,43,10,12,5,5,0.6,0.6
2022-05-30T12:00:00,1872A,109.389,24.341,柳州市,河西水厂,,30,30,30,16,17,90,67,46,46,9,11,5,5,0.6,0.6
2022-05-30T12:00:00,1873A,109.4311,24.2921,柳州市,市四中,,42,42,40,19,20,107,73,48,47,7,13,5,5,0.8,0.9
2022-05-30T12:00:00,1874A,109.4006,24.3631,柳州市,市九中,,43,43,36,19,17,85,59,40,37,13,12,4,4,0.5,0.5
2022-05-30T12:00:00,1875A,109.4958,24.3134,柳州市,古亭山,,29,29,30,16,15,80,54,38,38,5,9,2,3,0.7,0.7
2022-05-30T12:00:00,1876A,109.5078,18.2489,三亚市,河东子站,,20,19,21,10,11,70,61,59,47,3,3,2,9,0.4,0.4
2022-05-30T12:00:00,1877A,109.4964,18.2681,三亚市,河西子站,,,17,23,9,11,72,62,56,40,,4,1,2,0.3,0.3
2022-05-30T12:00:00,1878A,104.7778,31.4741,绵阳市,富乐山,颗粒物(PM10),61,72,62,37,43,135,107,49,39,6,26,4,4,0.4,0.6
2022-05-30T12:00:00,1879A,104.7563,31.4535,绵阳市,市人大,细颗粒物(PM2.5),72,66,121,52,62,145,104,51,38,6,33,12,14,0.6,0.8
2022-05-30T12:00:00,1880A,104.6697,31.4668,绵阳市,高新区自来水公司,细颗粒物(PM2.5),64,65,111,46,74,154,109,38,38,12,35,5,6,0.6,0.9
2022-05-30T12:00:00,1881A,104.7287,31.5075,绵阳市,三水厂,颗粒物(PM10),76,102,137,46,107,138,104,31,31,8,36,8,11,0.5,0.8
2022-05-30T12:00:00,1882A,104.563,28.793,宜宾市,石马中学(对照点),,26,26,31,16,21,113,37,33,33,14,21,9,10,0.6,0.7
2022-05-30T12:00:00,1883A,104.6201,28.7728,宜宾市,市委,,36,36,43,18,31,87,31,14,14,26,41,6,9,0.7,0.9
2022-05-30T12:00:00,1884A,104.6055,28.793,宜宾市,宜宾四中,,,38,51,20,33,92,40,29,29,24,44,5,8,,0.7
2022-05-30T12:00:00,1885A,104.639,28.7562,宜宾市,市政府,,37,37,49,17,30,100,37,15,15,26,47,5,8,0.7,0.8
2022-05-30T12:00:00,1886A,104.5742,28.7199,宜宾市,黄金嘴,,35,35,39,17,25,84,32,23,23,17,32,7,9,0.6,0.7
2022-05-30T12:00:00,1888A,101.6891,26.571,攀枝花市,弄弄坪,,31,16,37,7,18,137,99,84,84,6,23,5,7,0.8,1.1
2022-05-30T12:00:00,1889A,101.5769,26.5928,攀枝花市,河门口,,28,28,41,10,20,141,82,60,60,25,43,30,27,1.5,2.2
2022-05-30T12:00:00,1890A,101.7169,26.585,攀枝花市,炳草岗,,26,10,39,9,22,134,81,70,70,22,37,18,18,0.7,1
2022-05-30T12:00:00,1891A,101.7369,26.5008,攀枝花市,仁和,,31,11,34,6,19,115,99,61,61,12,24,5,5,0.5,0.6
2022-05-30T12:00:00,1893A,105.4324,28.9634,泸州市,九狮山(对照点),,38,30,26,26,13,91,28,18,18,35,17,9,6,0.6,0.5
2022-05-30T12:00:00,1894A,105.4427,28.9063,泸州市,小市上码头,颗粒物(PM10),52,53,36,24,17,79,18,25,15,35,23,12,12,0.9,0.7
2022-05-30T12:00:00,1895A,105.4241,28.8573,泸州市,兰田宪桥,,43,43,32,18,15,81,29,14,9,18,19,9,14,0.7,0.7
2022-05-30T12:00:00,1896A,105.4379,28.8833,泸州市,市环监站,,39,39,33,18,13,80,24,45,16,33,24,6,15,0.6,0.5
2022-05-30T12:00:00,1901A,104.4239,31.1208,德阳市,东山公园,颗粒物(PM10),56,62,57,30,33,134,103,54,54,9,26,6,8,0.3,0.6
2022-05-30T12:00:00,1902A,104.3826,31.1317,德阳市,西小区,颗粒物(PM10),66,81,79,38,36,134,108,42,42,7,30,8,9,0.4,0.7
2022-05-30T12:00:00,1904A,104.3553,31.1091,德阳市,耐火材料厂,颗粒物(PM10),63,75,76,30,33,152,110,40,40,12,33,6,8,0.5,0.7
2022-05-30T12:00:00,1905A,106.056,30.8064,南充市,西山风景区(对照点),细颗粒物(PM2.5),70,88,39,51,28,83,73,60,46,10,12,3,3,0.6,0.5
2022-05-30T12:00:00,1906A,106.0789,30.8023,南充市,南充市委,颗粒物(PM10),65,80,47,45,26,94,83,68,61,5,10,3,5,0.6,0.6
2022-05-30T12:00:00,1907A,106.1031,30.8217,南充市,南充炼油厂,细颗粒物(PM2.5),65,75,46,47,26,107,72,56,42,3,8,3,5,0.6,0.6
2022-05-30T12:00:00,1908A,106.1064,30.7856,南充市,高坪区监测站,细颗粒物(PM2.5),54,56,37,38,25,107,72,50,43,6,9,1,8,0.6,0.6
2022-05-30T12:00:00,1909A,106.0642,30.7636,南充市,嘉陵区环保局,细颗粒物(PM2.5),246,55,30,196,84,95,83,58,52,6,9,4,6,0.5,0.5
2022-05-30T12:00:00,1910A,106.1087,30.8388,南充市,市环境监测站,细颗粒物(PM2.5),73,73,42,53,31,103,83,70,57,13,15,4,4,0.6,0.5
2022-05-30T12:00:00,1911A,106.9222,27.6869,遵义市,丁字口,,42,39,25,29,14,56,47,40,40,24,15,7,7,0.6,0.6
2022-05-30T12:00:00,1912A,106.9242,27.7019,遵义市,凤凰山,,22,22,18,10,9,84,56,72,71,16,10,5,5,0.6,0.7
2022-05-30T12:00:00,1913A,106.8906,27.6486,遵义市,忠庄,,24,24,21,13,12,81,46,72,65,24,13,1,2,0.8,0.7
2022-05-30T12:00:00,1914A,106.9231,27.6506,遵义市,舟水桥,,15,11,13,8,9,59,48,39,39,26,19,2,3,0.6,0.6
2022-05-30T12:00:00,1915A,106.9178,27.72,遵义市,干田坝,,18,17,17,12,10,83,56,68,65,18,10,5,5,0.6,0.6
2022-05-30T12:00:00,1916A,103.7897,25.5035,曲靖市,环境监测站,,32,20,29,6,17,138,100,85,85,14,13,10,8,0.6,0.7
2022-05-30T12:00:00,1918A,108.7197,34.3956,咸阳市,气象站(对照点),,50,50,203,16,59,124,124,56,56,12,32,8,7,0.5,0.6
2022-05-30T12:00:00,1919A,108.673,34.3155,咸阳市,实验中学,颗粒物(PM10),61,72,225,20,67,120,120,52,52,18,30,6,4,0.4,0.5
2022-05-30T12:00:00,1920A,108.7233,34.3617,咸阳市,师范学院,颗粒物(PM10),57,64,220,14,68,128,128,63,63,15,30,15,6,0.3,0.5
2022-05-30T12:00:00,1922A,109.0656,35.0994,铜川市,党校(对照点),,40,24,111,16,36,125,125,84,84,7,30,8,7,0.5,0.6
2022-05-30T12:00:00,1923A,109.0697,35.0697,铜川市,王益区政府,,,,133,6,36,132,132,74,74,12,26,5,6,0.2,0.4
2022-05-30T12:00:00,1924A,108.9344,34.9058,铜川市,新区管委会,,40,40,143,10,43,128,128,86,86,8,14,5,8,0.4,0.4
2022-05-30T12:00:00,1926A,109.4131,36.6275,延安市,枣园(对照点),,35,15,47,6,9,125,110,51,51,4,23,4,4,0.2,0.2
2022-05-30T12:00:00,1927A,109.4761,36.6028,延安市,延大医附院,,34,23,48,8,8,125,108,46,46,6,27,4,4,0.3,0.3
2022-05-30T12:00:00,1929A,109.5056,36.6106,延安市,百米大道,,32,26,63,11,17,121,102,43,43,13,30,4,3,0.5,0.6
2022-05-30T12:00:00,1930A,107.185,34.3063,宝鸡市,庙沟村(对照点),颗粒物(PM10),68,86,88,27,28,116,116,76,76,9,13,6,4,0.4,0.3
2022-05-30T12:00:00,1931A,107.0708,34.3017,宝鸡市,竹园沟,颗粒物(PM10),58,66,78,20,30,126,126,80,80,11,12,8,6,0.4,0.3
2022-05-30T12:00:00,1932A,107.1906,34.3672,宝鸡市,三陆医院,颗粒物(PM10),74,98,80,19,26,123,123,48,48,12,25,22,7,0.4,0.4
2022-05-30T12:00:00,1933A,107.1431,34.3547,宝鸡市,监测站,,,87,74,,20,120,120,58,58,16,20,12,4,0.4,0.6
2022-05-30T12:00:00,1934A,107.1186,34.3739,宝鸡市,技工学校,颗粒物(PM10),76,102,74,22,24,124,124,64,64,14,14,16,5,0.4,0.3
2022-05-30T12:00:00,1935A,107.3906,34.3528,宝鸡市,陈仓区环保局家属楼,颗粒物(PM10),70,89,98,30,35,106,106,49,49,17,27,8,12,0.3,0.3
2022-05-30T12:00:00,1936A,107.2058,34.3497,宝鸡市,文理学院,颗粒物(PM10),65,80,81,30,34,128,128,58,58,13,22,26,8,0.4,0.3
2022-05-30T12:00:00,1937A,107.2386,34.3622,宝鸡市,三迪小学,颗粒物(PM10),67,84,84,27,33,122,122,52,52,11,27,20,9,0.2,0.3
2022-05-30T12:00:00,1938A,109.5293,34.5101,渭南市,农科所(对照点),,44,44,191,14,66,143,136,72,68,8,25,9,11,0.4,0.4
2022-05-30T12:00:00,1939A,109.4974,34.4877,渭南市,日报社,,,,195,,57,129,128,67,67,,35,6,8,,0.4
2022-05-30T12:00:00,1940A,109.4636,34.493,渭南市,体育馆,,44,44,195,7,57,144,139,74,74,10,34,6,12,0.4,0.5
2022-05-30T12:00:00,1941A,109.4259,34.5023,渭南市,高新一小,,44,44,202,7,60,136,136,74,74,7,30,6,7,0.3,0.5
2022-05-30T12:00:00,1943A,102.1725,38.5339,金昌市,新川苑,,45,45,53,6,8,124,124,80,80,11,14,29,16,0.4,0.5
2022-05-30T12:00:00,1944A,102.1692,38.5167,金昌市,天庆家园,,,41,49,13,13,126,126,81,78,,11,53,39,0.3,0.5
2022-05-30T12:00:00,1945A,98.2908,39.7711,嘉峪关市,气象局,颗粒物(PM10),59,68,76,14,23,129,125,96,69,6,21,4,8,0.4,0.6
2022-05-30T12:00:00,1947A,106.3394,38.817,石嘴山市,沙湖旅游区(对照点),,49,49,64,22,28,118,118,70,70,15,32,30,24,0.5,0.3
2022-05-30T12:00:00,1948A,106.3668,39.0145,石嘴山市,大武口朝阳西街,,50,50,41,22,35,111,109,84,64,18,19,16,14,0.4,0.6
2022-05-30T12:00:00,1949A,106.7704,39.2282,石嘴山市,惠农南大街,颗粒物(PM10),66,82,47,31,24,136,136,75,60,24,21,39,12,1.3,0.6
2022-05-30T12:00:00,1950A,106.7099,39.1325,石嘴山市,红果子镇惠新街,颗粒物(PM10),69,88,49,14,13,102,102,46,46,18,24,22,18,0.5,0.5
2022-05-30T12:00:00,1951A,84.895,45.6094,克拉玛依市,长征新村,,31,31,26,10,5,105,77,96,76,11,5,5,5,0.2,0.2
2022-05-30T12:00:00,1952A,84.8988,45.5893,克拉玛依市,南林小区,,43,43,31,16,12,111,78,103,81,13,7,8,7,0.3,0.3
2022-05-30T12:00:00,1954A,84.905,44.3396,克拉玛依市,独山子区,,32,32,101,8,24,92,85,91,86,5,4,6,6,0.6,0.6
2022-05-30T12:00:00,1955A,85.6979,46.098,克拉玛依市,乌尔禾区商贸楼,颗粒物(PM10),51,52,48,3,10,92,79,86,83,2,2,8,9,0.2,0.1
2022-05-30T12:00:00,1956A,86.1472,41.7538,巴音郭楞州,孔雀公园,颗粒物(PM10),69,88,68,14,16,124,114,111,111,11,10,2,2,0.3,0.3
2022-05-30T12:00:00,1957A,86.1972,41.7166,巴音郭楞州,棉纺厂,颗粒物(PM10),65,80,46,27,22,117,107,101,95,10,10,4,4,0.3,0.3
2022-05-30T12:00:00,1958A,86.2357,41.7173,巴音郭楞州,经济开发区,颗粒物(PM10),69,87,69,18,18,126,115,116,100,7,7,2,2,0.4,0.3
2022-05-30T12:00:00,1961A,117.532,36.6868,济南市,东山小学,,39,34,59,2,11,206,124,81,81,7,23,9,14,0.4,0.4
2022-05-30T12:00:00,1966A,120.0405,35.8735,青岛市,黄岛区4号,,48,48,19,0,6,122,111,90,89,5,11,6,6,0.2,0.4
2022-05-30T12:00:00,1982A,122.0693,37.2174,威海市,文登开发区,,30,27,14,5,6,120,94,107,89,8,10,5,4,0.1,0.2
2022-05-30T12:00:00,2031A,113.1817,27.9958,株洲市,云田中学,,15,7,16,9,18,61,48,56,40,5,7,10,10,0.6,0.6
2022-05-30T12:00:00,2054A,114.1099,32.1059,信阳市,平桥分局,细颗粒物(PM2.5),62,5,42,44,27,146,146,108,108,12,10,6,6,0.5,0.6
2022-05-30T12:00:00,2064A,113.9956,32.1271,信阳市,南湾水厂,颗粒物(PM10),68,86,46,35,25,146,146,107,107,12,9,8,7,0.6,0.5
2022-05-30T12:00:00,2065A,114.0775,32.1195,信阳市,市酿酒公司,颗粒物(PM10),85,119,39,32,24,151,151,108,108,10,9,8,7,0.6,0.6
2022-05-30T12:00:00,2066A,114.0609,32.1399,信阳市,审计局,颗粒物(PM10),69,88,52,30,25,154,154,109,109,8,8,6,5,0.9,0.7
2022-05-30T12:00:00,2067A,114.6613,33.6128,周口市,市环境监测站,颗粒物(PM10),52,54,70,2,19,194,135,128,96,9,12,5,7,0.3,0.5
2022-05-30T12:00:00,2068A,114.6758,33.6347,周口市,周口师范,,42,42,67,5,18,182,131,102,91,13,12,5,6,0.2,0.4
2022-05-30T12:00:00,2069A,114.6546,33.5979,周口市,市运管处,,48,48,72,1,17,192,134,129,96,16,15,7,9,0.2,0.5
2022-05-30T12:00:00,2070A,114.6369,33.6406,周口市,川汇区环保局,,,46,67,5,20,189,137,106,95,13,14,4,6,,0.9
2022-05-30T12:00:00,2075A,117.6336,24.4674,漳州市,九湖(对照点),,29,29,24,13,9,82,82,34,34,2,5,5,4,0.4,0.3
2022-05-30T12:00:00,2160A,112.85,35.5051,晋城市,自来水公司,,46,30,68,5,16,167,146,95,94,12,21,10,13,0.6,0.7
2022-05-30T12:00:00,2161A,112.8318,35.4936,晋城市,白云商贸,,48,21,65,14,15,166,152,98,98,4,14,9,11,0.2,0.4
2022-05-30T12:00:00,2162A,112.8508,35.4887,晋城市,市环保局,,46,38,80,9,20,165,146,89,89,5,19,11,12,0.4,0.6
2022-05-30T12:00:00,2163A,112.8676,35.4897,晋城市,技术学院,,49,49,66,9,16,146,146,104,91,9,22,2,22,0.4,0.5
2022-05-30T12:00:00,2165A,112.8453,35.546,晋城市,白马寺 (对照点),臭氧1小时,58,28,79,5,13,194,166,139,130,12,15,7,10,0.9,0.7
2022-05-30T12:00:00,2166A,112.4397,39.3522,朔州市,平朔,,46,46,45,13,14,117,107,64,64,8,18,8,9,0.2,0.2
2022-05-30T12:00:00,2167A,112.4575,39.3617,朔州市,朔唯,细颗粒物(PM2.5),74,46,58,54,34,119,110,56,56,9,26,3,7,0.5,0.5
2022-05-30T12:00:00,2168A,112.4258,39.3197,朔州市,区政府,颗粒物(PM10),56,62,32,19,6,126,113,81,81,13,15,8,7,0.4,0.4
2022-05-30T12:00:00,2169A,112.4072,39.3278,朔州市,市环保局,,,,46,,9,120,,68,65,,15,,9,,0.4
2022-05-30T12:00:00,2170A,112.4272,39.3681,朔州市,市二中,,39,39,51,12,15,115,106,63,63,9,22,10,11,0.5,0.5
2022-05-30T12:00:00,2171A,112.7532,37.6945,晋中市,锦纶小区,颗粒物(PM10),57,63,46,20,14,133,116,61,61,16,26,11,6,0.4,0.2
2022-05-30T12:00:00,2173A,112.7249,37.7067,晋中市,南都小区,颗粒物(PM10),55,59,50,16,14,132,115,61,61,15,27,11,7,0.4,0.2
2022-05-30T12:00:00,2174A,112.6991,37.6982,晋中市,榆次区政府,颗粒物(PM10),51,51,47,22,21,130,114,60,60,13,25,10,6,0.6,0.5
2022-05-30T12:00:00,2175A,110.9956,35.0147,运城市,运城中学,颗粒物(PM10),60,69,88,6,26,164,145,80,80,9,17,20,13,0.2,0.4
2022-05-30T12:00:00,2178A,110.9686,35.0303,运城市,地区技校,颗粒物(PM10),54,58,88,18,18,152,137,71,71,7,17,21,17,0.5,0.5
2022-05-30T12:00:00,2179A,111.0414,35.1147,运城市,空港新区,颗粒物(PM10),58,66,106,17,23,136,136,72,72,7,19,19,16,0.5,0.6
2022-05-30T12:00:00,2181A,112.7383,38.4519,忻州市,开发区,,35,24,38,2,10,124,112,80,80,7,16,9,10,0.2,0.3
2022-05-30T12:00:00,2182A,112.7003,38.4928,忻州市,会展中心,,33,20,31,2,6,104,104,72,72,6,17,6,8,0.3,0.3
2022-05-30T12:00:00,2183A,111.1406,37.5211,吕梁市,环保局,,,53,63,36,18,139,82,37,37,,37,7,6,,0.4
2022-05-30T12:00:00,2185A,111.1297,37.5136,吕梁市,自来水公司,颗粒物(PM10),56,61,78,12,14,129,78,42,42,26,31,10,10,0.3,0.3
2022-05-30T12:00:00,2187A,106.8174,39.6973,乌海市,市林业局,,49,49,58,27,18,121,118,58,58,14,28,22,32,0.8,0.8
2022-05-30T12:00:00,2188A,106.7907,39.6667,乌海市,中海勃湾学校,,45,45,36,16,17,120,118,63,63,19,26,28,22,0.7,0.7
2022-05-30T12:00:00,2191A,122.2532,43.6801,通辽市,艺术职业学校,,38,30,29,26,7,80,80,60,60,10,14,5,5,0.2,0.2
2022-05-30T12:00:00,2192A,119.7594,49.2261,呼伦贝尔市,区环保局,,25,11,22,17,18,77,68,55,55,5,7,4,5,0.3,0.4
2022-05-30T12:00:00,2195A,107.4212,40.761,巴彦淖尔市,附二中,,35,35,26,5,12,111,111,81,81,6,10,3,4,0.4,0.3
2022-05-30T12:00:00,2196A,107.37,40.7372,巴彦淖尔市,市环保大楼,,36,33,31,9,17,113,113,77,77,7,12,5,5,0.5,0.4
2022-05-30T12:00:00,2197A,113.1306,40.9923,乌兰察布市,集宁新区,,32,21,19,15,13,102,102,88,88,1,4,7,8,0.3,0.3
2022-05-30T12:00:00,2200A,122.0392,46.0656,兴安盟,胜华新制药厂,,20,10,20,12,12,68,64,57,57,5,7,2,3,0.1,0.1
2022-05-30T12:00:00,2201A,121.9504,46.0741,兴安盟,科右前旗环保局,,21,9,14,11,14,68,65,60,60,6,8,3,3,0.2,0.2
2022-05-30T12:00:00,2202A,116.1042,43.9317,锡林郭勒盟,市环保监测站,,21,19,12,3,7,74,66,57,57,5,12,10,10,0.5,0.5
2022-05-30T12:00:00,2203A,116.0781,43.9311,锡林郭勒盟,市政府,,,25,15,8,4,78,,56,55,7,12,9,8,0.5,0.5
2022-05-30T12:00:00,2204A,105.6467,38.8363,阿拉善盟,西城区西花园(对照点),,37,19,26,14,10,118,118,92,92,4,8,13,11,0.3,0.3
2022-05-30T12:00:00,2205A,105.6985,38.8411,阿拉善盟,蒙二幼,,38,20,22,9,15,119,119,95,95,5,6,7,7,0.4,0.3
2022-05-30T12:00:00,2206A,105.724,38.8516,阿拉善盟,环保局新楼,,35,14,28,11,13,112,109,94,93,8,6,7,7,0.4,0.3
2022-05-30T12:00:00,2207A,121.6094,41.998,阜新市,工业园区,,,,32,,22,88,88,58,58,,17,21,15,0.4,0.7
2022-05-30T12:00:00,2208A,121.6697,42.0279,阜新市,长青街,,26,10,32,4,18,83,83,54,54,10,14,19,22,0.6,0.7
2022-05-30T12:00:00,2209A,121.6673,42.0705,阜新市,农业园区,,34,34,30,7,18,86,80,53,53,10,14,12,10,0.4,0.5
2022-05-30T12:00:00,2210A,121.6717,42.0224,阜新市,东苑,,45,45,42,5,25,91,91,57,57,15,20,17,21,0.3,0.5
2022-05-30T12:00:00,2211A,121.6506,42.0498,阜新市,玉龙新城,,32,32,31,6,12,85,78,52,52,13,13,16,12,0.3,0.4
2022-05-30T12:00:00,2212A,123.2,41.1953,辽阳市,宏伟区,,38,38,29,9,14,148,81,68,45,23,17,18,12,1.1,1
2022-05-30T12:00:00,2213A,123.1683,41.2495,辽阳市,新华园,,29,22,32,2,19,146,90,66,56,13,19,8,8,0.3,0.6
2022-05-30T12:00:00,2214A,123.2354,41.2639,辽阳市,滨河路,,,14,29,7,24,143,79,66,55,,15,9,11,0.6,1
2022-05-30T12:00:00,2215A,123.149,41.2991,辽阳市,铁西工业园,,28,5,33,10,25,143,88,58,58,14,17,19,11,0.3,0.7
2022-05-30T12:00:00,2216A,123.8139,42.3022,铁岭市,汇工街西,,31,12,28,3,12,188,97,71,70,11,18,6,8,0.3,0.4
2022-05-30T12:00:00,2217A,123.8649,42.2923,铁岭市,水上乐园,,,,27,3,19,189,89,61,59,8,19,5,6,0.2,0.4
2022-05-30T12:00:00,2218A,123.8486,42.2867,铁岭市,银州路东段,,27,22,30,4,14,182,86,64,62,13,20,6,6,0.3,0.4
2022-05-30T12:00:00,2219A,123.7153,42.2217,铁岭市,金沙江路北,,29,3,29,4,12,171,90,69,63,11,19,9,9,0.5,0.6
2022-05-30T12:00:00,2220A,120.4318,41.5881,朝阳市,西梁,,27,25,31,2,15,85,85,41,41,8,20,6,8,0.5,0.8
2022-05-30T12:00:00,2221A,120.4521,41.5646,朝阳市,河畔小区,,,,22,,13,85,85,42,42,8,16,,9,,0.7
2022-05-30T12:00:00,2222A,120.4176,41.5648,朝阳市,八里堡,,35,35,27,2,13,87,87,45,45,11,20,8,10,0.4,0.6
2022-05-30T12:00:00,2223A,120.3806,41.5969,朝阳市,农业园区,,28,24,23,2,9,87,87,48,48,4,16,7,8,0.7,0.8
2022-05-30T12:00:00,2225A,124.4002,43.1713,四平市,一商场,,26,20,29,10,13,189,83,68,68,6,10,7,7,0.2,0.3
2022-05-30T12:00:00,2226A,124.388,43.193,四平市,境园,,26,16,28,2,8,190,82,65,65,3,7,3,3,0.1,0.2
2022-05-30T12:00:00,2227A,125.1358,42.8845,辽源市,环保局,,28,13,23,12,17,178,88,85,76,4,6,4,5,0.4,0.5
2022-05-30T12:00:00,2229A,125.9358,41.7173,通化市,光明,,24,2,18,0,11,183,74,105,72,7,7,10,8,0.6,0.7
2022-05-30T12:00:00,2230A,125.9446,41.7325,通化市,铁路,,25,8,19,4,11,176,80,96,72,6,8,8,6,0.5,0.6
2022-05-30T12:00:00,2231A,126.4219,41.9171,白山市,喜丰,,23,17,45,2,18,193,72,94,75,10,10,13,10,0.8,0.8
2022-05-30T12:00:00,2232A,126.4077,41.9419,白山市,环保局,,22,20,35,9,16,192,68,102,73,20,13,8,7,0.7,0.5
2022-05-30T12:00:00,2233A,124.8006,45.1214,松原市,江南,,25,2,10,4,10,108,78,58,57,5,9,3,2,0.3,0.4
2022-05-30T12:00:00,2234A,124.7965,45.1722,松原市,江北,,,2,16,3,10,105,76,57,57,,8,2,2,0.4,0.5
2022-05-30T12:00:00,2235A,122.7911,45.6077,白城市,洮北区环保局,,25,16,18,2,2,78,78,55,55,8,11,5,7,0.2,0.1
2022-05-30T12:00:00,2236A,122.8738,45.5725,白城市,市环保局,,,,16,,12,63,63,40,40,,16,5,8,0.3,0.3
2022-05-30T12:00:00,2237A,129.47,42.8883,延边朝鲜族自治州,妇幼医院,,21,16,21,2,3,100,67,71,66,8,7,6,6,0.5,0.5
2022-05-30T12:00:00,2238A,129.5055,42.9108,延边朝鲜族自治州,延边医院,,22,13,21,2,4,99,68,70,66,6,7,8,8,0.4,0.4
2022-05-30T12:00:00,2239A,129.3964,42.8881,延边朝鲜族自治州,朝阳川镇医院,,24,10,22,2,4,99,74,73,68,5,8,3,4,0.4,0.4
2022-05-30T12:00:00,2240A,130.9762,45.3001,鸡西市,环保局,,21,13,29,13,11,101,42,93,61,41,20,6,4,0.4,0.3
2022-05-30T12:00:00,2243A,130.9429,45.3039,鸡西市,第一中学,,18,12,31,11,7,108,43,107,67,35,17,8,6,0.4,0.3
2022-05-30T12:00:00,2244A,130.2537,47.3416,鹤岗市,哈啤分公司,,,21,18,6,10,74,66,70,66,,10,,8,0.4,0.5
2022-05-30T12:00:00,2245A,130.2684,47.3086,鹤岗市,斯达机电,,22,12,15,5,8,81,70,74,65,5,10,6,7,0.2,0.3
2022-05-30T12:00:00,2246A,130.3114,47.3388,鹤岗市,东山纸板厂,,25,25,14,5,8,79,69,70,67,10,11,8,9,0.3,0.4
2022-05-30T12:00:00,2247A,130.1097,47.3382,鹤岗市,五号水库(对照点),,,,13,,5,76,76,69,69,5,7,6,7,,0.2
2022-05-30T12:00:00,2248A,131.1511,46.6937,双鸭山市,双合村,,21,19,24,14,12,126,65,102,69,12,11,7,8,0.3,0.3
2022-05-30T12:00:00,2249A,131.1652,46.6191,双鸭山市,南小市,,34,34,37,7,14,121,68,105,72,8,6,4,5,0.1,0.3
2022-05-30T12:00:00,2250A,131.1524,46.6554,双鸭山市,环保局,,33,33,25,9,12,124,64,107,73,9,8,3,4,0.3,0.3
2022-05-30T12:00:00,2251A,131.12,46.5656,双鸭山市,苗圃(对照点),,26,16,22,18,22,139,75,112,81,4,4,1,2,0.4,0.3
2022-05-30T12:00:00,2252A,128.5159,47.4311,伊春市,环保局,,,7,14,2,9,83,,83,54,2,6,6,5,0.2,0.4
2022-05-30T12:00:00,2253A,128.9102,47.7412,伊春市,电力嘉园,,21,18,23,7,15,90,66,90,62,5,9,5,7,0.4,0.6
2022-05-30T12:00:00,2254A,129.5029,48.471,伊春市,汤旺河国家公园(对照点),,19,7,8,3,4,93,60,90,61,4,4,5,6,0.3,0.3
2022-05-30T12:00:00,2255A,130.2751,46.8028,佳木斯市,佳纺,,22,2,19,3,22,94,68,94,66,4,12,3,4,0.3,0.5
2022-05-30T12:00:00,2256A,130.3995,46.8307,佳木斯市,发电厂,,,24,28,5,21,106,71,104,71,,11,7,8,0.5,0.5
2022-05-30T12:00:00,2257A,130.3258,46.7975,佳木斯市,环保局,,23,10,35,3,40,104,71,104,70,4,16,3,3,0.3,0.5
2022-05-30T12:00:00,2258A,130.3648,46.8032,佳木斯市,十一中,,21,12,33,7,23,101,66,99,65,10,20,5,7,0.4,0.5
2022-05-30T12:00:00,2259A,130.3794,46.7588,佳木斯市,四丰(对照点),,23,8,22,5,22,106,73,106,74,4,12,5,7,0.4,0.5
2022-05-30T12:00:00,2262A,131.0518,45.8751,七台河市,新一中(对照点),,19,7,19,5,12,120,60,92,69,10,11,8,8,0.8,0.8
2022-05-30T12:00:00,2263A,127.4833,50.2524,黑河市,交通局,,16,8,13,7,9,82,50,61,52,5,9,6,6,0.4,0.5
2022-05-30T12:00:00,2264A,127.5144,50.2341,黑河市,环保局,,20,17,16,10,12,85,61,74,64,5,7,5,6,0.3,0.4
2022-05-30T12:00:00,2265A,127.5291,50.2472,黑河市,大黑河岛(对照点),,22,22,8,2,5,83,60,67,61,2,4,7,8,0.4,0.5
2022-05-30T12:00:00,2266A,126.9785,46.6365,绥化市,人和东街,,25,6,19,2,17,133,78,60,60,4,9,5,8,0.2,0.3
2022-05-30T12:00:00,2267A,126.964,46.6528,绥化市,党政办公中心,,23,4,17,2,14,131,72,56,56,5,10,6,7,0.2,0.3
2022-05-30T12:00:00,2269A,124.1069,50.4097,大兴安岭地区,科技局,,18,10,9,7,8,75,57,52,52,2,4,3,3,0.3,0.3
2022-05-30T12:00:00,2270A,117.396,32.939,蚌埠市,工人疗养院,,47,47,42,5,17,155,98,79,79,14,14,8,8,0.2,0.3
2022-05-30T12:00:00,2271A,117.3605,32.9427,蚌埠市,百货大楼,颗粒物(PM10),55,60,52,3,10,152,98,82,82,17,18,7,9,0.4,0.5
2022-05-30T12:00:00,2273A,117.4185,32.8911,蚌埠市,蚌埠学院,,46,46,49,9,15,157,87,66,66,23,18,12,11,0.3,0.4
2022-05-30T12:00:00,2274A,117.3533,32.9673,蚌埠市,淮上区政府,颗粒物(PM10),51,51,52,2,13,153,102,85,85,10,16,10,12,0.3,0.5
2022-05-30T12:00:00,2275A,117.3145,32.8977,蚌埠市,高新区,颗粒物(PM10),54,58,50,7,18,155,103,83,83,16,24,8,9,0.4,0.6
2022-05-30T12:00:00,2277A,116.8305,32.7727,淮南市,潘集区政府,,49,49,48,14,20,131,89,68,68,14,16,8,6,0.2,0.3
2022-05-30T12:00:00,2278A,117.0067,32.6524,淮南市,师范学院,,42,38,43,29,21,128,73,63,62,21,19,9,9,0.4,0.5
2022-05-30T12:00:00,2279A,116.8569,32.5951,淮南市,谢家集区政府,,38,38,38,17,12,120,68,78,63,21,16,5,4,0.3,0.4
2022-05-30T12:00:00,2280A,116.8281,32.633,淮南市,八公山区政府,,31,31,37,15,16,124,71,84,68,16,8,6,4,0.2,0.3
2022-05-30T12:00:00,2281A,116.6325,32.6201,淮南市,焦岗湖风景区管理处(对照点),,,19,39,9,15,116,86,56,56,14,19,13,9,,0.3
2022-05-30T12:00:00,2282A,116.8004,33.975,淮北市,监测站,,,,51,,17,149,,87,84,12,13,,5,0.2,0.4
2022-05-30T12:00:00,2283A,116.8091,33.9007,淮北市,烈山区政府,颗粒物(PM10),54,58,50,1,14,161,138,96,96,9,13,10,10,0.3,0.5
2022-05-30T12:00:00,2284A,116.7856,33.9477,淮北市,职业技术学院,颗粒物(PM10),54,57,54,10,11,149,126,92,92,7,10,6,7,0.2,0.5
2022-05-30T12:00:00,2285A,117.8177,30.9412,铜陵市,市第四中学,,,26,12,24,10,71,61,29,29,,21,16,15,,1.1
2022-05-30T12:00:00,2286A,117.8059,30.9273,铜陵市,市公路局,颗粒物(PM10),51,51,33,13,10,107,107,41,41,12,16,11,9,0.7,1.2
2022-05-30T12:00:00,2287A,117.7807,30.9413,铜陵市,市新民污水厂,颗粒物(PM10),53,55,36,28,19,106,106,41,41,12,22,12,18,0.6,0.6
2022-05-30T12:00:00,2288A,117.7439,30.8792,铜陵市,市第九中学,颗粒物(PM10),53,55,35,27,11,99,99,32,32,27,35,12,7,1.0,0.7
2022-05-30T12:00:00,2289A,117.846,30.9413,铜陵市,车站新区,颗粒物(PM10),56,61,35,26,14,117,117,49,49,14,17,12,11,0.7,1
2022-05-30T12:00:00,2290A,117.8483,30.97,铜陵市,市职教基地,,37,37,23,23,8,104,104,46,46,13,15,9,9,0.8,1.1
2022-05-30T12:00:00,2291A,117.0809,30.5177,安庆市,环科院,,33,28,18,23,10,94,94,34,34,16,17,7,6,0.8,0.7
2022-05-30T12:00:00,2292A,117.0331,30.5119,安庆市,马山宾馆,,35,30,17,24,12,108,108,32,32,10,20,8,7,0.7,0.7
2022-05-30T12:00:00,2294A,116.9896,30.6145,安庆市,安庆大学,,34,33,24,14,13,108,108,48,48,8,12,5,4,0.6,0.6
2022-05-30T12:00:00,2295A,118.2903,29.6963,黄山市,延安路89号,,19,15,18,13,8,39,39,27,22,4,7,5,6,0.4,0.4
2022-05-30T12:00:00,2296A,118.327,29.7178,黄山市,黄山东路89号,,17,10,8,9,6,52,52,30,24,6,9,6,5,0.6,0.7
2022-05-30T12:00:00,2297A,118.1371,30.2756,黄山市,黄山区政府5号楼,,21,8,10,8,5,66,66,21,21,2,4,6,6,0.5,0.5
2022-05-30T12:00:00,2298A,118.3093,32.3153,滁州市,老年大学,,33,4,29,18,13,129,104,85,73,20,18,8,10,0.3,0.5
2022-05-30T12:00:00,2299A,118.3244,32.2786,滁州市,人大宾馆,,43,43,27,21,11,121,96,72,72,17,16,5,6,0.4,0.5
2022-05-30T12:00:00,2301A,115.8277,32.8929,阜阳市,市监测站,,37,31,37,10,16,144,118,85,85,10,11,9,8,0.4,0.6
2022-05-30T12:00:00,2303A,115.8554,32.8605,阜阳市,开发区,,36,36,46,3,13,136,108,74,74,14,14,6,6,0.4,0.5
2022-05-30T12:00:00,2307A,116.5079,31.737,六安市,监测大楼,,34,19,27,14,9,109,107,66,65,9,11,5,6,0.4,0.4
2022-05-30T12:00:00,2308A,116.4738,31.7643,六安市,皖西学院,,39,39,30,17,13,113,113,67,56,13,15,7,8,0.4,0.5
2022-05-30T12:00:00,2309A,116.4996,31.7905,六安市,朝阳厂,,49,49,35,17,19,104,102,68,44,7,13,6,6,0.4,0.5
2022-05-30T12:00:00,2310A,116.5567,31.7886,六安市,开发区,,39,31,39,27,16,117,112,70,57,6,17,6,6,0.3,0.5
2022-05-30T12:00:00,2311A,115.8072,33.8399,亳州市,污水处理厂,,45,37,43,12,20,187,141,102,102,5,9,10,8,0.1,0.3
2022-05-30T12:00:00,2312A,115.7789,33.8518,亳州市,三国揽胜宫,,42,42,51,8,19,176,130,118,96,4,8,7,6,0.3,0.6
2022-05-30T12:00:00,2314A,117.47,30.6618,池州市,池州学院,,,57,16,28,8,68,,33,27,,7,,6,,0.6
2022-05-30T12:00:00,2316A,118.7581,30.9454,宣城市,鳌峰子站,,44,44,19,25,9,100,100,37,37,8,16,8,6,0.8,0.6
2022-05-30T12:00:00,2317A,118.7385,30.9743,宣城市,敬亭山子站,,,26,15,19,6,74,,33,33,,20,,6,,0.5
2022-05-30T12:00:00,2318A,118.7173,30.9427,宣城市,开发区子站,,35,29,14,17,5,112,112,49,49,8,15,7,4,0.7,0.5
2022-05-30T12:00:00,2319A,119.0141,25.4325,莆田市,荔城区仓后路,,40,40,36,16,14,93,73,30,30,10,16,6,5,0.5,0.6
2022-05-30T12:00:00,2320A,119.0015,25.4553,莆田市,莆田市监测站,,28,28,34,14,13,100,81,38,38,3,8,5,4,0.7,0.8
2022-05-30T12:00:00,2321A,119.1119,25.4561,莆田市,涵江区六中,,45,45,33,16,17,95,95,36,36,9,14,6,6,0.7,0.6
2022-05-30T12:00:00,2322A,119.1013,25.3215,莆田市,秀屿区政府,,37,37,22,15,12,96,96,39,39,9,11,6,6,0.5,0.5
2022-05-30T12:00:00,2324A,117.6211,26.2625,三明市,三钢,,36,36,31,15,15,78,78,24,24,11,16,12,13,0.6,1
2022-05-30T12:00:00,2325A,117.635,26.2714,三明市,三明二中,,25,23,24,11,12,78,78,27,27,7,13,6,7,0.5,0.8
2022-05-30T12:00:00,2326A,117.6028,26.2378,三明市,三元区政府,,,30,27,1,12,73,73,18,18,,13,6,6,0.6,0.6
2022-05-30T12:00:00,2327A,117.7275,26.3108,三明市,洋溪(对照点),,,26,22,11,10,81,81,30,30,,8,7,7,0.5,0.8
2022-05-30T12:00:00,2331A,118.0966,26.6761,南平市,茫荡山(对照点),,20,16,8,8,6,63,63,48,48,2,2,5,5,1.0,0.9
2022-05-30T12:00:00,2332A,118.1681,26.6369,南平市,南平市监测站,,28,12,22,15,15,89,89,28,28,4,11,6,6,0.4,0.7
2022-05-30T12:00:00,2333A,118.1825,26.6489,南平市,南平铝业有限公司,,28,18,23,11,13,87,87,29,29,3,7,6,6,0.6,0.6
2022-05-30T12:00:00,2334A,118.1756,26.6272,南平市,南平七中,,,22,25,9,14,83,83,26,26,,8,3,3,0.3,0.4
2022-05-30T12:00:00,2335A,117.0189,25.1181,龙岩市,龙岩师专(对照点),,18,18,25,9,10,50,50,26,26,5,12,14,6,0.5,0.7
2022-05-30T12:00:00,2336A,117.0217,25.1033,龙岩市,龙岩市监测站,,16,13,20,5,7,50,50,28,28,7,14,5,5,0.4,0.6
2022-05-30T12:00:00,2337A,117.0258,25.0661,龙岩市,闽西职业技术学院,,16,8,24,10,9,50,50,26,26,5,13,5,10,0.4,0.5
2022-05-30T12:00:00,2338A,117.0196,25.0306,龙岩市,龙岩学院,,17,17,15,3,5,49,49,31,31,5,6,2,3,0.4,0.4
2022-05-30T12:00:00,2339A,119.5001,26.6946,宁德市,金涵水库(对照点),,50,50,33,11,5,81,56,21,21,16,12,7,7,0.6,0.6
2022-05-30T12:00:00,2341A,119.5388,26.6612,宁德市,宁德市监测站,,,41,49,13,13,88,69,22,22,,24,7,8,0.6,0.9
2022-05-30T12:00:00,2342A,117.3102,29.3867,景德镇市,王港中学(对照点),,18,18,22,10,17,49,48,27,27,3,3,4,4,0.3,0.5
2022-05-30T12:00:00,2343A,117.2117,29.2933,景德镇市,老干部活动中心,,49,46,51,34,29,49,49,25,25,16,24,4,9,0.8,0.9
2022-05-30T12:00:00,2344A,117.1894,29.2789,景德镇市,兽医站,,41,41,43,16,26,46,46,20,20,17,21,4,4,1.1,1
2022-05-30T12:00:00,2345A,117.1547,29.2617,景德镇市,台达陶瓷,颗粒物(PM10),55,60,42,21,26,49,49,27,27,20,26,10,23,0.8,0.8
2022-05-30T12:00:00,2346A,117.2461,29.2956,景德镇市,陶研所,,49,35,37,34,23,45,45,19,19,13,21,5,7,0.5,0.6
2022-05-30T12:00:00,2347A,114.0997,27.5002,萍乡市,武功山(对照点),,,3,4,2,3,60,40,47,47,5,6,,,0.2,0.2
2022-05-30T12:00:00,2348A,113.8385,27.6434,萍乡市,中医院,,18,5,22,10,16,64,57,50,50,9,15,7,6,0.7,0.9
2022-05-30T12:00:00,2349A,113.8493,27.6253,萍乡市,市政府车库,,16,10,32,0,6,54,51,42,42,8,16,7,7,0.6,0.9
2022-05-30T12:00:00,2350A,113.8676,27.6435,萍乡市,市环保局,,,12,24,9,16,62,60,53,53,14,17,6,7,,0.7
2022-05-30T12:00:00,2351A,113.866,27.6198,萍乡市,安源区政府,,16,8,22,4,9,55,51,45,45,6,13,10,11,0.1,0.3
2022-05-30T12:00:00,2352A,115.0861,27.9317,新余市,北岗(对照点),,18,12,23,3,15,58,56,46,46,2,2,12,12,0.4,0.7
2022-05-30T12:00:00,2353A,114.9886,27.8431,新余市,飞宇,,26,26,38,9,18,67,55,47,47,13,18,2,10,0.6,0.7
2022-05-30T12:00:00,2354A,114.9231,27.8246,新余市,第二水厂,,23,23,42,2,17,48,40,36,36,13,25,6,9,1.0,1.3
2022-05-30T12:00:00,2355A,114.9308,27.8036,新余市,市气象局,,24,24,39,14,24,51,46,37,37,15,27,7,16,0.7,1.5
2022-05-30T12:00:00,2357A,116.9822,28.1136,鹰潭市,龙虎山(对照点),,20,20,26,5,13,55,50,24,24,1,4,1,3,0.4,0.4
2022-05-30T12:00:00,2358A,117.0564,28.2642,鹰潭市,新监测站,,,,32,,14,58,,30,30,,14,2,18,0.5,0.4
2022-05-30T12:00:00,2359A,117.0311,28.2475,鹰潭市,财苑宾馆,,,,37,0,8,60,60,31,31,5,14,2,7,0.3,0.5
2022-05-30T12:00:00,2360A,117.0222,28.2264,鹰潭市,体育馆,,31,31,43,0,18,64,64,30,30,1,15,4,25,0.6,0.8
2022-05-30T12:00:00,2361A,117.0017,28.2131,鹰潭市,三川水表,,20,10,44,0,20,62,62,26,26,2,16,8,22,0.3,0.7
2022-05-30T12:00:00,2362A,114.9017,25.9149,赣州市,通天岩(对照点),,28,28,23,9,10,87,87,57,57,10,20,4,6,0.4,0.4
2022-05-30T12:00:00,2363A,114.9367,25.8664,赣州市,地委,,31,31,22,10,10,80,80,58,58,9,11,9,11,0.6,0.6
2022-05-30T12:00:00,2364A,114.9461,25.8481,赣州市,气象台,,31,31,23,14,12,87,87,68,68,8,8,9,8,0.4,0.4
2022-05-30T12:00:00,2365A,114.9322,25.8333,赣州市,市图书馆,,29,29,23,11,10,79,79,59,59,12,12,4,14,0.7,0.7
2022-05-30T12:00:00,2366A,114.8905,25.8471,赣州市,华坚鞋城,,27,21,21,18,11,84,84,64,64,8,10,4,7,0.6,0.6
2022-05-30T12:00:00,2367A,114.9754,27.0803,吉安市,红声器材厂,,33,33,39,15,18,75,47,31,31,10,11,5,9,0.4,0.4
2022-05-30T12:00:00,2368A,114.9658,27.0999,吉安市,市森林工业局,,30,29,37,21,23,84,51,36,36,9,14,3,4,0.4,0.5
2022-05-30T12:00:00,2369A,114.99,27.1312,吉安市,市环境监测站,,28,28,42,16,20,91,51,36,33,10,12,5,10,0.7,0.7
2022-05-30T12:00:00,2370A,115.0093,27.0968,吉安市,青原区法院,,32,32,40,17,19,89,49,33,33,11,12,5,9,0.4,0.4
2022-05-30T12:00:00,2371A,114.3408,27.8064,宜春市,槟榔水业(对照点),,21,19,47,10,21,74,65,61,61,10,17,15,7,0.8,0.9
2022-05-30T12:00:00,2373A,114.3956,27.7844,宜春市,市石油公司,,22,22,38,8,22,90,56,50,50,16,18,10,6,0.8,1.1
2022-05-30T12:00:00,2374A,114.3703,27.7914,宜春市,市气象局,,19,15,51,6,23,83,60,61,61,12,19,11,6,0.9,1
2022-05-30T12:00:00,2375A,114.4013,27.8074,宜春市,市广电局,,,15,45,7,27,91,,55,55,14,22,14,4,0.5,0.8
2022-05-30T12:00:00,2376A,116.2127,28.0814,抚州市,桐源党溪(对照点),,21,21,30,13,15,59,59,28,28,6,11,1,3,0.5,0.6
2022-05-30T12:00:00,2377A,116.3544,27.9831,抚州市,市站,,29,25,42,20,23,60,60,25,25,12,21,31,9,0.8,0.8
2022-05-30T12:00:00,2378A,116.3565,27.963,抚州市,血防站,,34,34,42,19,19,65,65,27,27,5,16,13,8,0.7,0.8
2022-05-30T12:00:00,2379A,116.3564,28.0007,抚州市,采茶剧团,,30,30,36,16,20,52,52,21,21,10,15,9,6,1.0,0.9
2022-05-30T12:00:00,2380A,116.385,27.9647,抚州市,医学分院,,26,26,44,13,19,58,58,25,25,9,15,5,4,1.0,0.9
2022-05-30T12:00:00,2381A,118.005,28.4572,上饶市,百草园(对照点),,23,12,37,4,18,79,72,39,39,7,15,5,10,0.7,0.8
2022-05-30T12:00:00,2382A,117.9756,28.4436,上饶市,市监测站,,20,14,42,10,26,78,64,36,36,12,20,4,10,0.3,0.5
2022-05-30T12:00:00,2383A,117.9519,28.4628,上饶市,凤凰光学,,20,13,47,9,26,75,64,39,39,13,27,5,12,0.3,0.6
2022-05-30T12:00:00,2385A,114.17,35.9019,鹤壁市,市监测站,,44,34,74,11,26,239,138,92,92,12,20,3,16,0.5,0.8
2022-05-30T12:00:00,2386A,114.2956,35.7511,鹤壁市,市交警支队,,40,30,80,3,29,230,128,76,76,8,19,6,13,0.3,0.8
2022-05-30T12:00:00,2387A,114.2878,35.7306,鹤壁市,迎宾馆,,,,98,15,28,231,127,79,77,10,21,3,11,0.4,0.6
2022-05-30T12:00:00,2389A,113.836,35.311,新乡市,环保西院,,45,34,76,17,21,239,141,107,96,5,14,9,10,0.4,0.5
2022-05-30T12:00:00,2390A,113.884,35.272,新乡市,开发区,,44,30,74,2,18,236,138,98,96,10,17,9,7,0.5,0.7
2022-05-30T12:00:00,2391A,113.883,35.303,新乡市,环保东院,,45,31,73,7,26,239,144,96,92,11,21,10,7,0.5,0.7
2022-05-30T12:00:00,2392A,115.0312,35.7636,濮阳市,环保局,,,,71,9,20,173,132,75,75,11,12,8,10,,0.5
2022-05-30T12:00:00,2394A,115.0574,35.7609,濮阳市,油田运输公司,,,39,78,15,20,203,150,90,90,18,15,8,11,,
2022-05-30T12:00:00,2395A,115.0866,35.7754,濮阳市,油田物探公司,,44,37,73,11,19,191,140,81,81,8,12,10,12,0.1,0.3
2022-05-30T12:00:00,2396A,113.8276,34.0159,许昌市,监测站,颗粒物(PM10),55,59,86,13,20,218,144,122,98,7,10,7,9,0.4,0.5
2022-05-30T12:00:00,2398A,113.7906,33.9953,许昌市,开发区,颗粒物(PM10),64,78,93,11,21,216,144,147,99,4,8,6,9,0.4,0.6
2022-05-30T12:00:00,2399A,114.051,33.5699,漯河市,三五一五工厂,,,,88,7,25,211,138,128,99,1,5,8,9,0.3,0.5
2022-05-30T12:00:00,2400A,114.0055,33.5698,漯河市,漯河大学,,44,38,75,7,25,200,138,125,99,2,5,7,8,0.5,0.7
2022-05-30T12:00:00,2401A,114.0138,33.5828,漯河市,市水利局,颗粒物(PM10),60,70,94,9,27,202,138,120,98,3,7,6,8,0.2,0.4
2022-05-30T12:00:00,2402A,114.0261,33.5698,漯河市,市广电局,,46,46,83,12,24,209,135,124,96,3,6,8,10,0.1,0.4
2022-05-30T12:00:00,2403A,112.5192,32.9917,南阳市,环保局,,,66,84,2,26,155,,132,127,7,13,3,3,0.3,0.5
2022-05-30T12:00:00,2404A,112.5339,33.0086,南阳市,瓦房庄,颗粒物(PM10),60,70,76,14,30,154,149,132,130,13,19,5,5,0.3,0.4
2022-05-30T12:00:00,2405A,112.5003,32.9735,南阳市,汉画馆,颗粒物(PM10),54,58,69,16,25,156,148,134,132,10,17,5,7,0.4,0.5
2022-05-30T12:00:00,2406A,112.5779,33.0144,南阳市,气象站,颗粒物(PM10),58,66,73,8,24,164,150,129,129,11,20,6,6,0.3,0.5
2022-05-30T12:00:00,2407A,112.548,32.9692,南阳市,理工学院,颗粒物(PM10),65,79,78,17,27,147,147,125,125,11,18,2,4,0.4,0.5
2022-05-30T12:00:00,2408A,115.6702,34.4285,商丘市,环境监测站,,38,31,62,10,21,175,120,102,86,9,14,7,9,0.3,0.5
2022-05-30T12:00:00,2409A,115.6458,34.4045,商丘市,粮食局,,,,62,6,18,173,116,106,86,19,15,6,8,0.2,0.5
2022-05-30T12:00:00,2410A,115.6293,34.3948,商丘市,睢阳区环保局,,38,22,49,4,19,173,121,107,90,9,11,5,6,0.2,0.5
2022-05-30T12:00:00,2420A,114.0189,32.9656,驻马店市,市一纸厂,颗粒物(PM10),56,61,56,18,24,170,143,143,102,5,9,8,7,0.2,0.4
2022-05-30T12:00:00,2421A,114.0114,33.015,驻马店市,市彩印厂,颗粒物(PM10),76,102,73,9,21,169,147,145,102,8,10,8,6,0.3,0.4
2022-05-30T12:00:00,2422A,113.9976,32.9771,驻马店市,天方二分厂,颗粒物(PM10),65,79,62,13,23,175,146,148,100,4,6,4,3,0.3,0.4
2022-05-30T12:00:00,2423A,115.0601,30.2313,黄石市,沈家营,,49,49,30,15,7,111,111,39,39,15,11,14,11,0.9,1
2022-05-30T12:00:00,2424A,115.0817,30.2006,黄石市,陈家湾,颗粒物(PM10),56,62,36,20,10,114,114,41,41,12,11,9,7,0.8,0.8
2022-05-30T12:00:00,2426A,114.8988,30.2019,黄石市,铁山,,,45,43,22,15,112,112,43,43,15,17,12,10,,1.4
2022-05-30T12:00:00,2427A,115.0307,30.2092,黄石市,团城山,,50,50,30,7,5,117,117,47,47,11,14,11,11,0.8,0.9
2022-05-30T12:00:00,2428A,111.0419,32.395,十堰市,武当山(对照点),颗粒物(PM10),81,112,126,32,43,172,165,131,120,8,7,9,8,0.7,0.5
2022-05-30T12:00:00,2429A,110.78,32.6494,十堰市,滨河新村,颗粒物(PM10),130,210,173,64,43,148,148,76,76,11,16,8,10,0.6,0.7
2022-05-30T12:00:00,2430A,110.7258,32.6389,十堰市,刘家沟,颗粒物(PM10),110,169,183,66,48,155,155,88,88,9,10,8,8,0.6,0.7
2022-05-30T12:00:00,2431A,110.8839,32.5714,十堰市,铁二处,颗粒物(PM10),121,191,147,62,39,177,177,93,93,11,13,10,6,0.7,0.5
2022-05-30T12:00:00,2432A,112.155,32.0197,襄阳市,襄城运动路,,,95,64,26,26,158,,96,96,15,23,11,11,0.4,0.6
2022-05-30T12:00:00,2433A,112.1392,32.0564,襄阳市,樊城新华路,颗粒物(PM10),76,101,72,26,47,173,173,106,106,9,20,9,10,0.6,0.8
2022-05-30T12:00:00,2434A,112.1825,32.1142,襄阳市,高新管委会,颗粒物(PM10),70,89,71,20,31,166,166,101,101,9,16,6,6,0.6,0.8
2022-05-30T12:00:00,2435A,112.2106,32.0903,襄阳市,襄州航空路,颗粒物(PM10),88,125,68,19,24,168,168,106,106,16,19,7,6,0.6,0.8
2022-05-30T12:00:00,2436A,114.8938,30.3994,鄂州市,市政府,,35,2,24,15,7,109,109,41,41,12,14,8,7,0.9,1.1
2022-05-30T12:00:00,2437A,114.8989,30.3714,鄂州市,赵家坝,,39,39,28,14,7,112,112,42,42,10,14,5,6,0.6,0.6
2022-05-30T12:00:00,2439A,112.2014,31.0481,荆门市,竹园小学,,,,50,,15,195,195,83,83,,15,10,10,0.6,0.7
2022-05-30T12:00:00,2440A,112.1969,30.9891,荆门市,掇刀,颗粒物(PM10),82,114,48,39,18,180,180,91,91,13,17,12,10,0.7,0.7
2022-05-30T12:00:00,2441A,112.2213,31.0386,荆门市,石化一小,颗粒物(PM10),79,108,47,33,20,175,175,80,80,10,13,10,9,0.1,0.3
2022-05-30T12:00:00,2443A,113.9153,30.9285,孝感市,文化路,颗粒物(PM10),69,87,43,39,18,124,124,58,58,10,11,4,4,0.7,0.7
2022-05-30T12:00:00,2444A,113.942,30.9075,孝感市,东城区,颗粒物(PM10),88,125,49,37,16,123,123,61,61,12,14,5,5,0.7,0.7
2022-05-30T12:00:00,2446A,114.9028,30.4742,黄冈市,职工中心,,41,41,22,17,7,114,114,49,49,8,11,7,6,1.0,1
2022-05-30T12:00:00,2447A,114.3175,29.8142,咸宁市,森林公园(对照点),,34,28,25,12,8,108,108,57,57,2,2,6,5,0.6,0.6
2022-05-30T12:00:00,2448A,114.3107,29.8454,咸宁市,市发改委,,34,32,30,21,10,106,106,46,46,6,8,7,6,0.4,0.5
2022-05-30T12:00:00,2449A,114.2936,29.8566,咸宁市,咸安区政府,,33,9,28,17,8,105,105,47,47,6,7,4,4,0.6,0.7
2022-05-30T12:00:00,2451A,113.3583,31.7275,随州市,市委党校,颗粒物(PM10),62,74,44,28,20,142,142,72,72,7,12,9,8,0.8,0.8
2022-05-30T12:00:00,2452A,113.3833,31.6908,随州市,市林业局,颗粒物(PM10),56,61,48,26,23,161,161,74,74,8,12,6,6,0.7,0.8
2022-05-30T12:00:00,2453A,113.3983,31.7308,随州市,市立交桥水厂,,,68,51,,18,138,138,62,62,8,13,,10,0.8,0.9
2022-05-30T12:00:00,2454A,109.4978,30.2981,恩施土家族苗族自治州,湖北民院,,,48,34,23,18,104,60,20,19,13,10,8,7,,2.5
2022-05-30T12:00:00,2455A,109.4707,30.2798,恩施土家族苗族自治州,州电力总公司,,46,46,29,13,11,100,52,16,16,18,13,16,10,1.3,1.1
2022-05-30T12:00:00,2456A,112.5003,26.9167,衡阳市,原169医院(对照点),,23,5,27,10,16,71,71,47,47,6,13,4,6,0.7,0.8
2022-05-30T12:00:00,2457A,112.6194,26.9258,衡阳市,衡阳化工总厂,,,13,39,4,11,81,,47,47,,12,,15,,0.6
2022-05-30T12:00:00,2458A,112.6211,26.8956,衡阳市,珠晖区环保局,,,6,33,,,82,77,50,50,12,14,2,20,0.7,0.7
2022-05-30T12:00:00,2459A,112.6197,26.8733,衡阳市,市委党校,,26,6,28,7,13,82,82,56,56,5,9,4,17,0.5,0.6
2022-05-30T12:00:00,2460A,112.6006,26.8919,衡阳市,市监测站,,,16,32,5,18,80,80,56,56,,15,6,20,0.6,0.7
2022-05-30T12:00:00,2461A,112.5664,26.9056,衡阳市,真空机电公司,,24,6,27,10,16,83,75,54,54,10,13,3,17,0.6,0.7
2022-05-30T12:00:00,2462A,111.5239,27.3033,邵阳市,市水土所(对照点),,,25,23,13,16,75,64,38,38,,5,15,6,0.5,0.6
2022-05-30T12:00:00,2463A,111.4733,27.2317,邵阳市,市一中,,18,16,28,10,15,74,55,45,45,13,11,6,7,0.4,0.5
2022-05-30T12:00:00,2464A,111.5283,27.2442,邵阳市,市化工厂,,22,17,32,13,18,79,70,54,54,14,9,5,8,0.4,0.5
2022-05-30T12:00:00,2465A,111.4503,27.2537,邵阳市,市罐头厂,,18,17,33,12,16,67,47,37,37,15,12,6,8,0.4,0.4
2022-05-30T12:00:00,2466A,111.4328,27.2272,邵阳市,市环保局,,20,13,30,14,21,75,57,44,44,12,12,5,7,0.4,0.4
2022-05-30T12:00:00,2467A,112.4067,28.6428,益阳市,甘溪港(对照点),,34,34,32,4,7,105,64,69,42,6,7,1,1,0.7,0.8
2022-05-30T12:00:00,2468A,112.3458,28.5808,益阳市,市环保局,,23,23,26,12,12,94,67,48,43,8,11,4,2,0.8,0.9
2022-05-30T12:00:00,2469A,112.3437,28.5531,益阳市,市特殊教育学校,,22,22,26,14,14,91,68,46,41,6,10,2,2,0.7,0.8
2022-05-30T12:00:00,2470A,112.3347,28.6047,益阳市,资阳区政务中心,,21,21,17,8,11,96,60,47,38,8,11,2,2,0.8,0.9
2022-05-30T12:00:00,2471A,112.3744,28.5819,益阳市,赫山环保分局,,31,31,32,9,8,97,71,38,37,14,16,1,1,0.6,0.7
2022-05-30T12:00:00,2472A,113.0073,25.9061,郴州市,马头岭(对照点),,32,32,25,15,13,74,48,64,47,9,11,5,9,0.5,0.5
2022-05-30T12:00:00,2473A,113.0116,25.8226,郴州市,市职中,,20,20,32,12,16,76,45,71,36,12,16,12,11,0.5,0.5
2022-05-30T12:00:00,2474A,113.0161,25.8001,郴州市,兴隆步行街,,14,5,24,9,12,72,42,70,39,12,13,12,12,0.4,0.4
