timepoint,stationcode,longitude,latitude,area,positionname,primarypollutant,aqi,pm10,pm10_24h,pm2_5,pm2_5_24h,o3,o3_24h,o3_8h,o3_8h_24h,no2,no2_24h,so2,so2_24h,co,co_24h
2022-05-30T20:00:00,1001A,116.3621,39.8784,北京市,万寿西宫,,,32,22,10,8,124,,113,113,12,14,3,2,0.3,0.2
2022-05-30T20:00:00,1002A,116.2202,40.2915,北京市,定陵(对照点),,25,16,15,8,4,108,78,104,102,7,7,3,3,0.1,0.1
2022-05-30T20:00:00,1003A,116.4174,39.9289,北京市,东四,,42,35,24,10,7,134,134,117,117,11,14,1,2,0.3,0.2
2022-05-30T20:00:00,1004A,116.4072,39.8863,北京市,天坛,细颗粒物(PM2.5),68,30,20,49,17,120,112,114,114,11,14,1,2,0.2,0.2
2022-05-30T20:00:00,1005A,116.462,39.9365,北京市,农展馆,,36,26,23,8,8,114,114,110,110,15,21,2,2,0.2,0.2
2022-05-30T20:00:00,1006A,116.3392,39.9295,北京市,官园,,36,29,21,8,7,124,113,110,110,8,8,4,3,0.4,0.2
2022-05-30T20:00:00,1007A,116.2878,39.9611,北京市,海淀万柳,,37,30,20,10,8,116,116,107,107,19,22,1,3,0.3,0.2
2022-05-30T20:00:00,1008A,116.6636,40.135,北京市,顺义新城,,23,18,27,4,8,97,71,92,90,10,13,3,2,0.2,0.2
2022-05-30T20:00:00,1009A,116.6275,40.3275,北京市,怀柔镇,,25,15,16,8,6,106,78,99,96,10,8,1,1,0.3,0.2
2022-05-30T20:00:00,1010A,116.2296,40.217,北京市,昌平镇,,28,28,22,9,8,100,75,95,94,20,11,1,2,0.3,0.2
2022-05-30T20:00:00,1011A,116.3966,39.9821,北京市,奥体中心,,37,23,22,13,13,117,117,113,113,12,21,3,2,0.1,0.2
2022-05-30T20:00:00,1012A,116.184,39.9136,北京市,古城,,46,42,24,12,9,146,146,125,125,16,18,3,3,0.3,0.3
2022-05-30T20:00:00,1015A,117.1444,39.1661,天津市,勤俭道,颗粒物(PM10),53,55,39,11,11,162,149,149,149,15,16,5,7,0.3,0.4
2022-05-30T20:00:00,1017A,117.237,39.1082,天津市,大直沽八号路,,48,48,36,15,12,152,140,140,140,16,16,8,9,0.5,0.5
2022-05-30T20:00:00,1018A,117.202,39.0927,天津市,前进道,,43,43,35,12,11,149,126,135,135,19,16,7,8,0.6,0.5
2022-05-30T20:00:00,1019A,117.1837,39.2133,天津市,淮河道,颗粒物(PM10),57,64,45,14,11,161,132,145,145,28,23,8,9,0.5,0.6
2022-05-30T20:00:00,1021A,117.307,39.0877,天津市,跃进路,颗粒物(PM10),51,52,40,19,13,148,126,135,135,21,19,7,8,0.4,0.4
2022-05-30T20:00:00,1023A,117.707,39.0343,天津市,第四大街,颗粒物(PM10),53,56,40,12,14,132,124,126,126,24,26,6,7,0.4,0.4
2022-05-30T20:00:00,1024A,117.457,38.8394,天津市,永明路,,50,50,35,12,10,136,112,126,126,22,12,8,9,0.3,0.3
2022-05-30T20:00:00,1026A,117.764,39.1587,天津市,汉北路,,43,43,32,10,10,153,124,141,139,17,16,6,8,0.5,0.8
2022-05-30T20:00:00,1027A,117.157,38.9194,天津市,团泊洼(对照点),颗粒物(PM10),68,86,51,14,11,157,128,142,142,18,19,8,8,0.7,0.8
2022-05-30T20:00:00,1029A,114.4422,38.0444,石家庄市,职工医院,颗粒物(PM10),87,124,63,34,17,159,159,139,139,14,25,7,5,0.7,0.6
2022-05-30T20:00:00,1030A,114.6063,38.0266,石家庄市,高新区,颗粒物(PM10),87,124,70,39,29,173,158,141,141,18,39,7,6,0.4,0.3
2022-05-30T20:00:00,1031A,114.4898,38.1328,石家庄市,西北水源,颗粒物(PM10),86,122,71,39,23,148,148,132,132,23,30,9,6,0.6,0.5
2022-05-30T20:00:00,1032A,114.4586,38.0058,石家庄市,西南高教,颗粒物(PM10),88,125,47,29,23,144,136,134,134,37,39,8,6,0.6,0.5
2022-05-30T20:00:00,1033A,114.5331,38.0178,石家庄市,世纪公园,,,108,61,,20,162,149,138,138,17,32,6,5,,0.6
2022-05-30T20:00:00,1034A,114.509,38.0457,石家庄市,人民会堂,颗粒物(PM10),76,101,61,21,21,170,158,140,140,20,34,13,12,0.5,0.4
2022-05-30T20:00:00,1035A,114.3524,37.8911,石家庄市,封龙山(对照点),颗粒物(PM10),90,130,44,32,17,163,163,122,122,10,3,19,13,0.8,0.5
2022-05-30T20:00:00,1037A,118.131,39.6363,唐山市,雷达站,颗粒物(PM10),55,59,44,12,14,149,119,140,140,30,17,3,4,0.3,0.5
2022-05-30T20:00:00,1038A,118.1725,39.6334,唐山市,物资局,颗粒物(PM10),59,67,47,20,16,146,104,136,135,51,19,4,6,0.5,0.5
2022-05-30T20:00:00,1040A,118.1705,39.6506,唐山市,十二中,颗粒物(PM10),54,58,34,12,17,148,124,140,140,30,18,4,6,0.2,0.4
2022-05-30T20:00:00,1041A,118.1869,39.622,唐山市,小山,,,,41,,11,152,119,142,142,,22,6,7,0.3,0.3
2022-05-30T20:00:00,1042A,119.5134,39.8207,秦皇岛市,北戴河环保局,,39,39,40,13,19,148,110,124,124,11,10,6,8,0.4,0.8
2022-05-30T20:00:00,1043A,119.7493,40.0116,秦皇岛市,第一关,,43,37,37,17,19,152,135,134,134,13,30,16,17,0.2,0.4
2022-05-30T20:00:00,1044A,119.5897,39.9499,秦皇岛市,监测站,,45,45,47,9,22,147,120,123,123,28,29,5,7,0.1,0.5
2022-05-30T20:00:00,1046A,119.5251,39.9041,秦皇岛市,建设大厦,,,48,39,22,24,146,123,127,127,,16,3,7,0.5,0.9
2022-05-30T20:00:00,1048A,114.5302,36.6116,邯郸市,东污水处理厂,颗粒物(PM10),52,54,39,14,13,164,148,157,157,14,13,8,7,0.5,0.4
2022-05-30T20:00:00,1049A,114.4918,36.5713,邯郸市,矿院,颗粒物(PM10),51,51,37,23,18,168,152,162,162,14,14,24,7,0.3,0.4
2022-05-30T20:00:00,1050A,114.484,36.6133,邯郸市,丛台公园,颗粒物(PM10),52,54,52,16,15,168,152,160,160,14,13,12,7,0.5,0.4
2022-05-30T20:00:00,1051A,115.493,38.8632,保定市,游泳馆,颗粒物(PM10),66,81,49,25,15,158,158,145,145,18,23,12,8,0.5,0.4
2022-05-30T20:00:00,1053A,115.4713,38.9108,保定市,接待中心,颗粒物(PM10),54,57,55,16,14,154,154,145,145,23,32,12,8,0.5,0.4
2022-05-30T20:00:00,1054A,115.4612,38.8416,保定市,地表水厂,颗粒物(PM10),58,65,72,18,19,154,154,142,142,18,27,15,11,0.6,0.3
2022-05-30T20:00:00,1055A,115.4323,38.8697,保定市,胶片厂,,50,50,46,19,14,156,156,147,147,13,20,17,13,0.7,0.5
2022-05-30T20:00:00,1056A,115.5086,38.8639,保定市,监测站,颗粒物(PM10),79,107,77,15,20,154,154,141,141,20,24,12,9,0.5,0.3
2022-05-30T20:00:00,1057A,114.8883,40.8336,张家口市,人民公园,,34,31,25,7,3,112,108,108,108,5,6,6,5,0.3,0.3
2022-05-30T20:00:00,1059A,114.8687,40.8042,张家口市,五金库,,32,27,25,2,5,110,101,106,106,13,10,5,5,0.4,0.3
2022-05-30T20:00:00,1060A,114.8902,40.762,张家口市,世纪豪园,,32,20,21,12,7,106,102,104,104,11,11,3,3,0.2,0.2
2022-05-30T20:00:00,1061A,114.8916,40.8661,张家口市,北泵房(对照点),,28,27,17,19,15,107,85,106,101,13,6,9,9,0.4,0.5
2022-05-30T20:00:00,1062A,117.9531,40.9081,承德市,铁路,,41,41,34,14,14,90,20,80,75,53,19,9,10,0.3,0.2
2022-05-30T20:00:00,1063A,117.9392,40.9763,承德市,中国银行,,20,17,28,14,10,87,45,82,77,22,17,4,3,0.4,0.2
2022-05-30T20:00:00,1064A,117.9503,40.928,承德市,开发区,,20,15,30,7,10,94,35,85,81,39,22,6,7,0.3,0.3
2022-05-30T20:00:00,1065A,117.8051,40.9655,承德市,文化中心,,29,29,38,13,10,90,46,86,81,26,19,15,7,0.4,0.3
2022-05-30T20:00:00,1066A,117.9268,41.0026,承德市,离宫(对照点),,15,14,26,8,13,86,47,80,75,8,13,6,7,0.3,0.2
2022-05-30T20:00:00,1067A,116.6708,39.5111,廊坊市,药材公司,,47,39,32,16,17,160,149,151,151,19,26,7,8,0.3,0.3
2022-05-30T20:00:00,1068A,116.7214,39.5589,廊坊市,开发区,颗粒物(PM10),54,58,46,17,11,160,135,147,147,18,27,8,8,1.3,0.4
2022-05-30T20:00:00,1070A,116.7244,39.5269,廊坊市,北华航天学院,颗粒物(PM10),51,51,44,22,14,159,146,148,148,15,24,8,9,0.3,0.2
2022-05-30T20:00:00,1071A,116.8842,38.2991,沧州市,沧县城建局,颗粒物(PM10),61,72,38,13,12,142,124,132,132,23,28,11,12,0.2,0.3
2022-05-30T20:00:00,1072A,116.8584,38.3254,沧州市,电视转播站,,50,50,36,12,8,134,121,124,124,20,22,11,11,0.4,0.4
2022-05-30T20:00:00,1073A,116.8709,38.3228,沧州市,市环保局,颗粒物(PM10),60,70,37,13,10,148,126,138,136,31,33,9,10,0.4,0.5
2022-05-30T20:00:00,1074A,115.6838,37.7541,衡水市,电机北厂,颗粒物(PM10),58,66,50,14,12,171,142,148,148,8,24,8,12,0.4,0.4
2022-05-30T20:00:00,1075A,115.6303,37.7316,衡水市,市监测站,颗粒物(PM10),53,55,52,12,12,164,136,142,142,9,18,13,14,0.1,0.2
2022-05-30T20:00:00,1077A,114.4704,37.0886,邢台市,达活泉,,,,59,,15,193,,177,177,15,17,10,11,,0.6
2022-05-30T20:00:00,1078A,114.5062,37.0349,邢台市,邢师高专,颗粒物(PM10),61,72,59,24,15,190,153,172,172,15,18,6,7,0.4,0.5
2022-05-30T20:00:00,1079A,114.5237,37.0851,邢台市,路桥公司,颗粒物(PM10),66,81,60,24,16,186,151,169,169,19,19,10,11,0.4,0.5
2022-05-30T20:00:00,1081A,112.5139,37.8873,太原市,尖草坪,颗粒物(PM10),57,64,49,18,14,140,104,126,126,30,28,5,6,0.4,0.4
2022-05-30T20:00:00,1083A,112.434,38.0108,太原市,上兰(对照点),,36,36,30,15,10,142,111,129,129,10,10,4,5,0.3,0.3
2022-05-30T20:00:00,1084A,112.469,37.7124,太原市,晋源,颗粒物(PM10),53,55,50,20,20,138,82,127,123,56,30,12,10,0.4,0.4
2022-05-30T20:00:00,1085A,112.5583,37.7394,太原市,小店,颗粒物(PM10),51,51,49,13,14,140,115,130,130,30,35,7,7,0.4,0.4
2022-05-30T20:00:00,1086A,112.5369,37.8692,太原市,桃园,,45,45,45,13,13,141,116,129,128,22,31,5,6,0.3,0.4
2022-05-30T20:00:00,1087A,112.57,37.8195,太原市,坞城,,48,48,53,14,22,140,122,127,127,19,28,8,8,0.4,0.2
2022-05-30T20:00:00,1088A,112.549,37.9854,太原市,南寨,颗粒物(PM10),67,84,69,18,17,141,100,126,125,31,33,7,8,0.4,0.4
2022-05-30T20:00:00,1090A,111.6507,40.7517,呼和浩特市,呼市一监,,33,22,39,6,13,115,104,110,110,8,20,6,9,0.2,0.3
2022-05-30T20:00:00,1091A,111.6572,40.8033,呼和浩特市,小召,,30,14,26,6,10,118,94,109,108,22,26,5,8,0.3,0.3
2022-05-30T20:00:00,1094A,111.7516,40.8369,呼和浩特市,如意水处理厂,,33,20,26,6,7,120,105,116,115,11,25,8,8,0.3,0.3
2022-05-30T20:00:00,1095A,111.7276,40.8062,呼和浩特市,二十九中,,34,20,26,0,6,118,107,112,112,9,25,6,8,0.3,0.3
2022-05-30T20:00:00,1096A,111.5512,40.7866,呼和浩特市,工大金川校区,,35,16,29,5,9,123,110,117,117,8,20,5,7,0.3,0.3
2022-05-30T20:00:00,1097A,111.717,40.7612,呼和浩特市,化肥厂生活区,,33,18,38,5,14,122,105,116,115,10,22,8,11,0.3,0.4
2022-05-30T20:00:00,1098A,123.6836,41.9339,沈阳市,森林路(对照点),,25,16,18,7,10,106,77,92,89,16,14,6,6,0.4,0.4
2022-05-30T20:00:00,1099A,123.505,41.7406,沈阳市,浑南东路,,29,18,26,20,18,104,46,94,87,35,13,9,14,0.5,0.5
2022-05-30T20:00:00,1100A,123.4231,41.6989,沈阳市,新秀街,,21,16,26,6,13,98,53,86,80,42,22,20,12,0.5,0.5
2022-05-30T20:00:00,1102A,123.5903,41.8411,沈阳市,东陵路,,16,15,20,6,12,98,51,83,78,18,14,7,8,0.5,0.5
2022-05-30T20:00:00,1103A,123.4264,41.8467,沈阳市,陵东街,,20,18,17,8,8,92,63,82,79,31,19,6,7,0.4,0.4
2022-05-30T20:00:00,1104A,123.4114,41.7653,沈阳市,文化路,,22,15,23,6,16,105,69,93,90,26,13,10,8,0.5,0.5
2022-05-30T20:00:00,1105A,123.4678,41.7867,沈阳市,小河沿,,16,9,22,4,11,102,51,86,80,27,15,6,7,0.4,0.4
2022-05-30T20:00:00,1106A,123.4017,41.7972,沈阳市,太原街,,23,16,28,8,14,107,73,92,89,30,19,8,8,0.4,0.4
2022-05-30T20:00:00,1108A,123.3783,41.9228,沈阳市,京沈街,,26,26,23,9,12,103,72,92,88,30,14,8,10,0.6,0.5
2022-05-30T20:00:00,1109A,121.612,38.9741,大连市,甘井子,,28,28,14,6,9,103,72,95,94,37,15,8,7,0.6,0.5
2022-05-30T20:00:00,1110A,121.565,38.9511,大连市,周水子,,,87,23,21,7,94,,92,92,20,12,7,5,0.3,0.5
2022-05-30T20:00:00,1111A,121.5637,38.8845,大连市,星海三站,,28,22,19,11,9,115,88,109,104,33,19,8,7,0.3,0.3
2022-05-30T20:00:00,1112A,121.6302,38.9117,大连市,青泥洼桥,,27,17,11,3,1,106,86,101,100,22,15,6,7,0.2,0.3
2022-05-30T20:00:00,1113A,121.6251,38.8638,大连市,傅家庄,,30,19,20,7,5,101,93,96,96,13,11,6,5,0.6,0.6
2022-05-30T20:00:00,1115A,121.2529,38.8061,大连市,旅顺,,,20,21,8,6,92,,89,88,20,13,6,5,0.4,0.4
2022-05-30T20:00:00,1116A,121.7485,39.1311,大连市,金州,,36,36,14,18,6,97,66,94,90,27,14,5,8,0.3,0.4
2022-05-30T20:00:00,1117A,121.7811,39.0496,大连市,开发区,,27,25,20,9,6,101,85,101,92,28,18,6,8,0.7,0.7
2022-05-30T20:00:00,1118A,121.9762,39.0631,大连市,双D港,,22,18,12,5,2,112,70,107,100,23,14,12,9,0.6,0.6
2022-05-30T20:00:00,1119A,125.3325,43.9166,长春市,食品厂,,30,30,19,8,8,83,27,75,68,56,18,5,5,0.4,0.3
2022-05-30T20:00:00,1120A,125.2863,43.9027,长春市,客车厂,,21,21,20,6,8,87,47,80,77,41,14,5,5,0.4,0.4
2022-05-30T20:00:00,1121A,125.2841,43.8463,长春市,邮电学院,,36,36,20,6,13,84,56,81,78,23,13,1,1,0.6,0.6
2022-05-30T20:00:00,1122A,125.3716,43.8772,长春市,劳动公园,,30,30,20,9,7,87,62,82,80,19,9,2,2,0.6,0.6
2022-05-30T20:00:00,1123A,125.3297,43.8805,长春市,园林处,,19,19,15,7,8,85,57,81,78,21,11,4,5,0.4,0.4
2022-05-30T20:00:00,1124A,125.4605,43.79,长春市,净月潭,,18,13,11,4,7,87,55,81,78,11,4,2,5,0.2,0.3
2022-05-30T20:00:00,1125A,125.7194,43.515,长春市,甩湾子(对照点),,28,28,13,7,5,87,49,81,77,22,7,6,5,0.3,0.3
2022-05-30T20:00:00,1126A,125.3863,43.8447,长春市,经开区环卫处,,20,20,13,9,8,83,61,78,76,12,6,6,6,0.3,0.3
2022-05-30T20:00:00,1127A,125.245,43.7783,长春市,高新区管委会,,,,15,9,12,90,54,85,81,26,11,5,5,0.4,0.4
2022-05-30T20:00:00,1128A,125.1761,43.8325,长春市,岱山公园,,22,22,15,6,8,84,38,77,71,33,11,5,5,0.5,0.5
2022-05-30T20:00:00,1129A,126.5422,45.755,哈尔滨市,岭北(对照点),,19,15,12,4,7,75,60,72,69,17,9,9,9,0.0,0.1
2022-05-30T20:00:00,1130A,126.561,45.8167,哈尔滨市,松北商大,,15,5,8,3,2,77,33,70,59,30,5,3,3,1.2,1
2022-05-30T20:00:00,1131A,126.979,45.5419,哈尔滨市,阿城会宁,,30,30,14,14,7,82,62,73,69,21,9,12,12,0.8,0.4
2022-05-30T20:00:00,1132A,126.599,45.7222,哈尔滨市,南岗学府路,,19,13,15,5,3,80,60,74,72,21,8,6,6,0.6,0.6
2022-05-30T20:00:00,1133A,126.689,45.7733,哈尔滨市,太平宏伟公园,,27,27,16,12,7,82,65,74,73,24,11,10,10,0.5,0.5
2022-05-30T20:00:00,1134A,126.635,45.7667,哈尔滨市,道外承德广场,,20,7,13,6,4,85,62,81,78,33,15,13,13,0.5,0.3
2022-05-30T20:00:00,1135A,126.685,45.7319,哈尔滨市,香坊红旗大街,,27,27,18,14,9,73,60,66,64,30,21,4,4,0.6,0.5
2022-05-30T20:00:00,1136A,126.6411,45.7258,哈尔滨市,动力和平路,,20,20,18,4,5,82,64,75,74,27,11,4,3,0.6,0.5
2022-05-30T20:00:00,1137A,126.593,45.7478,哈尔滨市,道里建国路,,19,14,12,6,8,70,50,65,62,37,16,10,10,0.5,0.5
2022-05-30T20:00:00,1138A,126.615,45.61,哈尔滨市,平房东轻厂,,19,18,11,6,7,77,58,71,68,22,9,7,8,0.6,0.6
2022-05-30T20:00:00,1139A,126.595,45.9855,哈尔滨市,呼兰师专,,18,16,11,12,9,70,43,67,63,30,9,8,9,0.7,0.5
2022-05-30T20:00:00,1140A,126.6206,45.6842,哈尔滨市,省农科院,,21,17,12,10,4,80,67,76,74,17,12,9,10,0.4,0.5
2022-05-30T20:00:00,1141A,121.4,31.238,上海市,普陀,,34,27,46,8,36,182,108,141,126,17,26,3,4,1.2,1.5
2022-05-30T20:00:00,1142A,121.478,31.2036,上海市,十五厂,,32,13,39,11,38,175,100,136,121,15,23,6,7,1.2,1.6
2022-05-30T20:00:00,1143A,121.467,31.3008,上海市,虹口,,30,22,34,11,31,154,94,121,107,21,29,2,3,0.3,0.6
2022-05-30T20:00:00,1144A,121.412,31.1654,上海市,徐汇上师大,,32,28,51,16,44,172,101,133,120,18,31,4,4,0.7,1.1
2022-05-30T20:00:00,1145A,121.536,31.2659,上海市,杨浦四漂,,32,19,25,8,34,169,102,134,117,13,18,7,8,0.1,0.4
2022-05-30T20:00:00,1147A,121.425,31.2261,上海市,静安监测站,,33,23,50,14,41,174,103,134,120,23,34,5,6,0,0.3
2022-05-30T20:00:00,1148A,121.703,31.1907,上海市,浦东川沙,,30,30,56,17,41,174,65,134,109,31,25,5,6,1.3,1.5
2022-05-30T20:00:00,1149A,121.533,31.2284,上海市,浦东新区监测站,,33,22,45,15,36,160,103,128,117,16,25,6,7,0.8,1
2022-05-30T20:00:00,1150A,121.577,31.2071,上海市,浦东张江,,29,20,35,12,42,158,91,122,107,15,22,4,5,0.8,1.1
2022-05-30T20:00:00,1151A,118.8086,32.1065,南京市,迈皋桥,颗粒物(PM10),52,53,41,17,18,107,65,88,85,48,31,4,5,0.5,0.6
2022-05-30T20:00:00,1152A,118.7538,32.0551,南京市,草场门,,46,46,37,22,18,119,91,100,100,39,30,3,4,0.5,0.5
2022-05-30T20:00:00,1153A,118.7794,32.0745,南京市,山西路,,48,48,44,19,20,120,108,102,102,32,38,4,3,0.3,0.5
2022-05-30T20:00:00,1154A,118.7752,32.0023,南京市,中华门,颗粒物(PM10),53,56,39,19,12,129,106,104,102,23,25,3,4,0.5,0.6
2022-05-30T20:00:00,1155A,118.8109,32.0309,南京市,瑞金路,,49,49,56,22,19,123,90,98,96,32,28,3,5,0.2,0.2
2022-05-30T20:00:00,1156A,118.7997,32.0754,南京市,玄武湖,,,,33,,20,111,86,90,90,31,28,4,4,0.6,0.6
2022-05-30T20:00:00,1157A,118.6414,32.0931,南京市,浦口,,29,29,40,12,18,130,70,104,98,15,18,4,6,0.4,0.6
2022-05-30T20:00:00,1158A,118.7356,31.9996,南京市,奥体中心,颗粒物(PM10),52,53,42,22,20,126,96,105,103,37,33,3,5,0.4,0.6
2022-05-30T20:00:00,1159A,118.9125,32.1028,南京市,仙林大学城,,44,44,38,19,21,126,107,102,101,16,22,7,7,0.8,1
2022-05-30T20:00:00,1160A,120.561,31.2472,苏州市,上方山(对照点),,47,47,45,19,22,148,92,128,122,20,21,5,5,0.6,0.8
2022-05-30T20:00:00,1162A,120.591,31.3019,苏州市,彩香,,41,41,36,8,25,168,98,143,131,17,25,5,6,0.5,0.8
2022-05-30T20:00:00,1163A,120.596,31.3264,苏州市,轧钢厂,,28,15,40,8,21,156,88,132,121,24,26,6,5,0.5,0.8
2022-05-30T20:00:00,1164A,120.613,31.2703,苏州市,吴中区,,46,46,37,7,24,157,93,135,124,16,24,6,6,0.5,0.8
2022-05-30T20:00:00,1165A,120.543,31.2994,苏州市,苏州新区,,32,15,31,4,30,165,101,137,131,16,22,6,5,0.6,1
2022-05-30T20:00:00,1166A,120.669,31.3097,苏州市,苏州工业园区,,31,31,33,13,20,149,90,129,120,19,25,5,6,0.7,0.9
2022-05-30T20:00:00,1167A,120.641,31.3708,苏州市,相城区,,26,20,31,5,30,144,82,125,116,23,23,5,6,0.5,0.8
2022-05-30T20:00:00,1168A,120.9098,31.9663,南通市,狼山街道,,33,24,33,2,20,134,105,124,116,12,27,10,11,0.4,0.7
2022-05-30T20:00:00,1169A,120.86,32.0005,南通市,虹桥,,29,26,35,3,25,124,91,118,111,21,32,6,8,0.4,0.7
2022-05-30T20:00:00,1170A,120.87,32.02,南通市,城中,,29,29,36,5,31,116,88,110,105,19,31,10,9,0.4,0.6
2022-05-30T20:00:00,1171A,120.94,31.93,南通市,星湖花园,,30,29,34,7,19,127,95,118,110,18,33,5,7,0.5,0.8
2022-05-30T20:00:00,1172A,120.81,32.0417,南通市,紫琅学院,,30,30,36,5,21,117,84,108,100,28,39,6,8,0.3,0.7
2022-05-30T20:00:00,1173A,119.176,34.5885,连云港市,市环境监测站,,40,36,38,7,9,138,127,130,130,13,12,4,6,0.2,0.3
2022-05-30T20:00:00,1177A,117.179,34.2761,徐州市,黄河新村,颗粒物(PM10),52,53,63,14,14,171,126,154,153,47,23,5,5,0.4,0.4
2022-05-30T20:00:00,1178A,117.1918,34.2384,徐州市,淮塔,臭氧1小时,53,37,52,9,14,173,162,167,167,8,15,10,10,0.4,0.5
2022-05-30T20:00:00,1180A,117.256,34.2153,徐州市,新城区,,49,49,65,9,16,176,147,162,162,20,15,8,8,0.6,0.7
2022-05-30T20:00:00,1181A,117.244,34.2911,徐州市,桃园路,颗粒物(PM10),62,73,61,12,15,181,127,163,162,43,23,12,12,0.5,0.4
2022-05-30T20:00:00,1182A,117.2933,34.2778,徐州市,农科院,颗粒物(PM10),59,68,62,17,10,166,134,150,150,47,38,7,7,0.4,0.5
2022-05-30T20:00:00,1186A,119.389,32.3761,扬州市,邗江监测站,,46,46,59,16,26,133,94,124,119,25,26,9,10,0.5,0.9
2022-05-30T20:00:00,1188A,120.269,31.4867,无锡市,雪浪,,39,39,42,7,21,195,88,144,132,25,18,12,10,1.2,1.2
2022-05-30T20:00:00,1189A,120.275,31.6219,无锡市,黄巷,,30,30,41,9,21,169,86,130,118,24,26,10,8,0.9,1.1
2022-05-30T20:00:00,1190A,120.294,31.56,无锡市,曹张,,38,38,38,17,19,170,79,132,119,30,26,9,7,0.9,1
2022-05-30T20:00:00,1191A,120.242,31.5031,无锡市,漆塘,,41,41,35,17,20,190,92,142,131,33,23,8,7,0.9,0.9
2022-05-30T20:00:00,1192A,120.3489,31.5863,无锡市,东亭,,41,41,44,19,23,177,69,136,117,26,19,10,9,0.9,1
2022-05-30T20:00:00,1193A,120.354,31.5475,无锡市,旺庄,,34,34,42,12,23,186,81,141,127,33,30,9,7,0.9,1
2022-05-30T20:00:00,1194A,120.245,31.5631,无锡市,荣巷,,28,24,38,17,24,176,87,135,124,26,21,12,11,0.7,0.7
2022-05-30T20:00:00,1195A,120.299,31.6817,无锡市,堰桥,,29,29,42,6,21,171,90,133,119,13,21,12,8,0.6,1
2022-05-30T20:00:00,1196A,119.9633,31.762,常州市,市监测站,,27,11,49,7,20,132,85,114,108,25,32,6,7,0.5,0.9
2022-05-30T20:00:00,1200A,119.9468,31.7069,常州市,武进监测站,,28,11,48,4,33,166,88,142,130,25,20,7,8,0.5,0.9
2022-05-30T20:00:00,1201A,119.9255,31.9087,常州市,安家,,27,12,52,7,33,148,85,130,119,25,27,5,8,0.5,0.9
2022-05-30T20:00:00,1203A,119.6707,32.1875,镇江市,新区办事处,,30,30,50,12,32,122,54,112,104,47,34,4,11,0.5,1
2022-05-30T20:00:00,1204A,119.4974,32.1968,镇江市,职教中心,,24,24,40,12,21,127,72,118,112,45,23,2,5,0.3,0.9
2022-05-30T20:00:00,1205A,119.4303,32.1328,镇江市,丹徒区监测站,,35,18,37,5,35,142,111,132,128,21,21,4,6,0.4,0.8
2022-05-30T20:00:00,1206A,119.905,32.4878,泰州市,公园路,,29,29,57,7,38,105,77,94,94,24,30,5,7,0.4,0.9
2022-05-30T20:00:00,1207A,119.9189,32.4625,泰州市,莲花,,,,54,12,40,120,84,108,107,15,24,4,6,0.4,0.9
2022-05-30T20:00:00,1209A,119.888,32.4639,泰州市,留学生创业园,,29,17,53,4,37,118,92,107,106,19,33,6,8,0.2,0.6
2022-05-30T20:00:00,1210A,119.036,33.5981,淮安市,钵池山,,34,22,43,10,18,135,106,129,127,20,20,7,7,0.3,0.6
2022-05-30T20:00:00,1211A,119.007,33.575,淮安市,北京南路,,34,34,49,10,20,141,101,133,130,29,20,9,10,0.5,0.7
2022-05-30T20:00:00,1212A,118.989,33.6067,淮安市,市监测站,,,34,56,5,24,135,109,128,127,17,19,,11,0.4,0.8
2022-05-30T20:00:00,1213A,119.135,33.5039,淮安市,楚州区监测站,,30,27,40,5,23,121,96,115,113,17,14,8,9,0.4,0.6
2022-05-30T20:00:00,1214A,119.0186,33.6297,淮安市,淮阴区监测站,,33,25,41,7,19,137,104,127,125,22,22,8,9,0.3,0.7
2022-05-30T20:00:00,1215A,120.118,33.4022,盐城市,盐城电厂,,33,29,47,5,30,125,105,117,113,15,15,2,3,0.5,0.7
2022-05-30T20:00:00,1216A,120.156,33.3942,盐城市,市监测站,,47,47,36,5,12,125,105,122,116,18,15,7,8,0.3,0.4
2022-05-30T20:00:00,1218A,120.2144,33.38,盐城市,开发区管委会,,33,33,40,4,20,114,92,108,105,18,11,6,6,0.1,0.4
2022-05-30T20:00:00,1220A,118.293,33.9528,宿迁市,宿迁学院,颗粒物(PM10),52,53,45,20,18,172,122,154,153,32,17,6,7,0.2,0.3
2022-05-30T20:00:00,1221A,118.2442,33.9592,宿迁市,宿迁中学,,46,41,32,12,12,170,146,158,158,16,12,6,8,0.4,0.5
2022-05-30T20:00:00,1223A,120.2072,30.2111,杭州市,滨江,颗粒物(PM10),61,71,33,43,20,152,94,97,97,39,32,3,3,0.9,0.9
2022-05-30T20:00:00,1224A,120.0633,30.2747,杭州市,西溪,细颗粒物(PM2.5),69,56,27,50,20,132,53,92,89,23,16,8,8,0.8,0.8
2022-05-30T20:00:00,1226A,120.3461,30.3153,杭州市,下沙,细颗粒物(PM2.5),68,77,34,49,21,165,95,115,115,51,32,5,5,0.7,0.7
2022-05-30T20:00:00,1227A,120.1269,30.2456,杭州市,卧龙桥,细颗粒物(PM2.5),62,60,28,44,16,137,53,78,78,16,16,5,5,0.9,0.8
2022-05-30T20:00:00,1228A,120.1903,30.2692,杭州市,浙江农大,"颗粒物(PM10),细颗粒物(PM2.5)",59,68,29,42,20,149,78,101,101,33,25,4,4,0.9,0.8
2022-05-30T20:00:00,1230A,120.1197,30.3119,杭州市,和睦小学,细颗粒物(PM2.5),72,87,40,52,22,148,82,113,113,44,28,2,3,1.0,1
2022-05-30T20:00:00,1231A,120.3019,30.4183,杭州市,临平镇,颗粒物(PM10),69,87,45,33,19,158,115,131,131,26,29,3,3,0.9,1
2022-05-30T20:00:00,1232A,120.2697,30.1819,杭州市,城厢镇,颗粒物(PM10),51,51,29,31,19,149,110,102,102,32,27,6,6,0.8,0.8
2022-05-30T20:00:00,1233A,120.0883,30.1808,杭州市,云栖,颗粒物(PM10),58,66,35,35,14,139,64,87,87,22,21,7,7,0.8,0.7
2022-05-30T20:00:00,1234A,121.8358,29.911,宁波市,区环保大楼,颗粒物(PM10),52,53,41,35,29,151,69,98,98,46,50,7,8,0.5,0.7
2022-05-30T20:00:00,1235A,121.56,29.82,宁波市,万里学院,,29,28,36,18,29,153,90,93,93,21,36,8,11,0.6,0.9
2022-05-30T20:00:00,1236A,121.713,29.9572,宁波市,龙赛医院,,23,21,33,9,22,169,71,98,98,36,42,4,8,0.5,0.8
2022-05-30T20:00:00,1239A,121.633,29.7733,宁波市,钱湖水厂,,28,24,31,16,29,136,87,76,76,16,23,6,7,0.7,0.8
2022-05-30T20:00:00,1240A,121.5856,29.8635,宁波市,太古小学,,25,20,32,13,26,154,79,88,88,24,40,11,12,0.5,0.9
2022-05-30T20:00:00,1241A,121.524,29.8674,宁波市,市环境监测中心,,28,24,41,19,28,174,71,94,94,26,37,8,11,0.4,0.8
2022-05-30T20:00:00,1242A,120.634,28.0089,温州市,瓯海,,27,27,53,13,33,51,6,31,29,49,47,5,6,0.7,0.9
2022-05-30T20:00:00,1243A,120.6748,27.9939,温州市,南浦,,38,38,61,22,36,54,8,37,34,65,55,6,7,1.1,1.1
2022-05-30T20:00:00,1244A,120.76,27.9747,温州市,龙湾,,40,40,56,15,24,36,5,18,16,72,63,6,6,0.8,0.8
2022-05-30T20:00:00,1245A,120.6709,28.0167,温州市,市站,,34,34,59,17,35,61,12,42,40,55,47,5,5,1.0,0.9
2022-05-30T20:00:00,1247A,120.6053,29.9928,绍兴市,城东开发委,细颗粒物(PM2.5),63,58,31,45,24,131,122,96,96,16,15,5,6,0.9,0.8
2022-05-30T20:00:00,1250A,120.0751,30.8669,湖州市,城西水厂,颗粒物(PM10),54,57,36,32,20,134,26,93,82,91,36,5,5,0.5,0.5
2022-05-30T20:00:00,1252A,120.7436,30.778,嘉兴市,清河小学,,34,34,29,22,18,182,95,140,133,14,24,6,7,0.4,0.6
2022-05-30T20:00:00,1253A,120.726,30.7478,嘉兴市,嘉兴学院,,49,45,34,34,28,176,94,137,132,18,29,4,5,0.5,0.7
2022-05-30T20:00:00,1255A,121.273,28.6459,台州市,黄岩环保大楼,,36,36,51,10,24,55,29,43,40,18,26,5,5,0.6,0.8
2022-05-30T20:00:00,1256A,121.419,28.6542,台州市,台州环保大楼,,38,38,65,21,35,57,27,43,43,46,39,4,4,0.9,0.9
2022-05-30T20:00:00,1257A,121.377,28.5773,台州市,路桥田洋王,,23,21,62,16,46,54,16,43,39,44,42,4,5,0.7,0.9
2022-05-30T20:00:00,1258A,122.122,30.0203,舟山市,定海檀枫,,32,29,33,19,23,162,100,117,117,3,29,2,2,0.5,0.7
2022-05-30T20:00:00,1259A,122.3094,29.9558,舟山市,普陀东港,,,9,28,13,24,189,111,120,120,7,28,,3,0.5,0.7
2022-05-30T20:00:00,1260A,122.19,29.9944,舟山市,临城新区,,30,24,34,18,21,173,95,118,118,6,30,2,2,0.5,0.6
2022-05-30T20:00:00,1262A,119.647,29.077,金华市,十五中,,36,36,39,16,30,74,39,56,56,16,24,5,6,0.6,0.9
2022-05-30T20:00:00,1263A,119.686,29.1029,金华市,监测站,,20,20,33,12,24,87,57,67,67,11,25,4,4,0.5,0.8
2022-05-30T20:00:00,1264A,118.8692,28.9398,衢州市,环保大楼,,29,29,31,13,17,81,43,65,65,16,20,9,10,0.5,0.6
2022-05-30T20:00:00,1265A,118.8709,28.9666,衢州市,实验学校,,,24,26,16,16,76,,62,62,24,22,2,3,0.5,0.5
2022-05-30T20:00:00,1266A,118.8621,28.9808,衢州市,衢州学院,,40,32,26,28,17,97,56,78,75,24,27,6,4,0.5,0.6
2022-05-30T20:00:00,1267A,119.914,28.4514,丽水市,监测站大楼,,31,31,23,8,11,64,29,53,48,26,16,5,5,0.6,0.5
2022-05-30T20:00:00,1268A,119.93,28.4586,丽水市,莲都小学,,17,17,28,7,8,68,24,57,51,31,15,6,5,0.4,0.4
2022-05-30T20:00:00,1269A,119.879,28.4231,丽水市,余庄前,,28,28,27,11,11,53,27,40,38,15,10,5,5,0.5,0.5
2022-05-30T20:00:00,1270A,117.1959,31.7848,合肥市,明珠广场,,39,39,42,19,17,107,73,103,97,49,34,5,5,0.6,0.7
2022-05-30T20:00:00,1271A,117.3072,31.8764,合肥市,三里街,,34,34,48,5,16,107,89,99,99,25,32,9,9,0.5,0.7
2022-05-30T20:00:00,1272A,117.2588,31.8707,合肥市,琥珀山庄,,29,27,41,5,14,117,92,108,108,23,30,8,9,0.5,0.7
2022-05-30T20:00:00,1273A,117.1604,31.9052,合肥市,董铺水库(对照点),,31,29,38,2,9,121,98,107,107,19,24,8,8,0.5,0.7
2022-05-30T20:00:00,1274A,117.25,31.8571,合肥市,长江中路,,34,34,45,12,19,128,100,122,120,34,33,7,7,0.5,0.6
2022-05-30T20:00:00,1276A,117.336,31.8586,合肥市,瑶海区,,34,34,63,10,21,120,98,110,110,18,31,6,7,0.4,0.7
2022-05-30T20:00:00,1277A,117.3027,31.7964,合肥市,包河区,,,41,50,17,22,108,30,99,92,90,44,,8,0.5,0.6
2022-05-30T20:00:00,1278A,117.2776,31.7385,合肥市,滨湖新区,,36,36,49,14,19,119,111,110,110,10,33,10,8,0.2,0.4
2022-05-30T20:00:00,1279A,117.1318,31.8403,合肥市,高新区,,34,34,42,12,18,126,68,113,105,47,31,8,8,0.7,0.9
2022-05-30T20:00:00,1280A,119.3903,26.0543,福州市,鼓山(对照点),,,,29,0,15,138,68,111,107,2,6,2,3,0.2,0.1
2022-05-30T20:00:00,1282A,119.2681,26.0504,福州市,师大,,16,11,34,8,13,121,49,89,83,9,14,2,4,0.2,0.3
2022-05-30T20:00:00,1283A,119.2984,26.1028,福州市,五四北路,,30,30,40,10,15,122,52,94,87,12,16,2,3,0.3,0.4
2022-05-30T20:00:00,1284A,119.2648,26.0768,福州市,杨桥西路,,18,6,38,12,15,112,56,91,84,11,18,3,3,0.3,0.3
2022-05-30T20:00:00,1285A,119.317,26.0746,福州市,紫阳,,,,40,12,15,125,54,101,92,11,16,4,5,0.4,0.5
2022-05-30T20:00:00,1286A,118.1608,24.8169,厦门市,溪东(对照点),,40,40,30,22,27,107,20,79,68,15,8,2,2,0.5,0.4
2022-05-30T20:00:00,1287A,118.1514,24.4767,厦门市,洪文,,19,19,13,5,4,46,32,39,37,24,18,4,4,0.6,0.5
2022-05-30T20:00:00,1288A,118.0661,24.4444,厦门市,鼓浪屿,,22,22,17,4,6,60,32,45,37,22,17,1,2,0.3,0.4
2022-05-30T20:00:00,1290A,115.8931,28.6843,南昌市,省外办,,26,26,31,9,21,69,54,59,58,17,18,3,2,0.8,1
2022-05-30T20:00:00,1291A,115.8886,28.7003,南昌市,省林业公司,,32,32,30,5,6,75,53,69,66,25,26,3,7,0.9,1
2022-05-30T20:00:00,1292A,115.8126,28.7442,南昌市,林科所,,19,19,18,7,11,76,46,72,68,24,17,7,7,0.6,0.7
2022-05-30T20:00:00,1294A,115.8518,28.687,南昌市,建工学校,,24,24,28,8,22,72,53,65,62,21,22,8,8,0.5,0.7
2022-05-30T20:00:00,1295A,115.8921,28.6424,南昌市,象湖,,15,10,29,5,12,73,47,65,62,26,19,1,1,0.8,1
2022-05-30T20:00:00,1296A,115.7423,28.7996,南昌市,武术学校(对照点),,25,25,22,14,15,86,8,71,56,2,4,20,20,0.4,0.6
2022-05-30T20:00:00,1298A,115.9314,28.6842,南昌市,省站,,50,50,40,8,12,76,58,70,68,24,26,8,7,0.6,0.7
2022-05-30T20:00:00,1299A,116.9862,36.6114,济南市,科干所,,45,29,27,7,7,151,144,142,142,8,12,16,13,0.3,0.4
2022-05-30T20:00:00,1300A,116.9376,36.665,济南市,农科所,,35,32,41,2,7,132,112,122,122,22,29,11,12,0.3,0.4
2022-05-30T20:00:00,1301A,117.1265,36.6734,济南市,开发区,,40,27,33,2,7,137,125,132,132,15,22,9,11,0.3,0.3
2022-05-30T20:00:00,1303A,117.0624,36.6868,济南市,省种子仓库,,37,24,47,5,14,131,116,125,125,16,22,10,14,0.4,0.5
2022-05-30T20:00:00,1304A,116.9489,36.6447,济南市,机床二厂,颗粒物(PM10),51,51,51,15,9,141,124,131,131,20,24,11,9,0.3,0.4
2022-05-30T20:00:00,1305A,117.0495,36.663,济南市,市监测站,,39,32,32,5,5,133,123,129,129,16,22,9,9,0.4,0.4
2022-05-30T20:00:00,1306A,116.7675,36.5484,济南市,长清党校,,40,32,49,7,10,152,125,138,138,21,27,12,13,0.6,0.7
2022-05-30T20:00:00,1307A,120.6659,36.2403,青岛市,仰口(对照点),,48,48,25,14,9,102,74,95,94,23,9,5,6,0.1,0.1
2022-05-30T20:00:00,1310A,120.4134,36.0658,青岛市,市南区东部子站,,39,39,23,5,4,143,124,125,125,16,13,3,5,0.3,0.3
2022-05-30T20:00:00,1311A,120.3664,36.1032,青岛市,四方区子站,,41,41,25,9,9,135,113,120,120,34,16,8,6,0.6,0.6
2022-05-30T20:00:00,1312A,120.2994,36.054,青岛市,市南区西部子站,颗粒物(PM10),51,51,21,12,5,141,131,128,128,30,19,6,7,0.4,0.5
2022-05-30T20:00:00,1313A,120.4581,36.0858,青岛市,崂山区子站,,43,39,25,5,3,150,136,134,134,18,15,7,7,0.4,0.3
2022-05-30T20:00:00,1314A,120.1983,35.9608,青岛市,黄岛区子站,,43,34,21,12,10,151,136,137,137,22,31,5,5,0.2,0.3
2022-05-30T20:00:00,1315A,120.3999,36.3083,青岛市,城阳区子站,,36,17,20,7,8,117,115,110,110,31,10,5,5,0.4,0.3
2022-05-30T20:00:00,1316A,113.69031,34.76122,郑州市,烟厂,,49,45,65,15,14,184,156,174,174,24,14,7,9,0.4,0.5
2022-05-30T20:00:00,1317A,113.65724,34.77134,郑州市,郑纺机,,43,41,68,24,16,176,137,165,164,30,12,8,10,0.7,0.6
2022-05-30T20:00:00,1318A,113.67526,34.80246,郑州市,银行学校,臭氧1小时,52,50,57,12,19,195,161,180,180,27,16,8,10,0.5,0.5
2022-05-30T20:00:00,1319A,113.56746,34.81334,郑州市,供水公司,颗粒物(PM10),57,64,67,13,10,182,148,170,170,30,16,8,8,0.4,0.3
2022-05-30T20:00:00,1320A,113.7329,34.7178,郑州市,经开区管委,颗粒物(PM10),53,56,60,23,23,180,142,168,168,27,16,6,6,0.5,0.5
2022-05-30T20:00:00,1321A,113.73961,34.77172,郑州市,四十七中,颗粒物(PM10),51,52,66,14,20,178,146,167,167,33,17,8,9,0.5,0.4
2022-05-30T20:00:00,1322A,113.60532,34.74838,郑州市,市监测站,颗粒物(PM10),51,52,64,17,11,178,121,163,160,48,16,8,10,0.5,0.5
2022-05-30T20:00:00,1323A,113.64164,34.7525,郑州市,河医大,颗粒物(PM10),53,56,73,13,14,179,151,168,168,18,11,6,7,0.4,0.5
2022-05-30T20:00:00,1324A,113.51488,34.91089,郑州市,岗李水库(对照点),颗粒物(PM10),53,55,64,19,21,178,146,168,168,35,13,10,8,0.4,0.4
2022-05-30T20:00:00,1325A,114.3677,30.5584,武汉市,东湖梨园,颗粒物(PM10),58,66,47,29,24,148,138,142,142,11,18,6,7,1.0,1.1
2022-05-30T20:00:00,1326A,114.2529,30.558,武汉市,汉阳月湖,颗粒物(PM10),57,64,50,22,20,165,126,152,152,34,30,6,7,0.8,0.9
2022-05-30T20:00:00,1327A,114.282,30.6189,武汉市,汉口花桥,颗粒物(PM10),55,59,35,32,21,140,122,135,133,25,35,8,9,0.8,0.9
2022-05-30T20:00:00,1328A,114.3025,30.5332,武汉市,武昌紫阳,颗粒物(PM10),54,58,51,30,36,149,119,136,136,30,33,6,6,0.8,0.9
2022-05-30T20:00:00,1329A,114.3646,30.6217,武汉市,青山钢花,颗粒物(PM10),51,52,52,31,28,145,117,135,135,32,32,8,8,0.8,0.9
2022-05-30T20:00:00,1330A,114.1566,30.4825,武汉市,沌口新区,颗粒物(PM10),60,69,54,34,28,150,128,139,139,33,32,8,7,0.9,1
2022-05-30T20:00:00,1331A,114.3014,30.5944,武汉市,汉口江滩,颗粒物(PM10),59,67,54,25,29,140,120,116,116,35,51,6,7,0.8,0.9
2022-05-30T20:00:00,1333A,114.135,30.6319,武汉市,吴家山,颗粒物(PM10),56,62,51,27,23,150,131,143,143,19,23,7,7,0.8,0.9
2022-05-30T20:00:00,1334A,113.8454,30.2917,武汉市,沉湖七壕(对照点),颗粒物(PM10),57,64,38,32,15,149,137,135,135,8,10,5,5,0.9,0.9
2022-05-30T20:00:00,1335A,113.0833,28.2325,长沙市,经开区环保局,,36,36,13,19,13,83,47,76,72,32,19,2,3,1.3,1
2022-05-30T20:00:00,1336A,112.8872,28.2189,长沙市,高开区环保局,,22,11,8,15,11,90,46,72,69,22,15,6,6,0.5,0.4
2022-05-30T20:00:00,1337A,113.0792,28.2053,长沙市,马坡岭,,33,33,12,22,7,102,45,80,77,36,19,8,4,1.4,0.6
2022-05-30T20:00:00,1338A,112.9394,28.19,长沙市,湖南师范大学,,46,21,12,32,10,114,42,82,76,17,12,1,3,0.7,0.6
2022-05-30T20:00:00,1339A,113.0178,28.1322,长沙市,雨花区环保局,,32,28,12,22,12,77,56,77,66,25,16,9,6,1.0,0.5
2022-05-30T20:00:00,1340A,112.9792,28.2597,长沙市,伍家岭,,33,33,18,16,15,94,49,77,74,27,21,2,5,0.9,0.7
2022-05-30T20:00:00,1341A,113.0014,28.1944,长沙市,火车新站,,42,32,16,29,14,98,43,72,69,31,21,6,6,0.6,0.4
2022-05-30T20:00:00,1342A,112.9844,28.1178,长沙市,天心区环保局,细颗粒物(PM2.5),54,42,19,38,13,81,49,81,60,18,10,4,4,0.7,0.6
2022-05-30T20:00:00,1343A,112.8908,28.1308,长沙市,湖南中医药大学,,19,12,14,13,14,81,47,70,67,23,14,3,2,0.8,0.7
2022-05-30T20:00:00,1345A,113.2347,23.1423,广州市,广雅中学,,31,31,24,17,11,91,32,76,69,35,18,4,4,0.9,0.7
2022-05-30T20:00:00,1346A,113.2612,23.105,广州市,市五中,,32,32,23,17,12,105,29,83,74,37,19,5,4,0.7,0.4
2022-05-30T20:00:00,1348A,113.3478,23.0916,广州市,广东商学院,,30,30,21,13,11,93,24,73,64,42,24,3,4,0.8,0.6
2022-05-30T20:00:00,1349A,113.4332,23.1047,广州市,市八十六中,,24,24,22,11,8,86,23,71,66,42,27,6,7,0.5,0.3
2022-05-30T20:00:00,1350A,113.3505,22.9483,广州市,番禺中学,,23,23,18,10,8,89,38,70,64,25,13,9,9,0.4,0.4
2022-05-30T20:00:00,1351A,113.2146,23.3916,广州市,花都师范,,30,30,28,12,13,143,54,113,107,28,21,3,3,0.6,0.5
2022-05-30T20:00:00,1352A,113.2597,23.1331,广州市,市监测站,,29,29,23,15,11,102,34,83,75,33,18,5,5,0.7,0.6
2022-05-30T20:00:00,1353A,113.5618,23.312,广州市,九龙镇镇龙,,36,36,38,18,15,135,72,102,102,36,30,5,6,0.6,0.6
2022-05-30T20:00:00,1354A,113.2765,23.1544,广州市,麓湖,,28,28,21,14,11,98,36,78,69,26,16,3,3,0.7,0.7
2022-05-30T20:00:00,1355A,113.443,23.3035,广州市,帽峰山森林公园(对照点),,24,24,19,11,10,107,40,92,86,45,19,5,5,0.9,0.7
2022-05-30T20:00:00,1356A,114.1063,22.5545,深圳市,通心岭子站,,17,16,13,10,7,60,53,53,53,10,11,2,3,0.5,0.5
2022-05-30T20:00:00,1357A,114.117,22.5625,深圳市,洪湖,,23,23,18,10,6,60,57,54,54,15,15,6,6,0.3,0.3
2022-05-30T20:00:00,1358A,113.987,22.5417,深圳市,华侨城,,23,23,17,9,6,74,16,53,48,36,20,5,4,0.4,0.3
2022-05-30T20:00:00,1359A,113.9181,22.5171,深圳市,南海子站,,24,24,16,15,6,77,37,63,58,21,18,3,3,0.6,0.6
2022-05-30T20:00:00,1360A,114.2458,22.5689,深圳市,盐田,,19,19,14,6,4,58,36,48,47,27,17,2,2,0.6,0.6
2022-05-30T20:00:00,1361A,114.2283,22.7244,深圳市,龙岗,,20,20,18,7,6,70,53,54,54,25,23,4,4,0.6,0.6
2022-05-30T20:00:00,1363A,114.494,22.5422,深圳市,南澳,,20,20,14,4,4,71,61,61,61,7,6,7,7,0.3,0.3
2022-05-30T20:00:00,1364A,114.41,22.6342,深圳市,葵涌,,,,12,,3,74,,55,55,,4,5,5,0.4,0.4
2022-05-30T20:00:00,1365A,114.297,22.5978,深圳市,梅沙,,23,22,18,7,4,76,72,71,71,13,11,6,5,0.3,0.3
2022-05-30T20:00:00,1366A,114.0678,22.738,深圳市,观澜,,26,26,27,12,13,45,15,33,31,33,23,6,6,0.7,0.6
2022-05-30T20:00:00,1367A,113.5814,22.2618,珠海市,吉大,,19,13,12,13,7,62,50,55,52,7,3,7,6,0.4,0.4
2022-05-30T20:00:00,1368A,113.4881,22.2335,珠海市,前山,,19,19,13,6,6,59,46,50,48,12,11,8,8,0.2,0.2
2022-05-30T20:00:00,1369A,113.628,22.4251,珠海市,唐家,,17,10,9,10,6,72,52,67,65,17,7,9,8,0.3,0.3
2022-05-30T20:00:00,1370A,113.299,22.2281,珠海市,斗门,,22,22,14,12,7,64,46,52,51,7,8,9,9,0.5,0.4
2022-05-30T20:00:00,1371A,113.1294,23.0067,佛山市,湾梁,,36,36,27,12,11,98,30,68,64,41,14,5,5,0.6,0.5
2022-05-30T20:00:00,1372A,113.1083,23.0478,佛山市,华材职中,,34,34,22,22,12,125,53,94,91,36,14,6,7,0.6,0.5
2022-05-30T20:00:00,1373A,113.144,23.0453,佛山市,南海气象局,,50,50,28,20,12,110,41,76,71,43,22,5,4,0.7,0.6
2022-05-30T20:00:00,1374A,113.2881,22.8094,佛山市,顺德苏岗,,14,7,12,7,6,74,35,51,47,27,17,4,4,0.8,0.7
2022-05-30T20:00:00,1376A,112.8383,22.8678,佛山市,高明孔堂,,30,30,23,16,9,95,72,70,68,19,9,5,6,0.7,0.5
2022-05-30T20:00:00,1377A,112.8836,23.1588,佛山市,三水监测站,,41,41,31,25,16,116,31,81,73,56,24,5,5,0.8,0.7
2022-05-30T20:00:00,1378A,112.867,23.185,佛山市,三水云东海,,44,44,28,17,8,133,61,105,100,50,23,5,5,0.7,0.5
2022-05-30T20:00:00,1379A,113.3769,22.5211,中山市,华柏园,,24,24,16,9,6,54,35,49,46,14,9,3,2,0.6,0.5
2022-05-30T20:00:00,1380A,113.3881,22.5497,中山市,张溪,,34,34,28,12,7,62,40,52,50,15,11,5,5,0.6,0.6
2022-05-30T20:00:00,1381A,113.4075,22.5111,中山市,紫马岭,,24,24,19,8,7,58,40,52,51,12,9,3,2,0.6,0.6
2022-05-30T20:00:00,1382A,113.4411,22.4853,中山市,长江旅游区(对照点),,14,14,13,8,6,57,43,51,50,6,5,3,3,0.4,0.4
2022-05-30T20:00:00,1383A,113.1064,22.6058,江门市,北街,,25,25,20,8,7,80,49,63,62,18,13,4,5,0.5,0.4
2022-05-30T20:00:00,1384A,113.0731,22.5835,江门市,西区,,27,27,21,13,10,80,51,68,66,17,11,5,4,0.5,0.5
2022-05-30T20:00:00,1385A,113.0219,22.5311,江门市,圭峰西,,32,32,22,13,12,78,36,66,63,18,12,4,4,0.6,0.5
2022-05-30T20:00:00,1386A,113.0828,22.5947,江门市,东湖,,24,24,21,6,6,83,56,69,68,14,11,6,6,0.5,0.4
2022-05-30T20:00:00,1389A,113.7547,23.0494,东莞市,莞城梨川,,24,24,24,10,11,134,59,115,111,26,23,7,7,0.7,0.7
2022-05-30T20:00:00,1390A,113.7944,23.0128,东莞市,东城石井,,,18,22,9,9,148,61,106,101,,21,5,4,,0.5
2022-05-30T20:00:00,1391A,113.7383,22.9658,东莞市,南城西平,,36,36,22,13,9,97,44,83,76,35,21,2,2,0.5,0.6
2022-05-30T20:00:00,1392A,114.4183,23.0528,惠州市,河南岸金山湖子站,,11,11,20,6,9,85,34,71,66,19,9,2,3,0.5,0.5
2022-05-30T20:00:00,1393A,114.4053,23.0822,惠州市,下埔横江三路子站,,,31,18,,8,82,,73,73,24,13,2,3,,0.4
2022-05-30T20:00:00,1394A,114.4103,23.1142,惠州市,江北云山西路子站,,18,18,19,10,7,102,52,77,77,14,9,6,6,0.4,0.4
2022-05-30T20:00:00,1395A,114.4645,22.7833,惠州市,惠阳区承修路船湖子站,,,24,17,,7,42,29,36,36,16,12,3,3,0.5,0.6
2022-05-30T20:00:00,1396A,114.5317,22.7422,惠州市,大亚湾管委会子站,,18,15,20,6,8,67,56,63,62,12,13,6,5,0.2,0.2
2022-05-30T20:00:00,1397A,112.4267,23.0706,肇庆市,睦岗子站,,28,28,29,14,16,114,80,96,96,20,14,10,12,0.7,0.6
2022-05-30T20:00:00,1398A,112.4645,23.0475,肇庆市,城中子站,,25,25,29,14,14,93,66,77,77,25,17,10,12,0.5,0.5
2022-05-30T20:00:00,1399A,112.5544,23.1522,肇庆市,坑口子站,,35,35,30,21,16,148,82,116,116,10,8,6,7,0.5,0.5
2022-05-30T20:00:00,1400A,112.4753,23.1,肇庆市,七星岩子站(对照点),,27,22,25,13,14,117,84,98,98,13,8,12,13,0.6,0.6
2022-05-30T20:00:00,1401A,108.3103,22.7881,南宁市,二十一中,,35,35,36,17,19,118,72,101,99,10,10,5,6,0.6,0.6
2022-05-30T20:00:00,1402A,108.3141,22.8528,南宁市,北湖,,48,48,39,23,23,140,66,112,109,12,10,5,5,0.7,0.7
2022-05-30T20:00:00,1403A,108.3206,22.8225,南宁市,市监测站,,32,32,37,20,20,124,64,106,103,24,14,7,8,0.8,0.8
2022-05-30T20:00:00,1404A,108.3829,22.8037,南宁市,大自然花园,,28,24,33,19,19,117,62,98,95,16,10,6,7,0.7,0.7
2022-05-30T20:00:00,1405A,108.4394,22.7904,南宁市,仙葫(对照点),,26,23,36,18,20,96,55,85,82,20,13,4,4,0.4,0.5
2022-05-30T20:00:00,1406A,108.2397,22.8467,南宁市,区农职院,,25,13,35,13,21,161,80,130,128,12,16,5,6,0.6,0.7
2022-05-30T20:00:00,1407A,108.3275,22.735,南宁市,英华嘉园,细颗粒物(PM2.5),54,37,43,38,21,92,60,80,79,19,18,5,5,0.6,0.6
2022-05-30T20:00:00,1408A,108.2257,22.7757,南宁市,沙井镇街道办,,,36,43,21,21,104,,97,97,22,21,6,6,,0.7
2022-05-30T20:00:00,1410A,110.3232,20.0574,海口市,海南大学,,25,25,25,16,19,89,43,75,67,1,2,5,5,0.4,0.5
2022-05-30T20:00:00,1411A,110.283,20.0053,海口市,秀英海南医院,,24,24,27,11,13,92,29,72,62,26,17,2,3,0.3,0.3
2022-05-30T20:00:00,1412A,110.338,19.9969,海口市,海南师范大学,,17,17,24,6,10,68,28,59,51,9,3,1,2,0.4,0.4
2022-05-30T20:00:00,1413A,110.33,20.0356,海口市,龙华路环保局宿舍,,25,25,25,16,11,85,43,72,66,10,5,4,4,0.6,0.5
2022-05-30T20:00:00,1414A,106.3787,29.8279,重庆市,缙云山(对照点),,43,36,32,30,19,141,137,112,112,20,12,10,10,0.6,0.5
2022-05-30T20:00:00,1416A,106.4213,29.8253,重庆市,天生,颗粒物(PM10),51,51,50,26,25,153,104,123,123,26,30,6,7,0.8,1
2022-05-30T20:00:00,1417A,106.6263,29.7228,重庆市,两路,,38,32,46,26,30,119,67,95,95,71,57,11,12,1.0,0.8
2022-05-30T20:00:00,1418A,106.2953,29.5983,重庆市,虎溪,,49,46,35,34,24,120,75,102,102,32,24,9,9,1.1,1
2022-05-30T20:00:00,1419A,106.5777,29.5102,重庆市,南坪,,48,48,40,23,23,115,100,104,104,12,24,6,11,0.5,0.5
2022-05-30T20:00:00,1420A,106.6556,29.6277,重庆市,唐家沱,,47,47,43,26,23,110,71,86,86,45,46,6,7,0.6,0.6
2022-05-30T20:00:00,1421A,106.6349,29.4906,重庆市,茶园,,39,34,31,27,17,107,86,95,95,32,31,8,9,0.5,0.5
2022-05-30T20:00:00,1422A,106.3754,29.4572,重庆市,白市驿,颗粒物(PM10),52,53,38,28,20,104,74,84,84,26,20,10,12,0.9,1
2022-05-30T20:00:00,1425A,106.6205,29.7166,重庆市,空港,颗粒物(PM10),52,53,52,27,34,124,80,103,100,44,46,6,7,0.6,0.9
2022-05-30T20:00:00,1426A,106.4782,29.4875,重庆市,新山村,,,52,44,31,27,94,76,80,80,,47,15,20,1.0,1.1
2022-05-30T20:00:00,1427A,106.5616,29.6453,重庆市,礼嘉,颗粒物(PM10),55,59,46,30,26,94,46,73,73,72,73,12,12,0.6,0.7
2022-05-30T20:00:00,1428A,106.4522,29.7091,重庆市,蔡家,,41,41,33,28,20,127,69,105,105,48,31,7,8,0.7,0.6
2022-05-30T20:00:00,1429A,106.5093,29.3917,重庆市,鱼新街,,37,37,37,24,23,83,83,70,70,28,37,6,17,0.9,0.9
2022-05-30T20:00:00,1431A,103.9728,30.7236,成都市,金泉两河,颗粒物(PM10),57,63,59,33,38,230,93,165,163,32,34,1,3,0.7,0.7
2022-05-30T20:00:00,1432A,104.1419,30.6764,成都市,十里店,颗粒物(PM10),82,114,84,32,38,176,125,139,139,30,39,4,4,0.6,0.7
2022-05-30T20:00:00,1433A,104.0594,30.5767,成都市,三瓦窑,颗粒物(PM10),64,77,58,35,35,168,137,133,133,42,44,2,5,0.6,0.7
2022-05-30T20:00:00,1434A,104.1122,30.6306,成都市,沙河铺,颗粒物(PM10),64,78,65,31,34,168,143,135,135,37,40,2,2,0.6,0.6
2022-05-30T20:00:00,1437A,104.0431,30.6556,成都市,君平街,颗粒物(PM10),66,81,69,32,53,194,131,157,157,51,49,4,5,0.8,0.8
2022-05-30T20:00:00,1438A,103.6202,31.0201,成都市,灵岩寺(对照点),颗粒物(PM10),53,56,31,21,16,136,104,120,120,6,7,11,12,0.6,0.6
2022-05-30T20:00:00,1439A,106.6899,26.5998,贵阳市,马鞍山,,18,17,18,12,9,75,41,58,55,11,9,3,4,0.7,0.6
2022-05-30T20:00:00,1440A,106.6971,26.5694,贵阳市,市环保站,,20,17,19,13,13,87,61,79,76,21,17,11,6,0.5,0.4
2022-05-30T20:00:00,1441A,106.6243,26.6266,贵阳市,鉴湖路,,22,22,22,14,8,83,50,75,70,15,7,4,4,0.5,0.4
2022-05-30T20:00:00,1442A,106.7487,26.6343,贵阳市,燕子冲,,28,24,24,19,20,82,51,71,68,9,9,7,7,0.6,0.6
2022-05-30T20:00:00,1443A,106.6555,26.4365,贵阳市,碧云窝,,41,41,32,19,16,97,65,82,81,19,12,5,4,0.7,0.6
2022-05-30T20:00:00,1444A,106.694,26.5161,贵阳市,中院村,,31,31,26,17,11,86,51,80,76,25,11,4,3,0.7,0.5
2022-05-30T20:00:00,1445A,106.7109,26.6027,贵阳市,红边门,,22,22,23,7,15,94,66,88,84,11,6,4,8,0.2,0.2
2022-05-30T20:00:00,1446A,106.7164,26.5699,贵阳市,新华路,,25,22,18,17,14,85,57,78,76,18,10,5,4,0.5,0.4
2022-05-30T20:00:00,1447A,106.674,26.5424,贵阳市,太慈桥,,24,24,25,7,8,82,61,75,73,16,12,5,4,0.7,0.6
2022-05-30T20:00:00,1450A,102.8204,24.8886,昆明市,呈贡新区,,30,23,36,18,17,130,96,115,114,13,18,10,11,0.7,0.7
2022-05-30T20:00:00,1451A,102.6251,24.9608,昆明市,西山森林公园(对照点),,35,30,36,13,17,146,110,131,130,12,8,7,8,0.6,0.5
2022-05-30T20:00:00,1452A,102.7252,25.0902,昆明市,龙泉镇,,26,24,33,13,21,107,83,101,99,11,18,10,9,0.5,0.6
2022-05-30T20:00:00,1453A,102.7266,25.0375,昆明市,东风东路,,35,35,33,14,18,117,86,109,106,22,20,5,6,0.6,0.5
2022-05-30T20:00:00,1454A,102.6742,25.0669,昆明市,金鼎山,,29,27,34,17,20,117,91,108,106,9,19,9,9,0.5,0.6
2022-05-30T20:00:00,1455A,102.6644,25.0401,昆明市,碧鸡广场,,30,24,39,21,22,123,94,118,113,19,30,8,9,0.5,0.6
2022-05-30T20:00:00,1456A,91.1319,29.6514,拉萨市,八廓街,,33,25,20,10,11,115,104,108,108,16,11,7,6,0.3,0.3
2022-05-30T20:00:00,1457A,91.1221,29.6747,拉萨市,市环保局,,,,17,,6,114,100,108,108,12,11,5,4,0.4,0.2
2022-05-30T20:00:00,1458A,91.0874,29.6475,拉萨市,区监测站,,34,20,16,7,5,112,106,106,106,9,10,7,7,0.2,0.2
2022-05-30T20:00:00,1459A,91.1774,29.6541,拉萨市,西藏大学,,,,,6,8,120,111,111,111,9,10,8,8,0.2,0.2
2022-05-30T20:00:00,1460A,90.9798,29.6588,拉萨市,区辐射站,,32,19,14,8,6,117,101,106,106,17,11,8,8,0.2,0.2
2022-05-30T20:00:00,1461A,91.0834,29.6292,拉萨市,拉萨火车站,,41,41,24,8,4,115,98,104,104,6,7,7,8,0.2,0.2
2022-05-30T20:00:00,1462A,108.882,34.2749,西安市,高压开关厂,颗粒物(PM10),52,53,131,11,40,185,136,165,165,36,38,6,7,0.2,0.2
2022-05-30T20:00:00,1463A,108.993,34.2629,西安市,兴庆小区,颗粒物(PM10),52,54,112,8,39,169,121,154,153,38,30,7,6,0.4,0.4
2022-05-30T20:00:00,1464A,109.06,34.2572,西安市,纺织城,颗粒物(PM10),55,59,114,20,36,172,127,158,158,23,38,8,8,0.3,0.3
2022-05-30T20:00:00,1465A,108.9356,34.2173,西安市,小寨,颗粒物(PM10),53,56,124,12,38,186,120,163,162,40,36,3,3,0.2,0.3
2022-05-30T20:00:00,1466A,108.954,34.2713,西安市,市人民体育场,,47,47,115,11,36,177,125,158,158,34,32,7,6,0.2,0.3
2022-05-30T20:00:00,1467A,108.8922,34.2322,西安市,高新西区,,45,45,121,18,43,187,121,166,165,42,37,10,10,0.4,0.4
2022-05-30T20:00:00,1468A,108.935,34.3474,西安市,经开区,颗粒物(PM10),51,51,116,11,39,164,123,149,149,31,34,5,5,0.2,0.3
2022-05-30T20:00:00,1469A,108.906,34.1546,西安市,长安区,颗粒物(PM10),53,55,140,20,50,194,136,173,173,28,31,7,8,0.4,0.4
2022-05-30T20:00:00,1471A,109.2186,34.3731,西安市,临潼区,,40,40,100,26,39,166,126,149,149,16,23,6,7,0.4,0.5
2022-05-30T20:00:00,1472A,108.869,34.378,西安市,草滩(对照点),,38,38,110,15,35,163,119,146,145,28,41,10,10,0.4,0.5
2022-05-30T20:00:00,1474A,109.051,34.3213,西安市,广运潭,颗粒物(PM10),54,57,100,23,35,169,97,149,145,40,29,13,8,0.3,0.3
2022-05-30T20:00:00,1476A,103.631,36.1031,兰州市,兰炼宾馆,,48,48,43,21,24,164,121,146,146,24,33,5,14,0.5,0.5
2022-05-30T20:00:00,1478A,103.8412,36.0726,兰州市,生物制品所,,46,46,39,26,24,156,136,141,141,28,37,5,8,0.7,0.8
2022-05-30T20:00:00,1479A,103.831,36.0464,兰州市,铁路设计院,,47,47,45,16,16,137,93,120,120,74,46,6,9,0.6,0.5
2022-05-30T20:00:00,1483A,101.524,36.6867,西宁市,第五水厂(对照点),,43,21,20,10,12,146,135,138,138,12,11,8,9,0.5,0.6
2022-05-30T20:00:00,1484A,105.9512,38.6016,银川市,贺兰山马莲口(对照点),,45,45,34,19,11,140,132,133,133,7,8,10,11,0.3,0.4
2022-05-30T20:00:00,1488A,106.2328,38.4975,银川市,贺兰山东路,,39,18,26,8,10,136,123,130,130,24,20,6,9,0.4,0.4
2022-05-30T20:00:00,1489A,106.1358,38.5036,银川市,学院路,,43,27,38,10,12,143,137,136,136,15,22,9,11,0.3,0.4
2022-05-30T20:00:00,1490A,87.5801,43.8303,乌鲁木齐市,监测站,,,60,92,18,19,125,108,113,113,12,9,,10,0.6,0.6
2022-05-30T20:00:00,1491A,87.6046,43.768,乌鲁木齐市,收费所,,,70,92,,30,133,114,117,117,9,7,7,7,0.3,0.2
2022-05-30T20:00:00,1492A,87.4754,43.9469,乌鲁木齐市,新疆农科院农场(对照点),颗粒物(PM10),52,54,99,13,21,110,101,99,99,2,6,9,9,0.5,0.4
2022-05-30T20:00:00,1493A,87.5525,43.8711,乌鲁木齐市,铁路局,颗粒物(PM10),54,57,98,19,34,126,110,113,113,8,10,9,9,0.5,0.4
2022-05-30T20:00:00,1494A,87.6432,43.831,乌鲁木齐市,三十一中学,颗粒物(PM10),58,65,95,18,19,132,111,118,118,7,6,14,13,0.3,0.2
2022-05-30T20:00:00,1496A,87.7216,44.1747,乌鲁木齐市,米东区环保局,颗粒物(PM10),52,53,126,17,40,114,96,103,103,3,8,8,11,0.2,0.3
2022-05-30T20:00:00,1508A,112.9433,27.8614,湘潭市,板塘,,37,37,20,16,10,74,41,65,58,22,14,7,7,0.7,0.7
2022-05-30T20:00:00,1511A,112.9118,27.8403,湘潭市,市监测站,,25,17,11,17,9,68,36,59,52,26,13,8,9,0.9,0.7
2022-05-30T20:00:00,1512A,112.8937,27.8728,湘潭市,江麓,,29,29,18,12,11,69,47,66,63,21,12,5,7,0.9,0.7
2022-05-30T20:00:00,1513A,112.9227,27.8159,湘潭市,岳塘,,32,32,36,17,8,66,42,57,56,16,16,10,10,0.7,0.6
2022-05-30T20:00:00,1514A,112.9074,27.9119,湘潭市,科大,,,12,10,,3,69,44,62,54,21,16,1,3,1.0,0.9
2022-05-30T20:00:00,1515A,113.135,27.8244,株洲市,天台山庄,,24,24,19,16,16,71,42,71,50,18,19,5,4,0.8,0.8
2022-05-30T20:00:00,1518A,113.095,27.8867,株洲市,株冶医院,,24,24,16,14,11,65,44,60,51,23,21,6,8,0.9,0.7
2022-05-30T20:00:00,1519A,113.167,27.8667,株洲市,市四中,,25,12,14,17,13,75,47,66,64,17,12,5,4,0.6,0.6
2022-05-30T20:00:00,1520A,113.143,27.8381,株洲市,火车站,,32,22,19,22,14,69,42,58,55,17,18,4,3,0.6,0.6
2022-05-30T20:00:00,1524A,113.13,27.8528,株洲市,市监测站,,29,29,17,12,16,73,55,65,64,16,17,6,6,0.4,0.4
2022-05-30T20:00:00,1552A,106.805,26.3003,贵阳市,桐木岭(对照点),,36,36,27,24,18,96,80,92,90,8,5,1,4,0.5,0.5
2022-05-30T20:00:00,1559A,113.251,27.8336,株洲市,大京风景区(对照点),,13,8,4,9,10,62,28,55,50,6,6,6,5,0.5,0.4
2022-05-30T20:00:00,1562A,113.0048,27.9153,湘潭市,昭山,,,24,11,,13,54,21,47,42,31,20,3,3,0.9,0.7
2022-05-30T20:00:00,1564A,112.4876,27.9164,湘潭市,韶山(对照点),,,,16,16,8,67,11,62,44,2,5,3,7,0.9,0.7
2022-05-30T20:00:00,1585A,109.8756,40.6532,包头市,市环境监测站,,45,45,38,14,18,120,111,114,114,14,30,5,20,0.4,1.3
2022-05-30T20:00:00,1587A,109.9991,40.5842,包头市,包头八中,,38,30,32,14,16,125,121,120,120,12,29,8,15,0.4,0.7
2022-05-30T20:00:00,1588A,109.8538,40.6821,包头市,青山宾馆,,33,22,37,10,13,118,103,111,111,19,26,8,13,0.3,0.5
2022-05-30T20:00:00,1589A,109.8642,40.6288,包头市,惠龙物流,,38,31,39,9,21,123,120,117,117,12,31,5,33,0.3,1
2022-05-30T20:00:00,1590A,110.0377,40.5546,包头市,东河鸿龙湾,,35,23,30,4,12,118,110,112,112,10,15,9,13,0.4,0.6
2022-05-30T20:00:00,1591A,110.0023,39.8129,鄂尔多斯市,综合楼,,41,41,25,7,5,118,107,114,114,28,15,5,7,0.5,0.5
2022-05-30T20:00:00,1592A,109.9486,39.8261,鄂尔多斯市,巴音孟克林场办事处,,48,48,37,14,14,122,116,119,119,17,12,7,9,0.4,0.4
2022-05-30T20:00:00,1593A,109.7736,39.5986,鄂尔多斯市,康泽苑,,,,31,9,10,128,124,124,124,8,7,4,4,0.4,0.4
2022-05-30T20:00:00,1594A,109.8119,39.5989,鄂尔多斯市,华泰汽车城,,,,32,22,13,125,114,123,122,12,8,6,6,0.3,0.4
2022-05-30T20:00:00,1595A,109.9734,39.7884,鄂尔多斯市,奥林花园,,44,44,35,17,9,118,108,115,115,21,15,6,7,0.5,0.5
2022-05-30T20:00:00,1597A,122.2703,40.7094,营口市,大庆路,,33,19,33,5,22,127,105,115,115,8,8,4,6,0.8,1
2022-05-30T20:00:00,1598A,122.215,40.6511,营口市,镜湖西路,,37,28,31,9,14,138,117,120,120,11,16,4,6,0.6,0.8
2022-05-30T20:00:00,1599A,122.167,40.6655,营口市,西炮台,,35,21,25,14,16,130,112,116,115,14,17,5,7,0.5,0.9
2022-05-30T20:00:00,1600A,124.3303,40.0625,丹东市,江湾东路,,31,28,9,8,5,107,97,100,100,16,10,8,7,0.4,0.4
2022-05-30T20:00:00,1601A,124.4256,40.1503,丹东市,临江后街,,,,,9,3,110,97,103,103,12,6,10,10,1.1,1.1
2022-05-30T20:00:00,1602A,124.3933,40.1461,丹东市,元宝山,,29,17,10,12,6,95,90,89,89,11,7,10,9,0.5,0.6
2022-05-30T20:00:00,1603A,124.3633,40.1092,丹东市,民主桥,,30,21,9,5,5,102,94,96,96,10,6,10,9,0.8,0.8
2022-05-30T20:00:00,1604A,122.0303,41.1489,盘锦市,开发区,颗粒物(PM10),62,73,24,38,14,113,113,102,102,19,19,4,7,1.1,0.7
2022-05-30T20:00:00,1605A,122.0485,41.0883,盘锦市,兴隆台,颗粒物(PM10),79,108,34,40,20,117,109,106,106,29,20,6,6,1.1,0.7
2022-05-30T20:00:00,1606A,121.8297,41.1028,盘锦市,新生街道,颗粒物(PM10),52,54,25,16,13,116,106,106,106,17,22,4,8,1.0,0.7
2022-05-30T20:00:00,1607A,120.9092,40.7136,葫芦岛市,龙港区,颗粒物(PM10),52,53,32,11,21,127,122,113,113,14,24,6,7,0.5,0.7
2022-05-30T20:00:00,1608A,120.8392,40.7514,葫芦岛市,化工街,颗粒物(PM10),65,79,38,22,22,107,94,97,97,32,31,16,8,0.8,0.4
2022-05-30T20:00:00,1609A,120.8341,40.7073,葫芦岛市,新区,,46,46,50,10,24,120,117,106,106,15,27,9,10,0.7,0.7
2022-05-30T20:00:00,1610A,120.8695,40.7677,葫芦岛市,东城区,颗粒物(PM10),64,77,41,32,27,114,86,102,100,34,28,48,13,0.8,0.5
2022-05-30T20:00:00,1611A,118.5819,24.9117,泉州市,涂山街,,20,20,27,5,9,100,31,77,65,20,16,6,6,0.3,0.3
2022-05-30T20:00:00,1612A,118.5972,24.8978,泉州市,津头埔,,25,25,36,9,10,89,25,69,57,24,17,3,4,0.3,0.2
2022-05-30T20:00:00,1613A,118.6663,24.9424,泉州市,万安,,24,24,21,7,8,89,27,74,60,17,13,6,6,0.4,0.4
2022-05-30T20:00:00,1614A,118.6117,24.9604,泉州市,清源山(对照点),,19,19,22,6,9,111,33,85,72,17,12,4,9,0.4,0.4
2022-05-30T20:00:00,1616A,117.6795,36.229,济南市,技术学院,,45,41,28,8,11,167,142,145,145,20,17,16,14,0.7,0.4
2022-05-30T20:00:00,1618A,118.3429,35.0532,临沂市,沂河小区,,,,37,,9,169,147,147,147,18,11,6,7,0.3,0.3
2022-05-30T20:00:00,1619A,118.295,35.0583,临沂市,鲁南制药厂,臭氧1小时,57,39,30,10,8,181,165,166,166,22,15,5,5,0.3,0.3
2022-05-30T20:00:00,1620A,118.2794,34.9976,临沂市,新光毛纺厂,颗粒物(PM10),52,53,38,10,11,169,152,156,156,15,7,5,4,0.4,0.4
2022-05-30T20:00:00,1621A,118.3956,35.0888,临沂市,河东保险公司,臭氧1小时,58,31,29,12,9,173,166,157,157,16,14,5,5,0.4,0.2
2022-05-30T20:00:00,1622A,116.3032,37.4674,德州市,儿童乐园,颗粒物(PM10),56,61,52,9,10,154,127,144,144,11,15,5,8,0.2,0.4
2022-05-30T20:00:00,1624A,116.2991,37.4451,德州市,监理站,颗粒物(PM10),54,58,35,16,14,150,122,140,140,13,12,8,13,0.4,0.3
2022-05-30T20:00:00,1625A,115.9848,36.4372,聊城市,区政府,,48,48,47,5,8,146,128,139,138,14,17,9,13,0.5,0.6
2022-05-30T20:00:00,1628A,118.0062,37.3803,滨州市,市环保局,,49,45,28,34,19,156,140,150,150,19,9,8,18,0.2,0.2
2022-05-30T20:00:00,1629A,118.0018,37.3617,滨州市,第二水厂,,50,50,36,8,9,140,122,134,134,24,14,9,19,0.4,0.4
2022-05-30T20:00:00,1630A,117.9776,37.393,滨州市,北中新校,,41,34,28,13,10,144,130,137,137,21,13,8,13,0.4,0.3
2022-05-30T20:00:00,1631A,118.0414,36.8103,淄博市,人民公园,,36,29,35,8,14,147,113,134,132,16,14,6,13,0.3,0.2
2022-05-30T20:00:00,1633A,117.8525,36.4847,淄博市,双山,颗粒物(PM10),55,59,33,11,14,149,85,130,126,30,16,9,16,0.2,0.3
2022-05-30T20:00:00,1634A,117.9592,36.6331,淄博市,气象站,,42,42,40,2,9,139,110,134,132,21,17,11,16,0.3,0.2
2022-05-30T20:00:00,1635A,118.3092,36.8194,淄博市,莆田园,,36,29,30,5,10,156,114,140,136,20,15,9,11,0.3,0.3
2022-05-30T20:00:00,1637A,117.558,34.8438,枣庄市,市中区政府,颗粒物(PM10),60,70,45,17,9,179,144,160,160,28,14,32,13,0.3,0.3
2022-05-30T20:00:00,1638A,117.2852,34.7837,枣庄市,薛城环保局,,49,46,63,14,18,179,155,162,162,23,26,12,20,0.7,0.7
2022-05-30T20:00:00,1639A,117.5852,34.7745,枣庄市,峄城区政府,,49,48,50,9,9,171,156,157,157,23,16,9,8,0.4,0.4
2022-05-30T20:00:00,1640A,117.7276,34.5578,枣庄市,台儿庄区环保局,颗粒物(PM10),54,58,39,9,9,175,129,158,158,35,20,10,9,0.4,0.5
2022-05-30T20:00:00,1641A,117.4518,35.0992,枣庄市,山亭区环保局,,48,44,30,7,12,170,152,150,150,20,12,9,10,0.5,0.5
2022-05-30T20:00:00,1642A,121.2514,37.5639,烟台市,开发区,颗粒物(PM10),58,66,25,19,8,114,60,103,96,48,10,24,4,0.5,0.4
2022-05-30T20:00:00,1643A,121.3719,37.5433,烟台市,轴承厂,,36,36,27,19,12,109,77,92,88,35,17,8,7,0.5,0.5
2022-05-30T20:00:00,1644A,121.3181,37.5436,烟台市,西郊化工站,颗粒物(PM10),71,92,28,12,9,103,72,94,92,39,12,6,4,0.5,0.5
2022-05-30T20:00:00,1645A,121.4478,37.4822,烟台市,莱山环保局,,48,48,18,17,8,112,72,102,100,39,9,7,6,0.4,0.3
2022-05-30T20:00:00,1646A,121.2611,37.4967,烟台市,福山环保局,颗粒物(PM10),56,61,34,17,10,115,60,110,100,56,18,15,5,0.8,0.8
2022-05-30T20:00:00,1650A,119.1437,36.7023,潍坊市,环保局,,44,44,34,16,15,162,125,148,145,34,10,8,8,0.6,0.5
2022-05-30T20:00:00,1653A,116.6251,35.4302,济宁市,火炬城,,,,44,12,7,163,,156,156,25,16,12,13,0.5,0.6
2022-05-30T20:00:00,1655A,116.5491,35.4042,济宁市,电化厂,,,48,47,19,12,162,149,154,154,41,25,7,7,,0.7
2022-05-30T20:00:00,1656A,117.1437,36.1937,泰安市,监测站,,49,49,45,4,6,150,134,142,142,12,8,11,11,0.3,0.3
2022-05-30T20:00:00,1657A,117.0885,36.2017,泰安市,人口学校,,41,36,39,13,13,142,129,132,132,18,17,9,9,0.2,0.2
2022-05-30T20:00:00,1658A,117.1089,36.1758,泰安市,电力学校,,44,44,42,8,12,146,121,136,136,18,11,10,10,0.5,0.5
2022-05-30T20:00:00,1659A,119.471,35.4209,日照市,监测站,,48,48,27,15,13,126,83,117,114,45,12,14,10,0.3,0.2
2022-05-30T20:00:00,1660A,119.523,35.4216,日照市,市政府广场,,34,34,29,7,11,128,94,115,112,37,11,8,6,0.3,0.4
2022-05-30T20:00:00,1661A,119.5587,35.4044,日照市,港务局,,48,48,34,7,10,132,106,124,122,22,6,3,3,0.3,0.4
2022-05-30T20:00:00,1662A,122.1214,37.4236,威海市,华夏技校,,34,34,18,9,8,102,87,93,92,12,7,6,3,0.3,0.3
2022-05-30T20:00:00,1663A,122.0508,37.5236,威海市,山大分校,,26,24,12,2,6,115,83,105,101,17,9,6,6,0.3,0.3
2022-05-30T20:00:00,1664A,122.1067,37.5072,威海市,市监测站,,34,34,15,13,10,114,44,93,85,50,12,7,7,0.3,0.3
2022-05-30T20:00:00,1666A,118.6614,37.4309,东营市,市环保局,,39,39,23,7,7,152,122,144,144,21,8,8,8,0.4,0.4
2022-05-30T20:00:00,1669A,113.5824,24.7733,韶关市,市八中,,,50,23,,8,116,,105,105,13,13,5,11,0.5,0.5
2022-05-30T20:00:00,1671A,113.5917,24.7972,韶关市,园林处,,34,34,23,17,12,111,50,90,86,10,10,9,10,0.6,0.6
2022-05-30T20:00:00,1672A,113.6735,24.7791,韶关市,韶关学院,,20,7,24,5,14,107,64,92,91,12,13,9,12,0.4,0.5
2022-05-30T20:00:00,1673A,113.5971,24.6863,韶关市,曲江监测站,,41,41,24,27,15,109,81,94,94,14,11,7,7,0.7,0.6
2022-05-30T20:00:00,1674A,116.6794,23.3667,汕头市,金平子站,,30,30,26,13,8,72,56,66,66,5,5,8,8,0.4,0.5
2022-05-30T20:00:00,1675A,116.7244,23.3633,汕头市,龙湖子站,,22,17,18,15,5,68,56,63,63,14,8,6,6,0.4,0.4
2022-05-30T20:00:00,1676A,116.7258,23.2775,汕头市,濠江子站,,38,38,30,8,5,80,72,72,72,7,9,8,9,0.5,0.5
2022-05-30T20:00:00,1677A,116.7519,23.4714,汕头市,澄海子站,,36,36,28,11,9,75,50,68,65,15,13,6,5,0.6,0.6
2022-05-30T20:00:00,1678A,116.6092,23.2539,汕头市,潮阳子站,,19,17,18,3,8,71,59,66,65,5,6,8,8,0.5,0.5
2022-05-30T20:00:00,1680A,110.3539,21.2706,湛江市,湛江影剧院,,28,28,26,10,9,66,47,61,56,7,6,5,5,0.5,0.5
2022-05-30T20:00:00,1681A,110.3928,21.2228,湛江市,市环境监测站,,22,22,22,12,11,71,55,68,63,5,5,5,5,0.4,0.4
2022-05-30T20:00:00,1682A,110.4019,21.1997,湛江市,环保局宿舍,,22,22,25,10,12,68,51,63,58,5,7,4,5,0.4,0.5
2022-05-30T20:00:00,1683A,110.4111,21.2028,湛江市,霞山游泳场,,17,16,22,8,10,61,53,58,57,4,5,5,6,0.4,0.5
2022-05-30T20:00:00,1684A,110.3316,21.2679,湛江市,麻章区环保局,,38,38,33,13,13,78,40,66,55,15,12,5,5,0.7,0.6
2022-05-30T20:00:00,1685A,110.4558,21.2567,湛江市,坡头区环保局,,28,28,23,14,12,71,52,67,62,5,4,4,5,0.5,0.5
2022-05-30T20:00:00,1686A,111.0286,21.4688,茂名市,电白南海,,,,28,,10,54,36,50,47,12,7,4,4,,0.5
2022-05-30T20:00:00,1687A,110.9294,21.6533,茂名市,茂石化七小,,29,29,29,17,14,68,46,62,57,9,8,5,5,0.6,0.5
2022-05-30T20:00:00,1688A,110.9107,21.6687,茂名市,健康路,,24,24,24,8,8,69,43,62,56,7,6,5,5,0.6,0.6
2022-05-30T20:00:00,1689A,110.8592,21.6828,茂名市,高岭,,19,19,14,5,5,60,40,56,51,7,8,5,6,0.6,0.6
2022-05-30T20:00:00,1690A,116.1231,24.3284,梅州市,梅江月梅,,19,19,21,4,6,66,30,56,51,13,8,1,2,0.6,0.5
2022-05-30T20:00:00,1691A,116.0797,24.2719,梅州市,梅县新城,,12,7,21,6,8,63,36,54,52,13,13,3,5,0.5,0.5
2022-05-30T20:00:00,1692A,116.1248,24.2654,梅州市,环境监控中心,,26,16,20,18,8,57,25,52,49,22,13,5,4,0.6,0.5
2022-05-30T20:00:00,1693A,115.3653,22.775,汕尾市,市环保局,,,,12,8,6,60,54,55,55,7,6,5,4,0.5,0.5
2022-05-30T20:00:00,1694A,115.3706,22.7898,汕尾市,市政府,,18,12,10,5,6,57,56,55,55,7,5,5,5,0.4,0.4
2022-05-30T20:00:00,1695A,115.3622,22.7925,汕尾市,新城中学,,20,18,15,4,6,62,61,58,58,4,4,6,6,0.5,0.5
2022-05-30T20:00:00,1696A,114.6778,23.7569,河源市,源西(对照点),,28,28,21,11,7,78,67,73,73,9,10,4,4,0.5,0.5
2022-05-30T20:00:00,1697A,114.6944,23.7586,河源市,东埔,,22,22,20,10,8,73,56,68,68,14,13,3,4,0.7,0.6
2022-05-30T20:00:00,1698A,114.6892,23.7233,河源市,老城,,24,24,19,3,7,79,53,73,70,14,13,2,3,0.8,0.6
2022-05-30T20:00:00,1699A,111.9797,21.8593,阳江市,鸳鸯湖(对照点),,18,18,20,7,7,61,56,58,56,2,2,8,7,0.4,0.4
2022-05-30T20:00:00,1701A,111.9491,21.8658,阳江市,马南垌,,,26,24,11,10,64,,56,53,18,3,3,4,0.5,0.4
2022-05-30T20:00:00,1702A,113.0426,23.691,清远市,环保大楼(对照点),,38,26,27,16,15,169,121,145,145,14,12,2,2,0.3,0.3
2022-05-30T20:00:00,1703A,113.0208,23.7106,清远市,凤城街办,,34,34,28,18,13,146,107,131,131,11,11,4,4,0.7,0.6
2022-05-30T20:00:00,1705A,116.6367,23.6719,潮州市,西园路(对照点),,30,30,27,15,11,94,58,73,72,12,12,3,4,0.8,0.8
2022-05-30T20:00:00,1706A,116.6447,23.6706,潮州市,档案局,,24,24,26,15,14,94,51,73,72,15,15,7,9,0.7,0.7
2022-05-30T20:00:00,1708A,116.3701,23.5345,揭阳市,新兴,,,,43,12,12,85,10,64,48,29,12,4,4,1.1,0.8
2022-05-30T20:00:00,1709A,116.3264,23.5443,揭阳市,西马,,44,44,32,3,11,86,13,61,47,27,10,5,5,1.0,0.8
2022-05-30T20:00:00,1710A,116.3611,23.5626,揭阳市,东兴,,31,31,34,12,10,78,26,63,52,23,10,4,5,1.2,0.9
2022-05-30T20:00:00,1711A,116.4151,23.5294,揭阳市,渔湖,,22,22,30,13,11,65,16,57,48,27,10,6,5,0.6,0.5
2022-05-30T20:00:00,1714A,112.0539,22.9539,云浮市,牧羊,,24,24,31,11,10,82,52,72,71,12,8,9,10,0.4,0.4
2022-05-30T20:00:00,1715A,102.575,24.3711,玉溪市,东风水库,,46,46,37,13,21,124,101,106,106,9,14,9,9,0.5,0.8
2022-05-30T20:00:00,1718A,115.4208,35.2464,菏泽市,气象局,颗粒物(PM10),65,79,79,14,16,176,145,161,161,23,15,9,11,0.4,0.4
2022-05-30T20:00:00,1719A,115.4747,35.2375,菏泽市,市政协,,,,85,16,12,171,139,157,157,19,14,10,12,0.4,0.4
2022-05-30T20:00:00,1721A,113.3819,40.1097,大同市,果树场(对照点),,35,32,36,13,16,126,110,123,122,11,16,11,19,0.8,0.6
2022-05-30T20:00:00,1723A,113.2994,40.0758,大同市,云冈宾馆,,,,44,3,8,122,107,119,118,10,14,6,11,0.2,0.3
2022-05-30T20:00:00,1724A,113.3444,40.0917,大同市,大同大学,,36,33,43,2,6,123,114,120,120,10,17,6,13,0.2,0.3
2022-05-30T20:00:00,1725A,113.2661,40.1269,大同市,安家小村,,37,21,35,9,8,128,117,125,125,8,14,6,9,0.1,0.4
2022-05-30T20:00:00,1726A,113.2711,40.0844,大同市,教育学院,,33,27,37,3,8,119,104,115,115,21,18,9,14,0.3,0.3
2022-05-30T20:00:00,1727A,113.1147,36.1547,长治市,清华站,,37,30,63,5,19,157,118,135,134,21,25,8,11,0.3,0.5
2022-05-30T20:00:00,1728A,113.1031,36.1989,长治市,监测站,,43,43,57,17,17,167,104,142,137,35,15,9,17,0.8,0.8
2022-05-30T20:00:00,1730A,113.0886,36.2125,长治市,审计局,,41,25,47,2,18,152,129,142,141,11,16,10,36,0.5,0.8
2022-05-30T20:00:00,1731A,113.0844,36.1856,长治市,长治八中,,48,48,63,17,19,161,126,138,137,16,19,9,19,0.3,0.8
2022-05-30T20:00:00,1733A,111.5531,36.0783,临汾市,临钢医院,,43,43,43,12,10,158,113,142,141,39,30,6,6,0.4,0.2
2022-05-30T20:00:00,1734A,111.5028,36.0714,临汾市,技工学校,,33,29,27,13,11,144,105,132,132,30,28,7,6,0.4,0.3
2022-05-30T20:00:00,1736A,111.5018,36.0855,临汾市,市委,,34,34,31,7,7,154,104,140,138,31,24,3,4,0.3,0.2
2022-05-30T20:00:00,1738A,113.5758,37.8572,阳泉市,市中心,颗粒物(PM10),51,51,56,14,16,137,125,128,128,16,40,6,10,0.6,0.5
2022-05-30T20:00:00,1739A,113.4894,37.8731,阳泉市,赛鱼,,43,43,45,18,16,138,86,123,121,59,51,8,12,0.6,0.6
2022-05-30T20:00:00,1740A,113.5819,37.8486,阳泉市,南庄,颗粒物(PM10),59,67,68,24,21,143,122,131,131,26,39,6,10,0.5,0.5
2022-05-30T20:00:00,1742A,113.5614,37.8703,阳泉市,平坦,颗粒物(PM10),54,57,50,26,12,139,126,127,127,20,45,6,12,0.6,0.6
2022-05-30T20:00:00,1743A,113.5158,37.8392,阳泉市,大阳泉,,38,32,28,15,12,140,121,128,128,16,19,8,11,0.3,0.3
2022-05-30T20:00:00,1744A,118.9233,42.2816,赤峰市,松山一中,,23,23,24,4,5,75,40,74,62,36,18,8,8,0.9,0.5
2022-05-30T20:00:00,1745A,118.9576,42.2728,赤峰市,哈达街,,22,22,24,8,4,74,55,71,67,23,20,7,10,0.5,0.4
2022-05-30T20:00:00,1746A,118.8788,42.2554,赤峰市,天义路,,26,26,24,8,6,74,42,70,63,30,14,9,9,0.5,0.4
2022-05-30T20:00:00,1748A,123.044,41.1196,鞍山市,深沟寺,,16,16,21,9,14,115,46,87,78,12,13,6,7,0.5,0.8
2022-05-30T20:00:00,1749A,123.011,41.0931,鞍山市,太阳城,,17,17,29,10,17,111,31,84,69,19,17,6,7,0.7,1
2022-05-30T20:00:00,1750A,123.0485,41.1442,鞍山市,太平,,21,20,29,10,18,111,65,87,84,17,19,9,14,0.6,1.3
2022-05-30T20:00:00,1751A,122.9642,41.0971,鞍山市,铁西三道街,,31,31,34,14,22,117,46,93,82,38,19,5,6,0.8,1
2022-05-30T20:00:00,1752A,122.9341,41.0833,鞍山市,铁西工业园区,,39,39,31,22,19,120,38,93,78,39,18,8,8,0.9,0.8
2022-05-30T20:00:00,1753A,123.022,41.0821,鞍山市,明达新区,,21,21,24,11,17,106,55,83,79,16,15,4,5,0.5,0.8
2022-05-30T20:00:00,1754A,123.1289,41.0228,鞍山市,千山(对照点),,15,15,14,9,9,98,33,76,64,5,8,2,2,0.6,0.8
2022-05-30T20:00:00,1755A,123.7977,41.8491,抚顺市,望花区,,21,18,30,8,19,113,67,93,90,23,17,14,7,0.5,0.6
2022-05-30T20:00:00,1756A,123.9161,41.8822,抚顺市,顺城区,,32,31,30,22,20,93,58,76,76,22,18,9,9,1.1,0.6
2022-05-30T20:00:00,1757A,124.0436,41.8611,抚顺市,东洲区,,23,23,31,10,20,110,65,93,90,22,15,12,8,0.7,0.9
2022-05-30T20:00:00,1758A,123.9247,41.8642,抚顺市,新抚区,,48,48,33,8,16,108,46,86,81,22,12,5,7,1.1,0.6
2022-05-30T20:00:00,1759A,124.0972,41.8961,抚顺市,大伙房水库,,,,32,7,20,123,85,102,101,5,10,5,8,0.3,0.6
2022-05-30T20:00:00,1761A,123.8275,41.3064,本溪市,大峪,,26,26,26,6,11,97,34,86,78,37,18,6,7,0.8,0.9
2022-05-30T20:00:00,1762A,123.7567,41.3325,本溪市,溪湖,,34,34,25,18,15,101,38,84,76,24,17,8,8,0.9,1
2022-05-30T20:00:00,1763A,123.7169,41.3094,本溪市,彩屯,,37,37,31,20,20,106,30,90,81,28,18,12,12,0.8,0.8
2022-05-30T20:00:00,1764A,123.7669,41.2864,本溪市,东明,,25,24,33,17,15,98,67,85,84,24,22,11,16,0.7,1.1
2022-05-30T20:00:00,1765A,123.7992,41.2664,本溪市,新立屯,,21,21,29,12,16,101,48,86,78,24,17,6,10,0.6,1.1
2022-05-30T20:00:00,1766A,123.8142,41.3472,本溪市,威宁,,35,35,24,17,13,111,29,96,86,28,14,8,10,0.6,0.7
2022-05-30T20:00:00,1767A,121.1115,41.0879,锦州市,南山,,22,22,27,1,19,94,64,86,84,20,15,8,13,0.5,0.8
2022-05-30T20:00:00,1768A,121.0533,40.8434,锦州市,开发区,,50,50,50,16,27,112,84,95,95,40,30,12,14,0.8,0.8
2022-05-30T20:00:00,1769A,121.1836,41.1119,锦州市,百股街道,,48,48,27,14,17,104,49,93,88,30,17,6,15,0.4,0.7
2022-05-30T20:00:00,1770A,121.1178,41.1222,锦州市,天安街道,,39,39,29,5,17,104,64,96,92,26,19,5,8,0.4,0.7
2022-05-30T20:00:00,1771A,121.1303,41.1386,锦州市,北湖公园,,20,20,32,8,16,98,62,90,87,22,14,7,8,0.3,0.5
2022-05-30T20:00:00,1772A,126.54,43.8622,吉林市,哈达湾,,25,25,13,2,5,97,73,89,88,22,6,3,3,0.5,0.4
2022-05-30T20:00:00,1773A,126.5844,43.8358,吉林市,东局子,,24,13,14,4,5,94,75,86,85,19,10,5,4,0.5,0.6
2022-05-30T20:00:00,1774A,126.5052,43.8245,吉林市,电力学院,,,,21,10,6,112,77,100,98,24,8,12,11,,0.5
2022-05-30T20:00:00,1775A,126.6133,43.8972,吉林市,江北,,27,15,17,4,6,98,84,87,87,9,9,8,8,0.5,0.5
2022-05-30T20:00:00,1776A,126.555,43.8306,吉林市,江南公园,,24,16,13,6,7,93,76,85,84,16,6,4,4,0.4,0.4
2022-05-30T20:00:00,1778A,126.7061,43.7133,吉林市,丰满(对照点),,27,10,12,5,7,95,84,84,84,4,7,4,4,0.4,0.5
2022-05-30T20:00:00,1779A,123.9305,47.3636,齐齐哈尔市,安居小区,,38,38,18,2,6,68,53,65,63,19,11,3,4,0.5,0.6
2022-05-30T20:00:00,1780A,123.9488,47.3386,齐齐哈尔市,中心广场,,38,14,11,26,5,69,54,66,65,23,10,3,4,0.4,0.4
2022-05-30T20:00:00,1781A,123.9483,47.3227,齐齐哈尔市,农牧车辆厂,,24,24,19,2,6,75,57,71,70,14,9,3,3,0.3,0.3
2022-05-30T20:00:00,1783A,123.945,47.2988,齐齐哈尔市,市环境监测站,,23,14,13,16,11,79,67,74,74,15,8,4,4,0.6,0.5
2022-05-30T20:00:00,1784A,129.61,44.561,牡丹江市,环保大楼,,20,17,23,9,7,117,62,92,65,8,7,3,3,0.4,0.4
2022-05-30T20:00:00,1785A,129.6115,44.5782,牡丹江市,文化广场,,23,17,16,16,10,110,57,89,55,12,11,2,2,0.4,0.3
2022-05-30T20:00:00,1786A,129.5904,44.5963,牡丹江市,第一医院,,19,6,9,13,11,100,55,81,53,9,10,2,2,0.6,0.6
2022-05-30T20:00:00,1787A,129.6364,44.6075,牡丹江市,机车工厂,,19,6,12,13,11,112,54,84,55,15,12,11,10,0.3,0.3
2022-05-30T20:00:00,1788A,129.6386,44.5462,牡丹江市,第一中学,,19,6,14,7,9,115,60,86,61,7,7,2,2,0.3,0.4
2022-05-30T20:00:00,1789A,124.81117,46.03138,大庆市,大同区,,17,16,13,4,4,77,54,70,69,19,7,6,4,0.4,0.3
2022-05-30T20:00:00,1790A,125.129,46.533,大庆市,龙凤区,,19,18,15,13,8,72,55,67,66,22,10,2,2,1.0,0.5
2022-05-30T20:00:00,1791A,124.902,46.408,大庆市,红岗区,,20,19,12,12,8,76,61,70,70,11,6,3,4,0.3,0.3
2022-05-30T20:00:00,1792A,125.153,46.586,大庆市,萨尔图区,,30,30,15,6,8,72,49,65,62,23,10,5,5,0.3,0.6
2022-05-30T20:00:00,1793A,124.9042,46.6215,大庆市,让胡路区,,33,23,20,23,15,80,28,72,62,47,11,11,11,0.4,0.3
2022-05-30T20:00:00,1794A,118.3606,31.3519,芜湖市,监测站,,50,50,36,24,17,108,90,102,102,36,39,7,12,0.7,1
2022-05-30T20:00:00,1795A,118.3714,31.4134,芜湖市,科创中心,,43,43,31,24,17,123,65,106,101,40,30,6,8,0.8,1
2022-05-30T20:00:00,1796A,118.3673,31.3131,芜湖市,四水厂,,49,49,32,27,19,118,99,111,111,36,39,7,10,0.7,1
2022-05-30T20:00:00,1798A,118.5092,31.6837,马鞍山市,湖东路四小,,50,50,34,23,20,121,59,108,96,62,23,10,5,0.9,0.8
2022-05-30T20:00:00,1799A,118.5024,31.6449,马鞍山市,开发区,颗粒物(PM10),55,59,37,19,14,116,93,104,97,35,30,8,7,0.8,0.9
2022-05-30T20:00:00,1800A,118.5228,31.7231,马鞍山市,慈湖,颗粒物(PM10),65,80,46,27,22,133,24,103,84,96,29,7,6,1.1,0.9
2022-05-30T20:00:00,1802A,118.6245,31.7241,马鞍山市,濮塘(对照点),,40,40,36,18,17,124,73,97,86,10,13,8,10,0.7,0.8
2022-05-30T20:00:00,1803A,115.9872,29.6815,九江市,十里,,,41,22,23,13,131,111,119,119,14,26,,9,0.6,0.8
2022-05-30T20:00:00,1804A,115.9584,29.7046,九江市,茅山头,,34,33,21,21,14,156,108,125,125,12,19,4,6,0.7,0.7
2022-05-30T20:00:00,1805A,115.9877,29.7295,九江市,西园,,48,48,27,22,12,130,104,116,116,15,29,6,8,1.4,0.8
2022-05-30T20:00:00,1806A,116.0172,29.6547,九江市,五七二七厂,,41,41,23,16,8,119,119,109,109,2,6,6,6,0.7,0.6
2022-05-30T20:00:00,1808A,115.9114,29.6038,九江市,综合工业园,,50,50,27,17,11,140,112,122,122,8,27,6,6,0.6,0.7
2022-05-30T20:00:00,1809A,116.0721,29.7535,九江市,石化总厂,,41,41,34,24,15,132,94,112,112,24,24,6,11,0.5,0.7
2022-05-30T20:00:00,1810A,115.9773,29.5698,九江市,庐山气象台(对照点),,42,23,11,18,9,134,134,112,112,8,5,9,10,0.6,0.4
2022-05-30T20:00:00,1812A,112.3931,34.6516,洛阳市,市委党校,,45,45,68,11,21,192,128,161,157,12,9,7,10,0.4,0.5
2022-05-30T20:00:00,1814A,112.4657,34.6871,洛阳市,豫西宾馆,,43,41,74,19,24,184,135,168,165,19,13,4,5,0.3,0.5
2022-05-30T20:00:00,1815A,112.494,34.6886,洛阳市,河南林校,,43,43,67,13,21,178,132,162,159,16,14,4,6,0.3,0.4
2022-05-30T20:00:00,1816A,112.3844,34.623,洛阳市,开发区管委会,,39,39,64,16,24,176,124,162,158,18,11,4,7,0.1,0.2
2022-05-30T20:00:00,1817A,112.4267,34.6258,洛阳市,市委新办公区,,41,41,68,12,23,176,126,161,158,22,12,6,8,0.2,0.3
2022-05-30T20:00:00,1818A,114.4839,36.0621,安阳市,棉研所(对照点),颗粒物(PM10),63,75,65,16,15,165,141,153,153,16,13,8,8,0.3,0.2
2022-05-30T20:00:00,1819A,114.3551,36.1017,安阳市,红庙街,颗粒物(PM10),61,71,66,7,9,171,148,155,155,19,15,10,9,0.3,0.2
2022-05-30T20:00:00,1820A,114.361,36.0681,安阳市,银杏小区,颗粒物(PM10),61,71,71,11,10,189,164,171,171,19,15,10,8,0.3,0.2
2022-05-30T20:00:00,1824A,114.3389,34.7781,开封市,肿瘤医院,颗粒物(PM10),77,104,71,16,17,198,153,172,172,19,10,8,10,0.3,0.4
2022-05-30T20:00:00,1826A,114.2885,34.7965,开封市,世纪星幼儿园,颗粒物(PM10),64,78,59,18,17,210,154,180,180,33,13,7,8,0.4,0.5
2022-05-30T20:00:00,1828A,113.2269,35.2127,焦作市,市环保局,,48,48,77,19,26,184,114,165,161,25,17,4,6,0.2,0.4
2022-05-30T20:00:00,1829A,113.2467,35.176,焦作市,高新区政府,颗粒物(PM10),51,52,76,9,21,178,113,159,156,25,21,5,8,0.3,0.4
2022-05-30T20:00:00,1830A,113.1987,35.2703,焦作市,影视城(对照点),,40,39,61,21,27,187,126,166,163,20,13,12,11,0.4,0.6
2022-05-30T20:00:00,1832A,113.3257,33.742,平顶山市,新华旅馆,颗粒物(PM10),53,56,82,11,25,183,127,168,165,21,9,2,4,0.3,0.3
2022-05-30T20:00:00,1833A,113.2919,33.737,平顶山市,规划设计院,,46,46,86,7,20,188,125,164,162,23,15,6,8,0.4,0.5
2022-05-30T20:00:00,1834A,113.182,33.774,平顶山市,平顶山工学院,颗粒物(PM10),54,58,90,15,30,186,134,164,164,16,13,5,6,0.4,0.4
2022-05-30T20:00:00,1835A,111.1922,34.7752,三门峡市,市政府,,39,29,50,11,16,148,124,142,140,24,28,7,10,0.4,0.5
2022-05-30T20:00:00,1836A,111.1587,34.7942,三门峡市,开发区,,40,38,60,11,16,137,125,133,132,7,25,4,7,0.3,0.3
2022-05-30T20:00:00,1838A,111.143,34.7955,三门峡市,风景区(对照点),颗粒物(PM10),52,54,69,19,19,143,132,140,139,11,25,4,7,0.4,0.5
2022-05-30T20:00:00,1840A,111.2992,30.6981,宜昌市,白龙岗,颗粒物(PM10),64,78,51,29,20,181,120,154,154,50,33,10,9,0.5,0.5
2022-05-30T20:00:00,1841A,111.3549,30.6465,宜昌市,伍家岗,,,72,54,27,20,185,58,152,152,112,39,8,6,0.7,0.5
2022-05-30T20:00:00,1842A,111.2628,30.6961,宜昌市,点军区,颗粒物(PM10),68,86,59,29,21,208,130,177,177,43,26,7,6,0.4,0.4
2022-05-30T20:00:00,1843A,111.3275,30.7819,宜昌市,夷陵区,颗粒物(PM10),65,80,61,31,21,174,108,156,155,25,28,7,9,0.4,0.4
2022-05-30T20:00:00,1844A,112.2494,30.3197,荆州市,市图书馆,"颗粒物(PM10),细颗粒物(PM2.5)",59,67,51,42,28,199,124,170,170,28,21,8,9,0.8,0.8
2022-05-30T20:00:00,1845A,112.2008,30.3544,荆州市,市委党校,颗粒物(PM10),60,70,54,37,25,196,129,173,172,22,20,10,11,0.7,0.7
2022-05-30T20:00:00,1847A,113.1094,29.3578,岳阳市,南湖风景区,,46,46,35,26,23,120,72,105,104,27,21,9,8,1.1,0.9
2022-05-30T20:00:00,1848A,113.1493,29.4251,岳阳市,城陵矶,颗粒物(PM10),52,54,34,34,24,105,75,84,84,48,37,7,8,0.7,0.8
2022-05-30T20:00:00,1849A,113.1497,29.3575,岳阳市,开发区,颗粒物(PM10),65,80,33,30,20,126,120,118,118,22,22,8,8,0.9,0.9
2022-05-30T20:00:00,1850A,113.2621,29.4758,岳阳市,云溪区,,48,48,28,33,20,128,115,114,114,15,13,9,11,1.0,1
2022-05-30T20:00:00,1851A,112.9943,29.4402,岳阳市,君山区,,48,42,27,33,22,104,78,91,91,25,16,5,5,0.9,0.8
2022-05-30T20:00:00,1852A,113.2117,29.355,岳阳市,金凤水库(对照点),,47,47,27,29,21,121,92,108,108,5,9,8,8,0.6,0.7
2022-05-30T20:00:00,1854A,111.6975,28.9703,常德市,市二中,,48,48,26,31,16,107,77,83,83,15,9,6,6,0.7,0.7
2022-05-30T20:00:00,1857A,111.7158,29.1456,常德市,白鹤山(对照点),细颗粒物(PM2.5),92,49,36,68,30,107,79,96,96,2,4,6,7,0.6,0.5
2022-05-30T20:00:00,1858A,110.5319,29.1217,张家界市,永定新区,颗粒物(PM10),62,73,34,34,15,159,97,124,124,20,12,3,2,0.9,0.7
2022-05-30T20:00:00,1859A,110.4697,29.1242,张家界市,电业局,颗粒物(PM10),53,56,23,34,11,162,109,126,126,28,13,4,3,0.5,0.4
2022-05-30T20:00:00,1860A,110.5594,29.3547,张家界市,未央路,颗粒物(PM10),55,60,31,25,8,146,87,110,110,7,6,2,2,0.4,0.3
2022-05-30T20:00:00,1861A,110.4417,29.315,张家界市,袁家界(对照点),臭氧1小时,101,90,42,29,10,211,202,170,170,9,4,10,8,0.5,0.4
2022-05-30T20:00:00,1862A,110.4144,25.3167,桂林市,电子科大尧山校区(对照点),,23,8,23,8,14,71,71,64,64,4,4,7,10,0.4,0.5
2022-05-30T20:00:00,1863A,110.2819,25.2697,桂林市,监测站,,21,21,30,9,18,62,62,55,55,8,13,2,2,0.4,0.6
2022-05-30T20:00:00,1864A,110.3089,25.2708,桂林市,龙隐路小学,,23,14,28,9,16,71,71,59,59,8,13,6,9,0.3,0.5
2022-05-30T20:00:00,1865A,110.2869,25.2178,桂林市,八中,,,5,23,,,69,65,60,60,10,15,6,7,0.4,0.4
2022-05-30T20:00:00,1866A,109.2262,21.588,北海市,牛尾岭水库(对照点),,32,29,24,22,13,69,52,58,58,11,8,3,5,0.4,0.3
2022-05-30T20:00:00,1867A,109.1436,21.4086,北海市,海滩公园,,34,34,30,15,9,87,82,84,84,2,3,4,4,0.4,0.6
2022-05-30T20:00:00,1868A,109.0981,21.4661,北海市,新市环保局,,31,31,26,12,13,81,74,75,75,4,4,3,3,0.5,0.5
2022-05-30T20:00:00,1869A,109.1778,21.5233,北海市,北海工业园,,27,27,31,17,16,81,64,72,71,8,6,4,5,0.5,0.5
2022-05-30T20:00:00,1870A,109.4856,24.3895,柳州市,柳东小学,,,27,28,24,19,93,,83,62,14,7,8,6,0.9,0.7
2022-05-30T20:00:00,1871A,109.4157,24.3277,柳州市,环保监测站,,17,17,32,10,17,92,45,69,66,9,13,5,5,0.7,0.7
2022-05-30T20:00:00,1872A,109.389,24.341,柳州市,河西水厂,,19,19,30,11,18,92,49,64,61,9,13,7,6,0.6,0.7
2022-05-30T20:00:00,1873A,109.4311,24.2921,柳州市,市四中,,29,29,37,20,19,91,50,72,68,11,13,5,5,0.9,0.9
2022-05-30T20:00:00,1874A,109.4006,24.3631,柳州市,市九中,,20,18,34,14,17,88,45,61,58,6,13,5,5,0.4,0.5
2022-05-30T20:00:00,1875A,109.4958,24.3134,柳州市,古亭山,,19,19,26,11,14,69,36,55,53,13,10,2,3,0.8,0.7
2022-05-30T20:00:00,1876A,109.5078,18.2489,三亚市,河东子站,,24,24,21,14,11,67,38,60,55,13,4,2,6,0.4,0.4
2022-05-30T20:00:00,1877A,109.4964,18.2681,三亚市,河西子站,,23,23,21,12,11,63,47,60,56,13,6,2,2,0.3,0.3
2022-05-30T20:00:00,1878A,104.7778,31.4741,绵阳市,富乐山,细颗粒物(PM2.5),68,83,72,49,46,126,73,110,104,15,21,3,4,0.4,0.6
2022-05-30T20:00:00,1879A,104.7563,31.4535,绵阳市,市人大,颗粒物(PM10),84,118,129,40,60,123,21,101,82,71,36,6,12,1.2,0.9
2022-05-30T20:00:00,1880A,104.6697,31.4668,绵阳市,高新区自来水公司,颗粒物(PM10),100,150,114,50,69,135,22,115,96,63,35,6,6,0.9,0.8
2022-05-30T20:00:00,1881A,104.7287,31.5075,绵阳市,三水厂,颗粒物(PM10),83,116,142,48,101,124,56,108,94,49,35,9,10,0.7,0.8
2022-05-30T20:00:00,1882A,104.563,28.793,宜宾市,石马中学(对照点),颗粒物(PM10),57,64,35,29,20,128,97,100,100,35,19,19,9,0.7,0.6
2022-05-30T20:00:00,1883A,104.6201,28.7728,宜宾市,市委,颗粒物(PM10),60,69,43,29,27,134,86,94,94,26,36,16,8,0.7,0.8
2022-05-30T20:00:00,1884A,104.6055,28.793,宜宾市,宜宾四中,颗粒物(PM10),60,70,50,27,27,131,92,101,101,38,36,14,7,0.6,0.6
2022-05-30T20:00:00,1885A,104.639,28.7562,宜宾市,市政府,颗粒物(PM10),60,70,50,26,25,135,111,102,102,27,40,8,7,0.7,0.8
2022-05-30T20:00:00,1886A,104.5742,28.7199,宜宾市,黄金嘴,颗粒物(PM10),55,59,41,23,22,116,96,90,90,13,25,6,7,0.6,0.6
2022-05-30T20:00:00,1888A,101.6891,26.571,攀枝花市,弄弄坪,,40,40,36,18,16,112,87,100,99,9,19,4,6,0.8,1
2022-05-30T20:00:00,1889A,101.5769,26.5928,攀枝花市,河门口,颗粒物(PM10),51,52,40,21,17,112,57,94,91,43,36,26,25,2.3,1.9
2022-05-30T20:00:00,1890A,101.7169,26.585,攀枝花市,炳草岗,,31,31,34,15,18,105,81,95,95,15,30,16,18,0.6,0.8
2022-05-30T20:00:00,1891A,101.7369,26.5008,攀枝花市,仁和,,34,34,31,14,17,115,94,104,104,13,20,5,5,0.5,0.6
2022-05-30T20:00:00,1893A,105.4324,28.9634,泸州市,九狮山(对照点),颗粒物(PM10),54,57,31,15,17,99,60,74,74,20,22,6,7,0.4,0.5
2022-05-30T20:00:00,1894A,105.4427,28.9063,泸州市,小市上码头,,40,40,45,20,20,102,74,72,72,19,24,8,12,0.6,0.8
2022-05-30T20:00:00,1895A,105.4241,28.8573,泸州市,兰田宪桥,,47,47,41,16,16,95,43,68,68,31,20,7,9,0.9,0.7
2022-05-30T20:00:00,1896A,105.4379,28.8833,泸州市,市环监站,,50,50,42,22,17,100,58,73,73,43,24,5,11,0.6,0.6
2022-05-30T20:00:00,1901A,104.4239,31.1208,德阳市,东山公园,颗粒物(PM10),78,106,68,39,34,121,80,113,110,29,23,7,8,0.6,0.6
2022-05-30T20:00:00,1902A,104.3826,31.1317,德阳市,西小区,颗粒物(PM10),73,96,84,37,36,129,87,116,114,39,28,8,9,0.7,0.7
2022-05-30T20:00:00,1904A,104.3553,31.1091,德阳市,耐火材料厂,颗粒物(PM10),83,115,86,33,33,129,91,115,113,34,34,7,8,0.6,0.7
2022-05-30T20:00:00,1905A,106.056,30.8064,南充市,西山风景区(对照点),细颗粒物(PM2.5),58,53,49,41,37,113,86,100,100,17,12,4,3,0.6,0.6
2022-05-30T20:00:00,1906A,106.0789,30.8023,南充市,南充市委,颗粒物(PM10),59,67,58,29,34,115,88,103,103,17,9,4,5,0.7,0.6
2022-05-30T20:00:00,1907A,106.1031,30.8217,南充市,南充炼油厂,颗粒物(PM10),55,59,58,34,34,123,94,109,109,6,8,2,4,0.6,0.6
2022-05-30T20:00:00,1908A,106.1064,30.7856,南充市,高坪区监测站,颗粒物(PM10),57,63,49,30,32,117,92,104,104,13,9,4,8,0.7,0.6
2022-05-30T20:00:00,1909A,106.0642,30.7636,南充市,嘉陵区环保局,细颗粒物(PM2.5),160,65,42,122,112,110,77,97,96,25,10,3,7,0.6,0.6
2022-05-30T20:00:00,1910A,106.1087,30.8388,南充市,市环境监测站,颗粒物(PM10),54,58,53,37,38,118,97,106,106,16,14,2,4,0.6,0.5
2022-05-30T20:00:00,1911A,106.9222,27.6869,遵义市,丁字口,,39,39,25,24,16,85,40,69,68,36,16,6,6,0.8,0.6
2022-05-30T20:00:00,1912A,106.9242,27.7019,遵义市,凤凰山,,30,21,18,21,11,95,79,81,81,17,10,5,5,0.8,0.6
2022-05-30T20:00:00,1913A,106.8906,27.6486,遵义市,忠庄,颗粒物(PM10),66,82,23,22,12,90,66,78,78,23,10,1,1,0.8,0.7
2022-05-30T20:00:00,1914A,106.9231,27.6506,遵义市,舟水桥,,,,13,27,11,91,62,75,75,11,17,2,2,0.5,0.5
2022-05-30T20:00:00,1915A,106.9178,27.72,遵义市,干田坝,,42,42,18,14,11,88,43,73,70,28,10,5,5,0.7,0.6
2022-05-30T20:00:00,1916A,103.7897,25.5035,曲靖市,环境监测站,,32,32,23,18,16,100,74,94,90,18,14,10,9,0.6,0.7
2022-05-30T20:00:00,1917A,103.8,25.5364,曲靖市,烟厂办公区,,28,25,24,12,12,107,87,87,87,10,9,9,5,0.5,0.6
2022-05-30T20:00:00,1918A,108.7197,34.3956,咸阳市,气象站(对照点),颗粒物(PM10),53,56,97,14,31,176,126,155,155,32,35,8,7,0.5,0.6
2022-05-30T20:00:00,1919A,108.673,34.3155,咸阳市,实验中学,颗粒物(PM10),56,61,114,17,37,186,142,162,162,23,31,4,4,0.5,0.5
2022-05-30T20:00:00,1920A,108.7233,34.3617,咸阳市,师范学院,颗粒物(PM10),55,60,105,14,33,184,140,162,162,31,31,13,9,0.3,0.4
2022-05-30T20:00:00,1922A,109.0656,35.0994,铜川市,党校(对照点),颗粒物(PM10),57,63,63,13,25,152,135,140,140,28,29,10,8,0.6,0.5
2022-05-30T20:00:00,1923A,109.0697,35.0697,铜川市,王益区政府,颗粒物(PM10),54,57,78,14,19,161,148,149,149,19,27,9,6,0.4,0.4
2022-05-30T20:00:00,1924A,108.9344,34.9058,铜川市,新区管委会,颗粒物(PM10),53,56,57,17,17,165,153,156,156,17,14,6,8,0.4,0.4
2022-05-30T20:00:00,1926A,109.4131,36.6275,延安市,枣园(对照点),,32,32,35,15,8,121,73,118,114,26,23,4,4,0.3,0.2
2022-05-30T20:00:00,1927A,109.4761,36.6028,延安市,延大医附院,,36,36,36,8,8,128,111,123,123,11,26,4,4,0.3,0.3
2022-05-30T20:00:00,1929A,109.5056,36.6106,延安市,百米大道,,50,50,48,13,14,122,74,113,110,39,32,3,3,0.7,0.6
2022-05-30T20:00:00,1930A,107.185,34.3063,宝鸡市,庙沟村(对照点),颗粒物(PM10),58,65,74,26,26,156,121,142,142,13,13,5,5,0.4,0.3
2022-05-30T20:00:00,1931A,107.0708,34.3017,宝鸡市,竹园沟,颗粒物(PM10),57,63,75,22,24,186,107,154,152,15,14,7,7,0.4,0.3
2022-05-30T20:00:00,1932A,107.1906,34.3672,宝鸡市,三陆医院,,,,77,31,24,170,147,158,158,25,26,6,8,,0.4
2022-05-30T20:00:00,1933A,107.1431,34.3547,宝鸡市,监测站,细颗粒物(PM2.5),69,82,79,50,29,171,90,154,151,42,20,5,6,0.6,0.5
2022-05-30T20:00:00,1934A,107.1186,34.3739,宝鸡市,技工学校,颗粒物(PM10),64,78,72,29,24,175,142,157,157,32,17,6,6,0.5,0.3
2022-05-30T20:00:00,1935A,107.3906,34.3528,宝鸡市,陈仓区环保局家属楼,颗粒物(PM10),69,87,89,32,32,170,100,147,146,58,30,9,12,0.4,0.3
2022-05-30T20:00:00,1936A,107.2058,34.3497,宝鸡市,文理学院,颗粒物(PM10),65,80,76,20,29,179,127,160,160,37,23,8,9,0.4,0.4
2022-05-30T20:00:00,1937A,107.2386,34.3622,宝鸡市,三迪小学,颗粒物(PM10),70,90,79,25,28,167,131,155,155,40,27,8,10,0.4,0.3
2022-05-30T20:00:00,1938A,109.5293,34.5101,渭南市,农科所(对照点),,50,27,110,9,42,154,36,146,134,99,25,11,11,0.4,0.4
2022-05-30T20:00:00,1939A,109.4974,34.4877,渭南市,日报社,,48,48,114,7,34,151,88,142,136,53,29,15,8,0.4,0.4
2022-05-30T20:00:00,1940A,109.4636,34.493,渭南市,体育馆,,44,36,109,5,32,166,62,155,146,88,30,11,9,0.5,0.4
2022-05-30T20:00:00,1941A,109.4259,34.5023,渭南市,高新一小,颗粒物(PM10),53,56,112,9,30,155,118,146,144,34,24,7,7,0.4,0.4
2022-05-30T20:00:00,1943A,102.1725,38.5339,金昌市,新川苑,,38,28,43,8,7,131,121,126,126,14,14,10,18,0.4,0.5
2022-05-30T20:00:00,1944A,102.1692,38.5167,金昌市,天庆家园,,42,15,39,6,10,136,132,131,131,9,12,7,42,0.3,0.4
2022-05-30T20:00:00,1945A,98.2908,39.7711,嘉峪关市,气象局,,42,41,61,9,18,137,132,134,134,6,20,5,7,0.5,0.6
2022-05-30T20:00:00,1947A,106.3394,38.817,石嘴山市,沙湖旅游区(对照点),,43,36,46,15,21,149,137,142,142,9,16,29,28,0.2,0.4
2022-05-30T20:00:00,1948A,106.3668,39.0145,石嘴山市,大武口朝阳西街,,41,35,33,14,29,148,129,138,138,21,21,8,15,0.3,0.6
2022-05-30T20:00:00,1949A,106.7704,39.2282,石嘴山市,惠农南大街,颗粒物(PM10),51,52,44,22,22,147,138,141,141,16,21,13,13,0.6,0.7
2022-05-30T20:00:00,1950A,106.7099,39.1325,石嘴山市,红果子镇惠新街,颗粒物(PM10),59,67,54,11,13,128,111,119,119,21,26,13,18,0.3,0.5
2022-05-30T20:00:00,1951A,84.895,45.6094,克拉玛依市,长征新村,颗粒物(PM10),60,69,32,10,5,120,108,109,109,11,6,6,5,0.2,0.2
2022-05-30T20:00:00,1952A,84.8988,45.5893,克拉玛依市,南林小区,颗粒物(PM10),57,64,35,17,12,124,91,111,111,26,9,9,8,0.5,0.3
2022-05-30T20:00:00,1954A,84.905,44.3396,克拉玛依市,独山子区,,30,24,66,4,14,95,94,94,94,4,4,5,6,0.6,0.6
2022-05-30T20:00:00,1955A,85.6979,46.098,克拉玛依市,乌尔禾区商贸楼,颗粒物(PM10),51,51,35,14,8,92,87,89,89,1,2,9,8,0.2,0.1
2022-05-30T20:00:00,1956A,86.1472,41.7538,巴音郭楞州,孔雀公园,颗粒物(PM10),63,75,70,18,17,120,111,118,117,12,9,2,2,0.3,0.3
2022-05-30T20:00:00,1957A,86.1972,41.7166,巴音郭楞州,棉纺厂,颗粒物(PM10),51,51,50,30,25,114,111,111,111,9,9,4,4,0.2,0.3
2022-05-30T20:00:00,1958A,86.2357,41.7173,巴音郭楞州,经济开发区,颗粒物(PM10),56,61,72,22,17,124,118,119,119,6,7,1,2,0.3,0.4
2022-05-30T20:00:00,1961A,117.532,36.6868,济南市,东山小学,,34,34,41,5,7,148,106,138,136,27,23,8,13,0.4,0.4
2022-05-30T20:00:00,1966A,120.0405,35.8735,青岛市,黄岛区4号,,41,39,27,5,6,147,130,134,134,12,10,7,6,0.3,0.4
2022-05-30T20:00:00,1982A,122.0693,37.2174,威海市,文登开发区,,31,24,18,5,5,114,97,107,93,15,10,4,4,0.1,0.1
2022-05-30T20:00:00,2031A,113.1817,27.9958,株洲市,云田中学,,29,29,14,16,14,59,40,56,48,19,10,12,9,1.0,0.7
2022-05-30T20:00:00,2054A,114.1099,32.1059,信阳市,平桥分局,,41,38,49,16,25,168,130,156,154,13,12,5,6,0.3,0.4
2022-05-30T20:00:00,2064A,113.9956,32.1271,信阳市,南湾水厂,,47,47,55,20,25,179,143,160,160,9,10,4,7,0.4,0.5
2022-05-30T20:00:00,2065A,114.0775,32.1195,信阳市,市酿酒公司,,44,38,59,18,23,172,140,162,160,8,9,6,8,0.4,0.6
2022-05-30T20:00:00,2066A,114.0609,32.1399,信阳市,审计局,,46,41,60,17,24,180,145,165,164,8,9,6,6,0.8,0.8
2022-05-30T20:00:00,2067A,114.6613,33.6128,周口市,市环境监测站,,49,48,68,17,17,176,154,163,163,22,12,6,8,0.5,0.5
2022-05-30T20:00:00,2068A,114.6758,33.6347,周口市,周口师范,颗粒物(PM10),62,74,67,8,14,171,149,158,158,22,14,5,6,0.3,0.4
2022-05-30T20:00:00,2069A,114.6546,33.5979,周口市,市运管处,,50,50,70,6,13,172,147,160,160,44,18,8,9,0.2,0.4
2022-05-30T20:00:00,2070A,114.6369,33.6406,周口市,川汇区环保局,颗粒物(PM10),62,74,68,15,17,180,153,167,167,23,15,5,7,0.3,0.7
2022-05-30T20:00:00,2075A,117.6336,24.4674,漳州市,九湖(对照点),,25,25,25,11,9,82,38,64,55,8,5,5,5,0.4,0.4
2022-05-30T20:00:00,2160A,112.85,35.5051,晋城市,自来水公司,,41,31,45,5,11,167,131,155,152,18,21,8,12,0.4,0.6
2022-05-30T20:00:00,2161A,112.8318,35.4936,晋城市,白云商贸,,45,39,42,2,11,174,142,162,161,9,14,5,10,0.2,0.3
2022-05-30T20:00:00,2162A,112.8508,35.4887,晋城市,市环保局,颗粒物(PM10),58,65,59,5,14,167,130,154,152,16,19,8,12,0.4,0.6
2022-05-30T20:00:00,2163A,112.8676,35.4897,晋城市,技术学院,,,45,55,0,11,162,129,153,150,19,21,,8,0.5,0.5
2022-05-30T20:00:00,2165A,112.8453,35.546,晋城市,白马寺 (对照点),,47,32,59,0,8,189,148,177,175,24,16,5,10,0.6,0.7
2022-05-30T20:00:00,2166A,112.4397,39.3522,朔州市,平朔,颗粒物(PM10),53,56,59,13,16,139,121,129,129,8,18,6,9,0.2,0.2
2022-05-30T20:00:00,2167A,112.4575,39.3617,朔州市,朔唯,,,68,73,,37,140,117,130,130,13,26,2,7,0.5,0.5
2022-05-30T20:00:00,2168A,112.4258,39.3197,朔州市,区政府,颗粒物(PM10),61,72,53,9,8,146,126,135,135,14,16,7,8,0.4,0.4
2022-05-30T20:00:00,2169A,112.4072,39.3278,朔州市,市环保局,颗粒物(PM10),70,90,68,22,15,132,113,124,122,13,17,2,8,0.3,0.4
2022-05-30T20:00:00,2170A,112.4272,39.3681,朔州市,市二中,颗粒物(PM10),58,66,63,15,18,136,112,126,126,13,22,7,11,0.4,0.5
2022-05-30T20:00:00,2171A,112.7532,37.6945,晋中市,锦纶小区,颗粒物(PM10),55,59,48,13,14,140,119,132,132,20,26,5,6,0.4,0.3
2022-05-30T20:00:00,2173A,112.7249,37.7067,晋中市,南都小区,颗粒物(PM10),63,75,54,14,14,142,122,132,132,17,25,4,7,0.2,0.2
2022-05-30T20:00:00,2174A,112.6991,37.6982,晋中市,榆次区政府,,48,48,50,21,21,143,125,132,132,13,25,5,6,0.5,0.5
2022-05-30T20:00:00,2175A,110.9956,35.0147,运城市,运城中学,,40,40,64,12,18,152,128,147,145,15,16,7,13,0.3,0.4
2022-05-30T20:00:00,2178A,110.9686,35.0303,运城市,地区技校,,36,34,59,4,13,149,115,140,137,16,17,5,17,0.4,0.5
2022-05-30T20:00:00,2179A,111.0414,35.1147,运城市,空港新区,颗粒物(PM10),51,52,72,13,17,148,119,140,138,21,20,17,16,0.4,0.6
2022-05-30T20:00:00,2181A,112.7383,38.4519,忻州市,开发区,,,61,33,8,6,136,89,128,125,22,16,9,11,,0.3
2022-05-30T20:00:00,2182A,112.7003,38.4928,忻州市,会展中心,颗粒物(PM10),52,54,30,4,5,130,100,121,120,24,17,8,8,0.4,0.3
2022-05-30T20:00:00,2183A,111.1406,37.5211,吕梁市,环保局,,42,42,60,10,15,135,104,120,120,24,39,4,6,0.2,0.4
2022-05-30T20:00:00,2185A,111.1297,37.5136,吕梁市,自来水公司,,40,40,72,7,12,129,98,116,116,24,32,6,10,0.3,0.3
2022-05-30T20:00:00,2187A,106.8174,39.6973,乌海市,市林业局,,45,45,72,13,21,126,121,124,124,6,30,5,34,0.5,0.9
2022-05-30T20:00:00,2188A,106.7907,39.6667,乌海市,中海勃湾学校,,41,41,44,12,17,126,121,124,124,7,26,8,22,0.3,0.7
2022-05-30T20:00:00,2191A,122.2532,43.6801,通辽市,艺术职业学校,,34,34,28,7,10,80,58,77,72,17,13,5,5,0.2,0.2
2022-05-30T20:00:00,2192A,119.7594,49.2261,呼伦贝尔市,区环保局,,30,27,21,21,18,71,63,68,68,6,6,3,4,0.3,0.3
2022-05-30T20:00:00,2195A,107.4212,40.761,巴彦淖尔市,附二中,颗粒物(PM10),62,74,40,17,14,128,111,120,120,17,11,14,5,0.4,0.3
2022-05-30T20:00:00,2196A,107.37,40.7372,巴彦淖尔市,市环保大楼,颗粒物(PM10),66,81,45,23,17,121,100,118,116,12,12,6,5,0.5,0.5
2022-05-30T20:00:00,2197A,113.1306,40.9923,乌兰察布市,集宁新区,,34,25,22,11,12,110,108,107,107,3,4,9,8,0.3,0.3
2022-05-30T20:00:00,2200A,122.0392,46.0656,兴安盟,胜华新制药厂,,21,21,20,11,13,68,54,64,58,7,6,2,3,0.1,0.1
2022-05-30T20:00:00,2201A,121.9504,46.0741,兴安盟,科右前旗环保局,,20,16,14,14,13,68,55,64,59,10,8,3,3,0.2,0.2
2022-05-30T20:00:00,2202A,116.1042,43.9317,锡林郭勒盟,市环保监测站,颗粒物(PM10),55,59,17,2,2,76,64,71,71,21,12,9,10,0.6,0.5
2022-05-30T20:00:00,2203A,116.0781,43.9311,锡林郭勒盟,市政府,,28,28,17,3,4,78,60,74,73,24,13,8,8,0.5,0.5
2022-05-30T20:00:00,2204A,105.6467,38.8363,阿拉善盟,西城区西花园(对照点),,40,24,21,8,11,129,125,126,126,7,8,12,11,0.3,0.3
2022-05-30T20:00:00,2205A,105.6985,38.8411,阿拉善盟,蒙二幼,,40,24,18,15,12,130,127,127,127,9,6,7,7,0.4,0.3
2022-05-30T20:00:00,2206A,105.724,38.8516,阿拉善盟,环保局新楼,,35,22,22,8,13,120,112,115,115,7,6,7,7,0.4,0.4
2022-05-30T20:00:00,2207A,121.6094,41.998,阜新市,工业园区,,26,26,34,13,24,95,57,89,83,22,15,7,14,0.3,0.6
2022-05-30T20:00:00,2208A,121.6697,42.0279,阜新市,长青街,,17,12,30,6,17,88,52,82,77,17,14,8,21,0.5,0.7
2022-05-30T20:00:00,2209A,121.6673,42.0705,阜新市,农业园区,,20,19,27,3,17,92,61,85,83,11,13,6,10,0.4,0.5
2022-05-30T20:00:00,2210A,121.6717,42.0224,阜新市,东苑,颗粒物(PM10),51,51,48,4,24,101,63,91,86,24,20,8,21,0.2,0.4
2022-05-30T20:00:00,2211A,121.6506,42.0498,阜新市,玉龙新城,,41,41,35,6,12,90,44,83,77,29,13,8,12,0.3,0.4
2022-05-30T20:00:00,2212A,123.2,41.1953,辽阳市,宏伟区,,23,18,31,6,13,106,73,90,90,13,19,8,12,0.5,1.1
2022-05-30T20:00:00,2213A,123.1683,41.2495,辽阳市,新华园,,22,22,32,13,18,104,69,92,89,27,21,8,10,0.4,0.6
2022-05-30T20:00:00,2214A,123.2354,41.2639,辽阳市,滨河路,,23,19,30,14,25,102,73,89,87,17,17,7,11,0.5,1
2022-05-30T20:00:00,2215A,123.149,41.2991,辽阳市,铁西工业园,,38,38,33,16,21,105,56,90,85,36,20,9,12,0.6,0.7
2022-05-30T20:00:00,2216A,123.8139,42.3022,铁岭市,汇工街西,,29,29,21,10,9,111,82,101,99,25,19,7,7,0.6,0.4
2022-05-30T20:00:00,2217A,123.8649,42.2923,铁岭市,水上乐园,,28,28,20,12,14,102,66,93,90,41,20,5,5,0.3,0.3
2022-05-30T20:00:00,2218A,123.8486,42.2867,铁岭市,银州路东段,,25,22,23,14,8,94,77,90,89,26,20,6,6,0.5,0.4
2022-05-30T20:00:00,2219A,123.7153,42.2217,铁岭市,金沙江路北,,,31,19,6,9,102,69,91,88,34,20,10,9,,0.6
2022-05-30T20:00:00,2220A,120.4318,41.5881,朝阳市,西梁,,45,45,34,14,12,87,40,81,72,35,20,8,8,0.7,0.7
2022-05-30T20:00:00,2221A,120.4521,41.5646,朝阳市,河畔小区,,38,38,27,9,10,89,55,82,77,16,15,10,9,0.5,0.6
2022-05-30T20:00:00,2222A,120.4176,41.5648,朝阳市,八里堡,颗粒物(PM10),54,58,32,20,11,92,44,84,77,33,19,9,9,0.6,0.6
2022-05-30T20:00:00,2223A,120.3806,41.5969,朝阳市,农业园区,,50,50,26,21,8,89,18,83,72,45,16,8,8,0.8,0.8
2022-05-30T20:00:00,2225A,124.4002,43.1713,四平市,一商场,,31,31,19,15,12,93,74,88,86,22,9,8,7,0.3,0.2
2022-05-30T20:00:00,2226A,124.388,43.193,四平市,境园,,26,20,16,5,5,90,81,86,86,13,6,3,3,0.3,0.2
2022-05-30T20:00:00,2227A,125.1358,42.8845,辽源市,环保局,,27,19,15,12,12,102,84,94,94,8,5,6,4,0.4,0.4
2022-05-30T20:00:00,2229A,125.9358,41.7173,通化市,光明,,25,23,8,8,4,132,80,105,83,8,7,8,8,0.5,0.5
2022-05-30T20:00:00,2230A,125.9446,41.7325,通化市,铁路,,26,14,9,0,3,124,83,96,81,11,7,7,6,0.5,0.5
2022-05-30T20:00:00,2231A,126.4219,41.9171,白山市,喜丰,,29,29,26,8,9,155,33,94,68,20,11,10,10,0.8,0.7
2022-05-30T20:00:00,2232A,126.4077,41.9419,白山市,环保局,,20,20,24,6,9,153,47,102,70,17,13,7,8,0.5,0.5
2022-05-30T20:00:00,2233A,124.8006,45.1214,松原市,江南,,24,6,6,3,8,89,75,84,83,9,7,3,2,0.3,0.3
2022-05-30T20:00:00,2234A,124.7965,45.1722,松原市,江北,,23,8,8,16,6,85,56,80,77,14,7,1,2,0.5,0.4
2022-05-30T20:00:00,2235A,122.7911,45.6077,白城市,洮北区环保局,,,,16,,1,78,41,70,65,17,10,6,6,0.2,0.2
2022-05-30T20:00:00,2236A,122.8738,45.5725,白城市,市环保局,,44,44,23,20,15,126,126,96,96,27,17,5,8,0.3,0.3
2022-05-30T20:00:00,2237A,129.47,42.8883,延边朝鲜族自治州,妇幼医院,,21,5,9,5,1,79,66,71,65,9,8,6,6,0.6,0.5
2022-05-30T20:00:00,2238A,129.5055,42.9108,延边朝鲜族自治州,延边医院,,22,7,9,6,3,71,70,70,66,6,6,8,8,0.5,0.4
2022-05-30T20:00:00,2239A,129.3964,42.8881,延边朝鲜族自治州,朝阳川镇医院,,21,11,7,5,2,82,66,73,66,9,7,4,4,0.4,0.4
2022-05-30T20:00:00,2240A,130.9762,45.3001,鸡西市,环保局,,26,22,23,8,9,93,81,93,69,20,21,2,3,0.3,0.3
2022-05-30T20:00:00,2243A,130.9429,45.3039,鸡西市,第一中学,,29,10,24,8,8,107,92,107,68,12,18,6,6,0.2,0.3
2022-05-30T20:00:00,2244A,130.2537,47.3416,鹤岗市,哈啤分公司,,24,16,19,9,8,74,74,70,66,9,11,6,7,0.4,0.5
2022-05-30T20:00:00,2245A,130.2684,47.3086,鹤岗市,斯达机电,,22,14,14,6,10,81,70,74,66,6,8,6,7,0.3,0.3
2022-05-30T20:00:00,2246A,130.3114,47.3388,鹤岗市,东山纸板厂,,21,14,16,9,9,79,65,70,66,8,11,7,9,0.4,0.4
2022-05-30T20:00:00,2247A,130.1097,47.3382,鹤岗市,五号水库(对照点),,20,13,12,6,5,76,64,69,60,10,8,7,7,0.3,0.2
2022-05-30T20:00:00,2248A,131.1511,46.6937,双鸭山市,双合村,,19,19,20,10,10,103,28,102,45,19,12,5,7,0.3,0.3
2022-05-30T20:00:00,2249A,131.1652,46.6191,双鸭山市,南小市,,23,22,29,16,13,105,33,105,48,19,8,4,4,0.1,0.2
2022-05-30T20:00:00,2250A,131.1524,46.6554,双鸭山市,环保局,,23,23,23,10,12,107,30,107,41,16,10,3,3,0.4,0.3
2022-05-30T20:00:00,2251A,131.12,46.5656,双鸭山市,苗圃(对照点),,30,20,20,21,19,114,35,112,52,8,4,2,2,0.4,0.3
2022-05-30T20:00:00,2252A,128.5159,47.4311,伊春市,环保局,,19,10,10,8,7,83,60,83,57,6,4,4,5,0.2,0.3
2022-05-30T20:00:00,2253A,128.9102,47.7412,伊春市,电力嘉园,,39,30,21,27,13,90,72,90,67,5,7,5,6,0.4,0.5
2022-05-30T20:00:00,2254A,129.5029,48.471,伊春市,汤旺河国家公园(对照点),,13,9,7,9,4,93,32,90,61,4,4,6,6,0.2,0.3
2022-05-30T20:00:00,2255A,130.2751,46.8028,佳木斯市,佳纺,,18,7,10,12,13,94,47,94,52,16,11,2,2,0.4,0.4
2022-05-30T20:00:00,2256A,130.3995,46.8307,佳木斯市,发电厂,,19,11,19,13,14,106,48,104,55,14,11,6,6,0.4,0.4
2022-05-30T20:00:00,2257A,130.3258,46.7975,佳木斯市,环保局,,20,14,20,14,21,104,54,104,54,12,12,3,2,0.4,0.4
2022-05-30T20:00:00,2258A,130.3648,46.8032,佳木斯市,十一中,,25,20,24,17,15,101,42,99,46,18,19,6,6,0.5,0.5
2022-05-30T20:00:00,2259A,130.3794,46.7588,佳木斯市,四丰(对照点),,19,12,14,11,13,106,60,106,64,5,6,5,6,0.5,0.5
2022-05-30T20:00:00,2262A,131.0518,45.8751,七台河市,新一中(对照点),,31,14,14,10,8,99,99,92,80,13,10,8,8,0.7,0.8
2022-05-30T20:00:00,2263A,127.4833,50.2524,黑河市,交通局,,18,13,9,8,8,70,56,61,60,7,6,2,4,0.5,0.5
2022-05-30T20:00:00,2264A,127.5144,50.2341,黑河市,环保局,,20,14,15,9,9,80,64,74,70,6,5,5,5,0.4,0.3
2022-05-30T20:00:00,2265A,127.5291,50.2472,黑河市,大黑河岛(对照点),,20,9,8,13,4,74,64,69,69,3,2,7,8,0.4,0.4
2022-05-30T20:00:00,2266A,126.9785,46.6365,绥化市,人和东街,,22,14,10,5,6,78,68,74,71,9,8,6,7,0.4,0.3
2022-05-30T20:00:00,2267A,126.964,46.6528,绥化市,党政办公中心,,22,8,8,4,7,76,70,72,71,6,8,6,6,0.2,0.2
2022-05-30T20:00:00,2269A,124.1069,50.4097,大兴安岭地区,科技局,,15,8,9,9,8,60,45,56,55,6,3,4,4,0.3,0.3
2022-05-30T20:00:00,2270A,117.396,32.939,蚌埠市,工人疗养院,,50,50,49,17,16,160,143,148,148,12,16,6,9,0.2,0.3
2022-05-30T20:00:00,2271A,117.3605,32.9427,蚌埠市,百货大楼,颗粒物(PM10),62,73,58,3,10,163,147,150,150,14,19,7,10,0.4,0.5
2022-05-30T20:00:00,2273A,117.4185,32.8911,蚌埠市,蚌埠学院,颗粒物(PM10),52,53,56,9,14,164,134,146,146,15,20,8,12,0.3,0.3
2022-05-30T20:00:00,2274A,117.3533,32.9673,蚌埠市,淮上区政府,颗粒物(PM10),52,53,58,9,13,158,141,145,145,12,18,9,13,0.3,0.4
2022-05-30T20:00:00,2275A,117.3145,32.8977,蚌埠市,高新区,颗粒物(PM10),56,61,59,12,18,166,141,151,151,17,25,8,10,0.4,0.5
2022-05-30T20:00:00,2277A,116.8305,32.7727,淮南市,潘集区政府,,40,40,51,12,19,159,124,137,137,18,18,6,7,0.3,0.3
2022-05-30T20:00:00,2278A,117.0067,32.6524,淮南市,师范学院,,41,26,49,8,22,148,129,132,132,16,20,6,10,0.3,0.4
2022-05-30T20:00:00,2279A,116.8569,32.5951,淮南市,谢家集区政府,,35,34,39,2,13,141,109,124,124,23,18,4,5,0.2,0.3
2022-05-30T20:00:00,2280A,116.8281,32.633,淮南市,八公山区政府,,33,33,38,11,16,142,100,124,124,30,12,8,5,0.2,0.3
2022-05-30T20:00:00,2281A,116.6325,32.6201,淮南市,焦岗湖风景区管理处(对照点),,37,29,41,14,16,144,118,128,128,14,20,9,10,0.2,0.3
2022-05-30T20:00:00,2282A,116.8004,33.975,淮北市,监测站,,42,38,57,14,16,152,132,148,146,17,15,4,5,0.4,0.4
2022-05-30T20:00:00,2283A,116.8091,33.9007,淮北市,烈山区政府,,48,46,58,17,13,174,151,163,163,13,13,12,10,0.3,0.4
2022-05-30T20:00:00,2284A,116.7856,33.9477,淮北市,职业技术学院,颗粒物(PM10),62,74,61,13,13,153,144,148,148,10,11,7,7,0.3,0.4
2022-05-30T20:00:00,2285A,117.8177,30.9412,铜陵市,市第四中学,,42,42,21,19,12,107,88,94,94,22,23,7,14,0.4,1
2022-05-30T20:00:00,2286A,117.8059,30.9273,铜陵市,市公路局,颗粒物(PM10),51,52,35,14,12,134,76,117,114,45,17,5,8,0.7,0.9
2022-05-30T20:00:00,2287A,117.7807,30.9413,铜陵市,市新民污水厂,颗粒物(PM10),57,64,40,30,21,130,93,114,112,26,23,9,17,0.6,0.5
2022-05-30T20:00:00,2288A,117.7439,30.8792,铜陵市,市第九中学,颗粒物(PM10),51,51,38,25,12,125,98,101,101,25,35,6,7,0.7,0.7
2022-05-30T20:00:00,2289A,117.846,30.9413,铜陵市,车站新区,颗粒物(PM10),53,55,37,20,16,140,105,125,124,20,18,8,11,1.0,1
2022-05-30T20:00:00,2290A,117.8483,30.97,铜陵市,市职教基地,,40,40,27,18,10,131,99,118,117,16,15,7,9,1.2,1.1
2022-05-30T20:00:00,2291A,117.0809,30.5177,安庆市,环科院,,36,26,24,23,15,150,113,126,126,7,16,5,6,0.6,0.7
2022-05-30T20:00:00,2292A,117.0331,30.5119,安庆市,马山宾馆,,35,31,23,24,17,151,109,126,126,6,19,6,7,0.5,0.7
2022-05-30T20:00:00,2294A,116.9896,30.6145,安庆市,安庆大学,,40,40,29,20,16,140,102,118,118,7,12,4,4,0.4,0.6
2022-05-30T20:00:00,2295A,118.2903,29.6963,黄山市,延安路89号,,33,0,17,1,7,114,104,84,84,5,4,6,6,0.6,0.4
2022-05-30T20:00:00,2296A,118.327,29.7178,黄山市,黄山东路89号,,30,22,11,16,7,115,93,88,88,6,6,6,5,0.7,0.6
2022-05-30T20:00:00,2297A,118.1371,30.2756,黄山市,黄山区政府5号楼,,28,19,13,5,6,138,88,114,114,7,4,6,6,0.6,0.5
2022-05-30T20:00:00,2298A,118.3093,32.3153,滁州市,老年大学,颗粒物(PM10),52,54,36,15,15,143,85,119,116,50,22,8,10,0.3,0.4
2022-05-30T20:00:00,2299A,118.3244,32.2786,滁州市,人大宾馆,,34,32,32,14,13,134,107,114,114,29,19,5,6,0.4,0.5
2022-05-30T20:00:00,2301A,115.8277,32.8929,阜阳市,市监测站,颗粒物(PM10),55,60,40,18,18,168,136,149,149,16,12,10,9,0.5,0.5
2022-05-30T20:00:00,2303A,115.8554,32.8605,阜阳市,开发区,颗粒物(PM10),51,51,47,12,13,162,133,142,142,15,15,6,6,0.5,0.5
2022-05-30T20:00:00,2307A,116.5079,31.737,六安市,监测大楼,,35,27,30,14,10,136,110,116,116,15,12,5,6,0.4,0.4
2022-05-30T20:00:00,2308A,116.4738,31.7643,六安市,皖西学院,,39,37,34,16,17,143,122,124,124,11,17,7,8,0.5,0.5
2022-05-30T20:00:00,2309A,116.4996,31.7905,六安市,朝阳厂,,35,31,48,17,22,131,109,114,114,9,15,6,7,0.4,0.5
2022-05-30T20:00:00,2310A,116.5567,31.7886,六安市,开发区,,48,48,44,16,19,139,111,120,120,8,16,5,6,0.4,0.4
2022-05-30T20:00:00,2311A,115.8072,33.8399,亳州市,污水处理厂,,46,42,46,11,18,178,147,163,163,15,9,7,9,0.1,0.2
2022-05-30T20:00:00,2312A,115.7789,33.8518,亳州市,三国揽胜宫,,48,48,53,11,17,166,149,155,155,10,8,5,6,0.4,0.5
2022-05-30T20:00:00,2314A,117.47,30.6618,池州市,池州学院,,50,48,26,35,14,136,98,128,122,12,8,6,14,0.4,0.6
2022-05-30T20:00:00,2316A,118.7581,30.9454,宣城市,鳌峰子站,,43,39,25,30,14,116,99,109,109,12,16,4,5,0.6,0.6
2022-05-30T20:00:00,2317A,118.7385,30.9743,宣城市,敬亭山子站,,46,46,20,32,12,120,70,108,103,17,21,4,5,0.6,0.6
2022-05-30T20:00:00,2318A,118.7173,30.9427,宣城市,开发区子站,,40,39,19,28,10,122,95,115,113,16,16,4,4,0.6,0.6
2022-05-30T20:00:00,2319A,119.0141,25.4325,莆田市,荔城区仓后路,,38,38,36,8,12,108,23,84,73,18,15,5,5,0.5,0.6
2022-05-30T20:00:00,2320A,119.0015,25.4553,莆田市,莆田市监测站,,38,38,35,14,13,138,35,100,93,18,9,5,4,0.8,0.7
2022-05-30T20:00:00,2321A,119.1119,25.4561,莆田市,涵江区六中,,31,31,35,12,17,122,27,94,82,17,14,4,6,0.6,0.6
2022-05-30T20:00:00,2322A,119.1013,25.3215,莆田市,秀屿区政府,,12,8,23,8,11,103,36,78,66,9,12,6,6,0.5,0.5
2022-05-30T20:00:00,2323A,118.981,25.4792,莆田市,东圳水库(对照点),,35,35,29,13,14,119,37,119,84,16,9,6,6,0.6,0.6
2022-05-30T20:00:00,2324A,117.6211,26.2625,三明市,三钢,,22,22,34,14,17,90,46,73,68,10,16,2,11,0.4,0.7
2022-05-30T20:00:00,2325A,117.635,26.2714,三明市,三明二中,,16,14,25,11,11,91,45,73,67,9,12,3,6,0.5,0.7
2022-05-30T20:00:00,2326A,117.6028,26.2378,三明市,三元区政府,,30,30,28,12,15,91,44,79,71,16,13,15,7,1.1,0.7
2022-05-30T20:00:00,2327A,117.7275,26.3108,三明市,洋溪(对照点),,,20,27,15,10,92,47,82,76,,9,5,7,0.4,0.7
2022-05-30T20:00:00,2331A,118.0966,26.6761,南平市,茫荡山(对照点),,18,2,9,5,8,65,57,59,58,1,2,4,5,1.0,1
2022-05-30T20:00:00,2332A,118.1681,26.6369,南平市,南平市监测站,,22,3,20,5,13,96,69,77,74,4,10,4,6,0.4,0.6
2022-05-30T20:00:00,2333A,118.1825,26.6489,南平市,南平铝业有限公司,,24,4,23,5,12,97,75,79,78,3,7,4,6,0.5,0.6
2022-05-30T20:00:00,2334A,118.1756,26.6272,南平市,南平七中,,21,4,23,9,14,96,67,77,75,4,7,9,3,0.3,0.4
2022-05-30T20:00:00,2335A,117.0189,25.1181,龙岩市,龙岩师专(对照点),,20,18,25,14,10,59,15,51,45,24,12,10,8,0.8,0.6
2022-05-30T20:00:00,2336A,117.0217,25.1033,龙岩市,龙岩市监测站,,20,20,22,9,7,58,22,52,47,24,14,7,6,0.8,0.6
2022-05-30T20:00:00,2337A,117.0258,25.0661,龙岩市,闽西职业技术学院,,23,23,24,9,10,50,10,47,40,21,12,5,11,0.5,0.5
2022-05-30T20:00:00,2338A,117.0196,25.0306,龙岩市,龙岩学院,,15,15,14,5,5,49,25,45,39,5,6,3,3,0.4,0.4
2022-05-30T20:00:00,2339A,119.5001,26.6946,宁德市,金涵水库(对照点),,14,14,29,1,6,94,23,72,67,16,10,7,7,0.6,0.6
2022-05-30T20:00:00,2341A,119.5388,26.6612,宁德市,宁德市监测站,,15,3,37,2,14,112,46,85,82,9,17,5,6,0.4,0.8
2022-05-30T20:00:00,2342A,117.3102,29.3867,景德镇市,王港中学(对照点),,25,25,18,14,13,83,35,63,61,3,3,4,4,0.3,0.4
2022-05-30T20:00:00,2343A,117.2117,29.2933,景德镇市,老干部活动中心,颗粒物(PM10),57,63,45,33,26,91,47,73,73,29,18,17,6,1.0,0.8
2022-05-30T20:00:00,2344A,117.1894,29.2789,景德镇市,兽医站,细颗粒物(PM2.5),52,44,37,36,24,89,54,75,75,20,17,4,4,1.1,1
2022-05-30T20:00:00,2345A,117.1547,29.2617,景德镇市,台达陶瓷,细颗粒物(PM2.5),62,66,43,44,24,110,66,86,86,17,22,21,16,0.7,0.8
2022-05-30T20:00:00,2346A,117.2461,29.2956,景德镇市,陶研所,,28,28,31,11,17,80,38,64,64,6,13,5,4,0.5,0.5
2022-05-30T20:00:00,2347A,114.0997,27.5002,萍乡市,武功山(对照点),,,4,4,2,3,60,27,47,43,4,6,,,0.2,0.2
2022-05-30T20:00:00,2348A,113.8385,27.6434,萍乡市,中医院,,22,12,17,15,16,67,46,56,55,13,15,13,7,0.9,1
2022-05-30T20:00:00,2349A,113.8493,27.6253,萍乡市,市政府车库,,25,25,26,2,6,54,35,50,48,18,16,13,7,0.8,0.9
2022-05-30T20:00:00,2350A,113.8676,27.6435,萍乡市,市环保局,,19,19,20,13,14,65,48,60,57,19,18,16,8,0.6,0.7
2022-05-30T20:00:00,2351A,113.866,27.6198,萍乡市,安源区政府,,21,21,18,9,6,55,39,51,49,11,13,12,11,0.4,0.4
2022-05-30T20:00:00,2352A,115.0861,27.9317,新余市,北岗(对照点),,14,11,19,6,12,78,42,58,56,2,2,5,12,0.4,0.8
2022-05-30T20:00:00,2353A,114.9886,27.8431,新余市,飞宇,,20,20,34,8,15,73,41,59,57,12,20,4,7,0.5,0.7
2022-05-30T20:00:00,2354A,114.9231,27.8246,新余市,第二水厂,,17,17,33,8,13,65,39,52,52,17,23,5,8,1.0,1.2
2022-05-30T20:00:00,2355A,114.9308,27.8036,新余市,市气象局,,20,20,32,11,19,67,34,49,47,12,23,6,11,0.6,1
2022-05-30T20:00:00,2357A,116.9822,28.1136,鹰潭市,龙虎山(对照点),,,,26,6,12,66,49,54,52,2,4,1,3,0.4,0.4
2022-05-30T20:00:00,2358A,117.0564,28.2642,鹰潭市,新监测站,,26,9,27,7,14,87,83,76,76,2,12,1,18,0.4,0.5
2022-05-30T20:00:00,2359A,117.0311,28.2475,鹰潭市,财苑宾馆,,,,32,2,7,81,81,70,70,2,12,1,7,0.2,0.5
2022-05-30T20:00:00,2360A,117.0222,28.2264,鹰潭市,体育馆,,25,11,35,5,18,80,80,71,71,2,13,7,27,0.6,0.9
2022-05-30T20:00:00,2361A,117.0017,28.2131,鹰潭市,三川水表,,24,4,33,2,18,75,74,67,67,6,15,5,22,0.1,0.6
2022-05-30T20:00:00,2362A,114.9017,25.9149,赣州市,通天岩(对照点),,15,5,23,2,10,90,48,79,67,7,19,5,6,0.4,0.4
2022-05-30T20:00:00,2363A,114.9367,25.8664,赣州市,地委,,14,12,24,2,10,87,42,73,65,15,10,6,11,0.6,0.6
2022-05-30T20:00:00,2364A,114.9461,25.8481,赣州市,气象台,,24,24,23,9,12,95,49,81,73,15,8,5,9,0.5,0.4
2022-05-30T20:00:00,2365A,114.9322,25.8333,赣州市,市图书馆,,17,9,23,4,12,86,54,76,71,16,13,6,16,0.8,0.7
2022-05-30T20:00:00,2366A,114.8905,25.8471,赣州市,华坚鞋城,,22,22,23,11,11,92,49,76,67,23,13,3,5,0.6,0.6
2022-05-30T20:00:00,2367A,114.9754,27.0803,吉安市,红声器材厂,,24,24,36,12,16,58,47,53,53,16,11,4,9,0.4,0.4
2022-05-30T20:00:00,2368A,114.9658,27.0999,吉安市,市森林工业局,,22,22,33,14,20,62,55,59,59,14,15,3,4,0.5,0.5
2022-05-30T20:00:00,2369A,114.99,27.1312,吉安市,市环境监测站,,28,25,36,19,18,67,49,60,60,17,12,5,10,0.8,0.7
2022-05-30T20:00:00,2370A,115.0093,27.0968,吉安市,青原区法院,,23,23,33,14,17,63,50,57,57,16,12,7,8,0.4,0.4
2022-05-30T20:00:00,2371A,114.3408,27.8064,宜春市,槟榔水业(对照点),,19,18,32,13,17,78,52,64,62,8,15,4,7,0.9,0.8
2022-05-30T20:00:00,2373A,114.3956,27.7844,宜春市,市石油公司,,24,24,32,12,16,68,39,57,54,20,17,9,7,1.4,1
2022-05-30T20:00:00,2374A,114.3703,27.7914,宜春市,市气象局,,36,36,33,15,16,76,41,64,58,20,16,12,7,1.3,0.9
2022-05-30T20:00:00,2375A,114.4013,27.8074,宜春市,市广电局,,,,40,,22,75,47,63,60,18,21,4,4,,0.6
2022-05-30T20:00:00,2376A,116.2127,28.0814,抚州市,桐源党溪(对照点),,20,20,27,10,14,79,35,63,59,4,9,1,2,0.6,0.6
2022-05-30T20:00:00,2377A,116.3544,27.9831,抚州市,市站,,26,26,39,17,21,76,50,65,63,7,19,6,12,0.7,0.9
2022-05-30T20:00:00,2378A,116.3565,27.963,抚州市,血防站,,27,27,36,8,18,76,44,65,62,10,15,5,10,0.6,0.7
2022-05-30T20:00:00,2379A,116.3564,28.0007,抚州市,采茶剧团,,25,25,34,9,18,74,34,60,57,13,14,4,6,0.8,0.9
2022-05-30T20:00:00,2380A,116.385,27.9647,抚州市,医学分院,,18,18,31,10,16,76,42,66,64,8,13,4,4,0.9,0.9
2022-05-30T20:00:00,2381A,118.005,28.4572,上饶市,百草园(对照点),,15,8,27,2,13,81,48,73,64,5,12,6,6,0.3,0.7
2022-05-30T20:00:00,2382A,117.9756,28.4436,上饶市,市监测站,,17,8,30,4,19,79,52,73,67,4,14,6,6,0.2,0.4
2022-05-30T20:00:00,2383A,117.9519,28.4628,上饶市,凤凰光学,,17,17,34,10,19,83,53,74,71,10,19,10,9,0.3,0.4
2022-05-30T20:00:00,2385A,114.17,35.9019,鹤壁市,市监测站,颗粒物(PM10),56,62,55,24,19,190,155,171,171,20,18,8,11,0.7,0.7
2022-05-30T20:00:00,2386A,114.2956,35.7511,鹤壁市,市交警支队,颗粒物(PM10),58,66,62,33,19,168,143,154,154,22,17,14,12,0.6,0.6
2022-05-30T20:00:00,2387A,114.2878,35.7306,鹤壁市,迎宾馆,颗粒物(PM10),57,63,70,25,17,172,140,156,156,24,20,14,9,0.5,0.5
2022-05-30T20:00:00,2389A,113.836,35.311,新乡市,环保西院,颗粒物(PM10),52,54,64,19,19,192,152,174,174,20,11,10,9,0.5,0.5
2022-05-30T20:00:00,2390A,113.884,35.272,新乡市,开发区,颗粒物(PM10),54,57,63,14,12,183,147,168,168,27,16,7,7,0.7,0.6
2022-05-30T20:00:00,2391A,113.883,35.303,新乡市,环保东院,,50,50,61,19,20,194,156,176,176,24,19,7,7,0.6,0.6
2022-05-30T20:00:00,2392A,115.0312,35.7636,濮阳市,环保局,颗粒物(PM10),57,63,58,18,14,157,142,150,150,17,12,8,10,0.4,0.4
2022-05-30T20:00:00,2394A,115.0574,35.7609,濮阳市,油田运输公司,,,73,68,17,14,174,151,161,161,26,18,7,10,,
2022-05-30T20:00:00,2395A,115.0866,35.7754,濮阳市,油田物探公司,颗粒物(PM10),55,60,60,23,14,172,150,164,164,19,13,10,12,0.3,0.2
2022-05-30T20:00:00,2396A,113.8276,34.0159,许昌市,监测站,颗粒物(PM10),92,133,105,21,19,197,164,180,180,17,10,10,10,0.5,0.5
2022-05-30T20:00:00,2398A,113.7906,33.9953,许昌市,开发区,颗粒物(PM10),90,130,82,12,19,205,168,180,180,12,7,8,8,0.5,0.6
2022-05-30T20:00:00,2399A,114.051,33.5699,漯河市,三五一五工厂,颗粒物(PM10),69,88,81,24,20,199,144,165,165,21,6,14,9,0.4,0.5
2022-05-30T20:00:00,2400A,114.0055,33.5698,漯河市,漯河大学,颗粒物(PM10),57,63,68,14,21,182,145,166,166,21,6,8,8,0.6,0.6
2022-05-30T20:00:00,2401A,114.0138,33.5828,漯河市,市水利局,颗粒物(PM10),64,78,86,21,24,191,159,168,168,15,7,10,7,0.3,0.4
2022-05-30T20:00:00,2402A,114.0261,33.5698,漯河市,市广电局,颗粒物(PM10),64,78,77,12,19,192,152,164,164,16,6,10,9,0.2,0.3
2022-05-30T20:00:00,2403A,112.5192,32.9917,南阳市,环保局,颗粒物(PM10),75,100,92,30,28,193,160,176,174,24,14,4,3,0.5,0.5
2022-05-30T20:00:00,2404A,112.5339,33.0086,南阳市,瓦房庄,颗粒物(PM10),68,85,82,29,30,186,163,176,176,25,19,5,5,0.5,0.4
2022-05-30T20:00:00,2405A,112.5003,32.9735,南阳市,汉画馆,颗粒物(PM10),119,188,85,42,28,182,142,169,168,40,19,5,7,0.5,0.5
2022-05-30T20:00:00,2406A,112.5779,33.0144,南阳市,气象站,颗粒物(PM10),69,87,79,29,24,198,172,181,181,24,19,6,6,0.4,0.4
2022-05-30T20:00:00,2407A,112.548,32.9692,南阳市,理工学院,颗粒物(PM10),69,88,85,34,28,186,169,170,170,20,19,1,3,0.6,0.5
2022-05-30T20:00:00,2408A,115.6702,34.4285,商丘市,环境监测站,颗粒物(PM10),63,76,58,20,19,163,143,151,151,20,14,7,8,0.4,0.4
2022-05-30T20:00:00,2409A,115.6458,34.4045,商丘市,粮食局,,,,60,,17,162,157,154,154,17,16,7,8,0.4,0.4
2022-05-30T20:00:00,2410A,115.6293,34.3948,商丘市,睢阳区环保局,颗粒物(PM10),52,53,47,15,16,161,129,149,149,28,12,5,6,0.4,0.4
2022-05-30T20:00:00,2420A,114.0189,32.9656,驻马店市,市一纸厂,颗粒物(PM10),80,109,68,25,23,178,144,166,166,13,10,7,8,0.3,0.3
2022-05-30T20:00:00,2421A,114.0114,33.015,驻马店市,市彩印厂,颗粒物(PM10),80,109,84,17,19,179,144,169,168,21,11,7,7,0.4,0.4
2022-05-30T20:00:00,2422A,113.9976,32.9771,驻马店市,天方二分厂,颗粒物(PM10),82,113,74,22,21,180,149,168,168,8,6,2,3,0.4,0.4
2022-05-30T20:00:00,2423A,115.0601,30.2313,黄石市,沈家营,颗粒物(PM10),57,64,44,8,14,177,114,154,154,14,13,13,11,1.1,1
2022-05-30T20:00:00,2424A,115.0817,30.2006,黄石市,陈家湾,颗粒物(PM10),58,66,50,24,16,176,91,150,147,30,14,18,6,1.4,0.9
2022-05-30T20:00:00,2426A,114.8988,30.2019,黄石市,铁山,颗粒物(PM10),64,78,57,27,22,182,145,159,159,17,22,6,10,0.6,1.3
2022-05-30T20:00:00,2427A,115.0307,30.2092,黄石市,团城山,颗粒物(PM10),57,64,40,10,12,174,106,155,154,24,16,21,11,2.0,0.9
2022-05-30T20:00:00,2428A,111.0419,32.395,十堰市,武当山(对照点),颗粒物(PM10),56,62,141,25,47,172,122,165,157,7,8,7,8,0.6,0.6
2022-05-30T20:00:00,2429A,110.78,32.6494,十堰市,滨河新村,颗粒物(PM10),64,78,183,20,48,158,97,148,142,45,18,8,10,0.8,0.8
2022-05-30T20:00:00,2430A,110.7258,32.6389,十堰市,刘家沟,颗粒物(PM10),67,84,178,20,50,162,147,154,153,11,10,8,8,0.6,0.7
2022-05-30T20:00:00,2431A,110.8839,32.5714,十堰市,铁二处,颗粒物(PM10),61,71,162,23,45,186,132,176,170,15,13,6,7,0.5,0.6
2022-05-30T20:00:00,2432A,112.155,32.0197,襄阳市,襄城运动路,颗粒物(PM10),65,80,71,29,25,204,158,193,189,28,23,11,11,0.7,0.6
2022-05-30T20:00:00,2433A,112.1392,32.0564,襄阳市,樊城新华路,臭氧1小时,79,79,79,26,31,204,183,193,193,22,19,8,9,0.5,0.7
2022-05-30T20:00:00,2434A,112.1825,32.1142,襄阳市,高新管委会,,,118,78,43,27,191,164,179,178,,18,7,6,0.6,0.7
2022-05-30T20:00:00,2435A,112.2106,32.0903,襄阳市,襄州航空路,颗粒物(PM10),76,102,80,23,20,195,163,185,184,21,19,6,6,0.7,0.7
2022-05-30T20:00:00,2436A,114.8938,30.3994,鄂州市,市政府,颗粒物(PM10),61,72,44,22,15,146,88,131,129,24,16,8,8,0.8,1
2022-05-30T20:00:00,2437A,114.8989,30.3714,鄂州市,赵家坝,颗粒物(PM10),62,73,43,17,16,152,97,135,133,13,16,4,6,0.4,0.6
2022-05-30T20:00:00,2439A,112.2014,31.0481,荆门市,竹园小学,颗粒物(PM10),79,108,77,38,23,212,156,202,196,22,16,14,12,0.6,0.7
2022-05-30T20:00:00,2440A,112.1969,30.9891,荆门市,掇刀,颗粒物(PM10),69,87,70,40,24,199,154,191,188,19,18,15,12,0.6,0.7
2022-05-30T20:00:00,2441A,112.2213,31.0386,荆门市,石化一小,细颗粒物(PM2.5),55,55,66,39,22,195,147,188,185,21,14,63,12,0.9,0.4
2022-05-30T20:00:00,2443A,113.9153,30.9285,孝感市,文化路,颗粒物(PM10),53,56,59,27,27,156,123,141,140,14,12,4,4,0.7,0.8
2022-05-30T20:00:00,2444A,113.942,30.9075,孝感市,东城区,颗粒物(PM10),54,57,65,19,24,151,129,139,139,12,14,5,5,0.6,0.7
2022-05-30T20:00:00,2446A,114.9028,30.4742,黄冈市,职工中心,颗粒物(PM10),62,74,37,26,16,159,114,141,141,8,11,6,6,0.6,1
2022-05-30T20:00:00,2447A,114.3175,29.8142,咸宁市,森林公园(对照点),颗粒物(PM10),67,83,34,33,11,170,156,144,144,2,2,5,5,0.7,0.6
2022-05-30T20:00:00,2448A,114.3107,29.8454,咸宁市,市发改委,颗粒物(PM10),85,119,47,45,16,185,158,150,150,14,9,5,6,0.5,0.5
2022-05-30T20:00:00,2449A,114.2936,29.8566,咸宁市,咸安区政府,颗粒物(PM10),113,175,49,37,13,184,132,150,150,18,9,4,4,0.8,0.7
2022-05-30T20:00:00,2451A,113.3583,31.7275,随州市,市委党校,颗粒物(PM10),66,82,62,28,25,186,160,174,174,14,13,7,8,0.9,0.8
