timepoint,stationcode,longitude,latitude,area,positionname,primarypollutant,aqi,pm10,pm10_24h,pm2_5,pm2_5_24h,o3,o3_24h,o3_8h,o3_8h_24h,no2,no2_24h,so2,so2_24h,co,co_24h
2024-02-20T0800,2566A,102.1879,31.914,阿坝藏族羌族自治州,州农科所,,21,21,33,9,12,15,,20,20,8,8,7,8,1.0,1.1
2024-02-20T0800,2568A,102.2502,31.8896,阿坝藏族羌族自治州,马师校,,14,9,9,6,8,42,,59,59,10,7,4,4,0.5,0.4
2024-02-20T0800,3994A,102.2165,31.9024,阿坝藏族羌族自治州,马尔康中学西区,,19,13,12,13,7,50,,62,62,4,4,5,5,0.4,0.4
2024-02-20T0800,2695A,80.292,41.1694,阿克苏地区,电视台,颗粒物(PM10),442,542,770,83,122,48,,51,51,13,10,5,7,0.7,0.6
2024-02-20T0800,2696A,80.2613,41.1551,阿克苏地区,艺术中心,颗粒物(PM10),411,511,773,97,135,58,,55,55,10,16,5,5,1.2,0.8
2024-02-20T0800,2204A,105.6467,38.8363,阿拉善盟,西城区西花园,颗粒物(PM10),149,247,233,47,38,46,,55,55,11,11,8,10,0.9,0.7
2024-02-20T0800,2205A,105.6985,38.8411,阿拉善盟,蒙二幼,颗粒物(PM10),200,350,299,71,59,63,,63,63,17,11,3,5,1.0,0.9
2024-02-20T0800,2206A,105.724,38.8516,阿拉善盟,环保局新楼,颗粒物(PM10),180,309,281,81,77,55,,66,66,9,10,6,7,0.7,0.7
2024-02-20T0800,2708A,88.1264,47.8517,阿勒泰地区,市站,,28,21,20,19,18,43,,41,41,31,33,18,12,0.4,0.5
2024-02-20T0800,2630A,80.1161,32.5,阿里地区,阿里监测站,,30,19,40,2,8,93,,88,88,2,2,8,7,0.4,0.4
2024-02-20T0800,3192A,80.0903,32.5028,阿里地区,阿里藏医院,,31,24,48,3,7,98,,92,92,2,2,6,8,0.5,0.5
2024-02-20T0800,2642A,109.0318,32.6537,安康市,香溪洞,,16,6,518,4,135,49,,52,52,6,7,6,6,0.4,0.5
2024-02-20T0800,2643A,109.0281,32.6939,安康市,安康市监测站,,16,12,585,1,115,50,,51,51,7,9,7,8,0.5,0.6
2024-02-20T0800,2644A,109.0072,32.6975,安康市,汉滨区检察院,,38,,581,26,140,55,,57,57,4,6,18,12,0.5,0.4
2024-02-20T0800,2291A,117.0809,30.5177,安庆市,环科院,,17,6,39,3,30,54,,46,46,10,12,5,5,0.5,0.7
2024-02-20T0800,2292A,117.0331,30.5119,安庆市,马山宾馆,,18,9,36,4,29,56,,48,48,7,12,5,5,0.6,0.8
2024-02-20T0800,2294A,116.9896,30.6145,安庆市,安庆大学,,18,6,47,3,27,55,,50,50,6,10,6,6,0.4,0.6
2024-02-20T0800,3173A,117.0598,30.5351,安庆市,市人大,,17,6,38,6,38,52,,45,45,8,10,3,3,0.7,0.9
2024-02-20T0800,3122A,105.9606,26.2611,安顺市,伍家关,,,,,,,,,,,,,,,,
2024-02-20T0800,3123A,105.9408,26.2431,安顺市,凤凰山,,49,38,36,34,30,92,,97,97,10,9,11,11,0.5,0.5
2024-02-20T0800,3124A,105.9439,26.2564,安顺市,金钟山,,46,42,40,32,30,91,,96,96,9,9,9,10,0.4,0.5
2024-02-20T0800,3125A,105.8983,26.2481,安顺市,娄家坡,,48,44,39,33,28,91,,97,97,7,6,10,10,0.6,0.5
2024-02-20T0800,1818A,114.4839,36.0621,安阳市,棉研所,,,,,,,,,,,,,,,,
2024-02-20T0800,1819A,114.3551,36.1017,安阳市,红庙街,,26,26,70,12,17,61,,52,52,6,8,6,5,0.5,0.5
2024-02-20T0800,1820A,114.361,36.0681,安阳市,银杏小区,,27,27,73,10,19,61,,52,52,2,5,6,4,0.4,0.4
2024-02-20T0800,3141A,114.3922,36.0878,安阳市,信访局,,24,24,74,9,18,62,,54,54,5,8,4,3,0.3,0.3
2024-02-20T0800,3669A,114.4705,36.0637,安阳市,左辅环卫站,,26,26,76,10,20,60,,48,48,5,8,6,4,0.4,0.4
2024-02-20T0800,3703A,114.2917,36.0949,安阳市,安钢职工学校,,33,33,84,12,21,63,,51,51,8,10,6,5,0.4,0.4
2024-02-20T0800,1748A,123.044,41.1196,鞍山市,深沟寺,,36,36,41,11,12,60,,60,60,8,8,7,7,0.3,0.3
2024-02-20T0800,1749A,123.011,41.0931,鞍山市,太阳城,,34,34,35,8,10,66,,66,66,9,10,8,8,0.3,0.4
2024-02-20T0800,1750A,123.0485,41.1442,鞍山市,太平,,39,39,42,14,15,61,,62,62,10,9,5,5,0.4,0.4
2024-02-20T0800,1751A,122.9642,41.0971,鞍山市,铁西三道街,颗粒物(PM10),53,55,55,16,19,51,,43,43,21,26,13,18,1.6,1.8
2024-02-20T0800,1752A,122.9341,41.0833,鞍山市,铁西工业园区,,45,45,43,13,15,53,,53,53,20,22,16,15,0.7,0.9
2024-02-20T0800,1753A,123.022,41.0821,鞍山市,明达新区,,39,39,34,9,10,57,,60,60,11,9,9,9,0.5,0.4
2024-02-20T0800,1754A,123.1289,41.0228,鞍山市,千山,,,,,,,,,,,,,,,,
2024-02-20T0800,2195A,107.4212,40.761,巴彦淖尔市,附二中,颗粒物(PM10),88,126,140,31,29,59,,63,63,6,5,6,8,0.5,0.4
2024-02-20T0800,2196A,107.37,40.7372,巴彦淖尔市,市环保大楼,,,141,145,31,28,58,,62,62,,6,9,6,0.6,0.5
2024-02-20T0800,1956A,86.1472,41.7538,巴音郭楞蒙古自治州,孔雀公园,颗粒物(PM10),472,572,684,82,91,61,,60,60,3,5,3,3,0.3,0.3
2024-02-20T0800,1957A,86.1972,41.7166,巴音郭楞蒙古自治州,棉纺厂,颗粒物(PM10),500,617,761,84,93,36,,44,44,27,12,2,2,0.4,0.4
2024-02-20T0800,1958A,86.2357,41.7173,巴音郭楞蒙古自治州,经济开发区,颗粒物(PM10),382,485,685,81,88,60,,61,61,3,6,3,4,0.3,0.3
2024-02-20T0800,2914A,106.7677,31.8794,巴中市,苏山坪,颗粒物(PM10),265,395,506,125,153,57,,56,56,4,6,1,2,0.3,0.2
2024-02-20T0800,3182A,106.7656,31.8545,巴中市,丽阳花园,颗粒物(PM10),240,378,493,133,154,6,,16,16,31,29,4,4,0.8,0.7
2024-02-20T0800,3183A,106.7418,31.8654,巴中市,圣泉水务公司,颗粒物(PM10),272,400,489,148,164,30,,44,44,23,15,3,3,0.6,0.5
2024-02-20T0800,3616A,106.7616,31.8344,巴中市,市中心医院,颗粒物(PM10),253,387,486,147,170,4,,11,11,29,26,4,4,0.7,0.6
2024-02-20T0800,2235A,122.7911,45.6077,白城市,洮北区环保局,,32,24,29,22,12,46,,56,56,15,12,4,4,0.4,0.4
2024-02-20T0800,2236A,122.8738,45.5725,白城市,市环保局,,39,39,44,20,14,58,,66,66,16,9,6,6,0.6,0.5
2024-02-20T0800,2231A,126.4219,41.9171,白山市,喜丰,颗粒物(PM10),51,52,35,35,19,37,,59,59,29,11,11,8,0.9,0.8
2024-02-20T0800,2232A,126.4077,41.9419,白山市,环保局,颗粒物(PM10),62,73,58,34,24,36,,57,57,30,12,10,8,0.8,0.8
2024-02-20T0800,2647A,104.1724,36.5446,白银市,第三小学,颗粒物(PM10),447,547,355,75,45,47,,44,44,7,17,175,104,1.7,0.7
2024-02-20T0800,2648A,104.1465,36.5482,白银市,动力公司,颗粒物(PM10),380,484,324,102,66,43,,49,49,11,16,8,56,0.5,0.5
2024-02-20T0800,2512A,106.6103,23.9011,百色市,市监测站,细颗粒物(PM2.5),63,70,73,45,43,20,,37,37,28,18,10,14,0.9,0.7
2024-02-20T0800,2513A,106.6538,23.8859,百色市,市中心血站,细颗粒物(PM2.5),69,63,63,50,42,17,,48,48,32,18,10,14,0.8,0.7
2024-02-20T0800,3406A,106.6085,23.8798,百色市,祈福高中,细颗粒物(PM2.5),57,57,63,40,44,8,,44,44,36,20,10,16,0.7,0.8
2024-02-20T0800,2270A,117.396,32.939,蚌埠市,工人疗养院,,21,10,40,8,20,66,,64,64,6,10,4,5,0.3,0.5
2024-02-20T0800,2271A,117.3605,32.9427,蚌埠市,百货大楼,,20,8,40,7,22,64,,63,63,7,8,1,2,0.3,0.4
2024-02-20T0800,2273A,117.4185,32.8911,蚌埠市,蚌埠学院,,22,,35,15,25,49,,59,59,23,13,6,4,0.4,0.6
2024-02-20T0800,2274A,117.3533,32.9673,蚌埠市,淮上区政府,,22,9,37,6,23,68,,68,68,4,8,3,4,0.5,0.6
2024-02-20T0800,2275A,117.3145,32.8977,蚌埠市,高新区,,22,,31,8,21,68,,66,66,4,8,2,3,0.3,0.4
2024-02-20T0800,3715A,117.3092,32.9314,蚌埠市,蚌埠田家炳中学,,21,12,43,11,24,66,,65,65,4,10,3,4,0.2,0.4
2024-02-20T0800,1585A,109.8756,40.6532,包头市,市环境监测站,颗粒物(PM10),68,85,100,12,21,53,,57,57,22,16,10,13,0.6,0.6
2024-02-20T0800,1587A,109.9991,40.5842,包头市,包头八中,颗粒物(PM10),77,103,117,22,27,54,,57,57,17,12,13,11,0.7,0.6
2024-02-20T0800,1588A,109.8538,40.6821,包头市,青山宾馆,颗粒物(PM10),56,61,89,14,21,42,,52,52,31,18,12,13,0.8,0.7
2024-02-20T0800,1589A,109.8642,40.6288,包头市,惠龙物流,颗粒物(PM10),69,88,103,20,22,54,,56,56,18,13,34,15,0.8,0.5
2024-02-20T0800,1590A,110.0377,40.5546,包头市,东河鸿龙湾,颗粒物(PM10),88,126,118,15,18,60,,59,59,12,14,8,8,0.6,0.5
2024-02-20T0800,3283A,109.9154,40.5685,包头市,滨河大厦,颗粒物(PM10),93,135,106,15,19,61,,59,59,11,10,8,9,0.7,0.7
2024-02-20T0800,3419A,109.9447,40.6261,包头市,包头市委党校,颗粒物(PM10),82,113,108,28,23,60,,60,60,13,12,10,14,0.7,0.6
2024-02-20T0800,3683A,109.8331,40.6576,包头市,昆区政府,颗粒物(PM10),59,68,89,18,25,58,,56,56,17,16,12,14,0.5,0.5
2024-02-20T0800,1930A,107.185,34.3063,宝鸡市,庙沟村,颗粒物(PM10),94,138,452,55,113,27,,23,23,13,15,7,9,0.6,0.6
2024-02-20T0800,1931A,107.0708,34.3017,宝鸡市,竹园沟,颗粒物(PM10),179,307,472,94,125,31,,32,32,21,20,4,7,0.8,0.6
2024-02-20T0800,1932A,107.1906,34.3672,宝鸡市,三陆医院,颗粒物(PM10),90,130,412,52,109,36,,34,34,18,20,6,9,0.6,0.6
2024-02-20T0800,1933A,107.1431,34.3547,宝鸡市,监测站,颗粒物(PM10),121,191,430,69,114,33,,33,33,18,17,2,4,0.6,0.5
2024-02-20T0800,1934A,107.1186,34.3739,宝鸡市,技工学校,颗粒物(PM10),146,242,423,79,114,29,,32,32,25,22,5,7,0.6,0.5
2024-02-20T0800,1935A,107.3906,34.3528,宝鸡市,陈仓区环保局家属楼,颗粒物(PM10),66,82,407,36,115,43,,36,36,20,22,6,9,0.5,0.6
2024-02-20T0800,1936A,107.2058,34.3497,宝鸡市,文理学院,颗粒物(PM10),88,126,458,50,121,34,,28,28,19,22,6,7,0.5,0.5
2024-02-20T0800,1937A,107.2386,34.3622,宝鸡市,三迪小学,颗粒物(PM10),73,95,421,44,115,38,,33,33,17,23,6,8,0.7,0.6
2024-02-20T0800,1051A,115.493,38.8632,保定市,游泳馆,颗粒物(PM10),59,67,53,7,8,61,,66,66,5,6,1,2,0.5,0.6
2024-02-20T0800,1052A,115.5213,38.8959,保定市,华电二区,,,,46,14,16,58,,60,60,8,7,3,3,0.1,0.1
2024-02-20T0800,1053A,115.4713,38.9108,保定市,接待中心,,42,42,47,7,6,53,,57,57,4,4,4,4,0.2,0.2
2024-02-20T0800,1054A,115.4612,38.8416,保定市,地表水厂,颗粒物(PM10),53,56,61,12,10,63,,67,67,6,5,2,2,0.1,0.1
2024-02-20T0800,3581A,115.31981,38.95208,保定市,满城区生态环境分局,颗粒物(PM10),54,58,57,9,11,59,,61,61,7,8,2,2,0.3,0.3
2024-02-20T0800,3582A,115.47694,38.76408,保定市,清苑区第二中学,颗粒物(PM10),59,67,54,18,8,64,,66,66,2,4,3,4,0.2,0.3
2024-02-20T0800,3583A,115.62909,39.02311,保定市,徐水物探局,,34,34,44,5,4,54,,59,59,15,11,3,2,0.3,0.4
2024-02-20T0800,4004A,115.4202,38.8656,保定市,双鹰农机,,32,32,45,12,11,59,,65,65,6,5,2,2,0.3,0.2
2024-02-20T0800,4034A,115.5150,38.8590,保定市,植保所站,颗粒物(PM10),52,53,52,26,21,61,,65,65,8,6,2,2,0.2,0.1
2024-02-20T0800,2594A,99.1678,25.1081,保山市,市环境监测站,,35,27,33,24,18,69,,73,73,9,9,4,6,0.7,0.6
2024-02-20T0800,2595A,99.1711,25.1328,保山市,市环保局,,43,38,36,30,20,77,,80,80,3,6,6,6,0.4,0.4
2024-02-20T0800,1866A,109.2262,21.588,北海市,牛尾岭水库,,,,,,,,,,,,,,,,
2024-02-20T0800,1867A,109.1436,21.4086,北海市,海滩公园,,46,36,51,32,26,26,,26,26,8,17,7,7,0.5,0.7
2024-02-20T0800,1868A,109.0981,21.4661,北海市,新市环保局,细颗粒物(PM2.5),52,37,35,36,23,26,,31,31,10,9,7,6,0.5,0.5
2024-02-20T0800,1869A,109.1778,21.5233,北海市,北海工业园,细颗粒物(PM2.5),53,44,40,37,26,20,,21,21,10,9,7,7,0.4,0.4
2024-02-20T0800,3400A,109.1911,21.4415,北海市,龙潭自来水厂,细颗粒物(PM2.5),53,42,39,37,29,25,,24,24,8,9,8,8,0.5,0.5
2024-02-20T0800,1001A,116.3621,39.8784,北京市,万寿西宫,,19,18,22,8,7,58,,63,63,12,8,1,1,0.3,0.2
2024-02-20T0800,1002A,116.2202,40.2915,北京市,定陵,,19,14,14,8,7,58,,63,63,7,5,3,3,0.2,0.2
2024-02-20T0800,1003A,116.4174,39.9289,北京市,东四,,18,18,21,10,8,57,,62,62,9,5,1,2,0.5,0.4
2024-02-20T0800,1004A,116.4072,39.8863,北京市,天坛,,19,19,22,7,7,59,,66,66,15,9,1,1,0.2,0.1
2024-02-20T0800,1005A,116.462,39.9365,北京市,农展馆,,19,14,16,6,4,58,,60,60,12,10,1,2,0.2,0.1
2024-02-20T0800,1006A,116.3392,39.9295,北京市,官园,,22,20,26,8,7,70,,74,74,10,8,1,2,0.3,0.3
2024-02-20T0800,1007A,116.2878,39.9611,北京市,海淀万柳,,21,17,24,7,8,65,,68,68,14,12,3,3,0.3,0.2
2024-02-20T0800,1008A,116.6636,40.135,北京市,顺义新城,,22,12,15,6,5,69,,70,70,3,6,3,3,0.2,0.2
2024-02-20T0800,1009A,116.6275,40.3275,北京市,怀柔镇,,20,12,13,6,5,63,,67,67,6,4,4,4,0.3,0.3
2024-02-20T0800,1010A,116.2296,40.217,北京市,昌平镇,,22,15,21,7,7,70,,70,70,4,3,1,2,0.1,0.1
2024-02-20T0800,1011A,116.3966,39.9821,北京市,奥体中心,,21,13,18,5,6,67,,67,67,4,4,4,4,0.4,0.3
2024-02-20T0800,1012A,116.184,39.9136,北京市,古城,,20,16,24,9,8,63,,64,64,8,6,3,3,0.3,0.2
2024-02-20T0800,3281A,115.9718,40.4529,北京市,延庆夏都,,19,12,20,6,7,58,,60,60,3,2,1,2,0.2,0.2
2024-02-20T0800,3417A,117.0709,40.1465,北京市,平谷新城,,22,11,12,6,5,69,,72,72,2,2,1,1,0.2,0.1
2024-02-20T0800,3418A,116.8336,40.4095,北京市,密云新城,,22,12,11,6,5,69,,72,72,2,2,3,1,0.2,0.2
2024-02-20T0800,3671A,116.088,39.9726,北京市,门头沟三家店,,,,,,,,,,,,,,,,
2024-02-20T0800,3672A,116.1541,39.8204,北京市,丰台云岗,,22,17,25,5,7,69,,71,71,5,3,3,3,0.2,0.1
2024-02-20T0800,3673A,116.6804,39.9081,北京市,通州东关,,19,14,15,6,5,58,,65,65,9,5,3,2,0.3,0.2
2024-02-20T0800,3674A,115.9577,39.7603,北京市,房山燕山,,19,18,24,8,7,59,,63,63,9,6,2,3,0.2,0.2
2024-02-20T0800,3675A,116.4672,39.7733,北京市,大兴旧宫,,,,18,,5,,,70,,,7,,3,,0.2
2024-02-20T0800,3694A,115.986,40.4563,北京市,延庆石河营,,22,11,18,6,6,69,,66,66,2,2,3,3,0.2,0.2
2024-02-20T0800,3695A,116.6151,40.3053,北京市,怀柔新城,,20,13,14,11,8,63,,65,65,4,2,1,2,0.2,0.1
2024-02-20T0800,3696A,116.2545,39.8768,北京市,丰台小屯,,19,19,27,7,7,59,,64,64,13,6,3,2,0.2,0.3
2024-02-20T0800,3697A,116.84,40.3844,北京市,密云镇,,21,12,14,8,7,67,,70,70,5,3,3,2,0.2,0.2
2024-02-20T0800,1761A,123.8275,41.3064,本溪市,大峪,,43,43,41,13,18,60,,60,60,10,9,9,8,0.9,0.8
2024-02-20T0800,1762A,123.7567,41.3325,本溪市,溪湖,,37,37,42,11,13,63,,66,66,8,7,11,9,0.5,0.5
2024-02-20T0800,1763A,123.7169,41.3094,本溪市,彩屯,,36,36,43,12,15,58,,60,60,12,12,8,6,0.6,0.5
2024-02-20T0800,1764A,123.7669,41.2864,本溪市,东明,,46,46,57,13,18,59,,63,63,12,10,9,8,0.6,0.5
2024-02-20T0800,1765A,123.7992,41.2664,本溪市,新立屯,,40,40,51,12,17,57,,61,61,13,11,9,8,0.7,0.6
2024-02-20T0800,1766A,123.8142,41.3472,本溪市,威宁,,40,40,53,14,15,59,,60,60,10,10,5,5,0.5,0.5
2024-02-20T0800,2587A,105.2864,27.3125,毕节市,八中,,34,34,56,23,41,36,,43,43,13,17,8,11,0.6,0.7
2024-02-20T0800,2588A,105.31,27.2944,毕节市,师专,细颗粒物(PM2.5),62,56,59,44,46,45,,37,37,14,19,8,11,0.7,0.7
2024-02-20T0800,3537A,105.3631,27.3533,毕节市,长征村,细颗粒物(PM2.5),72,67,77,52,59,61,,73,73,13,12,9,10,0.7,0.7
2024-02-20T0800,1629A,118.0018,37.3617,滨州市,第二水厂,,48,48,36,14,7,67,,71,71,12,13,4,4,0.6,0.6
2024-02-20T0800,1630A,117.9776,37.393,滨州市,北中新校,颗粒物(PM10),51,51,40,7,9,66,,71,71,9,9,8,7,0.5,0.5
2024-02-20T0800,3514A,117.9378,37.3956,滨州市,中海酒店,,41,41,34,13,12,65,,68,68,5,7,8,8,0.7,0.6
2024-02-20T0800,3515A,117.9378,37.3553,滨州市,开发区一中,,50,50,41,12,8,69,,72,72,11,12,8,8,0.4,0.4
2024-02-20T0800,3516A,118.0917,37.694,滨州市,金海六路,,40,40,37,7,5,74,,75,75,4,6,6,6,0.4,0.5
2024-02-20T0800,4028A,117.9956,37.3753,滨州市,滨州市西街道办事处,,45,45,35,9,12,66,,71,71,12,13,10,10,0.5,0.5
2024-02-20T0800,2311A,115.8072,33.8399,亳州市,污水处理厂,,24,20,29,15,19,75,,68,68,2,6,5,6,0.4,0.6
2024-02-20T0800,2312A,115.7789,33.8518,亳州市,三国揽胜宫,,23,23,38,7,16,70,,60,60,6,13,5,6,0.4,0.6
2024-02-20T0800,3332A,115.7633,33.8034,亳州市,亳州学院,,23,21,32,13,20,72,,66,66,4,8,5,6,0.5,0.6
2024-02-20T0800,2693A,82.0485,44.8556,博尔塔拉蒙古自治州,市党校,,49,49,61,16,25,65,,58,58,10,14,9,16,0.4,0.6
2024-02-20T0800,2694A,82.0806,44.8969,博尔塔拉蒙古自治州,市环保局,颗粒物(PM10),60,70,62,25,23,49,,46,46,12,16,9,12,0.5,0.9
2024-02-20T0800,1071A,116.8842,38.2991,沧州市,沧县城建局,颗粒物(PM10),52,53,55,30,24,62,,67,67,10,11,6,3,0,0.3
2024-02-20T0800,1072A,116.8584,38.3254,沧州市,电视转播站,颗粒物(PM10),51,51,46,5,8,68,,71,71,11,12,8,8,0.4,0.4
2024-02-20T0800,1073A,116.8709,38.3228,沧州市,市环保局,颗粒物(PM10),52,53,48,20,22,62,,66,66,12,13,4,5,0.4,0.4
2024-02-20T0800,3324A,116.8136,38.3004,沧州市,河北水利电力学院,,46,46,49,17,13,64,,67,67,8,9,9,9,0.2,0.2
2024-02-20T0800,2622A,97.1806,31.1273,昌都市,昌都监测站,,14,13,17,7,9,42,,46,46,13,12,8,8,0.3,0.4
2024-02-20T0800,3719A,97.1714,31.1406,昌都市,昌都会议中心,,17,7,9,7,7,52,,58,58,5,4,5,5,0.2,0.2
2024-02-20T0800,2690A,88.1236,43.8886,昌吉回族自治州,天山天池,颗粒物(PM10),80,110,156,26,32,74,,76,76,4,5,6,6,0.4,0.4
2024-02-20T0800,2692A,87.2717,44.0297,昌吉回族自治州,新区政务中心,细颗粒物(PM2.5),79,85,90,58,55,27,,35,35,39,24,5,6,0.9,0.7
2024-02-20T0800,3613A,87.3095,44.0142,昌吉回族自治州,亚心广场,细颗粒物(PM2.5),70,80,85,51,46,53,,51,51,24,22,9,10,0.9,0.9
2024-02-20T0800,1119A,125.3325,43.9166,长春市,食品厂,,46,,30,32,21,35,,41,41,27,22,7,7,0.5,0.3
2024-02-20T0800,1120A,125.2863,43.9027,长春市,客车厂,,49,,30,34,22,35,,44,44,26,16,9,6,0.5,0.4
2024-02-20T0800,1121A,125.2841,43.8463,长春市,邮电学院,,29,29,35,17,19,42,,46,46,17,14,10,11,0.4,0.3
2024-02-20T0800,1122A,125.3716,43.8772,长春市,劳动公园,,25,25,29,13,13,50,,53,53,16,14,6,6,0.2,0.2
2024-02-20T0800,1123A,125.3297,43.8805,长春市,园林处,,31,31,32,16,16,45,,48,48,19,16,18,13,0.5,0.4
2024-02-20T0800,1124A,125.4605,43.79,长春市,净月潭,,,29,30,14,13,,,40,40,27,15,8,9,0.4,0.3
2024-02-20T0800,1125A,125.7194,43.515,长春市,甩湾子,,,,,,,,,,,,,,,,
2024-02-20T0800,1126A,125.3863,43.8447,长春市,经开区环卫处,,18,17,25,12,13,36,,39,39,29,20,28,14,0.4,0.4
2024-02-20T0800,1127A,125.245,43.7783,长春市,高新区管委会,,38,28,31,26,15,44,,55,55,22,13,8,8,0.6,0.4
2024-02-20T0800,1128A,125.1761,43.8325,长春市,岱山公园,,45,39,39,31,20,30,,42,42,31,22,4,4,0.5,0.4
2024-02-20T0800,1335A,113.0833,28.2325,长沙市,经开区环保局,,16,12,98,11,51,29,,25,25,8,8,6,6,0.4,0.6
2024-02-20T0800,1336A,112.8872,28.2189,长沙市,高开区环保局,,29,,105,20,51,39,,30,30,5,7,2,3,0.5,0.8
2024-02-20T0800,1337A,113.0792,28.2053,长沙市,马坡岭,,9,8,93,5,44,27,,23,23,9,8,5,6,0.4,0.7
2024-02-20T0800,1338A,112.9394,28.19,长沙市,湖南师范大学,,12,12,102,6,52,35,,27,27,7,8,5,6,0.8,1
2024-02-20T0800,1339A,113.0178,28.1322,长沙市,雨花区环保局,,35,,97,24,49,28,,23,23,6,7,2,3,0.5,0.6
2024-02-20T0800,1340A,112.9792,28.2597,长沙市,伍家岭,,12,12,100,5,52,29,,23,23,13,11,4,5,0.4,0.6
2024-02-20T0800,1341A,113.0014,28.1944,长沙市,火车新站,,12,10,95,2,50,36,,29,29,4,7,2,3,0.8,1
2024-02-20T0800,1342A,112.9844,28.1178,长沙市,天心区环保局,,10,10,85,5,48,28,,21,21,2,4,4,4,0.4,0.5
2024-02-20T0800,1343A,112.8908,28.1308,长沙市,湖南中医药大学,,28,,115,19,50,33,,26,26,8,10,3,3,0.3,0.6
2024-02-20T0800,1344A,112.9581,28.3611,长沙市,沙坪,,20,20,74,1,41,23,,18,18,10,11,1,2,0.5,0.7
2024-02-20T0800,1727A,113.1147,36.1547,长治市,清华站,,41,41,61,22,22,51,,58,58,15,16,8,10,0.5,0.6
2024-02-20T0800,1728A,113.1031,36.1989,长治市,监测站,,44,44,70,24,24,50,,56,56,13,14,9,10,1.0,0.9
2024-02-20T0800,1730A,113.0886,36.2125,长治市,审计局,,35,35,57,22,19,47,,56,56,14,13,10,11,0.8,0.7
2024-02-20T0800,1731A,113.0844,36.1856,长治市,长治八中,,40,40,64,22,22,52,,58,58,16,16,3,5,0.7,0.7
2024-02-20T0800,2845A,113.1569,36.1911,长治市,德盛苑,,36,36,58,22,24,52,,60,60,16,14,9,10,0.8,0.7
2024-02-20T0800,3568A,113.06,36.0464,长治市,向阳小学,颗粒物(PM10),54,58,82,20,30,64,,70,70,14,19,7,11,0.6,0.8
2024-02-20T0800,3569A,112.8792,36.3144,长治市,屯留一中,颗粒物(PM10),52,53,69,28,25,50,,60,60,13,15,9,9,0.7,0.6
2024-02-20T0800,3570A,113.235,36.3489,长治市,潞城四中,颗粒物(PM10),56,62,76,25,21,49,,58,58,14,14,7,6,0.7,0.6
2024-02-20T0800,1854A,111.6975,28.9703,常德市,市二中,,9,7,221,6,63,28,,32,32,16,18,5,6,0.5,0.6
2024-02-20T0800,1857A,111.7158,29.1456,常德市,白鹤山,,6,4,276,4,55,7,,8,8,2,3,5,5,0.6,0.6
2024-02-20T0800,3138A,111.7153,29.0289,常德市,武陵区永安,,10,9,223,6,61,29,,30,30,10,10,6,6,0.5,0.6
2024-02-20T0800,3139A,111.6892,28.9881,常德市,鼎城区玉霞,,10,7,221,4,64,30,,30,30,12,14,6,7,0.6,0.7
2024-02-20T0800,3140A,111.6625,29.0531,常德市,武陵区长庚,,10,10,222,5,58,30,,30,30,8,10,4,5,0.6,0.6
2024-02-20T0800,1196A,119.9633,31.762,常州市,市监测站,,19,14,36,12,22,59,,64,64,8,10,6,6,0.6,0.7
2024-02-20T0800,1200A,119.9468,31.7069,常州市,武进监测站,,28,,36,19,21,52,,60,60,18,15,4,4,0.8,0.9
2024-02-20T0800,1201A,119.9255,31.9087,常州市,安家,,20,,33,13,22,63,,70,70,12,11,7,7,0.6,0.6
2024-02-20T0800,3002A,119.9805,31.8174,常州市,行政中心,,19,19,36,9,20,59,,67,67,11,10,4,5,0.6,0.7
2024-02-20T0800,3003A,120.0522,31.7748,常州市,经开区,,19,19,42,12,20,57,,62,62,15,14,5,6,0.5,0.6
2024-02-20T0800,3010A,119.9025,31.7964,常州市,钟楼,,18,12,34,12,22,55,,62,62,14,14,7,6,0.7,0.8
2024-02-20T0800,3429A,119.8598,31.7066,常州市,武进经发区,,19,14,26,13,21,56,,62,62,13,12,5,4,0.4,0.6
2024-02-20T0800,3430A,119.5826,31.7245,常州市,金坛城区,,20,11,21,8,15,61,,66,66,10,11,6,6,0.6,0.7
2024-02-20T0800,2220A,120.4318,41.5881,朝阳市,西梁,,22,17,34,11,9,70,,72,72,10,5,6,12,0.6,0.5
2024-02-20T0800,2221A,120.4521,41.5646,朝阳市,河畔小区,,21,17,39,7,8,67,,64,64,4,5,5,6,0.5,0.5
2024-02-20T0800,2222A,120.4176,41.5648,朝阳市,八里堡,,22,18,40,9,9,70,,73,73,11,5,9,9,0.5,0.4
2024-02-20T0800,2223A,120.3806,41.5969,朝阳市,农业园区,,26,,34,18,9,56,,59,59,18,7,9,6,0.5,0.4
2024-02-20T0800,1705A,116.6367,23.6719,潮州市,西园路,,36,25,48,25,29,5,,7,7,14,15,4,4,0.8,0.7
2024-02-20T0800,3026A,116.6183,23.6608,潮州市,市政府,,45,38,51,31,32,11,,16,16,16,18,6,6,0.8,0.8
2024-02-20T0800,4036A,116.6461,23.6761,潮州市,金山,,25,23,37,17,25,4,,6,6,12,16,5,6,0.8,0.7
2024-02-20T0800,2472A,113.0073,25.9061,郴州市,马头岭,颗粒物(PM10),93,135,46,41,16,22,,32,32,20,12,4,3,0.8,0.5
2024-02-20T0800,2473A,113.0116,25.8226,郴州市,市职中,细颗粒物(PM2.5),89,108,32,66,23,24,,21,21,16,8,4,5,0.8,0.5
2024-02-20T0800,2474A,113.0161,25.8001,郴州市,兴隆步行街,细颗粒物(PM2.5),77,102,34,56,23,27,,32,32,12,8,2,2,0.8,0.5
2024-02-20T0800,2475A,113.0383,25.8071,郴州市,市审计局,颗粒物(PM10),71,92,28,51,21,25,,30,30,14,9,3,2,0.8,0.5
2024-02-20T0800,2476A,113.0348,25.7759,郴州市,市环保局,细颗粒物(PM2.5),85,86,32,63,24,21,,34,34,17,9,5,3,0.8,0.5
2024-02-20T0800,1431A,103.9728,30.7236,成都市,金泉两河,颗粒物(PM10),250,385,295,142,104,26,,36,36,18,12,1,2,0.5,0.4
2024-02-20T0800,1432A,104.176,30.6872,成都市,十里店,颗粒物(PM10),249,384,300,172,124,33,,43,43,20,15,1,1,0.4,0.4
2024-02-20T0800,1433A,104.079,30.5706,成都市,三瓦窑,颗粒物(PM10),384,487,375,147,105,5,,34,34,44,15,3,2,0.5,0.4
2024-02-20T0800,1434A,104.1114,30.63,成都市,沙河铺,颗粒物(PM10),358,466,361,145,115,40,,43,43,16,16,4,4,0.4,0.3
2024-02-20T0800,1437A,104.0786,30.6531,成都市,君平街,颗粒物(PM10),394,495,368,129,105,35,,42,42,24,20,4,4,0.3,0.3
2024-02-20T0800,1438A,103.613,31.0283,成都市,灵岩寺,颗粒物(PM10),173,295,228,93,72,70,,70,70,12,15,7,6,0.6,0.6
2024-02-20T0800,2880A,104.0239,30.65639,成都市,大石西路,颗粒物(PM10),342,453,345,123,91,31,,42,42,20,17,2,2,0.5,0.5
2024-02-20T0800,3136A,104.2725,30.5589,成都市,龙泉驿区区政府,颗粒物(PM10),355,464,378,215,134,35,,43,43,14,14,1,2,0.4,0.4
2024-02-20T0800,3357A,104.0106,30.6931,成都市,金博路,颗粒物(PM10),363,470,361,146,107,22,,33,33,26,21,3,2,0.4,0.4
2024-02-20T0800,3359A,104.0578,30.5225,成都市,华阳,颗粒物(PM10),328,442,353,153,115,26,,38,38,10,8,1,2,0.4,0.4
2024-02-20T0800,3487A,104.2394,30.5319,成都市,车城东七路,颗粒物(PM10),415,515,379,172,125,33,,42,42,23,17,2,3,0.4,0.5
2024-02-20T0800,3488A,104.3853,30.7453,成都市,青白江技师分院,颗粒物(PM10),418,518,434,159,123,22,,40,40,24,13,2,2,0.5,0.5
2024-02-20T0800,3489A,104.0789,30.4072,成都市,科学城,颗粒物(PM10),383,486,345,157,113,42,,48,48,7,10,4,4,0.4,0.5
2024-02-20T0800,4011A,103.8506,30.6947,成都市,光华大道三段,颗粒物(PM10),273,401,297,141,98,28,,36,36,11,11,1,2,0.4,0.4
2024-02-20T0800,1062A,117.9531,40.9081,承德市,铁路,,21,14,29,2,6,67,,64,64,7,8,7,7,0.3,0.2
2024-02-20T0800,1063A,117.9392,40.9763,承德市,中国银行,,23,11,26,3,7,72,,61,61,7,9,8,8,0.3,0.3
2024-02-20T0800,1064A,117.9503,40.928,承德市,开发区,,24,24,33,8,15,70,,70,70,11,8,4,4,0.3,0.3
2024-02-20T0800,1065A,117.8051,40.9655,承德市,文化中心,,45,45,41,5,6,62,,63,63,14,9,4,4,0.3,0.3
2024-02-20T0800,1066A,117.9268,41.0026,承德市,离宫,,23,,19,16,15,61,,56,56,6,5,3,3,0.3,0.2
2024-02-20T0800,2314A,117.47,30.6618,池州市,池州学院,,17,6,42,4,31,52,,44,44,7,14,6,6,0.4,0.7
2024-02-20T0800,3237A,117.4918,30.6617,池州市,展览馆,,17,9,49,7,35,54,,47,47,10,17,3,5,0.5,0.7
2024-02-20T0800,3333A,117.5627,30.695,池州市,第八中学,,16,10,40,6,29,50,,44,44,9,14,2,2,0.5,0.8
2024-02-20T0800,3334A,117.5038,30.6243,池州市,第十二中学,,16,8,43,7,33,51,,44,44,9,14,2,2,0.6,0.8
2024-02-20T0800,1744A,118.9233,42.2816,赤峰市,松山一中,,22,22,26,9,8,55,,63,63,20,11,9,8,0.7,0.6
2024-02-20T0800,1745A,118.9576,42.2728,赤峰市,哈达街,,17,17,26,10,13,51,,60,60,22,14,11,13,0.6,0.6
2024-02-20T0800,1746A,118.8788,42.2554,赤峰市,天义路,,16,14,18,9,9,49,,53,53,17,12,9,7,0.5,0.4
2024-02-20T0800,3058A,119.2658,42.0353,赤峰市,银河街,,21,21,39,11,14,65,,64,64,10,10,15,14,0.5,0.5
2024-02-20T0800,3286A,118.9359,42.3147,赤峰市,桥北物流园区,,20,14,23,12,10,64,,63,63,8,9,8,8,0.8,0.7
2024-02-20T0800,2521A,107.3476,22.4136,崇左市,市环保局江州分局,细颗粒物(PM2.5),58,55,50,41,33,38,,54,54,12,6,7,7,0.4,0.2
2024-02-20T0800,2522A,107.3702,22.3707,崇左市,城南新区,,43,41,45,30,31,36,,59,59,15,7,7,7,0.3,0.3
2024-02-20T0800,2298A,118.3093,32.3153,滁州市,老年大学,,26,26,38,12,32,70,,70,70,11,12,4,5,0.6,0.7
2024-02-20T0800,2299A,118.3244,32.2786,滁州市,人大宾馆,,21,17,38,9,25,66,,67,67,16,23,4,4,0.5,0.6
2024-02-20T0800,3207A,118.3118,32.3038,滁州市,市政府原办公楼,,21,18,37,12,29,67,,69,69,14,14,3,3,0.3,0.5
2024-02-20T0800,3331A,118.3267,32.2634,滁州市,图书馆,,23,23,45,9,25,69,,69,69,11,12,5,5,0.5,0.6
2024-02-20T0800,2605A,101.5482,25.0441,楚雄彝族自治州,州环境监测站,,29,28,22,20,17,51,,86,86,25,9,6,6,0.6,0.5
2024-02-20T0800,2606A,101.538,25.0492,楚雄彝族自治州,市经济开发区,,32,32,28,20,18,38,,72,72,38,14,6,6,0.5,0.5
2024-02-20T0800,2548A,107.5277,31.2827,达州市,达州职业技术学院,颗粒物(PM10),200,350,483,92,119,46,,50,50,11,13,20,17,0.6,0.6
2024-02-20T0800,2549A,107.5086,31.2186,达州市,市环境监测站,颗粒物(PM10),189,327,476,97,129,11,,37,37,46,27,14,13,0.7,0.6
2024-02-20T0800,2550A,107.4988,31.2132,达州市,凤凰小区,颗粒物(PM10),213,359,495,110,137,21,,38,38,35,24,14,13,0.6,0.6
2024-02-20T0800,2551A,107.5082,31.1986,达州市,达县机关宾馆,颗粒物(PM10),206,354,522,120,155,21,,34,34,37,28,13,12,0.7,0.7
2024-02-20T0800,2552A,107.4644,31.2124,达州市,市政中心,颗粒物(PM10),179,307,392,107,127,16,,34,34,40,32,11,13,0.5,0.5
2024-02-20T0800,2614A,100.1542,25.7054,大理白族自治州,大理市环境监测站,,29,29,25,19,18,88,,95,95,6,5,8,7,0.5,0.4
2024-02-20T0800,2615A,100.2171,25.5811,大理白族自治州,大理古城,,26,,18,18,13,79,,89,89,14,6,7,7,0.6,0.6
2024-02-20T0800,1109A,121.612,38.9741,大连市,甘井子,,33,33,33,9,12,71,,72,72,8,8,6,4,0.6,0.5
2024-02-20T0800,1110A,121.565,38.9511,大连市,周水子,,32,32,34,10,12,71,,72,72,8,8,4,5,0.4,0.4
2024-02-20T0800,1111A,121.5637,38.8845,大连市,星海三站,,33,33,34,10,12,65,,68,68,11,9,14,10,0.5,0.6
2024-02-20T0800,1112A,121.6302,38.9117,大连市,青泥洼桥,,31,31,34,8,11,71,,72,72,8,6,10,9,0.4,0.5
2024-02-20T0800,1113A,121.6251,38.8638,大连市,傅家庄,,28,28,30,8,11,69,,69,69,4,3,14,13,0.7,0.7
2024-02-20T0800,1114A,121.5213,38.8661,大连市,七贤岭,,26,26,30,12,12,76,,74,74,6,7,8,8,0.7,0.7
2024-02-20T0800,1115A,121.2529,38.8061,大连市,旅顺,,25,25,26,7,11,75,,70,70,6,7,7,7,0.8,0.8
2024-02-20T0800,1116A,121.7485,39.1311,大连市,金州,,33,33,31,13,12,66,,70,70,10,7,11,9,0.7,0.6
2024-02-20T0800,1117A,121.7811,39.0496,大连市,开发区,,32,32,31,11,13,63,,68,68,14,12,5,4,0.6,0.6
2024-02-20T0800,1118A,121.9762,39.0631,大连市,双D港,,32,32,45,13,14,64,,68,68,10,9,9,8,0.6,0.6
2024-02-20T0800,1789A,124.81117,46.03138,大庆市,大同区,,28,28,27,15,16,53,,56,56,6,6,6,6,0.4,0.4
2024-02-20T0800,1790A,125.129,46.533,大庆市,龙凤区,,36,29,33,25,18,51,,60,60,19,15,6,6,0.5,0.4
2024-02-20T0800,1791A,124.902,46.408,大庆市,红岗区,,30,28,27,21,18,57,,62,62,8,8,8,6,0.5,0.5
2024-02-20T0800,1792A,125.153,46.586,大庆市,萨尔图区,,24,24,22,15,15,48,,56,56,15,10,7,8,0.5,0.5
2024-02-20T0800,1793A,124.9042,46.6215,大庆市,让胡路区,,35,35,29,20,23,48,,60,60,17,6,9,6,0.5,0.3
2024-02-20T0800,3481A,125.141,46.634,大庆市,萨区政府监测点,,20,20,23,12,17,61,,65,65,12,11,8,8,0.3,0.3
2024-02-20T0800,1721A,113.3819,40.1097,大同市,果树场,,,,,,,,,,,,,,,,
2024-02-20T0800,1723A,113.2994,40.0758,大同市,云冈宾馆,,33,33,37,12,13,64,,63,63,15,11,4,4,0.4,0.4
2024-02-20T0800,1724A,113.3444,40.0917,大同市,大同大学,,38,38,36,15,14,69,,62,62,9,11,6,6,0.4,0.4
2024-02-20T0800,1725A,113.2661,40.1269,大同市,安家小村,,31,31,29,10,10,57,,55,55,13,7,10,10,0.4,0.4
2024-02-20T0800,1726A,113.2711,40.0844,大同市,教育学院,,37,37,37,13,12,60,,60,60,16,13,4,5,0.5,0.5
2024-02-20T0800,3282A,113.3397,40.0597,大同市,大同市卫生学校,,33,33,28,10,12,69,,72,72,9,8,4,4,0.4,0.4
2024-02-20T0800,3565A,113.1367,40.1122,大同市,云冈站,,29,29,32,8,10,62,,51,51,10,10,4,11,0.5,0.4
2024-02-20T0800,3566A,113.1186,40.2556,大同市,图书馆,,24,24,32,13,14,52,,52,52,14,13,10,12,0.7,0.8
2024-02-20T0800,3567A,113.5931,40.0461,大同市,区一中,,43,43,41,8,12,63,,61,61,8,7,4,5,0.4,0.4
2024-02-20T0800,3676A,113.2802,40.0995,大同市,第二人民医院,,32,32,37,12,11,66,,61,61,12,12,6,7,0.3,0.3
2024-02-20T0800,2269A,124.1069,50.4097,大兴安岭地区,科技局,,26,,18,18,19,52,,54,54,9,8,8,8,0.4,0.4
2024-02-20T0800,3663A,124.1164,50.4278,大兴安岭地区,红旗社区,,17,17,10,11,8,37,,42,42,24,10,19,7,0.4,0.3
2024-02-20T0800,1600A,124.3303,40.0625,丹东市,江湾东路,,26,26,23,11,16,66,,72,72,11,8,11,10,0.4,0.4
2024-02-20T0800,1601A,124.4256,40.1503,丹东市,临江后街,,27,27,24,10,14,68,,72,72,6,5,5,6,0.4,0.5
2024-02-20T0800,1602A,124.3933,40.1461,丹东市,元宝山,,23,23,20,11,14,68,,68,68,4,7,6,6,0.5,0.4
2024-02-20T0800,1603A,124.3633,40.1092,丹东市,民主桥,,23,23,23,9,12,61,,67,67,11,6,9,8,0.3,0.3
2024-02-20T0800,3541A,109.5726,19.5167,儋州市,第一中学子站,,15,15,30,8,20,46,,47,47,1,5,6,7,0.5,0.6
2024-02-20T0800,3542A,109.5567,19.5187,儋州市,东坡学校子站,,23,23,33,13,18,44,,47,47,2,7,7,7,0.3,0.5
2024-02-20T0800,2616A,98.5842,24.428,德宏傣族景颇族自治州,德宏州监测站,细颗粒物(PM2.5),72,54,52,52,35,5,,22,22,36,25,15,15,0.9,0.9
2024-02-20T0800,3677A,98.5881,24.4368,德宏傣族景颇族自治州,芒市人民政府综合楼,,48,39,44,33,30,25,,39,39,20,16,8,7,0.7,0.7
2024-02-20T0800,1901A,104.4239,31.1208,德阳市,东山公园,颗粒物(PM10),363,470,385,145,113,45,,52,52,9,5,1,1,0.3,0.3
2024-02-20T0800,1902A,104.3826,31.1317,德阳市,西小区,颗粒物(PM10),338,450,370,146,112,24,,43,43,28,13,1,1,0.4,0.3
2024-02-20T0800,1904A,104.3553,31.1091,德阳市,耐火材料厂,颗粒物(PM10),343,454,384,144,113,9,,38,38,31,11,2,2,0.3,0.2
2024-02-20T0800,3639A,104.4019,31.1244,德阳市,市教育局,颗粒物(PM10),296,417,341,143,114,36,,45,45,18,11,1,1,0.5,0.4
2024-02-20T0800,1622A,116.3032,37.4674,德州市,儿童乐园,颗粒物(PM10),59,68,62,9,14,72,,72,72,8,11,7,7,0.6,0.6
2024-02-20T0800,1624A,116.2991,37.4451,德州市,监理站,,,52,54,7,10,72,,72,72,8,13,,11,0.5,0.5
2024-02-20T0800,3066A,116.2721,37.4379,德州市,九衢泉纯净水厂,颗粒物(PM10),56,62,57,12,15,69,,68,68,9,12,5,6,0.5,0.6
2024-02-20T0800,3371A,116.3728,37.4403,德州市,开发区人民医院,颗粒物(PM10),56,61,57,7,13,68,,67,67,4,10,6,7,0.3,0.4
2024-02-20T0800,3372A,116.3572,37.4094,德州市,太阳城中学,颗粒物(PM10),56,61,54,13,17,67,,66,66,5,9,5,6,0.5,0.6
2024-02-20T0800,3511A,116.5652,37.3319,德州市,陵城艺术中心,颗粒物(PM10),56,61,47,5,11,72,,71,71,12,16,6,6,0.4,0.4
2024-02-20T0800,2621A,99.7056,27.8317,迪庆藏族自治州,迪庆州站,,,,26,,18,,,83,,,9,,10,,0.5
2024-02-20T0800,3180A,99.7136,27.8094,迪庆藏族自治州,质量技术监督局,,,,22,,15,,,82,,,6,,8,,0.6
2024-02-20T0800,2663A,104.6241,35.5734,定西市,东关小学,颗粒物(PM10),399,499,455,99,90,38,,40,40,6,8,10,12,0.4,0.4
2024-02-20T0800,2664A,104.6194,35.5934,定西市,供电公司,颗粒物(PM10),344,455,426,86,78,43,,51,51,9,8,4,3,0.4,0.3
2024-02-20T0800,1389A,113.7547,23.0494,东莞市,莞城梨川,,22,22,27,13,16,32,,32,32,19,16,7,7,0.6,0.6
2024-02-20T0800,1390A,113.7944,23.0128,东莞市,东城石井,,22,22,26,12,16,27,,25,25,19,17,6,7,0.5,0.5
2024-02-20T0800,1391A,113.7383,22.9658,东莞市,南城西平,,24,24,25,13,14,24,,27,27,20,14,5,5,0.6,0.5
2024-02-20T0800,3319A,113.7338,23.0381,东莞市,万江金泰,,22,22,28,14,17,28,,27,27,14,11,7,8,0.7,0.7
2024-02-20T0800,3626A,113.7533,23.0202,东莞市,南城元岭,,20,20,26,13,16,29,,28,28,13,11,6,6,0.7,0.7
2024-02-20T0800,3627A,113.7875,23.0457,东莞市,东城主山,,20,20,27,12,15,28,,26,26,17,15,8,9,0.6,0.6
2024-02-20T0800,1666A,118.6614,37.4309,东营市,市环保局,,31,31,33,5,9,78,,83,83,9,8,6,6,0.5,0.4
2024-02-20T0800,3036A,118.6904,37.4338,东营市,开发区管委会,,,35,37,12,11,,,81,81,,8,,1,,0.4
2024-02-20T0800,3365A,118.5719,37.565,东营市,垦利区民丰路,,46,46,35,12,8,71,,77,77,7,7,8,8,0.4,0.4
2024-02-20T0800,3498A,118.5055,37.8612,东营市,河口城区,,44,44,37,12,7,66,,70,70,11,10,4,4,0.2,0.2
2024-02-20T0800,3646A,118.4978,37.4623,东营市,胜利站,,45,45,42,9,7,73,,77,77,9,9,7,8,0.7,0.5
2024-02-20T0800,3734A,118.35,37.26,东营市,理想之城,,36,36,35,12,8,70,,76,76,6,6,1,2,0.3,0.3
2024-02-20T0800,1591A,110.0023,39.8129,鄂尔多斯市,综合楼,颗粒物(PM10),82,114,174,24,30,22,,22,22,39,30,4,6,0.6,0.5
2024-02-20T0800,1592A,109.9486,39.8261,鄂尔多斯市,巴音孟克林场办事处,颗粒物(PM10),80,110,165,17,30,29,,21,21,28,26,6,9,0.6,0.5
2024-02-20T0800,1593A,109.7736,39.5986,鄂尔多斯市,康泽苑,颗粒物(PM10),93,136,164,29,33,26,,34,34,28,19,5,7,0.8,0.6
2024-02-20T0800,1594A,109.8119,39.5989,鄂尔多斯市,华泰汽车城,颗粒物(PM10),96,141,161,31,37,30,,35,35,26,19,8,8,0.7,0.6
2024-02-20T0800,1595A,109.9734,39.7884,鄂尔多斯市,奥林花园,颗粒物(PM10),90,129,172,29,34,34,,31,31,26,26,6,8,0.6,0.5
2024-02-20T0800,2436A,114.8938,30.3994,鄂州市,市政府,,12,12,51,0,33,32,,32,32,13,15,6,6,0.5,0.7
2024-02-20T0800,2437A,114.8989,30.3714,鄂州市,赵家坝,,13,7,58,0,33,41,,42,42,9,11,2,4,0.5,0.8
2024-02-20T0800,3654A,114.8094,30.4089,鄂州市,精准医疗中心,,15,14,62,2,32,48,,45,45,2,7,4,4,0.5,0.7
2024-02-20T0800,2454A,109.4978,30.2981,恩施土家族苗族自治州,湖北民院,颗粒物(PM10),63,76,115,40,56,48,,53,53,12,26,8,8,1.0,1.4
2024-02-20T0800,2455A,109.4707,30.2798,恩施土家族苗族自治州,州电力总公司,颗粒物(PM10),67,84,133,37,61,29,,43,43,20,22,5,6,1.1,1.2
2024-02-20T0800,3549A,109.5061,30.3772,恩施土家族苗族自治州,龙凤新区,颗粒物(PM10),73,95,120,41,55,44,,46,46,14,18,6,6,1.1,1.2
2024-02-20T0800,2499A,108.3411,21.6158,防城港市,沙万,,29,26,32,20,19,25,,37,37,11,17,5,4,0.3,0.4
2024-02-20T0800,2500A,108.3514,21.7731,防城港市,防城档案局,,30,30,33,17,20,34,,38,38,9,9,7,6,0.3,0.4
2024-02-20T0800,2501A,108.3506,21.6414,防城港市,大海花园,,27,27,29,15,16,28,,40,40,12,13,5,4,0.2,0.3
2024-02-20T0800,1371A,113.1294,23.0067,佛山市,湾梁,,27,27,30,12,16,28,,23,23,15,15,9,10,0.4,0.5
2024-02-20T0800,1372A,113.1083,23.0478,佛山市,华材职中,,22,22,27,14,17,31,,27,27,14,14,6,10,0.4,0.4
2024-02-20T0800,1373A,113.144,23.0453,佛山市,南海气象局,,20,18,30,14,20,24,,25,25,20,19,7,8,0.4,0.4
2024-02-20T0800,1374A,113.2881,22.8094,佛山市,顺德苏岗,,18,16,22,12,17,34,,31,31,11,12,8,8,0.5,0.5
2024-02-20T0800,1376A,112.8383,22.8678,佛山市,高明孔堂,,23,22,22,16,17,43,,45,45,5,5,3,3,0.4,0.4
2024-02-20T0800,1377A,112.8836,23.1588,佛山市,三水监测站,,24,24,29,10,19,19,,24,24,18,19,6,6,0.5,0.5
2024-02-20T0800,1378A,112.867,23.185,佛山市,三水云东海,,29,29,34,19,20,18,,27,27,28,22,5,5,0.4,0.4
2024-02-20T0800,3625A,113.2544,22.7642,佛山市,容桂街道办,,14,14,24,9,13,31,,31,31,10,8,6,6,0.5,0.5
2024-02-20T0800,1280A,119.3903,26.0543,福州市,鼓山,,,,,,,,,,,,,,,,
2024-02-20T0800,1282A,119.2681,26.0504,福州市,师大,,39,37,40,27,27,8,,11,11,16,15,6,6,0.4,0.4
2024-02-20T0800,1283A,119.2984,26.1028,福州市,五四北路,颗粒物(PM10),51,52,36,32,26,10,,8,8,16,19,3,3,0.5,0.5
2024-02-20T0800,1284A,119.2648,26.0768,福州市,杨桥西路,,45,31,38,31,29,15,,15,15,15,18,3,4,0.5,0.5
2024-02-20T0800,1285A,119.317,26.0746,福州市,紫阳,,49,42,42,34,29,6,,4,4,20,19,6,6,0.6,0.5
2024-02-20T0800,3048A,119.5799,26.0936,福州市,九龙,颗粒物(PM10),52,53,31,30,25,11,,14,14,17,14,3,4,0.4,0.4
2024-02-20T0800,3526A,119.5189,25.9664,福州市,吴航,,43,39,26,30,18,7,,17,17,21,11,5,4,0.7,0.5
2024-02-20T0800,1755A,123.7977,41.8491,抚顺市,望花区,,34,34,53,15,14,60,,62,62,7,6,1,5,0.6,0.6
2024-02-20T0800,1756A,123.9161,41.8822,抚顺市,顺城区,,48,48,53,12,13,67,,69,69,7,7,5,4,0.4,0.4
2024-02-20T0800,1757A,124.0436,41.8611,抚顺市,东洲区,,34,34,48,14,16,66,,66,66,3,4,8,7,0.3,0.3
2024-02-20T0800,1758A,123.9247,41.8642,抚顺市,新抚区,,40,40,51,13,15,67,,69,69,5,6,6,6,0.6,0.5
2024-02-20T0800,1759A,124.0972,41.8961,抚顺市,大伙房水库,,43,43,55,9,15,71,,72,72,1,3,8,8,0.2,0.3
2024-02-20T0800,1760A,123.7086,41.8391,抚顺市,沈抚新城,,35,35,61,10,12,69,,69,69,2,4,6,4,0.5,0.4
2024-02-20T0800,2376A,116.2127,28.0814,抚州市,桐源党溪,,48,48,52,24,30,12,,8,8,14,10,4,5,0.8,0.6
2024-02-20T0800,2377A,116.3544,27.9831,抚州市,市站,,40,40,42,26,26,12,,16,16,14,13,2,1,0.8,0.6
2024-02-20T0800,2378A,116.3565,27.963,抚州市,血防站,,49,43,43,34,26,12,,19,19,10,9,2,4,1.4,1
2024-02-20T0800,2379A,116.3564,28.0007,抚州市,采茶剧团,细颗粒物(PM2.5),52,48,42,36,26,16,,19,19,15,14,6,7,0.8,0.7
2024-02-20T0800,2380A,116.385,27.9647,抚州市,医学分院,,48,48,41,26,24,11,,17,17,12,10,4,5,0.9,0.8
2024-02-20T0800,2207A,121.6094,41.998,阜新市,工业园区,,23,18,38,4,6,72,,75,75,6,5,2,2,0.6,0.6
2024-02-20T0800,2208A,121.6697,42.0279,阜新市,长青街,,23,11,32,9,8,72,,75,75,5,4,5,4,0.4,0.5
2024-02-20T0800,2209A,121.6673,42.0705,阜新市,农业园区,,22,10,34,7,11,68,,69,69,7,7,8,8,0.4,0.4
2024-02-20T0800,2210A,121.6717,42.0224,阜新市,东苑,,24,17,45,7,10,75,,77,77,6,5,2,2,0.4,0.4
2024-02-20T0800,2211A,121.6506,42.0498,阜新市,玉龙新城,,23,13,32,4,5,71,,73,73,4,4,2,3,0.3,0.3
2024-02-20T0800,2301A,115.8277,32.8929,阜阳市,市监测站,,21,12,37,11,27,66,,66,66,9,14,5,5,0.2,0.4
2024-02-20T0800,2303A,115.8554,32.8605,阜阳市,开发区,,21,15,46,14,29,67,,67,67,10,15,3,3,0.4,0.5
2024-02-20T0800,2875A,115.784,32.8892,阜阳市,阜阳职业技术学院,,21,19,39,12,26,67,,68,68,7,11,4,5,0.5,0.6
2024-02-20T0800,3468A,115.7901,32.8613,阜阳市,市规划展馆,,21,8,34,7,21,67,,67,67,9,13,5,5,0.4,0.5
2024-02-20T0800,3469A,115.836,32.9183,阜阳市,枣园社区,,21,16,36,9,20,66,,68,68,8,9,5,6,0.3,0.4
2024-02-20T0800,2669A,102.9099,34.9841,甘南藏族自治州,州政府,颗粒物(PM10),89,127,171,53,52,2,,7,7,33,24,21,21,1.6,1
2024-02-20T0800,3380A,102.8914,34.9617,甘南藏族自治州,甘肃民族师范学院,颗粒物(PM10),83,115,187,44,54,3,,8,8,31,21,18,16,1.0,0.7
2024-02-20T0800,2570A,101.9603,30.0475,甘孜藏族自治州,水桥子,,15,11,15,10,7,39,,48,48,16,11,10,10,0.2,0.3
2024-02-20T0800,3065A,101.9533,29.9972,甘孜藏族自治州,州环保局,,23,9,15,7,6,71,,70,70,2,5,8,8,0.2,0.2
2024-02-20T0800,3414A,115.8347,28.932,赣江新区,桑海产业园,,12,12,52,7,36,33,,18,18,11,20,3,5,0.3,0.5
2024-02-20T0800,2362A,114.9017,25.9149,赣州市,通天岩,,,,,,,,,,,,,,,,
2024-02-20T0800,2363A,114.9367,25.8664,赣州市,地委,,25,24,29,17,18,39,,46,46,6,12,13,13,1.0,1
2024-02-20T0800,2364A,114.9461,25.8481,赣州市,气象台,,29,29,27,17,18,49,,54,54,2,6,8,9,0.3,0.4
2024-02-20T0800,2365A,114.9322,25.8333,赣州市,市图书馆,,22,22,28,14,16,41,,46,46,8,9,14,11,0.5,0.5
2024-02-20T0800,2366A,114.8905,25.8471,赣州市,华坚鞋城,,30,22,30,21,17,41,,44,44,5,6,5,5,0.6,0.7
2024-02-20T0800,3109A,115.0093,25.8613,赣州市,赣县区卫计委,,21,21,31,12,22,45,,37,37,11,15,7,7,0.4,0.5
2024-02-20T0800,2683A,106.2319,36.1417,固原市,马园,颗粒物(PM10),200,349,458,83,93,50,,54,54,10,9,4,4,0.8,0.6
2024-02-20T0800,2684A,106.2792,36.0022,固原市,监测站,颗粒物(PM10),182,313,413,75,83,53,,56,56,10,11,4,5,0.5,0.4
2024-02-20T0800,2685A,106.2375,36.0211,固原市,新区,颗粒物(PM10),167,284,400,67,79,48,,53,53,14,12,5,5,0.4,0.3
2024-02-20T0800,3522A,106.2177,35.9959,固原市,原州区十五小,颗粒物(PM10),209,356,459,73,79,45,,49,49,10,9,6,6,0.4,0.3
2024-02-20T0800,2543A,106.6308,30.5278,广安市,小平旧居,,,,,,,,,,,,,,,,
2024-02-20T0800,2544A,106.6303,30.4576,广安市,市委,颗粒物(PM10),238,376,346,139,122,15,,23,23,21,19,7,8,0.7,0.6
2024-02-20T0800,2545A,106.6271,30.4663,广安市,友谊中学,颗粒物(PM10),189,328,311,127,119,14,,26,26,28,21,4,5,0.8,0.7
2024-02-20T0800,2547A,106.6388,30.4551,广安市,广电花园,颗粒物(PM10),192,334,295,141,120,16,,26,26,19,18,5,7,0.7,0.7
2024-02-20T0800,2902A,106.6351,30.4865,广安市,北辰小学,颗粒物(PM10),286,410,363,150,125,20,,34,34,25,18,6,6,0.9,0.8
2024-02-20T0800,2523A,105.8945,32.4535,广元市,黑石坡,颗粒物(PM10),395,496,553,166,172,57,,57,57,8,7,4,4,0.4,0.3
2024-02-20T0800,2524A,105.821,32.4444,广元市,老城,颗粒物(PM10),393,494,678,140,167,41,,48,48,14,9,3,2,0.5,0.4
2024-02-20T0800,2526A,105.8628,32.4287,广元市,监测站,颗粒物(PM10),293,415,567,166,188,48,,51,51,7,6,3,3,0.6,0.5
2024-02-20T0800,3617A,105.8047,32.4166,广元市,经开区,颗粒物(PM10),407,507,700,132,182,45,,48,48,8,8,2,2,0.6,0.5
2024-02-20T0800,1345A,113.2347,23.1423,广州市,广雅中学,,20,20,28,10,17,34,,31,31,16,22,4,4,0.7,0.7
2024-02-20T0800,1346A,113.2612,23.105,广州市,市五中,,19,19,29,11,19,32,,29,29,17,20,5,5,0.5,0.6
2024-02-20T0800,1348A,113.3478,23.0916,广州市,广东商学院,,16,16,25,5,20,37,,34,34,16,22,4,4,0.4,0.4
2024-02-20T0800,1349A,113.4332,23.1047,广州市,市八十六中,,18,18,22,11,14,20,,20,20,32,29,5,5,0.5,0.5
2024-02-20T0800,1350A,113.3505,22.9483,广州市,番禺中学,,19,18,27,13,17,38,,37,37,19,22,5,5,0.6,0.6
2024-02-20T0800,1351A,113.2146,23.3916,广州市,花都师范,,20,20,32,10,18,35,,33,33,21,24,5,5,0.4,0.4
2024-02-20T0800,1352A,113.2597,23.1331,广州市,市监测站,,19,18,28,13,19,32,,32,32,21,23,5,5,0.6,0.5
2024-02-20T0800,1353A,113.5618,23.312,广州市,九龙镇镇龙,,24,24,32,14,18,22,,26,26,17,18,5,6,0.5,0.5
2024-02-20T0800,1354A,113.2765,23.1544,广州市,麓湖,,18,18,27,11,17,39,,36,36,13,19,4,5,0.4,0.4
2024-02-20T0800,1355A,113.443,23.3035,广州市,帽峰山森林公园,,17,17,23,11,14,27,,40,40,18,17,6,6,0.2,0.2
2024-02-20T0800,2846A,113.3221,23.1322,广州市,体育西,,25,25,32,11,17,31,,34,34,17,19,7,7,0.5,0.6
2024-02-20T0800,3298A,113.5717,23.5491,广州市,从化街口,,25,25,31,17,20,34,,36,36,12,12,4,5,0.5,0.5
2024-02-20T0800,3299A,113.3472,23.3692,广州市,白云竹料,,30,30,34,16,18,30,,36,36,21,19,6,6,0.6,0.5
2024-02-20T0800,3300A,113.2981,23.237,广州市,白云嘉禾,,20,20,27,12,14,30,,32,32,29,28,7,7,0.6,0.6
2024-02-20T0800,3301A,113.4256,23.1716,广州市,黄埔科学城,,23,23,28,12,15,19,,28,28,26,22,6,5,0.5,0.5
2024-02-20T0800,3302A,113.3942,23.0483,广州市,番禺大学城,,18,18,26,11,12,37,,61,61,14,15,4,5,0.8,0.7
2024-02-20T0800,3303A,113.4922,22.8168,广州市,南沙黄阁,,15,14,21,10,12,44,,45,45,7,9,5,5,0.6,0.6
2024-02-20T0800,3304A,113.5342,22.7896,广州市,南沙街,,16,16,20,10,10,40,,41,41,12,14,6,6,0.6,0.5
2024-02-20T0800,3443A,113.2902,23.5544,广州市,花都梯面,,27,27,33,16,19,32,,39,39,17,18,6,6,0.5,0.5
2024-02-20T0800,3445A,113.7858,23.7478,广州市,从化良口,,19,17,19,13,15,30,,37,37,11,8,3,3,0.5,0.5
2024-02-20T0800,3446A,113.8051,23.2614,广州市,增城荔城,,25,25,33,15,20,33,,33,33,10,11,7,7,0.5,0.5
2024-02-20T0800,2505A,109.568,23.1478,贵港市,德智高中,,49,46,68,34,44,25,,33,33,17,20,7,8,0.6,0.7
2024-02-20T0800,2506A,109.6047,23.0666,贵港市,江南子站,颗粒物(PM10),63,75,60,44,38,8,,23,23,32,18,30,10,0.9,0.7
2024-02-20T0800,2507A,109.6014,23.0948,贵港市,贵城子站,颗粒物(PM10),53,55,59,34,39,18,,22,22,17,19,16,11,0.3,0.4
2024-02-20T0800,2508A,109.5669,23.1065,贵港市,荷城子站,颗粒物(PM10),53,56,57,31,36,15,,27,27,19,15,19,13,0.8,0.8
2024-02-20T0800,3405A,109.5886,23.1172,贵港市,新世纪学校,,46,46,63,29,39,24,,29,29,17,21,12,14,0.7,0.8
2024-02-20T0800,1439A,106.6899,26.5998,贵阳市,马鞍山,,49,44,38,34,26,80,,83,83,12,10,6,7,0.6,0.6
2024-02-20T0800,1440A,106.6971,26.5694,贵阳市,市环保站,细颗粒物(PM2.5),57,46,39,40,36,74,,91,91,22,16,8,7,0.5,0.4
2024-02-20T0800,1441A,106.6243,26.6266,贵阳市,鉴湖路,,36,36,48,14,25,84,,90,90,9,8,6,6,0.4,0.5
2024-02-20T0800,1442A,106.7487,26.6343,贵阳市,燕子冲,,39,34,38,27,27,85,,95,95,12,11,7,11,0.5,0.5
2024-02-20T0800,1443A,106.6555,26.4365,贵阳市,碧云窝,颗粒物(PM10),51,51,50,29,29,90,,95,95,8,8,6,7,0.5,0.4
2024-02-20T0800,1444A,106.694,26.5161,贵阳市,中院村,,48,48,42,29,29,76,,87,87,20,15,11,10,0.5,0.5
2024-02-20T0800,1445A,106.7109,26.6027,贵阳市,红边门,,46,46,46,31,33,72,,86,86,21,17,7,7,0.4,0.4
2024-02-20T0800,1446A,106.7164,26.5699,贵阳市,新华路,,41,41,42,24,30,84,,91,91,13,14,10,8,0.4,0.5
2024-02-20T0800,1447A,106.674,26.5424,贵阳市,太慈桥,颗粒物(PM10),53,56,42,34,26,83,,91,91,10,9,11,7,0.4,0.4
2024-02-20T0800,1552A,106.805,26.3003,贵阳市,桐木岭,,,,,,,,,,,,,,,,
2024-02-20T0800,1862A,110.4144,25.3167,桂林市,电子科大尧山校区,,44,44,44,28,27,63,,58,58,5,5,3,3,0.7,0.7
2024-02-20T0800,1863A,110.2819,25.2697,桂林市,监测站,细颗粒物(PM2.5),63,,47,45,41,52,,52,52,11,11,7,7,0.7,0.8
2024-02-20T0800,1864A,110.3089,25.2708,桂林市,龙隐路小学,,,,49,44,38,39,,46,46,20,12,4,4,0.5,0.6
2024-02-20T0800,1865A,110.2869,25.2178,桂林市,八中,,50,42,45,35,35,46,,46,46,10,12,4,4,0.4,0.5
2024-02-20T0800,3403A,110.1764,25.2381,桂林市,创业大厦,细颗粒物(PM2.5),52,41,44,36,33,58,,66,66,3,4,7,6,0.4,0.5
2024-02-20T0800,3531A,110.296,25.1253,桂林市,旅游学院,,45,36,36,31,29,39,,38,38,9,9,4,4,0.4,0.5
2024-02-20T0800,2674A,100.2561,34.4714,果洛藏族自治州,玛沁县大武镇,,38,38,41,19,16,32,,33,33,23,21,12,11,0.6,0.5
2024-02-20T0800,1129A,126.5422,45.755,哈尔滨市,岭北,,,20,22,17,16,51,,48,48,9,12,14,14,,1.3
2024-02-20T0800,1130A,126.561,45.8167,哈尔滨市,松北商大,,21,21,22,12,12,61,,60,60,12,12,8,5,0.7,0.6
2024-02-20T0800,1131A,126.979,45.5419,哈尔滨市,阿城会宁,,32,29,30,22,22,48,,49,49,20,16,19,11,0.6,0.6
2024-02-20T0800,1132A,126.599,45.7222,哈尔滨市,南岗学府路,,25,25,27,10,12,48,,50,50,19,14,22,19,0.4,0.3
2024-02-20T0800,1133A,126.689,45.7733,哈尔滨市,太平宏伟公园,,21,8,24,7,13,65,,63,63,8,12,10,13,0.4,0.3
2024-02-20T0800,1134A,126.635,45.7667,哈尔滨市,道外承德广场,,21,21,24,12,14,55,,61,61,15,12,16,10,0.8,0.5
2024-02-20T0800,1135A,126.685,45.7319,哈尔滨市,香坊红旗大街,,26,,22,18,15,56,,57,57,12,13,17,12,0.5,0.4
2024-02-20T0800,1136A,126.6411,45.7258,哈尔滨市,动力和平路,,23,23,24,12,11,62,,62,62,7,8,3,6,0.6,0.5
2024-02-20T0800,1137A,126.593,45.7478,哈尔滨市,道里建国路,,25,,19,17,17,53,,57,57,16,14,3,6,0.4,0.4
2024-02-20T0800,1138A,126.615,45.61,哈尔滨市,平房东轻厂,,29,24,28,20,19,44,,39,39,20,34,10,7,0.4,0.4
2024-02-20T0800,1139A,126.595,45.9855,哈尔滨市,呼兰师专,,46,,31,32,23,55,,49,49,7,15,6,9,0.4,0.4
2024-02-20T0800,1140A,126.6206,45.6842,哈尔滨市,省农科院,,20,18,23,14,17,57,,51,51,7,13,3,10,0.6,0.5
2024-02-20T0800,2688A,93.5128,42.8172,哈密市,地区监测站,颗粒物(PM10),190,329,276,55,47,56,,52,52,9,15,4,5,0.2,0.4
2024-02-20T0800,2689A,93.4961,42.8328,哈密市,哈密师范学校,颗粒物(PM10),185,320,280,48,41,60,,54,54,8,12,10,7,0.4,0.5
2024-02-20T0800,2671A,100.9048,36.9639,海北藏族自治州,海晏县西海镇,颗粒物(PM10),116,181,229,44,49,27,,32,32,10,9,17,18,0.6,0.5
2024-02-20T0800,3867A,102.0738,36.5056,海东市,平安区公安北苑,颗粒物(PM10),158,265,286,61,69,22,,27,27,34,22,53,34,0.9,0.6
2024-02-20T0800,1409A,110.576,19.9507,海口市,东寨港,,,,,,,,,,,,,,,,
2024-02-20T0800,1410A,110.3232,20.0574,海口市,海南大学,,22,22,25,14,18,44,,41,41,7,6,9,10,0.3,0.2
2024-02-20T0800,1411A,110.283,20.0053,海口市,秀英海南医院,,25,25,29,14,19,44,,38,38,6,8,8,8,0.3,0.3
2024-02-20T0800,1412A,110.338,19.9969,海口市,海南师范大学,,23,23,25,15,20,43,,37,37,4,3,7,8,0.3,0.4
2024-02-20T0800,1413A,110.33,20.0356,海口市,龙华路环保局宿舍,,22,22,27,14,18,40,,38,38,6,4,8,8,0.2,0.2
2024-02-20T0800,3539A,110.5111,19.9736,海口市,桂林洋子站,,33,25,28,23,24,46,,42,42,2,2,6,6,0.2,0.2
2024-02-20T0800,2673A,100.6188,36.2866,海南藏族自治州,共和县恰卜恰镇,颗粒物(PM10),136,222,272,75,116,19,,26,26,30,14,12,12,0.6,0.5
2024-02-20T0800,2676A,97.3731,37.3753,海西蒙古族藏族自治州,德令哈市,颗粒物(PM10),78,105,124,6,22,76,,81,81,7,6,7,8,0.4,0.5
2024-02-20T0800,1048A,114.5302,36.6116,邯郸市,东污水处理厂,,34,34,72,14,19,56,,49,49,7,9,3,2,0.4,0.3
2024-02-20T0800,1049A,114.4918,36.5713,邯郸市,矿院,,43,43,64,10,14,53,,46,46,1,5,2,2,0.6,0.6
2024-02-20T0800,1050A,114.484,36.6133,邯郸市,丛台公园,,34,34,62,17,12,52,,47,47,7,9,3,3,0.3,0.3
2024-02-20T0800,3458A,114.7895,36.5593,邯郸市,香泉濮院小区,,37,37,75,15,16,60,,56,56,1,3,6,5,0.2,0.2
2024-02-20T0800,3579A,114.50634,36.77178,邯郸市,永年区实验高中,,49,49,68,13,16,56,,47,47,8,12,4,4,0.3,0.3
2024-02-20T0800,3580A,114.20016,36.44293,邯郸市,峰峰矿区临水派出所,,38,38,61,18,14,44,,44,44,7,4,8,7,0.9,0.5
2024-02-20T0800,2634A,106.9893,33.1842,汉中市,汉川机床厂子校,颗粒物(PM10),61,72,577,33,162,50,,53,53,5,8,3,5,1.2,1.1
2024-02-20T0800,2635A,107.0154,33.0706,汉中市,市监测站,细颗粒物(PM2.5),64,76,646,46,189,51,,50,50,11,19,6,8,0.7,0.6
2024-02-20T0800,2636A,107.0089,33.1138,汉中市,鑫源开发区,颗粒物(PM10),68,86,641,27,178,50,,50,50,10,16,7,21,0.7,0.7
2024-02-20T0800,2637A,107.007,33.0323,汉中市,南郑大河坎水厂,颗粒物(PM10),64,77,665,29,191,53,,44,44,8,13,8,9,0.7,0.6
2024-02-20T0800,1223A,120.2072,30.2111,杭州市,滨江,,11,6,37,5,26,35,,31,31,16,19,3,4,0.8,0.8
2024-02-20T0800,1224A,120.0633,30.2747,杭州市,西溪,,12,,45,3,24,36,,31,31,16,20,6,6,0.7,0.6
2024-02-20T0800,1226A,120.3461,30.3153,杭州市,下沙,,13,13,43,4,29,41,,30,30,18,20,6,6,0.5,0.7
2024-02-20T0800,1227A,120.1269,30.2456,杭州市,卧龙桥,,12,8,34,3,26,38,,31,31,18,21,3,4,0.5,0.6
2024-02-20T0800,1228A,120.1903,30.2692,杭州市,浙江农大,,12,12,34,4,26,35,,30,30,14,16,5,6,0.9,1
2024-02-20T0800,1230A,120.1197,30.3119,杭州市,和睦小学,,12,5,40,2,28,37,,33,33,14,18,5,5,0.7,0.6
2024-02-20T0800,1231A,120.3019,30.4183,杭州市,临平镇,,14,7,37,7,33,42,,36,36,9,14,4,4,0.3,0.4
2024-02-20T0800,1232A,120.2697,30.1819,杭州市,城厢镇,,14,8,33,5,27,42,,35,35,21,19,6,7,0.6,0.7
2024-02-20T0800,1233A,120.0883,30.1808,杭州市,云栖,,13,6,39,3,27,39,,32,32,12,19,8,8,0.6,0.8
2024-02-20T0800,3557A,119.9464,30.0494,杭州市,镇二中,,11,9,37,2,23,34,,28,28,14,18,6,7,0.7,0.8
2024-02-20T0800,3558A,119.7183,30.2367,杭州市,市府大楼,,13,,31,3,23,40,,35,35,12,16,4,5,0.7,0.8
2024-02-20T0800,3656A,120.1556,30.2864,杭州市,消防大队,,10,,38,4,28,32,,29,29,15,17,7,8,0.9,0.9
2024-02-20T0800,1270A,117.1959,31.7848,合肥市,明珠广场,,18,12,45,5,33,55,,59,59,12,13,7,5,0.6,0.8
2024-02-20T0800,1271A,117.3072,31.8764,合肥市,三里街,,18,5,36,0,29,56,,57,57,13,16,4,4,0.4,0.6
2024-02-20T0800,1272A,117.2588,31.8707,合肥市,琥珀山庄,,20,7,36,2,24,63,,64,64,14,17,4,4,0.6,0.8
2024-02-20T0800,1273A,117.1604,31.9052,合肥市,董铺水库,,21,9,47,2,30,67,,62,62,5,10,1,2,0.2,0.4
2024-02-20T0800,1274A,117.25,31.8571,合肥市,长江中路,,20,7,41,5,34,61,,61,61,9,12,6,7,0.5,0.8
2024-02-20T0800,1275A,117.266,31.9436,合肥市,庐阳区,,20,7,37,5,27,62,,61,61,9,12,4,5,0.3,0.5
2024-02-20T0800,1276A,117.336,31.8586,合肥市,瑶海区,,20,7,36,5,32,61,,61,61,8,12,4,5,0.4,0.6
2024-02-20T0800,1277A,117.3027,31.7964,合肥市,包河区,,15,5,38,5,32,46,,55,55,23,19,3,4,0.3,0.5
2024-02-20T0800,1278A,117.2776,31.7385,合肥市,滨湖新区,,18,,44,9,30,56,,59,59,7,11,4,5,0.4,0.6
2024-02-20T0800,1279A,117.1318,31.8403,合肥市,高新区,,18,9,42,4,37,57,,56,56,12,15,3,3,0.6,0.8
2024-02-20T0800,3464A,117.3803,31.9147,合肥市,高教基地,,20,12,39,7,26,62,,61,61,6,12,3,3,0.2,0.4
2024-02-20T0800,3614A,79.924,37.0877,和田地区,地区环保局,颗粒物(PM10),403,503,1187,147,228,59,,52,52,6,13,4,5,0.5,0.7
2024-02-20T0800,3615A,79.9131,37.113,和田地区,市环保局,颗粒物(PM10),348,458,1185,131,205,57,,48,48,5,12,4,4,0.5,1
2024-02-20T0800,2516A,108.2011,24.715,河池市,东仁乐园,,48,38,54,33,36,25,,29,29,7,8,5,5,0.7,0.7
2024-02-20T0800,2517A,108.0497,24.6947,河池市,市环保站,细颗粒物(PM2.5),53,,47,37,34,34,,61,61,14,12,7,8,0.5,0.5
2024-02-20T0800,2518A,108.0983,24.6989,河池市,市疾控中心,细颗粒物(PM2.5),52,41,48,36,34,47,,62,62,18,14,7,8,0.7,0.7
2024-02-20T0800,1696A,114.6778,23.7569,河源市,源西,,16,16,27,11,18,34,,35,35,11,11,4,4,0.6,0.6
2024-02-20T0800,1697A,114.6944,23.7586,河源市,东埔,,29,28,36,20,23,34,,36,36,5,6,6,6,0.5,0.6
2024-02-20T0800,1698A,114.6892,23.7233,河源市,老城,,24,24,30,12,18,34,,35,35,6,6,5,5,0.6,0.5
2024-02-20T0800,1718A,115.4208,35.2464,菏泽市,气象局,,34,34,42,11,20,59,,59,59,10,13,1,2,0.3,0.4
2024-02-20T0800,1719A,115.4747,35.2375,菏泽市,市政协,,,25,37,9,20,53,,55,55,10,12,2,2,,0.4
2024-02-20T0800,3374A,115.5564,35.0891,菏泽市,定陶老年大学,,24,24,31,9,13,61,,64,64,15,16,4,3,0.4,0.3
2024-02-20T0800,3647A,115.4702,35.2706,菏泽市,菏泽医专,,29,29,40,7,13,59,,58,58,12,15,3,2,0.2,0.3
2024-02-20T0800,2514A,111.5264,24.4172,贺州市,环保小区,,32,25,43,22,26,40,,38,38,10,12,8,9,0.5,0.6
2024-02-20T0800,2515A,111.5608,24.4078,贺州市,政协大楼,,38,31,42,26,27,43,,41,41,9,12,9,9,0.3,0.4
2024-02-20T0800,3534A,111.4744,24.4553,贺州市,西湾,,38,,45,26,31,40,,35,35,9,16,10,10,0.4,0.5
2024-02-20T0800,2385A,114.17,35.9019,鹤壁市,市监测站,,46,46,73,15,29,65,,48,48,14,17,3,4,0.3,0.5
2024-02-20T0800,2386A,114.2956,35.7511,鹤壁市,市交警支队,,41,41,66,8,20,56,,47,47,7,10,4,2,0.3,0.3
2024-02-20T0800,2387A,114.2878,35.7306,鹤壁市,迎宾馆,,29,29,60,8,25,57,,49,49,12,14,10,5,0.4,0.4
2024-02-20T0800,3474A,114.2617,35.6822,鹤壁市,大新区,,34,34,70,14,20,61,,53,53,11,13,9,6,0.3,0.3
2024-02-20T0800,3596A,114.1572,35.9603,鹤壁市,南山宾馆,,30,30,85,18,26,62,,45,45,4,9,4,3,0.5,0.5
2024-02-20T0800,2244A,130.2537,47.3416,鹤岗市,哈啤分公司,,38,,19,26,16,62,,67,67,9,5,17,13,0.4,0.3
2024-02-20T0800,2245A,130.2684,47.3086,鹤岗市,斯达机电,,30,30,25,18,19,60,,68,68,15,7,8,8,0.5,0.4
2024-02-20T0800,2246A,130.3114,47.3388,鹤岗市,东山纸板厂,,28,,30,19,19,70,,70,70,6,5,10,10,0.5,0.4
2024-02-20T0800,2247A,130.1097,47.3382,鹤岗市,五号水库,,23,14,20,9,13,71,,70,70,5,4,7,7,0.6,0.5
2024-02-20T0800,2263A,127.4833,50.2524,黑河市,交通局,,28,20,17,19,15,63,,64,64,7,6,6,6,0.4,0.4
2024-02-20T0800,2264A,127.5144,50.2341,黑河市,环保局,,22,,21,14,18,70,,71,71,6,9,3,5,0.2,0.2
2024-02-20T0800,2265A,127.5291,50.2472,黑河市,大黑河岛,臭氧1小时,122,16,16,12,11,243,,244,244,255,277,4,4,,
2024-02-20T0800,1074A,115.6838,37.7541,衡水市,电机北厂,,41,41,51,10,16,55,,50,50,3,5,1,2,0.3,0.2
2024-02-20T0800,1075A,115.6303,37.7316,衡水市,市监测站,,39,39,43,10,10,62,,59,59,8,10,4,4,0.4,0.4
2024-02-20T0800,3188A,115.6683,37.7217,衡水市,市城管局,,45,45,55,14,11,59,,58,58,8,12,2,2,0.3,0.3
2024-02-20T0800,3459A,115.5989,37.5491,衡水市,地表水厂,,30,30,48,4,9,67,,63,63,2,5,3,2,0.3,0.3
2024-02-20T0800,2456A,112.5003,26.9167,衡阳市,原169医院,,36,32,83,25,35,26,,39,39,12,10,6,8,0.8,0.6
2024-02-20T0800,2457A,112.6194,26.9258,衡阳市,衡阳化工总厂,,39,39,101,24,50,27,,40,40,7,8,14,14,0.7,0.6
2024-02-20T0800,2458A,112.6211,26.8956,衡阳市,珠晖区环保局,,48,42,97,33,45,26,,38,38,16,15,5,6,0.8,0.8
2024-02-20T0800,2459A,112.6197,26.8733,衡阳市,市委党校,,34,34,97,22,46,28,,39,39,12,12,8,7,0.9,0.8
2024-02-20T0800,2460A,112.6006,26.8919,衡阳市,市监测站,颗粒物(PM10),59,67,104,26,51,28,,40,40,10,13,9,9,0.9,0.7
2024-02-20T0800,2461A,112.5664,26.9056,衡阳市,真空机电公司,,43,33,90,30,44,26,,38,38,11,12,5,8,1.0,0.9
2024-02-20T0800,3399A,112.6703,26.882,衡阳市,师范学院,,40,40,98,17,49,25,,37,37,11,11,5,6,0.9,0.8
2024-02-20T0800,2608A,103.3772,23.3993,红河哈尼族彝族自治州,污水处理厂,细颗粒物(PM2.5),54,45,40,38,30,68,,83,83,10,7,8,9,0.5,0.4
2024-02-20T0800,2609A,103.3861,23.35,红河哈尼族彝族自治州,监测站,细颗粒物(PM2.5),52,41,41,36,35,86,,85,85,11,9,8,12,0.7,0.6
2024-02-20T0800,3038A,103.3758,23.368,红河哈尼族彝族自治州,州图书馆,,42,36,34,29,28,82,,82,82,10,7,6,7,0.5,0.4
2024-02-20T0800,1090A,111.6507,40.7517,呼和浩特市,呼市一监,,48,48,35,14,12,69,,75,75,10,8,8,8,0.4,0.3
2024-02-20T0800,1091A,111.6572,40.8033,呼和浩特市,小召,颗粒物(PM10),51,51,37,16,11,61,,72,72,20,13,5,6,0.5,0.3
2024-02-20T0800,1094A,111.7516,40.8369,呼和浩特市,如意水处理厂,颗粒物(PM10),51,51,34,14,11,55,,61,61,18,10,11,11,0.5,0.4
2024-02-20T0800,1095A,111.7276,40.8062,呼和浩特市,二十九中,,41,41,31,14,11,60,,67,67,9,6,10,10,0.4,0.3
2024-02-20T0800,1096A,111.5512,40.7866,呼和浩特市,工大金川校区,,47,47,36,17,12,44,,53,53,28,15,9,8,0.6,0.4
2024-02-20T0800,1097A,111.717,40.7612,呼和浩特市,化肥厂生活区,,50,50,44,12,12,65,,70,70,6,6,10,10,0.4,0.4
2024-02-20T0800,3698A,111.5968,40.8178,呼和浩特市,红旗小学,颗粒物(PM10),51,51,31,17,12,44,,56,56,33,17,11,10,0.6,0.4
2024-02-20T0800,3699A,111.6518,40.8389,呼和浩特市,海东办,颗粒物(PM10),56,61,34,18,12,48,,57,57,29,17,10,9,0.4,0.2
2024-02-20T0800,2192A,119.7594,49.2261,呼伦贝尔市,区环保局,,35,24,35,24,22,57,,63,63,16,9,6,6,0.4,0.3
2024-02-20T0800,3061A,119.7512,49.1577,呼伦贝尔市,国华电力东,,30,27,39,21,22,68,,66,66,4,5,5,6,0.2,0.2
2024-02-20T0800,1250A,120.0751,30.8669,湖州市,城西水厂,,18,5,27,3,22,56,,55,55,11,17,2,2,0.4,0.6
2024-02-20T0800,2873A,120.0875,30.8955,湖州市,仁皇山新区,,17,3,26,3,23,52,,52,52,13,16,5,5,0.5,0.8
2024-02-20T0800,2907A,120.1844,30.8596,湖州市,吴兴区站,,18,6,30,5,23,56,,55,55,11,16,5,5,0.5,0.7
2024-02-20T0800,3562A,120.4148,30.8538,湖州市,南浔区站,,18,10,39,5,25,56,,54,54,9,12,5,5,0.7,0.9
2024-02-20T0800,1607A,120.9092,40.7136,葫芦岛市,龙港区,,29,29,50,13,11,62,,60,60,5,7,17,46,0.7,0.8
2024-02-20T0800,1608A,120.8392,40.7514,葫芦岛市,化工街,,31,31,47,5,9,67,,67,67,8,9,7,8,0.8,0.8
2024-02-20T0800,1609A,120.8341,40.7073,葫芦岛市,新区,,22,22,39,7,9,68,,69,69,7,6,8,9,0.4,0.4
2024-02-20T0800,1610A,120.8695,40.7677,葫芦岛市,东城区,,21,19,38,9,9,66,,65,65,6,7,8,9,0.7,0.7
2024-02-20T0800,2482A,109.5981,27.5721,怀化市,林科所,颗粒物(PM10),53,55,114,33,51,37,,50,50,4,4,4,4,0.6,0.7
2024-02-20T0800,2483A,109.9453,27.5444,怀化市,河西地税局,颗粒物(PM10),57,64,150,32,64,35,,48,48,5,6,4,4,0.7,0.6
2024-02-20T0800,2484A,109.9781,27.5342,怀化市,市四医院,颗粒物(PM10),57,64,153,38,67,37,,50,50,4,6,4,5,1.0,0.9
2024-02-20T0800,2485A,109.9972,27.5578,怀化市,监测楼,颗粒物(PM10),57,63,162,30,64,28,,40,40,8,8,4,4,0.7,0.6
2024-02-20T0800,2486A,110.0394,27.583,怀化市,市委党校,颗粒物(PM10),56,61,169,34,68,32,,44,44,12,11,4,4,0.8,0.6
2024-02-20T0800,1210A,119.036,33.5981,淮安市,钵池山,,22,,30,12,18,69,,65,65,11,13,6,7,0.3,0.4
2024-02-20T0800,1211A,119.007,33.575,淮安市,北京南路,,23,,29,11,20,72,,67,67,8,11,5,6,0.5,0.5
2024-02-20T0800,1212A,118.989,33.6067,淮安市,市监测站,,23,,29,7,17,72,,68,68,9,12,5,5,0.3,0.4
2024-02-20T0800,1213A,119.135,33.5039,淮安市,楚州区监测站,,22,,33,11,21,68,,66,66,10,12,5,5,0.5,0.6
2024-02-20T0800,1214A,119.0186,33.6297,淮安市,淮阴区监测站,,23,,37,16,26,68,,64,64,13,14,2,2,0.3,0.3
2024-02-20T0800,3426A,118.8755,33.2894,淮安市,新华书店,,21,7,36,4,16,67,,64,64,11,17,4,4,0.2,0.3
2024-02-20T0800,2282A,116.8004,33.975,淮北市,监测站,,23,16,37,7,12,71,,71,71,4,7,4,3,0.4,0.4
2024-02-20T0800,2283A,116.8091,33.9007,淮北市,烈山区政府,,20,,43,14,18,61,,59,59,3,9,3,3,0.2,0.3
2024-02-20T0800,3330A,116.8873,33.9836,淮北市,杜集区检察院,,37,37,58,22,26,75,,75,75,7,11,3,2,0.4,0.5
2024-02-20T0800,4017A,116.7923,33.9535,淮北市,市博物馆,,22,19,40,10,14,70,,70,70,15,15,5,4,0.4,0.5
2024-02-20T0800,2277A,116.8305,32.7727,淮南市,潘集区政府,,26,,41,18,29,64,,62,62,7,11,1,2,0.4,0.5
2024-02-20T0800,2278A,117.0067,32.6524,淮南市,师范学院,,30,22,45,21,31,56,,56,56,14,16,5,6,0.2,0.3
2024-02-20T0800,2279A,116.8569,32.5951,淮南市,谢家集区政府,,20,,37,11,28,64,,63,63,7,10,2,3,0.2,0.4
2024-02-20T0800,2280A,116.8281,32.633,淮南市,八公山区政府,,20,13,44,8,27,64,,60,60,8,11,2,3,0.3,0.5
2024-02-20T0800,2281A,116.6325,32.6201,淮南市,焦岗湖风景区管理处,,17,10,20,10,25,52,,51,51,8,12,3,3,0,0.2
2024-02-20T0800,2894A,117.0566,32.6531,淮南市,经济技术开发区消防队,,20,15,49,8,27,64,,61,61,9,13,2,3,0.2,0.4
2024-02-20T0800,3329A,117.0108,32.5893,淮南市,山南新区,,20,15,47,12,29,63,,60,60,6,11,2,2,0.3,0.5
2024-02-20T0800,2446A,114.9028,30.4742,黄冈市,职工中心,,15,7,50,0,36,47,,45,45,1,6,7,8,0.4,0.6
2024-02-20T0800,2929A,114.8858,30.4519,黄冈市,红卫路,,15,,46,9,34,47,,46,46,2,5,5,6,0.4,0.6
2024-02-20T0800,3398A,114.9136,30.4445,黄冈市,市林业局,,14,7,45,4,38,43,,41,41,2,6,6,6,0.3,0.6
2024-02-20T0800,2672A,102.0199,35.5102,黄南藏族自治州,同仁县隆务镇,颗粒物(PM10),150,249,296,91,108,24,,34,34,13,8,12,10,1.4,1.1
2024-02-20T0800,2295A,118.2903,29.6963,黄山市,延安路89号,,19,19,46,8,23,15,,12,12,12,11,5,6,0.6,0.6
2024-02-20T0800,2296A,118.327,29.7178,黄山市,黄山东路89号,,20,20,41,5,22,12,,12,12,14,16,4,5,0.6,0.7
2024-02-20T0800,2297A,118.1371,30.2756,黄山市,黄山区政府5号楼,,11,10,37,6,22,33,,23,23,11,15,4,4,0.8,1
2024-02-20T0800,2423A,115.0601,30.2313,黄石市,沈家营,,11,11,74,6,36,32,,32,32,17,22,1,3,0.6,0.8
2024-02-20T0800,2424A,115.0817,30.2006,黄石市,陈家湾,,22,20,79,15,49,28,,30,30,19,24,6,9,0.7,0.9
2024-02-20T0800,2426A,114.8988,30.2019,黄石市,铁山,,28,28,61,10,35,27,,33,33,13,20,8,9,1.1,1
2024-02-20T0800,2427A,115.0307,30.2092,黄石市,团城山,,18,18,73,10,33,35,,35,35,10,15,6,7,0.6,0.9
2024-02-20T0800,3149A,115.0235,30.1578,黄石市,笔架山北路,,11,11,68,2,34,33,,30,30,9,18,4,7,0.6,0.9
2024-02-20T0800,1392A,114.4183,23.0528,惠州市,河南岸金山湖子站,,23,22,25,16,18,26,,34,34,9,6,4,5,0.5,0.5
2024-02-20T0800,1393A,114.4053,23.0822,惠州市,下埔横江三路子站,,21,21,29,14,18,31,,36,36,14,10,5,5,0.7,0.7
2024-02-20T0800,1394A,114.4103,23.1142,惠州市,江北云山西路子站,,18,18,25,10,15,38,,39,39,6,5,8,8,0.5,0.5
2024-02-20T0800,1395A,114.4645,22.7833,惠州市,惠阳区承修路船湖子站,,18,17,20,12,13,38,,38,38,10,11,7,7,0.5,0.5
2024-02-20T0800,1396A,114.5317,22.7422,惠州市,大亚湾管委会子站,,19,19,24,10,11,40,,38,38,13,15,6,6,0.5,0.5
2024-02-20T0800,3314A,114.4338,22.8134,惠州市,惠阳秋长,,22,22,23,10,11,44,,45,45,8,9,6,6,0.4,0.4
2024-02-20T0800,3452A,114.6517,22.775,惠州市,大亚湾霞涌,,15,15,19,10,12,43,,40,40,5,7,7,7,0.3,0.3
2024-02-20T0800,2240A,130.9762,45.3001,鸡西市,环保局,,18,13,19,12,13,54,,65,65,10,7,5,5,0.3,0.3
2024-02-20T0800,2243A,130.9429,45.3039,鸡西市,第一中学,,21,21,18,13,13,64,,68,68,7,8,8,7,0.2,0.1
2024-02-20T0800,3707A,131.0207,45.3073,鸡西市,欧美日汽修厂,,30,30,21,18,12,51,,57,57,13,11,28,11,1.1,0.6
2024-02-20T0800,3709A,130.9967,45.3106,鸡西市,市政设施管理处,,20,,19,13,15,63,,65,65,12,12,3,3,0.5,0.5
2024-02-20T0800,2367A,114.9754,27.0803,吉安市,红声器材厂,,33,33,36,19,17,48,,50,50,10,11,7,6,0.4,0.4
2024-02-20T0800,2368A,114.9658,27.0999,吉安市,市森林工业局,,30,30,32,20,19,41,,42,42,10,9,7,7,0.4,0.6
2024-02-20T0800,2369A,114.99,27.1312,吉安市,市环境监测站,,32,32,31,19,17,48,,52,52,8,7,5,5,0.6,0.4
2024-02-20T0800,2370A,115.0093,27.0968,吉安市,青原区法院,,35,34,31,24,19,31,,52,52,20,11,10,10,0.6,0.6
2024-02-20T0800,1772A,126.54,43.8622,吉林市,哈达湾,,34,34,32,15,15,53,,59,59,12,10,6,5,0.7,0.5
2024-02-20T0800,1773A,126.5844,43.8358,吉林市,东局子,,29,29,34,14,19,49,,57,57,15,16,6,7,0.5,0.4
2024-02-20T0800,1774A,126.5052,43.8245,吉林市,电力学院,,36,36,27,16,16,53,,62,62,14,8,7,5,0.7,0.6
2024-02-20T0800,1775A,126.6133,43.8972,吉林市,江北,,24,24,34,12,19,49,,51,51,12,10,10,9,0.6,0.6
2024-02-20T0800,1776A,126.555,43.8306,吉林市,江南公园,,28,28,27,14,18,54,,59,59,14,13,5,4,0.5,0.5
2024-02-20T0800,1778A,126.7061,43.7133,吉林市,丰满,,,,,,,,,,,,,,,,
2024-02-20T0800,2868A,126.4739,43.953,吉林市,九站,,29,29,26,15,19,58,,60,60,12,13,9,9,0.6,0.6
2024-02-20T0800,1299A,116.9862,36.6114,济南市,科干所,,41,41,38,7,12,73,,74,74,6,10,6,7,0.7,0.7
2024-02-20T0800,1300A,116.9376,36.665,济南市,农科所,,49,49,47,12,9,63,,66,66,14,17,10,8,0.5,0.5
2024-02-20T0800,1301A,117.1265,36.6734,济南市,开发区,,39,39,41,10,11,69,,71,71,11,12,6,8,0.6,0.6
2024-02-20T0800,1303A,117.0624,36.6868,济南市,省种子仓库,,48,48,43,7,10,66,,70,70,8,9,7,6,0.3,0.2
2024-02-20T0800,1304A,116.9489,36.6447,济南市,机床二厂,颗粒物(PM10),51,51,48,7,9,68,,74,74,12,11,7,7,0.4,0.4
2024-02-20T0800,1305A,117.0495,36.663,济南市,市监测站,,46,46,43,5,11,68,,73,73,17,16,8,9,0.5,0.5
2024-02-20T0800,1306A,116.7675,36.5484,济南市,长清党校,,46,46,45,10,10,70,,76,76,10,11,5,6,0.6,0.6
2024-02-20T0800,1616A,117.6795,36.229,济南市,技术学院,,39,39,38,7,9,71,,74,74,8,11,7,7,0.7,0.7
2024-02-20T0800,1961A,117.532,36.6868,济南市,东山小学,,42,42,44,10,8,71,,74,74,11,11,6,6,0.2,0.2
2024-02-20T0800,3059A,117.7161,36.2049,济南市,泰兴公司,,39,39,34,12,8,73,,73,73,8,10,8,8,0.7,0.7
2024-02-20T0800,3064A,117.6867,36.2171,济南市,莱芜战役纪念馆,,41,41,39,9,8,72,,74,74,6,8,6,6,0.4,0.5
2024-02-20T0800,3494A,117.1673,36.9782,济南市,济阳区政府,颗粒物(PM10),51,51,42,5,9,65,,67,67,4,7,5,8,0.3,0.3
2024-02-20T0800,3495A,117.1171,36.63,济南市,锦屏中学,,34,34,36,5,8,74,,74,74,4,7,6,7,0.4,0.4
2024-02-20T0800,3682A,116.9814,36.6819,济南市,济南四建,,44,44,40,12,13,61,,66,66,10,10,10,10,0.5,0.4
2024-02-20T0800,1653A,116.6251,35.4302,济宁市,火炬城,,22,22,26,2,6,62,,68,68,6,7,5,4,0.4,0.4
2024-02-20T0800,1655A,116.5491,35.4042,济宁市,电化厂,,24,24,32,7,7,66,,73,73,6,8,4,3,0.4,0.4
2024-02-20T0800,3500A,116.5814,35.3707,济宁市,北湖一中,,25,25,30,12,12,62,,69,69,11,9,6,4,0.4,0.4
2024-02-20T0800,3501A,116.8249,35.5593,济宁市,服务中心,,27,27,32,6,6,68,,74,74,8,8,2,2,0.3,0.3
2024-02-20T0800,3678A,116.5907,35.4054,济宁市,市第七中学,,29,29,27,5,7,60,,68,68,6,7,2,2,0.4,0.4
2024-02-20T0800,2255A,130.2751,46.8028,佳木斯市,佳纺,,30,26,26,21,14,54,,60,60,23,16,10,6,0.5,0.5
2024-02-20T0800,2256A,130.3995,46.8307,佳木斯市,发电厂,,20,16,14,12,11,62,,66,66,13,9,8,6,0.5,0.4
2024-02-20T0800,2257A,130.3258,46.7975,佳木斯市,环保局,,18,14,18,10,10,55,,63,63,19,16,3,6,0.8,0.6
2024-02-20T0800,2258A,130.3648,46.8032,佳木斯市,十一中,,22,,17,15,11,52,,62,62,22,13,11,7,0.6,0.5
2024-02-20T0800,2259A,130.3794,46.7588,佳木斯市,四丰,,25,21,18,10,7,80,,83,83,4,8,1,1,0.6,0.6
2024-02-20T0800,1252A,120.7436,30.778,嘉兴市,清河小学,,15,8,32,4,24,48,,46,46,9,14,5,5,0.6,0.5
2024-02-20T0800,1253A,120.726,30.7478,嘉兴市,嘉兴学院,,15,12,34,5,24,45,,44,44,10,13,4,5,0.6,0.7
2024-02-20T0800,2872A,120.7846,30.7525,嘉兴市,南湖区残联,,16,14,41,4,24,51,,51,51,8,11,4,5,0.6,0.8
2024-02-20T0800,3407A,120.6916,30.7739,嘉兴市,秀洲住建,,14,9,29,8,23,42,,42,42,15,16,4,5,0.6,0.6
2024-02-20T0800,1945A,98.2908,39.7711,嘉峪关市,气象局,颗粒物(PM10),282,407,207,95,48,64,,67,67,11,11,8,6,0.8,0.7
2024-02-20T0800,2884A,98.2672,39.7978,嘉峪关市,酒钢宾馆,颗粒物(PM10),245,381,226,95,48,49,,61,61,29,18,54,21,0.6,0.8
2024-02-20T0800,3248A,98.2643,39.7724,嘉峪关市,雄关区,颗粒物(PM10),161,272,158,63,35,33,,60,60,38,15,47,10,1.0,0.6
2024-02-20T0800,1383A,113.1064,22.6058,江门市,北街,,22,17,25,15,17,36,,37,37,12,11,6,7,0.3,0.3
2024-02-20T0800,1384A,113.0731,22.5835,江门市,西区,,20,20,28,12,17,38,,39,39,12,10,4,5,0.5,0.4
2024-02-20T0800,1385A,113.0219,22.5311,江门市,圭峰西,,22,19,25,15,16,38,,40,40,14,12,7,6,0.7,0.5
2024-02-20T0800,1386A,113.0828,22.5947,江门市,东湖,,20,16,24,14,15,42,,40,40,9,9,6,6,0.4,0.4
2024-02-20T0800,3311A,113.1075,22.5647,江门市,江海富民,,24,24,37,14,21,38,,40,40,12,9,6,6,0.5,0.4
2024-02-20T0800,3449A,113.05,22.4667,江门市,新会银湖,,33,,22,23,18,32,,41,41,13,8,4,5,0.6,0.5
2024-02-20T0800,1828A,113.227,35.2125,焦作市,市环保局,颗粒物(PM10),53,55,76,28,23,50,,44,44,8,12,2,3,0.4,0.4
2024-02-20T0800,1830A,113.1992,35.2590,焦作市,影视城,,,,,,,,,,,,,,,,
2024-02-20T0800,3169A,113.2725,35.2067,焦作市,太极体育中心,颗粒物(PM10),56,61,77,28,29,54,,46,46,13,15,9,7,0.8,0.7
2024-02-20T0800,3335A,113.3137,35.2641,焦作市,马村街道办,颗粒物(PM10),60,70,79,28,24,55,,49,49,11,14,4,7,0.2,0.2
2024-02-20T0800,3336A,113.2465,35.2373,焦作市,焦作技师学院,,46,46,71,29,27,52,,47,47,10,14,8,10,0.5,0.5
2024-02-20T0800,3477A,113.1656,35.2539,焦作市,中站许衡医院,颗粒物(PM10),54,58,68,29,29,54,,50,50,8,14,3,4,0.3,0.4
2024-02-20T0800,3981A,113.2449,35.1803,焦作市,原李万街道办,颗粒物(PM10),64,77,75,27,23,53,,46,46,17,20,4,5,0.6,0.6
2024-02-20T0800,1708A,116.3701,23.5345,揭阳市,新兴,细颗粒物(PM2.5),82,67,61,60,43,6,,4,4,32,25,10,10,1.4,1
2024-02-20T0800,1709A,116.3264,23.5443,揭阳市,西马,细颗粒物(PM2.5),88,,68,65,43,10,,9,9,25,18,9,12,1.4,0.9
2024-02-20T0800,1710A,116.3611,23.5626,揭阳市,东兴,细颗粒物(PM2.5),105,86,72,79,61,6,,7,7,26,18,9,10,1.5,1.1
2024-02-20T0800,1711A,116.4151,23.5294,揭阳市,渔湖,细颗粒物(PM2.5),64,75,67,46,34,6,,4,4,27,19,11,10,1.2,1.1
2024-02-20T0800,3320A,116.403,23.5699,揭阳市,曲溪,细颗粒物(PM2.5),77,76,61,56,39,6,,6,6,26,20,5,6,1.1,0.9
2024-02-20T0800,1944A,102.1692,38.5167,金昌市,天庆家园,颗粒物(PM10),195,339,290,49,45,61,,55,55,8,11,5,31,0.8,0.7
2024-02-20T0800,3170A,102.1864,38.5253,金昌市,市委党校,颗粒物(PM10),342,453,382,87,69,56,,50,50,3,6,4,16,0.4,1
2024-02-20T0800,4022A,102.1647,38.5371,金昌市,金川区人防中心,颗粒物(PM10),295,416,358,54,41,59,,52,52,6,9,7,16,0.5,0.8
2024-02-20T0800,1262A,119.647,29.077,金华市,十五中,,16,11,47,11,35,34,,38,38,14,16,3,4,0.5,0.6
2024-02-20T0800,1263A,119.686,29.1029,金华市,监测站,,18,18,54,7,34,34,,34,34,11,15,2,2,0.7,0.7
2024-02-20T0800,3659A,119.656,29.1131,金华市,气象局,,13,13,48,3,30,32,,35,35,13,17,2,3,0.8,0.8
2024-02-20T0800,1767A,121.1115,41.0879,锦州市,南山,,30,30,43,9,8,69,,72,72,8,4,8,9,0.6,0.4
2024-02-20T0800,1768A,121.0533,40.8434,锦州市,开发区,,22,20,39,12,10,69,,69,69,6,5,11,10,0.6,0.4
2024-02-20T0800,1769A,121.1836,41.1119,锦州市,百股街道,,30,30,49,9,10,72,,70,70,4,5,8,9,0.6,0.6
2024-02-20T0800,1770A,121.1178,41.1222,锦州市,天安街道,,34,34,52,12,10,67,,70,70,8,6,6,7,0.5,0.4
2024-02-20T0800,1771A,121.1303,41.1386,锦州市,北湖公园,,22,10,29,10,9,68,,67,67,6,5,8,10,0.6,0.6
2024-02-20T0800,2160A,112.85,35.5051,晋城市,自来水公司,,50,50,77,27,27,52,,55,55,12,20,2,3,0.5,0.6
2024-02-20T0800,2161A,112.8318,35.4936,晋城市,白云商贸,,45,45,86,19,24,49,,53,53,11,18,3,5,0.6,0.7
2024-02-20T0800,2162A,112.8508,35.4887,晋城市,市环保局,颗粒物(PM10),52,54,89,22,28,50,,53,53,13,20,2,3,0.6,0.7
2024-02-20T0800,2163A,112.8676,35.4897,晋城市,技术学院,,49,49,80,22,25,49,,53,53,14,19,3,4,0.5,0.6
2024-02-20T0800,2165A,112.8453,35.546,晋城市,白马寺,,,,,,,,,,,,,,,,
2024-02-20T0800,3620A,112.8271,35.4828,晋城市,泽州一中,,48,48,90,14,24,51,,54,54,15,19,5,6,0.6,0.7
2024-02-20T0800,2171A,112.7532,37.6945,晋中市,锦纶小区,,39,39,190,5,34,74,,70,70,8,16,7,9,0.5,0.6
2024-02-20T0800,2173A,112.7249,37.7067,晋中市,南都小区,,42,42,184,17,42,72,,67,67,10,18,7,10,0.5,0.5
2024-02-20T0800,2174A,112.6991,37.6982,晋中市,榆次区政府,,38,38,163,18,38,71,,67,67,8,16,8,11,0.4,0.5
2024-02-20T0800,2865A,112.7195,37.6828,晋中市,榆次三中,,36,36,206,7,40,72,,69,69,8,16,7,10,0.5,0.5
2024-02-20T0800,2439A,112.2014,31.0481,荆门市,竹园小学,,23,21,148,16,44,41,,40,40,12,13,7,7,0.4,0.5
2024-02-20T0800,2440A,112.1969,30.9891,荆门市,掇刀,,33,,144,23,61,44,,43,43,9,12,10,11,0.5,0.6
2024-02-20T0800,2441A,112.2213,31.0386,荆门市,石化一小,,36,,139,25,59,40,,42,42,13,14,11,18,0.4,0.5
2024-02-20T0800,3012A,112.1849,31.0362,荆门市,西山林语,,26,,132,18,51,45,,43,43,8,11,5,8,0.7,0.5
2024-02-20T0800,3547A,112.1632,31.0138,荆门市,龙泉中学南校,,26,,145,18,44,43,,40,40,9,12,8,8,0.7,0.7
2024-02-20T0800,1844A,112.2494,30.3197,荆州市,市图书馆,,22,18,149,15,57,46,,35,35,12,16,4,5,0.5,0.7
2024-02-20T0800,1845A,112.2008,30.3544,荆州市,市委党校,,24,24,152,14,54,39,,36,36,14,17,3,4,0.6,0.7
2024-02-20T0800,3194A,112.2747,30.3122,荆州市,管委会,,16,14,125,10,55,49,,37,37,8,14,6,7,0.5,0.6
2024-02-20T0800,3548A,112.1655,30.3364,荆州市,学苑路,,19,,133,13,47,39,,37,37,13,16,6,7,0.6,0.7
2024-02-20T0800,2342A,117.3102,29.3867,景德镇市,王港中学,,29,29,26,19,18,17,,11,11,5,5,3,4,0.7,0.6
2024-02-20T0800,2343A,117.2117,29.2933,景德镇市,老干部活动中心,,25,25,37,12,24,7,,17,17,13,13,9,9,0.5,0.3
2024-02-20T0800,2344A,117.1894,29.2789,景德镇市,兽医站,,39,39,33,23,20,10,,21,21,16,12,11,6,0.6,0.6
2024-02-20T0800,2345A,117.1547,29.2617,景德镇市,台达陶瓷,,23,,35,16,23,5,,5,5,15,15,6,10,0.5,0.4
2024-02-20T0800,2346A,117.2461,29.2956,景德镇市,陶研所,,24,24,31,16,18,4,,17,17,18,14,9,4,0.8,0.3
2024-02-20T0800,1803A,115.9872,29.6815,九江市,十里,,19,16,51,13,36,55,,41,41,12,18,8,9,0.5,0.8
2024-02-20T0800,1804A,115.9584,29.7046,九江市,茅山头,,15,13,46,6,38,47,,33,33,15,22,8,11,0.6,0.9
2024-02-20T0800,1805A,115.9877,29.7295,九江市,西园,,17,,48,11,36,54,,41,41,15,22,6,6,0.4,0.7
2024-02-20T0800,1806A,116.0172,29.6547,九江市,五七二七厂,,14,,45,8,30,42,,29,29,11,20,7,8,0.6,0.8
2024-02-20T0800,1808A,115.9114,29.6038,九江市,综合工业园,,15,15,44,9,43,47,,32,32,14,22,10,11,0.3,0.6
2024-02-20T0800,1809A,116.0721,29.7535,九江市,石化总厂,,22,22,50,6,33,55,,43,43,11,23,7,8,0.6,0.9
2024-02-20T0800,1810A,115.9773,29.5698,九江市,庐山气象台,,23,23,28,15,22,55,,64,64,5,5,6,8,1.0,1
2024-02-20T0800,3190A,116.0254,29.6994,九江市,外国语学校,,16,,47,11,36,44,,32,32,16,24,7,7,0.6,0.9
2024-02-20T0800,2658A,98.5061,39.7443,酒泉市,仓门街子站,颗粒物(PM10),334,447,252,83,43,70,,70,70,3,6,5,5,0.3,0.4
2024-02-20T0800,2659A,98.4989,39.7256,酒泉市,油田生活基地,颗粒物(PM10),339,451,253,78,42,72,,72,72,3,6,6,6,0.3,0.3
2024-02-20T0800,2698A,76.0072,39.4467,喀什地区,巡警大队,颗粒物(PM10),500,1516,1804,377,465,58,,56,56,8,12,2,2,0.6,0.6
2024-02-20T0800,2699A,75.9755,39.4694,喀什地区,吾办,颗粒物(PM10),500,1498,1763,408,507,54,,53,53,13,16,1,2,0.6,0.7
2024-02-20T0800,4027A,75.9483,39.4689,喀什地区,老干局,颗粒物(PM10),500,1605,1904,283,350,48,,48,48,12,13,2,3,0.9,0.9
2024-02-20T0800,1824A,114.3389,34.7781,开封市,肿瘤医院,,50,50,58,18,24,52,,50,50,10,11,1,3,0.6,0.6
2024-02-20T0800,1826A,114.2885,34.7965,开封市,世纪星幼儿园,,49,49,57,16,23,60,,57,57,13,14,3,3,0.3,0.3
2024-02-20T0800,3147A,114.3438,34.8106,开封市,龙亭公园,,39,39,58,12,16,52,,49,49,8,10,3,2,0.8,0.7
2024-02-20T0800,3210A,114.3644,34.7964,开封市,汴京公园,,45,45,58,14,18,55,,53,53,10,11,2,2,0.3,0.3
2024-02-20T0800,3473A,114.2485,34.8306,开封市,技师学院,,39,39,54,11,16,57,,51,51,8,12,1,3,0.5,0.4
2024-02-20T0800,3592A,114.4644,34.7556,开封市,祥符区生态环境局,颗粒物(PM10),55,59,50,21,17,38,,41,41,21,18,10,7,0.9,0.7
2024-02-20T0800,1951A,84.895,45.6094,克拉玛依市,长征新村,,37,37,37,15,16,50,,58,58,17,14,8,9,0.3,0.3
2024-02-20T0800,1952A,84.8988,45.5893,克拉玛依市,南林小区,,32,32,39,22,18,49,,60,60,21,14,3,4,0.4,0.5
2024-02-20T0800,1954A,84.905,44.3396,克拉玛依市,独山子区,颗粒物(PM10),53,56,69,34,33,60,,70,70,38,24,4,4,0.5,0.4
2024-02-20T0800,1955A,85.6979,46.098,克拉玛依市,乌尔禾区商贸楼,,23,23,35,3,18,60,,60,60,14,17,4,6,0.3,0.6
2024-02-20T0800,3612A,85.1045,45.6899,克拉玛依市,白碱滩区新站,,26,26,41,16,13,55,,54,54,12,14,9,10,0.4,0.4
2024-02-20T0800,2697A,76.1454,39.7142,克孜勒苏柯尔克孜自治州,市人民政府,颗粒物(PM10),500,1568,1928,310,386,56,,52,52,4,5,4,4,0.2,0.6
2024-02-20T0800,3665A,76.1658,39.7157,克孜勒苏柯尔克孜自治州,克州文化中心,颗粒物(PM10),500,1724,2156,321,402,51,,50,50,6,8,5,6,0.6,0.7
2024-02-20T0800,1450A,102.8204,24.8886,昆明市,呈贡新区,细颗粒物(PM2.5),67,,51,48,42,75,,86,86,20,13,7,6,0.8,0.7
2024-02-20T0800,1451A,102.6251,24.9608,昆明市,西山森林公园,,,,,,,,,,,,,,,,
2024-02-20T0800,1452A,102.7252,25.0902,昆明市,龙泉镇,颗粒物(PM10),58,65,39,34,30,6,,21,21,77,34,10,10,0.9,0.7
2024-02-20T0800,1453A,102.7266,25.0375,昆明市,东风东路,,42,33,41,29,32,69,,82,82,23,16,9,8,0.6,0.6
2024-02-20T0800,1454A,102.6742,25.0669,昆明市,金鼎山,细颗粒物(PM2.5),53,51,41,37,32,48,,61,61,39,20,9,8,0.9,0.8
2024-02-20T0800,1455A,102.6644,25.0401,昆明市,碧鸡广场,,49,37,40,34,33,63,,64,64,27,20,12,10,0.7,0.6
2024-02-20T0800,3179A,102.7494,25.0119,昆明市,官渡区博物馆,细颗粒物(PM2.5),52,50,50,36,40,20,,72,72,63,17,10,10,1.0,0.7
2024-02-20T0800,3375A,102.8017,24.8336,昆明市,青年创业园,细颗粒物(PM2.5),65,54,49,47,38,53,,86,86,35,12,20,12,0.9,0.6
2024-02-20T0800,3550A,102.7997,24.9786,昆明市,昆明学院,细颗粒物(PM2.5),73,66,58,53,46,55,,81,81,29,14,9,10,0.8,0.7
2024-02-20T0800,3551A,102.5967,24.6736,昆明市,晋宁区生态环境分局,细颗粒物(PM2.5),62,67,64,44,41,79,,88,88,12,11,4,6,0.5,0.5
2024-02-20T0800,3552A,102.6678,24.9856,昆明市,云天化总部,,33,29,44,23,34,87,,91,91,8,11,10,11,0.6,0.6
2024-02-20T0800,1456A,91.1319,29.6514,拉萨市,八廓街,,22,22,28,10,14,69,,64,64,23,24,6,7,0.4,0.5
2024-02-20T0800,1457A,91.1221,29.6747,拉萨市,市环保局,,26,18,38,7,18,82,,79,79,8,19,7,7,0.5,0.8
2024-02-20T0800,1458A,91.0874,29.6475,拉萨市,区监测站,,26,9,25,7,11,82,,82,82,9,17,4,4,0.5,0.6
2024-02-20T0800,1459A,91.1774,29.6541,拉萨市,西藏大学,,24,20,24,7,9,74,,71,71,13,12,4,4,0.5,0.6
2024-02-20T0800,1460A,90.9798,29.6588,拉萨市,区辐射站,,20,17,29,7,14,62,,72,72,16,16,5,6,0.5,0.5
2024-02-20T0800,1461A,91.0834,29.6292,拉萨市,拉萨火车站,,29,12,27,6,9,90,,88,88,24,21,4,5,0.3,0.5
2024-02-20T0800,2520A,109.2203,23.7256,来宾市,来宾技工学校,,43,43,49,27,29,41,,50,50,7,8,8,8,0.5,0.6
2024-02-20T0800,3535A,109.1781,23.7297,来宾市,兴宾区政府,细颗粒物(PM2.5),52,50,44,36,29,33,,48,48,19,11,5,5,0.7,0.7
2024-02-20T0800,4002A,109.2416,23.7461,来宾市,中南小学,,45,44,48,31,32,32,,42,42,17,12,6,6,0.8,0.8
2024-02-20T0800,1476A,103.631,36.1031,兰州市,兰炼宾馆,颗粒物(PM10),285,409,239,102,64,23,,26,26,30,38,15,13,0.7,0.8
2024-02-20T0800,1477A,104.1373,35.9454,兰州市,榆中兰大校区,,,,,,,,,,,,,,,,
2024-02-20T0800,1478A,103.8412,36.0726,兰州市,生物制品所,颗粒物(PM10),332,445,270,102,61,24,,26,26,31,32,12,11,0.5,0.5
2024-02-20T0800,1479A,103.831,36.0464,兰州市,铁路设计院,颗粒物(PM10),350,460,265,122,75,13,,28,28,46,40,13,12,0.8,0.8
2024-02-20T0800,3186A,103.7158,36.1058,兰州市,教育港,颗粒物(PM10),404,504,280,95,58,31,,39,39,28,29,14,10,0.8,0.7
2024-02-20T0800,3241A,103.7439,36.0842,兰州市,百合公园,颗粒物(PM10),379,483,257,123,65,31,,31,31,20,29,8,7,0.8,0.8
2024-02-20T0800,3242A,103.9611,35.998,兰州市,和平,颗粒物(PM10),389,491,320,128,84,23,,33,33,29,28,6,10,0.8,0.9
2024-02-20T0800,3245A,103.6633,36.533,兰州新区,新区管委会,颗粒物(PM10),310,428,230,98,58,37,,44,44,11,13,7,22,0.8,0.7
2024-02-20T0800,3246A,103.6975,36.4789,兰州新区,舟曲中学,颗粒物(PM10),430,530,306,107,68,36,,45,45,12,14,8,24,0.7,0.8
2024-02-20T0800,1067A,116.6708,39.5111,廊坊市,药材公司,颗粒物(PM10),60,69,30,19,9,45,,60,60,17,7,5,2,0.7,0.3
2024-02-20T0800,1068A,116.7214,39.5589,廊坊市,开发区,颗粒物(PM10),55,59,19,14,6,53,,62,62,13,6,6,2,0.8,0.3
2024-02-20T0800,1070A,116.7244,39.5269,廊坊市,北华航天学院,颗粒物(PM10),51,52,28,8,3,49,,58,58,13,6,6,2,0.8,0.3
2024-02-20T0800,2919A,116.7022,39.5453,廊坊市,河北工业大学,颗粒物(PM10),56,62,26,15,10,45,,56,56,13,6,6,2,0.8,0.3
2024-02-20T0800,2535A,103.7723,29.5462,乐山市,花湖湾,颗粒物(PM10),170,290,208,114,83,34,,55,55,16,10,8,8,0.1,0.1
2024-02-20T0800,2536A,103.7627,29.5844,乐山市,牛耳桥,颗粒物(PM10),255,388,247,108,77,26,,55,55,31,23,8,5,0.5,0.5
2024-02-20T0800,2537A,103.7508,29.6006,乐山市,市第三水厂,颗粒物(PM10),235,374,232,94,72,32,,56,56,27,23,5,5,0.4,0.5
2024-02-20T0800,2538A,103.7571,29.5664,乐山市,市监测站,颗粒物(PM10),258,390,247,108,81,30,,54,54,26,16,9,7,0.5,0.5
2024-02-20T0800,3361A,103.7311,29.5628,乐山市,理工大学,颗粒物(PM10),198,345,221,111,82,27,,53,53,25,17,6,5,0.5,0.5
2024-02-20T0800,2598A,100.2143,26.8576,丽江市,西南郊,,,,,,,,,,,,,,,,
2024-02-20T0800,2599A,100.2497,26.8802,丽江市,丽江古城,,29,29,26,19,15,72,,79,79,20,15,6,6,0.6,0.6
2024-02-20T0800,2600A,100.2203,26.8906,丽江市,市中心,,24,22,16,12,9,74,,81,81,16,10,9,8,0.6,0.5
2024-02-20T0800,1267A,119.914,28.4514,丽水市,监测站大楼,,38,,40,26,30,13,,11,11,20,21,4,4,0.8,0.9
2024-02-20T0800,1268A,119.93,28.4586,丽水市,莲都小学,细颗粒物(PM2.5),57,55,39,40,27,39,,17,17,13,18,3,3,0.5,0.6
2024-02-20T0800,1269A,119.879,28.4231,丽水市,余庄前,,46,34,31,32,25,4,,4,4,6,8,4,4,0.5,0.5
2024-02-20T0800,1173A,119.176,34.5885,连云港市,市环境监测站,,22,22,41,9,12,69,,73,73,12,13,5,6,0.6,0.6
2024-02-20T0800,3000A,119.3581,34.6972,连云港市,德源药业,,23,14,33,7,12,71,,73,73,8,8,4,4,0.3,0.3
2024-02-20T0800,3007A,119.178,34.844,连云港市,新城一中,,26,26,33,8,12,78,,75,75,10,17,8,10,0.7,0.9
2024-02-20T0800,3008A,119.3608,34.7519,连云港市,胡沟管理处,,23,22,35,9,10,72,,75,75,9,11,8,7,0.2,0.2
2024-02-20T0800,3009A,119.1478,34.5911,连云港市,矿山设计院,,22,22,42,5,11,69,,73,73,11,12,5,5,0.4,0.4
2024-02-20T0800,3434A,119.2413,34.6539,连云港市,工贸学校,,25,24,29,8,11,77,,78,78,12,13,6,7,0.2,0.3
2024-02-20T0800,3664A,119.4172,34.7341,连云港市,连云街道,,24,24,33,10,12,74,,76,76,7,9,3,3,0.3,0.3
2024-02-20T0800,2571A,102.3431,27.8099,凉山彝族自治州,青龙寺,,23,20,37,4,6,71,,82,82,3,3,4,5,0.7,0.8
2024-02-20T0800,2572A,102.2721,27.8415,凉山彝族自治州,邛海宾馆,,27,14,21,12,16,84,,83,83,5,6,17,11,0.6,0.7
2024-02-20T0800,2573A,102.2625,27.898,凉山彝族自治州,西昌市政府,,26,22,23,14,15,81,,84,84,9,6,16,11,1.2,0.8
2024-02-20T0800,2574A,102.2685,27.8851,凉山彝族自治州,凉山州政府,,,22,23,14,14,78,,80,80,,6,12,9,1.0,0.7
2024-02-20T0800,2575A,102.237,27.8914,凉山彝族自治州,长安,,28,26,25,14,14,87,,84,84,5,8,11,14,0.8,1
2024-02-20T0800,2212A,123.2,41.1953,辽阳市,宏伟区,,19,19,44,11,13,51,,54,54,10,8,13,11,0.7,0.6
2024-02-20T0800,2213A,123.1683,41.2495,辽阳市,新华园,,20,20,44,7,14,54,,56,56,10,9,18,15,0.7,0.6
2024-02-20T0800,2214A,123.2354,41.2639,辽阳市,滨河路,,26,19,48,18,17,53,,54,54,8,7,7,8,0.6,0.6
2024-02-20T0800,2215A,123.149,41.2991,辽阳市,铁西工业园,,19,16,42,10,12,59,,59,59,10,10,14,11,0.5,0.5
2024-02-20T0800,2227A,125.1358,42.8845,辽源市,环保局,,30,30,29,15,14,53,,58,58,16,11,59,18,0.5,0.5
2024-02-20T0800,3239A,125.0764,42.9078,辽源市,银鹰制药,,38,38,32,18,17,58,,57,57,12,9,10,8,0.5,0.5
2024-02-20T0800,1625A,115.9848,36.4372,聊城市,区政府,,34,34,40,7,15,65,,65,65,7,9,7,5,0.4,0.5
2024-02-20T0800,2878A,116.0072,36.4343,聊城市,聊大东校,,34,34,40,12,19,71,,68,68,7,12,7,7,0.2,0.4
2024-02-20T0800,3200A,115.9819,36.4978,聊城市,监控中心,,39,39,47,5,13,70,,70,70,4,7,4,5,0.3,0.4
2024-02-20T0800,3513A,116.0445,36.4361,聊城市,九州社区,颗粒物(PM10),54,57,54,3,12,70,,66,66,6,10,6,4,0.2,0.3
2024-02-20T0800,4018A,116.0567,36.4608,聊城市,星美广场,颗粒物(PM10),53,56,64,8,13,66,,62,62,6,13,7,6,0.4,0.6
2024-02-20T0800,2632A,94.3681,29.6376,林芝市,林芝监测站,,32,8,11,4,3,101,,102,102,3,2,5,5,0.5,0.5
2024-02-20T0800,2633A,94.3616,29.6616,林芝市,林芝人民医院,,31,7,11,6,6,98,,98,98,4,4,10,10,0.5,0.5
2024-02-20T0800,2603A,100.0781,23.8982,临沧市,市环保局,,38,,27,26,25,35,,46,46,12,10,6,6,0.4,0.3
2024-02-20T0800,2604A,100.0894,23.8822,临沧市,市气象局,,45,40,36,31,30,40,,43,43,11,11,6,6,0.4,0.4
2024-02-20T0800,1733A,111.5531,36.0783,临汾市,临钢医院,颗粒物(PM10),58,66,214,17,48,57,,56,56,7,16,4,9,0.7,0.6
2024-02-20T0800,1734A,111.5028,36.0714,临汾市,技工学校,颗粒物(PM10),56,61,199,25,47,59,,59,59,18,19,5,10,0.6,0.5
2024-02-20T0800,1736A,111.5018,36.0855,临汾市,市委,颗粒物(PM10),51,52,207,22,46,62,,62,62,8,14,4,9,0.9,0.7
2024-02-20T0800,3018A,111.505,36.1014,临汾市,唐尧大酒店,颗粒物(PM10),53,55,186,25,48,59,,59,59,10,19,6,10,0.7,0.6
2024-02-20T0800,3668A,111.5036,36.0414,临汾市,城南,,50,50,204,28,52,57,,57,57,9,16,4,9,0.7,0.6
2024-02-20T0800,2667A,103.2069,35.5993,临夏回族自治州,环保局,颗粒物(PM10),171,292,279,31,24,8,,20,20,30,17,22,20,1.9,0.9
2024-02-20T0800,2668A,103.2417,35.6057,临夏回族自治州,建设大厦,颗粒物(PM10),156,262,270,43,31,13,,22,22,18,15,16,17,1.2,0.8
2024-02-20T0800,1618A,118.3429,35.0532,临沂市,沂河小区,,29,29,36,13,18,71,,73,73,9,9,4,3,0.5,0.4
2024-02-20T0800,1619A,118.295,35.0583,临沂市,鲁南制药厂,,29,29,34,7,9,75,,77,77,8,9,3,3,0.3,0.3
2024-02-20T0800,1620A,118.2794,34.9976,临沂市,新光毛纺厂,,19,19,32,6,12,60,,59,59,4,7,4,3,0.4,0.4
2024-02-20T0800,1621A,118.3956,35.0888,临沂市,河东保险公司,,23,22,29,6,8,71,,73,73,14,13,4,3,0.3,0.3
2024-02-20T0800,3370A,118.3564,35.0215,临沂市,十里堡居委,,24,24,32,7,7,71,,76,76,16,17,1,2,0.3,0.3
2024-02-20T0800,3496A,118.3604,35.1084,临沂市,南坊新区,,24,24,31,5,8,73,,74,74,4,6,6,6,0.6,0.5
2024-02-20T0800,3860A,118.3920,35.0300,临沂市,皇山花园小区,,24,24,36,11,11,69,,75,75,4,3,7,6,0.5,0.4
2024-02-20T0800,1870A,109.4856,24.3895,柳州市,柳东小学,,49,36,44,34,34,48,,55,55,15,15,6,6,0.3,0.4
2024-02-20T0800,1871A,109.4157,24.3277,柳州市,环保监测站,细颗粒物(PM2.5),55,46,48,39,33,43,,50,50,12,11,8,7,0.7,0.7
2024-02-20T0800,1872A,109.389,24.341,柳州市,河西水厂,,45,45,52,26,33,44,,52,52,10,10,8,7,0.5,0.5
2024-02-20T0800,1873A,109.4311,24.2921,柳州市,市四中,细颗粒物(PM2.5),53,54,44,37,28,36,,47,47,19,12,8,7,0.8,0.7
2024-02-20T0800,1874A,109.4006,24.3631,柳州市,市九中,细颗粒物(PM2.5),57,51,55,40,33,40,,48,48,9,8,4,4,0.6,0.6
2024-02-20T0800,1875A,109.4958,24.3134,柳州市,古亭山,,38,38,44,23,26,45,,52,52,8,10,6,6,0.7,0.6
2024-02-20T0800,3402A,109.5422,24.3996,柳州市,市二中,,43,43,42,28,28,43,,53,53,10,10,6,6,0.6,0.6
2024-02-20T0800,2307A,116.5079,31.737,六安市,监测大楼,,17,16,38,11,42,53,,56,56,14,15,4,4,0.4,0.6
2024-02-20T0800,2308A,116.4738,31.7643,六安市,皖西学院,,19,13,40,8,36,58,,60,60,11,12,3,3,0.3,0.6
2024-02-20T0800,2309A,116.4996,31.7905,六安市,朝阳厂,,18,14,37,11,39,55,,58,58,8,10,3,4,0.3,0.5
2024-02-20T0800,2310A,116.5567,31.7886,六安市,开发区,,19,19,43,5,33,55,,57,57,9,11,3,3,0.3,0.6
2024-02-20T0800,2576A,104.8,26.5892,六盘水市,窑上,,,,,,,,,,,,,,,,
2024-02-20T0800,2577A,104.83,26.5917,六盘水市,黄土坡,,30,28,27,13,16,94,,99,99,4,5,6,7,0.4,0.4
2024-02-20T0800,2578A,104.89,26.5939,六盘水市,水钢,,33,31,40,23,16,91,,96,96,9,8,5,5,0.5,0.5
2024-02-20T0800,2579A,104.8475,26.5894,六盘水市,民中,,30,28,28,17,16,94,,98,98,4,6,6,6,0.3,0.3
2024-02-20T0800,2580A,104.9544,26.5506,六盘水市,双水,,31,27,31,17,16,97,,102,102,4,6,7,7,0.3,0.3
2024-02-20T0800,2335A,117.0189,25.1181,龙岩市,龙岩师专,,,,,,,,,,,,,,,,
2024-02-20T0800,2336A,117.0217,25.1033,龙岩市,龙岩市监测站,,29,22,20,20,17,8,,13,13,18,11,3,3,0.7,0.5
2024-02-20T0800,2337A,117.0258,25.0661,龙岩市,闽西职业技术学院,,35,27,22,24,15,14,,16,16,12,9,4,3,0.4,0.4
2024-02-20T0800,2338A,117.0196,25.0306,龙岩市,龙岩学院,,27,27,19,16,14,22,,26,26,5,5,2,3,0.4,0.4
2024-02-20T0800,2665A,105.0822,33.3261,陇南市,汉王镇固水子,,,,,,,,,,,,,,,,
2024-02-20T0800,2885A,104.9339,33.3826,陇南市,滨江中学,颗粒物(PM10),395,496,447,114,97,40,,46,46,11,8,12,7,0.9,0.9
2024-02-20T0800,3247A,104.955,33.371,陇南市,市总工会,颗粒物(PM10),405,505,421,134,111,40,,48,48,14,9,9,5,0.7,0.7
2024-02-20T0800,2487A,111.9589,27.8901,娄底市,电视发射台,,18,18,134,6,52,23,,35,35,12,17,4,5,0.5,0.5
2024-02-20T0800,2488A,111.9975,27.725,娄底市,市监测站,,8,,147,3,55,23,,38,38,12,14,2,3,0.3,0.3
2024-02-20T0800,2489A,112.0194,27.7314,娄底市,市委党校,,16,16,137,7,59,18,,32,32,13,13,9,10,0.5,0.5
2024-02-20T0800,2490A,111.9561,27.7569,娄底市,涟钢,,12,12,153,3,60,18,,30,30,13,16,8,14,0.8,1.5
2024-02-20T0800,2491A,111.9892,27.7044,娄底市,市政府,,13,13,143,4,59,20,,36,36,15,15,7,8,0.6,0.6
2024-02-20T0800,1893A,105.4324,28.9634,泸州市,九狮山,颗粒物(PM10),149,248,162,87,70,11,,26,26,15,14,4,7,0.7,0.6
2024-02-20T0800,1894A,105.4427,28.9063,泸州市,小市上码头,颗粒物(PM10),187,324,178,100,80,16,,44,44,36,21,5,7,0.5,0.6
2024-02-20T0800,1895A,105.4241,28.8573,泸州市,兰田宪桥,颗粒物(PM10),166,282,161,95,81,21,,44,44,25,18,6,8,0.6,0.6
2024-02-20T0800,1896A,105.4379,28.8833,泸州市,市环监站,颗粒物(PM10),179,308,161,106,74,18,,48,48,33,18,6,7,0.7,0.6
2024-02-20T0800,3490A,105.3617,28.7703,泸州市,纳溪区环保局,细颗粒物(PM2.5),117,182,146,88,78,9,,22,22,26,25,6,8,0.6,0.7
2024-02-20T0800,2183A,111.1406,37.5211,吕梁市,环保局,,26,26,241,14,74,58,,39,39,6,23,2,5,0.3,0.4
2024-02-20T0800,2185A,111.1297,37.5136,吕梁市,自来水公司,,32,32,233,13,71,63,,38,38,7,24,4,6,0.5,0.5
2024-02-20T0800,2867A,111.1283,37.51,吕梁市,马茂庄小学,,20,20,251,13,66,46,,25,25,18,33,3,4,0.4,0.4
2024-02-20T0800,1812A,112.3931,34.6516,洛阳市,市委党校,颗粒物(PM10),58,65,139,18,41,63,,58,58,13,18,2,3,0.3,0.3
2024-02-20T0800,1814A,112.4657,34.6871,洛阳市,豫西宾馆,颗粒物(PM10),95,139,152,21,43,70,,61,61,12,17,7,7,0.1,0.1
2024-02-20T0800,1815A,112.494,34.6886,洛阳市,河南林校,颗粒物(PM10),72,93,138,18,43,66,,57,57,8,13,6,6,0.2,0.3
2024-02-20T0800,1816A,112.3844,34.623,洛阳市,开发区管委会,颗粒物(PM10),57,63,135,17,41,62,,57,57,5,10,5,4,0.5,0.4
2024-02-20T0800,1817A,112.4267,34.6258,洛阳市,市委新办公区,颗粒物(PM10),53,55,138,19,48,60,,57,57,10,14,4,3,0.5,0.5
2024-02-20T0800,3340A,112.6005,34.6326,洛阳市,伊滨,颗粒物(PM10),52,54,157,18,40,61,,56,56,11,17,3,3,0.5,0.4
2024-02-20T0800,3341A,112.4951,34.6332,洛阳市,中移产业园,颗粒物(PM10),54,58,132,17,38,64,,60,60,2,8,5,4,0.2,0.2
2024-02-20T0800,3593A,112.5736,34.8993,洛阳市,吉利监测站,,46,46,94,18,33,51,,49,49,9,16,2,2,0.3,0.2
2024-02-20T0800,3635A,112.3677,34.662,洛阳市,河科大西苑校区,颗粒物(PM10),65,79,151,18,43,63,,57,57,9,13,3,3,0.3,0.3
2024-02-20T0800,3636A,112.4388,34.6781,洛阳市,英才小学,颗粒物(PM10),74,97,149,15,45,63,,55,55,10,12,4,4,0.3,0.4
2024-02-20T0800,2399A,114.051,33.5699,漯河市,三五一五工厂,,33,27,42,23,30,63,,58,58,5,8,7,7,0.4,0.5
2024-02-20T0800,2400A,114.0055,33.5698,漯河市,漯河大学,,41,41,48,19,25,65,,58,58,8,12,4,4,0.3,0.4
2024-02-20T0800,2401A,114.0138,33.5828,漯河市,市水利局,,41,41,45,19,29,66,,58,58,3,7,7,7,0.4,0.5
2024-02-20T0800,2402A,114.0261,33.5698,漯河市,市广电局,,36,34,45,25,31,67,,60,60,1,6,1,2,0.2,0.4
2024-02-20T0800,3478A,113.9749,33.5664,漯河市,市图书馆,,42,42,48,22,29,67,,58,58,8,12,6,7,0.5,0.5
2024-02-20T0800,3479A,114.0967,33.5906,漯河市,召陵区卫健委,,40,40,48,16,26,65,,60,60,6,9,4,5,0.5,0.6
2024-02-20T0800,1798A,118.5092,31.6837,马鞍山市,湖东路四小,,19,18,47,6,24,59,,62,62,12,15,8,8,0.6,0.8
2024-02-20T0800,1799A,118.5024,31.6449,马鞍山市,开发区,,20,16,45,8,27,62,,64,64,10,16,4,5,0.5,0.7
2024-02-20T0800,1800A,118.5228,31.7231,马鞍山市,慈湖,,23,,40,16,40,55,,61,61,18,19,6,7,0.4,0.7
2024-02-20T0800,1802A,118.6245,31.7241,马鞍山市,濮塘,,18,14,42,9,25,56,,57,57,8,12,4,4,0.5,0.7
2024-02-20T0800,3633A,118.4918,31.6809,马鞍山市,雨山,,19,16,34,7,24,60,,64,64,9,15,5,6,0.6,0.8
2024-02-20T0800,1686A,111.0286,21.4688,茂名市,电白南海,,27,27,30,14,16,45,,51,51,10,8,9,9,0.4,0.4
2024-02-20T0800,1687A,110.9294,21.6533,茂名市,茂石化七小,,29,29,32,14,22,45,,51,51,10,9,8,9,0.5,0.4
2024-02-20T0800,1688A,110.9107,21.6687,茂名市,健康路,,28,19,27,19,18,41,,47,47,10,7,6,6,0.6,0.5
2024-02-20T0800,1689A,110.8592,21.6828,茂名市,高岭,,28,22,33,19,24,40,,44,44,10,8,8,7,0.7,0.7
2024-02-20T0800,3450A,111.01,21.5165,茂名市,电白水东,,18,12,18,12,14,41,,49,49,11,7,5,5,0.6,0.5
2024-02-20T0800,2539A,104.0308,30.0478,眉山市,黑龙滩水库,颗粒物(PM10),181,312,279,65,64,38,,49,49,9,4,4,5,0,0
2024-02-20T0800,2540A,103.8416,30.0874,眉山市,气象局,颗粒物(PM10),256,389,257,119,80,24,,38,38,29,20,6,12,0.4,0.5
2024-02-20T0800,3137A,103.8578,30.0744,眉山市,市委党校,颗粒物(PM10),337,449,322,114,85,25,,38,38,23,17,9,11,0.4,0.4
2024-02-20T0800,3148A,103.8291,30.0564,眉山市,区人社局,颗粒物(PM10),213,359,260,122,86,31,,40,40,27,24,16,13,0.4,0.5
2024-02-20T0800,1690A,116.1231,24.3284,梅州市,梅江月梅,,38,32,25,26,22,17,,16,16,17,13,9,9,0.5,0.5
2024-02-20T0800,1691A,116.0797,24.2719,梅州市,梅县新城,,39,39,33,26,26,15,,12,12,21,17,6,6,0.7,0.6
2024-02-20T0800,1692A,116.1248,24.2654,梅州市,环境监控中心,,42,36,30,29,24,4,,7,7,21,19,5,5,0.6,0.5
2024-02-20T0800,3315A,116.1233,24.2991,梅州市,梅龙,,40,39,27,28,23,6,,12,12,23,17,6,6,0.9,0.7
2024-02-20T0800,1878A,104.7778,31.4741,绵阳市,富乐山,颗粒物(PM10),395,496,507,167,161,48,,54,54,7,5,7,7,0.5,0.5
2024-02-20T0800,1879A,104.7563,31.4535,绵阳市,市人大,颗粒物(PM10),452,552,462,168,134,32,,50,50,26,13,6,6,0.5,0.4
2024-02-20T0800,1880A,104.6697,31.4668,绵阳市,高新区自来水公司,颗粒物(PM10),436,536,463,173,144,30,,49,49,29,14,7,7,0.5,0.4
2024-02-20T0800,1881A,104.7287,31.5075,绵阳市,三水厂,颗粒物(PM10),426,526,429,172,136,22,,46,46,30,10,5,5,0.4,0.4
2024-02-20T0800,3491A,104.69,31.5322,绵阳市,西科大附属小学,颗粒物(PM10),400,500,446,168,139,24,,42,42,23,9,5,6,0.5,0.4
2024-02-20T0800,3492A,104.5648,31.5343,绵阳市,安州区旅游局,颗粒物(PM10),466,566,479,147,118,34,,41,41,17,12,7,5,0.7,0.6
2024-02-20T0800,1784A,129.61,44.561,牡丹江市,环保大楼,,40,38,31,28,27,55,,66,66,20,10,9,8,0.5,0.4
2024-02-20T0800,1785A,129.6115,44.5782,牡丹江市,文化广场,颗粒物(PM10),51,51,29,33,24,46,,58,58,25,12,14,10,0.6,0.4
2024-02-20T0800,1786A,129.5904,44.5963,牡丹江市,第一医院,,50,36,28,35,34,50,,62,62,21,7,12,9,0.6,0.4
2024-02-20T0800,1787A,129.6364,44.6075,牡丹江市,机车工厂,,45,43,41,31,26,47,,58,58,20,6,10,8,0.5,0.5
2024-02-20T0800,1788A,129.6386,44.5462,牡丹江市,第一中学,,43,43,29,28,22,51,,62,62,13,6,11,8,0.6,0.5
2024-02-20T0800,2531A,105.0703,29.61,内江市,市监测站,颗粒物(PM10),191,332,252,125,107,38,,53,53,18,18,9,9,0.6,0.6
2024-02-20T0800,2532A,105.0717,29.5947,内江市,东兴区政府,颗粒物(PM10),196,342,276,122,100,34,,52,52,20,15,10,10,0.7,0.6
2024-02-20T0800,2533A,105.0653,29.5817,内江市,内江二中,颗粒物(PM10),181,312,251,128,102,40,,55,55,18,14,5,5,0.6,0.6
2024-02-20T0800,2534A,105.0406,29.5822,内江市,内江日报社,颗粒物(PM10),210,357,269,124,98,42,,52,52,13,13,9,10,0.5,0.6
2024-02-20T0800,2628A,92.0657,31.4846,那曲市,那曲监测站,,20,13,32,5,16,64,,45,45,5,8,5,8,0.6,1
2024-02-20T0800,3128A,92.0506,31.4797,那曲市,那曲会议中心,,20,17,23,8,9,64,,57,57,7,5,7,6,0.4,0.5
2024-02-20T0800,1290A,115.8931,28.6843,南昌市,省外办,,21,21,67,14,46,24,,14,14,8,19,4,6,0.6,1
2024-02-20T0800,1291A,115.8886,28.7003,南昌市,省林业公司,,13,9,51,9,34,25,,13,13,10,20,4,7,0.8,1
2024-02-20T0800,1292A,115.8126,28.7442,南昌市,林科所,,9,7,45,5,33,26,,15,15,14,21,4,6,0.6,0.6
2024-02-20T0800,1294A,115.8518,28.687,南昌市,建工学校,,22,,51,15,31,25,,13,13,8,17,4,5,0.5,0.7
2024-02-20T0800,1295A,115.8921,28.6424,南昌市,象湖,,18,18,49,11,32,24,,15,15,11,22,4,5,0.7,1
2024-02-20T0800,1296A,115.7423,28.7996,南昌市,武术学校,,16,16,30,8,44,28,,17,17,6,7,12,14,0.4,0.5
2024-02-20T0800,1298A,115.9314,28.6842,南昌市,省站,,18,18,61,12,39,27,,16,16,6,14,5,7,0.5,0.8
2024-02-20T0800,3046A,115.9084,28.6062,南昌市,机电学校,,25,17,56,17,34,25,,16,16,8,17,6,8,0.8,1
2024-02-20T0800,3690A,115.9721,28.7031,南昌市,外国语学校,,36,,51,25,39,29,,16,16,9,16,3,4,0.8,0.9
2024-02-20T0800,1905A,106.056,30.8064,南充市,西山风景区,颗粒物(PM10),324,439,417,167,152,45,,44,44,6,9,2,3,0.4,0.5
2024-02-20T0800,1906A,106.0789,30.8023,南充市,南充市委,颗粒物(PM10),327,441,466,153,143,33,,39,39,16,14,4,6,0.4,0.3
2024-02-20T0800,1907A,106.1031,30.8217,南充市,南充炼油厂,颗粒物(PM10),380,484,484,179,168,36,,40,40,16,12,5,5,0.3,0.3
2024-02-20T0800,1908A,106.1064,30.7856,南充市,高坪区监测站,颗粒物(PM10),408,508,504,177,156,34,,40,40,19,15,7,7,0.4,0.3
2024-02-20T0800,1909A,106.0642,30.7636,南充市,嘉陵区环保局,颗粒物(PM10),362,469,476,156,143,35,,40,40,20,16,3,4,0.4,0.4
2024-02-20T0800,1910A,106.1087,30.8388,南充市,市环境监测站,颗粒物(PM10),359,467,476,155,147,44,,44,44,11,11,7,7,0.3,0.3
2024-02-20T0800,1151A,118.8086,32.1065,南京市,迈皋桥,,15,13,29,7,21,46,,52,52,11,13,3,4,0.2,0.4
2024-02-20T0800,1152A,118.7538,32.0551,南京市,草场门,,17,9,26,2,20,54,,63,63,26,21,1,1,0.5,0.7
2024-02-20T0800,1153A,118.7794,32.0745,南京市,山西路,,,,26,9,24,48,,54,54,16,16,5,4,0.5,0.6
2024-02-20T0800,1154A,118.7752,32.0023,南京市,中华门,,,7,30,5,23,,,63,63,,13,6,6,0.6,0.7
2024-02-20T0800,1155A,118.8109,32.0309,南京市,瑞金路,,16,5,32,5,23,51,,58,58,12,12,4,4,0.5,0.7
2024-02-20T0800,1156A,118.7997,32.0754,南京市,玄武湖,,21,21,35,6,19,58,,64,64,23,26,6,6,0.3,0.5
2024-02-20T0800,1157A,118.6414,32.0931,南京市,浦口,,,,34,,22,,,24,,,14,,3,,0.6
2024-02-20T0800,1158A,118.7356,31.9996,南京市,奥体中心,,18,9,36,9,24,57,,66,66,15,12,5,5,0.4,0.5
2024-02-20T0800,1159A,118.9125,32.1028,南京市,仙林大学城,,18,9,27,5,20,56,,62,62,13,14,4,4,0.5,0.7
2024-02-20T0800,3422A,118.8436,31.9198,南京市,江宁彩虹桥,,19,19,31,9,24,60,,66,66,8,11,3,3,0.5,0.6
2024-02-20T0800,3423A,119.0138,31.6494,南京市,溧水永阳,,19,,29,10,25,60,,63,63,8,14,4,4,0.6,0.8
2024-02-20T0800,3424A,118.879,31.3302,南京市,高淳老职中,,19,18,48,13,25,55,,58,58,8,11,4,4,0.3,0.6
2024-02-20T0800,3427A,118.8554,32.3578,南京市,六合雄州,,21,12,50,6,20,66,,64,64,9,13,1,2,0.2,0.5
2024-02-20T0800,1401A,108.3103,22.7881,南宁市,二十一中,,28,24,37,19,24,34,,49,49,19,12,4,4,0.8,0.7
2024-02-20T0800,1402A,108.3141,22.8528,南宁市,北湖,,36,36,38,17,25,10,,30,30,34,14,5,5,0.8,0.8
2024-02-20T0800,1403A,108.3206,22.8225,南宁市,市监测站,,25,25,36,17,24,27,,49,49,29,14,5,5,0.6,0.6
2024-02-20T0800,1404A,108.3829,22.8037,南宁市,大自然花园,,28,26,34,19,23,27,,52,52,20,10,6,7,0.6,0.6
2024-02-20T0800,1405A,108.4394,22.7904,南宁市,仙葫,,28,28,36,19,23,17,,39,39,25,11,6,7,0.7,0.7
2024-02-20T0800,1406A,108.2397,22.8467,南宁市,区农职院,,36,25,41,25,26,16,,28,28,31,20,8,8,0.7,0.7
2024-02-20T0800,1407A,108.3275,22.735,南宁市,英华嘉园,,26,26,42,16,27,20,,34,34,28,21,6,5,0.5,0.5
2024-02-20T0800,1408A,108.2257,22.7757,南宁市,沙井镇街道办,颗粒物(PM10),52,54,41,24,26,3,,18,18,38,21,5,5,0.7,0.6
2024-02-20T0800,3401A,108.4834,22.7618,南宁市,红星社区,,32,32,33,18,22,20,,39,39,16,9,8,8,0.6,0.7
2024-02-20T0800,2331A,118.0966,26.6761,南平市,茫荡山,,,,,,,,,,,,,,,,
2024-02-20T0800,2332A,118.1681,26.6369,南平市,南平市监测站,,38,34,41,26,32,5,,1,1,18,22,5,5,1.0,1.2
2024-02-20T0800,2333A,118.1825,26.6489,南平市,南平铝业有限公司,,36,29,39,25,27,6,,6,6,16,16,6,6,0.6,0.7
2024-02-20T0800,2334A,118.1756,26.6272,南平市,南平七中,,28,25,35,19,28,5,,3,3,17,20,4,4,0.6,0.7
2024-02-20T0800,1168A,120.9098,31.9663,南通市,狼山街道,,20,9,25,9,20,64,,67,67,11,11,8,8,0.5,0.5
2024-02-20T0800,1169A,120.86,32.0005,南通市,虹桥,,22,21,33,15,22,57,,61,61,13,10,4,4,0.3,0.4
2024-02-20T0800,1170A,120.87,32.02,南通市,城中,,20,20,32,10,20,57,,63,63,16,10,2,2,0.7,0.6
2024-02-20T0800,1171A,120.94,31.93,南通市,星湖花园,,19,9,28,8,17,60,,64,64,17,16,4,5,0.3,0.3
2024-02-20T0800,1172A,120.81,32.0417,南通市,紫琅学院,,21,10,22,6,14,66,,69,69,13,14,6,6,0.5,0.5
2024-02-20T0800,3291A,121.067,32.062,南通市,通州监测站,,21,14,36,14,24,66,,68,68,7,8,7,7,0.4,0.5
2024-02-20T0800,3432A,120.9348,31.9883,南通市,环境教育馆,,20,9,30,8,21,63,,66,66,12,12,6,6,0.2,0.3
2024-02-20T0800,2404A,112.5224,33.0122,南阳市,瓦房庄,,43,33,87,30,41,54,,56,56,11,12,6,7,0.4,0.4
2024-02-20T0800,2405A,112.5003,32.9735,南阳市,汉画馆,,35,35,97,21,36,52,,55,55,13,14,4,4,0.5,0.4
2024-02-20T0800,2406A,112.5573,33.027,南阳市,气象站,,39,33,84,27,32,51,,54,54,13,15,3,4,0.6,0.5
2024-02-20T0800,2407A,112.5481,32.9689,南阳市,理工学院,,32,32,93,21,33,52,,54,54,10,12,5,6,0.5,0.5
2024-02-20T0800,4008A,112.5234,32.9922,南阳市,卧龙区政府,,31,31,98,19,32,51,,54,54,12,13,5,6,0.6,0.6
2024-02-20T0800,1234A,121.8358,29.911,宁波市,区环保大楼,,12,9,45,2,30,36,,37,37,21,35,5,9,0.4,0.5
2024-02-20T0800,1235A,121.56,29.82,宁波市,万里学院,,14,9,39,2,37,42,,39,39,18,20,7,8,0.9,0.9
2024-02-20T0800,1236A,121.713,29.9572,宁波市,龙赛医院,,15,8,41,6,18,47,,49,49,18,21,5,6,0.5,0.6
2024-02-20T0800,1239A,121.633,29.7733,宁波市,钱湖水厂,,15,,30,6,24,45,,42,42,16,14,5,6,0.6,0.7
2024-02-20T0800,1240A,121.5856,29.8635,宁波市,太古小学,,15,10,33,3,25,46,,44,44,18,21,6,8,0.7,0.7
2024-02-20T0800,1241A,121.524,29.8674,宁波市,市环境监测中心,,16,5,33,3,18,50,,48,48,15,17,5,6,0.8,0.9
2024-02-20T0800,2871A,121.6147,29.9017,宁波市,万里国际学校,,16,16,35,6,25,47,,46,46,16,18,7,8,0.7,0.8
2024-02-20T0800,3710A,121.5594,29.8975,宁波市,白沙活动中心,,15,6,41,4,19,46,,45,45,12,15,6,7,0.7,0.7
2024-02-20T0800,2339A,119.5001,26.6946,宁德市,金涵水库,,,,,,,,,,,,,,,,
2024-02-20T0800,2341A,119.5388,26.6612,宁德市,宁德市监测站,细颗粒物(PM2.5),53,48,49,37,38,1,,1,1,26,27,6,8,0.7,1.1
2024-02-20T0800,3209A,119.5231,26.6562,宁德市,宁德一中,,39,39,46,26,31,3,,6,6,21,18,5,6,0.9,1
2024-02-20T0800,2618A,98.8601,25.8567,怒江傈僳族自治州,州监测站,,35,33,28,24,18,38,,50,50,10,8,10,10,0.4,0.4
2024-02-20T0800,2619A,98.8546,25.8417,怒江傈僳族自治州,泸水一中,,33,,32,23,20,28,,34,34,12,17,8,9,0.5,0.5
2024-02-20T0800,1888A,101.6891,26.571,攀枝花市,弄弄坪,,28,24,32,19,20,74,,79,79,15,22,9,21,0.6,1.2
2024-02-20T0800,1889A,101.5769,26.5928,攀枝花市,河门口,颗粒物(PM10),55,59,35,28,18,13,,42,42,43,19,45,20,1.3,0.8
2024-02-20T0800,1890A,101.7169,26.585,攀枝花市,炳草岗,,44,44,29,23,16,29,,66,66,50,23,13,17,0.9,0.9
2024-02-20T0800,1891A,101.7369,26.5008,攀枝花市,仁和,,18,9,13,7,9,55,,67,67,19,13,7,6,0.5,0.5
2024-02-20T0800,2835A,101.7227,26.567,攀枝花市,四十中小,,31,31,30,14,16,59,,94,94,34,16,9,15,0.5,0.5
2024-02-20T0800,1604A,122.0303,41.1489,盘锦市,开发区,,22,15,44,12,10,68,,70,70,7,7,6,5,0.6,0.5
2024-02-20T0800,1605A,122.0485,41.0883,盘锦市,兴隆台,,24,24,46,11,11,66,,70,70,8,6,10,9,0.5,0.5
2024-02-20T0800,1606A,121.8297,41.1028,盘锦市,新生街道,,21,21,39,8,8,63,,64,64,9,10,8,9,0.4,0.4
2024-02-20T0800,1832A,113.3257,33.742,平顶山市,新华旅馆,颗粒物(PM10),57,64,74,26,30,50,,58,58,9,9,5,6,0.2,0.2
2024-02-20T0800,1833A,113.2919,33.737,平顶山市,规划设计院,颗粒物(PM10),51,51,61,22,26,51,,54,54,9,12,3,3,0.2,0.2
2024-02-20T0800,1834A,113.182,33.774,平顶山市,平顶山工学院,颗粒物(PM10),51,52,74,14,23,59,,60,60,16,17,3,3,0.6,0.5
2024-02-20T0800,3204A,113.3025,33.73,平顶山市,规划局,颗粒物(PM10),54,58,69,30,33,47,,50,50,11,11,5,6,0.4,0.4
2024-02-20T0800,3594A,112.8867,33.9116,平顶山市,石龙区,,50,50,136,25,45,61,,67,67,5,10,4,5,0.4,0.4
2024-02-20T0800,2656A,106.6692,35.5461,平凉市,聚贤嘉苑,颗粒物(PM10),273,401,390,53,53,52,,60,60,16,14,7,7,0.4,0.3
2024-02-20T0800,2657A,106.7021,35.5307,平凉市,博物馆,颗粒物(PM10),272,400,378,58,55,52,,61,61,10,4,7,5,0.4,0.3
2024-02-20T0800,2347A,114.0997,27.5002,萍乡市,武功山,细颗粒物(PM2.5),98,96,53,73,39,33,,40,40,11,8,13,13,0.7,0.5
2024-02-20T0800,2348A,113.8385,27.6434,萍乡市,中医院,颗粒物(PM10),87,124,81,60,47,11,,24,24,20,20,9,9,1.9,1.1
2024-02-20T0800,2349A,113.8493,27.6253,萍乡市,市政府车库,颗粒物(PM10),68,86,77,33,43,19,,29,29,15,17,6,8,1.1,1
2024-02-20T0800,2350A,113.8676,27.6435,萍乡市,市环保局,颗粒物(PM10),69,88,76,41,42,16,,28,28,18,17,9,12,1.3,1.1
2024-02-20T0800,2351A,113.866,27.6198,萍乡市,安源区政府,细颗粒物(PM2.5),83,81,79,61,47,20,,30,30,20,22,10,10,0.7,0.8
2024-02-20T0800,2319A,119.0141,25.4325,莆田市,荔城区仓后路,细颗粒物(PM2.5),57,42,59,40,44,19,,11,11,12,19,8,8,0.8,1
2024-02-20T0800,2320A,119.0015,25.4553,莆田市,莆田市监测站,,42,,40,29,29,12,,16,16,10,13,5,5,0.7,0.7
2024-02-20T0800,2321A,119.1119,25.4561,莆田市,涵江区六中,细颗粒物(PM2.5),54,,77,38,63,18,,5,5,13,21,9,11,0.7,0.9
2024-02-20T0800,2322A,119.1013,25.3215,莆田市,秀屿区政府,细颗粒物(PM2.5),57,42,35,40,28,10,,17,17,26,19,7,7,0.9,0.7
2024-02-20T0800,2323A,118.981,25.4792,莆田市,东圳水库,,,,,,,,,,,,,,,,
2024-02-20T0800,2392A,115.0312,35.7636,濮阳市,环保局,,34,34,46,13,18,58,,57,57,12,13,7,6,0.3,0.4
2024-02-20T0800,2394A,115.0574,35.7609,濮阳市,油田运输公司,,30,30,44,12,19,62,,61,61,9,10,9,8,0.3,0.4
2024-02-20T0800,2395A,115.0866,35.7754,濮阳市,油田物探公司,,28,28,43,14,20,59,,58,58,11,12,7,6,0.3,0.3
2024-02-20T0800,3021A,115,35.7668,濮阳市,濮水河管理处,,32,32,48,15,20,62,,60,60,12,13,9,8,0.2,0.3
2024-02-20T0800,2601A,100.98,22.7633,普洱市,市环保局,,48,43,48,33,36,48,,56,56,13,13,5,6,0.5,0.6
2024-02-20T0800,2602A,100.9817,22.8322,普洱市,普洱第二中学,,45,37,41,31,31,24,,24,24,30,25,4,4,0.7,0.7
2024-02-20T0800,2262A,131.0518,45.8751,七台河市,新一中,,25,12,15,12,10,79,,80,80,6,5,10,9,0.6,0.6
2024-02-20T0800,3345A,131.0577,45.7879,七台河市,中波台,,21,16,20,12,15,65,,62,62,18,17,7,6,1.0,0.9
2024-02-20T0800,3637A,131.0176,45.7761,七台河市,人民广场,,36,,19,25,20,65,,67,67,20,15,10,10,0.6,0.5
2024-02-20T0800,3684A,130.8781,45.8222,七台河市,新建矿广场,,36,,12,25,34,65,,68,68,16,13,15,7,0.5,0.3
2024-02-20T0800,1779A,123.9305,47.3636,齐齐哈尔市,安居小区,,20,20,22,14,14,58,,60,60,7,6,7,6,0.4,0.4
2024-02-20T0800,1780A,123.9488,47.3386,齐齐哈尔市,中心广场,,19,16,18,13,11,56,,59,59,7,9,6,5,0.5,0.5
2024-02-20T0800,1781A,123.9483,47.3227,齐齐哈尔市,农牧车辆厂,,32,27,21,22,11,57,,59,59,6,6,7,7,0.4,0.4
2024-02-20T0800,1783A,123.945,47.2988,齐齐哈尔市,市环境监测站,,20,20,24,9,11,58,,61,61,7,7,3,3,0.3,0.3
2024-02-20T0800,3662A,123.6333,47.2075,齐齐哈尔市,富区青少年活动中心,,24,24,20,5,9,55,,59,59,12,9,12,8,0.5,0.4
2024-02-20T0800,2591A,107.9783,26.5747,黔东南苗族侗族自治州,市环境监测站,颗粒物(PM10),59,68,35,41,28,42,,94,94,25,8,6,5,0.7,0.6
2024-02-20T0800,2881A,107.8908,26.5311,黔东南苗族侗族自治州,凯里学院,,42,39,36,29,27,94,,106,106,6,6,4,4,0.3,0.3
2024-02-20T0800,2593A,107.5228,26.2403,黔南布依族苗族自治州,小围寨,,42,39,31,29,25,85,,89,89,8,6,5,5,0.5,0.5
2024-02-20T0800,3538A,107.5175,26.2978,黔南布依族苗族自治州,沙坝,,49,,34,34,26,85,,83,83,4,4,4,4,0.4,0.5
2024-02-20T0800,2589A,104.9022,25.0925,黔西南布依族苗族自治州,场坝街,,36,36,31,17,17,96,,103,103,5,7,2,2,0.3,0.3
2024-02-20T0800,2590A,104.8811,25.0992,黔西南布依族苗族自治州,坪东大道,,46,,29,32,21,96,,103,103,2,6,2,2,0.2,0.3
2024-02-20T0800,2502A,108.6236,21.9667,钦州市,市环保站,颗粒物(PM10),56,61,44,36,21,17,,29,29,22,20,10,12,0.7,0.7
2024-02-20T0800,2503A,108.6549,21.9481,钦州市,沙埠小学,细颗粒物(PM2.5),58,61,47,41,24,18,,20,20,17,21,9,12,0.7,0.8
2024-02-20T0800,2504A,108.5989,21.7431,钦州市,港区一小,细颗粒物(PM2.5),72,62,73,52,26,18,,8,8,15,19,8,27,0.8,0.7
2024-02-20T0800,3404A,108.5959,21.9633,钦州市,北职校,细颗粒物(PM2.5),63,47,45,45,25,21,,27,27,18,15,10,12,0.8,0.7
2024-02-20T0800,1042A,119.5134,39.8207,秦皇岛市,北戴河环保局,,36,36,40,14,11,64,,65,65,12,12,8,8,0.3,0.2
2024-02-20T0800,1043A,119.7493,40.0116,秦皇岛市,第一关,,39,39,41,15,17,60,,58,58,21,15,8,8,0.3,0.3
2024-02-20T0800,1044A,119.5897,39.9499,秦皇岛市,监测站,,39,39,43,16,15,56,,64,64,23,10,7,6,0.3,0.3
2024-02-20T0800,1046A,119.5251,39.9041,秦皇岛市,建设大厦,,38,,30,26,20,67,,64,64,10,5,4,3,0.2,0.2
2024-02-20T0800,3132A,119.610547,39.943889,秦皇岛市,文明里,,41,41,45,17,14,56,,62,62,18,12,6,5,0.4,0.4
2024-02-20T0800,1307A,120.6659,36.2403,青岛市,仰口,,29,29,37,12,15,73,,74,74,6,6,3,3,0.2,0.3
2024-02-20T0800,1310A,120.4134,36.0658,青岛市,市南区东部子站,,29,29,48,5,11,64,,70,70,9,7,7,6,0.4,0.5
2024-02-20T0800,1311A,120.3664,36.1032,青岛市,四方区子站,,29,29,40,12,14,64,,70,70,9,7,5,4,0.3,0.4
2024-02-20T0800,1312A,120.2994,36.054,青岛市,市南区西部子站,,27,27,36,10,11,67,,70,70,11,10,5,5,0.5,0.4
2024-02-20T0800,1313A,120.4581,36.0858,青岛市,崂山区子站,,24,24,40,5,9,69,,73,73,8,7,6,6,0.6,0.6
2024-02-20T0800,1314A,120.1983,35.9608,青岛市,黄岛区子站,,29,29,46,10,13,63,,63,63,19,21,8,7,0.5,0.6
2024-02-20T0800,1315A,120.3999,36.3083,青岛市,城阳区子站,,34,34,38,10,10,64,,70,70,13,9,4,3,0.6,0.5
2024-02-20T0800,1966A,120.0405,35.8735,青岛市,黄岛区4号,,31,31,39,5,11,74,,78,78,5,5,6,6,0.6,0.6
2024-02-20T0800,3362A,120.5014,36.4034,青岛市,即墨2号,,38,38,43,14,12,65,,69,69,4,3,7,5,0.4,0.4
2024-02-20T0800,3642A,120.3503,36.0736,青岛市,市北区南部,,39,39,45,5,10,67,,71,71,20,16,6,6,0.4,0.8
2024-02-20T0800,3643A,120.3948,36.1805,青岛市,李沧区北部,,29,29,43,19,16,72,,76,76,13,10,8,8,0.6,0.6
2024-02-20T0800,1702A,113.0426,23.691,清远市,环保大楼,,18,18,37,10,21,26,,27,27,12,18,2,2,1.1,1.2
2024-02-20T0800,1703A,113.0208,23.7106,清远市,凤城街办,,22,22,60,15,36,28,,26,26,15,26,5,4,0.5,0.8
2024-02-20T0800,3025A,113.0477,23.6344,清远市,技师学院,,20,20,40,11,21,33,,30,30,13,20,5,6,0.5,0.5
2024-02-20T0800,3318A,112.9903,23.7403,清远市,清新太和,,23,23,37,15,21,27,,30,30,17,19,11,11,0.5,0.5
2024-02-20T0800,3455A,113.076,23.7198,清远市,清城东城,,20,20,41,12,24,33,,31,31,14,19,7,7,0.7,0.8
2024-02-20T0800,2661A,107.6325,35.7357,庆阳市,庆阳五中,颗粒物(PM10),73,95,307,45,75,36,,46,46,7,6,2,6,0.8,0.6
2024-02-20T0800,2662A,107.6364,35.7067,庆阳市,市环保局,颗粒物(PM10),84,118,310,42,67,39,,49,49,6,6,3,3,0.8,0.7
2024-02-20T0800,1916A,103.7897,25.5035,曲靖市,环境监测站,细颗粒物(PM2.5),59,54,44,42,30,89,,99,99,10,7,3,2,0.6,0.5
2024-02-20T0800,1917A,103.8,25.5364,曲靖市,烟厂办公区,颗粒物(PM10),52,54,49,34,30,86,,97,97,14,8,4,4,0.7,0.6
2024-02-20T0800,3376A,103.7947,25.462,曲靖市,南苑二区,细颗粒物(PM2.5),52,49,44,36,30,85,,93,93,9,8,5,5,0.7,0.6
2024-02-20T0800,3377A,103.7444,25.5261,曲靖市,曲靖师范学院,细颗粒物(PM2.5),59,53,54,42,40,85,,82,82,9,14,6,9,0.6,0.6
2024-02-20T0800,1264A,118.8692,28.9398,衢州市,环保大楼,,36,36,56,20,40,24,,39,39,12,20,5,6,0.7,0.7
2024-02-20T0800,1265A,118.8709,28.9666,衢州市,实验学校,,30,30,52,21,37,24,,43,43,14,17,4,5,0.6,0.6
2024-02-20T0800,1266A,118.8621,28.9808,衢州市,衢州学院,,34,34,49,23,37,21,,37,37,11,15,4,5,0.6,0.6
2024-02-20T0800,1611A,118.5819,24.9117,泉州市,涂山街,,46,39,30,32,24,12,,10,10,18,22,3,4,0.7,0.7
2024-02-20T0800,1612A,118.5972,24.8978,泉州市,津头埔,,42,39,32,29,26,7,,7,7,21,26,4,4,0.8,0.8
2024-02-20T0800,1613A,118.6663,24.9424,泉州市,万安,,40,38,28,28,19,8,,5,5,21,21,3,3,0.5,0.5
2024-02-20T0800,1614A,118.6117,24.9604,泉州市,清源山,,,,,,,,,,,,,,,,
2024-02-20T0800,3529A,118.6333,24.9264,泉州市,城华南路,,35,34,30,24,20,5,,16,16,22,21,3,4,0.5,0.4
2024-02-20T0800,2626A,88.8876,29.2718,日喀则市,日喀则监测站,,23,10,16,5,6,73,,79,79,4,4,5,4,0.4,0.4
2024-02-20T0800,3726A,88.8781,29.2426,日喀则市,林业技术推广中心,,19,13,18,6,4,59,,74,74,6,5,7,7,0.4,0.3
2024-02-20T0800,1659A,119.471,35.4209,日照市,监测站,,25,24,34,6,12,77,,82,82,11,12,8,8,0.4,0.4
2024-02-20T0800,1660A,119.523,35.4216,日照市,市政府广场,,29,29,34,9,11,76,,78,78,6,8,7,7,0.5,0.5
2024-02-20T0800,1661A,119.5587,35.4044,日照市,港务局,,31,31,35,8,10,82,,84,84,8,12,8,10,0.4,0.4
2024-02-20T0800,3507A,119.5328,35.4625,日照市,职业技术学院,,27,27,34,9,9,77,,79,79,8,10,7,6,0.4,0.4
2024-02-20T0800,3604A,119.3266,35.1044,日照市,岚山环保分局,,44,44,57,17,21,64,,69,69,13,11,20,19,2.7,2.3
2024-02-20T0800,1835A,111.1922,34.7752,三门峡市,市政府,颗粒物(PM10),57,63,219,26,65,52,,48,48,68,33,7,7,0.7,0.6
2024-02-20T0800,1836A,111.1587,34.7942,三门峡市,开发区,颗粒物(PM10),58,66,251,23,74,59,,53,53,15,19,8,7,0.7,0.6
2024-02-20T0800,1838A,111.143,34.7955,三门峡市,风景区,,,,,,,,,,,,,,,,
2024-02-20T0800,3039A,111.1911,34.7829,三门峡市,三门峡市第一小学,颗粒物(PM10),55,60,228,16,62,62,,54,54,9,16,6,6,0.5,0.5
2024-02-20T0800,3598A,111.1,34.7167,三门峡市,富达温泉假日酒店,颗粒物(PM10),63,76,237,18,70,67,,55,55,8,15,4,6,0.5,0.6
2024-02-20T0800,2324A,117.6211,26.2625,三明市,三钢,,39,29,38,27,29,5,,9,9,18,21,6,14,0.8,1.4
2024-02-20T0800,2325A,117.635,26.2714,三明市,三明二中,,36,26,36,25,26,6,,9,9,22,25,5,11,0.9,1.3
2024-02-20T0800,2326A,117.6028,26.2378,三明市,三元区政府,,40,33,39,28,29,5,,10,10,15,18,7,10,1.0,1.2
2024-02-20T0800,2327A,117.7275,26.3108,三明市,洋溪,,,,,,,,,,,,,,,,
2024-02-20T0800,1876A,109.5078,18.2489,三亚市,河东子站,,30,21,32,21,25,38,,36,36,6,6,4,4,0.4,0.4
2024-02-20T0800,1877A,109.4964,18.2681,三亚市,河西子站,,33,,32,23,26,23,,25,25,11,6,3,3,0.3,0.3
2024-02-20T0800,3540A,109.7348,18.3443,三亚市,君悦子站,,35,30,30,24,20,15,,17,17,11,8,3,4,0.4,0.3
2024-02-20T0800,2624A,91.7608,29.2313,山南市,山南监测站,,21,17,31,7,9,66,,74,74,7,4,9,6,0.4,0.4
2024-02-20T0800,2625A,91.7706,29.2436,山南市,山南人民医院,,20,19,30,8,9,63,,67,67,5,5,6,5,0.4,0.4
2024-02-20T0800,1674A,116.6794,23.3667,汕头市,金平子站,,46,,28,32,22,14,,14,14,4,7,6,6,1.1,0.8
2024-02-20T0800,1675A,116.7244,23.3633,汕头市,龙湖子站,细颗粒物(PM2.5),52,,29,36,23,10,,8,8,23,24,8,8,1.0,0.9
2024-02-20T0800,1676A,116.7258,23.2775,汕头市,濠江子站,细颗粒物(PM2.5),63,,24,45,24,14,,11,11,21,21,9,9,1.1,0.9
2024-02-20T0800,1677A,116.7519,23.4714,汕头市,澄海子站,,38,29,25,26,24,11,,11,11,25,22,9,8,0.9,0.7
2024-02-20T0800,1678A,116.6092,23.2539,汕头市,潮阳子站,细颗粒物(PM2.5),52,,30,36,25,12,,11,11,18,14,9,9,1.8,0.8
2024-02-20T0800,3444A,116.454,23.2684,汕头市,潮南峡山,,42,38,37,29,24,9,,12,12,16,13,9,9,0.8,0.6
2024-02-20T0800,3624A,116.4069,23.2533,汕头市,潮南子站,细颗粒物(PM2.5),68,70,47,49,29,6,,8,8,16,17,9,7,1.2,0.8
2024-02-20T0800,1693A,115.3653,22.775,汕尾市,市环保局,,29,,20,20,14,31,,34,34,9,8,8,8,0.6,0.6
2024-02-20T0800,1694A,115.3706,22.7898,汕尾市,市政府,,26,18,20,18,16,29,,32,32,9,8,6,7,0.6,0.6
2024-02-20T0800,1695A,115.3622,22.7925,汕尾市,新城中学,,25,,21,17,14,34,,32,32,8,9,5,5,0.6,0.5
2024-02-20T0800,2645A,109.9154,33.8715,商洛市,监测站,,15,10,492,7,118,48,,46,46,18,17,7,6,0.6,0.5
2024-02-20T0800,3045A,109.9643,33.8471,商洛市,商州区中学,,18,8,468,5,124,56,,49,49,10,16,8,4,0.6,0.6
2024-02-20T0800,2408A,115.6702,34.4285,商丘市,环境监测站,,22,16,25,14,19,69,,67,67,5,9,7,7,0.3,0.4
2024-02-20T0800,2409A,115.6458,34.4045,商丘市,粮食局,,21,,27,14,19,65,,65,65,9,11,8,8,0.3,0.4
2024-02-20T0800,2410A,115.6293,34.3948,商丘市,睢阳区环保局,,21,21,29,12,14,65,,65,65,5,8,6,7,0.3,0.4
2024-02-20T0800,3171A,115.6071,34.4465,商丘市,梁园区档案局,,22,20,25,9,15,68,,66,66,9,12,5,6,0.2,0.4
2024-02-20T0800,1141A,121.4,31.238,上海市,普陀,,20,17,31,14,25,53,,56,56,19,19,4,4,0.6,0.7
2024-02-20T0800,1142A,121.478,31.2036,上海市,十五厂,,18,17,33,12,24,54,,56,56,16,17,6,6,0.7,0.8
2024-02-20T0800,1143A,121.467,31.3008,上海市,虹口,,20,20,35,8,29,57,,58,58,20,20,5,6,0.6,0.7
2024-02-20T0800,1144A,121.412,31.1654,上海市,徐汇上师大,,20,15,30,9,26,61,,57,57,19,22,8,9,0.5,0.5
2024-02-20T0800,1145A,121.536,31.2659,上海市,杨浦四漂,,20,20,34,12,28,64,,64,64,15,18,6,7,0.7,0.9
2024-02-20T0800,1147A,121.425,31.2261,上海市,静安监测站,,19,19,31,13,26,55,,57,57,26,22,7,6,0.4,0.5
