timepoint,stationcode,longitude,latitude,area,positionname,primarypollutant,aqi,pm10,pm10_24h,pm2_5,pm2_5_24h,o3,o3_24h,o3_8h,o3_8h_24h,no2,no2_24h,so2,so2_24h,co,co_24h
2026-01-06T1900,2568A,102.2503,31.8896,阿坝藏族羌族自治州,马师校,,32,22,17,22,15,52,,70,70,20,13,4,4,0.7,0.6
2026-01-06T1900,3994A,102.2174,31.9016,阿坝藏族羌族自治州,马尔康中学西区,,25,19,9,17,12,47,,70,70,30,12,6,5,0.7,0.5
2026-01-06T1900,2695A,80.2899,41.1684,阿克苏地区,电视台,,50,39,50,35,34,58,,48,48,21,22,4,4,0.4,0.6
2026-01-06T1900,2696A,80.2592,41.1541,阿克苏地区,艺术中心,,45,41,42,31,35,66,,56,56,11,12,4,4,0.5,0.6
2026-01-06T1900,2205A,105.699,38.8409,阿拉善盟,蒙二幼,,43,43,21,30,14,65,,80,79,19,12,10,10,0.7,0.6
2026-01-06T1900,2206A,105.7198,38.8508,阿拉善盟,环保局新楼,,38,34,17,26,13,69,,76,74,15,7,9,9,0.8,0.6
2026-01-06T1900,2708A,88.1266,47.8515,阿勒泰地区,市站,,,,18,,8,,,69,46,51,30,4,3,0.2,0.6
2026-01-06T1900,4166A,88.1198,47.7931,阿勒泰地区,阿勒泰路33号,,24,16,18,9,5,39,,61,61,48,31,10,5,0.4,0.4
2026-01-06T1900,2630A,80.1171,32.4999,阿里地区,阿里监测站,,29,,3,3,3,91,,86,86,1,6,8,9,0.3,0.4
2026-01-06T1900,3192A,80.0906,32.5029,阿里地区,阿里藏医院,,,,12,29,9,,,87,87,,5,,11,,0.5
2026-01-06T1900,2644A,109.0088,32.6974,安康市,汉滨区检察院,,,70,54,43,46,,,52,52,54,24,6,5,1.0,0.8
2026-01-06T1900,4054A,109.0324,32.6913,安康市,市邮政管理局,细颗粒物(PM2.5),63,66,66,45,54,16,,40,40,58,25,5,6,1.6,0.8
2026-01-06T1900,2291A,117.0806,30.5181,安庆市,环科院,细颗粒物(PM2.5),64,62,70,46,55,65,,70,70,18,19,5,5,0.4,0.5
2026-01-06T1900,2292A,117.0331,30.5118,安庆市,马山宾馆,细颗粒物(PM2.5),64,65,68,46,53,66,,70,70,19,15,5,5,0.6,0.7
2026-01-06T1900,2294A,116.9897,30.6146,安庆市,安庆大学,细颗粒物(PM2.5),59,50,56,42,45,62,,77,77,23,20,4,4,0.5,0.6
2026-01-06T1900,3173A,117.0598,30.5351,安庆市,市人大,细颗粒物(PM2.5),67,68,66,48,52,65,,70,70,24,18,6,7,0.5,0.5
2026-01-06T1900,3123A,105.9408,26.2431,安顺市,凤凰山,细颗粒物(PM2.5),54,39,34,38,31,68,,74,73,16,14,14,15,0.9,0.9
2026-01-06T1900,3124A,105.9443,26.2567,安顺市,金钟山,细颗粒物(PM2.5),53,,32,37,31,69,,73,73,12,11,16,17,0.8,0.8
2026-01-06T1900,3125A,105.8983,26.248,安顺市,娄家坡,细颗粒物(PM2.5),52,42,37,36,34,68,,71,71,15,14,11,18,0.8,0.8
2026-01-06T1900,1819A,114.3552,36.1017,安阳市,红庙街,,40,33,82,28,64,43,,60,60,32,28,4,9,0.6,1
2026-01-06T1900,1820A,114.361,36.0681,安阳市,银杏小区,,43,43,82,23,68,52,,65,64,26,24,4,6,0.4,0.7
2026-01-06T1900,3141A,114.3921,36.0879,安阳市,信访局,,43,42,86,30,73,50,,67,66,29,25,1,5,0.6,1
2026-01-06T1900,3669A,114.4706,36.0634,安阳市,左辅环卫站,,48,48,112,18,83,46,,67,65,9,20,4,9,0.4,0.8
2026-01-06T1900,4117A,114.2918,36.0769,安阳市,钢三路198号,,,56,88,33,67,,,69,69,,24,3,4,0.6,0.7
2026-01-06T1900,1748A,123.0441,41.1201,鞍山市,深沟寺,细颗粒物(PM2.5),63,68,69,45,49,28,,49,45,46,32,14,14,1.3,1.5
2026-01-06T1900,1749A,123.011,41.0931,鞍山市,太阳城,细颗粒物(PM2.5),60,68,64,43,46,23,,46,42,52,34,16,16,1.5,1.5
2026-01-06T1900,1750A,123.0483,41.1445,鞍山市,太平,"颗粒物(PM10),细颗粒物(PM2.5)",62,74,83,44,46,23,,43,41,56,38,14,16,1.3,1.6
2026-01-06T1900,1751A,122.964,41.0968,鞍山市,铁西三道街,细颗粒物(PM2.5),78,90,88,57,53,22,,45,42,62,46,17,26,1.5,1.7
2026-01-06T1900,1753A,123.0219,41.0822,鞍山市,明达新区,"颗粒物(PM10),细颗粒物(PM2.5)",57,64,70,40,47,25,,48,44,37,25,17,17,1.8,1.2
2026-01-06T1900,4201A,122.944647,41.082639,鞍山市,兴盛南路290号,细颗粒物(PM2.5),92,103,80,68,48,16,,45,41,68,47,15,20,1.2,1.3
2026-01-06T1900,2195A,107.4206,40.7609,巴彦淖尔市,附二中,颗粒物(PM10),60,69,49,34,21,60,,62,62,12,9,4,3,0.4,0.4
2026-01-06T1900,2196A,107.37,40.7372,巴彦淖尔市,市环保大楼,颗粒物(PM10),53,55,52,27,18,65,,71,71,13,9,4,4,0.4,0.4
2026-01-06T1900,1956A,86.1476,41.7529,巴音郭楞蒙古自治州,孔雀公园,颗粒物(PM10),61,72,50,23,32,57,,50,50,11,19,6,6,0.4,0.5
2026-01-06T1900,1957A,86.1971,41.7166,巴音郭楞蒙古自治州,棉纺厂,颗粒物(PM10),65,80,61,11,22,60,,54,54,13,19,/,/,/,/
2026-01-06T1900,1958A,86.236,41.7172,巴音郭楞蒙古自治州,经济开发区,颗粒物(PM10),67,83,45,20,20,50,,46,46,14,16,4,4,0.7,0.6
2026-01-06T1900,3181A,106.776805,31.852614,巴中市,市五中,,,44,53,32,41,,,70,70,20,24,5,5,0.7,0.9
2026-01-06T1900,3183A,106.7419,31.8654,巴中市,圣泉水务公司,细颗粒物(PM2.5),55,49,43,39,35,8,,65,63,66,29,4,4,0.7,0.6
2026-01-06T1900,3616A,106.7617,31.8343,巴中市,市中心医院,,43,43,48,29,39,26,,67,67,52,27,6,6,0.9,0.8
2026-01-06T1900,2235A,122.7909,45.608,白城市,洮北区环保局,,43,43,30,15,21,68,,69,60,3,18,6,6,0.1,0.3
2026-01-06T1900,2236A,122.8741,45.5725,白城市,市环保局,颗粒物(PM10),52,53,30,16,19,69,,62,62,7,19,7,5,0.4,0.4
2026-01-06T1900,2231A,126.4219,41.9172,白山市,喜丰,颗粒物(PM10),60,70,65,30,30,62,,64,64,21,31,15,15,1.1,1
2026-01-06T1900,2232A,126.4082,41.9416,白山市,环保局,细颗粒物(PM2.5),65,57,54,47,34,42,,50,50,34,29,14,12,1.4,1.2
2026-01-06T1900,2647A,104.1727,36.5448,白银市,第三小学,细颗粒物(PM2.5),60,54,57,43,42,48,,64,64,31,29,16,17,0.8,1
2026-01-06T1900,2648A,104.1467,36.5482,白银市,动力公司,细颗粒物(PM2.5),63,49,45,45,35,66,,72,72,26,24,10,10,0.7,0.8
2026-01-06T1900,2512A,106.6102,23.901,百色市,市监测站,,30,28,29,21,18,46,,46,46,13,17,7,8,0.7,0.8
2026-01-06T1900,2513A,106.6524,23.8842,百色市,市中心血站,,40,38,31,28,25,52,,54,54,16,22,8,10,0.7,0.8
2026-01-06T1900,4133A,106.6273,23.8798,百色市,龙景西路,,33,33,34,22,25,46,,50,50,11,11,7,8,0.6,0.6
2026-01-06T1900,2270A,117.396,32.9389,蚌埠市,工人疗养院,颗粒物(PM10),59,68,144,34,113,59,,69,69,21,24,5,5,0.5,0.8
2026-01-06T1900,2271A,117.3606,32.9428,蚌埠市,百货大楼,颗粒物(PM10),54,58,133,35,110,60,,68,68,18,24,6,5,0.4,0.7
2026-01-06T1900,2273A,117.4183,32.8909,蚌埠市,蚌埠学院,颗粒物(PM10),52,53,131,34,104,57,,74,74,26,29,4,4,0.3,0.6
2026-01-06T1900,2274A,117.3534,32.9672,蚌埠市,淮上区政府,颗粒物(PM10),65,80,143,41,118,53,,72,72,27,27,3,2,0.5,0.8
2026-01-06T1900,2275A,117.3143,32.8977,蚌埠市,高新区,细颗粒物(PM2.5),58,58,126,41,102,48,,59,59,28,27,7,6,0.4,0.7
2026-01-06T1900,3715A,117.3091,32.9314,蚌埠市,蚌埠田家炳中学,颗粒物(PM10),61,72,140,42,114,52,,70,70,28,31,5,5,0.4,0.7
2026-01-06T1900,1585A,109.8761,40.6533,包头市,市环境监测站,,36,36,57,12,28,53,,61,60,25,33,4,12,0.4,1
2026-01-06T1900,1587A,109.9992,40.5843,包头市,包头八中,,39,39,58,22,35,55,,61,61,25,38,1,7,0.3,0.8
2026-01-06T1900,1589A,109.8641,40.6288,包头市,惠龙物流,,,36,59,10,34,62,,66,66,20,37,7,18,,1.4
2026-01-06T1900,1590A,110.0376,40.5546,包头市,东河鸿龙湾,,37,37,43,8,19,54,,65,65,27,41,7,9,0.5,0.8
2026-01-06T1900,3283A,109.9154,40.5684,包头市,滨河大厦,,35,35,42,12,23,56,,64,64,16,23,5,8,0.5,0.7
2026-01-06T1900,3419A,109.9449,40.6259,包头市,包头市委党校,,33,33,53,17,29,54,,60,60,21,33,7,13,0.4,0.9
2026-01-06T1900,3683A,109.8332,40.6577,包头市,昆区政府,,40,38,50,28,26,59,,60,60,24,29,7,13,0.7,1.1
2026-01-06T1900,1931A,107.0802,34.3129,宝鸡市,竹园沟,细颗粒物(PM2.5),73,58,32,53,25,39,,61,61,26,15,6,5,0.5,0.4
2026-01-06T1900,1933A,107.1429,34.3549,宝鸡市,监测站,细颗粒物(PM2.5),80,64,44,59,34,25,,58,57,47,30,5,6,0.5,0.4
2026-01-06T1900,1934A,107.1172,34.3759,宝鸡市,技工学校,,,,49,34,34,,,65,65,28,16,8,6,0.7,0.7
2026-01-06T1900,1936A,107.2025,34.3518,宝鸡市,文理学院,细颗粒物(PM2.5),87,,44,64,33,10,,65,61,71,28,5,5,0.8,0.4
2026-01-06T1900,1937A,107.2396,34.3626,宝鸡市,三迪小学,细颗粒物(PM2.5),65,49,48,47,36,38,,66,65,55,28,5,4,0.7,0.6
2026-01-06T1900,4155A,107.1721,34.3558,宝鸡市,滨河北路,颗粒物(PM10),61,71,45,43,29,23,,68,65,62,27,5,6,0.9,0.7
2026-01-06T1900,4308A,107.3898,34.3601,宝鸡市,陈仓区北开路21号,细颗粒物(PM2.5),64,68,63,46,48,28,,74,70,72,32,8,32,0.4,0.6
2026-01-06T1900,1051A,115.4803,38.8568,保定市,游泳馆,颗粒物(PM10),55,60,112,22,94,50,,50,50,37,67,7,9,0.5,1.1
2026-01-06T1900,1052A,115.509,38.8895,保定市,华电二区,,50,50,98,30,92,71,,55,55,1,41,3,6,0.7,1.5
2026-01-06T1900,1053A,115.4588,38.9037,保定市,接待中心,颗粒物(PM10),52,54,109,14,87,65,,52,52,7,50,1,4,0.3,0.9
2026-01-06T1900,1054A,115.4484,38.8344,保定市,地表水厂,颗粒物(PM10),70,90,147,38,107,27,,49,48,61,62,5,7,0.5,1.1
2026-01-06T1900,3581A,115.3136,38.9511,保定市,满城区生态环境分局,颗粒物(PM10),54,58,126,12,82,65,,56,56,20,56,4,8,0.4,1.2
2026-01-06T1900,3582A,115.4709,38.7628,保定市,清苑区第二中学,颗粒物(PM10),80,110,162,39,106,25,,45,45,57,65,8,10,0.7,1.1
2026-01-06T1900,3583A,115.6231,39.0223,保定市,徐水物探局,颗粒物(PM10),74,97,156,36,104,30,,44,44,47,63,10,12,0.6,1.2
2026-01-06T1900,4004A,115.4199,38.8665,保定市,双鹰农机,颗粒物(PM10),67,83,150,35,86,57,,57,57,28,54,9,11,0.5,1
2026-01-06T1900,4034A,115.515,38.8589,保定市,植保所站,"颗粒物(PM10),细颗粒物(PM2.5)",55,59,116,39,106,57,,44,44,21,76,3,4,0.4,1.2
2026-01-06T1900,2594A,99.1589,25.1137,保山市,市环境监测站,,26,26,24,14,20,76,,83,83,7,9,2,4,0.3,0.4
2026-01-06T1900,2595A,99.1616,25.1381,保山市,市环保局,,,,27,,17,78,,85,85,,7,,4,0.4,0.4
2026-01-06T1900,1867A,109.1435,21.4085,北海市,海滩公园,,43,43,31,24,20,93,,81,81,15,14,8,7,0.3,0.4
2026-01-06T1900,1868A,109.0983,21.466,北海市,新市环保局,,45,33,27,31,24,93,,83,83,13,13,4,4,0.7,0.7
2026-01-06T1900,1869A,109.1775,21.5232,北海市,北海工业园,细颗粒物(PM2.5),53,40,34,37,24,86,,80,80,14,12,7,7,0.7,0.7
2026-01-06T1900,3400A,109.1844,21.4396,北海市,龙潭自来水厂,,39,34,32,27,24,83,,79,79,15,13,8,7,0.6,0.8
2026-01-06T1900,1001A,116.3611,39.8786,北京市,万寿西宫,,37,37,68,11,34,61,,51,51,21,52,2,4,0.2,0.6
2026-01-06T1900,1003A,116.4174,39.9289,北京市,东四,,45,45,52,9,27,62,,63,63,12,36,4,6,0.3,0.5
2026-01-06T1900,1004A,116.4073,39.8858,北京市,天坛,,42,42,57,11,33,59,,54,54,17,44,2,3,0.3,0.7
2026-01-06T1900,1005A,116.4622,39.9364,北京市,农展馆,,38,38,48,10,27,61,,65,65,13,30,4,5,0.5,0.7
2026-01-06T1900,1006A,116.3399,39.9293,北京市,官园,,48,48,56,17,31,67,,65,65,8,37,4,6,0.4,0.6
2026-01-06T1900,1007A,116.2879,39.9613,北京市,海淀万柳,,37,37,44,9,22,65,,63,63,10,44,3,4,0.3,0.6
2026-01-06T1900,1008A,116.6635,40.1349,北京市,顺义新城,颗粒物(PM10),52,53,45,9,15,68,,61,61,9,25,3,5,0.4,0.6
2026-01-06T1900,1009A,116.6275,40.327,北京市,怀柔镇,,24,18,29,3,16,74,,61,61,2,23,6,7,0.3,0.6
2026-01-06T1900,1010A,116.2295,40.217,北京市,昌平镇,,41,41,44,9,17,64,,62,62,11,14,5,7,0.4,0.5
2026-01-06T1900,1011A,116.3968,39.982,北京市,奥体中心,,26,26,46,8,24,65,,62,62,17,45,4,6,0.4,0.7
2026-01-06T1900,3418A,116.8336,40.4095,北京市,密云新城,,41,41,24,18,12,51,,59,58,16,20,3,4,0.4,0.4
2026-01-06T1900,3671A,116.0879,39.9725,北京市,门头沟三家店,,42,42,45,7,18,74,,68,68,4,16,3,4,0.3,0.5
2026-01-06T1900,3672A,116.1507,39.8246,北京市,丰台云岗,,32,32,73,11,45,69,,53,53,13,41,3,4,0.5,0.7
2026-01-06T1900,3674A,115.9578,39.7602,北京市,房山燕山,颗粒物(PM10),56,62,64,37,41,34,,40,40,36,33,5,5,0.5,0.6
2026-01-06T1900,3675A,116.4669,39.7734,北京市,大兴旧宫,颗粒物(PM10),65,79,97,37,50,27,,43,43,48,58,3,3,0.7,0.9
2026-01-06T1900,3694A,115.9859,40.4562,北京市,延庆石河营,,30,30,44,7,22,69,,68,68,7,20,3,5,0.3,0.5
2026-01-06T1900,3695A,116.6151,40.3052,北京市,怀柔新城,,24,17,27,3,14,75,,64,64,3,13,4,5,0.1,0.3
2026-01-06T1900,3696A,116.2542,39.8764,北京市,丰台小屯,,40,40,64,10,32,58,,51,51,12,37,4,5,0.3,0.6
2026-01-06T1900,3697A,116.8399,40.3843,北京市,密云镇,颗粒物(PM10),56,61,36,22,14,23,,55,52,48,37,2,2,0.6,0.6
2026-01-06T1900,4057A,115.9423,40.4431,北京市,延庆百泉,,21,20,36,3,21,67,,60,60,2,17,2,4,0.2,0.5
2026-01-06T1900,4058A,116.6598,39.9164,北京市,通州新华,颗粒物(PM10),55,59,56,10,26,49,,51,51,20,38,3,4,0.4,0.5
2026-01-06T1900,4182A,116.1942,39.9158,北京市,石景山八角,,38,38,51,7,23,63,,57,57,7,29,3,3,0.2,0.3
2026-01-06T1900,4194A,117.078628,40.151726,北京市,平谷新城,颗粒物(PM10),58,65,27,33,15,34,,55,51,34,18,3,2,0.5,0.4
2026-01-06T1900,1761A,123.8274146,41.31234549,本溪市,大峪,细颗粒物(PM2.5),62,68,61,44,34,20,,47,45,48,39,10,11,1.2,1.5
2026-01-06T1900,1763A,123.7169,41.3094,本溪市,彩屯,细颗粒物(PM2.5),214,180,98,164,62,8,,40,39,72,54,13,17,2.3,3.5
2026-01-06T1900,1764A,123.7672166,41.28649327,本溪市,东明,细颗粒物(PM2.5),59,47,67,42,39,54,,65,63,24,41,12,13,0.9,1.6
2026-01-06T1900,1765A,123.799345,41.266614,本溪市,新立屯,细颗粒物(PM2.5),59,54,52,42,38,14,,55,49,68,41,13,12,1.0,1.4
2026-01-06T1900,1766A,123.829144,41.336777,本溪市,威宁,细颗粒物(PM2.5),98,,78,73,41,9,,44,40,65,43,7,11,1.5,1.4
2026-01-06T1900,2587A,105.287,27.3133,毕节市,八中,,40,39,45,28,36,64,,67,59,9,8,10,9,0.6,0.6
2026-01-06T1900,2588A,105.3079,27.2987,毕节市,师专,,43,39,35,30,27,70,,71,68,10,9,8,7,0.5,0.6
2026-01-06T1900,4263A,105.3688,27.3598,毕节市,工业大道,,48,44,38,33,31,62,,68,65,9,7,12,10,/,/
2026-01-06T1900,1629A,117.9961,37.3604,滨州市,第二水厂,细颗粒物(PM2.5),119,149,138,90,102,11,,37,37,61,66,16,15,1.0,1
2026-01-06T1900,1630A,117.9789,37.3931,滨州市,北中新校,细颗粒物(PM2.5),107,117,129,80,102,6,,35,34,66,67,12,12,0.9,1
2026-01-06T1900,3514A,117.9379,37.3959,滨州市,中海酒店,细颗粒物(PM2.5),128,129,138,97,115,12,,42,42,64,66,14,13,1.0,1.2
2026-01-06T1900,3515A,117.9381509,37.35547456,滨州市,开发区一中,细颗粒物(PM2.5),122,146,139,92,112,6,,39,35,62,61,19,21,1.0,1
2026-01-06T1900,3516A,118.0914,37.6938,滨州市,金海六路,细颗粒物(PM2.5),170,178,143,129,108,10,,49,48,82,69,12,12,1.3,1.1
2026-01-06T1900,4028A,117.9955,37.3752,滨州市,滨州市西街道办事处,细颗粒物(PM2.5),119,132,136,90,112,8,,42,41,57,55,15,12,0.9,1
2026-01-06T1900,2311A,115.8071,33.8399,亳州市,污水处理厂,细颗粒物(PM2.5),62,71,125,44,104,46,,67,65,46,32,5,4,0.4,0.7
2026-01-06T1900,2312A,115.7789,33.8519,亳州市,三国揽胜宫,颗粒物(PM10),61,72,148,37,103,49,,62,61,28,24,5,4,0.5,0.7
2026-01-06T1900,3332A,115.7631,33.803,亳州市,亳州学院,颗粒物(PM10),62,74,135,39,103,51,,65,64,31,26,4,3,0.4,0.6
2026-01-06T1900,2693A,82.0482,44.8553,博尔塔拉蒙古自治州,市党校,细颗粒物(PM2.5),124,149,116,94,63,55,,49,49,29,33,5,4,1.4,1.2
2026-01-06T1900,2694A,82.0805,44.8966,博尔塔拉蒙古自治州,市环保局,颗粒物(PM10),96,142,135,70,64,54,,53,53,30,40,6,8,1.2,1.3
2026-01-06T1900,1071A,116.8733,38.2922,沧州市,沧县城建局,细颗粒物(PM2.5),218,200,164,168,148,12,,45,42,94,65,6,5,1.5,1.3
2026-01-06T1900,1072A,116.8462,38.3189,沧州市,电视转播站,细颗粒物(PM2.5),223,215,163,173,145,0,,41,39,89,55,3,6,1.6,1.1
2026-01-06T1900,1073A,116.8588,38.3161,沧州市,市环保局,细颗粒物(PM2.5),227,204,163,177,148,10,,44,42,84,50,7,6,1.5,1.1
2026-01-06T1900,3324A,116.8011,38.294,沧州市,河北水利电力学院,细颗粒物(PM2.5),182,188,177,137,127,14,,34,34,80,70,10,10,1.3,1.2
2026-01-06T1900,2622A,97.1813,31.1289,昌都市,昌都监测站,细颗粒物(PM2.5),99,114,42,74,24,11,,64,59,76,24,9,2,2.7,0.9
2026-01-06T1900,3719A,97.1707,31.1428,昌都市,昌都会议中心,,22,22,19,12,12,61,,67,67,7,6,3,2,0.6,0.6
2026-01-06T1900,2692A,87.2722,44.0298,昌吉回族自治州,新区政务中心,细颗粒物(PM2.5),198,185,148,148,106,,,46,46,47,67,7,8,1.4,1.5
2026-01-06T1900,3613A,87.3069,44.0093,昌吉回族自治州,亚心广场,细颗粒物(PM2.5),192,195,164,144,117,38,,44,44,42,63,7,8,1.5,1.7
2026-01-06T1900,4164A,87.2057,43.9289,昌吉回族自治州,财政所,细颗粒物(PM2.5),182,180,83,137,57,58,,61,61,48,24,5,5,1.3,0.7
2026-01-06T1900,1120A,125.2874,43.9024,长春市,客车厂,细颗粒物(PM2.5),69,69,48,50,39,39,,51,50,40,35,13,12,0.8,0.8
2026-01-06T1900,1121A,125.2943,43.8508,长春市,邮电学院,细颗粒物(PM2.5),84,86,52,62,35,39,,51,49,36,28,13,11,0.7,0.5
2026-01-06T1900,1122A,125.3648,43.8745,长春市,劳动公园,细颗粒物(PM2.5),83,72,51,61,31,43,,59,53,38,32,12,10,0.7,0.8
2026-01-06T1900,1123A,125.3233,43.8781,长春市,园林处,细颗粒物(PM2.5),65,72,47,47,30,37,,46,46,34,27,14,14,0.8,0.7
2026-01-06T1900,1124A,125.4604,43.7904,长春市,净月潭,细颗粒物(PM2.5),53,53,41,37,26,44,,56,55,29,17,12,9,0.8,0.5
2026-01-06T1900,1126A,125.38,43.8422,长春市,经开区环卫处,颗粒物(PM10),64,77,50,43,26,45,,55,55,36,33,9,8,0.8,0.7
2026-01-06T1900,1127A,125.234,43.7761,长春市,高新区管委会,细颗粒物(PM2.5),83,68,48,61,35,48,,60,60,31,30,10,9,0.8,0.7
2026-01-06T1900,1128A,125.1695,43.83,长春市,岱山公园,细颗粒物(PM2.5),85,68,49,63,35,43,,56,55,32,36,11,11,0.7,0.7
2026-01-06T1900,4281A,125.334645,43.916281,长春市,北亚泰大街1068号,细颗粒物(PM2.5),64,70,51,46,36,40,,49,48,36,36,13,12,0.8,0.8
2026-01-06T1900,1335A,113.082,28.2421,长沙市,经开区环保局,细颗粒物(PM2.5),72,67,90,52,74,69,,81,81,37,31,4,5,0.5,0.6
2026-01-06T1900,1336A,112.8873,28.2202,长沙市,高开区环保局,细颗粒物(PM2.5),72,60,83,52,73,83,,87,87,20,23,6,6,0.8,0.9
2026-01-06T1900,1337A,113.0785,28.2012,长沙市,马坡岭,细颗粒物(PM2.5),73,72,87,53,70,64,,89,89,48,39,5,5,0.9,0.9
2026-01-06T1900,1338A,112.9448,28.1894,长沙市,湖南师范大学,细颗粒物(PM2.5),62,49,83,44,63,64,,88,88,35,34,5,6,0.6,0.7
2026-01-06T1900,1339A,113.0177,28.1322,长沙市,雨花区环保局,细颗粒物(PM2.5),68,62,87,49,72,83,,90,89,24,30,8,8,0.6,0.7
2026-01-06T1900,1340A,112.9795,28.2593,长沙市,伍家岭,细颗粒物(PM2.5),73,68,92,53,64,69,,86,86,42,34,5,6,0.6,0.6
2026-01-06T1900,1341A,113.002,28.1944,长沙市,火车新站,细颗粒物(PM2.5),79,68,96,58,75,81,,90,90,29,29,8,9,0.5,0.6
2026-01-06T1900,1342A,112.9846,28.1177,长沙市,天心区环保局,细颗粒物(PM2.5),67,49,84,48,68,90,,96,96,25,29,5,6,0.7,0.8
2026-01-06T1900,1343A,112.8906,28.1307,长沙市,湖南中医药大学,,,,88,49,68,,,100,100,57,33,6,6,0.7,0.8
2026-01-06T1900,1727A,113.1146,36.1547,长治市,清华站,,21,20,39,12,19,65,,73,72,18,19,12,11,0.4,0.5
2026-01-06T1900,1730A,113.0887,36.2126,长治市,审计局,,21,18,27,12,19,67,,70,70,12,17,8,8,0.4,0.5
2026-01-06T1900,1731A,113.0845,36.1856,长治市,长治八中,,38,38,34,15,24,56,,69,69,18,14,10,10,0.6,0.6
2026-01-06T1900,2845A,113.1561,36.1912,长治市,德盛苑,,22,17,30,7,21,68,,72,72,15,15,8,10,0.5,0.5
2026-01-06T1900,3568A,113.0603,36.0464,长治市,向阳小学,颗粒物(PM10),51,52,44,17,21,71,,77,77,22,17,9,8,0.4,0.4
2026-01-06T1900,3569A,112.8788,36.315,长治市,屯留一中,,,,33,,22,,,72,72,21,19,6,2,0.2,0.2
2026-01-06T1900,4189A,113.113092,36.199482,长治市,英华南巷50号,,28,25,29,19,22,68,,72,72,11,15,7,8,0.4,0.5
2026-01-06T1900,4190A,113.23666,36.33435,长治市,学府街1号,,30,30,35,15,21,62,,68,68,18,18,8,13,0.4,0.6
2026-01-06T1900,1854A,111.696,28.9725,常德市,市二中,细颗粒物(PM2.5),60,49,67,43,58,55,,80,80,49,24,7,5,0.6,0.7
2026-01-06T1900,3138A,111.7152,29.0288,常德市,武陵区永安,,,50,70,37,54,70,,81,80,,19,4,4,0.7,0.8
2026-01-06T1900,3139A,111.6891,28.9881,常德市,鼎城区玉霞,细颗粒物(PM2.5),59,44,68,42,56,56,,80,80,44,25,9,8,0.7,0.8
2026-01-06T1900,3140A,111.6651,29.0526,常德市,武陵区长庚,细颗粒物(PM2.5),60,53,68,43,56,60,,81,81,37,23,3,3,0.8,0.8
2026-01-06T1900,1196A,119.9524,31.7586,常州市,市监测站,细颗粒物(PM2.5),60,46,158,43,131,63,,60,60,22,49,4,5,0.6,1.2
2026-01-06T1900,1200A,119.9351,31.703,常州市,武进监测站,细颗粒物(PM2.5),62,,172,44,136,65,,62,62,18,58,7,8,0.4,1
2026-01-06T1900,3002A,119.9701,31.813,常州市,行政中心,细颗粒物(PM2.5),54,55,167,38,137,59,,61,61,22,58,4,8,0.5,1.1
2026-01-06T1900,3003A,120.0434,31.7726,常州市,经开区,细颗粒物(PM2.5),55,46,182,39,133,69,,65,65,10,51,4,6,0.7,1.4
2026-01-06T1900,3010A,119.8919,31.7892,常州市,钟楼,,,57,178,45,150,,,56,56,22,59,6,9,0.7,1.1
2026-01-06T1900,3429A,119.8595,31.706,常州市,武进经发区,细颗粒物(PM2.5),54,47,167,38,122,66,,65,65,15,50,6,8,0.6,1.2
2026-01-06T1900,3430A,119.5812,31.7256,常州市,金坛城区,细颗粒物(PM2.5),52,43,154,36,135,54,,59,59,19,34,6,7,0.7,1.2
2026-01-06T1900,4089A,119.9551,31.863,常州市,崇义南街5-H号,,,60,168,37,154,58,,60,60,25,61,,7,0.6,1.2
2026-01-06T1900,2220A,120.4318,41.588,朝阳市,西梁,颗粒物(PM10),67,84,58,7,26,67,,64,64,11,28,5,13,0.3,0.9
2026-01-06T1900,2221A,120.452,41.565,朝阳市,河畔小区,颗粒物(PM10),73,95,46,10,22,74,,69,69,10,22,5,14,0.3,0.8
2026-01-06T1900,2222A,120.4176,41.5648,朝阳市,八里堡,颗粒物(PM10),93,136,56,13,24,72,,67,67,10,28,8,15,0.4,1
2026-01-06T1900,3026A,116.6179,23.6608,潮州市,市政府,,26,26,23,14,14,72,,76,76,6,5,6,6,0.4,0.4
2026-01-06T1900,4036A,116.646,23.676,潮州市,金山,,,,22,22,15,70,,71,71,,5,,3,0.5,0.4
2026-01-06T1900,2473A,113.0116,25.8228,郴州市,市职中,细颗粒物(PM2.5),54,43,46,38,42,79,,78,78,11,13,4,4,0.6,0.6
2026-01-06T1900,2475A,113.0381,25.8074,郴州市,市审计局,细颗粒物(PM2.5),52,49,53,36,45,79,,78,78,16,16,3,3,/,/
2026-01-06T1900,2476A,113.0348,25.7757,郴州市,市环保局,,,63,61,44,47,76,,78,78,21,19,3,4,,0.7
2026-01-06T1900,4252A,113.0138,25.8011,郴州市,好美居路49号,细颗粒物(PM2.5),59,45,54,42,49,83,,82,82,16,14,4,4,/,/
2026-01-06T1900,1431A,103.9727,30.7242,成都市,金泉两河,,36,30,55,25,31,70,,73,73,33,28,3,3,0.5,0.6
2026-01-06T1900,1432A,104.1423,30.6765,成都市,十里店,颗粒物(PM10),57,64,48,30,32,69,,81,81,42,32,4,4,0.4,0.5
2026-01-06T1900,1433A,104.0594,30.5765,成都市,三瓦窑,颗粒物(PM10),51,51,49,32,38,69,,79,79,40,34,4,4,0.6,0.5
2026-01-06T1900,1434A,104.1122,30.6306,成都市,沙河铺,,,59,56,43,42,,,75,75,28,36,3,3,0.5,0.5
2026-01-06T1900,2880A,104.0219,30.6561,成都市,大石西路,细颗粒物(PM2.5),59,54,58,42,35,66,,72,71,34,30,5,6,0.4,0.4
2026-01-06T1900,3136A,104.2724,30.559,成都市,龙泉驿区区政府,,36,36,46,24,34,55,,58,58,17,25,6,6,0.5,0.6
2026-01-06T1900,3357A,104.0028,30.6891,成都市,金博路,,38,38,43,26,33,78,,77,77,27,31,4,5,0.6,0.7
2026-01-06T1900,3359A,104.056,30.5228,成都市,华阳,,39,39,48,27,35,77,,83,83,27,28,4,3,0.4,0.4
2026-01-06T1900,3488A,104.387954,30.746684,成都市,青石路225号,颗粒物(PM10),59,67,59,41,45,57,,86,86,49,34,3,3,0.3,0.4
2026-01-06T1900,3489A,104.0788,30.4054,成都市,科学城,细颗粒物(PM2.5),54,43,51,38,42,77,,85,85,22,27,7,7,0.4,0.6
2026-01-06T1900,4011A,103.8505,30.6946,成都市,光华大道三段,细颗粒物(PM2.5),64,65,51,46,35,75,,86,86,33,25,9,4,0.6,0.5
2026-01-06T1900,4144A,104.3257,30.6406,成都市,八角井街185号,颗粒物(PM10),67,84,64,33,40,69,,84,84,36,33,5,3,0.6,0.8
2026-01-06T1900,4224A,104.2433276,30.53529463,成都市,鲸龙路1057号,,38,36,56,26,43,87,,88,88,17,32,6,6,0.2,0.3
2026-01-06T1900,1062A,117.9531,40.908,承德市,铁路,,39,39,48,7,20,74,,66,66,2,25,3,6,0.2,0.6
2026-01-06T1900,1063A,117.9397,40.9763,承德市,中国银行,颗粒物(PM10),61,72,50,3,19,71,,68,68,4,23,2,2,0.2,0.5
2026-01-06T1900,4073A,117.9462,40.95,承德市,杏林街1号,,44,44,44,3,25,77,,72,72,2,24,4,4,0.2,0.6
2026-01-06T1900,4274A,117.7994,40.9605,承德市,滨河大街98号,颗粒物(PM10),63,75,48,8,20,77,,75,75,4,30,3,4,0.2,0.6
2026-01-06T1900,2314A,117.4698,30.6617,池州市,池州学院,细颗粒物(PM2.5),74,64,76,54,69,58,,63,63,24,20,3,4,0.5,0.6
2026-01-06T1900,3237A,117.4918,30.6617,池州市,展览馆,细颗粒物(PM2.5),62,56,75,44,59,56,,64,64,27,27,2,2,0.7,0.8
2026-01-06T1900,3333A,117.5626,30.695,池州市,第八中学,,,62,76,50,61,,,63,63,29,26,3,3,0.6,0.7
2026-01-06T1900,3334A,117.5037,30.6242,池州市,第十二中学,细颗粒物(PM2.5),75,66,77,55,63,41,,62,62,45,33,5,4,0.8,0.9
2026-01-06T1900,1744A,118.9229,42.2816,赤峰市,松山一中,,43,43,31,3,8,60,,67,66,14,12,4,6,0.5,0.6
2026-01-06T1900,1745A,118.9588,42.2733,赤峰市,哈达街,,38,38,25,8,6,66,,71,71,13,10,6,5,0.5,0.6
2026-01-06T1900,1746A,118.8792,42.2551,赤峰市,天义路,,24,24,20,11,8,76,,77,77,8,6,5,5,0.4,0.3
2026-01-06T1900,3058A,119.2656,42.0356,赤峰市,银河街,颗粒物(PM10),59,67,123,15,74,77,,73,73,5,33,9,21,0.5,2
2026-01-06T1900,3286A,118.9359,42.3146,赤峰市,桥北物流园区,,37,37,20,9,10,70,,73,73,8,10,4,6,0.5,0.5
2026-01-06T1900,2521A,107.3473,22.4137,崇左市,市环保局江州分局,,27,27,24,17,17,52,,56,56,11,12,7,7,0.5,0.6
2026-01-06T1900,4256A,107.375,22.3736,崇左市,石景林东路7号,,16,,16,10,13,50,,56,56,19,13,8,8,0.7,0.5
2026-01-06T1900,3207A,118.31131,32.3033,滁州市,市政府原办公楼,,,,124,,109,,,78,78,,23,,4,,0.6
2026-01-06T1900,3331A,118.3268,32.2633,滁州市,图书馆,,33,33,116,16,95,72,,75,75,9,14,7,8,0.3,0.7
2026-01-06T1900,4101A,118.3196,32.3335,滁州市,银山路666号,,40,38,105,28,118,71,,76,76,6,17,8,8,0.4,0.8
2026-01-06T1900,4102A,118.3426,32.2979,滁州市,黄山路555号,,47,47,132,25,115,80,,82,82,13,26,9,9,0.5,0.8
2026-01-06T1900,2606A,101.5379,25.0492,楚雄彝族自治州,市经济开发区,,22,22,29,9,19,56,,63,62,10,20,2,4,0.6,0.6
2026-01-06T1900,4153A,101.5536,25.0343,楚雄彝族自治州,团结路562号,,19,13,19,13,18,60,,63,63,4,14,2,2,0.4,0.5
2026-01-06T1900,2549A,107.5087,31.2186,达州市,市环境监测站,细颗粒物(PM2.5),94,114,74,70,58,19,,40,40,78,37,8,5,1.5,0.7
2026-01-06T1900,2550A,107.4988,31.2132,达州市,凤凰小区,细颗粒物(PM2.5),100,132,80,75,62,22,,45,45,73,33,6,4,1.2,0.7
2026-01-06T1900,2551A,107.5081,31.1987,达州市,达县机关宾馆,细颗粒物(PM2.5),107,153,84,80,58,5,,33,33,81,37,6,2,1.4,0.8
2026-01-06T1900,2552A,107.4644,31.2124,达州市,市政中心,颗粒物(PM10),83,115,96,53,62,11,,48,48,76,36,7,6,1.0,0.7
2026-01-06T1900,2614A,100.2168,25.5818,大理白族自治州,大理市环境监测站,,26,25,20,18,18,65,,70,70,15,9,6,6,0.6,0.5
2026-01-06T1900,2615A,100.1542,25.7055,大理白族自治州,大理古城,,32,23,19,22,16,61,,81,80,18,11,8,8,0.7,0.6
2026-01-06T1900,1109A,121.6119,38.974,大连市,甘井子,,48,48,60,13,48,60,,66,66,24,35,8,11,0.1,0.4
2026-01-06T1900,1110A,121.565,38.9509,大连市,周水子,,40,40,62,14,46,54,,65,64,26,35,6,12,0.4,0.6
2026-01-06T1900,1111A,121.5637,38.8849,大连市,星海三站,,35,35,56,13,49,58,,61,61,22,26,8,10,0.5,0.7
2026-01-06T1900,1112A,121.6301,38.9117,大连市,青泥洼桥,,25,25,64,14,49,48,,58,58,34,33,9,10,0.5,0.7
2026-01-06T1900,1113A,121.6248,38.8643,大连市,傅家庄,,32,32,60,11,46,52,,59,59,25,25,9,10,0,0.2
2026-01-06T1900,1114A,121.5117,38.8636,大连市,七贤岭,,37,37,59,12,61,58,,64,64,23,24,8,9,0.7,0.9
2026-01-06T1900,1116A,121.7507,39.1339,大连市,金州,,35,35,65,18,48,60,,63,63,27,33,9,11,0.4,0.6
2026-01-06T1900,1117A,121.7811,39.0495,大连市,开发区,,47,47,68,14,52,49,,54,54,26,39,6,6,0.7,0.9
2026-01-06T1900,1118A,121.9762,39.0631,大连市,双D港,,40,40,66,9,43,68,,65,65,21,31,12,13,0.6,0.8
2026-01-06T1900,4082A,121.2548,38.8188,大连市,旅顺,颗粒物(PM10),54,58,75,19,54,45,,58,57,26,20,9,7,0.7,0.8
2026-01-06T1900,1789A,124.8085,46.0381,大庆市,大同区,细颗粒物(PM2.5),82,78,64,60,47,25,,40,38,43,24,10,9,0.9,0.6
2026-01-06T1900,1790A,125.1166,46.5255,大庆市,龙凤区,颗粒物(PM10),57,64,72,38,51,11,,31,27,60,40,11,16,0.7,0.8
2026-01-06T1900,1791A,124.8894,46.4007,大庆市,红岗区,,43,43,50,27,32,10,,31,28,49,34,6,8,1.1,0.8
2026-01-06T1900,1792A,125.1391,46.578,大庆市,萨尔图区,细颗粒物(PM2.5),64,67,68,46,46,3,,27,18,55,34,9,10,0.7,0.6
2026-01-06T1900,1793A,124.9026,46.6217,大庆市,让胡路区,细颗粒物(PM2.5),65,56,50,47,42,15,,30,28,42,34,8,9,0.6,0.7
2026-01-06T1900,3481A,125.127,46.6277,大庆市,萨区政府监测点,颗粒物(PM10),54,58,64,34,38,11,,28,18,49,36,9,13,1.0,0.9
2026-01-06T1900,1723A,113.2926,40.0759,大同市,云冈宾馆,,34,34,58,14,31,53,,56,56,23,28,5,9,0.4,0.9
2026-01-06T1900,1724A,113.3437,40.0921,大同市,大同大学,,42,42,57,17,29,51,,60,59,25,31,4,8,0.4,0.8
2026-01-06T1900,1725A,113.2637,40.129,大同市,安家小村,,32,32,64,7,30,62,,64,64,18,34,10,14,0.3,1.5
2026-01-06T1900,3282A,113.3399,40.0586,大同市,大同市卫生学校,,48,48,64,14,29,52,,56,56,27,33,5,7,0.3,0.6
2026-01-06T1900,3565A,113.1371,40.1122,大同市,云冈站,,31,31,49,3,24,41,,62,61,29,23,5,7,0.4,0.7
2026-01-06T1900,3566A,113.1186,40.2556,大同市,图书馆,,26,26,55,11,36,65,,65,65,8,20,4,8,0.2,0.6
2026-01-06T1900,3567A,113.5931,40.0459,大同市,区一中,,29,29,77,13,29,69,,69,69,16,34,13,21,0.3,0.7
2026-01-06T1900,4199A,113.2798248,40.09972476,大同市,魏都大道141号,颗粒物(PM10),53,55,82,18,32,51,,61,61,24,33,5,8,0.5,1.4
2026-01-06T1900,2269A,124.1068,50.4091,大兴安岭地区,科技局,,26,,19,18,15,58,,55,55,2,5,5,5,0.4,0.4
2026-01-06T1900,3663A,124.117,50.4279,大兴安岭地区,红旗社区,,20,12,30,3,20,64,,56,56,3,28,6,9,0.3,0.5
2026-01-06T1900,1600A,124.33,40.0625,丹东市,江湾东路,细颗粒物(PM2.5),160,182,75,122,53,8,,44,40,60,33,17,20,2.3,1.6
2026-01-06T1900,1601A,124.4242,40.1513,丹东市,临江后街,细颗粒物(PM2.5),192,229,70,144,41,8,,47,42,77,35,18,19,3.2,1.3
2026-01-06T1900,1602A,124.3935,40.1461,丹东市,元宝山,细颗粒物(PM2.5),78,80,50,57,38,43,,43,43,30,29,12,16,0.9,1.2
2026-01-06T1900,1603A,124.3634,40.1093,丹东市,民主桥,细颗粒物(PM2.5),215,203,68,165,46,5,,46,39,67,38,12,14,2.3,1.1
2026-01-06T1900,3541A,109.5726195,19.51688767,儋州市,第一中学子站,细颗粒物(PM2.5),57,58,64,40,48,45,,72,36,10,10,5,6,0.8,0.8
2026-01-06T1900,3542A,109.5567,19.5187,儋州市,东坡学校子站,,50,45,59,35,40,51,,74,40,10,11,5,7,0.7,0.8
2026-01-06T1900,2616A,98.5611,24.4273,德宏傣族景颇族自治州,德宏州监测站,细颗粒物(PM2.5),57,47,53,40,42,73,,79,79,22,23,6,6,0.7,0.7
2026-01-06T1900,3677A,98.5887,24.4366,德宏傣族景颇族自治州,芒市人民政府综合楼,,41,41,49,23,32,66,,78,76,19,15,5,8,0.6,0.7
2026-01-06T1900,1901A,104.424,31.1209,德阳市,东山公园,,,38,52,,41,,,75,75,5,28,2,6,0.5,0.6
2026-01-06T1900,1902A,104.3827,31.1318,德阳市,西小区,细颗粒物(PM2.5),54,55,74,38,48,68,,69,69,32,32,3,9,0.5,0.7
2026-01-06T1900,1904A,104.3553,31.1091,德阳市,耐火材料厂,颗粒物(PM10),57,63,69,35,52,69,,72,72,35,34,1,6,0.6,0.8
2026-01-06T1900,4145A,104.4144,31.1495,德阳市,市林业局,,47,47,56,20,46,51,,71,71,42,31,2,5,0.5,0.7
2026-01-06T1900,1622A,116.3034,37.4675,德州市,儿童乐园,颗粒物(PM10),63,75,143,39,103,49,,48,48,32,48,15,14,1.0,1.4
2026-01-06T1900,1624A,116.2992,37.4449,德州市,监理站,颗粒物(PM10),63,75,139,34,103,37,,53,53,55,54,16,16,0.8,1.2
2026-01-06T1900,3066A,116.2722,37.438,德州市,九衢泉纯净水厂,颗粒物(PM10),62,73,152,27,112,10,,41,39,67,63,17,17,0.8,1.1
2026-01-06T1900,3371A,116.3693,37.44,德州市,开发区人民医院,颗粒物(PM10),62,73,134,34,91,41,,50,50,60,65,14,15,0.7,1
2026-01-06T1900,3511A,116.5687,37.3331,德州市,陵城艺术中心,颗粒物(PM10),67,83,144,46,111,25,,38,38,56,57,11,16,0.4,0.7
2026-01-06T1900,4292A,116.352738,37.420875,德州市,新河东路,颗粒物(PM10),67,83,139,41,104,29,,45,45,66,69,15,16,1.0,1.4
2026-01-06T1900,2621A,99.7054,27.8319,迪庆藏族自治州,迪庆州站,,26,22,23,15,18,81,,79,79,7,10,5,5,0.5,0.6
2026-01-06T1900,3180A,99.7122,27.8129,迪庆藏族自治州,质量技术监督局,,26,23,24,6,15,82,,83,83,10,11,5,5,0.4,0.5
2026-01-06T1900,4257A,104.6092,35.5962,定西市,将台街,,49,49,67,29,47,82,,80,80,15,28,10,11,0.5,0.8
2026-01-06T1900,4309A,104.6159,35.5701,定西市,正龙路62号,颗粒物(PM10),56,62,73,35,54,79,,78,78,10,13,12,7,0.6,0.8
2026-01-06T1900,1390A,113.7943,23.0132,东莞市,东城石井,,37,37,27,24,19,56,,75,74,15,13,6,6,0.6,0.6
2026-01-06T1900,1391A,113.7384,22.9659,东莞市,南城西平,,36,36,26,25,17,54,,74,73,20,21,9,8,0.7,0.7
2026-01-06T1900,3319A,113.7283,23.041,东莞市,万江金泰,,41,41,27,27,18,55,,74,72,16,12,5,5,0.8,0.7
2026-01-06T1900,4129A,113.8666,23.1062,东莞市,裕兴路,,35,34,27,24,18,73,,87,87,10,9,3,4,0.7,0.7
2026-01-06T1900,4130A,114.0076,22.9739,东莞市,教育路1号,,,40,35,20,20,61,,83,82,,18,2,5,0.6,0.8
2026-01-06T1900,4131A,113.7981,22.8124,东莞市,长怡路1号,,41,41,34,19,18,54,,77,76,22,16,7,8,0.5,0.7
2026-01-06T1900,1666A,118.6612,37.4313,东营市,市环保局,细颗粒物(PM2.5),170,180,144,129,109,17,,60,60,67,71,15,25,1.5,1.4
2026-01-06T1900,3036A,118.6903,37.4337,东营市,开发区管委会,细颗粒物(PM2.5),170,178,143,129,110,18,,64,64,74,77,18,26,1.5,1.4
2026-01-06T1900,3365A,118.5721,37.5654,东营市,垦利区民丰路,细颗粒物(PM2.5),156,178,146,119,111,13,,50,50,,69,12,13,1.6,1.4
2026-01-06T1900,3498A,118.5063,37.8606,东营市,河口城区,细颗粒物(PM2.5),270,293,140,220,102,38,,73,73,62,53,7,7,1.5,1.1
2026-01-06T1900,3646A,118.4979,37.4623,东营市,胜利站,细颗粒物(PM2.5),185,192,144,139,112,5,,44,43,82,79,18,27,1.7,1.6
2026-01-06T1900,3734A,118.5753,37.4405,东营市,理想之城,细颗粒物(PM2.5),175,175,147,132,116,15,,59,59,73,78,12,19,1.4,1.4
2026-01-06T1900,1591A,110.0024,39.8127,鄂尔多斯市,综合楼,,48,48,17,22,9,70,,77,77,14,9,5,4,0.5,0.4
2026-01-06T1900,1592A,109.9485,39.8259,鄂尔多斯市,巴音孟克林场办事处,颗粒物(PM10),56,61,21,17,10,70,,77,77,14,8,5,6,0.4,0.2
2026-01-06T1900,1593A,109.7734,39.5987,鄂尔多斯市,康泽苑,,48,48,23,19,13,78,,81,80,8,8,6,5,0.4,0.3
2026-01-06T1900,1594A,109.8121,39.5987,鄂尔多斯市,华泰汽车城,,,,23,22,11,72,,77,77,11,9,3,2,0.5,0.4
2026-01-06T1900,1595A,109.9734,39.7884,鄂尔多斯市,奥林花园,颗粒物(PM10),60,70,30,19,7,68,,76,75,16,9,1,1,0.4,0.3
2026-01-06T1900,2436A,114.894,30.3989,鄂州市,市政府,,36,36,53,21,37,54,,65,65,25,22,5,5,0.7,0.8
2026-01-06T1900,2437A,114.8986,30.3714,鄂州市,赵家坝,,36,36,56,24,38,65,,74,74,16,15,19,8,0.8,0.5
2026-01-06T1900,3654A,114.8093,30.4091,鄂州市,精准医疗中心,,30,30,50,20,35,78,,86,86,15,15,5,5,0.6,1
2026-01-06T1900,2454A,109.4978,30.2979,恩施土家族苗族自治州,湖北民院,细颗粒物(PM2.5),54,,48,38,48,46,,74,74,29,16,6,6,0.9,0.8
2026-01-06T1900,3549A,109.5061,30.3771,恩施土家族苗族自治州,龙凤新区,,,33,44,31,40,58,,61,61,9,10,7,7,,0.5
2026-01-06T1900,2499A,108.3411,21.6159,防城港市,沙万,,34,34,28,20,16,65,,68,68,11,11,6,6,0.5,0.5
2026-01-06T1900,2500A,108.3515,21.7733,防城港市,防城档案局,,39,39,40,16,11,59,,61,61,17,13,4,5,0.5,0.5
2026-01-06T1900,2501A,108.3506,21.6414,防城港市,大海花园,,28,26,25,19,20,76,,73,73,8,6,6,6,0.6,0.6
2026-01-06T1900,1371A,113.1293,23.0065,佛山市,湾梁,,41,41,28,28,17,63,,72,72,23,19,/,/,/,/
2026-01-06T1900,1372A,113.1082,23.0477,佛山市,华材职中,,,46,31,23,22,61,,73,73,,16,6,6,,0.6
2026-01-06T1900,1373A,113.1439,23.045,佛山市,南海气象局,,42,35,27,29,22,58,,71,71,25,20,/,/,/,/
2026-01-06T1900,1374A,113.2879,22.8094,佛山市,顺德苏岗,,45,39,29,31,16,61,,69,69,21,21,/,/,0.7,0.7
2026-01-06T1900,1376A,112.8384,22.8678,佛山市,高明孔堂,细颗粒物(PM2.5),54,50,31,38,22,72,,79,79,19,14,/,/,/,/
2026-01-06T1900,1377A,112.8835,23.1584,佛山市,三水监测站,细颗粒物(PM2.5),53,46,32,37,23,62,,70,70,24,17,4,5,0.6,0.6
2026-01-06T1900,1378A,112.8668,23.185,佛山市,三水云东海,颗粒物(PM10),54,58,30,35,24,62,,73,73,22,16,/,/,/,/
2026-01-06T1900,3625A,113.2568,22.7629,佛山市,容桂街道办,颗粒物(PM10),52,53,40,34,27,61,,70,70,20,19,/,/,/,/
2026-01-06T1900,1282A,119.2681,26.0506,福州市,师大,,24,24,20,16,18,56,,61,61,16,18,6,6,0.6,0.6
2026-01-06T1900,1283A,119.2983,26.1028,福州市,五四北路,,27,27,20,14,19,53,,56,56,13,16,4,4,0.6,0.6
2026-01-06T1900,1284A,119.2648,26.0769,福州市,杨桥西路,,25,25,21,15,17,55,,61,61,11,11,3,4,/,/
2026-01-06T1900,3048A,119.5799,26.0937,福州市,九龙,,26,26,20,14,15,40,,42,42,15,18,4,4,0.6,0.6
2026-01-06T1900,3526A,119.5188,25.9666,福州市,吴航,,26,26,27,18,19,41,,46,46,23,20,4,4,0.7,0.7
2026-01-06T1900,4104A,119.3106,26.0648,福州市,路通桥巷6号,,30,30,23,19,23,51,,55,55,12,10,/,/,/,/
2026-01-06T1900,1755A,123.7974,41.8494,抚顺市,望花区,细颗粒物(PM2.5),125,144,108,95,70,6,,31,28,82,60,28,16,2.0,1.6
2026-01-06T1900,1756A,123.9161,41.8827,抚顺市,顺城区,细颗粒物(PM2.5),104,110,98,78,65,6,,33,30,86,59,19,14,1.9,1.6
2026-01-06T1900,1757A,124.0437,41.8615,抚顺市,东洲区,细颗粒物(PM2.5),118,132,76,89,60,11,,36,32,75,47,13,11,2.3,1.4
2026-01-06T1900,1758A,123.9246,41.8638,抚顺市,新抚区,细颗粒物(PM2.5),110,125,105,83,70,12,,36,34,84,61,16,10,2.1,1.6
2026-01-06T1900,1759A,124.0972,41.8961,抚顺市,大伙房水库,细颗粒物(PM2.5),119,114,71,90,53,9,,46,40,74,35,17,15,2.0,1.2
2026-01-06T1900,1760A,123.708,41.8386,抚顺市,沈抚新城,细颗粒物(PM2.5),105,126,102,79,75,16,,36,34,84,63,13,14,1.3,1.8
2026-01-06T1900,2377A,116.3544,27.9833,抚州市,市站,细颗粒物(PM2.5),63,67,44,45,32,62,,87,87,30,14,9,7,0.8,0.5
2026-01-06T1900,2378A,116.3562,27.9631,抚州市,血防站,细颗粒物(PM2.5),62,68,48,44,32,75,,91,91,31,16,5,5,0.8,0.6
2026-01-06T1900,2379A,116.3561,28.0007,抚州市,采茶剧团,细颗粒物(PM2.5),64,62,45,46,31,74,,92,92,25,9,6,5,0.9,0.8
2026-01-06T1900,2380A,116.3854,27.9648,抚州市,医学分院,,,69,48,40,29,,,98,98,,12,,4,0.6,0.6
2026-01-06T1900,2207A,121.6095,41.9978,阜新市,工业园区,颗粒物(PM10),86,121,114,12,54,68,,70,70,10,27,8,23,0.3,0.8
2026-01-06T1900,2208A,121.6567,42.0188,阜新市,长青街,颗粒物(PM10),120,190,80,9,44,68,,65,65,8,29,7,19,0.3,0.8
2026-01-06T1900,2209A,121.6672,42.07,阜新市,农业园区,颗粒物(PM10),79,108,72,12,38,66,,67,67,8,22,5,25,0.3,0.6
2026-01-06T1900,2211A,121.6343,42.0455,阜新市,玉龙新城,颗粒物(PM10),102,154,90,7,44,67,,65,65,8,34,7,18,0.2,0.8
2026-01-06T1900,2301A,115.8276,32.8929,阜阳市,市监测站,颗粒物(PM10),53,55,113,34,91,57,,72,71,24,22,5,5,0.5,0.8
2026-01-06T1900,2303A,115.8551,32.8606,阜阳市,开发区,颗粒物(PM10),53,56,106,29,87,54,,72,71,27,22,6,5,0.4,0.6
2026-01-06T1900,2875A,115.783962,32.889217,阜阳市,阜阳职业技术学院,,46,46,104,22,83,62,,76,75,20,18,7,7,0.6,0.8
2026-01-06T1900,3468A,115.79,32.8614,阜阳市,市规划展馆,,,47,114,24,87,,,76,76,26,22,6,6,0.4,0.7
2026-01-06T1900,3469A,115.835101,32.918568,阜阳市,枣园社区,,49,49,119,24,88,59,,73,72,25,24,6,6,0.3,0.6
2026-01-06T1900,2669A,102.9097,34.9841,甘南藏族自治州,州政府,,37,37,56,23,46,70,,79,79,21,24,6,3,0.6,0.8
2026-01-06T1900,3380A,102.8915,34.9618,甘南藏族自治州,甘肃民族师范学院,,36,36,64,20,40,63,,83,83,27,27,5,7,0.2,0.5
2026-01-06T1900,2570A,101.96,30.048,甘孜藏族自治州,水桥子,,23,15,8,8,6,71,,68,68,10,11,6,6,0.9,0.8
2026-01-06T1900,3065A,101.9534,29.9976,甘孜藏族自治州,州环保局,,21,12,10,3,6,67,,67,67,13,10,5,5,0.8,0.7
2026-01-06T1900,2363A,114.9368,25.8663,赣州市,地委,,42,42,39,28,24,74,,80,80,19,12,8,7,0.9,0.7
2026-01-06T1900,2364A,114.946,25.8483,赣州市,气象台,颗粒物(PM10),55,59,49,26,21,63,,78,76,41,19,3,2,0.6,0.7
2026-01-06T1900,2365A,114.932,25.8332,赣州市,市图书馆,,43,43,34,24,24,73,,73,73,21,15,4,4,0.7,0.6
2026-01-06T1900,2366A,114.8905,25.8472,赣州市,华坚鞋城,,42,42,35,21,24,62,,73,73,34,14,5,4,0.4,0.4
2026-01-06T1900,3109A,115.0094,25.8614,赣州市,赣县区卫计委,细颗粒物(PM2.5),60,55,35,43,34,48,,80,80,23,12,7,7,0.5,0.5
2026-01-06T1900,2684A,106.2753,36.0057,固原市,监测站,,28,28,34,14,20,77,,83,83,16,22,5,5,0.5,0.8
2026-01-06T1900,2685A,106.2384,36.0189,固原市,新区,,30,24,30,21,16,79,,89,88,16,14,4,3,0.6,0.7
2026-01-06T1900,2544A,106.6307,30.4577,广安市,市委,,,58,66,45,52,70,,64,64,34,25,,5,0.9,1
2026-01-06T1900,2545A,106.6266,30.4662,广安市,友谊中学,细颗粒物(PM2.5),62,53,56,44,52,67,,72,72,27,12,6,6,0.8,0.8
2026-01-06T1900,2547A,106.6386,30.4551,广安市,广电花园,细颗粒物(PM2.5),53,48,60,37,52,44,,58,58,49,22,8,8,0.7,0.7
2026-01-06T1900,2902A,106.6347,30.4868,广安市,北辰小学,细颗粒物(PM2.5),59,57,60,42,53,68,,72,72,25,16,20,18,1.0,1
2026-01-06T1900,2524A,105.8211,32.4444,广元市,老城,细颗粒物(PM2.5),65,62,45,47,33,19,,64,63,74,40,12,12,1.1,0.8
2026-01-06T1900,2526A,105.8629,32.429,广元市,监测站,,42,42,43,26,28,60,,67,67,24,24,3,4,0.7,0.7
2026-01-06T1900,3617A,105.8047,32.4167,广元市,经开区,,43,43,45,29,30,35,,61,61,42,29,3,6,0.8,0.7
2026-01-06T1900,1345A,113.2346,23.1423,广州市,广雅中学,,49,49,35,32,23,58,,64,64,14,13,4,4,0.6,0.6
2026-01-06T1900,1346A,113.2611,23.105,广州市,市五中,,50,50,33,34,25,66,,75,75,24,21,10,10,/,/
2026-01-06T1900,1348A,113.3477,23.0916,广州市,广东商学院,,45,45,31,29,21,60,,66,66,12,14,7,7,0.4,0.5
2026-01-06T1900,1349A,113.4332,23.105,广州市,市八十六中,细颗粒物(PM2.5),58,43,28,41,22,60,,74,74,14,15,8,7,/,/
2026-01-06T1900,1350A,113.3506,22.9488,广州市,番禺中学,,48,46,34,33,23,64,,74,74,24,26,4,4,0.4,0.5
2026-01-06T1900,1351A,113.2147,23.3918,广州市,花都师范,,49,49,33,32,22,55,,68,68,22,16,6,7,0.6,0.6
2026-01-06T1900,1352A,113.2599,23.1329,广州市,市监测站,,,49,34,34,24,56,,65,65,21,21,,3,/,/
2026-01-06T1900,1353A,113.5618,23.3119,广州市,九龙镇镇龙,,39,34,26,27,21,61,,66,66,10,12,6,5,0.5,0.5
2026-01-06T1900,1354A,113.2764,23.1544,广州市,麓湖,,50,42,32,35,25,54,,64,64,17,17,9,9,0.5,0.4
2026-01-06T1900,2846A,113.3209,23.1323,广州市,体育西,,50,48,33,35,24,59,,68,68,18,17,7,7,0.6,0.6
2026-01-06T1900,3298A,113.5718,23.5493,广州市,从化街口,,40,34,24,28,19,57,,66,65,13,11,9,8,0.7,0.7
2026-01-06T1900,3299A,113.3463,23.369,广州市,白云竹料,,40,38,27,28,20,62,,70,70,14,12,5,6,0.5,0.5
2026-01-06T1900,3300A,113.2981,23.2365,广州市,白云嘉禾,,,54,35,31,22,56,,68,68,,18,,6,/,/
2026-01-06T1900,3301A,113.4256,23.1716,广州市,黄埔科学城,,40,39,30,28,22,67,,77,77,12,12,6,6,0.7,0.7
2026-01-06T1900,3302A,113.3942,23.0485,广州市,番禺大学城,,42,42,31,29,20,66,,77,77,13,14,10,9,0.5,0.5
2026-01-06T1900,3303A,113.4923,22.8169,广州市,南沙黄阁,颗粒物(PM10),54,57,32,32,21,59,,74,73,26,26,6,6,/,/
2026-01-06T1900,3304A,113.534,22.7893,广州市,南沙街,颗粒物(PM10),55,59,35,29,20,57,,72,72,25,23,6,7,0.7,0.7
2026-01-06T1900,3443A,113.2905,23.5541,广州市,花都梯面,,42,35,26,29,20,60,,67,67,12,11,6,7,/,/
2026-01-06T1900,3445A,113.786,23.7479,广州市,从化良口,,35,28,23,24,19,58,,64,63,11,8,8,8,/,/
2026-01-06T1900,3446A,113.805,23.2614,广州市,增城荔城,,33,30,22,23,18,54,,72,70,12,10,6,6,0.5,0.5
2026-01-06T1900,2506A,109.604387,23.066791,贵港市,江南子站,,34,34,29,23,21,92,,92,92,11,9,5,4,0.5,0.5
2026-01-06T1900,2508A,109.5669,23.1065,贵港市,荷城子站,,39,34,29,27,20,78,,85,85,16,11,4,3,0.4,0.4
2026-01-06T1900,3405A,109.5886,23.1172,贵港市,新世纪学校,,,,32,,23,84,,88,88,14,12,/,/,0.5,0.4
2026-01-06T1900,4260A,109.5933,23.095,贵港市,中山路155-3号,,42,34,29,29,24,87,,89,89,13,10,/,/,0.5,0.5
2026-01-06T1900,1439A,106.6863,26.6035,贵阳市,马鞍山,细颗粒物(PM2.5),58,41,35,41,31,61,,67,67,14,10,7,7,/,/
2026-01-06T1900,1441A,106.6241,26.6266,贵阳市,鉴湖路,"颗粒物(PM10),细颗粒物(PM2.5)",52,53,43,36,25,68,,71,71,16,15,4,3,0.6,0.6
2026-01-06T1900,1442A,106.7468,26.6344,贵阳市,燕子冲,细颗粒物(PM2.5),62,46,38,44,34,70,,69,69,11,11,7,8,0.6,0.7
2026-01-06T1900,1443A,106.6556,26.4362,贵阳市,碧云窝,颗粒物(PM10),57,63,49,39,29,59,,66,66,21,14,11,9,/,/
2026-01-06T1900,1445A,106.6963,26.6063,贵阳市,红边门,细颗粒物(PM2.5),64,46,39,46,28,60,,61,61,21,14,10,9,/,/
2026-01-06T1900,1446A,106.7162383,26.56964667,贵阳市,新华路,细颗粒物(PM2.5),58,61,47,41,29,64,,64,64,16,13,8,6,0.5,0.5
2026-01-06T1900,1447A,106.6742,26.542,贵阳市,太慈桥,,49,44,37,34,27,65,,62,62,18,15,6,5,/,/
2026-01-06T1900,4230A,106.688212,26.56952,贵阳市,花果园大街66号,,43,41,31,30,27,59,,57,57,18,14,5,4,/,/
2026-01-06T1900,4231A,106.687268,26.516892,贵阳市,漓江路57号,细颗粒物(PM2.5),58,48,40,41,29,62,,62,62,20,16,7,7,0.8,0.7
2026-01-06T1900,1864A,110.3091,25.2705,桂林市,龙隐路小学,,45,33,35,31,37,87,,89,89,11,10,7,8,0.3,0.3
2026-01-06T1900,1865A,110.2849361,25.22909545,桂林市,八中,,46,44,34,32,35,78,,82,82,21,15,8,10,0.5,0.6
2026-01-06T1900,3531A,110.296,25.1254,桂林市,旅游学院,,32,27,29,22,26,91,,97,97,10,10,4,5,0.6,0.6
2026-01-06T1900,4222A,110.1835,25.2444,桂林市,环湖路276号,细颗粒物(PM2.5),52,41,38,36,34,76,,81,81,15,11,6,9,0.5,0.5
2026-01-06T1900,4301A,110.2803,25.2773,桂林市,信义路13号,,40,30,33,28,32,80,,91,91,23,13,5,8,0.6,0.6
2026-01-06T1900,2674A,100.2262,34.4854,果洛藏族自治州,玛沁县大武镇,,48,48,32,11,10,95,,89,89,2,4,7,13,0.3,0.4
2026-01-06T1900,1130A,126.5557,45.8109,哈尔滨市,松北商大,,45,45,54,22,39,27,,46,44,34,36,9,10,0.7,0.7
2026-01-06T1900,1132A,126.6162,45.719,哈尔滨市,南岗学府路,颗粒物(PM10),55,59,64,38,46,32,,44,42,25,35,10,11,0.8,0.9
2026-01-06T1900,1133A,126.6894,45.7733,哈尔滨市,太平宏伟公园,细颗粒物(PM2.5),52,49,71,36,49,36,,46,44,31,36,16,15,0.6,0.9
2026-01-06T1900,1134A,126.6361,45.7672,哈尔滨市,道外承德广场,"颗粒物(PM10),细颗粒物(PM2.5)",64,77,77,46,45,15,,43,37,54,46,11,16,0.8,0.9
2026-01-06T1900,1136A,126.644,45.7261,哈尔滨市,动力和平路,颗粒物(PM10),57,63,66,38,47,33,,42,41,29,36,10,15,0.6,0.9
2026-01-06T1900,1137A,126.5933,45.7479,哈尔滨市,道里建国路,细颗粒物(PM2.5),68,56,63,49,52,19,,40,34,42,40,14,20,0.5,0.9
2026-01-06T1900,1138A,126.6127,45.6119,哈尔滨市,平房东轻厂,,40,35,51,28,41,38,,45,41,27,29,6,7,0.3,0.5
2026-01-06T1900,1139A,126.5875,45.9827,哈尔滨市,呼兰师专,细颗粒物(PM2.5),59,59,57,42,51,37,,42,41,22,36,12,14,0.7,0.9
2026-01-06T1900,1140A,126.6299,45.6799,哈尔滨市,省农科院,细颗粒物(PM2.5),65,50,66,47,51,27,,40,37,37,45,15,16,0.5,0.8
2026-01-06T1900,4282A,126.6769,45.7379,哈尔滨市,华山路1号,细颗粒物(PM2.5),52,46,65,36,44,24,,42,40,35,41,20,26,0.8,0.9
2026-01-06T1900,4283A,126.9717,45.5356,哈尔滨市,解放大街52号,细颗粒物(PM2.5),74,66,53,54,46,44,,58,54,25,22,18,17,0.8,0.8
2026-01-06T1900,2688A,93.5124,42.8176,哈密市,地区监测站,细颗粒物(PM2.5),134,136,91,102,68,28,,51,50,33,22,7,4,1.7,0.5
2026-01-06T1900,2689A,93.5014,42.8312,哈密市,哈密师范学校,颗粒物(PM10),107,164,103,3,47,,,53,53,31,34,11,8,1.2,0.7
2026-01-06T1900,2671A,100.9016,36.9464,海北藏族自治州,海晏县西海镇,,30,26,33,14,25,93,,89,89,3,10,7,11,0.3,0.6
2026-01-06T1900,3867A,102.074,36.5056,海东市,平安区公安局北苑,颗粒物(PM10),73,95,80,48,64,63,,59,59,27,24,38,21,1.1,1.3
2026-01-06T1900,4163A,102.0984,36.5119,海东市,滨河路,,,84,69,72,59,,,72,72,48,42,42,19,1.0,1.2
2026-01-06T1900,1410A,110.3189,20.0596,海口市,海南大学,,41,41,52,27,35,80,,56,56,12,13,8,9,0.5,0.5
2026-01-06T1900,1411A,110.2827,20.0051,海口市,秀英海南医院,,46,46,50,29,35,70,,52,52,16,14,10,10,0.6,0.6
2026-01-06T1900,1412A,110.3391,19.9979,海口市,海南师范大学,,45,41,50,31,34,80,,59,58,13,13,9,8,0.7,0.6
2026-01-06T1900,1413A,110.3303,20.0359,海口市,龙华路环保局宿舍,,42,42,52,28,35,79,,58,58,14,14,/,/,0.7,0.8
2026-01-06T1900,3539A,110.5111,19.9737,海口市,桂林洋子站,,44,44,54,30,34,83,,67,67,12,14,/,/,/,/
2026-01-06T1900,4134A,110.1952,20.0451,海口市,长滨二路9号,,42,39,49,29,39,73,,58,58,11,13,/,/,/,/
2026-01-06T1900,2673A,100.6158,36.2985,海南藏族自治州,共和县恰卜恰镇,,35,35,40,20,21,74,,84,84,24,20,10,12,0.5,0.6
2026-01-06T1900,2676A,97.373,37.376,海西蒙古族藏族自治州,德令哈市,,30,28,16,12,15,95,,94,94,8,9,11,12,0.5,0.5
2026-01-06T1900,1049A,114.492,36.5712,邯郸市,矿院,细颗粒物(PM2.5),55,50,85,39,87,54,,66,66,28,38,6,7,0.5,1
2026-01-06T1900,1050A,114.4839,36.6136,邯郸市,丛台公园,,32,29,84,22,77,56,,67,67,28,28,6,8,0.5,0.9
2026-01-06T1900,3458A,114.7893,36.5592,邯郸市,香泉濮院小区,颗粒物(PM10),64,78,115,42,104,57,,68,68,23,32,6,8,0.5,0.9
2026-01-06T1900,3580A,114.1998,36.4439,邯郸市,峰峰矿区临水派出所,,26,17,44,14,50,82,,79,79,13,17,8,9,0.4,0.7
2026-01-06T1900,4068A,114.5209,36.7697,邯郸市,建安街268号,颗粒物(PM10),65,79,88,34,79,4,,56,51,72,48,10,8,0.5,0.9
2026-01-06T1900,4069A,114.5488,36.6177,邯郸市,丛台东路558号,细颗粒物(PM2.5),53,52,94,37,84,42,,60,59,25,32,8,8,0.5,1
2026-01-06T1900,2635A,107.0155,33.0707,汉中市,市监测站,,49,40,56,34,43,67,,75,75,32,32,7,8,0.6,0.8
2026-01-06T1900,2636A,107.0083,33.114,汉中市,鑫源开发区,,49,37,53,34,44,63,,81,81,29,30,6,9,0.3,0.5
2026-01-06T1900,2637A,107.0072,33.0323,汉中市,南郑大河坎水厂,细颗粒物(PM2.5),52,47,62,36,46,63,,75,75,32,28,8,6,0.9,1
2026-01-06T1900,1223A,120.2073,30.2111,杭州市,滨江,细颗粒物(PM2.5),88,78,84,65,70,55,,57,57,30,33,6,6,0.6,0.6
2026-01-06T1900,1224A,120.0625,30.2737,杭州市,西溪,细颗粒物(PM2.5),79,73,74,58,56,51,,62,62,25,34,8,8,0.8,0.8
2026-01-06T1900,1226A,120.3417,30.315,杭州市,下沙,细颗粒物(PM2.5),90,82,95,67,81,46,,59,59,44,44,7,8,0.9,0.9
2026-01-06T1900,1227A,120.1252,30.2465,杭州市,卧龙桥,细颗粒物(PM2.5),82,75,77,60,60,32,,55,55,22,19,9,9,0.7,0.8
2026-01-06T1900,1228A,120.1902,30.2691,杭州市,浙江农大,细颗粒物(PM2.5),90,83,97,67,78,60,,61,61,31,41,5,4,0.6,0.7
2026-01-06T1900,1230A,120.1195,30.3121,杭州市,和睦小学,,,79,88,64,70,,,66,66,25,31,5,5,0.8,0.9
2026-01-06T1900,1231A,120.3076,30.4146,杭州市,临平镇,细颗粒物(PM2.5),75,74,103,55,80,66,,65,65,18,27,7,7,0.6,0.7
2026-01-06T1900,1232A,120.2753,30.1839,杭州市,城厢镇,细颗粒物(PM2.5),78,79,82,57,62,60,,60,60,30,35,7,7,0.7,0.6
2026-01-06T1900,1233A,120.0883,30.1808,杭州市,云栖,细颗粒物(PM2.5),77,70,73,56,58,37,,62,62,20,19,4,3,0.9,0.9
2026-01-06T1900,3557A,119.9463,30.0496,杭州市,镇二中,细颗粒物(PM2.5),73,,60,53,61,58,,51,51,23,34,5,5,0.8,0.9
2026-01-06T1900,3558A,119.7184,30.2367,杭州市,市府大楼,细颗粒物(PM2.5),70,69,91,51,67,53,,64,62,21,22,10,10,0.8,1
2026-01-06T1900,3656A,120.1554,30.2863,杭州市,消防大队,细颗粒物(PM2.5),87,72,83,64,73,58,,61,61,24,28,6,6,0.7,0.7
2026-01-06T1900,1270A,117.1957,31.7845,合肥市,明珠广场,颗粒物(PM10),51,51,73,29,52,42,,59,57,42,33,5,5,0.7,0.8
2026-01-06T1900,1271A,117.307,31.8765,合肥市,三里街,,41,41,77,19,59,58,,65,65,28,31,6,5,0.6,0.8
2026-01-06T1900,1272A,117.2587,31.8703,合肥市,琥珀山庄,,41,41,78,23,57,56,,70,68,28,29,8,8,0.7,0.9
2026-01-06T1900,1275A,117.2593,31.9376,合肥市,庐阳区,,44,44,70,14,48,61,,72,71,27,25,5,5,0.6,0.7
2026-01-06T1900,1276A,117.345251,31.861615,合肥市,瑶海区,,39,39,80,20,63,64,,69,68,23,26,4,4,0.5,0.8
2026-01-06T1900,1277A,117.3033,31.7967,合肥市,包河区,,39,39,74,24,60,43,,61,59,45,50,6,5,0.7,0.8
2026-01-06T1900,1278A,117.278,31.7392,合肥市,滨湖新区,,49,46,75,34,64,41,,66,63,48,43,4,4,0.7,0.9
2026-01-06T1900,1279A,117.1324,31.8395,合肥市,高新区,,44,44,69,24,53,64,,71,71,24,30,4,4,0.6,0.7
2026-01-06T1900,3464A,117.3802,31.9148,合肥市,高教基地,,46,46,78,20,54,58,,68,68,27,29,7,6,0.6,0.7
2026-01-06T1900,4098A,117.2518,31.8404,合肥市,中国科学技术大学,,39,39,76,13,54,63,,73,72,26,24,5,5,0.4,0.6
2026-01-06T1900,3614A,79.9241,37.0878,和田地区,地区环保局,颗粒物(PM10),57,63,56,38,33,38,,40,38,20,22,2,3,0.5,0.5
2026-01-06T1900,3615A,79.9132,37.1137,和田地区,市环保局,颗粒物(PM10),62,73,52,32,25,43,,48,38,22,22,1,2,0.3,1
2026-01-06T1900,2517A,108.0496,24.6957,河池市,市环保站,,22,,22,15,11,58,,65,65,12,8,2,2,0.7,0.7
2026-01-06T1900,4302A,108.0901,24.6945,河池市,上任中路54号,,30,23,22,21,17,54,,59,58,15,11,4,4,0.7,0.6
2026-01-06T1900,1697A,114.6962,23.7538,河源市,东埔,,46,35,28,32,25,67,,76,76,14,11,5,6,0.6,0.7
2026-01-06T1900,1698A,114.6895,23.7232,河源市,老城,,41,41,31,25,22,70,,77,77,10,8,5,6,0.7,0.7
2026-01-06T1900,3374A,115.5562,35.089,菏泽市,定陶老年大学,细颗粒物(PM2.5),70,85,133,51,106,45,,52,52,28,27,4,4,0.7,1
2026-01-06T1900,4114A,115.4239,35.2593,菏泽市,黄河路600号,颗粒物(PM10),57,64,134,31,99,45,,54,54,32,33,5,5,1.0,1.3
2026-01-06T1900,4115A,115.5025,35.2727,菏泽市,菏泽市人社局,颗粒物(PM10),62,73,132,31,100,49,,55,55,27,27,5,5,0.5,0.8
2026-01-06T1900,4184A,115.479691,35.244011,菏泽市,永昌路1号,细颗粒物(PM2.5),69,78,132,50,104,46,,59,59,40,29,8,8,0.5,0.7
2026-01-06T1900,4193A,115.471542,35.280012,菏泽市,长城路999号,颗粒物(PM10),61,72,131,35,99,54,,55,55,24,26,5,5,0.5,1.1
2026-01-06T1900,2514A,111.5264,24.4178,贺州市,环保小区,颗粒物(PM10),53,55,42,26,36,83,,84,84,18,15,7,5,1.3,0.6
2026-01-06T1900,2515A,111.561,24.4074,贺州市,政协大楼,颗粒物(PM10),57,63,42,34,32,78,,82,82,17,14,8,8,0.6,0.6
2026-01-06T1900,3534A,111.4744,24.455,贺州市,西湾,,44,44,43,26,32,80,,83,83,20,12,6,6,0.7,0.7
2026-01-06T1900,2385A,114.17,35.9019,鹤壁市,市监测站,细颗粒物(PM2.5),64,60,69,46,53,31,,64,61,40,22,6,5,0.7,0.7
2026-01-06T1900,2386A,114.2953,35.7512,鹤壁市,市交警支队,,,39,85,16,63,,,58,58,38,35,3,4,0.5,0.7
2026-01-06T1900,2387A,114.2877,35.7302,鹤壁市,迎宾馆,,48,48,88,28,68,45,,65,64,33,23,4,6,0.6,0.9
2026-01-06T1900,3474A,114.2616,35.6824,鹤壁市,大新区,,29,26,93,10,70,14,,64,56,57,33,5,6,0.4,0.9
2026-01-06T1900,3596A,114.1573,35.9607,鹤壁市,南山宾馆,颗粒物(PM10),54,58,66,35,52,47,,69,67,30,19,13,7,0.5,0.6
2026-01-06T1900,2244A,130.2537,47.3416,鹤岗市,哈啤分公司,细颗粒物(PM2.5),64,48,32,46,32,43,,60,39,28,18,10,8,0.6,0.5
2026-01-06T1900,2245A,130.2683,47.3087,鹤岗市,斯达机电,细颗粒物(PM2.5),53,50,43,37,28,39,,58,40,29,19,8,8,0.7,0.6
2026-01-06T1900,2246A,130.3114,47.3388,鹤岗市,东山纸板厂,细颗粒物(PM2.5),57,54,49,40,34,19,,35,34,52,36,15,13,0.8,1.2
2026-01-06T1900,2263A,127.4832,50.2524,黑河市,交通局,,36,30,28,25,21,48,,49,46,11,17,6,7,0.5,0.5
2026-01-06T1900,2264A,127.5146,50.2339,黑河市,环保局,,34,34,40,23,35,38,,42,40,20,35,9,15,0.6,0.9
2026-01-06T1900,1074A,115.6839,37.754,衡水市,电机北厂,,,87,135,42,102,53,,54,54,19,36,,7,0.5,1
2026-01-06T1900,1075A,115.6303,37.7318,衡水市,市监测站,细颗粒物(PM2.5),67,60,125,48,103,50,,54,54,26,42,8,9,0.6,1.1
2026-01-06T1900,3188A,115.6684,37.7216,衡水市,市城管局,细颗粒物(PM2.5),63,70,134,45,103,49,,54,54,34,44,9,11,0.5,1
2026-01-06T1900,3459A,115.599,37.5491,衡水市,地表水厂,颗粒物(PM10),66,81,132,41,120,20,,53,51,58,52,8,9,0.5,1
2026-01-06T1900,2457A,112.6209,26.9268,衡阳市,衡阳化工总厂,细颗粒物(PM2.5),79,64,67,58,62,84,,85,85,19,29,8,12,0.8,0.9
2026-01-06T1900,2458A,112.621,26.8957,衡阳市,珠晖区环保局,细颗粒物(PM2.5),85,71,68,63,65,55,,73,73,42,36,5,7,1.1,1.2
2026-01-06T1900,2459A,112.628,26.8654,衡阳市,市委党校,细颗粒物(PM2.5),83,,67,61,65,83,,89,89,21,29,10,11,1.1,1.1
2026-01-06T1900,2460A,112.6007,26.8977,衡阳市,市监测站,细颗粒物(PM2.5),84,92,92,62,70,72,,84,84,29,31,7,8,1.2,1.1
2026-01-06T1900,2461A,112.5658,26.9013,衡阳市,真空机电公司,细颗粒物(PM2.5),82,68,82,60,63,74,,86,86,29,29,7,7,1.0,1
2026-01-06T1900,3399A,112.6703,26.8817,衡阳市,师范学院,细颗粒物(PM2.5),77,62,73,56,54,74,,88,88,27,28,4,5,0.9,0.9
2026-01-06T1900,3038A,103.3757,23.3679,红河哈尼族彝族自治州,州图书馆,,21,21,9,11,6,33,,28,28,8,8,6,6,0.7,0.6
2026-01-06T1900,4154A,103.401,23.3561,红河哈尼族彝族自治州,蒙自市朝阳路,,20,14,13,14,8,34,,33,31,7,6,5,7,0.6,0.7
2026-01-06T1900,1090A,111.6506,40.7517,呼和浩特市,呼市一监,细颗粒物(PM2.5),63,70,56,45,37,26,,40,38,36,33,5,5,0.6,0.6
2026-01-06T1900,1094A,111.7516,40.8369,呼和浩特市,如意水处理厂,细颗粒物(PM2.5),78,92,65,57,41,5,,37,33,62,44,11,11,1.1,0.7
2026-01-06T1900,1095A,111.727798,40.806187,呼和浩特市,二十九中,颗粒物(PM10),69,88,64,42,37,8,,38,33,56,38,13,12,0.7,0.6
2026-01-06T1900,1097A,111.717,40.7617,呼和浩特市,化肥厂生活区,颗粒物(PM10),71,91,61,50,37,10,,38,35,56,37,8,8,0.9,0.7
2026-01-06T1900,3699A,111.6519,40.8389,呼和浩特市,海东办,颗粒物(PM10),68,85,67,46,42,8,,34,32,56,42,7,6,0.7,0.7
2026-01-06T1900,4275A,111.591512,40.827312,呼和浩特市,成吉思汗西街8号,颗粒物(PM10),80,110,56,55,34,4,,31,27,60,41,10,8,0.7,0.7
2026-01-06T1900,4276A,111.6597,40.8077,呼和浩特市,公园东路75号,颗粒物(PM10),73,95,59,43,36,18,,34,32,51,37,10,7,0.6,0.6
2026-01-06T1900,4277A,111.5427,40.7846,呼和浩特市,金海路35号,颗粒物(PM10),75,100,73,54,43,3,,30,28,56,41,9,10,0.7,0.6
2026-01-06T1900,3061A,119.7511,49.1576,呼伦贝尔市,国华电力东,,30,30,22,17,14,57,,59,59,18,25,6,6,0.3,0.4
2026-01-06T1900,4279A,119.7569,49.2222,呼伦贝尔市,伊敏大街东7号,,46,35,25,32,22,54,,54,54,10,21,8,8,0.5,0.5
2026-01-06T1900,1250A,120.075,30.867,湖州市,城西水厂,细颗粒物(PM2.5),68,62,123,49,81,44,,72,72,44,46,10,10,0.5,0.8
2026-01-06T1900,2873A,120.083,30.8929,湖州市,仁皇山新区,,,59,124,48,104,,,87,87,25,44,11,11,0.5,0.8
2026-01-06T1900,2907A,120.1846,30.8592,湖州市,吴兴区站,细颗粒物(PM2.5),68,62,120,49,104,71,,77,77,19,34,6,7,0.7,0.9
2026-01-06T1900,3562A,120.4146,30.8538,湖州市,南浔区站,细颗粒物(PM2.5),83,68,128,61,108,62,,62,62,24,38,7,7,0.8,1
2026-01-06T1900,1607A,120.904878,40.721091,葫芦岛市,龙港区,细颗粒物(PM2.5),124,112,82,94,52,9,,51,45,70,49,27,26,1.5,1.5
2026-01-06T1900,1608A,120.8382,40.7521,葫芦岛市,化工街,颗粒物(PM10),81,112,94,48,56,20,,40,39,68,59,30,30,1.1,1.3
2026-01-06T1900,1609A,120.8339,40.7078,葫芦岛市,新区,颗粒物(PM10),60,70,56,41,40,22,,40,37,65,58,14,18,1.4,1.3
2026-01-06T1900,1610A,120.8697,40.7679,葫芦岛市,东城区,颗粒物(PM10),74,97,84,45,68,21,,43,43,67,58,15,29,1.0,1.4
2026-01-06T1900,2483A,109.9297,27.5383,怀化市,河西地税局,细颗粒物(PM2.5),52,50,43,36,37,31,,66,66,25,16,4,4,/,/
2026-01-06T1900,2484A,109.9783,27.5342,怀化市,市四医院,,46,46,50,26,37,48,,66,66,19,15,9,11,0.6,0.7
2026-01-06T1900,2485A,109.9971,27.5579,怀化市,监测楼,,,,52,,39,55,,72,72,15,17,2,4,0.1,0.3
2026-01-06T1900,1210A,119.0566,33.5991,淮安市,钵池山,细颗粒物(PM2.5),75,66,94,55,82,61,,68,68,21,29,9,8,0.5,0.7
2026-01-06T1900,1211A,119.0083,33.578,淮安市,北京南路,,,75,100,52,83,,,55,55,36,34,8,9,0.5,1.1
2026-01-06T1900,1212A,118.9938,33.6083,淮安市,市监测站,颗粒物(PM10),57,63,91,39,79,49,,60,60,27,30,10,9,0.8,0.9
2026-01-06T1900,1213A,119.135,33.5038,淮安市,楚州区监测站,颗粒物(PM10),62,73,98,35,78,41,,57,57,31,40,10,10,0.7,0.8
2026-01-06T1900,3426A,118.8757,33.2897,淮安市,新华书店,颗粒物(PM10),55,59,141,30,122,58,,59,59,14,36,9,9,1.0,1.2
2026-01-06T1900,4092A,119.119691,33.550006,淮安市,枚皋中路89号,,,65,100,37,76,63,,70,70,20,36,11,8,,1
2026-01-06T1900,4206A,119.028838,33.631911,淮安市,承德北路606号,细颗粒物(PM2.5),72,83,106,52,81,50,,62,62,29,32,10,9,0.6,0.7
2026-01-06T1900,2282A,116.8005,33.9749,淮北市,监测站,细颗粒物(PM2.5),85,94,216,63,145,49,,65,64,38,38,10,10,0.8,1
2026-01-06T1900,2283A,116.8094,33.9008,淮北市,烈山区政府,,,,196,68,156,,,67,67,29,43,9,10,0.7,1
2026-01-06T1900,4017A,116.7926,33.9534,淮北市,市博物馆,细颗粒物(PM2.5),85,105,217,63,171,47,,63,62,33,42,12,10,0.7,1.1
2026-01-06T1900,4100A,116.8322,33.9884,淮北市,杜集区第一实验学校,细颗粒物(PM2.5),89,101,182,66,154,64,,70,69,19,30,9,8,0.7,1.2
2026-01-06T1900,2277A,116.8304,32.7726,淮南市,潘集区政府,细颗粒物(PM2.5),62,64,112,44,94,58,,69,69,18,21,6,5,0.5,0.8
2026-01-06T1900,2279A,116.8569,32.5949,淮南市,谢家集区政府,,40,40,89,22,64,51,,69,67,23,23,8,7,0.4,0.6
2026-01-06T1900,2280A,116.8279,32.6333,淮南市,八公山区政府,,37,37,99,23,78,64,,69,69,12,13,4,3,0.4,0.6
2026-01-06T1900,2894A,117.0561,32.6536,淮南市,经济技术开发区消防队,"颗粒物(PM10),细颗粒物(PM2.5)",55,59,116,39,87,61,,69,69,20,21,5,5,0.5,0.7
2026-01-06T1900,3329A,117.011,32.5891,淮南市,山南新区,,49,49,113,11,81,61,,74,,15,24,2,2,0.4,0.6
2026-01-06T1900,4209A,117.003137,32.644456,淮南市,国庆中路369号,颗粒物(PM10),53,55,100,34,74,50,,63,62,22,26,6,5,0.6,0.7
2026-01-06T1900,2446A,114.9021,30.474,黄冈市,职工中心,,29,29,50,16,34,79,,86,86,16,17,6,11,0.5,0.7
2026-01-06T1900,2929A,114.8858,30.4519,黄冈市,红卫路,,26,26,46,18,33,75,,81,81,18,21,7,6,0.6,0.7
2026-01-06T1900,3398A,114.9134,30.4446,黄冈市,市林业局,,30,30,49,14,34,81,,85,85,14,19,4,4,0.7,1
2026-01-06T1900,2672A,102.02,35.5101,黄南藏族自治州,同仁县隆务镇,,48,48,48,28,36,64,,72,72,7,6,10,10,0.4,0.5
2026-01-06T1900,2295A,118.2905,29.6965,黄山市,延安路89号,细颗粒物(PM2.5),53,40,38,37,37,92,,92,92,11,13,4,3,0.5,0.6
2026-01-06T1900,2297A,118.1369,30.2755,黄山市,黄山区政府5号楼,,,67,64,64,54,,,87,87,21,16,4,6,,0.7
2026-01-06T1900,4210A,118.335445,29.720283,黄山市,滨江东路7-2号,细颗粒物(PM2.5),63,63,56,45,52,89,,83,83,14,15,/,/,/,/
2026-01-06T1900,2423A,115.0547,30.2332,黄石市,沈家营,,27,27,51,14,23,74,,86,86,14,15,7,5,1.3,1.2
2026-01-06T1900,2426A,114.899,30.211,黄石市,铁山,,42,42,57,22,41,57,,77,77,30,29,5,6,0.5,0.5
2026-01-06T1900,2427A,115.0259,30.2108,黄石市,团城山,,31,31,60,11,40,81,,86,86,13,21,7,6,0.6,1
2026-01-06T1900,3149A,115.0174,30.1591,黄石市,笔架山北路,,42,42,89,10,45,74,,76,76,11,25,6,7,0.8,1.2
2026-01-06T1900,4185A,115.078022,30.21118,黄石市,磁湖东路29号,,38,38,64,20,45,59,,70,70,21,24,7,6,0.8,1
2026-01-06T1900,1392A,114.4181,23.0528,惠州市,河南岸金山湖子站,,43,43,35,27,21,64,,80,79,18,14,5,4,0.6,0.6
2026-01-06T1900,1393A,114.4055,23.0824,惠州市,下埔横江三路子站,,41,41,33,26,22,70,,84,84,12,10,6,6,0.4,0.4
2026-01-06T1900,1395A,114.4645,22.7832,惠州市,惠阳区承修路船湖子站,,42,42,38,26,24,79,,89,89,12,10,6,6,0.6,0.6
2026-01-06T1900,1396A,114.5316,22.7423,惠州市,大亚湾管委会子站,,40,40,34,25,20,79,,85,85,10,6,6,6,0.4,0.5
2026-01-06T1900,3314A,114.4334,22.8134,惠州市,惠阳秋长,颗粒物(PM10),51,51,36,24,22,82,,94,94,14,11,/,/,/,/
2026-01-06T1900,3452A,114.6521,22.7755,惠州市,大亚湾霞涌,,40,39,34,28,26,82,,86,86,11,11,/,/,/,/
2026-01-06T1900,4300A,114.4089,23.1147,惠州市,文华一路1号,,39,39,32,26,24,73,,88,88,13,11,/,/,/,/
2026-01-06T1900,2240A,130.9618,45.2926,鸡西市,环保局,,31,31,21,3,15,41,,52,50,12,11,8,11,0.5,0.4
2026-01-06T1900,2243A,130.9294,45.2959,鸡西市,第一中学,,43,35,23,30,17,39,,56,53,18,12,3,3,0.7,0.6
2026-01-06T1900,3707A,131.0069,45.2988,鸡西市,欧美日汽修厂,,46,46,38,27,21,46,,53,53,11,19,8,10,0.5,0.5
2026-01-06T1900,2367A,114.9753,27.0803,吉安市,红声器材厂,,42,42,47,26,28,88,,88,88,20,19,9,10,0.7,0.7
2026-01-06T1900,2369A,114.9903,27.1313,吉安市,市环境监测站,,46,45,43,32,32,77,,87,87,27,13,14,16,/,/
2026-01-06T1900,2370A,115.009527,27.096792,吉安市,青原区法院,,48,48,44,31,31,60,,82,82,38,17,10,12,0.8,0.6
2026-01-06T1900,1772A,126.54,43.8622,吉林市,哈达湾,,36,36,34,23,24,71,,74,74,14,18,17,10,1.1,1.1
2026-01-06T1900,1773A,126.5843,43.8358,吉林市,东局子,,39,39,35,23,22,61,,62,62,14,17,8,7,1.0,1
2026-01-06T1900,1774A,126.5051,43.8243,吉林市,电力学院,,36,31,42,25,34,65,,66,66,14,25,13,13,0.6,0.9
2026-01-06T1900,1775A,126.6133,43.8971,吉林市,江北,,45,45,35,27,24,61,,62,62,16,16,8,7,1.0,1.1
2026-01-06T1900,1776A,126.5549,43.8304,吉林市,江南公园,,45,40,35,31,29,68,,73,73,14,16,10,9,0.5,0.6
2026-01-06T1900,2868A,126.4737,43.953,吉林市,九站,,48,48,32,29,22,54,,64,62,20,19,8,7,0.7,0.8
2026-01-06T1900,1299A,116.9866,36.6118,济南市,科干所,细颗粒物(PM2.5),110,127,171,83,125,48,,68,57,40,45,10,13,1.2,1.3
2026-01-06T1900,1300A,116.9379,36.6652,济南市,农科所,细颗粒物(PM2.5),119,142,182,90,137,19,,53,47,61,53,10,10,1.1,1.2
2026-01-06T1900,1301A,117.1265,36.6736,济南市,开发区,细颗粒物(PM2.5),125,132,162,95,128,34,,61,58,52,51,10,6,1.3,1.2
2026-01-06T1900,1303A,117.0616,36.6865,济南市,省种子仓库,细颗粒物(PM2.5),128,146,180,97,129,36,,61,58,50,59,11,11,1.1,1.3
2026-01-06T1900,1304A,116.9495185,36.644937,济南市,机床二厂,细颗粒物(PM2.5),150,164,186,115,148,24,,55,50,62,57,29,22,1.4,1.5
2026-01-06T1900,1305A,117.0496,36.6629,济南市,市监测站,细颗粒物(PM2.5),125,134,170,95,129,29,,60,53,45,49,9,8,1.2,1.2
2026-01-06T1900,1306A,116.7674,36.5458,济南市,长清党校,细颗粒物(PM2.5),113,127,205,85,163,42,,52,52,36,45,10,10,1.0,1.3
2026-01-06T1900,1961A,117.5323,36.6865,济南市,东山小学,细颗粒物(PM2.5),135,154,150,103,113,47,,74,70,44,47,8,7,1.3,1.2
2026-01-06T1900,3059A,117.7181,36.205,济南市,泰兴公司,细颗粒物(PM2.5),272,256,192,222,162,44,,66,66,67,61,10,13,1.5,1.5
2026-01-06T1900,3064A,117.6861,36.2172,济南市,莱芜战役纪念馆,细颗粒物(PM2.5),266,254,194,216,162,57,,69,69,49,62,11,14,1.8,1.4
2026-01-06T1900,3494A,117.1673,36.9782,济南市,济阳区政府,细颗粒物(PM2.5),98,129,149,73,102,33,,47,47,45,61,11,13,0.8,1
2026-01-06T1900,3495A,117.1168,36.6299,济南市,锦屏中学,细颗粒物(PM2.5),113,117,143,85,113,46,,75,66,40,37,7,6,1.1,1.1
2026-01-06T1900,4108A,117.7107,36.2385,济南市,山财大街5号,细颗粒物(PM2.5),248,307,229,198,150,60,,78,78,44,52,14,16,2.6,1.5
2026-01-06T1900,4109A,116.9744,36.6889,济南市,无影山路12号,细颗粒物(PM2.5),127,150,192,96,147,23,,57,50,60,57,12,14,1.1,1.3
2026-01-06T1900,1653A,116.6229,35.4288,济宁市,火炬城,细颗粒物(PM2.5),144,140,213,110,206,35,,54,54,43,41,8,7,0.9,1.1
2026-01-06T1900,3500A,116.5808,35.3703,济宁市,北湖一中,细颗粒物(PM2.5),145,166,214,111,200,35,,47,47,45,45,9,7,0.9,1.2
2026-01-06T1900,3501A,116.8251,35.5592,济宁市,服务中心,细颗粒物(PM2.5),134,198,238,102,175,35,,56,55,46,53,12,12,1.0,1.2
2026-01-06T1900,3678A,116.5907,35.4054,济宁市,市第七中学,细颗粒物(PM2.5),125,154,206,95,181,,,56,56,47,41,11,10,1.0,1.2
2026-01-06T1900,4111A,116.6075,35.4566,济宁市,任和路,细颗粒物(PM2.5),112,158,240,84,193,35,,53,53,46,45,10,8,0.8,1.2
2026-01-06T1900,4112A,116.5648,35.3921,济宁市,文体南路1号,细颗粒物(PM2.5),133,174,240,101,205,29,,46,46,49,47,9,6,0.9,1.1
2026-01-06T1900,2255A,130.2749,46.8028,佳木斯市,佳纺,细颗粒物(PM2.5),87,95,49,64,31,12,,45,42,48,27,10,9,0.8,0.4
2026-01-06T1900,2257A,130.3258,46.7975,佳木斯市,环保局,,46,46,32,30,23,16,,55,48,54,20,11,8,1.1,0.9
2026-01-06T1900,4285A,130.363,46.806,佳木斯市,顺和街,细颗粒物(PM2.5),54,47,32,38,22,20,,46,40,52,25,12,10,0.7,0.8
2026-01-06T1900,4286A,130.3952,46.8268,佳木斯市,长安路196号,细颗粒物(PM2.5),53,54,33,37,23,37,,45,43,24,23,8,8,0.5,0.5
2026-01-06T1900,1252A,120.7439,30.778,嘉兴市,清河小学,细颗粒物(PM2.5),133,124,139,101,113,45,,60,60,43,41,6,6,1.0,1.1
2026-01-06T1900,1253A,120.7261,30.7477,嘉兴市,嘉兴学院,细颗粒物(PM2.5),120,112,134,91,105,56,,68,68,32,36,7,7,1.2,1.2
2026-01-06T1900,2872A,120.7845,30.7524,嘉兴市,南湖区残联,细颗粒物(PM2.5),134,117,134,102,113,62,,73,73,30,35,4,4,1.0,1.1
2026-01-06T1900,3407A,120.6915,30.7741,嘉兴市,秀洲住建,细颗粒物(PM2.5),129,114,134,98,112,56,,69,69,34,38,6,7,0.8,0.9
2026-01-06T1900,1945A,98.291,39.7705,嘉峪关市,气象局,颗粒物(PM10),75,100,46,34,21,46,,67,65,30,14,13,18,0.8,0.5
2026-01-06T1900,2884A,98.2672,39.7978,嘉峪关市,酒钢宾馆,颗粒物(PM10),51,51,54,19,25,55,,66,58,16,14,15,28,0.5,0.9
2026-01-06T1900,3248A,98.2644,39.7723,嘉峪关市,雄关区,,46,46,39,29,23,58,,67,66,21,20,14,17,0.3,0.4
2026-01-06T1900,1383A,113.1063,22.6058,江门市,北街,,50,50,33,34,20,69,,75,75,22,18,/,/,/,/
2026-01-06T1900,1384A,113.073,22.5835,江门市,西区,颗粒物(PM10),53,55,36,34,16,66,,72,72,27,25,/,/,/,/
2026-01-06T1900,1385A,113.0218,22.531,江门市,圭峰西,,50,42,32,35,21,72,,76,76,22,21,/,/,/,/
2026-01-06T1900,1386A,113.0826,22.5947,江门市,东湖,,49,46,31,34,22,71,,76,76,26,26,7,8,0.5,0.6
2026-01-06T1900,3311A,113.1077,22.5647,江门市,江海富民,,36,30,36,25,15,68,,76,76,31,24,/,/,0.6,0.5
2026-01-06T1900,3449A,113.0496,22.4669,江门市,新会银湖,细颗粒物(PM2.5),54,51,34,38,24,69,,73,73,21,20,7,8,0.6,0.7
2026-01-06T1900,3335A,113.3137,35.2643,焦作市,马村街道办,,39,39,45,14,26,71,,73,73,14,14,6,6,0.3,0.4
2026-01-06T1900,3336A,113.2464,35.2374,焦作市,焦作技师学院,,31,31,43,14,23,72,,73,73,16,14,8,7,0.2,0.3
2026-01-06T1900,3477A,113.1656,35.2536,焦作市,中站许衡医院,,41,41,39,25,28,74,,75,75,13,11,5,4,0.3,0.3
2026-01-06T1900,3981A,113.2456,35.18,焦作市,原李万街道办,,,,48,,22,71,,75,75,,11,7,4,,0.5
2026-01-06T1900,4264A,113.234,35.219,焦作市,新安路1731号,,36,36,47,20,27,72,,72,72,14,13,5,4,0.3,0.4
2026-01-06T1900,4295A,113.2722,35.2121,焦作市,人民路3066号,,36,36,49,8,20,70,,72,72,10,9,5,4,0.3,0.4
2026-01-06T1900,1708A,116.3701,23.5345,揭阳市,新兴,,34,34,28,23,19,69,,75,75,14,13,8,8,0.6,0.6
2026-01-06T1900,1709A,116.3261,23.5442,揭阳市,西马,,38,38,28,19,16,66,,72,72,12,12,3,4,0.7,0.7
2026-01-06T1900,1710A,116.361,23.5627,揭阳市,东兴,,32,32,34,18,17,64,,70,70,11,13,6,8,/,/
2026-01-06T1900,1711A,116.4151,23.5295,揭阳市,渔湖,,33,33,29,15,18,71,,75,75,14,16,2,3,/,/
2026-01-06T1900,3320A,116.4028,23.5699,揭阳市,曲溪,,39,39,29,15,19,77,,80,80,11,13,2,2,0.5,0.5
2026-01-06T1900,1944A,102.1691,38.5166,金昌市,天庆家园,颗粒物(PM10),113,175,66,30,32,68,,78,78,17,23,8,11,0.7,0.9
2026-01-06T1900,4022A,102.1648,38.5369,金昌市,金川区人防中心,颗粒物(PM10),92,133,54,28,32,76,,78,78,10,19,5,21,0.5,0.7
2026-01-06T1900,4239A,102.193042,38.531887,金昌市,长春路96号,颗粒物(PM10),68,85,48,21,29,77,,76,76,10,23,7,14,0.6,1
2026-01-06T1900,1262A,119.6478,29.0773,金华市,十五中,"颗粒物(PM10),细颗粒物(PM2.5)",52,53,65,36,51,62,,66,66,29,27,4,4,0.4,0.7
2026-01-06T1900,1263A,119.6859,29.1032,金华市,监测站,细颗粒物(PM2.5),60,61,67,43,52,33,,56,56,47,35,3,2,0.5,0.8
2026-01-06T1900,3659A,119.656,29.1132,金华市,气象局,细颗粒物(PM2.5),55,58,68,39,48,32,,39,38,49,32,3,3,0.9,0.9
2026-01-06T1900,1767A,121.1114,41.0879,锦州市,南山,颗粒物(PM10),53,56,62,27,53,67,,59,59,20,46,16,14,0.7,1.3
2026-01-06T1900,1768A,121.060361,40.842794,锦州市,开发区,细颗粒物(PM2.5),117,92,110,88,63,8,,19,17,79,68,19,34,1.3,1.3
2026-01-06T1900,1769A,121.1836,41.1118,锦州市,百股街道,,45,45,64,17,48,64,,60,60,20,43,8,12,0.7,1.3
2026-01-06T1900,1770A,121.1176,41.1224,锦州市,天安街道,,49,49,52,10,40,78,,80,80,14,37,10,15,0.6,1.2
2026-01-06T1900,1771A,121.1303,41.1385,锦州市,北湖公园,,42,42,53,13,34,69,,75,75,12,36,9,13,0.5,1
2026-01-06T1900,2160A,112.8496,35.5051,晋城市,自来水公司,,37,37,36,15,19,70,,69,69,13,12,6,5,0.6,0.6
2026-01-06T1900,2162A,112.8509,35.4886,晋城市,市环保局,,,,42,,14,73,,73,73,13,12,6,5,0.7,0.7
2026-01-06T1900,3620A,112.8258,35.4804,晋城市,泽州一中,,36,36,34,9,12,79,,78,78,11,12,5,4,0.2,0.2
2026-01-06T1900,4078A,112.8246,35.5152,晋城市,前书院路,,,,,,,,,,,,,,,,
2026-01-06T1900,4079A,112.8864,35.4773,晋城市,祥云街666号,,32,32,32,18,20,76,,75,75,12,11,6,5,0.4,0.3
2026-01-06T1900,2174A,112.6992,37.6984,晋中市,榆次区政府,,41,41,53,19,19,66,,63,63,20,23,8,11,0.5,0.2
2026-01-06T1900,2865A,112.7195,37.683,晋中市,榆次三中,颗粒物(PM10),69,88,62,19,17,48,,61,61,25,19,10,12,1.3,0.5
2026-01-06T1900,4080A,112.7375,37.7215,晋中市,广安街188号,,43,43,49,19,21,66,,64,64,21,21,9,10,0.2,0.3
2026-01-06T1900,4200A,112.7478,37.6954,晋中市,迎宾街26号,颗粒物(PM10),68,85,60,24,19,47,,61,61,30,23,10,12,0.7,0.6
2026-01-06T1900,2439A,112.2012,31.048,荆门市,竹园小学,细颗粒物(PM2.5),52,50,57,36,35,30,,75,72,63,34,10,10,0.1,0.2
2026-01-06T1900,2440A,112.1968,30.9892,荆门市,掇刀,,50,50,57,35,43,66,,86,86,29,31,3,5,0.4,0.6
2026-01-06T1900,3012A,112.1849,31.0361,荆门市,西山林语,,38,,46,26,35,59,,79,79,24,23,5,4,0.5,0.6
2026-01-06T1900,3547A,112.1631,31.0134,荆门市,龙泉中学南校,颗粒物(PM10),52,54,57,33,41,73,,83,83,20,19,8,7,0.6,0.6
2026-01-06T1900,4124A,112.2213,31.0654,荆门市,新台西路6号,,,70,69,38,55,60,,81,81,,34,19,8,0.5,0.6
2026-01-06T1900,1844A,112.2493,30.3198,荆州市,市图书馆,细颗粒物(PM2.5),83,,70,61,80,72,,94,94,35,31,8,8,0.9,0.9
2026-01-06T1900,1845A,112.2009,30.3543,荆州市,市委党校,细颗粒物(PM2.5),74,64,78,54,77,66,,80,80,31,32,5,5,0.9,1.1
2026-01-06T1900,3194A,112.2749,30.3124,荆州市,管委会,,,55,73,19,80,,,92,92,33,35,7,6,0.8,0.9
2026-01-06T1900,4268A,112.1722,30.3366,荆州市,学苑路85号,细颗粒物(PM2.5),67,51,72,48,68,80,,96,96,24,25,13,10,0.7,0.8
2026-01-06T1900,2343A,117.2114,29.2931,景德镇市,老干部活动中心,,49,36,43,34,45,71,,80,80,14,12,10,10,0.5,0.5
2026-01-06T1900,2344A,117.1893,29.2789,景德镇市,兽医站,,33,25,45,23,32,79,,85,85,15,14,9,10,0.8,0.8
2026-01-06T1900,2346A,117.246,29.2958,景德镇市,陶研所,细颗粒物(PM2.5),58,46,38,41,42,67,,82,82,22,10,3,5,0.5,0.4
2026-01-06T1900,4289A,117.154766,29.256967,景德镇市,青少年活动中心,,49,49,48,28,35,81,,86,86,18,21,7,13,/,/
2026-01-06T1900,1803A,115.9873,29.6816,九江市,十里,,,54,52,26,38,,,86,86,25,37,5,4,0.8,0.9
2026-01-06T1900,1804A,115.9583,29.7047,九江市,茅山头,,42,42,48,19,35,64,,75,75,25,26,5,4,0.8,0.9
2026-01-06T1900,1805A,115.9877,29.7295,九江市,西园,,43,43,51,20,33,65,,82,82,44,37,2,2,0.7,0.8
2026-01-06T1900,1808A,115.9112,29.6038,九江市,综合工业园,,46,39,48,32,45,40,,80,76,60,38,4,3,0.9,0.8
2026-01-06T1900,3190A,116.0254,29.6995,九江市,外国语学校,,43,36,44,30,36,59,,72,72,33,31,7,7,0.8,0.8
2026-01-06T1900,4253A,116.010205,29.659402,九江市,莲花大道8号,,49,49,57,18,42,61,,76,76,22,10,4,3,0.4,0.5
2026-01-06T1900,4240A,98.495752,39.733935,酒泉市,玉门东路5号,颗粒物(PM10),87,124,78,22,35,54,,63,63,11,18,13,15,0.5,0.7
2026-01-06T1900,4241A,98.5099,39.7506,酒泉市,北大街108号,颗粒物(PM10),71,92,74,23,33,53,,60,60,15,24,12,15,0.4,0.7
2026-01-06T1900,2698A,76.0071,39.466,喀什地区,巡警大队,细颗粒物(PM2.5),98,97,72,73,55,35,,45,33,23,18,3,3,1.0,0.9
2026-01-06T1900,2699A,75.9756,39.4693,喀什地区,吾办,细颗粒物(PM2.5),97,91,71,72,58,41,,44,40,19,13,4,7,1.0,0.9
2026-01-06T1900,4027A,75.9485,39.4688,喀什地区,老干局,细颗粒物(PM2.5),79,84,72,58,52,48,,47,47,14,11,1,1,1.0,0.9
2026-01-06T1900,1824A,114.3389,34.778,开封市,肿瘤医院,,41,41,81,16,52,55,,65,65,27,27,6,8,0.5,1.1
2026-01-06T1900,1826A,114.2884,34.7966,开封市,世纪星幼儿园,,36,36,66,17,51,55,,66,66,31,27,1,2,0.4,0.6
2026-01-06T1900,3147A,114.3434,34.8101,开封市,龙亭公园,,,60,72,10,42,,,71,71,20,21,8,5,0.6,1.3
2026-01-06T1900,3210A,114.3645,34.7955,开封市,汴京公园,颗粒物(PM10),52,54,107,18,48,54,,61,61,27,28,6,6,0.5,0.7
2026-01-06T1900,3473A,114.2485,34.8306,开封市,技师学院,,28,28,64,18,41,65,,68,68,16,19,6,7,0.6,0.8
2026-01-06T1900,3592A,114.4518,34.7503,开封市,祥符区生态环境局,颗粒物(PM10),54,57,74,19,52,38,,63,62,47,31,5,5,0.5,0.6
2026-01-06T1900,1951A,84.886,45.6029,克拉玛依市,长征新村,细颗粒物(PM2.5),100,119,165,75,115,36,,44,44,45,39,5,4,1.0,1.2
2026-01-06T1900,1952A,84.8894,45.5827,克拉玛依市,南林小区,细颗粒物(PM2.5),89,116,159,66,96,37,,42,42,25,22,5,4,1.0,1.3
2026-01-06T1900,1954A,84.896,44.3328,克拉玛依市,独山子区,细颗粒物(PM2.5),245,329,158,195,89,21,,58,49,64,37,7,6,1.8,1
2026-01-06T1900,1955A,85.6888,46.0909,克拉玛依市,乌尔禾区商贸楼,细颗粒物(PM2.5),108,87,136,81,120,56,,45,45,32,38,4,4,1.0,1.3
2026-01-06T1900,3612A,85.1045,45.6895,克拉玛依市,白碱滩区新站,细颗粒物(PM2.5),110,133,167,83,120,48,,37,37,16,15,7,6,0.9,0.9
2026-01-06T1900,2697A,76.1457,39.7143,克孜勒苏柯尔克孜自治州,市人民政府,细颗粒物(PM2.5),82,79,73,60,50,56,,47,47,11,13,5,5,0.4,0.4
2026-01-06T1900,3665A,76.1654,39.7157,克孜勒苏柯尔克孜自治州,克州文化中心,细颗粒物(PM2.5),84,64,59,62,49,54,,47,47,9,12,2,2,0.8,0.7
2026-01-06T1900,1450A,102.8203,24.889,昆明市,呈贡新区,,29,27,28,20,20,29,,27,27,17,25,3,5,0.7,0.5
2026-01-06T1900,1452A,102.7253,25.0904,昆明市,龙泉镇,,30,30,43,18,26,31,,31,31,16,27,2,2,0.9,0.8
2026-01-06T1900,1453A,102.7267,25.0378,昆明市,东风东路,,43,43,41,25,24,17,,24,24,32,27,3,4,0.7,0.6
2026-01-06T1900,1454A,102.6744,25.0671,昆明市,金鼎山,,38,38,51,20,33,20,,26,26,25,26,2,2,1.0,0.8
2026-01-06T1900,1455A,102.6643,25.0401,昆明市,碧鸡广场,,29,28,39,20,23,16,,23,23,33,31,2,3,0.7,0.7
2026-01-06T1900,3179A,102.7491,25.012,昆明市,官渡区博物馆,,47,47,37,22,28,9,,24,20,44,28,2,3,0.9,0.7
2026-01-06T1900,3375A,102.8016,24.8336,昆明市,青年创业园,,30,30,28,19,18,27,,28,28,11,17,2,4,0.7,0.5
2026-01-06T1900,3550A,102.8,24.9787,昆明市,昆明学院,,33,33,42,20,26,22,,25,25,24,24,1,3,0.9,0.8
2026-01-06T1900,3551A,102.5969,24.6738,昆明市,晋宁区生态环境分局,,34,34,37,22,24,16,,18,15,18,24,1,2,0.8,0.8
2026-01-06T1900,3552A,102.6673,24.9861,昆明市,云天化总部,,38,38,38,20,21,14,,20,20,37,35,4,5,1.0,0.7
2026-01-06T1900,1456A,91.132,29.6515,拉萨市,八廓街,,40,40,38,11,19,79,,81,81,17,21,10,8,0.8,0.8
2026-01-06T1900,1457A,91.1221,29.6748,拉萨市,市环保局,,,,52,,34,68,,78,78,,28,8,10,0.5,1.2
2026-01-06T1900,1458A,91.0874,29.6476,拉萨市,区监测站,,30,30,31,10,15,75,,77,77,24,39,5,5,0.9,1.2
2026-01-06T1900,1459A,91.1774,29.6541,拉萨市,西藏大学,,48,48,31,13,15,80,,79,79,22,23,7,6,0.5,0.5
2026-01-06T1900,1460A,90.9798,29.6586,拉萨市,区辐射站,,26,26,46,13,25,72,,71,71,29,37,4,6,0.5,1
2026-01-06T1900,1461A,91.0831,29.6292,拉萨市,拉萨火车站,颗粒物(PM10),51,51,38,15,18,75,,72,72,20,33,4,5,0.6,0.9
2026-01-06T1900,2520A,109.2203,23.7252,来宾市,来宾技工学校,,35,35,28,21,20,71,,77,77,8,9,6,7,0.4,0.4
2026-01-06T1900,3535A,109.1781,23.7293,来宾市,兴宾区政府,,33,31,27,23,21,78,,83,83,5,6,4,5,0.4,0.5
2026-01-06T1900,4002A,109.2312,23.7428,来宾市,中南小学,,,35,29,25,25,,,81,81,10,11,4,5,0.5,0.5
2026-01-06T1900,1479A,103.8309,36.0467,兰州市,铁路设计院,,,,,,,,,,,,,,,,
2026-01-06T1900,3241A,103.7439,36.0841,兰州市,百合公园,细颗粒物(PM2.5),94,79,71,70,50,23,,39,39,77,51,14,11,1.4,1.7
2026-01-06T1900,3242A,103.9613,35.9985,兰州市,和平,细颗粒物(PM2.5),117,99,67,88,58,40,,66,66,47,31,,5,1.1,1.1
2026-01-06T1900,4236A,103.629272,36.093822,兰州市,庄浪东路808号,,,98,78,56,51,,,54,54,66,42,14,14,1.0,0.9
2026-01-06T1900,4237A,103.7251,36.104344,兰州市,安宁西路88号,细颗粒物(PM2.5),89,114,84,66,49,27,,49,49,89,56,16,10,1.3,1.3
2026-01-06T1900,4238A,103.846982,36.067567,兰州市,北滨河东路1号,细颗粒物(PM2.5),72,74,70,52,46,35,,58,58,70,54,15,12,1.1,1.4
2026-01-06T1900,1067A,116.6712,39.5109,廊坊市,药材公司,细颗粒物(PM2.5),168,152,153,127,128,31,,40,40,64,73,5,5,1.3,1.4
2026-01-06T1900,1068A,116.7215,39.5592,廊坊市,开发区,细颗粒物(PM2.5),155,152,139,118,108,19,,39,36,81,74,5,4,1.1,1.1
2026-01-06T1900,1070A,116.7246,39.5273,廊坊市,北华航天学院,细颗粒物(PM2.5),152,139,154,116,119,39,,42,42,55,65,6,5,1.0,1.2
2026-01-06T1900,2919A,116.7022,39.5454,廊坊市,河北工业大学,细颗粒物(PM2.5),163,141,153,124,113,38,,44,44,57,69,7,6,1.0,1.1
2026-01-06T1900,2536A,103.7629,29.5844,乐山市,牛耳桥,,46,42,46,32,40,48,,60,60,37,23,7,8,0.6,0.6
2026-01-06T1900,2537A,103.7501,29.6002,乐山市,市第三水厂,,,39,46,30,38,,,65,65,29,24,6,6,0.6,0.5
2026-01-06T1900,2538A,103.7571,29.5664,乐山市,市监测站,,46,37,44,32,40,62,,61,61,20,18,6,7,0.6,0.6
2026-01-06T1900,3361A,103.7313,29.563,乐山市,理工大学,,49,42,46,34,38,59,,62,62,22,19,6,5,0.5,0.6
2026-01-06T1900,2599A,100.2497,26.8802,丽江市,丽江古城,,29,29,29,6,15,86,,92,92,18,14,9,8,0.6,0.7
2026-01-06T1900,2600A,100.2203,26.8906,丽江市,市中心,,,31,17,19,7,,,93,93,15,14,9,6,0.4,0.4
2026-01-06T1900,1267A,119.9141,28.4513,丽水市,监测站大楼,细颗粒物(PM2.5),57,52,34,40,37,23,,65,60,36,20,4,4,1.0,0.7
2026-01-06T1900,1268A,119.93,28.4589,丽水市,莲都小学,,48,46,51,33,36,18,,66,61,51,24,/,/,/,/
2026-01-06T1900,1269A,119.8794,28.4232,丽水市,余庄前,,38,32,39,26,34,31,,56,54,14,17,4,4,0.4,0.5
2026-01-06T1900,1173A,119.1759,34.5885,连云港市,市环境监测站,细颗粒物(PM2.5),85,92,75,63,55,46,,59,59,31,31,11,10,1.0,0.8
2026-01-06T1900,3000A,119.3577,34.6971,连云港市,德源药业,细颗粒物(PM2.5),70,83,80,51,52,50,,59,59,29,41,5,4,0.2,0.2
2026-01-06T1900,3007A,119.178,34.8442,连云港市,新城一中,细颗粒物(PM2.5),84,95,115,62,67,52,,59,59,24,49,12,12,0.8,0.8
2026-01-06T1900,3008A,119.3607,34.7519,连云港市,胡沟管理处,,,61,74,48,58,,,58,58,30,35,6,8,0.9,1
2026-01-06T1900,3009A,119.1478,34.5913,连云港市,矿山设计院,细颗粒物(PM2.5),85,100,84,63,56,41,,58,58,35,34,15,8,1.1,1
2026-01-06T1900,3434A,119.2414,34.6539,连云港市,工贸学校,细颗粒物(PM2.5),73,67,75,53,58,50,,56,56,26,20,17,13,0.8,0.8
2026-01-06T1900,3664A,119.4171,34.734,连云港市,连云街道,,,62,77,45,61,,,70,69,22,23,8,5,0.7,0.8
2026-01-06T1900,2573A,102.2629,27.8981,凉山彝族自治州,西昌市政府,,22,21,26,15,17,45,,48,44,14,11,4,5,0.8,0.7
2026-01-06T1900,2574A,102.2686,27.885,凉山彝族自治州,凉山州政府,,22,20,26,15,18,44,,43,42,12,14,6,7,0.7,0.7
2026-01-06T1900,4229A,102.2342,27.8859,凉山彝族自治州,凯乐南路30号,,20,20,36,10,22,47,,44,44,13,22,5,6,0.7,0.7
2026-01-06T1900,2212A,123.1978,41.2036,辽阳市,宏伟区,细颗粒物(PM2.5),70,58,62,51,48,23,,46,42,40,24,12,10,1.4,1.1
2026-01-06T1900,2213A,123.1684,41.2497,辽阳市,新华园,细颗粒物(PM2.5),79,60,74,58,46,15,,41,38,58,40,15,23,1.5,1.4
2026-01-06T1900,2214A,123.2355,41.2663,辽阳市,滨河路,细颗粒物(PM2.5),68,83,66,49,37,19,,46,41,57,28,12,10,1.1,0.9
2026-01-06T1900,4083A,123.153,41.2874,辽阳市,铁西路150号,细颗粒物(PM2.5),114,150,83,86,50,,,37,36,69,43,19,24,2.3,1.8
2026-01-06T1900,2227A,125.1359,42.8845,辽源市,环保局,颗粒物(PM10),63,76,100,35,42,51,,69,67,31,36,8,6,0.8,1.2
2026-01-06T1900,4085A,125.0998,42.9134,辽源市,安宁大街333号,颗粒物(PM10),64,77,58,37,32,66,,70,70,23,30,11,9,0.7,0.7
2026-01-06T1900,1625A,115.9789,36.4372,聊城市,区政府,细颗粒物(PM2.5),62,64,198,44,163,43,,49,49,43,52,14,14,0.9,1.4
2026-01-06T1900,3200A,115.9772,36.4986,聊城市,监控中心,颗粒物(PM10),60,69,199,39,174,41,,59,58,44,49,14,14,0.7,1.3
2026-01-06T1900,3513A,116.0443,36.436,聊城市,九州社区,颗粒物(PM10),68,85,208,47,175,56,,67,67,24,38,8,6,0.6,1.1
2026-01-06T1900,4018A,116.0564,36.4609,聊城市,星美广场,颗粒物(PM10),66,82,211,40,167,45,,58,57,28,39,7,5,0.8,1.3
2026-01-06T1900,4113A,116.0091,36.4495,聊城市,利民路,颗粒物(PM10),62,74,213,27,163,43,,54,54,40,48,8,10,0.6,1.1
2026-01-06T1900,2632A,94.3683,29.6373,林芝市,林芝监测站,,26,12,8,7,5,82,,79,79,3,3,4,4,0.3,0.3
2026-01-06T1900,2633A,94.3616,29.6634,林芝市,林芝人民医院,,25,14,14,6,7,78,,73,73,2,5,7,6,0.4,0.5
2026-01-06T1900,2603A,100.0779,23.8981,临沧市,市环保局,细颗粒物(PM2.5),62,,37,44,40,66,,70,70,10,9,12,7,0.5,0.5
2026-01-06T1900,2604A,100.0894,23.882,临沧市,市气象局,,25,25,34,16,21,65,,68,68,9,11,5,5,0.4,0.5
2026-01-06T1900,1733A,111.5552,36.0791,临汾市,临钢医院,颗粒物(PM10),51,51,31,25,16,53,,67,66,27,11,6,5,0.7,0.5
2026-01-06T1900,1734A,111.4984,36.0734,临汾市,技工学校,颗粒物(PM10),53,56,28,23,21,44,,65,63,35,12,6,5,1.0,0.7
2026-01-06T1900,1736A,111.5017,36.0857,临汾市,市委,颗粒物(PM10),52,54,33,16,12,51,,69,68,33,13,8,7,0.9,0.6
2026-01-06T1900,3018A,111.5048,36.1015,临汾市,唐尧大酒店,颗粒物(PM10),54,57,36,14,12,60,,71,70,25,12,4,3,0.9,0.7
2026-01-06T1900,4244A,111.4879,36.053,临汾市,启星学校,,44,44,27,24,20,45,,70,67,42,16,9,8,0.9,0.6
2026-01-06T1900,4271A,103.2464,35.6123,临夏回族自治州,滨河东路1号,细颗粒物(PM2.5),92,93,123,68,74,64,,70,70,23,27,9,4,1.0,1.1
2026-01-06T1900,4310A,103.207136,35.599807,临夏回族自治州,新华街21号,细颗粒物(PM2.5),78,84,123,57,86,70,,67,67,23,32,17,8,0.6,1.2
2026-01-06T1900,1618A,118.3429,35.0532,临沂市,沂河小区,细颗粒物(PM2.5),110,122,146,83,123,31,,54,54,51,61,17,24,0.9,1.1
2026-01-06T1900,1619A,118.2962,35.0568,临沂市,鲁南制药厂,细颗粒物(PM2.5),100,117,157,75,123,27,,52,52,57,65,21,28,0.8,1.1
2026-01-06T1900,1620A,118.2793,34.9976,临沂市,新光毛纺厂,细颗粒物(PM2.5),115,114,153,87,121,47,,61,61,35,57,14,26,0.9,1.1
2026-01-06T1900,1621A,118.3955,35.0889,临沂市,河东保险公司,细颗粒物(PM2.5),92,119,144,68,106,38,,61,61,47,57,16,16,0.9,1.1
2026-01-06T1900,3370A,118.3563,35.0215,临沂市,十里堡居委,细颗粒物(PM2.5),92,112,150,68,105,42,,59,57,44,68,16,29,1.1,1.3
2026-01-06T1900,3496A,118.359,35.1067,临沂市,南坊新区,细颗粒物(PM2.5),89,105,148,66,117,33,,57,57,56,58,15,17,0.8,1
2026-01-06T1900,3860A,118.3915,35.0297,临沂市,皇山花园小区,细颗粒物(PM2.5),90,107,143,67,98,50,,61,61,37,67,16,26,1.0,1.1
2026-01-06T1900,1870A,109.4854,24.3898,柳州市,柳东小学,,,,27,,24,,,75,75,10,7,8,8,,0.6
2026-01-06T1900,1871A,109.4109,24.3304,柳州市,环保监测站,,36,36,27,23,21,57,,70,70,21,11,6,5,0.6,0.5
2026-01-06T1900,1872A,109.3886,24.3408,柳州市,河西水厂,,42,37,29,29,22,58,,73,73,20,13,9,7,0.5,0.6
2026-01-06T1900,1873A,109.4263,24.2951,柳州市,市四中,,40,35,28,28,24,62,,72,72,22,12,10,9,0.5,0.5
2026-01-06T1900,1874A,109.396,24.3658,柳州市,市九中,,38,38,28,21,23,63,,74,74,18,13,11,8,0.7,0.6
2026-01-06T1900,1875A,109.4912,24.3164,柳州市,古亭山,,40,40,29,25,19,55,,70,70,11,7,9,9,0.6,0.6
2026-01-06T1900,3402A,109.5422,24.3994,柳州市,市二中,,,30,27,23,25,,,73,73,17,12,8,8,0.5,0.5
2026-01-06T1900,2307A,116.5078,31.7369,六安市,监测大楼,,39,39,60,22,47,74,,74,74,17,17,3,2,0.4,0.6
2026-01-06T1900,2308A,116.4738,31.7642,六安市,皖西学院,,38,38,62,26,46,70,,75,75,23,21,4,4,0.4,0.5
2026-01-06T1900,2309A,116.4997,31.7904,六安市,朝阳厂,,40,40,58,23,45,69,,73,73,26,22,5,5,0.4,0.6
2026-01-06T1900,2310A,116.5566,31.7885,六安市,开发区,,,58,69,40,53,,,70,70,40,25,3,2,0.4,0.5
2026-01-06T1900,2577A,104.8293,26.592,六盘水市,黄土坡,,43,33,23,30,18,60,,69,68,20,14,13,8,0.8,0.7
2026-01-06T1900,2579A,104.8481,26.5898,六盘水市,民中,,40,40,25,27,18,50,,66,63,28,14,5,4,0.8,0.7
2026-01-06T1900,2580A,104.9541,26.5506,六盘水市,双水,,35,29,24,24,16,64,,70,70,13,10,4,4,0.4,0.4
2026-01-06T1900,4151A,104.8899,26.5685,六盘水市,钟山大道中段564号,,44,44,28,26,18,63,,66,66,13,13,8,6,1.0,1
2026-01-06T1900,2336A,117.022,25.1031,龙岩市,龙岩市监测站,,29,,27,20,20,64,,57,57,12,10,11,10,0.4,0.5
2026-01-06T1900,2337A,117.0257,25.0662,龙岩市,闽西职业技术学院,,23,,18,16,18,69,,62,62,9,8,5,5,0.4,0.5
2026-01-06T1900,2338A,117.0195,25.0306,龙岩市,龙岩学院,,,26,20,16,17,,,56,56,7,8,7,7,/,/
2026-01-06T1900,2885A,104.9344,33.3827,陇南市,滨江中学,细颗粒物(PM2.5),200,244,76,150,43,9,,53,50,100,32,58,11,6.2,1.3
2026-01-06T1900,3247A,104.9551,33.3709,陇南市,市总工会,颗粒物(PM10),65,80,66,38,37,45,,62,62,34,18,9,8,0.8,0.7
2026-01-06T1900,2488A,111.9984,27.7346,娄底市,市监测站,细颗粒物(PM2.5),59,59,73,42,61,60,,81,81,32,31,6,14,1.0,1.2
2026-01-06T1900,2491A,111.9888,27.7035,娄底市,市政府,颗粒物(PM10),55,59,59,38,51,58,,80,80,38,18,5,5,1.2,0.8
2026-01-06T1900,4127A,111.9812,27.7591,娄底市,涟钢职大,细颗粒物(PM2.5),72,84,68,52,46,59,,78,78,34,21,5,7,0.7,1.7
2026-01-06T1900,4128A,112.0303,27.7457,娄底市,娄底体校,"颗粒物(PM10),细颗粒物(PM2.5)",59,67,59,42,46,53,,73,73,31,22,3,4,0.7,0.9
2026-01-06T1900,1894A,105.4427,28.9063,泸州市,小市上码头,细颗粒物(PM2.5),55,52,61,39,46,62,,64,64,26,20,9,8,0.9,0.9
2026-01-06T1900,1895A,105.4241,28.8573,泸州市,兰田宪桥,细颗粒物(PM2.5),54,46,55,38,46,60,,63,63,21,21,7,7,0.8,0.9
2026-01-06T1900,1896A,105.4378,28.8833,泸州市,市环监站,细颗粒物(PM2.5),52,51,57,36,43,56,,61,61,36,25,8,8,0.9,0.9
2026-01-06T1900,4272A,105.3689,28.7783,泸州市,纳溪中医医院,,,,67,49,52,,,62,62,42,19,9,8,,0.9
2026-01-06T1900,2183A,111.1447,37.5212,吕梁市,环保局,,47,47,39,28,19,41,,58,58,32,12,6,6,0.5,0.4
2026-01-06T1900,2185A,111.1285,37.5338,吕梁市,自来水公司,,49,48,38,34,20,50,,56,56,17,12,5,5,0.5,0.4
2026-01-06T1900,2867A,111.1225,37.5093,吕梁市,马茂庄小学,细颗粒物(PM2.5),55,45,42,39,18,30,,58,57,48,16,6,6,0.8,0.4
2026-01-06T1900,1812A,112.3934,34.6517,洛阳市,市委党校,,,29,43,,17,75,,75,75,13,14,7,9,0.3,0.4
2026-01-06T1900,1815A,112.494,34.6883,洛阳市,河南林校,,50,50,56,20,20,75,,74,74,17,18,9,11,0.5,0.6
2026-01-06T1900,1816A,112.3843,34.623,洛阳市,开发区管委会,,32,32,39,19,23,71,,71,71,12,14,8,10,0.2,0.3
2026-01-06T1900,1817A,112.4263,34.6249,洛阳市,市委新办公区,,33,33,40,20,29,80,,80,80,12,12,8,9,0.4,0.4
2026-01-06T1900,3340A,112.6005,34.6323,洛阳市,伊滨,,36,36,42,18,25,79,,77,77,16,17,6,8,0.5,0.6
2026-01-06T1900,3341A,112.495,34.6338,洛阳市,中移产业园,,33,33,44,23,27,74,,72,72,18,20,8,10,0.3,0.4
2026-01-06T1900,3593A,112.5736,34.8993,洛阳市,吉利监测站,,27,27,38,16,20,82,,81,81,18,16,7,8,0.6,0.6
2026-01-06T1900,3635A,112.3678,34.6623,洛阳市,河科大西苑校区,,32,32,45,15,23,74,,75,75,13,12,7,9,0.4,0.4
2026-01-06T1900,3636A,112.4387,34.678,洛阳市,英才小学,,41,41,49,20,30,82,,82,82,25,24,9,12,0.4,0.5
2026-01-06T1900,4214A,112.460027,34.694929,洛阳市,春都路1号院,,42,42,56,14,22,74,,74,74,16,14,8,10,0.5,0.6
2026-01-06T1900,2399A,114.051,33.5721,漯河市,三五一五工厂,,,78,96,33,55,,,70,70,15,15,7,8,0.5,0.8
2026-01-06T1900,2400A,114.0055,33.5698,漯河市,漯河大学,,37,37,70,17,44,67,,74,74,23,24,6,7,0.5,0.7
2026-01-06T1900,2401A,114.0134,33.5826,漯河市,市水利局,,36,36,69,22,48,61,,71,70,23,22,7,8,0.6,0.8
2026-01-06T1900,2402A,114.0261,33.5697,漯河市,市广电局,,37,37,69,16,46,71,,77,77,13,15,7,7,0.5,0.7
2026-01-06T1900,3478A,113.9691,33.568,漯河市,市图书馆,,34,34,77,14,54,61,,65,65,11,17,5,6,0.5,0.9
2026-01-06T1900,4250A,114.089259,33.588274,漯河市,韶山路11号,,44,44,85,21,56,64,,68,68,17,19,6,7,0.4,0.6
2026-01-06T1900,1798A,118.5084,31.6838,马鞍山市,湖东路四小,细颗粒物(PM2.5),70,60,113,51,88,62,,67,66,21,31,4,8,0.5,1
2026-01-06T1900,1799A,118.5019,31.6449,马鞍山市,开发区,细颗粒物(PM2.5),73,69,111,53,89,53,,68,68,31,31,3,4,0.6,0.7
2026-01-06T1900,3633A,118.4914,31.681,马鞍山市,雨山,细颗粒物(PM2.5),67,64,115,48,85,64,,68,68,26,35,7,10,0.5,0.8
2026-01-06T1900,4191A,118.527362,31.722269,马鞍山市,慈湖高新区,细颗粒物(PM2.5),64,70,115,46,91,48,,59,59,37,41,7,9,1.2,1.1
2026-01-06T1900,1686A,111.0285,21.469,茂名市,电白南海,"颗粒物(PM10),细颗粒物(PM2.5)",62,73,56,44,35,105,,95,95,24,17,10,12,0.8,0.8
2026-01-06T1900,1687A,110.9294,21.6533,茂名市,茂石化七小,颗粒物(PM10),56,61,42,36,25,94,,84,84,18,14,7,8,0.7,0.7
2026-01-06T1900,1688A,110.9108,21.6688,茂名市,健康路,,,61,38,41,27,104,,93,93,,17,18,14,,0.9
2026-01-06T1900,1689A,110.8592,21.6826,茂名市,高岭,颗粒物(PM10),60,70,49,36,23,101,,93,93,16,15,14,14,/,/
2026-01-06T1900,3450A,111.0101,21.5165,茂名市,电白水东,颗粒物(PM10),56,61,52,36,31,106,,90,90,11,11,9,11,/,/
2026-01-06T1900,2540A,103.8414,30.0871,眉山市,气象局,,49,40,54,34,38,65,,76,76,29,24,8,9,0.7,0.6
2026-01-06T1900,3148A,103.829,30.0563,眉山市,区人社局,,48,48,54,31,36,57,,75,75,30,21,6,7,0.7,0.6
2026-01-06T1900,4148A,103.8836,30.0695,眉山市,眉职院,,38,38,52,21,33,62,,77,77,18,19,1,3,0.6,0.6
2026-01-06T1900,1690A,116.1248,24.3307,梅州市,梅江月梅,,43,30,20,30,24,69,,75,75,14,12,/,/,/,/
2026-01-06T1900,1691A,116.0798,24.2719,梅州市,梅县新城,细颗粒物(PM2.5),74,,20,54,23,69,,76,76,17,13,7,6,0.5,0.5
2026-01-06T1900,3315A,116.1234,24.2994,梅州市,梅龙,,,29,24,24,17,67,,71,71,,9,,8,0.5,0.5
2026-01-06T1900,1878A,104.7775,31.4741,绵阳市,富乐山,细颗粒物(PM2.5),52,45,54,36,39,73,,75,75,10,24,11,11,0.6,0.8
2026-01-06T1900,1880A,104.6698,31.4668,绵阳市,高新区自来水公司,细颗粒物(PM2.5),64,62,69,46,42,32,,73,68,62,37,8,8,0.7,0.8
2026-01-06T1900,3491A,104.6899,31.5324,绵阳市,西科大附属小学,细颗粒物(PM2.5),84,84,66,62,43,42,,60,60,53,34,9,9,0.6,1
2026-01-06T1900,3492A,104.5647,31.5343,绵阳市,安州区旅游局,细颗粒物(PM2.5),70,64,58,51,43,46,,67,67,55,31,10,13,1.2,1
2026-01-06T1900,4146A,104.7092,31.4972,绵阳市,科技城新区公安局,,50,50,61,34,40,70,,74,74,30,31,4,4,0.5,0.6
2026-01-06T1900,4226A,104.765114,31.453094,绵阳市,绵阳市气象局,,50,50,60,34,43,75,,70,70,27,34,5,7,0.6,0.8
2026-01-06T1900,1784A,129.61,44.561,牡丹江市,环保大楼,细颗粒物(PM2.5),75,98,50,55,27,26,,42,38,44,29,10,7,0.8,0.9
2026-01-06T1900,1787A,129.6364,44.6075,牡丹江市,机车工厂,细颗粒物(PM2.5),110,143,69,83,38,5,,37,34,54,36,11,12,1.1,0.6
2026-01-06T1900,1788A,129.6386,44.5462,牡丹江市,第一中学,细颗粒物(PM2.5),74,72,41,54,26,6,,36,31,55,33,12,7,1.1,0.6
2026-01-06T1900,4287A,129.5992,44.5964,牡丹江市,东晓云街98号,细颗粒物(PM2.5),153,,61,117,51,11,,37,35,54,34,16,8,1.4,0.9
2026-01-06T1900,2531A,105.0703,29.61,内江市,市监测站,颗粒物(PM10),63,75,48,44,44,70,,89,89,26,17,5,4,0.6,0.6
2026-01-06T1900,2533A,105.0657,29.5807,内江市,内江二中,,,79,58,57,42,,,79,79,38,23,4,4,0.8,0.8
2026-01-06T1900,2534A,105.0407,29.5828,内江市,内江日报社,细颗粒物(PM2.5),57,60,48,40,38,58,,82,82,35,24,2,3,0.6,0.5
2026-01-06T1900,4147A,105.0433,29.6105,内江市,玉峰路西段888号,细颗粒物(PM2.5),54,47,55,38,37,76,,92,92,26,18,4,4,0.7,0.6
2026-01-06T1900,2628A,92.0653,31.4846,那曲市,那曲监测站,,27,17,49,11,34,85,,74,74,12,30,8,14,0.8,1.4
2026-01-06T1900,4243A,92.0515,31.4787,那曲市,那曲市委宣传部,,29,18,32,6,20,90,,76,76,1,23,3,8,0.5,1.4
2026-01-06T1900,1291A,115.8887,28.7006,南昌市,省林业公司,,42,41,47,29,44,77,,87,86,10,15,3,4,0.5,1.1
2026-01-06T1900,1292A,115.813,28.7443,南昌市,林科所,,39,34,50,27,44,53,,86,82,30,18,5,6,0.5,0.6
2026-01-06T1900,1294A,115.8518,28.687,南昌市,建工学校,,,58,58,36,47,67,,70,70,17,15,,12,0.6,0.7
2026-01-06T1900,1295A,115.8926,28.6425,南昌市,象湖,细颗粒物(PM2.5),52,37,52,36,47,76,,84,84,19,22,8,8,0.8,0.8
2026-01-06T1900,3046A,115.9084,28.6062,南昌市,机电学校,细颗粒物(PM2.5),55,51,61,39,45,74,,90,89,26,22,4,5,0.6,0.7
2026-01-06T1900,3690A,115.9718,28.7032,南昌市,外国语学校,,46,41,54,32,46,55,,80,78,49,34,11,11,0.5,0.6
2026-01-06T1900,4106A,115.7923,28.6873,南昌市,工业二路,,38,38,54,25,43,76,,91,88,15,13,5,5,0.4,0.5
2026-01-06T1900,4192A,115.931587,28.686774,南昌市,南京东路235号,,49,48,53,34,48,78,,92,92,35,31,5,5,0.3,0.5
2026-01-06T1900,1906A,106.0791,30.8022,南充市,南充市委,细颗粒物(PM2.5),65,56,47,47,41,22,,60,58,72,29,5,4,1.0,0.7
2026-01-06T1900,1907A,106.1038,30.8215,南充市,南充炼油厂,"颗粒物(PM10),细颗粒物(PM2.5)",62,74,60,44,45,25,,66,64,70,31,6,6,0.7,0.6
2026-01-06T1900,4227A,106.108336,30.788436,南充市,梨树横街98号,颗粒物(PM10),53,56,55,32,44,37,,72,71,56,32,7,6,0.8,0.8
2026-01-06T1900,4304A,106.1172,30.843,南充市,清泉寺北路188号,细颗粒物(PM2.5),67,,40,48,39,77,,84,84,23,21,7,6,0.4,0.7
2026-01-06T1900,4305A,106.067,30.7616,南充市,同庆路1号,颗粒物(PM10),58,65,50,39,42,15,,66,63,69,35,7,6,1.2,1.4
2026-01-06T1900,1151A,118.8033,32.1085,南京市,迈皋桥,,49,44,129,34,102,62,,73,73,4,30,3,3,0.3,0.8
2026-01-06T1900,1152A,118.7487,32.057,南京市,草场门,细颗粒物(PM2.5),58,53,125,41,92,61,,69,69,23,36,5,6,0.3,0.6
2026-01-06T1900,1154A,118.770105,32.004342,南京市,中华门,细颗粒物(PM2.5),55,58,116,39,96,56,,67,67,18,37,5,5,0.5,0.8
2026-01-06T1900,1155A,118.8059,32.0329,南京市,瑞金路,颗粒物(PM10),57,63,131,36,106,60,,66,66,22,50,4,4,0.7,0.9
2026-01-06T1900,1156A,118.7946,32.0774,南京市,玄武湖,细颗粒物(PM2.5),52,52,135,36,107,56,,64,64,21,27,4,4,0.5,1.1
2026-01-06T1900,1157A,118.6415,32.0964,南京市,浦口,细颗粒物(PM2.5),53,52,132,37,102,66,,68,68,18,27,7,7,0.5,0.9
2026-01-06T1900,1158A,118.730129,32.000956,南京市,奥体中心,细颗粒物(PM2.5),62,58,118,44,94,63,,75,75,36,41,6,6,0.5,0.7
2026-01-06T1900,1159A,118.9072,32.1047,南京市,仙林大学城,"颗粒物(PM10),细颗粒物(PM2.5)",52,53,140,36,116,46,,60,60,26,50,6,6,0.7,1.2
2026-01-06T1900,3422A,118.8443,31.919,南京市,江宁彩虹桥,细颗粒物(PM2.5),62,53,122,44,91,51,,65,65,18,38,4,4,0.5,0.8
2026-01-06T1900,3427A,118.8497,32.3599,南京市,六合雄州,,,,147,,115,62,,71,71,,33,6,9,0.5,0.9
2026-01-06T1900,4086A,118.7641,32.0841,南京市,新模范马路66号,细颗粒物(PM2.5),53,49,145,37,104,53,,61,61,22,40,4,5,0.8,1.1
2026-01-06T1900,4249A,118.8707617,31.34017673,南京市,汶溪路181号,细颗粒物(PM2.5),65,53,96,47,85,58,,72,72,29,29,6,6,0.5,0.7
2026-01-06T1900,4312A,119.019,31.6512,南京市,中山西路1号,细颗粒物(PM2.5),53,44,96,37,95,57,,64,64,20,32,3,4,0.6,0.8
2026-01-06T1900,1401A,108.3098,22.788,南宁市,二十一中,,26,26,22,13,11,49,,58,58,15,14,5,5,0.5,0.7
2026-01-06T1900,1402A,108.3135,22.8529,南宁市,北湖,,42,42,25,3,11,51,,67,67,21,19,4,5,0.7,0.7
2026-01-06T1900,1403A,108.3205,22.8222,南宁市,市监测站,颗粒物(PM10),51,52,25,20,22,48,,60,60,15,13,7,7,0.6,0.6
2026-01-06T1900,1404A,108.3828,22.8038,南宁市,大自然花园,,33,33,22,17,15,63,,74,74,15,13,7,6,0.7,0.7
2026-01-06T1900,1406A,108.2397,22.8462,南宁市,区农职院,,28,23,25,19,16,44,,63,62,20,15,7,8,0.7,0.7
2026-01-06T1900,1407A,108.3285,22.7356,南宁市,英华嘉园,,35,35,23,3,8,61,,69,69,10,10,4,3,0.6,0.6
2026-01-06T1900,3401A,108.4829,22.762,南宁市,红星社区,,32,26,19,22,15,71,,76,76,8,7,5,5,0.6,0.6
2026-01-06T1900,4132A,108.2927,23.1477,南宁市,起凤路9号,,28,21,22,19,19,55,,65,65,9,10,2,3,0.8,0.8
2026-01-06T1900,4221A,108.2177,22.7774,南宁市,乐贤路16号,,40,40,27,21,18,51,,62,62,13,14,3,3,0.5,0.5
2026-01-06T1900,2332A,118.1682,26.6371,南平市,南平市监测站,,33,28,21,23,16,50,,59,59,16,9,3,3,0.5,0.5
2026-01-06T1900,2334A,118.1757,26.6276,南平市,南平七中,,32,31,24,22,20,49,,59,59,16,10,4,4,0.6,0.6
2026-01-06T1900,1168A,120.9056,31.9669,南通市,狼山街道,细颗粒物(PM2.5),99,86,80,74,66,53,,40,40,19,27,3,3,0.9,0.9
2026-01-06T1900,1170A,120.8635,32.0231,南通市,城中,细颗粒物(PM2.5),84,79,94,62,69,51,,43,43,21,41,2,5,0.6,0.7
2026-01-06T1900,1171A,120.9376,31.9301,南通市,星湖花园,细颗粒物(PM2.5),109,100,86,82,68,47,,37,37,30,35,4,6,1.1,1.1
2026-01-06T1900,1172A,120.8053,32.046,南通市,紫琅学院,细颗粒物(PM2.5),84,80,112,62,84,54,,50,50,20,41,3,4,0.7,0.9
2026-01-06T1900,3291A,121.0631,32.0644,南通市,通州监测站,细颗粒物(PM2.5),119,95,85,90,70,58,,49,49,24,43,2,4,0.9,0.8
2026-01-06T1900,3432A,120.9348,31.9874,南通市,环境教育馆,细颗粒物(PM2.5),100,88,76,75,62,55,,41,41,27,38,4,5,0.7,0.7
2026-01-06T1900,4091A,120.8692,31.9885,南通市,洪江路,颗粒物(PM10),111,171,96,71,65,49,,35,35,28,40,3,4,0.5,0.6
2026-01-06T1900,2404A,112.5338,33.0086,南阳市,瓦房庄,,31,31,75,17,60,68,,78,78,14,23,6,6,0.5,0.8
2026-01-06T1900,2405A,112.5002,32.9734,南阳市,汉画馆,,31,31,64,14,45,56,,78,76,26,25,6,6,0.5,0.7
2026-01-06T1900,2406A,112.5778,33.0144,南阳市,气象站,,32,32,73,14,48,68,,78,78,19,23,5,5,0.5,0.7
2026-01-06T1900,2407A,112.548,32.9687,南阳市,理工学院,,34,34,65,17,43,64,,77,76,21,30,5,6,0.4,0.7
2026-01-06T1900,4008A,112.5233,32.9921,南阳市,卧龙区政府,,32,32,66,21,50,60,,75,73,19,24,5,5,0.5,0.7
2026-01-06T1900,1234A,121.8352,29.9111,宁波市,区环保大楼,细颗粒物(PM2.5),102,96,128,76,102,50,,75,73,47,47,6,7,0.9,1.1
2026-01-06T1900,1235A,121.5595,29.8208,宁波市,万里学院,细颗粒物(PM2.5),128,122,115,97,93,49,,81,79,43,34,4,5,0.8,0.8
2026-01-06T1900,1236A,121.713,29.9564,宁波市,龙赛医院,细颗粒物(PM2.5),102,96,119,76,102,58,,72,72,33,44,3,4,0.7,0.9
2026-01-06T1900,1240A,121.5855,29.8635,宁波市,太古小学,细颗粒物(PM2.5),127,114,113,96,94,57,,84,84,32,28,1,17,0.7,0.9
2026-01-06T1900,1241A,121.5239,29.8673,宁波市,市环境监测中心,细颗粒物(PM2.5),120,114,99,91,81,45,,77,76,39,29,5,6,0.9,0.9
2026-01-06T1900,2871A,121.6156,29.9015,宁波市,万里国际学校,细颗粒物(PM2.5),117,104,113,88,100,54,,78,77,40,37,3,4,0.7,0.8
2026-01-06T1900,3710A,121.5593,29.8976,宁波市,白沙活动中心,细颗粒物(PM2.5),119,100,97,90,92,56,,76,76,38,35,4,5,0.7,0.8
2026-01-06T1900,4095A,121.8962,29.7529,宁波市,中科路88号,细颗粒物(PM2.5),114,86,107,86,106,65,,86,80,30,25,5,5,0.7,1
2026-01-06T1900,2341A,119.5387,26.6611,宁德市,宁德市监测站,,28,27,26,19,21,51,,49,49,16,20,6,6,0.6,0.5
2026-01-06T1900,3209A,119.5231,26.6562,宁德市,宁德一中,,29,22,26,20,23,54,,50,50,9,16,5,5,0.5,0.5
2026-01-06T1900,2618A,98.859,25.8541,怒江傈僳族自治州,州监测站,,28,28,30,19,19,68,,76,76,16,11,5,6,0.4,0.4
2026-01-06T1900,2619A,98.8607,25.8168,怒江傈僳族自治州,泸水一中,,35,35,26,3,20,46,,64,64,27,17,6,6,0.7,0.6
2026-01-06T1900,1888A,101.6891,26.571,攀枝花市,弄弄坪,颗粒物(PM10),51,51,52,24,32,76,,78,78,18,22,11,10,0.6,0.9
2026-01-06T1900,1889A,101.577,26.5914,攀枝花市,河门口,,39,39,59,23,35,75,,75,75,22,27,19,23,1.2,1.3
2026-01-06T1900,1891A,101.7365,26.4986,攀枝花市,仁和,颗粒物(PM10),62,74,44,43,27,45,,72,72,35,20,10,9,1.1,0.7
2026-01-06T1900,2835A,101.7222,26.567,攀枝花市,四十中小,,,43,47,23,28,77,,76,76,11,30,,16,0.9,1.1
2026-01-06T1900,1604A,122.0303,41.1489,盘锦市,开发区,细颗粒物(PM2.5),69,66,49,50,45,6,,38,36,51,32,13,7,1.2,1.3
2026-01-06T1900,1605A,122.0486,41.0883,盘锦市,兴隆台,细颗粒物(PM2.5),75,62,45,55,41,5,,38,36,80,50,11,7,1.1,1.1
2026-01-06T1900,1606A,121.8297,41.1026,盘锦市,新生街道,细颗粒物(PM2.5),79,61,37,58,32,7,,50,46,69,38,19,9,1.1,0.8
2026-01-06T1900,1832A,113.3257,33.7423,平顶山市,新华旅馆,,33,33,60,14,26,72,,79,78,16,13,5,5,0.3,0.3
2026-01-06T1900,1833A,113.2917,33.737,平顶山市,规划设计院,,,36,47,18,27,,,78,78,29,26,6,7,0.3,0.2
2026-01-06T1900,1834A,113.182,33.7738,平顶山市,平顶山工学院,,33,33,39,17,24,74,,81,81,16,12,7,7,0.2,0.2
2026-01-06T1900,3594A,112.8736,33.9068,平顶山市,石龙区,,37,37,55,12,27,69,,84,82,27,19,5,5,0.4,0.6
2026-01-06T1900,4116A,113.284,33.7139,平顶山市,姚电大道23号,,40,40,45,22,29,72,,78,78,20,15,7,9,0.4,0.5
2026-01-06T1900,2656A,106.6633,35.5338,平凉市,聚贤嘉苑,,33,33,33,23,20,70,,86,86,26,20,8,7,0.6,0.7
2026-01-06T1900,2657A,106.7021,35.5307,平凉市,博物馆,,33,32,38,23,27,83,,86,86,13,22,10,10,0.7,0.9
2026-01-06T1900,2348A,113.8384,27.6436,萍乡市,中医院,细颗粒物(PM2.5),92,102,85,68,57,66,,95,95,36,29,4,7,1.1,1.3
2026-01-06T1900,2350A,113.8677,27.6438,萍乡市,市环保局,细颗粒物(PM2.5),83,72,66,61,54,86,,106,106,28,22,11,13,0.7,0.9
2026-01-06T1900,2351A,113.8663,27.6202,萍乡市,安源区政府,细颗粒物(PM2.5),77,72,78,56,63,70,,83,83,24,24,8,10,1.0,1.2
2026-01-06T1900,4107A,113.8686,27.6668,萍乡市,联洪村委会,细颗粒物(PM2.5),84,81,76,62,52,72,,92,92,28,27,5,9,0.8,1
2026-01-06T1900,2319A,119.0142,25.4324,莆田市,荔城区仓后路,,28,28,22,18,15,51,,47,47,11,12,/,/,/,/
2026-01-06T1900,2320A,119.0016,25.4553,莆田市,莆田市监测站,,28,20,17,19,14,57,,53,53,5,8,2,3,0.5,0.6
2026-01-06T1900,2321A,119.112,25.4561,莆田市,涵江区六中,,28,26,21,19,16,57,,52,52,8,11,/,/,0.6,0.6
2026-01-06T1900,2322A,119.1014,25.3215,莆田市,秀屿区政府,,25,25,25,16,16,54,,50,50,8,11,2,2,0.8,0.8
2026-01-06T1900,2392A,115.0312,35.7636,濮阳市,环保局,,46,46,106,22,131,53,,56,56,24,27,8,8,0.6,0.9
2026-01-06T1900,3021A,115,35.7667,濮阳市,濮水河管理处,颗粒物(PM10),64,78,137,23,105,28,,55,52,31,38,7,8,0.7,1.1
2026-01-06T1900,4118A,115.0552,35.7816,濮阳市,中原东路68号,颗粒物(PM10),62,73,148,38,95,53,,61,61,26,28,8,8,0.7,1
2026-01-06T1900,4216A,115.0923632,35.76857718,濮阳市,任丘路479号,颗粒物(PM10),57,63,121,39,105,43,,52,52,36,38,8,8,0.5,0.9
2026-01-06T1900,2601A,100.9801,22.7634,普洱市,市环保局,,49,49,42,31,14,47,,60,60,18,11,4,4,0.5,0.5
2026-01-06T1900,2602A,100.9763,22.8237,普洱市,普洱第二中学,,35,35,35,20,17,61,,66,66,12,15,4,5,0.5,0.5
2026-01-06T1900,3345A,131.0413,45.7795,七台河市,中波台,,45,45,50,22,28,48,,50,50,14,23,8,11,0.5,0.5
2026-01-06T1900,3637A,131.0136,45.7688,七台河市,人民广场,细颗粒物(PM2.5),57,55,55,40,40,36,,47,47,31,30,12,13,0.7,0.7
2026-01-06T1900,3684A,130.8639,45.8144,七台河市,新建矿广场,颗粒物(PM10),76,102,57,45,32,20,,42,37,42,24,15,11,0.6,0.4
2026-01-06T1900,1779A,123.9307,47.3641,齐齐哈尔市,安居小区,细颗粒物(PM2.5),67,56,50,48,29,38,,40,33,25,26,10,12,0.7,0.7
2026-01-06T1900,1780A,123.9497,47.3389,齐齐哈尔市,中心广场,细颗粒物(PM2.5),73,82,47,53,31,29,,37,23,31,29,9,10,0.8,0.7
2026-01-06T1900,1781A,123.9483,47.3229,齐齐哈尔市,农牧车辆厂,细颗粒物(PM2.5),70,66,56,51,28,22,,32,17,36,30,4,4,0.5,0.6
2026-01-06T1900,1783A,123.9442,47.2994,齐齐哈尔市,市环境监测站,细颗粒物(PM2.5),75,69,55,55,32,23,,39,23,44,28,17,10,0.7,0.7
2026-01-06T1900,3662A,123.6341,47.2079,齐齐哈尔市,富区青少年活动中心,细颗粒物(PM2.5),119,112,89,90,48,21,,30,25,40,25,8,10,0.9,1
2026-01-06T1900,2591A,107.9765,26.5724,黔东南苗族侗族自治州,市环境监测站,细颗粒物(PM2.5),55,50,34,39,28,37,,55,52,28,9,2,6,0.8,0.6
2026-01-06T1900,2881A,107.8909,26.531,黔东南苗族侗族自治州,凯里学院,,36,36,32,24,26,54,,54,54,12,11,4,4,0.8,0.7
2026-01-06T1900,2593A,107.5223,26.2371,黔南布依族苗族自治州,小围寨,,49,,23,34,22,52,,52,52,8,7,7,5,0.8,0.8
2026-01-06T1900,3538A,107.5175,26.2977,黔南布依族苗族自治州,沙坝,,49,34,28,34,24,56,,54,54,11,8,7,6,0.8,0.8
2026-01-06T1900,2589A,104.9022,25.0943,黔西南布依族苗族自治州,场坝街,,47,47,32,24,21,55,,54,54,17,10,7,6,0.7,0.7
2026-01-06T1900,2590A,104.8812,25.0994,黔西南布依族苗族自治州,坪东大道,,39,39,28,23,21,50,,55,55,18,10,6,6,0.8,0.7
2026-01-06T1900,2502A,108.6238,21.9667,钦州市,市环保站,,,,41,22,18,67,,73,73,19,15,2,3,1.0,0.8
2026-01-06T1900,2503A,108.655,21.9481,钦州市,沙埠小学,,,53,45,,15,74,,70,70,17,20,4,4,0.7,0.6
2026-01-06T1900,2504A,108.5989,21.7435,钦州市,港区一小,,50,50,46,22,21,67,,66,66,20,21,5,7,0.6,0.7
2026-01-06T1900,3404A,108.5959,21.9634,钦州市,北职校,,,44,29,22,21,,,73,73,,7,6,8,0.7,0.6
2026-01-06T1900,1046A,119.5247,39.9346,秦皇岛市,建设大厦,颗粒物(PM10),56,61,70,34,42,37,,63,61,42,45,14,16,0.7,1
2026-01-06T1900,3132A,119.5979,39.938,秦皇岛市,文明里,颗粒物(PM10),56,61,66,20,30,34,,61,60,43,40,17,19,0.5,0.8
2026-01-06T1900,4066A,119.7458,39.9952,秦皇岛市,南园路157号,颗粒物(PM10),57,64,79,17,37,39,,57,57,40,50,10,14,0.6,1.1
2026-01-06T1900,4067A,119.5131,39.8858,秦皇岛市,翠岛大街1号,,,58,83,11,44,43,,36,,24,54,12,20,,1.4
2026-01-06T1900,4198A,119.509013,39.825305,秦皇岛市,北戴河轮滑馆,,44,44,79,20,46,56,,66,66,25,52,7,12,0.7,1.2
2026-01-06T1900,1310A,120.404,36.0625,青岛市,市南区东部子站,细颗粒物(PM2.5),216,224,99,166,68,42,,62,61,66,43,12,14,1.3,0.9
2026-01-06T1900,1311A,120.362344,36.10282,青岛市,四方区子站,细颗粒物(PM2.5),233,268,149,183,78,21,,55,52,88,47,8,8,1.4,0.9
2026-01-06T1900,1312A,120.294373,36.054183,青岛市,市南区西部子站,细颗粒物(PM2.5),226,219,104,176,75,25,,59,57,86,44,8,8,1.3,0.8
2026-01-06T1900,1313A,120.4581,36.0858,青岛市,崂山区子站,细颗粒物(PM2.5),201,207,94,151,64,45,,64,62,67,46,13,14,1.4,1
2026-01-06T1900,1315A,120.3945,36.3083,青岛市,城阳区子站,细颗粒物(PM2.5),189,268,118,142,65,11,,74,56,107,55,13,10,1.9,1.2
2026-01-06T1900,3642A,120.3454,36.0735,青岛市,市北区南部,细颗粒物(PM2.5),223,212,100,173,72,30,,54,52,67,47,5,7,1.4,0.8
2026-01-06T1900,3643A,120.3897,36.18,青岛市,李沧区北部,细颗粒物(PM2.5),216,195,102,166,78,31,,45,45,75,54,10,12,1.4,1.1
2026-01-06T1900,4110A,120.5222,36.4089,青岛市,盟旺路653号,细颗粒物(PM2.5),224,249,127,174,83,30,,61,61,85,56,10,9,1.4,0.9
2026-01-06T1900,4290A,120.196923,35.954556,青岛市,珠江路669号,细颗粒物(PM2.5),221,195,96,171,79,62,,70,70,56,41,12,14,1.3,0.9
2026-01-06T1900,4291A,120.0424,35.8656,青岛市,黄岛区人民政府广场,细颗粒物(PM2.5),243,249,127,193,96,14,,67,64,103,58,8,11,1.8,1.4
2026-01-06T1900,1703A,113.0218,23.7086,清远市,凤城街办,,45,40,28,31,23,69,,76,76,19,14,/,/,/,/
2026-01-06T1900,3025A,113.0479,23.6343,清远市,技师学院,,49,49,29,31,19,72,,71,71,18,16,6,5,0.7,0.8
2026-01-06T1900,3318A,112.9898,23.7403,清远市,清新太和,,50,47,30,35,23,72,,82,82,18,10,8,5,0.6,0.6
2026-01-06T1900,3455A,113.076,23.72,清远市,清城东城,,45,43,27,31,19,67,,72,72,18,14,/,/,/,/
2026-01-06T1900,2661A,107.6325,35.7357,庆阳市,庆阳五中,,29,29,23,18,16,77,,84,84,16,10,4,4,0.5,0.4
2026-01-06T1900,2662A,107.6361,35.7067,庆阳市,市环保局,,37,37,30,23,15,80,,84,84,11,8,2,2,0.5,0.4
2026-01-06T1900,1916A,103.7897,25.5036,曲靖市,环境监测站,,26,26,26,9,14,46,,47,47,17,15,5,5,1.0,1
2026-01-06T1900,1917A,103.8013,25.5357,曲靖市,烟厂办公区,,21,21,23,9,13,48,,49,49,15,15,4,5,0.6,0.6
2026-01-06T1900,3376A,103.7926,25.4651,曲靖市,南苑二区,,24,24,23,12,15,51,,51,51,13,10,4,5,0.7,0.7
2026-01-06T1900,3377A,103.7442,25.5259,曲靖市,曲靖师范学院,,36,28,28,25,18,38,,50,49,22,14,10,4,0.7,0.8
2026-01-06T1900,1264A,118.8694,28.94,衢州市,环保大楼,细颗粒物(PM2.5),54,50,48,38,39,51,,67,65,30,24,/,/,/,/
2026-01-06T1900,1266A,118.8622,28.9809,衢州市,衢州学院,细颗粒物(PM2.5),53,48,46,37,39,60,,68,68,28,29,5,5,0.3,0.3
2026-01-06T1900,4097A,118.9646,28.9832,衢州市,衢州三中,细颗粒物(PM2.5),53,51,54,37,42,63,,64,64,24,27,6,5,0.6,0.5
2026-01-06T1900,1611A,118.5818,24.9116,泉州市,涂山街,,32,32,27,18,21,48,,45,45,10,13,2,3,0.6,0.6
2026-01-06T1900,1612A,118.597,24.8976,泉州市,津头埔,,30,30,28,20,23,48,,44,44,14,17,4,4,0.7,0.7
2026-01-06T1900,1613A,118.6669,24.9422,泉州市,万安,,26,26,31,12,21,44,,39,39,13,17,2,3,0.6,0.6
2026-01-06T1900,4105A,118.6355,24.9148,泉州市,霞新路6号,,,,29,13,22,,,41,41,11,18,/,/,,0.5
2026-01-06T1900,2626A,88.8873,29.2723,日喀则市,日喀则监测站,,33,14,60,3,27,103,,94,94,6,26,8,13,0.4,1
2026-01-06T1900,3726A,88.8775,29.2425,日喀则市,林业技术推广中心,,30,18,45,3,24,96,,47,,3,13,11,12,0.2,0.7
2026-01-06T1900,1659A,119.4711,35.421,日照市,监测站,细颗粒物(PM2.5),162,156,120,123,88,35,,51,51,65,61,14,17,1.2,1.3
2026-01-06T1900,1660A,119.523,35.4216,日照市,市政府广场,细颗粒物(PM2.5),132,134,108,100,81,49,,56,56,50,57,13,17,0.8,1
2026-01-06T1900,1661A,119.5511,35.4113,日照市,港务局,细颗粒物(PM2.5),150,146,119,115,88,40,,53,53,60,65,12,15,1.0,1.2
2026-01-06T1900,3507A,119.5326,35.4627,日照市,职业技术学院,细颗粒物(PM2.5),140,156,111,107,71,40,,56,56,67,61,12,13,1.3,1.3
2026-01-06T1900,3604A,119.3267,35.1043,日照市,岚山环保分局,细颗粒物(PM2.5),83,100,98,61,73,36,,52,52,58,52,17,20,2.4,1.2
2026-01-06T1900,1835A,111.1922,34.7752,三门峡市,市政府,,29,26,33,20,28,65,,85,83,31,15,8,8,0.4,0.3
2026-01-06T1900,1836A,111.1588,34.794,三门峡市,开发区,,26,26,37,18,26,77,,78,78,11,10,5,6,0.3,0.4
2026-01-06T1900,3039A,111.1911,34.7829,三门峡市,三门峡市第一小学,,30,30,36,17,22,72,,78,78,19,13,7,8,0.5,0.5
2026-01-06T1900,3598A,111.1031,34.719,三门峡市,富达温泉假日酒店,,48,48,42,22,28,58,,79,78,32,17,10,6,0.7,0.5
2026-01-06T1900,2324A,117.621,26.2626,三明市,三钢,,48,37,27,33,27,41,,59,58,30,12,4,5,0.9,1
2026-01-06T1900,2325A,117.6352,26.2714,三明市,三明二中,,39,35,24,27,21,39,,55,55,28,10,4,5,0.8,0.7
2026-01-06T1900,2326A,117.6028,26.2377,三明市,三元区政府,,39,38,27,27,23,27,,54,54,33,14,4,3,0.8,0.7
2026-01-06T1900,1877A,109.4962,18.2682,三亚市,河西子站,,,70,50,33,36,,,116,105,10,9,4,4,0.6,0.6
2026-01-06T1900,3540A,109.7348,18.3443,三亚市,君悦子站,颗粒物(PM10),52,53,52,26,30,67,,114,89,10,10,6,6,0.7,0.6
2026-01-06T1900,4135A,109.1714,18.3739,三亚市,城东小学站,细颗粒物(PM2.5),62,63,39,44,34,113,,55,,11,14,/,/,/,/
2026-01-06T1900,2624A,91.7592,29.234,山南市,山南监测站,,30,30,33,6,13,79,,78,78,16,15,5,6,0.3,0.4
2026-01-06T1900,2625A,91.7701,29.2436,山南市,山南人民医院,,31,31,28,20,13,64,,71,70,29,14,6,4,0.5,0.4
2026-01-06T1900,1674A,116.6795,23.3666,汕头市,金平子站,,,53,32,,17,69,,69,69,21,18,6,7,0.6,0.8
2026-01-06T1900,1675A,116.7248,23.3632,汕头市,龙湖子站,,36,36,30,17,15,70,,69,69,17,15,10,11,/,/
2026-01-06T1900,1676A,116.7257,23.2774,汕头市,濠江子站,,35,35,29,20,21,68,,66,66,21,18,8,9,/,/
2026-01-06T1900,1677A,116.7518,23.4712,汕头市,澄海子站,,33,33,26,16,15,77,,74,74,14,12,6,6,0.4,0.3
2026-01-06T1900,1678A,116.6088,23.2539,汕头市,潮阳子站,,,,32,,17,,,97,76,,16,,6,,0.6
2026-01-06T1900,3444A,116.4539,23.2684,汕头市,潮南峡山,,36,36,27,21,17,78,,81,81,12,11,9,8,0.6,0.6
2026-01-06T1900,3624A,116.4069,23.2533,汕头市,潮南子站,,48,48,35,24,21,65,,72,72,21,14,7,6,/,/
2026-01-06T1900,1693A,115.3653,22.7751,汕尾市,市环保局,,28,27,24,19,19,72,,74,74,12,8,7,7,0.5,0.5
2026-01-06T1900,1695A,115.362,22.7926,汕尾市,新城中学,,26,,20,18,14,77,,76,76,6,5,4,4,0.5,0.5
2026-01-06T1900,2645A,109.9155,33.8714,商洛市,监测站,,28,27,24,19,15,58,,88,85,36,15,4,4,0.4,0.3
2026-01-06T1900,3045A,109.9647,33.8486,商洛市,商州区中学,,35,35,27,14,18,59,,88,85,36,15,5,4,0.6,0.5
2026-01-06T1900,2408A,115.6701,34.4283,商丘市,环境监测站,细颗粒物(PM2.5),63,70,129,45,108,50,,66,65,31,26,4,3,0.3,0.5
2026-01-06T1900,2409A,115.6458,34.4047,商丘市,粮食局,,,52,128,47,106,44,,62,60,33,31,6,5,,1.1
2026-01-06T1900,3171A,115.6069,34.4465,商丘市,梁园区档案局,细颗粒物(PM2.5),58,58,121,41,109,41,,59,57,33,30,6,5,0.5,0.7
2026-01-06T1900,4119A,115.6701,34.3767,商丘市,北海东路185号,细颗粒物(PM2.5),60,58,131,43,104,53,,64,64,26,30,4,3,0.5,0.7
2026-01-06T1900,4120A,115.6172,34.3704,商丘市,中山大街3号,细颗粒物(PM2.5),79,74,145,58,117,31,,65,62,49,39,5,4,0.3,0.5
2026-01-06T1900,1141A,121.401,31.2382,上海市,普陀,细颗粒物(PM2.5),200,156,108,150,97,56,,66,66,43,64,6,7,1.1,0.9
2026-01-06T1900,1142A,121.4774,31.2043,上海市,十五厂,细颗粒物(PM2.5),183,153,97,138,83,54,,69,69,47,52,6,7,1.2,1
2026-01-06T1900,1143A,121.4673,31.3011,上海市,虹口,细颗粒物(PM2.5),186,164,108,140,87,47,,60,60,41,56,6,7,1.0,0.9
2026-01-06T1900,1147A,121.4253,31.226,上海市,静安监测站,细颗粒物(PM2.5),188,157,105,141,88,60,,71,71,42,59,6,7,0.9,0.8
2026-01-06T1900,1148A,121.7029,31.1905,上海市,浦东川沙,细颗粒物(PM2.5),172,162,109,130,83,56,,68,68,40,58,6,8,1.0,1
2026-01-06T1900,1149A,121.5339,31.229,上海市,浦东新区监测站,细颗粒物(PM2.5),192,160,96,144,85,58,,69,69,48,58,6,7,1.2,1
2026-01-06T1900,1150A,121.5776,31.2038,上海市,浦东张江,细颗粒物(PM2.5),176,156,102,133,80,66,,75,75,35,50,6,7,1.1,0.9
2026-01-06T1900,3265A,121.4242,31.3303,上海市,宝山庙行,细颗粒物(PM2.5),196,171,110,147,91,48,,62,62,44,60,6,7,1.1,0.8
2026-01-06T1900,3266A,121.8789,31.4662,上海市,崇明上实东滩,细颗粒物(PM2.5),202,185,99,152,78,55,,73,68,31,23,4,5,1.0,0.7
2026-01-06T1900,3268A,121.316,31.2839,上海市,嘉定南翔,细颗粒物(PM2.5),186,156,114,140,114,54,,67,67,36,58,4,6,1.1,0.9
2026-01-06T1900,3269A,121.3357,30.7455,上海市,金山新城,细颗粒物(PM2.5),168,,115,127,124,63,,78,78,32,51,8,8,1.4,1.3
2026-01-06T1900,3270A,121.4996,31.0741,上海市,闵行浦江,细颗粒物(PM2.5),176,150,113,133,94,52,,69,69,47,62,6,8,0.9,0.8
2026-01-06T1900,3271A,121.2886,31.1663,上海市,青浦徐泾,细颗粒物(PM2.5),183,156,118,138,99,43,,67,67,47,63,4,6,1.2,1.1
2026-01-06T1900,3272A,121.2193,31.0382,上海市,松江图书馆,细颗粒物(PM2.5),143,163,135,109,81,51,,78,77,41,53,6,7,1.0,0.9
2026-01-06T1900,3273A,121.3904,31.206,上海市,长宁仙霞,细颗粒物(PM2.5),178,149,106,134,91,50,,64,64,50,65,6,8,0.9,0.8
2026-01-06T1900,3274A,121.7964,31.0507,上海市,浦东惠南,细颗粒物(PM2.5),168,155,106,127,91,54,,70,70,46,61,4,5,1.2,1
2026-01-06T1900,3544A,121.4891,30.925,上海市,奉贤南桥新城,细颗粒物(PM2.5),180,157,128,136,113,58,,81,81,44,61,8,9,1.3,1.2
2026-01-06T1900,4183A,121.417401,31.16637,上海市,冠生园路458号,细颗粒物(PM2.5),189,158,109,142,94,58,,69,69,50,69,5,6,1.1,0.8
2026-01-06T1900,4205A,121.541914,31.268301,上海市,宁武路151号,细颗粒物(PM2.5),192,163,99,144,83,53,,66,66,42,55,5,6,1.1,0.9
2026-01-06T1900,2382A,117.9758,28.4439,上饶市,市监测站,,46,45,39,32,25,91,,85,85,16,19,5,9,/,/
2026-01-06T1900,2383A,117.9521,28.4637,上饶市,凤凰光学,颗粒物(PM10),56,62,43,30,23,80,,82,82,20,19,8,15,0.8,0.7
2026-01-06T1900,3685A,117.897,28.4316,上饶市,双创科技城,细颗粒物(PM2.5),52,42,37,36,28,74,,83,83,33,25,6,8,0.7,0.7
2026-01-06T1900,4211A,118.190438,28.444845,上饶市,裕丰大道,细颗粒物(PM2.5),63,62,49,45,34,85,,79,79,18,22,10,16,0.6,0.7
2026-01-06T1900,1669A,113.5821,24.7733,韶关市,市八中,,43,37,34,30,26,45,,54,54,26,15,8,8,0.7,0.6
2026-01-06T1900,1671A,113.5916,24.7973,韶关市,园林处,,43,30,27,30,26,55,,58,58,19,13,15,9,/,/
2026-01-06T1900,1673A,113.5971,24.6864,韶关市,曲江监测站,,46,37,29,32,23,56,,56,56,15,13,11,8,0.4,0.4
2026-01-06T1900,2809A,113.6668,24.7756,韶关市,大学路288号,,33,33,26,23,24,38,,54,53,14,14,6,7,/,/
2026-01-06T1900,3622A,113.5556,24.8082,韶关市,碧湖山庄,,40,35,36,28,29,56,,62,62,16,14,8,7,0.5,0.5
2026-01-06T1900,2464A,111.5277,27.2442,邵阳市,市化工厂,细颗粒物(PM2.5),58,53,59,41,44,83,,88,88,26,23,11,9,1.0,1.1
2026-01-06T1900,2466A,111.4327,27.2276,邵阳市,市环保局,细颗粒物(PM2.5),64,51,45,46,44,81,,87,87,27,17,7,6,1.0,0.9
2026-01-06T1900,4218A,111.446,27.2472,邵阳市,北塔二期4-26地块,细颗粒物(PM2.5),53,53,48,37,48,54,,75,75,50,20,6,5,1.2,0.9
2026-01-06T1900,4219A,111.4739,27.2282,邵阳市,邵水西路287号,颗粒物(PM10),65,79,64,46,48,90,,92,92,24,22,13,12,0.7,0.7
2026-01-06T1900,1247A,120.6053,29.9927,绍兴市,城东开发委,细颗粒物(PM2.5),73,61,80,53,69,52,,67,67,26,31,7,8,0.6,0.7
2026-01-06T1900,2921A,120.5482,30.0003,绍兴市,树下王站,细颗粒物(PM2.5),64,57,84,46,64,54,,67,65,22,31,6,6,0.7,0.9
2026-01-06T1900,3408A,120.5685,29.936,绍兴市,绍兴中专,细颗粒物(PM2.5),67,65,84,48,66,60,,69,69,18,30,7,7,0.6,0.8
2026-01-06T1900,3409A,120.4905,30.086,绍兴市,柯桥区政府,细颗粒物(PM2.5),62,62,83,44,63,53,,68,68,28,36,4,4,0.6,0.7
2026-01-06T1900,3410A,120.8751,30.0249,绍兴市,重华小学,细颗粒物(PM2.5),114,108,87,86,73,62,,67,67,27,35,6,5,0.8,0.8
