timepoint,stationcode,longitude,latitude,area,positionname,primarypollutant,aqi,pm10,pm10_24h,pm2_5,pm2_5_24h,o3,o3_24h,o3_8h,o3_8h_24h,no2,no2_24h,so2,so2_24h,co,co_24h
2026-01-06T1800,2568A,102.2503,31.8896,阿坝藏族羌族自治州,马师校,,23,,19,16,16,59,,70,70,18,14,4,4,0.6,0.6
2026-01-06T1800,3994A,102.2174,31.9016,阿坝藏族羌族自治州,马尔康中学西区,,22,13,11,9,12,70,,70,70,11,12,5,5,0.6,0.5
2026-01-06T1800,2695A,80.2899,41.1684,阿克苏地区,电视台,,46,34,50,32,34,60,,43,43,18,23,4,4,0.4,0.6
2026-01-06T1800,2696A,80.2592,41.1541,阿克苏地区,艺术中心,,46,35,42,32,35,71,,54,51,7,13,4,4,0.4,0.6
2026-01-06T1800,2205A,105.699,38.8409,阿拉善盟,蒙二幼,,40,40,20,24,13,74,,80,80,14,12,10,10,0.7,0.6
2026-01-06T1800,2206A,105.7198,38.8508,阿拉善盟,环保局新楼,,40,36,15,28,12,70,,76,75,12,7,9,9,0.7,0.6
2026-01-06T1800,2708A,88.1266,47.8515,阿勒泰地区,市站,,,,18,,9,,,69,44,51,31,5,3,0.3,0.6
2026-01-06T1800,4166A,88.1198,47.7931,阿勒泰地区,阿勒泰路33号,,21,18,18,3,5,67,,59,59,22,30,14,5,0.3,0.4
2026-01-06T1800,2630A,80.1171,32.4999,阿里地区,阿里监测站,,28,,3,3,3,89,,81,81,2,6,6,9,0.3,0.4
2026-01-06T1800,3192A,80.0906,32.5029,阿里地区,阿里藏医院,,30,6,12,6,7,95,,84,84,1,5,8,11,0.4,0.5
2026-01-06T1800,2644A,109.0088,32.6974,安康市,汉滨区检察院,,,50,54,31,46,55,,47,47,32,24,,5,0.8,0.8
2026-01-06T1800,4054A,109.0324,32.6913,安康市,市邮政管理局,颗粒物(PM10),52,54,66,33,54,38,,40,40,39,25,5,6,0.9,0.8
2026-01-06T1800,2291A,117.0806,30.5181,安庆市,环科院,细颗粒物(PM2.5),62,62,70,44,55,74,,66,66,13,19,5,5,0.4,0.5
2026-01-06T1800,2292A,117.0331,30.5118,安庆市,马山宾馆,细颗粒物(PM2.5),59,59,68,42,54,75,,66,66,14,15,4,5,0.6,0.7
2026-01-06T1800,2294A,116.9897,30.6146,安庆市,安庆大学,细颗粒物(PM2.5),54,56,56,38,45,85,,72,72,8,19,4,4,0.4,0.6
2026-01-06T1800,3173A,117.0598,30.5351,安庆市,市人大,"颗粒物(PM10),细颗粒物(PM2.5)",60,70,66,43,52,72,,66,66,19,18,6,7,0.4,0.5
2026-01-06T1800,3123A,105.9408,26.2431,安顺市,凤凰山,,50,36,35,35,31,71,,74,74,14,14,13,15,0.9,0.9
2026-01-06T1800,3124A,105.9443,26.2567,安顺市,金钟山,细颗粒物(PM2.5),57,,32,40,31,70,,73,73,12,11,19,17,0.8,0.8
2026-01-06T1800,3125A,105.8983,26.248,安顺市,娄家坡,,50,39,38,35,34,69,,71,71,14,14,9,18,0.8,0.8
2026-01-06T1800,1819A,114.3552,36.1017,安阳市,红庙街,,48,48,88,28,69,56,,60,60,22,28,4,9,0.6,1.1
2026-01-06T1800,1820A,114.361,36.0681,安阳市,银杏小区,,46,46,88,24,74,58,,65,65,21,24,4,6,0.4,0.7
2026-01-06T1800,3141A,114.3921,36.0879,安阳市,信访局,,46,36,91,32,79,66,,67,67,18,26,2,5,0.5,1
2026-01-06T1800,3669A,114.4706,36.0634,安阳市,左辅环卫站,颗粒物(PM10),68,85,118,24,89,58,,67,67,3,21,4,9,0.5,0.9
2026-01-06T1800,4117A,114.2918,36.0769,安阳市,钢三路198号,细颗粒物(PM2.5),63,62,94,45,73,60,,68,68,23,25,3,4,0.5,0.7
2026-01-06T1800,1748A,123.0441,41.1201,鞍山市,深沟寺,细颗粒物(PM2.5),62,66,68,44,48,36,,49,47,45,33,14,14,1.2,1.5
2026-01-06T1800,1749A,123.011,41.0931,鞍山市,太阳城,细颗粒物(PM2.5),59,66,64,42,46,30,,46,45,50,33,16,16,1.3,1.5
2026-01-06T1800,1750A,123.0483,41.1445,鞍山市,太平,颗粒物(PM10),58,66,83,38,48,32,,43,43,51,38,15,16,1.2,1.6
2026-01-06T1800,1751A,122.964,41.0968,鞍山市,铁西三道街,"颗粒物(PM10),细颗粒物(PM2.5)",62,73,88,44,52,35,,45,45,52,46,17,26,1.2,1.7
2026-01-06T1800,1753A,123.0219,41.0822,鞍山市,明达新区,颗粒物(PM10),57,63,70,39,47,38,,48,48,31,25,17,17,1.1,1.2
2026-01-06T1800,4201A,122.944647,41.082639,鞍山市,兴盛南路290号,细颗粒物(PM2.5),69,82,78,50,46,31,,45,45,58,46,15,20,0.8,1.2
2026-01-06T1800,2195A,107.4206,40.7609,巴彦淖尔市,附二中,颗粒物(PM10),55,59,48,31,20,61,,61,61,10,9,4,3,0.4,0.4
2026-01-06T1800,2196A,107.37,40.7372,巴彦淖尔市,市环保大楼,颗粒物(PM10),53,56,51,21,17,72,,70,70,8,8,4,4,0.4,0.4
2026-01-06T1800,1956A,86.1476,41.7529,巴音郭楞蒙古自治州,孔雀公园,颗粒物(PM10),51,52,49,32,32,61,,46,46,10,19,6,6,0.4,0.5
2026-01-06T1800,1957A,86.1971,41.7166,巴音郭楞蒙古自治州,棉纺厂,颗粒物(PM10),61,71,60,14,23,63,,49,49,11,19,/,/,/,/
2026-01-06T1800,1958A,86.236,41.7172,巴音郭楞蒙古自治州,经济开发区,颗粒物(PM10),54,57,44,24,20,56,,43,43,9,16,4,4,0.6,0.6
2026-01-06T1800,3181A,106.776805,31.852614,巴中市,市五中,,,32,53,24,41,78,,62,62,21,24,6,5,,0.9
2026-01-06T1800,3183A,106.7419,31.8654,巴中市,圣泉水务公司,,40,34,43,28,35,61,,65,65,32,29,4,4,0.5,0.6
2026-01-06T1800,3616A,106.7617,31.8343,巴中市,市中心医院,,32,29,48,22,39,61,,65,65,28,27,6,6,0.6,0.8
2026-01-06T1800,2235A,122.7909,45.608,白城市,洮北区环保局,,44,44,30,12,21,62,,69,68,7,19,6,6,0.2,0.3
2026-01-06T1800,2236A,122.8741,45.5725,白城市,市环保局,,41,41,29,20,19,60,,61,61,14,20,7,5,0.4,0.4
2026-01-06T1800,2231A,126.4219,41.9172,白山市,喜丰,,47,47,64,29,30,68,,62,62,18,32,15,15,1.0,1
2026-01-06T1800,2232A,126.4082,41.9416,白山市,环保局,细颗粒物(PM2.5),58,49,55,41,34,42,,50,50,36,28,14,12,1.5,1.2
2026-01-06T1800,2647A,104.1727,36.5448,白银市,第三小学,细颗粒物(PM2.5),58,55,56,41,41,60,,61,61,24,28,11,17,0.7,0.9
2026-01-06T1800,2648A,104.1467,36.5482,白银市,动力公司,细颗粒物(PM2.5),57,57,44,40,34,67,,69,69,29,23,23,10,0.7,0.8
2026-01-06T1800,2512A,106.6102,23.901,百色市,市监测站,,28,25,29,19,18,53,,42,42,10,17,7,8,0.7,0.8
2026-01-06T1800,2513A,106.6524,23.8842,百色市,市中心血站,,36,26,31,25,25,59,,50,50,14,22,7,10,0.7,0.8
2026-01-06T1800,4133A,106.6273,23.8798,百色市,龙景西路,,31,31,34,20,25,59,,45,45,6,11,7,8,0.6,0.6
2026-01-06T1800,2270A,117.396,32.9389,蚌埠市,工人疗养院,颗粒物(PM10),58,65,150,31,119,64,,68,68,18,25,5,5,0.5,0.8
2026-01-06T1800,2271A,117.3606,32.9428,蚌埠市,百货大楼,颗粒物(PM10),52,53,138,33,116,61,,68,68,17,25,6,5,0.4,0.8
2026-01-06T1800,2273A,117.4183,32.8909,蚌埠市,蚌埠学院,,41,41,136,26,109,72,,74,74,17,29,5,4,0.3,0.7
2026-01-06T1800,2274A,117.3534,32.9672,蚌埠市,淮上区政府,颗粒物(PM10),56,61,149,34,125,62,,72,72,22,28,2,2,0.4,0.8
2026-01-06T1800,2275A,117.3143,32.8977,蚌埠市,高新区,颗粒物(PM10),53,56,132,34,107,60,,58,58,21,28,7,6,0.4,0.7
2026-01-06T1800,3715A,117.3091,32.9314,蚌埠市,蚌埠田家炳中学,颗粒物(PM10),54,57,146,36,120,69,,70,70,15,32,5,5,0.3,0.7
2026-01-06T1800,1585A,109.8761,40.6533,包头市,市环境监测站,,41,41,56,18,28,63,,61,61,18,32,4,12,0.4,1
2026-01-06T1800,1587A,109.9992,40.5843,包头市,包头八中,颗粒物(PM10),56,61,57,18,34,66,,58,58,18,38,1,7,0.2,0.8
2026-01-06T1800,1589A,109.8641,40.6288,包头市,惠龙物流,,44,44,58,12,34,70,,64,64,14,37,7,18,0.0,1.3
2026-01-06T1800,1590A,110.0376,40.5546,包头市,东河鸿龙湾,颗粒物(PM10),52,54,43,3,19,64,,63,63,21,41,7,9,0.4,0.8
2026-01-06T1800,3283A,109.9154,40.5684,包头市,滨河大厦,颗粒物(PM10),55,59,42,18,23,64,,62,62,11,23,5,8,0.5,0.7
2026-01-06T1800,3419A,109.9449,40.6259,包头市,包头市委党校,,48,48,53,13,29,60,,57,57,19,33,7,13,0.4,0.9
2026-01-06T1800,3683A,109.8332,40.6577,包头市,昆区政府,,44,44,49,21,25,65,,59,59,19,29,6,13,0.6,1.1
2026-01-06T1800,1931A,107.0802,34.3129,宝鸡市,竹园沟,细颗粒物(PM2.5),60,56,31,43,24,52,,61,61,22,15,6,5,0.4,0.4
2026-01-06T1800,1933A,107.1429,34.3549,宝鸡市,监测站,细颗粒物(PM2.5),55,,43,39,33,50,,58,58,44,29,10,7,0.5,0.4
2026-01-06T1800,1934A,107.1172,34.3759,宝鸡市,技工学校,,,,48,,34,69,,63,63,,16,14,6,0.6,0.6
2026-01-06T1800,1936A,107.2025,34.3518,宝鸡市,文理学院,,49,46,43,34,32,58,,65,65,41,26,9,5,0.4,0.4
2026-01-06T1800,1937A,107.2396,34.3626,宝鸡市,三迪小学,,49,44,47,34,36,69,,66,66,30,27,6,4,0.5,0.6
2026-01-06T1800,4155A,107.1721,34.3558,宝鸡市,滨河北路,,44,44,43,27,29,59,,68,68,40,26,10,6,0.8,0.6
2026-01-06T1800,4308A,107.3898,34.3601,宝鸡市,陈仓区北开路21号,,50,50,62,21,48,71,,74,74,38,31,7,32,0.1,0.7
2026-01-06T1800,1051A,115.4803,38.8568,保定市,游泳馆,颗粒物(PM10),57,64,115,37,97,31,,46,46,50,70,8,9,0.8,1.1
2026-01-06T1800,1052A,115.509,38.8895,保定市,华电二区,细颗粒物(PM2.5),57,50,101,40,95,45,,48,48,18,44,5,6,0.9,1.6
2026-01-06T1800,1053A,115.4588,38.9037,保定市,接待中心,颗粒物(PM10),55,60,112,32,91,44,,47,47,28,53,3,5,0.4,1
2026-01-06T1800,1054A,115.4484,38.8344,保定市,地表水厂,颗粒物(PM10),70,90,149,38,109,32,,49,47,47,63,4,7,0.4,1.1
2026-01-06T1800,3581A,115.3136,38.9511,保定市,满城区生态环境分局,颗粒物(PM10),70,90,131,12,88,65,,51,51,23,59,5,8,0.4,1.3
2026-01-06T1800,3582A,115.4709,38.7628,保定市,清苑区第二中学,颗粒物(PM10),75,100,166,35,110,17,,44,44,64,66,7,10,0.6,1.1
2026-01-06T1800,3583A,115.6231,39.0223,保定市,徐水物探局,颗粒物(PM10),71,92,159,42,107,24,,42,42,52,65,11,12,0.6,1.3
2026-01-06T1800,4004A,115.4199,38.8665,保定市,双鹰农机,颗粒物(PM10),60,70,153,34,88,50,,53,53,31,56,9,11,0.5,1.1
2026-01-06T1800,4034A,115.515,38.8589,保定市,植保所站,细颗粒物(PM2.5),58,60,120,41,109,37,,38,38,44,80,3,5,0.6,1.2
2026-01-06T1800,2594A,99.1589,25.1137,保山市,市环境监测站,,29,14,24,8,21,90,,77,77,6,9,2,4,0.3,0.4
2026-01-06T1800,2595A,99.1616,25.1381,保山市,市环保局,,,25,26,10,18,91,,80,80,4,7,,4,0.4,0.4
2026-01-06T1800,1867A,109.1435,21.4085,北海市,海滩公园,,42,42,31,27,20,95,,76,76,14,14,8,7,0.3,0.4
2026-01-06T1800,1868A,109.0983,21.466,北海市,新市环保局,,35,34,26,24,24,96,,79,79,12,13,4,4,0.7,0.7
2026-01-06T1800,1869A,109.1775,21.5232,北海市,北海工业园,,42,41,34,29,24,91,,75,75,14,12,7,7,0.7,0.7
2026-01-06T1800,3400A,109.1844,21.4396,北海市,龙潭自来水厂,,37,37,32,25,24,92,,75,75,12,13,7,7,0.5,0.8
2026-01-06T1800,1001A,116.3611,39.8786,北京市,万寿西宫,,49,49,70,20,36,41,,50,50,42,55,3,4,0.3,0.6
2026-01-06T1800,1003A,116.4174,39.9289,北京市,东四,,48,48,54,12,29,59,,61,61,16,38,4,6,0.5,0.5
2026-01-06T1800,1004A,116.4073,39.8858,北京市,天坛,,42,42,58,13,34,57,,53,53,17,46,3,3,0.4,0.7
2026-01-06T1800,1005A,116.4622,39.9364,北京市,农展馆,,39,39,50,11,28,63,,64,64,12,32,4,5,0.5,0.7
2026-01-06T1800,1006A,116.3399,39.9293,北京市,官园,,49,49,58,20,32,65,,63,63,9,39,5,6,0.4,0.6
2026-01-06T1800,1007A,116.2879,39.9613,北京市,海淀万柳,,41,41,46,12,24,63,,60,60,11,47,3,4,0.3,0.6
2026-01-06T1800,1008A,116.6635,40.1349,北京市,顺义新城,颗粒物(PM10),57,64,44,12,15,56,,60,60,18,26,4,5,0.5,0.6
2026-01-06T1800,1009A,116.6275,40.327,北京市,怀柔镇,,32,32,30,13,16,61,,59,59,15,24,7,7,0.4,0.6
2026-01-06T1800,1010A,116.2295,40.217,北京市,昌平镇,,49,49,44,10,17,63,,61,61,13,16,5,7,0.5,0.5
2026-01-06T1800,1011A,116.3968,39.982,北京市,奥体中心,,32,32,47,10,26,64,,60,60,17,48,4,6,0.4,0.7
2026-01-06T1800,3418A,116.8336,40.4095,北京市,密云新城,,34,34,24,15,12,55,,59,59,16,20,4,4,0.4,0.4
2026-01-06T1800,3671A,116.0879,39.9725,北京市,门头沟三家店,,50,50,48,12,20,64,,68,68,10,19,3,4,0.4,0.5
2026-01-06T1800,3672A,116.1507,39.8246,北京市,丰台云岗,,38,38,75,16,48,64,,48,48,17,44,4,4,0.5,0.7
2026-01-06T1800,3674A,115.9578,39.7602,北京市,房山燕山,细颗粒物(PM2.5),63,74,65,45,41,28,,40,40,45,33,5,5,0.6,0.6
2026-01-06T1800,3675A,116.4669,39.7734,北京市,大兴旧宫,颗粒物(PM10),79,107,98,53,50,30,,42,42,48,58,4,3,0.8,0.9
2026-01-06T1800,3694A,115.9859,40.4562,北京市,延庆石河营,,34,34,43,7,23,73,,66,66,8,21,3,5,0.3,0.5
2026-01-06T1800,3695A,116.6151,40.3052,北京市,怀柔新城,,27,27,27,8,14,68,,62,62,8,14,4,5,0.2,0.3
2026-01-06T1800,3696A,116.2542,39.8764,北京市,丰台小屯,颗粒物(PM10),52,53,65,18,33,47,,48,48,23,40,5,5,0.4,0.6
2026-01-06T1800,3697A,116.8399,40.3843,北京市,密云镇,颗粒物(PM10),51,51,36,17,14,37,,55,55,34,38,2,2,0.5,0.6
2026-01-06T1800,4057A,115.9423,40.4431,北京市,延庆百泉,,26,26,36,6,21,68,,57,57,2,18,2,4,0.2,0.5
2026-01-06T1800,4058A,116.6598,39.9164,北京市,通州新华,颗粒物(PM10),55,60,57,11,27,52,,51,51,17,40,3,4,0.4,0.5
2026-01-06T1800,4182A,116.1942,39.9158,北京市,石景山八角,颗粒物(PM10),52,53,54,15,25,56,,56,56,13,31,1,3,0.3,0.3
2026-01-06T1800,4194A,117.078628,40.151726,北京市,平谷新城,,44,44,26,21,14,52,,55,55,19,18,3,2,0.4,0.4
2026-01-06T1800,1761A,123.8274146,41.31234549,本溪市,大峪,颗粒物(PM10),59,67,60,41,33,35,,47,47,39,39,11,11,1.2,1.5
2026-01-06T1800,1763A,123.7169,41.3094,本溪市,彩屯,细颗粒物(PM2.5),140,129,94,107,57,22,,40,40,62,54,16,16,2.1,3.4
2026-01-06T1800,1764A,123.7672166,41.28649327,本溪市,东明,"颗粒物(PM10),细颗粒物(PM2.5)",53,55,67,37,39,62,,65,65,20,42,13,13,0.8,1.6
2026-01-06T1800,1765A,123.799345,41.266614,本溪市,新立屯,细颗粒物(PM2.5),59,63,52,42,38,23,,55,51,63,40,13,12,0.9,1.4
2026-01-06T1800,1766A,123.829144,41.336777,本溪市,威宁,细颗粒物(PM2.5),75,55,78,55,40,18,,44,43,58,43,10,11,1.2,1.4
2026-01-06T1800,2587A,105.287,27.3133,毕节市,八中,,40,38,45,28,36,66,,67,56,9,8,9,9,0.6,0.6
2026-01-06T1800,2588A,105.3079,27.2987,毕节市,师专,,42,38,35,29,27,69,,71,66,12,9,8,7,0.5,0.6
2026-01-06T1800,4263A,105.3688,27.3598,毕节市,工业大道,,46,42,38,32,31,66,,68,64,7,7,10,10,/,/
2026-01-06T1800,1629A,117.9961,37.3604,滨州市,第二水厂,细颗粒物(PM2.5),148,161,135,113,100,21,,37,37,57,66,17,15,1.0,0.9
2026-01-06T1800,1630A,117.9789,37.3931,滨州市,北中新校,细颗粒物(PM2.5),117,122,127,88,101,19,,35,35,56,66,10,12,0.9,1
2026-01-06T1800,3514A,117.9379,37.3959,滨州市,中海酒店,细颗粒物(PM2.5),134,136,136,102,113,18,,42,42,64,67,11,13,1.0,1.3
2026-01-06T1800,3515A,117.9381509,37.35547456,滨州市,开发区一中,细颗粒物(PM2.5),147,163,137,112,111,13,,39,39,56,62,17,21,1.1,1
2026-01-06T1800,3516A,118.0914,37.6938,滨州市,金海六路,细颗粒物(PM2.5),178,198,141,134,107,17,,49,49,82,68,13,12,1.4,1
2026-01-06T1800,4028A,117.9955,37.3752,滨州市,滨州市西街道办事处,细颗粒物(PM2.5),122,136,135,92,111,21,,42,42,50,55,13,12,0.8,1
2026-01-06T1800,2311A,115.8071,33.8399,亳州市,污水处理厂,颗粒物(PM10),58,65,130,36,109,60,,67,67,34,33,6,4,0.4,0.7
2026-01-06T1800,2312A,115.7789,33.8519,亳州市,三国揽胜宫,颗粒物(PM10),60,70,153,34,108,58,,62,61,23,25,5,4,0.5,0.8
2026-01-06T1800,3332A,115.7631,33.803,亳州市,亳州学院,颗粒物(PM10),55,60,140,36,108,61,,65,65,26,26,4,3,0.3,0.7
2026-01-06T1800,2693A,82.0482,44.8553,博尔塔拉蒙古自治州,市党校,细颗粒物(PM2.5),122,142,114,92,62,47,,47,47,36,33,10,4,1.4,1.2
2026-01-06T1800,2694A,82.0805,44.8966,博尔塔拉蒙古自治州,市环保局,细颗粒物(PM2.5),100,138,133,75,64,56,,51,51,30,40,10,8,1.2,1.3
2026-01-06T1800,1071A,116.8733,38.2922,沧州市,沧县城建局,细颗粒物(PM2.5),221,202,160,171,146,20,,45,42,82,64,5,5,1.3,1.3
2026-01-06T1800,1072A,116.8462,38.3189,沧州市,电视转播站,细颗粒物(PM2.5),216,209,159,166,142,20,,41,41,72,53,4,6,1.3,1.1
2026-01-06T1800,1073A,116.8588,38.3161,沧州市,市环保局,细颗粒物(PM2.5),207,198,160,157,144,21,,44,44,72,49,7,6,1.3,1.1
2026-01-06T1800,3324A,116.8011,38.294,沧州市,河北水利电力学院,细颗粒物(PM2.5),189,202,176,142,125,24,,34,34,76,70,10,10,1.3,1.2
2026-01-06T1800,2622A,97.1813,31.1289,昌都市,昌都监测站,,48,48,38,31,22,39,,64,64,48,23,3,2,1.1,0.8
2026-01-06T1800,3719A,97.1707,31.1428,昌都市,昌都会议中心,,22,14,20,7,12,68,,64,64,3,7,2,2,0.5,0.6
2026-01-06T1800,2692A,87.2722,44.0298,昌吉回族自治州,新区政务中心,细颗粒物(PM2.5),180,180,147,136,105,53,,41,41,36,68,7,8,1.3,1.5
2026-01-06T1800,3613A,87.3069,44.0093,昌吉回族自治州,亚心广场,细颗粒物(PM2.5),188,193,163,141,116,64,,41,41,30,62,7,7,1.5,1.7
2026-01-06T1800,4164A,87.2057,43.9289,昌吉回族自治州,财政所,细颗粒物(PM2.5),173,188,81,131,54,80,,61,61,38,25,5,5,1.1,0.6
2026-01-06T1800,1120A,125.2874,43.9024,长春市,客车厂,细颗粒物(PM2.5),60,57,48,43,39,44,,51,51,38,34,11,12,0.8,0.7
2026-01-06T1800,1121A,125.2943,43.8508,长春市,邮电学院,细颗粒物(PM2.5),68,60,51,49,35,45,,51,51,32,28,12,11,0.5,0.5
2026-01-06T1800,1122A,125.3648,43.8745,长春市,劳动公园,细颗粒物(PM2.5),59,59,50,42,30,46,,59,53,35,32,12,9,0.6,0.8
2026-01-06T1800,1123A,125.3233,43.8781,长春市,园林处,细颗粒物(PM2.5),52,51,46,36,30,35,,46,46,38,27,15,14,0.7,0.7
2026-01-06T1800,1124A,125.4604,43.7904,长春市,净月潭,,45,45,41,26,26,52,,56,56,22,16,10,9,0.7,0.5
2026-01-06T1800,1126A,125.38,43.8422,长春市,经开区环卫处,颗粒物(PM10),55,60,49,30,26,48,,55,55,33,33,8,8,0.7,0.7
2026-01-06T1800,1127A,125.234,43.7761,长春市,高新区管委会,细颗粒物(PM2.5),69,50,48,50,35,52,,60,60,32,31,10,9,0.7,0.7
2026-01-06T1800,1128A,125.1695,43.83,长春市,岱山公园,细颗粒物(PM2.5),69,58,49,50,35,48,,56,56,31,36,11,11,0.6,0.7
2026-01-06T1800,4281A,125.334645,43.916281,长春市,北亚泰大街1068号,细颗粒物(PM2.5),58,56,50,41,36,35,,49,49,46,36,12,12,0.8,0.8
2026-01-06T1800,1335A,113.082,28.2421,长沙市,经开区环保局,细颗粒物(PM2.5),69,57,90,50,74,82,,77,77,28,31,4,5,0.4,0.6
2026-01-06T1800,1336A,112.8873,28.2202,长沙市,高开区环保局,细颗粒物(PM2.5),64,51,83,46,74,95,,83,83,14,22,6,6,0.8,0.9
2026-01-06T1800,1337A,113.0785,28.2012,长沙市,马坡岭,细颗粒物(PM2.5),67,62,87,48,71,92,,88,88,34,38,5,5,0.8,0.9
2026-01-06T1800,1338A,112.9448,28.1894,长沙市,湖南师范大学,细颗粒物(PM2.5),58,50,84,41,64,88,,88,88,30,34,6,6,0.5,0.7
2026-01-06T1800,1339A,113.0177,28.1322,长沙市,雨花区环保局,细颗粒物(PM2.5),59,58,88,42,72,96,,90,90,17,30,8,8,0.5,0.7
2026-01-06T1800,1340A,112.9795,28.2593,长沙市,伍家岭,细颗粒物(PM2.5),63,50,92,45,64,89,,84,84,23,34,5,6,0.4,0.6
2026-01-06T1800,1341A,113.002,28.1944,长沙市,火车新站,细颗粒物(PM2.5),67,66,97,48,76,95,,87,87,19,28,8,9,0.4,0.7
2026-01-06T1800,1342A,112.9846,28.1177,长沙市,天心区环保局,细颗粒物(PM2.5),64,52,84,46,68,98,,92,92,22,29,6,6,0.6,0.8
2026-01-06T1800,1343A,112.8906,28.1307,长沙市,湖南中医药大学,,,62,86,44,68,104,,96,96,,32,,6,0.6,0.8
2026-01-06T1800,1727A,113.1146,36.1547,长治市,清华站,,21,19,40,12,20,67,,73,73,18,20,11,11,0.4,0.5
2026-01-06T1800,1730A,113.0887,36.2126,长治市,审计局,,22,14,28,9,20,69,,69,69,12,18,7,8,0.4,0.5
2026-01-06T1800,1731A,113.0845,36.1856,长治市,长治八中,,27,27,35,17,25,68,,69,69,12,14,10,10,0.5,0.6
2026-01-06T1800,2845A,113.1561,36.1912,长治市,德盛苑,,24,24,30,9,22,71,,71,71,14,15,8,10,0.4,0.5
2026-01-06T1800,3568A,113.0603,36.0464,长治市,向阳小学,,36,36,44,10,22,72,,77,77,20,17,8,8,0.4,0.4
2026-01-06T1800,3569A,112.8788,36.315,长治市,屯留一中,,,,33,,23,64,,72,72,13,20,4,2,0.2,0.2
2026-01-06T1800,4189A,113.113092,36.199482,长治市,英华南巷50号,,27,27,30,14,23,73,,72,72,11,15,6,8,0.3,0.5
2026-01-06T1800,4190A,113.23666,36.33435,长治市,学府街1号,,35,35,36,13,21,69,,67,67,14,18,7,13,0.3,0.6
2026-01-06T1800,1854A,111.696,28.9725,常德市,市二中,,46,35,67,32,58,87,,77,77,16,23,5,5,0.5,0.7
2026-01-06T1800,3138A,111.7152,29.0288,常德市,武陵区永安,,,44,71,29,54,76,,81,81,,18,4,4,0.6,0.8
2026-01-06T1800,3139A,111.6891,28.9881,常德市,鼎城区玉霞,,42,33,69,29,56,90,,79,79,13,24,7,8,0.6,0.8
2026-01-06T1800,3140A,111.6651,29.0526,常德市,武陵区长庚,,49,,68,34,56,82,,79,79,17,22,3,3,0.6,0.7
2026-01-06T1800,1196A,119.9524,31.7586,常州市,市监测站,细颗粒物(PM2.5),58,47,166,41,137,57,,55,55,25,51,4,5,0.6,1.2
2026-01-06T1800,1200A,119.9351,31.703,常州市,武进监测站,细颗粒物(PM2.5),57,43,176,40,139,58,,57,57,22,60,8,8,0.5,1
2026-01-06T1800,3002A,119.9701,31.813,常州市,行政中心,细颗粒物(PM2.5),58,59,171,41,141,57,,57,57,24,60,5,8,0.6,1.1
2026-01-06T1800,3003A,120.0434,31.7726,常州市,经开区,细颗粒物(PM2.5),59,53,186,42,136,60,,61,61,14,53,4,6,0.8,1.4
2026-01-06T1800,3010A,119.8919,31.7892,常州市,钟楼,,,,182,,154,50,,53,53,,61,,9,0.6,1.2
2026-01-06T1800,3429A,119.8595,31.706,常州市,武进经发区,细颗粒物(PM2.5),52,44,170,36,127,61,,60,60,18,52,7,8,0.7,1.2
2026-01-06T1800,3430A,119.5812,31.7256,常州市,金坛城区,,48,39,159,33,139,61,,58,58,14,35,6,7,0.7,1.2
2026-01-06T1800,4089A,119.9551,31.863,常州市,崇义南街5-H号,颗粒物(PM10),52,54,172,32,158,54,,55,55,30,63,6,7,0.6,1.2
2026-01-06T1800,2220A,120.4318,41.588,朝阳市,西梁,颗粒物(PM10),62,73,57,13,27,61,,62,62,19,29,6,13,0.5,0.9
2026-01-06T1800,2221A,120.452,41.565,朝阳市,河畔小区,颗粒物(PM10),56,61,44,18,22,62,,67,67,23,23,7,14,0.4,0.8
2026-01-06T1800,2222A,120.4176,41.5648,朝阳市,八里堡,颗粒物(PM10),66,81,52,15,25,62,,64,64,21,29,9,16,0.6,1
2026-01-06T1800,3026A,116.6179,23.6608,潮州市,市政府,,29,29,23,14,14,82,,74,74,7,5,6,6,0.4,0.4
2026-01-06T1800,4036A,116.646,23.676,潮州市,金山,,,37,23,19,15,81,,69,69,,5,4,3,0.4,0.4
2026-01-06T1800,2473A,113.0116,25.8228,郴州市,市职中,细颗粒物(PM2.5),52,41,46,36,42,89,,74,74,6,13,4,4,0.5,0.6
2026-01-06T1800,2475A,113.0381,25.8074,郴州市,市审计局,细颗粒物(PM2.5),55,49,53,39,45,85,,73,73,13,16,3,3,/,/
2026-01-06T1800,2476A,113.0348,25.7757,郴州市,市环保局,,,42,60,37,47,84,,74,74,,19,,4,0.6,0.7
2026-01-06T1800,4252A,113.0138,25.8011,郴州市,好美居路49号,,50,46,54,35,49,92,,78,78,11,14,3,4,/,/
2026-01-06T1800,1431A,103.9727,30.7242,成都市,金泉两河,,45,36,57,31,32,74,,69,69,42,28,3,3,0.5,0.6
2026-01-06T1800,1432A,104.1423,30.6765,成都市,十里店,,44,44,48,30,33,89,,77,77,28,31,4,4,0.3,0.5
2026-01-06T1800,1433A,104.0594,30.5765,成都市,三瓦窑,细颗粒物(PM2.5),69,58,49,50,38,77,,75,75,34,34,4,4,0.5,0.5
2026-01-06T1800,1434A,104.1122,30.6306,成都市,沙河铺,,,56,56,42,42,81,,69,69,,37,3,3,,0.5
2026-01-06T1800,2880A,104.0219,30.6561,成都市,大石西路,颗粒物(PM10),51,51,59,31,35,80,,72,72,22,30,5,6,0.3,0.4
2026-01-06T1800,3136A,104.2724,30.559,成都市,龙泉驿区区政府,,32,31,47,22,35,60,,57,57,14,26,6,6,0.5,0.6
2026-01-06T1800,3357A,104.0028,30.6891,成都市,金博路,,49,49,43,27,33,88,,72,72,21,31,4,5,0.5,0.7
2026-01-06T1800,3359A,104.056,30.5228,成都市,华阳,,41,41,49,27,36,89,,78,78,21,28,4,3,0.4,0.4
2026-01-06T1800,3488A,104.387954,30.746684,成都市,青石路225号,细颗粒物(PM2.5),64,67,59,46,45,90,,86,86,24,34,2,3,0.3,0.4
2026-01-06T1800,3489A,104.0788,30.4054,成都市,科学城,细颗粒物(PM2.5),58,44,51,41,42,90,,81,81,14,28,7,7,0.3,0.6
2026-01-06T1800,4011A,103.8505,30.6946,成都市,光华大道三段,细颗粒物(PM2.5),63,52,51,45,34,94,,81,81,22,25,7,4,0.4,0.5
2026-01-06T1800,4144A,104.3257,30.6406,成都市,八角井街185号,颗粒物(PM10),65,80,64,30,40,86,,82,82,21,34,6,3,0.5,0.8
2026-01-06T1800,4224A,104.2433276,30.53529463,成都市,鲸龙路1057号,,36,35,56,25,43,89,,84,84,17,33,6,6,0.2,0.3
2026-01-06T1800,1062A,117.9531,40.908,承德市,铁路,颗粒物(PM10),61,72,50,9,22,76,,58,58,3,27,3,6,0.2,0.7
2026-01-06T1800,1063A,117.9397,40.9763,承德市,中国银行,颗粒物(PM10),71,92,49,3,19,71,,63,63,6,24,2,2,0.2,0.6
2026-01-06T1800,4073A,117.9462,40.95,承德市,杏林街1号,颗粒物(PM10),59,68,43,16,26,79,,66,66,2,26,4,5,0.2,0.7
2026-01-06T1800,4274A,117.7994,40.9605,承德市,滨河大街98号,颗粒物(PM10),78,105,46,17,20,79,,69,69,4,31,3,4,0.2,0.6
2026-01-06T1800,2314A,117.4698,30.6617,池州市,池州学院,细颗粒物(PM2.5),69,60,77,50,70,69,,60,60,21,20,4,4,0.5,0.6
2026-01-06T1800,3237A,117.4918,30.6617,池州市,展览馆,细颗粒物(PM2.5),59,54,76,42,60,66,,61,61,26,27,2,2,0.7,0.8
2026-01-06T1800,3333A,117.5626,30.695,池州市,第八中学,细颗粒物(PM2.5),63,57,77,45,62,62,,60,60,27,26,3,3,0.6,0.7
2026-01-06T1800,3334A,117.5037,30.6242,池州市,第十二中学,细颗粒物(PM2.5),73,64,79,53,64,44,,62,62,48,34,6,4,0.8,0.9
2026-01-06T1800,1744A,118.9229,42.2816,赤峰市,松山一中,,48,48,31,6,9,68,,67,67,8,13,4,6,0.5,0.6
2026-01-06T1800,1745A,118.9588,42.2733,赤峰市,哈达街,,37,37,25,6,6,72,,71,71,10,11,6,5,0.5,0.6
2026-01-06T1800,1746A,118.8792,42.2551,赤峰市,天义路,,29,29,20,14,9,75,,77,77,9,7,5,5,0.4,0.3
2026-01-06T1800,3058A,119.2656,42.0356,赤峰市,银河街,颗粒物(PM10),55,60,126,9,77,71,,67,67,9,36,11,22,0.7,2.1
2026-01-06T1800,3286A,118.9359,42.3146,赤峰市,桥北物流园区,,42,42,20,20,10,72,,73,73,9,12,4,6,0.5,0.5
2026-01-06T1800,2521A,107.3473,22.4137,崇左市,市环保局江州分局,,28,28,23,16,18,56,,56,56,12,12,7,7,0.5,0.6
2026-01-06T1800,4256A,107.375,22.3736,崇左市,石景林东路7号,,19,,17,13,13,56,,56,56,16,14,8,8,0.6,0.5
2026-01-06T1800,3207A,118.31131,32.3033,滁州市,市政府原办公楼,,,,124,,109,,,76,76,,23,,4,,0.7
2026-01-06T1800,3331A,118.3268,32.2633,滁州市,图书馆,,31,31,119,15,99,76,,73,73,8,15,8,8,0.3,0.7
2026-01-06T1800,4101A,118.3196,32.3335,滁州市,银山路666号,,41,41,108,27,123,77,,74,74,5,17,8,8,0.4,0.9
2026-01-06T1800,4102A,118.3426,32.2979,滁州市,黄山路555号,,48,48,136,23,120,85,,80,80,10,27,9,9,0.5,0.8
2026-01-06T1800,2606A,101.5379,25.0492,楚雄彝族自治州,市经济开发区,,21,18,29,7,19,65,,63,63,6,20,2,4,0.5,0.6
2026-01-06T1800,4153A,101.5536,25.0343,楚雄彝族自治州,团结路562号,,21,14,19,10,18,65,,59,59,2,14,2,2,0.4,0.5
2026-01-06T1800,2549A,107.5087,31.2186,达州市,市环境监测站,"颗粒物(PM10),细颗粒物(PM2.5)",62,74,74,44,57,59,,39,39,40,37,7,5,0.5,0.7
2026-01-06T1800,2550A,107.4988,31.2132,达州市,凤凰小区,细颗粒物(PM2.5),67,68,79,48,62,65,,44,44,30,33,5,4,0.4,0.7
2026-01-06T1800,2551A,107.5081,31.1987,达州市,达县机关宾馆,颗粒物(PM10),86,122,83,52,57,13,,33,33,81,37,4,2,1.2,0.8
2026-01-06T1800,2552A,107.4644,31.2124,达州市,市政中心,颗粒物(PM10),57,64,96,39,62,63,,48,48,31,36,6,6,0.4,0.7
2026-01-06T1800,2614A,100.2168,25.5818,大理白族自治州,大理市环境监测站,,25,20,19,17,18,70,,70,69,10,9,7,6,0.5,0.5
2026-01-06T1800,2615A,100.1542,25.7055,大理白族自治州,大理古城,,48,,19,33,15,64,,81,81,18,10,8,8,0.7,0.6
2026-01-06T1800,1109A,121.6119,38.974,大连市,甘井子,,46,46,59,13,48,60,,66,66,29,36,9,11,0.0,0.4
2026-01-06T1800,1110A,121.565,38.9509,大连市,周水子,,36,36,61,11,47,59,,65,64,25,36,3,13,0.3,0.6
2026-01-06T1800,1111A,121.5637,38.8849,大连市,星海三站,,34,34,56,13,50,54,,60,60,27,26,8,10,0.4,0.7
2026-01-06T1800,1112A,121.6301,38.9117,大连市,青泥洼桥,,20,20,65,13,49,53,,58,58,34,33,8,10,0.4,0.7
2026-01-06T1800,1113A,121.6248,38.8643,大连市,傅家庄,,30,30,60,11,46,54,,59,59,27,24,8,10,0,0.2
2026-01-06T1800,1114A,121.5117,38.8636,大连市,七贤岭,,36,36,58,11,61,58,,63,63,29,24,7,9,0.6,0.9
2026-01-06T1800,1116A,121.7507,39.1339,大连市,金州,,35,35,66,20,48,60,,61,61,31,34,9,11,0.4,0.6
2026-01-06T1800,1117A,121.7811,39.0495,大连市,开发区,,46,46,67,14,52,52,,53,53,26,39,6,6,0.6,0.9
2026-01-06T1800,1118A,121.9762,39.0631,大连市,双D港,,48,48,65,10,43,69,,63,63,24,31,12,13,0.6,0.8
2026-01-06T1800,4082A,121.2548,38.8188,大连市,旅顺,颗粒物(PM10),52,54,73,11,54,51,,58,58,23,20,8,7,0.6,0.8
2026-01-06T1800,1789A,124.8085,46.0381,大庆市,大同区,细颗粒物(PM2.5),93,71,64,69,47,33,,40,40,37,23,8,9,0.8,0.6
2026-01-06T1800,1790A,125.1166,46.5255,大庆市,龙凤区,颗粒物(PM10),55,60,72,33,52,20,,31,30,50,40,9,16,0.8,0.8
2026-01-06T1800,1791A,124.8894,46.4007,大庆市,红岗区,,46,46,49,26,32,15,,31,30,41,34,5,8,0.9,0.8
2026-01-06T1800,1792A,125.1391,46.578,大庆市,萨尔图区,颗粒物(PM10),56,61,68,38,45,14,,27,21,42,34,9,10,0.5,0.6
2026-01-06T1800,1793A,124.9026,46.6217,大庆市,让胡路区,细颗粒物(PM2.5),64,49,50,46,42,8,,30,28,46,34,8,9,0.6,0.7
2026-01-06T1800,3481A,125.127,46.6277,大庆市,萨区政府监测点,颗粒物(PM10),55,59,63,36,38,4,,28,20,57,36,9,13,1.1,0.9
2026-01-06T1800,1723A,113.2926,40.0759,大同市,云冈宾馆,,34,34,61,13,34,54,,52,52,21,28,5,9,0.4,0.9
2026-01-06T1800,1724A,113.3437,40.0921,大同市,大同大学,,28,28,60,13,30,61,,60,60,17,33,3,9,0.4,0.9
2026-01-06T1800,1725A,113.2637,40.129,大同市,安家小村,,30,30,67,10,30,65,,61,61,16,34,10,14,0.3,1.5
2026-01-06T1800,3282A,113.3399,40.0586,大同市,大同市卫生学校,,37,37,66,11,30,54,,51,51,25,34,5,8,0.3,0.7
2026-01-06T1800,3565A,113.1371,40.1122,大同市,云冈站,,28,28,53,10,26,62,,62,62,9,24,5,7,0.4,0.7
2026-01-06T1800,3566A,113.1186,40.2556,大同市,图书馆,,27,27,56,7,37,68,,62,62,8,21,4,9,0.2,0.6
2026-01-06T1800,3567A,113.5931,40.0459,大同市,区一中,,35,35,79,10,31,73,,65,65,14,35,7,22,0.2,0.7
2026-01-06T1800,4199A,113.2798248,40.09972476,大同市,魏都大道141号,,46,46,87,16,35,55,,57,57,22,35,5,9,0.4,1.4
2026-01-06T1800,2269A,124.1068,50.4091,大兴安岭地区,科技局,,26,,19,18,15,56,,54,54,5,5,5,5,0.4,0.4
2026-01-06T1800,3663A,124.117,50.4279,大兴安岭地区,红旗社区,,21,7,31,3,21,65,,52,52,3,30,5,9,0.3,0.5
2026-01-06T1800,1600A,124.33,40.0625,丹东市,江湾东路,细颗粒物(PM2.5),144,160,71,110,50,16,,44,43,56,32,15,20,1.8,1.5
2026-01-06T1800,1601A,124.4242,40.1513,丹东市,临江后街,细颗粒物(PM2.5),100,132,62,75,37,8,,47,45,77,33,22,19,2.6,1.2
2026-01-06T1800,1602A,124.3935,40.1461,丹东市,元宝山,细颗粒物(PM2.5),78,82,47,57,37,30,,43,42,45,28,15,16,1.2,1.2
2026-01-06T1800,1603A,124.3634,40.1093,丹东市,民主桥,细颗粒物(PM2.5),200,180,62,150,42,16,,46,44,62,38,13,14,2.1,1.1
2026-01-06T1800,3541A,109.5726195,19.51688767,儋州市,第一中学子站,细颗粒物(PM2.5),54,52,66,38,49,44,,72,34,10,10,5,6,0.7,0.8
2026-01-06T1800,3542A,109.5567,19.5187,儋州市,东坡学校子站,,46,43,60,32,41,50,,74,37,10,11,5,7,0.7,0.8
2026-01-06T1800,2616A,98.5611,24.4273,德宏傣族景颇族自治州,德宏州监测站,,43,35,52,30,42,92,,72,72,13,23,6,6,0.5,0.7
2026-01-06T1800,3677A,98.5887,24.4366,德宏傣族景颇族自治州,芒市人民政府综合楼,,39,39,49,23,32,87,,78,78,11,15,5,8,0.5,0.7
2026-01-06T1800,1901A,104.424,31.1209,德阳市,东山公园,,,40,52,27,41,86,,69,69,,29,3,6,,0.6
2026-01-06T1800,1902A,104.3827,31.1318,德阳市,西小区,颗粒物(PM10),54,57,75,37,49,74,,64,64,27,31,3,9,0.5,0.7
2026-01-06T1800,1904A,104.3553,31.1091,德阳市,耐火材料厂,,50,50,69,32,53,78,,67,67,29,34,1,6,0.6,0.8
2026-01-06T1800,4145A,104.4144,31.1495,德阳市,市林业局,,38,38,57,22,46,78,,68,68,21,31,3,5,0.5,0.7
2026-01-06T1800,1622A,116.3034,37.4675,德州市,儿童乐园,颗粒物(PM10),60,70,146,29,104,49,,46,46,33,48,14,14,1.1,1.4
2026-01-06T1800,1624A,116.2992,37.4449,德州市,监理站,颗粒物(PM10),57,63,141,29,105,51,,52,52,41,54,14,16,0.7,1.2
2026-01-06T1800,3066A,116.2722,37.438,德州市,九衢泉纯净水厂,颗粒物(PM10),65,80,154,29,116,27,,41,41,51,64,18,17,0.6,1.1
2026-01-06T1800,3371A,116.3693,37.44,德州市,开发区人民医院,颗粒物(PM10),58,66,134,27,91,49,,50,50,54,66,13,15,0.7,1
2026-01-06T1800,3511A,116.5687,37.3331,德州市,陵城艺术中心,颗粒物(PM10),62,73,145,39,112,35,,36,36,47,56,12,16,0.3,0.7
2026-01-06T1800,4292A,116.352738,37.420875,德州市,新河东路,颗粒物(PM10),60,70,139,34,105,44,,44,44,53,69,12,15,0.9,1.4
2026-01-06T1800,2621A,99.7054,27.8319,迪庆藏族自治州,迪庆州站,,27,27,23,14,18,80,,75,75,5,10,4,5,0.5,0.6
2026-01-06T1800,3180A,99.7122,27.8129,迪庆藏族自治州,质量技术监督局,,27,27,24,12,16,84,,83,83,7,11,6,5,0.3,0.5
2026-01-06T1800,4257A,104.6092,35.5962,定西市,将台街,颗粒物(PM10),51,51,67,34,47,86,,72,72,10,28,10,11,0.6,0.8
2026-01-06T1800,4309A,104.6159,35.5701,定西市,正龙路62号,颗粒物(PM10),63,76,73,44,54,82,,72,72,8,13,9,7,0.7,0.8
2026-01-06T1800,1390A,113.7943,23.0132,东莞市,东城石井,,39,39,28,26,19,62,,75,75,15,14,6,6,0.6,0.6
2026-01-06T1800,1391A,113.7384,22.9659,东莞市,南城西平,,35,34,27,24,18,60,,74,74,21,22,9,8,0.6,0.7
2026-01-06T1800,3319A,113.7283,23.041,东莞市,万江金泰,,40,40,27,26,18,61,,74,74,16,13,6,5,0.7,0.7
2026-01-06T1800,4129A,113.8666,23.1062,东莞市,裕兴路,,35,35,28,23,18,79,,87,87,10,10,4,4,0.7,0.7
2026-01-06T1800,4130A,114.0076,22.9739,东莞市,教育路1号,,34,34,36,19,20,69,,83,83,22,18,2,5,0.7,0.8
2026-01-06T1800,4131A,113.7981,22.8124,东莞市,长怡路1号,,40,40,35,17,19,62,,77,77,21,16,7,8,0.6,0.7
2026-01-06T1800,1666A,118.6612,37.4313,东营市,市环保局,细颗粒物(PM2.5),195,190,139,146,105,33,,60,60,61,71,15,25,1.4,1.3
2026-01-06T1800,3036A,118.6903,37.4337,东营市,开发区管委会,细颗粒物(PM2.5),188,201,138,141,109,31,,64,64,71,77,18,26,1.5,1.4
2026-01-06T1800,3365A,118.5721,37.5654,东营市,垦利区民丰路,细颗粒物(PM2.5),192,193,140,144,107,22,,50,50,,69,13,13,1.6,1.3
2026-01-06T1800,3498A,118.5063,37.8606,东营市,河口城区,细颗粒物(PM2.5),250,263,130,200,94,58,,73,73,49,52,7,7,1.4,1.1
2026-01-06T1800,3646A,118.4979,37.4623,东营市,胜利站,细颗粒物(PM2.5),195,201,138,146,108,11,,44,44,84,79,19,27,1.7,1.5
2026-01-06T1800,3734A,118.5753,37.4405,东营市,理想之城,细颗粒物(PM2.5),199,185,142,149,112,30,,58,58,66,78,12,19,1.4,1.4
2026-01-06T1800,1591A,110.0024,39.8127,鄂尔多斯市,综合楼,,28,27,16,19,9,72,,76,76,13,9,4,4,0.5,0.4
2026-01-06T1800,1592A,109.9485,39.8259,鄂尔多斯市,巴音孟克林场办事处,,41,41,18,17,10,71,,77,77,11,8,6,6,0.3,0.2
2026-01-06T1800,1593A,109.7734,39.5987,鄂尔多斯市,康泽苑,,46,46,22,24,13,80,,81,81,8,8,5,5,0.3,0.3
2026-01-06T1800,1594A,109.8121,39.5987,鄂尔多斯市,华泰汽车城,,,,22,,10,77,,74,74,9,10,3,2,0.5,0.4
2026-01-06T1800,1595A,109.9734,39.7884,鄂尔多斯市,奥林花园,,46,46,27,12,6,75,,76,76,10,9,1,1,0.4,0.3
2026-01-06T1800,2436A,114.894,30.3989,鄂州市,市政府,,34,34,53,15,38,68,,62,62,18,22,4,5,0.6,0.8
2026-01-06T1800,2437A,114.8986,30.3714,鄂州市,赵家坝,,31,31,57,18,39,76,,70,70,12,15,11,8,0.6,0.5
2026-01-06T1800,3654A,114.8093,30.4091,鄂州市,精准医疗中心,,31,31,50,11,36,84,,80,80,13,15,4,5,0.5,1
2026-01-06T1800,2454A,109.4978,30.2979,恩施土家族苗族自治州,湖北民院,,37,37,48,25,48,88,,74,74,11,16,6,6,0.7,0.8
2026-01-06T1800,3549A,109.5061,30.3771,恩施土家族苗族自治州,龙凤新区,,,,44,34,40,61,,55,55,14,10,7,7,,0.5
2026-01-06T1800,2499A,108.3411,21.6159,防城港市,沙万,,26,26,28,18,15,74,,67,67,10,11,5,6,0.5,0.5
2026-01-06T1800,2500A,108.3515,21.7733,防城港市,防城档案局,,36,36,41,15,11,61,,59,59,18,13,5,5,0.5,0.5
2026-01-06T1800,2501A,108.3506,21.6414,防城港市,大海花园,,26,23,25,18,19,78,,71,71,6,6,6,6,0.6,0.6
2026-01-06T1800,1371A,113.1293,23.0065,佛山市,湾梁,,44,44,28,27,16,76,,70,70,19,19,/,/,/,/
2026-01-06T1800,1372A,113.1082,23.0477,佛山市,华材职中,,,53,30,26,22,77,,72,72,15,16,,6,0.5,0.6
2026-01-06T1800,1373A,113.1439,23.045,佛山市,南海气象局,,44,44,27,29,22,74,,70,70,19,20,/,/,/,/
2026-01-06T1800,1374A,113.2879,22.8094,佛山市,顺德苏岗,颗粒物(PM10),57,64,29,24,16,67,,68,68,21,21,/,/,0.7,0.7
2026-01-06T1800,1376A,112.8384,22.8678,佛山市,高明孔堂,细颗粒物(PM2.5),53,50,31,37,22,82,,76,76,17,14,/,/,/,/
2026-01-06T1800,1377A,112.8835,23.1584,佛山市,三水监测站,,50,48,31,35,22,68,,68,68,21,17,4,5,0.6,0.6
2026-01-06T1800,1378A,112.8668,23.185,佛山市,三水云东海,,50,43,29,35,23,65,,71,71,23,16,/,/,/,/
2026-01-06T1800,3625A,113.2568,22.7629,佛山市,容桂街道办,颗粒物(PM10),54,58,39,29,26,66,,,,19,19,/,/,/,/
2026-01-06T1800,1282A,119.2681,26.0506,福州市,师大,,22,21,21,15,19,61,,60,60,14,18,6,6,0.5,0.6
2026-01-06T1800,1283A,119.2983,26.1028,福州市,五四北路,,28,28,20,15,19,52,,54,54,16,16,4,4,0.6,0.6
2026-01-06T1800,1284A,119.2648,26.0769,福州市,杨桥西路,,24,24,22,14,18,59,,60,60,9,12,3,4,/,/
2026-01-06T1800,3048A,119.5799,26.0937,福州市,九龙,,27,27,21,14,16,40,,42,42,20,19,4,4,0.7,0.6
2026-01-06T1800,3526A,119.5188,25.9666,福州市,吴航,,24,24,28,16,20,50,,44,44,19,21,4,4,0.7,0.7
2026-01-06T1800,4104A,119.3106,26.0648,福州市,路通桥巷6号,,29,29,24,17,24,53,,54,54,10,11,/,/,/,/
2026-01-06T1800,1755A,123.7974,41.8494,抚顺市,望花区,细颗粒物(PM2.5),134,129,105,102,68,6,,31,30,86,58,26,15,2.1,1.5
2026-01-06T1800,1756A,123.9161,41.8827,抚顺市,顺城区,细颗粒物(PM2.5),95,97,98,71,65,9,,33,32,85,59,22,14,1.9,1.6
2026-01-06T1800,1757A,124.0437,41.8615,抚顺市,东洲区,细颗粒物(PM2.5),120,122,73,91,58,17,,36,35,72,46,12,12,2.9,1.3
2026-01-06T1800,1758A,123.9246,41.8638,抚顺市,新抚区,细颗粒物(PM2.5),105,107,104,79,68,20,,36,36,76,61,14,10,2.5,1.6
2026-01-06T1800,1759A,124.0972,41.8961,抚顺市,大伙房水库,细颗粒物(PM2.5),99,108,70,74,51,21,,46,44,62,34,19,15,1.7,1.2
2026-01-06T1800,1760A,123.708,41.8386,抚顺市,沈抚新城,细颗粒物(PM2.5),149,114,100,114,75,10,,36,35,99,63,15,14,1.7,1.8
2026-01-06T1800,2377A,116.3544,27.9833,抚州市,市站,细颗粒物(PM2.5),58,56,43,41,32,86,,87,87,17,13,8,7,0.6,0.5
2026-01-06T1800,2378A,116.3562,27.9631,抚州市,血防站,颗粒物(PM10),55,60,47,37,31,89,,89,89,22,15,5,5,0.8,0.6
2026-01-06T1800,2379A,116.3561,28.0007,抚州市,采茶剧团,细颗粒物(PM2.5),55,58,44,39,30,95,,90,90,12,8,6,4,0.8,0.8
2026-01-06T1800,2380A,116.3854,27.9648,抚州市,医学分院,,,60,46,34,29,101,,93,93,,12,,4,0.6,0.6
2026-01-06T1800,2207A,121.6095,41.9978,阜新市,工业园区,颗粒物(PM10),81,112,113,22,57,58,,66,66,20,28,8,26,0.4,0.8
2026-01-06T1800,2208A,121.6567,42.0188,阜新市,长青街,颗粒物(PM10),77,104,76,12,46,64,,60,60,13,30,7,19,0.3,0.8
2026-01-06T1800,2209A,121.6672,42.07,阜新市,农业园区,颗粒物(PM10),70,89,70,14,39,63,,64,64,10,23,6,26,0.3,0.7
2026-01-06T1800,2211A,121.6343,42.0455,阜新市,玉龙新城,颗粒物(PM10),76,102,88,10,47,61,,61,61,14,36,7,18,0.2,0.8
2026-01-06T1800,2301A,115.8276,32.8929,阜阳市,市监测站,,47,47,119,26,96,67,,72,72,18,22,5,5,0.5,0.8
2026-01-06T1800,2303A,115.8551,32.8606,阜阳市,开发区,,41,41,111,22,92,67,,72,72,17,22,6,5,0.3,0.7
2026-01-06T1800,2875A,115.783962,32.889217,阜阳市,阜阳职业技术学院,,45,45,111,21,88,68,,76,76,17,19,7,7,0.5,0.8
2026-01-06T1800,3468A,115.79,32.8614,阜阳市,市规划展馆,,44,44,119,26,93,68,,75,75,18,22,6,6,0.3,0.7
2026-01-06T1800,3469A,115.835101,32.918568,阜阳市,枣园社区,,49,49,124,22,94,69,,73,73,19,25,6,6,0.2,0.6
2026-01-06T1800,2669A,102.9097,34.9841,甘南藏族自治州,州政府,,32,30,58,22,47,86,,76,76,12,24,3,3,0.4,0.8
2026-01-06T1800,3380A,102.8915,34.9618,甘南藏族自治州,甘肃民族师范学院,,30,29,65,8,40,94,,80,80,8,26,3,6,0.1,0.5
2026-01-06T1800,2570A,101.96,30.048,甘孜藏族自治州,水桥子,,23,9,9,6,6,72,,65,65,9,11,6,6,0.9,0.8
2026-01-06T1800,3065A,101.9534,29.9976,甘孜藏族自治州,州环保局,,22,6,11,3,7,70,,65,65,12,10,6,5,0.7,0.7
2026-01-06T1800,2363A,114.9368,25.8663,赣州市,地委,,38,38,39,24,24,88,,77,77,13,12,7,7,0.8,0.7
2026-01-06T1800,2364A,114.946,25.8483,赣州市,气象台,颗粒物(PM10),52,53,48,25,20,74,,78,78,32,18,3,2,0.5,0.7
2026-01-06T1800,2365A,114.932,25.8332,赣州市,市图书馆,,38,34,33,26,24,76,,70,70,21,15,5,4,0.7,0.6
2026-01-06T1800,2366A,114.8905,25.8472,赣州市,华坚鞋城,,38,38,35,19,23,76,,71,71,20,13,5,4,0.4,0.4
2026-01-06T1800,3109A,115.0094,25.8614,赣州市,赣县区卫计委,,48,37,35,33,33,80,,80,80,13,12,7,7,0.5,0.5
2026-01-06T1800,2684A,106.2753,36.0057,固原市,监测站,,26,26,34,15,21,77,,78,78,16,22,5,5,0.5,0.8
2026-01-06T1800,2685A,106.2384,36.0189,固原市,新区,,28,28,30,18,17,82,,89,89,14,14,3,3,0.6,0.7
2026-01-06T1800,2544A,106.6307,30.4577,广安市,市委,,,,67,,53,80,,56,56,,25,6,5,,1
2026-01-06T1800,2545A,106.6266,30.4662,广安市,友谊中学,,50,46,56,35,52,91,,66,66,10,12,6,6,0.6,0.8
2026-01-06T1800,2547A,106.6386,30.4551,广安市,广电花园,,49,44,61,34,53,66,,53,53,31,22,9,8,0.6,0.7
2026-01-06T1800,2902A,106.6347,30.4868,广安市,北辰小学,细颗粒物(PM2.5),53,39,61,37,53,84,,66,66,20,15,19,18,0.9,1
2026-01-06T1800,2524A,105.8211,32.4444,广元市,老城,细颗粒物(PM2.5),59,,43,42,32,69,,64,64,33,37,24,12,1.0,0.8
2026-01-06T1800,2526A,105.8629,32.429,广元市,监测站,,43,42,43,30,28,62,,62,62,32,23,5,4,0.9,0.7
2026-01-06T1800,3617A,105.8047,32.4167,广元市,经开区,,46,46,44,32,30,50,,61,61,37,27,10,6,0.8,0.7
2026-01-06T1800,1345A,113.2346,23.1423,广州市,广雅中学,,49,49,34,31,23,60,,62,62,17,13,3,4,0.6,0.6
2026-01-06T1800,1346A,113.2611,23.105,广州市,市五中,,50,50,33,34,24,72,,74,74,22,21,9,10,/,/
2026-01-06T1800,1348A,113.3477,23.0916,广州市,广东商学院,,46,46,31,30,21,64,,66,66,14,15,6,7,0.4,0.5
2026-01-06T1800,1349A,113.4332,23.105,广州市,市八十六中,,,44,28,40,21,68,,73,73,13,15,,7,/,/
2026-01-06T1800,1350A,113.3506,22.9488,广州市,番禺中学,,49,47,34,34,23,69,,74,74,24,26,4,4,0.4,0.5
2026-01-06T1800,1351A,113.2147,23.3918,广州市,花都师范,颗粒物(PM10),51,52,32,34,21,60,,67,67,24,16,6,7,0.5,0.6
2026-01-06T1800,1352A,113.2599,23.1329,广州市,市监测站,,,49,33,33,24,62,,64,64,20,21,,3,/,/
2026-01-06T1800,1353A,113.5618,23.3119,广州市,九龙镇镇龙,,42,36,26,29,22,61,,66,66,12,12,6,5,0.5,0.5
2026-01-06T1800,1354A,113.2764,23.1544,广州市,麓湖,细颗粒物(PM2.5),52,42,32,36,24,61,,64,64,15,17,8,9,0.5,0.4
2026-01-06T1800,2846A,113.3209,23.1323,广州市,体育西,,50,50,33,35,24,67,,67,67,16,17,6,7,0.6,0.6
2026-01-06T1800,3298A,113.5718,23.5493,广州市,从化街口,,40,33,23,28,19,62,,66,66,12,11,8,8,0.6,0.7
2026-01-06T1800,3299A,113.3463,23.369,广州市,白云竹料,,45,42,27,31,20,69,,70,70,13,12,5,6,0.5,0.5
2026-01-06T1800,3300A,113.2981,23.2365,广州市,白云嘉禾,颗粒物(PM10),54,58,35,34,22,66,,68,68,22,18,6,6,/,/
2026-01-06T1800,3301A,113.4256,23.1716,广州市,黄埔科学城,,43,40,29,30,21,71,,77,77,12,12,7,6,0.7,0.7
2026-01-06T1800,3302A,113.3942,23.0485,广州市,番禺大学城,,42,41,31,29,20,72,,76,76,13,14,10,9,0.5,0.5
2026-01-06T1800,3303A,113.4923,22.8169,广州市,南沙黄阁,颗粒物(PM10),54,58,32,33,21,65,,74,73,25,26,6,6,/,/
2026-01-06T1800,3304A,113.534,22.7893,广州市,南沙街,颗粒物(PM10),53,56,35,29,20,63,,72,72,23,23,6,7,0.6,0.7
2026-01-06T1800,3443A,113.2905,23.5541,广州市,花都梯面,,43,36,26,30,19,62,,66,66,11,11,6,8,/,/
2026-01-06T1800,3445A,113.786,23.7479,广州市,从化良口,,32,26,23,22,19,63,,64,64,7,8,8,8,/,/
2026-01-06T1800,3446A,113.805,23.2614,广州市,增城荔城,,35,29,23,24,18,60,,72,72,11,10,6,6,0.5,0.5
2026-01-06T1800,2506A,109.604387,23.066791,贵港市,江南子站,,34,34,29,21,21,99,,89,89,9,10,5,4,0.5,0.6
2026-01-06T1800,2508A,109.5669,23.1065,贵港市,荷城子站,,34,34,29,22,19,87,,83,83,12,11,4,3,0.4,0.4
2026-01-06T1800,3405A,109.5886,23.1172,贵港市,新世纪学校,,,,31,,23,93,,86,86,11,12,/,/,0.5,0.4
2026-01-06T1800,4260A,109.5933,23.095,贵港市,中山路155-3号,,40,40,28,27,23,94,,86,86,11,10,/,/,0.4,0.5
2026-01-06T1800,1439A,106.6863,26.6035,贵阳市,马鞍山,细颗粒物(PM2.5),55,,35,39,30,67,,66,66,12,10,8,7,/,/
2026-01-06T1800,1441A,106.6241,26.6266,贵阳市,鉴湖路,,48,48,42,29,25,74,,70,70,16,15,4,3,0.6,0.6
2026-01-06T1800,1442A,106.7468,26.6344,贵阳市,燕子冲,细颗粒物(PM2.5),62,48,37,44,34,70,,67,67,14,11,8,8,0.6,0.7
2026-01-06T1800,1443A,106.6556,26.4362,贵阳市,碧云窝,细颗粒物(PM2.5),55,51,48,39,29,62,,64,64,18,13,9,9,/,/
2026-01-06T1800,1445A,106.6963,26.6063,贵阳市,红边门,细颗粒物(PM2.5),55,53,38,39,27,59,,61,61,22,14,11,9,/,/
2026-01-06T1800,1446A,106.7162383,26.56964667,贵阳市,新华路,细颗粒物(PM2.5),55,56,46,39,28,65,,62,62,17,13,7,6,0.5,0.6
2026-01-06T1800,1447A,106.6742,26.542,贵阳市,太慈桥,,49,46,37,34,27,64,,62,62,18,15,5,5,/,/
2026-01-06T1800,4230A,106.688212,26.56952,贵阳市,花果园大街66号,,44,44,30,29,27,58,,55,55,17,14,5,4,/,/
2026-01-06T1800,4231A,106.687268,26.516892,贵阳市,漓江路57号,细颗粒物(PM2.5),52,46,39,36,29,61,,60,60,21,16,8,7,0.8,0.7
2026-01-06T1800,1864A,110.3091,25.2705,桂林市,龙隐路小学,,39,36,35,27,37,92,,87,87,9,10,7,8,0.3,0.3
2026-01-06T1800,1865A,110.2849361,25.22909545,桂林市,八中,,39,35,33,27,35,81,,80,80,19,15,8,10,0.5,0.6
2026-01-06T1800,3531A,110.296,25.1254,桂林市,旅游学院,,30,19,28,17,26,95,,95,95,9,10,4,5,0.6,0.6
2026-01-06T1800,4222A,110.1835,25.2444,桂林市,环湖路276号,,49,,37,34,34,82,,79,79,12,11,6,9,0.4,0.5
2026-01-06T1800,4301A,110.2803,25.2773,桂林市,信义路13号,,31,31,33,21,32,94,,90,90,13,13,5,8,0.5,0.6
2026-01-06T1800,2674A,100.2262,34.4854,果洛藏族自治州,玛沁县大武镇,,32,32,31,3,10,97,,88,88,2,4,7,13,0.2,0.4
2026-01-06T1800,1130A,126.5557,45.8109,哈尔滨市,松北商大,,34,34,54,17,39,35,,46,46,28,37,8,10,0.6,0.7
2026-01-06T1800,1132A,126.6162,45.719,哈尔滨市,南岗学府路,细颗粒物(PM2.5),58,55,64,41,46,28,,44,43,32,36,11,12,0.8,1
2026-01-06T1800,1133A,126.6894,45.7733,哈尔滨市,太平宏伟公园,,43,40,70,30,49,35,,46,45,34,37,19,15,0.6,0.9
2026-01-06T1800,1134A,126.6361,45.7672,哈尔滨市,道外承德广场,颗粒物(PM10),56,61,77,30,45,17,,43,41,54,46,12,16,0.7,0.9
2026-01-06T1800,1136A,126.644,45.7261,哈尔滨市,动力和平路,颗粒物(PM10),51,51,66,33,47,31,,42,42,32,37,12,15,0.6,0.9
2026-01-06T1800,1137A,126.5933,45.7479,哈尔滨市,道里建国路,细颗粒物(PM2.5),55,40,64,39,54,13,,40,37,52,41,14,20,0.5,0.9
2026-01-06T1800,1138A,126.6127,45.6119,哈尔滨市,平房东轻厂,,40,34,52,28,41,33,,45,42,35,30,7,7,0.4,0.5
2026-01-06T1800,1139A,126.5875,45.9827,哈尔滨市,呼兰师专,细颗粒物(PM2.5),60,52,56,43,51,38,,42,42,22,37,13,14,0.7,0.9
2026-01-06T1800,1140A,126.6299,45.6799,哈尔滨市,省农科院,细颗粒物(PM2.5),69,61,67,50,52,24,,40,39,45,46,16,16,0.5,0.8
2026-01-06T1800,4282A,126.6769,45.7379,哈尔滨市,华山路1号,颗粒物(PM10),52,53,65,31,44,30,,42,41,36,42,20,26,0.8,0.9
2026-01-06T1800,4283A,126.9717,45.5356,哈尔滨市,解放大街52号,细颗粒物(PM2.5),77,69,54,56,47,45,,58,56,28,22,19,17,0.8,0.8
2026-01-06T1800,2688A,93.5124,42.8176,哈密市,地区监测站,细颗粒物(PM2.5),105,130,90,79,67,41,,51,51,23,22,11,4,1.4,0.5
2026-01-06T1800,2689A,93.5014,42.8312,哈密市,哈密师范学校,,,105,100,47,49,50,,50,50,,33,13,8,0.9,0.7
2026-01-06T1800,2671A,100.9016,36.9464,海北藏族自治州,海晏县西海镇,,30,24,32,11,25,94,,83,83,3,10,8,11,0.3,0.6
2026-01-06T1800,3867A,102.074,36.5056,海东市,平安区公安局北苑,颗粒物(PM10),71,91,81,46,63,63,,54,54,34,24,41,20,1.2,1.2
2026-01-06T1800,4163A,102.0984,36.5119,海东市,滨河路,,,,69,,59,70,,67,67,40,42,37,18,1.1,1.2
2026-01-06T1800,1410A,110.3189,20.0596,海口市,海南大学,,45,45,53,30,36,73,,51,51,11,13,8,9,0.5,0.5
2026-01-06T1800,1411A,110.2827,20.0051,海口市,秀英海南医院,,47,47,50,29,35,65,,48,48,16,14,10,10,0.6,0.6
2026-01-06T1800,1412A,110.3391,19.9979,海口市,海南师范大学,,46,41,50,32,35,72,,59,53,13,13,9,8,0.7,0.6
2026-01-06T1800,1413A,110.3303,20.0359,海口市,龙华路环保局宿舍,,45,42,53,31,35,71,,56,53,14,14,/,/,0.8,0.8
2026-01-06T1800,3539A,110.5111,19.9737,海口市,桂林洋子站,,44,44,55,30,34,77,,63,63,11,14,/,/,/,/
2026-01-06T1800,4134A,110.1952,20.0451,海口市,长滨二路9号,,42,39,50,29,39,70,,54,54,12,13,/,/,/,/
2026-01-06T1800,2673A,100.6158,36.2985,海南藏族自治州,共和县恰卜恰镇,,29,27,40,20,21,91,,82,82,8,21,8,12,0.4,0.6
2026-01-06T1800,2676A,97.373,37.376,海西蒙古族藏族自治州,德令哈市,,31,,16,20,15,98,,90,90,6,9,12,12,0.5,0.5
2026-01-06T1800,1049A,114.492,36.5712,邯郸市,矿院,,39,39,90,27,92,67,,64,64,24,39,5,7,0.4,1
2026-01-06T1800,1050A,114.4839,36.6136,邯郸市,丛台公园,,36,36,90,17,83,64,,67,67,22,29,6,8,0.4,0.9
2026-01-06T1800,3458A,114.7893,36.5592,邯郸市,香泉濮院小区,,43,,122,30,111,65,,68,68,21,33,4,8,0.4,1
2026-01-06T1800,3580A,114.1998,36.4439,邯郸市,峰峰矿区临水派出所,,24,24,48,14,56,76,,77,77,16,18,10,9,0.4,0.7
2026-01-06T1800,4068A,114.5209,36.7697,邯郸市,建安街268号,,50,50,89,27,85,27,,56,56,62,47,3,8,0.4,1
2026-01-06T1800,4069A,114.5488,36.6177,邯郸市,丛台东路558号,,39,35,99,27,89,50,,60,60,21,32,6,8,0.4,1
2026-01-06T1800,2635A,107.0155,33.0707,汉中市,市监测站,,42,42,56,26,43,84,,72,72,19,32,7,8,0.4,0.8
2026-01-06T1800,2636A,107.0083,33.114,汉中市,鑫源开发区,,35,30,53,24,44,86,,79,79,17,30,6,9,0.2,0.5
2026-01-06T1800,2637A,107.0072,33.0323,汉中市,南郑大河坎水厂,,39,37,62,27,46,80,,73,73,21,28,7,6,0.7,1
2026-01-06T1800,1223A,120.2073,30.2111,杭州市,滨江,细颗粒物(PM2.5),82,73,83,60,69,65,,53,53,22,33,6,6,0.6,0.6
2026-01-06T1800,1224A,120.0625,30.2737,杭州市,西溪,细颗粒物(PM2.5),85,76,74,63,56,65,,60,60,24,35,8,8,0.8,0.8
2026-01-06T1800,1226A,120.3417,30.315,杭州市,下沙,细颗粒物(PM2.5),94,84,96,70,81,67,,58,58,27,44,8,8,0.8,0.9
2026-01-06T1800,1227A,120.1252,30.2465,杭州市,卧龙桥,细颗粒物(PM2.5),85,77,76,63,60,62,,54,54,17,19,9,9,0.7,0.8
2026-01-06T1800,1228A,120.1902,30.2691,杭州市,浙江农大,细颗粒物(PM2.5),94,87,96,70,78,66,,61,61,26,41,5,4,0.6,0.7
2026-01-06T1800,1230A,120.1195,30.3121,杭州市,和睦小学,细颗粒物(PM2.5),89,81,87,66,69,71,,63,63,19,32,5,5,0.8,0.9
2026-01-06T1800,1231A,120.3076,30.4146,杭州市,临平镇,细颗粒物(PM2.5),80,77,104,59,80,68,,61,61,19,28,7,7,0.7,0.7
2026-01-06T1800,1232A,120.2753,30.1839,杭州市,城厢镇,细颗粒物(PM2.5),72,76,82,52,61,68,,56,56,25,35,7,8,0.5,0.6
2026-01-06T1800,1233A,120.0883,30.1808,杭州市,云栖,细颗粒物(PM2.5),73,65,73,53,58,62,,61,61,16,19,4,3,0.8,0.9
2026-01-06T1800,3557A,119.9463,30.0496,杭州市,镇二中,细颗粒物(PM2.5),69,50,61,50,62,57,,46,46,23,36,5,5,0.7,0.9
2026-01-06T1800,3558A,119.7184,30.2367,杭州市,市府大楼,细颗粒物(PM2.5),60,57,92,43,68,65,,64,64,13,22,10,10,0.6,1
2026-01-06T1800,3656A,120.1554,30.2863,杭州市,消防大队,细颗粒物(PM2.5),87,74,83,64,73,65,,58,58,20,28,6,6,0.7,0.6
2026-01-06T1800,1270A,117.1957,31.7845,合肥市,明珠广场,颗粒物(PM10),54,58,75,24,54,48,,59,59,37,33,5,5,0.6,0.8
2026-01-06T1800,1271A,117.307,31.8765,合肥市,三里街,,46,46,79,24,62,63,,65,65,24,31,5,4,0.6,0.8
2026-01-06T1800,1272A,117.2587,31.8703,合肥市,琥珀山庄,颗粒物(PM10),51,51,80,29,59,66,,70,70,20,29,7,7,0.7,0.9
2026-01-06T1800,1275A,117.2593,31.9376,合肥市,庐阳区,,39,39,72,14,52,71,,72,72,20,25,6,5,0.5,0.7
2026-01-06T1800,1276A,117.345251,31.861615,合肥市,瑶海区,,46,46,83,24,66,66,,69,69,23,26,4,4,0.5,0.9
2026-01-06T1800,1277A,117.3033,31.7967,合肥市,包河区,,42,41,76,29,63,51,,61,61,38,50,5,5,0.7,0.9
2026-01-06T1800,1278A,117.278,31.7392,合肥市,滨湖新区,,46,46,77,31,66,59,,66,66,32,42,4,4,0.7,0.9
2026-01-06T1800,1279A,117.1324,31.8395,合肥市,高新区,,39,39,70,22,54,69,,71,71,22,30,4,4,0.5,0.7
2026-01-06T1800,3464A,117.3802,31.9148,合肥市,高教基地,颗粒物(PM10),54,58,80,30,57,64,,68,68,26,29,7,6,0.6,0.7
2026-01-06T1800,4098A,117.2518,31.8404,合肥市,中国科学技术大学,颗粒物(PM10),55,59,78,18,56,71,,73,73,20,23,5,5,0.4,0.6
2026-01-06T1800,3614A,79.9241,37.0878,和田地区,地区环保局,颗粒物(PM10),56,61,56,35,33,44,,40,37,15,22,2,3,0.5,0.5
2026-01-06T1800,3615A,79.9132,37.1137,和田地区,市环保局,,43,36,52,30,26,43,,48,36,21,22,2,2,0.3,1
2026-01-06T1800,2517A,108.0496,24.6957,河池市,市环保站,,22,22,22,14,10,65,,65,65,9,8,2,2,0.6,0.7
2026-01-06T1800,4302A,108.0901,24.6945,河池市,上任中路54号,,31,31,22,17,17,56,,59,59,15,11,4,4,0.7,0.6
2026-01-06T1800,1697A,114.6962,23.7538,河源市,东埔,,43,34,28,30,24,70,,76,76,12,11,5,6,0.6,0.7
2026-01-06T1800,1698A,114.6895,23.7232,河源市,老城,,38,35,30,26,22,72,,77,77,8,8,5,6,0.7,0.7
2026-01-06T1800,3374A,115.5562,35.089,菏泽市,定陶老年大学,颗粒物(PM10),60,70,140,41,114,52,,52,52,22,28,5,4,0.7,1
2026-01-06T1800,4114A,115.4239,35.2593,菏泽市,黄河路600号,颗粒物(PM10),61,71,143,29,108,57,,53,53,23,35,6,5,0.9,1.3
2026-01-06T1800,4115A,115.5025,35.2727,菏泽市,菏泽市人社局,颗粒物(PM10),60,69,140,30,108,56,,54,54,21,28,4,5,0.5,0.9
2026-01-06T1800,4184A,115.479691,35.244011,菏泽市,永昌路1号,颗粒物(PM10),61,72,140,40,111,58,,59,59,31,29,8,8,0.5,0.8
2026-01-06T1800,4193A,115.471542,35.280012,菏泽市,长城路999号,颗粒物(PM10),60,70,139,36,107,59,,54,54,20,27,5,5,0.5,1.2
2026-01-06T1800,2514A,111.5264,24.4178,贺州市,环保小区,,,,42,,36,,,72,,,16,,5,,0.6
2026-01-06T1800,2515A,111.561,24.4074,贺州市,政协大楼,颗粒物(PM10),54,58,41,35,32,82,,80,80,17,14,8,8,0.6,0.6
2026-01-06T1800,3534A,111.4744,24.455,贺州市,西湾,,40,40,42,27,32,90,,82,82,10,12,7,7,0.7,0.7
2026-01-06T1800,2385A,114.17,35.9019,鹤壁市,市监测站,,33,32,73,23,57,55,,64,64,31,22,8,5,0.6,0.8
2026-01-06T1800,2386A,114.2953,35.7512,鹤壁市,市交警支队,,,49,91,43,68,53,,57,57,,36,6,4,0.5,0.8
2026-01-06T1800,2387A,114.2877,35.7302,鹤壁市,迎宾馆,,42,42,94,22,73,61,,65,65,25,23,4,6,0.5,0.9
2026-01-06T1800,3474A,114.2616,35.6824,鹤壁市,大新区,,18,18,100,7,77,44,,64,63,30,34,6,6,0.4,1
2026-01-06T1800,3596A,114.1573,35.9607,鹤壁市,南山宾馆,,48,46,71,33,57,60,,69,69,23,20,7,7,0.5,0.6
2026-01-06T1800,2244A,130.2537,47.3416,鹤岗市,哈啤分公司,细颗粒物(PM2.5),67,51,31,48,31,34,,60,40,37,18,8,8,0.7,0.5
2026-01-06T1800,2245A,130.2683,47.3087,鹤岗市,斯达机电,细颗粒物(PM2.5),54,52,42,38,28,37,,58,,31,18,9,8,0.7,0.5
2026-01-06T1800,2246A,130.3114,47.3388,鹤岗市,东山纸板厂,,48,43,48,33,34,38,,35,35,32,34,11,12,0.6,1.1
2026-01-06T1800,2263A,127.4832,50.2524,黑河市,交通局,,39,35,29,27,21,47,,49,45,16,18,6,7,0.5,0.5
2026-01-06T1800,2264A,127.5146,50.2339,黑河市,环保局,,36,36,40,21,35,33,,42,41,27,37,8,15,0.7,0.9
2026-01-06T1800,1074A,115.6839,37.754,衡水市,电机北厂,,,,137,43,106,52,,50,50,20,37,6,7,,1
2026-01-06T1800,1075A,115.6303,37.7318,衡水市,市监测站,细颗粒物(PM2.5),60,57,128,43,105,54,,51,51,24,43,9,9,0.6,1.1
2026-01-06T1800,3188A,115.6684,37.7216,衡水市,市城管局,细颗粒物(PM2.5),75,78,137,55,106,47,,51,51,33,44,10,11,0.5,1.1
2026-01-06T1800,3459A,115.599,37.5491,衡水市,地表水厂,颗粒物(PM10),66,82,135,44,125,43,,53,53,36,53,7,9,0.4,1.1
2026-01-06T1800,2457A,112.6209,26.9268,衡阳市,衡阳化工总厂,细颗粒物(PM2.5),75,60,67,55,63,89,,79,79,16,30,7,12,0.8,0.9
2026-01-06T1800,2458A,112.621,26.8957,衡阳市,珠晖区环保局,细颗粒物(PM2.5),80,59,67,59,64,70,,71,71,28,35,4,7,1.0,1.2
2026-01-06T1800,2459A,112.628,26.8654,衡阳市,市委党校,细颗粒物(PM2.5),74,,68,54,65,91,,85,85,13,29,9,11,1.0,1.1
2026-01-06T1800,2460A,112.6007,26.8977,衡阳市,市监测站,细颗粒物(PM2.5),78,78,91,57,70,82,,80,80,22,30,7,8,1.1,1.1
2026-01-06T1800,2461A,112.5658,26.9013,衡阳市,真空机电公司,细颗粒物(PM2.5),75,74,82,55,63,84,,82,82,22,29,9,7,0.9,1
2026-01-06T1800,3399A,112.6703,26.8817,衡阳市,师范学院,细颗粒物(PM2.5),72,63,73,52,53,90,,84,84,20,28,4,5,0.8,0.9
2026-01-06T1800,3038A,103.3757,23.3679,红河哈尼族彝族自治州,州图书馆,,18,18,8,11,6,30,,27,26,9,7,6,6,0.7,0.6
2026-01-06T1800,4154A,103.401,23.3561,红河哈尼族彝族自治州,蒙自市朝阳路,,23,,13,16,8,35,,33,30,8,6,5,8,0.6,0.7
2026-01-06T1800,1090A,111.6506,40.7517,呼和浩特市,呼市一监,颗粒物(PM10),64,78,56,45,37,24,,40,40,38,33,5,4,0.6,0.6
2026-01-06T1800,1094A,111.7516,40.8369,呼和浩特市,如意水处理厂,颗粒物(PM10),58,65,63,40,40,21,,37,37,48,43,12,11,0.7,0.7
2026-01-06T1800,1095A,111.727798,40.806187,呼和浩特市,二十九中,颗粒物(PM10),63,76,63,38,37,20,,38,36,44,37,14,12,0.5,0.6
2026-01-06T1800,1097A,111.717,40.7617,呼和浩特市,化肥厂生活区,颗粒物(PM10),63,75,60,44,36,24,,38,38,42,36,8,8,0.7,0.7
2026-01-06T1800,3699A,111.6519,40.8389,呼和浩特市,海东办,颗粒物(PM10),69,88,67,39,41,19,,34,34,46,41,8,6,0.6,0.7
2026-01-06T1800,4275A,111.591512,40.827312,呼和浩特市,成吉思汗西街8号,颗粒物(PM10),79,107,54,49,33,14,,31,29,52,41,10,8,0.7,0.7
2026-01-06T1800,4276A,111.6597,40.8077,呼和浩特市,公园东路75号,颗粒物(PM10),70,90,58,40,35,25,,34,34,44,37,8,7,0.5,0.5
2026-01-06T1800,4277A,111.5427,40.7846,呼和浩特市,金海路35号,颗粒物(PM10),67,84,72,44,43,17,,30,30,43,41,10,10,0.5,0.6
2026-01-06T1800,3061A,119.7511,49.1576,呼伦贝尔市,国华电力东,,31,31,22,14,14,57,,59,59,20,25,6,6,0.4,0.4
2026-01-06T1800,4279A,119.7569,49.2222,呼伦贝尔市,伊敏大街东7号,,45,32,25,31,21,53,,54,54,13,21,8,7,0.4,0.5
2026-01-06T1800,1250A,120.075,30.867,湖州市,城西水厂,细颗粒物(PM2.5),80,72,123,59,81,56,,70,70,39,45,10,10,0.5,0.8
2026-01-06T1800,2873A,120.083,30.8929,湖州市,仁皇山新区,细颗粒物(PM2.5),80,70,124,59,104,80,,81,81,27,44,10,11,0.5,0.8
2026-01-06T1800,2907A,120.1846,30.8592,湖州市,吴兴区站,细颗粒物(PM2.5),94,84,121,70,104,69,,74,74,30,34,6,7,0.8,1
2026-01-06T1800,3562A,120.4146,30.8538,湖州市,南浔区站,细颗粒物(PM2.5),104,87,129,78,108,64,,60,60,28,39,6,7,0.9,1
2026-01-06T1800,1607A,120.904878,40.721091,葫芦岛市,龙港区,细颗粒物(PM2.5),108,,78,81,49,15,,51,50,65,46,20,25,1.3,1.5
2026-01-06T1800,1608A,120.8382,40.7521,葫芦岛市,化工街,"颗粒物(PM10),细颗粒物(PM2.5)",70,90,91,51,54,9,,40,40,76,57,28,29,1.4,1.3
2026-01-06T1800,1609A,120.8339,40.7078,葫芦岛市,新区,,45,43,54,31,38,11,,40,39,74,56,16,18,1.7,1.3
2026-01-06T1800,1610A,120.8697,40.7679,葫芦岛市,东城区,细颗粒物(PM2.5),138,,81,105,67,15,,43,43,78,57,25,29,1.6,1.4
2026-01-06T1800,2483A,109.9297,27.5383,怀化市,河西地税局,,42,32,42,29,37,60,,66,66,14,16,3,5,/,/
2026-01-06T1800,2484A,109.9783,27.5342,怀化市,市四医院,,39,39,50,22,37,63,,66,66,14,15,9,11,0.5,0.7
2026-01-06T1800,2485A,109.9971,27.5579,怀化市,监测楼,,,,51,,39,,,70,70,6,17,2,4,0.1,0.3
2026-01-06T1800,1210A,119.0566,33.5991,淮安市,钵池山,细颗粒物(PM2.5),74,58,95,54,84,69,,66,66,18,30,8,8,0.5,0.7
2026-01-06T1800,1211A,119.0083,33.578,淮安市,北京南路,,,85,102,49,85,47,,52,52,,34,8,9,,1.1
2026-01-06T1800,1212A,118.9938,33.6083,淮安市,市监测站,"颗粒物(PM10),细颗粒物(PM2.5)",58,66,92,41,81,52,,58,58,28,30,10,9,0.8,0.9
2026-01-06T1800,1213A,119.135,33.5038,淮安市,楚州区监测站,颗粒物(PM10),58,66,100,28,80,52,,56,56,24,40,9,10,0.6,0.8
2026-01-06T1800,3426A,118.8757,33.2897,淮安市,新华书店,颗粒物(PM10),56,61,147,29,128,62,,56,56,15,36,9,9,0.9,1.2
2026-01-06T1800,4092A,119.119691,33.550006,淮安市,枚皋中路89号,,,,102,,78,70,,67,67,,37,,8,0.9,1
2026-01-06T1800,4206A,119.028838,33.631911,淮安市,承德北路606号,细颗粒物(PM2.5),72,78,107,52,83,60,,60,60,23,33,8,8,0.6,0.7
2026-01-06T1800,2282A,116.8005,33.9749,淮北市,监测站,,,,224,68,151,59,,65,65,32,38,10,10,0.8,1.1
2026-01-06T1800,2283A,116.8094,33.9008,淮北市,烈山区政府,细颗粒物(PM2.5),79,89,199,58,162,60,,66,66,20,43,10,10,0.5,1
2026-01-06T1800,4017A,116.7926,33.9534,淮北市,市博物馆,细颗粒物(PM2.5),92,96,225,68,180,56,,63,63,27,44,12,10,0.7,1.2
2026-01-06T1800,4100A,116.8322,33.9884,淮北市,杜集区第一实验学校,细颗粒物(PM2.5),102,108,189,76,161,69,,70,70,17,31,10,9,0.8,1.2
2026-01-06T1800,2277A,116.8304,32.7726,淮南市,潘集区政府,颗粒物(PM10),53,56,116,36,98,61,,69,69,17,21,6,5,0.5,0.8
2026-01-06T1800,2279A,116.8569,32.5949,淮南市,谢家集区政府,,44,44,94,12,68,63,,69,69,16,23,7,7,0.4,0.6
2026-01-06T1800,2280A,116.8279,32.6333,淮南市,八公山区政府,,39,39,104,19,82,69,,68,68,11,14,3,3,0.3,0.6
2026-01-06T1800,2894A,117.0561,32.6536,淮南市,经济技术开发区消防队,颗粒物(PM10),57,63,120,25,91,68,,69,69,16,21,6,5,0.4,0.7
2026-01-06T1800,3329A,117.011,32.5891,淮南市,山南新区,,,53,117,10,87,,,74,,13,25,2,2,0.3,0.7
2026-01-06T1800,4209A,117.003137,32.644456,淮南市,国庆中路369号,颗粒物(PM10),51,52,104,26,79,56,,63,63,21,26,6,5,0.5,0.7
2026-01-06T1800,2446A,114.9021,30.474,黄冈市,职工中心,,27,26,51,12,35,84,,81,81,13,17,6,11,0.4,0.7
2026-01-06T1800,2929A,114.8858,30.4519,黄冈市,红卫路,,26,22,47,10,34,82,,76,76,15,21,6,6,0.4,0.7
2026-01-06T1800,3398A,114.9134,30.4446,黄冈市,市林业局,,28,26,49,12,35,87,,80,80,10,19,4,4,0.6,1
2026-01-06T1800,2672A,102.02,35.5101,黄南藏族自治州,同仁县隆务镇,颗粒物(PM10),56,61,48,26,37,70,,71,71,13,5,12,10,0.6,0.5
2026-01-06T1800,2295A,118.2905,29.6965,黄山市,延安路89号,细颗粒物(PM2.5),55,40,39,39,38,96,,86,86,10,13,4,3,0.6,0.6
2026-01-06T1800,2297A,118.1369,30.2755,黄山市,黄山区政府5号楼,,,61,65,43,54,78,,84,84,,16,,6,0.8,0.7
2026-01-06T1800,4210A,118.335445,29.720283,黄山市,滨江东路7-2号,细颗粒物(PM2.5),70,65,56,51,52,90,,78,78,15,15,/,/,/,/
2026-01-06T1800,2423A,115.0547,30.2332,黄石市,沈家营,,27,27,54,11,26,86,,,,11,17,7,5,1.2,1.2
2026-01-06T1800,2426A,114.899,30.211,黄石市,铁山,,36,36,58,17,41,75,,74,74,12,29,5,6,0.5,0.6
2026-01-06T1800,2427A,115.0259,30.2108,黄石市,团城山,,29,27,61,6,41,90,,83,83,8,22,6,6,0.6,1
2026-01-06T1800,3149A,115.0174,30.1591,黄石市,笔架山北路,,38,38,91,8,47,79,,71,71,10,25,7,7,0.8,1.2
2026-01-06T1800,4185A,115.078022,30.21118,黄石市,磁湖东路29号,,35,35,66,12,47,72,,68,68,15,25,6,6,0.7,1
2026-01-06T1800,1392A,114.4181,23.0528,惠州市,河南岸金山湖子站,,40,40,35,26,21,74,,80,80,17,14,4,4,0.6,0.6
2026-01-06T1800,1393A,114.4055,23.0824,惠州市,下埔横江三路子站,,38,38,33,24,22,81,,84,84,11,10,6,6,0.3,0.4
2026-01-06T1800,1395A,114.4645,22.7832,惠州市,惠阳区承修路船湖子站,,42,42,38,28,23,86,,88,88,14,11,6,6,0.6,0.6
2026-01-06T1800,1396A,114.5316,22.7423,惠州市,大亚湾管委会子站,,40,40,34,25,20,86,,84,84,9,6,6,6,0.4,0.5
2026-01-06T1800,3314A,114.4334,22.8134,惠州市,惠阳秋长,,41,41,35,25,22,90,,94,94,15,11,/,/,/,/
2026-01-06T1800,3452A,114.6521,22.7755,惠州市,大亚湾霞涌,,43,43,34,27,25,87,,85,85,10,11,/,/,/,/
2026-01-06T1800,4300A,114.4089,23.1147,惠州市,文华一路1号,,38,38,32,25,24,84,,88,88,12,11,/,/,/,/
2026-01-06T1800,2240A,130.9618,45.2926,鸡西市,环保局,,18,18,22,3,15,38,,52,51,14,11,8,11,0.6,0.4
2026-01-06T1800,2243A,130.9294,45.2959,鸡西市,第一中学,,46,46,23,24,17,40,,56,55,19,11,4,4,0.7,0.6
2026-01-06T1800,3707A,131.0069,45.2988,鸡西市,欧美日汽修厂,,50,50,37,34,20,43,,52,52,14,20,10,10,0.6,0.5
2026-01-06T1800,2367A,114.9753,27.0803,吉安市,红声器材厂,,38,38,47,24,28,95,,84,84,16,19,9,10,0.6,0.7
2026-01-06T1800,2369A,114.9903,27.1313,吉安市,市环境监测站,,42,41,43,29,32,90,,85,85,14,13,14,16,/,/
2026-01-06T1800,2370A,115.009527,27.096792,吉安市,青原区法院,,42,42,44,24,31,92,,81,81,11,16,10,12,0.6,0.6
2026-01-06T1800,1772A,126.54,43.8622,吉林市,哈达湾,,38,38,35,24,24,74,,74,74,15,18,16,10,1.2,1.1
2026-01-06T1800,1773A,126.5843,43.8358,吉林市,东局子,,40,40,35,25,22,60,,61,61,19,18,7,6,1.0,1
2026-01-06T1800,1774A,126.5051,43.8243,吉林市,电力学院,,40,36,46,28,37,64,,66,66,18,26,14,13,0.7,0.9
2026-01-06T1800,1775A,126.6133,43.8971,吉林市,江北,,48,48,36,29,24,58,,61,61,21,16,7,8,1.1,1.1
2026-01-06T1800,1776A,126.5549,43.8304,吉林市,江南公园,,48,41,35,33,30,72,,73,73,14,16,8,9,0.5,0.6
2026-01-06T1800,2868A,126.4737,43.953,吉林市,九站,,48,48,31,26,22,55,,64,64,22,20,8,7,0.7,0.8
2026-01-06T1800,1299A,116.9866,36.6118,济南市,科干所,细颗粒物(PM2.5),113,139,170,85,125,42,,68,58,51,46,14,13,1.3,1.3
2026-01-06T1800,1300A,116.9379,36.6652,济南市,农科所,细颗粒物(PM2.5),119,142,180,90,136,27,,53,50,54,53,13,10,1.1,1.2
2026-01-06T1800,1301A,117.1265,36.6736,济南市,开发区,细颗粒物(PM2.5),125,139,164,95,128,35,,61,61,52,53,13,6,1.3,1.2
2026-01-06T1800,1303A,117.0616,36.6865,济南市,省种子仓库,细颗粒物(PM2.5),128,146,181,97,129,39,,61,61,48,60,16,11,1.1,1.3
2026-01-06T1800,1304A,116.9495185,36.644937,济南市,机床二厂,细颗粒物(PM2.5),129,149,184,98,146,25,,55,52,60,58,17,21,1.3,1.4
2026-01-06T1800,1305A,117.0496,36.6629,济南市,市监测站,细颗粒物(PM2.5),123,142,171,93,129,31,,60,56,44,50,13,8,1.2,1.2
2026-01-06T1800,1306A,116.7674,36.5458,济南市,长清党校,细颗粒物(PM2.5),125,142,204,95,162,42,,51,51,38,45,10,10,1.2,1.3
2026-01-06T1800,1961A,117.5323,36.6865,济南市,东山小学,细颗粒物(PM2.5),158,173,148,120,111,55,,74,73,47,47,8,7,1.3,1.2
2026-01-06T1800,3059A,117.7181,36.205,济南市,泰兴公司,细颗粒物(PM2.5),304,290,186,254,156,54,,63,63,63,62,9,13,1.6,1.5
2026-01-06T1800,3064A,117.6861,36.2172,济南市,莱芜战役纪念馆,细颗粒物(PM2.5),300,276,188,250,157,65,,66,66,51,62,10,14,1.4,1.4
2026-01-06T1800,3494A,117.1673,36.9782,济南市,济阳区政府,细颗粒物(PM2.5),92,115,147,68,100,36,,45,45,41,60,10,13,0.8,1
2026-01-06T1800,3495A,117.1168,36.6299,济南市,锦屏中学,细颗粒物(PM2.5),113,127,142,85,112,46,,75,71,43,38,11,5,1.2,1.1
2026-01-06T1800,4108A,117.7107,36.2385,济南市,山财大街5号,细颗粒物(PM2.5),278,340,222,228,145,70,,76,76,44,52,12,15,2.5,1.4
2026-01-06T1800,4109A,116.9744,36.6889,济南市,无影山路12号,细颗粒物(PM2.5),124,151,192,94,146,31,,57,53,54,57,15,14,1.1,1.3
2026-01-06T1800,1653A,116.6229,35.4288,济宁市,火炬城,细颗粒物(PM2.5),180,182,215,136,209,49,,54,54,39,41,8,7,1.0,1.1
2026-01-06T1800,3500A,116.5808,35.3703,济宁市,北湖一中,细颗粒物(PM2.5),245,229,216,195,204,42,,46,46,48,45,7,7,1.2,1.2
2026-01-06T1800,3501A,116.8251,35.5592,济宁市,服务中心,细颗粒物(PM2.5),145,213,235,111,177,50,,56,56,44,54,12,12,1.1,1.2
2026-01-06T1800,3678A,116.5907,35.4054,济宁市,市第七中学,细颗粒物(PM2.5),180,177,209,136,185,45,,53,53,,42,10,10,,1.2
2026-01-06T1800,4111A,116.6075,35.4566,济宁市,任和路,细颗粒物(PM2.5),138,204,244,105,198,42,,52,52,43,45,10,8,0.9,1.2
2026-01-06T1800,4112A,116.5648,35.3921,济宁市,文体南路1号,细颗粒物(PM2.5),226,266,243,176,209,37,,45,45,53,48,7,6,1.1,1.2
2026-01-06T1800,2255A,130.2749,46.8028,佳木斯市,佳纺,,,73,46,50,29,,,45,45,59,25,12,9,0.9,0.4
2026-01-06T1800,2257A,130.3258,46.7975,佳木斯市,环保局,,39,39,31,25,23,30,,55,53,44,18,10,8,1.0,0.9
2026-01-06T1800,4285A,130.363,46.806,佳木斯市,顺和街,细颗粒物(PM2.5),53,41,31,37,21,12,,46,42,65,24,15,10,0.7,0.8
2026-01-06T1800,4286A,130.3952,46.8268,佳木斯市,长安路196号,细颗粒物(PM2.5),54,49,31,38,22,35,,45,44,32,22,8,7,0.6,0.5
2026-01-06T1800,1252A,120.7439,30.778,嘉兴市,清河小学,细颗粒物(PM2.5),133,122,137,101,112,64,,58,58,30,41,5,6,1.1,1.1
2026-01-06T1800,1253A,120.7261,30.7477,嘉兴市,嘉兴学院,细颗粒物(PM2.5),125,117,132,95,104,67,,66,66,26,36,6,7,1.2,1.2
2026-01-06T1800,2872A,120.7845,30.7524,嘉兴市,南湖区残联,细颗粒物(PM2.5),138,120,133,105,111,74,,70,70,24,35,4,4,1.1,1.1
2026-01-06T1800,3407A,120.6915,30.7741,嘉兴市,秀洲住建,细颗粒物(PM2.5),133,118,132,101,111,68,,66,66,27,37,6,7,0.8,0.9
2026-01-06T1800,1945A,98.291,39.7705,嘉峪关市,气象局,颗粒物(PM10),71,92,45,24,21,61,,67,67,20,15,14,19,0.7,0.6
2026-01-06T1800,2884A,98.2672,39.7978,嘉峪关市,酒钢宾馆,颗粒物(PM10),70,90,54,27,25,58,,66,56,21,15,19,29,0.8,0.9
2026-01-06T1800,3248A,98.2644,39.7723,嘉峪关市,雄关区,颗粒物(PM10),51,51,40,33,24,63,,67,67,19,20,15,17,0.4,0.4
2026-01-06T1800,1383A,113.1063,22.6058,江门市,北街,颗粒物(PM10),51,51,32,32,20,80,,74,74,20,19,/,/,/,/
2026-01-06T1800,1384A,113.073,22.5835,江门市,西区,颗粒物(PM10),53,56,36,33,15,77,,70,70,24,26,/,/,/,/
2026-01-06T1800,1385A,113.0218,22.531,江门市,圭峰西,细颗粒物(PM2.5),52,49,32,36,21,81,,73,73,20,21,/,/,/,/
2026-01-06T1800,1386A,113.0826,22.5947,江门市,东湖,,46,45,31,32,22,80,,74,74,24,26,8,8,0.5,0.6
2026-01-06T1800,3311A,113.1077,22.5647,江门市,江海富民,细颗粒物(PM2.5),53,,37,37,16,83,,74,74,26,25,/,/,0.5,0.6
2026-01-06T1800,3449A,113.0496,22.4669,江门市,新会银湖,颗粒物(PM10),60,70,35,38,24,78,,71,71,20,20,8,8,0.6,0.7
2026-01-06T1800,3335A,113.3137,35.2643,焦作市,马村街道办,,34,34,50,13,32,73,,72,72,14,15,6,6,0.3,0.5
2026-01-06T1800,3336A,113.2464,35.2374,焦作市,焦作技师学院,,34,34,49,14,29,74,,72,72,14,15,8,7,0.2,0.4
2026-01-06T1800,3477A,113.1656,35.2536,焦作市,中站许衡医院,,42,35,43,29,31,74,,74,74,13,13,5,5,0.3,0.4
2026-01-06T1800,3981A,113.2456,35.18,焦作市,原李万街道办,,,26,54,12,28,74,,74,74,13,12,,4,0.4,0.5
2026-01-06T1800,4264A,113.234,35.219,焦作市,新安路1731号,,31,31,53,13,33,72,,72,72,15,15,5,4,0.3,0.4
2026-01-06T1800,4295A,113.2722,35.2121,焦作市,人民路3066号,,37,37,56,9,25,72,,71,71,10,10,5,4,0.3,0.4
2026-01-06T1800,1708A,116.3701,23.5345,揭阳市,新兴,,31,31,28,19,19,76,,74,74,13,14,8,8,0.6,0.6
2026-01-06T1800,1709A,116.3261,23.5442,揭阳市,西马,,,35,28,16,16,73,,71,71,,12,4,4,0.7,0.7
2026-01-06T1800,1710A,116.361,23.5627,揭阳市,东兴,,38,38,34,17,17,69,,68,68,12,13,7,8,/,/
2026-01-06T1800,1711A,116.4151,23.5295,揭阳市,渔湖,,40,40,30,12,19,78,,73,73,12,16,2,3,/,/
2026-01-06T1800,3320A,116.4028,23.5699,揭阳市,曲溪,,29,29,29,12,19,83,,78,78,10,14,3,2,0.4,0.5
2026-01-06T1800,1944A,102.1691,38.5166,金昌市,天庆家园,颗粒物(PM10),102,153,60,18,32,80,,75,75,7,23,7,11,0.5,0.9
2026-01-06T1800,4022A,102.1648,38.5369,金昌市,金川区人防中心,颗粒物(PM10),79,107,49,23,32,81,,77,77,8,19,5,21,0.4,0.7
2026-01-06T1800,4239A,102.193042,38.531887,金昌市,长春路96号,颗粒物(PM10),62,74,46,20,29,81,,74,74,6,24,6,14,0.6,1
2026-01-06T1800,1262A,119.6478,29.0773,金华市,十五中,细颗粒物(PM2.5),52,52,65,36,52,67,,63,63,26,28,4,3,0.5,0.7
2026-01-06T1800,1263A,119.6859,29.1032,金华市,监测站,细颗粒物(PM2.5),57,56,68,40,53,54,,56,56,27,36,3,2,0.4,0.8
2026-01-06T1800,3659A,119.656,29.1132,金华市,气象局,颗粒物(PM10),53,55,69,36,49,46,,39,39,32,32,3,3,0.8,0.9
2026-01-06T1800,1767A,121.1114,41.0879,锦州市,南山,颗粒物(PM10),65,79,61,30,53,60,,55,55,29,47,19,14,0.7,1.3
2026-01-06T1800,1768A,121.060361,40.842794,锦州市,开发区,细颗粒物(PM2.5),109,,107,82,60,4,,19,18,79,67,18,34,1.3,1.3
2026-01-06T1800,1769A,121.1836,41.1118,锦州市,百股街道,颗粒物(PM10),66,82,63,24,48,54,,56,56,34,43,12,12,0.9,1.3
2026-01-06T1800,1770A,121.1176,41.1224,锦州市,天安街道,颗粒物(PM10),59,68,52,10,40,80,,76,76,15,38,10,15,0.6,1.2
2026-01-06T1800,1771A,121.1303,41.1385,锦州市,北湖公园,颗粒物(PM10),53,56,52,14,34,73,,72,72,11,36,8,13,0.5,1
2026-01-06T1800,2160A,112.8496,35.5051,晋城市,自来水公司,,41,41,37,17,20,71,,68,68,13,12,6,5,0.6,0.6
2026-01-06T1800,2162A,112.8509,35.4886,晋城市,市环保局,,36,36,44,14,15,73,,72,72,14,12,5,4,0.7,0.7
2026-01-06T1800,3620A,112.8258,35.4804,晋城市,泽州一中,,36,36,35,12,13,78,,77,77,13,13,4,4,0.2,0.2
2026-01-06T1800,4078A,112.8246,35.5152,晋城市,前书院路,,,,,,,,,,,,,,,,
2026-01-06T1800,4079A,112.8864,35.4773,晋城市,祥云街666号,,38,35,33,26,21,78,,74,74,12,12,5,5,0.3,0.3
2026-01-06T1800,2174A,112.6992,37.6984,晋中市,榆次区政府,颗粒物(PM10),70,90,55,24,20,51,,62,60,29,23,10,11,0.6,0.2
2026-01-06T1800,2865A,112.7195,37.683,晋中市,榆次三中,颗粒物(PM10),80,110,62,17,18,52,,60,60,26,20,11,12,0.1,0.5
2026-01-06T1800,4080A,112.7375,37.7215,晋中市,广安街188号,颗粒物(PM10),66,82,51,24,22,52,,62,62,29,21,12,10,0.3,0.3
2026-01-06T1800,4200A,112.7478,37.6954,晋中市,迎宾街26号,颗粒物(PM10),79,107,61,27,19,50,,60,60,30,23,11,13,0.6,0.6
2026-01-06T1800,2439A,112.2012,31.048,荆门市,竹园小学,,35,34,58,24,36,62,,75,75,38,34,1,10,0,0.2
2026-01-06T1800,2440A,112.1968,30.9892,荆门市,掇刀,,46,,58,32,43,83,,86,86,23,31,10,5,0.5,0.6
2026-01-06T1800,3012A,112.1849,31.0361,荆门市,西山林语,,32,23,47,22,36,68,,79,79,21,23,4,4,0.4,0.6
2026-01-06T1800,3547A,112.1631,31.0134,荆门市,龙泉中学南校,,44,44,57,23,41,81,,81,81,18,20,10,7,0.5,0.6
2026-01-06T1800,4124A,112.2213,31.0654,荆门市,新台西路6号,,49,41,70,34,56,78,,81,81,19,33,13,8,0.3,0.6
2026-01-06T1800,1844A,112.2493,30.3198,荆州市,市图书馆,细颗粒物(PM2.5),87,,70,64,80,91,,92,92,21,31,8,8,0.8,1
2026-01-06T1800,1845A,112.2009,30.3543,荆州市,市委党校,细颗粒物(PM2.5),77,58,78,56,77,82,,78,78,20,32,4,4,0.8,1.1
2026-01-06T1800,3194A,112.2749,30.3124,荆州市,管委会,,,,74,,82,88,,86,86,,36,6,6,0.7,1
2026-01-06T1800,4268A,112.1722,30.3366,荆州市,学苑路85号,细颗粒物(PM2.5),64,50,73,46,69,97,,92,92,20,25,11,10,0.7,0.8
2026-01-06T1800,2343A,117.2114,29.2931,景德镇市,老干部活动中心,细颗粒物(PM2.5),53,38,42,37,45,79,,77,77,13,12,9,10,0.5,0.5
2026-01-06T1800,2344A,117.1893,29.2789,景德镇市,兽医站,,43,43,45,23,32,84,,82,82,14,14,8,10,0.8,0.8
2026-01-06T1800,2346A,117.246,29.2958,景德镇市,陶研所,,49,42,38,34,41,80,,80,80,16,9,4,5,0.4,0.4
2026-01-06T1800,4289A,117.154766,29.256967,景德镇市,青少年活动中心,,46,46,47,31,34,85,,82,82,18,20,6,12,/,/
2026-01-06T1800,1803A,115.9873,29.6816,九江市,十里,颗粒物(PM10),52,54,51,20,38,86,,83,83,20,37,5,4,0.7,0.9
2026-01-06T1800,1804A,115.9583,29.7047,九江市,茅山头,,40,40,48,28,35,76,,74,74,17,26,5,4,0.8,0.9
2026-01-06T1800,1805A,115.9877,29.7295,九江市,西园,,38,38,51,20,33,82,,82,82,30,36,2,2,0.6,0.8
2026-01-06T1800,1808A,115.9112,29.6038,九江市,综合工业园,,37,37,48,22,45,70,,80,80,37,36,2,3,0.7,0.8
2026-01-06T1800,3190A,116.0254,29.6995,九江市,外国语学校,,46,46,43,27,36,69,,71,71,23,32,8,7,0.7,0.8
2026-01-06T1800,4253A,116.010205,29.659402,九江市,莲花大道8号,,45,45,56,13,42,73,,76,76,18,10,3,3,0.4,0.5
2026-01-06T1800,4240A,98.495752,39.733935,酒泉市,玉门东路5号,颗粒物(PM10),91,132,78,25,38,60,,61,61,9,19,13,16,0.5,0.8
2026-01-06T1800,4241A,98.5099,39.7506,酒泉市,北大街108号,颗粒物(PM10),100,149,74,20,35,57,,58,58,12,25,11,17,0.4,0.8
2026-01-06T1800,2698A,76.0071,39.466,喀什地区,巡警大队,,,,70,,54,,,45,33,25,17,4,3,1.0,0.9
2026-01-06T1800,2699A,75.9756,39.4693,喀什地区,吾办,细颗粒物(PM2.5),102,93,70,76,58,39,,44,40,21,13,4,7,1.1,0.9
2026-01-06T1800,4027A,75.9485,39.4688,喀什地区,老干局,细颗粒物(PM2.5),79,85,71,58,52,50,,47,47,14,11,1,1,1.0,0.9
2026-01-06T1800,1824A,114.3389,34.778,开封市,肿瘤医院,,45,45,86,13,57,65,,65,65,19,29,6,8,0.5,1.2
2026-01-06T1800,1826A,114.2884,34.7966,开封市,世纪星幼儿园,,49,49,71,16,58,63,,66,66,24,28,1,2,0.4,0.6
2026-01-06T1800,3147A,114.3434,34.8101,开封市,龙亭公园,,,62,76,8,48,72,,69,69,,23,8,5,,1.4
2026-01-06T1800,3210A,114.3645,34.7955,开封市,汴京公园,颗粒物(PM10),66,82,113,15,53,63,,60,60,21,30,6,6,0.5,0.7
2026-01-06T1800,3473A,114.2485,34.8306,开封市,技师学院,,40,40,70,15,47,69,,66,66,14,20,6,7,0.6,0.8
2026-01-06T1800,3592A,114.4518,34.7503,开封市,祥符区生态环境局,,45,45,81,15,59,61,,63,63,25,33,5,5,0.5,0.7
2026-01-06T1800,1951A,84.886,45.6029,克拉玛依市,长征新村,细颗粒物(PM2.5),108,134,167,81,116,45,,42,42,38,39,5,4,1.0,1.2
2026-01-06T1800,1952A,84.8894,45.5827,克拉玛依市,南林小区,细颗粒物(PM2.5),98,130,161,73,97,46,,40,40,20,22,4,4,1.0,1.3
2026-01-06T1800,1954A,84.896,44.3328,克拉玛依市,独山子区,细颗粒物(PM2.5),220,326,148,170,83,36,,58,53,49,37,7,6,1.8,0.9
2026-01-06T1800,1955A,85.6888,46.0909,克拉玛依市,乌尔禾区商贸楼,细颗粒物(PM2.5),103,93,139,77,121,57,,40,40,30,38,4,4,1.0,1.3
2026-01-06T1800,3612A,85.1045,45.6895,克拉玛依市,白碱滩区新站,细颗粒物(PM2.5),113,132,169,85,122,48,,32,32,14,15,7,6,0.9,0.9
2026-01-06T1800,2697A,76.1457,39.7143,克孜勒苏柯尔克孜自治州,市人民政府,细颗粒物(PM2.5),79,79,73,58,50,58,,44,44,9,13,5,5,0.4,0.4
2026-01-06T1800,3665A,76.1654,39.7157,克孜勒苏柯尔克孜自治州,克州文化中心,细颗粒物(PM2.5),84,64,60,62,49,56,,44,44,7,12,3,2,0.7,0.8
2026-01-06T1800,1450A,102.8203,24.889,昆明市,呈贡新区,,22,22,28,14,19,28,,26,26,17,25,3,5,0.7,0.5
2026-01-06T1800,1452A,102.7253,25.0904,昆明市,龙泉镇,,25,25,43,15,25,32,,29,29,15,27,2,2,0.9,0.7
2026-01-06T1800,1453A,102.7267,25.0378,昆明市,东风东路,,44,44,40,21,24,22,,24,24,28,26,3,4,0.7,0.5
2026-01-06T1800,1454A,102.6744,25.0671,昆明市,金鼎山,,39,39,51,19,32,25,,26,26,21,26,2,3,0.9,0.8
2026-01-06T1800,1455A,102.6643,25.0401,昆明市,碧鸡广场,,25,24,38,17,23,21,,23,23,28,30,2,3,0.6,0.7
2026-01-06T1800,3179A,102.7491,25.012,昆明市,官渡区博物馆,,38,38,36,19,28,19,,24,20,35,27,2,3,0.8,0.7
2026-01-06T1800,3375A,102.8016,24.8336,昆明市,青年创业园,,26,26,27,17,17,26,,27,27,12,16,3,4,0.7,0.5
2026-01-06T1800,3550A,102.8,24.9787,昆明市,昆明学院,,27,27,41,16,25,24,,24,24,22,24,2,3,1.0,0.8
2026-01-06T1800,3551A,102.5969,24.6738,昆明市,晋宁区生态环境分局,,29,29,36,19,24,18,,18,17,16,23,1,2,0.9,0.7
2026-01-06T1800,3552A,102.6673,24.9861,昆明市,云天化总部,,34,34,37,17,21,18,,20,20,33,34,5,5,1.0,0.7
2026-01-06T1800,1456A,91.132,29.6515,拉萨市,八廓街,,38,38,37,11,19,90,,78,78,8,21,8,8,0.5,0.7
2026-01-06T1800,1457A,91.1221,29.6748,拉萨市,市环保局,,,,51,35,34,92,,74,74,11,27,9,10,0.5,1.2
2026-01-06T1800,1458A,91.0874,29.6476,拉萨市,区监测站,,32,32,31,9,15,89,,73,73,12,39,4,5,0.8,1.2
2026-01-06T1800,1459A,91.1774,29.6541,拉萨市,西藏大学,,45,45,31,12,15,87,,75,75,16,23,6,6,0.4,0.5
2026-01-06T1800,1460A,90.9798,29.6586,拉萨市,区辐射站,,28,28,47,11,25,83,,66,66,17,38,4,6,0.4,1.1
2026-01-06T1800,1461A,91.0831,29.6292,拉萨市,拉萨火车站,,42,42,37,12,18,85,,65,65,11,33,5,5,0.5,0.8
2026-01-06T1800,2520A,109.2203,23.7252,来宾市,来宾技工学校,,29,28,28,20,20,81,,75,75,7,9,6,7,0.3,0.4
2026-01-06T1800,3535A,109.1781,23.7293,来宾市,兴宾区政府,,32,32,27,21,20,86,,81,81,5,7,5,6,0.4,0.5
2026-01-06T1800,4002A,109.2312,23.7428,来宾市,中南小学,,,,28,,25,82,,78,78,9,11,5,5,,0.6
2026-01-06T1800,1479A,103.8309,36.0467,兰州市,铁路设计院,,,,,,,,,,,,,,,,
2026-01-06T1800,3241A,103.7439,36.0841,兰州市,百合公园,细颗粒物(PM2.5),74,73,70,54,49,45,,38,38,53,49,7,11,1.2,1.6
2026-01-06T1800,3242A,103.9613,35.9985,兰州市,和平,细颗粒物(PM2.5),97,80,65,72,56,61,,64,64,37,30,8,5,0.9,1.1
2026-01-06T1800,4236A,103.629272,36.093822,兰州市,庄浪东路808号,细颗粒物(PM2.5),75,86,76,55,51,51,,50,50,53,40,15,14,1.0,0.9
2026-01-06T1800,4237A,103.7251,36.104344,兰州市,安宁西路88号,颗粒物(PM10),74,97,83,53,48,50,,48,48,67,53,16,9,1.2,1.2
2026-01-06T1800,4238A,103.846982,36.067567,兰州市,北滨河东路1号,细颗粒物(PM2.5),70,73,70,51,46,61,,57,57,47,53,17,12,1.1,1.4
2026-01-06T1800,1067A,116.6712,39.5109,廊坊市,药材公司,细颗粒物(PM2.5),120,116,150,91,125,40,,38,38,50,73,5,5,1.0,1.4
2026-01-06T1800,1068A,116.7215,39.5592,廊坊市,开发区,细颗粒物(PM2.5),108,111,135,81,104,25,,39,39,68,74,4,4,0.8,1.1
2026-01-06T1800,1070A,116.7246,39.5273,廊坊市,北华航天学院,细颗粒物(PM2.5),115,98,151,87,116,42,,42,42,48,66,6,5,0.8,1.1
2026-01-06T1800,2919A,116.7022,39.5454,廊坊市,河北工业大学,细颗粒物(PM2.5),115,106,150,87,110,45,,42,42,46,69,6,6,0.8,1.1
2026-01-06T1800,2536A,103.7629,29.5844,乐山市,牛耳桥,,40,35,47,28,41,69,,58,58,21,23,7,8,0.5,0.6
2026-01-06T1800,2537A,103.7501,29.6002,乐山市,市第三水厂,,,35,47,28,39,70,,60,60,22,24,,6,0.5,0.5
2026-01-06T1800,2538A,103.7571,29.5664,乐山市,市监测站,,39,32,45,27,41,70,,57,57,15,19,7,7,0.5,0.6
2026-01-06T1800,3361A,103.7313,29.563,乐山市,理工大学,,46,40,47,32,39,66,,58,58,23,19,13,5,0.6,0.6
2026-01-06T1800,2599A,100.2497,26.8802,丽江市,丽江古城,,31,31,28,6,15,92,,89,89,14,14,9,8,0.6,0.7
2026-01-06T1800,2600A,100.2203,26.8906,丽江市,市中心,,,24,17,16,6,93,,91,91,,14,9,6,,0.4
2026-01-06T1800,1267A,119.9141,28.4513,丽水市,监测站大楼,,50,38,33,35,36,54,,65,65,19,19,4,4,0.8,0.7
2026-01-06T1800,1268A,119.93,28.4589,丽水市,莲都小学,,40,39,50,28,35,58,,66,65,21,24,/,/,/,/
2026-01-06T1800,1269A,119.8794,28.4232,丽水市,余庄前,,38,33,38,26,34,40,,56,56,16,18,4,4,0.4,0.5
2026-01-06T1800,1173A,119.1759,34.5885,连云港市,市环境监测站,细颗粒物(PM2.5),64,75,73,46,53,57,,55,55,22,32,11,10,0.8,0.8
2026-01-06T1800,3000A,119.3577,34.6971,连云港市,德源药业,颗粒物(PM10),59,68,80,39,52,63,,55,55,23,42,5,4,0.2,0.2
2026-01-06T1800,3007A,119.178,34.8442,连云港市,新城一中,颗粒物(PM10),68,86,116,45,66,62,,55,55,20,51,12,12,0.8,0.8
2026-01-06T1800,3008A,119.3607,34.7519,连云港市,胡沟管理处,,,,73,,57,53,,54,54,,36,6,8,,1
2026-01-06T1800,3009A,119.1478,34.5913,连云港市,矿山设计院,颗粒物(PM10),64,78,82,41,55,55,,58,58,24,35,12,9,0.9,1
2026-01-06T1800,3434A,119.2414,34.6539,连云港市,工贸学校,细颗粒物(PM2.5),55,49,74,39,58,58,,55,55,20,20,16,13,0.6,0.8
2026-01-06T1800,3664A,119.4171,34.734,连云港市,连云街道,,,48,76,36,60,69,,70,70,,23,5,5,,0.8
2026-01-06T1800,2573A,102.2629,27.8981,凉山彝族自治州,西昌市政府,,50,,27,35,17,41,,48,44,20,11,5,5,0.9,0.7
2026-01-06T1800,2574A,102.2686,27.885,凉山彝族自治州,凉山州政府,,36,36,26,16,18,39,,43,42,20,14,8,7,0.8,0.7
2026-01-06T1800,4229A,102.2342,27.8859,凉山彝族自治州,凯乐南路30号,,34,34,36,18,22,40,,43,43,22,23,5,6,0.9,0.7
2026-01-06T1800,2212A,123.1978,41.2036,辽阳市,宏伟区,细颗粒物(PM2.5),75,62,63,55,48,26,,46,45,41,24,11,10,1.2,1.1
2026-01-06T1800,2213A,123.1684,41.2497,辽阳市,新华园,细颗粒物(PM2.5),64,68,76,46,46,22,,41,41,54,41,16,24,1.3,1.4
2026-01-06T1800,2214A,123.2355,41.2663,辽阳市,滨河路,颗粒物(PM10),72,93,65,51,37,22,,46,44,57,27,12,10,1.3,0.9
2026-01-06T1800,4083A,123.153,41.2874,辽阳市,铁西路150号,细颗粒物(PM2.5),88,118,79,65,47,14,,37,36,63,42,22,24,2.1,1.7
2026-01-06T1800,2227A,125.1359,42.8845,辽源市,环保局,颗粒物(PM10),58,66,101,39,42,60,,69,69,24,37,7,6,0.7,1.2
2026-01-06T1800,4085A,125.0998,42.9134,辽源市,安宁大街333号,颗粒物(PM10),60,70,56,32,32,57,,70,70,33,30,10,9,0.6,0.7
2026-01-06T1800,1625A,115.9789,36.4372,聊城市,区政府,颗粒物(PM10),58,66,203,39,168,22,,49,48,68,53,15,14,0.9,1.4
2026-01-06T1800,3200A,115.9772,36.4986,聊城市,监控中心,颗粒物(PM10),68,85,203,46,178,42,,59,59,46,50,18,13,0.8,1.3
2026-01-06T1800,3513A,116.0443,36.436,聊城市,九州社区,颗粒物(PM10),67,83,211,41,179,63,,67,67,21,39,8,6,0.6,1.1
2026-01-06T1800,4018A,116.0564,36.4609,聊城市,星美广场,颗粒物(PM10),64,78,214,38,170,50,,58,58,23,39,6,5,0.8,1.3
2026-01-06T1800,4113A,116.0091,36.4495,聊城市,利民路,颗粒物(PM10),61,72,218,26,168,45,,53,53,39,48,8,10,0.6,1.1
2026-01-06T1800,2632A,94.3683,29.6373,林芝市,林芝监测站,,26,16,8,3,5,82,,76,76,2,3,3,4,0.3,0.3
2026-01-06T1800,2633A,94.3616,29.6634,林芝市,林芝人民医院,,25,15,14,6,7,77,,70,70,2,5,7,6,0.4,0.5
2026-01-06T1800,2603A,100.0779,23.8981,临沧市,市环保局,细颗粒物(PM2.5),52,,37,36,40,73,,65,65,4,9,6,7,0.4,0.5
2026-01-06T1800,2604A,100.0894,23.882,临沧市,市气象局,,23,22,34,15,21,72,,63,63,6,11,6,6,0.4,0.5
2026-01-06T1800,1733A,111.5552,36.0791,临汾市,临钢医院,,37,37,32,20,17,67,,67,67,17,11,6,5,0.6,0.5
2026-01-06T1800,1734A,111.4984,36.0734,临汾市,技工学校,,43,43,29,21,22,57,,65,65,26,12,6,5,0.8,0.7
2026-01-06T1800,1736A,111.5017,36.0857,临汾市,市委,,42,42,35,13,13,64,,69,69,24,13,9,7,0.8,0.6
2026-01-06T1800,3018A,111.5048,36.1015,临汾市,唐尧大酒店,,44,44,36,7,13,71,,71,71,18,12,4,3,0.8,0.6
2026-01-06T1800,4244A,111.4879,36.053,临汾市,启星学校,,48,48,30,26,23,57,,70,70,32,16,9,8,0.8,0.6
2026-01-06T1800,4271A,103.2464,35.6123,临夏回族自治州,滨河东路1号,细颗粒物(PM2.5),77,84,122,56,73,73,,65,65,18,27,9,4,0.8,1.1
2026-01-06T1800,4310A,103.207136,35.599807,临夏回族自治州,新华街21号,细颗粒物(PM2.5),65,74,123,47,86,76,,60,60,16,32,11,8,0.5,1.2
2026-01-06T1800,1618A,118.3429,35.0532,临沂市,沂河小区,细颗粒物(PM2.5),103,110,144,77,122,48,,52,52,39,61,18,24,0.8,1.1
2026-01-06T1800,1619A,118.2962,35.0568,临沂市,鲁南制药厂,细颗粒物(PM2.5),93,124,155,69,122,41,,52,52,47,64,19,28,0.8,1.1
2026-01-06T1800,1620A,118.2793,34.9976,临沂市,新光毛纺厂,细颗粒物(PM2.5),105,117,151,79,119,55,,59,59,33,58,14,26,0.8,1.1
2026-01-06T1800,1621A,118.3955,35.0889,临沂市,河东保险公司,细颗粒物(PM2.5),83,105,143,61,105,59,,60,60,30,58,15,16,0.8,1.1
2026-01-06T1800,3370A,118.3563,35.0215,临沂市,十里堡居委,细颗粒物(PM2.5),89,112,149,66,105,55,,59,59,36,68,14,29,1.0,1.3
2026-01-06T1800,3496A,118.359,35.1067,临沂市,南坊新区,细颗粒物(PM2.5),85,107,146,63,116,49,,57,57,42,58,12,17,0.8,1
2026-01-06T1800,3860A,118.3915,35.0297,临沂市,皇山花园小区,细颗粒物(PM2.5),83,112,141,61,97,62,,58,58,31,68,15,26,0.9,1.1
2026-01-06T1800,1870A,109.4854,24.3898,柳州市,柳东小学,,,25,27,22,24,77,,72,72,7,7,,8,0.6,0.6
2026-01-06T1800,1871A,109.4109,24.3304,柳州市,环保监测站,,36,36,27,16,21,72,,69,69,10,10,5,5,0.5,0.5
2026-01-06T1800,1872A,109.3886,24.3408,柳州市,河西水厂,,32,30,29,22,22,72,,72,72,14,13,6,7,0.6,0.6
2026-01-06T1800,1873A,109.4263,24.2951,柳州市,市四中,,33,23,28,23,24,75,,71,71,12,11,9,9,0.4,0.5
2026-01-06T1800,1874A,109.396,24.3658,柳州市,市九中,,36,33,28,25,22,73,,73,73,14,13,9,8,0.5,0.6
2026-01-06T1800,1875A,109.4912,24.3164,柳州市,古亭山,,46,46,29,23,18,75,,70,70,7,7,9,9,0.5,0.6
2026-01-06T1800,3402A,109.5422,24.3994,柳州市,市二中,,28,28,27,19,25,67,,71,71,17,12,8,8,0.5,0.5
2026-01-06T1800,2307A,116.5078,31.7369,六安市,监测大楼,,41,41,60,23,48,78,,73,73,16,17,3,2,0.4,0.6
2026-01-06T1800,2308A,116.4738,31.7642,六安市,皖西学院,,38,37,62,26,47,77,,75,75,18,20,4,4,0.4,0.5
2026-01-06T1800,2309A,116.4997,31.7904,六安市,朝阳厂,,41,41,59,21,46,74,,73,73,24,22,6,5,0.4,0.6
2026-01-06T1800,2310A,116.5566,31.7885,六安市,开发区,细颗粒物(PM2.5),88,,69,65,53,67,,70,70,26,24,3,2,0.4,0.5
2026-01-06T1800,2577A,104.8293,26.592,六盘水市,黄土坡,,48,,23,33,19,66,,69,69,16,14,10,8,0.8,0.7
2026-01-06T1800,2579A,104.8481,26.5898,六盘水市,民中,,39,33,25,27,19,56,,66,65,25,14,4,4,0.6,0.7
2026-01-06T1800,2580A,104.9541,26.5506,六盘水市,双水,,33,31,24,23,16,70,,70,70,9,10,4,4,0.4,0.4
2026-01-06T1800,4151A,104.8899,26.5685,六盘水市,钟山大道中段564号,,35,29,29,24,19,67,,65,65,13,13,6,6,0.9,1
2026-01-06T1800,2336A,117.022,25.1031,龙岩市,龙岩市监测站,,26,22,27,18,20,71,,54,54,9,11,5,10,0.4,0.5
2026-01-06T1800,2337A,117.0257,25.0662,龙岩市,闽西职业技术学院,,23,20,18,13,18,71,,58,58,8,8,4,5,0.4,0.5
2026-01-06T1800,2338A,117.0195,25.0306,龙岩市,龙岩学院,,27,27,19,15,18,65,,54,54,8,8,5,7,/,/
2026-01-06T1800,2885A,104.9344,33.3827,陇南市,滨江中学,细颗粒物(PM2.5),108,147,70,81,38,22,,53,53,78,30,19,8,2.7,1.1
2026-01-06T1800,3247A,104.9551,33.3709,陇南市,市总工会,颗粒物(PM10),54,58,67,28,38,68,,60,60,13,19,8,8,0.6,0.7
2026-01-06T1800,2488A,111.9984,27.7346,娄底市,市监测站,,,47,73,45,62,70,,76,76,,31,,14,0.7,1.2
2026-01-06T1800,2491A,111.9888,27.7035,娄底市,市政府,细颗粒物(PM2.5),55,53,59,39,52,87,,77,77,20,17,4,5,0.8,0.8
2026-01-06T1800,4127A,111.9812,27.7591,娄底市,涟钢职大,细颗粒物(PM2.5),59,53,67,42,46,88,,74,74,16,21,5,7,0.6,1.7
2026-01-06T1800,4128A,112.0303,27.7457,娄底市,娄底体校,,46,41,59,32,46,80,,68,68,20,21,4,4,0.6,0.9
2026-01-06T1800,1894A,105.4427,28.9063,泸州市,小市上码头,,49,48,61,34,46,72,,60,60,17,20,9,8,0.8,0.9
2026-01-06T1800,1895A,105.4241,28.8573,泸州市,兰田宪桥,,50,42,54,35,46,71,,59,59,16,21,7,7,0.8,0.9
2026-01-06T1800,1896A,105.4378,28.8833,泸州市,市环监站,,50,48,56,35,43,70,,58,58,24,25,8,8,0.8,0.9
2026-01-06T1800,4272A,105.3689,28.7783,泸州市,纳溪中医医院,,,71,66,43,52,64,,59,59,,18,,8,0.8,0.9
2026-01-06T1800,2183A,111.1447,37.5212,吕梁市,环保局,,35,34,39,24,19,62,,56,56,13,12,6,6,0.4,0.4
2026-01-06T1800,2185A,111.1285,37.5338,吕梁市,自来水公司,,50,41,38,35,19,56,,56,56,16,12,5,5,0.4,0.4
2026-01-06T1800,2867A,111.1225,37.5093,吕梁市,马茂庄小学,,48,44,42,33,18,60,,58,58,18,14,6,7,0.6,0.4
2026-01-06T1800,1812A,112.3934,34.6517,洛阳市,市委党校,,32,32,44,7,17,78,,73,73,13,14,8,10,0.3,0.4
2026-01-06T1800,1815A,112.494,34.6883,洛阳市,河南林校,颗粒物(PM10),51,52,56,23,21,77,,73,73,16,18,8,11,0.5,0.6
2026-01-06T1800,1816A,112.3843,34.623,洛阳市,开发区管委会,,34,34,39,14,23,73,,69,69,12,14,8,10,0.2,0.3
2026-01-06T1800,1817A,112.4263,34.6249,洛阳市,市委新办公区,,33,33,40,20,29,83,,79,79,11,12,8,9,0.4,0.4
2026-01-06T1800,3340A,112.6005,34.6323,洛阳市,伊滨,,35,35,42,14,26,80,,76,76,16,17,6,8,0.5,0.6
2026-01-06T1800,3341A,112.495,34.6338,洛阳市,中移产业园,,36,36,44,23,28,76,,70,70,16,21,8,10,0.3,0.4
2026-01-06T1800,3593A,112.5736,34.8993,洛阳市,吉利监测站,,31,31,39,14,20,83,,79,79,17,17,8,8,0.6,0.6
2026-01-06T1800,3635A,112.3678,34.6623,洛阳市,河科大西苑校区,,32,32,45,16,24,78,,73,73,11,12,7,9,0.4,0.4
2026-01-06T1800,3636A,112.4387,34.678,洛阳市,英才小学,,41,41,49,20,30,83,,80,80,27,24,9,12,0.4,0.5
2026-01-06T1800,4214A,112.460027,34.694929,洛阳市,春都路1号院,,47,47,56,15,23,77,,72,72,16,14,8,10,0.5,0.6
2026-01-06T1800,2399A,114.051,33.5721,漯河市,三五一五工厂,颗粒物(PM10),56,61,103,23,62,69,,69,69,11,17,7,8,0.5,0.8
2026-01-06T1800,2400A,114.0055,33.5698,漯河市,漯河大学,,44,44,75,12,50,73,,73,73,19,25,6,7,0.5,0.7
2026-01-06T1800,2401A,114.0134,33.5826,漯河市,市水利局,,34,34,75,22,53,70,,71,71,20,23,7,8,0.6,0.8
2026-01-06T1800,2402A,114.0261,33.5697,漯河市,市广电局,,39,39,75,15,51,77,,76,76,11,16,6,7,0.5,0.7
2026-01-06T1800,3478A,113.9691,33.568,漯河市,市图书馆,,33,33,83,15,59,64,,64,64,10,17,4,6,0.5,0.9
2026-01-06T1800,4250A,114.089259,33.588274,漯河市,韶山路11号,,50,50,93,21,62,68,,68,68,16,21,6,8,0.4,0.6
2026-01-06T1800,1798A,118.5084,31.6838,马鞍山市,湖东路四小,细颗粒物(PM2.5),64,49,114,46,89,64,,67,67,19,31,4,8,0.5,1.1
2026-01-06T1800,1799A,118.5019,31.6449,马鞍山市,开发区,细颗粒物(PM2.5),64,59,111,46,90,58,,68,68,27,31,4,4,0.6,0.7
2026-01-06T1800,3633A,118.4914,31.681,马鞍山市,雨山,细颗粒物(PM2.5),62,60,116,44,86,66,,67,67,25,35,6,10,0.5,0.8
2026-01-06T1800,4191A,118.527362,31.722269,马鞍山市,慈湖高新区,细颗粒物(PM2.5),60,66,117,43,93,48,,59,59,35,42,9,10,1.6,1
2026-01-06T1800,1686A,111.0285,21.469,茂名市,电白南海,颗粒物(PM10),57,63,57,34,36,116,,88,88,20,17,11,12,0.8,0.8
2026-01-06T1800,1687A,110.9294,21.6533,茂名市,茂石化七小,颗粒物(PM10),51,51,43,27,26,94,,78,78,14,14,9,8,0.6,0.7
2026-01-06T1800,1688A,110.9108,21.6688,茂名市,健康路,,,41,39,27,27,103,,87,87,17,17,,14,0.8,0.9
2026-01-06T1800,1689A,110.8592,21.6826,茂名市,高岭,,46,46,50,29,24,105,,87,87,13,15,7,14,/,/
2026-01-06T1800,3450A,111.0101,21.5165,茂名市,电白水东,颗粒物(PM10),54,58,53,29,32,114,,83,83,11,11,9,11,/,/
2026-01-06T1800,2540A,103.8414,30.0871,眉山市,气象局,,47,47,56,27,39,75,,74,74,22,24,8,9,0.6,0.6
2026-01-06T1800,3148A,103.829,30.0563,眉山市,区人社局,,43,43,55,24,36,74,,73,73,18,21,5,7,0.6,0.6
2026-01-06T1800,4148A,103.8836,30.0695,眉山市,眉职院,,33,33,53,17,34,78,,73,73,11,20,1,3,0.5,0.6
2026-01-06T1800,1690A,116.1248,24.3307,梅州市,梅江月梅,,39,29,20,27,24,74,,75,75,11,12,/,/,/,/
2026-01-06T1800,1691A,116.0798,24.2719,梅州市,梅县新城,细颗粒物(PM2.5),67,,20,48,22,71,,76,76,15,13,7,6,0.5,0.5
2026-01-06T1800,3315A,116.1234,24.2994,梅州市,梅龙,,30,27,23,21,17,70,,71,71,9,10,8,8,0.5,0.5
2026-01-06T1800,1878A,104.7775,31.4741,绵阳市,富乐山,,48,43,54,33,39,77,,70,70,10,25,11,11,0.6,0.8
2026-01-06T1800,1880A,104.6698,31.4668,绵阳市,高新区自来水公司,细颗粒物(PM2.5),55,50,69,39,42,86,,73,73,18,36,9,8,0.5,0.8
2026-01-06T1800,3491A,104.6899,31.5324,绵阳市,西科大附属小学,细颗粒物(PM2.5),80,76,65,59,43,60,,56,56,39,34,9,9,0.5,1
2026-01-06T1800,3492A,104.5647,31.5343,绵阳市,安州区旅游局,细颗粒物(PM2.5),58,56,58,41,42,72,,64,64,35,30,11,13,1.0,1
2026-01-06T1800,4146A,104.7092,31.4972,绵阳市,科技城新区公安局,,45,45,61,31,40,80,,68,68,24,31,4,4,0.4,0.6
2026-01-06T1800,4226A,104.765114,31.453094,绵阳市,绵阳市气象局,,46,46,60,27,43,83,,63,63,21,35,4,7,0.5,0.8
2026-01-06T1800,1784A,129.61,44.561,牡丹江市,环保大楼,颗粒物(PM10),67,83,48,41,26,23,,42,40,48,27,10,7,0.8,0.9
2026-01-06T1800,1787A,129.6364,44.6075,牡丹江市,机车工厂,颗粒物(PM10),85,120,65,62,36,11,,37,36,51,34,9,12,0.8,0.6
2026-01-06T1800,1788A,129.6386,44.5462,牡丹江市,第一中学,细颗粒物(PM2.5),110,113,39,83,25,4,,36,34,62,31,12,6,1.2,0.6
2026-01-06T1800,4287A,129.5992,44.5964,牡丹江市,东晓云街98号,细颗粒物(PM2.5),138,133,58,105,48,10,,37,36,58,32,16,8,1.2,0.8
2026-01-06T1800,2531A,105.0703,29.61,内江市,市监测站,细颗粒物(PM2.5),68,81,47,49,45,73,,86,86,25,18,5,4,0.6,0.6
2026-01-06T1800,2533A,105.0657,29.5807,内江市,内江二中,,,,57,,41,65,,74,74,,23,4,4,,0.8
2026-01-06T1800,2534A,105.0407,29.5828,内江市,内江日报社,细颗粒物(PM2.5),54,55,48,38,39,69,,78,78,30,23,3,3,0.6,0.5
2026-01-06T1800,4147A,105.0433,29.6105,内江市,玉峰路西段888号,,50,35,55,35,37,82,,89,89,25,18,4,4,0.6,0.6
2026-01-06T1800,2628A,92.0653,31.4846,那曲市,那曲监测站,,28,15,49,14,34,87,,69,69,10,30,7,13,0.7,1.4
2026-01-06T1800,4243A,92.0515,31.4787,那曲市,那曲市委宣传部,,29,6,32,3,20,92,,68,68,1,23,3,8,0.5,1.4
2026-01-06T1800,1291A,115.8887,28.7006,南昌市,省林业公司,,45,41,47,31,45,78,,87,86,11,15,4,4,0.5,1.1
2026-01-06T1800,1292A,115.813,28.7443,南昌市,林科所,,35,34,51,24,44,64,,86,86,23,17,6,6,0.5,0.6
2026-01-06T1800,1294A,115.8518,28.687,南昌市,建工学校,,,63,58,35,48,76,,67,67,14,15,,12,0.6,0.7
2026-01-06T1800,1295A,115.8926,28.6425,南昌市,象湖,,45,38,52,31,47,63,,84,84,32,23,8,8,0.8,0.9
2026-01-06T1800,3046A,115.9084,28.6062,南昌市,机电学校,颗粒物(PM10),54,57,61,31,46,74,,90,90,27,22,4,5,0.7,0.7
2026-01-06T1800,3690A,115.9718,28.7032,南昌市,外国语学校,,49,37,54,34,47,77,,80,80,24,34,12,11,0.5,0.7
2026-01-06T1800,4106A,115.7923,28.6873,南昌市,工业二路,,42,41,55,29,44,83,,91,90,12,14,5,5,0.5,0.5
2026-01-06T1800,4192A,115.931587,28.686774,南昌市,南京东路235号,细颗粒物(PM2.5),57,44,54,40,49,89,,92,92,25,31,5,5,0.3,0.5
2026-01-06T1800,1906A,106.0791,30.8022,南充市,南充市委,细颗粒物(PM2.5),52,40,48,36,42,62,,60,60,30,28,5,4,0.6,0.7
2026-01-06T1800,1907A,106.1038,30.8215,南充市,南充炼油厂,细颗粒物(PM2.5),58,57,60,41,46,69,,66,66,27,30,6,6,0.4,0.6
2026-01-06T1800,4227A,106.108336,30.788436,南充市,梨树横街98号,,44,44,55,24,44,76,,72,72,22,31,6,6,0.5,0.8
2026-01-06T1800,4304A,106.1172,30.843,南充市,清泉寺北路188号,细颗粒物(PM2.5),59,,41,42,40,87,,79,79,16,21,7,6,0.3,0.7
2026-01-06T1800,4305A,106.067,30.7616,南充市,同庆路1号,,47,,51,29,43,71,,66,66,22,34,7,6,4.7,1.4
2026-01-06T1800,1151A,118.8033,32.1085,南京市,迈皋桥,,45,44,134,31,106,69,,72,72,1,31,3,2,0.3,0.8
2026-01-06T1800,1152A,118.7487,32.057,南京市,草场门,颗粒物(PM10),56,61,128,34,95,65,,68,68,20,37,5,6,0.3,0.6
2026-01-06T1800,1154A,118.770105,32.004342,南京市,中华门,"颗粒物(PM10),细颗粒物(PM2.5)",52,53,119,36,98,60,,66,66,15,37,4,5,0.4,0.8
2026-01-06T1800,1155A,118.8059,32.0329,南京市,瑞金路,细颗粒物(PM2.5),62,51,135,44,110,61,,65,65,24,51,4,4,0.7,1
2026-01-06T1800,1156A,118.7946,32.0774,南京市,玄武湖,,46,43,139,32,110,59,,63,63,20,27,4,4,0.5,1.2
2026-01-06T1800,1157A,118.6415,32.0964,南京市,浦口,,46,46,136,30,105,65,,66,66,19,27,7,7,0.6,0.9
2026-01-06T1800,1158A,118.730129,32.000956,南京市,奥体中心,"颗粒物(PM10),细颗粒物(PM2.5)",55,60,121,39,97,68,,73,73,31,41,6,6,0.5,0.7
2026-01-06T1800,1159A,118.9072,32.1047,南京市,仙林大学城,颗粒物(PM10),52,53,144,31,120,51,,59,59,25,52,6,6,0.6,1.2
2026-01-06T1800,3422A,118.8443,31.919,南京市,江宁彩虹桥,细颗粒物(PM2.5),52,47,125,36,93,58,,63,63,16,38,4,4,0.5,0.8
2026-01-06T1800,3427A,118.8497,32.3599,南京市,六合雄州,,,31,149,28,117,71,,69,69,14,33,11,9,,0.9
2026-01-06T1800,4086A,118.7641,32.0841,南京市,新模范马路66号,颗粒物(PM10),53,55,149,33,108,54,,60,60,21,42,4,5,0.7,1.1
2026-01-06T1800,4249A,118.8707617,31.34017673,南京市,汶溪路181号,细颗粒物(PM2.5),59,44,100,42,89,68,,72,72,22,29,6,6,0.5,0.7
2026-01-06T1800,4312A,119.019,31.6512,南京市,中山西路1号,,46,34,99,32,98,57,,62,62,18,34,3,4,0.6,0.9
2026-01-06T1800,1401A,108.3098,22.788,南宁市,二十一中,,26,26,22,11,12,57,,57,57,14,15,5,5,0.5,0.7
2026-01-06T1800,1402A,108.3135,22.8529,南宁市,北湖,,30,30,25,3,12,65,,66,66,14,19,6,5,0.6,0.7
2026-01-06T1800,1403A,108.3205,22.8222,南宁市,市监测站,,28,,24,19,22,58,,59,59,13,14,8,7,0.6,0.7
2026-01-06T1800,1404A,108.3828,22.8038,南宁市,大自然花园,,31,31,21,17,15,73,,72,72,12,14,6,6,0.6,0.7
2026-01-06T1800,1406A,108.2397,22.8462,南宁市,区农职院,,28,26,25,19,16,58,,63,62,11,15,7,8,0.7,0.7
2026-01-06T1800,1407A,108.3285,22.7356,南宁市,英华嘉园,,27,27,22,3,8,66,,67,67,10,10,4,3,0.6,0.6
2026-01-06T1800,3401A,108.4829,22.762,南宁市,红星社区,,31,31,18,21,14,78,,74,74,5,7,5,5,0.5,0.6
2026-01-06T1800,4132A,108.2927,23.1477,南宁市,起凤路9号,,25,18,22,17,20,62,,65,65,6,11,2,3,0.8,0.8
2026-01-06T1800,4221A,108.2177,22.7774,南宁市,乐贤路16号,,34,34,26,18,18,58,,62,62,11,15,4,3,0.4,0.5
2026-01-06T1800,2332A,118.1682,26.6371,南平市,南平市监测站,,29,26,20,20,16,57,,59,59,14,8,3,3,0.5,0.5
2026-01-06T1800,2334A,118.1757,26.6276,南平市,南平七中,,26,18,23,18,19,60,,59,59,10,10,4,4,0.5,0.6
2026-01-06T1800,1168A,120.9056,31.9669,南通市,狼山街道,细颗粒物(PM2.5),198,167,83,148,69,46,,37,37,32,28,3,3,1.2,0.9
2026-01-06T1800,1170A,120.8635,32.0231,南通市,城中,细颗粒物(PM2.5),186,170,97,140,71,42,,38,38,37,42,2,5,1.0,0.8
2026-01-06T1800,1171A,120.9376,31.9301,南通市,星湖花园,细颗粒物(PM2.5),205,173,90,155,71,37,,36,36,49,36,5,6,1.4,1.2
2026-01-06T1800,1172A,120.8053,32.046,南通市,紫琅学院,细颗粒物(PM2.5),179,160,117,135,88,46,,45,45,32,43,4,4,1.1,0.9
2026-01-06T1800,3291A,121.0631,32.0644,南通市,通州监测站,细颗粒物(PM2.5),213,175,84,163,69,48,,43,43,39,43,3,4,1.2,0.8
2026-01-06T1800,3432A,120.9348,31.9874,南通市,环境教育馆,细颗粒物(PM2.5),201,195,79,151,65,47,,38,38,43,39,4,5,1.1,0.7
2026-01-06T1800,4091A,120.8692,31.9885,南通市,洪江路,细颗粒物(PM2.5),200,199,96,150,68,43,,34,31,41,41,3,4,1.0,0.6
2026-01-06T1800,2404A,112.5338,33.0086,南阳市,瓦房庄,,31,31,77,17,62,72,,78,78,14,23,6,6,0.5,0.8
2026-01-06T1800,2405A,112.5002,32.9734,南阳市,汉画馆,,27,27,67,14,47,63,,78,78,23,25,6,6,0.4,0.8
2026-01-06T1800,2406A,112.5778,33.0144,南阳市,气象站,,31,31,76,12,51,74,,78,78,18,24,5,5,0.5,0.7
2026-01-06T1800,2407A,112.548,32.9687,南阳市,理工学院,,32,32,67,11,45,73,,77,77,17,30,6,6,0.4,0.7
2026-01-06T1800,4008A,112.5233,32.9921,南阳市,卧龙区政府,,26,26,68,16,51,65,,75,74,20,24,5,5,0.4,0.7
2026-01-06T1800,1234A,121.8352,29.9111,宁波市,区环保大楼,细颗粒物(PM2.5),122,119,127,92,102,40,,75,75,62,47,7,7,1.0,1.1
2026-01-06T1800,1235A,121.5595,29.8208,宁波市,万里学院,细颗粒物(PM2.5),120,114,113,91,92,60,,81,81,37,34,4,5,0.7,0.8
2026-01-06T1800,1236A,121.713,29.9564,宁波市,龙赛医院,细颗粒物(PM2.5),119,108,119,90,102,56,,72,72,40,45,3,4,0.8,0.9
2026-01-06T1800,1240A,121.5855,29.8635,宁波市,太古小学,细颗粒物(PM2.5),127,112,111,96,92,64,,84,84,31,27,1,18,0.7,0.9
2026-01-06T1800,1241A,121.5239,29.8673,宁波市,市环境监测中心,细颗粒物(PM2.5),107,114,97,80,79,54,,77,77,37,28,6,6,0.9,0.9
2026-01-06T1800,2871A,121.6156,29.9015,宁波市,万里国际学校,细颗粒物(PM2.5),132,119,113,100,100,58,,78,78,38,37,3,4,0.8,0.8
2026-01-06T1800,3710A,121.5593,29.8976,宁波市,白沙活动中心,细颗粒物(PM2.5),122,102,96,92,91,56,,76,76,42,35,4,5,0.7,0.8
2026-01-06T1800,4095A,121.8962,29.7529,宁波市,中科路88号,细颗粒物(PM2.5),139,,106,106,106,59,,86,83,39,24,5,5,0.8,1
2026-01-06T1800,2341A,119.5387,26.6611,宁德市,宁德市监测站,,26,26,27,16,22,59,,47,47,12,22,5,6,0.5,0.5
2026-01-06T1800,3209A,119.5231,26.6562,宁德市,宁德一中,,29,23,28,20,25,60,,48,48,8,17,5,5,0.5,0.5
2026-01-06T1800,2618A,98.859,25.8541,怒江傈僳族自治州,州监测站,,25,25,30,15,19,79,,73,73,10,11,6,6,0.4,0.4
2026-01-06T1800,2619A,98.8607,25.8168,怒江傈僳族自治州,泸水一中,,33,33,26,13,20,69,,62,62,12,17,6,6,0.5,0.6
2026-01-06T1800,1888A,101.6891,26.571,攀枝花市,弄弄坪,,41,41,51,23,32,84,,72,72,15,23,11,10,0.6,0.9
2026-01-06T1800,1889A,101.577,26.5914,攀枝花市,河门口,,38,38,59,23,35,85,,69,69,15,26,17,22,0.9,1.3
2026-01-06T1800,1891A,101.7365,26.4986,攀枝花市,仁和,,44,44,42,27,27,71,,71,71,26,20,11,9,0.8,0.7
2026-01-06T1800,2835A,101.7222,26.567,攀枝花市,四十中小,,40,40,47,25,28,82,,73,73,10,32,13,16,0.8,1.1
2026-01-06T1800,1604A,122.0303,41.1489,盘锦市,开发区,细颗粒物(PM2.5),68,67,48,49,44,10,,38,38,50,31,15,7,1.2,1.2
2026-01-06T1800,1605A,122.0486,41.0883,盘锦市,兴隆台,细颗粒物(PM2.5),58,52,44,41,40,10,,38,38,75,50,12,7,0.9,1.1
2026-01-06T1800,1606A,121.8297,41.1026,盘锦市,新生街道,颗粒物(PM10),51,52,35,32,31,13,,50,50,60,36,13,8,0.7,0.7
2026-01-06T1800,1832A,113.3257,33.7423,平顶山市,新华旅馆,,40,40,65,18,31,74,,79,78,14,14,5,6,0.3,0.4
2026-01-06T1800,1833A,113.2917,33.737,平顶山市,规划设计院,,,,53,,31,72,,76,76,,27,6,7,0.3,0.3
2026-01-06T1800,1834A,113.182,33.7738,平顶山市,平顶山工学院,,31,31,42,19,27,78,,81,81,14,13,7,7,0.2,0.2
2026-01-06T1800,3594A,112.8736,33.9068,平顶山市,石龙区,,40,40,56,16,27,77,,84,84,22,19,5,6,0.4,0.6
2026-01-06T1800,4116A,113.284,33.7139,平顶山市,姚电大道23号,,41,41,51,27,34,74,,78,78,20,16,8,9,0.4,0.5
2026-01-06T1800,2656A,106.6633,35.5338,平凉市,聚贤嘉苑,,28,28,33,17,21,89,,84,84,6,19,8,7,0.6,0.7
2026-01-06T1800,2657A,106.7021,35.5307,平凉市,博物馆,,28,28,38,17,27,89,,82,82,10,22,8,10,0.6,0.9
2026-01-06T1800,2348A,113.8384,27.6436,萍乡市,中医院,细颗粒物(PM2.5),63,70,84,45,57,90,,92,92,21,29,4,7,0.9,1.3
2026-01-06T1800,2350A,113.8677,27.6438,萍乡市,市环保局,细颗粒物(PM2.5),67,62,66,48,54,99,,100,100,21,22,11,14,0.7,0.9
2026-01-06T1800,2351A,113.8663,27.6202,萍乡市,安源区政府,细颗粒物(PM2.5),67,60,78,48,64,83,,79,79,19,24,8,10,1.0,1.2
2026-01-06T1800,4107A,113.8686,27.6668,萍乡市,联洪村委会,细颗粒物(PM2.5),79,78,76,58,52,93,,89,89,17,27,5,10,0.8,1.1
2026-01-06T1800,2319A,119.0142,25.4324,莆田市,荔城区仓后路,,29,29,22,14,15,50,,45,45,12,12,/,/,/,/
2026-01-06T1800,2320A,119.0016,25.4553,莆田市,莆田市监测站,,23,17,17,16,14,58,,50,50,4,8,2,3,0.5,0.6
2026-01-06T1800,2321A,119.112,25.4561,莆田市,涵江区六中,,24,24,21,15,16,58,,49,49,7,11,/,/,0.6,0.6
2026-01-06T1800,2322A,119.1014,25.3215,莆田市,秀屿区政府,,22,22,26,12,16,52,,48,48,9,11,3,2,0.8,0.8
2026-01-06T1800,2392A,115.0312,35.7636,濮阳市,环保局,,45,45,113,24,139,56,,54,54,23,28,8,8,0.6,1
2026-01-06T1800,3021A,115,35.7667,濮阳市,濮水河管理处,颗粒物(PM10),57,63,143,19,112,45,,55,55,20,40,8,8,0.6,1.2
2026-01-06T1800,4118A,115.0552,35.7816,濮阳市,中原东路68号,颗粒物(PM10),58,66,155,30,102,59,,60,60,24,29,8,8,0.6,1
2026-01-06T1800,4216A,115.0923632,35.76857718,濮阳市,任丘路479号,颗粒物(PM10),55,60,127,38,111,52,,52,52,29,39,8,8,0.5,1
2026-01-06T1800,2601A,100.9801,22.7634,普洱市,市环保局,,34,34,42,14,13,59,,58,58,11,11,4,4,0.4,0.5
2026-01-06T1800,2602A,100.9763,22.8237,普洱市,普洱第二中学,,32,26,35,22,17,72,,60,60,6,16,5,5,0.4,0.5
2026-01-06T1800,3345A,131.0413,45.7795,七台河市,中波台,,49,49,50,22,28,50,,46,46,20,23,11,11,0.5,0.5
2026-01-06T1800,3637A,131.0136,45.7688,七台河市,人民广场,,50,50,54,29,39,48,,45,45,27,30,12,13,0.6,0.7
2026-01-06T1800,3684A,130.8639,45.8144,七台河市,新建矿广场,颗粒物(PM10),64,78,53,36,31,17,,42,39,48,23,12,10,0.6,0.4
2026-01-06T1800,1779A,123.9307,47.3641,齐齐哈尔市,安居小区,细颗粒物(PM2.5),87,94,49,64,28,23,,40,31,43,26,12,12,0.9,0.7
2026-01-06T1800,1780A,123.9497,47.3389,齐齐哈尔市,中心广场,细颗粒物(PM2.5),89,100,45,66,30,9,,37,23,55,29,10,10,1.0,0.7
2026-01-06T1800,1781A,123.9483,47.3229,齐齐哈尔市,农牧车辆厂,细颗粒物(PM2.5),77,75,54,56,26,5,,32,17,55,30,5,4,0.6,0.6
2026-01-06T1800,1783A,123.9442,47.2994,齐齐哈尔市,市环境监测站,细颗粒物(PM2.5),75,84,54,55,31,13,,39,22,54,27,10,10,1.0,0.7
2026-01-06T1800,3662A,123.6341,47.2079,齐齐哈尔市,富区青少年活动中心,细颗粒物(PM2.5),110,107,87,83,45,18,,30,24,43,24,10,10,1.0,1
2026-01-06T1800,2591A,107.9765,26.5724,黔东南苗族侗族自治州,市环境监测站,,38,36,33,26,27,54,,55,55,13,9,2,6,0.6,0.6
2026-01-06T1800,2881A,107.8909,26.531,黔东南苗族侗族自治州,凯里学院,,36,36,32,22,26,52,,53,53,16,12,4,4,0.8,0.7
2026-01-06T1800,2593A,107.5223,26.2371,黔南布依族苗族自治州,小围寨,,45,41,23,31,21,56,,50,50,8,7,7,5,0.8,0.8
2026-01-06T1800,3538A,107.5175,26.2977,黔南布依族苗族自治州,沙坝,,45,36,28,31,23,58,,52,52,11,8,9,6,0.8,0.8
2026-01-06T1800,2589A,104.9022,25.0943,黔西南布依族苗族自治州,场坝街,,41,41,32,22,21,54,,52,52,16,10,9,5,0.7,0.6
2026-01-06T1800,2590A,104.8812,25.0994,黔西南布依族苗族自治州,坪东大道,,33,32,28,23,22,56,,54,54,15,10,7,6,0.7,0.7
2026-01-06T1800,2502A,108.6238,21.9667,钦州市,市环保站,,46,46,41,19,18,75,,73,73,15,15,2,3,0.7,0.8
2026-01-06T1800,2503A,108.655,21.9481,钦州市,沙埠小学,颗粒物(PM10),63,76,44,14,15,66,,69,69,27,20,4,4,0.7,0.6
2026-01-06T1800,2504A,108.5989,21.7435,钦州市,港区一小,,45,45,45,21,21,68,,65,65,20,22,6,7,0.6,0.7
2026-01-06T1800,3404A,108.5959,21.9634,钦州市,北职校,,,,29,,21,72,,72,72,,7,,8,0.6,0.6
2026-01-06T1800,1046A,119.5247,39.9346,秦皇岛市,建设大厦,颗粒物(PM10),52,54,73,30,44,47,,63,63,33,46,9,16,0.5,1.1
2026-01-06T1800,3132A,119.5979,39.938,秦皇岛市,文明里,,48,48,67,24,30,49,,61,61,29,40,13,19,0.3,0.9
2026-01-06T1800,4066A,119.7458,39.9952,秦皇岛市,南园路157号,颗粒物(PM10),57,64,83,22,40,27,,56,56,55,51,13,14,0.7,1.2
2026-01-06T1800,4067A,119.5131,39.8858,秦皇岛市,翠岛大街1号,,,33,86,15,47,55,,36,,,56,,21,0,1.4
2026-01-06T1800,4198A,119.509013,39.825305,秦皇岛市,北戴河轮滑馆,,37,37,82,15,49,61,,65,65,23,54,5,12,0.6,1.2
2026-01-06T1800,1310A,120.404,36.0625,青岛市,市南区东部子站,细颗粒物(PM2.5),201,202,92,151,63,51,,62,62,60,42,11,14,1.3,0.9
2026-01-06T1800,1311A,120.362344,36.10282,青岛市,四方区子站,细颗粒物(PM2.5),208,249,141,158,72,46,,55,55,65,44,12,8,1.3,0.9
2026-01-06T1800,1312A,120.294373,36.054183,青岛市,市南区西部子站,细颗粒物(PM2.5),211,212,97,161,69,43,,59,59,68,41,8,7,1.3,0.8
2026-01-06T1800,1313A,120.4581,36.0858,青岛市,崂山区子站,细颗粒物(PM2.5),180,193,88,136,58,49,,64,64,67,44,18,14,1.4,1
2026-01-06T1800,1315A,120.3945,36.3083,青岛市,城阳区子站,细颗粒物(PM2.5),182,244,110,137,61,21,,74,57,96,53,12,10,1.6,1.1
2026-01-06T1800,3642A,120.3454,36.0735,青岛市,市北区南部,细颗粒物(PM2.5),195,205,93,146,65,45,,54,54,55,45,4,7,1.2,0.8
2026-01-06T1800,3643A,120.3897,36.18,青岛市,李沧区北部,细颗粒物(PM2.5),218,195,96,168,72,31,,44,44,76,52,10,12,1.4,1.1
2026-01-06T1800,4110A,120.5222,36.4089,青岛市,盟旺路653号,细颗粒物(PM2.5),208,229,120,158,78,48,,61,61,69,55,8,9,1.3,0.9
2026-01-06T1800,4290A,120.196923,35.954556,青岛市,珠江路669号,细颗粒物(PM2.5),221,195,91,171,73,72,,68,68,46,40,12,14,1.3,0.9
2026-01-06T1800,4291A,120.0424,35.8656,青岛市,黄岛区人民政府广场,细颗粒物(PM2.5),228,227,120,178,89,48,,67,67,68,56,9,11,1.6,1.4
2026-01-06T1800,1703A,113.0218,23.7086,清远市,凤城街办,,48,41,27,33,22,73,,74,74,18,14,/,/,/,/
2026-01-06T1800,3025A,113.0479,23.6343,清远市,技师学院,颗粒物(PM10),52,53,27,32,18,72,,69,69,20,16,6,5,0.7,0.8
2026-01-06T1800,3318A,112.9898,23.7403,清远市,清新太和,细颗粒物(PM2.5),52,45,28,36,22,82,,82,82,14,10,6,5,0.5,0.6
2026-01-06T1800,3455A,113.076,23.72,清远市,清城东城,,46,45,26,32,19,73,,71,71,18,14,/,/,/,/
2026-01-06T1800,2661A,107.6325,35.7357,庆阳市,庆阳五中,,27,27,23,17,16,79,,83,83,16,10,5,4,0.5,0.4
2026-01-06T1800,2662A,107.6361,35.7067,庆阳市,市环保局,,33,33,29,17,15,79,,82,82,12,8,3,2,0.4,0.4
2026-01-06T1800,1916A,103.7897,25.5036,曲靖市,环境监测站,,20,20,27,7,15,48,,45,45,16,16,4,5,1.0,1
2026-01-06T1800,1917A,103.8013,25.5357,曲靖市,烟厂办公区,,21,21,24,11,14,53,,48,48,13,15,4,5,0.6,0.6
2026-01-06T1800,3376A,103.7926,25.4651,曲靖市,南苑二区,,22,22,25,11,16,52,,49,49,13,11,5,5,0.7,0.7
2026-01-06T1800,3377A,103.7442,25.5259,曲靖市,曲靖师范学院,,32,32,29,22,19,42,,50,50,19,14,8,4,0.6,0.8
2026-01-06T1800,1264A,118.8694,28.94,衢州市,环保大楼,,50,46,47,35,38,63,,67,67,24,24,/,/,/,/
2026-01-06T1800,1266A,118.8622,28.9809,衢州市,衢州学院,细颗粒物(PM2.5),52,46,46,36,39,69,,66,66,20,29,6,5,0.3,0.3
2026-01-06T1800,4097A,118.9646,28.9832,衢州市,衢州三中,,50,49,54,35,41,66,,61,61,25,28,6,5,0.5,0.5
2026-01-06T1800,1611A,118.5818,24.9116,泉州市,涂山街,,39,39,27,17,21,50,,43,43,9,14,2,3,0.6,0.6
2026-01-06T1800,1612A,118.597,24.8976,泉州市,津头埔,,29,29,29,18,23,51,,42,42,12,18,4,4,0.7,0.7
2026-01-06T1800,1613A,118.6669,24.9422,泉州市,万安,,32,32,32,15,21,42,,38,38,15,17,2,4,0.6,0.6
2026-01-06T1800,4105A,118.6355,24.9148,泉州市,霞新路6号,,,18,30,16,23,49,,40,40,,18,/,/,0.5,0.6
2026-01-06T1800,2626A,88.8873,29.2723,日喀则市,日喀则监测站,,34,10,60,3,27,106,,84,84,3,26,9,13,0.4,1
2026-01-06T1800,3726A,88.8775,29.2425,日喀则市,林业技术推广中心,,31,17,45,6,24,98,,47,,3,13,11,12,0.2,0.7
2026-01-06T1800,1659A,119.4711,35.421,日照市,监测站,细颗粒物(PM2.5),158,156,117,120,85,44,,47,47,62,61,14,16,1.2,1.3
2026-01-06T1800,1660A,119.523,35.4216,日照市,市政府广场,细颗粒物(PM2.5),130,129,104,99,77,52,,53,53,48,56,13,17,0.8,1
2026-01-06T1800,1661A,119.5511,35.4113,日照市,港务局,细颗粒物(PM2.5),147,144,116,112,85,45,,50,50,58,63,12,15,1.1,1.2
2026-01-06T1800,3507A,119.5326,35.4627,日照市,职业技术学院,细颗粒物(PM2.5),147,183,107,112,68,47,,55,55,67,59,11,13,1.3,1.2
2026-01-06T1800,3604A,119.3267,35.1043,日照市,岚山环保分局,细颗粒物(PM2.5),82,92,97,60,72,39,,50,50,55,51,12,20,2.3,1.1
2026-01-06T1800,1835A,111.1922,34.7752,三门峡市,市政府,,,,34,,29,,,85,85,,15,,9,,0.3
2026-01-06T1800,1836A,111.1588,34.794,三门峡市,开发区,,26,26,38,18,26,80,,77,77,10,10,5,6,0.3,0.4
2026-01-06T1800,3039A,111.1911,34.7829,三门峡市,三门峡市第一小学,,27,27,37,14,22,76,,78,78,16,13,7,8,0.5,0.5
2026-01-06T1800,3598A,111.1031,34.719,三门峡市,富达温泉假日酒店,,36,36,43,15,29,73,,79,79,20,17,5,7,0.5,0.5
2026-01-06T1800,2324A,117.621,26.2626,三明市,三钢,,43,39,26,30,26,73,,59,59,12,11,5,5,0.9,1
2026-01-06T1800,2325A,117.6352,26.2714,三明市,三明二中,,46,46,23,22,21,65,,55,55,11,10,4,5,0.7,0.7
2026-01-06T1800,2326A,117.6028,26.2377,三明市,三元区政府,,36,34,27,25,23,58,,54,54,19,13,4,3,0.7,0.7
2026-01-06T1800,1877A,109.4962,18.2682,三亚市,河西子站,,,69,49,34,35,87,,116,107,,10,4,4,,0.6
2026-01-06T1800,3540A,109.7348,18.3443,三亚市,君悦子站,,35,35,51,22,30,77,,114,94,9,9,6,6,0.6,0.6
2026-01-06T1800,4135A,109.1714,18.3739,三亚市,城东小学站,细颗粒物(PM2.5),64,60,38,46,32,117,,55,,12,14,/,/,/,/
2026-01-06T1800,2624A,91.7592,29.234,山南市,山南监测站,,40,40,35,8,13,91,,73,73,5,16,6,6,0.3,0.4
2026-01-06T1800,2625A,91.7701,29.2436,山南市,山南人民医院,,27,16,28,8,13,86,,71,71,5,14,6,4,0.3,0.4
2026-01-06T1800,1674A,116.6795,23.3666,汕头市,金平子站,,,35,32,,18,74,,66,66,22,18,,7,,0.8
2026-01-06T1800,1675A,116.7248,23.3632,汕头市,龙湖子站,,36,36,30,16,15,74,,65,65,16,15,10,11,/,/
2026-01-06T1800,1676A,116.7257,23.2774,汕头市,濠江子站,,35,35,30,19,22,71,,63,63,20,18,9,9,/,/
2026-01-06T1800,1677A,116.7518,23.4712,汕头市,澄海子站,,40,40,27,17,15,80,,71,71,15,13,6,6,0.5,0.3
2026-01-06T1800,1678A,116.6088,23.2539,汕头市,潮阳子站,,,,32,,17,,,101,72,,17,,6,,0.6
2026-01-06T1800,3444A,116.4539,23.2684,汕头市,潮南峡山,,34,34,27,20,17,83,,79,79,12,11,9,8,0.6,0.6
2026-01-06T1800,3624A,116.4069,23.2533,汕头市,潮南子站,,44,44,35,22,21,70,,72,72,21,14,6,6,/,/
2026-01-06T1800,1693A,115.3653,22.7751,汕尾市,市环保局,,28,28,25,17,19,75,,73,73,11,8,7,7,0.5,0.5
2026-01-06T1800,1695A,115.362,22.7926,汕尾市,新城中学,,31,31,20,17,14,78,,75,75,7,5,4,4,0.5,0.5
2026-01-06T1800,2645A,109.9155,33.8714,商洛市,监测站,,26,18,25,11,16,82,,88,88,17,14,4,4,0.2,0.3
2026-01-06T1800,3045A,109.9647,33.8486,商洛市,商州区中学,,35,35,28,13,19,76,,88,88,23,14,6,4,0.5,0.5
2026-01-06T1800,2408A,115.6701,34.4283,商丘市,环境监测站,细颗粒物(PM2.5),64,69,135,46,115,61,,66,66,23,26,4,3,0.2,0.5
2026-01-06T1800,2409A,115.6458,34.4047,商丘市,粮食局,细颗粒物(PM2.5),57,59,134,40,112,54,,62,62,28,31,6,5,0.8,1.1
2026-01-06T1800,3171A,115.6069,34.4465,商丘市,梁园区档案局,细颗粒物(PM2.5),60,57,127,43,115,52,,59,59,24,30,6,5,0.4,0.7
2026-01-06T1800,4119A,115.6701,34.3767,商丘市,北海东路185号,颗粒物(PM10),53,56,138,31,110,60,,64,64,24,31,4,3,0.4,0.7
2026-01-06T1800,4120A,115.6172,34.3704,商丘市,中山大街3号,细颗粒物(PM2.5),70,60,152,51,124,52,,65,65,31,39,5,4,0.2,0.5
2026-01-06T1800,1141A,121.401,31.2382,上海市,普陀,细颗粒物(PM2.5),195,164,107,146,96,52,,66,66,48,66,6,7,1.1,0.9
2026-01-06T1800,1142A,121.4774,31.2043,上海市,十五厂,细颗粒物(PM2.5),176,156,96,133,83,57,,69,69,45,53,6,8,1.2,1
2026-01-06T1800,1143A,121.4673,31.3011,上海市,虹口,细颗粒物(PM2.5),176,160,107,133,86,50,,59,59,41,57,7,8,1.0,0.9
2026-01-06T1800,1147A,121.4253,31.226,上海市,静安监测站,细颗粒物(PM2.5),180,161,104,136,87,58,,69,69,46,60,6,8,0.9,0.8
2026-01-06T1800,1148A,121.7029,31.1905,上海市,浦东川沙,细颗粒物(PM2.5),155,152,108,118,82,56,,68,68,42,59,7,8,1.0,1
2026-01-06T1800,1149A,121.5339,31.229,上海市,浦东新区监测站,细颗粒物(PM2.5),178,160,95,134,84,61,,69,69,47,58,6,7,1.1,1
2026-01-06T1800,1150A,121.5776,31.2038,上海市,浦东张江,细颗粒物(PM2.5),158,159,101,120,79,67,,74,74,36,51,6,8,1.0,0.9
2026-01-06T1800,3265A,121.4242,31.3303,上海市,宝山庙行,细颗粒物(PM2.5),186,170,108,140,90,49,,61,61,45,62,6,7,1.0,0.8
2026-01-06T1800,3266A,121.8789,31.4662,上海市,崇明上实东滩,细颗粒物(PM2.5),192,180,97,144,77,52,,73,71,36,23,4,5,0.9,0.7
2026-01-06T1800,3268A,121.316,31.2839,上海市,嘉定南翔,细颗粒物(PM2.5),188,156,112,141,113,57,,65,65,37,59,4,6,1.1,0.9
2026-01-06T1800,3269A,121.3357,30.7455,上海市,金山新城,细颗粒物(PM2.5),175,,113,132,122,76,,76,76,29,52,8,8,1.4,1.3
2026-01-06T1800,3270A,121.4996,31.0741,上海市,闵行浦江,细颗粒物(PM2.5),159,154,112,121,92,56,,69,69,48,63,7,8,0.9,0.8
2026-01-06T1800,3271A,121.2886,31.1663,上海市,青浦徐泾,细颗粒物(PM2.5),183,160,117,138,98,54,,66,66,42,64,4,6,1.2,1.1
2026-01-06T1800,3272A,121.2193,31.0382,上海市,松江图书馆,细颗粒物(PM2.5),135,160,133,103,79,70,,78,78,30,53,6,7,1.0,0.9
2026-01-06T1800,3273A,121.3904,31.206,上海市,长宁仙霞,细颗粒物(PM2.5),176,151,104,133,90,55,,63,63,47,66,7,8,0.9,0.8
2026-01-06T1800,3274A,121.7964,31.0507,上海市,浦东惠南,细颗粒物(PM2.5),166,142,105,126,89,62,,70,70,44,62,4,5,1.1,1
2026-01-06T1800,3544A,121.4891,30.925,上海市,奉贤南桥新城,细颗粒物(PM2.5),168,148,126,127,111,70,,80,80,37,61,8,9,1.2,1.2
2026-01-06T1800,4183A,121.417401,31.16637,上海市,冠生园路458号,细颗粒物(PM2.5),180,164,108,136,93,63,,67,67,49,69,5,6,1.0,0.8
2026-01-06T1800,4205A,121.541914,31.268301,上海市,宁武路151号,细颗粒物(PM2.5),182,159,98,137,82,58,,66,66,41,55,5,6,1.0,0.9
2026-01-06T1800,2382A,117.9758,28.4439,上饶市,市监测站,,38,38,39,26,24,92,,80,80,14,19,5,9,/,/
2026-01-06T1800,2383A,117.9521,28.4637,上饶市,凤凰光学,颗粒物(PM10),52,53,42,27,23,81,,82,82,18,19,7,15,0.7,0.7
2026-01-06T1800,3685A,117.897,28.4316,上饶市,双创科技城,,40,40,37,28,28,82,,82,82,23,25,5,8,0.6,0.7
2026-01-06T1800,4211A,118.190438,28.444845,上饶市,裕丰大道,细颗粒物(PM2.5),57,53,49,40,34,84,,73,73,22,22,13,17,0.6,0.7
2026-01-06T1800,1669A,113.5821,24.7733,韶关市,市八中,,,35,33,29,25,60,,54,54,14,15,8,8,,0.6
2026-01-06T1800,1671A,113.5916,24.7973,韶关市,园林处,,40,,27,28,25,62,,57,57,16,13,11,9,/,/
2026-01-06T1800,1673A,113.5971,24.6864,韶关市,曲江监测站,,39,31,28,27,22,62,,55,55,12,13,8,8,0.4,0.4
2026-01-06T1800,2809A,113.6668,24.7756,韶关市,大学路288号,,30,29,25,21,24,44,,54,54,12,15,6,7,/,/
2026-01-06T1800,3622A,113.5556,24.8082,韶关市,碧湖山庄,,38,34,35,26,29,65,,61,61,14,14,8,7,0.5,0.5
2026-01-06T1800,2464A,111.5277,27.2442,邵阳市,市化工厂,,39,36,59,27,44,84,,82,82,21,23,9,9,0.9,1.1
2026-01-06T1800,2466A,111.4327,27.2276,邵阳市,市环保局,,48,37,45,33,44,89,,82,82,18,17,6,6,0.8,1
2026-01-06T1800,4218A,111.446,27.2472,邵阳市,北塔二期4-26地块,,39,39,48,26,48,75,,73,73,23,19,4,5,0.8,0.9
2026-01-06T1800,4219A,111.4739,27.2282,邵阳市,邵水西路287号,"颗粒物(PM10),细颗粒物(PM2.5)",55,60,64,39,48,94,,88,88,22,22,12,12,0.6,0.7
2026-01-06T1800,1247A,120.6053,29.9927,绍兴市,城东开发委,细颗粒物(PM2.5),80,68,82,59,69,54,,66,66,31,32,7,8,0.7,0.7
2026-01-06T1800,2921A,120.5482,30.0003,绍兴市,树下王站,细颗粒物(PM2.5),77,70,85,56,65,52,,67,67,28,31,6,6,0.8,0.9
2026-01-06T1800,3408A,120.5685,29.936,绍兴市,绍兴中专,细颗粒物(PM2.5),72,74,84,52,66,52,,68,68,29,31,7,7,0.7,0.8
2026-01-06T1800,3409A,120.4905,30.086,绍兴市,柯桥区政府,细颗粒物(PM2.5),68,63,83,49,64,58,,66,66,27,37,4,5,0.6,0.7
2026-01-06T1800,3410A,120.8751,30.0249,绍兴市,重华小学,细颗粒物(PM2.5),100,96,85,75,72,51,,63,63,41,35,6,5,0.8,0.8
2026-01-06T1800,3411A,120.837,30.0137,绍兴市,上虞中学,细颗粒物(PM2.5),103,90,85,77,71,49,,65,63,38,39,8,10,0.8,0.8
2026-01-06T1800,3560A,120.4715,30.0414,绍兴市,柯桥妇保,细颗粒物(PM2.5),62,51,74,44,62,60,,67,67,24,26,5,5,0.8,0.9
2026-01-06T1800,3658A,120.6156,30.0762,绍兴市,袍江中学,细颗粒物(PM2.5),103,93,95,77,79,51,,62,62,41,40,6,6,0.9,0.9
2026-01-06T1800,1356A,114.0948,22.5506,深圳市,通心岭子站,,43,43,40,20,21,85,,91,91,15,13,8,7,0.6,0.7
2026-01-06T1800,1357A,114.1153,22.5713,深圳市,洪湖,,40,40,41,23,24,87,,88,88,16,16,8,8,0.6,0.6
2026-01-06T1800,1358A,113.9823,22.5398,深圳市,华侨城,,35,35,37,23,25,90,,85,85,16,19,/,/,/,/
2026-01-06T1800,1359A,113.9181,22.517,深圳市,南海子站,,46,46,44,28,27,95,,92,92,20,18,6,6,0.7,0.7
