timepoint,stationcode,longitude,latitude,area,positionname,primarypollutant,aqi,pm10,pm10_24h,pm2_5,pm2_5_24h,o3,o3_24h,o3_8h,o3_8h_24h,no2,no2_24h,so2,so2_24h,co,co_24h
2024-08-06T2100,2566A,102.1879,31.914,阿坝藏族羌族自治州,州农科所,颗粒物(PM10),51,51,21,18,8,33,,83,74,37,15,11,7,0,0
2024-08-06T2100,2568A,102.2502,31.8896,阿坝藏族羌族自治州,马师校,,20,16,13,14,8,45,,94,90,28,21,4,5,0.3,0.3
2024-08-06T2100,3994A,102.2165,31.9024,阿坝藏族羌族自治州,马尔康中学西区,,25,25,14,17,13,56,,98,95,17,9,4,4,0.3,0.3
2024-08-06T2100,2695A,80.292,41.1694,阿克苏地区,电视台,颗粒物(PM10),66,81,52,29,19,125,,109,109,9,19,4,4,0.4,0.5
2024-08-06T2100,2696A,80.2613,41.1551,阿克苏地区,艺术中心,颗粒物(PM10),57,63,46,21,16,125,,111,111,3,21,3,4,0.5,0.6
2024-08-06T2100,2204A,105.6467,38.8363,阿拉善盟,西城区西花园,,40,36,41,12,12,127,,144,138,8,12,7,7,0.7,0.7
2024-08-06T2100,2205A,105.6985,38.8411,阿拉善盟,蒙二幼,,37,15,27,8,11,116,,130,124,6,6,9,9,0.4,0.3
2024-08-06T2100,2206A,105.724,38.8516,阿拉善盟,环保局新楼,,37,14,24,7,9,118,,137,128,7,6,8,8,0.3,0.3
2024-08-06T2100,2708A,88.1264,47.8517,阿勒泰地区,市站,,32,13,19,10,7,101,,107,107,16,10,7,7,0.6,0.6
2024-08-06T2100,2630A,80.1161,32.5,阿里地区,阿里监测站,,35,6,3,3,3,112,,119,118,14,6,7,7,0.3,0.3
2024-08-06T2100,3192A,80.0903,32.5028,阿里地区,阿里藏医院,,,,,,,126,,129,129,9,5,6,6,0.3,0.2
2024-08-06T2100,2642A,109.0318,32.6537,安康市,香溪洞,,19,19,18,13,10,57,,80,77,3,4,5,5,0.3,0.3
2024-08-06T2100,2643A,109.0281,32.6939,安康市,安康市监测站,,32,32,20,12,9,42,,78,72,11,7,7,7,0.6,0.5
2024-08-06T2100,2644A,109.0072,32.6975,安康市,汉滨区检察院,,39,39,21,24,9,40,,78,74,12,6,7,7,0.4,0.4
2024-08-06T2100,2291A,117.0809,30.5177,安庆市,环科院,,32,24,28,22,17,101,,126,114,16,25,7,13,0.6,0.7
2024-08-06T2100,2292A,117.0331,30.5119,安庆市,马山宾馆,,40,,21,28,17,105,,125,116,14,23,8,13,0.7,0.6
2024-08-06T2100,2294A,116.9896,30.6145,安庆市,安庆大学,,45,45,29,26,16,92,,128,107,8,15,8,10,0.4,0.4
2024-08-06T2100,3173A,117.0598,30.5351,安庆市,市人大,,38,38,27,25,17,100,,122,109,9,15,7,11,0.5,0.6
2024-08-06T2100,3122A,105.9606,26.2611,安顺市,伍家关,,,,,,,,,,,,,,,,
2024-08-06T2100,3123A,105.9408,26.2431,安顺市,凤凰山,,20,15,12,14,8,49,,68,65,9,5,6,6,0.5,0.6
2024-08-06T2100,3124A,105.9439,26.2564,安顺市,金钟山,,18,14,12,12,10,54,,72,68,7,4,5,5,0.5,0.5
2024-08-06T2100,3125A,105.8983,26.2481,安顺市,娄家坡,,18,14,12,12,8,54,,69,66,6,3,6,6,0.5,0.5
2024-08-06T2100,1818A,114.4839,36.0621,安阳市,棉研所,,,,,,,,,,,,,,,,
2024-08-06T2100,1819A,114.3551,36.1017,安阳市,红庙街,,31,,37,13,16,97,,120,110,2,6,3,4,0.2,0.4
2024-08-06T2100,1820A,114.361,36.0681,安阳市,银杏小区,,,24,28,,13,95,,117,107,2,6,3,3,0.4,0.5
2024-08-06T2100,3141A,114.3922,36.0878,安阳市,信访局,,34,25,29,9,12,108,,126,119,2,3,1,2,0.5,0.6
2024-08-06T2100,3669A,114.4705,36.0637,安阳市,左辅环卫站,,48,48,31,16,17,87,,117,110,7,7,4,4,0.5,0.6
2024-08-06T2100,3703A,114.2917,36.0949,安阳市,安钢职工学校,,29,22,38,10,21,90,,120,105,3,8,3,3,0.4,0.6
2024-08-06T2100,1748A,123.044,41.1196,鞍山市,深沟寺,,30,30,29,14,17,71,,90,84,13,11,4,4,0.8,0.9
2024-08-06T2100,1749A,123.011,41.0931,鞍山市,太阳城,,36,35,30,25,18,65,,108,94,12,10,4,4,0.8,0.8
2024-08-06T2100,1750A,123.0485,41.1442,鞍山市,太平,,28,28,40,16,26,79,,95,81,20,25,3,5,0.8,1.1
2024-08-06T2100,1751A,122.9642,41.0971,鞍山市,铁西三道街,,41,41,40,23,24,84,,127,120,21,22,4,4,1.1,1.3
2024-08-06T2100,1752A,122.9341,41.0833,鞍山市,铁西工业园区,,40,40,37,27,23,69,,127,116,17,14,4,5,1.1,1.4
2024-08-06T2100,1753A,123.022,41.0821,鞍山市,明达新区,,34,34,26,22,17,70,,110,101,12,9,2,3,0.8,0.7
2024-08-06T2100,1754A,123.1289,41.0228,鞍山市,千山,,,,,,,,,,,,,,,,
2024-08-06T2100,2195A,107.4212,40.761,巴彦淖尔市,附二中,颗粒物(PM10),60,69,64,30,28,106,,123,123,14,13,5,7,0.5,0.4
2024-08-06T2100,2196A,107.37,40.7372,巴彦淖尔市,市环保大楼,颗粒物(PM10),64,78,66,8,18,90,,106,106,30,11,4,4,0.7,0.4
2024-08-06T2100,1956A,86.1472,41.7538,巴音郭楞蒙古自治州,孔雀公园,,28,27,76,6,27,88,,106,100,19,19,5,6,0.3,0.3
2024-08-06T2100,1957A,86.1972,41.7166,巴音郭楞蒙古自治州,棉纺厂,,30,30,105,16,28,87,,94,94,15,21,4,5,0.3,0.2
2024-08-06T2100,1958A,86.2357,41.7173,巴音郭楞蒙古自治州,经济开发区,,32,,47,15,20,100,,100,100,5,7,4,6,0.2,0.2
2024-08-06T2100,2914A,106.7677,31.8794,巴中市,苏山坪,,26,24,18,13,11,81,,88,88,6,5,4,5,0.5,0.5
2024-08-06T2100,3182A,106.7656,31.8545,巴中市,丽阳花园,,33,30,20,23,14,44,,88,82,17,11,3,3,0.6,0.6
2024-08-06T2100,3183A,106.7418,31.8654,巴中市,圣泉水务公司,,28,25,18,19,13,37,,88,81,26,13,4,4,0.7,0.6
2024-08-06T2100,3616A,106.7616,31.8344,巴中市,市中心医院,,28,28,22,16,19,44,,87,82,25,12,3,3,0.6,0.5
2024-08-06T2100,2235A,122.7911,45.6077,白城市,洮北区环保局,,33,33,18,15,7,60,,88,82,14,8,3,7,0.6,0.7
2024-08-06T2100,2236A,122.8738,45.5725,白城市,市环保局,,29,29,24,12,8,38,,81,70,17,9,5,4,0.6,0.6
2024-08-06T2100,2231A,126.4219,41.9171,白山市,喜丰,,26,26,21,14,6,17,,72,59,10,11,7,8,1.1,1
2024-08-06T2100,2232A,126.4077,41.9419,白山市,环保局,,26,26,21,3,8,24,,69,60,11,11,8,9,0.6,0.6
2024-08-06T2100,2647A,104.1724,36.5446,白银市,第三小学,,31,13,30,9,13,98,,118,117,16,10,21,28,0.7,0.6
2024-08-06T2100,2648A,104.1465,36.5482,白银市,动力公司,,29,,27,8,12,90,,116,114,10,10,4,20,0.1,0.2
2024-08-06T2100,2512A,106.6103,23.9011,百色市,市监测站,,29,27,41,20,27,59,,118,103,13,13,22,12,0.8,1.2
2024-08-06T2100,2513A,106.6538,23.8859,百色市,市中心血站,,29,26,49,20,22,52,,118,100,18,15,18,10,0.8,0.8
2024-08-06T2100,3406A,106.6085,23.8798,百色市,祈福高中,,25,25,46,15,21,57,,116,98,11,14,4,7,0.6,0.8
2024-08-06T2100,2270A,117.396,32.939,蚌埠市,工人疗养院,,27,19,30,6,6,86,,128,118,1,3,7,8,0.3,0.3
2024-08-06T2100,2271A,117.3605,32.9427,蚌埠市,百货大楼,,26,21,31,10,8,82,,136,124,4,3,5,6,0.4,0.4
2024-08-06T2100,2273A,117.4185,32.8911,蚌埠市,蚌埠学院,,27,24,28,12,11,84,,142,129,9,9,6,8,0.5,0.4
2024-08-06T2100,2274A,117.3533,32.9673,蚌埠市,淮上区政府,,30,,23,11,9,94,,138,129,1,3,7,8,0.3,0.3
2024-08-06T2100,2275A,117.3145,32.8977,蚌埠市,高新区,,23,19,31,8,11,71,,149,134,6,6,5,6,0.5,0.5
2024-08-06T2100,3715A,117.3092,32.9314,蚌埠市,蚌埠田家炳中学,,25,21,35,9,11,78,,143,129,3,3,7,9,0.4,0.4
2024-08-06T2100,1585A,109.8756,40.6532,包头市,市环境监测站,颗粒物(PM10),51,51,29,20,13,110,,162,151,30,27,12,13,0.7,0.7
2024-08-06T2100,1587A,109.9991,40.5842,包头市,包头八中,,50,50,34,17,13,132,,148,144,18,20,42,22,0.7,0.6
2024-08-06T2100,1588A,109.8538,40.6821,包头市,青山宾馆,,37,37,30,18,14,96,,168,156,33,28,9,13,0.6,0.7
2024-08-06T2100,1589A,109.8642,40.6288,包头市,惠龙物流,,41,41,27,19,11,116,,166,158,28,21,12,11,0.6,0.5
2024-08-06T2100,1590A,110.0377,40.5546,包头市,东河鸿龙湾,,42,42,29,17,12,108,,151,142,27,19,26,12,0.6,0.6
2024-08-06T2100,3283A,109.9154,40.5685,包头市,滨河大厦,,38,36,23,12,10,121,,157,150,22,24,8,8,0.6,0.6
2024-08-06T2100,3419A,109.9447,40.6261,包头市,包头市委党校,,47,47,34,18,13,95,,163,152,44,30,9,14,0.6,0.6
2024-08-06T2100,3683A,109.8331,40.6576,包头市,昆区政府,,45,45,29,20,14,110,,161,153,22,21,10,14,0.6,0.6
2024-08-06T2100,1930A,107.185,34.3063,宝鸡市,庙沟村,,46,46,34,20,18,78,,116,110,7,8,6,6,0.4,0.4
2024-08-06T2100,1931A,107.0708,34.3017,宝鸡市,竹园沟,,48,48,30,25,18,60,,128,111,17,12,4,4,0.5,0.5
2024-08-06T2100,1932A,107.1906,34.3672,宝鸡市,三陆医院,,45,44,43,31,25,130,,138,138,15,17,8,8,0.6,0.6
2024-08-06T2100,1933A,107.1431,34.3547,宝鸡市,监测站,,,,,,,,,,,,,,,,
2024-08-06T2100,1934A,107.1186,34.3739,宝鸡市,技工学校,细颗粒物(PM2.5),53,52,46,37,28,126,,137,136,19,16,8,9,0.6,0.6
2024-08-06T2100,1935A,107.3906,34.3528,宝鸡市,陈仓区环保局家属楼,,50,49,44,35,26,118,,142,141,22,18,8,9,0.6,0.2
2024-08-06T2100,1936A,107.2058,34.3497,宝鸡市,文理学院,,47,47,38,20,16,135,,142,142,14,16,9,9,0.7,0.7
2024-08-06T2100,1937A,107.2386,34.3622,宝鸡市,三迪小学,,40,31,42,28,24,118,,133,132,19,15,9,9,0.6,0.5
2024-08-06T2100,1051A,115.493,38.8632,保定市,游泳馆,,43,43,38,20,18,112,,170,152,19,20,3,2,0.2,0.3
2024-08-06T2100,1052A,115.5213,38.8959,保定市,华电二区,,,40,35,20,13,,,157,151,12,14,7,5,0.2,0.6
2024-08-06T2100,1053A,115.4713,38.9108,保定市,接待中心,,44,36,41,16,17,140,,164,158,6,9,3,3,0.4,0.4
2024-08-06T2100,1054A,115.4612,38.8416,保定市,地表水厂,,45,45,46,18,18,110,,156,143,12,12,1,1,0.3,0.3
2024-08-06T2100,3581A,115.31981,38.95208,保定市,满城区生态环境分局,,39,39,46,22,20,110,,164,148,12,19,2,2,0.3,0.4
2024-08-06T2100,3582A,115.47694,38.76408,保定市,清苑区第二中学,颗粒物(PM10),54,57,46,36,27,104,,157,140,9,11,3,3,0.4,0.4
2024-08-06T2100,3583A,115.62909,39.02311,保定市,徐水物探局,颗粒物(PM10),52,53,41,17,13,130,,152,148,8,13,3,3,0.2,0.2
2024-08-06T2100,4004A,115.4202,38.8656,保定市,双鹰农机,,42,42,43,20,16,129,,181,163,18,18,5,6,0.3,0.3
2024-08-06T2100,4034A,115.5150,38.8590,保定市,植保所站,,,39,36,24,17,,,176,164,10,14,4,4,0.2,0.3
2024-08-06T2100,2594A,99.1678,25.1081,保山市,市环境监测站,,,23,24,7,8,,,52,51,8,7,5,6,0.6,0.5
2024-08-06T2100,2595A,99.1711,25.1328,保山市,市环保局,,25,25,24,7,8,26,,59,54,6,6,6,6,0.4,0.4
2024-08-06T2100,1866A,109.2262,21.588,北海市,牛尾岭水库,,,,,,,,,,,,,,,,
2024-08-06T2100,1867A,109.1436,21.4086,北海市,海滩公园,,44,44,23,3,3,59,,63,63,4,4,3,4,0.7,0.7
2024-08-06T2100,1868A,109.0981,21.4661,北海市,新市环保局,,19,12,12,7,6,59,,64,63,8,4,2,2,0.5,0.5
2024-08-06T2100,1869A,109.1778,21.5233,北海市,北海工业园,,22,16,17,15,9,57,,65,63,7,6,5,4,0.5,0.5
2024-08-06T2100,3400A,109.1911,21.4415,北海市,龙潭自来水厂,,16,16,13,9,8,51,,55,54,4,5,6,6,0.5,0.5
2024-08-06T2100,1001A,116.3621,39.8784,北京市,万寿西宫,,48,44,40,19,18,152,,172,166,15,26,3,3,0.6,0.6
2024-08-06T2100,1002A,116.2202,40.2915,北京市,定陵,颗粒物(PM10),51,52,33,25,16,71,,182,167,2,2,3,3,0.5,0.5
2024-08-06T2100,1003A,116.4174,39.9289,北京市,东四,臭氧1小时,73,45,40,23,21,178,,189,181,18,28,2,2,0.7,0.7
2024-08-06T2100,1004A,116.4072,39.8863,北京市,天坛,,46,39,30,31,19,145,,168,158,18,23,3,3,0.6,0.6
2024-08-06T2100,1005A,116.462,39.9365,北京市,农展馆,臭氧1小时,53,44,39,22,20,162,,165,162,8,26,4,3,0.8,0.6
2024-08-06T2100,1006A,116.3392,39.9295,北京市,官园,,49,41,40,27,18,154,,177,168,13,24,4,4,0.5,0.5
2024-08-06T2100,1007A,116.2878,39.9611,北京市,海淀万柳,,41,39,35,21,18,131,,155,145,14,22,2,2,0.5,0.4
2024-08-06T2100,1008A,116.6636,40.135,北京市,顺义新城,颗粒物(PM10),79,107,60,30,18,164,,173,171,12,14,3,3,0.5,0.4
2024-08-06T2100,1009A,116.6275,40.3275,北京市,怀柔镇,细颗粒物(PM2.5),57,62,31,40,16,137,,184,182,15,9,3,3,0.4,0.3
2024-08-06T2100,1010A,116.2296,40.217,北京市,昌平镇,,50,50,35,25,17,117,,173,168,25,19,4,4,0.5,0.4
2024-08-06T2100,1011A,116.3966,39.9821,北京市,奥体中心,,43,41,38,25,21,136,,161,150,25,29,3,3,0.4,0.4
2024-08-06T2100,1012A,116.184,39.9136,北京市,古城,颗粒物(PM10),52,54,35,24,17,100,,172,152,33,19,3,2,0.5,0.4
2024-08-06T2100,3281A,115.9718,40.4529,北京市,延庆夏都,,44,42,27,26,15,140,,160,160,9,10,3,3,0.5,0.4
2024-08-06T2100,3417A,117.0709,40.1465,北京市,平谷新城,细颗粒物(PM2.5),70,84,36,51,19,149,,150,150,13,8,3,3,0.6,0.4
2024-08-06T2100,3418A,116.8336,40.4095,北京市,密云新城,臭氧1小时,57,56,28,33,16,165,,181,181,11,6,3,3,0.5,0.4
2024-08-06T2100,3671A,116.088,39.9726,北京市,门头沟三家店,颗粒物(PM10),55,59,34,33,18,106,,142,135,11,11,1,2,0.4,0.4
2024-08-06T2100,3672A,116.1541,39.8204,北京市,丰台云岗,,40,40,37,20,17,100,,143,126,12,16,2,2,0.3,0.4
2024-08-06T2100,3673A,116.6804,39.9081,北京市,通州东关,颗粒物(PM10),65,79,48,45,23,158,,178,176,19,23,3,3,0.7,0.5
2024-08-06T2100,3674A,115.9577,39.7603,北京市,房山燕山,,40,19,28,14,13,126,,140,129,5,9,3,3,0.3,0.4
2024-08-06T2100,3675A,116.4672,39.7733,北京市,大兴旧宫,,50,47,33,35,22,145,,157,157,7,14,1,3,0.6,0.6
2024-08-06T2100,3694A,115.986,40.4563,北京市,延庆石河营,,44,43,26,27,14,139,,158,158,12,12,3,3,0.4,0.4
2024-08-06T2100,3695A,116.6151,40.3053,北京市,怀柔新城,细颗粒物(PM2.5),60,62,31,43,17,125,,168,164,13,6,3,3,0.6,0.6
2024-08-06T2100,3696A,116.2545,39.8768,北京市,丰台小屯,,43,43,34,29,20,110,,135,128,17,19,5,5,0.3,0.4
2024-08-06T2100,3697A,116.84,40.3844,北京市,密云镇,颗粒物(PM10),60,70,31,39,18,162,,168,168,8,13,1,1,0.4,0.3
2024-08-06T2100,1761A,123.8275,41.3064,本溪市,大峪,,22,22,25,8,11,54,,122,100,14,19,5,6,0.6,0.7
2024-08-06T2100,1762A,123.7567,41.3325,本溪市,溪湖,,20,20,23,11,11,49,,106,94,16,18,8,7,0.8,1.1
2024-08-06T2100,1763A,123.7169,41.3094,本溪市,彩屯,,25,25,23,17,13,31,,99,84,23,18,6,6,1.3,1.1
2024-08-06T2100,1764A,123.7669,41.2864,本溪市,东明,,38,38,30,20,12,35,,108,88,38,24,3,4,0.9,0.9
2024-08-06T2100,1765A,123.7992,41.2664,本溪市,新立屯,,17,15,24,3,8,54,,117,98,11,15,2,3,0.6,0.8
2024-08-06T2100,1766A,123.8142,41.3472,本溪市,威宁,,25,25,22,12,13,30,,107,84,29,18,8,8,0.7,0.8
2024-08-06T2100,2587A,105.2864,27.3125,毕节市,八中,,22,22,22,15,19,24,,71,60,24,15,5,5,0.6,0.5
2024-08-06T2100,2588A,105.31,27.2944,毕节市,师专,,20,20,28,11,15,36,,69,62,21,16,4,6,0.5,0.5
2024-08-06T2100,3537A,105.3631,27.3533,毕节市,长征村,,17,17,34,11,23,48,,84,77,12,13,6,6,0.5,0.5
2024-08-06T2100,1629A,118.0018,37.3617,滨州市,第二水厂,,39,29,28,27,21,109,,114,114,15,17,3,2,0.8,0.8
2024-08-06T2100,1630A,117.9776,37.393,滨州市,北中新校,,48,48,36,27,19,90,,119,115,20,15,2,3,0.6,0.5
2024-08-06T2100,3514A,117.9378,37.3956,滨州市,中海酒店,,38,31,27,17,18,120,,129,129,14,15,3,6,0.9,0.8
2024-08-06T2100,3515A,117.9378,37.3553,滨州市,开发区一中,,39,34,32,24,21,123,,127,127,18,20,4,6,0.7,0.7
2024-08-06T2100,3516A,118.0917,37.694,滨州市,金海六路,,39,39,37,19,19,117,,144,139,15,16,3,6,0.6,0.7
2024-08-06T2100,4028A,117.9956,37.3753,滨州市,滨州市西街道办事处,,40,36,30,27,19,125,,133,133,14,16,12,4,0.6,0.6
2024-08-06T2100,2311A,115.8072,33.8399,亳州市,污水处理厂,,22,,7,8,5,70,,93,90,9,5,6,4,0.4,0.4
2024-08-06T2100,2312A,115.7789,33.8518,亳州市,三国揽胜宫,,24,10,10,8,5,76,,94,92,10,5,5,3,0.5,0.4
2024-08-06T2100,3332A,115.7633,33.8034,亳州市,亳州学院,,29,6,5,3,6,90,,99,98,5,4,1,3,0.3,0.3
2024-08-06T2100,2693A,82.0485,44.8556,博尔塔拉蒙古自治州,市党校,,40,40,32,9,11,97,,116,115,21,9,7,7,0.5,0.4
2024-08-06T2100,2694A,82.0806,44.8969,博尔塔拉蒙古自治州,市环保局,,44,44,36,14,11,103,,108,108,12,13,8,8,0.4,0.3
2024-08-06T2100,1071A,116.8842,38.2991,沧州市,沧县城建局,,48,48,32,28,19,110,,146,141,20,10,3,3,0.4,0.3
2024-08-06T2100,1072A,116.8584,38.3254,沧州市,电视转播站,,47,47,32,27,22,115,,136,132,20,11,3,3,0.3,0.2
2024-08-06T2100,1073A,116.8709,38.3228,沧州市,市环保局,,45,45,30,26,19,114,,145,140,21,10,3,4,0.4,0.3
2024-08-06T2100,3324A,116.8136,38.3004,沧州市,河北水利电力学院,,48,48,36,30,23,114,,147,140,26,16,4,5,0.5,0.3
2024-08-06T2100,2622A,97.1806,31.1273,昌都市,昌都监测站,,23,11,15,6,8,73,,93,91,8,10,9,9,0.5,0.5
2024-08-06T2100,3719A,97.1714,31.1406,昌都市,昌都会议中心,,25,7,12,3,6,80,,96,94,4,6,6,7,0.4,0.4
2024-08-06T2100,2690A,88.1236,43.8886,昌吉回族自治州,天山天池,,21,21,109,7,17,55,,111,101,6,7,11,9,0.6,0.6
2024-08-06T2100,2692A,87.2717,44.0297,昌吉回族自治州,新区政务中心,,37,37,66,19,15,104,,116,115,17,12,10,9,0.6,0.6
2024-08-06T2100,3613A,87.3095,44.0142,昌吉回族自治州,亚心广场,,35,34,69,3,12,109,,125,124,23,18,5,6,0.4,0.3
2024-08-06T2100,1119A,125.3325,43.9166,长春市,食品厂,,,,25,,16,,,74,,,14,,1,,0.6
2024-08-06T2100,1120A,125.2863,43.9027,长春市,客车厂,,49,49,28,25,16,15,,89,73,61,14,4,4,0.6,0.5
2024-08-06T2100,1121A,125.2841,43.8463,长春市,邮电学院,,44,44,25,24,14,36,,93,77,32,13,6,6,0.7,0.5
2024-08-06T2100,1122A,125.3716,43.8772,长春市,劳动公园,,41,41,26,25,12,53,,109,96,30,11,7,7,0.9,0.7
2024-08-06T2100,1123A,125.3297,43.8805,长春市,园林处,,37,37,23,18,11,50,,101,86,29,10,3,3,0.8,0.6
2024-08-06T2100,1124A,125.4605,43.79,长春市,净月潭,,33,33,18,11,10,17,,90,64,13,4,5,5,0.6,0.5
2024-08-06T2100,1125A,125.7194,43.515,长春市,甩湾子,,,,,,,,,,,,,,,,
2024-08-06T2100,1126A,125.3863,43.8447,长春市,经开区环卫处,,41,41,22,16,11,61,,102,93,32,12,5,5,0.8,0.6
2024-08-06T2100,1127A,125.245,43.7783,长春市,高新区管委会,,31,31,21,18,14,47,,104,85,23,9,2,2,0.7,0.6
2024-08-06T2100,1128A,125.1761,43.8325,长春市,岱山公园,,38,38,22,16,12,19,,93,73,60,12,2,2,0.5,0.5
2024-08-06T2100,1335A,113.0833,28.2325,长沙市,经开区环保局,,33,33,31,17,15,90,,146,132,12,10,1,3,0.4,0.4
2024-08-06T2100,1336A,112.8872,28.2189,长沙市,高开区环保局,,32,30,30,11,11,101,,122,109,10,11,6,8,0.6,0.6
2024-08-06T2100,1337A,113.0792,28.2053,长沙市,马坡岭,,47,47,31,20,14,82,,142,130,14,8,3,4,0.6,0.6
2024-08-06T2100,1338A,112.9394,28.19,长沙市,湖南师范大学,,38,38,33,21,16,70,,125,102,16,9,5,5,0.6,0.6
2024-08-06T2100,1339A,113.0178,28.1322,长沙市,雨花区环保局,,39,39,31,16,14,98,,137,131,13,11,4,6,0.4,0.4
2024-08-06T2100,1340A,112.9792,28.2597,长沙市,伍家岭,,31,27,29,12,7,99,,122,109,12,8,3,4,0.5,0.5
2024-08-06T2100,1341A,113.0014,28.1944,长沙市,火车新站,,38,38,30,22,15,102,,118,111,11,10,4,19,0.4,0.4
2024-08-06T2100,1342A,112.9844,28.1178,长沙市,天心区环保局,,42,42,36,23,18,98,,118,107,12,14,3,4,0.6,0.7
2024-08-06T2100,1343A,112.8908,28.1308,长沙市,湖南中医药大学,,34,34,33,19,16,85,,138,114,21,12,6,8,0.7,0.7
2024-08-06T2100,1344A,112.9581,28.3611,长沙市,沙坪,,33,33,23,19,15,62,,126,103,17,10,6,7,0.6,0.5
2024-08-06T2100,1727A,113.1147,36.1547,长治市,清华站,,35,25,41,14,18,110,,149,130,6,13,4,5,0.3,1.1
2024-08-06T2100,1728A,113.1031,36.1989,长治市,监测站,,34,34,45,17,18,85,,140,120,16,19,7,7,1.1,1.9
2024-08-06T2100,1730A,113.0886,36.2125,长治市,审计局,,27,25,38,9,19,84,,136,120,18,19,4,5,0.6,1.1
2024-08-06T2100,1731A,113.0844,36.1856,长治市,长治八中,,34,29,49,17,22,108,,140,124,7,18,5,6,0.5,1.3
2024-08-06T2100,2845A,113.1569,36.1911,长治市,德盛苑,,29,24,35,12,17,92,,134,120,10,8,7,8,1.4,1.6
2024-08-06T2100,3568A,113.06,36.0464,长治市,向阳小学,颗粒物(PM10),54,57,52,37,31,101,,138,119,8,11,5,6,0.6,0.8
2024-08-06T2100,3569A,112.8792,36.3144,长治市,屯留一中,,48,48,42,26,23,112,,164,144,21,25,8,15,0.8,0.8
2024-08-06T2100,3570A,113.235,36.3489,长治市,潞城四中,,40,38,40,26,26,126,,139,134,6,13,4,4,0.6,0.8
2024-08-06T2100,1854A,111.6975,28.9703,常德市,市二中,,33,,23,23,18,95,,95,87,12,9,6,7,0.6,0.4
2024-08-06T2100,1857A,111.7158,29.1456,常德市,白鹤山,,,,,,,,,,,,,,,,
2024-08-06T2100,3138A,111.7153,29.0289,常德市,武陵区永安,,46,46,27,25,15,100,,89,89,9,13,7,9,0.6,0.5
2024-08-06T2100,3139A,111.6892,28.9881,常德市,鼎城区玉霞,,46,46,26,29,19,112,,92,91,10,12,5,5,0.5,0.5
2024-08-06T2100,3140A,111.6625,29.0531,常德市,武陵区长庚,,42,39,25,29,19,121,,88,88,7,9,7,7,0.6,0.4
2024-08-06T2100,1196A,119.9633,31.762,常州市,市监测站,臭氧1小时,92,36,42,32,24,193,,241,231,23,23,8,7,0.7,0.7
2024-08-06T2100,1200A,119.9468,31.7069,常州市,武进监测站,臭氧1小时,60,40,34,25,22,168,,212,205,8,15,1,7,0.6,0.7
2024-08-06T2100,1201A,119.9255,31.9087,常州市,安家,,46,46,39,30,22,123,,202,194,40,22,10,8,0.7,0.6
2024-08-06T2100,3002A,119.9805,31.8174,常州市,行政中心,臭氧1小时,79,45,34,34,25,183,,206,200,20,21,12,12,0.4,0.4
2024-08-06T2100,3003A,120.0522,31.7748,常州市,经开区,,49,42,35,29,24,155,,195,189,20,23,8,7,1.4,1.2
2024-08-06T2100,3010A,119.9025,31.7964,常州市,钟楼,臭氧1小时,93,50,44,26,22,194,,221,210,22,21,7,6,0.3,0.3
2024-08-06T2100,3429A,119.8598,31.7066,常州市,武进经发区,,48,47,42,27,22,153,,179,173,18,15,7,7,0.5,0.5
2024-08-06T2100,3430A,119.5826,31.7245,常州市,金坛城区,臭氧1小时,53,40,34,23,25,162,,212,206,12,20,5,7,0.7,0.7
2024-08-06T2100,2220A,120.4318,41.5881,朝阳市,西梁,,28,28,34,14,12,71,,112,104,9,10,6,8,0.7,0.8
2024-08-06T2100,2221A,120.4521,41.5646,朝阳市,河畔小区,,33,33,25,13,9,77,,118,113,9,8,7,7,0.8,0.7
2024-08-06T2100,2222A,120.4176,41.5648,朝阳市,八里堡,,31,31,31,14,10,54,,102,91,15,14,4,4,0.9,0.9
2024-08-06T2100,2223A,120.3806,41.5969,朝阳市,农业园区,,25,17,32,17,12,60,,104,95,9,14,6,7,0.7,0.8
2024-08-06T2100,1705A,116.6367,23.6719,潮州市,西园路,,28,28,32,17,22,53,,139,114,17,10,6,4,0.5,0.4
2024-08-06T2100,3026A,116.6183,23.6608,潮州市,市政府,,39,39,38,23,21,54,,136,109,10,7,7,6,0.8,0.7
2024-08-06T2100,4036A,116.6461,23.6761,潮州市,金山,,45,45,36,17,21,55,,139,114,16,7,10,6,0.7,0.7
2024-08-06T2100,2472A,113.0073,25.9061,郴州市,马头岭,,24,24,29,6,8,66,,91,80,9,10,7,10,0.1,0.1
2024-08-06T2100,2473A,113.0116,25.8226,郴州市,市职中,,18,12,23,11,15,56,,98,77,12,13,6,10,0.4,0.4
2024-08-06T2100,2474A,113.0161,25.8001,郴州市,兴隆步行街,,20,13,28,11,13,62,,97,80,11,14,5,12,0.4,0.5
2024-08-06T2100,2475A,113.0383,25.8071,郴州市,市审计局,,19,16,18,12,14,58,,94,77,16,16,6,13,0.3,0.3
2024-08-06T2100,2476A,113.0348,25.7759,郴州市,市环保局,,20,12,23,9,15,64,,95,82,15,19,12,15,0.4,0.5
2024-08-06T2100,1431A,103.9728,30.7236,成都市,金泉两河,,35,8,39,3,27,110,,166,164,4,16,1,2,0.5,0.6
2024-08-06T2100,1432A,104.176,30.6872,成都市,十里店,,35,34,30,12,15,109,,157,153,9,22,2,2,0.4,0.5
2024-08-06T2100,1433A,104.079,30.5706,成都市,三瓦窑,,36,36,31,16,21,111,,156,151,22,21,3,2,0.4,0.5
2024-08-06T2100,1434A,104.1114,30.63,成都市,沙河铺,,39,39,34,12,17,110,,155,151,17,15,4,4,0.7,0.5
2024-08-06T2100,1437A,104.0786,30.6531,成都市,君平街,,42,19,27,3,15,134,,176,174,15,13,4,3,0.4,0.5
2024-08-06T2100,1438A,103.613,31.0283,成都市,灵岩寺,,,,,,,,,,,,,,,,
2024-08-06T2100,2880A,104.0239,30.65639,成都市,大石西路,,39,39,31,3,16,123,,157,156,15,15,5,4,0.4,0.5
2024-08-06T2100,3136A,104.2725,30.5589,成都市,龙泉驿区区政府,,36,31,20,22,13,114,,139,136,6,5,4,4,0.6,0.5
2024-08-06T2100,3357A,104.0106,30.6931,成都市,金博路,,28,21,33,19,18,89,,146,142,9,14,2,3,0.4,0.4
2024-08-06T2100,3359A,104.0578,30.5225,成都市,华阳,,,34,29,27,24,,,128,125,4,8,2,2,0.7,0.6
2024-08-06T2100,3487A,104.2394,30.5319,成都市,车城东七路,,41,40,32,26,22,129,,140,139,6,8,2,2,0.6,0.6
2024-08-06T2100,3488A,104.3853,30.7453,成都市,青白江技师分院,,34,14,22,10,14,107,,162,157,14,18,2,3,0.5,0.5
2024-08-06T2100,3489A,104.0789,30.4072,成都市,科学城,,40,38,31,28,23,122,,130,128,6,13,3,3,0.5,0.5
2024-08-06T2100,4011A,103.8506,30.6947,成都市,光华大道三段,,44,33,47,14,26,139,,168,168,4,11,2,3,0.5,0.6
2024-08-06T2100,1062A,117.9531,40.9081,承德市,铁路,,25,20,25,13,12,80,,129,107,27,20,7,7,0.4,0.4
2024-08-06T2100,1063A,117.9392,40.9763,承德市,中国银行,,44,44,29,3,12,73,,141,122,18,16,4,4,0.4,0.3
2024-08-06T2100,1064A,117.9503,40.928,承德市,开发区,,28,23,25,13,10,88,,138,119,23,17,7,6,0.4,0.4
2024-08-06T2100,1065A,117.8051,40.9655,承德市,文化中心,,31,31,35,14,12,97,,141,123,11,20,6,9,0.3,0.4
2024-08-06T2100,1066A,117.9268,41.0026,承德市,离宫,,29,29,31,20,18,41,,120,90,13,11,2,3,0.4,0.4
2024-08-06T2100,2314A,117.47,30.6618,池州市,池州学院,,33,17,24,9,14,103,,156,148,7,12,4,7,0.4,0.6
2024-08-06T2100,3237A,117.4918,30.6617,池州市,展览馆,,29,13,27,8,14,91,,150,142,5,10,4,6,0.4,0.6
2024-08-06T2100,3333A,117.5627,30.695,池州市,第八中学,,30,22,30,8,13,95,,149,133,6,13,3,5,0.4,0.4
2024-08-06T2100,3334A,117.5038,30.6243,池州市,第十二中学,,,,22,,14,,,81,,,14,,5,,0.7
2024-08-06T2100,1744A,118.9233,42.2816,赤峰市,松山一中,,27,24,26,3,9,85,,118,113,20,20,8,8,0.7,0.7
2024-08-06T2100,1745A,118.9576,42.2728,赤峰市,哈达街,,29,22,26,8,11,91,,109,107,10,12,10,10,0.6,0.5
2024-08-06T2100,1746A,118.8788,42.2554,赤峰市,天义路,,43,,25,30,20,100,,130,126,16,15,8,8,0.5,0.5
2024-08-06T2100,3058A,119.2658,42.0353,赤峰市,银河街,,28,27,30,14,15,87,,121,114,14,17,29,18,0.4,0.5
2024-08-06T2100,3286A,118.9359,42.3147,赤峰市,桥北物流园区,,,31,24,,18,90,,124,118,20,19,10,9,0.8,0.7
2024-08-06T2100,2521A,107.3476,22.4136,崇左市,市环保局江州分局,,42,42,27,27,16,51,,84,80,14,7,6,6,0.5,0.4
2024-08-06T2100,2522A,107.3702,22.3707,崇左市,城南新区,,38,26,21,26,12,45,,85,77,16,6,4,5,0.6,0.5
2024-08-06T2100,2298A,118.3093,32.3153,滁州市,老年大学,,30,25,36,14,20,95,,230,166,12,16,5,8,0.3,0.5
2024-08-06T2100,2299A,118.3244,32.2786,滁州市,人大宾馆,,41,22,39,10,23,129,,233,165,7,15,6,9,0.4,0.7
2024-08-06T2100,3207A,118.3118,32.3038,滁州市,市政府原办公楼,,37,22,35,14,22,118,,224,164,9,15,5,10,0.6,0.9
2024-08-06T2100,3331A,118.3267,32.2634,滁州市,图书馆,,38,24,38,8,19,121,,212,155,10,15,3,8,0.7,1
2024-08-06T2100,2605A,101.5482,25.0441,楚雄彝族自治州,州环境监测站,,10,6,14,3,8,32,,45,44,17,5,5,4,0.6,0.6
2024-08-06T2100,2606A,101.538,25.0492,楚雄彝族自治州,市经济开发区,,38,38,17,8,7,26,,45,42,22,6,8,5,0.6,0.6
2024-08-06T2100,2548A,107.5277,31.2827,达州市,达州职业技术学院,,37,37,22,9,5,12,,63,51,39,16,4,4,0.4,0.3
2024-08-06T2100,2549A,107.5086,31.2186,达州市,市环境监测站,,40,40,21,22,4,34,,86,79,40,22,6,6,0.6,0.4
2024-08-06T2100,2550A,107.4988,31.2132,达州市,凤凰小区,,36,36,17,24,7,35,,100,91,38,17,7,7,0.7,0.5
2024-08-06T2100,2551A,107.5082,31.1986,达州市,达县机关宾馆,,31,31,20,6,6,18,,91,80,46,23,4,5,0.4,0.3
2024-08-06T2100,2552A,107.4644,31.2124,达州市,市政中心,,39,39,28,17,7,41,,106,97,41,18,8,8,0.7,0.5
2024-08-06T2100,2614A,100.1542,25.7054,大理白族自治州,大理市环境监测站,,16,,10,11,10,47,,52,51,7,8,3,3,0.5,0.5
2024-08-06T2100,2615A,100.2171,25.5811,大理白族自治州,大理古城,,31,31,15,14,8,28,,59,52,23,10,6,6,0.6,0.6
2024-08-06T2100,1109A,121.612,38.9741,大连市,甘井子,,28,24,18,13,12,88,,105,101,20,18,7,8,0.5,0.4
2024-08-06T2100,1110A,121.565,38.9511,大连市,周水子,,27,18,17,13,11,86,,90,88,15,21,8,8,0.6,0.6
2024-08-06T2100,1111A,121.5637,38.8845,大连市,星海三站,,32,23,22,13,12,100,,108,108,8,10,7,7,0.4,0.4
2024-08-06T2100,1112A,121.6302,38.9117,大连市,青泥洼桥,,25,22,19,17,10,80,,102,98,8,7,6,6,0.6,0.6
2024-08-06T2100,1113A,121.6251,38.8638,大连市,傅家庄,,35,14,15,9,10,109,,125,125,8,8,5,6,0.5,0.5
2024-08-06T2100,1114A,121.5213,38.8661,大连市,七贤岭,,35,23,18,15,11,112,,113,113,6,7,7,7,0.3,0.3
2024-08-06T2100,1115A,121.2529,38.8061,大连市,旅顺,,33,15,15,8,9,104,,102,102,10,13,8,8,0.3,0.3
2024-08-06T2100,1116A,121.7485,39.1311,大连市,金州,,30,24,18,21,14,65,,94,82,21,16,7,8,0.6,0.5
2024-08-06T2100,1117A,121.7811,39.0496,大连市,开发区,,25,23,19,16,13,79,,100,94,10,14,8,9,0.6,0.4
2024-08-06T2100,1118A,121.9762,39.0631,大连市,双D港,,25,25,21,12,9,53,,98,88,12,13,6,6,0.5,0.5
2024-08-06T2100,1789A,124.81117,46.03138,大庆市,大同区,,33,33,19,18,13,56,,79,72,11,6,8,8,0.6,0.5
2024-08-06T2100,1790A,125.129,46.533,大庆市,龙凤区,,50,50,26,22,12,52,,81,72,29,11,5,5,0.7,0.5
2024-08-06T2100,1791A,124.902,46.408,大庆市,红岗区,,26,26,19,15,16,56,,87,82,24,10,7,7,0.7,0.5
2024-08-06T2100,1792A,125.153,46.586,大庆市,萨尔图区,,34,34,21,14,10,64,,84,74,25,13,6,5,0.7,0.5
2024-08-06T2100,1793A,124.9042,46.6215,大庆市,让胡路区,颗粒物(PM10),52,54,30,21,13,60,,86,83,20,11,4,4,0.5,0.3
2024-08-06T2100,3481A,125.141,46.634,大庆市,萨区政府监测点,,33,33,30,10,8,68,,92,88,20,13,7,7,0.5,0.5
2024-08-06T2100,1721A,113.3819,40.1097,大同市,果树场,,,,,,,,,,,,,,,,
2024-08-06T2100,1723A,113.2994,40.0758,大同市,云冈宾馆,,44,44,42,17,15,136,,169,166,22,20,8,11,0.5,0.6
2024-08-06T2100,1724A,113.3444,40.0917,大同市,大同大学,,41,28,35,17,15,131,,163,161,16,16,8,10,0.5,0.5
2024-08-06T2100,1725A,113.2661,40.1269,大同市,安家小村,,40,40,52,15,12,120,,170,165,21,20,10,12,0.3,0.6
2024-08-06T2100,1726A,113.2711,40.0844,大同市,教育学院,,41,32,51,22,18,130,,166,163,24,23,10,13,0.5,0.6
2024-08-06T2100,3282A,113.3397,40.0597,大同市,大同市卫生学校,,42,34,36,18,14,132,,162,159,18,18,9,10,0.6,0.6
2024-08-06T2100,3565A,113.1367,40.1122,大同市,云冈站,颗粒物(PM10),51,51,51,16,19,123,,161,155,13,20,11,13,0.4,0.5
2024-08-06T2100,3566A,113.1186,40.2556,大同市,图书馆,颗粒物(PM10),52,53,36,28,18,107,,169,162,30,14,13,11,0.5,0.6
2024-08-06T2100,3567A,113.5931,40.0461,大同市,区一中,,38,38,31,3,7,116,,161,153,17,14,7,12,0.5,0.4
2024-08-06T2100,3676A,113.2802,40.0995,大同市,第二人民医院,,45,24,48,15,14,144,,174,172,15,18,10,13,0.5,0.6
2024-08-06T2100,2269A,124.1069,50.4097,大兴安岭地区,科技局,,16,16,20,9,11,33,,64,58,7,5,4,3,0.1,0.2
2024-08-06T2100,3663A,124.1164,50.4278,大兴安岭地区,红旗社区,,19,14,12,13,14,15,,63,49,10,6,5,4,0.4,0.4
2024-08-06T2100,1600A,124.3303,40.0625,丹东市,江湾东路,,23,20,15,16,9,64,,66,62,7,6,7,3,0.6,0.7
2024-08-06T2100,1601A,124.4256,40.1503,丹东市,临江后街,,23,23,12,14,6,69,,76,72,5,5,4,4,0.7,0.4
2024-08-06T2100,1602A,124.3933,40.1461,丹东市,元宝山,,28,28,17,9,8,66,,69,66,4,4,2,1,0.6,0.3
2024-08-06T2100,1603A,124.3633,40.1092,丹东市,民主桥,,22,20,17,8,7,69,,70,67,3,8,1,2,0.4,0.5
2024-08-06T2100,3541A,109.5726,19.5167,儋州市,第一中学子站,,22,19,19,10,10,69,,74,74,4,4,4,4,0.5,0.6
2024-08-06T2100,3542A,109.5567,19.5187,儋州市,东坡学校子站,,23,19,17,11,10,72,,74,74,2,3,5,6,0.6,0.6
2024-08-06T2100,2616A,98.5842,24.428,德宏傣族景颇族自治州,德宏州监测站,,26,26,16,9,5,27,,50,45,10,10,8,12,0.7,0.7
2024-08-06T2100,3677A,98.5881,24.4368,德宏傣族景颇族自治州,芒市人民政府综合楼,,24,24,15,16,8,19,,53,47,18,8,20,9,0.8,0.7
2024-08-06T2100,1901A,104.4239,31.1208,德阳市,东山公园,,35,28,31,16,17,112,,142,142,5,7,2,3,0.7,0.7
2024-08-06T2100,1902A,104.3826,31.1317,德阳市,西小区,,,25,32,16,21,,,152,152,10,14,4,5,0.5,0.6
2024-08-06T2100,1904A,104.3553,31.1091,德阳市,耐火材料厂,,34,26,34,20,22,107,,144,144,9,15,3,5,0.6,0.7
2024-08-06T2100,3639A,104.4019,31.1244,德阳市,市教育局,,33,25,32,19,18,103,,144,144,12,13,3,4,0.6,0.6
2024-08-06T2100,1622A,116.3032,37.4674,德州市,儿童乐园,,34,34,37,14,22,96,,133,125,15,12,7,8,0.6,0.7
2024-08-06T2100,1624A,116.2991,37.4451,德州市,监理站,,36,36,34,12,22,98,,140,131,16,13,6,7,0.5,0.6
2024-08-06T2100,3066A,116.2721,37.4379,德州市,九衢泉纯净水厂,,34,34,36,17,26,78,,138,124,20,18,6,7,0.6,0.6
2024-08-06T2100,3371A,116.3728,37.4403,德州市,开发区人民医院,,30,27,37,12,21,96,,135,125,19,15,7,8,0.6,0.7
2024-08-06T2100,3372A,116.3572,37.4094,德州市,太阳城中学,颗粒物(PM10),56,61,36,22,23,68,,133,117,38,22,7,8,0.5,0.7
2024-08-06T2100,3511A,116.5652,37.3319,德州市,陵城艺术中心,,39,39,30,14,15,92,,94,,18,14,6,6,0.7,0.6
2024-08-06T2100,2621A,99.7056,27.8317,迪庆藏族自治州,迪庆州站,,,31,24,12,9,,,93,93,13,13,9,12,0.5,0.5
2024-08-06T2100,3180A,99.7136,27.8094,迪庆藏族自治州,质量技术监督局,,24,24,18,11,8,74,,91,89,15,13,9,9,0.6,0.6
2024-08-06T2100,2663A,104.6241,35.5734,定西市,东关小学,,49,49,31,17,13,102,,96,96,7,8,8,8,0.2,0.2
2024-08-06T2100,2664A,104.6194,35.5934,定西市,供电公司,,45,45,28,21,19,96,,92,92,10,7,6,6,0.2,0.2
2024-08-06T2100,1389A,113.7547,23.0494,东莞市,莞城梨川,,31,31,49,17,27,73,,197,135,25,29,10,10,0.9,0.9
2024-08-06T2100,1390A,113.7944,23.0128,东莞市,东城石井,,35,35,45,15,26,57,,192,125,22,32,5,5,0.8,0.8
2024-08-06T2100,1391A,113.7383,22.9658,东莞市,南城西平,,48,47,54,33,30,32,,170,99,63,45,4,4,1.0,1
2024-08-06T2100,3319A,113.7338,23.0381,东莞市,万江金泰,,32,32,52,19,29,71,,189,135,22,28,4,5,0.8,0.9
2024-08-06T2100,3626A,113.7533,23.0202,东莞市,南城元岭,,35,35,51,20,27,70,,200,126,22,29,6,6,0.8,0.8
2024-08-06T2100,3627A,113.7875,23.0457,东莞市,东城主山,,40,40,59,23,30,72,,194,128,25,32,7,7,0.9,0.9
2024-08-06T2100,1666A,118.6614,37.4309,东营市,市环保局,,34,22,19,12,10,107,,120,120,12,12,9,9,0.2,0.3
2024-08-06T2100,3036A,118.6904,37.4338,东营市,开发区管委会,,38,29,25,17,11,120,,137,137,14,13,9,6,0.5,0.6
2024-08-06T2100,3365A,118.5719,37.565,东营市,垦利区民丰路,,35,29,26,17,14,110,,138,136,15,14,7,7,0.4,0.5
2024-08-06T2100,3498A,118.5055,37.8612,东营市,河口城区,,31,14,26,12,17,99,,131,126,5,10,4,5,0.5,0.6
2024-08-06T2100,3646A,118.4978,37.4623,东营市,胜利站,,36,23,24,9,10,115,,130,128,14,16,1,1,0.4,0.5
2024-08-06T2100,3734A,118.35,37.26,东营市,理想之城,,28,22,21,19,14,87,,112,110,19,15,2,4,0.7,0.8
2024-08-06T2100,1591A,110.0023,39.8129,鄂尔多斯市,综合楼,,44,14,42,3,10,138,,162,161,12,18,10,14,0.6,0.7
2024-08-06T2100,1592A,109.9486,39.8261,鄂尔多斯市,巴音孟克林场办事处,,40,12,37,7,14,125,,147,147,10,15,6,9,0.6,0.7
2024-08-06T2100,1593A,109.7736,39.5986,鄂尔多斯市,康泽苑,,42,,32,14,17,134,,163,162,6,16,5,7,0.4,0.6
2024-08-06T2100,1594A,109.8119,39.5989,鄂尔多斯市,华泰汽车城,,38,,35,9,19,120,,142,142,7,21,9,11,0.5,0.6
2024-08-06T2100,1595A,109.9734,39.7884,鄂尔多斯市,奥林花园,,,,,5,17,129,,140,139,11,23,4,6,0.5,0.7
2024-08-06T2100,2436A,114.8938,30.3994,鄂州市,市政府,,30,30,50,3,17,83,,157,128,11,22,8,10,0.8,1.1
2024-08-06T2100,2437A,114.8989,30.3714,鄂州市,赵家坝,,35,35,46,3,17,82,,154,125,4,9,5,10,0.5,0.9
2024-08-06T2100,3654A,114.8094,30.4089,鄂州市,精准医疗中心,,44,44,49,8,19,73,,144,118,16,17,12,8,1.0,0.9
2024-08-06T2100,2454A,109.4978,30.2981,恩施土家族苗族自治州,湖北民院,,26,26,19,10,10,82,,90,88,8,15,7,7,0.6,0.5
2024-08-06T2100,2455A,109.4707,30.2798,恩施土家族苗族自治州,州电力总公司,,21,18,18,11,10,65,,78,76,8,11,6,6,0.5,0.5
2024-08-06T2100,3549A,109.5061,30.3772,恩施土家族苗族自治州,龙凤新区,,26,19,18,18,11,63,,75,71,16,16,6,7,0.6,0.6
2024-08-06T2100,2499A,108.3411,21.6158,防城港市,沙万,,34,34,22,11,9,39,,53,50,30,16,10,7,0.5,0.5
2024-08-06T2100,2500A,108.3514,21.7731,防城港市,防城档案局,,,26,18,15,9,,,55,55,6,6,7,7,0.6,0.6
2024-08-06T2100,2501A,108.3506,21.6414,防城港市,大海花园,,32,32,18,9,7,49,,52,51,14,8,6,6,0.5,0.5
2024-08-06T2100,1371A,113.1294,23.0067,佛山市,湾梁,,44,44,40,19,19,96,,152,134,36,27,8,9,0.8,0.7
2024-08-06T2100,1372A,113.1083,23.0478,佛山市,华材职中,,36,29,46,25,22,106,,151,141,27,32,6,8,0.5,0.5
2024-08-06T2100,1373A,113.144,23.0453,佛山市,南海气象局,,33,,37,23,22,96,,155,136,28,24,7,10,0.4,0.4
2024-08-06T2100,1374A,113.2881,22.8094,佛山市,顺德苏岗,,44,44,40,27,24,95,,157,126,35,27,7,8,0.7,0.6
2024-08-06T2100,1376A,112.8383,22.8678,佛山市,高明孔堂,颗粒物(PM10),55,60,37,27,19,71,,117,108,41,14,8,10,0.8,0.6
2024-08-06T2100,1377A,112.8836,23.1588,佛山市,三水监测站,颗粒物(PM10),53,56,34,20,18,76,,125,118,54,37,4,5,0.5,0.5
2024-08-06T2100,1378A,112.867,23.185,佛山市,三水云东海,,29,29,21,14,15,49,,,,38,40,5,6,0.6,0.6
2024-08-06T2100,3625A,113.2544,22.7642,佛山市,容桂街道办,,44,44,40,29,24,75,,164,124,47,27,7,7,0.7,0.7
2024-08-06T2100,1280A,119.3903,26.0543,福州市,鼓山,,,,,,,,,,,,,,,,
2024-08-06T2100,1282A,119.2681,26.0504,福州市,师大,,38,38,32,14,20,54,,111,88,13,8,4,4,0.4,0.5
2024-08-06T2100,1283A,119.2984,26.1028,福州市,五四北路,,,25,25,8,20,,,122,108,12,7,4,5,0.3,0.5
2024-08-06T2100,1284A,119.2648,26.0768,福州市,杨桥西路,,,34,33,9,19,,,121,101,12,8,,5,0.3,0.5
2024-08-06T2100,1285A,119.317,26.0746,福州市,紫阳,,26,26,30,6,19,55,,102,86,7,7,6,5,0.3,0.4
2024-08-06T2100,3048A,119.5799,26.0936,福州市,九龙,,19,19,18,10,10,42,,72,65,2,2,5,5,0.2,0.3
2024-08-06T2100,3526A,119.5189,25.9664,福州市,吴航,,20,20,21,14,14,45,,78,69,6,3,5,5,0.3,0.4
2024-08-06T2100,1755A,123.7977,41.8491,抚顺市,望花区,,35,,27,24,19,91,,147,139,35,16,11,11,0.5,0.6
2024-08-06T2100,1756A,123.9161,41.8822,抚顺市,顺城区,颗粒物(PM10),55,60,34,26,18,29,,144,110,58,22,3,5,0.7,0.6
2024-08-06T2100,1757A,124.0436,41.8611,抚顺市,东洲区,,31,31,26,18,17,58,,132,119,12,10,4,4,0.5,0.5
2024-08-06T2100,1758A,123.9247,41.8642,抚顺市,新抚区,颗粒物(PM10),54,57,29,30,15,52,,130,110,28,15,6,6,0.7,0.5
2024-08-06T2100,1759A,124.0972,41.8961,抚顺市,大伙房水库,,35,35,23,23,15,49,,132,114,9,7,4,4,0.7,0.7
2024-08-06T2100,1760A,123.7086,41.8391,抚顺市,沈抚新城,,29,29,34,17,18,86,,135,127,23,16,4,6,0.1,0.3
2024-08-06T2100,2376A,116.2127,28.0814,抚州市,桐源党溪,颗粒物(PM10),51,52,44,24,23,61,,129,104,12,7,15,21,0.6,0.6
2024-08-06T2100,2377A,116.3544,27.9831,抚州市,市站,,29,29,35,13,17,70,,119,98,7,7,5,15,0.7,0.8
2024-08-06T2100,2378A,116.3565,27.963,抚州市,血防站,,29,29,34,12,15,63,,110,89,11,9,2,5,0.9,0.9
2024-08-06T2100,2379A,116.3564,28.0007,抚州市,采茶剧团,,27,27,33,14,17,61,,122,101,7,8,5,11,0.7,0.8
2024-08-06T2100,2380A,116.385,27.9647,抚州市,医学分院,,29,29,36,14,14,56,,126,97,17,8,4,7,0.5,0.7
2024-08-06T2100,2207A,121.6094,41.998,阜新市,工业园区,,44,44,27,18,12,62,,122,110,17,16,6,15,0.7,0.7
2024-08-06T2100,2208A,121.6697,42.0279,阜新市,长青街,,33,33,32,17,13,70,,120,108,22,18,9,12,0.7,0.7
2024-08-06T2100,2209A,121.6673,42.0705,阜新市,农业园区,,25,19,25,3,9,79,,112,104,15,14,4,10,0.6,0.6
2024-08-06T2100,2210A,121.6717,42.0224,阜新市,东苑,,28,28,34,16,15,74,,116,106,20,18,13,17,0.7,0.7
2024-08-06T2100,2211A,121.6506,42.0498,阜新市,玉龙新城,,36,36,27,13,12,61,,116,104,22,19,5,15,0.7,0.6
2024-08-06T2100,2301A,115.8277,32.8929,阜阳市,市监测站,,28,,18,19,9,86,,133,127,2,6,4,5,0.2,0.3
2024-08-06T2100,2303A,115.8554,32.8605,阜阳市,开发区,,26,,15,7,7,83,,133,126,6,7,5,6,0.3,0.3
2024-08-06T2100,2875A,115.784,32.8892,阜阳市,阜阳职业技术学院,,29,8,14,6,6,90,,138,131,5,7,4,5,0.3,0.4
2024-08-06T2100,3468A,115.7901,32.8613,阜阳市,市规划展馆,,28,6,19,3,10,88,,143,133,6,8,5,6,0.4,0.4
2024-08-06T2100,3469A,115.836,32.9183,阜阳市,枣园社区,,,,23,4,11,81,,130,124,6,7,3,4,0.4,0.4
2024-08-06T2100,2669A,102.9099,34.9841,甘南藏族自治州,州政府,,27,20,36,17,18,85,,83,83,5,15,5,6,0.3,0.3
2024-08-06T2100,3380A,102.8914,34.9617,甘南藏族自治州,甘肃民族师范学院,,,,34,10,15,,,87,87,9,17,3,4,0.3,0.4
2024-08-06T2100,2570A,101.9603,30.0475,甘孜藏族自治州,水桥子,,28,12,16,9,11,88,,93,93,2,8,4,4,0.2,0.2
2024-08-06T2100,3065A,101.9533,29.9972,甘孜藏族自治州,州环保局,,26,15,22,3,6,81,,90,89,9,12,2,2,0.3,0.2
2024-08-06T2100,3414A,115.8347,28.932,赣江新区,桑海产业园,,,39,28,18,13,116,,155,148,,14,10,13,0.5,0.4
2024-08-06T2100,2362A,114.9017,25.9149,赣州市,通天岩,,,,,,,,,,,,,,,,
2024-08-06T2100,2363A,114.9367,25.8664,赣州市,地委,,23,17,28,13,16,73,,123,100,10,11,10,10,0.9,0.9
2024-08-06T2100,2364A,114.9461,25.8481,赣州市,气象台,,25,25,30,13,14,73,,127,101,8,10,8,8,0.7,0.7
2024-08-06T2100,2365A,114.9322,25.8333,赣州市,市图书馆,,25,24,29,10,13,79,,133,98,9,11,3,4,0.6,0.6
2024-08-06T2100,2366A,114.8905,25.8471,赣州市,华坚鞋城,,24,21,30,12,17,76,,130,107,8,10,4,115,0.6,0.5
2024-08-06T2100,3109A,115.0093,25.8613,赣州市,赣县区卫计委,,20,15,32,11,15,61,,132,103,20,17,9,8,0.7,0.7
2024-08-06T2100,2683A,106.2319,36.1417,固原市,马园,,,,13,,9,,,73,,,15,,5,,0.5
2024-08-06T2100,2684A,106.2792,36.0022,固原市,监测站,,36,34,22,25,14,99,,98,98,10,9,5,5,0.4,0.3
2024-08-06T2100,2685A,106.2375,36.0211,固原市,新区,,30,22,21,14,9,93,,91,91,10,8,6,6,0.4,0.4
2024-08-06T2100,3522A,106.2177,35.9959,固原市,原州区十五小,,32,30,21,17,13,101,,99,99,10,9,3,4,0.5,0.4
2024-08-06T2100,2543A,106.6308,30.5278,广安市,小平旧居,,,,,,,,,,,,,,,,
2024-08-06T2100,2544A,106.6303,30.4576,广安市,市委,,44,35,25,25,15,138,,136,136,15,12,12,8,0.7,0.4
2024-08-06T2100,2545A,106.6271,30.4663,广安市,友谊中学,,45,32,20,20,14,141,,143,141,18,12,8,6,0.8,0.4
2024-08-06T2100,2547A,106.6388,30.4551,广安市,广电花园,,41,28,22,17,13,129,,134,132,14,10,8,6,0.6,0.4
2024-08-06T2100,2902A,106.6351,30.4865,广安市,北辰小学,,46,33,23,23,13,146,,146,146,14,9,9,6,0.7,0.3
2024-08-06T2100,2523A,105.8945,32.4535,广元市,黑石坡,,22,14,13,9,6,69,,87,85,10,9,9,10,0.3,0.3
2024-08-06T2100,2524A,105.821,32.4444,广元市,老城,,29,29,25,14,9,32,,96,89,34,22,1,4,0.6,0.4
2024-08-06T2100,2526A,105.8628,32.4287,广元市,监测站,,27,27,17,16,11,54,,101,93,6,10,3,4,0.5,0.5
2024-08-06T2100,3617A,105.8047,32.4166,广元市,经开区,,25,25,33,14,16,72,,98,94,6,18,2,5,0.5,0.6
2024-08-06T2100,1345A,113.2347,23.1423,广州市,广雅中学,颗粒物(PM10),52,53,48,32,26,95,,166,145,42,40,7,7,0.4,0.5
2024-08-06T2100,1346A,113.2612,23.105,广州市,市五中,,48,48,44,30,29,87,,185,153,44,32,6,6,0.8,0.7
2024-08-06T2100,1348A,113.3478,23.0916,广州市,广东商学院,颗粒物(PM10),51,52,50,33,27,45,,169,134,65,41,6,5,0.8,0.7
2024-08-06T2100,1349A,113.4332,23.1047,广州市,市八十六中,,48,48,57,24,29,41,,182,133,76,51,5,4,0.7,0.7
2024-08-06T2100,1350A,113.3505,22.9483,广州市,番禺中学,细颗粒物(PM2.5),52,43,47,36,28,110,,178,156,28,31,4,5,0.5,0.6
2024-08-06T2100,1351A,113.2146,23.3916,广州市,花都师范,,33,33,60,14,28,72,,125,111,40,35,6,7,0.6,0.6
2024-08-06T2100,1352A,113.2597,23.1331,广州市,市监测站,,47,47,45,27,25,83,,163,136,41,34,7,7,0.9,0.8
2024-08-06T2100,1353A,113.5618,23.312,广州市,九龙镇镇龙,,26,17,50,9,27,83,,180,146,16,22,7,7,0.5,0.6
2024-08-06T2100,1354A,113.2765,23.1544,广州市,麓湖,,44,44,41,26,24,80,,166,142,37,37,5,6,0.6,0.6
2024-08-06T2100,1355A,113.443,23.3035,广州市,帽峰山森林公园,,31,19,41,15,28,98,,178,155,16,20,4,5,0.6,0.7
2024-08-06T2100,2846A,113.3221,23.1322,广州市,体育西,,46,46,45,27,27,73,,171,140,47,32,8,6,0.8,0.7
2024-08-06T2100,3298A,113.5717,23.5491,广州市,从化街口,,23,22,37,12,24,73,,160,133,20,21,6,6,0.5,0.6
2024-08-06T2100,3299A,113.3472,23.3692,广州市,白云竹料,,38,38,53,25,31,83,,168,125,22,29,4,5,0.6,0.6
2024-08-06T2100,3300A,113.2981,23.237,广州市,白云嘉禾,,42,42,57,19,28,100,,160,140,35,41,7,8,0.7,0.8
2024-08-06T2100,3301A,113.4256,23.1716,广州市,黄埔科学城,,41,41,57,24,36,84,,185,143,32,40,7,8,0.7,0.7
2024-08-06T2100,3302A,113.3942,23.0483,广州市,番禺大学城,,39,39,50,26,27,58,,171,135,42,32,7,6,0.7,0.7
2024-08-06T2100,3303A,113.4922,22.8168,广州市,南沙黄阁,,40,39,47,28,27,72,,168,124,50,31,8,6,0.8,0.8
2024-08-06T2100,3304A,113.5342,22.7896,广州市,南沙街,细颗粒物(PM2.5),62,,43,44,26,78,,145,109,37,25,6,5,0.8,0.8
2024-08-06T2100,3443A,113.2902,23.5544,广州市,花都梯面,,29,28,41,20,26,76,,129,112,19,22,4,5,0.6,0.7
2024-08-06T2100,3445A,113.7858,23.7478,广州市,从化良口,,18,18,23,12,16,46,,100,75,9,11,5,5,0.7,0.7
2024-08-06T2100,3446A,113.8051,23.2614,广州市,增城荔城,,23,19,37,10,22,72,,152,118,12,14,6,8,0.5,0.6
2024-08-06T2100,2505A,109.568,23.1478,贵港市,德智高中,,,,,,,,,,,,,,,,
2024-08-06T2100,2506A,109.6047,23.0666,贵港市,江南子站,,39,39,33,23,18,61,,114,108,15,12,7,8,0.6,0.6
2024-08-06T2100,2507A,109.6014,23.0948,贵港市,贵城子站,,38,38,36,19,21,62,,109,104,16,12,7,8,0.6,0.6
2024-08-06T2100,2508A,109.5669,23.1065,贵港市,荷城子站,,24,24,31,12,12,74,,104,101,6,10,9,10,0.3,0.3
2024-08-06T2100,3405A,109.5886,23.1172,贵港市,新世纪学校,,29,29,33,17,17,70,,108,103,11,11,7,8,0.6,0.6
2024-08-06T2100,1439A,106.6899,26.5998,贵阳市,马鞍山,,16,14,12,3,1,51,,75,70,6,5,4,5,0.5,0.5
2024-08-06T2100,1440A,106.6971,26.5694,贵阳市,市环保站,,29,24,20,20,15,31,,64,55,25,13,5,6,0.4,0.2
2024-08-06T2100,1441A,106.6243,26.6266,贵阳市,鉴湖路,,19,19,16,3,5,42,,67,62,11,6,5,5,0.4,0.3
2024-08-06T2100,1442A,106.7487,26.6343,贵阳市,燕子冲,,18,,10,12,9,42,,68,61,12,8,7,8,0.6,0.6
2024-08-06T2100,1443A,106.6555,26.4365,贵阳市,碧云窝,,39,39,19,9,3,37,,61,56,14,7,5,6,0.4,0.4
2024-08-06T2100,1444A,106.694,26.5161,贵阳市,中院村,,24,24,23,12,9,31,,60,52,22,13,7,7,0.5,0.4
2024-08-06T2100,1445A,106.7109,26.6027,贵阳市,红边门,,31,31,20,17,16,36,,66,58,21,14,7,7,0.3,0.3
2024-08-06T2100,1446A,106.7164,26.5699,贵阳市,新华路,,18,17,17,12,10,38,,72,62,21,11,4,6,0.6,0.5
2024-08-06T2100,1447A,106.674,26.5424,贵阳市,太慈桥,,14,12,10,9,4,42,,67,61,9,9,8,7,0.4,0.4
2024-08-06T2100,1552A,106.805,26.3003,贵阳市,桐木岭,,,,,,,,,,,,,,,,
2024-08-06T2100,1862A,110.4144,25.3167,桂林市,电子科大尧山校区,,25,25,31,14,16,47,,99,78,8,9,4,7,0.5,0.5
2024-08-06T2100,1863A,110.2819,25.2697,桂林市,监测站,,25,25,28,11,12,64,,85,74,13,9,5,8,0.6,0.6
2024-08-06T2100,1864A,110.3089,25.2708,桂林市,龙隐路小学,,32,32,27,17,16,47,,89,73,18,10,6,11,0.5,0.5
2024-08-06T2100,1865A,110.2869,25.2178,桂林市,八中,,34,34,29,14,13,53,,82,70,11,11,6,7,0.2,0.2
2024-08-06T2100,3403A,110.1764,25.2381,桂林市,创业大厦,,29,29,25,14,14,46,,77,69,28,17,6,7,0.3,0.3
2024-08-06T2100,3531A,110.296,25.1253,桂林市,旅游学院,,,17,16,9,12,62,,93,83,12,11,,6,0.5,0.4
2024-08-06T2100,2674A,100.2561,34.4714,果洛藏族自治州,玛沁县大武镇,,32,22,32,16,14,100,,106,105,2,4,7,7,0.4,0.4
2024-08-06T2100,1129A,126.5422,45.755,哈尔滨市,岭北,,32,32,19,22,15,78,,76,76,10,10,10,8,0.8,0.9
2024-08-06T2100,1130A,126.561,45.8167,哈尔滨市,松北商大,,16,14,22,9,13,51,,74,65,18,13,7,7,0.6,0.6
2024-08-06T2100,1131A,126.979,45.5419,哈尔滨市,阿城会宁,,50,50,21,32,13,35,,83,76,23,9,7,7,0.8,0.6
2024-08-06T2100,1132A,126.599,45.7222,哈尔滨市,南岗学府路,颗粒物(PM10),54,58,36,22,10,40,,89,79,25,9,6,8,0.8,0.5
2024-08-06T2100,1133A,126.689,45.7733,哈尔滨市,太平宏伟公园,,43,43,23,17,13,55,,86,79,28,17,7,6,0.6,0.4
2024-08-06T2100,1134A,126.635,45.7667,哈尔滨市,道外承德广场,,44,44,31,3,6,52,,81,75,34,21,8,8,0.8,0.6
2024-08-06T2100,1135A,126.685,45.7319,哈尔滨市,香坊红旗大街,颗粒物(PM10),62,73,31,34,17,33,,78,72,46,21,8,6,0.9,0.7
2024-08-06T2100,1136A,126.6411,45.7258,哈尔滨市,动力和平路,,46,46,31,19,12,46,,85,76,28,17,6,6,0.8,0.6
2024-08-06T2100,1137A,126.593,45.7478,哈尔滨市,道里建国路,颗粒物(PM10),51,52,32,22,14,47,,78,70,32,15,7,7,0.8,1
2024-08-06T2100,1138A,126.615,45.61,哈尔滨市,平房东轻厂,,44,44,30,12,11,32,,87,68,46,14,8,8,0.5,0.3
2024-08-06T2100,1139A,126.595,45.9855,哈尔滨市,呼兰师专,,41,41,26,15,11,39,,88,71,36,15,12,12,0.7,0.6
2024-08-06T2100,1140A,126.6206,45.6842,哈尔滨市,省农科院,,43,43,31,24,14,15,,87,59,58,23,9,6,0.8,0.6
2024-08-06T2100,2688A,93.5128,42.8172,哈密市,地区监测站,颗粒物(PM10),72,93,47,19,19,52,,147,138,84,26,3,4,0.5,0.3
2024-08-06T2100,2689A,93.4961,42.8328,哈密市,哈密师范学校,颗粒物(PM10),62,73,41,23,16,80,,139,134,40,24,4,6,0.6,0.5
2024-08-06T2100,2671A,100.9048,36.9639,海北藏族自治州,海晏县西海镇,,28,14,23,11,14,89,,108,98,7,8,13,14,0.4,0.4
2024-08-06T2100,3867A,102.0738,36.5056,海东市,平安区公安北苑,颗粒物(PM10),53,55,42,11,18,39,,107,92,42,17,7,14,1.3,0.7
2024-08-06T2100,1409A,110.576,19.9507,海口市,东寨港,,,,,,,,,,,,,,,,
2024-08-06T2100,1410A,110.3232,20.0574,海口市,海南大学,,18,14,18,8,12,56,,82,73,13,14,6,6,0.4,0.4
2024-08-06T2100,1411A,110.283,20.0053,海口市,秀英海南医院,,25,23,23,17,12,41,,84,70,28,16,7,7,0.3,0.3
2024-08-06T2100,1412A,110.338,19.9969,海口市,海南师范大学,,19,15,20,13,11,37,,82,64,23,12,7,7,0.4,0.4
2024-08-06T2100,1413A,110.33,20.0356,海口市,龙华路环保局宿舍,,16,16,20,11,11,42,,85,71,18,13,8,8,0.3,0.3
2024-08-06T2100,3539A,110.5111,19.9736,海口市,桂林洋子站,,34,34,27,21,13,66,,81,68,10,11,7,6,0.3,0.3
2024-08-06T2100,2673A,100.6188,36.2866,海南藏族自治州,共和县恰卜恰镇,,33,33,37,13,16,94,,114,107,8,9,14,16,0.3,0.5
2024-08-06T2100,2676A,97.3731,37.3753,海西蒙古族藏族自治州,德令哈市,,34,22,24,14,16,107,,106,106,11,10,10,9,0.5,0.6
2024-08-06T2100,1048A,114.5302,36.6116,邯郸市,东污水处理厂,,42,42,41,7,19,89,,134,122,9,12,1,1,0.7,0.6
2024-08-06T2100,1049A,114.4918,36.5713,邯郸市,矿院,,46,46,41,19,22,79,,133,107,20,13,2,2,0.8,0.5
2024-08-06T2100,1050A,114.484,36.6133,邯郸市,丛台公园,,41,41,39,10,21,91,,130,109,12,10,2,1,0.6,0.6
2024-08-06T2100,3458A,114.7895,36.5593,邯郸市,香泉濮院小区,,,55,45,20,21,,,128,123,5,11,2,2,0.2,0.3
2024-08-06T2100,3579A,114.50634,36.77178,邯郸市,永年区实验高中,,35,25,48,17,27,111,,140,132,7,10,2,2,0.5,0.6
2024-08-06T2100,3580A,114.20016,36.44293,邯郸市,峰峰矿区临水派出所,,50,50,45,14,24,98,,148,126,14,8,4,3,0.9,0.5
2024-08-06T2100,2634A,106.9893,33.1842,汉中市,汉川机床厂子校,,26,19,18,10,11,82,,92,92,5,8,4,4,0.4,0.5
2024-08-06T2100,2635A,107.0154,33.0706,汉中市,市监测站,,25,25,23,10,11,58,,90,85,8,7,6,6,0.7,0.7
2024-08-06T2100,2636A,107.0089,33.1138,汉中市,鑫源开发区,,35,24,24,24,13,64,,99,95,14,12,10,10,0.5,0.5
2024-08-06T2100,2637A,107.007,33.0323,汉中市,南郑大河坎水厂,,,,20,17,11,,,98,96,9,6,9,8,,0.5
2024-08-06T2100,1223A,120.2072,30.2111,杭州市,滨江,颗粒物(PM10),55,60,37,31,19,120,,181,165,13,16,6,4,0.6,0.7
2024-08-06T2100,1224A,120.0633,30.2747,杭州市,西溪,细颗粒物(PM2.5),53,38,29,37,19,133,,208,192,17,18,5,5,0.6,0.7
2024-08-06T2100,1226A,120.3461,30.3153,杭州市,下沙,,49,49,49,31,21,82,,176,147,28,27,6,7,0.5,0.6
2024-08-06T2100,1227A,120.1269,30.2456,杭州市,卧龙桥,细颗粒物(PM2.5),57,42,29,40,22,131,,201,189,18,18,7,7,0.7,0.6
2024-08-06T2100,1228A,120.1903,30.2692,杭州市,浙江农大,细颗粒物(PM2.5),52,46,28,36,20,102,,171,160,20,19,8,7,0.6,0.6
2024-08-06T2100,1230A,120.1197,30.3119,杭州市,和睦小学,,49,49,30,31,16,115,,202,183,15,14,7,6,0.5,0.6
2024-08-06T2100,1231A,120.3019,30.4183,杭州市,临平镇,颗粒物(PM10),52,53,39,17,11,98,,177,152,14,21,5,5,0.6,0.6
2024-08-06T2100,1232A,120.2697,30.1819,杭州市,城厢镇,颗粒物(PM10),55,60,36,35,22,118,,200,187,18,17,6,6,0.5,0.6
2024-08-06T2100,1233A,120.0883,30.1808,杭州市,云栖,颗粒物(PM10),51,51,32,21,14,144,,191,180,17,20,7,7,0.7,0.7
2024-08-06T2100,3557A,119.9464,30.0494,杭州市,镇二中,颗粒物(PM10),51,51,26,29,18,141,,184,181,20,18,8,8,0.7,0.8
2024-08-06T2100,3558A,119.7183,30.2367,杭州市,市府大楼,,43,35,20,19,16,135,,191,186,15,13,6,5,0.5,0.5
2024-08-06T2100,3656A,120.1556,30.2864,杭州市,消防大队,,,60,37,34,21,,,196,189,14,17,8,7,0.7,0.7
2024-08-06T2100,1270A,117.1959,31.7848,合肥市,明珠广场,,24,22,34,9,17,75,,138,106,16,16,6,6,0.3,0.4
2024-08-06T2100,1271A,117.3072,31.8764,合肥市,三里街,,23,22,34,9,12,73,,137,110,20,18,7,7,0.3,0.4
2024-08-06T2100,1272A,117.2588,31.8707,合肥市,琥珀山庄,,25,19,35,9,8,77,,159,120,16,15,5,6,0.3,0.3
2024-08-06T2100,1273A,117.1604,31.9052,合肥市,董铺水库,,21,9,36,3,14,66,,143,114,10,11,2,3,0.3,0.4
2024-08-06T2100,1274A,117.25,31.8571,合肥市,长江中路,,29,29,41,10,17,73,,149,113,14,13,6,8,0.5,0.5
2024-08-06T2100,1275A,117.266,31.9436,合肥市,庐阳区,,25,17,36,9,16,77,,184,132,12,13,12,13,0.2,0.4
2024-08-06T2100,1276A,117.336,31.8586,合肥市,瑶海区,,27,27,35,9,14,79,,127,104,16,17,10,11,0.3,0.4
2024-08-06T2100,1277A,117.3027,31.7964,合肥市,包河区,,27,27,34,9,17,66,,123,99,24,14,8,9,0.4,0.5
2024-08-06T2100,1278A,117.2776,31.7385,合肥市,滨湖新区,,21,14,26,9,13,67,,116,94,17,11,8,8,0.3,0.4
2024-08-06T2100,1279A,117.1318,31.8403,合肥市,高新区,,23,12,32,9,16,72,,153,116,12,13,7,8,0.5,0.5
2024-08-06T2100,3464A,117.3803,31.9147,合肥市,高教基地,,28,13,34,12,15,87,,148,105,7,12,7,8,0.3,0.4
2024-08-06T2100,3614A,79.924,37.0877,和田地区,地区环保局,颗粒物(PM10),403,503,683,124,200,76,,87,87,5,5,8,7,0.5,0.4
2024-08-06T2100,3615A,79.9131,37.113,和田地区,市环保局,颗粒物(PM10),436,536,641,118,161,85,,85,85,6,9,7,7,0.3,0.3
2024-08-06T2100,2516A,108.2011,24.715,河池市,东仁乐园,,32,27,34,22,17,10,,22,19,15,9,6,6,0.6,0.6
2024-08-06T2100,2517A,108.0497,24.6947,河池市,市环保站,,20,18,26,14,13,59,,87,78,6,11,9,8,0.5,0.6
2024-08-06T2100,2518A,108.0983,24.6989,河池市,市疾控中心,,46,46,30,26,14,32,,85,71,28,15,8,8,0.7,0.6
2024-08-06T2100,1696A,114.6778,23.7569,河源市,源西,,,,42,,23,,,102,,,18,,4,,0.4
2024-08-06T2100,1697A,114.6944,23.7586,河源市,东埔,,32,,38,22,27,45,,133,92,26,17,7,8,0.8,0.7
2024-08-06T2100,1698A,114.6892,23.7233,河源市,老城,,25,25,45,3,17,38,,135,93,28,16,4,6,0.5,0.5
2024-08-06T2100,1718A,115.4208,35.2464,菏泽市,气象局,,31,15,14,3,4,98,,113,112,10,5,4,3,0.2,0.1
2024-08-06T2100,1719A,115.4747,35.2375,菏泽市,市政协,,31,20,8,7,7,98,,110,110,3,3,4,3,0.2,0.2
2024-08-06T2100,3374A,115.5564,35.0891,菏泽市,定陶老年大学,,27,12,8,3,1,86,,106,103,9,5,4,4,0.1,0
2024-08-06T2100,3647A,115.4702,35.2706,菏泽市,菏泽医专,,32,17,12,3,2,102,,115,114,7,6,3,3,0.2,0.2
2024-08-06T2100,2514A,111.5264,24.4172,贺州市,环保小区,,36,36,27,16,14,77,,86,82,9,12,5,6,0.7,0.7
2024-08-06T2100,2515A,111.5608,24.4078,贺州市,政协大楼,,35,35,29,20,16,77,,90,84,12,14,5,7,0.6,0.6
2024-08-06T2100,3534A,111.4744,24.4553,贺州市,西湾,,32,27,31,22,16,70,,77,75,11,14,7,7,0.6,0.6
2024-08-06T2100,2385A,114.17,35.9019,鹤壁市,市监测站,,38,,35,26,23,83,,123,108,13,11,3,4,0.8,0.7
2024-08-06T2100,2386A,114.2956,35.7511,鹤壁市,市交警支队,,45,,31,31,24,81,,115,104,18,14,4,2,0.4,0.6
2024-08-06T2100,2387A,114.2878,35.7306,鹤壁市,迎宾馆,,29,10,25,7,15,92,,119,113,14,13,4,5,0.7,0.9
2024-08-06T2100,3474A,114.2617,35.6822,鹤壁市,大新区,,,22,29,,,64,,112,102,23,13,3,2,0.5,0.5
2024-08-06T2100,3596A,114.1572,35.9603,鹤壁市,南山宾馆,,48,48,40,23,22,67,,119,95,9,8,1,5,0,0.5
2024-08-06T2100,2244A,130.2537,47.3416,鹤岗市,哈啤分公司,,,,21,,10,,,59,48,8,10,,14,0.7,0.7
2024-08-06T2100,2245A,130.2684,47.3086,鹤岗市,斯达机电,,29,29,19,15,8,40,,65,62,19,10,12,12,0.4,0.4
2024-08-06T2100,2246A,130.3114,47.3388,鹤岗市,东山纸板厂,,40,,19,28,20,7,,36,26,16,12,15,15,0.8,0.5
2024-08-06T2100,2247A,130.1097,47.3382,鹤岗市,五号水库,,10,9,5,7,5,24,,59,49,6,8,9,10,0.3,0.3
2024-08-06T2100,2263A,127.4833,50.2524,黑河市,交通局,,47,47,26,12,12,22,,83,71,26,11,5,5,0.7,0.4
2024-08-06T2100,2264A,127.5144,50.2341,黑河市,环保局,,46,46,23,22,10,62,,81,76,16,8,5,6,0.5,0.4
2024-08-06T2100,2265A,127.5291,50.2472,黑河市,大黑河岛,,,34,14,20,16,,,,,20,10,1,2,,
2024-08-06T2100,1074A,115.6838,37.7541,衡水市,电机北厂,,,,43,,20,,,96,,,15,,3,,0.3
2024-08-06T2100,1075A,115.6303,37.7316,衡水市,市监测站,细颗粒物(PM2.5),82,,31,60,19,124,,148,138,7,11,2,3,0.4,0.4
2024-08-06T2100,3188A,115.6683,37.7217,衡水市,市城管局,细颗粒物(PM2.5),77,,32,56,23,108,,146,134,6,9,1,2,0.3,0.4
2024-08-06T2100,3459A,115.5989,37.5491,衡水市,地表水厂,,45,45,40,15,15,90,,127,116,12,13,7,6,0.4,0.4
2024-08-06T2100,2456A,112.5003,26.9167,衡阳市,原169医院,,25,17,27,12,13,80,,110,100,9,11,14,22,0.4,0.6
2024-08-06T2100,2457A,112.6194,26.9258,衡阳市,衡阳化工总厂,,,24,33,,,70,,130,111,7,7,8,12,0.5,0.5
2024-08-06T2100,2458A,112.6211,26.8956,衡阳市,珠晖区环保局,,,33,32,,,67,,116,105,9,8,8,13,0.6,0.7
2024-08-06T2100,2459A,112.6197,26.8733,衡阳市,市委党校,,35,,33,24,15,69,,112,104,10,9,9,14,0.6,0.6
2024-08-06T2100,2460A,112.6006,26.8919,衡阳市,市监测站,,30,30,30,20,20,70,,126,113,9,8,8,14,0.6,0.7
2024-08-06T2100,2461A,112.5664,26.9056,衡阳市,真空机电公司,,26,26,32,16,14,71,,111,101,11,11,8,14,0.7,0.8
2024-08-06T2100,3399A,112.6703,26.882,衡阳市,师范学院,,28,22,31,19,15,69,,114,100,8,8,8,10,0.5,0.6
2024-08-06T2100,2608A,103.3772,23.3993,红河哈尼族彝族自治州,污水处理厂,,18,15,13,12,11,29,,40,36,6,7,5,10,0.4,0.4
2024-08-06T2100,2609A,103.3861,23.35,红河哈尼族彝族自治州,监测站,,22,16,13,15,8,25,,40,37,12,7,12,8,0.4,0.4
2024-08-06T2100,3038A,103.3758,23.368,红河哈尼族彝族自治州,州图书馆,,,8,11,6,6,,,38,35,11,7,5,10,0.4,0.4
2024-08-06T2100,1090A,111.6507,40.7517,呼和浩特市,呼市一监,,37,27,34,9,15,118,,158,150,14,16,7,9,0.4,0.5
2024-08-06T2100,1091A,111.6572,40.8033,呼和浩特市,小召,,37,19,30,9,12,117,,158,148,20,20,8,9,0.5,0.5
2024-08-06T2100,1094A,111.7516,40.8369,呼和浩特市,如意水处理厂,,40,17,29,6,10,126,,165,156,12,22,5,7,0.3,0.5
2024-08-06T2100,1095A,111.7276,40.8062,呼和浩特市,二十九中,,41,32,35,8,13,131,,167,158,11,22,3,5,0.5,0.6
2024-08-06T2100,1096A,111.5512,40.7866,呼和浩特市,工大金川校区,,40,23,33,8,11,126,,158,151,14,22,5,9,0.4,0.5
2024-08-06T2100,1097A,111.717,40.7612,呼和浩特市,化肥厂生活区,,41,30,42,7,15,131,,158,151,12,20,6,8,0.5,0.6
2024-08-06T2100,3698A,111.5968,40.8178,呼和浩特市,红旗小学,,40,12,32,3,12,128,,162,155,14,24,3,7,0.3,0.4
2024-08-06T2100,3699A,111.6518,40.8389,呼和浩特市,海东办,,37,19,33,9,12,116,,168,157,20,23,3,5,0.6,0.7
2024-08-06T2100,2192A,119.7594,49.2261,呼伦贝尔市,区环保局,,43,39,34,30,25,76,,86,86,19,14,5,6,0.5,0.5
2024-08-06T2100,3061A,119.7512,49.1577,呼伦贝尔市,国华电力东,,23,22,26,11,18,73,,89,89,6,6,4,4,0.4,0.5
2024-08-06T2100,1250A,120.0751,30.8669,湖州市,城西水厂,,48,48,42,32,26,116,,190,176,13,27,4,4,0.5,0.5
2024-08-06T2100,2873A,120.0875,30.8955,湖州市,仁皇山新区,,48,48,42,31,28,124,,219,201,14,30,8,7,0.6,0.6
2024-08-06T2100,2907A,120.1844,30.8596,湖州市,吴兴区站,,40,40,38,28,26,98,,194,173,14,24,7,7,0.4,0.5
2024-08-06T2100,3562A,120.4148,30.8538,湖州市,南浔区站,,42,42,35,27,23,83,,166,144,14,14,9,5,0.5,0.6
2024-08-06T2100,1607A,120.9092,40.7136,葫芦岛市,龙港区,,34,34,54,23,16,98,,109,107,8,21,1,21,0.5,0.5
2024-08-06T2100,1608A,120.8392,40.7514,葫芦岛市,化工街,,32,31,28,22,13,78,,107,98,25,30,2,8,0.6,0.5
2024-08-06T2100,1609A,120.8341,40.7073,葫芦岛市,新区,,38,38,37,14,16,88,,108,102,14,27,3,5,0.5,0.6
2024-08-06T2100,1610A,120.8695,40.7677,葫芦岛市,东城区,,46,39,37,32,16,96,,128,118,25,31,4,14,0.4,0.4
2024-08-06T2100,2482A,109.5981,27.5721,怀化市,林科所,,20,16,16,3,8,61,,84,76,7,5,4,5,0.7,0.5
2024-08-06T2100,2483A,109.9453,27.5444,怀化市,河西地税局,,33,23,23,23,13,26,,71,61,20,7,7,7,0.5,0.5
2024-08-06T2100,2484A,109.9781,27.5342,怀化市,市四医院,,15,,28,8,16,47,,71,65,10,11,4,5,0.7,0.6
2024-08-06T2100,2485A,109.9972,27.5578,怀化市,监测楼,,,,23,,15,,,71,66,,11,7,7,0.5,0.5
2024-08-06T2100,2486A,110.0394,27.583,怀化市,市委党校,,23,19,20,16,12,45,,68,60,11,10,9,9,0.5,0.6
2024-08-06T2100,1210A,119.036,33.5981,淮安市,钵池山,,31,29,19,18,14,98,,129,122,13,12,6,6,0.6,0.5
2024-08-06T2100,1211A,119.007,33.575,淮安市,北京南路,,34,34,25,22,16,100,,136,128,11,11,7,8,0.6,0.6
2024-08-06T2100,1212A,118.989,33.6067,淮安市,市监测站,,39,31,23,27,17,114,,146,140,11,15,5,6,0.7,0.7
2024-08-06T2100,1213A,119.135,33.5039,淮安市,楚州区监测站,,39,39,32,21,15,96,,133,129,13,15,4,5,0.7,0.7
2024-08-06T2100,1214A,119.0186,33.6297,淮安市,淮阴区监测站,,39,39,25,16,16,99,,131,121,17,16,3,3,0.7,0.6
2024-08-06T2100,3426A,118.8755,33.2894,淮安市,新华书店,,43,37,27,30,20,108,,150,145,15,15,5,6,0.6,0.6
2024-08-06T2100,2282A,116.8004,33.975,淮北市,监测站,颗粒物(PM10),55,59,16,12,8,100,,122,120,7,6,4,5,0.5,0.5
2024-08-06T2100,2283A,116.8091,33.9007,淮北市,烈山区政府,,34,29,16,14,9,108,,131,130,8,5,5,6,0.6,0.6
2024-08-06T2100,3330A,116.8873,33.9836,淮北市,杜集区检察院,,33,25,24,16,9,103,,125,122,4,4,3,2,0.4,0.5
2024-08-06T2100,4017A,116.7923,33.9535,淮北市,市博物馆,,34,30,14,19,9,108,,128,127,10,9,4,4,0.5,0.5
2024-08-06T2100,2277A,116.8305,32.7727,淮南市,潘集区政府,,26,24,31,12,16,81,,152,134,9,11,5,6,0.3,0.4
2024-08-06T2100,2278A,117.0067,32.6524,淮南市,师范学院,,24,,30,16,12,75,,137,112,9,6,10,10,0.4,0.4
2024-08-06T2100,2279A,116.8569,32.5951,淮南市,谢家集区政府,,25,25,21,3,5,70,,130,112,11,8,5,6,0.1,0.2
2024-08-06T2100,2280A,116.8281,32.633,淮南市,八公山区政府,,23,13,30,6,12,71,,141,117,7,8,6,7,0.2,0.3
2024-08-06T2100,2281A,116.6325,32.6201,淮南市,焦岗湖风景区管理处,,14,7,18,3,5,43,,94,84,13,13,6,7,0.1,0.2
2024-08-06T2100,2894A,117.0566,32.6531,淮南市,经济技术开发区消防队,,22,20,28,3,6,69,,129,104,10,7,4,5,0.4,0.4
2024-08-06T2100,3329A,117.0108,32.5893,淮南市,山南新区,,46,46,45,6,7,73,,132,109,11,7,3,4,0.4,0.4
2024-08-06T2100,2446A,114.9028,30.4742,黄冈市,职工中心,,47,47,46,12,24,78,,152,122,13,15,8,10,0.4,0.5
2024-08-06T2100,2929A,114.8858,30.4519,黄冈市,红卫路,,34,34,48,10,25,86,,155,129,11,17,8,8,0.2,0.4
2024-08-06T2100,3398A,114.9136,30.4445,黄冈市,市林业局,,29,24,44,14,26,90,,164,136,9,20,9,9,0.3,0.4
2024-08-06T2100,2672A,102.0199,35.5102,黄南藏族自治州,同仁县隆务镇,,36,30,28,25,20,73,,99,84,2,3,20,22,0.5,0.5
2024-08-06T2100,2295A,118.2903,29.6963,黄山市,延安路89号,,49,49,35,22,10,45,,118,94,12,8,4,4,0.6,0.5
2024-08-06T2100,2296A,118.327,29.7178,黄山市,黄山东路89号,,38,38,26,24,11,49,,115,93,15,9,6,6,0.6,0.4
2024-08-06T2100,2297A,118.1371,30.2756,黄山市,黄山区政府5号楼,,22,22,22,8,13,52,,95,80,8,6,6,6,0.4,0.4
2024-08-06T2100,2423A,115.0601,30.2313,黄石市,沈家营,,44,44,54,6,17,73,,149,115,6,16,4,13,0.3,0.5
2024-08-06T2100,2424A,115.0817,30.2006,黄石市,陈家湾,,45,45,46,13,17,84,,138,92,9,19,3,4,0.4,0.6
2024-08-06T2100,2426A,114.8988,30.2019,黄石市,铁山,,20,17,37,3,14,64,,148,123,3,9,20,17,0.2,0.3
2024-08-06T2100,2427A,115.0307,30.2092,黄石市,团城山,,38,38,40,3,16,74,,149,114,6,13,11,17,0.4,0.6
2024-08-06T2100,3149A,115.0235,30.1578,黄石市,笔架山北路,,43,43,37,3,10,81,,140,122,11,10,6,8,0.2,0.3
2024-08-06T2100,1392A,114.4183,23.0528,惠州市,河南岸金山湖子站,,26,26,33,14,19,54,,140,108,17,12,4,5,0.6,0.6
2024-08-06T2100,1393A,114.4053,23.0822,惠州市,下埔横江三路子站,,27,27,38,17,22,76,,159,116,11,13,4,5,0.5,0.5
2024-08-06T2100,1394A,114.4103,23.1142,惠州市,江北云山西路子站,,25,25,38,7,20,78,,165,124,8,13,4,5,0.6,0.7
2024-08-06T2100,1395A,114.4645,22.7833,惠州市,惠阳区承修路船湖子站,,25,25,41,14,22,73,,130,100,20,30,5,6,0.5,0.6
2024-08-06T2100,1396A,114.5317,22.7422,惠州市,大亚湾管委会子站,,29,29,32,15,16,71,,128,103,25,26,6,7,0.6,0.6
2024-08-06T2100,3314A,114.4338,22.8134,惠州市,惠阳秋长,,27,27,41,8,15,66,,162,110,23,21,4,5,0.5,0.3
2024-08-06T2100,3452A,114.6517,22.775,惠州市,大亚湾霞涌,,18,12,23,3,6,55,,107,90,14,11,3,4,0.5,0.5
2024-08-06T2100,2240A,130.9762,45.3001,鸡西市,环保局,,25,25,14,12,5,47,,55,53,14,6,8,8,0.4,0.3
2024-08-06T2100,2243A,130.9429,45.3039,鸡西市,第一中学,,29,29,13,11,4,54,,59,55,9,5,4,4,0.2,0.2
2024-08-06T2100,3707A,131.0207,45.3073,鸡西市,欧美日汽修厂,,49,49,19,23,7,19,,55,47,22,8,3,4,0.5,0.4
2024-08-06T2100,3709A,130.9967,45.3106,鸡西市,市政设施管理处,,41,41,18,15,6,8,,60,49,36,12,4,4,0.6,0.4
2024-08-06T2100,2367A,114.9754,27.0803,吉安市,红声器材厂,,38,38,29,21,15,77,,128,112,11,13,14,16,0.5,0.5
2024-08-06T2100,2368A,114.9658,27.0999,吉安市,市森林工业局,,30,30,25,18,13,77,,126,114,11,10,11,13,0.4,0.4
2024-08-06T2100,2369A,114.99,27.1312,吉安市,市环境监测站,,29,29,23,15,12,83,,130,115,9,12,10,11,0.3,0.4
2024-08-06T2100,2370A,115.0093,27.0968,吉安市,青原区法院,,38,38,28,12,14,80,,136,119,13,15,14,15,0.5,0.4
2024-08-06T2100,1772A,126.54,43.8622,吉林市,哈达湾,,27,27,14,13,8,41,,87,80,20,8,5,5,0.7,0.5
2024-08-06T2100,1773A,126.5844,43.8358,吉林市,东局子,,17,17,16,11,28,44,,88,77,10,8,4,4,0.6,0.6
2024-08-06T2100,1774A,126.5052,43.8245,吉林市,电力学院,,27,27,18,8,10,28,,88,75,25,12,6,4,0.7,0.6
2024-08-06T2100,1775A,126.6133,43.8972,吉林市,江北,,34,34,21,14,8,28,,78,62,34,10,9,8,0.8,0.7
2024-08-06T2100,1776A,126.555,43.8306,吉林市,江南公园,,16,16,13,3,8,45,,92,82,10,7,2,2,0.7,0.6
2024-08-06T2100,1778A,126.7061,43.7133,吉林市,丰满,,,,,,,,,,,,,,,,
2024-08-06T2100,2868A,126.4739,43.953,吉林市,九站,,17,15,12,8,8,27,,90,76,34,8,3,3,0.7,0.6
2024-08-06T2100,1299A,116.9862,36.6114,济南市,科干所,,24,24,16,10,7,62,,120,101,17,11,8,8,0.3,0.3
2024-08-06T2100,1300A,116.9376,36.665,济南市,农科所,,49,49,20,17,9,74,,123,104,39,19,8,8,0.5,0.3
2024-08-06T2100,1301A,117.1265,36.6734,济南市,开发区,,29,29,16,3,6,49,,132,113,37,16,9,9,0.6,0.5
2024-08-06T2100,1303A,117.0624,36.6868,济南市,省种子仓库,颗粒物(PM10),51,51,24,14,7,95,,133,122,30,14,8,8,0.6,0.5
2024-08-06T2100,1304A,116.9489,36.6447,济南市,机床二厂,,42,42,20,7,2,67,,146,124,30,15,9,9,0.6,0.5
2024-08-06T2100,1305A,117.0495,36.663,济南市,市监测站,,27,27,16,10,8,54,,135,112,37,17,9,10,0.6,0.4
2024-08-06T2100,1306A,116.7675,36.5484,济南市,长清党校,,26,17,13,12,9,83,,105,99,10,9,9,10,0.6,0.6
2024-08-06T2100,1616A,117.6795,36.229,济南市,技术学院,,34,9,12,7,6,107,,140,136,6,11,9,11,0.6,0.9
2024-08-06T2100,1961A,117.532,36.6868,济南市,东山小学,,,,14,,4,,,130,119,29,17,10,5,0.8,0.6
2024-08-06T2100,3059A,117.7161,36.2049,济南市,泰兴公司,,30,27,18,9,7,93,,130,126,27,22,9,11,0.4,0.6
2024-08-06T2100,3064A,117.6867,36.2171,济南市,莱芜战役纪念馆,,32,12,18,3,4,102,,133,131,7,13,8,10,0.5,0.7
2024-08-06T2100,3494A,117.1673,36.9782,济南市,济阳区政府,,,34,24,17,9,,,121,117,13,12,9,7,0.5,0.3
2024-08-06T2100,3495A,117.1171,36.63,济南市,锦屏中学,,17,15,13,3,5,54,,137,107,17,12,9,9,0.4,0.4
2024-08-06T2100,3682A,116.9814,36.6819,济南市,济南四建,颗粒物(PM10),52,53,21,17,9,78,,134,123,41,17,8,8,0.8,0.6
2024-08-06T2100,1653A,116.6251,35.4302,济宁市,火炬城,,42,23,13,14,6,132,,130,130,9,8,8,8,0.8,0.7
2024-08-06T2100,1655A,116.5491,35.4042,济宁市,电化厂,,31,25,12,14,8,99,,113,113,15,8,4,6,0.6,0.6
2024-08-06T2100,3500A,116.5814,35.3707,济宁市,北湖一中,,32,23,12,22,4,101,,118,118,15,8,8,8,0.8,0.6
2024-08-06T2100,3501A,116.8249,35.5593,济宁市,服务中心,,30,14,12,3,3,93,,116,112,9,8,4,5,0.5,0.4
2024-08-06T2100,3678A,116.5907,35.4054,济宁市,市第七中学,,43,,13,12,4,135,,134,134,12,10,4,4,0.6,0.5
2024-08-06T2100,2255A,130.2751,46.8028,佳木斯市,佳纺,,30,30,14,11,7,49,,70,67,21,10,8,11,0.6,0.5
2024-08-06T2100,2256A,130.3995,46.8307,佳木斯市,发电厂,,36,36,17,18,9,42,,67,65,23,9,7,6,0.7,0.6
2024-08-06T2100,2257A,130.3258,46.7975,佳木斯市,环保局,,19,19,13,12,6,56,,65,65,12,7,8,8,0.5,0.5
2024-08-06T2100,2258A,130.3648,46.8032,佳木斯市,十一中,,30,30,16,20,9,56,,66,66,20,12,8,8,0.7,0.5
2024-08-06T2100,2259A,130.3794,46.7588,佳木斯市,四丰,,,20,10,10,6,40,,65,64,,,1,1,0.6,0.5
2024-08-06T2100,1252A,120.7436,30.778,嘉兴市,清河小学,,40,40,32,24,16,76,,144,135,14,15,11,8,0.6,0.7
2024-08-06T2100,1253A,120.726,30.7478,嘉兴市,嘉兴学院,颗粒物(PM10),54,58,40,29,19,65,,127,118,18,19,1,1,0.6,0.6
2024-08-06T2100,2872A,120.7846,30.7525,嘉兴市,南湖区残联,,46,41,32,32,21,73,,154,142,16,14,6,4,0.9,0.9
2024-08-06T2100,3407A,120.6916,30.7739,嘉兴市,秀洲住建,,42,42,32,28,21,75,,161,145,17,14,3,2,0.5,0.5
2024-08-06T2100,1945A,98.2908,39.7711,嘉峪关市,气象局,,36,36,28,9,8,109,,128,127,15,9,4,13,0.4,0.4
2024-08-06T2100,2884A,98.2672,39.7978,嘉峪关市,酒钢宾馆,,37,36,29,12,9,117,,132,130,12,6,5,18,0.3,0.4
2024-08-06T2100,3248A,98.2643,39.7724,嘉峪关市,雄关区,,35,34,30,12,10,110,,126,124,13,8,10,11,0.3,0.4
2024-08-06T2100,1383A,113.1064,22.6058,江门市,北街,颗粒物(PM10),54,58,34,22,21,77,,135,106,43,18,4,5,0.6,0.5
2024-08-06T2100,1384A,113.0731,22.5835,江门市,西区,颗粒物(PM10),52,54,39,24,20,82,,136,115,39,18,6,7,0.6,0.5
2024-08-06T2100,1385A,113.0219,22.5311,江门市,圭峰西,,44,44,37,27,27,66,,115,100,39,14,4,4,0.5,0.6
2024-08-06T2100,1386A,113.0828,22.5947,江门市,东湖,,48,48,37,22,20,72,,126,105,36,16,6,7,0.5,0.5
2024-08-06T2100,3311A,113.1075,22.5647,江门市,江海富民,颗粒物(PM10),54,57,44,22,24,72,,138,111,50,19,7,7,0.8,0.6
2024-08-06T2100,3449A,113.05,22.4667,江门市,新会银湖,,43,43,37,13,18,31,,132,102,58,19,4,4,0.9,0.8
2024-08-06T2100,1828A,113.227,35.2125,焦作市,市环保局,,33,29,28,11,15,103,,123,120,13,10,4,2,0.3,0.4
2024-08-06T2100,1830A,113.1992,35.2590,焦作市,影视城,,,,,,,,,,,,,,,,
2024-08-06T2100,3169A,113.2725,35.2067,焦作市,太极体育中心,颗粒物(PM10),59,68,37,10,15,99,,119,116,14,11,6,3,0.3,0.4
2024-08-06T2100,3335A,113.3137,35.2641,焦作市,马村街道办,,40,40,32,13,17,88,,120,113,22,13,1,3,0.3,0.5
2024-08-06T2100,3336A,113.2465,35.2373,焦作市,焦作技师学院,,32,29,35,9,17,102,,116,113,8,8,3,2,0.4,0.5
2024-08-06T2100,3477A,113.1656,35.2539,焦作市,中站许衡医院,,30,17,26,16,18,93,,118,113,18,11,5,5,0.2,0.2
2024-08-06T2100,3981A,113.2449,35.1803,焦作市,原李万街道办,,39,39,33,7,13,103,,123,119,12,11,3,3,0.2,0.1
2024-08-06T2100,1708A,116.3701,23.5345,揭阳市,新兴,,42,37,47,29,30,71,,158,132,18,19,7,12,1.1,1
2024-08-06T2100,1709A,116.3264,23.5443,揭阳市,西马,,48,48,52,24,30,68,,164,138,11,13,5,7,1.0,1
2024-08-06T2100,1710A,116.3611,23.5626,揭阳市,东兴,,32,27,52,22,25,75,,156,138,9,11,6,7,1.2,1
2024-08-06T2100,1711A,116.4151,23.5294,揭阳市,渔湖,,43,43,48,18,24,67,,148,125,20,22,9,10,1.6,1
2024-08-06T2100,3320A,116.403,23.5699,揭阳市,曲溪,,42,39,45,29,28,64,,172,138,18,19,9,7,1.4,0.9
2024-08-06T2100,1944A,102.1692,38.5167,金昌市,天庆家园,,,28,62,24,24,81,,120,98,18,10,,9,0.4,0.5
2024-08-06T2100,3170A,102.1864,38.5253,金昌市,市委党校,,28,20,75,7,22,88,,124,103,14,11,7,9,0.6,0.6
2024-08-06T2100,4022A,102.1647,38.5371,金昌市,金川区人防中心,,27,19,68,15,22,84,,122,104,15,8,10,10,0.5,0.5
2024-08-06T2100,1262A,119.647,29.077,金华市,十五中,,34,32,43,18,23,106,,188,162,16,20,2,2,0.5,0.6
2024-08-06T2100,1263A,119.686,29.1029,金华市,监测站,,42,42,40,21,23,97,,184,155,25,24,3,3,0.5,0.6
2024-08-06T2100,3659A,119.656,29.1131,金华市,气象局,,42,42,43,16,17,98,,193,162,22,26,4,4,0.2,0.1
2024-08-06T2100,1767A,121.1115,41.0879,锦州市,南山,,40,31,30,28,18,70,,117,105,30,14,5,5,0.5,0.7
2024-08-06T2100,1768A,121.0533,40.8434,锦州市,开发区,,38,38,46,24,21,98,,124,116,21,33,10,8,0.8,0.8
2024-08-06T2100,1769A,121.1836,41.1119,锦州市,百股街道,,28,28,27,14,14,83,,115,106,20,16,6,6,0.7,0.8
2024-08-06T2100,1770A,121.1178,41.1222,锦州市,天安街道,,,40,34,40,21,,,114,107,20,18,6,5,0.7,1.1
2024-08-06T2100,1771A,121.1303,41.1386,锦州市,北湖公园,,30,30,31,21,16,92,,120,109,16,14,4,4,0.7,1
2024-08-06T2100,2160A,112.85,35.5051,晋城市,自来水公司,,37,35,34,17,19,117,,124,124,10,14,7,8,0.6,0.8
2024-08-06T2100,2161A,112.8318,35.4936,晋城市,白云商贸,,37,37,43,12,17,117,,124,124,12,15,7,7,0.7,0.8
2024-08-06T2100,2162A,112.8508,35.4887,晋城市,市环保局,,34,25,31,12,18,108,,119,119,17,18,7,7,0.6,0.7
2024-08-06T2100,2163A,112.8676,35.4897,晋城市,技术学院,,36,32,35,17,20,113,,120,120,12,18,8,8,0.7,0.8
2024-08-06T2100,2165A,112.8453,35.546,晋城市,白马寺,,,,,,,,,,,,,,,,
2024-08-06T2100,3620A,112.8271,35.4828,晋城市,泽州一中,,35,29,38,14,18,110,,120,120,12,14,9,9,0.6,0.7
2024-08-06T2100,2171A,112.7532,37.6945,晋中市,锦纶小区,,41,41,38,17,14,116,,177,169,16,18,9,8,0.5,0.4
2024-08-06T2100,2173A,112.7249,37.7067,晋中市,南都小区,,43,43,40,30,21,114,,185,176,19,21,8,8,0.8,0.7
2024-08-06T2100,2174A,112.6991,37.6982,晋中市,榆次区政府,,44,44,47,19,21,115,,183,176,19,25,8,8,0.5,0.4
2024-08-06T2100,2865A,112.7195,37.6828,晋中市,榆次三中,,46,46,43,14,14,120,,182,175,14,18,9,10,0.7,0.7
2024-08-06T2100,2439A,112.2014,31.0481,荆门市,竹园小学,,,,37,9,17,,,106,88,17,16,14,11,0.6,0.6
2024-08-06T2100,2440A,112.1969,30.9891,荆门市,掇刀,,20,17,33,9,18,64,,114,90,17,17,7,7,0.5,0.5
2024-08-06T2100,2441A,112.2213,31.0386,荆门市,石化一小,,20,17,37,3,32,62,,114,92,18,14,19,16,0.5,0.5
2024-08-06T2100,3012A,112.1849,31.0362,荆门市,西山林语,,17,14,30,10,17,54,,105,84,12,15,7,7,0.5,0.5
2024-08-06T2100,3547A,112.1632,31.0138,荆门市,龙泉中学南校,,16,10,27,3,13,49,,101,83,8,13,10,9,0.6,0.6
2024-08-06T2100,1844A,112.2494,30.3197,荆州市,市图书馆,,19,,21,8,17,60,,110,92,16,22,6,7,0.5,0.6
2024-08-06T2100,1845A,112.2008,30.3544,荆州市,市委党校,,,,20,,13,64,,112,96,,12,5,6,0.5,0.6
2024-08-06T2100,3194A,112.2747,30.3122,荆州市,管委会,,17,15,19,3,14,52,,116,94,25,18,7,6,0.4,0.5
2024-08-06T2100,3548A,112.1655,30.3364,荆州市,学苑路,,20,18,30,3,16,63,,102,88,13,13,6,7,0.5,0.6
2024-08-06T2100,2342A,117.3102,29.3867,景德镇市,王港中学,,,,,,,,,,,,,,,,
2024-08-06T2100,2343A,117.2117,29.2933,景德镇市,老干部活动中心,,39,39,30,19,19,82,,110,104,6,9,6,11,0.2,0.3
2024-08-06T2100,2344A,117.1894,29.2789,景德镇市,兽医站,,35,29,31,24,18,90,,117,105,6,7,8,10,0.2,0.1
2024-08-06T2100,2345A,117.1547,29.2617,景德镇市,台达陶瓷,细颗粒物(PM2.5),53,39,33,37,21,79,,102,90,10,12,32,23,0.3,0.3
2024-08-06T2100,2346A,117.2461,29.2956,景德镇市,陶研所,,47,47,36,22,16,70,,112,104,19,12,4,6,0.4,0.3
2024-08-06T2100,1803A,115.9872,29.6815,九江市,十里,,35,35,32,17,18,81,,111,96,16,16,9,9,0.6,0.7
2024-08-06T2100,1804A,115.9584,29.7046,九江市,茅山头,,38,33,24,26,16,90,,118,105,20,14,7,7,0.5,0.5
2024-08-06T2100,1805A,115.9877,29.7295,九江市,西园,,32,28,28,22,19,70,,133,116,38,27,15,12,0.6,0.5
2024-08-06T2100,1806A,116.0172,29.6547,九江市,五七二七厂,,29,26,22,20,19,91,,103,95,11,13,9,10,0.4,0.4
2024-08-06T2100,1808A,115.9114,29.6038,九江市,综合工业园,,36,30,27,25,16,70,,124,113,30,16,10,11,0.7,0.6
2024-08-06T2100,1809A,116.0721,29.7535,九江市,石化总厂,,45,45,34,22,16,91,,125,111,19,13,12,11,0.7,0.7
2024-08-06T2100,1810A,115.9773,29.5698,九江市,庐山气象台,,28,24,16,15,15,89,,98,95,2,3,24,13,0.8,0.6
2024-08-06T2100,3190A,116.0254,29.6994,九江市,外国语学校,,33,30,31,23,22,89,,122,110,19,17,6,13,0.7,0.7
2024-08-06T2100,2658A,98.5061,39.7443,酒泉市,仓门街子站,,46,46,36,8,10,110,,126,124,13,6,8,12,0.5,0.3
2024-08-06T2100,2659A,98.4989,39.7256,酒泉市,油田生活基地,颗粒物(PM10),58,66,35,3,11,111,,128,126,15,8,8,11,0.3,0.3
2024-08-06T2100,2698A,76.0072,39.4467,喀什地区,巡警大队,颗粒物(PM10),71,91,57,6,10,115,,128,128,18,15,4,4,0.4,0.4
2024-08-06T2100,2699A,75.9755,39.4694,喀什地区,吾办,颗粒物(PM10),61,72,52,25,21,112,,124,124,20,14,4,4,0.5,0.5
2024-08-06T2100,4027A,75.9483,39.4689,喀什地区,老干局,,,,55,,13,106,,119,119,,17,4,4,,0.4
2024-08-06T2100,1824A,114.3389,34.7781,开封市,肿瘤医院,,25,17,19,3,6,77,,104,101,7,6,4,4,0.5,0.5
2024-08-06T2100,1826A,114.2885,34.7965,开封市,世纪星幼儿园,,28,28,20,11,5,80,,105,102,7,4,2,2,0.3,0.3
2024-08-06T2100,3147A,114.3438,34.8106,开封市,龙亭公园,,25,19,18,10,8,78,,104,101,10,8,2,2,0.4,0.4
2024-08-06T2100,3210A,114.3644,34.7964,开封市,汴京公园,,,30,21,13,8,81,,112,108,12,8,,3,0.3,0.3
2024-08-06T2100,3473A,114.2485,34.8306,开封市,技师学院,,28,12,17,8,7,88,,110,110,6,6,6,5,0.6,0.5
2024-08-06T2100,3592A,114.4644,34.7556,开封市,祥符区生态环境局,,31,31,14,16,6,50,,102,92,28,12,3,3,0.4,0.3
2024-08-06T2100,1951A,84.895,45.6094,克拉玛依市,长征新村,,30,27,21,3,6,96,,113,112,12,6,7,7,0.2,0.2
2024-08-06T2100,1952A,84.8988,45.5893,克拉玛依市,南林小区,,29,29,21,13,9,53,,107,100,34,12,8,8,0.2,0.1
2024-08-06T2100,1954A,84.905,44.3396,克拉玛依市,独山子区,,36,24,36,11,11,113,,118,118,10,10,7,7,0.3,0.3
2024-08-06T2100,1955A,85.6979,46.098,克拉玛依市,乌尔禾区商贸楼,颗粒物(PM10),57,63,20,11,8,57,,107,102,50,11,6,5,0.5,0.4
2024-08-06T2100,3612A,85.1045,45.6899,克拉玛依市,白碱滩区新站,,36,,21,22,15,113,,118,118,9,7,9,8,0.2,0.1
2024-08-06T2100,2697A,76.1454,39.7142,克孜勒苏柯尔克孜自治州,市人民政府,,49,49,49,10,18,126,,130,130,12,8,9,12,0.5,0.5
2024-08-06T2100,3665A,76.1658,39.7157,克孜勒苏柯尔克孜自治州,克州文化中心,颗粒物(PM10),53,56,39,16,18,125,,134,134,15,4,12,15,0.6,0.6
2024-08-06T2100,1450A,102.8204,24.8886,昆明市,呈贡新区,,26,26,19,3,8,50,,64,64,13,11,2,4,0.7,0.7
2024-08-06T2100,1451A,102.6251,24.9608,昆明市,西山森林公园,,,,,,,,,,,,,,,,
2024-08-06T2100,1452A,102.7252,25.0902,昆明市,龙泉镇,,31,31,17,11,6,46,,67,67,15,12,7,6,0.5,0.6
2024-08-06T2100,1453A,102.7266,25.0375,昆明市,东风东路,,17,17,13,8,7,37,,62,62,26,15,4,5,0.5,0.5
2024-08-06T2100,1454A,102.6742,25.0669,昆明市,金鼎山,,21,21,16,3,6,43,,65,65,22,13,4,4,0.4,0.4
2024-08-06T2100,1455A,102.6644,25.0401,昆明市,碧鸡广场,,15,12,15,6,7,47,,63,63,18,14,3,4,0.4,0.4
2024-08-06T2100,3179A,102.7494,25.0119,昆明市,官渡区博物馆,,19,15,10,13,7,37,,68,68,28,14,6,6,0.4,0.4
2024-08-06T2100,3375A,102.8017,24.8336,昆明市,青年创业园,,32,32,12,16,7,17,,61,53,28,10,2,3,0.6,0.4
2024-08-06T2100,3550A,102.7997,24.9786,昆明市,昆明学院,,22,22,15,12,9,40,,68,68,26,13,4,5,0.5,0.5
2024-08-06T2100,3551A,102.5967,24.6736,昆明市,晋宁区生态环境分局,,20,,16,14,9,31,,65,58,19,9,3,4,0.4,0.4
2024-08-06T2100,3552A,102.6678,24.9856,昆明市,云天化总部,,17,9,11,3,6,53,,68,68,8,8,5,6,0.4,0.4
2024-08-06T2100,1456A,91.1319,29.6514,拉萨市,八廓街,,19,7,8,6,6,60,,89,83,13,11,7,6,0.3,0.2
2024-08-06T2100,1457A,91.1221,29.6747,拉萨市,市环保局,,20,8,12,3,6,62,,86,82,10,13,7,6,0.3,0.3
2024-08-06T2100,1458A,91.0874,29.6475,拉萨市,区监测站,,19,7,7,3,5,58,,82,78,14,12,8,7,0.2,0.2
2024-08-06T2100,1459A,91.1774,29.6541,拉萨市,西藏大学,,18,13,8,6,6,57,,90,85,12,9,13,12,0.3,0.2
2024-08-06T2100,1460A,90.9798,29.6588,拉萨市,区辐射站,,20,12,9,7,6,61,,85,80,13,11,8,8,0.2,0.1
2024-08-06T2100,1461A,91.0834,29.6292,拉萨市,拉萨火车站,,20,6,7,3,6,61,,83,80,11,13,9,9,0.1,0.2
2024-08-06T2100,2520A,109.2203,23.7256,来宾市,来宾技工学校,,32,,35,22,17,74,,91,89,12,16,8,13,0.8,0.8
2024-08-06T2100,3535A,109.1781,23.7297,来宾市,兴宾区政府,,39,39,27,15,16,68,,99,93,17,12,6,6,0.8,0.8
2024-08-06T2100,4002A,109.2416,23.7461,来宾市,中南小学,,41,41,35,22,18,75,,100,96,17,16,8,18,0.8,0.7
2024-08-06T2100,1476A,103.631,36.1031,兰州市,兰炼宾馆,,34,31,38,18,24,106,,126,123,15,23,8,10,0.3,0.4
2024-08-06T2100,1477A,104.1373,35.9454,兰州市,榆中兰大校区,,,,,,,,,,,,,,,,
2024-08-06T2100,1478A,103.8412,36.0726,兰州市,生物制品所,,35,28,31,24,19,93,,119,117,18,15,6,7,0.4,0.4
2024-08-06T2100,1479A,103.831,36.0464,兰州市,铁路设计院,,42,29,37,29,19,106,,113,112,19,21,7,9,0.4,0.4
2024-08-06T2100,3186A,103.7158,36.1058,兰州市,教育港,,,40,50,31,26,,,124,124,12,18,4,6,0.3,0.3
2024-08-06T2100,3241A,103.7439,36.0842,兰州市,百合公园,,30,21,40,9,15,94,,122,120,10,27,10,10,0.5,0.5
2024-08-06T2100,3242A,103.9611,35.998,兰州市,和平,,36,31,37,19,18,115,,119,119,7,13,6,9,0.5,0.5
2024-08-06T2100,3245A,103.6633,36.533,兰州新区,新区管委会,,37,27,39,17,18,116,,136,134,6,12,6,13,0.3,0.4
2024-08-06T2100,3246A,103.6975,36.4789,兰州新区,舟曲中学,,,42,47,10,15,,,131,131,,14,,14,,0.5
2024-08-06T2100,1067A,116.6708,39.5111,廊坊市,药材公司,颗粒物(PM10),53,55,39,17,15,117,,166,161,21,16,1,2,0.4,0.4
2024-08-06T2100,1068A,116.7214,39.5589,廊坊市,开发区,,39,35,38,17,22,124,,171,160,15,18,1,3,0.5,0.4
2024-08-06T2100,1070A,116.7244,39.5269,廊坊市,北华航天学院,颗粒物(PM10),52,54,58,14,19,127,,174,163,16,19,2,2,0.4,0.4
2024-08-06T2100,2919A,116.7022,39.5453,廊坊市,河北工业大学,颗粒物(PM10),51,52,48,22,20,138,,170,165,13,17,2,2,0.4,0.4
2024-08-06T2100,2535A,103.7723,29.5462,乐山市,花湖湾,颗粒物(PM10),60,69,24,38,27,83,,111,104,8,13,4,4,0.5,0.6
2024-08-06T2100,2536A,103.7627,29.5844,乐山市,牛耳桥,,45,37,34,31,25,93,,126,117,13,19,2,3,0.5,0.6
2024-08-06T2100,2537A,103.7508,29.6006,乐山市,市第三水厂,,36,36,36,21,20,107,,133,126,10,20,1,4,0.5,0.7
2024-08-06T2100,2538A,103.7571,29.5664,乐山市,市监测站,,34,34,33,23,20,103,,128,120,9,14,3,5,0.6,0.8
2024-08-06T2100,3361A,103.7311,29.5628,乐山市,理工大学,,43,35,31,30,22,104,,133,126,8,14,3,5,0.5,0.7
2024-08-06T2100,2598A,100.2143,26.8576,丽江市,西南郊,,,,,,,,,,,,,,,,
2024-08-06T2100,2599A,100.2497,26.8802,丽江市,丽江古城,,24,24,24,13,17,64,,69,69,10,13,10,10,0.7,0.7
2024-08-06T2100,2600A,100.2203,26.8906,丽江市,市中心,,22,,21,15,14,57,,71,69,17,10,9,8,0.7,0.6
2024-08-06T2100,1267A,119.914,28.4514,丽水市,监测站大楼,,36,31,24,20,13,115,,107,106,8,13,3,4,0.4,0.5
2024-08-06T2100,1268A,119.93,28.4586,丽水市,莲都小学,,36,34,27,12,13,114,,108,108,8,11,4,4,0.2,0.3
2024-08-06T2100,1269A,119.879,28.4231,丽水市,余庄前,,37,37,26,22,13,108,,104,102,9,12,3,3,0.3,0.3
2024-08-06T2100,1173A,119.176,34.5885,连云港市,市环境监测站,,27,27,15,7,7,86,,152,143,14,11,6,6,0.5,0.5
2024-08-06T2100,3000A,119.3581,34.6972,连云港市,德源药业,,,,16,,6,,,124,115,20,21,4,2,0.3,0.4
2024-08-06T2100,3007A,119.178,34.844,连云港市,新城一中,,28,16,14,3,7,89,,120,112,16,13,2,2,0.6,0.7
2024-08-06T2100,3008A,119.3608,34.7519,连云港市,胡沟管理处,,32,31,13,9,5,15,,110,82,64,18,10,6,0.6,0.6
2024-08-06T2100,3009A,119.1478,34.5911,连云港市,矿山设计院,,27,27,16,12,8,79,,135,128,13,12,6,5,0.8,0.7
2024-08-06T2100,3434A,119.2413,34.6539,连云港市,工贸学校,,29,29,17,15,10,89,,142,134,10,9,7,6,1.0,0.8
2024-08-06T2100,3664A,119.4172,34.7341,连云港市,连云街道,,29,29,22,13,7,84,,111,108,10,16,2,3,0.5,0.5
2024-08-06T2100,2571A,102.3431,27.8099,凉山彝族自治州,青龙寺,,25,15,12,6,8,77,,93,92,4,4,2,3,0.4,0.4
2024-08-06T2100,2572A,102.2721,27.8415,凉山彝族自治州,邛海宾馆,,22,22,16,12,12,70,,100,95,7,11,11,11,0.6,0.7
2024-08-06T2100,2573A,102.2625,27.898,凉山彝族自治州,西昌市政府,,21,14,19,3,10,65,,105,99,10,11,17,17,1.0,0.9
2024-08-06T2100,2574A,102.2685,27.8851,凉山彝族自治州,凉山州政府,,30,30,19,19,12,70,,107,100,11,11,15,15,0.6,0.7
2024-08-06T2100,2575A,102.237,27.8914,凉山彝族自治州,长安,,39,39,22,13,12,72,,101,97,8,13,15,17,0.8,0.8
2024-08-06T2100,2212A,123.2,41.1953,辽阳市,宏伟区,,,,27,10,14,113,,132,125,6,11,6,6,0.6,0.8
2024-08-06T2100,2213A,123.1683,41.2495,辽阳市,新华园,,,,32,17,18,93,,122,114,10,15,6,7,0.6,0.9
2024-08-06T2100,2214A,123.2354,41.2639,辽阳市,滨河路,,27,,28,9,14,86,,108,88,10,13,7,7,0.5,0.6
2024-08-06T2100,2215A,123.149,41.2991,辽阳市,铁西工业园,,30,30,37,21,16,80,,116,107,13,14,8,8,1.1,1.1
2024-08-06T2100,2227A,125.1358,42.8845,辽源市,环保局,,21,21,15,14,7,26,,98,82,18,5,6,6,0.8,0.6
2024-08-06T2100,3239A,125.0764,42.9078,辽源市,银鹰制药,,29,29,12,16,6,15,,101,84,34,7,5,4,1.0,0.8
2024-08-06T2100,1625A,115.9848,36.4372,聊城市,区政府,,34,19,16,6,7,108,,121,119,11,11,7,8,0.5,0.5
2024-08-06T2100,2878A,116.0072,36.4343,聊城市,聊大东校,,31,24,20,9,13,98,,126,122,17,10,5,7,0.6,0.5
2024-08-06T2100,3200A,115.9819,36.4978,聊城市,监控中心,,30,30,24,7,7,94,,122,115,18,8,6,5,0.5,0.4
2024-08-06T2100,3513A,116.0445,36.4361,聊城市,九州社区,,28,25,22,3,5,89,,119,114,16,10,3,5,0.6,0.6
2024-08-06T2100,4018A,116.0567,36.4608,聊城市,星美广场,颗粒物(PM10),53,56,27,28,9,71,,124,115,32,10,6,6,0.5,0.5
2024-08-06T2100,2632A,94.3681,29.6376,林芝市,林芝监测站,,12,9,6,6,5,37,,58,54,7,3,8,8,0.3,0.3
2024-08-06T2100,2633A,94.3616,29.6616,林芝市,林芝人民医院,,14,8,7,3,4,42,,61,58,8,6,6,6,0.2,0.2
2024-08-06T2100,2603A,100.0781,23.8982,临沧市,市环保局,,38,27,20,26,20,24,,44,39,10,9,4,4,0.4,0.4
2024-08-06T2100,2604A,100.0894,23.8822,临沧市,市气象局,,15,12,14,10,10,17,,40,36,9,9,4,4,0.5,0.4
2024-08-06T2100,1733A,111.5531,36.0783,临汾市,临钢医院,颗粒物(PM10),54,57,48,19,17,124,,165,161,10,11,6,7,0.5,0.6
2024-08-06T2100,1734A,111.5028,36.0714,临汾市,技工学校,颗粒物(PM10),66,81,46,26,17,133,,168,164,20,15,5,4,0.7,0.7
2024-08-06T2100,1736A,111.5018,36.0855,临汾市,市委,,,,37,,19,145,,178,175,11,8,7,6,0.7,0.6
2024-08-06T2100,3018A,111.505,36.1014,临汾市,唐尧大酒店,颗粒物(PM10),52,54,37,16,15,130,,156,153,12,12,4,5,0.8,0.7
2024-08-06T2100,3668A,111.5036,36.0414,临汾市,城南,颗粒物(PM10),78,106,47,40,19,132,,172,166,12,14,3,4,0.7,0.6
2024-08-06T2100,2667A,103.2069,35.5993,临夏回族自治州,环保局,,36,36,51,22,24,107,,113,113,2,9,8,9,0.3,0.4
2024-08-06T2100,2668A,103.2417,35.6057,临夏回族自治州,建设大厦,,46,46,54,16,22,109,,115,115,3,8,4,4,0.2,0.4
2024-08-06T2100,1618A,118.3429,35.0532,临沂市,沂河小区,,33,22,17,11,10,103,,142,138,6,7,6,6,0.3,0.3
2024-08-06T2100,1619A,118.295,35.0583,临沂市,鲁南制药厂,,35,14,9,14,8,111,,152,148,12,12,4,5,0.3,0.2
2024-08-06T2100,1620A,118.2794,34.9976,临沂市,新光毛纺厂,,34,17,11,13,8,106,,140,136,14,9,13,6,0.7,0.6
2024-08-06T2100,1621A,118.3956,35.0888,临沂市,河东保险公司,,32,14,11,7,5,100,,132,129,12,12,6,6,0.4,0.4
2024-08-06T2100,3370A,118.3564,35.0215,临沂市,十里堡居委,,31,7,6,3,6,98,,136,132,12,11,6,6,0.5,0.4
2024-08-06T2100,3496A,118.3604,35.1084,临沂市,南坊新区,,33,24,14,7,4,103,,145,141,11,11,7,7,0.6,0.6
2024-08-06T2100,3860A,118.3920,35.0300,临沂市,皇山花园小区,,,17,9,10,10,86,,112,112,15,16,,17,0.5,0.3
2024-08-06T2100,1870A,109.4856,24.3895,柳州市,柳东小学,,,21,30,21,16,,,86,86,8,15,8,9,0.6,0.7
2024-08-06T2100,1871A,109.4157,24.3277,柳州市,环保监测站,,,37,32,16,18,,,97,94,13,14,8,8,0.7,0.8
2024-08-06T2100,1872A,109.389,24.341,柳州市,河西水厂,,27,27,38,13,19,85,,96,95,8,15,6,7,0.8,0.9
2024-08-06T2100,1873A,109.4311,24.2921,柳州市,市四中,,27,24,33,17,18,85,,100,97,13,15,6,7,0.5,0.6
2024-08-06T2100,1874A,109.4006,24.3631,柳州市,市九中,,32,32,37,9,17,86,,102,98,14,16,6,7,0.7,0.7
2024-08-06T2100,1875A,109.4958,24.3134,柳州市,古亭山,,35,34,27,24,16,54,,87,83,23,20,6,10,0.8,0.7
2024-08-06T2100,3402A,109.5422,24.3996,柳州市,市二中,,27,24,33,17,14,84,,89,88,10,16,22,10,0.6,0.6
2024-08-06T2100,2307A,116.5079,31.737,六安市,监测大楼,,24,14,26,10,13,75,,125,93,7,9,5,7,0.4,0.5
2024-08-06T2100,2308A,116.4738,31.7643,六安市,皖西学院,,22,16,33,14,14,68,,134,100,7,9,4,5,0.3,0.4
2024-08-06T2100,2309A,116.4996,31.7905,六安市,朝阳厂,,21,,26,13,14,67,,131,96,7,7,9,10,0.3,0.3
2024-08-06T2100,2310A,116.5567,31.7886,六安市,开发区,,22,14,29,7,18,69,,115,91,10,8,5,7,0.4,0.4
2024-08-06T2100,2576A,104.8,26.5892,六盘水市,窑上,,,,,,,,,,,,,,,,
2024-08-06T2100,2577A,104.83,26.5917,六盘水市,黄土坡,,38,38,20,7,9,23,,65,54,27,14,8,8,0.6,0.5
2024-08-06T2100,2578A,104.89,26.5939,六盘水市,水钢,,40,40,22,6,7,38,,61,54,22,13,6,10,0.4,0.7
2024-08-06T2100,2579A,104.8475,26.5894,六盘水市,民中,,27,27,17,17,10,30,,66,54,33,15,8,7,0.6,0.4
2024-08-06T2100,2580A,104.9544,26.5506,六盘水市,双水,,,,18,,9,,,70,68,9,6,5,6,0.2,0.3
2024-08-06T2100,2335A,117.0189,25.1181,龙岩市,龙岩师专,,,,,,,,,,,,,,,,
2024-08-06T2100,2336A,117.0217,25.1033,龙岩市,龙岩市监测站,,23,18,28,16,20,68,,135,107,16,13,17,9,0.4,0.4
2024-08-06T2100,2337A,117.0258,25.0661,龙岩市,闽西职业技术学院,,27,27,36,17,21,69,,132,103,12,14,9,9,0.4,0.5
2024-08-06T2100,2338A,117.0196,25.0306,龙岩市,龙岩学院,,42,,31,29,20,49,,128,95,9,8,4,4,0.4,0.3
2024-08-06T2100,2665A,105.0822,33.3261,陇南市,汉王镇固水子,,,,,,,,,,,,,,,,
2024-08-06T2100,2885A,104.9339,33.3826,陇南市,滨江中学,,41,41,36,12,13,84,,89,89,8,9,4,5,0.7,0.7
2024-08-06T2100,3247A,104.955,33.371,陇南市,市总工会,,32,32,28,8,8,91,,93,93,5,6,5,5,0.5,0.5
2024-08-06T2100,2487A,111.9589,27.8901,娄底市,电视发射台,,24,24,31,13,17,43,,99,77,8,8,6,8,0.5,0.6
2024-08-06T2100,2488A,111.9975,27.725,娄底市,市监测站,,,,32,37,21,,,96,91,8,6,10,11,0.4,0.7
2024-08-06T2100,2489A,112.0194,27.7314,娄底市,市委党校,,34,34,34,22,18,66,,88,80,3,4,12,11,0.6,0.6
2024-08-06T2100,2490A,111.9561,27.7569,娄底市,涟钢,,47,47,44,18,24,40,,68,58,35,25,8,6,1.7,1
2024-08-06T2100,2491A,111.9892,27.7044,娄底市,市政府,,26,26,26,16,20,61,,92,84,12,9,6,7,0.5,0.5
2024-08-06T2100,1893A,105.4324,28.9634,泸州市,九狮山,,50,39,19,35,11,81,,154,142,17,17,4,5,0.3,0.3
2024-08-06T2100,1894A,105.4427,28.9063,泸州市,小市上码头,,34,34,22,14,10,89,,152,144,15,12,7,10,0.3,0.4
2024-08-06T2100,1895A,105.4241,28.8573,泸州市,兰田宪桥,,46,46,24,20,15,83,,141,134,13,14,5,5,0.4,0.3
2024-08-06T2100,1896A,105.4379,28.8833,泸州市,市环监站,,34,34,20,12,11,87,,143,136,14,12,8,12,0.4,0.4
2024-08-06T2100,3490A,105.3617,28.7703,泸州市,纳溪区环保局,,28,24,23,15,17,89,,144,136,15,12,5,4,0.4,0.3
2024-08-06T2100,2183A,111.1406,37.5211,吕梁市,环保局,,,,36,61,19,38,,163,142,76,17,2,4,0.7,0.5
2024-08-06T2100,2185A,111.1297,37.5136,吕梁市,自来水公司,颗粒物(PM10),57,63,30,25,13,82,,165,150,36,16,3,3,0.8,0.5
2024-08-06T2100,2867A,111.1283,37.51,吕梁市,马茂庄小学,颗粒物(PM10),63,75,30,28,13,70,,174,149,58,22,4,3,0.7,0.6
2024-08-06T2100,1812A,112.3931,34.6516,洛阳市,市委党校,,,,23,14,16,,,147,134,8,7,6,5,0.6,0.6
2024-08-06T2100,1814A,112.4657,34.6871,洛阳市,豫西宾馆,,34,8,28,8,14,107,,154,140,5,8,1,3,0.2,0.3
2024-08-06T2100,1815A,112.494,34.6886,洛阳市,河南林校,,31,11,21,9,13,99,,150,135,4,10,1,2,0.4,0.5
2024-08-06T2100,1816A,112.3844,34.623,洛阳市,开发区管委会,,28,15,21,8,13,88,,147,130,6,7,3,3,0.4,0.4
2024-08-06T2100,1817A,112.4267,34.6258,洛阳市,市委新办公区,,26,23,21,11,17,82,,143,129,5,4,2,5,0.5,0.5
2024-08-06T2100,3340A,112.6005,34.6326,洛阳市,伊滨,,26,,36,13,17,82,,142,123,9,11,2,4,0.4,0.4
2024-08-06T2100,3341A,112.4951,34.6332,洛阳市,中移产业园,,28,16,26,9,16,89,,146,131,5,9,2,5,0.5,0.6
2024-08-06T2100,3593A,112.5736,34.8993,洛阳市,吉利监测站,,34,17,31,8,24,107,,140,136,2,10,1,2,0.4,0.6
2024-08-06T2100,3635A,112.3677,34.662,洛阳市,河科大西苑校区,,,9,19,7,10,,,146,133,,7,2,5,0.6,0.6
2024-08-06T2100,3636A,112.4388,34.6781,洛阳市,英才小学,,31,,22,12,16,98,,148,133,2,6,1,4,0.6,0.7
2024-08-06T2100,2399A,114.051,33.5699,漯河市,三五一五工厂,,,,5,10,5,70,,109,99,13,7,6,7,,0.4
2024-08-06T2100,2400A,114.0055,33.5698,漯河市,漯河大学,,23,9,11,7,4,72,,116,106,8,6,10,9,0.3,0.3
2024-08-06T2100,2401A,114.0138,33.5828,漯河市,市水利局,,,,7,,2,,,110,107,9,6,9,7,0.3,0.4
2024-08-06T2100,2402A,114.0261,33.5698,漯河市,市广电局,,23,12,5,6,7,73,,113,104,5,4,5,4,0.5,0.4
2024-08-06T2100,3478A,113.9749,33.5664,漯河市,市图书馆,,23,14,12,14,5,73,,122,111,11,8,7,7,0.3,0.2
2024-08-06T2100,3479A,114.0967,33.5906,漯河市,召陵区卫健委,,24,18,12,9,7,75,,108,100,7,6,2,3,0.4,0.4
2024-08-06T2100,1798A,118.5092,31.6837,马鞍山市,湖东路四小,,47,32,38,26,18,149,,189,178,13,14,5,7,0.6,0.8
2024-08-06T2100,1799A,118.5024,31.6449,马鞍山市,开发区,,47,39,39,18,19,150,,158,145,11,19,4,4,0.7,0.8
2024-08-06T2100,1800A,118.5228,31.7231,马鞍山市,慈湖,,49,40,34,25,23,154,,209,185,14,18,5,7,0.6,0.9
2024-08-06T2100,1802A,118.6245,31.7241,马鞍山市,濮塘,,45,29,23,21,18,142,,151,143,5,7,4,5,0.7,0.8
2024-08-06T2100,3633A,118.4918,31.6809,马鞍山市,雨山,,47,40,30,18,18,148,,171,160,9,11,7,8,0.8,0.9
2024-08-06T2100,1686A,111.0286,21.4688,茂名市,电白南海,,32,27,36,22,24,101,,122,122,5,9,7,12,0.5,0.4
2024-08-06T2100,1687A,110.9294,21.6533,茂名市,茂石化七小,,42,36,27,29,23,92,,88,88,8,9,9,17,0.5,0.5
2024-08-06T2100,1688A,110.9107,21.6687,茂名市,健康路,,31,31,26,12,13,88,,92,90,10,9,9,22,0.6,0.6
2024-08-06T2100,1689A,110.8592,21.6828,茂名市,高岭,,,,32,,25,,,50,,,13,,26,,0.6
2024-08-06T2100,3450A,111.01,21.5165,茂名市,电白水东,,,102,28,22,18,100,,99,99,6,8,4,10,,0.6
2024-08-06T2100,2539A,104.0308,30.0478,眉山市,黑龙滩水库,细颗粒物(PM2.5),60,,33,43,19,94,,105,105,3,3,5,5,0.3,0.2
2024-08-06T2100,2540A,103.8416,30.0874,眉山市,气象局,,39,28,27,27,20,118,,142,140,9,26,6,8,0.5,0.4
2024-08-06T2100,3137A,103.8578,30.0744,眉山市,市委党校,,39,39,29,24,17,122,,147,144,11,19,11,10,0.8,0.8
2024-08-06T2100,3148A,103.8291,30.0564,眉山市,区人社局,,35,35,29,19,19,112,,143,138,12,26,12,13,0.6,0.6
2024-08-06T2100,1690A,116.1231,24.3284,梅州市,梅江月梅,,25,25,21,14,13,75,,130,113,8,6,8,8,0.5,0.4
2024-08-06T2100,1691A,116.0797,24.2719,梅州市,梅县新城,,22,11,26,3,12,69,,138,113,8,10,5,6,0.6,0.6
2024-08-06T2100,1692A,116.1248,24.2654,梅州市,环境监控中心,,21,,29,12,16,65,,131,112,13,12,6,12,0.4,0.4
2024-08-06T2100,3315A,116.1233,24.2991,梅州市,梅龙,,26,19,19,18,14,77,,144,118,9,7,9,9,0.6,0.6
2024-08-06T2100,1878A,104.7778,31.4741,绵阳市,富乐山,,30,26,26,21,23,83,,116,109,4,8,8,8,0.5,0.5
2024-08-06T2100,1879A,104.7563,31.4535,绵阳市,市人大,,36,36,35,24,22,85,,115,110,22,19,7,9,0.5,0.5
2024-08-06T2100,1880A,104.6697,31.4668,绵阳市,高新区自来水公司,,29,29,38,17,22,87,,108,108,22,24,5,6,0.6,0.6
2024-08-06T2100,1881A,104.7287,31.5075,绵阳市,三水厂,,38,28,45,26,27,74,,111,110,25,26,4,4,0.6,0.7
2024-08-06T2100,3491A,104.69,31.5322,绵阳市,西科大附属小学,,39,34,38,27,24,82,,112,111,22,22,8,8,0.4,0.4
2024-08-06T2100,3492A,104.5648,31.5343,绵阳市,安州区旅游局,,42,34,25,29,25,110,,127,127,13,14,6,6,0.7,0.6
2024-08-06T2100,1784A,129.61,44.561,牡丹江市,环保大楼,,36,36,16,14,11,36,,72,62,23,9,7,7,0.4,0.3
2024-08-06T2100,1785A,129.6115,44.5782,牡丹江市,文化广场,,50,41,18,35,24,31,,67,54,29,13,7,6,0.6,0.4
2024-08-06T2100,1786A,129.5904,44.5963,牡丹江市,第一医院,,29,22,17,20,15,18,,68,53,22,11,5,5,0.7,0.5
2024-08-06T2100,1787A,129.6364,44.6075,牡丹江市,机车工厂,,40,34,22,28,17,19,,66,50,13,9,8,5,0.5,0.4
2024-08-06T2100,1788A,129.6386,44.5462,牡丹江市,第一中学,,32,32,25,19,13,6,,69,51,23,11,4,5,0.5,0.4
2024-08-06T2100,2531A,105.0703,29.61,内江市,市监测站,,32,27,17,22,24,91,,127,123,39,18,9,9,0.4,0.3
2024-08-06T2100,2532A,105.0717,29.5947,内江市,东兴区政府,,34,32,23,18,13,108,,120,119,12,12,8,8,0.7,0.7
2024-08-06T2100,2533A,105.0653,29.5817,内江市,内江二中,,43,34,28,30,21,107,,132,130,16,11,3,3,0.6,0.6
2024-08-06T2100,2534A,105.0406,29.5822,内江市,内江日报社,,,39,21,13,22,,,145,145,16,17,11,25,0.5,0.7
2024-08-06T2100,2628A,92.0657,31.4846,那曲市,那曲监测站,,,50,35,16,11,,,72,69,12,6,7,6,0.6,0.4
2024-08-06T2100,3128A,92.0506,31.4797,那曲市,那曲会议中心,,46,46,26,22,11,63,,86,81,17,8,5,4,0.5,0.6
2024-08-06T2100,1290A,115.8931,28.6843,南昌市,省外办,,46,46,40,17,18,145,,138,138,18,20,9,10,0.4,0.3
2024-08-06T2100,1291A,115.8886,28.7003,南昌市,省林业公司,,41,34,26,19,13,130,,135,135,18,16,8,9,0.4,0.4
2024-08-06T2100,1292A,115.8126,28.7442,南昌市,林科所,,32,22,21,19,11,101,,131,117,23,27,14,14,0.4,0.4
2024-08-06T2100,1294A,115.8518,28.687,南昌市,建工学校,,40,33,28,16,10,125,,134,134,13,12,10,11,0.5,0.5
2024-08-06T2100,1295A,115.8921,28.6424,南昌市,象湖,,46,,22,18,15,146,,147,144,9,15,5,8,0.7,0.7
2024-08-06T2100,1296A,115.7423,28.7996,南昌市,武术学校,,31,31,17,11,12,52,,93,80,8,5,2,2,0.6,0.5
2024-08-06T2100,1298A,115.9314,28.6842,南昌市,省站,,38,31,29,24,18,119,,129,124,19,19,8,9,0.5,0.5
2024-08-06T2100,3046A,115.9084,28.6062,南昌市,机电学校,颗粒物(PM10),51,51,35,22,15,115,,140,135,16,13,8,12,0.8,0.7
2024-08-06T2100,3690A,115.9721,28.7031,南昌市,外国语学校,,46,46,37,30,16,120,,156,147,11,13,4,6,0.2,0.3
2024-08-06T2100,1905A,106.056,30.8064,南充市,西山风景区,,38,38,21,17,18,65,,82,79,27,15,3,3,0.2,0.1
2024-08-06T2100,1906A,106.0789,30.8023,南充市,南充市委,,37,37,37,18,21,96,,133,125,11,14,6,6,0.4,0.4
2024-08-06T2100,1907A,106.1031,30.8217,南充市,南充炼油厂,,32,32,35,21,19,96,,128,124,9,12,4,4,0.2,0.2
2024-08-06T2100,1908A,106.1064,30.7856,南充市,高坪区监测站,,37,37,30,23,15,72,,123,112,24,14,5,5,0.3,0.2
2024-08-06T2100,1909A,106.0642,30.7636,南充市,嘉陵区环保局,,29,29,30,17,20,89,,134,123,22,15,5,5,0.4,0.4
2024-08-06T2100,1910A,106.1087,30.8388,南充市,市环境监测站,,30,28,35,18,19,95,,124,121,12,12,4,4,0.6,0.7
2024-08-06T2100,1151A,118.8086,32.1065,南京市,迈皋桥,,24,18,29,7,17,76,,220,192,25,28,5,6,0.8,0.6
2024-08-06T2100,1152A,118.7538,32.0551,南京市,草场门,,,,35,,16,,,126,,,14,,7,,0.6
2024-08-06T2100,1153A,118.7794,32.0745,南京市,山西路,,31,22,35,14,19,97,,235,201,12,7,5,4,0.4,0.4
2024-08-06T2100,1154A,118.7752,32.0023,南京市,中华门,,31,27,29,17,17,97,,190,166,24,9,4,4,0.5,0.5
2024-08-06T2100,1155A,118.8109,32.0309,南京市,瑞金路,,32,19,34,19,19,100,,211,178,5,6,5,5,0.4,0.4
2024-08-06T2100,1156A,118.7997,32.0754,南京市,玄武湖,,24,11,36,10,15,75,,196,165,14,12,4,4,0.5,0.7
2024-08-06T2100,1157A,118.6414,32.0931,南京市,浦口,,,,32,10,16,76,,219,182,10,16,6,7,,0.3
2024-08-06T2100,1158A,118.7356,31.9996,南京市,奥体中心,,35,,30,24,19,108,,205,179,14,15,6,8,0.2,0.3
2024-08-06T2100,1159A,118.9125,32.1028,南京市,仙林大学城,,31,17,35,9,18,99,,224,202,22,20,7,9,0.5,0.6
2024-08-06T2100,3422A,118.8436,31.9198,南京市,江宁彩虹桥,,42,,34,27,17,134,,190,180,13,9,3,4,0.7,0.6
2024-08-06T2100,3423A,119.0138,31.6494,南京市,溧水永阳,,35,24,27,14,19,109,,185,167,10,11,4,4,0.4,0.5
2024-08-06T2100,3424A,118.879,31.3302,南京市,高淳老职中,,44,,24,26,16,140,,142,140,11,14,4,4,0.3,0.5
2024-08-06T2100,3427A,118.8554,32.3578,南京市,六合雄州,,42,,40,16,24,132,,220,206,3,9,2,5,0.5,0.8
2024-08-06T2100,1401A,108.3103,22.7881,南宁市,二十一中,,28,28,25,14,13,84,,100,95,10,10,4,3,0.9,0.8
2024-08-06T2100,1402A,108.3141,22.8528,南宁市,北湖,,32,32,25,14,15,70,,109,98,12,11,3,3,0.7,0.6
2024-08-06T2100,1403A,108.3206,22.8225,南宁市,市监测站,,29,29,26,16,13,75,,97,90,15,14,6,5,0.8,0.7
2024-08-06T2100,1404A,108.3829,22.8037,南宁市,大自然花园,,30,26,24,21,14,90,,103,95,9,9,5,5,0.6,0.6
2024-08-06T2100,1405A,108.4394,22.7904,南宁市,仙葫,,,,,,,,,,,,,,,,
2024-08-06T2100,1406A,108.2397,22.8467,南宁市,区农职院,,,34,30,3,11,72,,92,86,13,11,6,6,,0.8
2024-08-06T2100,1407A,108.3275,22.735,南宁市,英华嘉园,,27,27,30,14,14,70,,89,81,22,16,6,5,0.6,0.6
2024-08-06T2100,1408A,108.2257,22.7757,南宁市,沙井镇街道办,,44,44,33,12,14,55,,83,78,21,16,2,2,0.6,0.6
2024-08-06T2100,3401A,108.4834,22.7618,南宁市,红星社区,,44,44,21,19,12,89,,88,85,10,8,6,6,0.8,0.6
2024-08-06T2100,2331A,118.0966,26.6761,南平市,茫荡山,,,,,,,,,,,,,,,,
2024-08-06T2100,2332A,118.1681,26.6369,南平市,南平市监测站,,28,13,24,11,18,87,,109,100,7,10,6,5,0.5,0.5
2024-08-06T2100,2333A,118.1825,26.6489,南平市,南平铝业有限公司,,29,24,24,7,17,90,,111,104,8,9,9,6,0.5,0.6
2024-08-06T2100,2334A,118.1756,26.6272,南平市,南平七中,,29,10,24,9,18,90,,110,103,5,8,7,5,0.5,0.5
2024-08-06T2100,1168A,120.9098,31.9663,南通市,狼山街道,,,25,15,22,8,,,176,170,9,16,7,7,,0.5
2024-08-06T2100,1169A,120.86,32.0005,南通市,虹桥,,34,34,22,23,12,61,,176,156,7,17,7,6,0.5,0.6
2024-08-06T2100,1170A,120.87,32.02,南通市,城中,,36,36,25,23,10,64,,170,153,7,13,7,6,0.6,0.8
2024-08-06T2100,1171A,120.94,31.93,南通市,星湖花园,,29,29,17,20,7,55,,175,155,16,20,6,6,0.5,0.5
2024-08-06T2100,1172A,120.81,32.0417,南通市,紫琅学院,,30,30,20,20,8,69,,166,150,14,27,9,8,0.5,0.5
2024-08-06T2100,3291A,121.067,32.062,南通市,通州监测站,,31,31,24,14,9,62,,154,138,6,8,3,4,0.5,0.6
2024-08-06T2100,3432A,120.9348,31.9883,南通市,环境教育馆,,40,31,25,28,11,59,,161,143,16,21,9,9,0.4,0.5
2024-08-06T2100,2404A,112.5224,33.0122,南阳市,瓦房庄,,23,11,14,3,6,71,,99,91,10,9,4,4,0.4,0.4
2024-08-06T2100,2405A,112.5003,32.9735,南阳市,汉画馆,,21,17,19,7,10,67,,94,85,11,10,4,4,0.4,0.4
2024-08-06T2100,2406A,112.5573,33.027,南阳市,气象站,,22,9,13,3,4,68,,94,88,8,7,5,5,0.4,0.4
2024-08-06T2100,2407A,112.5481,32.9689,南阳市,理工学院,,20,11,14,3,5,63,,92,86,12,10,4,4,0.4,0.4
2024-08-06T2100,4008A,112.5234,32.9922,南阳市,卧龙区政府,,21,13,17,7,9,65,,94,86,14,11,2,4,0.5,0.5
2024-08-06T2100,1234A,121.8358,29.911,宁波市,区环保大楼,细颗粒物(PM2.5),57,53,33,40,22,38,,77,63,36,14,14,9,0.6,0.6
2024-08-06T2100,1235A,121.56,29.82,宁波市,万里学院,细颗粒物(PM2.5),63,,30,45,21,59,,96,80,8,9,11,8,0.4,0.6
2024-08-06T2100,1236A,121.713,29.9572,宁波市,龙赛医院,,39,31,24,27,16,51,,90,66,19,13,12,9,0.5,0.5
2024-08-06T2100,1239A,121.633,29.7733,宁波市,钱湖水厂,,40,40,26,27,18,72,,93,81,5,5,7,6,0.5,0.5
2024-08-06T2100,1240A,121.5856,29.8635,宁波市,太古小学,,47,47,29,31,12,65,,92,79,7,7,8,7,0.9,0.9
2024-08-06T2100,1241A,121.524,29.8674,宁波市,市环境监测中心,,45,42,26,31,14,52,,95,81,13,9,7,5,0.6,0.6
2024-08-06T2100,2871A,121.6147,29.9017,宁波市,万里国际学校,,,39,25,26,16,71,,98,81,,7,9,7,0.4,0.4
2024-08-06T2100,3710A,121.5594,29.8975,宁波市,白沙活动中心,,48,40,28,33,16,61,,100,85,10,8,10,6,0.4,0.4
2024-08-06T2100,2339A,119.5001,26.6946,宁德市,金涵水库,,,,,,,,,,,,,,,,
2024-08-06T2100,2341A,119.5388,26.6612,宁德市,宁德市监测站,,,17,21,10,13,47,,84,67,,7,4,8,0.3,0.4
2024-08-06T2100,3209A,119.5231,26.6562,宁德市,宁德一中,,18,18,25,3,12,44,,87,68,8,8,6,6,0.2,0.3
2024-08-06T2100,2618A,98.8601,25.8567,怒江傈僳族自治州,州监测站,,23,23,21,13,11,55,,62,62,7,6,10,10,0.4,0.4
2024-08-06T2100,2619A,98.8546,25.8417,怒江傈僳族自治州,泸水一中,,15,9,15,3,6,48,,57,57,11,11,5,5,0.3,0.3
2024-08-06T2100,1888A,101.6891,26.571,攀枝花市,弄弄坪,颗粒物(PM10),51,52,47,9,18,25,,68,56,30,20,23,31,1.3,0.9
2024-08-06T2100,1889A,101.5769,26.5928,攀枝花市,河门口,,24,24,26,12,15,34,,76,68,29,17,19,14,1.6,1.1
2024-08-06T2100,1890A,101.7169,26.585,攀枝花市,炳草岗,,42,42,53,13,24,21,,79,65,33,24,15,36,0.9,1
2024-08-06T2100,1891A,101.7369,26.5008,攀枝花市,仁和,,20,20,18,8,9,39,,65,61,11,12,8,10,0.5,0.5
2024-08-06T2100,2835A,101.7227,26.567,攀枝花市,四十中小,,27,27,38,17,24,40,,81,68,27,21,6,36,0.8,0.9
2024-08-06T2100,1604A,122.0303,41.1489,盘锦市,开发区,细颗粒物(PM2.5),63,,21,45,15,71,,107,101,27,16,8,7,0.7,0.6
2024-08-06T2100,1605A,122.0485,41.0883,盘锦市,兴隆台,,31,31,18,13,9,67,,98,93,30,17,4,4,0.6,0.3
2024-08-06T2100,1606A,121.8297,41.1028,盘锦市,新生街道,,20,,18,13,16,61,,109,100,14,12,5,6,1.0,0.3
2024-08-06T2100,1832A,113.3257,33.742,平顶山市,新华旅馆,,38,,27,26,20,94,,119,115,8,11,4,5,0.4,0.5
2024-08-06T2100,1833A,113.2919,33.737,平顶山市,规划设计院,,28,17,15,8,6,88,,113,108,13,12,6,6,0.8,0.8
2024-08-06T2100,1834A,113.182,33.774,平顶山市,平顶山工学院,,32,11,15,3,4,100,,118,116,8,8,5,5,0.6,0.7
2024-08-06T2100,3204A,113.3025,33.73,平顶山市,规划局,,27,12,11,7,10,86,,109,105,11,11,2,3,0.3,0.4
2024-08-06T2100,3594A,112.8867,33.9116,平顶山市,石龙区,,32,32,24,13,15,90,,116,112,13,13,9,10,0.5,0.4
2024-08-06T2100,2656A,106.6692,35.5461,平凉市,聚贤嘉苑,,35,35,32,20,16,73,,99,94,31,24,8,9,0.3,0.3
2024-08-06T2100,2657A,106.7021,35.5307,平凉市,博物馆,,47,47,35,13,9,84,,102,99,20,20,6,6,0.5,0.5
2024-08-06T2100,2347A,114.0997,27.5002,萍乡市,武功山,,18,,8,12,4,44,,88,79,6,4,15,15,0.3,0.2
2024-08-06T2100,2348A,113.8385,27.6434,萍乡市,中医院,,35,30,32,24,18,76,,114,97,16,12,5,21,0.8,0.9
2024-08-06T2100,2349A,113.8493,27.6253,萍乡市,市政府车库,,48,48,36,11,24,80,,105,93,10,14,13,26,1.0,1.5
2024-08-06T2100,2350A,113.8676,27.6435,萍乡市,市环保局,,24,18,37,12,25,74,,114,98,11,10,8,30,1.4,1
2024-08-06T2100,2351A,113.866,27.6198,萍乡市,安源区政府,,32,32,42,15,18,90,,110,100,11,17,12,24,1.2,1.3
2024-08-06T2100,2319A,119.0141,25.4325,莆田市,荔城区仓后路,,32,32,28,22,15,59,,98,85,11,8,7,6,0.6,0.6
2024-08-06T2100,2320A,119.0015,25.4553,莆田市,莆田市监测站,,25,22,28,17,16,55,,104,88,9,6,6,6,0.5,0.5
2024-08-06T2100,2321A,119.1119,25.4561,莆田市,涵江区六中,,22,22,26,3,12,55,,93,78,15,14,6,7,0.1,0.2
2024-08-06T2100,2322A,119.1013,25.3215,莆田市,秀屿区政府,,,,25,,14,,,91,82,9,6,7,6,,0.6
2024-08-06T2100,2323A,118.981,25.4792,莆田市,东圳水库,,,,,,,,,,,,,,,,
2024-08-06T2100,2392A,115.0312,35.7636,濮阳市,环保局,,33,18,15,11,9,105,,114,113,11,9,4,4,0.4,0.4
2024-08-06T2100,2394A,115.0574,35.7609,濮阳市,油田运输公司,,33,21,15,6,10,103,,118,116,15,11,1,1,0.3,0.3
2024-08-06T2100,2395A,115.0866,35.7754,濮阳市,油田物探公司,,31,14,17,12,12,98,,113,111,7,5,2,2,0.4,0.3
2024-08-06T2100,3021A,115,35.7668,濮阳市,濮水河管理处,,30,15,17,9,13,93,,98,97,9,6,2,2,0.5,0.5
2024-08-06T2100,2601A,100.98,22.7633,普洱市,市环保局,,18,18,17,12,11,30,,41,40,7,4,4,4,0.4,0.4
2024-08-06T2100,2602A,100.9817,22.8322,普洱市,普洱第二中学,,46,,20,32,10,23,,42,40,10,7,5,5,0.4,0.4
2024-08-06T2100,2262A,131.0518,45.8751,七台河市,新一中,,35,,11,24,10,41,,89,78,15,8,10,10,1.5,1.5
2024-08-06T2100,3345A,131.0577,45.7879,七台河市,中波台,,21,21,9,7,7,32,,79,68,21,16,11,11,0.6,0.5
2024-08-06T2100,3637A,131.0176,45.7761,七台河市,人民广场,,29,29,14,3,5,36,,76,62,10,10,9,9,0.4,0.4
2024-08-06T2100,3684A,130.8781,45.8222,七台河市,新建矿广场,,33,24,16,23,12,12,,67,46,26,15,9,10,0.4,0.4
2024-08-06T2100,1779A,123.9305,47.3636,齐齐哈尔市,安居小区,,28,20,21,19,13,73,,103,100,18,11,6,6,0.7,0.5
2024-08-06T2100,1780A,123.9488,47.3386,齐齐哈尔市,中心广场,,36,36,23,18,11,68,,96,94,23,12,3,2,0.6,0.5
2024-08-06T2100,1781A,123.9483,47.3227,齐齐哈尔市,农牧车辆厂,,41,41,29,10,9,65,,98,94,18,10,8,8,0.3,0.3
2024-08-06T2100,1783A,123.945,47.2988,齐齐哈尔市,市环境监测站,,43,43,24,24,13,69,,96,93,18,9,7,7,0.5,0.4
2024-08-06T2100,3662A,123.6333,47.2075,齐齐哈尔市,富区青少年活动中心,,23,23,26,14,9,73,,106,101,10,13,4,4,0.5,0.6
2024-08-06T2100,2591A,107.9783,26.5747,黔东南苗族侗族自治州,市环境监测站,,20,17,16,14,11,54,,61,59,11,6,3,3,0.3,0.4
2024-08-06T2100,2881A,107.8908,26.5311,黔东南苗族侗族自治州,凯里学院,,20,14,14,10,10,62,,59,59,3,5,5,5,0.4,0.5
2024-08-06T2100,2593A,107.5228,26.2403,黔南布依族苗族自治州,小围寨,,17,7,9,7,3,54,,56,56,4,4,5,5,0.4,0.4
2024-08-06T2100,3538A,107.5175,26.2978,黔南布依族苗族自治州,沙坝,,17,17,12,7,4,51,,57,56,4,4,5,4,0.4,0.3
2024-08-06T2100,2589A,104.9022,25.0925,黔西南布依族苗族自治州,场坝街,,28,28,15,17,10,54,,54,53,4,4,4,4,0.2,0.2
2024-08-06T2100,2590A,104.8811,25.0992,黔西南布依族苗族自治州,坪东大道,,18,17,18,6,8,56,,52,52,2,3,5,5,0.1,0.1
2024-08-06T2100,2502A,108.6236,21.9667,钦州市,市环保站,,34,34,23,7,7,40,,87,80,21,15,8,8,0.9,0.6
2024-08-06T2100,2503A,108.6549,21.9481,钦州市,沙埠小学,,33,33,30,18,14,44,,93,85,17,16,4,7,0.6,0.7
2024-08-06T2100,2504A,108.5989,21.7431,钦州市,港区一小,,37,37,34,11,11,51,,66,62,11,11,7,9,0.5,0.5
2024-08-06T2100,3404A,108.5959,21.9633,钦州市,北职校,,37,37,24,14,11,43,,84,77,15,12,5,6,0.6,0.7
2024-08-06T2100,1042A,119.5134,39.8207,秦皇岛市,北戴河环保局,,41,41,43,19,15,113,,131,127,5,13,1,2,0.4,0.5
2024-08-06T2100,1043A,119.7493,40.0116,秦皇岛市,第一关,细颗粒物(PM2.5),62,56,42,44,29,116,,139,134,11,31,3,3,0.3,0.4
2024-08-06T2100,1044A,119.5897,39.9499,秦皇岛市,监测站,细颗粒物(PM2.5),55,49,46,39,26,132,,144,138,12,21,3,3,0.5,0.6
2024-08-06T2100,1046A,119.5251,39.9041,秦皇岛市,建设大厦,,42,41,40,11,11,133,,141,138,3,19,1,3,0.4,0.5
2024-08-06T2100,3132A,119.610547,39.943889,秦皇岛市,文明里,,42,28,29,22,14,134,,142,139,3,10,3,3,0.3,0.4
2024-08-06T2100,1307A,120.6659,36.2403,青岛市,仰口,,,,,,,,,,,,,,,,
2024-08-06T2100,1310A,120.4134,36.0658,青岛市,市南区东部子站,,22,7,12,7,2,70,,93,87,14,10,7,7,0.5,0.4
2024-08-06T2100,1311A,120.3664,36.1032,青岛市,四方区子站,,24,12,12,7,6,74,,98,92,16,13,8,9,0.6,0.6
2024-08-06T2100,1312A,120.2994,36.054,青岛市,市南区西部子站,,20,12,16,7,4,64,,82,71,21,18,7,7,0.7,0.6
2024-08-06T2100,1313A,120.4581,36.0858,青岛市,崂山区子站,,,7,11,3,2,,,100,98,14,12,7,7,0.4,0.5
2024-08-06T2100,1314A,120.1983,35.9608,青岛市,黄岛区子站,,26,14,10,7,6,82,,99,96,14,12,6,6,0.5,0.6
2024-08-06T2100,1315A,120.3999,36.3083,青岛市,城阳区子站,,23,19,14,12,7,73,,109,97,22,17,10,9,0.5,0.5
2024-08-06T2100,1966A,120.0405,35.8735,青岛市,黄岛区4号,,31,7,10,3,2,97,,103,102,12,13,6,6,0.5,0.5
2024-08-06T2100,3362A,120.5014,36.4034,青岛市,即墨2号,,26,11,14,8,10,83,,114,103,10,12,5,6,0.3,0.3
2024-08-06T2100,3642A,120.3503,36.0736,青岛市,市北区南部,,21,12,17,3,4,66,,94,89,24,13,7,6,0.6,0.5
2024-08-06T2100,3643A,120.3948,36.1805,青岛市,李沧区北部,,27,27,13,17,9,66,,99,91,30,18,7,8,0.4,0.4
2024-08-06T2100,1702A,113.0426,23.691,清远市,环保大楼,,26,16,38,7,21,81,,104,89,11,12,6,8,0.6,0.7
2024-08-06T2100,1703A,113.0208,23.7106,清远市,凤城街办,,24,12,32,3,19,74,,104,83,13,10,4,4,0.5,0.5
2024-08-06T2100,3025A,113.0477,23.6344,清远市,技师学院,,29,17,37,8,21,90,,109,97,15,18,5,8,0.4,0.6
2024-08-06T2100,3318A,112.9903,23.7403,清远市,清新太和,,22,22,31,9,15,55,,101,77,10,7,8,8,0.4,0.5
2024-08-06T2100,3455A,113.076,23.7198,清远市,清城东城,,23,13,30,7,18,73,,122,101,7,7,6,7,0.4,0.5
2024-08-06T2100,2661A,107.6325,35.7357,庆阳市,庆阳五中,,29,29,33,16,16,82,,101,97,8,8,6,5,0.3,0.4
2024-08-06T2100,2662A,107.6364,35.7067,庆阳市,市环保局,,31,31,31,9,13,79,,101,97,9,6,6,5,0.4,0.5
2024-08-06T2100,1916A,103.7897,25.5035,曲靖市,环境监测站,,36,36,21,16,10,22,,55,49,27,13,2,2,1.0,0.7
2024-08-06T2100,1917A,103.8,25.5364,曲靖市,烟厂办公区,,31,31,18,14,9,31,,51,45,24,11,4,4,0.6,0.4
2024-08-06T2100,3376A,103.7947,25.462,曲靖市,南苑二区,,,16,18,11,10,,,54,52,12,12,4,6,0.6,0.7
2024-08-06T2100,3377A,103.7444,25.5261,曲靖市,曲靖师范学院,,31,31,16,12,11,41,,53,50,19,13,6,7,0.5,0.3
2024-08-06T2100,1264A,118.8692,28.9398,衢州市,环保大楼,,25,25,30,15,18,74,,175,148,25,17,5,6,0.3,0.5
2024-08-06T2100,1265A,118.8709,28.9666,衢州市,实验学校,,25,22,28,12,18,79,,170,142,20,15,10,9,0.6,0.6
2024-08-06T2100,1266A,118.8621,28.9808,衢州市,衢州学院,,24,22,28,12,16,76,,176,145,23,18,2,3,0.4,0.5
2024-08-06T2100,1611A,118.5819,24.9117,泉州市,涂山街,,21,21,31,12,18,62,,98,78,13,10,6,5,0.7,0.6
2024-08-06T2100,1612A,118.5972,24.8978,泉州市,津头埔,,28,28,32,13,19,66,,86,72,12,12,4,3,0.6,0.6
2024-08-06T2100,1613A,118.6663,24.9424,泉州市,万安,,24,21,29,8,17,75,,94,81,3,8,2,3,0.4,0.4
2024-08-06T2100,1614A,118.6117,24.9604,泉州市,清源山,,,,,,,,,,,,,,,,
2024-08-06T2100,3529A,118.6333,24.9264,泉州市,城华南路,,,21,31,11,19,62,,92,73,13,15,3,3,,0.4
2024-08-06T2100,2626A,88.8876,29.2718,日喀则市,日喀则监测站,,21,7,4,6,2,65,,80,67,5,5,5,5,0.5,0.5
2024-08-06T2100,3726A,88.8781,29.2426,日喀则市,林业技术推广中心,,,,2,9,4,,,71,65,8,5,6,6,0.4,0.4
2024-08-06T2100,1659A,119.471,35.4209,日照市,监测站,,25,14,14,11,11,79,,103,96,17,20,9,9,0.6,0.8
2024-08-06T2100,1660A,119.523,35.4216,日照市,市政府广场,,29,19,20,11,10,90,,99,99,12,19,8,8,0.6,0.8
2024-08-06T2100,1661A,119.5587,35.4044,日照市,港务局,,,19,20,6,6,,,111,110,7,14,11,10,0.4,0.6
2024-08-06T2100,3507A,119.5328,35.4625,日照市,职业技术学院,,28,17,17,3,8,88,,105,101,13,16,8,9,0.5,0.7
2024-08-06T2100,3604A,119.3266,35.1044,日照市,岚山环保分局,,47,19,17,3,6,150,,166,162,10,17,8,9,0.4,0.7
2024-08-06T2100,1835A,111.1922,34.7752,三门峡市,市政府,,38,32,29,16,15,121,,114,114,12,9,7,8,0.5,0.5
2024-08-06T2100,1836A,111.1587,34.7942,三门峡市,开发区,,41,41,38,18,19,129,,128,128,15,12,7,8,0.5,0.5
2024-08-06T2100,1838A,111.143,34.7955,三门峡市,风景区,,,,,,,,,,,,,,,,
2024-08-06T2100,3039A,111.1911,34.7829,三门峡市,三门峡市第一小学,,40,27,29,23,15,128,,120,120,10,9,8,8,0.5,0.5
2024-08-06T2100,3598A,111.1,34.7167,三门峡市,富达温泉假日酒店,,36,30,26,22,16,115,,106,106,6,9,8,7,0.6,0.5
2024-08-06T2100,2324A,117.6211,26.2625,三明市,三钢,,38,38,33,22,20,44,,129,108,19,16,5,10,0.5,1.2
2024-08-06T2100,2325A,117.635,26.2714,三明市,三明二中,,26,26,29,18,17,45,,135,109,23,15,3,6,0.7,1
2024-08-06T2100,2326A,117.6028,26.2378,三明市,三元区政府,,36,36,37,21,22,60,,124,111,19,16,2,4,0.6,0.6
2024-08-06T2100,2327A,117.7275,26.3108,三明市,洋溪,,,,,,,,,,,,,,,,
2024-08-06T2100,1876A,109.5078,18.2489,三亚市,河东子站,,18,18,17,8,11,47,,54,49,4,8,2,2,0.3,0.4
2024-08-06T2100,1877A,109.4964,18.2681,三亚市,河西子站,,18,15,15,12,10,31,,54,48,17,8,3,3,0.3,0.2
2024-08-06T2100,3540A,109.7348,18.3443,三亚市,君悦子站,,22,18,21,15,10,43,,63,52,13,11,2,2,0.3,0.3
2024-08-06T2100,2624A,91.7608,29.2313,山南市,山南监测站,,,,6,,3,,,62,,,5,,7,,0.2
2024-08-06T2100,2625A,91.7706,29.2436,山南市,山南人民医院,,23,6,17,6,5,72,,74,74,10,8,6,6,0.3,0.3
2024-08-06T2100,1674A,116.6794,23.3667,汕头市,金平子站,,,,39,11,24,108,,132,105,10,10,4,8,0.8,0.8
2024-08-06T2100,1675A,116.7244,23.3633,汕头市,龙湖子站,,,,34,,23,,,104,89,13,11,6,7,,0.7
2024-08-06T2100,1676A,116.7258,23.2775,汕头市,濠江子站,,40,,36,22,28,125,,129,125,13,12,5,6,0.7,0.7
2024-08-06T2100,1677A,116.7519,23.4714,汕头市,澄海子站,,27,27,32,17,23,78,,96,83,10,11,3,4,0.7,0.7
2024-08-06T2100,1678A,116.6092,23.2539,汕头市,潮阳子站,,33,29,36,13,21,103,,130,113,8,9,6,7,0.5,0.7
2024-08-06T2100,3444A,116.454,23.2684,汕头市,潮南峡山,,34,34,40,21,25,85,,129,110,6,7,6,6,0.6,0.8
2024-08-06T2100,3624A,116.4069,23.2533,汕头市,潮南子站,,39,39,50,26,33,83,,121,107,9,10,4,6,0.7,0.8
2024-08-06T2100,1693A,115.3653,22.775,汕尾市,市环保局,,26,22,23,18,18,77,,123,102,20,14,5,6,0.7,0.6
2024-08-06T2100,1694A,115.3706,22.7898,汕尾市,市政府,,30,25,24,21,16,56,,104,82,17,10,7,6,0.6,0.5
2024-08-06T2100,1695A,115.3622,22.7925,汕尾市,新城中学,,22,20,28,15,15,54,,113,79,19,9,6,6,0.6,0.5
2024-08-06T2100,2645A,109.9154,33.8715,商洛市,监测站,,32,32,23,10,7,70,,92,88,12,11,14,10,0.6,0.4
2024-08-06T2100,3045A,109.9643,33.8471,商洛市,商州区中学,,24,24,23,13,8,65,,95,88,14,10,17,7,0.9,0.6
2024-08-06T2100,2408A,115.6702,34.4285,商丘市,环境监测站,,32,12,10,9,5,100,,115,112,7,3,3,3,0.5,0.4
2024-08-06T2100,2409A,115.6458,34.4045,商丘市,粮食局,,34,23,13,11,5,108,,116,115,9,4,4,5,0.7,0.6
2024-08-06T2100,2410A,115.6293,34.3948,商丘市,睢阳区环保局,,34,28,14,12,7,108,,116,115,8,3,4,4,0.4,0.3
2024-08-06T2100,3171A,115.6071,34.4465,商丘市,梁园区档案局,,35,22,18,16,8,110,,122,119,8,4,5,5,0.6,0.5
2024-08-06T2100,1141A,121.4,31.238,上海市,普陀,,44,44,31,23,14,46,,112,91,17,14,6,6,0.3,0.3
2024-08-06T2100,1142A,121.478,31.2036,上海市,十五厂,,44,44,30,28,18,54,,106,88,15,14,8,8,0.3,0.3
2024-08-06T2100,1143A,121.467,31.3008,上海市,虹口,,46,46,32,31,16,44,,107,86,16,11,9,7,0.5,0.5
2024-08-06T2100,1144A,121.412,31.1654,上海市,徐汇上师大,,48,48,34,27,18,50,,115,96,19,19,6,6,0.5,0.5
2024-08-06T2100,1145A,121.536,31.2659,上海市,杨浦四漂,,50,50,37,25,16,43,,103,82,23,13,7,7,0.6,0.6
2024-08-06T2100,1147A,121.425,31.2261,上海市,静安监测站,,46,46,30,26,14,49,,106,89,18,15,7,7,0.4,0.3
2024-08-06T2100,1148A,121.703,31.1907,上海市,浦东川沙,颗粒物(PM10),52,54,33,33,18,55,,106,86,23,15,7,7,0.5,0.5
2024-08-06T2100,1149A,121.533,31.2284,上海市,浦东新区监测站,,43,43,28,27,16,52,,93,79,14,13,5,5,0.4,0.4
2024-08-06T2100,1150A,121.577,31.2071,上海市,浦东张江,颗粒物(PM10),58,66,36,32,18,49,,78,66,15,16,6,6,0.5,0.5
2024-08-06T2100,3265A,121.4316,31.3322,上海市,宝山庙行,,48,47,31,33,17,46,,113,90,17,12,7,6,0.6,0.5
2024-08-06T2100,3266A,121.8791,31.4662,上海市,崇明上实东滩,,48,36,20,33,16,71,,87,78,9,14,9,8,0.6,0.6
2024-08-06T2100,3268A,121.3162,31.2838,上海市,嘉定南翔,,47,47,31,32,16,40,,127,99,23,20,9,7,0.4,0.4
2024-08-06T2100,3269A,121.3359,30.7456,上海市,金山新城,,50,50,27,32,16,61,,132,114,7,9,10,8,0.5,0.5
2024-08-06T2100,3270A,121.4996,31.0739,上海市,闵行浦江,,45,41,25,31,18,48,,109,95,22,16,7,6,0.5,0.5
2024-08-06T2100,3271A,121.2886,31.1663,上海市,青浦徐泾,,47,47,30,32,17,42,,127,105,22,17,13,7,0.6,0.6
2024-08-06T2100,3272A,121.2186,31.0378,上海市,松江图书馆,颗粒物(PM10),52,53,28,27,16,45,,144,122,24,14,7,6,0.5,0.5
2024-08-06T2100,3273A,121.3902,31.2059,上海市,长宁仙霞,,42,41,33,29,16,50,,120,99,17,16,9,9,0.5,0.5
2024-08-06T2100,3274A,121.7965,31.0507,上海市,浦东惠南,细颗粒物(PM2.5),55,47,30,39,19,64,,97,92,12,11,7,8,0.7,0.7
2024-08-06T2100,3544A,121.4891,30.925,上海市,奉贤南桥新城,颗粒物(PM10),51,51,28,29,16,57,,113,100,17,14,8,7,0.5,0.5
