timepoint,stationcode,longitude,latitude,area,positionname,primarypollutant,aqi,pm10,pm10_24h,pm2_5,pm2_5_24h,o3,o3_24h,o3_8h,o3_8h_24h,no2,no2_24h,so2,so2_24h,co,co_24h
2026-03-29T2000,2568A,102.2503,31.8896,阿坝藏族羌族自治州,马师校,,37,37,22,6,6,87,87,89,89,7,5,5,5,0.2,0.3
2026-03-29T2000,3994A,102.2174,31.9016,阿坝藏族羌族自治州,马尔康中学西区,,28,15,13,10,6,87,87,85,85,6,5,4,4,0.3,0.2
2026-03-29T2000,2695A,80.2899,41.1684,阿克苏地区,电视台,颗粒物(PM10),139,220,230,80,78,110,110,109,109,5,11,3,3,0.5,0.6
2026-03-29T2000,2696A,80.2592,41.1541,阿克苏地区,艺术中心,颗粒物(PM10),145,236,230,67,82,108,108,112,112,7,18,4,4,0.1,0.3
2026-03-29T2000,2205A,105.699,38.8409,阿拉善盟,蒙二幼,颗粒物(PM10),63,68,39,28,14,111,111,121,121,10,6,10,9,0.6,0.5
2026-03-29T2000,2206A,105.7198,38.8508,阿拉善盟,环保局新楼,颗粒物(PM10),56,58,40,25,14,98,98,112,112,10,6,10,9,0.8,0.6
2026-03-29T2000,2708A,88.1266,47.8515,阿勒泰地区,市站,,28,13,10,10,2,88,88,96,93,9,4,5,5,0.2,0.2
2026-03-29T2000,4166A,88.1198,47.7931,阿勒泰地区,阿勒泰路33号,,27,11,10,3,1,86,86,93,93,11,5,5,5,0.2,0.2
2026-03-29T2000,2630A,80.1171,32.4999,阿里地区,阿里监测站,NA,NA,8,12,3,3,93,93,96,92,NA,4,6,6,0.3,0.3
2026-03-29T2000,3192A,80.0906,32.5029,阿里地区,阿里藏医院,,30,10,11,3,4,93,93,100,92,1,3,6,6,0.2,0.3
2026-03-29T2000,2644A,109.0088,32.6974,安康市,汉滨区检察院,颗粒物(PM10),53,53,45,29,23,51,51,36,36,22,20,6,5,0.7,0.5
2026-03-29T2000,4054A,109.0324,32.6913,安康市,市邮政管理局,颗粒物(PM10),59,62,55,36,26,38,38,36,36,28,24,6,10,1.0,0.7
2026-03-29T2000,2291A,117.0806,30.5181,安庆市,环科院,二氧化氮(NO2),64,54,46,31,23,16,16,146,132,127,46,9,9,0.4,0.3
2026-03-29T2000,2292A,117.0331,30.5118,安庆市,马山宾馆,二氧化氮(NO2),74,54,46,37,25,2,2,132,108,147,52,6,7,0.9,0.6
2026-03-29T2000,2294A,116.9897,30.6146,安庆市,安庆大学,细颗粒物(PM2.5),80,59,49,50,26,86,86,152,146,43,24,4,5,0.7,0.6
2026-03-29T2000,3173A,117.0598,30.5351,安庆市,市人大,颗粒物(PM10),55,56,48,29,26,100,100,147,143,38,37,7,9,0.5,0.4
2026-03-29T2000,3123A,105.9408,26.2431,安顺市,凤凰山,,34,20,24,16,20,108,108,107,107,8,10,8,12,0.5,0.6
2026-03-29T2000,3124A,105.9443,26.2567,安顺市,金钟山,,31,20,21,18,21,97,97,98,98,8,8,9,9,0.6,0.7
2026-03-29T2000,3125A,105.8983,26.248,安顺市,娄家坡,,30,23,28,21,20,95,95,98,98,7,7,10,12,0.8,0.8
2026-03-29T2000,1819A,114.3552,36.1017,安阳市,红庙街,颗粒物(PM10),58,61,39,28,19,116,116,133,133,17,12,4,4,0.5,0.5
2026-03-29T2000,1820A,114.361,36.0681,安阳市,银杏小区,颗粒物(PM10),54,55,39,33,21,114,114,136,136,26,17,4,4,0.5,0.4
2026-03-29T2000,3141A,114.3921,36.0879,安阳市,信访局,,49,48,38,34,20,113,113,139,138,22,11,2,3,0.5,0.4
2026-03-29T2000,3669A,114.4706,36.0634,安阳市,左辅环卫站,颗粒物(PM10),58,60,42,33,21,117,117,130,130,12,11,5,4,0.4,0.3
2026-03-29T2000,4117A,114.2918,36.0769,安阳市,钢三路198号,颗粒物(PM10),61,65,36,28,17,96,96,122,120,20,13,3,3,0.5,0.4
2026-03-29T2000,1748A,123.0441,41.1201,鞍山市,深沟寺,,20,20,71,14,41,50,50,118,68,18,21,8,11,0.7,0.9
2026-03-29T2000,1749A,123.011,41.0931,鞍山市,太阳城,,20,17,72,14,44,56,56,117,74,14,16,7,9,0.6,0.7
2026-03-29T2000,1750A,123.0483,41.1445,鞍山市,太平,,27,27,87,15,45,59,59,106,70,16,22,10,13,0.8,1
2026-03-29T2000,1751A,122.964,41.0968,鞍山市,铁西三道街,,27,27,90,12,51,61,61,98,71,16,31,7,20,0.5,1.1
2026-03-29T2000,1753A,123.0219,41.0822,鞍山市,明达新区,,20,20,69,13,40,58,58,117,76,15,17,7,9,0.6,0.7
2026-03-29T2000,4201A,122.944647,41.082639,鞍山市,兴盛南路290号,,21,20,98,13,52,65,65,100,70,15,30,11,14,0.6,1.3
2026-03-29T2000,2195A,107.4206,40.7609,巴彦淖尔市,附二中,颗粒物(PM10),52,52,52,24,15,66,66,89,87,14,7,10,11,0.4,0.4
2026-03-29T2000,2196A,107.37,40.7372,巴彦淖尔市,市环保大楼,,46,46,53,16,15,78,78,93,92,9,7,6,6,0.3,0.3
2026-03-29T2000,1956A,86.1476,41.7529,巴音郭楞蒙古自治州,孔雀公园,颗粒物(PM10),114,155,210,34,48,104,104,104,104,10,18,10,10,0.3,0.3
2026-03-29T2000,1957A,86.1971,41.7166,巴音郭楞蒙古自治州,棉纺厂,颗粒物(PM10),113,153,252,38,46,110,110,108,108,5,19,/,/,/,/
2026-03-29T2000,1958A,86.236,41.7172,巴音郭楞蒙古自治州,经济开发区,颗粒物(PM10),101,121,189,33,44,103,103,98,98,5,8,7,7,0.3,0.3
2026-03-29T2000,3181A,106.776805,31.852614,巴中市,市五中,,24,24,37,13,24,51,51,42,42,9,18,7,8,0.6,0.8
2026-03-29T2000,3183A,106.7419,31.8654,巴中市,圣泉水务公司,NA,NA,24,39,11,27,NA,NA,40,40,14,30,10,9,0.7,0.8
2026-03-29T2000,3616A,106.7617,31.8343,巴中市,市中心医院,,22,20,37,15,25,49,49,44,44,13,18,10,10,0.7,0.7
2026-03-29T2000,2235A,122.7909,45.608,白城市,洮北区环保局,颗粒物(PM10),53,53,91,25,51,76,76,98,94,19,15,7,6,0.2,0.3
2026-03-29T2000,2236A,122.8741,45.5725,白城市,市环保局,,40,39,96,28,53,81,81,96,93,6,10,3,5,0.0,0.2
2026-03-29T2000,2231A,126.4219,41.9172,白山市,喜丰,,42,34,75,29,38,81,81,82,81,13,31,8,11,0.9,0.9
2026-03-29T2000,2232A,126.4082,41.9416,白山市,环保局,,39,36,48,27,33,90,90,90,88,12,18,10,11,0.7,0.7
2026-03-29T2000,2647A,104.1727,36.5448,白银市,第三小学,,33,NA,64,23,27,81,81,96,96,18,30,1,40,0.5,0.6
2026-03-29T2000,2648A,104.1467,36.5482,白银市,动力公司,,26,NA,64,17,24,82,82,93,93,14,34,4,10,0.6,0.5
2026-03-29T2000,2512A,106.6102,23.901,百色市,市监测站,细颗粒物(PM2.5),54,53,50,37,33,51,51,68,68,22,14,10,11,0.7,0.7
2026-03-29T2000,2513A,106.6524,23.8842,百色市,市中心血站,细颗粒物(PM2.5),66,57,58,43,40,51,51,65,65,30,12,11,10,1.0,1
2026-03-29T2000,4133A,106.6273,23.8798,百色市,龙景西路,细颗粒物(PM2.5),64,64,75,42,41,51,51,69,69,21,13,11,13,0.7,0.7
2026-03-29T2000,2270A,117.396,32.9389,蚌埠市,工人疗养院,颗粒物(PM10),82,94,74,46,38,121,121,162,154,30,32,6,6,0.4,0.4
2026-03-29T2000,2271A,117.3606,32.9428,蚌埠市,百货大楼,颗粒物(PM10),69,76,61,37,34,121,121,165,158,38,32,6,7,0.5,0.5
2026-03-29T2000,2273A,117.4183,32.8909,蚌埠市,蚌埠学院,颗粒物(PM10),68,75,66,31,35,86,86,160,145,71,27,19,7,0.5,0.5
2026-03-29T2000,2274A,117.3534,32.9672,蚌埠市,淮上区政府,颗粒物(PM10),72,80,69,38,37,124,124,168,161,29,34,6,7,0.5,0.5
2026-03-29T2000,2275A,117.3143,32.8977,蚌埠市,高新区,颗粒物(PM10),62,66,57,28,32,131,131,154,151,22,23,8,8,0.5,0.5
2026-03-29T2000,3715A,117.3091,32.9314,蚌埠市,蚌埠田家炳中学,颗粒物(PM10),68,75,69,36,34,142,142,166,164,19,27,6,8,0.4,0.4
2026-03-29T2000,1585A,109.8761,40.6533,包头市,市环境监测站,,28,28,61,10,29,77,77,95,94,14,31,6,8,0.3,0.6
2026-03-29T2000,1587A,109.9992,40.5843,包头市,包头八中,,33,33,76,9,32,64,64,91,90,20,30,6,8,0.3,0.5
2026-03-29T2000,1589A,109.8641,40.6288,包头市,惠龙物流,,24,21,59,11,29,74,74,90,89,12,28,6,7,0.3,0.5
2026-03-29T2000,1590A,110.0376,40.5546,包头市,东河鸿龙湾,,41,41,54,20,34,70,70,92,92,23,40,10,11,0.5,0.7
2026-03-29T2000,3283A,109.9154,40.5684,包头市,滨河大厦,,25,25,47,12,29,80,80,96,96,9,24,8,9,0.2,0.4
2026-03-29T2000,3419A,109.9449,40.6259,包头市,包头市委党校,,25,23,54,10,21,77,77,93,92,10,30,5,6,0.4,0.7
2026-03-29T2000,3683A,109.8332,40.6577,包头市,昆区政府,,25,22,55,3,27,80,80,97,96,17,34,3,6,0.4,0.7
2026-03-29T2000,1931A,107.0802,34.3129,宝鸡市,竹园沟,,28,24,43,19,26,75,75,87,87,11,20,6,7,0.4,0.4
2026-03-29T2000,1933A,107.1429,34.3549,宝鸡市,监测站,,35,35,53,17,23,88,88,93,93,18,26,9,8,0.3,0.4
2026-03-29T2000,1934A,107.1172,34.3759,宝鸡市,技工学校,,33,NA,57,23,29,84,84,98,98,12,19,3,7,0.5,0.5
2026-03-29T2000,1936A,107.2025,34.3518,宝鸡市,文理学院,,42,42,57,21,29,93,93,98,98,13,22,4,6,0.3,0.4
2026-03-29T2000,1937A,107.2396,34.3626,宝鸡市,三迪小学,,44,44,58,20,29,89,89,97,97,15,24,4,6,0.5,0.5
2026-03-29T2000,4155A,107.1721,34.3558,宝鸡市,滨河北路,,42,42,62,22,33,87,87,93,93,12,22,5,7,0.5,0.6
2026-03-29T2000,4308A,107.3898,34.3601,宝鸡市,陈仓区北开路21号,颗粒物(PM10),59,62,63,25,32,84,84,90,90,20,31,7,12,0.5,0.5
2026-03-29T2000,1051A,115.4803,38.8568,保定市,游泳馆,颗粒物(PM10),93,109,76,52,60,124,124,145,144,17,17,3,4,0.2,0.3
2026-03-29T2000,1052A,115.509,38.8895,保定市,华电二区,颗粒物(PM10),91,107,70,45,57,116,116,144,143,16,13,3,3,0.6,0.7
2026-03-29T2000,1053A,115.4588,38.9037,保定市,接待中心,颗粒物(PM10),99,118,81,50,62,120,120,146,143,11,12,2,3,0.4,0.4
2026-03-29T2000,1054A,115.4484,38.8344,保定市,地表水厂,颗粒物(PM10),104,128,91,36,57,132,132,152,152,17,20,6,7,0.4,0.5
2026-03-29T2000,3581A,115.3136,38.9511,保定市,满城区生态环境分局,颗粒物(PM10),110,146,82,38,52,118,118,151,148,15,13,2,3,0.4,0.5
2026-03-29T2000,3582A,115.4709,38.7628,保定市,清苑区第二中学,颗粒物(PM10),104,129,88,55,62,115,115,145,143,31,17,7,8,0.5,0.5
2026-03-29T2000,3583A,115.6231,39.0223,保定市,徐水物探局,颗粒物(PM10),90,106,113,44,72,121,121,146,146,15,27,2,3,0.4,0.5
2026-03-29T2000,4004A,115.4199,38.8665,保定市,双鹰农机,颗粒物(PM10),85,98,90,49,65,135,135,151,151,16,18,3,4,0.3,0.4
2026-03-29T2000,4034A,115.515,38.8589,保定市,植保所站,颗粒物(PM10),106,135,95,50,58,121,121,149,148,23,18,3,3,0,0.1
2026-03-29T2000,2594A,99.1589,25.1137,保山市,市环境监测站,,33,26,22,23,19,101,101,108,107,8,7,5,5,0.3,0.3
2026-03-29T2000,2595A,99.1616,25.1381,保山市,市环保局,,33,28,25,23,20,100,100,108,105,4,4,5,5,0.3,0.3
2026-03-29T2000,1867A,109.1435,21.4085,北海市,海滩公园,,45,40,33,31,19,94,94,83,83,8,8,6,7,0.6,0.6
2026-03-29T2000,1868A,109.0983,21.466,北海市,新市环保局,细颗粒物(PM2.5),52,NA,30,36,19,81,81,75,75,14,8,8,9,0.6,0.5
2026-03-29T2000,1869A,109.1775,21.5232,北海市,北海工业园,,47,47,37,26,24,75,75,68,68,7,6,5,6,0.8,0.8
2026-03-29T2000,3400A,109.1844,21.4396,北海市,龙潭自来水厂,细颗粒物(PM2.5),54,41,30,37,21,81,81,69,69,6,5,5,8,1.1,1
2026-03-29T2000,1001A,116.3611,39.8786,北京市,万寿西宫,,29,17,109,9,66,90,90,132,127,10,39,2,5,0.4,0.7
2026-03-29T2000,1003A,116.4174,39.9289,北京市,东四,,29,18,108,8,64,90,90,134,128,12,42,6,9,0.2,0.5
2026-03-29T2000,1004A,116.4073,39.8858,北京市,天坛,,24,16,99,8,61,75,75,134,129,15,36,3,5,0.5,0.7
2026-03-29T2000,1005A,116.4622,39.9364,北京市,农展馆,,27,14,100,7,58,84,84,125,120,10,40,4,7,0.4,0.6
2026-03-29T2000,1006A,116.3399,39.9293,北京市,官园,,24,19,101,10,60,76,76,109,104,14,40,1,4,0.4,0.6
2026-03-29T2000,1007A,116.2879,39.9613,北京市,海淀万柳,,24,24,101,12,57,74,74,92,91,11,40,3,5,0.3,0.5
2026-03-29T2000,1008A,116.6635,40.1349,北京市,顺义新城,,28,18,91,10,49,87,87,116,114,3,26,3,6,0.4,0.6
2026-03-29T2000,1009A,116.6275,40.327,北京市,怀柔镇,,25,17,82,9,46,78,78,104,100,8,22,4,6,0.5,0.7
2026-03-29T2000,1010A,116.2295,40.217,北京市,昌平镇,,26,17,86,9,54,81,81,110,107,8,18,2,4,0.4,0.5
2026-03-29T2000,1011A,116.3968,39.982,北京市,奥体中心,,23,17,99,8,57,73,73,109,104,12,42,4,6,0.4,0.6
2026-03-29T2000,3418A,116.8336,40.4095,北京市,密云新城,,27,20,85,11,42,85,85,104,104,4,24,3,4,0.5,0.6
2026-03-29T2000,3671A,116.0879,39.9725,北京市,门头沟三家店,,35,35,110,15,55,27,27,104,90,35,37,4,5,0.4,0.5
2026-03-29T2000,3672A,116.1507,39.8246,北京市,丰台云岗,,40,40,117,22,64,59,59,114,110,22,42,2,3,0.6,0.7
2026-03-29T2000,3674A,115.9578,39.7602,北京市,房山燕山,,46,46,109,29,67,66,66,116,112,13,22,4,5,0.4,0.5
2026-03-29T2000,3675A,116.4669,39.7734,北京市,大兴旧宫,,27,14,121,7,72,84,84,128,122,11,40,4,6,0.4,0.7
2026-03-29T2000,3694A,115.9859,40.4562,北京市,延庆石河营,,24,24,55,15,34,75,75,94,89,6,15,3,2,0.3,0.4
2026-03-29T2000,3695A,116.6151,40.3052,北京市,怀柔新城,,25,20,89,9,53,78,78,108,104,4,14,3,5,0.5,0.7
2026-03-29T2000,3696A,116.2542,39.8764,北京市,丰台小屯,,25,24,106,13,58,77,77,110,103,14,47,2,4,0.3,0.5
2026-03-29T2000,3697A,116.8399,40.3843,北京市,密云镇,,27,22,82,10,42,86,86,104,104,6,29,5,6,0.4,0.5
2026-03-29T2000,4057A,115.9423,40.4431,北京市,延庆百泉,,25,25,45,14,25,71,71,86,83,11,18,1,2,0.5,0.5
2026-03-29T2000,4058A,116.6598,39.9164,北京市,通州新华,,25,22,119,9,61,78,78,121,117,12,44,4,8,0.3,0.7
2026-03-29T2000,4182A,116.1942,39.9158,北京市,石景山八角,,37,37,116,17,58,62,62,106,99,25,46,5,6,0.4,0.6
2026-03-29T2000,4194A,117.078628,40.151726,北京市,平谷新城,,30,27,87,16,53,95,95,117,117,6,18,1,3,0.6,0.7
2026-03-29T2000,1761A,123.8274146,41.31234549,本溪市,大峪,,27,27,71,14,34,49,49,102,63,10,19,11,12,0.5,0.7
2026-03-29T2000,1763A,123.7169,41.3094,本溪市,彩屯,,42,42,75,20,39,56,56,90,73,21,28,10,16,0.9,2
2026-03-29T2000,1764A,123.7672166,41.28649327,本溪市,东明,,29,23,63,20,35,54,54,107,66,17,29,8,9,0.5,0.8
2026-03-29T2000,1765A,123.799345,41.266614,本溪市,新立屯,,20,NA,50,14,27,58,58,109,72,9,23,8,8,0.6,0.7
2026-03-29T2000,1766A,123.829144,41.336777,本溪市,威宁,,27,27,75,16,38,46,46,89,60,19,25,8,9,0.4,0.6
2026-03-29T2000,2587A,105.287,27.3133,毕节市,八中,NA,NA,70,33,29,22,NA,NA,100,100,19,13,11,11,0.8,0.7
2026-03-29T2000,2588A,105.3079,27.2987,毕节市,师专,,36,36,32,20,21,82,82,106,106,10,10,10,11,0.5,0.5
2026-03-29T2000,4263A,105.3688,27.3598,毕节市,工业大道,,48,48,29,33,17,74,74,111,110,11,9,14,11,/,/
2026-03-29T2000,1629A,117.9961,37.3604,滨州市,第二水厂,颗粒物(PM10),55,56,110,27,72,122,122,141,140,14,30,10,15,0.4,0.5
2026-03-29T2000,1630A,117.9789,37.3931,滨州市,北中新校,颗粒物(PM10),68,75,108,31,72,78,78,140,133,50,36,10,15,0.4,0.5
2026-03-29T2000,3514A,117.9379,37.3959,滨州市,中海酒店,颗粒物(PM10),62,66,102,32,70,112,112,146,143,26,31,10,15,0.5,0.6
2026-03-29T2000,3515A,117.9381509,37.35547456,滨州市,开发区一中,颗粒物(PM10),60,63,111,30,71,117,117,132,131,15,33,8,17,0.6,0.7
2026-03-29T2000,3516A,118.0914,37.6938,滨州市,金海六路,细颗粒物(PM2.5),130,127,127,92,91,144,144,146,146,25,29,11,15,0.7,0.7
2026-03-29T2000,4028A,117.9955,37.3752,滨州市,滨州市西街道办事处,颗粒物(PM10),63,68,114,31,70,116,116,141,139,14,22,10,14,0.4,0.5
2026-03-29T2000,2311A,115.8071,33.8399,亳州市,污水处理厂,,43,NA,80,30,45,111,111,154,146,21,27,6,14,0.1,0.2
2026-03-29T2000,2312A,115.7789,33.8519,亳州市,三国揽胜宫,颗粒物(PM10),71,79,90,29,48,110,110,142,138,16,20,7,10,0.2,0.2
2026-03-29T2000,3332A,115.7631,33.803,亳州市,亳州学院,颗粒物(PM10),63,68,77,20,41,118,118,143,140,12,14,6,8,0.2,0.3
2026-03-29T2000,2693A,82.0482,44.8553,博尔塔拉蒙古自治州,市党校,NA,NA,76,62,19,14,123,123,121,121,NA,6,6,3,0.7,0.4
2026-03-29T2000,2694A,82.0805,44.8966,博尔塔拉蒙古自治州,市环保局,颗粒物(PM10),52,52,54,30,20,122,122,117,117,10,15,4,4,0.4,0.4
2026-03-29T2000,1071A,116.8733,38.2922,沧州市,沧县城建局,细颗粒物(PM2.5),108,97,113,68,78,114,114,139,138,30,35,7,7,0.5,0.5
2026-03-29T2000,1072A,116.8462,38.3189,沧州市,电视转播站,细颗粒物(PM2.5),117,102,113,78,90,125,125,142,142,20,30,2,3,0.5,0.5
2026-03-29T2000,1073A,116.8588,38.3161,沧州市,市环保局,细颗粒物(PM2.5),101,98,119,61,74,126,126,146,146,23,29,6,8,0.3,0.4
2026-03-29T2000,3324A,116.8011,38.294,沧州市,河北水利电力学院,细颗粒物(PM2.5),109,78,110,69,89,115,115,130,130,22,28,4,5,0.6,0.6
2026-03-29T2000,2622A,97.1813,31.1289,昌都市,昌都监测站,,37,6,12,3,4,117,117,117,117,6,10,4,6,0.4,0.5
2026-03-29T2000,3719A,97.1707,31.1428,昌都市,昌都会议中心,,38,8,9,3,6,121,121,121,121,3,6,5,5,0.3,0.4
2026-03-29T2000,2692A,87.2722,44.0298,昌吉回族自治州,新区政务中心,,37,22,28,18,17,116,116,111,111,11,18,5,4,0.3,0.4
2026-03-29T2000,3613A,87.3069,44.0093,昌吉回族自治州,亚心广场,,39,24,35,21,15,122,122,116,116,6,13,9,9,0.3,0.4
2026-03-29T2000,4164A,87.2057,43.9289,昌吉回族自治州,财政所,,41,41,38,19,15,114,114,110,110,9,10,10,8,0.3,0.3
2026-03-29T2000,1120A,125.2874,43.9024,长春市,客车厂,颗粒物(PM10),51,51,129,33,76,58,58,92,71,22,34,8,11,0.5,0.7
2026-03-29T2000,1121A,125.2943,43.8508,长春市,邮电学院,颗粒物(PM10),98,116,128,33,77,46,46,86,64,28,28,9,10,0.6,0.8
2026-03-29T2000,1122A,125.3648,43.8745,长春市,劳动公园,颗粒物(PM10),57,59,133,33,87,44,44,81,62,24,36,9,11,0.7,0.9
2026-03-29T2000,1123A,125.3233,43.8781,长春市,园林处,颗粒物(PM10),58,60,125,34,87,50,50,85,61,24,30,8,12,0.6,0.9
2026-03-29T2000,1124A,125.4604,43.7904,长春市,净月潭,,32,27,113,22,85,45,45,90,66,18,20,8,9,0.4,0.7
2026-03-29T2000,1126A,125.38,43.8422,长春市,经开区环卫处,,47,47,125,28,81,47,47,85,65,26,37,7,8,0.6,0.9
2026-03-29T2000,1127A,125.234,43.7761,长春市,高新区管委会,,47,47,131,28,86,39,39,85,60,28,31,12,12,0.8,1
2026-03-29T2000,1128A,125.1695,43.83,长春市,岱山公园,颗粒物(PM10),51,51,118,30,73,51,51,81,63,20,31,5,7,0.5,0.7
2026-03-29T2000,4281A,125.334645,43.916281,长春市,北亚泰大街1068号,颗粒物(PM10),55,56,142,33,88,43,43,77,57,28,39,8,11,0.4,0.7
2026-03-29T2000,1335A,113.082,28.2421,长沙市,经开区环保局,颗粒物(PM10),58,61,56,38,40,6,6,50,44,44,28,4,8,1.0,0.8
2026-03-29T2000,1336A,112.8873,28.2202,长沙市,高开区环保局,颗粒物(PM10),58,60,59,32,43,16,16,33,31,36,38,4,5,1.1,1
2026-03-29T2000,1337A,113.0785,28.2012,长沙市,马坡岭,细颗粒物(PM2.5),58,57,55,39,40,4,4,49,43,54,35,5,4,1.0,0.9
2026-03-29T2000,1338A,112.9448,28.1894,长沙市,湖南师范大学,颗粒物(PM10),53,54,52,27,36,25,25,39,37,28,25,4,4,1.0,0.9
2026-03-29T2000,1339A,113.0177,28.1322,长沙市,雨花区环保局,颗粒物(PM10),51,51,49,26,33,15,15,43,40,36,26,3,4,1.1,0.9
2026-03-29T2000,1340A,112.9795,28.2593,长沙市,伍家岭,细颗粒物(PM2.5),66,66,59,43,43,9,9,32,30,44,33,3,4,1.1,0.9
2026-03-29T2000,1341A,113.002,28.1944,长沙市,火车新站,细颗粒物(PM2.5),76,70,62,48,55,13,13,42,38,48,37,3,3,1.1,0.9
2026-03-29T2000,1342A,112.9846,28.1177,长沙市,天心区环保局,,49,44,53,34,52,19,19,47,44,37,33,5,6,1.0,1
2026-03-29T2000,1343A,112.8906,28.1307,长沙市,湖南中医药大学,,42,42,49,25,37,23,23,39,38,26,31,5,5,0.7,0.6
2026-03-29T2000,1727A,113.1146,36.1547,长治市,清华站,颗粒物(PM10),55,56,29,36,19,104,104,126,126,30,16,12,5,0.6,0.6
2026-03-29T2000,1730A,113.0887,36.2126,长治市,审计局,细颗粒物(PM2.5),54,53,28,37,24,125,125,135,135,23,17,12,8,0.7,0.6
2026-03-29T2000,1731A,113.0845,36.1856,长治市,长治八中,细颗粒物(PM2.5),70,65,33,45,23,117,117,127,127,22,18,12,10,0.6,0.5
2026-03-29T2000,2845A,113.1561,36.1912,长治市,德盛苑,细颗粒物(PM2.5),58,49,32,39,21,127,127,141,141,14,13,9,9,0.6,0.6
2026-03-29T2000,3568A,113.0603,36.0464,长治市,向阳小学,颗粒物(PM10),85,99,55,40,20,102,102,126,126,38,17,9,8,0.6,0.6
2026-03-29T2000,3569A,112.8788,36.315,长治市,屯留一中,颗粒物(PM10),68,75,45,41,30,110,110,124,124,30,21,14,10,1.2,0.9
2026-03-29T2000,4189A,113.113092,36.199482,长治市,英华南巷50号,细颗粒物(PM2.5),62,58,33,41,22,126,126,140,140,25,13,10,8,0.7,0.7
2026-03-29T2000,4190A,113.23666,36.33435,长治市,学府街1号,,49,46,41,34,31,125,125,134,134,15,18,5,5,0.8,1.2
2026-03-29T2000,1854A,111.696,28.9725,常德市,市二中,,36,29,25,25,19,45,45,40,40,11,15,6,6,1.3,1
2026-03-29T2000,3138A,111.7152,29.0288,常德市,武陵区永安,,36,30,27,25,22,55,55,48,48,9,20,5,6,0.9,0.7
2026-03-29T2000,3139A,111.6891,28.9881,常德市,鼎城区玉霞,,36,27,28,25,20,51,51,45,45,12,20,7,7,1.2,0.9
2026-03-29T2000,3140A,111.6651,29.0526,常德市,武陵区长庚,,33,26,26,23,18,54,54,42,42,9,15,6,7,1.2,1
2026-03-29T2000,1196A,119.9524,31.7586,常州市,市监测站,颗粒物(PM10),71,79,68,41,34,135,135,177,176,43,27,8,7,0.8,0.6
2026-03-29T2000,1200A,119.9351,31.703,常州市,武进监测站,颗粒物(PM10),65,70,60,40,32,145,145,175,175,28,21,12,6,0.7,0.5
2026-03-29T2000,3002A,119.9701,31.813,常州市,行政中心,颗粒物(PM10),88,103,69,51,34,135,135,160,160,38,22,8,9,0.6,0.6
2026-03-29T2000,3003A,120.0434,31.7726,常州市,经开区,颗粒物(PM10),85,99,71,47,34,113,113,170,165,66,27,14,12,1.0,0.7
2026-03-29T2000,3010A,119.8919,31.7892,常州市,钟楼,颗粒物(PM10),64,69,60,38,30,160,160,182,182,34,24,9,9,0.3,0.2
2026-03-29T2000,3429A,119.8595,31.706,常州市,武进经发区,细颗粒物(PM2.5),80,76,62,50,39,116,116,176,172,48,27,21,12,0.7,0.5
2026-03-29T2000,3430A,119.5812,31.7256,常州市,金坛城区,细颗粒物(PM2.5),58,50,60,39,41,140,140,172,172,23,19,10,11,0.8,0.7
2026-03-29T2000,4089A,119.9551,31.863,常州市,崇义南街5-H号,细颗粒物(PM2.5),84,94,59,52,31,123,123,167,164,49,28,8,8,0.7,0.6
2026-03-29T2000,2220A,120.4318,41.588,朝阳市,西梁,细颗粒物(PM2.5),64,NA,46,42,32,44,44,85,65,24,18,10,11,0.6,0.6
2026-03-29T2000,2221A,120.452,41.565,朝阳市,河畔小区,,22,16,42,15,27,50,50,98,70,17,16,7,10,0.8,0.6
2026-03-29T2000,2222A,120.4176,41.5648,朝阳市,八里堡,细颗粒物(PM2.5),56,NA,46,38,32,44,44,82,66,26,20,8,10,0.6,0.6
2026-03-29T2000,3026A,116.6179,23.6608,潮州市,市政府,,45,45,55,31,30,81,81,126,123,18,15,4,6,0.6,0.5
2026-03-29T2000,4036A,116.646,23.676,潮州市,金山,,50,46,43,35,26,81,81,130,129,20,19,4,5,0.4,0.3
2026-03-29T2000,2473A,113.0116,25.8228,郴州市,市职中,,44,44,30,20,23,54,54,31,31,9,14,6,6,0.7,0.8
2026-03-29T2000,2475A,113.0381,25.8074,郴州市,市审计局,,35,32,32,24,25,77,77,46,46,12,17,5,8,/,/
2026-03-29T2000,2476A,113.0348,25.7757,郴州市,市环保局,颗粒物(PM10),53,54,36,21,26,67,67,36,36,11,18,10,10,0.4,0.7
2026-03-29T2000,4252A,113.0138,25.8011,郴州市,好美居路49号,,30,30,30,17,20,69,69,38,38,13,16,4,7,/,/
2026-03-29T2000,1431A,103.9727,30.7242,成都市,金泉两河,,32,32,43,16,30,61,61,71,70,18,20,1,1,0.4,0.4
2026-03-29T2000,1432A,104.1423,30.6765,成都市,十里店,,38,38,45,26,32,60,60,64,64,15,24,4,4,0.6,0.5
2026-03-29T2000,1433A,104.0594,30.5765,成都市,三瓦窑,颗粒物(PM10),53,53,42,26,32,52,52,62,62,14,20,2,2,0.6,0.6
2026-03-29T2000,1434A,104.1122,30.6306,成都市,沙河铺,,36,36,45,24,32,38,38,45,44,26,27,5,5,0.6,0.5
2026-03-29T2000,2880A,104.0219,30.6561,成都市,大石西路,,45,45,45,25,34,51,51,68,66,22,21,6,6,0.8,0.7
2026-03-29T2000,3136A,104.2724,30.559,成都市,龙泉驿区区政府,,40,NA,27,28,26,50,50,56,55,9,11,6,6,0.5,0.4
2026-03-29T2000,3357A,104.0028,30.6891,成都市,金博路,,32,30,36,22,32,54,54,74,72,27,24,6,6,0.7,0.7
2026-03-29T2000,3359A,104.056,30.5228,成都市,华阳,,32,27,35,22,29,53,53,59,59,22,24,4,4,0.7,0.7
2026-03-29T2000,3488A,104.387954,30.746684,成都市,青石路225号,,44,44,37,29,28,43,43,56,56,12,18,5,5,0.8,0.7
2026-03-29T2000,3489A,104.0788,30.4054,成都市,科学城,,35,29,32,24,23,54,54,61,61,18,17,7,7,0.8,0.8
2026-03-29T2000,4011A,103.8505,30.6946,成都市,光华大道三段,,41,41,46,19,32,57,57,68,68,28,24,3,3,0.5,0.5
2026-03-29T2000,4144A,104.3257,30.6406,成都市,八角井街185号,,42,38,37,29,28,40,40,44,44,14,17,3,3,0.6,0.5
2026-03-29T2000,4224A,104.2433276,30.53529463,成都市,鲸龙路1057号,,44,44,44,28,27,56,56,58,57,13,19,5,6,0.7,0.6
2026-03-29T2000,1062A,117.9531,40.908,承德市,铁路,,23,18,72,16,39,51,51,86,77,13,23,3,6,0.3,0.4
2026-03-29T2000,1063A,117.9397,40.9763,承德市,中国银行,,36,36,72,17,39,52,52,85,79,15,21,1,3,0.3,0.5
2026-03-29T2000,4073A,117.9462,40.95,承德市,杏林街1号,,30,24,69,21,50,58,58,94,86,11,20,2,3,0.3,0.5
2026-03-29T2000,4274A,117.7994,40.9605,承德市,滨河大街98号,,38,38,71,20,50,60,60,103,90,11,24,4,10,0.2,0.5
2026-03-29T2000,2314A,117.4698,30.6617,池州市,池州学院,细颗粒物(PM2.5),72,65,42,46,26,140,140,166,164,32,28,6,5,0.7,0.8
2026-03-29T2000,3237A,117.4918,30.6617,池州市,展览馆,,50,36,19,35,25,132,132,166,162,25,22,4,3,0.6,0.8
2026-03-29T2000,3333A,117.5626,30.695,池州市,第八中学,细颗粒物(PM2.5),68,65,45,44,26,117,117,152,149,36,36,6,5,0.6,0.7
2026-03-29T2000,3334A,117.5037,30.6242,池州市,第十二中学,颗粒物(PM10),68,75,47,40,21,107,107,155,151,40,27,8,6,0.8,1
2026-03-29T2000,1744A,118.9229,42.2816,赤峰市,松山一中,,28,28,44,9,26,70,70,84,81,17,13,5,5,0.4,0.5
2026-03-29T2000,1745A,118.9588,42.2733,赤峰市,哈达街,,24,24,49,12,28,68,68,86,76,16,15,8,8,0.4,0.4
2026-03-29T2000,1746A,118.8792,42.2551,赤峰市,天义路,,28,20,34,19,27,77,77,104,86,14,11,4,5,0.5,0.4
2026-03-29T2000,3058A,119.2656,42.0356,赤峰市,银河街,,31,31,57,9,31,61,61,84,82,16,7,7,12,0.4,0.5
2026-03-29T2000,3286A,118.9359,42.3146,赤峰市,桥北物流园区,,25,25,39,9,26,61,61,92,76,23,10,4,4,0.4,0.5
2026-03-29T2000,2521A,107.3473,22.4137,崇左市,市环保局江州分局,,38,38,59,23,43,68,68,75,75,6,10,5,8,0.5,0.6
2026-03-29T2000,4256A,107.375,22.3736,崇左市,石景林东路7号,NA,NA,26,46,21,37,NA,NA,87,87,12,13,3,3,0.7,0.8
2026-03-29T2000,3207A,118.31131,32.3033,滁州市,市政府原办公楼,细颗粒物(PM2.5),68,60,52,44,41,143,143,145,145,20,24,7,6,0.4,0.4
2026-03-29T2000,3331A,118.3268,32.2633,滁州市,图书馆,颗粒物(PM10),54,55,50,31,28,144,144,150,150,18,21,11,10,0.4,0.4
2026-03-29T2000,4101A,118.3196,32.3335,滁州市,银山路666号,颗粒物(PM10),62,66,50,37,30,147,147,154,153,24,30,12,10,0.6,0.6
2026-03-29T2000,4102A,118.3426,32.2979,滁州市,黄山路555号,颗粒物(PM10),75,84,69,36,35,151,151,163,162,26,29,9,8,0.7,0.6
2026-03-29T2000,2606A,101.5379,25.0492,楚雄彝族自治州,市经济开发区,,30,19,25,17,22,94,94,110,104,10,8,4,4,0.4,0.5
2026-03-29T2000,4153A,101.5536,25.0343,楚雄彝族自治州,团结路562号,,32,16,22,14,21,101,101,112,108,4,5,1,1,0.3,0.4
2026-03-29T2000,2549A,107.5087,31.2186,达州市,市环境监测站,,23,23,32,10,15,37,37,33,33,25,31,5,6,0.2,0.3
2026-03-29T2000,2550A,107.4988,31.2132,达州市,凤凰小区,,27,27,31,12,16,31,31,37,37,30,27,4,6,0.3,0.4
2026-03-29T2000,2551A,107.5081,31.1987,达州市,达县机关宾馆,,23,19,33,16,20,25,25,24,24,36,38,4,4,0.4,0.5
2026-03-29T2000,2552A,107.4644,31.2124,达州市,市政中心,,31,31,39,10,15,37,37,32,32,25,30,4,4,0.5,0.8
2026-03-29T2000,2614A,100.2168,25.5818,大理白族自治州,大理市环境监测站,,26,13,17,12,16,81,81,104,88,9,9,3,3,0.2,0.3
2026-03-29T2000,2615A,100.1542,25.7055,大理白族自治州,大理古城,,29,15,19,7,14,92,92,105,97,4,5,5,5,0.4,0.5
2026-03-29T2000,1109A,121.6119,38.974,大连市,甘井子,细颗粒物(PM2.5),139,162,109,102,74,77,77,133,124,59,32,11,10,0.8,0.7
2026-03-29T2000,1110A,121.565,38.9509,大连市,周水子,细颗粒物(PM2.5),140,145,100,103,76,71,71,131,120,65,34,8,8,0.6,0.5
2026-03-29T2000,1111A,121.5637,38.8849,大连市,星海三站,细颗粒物(PM2.5),118,108,86,79,66,84,84,119,110,36,22,7,7,0.5,0.4
2026-03-29T2000,1112A,121.6301,38.9117,大连市,青泥洼桥,细颗粒物(PM2.5),126,141,104,88,73,77,77,139,126,47,24,7,8,0.7,0.6
2026-03-29T2000,1113A,121.6248,38.8643,大连市,傅家庄,细颗粒物(PM2.5),114,115,101,75,70,83,83,117,109,40,25,11,10,0.9,0.8
2026-03-29T2000,1114A,121.5117,38.8636,大连市,七贤岭,细颗粒物(PM2.5),139,166,110,102,73,117,117,125,124,38,30,7,7,1.0,0.8
2026-03-29T2000,1116A,121.7507,39.1339,大连市,金州,细颗粒物(PM2.5),238,196,108,188,105,126,126,155,151,27,23,14,13,0.8,0.6
2026-03-29T2000,1117A,121.7811,39.0495,大连市,开发区,细颗粒物(PM2.5),145,139,83,109,68,122,122,134,134,31,34,10,12,0.7,0.5
2026-03-29T2000,1118A,121.9762,39.0631,大连市,双D港,细颗粒物(PM2.5),129,114,84,91,71,100,100,110,110,28,33,6,6,0.8,0.7
2026-03-29T2000,4082A,121.2548,38.8188,大连市,旅顺,细颗粒物(PM2.5),153,165,94,117,78,132,132,126,122,26,24,7,7,0.8,0.6
2026-03-29T2000,1789A,124.8085,46.0381,大庆市,大同区,颗粒物(PM10),72,80,207,28,134,84,84,96,91,16,27,5,10,0.3,0.7
2026-03-29T2000,1790A,125.1166,46.5255,大庆市,龙凤区,颗粒物(PM10),55,56,216,30,170,75,75,93,83,19,38,7,13,0.2,0.8
2026-03-29T2000,1791A,124.8894,46.4007,大庆市,红岗区,,49,49,170,10,145,80,80,86,82,4,19,14,17,0.4,0.9
2026-03-29T2000,1792A,125.1391,46.578,大庆市,萨尔图区,颗粒物(PM10),66,72,226,31,163,78,78,94,86,22,36,7,12,0.4,0.9
2026-03-29T2000,1793A,124.9026,46.6217,大庆市,让胡路区,颗粒物(PM10),55,57,186,26,156,76,76,86,79,8,31,4,14,0.3,0.9
2026-03-29T2000,3481A,125.127,46.6277,大庆市,萨区政府监测点,,44,44,244,22,171,67,67,84,76,12,26,10,14,0.3,0.9
2026-03-29T2000,1723A,113.2926,40.0759,大同市,云冈宾馆,,22,15,41,13,22,70,70,84,83,8,17,5,7,0.6,0.9
2026-03-29T2000,1724A,113.3437,40.0921,大同市,大同大学,,25,25,44,16,27,70,70,88,86,17,22,5,7,0.6,0.9
2026-03-29T2000,1725A,113.2637,40.129,大同市,安家小村,,26,26,47,18,28,74,74,88,87,11,20,10,12,0.3,0.7
2026-03-29T2000,3282A,113.3399,40.0586,大同市,大同市卫生学校,,28,28,51,10,31,77,77,92,91,10,21,5,7,0.4,0.7
2026-03-29T2000,3565A,113.1371,40.1122,大同市,云冈站,,23,18,46,8,26,72,72,87,85,7,20,5,6,0.3,0.5
2026-03-29T2000,3566A,113.1186,40.2556,大同市,图书馆,,23,23,46,15,28,69,69,84,82,10,17,5,7,0.4,0.6
2026-03-29T2000,3567A,113.5931,40.0459,大同市,区一中,,27,27,43,16,27,76,76,95,93,6,16,9,18,0.2,0.5
2026-03-29T2000,4199A,113.2798248,40.09972476,大同市,魏都大道141号,,26,26,49,10,29,69,69,86,85,11,20,8,10,0.6,0.9
2026-03-29T2000,2269A,124.1068,50.4091,大兴安岭地区,科技局,,24,16,17,12,7,76,76,75,75,2,3,6,6,0.3,0.3
2026-03-29T2000,3663A,124.117,50.4279,大兴安岭地区,红旗社区,,26,NA,7,3,8,81,81,79,79,2,8,10,11,0.3,0.3
2026-03-29T2000,1600A,124.33,40.0625,丹东市,江湾东路,细颗粒物(PM2.5),100,73,82,60,58,107,107,127,127,25,27,9,13,0.8,1
2026-03-29T2000,1601A,124.4242,40.1513,丹东市,临江后街,细颗粒物(PM2.5),98,88,82,59,53,101,101,113,113,22,21,12,10,1.0,0.8
2026-03-29T2000,1602A,124.3935,40.1461,丹东市,元宝山,细颗粒物(PM2.5),96,NA,94,58,60,111,111,117,117,22,23,17,16,1.2,1.1
2026-03-29T2000,1603A,124.3634,40.1093,丹东市,民主桥,细颗粒物(PM2.5),80,71,88,50,60,121,121,129,129,23,35,11,11,0.8,0.8
2026-03-29T2000,3541A,109.5726195,19.51688767,儋州市,第一中学子站,,37,37,42,20,28,68,68,82,80,5,7,6,6,0.4,0.6
2026-03-29T2000,3542A,109.5567,19.5187,儋州市,东坡学校子站,,36,36,43,20,27,71,71,89,86,5,7,7,7,0.7,0.7
2026-03-29T2000,2616A,98.5611,24.4273,德宏傣族景颇族自治州,德宏州监测站,,49,NA,33,34,39,69,69,97,95,8,6,9,9,0.7,0.7
2026-03-29T2000,3677A,98.5887,24.4366,德宏傣族景颇族自治州,芒市人民政府综合楼,,42,42,52,21,35,73,73,91,91,14,11,5,4,0.5,0.6
2026-03-29T2000,1901A,104.424,31.1209,德阳市,东山公园,,26,NA,29,18,28,53,53,63,63,9,14,3,3,0.7,0.6
2026-03-29T2000,1902A,104.3827,31.1318,德阳市,西小区,,28,28,45,13,27,57,57,74,72,13,19,2,3,0.8,0.7
2026-03-29T2000,1904A,104.3553,31.1091,德阳市,耐火材料厂,,20,20,42,12,33,56,56,77,74,18,21,1,2,0.6,0.6
2026-03-29T2000,4145A,104.4144,31.1495,德阳市,市林业局,,20,20,32,14,27,57,57,70,70,8,20,2,2,0.6,0.6
2026-03-29T2000,1622A,116.3034,37.4675,德州市,儿童乐园,颗粒物(PM10),62,66,76,22,39,111,111,132,131,26,22,12,13,0.7,0.6
2026-03-29T2000,1624A,116.2992,37.4449,德州市,监理站,颗粒物(PM10),58,61,73,22,41,120,120,137,137,30,26,6,7,0.5,0.5
2026-03-29T2000,3066A,116.2722,37.438,德州市,九衢泉纯净水厂,颗粒物(PM10),51,51,77,21,37,74,74,126,120,59,43,5,5,0.5,0.6
2026-03-29T2000,3371A,116.3693,37.44,德州市,开发区人民医院,颗粒物(PM10),60,63,74,20,42,97,97,129,127,37,21,8,9,0.7,0.6
2026-03-29T2000,3511A,116.5687,37.3331,德州市,陵城艺术中心,颗粒物(PM10),65,70,68,33,42,104,104,126,124,20,16,7,6,0.8,0.7
2026-03-29T2000,4292A,116.352738,37.420875,德州市,新河东路,颗粒物(PM10),60,63,75,22,39,95,95,122,120,25,17,10,12,0.6,0.6
2026-03-29T2000,2621A,99.7054,27.8319,迪庆藏族自治州,迪庆州站,,25,15,19,7,13,80,80,106,88,9,7,4,4,0.6,0.6
2026-03-29T2000,3180A,99.7122,27.8129,迪庆藏族自治州,质量技术监督局,,29,15,19,10,12,92,92,118,98,11,7,6,6,0.5,0.4
2026-03-29T2000,4257A,104.6092,35.5962,定西市,将台街,,35,33,50,24,26,62,62,72,72,31,28,8,10,0.7,0.5
2026-03-29T2000,4309A,104.6159,35.5701,定西市,正龙路62号,,33,33,49,15,25,66,66,66,66,24,17,3,4,1.1,0.7
2026-03-29T2000,4071A,114.9883,38.5232,定州市,交通局,颗粒物(PM10),65,71,75,36,53,110,110,133,133,27,18,4,4,0.5,0.6
2026-03-29T2000,4072A,115.0045,38.5136,定州市,第五中学,颗粒物(PM10),65,70,83,25,47,111,111,134,133,27,17,8,8,0.4,0.5
2026-03-29T2000,1390A,113.7943,23.0132,东莞市,东城石井,,25,24,37,12,20,78,78,83,81,12,20,3,3,0.5,0.6
2026-03-29T2000,1391A,113.7384,22.9659,东莞市,南城西平,,22,22,33,10,20,58,58,73,70,17,21,4,4,0.5,0.6
2026-03-29T2000,3319A,113.7283,23.041,东莞市,万江金泰,,29,26,39,20,25,60,60,74,70,19,18,6,6,0.8,0.8
2026-03-29T2000,4129A,113.8666,23.1062,东莞市,裕兴路,,28,28,44,12,25,50,50,80,73,16,17,4,5,0.7,0.8
2026-03-29T2000,4130A,114.0076,22.9739,东莞市,教育路1号,,43,43,38,19,20,39,39,88,77,28,16,5,5,0.6,0.6
2026-03-29T2000,4131A,113.7981,22.8124,东莞市,长怡路1号,,34,34,40,16,20,27,27,41,40,20,21,4,5,0.6,0.6
2026-03-29T2000,1666A,118.6612,37.4313,东营市,市环保局,细颗粒物(PM2.5),111,110,130,72,91,127,127,165,163,30,35,23,17,0.7,0.7
2026-03-29T2000,3036A,118.6903,37.4337,东营市,开发区管委会,细颗粒物(PM2.5),110,104,118,70,87,127,127,167,165,33,39,21,17,0.7,0.7
2026-03-29T2000,3365A,118.5721,37.5654,东营市,垦利区民丰路,细颗粒物(PM2.5),125,124,113,87,89,154,154,167,167,44,35,5,6,0.8,0.7
2026-03-29T2000,3498A,118.5063,37.8606,东营市,河口城区,细颗粒物(PM2.5),125,122,131,87,93,178,178,177,177,20,26,13,13,1.0,1
2026-03-29T2000,3646A,118.4979,37.4623,东营市,胜利站,NA,NA,NA,143,NA,95,NA,NA,153,NA,NA,41,NA,15,NA,1.1
2026-03-29T2000,3734A,118.5753,37.4405,东营市,理想之城,细颗粒物(PM2.5),117,124,129,78,85,151,151,171,171,41,44,19,11,1.1,1
2026-03-29T2000,1591A,110.0024,39.8127,鄂尔多斯市,综合楼,颗粒物(PM10),65,70,49,30,21,90,90,101,101,24,14,8,7,0.5,0.4
2026-03-29T2000,1592A,109.9485,39.8259,鄂尔多斯市,巴音孟克林场办事处,颗粒物(PM10),63,68,43,20,18,93,93,105,105,23,13,7,5,0.3,0.2
2026-03-29T2000,1593A,109.7734,39.5987,鄂尔多斯市,康泽苑,,48,48,33,26,17,104,104,115,115,16,10,8,6,0.3,0.3
2026-03-29T2000,1594A,109.8121,39.5987,鄂尔多斯市,华泰汽车城,,48,48,36,26,18,106,106,121,121,17,12,6,5,0.4,0.4
2026-03-29T2000,1595A,109.9734,39.7884,鄂尔多斯市,奥林花园,颗粒物(PM10),60,63,46,26,16,102,102,105,105,17,16,5,4,0.5,0.4
2026-03-29T2000,2436A,114.894,30.3989,鄂州市,市政府,颗粒物(PM10),59,62,92,24,46,84,84,125,122,30,37,12,11,0.8,0.6
2026-03-29T2000,2437A,114.8986,30.3714,鄂州市,赵家坝,颗粒物(PM10),59,62,74,31,45,93,93,137,132,34,26,14,13,1.0,0.9
2026-03-29T2000,3654A,114.8093,30.4091,鄂州市,精准医疗中心,颗粒物(PM10),63,68,86,23,55,94,94,133,130,31,31,22,17,0.8,0.9
2026-03-29T2000,2454A,109.4978,30.2979,恩施土家族苗族自治州,湖北民院,,35,26,33,24,23,84,84,22,22,7,18,6,6,0.6,0.7
2026-03-29T2000,3549A,109.5061,30.3771,恩施土家族苗族自治州,龙凤新区,,28,20,27,9,17,87,87,31,31,2,9,7,7,0.4,0.5
2026-03-29T2000,2499A,108.3411,21.6159,防城港市,沙万,颗粒物(PM10),53,54,52,24,26,59,59,56,56,18,22,8,9,0.6,0.7
2026-03-29T2000,2500A,108.3515,21.7733,防城港市,防城档案局,,39,28,43,27,26,65,65,65,65,4,10,6,7,0.5,0.6
2026-03-29T2000,2501A,108.3506,21.6414,防城港市,大海花园,,45,34,40,31,30,59,59,64,64,22,21,12,12,0.4,0.5
2026-03-29T2000,1371A,113.1293,23.0065,佛山市,湾梁,,24,12,29,12,20,76,76,70,70,15,23,/,/,/,/
2026-03-29T2000,1372A,113.1082,23.0477,佛山市,华材职中,,27,NA,29,13,23,84,84,74,74,15,25,6,7,0.4,0.4
2026-03-29T2000,1373A,113.1439,23.045,佛山市,南海气象局,,26,NA,32,15,24,82,82,68,68,13,25,/,/,/,/
2026-03-29T2000,1374A,113.2879,22.8094,佛山市,顺德苏岗,,36,36,38,8,18,60,60,68,65,14,15,/,/,0.5,0.5
2026-03-29T2000,1376A,112.8384,22.8678,佛山市,高明孔堂,,23,NA,25,6,17,71,71,69,69,10,14,/,/,/,/
2026-03-29T2000,1377A,112.8835,23.1584,佛山市,三水监测站,,24,NA,30,16,24,74,74,67,67,21,27,3,5,0.5,0.5
2026-03-29T2000,1378A,112.8668,23.185,佛山市,三水云东海,,32,32,45,16,21,68,68,64,64,25,23,/,/,/,/
2026-03-29T2000,3625A,113.2568,22.7629,佛山市,容桂街道办,,22,NA,26,7,20,70,70,70,69,14,17,/,/,/,/
2026-03-29T2000,1282A,119.2681,26.0506,福州市,师大,细颗粒物(PM2.5),68,51,39,44,27,98,98,115,115,26,21,6,4,0.7,0.5
2026-03-29T2000,1283A,119.2983,26.1028,福州市,五四北路,细颗粒物(PM2.5),62,47,37,41,27,94,94,111,111,26,21,5,4,0.8,0.7
2026-03-29T2000,1284A,119.2648,26.0769,福州市,杨桥西路,细颗粒物(PM2.5),58,46,36,39,26,100,100,116,116,24,20,6,4,/,/
2026-03-29T2000,3048A,119.5799,26.0937,福州市,九龙,,35,25,30,24,27,112,112,113,113,14,19,5,5,0.5,0.6
2026-03-29T2000,3526A,119.5188,25.9666,福州市,吴航,,41,41,37,24,24,107,107,118,118,15,23,6,6,0.6,0.6
2026-03-29T2000,4104A,119.3106,26.0648,福州市,路通桥巷6号,细颗粒物(PM2.5),56,53,40,38,28,95,95,110,110,18,17,/,/,/,/
2026-03-29T2000,1755A,123.7974,41.8494,抚顺市,望花区,,26,25,107,18,65,63,63,75,73,16,33,14,16,0.6,1
2026-03-29T2000,1756A,123.9161,41.8827,抚顺市,顺城区,,20,17,88,14,72,58,58,76,74,20,41,10,13,0.6,1.2
2026-03-29T2000,1757A,124.0437,41.8615,抚顺市,东洲区,,18,16,92,7,63,57,57,76,71,11,23,10,12,0.6,1
2026-03-29T2000,1758A,123.9246,41.8638,抚顺市,新抚区,,20,20,114,14,73,42,42,73,69,23,40,10,12,0.5,1
2026-03-29T2000,1759A,124.0972,41.8961,抚顺市,大伙房水库,,22,12,88,3,66,68,68,84,80,11,22,8,9,0.4,0.8
2026-03-29T2000,1760A,123.708,41.8386,抚顺市,沈抚新城,,29,29,93,12,58,55,55,72,70,24,37,9,14,0.6,1.2
2026-03-29T2000,2377A,116.3544,27.9833,抚州市,市站,细颗粒物(PM2.5),82,56,48,51,44,55,55,75,70,9,5,8,9,1.2,1.1
2026-03-29T2000,2378A,116.3562,27.9631,抚州市,血防站,细颗粒物(PM2.5),60,50,48,40,40,50,50,73,68,15,11,6,7,0.9,0.9
2026-03-29T2000,2379A,116.3561,28.0007,抚州市,采茶剧团,细颗粒物(PM2.5),68,62,54,44,42,52,52,73,70,11,8,9,11,1.1,1
2026-03-29T2000,2380A,116.3854,27.9648,抚州市,医学分院,细颗粒物(PM2.5),56,47,57,38,41,53,53,75,72,13,10,6,7,1.2,1.1
2026-03-29T2000,2207A,121.6095,41.9978,阜新市,工业园区,,39,NA,49,27,25,39,39,76,64,34,23,9,17,0.6,0.6
2026-03-29T2000,2208A,121.6567,42.0188,阜新市,长青街,,32,23,42,22,24,43,43,83,65,30,23,8,15,0.6,0.6
2026-03-29T2000,2209A,121.6672,42.07,阜新市,农业园区,,29,28,50,20,24,46,46,82,65,26,22,4,10,0.6,0.6
2026-03-29T2000,2211A,121.6343,42.0455,阜新市,玉龙新城,,35,33,46,24,25,17,17,76,62,54,25,8,14,0.7,0.6
2026-03-29T2000,2301A,115.8276,32.8929,阜阳市,市监测站,细颗粒物(PM2.5),80,77,76,50,43,97,97,137,130,31,27,7,8,0.5,0.5
2026-03-29T2000,2303A,115.8551,32.8606,阜阳市,开发区,颗粒物(PM10),93,109,85,50,39,89,89,137,128,24,21,7,7,0.6,0.5
2026-03-29T2000,2875A,115.783962,32.889217,阜阳市,阜阳职业技术学院,颗粒物(PM10),68,75,61,35,24,120,120,148,145,17,15,8,8,0.5,0.5
2026-03-29T2000,3468A,115.79,32.8614,阜阳市,市规划展馆,细颗粒物(PM2.5),58,57,68,39,34,119,119,142,140,17,14,10,10,0.7,0.6
2026-03-29T2000,3469A,115.835101,32.918568,阜阳市,枣园社区,细颗粒物(PM2.5),102,94,77,62,46,100,100,139,133,23,32,6,7,0.7,0.6
2026-03-29T2000,2669A,102.9097,34.9841,甘南藏族自治州,州政府,,27,23,44,13,24,84,84,87,87,4,8,5,6,0.4,0.4
2026-03-29T2000,3380A,102.8915,34.9618,甘南藏族自治州,甘肃民族师范学院,,36,19,47,12,20,113,113,120,120,5,15,3,2,0.5,0.5
2026-03-29T2000,2570A,101.96,30.048,甘孜藏族自治州,水桥子,,17,6,6,3,3,52,52,78,76,22,12,6,6,0.3,0.2
2026-03-29T2000,3065A,101.9534,29.9976,甘孜藏族自治州,州环保局,,26,NA,8,9,4,82,82,90,90,12,12,5,5,0.3,0.3
2026-03-29T2000,2363A,114.9368,25.8663,赣州市,地委,NA,NA,NA,29,NA,23,13,13,38,27,37,18,NA,2,1.1,0.9
2026-03-29T2000,2364A,114.946,25.8483,赣州市,气象台,细颗粒物(PM2.5),60,57,36,40,27,27,27,48,38,31,20,4,5,1.0,0.8
2026-03-29T2000,2365A,114.932,25.8332,赣州市,市图书馆,细颗粒物(PM2.5),60,49,28,40,23,26,26,49,36,27,15,3,4,1.0,1
2026-03-29T2000,2366A,114.8905,25.8472,赣州市,华坚鞋城,细颗粒物(PM2.5),68,64,33,44,21,28,28,47,30,25,16,7,6,0.6,0.5
2026-03-29T2000,3109A,115.0094,25.8614,赣州市,赣县区卫计委,,50,48,32,35,20,2,2,33,18,42,20,2,1,0.7,0.6
2026-03-29T2000,2684A,106.2753,36.0057,固原市,监测站,,30,27,43,12,22,93,93,104,104,13,19,10,10,0.4,0.5
2026-03-29T2000,2685A,106.2384,36.0189,固原市,新区,,33,14,50,11,22,103,103,106,106,11,32,8,8,0.4,0.5
2026-03-29T2000,2544A,106.6307,30.4577,广安市,市委,,29,26,29,20,27,46,46,46,46,12,15,6,6,0.6,0.7
2026-03-29T2000,2545A,106.6266,30.4662,广安市,友谊中学,,25,25,31,16,22,47,47,47,47,10,14,7,8,0.6,0.7
2026-03-29T2000,2547A,106.6386,30.4551,广安市,广电花园,,32,32,35,22,27,43,43,42,42,12,15,5,5,0.7,0.8
2026-03-29T2000,2902A,106.6347,30.4868,广安市,北辰小学,NA,NA,NA,31,NA,27,NA,NA,33,NA,NA,12,NA,6,NA,0.8
2026-03-29T2000,2524A,105.8211,32.4444,广元市,老城,NA,NA,33,43,3,25,NA,NA,37,27,26,29,3,13,0.7,0.8
2026-03-29T2000,2526A,105.8629,32.429,广元市,监测站,,25,25,40,3,24,51,51,51,40,20,23,9,13,0.6,0.7
2026-03-29T2000,3617A,105.8047,32.4167,广元市,经开区,,15,11,39,8,26,47,47,31,31,21,30,4,5,0.6,0.7
2026-03-29T2000,1345A,113.2346,23.1423,广州市,广雅中学,,26,21,30,14,18,81,81,70,70,18,21,2,2,0.6,0.6
2026-03-29T2000,1346A,113.2611,23.105,广州市,市五中,NA,NA,21,29,NA,21,95,95,82,82,NA,22,6,6,/,/
2026-03-29T2000,1348A,113.3477,23.0916,广州市,广东商学院,,27,17,27,12,19,86,86,67,67,14,24,4,5,0.7,0.6
2026-03-29T2000,1349A,113.4332,23.105,广州市,市八十六中,,27,18,27,10,17,85,85,56,56,18,38,5,6,/,/
2026-03-29T2000,1350A,113.3506,22.9488,广州市,番禺中学,,23,10,30,7,17,71,71,69,69,15,23,3,4,0.6,0.6
2026-03-29T2000,1351A,113.2147,23.3918,广州市,花都师范,,25,23,38,14,22,77,77,68,68,25,35,6,6,0.8,0.9
2026-03-29T2000,1352A,113.2599,23.1329,广州市,市监测站,,26,26,36,13,18,82,82,68,68,14,20,1,2,/,/
2026-03-29T2000,1353A,113.5618,23.3119,广州市,九龙镇镇龙,,27,12,33,7,17,84,84,74,74,13,24,5,6,0.5,0.5
2026-03-29T2000,1354A,113.2764,23.1544,广州市,麓湖,,27,20,29,12,17,84,84,69,69,11,19,3,4,0.4,0.4
2026-03-29T2000,2846A,113.3209,23.1323,广州市,体育西,,27,27,31,15,18,82,82,66,66,18,27,4,5,0.6,0.6
2026-03-29T2000,3298A,113.5718,23.5493,广州市,从化街口,,27,12,39,7,25,86,86,76,76,11,18,6,6,0.6,0.7
2026-03-29T2000,3299A,113.3463,23.369,广州市,白云竹料,,23,19,41,12,26,72,72,65,65,18,26,3,3,0.6,0.7
2026-03-29T2000,3300A,113.2981,23.2365,广州市,白云嘉禾,,26,17,36,10,22,83,83,71,71,19,30,8,8,/,/
2026-03-29T2000,3301A,113.4256,23.1716,广州市,黄埔科学城,,27,16,36,10,23,84,84,71,71,19,37,4,7,0.5,0.5
2026-03-29T2000,3302A,113.3942,23.0485,广州市,番禺大学城,,27,12,27,9,17,86,86,76,76,20,25,2,3,0.7,0.6
2026-03-29T2000,3303A,113.4923,22.8169,广州市,南沙黄阁,,49,49,34,12,16,61,61,77,76,24,24,6,6,/,/
2026-03-29T2000,3304A,113.534,22.7893,广州市,南沙街,,41,41,33,17,19,63,63,73,73,17,19,7,7,0.5,0.5
2026-03-29T2000,3443A,113.2905,23.5541,广州市,花都梯面,,24,15,40,8,24,75,75,56,56,15,25,8,8,/,/
2026-03-29T2000,3445A,113.786,23.7479,广州市,从化良口,,26,12,33,7,23,81,81,73,73,13,16,4,4,/,/
2026-03-29T2000,3446A,113.805,23.2614,广州市,增城荔城,,22,8,36,3,22,68,68,88,80,15,17,4,5,0.5,0.4
2026-03-29T2000,2506A,109.604387,23.066791,贵港市,江南子站,,28,27,71,19,42,66,66,64,64,17,23,7,9,0.8,1
2026-03-29T2000,2508A,109.5669,23.1065,贵港市,荷城子站,,30,27,60,21,43,62,62,59,59,19,23,8,8,0.8,0.9
2026-03-29T2000,3405A,109.5886,23.1172,贵港市,新世纪学校,,29,27,64,20,42,63,63,63,63,21,24,/,/,0.7,0.8
2026-03-29T2000,4260A,109.5933,23.095,贵港市,中山路155-3号,,32,32,77,20,41,68,68,68,68,16,19,/,/,0.8,0.9
2026-03-29T2000,1439A,106.6863,26.6035,贵阳市,马鞍山,,26,22,24,18,16,80,80,82,82,9,9,6,5,/,/
2026-03-29T2000,1441A,106.6241,26.6266,贵阳市,鉴湖路,,41,41,35,18,17,77,77,81,81,17,14,9,5,0.5,0.4
2026-03-29T2000,1442A,106.7468,26.6344,贵阳市,燕子冲,,39,39,38,12,16,84,84,85,85,12,11,7,7,0.6,0.7
2026-03-29T2000,1443A,106.6556,26.4362,贵阳市,碧云窝,,31,31,31,10,18,81,81,90,90,13,12,12,9,/,/
2026-03-29T2000,1445A,106.6963,26.6063,贵阳市,红边门,NA,NA,39,31,16,17,79,79,84,84,NA,14,10,9,/,/
2026-03-29T2000,1446A,106.7162383,26.56964667,贵阳市,新华路,,46,46,39,18,18,74,74,82,82,22,15,11,9,0.9,0.8
2026-03-29T2000,1447A,106.6742,26.542,贵阳市,太慈桥,,31,31,29,9,17,83,83,86,86,11,11,4,3,/,/
2026-03-29T2000,4230A,106.688212,26.56952,贵阳市,花果园大街66号,,26,22,17,14,18,82,82,83,83,13,12,3,3,/,/
2026-03-29T2000,4231A,106.687268,26.516892,贵阳市,漓江路57号,,26,19,24,8,15,83,83,88,88,13,13,9,8,0.7,0.8
2026-03-29T2000,1864A,110.3091,25.2705,桂林市,龙隐路小学,细颗粒物(PM2.5),52,37,28,36,17,30,30,49,42,22,15,12,5,0.9,0.8
2026-03-29T2000,1865A,110.2849361,25.22909545,桂林市,八中,,26,26,28,18,10,19,19,38,32,32,20,5,5,1.1,1
2026-03-29T2000,3531A,110.296,25.1254,桂林市,旅游学院,,32,32,36,13,22,36,36,44,42,17,17,5,6,0.8,0.8
2026-03-29T2000,4222A,110.1835,25.2444,桂林市,环湖路276号,细颗粒物(PM2.5),52,41,26,36,17,30,30,49,35,22,15,21,10,0.9,0.9
2026-03-29T2000,4301A,110.2803,25.2773,桂林市,信义路13号,,48,NA,26,33,17,13,13,46,34,35,18,7,6,1.2,1
2026-03-29T2000,2674A,100.2262,34.4854,果洛藏族自治州,玛沁县大武镇,,30,27,30,11,11,94,94,99,99,1,3,16,14,0.2,0.3
2026-03-29T2000,1130A,126.5557,45.8109,哈尔滨市,松北商大,细颗粒物(PM2.5),92,69,235,56,179,58,58,110,90,26,38,10,16,0.3,0.8
2026-03-29T2000,1132A,126.6162,45.719,哈尔滨市,南岗学府路,细颗粒物(PM2.5),84,67,306,52,165,61,61,104,93,24,49,10,18,0.3,0.7
2026-03-29T2000,1133A,126.6894,45.7733,哈尔滨市,太平宏伟公园,细颗粒物(PM2.5),80,52,301,50,191,72,72,106,92,17,52,10,18,0.3,1
2026-03-29T2000,1134A,126.6361,45.7672,哈尔滨市,道外承德广场,颗粒物(PM10),73,81,362,39,180,70,70,104,90,19,43,8,15,0.4,1
2026-03-29T2000,1136A,126.644,45.7261,哈尔滨市,动力和平路,细颗粒物(PM2.5),78,53,308,49,188,63,63,104,89,20,42,15,23,0.8,1.3
2026-03-29T2000,1137A,126.5933,45.7479,哈尔滨市,道里建国路,细颗粒物(PM2.5),72,NA,275,46,176,58,58,100,85,32,52,3,14,0.2,1.6
2026-03-29T2000,1138A,126.6127,45.6119,哈尔滨市,平房东轻厂,颗粒物(PM10),93,109,248,43,210,42,42,73,70,100,91,6,11,0.6,1.3
2026-03-29T2000,1139A,126.5875,45.9827,哈尔滨市,呼兰师专,细颗粒物(PM2.5),106,73,275,66,176,58,58,92,81,24,40,10,16,0,0.5
2026-03-29T2000,1140A,126.6299,45.6799,哈尔滨市,省农科院,细颗粒物(PM2.5),100,91,407,60,223,50,50,88,79,26,58,9,16,0.6,1.3
2026-03-29T2000,4282A,126.6769,45.7379,哈尔滨市,华山路1号,颗粒物(PM10),62,66,314,33,183,65,65,100,87,23,46,15,21,0.7,1.4
2026-03-29T2000,4283A,126.9717,45.5356,哈尔滨市,解放大街52号,颗粒物(PM10),122,176,320,43,158,74,74,118,94,17,34,15,20,0.2,0.7
2026-03-29T2000,2688A,93.5124,42.8176,哈密市,地区监测站,,36,36,49,19,19,109,109,111,111,8,19,6,6,0.1,0.3
2026-03-29T2000,2689A,93.5014,42.8312,哈密市,哈密师范学校,,36,NA,40,21,19,115,115,120,120,10,30,8,8,0.4,0.7
2026-03-29T2000,2671A,100.9016,36.9464,海北藏族自治州,海晏县西海镇,细颗粒物(PM2.5),68,69,36,44,23,108,108,118,118,3,4,10,10,0.5,0.5
2026-03-29T2000,3867A,102.074,36.5056,海东市,平安区公安局北苑,颗粒物(PM10),90,106,59,36,29,104,104,119,119,13,12,16,14,0.6,0.7
2026-03-29T2000,4163A,102.0984,36.5119,海东市,滨河路,颗粒物(PM10),55,57,53,31,28,79,79,93,93,24,36,11,15,0.7,1.3
2026-03-29T2000,1410A,110.3189,20.0596,海口市,海南大学,,49,49,26,30,18,88,88,79,79,9,5,5,5,0.4,0.3
2026-03-29T2000,1411A,110.2827,20.0051,海口市,秀英海南医院,细颗粒物(PM2.5),52,NA,23,36,18,66,66,71,71,21,12,8,8,0.3,0.3
2026-03-29T2000,1412A,110.3391,19.9979,海口市,海南师范大学,,42,39,29,29,17,75,75,70,70,17,5,7,6,0.4,0.3
2026-03-29T2000,1413A,110.3303,20.0359,海口市,龙华路环保局宿舍,,35,32,25,24,18,85,85,80,80,11,6,/,/,0.5,0.4
2026-03-29T2000,3539A,110.5111,19.9737,海口市,桂林洋子站,,26,24,24,18,17,36,36,54,50,10,7,/,/,/,/
2026-03-29T2000,4134A,110.1952,20.0451,海口市,长滨二路9号,细颗粒物(PM2.5),66,44,27,43,19,80,80,80,80,16,7,/,/,/,/
2026-03-29T2000,2673A,100.6158,36.2985,海南藏族自治州,共和县恰卜恰镇,颗粒物(PM10),58,61,48,27,21,117,117,121,121,7,13,12,13,0.3,0.3
2026-03-29T2000,2676A,97.373,37.376,海西蒙古族藏族自治州,德令哈市,,40,32,28,11,12,127,127,130,130,12,4,14,13,0.4,0.4
2026-03-29T2000,1049A,114.492,36.5712,邯郸市,矿院,颗粒物(PM10),57,59,36,28,15,100,100,125,125,23,16,5,6,0.5,0.6
2026-03-29T2000,1050A,114.4839,36.6136,邯郸市,丛台公园,,47,47,39,29,19,125,125,139,139,19,16,6,8,0.5,0.6
2026-03-29T2000,3458A,114.7893,36.5592,邯郸市,香泉濮院小区,颗粒物(PM10),65,70,47,26,20,115,115,136,136,24,13,2,3,0.6,0.4
2026-03-29T2000,3580A,114.1998,36.4439,邯郸市,峰峰矿区临水派出所,颗粒物(PM10),54,55,38,26,17,131,131,141,141,15,10,3,4,0.5,0.5
2026-03-29T2000,4068A,114.5209,36.7697,邯郸市,建安街268号,颗粒物(PM10),69,76,42,39,21,31,31,125,114,80,18,2,5,0.4,0.6
2026-03-29T2000,4069A,114.5488,36.6177,邯郸市,丛台东路558号,细颗粒物(PM2.5),56,54,42,38,22,110,110,136,135,21,17,2,4,0.5,0.6
2026-03-29T2000,2635A,107.0155,33.0707,汉中市,市监测站,,41,41,56,20,34,76,76,66,66,12,29,7,8,0.5,0.7
2026-03-29T2000,2636A,107.0083,33.114,汉中市,鑫源开发区,,34,34,53,17,34,86,86,57,57,8,30,4,6,0.5,0.7
2026-03-29T2000,2637A,107.0072,33.0323,汉中市,南郑大河坎水厂,,46,46,55,22,34,60,60,54,54,15,25,4,4,0.5,0.5
2026-03-29T2000,1223A,120.2073,30.2111,杭州市,滨江,颗粒物(PM10),66,72,43,40,22,107,107,139,139,32,25,9,8,0.5,0.4
2026-03-29T2000,1224A,120.0625,30.2737,杭州市,西溪,,47,47,44,27,24,110,110,148,148,21,24,9,8,0.8,0.7
2026-03-29T2000,1226A,120.3417,30.315,杭州市,下沙,颗粒物(PM10),73,82,52,40,28,118,118,129,129,18,26,8,9,0.9,0.8
2026-03-29T2000,1227A,120.1252,30.2465,杭州市,卧龙桥,颗粒物(PM10),55,56,39,28,22,99,99,146,146,29,25,8,7,0.3,0.3
2026-03-29T2000,1228A,120.1902,30.2691,杭州市,浙江农大,颗粒物(PM10),53,54,38,34,24,100,100,140,140,33,33,7,7,0.4,0.4
2026-03-29T2000,1230A,120.1195,30.3121,杭州市,和睦小学,颗粒物(PM10),58,61,52,32,28,108,108,147,147,23,24,7,7,0.8,0.8
2026-03-29T2000,1231A,120.3076,30.4146,杭州市,临平镇,细颗粒物(PM2.5),68,71,63,44,36,120,120,152,152,23,33,6,8,0.9,0.8
2026-03-29T2000,1232A,120.2753,30.1839,杭州市,城厢镇,细颗粒物(PM2.5),68,72,46,44,26,72,72,118,117,54,35,9,6,0.7,0.6
2026-03-29T2000,1233A,120.0883,30.1808,杭州市,云栖,颗粒物(PM10),55,56,36,31,21,99,99,141,141,33,33,7,6,0.8,0.8
2026-03-29T2000,3557A,119.9463,30.0496,杭州市,镇二中,颗粒物(PM10),65,71,27,35,21,116,116,127,127,23,27,8,5,0.8,0.9
2026-03-29T2000,3558A,119.7184,30.2367,杭州市,市府大楼,细颗粒物(PM2.5),62,64,34,41,23,148,148,150,150,24,25,8,7,0.4,0.3
2026-03-29T2000,3656A,120.1554,30.2863,杭州市,消防大队,颗粒物(PM10),51,51,46,29,29,96,96,128,128,20,26,8,8,0.8,0.7
2026-03-29T2000,1270A,117.1957,31.7845,合肥市,明珠广场,颗粒物(PM10),63,68,68,36,36,143,143,166,165,24,37,6,7,0.6,0.6
2026-03-29T2000,1271A,117.307,31.8765,合肥市,三里街,颗粒物(PM10),63,68,74,34,40,119,119,154,151,36,52,7,8,0.6,0.6
2026-03-29T2000,1272A,117.2587,31.8703,合肥市,琥珀山庄,颗粒物(PM10),70,78,65,32,34,140,140,159,157,34,39,7,7,0.6,0.8
2026-03-29T2000,1275A,117.2593,31.9376,合肥市,庐阳区,颗粒物(PM10),67,73,76,32,39,113,113,153,148,35,51,6,6,0.8,0.8
2026-03-29T2000,1276A,117.345251,31.861615,合肥市,瑶海区,颗粒物(PM10),75,85,76,39,37,119,119,164,158,45,49,8,8,0.8,0.7
2026-03-29T2000,1277A,117.3033,31.7967,合肥市,包河区,颗粒物(PM10),58,61,70,28,32,139,139,166,164,34,76,12,12,0.6,0.7
2026-03-29T2000,1278A,117.278,31.7392,合肥市,滨湖新区,颗粒物(PM10),51,51,61,25,31,144,144,166,165,10,38,6,6,0.5,0.5
2026-03-29T2000,1279A,117.1324,31.8395,合肥市,高新区,颗粒物(PM10),67,73,64,34,31,146,146,154,153,22,31,6,6,0.8,0.7
2026-03-29T2000,3464A,117.3802,31.9148,合肥市,高教基地,颗粒物(PM10),65,70,66,33,33,103,103,161,152,32,46,9,9,0.6,0.5
2026-03-29T2000,4098A,117.2518,31.8404,合肥市,中国科学技术大学,颗粒物(PM10),63,68,66,39,35,162,162,174,173,19,37,7,8,0.6,0.6
2026-03-29T2000,3614A,79.9241,37.0878,和田地区,地区环保局,颗粒物(PM10),129,195,279,47,62,111,111,112,112,2,6,2,2,0.3,0.3
2026-03-29T2000,3615A,79.9132,37.1137,和田地区,市环保局,颗粒物(PM10),126,187,258,47,61,92,92,101,101,6,8,3,2,0.4,0.4
2026-03-29T2000,2517A,108.0496,24.6957,河池市,市环保站,,36,36,42,16,22,43,43,56,56,13,7,7,6,0.6,0.6
2026-03-29T2000,4302A,108.0901,24.6945,河池市,上任中路54号,,30,30,43,20,25,44,44,51,51,21,12,7,6,0.7,0.7
2026-03-29T2000,1697A,114.6962,23.7538,河源市,东埔,,25,9,27,8,21,80,80,80,80,14,11,5,6,0.8,0.8
2026-03-29T2000,1698A,114.6895,23.7232,河源市,老城,,25,17,30,10,22,80,80,80,80,14,12,6,6,0.8,0.8
2026-03-29T2000,3374A,115.5562,35.089,菏泽市,定陶老年大学,颗粒物(PM10),72,80,69,24,36,106,106,137,134,21,16,5,5,0.5,0.5
2026-03-29T2000,4114A,115.4239,35.2593,菏泽市,黄河路600号,颗粒物(PM10),80,91,65,26,24,104,104,130,128,20,15,3,3,0.4,0.4
2026-03-29T2000,4115A,115.5025,35.2727,菏泽市,菏泽市人社局,颗粒物(PM10),68,75,50,26,24,94,94,131,127,26,16,5,6,0.3,0.3
2026-03-29T2000,4184A,115.479691,35.244011,菏泽市,永昌路1号,颗粒物(PM10),63,68,56,19,24,123,123,146,144,20,17,2,2,0.2,0.3
2026-03-29T2000,4193A,115.471542,35.280012,菏泽市,长城路999号,颗粒物(PM10),66,72,51,25,21,114,114,138,137,17,14,6,5,0.2,0.2
2026-03-29T2000,2514A,111.5264,24.4178,贺州市,环保小区,NA,NA,31,33,30,22,26,26,34,28,32,21,6,5,NA,0.2
2026-03-29T2000,2515A,111.561,24.4074,贺州市,政协大楼,细颗粒物(PM2.5),54,NA,34,37,27,19,19,32,14,35,26,6,6,0.8,0.9
2026-03-29T2000,3534A,111.4744,24.455,贺州市,西湾,,36,36,37,23,20,34,34,29,24,27,18,6,7,0.8,0.9
2026-03-29T2000,2385A,114.17,35.9019,鹤壁市,市监测站,细颗粒物(PM2.5),60,51,35,40,17,101,101,119,118,19,13,8,5,0.5,0.4
2026-03-29T2000,2386A,114.2953,35.7512,鹤壁市,市交警支队,颗粒物(PM10),59,62,41,34,17,84,84,115,113,33,15,8,5,0.4,0.4
2026-03-29T2000,2387A,114.2877,35.7302,鹤壁市,迎宾馆,颗粒物(PM10),66,72,42,32,19,81,81,116,114,31,16,11,9,0.5,0.5
2026-03-29T2000,3474A,114.2616,35.6824,鹤壁市,大新区,颗粒物(PM10),60,63,40,39,25,87,87,114,113,19,16,8,6,0.7,0.6
2026-03-29T2000,3596A,114.1573,35.9607,鹤壁市,南山宾馆,颗粒物(PM10),65,70,53,25,21,99,99,121,120,18,7,10,10,0.4,0.3
2026-03-29T2000,2244A,130.2537,47.3416,鹤岗市,哈啤分公司,,39,29,29,27,19,48,48,68,54,15,11,8,7,0.4,0.4
2026-03-29T2000,2245A,130.2683,47.3087,鹤岗市,斯达机电,,43,37,39,30,21,54,54,64,58,11,12,10,10,0.4,0.3
2026-03-29T2000,2246A,130.3114,47.3388,鹤岗市,东山纸板厂,,25,25,86,16,21,57,57,64,62,13,18,9,10,0.6,0.6
2026-03-29T2000,2263A,127.4832,50.2524,黑河市,交通局,,23,23,26,14,13,62,62,58,58,11,13,5,6,0.4,0.4
2026-03-29T2000,2264A,127.5146,50.2339,黑河市,环保局,,25,NA,16,17,9,49,49,58,58,26,13,7,8,0.5,0.4
2026-03-29T2000,1074A,115.6839,37.754,衡水市,电机北厂,颗粒物(PM10),74,83,64,46,40,127,127,138,138,21,18,3,4,0.2,0.3
2026-03-29T2000,1075A,115.6303,37.7318,衡水市,市监测站,颗粒物(PM10),65,70,65,41,41,115,115,135,135,21,15,7,6,0.5,0.4
2026-03-29T2000,3188A,115.6684,37.7216,衡水市,市城管局,细颗粒物(PM2.5),80,70,59,50,39,103,103,133,133,32,15,9,9,0.6,0.5
2026-03-29T2000,3459A,115.599,37.5491,衡水市,地表水厂,颗粒物(PM10),82,94,63,39,38,88,88,136,133,44,18,4,4,0.4,0.4
2026-03-29T2000,2457A,112.6209,26.9268,衡阳市,衡阳化工总厂,,32,32,46,12,38,24,24,38,38,15,17,4,4,1.3,1.2
2026-03-29T2000,2458A,112.621,26.8957,衡阳市,珠晖区环保局,,34,34,49,10,40,24,24,33,33,13,21,6,7,1.2,1.1
2026-03-29T2000,2459A,112.628,26.8654,衡阳市,市委党校,,29,29,46,8,36,30,30,37,37,9,16,6,7,1.1,1.3
2026-03-29T2000,2460A,112.6007,26.8977,衡阳市,市监测站,,32,32,42,22,36,25,25,35,35,20,24,7,7,1.3,1.1
2026-03-29T2000,2461A,112.5658,26.9013,衡阳市,真空机电公司,NA,NA,39,44,12,38,NA,NA,40,38,NA,21,NA,6,NA,1.2
2026-03-29T2000,3399A,112.6703,26.8817,衡阳市,师范学院,,23,23,48,16,30,31,31,40,40,9,16,5,5,1.2,1.2
2026-03-29T2000,3038A,103.3757,23.3679,红河哈尼族彝族自治州,州图书馆,细颗粒物(PM2.5),76,50,66,48,61,123,123,130,130,9,9,4,6,0.5,0.7
2026-03-29T2000,4154A,103.401,23.3561,红河哈尼族彝族自治州,蒙自市朝阳路,细颗粒物(PM2.5),74,52,64,47,56,124,124,134,134,10,10,10,11,0.7,0.7
2026-03-29T2000,1090A,111.6506,40.7517,呼和浩特市,呼市一监,,28,NA,29,19,17,81,81,87,87,7,14,9,9,0.3,0.4
2026-03-29T2000,1094A,111.7516,40.8369,呼和浩特市,如意水处理厂,,24,11,28,7,15,75,75,87,86,14,16,8,8,0.2,0.3
2026-03-29T2000,1095A,111.727798,40.806187,呼和浩特市,二十九中,,23,16,36,14,16,72,72,82,81,11,12,7,8,0.4,0.5
2026-03-29T2000,1097A,111.717,40.7617,呼和浩特市,化肥厂生活区,,25,23,33,14,22,77,77,86,85,11,19,5,6,0.4,0.4
2026-03-29T2000,3699A,111.6519,40.8389,呼和浩特市,海东办,,25,17,30,3,16,78,78,85,84,8,14,4,6,0.3,0.4
2026-03-29T2000,4275A,111.591512,40.827312,呼和浩特市,成吉思汗西街8号,,22,22,35,6,17,62,62,80,79,23,28,2,2,0.3,0.4
2026-03-29T2000,4276A,111.6597,40.8077,呼和浩特市,公园东路75号,,24,19,35,3,17,75,75,79,79,11,15,8,10,0.4,0.5
2026-03-29T2000,4277A,111.5427,40.7846,呼和浩特市,金海路35号,,24,23,39,7,20,75,75,82,82,13,18,6,8,0.3,0.4
2026-03-29T2000,3061A,119.7511,49.1576,呼伦贝尔市,国华电力东,,30,30,22,11,11,65,65,84,81,14,9,4,4,0.3,0.2
2026-03-29T2000,4279A,119.7569,49.2222,呼伦贝尔市,伊敏大街东7号,,24,24,23,11,11,67,67,84,81,14,11,5,5,0.5,0.5
2026-03-29T2000,1250A,120.075,30.867,湖州市,城西水厂,细颗粒物(PM2.5),84,82,54,52,33,155,155,168,168,21,27,7,7,0.8,0.7
2026-03-29T2000,2873A,120.083,30.8929,湖州市,仁皇山新区,细颗粒物(PM2.5),78,82,53,49,32,152,152,166,166,28,32,6,7,0.8,0.7
2026-03-29T2000,2907A,120.1846,30.8592,湖州市,吴兴区站,细颗粒物(PM2.5),92,78,54,56,33,141,141,166,166,21,20,8,7,0.8,0.7
2026-03-29T2000,3562A,120.4146,30.8538,湖州市,南浔区站,细颗粒物(PM2.5),76,84,59,48,38,125,125,160,160,20,19,8,6,0.8,0.6
2026-03-29T2000,1607A,120.904878,40.721091,葫芦岛市,龙港区,细颗粒物(PM2.5),103,NA,58,63,40,53,53,107,86,26,24,8,14,0.6,0.6
2026-03-29T2000,1608A,120.8382,40.7521,葫芦岛市,化工街,,43,NA,67,30,43,62,62,87,79,22,34,12,19,0.5,0.5
2026-03-29T2000,1609A,120.8339,40.7078,葫芦岛市,新区,,42,NA,50,29,42,63,63,94,83,20,25,8,13,0.5,0.4
2026-03-29T2000,1610A,120.8697,40.7679,葫芦岛市,东城区,细颗粒物(PM2.5),72,NA,46,46,42,57,57,92,80,24,33,9,14,0.7,0.6
2026-03-29T2000,2483A,109.9297,27.5383,怀化市,河西地税局,,10,10,32,7,23,27,27,22,22,9,16,4,4,/,/
2026-03-29T2000,2484A,109.9783,27.5342,怀化市,市四医院,,19,19,40,8,26,26,26,29,29,10,17,6,7,0.4,0.5
2026-03-29T2000,2485A,109.9971,27.5579,怀化市,监测楼,,17,17,38,8,26,27,27,28,28,10,18,4,6,0.3,0.4
2026-03-29T2000,1210A,119.0566,33.5991,淮安市,钵池山,细颗粒物(PM2.5),98,100,68,59,41,137,137,168,168,46,32,10,10,0.6,0.5
2026-03-29T2000,1211A,119.0083,33.578,淮安市,北京南路,细颗粒物(PM2.5),105,97,71,65,46,138,138,158,158,27,24,10,11,0.6,0.6
2026-03-29T2000,1212A,118.9938,33.6083,淮安市,市监测站,细颗粒物(PM2.5),105,90,65,65,47,165,165,184,184,28,26,8,9,0.7,0.7
2026-03-29T2000,1213A,119.135,33.5038,淮安市,楚州区监测站,细颗粒物(PM2.5),107,95,72,67,48,133,133,165,165,32,26,8,8,0.5,0.5
2026-03-29T2000,3426A,118.8757,33.2897,淮安市,新华书店,颗粒物(PM10),105,133,82,62,43,108,108,175,169,44,26,8,9,0.5,0.5
2026-03-29T2000,4092A,119.119691,33.550006,淮安市,枚皋中路89号,细颗粒物(PM2.5),110,102,75,70,46,148,148,169,169,30,24,12,13,0.9,0.7
2026-03-29T2000,4206A,119.028838,33.631911,淮安市,承德北路606号,细颗粒物(PM2.5),111,134,88,72,46,129,129,160,160,38,26,11,11,0.6,0.4
2026-03-29T2000,2282A,116.8005,33.9749,淮北市,监测站,颗粒物(PM10),73,81,88,30,48,95,95,168,157,49,22,7,9,0.6,0.6
2026-03-29T2000,2283A,116.8094,33.9008,淮北市,烈山区政府,颗粒物(PM10),68,74,89,28,50,137,137,156,155,14,24,7,9,0.4,0.5
2026-03-29T2000,4017A,116.7926,33.9534,淮北市,市博物馆,颗粒物(PM10),63,68,88,31,52,127,127,161,157,21,20,7,16,0.5,0.6
2026-03-29T2000,4100A,116.8322,33.9884,淮北市,杜集区第一实验学校,颗粒物(PM10),80,92,94,28,44,125,125,153,150,19,20,6,10,0.4,0.5
2026-03-29T2000,2277A,116.8304,32.7726,淮南市,潘集区政府,颗粒物(PM10),88,102,80,50,41,100,100,145,139,26,28,10,10,0.6,0.5
2026-03-29T2000,2279A,116.8569,32.5949,淮南市,谢家集区政府,颗粒物(PM10),72,80,61,38,36,116,116,147,144,32,25,10,10,0.5,0.5
2026-03-29T2000,2280A,116.8279,32.6333,淮南市,八公山区政府,颗粒物(PM10),70,78,68,40,38,127,127,149,148,13,14,12,12,0.5,0.5
2026-03-29T2000,2894A,117.0561,32.6536,淮南市,经济技术开发区消防队,颗粒物(PM10),71,79,67,33,35,116,116,150,146,30,28,11,10,0.4,0.5
2026-03-29T2000,3329A,117.011,32.5891,淮南市,山南新区,颗粒物(PM10),85,99,79,30,36,141,141,161,160,25,22,9,9,0.5,0.5
2026-03-29T2000,4209A,117.003137,32.644456,淮南市,国庆中路369号,颗粒物(PM10),78,88,65,45,38,106,106,144,140,31,20,13,13,0.6,0.5
2026-03-29T2000,2446A,114.9021,30.474,黄冈市,职工中心,颗粒物(PM10),53,53,68,30,50,108,108,147,142,16,23,7,9,0.8,0.8
2026-03-29T2000,2929A,114.8858,30.4519,黄冈市,红卫路,颗粒物(PM10),53,54,65,22,49,106,106,154,147,21,23,7,8,0.4,0.4
2026-03-29T2000,3398A,114.9134,30.4446,黄冈市,市林业局,颗粒物(PM10),58,60,81,31,51,97,97,141,135,22,28,4,4,0.7,0.7
2026-03-29T2000,2672A,102.02,35.5101,黄南藏族自治州,同仁县隆务镇,颗粒物(PM10),68,75,47,40,25,95,95,109,109,7,5,10,10,0.5,0.3
2026-03-29T2000,2295A,118.2905,29.6965,黄山市,延安路89号,,30,30,63,18,16,66,66,110,105,11,13,5,5,0.5,0.5
2026-03-29T2000,2297A,118.1369,30.2755,黄山市,黄山区政府5号楼,细颗粒物(PM2.5),54,43,31,37,17,66,66,114,108,12,7,3,3,0.7,0.5
2026-03-29T2000,4210A,118.335445,29.720283,黄山市,滨江东路7-2号,,34,34,36,17,14,69,69,114,108,14,10,/,/,/,/
2026-03-29T2000,2423A,115.0547,30.2332,黄石市,沈家营,颗粒物(PM10),63,67,73,24,39,102,102,115,114,9,31,4,9,0.8,0.9
2026-03-29T2000,2426A,114.899,30.211,黄石市,铁山,颗粒物(PM10),52,52,64,29,51,100,100,127,127,10,18,10,13,0.6,1
2026-03-29T2000,2427A,115.0259,30.2108,黄石市,团城山,颗粒物(PM10),56,58,65,27,43,102,102,124,122,12,19,5,5,0.7,0.7
2026-03-29T2000,3149A,115.0174,30.1591,黄石市,笔架山北路,颗粒物(PM10),72,80,84,34,42,101,101,132,129,13,16,10,11,0.7,0.8
2026-03-29T2000,4185A,115.078022,30.21118,黄石市,磁湖东路29号,颗粒物(PM10),63,67,76,25,42,120,120,128,128,11,30,4,6,0.8,0.9
2026-03-29T2000,1392A,114.4181,23.0528,惠州市,河南岸金山湖子站,,34,34,32,20,22,74,74,91,88,10,8,6,6,0.6,0.6
2026-03-29T2000,1393A,114.4055,23.0824,惠州市,下埔横江三路子站,,40,40,37,20,21,68,68,90,87,12,9,4,5,0.6,0.6
2026-03-29T2000,1395A,114.4645,22.7832,惠州市,惠阳区承修路船湖子站,,40,40,31,19,18,79,79,92,90,10,8,5,6,0.3,0.2
2026-03-29T2000,1396A,114.5316,22.7423,惠州市,大亚湾管委会子站,,46,46,38,23,20,89,89,92,92,8,9,3,3,0.5,0.5
2026-03-29T2000,3314A,114.4334,22.8134,惠州市,惠阳秋长,,36,36,24,24,18,73,73,92,89,14,8,/,/,/,/
2026-03-29T2000,3452A,114.6521,22.7755,惠州市,大亚湾霞涌,,34,34,24,18,17,90,90,100,100,7,8,/,/,/,/
2026-03-29T2000,4300A,114.4089,23.1147,惠州市,文华一路1号,,32,32,31,21,21,64,64,92,88,16,9,/,/,/,/
2026-03-29T2000,2240A,130.9618,45.2926,鸡西市,环保局,颗粒物(PM10),100,119,176,50,133,108,108,116,115,8,30,8,11,0.1,0.6
2026-03-29T2000,2243A,130.9294,45.2959,鸡西市,第一中学,颗粒物(PM10),111,148,175,54,146,102,102,109,109,7,26,7,10,0.3,0.7
2026-03-29T2000,3707A,131.0069,45.2988,鸡西市,欧美日汽修厂,颗粒物(PM10),107,136,203,49,132,105,105,110,109,11,39,9,13,0.8,1.3
2026-03-29T2000,2367A,114.9753,27.0803,吉安市,红声器材厂,细颗粒物(PM2.5),90,65,55,55,43,26,26,56,42,28,23,5,6,1.3,1.2
2026-03-29T2000,2369A,114.9903,27.1313,吉安市,市环境监测站,细颗粒物(PM2.5),84,70,54,52,45,18,18,60,42,33,22,7,7,/,/
2026-03-29T2000,2370A,115.009527,27.096792,吉安市,青原区法院,细颗粒物(PM2.5),82,67,61,51,46,29,29,55,44,32,23,8,7,1.3,1.1
2026-03-29T2000,1772A,126.54,43.8622,吉林市,哈达湾,颗粒物(PM10),61,65,138,36,107,55,55,102,74,12,25,7,10,0.6,0.9
2026-03-29T2000,1773A,126.5843,43.8358,吉林市,东局子,细颗粒物(PM2.5),54,51,118,37,98,53,53,109,74,14,25,6,6,1.1,1.3
2026-03-29T2000,1774A,126.5051,43.8243,吉林市,电力学院,,50,39,167,35,137,63,63,108,82,11,35,7,9,0.7,1.3
2026-03-29T2000,1775A,126.6133,43.8971,吉林市,江北,颗粒物(PM10),62,66,175,40,141,57,57,115,82,15,24,10,10,0.9,1.2
2026-03-29T2000,1776A,126.5549,43.8304,吉林市,江南公园,颗粒物(PM10),59,62,130,38,98,63,63,108,80,10,20,8,9,0.7,0.9
2026-03-29T2000,2868A,126.4737,43.953,吉林市,九站,颗粒物(PM10),51,51,208,25,158,59,59,104,74,11,42,9,21,0.4,1
2026-03-29T2000,1299A,116.9866,36.6118,济南市,科干所,,48,48,68,17,35,119,119,138,136,15,17,8,8,0.8,0.7
2026-03-29T2000,1300A,116.9379,36.6652,济南市,农科所,,46,46,67,16,36,101,101,136,131,18,20,6,7,0.5,0.5
2026-03-29T2000,1301A,117.1265,36.6736,济南市,开发区,颗粒物(PM10),51,51,65,20,34,120,120,146,142,20,17,5,7,0.6,0.7
2026-03-29T2000,1303A,117.0616,36.6865,济南市,省种子仓库,颗粒物(PM10),58,61,75,22,35,117,117,144,140,20,16,5,6,0.6,0.6
2026-03-29T2000,1304A,116.9495185,36.644937,济南市,机床二厂,颗粒物(PM10),53,54,69,19,37,118,118,138,136,18,18,6,7,0.6,0.6
2026-03-29T2000,1305A,117.0496,36.6629,济南市,市监测站,颗粒物(PM10),57,59,73,21,34,109,109,137,134,26,18,5,6,0.5,0.6
2026-03-29T2000,1306A,116.7674,36.5458,济南市,长清党校,颗粒物(PM10),58,61,74,22,37,117,117,136,134,12,16,7,7,0.6,0.6
2026-03-29T2000,1961A,117.5323,36.6865,济南市,东山小学,颗粒物(PM10),63,68,79,27,37,128,128,153,152,21,24,5,5,0.5,0.6
2026-03-29T2000,3059A,117.7181,36.205,济南市,泰兴公司,颗粒物(PM10),72,80,91,26,43,142,142,160,156,20,43,10,17,0.4,0.5
2026-03-29T2000,3064A,117.6861,36.2172,济南市,莱芜战役纪念馆,颗粒物(PM10),62,66,87,21,39,144,144,158,157,17,26,4,13,0.6,0.7
2026-03-29T2000,3494A,117.1673,36.9782,济南市,济阳区政府,颗粒物(PM10),60,63,77,26,39,90,90,124,121,34,20,7,9,0.4,0.5
2026-03-29T2000,3495A,117.1168,36.6299,济南市,锦屏中学,颗粒物(PM10),55,56,61,22,37,98,98,140,133,22,19,5,7,0.5,0.4
2026-03-29T2000,4108A,117.7107,36.2385,济南市,山财大街5号,颗粒物(PM10),60,63,83,26,43,138,138,159,156,27,40,9,15,0.6,0.7
2026-03-29T2000,4109A,116.9744,36.6889,济南市,无影山路12号,颗粒物(PM10),53,53,61,23,38,99,99,130,125,26,18,6,6,0.7,0.7
2026-03-29T2000,1653A,116.6229,35.4288,济宁市,火炬城,,48,48,60,19,32,124,124,139,138,18,17,5,5,0.5,0.6
2026-03-29T2000,3500A,116.5808,35.3703,济宁市,北湖一中,,40,40,66,16,36,127,127,145,143,13,14,10,11,0.5,0.5
2026-03-29T2000,3501A,116.8251,35.5592,济宁市,服务中心,,50,50,83,23,41,116,116,143,141,17,18,2,4,0.3,0.4
2026-03-29T2000,3678A,116.5907,35.4054,济宁市,市第七中学,,44,37,67,17,32,138,138,151,150,12,17,4,7,0.5,0.6
2026-03-29T2000,4111A,116.6075,35.4566,济宁市,任和路,颗粒物(PM10),64,69,77,20,34,121,121,146,144,21,16,4,6,0.4,0.4
2026-03-29T2000,4112A,116.5648,35.3921,济宁市,文体南路1号,颗粒物(PM10),56,58,76,17,31,126,126,147,145,14,17,2,6,0.4,0.5
2026-03-29T2000,4122A,112.6071,35.1015,济源市,市委党校,NA,NA,86,63,30,23,88,88,114,112,NA,22,7,9,0.3,0.5
2026-03-29T2000,4123A,112.596,35.0702,济源市,沁园中路1号,NA,NA,NA,62,NA,33,86,86,108,107,33,29,4,8,NA,0.9
2026-03-29T2000,2255A,130.2749,46.8028,佳木斯市,佳纺,细颗粒物(PM2.5),104,NA,76,64,48,33,33,46,42,26,27,5,6,0.6,0.5
2026-03-29T2000,2257A,130.3258,46.7975,佳木斯市,环保局,细颗粒物(PM2.5),92,NA,71,56,51,34,34,48,44,32,29,7,6,0.6,0.5
2026-03-29T2000,4285A,130.363,46.806,佳木斯市,顺和街,细颗粒物(PM2.5),96,NA,71,58,54,26,26,43,38,30,26,4,5,0.5,0.5
2026-03-29T2000,4286A,130.3952,46.8268,佳木斯市,长安路196号,细颗粒物(PM2.5),84,53,62,52,45,28,28,48,44,25,22,8,8,0.6,0.5
2026-03-29T2000,1252A,120.7439,30.778,嘉兴市,清河小学,,40,40,71,13,44,115,115,176,169,62,51,15,8,0.3,0.4
2026-03-29T2000,1253A,120.7261,30.7477,嘉兴市,嘉兴学院,,43,43,64,24,35,131,131,178,175,22,27,6,7,0.6,0.6
2026-03-29T2000,2872A,120.7845,30.7524,嘉兴市,南湖区残联,,38,NA,61,26,41,108,108,159,152,18,18,6,6,0.8,0.7
2026-03-29T2000,3407A,120.6915,30.7741,嘉兴市,秀洲住建,,45,29,64,22,38,141,141,182,179,13,18,6,7,0.4,0.4
2026-03-29T2000,1945A,98.291,39.7705,嘉峪关市,气象局,颗粒物(PM10),114,156,90,36,27,115,115,118,118,6,20,12,16,1.0,1.1
2026-03-29T2000,2884A,98.2672,39.7978,嘉峪关市,酒钢宾馆,颗粒物(PM10),115,158,93,32,25,107,107,111,111,15,17,13,17,0.6,0.7
2026-03-29T2000,3248A,98.2644,39.7723,嘉峪关市,雄关区,颗粒物(PM10),109,143,87,37,27,111,111,113,113,8,25,5,8,0.6,0.7
2026-03-29T2000,1383A,113.1063,22.6058,江门市,北街,,26,26,30,17,18,81,81,63,62,10,13,/,/,/,/
2026-03-29T2000,1384A,113.073,22.5835,江门市,西区,,29,16,28,13,18,92,92,66,66,10,13,/,/,/,/
2026-03-29T2000,1385A,113.0218,22.531,江门市,圭峰西,,23,18,31,10,18,71,71,64,62,6,13,/,/,/,/
2026-03-29T2000,1386A,113.0826,22.5947,江门市,东湖,,26,22,28,13,18,82,82,65,65,8,11,7,7,0.4,0.4
2026-03-29T2000,3311A,113.1077,22.5647,江门市,江海富民,,27,NA,29,11,18,84,84,70,69,10,12,/,/,0.4,0.3
2026-03-29T2000,3449A,113.0496,22.4669,江门市,新会银湖,,23,23,30,11,17,51,51,61,57,21,20,8,7,0.2,0.2
2026-03-29T2000,3335A,113.3137,35.2643,焦作市,马村街道办,颗粒物(PM10),82,94,51,42,21,97,97,116,115,20,15,10,8,0.4,0.5
2026-03-29T2000,3336A,113.2464,35.2374,焦作市,焦作技师学院,颗粒物(PM10),71,79,47,36,22,100,100,119,119,19,14,10,8,0.8,0.7
2026-03-29T2000,3477A,113.1656,35.2536,焦作市,中站许衡医院,颗粒物(PM10),69,76,53,26,21,113,113,124,124,18,17,10,9,0.5,0.6
2026-03-29T2000,3981A,113.2456,35.18,焦作市,原李万街道办,颗粒物(PM10),71,79,52,37,21,100,100,116,116,14,11,11,9,0.5,0.5
2026-03-29T2000,4264A,113.234,35.219,焦作市,新安路1731号,颗粒物(PM10),75,85,56,34,23,110,110,128,128,19,17,10,10,0.6,0.6
2026-03-29T2000,4295A,113.2722,35.2121,焦作市,人民路3066号,颗粒物(PM10),68,75,39,39,20,105,105,126,125,16,10,12,8,0.3,0.4
2026-03-29T2000,1708A,116.3701,23.5345,揭阳市,新兴,细颗粒物(PM2.5),68,68,42,44,25,76,76,103,102,29,19,8,9,0.9,0.7
2026-03-29T2000,1709A,116.3261,23.5442,揭阳市,西马,颗粒物(PM10),82,94,47,50,25,77,77,102,101,30,19,7,8,1.0,0.8
2026-03-29T2000,1710A,116.361,23.5627,揭阳市,东兴,细颗粒物(PM2.5),70,58,43,45,26,81,81,105,105,23,18,6,8,/,/
2026-03-29T2000,1711A,116.4151,23.5295,揭阳市,渔湖,细颗粒物(PM2.5),74,52,43,47,27,81,81,123,121,28,16,8,6,/,/
2026-03-29T2000,3320A,116.4028,23.5699,揭阳市,曲溪,细颗粒物(PM2.5),62,61,40,41,23,80,80,112,111,19,16,8,12,0.7,0.6
2026-03-29T2000,1944A,102.1691,38.5166,金昌市,天庆家园,颗粒物(PM10),63,68,63,30,25,114,114,123,123,11,13,141,28,0.8,0.8
2026-03-29T2000,4022A,102.1648,38.5369,金昌市,金川区人防中心,颗粒物(PM10),62,66,61,24,24,118,118,123,123,9,13,8,12,0.3,0.4
2026-03-29T2000,4239A,102.193042,38.531887,金昌市,长春路96号,颗粒物(PM10),53,53,59,23,27,113,113,117,117,8,12,8,11,0.6,0.6
2026-03-29T2000,1262A,119.6478,29.0773,金华市,十五中,颗粒物(PM10),53,54,28,26,12,38,38,88,85,43,16,4,3,1.1,0.7
2026-03-29T2000,1263A,119.6859,29.1032,金华市,监测站,,32,32,21,19,12,57,57,94,94,38,16,3,3,0.8,0.6
2026-03-29T2000,3659A,119.656,29.1132,金华市,气象局,,38,38,24,19,12,45,45,91,88,47,19,3,3,0.7,0.5
2026-03-29T2000,1767A,121.1114,41.0879,锦州市,南山,,22,NA,46,15,32,66,66,76,76,17,32,7,15,0.5,0.6
2026-03-29T2000,1768A,121.060361,40.842794,锦州市,开发区,,23,15,74,13,43,72,72,88,80,13,34,5,10,0.4,0.5
2026-03-29T2000,1769A,121.1836,41.1118,锦州市,百股街道,,33,30,49,23,36,58,58,75,75,20,29,7,13,0.5,0.5
2026-03-29T2000,1770A,121.1176,41.1224,锦州市,天安街道,,22,15,49,15,32,66,66,73,73,14,30,6,12,0.4,0.5
2026-03-29T2000,1771A,121.1303,41.1385,锦州市,北湖公园,NA,NA,NA,46,62,37,61,61,76,76,11,29,4,9,0.5,0.5
2026-03-29T2000,2160A,112.8496,35.5051,晋城市,自来水公司,颗粒物(PM10),55,57,42,22,10,128,128,131,131,19,17,6,4,0.3,0.4
2026-03-29T2000,2162A,112.8509,35.4886,晋城市,市环保局,颗粒物(PM10),63,67,45,35,17,128,128,136,136,13,11,8,6,0.4,0.5
2026-03-29T2000,3620A,112.8258,35.4804,晋城市,泽州一中,颗粒物(PM10),67,73,36,27,17,126,126,132,132,17,14,5,4,0.5,0.6
2026-03-29T2000,4078A,112.8246,35.5152,晋城市,前书院路,颗粒物(PM10),60,64,36,18,13,124,124,125,125,12,13,8,5,0.3,0.5
2026-03-29T2000,4079A,112.8864,35.4773,晋城市,祥云街666号,颗粒物(PM10),61,65,33,32,19,113,113,125,125,14,16,8,5,0.4,0.5
2026-03-29T2000,2174A,112.6992,37.6984,晋中市,榆次区政府,颗粒物(PM10),53,53,54,19,26,97,97,110,110,18,32,10,11,0.4,0.6
2026-03-29T2000,2865A,112.7195,37.683,晋中市,榆次三中,颗粒物(PM10),53,53,54,29,24,99,99,113,113,16,27,8,11,0.1,0.3
2026-03-29T2000,4080A,112.7375,37.7215,晋中市,广安街188号,颗粒物(PM10),68,74,63,28,24,82,82,109,109,26,34,15,12,0.1,0.3
2026-03-29T2000,4200A,112.7478,37.6954,晋中市,迎宾街26号,,46,46,54,26,23,102,102,115,115,18,27,7,10,0.4,0.5
2026-03-29T2000,2439A,112.2012,31.048,荆门市,竹园小学,,50,50,74,31,44,45,45,90,78,27,18,2,1,1.4,0.9
2026-03-29T2000,2440A,112.1968,30.9892,荆门市,掇刀,,48,48,72,31,42,54,54,94,82,23,17,8,6,0.7,0.7
2026-03-29T2000,3012A,112.1849,31.0361,荆门市,西山林语,,40,29,63,28,37,58,58,88,76,16,14,5,5,0.4,0.5
2026-03-29T2000,3547A,112.1631,31.0134,荆门市,龙泉中学南校,,45,45,77,26,43,54,54,97,86,20,17,3,4,0.7,0.7
2026-03-29T2000,4124A,112.2213,31.0654,荆门市,新台西路6号,细颗粒物(PM2.5),78,52,60,49,44,44,44,88,76,25,19,5,8,0.7,0.7
2026-03-29T2000,1844A,112.2493,30.3198,荆州市,市图书馆,细颗粒物(PM2.5),52,NA,37,36,30,40,40,69,55,22,17,6,6,0.7,0.6
2026-03-29T2000,1845A,112.2009,30.3543,荆州市,市委党校,,48,35,40,33,29,44,44,61,51,18,20,7,7,0.9,0.9
2026-03-29T2000,3194A,112.2749,30.3124,荆州市,管委会,,40,38,41,28,33,29,29,68,53,27,16,10,11,0.7,0.7
2026-03-29T2000,4268A,112.1722,30.3366,荆州市,学苑路85号,,32,27,37,22,29,45,45,73,62,12,10,3,4,0,0.1
2026-03-29T2000,2343A,117.2114,29.2931,景德镇市,老干部活动中心,,42,37,35,29,30,55,55,104,96,14,15,8,11,0.9,0.9
2026-03-29T2000,2344A,117.1893,29.2789,景德镇市,兽医站,颗粒物(PM10),55,56,44,30,30,55,55,102,94,16,22,4,4,0.8,0.8
2026-03-29T2000,2346A,117.246,29.2958,景德镇市,陶研所,,38,38,27,26,26,46,46,99,89,24,22,4,4,0.8,0.8
2026-03-29T2000,4289A,117.154766,29.256967,景德镇市,青少年活动中心,细颗粒物(PM2.5),52,40,40,36,33,36,36,96,91,33,23,17,18,/,/
2026-03-29T2000,1803A,115.9873,29.6816,九江市,十里,,48,48,55,28,33,51,51,108,94,39,48,7,8,1.0,1
2026-03-29T2000,1804A,115.9583,29.7047,九江市,茅山头,细颗粒物(PM2.5),58,59,58,39,39,46,46,114,103,46,53,4,5,0.8,0.7
2026-03-29T2000,1805A,115.9877,29.7295,九江市,西园,颗粒物(PM10),51,51,62,25,37,83,83,116,107,28,63,4,7,0.8,0.8
2026-03-29T2000,1808A,115.9112,29.6038,九江市,综合工业园,颗粒物(PM10),51,51,46,35,28,33,33,107,87,56,48,8,10,0.8,0.7
2026-03-29T2000,3190A,116.0254,29.6995,九江市,外国语学校,,38,38,45,22,32,81,81,108,99,12,49,7,8,0.7,0.8
2026-03-29T2000,4253A,116.010205,29.659402,九江市,莲花大道8号,,34,34,42,15,26,90,90,106,104,7,25,4,6,0.6,0.6
2026-03-29T2000,4240A,98.495752,39.733935,酒泉市,玉门东路5号,颗粒物(PM10),127,190,113,41,34,99,99,104,104,6,16,6,7,0.3,0.4
2026-03-29T2000,4241A,98.5099,39.7506,酒泉市,北大街108号,颗粒物(PM10),118,166,105,43,37,91,91,95,95,8,17,7,8,0.2,0.3
2026-03-29T2000,2698A,76.0071,39.466,喀什地区,巡警大队,颗粒物(PM10),142,229,360,72,120,105,105,102,102,10,35,4,5,0.2,0.5
2026-03-29T2000,2699A,75.9756,39.4693,喀什地区,吾办,颗粒物(PM10),145,235,367,68,102,103,103,98,98,13,35,4,4,0.3,0.6
2026-03-29T2000,4027A,75.9485,39.4688,喀什地区,老干局,颗粒物(PM10),146,238,371,66,95,109,109,103,103,10,30,3,4,0.2,0.5
2026-03-29T2000,1824A,114.3389,34.778,开封市,肿瘤医院,颗粒物(PM10),62,66,57,40,31,110,110,131,131,26,19,15,9,0.6,0.6
2026-03-29T2000,1826A,114.2884,34.7966,开封市,世纪星幼儿园,颗粒物(PM10),58,61,51,34,28,108,108,128,128,28,20,11,10,0.5,0.5
2026-03-29T2000,3147A,114.3434,34.8101,开封市,龙亭公园,颗粒物(PM10),60,64,56,30,28,107,107,133,132,32,20,12,10,0.7,0.6
2026-03-29T2000,3210A,114.3645,34.7955,开封市,汴京公园,颗粒物(PM10),66,72,56,42,31,93,93,135,132,41,20,7,6,0.6,0.5
2026-03-29T2000,3473A,114.2485,34.8306,开封市,技师学院,颗粒物(PM10),62,66,48,32,25,90,90,131,128,38,18,9,8,0.6,0.6
2026-03-29T2000,3592A,114.4518,34.7503,开封市,祥符区生态环境局,颗粒物(PM10),75,84,65,36,36,86,86,131,124,50,26,7,7,0.7,0.6
2026-03-29T2000,1951A,84.886,45.6029,克拉玛依市,长征新村,,37,37,26,3,7,107,107,107,107,6,10,6,6,0.4,0.4
2026-03-29T2000,1952A,84.8894,45.5827,克拉玛依市,南林小区,,37,31,26,3,4,118,118,116,116,1,10,4,4,0.1,0.2
2026-03-29T2000,1954A,84.896,44.3328,克拉玛依市,独山子区,NA,NA,NA,38,NA,13,118,118,113,113,6,10,7,6,0.5,0.5
2026-03-29T2000,1955A,85.6888,46.0909,克拉玛依市,乌尔禾区商贸楼,,39,39,39,14,12,107,107,105,105,4,10,2,2,0.3,0.3
2026-03-29T2000,3612A,85.1045,45.6895,克拉玛依市,白碱滩区新站,,38,38,37,3,7,116,116,111,111,2,13,5,6,0.1,0.2
2026-03-29T2000,2697A,76.1457,39.7143,克孜勒苏柯尔克孜自治州,市人民政府,颗粒物(PM10),154,258,354,78,96,118,118,109,109,2,16,6,6,0.1,0.2
2026-03-29T2000,3665A,76.1654,39.7157,克孜勒苏柯尔克孜自治州,克州文化中心,颗粒物(PM10),151,252,353,83,104,113,113,105,105,2,16,8,11,0.2,0.3
2026-03-29T2000,1450A,102.8203,24.889,昆明市,呈贡新区,,35,27,31,24,26,106,106,132,116,7,10,5,3,0.5,0.7
2026-03-29T2000,1452A,102.7253,25.0904,昆明市,龙泉镇,,27,20,32,18,25,85,85,103,99,10,9,5,4,0.7,0.7
2026-03-29T2000,1453A,102.7267,25.0378,昆明市,东风东路,,27,24,30,17,24,86,86,120,105,16,10,5,3,0.6,0.6
2026-03-29T2000,1454A,102.6744,25.0671,昆明市,金鼎山,,35,35,43,16,25,90,90,116,106,14,12,4,3,0.7,0.7
2026-03-29T2000,1455A,102.6643,25.0401,昆明市,碧鸡广场,,30,NA,31,21,26,83,83,112,101,19,15,6,4,0.6,0.6
2026-03-29T2000,3179A,102.7491,25.012,昆明市,官渡区博物馆,,28,21,31,19,23,89,89,112,104,13,11,3,3,0.5,0.6
2026-03-29T2000,3375A,102.8016,24.8336,昆明市,青年创业园,,34,18,33,17,26,107,107,129,115,4,9,5,5,0.5,0.6
2026-03-29T2000,3550A,102.8,24.9787,昆明市,昆明学院,,26,21,34,16,22,81,81,106,98,12,10,4,4,0.5,0.7
2026-03-29T2000,3551A,102.5969,24.6738,昆明市,晋宁区生态环境分局,,33,29,37,13,27,103,103,130,115,4,6,2,2,0.3,0.4
2026-03-29T2000,3552A,102.6673,24.9861,昆明市,云天化总部,,30,19,31,15,20,95,95,119,109,8,9,4,4,0.4,0.5
2026-03-29T2000,1456A,91.132,29.6515,拉萨市,八廓街,,39,10,10,3,7,122,122,130,130,6,10,5,4,0.4,0.5
2026-03-29T2000,1457A,91.1221,29.6748,拉萨市,市环保局,,37,11,13,6,7,116,116,122,122,12,13,5,5,0.3,0.4
2026-03-29T2000,1458A,91.0874,29.6476,拉萨市,区监测站,,35,8,7,3,6,111,111,119,119,10,14,5,5,0.4,0.5
2026-03-29T2000,1459A,91.1774,29.6541,拉萨市,西藏大学,,37,12,8,8,6,117,117,120,120,12,13,4,4,0.4,0.4
2026-03-29T2000,1460A,90.9798,29.6586,拉萨市,区辐射站,,29,13,15,11,10,92,92,111,111,20,19,4,5,0.4,0.5
2026-03-29T2000,1461A,91.0831,29.6292,拉萨市,拉萨火车站,,37,6,8,6,6,117,117,123,123,6,13,4,4,0.4,0.5
2026-03-29T2000,2520A,109.2203,23.7252,来宾市,来宾技工学校,细颗粒物(PM2.5),111,102,57,72,35,52,52,46,46,21,14,7,9,1.3,1.2
2026-03-29T2000,3535A,109.1781,23.7293,来宾市,兴宾区政府,细颗粒物(PM2.5),98,84,58,59,34,57,57,53,53,23,15,9,11,1.0,1
2026-03-29T2000,4002A,109.2312,23.7428,来宾市,中南小学,细颗粒物(PM2.5),128,102,58,90,40,43,43,47,47,32,16,10,11,1.1,0.9
2026-03-29T2000,1479A,103.8309,36.0467,兰州市,铁路设计院,,32,32,56,15,28,68,68,66,66,33,42,2,5,0.2,0.4
2026-03-29T2000,3241A,103.7439,36.0841,兰州市,百合公园,,28,28,62,14,31,81,81,73,73,14,42,2,7,0.6,0.7
2026-03-29T2000,3242A,103.9613,35.9985,兰州市,和平,,32,NA,47,22,27,59,59,70,69,35,24,10,11,0.6,0.6
2026-03-29T2000,4236A,103.629272,36.093822,兰州市,庄浪东路808号,,37,37,56,17,28,76,76,85,82,34,32,6,8,0.4,0.4
2026-03-29T2000,4237A,103.7251,36.104344,兰州市,安宁西路88号,,31,31,68,15,29,86,86,89,88,20,35,6,10,0.3,0.4
2026-03-29T2000,4238A,103.846982,36.067567,兰州市,北滨河东路1号,,30,30,53,20,30,66,66,65,65,36,48,6,8,0.6,0.6
2026-03-29T2000,1067A,116.6712,39.5109,廊坊市,药材公司,颗粒物(PM10),71,79,137,38,96,100,100,143,139,15,43,3,5,0.4,0.7
2026-03-29T2000,1068A,116.7215,39.5592,廊坊市,开发区,细颗粒物(PM2.5),66,52,134,43,91,102,102,151,143,9,43,3,5,0.4,0.7
2026-03-29T2000,1070A,116.7246,39.5273,廊坊市,北华航天学院,颗粒物(PM10),60,64,144,37,92,111,111,153,147,11,45,2,8,0.4,0.8
2026-03-29T2000,2919A,116.7022,39.5454,廊坊市,河北工业大学,NA,NA,69,152,37,96,91,91,150,144,9,48,2,7,NA,0.8
2026-03-29T2000,2536A,103.7629,29.5844,乐山市,牛耳桥,细颗粒物(PM2.5),64,53,37,42,27,57,57,76,76,17,22,5,6,0.6,0.5
2026-03-29T2000,2537A,103.7501,29.6002,乐山市,市第三水厂,细颗粒物(PM2.5),60,46,32,40,27,57,57,78,78,21,20,3,5,0.8,0.7
2026-03-29T2000,2538A,103.7571,29.5664,乐山市,市监测站,细颗粒物(PM2.5),92,NA,37,56,28,48,48,73,72,20,17,4,4,0.9,0.7
2026-03-29T2000,3361A,103.7313,29.563,乐山市,理工大学,细颗粒物(PM2.5),68,50,32,44,29,53,53,76,76,21,17,7,7,0.8,0.7
2026-03-29T2000,2599A,100.2497,26.8802,丽江市,丽江古城,,27,17,22,10,12,86,86,101,92,7,9,11,11,0.5,0.6
2026-03-29T2000,2600A,100.2203,26.8906,丽江市,市中心,,27,14,13,6,13,84,84,102,92,11,12,5,5,0.5,0.5
2026-03-29T2000,1267A,119.9141,28.4513,丽水市,监测站大楼,颗粒物(PM10),56,58,28,15,15,20,20,85,73,34,15,4,5,0.9,0.4
2026-03-29T2000,1268A,119.93,28.4589,丽水市,莲都小学,,26,26,22,12,13,22,22,90,79,46,16,/,/,/,/
2026-03-29T2000,1269A,119.8794,28.4232,丽水市,余庄前,,11,11,22,3,13,23,23,80,70,10,14,3,3,0.6,0.5
2026-03-29T2000,1173A,119.1759,34.5885,连云港市,市环境监测站,细颗粒物(PM2.5),92,88,83,56,55,162,162,165,165,22,26,13,11,0.7,0.6
2026-03-29T2000,3000A,119.3577,34.6971,连云港市,德源药业,细颗粒物(PM2.5),96,95,99,58,51,169,169,149,149,24,29,7,7,0.6,0.6
2026-03-29T2000,3007A,119.178,34.8442,连云港市,新城一中,细颗粒物(PM2.5),109,96,102,69,70,144,144,129,129,38,49,9,10,0.8,0.8
2026-03-29T2000,3008A,119.3607,34.7519,连云港市,胡沟管理处,颗粒物(PM10),79,90,78,48,38,146,146,111,104,49,44,16,13,0.5,0.5
2026-03-29T2000,3009A,119.1478,34.5913,连云港市,矿山设计院,颗粒物(PM10),86,100,97,51,54,159,159,168,168,27,29,13,11,0.9,0.8
2026-03-29T2000,3434A,119.2414,34.6539,连云港市,工贸学校,细颗粒物(PM2.5),80,88,77,50,46,180,180,180,180,19,20,16,13,0.6,0.6
2026-03-29T2000,3664A,119.4171,34.734,连云港市,连云街道,NA,NA,95,86,NA,43,193,193,150,150,19,26,9,9,0.8,0.7
2026-03-29T2000,2573A,102.2629,27.8981,凉山彝族自治州,西昌市政府,,34,25,26,10,21,108,108,118,116,6,6,12,9,0.7,0.6
2026-03-29T2000,2574A,102.2686,27.885,凉山彝族自治州,凉山州政府,,29,22,25,8,18,92,92,102,100,7,7,7,5,0.5,0.5
2026-03-29T2000,4229A,102.2342,27.8859,凉山彝族自治州,凯乐南路30号,,32,19,28,7,15,102,102,108,107,7,11,3,6,0.4,0.6
2026-03-29T2000,2212A,123.1978,41.2036,辽阳市,宏伟区,,18,NA,52,12,36,56,56,121,76,14,12,9,10,0.6,0.7
2026-03-29T2000,2213A,123.1684,41.2497,辽阳市,新华园,,19,16,66,13,45,54,54,113,77,17,20,9,11,0.5,0.8
2026-03-29T2000,2214A,123.2355,41.2663,辽阳市,滨河路,,20,20,51,14,37,46,46,96,63,20,20,8,8,0.6,0.7
2026-03-29T2000,4083A,123.153,41.2874,辽阳市,铁西路150号,,31,31,79,16,43,47,47,103,70,18,18,10,11,0.6,0.7
2026-03-29T2000,2227A,125.1359,42.8845,辽源市,环保局,,28,28,121,6,94,60,60,92,72,8,29,6,9,0.2,0.8
2026-03-29T2000,4085A,125.0998,42.9134,辽源市,安宁大街333号,,42,42,122,11,96,43,43,93,70,30,28,6,9,0.4,0.9
2026-03-29T2000,1625A,115.9789,36.4372,聊城市,区政府,颗粒物(PM10),52,52,50,17,22,110,110,124,124,15,13,7,7,0.6,0.6
2026-03-29T2000,3200A,115.9772,36.4986,聊城市,监控中心,颗粒物(PM10),75,85,53,33,24,98,98,136,133,28,18,9,8,0.6,0.6
2026-03-29T2000,3513A,116.0443,36.436,聊城市,九州社区,颗粒物(PM10),73,81,62,26,25,107,107,134,132,26,17,3,2,0.5,0.5
2026-03-29T2000,4018A,116.0564,36.4609,聊城市,星美广场,颗粒物(PM10),71,79,61,24,25,102,102,128,127,41,27,4,4,0.5,0.5
2026-03-29T2000,4113A,116.0091,36.4495,聊城市,利民路,颗粒物(PM10),53,54,47,19,23,122,122,136,136,17,13,7,7,0.5,0.4
2026-03-29T2000,2632A,94.3683,29.6373,林芝市,林芝监测站,,30,13,4,13,4,93,93,108,108,2,2,4,5,0.5,0.5
2026-03-29T2000,2633A,94.3616,29.6634,林芝市,林芝人民医院,,31,22,6,8,4,99,99,113,113,1,3,6,6,0.5,0.6
2026-03-29T2000,2603A,100.0779,23.8981,临沧市,市环保局,,36,NA,31,25,34,82,82,112,107,7,6,5,5,0.5,0.5
2026-03-29T2000,2604A,100.0894,23.882,临沧市,市气象局,NA,NA,32,35,26,34,NA,NA,117,117,10,7,6,6,0.2,0.4
2026-03-29T2000,1733A,111.5552,36.0791,临汾市,临钢医院,颗粒物(PM10),63,67,44,31,21,95,95,117,117,25,19,9,8,0.6,0.5
2026-03-29T2000,1734A,111.4984,36.0734,临汾市,技工学校,颗粒物(PM10),64,69,50,37,30,99,99,111,111,25,21,5,6,0.6,0.5
2026-03-29T2000,1736A,111.5017,36.0857,临汾市,市委,颗粒物(PM10),65,71,56,28,23,108,108,117,117,21,21,6,6,0.6,0.6
2026-03-29T2000,3018A,111.5048,36.1015,临汾市,唐尧大酒店,颗粒物(PM10),78,89,68,30,23,101,101,112,112,24,23,9,8,0.6,0.6
2026-03-29T2000,4244A,111.4879,36.053,临汾市,启星学校,颗粒物(PM10),68,74,53,30,25,101,101,113,113,29,28,5,6,0.6,0.6
2026-03-29T2000,4271A,103.2464,35.6123,临夏回族自治州,滨河东路1号,,29,29,109,17,48,68,68,68,66,21,39,6,7,0.5,0.7
2026-03-29T2000,4310A,103.207136,35.599807,临夏回族自治州,新华街21号,细颗粒物(PM2.5),56,40,80,38,46,54,54,68,63,21,19,5,7,1.0,0.9
2026-03-29T2000,1618A,118.3429,35.0532,临沂市,沂河小区,颗粒物(PM10),75,85,114,39,68,130,130,162,160,19,29,14,24,0.5,0.6
2026-03-29T2000,1619A,118.2962,35.0568,临沂市,鲁南制药厂,颗粒物(PM10),83,95,111,42,68,138,138,169,166,24,33,14,29,0.4,0.5
2026-03-29T2000,1620A,118.2793,34.9976,临沂市,新光毛纺厂,颗粒物(PM10),79,90,114,40,76,129,129,166,163,30,39,14,24,0.4,0.4
2026-03-29T2000,1621A,118.3955,35.0889,临沂市,河东保险公司,细颗粒物(PM2.5),102,110,119,62,76,117,117,178,172,25,34,NA,20,0.4,0.5
2026-03-29T2000,3370A,118.3563,35.0215,临沂市,十里堡居委,颗粒物(PM10),78,88,108,40,71,138,138,172,169,27,40,15,28,0.6,0.7
2026-03-29T2000,3496A,118.359,35.1067,临沂市,南坊新区,颗粒物(PM10),86,100,110,52,74,122,122,162,158,26,33,12,21,0.4,0.5
2026-03-29T2000,3860A,118.3915,35.0297,临沂市,皇山花园小区,颗粒物(PM10),78,88,114,45,78,124,124,173,169,30,38,12,22,0.6,0.7
2026-03-29T2000,1870A,109.4854,24.3898,柳州市,柳东小学,细颗粒物(PM2.5),101,94,60,61,30,49,49,38,38,19,14,8,12,1.2,0.9
2026-03-29T2000,1871A,109.4109,24.3304,柳州市,环保监测站,细颗粒物(PM2.5),120,110,48,82,32,35,35,31,31,32,22,9,15,1.5,1.1
2026-03-29T2000,1872A,109.3886,24.3408,柳州市,河西水厂,细颗粒物(PM2.5),122,114,73,84,38,41,41,34,34,30,22,12,22,1.0,0.7
2026-03-29T2000,1873A,109.4263,24.2951,柳州市,市四中,细颗粒物(PM2.5),124,116,52,86,32,31,31,32,32,38,18,12,15,0.9,0.5
2026-03-29T2000,1874A,109.396,24.3658,柳州市,市九中,细颗粒物(PM2.5),121,119,53,83,36,30,30,29,29,34,20,13,21,1.2,0.9
2026-03-29T2000,1875A,109.4912,24.3164,柳州市,古亭山,细颗粒物(PM2.5),117,100,60,78,32,34,34,37,36,32,14,8,11,NA,0.9
2026-03-29T2000,3402A,109.5422,24.3994,柳州市,市二中,细颗粒物(PM2.5),104,93,50,64,32,37,37,36,36,22,15,9,9,1.1,0.9
2026-03-29T2000,2307A,116.5078,31.7369,六安市,监测大楼,细颗粒物(PM2.5),76,71,47,48,31,119,119,152,147,23,19,5,5,0.5,0.4
2026-03-29T2000,2308A,116.4738,31.7642,六安市,皖西学院,细颗粒物(PM2.5),68,64,50,44,30,134,134,160,157,14,15,6,6,0.4,0.4
2026-03-29T2000,2309A,116.4997,31.7904,六安市,朝阳厂,细颗粒物(PM2.5),78,71,46,49,30,117,117,153,148,28,20,7,6,0.3,0.3
2026-03-29T2000,2310A,116.5566,31.7885,六安市,开发区,细颗粒物(PM2.5),72,NA,43,46,38,113,113,161,151,28,22,7,7,0.5,0.4
2026-03-29T2000,2577A,104.8293,26.592,六盘水市,黄土坡,,35,24,32,15,23,109,109,124,121,8,10,6,6,0.2,0.4
2026-03-29T2000,2579A,104.8481,26.5898,六盘水市,民中,,34,25,33,15,22,107,107,120,117,8,10,4,5,0.3,0.6
2026-03-29T2000,2580A,104.9541,26.5506,六盘水市,双水,,32,19,34,13,21,100,100,116,114,11,10,3,4,0.5,0.5
2026-03-29T2000,4151A,104.8899,26.5685,六盘水市,钟山大道中段564号,,33,24,40,14,22,105,105,120,116,7,7,8,8,0.3,0.5
2026-03-29T2000,2336A,117.022,25.1031,龙岩市,龙岩市监测站,,36,NA,18,25,13,39,39,68,64,20,10,5,6,0.9,0.7
2026-03-29T2000,2337A,117.0257,25.0662,龙岩市,闽西职业技术学院,,40,40,19,21,13,32,32,64,61,18,9,5,7,0.7,0.7
2026-03-29T2000,2338A,117.0195,25.0306,龙岩市,龙岩学院,,25,17,23,17,13,42,42,67,64,6,8,3,4,/,/
2026-03-29T2000,2885A,104.9344,33.3827,陇南市,滨江中学,颗粒物(PM10),51,51,45,17,14,73,73,88,76,16,13,7,7,0.8,0.7
2026-03-29T2000,3247A,104.9551,33.3709,陇南市,市总工会,,35,35,43,20,14,79,79,87,74,10,14,6,6,0.7,0.7
2026-03-29T2000,2488A,111.9984,27.7346,娄底市,市监测站,,36,29,45,25,37,35,35,35,35,12,16,4,2,0.6,0.8
2026-03-29T2000,2491A,111.9888,27.7035,娄底市,市政府,,24,24,35,14,25,38,38,37,37,11,11,3,3,0.7,0.8
2026-03-29T2000,4127A,111.9812,27.7591,娄底市,涟钢职大,,39,NA,40,27,33,35,35,33,33,18,17,2,2,0.8,1
2026-03-29T2000,4128A,112.0303,27.7457,娄底市,娄底体校,,36,NA,54,25,36,33,33,32,32,6,11,3,3,0.7,0.9
2026-03-29T2000,1894A,105.4427,28.9063,泸州市,小市上码头,,40,35,48,28,40,71,71,71,71,15,18,10,11,0.8,0.8
2026-03-29T2000,1895A,105.4241,28.8573,泸州市,兰田宪桥,,36,36,54,22,35,65,65,62,62,16,18,8,9,1.0,1
2026-03-29T2000,1896A,105.4378,28.8833,泸州市,市环监站,,42,42,61,24,39,59,59,60,60,26,23,5,6,0.9,0.9
2026-03-29T2000,4272A,105.3689,28.7783,泸州市,纳溪中医医院,,45,45,46,29,40,75,75,62,62,15,19,8,8,0.9,0.9
2026-03-29T2000,2183A,111.1447,37.5212,吕梁市,环保局,,50,50,49,28,15,88,88,101,101,18,30,8,9,0.6,0.2
2026-03-29T2000,2185A,111.1285,37.5338,吕梁市,自来水公司,颗粒物(PM10),55,57,56,33,21,88,88,101,101,20,26,6,9,0.6,0.6
2026-03-29T2000,2867A,111.1225,37.5093,吕梁市,马茂庄小学,颗粒物(PM10),59,62,57,24,18,88,88,97,97,20,31,5,6,0.5,0.5
2026-03-29T2000,1812A,112.3934,34.6517,洛阳市,市委党校,颗粒物(PM10),65,70,74,36,53,97,97,124,124,33,31,9,11,0.7,0.8
2026-03-29T2000,1815A,112.494,34.6883,洛阳市,河南林校,颗粒物(PM10),63,67,72,28,45,88,88,128,126,44,37,12,16,0.6,0.8
2026-03-29T2000,1816A,112.3843,34.623,洛阳市,开发区管委会,颗粒物(PM10),61,65,74,27,46,110,110,127,127,23,22,12,12,0.5,0.5
2026-03-29T2000,1817A,112.4263,34.6249,洛阳市,市委新办公区,颗粒物(PM10),71,79,74,38,51,93,93,123,123,36,25,10,9,0.7,0.7
2026-03-29T2000,3340A,112.6005,34.6323,洛阳市,伊滨,颗粒物(PM10),82,94,61,44,46,86,86,123,120,36,26,7,8,0.6,0.6
2026-03-29T2000,3341A,112.495,34.6338,洛阳市,中移产业园,颗粒物(PM10),71,79,70,43,47,83,83,123,120,51,31,12,11,0.6,0.7
2026-03-29T2000,3593A,112.5736,34.8993,洛阳市,吉利监测站,NA,NA,NA,47,23,33,103,103,119,116,28,24,9,10,0.7,0.6
2026-03-29T2000,3635A,112.3678,34.6623,洛阳市,河科大西苑校区,颗粒物(PM10),65,71,73,31,48,108,108,130,130,29,27,10,14,0.6,0.7
2026-03-29T2000,3636A,112.4387,34.678,洛阳市,英才小学,颗粒物(PM10),68,74,85,40,51,93,93,127,125,40,36,11,16,0.7,0.9
2026-03-29T2000,4214A,112.460027,34.694929,洛阳市,春都路1号院,颗粒物(PM10),89,104,74,41,46,72,72,133,128,49,31,10,12,0.8,0.8
2026-03-29T2000,2399A,114.051,33.5721,漯河市,三五一五工厂,颗粒物(PM10),85,98,107,52,56,103,103,145,140,27,29,6,6,0.4,0.4
2026-03-29T2000,2400A,114.0055,33.5698,漯河市,漯河大学,细颗粒物(PM2.5),96,82,86,58,56,119,119,140,138,21,27,7,8,0.6,0.6
2026-03-29T2000,2401A,114.0134,33.5826,漯河市,市水利局,细颗粒物(PM2.5),76,85,90,48,53,116,116,141,140,21,23,7,7,0.6,0.6
2026-03-29T2000,2402A,114.0261,33.5697,漯河市,市广电局,细颗粒物(PM2.5),82,88,89,51,55,119,119,145,142,17,21,6,7,0.6,0.6
2026-03-29T2000,3478A,113.9691,33.568,漯河市,市图书馆,颗粒物(PM10),88,102,103,49,57,116,116,136,134,21,27,8,8,0.7,0.7
2026-03-29T2000,4250A,114.089259,33.588274,漯河市,韶山路11号,细颗粒物(PM2.5),94,102,103,57,56,78,78,128,123,41,31,8,8,0.4,0.3
2026-03-29T2000,1798A,118.5084,31.6838,马鞍山市,湖东路四小,颗粒物(PM10),53,54,59,28,36,95,95,162,157,40,25,8,12,0.7,0.7
2026-03-29T2000,1799A,118.5019,31.6449,马鞍山市,开发区,颗粒物(PM10),67,73,72,29,39,91,91,169,162,55,36,6,8,0.5,0.6
2026-03-29T2000,3633A,118.4914,31.681,马鞍山市,雨山,颗粒物(PM10),59,62,58,25,31,105,105,167,162,39,26,8,11,0.7,0.6
2026-03-29T2000,4191A,118.527362,31.722269,马鞍山市,慈湖高新区,,48,48,70,24,34,105,105,156,153,37,30,7,13,0.4,0.7
2026-03-29T2000,1686A,111.0285,21.469,茂名市,电白南海,,23,19,24,16,11,45,45,52,51,6,6,5,5,0.7,0.7
2026-03-29T2000,1687A,110.9294,21.6533,茂名市,茂石化七小,,34,34,27,19,17,35,35,42,41,10,10,6,6,0.4,0.4
2026-03-29T2000,1688A,110.9108,21.6688,茂名市,健康路,,28,22,18,19,15,38,38,46,44,8,8,4,4,0.5,0.5
2026-03-29T2000,1689A,110.8592,21.6826,茂名市,高岭,,34,34,32,16,16,36,36,47,45,11,8,3,3,/,/
2026-03-29T2000,3450A,111.0101,21.5165,茂名市,电白水东,,19,NA,13,13,12,44,44,47,46,6,7,2,2,/,/
2026-03-29T2000,2540A,103.8414,30.0871,眉山市,气象局,,50,50,42,25,19,46,46,75,72,17,16,6,7,0.6,0.6
2026-03-29T2000,3148A,103.829,30.0563,眉山市,区人社局,,49,49,45,28,27,58,58,74,71,20,22,8,11,0.7,0.7
2026-03-29T2000,4148A,103.8836,30.0695,眉山市,眉职院,,43,43,50,22,26,56,56,67,67,17,19,6,6,0.7,0.7
2026-03-29T2000,1690A,116.1248,24.3307,梅州市,梅江月梅,,45,33,32,31,23,57,57,75,75,14,11,/,/,/,/
2026-03-29T2000,1691A,116.0798,24.2719,梅州市,梅县新城,NA,NA,59,27,25,21,63,63,73,73,NA,17,8,9,0.5,0.6
2026-03-29T2000,3315A,116.1234,24.2994,梅州市,梅龙,,40,36,23,28,21,60,60,76,76,14,11,7,7,1.0,0.9
2026-03-29T2000,1878A,104.7775,31.4741,绵阳市,富乐山,NA,NA,21,38,13,26,NA,NA,50,50,9,13,5,6,0.7,0.8
2026-03-29T2000,1880A,104.6698,31.4668,绵阳市,高新区自来水公司,,23,22,40,16,25,57,57,60,60,12,18,8,8,0.8,0.7
2026-03-29T2000,3491A,104.6899,31.5324,绵阳市,西科大附属小学,,23,22,43,16,27,58,58,59,59,9,22,6,7,0.6,0.6
2026-03-29T2000,3492A,104.5647,31.5343,绵阳市,安州区旅游局,,22,22,42,14,25,49,49,67,64,8,15,6,6,0.6,0.6
2026-03-29T2000,4146A,104.7092,31.4972,绵阳市,科技城新区公安局,,20,20,44,14,24,48,48,52,51,10,20,7,8,0.8,0.7
2026-03-29T2000,4226A,104.765114,31.453094,绵阳市,绵阳市气象局,,25,25,40,15,25,50,50,48,48,11,18,8,8,1.0,0.9
2026-03-29T2000,1784A,129.61,44.561,牡丹江市,环保大楼,,41,41,126,20,104,95,95,128,121,12,33,5,7,0.4,0.8
2026-03-29T2000,1787A,129.6364,44.6075,牡丹江市,机车工厂,颗粒物(PM10),53,54,151,13,117,81,81,117,110,18,35,9,10,0.6,0.9
2026-03-29T2000,1788A,129.6386,44.5462,牡丹江市,第一中学,,29,25,99,10,88,91,91,120,114,10,29,5,6,0.5,0.7
2026-03-29T2000,4287A,129.5992,44.5964,牡丹江市,东晓云街98号,颗粒物(PM10),54,55,133,22,104,96,96,126,120,9,22,5,7,0.5,0.9
2026-03-29T2000,2531A,105.0703,29.61,内江市,市监测站,,27,27,30,15,27,59,59,59,59,14,16,8,8,0.7,0.6
2026-03-29T2000,2533A,105.0657,29.5807,内江市,内江二中,,42,42,51,15,26,62,62,54,54,17,22,8,9,0.5,0.6
2026-03-29T2000,2534A,105.0407,29.5828,内江市,内江日报社,,28,28,38,14,27,65,65,60,60,16,21,9,8,0.6,0.6
2026-03-29T2000,4147A,105.0433,29.6105,内江市,玉峰路西段888号,,30,NA,22,21,32,68,68,68,68,17,18,13,12,0.5,0.5
2026-03-29T2000,2628A,92.0653,31.4846,那曲市,那曲监测站,,30,NA,24,18,19,96,96,108,108,10,12,3,3,0.6,0.7
2026-03-29T2000,4243A,92.0515,31.4787,那曲市,那曲市委宣传部,,33,8,13,3,10,104,104,115,115,2,6,6,8,0.4,0.5
2026-03-29T2000,1291A,115.8887,28.7006,南昌市,省林业公司,细颗粒物(PM2.5),72,58,53,46,40,63,63,96,92,17,28,5,5,0.7,0.8
2026-03-29T2000,1292A,115.813,28.7443,南昌市,林科所,细颗粒物(PM2.5),76,51,44,48,35,70,70,96,92,13,32,8,9,1.1,0.9
2026-03-29T2000,1294A,115.8518,28.687,南昌市,建工学校,细颗粒物(PM2.5),74,58,60,47,41,63,63,95,90,30,35,10,10,1.3,1.1
2026-03-29T2000,1295A,115.8926,28.6425,南昌市,象湖,细颗粒物(PM2.5),78,57,54,49,42,50,50,94,88,33,35,8,9,1.2,1.1
2026-03-29T2000,3046A,115.9084,28.6062,南昌市,机电学校,细颗粒物(PM2.5),68,63,66,44,39,61,61,104,96,21,27,5,5,0.8,0.8
2026-03-29T2000,3690A,115.9718,28.7032,南昌市,外国语学校,细颗粒物(PM2.5),66,45,56,43,50,72,72,97,93,16,31,8,9,0.7,0.8
2026-03-29T2000,4106A,115.7923,28.6873,南昌市,工业二路,细颗粒物(PM2.5),78,72,63,49,37,62,62,101,95,26,33,5,5,1.2,0.9
2026-03-29T2000,4192A,115.931587,28.686774,南昌市,南京东路235号,细颗粒物(PM2.5),80,64,74,50,47,68,68,100,95,14,28,6,7,0.6,0.7
2026-03-29T2000,1906A,106.0791,30.8022,南充市,南充市委,,26,25,35,18,22,34,34,41,40,20,18,6,7,0.6,0.6
2026-03-29T2000,1907A,106.1038,30.8215,南充市,南充炼油厂,,49,49,36,17,25,36,36,40,40,13,15,4,5,0.4,0.5
2026-03-29T2000,4227A,106.108336,30.788436,南充市,梨树横街98号,,23,23,31,16,23,41,41,44,44,15,14,5,6,0.3,0.4
2026-03-29T2000,4304A,106.1172,30.843,南充市,清泉寺北路188号,,31,31,29,15,23,43,43,47,47,10,11,6,6,0.4,0.5
2026-03-29T2000,4305A,106.067,30.7616,南充市,同庆路1号,,27,27,29,17,22,35,35,44,43,22,16,5,7,0.7,0.7
2026-03-29T2000,1151A,118.8033,32.1085,南京市,迈皋桥,颗粒物(PM10),62,66,51,29,28,156,156,182,180,29,19,8,7,0.5,0.4
2026-03-29T2000,1152A,118.7487,32.057,南京市,草场门,颗粒物(PM10),68,75,54,20,25,156,156,163,163,38,31,11,11,0.4,0.4
2026-03-29T2000,1154A,118.770105,32.004342,南京市,中华门,颗粒物(PM10),53,53,49,17,26,158,158,166,166,25,20,7,5,0.8,0.6
2026-03-29T2000,1155A,118.8059,32.0329,南京市,瑞金路,颗粒物(PM10),55,56,51,20,20,151,151,174,173,33,23,5,5,0.9,0.7
2026-03-29T2000,1156A,118.7946,32.0774,南京市,玄武湖,颗粒物(PM10),60,63,50,20,23,129,129,163,160,40,17,10,9,0.8,0.7
2026-03-29T2000,1157A,118.6415,32.0964,南京市,浦口,颗粒物(PM10),56,58,58,21,24,123,123,149,147,31,25,6,6,0.5,0.4
2026-03-29T2000,1158A,118.730129,32.000956,南京市,奥体中心,颗粒物(PM10),61,65,57,16,25,131,131,152,150,24,20,8,8,0.4,0.3
2026-03-29T2000,1159A,118.9072,32.1047,南京市,仙林大学城,颗粒物(PM10),70,78,60,29,26,154,154,176,176,32,23,10,10,0.6,0.6
2026-03-29T2000,3422A,118.8443,31.919,南京市,江宁彩虹桥,颗粒物(PM10),52,52,54,17,22,150,150,163,162,40,27,4,4,0.7,0.6
2026-03-29T2000,3427A,118.8497,32.3599,南京市,六合雄州,颗粒物(PM10),71,79,60,44,30,140,140,165,163,35,41,4,4,0.7,0.7
2026-03-29T2000,4086A,118.7641,32.0841,南京市,新模范马路66号,颗粒物(PM10),80,92,60,19,24,167,167,183,183,27,18,4,4,0.4,0.4
2026-03-29T2000,4249A,118.8707617,31.34017673,南京市,汶溪路181号,颗粒物(PM10),51,51,48,25,29,131,131,170,168,34,23,6,8,0.6,0.6
2026-03-29T2000,4312A,119.019,31.6512,南京市,中山西路1号,NA,NA,63,56,25,32,NA,NA,167,167,35,25,4,4,0.7,0.5
2026-03-29T2000,1401A,108.3098,22.788,南宁市,二十一中,,19,19,57,11,53,55,55,59,59,15,18,2,3,0.7,0.9
2026-03-29T2000,1402A,108.3135,22.8529,南宁市,北湖,,25,22,69,17,58,65,65,66,66,15,17,4,4,0.8,1.1
2026-03-29T2000,1403A,108.3205,22.8222,南宁市,市监测站,,27,27,62,12,51,67,67,69,69,15,16,3,3,0.7,1
2026-03-29T2000,1404A,108.3828,22.8038,南宁市,大自然花园,,21,19,64,12,53,66,66,74,74,17,18,5,6,0.9,1.1
2026-03-29T2000,1406A,108.2397,22.8462,南宁市,区农职院,,38,38,67,14,46,54,54,64,64,19,17,4,6,0.6,0.8
2026-03-29T2000,1407A,108.3285,22.7356,南宁市,英华嘉园,,45,45,66,15,54,63,63,65,65,14,18,4,4,0.5,0.8
2026-03-29T2000,3401A,108.4829,22.762,南宁市,红星社区,,25,25,64,11,51,63,63,77,77,19,17,5,6,0.7,1
2026-03-29T2000,4132A,108.2927,23.1477,南宁市,起凤路9号,,22,22,72,15,60,66,66,62,62,16,17,3,4,0.4,0.7
2026-03-29T2000,4221A,108.2177,22.7774,南宁市,乐贤路16号,,37,37,65,11,50,48,48,63,63,26,22,4,5,0.6,0.9
2026-03-29T2000,2332A,118.1682,26.6371,南平市,南平市监测站,,24,24,22,16,15,32,32,71,67,21,10,3,4,1.2,0.9
2026-03-29T2000,2334A,118.1757,26.6276,南平市,南平七中,,16,14,22,11,14,40,40,72,69,14,9,5,3,0.8,0.7
2026-03-29T2000,1168A,120.9056,31.9669,南通市,狼山街道,,37,34,63,19,34,117,117,173,170,25,37,4,6,0.5,0.5
2026-03-29T2000,1170A,120.8635,32.0231,南通市,城中,颗粒物(PM10),55,56,72,22,37,113,113,170,168,20,29,5,7,0.6,0.6
2026-03-29T2000,1171A,120.9376,31.9301,南通市,星湖花园,,34,34,61,21,36,104,104,162,157,22,33,4,6,0.6,0.5
2026-03-29T2000,1172A,120.8053,32.046,南通市,紫琅学院,,40,36,61,28,33,120,120,173,165,26,44,6,8,0.8,0.7
2026-03-29T2000,3291A,121.0631,32.0644,南通市,通州监测站,,38,22,66,16,38,119,119,166,166,11,26,4,5,0.6,0.5
2026-03-29T2000,3432A,120.9348,31.9874,南通市,环境教育馆,细颗粒物(PM2.5),52,44,62,36,38,109,109,170,166,22,33,5,6,0.5,0.5
2026-03-29T2000,4091A,120.8692,31.9885,南通市,洪江路,颗粒物(PM10),58,60,62,27,36,110,110,164,162,22,31,5,7,0.8,0.7
2026-03-29T2000,2404A,112.5338,33.0086,南阳市,瓦房庄,颗粒物(PM10),72,80,68,36,30,102,102,128,125,17,20,5,5,0.8,0.7
2026-03-29T2000,2405A,112.5002,32.9734,南阳市,汉画馆,颗粒物(PM10),73,81,67,46,35,90,90,125,122,23,29,7,6,0.7,0.6
2026-03-29T2000,2406A,112.5778,33.0144,南阳市,气象站,颗粒物(PM10),80,92,71,44,30,111,111,134,133,19,22,6,6,0.6,0.5
2026-03-29T2000,2407A,112.548,32.9687,南阳市,理工学院,细颗粒物(PM2.5),90,88,67,55,36,108,108,129,128,16,25,6,7,0.6,0.6
2026-03-29T2000,4008A,112.5233,32.9921,南阳市,卧龙区政府,细颗粒物(PM2.5),94,84,69,57,35,101,101,127,125,20,24,7,7,0.8,0.6
2026-03-29T2000,1234A,121.8352,29.9111,宁波市,区环保大楼,,37,37,57,23,37,95,95,117,117,36,31,6,6,0.3,0.4
2026-03-29T2000,1235A,121.5595,29.8208,宁波市,万里学院,,35,29,54,18,34,111,111,137,132,11,13,6,6,0.8,0.7
2026-03-29T2000,1236A,121.713,29.9564,宁波市,龙赛医院,,33,20,55,12,36,104,104,137,117,15,19,4,5,0.5,0.5
2026-03-29T2000,1240A,121.5855,29.8635,宁波市,太古小学,,29,21,54,12,32,90,90,113,105,17,19,3,3,0.4,0.4
2026-03-29T2000,1241A,121.5239,29.8673,宁波市,市环境监测中心,,33,30,56,17,37,104,104,137,123,16,17,7,7,0.5,0.5
2026-03-29T2000,2871A,121.6156,29.9015,宁波市,万里国际学校,,36,22,51,12,29,115,115,140,137,14,13,4,4,0.7,0.7
2026-03-29T2000,3710A,121.5593,29.8976,宁波市,白沙活动中心,,35,26,59,11,35,109,109,136,128,14,16,4,4,0.4,0.5
2026-03-29T2000,4095A,121.8962,29.7529,宁波市,中科路88号,,43,36,50,24,34,21,21,133,89,85,31,8,7,0.6,0.6
2026-03-29T2000,2341A,119.5387,26.6611,宁德市,宁德市监测站,,31,20,23,20,16,99,99,102,102,20,18,6,5,0.8,0.7
2026-03-29T2000,3209A,119.5231,26.6562,宁德市,宁德一中,,32,31,21,22,15,98,98,100,100,16,13,6,4,0.6,0.5
2026-03-29T2000,2618A,98.859,25.8541,怒江傈僳族自治州,州监测站,,43,37,34,30,27,72,72,96,84,10,7,7,7,0.6,0.6
2026-03-29T2000,2619A,98.8607,25.8168,怒江傈僳族自治州,泸水一中,,38,27,26,26,25,48,48,90,74,25,13,5,5,0.9,0.7
2026-03-29T2000,1888A,101.6891,26.571,攀枝花市,弄弄坪,,32,27,32,6,18,83,83,116,109,26,14,78,15,3.2,1
2026-03-29T2000,1889A,101.577,26.5914,攀枝花市,河门口,,31,7,30,3,20,98,98,114,111,6,10,5,9,0.5,0.7
2026-03-29T2000,1891A,101.7365,26.4986,攀枝花市,仁和,,28,16,25,11,18,89,89,107,104,9,6,5,5,0.4,0.5
2026-03-29T2000,2835A,101.7222,26.567,攀枝花市,四十中小,,30,17,28,6,16,95,95,109,105,10,9,5,8,0.8,0.9
2026-03-29T2000,1604A,122.0303,41.1489,盘锦市,开发区,,21,NA,55,12,49,66,66,96,83,6,14,7,9,0.3,0.4
2026-03-29T2000,1605A,122.0486,41.0883,盘锦市,兴隆台,,21,21,48,10,41,66,66,97,82,14,26,7,8,0.5,0.8
2026-03-29T2000,1606A,121.8297,41.1026,盘锦市,新生街道,,16,12,45,7,35,51,51,88,75,25,26,7,8,0.2,0.4
2026-03-29T2000,1832A,113.3257,33.7423,平顶山市,新华旅馆,颗粒物(PM10),92,108,108,51,60,95,95,139,135,23,25,5,7,0.5,0.5
2026-03-29T2000,1833A,113.2917,33.737,平顶山市,规划设计院,颗粒物(PM10),85,98,105,49,60,105,105,137,134,22,28,8,9,0.7,0.7
2026-03-29T2000,1834A,113.182,33.7738,平顶山市,平顶山工学院,颗粒物(PM10),83,96,94,44,53,115,115,141,140,21,21,6,7,0.6,0.6
2026-03-29T2000,3594A,112.8736,33.9068,平顶山市,石龙区,细颗粒物(PM2.5),107,118,96,67,46,110,110,137,135,23,33,10,8,0.9,0.8
2026-03-29T2000,4116A,113.284,33.7139,平顶山市,姚电大道23号,细颗粒物(PM2.5),98,105,115,59,57,107,107,136,132,20,27,4,5,0.5,0.4
2026-03-29T2000,2656A,106.6633,35.5338,平凉市,聚贤嘉苑,,39,39,55,20,23,101,101,105,105,17,22,6,6,0.3,0.3
2026-03-29T2000,2657A,106.7021,35.5307,平凉市,博物馆,,42,42,56,19,23,99,99,101,101,12,20,7,8,0.5,0.5
2026-03-29T2000,2348A,113.8384,27.6436,萍乡市,中医院,,40,40,51,26,39,46,46,48,48,16,19,4,6,1.2,1.2
2026-03-29T2000,2350A,113.8677,27.6438,萍乡市,市环保局,,45,NA,44,31,40,44,44,53,53,17,15,7,9,1.1,1.1
2026-03-29T2000,2351A,113.8663,27.6202,萍乡市,安源区政府,,28,20,40,19,38,38,38,38,38,16,15,4,6,0.7,0.8
2026-03-29T2000,4107A,113.8686,27.6668,萍乡市,联洪村委会,,35,26,53,24,37,54,54,52,52,5,14,1,3,0.6,0.6
2026-03-29T2000,2319A,119.0142,25.4324,莆田市,荔城区仓后路,,46,36,42,32,33,98,98,129,128,19,19,/,/,/,/
2026-03-29T2000,2320A,119.0016,25.4553,莆田市,莆田市监测站,,48,NA,33,33,24,107,107,136,135,12,11,2,2,0.6,0.5
2026-03-29T2000,2321A,119.112,25.4561,莆田市,涵江区六中,,36,NA,30,25,27,101,101,125,125,21,22,/,/,0.2,0.3
2026-03-29T2000,2322A,119.1014,25.3215,莆田市,秀屿区政府,细颗粒物(PM2.5),54,NA,36,37,33,120,120,138,138,8,12,3,4,0.7,0.7
2026-03-29T2000,2392A,115.0312,35.7636,濮阳市,环保局,,36,36,33,18,17,110,110,126,126,18,14,6,6,0.6,0.6
2026-03-29T2000,3021A,115,35.7667,濮阳市,濮水河管理处,,49,49,37,18,15,110,110,136,134,30,24,8,8,0.5,0.5
2026-03-29T2000,4118A,115.0552,35.7816,濮阳市,中原东路68号,颗粒物(PM10),53,54,37,23,15,103,103,128,125,20,13,6,7,0.6,0.8
2026-03-29T2000,4216A,115.0923632,35.76857718,濮阳市,任丘路479号,颗粒物(PM10),51,51,41,22,16,113,113,136,135,28,19,6,6,0.3,0.4
2026-03-29T2000,2601A,100.9801,22.7634,普洱市,市环保局,颗粒物(PM10),63,67,100,41,52,127,127,130,130,10,9,7,7,0.6,0.8
2026-03-29T2000,2602A,100.9763,22.8237,普洱市,普洱第二中学,颗粒物(PM10),64,69,87,40,62,122,122,127,127,9,11,11,11,0.4,0.7
2026-03-29T2000,3345A,131.0413,45.7795,七台河市,中波台,细颗粒物(PM2.5),192,198,166,144,109,96,96,110,106,22,31,7,8,0.7,0.7
2026-03-29T2000,3637A,131.0136,45.7688,七台河市,人民广场,细颗粒物(PM2.5),176,232,155,133,97,81,81,118,111,27,35,12,11,1.0,0.9
2026-03-29T2000,3684A,130.8639,45.8144,七台河市,新建矿广场,细颗粒物(PM2.5),196,153,152,147,96,72,72,110,101,21,29,13,13,1.0,0.6
2026-03-29T2000,1779A,123.9307,47.3641,齐齐哈尔市,安居小区,,39,39,60,17,42,74,74,79,79,6,12,10,13,0.3,0.5
2026-03-29T2000,1780A,123.9497,47.3389,齐齐哈尔市,中心广场,NA,NA,NA,NA,NA,NA,NA,NA,NA,NA,NA,NA,NA,NA,NA,NA
2026-03-29T2000,1781A,123.9483,47.3229,齐齐哈尔市,农牧车辆厂,,31,31,62,11,45,74,74,79,79,6,14,6,8,0.1,0.2
2026-03-29T2000,1783A,123.9442,47.2994,齐齐哈尔市,市环境监测站,,40,40,63,3,46,76,76,81,81,6,13,2,4,0.4,0.6
2026-03-29T2000,3662A,123.6341,47.2079,齐齐哈尔市,富区青少年活动中心,颗粒物(PM10),59,62,71,18,36,69,69,82,81,15,10,7,4,0.5,0.4
2026-03-29T2000,2591A,107.9765,26.5724,黔东南苗族侗族自治州,市环境监测站,,26,21,24,18,17,74,74,63,63,9,10,2,2,0.6,0.6
2026-03-29T2000,2881A,107.8909,26.531,黔东南苗族侗族自治州,凯里学院,,24,24,24,12,17,76,76,64,64,8,10,3,3,0.7,0.7
2026-03-29T2000,2593A,107.5223,26.2371,黔南布依族苗族自治州,小围寨,,27,NA,20,15,13,84,84,74,74,5,5,4,5,0.6,0.6
2026-03-29T2000,3538A,107.5175,26.2977,黔南布依族苗族自治州,沙坝,,22,19,22,12,15,70,70,64,64,5,7,3,4,0.4,0.5
2026-03-29T2000,2589A,104.9022,25.0943,黔西南布依族苗族自治州,场坝街,,37,17,36,16,26,116,116,121,121,5,7,6,5,0.2,0.4
2026-03-29T2000,2590A,104.8812,25.0994,黔西南布依族苗族自治州,坪东大道,,36,25,35,14,28,114,114,118,118,5,8,5,5,0.4,0.7
2026-03-29T2000,2502A,108.6238,21.9667,钦州市,市环保站,,34,34,58,23,38,43,43,52,52,20,22,4,6,0.5,0.7
2026-03-29T2000,2503A,108.655,21.9481,钦州市,沙埠小学,,36,36,62,25,42,49,49,58,58,14,21,10,7,0.5,0.8
2026-03-29T2000,2504A,108.5989,21.7435,钦州市,港区一小,,43,43,59,25,31,61,61,70,70,13,20,2,4,0.6,0.7
2026-03-29T2000,3404A,108.5959,21.9634,钦州市,北职校,,33,29,53,23,42,58,58,55,55,5,20,4,6,0.6,0.9
2026-03-29T2000,1046A,119.5247,39.9346,秦皇岛市,建设大厦,,35,35,85,15,52,63,63,120,111,8,40,4,8,0.4,0.6
2026-03-29T2000,3132A,119.5979,39.938,秦皇岛市,文明里,,35,35,89,18,49,64,64,112,101,7,30,7,10,0.3,0.5
2026-03-29T2000,4066A,119.7458,39.9952,秦皇岛市,南园路157号,,19,NA,83,13,54,52,52,114,97,19,46,7,10,0.3,0.5
2026-03-29T2000,4067A,119.5131,39.8858,秦皇岛市,翠岛大街1号,,50,50,71,10,47,64,64,109,99,21,34,7,9,0.3,0.4
2026-03-29T2000,4198A,119.509013,39.825305,秦皇岛市,北戴河轮滑馆,,39,39,87,13,55,55,55,127,108,19,28,8,10,0.3,0.6
2026-03-29T2000,1310A,120.404,36.0625,青岛市,市南区东部子站,细颗粒物(PM2.5),108,95,72,68,46,101,101,107,97,7,15,10,11,0.6,0.5
2026-03-29T2000,1311A,120.362344,36.10282,青岛市,四方区子站,细颗粒物(PM2.5),110,97,79,70,50,108,108,123,118,20,20,7,7,0.8,0.7
2026-03-29T2000,1312A,120.294373,36.054183,青岛市,市南区西部子站,细颗粒物(PM2.5),107,83,67,67,47,96,96,95,90,20,26,4,5,0.6,0.6
2026-03-29T2000,1313A,120.4581,36.0858,青岛市,崂山区子站,细颗粒物(PM2.5),106,90,75,66,44,105,105,106,94,NA,33,8,9,0.5,0.6
2026-03-29T2000,1315A,120.3945,36.3083,青岛市,城阳区子站,颗粒物(PM10),65,70,85,33,46,126,126,146,143,22,18,7,7,0.6,0.7
2026-03-29T2000,3642A,120.3454,36.0735,青岛市,市北区南部,细颗粒物(PM2.5),100,78,67,60,41,106,106,119,110,12,12,3,4,1.0,0.9
2026-03-29T2000,3643A,120.3897,36.18,青岛市,李沧区北部,细颗粒物(PM2.5),101,88,81,61,45,105,105,124,121,27,23,9,10,0.6,0.6
2026-03-29T2000,4110A,120.5222,36.4089,青岛市,盟旺路653号,细颗粒物(PM2.5),68,72,74,44,46,120,120,137,134,11,10,3,4,0.7,0.8
2026-03-29T2000,4290A,120.196923,35.954556,青岛市,珠江路669号,细颗粒物(PM2.5),106,92,75,66,48,95,95,103,100,19,21,5,5,0.6,0.6
2026-03-29T2000,4291A,120.0424,35.8656,青岛市,黄岛区人民政府广场,细颗粒物(PM2.5),76,75,67,48,33,91,91,106,96,20,20,7,8,0.7,0.7
2026-03-29T2000,1703A,113.0218,23.7086,清远市,凤城街办,,27,14,37,11,31,84,84,44,44,13,32,/,/,/,/
2026-03-29T2000,3025A,113.0479,23.6343,清远市,技师学院,,25,18,40,10,24,78,78,52,52,14,30,4,5,0.2,0.4
2026-03-29T2000,3318A,112.9898,23.7403,清远市,清新太和,,28,18,40,12,28,87,87,53,53,14,27,6,6,0.5,0.6
2026-03-29T2000,3455A,113.076,23.72,清远市,清城东城,,28,15,46,9,29,89,89,48,48,10,26,/,/,/,/
2026-03-29T2000,2661A,107.6325,35.7357,庆阳市,庆阳五中,,48,48,46,24,19,108,108,116,115,12,12,1,2,0.3,0.3
2026-03-29T2000,2662A,107.6361,35.7067,庆阳市,市环保局,颗粒物(PM10),53,53,46,31,18,107,107,116,115,17,13,7,7,0.4,0.3
2026-03-29T2000,1916A,103.7897,25.5036,曲靖市,环境监测站,,33,32,49,8,27,103,103,122,118,8,9,4,4,0.5,0.7
2026-03-29T2000,1917A,103.8013,25.5357,曲靖市,烟厂办公区,,30,21,37,18,25,94,94,110,107,6,7,5,5,0.5,0.7
2026-03-29T2000,3376A,103.7926,25.4651,曲靖市,南苑二区,,29,12,33,7,27,91,91,109,103,11,11,4,4,0.5,0.7
2026-03-29T2000,3377A,103.7442,25.5259,曲靖市,曲靖师范学院,,31,24,36,16,30,98,98,118,113,9,8,3,2,0.4,0.6
2026-03-29T2000,1264A,118.8694,28.94,衢州市,环保大楼,,35,35,30,21,19,77,77,96,96,22,21,/,/,/,/
2026-03-29T2000,1266A,118.8622,28.9809,衢州市,衢州学院,,21,21,24,14,17,54,54,98,97,19,17,4,4,0.6,0.6
2026-03-29T2000,4097A,118.9646,28.9832,衢州市,衢州三中,,43,43,30,27,19,71,71,105,105,30,25,7,7,0.7,0.6
2026-03-29T2000,1611A,118.5818,24.9116,泉州市,涂山街,细颗粒物(PM2.5),52,44,39,36,33,88,88,120,118,26,23,4,4,0.7,0.7
2026-03-29T2000,1612A,118.597,24.8976,泉州市,津头埔,细颗粒物(PM2.5),52,43,40,36,35,97,97,126,124,20,20,4,3,0.6,0.7
2026-03-29T2000,1613A,118.6669,24.9422,泉州市,万安,,46,35,35,32,30,96,96,113,113,14,22,4,4,0.6,0.6
2026-03-29T2000,4105A,118.6355,24.9148,泉州市,霞新路6号,,43,35,35,30,30,91,91,115,115,20,22,/,/,0.5,0.6
2026-03-29T2000,2626A,88.8873,29.2723,日喀则市,日喀则监测站,,35,13,11,3,5,111,111,112,112,8,9,8,8,0.4,0.5
2026-03-29T2000,3726A,88.8775,29.2425,日喀则市,林业技术推广中心,,36,13,10,3,3,114,114,117,117,7,7,9,8,0.4,0.5
2026-03-29T2000,1659A,119.4711,35.421,日照市,监测站,颗粒物(PM10),60,63,106,30,71,70,70,103,96,40,54,8,10,0.6,0.8
2026-03-29T2000,1660A,119.523,35.4216,日照市,市政府广场,颗粒物(PM10),53,53,85,27,57,63,63,102,79,33,30,6,8,0.5,0.6
2026-03-29T2000,1661A,119.5511,35.4113,日照市,港务局,,46,46,84,16,48,58,58,90,70,30,33,5,6,0.5,0.6
2026-03-29T2000,3507A,119.5326,35.4627,日照市,职业技术学院,颗粒物(PM10),58,61,90,29,56,76,76,107,87,33,35,7,8,0.7,0.8
2026-03-29T2000,3604A,119.3267,35.1043,日照市,岚山环保分局,细颗粒物(PM2.5),90,95,103,55,55,151,151,118,118,25,37,14,16,0.7,0.8
2026-03-29T2000,1835A,111.1922,34.7752,三门峡市,市政府,颗粒物(PM10),63,68,63,37,34,81,81,114,111,26,26,11,10,0.7,0.5
2026-03-29T2000,1836A,111.1588,34.794,三门峡市,开发区,颗粒物(PM10),62,66,71,30,39,86,86,117,114,30,18,10,9,0.6,0.5
2026-03-29T2000,3039A,111.1911,34.7829,三门峡市,三门峡市第一小学,颗粒物(PM10),70,77,67,38,38,82,82,118,115,32,20,13,11,0.7,0.5
2026-03-29T2000,3598A,111.1031,34.719,三门峡市,富达温泉假日酒店,颗粒物(PM10),80,91,87,32,46,79,79,122,119,33,29,16,15,0.9,0.5
2026-03-29T2000,2324A,117.621,26.2626,三明市,三钢,,41,41,23,28,20,6,6,58,51,38,17,4,7,1.2,1.1
2026-03-29T2000,2325A,117.6352,26.2714,三明市,三明二中,,45,45,26,25,16,24,24,56,54,24,16,4,6,1.5,1.2
2026-03-29T2000,2326A,117.6028,26.2377,三明市,三元区政府,颗粒物(PM10),52,52,21,27,18,15,15,58,54,30,17,5,7,1.1,1.2
2026-03-29T2000,1877A,109.4962,18.2682,三亚市,河西子站,,22,22,23,14,16,37,37,45,41,4,6,4,4,0.4,0.5
2026-03-29T2000,3540A,109.7348,18.3443,三亚市,君悦子站,,20,15,21,14,14,36,36,50,47,7,8,4,4,0.4,0.5
2026-03-29T2000,4135A,109.1714,18.3739,三亚市,城东小学站,,21,21,25,12,17,38,38,46,41,4,6,/,/,/,/
2026-03-29T2000,2624A,91.7592,29.234,山南市,山南监测站,,34,6,5,6,2,106,106,118,118,8,3,9,9,0.3,0.4
2026-03-29T2000,2625A,91.7701,29.2436,山南市,山南人民医院,,38,7,7,3,2,119,119,120,120,1,3,7,7,0.2,0.2
2026-03-29T2000,1674A,116.6795,23.3666,汕头市,金平子站,,39,30,25,27,16,98,98,111,110,21,15,5,5,0.7,0.6
2026-03-29T2000,1675A,116.7248,23.3632,汕头市,龙湖子站,,39,36,25,27,17,86,86,100,99,29,14,6,5,/,/
2026-03-29T2000,1676A,116.7257,23.2774,汕头市,濠江子站,,39,NA,23,27,16,103,103,95,94,24,14,8,7,/,/
2026-03-29T2000,1677A,116.7518,23.4712,汕头市,澄海子站,,45,40,32,31,18,82,82,106,103,28,13,7,7,0.9,0.7
2026-03-29T2000,1678A,116.6088,23.2539,汕头市,潮阳子站,,39,37,26,27,18,108,108,111,111,10,8,6,6,0.6,0.5
2026-03-29T2000,3444A,116.4539,23.2684,汕头市,潮南峡山,细颗粒物(PM2.5),58,56,33,39,21,105,105,118,118,14,12,7,7,0.8,0.6
2026-03-29T2000,3624A,116.4069,23.2533,汕头市,潮南子站,颗粒物(PM10),53,53,43,30,22,82,82,110,107,13,10,6,7,/,/
2026-03-29T2000,1693A,115.3653,22.7751,汕尾市,市环保局,,29,26,28,16,22,91,91,94,94,6,8,5,5,0.5,0.5
2026-03-29T2000,1695A,115.362,22.7926,汕尾市,新城中学,,31,22,28,18,23,99,99,98,98,10,9,5,6,0.6,0.6
2026-03-29T2000,2645A,109.9155,33.8714,商洛市,监测站,,39,39,43,19,21,113,113,120,120,16,16,6,7,0.5,0.5
2026-03-29T2000,3045A,109.9647,33.8486,商洛市,商州区中学,,42,42,48,18,20,104,104,120,119,21,22,6,6,0.5,0.4
2026-03-29T2000,2408A,115.6701,34.4283,商丘市,环境监测站,颗粒物(PM10),75,84,83,42,47,102,102,143,135,25,16,4,4,0.4,0.4
2026-03-29T2000,2409A,115.6458,34.4047,商丘市,粮食局,细颗粒物(PM2.5),62,65,75,41,45,116,116,141,137,26,22,2,3,0.3,0.4
2026-03-29T2000,3171A,115.6069,34.4465,商丘市,梁园区档案局,颗粒物(PM10),70,77,70,33,48,122,122,146,144,19,19,3,4,0.5,0.5
2026-03-29T2000,4119A,115.6701,34.3767,商丘市,北海东路185号,颗粒物(PM10),69,76,89,40,45,123,123,144,140,17,24,5,5,0.4,0.4
2026-03-29T2000,4120A,115.6172,34.3704,商丘市,中山大街3号,颗粒物(PM10),70,78,96,38,52,123,123,138,136,15,25,5,6,0.3,0.3
2026-03-29T2000,1141A,121.401,31.2382,上海市,普陀,,44,44,53,27,33,116,116,145,139,22,24,5,6,0.6,0.5
2026-03-29T2000,1142A,121.4774,31.2043,上海市,十五厂,,50,50,56,33,33,114,114,147,137,21,26,5,6,0.6,0.8
2026-03-29T2000,1143A,121.4673,31.3011,上海市,虹口,,42,36,53,29,34,122,122,146,138,14,19,6,7,0.4,0.3
2026-03-29T2000,1147A,121.4253,31.226,上海市,静安监测站,,50,43,48,35,31,120,120,147,142,22,27,7,8,0.6,0.5
