timepoint,stationcode,longitude,latitude,area,positionname,primarypollutant,aqi,pm10,pm10_24h,pm2_5,pm2_5_24h,o3,o3_24h,o3_8h,o3_8h_24h,no2,no2_24h,so2,so2_24h,co,co_24h
2025-07-30T1800,2566A,102.1879,31.914,阿坝藏族羌族自治州,州农科所,,28,,16,19,9,80,,75,75,9,5,14,13,0.9,0.9
2025-07-30T1800,2568A,102.2502,31.8896,阿坝藏族羌族自治州,马师校,,,,16,9,14,100,,84,84,7,6,7,7,,0.6
2025-07-30T1800,3994A,102.2165,31.9024,阿坝藏族羌族自治州,马尔康中学西区,,32,11,14,10,11,100,,89,89,2,4,7,7,0.6,0.7
2025-07-30T1800,2695A,80.292,41.1694,阿克苏地区,电视台,,34,32,81,13,19,106,,117,115,3,6,1,3,0.6,0.6
2025-07-30T1800,2696A,80.2613,41.1551,阿克苏地区,艺术中心,,36,23,87,11,24,114,,122,122,1,3,3,3,0.4,0.4
2025-07-30T1800,2204A,105.6467,38.8363,阿拉善盟,西城区西花园,,,,15,26,10,,,108,108,10,8,9,9,0.4,0.7
2025-07-30T1800,2205A,105.6985,38.8411,阿拉善盟,蒙二幼,,48,36,17,7,6,153,,135,135,10,9,11,10,0.5,0.4
2025-07-30T1800,2206A,105.724,38.8516,阿拉善盟,环保局新楼,,49,21,19,11,7,155,,132,132,5,4,10,9,0.4,0.4
2025-07-30T1800,2708A,88.1264,47.8517,阿勒泰地区,市站,,35,28,31,3,7,112,,106,106,8,10,1,2,0.4,0.5
2025-07-30T1800,2630A,80.1161,32.5,阿里地区,阿里监测站,,34,6,5,3,2,106,,101,101,4,5,5,6,0.1,0.1
2025-07-30T1800,3192A,80.0903,32.5028,阿里地区,阿里藏医院,,35,6,5,3,1,111,,105,105,1,3,7,7,0.1,0.1
2025-07-30T1800,2642A,109.0318,32.6537,安康市,香溪洞,,35,35,19,15,11,112,,102,102,3,5,7,7,0.4,0.4
2025-07-30T1800,2644A,109.0072,32.6975,安康市,汉滨区检察院,,,42,23,29,18,107,,102,102,,8,4,4,0.3,0.2
2025-07-30T1800,4054A,109.0325,32.6913,安康市,市邮政管理局,,33,23,23,15,14,103,,98,98,3,8,4,5,0.4,0.5
2025-07-30T1800,2291A,117.0809,30.5177,安庆市,环科院,,21,7,24,6,15,65,,67,66,2,5,4,6,0.4,0.5
2025-07-30T1800,2292A,117.0331,30.5119,安庆市,马山宾馆,,20,16,23,3,11,61,,62,61,1,4,3,4,0.0,0.2
2025-07-30T1800,2294A,116.9896,30.6145,安庆市,安庆大学,,22,19,22,3,14,68,,69,68,3,6,4,5,0.2,0.3
2025-07-30T1800,3173A,117.0598,30.5351,安庆市,市人大,,20,12,22,3,12,64,,67,66,5,8,4,5,0.2,0.4
2025-07-30T1800,3122A,105.9606,26.2611,安顺市,伍家关,,29,15,24,6,14,91,,108,108,10,14,5,4,0.6,0.7
2025-07-30T1800,3123A,105.9408,26.2431,安顺市,凤凰山,,31,27,36,15,22,97,,117,114,11,24,7,11,0.5,0.6
2025-07-30T1800,3124A,105.9439,26.2564,安顺市,金钟山,,31,23,25,16,20,99,,113,113,9,13,10,7,0.6,0.6
2025-07-30T1800,3125A,105.8983,26.2481,安顺市,娄家坡,,28,22,23,15,17,87,,109,109,15,12,9,7,0.5,0.5
2025-07-30T1800,1818A,114.4839,36.0621,安阳市,棉研所,,,,,,,,,,,,,,,,
2025-07-30T1800,1819A,114.3551,36.1017,安阳市,红庙街,,47,22,35,11,13,149,,150,150,6,15,3,5,0.4,0.6
2025-07-30T1800,1820A,114.361,36.0681,安阳市,银杏小区,,48,27,33,14,15,153,,152,152,5,12,4,5,0.3,0.4
2025-07-30T1800,3141A,114.3922,36.0878,安阳市,信访局,,49,26,33,10,11,156,,154,154,6,14,5,6,0.5,0.5
2025-07-30T1800,3669A,114.4705,36.0637,安阳市,左辅环卫站,,49,36,35,15,16,155,,151,151,7,13,6,7,0.6,0.6
2025-07-30T1800,3703A,114.2917,36.0949,安阳市,安钢职工学校,,45,33,41,12,17,144,,148,148,6,13,4,6,0.3,0.5
2025-07-30T1800,1748A,123.044,41.1196,鞍山市,深沟寺,,24,13,13,9,5,75,,104,94,4,6,6,6,0.8,0.7
2025-07-30T1800,1749A,123.011,41.0931,鞍山市,太阳城,,34,20,13,16,8,108,,113,113,9,9,5,6,0.7,0.8
2025-07-30T1800,1750A,123.0485,41.1442,鞍山市,太平,,38,28,14,18,6,121,,125,125,10,10,6,6,1.0,0.8
2025-07-30T1800,1751A,122.9642,41.0971,鞍山市,铁西三道街,,33,26,19,14,11,104,,106,106,21,19,15,14,1.4,1.5
2025-07-30T1800,1753A,123.022,41.0821,鞍山市,明达新区,,31,13,10,8,4,99,,114,113,12,9,7,8,0.7,0.8
2025-07-30T1800,1754A,123.1289,41.0228,鞍山市,千山,,,,,,,,,,,,,,,,
2025-07-30T1800,4201A,122.9446,41.0826,鞍山市,兴盛南路290号,,34,32,19,14,9,106,,114,114,27,24,14,15,1.2,1.2
2025-07-30T1800,2195A,107.4212,40.761,巴彦淖尔市,附二中,,43,43,26,23,14,136,,130,130,10,10,6,7,0.6,0.5
2025-07-30T1800,2196A,107.37,40.7372,巴彦淖尔市,市环保大楼,,41,32,27,15,12,130,,124,124,12,9,7,8,0.5,0.4
2025-07-30T1800,1956A,86.1472,41.7538,巴音郭楞蒙古自治州,孔雀公园,颗粒物(PM10),75,100,118,35,42,102,,98,98,2,14,4,4,0.2,0.2
2025-07-30T1800,1957A,86.1972,41.7166,巴音郭楞蒙古自治州,棉纺厂,颗粒物(PM10),102,154,155,41,39,118,,103,103,2,4,6,4,0.2,0.2
2025-07-30T1800,1958A,86.2357,41.7173,巴音郭楞蒙古自治州,经济开发区,颗粒物(PM10),75,100,111,22,34,112,,100,100,6,4,4,3,0.1,0.1
2025-07-30T1800,2914A,106.7677,31.8794,巴中市,苏山坪,,35,21,18,14,13,110,,101,101,5,7,4,4,0.4,0.5
2025-07-30T1800,3181A,106.7768,31.8526,巴中市,市五中,,35,24,26,16,15,112,,106,106,4,11,9,9,0.5,0.6
2025-07-30T1800,3183A,106.7418,31.8654,巴中市,圣泉水务公司,,36,17,19,17,16,115,,113,113,2,8,8,7,0.5,0.6
2025-07-30T1800,3616A,106.7616,31.8344,巴中市,市中心医院,,35,21,31,18,16,109,,105,105,4,13,9,9,0.3,0.4
2025-07-30T1800,2235A,122.7911,45.6077,白城市,洮北区环保局,,21,6,11,6,10,65,,72,72,3,2,6,4,0.4,0.3
2025-07-30T1800,2236A,122.8738,45.5725,白城市,市环保局,,,14,8,,5,64,,71,70,2,2,2,4,0.3,0.3
2025-07-30T1800,2231A,126.4219,41.9171,白山市,喜丰,,23,23,27,14,7,47,,60,59,8,12,7,6,1.2,0.9
2025-07-30T1800,2232A,126.4077,41.9419,白山市,环保局,,23,23,16,3,6,52,,66,65,14,9,8,6,2.0,1
2025-07-30T1800,2647A,104.1724,36.5446,白银市,第三小学,,43,23,34,7,18,135,,128,128,8,17,28,25,0,0.5
2025-07-30T1800,2648A,104.1465,36.5482,白银市,动力公司,,38,13,29,7,19,119,,120,120,9,17,17,11,0.4,0.4
2025-07-30T1800,2512A,106.6103,23.9011,百色市,市监测站,颗粒物(PM10),51,52,29,18,13,85,,108,108,7,12,5,5,0.6,0.6
2025-07-30T1800,2513A,106.6538,23.8859,百色市,市中心血站,颗粒物(PM10),72,94,41,36,23,88,,122,122,14,23,6,4,0.6,0.7
2025-07-30T1800,3406A,106.6085,23.8798,百色市,祈福高中,颗粒物(PM10),75,100,35,20,19,89,,106,106,10,15,5,6,0.5,0.6
2025-07-30T1800,2270A,117.396,32.939,蚌埠市,工人疗养院,,20,17,25,3,9,62,,74,74,2,10,4,5,0.2,0.2
2025-07-30T1800,2271A,117.3605,32.9427,蚌埠市,百货大楼,,25,25,21,9,10,58,,71,71,3,10,6,6,0.3,0.3
2025-07-30T1800,2273A,117.4185,32.8911,蚌埠市,蚌埠学院,,17,17,18,3,11,41,,65,64,21,18,6,7,0.2,0.2
2025-07-30T1800,2274A,117.3533,32.9673,蚌埠市,淮上区政府,,22,22,24,3,12,61,,77,77,7,12,5,6,0.3,0.4
2025-07-30T1800,2275A,117.3145,32.8977,蚌埠市,高新区,,20,19,21,3,8,64,,65,65,4,15,6,6,0.3,0.3
2025-07-30T1800,3715A,117.3092,32.9314,蚌埠市,蚌埠田家炳中学,,39,39,24,8,13,64,,67,67,4,13,8,8,0.2,0.2
2025-07-30T1800,1585A,109.8756,40.6532,包头市,市环境监测站,,40,17,18,12,9,125,,117,117,19,19,15,7,0.5,0.4
2025-07-30T1800,1587A,109.9991,40.5842,包头市,包头八中,,38,20,26,7,10,121,,108,108,15,25,18,6,0.5,0.6
2025-07-30T1800,1588A,109.8538,40.6821,包头市,青山宾馆,,41,11,14,6,6,130,,114,114,16,20,12,6,0.6,0.5
2025-07-30T1800,1589A,109.8642,40.6288,包头市,惠龙物流,,36,17,17,3,10,114,,108,108,10,17,8,6,0.5,0.5
2025-07-30T1800,1590A,110.0377,40.5546,包头市,东河鸿龙湾,,42,14,22,8,7,133,,119,119,7,17,4,5,0.5,0.6
2025-07-30T1800,3283A,109.9154,40.5685,包头市,滨河大厦,,40,11,14,3,8,125,,114,114,8,23,4,5,0.4,0.5
2025-07-30T1800,3419A,109.9447,40.6261,包头市,包头市委党校,,40,,13,8,6,125,,114,114,16,22,16,8,0.6,0.4
2025-07-30T1800,3683A,109.8331,40.6576,包头市,昆区政府,,41,13,16,12,8,129,,117,117,14,15,12,4,0.6,0.5
2025-07-30T1800,1930A,107.185,34.3063,宝鸡市,庙沟村,臭氧1小时,65,35,24,16,11,172,,152,152,9,9,4,3,0.4,0.4
2025-07-30T1800,1931A,107.0708,34.3017,宝鸡市,竹园沟,臭氧1小时,79,44,28,28,18,183,,156,156,8,9,9,8,1.3,1.1
2025-07-30T1800,1932A,107.1906,34.3672,宝鸡市,三陆医院,臭氧1小时,68,44,32,36,16,174,,155,155,12,19,8,8,0.5,0.5
2025-07-30T1800,1933A,107.1431,34.3547,宝鸡市,监测站,臭氧1小时,70,65,29,22,16,176,,154,154,9,10,9,8,0.4,0.4
2025-07-30T1800,1934A,107.1186,34.3739,宝鸡市,技工学校,臭氧1小时,70,42,28,20,16,176,,156,156,10,11,7,6,0.5,0.5
2025-07-30T1800,1936A,107.2058,34.3497,宝鸡市,文理学院,臭氧1小时,78,39,31,20,14,182,,160,160,8,11,8,7,0.5,0.5
2025-07-30T1800,1937A,107.2386,34.3622,宝鸡市,三迪小学,臭氧1小时,72,49,33,21,18,177,,157,157,12,17,8,8,0.5,0.5
2025-07-30T1800,4308A,107.3898,34.3601,宝鸡市,陈仓区北开路21号,臭氧1小时,92,34,21,20,15,193,,172,172,6,11,8,20,0.4,0.4
2025-07-30T1800,1051A,115.493,38.8632,保定市,游泳馆,,45,19,21,3,6,143,,133,133,5,11,1,2,0.1,0.2
2025-07-30T1800,1052A,115.5213,38.8959,保定市,华电二区,,47,16,23,3,8,148,,135,135,7,17,3,2,0.2,0
2025-07-30T1800,1053A,115.4713,38.9108,保定市,接待中心,,43,26,20,3,4,136,,131,131,4,13,3,3,0.2,0.3
2025-07-30T1800,1054A,115.4612,38.8416,保定市,地表水厂,,46,27,32,8,6,145,,130,130,3,15,2,2,0.2,0.3
2025-07-30T1800,3581A,115.31981,38.95208,保定市,满城区生态环境分局,,46,22,21,3,6,146,,140,140,10,17,2,2,0.1,0.1
2025-07-30T1800,3582A,115.47694,38.76408,保定市,清苑区第二中学,,,26,36,17,21,160,,137,137,3,18,,4,0.3,0.2
2025-07-30T1800,3583A,115.62909,39.02311,保定市,徐水物探局,,44,24,24,3,1,140,,126,126,3,16,4,4,0.3,0.3
2025-07-30T1800,4004A,115.4202,38.8656,保定市,双鹰农机,,47,26,24,3,8,149,,136,136,5,15,2,2,0.1,0.1
2025-07-30T1800,4034A,115.5150,38.8590,保定市,植保所站,,49,38,27,10,8,155,,145,145,8,14,3,3,0.2,0.2
2025-07-30T1800,2594A,99.1678,25.1081,保山市,市环境监测站,,23,,18,16,15,64,,62,62,4,7,6,7,0.3,0.3
2025-07-30T1800,2595A,99.1711,25.1328,保山市,市环保局,,21,19,22,3,9,66,,62,62,3,4,4,5,0.4,0.4
2025-07-30T1800,1866A,109.2262,21.588,北海市,牛尾岭水库,,28,17,13,3,5,87,,93,93,3,3,2,2,0.4,0.7
2025-07-30T1800,1867A,109.1436,21.4086,北海市,海滩公园,,46,46,39,3,4,76,,69,69,3,3,3,2,0.7,0.6
2025-07-30T1800,1868A,109.0981,21.4661,北海市,新市环保局,,24,17,18,7,10,76,,65,65,4,5,2,2,0.4,0.4
2025-07-30T1800,1869A,109.1778,21.5233,北海市,北海工业园,,,32,22,12,8,66,,68,68,6,6,,3,0.4,0.4
2025-07-30T1800,3400A,109.1911,21.4415,北海市,龙潭自来水厂,,22,14,17,10,7,69,,64,64,4,4,5,5,0.5,0.5
2025-07-30T1800,1001A,116.3621,39.8784,北京市,万寿西宫,,48,11,11,8,6,151,,125,125,17,21,3,2,0.4,0.4
2025-07-30T1800,1002A,116.2202,40.2915,北京市,定陵,,38,8,9,3,5,121,,103,103,3,2,11,11,0.3,0.3
2025-07-30T1800,1003A,116.4174,39.9289,北京市,东四,,46,10,13,3,6,147,,128,128,12,17,3,3,0.3,0.4
2025-07-30T1800,1004A,116.4072,39.8863,北京市,天坛,,45,14,10,7,5,143,,120,120,16,13,1,1,0.3,0.4
2025-07-30T1800,1005A,116.462,39.9365,北京市,农展馆,,39,10,12,3,7,122,,109,109,11,13,3,3,0.1,0.3
2025-07-30T1800,1006A,116.3392,39.9295,北京市,官园,,46,16,12,7,8,145,,116,116,16,21,3,3,0.1,0.1
2025-07-30T1800,1007A,116.2878,39.9611,北京市,海淀万柳,,40,12,12,3,5,127,,104,104,9,18,3,3,0.2,0.3
2025-07-30T1800,1008A,116.6636,40.135,北京市,顺义新城,,,,,,,,,,,,,,,,
2025-07-30T1800,1009A,116.6275,40.3275,北京市,怀柔镇,,34,7,10,3,5,106,,91,91,16,12,1,2,0.1,0.2
2025-07-30T1800,1010A,116.2296,40.217,北京市,昌平镇,,37,9,10,3,5,118,,98,98,8,9,4,3,0.3,0.3
2025-07-30T1800,1011A,116.3966,39.9821,北京市,奥体中心,,,9,12,3,5,92,,76,76,11,14,3,4,,0.2
2025-07-30T1800,3281A,115.9718,40.4529,北京市,延庆夏都,,33,7,12,3,7,103,,90,90,6,10,2,2,0.4,0.5
2025-07-30T1800,3418A,116.8336,40.4095,北京市,密云新城,,23,7,10,3,5,72,,68,68,7,4,1,2,0.3,0.3
2025-07-30T1800,3671A,116.088,39.9726,北京市,门头沟三家店,,32,12,13,6,5,101,,101,101,5,5,2,2,0.2,0.3
2025-07-30T1800,3672A,116.1541,39.8204,北京市,丰台云岗,,44,12,12,12,6,140,,116,116,9,11,3,2,0.4,0.4
2025-07-30T1800,3673A,116.6804,39.9081,北京市,通州东关,,36,10,14,3,8,114,,102,102,20,24,5,5,0.2,0.4
2025-07-30T1800,3674A,115.9577,39.7603,北京市,房山燕山,,37,17,12,7,6,117,,95,95,13,7,2,1,0.2,0.3
2025-07-30T1800,3675A,116.4672,39.7733,北京市,大兴旧宫,,41,12,10,8,6,131,,116,116,10,15,2,2,0.4,0.5
2025-07-30T1800,3694A,115.986,40.4563,北京市,延庆石河营,,28,6,8,3,6,88,,80,80,5,10,3,2,0.2,0.3
2025-07-30T1800,3695A,116.6151,40.3053,北京市,怀柔新城,,27,11,12,6,6,84,,74,74,7,4,2,1,0.4,0.5
2025-07-30T1800,3696A,116.2545,39.8768,北京市,丰台小屯,,44,19,15,8,8,139,,114,114,7,13,2,1,0.4,0.4
2025-07-30T1800,3697A,116.84,40.3844,北京市,密云镇,,26,,10,9,5,82,,73,73,9,7,4,3,0.4,0.5
2025-07-30T1800,4182A,116.1942,39.9158,北京市,八角北路9号,臭氧1小时,53,16,15,9,7,162,,118,118,18,25,3,2,0.3,0.1
2025-07-30T1800,4194A,117.0790,40.1518,北京市,洳河巡河路,,16,,12,7,6,51,,76,76,8,6,3,2,0.1,0.3
2025-07-30T1800,1761A,123.8275,41.3064,本溪市,大峪,,33,11,13,9,8,104,,139,139,6,8,5,5,0.4,0.6
2025-07-30T1800,1762A,123.7567,41.3325,本溪市,溪湖,,49,24,17,10,6,156,,136,136,6,7,9,7,0.8,1.1
2025-07-30T1800,1763A,123.7169,41.3094,本溪市,彩屯,,44,19,17,14,11,138,,129,129,13,15,9,8,0.6,1.2
2025-07-30T1800,1764A,123.7669,41.2864,本溪市,东明,,43,31,20,14,10,136,,136,136,14,13,4,4,0.6,0.9
2025-07-30T1800,1765A,123.7992,41.2664,本溪市,新立屯,,,26,15,3,8,76,,126,125,,11,4,4,0.8,0.9
2025-07-30T1800,1766A,123.8142,41.3472,本溪市,威宁,,42,25,15,10,7,134,,123,123,8,8,8,7,0.5,0.6
2025-07-30T1800,2587A,105.2864,27.3125,毕节市,八中,,33,29,33,18,24,104,,104,104,9,13,4,4,0.4,0.4
2025-07-30T1800,2588A,105.31,27.2944,毕节市,师专,,36,29,36,14,20,113,,113,113,6,12,4,4,0.5,0.5
2025-07-30T1800,4263A,105.3688,27.3598,毕节市,工业大道,,35,25,30,15,18,111,,116,116,8,16,6,6,0.7,0.7
2025-07-30T1800,1629A,118.0018,37.3617,滨州市,第二水厂,,37,22,21,14,17,118,,124,124,4,7,3,3,0.5,0.6
2025-07-30T1800,1630A,117.9776,37.393,滨州市,北中新校,,38,24,27,17,15,120,,123,123,8,14,3,3,0.3,0.4
2025-07-30T1800,3514A,117.9378,37.3956,滨州市,中海酒店,,38,24,21,14,20,121,,123,123,2,12,8,8,0.4,0.4
2025-07-30T1800,3515A,117.9378,37.3553,滨州市,开发区一中,,40,34,23,7,14,126,,131,131,7,12,5,5,0.4,0.5
2025-07-30T1800,3516A,118.0917,37.694,滨州市,金海六路,,37,7,15,3,10,117,,136,117,2,9,8,9,0.1,0.2
2025-07-30T1800,4028A,117.9956,37.3753,滨州市,滨州市西街道办事处,,42,17,17,17,16,132,,136,136,4,8,1,2,0.2,0.3
2025-07-30T1800,2311A,115.8072,33.8399,亳州市,污水处理厂,,44,21,16,15,15,140,,129,129,4,9,1,7,0.5,0.5
2025-07-30T1800,2312A,115.7789,33.8518,亳州市,三国揽胜宫,,45,29,25,18,9,142,,128,128,4,7,5,9,0.6,0.6
2025-07-30T1800,3332A,115.7633,33.8034,亳州市,亳州学院,,43,23,15,12,13,136,,124,124,4,6,2,3,0.5,0.4
2025-07-30T1800,2693A,82.0485,44.8556,博尔塔拉蒙古自治州,市党校,,,38,32,35,20,93,,99,99,23,11,,4,0.4,0.3
2025-07-30T1800,2694A,82.0806,44.8969,博尔塔拉蒙古自治州,市环保局,,47,47,39,27,17,95,,102,102,9,7,5,5,0.4,0.5
2025-07-30T1800,1071A,116.8842,38.2991,沧州市,沧县城建局,,45,40,33,22,18,141,,155,155,8,13,1,5,0.3,0.9
2025-07-30T1800,1072A,116.8584,38.3254,沧州市,电视转播站,,43,27,33,9,18,135,,139,139,7,14,3,4,0.3,0.5
2025-07-30T1800,1073A,116.8709,38.3228,沧州市,市环保局,,45,30,37,13,20,141,,153,153,4,10,1,3,0.3,0.5
2025-07-30T1800,3324A,116.8136,38.3004,沧州市,河北水利电力学院,,49,12,19,10,19,155,,160,160,4,8,2,4,0.3,0.5
2025-07-30T1800,2622A,97.1806,31.1273,昌都市,昌都监测站,,31,8,7,3,6,98,,90,90,2,3,4,4,0.1,0.3
2025-07-30T1800,3719A,97.1714,31.1406,昌都市,昌都会议中心,,30,16,12,6,6,95,,96,96,7,4,5,5,0.2,0.1
2025-07-30T1800,2690A,88.1236,43.8886,昌吉回族自治州,天山天池,颗粒物(PM10),51,52,33,19,16,138,,128,128,6,7,7,5,0.7,0.6
2025-07-30T1800,2692A,87.2717,44.0297,昌吉回族自治州,新区政务中心,,,18,37,12,17,117,,120,120,2,10,,8,0.2,0.3
2025-07-30T1800,3613A,87.3095,44.0142,昌吉回族自治州,亚心广场,,35,31,50,9,15,110,,113,113,5,16,7,8,0.2,0.3
2025-07-30T1800,1120A,125.2863,43.9027,长春市,客车厂,,26,12,14,6,7,82,,78,78,12,15,3,3,0.2,0.3
2025-07-30T1800,1121A,125.2841,43.8463,长春市,邮电学院,,28,10,11,9,8,87,,81,81,7,10,5,4,0.3,0.4
2025-07-30T1800,1122A,125.3716,43.8772,长春市,劳动公园,,26,16,16,3,8,82,,79,79,11,14,6,6,0.5,0.5
2025-07-30T1800,1123A,125.3297,43.8805,长春市,园林处,,24,10,13,3,7,75,,72,72,9,11,3,3,0.4,0.3
2025-07-30T1800,1124A,125.4605,43.79,长春市,净月潭,,23,9,14,3,5,73,,73,73,5,6,4,4,0.2,0.3
2025-07-30T1800,1125A,125.7194,43.515,长春市,甩湾子,,23,14,11,3,4,71,,75,75,7,7,1,2,0.4,0.5
2025-07-30T1800,1126A,125.3863,43.8447,长春市,经开区环卫处,,25,16,15,3,6,79,,77,77,10,12,3,2,0.2,0.3
2025-07-30T1800,1127A,125.245,43.7783,长春市,高新区管委会,,26,6,12,3,6,82,,80,80,5,10,3,3,0.3,0.4
2025-07-30T1800,1128A,125.1761,43.8325,长春市,岱山公园,,24,6,11,3,6,76,,73,73,9,15,3,3,0.2,0.3
2025-07-30T1800,4281A,125.3346,43.9164,长春市,北亚泰大街1068号,,24,10,13,6,7,76,,75,75,11,16,5,5,0.2,0.4
2025-07-30T1800,1335A,113.0833,28.2325,长沙市,经开区环保局,,26,17,21,3,12,82,,92,92,15,14,4,4,0.4,0.4
2025-07-30T1800,1336A,112.8872,28.2189,长沙市,高开区环保局,,,18,33,8,16,75,,83,83,12,15,4,4,,0.5
2025-07-30T1800,1337A,113.0792,28.2053,长沙市,马坡岭,,,12,24,9,12,91,,99,99,,12,,3,0.4,0.3
2025-07-30T1800,1338A,112.9394,28.19,长沙市,湖南师范大学,,26,16,29,10,17,81,,85,85,3,11,2,2,0.5,0.5
2025-07-30T1800,1339A,113.0178,28.1322,长沙市,雨花区环保局,,29,,26,11,12,91,,95,95,9,13,4,4,0.5,0.5
2025-07-30T1800,1340A,112.9792,28.2597,长沙市,伍家岭,,26,20,27,10,12,82,,85,85,10,14,1,1,0.3,0.2
2025-07-30T1800,1341A,113.0014,28.1944,长沙市,火车新站,,27,12,26,7,8,85,,86,86,8,12,5,5,0.6,0.6
2025-07-30T1800,1342A,112.9844,28.1178,长沙市,天心区环保局,,30,15,25,9,15,93,,94,94,9,15,2,3,0.3,0.3
2025-07-30T1800,1343A,112.8908,28.1308,长沙市,湖南中医药大学,,20,20,30,11,19,64,,88,86,10,15,2,3,0.5,0.5
2025-07-30T1800,1344A,112.9581,28.3611,长沙市,沙坪,,24,20,32,10,14,74,,80,80,8,10,5,5,0.5,0.5
2025-07-30T1800,1727A,113.1147,36.1547,长治市,清华站,,45,22,35,12,17,143,,155,155,8,13,7,8,0.6,0.9
2025-07-30T1800,1730A,113.0886,36.2125,长治市,审计局,,,22,30,17,17,149,,156,156,,2,6,6,0.8,0.9
2025-07-30T1800,1731A,113.0844,36.1856,长治市,长治八中,,,22,40,14,26,143,,156,156,7,11,8,9,,0.9
2025-07-30T1800,2845A,113.1569,36.1911,长治市,德盛苑,,45,25,31,14,14,144,,142,142,6,7,7,7,0.9,1.2
2025-07-30T1800,3568A,113.06,36.0464,长治市,向阳小学,颗粒物(PM10),64,78,64,20,22,139,,144,143,9,10,11,9,0.8,1
2025-07-30T1800,3569A,112.8792,36.3144,长治市,屯留一中,臭氧1小时,53,,62,34,28,162,,152,152,10,15,14,11,0.4,0.4
2025-07-30T1800,4189A,113.1131,36.19948,长治市,英华南巷50号,,44,27,38,7,19,139,,148,148,7,11,7,7,0.9,1.4
2025-07-30T1800,4190A,113.2367,36.3344,长治市,学府街1号,臭氧1小时,55,32,35,7,19,164,,139,139,11,23,7,5,0.6,0.7
2025-07-30T1800,1854A,111.6975,28.9703,常德市,市二中,,36,26,28,11,19,114,,119,119,3,10,4,3,0.5,0.6
2025-07-30T1800,1857A,111.7158,29.1456,常德市,白鹤山,,,,,,,,,,,,,,,,
2025-07-30T1800,3138A,111.7153,29.0289,常德市,武陵区永安,,30,21,32,12,20,95,,114,113,12,9,3,4,0.3,0.4
2025-07-30T1800,3139A,111.6892,28.9881,常德市,鼎城区玉霞,,34,17,29,13,21,106,,112,112,2,10,2,1,0.3,0.4
2025-07-30T1800,3140A,111.6625,29.0531,常德市,武陵区长庚,,35,,28,13,21,109,,115,114,4,7,3,3,0.3,0.4
2025-07-30T1800,1196A,119.9633,31.762,常州市,市监测站,,12,6,12,3,5,37,,38,38,4,6,7,8,0.3,0.3
2025-07-30T1800,1200A,119.9468,31.7069,常州市,武进监测站,,12,6,15,3,5,36,,39,39,3,5,11,12,0.7,0.7
2025-07-30T1800,1201A,119.9255,31.9087,常州市,安家,,,20,18,,5,45,,42,42,2,8,7,8,0.6,0.6
2025-07-30T1800,3002A,119.9805,31.8174,常州市,行政中心,,12,8,14,3,5,36,,36,36,6,7,11,10,0.3,0.3
2025-07-30T1800,3003A,120.0522,31.7748,常州市,经开区,,12,6,16,3,3,38,,37,37,4,7,4,4,0.1,0.1
2025-07-30T1800,3010A,119.9025,31.7964,常州市,钟楼,,14,6,17,3,3,43,,42,42,5,6,5,6,0.5,0.6
2025-07-30T1800,3429A,119.8598,31.7066,常州市,武进经发区,,11,6,11,3,7,33,,35,35,4,5,5,6,0.6,0.6
2025-07-30T1800,3430A,119.5826,31.7245,常州市,金坛城区,,13,6,13,3,8,40,,34,34,5,7,7,8,0.2,0.2
2025-07-30T1800,2220A,120.4318,41.5881,朝阳市,西梁,,31,13,18,8,10,99,,94,94,8,12,5,5,0.3,0.6
2025-07-30T1800,2221A,120.4521,41.5646,朝阳市,河畔小区,,30,10,15,3,4,95,,99,99,8,11,5,5,0.4,0.5
2025-07-30T1800,2222A,120.4176,41.5648,朝阳市,八里堡,,35,25,18,7,7,111,,102,102,11,11,4,3,0.5,0.5
2025-07-30T1800,2223A,120.3806,41.5969,朝阳市,农业园区,,31,14,16,3,5,97,,91,91,9,13,6,5,0.4,0.4
2025-07-30T1800,1705A,116.6367,23.6719,潮州市,西园路,,36,,34,25,15,76,,29,,9,11,8,4,0.5,0.4
2025-07-30T1800,3026A,116.6183,23.6608,潮州市,市政府,,42,42,44,18,15,82,,86,86,15,22,14,20,0.5,0.8
2025-07-30T1800,4036A,116.6461,23.6761,潮州市,金山,,33,33,28,18,14,91,,84,84,9,9,8,5,0.6,0.6
2025-07-30T1800,2472A,113.0073,25.9061,郴州市,马头岭,,19,15,27,11,8,58,,59,59,8,11,5,5,0.4,0.4
2025-07-30T1800,2473A,113.0116,25.8226,郴州市,市职中,,19,16,22,12,14,60,,6,,6,10,4,4,0.6,0.6
2025-07-30T1800,2475A,113.0383,25.8071,郴州市,市审计局,,20,16,21,12,13,61,,65,65,4,7,4,4,0.2,0.3
2025-07-30T1800,2476A,113.0348,25.7759,郴州市,市环保局,,19,18,22,11,11,60,,60,60,4,9,2,3,0.3,0.3
2025-07-30T1800,4252A,113.0138,25.8011,郴州市,好美居路49号,,22,15,23,8,12,69,,69,69,7,12,1,2,0.5,0.4
2025-07-30T1800,1431A,103.9728,30.7236,成都市,金泉两河,臭氧1小时,124,,25,32,10,248,,213,213,25,18,3,3,0.5,0.5
2025-07-30T1800,1432A,104.176,30.6872,成都市,十里店,臭氧1小时,125,40,33,28,16,250,,213,213,10,24,4,5,0.5,0.6
2025-07-30T1800,1433A,104.079,30.5706,成都市,三瓦窑,臭氧1小时,108,27,32,24,20,216,,201,201,11,38,3,3,0.4,0.6
2025-07-30T1800,1434A,104.1114,30.63,成都市,沙河铺,臭氧1小时,53,44,35,34,19,162,,153,153,10,19,7,6,0.6,0.6
2025-07-30T1800,1437A,104.0786,30.6531,成都市,君平街,臭氧1小时,119,41,37,21,20,237,,221,221,12,27,6,5,0.3,0.6
2025-07-30T1800,1438A,103.613,31.0283,成都市,灵岩寺,,,,,,,,,,,,,,,,
2025-07-30T1800,2880A,104.0239,30.65639,成都市,大石西路,臭氧1小时,103,,27,34,19,205,,183,183,12,25,4,4,0.5,0.7
2025-07-30T1800,3136A,104.2725,30.5589,成都市,龙泉驿区区政府,臭氧1小时,62,24,18,12,10,169,,161,161,12,15,4,5,0.6,0.6
2025-07-30T1800,3357A,104.0106,30.6931,成都市,金博路,臭氧1小时,121,37,21,17,9,241,,206,206,12,23,5,5,0.7,0.7
2025-07-30T1800,3359A,104.0578,30.5225,成都市,华阳,,,,29,,23,200,,185,185,10,22,3,3,0.5,0.7
2025-07-30T1800,3488A,104.3853,30.7453,成都市,青白江技师分院,臭氧1小时,120,28,34,16,18,240,,193,193,9,28,7,6,0.6,0.6
2025-07-30T1800,3489A,104.0789,30.4072,成都市,科学城,臭氧1小时,94,29,25,21,18,195,,168,168,5,14,2,3,0.5,0.5
2025-07-30T1800,4011A,103.8506,30.6947,成都市,光华大道三段,臭氧1小时,123,40,25,21,11,245,,205,205,12,17,5,6,0.6,0.6
2025-07-30T1800,4224A,104.2433,30.5353,成都市,鲸龙路1057号,臭氧1小时,75,30,34,19,21,180,,167,167,7,22,7,7,0.6,0.7
2025-07-30T1800,1062A,117.9531,40.9081,承德市,铁路,,34,30,23,7,8,108,,90,90,3,7,4,3,0.3,0.4
2025-07-30T1800,1063A,117.9392,40.9763,承德市,中国银行,,35,21,20,3,7,112,,96,96,4,5,2,2,0.1,0.2
2025-07-30T1800,1064A,117.9503,40.928,承德市,开发区,,35,25,28,6,11,109,,99,99,7,8,5,5,0.3,0.4
2025-07-30T1800,1066A,117.9268,41.0026,承德市,离宫,,42,42,26,16,16,53,,82,82,4,4,2,3,0.2,0.2
2025-07-30T1800,4274A,117.7994,40.9605,承德市,滨河大街98号,,,,13,,6,,,58,,,8,,5,,0.3
2025-07-30T1800,2314A,117.47,30.6618,池州市,池州学院,,18,12,21,6,14,56,,60,60,7,11,6,7,0.3,0.4
2025-07-30T1800,3237A,117.4918,30.6617,池州市,展览馆,,18,12,21,7,12,56,,62,62,8,10,6,6,0.5,0.6
2025-07-30T1800,3333A,117.5627,30.695,池州市,第八中学,,20,12,23,6,12,63,,63,63,5,9,7,7,0.4,0.5
2025-07-30T1800,3334A,117.5038,30.6243,池州市,第十二中学,,20,14,21,6,12,63,,67,66,8,10,4,4,0.6,0.7
2025-07-30T1800,1744A,118.9233,42.2816,赤峰市,松山一中,,24,8,12,3,7,75,,76,76,12,15,9,5,0.5,0.4
2025-07-30T1800,1745A,118.9576,42.2728,赤峰市,哈达街,,24,10,14,3,7,74,,77,77,10,15,13,13,0.4,0.5
2025-07-30T1800,1746A,118.8788,42.2554,赤峰市,天义路,,26,13,13,3,6,82,,78,78,6,12,9,9,0.3,0.4
2025-07-30T1800,3058A,119.2658,42.0353,赤峰市,银河街,,27,27,18,13,10,83,,79,79,8,10,8,12,0.4,0.6
2025-07-30T1800,3286A,118.9359,42.3147,赤峰市,桥北物流园区,,22,15,17,15,9,68,,70,70,10,15,13,10,0.4,0.5
2025-07-30T1800,2521A,107.3476,22.4136,崇左市,市环保局江州分局,,39,39,35,22,21,114,,110,110,5,8,7,7,0.4,0.4
2025-07-30T1800,4256A,107.3750,22.3736,崇左市,石景林东路7号,,38,29,35,26,23,116,,120,120,4,9,4,5,0.6,0.6
2025-07-30T1800,2298A,118.3093,32.3153,滁州市,老年大学,,20,20,22,3,9,31,,44,43,4,6,7,7,0.2,0.2
2025-07-30T1800,2299A,118.3244,32.2786,滁州市,人大宾馆,,,12,13,8,12,32,,45,44,,6,5,5,0.1,0.1
2025-07-30T1800,3207A,118.3118,32.3038,滁州市,市政府原办公楼,,18,14,20,12,16,30,,42,41,2,6,5,6,0.2,0.2
2025-07-30T1800,3331A,118.3267,32.2634,滁州市,图书馆,,15,15,16,3,12,38,,51,50,4,8,10,11,0.1,0.1
2025-07-30T1800,2605A,101.5482,25.0441,楚雄彝族自治州,州环境监测站,,,21,24,8,16,60,,70,70,,19,7,8,0.5,0.6
2025-07-30T1800,2606A,101.538,25.0492,楚雄彝族自治州,市经济开发区,,20,,37,10,16,64,,74,74,12,20,5,6,0.5,0.6
2025-07-30T1800,2548A,107.5277,31.2827,达州市,达州职业技术学院,,42,27,32,3,8,134,,127,127,6,17,7,8,0.5,0.5
2025-07-30T1800,2549A,107.5086,31.2186,达州市,市环境监测站,,44,31,28,3,6,138,,124,124,10,20,6,6,0.3,0.3
2025-07-30T1800,2550A,107.4988,31.2132,达州市,凤凰小区,,42,19,17,7,6,132,,125,125,9,10,7,7,0.3,0.3
2025-07-30T1800,2551A,107.5082,31.1986,达州市,达县机关宾馆,,43,17,24,3,6,135,,121,121,12,25,5,4,0.3,0.4
2025-07-30T1800,2552A,107.4644,31.2124,达州市,市政中心,,41,32,30,3,8,130,,124,124,7,17,3,4,0.2,0.3
2025-07-30T1800,2614A,100.1542,25.7054,大理白族自治州,大理市环境监测站,,26,14,17,14,20,82,,74,74,8,8,5,5,0.5,0.5
2025-07-30T1800,2615A,100.2171,25.5811,大理白族自治州,大理古城,,29,18,20,10,14,92,,88,88,6,9,4,4,0.7,0.7
2025-07-30T1800,1109A,121.612,38.9741,大连市,甘井子,,42,25,21,10,13,132,,129,129,15,16,9,7,0.1,0.1
2025-07-30T1800,1110A,121.565,38.9511,大连市,周水子,,41,14,18,8,10,131,,120,120,9,12,8,8,0.3,0.3
2025-07-30T1800,1111A,121.5637,38.8845,大连市,星海三站,,40,18,19,14,15,127,,132,132,5,6,6,6,0.4,0.3
2025-07-30T1800,1112A,121.6302,38.9117,大连市,青泥洼桥,,43,32,26,13,14,135,,140,140,10,14,6,7,0.6,0.5
2025-07-30T1800,1113A,121.6251,38.8638,大连市,傅家庄,,38,16,17,15,14,120,,110,110,7,11,8,8,0.2,0.2
2025-07-30T1800,1114A,121.5213,38.8661,大连市,七贤岭,,37,21,20,17,15,118,,127,126,8,8,7,9,0.3,0.3
2025-07-30T1800,1115A,121.2529,38.8061,大连市,旅顺,,38,,15,11,13,120,,103,103,6,8,4,4,0.3,0.2
2025-07-30T1800,1116A,121.7485,39.1311,大连市,金州,,44,17,15,10,10,140,,134,134,15,13,7,7,0.3,0.2
2025-07-30T1800,1117A,121.7811,39.0496,大连市,开发区,,36,21,18,13,14,115,,125,125,18,17,7,7,0.3,0.3
2025-07-30T1800,1118A,121.9762,39.0631,大连市,双D港,,32,15,16,9,11,102,,118,118,6,7,6,7,0.4,0.4
2025-07-30T1800,1789A,124.81117,46.03138,大庆市,大同区,,18,8,15,7,4,56,,65,65,7,7,8,8,0.5,0.5
2025-07-30T1800,1790A,125.129,46.533,大庆市,龙凤区,,17,14,14,10,8,54,,65,64,16,11,7,7,0.5,0.6
2025-07-30T1800,1791A,124.902,46.408,大庆市,红岗区,,27,27,20,17,12,60,,69,69,8,10,7,7,0.5,0.5
2025-07-30T1800,1792A,125.153,46.586,大庆市,萨尔图区,,,35,21,12,5,51,,63,62,17,9,3,10,,0.4
2025-07-30T1800,1793A,124.9042,46.6215,大庆市,让胡路区,,22,22,23,13,14,50,,61,60,9,7,5,4,0.3,0.3
2025-07-30T1800,3481A,125.141,46.634,大庆市,萨区政府监测点,,31,31,19,3,1,54,,67,65,12,6,6,7,0.2,0.2
2025-07-30T1800,1721A,113.3819,40.1097,大同市,果树场,,,,15,,12,,,67,,,18,,7,,0.5
2025-07-30T1800,1723A,113.2994,40.0758,大同市,云冈宾馆,,35,11,15,3,7,109,,107,107,10,15,6,8,0.6,0.9
2025-07-30T1800,1724A,113.3444,40.0917,大同市,大同大学,,35,10,16,3,6,112,,112,112,9,22,5,8,0.3,0.5
2025-07-30T1800,1725A,113.2661,40.1269,大同市,安家小村,,37,21,21,8,6,116,,107,107,9,16,6,6,0.4,1
2025-07-30T1800,1726A,113.2711,40.0844,大同市,教育学院,,36,15,21,10,9,114,,109,109,12,16,7,9,0.3,0.7
2025-07-30T1800,3282A,113.3397,40.0597,大同市,大同市卫生学校,,34,25,16,7,8,108,,107,107,19,21,6,8,0.1,0.5
2025-07-30T1800,3565A,113.1367,40.1122,大同市,云冈站,,,,31,,17,133,,115,115,16,28,3,5,0.3,0.4
2025-07-30T1800,3566A,113.1186,40.2556,大同市,图书馆,,42,19,19,10,9,134,,116,116,8,8,7,8,0.6,1
2025-07-30T1800,3567A,113.5931,40.0461,大同市,区一中,,34,11,13,3,5,108,,106,106,10,7,9,9,0.4,0.3
2025-07-30T1800,4199A,113.2798,40.0997,大同市,魏都大道141号,,36,16,22,9,10,113,,109,109,11,15,4,5,0.5,0.8
2025-07-30T1800,2269A,124.1069,50.4097,大兴安岭地区,科技局,,14,14,14,7,8,40,,57,49,4,3,4,4,0.4,0.4
2025-07-30T1800,3663A,124.1164,50.4278,大兴安岭地区,红旗社区,,12,6,2,3,2,36,,57,49,3,3,5,4,0.3,0.3
2025-07-30T1800,1600A,124.3303,40.0625,丹东市,江湾东路,,24,22,26,12,18,75,,73,73,13,12,9,7,0.5,0.6
2025-07-30T1800,1601A,124.4256,40.1503,丹东市,临江后街,,45,45,54,13,16,63,,68,66,12,14,4,6,0.7,0.7
2025-07-30T1800,1602A,124.3933,40.1461,丹东市,元宝山,,19,19,27,11,13,50,,60,57,12,14,3,4,0.5,0.5
2025-07-30T1800,1603A,124.3633,40.1092,丹东市,民主桥,,,20,34,12,14,68,,65,65,14,14,3,4,,1
2025-07-30T1800,3541A,109.5726,19.5167,儋州市,第一中学子站,,15,11,11,3,6,47,,44,44,3,3,5,4,0.3,0.4
2025-07-30T1800,3542A,109.5567,19.5187,儋州市,东坡学校子站,,16,,12,6,5,50,,46,46,2,3,6,5,0.5,0.5
2025-07-30T1800,2616A,98.5842,24.428,德宏傣族景颇族自治州,德宏州监测站,,16,14,18,3,9,50,,41,41,5,9,15,16,0.6,0.6
2025-07-30T1800,3677A,98.5881,24.4368,德宏傣族景颇族自治州,芒市人民政府综合楼,,26,26,21,3,9,46,,48,48,5,9,10,19,0.5,0.6
2025-07-30T1800,1901A,104.4239,31.1208,德阳市,东山公园,臭氧1小时,84,38,33,19,19,187,,169,169,18,16,3,4,0.7,0.8
2025-07-30T1800,1902A,104.3826,31.1317,德阳市,西小区,臭氧1小时,75,35,39,18,22,180,,160,160,9,23,8,10,0.8,0.9
2025-07-30T1800,1904A,104.3553,31.1091,德阳市,耐火材料厂,,48,28,41,21,23,152,,154,154,7,27,1,6,0.4,0.6
2025-07-30T1800,3639A,104.4019,31.1244,德阳市,市教育局,臭氧1小时,72,34,37,19,20,177,,164,164,7,19,3,3,0.8,0.8
2025-07-30T1800,1622A,116.3032,37.4674,德州市,儿童乐园,,50,39,29,17,14,160,,155,155,6,11,9,10,0.8,0.6
2025-07-30T1800,1624A,116.2991,37.4451,德州市,监理站,,50,27,20,19,11,159,,151,151,3,8,12,13,0.6,0.4
2025-07-30T1800,3066A,116.2721,37.4379,德州市,九衢泉纯净水厂,,47,29,25,24,15,149,,144,144,5,10,14,13,0.9,0.7
2025-07-30T1800,3371A,116.3728,37.4403,德州市,开发区人民医院,,49,34,25,24,13,156,,142,142,11,12,9,9,1.1,0.9
2025-07-30T1800,3511A,116.5652,37.3319,德州市,陵城艺术中心,臭氧1小时,74,29,28,19,14,179,,157,157,5,10,6,7,0.8,0.6
2025-07-30T1800,4292A,116.3525,37.4209,德州市,新河东路,臭氧1小时,52,39,25,24,15,161,,147,147,7,10,10,10,1.0,0.9
2025-07-30T1800,2621A,99.7056,27.8317,迪庆藏族自治州,迪庆州站,,,17,21,11,14,75,,82,82,,10,6,8,,0.4
2025-07-30T1800,3180A,99.7136,27.8094,迪庆藏族自治州,质量技术监督局,,24,23,20,6,9,76,,83,83,14,15,10,7,0.4,0.4
2025-07-30T1800,4257A,104.6092,35.5962,定西市,将台街,,41,33,31,14,11,129,,127,127,2,12,8,7,0.4,0.4
2025-07-30T1800,4309A,104.6159,35.5701,定西市,正龙路62号,,38,24,22,18,13,120,,119,119,4,7,5,4,0.3,0.2
2025-07-30T1800,1389A,113.7547,23.0494,东莞市,莞城梨川,,49,25,18,23,17,155,,141,141,18,19,6,8,0.6,0.6
2025-07-30T1800,1390A,113.7944,23.0128,东莞市,东城石井,,34,25,20,15,12,106,,128,128,30,21,3,3,0.6,0.7
2025-07-30T1800,1391A,113.7383,22.9658,东莞市,南城西平,臭氧1小时,78,33,22,29,14,182,,145,145,22,22,3,2,0.8,0.8
2025-07-30T1800,3319A,113.7338,23.0381,东莞市,万江金泰,臭氧1小时,70,31,24,25,17,176,,142,142,16,21,4,4,0.7,0.7
2025-07-30T1800,3626A,113.7533,23.0202,东莞市,南城元岭,,47,27,21,22,15,148,,141,141,22,20,5,6,0.6,0.6
2025-07-30T1800,3627A,113.7875,23.0457,东莞市,东城主山,,40,30,30,18,16,127,,124,124,40,24,4,4,0.7,0.6
2025-07-30T1800,1666A,118.6614,37.4309,东营市,市环保局,,33,14,12,3,7,104,,101,101,9,14,6,7,0.2,0.2
2025-07-30T1800,3036A,118.6904,37.4338,东营市,开发区管委会,,36,12,15,3,5,115,,111,111,6,11,5,6,0.2,0.2
2025-07-30T1800,3365A,118.5719,37.565,东营市,垦利区民丰路,,32,17,13,3,6,102,,104,104,6,11,2,6,0.5,0.6
2025-07-30T1800,3498A,118.5055,37.8612,东营市,河口城区,,43,9,10,3,3,137,,130,130,10,11,7,3,0.7,0.8
2025-07-30T1800,3646A,118.4978,37.4623,东营市,胜利站,,35,22,18,7,6,110,,114,114,10,13,3,3,0.4,0.5
2025-07-30T1800,3734A,118.35,37.26,东营市,理想之城,,33,12,12,3,7,104,,104,104,10,10,5,4,0.3,0.4
2025-07-30T1800,1591A,110.0023,39.8129,鄂尔多斯市,综合楼,臭氧1小时,57,36,22,14,7,165,,152,152,12,15,4,5,0.5,0.5
2025-07-30T1800,1592A,109.9486,39.8261,鄂尔多斯市,巴音孟克林场办事处,臭氧1小时,52,46,30,14,10,161,,151,151,16,16,3,3,0.6,0.6
2025-07-30T1800,1593A,109.7736,39.5986,鄂尔多斯市,康泽苑,,50,44,31,14,9,159,,146,146,10,11,8,7,0.4,0.4
2025-07-30T1800,1594A,109.8119,39.5989,鄂尔多斯市,华泰汽车城,,43,41,31,14,10,135,,137,137,10,17,6,5,0.6,0.6
2025-07-30T1800,1595A,109.9734,39.7884,鄂尔多斯市,奥林花园,,44,27,24,17,18,140,,141,141,7,12,8,7,0.6,0.6
2025-07-30T1800,2436A,114.8938,30.3994,鄂州市,市政府,,27,12,20,9,4,85,,104,104,9,12,5,5,0.5,0.6
2025-07-30T1800,2437A,114.8989,30.3714,鄂州市,赵家坝,,31,11,19,3,4,98,,114,114,5,10,4,5,0.7,0.7
2025-07-30T1800,3654A,114.8094,30.4089,鄂州市,精准医疗中心,,32,28,20,3,2,102,,116,116,10,11,4,4,0.5,0.6
2025-07-30T1800,2454A,109.4978,30.2981,恩施土家族苗族自治州,湖北民院,,39,18,19,6,11,123,,111,111,1,6,5,5,0.3,0.4
2025-07-30T1800,2455A,109.4707,30.2798,恩施土家族苗族自治州,州电力总公司,,38,19,19,13,9,119,,108,108,2,6,7,7,0.5,0.3
2025-07-30T1800,3549A,109.5061,30.3772,恩施土家族苗族自治州,龙凤新区,,41,12,16,3,10,129,,122,122,2,5,4,4,0.4,0.5
2025-07-30T1800,2499A,108.3411,21.6158,防城港市,沙万,,27,27,26,7,13,58,,63,63,8,11,3,2,0.4,0.4
2025-07-30T1800,2500A,108.3514,21.7731,防城港市,防城档案局,,,19,27,18,17,55,,81,81,,6,3,3,0.7,0.8
2025-07-30T1800,2501A,108.3506,21.6414,防城港市,大海花园,,21,,23,13,13,67,,75,75,8,7,5,4,0.5,0.5
2025-07-30T1800,1371A,113.1294,23.0067,佛山市,湾梁,,34,27,27,20,21,106,,111,111,13,16,5,5,0.8,0.8
2025-07-30T1800,1372A,113.1083,23.0478,佛山市,华材职中,,38,27,24,18,17,121,,134,134,9,13,8,8,0.5,0.6
2025-07-30T1800,1373A,113.144,23.0453,佛山市,南海气象局,,33,32,31,23,18,101,,105,104,7,13,3,3,0.5,0.8
2025-07-30T1800,1374A,113.2881,22.8094,佛山市,顺德苏岗,,43,43,30,19,16,86,,112,112,28,19,7,7,1.0,0.9
2025-07-30T1800,1376A,112.8383,22.8678,佛山市,高明孔堂,,32,,30,22,18,92,,107,107,7,9,7,8,0.6,0.8
2025-07-30T1800,1377A,112.8836,23.1588,佛山市,三水监测站,,49,,24,34,19,96,,94,94,20,22,3,5,0.7,0.7
2025-07-30T1800,1378A,112.867,23.185,佛山市,三水云东海,,32,27,32,21,21,101,,102,102,21,22,1,2,0.7,0.7
2025-07-30T1800,3625A,113.2544,22.7642,佛山市,容桂街道办,,32,24,22,22,21,78,,104,104,29,22,6,7,0.7,0.7
2025-07-30T1800,1280A,119.3903,26.0543,福州市,鼓山,,,,,,,,,,,,,,,,
2025-07-30T1800,1282A,119.2681,26.0504,福州市,师大,,20,14,18,3,5,63,,74,74,6,11,4,4,0.2,0.3
2025-07-30T1800,1283A,119.2984,26.1028,福州市,五四北路,,20,16,19,6,7,63,,72,71,6,11,4,4,0.3,0.3
2025-07-30T1800,1284A,119.2648,26.0768,福州市,杨桥西路,,20,17,19,12,7,63,,72,71,4,10,3,4,0.2,0.2
2025-07-30T1800,1285A,119.317,26.0746,福州市,紫阳,,26,26,21,6,8,60,,67,66,10,14,6,5,0.2,0.2
2025-07-30T1800,3048A,119.5799,26.0936,福州市,九龙,细颗粒物(PM2.5),59,54,21,42,10,142,,100,100,9,9,5,5,0.3,0.3
2025-07-30T1800,3526A,119.5189,25.9664,福州市,吴航,,48,42,24,24,10,151,,103,103,7,10,5,5,0.6,0.5
2025-07-30T1800,1755A,123.7977,41.8491,抚顺市,望花区,,34,18,14,6,9,108,,121,121,14,13,3,5,0.4,0.5
2025-07-30T1800,1756A,123.9161,41.8822,抚顺市,顺城区,,30,18,14,8,8,93,,113,112,21,12,4,4,0.5,0.6
2025-07-30T1800,1757A,124.0436,41.8611,抚顺市,东洲区,,37,12,11,6,6,117,,127,126,10,10,7,6,0.5,0.5
2025-07-30T1800,1758A,123.9247,41.8642,抚顺市,新抚区,,33,14,13,6,6,104,,119,116,6,8,5,4,0.5,0.6
2025-07-30T1800,1759A,124.0972,41.8961,抚顺市,大伙房水库,,36,14,7,3,3,113,,120,120,6,7,6,6,0.5,0.4
2025-07-30T1800,1760A,123.7086,41.8391,抚顺市,沈抚新城,,32,,9,3,1,102,,114,114,7,8,5,4,0.4,0.5
2025-07-30T1800,2376A,116.2127,28.0814,抚州市,桐源党溪,,31,25,32,10,15,99,,92,92,3,9,5,5,0.4,0.6
2025-07-30T1800,2377A,116.3544,27.9831,抚州市,市站,,,34,30,19,16,109,,97,97,,7,,8,0.5,0.5
2025-07-30T1800,2378A,116.3565,27.963,抚州市,血防站,,37,31,29,16,15,116,,96,96,3,3,5,7,0.7,0.6
2025-07-30T1800,2379A,116.3564,28.0007,抚州市,采茶剧团,,37,32,32,16,14,117,,102,102,2,5,3,9,0.6,0.5
2025-07-30T1800,2380A,116.385,27.9647,抚州市,医学分院,,38,35,34,16,18,120,,100,100,2,4,5,7,0.6,0.6
2025-07-30T1800,2207A,121.6094,41.998,阜新市,工业园区,,27,14,16,3,8,86,,88,88,11,12,3,4,0.3,0.4
2025-07-30T1800,2208A,121.6697,42.0279,阜新市,长青街,,26,11,14,3,8,82,,85,85,5,8,4,5,0.2,0.4
2025-07-30T1800,2209A,121.6673,42.0705,阜新市,农业园区,,23,14,18,3,6,71,,78,77,5,7,2,2,0.4,0.7
2025-07-30T1800,2210A,121.6717,42.0224,阜新市,东苑,,27,18,19,8,10,86,,89,89,13,13,3,3,0.3,0.5
2025-07-30T1800,2211A,121.6506,42.0498,阜新市,玉龙新城,,23,14,18,6,9,73,,84,84,7,14,6,4,0.4,0.4
2025-07-30T1800,2301A,115.8277,32.8929,阜阳市,市监测站,,44,44,30,14,14,100,,107,107,8,12,3,4,0.1,0.2
2025-07-30T1800,2303A,115.8554,32.8605,阜阳市,开发区,,34,23,30,10,12,106,,108,108,7,12,6,6,0.2,0.2
2025-07-30T1800,2875A,115.784,32.8892,阜阳市,阜阳职业技术学院,,,30,29,15,14,111,,112,112,,7,4,5,,0.4
2025-07-30T1800,3468A,115.7901,32.8613,阜阳市,市规划展馆,,33,32,27,20,16,103,,105,105,7,8,2,3,0.4,0.4
2025-07-30T1800,3469A,115.836,32.9183,阜阳市,枣园社区,,33,,30,22,17,104,,111,111,8,12,2,3,0.3,0.3
2025-07-30T1800,2669A,102.9099,34.9841,甘南藏族自治州,州政府,,,6,22,3,15,119,,103,103,2,14,,4,,0.3
2025-07-30T1800,3380A,102.8914,34.9617,甘南藏族自治州,甘肃民族师范学院,,40,11,34,10,13,127,,110,110,2,15,9,9,0.6,0.7
2025-07-30T1800,2570A,101.9603,30.0475,甘孜藏族自治州,水桥子,,30,7,14,3,8,95,,89,89,12,16,6,6,0.5,0.5
2025-07-30T1800,3065A,101.9533,29.9972,甘孜藏族自治州,州环保局,,32,13,18,8,6,100,,95,95,11,18,6,6,0.4,0.4
2025-07-30T1800,3414A,115.8347,28.932,赣江新区,桑海产业园,,33,17,23,12,13,103,,125,124,3,9,6,7,0.4,0.4
2025-07-30T1800,2362A,114.9017,25.9149,赣州市,通天岩,,25,25,30,6,16,50,,88,87,5,4,15,14,0.8,0.7
2025-07-30T1800,2363A,114.9367,25.8664,赣州市,地委,,27,27,26,13,16,66,,83,83,10,10,1,6,0.9,0.9
2025-07-30T1800,2364A,114.9461,25.8481,赣州市,气象台,,27,27,27,3,12,60,,86,86,13,10,7,8,0.7,0.8
2025-07-30T1800,2365A,114.9322,25.8333,赣州市,市图书馆,,20,14,23,10,16,62,,84,84,12,9,4,4,0.8,0.8
2025-07-30T1800,2366A,114.8905,25.8471,赣州市,华坚鞋城,,23,23,29,15,13,53,,68,68,23,14,5,5,0.5,0.5
2025-07-30T1800,3109A,115.0093,25.8613,赣州市,赣县区卫计委,,19,6,21,3,14,58,,84,84,13,8,4,4,0.4,0.4
2025-07-30T1800,2683A,106.2319,36.1417,固原市,马园,,45,45,33,14,12,114,,123,123,14,23,6,7,0.6,0.6
2025-07-30T1800,2684A,106.2792,36.0022,固原市,监测站,,40,26,25,15,13,127,,134,133,4,14,6,6,0.3,0.3
2025-07-30T1800,2685A,106.2375,36.0211,固原市,新区,,44,44,24,12,11,118,,124,124,9,12,6,6,0.4,0.4
2025-07-30T1800,3522A,106.2177,35.9959,固原市,原州区十五小,,37,18,20,14,13,116,,122,122,4,9,8,7,0.5,0.4
2025-07-30T1800,2543A,106.6308,30.5278,广安市,小平旧居,,,,,,,,,,,,,,,,
2025-07-30T1800,2544A,106.6303,30.4576,广安市,市委,,46,28,35,22,21,147,,162,162,8,15,7,8,0.4,0.4
2025-07-30T1800,2545A,106.6271,30.4663,广安市,友谊中学,,48,31,32,19,20,152,,167,167,8,16,6,8,0.8,0.8
2025-07-30T1800,2547A,106.6388,30.4551,广安市,广电花园,,47,33,37,19,20,149,,160,160,8,16,2,3,0.6,0.6
2025-07-30T1800,2902A,106.6351,30.4865,广安市,北辰小学,,45,32,34,19,20,144,,171,163,6,12,3,6,0.6,0.6
2025-07-30T1800,2523A,105.8945,32.4535,广元市,黑石坡,,34,24,25,7,13,107,,116,116,6,12,8,9,0.4,0.4
2025-07-30T1800,2524A,105.821,32.4444,广元市,老城,,39,,16,8,7,123,,140,140,14,15,11,10,0.7,0.7
2025-07-30T1800,2526A,105.8628,32.4287,广元市,监测站,,36,12,18,11,9,113,,126,126,5,12,10,13,0.7,0.7
2025-07-30T1800,3617A,105.8047,32.4166,广元市,经开区,,35,26,28,16,16,109,,124,124,8,17,6,9,0.5,0.7
2025-07-30T1800,1345A,113.2347,23.1423,广州市,广雅中学,,48,39,33,26,18,151,,136,136,16,23,2,3,0.5,0.4
2025-07-30T1800,1346A,113.2612,23.105,广州市,市五中,,49,48,30,30,18,154,,137,137,13,18,4,5,0.8,0.8
2025-07-30T1800,1348A,113.3478,23.0916,广州市,广东商学院,臭氧1小时,70,,28,39,20,176,,144,144,14,27,3,3,0.8,0.8
2025-07-30T1800,1349A,113.4332,23.1047,广州市,市八十六中,臭氧1小时,82,39,27,24,16,185,,128,128,27,41,3,3,0.7,0.4
2025-07-30T1800,1350A,113.3505,22.9483,广州市,番禺中学,,44,37,28,28,19,140,,145,145,15,14,6,6,0.5,0.5
2025-07-30T1800,1351A,113.2146,23.3916,广州市,花都师范,,,52,40,29,20,155,,113,113,16,22,,5,0.6,0.6
2025-07-30T1800,1352A,113.2597,23.1331,广州市,市监测站,臭氧1小时,55,39,30,22,16,164,,142,142,13,19,5,6,0.5,0.5
2025-07-30T1800,1353A,113.5618,23.312,广州市,九龙镇镇龙,,47,42,34,26,20,149,,135,135,19,29,6,7,0.7,0.7
2025-07-30T1800,1354A,113.2765,23.1544,广州市,麓湖,,34,29,25,23,18,107,,121,121,11,20,2,3,0.6,0.6
2025-07-30T1800,1355A,113.443,23.3035,广州市,帽峰山森林公园,,41,27,30,7,12,130,,,,17,15,3,4,1.0,1.1
2025-07-30T1800,2846A,113.3221,23.1322,广州市,体育西,臭氧1小时,65,40,30,27,19,172,,141,141,18,23,5,5,0.8,0.7
2025-07-30T1800,3298A,113.5717,23.5491,广州市,从化街口,,38,36,35,26,22,116,,117,117,10,18,5,6,0.8,0.9
2025-07-30T1800,3299A,113.3472,23.3692,广州市,白云竹料,,48,48,33,29,20,153,,120,120,14,21,3,3,0.5,0.5
2025-07-30T1800,3300A,113.2981,23.237,广州市,白云嘉禾,,45,41,30,24,18,144,,135,135,16,29,3,3,0.6,0.6
2025-07-30T1800,3301A,113.4256,23.1716,广州市,黄埔科学城,,46,34,29,24,17,146,,136,136,16,24,3,3,0.5,0.5
2025-07-30T1800,3302A,113.3942,23.0483,广州市,番禺大学城,臭氧1小时,92,38,28,26,16,193,,154,154,14,20,8,8,0.5,0.5
2025-07-30T1800,3303A,113.4922,22.8168,广州市,南沙黄阁,细颗粒物(PM2.5),68,58,36,49,22,160,,157,157,18,26,5,5,0.5,0.6
2025-07-30T1800,3304A,113.5342,22.7896,广州市,南沙街,臭氧1小时,57,51,31,28,17,165,,164,164,11,20,3,4,0.5,0.5
2025-07-30T1800,3443A,113.2902,23.5544,广州市,花都梯面,,42,41,31,29,19,78,,106,106,6,18,5,5,0.7,0.7
2025-07-30T1800,3445A,113.7858,23.7478,广州市,从化良口,,42,30,33,28,27,133,,124,124,6,12,4,4,0.7,0.7
2025-07-30T1800,3446A,113.8051,23.2614,广州市,增城荔城,细颗粒物(PM2.5),62,65,22,44,15,134,,107,107,13,18,7,8,0.5,0.4
2025-07-30T1800,2505A,109.568,23.1478,贵港市,德智高中,,,,,,,,,,,,,,,,
2025-07-30T1800,2506A,109.6047,23.0666,贵港市,江南子站,颗粒物(PM10),56,61,42,37,29,116,,77,77,14,12,10,8,0.8,0.8
2025-07-30T1800,2508A,109.5669,23.1065,贵港市,荷城子站,颗粒物(PM10),53,56,28,29,19,124,,85,85,12,9,9,8,0.6,0.5
2025-07-30T1800,3405A,109.5886,23.1172,贵港市,新世纪学校,,48,48,32,30,23,132,,94,94,12,10,2,3,0.7,0.7
2025-07-30T1800,4260A,109.5933,23.0951,贵港市,中山路155-3号,颗粒物(PM10),64,78,41,31,25,139,,93,93,15,11,9,4,0.7,0.7
2025-07-30T1800,1439A,106.6899,26.5998,贵阳市,马鞍山,,16,7,20,3,7,50,,79,79,6,13,3,3,0.4,0.7
2025-07-30T1800,1441A,106.6243,26.6266,贵阳市,鉴湖路,,39,39,33,9,8,77,,88,88,15,14,7,8,0.3,0.3
2025-07-30T1800,1442A,106.7487,26.6343,贵阳市,燕子冲,,,,19,,21,101,,100,100,,17,,6,0.4,0.5
2025-07-30T1800,1443A,106.6555,26.4365,贵阳市,碧云窝,,34,29,35,12,14,106,,121,119,13,16,6,7,0.2,0.2
2025-07-30T1800,1445A,106.7109,26.6027,贵阳市,红边门,,30,17,27,7,14,96,,99,99,17,21,4,4,0.2,0.3
2025-07-30T1800,1446A,106.7164,26.5699,贵阳市,新华路,,30,29,32,14,17,96,,102,102,18,23,20,14,0.4,0.5
2025-07-30T1800,1447A,106.674,26.5424,贵阳市,太慈桥,,33,22,17,9,9,104,,112,112,18,17,4,4,0.2,0.2
2025-07-30T1800,1552A,106.805,26.3003,贵阳市,桐木岭,,33,27,30,14,18,105,,108,108,9,8,9,7,0.7,0.8
2025-07-30T1800,4230A,106.6882,26.5695,贵阳市,花果园大街66号,,31,17,18,14,18,98,,104,104,15,19,3,4,0.3,0.4
2025-07-30T1800,4231A,106.6873,26.5169,贵阳市,漓江路57号,,19,19,28,7,15,38,,84,,10,19,3,4,0.5,0.5
2025-07-30T1800,1862A,110.4144,25.3167,桂林市,电子科大尧山校区,,,,,,,,,,,,,,,,
2025-07-30T1800,1864A,110.3089,25.2708,桂林市,龙隐路小学,,29,28,28,20,19,81,,111,111,8,10,10,12,0.3,0.3
2025-07-30T1800,1865A,110.2869,25.2178,桂林市,八中,,27,26,30,16,17,84,,118,118,10,11,7,10,0.4,0.5
2025-07-30T1800,3531A,110.296,25.1253,桂林市,旅游学院,,36,24,22,19,18,115,,118,118,6,10,4,7,0.4,0.4
2025-07-30T1800,4222A,110.1835,25.2444,桂林市,环湖路276号,,39,39,32,19,19,89,,114,114,6,12,9,22,0.4,0.4
2025-07-30T1800,4301A,110.2803,25.2773,桂林市,信义路13号,,44,44,30,17,17,87,,124,119,11,11,6,11,0.5,0.5
2025-07-30T1800,2674A,100.2561,34.4714,果洛藏族自治州,玛沁县大武镇,,39,16,24,8,10,122,,115,115,2,6,5,11,0.2,0.2
2025-07-30T1800,1129A,126.5422,45.755,哈尔滨市,岭北,,27,10,7,3,4,85,,87,87,7,8,6,7,0.4,0.5
2025-07-30T1800,1130A,126.561,45.8167,哈尔滨市,松北商大,,18,16,11,3,3,56,,64,64,8,7,6,6,0.4,0.5
2025-07-30T1800,1131A,126.979,45.5419,哈尔滨市,阿城会宁,,24,10,12,3,7,76,,80,80,9,7,5,5,0.4,0.4
2025-07-30T1800,1132A,126.599,45.7222,哈尔滨市,南岗学府路,,25,25,17,3,2,65,,70,70,6,7,7,7,0.5,0.5
2025-07-30T1800,1133A,126.689,45.7733,哈尔滨市,太平宏伟公园,,22,12,12,3,5,70,,73,73,4,7,6,6,0.6,0.6
2025-07-30T1800,1134A,126.635,45.7667,哈尔滨市,道外承德广场,,31,31,25,11,7,59,,63,63,12,12,7,6,0.7,0.8
2025-07-30T1800,1135A,126.685,45.7319,哈尔滨市,香坊红旗大街,,20,12,17,9,7,62,,67,67,13,15,9,8,0.5,0.5
2025-07-30T1800,1136A,126.6411,45.7258,哈尔滨市,动力和平路,,22,15,12,3,1,69,,74,74,7,9,6,5,0.4,0.4
2025-07-30T1800,1137A,126.593,45.7478,哈尔滨市,道里建国路,,,,19,20,8,63,,67,67,9,11,5,5,0.6,0.7
2025-07-30T1800,1138A,126.615,45.61,哈尔滨市,平房东轻厂,,23,23,12,7,6,60,,64,64,13,13,6,6,0.4,0.4
2025-07-30T1800,1139A,126.595,45.9855,哈尔滨市,呼兰师专,,,,13,,9,,,86,,,6,,9,,0.7
2025-07-30T1800,1140A,126.6206,45.6842,哈尔滨市,省农科院,,42,42,23,12,5,47,,62,61,26,16,11,9,0.4,0.3
2025-07-30T1800,2688A,93.5128,42.8172,哈密市,地区监测站,,42,32,50,29,28,131,,119,119,4,7,3,3,0.1,0.1
2025-07-30T1800,2689A,93.4961,42.8328,哈密市,哈密师范学校,,40,17,40,12,18,126,,120,120,8,8,8,7,0.1,0.2
2025-07-30T1800,2671A,100.9048,36.9639,海北藏族自治州,海晏县西海镇,,43,23,27,14,19,137,,129,129,2,5,8,9,0.5,0.5
2025-07-30T1800,3867A,102.0738,36.5056,海东市,平安区公安北苑,,,35,42,14,17,152,,148,148,3,5,,12,,0.7
2025-07-30T1800,1409A,110.576,19.9507,海口市,东寨港,,21,21,25,10,13,54,,62,62,4,7,8,5,0.3,0.4
2025-07-30T1800,1410A,110.3232,20.0574,海口市,海南大学,,15,13,15,7,7,47,,68,68,6,9,3,3,0.3,0.3
2025-07-30T1800,1411A,110.283,20.0053,海口市,秀英海南医院,,17,15,19,3,5,54,,63,63,7,9,5,5,0.2,0.3
2025-07-30T1800,1412A,110.338,19.9969,海口市,海南师范大学,,,,19,3,8,55,,70,70,,17,4,4,0.4,0.3
2025-07-30T1800,1413A,110.33,20.0356,海口市,龙华路环保局宿舍,,15,15,14,3,6,47,,68,68,6,8,5,5,0.3,0.3
2025-07-30T1800,3539A,110.5111,19.9736,海口市,桂林洋子站,,18,12,25,3,12,56,,65,65,6,13,4,4,0.2,0.3
2025-07-30T1800,2673A,100.6188,36.2866,海南藏族自治州,共和县恰卜恰镇,,41,11,27,8,16,130,,126,126,3,9,10,12,0.5,0.5
2025-07-30T1800,2676A,97.3731,37.3753,海西蒙古族藏族自治州,德令哈市,颗粒物(PM10),93,135,49,30,18,120,,121,121,2,1,18,20,0.5,0.5
2025-07-30T1800,1048A,114.5302,36.6116,邯郸市,东污水处理厂,,,23,28,,1,157,,159,159,3,12,4,5,0.3,0.3
2025-07-30T1800,1049A,114.4918,36.5713,邯郸市,矿院,臭氧1小时,57,14,19,3,2,165,,164,164,2,12,5,6,0.3,0.4
2025-07-30T1800,1050A,114.484,36.6133,邯郸市,丛台公园,臭氧1小时,60,26,18,6,4,168,,168,168,5,11,5,5,0.3,0.3
2025-07-30T1800,3458A,114.7895,36.5593,邯郸市,香泉濮院小区,臭氧1小时,62,29,36,3,0,169,,160,160,6,11,2,2,0.3,0.3
2025-07-30T1800,3579A,114.50634,36.77178,邯郸市,永年区实验高中,,48,38,35,13,14,151,,157,157,9,18,3,4,0.2,0.3
2025-07-30T1800,3580A,114.20016,36.44293,邯郸市,峰峰矿区临水派出所,臭氧1小时,78,32,33,3,1,182,,186,186,7,10,2,5,0.2,0.4
2025-07-30T1800,2634A,106.9893,33.1842,汉中市,汉川机床厂子校,,39,18,18,13,10,123,,112,112,5,6,3,3,0.4,0.3
2025-07-30T1800,2635A,107.0154,33.0706,汉中市,市监测站,,38,24,28,14,14,120,,115,115,3,8,6,11,0.4,0.6
2025-07-30T1800,2636A,107.0089,33.1138,汉中市,鑫源开发区,,34,26,22,8,10,107,,101,101,4,10,6,9,0.4,0.5
2025-07-30T1800,2637A,107.007,33.0323,汉中市,南郑大河坎水厂,,38,22,26,13,13,120,,117,117,4,11,8,10,0.4,0.6
2025-07-30T1800,1223A,120.2072,30.2111,杭州市,滨江,,15,,9,3,6,48,,48,47,8,12,5,6,0.5,0.5
2025-07-30T1800,1224A,120.0633,30.2747,杭州市,西溪,,15,6,15,3,7,46,,41,41,8,12,4,4,0.4,0.4
2025-07-30T1800,1226A,120.3417,30.3150,杭州市,下沙,,15,6,13,3,6,45,,45,43,10,12,4,4,0.3,0.3
2025-07-30T1800,1227A,120.1269,30.2456,杭州市,卧龙桥,,13,6,15,3,6,40,,37,37,3,7,7,7,0.3,0.3
2025-07-30T1800,1228A,120.1903,30.2692,杭州市,浙江农大,,12,8,15,8,10,38,,42,41,17,12,4,5,0.3,0.4
2025-07-30T1800,1230A,120.1197,30.3119,杭州市,和睦小学,,13,,12,6,11,40,,39,39,8,11,5,4,0.4,0.4
2025-07-30T1800,1231A,120.3019,30.4183,杭州市,临平镇,,15,,10,3,7,46,,45,44,4,7,5,5,0.3,0.3
2025-07-30T1800,1232A,120.2753,30.1839,杭州市,城厢镇,,,7,14,3,6,46,,46,45,,4,5,5,0.5,0.5
2025-07-30T1800,1233A,120.0883,30.1808,杭州市,云栖,,17,9,15,3,5,53,,50,50,6,10,8,8,0.4,0.4
2025-07-30T1800,3557A,119.9464,30.0494,杭州市,镇二中,,20,,11,14,12,31,,36,36,10,12,4,4,0.6,0.5
2025-07-30T1800,3558A,119.7183,30.2367,杭州市,市府大楼,,16,7,14,3,9,50,,41,41,5,8,6,6,0.3,0.3
2025-07-30T1800,3656A,120.1556,30.2864,杭州市,消防大队,,12,10,16,3,7,36,,39,36,12,14,6,6,0.4,0.6
2025-07-30T1800,1270A,117.1959,31.7848,合肥市,明珠广场,,18,,19,12,11,42,,55,55,17,13,5,7,0.4,0.3
2025-07-30T1800,1271A,117.3072,31.8764,合肥市,三里街,,24,24,21,3,10,55,,52,52,8,11,5,6,0.2,0.3
2025-07-30T1800,1272A,117.2588,31.8707,合肥市,琥珀山庄,,19,9,21,7,12,58,,56,56,6,9,6,7,0.4,0.5
2025-07-30T1800,1273A,117.1604,31.9052,合肥市,董铺水库,,15,12,23,3,13,48,,50,50,5,7,4,4,0.2,0.2
2025-07-30T1800,1274A,117.25,31.8571,合肥市,长江中路,,22,22,21,3,12,60,,56,56,4,9,6,7,0.3,0.4
2025-07-30T1800,1275A,117.266,31.9436,合肥市,庐阳区,,17,17,26,7,12,52,,55,55,8,7,8,9,0.4,0.4
2025-07-30T1800,1276A,117.3453,31.8616,合肥市,瑶海区,,20,7,18,7,8,61,,55,55,5,8,6,7,0.3,0.4
2025-07-30T1800,1277A,117.3027,31.7964,合肥市,包河区,,16,12,21,3,11,50,,49,49,16,26,6,6,0.4,0.5
2025-07-30T1800,1278A,117.2776,31.7385,合肥市,滨湖新区,,19,17,22,9,15,58,,53,53,5,8,8,8,0.3,0.3
2025-07-30T1800,1279A,117.1318,31.8403,合肥市,高新区,,,22,21,8,12,50,,59,59,15,12,,6,0.5,0.4
2025-07-30T1800,3464A,117.3803,31.9147,合肥市,高教基地,,,,23,,16,,,67,,,9,,6,,0.2
2025-07-30T1800,3614A,79.924,37.0877,和田地区,地区环保局,颗粒物(PM10),500,1445,584,219,139,99,,76,76,5,11,,3,0.3,0.5
2025-07-30T1800,3615A,79.9131,37.113,和田地区,市环保局,颗粒物(PM10),500,1126,482,205,117,87,,63,63,10,19,3,2,0.0,0.1
2025-07-30T1800,2516A,108.2011,24.715,河池市,东仁乐园,,,,,,,,,,,,,,,,
2025-07-30T1800,2517A,108.0497,24.6947,河池市,市环保站,,29,29,32,13,18,67,,84,84,6,11,3,6,0.5,0.6
2025-07-30T1800,2518A,108.0983,24.6989,河池市,市疾控中心,,25,24,29,17,18,72,,87,87,9,15,4,8,0.6,0.8
2025-07-30T1800,1696A,114.6778,23.7569,河源市,源西,,19,13,26,8,16,60,,95,95,6,6,8,7,0.5,0.5
2025-07-30T1800,1697A,114.6944,23.7586,河源市,东埔,,23,,22,16,16,63,,98,98,15,14,4,4,0.5,0.6
2025-07-30T1800,1698A,114.6892,23.7233,河源市,老城,,,24,27,,30,60,,91,91,,13,,4,0.5,0.5
2025-07-30T1800,1718A,115.4208,35.2464,菏泽市,气象局,臭氧1小时,54,34,32,13,18,163,,160,160,6,12,2,5,0.4,0.3
2025-07-30T1800,3374A,115.5564,35.0891,菏泽市,定陶老年大学,臭氧1小时,59,27,32,14,14,167,,152,152,8,15,3,2,0.2,0.2
2025-07-30T1800,4184A,115.4797,35.24401,菏泽市,永昌路1号,臭氧1小时,54,29,35,14,20,163,,162,162,8,16,5,7,0.2,0.2
2025-07-30T1800,4193A,115.4715,35.2800,菏泽市,长城路999号,臭氧1小时,58,30,32,3,13,166,,160,160,7,13,4,5,0.3,0.3
2025-07-30T1800,2514A,111.5264,24.4172,贺州市,环保小区,,30,26,28,11,19,95,,102,102,5,11,9,10,1.0,1.1
2025-07-30T1800,2515A,111.5608,24.4078,贺州市,政协大楼,,34,23,26,13,17,106,,114,114,4,9,10,13,0.6,0.6
2025-07-30T1800,3534A,111.4744,24.4553,贺州市,西湾,,,28,31,16,19,87,,95,95,,11,7,9,0.2,0.4
2025-07-30T1800,2385A,114.17,35.9019,鹤壁市,市监测站,,49,18,33,10,21,156,,156,156,5,10,5,6,0.5,0.8
2025-07-30T1800,2386A,114.2956,35.7511,鹤壁市,市交警支队,,47,,33,23,23,150,,145,145,8,12,2,5,0.5,0.6
2025-07-30T1800,2387A,114.2878,35.7306,鹤壁市,迎宾馆,,47,30,37,28,23,150,,144,144,10,14,3,5,0.6,0.8
2025-07-30T1800,3474A,114.2617,35.6822,鹤壁市,大新区,,49,42,35,13,13,154,,146,146,3,6,6,7,0.5,0.7
2025-07-30T1800,3596A,114.1572,35.9603,鹤壁市,南山宾馆,臭氧1小时,55,26,40,16,17,164,,166,166,4,10,4,6,0.6,0.9
2025-07-30T1800,2244A,130.2537,47.3416,鹤岗市,哈啤分公司,,29,27,23,3,6,91,,87,87,8,11,13,13,0.7,0.7
2025-07-30T1800,2245A,130.2684,47.3086,鹤岗市,斯达机电,,,39,24,19,10,87,,88,88,8,7,12,12,,0.6
2025-07-30T1800,2246A,130.3114,47.3388,鹤岗市,东山纸板厂,,32,32,21,10,14,92,,84,84,11,10,12,13,1.2,1.1
2025-07-30T1800,2247A,130.1097,47.3382,鹤岗市,五号水库,,27,11,7,3,5,86,,80,80,11,13,10,10,0.2,0.1
2025-07-30T1800,2263A,127.4833,50.2524,黑河市,交通局,,20,20,16,10,8,49,,56,56,11,7,7,7,0.4,0.4
2025-07-30T1800,2264A,127.5144,50.2341,黑河市,环保局,,26,26,17,11,12,53,,59,59,12,7,4,4,0.3,0.4
2025-07-30T1800,2265A,127.5291,50.2472,黑河市,大黑河岛,,,,8,9,8,42,,36,34,6,5,27,28,,
2025-07-30T1800,1074A,115.6838,37.7541,衡水市,电机北厂,臭氧1小时,65,33,29,21,12,172,,158,158,6,12,7,7,0.6,0.4
2025-07-30T1800,1075A,115.6303,37.7316,衡水市,市监测站,,,36,25,6,7,172,,157,157,5,9,5,6,,0.3
2025-07-30T1800,3188A,115.6683,37.7217,衡水市,市城管局,臭氧1小时,73,35,29,26,15,178,,158,158,6,10,10,13,0.6,0.5
2025-07-30T1800,3459A,115.5989,37.5491,衡水市,地表水厂,臭氧1小时,55,47,35,8,3,164,,151,151,8,13,8,8,0.4,0.3
2025-07-30T1800,2456A,112.5003,26.9167,衡阳市,原169医院,,27,,23,7,11,84,,93,92,6,9,4,4,0.4,0.5
2025-07-30T1800,2457A,112.6194,26.9258,衡阳市,衡阳化工总厂,,25,11,23,8,13,78,,85,85,9,9,2,4,0.7,0.7
2025-07-30T1800,2458A,112.6211,26.8956,衡阳市,珠晖区环保局,,27,,22,12,14,86,,90,90,10,13,5,6,0.4,0.5
2025-07-30T1800,2459A,112.6197,26.8733,衡阳市,市委党校,,26,19,19,8,12,82,,89,89,10,11,7,6,0.5,0.7
2025-07-30T1800,2460A,112.6006,26.8919,衡阳市,市监测站,,25,6,25,3,15,79,,84,84,9,10,1,2,0.5,0.6
2025-07-30T1800,2461A,112.5664,26.9056,衡阳市,真空机电公司,,,,24,16,16,76,,85,85,8,7,3,4,0.7,0.7
2025-07-30T1800,3399A,112.6703,26.882,衡阳市,师范学院,,27,9,24,3,11,84,,84,84,8,8,6,6,0.7,0.7
2025-07-30T1800,2608A,103.3772,23.3993,红河哈尼族彝族自治州,污水处理厂,,38,,36,26,25,105,,103,103,9,14,11,14,0.2,0.4
2025-07-30T1800,2609A,103.3861,23.35,红河哈尼族彝族自治州,监测站,,33,33,42,14,26,77,,94,94,6,9,8,21,0.4,0.4
2025-07-30T1800,3038A,103.3758,23.368,红河哈尼族彝族自治州,州图书馆,,42,,33,29,28,83,,97,97,8,10,2,13,0.2,0.3
2025-07-30T1800,1090A,111.6507,40.7517,呼和浩特市,呼市一监,,34,7,11,3,4,106,,104,104,4,12,7,7,0.4,0.4
2025-07-30T1800,1091A,111.6572,40.8033,呼和浩特市,小召,,33,17,13,7,6,105,,108,108,17,18,8,7,0.4,0.3
2025-07-30T1800,1094A,111.7516,40.8369,呼和浩特市,如意水处理厂,,40,13,10,3,4,126,,108,108,6,19,5,4,0.1,0.1
2025-07-30T1800,1095A,111.7276,40.8062,呼和浩特市,二十九中,,43,19,14,6,5,135,,117,117,9,17,6,5,0.4,0.4
2025-07-30T1800,1096A,111.5512,40.7866,呼和浩特市,工大金川校区,,38,23,16,6,4,120,,112,112,11,17,6,5,0.4,0.4
2025-07-30T1800,1097A,111.717,40.7612,呼和浩特市,化肥厂生活区,,38,12,8,3,4,120,,115,115,12,14,7,7,0.4,0.4
2025-07-30T1800,3698A,111.5968,40.8178,呼和浩特市,红旗小学,,40,14,15,3,4,125,,122,122,12,13,3,3,0.4,0.4
2025-07-30T1800,3699A,111.6518,40.8389,呼和浩特市,海东办,,43,29,13,6,5,135,,126,126,19,16,4,4,0.4,0.4
2025-07-30T1800,2192A,119.7594,49.2261,呼伦贝尔市,区环保局,,15,11,17,10,13,48,,48,48,9,8,4,4,0.2,0.2
2025-07-30T1800,3061A,119.7512,49.1577,呼伦贝尔市,国华电力东,,18,14,16,11,8,55,,50,50,5,4,8,8,0.3,0.3
2025-07-30T1800,1250A,120.0751,30.8669,湖州市,城西水厂,,13,6,11,3,5,39,,50,46,10,6,6,6,0.4,0.4
2025-07-30T1800,2873A,120.0830,30.8929,湖州市,仁皇山新区,,12,6,11,3,5,36,,47,42,4,4,3,3,0.4,0.4
2025-07-30T1800,2907A,120.1844,30.8596,湖州市,吴兴区站,,10,6,13,3,5,32,,37,35,2,5,6,6,0.4,0.4
2025-07-30T1800,3562A,120.4148,30.8538,湖州市,南浔区站,,11,6,13,3,6,34,,37,35,6,7,5,5,0.5,0.5
2025-07-30T1800,1607A,120.9049,40.7211,葫芦岛市,龙港区,,34,21,22,6,9,108,,104,104,8,18,6,10,0.5,0.6
2025-07-30T1800,1608A,120.8392,40.7514,葫芦岛市,化工街,,35,17,12,3,6,112,,93,93,10,19,12,11,0.4,0.5
2025-07-30T1800,1609A,120.8341,40.7073,葫芦岛市,新区,,35,14,16,7,10,112,,98,98,6,16,3,4,0.7,0.8
2025-07-30T1800,1610A,120.8695,40.7677,葫芦岛市,东城区,,36,23,19,3,10,113,,96,96,11,20,7,7,0.5,0.6
2025-07-30T1800,2482A,109.5981,27.5721,怀化市,林科所,,26,26,25,3,8,77,,87,87,5,6,4,5,0.2,0.2
2025-07-30T1800,2483A,109.9453,27.5444,怀化市,河西地税局,,35,,29,24,17,77,,88,88,8,11,2,4,0.3,0.3
2025-07-30T1800,2484A,109.9781,27.5342,怀化市,市四医院,,,17,26,,18,77,,84,84,5,10,7,9,0.0,0.4
2025-07-30T1800,2485A,109.9972,27.5578,怀化市,监测楼,,26,9,29,3,16,81,,85,85,5,8,3,6,0.1,0.2
2025-07-30T1800,2486A,110.0394,27.583,怀化市,市委党校,,26,16,35,6,19,82,,90,90,7,13,6,16,0.1,0.2
2025-07-30T1800,1210A,119.036,33.5981,淮安市,钵池山,,19,19,16,11,13,43,,44,42,7,9,8,7,0.6,0.6
2025-07-30T1800,1211A,119.007,33.575,淮安市,北京南路,,19,19,18,13,12,40,,43,40,7,8,8,7,0.6,0.6
2025-07-30T1800,1212A,118.989,33.6067,淮安市,市监测站,,20,19,17,14,12,42,,47,45,6,7,9,8,0.5,0.6
2025-07-30T1800,1213A,119.135,33.5039,淮安市,楚州区监测站,,22,22,23,10,11,39,,44,36,4,5,7,7,0.3,0.5
2025-07-30T1800,3426A,118.8755,33.2894,淮安市,新华书店,,18,15,14,12,12,39,,42,39,8,10,9,9,0.4,0.4
2025-07-30T1800,4206A,119.0288,33.6319,淮安市,承德北路606号,,24,24,26,13,12,40,,43,41,8,10,6,6,0.5,0.5
2025-07-30T1800,2282A,116.8004,33.975,淮北市,监测站,,37,26,28,24,16,118,,129,129,6,8,7,7,0.6,0.6
2025-07-30T1800,2283A,116.8091,33.9007,淮北市,烈山区政府,,39,33,36,8,12,122,,132,132,4,6,7,8,0.5,0.5
2025-07-30T1800,3330A,116.8873,33.9836,淮北市,杜集区检察院,,36,23,34,15,17,113,,121,121,5,9,7,7,0.7,0.6
2025-07-30T1800,4017A,116.7923,33.9535,淮北市,市博物馆,,39,27,27,18,18,124,,132,132,4,6,9,9,0.4,0.5
2025-07-30T1800,2277A,116.8305,32.7727,淮南市,潘集区政府,,33,33,32,8,15,79,,71,71,6,12,2,3,0.3,0.4
2025-07-30T1800,2279A,116.8569,32.5951,淮南市,谢家集区政府,,27,15,24,6,10,84,,76,76,3,8,7,8,0.2,0.2
2025-07-30T1800,2280A,116.8281,32.633,淮南市,八公山区政府,,27,26,27,6,13,84,,75,75,6,9,10,10,0.2,0.2
2025-07-30T1800,2281A,116.6325,32.6201,淮南市,焦岗湖风景区管理处,,,,,,,,,,,,,,,,
2025-07-30T1800,2894A,117.0566,32.6531,淮南市,经济技术开发区消防队,,23,17,24,3,5,73,,73,73,11,13,8,9,0.1,0.2
2025-07-30T1800,3329A,117.0108,32.5893,淮南市,山南新区,,27,6,19,3,7,84,,76,76,6,8,10,10,0.4,0.4
2025-07-30T1800,4209A,117.0031,32.6445,淮南市,国庆中路369号,,28,23,27,19,16,81,,75,75,8,10,13,14,0.3,0.2
2025-07-30T1800,2446A,114.9028,30.4742,黄冈市,职工中心,,34,23,21,15,12,106,,135,134,2,2,6,7,0.3,0.5
2025-07-30T1800,2929A,114.8858,30.4519,黄冈市,红卫路,,35,20,19,15,14,109,,134,134,2,2,7,7,0.3,0.4
2025-07-30T1800,3398A,114.9136,30.4445,黄冈市,市林业局,,34,20,20,11,9,108,,130,129,3,2,7,6,0.5,0.5
2025-07-30T1800,2672A,102.0199,35.5102,黄南藏族自治州,同仁县隆务镇,颗粒物(PM10),52,53,23,3,10,84,,74,74,16,12,8,7,0.2,0.2
2025-07-30T1800,2295A,118.2903,29.6963,黄山市,延安路89号,,21,8,16,8,7,66,,60,60,2,4,3,3,0.3,0.3
2025-07-30T1800,2297A,118.1371,30.2756,黄山市,黄山区政府5号楼,,18,,18,3,8,56,,57,57,2,4,4,4,0.2,0.3
2025-07-30T1800,4210A,118.3354,29.7203,黄山市,滨江东路7-2号,,20,15,20,3,5,64,,55,55,2,5,2,2,0.2,0.3
2025-07-30T1800,2423A,115.0601,30.2313,黄石市,沈家营,,34,21,27,11,6,108,,123,121,9,9,7,17,0.5,0.5
2025-07-30T1800,2426A,114.8988,30.2019,黄石市,铁山,,28,25,25,7,7,88,,105,105,2,8,8,9,0.2,0.3
2025-07-30T1800,2427A,115.0307,30.2092,黄石市,团城山,,36,20,20,3,3,114,,125,125,4,8,7,8,0.2,0.4
2025-07-30T1800,3149A,115.0235,30.1578,黄石市,笔架山北路,,35,17,18,3,2,111,,114,114,3,8,6,7,0.3,0.4
2025-07-30T1800,4185A,115.0780,30.21118,黄石市,磁湖东路29号,,33,18,32,15,8,105,,116,116,2,9,6,8,0.3,0.4
2025-07-30T1800,1392A,114.4183,23.0528,惠州市,河南岸金山湖子站,细颗粒物(PM2.5),59,53,31,42,23,159,,142,142,24,22,7,7,0.8,0.7
2025-07-30T1800,1393A,114.4053,23.0822,惠州市,下埔横江三路子站,"细颗粒物(PM2.5),臭氧1小时",54,49,31,38,20,163,,144,144,16,20,3,4,0.6,0.6
2025-07-30T1800,1394A,114.4103,23.1142,惠州市,江北云山西路子站,臭氧1小时,60,43,32,33,17,168,,150,150,19,22,7,7,0.8,0.6
2025-07-30T1800,1395A,114.4645,22.7833,惠州市,惠阳区承修路船湖子站,,50,44,34,30,22,157,,136,136,21,25,6,7,0.7,0.6
2025-07-30T1800,1396A,114.5317,22.7422,惠州市,大亚湾管委会子站,,43,36,30,27,21,137,,115,115,28,28,8,8,0.7,0.7
2025-07-30T1800,3314A,114.4338,22.8134,惠州市,惠阳秋长,,48,48,44,32,26,149,,130,130,27,33,13,12,0.6,0.6
2025-07-30T1800,3452A,114.6517,22.775,惠州市,大亚湾霞涌,,33,,32,19,20,103,,96,96,12,22,6,6,0.6,0.7
2025-07-30T1800,2240A,130.9762,45.3001,鸡西市,环保局,,27,17,25,9,7,86,,,,13,8,4,3,0.3,0.3
2025-07-30T1800,2243A,130.9429,45.3039,鸡西市,第一中学,,27,,11,8,8,86,,82,82,12,6,10,10,0.2,0.2
2025-07-30T1800,3707A,131.0207,45.3073,鸡西市,欧美日汽修厂,,26,,13,12,10,82,,74,74,14,8,8,8,0.3,0.3
2025-07-30T1800,3709A,130.9967,45.3106,鸡西市,市政设施管理处,,29,16,16,7,7,91,,78,78,13,10,6,11,0.3,0.4
2025-07-30T1800,2367A,114.9754,27.0803,吉安市,红声器材厂,,34,34,29,15,12,90,,100,100,4,5,7,8,0.4,0.5
2025-07-30T1800,2368A,114.9658,27.0999,吉安市,市森林工业局,,31,26,24,20,11,98,,105,105,2,4,8,9,0.2,0.5
2025-07-30T1800,2369A,114.99,27.1312,吉安市,市环境监测站,,30,16,21,12,10,93,,101,101,2,3,12,13,0.5,0.6
2025-07-30T1800,2370A,115.0093,27.0968,吉安市,青原区法院,,30,24,22,13,12,96,,96,96,5,8,7,7,0.6,0.7
2025-07-30T1800,1772A,126.54,43.8622,吉林市,哈达湾,,28,13,11,6,8,88,,88,88,4,6,6,6,0.3,0.4
2025-07-30T1800,1773A,126.5844,43.8358,吉林市,东局子,,27,11,16,3,5,84,,88,88,5,6,5,5,0.3,0.3
2025-07-30T1800,1774A,126.5052,43.8245,吉林市,电力学院,,29,8,10,8,7,90,,94,94,4,5,6,5,0.3,0.7
2025-07-30T1800,1775A,126.6133,43.8972,吉林市,江北,,28,16,15,3,4,88,,90,90,4,6,4,3,0.4,0.6
2025-07-30T1800,1776A,126.555,43.8306,吉林市,江南公园,,28,10,11,3,8,89,,94,94,7,6,2,1,0.2,0.3
2025-07-30T1800,1778A,126.7061,43.7133,吉林市,丰满,,32,8,9,8,7,101,,114,113,5,4,4,4,0.5,0.5
2025-07-30T1800,2868A,126.4739,43.953,吉林市,九站,,29,,14,3,17,91,,91,91,5,7,2,2,0.3,0.4
2025-07-30T1800,1299A,116.9862,36.6114,济南市,科干所,,42,24,28,15,20,133,,139,139,15,19,6,6,0.4,0.5
2025-07-30T1800,1300A,116.9376,36.665,济南市,农科所,,45,20,24,10,12,141,,22,,10,24,7,7,0.3,0.3
2025-07-30T1800,1301A,117.1265,36.6734,济南市,开发区,,41,22,26,12,18,131,,131,131,15,20,8,8,0.7,0.7
2025-07-30T1800,1303A,117.0624,36.6868,济南市,省种子仓库,,47,24,34,12,14,150,,150,150,10,22,5,6,0.5,0.6
2025-07-30T1800,1304A,116.9489,36.6447,济南市,机床二厂,,45,29,30,10,13,142,,143,143,10,19,8,9,0.3,0.4
2025-07-30T1800,1305A,117.0495,36.663,济南市,市监测站,,41,24,31,12,18,130,,132,132,17,22,8,9,0.5,0.6
2025-07-30T1800,1306A,116.7675,36.5484,济南市,长清党校,,45,24,29,24,16,143,,146,146,11,20,6,6,0.5,0.5
2025-07-30T1800,1616A,117.6795,36.229,济南市,技术学院,臭氧1小时,53,22,24,14,18,162,,168,168,10,13,7,8,0.6,0.7
2025-07-30T1800,1961A,117.532,36.6868,济南市,东山小学,,46,27,27,12,16,147,,148,148,7,16,6,7,0.3,0.3
2025-07-30T1800,3059A,117.7161,36.2049,济南市,泰兴公司,,45,31,28,24,16,143,,144,144,8,13,9,8,0.5,0.5
2025-07-30T1800,3064A,117.6867,36.2171,济南市,莱芜战役纪念馆,,49,22,29,20,19,154,,158,158,11,16,5,5,0.7,1
2025-07-30T1800,3494A,117.1673,36.9782,济南市,济阳区政府,,41,24,28,3,13,129,,132,132,5,9,8,8,0.2,0.4
2025-07-30T1800,3495A,117.1171,36.63,济南市,锦屏中学,,46,27,26,12,15,145,,142,142,9,12,6,5,0.8,0.8
2025-07-30T1800,3682A,116.9814,36.6819,济南市,济南四建,,45,29,31,12,17,141,,139,139,10,22,5,6,0.5,0.6
2025-07-30T1800,1653A,116.6251,35.4302,济宁市,火炬城,,45,34,26,7,10,141,,136,136,5,7,4,5,0.5,0.5
2025-07-30T1800,1655A,116.5491,35.4042,济宁市,电化厂,,49,32,31,14,12,155,,144,144,3,9,5,6,0.6,0.6
2025-07-30T1800,3500A,116.5814,35.3707,济宁市,北湖一中,,48,31,26,14,13,153,,148,148,4,7,3,3,0.3,0.3
2025-07-30T1800,3501A,116.8249,35.5593,济宁市,服务中心,,47,28,26,18,10,150,,148,148,8,10,3,3,0.5,0.4
2025-07-30T1800,3678A,116.5907,35.4054,济宁市,市第七中学,,45,31,27,9,7,143,,136,136,5,7,9,9,0.4,0.4
2025-07-30T1800,2255A,130.2751,46.8028,佳木斯市,佳纺,,25,13,11,3,5,77,,78,78,6,6,8,8,0.5,0.5
2025-07-30T1800,2256A,130.3995,46.8307,佳木斯市,发电厂,,,,10,,7,,,69,,,9,,6,,0.4
2025-07-30T1800,2257A,130.3258,46.7975,佳木斯市,环保局,,25,12,15,8,9,77,,77,77,7,6,10,10,0.4,0.5
2025-07-30T1800,2258A,130.3648,46.8032,佳木斯市,十一中,,23,22,13,7,6,72,,76,75,12,8,6,5,0.4,0.4
2025-07-30T1800,2259A,130.3794,46.7588,佳木斯市,四丰,,,,,,,,,,,4,4,1,4,0.4,0.5
2025-07-30T1800,1252A,120.7436,30.778,嘉兴市,清河小学,,,3,12,,8,38,,34,34,7,10,5,9,0.7,0.5
2025-07-30T1800,1253A,120.726,30.7478,嘉兴市,嘉兴学院,,12,6,15,3,6,38,,35,35,9,11,3,3,0.4,0.3
2025-07-30T1800,2872A,120.7846,30.7525,嘉兴市,南湖区残联,,13,7,11,3,7,40,,34,34,7,10,4,5,0.3,0.3
2025-07-30T1800,3407A,120.6916,30.7739,嘉兴市,秀洲住建,,13,6,10,3,5,39,,36,36,5,8,4,4,0.6,0.5
2025-07-30T1800,1945A,98.2908,39.7711,嘉峪关市,气象局,,,39,263,36,50,90,,104,96,10,11,,19,0.8,0.8
2025-07-30T1800,2884A,98.2672,39.7978,嘉峪关市,酒钢宾馆,,48,48,338,27,66,76,,112,101,15,12,13,34,1.4,1.1
2025-07-30T1800,3248A,98.2643,39.7724,嘉峪关市,雄关区,颗粒物(PM10),51,52,176,24,43,72,,103,86,19,15,10,14,0.7,0.7
2025-07-30T1800,1383A,113.1064,22.6058,江门市,北街,,23,20,29,15,22,71,,91,91,15,12,2,2,0.6,0.6
2025-07-30T1800,1384A,113.0731,22.5835,江门市,西区,颗粒物(PM10),51,51,33,9,23,78,,102,99,19,12,5,6,0.5,0.4
2025-07-30T1800,1385A,113.0219,22.5311,江门市,圭峰西,,25,,35,15,23,78,,102,102,9,7,4,4,0.4,0.5
2025-07-30T1800,1386A,113.0828,22.5947,江门市,东湖,,26,21,29,18,21,74,,88,88,16,12,6,6,0.5,0.5
2025-07-30T1800,3311A,113.1075,22.5647,江门市,江海富民,,30,30,34,16,22,88,,106,106,10,11,8,8,0.2,0.3
2025-07-30T1800,3449A,113.05,22.4667,江门市,新会银湖,,25,14,28,14,22,80,,96,96,6,12,3,3,0.4,0.4
2025-07-30T1800,1830A,113.1992,35.2590,焦作市,影视城,,,,15,,10,,,,,,6,,9,,0.5
2025-07-30T1800,3335A,113.3137,35.2641,焦作市,马村街道办,,47,24,40,12,24,149,,154,154,16,16,7,8,0.5,0.7
2025-07-30T1800,3336A,113.2465,35.2373,焦作市,焦作技师学院,,46,20,36,3,11,147,,150,150,12,11,4,2,0.6,0.8
2025-07-30T1800,3477A,113.1656,35.2539,焦作市,中站许衡医院,,49,32,35,12,20,156,,162,162,6,13,7,7,0.4,0.5
2025-07-30T1800,3981A,113.2449,35.1803,焦作市,原李万街道办,,46,27,43,3,14,145,,160,160,24,18,8,9,0.7,0.8
2025-07-30T1800,4264A,113.2340,35.2190,焦作市,新安路1731号,,50,33,38,3,15,159,,164,164,5,8,3,4,0.3,0.4
2025-07-30T1800,4295A,113.2722,35.2121,焦作市,人民路3066号,,47,36,45,9,19,150,,160,158,6,11,4,4,0.4,0.6
2025-07-30T1800,1708A,116.3701,23.5345,揭阳市,新兴,,39,39,29,20,15,76,,83,83,8,13,4,5,0.7,0.7
2025-07-30T1800,1709A,116.3264,23.5443,揭阳市,西马,颗粒物(PM10),53,55,31,20,16,72,,77,77,12,13,2,3,0.5,0.5
2025-07-30T1800,1710A,116.3611,23.5626,揭阳市,东兴,,44,44,35,15,14,69,,73,73,10,16,2,3,0.3,0.4
2025-07-30T1800,1711A,116.4151,23.5294,揭阳市,渔湖,,43,43,29,10,12,76,,85,85,6,14,8,8,0.6,0.7
2025-07-30T1800,3320A,116.403,23.5699,揭阳市,曲溪,,25,,24,15,12,80,,87,87,8,15,3,5,0.5,0.5
2025-07-30T1800,1944A,102.1692,38.5167,金昌市,天庆家园,颗粒物(PM10),461,561,218,128,57,104,,106,106,8,15,71,88,0.9,0.7
2025-07-30T1800,4022A,102.1647,38.5371,金昌市,金川区人防中心,颗粒物(PM10),384,487,211,148,59,98,,100,100,4,6,5,11,0.5,0.6
2025-07-30T1800,4239A,102.1930,38.5319,金昌市,长春路96号,颗粒物(PM10),487,587,214,132,52,97,,99,99,2,5,12,14,0.5,0.7
2025-07-30T1800,1262A,119.647,29.077,金华市,十五中,,19,19,25,11,14,56,,65,65,18,17,11,4,0.2,0.2
2025-07-30T1800,1263A,119.686,29.1029,金华市,监测站,,18,13,26,7,16,56,,62,62,9,16,3,4,0.3,0.3
2025-07-30T1800,3659A,119.656,29.1131,金华市,气象局,,15,14,24,7,11,48,,53,53,10,17,5,7,0.2,0.3
2025-07-30T1800,1767A,121.1115,41.0879,锦州市,南山,,31,14,22,7,13,97,,93,93,4,8,4,4,0.4,0.7
2025-07-30T1800,1768A,121.0604,40.8428,锦州市,开发区,,34,12,19,3,8,108,,102,102,7,20,5,5,0.6,0.7
2025-07-30T1800,1769A,121.1836,41.1119,锦州市,百股街道,,31,15,18,3,7,99,,98,98,9,13,6,8,0.5,0.7
2025-07-30T1800,1770A,121.1178,41.1222,锦州市,天安街道,,32,20,20,8,10,102,,95,95,12,13,7,10,0.5,0.8
2025-07-30T1800,1771A,121.1303,41.1386,锦州市,北湖公园,,31,25,21,3,10,99,,93,93,5,8,5,5,0.5,0.7
2025-07-30T1800,2160A,112.85,35.5051,晋城市,自来水公司,臭氧1小时,74,38,51,12,20,179,,158,158,11,17,1,1,0.5,0.6
2025-07-30T1800,2161A,112.8318,35.4936,晋城市,白云商贸,臭氧1小时,60,38,42,7,14,168,,152,152,9,14,1,2,0.5,0.7
2025-07-30T1800,2162A,112.8508,35.4887,晋城市,市环保局,臭氧1小时,57,45,56,14,20,165,,148,148,5,13,2,2,0.5,0.6
2025-07-30T1800,2163A,112.8676,35.4897,晋城市,技术学院,,49,30,33,9,15,155,,137,137,8,15,6,3,0.5,0.7
2025-07-30T1800,2165A,112.8453,35.546,晋城市,白马寺,臭氧1小时,77,17,31,12,24,181,,155,155,3,3,8,7,0.6,0.8
2025-07-30T1800,3620A,112.8271,35.4828,晋城市,泽州一中,臭氧1小时,73,43,40,3,18,178,,161,161,6,11,5,5,0.4,0.6
2025-07-30T1800,2173A,112.7249,37.7067,晋中市,南都小区,,46,32,28,27,14,146,,155,155,5,16,3,5,0.5,0.4
2025-07-30T1800,2174A,112.6991,37.6982,晋中市,榆次区政府,,46,44,34,14,11,147,,156,156,3,18,8,10,0.8,0.7
2025-07-30T1800,2865A,112.7195,37.6828,晋中市,榆次三中,,48,48,25,17,9,146,,155,155,4,15,7,9,0.6,0.4
2025-07-30T1800,4200A,112.7478,37.6954,晋中市,迎宾街26号,,48,36,25,14,8,151,,162,162,4,14,6,7,0.7,0.6
2025-07-30T1800,2439A,112.2014,31.0481,荆门市,竹园小学,,41,37,37,17,17,129,,120,120,6,11,2,2,0.2,0.5
2025-07-30T1800,2440A,112.1969,30.9891,荆门市,掇刀,,,22,31,19,17,136,,129,129,3,10,9,10,,0.6
2025-07-30T1800,2441A,112.2213,31.0386,荆门市,石化一小,,44,39,38,24,17,138,,130,130,4,9,3,6,0.6,0.8
2025-07-30T1800,3012A,112.1849,31.0362,荆门市,西山林语,,,27,34,23,18,136,,124,124,3,7,8,9,,0.5
2025-07-30T1800,3547A,112.1632,31.0138,荆门市,龙泉中学南校,,43,26,24,6,18,137,,119,119,7,13,3,4,0.5,0.7
2025-07-30T1800,1844A,112.2494,30.3197,荆州市,市图书馆,,34,17,19,13,16,108,,109,109,4,8,2,3,0.5,0.5
2025-07-30T1800,1845A,112.2008,30.3544,荆州市,市委党校,,38,,22,26,18,109,,108,108,10,14,4,7,0.4,0.5
2025-07-30T1800,3194A,112.2747,30.3122,荆州市,管委会,,35,14,19,8,14,109,,108,108,8,12,6,6,0.6,0.6
2025-07-30T1800,4268A,112.1722,30.3366,荆州市,学苑路85号,,35,,20,16,17,111,,108,108,11,12,4,6,0.3,0.3
2025-07-30T1800,2342A,117.3102,29.3867,景德镇市,王港中学,,,,,,,,,,,,,,,,
2025-07-30T1800,2343A,117.2117,29.2933,景德镇市,老干部活动中心,,30,30,13,12,8,75,,67,67,5,6,7,7,0.4,0.4
2025-07-30T1800,2344A,117.1894,29.2789,景德镇市,兽医站,,25,22,24,16,10,77,,71,70,5,9,4,6,0.4,0.4
2025-07-30T1800,2346A,117.2461,29.2956,景德镇市,陶研所,,23,22,19,10,8,71,,68,68,4,6,4,4,0.6,0.6
2025-07-30T1800,4289A,117.1542,29.2566,景德镇市,青少年活动中心,,22,20,16,12,11,70,,70,70,7,9,5,5,0.3,0.4
2025-07-30T1800,1803A,115.9872,29.6815,九江市,十里,,26,,19,18,22,83,,102,101,5,8,5,6,0.4,0.5
2025-07-30T1800,1804A,115.9584,29.7046,九江市,茅山头,,25,11,29,11,19,79,,103,99,4,8,3,4,0.3,0.4
2025-07-30T1800,1805A,115.9877,29.7295,九江市,西园,,29,15,21,10,13,90,,111,110,4,12,5,6,0.5,0.6
2025-07-30T1800,1808A,115.9114,29.6038,九江市,综合工业园,,29,12,26,9,14,90,,116,114,8,14,6,7,0.5,0.6
2025-07-30T1800,1809A,116.0721,29.7535,九江市,石化总厂,,22,15,25,3,20,70,,90,88,10,15,9,8,0.5,0.8
2025-07-30T1800,1810A,115.9773,29.5698,九江市,庐山气象台,,25,22,19,12,9,78,,88,88,5,5,6,6,0.6,0.8
2025-07-30T1800,3190A,116.0254,29.6994,九江市,外国语学校,,25,17,20,11,17,80,,100,99,5,9,11,12,0.3,0.4
2025-07-30T1800,4253A,116.0102,29.6594,九江市,莲花大道8号,,24,17,18,16,13,76,,97,96,2,3,4,4,0.4,0.5
2025-07-30T1800,4240A,98.4958,39.7339,酒泉市,玉门东路5号,,50,44,182,35,68,88,,100,96,3,6,5,18,0.2,0.3
2025-07-30T1800,4241A,98.5099,39.7506,酒泉市,北大街108号,,42,41,179,29,61,86,,100,95,4,5,6,11,0.3,0.3
2025-07-30T1800,2698A,76.0072,39.4467,喀什地区,巡警大队,颗粒物(PM10),58,65,122,17,33,79,,78,77,15,22,3,3,0.4,0.5
2025-07-30T1800,2699A,75.9755,39.4694,喀什地区,吾办,颗粒物(PM10),62,74,139,33,60,82,,83,82,16,20,6,6,0.4,0.6
2025-07-30T1800,4027A,75.9483,39.4689,喀什地区,老干局,颗粒物(PM10),53,55,118,22,42,86,,78,72,9,15,5,5,0.5,0.5
2025-07-30T1800,1824A,114.3389,34.7781,开封市,肿瘤医院,臭氧1小时,92,36,33,14,17,193,,176,176,9,15,5,5,0.4,0.4
2025-07-30T1800,1826A,114.2885,34.7965,开封市,世纪星幼儿园,臭氧1小时,77,34,33,20,20,181,,163,163,9,10,6,4,0.6,0.8
2025-07-30T1800,3147A,114.3438,34.8106,开封市,龙亭公园,臭氧1小时,80,31,31,7,20,184,,167,167,7,11,7,4,0.4,0.5
2025-07-30T1800,3210A,114.3644,34.7964,开封市,汴京公园,臭氧1小时,75,43,37,15,19,180,,166,166,7,11,6,5,0.5,0.5
2025-07-30T1800,3473A,114.2485,34.8306,开封市,技师学院,,,,28,6,22,,,,,,8,6,5,0.5,0.5
2025-07-30T1800,3592A,114.4644,34.7556,开封市,祥符区生态环境局,臭氧1小时,57,39,38,14,19,165,,159,159,16,23,5,6,0.4,0.4
2025-07-30T1800,1951A,84.895,45.6094,克拉玛依市,长征新村,,44,44,31,15,11,112,,100,100,5,5,3,3,0.2,0.1
2025-07-30T1800,1952A,84.8988,45.5893,克拉玛依市,南林小区,,32,29,30,8,7,100,,96,96,6,5,3,1,0.2,0.1
2025-07-30T1800,1954A,84.905,44.3396,克拉玛依市,独山子区,,33,33,45,12,16,97,,104,104,9,11,8,12,0.6,0.6
2025-07-30T1800,1955A,85.6979,46.098,克拉玛依市,乌尔禾区商贸楼,,29,26,33,6,10,90,,88,88,6,8,7,7,0.5,0.5
2025-07-30T1800,3612A,85.1045,45.6899,克拉玛依市,白碱滩区新站,,41,35,38,13,17,129,,113,113,2,3,10,9,0.0,0
2025-07-30T1800,2697A,76.1454,39.7142,克孜勒苏柯尔克孜自治州,市人民政府,,47,47,105,28,48,107,,99,97,7,12,3,6,0.1,0.1
2025-07-30T1800,3665A,76.1658,39.7157,克孜勒苏柯尔克孜自治州,克州文化中心,,50,50,110,34,58,105,,94,89,3,10,5,6,0.4,0.4
2025-07-30T1800,1450A,102.8204,24.8886,昆明市,呈贡新区,,45,19,25,14,22,144,,122,122,11,24,4,5,0.4,0.4
2025-07-30T1800,1451A,102.6251,24.9608,昆明市,西山森林公园,,,,,,,,,,,,,,,,
2025-07-30T1800,1452A,102.7252,25.0902,昆明市,龙泉镇,,34,12,25,3,9,108,,100,100,6,16,1,1,0.4,0.4
2025-07-30T1800,1453A,102.7266,25.0375,昆明市,东风东路,,,,30,14,18,112,,98,98,,19,4,3,0.4,0.5
2025-07-30T1800,1454A,102.6742,25.0669,昆明市,金鼎山,,30,10,33,7,16,96,,86,86,7,18,1,2,0.3,0.5
2025-07-30T1800,1455A,102.6644,25.0401,昆明市,碧鸡广场,,30,6,34,3,18,95,,85,85,8,21,8,7,0.4,0.5
2025-07-30T1800,3179A,102.7494,25.0119,昆明市,官渡区博物馆,,39,13,27,9,16,124,,104,104,8,28,2,2,0.4,0.5
2025-07-30T1800,3375A,102.8017,24.8336,昆明市,青年创业园,,41,13,27,12,19,130,,118,118,5,20,4,4,0.5,0.6
2025-07-30T1800,3550A,102.7997,24.9786,昆明市,昆明学院,,42,9,37,6,24,133,,110,110,9,26,7,6,0.3,0.4
2025-07-30T1800,3551A,102.5967,24.6736,昆明市,晋宁区生态环境分局,,32,,45,14,29,101,,23,,6,19,7,6,0.5,0.7
2025-07-30T1800,3552A,102.6678,24.9856,昆明市,云天化总部,,36,8,27,3,18,114,,96,96,10,24,8,4,0.4,0.6
2025-07-30T1800,1456A,91.1319,29.6514,拉萨市,八廓街,,35,8,12,7,8,109,,100,100,6,10,6,5,0.4,0.4
2025-07-30T1800,1457A,91.1221,29.6747,拉萨市,市环保局,,34,10,14,7,8,108,,101,101,7,11,7,6,0.2,0.3
2025-07-30T1800,1458A,91.0874,29.6475,拉萨市,区监测站,,31,8,8,3,6,99,,89,89,7,14,3,3,0.2,0.3
2025-07-30T1800,1459A,91.1774,29.6541,拉萨市,西藏大学,,33,8,10,3,8,105,,99,99,8,10,6,5,0.4,0.4
2025-07-30T1800,1460A,90.9798,29.6588,拉萨市,区辐射站,,29,9,18,6,9,92,,82,82,7,16,5,5,0.3,0.4
2025-07-30T1800,1461A,91.0834,29.6292,拉萨市,拉萨火车站,,31,6,8,3,7,98,,86,86,5,12,5,5,0.2,0.2
2025-07-30T1800,2520A,109.2203,23.7256,来宾市,来宾技工学校,,41,41,31,22,19,94,,88,88,6,10,6,7,0.6,0.7
2025-07-30T1800,3535A,109.1781,23.7297,来宾市,兴宾区政府,,30,21,27,17,18,95,,89,89,6,12,5,8,1.0,1
2025-07-30T1800,4002A,109.2416,23.7461,来宾市,中南小学,,,25,29,15,20,95,,97,97,,10,,11,0.4,0.4
2025-07-30T1800,1477A,104.1373,35.9454,兰州市,榆中兰大校区,,,,,,,,,,,,,,,,
2025-07-30T1800,1479A,103.831,36.0464,兰州市,铁路设计院,,43,32,39,19,21,135,,157,157,37,25,10,12,0.4,0.5
2025-07-30T1800,3241A,103.7439,36.0842,兰州市,百合公园,,47,34,38,11,16,149,,155,155,9,22,5,6,0.4,0.5
2025-07-30T1800,3242A,103.9611,35.998,兰州市,和平,,45,16,27,3,12,142,,147,147,3,10,10,11,0.3,0.4
2025-07-30T1800,4236A,103.6293,36.0938,兰州市,庄浪东路808号,臭氧1小时,69,39,40,16,19,175,,180,180,40,28,13,12,0.3,0.3
2025-07-30T1800,4237A,103.7251,36.1043,兰州市,安宁西路88号,臭氧1小时,95,30,38,20,19,196,,190,190,1,14,10,7,0.4,0.4
2025-07-30T1800,4238A,103.8470,36.0676,兰州市,北滨河东路1号,臭氧1小时,53,24,30,20,19,162,,168,168,16,26,10,10,0.5,0.6
2025-07-30T1800,3245A,103.6633,36.533,兰州新区,新区管委会,,47,29,26,21,18,148,,148,148,9,9,7,11,0.3,0.4
2025-07-30T1800,3246A,103.6975,36.4789,兰州新区,舟曲中学,,,,,,,,,,,,,,,,
2025-07-30T1800,1067A,116.6708,39.5111,廊坊市,药材公司,,43,21,20,8,7,135,,123,123,4,13,3,3,0.3,0.3
2025-07-30T1800,1068A,116.7214,39.5589,廊坊市,开发区,,41,18,20,11,9,131,,121,121,6,13,3,2,0.3,0.3
2025-07-30T1800,1070A,116.7244,39.5269,廊坊市,北华航天学院,,45,30,33,8,7,141,,126,126,2,14,4,4,0.3,0.3
2025-07-30T1800,2919A,116.7022,39.5453,廊坊市,河北工业大学,,44,26,32,8,7,139,,126,126,4,14,4,5,0.3,0.3
2025-07-30T1800,2535A,103.7723,29.5462,乐山市,花湖湾,臭氧1小时,55,26,31,20,22,164,,146,146,4,11,7,6,0.9,0.9
2025-07-30T1800,2536A,103.7627,29.5844,乐山市,牛耳桥,,50,24,30,18,20,160,,160,160,8,16,4,5,0.7,0.7
2025-07-30T1800,2537A,103.7508,29.6006,乐山市,市第三水厂,,47,29,31,18,23,150,,152,152,7,13,2,4,0.6,0.7
2025-07-30T1800,2538A,103.7571,29.5664,乐山市,市监测站,,47,31,32,24,22,150,,141,141,6,12,5,7,0.7,0.7
2025-07-30T1800,3361A,103.7311,29.5628,乐山市,理工大学,臭氧1小时,63,33,34,21,24,170,,158,158,4,14,6,7,0.7,0.8
2025-07-30T1800,2598A,100.2143,26.8576,丽江市,西南郊,,34,19,20,18,12,107,,103,103,6,11,7,6,0.6,0.6
2025-07-30T1800,2599A,100.2497,26.8802,丽江市,丽江古城,,34,29,27,14,12,106,,100,100,11,14,11,9,0.4,0.5
2025-07-30T1800,2600A,100.2203,26.8906,丽江市,市中心,,34,24,18,9,13,108,,101,101,11,14,8,8,0.5,0.4
2025-07-30T1800,1267A,119.914,28.4514,丽水市,监测站大楼,,25,25,23,11,11,61,,53,53,11,12,5,4,0.3,0.3
2025-07-30T1800,1268A,119.93,28.4586,丽水市,莲都小学,,21,20,27,7,9,65,,55,55,8,15,4,4,0.4,0.3
2025-07-30T1800,1269A,119.879,28.4231,丽水市,余庄前,,21,21,27,10,13,41,,47,47,6,9,4,4,0.4,0.5
2025-07-30T1800,1173A,119.176,34.5885,连云港市,市环境监测站,,18,14,15,9,6,55,,63,63,6,8,5,3,0.4,0.4
2025-07-30T1800,3000A,119.3581,34.6972,连云港市,德源药业,,17,14,14,3,3,52,,56,56,8,11,5,4,0.6,0.6
2025-07-30T1800,3007A,119.178,34.844,连云港市,新城一中,,23,13,15,7,6,71,,71,71,5,10,5,5,0.6,0.6
2025-07-30T1800,3008A,119.3608,34.7519,连云港市,胡沟管理处,,21,14,11,3,4,66,,73,73,6,16,7,6,0.6,0.7
2025-07-30T1800,3009A,119.1478,34.5911,连云港市,矿山设计院,,18,14,16,7,7,55,,64,64,7,10,3,3,0.5,0.5
2025-07-30T1800,3434A,119.2413,34.6539,连云港市,工贸学校,,19,15,14,10,9,59,,65,65,7,8,8,6,0.5,0.6
2025-07-30T1800,3664A,119.4172,34.7341,连云港市,连云街道,,20,20,14,10,7,58,,69,68,9,6,4,3,0.5,0.5
2025-07-30T1800,2571A,102.3431,27.8099,凉山彝族自治州,青龙寺,细颗粒物(PM2.5),74,,21,54,31,103,,88,88,4,4,7,6,3.4,2.1
2025-07-30T1800,2572A,102.2721,27.8415,凉山彝族自治州,邛海宾馆,,28,16,24,13,15,89,,106,106,7,9,7,9,0.5,0.7
2025-07-30T1800,2573A,102.2625,27.898,凉山彝族自治州,西昌市政府,,30,27,25,14,20,96,,110,110,7,10,5,10,0.6,0.7
2025-07-30T1800,2574A,102.2685,27.8851,凉山彝族自治州,凉山州政府,,30,23,26,20,17,95,,112,112,15,18,9,11,0.7,0.9
2025-07-30T1800,4229A,102.2342,27.8859,凉山彝族自治州,凯乐南路30号,,34,34,28,14,14,74,,105,105,24,14,8,12,0.7,1
2025-07-30T1800,2212A,123.2,41.1953,辽阳市,宏伟区,,36,24,14,19,5,115,,126,125,6,6,3,3,0.7,0.6
2025-07-30T1800,2213A,123.1683,41.2495,辽阳市,新华园,,39,19,10,13,5,124,,130,130,5,6,6,5,0.6,0.5
2025-07-30T1800,2214A,123.2354,41.2639,辽阳市,滨河路,,,,,8,6,107,,114,114,10,9,4,3,0.6,0.5
2025-07-30T1800,2215A,123.149,41.2991,辽阳市,铁西工业园,,30,19,8,3,4,96,,103,102,6,8,3,3,0.7,0.7
2025-07-30T1800,2227A,125.1358,42.8845,辽源市,环保局,,30,20,17,3,2,93,,100,100,4,3,6,5,0.3,0.3
2025-07-30T1800,3239A,125.0764,42.9078,辽源市,银鹰制药,,31,7,8,6,4,98,,101,100,5,10,7,8,0.3,0.4
2025-07-30T1800,1625A,115.9848,36.4372,聊城市,区政府,,47,35,32,20,21,149,,152,152,7,18,6,10,0.8,0.8
2025-07-30T1800,2878A,116.0072,36.4343,聊城市,聊大东校,,49,24,35,19,21,156,,156,156,7,20,6,9,1.0,0.9
2025-07-30T1800,3200A,115.9819,36.4978,聊城市,监控中心,,47,16,15,14,13,148,,146,146,6,23,6,7,0.9,0.8
2025-07-30T1800,3513A,116.0445,36.4361,聊城市,九州社区,,48,40,39,22,20,152,,151,151,10,22,4,5,0.5,0.4
2025-07-30T1800,4018A,116.0567,36.4608,聊城市,星美广场,,43,39,42,20,19,136,,138,138,12,24,2,5,0.7,0.7
2025-07-30T1800,2632A,94.3681,29.6376,林芝市,林芝监测站,,23,10,11,3,5,73,,68,68,3,5,5,4,0.3,0.3
2025-07-30T1800,2633A,94.3616,29.6616,林芝市,林芝人民医院,,24,10,10,3,5,76,,68,68,3,4,4,3,0.4,0.4
2025-07-30T1800,2603A,100.0781,23.8982,临沧市,市环保局,,19,18,21,3,13,58,,49,49,6,7,12,8,0.3,0.5
2025-07-30T1800,2604A,100.0894,23.8822,临沧市,市气象局,,,15,20,8,14,52,,46,46,,8,9,10,,0.4
2025-07-30T1800,1733A,111.5531,36.0783,临汾市,临钢医院,,46,34,48,6,14,146,,160,160,6,13,4,4,0.8,0.8
2025-07-30T1800,1734A,111.5028,36.0714,临汾市,技工学校,,45,33,45,17,27,142,,159,156,6,13,6,8,0.5,0.6
2025-07-30T1800,1736A,111.5018,36.0855,临汾市,市委,臭氧1小时,54,32,55,7,16,163,,184,184,8,13,6,8,0.5,0.7
2025-07-30T1800,3018A,111.505,36.1014,临汾市,唐尧大酒店,,50,50,59,9,16,158,,174,174,12,13,5,6,0.4,0.8
2025-07-30T1800,4244A,111.4879,36.0530,临汾市,启星学校,,46,30,46,20,28,147,,168,168,8,14,6,7,0.6,0.9
2025-07-30T1800,4271A,103.2464,35.6123,临夏回族自治州,滨河东路1号,,36,9,29,7,12,113,,102,102,4,11,8,7,0.2,0.3
2025-07-30T1800,4310A,103.2093,35.5995,临夏回族自治州,新华街21号,,35,33,36,10,18,112,,102,102,5,15,7,6,0.2,0.3
2025-07-30T1800,1618A,118.3429,35.0532,临沂市,沂河小区,,28,24,28,14,21,88,,94,94,14,18,7,8,0.3,0.3
2025-07-30T1800,1619A,118.295,35.0583,临沂市,鲁南制药厂,,28,,22,16,22,87,,100,100,19,15,8,9,0.5,0.5
2025-07-30T1800,1620A,118.2794,34.9976,临沂市,新光毛纺厂,,30,,23,16,17,94,,105,105,16,17,7,8,0.5,0.5
2025-07-30T1800,1621A,118.3956,35.0888,临沂市,河东保险公司,,27,14,23,6,10,84,,95,95,15,13,6,6,0.5,0.5
2025-07-30T1800,3370A,118.3564,35.0215,临沂市,十里堡居委,,29,27,21,14,15,92,,104,104,13,14,10,10,0.4,0.4
2025-07-30T1800,3496A,118.3604,35.1084,临沂市,南坊新区,,25,19,26,7,12,79,,94,94,14,16,9,9,0.3,0.3
2025-07-30T1800,3860A,118.3920,35.0300,临沂市,皇山花园小区,,34,34,24,15,16,87,,101,101,14,15,12,12,0.3,0.4
2025-07-30T1800,1870A,109.4856,24.3895,柳州市,柳东小学,,42,27,31,12,20,133,,134,134,5,6,2,4,0.6,0.5
2025-07-30T1800,1871A,109.4157,24.3277,柳州市,环保监测站,,,34,29,29,17,116,,124,124,9,9,,8,0.5,0.6
2025-07-30T1800,1872A,109.389,24.341,柳州市,河西水厂,,37,31,30,19,20,116,,130,130,10,10,6,8,1.2,1.2
2025-07-30T1800,1873A,109.4311,24.2921,柳州市,市四中,,42,42,33,17,18,103,,105,105,8,12,6,6,1.0,1.1
2025-07-30T1800,1874A,109.4006,24.3631,柳州市,市九中,颗粒物(PM10),53,56,36,12,19,104,,129,129,10,11,5,4,0.5,0.5
2025-07-30T1800,1875A,109.4958,24.3134,柳州市,古亭山,,38,38,32,21,19,114,,117,117,8,14,5,5,0.7,0.7
2025-07-30T1800,3402A,109.5422,24.3996,柳州市,市二中,,44,44,28,13,16,118,,131,131,6,11,5,9,0.8,0.8
2025-07-30T1800,2307A,116.5079,31.737,六安市,监测大楼,,23,12,25,12,16,73,,75,75,3,9,4,6,0.2,0.3
2025-07-30T1800,2308A,116.4738,31.7643,六安市,皖西学院,,23,16,30,8,15,72,,78,78,3,12,2,2,0.2,0.3
2025-07-30T1800,2309A,116.4996,31.7905,六安市,朝阳厂,,22,17,26,8,17,70,,74,74,4,17,5,5,0.2,0.3
2025-07-30T1800,2310A,116.5567,31.7886,六安市,开发区,,32,32,24,10,17,70,,76,76,5,16,5,3,0.2,0.3
2025-07-30T1800,2576A,104.8,26.5892,六盘水市,窑上,,,,25,5,7,112,,107,107,,6,,2,,0.4
2025-07-30T1800,2577A,104.83,26.5917,六盘水市,黄土坡,,35,15,19,11,13,110,,106,106,6,15,10,10,0.2,0.3
2025-07-30T1800,2578A,104.89,26.5939,六盘水市,水钢,,33,12,46,7,21,103,,86,86,5,25,7,23,0.3,1.2
2025-07-30T1800,2579A,104.8475,26.5894,六盘水市,民中,,34,18,24,3,11,106,,102,102,9,20,10,9,0.3,0.5
2025-07-30T1800,2580A,104.9544,26.5506,六盘水市,双水,,35,,29,10,17,109,,100,100,4,22,5,8,0.4,0.8
2025-07-30T1800,2335A,117.0189,25.1181,龙岩市,龙岩师专,,,,,,,,,,,,,,,,
2025-07-30T1800,2336A,117.0217,25.1033,龙岩市,龙岩市监测站,,,,23,3,12,109,,75,75,6,8,3,5,0.3,0.6
2025-07-30T1800,2337A,117.0258,25.0661,龙岩市,闽西职业技术学院,,32,23,19,3,10,100,,68,68,5,5,3,3,0.4,0.6
2025-07-30T1800,2338A,117.0196,25.0306,龙岩市,龙岩学院,,33,21,18,3,10,105,,70,70,5,4,4,4,0.4,0.5
2025-07-30T1800,2665A,105.0822,33.3261,陇南市,汉王镇固水子,,,,,,,,,,,,,,,,
2025-07-30T1800,2885A,104.9339,33.3826,陇南市,滨江中学,,32,21,36,16,14,100,,104,104,2,6,6,7,0.4,0.5
2025-07-30T1800,3247A,104.955,33.371,陇南市,市总工会,,34,29,41,14,14,108,,110,110,2,4,5,5,0.4,0.4
2025-07-30T1800,2487A,111.9589,27.8901,娄底市,电视发射台,,19,19,35,3,11,36,,62,62,4,4,6,6,0.3,0.3
2025-07-30T1800,2488A,111.9975,27.725,娄底市,市监测站,,18,,32,8,17,55,,73,73,20,24,10,13,1.1,1.3
2025-07-30T1800,2489A,112.0194,27.7314,娄底市,市委党校,,23,13,30,7,18,72,,85,85,16,22,4,14,0.7,1
2025-07-30T1800,2490A,111.9561,27.7569,娄底市,涟钢,,15,9,28,7,15,47,,59,58,20,15,11,11,1.1,1.3
2025-07-30T1800,2491A,111.9892,27.7044,娄底市,市政府,,,,32,0,13,67,,83,83,4,6,6,5,0.7,0.8
2025-07-30T1800,1893A,105.4324,28.9634,泸州市,九狮山,,43,43,43,19,31,125,,138,138,7,13,3,3,0.7,0.5
2025-07-30T1800,1894A,105.4427,28.9063,泸州市,小市上码头,,26,26,37,13,21,82,,115,115,6,13,2,3,0.5,0.6
2025-07-30T1800,1895A,105.4241,28.8573,泸州市,兰田宪桥,,31,24,36,11,19,99,,138,138,7,14,7,7,0.4,0.4
2025-07-30T1800,1896A,105.4379,28.8833,泸州市,市环监站,,33,22,34,15,23,105,,143,143,12,18,8,9,0.3,0.4
2025-07-30T1800,4272A,105.3689,28.7783,泸州市,纳溪中医医院,,31,28,31,14,24,97,,143,143,12,16,3,3,0.4,0.5
2025-07-30T1800,2183A,111.1406,37.5211,吕梁市,环保局,臭氧1小时,90,38,36,25,15,192,,161,161,10,17,4,4,0.6,0.6
2025-07-30T1800,2185A,111.1297,37.5136,吕梁市,自来水公司,臭氧1小时,77,36,34,18,13,181,,156,156,9,15,4,7,0.5,0.5
2025-07-30T1800,2867A,111.1283,37.51,吕梁市,马茂庄小学,臭氧1小时,68,38,36,18,13,174,,158,158,7,15,5,7,0.5,0.4
2025-07-30T1800,1812A,112.3931,34.6516,洛阳市,市委党校,臭氧1小时,57,24,33,14,19,165,,162,162,8,10,8,9,0.5,0.6
2025-07-30T1800,1815A,112.494,34.6886,洛阳市,河南林校,臭氧1小时,58,33,43,11,19,166,,168,168,8,15,7,9,0.2,0.4
2025-07-30T1800,1816A,112.3844,34.623,洛阳市,开发区管委会,臭氧1小时,78,25,31,18,19,182,,174,174,4,8,10,10,0.5,0.6
2025-07-30T1800,1817A,112.4267,34.6258,洛阳市,市委新办公区,臭氧1小时,57,25,33,16,20,165,,159,159,8,11,8,9,0.4,0.5
2025-07-30T1800,3340A,112.6005,34.6326,洛阳市,伊滨,,48,21,28,6,17,152,,159,159,10,14,9,9,0.6,0.6
2025-07-30T1800,3341A,112.4951,34.6332,洛阳市,中移产业园,,50,29,42,8,19,159,,162,162,6,11,7,8,0.6,0.8
2025-07-30T1800,3593A,112.5736,34.8993,洛阳市,吉利监测站,,43,37,47,8,22,137,,162,162,2,15,5,9,0.4,0.6
2025-07-30T1800,3635A,112.3677,34.662,洛阳市,河科大西苑校区,臭氧1小时,63,32,38,10,16,170,,165,165,5,12,9,9,0.6,0.7
2025-07-30T1800,3636A,112.4388,34.6781,洛阳市,英才小学,,49,35,44,15,22,155,,155,155,9,13,8,10,0.5,0.6
2025-07-30T1800,4214A,112.4600,34.6949,洛阳市,春都路1号院,,47,21,37,9,13,148,,151,151,8,13,6,8,0.4,0.6
2025-07-30T1800,2399A,114.051,33.5699,漯河市,三五一五工厂,臭氧1小时,52,37,33,23,17,161,,134,134,5,11,5,7,0.5,0.5
2025-07-30T1800,2400A,114.0055,33.5698,漯河市,漯河大学,,50,45,38,17,14,157,,133,133,10,11,4,4,0.5,0.5
2025-07-30T1800,2401A,114.0138,33.5828,漯河市,市水利局,,48,36,33,19,16,152,,128,128,5,8,4,5,0.4,0.6
2025-07-30T1800,2402A,114.0261,33.5698,漯河市,市广电局,臭氧1小时,59,37,30,14,18,167,,141,141,6,8,2,3,0.4,0.4
2025-07-30T1800,3478A,113.9749,33.5664,漯河市,市图书馆,,50,37,28,19,15,159,,134,134,6,9,6,6,0.4,0.4
2025-07-30T1800,4250A,114.0892,33.5882,漯河市,韶山路11号,臭氧1小时,55,36,33,25,15,164,,136,136,9,14,2,2,0.5,0.4
2025-07-30T1800,1798A,118.5092,31.6837,马鞍山市,湖东路四小,,13,,24,9,16,27,,44,42,12,10,5,6,0.6,0.4
2025-07-30T1800,1799A,118.5024,31.6449,马鞍山市,开发区,,22,22,29,7,12,32,,47,45,11,9,8,8,1.0,0.7
2025-07-30T1800,1802A,118.6245,31.7241,马鞍山市,濮塘,,19,19,23,6,12,28,,44,42,6,7,7,8,0.5,0.5
2025-07-30T1800,3633A,118.4918,31.6809,马鞍山市,雨山,,28,28,29,8,14,22,,42,39,17,12,9,10,0.7,0.5
2025-07-30T1800,4191A,118.5274,31.72227,马鞍山市,慈湖高新区,,14,14,25,3,13,25,,41,38,11,12,6,7,0.4,0.5
2025-07-30T1800,1686A,111.0286,21.4688,茂名市,电白南海,颗粒物(PM10),51,51,37,22,21,58,,70,70,13,10,2,6,0.3,0.3
2025-07-30T1800,1687A,110.9294,21.6533,茂名市,茂石化七小,,46,46,34,31,18,81,,81,81,8,8,4,9,0.6,0.6
2025-07-30T1800,1688A,110.9107,21.6687,茂名市,健康路,,31,31,30,19,18,86,,86,86,8,9,4,14,0.7,0.6
2025-07-30T1800,1689A,110.8592,21.6828,茂名市,高岭,,48,48,40,22,15,73,,79,78,16,15,13,18,0.5,0.5
2025-07-30T1800,3450A,111.01,21.5165,茂名市,电白水东,,34,34,28,19,16,63,,74,74,13,11,6,12,0.6,0.5
2025-07-30T1800,2539A,104.0308,30.0478,眉山市,黑龙滩水库,臭氧1小时,54,14,20,3,15,163,,134,134,8,11,3,3,0.3,0.2
2025-07-30T1800,2540A,103.8416,30.0874,眉山市,气象局,臭氧1小时,103,40,38,27,20,205,,180,180,7,21,,3,0.6,0.6
2025-07-30T1800,3137A,103.8578,30.0744,眉山市,市委党校,臭氧1小时,94,29,30,14,15,195,,174,174,10,19,8,8,0.6,0.6
2025-07-30T1800,3148A,103.8291,30.0564,眉山市,区人社局,臭氧1小时,94,51,48,17,13,195,,184,184,17,21,12,13,0.8,0.8
2025-07-30T1800,1690A,116.1231,24.3284,梅州市,梅江月梅,,20,,24,13,13,61,,67,67,12,15,8,8,0.5,0.5
2025-07-30T1800,1691A,116.0797,24.2719,梅州市,梅县新城,,18,,21,8,11,56,,67,67,9,11,6,6,0.5,0.5
2025-07-30T1800,1692A,116.1248,24.2654,梅州市,环境监控中心,,24,24,26,13,11,60,,66,66,12,16,4,4,0.5,0.6
2025-07-30T1800,3315A,116.1233,24.2991,梅州市,梅龙,,,41,22,14,12,62,,67,67,,16,7,7,0.7,0.7
2025-07-30T1800,1878A,104.7778,31.4741,绵阳市,富乐山,,48,31,28,25,20,151,,130,130,6,13,8,9,0.5,0.5
2025-07-30T1800,1880A,104.6697,31.4668,绵阳市,高新区自来水公司,,45,26,34,14,15,143,,134,134,7,20,8,9,0.4,0.5
2025-07-30T1800,1881A,104.7287,31.5075,绵阳市,三水厂,臭氧1小时,69,23,30,21,19,175,,135,135,5,18,6,6,0.3,0.3
2025-07-30T1800,3491A,104.69,31.5322,绵阳市,西科大附属小学,臭氧1小时,64,30,29,22,17,171,,136,136,7,19,8,8,0.3,0.4
2025-07-30T1800,3492A,104.5648,31.5343,绵阳市,安州区旅游局,臭氧1小时,77,19,21,19,13,181,,141,141,11,13,2,2,1.1,0.8
2025-07-30T1800,4226A,104.7651,31.4531,绵阳市,绵阳市气象局,,48,25,32,23,20,153,,126,126,6,18,8,9,0.4,0.5
2025-07-30T1800,1784A,129.61,44.561,牡丹江市,环保大楼,,25,20,21,7,10,80,,76,76,9,7,3,3,0.3,0.2
2025-07-30T1800,1785A,129.6115,44.5782,牡丹江市,文化广场,,26,,8,11,9,82,,75,75,10,10,6,8,0.1,0.2
2025-07-30T1800,1786A,129.5904,44.5963,牡丹江市,第一医院,,28,17,17,13,15,87,,78,78,8,10,6,6,0.4,0.4
2025-07-30T1800,1787A,129.6364,44.6075,牡丹江市,机车工厂,,27,,17,16,12,84,,76,76,6,10,4,4,0.4,0.4
2025-07-30T1800,1788A,129.6386,44.5462,牡丹江市,第一中学,,26,26,17,17,8,81,,76,76,6,7,5,5,0.2,0.2
2025-07-30T1800,2531A,105.0703,29.61,内江市,市监测站,,38,35,23,22,20,119,,174,174,8,14,2,3,0.6,0.7
2025-07-30T1800,2532A,105.0717,29.5947,内江市,东兴区政府,,38,32,23,8,12,119,,177,177,6,13,7,7,0.5,0.6
2025-07-30T1800,2533A,105.0653,29.5817,内江市,内江二中,,44,44,32,21,22,119,,175,175,8,17,3,4,0.6,0.7
2025-07-30T1800,2534A,105.0406,29.5822,内江市,内江日报社,颗粒物(PM10),59,68,27,26,26,116,,164,164,9,20,8,8,0.5,0.6
2025-07-30T1800,2628A,92.0657,31.4846,那曲市,那曲监测站,,,6,15,3,5,90,,87,87,,8,,10,0.3,0.3
2025-07-30T1800,4243A,92.0515,31.4787,那曲市,那曲市委宣传部,,30,6,10,3,5,95,,90,90,2,5,5,5,0.2,0.3
2025-07-30T1800,1290A,115.8931,28.6843,南昌市,省外办,,25,24,26,14,18,79,,109,107,9,8,6,6,0.5,0.6
2025-07-30T1800,1291A,115.8886,28.7003,南昌市,省林业公司,,27,19,22,12,14,85,,112,110,3,10,3,4,0.4,0.4
2025-07-30T1800,1292A,115.8126,28.7442,南昌市,林科所,,27,14,16,9,9,84,,112,112,11,8,8,8,0.4,0.3
2025-07-30T1800,1294A,115.8518,28.687,南昌市,建工学校,,39,,30,27,10,88,,116,115,8,12,9,9,0.4,0.5
2025-07-30T1800,1295A,115.8921,28.6424,南昌市,象湖,,26,11,20,7,11,83,,120,118,6,9,7,7,0.3,0.4
2025-07-30T1800,1296A,115.7423,28.7996,南昌市,武术学校,,21,12,15,11,13,65,,104,102,3,3,8,8,0.4,0.5
2025-07-30T1800,3046A,115.9084,28.6062,南昌市,机电学校,,,27,29,9,13,71,,119,113,7,10,4,5,,0.5
2025-07-30T1800,3690A,115.9721,28.7031,南昌市,外国语学校,,29,,27,20,13,75,,121,118,4,11,5,6,0.2,0.5
2025-07-30T1800,4192A,115.9316,28.68677,南昌市,南京东路235号,,32,32,31,9,11,71,,110,108,8,10,3,4,0.5,0.6
2025-07-30T1800,1905A,106.056,30.8064,南充市,西山风景区,,,,,,,,,,,,,,,,
2025-07-30T1800,1906A,106.0789,30.8023,南充市,南充市委,,36,29,40,22,27,115,,133,133,8,11,5,5,0.4,0.5
2025-07-30T1800,1907A,106.1031,30.8217,南充市,南充炼油厂,颗粒物(PM10),51,51,45,21,25,99,,134,129,9,11,4,4,0.3,0.4
2025-07-30T1800,4227A,106.1083,30.7884,南充市,梨树横街98号,,38,32,44,17,23,121,,140,140,8,12,4,4,0.2,0.3
2025-07-30T1800,4304A,106.1172,30.843,南充市,清泉寺北路188号,,38,33,40,26,28,110,,133,132,6,12,2,3,0.2,0.3
2025-07-30T1800,4305A,106.067,30.7616,南充市,同庆路1号,,36,22,40,12,24,114,,137,137,10,14,4,4,0.4,0.4
2025-07-30T1800,1151A,118.8086,32.1065,南京市,迈皋桥,,9,6,14,3,8,27,,38,36,2,14,4,4,0.2,0.2
2025-07-30T1800,1152A,118.7538,32.0551,南京市,草场门,,8,6,17,3,9,22,,34,32,8,9,9,9,0.4,0.4
2025-07-30T1800,1153A,118.7794,32.0745,南京市,山西路,,14,14,19,3,5,28,,38,37,19,16,3,5,0.3,0.3
2025-07-30T1800,1154A,118.7752,32.0023,南京市,中华门,,10,,12,7,7,19,,31,30,4,7,9,9,0.5,0.5
2025-07-30T1800,1155A,118.8109,32.0309,南京市,瑞金路,,9,,11,3,7,24,,38,36,18,8,7,6,0.4,0.4
2025-07-30T1800,1156A,118.7997,32.0754,南京市,玄武湖,,,17,17,,4,22,,34,32,8,10,6,7,0.4,0.4
2025-07-30T1800,1157A,118.6414,32.0931,南京市,浦口,,10,10,20,3,7,26,,39,37,7,11,4,6,0.2,0.3
2025-07-30T1800,1158A,118.7356,31.9996,南京市,奥体中心,,9,7,17,3,9,28,,42,40,9,10,5,5,0.4,0.3
2025-07-30T1800,1159A,118.9125,32.1028,南京市,仙林大学城,,12,12,19,3,4,26,,36,34,4,7,8,9,0.5,0.5
2025-07-30T1800,3422A,118.8436,31.9198,南京市,江宁彩虹桥,,13,13,20,3,7,25,,34,34,7,10,4,4,0.5,0.5
2025-07-30T1800,3427A,118.8554,32.3578,南京市,六合雄州,,11,8,18,3,7,35,,37,36,9,10,4,4,0.4,0.5
2025-07-30T1800,4249A,118.8708,31.3402,南京市,汶溪路181号,,10,6,11,3,12,31,,41,41,6,9,2,6,0.4,0.4
2025-07-30T1800,4312A,119.019,31.6512,南京市,中山西路1号,,,,11,3,11,28,,36,36,,8,4,4,0.3,0.4
2025-07-30T1800,1401A,108.3103,22.7881,南宁市,二十一中,,39,,51,27,33,86,,121,121,19,14,3,4,0.6,0.7
2025-07-30T1800,1402A,108.3141,22.8528,南宁市,北湖,颗粒物(PM10),53,55,58,29,36,97,,142,142,12,16,3,2,0.6,0.7
2025-07-30T1800,1403A,108.3206,22.8225,南宁市,市监测站,,49,40,49,34,31,90,,131,131,17,14,4,4,0.6,0.6
2025-07-30T1800,1404A,108.3829,22.8037,南宁市,大自然花园,,,,52,,32,88,,128,128,12,10,5,5,0.6,0.5
2025-07-30T1800,1405A,108.4394,22.7904,南宁市,仙葫,,45,44,46,31,34,86,,114,114,8,11,3,3,0.8,0.8
2025-07-30T1800,1406A,108.2397,22.8467,南宁市,区农职院,,44,44,49,20,35,107,,120,120,8,15,3,3,0.7,0.9
2025-07-30T1800,1407A,108.3275,22.735,南宁市,英华嘉园,颗粒物(PM10),53,55,48,28,32,93,,115,115,8,14,1,2,0.5,0.5
2025-07-30T1800,3401A,108.4834,22.7618,南宁市,红星社区,细颗粒物(PM2.5),55,46,47,39,34,86,,118,118,8,6,2,2,0.6,0.6
2025-07-30T1800,4221A,108.2177,22.7774,南宁市,乐贤路16号,颗粒物(PM10),51,52,52,31,37,119,,128,128,7,23,3,4,0.6,0.8
2025-07-30T1800,2331A,118.0966,26.6761,南平市,茫荡山,,,,,,,,,,,,,,,,
2025-07-30T1800,2332A,118.1681,26.6369,南平市,南平市监测站,,30,30,17,12,7,59,,64,64,7,8,5,4,0.5,0.5
2025-07-30T1800,2333A,118.1825,26.6489,南平市,南平铝业有限公司,,27,27,19,17,8,62,,66,66,6,9,5,4,0.4,0.4
2025-07-30T1800,2334A,118.1756,26.6272,南平市,南平七中,,43,43,19,8,5,59,,63,63,6,7,3,3,0.5,0.5
2025-07-30T1800,1168A,120.9098,31.9663,南通市,狼山街道,,15,6,8,3,3,47,,36,36,3,4,2,3,0.4,0.4
2025-07-30T1800,1169A,120.86,32.0005,南通市,虹桥,,14,,8,3,8,43,,36,36,6,6,1,2,0.6,0.5
2025-07-30T1800,1170A,120.87,32.02,南通市,城中,,13,8,11,3,4,41,,33,33,3,4,3,3,0.3,0.3
2025-07-30T1800,1171A,120.94,31.93,南通市,星湖花园,,17,,3,3,3,54,,41,41,4,5,1,1,0.3,0.3
2025-07-30T1800,1172A,120.81,32.0417,南通市,紫琅学院,,13,6,6,3,2,40,,34,34,4,4,2,2,0.6,0.6
2025-07-30T1800,3291A,121.067,32.062,南通市,通州监测站,,18,,6,3,2,56,,42,42,2,2,3,2,0.6,0.6
2025-07-30T1800,3432A,120.9348,31.9883,南通市,环境教育馆,,18,7,13,3,2,56,,44,44,4,4,3,3,0.2,0.2
2025-07-30T1800,2404A,112.5224,33.0122,南阳市,瓦房庄,,48,33,36,11,15,152,,137,137,7,9,6,6,0.5,0.5
2025-07-30T1800,2405A,112.5003,32.9735,南阳市,汉画馆,,47,36,36,7,8,148,,132,132,7,10,7,7,0.4,0.4
2025-07-30T1800,2406A,112.5573,33.027,南阳市,气象站,,50,25,33,14,14,157,,143,143,4,9,8,8,0.4,0.4
2025-07-30T1800,2407A,112.5481,32.9689,南阳市,理工学院,,48,33,32,3,8,152,,138,138,4,9,8,7,0.5,0.4
2025-07-30T1800,4008A,112.5234,32.9922,南阳市,卧龙区政府,,48,19,20,13,15,151,,136,136,7,10,6,6,0.5,0.5
2025-07-30T1800,1234A,121.8358,29.911,宁波市,区环保大楼,,15,,11,3,5,47,,41,41,5,6,4,3,0.4,0.4
2025-07-30T1800,1235A,121.56,29.82,宁波市,万里学院,,15,6,10,3,3,46,,42,41,6,5,6,5,0.4,0.4
2025-07-30T1800,1236A,121.713,29.9572,宁波市,龙赛医院,,13,,14,3,6,41,,38,38,6,5,6,6,0.4,0.4
2025-07-30T1800,1239A,121.633,29.7733,宁波市,钱湖水厂,,15,6,6,3,1,47,,46,44,4,6,4,4,0.3,0.3
2025-07-30T1800,1240A,121.5856,29.8635,宁波市,太古小学,,14,6,5,3,3,44,,42,40,5,4,2,2,0.4,0.4
2025-07-30T1800,1241A,121.524,29.8674,宁波市,市环境监测中心,,11,6,9,3,2,35,,38,36,13,8,6,5,0.4,0.3
2025-07-30T1800,2871A,121.6147,29.9017,宁波市,万里国际学校,,14,6,9,3,5,44,,43,42,5,4,3,3,0.3,0.3
2025-07-30T1800,3710A,121.5594,29.8975,宁波市,白沙活动中心,,13,6,7,3,3,40,,41,39,4,3,4,6,0.4,0.4
2025-07-30T1800,2339A,119.5001,26.6946,宁德市,金涵水库,,,,,,,,,,,,,,,,
2025-07-30T1800,2341A,119.5388,26.6612,宁德市,宁德市监测站,,36,31,17,12,6,113,,68,68,17,11,9,6,1.5,0.4
2025-07-30T1800,3209A,119.5231,26.6562,宁德市,宁德一中,,27,27,13,3,6,49,,64,61,4,7,5,5,0.3,0.3
2025-07-30T1800,2618A,98.8601,25.8567,怒江傈僳族自治州,州监测站,,24,24,26,11,17,73,,73,73,6,11,6,6,0.3,0.4
2025-07-30T1800,2619A,98.8546,25.8417,怒江傈僳族自治州,泸水一中,,35,35,25,9,15,58,,59,59,10,14,6,6,0.4,0.5
2025-07-30T1800,1888A,101.6891,26.571,攀枝花市,弄弄坪,,45,45,44,24,21,61,,106,106,38,21,13,12,2.1,1.4
2025-07-30T1800,1889A,101.5769,26.5928,攀枝花市,河门口,,30,30,41,16,22,92,,126,126,4,16,6,12,0.3,0.8
2025-07-30T1800,1890A,101.7169,26.585,攀枝花市,炳草岗,,31,28,49,12,27,98,,112,112,10,28,5,9,0.7,1.2
2025-07-30T1800,1891A,101.7369,26.5008,攀枝花市,仁和,,34,34,38,19,22,80,,111,111,8,13,7,10,0.5,0.8
2025-07-30T1800,2835A,101.7227,26.567,攀枝花市,四十中小,,41,41,46,23,25,97,,113,113,9,27,7,12,0.7,1.2
2025-07-30T1800,1604A,122.0303,41.1489,盘锦市,开发区,,31,27,10,6,8,99,,98,98,16,10,11,11,0.3,0
2025-07-30T1800,1605A,122.0485,41.0883,盘锦市,兴隆台,,33,15,10,3,5,104,,105,105,14,9,7,5,0.3,0.4
2025-07-30T1800,1606A,121.8297,41.1028,盘锦市,新生街道,,35,8,9,3,7,110,,99,99,14,14,3,3,0.4,0.4
2025-07-30T1800,1832A,113.3257,33.742,平顶山市,新华旅馆,臭氧1小时,63,64,43,23,23,170,,158,158,9,12,5,6,0.4,0.4
2025-07-30T1800,1833A,113.2919,33.737,平顶山市,规划设计院,,,27,31,13,17,162,,151,151,,11,,8,0.6,0.6
2025-07-30T1800,1834A,113.182,33.774,平顶山市,平顶山工学院,臭氧1小时,68,28,29,12,14,174,,168,168,7,12,4,5,0.3,0.3
2025-07-30T1800,3204A,113.3025,33.73,平顶山市,规划局,臭氧1小时,65,34,35,7,11,172,,161,161,6,9,4,4,0.4,0.4
2025-07-30T1800,3594A,112.8867,33.9116,平顶山市,石龙区,臭氧1小时,75,35,35,13,16,180,,166,166,10,13,9,7,0.7,0.5
2025-07-30T1800,2656A,106.6692,35.5461,平凉市,聚贤嘉苑,,39,39,42,15,12,112,,123,121,6,18,7,8,0.5,0.7
2025-07-30T1800,2657A,106.7021,35.5307,平凉市,博物馆,,36,28,37,12,13,114,,124,124,5,16,9,9,0.5,0.5
2025-07-30T1800,2347A,114.0997,27.5002,萍乡市,武功山,,20,6,3,3,4,64,,72,72,4,3,10,10,0.3,0.3
2025-07-30T1800,2348A,113.8385,27.6434,萍乡市,中医院,,24,15,28,3,11,75,,101,101,18,19,9,9,0.7,1.4
2025-07-30T1800,2349A,113.8493,27.6253,萍乡市,市政府车库,,,12,18,,17,72,,96,96,14,14,8,15,0.5,1
2025-07-30T1800,2350A,113.8676,27.6435,萍乡市,市环保局,,25,12,24,3,15,77,,106,106,15,14,11,11,0.6,0.9
2025-07-30T1800,2351A,113.866,27.6198,萍乡市,安源区政府,,,,26,13,15,74,,102,102,9,10,12,16,0.6,0.9
2025-07-30T1800,2319A,119.0141,25.4325,莆田市,荔城区仓后路,颗粒物(PM10),63,75,40,34,21,138,,122,122,11,9,4,5,0.7,0.6
2025-07-30T1800,2320A,119.0015,25.4553,莆田市,莆田市监测站,,50,50,34,28,17,146,,124,124,11,8,6,5,0.5,0.4
2025-07-30T1800,2321A,119.1119,25.4561,莆田市,涵江区六中,颗粒物(PM10),51,51,34,35,19,138,,142,142,12,14,3,3,0.5,0.5
2025-07-30T1800,2322A,119.1013,25.3215,莆田市,秀屿区政府,颗粒物(PM10),51,52,38,23,23,151,,152,151,9,14,3,3,0.5,0.5
2025-07-30T1800,2323A,118.981,25.4792,莆田市,东圳水库,,,,,,,,,,,,,,,,
2025-07-30T1800,2392A,115.0312,35.7636,濮阳市,环保局,臭氧1小时,70,37,29,12,17,176,,168,168,6,10,4,4,0.5,0.5
2025-07-30T1800,2394A,115.0574,35.7609,濮阳市,油田运输公司,臭氧1小时,62,24,33,9,14,169,,161,161,6,12,3,4,0.5,0.5
2025-07-30T1800,3021A,115,35.7668,濮阳市,濮水河管理处,,50,23,29,13,18,160,,145,145,7,14,3,2,0.4,0.3
2025-07-30T1800,4216A,115.0924,35.7686,濮阳市,任丘路479号,,50,30,36,10,17,160,,153,153,8,14,6,6,0.4,0.5
2025-07-30T1800,2601A,100.98,22.7633,普洱市,市环保局,,,26,33,9,11,59,,54,54,,5,5,5,0.5,0.6
2025-07-30T1800,2602A,100.9817,22.8322,普洱市,普洱第二中学,,28,28,30,3,11,58,,52,52,4,6,5,5,0.5,0.5
2025-07-30T1800,2262A,131.0518,45.8751,七台河市,新一中,,29,22,14,3,9,92,,94,94,8,9,10,10,1.0,1
2025-07-30T1800,3345A,131.0577,45.7879,七台河市,中波台,,22,11,11,8,7,69,,64,64,12,9,7,7,0.5,0.5
2025-07-30T1800,3637A,131.0176,45.7761,七台河市,人民广场,,21,,14,13,10,66,,63,63,17,8,11,11,0.6,0.5
2025-07-30T1800,3684A,130.8781,45.8222,七台河市,新建矿广场,,34,34,12,8,8,61,,61,61,14,13,10,10,0.5,0.4
2025-07-30T1800,1779A,123.9305,47.3636,齐齐哈尔市,安居小区,,24,24,19,7,6,47,,50,50,14,10,4,3,0.4,0.5
2025-07-30T1800,1780A,123.9488,47.3386,齐齐哈尔市,中心广场,,17,12,13,3,1,52,,56,56,10,6,7,7,0.5,0.4
2025-07-30T1800,1781A,123.9483,47.3227,齐齐哈尔市,农牧车辆厂,,19,19,18,10,6,52,,53,53,6,7,7,6,0.4,0.4
2025-07-30T1800,1783A,123.945,47.2988,齐齐哈尔市,市环境监测站,,17,6,11,3,4,52,,53,53,6,6,5,5,0.3,0.3
2025-07-30T1800,3662A,123.6333,47.2075,齐齐哈尔市,富区青少年活动中心,,26,26,35,3,13,49,,50,50,13,17,9,15,0.5,0.9
2025-07-30T1800,2591A,107.9783,26.5747,黔东南苗族侗族自治州,市环境监测站,,29,26,21,20,15,91,,76,76,6,13,2,3,0.5,0.5
2025-07-30T1800,2881A,107.8908,26.5311,黔东南苗族侗族自治州,凯里学院,,30,17,16,12,12,93,,91,91,8,12,2,2,0.7,0.5
2025-07-30T1800,2593A,107.5228,26.2403,黔南布依族苗族自治州,小围寨,,,7,15,3,9,73,,68,68,9,12,3,2,,0.5
2025-07-30T1800,3538A,107.5175,26.2978,黔南布依族苗族自治州,沙坝,,29,6,18,3,3,92,,84,84,7,9,3,3,0.4,0.5
2025-07-30T1800,2589A,104.9022,25.0925,黔西南布依族苗族自治州,场坝街,,35,28,27,13,13,109,,104,104,11,12,7,16,0.4,0.5
2025-07-30T1800,2590A,104.8811,25.0992,黔西南布依族苗族自治州,坪东大道,,35,25,36,13,16,112,,106,106,8,12,2,4,0.4,0.4
2025-07-30T1800,2502A,108.6236,21.9667,钦州市,市环保站,,39,39,32,14,16,98,,134,134,11,10,4,3,0.7,0.7
2025-07-30T1800,2503A,108.6549,21.9481,钦州市,沙埠小学,,36,36,41,20,20,110,,142,142,9,14,1,2,0.6,0.7
2025-07-30T1800,2504A,108.5989,21.7431,钦州市,港区一小,,38,36,35,9,12,120,,100,100,11,13,2,3,0.5,0.6
2025-07-30T1800,3404A,108.5959,21.9633,钦州市,北职校,,40,40,34,25,19,86,,121,116,6,8,3,4,0.6,0.6
2025-07-30T1800,1043A,119.7493,40.0116,秦皇岛市,第一关,,40,33,17,16,9,127,,112,112,9,23,9,5,0.3,0.3
2025-07-30T1800,1044A,119.5897,39.9499,秦皇岛市,监测站,,41,41,30,15,8,117,,108,108,9,14,7,5,0.6,0.5
2025-07-30T1800,1046A,119.5251,39.9041,秦皇岛市,建设大厦,,36,26,25,10,6,115,,111,111,4,15,7,5,0.3,0.3
2025-07-30T1800,3132A,119.610547,39.943889,秦皇岛市,文明里,,,,23,,8,,,88,,,15,,4,,0.2
2025-07-30T1800,4198A,119.5090,39.8253,秦皇岛市,北戴河轮滑馆,,36,19,24,17,9,114,,111,111,3,11,3,2,0.3,0.3
2025-07-30T1800,1307A,120.6659,36.2403,青岛市,仰口,,25,,16,12,7,79,,75,75,3,5,8,9,0.5,0.6
2025-07-30T1800,1310A,120.4134,36.0658,青岛市,市南区东部子站,,26,12,13,12,8,82,,76,76,2,6,6,7,0.3,0.3
2025-07-30T1800,1311A,120.3664,36.1032,青岛市,四方区子站,,24,14,14,9,8,75,,72,72,3,7,6,6,0.2,0.2
2025-07-30T1800,1312A,120.2994,36.054,青岛市,市南区西部子站,,24,24,18,3,7,69,,60,60,9,12,8,9,0.6,0.5
2025-07-30T1800,1313A,120.4581,36.0858,青岛市,崂山区子站,,36,36,21,3,5,74,,70,70,10,10,8,8,0.2,0.2
2025-07-30T1800,1315A,120.3999,36.3083,青岛市,城阳区子站,,24,17,15,12,8,76,,72,72,5,9,6,7,0.4,0.3
2025-07-30T1800,1966A,120.0405,35.8735,青岛市,黄岛区4号,,,,13,,4,82,,82,82,10,7,11,11,,0.3
2025-07-30T1800,3362A,120.5014,36.4034,青岛市,即墨2号,,28,16,14,9,8,89,,75,75,2,6,4,4,0.2,0.2
2025-07-30T1800,3642A,120.3503,36.0736,青岛市,市北区南部,,25,,16,17,8,67,,71,71,8,14,6,7,0.5,0.4
2025-07-30T1800,3643A,120.3948,36.1805,青岛市,李沧区北部,,20,14,12,14,9,63,,80,80,14,9,4,6,0.3,0.2
2025-07-30T1800,4290A,120.1969,35.9546,青岛市,珠江路669号,,21,19,14,12,10,66,,65,65,15,14,5,6,0.4,0.4
2025-07-30T1800,1702A,113.0426,23.691,清远市,环保大楼,,41,40,63,20,26,129,,124,124,10,16,6,9,0.8,0.8
2025-07-30T1800,1703A,113.0208,23.7106,清远市,凤城街办,,29,23,32,16,21,90,,91,91,13,15,6,6,0.5,0.6
2025-07-30T1800,3025A,113.0477,23.6344,清远市,技师学院,,37,37,34,20,19,90,,99,98,11,14,7,13,0.6,0.6
2025-07-30T1800,3318A,112.9903,23.7403,清远市,清新太和,,28,25,31,15,19,88,,94,94,9,12,5,5,0.6,0.6
2025-07-30T1800,3455A,113.076,23.7198,清远市,清城东城,,27,20,33,14,19,84,,84,84,7,14,5,5,0.7,0.8
2025-07-30T1800,2661A,107.6325,35.7357,庆阳市,庆阳五中,,44,28,31,14,12,139,,127,127,6,7,6,7,0.6,0.5
2025-07-30T1800,2662A,107.6364,35.7067,庆阳市,市环保局,,46,30,26,12,10,146,,132,132,4,5,11,12,0.7,0.6
2025-07-30T1800,1916A,103.7897,25.5035,曲靖市,环境监测站,,35,30,31,10,14,112,,129,129,8,20,6,9,0.5,0.6
2025-07-30T1800,1917A,103.8,25.5364,曲靖市,烟厂办公区,,36,36,32,7,17,113,,117,117,4,19,4,5,0.4,0.8
2025-07-30T1800,3376A,103.7947,25.462,曲靖市,南苑二区,,40,10,28,10,15,127,,140,140,4,13,4,4,0.6,0.8
2025-07-30T1800,3377A,103.7444,25.5261,曲靖市,曲靖师范学院,,30,23,31,12,21,93,,99,99,12,22,8,10,0.5,0.5
2025-07-30T1800,1264A,118.8692,28.9398,衢州市,环保大楼,,22,22,29,10,14,51,,55,54,9,13,1,1,0.3,0.3
2025-07-30T1800,1265A,118.8709,28.9666,衢州市,实验学校,,18,18,26,10,14,57,,57,56,6,16,4,3,0.3,0.3
2025-07-30T1800,1266A,118.8621,28.9808,衢州市,衢州学院,,19,15,24,9,13,58,,54,54,8,19,2,2,0.3,0.4
2025-07-30T1800,1611A,118.5819,24.9117,泉州市,涂山街,颗粒物(PM10),51,51,38,21,24,134,,132,132,21,19,2,3,0.7,0.7
2025-07-30T1800,1612A,118.5972,24.8978,泉州市,津头埔,,48,48,37,20,22,148,,150,150,16,15,3,4,0.6,0.5
2025-07-30T1800,1613A,118.6663,24.9424,泉州市,万安,,47,47,39,24,22,136,,148,148,16,18,3,3,0.4,0.4
2025-07-30T1800,1614A,118.6117,24.9604,泉州市,清源山,,,,,,,,,,,,,,,,
2025-07-30T1800,3529A,118.6333,24.9264,泉州市,城华南路,,42,37,33,21,21,132,,142,142,23,17,5,5,0.6,0.5
2025-07-30T1800,2626A,88.8876,29.2718,日喀则市,日喀则监测站,,24,6,5,3,0,74,,65,65,2,4,12,11,0.3,0.4
2025-07-30T1800,3726A,88.8781,29.2426,日喀则市,林业技术推广中心,,23,6,8,3,1,71,,60,60,2,4,9,8,0.4,0.4
2025-07-30T1800,1659A,119.471,35.4209,日照市,监测站,,27,17,13,10,8,85,,81,81,6,12,7,8,0.4,0.4
2025-07-30T1800,1660A,119.523,35.4216,日照市,市政府广场,,27,12,10,3,3,85,,74,74,3,4,3,4,0.6,0.6
2025-07-30T1800,1661A,119.5587,35.4044,日照市,港务局,,28,,12,18,16,89,,79,79,3,6,10,10,0.6,0.5
2025-07-30T1800,3507A,119.5328,35.4625,日照市,职业技术学院,,27,14,11,7,5,84,,75,75,9,10,5,6,0.5,0.5
2025-07-30T1800,3604A,119.3266,35.1044,日照市,岚山环保分局,,27,22,13,11,3,85,,69,69,4,6,8,9,0.5,0.4
2025-07-30T1800,1835A,111.1922,34.7752,三门峡市,市政府,,49,28,36,15,19,156,,141,141,6,7,5,5,0.3,0.4
2025-07-30T1800,1836A,111.1587,34.7942,三门峡市,开发区,,49,27,34,15,19,154,,142,142,17,14,6,7,0.2,0.3
2025-07-30T1800,1838A,111.143,34.7955,三门峡市,风景区,臭氧1小时,53,34,31,6,17,162,,148,148,7,7,5,4,0.3,0.4
2025-07-30T1800,3039A,111.1911,34.7829,三门峡市,三门峡市第一小学,,,28,35,13,16,156,,143,143,,11,6,7,0.4,0.5
2025-07-30T1800,3598A,111.1,34.7167,三门峡市,富达温泉假日酒店,,50,35,41,14,22,159,,143,143,5,9,10,13,0.6,0.6
2025-07-30T1800,2324A,117.6211,26.2625,三明市,三钢,,30,27,26,11,17,45,,62,61,19,13,14,10,3.0,1.8
2025-07-30T1800,2325A,117.635,26.2714,三明市,三明二中,,45,45,25,12,14,51,,63,63,12,9,2,2,0.7,0.7
2025-07-30T1800,2326A,117.6028,26.2378,三明市,三元区政府,,28,28,23,9,11,46,,69,67,18,8,6,6,0.4,0.5
2025-07-30T1800,2327A,117.7275,26.3108,三明市,洋溪,,,,,,,,,,,,,,,,
2025-07-30T1800,1876A,109.5078,18.2489,三亚市,河东子站,,25,25,16,3,6,48,,51,51,7,6,3,3,0.4,0.5
2025-07-30T1800,1877A,109.4964,18.2681,三亚市,河西子站,,21,21,20,12,17,51,,52,52,2,3,2,2,0.1,0.2
2025-07-30T1800,3540A,109.7348,18.3443,三亚市,君悦子站,,26,26,18,10,8,55,,57,57,7,6,2,2,0.4,0.4
2025-07-30T1800,2624A,91.7608,29.2313,山南市,山南监测站,,,,8,4,3,105,,89,89,4,5,3,3,0.3,0.3
2025-07-30T1800,2625A,91.7706,29.2436,山南市,山南人民医院,,32,,8,10,13,102,,88,88,3,5,4,4,0.3,0.3
2025-07-30T1800,1674A,116.6794,23.3667,汕头市,金平子站,,35,31,29,17,22,112,,102,102,11,14,2,2,0.6,0.9
2025-07-30T1800,1675A,116.7244,23.3633,汕头市,龙湖子站,,33,20,24,16,15,105,,100,100,8,14,6,7,0.6,0.9
2025-07-30T1800,1676A,116.7258,23.2775,汕头市,濠江子站,,46,46,35,24,19,104,,103,103,7,11,5,5,0.7,0.8
2025-07-30T1800,1677A,116.7519,23.4714,汕头市,澄海子站,,,35,34,16,17,98,,104,104,,22,2,4,0.8,0.9
2025-07-30T1800,1678A,116.6092,23.2539,汕头市,潮阳子站,,40,32,26,19,15,126,,101,101,7,8,4,4,0.6,0.7
2025-07-30T1800,3444A,116.454,23.2684,汕头市,潮南峡山,,40,37,30,28,22,118,,93,93,9,11,5,6,0.9,0.9
2025-07-30T1800,3624A,116.4069,23.2533,汕头市,潮南子站,,41,41,33,26,22,114,,93,93,7,12,4,4,0.7,0.7
2025-07-30T1800,1693A,115.3653,22.775,汕尾市,市环保局,,28,28,26,9,12,89,,104,102,8,10,3,3,0.6,0.6
2025-07-30T1800,1694A,115.3706,22.7898,汕尾市,市政府,,30,30,25,17,17,88,,106,106,7,10,4,4,0.5,0.5
2025-07-30T1800,1695A,115.3622,22.7925,汕尾市,新城中学,,,46,30,10,13,92,,106,106,6,12,4,5,,0.5
2025-07-30T1800,2645A,109.9154,33.8715,商洛市,监测站,,35,26,32,20,17,109,,115,115,6,11,4,8,0.5,0.5
2025-07-30T1800,3045A,109.9643,33.8471,商洛市,商州区中学,,32,21,41,16,18,101,,112,112,6,14,3,8,0.4,0.5
2025-07-30T1800,2408A,115.6702,34.4285,商丘市,环境监测站,,,37,28,,15,168,,142,142,5,10,3,4,0.4,0.4
2025-07-30T1800,2409A,115.6458,34.4045,商丘市,粮食局,臭氧1小时,53,39,26,18,13,162,,138,138,6,9,2,2,0.4,0.4
2025-07-30T1800,2410A,115.6293,34.3948,商丘市,睢阳区环保局,臭氧1小时,53,44,30,21,14,162,,140,140,5,10,4,4,0.2,0.3
2025-07-30T1800,3171A,115.6071,34.4465,商丘市,梁园区档案局,,49,42,29,22,13,154,,134,134,6,10,2,2,0.4,0.4
2025-07-30T1800,1141A,121.4,31.238,上海市,普陀,,,,15,2,4,49,,52,52,9,7,4,4,0.3,0.3
2025-07-30T1800,1142A,121.478,31.2036,上海市,十五厂,,16,12,15,3,5,51,,53,53,10,8,7,7,0.7,0.6
2025-07-30T1800,1143A,121.467,31.3008,上海市,虹口,,15,6,16,3,6,46,,49,49,7,5,9,9,0.6,0.6
2025-07-30T1800,1147A,121.425,31.2261,上海市,静安监测站,,15,6,14,3,6,47,,50,50,10,8,3,3,0.6,0.6
2025-07-30T1800,1148A,121.703,31.1907,上海市,浦东川沙,,15,12,19,3,5,45,,51,51,12,5,9,9,0.6,0.5
2025-07-30T1800,1149A,121.533,31.2284,上海市,浦东新区监测站,,15,12,17,6,5,48,,53,53,7,6,7,7,0.9,0.8
2025-07-30T1800,1150A,121.577,31.2071,上海市,浦东张江,,18,14,18,6,4,57,,59,59,9,7,6,6,0.6,0.5
2025-07-30T1800,3265A,121.4316,31.3322,上海市,宝山庙行,,14,6,16,3,4,43,,42,42,8,6,7,7,0.4,0.3
2025-07-30T1800,3266A,121.8791,31.4662,上海市,崇明上实东滩,,25,22,24,6,9,77,,64,64,6,4,3,3,0.3,0.3
2025-07-30T1800,3268A,121.3162,31.2838,上海市,嘉定南翔,,15,6,15,3,5,47,,47,47,4,3,6,6,0.3,0.3
2025-07-30T1800,3269A,121.3359,30.7456,上海市,金山新城,,15,6,11,3,4,45,,50,50,10,6,2,2,0.3,0.2
2025-07-30T1800,3270A,121.4996,31.0739,上海市,闵行浦江,,16,12,15,3,4,51,,50,50,7,3,4,4,0.9,0.8
2025-07-30T1800,3271A,121.2886,31.1663,上海市,青浦徐泾,,15,6,16,3,7,47,,50,50,8,8,6,6,0.5,0.5
2025-07-30T1800,3272A,121.2186,31.0378,上海市,松江图书馆,,15,6,11,3,4,48,,52,52,11,9,6,6,0.6,0.5
2025-07-30T1800,3273A,121.3902,31.2059,上海市,长宁仙霞,,15,7,15,3,5,47,,49,49,10,8,6,6,0.6,0.5
2025-07-30T1800,3274A,121.7965,31.0507,上海市,浦东惠南,,19,,16,7,6,60,,53,53,4,3,9,9,0.8,0.7
2025-07-30T1800,3544A,121.4891,30.925,上海市,奉贤南桥新城,,14,7,14,3,6,43,,53,52,13,6,1,2,0.6,0.6
2025-07-30T1800,4183A,121.4174,31.16637,上海市,冠生园路458号,,16,8,14,3,6,49,,50,50,10,8,3,3,0.7,0.7
2025-07-30T1800,4205A,121.5419,31.2683,上海市,宁武路151号,,12,12,18,3,6,36,,48,48,18,7,7,7,0.5,0.4
2025-07-30T1800,2381A,118.005,28.4572,上饶市,百草园,,,,,,,,,,,,,,,,
2025-07-30T1800,2382A,117.9756,28.4436,上饶市,市监测站,,23,23,34,7,16,72,,70,70,3,10,3,15,0.3,0.4
2025-07-30T1800,2383A,117.9519,28.4628,上饶市,凤凰光学,,22,22,33,10,15,63,,66,65,2,11,8,15,0.8,0.8
2025-07-30T1800,3685A,117.897,28.4315,上饶市,双创科技城,,24,24,30,15,14,66,,74,73,7,18,2,8,0.5,0.5
2025-07-30T1800,4211A,118.1904,28.4448,上饶市,裕丰大道,,18,,25,11,16,56,,78,76,6,13,5,14,0.6,0.7
2025-07-30T1800,1669A,113.5824,24.7733,韶关市,市八中,,29,29,31,15,14,85,,105,105,14,11,18,15,0.5,0.6
