timepoint,stationcode,longitude,latitude,area,positionname,primarypollutant,aqi,pm10,pm10_24h,pm2_5,pm2_5_24h,o3,o3_24h,o3_8h,o3_8h_24h,no2,no2_24h,so2,so2_24h,co,co_24h
2025-07-30T1500,2566A,102.1879,31.914,阿坝藏族羌族自治州,州农科所,,28,7,18,3,9,89,,52,52,7,6,13,13,0.9,0.9
2025-07-30T1500,2568A,102.2502,31.8896,阿坝藏族羌族自治州,马师校,,31,8,18,3,15,97,,53,53,8,7,7,7,0.6,0.6
2025-07-30T1500,3994A,102.2165,31.9024,阿坝藏族羌族自治州,马尔康中学西区,,34,11,16,3,13,106,,56,56,5,4,7,7,0.7,0.7
2025-07-30T1500,2695A,80.292,41.1694,阿克苏地区,电视台,,48,48,80,15,18,117,,116,116,2,6,5,3,0.6,0.6
2025-07-30T1500,2696A,80.2613,41.1551,阿克苏地区,艺术中心,,45,36,88,31,24,124,,121,121,2,3,3,3,0.4,0.4
2025-07-30T1500,2204A,105.6467,38.8363,阿拉善盟,西城区西花园,,,6,15,,10,111,,106,106,8,8,8,9,,0.8
2025-07-30T1500,2205A,105.6985,38.8411,阿拉善盟,蒙二幼,,40,28,18,3,6,128,,126,126,10,9,11,10,0.5,0.4
2025-07-30T1500,2206A,105.724,38.8516,阿拉善盟,环保局新楼,,40,20,20,10,7,128,,123,123,4,4,9,9,0.4,0.4
2025-07-30T1500,2708A,88.1264,47.8517,阿勒泰地区,市站,,36,31,33,3,7,113,,86,86,6,11,2,2,0.4,0.5
2025-07-30T1500,2630A,80.1161,32.5,阿里地区,阿里监测站,,34,10,6,3,3,106,,97,97,3,5,5,6,0.1,0.1
2025-07-30T1500,3192A,80.0903,32.5028,阿里地区,阿里藏医院,,35,6,7,3,2,110,,102,102,1,3,7,7,0.1,0.1
2025-07-30T1500,2642A,109.0318,32.6537,安康市,香溪洞,,32,18,18,12,10,102,,81,81,3,5,6,7,0.4,0.4
2025-07-30T1500,2644A,109.0072,32.6975,安康市,汉滨区检察院,,32,25,22,15,16,102,,86,86,4,8,4,4,0.3,0.2
2025-07-30T1500,4054A,109.0325,32.6913,安康市,市邮政管理局,,30,20,22,14,13,94,,79,79,3,8,4,5,0.4,0.5
2025-07-30T1500,2291A,117.0809,30.5177,安庆市,环科院,,17,14,26,7,16,54,,63,62,2,5,4,6,0.4,0.5
2025-07-30T1500,2292A,117.0331,30.5119,安庆市,马山宾馆,,17,17,25,3,12,50,,61,57,2,4,3,5,0.1,0.2
2025-07-30T1500,2294A,116.9896,30.6145,安庆市,安庆大学,,21,9,24,6,15,66,,63,63,2,6,4,5,0.2,0.3
2025-07-30T1500,3173A,117.0598,30.5351,安庆市,市人大,,18,14,24,6,13,57,,63,62,3,8,4,5,0.2,0.4
2025-07-30T1500,3122A,105.9606,26.2611,安顺市,伍家关,,29,12,25,6,16,92,,89,89,10,14,3,4,0.6,0.7
2025-07-30T1500,3123A,105.9408,26.2431,安顺市,凤凰山,,33,26,35,12,22,104,,98,98,8,24,3,11,0.4,0.6
2025-07-30T1500,3124A,105.9439,26.2564,安顺市,金钟山,,31,22,26,16,20,98,,94,94,6,13,4,7,0.5,0.6
2025-07-30T1500,3125A,105.8983,26.2481,安顺市,娄家坡,,34,18,23,10,17,108,,94,94,5,11,6,7,0.4,0.5
2025-07-30T1500,1818A,114.4839,36.0621,安阳市,棉研所,,,,,,,,,,,,,,,,
2025-07-30T1500,1819A,114.3551,36.1017,安阳市,红庙街,,47,17,36,6,14,150,,135,135,6,15,4,5,0.4,0.6
2025-07-30T1500,1820A,114.361,36.0681,安阳市,银杏小区,,47,18,34,6,16,148,,143,143,5,12,4,5,0.3,0.4
2025-07-30T1500,3141A,114.3922,36.0878,安阳市,信访局,,48,16,34,3,11,153,,150,150,5,14,5,6,0.4,0.4
2025-07-30T1500,3669A,114.4705,36.0637,安阳市,左辅环卫站,,48,23,35,9,16,153,,133,133,6,13,7,7,0.6,0.6
2025-07-30T1500,3703A,114.2917,36.0949,安阳市,安钢职工学校,,47,27,41,6,18,150,,134,134,6,13,4,6,0.3,0.5
2025-07-30T1500,1748A,123.044,41.1196,鞍山市,深沟寺,,32,11,14,7,5,101,,104,104,4,6,7,6,0.7,0.7
2025-07-30T1500,1749A,123.011,41.0931,鞍山市,太阳城,,35,16,13,11,6,110,,108,108,7,9,6,5,0.7,0.8
2025-07-30T1500,1750A,123.0485,41.1442,鞍山市,太平,,38,19,13,11,4,121,,118,118,7,10,6,5,0.8,0.8
2025-07-30T1500,1751A,122.9642,41.0971,鞍山市,铁西三道街,,36,21,19,11,10,113,,95,95,21,18,18,12,1.5,1.4
2025-07-30T1500,1753A,123.022,41.0821,鞍山市,明达新区,,36,11,10,6,4,113,,106,106,9,9,8,8,0.6,0.7
2025-07-30T1500,1754A,123.1289,41.0228,鞍山市,千山,,,,,,,,,,,,,,,,
2025-07-30T1500,4201A,122.9446,41.0826,鞍山市,兴盛南路290号,,38,18,17,10,8,120,,99,99,21,23,17,14,0.9,1.1
2025-07-30T1500,2195A,107.4212,40.761,巴彦淖尔市,附二中,,44,34,24,14,14,139,,107,107,5,10,8,7,0.5,0.5
2025-07-30T1500,2196A,107.37,40.7372,巴彦淖尔市,市环保大楼,,41,26,26,12,11,130,,96,96,7,9,7,8,0.5,0.4
2025-07-30T1500,1956A,86.1472,41.7538,巴音郭楞蒙古自治州,孔雀公园,颗粒物(PM10),56,62,116,23,40,102,,85,85,5,14,6,4,0.2,0.2
2025-07-30T1500,1957A,86.1972,41.7166,巴音郭楞蒙古自治州,棉纺厂,颗粒物(PM10),68,86,150,20,38,102,,93,93,2,4,4,4,0.2,0.2
2025-07-30T1500,1958A,86.2357,41.7173,巴音郭楞蒙古自治州,经济开发区,颗粒物(PM10),66,82,106,16,32,99,,92,92,2,4,3,3,0.1,0.1
2025-07-30T1500,2914A,106.7677,31.8794,巴中市,苏山坪,,31,20,18,12,13,98,,85,85,4,7,5,4,0.4,0.5
2025-07-30T1500,3181A,106.7768,31.8526,巴中市,市五中,,33,23,26,17,15,104,,85,85,3,11,9,9,0.5,0.6
2025-07-30T1500,3183A,106.7418,31.8654,巴中市,圣泉水务公司,,36,,19,23,16,113,,93,93,1,8,8,7,0.5,0.6
2025-07-30T1500,3616A,106.7616,31.8344,巴中市,市中心医院,,33,25,32,19,16,103,,85,85,4,13,9,9,0.3,0.4
2025-07-30T1500,2235A,122.7911,45.6077,白城市,洮北区环保局,,22,,11,15,9,66,,69,69,2,2,2,4,0.3,0.3
2025-07-30T1500,2236A,122.8738,45.5725,白城市,市环保局,,21,7,7,3,5,66,,68,68,1,2,4,4,0.3,0.3
2025-07-30T1500,2231A,126.4219,41.9171,白山市,喜丰,,27,27,26,3,7,60,,57,57,10,12,6,6,0.7,0.8
2025-07-30T1500,2232A,126.4077,41.9419,白山市,环保局,,21,21,17,7,6,66,,64,64,7,8,6,5,1.0,0.9
2025-07-30T1500,2647A,104.1724,36.5446,白银市,第三小学,,41,22,37,6,19,129,,100,100,4,17,4,27,0.1,0.5
2025-07-30T1500,2648A,104.1465,36.5482,白银市,动力公司,,38,,32,6,21,121,,97,97,8,17,6,14,0.4,0.4
2025-07-30T1500,2512A,106.6103,23.9011,百色市,市监测站,,49,44,25,21,12,154,,76,76,8,12,7,4,0.6,0.6
2025-07-30T1500,2513A,106.6538,23.8859,百色市,市中心血站,,50,50,34,28,19,140,,81,81,12,23,5,3,0.6,0.6
2025-07-30T1500,3406A,106.6085,23.8798,百色市,祈福高中,颗粒物(PM10),57,63,31,38,15,142,,69,69,11,16,18,5,0.7,0.6
2025-07-30T1500,2270A,117.396,32.939,蚌埠市,工人疗养院,,27,21,25,7,10,84,,59,59,2,10,4,5,0.2,0.2
2025-07-30T1500,2271A,117.3605,32.9427,蚌埠市,百货大楼,,27,16,21,8,9,84,,57,57,2,10,6,6,0.3,0.3
2025-07-30T1500,2273A,117.4185,32.8911,蚌埠市,蚌埠学院,,25,9,18,8,11,79,,62,62,2,18,6,7,0.2,0.2
2025-07-30T1500,2274A,117.3533,32.9673,蚌埠市,淮上区政府,,28,19,24,6,13,88,,61,61,1,12,6,6,0.4,0.4
2025-07-30T1500,2275A,117.3145,32.8977,蚌埠市,高新区,,24,7,22,3,9,75,,52,52,3,15,6,6,0.4,0.4
2025-07-30T1500,3715A,117.3092,32.9314,蚌埠市,蚌埠田家炳中学,,26,17,25,15,13,81,,51,51,3,13,8,8,0.2,0.2
2025-07-30T1500,1585A,109.8756,40.6532,包头市,市环境监测站,,43,15,17,9,8,135,,83,83,7,18,5,6,0.4,0.4
2025-07-30T1500,1587A,109.9991,40.5842,包头市,包头八中,,38,17,28,3,10,120,,79,79,8,27,3,6,0.4,0.7
2025-07-30T1500,1588A,109.8538,40.6821,包头市,青山宾馆,,40,7,13,3,6,128,,82,82,8,20,4,5,0.4,0.4
2025-07-30T1500,1589A,109.8642,40.6288,包头市,惠龙物流,,40,10,17,3,10,126,,79,79,5,17,5,5,0.5,0.5
2025-07-30T1500,1590A,110.0377,40.5546,包头市,东河鸿龙湾,,41,20,21,3,7,129,,89,89,5,17,5,5,0.5,0.6
2025-07-30T1500,3283A,109.9154,40.5685,包头市,滨河大厦,,40,10,15,9,7,128,,83,83,6,23,5,5,0.5,0.5
2025-07-30T1500,3419A,109.9447,40.6261,包头市,包头市委党校,,41,,14,3,6,131,,89,89,7,21,5,7,0.5,0.4
2025-07-30T1500,3683A,109.8331,40.6576,包头市,昆区政府,,42,15,15,8,8,132,,89,89,8,15,5,4,0.5,0.5
2025-07-30T1500,1930A,107.185,34.3063,宝鸡市,庙沟村,,50,30,23,12,11,160,,115,115,12,9,3,3,0.4,0.4
2025-07-30T1500,1931A,107.0708,34.3017,宝鸡市,竹园沟,臭氧1小时,59,40,27,31,17,167,,105,105,7,9,9,8,1.3,1.1
2025-07-30T1500,1932A,107.1906,34.3672,宝鸡市,三陆医院,,50,41,30,35,12,155,,109,109,7,19,8,8,0.5,0.5
2025-07-30T1500,1933A,107.1431,34.3547,宝鸡市,监测站,,49,35,28,18,15,154,,110,110,7,10,9,8,0.4,0.4
2025-07-30T1500,1934A,107.1186,34.3739,宝鸡市,技工学校,,50,33,27,14,15,159,,114,114,7,10,7,6,0.5,0.5
2025-07-30T1500,1936A,107.2058,34.3497,宝鸡市,文理学院,臭氧1小时,52,31,29,15,13,161,,115,115,6,11,7,7,0.5,0.5
2025-07-30T1500,1937A,107.2386,34.3622,宝鸡市,三迪小学,,49,40,30,17,17,156,,117,117,8,16,9,8,0.5,0.5
2025-07-30T1500,4308A,107.3898,34.3601,宝鸡市,陈仓区北开路21号,臭氧1小时,78,31,18,18,13,182,,127,127,6,11,9,20,0.4,0.4
2025-07-30T1500,1051A,115.493,38.8632,保定市,游泳馆,,44,17,19,6,6,140,,110,110,4,11,1,2,0.1,0.1
2025-07-30T1500,1052A,115.5213,38.8959,保定市,华电二区,,44,9,23,3,9,138,,103,103,5,17,3,3,0.2,0
2025-07-30T1500,1053A,115.4713,38.9108,保定市,接待中心,,42,10,19,3,4,132,,104,104,3,13,3,3,0.2,0.3
2025-07-30T1500,1054A,115.4612,38.8416,保定市,地表水厂,,42,25,30,3,6,134,,110,110,2,15,2,2,0.2,0.2
2025-07-30T1500,3581A,115.31981,38.95208,保定市,满城区生态环境分局,,47,19,19,3,6,149,,117,117,9,17,2,2,0.1,0.1
2025-07-30T1500,3582A,115.47694,38.76408,保定市,清苑区第二中学,,46,24,36,14,21,146,,113,113,1,18,4,4,0.2,0.2
2025-07-30T1500,3583A,115.62909,39.02311,保定市,徐水物探局,,43,18,22,3,1,136,,100,100,1,16,4,4,0.3,0.3
2025-07-30T1500,4004A,115.4202,38.8656,保定市,双鹰农机,,,,25,10,9,134,,109,109,4,15,2,2,0.1,0.1
2025-07-30T1500,4034A,115.5150,38.8590,保定市,植保所站,,49,23,24,6,8,155,,117,117,8,14,3,3,0.2,0.2
2025-07-30T1500,2594A,99.1678,25.1081,保山市,市环境监测站,,,12,20,3,16,61,,50,50,,7,6,7,0.3,0.3
2025-07-30T1500,2595A,99.1711,25.1328,保山市,市环保局,,18,16,23,3,10,56,,50,50,3,5,4,5,0.4,0.4
2025-07-30T1500,1866A,109.2262,21.588,北海市,牛尾岭水库,,35,22,14,12,7,110,,90,90,2,3,2,15,0.4,0.7
2025-07-30T1500,1867A,109.1436,21.4086,北海市,海滩公园,,34,34,39,7,4,70,,62,59,3,3,2,2,0.6,0.6
2025-07-30T1500,1868A,109.0981,21.4661,北海市,新市环保局,,21,15,18,3,11,66,,59,54,4,5,2,2,0.4,0.4
2025-07-30T1500,1869A,109.1778,21.5233,北海市,北海工业园,,28,28,22,10,9,75,,60,60,5,6,3,3,0.4,0.4
2025-07-30T1500,3400A,109.1911,21.4415,北海市,龙潭自来水厂,,21,19,18,11,8,65,,58,54,3,4,4,5,0.5,0.5
2025-07-30T1500,1001A,116.3621,39.8784,北京市,万寿西宫,,41,10,10,6,6,129,,88,88,16,20,3,2,0.3,0.4
2025-07-30T1500,1002A,116.2202,40.2915,北京市,定陵,,35,6,9,3,5,111,,76,76,1,2,12,11,0.2,0.3
2025-07-30T1500,1003A,116.4174,39.9289,北京市,东四,,42,10,12,3,6,133,,96,96,8,17,3,3,0.3,0.4
2025-07-30T1500,1004A,116.4072,39.8863,北京市,天坛,,40,11,9,3,4,125,,87,87,13,12,1,1,0.3,0.4
2025-07-30T1500,1005A,116.462,39.9365,北京市,农展馆,,36,11,12,7,7,113,,82,82,7,12,3,2,0.1,0.4
2025-07-30T1500,1006A,116.3392,39.9295,北京市,官园,,38,11,11,3,7,119,,82,82,11,21,3,3,0.0,0.2
2025-07-30T1500,1007A,116.2878,39.9611,北京市,海淀万柳,,35,9,11,3,5,112,,73,73,5,18,3,3,0.2,0.4
2025-07-30T1500,1008A,116.6636,40.135,北京市,顺义新城,,,,,,,,,,,,,,,,
2025-07-30T1500,1009A,116.6275,40.3275,北京市,怀柔镇,,29,7,10,3,5,91,,73,73,16,11,1,2,0.1,0.2
2025-07-30T1500,1010A,116.2296,40.217,北京市,昌平镇,,32,8,10,3,5,102,,74,74,7,9,4,3,0.3,0.4
2025-07-30T1500,1011A,116.3966,39.9821,北京市,奥体中心,,23,8,11,3,5,72,,60,60,7,13,3,4,0.6,0.2
2025-07-30T1500,3281A,115.9718,40.4529,北京市,延庆夏都,,28,7,12,3,7,87,,67,67,4,9,2,2,0.4,0.5
2025-07-30T1500,3418A,116.8336,40.4095,北京市,密云新城,,23,6,10,6,5,71,,57,57,7,3,1,2,0.2,0.3
2025-07-30T1500,3671A,116.088,39.9726,北京市,门头沟三家店,,34,10,12,3,4,108,,76,76,3,5,3,2,0.2,0.3
2025-07-30T1500,3672A,116.1541,39.8204,北京市,丰台云岗,,40,13,11,9,5,127,,78,78,6,10,3,2,0.4,0.4
2025-07-30T1500,3673A,116.6804,39.9081,北京市,通州东关,,30,10,14,3,8,95,,80,80,15,23,5,5,0.2,0.4
2025-07-30T1500,3674A,115.9577,39.7603,北京市,房山燕山,,33,14,10,6,5,104,,66,66,11,6,1,1,0.2,0.3
2025-07-30T1500,3675A,116.4672,39.7733,北京市,大兴旧宫,,39,12,9,8,5,123,,85,85,8,14,2,2,0.4,0.5
2025-07-30T1500,3694A,115.986,40.4563,北京市,延庆石河营,,26,7,7,3,6,82,,60,60,6,9,3,2,0.2,0.3
2025-07-30T1500,3695A,116.6151,40.3053,北京市,怀柔新城,,24,10,12,3,5,74,,58,58,4,3,2,1,0.3,0.5
2025-07-30T1500,3696A,116.2545,39.8768,北京市,丰台小屯,,,13,13,8,7,118,,78,78,4,13,2,1,,0.4
2025-07-30T1500,3697A,116.84,40.3844,北京市,密云镇,,25,,9,6,5,78,,62,62,6,6,4,3,0.3,0.5
2025-07-30T1500,4182A,116.1942,39.9158,北京市,八角北路9号,,35,10,14,6,6,111,,81,81,16,23,2,2,0.2,0.1
2025-07-30T1500,4194A,117.0790,40.1518,北京市,洳河巡河路,,25,7,12,3,6,80,,66,66,4,5,3,2,0.2,0.3
2025-07-30T1500,1761A,123.8275,41.3064,本溪市,大峪,,47,7,13,6,8,148,,122,122,5,8,6,5,0.4,0.5
2025-07-30T1500,1762A,123.7567,41.3325,本溪市,溪湖,,45,22,17,6,6,142,,107,107,2,7,7,6,0.7,1.1
2025-07-30T1500,1763A,123.7169,41.3094,本溪市,彩屯,,43,15,18,10,11,136,,104,104,10,15,9,8,0.6,1.1
2025-07-30T1500,1764A,123.7669,41.2864,本溪市,东明,,47,22,19,16,10,150,,114,114,8,12,5,4,0.6,0.9
2025-07-30T1500,1765A,123.7992,41.2664,本溪市,新立屯,,46,18,16,3,8,146,,114,114,7,11,5,4,0.9,0.9
2025-07-30T1500,1766A,123.8142,41.3472,本溪市,威宁,,,,14,,7,123,,107,107,5,8,8,7,,0.6
2025-07-30T1500,2587A,105.2864,27.3125,毕节市,八中,,36,26,34,15,24,113,,80,80,7,13,4,4,0.3,0.4
2025-07-30T1500,2588A,105.31,27.2944,毕节市,师专,,39,22,36,13,20,122,,84,84,4,12,4,4,0.4,0.5
2025-07-30T1500,4263A,105.3688,27.3598,毕节市,工业大道,,38,24,30,15,17,120,,96,96,7,16,6,6,0.7,0.7
2025-07-30T1500,1629A,118.0018,37.3617,滨州市,第二水厂,,41,12,21,9,17,130,,114,114,2,7,2,3,0.5,0.6
2025-07-30T1500,1630A,117.9776,37.393,滨州市,北中新校,,41,19,26,7,14,131,,111,111,7,14,2,3,0.3,0.4
2025-07-30T1500,3514A,117.9378,37.3956,滨州市,中海酒店,,41,,20,19,19,130,,109,109,2,12,8,8,0.4,0.4
2025-07-30T1500,3515A,117.9378,37.3553,滨州市,开发区一中,,44,17,23,12,15,138,,118,118,4,12,4,5,0.3,0.5
2025-07-30T1500,3516A,118.0917,37.694,滨州市,金海六路,,38,12,15,3,10,120,,133,133,2,10,9,9,0.0,0.3
2025-07-30T1500,4028A,117.9956,37.3753,滨州市,滨州市西街道办事处,,44,9,17,7,16,140,,124,124,2,8,1,2,0.1,0.3
2025-07-30T1500,2311A,115.8072,33.8399,亳州市,污水处理厂,,42,20,16,13,14,132,,100,100,4,9,2,8,0.5,0.5
2025-07-30T1500,2312A,115.7789,33.8518,亳州市,三国揽胜宫,,,29,25,14,8,132,,100,100,4,7,,9,0.6,0.6
2025-07-30T1500,3332A,115.7633,33.8034,亳州市,亳州学院,,40,19,14,17,13,128,,100,100,4,7,2,3,0.5,0.4
2025-07-30T1500,2693A,82.0485,44.8556,博尔塔拉蒙古自治州,市党校,,33,24,34,21,19,105,,95,95,6,10,4,4,0.3,0.3
2025-07-30T1500,2694A,82.0806,44.8969,博尔塔拉蒙古自治州,市环保局,,35,33,39,21,18,109,,96,96,1,7,6,5,0.4,0.5
2025-07-30T1500,1071A,116.8842,38.2991,沧州市,沧县城建局,臭氧1小时,59,29,30,16,16,167,,136,136,9,13,6,5,1.4,0.9
2025-07-30T1500,1072A,116.8584,38.3254,沧州市,电视转播站,,46,34,32,22,17,147,,122,122,6,14,6,4,0.8,0.4
2025-07-30T1500,1073A,116.8709,38.3228,沧州市,市环保局,臭氧1小时,54,39,35,22,19,163,,134,134,3,10,4,3,0.8,0.5
2025-07-30T1500,3324A,116.8136,38.3004,沧州市,河北水利电力学院,臭氧1小时,63,31,18,27,18,170,,138,138,2,7,4,3,0.8,0.5
2025-07-30T1500,2622A,97.1806,31.1273,昌都市,昌都监测站,,,6,8,3,6,97,,69,69,2,4,4,4,,0.3
2025-07-30T1500,3719A,97.1714,31.1406,昌都市,昌都会议中心,,33,6,11,3,6,105,,76,76,4,4,5,5,0.1,0.1
2025-07-30T1500,2690A,88.1236,43.8886,昌吉回族自治州,天山天池,,46,44,30,13,15,146,,100,100,8,7,9,5,0.7,0.6
2025-07-30T1500,2692A,87.2717,44.0297,昌吉回族自治州,新区政务中心,,46,46,36,18,16,123,,95,95,1,10,9,8,0.2,0.3
2025-07-30T1500,3613A,87.3095,44.0142,昌吉回族自治州,亚心广场,,41,41,49,12,15,116,,94,94,4,16,9,9,0.3,0.3
2025-07-30T1500,1120A,125.2863,43.9027,长春市,客车厂,,25,10,14,6,8,79,,65,65,8,16,3,3,0.2,0.3
2025-07-30T1500,1121A,125.2841,43.8463,长春市,邮电学院,,26,,12,7,9,82,,66,66,4,12,4,4,0.2,0.4
2025-07-30T1500,1122A,125.3716,43.8772,长春市,劳动公园,,26,13,16,3,8,81,,65,65,9,15,6,6,0.4,0.5
2025-07-30T1500,1123A,125.3297,43.8805,长春市,园林处,,24,11,13,6,7,74,,67,67,6,12,3,3,0.3,0.3
2025-07-30T1500,1124A,125.4605,43.79,长春市,净月潭,,25,10,14,3,5,80,,64,64,3,6,4,4,0.2,0.3
2025-07-30T1500,1125A,125.7194,43.515,长春市,甩湾子,,25,11,11,3,5,78,,72,72,5,7,1,2,0.5,0.5
2025-07-30T1500,1126A,125.3863,43.8447,长春市,经开区环卫处,,26,7,14,3,6,81,,64,64,5,13,3,2,0.2,0.3
2025-07-30T1500,1127A,125.245,43.7783,长春市,高新区管委会,,26,10,12,3,6,81,,68,68,4,11,2,3,0.3,0.4
2025-07-30T1500,1128A,125.1761,43.8325,长春市,岱山公园,,24,7,12,3,6,75,,62,62,6,17,3,3,0.2,0.3
2025-07-30T1500,4281A,125.3346,43.9164,长春市,北亚泰大街1068号,,25,7,14,6,8,77,,64,64,7,18,6,5,0.2,0.4
2025-07-30T1500,1335A,113.0833,28.2325,长沙市,经开区环保局,,33,13,22,3,13,103,,76,76,4,13,4,4,0.3,0.4
2025-07-30T1500,1336A,112.8872,28.2189,长沙市,高开区环保局,,28,20,34,3,16,87,,73,73,4,14,4,4,0.3,0.5
2025-07-30T1500,1337A,113.0792,28.2053,长沙市,马坡岭,,33,16,26,3,13,103,,82,82,4,11,3,4,0.3,0.3
2025-07-30T1500,1338A,112.9394,28.19,长沙市,湖南师范大学,,28,15,30,9,18,87,,72,72,2,11,2,2,0.5,0.5
2025-07-30T1500,1339A,113.0178,28.1322,长沙市,雨花区环保局,,32,12,27,10,12,100,,70,70,3,12,4,4,0.5,0.5
2025-07-30T1500,1340A,112.9792,28.2597,长沙市,伍家岭,,29,12,29,8,13,91,,67,67,3,14,1,1,0.2,0.2
2025-07-30T1500,1341A,113.0014,28.1944,长沙市,火车新站,,28,11,27,3,9,87,,71,71,2,11,5,5,0.5,0.6
2025-07-30T1500,1342A,112.9844,28.1178,长沙市,天心区环保局,,31,20,26,10,16,99,,81,81,8,14,2,3,0.3,0.3
2025-07-30T1500,1343A,112.8908,28.1308,长沙市,湖南中医药大学,,30,15,31,14,20,96,,80,80,2,14,2,3,0.4,0.5
2025-07-30T1500,1344A,112.9581,28.3611,长沙市,沙坪,,27,27,34,6,15,81,,70,70,8,10,5,5,0.4,0.5
2025-07-30T1500,1727A,113.1147,36.1547,长治市,清华站,,50,18,36,7,18,157,,135,135,6,13,7,9,0.4,0.9
2025-07-30T1500,1730A,113.0886,36.2125,长治市,审计局,,,16,30,7,17,158,,135,135,,3,6,6,0.6,0.9
2025-07-30T1500,1731A,113.0844,36.1856,长治市,长治八中,臭氧1小时,55,17,41,14,26,164,,136,136,4,11,8,9,0.5,0.9
2025-07-30T1500,2845A,113.1569,36.1911,长治市,德盛苑,,49,21,30,7,14,154,,128,128,5,7,7,7,0.7,1.2
2025-07-30T1500,3568A,113.06,36.0464,长治市,向阳小学,,47,29,66,9,23,149,,124,124,9,9,10,9,0.6,1
2025-07-30T1500,3569A,112.8792,36.3144,长治市,屯留一中,,48,14,63,3,28,151,,123,123,4,15,10,11,0.1,0.4
2025-07-30T1500,4189A,113.1131,36.19948,长治市,英华南巷50号,,47,26,38,7,19,149,,130,130,4,11,7,7,0.7,1.4
2025-07-30T1500,4190A,113.2367,36.3344,长治市,学府街1号,,43,17,35,6,20,136,,114,114,6,23,4,5,0.4,0.7
2025-07-30T1500,1854A,111.6975,28.9703,常德市,市二中,,37,23,27,12,19,116,,100,100,3,11,3,3,0.5,0.6
2025-07-30T1500,1857A,111.7158,29.1456,常德市,白鹤山,,,,,,,,,,,,,,,,
2025-07-30T1500,3138A,111.7153,29.0289,常德市,武陵区永安,,35,26,32,12,20,112,,103,103,2,8,3,4,0.3,0.4
2025-07-30T1500,3139A,111.6892,28.9881,常德市,鼎城区玉霞,,35,21,29,13,21,111,,94,94,3,10,2,1,0.3,0.4
2025-07-30T1500,3140A,111.6625,29.0531,常德市,武陵区长庚,,,,27,,21,109,,97,97,2,7,3,3,0.3,0.4
2025-07-30T1500,1196A,119.9633,31.762,常州市,市监测站,,15,6,14,3,7,45,,36,36,3,7,7,8,0.3,0.4
2025-07-30T1500,1200A,119.9468,31.7069,常州市,武进监测站,,15,8,17,3,6,46,,36,36,1,5,11,12,0.7,0.8
2025-07-30T1500,1201A,119.9255,31.9087,常州市,安家,,15,6,19,3,6,48,,37,37,3,8,7,9,0.6,0.6
2025-07-30T1500,3002A,119.9805,31.8174,常州市,行政中心,,14,7,17,3,6,43,,34,34,4,8,10,10,0.3,0.3
2025-07-30T1500,3003A,120.0522,31.7748,常州市,经开区,,14,7,19,3,4,43,,35,35,3,8,3,5,0.1,0.2
2025-07-30T1500,3010A,119.9025,31.7964,常州市,钟楼,,16,9,19,3,4,50,,40,40,4,7,5,7,0.5,0.6
2025-07-30T1500,3429A,119.8598,31.7066,常州市,武进经发区,,13,,13,3,8,41,,32,32,2,5,5,7,0.6,0.7
2025-07-30T1500,3430A,119.5826,31.7245,常州市,金坛城区,,11,6,16,3,9,35,,32,32,6,8,6,8,0.3,0.2
2025-07-30T1500,2220A,120.4318,41.5881,朝阳市,西梁,,31,9,18,8,10,98,,72,72,6,12,6,5,0.3,0.6
2025-07-30T1500,2221A,120.4521,41.5646,朝阳市,河畔小区,,31,14,15,3,4,99,,83,83,8,11,6,5,0.3,0.5
2025-07-30T1500,2222A,120.4176,41.5648,朝阳市,八里堡,,31,22,17,6,8,99,,82,82,7,11,2,3,0.3,0.5
2025-07-30T1500,2223A,120.3806,41.5969,朝阳市,农业园区,,31,10,16,3,7,97,,69,69,6,14,7,5,0.3,0.5
2025-07-30T1500,1705A,116.6367,23.6719,潮州市,西园路,,,,35,19,12,62,,29,,7,11,5,4,0.4,0.4
2025-07-30T1500,3026A,116.6183,23.6608,潮州市,市政府,,,39,38,14,14,65,,72,72,,23,14,19,0.6,0.8
2025-07-30T1500,4036A,116.6461,23.6761,潮州市,金山,,31,31,24,21,13,77,,66,66,7,9,6,5,0.6,0.6
2025-07-30T1500,2472A,113.0073,25.9061,郴州市,马头岭,,18,13,27,3,7,56,,45,45,6,10,5,5,0.4,0.4
2025-07-30T1500,2473A,113.0116,25.8226,郴州市,市职中,,,,22,,14,,,48,,,9,,4,,0.6
2025-07-30T1500,2475A,113.0383,25.8071,郴州市,市审计局,,18,14,21,6,13,55,,49,49,3,7,4,4,0.2,0.3
2025-07-30T1500,2476A,113.0348,25.7759,郴州市,市环保局,,18,18,23,10,12,48,,44,44,3,9,2,3,0.3,0.3
2025-07-30T1500,4252A,113.0138,25.8011,郴州市,好美居路49号,,19,,24,11,13,60,,53,53,9,11,3,2,0.5,0.3
2025-07-30T1500,1431A,103.9728,30.7236,成都市,金泉两河,臭氧1小时,128,34,27,15,12,256,,136,136,12,17,3,3,0.6,0.5
2025-07-30T1500,1432A,104.176,30.6872,成都市,十里店,臭氧1小时,121,24,35,6,18,242,,131,131,10,24,5,5,0.5,0.6
2025-07-30T1500,1433A,104.079,30.5706,成都市,三瓦窑,臭氧1小时,107,32,32,26,21,213,,135,135,12,39,3,3,0.4,0.6
2025-07-30T1500,1434A,104.1114,30.63,成都市,沙河铺,,,38,36,,20,189,,119,119,11,19,7,6,0.6,0.6
2025-07-30T1500,1437A,104.0786,30.6531,成都市,君平街,臭氧1小时,126,37,39,18,21,252,,145,145,12,27,6,5,0.4,0.6
2025-07-30T1500,1438A,103.613,31.0283,成都市,灵岩寺,,,,,,,,,,,,,,,,
2025-07-30T1500,2880A,104.0239,30.65639,成都市,大石西路,,,,29,,21,210,,113,113,11,25,4,4,0.5,0.7
2025-07-30T1500,3136A,104.2725,30.5589,成都市,龙泉驿区区政府,臭氧1小时,63,19,19,17,11,170,,120,120,9,16,5,5,0.6,0.6
2025-07-30T1500,3357A,104.0106,30.6931,成都市,金博路,臭氧1小时,112,10,22,3,11,224,,128,128,13,23,5,5,0.7,0.7
2025-07-30T1500,3359A,104.0578,30.5225,成都市,华阳,臭氧1小时,88,29,28,19,23,190,,131,131,9,22,3,3,0.6,0.7
2025-07-30T1500,3488A,104.3853,30.7453,成都市,青白江技师分院,臭氧1小时,102,26,36,3,20,204,,121,121,8,29,7,6,0.6,0.6
2025-07-30T1500,3489A,104.0789,30.4072,成都市,科学城,臭氧1小时,72,26,26,18,18,177,,113,113,5,14,3,3,0.5,0.5
2025-07-30T1500,4011A,103.8506,30.6947,成都市,光华大道三段,臭氧1小时,111,28,26,14,13,222,,133,133,12,17,5,5,0.6,0.6
2025-07-30T1500,4224A,104.2433,30.5353,成都市,鲸龙路1057号,臭氧1小时,65,30,35,18,21,172,,123,123,7,23,7,7,0.6,0.7
2025-07-30T1500,1062A,117.9531,40.9081,承德市,铁路,,31,16,22,3,8,97,,67,67,9,7,5,3,0.4,0.4
2025-07-30T1500,1063A,117.9392,40.9763,承德市,中国银行,,33,10,21,3,8,104,,66,66,3,5,1,2,0.1,0.2
2025-07-30T1500,1064A,117.9503,40.928,承德市,开发区,,36,35,27,10,12,113,,69,69,4,8,6,5,0.3,0.4
2025-07-30T1500,1066A,117.9268,41.0026,承德市,离宫,,31,,25,17,15,99,,66,66,4,4,3,3,0.2,0.3
2025-07-30T1500,4274A,117.7994,40.9605,承德市,滨河大街98号,,30,6,12,3,6,96,,68,68,3,8,4,5,0.1,0.4
2025-07-30T1500,2314A,117.47,30.6618,池州市,池州学院,,20,16,22,10,14,64,,54,54,5,11,6,7,0.3,0.4
2025-07-30T1500,3237A,117.4918,30.6617,池州市,展览馆,,22,17,21,9,12,68,,56,56,4,10,5,6,0.4,0.6
2025-07-30T1500,3333A,117.5627,30.695,池州市,第八中学,,21,20,23,11,12,67,,56,56,3,9,5,7,0.3,0.5
2025-07-30T1500,3334A,117.5038,30.6243,池州市,第十二中学,,22,19,21,9,12,70,,62,62,4,10,4,4,0.5,0.7
2025-07-30T1500,1744A,118.9233,42.2816,赤峰市,松山一中,,25,,13,6,7,79,,43,,6,16,5,5,0.5,0.4
2025-07-30T1500,1745A,118.9576,42.2728,赤峰市,哈达街,,25,,14,8,7,78,,66,66,8,16,12,13,0.4,0.5
2025-07-30T1500,1746A,118.8788,42.2554,赤峰市,天义路,,24,14,12,3,6,76,,67,67,5,14,8,9,0.3,0.4
2025-07-30T1500,3058A,119.2658,42.0353,赤峰市,银河街,,27,6,18,3,10,84,,65,65,4,11,5,12,0.4,0.6
2025-07-30T1500,3286A,118.9359,42.3147,赤峰市,桥北物流园区,,23,,18,16,10,73,,56,56,6,17,9,9,0.3,0.5
2025-07-30T1500,2521A,107.3476,22.4136,崇左市,市环保局江州分局,,36,36,36,23,22,114,,82,82,3,9,8,7,0.4,0.4
2025-07-30T1500,4256A,107.3750,22.3736,崇左市,石景林东路7号,,44,44,35,28,22,128,,94,94,4,10,5,5,0.7,0.6
2025-07-30T1500,2298A,118.3093,32.3153,滁州市,老年大学,,16,13,24,3,10,49,,42,42,3,7,6,7,0.2,0.2
2025-07-30T1500,2299A,118.3244,32.2786,滁州市,人大宾馆,,16,9,14,3,13,50,,44,44,4,6,5,6,0.1,0.1
2025-07-30T1500,3207A,118.3118,32.3038,滁州市,市政府原办公楼,,16,13,21,11,17,46,,41,41,2,6,5,6,0.2,0.2
2025-07-30T1500,3331A,118.3267,32.2634,滁州市,图书馆,,18,9,17,8,14,55,,50,50,9,8,10,11,0.1,0.1
2025-07-30T1500,2605A,101.5482,25.0441,楚雄彝族自治州,州环境监测站,,25,25,24,10,16,66,,49,49,6,18,7,8,0.5,0.6
2025-07-30T1500,2606A,101.538,25.0492,楚雄彝族自治州,市经济开发区,,21,,41,9,16,67,,50,50,9,20,5,7,0.5,0.6
2025-07-30T1500,2548A,107.5277,31.2827,达州市,达州职业技术学院,,42,26,32,3,8,132,,94,94,2,18,9,8,0.5,0.5
2025-07-30T1500,2549A,107.5086,31.2186,达州市,市环境监测站,,41,19,29,3,6,129,,85,85,10,20,7,6,0.3,0.3
2025-07-30T1500,2550A,107.4988,31.2132,达州市,凤凰小区,,42,14,19,3,7,133,,112,112,7,10,8,7,0.3,0.3
2025-07-30T1500,2551A,107.5082,31.1986,达州市,达县机关宾馆,,39,12,25,3,7,124,,90,90,8,26,6,4,0.3,0.4
2025-07-30T1500,2552A,107.4644,31.2124,达州市,市政中心,,42,18,31,3,8,133,,90,90,5,17,4,4,0.3,0.3
2025-07-30T1500,2614A,100.1542,25.7054,大理白族自治州,大理市环境监测站,,25,,17,17,20,77,,65,65,7,8,4,5,0.4,0.5
2025-07-30T1500,2615A,100.2171,25.5811,大理白族自治州,大理古城,,27,23,19,16,14,86,,72,72,5,9,5,4,0.7,0.7
2025-07-30T1500,1109A,121.612,38.9741,大连市,甘井子,,41,26,20,8,14,130,,110,110,13,16,2,7,0.0,0.1
2025-07-30T1500,1110A,121.565,38.9511,大连市,周水子,,41,16,18,9,11,129,,100,100,9,12,8,8,0.3,0.3
2025-07-30T1500,1111A,121.5637,38.8845,大连市,星海三站,,46,18,20,13,16,146,,109,109,6,6,7,6,0.4,0.3
2025-07-30T1500,1112A,121.6302,38.9117,大连市,青泥洼桥,臭氧1小时,53,37,24,15,14,162,,119,119,13,14,7,7,0.6,0.5
2025-07-30T1500,1113A,121.6251,38.8638,大连市,傅家庄,,43,18,17,15,15,136,,89,89,10,11,9,8,0.2,0.2
2025-07-30T1500,1114A,121.5213,38.8661,大连市,七贤岭,,45,20,20,16,15,141,,113,113,9,8,7,9,0.3,0.3
2025-07-30T1500,1115A,121.2529,38.8061,大连市,旅顺,,,11,17,,15,99,,88,88,4,9,4,4,0.2,0.2
2025-07-30T1500,1116A,121.7485,39.1311,大连市,金州,,43,12,16,3,11,135,,111,111,8,12,6,7,0.2,0.2
2025-07-30T1500,1117A,121.7811,39.0496,大连市,开发区,,40,22,17,14,14,128,,110,110,19,15,7,7,0.3,0.3
2025-07-30T1500,1118A,121.9762,39.0631,大连市,双D港,,40,8,16,7,12,128,,106,106,7,7,7,7,0.5,0.4
2025-07-30T1500,1789A,124.81117,46.03138,大庆市,大同区,,21,18,14,3,3,67,,60,60,7,7,7,8,0.5,0.6
2025-07-30T1500,1790A,125.129,46.533,大庆市,龙凤区,,28,28,14,9,8,66,,62,62,10,10,6,7,0.5,0.6
2025-07-30T1500,1791A,124.902,46.408,大庆市,红岗区,,26,24,19,18,11,73,,66,66,7,10,7,7,0.5,0.5
2025-07-30T1500,1792A,125.153,46.586,大庆市,萨尔图区,,39,39,20,3,4,63,,61,61,10,9,11,11,0.3,0.4
2025-07-30T1500,1793A,124.9042,46.6215,大庆市,让胡路区,,24,24,23,7,15,63,,59,59,6,7,4,4,0.3,0.3
2025-07-30T1500,3481A,125.141,46.634,大庆市,萨区政府监测点,,29,29,18,3,1,69,,64,64,5,6,7,7,0.2,0.2
2025-07-30T1500,1721A,113.3819,40.1097,大同市,果树场,,33,9,14,3,12,105,,80,80,7,16,7,7,0.4,0.5
2025-07-30T1500,1723A,113.2994,40.0758,大同市,云冈宾馆,,37,9,14,7,8,117,,82,82,8,15,6,8,0.6,0.9
2025-07-30T1500,1724A,113.3444,40.0917,大同市,大同大学,,39,11,16,3,6,124,,82,82,9,22,6,9,0.3,0.5
2025-07-30T1500,1725A,113.2661,40.1269,大同市,安家小村,,,16,20,6,5,115,,86,86,7,16,,6,0.3,1
2025-07-30T1500,1726A,113.2711,40.0844,大同市,教育学院,,38,,22,10,9,120,,81,81,8,15,8,8,0.3,0.7
2025-07-30T1500,3282A,113.3397,40.0597,大同市,大同市卫生学校,,37,,16,10,9,117,,81,81,14,21,6,8,0.2,0.5
2025-07-30T1500,3565A,113.1367,40.1122,大同市,云冈站,,39,24,31,13,17,122,,81,81,35,26,5,4,0.1,0.5
2025-07-30T1500,3566A,113.1186,40.2556,大同市,图书馆,,40,18,18,9,8,126,,83,83,6,8,7,8,0.6,1
2025-07-30T1500,3567A,113.5931,40.0461,大同市,区一中,,35,19,13,3,5,112,,92,92,8,7,8,9,0.3,0.3
2025-07-30T1500,4199A,113.2798,40.0997,大同市,魏都大道141号,,37,18,21,6,9,118,,81,81,8,15,4,5,0.5,0.8
2025-07-30T1500,2269A,124.1069,50.4097,大兴安岭地区,科技局,,14,14,15,3,8,44,,57,56,3,3,4,4,0.4,0.4
2025-07-30T1500,3663A,124.1164,50.4278,大兴安岭地区,红旗社区,,15,,2,3,2,46,,57,56,3,3,5,4,0.3,0.3
2025-07-30T1500,1600A,124.3303,40.0625,丹东市,江湾东路,,25,24,26,14,18,77,,68,68,8,12,7,7,0.5,0.6
2025-07-30T1500,1601A,124.4256,40.1503,丹东市,临江后街,,34,34,53,12,15,62,,68,66,9,14,6,6,0.6,0.7
2025-07-30T1500,1602A,124.3933,40.1461,丹东市,元宝山,,20,20,26,11,12,57,,60,58,11,14,3,4,0.4,0.5
2025-07-30T1500,1603A,124.3633,40.1092,丹东市,民主桥,,24,24,33,12,14,65,,62,60,5,14,2,4,0.8,1
2025-07-30T1500,3541A,109.5726,19.5167,儋州市,第一中学子站,,14,8,11,3,6,44,,37,37,2,3,5,4,0.4,0.4
2025-07-30T1500,3542A,109.5567,19.5187,儋州市,东坡学校子站,,15,8,12,3,5,46,,39,39,2,3,5,5,0.5,0.5
2025-07-30T1500,2616A,98.5842,24.428,德宏傣族景颇族自治州,德宏州监测站,,14,11,19,9,10,42,,30,30,7,9,12,16,0.5,0.7
2025-07-30T1500,3677A,98.5881,24.4368,德宏傣族景颇族自治州,芒市人民政府综合楼,,28,28,22,3,9,56,,35,35,5,9,13,19,0.5,0.6
2025-07-30T1500,1901A,104.4239,31.1208,德阳市,东山公园,臭氧1小时,103,39,33,21,20,205,,111,111,14,16,4,4,0.8,0.8
2025-07-30T1500,1902A,104.3826,31.1317,德阳市,西小区,臭氧1小时,70,39,39,23,23,176,,103,103,11,24,7,10,0.8,0.9
2025-07-30T1500,1904A,104.3553,31.1091,德阳市,耐火材料厂,,49,38,40,20,23,155,,104,104,86,28,18,6,0.5,0.6
2025-07-30T1500,3639A,104.4019,31.1244,德阳市,市教育局,臭氧1小时,92,37,37,23,21,193,,108,108,6,19,3,3,0.8,0.8
2025-07-30T1500,1622A,116.3032,37.4674,德州市,儿童乐园,,50,29,27,19,13,158,,141,141,5,11,9,10,0.6,0.6
2025-07-30T1500,1624A,116.2991,37.4451,德州市,监理站,,49,17,19,12,10,154,,136,136,3,8,11,13,0.3,0.4
2025-07-30T1500,3066A,116.2721,37.4379,德州市,九衢泉纯净水厂,,47,24,24,9,14,149,,130,130,6,11,14,12,0.7,0.6
2025-07-30T1500,3371A,116.3728,37.4403,德州市,开发区人民医院,,45,29,23,17,12,143,,126,126,8,12,9,9,0.9,0.9
2025-07-30T1500,3511A,116.5652,37.3319,德州市,陵城艺术中心,,49,34,27,17,12,154,,132,132,4,11,5,7,0.7,0.6
2025-07-30T1500,4292A,116.3525,37.4209,德州市,新河东路,,46,27,23,19,14,147,,137,137,7,9,9,10,0.9,0.8
2025-07-30T1500,2621A,99.7056,27.8317,迪庆藏族自治州,迪庆州站,,27,11,22,10,14,84,,77,76,6,10,8,8,0.3,0.4
2025-07-30T1500,3180A,99.7136,27.8094,迪庆藏族自治州,质量技术监督局,,27,17,20,6,10,85,,80,76,10,15,7,7,0.4,0.4
2025-07-30T1500,4257A,104.6092,35.5962,定西市,将台街,,41,24,34,7,12,130,,106,106,2,12,9,7,0.4,0.4
2025-07-30T1500,4309A,104.6159,35.5701,定西市,正龙路62号,,38,18,24,8,14,121,,100,100,3,8,5,4,0.3,0.2
2025-07-30T1500,1389A,113.7547,23.0494,东莞市,莞城梨川,臭氧1小时,63,30,17,24,16,170,,110,110,12,19,6,8,0.6,0.6
2025-07-30T1500,1390A,113.7944,23.0128,东莞市,东城石井,臭氧1小时,84,39,21,29,13,187,,105,105,16,20,3,3,0.7,0.7
2025-07-30T1500,1391A,113.7383,22.9658,东莞市,南城西平,臭氧1小时,97,34,22,26,13,197,,106,106,13,21,2,2,0.8,0.8
2025-07-30T1500,3319A,113.7338,23.0381,东莞市,万江金泰,臭氧1小时,92,44,23,37,16,193,,102,102,13,21,3,4,0.8,0.7
2025-07-30T1500,3626A,113.7533,23.0202,东莞市,南城元岭,臭氧1小时,87,39,20,34,14,189,,108,108,13,20,5,6,0.7,0.6
2025-07-30T1500,3627A,113.7875,23.0457,东莞市,东城主山,颗粒物(PM10),54,57,31,30,17,156,,106,106,23,24,4,4,0.7,0.6
2025-07-30T1500,1666A,118.6614,37.4309,东营市,市环保局,,31,,13,12,7,98,,97,97,9,14,6,7,0.2,0.3
2025-07-30T1500,3036A,118.6904,37.4338,东营市,开发区管委会,,35,16,16,7,5,109,,106,106,6,12,5,6,0.1,0.2
2025-07-30T1500,3365A,118.5719,37.565,东营市,垦利区民丰路,,33,12,14,7,6,104,,100,100,6,11,2,6,0.5,0.6
2025-07-30T1500,3498A,118.5055,37.8612,东营市,河口城区,,41,14,9,3,3,131,,121,121,9,11,6,3,0.7,0.8
2025-07-30T1500,3646A,118.4978,37.4623,东营市,胜利站,,34,18,21,7,6,107,,110,110,8,14,3,3,0.3,0.5
2025-07-30T1500,3734A,118.35,37.26,东营市,理想之城,,32,19,14,9,8,100,,97,97,6,10,6,4,0.3,0.4
2025-07-30T1500,1591A,110.0023,39.8129,鄂尔多斯市,综合楼,臭氧1小时,52,24,20,12,6,161,,123,123,8,14,4,5,0.5,0.5
2025-07-30T1500,1592A,109.9486,39.8261,鄂尔多斯市,巴音孟克林场办事处,臭氧1小时,53,36,29,9,10,162,,123,123,8,16,1,3,0.6,0.6
2025-07-30T1500,1593A,109.7736,39.5986,鄂尔多斯市,康泽苑,,49,29,31,12,8,155,,130,130,6,10,8,7,0.4,0.4
2025-07-30T1500,1594A,109.8119,39.5989,鄂尔多斯市,华泰汽车城,,47,29,30,12,10,149,,123,123,6,17,6,5,0.6,0.6
2025-07-30T1500,1595A,109.9734,39.7884,鄂尔多斯市,奥林花园,,,34,24,,15,153,,111,111,6,12,9,7,0.6,0.6
2025-07-30T1500,2436A,114.8938,30.3994,鄂州市,市政府,,36,13,20,7,3,114,,95,95,8,12,4,5,0.5,0.6
2025-07-30T1500,2437A,114.8989,30.3714,鄂州市,赵家坝,,39,14,20,11,4,122,,102,102,5,10,4,5,0.7,0.7
2025-07-30T1500,3654A,114.8094,30.4089,鄂州市,精准医疗中心,,40,25,19,3,2,128,,104,104,5,11,3,4,0.6,0.6
2025-07-30T1500,2454A,109.4978,30.2981,恩施土家族苗族自治州,湖北民院,,37,14,19,7,11,116,,78,78,1,6,5,5,0.3,0.4
2025-07-30T1500,2455A,109.4707,30.2798,恩施土家族苗族自治州,州电力总公司,,35,18,20,6,10,111,,79,79,2,6,7,7,0.4,0.3
2025-07-30T1500,3549A,109.5061,30.3772,恩施土家族苗族自治州,龙凤新区,,40,10,17,3,11,128,,92,92,2,5,4,4,0.4,0.5
2025-07-30T1500,2499A,108.3411,21.6158,防城港市,沙万,,31,31,28,10,15,63,,57,57,7,11,4,3,0.4,0.4
2025-07-30T1500,2500A,108.3514,21.7731,防城港市,防城档案局,,40,40,33,21,19,84,,73,73,5,7,3,3,0.8,0.9
2025-07-30T1500,2501A,108.3506,21.6414,防城港市,大海花园,,39,39,28,12,16,85,,69,69,6,7,8,5,0.5,0.5
2025-07-30T1500,1371A,113.1294,23.0067,佛山市,湾梁,,40,29,27,22,22,125,,82,82,9,16,5,5,0.8,0.8
2025-07-30T1500,1372A,113.1083,23.0478,佛山市,华材职中,,50,31,24,20,16,158,,95,95,7,14,8,8,0.6,0.6
2025-07-30T1500,1373A,113.144,23.0453,佛山市,南海气象局,颗粒物(PM10),84,117,31,22,19,130,,85,85,8,14,3,3,0.6,0.8
2025-07-30T1500,1374A,113.2881,22.8094,佛山市,顺德苏岗,,45,24,28,19,15,142,,83,83,9,20,6,7,0.9,0.9
2025-07-30T1500,1376A,112.8383,22.8678,佛山市,高明孔堂,,41,31,31,25,18,130,,90,90,7,9,7,8,0.7,0.8
2025-07-30T1500,1377A,112.8836,23.1588,佛山市,三水监测站,,39,,23,27,18,98,,67,67,10,22,4,5,0.7,0.7
2025-07-30T1500,1378A,112.867,23.185,佛山市,三水云东海,,34,28,31,20,20,108,,68,68,6,23,1,3,0.7,0.7
2025-07-30T1500,3625A,113.2544,22.7642,佛山市,容桂街道办,,49,,21,31,20,155,,82,82,10,22,6,8,0.7,0.7
2025-07-30T1500,1280A,119.3903,26.0543,福州市,鼓山,,,,,,,,,,,,,,,,
2025-07-30T1500,1282A,119.2681,26.0504,福州市,师大,,20,9,20,3,5,63,,66,66,4,11,4,4,0.2,0.3
2025-07-30T1500,1283A,119.2984,26.1028,福州市,五四北路,,20,,21,6,7,63,,64,64,3,12,4,4,0.3,0.4
2025-07-30T1500,1284A,119.2648,26.0768,福州市,杨桥西路,,20,12,20,10,6,62,,63,63,3,10,3,4,0.2,0.3
2025-07-30T1500,1285A,119.317,26.0746,福州市,紫阳,,19,18,23,3,8,60,,61,61,5,13,6,5,0.2,0.2
2025-07-30T1500,3048A,119.5799,26.0936,福州市,九龙,,28,17,21,12,7,89,,85,85,4,8,4,5,0.2,0.3
2025-07-30T1500,3526A,119.5189,25.9664,福州市,吴航,,25,14,22,7,9,77,,71,71,2,10,5,5,0.3,0.5
2025-07-30T1500,1755A,123.7977,41.8491,抚顺市,望花区,,35,21,15,3,9,112,,113,113,8,14,2,5,0.4,0.5
2025-07-30T1500,1756A,123.9161,41.8822,抚顺市,顺城区,,34,22,13,8,8,107,,106,106,12,12,4,4,0.5,0.7
2025-07-30T1500,1757A,124.0436,41.8611,抚顺市,东洲区,,38,12,10,3,6,121,,117,117,10,10,7,6,0.5,0.5
2025-07-30T1500,1758A,123.9247,41.8642,抚顺市,新抚区,,36,11,12,3,6,113,,112,112,4,9,4,4,0.5,0.7
2025-07-30T1500,1759A,124.0972,41.8961,抚顺市,大伙房水库,,37,8,6,3,3,117,,113,113,5,7,7,6,0.4,0.4
2025-07-30T1500,1760A,123.7086,41.8391,抚顺市,沈抚新城,,36,8,9,3,1,115,,106,106,8,9,5,4,0.4,0.5
2025-07-30T1500,2376A,116.2127,28.0814,抚州市,桐源党溪,,31,28,31,11,14,97,,74,74,3,8,5,5,0.5,0.6
2025-07-30T1500,2377A,116.3544,27.9831,抚州市,市站,,30,25,30,14,15,94,,75,75,2,6,4,7,0.4,0.5
2025-07-30T1500,2378A,116.3565,27.963,抚州市,血防站,,30,26,28,17,15,95,,74,74,2,2,5,7,0.6,0.6
2025-07-30T1500,2379A,116.3564,28.0007,抚州市,采茶剧团,,32,24,31,10,14,101,,83,83,2,5,3,9,0.5,0.5
2025-07-30T1500,2380A,116.385,27.9647,抚州市,医学分院,,40,40,32,13,17,97,,79,79,2,4,4,7,0.5,0.6
2025-07-30T1500,2207A,121.6094,41.998,阜新市,工业园区,,29,9,17,3,10,90,,76,76,9,13,3,4,0.3,0.4
2025-07-30T1500,2208A,121.6697,42.0279,阜新市,长青街,,28,6,15,3,9,88,,73,73,3,9,4,5,0.2,0.4
2025-07-30T1500,2209A,121.6673,42.0705,阜新市,农业园区,,,7,20,,7,80,,70,70,4,8,2,2,0.4,0.7
2025-07-30T1500,2210A,121.6717,42.0224,阜新市,东苑,,29,10,20,8,10,92,,77,77,9,13,3,3,0.3,0.6
2025-07-30T1500,2211A,121.6506,42.0498,阜新市,玉龙新城,,28,17,20,3,10,88,,77,77,4,15,6,4,0.4,0.5
2025-07-30T1500,2301A,115.8277,32.8929,阜阳市,市监测站,,35,32,30,12,14,111,,87,87,8,11,4,4,0.2,0.2
2025-07-30T1500,2303A,115.8554,32.8605,阜阳市,开发区,,35,20,31,8,13,110,,87,87,5,12,6,6,0.2,0.2
2025-07-30T1500,2875A,115.784,32.8892,阜阳市,阜阳职业技术学院,,37,19,30,11,14,118,,90,90,2,8,4,5,0.3,0.4
2025-07-30T1500,3468A,115.7901,32.8613,阜阳市,市规划展馆,,35,17,29,14,17,111,,84,84,4,8,3,3,0.3,0.4
2025-07-30T1500,3469A,115.836,32.9183,阜阳市,枣园社区,,37,19,31,14,18,116,,89,89,6,11,3,3,0.3,0.3
2025-07-30T1500,2669A,102.9099,34.9841,甘南藏族自治州,州政府,,35,,23,9,15,111,,74,74,3,14,4,4,0.2,0.3
2025-07-30T1500,3380A,102.8914,34.9617,甘南藏族自治州,甘肃民族师范学院,,37,,35,13,14,117,,76,76,2,15,9,9,0.6,0.7
2025-07-30T1500,2570A,101.9603,30.0475,甘孜藏族自治州,水桥子,,33,11,15,7,8,105,,58,58,4,16,6,6,0.4,0.4
2025-07-30T1500,3065A,101.9533,29.9972,甘孜藏族自治州,州环保局,,35,12,19,11,6,110,,63,63,5,18,6,6,0.4,0.4
2025-07-30T1500,3414A,115.8347,28.932,赣江新区,桑海产业园,,36,27,21,17,11,114,,121,121,5,10,7,7,0.4,0.4
2025-07-30T1500,2362A,114.9017,25.9149,赣州市,通天岩,,,22,29,,16,92,,73,73,4,4,15,14,0.6,0.7
2025-07-30T1500,2363A,114.9367,25.8664,赣州市,地委,,30,20,26,16,15,94,,71,71,5,10,6,6,0.8,1
2025-07-30T1500,2364A,114.9461,25.8481,赣州市,气象台,,33,25,25,11,12,104,,74,74,5,9,8,8,0.8,0.8
2025-07-30T1500,2365A,114.9322,25.8333,赣州市,市图书馆,,31,11,23,8,16,97,,67,67,3,8,4,4,0.7,0.8
2025-07-30T1500,2366A,114.8905,25.8471,赣州市,华坚鞋城,,25,14,30,3,13,78,,59,59,6,13,4,5,0.5,0.5
2025-07-30T1500,3109A,115.0093,25.8613,赣州市,赣县区卫计委,,26,16,21,12,14,81,,70,70,5,7,4,4,0.4,0.4
2025-07-30T1500,2683A,106.2319,36.1417,固原市,马园,,42,30,33,11,11,134,,114,114,13,22,6,7,0.5,0.6
2025-07-30T1500,2684A,106.2792,36.0022,固原市,监测站,,45,26,24,18,13,144,,124,124,4,15,6,6,0.4,0.3
2025-07-30T1500,2685A,106.2375,36.0211,固原市,新区,,42,29,28,11,12,132,,109,109,6,13,6,6,0.4,0.4
2025-07-30T1500,3522A,106.2177,35.9959,固原市,原州区十五小,,40,18,20,15,13,128,,113,113,5,9,8,7,0.4,0.4
2025-07-30T1500,2543A,106.6308,30.5278,广安市,小平旧居,,,,,,,,,,,,,,,,
2025-07-30T1500,2544A,106.6303,30.4576,广安市,市委,臭氧1小时,77,37,34,22,20,181,,132,132,10,15,7,7,0.5,0.4
2025-07-30T1500,2545A,106.6271,30.4663,广安市,友谊中学,臭氧1小时,80,29,30,25,19,184,,139,139,11,16,6,8,0.8,0.8
2025-07-30T1500,2547A,106.6388,30.4551,广安市,广电花园,臭氧1小时,73,35,35,18,19,178,,128,128,8,15,2,3,0.7,0.6
2025-07-30T1500,2902A,106.6351,30.4865,广安市,北辰小学,臭氧1小时,88,40,33,21,19,190,,156,156,8,12,3,6,0.7,0.6
2025-07-30T1500,2523A,105.8945,32.4535,广元市,黑石坡,,45,30,24,12,12,142,,88,88,7,12,11,8,0.5,0.4
2025-07-30T1500,2524A,105.821,32.4444,广元市,老城,,49,15,16,6,7,156,,118,118,7,15,14,10,0.8,0.7
2025-07-30T1500,2526A,105.8628,32.4287,广元市,监测站,,45,14,18,3,9,144,,103,103,8,12,17,13,0.8,0.7
2025-07-30T1500,3617A,105.8047,32.4166,广元市,经开区,,43,29,28,17,16,136,,106,106,8,17,13,9,0.7,0.7
2025-07-30T1500,1345A,113.2347,23.1423,广州市,广雅中学,,50,48,33,28,17,157,,95,95,12,23,2,3,0.5,0.4
2025-07-30T1500,1346A,113.2612,23.105,广州市,市五中,,48,40,28,25,17,153,,93,93,8,18,5,5,0.8,0.8
2025-07-30T1500,1348A,113.3478,23.0916,广州市,广东商学院,臭氧1小时,64,40,26,36,18,171,,103,103,10,27,3,3,0.8,0.8
2025-07-30T1500,1349A,113.4332,23.1047,广州市,市八十六中,,44,42,26,25,15,138,,79,79,43,40,3,3,0.6,0.3
2025-07-30T1500,1350A,113.3505,22.9483,广州市,番禺中学,臭氧1小时,63,32,26,21,18,170,,98,98,6,15,5,6,0.5,0.5
2025-07-30T1500,1351A,113.2146,23.3916,广州市,花都师范,,43,43,37,24,19,125,,74,74,9,22,4,5,0.6,0.6
2025-07-30T1500,1352A,113.2597,23.1331,广州市,市监测站,臭氧1小时,54,35,28,21,15,163,,100,100,9,19,5,6,0.5,0.5
2025-07-30T1500,1353A,113.5618,23.312,广州市,九龙镇镇龙,,44,42,33,28,19,140,,93,93,11,29,7,7,0.6,0.7
2025-07-30T1500,1354A,113.2765,23.1544,广州市,麓湖,,50,30,24,24,17,158,,91,91,10,21,3,3,0.6,0.7
2025-07-30T1500,1355A,113.443,23.3035,广州市,帽峰山森林公园,,,,,,,,,,,,,,,,
2025-07-30T1500,2846A,113.3221,23.1322,广州市,体育西,,,35,29,24,18,156,,99,99,10,23,,5,0.7,0.7
2025-07-30T1500,3298A,113.5717,23.5491,广州市,从化街口,,39,30,33,24,21,123,,90,90,6,18,5,6,0.8,0.8
2025-07-30T1500,3299A,113.3472,23.3692,广州市,白云竹料,,40,36,33,22,20,127,,85,85,7,21,3,3,0.5,0.5
2025-07-30T1500,3300A,113.2981,23.237,广州市,白云嘉禾,,45,38,29,25,17,144,,88,88,11,29,3,4,0.6,0.6
2025-07-30T1500,3301A,113.4256,23.1716,广州市,黄埔科学城,,47,34,28,24,16,150,,89,89,9,24,3,4,0.5,0.5
2025-07-30T1500,3302A,113.3942,23.0483,广州市,番禺大学城,臭氧1小时,95,37,27,23,15,196,,104,104,10,21,8,8,0.5,0.5
2025-07-30T1500,3303A,113.4922,22.8168,广州市,南沙黄阁,臭氧1小时,101,57,34,34,18,201,,102,102,13,27,6,5,0.5,0.6
2025-07-30T1500,3304A,113.5342,22.7896,广州市,南沙街,臭氧1小时,106,53,28,33,15,211,,110,110,10,20,4,4,0.5,0.5
2025-07-30T1500,3443A,113.2902,23.5544,广州市,花都梯面,,42,31,30,23,18,133,,86,86,7,19,5,5,0.6,0.7
2025-07-30T1500,3445A,113.7858,23.7478,广州市,从化良口,,39,,32,27,26,114,,90,90,5,12,4,4,0.7,0.7
2025-07-30T1500,3446A,113.8051,23.2614,广州市,增城荔城,,30,14,23,10,16,93,,85,85,8,18,7,8,0.4,0.4
2025-07-30T1500,2505A,109.568,23.1478,贵港市,德智高中,,,,,,,,,,,,,,,,
2025-07-30T1500,2506A,109.6047,23.0666,贵港市,江南子站,颗粒物(PM10),53,56,35,30,26,80,,57,57,17,10,7,7,1.0,0.7
2025-07-30T1500,2508A,109.5669,23.1065,贵港市,荷城子站,,32,27,26,22,17,88,,62,62,11,8,8,7,0.6,0.4
2025-07-30T1500,3405A,109.5886,23.1172,贵港市,新世纪学校,,36,31,28,25,21,98,,68,68,16,8,2,2,1.0,0.6
2025-07-30T1500,4260A,109.5933,23.0951,贵港市,中山路155-3号,,33,31,38,23,24,92,,65,65,12,10,4,3,0.9,0.6
2025-07-30T1500,1439A,106.6899,26.5998,贵阳市,马鞍山,,30,19,19,3,7,94,,66,66,6,13,4,3,0.5,0.7
2025-07-30T1500,1441A,106.6243,26.6266,贵阳市,鉴湖路,,29,29,32,9,8,92,,75,75,7,14,7,8,0.3,0.3
2025-07-30T1500,1442A,106.7487,26.6343,贵阳市,燕子冲,,42,,19,29,21,107,,75,75,8,16,11,6,0.6,0.5
2025-07-30T1500,1443A,106.6555,26.4365,贵阳市,碧云窝,,43,36,36,12,14,136,,101,101,12,16,6,7,0.3,0.2
2025-07-30T1500,1445A,106.7109,26.6027,贵阳市,红边门,,32,24,26,17,14,102,,81,81,14,20,6,4,0.3,0.3
2025-07-30T1500,1446A,106.7164,26.5699,贵阳市,新华路,,34,24,33,14,18,106,,85,85,11,23,38,16,0.4,0.4
2025-07-30T1500,1447A,106.674,26.5424,贵阳市,太慈桥,,40,14,17,7,9,125,,92,92,10,17,5,4,0.2,0.2
2025-07-30T1500,1552A,106.805,26.3003,贵阳市,桐木岭,,35,29,30,14,19,109,,94,94,11,8,8,6,0.7,0.8
2025-07-30T1500,4230A,106.6882,26.5695,贵阳市,花果园大街66号,,36,,18,12,18,114,,84,84,8,19,4,4,0.3,0.4
2025-07-30T1500,4231A,106.6873,26.5169,贵阳市,漓江路57号,,,,28,,16,,,75,,,19,,4,,0.5
2025-07-30T1500,1862A,110.4144,25.3167,桂林市,电子科大尧山校区,,,,,,,,,,,,,,,,
2025-07-30T1500,1864A,110.3089,25.2708,桂林市,龙隐路小学,,35,28,29,16,19,112,,94,94,7,10,10,12,0.3,0.3
2025-07-30T1500,1865A,110.2869,25.2178,桂林市,八中,,42,30,31,16,18,134,,95,95,6,11,7,10,0.4,0.4
2025-07-30T1500,3531A,110.296,25.1253,桂林市,旅游学院,,37,,23,12,18,118,,88,88,4,10,4,7,0.4,0.4
2025-07-30T1500,4222A,110.1835,25.2444,桂林市,环湖路276号,,37,22,31,14,18,118,,88,88,5,12,6,22,0.4,0.4
2025-07-30T1500,4301A,110.2803,25.2773,桂林市,信义路13号,,42,26,28,17,16,133,,106,106,5,10,6,11,0.4,0.5
2025-07-30T1500,2674A,100.2561,34.4714,果洛藏族自治州,玛沁县大武镇,,37,14,26,3,12,118,,91,91,2,6,6,12,0.2,0.2
2025-07-30T1500,1129A,126.5422,45.755,哈尔滨市,岭北,,27,8,6,3,3,86,,83,83,5,8,6,7,0.4,0.5
2025-07-30T1500,1130A,126.561,45.8167,哈尔滨市,松北商大,,20,16,10,3,3,62,,59,59,4,7,6,6,0.4,0.5
2025-07-30T1500,1131A,126.979,45.5419,哈尔滨市,阿城会宁,,27,7,13,3,7,84,,72,72,6,7,6,5,0.3,0.5
2025-07-30T1500,1132A,126.599,45.7222,哈尔滨市,南岗学府路,,22,17,16,3,2,70,,64,64,4,7,7,7,0.5,0.5
2025-07-30T1500,1133A,126.689,45.7733,哈尔滨市,太平宏伟公园,,23,19,11,3,5,72,,66,66,4,7,6,6,0.5,0.6
2025-07-30T1500,1134A,126.635,45.7667,哈尔滨市,道外承德广场,,26,26,24,11,6,58,,57,57,15,13,7,6,0.6,0.9
2025-07-30T1500,1135A,126.685,45.7319,哈尔滨市,香坊红旗大街,,21,9,17,3,7,67,,67,67,8,15,11,8,0.4,0.6
2025-07-30T1500,1136A,126.6411,45.7258,哈尔滨市,动力和平路,,24,10,11,3,1,74,,67,67,5,10,5,5,0.4,0.4
2025-07-30T1500,1137A,126.593,45.7478,哈尔滨市,道里建国路,,,25,17,,6,65,,67,67,5,11,8,4,0.1,0.8
2025-07-30T1500,1138A,126.615,45.61,哈尔滨市,平房东轻厂,,20,12,11,8,6,64,,58,58,8,13,6,6,0.3,0.4
2025-07-30T1500,1139A,126.595,45.9855,哈尔滨市,呼兰师专,,,,11,,8,,,86,,,5,,8,,0.7
2025-07-30T1500,1140A,126.6206,45.6842,哈尔滨市,省农科院,,39,39,20,8,4,64,,58,58,9,15,11,8,0.3,0.3
2025-07-30T1500,2688A,93.5128,42.8172,哈密市,地区监测站,,48,35,59,33,26,125,,105,105,4,8,4,3,0.1,0.1
2025-07-30T1500,2689A,93.4961,42.8328,哈密市,哈密师范学校,,40,19,46,18,19,127,,106,106,5,9,10,7,0.3,0.2
2025-07-30T1500,2671A,100.9048,36.9639,海北藏族自治州,海晏县西海镇,,39,25,26,14,18,124,,105,105,3,5,8,9,0.4,0.5
2025-07-30T1500,3867A,102.0738,36.5056,海东市,平安区公安北苑,,49,28,44,11,18,155,,118,118,2,5,10,12,0.5,0.7
2025-07-30T1500,1409A,110.576,19.9507,海口市,东寨港,,22,19,26,12,12,70,,49,49,4,7,5,5,0.3,0.4
2025-07-30T1500,1410A,110.3232,20.0574,海口市,海南大学,,27,13,15,7,7,86,,57,57,4,9,3,3,0.3,0.3
2025-07-30T1500,1411A,110.283,20.0053,海口市,秀英海南医院,,21,18,18,3,6,66,,51,51,4,9,6,6,0.2,0.3
2025-07-30T1500,1412A,110.338,19.9969,海口市,海南师范大学,,25,21,20,6,9,77,,57,57,6,16,4,4,0.2,0.2
2025-07-30T1500,1413A,110.33,20.0356,海口市,龙华路环保局宿舍,,27,12,14,6,6,85,,59,59,5,8,6,5,0.3,0.3
2025-07-30T1500,3539A,110.5111,19.9736,海口市,桂林洋子站,,22,12,28,3,14,69,,50,50,4,13,4,4,0.2,0.3
2025-07-30T1500,2673A,100.6188,36.2866,海南藏族自治州,共和县恰卜恰镇,,41,11,28,7,17,130,,108,108,2,9,3,12,0.3,0.5
2025-07-30T1500,2676A,97.3731,37.3753,海西蒙古族藏族自治州,德令哈市,颗粒物(PM10),99,147,34,57,17,121,,117,117,2,1,18,20,0.5,0.5
2025-07-30T1500,1048A,114.5302,36.6116,邯郸市,东污水处理厂,,50,11,29,3,2,160,,141,141,2,12,4,6,0.2,0.3
2025-07-30T1500,1049A,114.4918,36.5713,邯郸市,矿院,臭氧1小时,59,9,21,3,3,167,,151,151,2,12,5,6,0.3,0.4
2025-07-30T1500,1050A,114.484,36.6133,邯郸市,丛台公园,臭氧1小时,60,6,19,3,5,168,,151,151,4,11,5,6,0.2,0.4
2025-07-30T1500,3458A,114.7895,36.5593,邯郸市,香泉濮院小区,,50,41,38,3,0,158,,139,139,4,11,2,2,0.2,0.3
2025-07-30T1500,3579A,114.50634,36.77178,邯郸市,永年区实验高中,,48,21,34,10,14,152,,142,142,5,18,3,4,0.2,0.3
2025-07-30T1500,3580A,114.20016,36.44293,邯郸市,峰峰矿区临水派出所,臭氧1小时,83,21,33,3,2,186,,165,165,3,10,4,5,0.3,0.4
2025-07-30T1500,2634A,106.9893,33.1842,汉中市,汉川机床厂子校,,35,14,18,12,10,109,,94,94,6,6,4,3,0.4,0.3
2025-07-30T1500,2635A,107.0154,33.0706,汉中市,市监测站,,40,29,27,14,14,126,,95,95,3,8,6,11,0.5,0.6
2025-07-30T1500,2636A,107.0089,33.1138,汉中市,鑫源开发区,,34,17,23,10,10,106,,83,83,4,10,6,9,0.4,0.5
2025-07-30T1500,2637A,107.007,33.0323,汉中市,南郑大河坎水厂,,41,26,25,14,13,129,,95,95,5,11,8,10,0.5,0.6
2025-07-30T1500,1223A,120.2072,30.2111,杭州市,滨江,,18,,13,3,7,55,,47,47,6,13,5,6,0.4,0.5
2025-07-30T1500,1224A,120.0633,30.2747,杭州市,西溪,,15,6,18,3,9,48,,39,39,8,12,4,4,0.3,0.4
2025-07-30T1500,1226A,120.3417,30.3150,杭州市,下沙,,15,6,15,3,6,47,,45,45,10,13,4,5,0.3,0.3
2025-07-30T1500,1227A,120.1269,30.2456,杭州市,卧龙桥,,14,7,17,3,8,44,,34,34,2,7,7,7,0.3,0.3
2025-07-30T1500,1228A,120.1903,30.2692,杭州市,浙江农大,,,,20,8,11,46,,42,42,,12,4,5,0.3,0.5
2025-07-30T1500,1230A,120.1197,30.3119,杭州市,和睦小学,,15,,15,7,12,45,,39,39,8,12,5,4,0.4,0.4
2025-07-30T1500,1231A,120.3019,30.4183,杭州市,临平镇,,15,,14,3,8,46,,45,45,4,7,5,5,0.3,0.3
2025-07-30T1500,1232A,120.2753,30.1839,杭州市,城厢镇,,17,6,16,3,8,54,,45,45,1,5,5,5,0.4,0.5
2025-07-30T1500,1233A,120.0883,30.1808,杭州市,云栖,,19,8,17,3,6,58,,48,48,5,10,8,8,0.4,0.4
2025-07-30T1500,3557A,119.9464,30.0494,杭州市,镇二中,,14,6,13,3,14,42,,34,34,18,13,3,4,0.5,0.5
2025-07-30T1500,3558A,119.7183,30.2367,杭州市,市府大楼,,14,8,16,3,10,43,,38,38,6,8,6,6,0.3,0.3
2025-07-30T1500,3656A,120.1556,30.2864,杭州市,消防大队,,13,12,18,3,8,41,,39,39,10,14,6,6,0.4,0.6
2025-07-30T1500,1270A,117.1959,31.7848,合肥市,明珠广场,,20,12,21,3,12,62,,50,50,5,12,6,7,0.3,0.3
2025-07-30T1500,1271A,117.3072,31.8764,合肥市,三里街,,20,17,21,3,11,63,,46,46,4,11,5,6,0.3,0.3
2025-07-30T1500,1272A,117.2588,31.8707,合肥市,琥珀山庄,,21,14,22,12,12,65,,49,49,5,9,7,7,0.4,0.5
2025-07-30T1500,1273A,117.1604,31.9052,合肥市,董铺水库,,18,9,25,3,14,56,,44,44,3,7,4,4,0.2,0.3
2025-07-30T1500,1274A,117.25,31.8571,合肥市,长江中路,,20,17,23,6,13,63,,50,50,4,9,7,7,0.3,0.4
2025-07-30T1500,1275A,117.266,31.9436,合肥市,庐阳区,,22,19,26,7,13,68,,49,49,2,6,9,9,0.4,0.4
2025-07-30T1500,1276A,117.3453,31.8616,合肥市,瑶海区,,21,19,19,12,9,65,,49,49,3,9,7,7,0.3,0.4
2025-07-30T1500,1277A,117.3027,31.7964,合肥市,包河区,,20,14,23,7,12,62,,44,44,8,26,6,6,0.5,0.5
2025-07-30T1500,1278A,117.2776,31.7385,合肥市,滨湖新区,,20,17,23,9,16,63,,47,47,5,8,8,8,0.3,0.4
2025-07-30T1500,1279A,117.1318,31.8403,合肥市,高新区,,21,19,23,8,13,66,,52,52,6,12,6,6,0.3,0.4
2025-07-30T1500,3464A,117.3803,31.9147,合肥市,高教基地,,,,23,,17,,,70,,,9,,6,,0.3
2025-07-30T1500,3614A,79.924,37.0877,和田地区,地区环保局,颗粒物(PM10),500,2193,440,333,123,85,,68,61,9,11,3,3,0.5,0.5
2025-07-30T1500,3615A,79.9131,37.113,和田地区,市环保局,颗粒物(PM10),500,1192,367,162,104,74,,62,41,9,18,3,2,0.0,0.1
2025-07-30T1500,2516A,108.2011,24.715,河池市,东仁乐园,,,,,,,,,,,,,,,,
2025-07-30T1500,2517A,108.0497,24.6947,河池市,市环保站,,35,35,32,14,18,86,,68,68,4,11,4,6,0.5,0.6
2025-07-30T1500,2518A,108.0983,24.6989,河池市,市疾控中心,,32,30,28,15,17,102,,76,76,8,14,5,8,0.6,0.8
2025-07-30T1500,1696A,114.6778,23.7569,河源市,源西,,38,35,28,19,16,120,,84,84,6,6,7,7,0.6,0.5
2025-07-30T1500,1697A,114.6944,23.7586,河源市,东埔,,40,30,23,22,16,125,,86,86,13,14,4,4,0.5,0.6
2025-07-30T1500,1698A,114.6892,23.7233,河源市,老城,细颗粒物(PM2.5),115,,28,87,33,104,,82,82,10,12,4,4,0.6,0.5
2025-07-30T1500,1718A,115.4208,35.2464,菏泽市,气象局,臭氧1小时,65,27,31,17,18,172,,134,134,4,12,2,5,0.3,0.3
2025-07-30T1500,3374A,115.5564,35.0891,菏泽市,定陶老年大学,,48,27,30,14,13,153,,113,113,6,15,3,2,0.2,0.2
2025-07-30T1500,4184A,115.4797,35.24401,菏泽市,永昌路1号,臭氧1小时,68,29,37,9,20,174,,126,126,8,16,5,7,0.2,0.1
2025-07-30T1500,4193A,115.4715,35.2800,菏泽市,长城路999号,臭氧1小时,68,25,32,8,13,174,,123,123,6,13,4,5,0.3,0.3
2025-07-30T1500,2514A,111.5264,24.4172,贺州市,环保小区,,37,26,27,11,19,116,,76,76,7,11,10,10,1.0,1.1
2025-07-30T1500,2515A,111.5608,24.4078,贺州市,政协大楼,,40,25,26,20,18,126,,86,86,4,9,10,13,0.6,0.6
2025-07-30T1500,3534A,111.4744,24.4553,贺州市,西湾,,33,27,31,15,19,105,,81,81,4,10,8,10,0.3,0.4
2025-07-30T1500,2385A,114.17,35.9019,鹤壁市,市监测站,,48,15,34,15,22,153,,142,142,4,10,6,6,0.5,0.8
2025-07-30T1500,2386A,114.2956,35.7511,鹤壁市,市交警支队,,45,16,34,14,26,142,,126,126,6,12,4,6,0.4,0.7
2025-07-30T1500,2387A,114.2878,35.7306,鹤壁市,迎宾馆,,45,19,37,15,24,144,,127,127,9,14,6,6,0.6,0.7
2025-07-30T1500,3474A,114.2617,35.6822,鹤壁市,大新区,,46,27,33,6,14,147,,130,130,3,6,7,7,0.5,0.7
2025-07-30T1500,3596A,114.1572,35.9603,鹤壁市,南山宾馆,臭氧1小时,53,32,40,15,18,162,,150,150,4,10,4,6,0.5,0.9
2025-07-30T1500,2244A,130.2537,47.3416,鹤岗市,哈啤分公司,,30,18,23,9,7,94,,76,76,5,12,12,13,0.7,0.8
2025-07-30T1500,2245A,130.2684,47.3086,鹤岗市,斯达机电,,,28,22,7,9,89,,,,5,8,12,12,,0.6
2025-07-30T1500,2246A,130.3114,47.3388,鹤岗市,东山纸板厂,,29,27,18,10,15,90,,73,73,9,10,13,13,1.1,1.1
2025-07-30T1500,2247A,130.1097,47.3382,鹤岗市,五号水库,,27,7,7,6,5,85,,70,70,10,15,11,10,0.1,0.2
2025-07-30T1500,2263A,127.4833,50.2524,黑河市,交通局,,19,13,16,10,8,59,,54,54,7,7,7,6,0.4,0.4
2025-07-30T1500,2264A,127.5144,50.2341,黑河市,环保局,,20,20,15,9,11,62,,58,58,7,7,3,4,0.3,0.4
2025-07-30T1500,2265A,127.5291,50.2472,黑河市,大黑河岛,,,,8,3,8,29,,36,32,5,6,27,28,,
2025-07-30T1500,1074A,115.6838,37.7541,衡水市,电机北厂,,50,14,28,3,12,159,,138,138,4,12,6,7,0.4,0.4
2025-07-30T1500,1075A,115.6303,37.7316,衡水市,市监测站,,50,29,22,3,7,158,,144,144,2,8,5,6,0.4,0.3
2025-07-30T1500,3188A,115.6683,37.7217,衡水市,市城管局,臭氧1小时,58,25,27,23,13,166,,141,141,4,10,10,13,0.5,0.5
2025-07-30T1500,3459A,115.5989,37.5491,衡水市,地表水厂,,49,28,33,3,2,154,,138,138,5,13,9,8,0.3,0.3
2025-07-30T1500,2456A,112.5003,26.9167,衡阳市,原169医院,,32,23,24,10,12,100,,81,81,3,9,3,4,0.5,0.5
2025-07-30T1500,2457A,112.6194,26.9258,衡阳市,衡阳化工总厂,,32,32,25,12,14,97,,68,68,4,9,3,4,0.6,0.7
2025-07-30T1500,2458A,112.6211,26.8956,衡阳市,珠晖区环保局,,33,,24,14,14,104,,76,76,6,13,4,6,0.4,0.5
2025-07-30T1500,2459A,112.6197,26.8733,衡阳市,市委党校,,32,17,20,10,13,100,,72,72,4,11,6,6,0.5,0.7
2025-07-30T1500,2460A,112.6006,26.8919,衡阳市,市监测站,,31,17,27,13,16,97,,69,69,4,10,2,2,0.4,0.6
2025-07-30T1500,2461A,112.5664,26.9056,衡阳市,真空机电公司,,40,40,24,17,16,94,,71,71,5,7,5,4,0.8,0.7
2025-07-30T1500,3399A,112.6703,26.882,衡阳市,师范学院,,29,22,26,3,12,90,,66,66,4,8,6,6,0.7,0.7
2025-07-30T1500,2608A,103.3772,23.3993,红河哈尼族彝族自治州,污水处理厂,,42,,36,29,26,99,,80,80,8,14,11,14,0.2,0.3
2025-07-30T1500,2609A,103.3861,23.35,红河哈尼族彝族自治州,监测站,,,43,40,29,27,88,,72,72,8,9,,21,0.4,0.4
2025-07-30T1500,3038A,103.3758,23.368,红河哈尼族彝族自治州,州图书馆,,40,,34,28,28,93,,75,75,8,10,3,13,0.2,0.3
2025-07-30T1500,1090A,111.6507,40.7517,呼和浩特市,呼市一监,,39,7,10,3,4,122,,81,81,5,12,7,7,0.3,0.5
2025-07-30T1500,1091A,111.6572,40.8033,呼和浩特市,小召,,41,14,11,6,6,129,,85,85,11,18,8,7,0.3,0.3
2025-07-30T1500,1094A,111.7516,40.8369,呼和浩特市,如意水处理厂,,36,9,9,3,4,113,,77,77,5,19,4,4,0.0,0.1
2025-07-30T1500,1095A,111.7276,40.8062,呼和浩特市,二十九中,,41,7,13,3,4,130,,85,85,6,16,5,5,0.3,0.4
2025-07-30T1500,1096A,111.5512,40.7866,呼和浩特市,工大金川校区,,41,18,15,3,4,129,,85,85,8,17,8,5,0.5,0.4
2025-07-30T1500,1097A,111.717,40.7612,呼和浩特市,化肥厂生活区,,41,8,7,3,4,130,,91,91,8,13,7,6,0.3,0.4
2025-07-30T1500,3698A,111.5968,40.8178,呼和浩特市,红旗小学,,45,22,13,3,4,142,,91,91,11,12,6,2,0.5,0.4
2025-07-30T1500,3699A,111.6518,40.8389,呼和浩特市,海东办,,45,14,10,6,5,143,,94,94,11,14,5,4,0.5,0.4
2025-07-30T1500,2192A,119.7594,49.2261,呼伦贝尔市,区环保局,,19,,18,13,14,54,,45,42,9,8,4,4,0.2,0.2
2025-07-30T1500,3061A,119.7512,49.1577,呼伦贝尔市,国华电力东,,19,9,17,3,9,58,,44,42,4,4,7,8,0.3,0.3
2025-07-30T1500,1250A,120.0751,30.8669,湖州市,城西水厂,,13,6,13,3,6,40,,50,48,5,6,6,6,0.4,0.4
2025-07-30T1500,2873A,120.0830,30.8929,湖州市,仁皇山新区,,,6,12,3,6,36,,47,44,4,4,3,4,,0.4
2025-07-30T1500,2907A,120.1844,30.8596,湖州市,吴兴区站,,10,6,14,3,6,30,,37,35,2,5,6,6,0.4,0.4
2025-07-30T1500,3562A,120.4148,30.8538,湖州市,南浔区站,,10,6,15,3,7,32,,37,36,6,7,5,6,0.5,0.5
2025-07-30T1500,1607A,120.9049,40.7211,葫芦岛市,龙港区,,32,25,21,6,10,101,,85,85,11,17,21,8,0.7,0.6
2025-07-30T1500,1608A,120.8392,40.7514,葫芦岛市,化工街,,28,6,11,3,6,88,,78,78,7,20,10,11,0.4,0.5
2025-07-30T1500,1609A,120.8341,40.7073,葫芦岛市,新区,,36,22,15,3,10,114,,79,79,8,17,4,3,0.7,0.7
2025-07-30T1500,1610A,120.8695,40.7677,葫芦岛市,东城区,,29,13,18,3,11,90,,80,80,7,21,6,7,0.5,0.6
2025-07-30T1500,2482A,109.5981,27.5721,怀化市,林科所,,29,17,24,3,8,90,,73,73,5,6,4,5,0.4,0.2
2025-07-30T1500,2483A,109.9453,27.5444,怀化市,河西地税局,,29,16,28,10,17,90,,75,75,4,11,6,4,0.3,0.3
2025-07-30T1500,2484A,109.9781,27.5342,怀化市,市四医院,,36,,27,25,19,81,,72,72,1,10,7,9,0.4,0.4
2025-07-30T1500,2485A,109.9972,27.5578,怀化市,监测楼,,26,17,31,11,17,83,,70,70,2,9,3,7,0.1,0.2
2025-07-30T1500,2486A,110.0394,27.583,怀化市,市委党校,,29,16,34,9,19,91,,74,74,4,12,5,15,0.1,0.2
2025-07-30T1500,1210A,119.036,33.5981,淮安市,钵池山,,16,12,16,11,13,38,,43,43,6,9,7,7,0.6,0.6
2025-07-30T1500,1211A,119.007,33.575,淮安市,北京南路,,18,12,18,12,12,37,,43,41,6,8,7,7,0.6,0.6
2025-07-30T1500,1212A,118.989,33.6067,淮安市,市监测站,,18,14,17,12,13,43,,47,47,4,7,8,8,0.5,0.6
2025-07-30T1500,1213A,119.135,33.5039,淮安市,楚州区监测站,,17,17,23,10,12,34,,44,38,1,5,7,7,0.3,0.5
2025-07-30T1500,3426A,118.8755,33.2894,淮安市,新华书店,,18,12,15,12,11,38,,42,40,8,9,10,9,0.4,0.4
2025-07-30T1500,4206A,119.0288,33.6319,淮安市,承德北路606号,,34,34,25,15,12,38,,42,42,4,10,6,6,0.4,0.4
2025-07-30T1500,2282A,116.8004,33.975,淮北市,监测站,,43,35,27,29,14,136,,105,105,5,7,7,7,0.6,0.6
2025-07-30T1500,2283A,116.8091,33.9007,淮北市,烈山区政府,,42,39,34,14,11,132,,110,110,3,6,7,8,0.5,0.5
2025-07-30T1500,3330A,116.8873,33.9836,淮北市,杜集区检察院,,39,29,33,20,16,124,,100,100,4,9,7,7,0.7,0.6
2025-07-30T1500,4017A,116.7923,33.9535,淮北市,市博物馆,,44,,26,30,15,139,,108,108,4,6,9,9,0.5,0.4
2025-07-30T1500,2277A,116.8305,32.7727,淮南市,潘集区政府,,24,24,32,10,16,65,,58,58,3,12,3,3,0.3,0.4
2025-07-30T1500,2279A,116.8569,32.5951,淮南市,谢家集区政府,,23,6,27,3,11,73,,62,62,1,9,7,8,0.1,0.2
2025-07-30T1500,2280A,116.8281,32.633,淮南市,八公山区政府,,22,11,28,3,14,70,,61,61,3,9,8,9,0.1,0.3
2025-07-30T1500,2281A,116.6325,32.6201,淮南市,焦岗湖风景区管理处,,,,,,,,,,,,,,,,
2025-07-30T1500,2894A,117.0566,32.6531,淮南市,经济技术开发区消防队,,25,11,25,3,6,79,,58,58,6,13,9,9,0.1,0.2
2025-07-30T1500,3329A,117.0108,32.5893,淮南市,山南新区,,25,6,19,3,7,80,,59,59,5,8,11,10,0.3,0.4
2025-07-30T1500,4209A,117.0031,32.6445,淮南市,国庆中路369号,,24,15,28,12,16,76,,58,58,5,9,13,14,0.2,0.2
2025-07-30T1500,2446A,114.9028,30.4742,黄冈市,职工中心,,46,23,21,19,11,147,,122,122,2,2,7,7,0.4,0.5
2025-07-30T1500,2929A,114.8858,30.4519,黄冈市,红卫路,,46,21,18,16,13,147,,122,122,2,2,7,7,0.3,0.4
2025-07-30T1500,3398A,114.9136,30.4445,黄冈市,市林业局,,45,30,20,12,8,141,,130,130,2,3,7,6,0.5,0.5
2025-07-30T1500,2672A,102.0199,35.5102,黄南藏族自治州,同仁县隆务镇,,24,9,24,9,10,74,,61,61,15,12,8,7,0.1,0.2
2025-07-30T1500,2295A,118.2903,29.6963,黄山市,延安路89号,,20,10,16,3,7,64,,49,49,2,4,3,3,0.4,0.3
2025-07-30T1500,2297A,118.1371,30.2756,黄山市,黄山区政府5号楼,,18,,18,8,8,55,,45,45,2,4,4,4,0.3,0.3
2025-07-30T1500,4210A,118.3354,29.7203,黄山市,滨江东路7-2号,,20,15,20,6,5,62,,48,48,2,5,2,2,0.3,0.3
2025-07-30T1500,2423A,115.0601,30.2313,黄石市,沈家营,,,18,28,7,5,126,,102,102,1,9,,18,0.5,0.4
2025-07-30T1500,2426A,114.8988,30.2019,黄石市,铁山,,35,16,24,7,7,110,,94,94,2,8,10,9,0.3,0.3
2025-07-30T1500,2427A,115.0307,30.2092,黄石市,团城山,,41,17,20,3,2,131,,103,103,2,9,7,8,0.5,0.4
2025-07-30T1500,3149A,115.0235,30.1578,黄石市,笔架山北路,,37,12,19,3,2,117,,92,92,2,8,6,7,0.3,0.4
2025-07-30T1500,4185A,115.0780,30.21118,黄石市,磁湖东路29号,,38,16,32,13,8,119,,97,97,2,10,7,8,0.3,0.4
2025-07-30T1500,1392A,114.4183,23.0528,惠州市,河南岸金山湖子站,臭氧1小时,90,51,26,48,18,192,,92,92,16,21,7,7,0.7,0.7
2025-07-30T1500,1393A,114.4053,23.0822,惠州市,下埔横江三路子站,臭氧1小时,87,49,26,28,17,189,,96,96,11,19,3,4,0.6,0.5
2025-07-30T1500,1394A,114.4103,23.1142,惠州市,江北云山西路子站,臭氧1小时,89,35,29,32,13,191,,100,100,13,21,7,7,0.7,0.6
2025-07-30T1500,1395A,114.4645,22.7833,惠州市,惠阳区承修路船湖子站,臭氧1小时,90,49,32,33,22,192,,95,95,15,25,6,7,0.5,0.5
2025-07-30T1500,1396A,114.5317,22.7422,惠州市,大亚湾管委会子站,,48,36,29,27,19,152,,74,74,14,27,7,7,0.6,0.7
2025-07-30T1500,3314A,114.4338,22.8134,惠州市,惠阳秋长,臭氧1小时,78,53,42,36,25,182,,79,79,17,33,13,12,0.5,0.6
2025-07-30T1500,3452A,114.6517,22.775,惠州市,大亚湾霞涌,,46,45,31,32,19,128,,61,61,14,24,5,6,0.6,0.8
2025-07-30T1500,2240A,130.9762,45.3001,鸡西市,环保局,,,,32,,7,,,71,,,7,,4,,0.3
2025-07-30T1500,2243A,130.9429,45.3039,鸡西市,第一中学,,30,6,12,3,9,95,,67,67,7,7,10,10,0.2,0.2
2025-07-30T1500,3707A,131.0207,45.3073,鸡西市,欧美日汽修厂,,28,12,15,12,9,88,,61,61,11,7,9,8,0.3,0.3
2025-07-30T1500,3709A,130.9967,45.3106,鸡西市,市政设施管理处,,29,24,16,3,8,92,,64,64,12,10,6,11,0.3,0.4
2025-07-30T1500,2367A,114.9754,27.0803,吉安市,红声器材厂,,38,26,28,10,12,120,,77,77,2,5,8,8,0.6,0.5
2025-07-30T1500,2368A,114.9658,27.0999,吉安市,市森林工业局,,39,22,23,7,10,122,,76,76,1,4,9,8,0.7,0.5
2025-07-30T1500,2369A,114.99,27.1312,吉安市,市环境监测站,,40,17,22,10,9,128,,80,80,1,2,12,13,0.7,0.6
2025-07-30T1500,2370A,115.0093,27.0968,吉安市,青原区法院,,37,22,22,11,12,116,,69,69,6,8,7,7,0.8,0.7
2025-07-30T1500,1772A,126.54,43.8622,吉林市,哈达湾,,28,9,11,6,9,87,,80,80,2,7,7,6,0.4,0.5
2025-07-30T1500,1773A,126.5844,43.8358,吉林市,东局子,,28,9,17,3,6,88,,77,77,3,6,5,5,0.3,0.3
2025-07-30T1500,1774A,126.5052,43.8245,吉林市,电力学院,,,7,11,3,8,92,,85,85,,6,6,5,0.4,0.8
2025-07-30T1500,1775A,126.6133,43.8972,吉林市,江北,,29,13,16,3,5,90,,77,77,4,7,5,3,0.4,0.7
2025-07-30T1500,1776A,126.555,43.8306,吉林市,江南公园,,30,9,12,6,9,94,,86,86,4,6,1,1,0.2,0.3
2025-07-30T1500,1778A,126.7061,43.7133,吉林市,丰满,,38,7,10,6,8,119,,113,113,5,3,4,4,0.5,0.5
2025-07-30T1500,2868A,126.4739,43.953,吉林市,九站,,28,,19,8,21,89,,84,84,2,8,2,2,0.3,0.4
2025-07-30T1500,1299A,116.9862,36.6114,济南市,科干所,,48,27,27,20,20,152,,119,119,14,18,7,6,0.5,0.5
2025-07-30T1500,1300A,116.9376,36.665,济南市,农科所,,46,22,25,12,12,147,,22,,10,24,8,7,0.4,0.3
2025-07-30T1500,1301A,117.1265,36.6734,济南市,开发区,,45,27,26,22,19,142,,111,111,12,20,8,7,0.7,0.7
2025-07-30T1500,1303A,117.0624,36.6868,济南市,省种子仓库,,50,31,35,19,14,159,,133,133,7,21,6,6,0.5,0.6
2025-07-30T1500,1304A,116.9489,36.6447,济南市,机床二厂,,49,27,31,10,13,154,,123,123,9,19,10,9,0.4,0.4
2025-07-30T1500,1305A,117.0495,36.663,济南市,市监测站,,45,37,31,15,17,143,,115,115,15,22,10,9,0.6,0.6
2025-07-30T1500,1306A,116.7675,36.5484,济南市,长清党校,,49,32,29,24,16,154,,121,121,10,20,5,6,0.5,0.5
2025-07-30T1500,1616A,117.6795,36.229,济南市,技术学院,臭氧1小时,74,24,23,17,17,179,,130,130,9,13,8,8,0.6,0.6
2025-07-30T1500,1961A,117.532,36.6868,济南市,东山小学,臭氧1小时,53,42,25,27,15,162,,128,128,8,15,8,7,0.4,0.3
2025-07-30T1500,3059A,117.7161,36.2049,济南市,泰兴公司,臭氧1小时,53,29,27,17,15,162,,107,107,8,13,10,8,0.6,0.5
2025-07-30T1500,3064A,117.6867,36.2171,济南市,莱芜战役纪念馆,,,36,28,18,18,174,,117,117,,15,8,5,0.8,0.9
2025-07-30T1500,3494A,117.1673,36.9782,济南市,济阳区政府,,44,22,30,7,14,139,,117,117,3,10,8,8,0.3,0.4
2025-07-30T1500,3495A,117.1171,36.63,济南市,锦屏中学,,49,27,27,12,15,155,,121,121,9,12,6,5,0.8,0.8
2025-07-30T1500,3682A,116.9814,36.6819,济南市,济南四建,,47,24,31,17,17,150,,122,122,8,23,6,6,0.6,0.6
2025-07-30T1500,1653A,116.6251,35.4302,济宁市,火炬城,,46,27,24,14,10,147,,105,105,4,7,5,5,0.6,0.5
2025-07-30T1500,1655A,116.5491,35.4042,济宁市,电化厂,,49,29,29,9,11,156,,115,115,3,9,5,6,0.6,0.6
2025-07-30T1500,3500A,116.5814,35.3707,济宁市,北湖一中,,50,30,25,13,12,159,,118,118,4,7,5,3,0.4,0.3
2025-07-30T1500,3501A,116.8249,35.5593,济宁市,服务中心,臭氧1小时,58,23,26,19,8,166,,116,116,5,9,3,3,0.5,0.4
2025-07-30T1500,3678A,116.5907,35.4054,济宁市,市第七中学,,47,31,25,7,6,149,,109,109,4,6,10,9,0.5,0.3
2025-07-30T1500,2255A,130.2751,46.8028,佳木斯市,佳纺,,25,9,15,3,7,79,,76,76,4,8,8,8,0.5,0.5
2025-07-30T1500,2256A,130.3995,46.8307,佳木斯市,发电厂,,,,14,,9,,,,,,10,,6,,0.4
2025-07-30T1500,2257A,130.3258,46.7975,佳木斯市,环保局,,25,12,17,6,10,79,,76,76,5,7,10,10,0.5,0.5
2025-07-30T1500,2258A,130.3648,46.8032,佳木斯市,十一中,,25,14,14,6,7,78,,76,76,7,8,5,5,0.4,0.4
2025-07-30T1500,2259A,130.3794,46.7588,佳木斯市,四丰,,,,,,,7,,,,3,5,1,4,0.4,0.5
2025-07-30T1500,1252A,120.7436,30.778,嘉兴市,清河小学,,,6,14,3,8,33,,32,32,,11,10,9,0.6,0.5
2025-07-30T1500,1253A,120.726,30.7478,嘉兴市,嘉兴学院,,11,8,17,3,7,35,,33,33,10,11,3,3,0.3,0.3
2025-07-30T1500,2872A,120.7846,30.7525,嘉兴市,南湖区残联,,10,6,14,3,7,32,,31,31,10,11,5,5,0.3,0.3
2025-07-30T1500,3407A,120.6916,30.7739,嘉兴市,秀洲住建,,11,6,12,3,5,35,,35,35,6,9,4,4,0.6,0.5
2025-07-30T1500,1945A,98.2908,39.7711,嘉峪关市,气象局,颗粒物(PM10),51,51,264,24,52,99,,104,102,6,10,7,18,0.8,0.8
2025-07-30T1500,2884A,98.2672,39.7978,嘉峪关市,酒钢宾馆,颗粒物(PM10),59,68,343,39,66,103,,112,109,10,12,24,33,1.0,1.1
2025-07-30T1500,3248A,98.2643,39.7724,嘉峪关市,雄关区,颗粒物(PM10),52,53,177,22,43,87,,103,97,15,13,13,13,0.9,0.6
2025-07-30T1500,1383A,113.1064,22.6058,江门市,北街,,43,38,29,30,21,107,,76,76,7,12,2,2,0.5,0.6
2025-07-30T1500,1384A,113.0731,22.5835,江门市,西区,,,,33,19,23,122,,90,90,8,12,4,6,0.6,0.4
2025-07-30T1500,1385A,113.0219,22.5311,江门市,圭峰西,颗粒物(PM10),58,66,34,32,22,131,,86,86,6,8,5,4,0.5,0.5
2025-07-30T1500,1386A,113.0828,22.5947,江门市,东湖,,40,38,28,28,20,100,,75,75,8,12,6,6,0.4,0.5
2025-07-30T1500,3311A,113.1075,22.5647,江门市,江海富民,,44,24,35,22,21,139,,92,92,11,12,8,8,0.3,0.3
2025-07-30T1500,3449A,113.05,22.4667,江门市,新会银湖,,44,44,25,21,20,121,,88,88,5,12,3,2,0.5,0.4
2025-07-30T1500,1830A,113.1992,35.2590,焦作市,影视城,,,,15,,10,,,,,,6,,9,,0.5
2025-07-30T1500,3335A,113.3137,35.2641,焦作市,马村街道办,臭氧1小时,63,21,42,13,27,170,,137,137,19,16,11,8,0.7,0.7
2025-07-30T1500,3336A,113.2465,35.2373,焦作市,焦作技师学院,,50,26,38,7,12,157,,134,134,10,11,6,2,0.8,0.8
2025-07-30T1500,3477A,113.1656,35.2539,焦作市,中站许衡医院,臭氧1小时,78,42,37,12,22,182,,143,143,7,14,9,7,0.6,0.5
2025-07-30T1500,3981A,113.2449,35.1803,焦作市,原李万街道办,臭氧1小时,68,32,45,3,15,174,,138,138,13,17,10,9,0.8,0.8
2025-07-30T1500,4264A,113.2340,35.2190,焦作市,新安路1731号,,,35,39,,15,174,,143,143,4,8,4,4,0.4,0.4
2025-07-30T1500,4295A,113.2722,35.2121,焦作市,人民路3066号,,,37,45,6,21,165,,142,142,4,11,,4,0.5,0.6
2025-07-30T1500,1708A,116.3701,23.5345,揭阳市,新兴,,,,28,20,15,76,,74,74,4,14,4,4,0.6,0.7
2025-07-30T1500,1709A,116.3264,23.5443,揭阳市,西马,,24,,28,16,15,75,,69,69,6,13,2,3,0.4,0.5
2025-07-30T1500,1710A,116.3611,23.5626,揭阳市,东兴,,32,32,33,11,13,71,,62,62,4,17,2,3,0.1,0.4
2025-07-30T1500,1711A,116.4151,23.5294,揭阳市,渔湖,,36,36,29,9,12,80,,76,76,3,15,7,8,0.6,0.7
2025-07-30T1500,3320A,116.403,23.5699,揭阳市,曲溪,,28,22,25,14,12,88,,74,74,3,16,4,5,0.4,0.5
2025-07-30T1500,1944A,102.1692,38.5167,金昌市,天庆家园,颗粒物(PM10),483,583,165,100,45,94,,102,102,9,16,72,88,0.4,0.6
2025-07-30T1500,4022A,102.1647,38.5371,金昌市,金川区人防中心,颗粒物(PM10),500,652,154,120,47,85,,100,95,2,7,6,12,0.2,0.6
2025-07-30T1500,4239A,102.1930,38.5319,金昌市,长春路96号,颗粒物(PM10),467,567,163,102,41,87,,98,94,2,5,13,14,0.6,0.6
2025-07-30T1500,1262A,119.647,29.077,金华市,十五中,,22,15,26,13,14,70,,54,54,8,16,3,3,0.2,0.2
2025-07-30T1500,1263A,119.686,29.1029,金华市,监测站,,23,13,28,8,17,71,,50,50,7,17,4,4,0.3,0.3
2025-07-30T1500,3659A,119.656,29.1131,金华市,气象局,,20,13,25,6,11,64,,41,41,6,17,6,6,0.2,0.3
2025-07-30T1500,1767A,121.1115,41.0879,锦州市,南山,,30,17,20,6,13,96,,85,85,2,9,6,4,0.4,0.7
2025-07-30T1500,1768A,121.0604,40.8428,锦州市,开发区,,33,18,19,3,8,105,,84,84,5,22,6,5,0.5,0.7
2025-07-30T1500,1769A,121.1836,41.1119,锦州市,百股街道,,34,16,17,3,7,106,,84,84,6,13,10,7,0.5,0.7
2025-07-30T1500,1770A,121.1178,41.1222,锦州市,天安街道,,32,18,20,6,11,101,,82,82,7,15,8,10,0.5,0.8
2025-07-30T1500,1771A,121.1303,41.1386,锦州市,北湖公园,,31,15,19,3,10,99,,78,78,4,9,7,4,0.5,0.7
2025-07-30T1500,2160A,112.85,35.5051,晋城市,自来水公司,臭氧1小时,52,36,55,14,22,161,,126,126,9,17,1,1,0.4,0.6
2025-07-30T1500,2161A,112.8318,35.4936,晋城市,白云商贸,,48,22,44,3,15,152,,123,123,8,15,1,2,0.4,0.7
2025-07-30T1500,2162A,112.8508,35.4887,晋城市,市环保局,,47,25,58,14,20,150,,118,118,3,13,2,2,0.4,0.6
2025-07-30T1500,2163A,112.8676,35.4897,晋城市,技术学院,,43,16,34,7,16,136,,108,108,6,15,5,3,0.5,0.7
2025-07-30T1500,2165A,112.8453,35.546,晋城市,白马寺,臭氧1小时,53,23,31,9,24,162,,126,126,3,3,7,6,0.5,0.8
2025-07-30T1500,3620A,112.8271,35.4828,晋城市,泽州一中,臭氧1小时,53,37,39,12,19,162,,128,128,5,12,7,4,0.4,0.6
2025-07-30T1500,2173A,112.7249,37.7067,晋中市,南都小区,,50,22,27,16,12,159,,133,133,4,15,4,4,0.4,0.4
2025-07-30T1500,2174A,112.6991,37.6982,晋中市,榆次区政府,臭氧1小时,57,27,31,10,11,165,,129,129,2,18,10,10,0.7,0.7
2025-07-30T1500,2865A,112.7195,37.6828,晋中市,榆次三中,,48,22,23,3,8,153,,139,139,2,15,8,9,0.6,0.4
2025-07-30T1500,4200A,112.7478,37.6954,晋中市,迎宾街26号,臭氧1小时,53,19,23,7,7,162,,137,137,3,14,7,7,0.7,0.6
2025-07-30T1500,2439A,112.2014,31.0481,荆门市,竹园小学,,36,29,36,15,17,115,,106,106,6,11,2,2,0.2,0.5
2025-07-30T1500,2440A,112.1969,30.9891,荆门市,掇刀,,40,22,31,20,17,127,,117,117,4,11,8,10,0.5,0.6
2025-07-30T1500,2441A,112.2213,31.0386,荆门市,石化一小,,40,29,36,21,16,127,,116,116,4,9,4,6,0.6,0.9
2025-07-30T1500,3012A,112.1849,31.0362,荆门市,西山林语,,,,33,,17,120,,110,110,4,6,,9,0.2,0.5
2025-07-30T1500,3547A,112.1632,31.0138,荆门市,龙泉中学南校,,35,23,24,14,19,112,,107,107,18,12,3,4,0.5,0.7
2025-07-30T1500,1844A,112.2494,30.3197,荆州市,市图书馆,,35,,19,10,17,112,,98,98,2,8,2,3,0.5,0.5
2025-07-30T1500,1845A,112.2008,30.3544,荆州市,市委党校,,35,24,22,19,16,110,,100,100,8,14,4,7,0.4,0.5
2025-07-30T1500,3194A,112.2747,30.3122,荆州市,管委会,,35,,19,17,14,111,,96,96,6,12,5,6,0.6,0.6
2025-07-30T1500,4268A,112.1722,30.3366,荆州市,学苑路85号,,34,19,21,9,17,108,,99,99,9,11,4,7,0.3,0.3
2025-07-30T1500,2342A,117.3102,29.3867,景德镇市,王港中学,,,,,,,,,,,,,,,,
2025-07-30T1500,2343A,117.2117,29.2933,景德镇市,老干部活动中心,,20,,13,14,7,59,,61,61,2,6,7,7,0.4,0.4
2025-07-30T1500,2344A,117.1894,29.2789,景德镇市,兽医站,,20,17,23,6,9,63,,64,64,2,9,3,5,0.3,0.4
2025-07-30T1500,2346A,117.2461,29.2956,景德镇市,陶研所,,19,18,17,8,8,58,,60,60,2,5,4,4,0.6,0.6
2025-07-30T1500,4289A,117.1542,29.2566,景德镇市,青少年活动中心,,19,,16,13,11,60,,64,64,3,9,2,6,0.3,0.4
2025-07-30T1500,1803A,115.9872,29.6815,九江市,十里,,35,,18,22,21,110,,97,97,4,8,5,6,0.7,0.6
2025-07-30T1500,1804A,115.9584,29.7046,九江市,茅山头,,40,,27,28,18,111,,97,97,5,8,4,4,0.5,0.4
2025-07-30T1500,1805A,115.9877,29.7295,九江市,西园,,38,19,19,15,12,121,,108,108,5,12,6,6,0.6,0.6
2025-07-30T1500,1808A,115.9114,29.6038,九江市,综合工业园,,40,18,24,16,13,127,,108,108,10,14,7,7,0.6,0.6
2025-07-30T1500,1809A,116.0721,29.7535,九江市,石化总厂,,29,23,24,10,21,91,,88,88,9,16,9,8,0.6,0.8
2025-07-30T1500,1810A,115.9773,29.5698,九江市,庐山气象台,,30,27,18,12,8,93,,85,85,5,5,6,6,0.6,0.8
2025-07-30T1500,3190A,116.0254,29.6994,九江市,外国语学校,,34,22,18,22,16,106,,98,98,4,9,12,12,0.4,0.5
2025-07-30T1500,4253A,116.0102,29.6594,九江市,莲花大道8号,,32,,17,20,13,102,,93,93,2,2,5,4,0.5,0.5
2025-07-30T1500,4240A,98.4958,39.7339,酒泉市,玉门东路5号,,50,44,186,35,68,97,,100,100,2,6,5,19,0.2,0.3
2025-07-30T1500,4241A,98.5099,39.7506,酒泉市,北大街108号,,46,46,181,30,60,96,,100,100,9,5,6,13,0.2,0.3
2025-07-30T1500,2698A,76.0072,39.4467,喀什地区,巡警大队,颗粒物(PM10),60,69,130,26,36,90,,78,76,23,20,3,4,0.5,0.5
2025-07-30T1500,2699A,75.9755,39.4694,喀什地区,吾办,颗粒物(PM10),92,134,145,43,63,84,,83,81,28,19,6,6,0.5,0.7
2025-07-30T1500,4027A,75.9483,39.4689,喀什地区,老干局,颗粒物(PM10),53,56,126,23,44,61,,78,70,14,14,4,5,0.5,0.4
2025-07-30T1500,1824A,114.3389,34.7781,开封市,肿瘤医院,臭氧1小时,75,31,32,18,16,180,,150,150,9,15,4,5,0.4,0.4
2025-07-30T1500,1826A,114.2885,34.7965,开封市,世纪星幼儿园,臭氧1小时,55,26,32,18,20,164,,143,143,8,9,4,4,0.5,0.8
2025-07-30T1500,3147A,114.3438,34.8106,开封市,龙亭公园,臭氧1小时,63,,30,33,21,170,,154,154,6,11,5,4,0.4,0.5
2025-07-30T1500,3210A,114.3644,34.7964,开封市,汴京公园,臭氧1小时,63,33,36,14,18,170,,140,140,5,11,5,4,0.5,0.5
2025-07-30T1500,3473A,114.2485,34.8306,开封市,技师学院,,,75,36,40,19,170,,,,,4,6,4,0.3,0.6
2025-07-30T1500,3592A,114.4644,34.7556,开封市,祥符区生态环境局,臭氧1小时,58,51,36,23,19,166,,132,132,13,21,6,5,0.5,0.4
2025-07-30T1500,1951A,84.895,45.6094,克拉玛依市,长征新村,,35,26,32,12,10,111,,90,82,4,5,3,4,0.1,0.1
2025-07-30T1500,1952A,84.8988,45.5893,克拉玛依市,南林小区,,37,23,31,12,8,116,,91,75,2,6,1,1,0.2,0.2
2025-07-30T1500,1954A,84.905,44.3396,克拉玛依市,独山子区,,36,36,44,12,17,107,,90,90,4,11,9,12,0.5,0.6
2025-07-30T1500,1955A,85.6979,46.098,克拉玛依市,乌尔禾区商贸楼,,37,37,32,3,9,113,,73,62,3,7,7,7,0.5,0.5
2025-07-30T1500,3612A,85.1045,45.6899,克拉玛依市,白碱滩区新站,,39,28,40,11,18,122,,105,98,1,2,9,9,0.0,0
2025-07-30T1500,2697A,76.1454,39.7142,克孜勒苏柯尔克孜自治州,市人民政府,颗粒物(PM10),53,56,112,28,52,98,,99,98,8,12,4,6,0.1,0.1
2025-07-30T1500,3665A,76.1658,39.7157,克孜勒苏柯尔克孜自治州,克州文化中心,颗粒物(PM10),56,62,119,34,60,84,,94,91,6,10,5,7,0.4,0.4
2025-07-30T1500,1450A,102.8204,24.8886,昆明市,呈贡新区,,,22,26,12,23,126,,105,105,,24,3,5,0.3,0.4
2025-07-30T1500,1451A,102.6251,24.9608,昆明市,西山森林公园,,,,,,,,,,,,,,,,
2025-07-30T1500,1452A,102.7252,25.0902,昆明市,龙泉镇,,39,,28,3,9,124,,83,83,8,16,2,1,0.5,0.4
2025-07-30T1500,1453A,102.7266,25.0375,昆明市,东风东路,,39,11,33,8,20,124,,74,74,10,19,3,3,0.4,0.5
2025-07-30T1500,1454A,102.6742,25.0669,昆明市,金鼎山,,35,14,38,10,18,109,,62,62,9,18,2,2,0.4,0.5
2025-07-30T1500,1455A,102.6644,25.0401,昆明市,碧鸡广场,,31,12,37,6,19,98,,63,63,12,22,7,7,0.6,0.6
2025-07-30T1500,3179A,102.7494,25.0119,昆明市,官渡区博物馆,,40,13,31,7,18,127,,71,71,9,29,1,2,0.4,0.5
2025-07-30T1500,3375A,102.8017,24.8336,昆明市,青年创业园,,39,16,28,14,20,124,,102,102,5,20,3,4,0.6,0.6
2025-07-30T1500,3550A,102.7997,24.9786,昆明市,昆明学院,,42,15,39,10,25,133,,81,81,11,27,6,6,0.3,0.4
2025-07-30T1500,3551A,102.5967,24.6736,昆明市,晋宁区生态环境分局,,,,43,,29,,,23,,,18,,5,,0.7
2025-07-30T1500,3552A,102.6678,24.9856,昆明市,云天化总部,,36,12,30,7,19,113,,72,72,8,25,5,4,0.6,0.5
2025-07-30T1500,1456A,91.1319,29.6514,拉萨市,八廓街,,35,18,12,10,8,110,,83,83,8,10,5,5,0.5,0.4
2025-07-30T1500,1457A,91.1221,29.6747,拉萨市,市环保局,,32,10,14,7,8,102,,79,79,7,12,6,6,0.2,0.3
2025-07-30T1500,1458A,91.0874,29.6475,拉萨市,区监测站,,30,6,8,3,6,95,,71,71,8,14,3,3,0.2,0.3
2025-07-30T1500,1459A,91.1774,29.6541,拉萨市,西藏大学,,32,9,10,9,8,100,,84,84,7,10,4,5,0.4,0.4
2025-07-30T1500,1460A,90.9798,29.6588,拉萨市,区辐射站,,29,12,18,9,9,92,,63,61,6,16,5,5,0.3,0.4
2025-07-30T1500,1461A,91.0834,29.6292,拉萨市,拉萨火车站,,30,9,8,8,7,93,,66,66,6,12,5,5,0.2,0.2
2025-07-30T1500,2520A,109.2203,23.7256,来宾市,来宾技工学校,,32,26,30,15,19,100,,74,74,7,10,6,7,0.6,0.7
2025-07-30T1500,3535A,109.1781,23.7297,来宾市,兴宾区政府,,30,19,27,14,18,95,,78,78,6,11,5,8,0.9,1
2025-07-30T1500,4002A,109.2416,23.7461,来宾市,中南小学,,36,28,30,13,20,113,,85,85,10,9,13,10,0.5,0.4
2025-07-30T1500,1477A,104.1373,35.9454,兰州市,榆中兰大校区,,,,,,,,,,,,,,,,
2025-07-30T1500,1479A,103.831,36.0464,兰州市,铁路设计院,臭氧1小时,84,38,39,17,22,187,,116,116,24,23,12,12,0.4,0.5
2025-07-30T1500,3241A,103.7439,36.0842,兰州市,百合公园,,,27,38,7,17,185,,103,103,6,21,2,6,,0.5
2025-07-30T1500,3242A,103.9611,35.998,兰州市,和平,,50,11,29,3,13,157,,122,122,3,10,11,11,0.3,0.4
2025-07-30T1500,4236A,103.6293,36.0938,兰州市,庄浪东路808号,臭氧1小时,101,36,40,18,20,202,,127,127,15,27,14,12,0.4,0.3
2025-07-30T1500,4237A,103.7251,36.1043,兰州市,安宁西路88号,臭氧1小时,108,30,39,3,19,216,,134,134,4,14,8,7,0.4,0.4
2025-07-30T1500,4238A,103.8470,36.0676,兰州市,北滨河东路1号,臭氧1小时,89,26,30,13,19,191,,120,120,13,26,11,10,0.5,0.6
2025-07-30T1500,3245A,103.6633,36.533,兰州新区,新区管委会,臭氧1小时,57,18,27,13,19,165,,114,114,7,9,7,11,0.3,0.4
2025-07-30T1500,3246A,103.6975,36.4789,兰州新区,舟曲中学,,,,,,,,,,,,,,,,
2025-07-30T1500,1067A,116.6708,39.5111,廊坊市,药材公司,,38,22,19,6,7,119,,95,95,4,13,2,3,0.2,0.3
2025-07-30T1500,1068A,116.7214,39.5589,廊坊市,开发区,,38,18,19,6,9,121,,102,102,4,13,1,2,0.3,0.3
2025-07-30T1500,1070A,116.7244,39.5269,廊坊市,北华航天学院,,40,20,32,6,7,127,,97,97,1,14,4,4,0.3,0.3
2025-07-30T1500,2919A,116.7022,39.5453,廊坊市,河北工业大学,,40,28,31,8,7,126,,96,96,3,14,4,5,0.2,0.3
2025-07-30T1500,2535A,103.7723,29.5462,乐山市,花湖湾,,43,23,30,17,22,137,,104,104,3,11,6,6,0.9,0.9
2025-07-30T1500,2536A,103.7627,29.5844,乐山市,牛耳桥,臭氧1小时,60,24,29,18,20,168,,130,130,8,16,4,5,0.7,0.7
2025-07-30T1500,2537A,103.7508,29.6006,乐山市,市第三水厂,臭氧1小时,52,26,30,19,23,161,,123,123,8,13,3,4,0.7,0.7
2025-07-30T1500,2538A,103.7571,29.5664,乐山市,市监测站,,45,29,31,20,21,142,,106,106,4,11,6,7,0.7,0.7
2025-07-30T1500,3361A,103.7311,29.5628,乐山市,理工大学,,48,26,33,20,23,153,,116,116,4,14,5,7,0.7,0.8
2025-07-30T1500,2598A,100.2143,26.8576,丽江市,西南郊,,32,12,20,11,11,102,,85,85,5,11,6,6,0.6,0.6
2025-07-30T1500,2599A,100.2497,26.8802,丽江市,丽江古城,,32,23,26,8,11,102,,88,88,11,14,10,9,0.3,0.5
2025-07-30T1500,2600A,100.2203,26.8906,丽江市,市中心,,34,19,18,8,13,106,,82,82,10,13,7,8,0.4,0.4
2025-07-30T1500,1267A,119.914,28.4514,丽水市,监测站大楼,,18,18,23,10,11,54,,41,41,6,12,4,4,0.2,0.3
2025-07-30T1500,1268A,119.93,28.4586,丽水市,莲都小学,,17,15,27,3,9,54,,41,41,4,15,3,3,0.3,0.3
2025-07-30T1500,1269A,119.879,28.4231,丽水市,余庄前,,,,28,8,14,50,,36,36,6,9,4,4,,0.5
2025-07-30T1500,1173A,119.176,34.5885,连云港市,市环境监测站,,21,14,15,9,7,66,,56,56,4,8,4,2,0.4,0.4
2025-07-30T1500,3000A,119.3581,34.6972,连云港市,德源药业,,20,17,14,3,3,63,,49,49,8,11,4,4,0.5,0.5
2025-07-30T1500,3007A,119.178,34.844,连云港市,新城一中,,20,15,16,6,6,62,,66,66,3,10,4,5,0.5,0.6
2025-07-30T1500,3008A,119.3608,34.7519,连云港市,胡沟管理处,,24,7,12,3,5,76,,67,67,4,18,6,6,0.5,0.7
2025-07-30T1500,3009A,119.1478,34.5911,连云港市,矿山设计院,,21,14,17,3,8,67,,59,59,6,10,3,3,0.5,0.5
2025-07-30T1500,3434A,119.2413,34.6539,连云港市,工贸学校,,23,12,14,7,9,72,,58,58,7,8,6,6,0.5,0.6
2025-07-30T1500,3664A,119.4172,34.7341,连云港市,连云街道,,23,12,14,6,7,72,,63,63,9,5,3,3,0.5,0.5
2025-07-30T1500,2571A,102.3431,27.8099,凉山彝族自治州,青龙寺,细颗粒物(PM2.5),69,,18,50,22,95,,,,1,3,4,6,3.2,1.6
2025-07-30T1500,2572A,102.2721,27.8415,凉山彝族自治州,邛海宾馆,,39,20,25,15,15,122,,82,82,7,11,11,10,0.8,0.7
2025-07-30T1500,2573A,102.2625,27.898,凉山彝族自治州,西昌市政府,,40,26,26,24,21,127,,87,87,8,10,9,11,0.7,0.7
2025-07-30T1500,2574A,102.2685,27.8851,凉山彝族自治州,凉山州政府,,38,26,27,20,18,121,,87,87,22,19,12,12,0.9,0.9
2025-07-30T1500,4229A,102.2342,27.8859,凉山彝族自治州,凯乐南路30号,,42,28,29,14,14,132,,88,88,9,14,13,13,1.0,1
2025-07-30T1500,2212A,123.2,41.1953,辽阳市,宏伟区,,37,13,13,7,4,117,,115,115,4,7,3,3,0.6,0.5
2025-07-30T1500,2213A,123.1683,41.2495,辽阳市,新华园,,41,,9,11,4,131,,123,123,3,6,5,5,0.5,0.4
2025-07-30T1500,2214A,123.2354,41.2639,辽阳市,滨河路,,,,13,4,6,116,,107,107,6,9,3,3,0.5,0.5
2025-07-30T1500,2215A,123.149,41.2991,辽阳市,铁西工业园,,35,14,7,8,3,111,,96,96,7,8,3,3,0.9,0.7
2025-07-30T1500,2227A,125.1358,42.8845,辽源市,环保局,,30,8,19,3,2,96,,95,95,2,4,5,5,0.3,0.4
2025-07-30T1500,3239A,125.0764,42.9078,辽源市,银鹰制药,,30,8,8,3,5,96,,101,101,5,11,8,8,0.3,0.5
2025-07-30T1500,1625A,115.9848,36.4372,聊城市,区政府,,49,28,31,18,20,156,,127,127,7,17,10,10,1.0,0.8
2025-07-30T1500,2878A,116.0072,36.4343,聊城市,聊大东校,臭氧1小时,53,46,34,20,20,162,,127,127,8,20,9,9,1.0,0.8
2025-07-30T1500,3200A,115.9819,36.4978,聊城市,监控中心,,46,,15,9,12,145,,124,124,4,23,6,7,0.9,0.8
2025-07-30T1500,3513A,116.0445,36.4361,聊城市,九州社区,,49,38,38,23,19,155,,133,133,8,21,1,5,0.6,0.4
2025-07-30T1500,4018A,116.0567,36.4608,聊城市,星美广场,,45,41,40,19,18,143,,114,114,10,24,6,5,0.9,0.6
2025-07-30T1500,2632A,94.3681,29.6376,林芝市,林芝监测站,,25,7,10,3,5,79,,46,46,2,5,4,4,0.3,0.3
2025-07-30T1500,2633A,94.3616,29.6616,林芝市,林芝人民医院,,25,6,10,3,4,80,,48,48,3,4,4,3,0.4,0.4
2025-07-30T1500,2603A,100.0781,23.8982,临沧市,市环保局,,17,17,21,3,15,52,,33,33,6,7,10,8,0.4,0.4
2025-07-30T1500,2604A,100.0894,23.8822,临沧市,市气象局,,15,10,21,6,14,47,,32,32,10,8,10,10,0.4,0.4
2025-07-30T1500,1733A,111.5531,36.0783,临汾市,临钢医院,臭氧1小时,62,36,48,11,14,169,,133,133,7,13,4,4,0.8,0.8
2025-07-30T1500,1734A,111.5028,36.0714,临汾市,技工学校,,,26,47,24,29,170,,144,144,5,13,8,8,,0.6
2025-07-30T1500,1736A,111.5018,36.0855,临汾市,市委,臭氧1小时,97,37,57,13,16,197,,156,156,6,13,8,8,0.7,0.7
2025-07-30T1500,3018A,111.505,36.1014,临汾市,唐尧大酒店,臭氧1小时,84,39,59,18,16,187,,143,143,6,13,6,6,0.6,0.7
2025-07-30T1500,4244A,111.4879,36.0530,临汾市,启星学校,臭氧1小时,78,29,47,20,29,182,,144,144,7,14,9,8,0.9,0.9
2025-07-30T1500,4271A,103.2464,35.6123,临夏回族自治州,滨河东路1号,,33,15,30,8,13,104,,72,72,3,11,8,7,0.2,0.3
2025-07-30T1500,4310A,103.2093,35.5995,临夏回族自治州,新华街21号,,,,35,9,18,102,,46,,,15,6,6,0.2,0.3
2025-07-30T1500,1618A,118.3429,35.0532,临沂市,沂河小区,,30,14,27,13,21,95,,72,72,15,17,8,8,0.3,0.3
2025-07-30T1500,1619A,118.295,35.0583,临沂市,鲁南制药厂,,34,17,22,14,22,106,,81,81,8,14,10,9,0.4,0.5
2025-07-30T1500,1620A,118.2794,34.9976,临沂市,新光毛纺厂,,36,17,22,17,16,113,,86,86,7,16,9,8,0.4,0.5
2025-07-30T1500,1621A,118.3956,35.0888,临沂市,河东保险公司,,29,12,23,3,10,92,,69,69,7,13,6,6,0.4,0.5
2025-07-30T1500,3370A,118.3564,35.0215,临沂市,十里堡居委,,34,7,20,3,14,106,,82,82,6,14,10,10,0.2,0.4
2025-07-30T1500,3496A,118.3604,35.1084,临沂市,南坊新区,,34,22,26,9,12,107,,77,77,9,16,10,9,0.2,0.3
2025-07-30T1500,3860A,118.3920,35.0300,临沂市,皇山花园小区,,33,19,23,13,16,103,,80,80,5,15,12,12,0.2,0.4
2025-07-30T1500,1870A,109.4856,24.3895,柳州市,柳东小学,,46,25,30,12,20,147,,105,105,3,6,1,4,0.5,0.5
2025-07-30T1500,1871A,109.4157,24.3277,柳州市,环保监测站,,45,33,29,31,16,136,,98,98,5,9,8,8,0.6,0.6
2025-07-30T1500,1872A,109.389,24.341,柳州市,河西水厂,,,28,27,,,150,,,,10,10,8,9,1.5,1.2
2025-07-30T1500,1873A,109.4311,24.2921,柳州市,市四中,,37,37,32,14,19,107,,85,85,6,12,6,6,1.0,1.1
2025-07-30T1500,1874A,109.4006,24.3631,柳州市,市九中,臭氧1小时,52,,35,30,18,161,,108,108,8,11,5,4,0.8,0.5
2025-07-30T1500,1875A,109.4958,24.3134,柳州市,古亭山,,40,24,32,21,19,127,,91,91,5,14,5,5,0.7,0.7
2025-07-30T1500,3402A,109.5422,24.3996,柳州市,市二中,,46,34,28,19,17,147,,109,109,7,11,5,9,0.8,0.8
2025-07-30T1500,2307A,116.5079,31.737,六安市,监测大楼,,28,19,25,8,16,87,,63,63,2,10,3,6,0.2,0.3
2025-07-30T1500,2308A,116.4738,31.7643,六安市,皖西学院,,28,21,30,9,15,88,,65,65,3,12,2,2,0.2,0.3
2025-07-30T1500,2309A,116.4996,31.7905,六安市,朝阳厂,,26,17,26,10,16,83,,59,59,5,17,5,5,0.2,0.3
2025-07-30T1500,2310A,116.5567,31.7886,六安市,开发区,,27,13,23,12,17,86,,60,60,4,16,4,3,0.3,0.3
2025-07-30T1500,2576A,104.8,26.5892,六盘水市,窑上,,37,37,27,3,7,114,,78,78,4,6,1,2,0.4,0.4
2025-07-30T1500,2577A,104.83,26.5917,六盘水市,黄土坡,,34,17,20,15,14,107,,78,78,6,16,9,10,0.2,0.4
2025-07-30T1500,2578A,104.89,26.5939,六盘水市,水钢,,29,24,50,12,23,90,,64,64,6,26,9,24,0.4,1.2
2025-07-30T1500,2579A,104.8475,26.5894,六盘水市,民中,,33,14,25,3,12,103,,73,73,7,21,8,9,0.3,0.5
2025-07-30T1500,2580A,104.9544,26.5506,六盘水市,双水,,33,,32,11,18,105,,70,70,5,24,6,8,0.4,0.8
2025-07-30T1500,2335A,117.0189,25.1181,龙岩市,龙岩师专,,,,,,,,,,,,,,,,
2025-07-30T1500,2336A,117.0217,25.1033,龙岩市,龙岩市监测站,,34,34,22,8,13,74,,60,60,3,9,4,5,0.4,0.6
2025-07-30T1500,2337A,117.0258,25.0661,龙岩市,闽西职业技术学院,,21,,19,6,10,67,,55,55,2,6,3,3,0.4,0.6
2025-07-30T1500,2338A,117.0196,25.0306,龙岩市,龙岩学院,,21,9,19,6,13,66,,59,59,2,5,4,4,0.5,0.5
2025-07-30T1500,2665A,105.0822,33.3261,陇南市,汉王镇固水子,,,,,,,,,,,,,,,,
2025-07-30T1500,2885A,104.9339,33.3826,陇南市,滨江中学,,37,19,37,3,13,118,,85,85,2,6,7,7,0.4,0.5
2025-07-30T1500,3247A,104.955,33.371,陇南市,市总工会,,37,24,42,13,14,117,,90,90,1,5,5,5,0.4,0.4
2025-07-30T1500,2487A,111.9589,27.8901,娄底市,电视发射台,,27,27,35,10,10,74,,52,52,5,4,7,6,0.3,0.3
2025-07-30T1500,2488A,111.9975,27.725,娄底市,市监测站,,26,19,33,10,17,82,,62,62,6,24,5,14,0.8,1.3
2025-07-30T1500,2489A,112.0194,27.7314,娄底市,市委党校,,30,,31,8,18,96,,73,73,9,22,1,15,0.5,1
2025-07-30T1500,2490A,111.9561,27.7569,娄底市,涟钢,,22,,30,8,14,68,,52,52,11,15,12,11,1.1,1.4
2025-07-30T1500,2491A,111.9892,27.7044,娄底市,市政府,,,,30,18,14,83,,67,67,2,6,5,5,0.6,0.8
2025-07-30T1500,1893A,105.4324,28.9634,泸州市,九狮山,,45,38,42,17,32,144,,104,104,4,12,3,3,0.5,0.5
2025-07-30T1500,1894A,105.4427,28.9063,泸州市,小市上码头,,38,36,36,15,20,119,,88,88,4,13,3,3,0.6,0.6
2025-07-30T1500,1895A,105.4241,28.8573,泸州市,兰田宪桥,,50,33,34,13,19,157,,104,104,6,13,7,7,0.5,0.4
2025-07-30T1500,1896A,105.4379,28.8833,泸州市,市环监站,,50,32,34,24,23,158,,119,119,16,18,9,9,0.4,0.4
2025-07-30T1500,4272A,105.3689,28.7783,泸州市,纳溪中医医院,,49,25,30,19,24,154,,113,113,7,16,3,2,0.5,0.5
2025-07-30T1500,2183A,111.1406,37.5211,吕梁市,环保局,臭氧1小时,58,22,34,12,14,166,,109,109,7,17,4,4,0.5,0.5
2025-07-30T1500,2185A,111.1297,37.5136,吕梁市,自来水公司,臭氧1小时,52,22,32,14,12,161,,106,106,6,14,5,7,0.5,0.4
2025-07-30T1500,2867A,111.1283,37.51,吕梁市,马茂庄小学,臭氧1小时,57,22,34,11,12,165,,108,108,6,14,6,6,0.4,0.3
2025-07-30T1500,1812A,112.3931,34.6516,洛阳市,市委党校,臭氧1小时,65,25,33,15,18,172,,133,133,4,10,8,9,0.5,0.5
2025-07-30T1500,1815A,112.494,34.6886,洛阳市,河南林校,臭氧1小时,75,33,44,16,19,180,,140,140,7,15,7,10,0.4,0.4
2025-07-30T1500,1816A,112.3844,34.623,洛阳市,开发区管委会,臭氧1小时,79,23,31,14,19,183,,141,141,2,7,12,10,0.6,0.6
2025-07-30T1500,1817A,112.4267,34.6258,洛阳市,市委新办公区,臭氧1小时,63,29,34,17,20,170,,128,128,6,11,10,9,0.5,0.5
2025-07-30T1500,3340A,112.6005,34.6326,洛阳市,伊滨,臭氧1小时,62,22,29,13,18,169,,131,131,6,13,10,9,0.6,0.6
2025-07-30T1500,3341A,112.4951,34.6332,洛阳市,中移产业园,臭氧1小时,70,31,42,16,19,176,,141,141,5,11,8,8,0.8,0.8
2025-07-30T1500,3593A,112.5736,34.8993,洛阳市,吉利监测站,臭氧1小时,67,39,49,17,25,173,,134,134,3,16,8,9,0.5,0.6
2025-07-30T1500,3635A,112.3677,34.662,洛阳市,河科大西苑校区,臭氧1小时,69,34,38,13,16,175,,143,143,2,12,9,9,0.7,0.6
2025-07-30T1500,3636A,112.4388,34.6781,洛阳市,英才小学,臭氧1小时,60,37,45,19,22,168,,131,131,6,13,10,10,0.6,0.6
2025-07-30T1500,4214A,112.4600,34.6949,洛阳市,春都路1号院,臭氧1小时,53,28,38,10,13,162,,125,125,6,13,6,8,0.5,0.6
2025-07-30T1500,2399A,114.051,33.5699,漯河市,三五一五工厂,,43,29,31,17,16,137,,107,107,5,11,5,7,0.4,0.5
2025-07-30T1500,2400A,114.0055,33.5698,漯河市,漯河大学,,45,45,35,19,13,135,,106,106,8,11,4,4,0.5,0.5
2025-07-30T1500,2401A,114.0138,33.5828,漯河市,市水利局,,41,36,31,22,14,131,,103,103,4,8,4,5,0.3,0.7
2025-07-30T1500,2402A,114.0261,33.5698,漯河市,市广电局,,45,39,28,14,17,143,,117,117,3,8,3,3,0.4,0.4
2025-07-30T1500,3478A,113.9749,33.5664,漯河市,市图书馆,,43,43,26,24,14,136,,108,108,5,8,6,6,0.4,0.4
2025-07-30T1500,4250A,114.0892,33.5882,漯河市,韶山路11号,,45,33,31,18,14,141,,106,106,4,13,2,2,0.5,0.4
2025-07-30T1500,1798A,118.5092,31.6837,马鞍山市,湖东路四小,,15,9,26,6,16,45,,42,42,6,10,5,6,0.3,0.4
2025-07-30T1500,1799A,118.5024,31.6449,马鞍山市,开发区,,15,8,32,3,13,48,,45,45,4,9,6,8,0.6,0.7
2025-07-30T1500,1802A,118.6245,31.7241,马鞍山市,濮塘,,15,8,25,7,13,46,,36,,6,7,7,8,0.5,0.5
2025-07-30T1500,3633A,118.4918,31.6809,马鞍山市,雨山,,15,15,30,3,14,43,,40,40,6,11,8,9,0.4,0.5
2025-07-30T1500,4191A,118.5274,31.72227,马鞍山市,慈湖高新区,,14,7,26,3,15,42,,39,39,7,12,6,7,0.3,0.5
2025-07-30T1500,1686A,111.0286,21.4688,茂名市,电白南海,,31,31,37,12,22,80,,60,60,6,10,4,6,0.2,0.3
2025-07-30T1500,1687A,110.9294,21.6533,茂名市,茂石化七小,,31,31,35,19,18,81,,65,65,8,8,4,9,0.6,0.6
2025-07-30T1500,1688A,110.9107,21.6687,茂名市,健康路,,29,27,30,14,18,90,,69,69,11,9,7,15,0.7,0.6
2025-07-30T1500,1689A,110.8592,21.6828,茂名市,高岭,,41,41,38,17,14,84,,68,68,11,15,7,18,0.4,0.6
2025-07-30T1500,3450A,111.01,21.5165,茂名市,电白水东,,26,24,29,17,17,81,,64,64,8,11,6,12,0.5,0.5
2025-07-30T1500,2539A,104.0308,30.0478,眉山市,黑龙滩水库,,44,8,20,3,16,138,,86,86,4,11,3,3,0.3,0.2
2025-07-30T1500,2540A,103.8416,30.0874,眉山市,气象局,臭氧1小时,100,,37,22,20,200,,116,116,8,21,3,3,0.6,0.6
2025-07-30T1500,3137A,103.8578,30.0744,眉山市,市委党校,臭氧1小时,103,34,30,22,15,206,,120,120,11,19,9,8,0.6,0.6
2025-07-30T1500,3148A,103.8291,30.0564,眉山市,区人社局,臭氧1小时,104,42,48,17,13,208,,127,127,10,21,13,13,0.8,0.8
2025-07-30T1500,1690A,116.1231,24.3284,梅州市,梅江月梅,,25,25,24,17,14,67,,56,56,8,16,8,8,0.5,0.5
2025-07-30T1500,1691A,116.0797,24.2719,梅州市,梅县新城,,33,33,22,23,9,71,,55,55,4,12,6,6,0.4,0.5
2025-07-30T1500,1692A,116.1248,24.2654,梅州市,环境监控中心,,37,37,24,17,10,68,,56,56,7,17,3,4,0.5,0.6
2025-07-30T1500,3315A,116.1233,24.2991,梅州市,梅龙,,26,19,19,18,11,69,,57,57,7,16,6,7,0.6,0.7
2025-07-30T1500,1878A,104.7778,31.4741,绵阳市,富乐山,,46,28,30,21,20,146,,89,89,6,13,9,9,0.5,0.5
2025-07-30T1500,1880A,104.6697,31.4668,绵阳市,高新区自来水公司,,47,26,35,9,16,150,,91,91,7,20,8,9,0.4,0.6
2025-07-30T1500,1881A,104.7287,31.5075,绵阳市,三水厂,,46,27,30,20,20,145,,83,83,4,19,6,6,0.3,0.4
2025-07-30T1500,3491A,104.69,31.5322,绵阳市,西科大附属小学,,45,27,30,21,18,141,,93,93,7,20,8,8,0.3,0.4
2025-07-30T1500,3492A,104.5648,31.5343,绵阳市,安州区旅游局,,47,,23,14,13,150,,90,90,6,13,2,3,0.9,0.8
2025-07-30T1500,4226A,104.7651,31.4531,绵阳市,绵阳市气象局,,43,20,33,14,20,135,,82,82,9,19,7,9,0.4,0.5
2025-07-30T1500,1784A,129.61,44.561,牡丹江市,环保大楼,,27,11,20,3,11,84,,62,62,5,7,3,3,0.2,0.2
2025-07-30T1500,1785A,129.6115,44.5782,牡丹江市,文化广场,,26,,13,7,13,81,,64,64,9,11,7,8,0.1,0.3
2025-07-30T1500,1786A,129.5904,44.5963,牡丹江市,第一医院,,27,15,18,10,15,84,,67,67,8,10,6,6,0.4,0.4
2025-07-30T1500,1787A,129.6364,44.6075,牡丹江市,机车工厂,,27,11,19,3,12,84,,63,63,5,11,4,4,0.3,0.4
2025-07-30T1500,1788A,129.6386,44.5462,牡丹江市,第一中学,,27,11,17,7,8,85,,69,69,4,8,5,5,0.2,0.2
2025-07-30T1500,2531A,105.0703,29.61,内江市,市监测站,臭氧1小时,111,,23,22,19,221,,131,131,8,14,4,3,0.8,0.7
2025-07-30T1500,2532A,105.0717,29.5947,内江市,东兴区政府,臭氧1小时,109,33,21,21,11,217,,136,136,9,13,7,7,0.7,0.6
2025-07-30T1500,2533A,105.0653,29.5817,内江市,内江二中,臭氧1小时,105,43,31,29,22,210,,132,132,11,16,4,4,0.7,0.7
2025-07-30T1500,2534A,105.0406,29.5822,内江市,内江日报社,,,,25,34,26,193,,126,126,14,21,,8,0.7,0.6
2025-07-30T1500,2628A,92.0657,31.4846,那曲市,那曲监测站,,29,16,16,3,6,91,,75,75,8,8,10,10,0.3,0.3
2025-07-30T1500,4243A,92.0515,31.4787,那曲市,那曲市委宣传部,,30,11,9,7,5,94,,78,78,3,5,5,6,0.2,0.3
2025-07-30T1500,1290A,115.8931,28.6843,南昌市,省外办,,40,40,25,24,17,128,,104,104,5,8,6,6,0.7,0.6
2025-07-30T1500,1291A,115.8886,28.7003,南昌市,省林业公司,,41,29,21,22,13,130,,107,107,9,10,4,4,0.5,0.4
2025-07-30T1500,1292A,115.8126,28.7442,南昌市,林科所,,44,24,15,17,8,138,,107,107,6,8,8,8,0.3,0.3
2025-07-30T1500,1294A,115.8518,28.687,南昌市,建工学校,,44,41,27,15,9,138,,110,110,10,12,9,9,0.6,0.5
2025-07-30T1500,1295A,115.8921,28.6424,南昌市,象湖,,,34,18,22,10,143,,113,113,40,8,8,7,,0.4
2025-07-30T1500,1296A,115.7423,28.7996,南昌市,武术学校,,40,16,15,12,14,125,,96,96,4,3,9,8,0.5,0.5
2025-07-30T1500,3046A,115.9084,28.6062,南昌市,机电学校,,,42,27,12,12,143,,111,111,,10,6,5,0.7,0.5
2025-07-30T1500,3690A,115.9721,28.7031,南昌市,外国语学校,,43,36,25,16,11,136,,111,111,4,10,5,6,0.4,0.5
2025-07-30T1500,4192A,115.9316,28.68677,南昌市,南京东路235号,,45,45,28,15,10,124,,105,105,9,10,4,4,0.7,0.6
2025-07-30T1500,1905A,106.056,30.8064,南充市,西山风景区,,,,,,,,,,,,,,,,
2025-07-30T1500,1906A,106.0789,30.8023,南充市,南充市委,细颗粒物(PM2.5),53,49,41,37,27,152,,118,118,6,11,4,5,0.5,0.5
2025-07-30T1500,1907A,106.1031,30.8217,南充市,南充炼油厂,,48,43,44,27,25,153,,118,118,7,11,4,4,0.4,0.4
2025-07-30T1500,4227A,106.1083,30.7884,南充市,梨树横街98号,臭氧1小时,58,45,45,15,24,166,,120,120,6,12,5,4,0.3,0.3
2025-07-30T1500,4304A,106.1172,30.843,南充市,清泉寺北路188号,,50,34,40,34,28,160,,120,120,6,12,2,3,0.3,0.3
2025-07-30T1500,4305A,106.067,30.7616,南充市,同庆路1号,,49,40,42,24,24,156,,116,116,6,14,5,4,0.5,0.4
2025-07-30T1500,1151A,118.8086,32.1065,南京市,迈皋桥,,14,8,16,3,10,42,,38,38,8,15,4,4,0.1,0.2
2025-07-30T1500,1152A,118.7538,32.0551,南京市,草场门,,12,,20,3,11,37,,34,34,4,10,8,10,0.4,0.4
2025-07-30T1500,1153A,118.7794,32.0745,南京市,山西路,,14,9,21,3,6,42,,38,38,8,15,4,5,0.3,0.3
2025-07-30T1500,1154A,118.7752,32.0023,南京市,中华门,,11,7,15,3,9,35,,30,30,3,7,9,9,0.5,0.5
2025-07-30T1500,1155A,118.8109,32.0309,南京市,瑞金路,,14,6,14,3,9,42,,37,37,4,7,6,6,0.4,0.4
2025-07-30T1500,1156A,118.7997,32.0754,南京市,玄武湖,,,6,19,,5,37,,34,34,9,11,6,7,0.4,0.4
2025-07-30T1500,1157A,118.6414,32.0931,南京市,浦口,,14,6,23,3,9,42,,39,39,6,11,5,6,0.2,0.3
2025-07-30T1500,1158A,118.7356,31.9996,南京市,奥体中心,,14,6,19,3,11,44,,41,41,7,10,5,5,0.3,0.4
2025-07-30T1500,1159A,118.9125,32.1028,南京市,仙林大学城,,13,9,22,3,5,40,,36,36,2,7,8,9,0.4,0.5
2025-07-30T1500,3422A,118.8436,31.9198,南京市,江宁彩虹桥,,13,6,22,3,10,41,,34,34,6,10,4,4,0.4,0.5
2025-07-30T1500,3427A,118.8554,32.3578,南京市,六合雄州,,14,6,20,3,8,42,,37,37,6,10,4,5,0.4,0.4
2025-07-30T1500,4249A,118.8708,31.3402,南京市,汶溪路181号,,14,6,15,3,14,43,,38,38,7,9,4,7,0.4,0.4
2025-07-30T1500,4312A,119.019,31.6512,南京市,中山西路1号,,,,14,3,13,38,,36,36,4,8,,4,0.4,0.4
2025-07-30T1500,1401A,108.3103,22.7881,南宁市,二十一中,颗粒物(PM10),57,63,51,38,32,139,,101,101,7,13,4,4,0.6,0.7
2025-07-30T1500,1402A,108.3141,22.8528,南宁市,北湖,细颗粒物(PM2.5),53,54,54,37,35,160,,108,108,8,16,3,3,0.6,0.7
2025-07-30T1500,1403A,108.3206,22.8225,南宁市,市监测站,颗粒物(PM10),58,65,46,37,29,155,,102,102,10,14,4,4,0.6,0.6
2025-07-30T1500,1404A,108.3829,22.8037,南宁市,大自然花园,,,65,55,37,30,154,,103,103,6,10,5,4,,0.5
2025-07-30T1500,1405A,108.4394,22.7904,南宁市,仙葫,细颗粒物(PM2.5),57,53,44,40,32,137,,89,89,6,11,4,3,0.8,0.8
2025-07-30T1500,1406A,108.2397,22.8467,南宁市,区农职院,,40,38,49,28,35,121,,85,85,7,15,3,4,0.9,0.8
2025-07-30T1500,1407A,108.3275,22.735,南宁市,英华嘉园,,46,40,46,32,30,132,,91,91,7,13,3,2,0.5,0.5
2025-07-30T1500,3401A,108.4834,22.7618,南宁市,红星社区,细颗粒物(PM2.5),53,43,44,37,31,139,,93,93,2,6,2,2,0.6,0.6
2025-07-30T1500,4221A,108.2177,22.7774,南宁市,乐贤路16号,细颗粒物(PM2.5),58,46,49,41,35,135,,92,92,10,22,4,4,0.7,0.8
2025-07-30T1500,2331A,118.0966,26.6761,南平市,茫荡山,,,,,,,,,,,,,,,,
2025-07-30T1500,2332A,118.1681,26.6369,南平市,南平市监测站,,24,24,15,11,6,67,,54,54,2,8,4,4,0.4,0.5
2025-07-30T1500,2333A,118.1825,26.6489,南平市,南平铝业有限公司,,21,17,18,9,7,66,,57,57,2,9,4,4,0.3,0.4
2025-07-30T1500,2334A,118.1756,26.6272,南平市,南平七中,,28,28,17,8,5,68,,55,55,3,7,3,2,0.4,0.5
2025-07-30T1500,1168A,120.9098,31.9663,南通市,狼山街道,,13,6,9,3,3,40,,27,27,3,4,2,3,0.4,0.4
2025-07-30T1500,1169A,120.86,32.0005,南通市,虹桥,,13,,10,3,8,39,,29,29,6,6,1,2,0.6,0.5
2025-07-30T1500,1170A,120.87,32.02,南通市,城中,,11,8,12,3,4,35,,26,26,4,5,3,4,0.3,0.3
2025-07-30T1500,1171A,120.94,31.93,南通市,星湖花园,,14,6,4,3,3,43,,32,32,4,5,1,2,0.3,0.3
2025-07-30T1500,1172A,120.81,32.0417,南通市,紫琅学院,,,,7,,5,35,,27,27,3,4,2,2,0.6,0.6
2025-07-30T1500,3291A,121.067,32.062,南通市,通州监测站,,14,6,7,3,2,44,,34,34,1,2,1,2,0.6,0.6
2025-07-30T1500,3432A,120.9348,31.9883,南通市,环境教育馆,,15,6,14,3,2,47,,36,36,4,4,2,3,0.2,0.2
2025-07-30T1500,2404A,112.5224,33.0122,南阳市,瓦房庄,,44,33,36,16,15,140,,111,111,7,9,6,6,0.5,0.5
2025-07-30T1500,2405A,112.5003,32.9735,南阳市,汉画馆,,42,33,35,8,7,134,,108,108,5,10,6,7,0.3,0.4
2025-07-30T1500,2406A,112.5573,33.027,南阳市,气象站,,47,24,32,12,14,149,,114,114,3,9,8,8,0.4,0.4
2025-07-30T1500,2407A,112.5481,32.9689,南阳市,理工学院,,45,31,31,10,8,144,,110,110,3,9,8,7,0.4,0.4
2025-07-30T1500,4008A,112.5234,32.9922,南阳市,卧龙区政府,,44,,19,17,15,139,,109,109,6,10,6,6,0.4,0.5
2025-07-30T1500,1234A,121.8358,29.911,宁波市,区环保大楼,,14,,13,3,5,42,,40,37,7,6,3,3,0.4,0.4
2025-07-30T1500,1235A,121.56,29.82,宁波市,万里学院,,14,6,12,3,4,44,,42,36,5,5,4,5,0.4,0.4
2025-07-30T1500,1236A,121.713,29.9572,宁波市,龙赛医院,,14,,17,3,7,42,,36,34,4,5,5,6,0.4,0.4
2025-07-30T1500,1239A,121.633,29.7733,宁波市,钱湖水厂,,15,6,8,3,2,47,,46,39,5,6,4,4,0.3,0.3
2025-07-30T1500,1240A,121.5856,29.8635,宁波市,太古小学,,14,,7,3,4,42,,42,35,4,4,2,2,0.4,0.4
2025-07-30T1500,1241A,121.524,29.8674,宁波市,市环境监测中心,,13,7,11,3,3,39,,38,33,9,7,5,5,0.3,0.3
2025-07-30T1500,2871A,121.6147,29.9017,宁波市,万里国际学校,,14,6,11,3,7,44,,43,36,4,4,3,3,0.3,0.3
2025-07-30T1500,3710A,121.5594,29.8975,宁波市,白沙活动中心,,13,6,9,3,4,41,,41,36,3,3,4,6,0.4,0.4
2025-07-30T1500,2339A,119.5001,26.6946,宁德市,金涵水库,,,,,,,,,,,,,,,,
2025-07-30T1500,2341A,119.5388,26.6612,宁德市,宁德市监测站,,17,16,15,10,6,53,,56,56,4,11,6,6,0.3,0.4
2025-07-30T1500,3209A,119.5231,26.6562,宁德市,宁德一中,,18,6,13,3,6,56,,58,58,1,7,5,5,0.2,0.3
2025-07-30T1500,2618A,98.8601,25.8567,怒江傈僳族自治州,州监测站,,25,15,26,12,17,80,,51,51,4,11,6,6,0.3,0.4
2025-07-30T1500,2619A,98.8546,25.8417,怒江傈僳族自治州,泸水一中,,27,27,26,18,16,68,,38,38,7,14,6,6,0.4,0.5
2025-07-30T1500,1888A,101.6891,26.571,攀枝花市,弄弄坪,,44,33,42,30,20,138,,80,80,10,21,8,13,0.8,1.4
2025-07-30T1500,1889A,101.5769,26.5928,攀枝花市,河门口,臭氧1小时,54,44,38,28,20,163,,81,81,12,16,22,11,1.5,0.7
2025-07-30T1500,1890A,101.7169,26.585,攀枝花市,炳草岗,,42,36,49,19,27,132,,75,75,11,28,7,11,0.7,1.3
2025-07-30T1500,1891A,101.7369,26.5008,攀枝花市,仁和,,44,44,37,29,22,136,,85,85,9,13,21,10,0.8,0.8
2025-07-30T1500,2835A,101.7227,26.567,攀枝花市,四十中小,,45,45,44,25,24,137,,76,76,10,28,10,12,0.8,1.3
2025-07-30T1500,1604A,122.0303,41.1489,盘锦市,开发区,,30,10,7,6,8,96,,91,91,12,10,11,11,0,0
2025-07-30T1500,1605A,122.0485,41.0883,盘锦市,兴隆台,,32,11,9,3,5,102,,100,100,7,10,6,4,0.3,0.4
2025-07-30T1500,1606A,121.8297,41.1028,盘锦市,新生街道,,34,10,8,3,7,108,,88,88,11,15,3,3,0.3,0.4
2025-07-30T1500,1832A,113.3257,33.742,平顶山市,新华旅馆,臭氧1小时,52,33,39,19,21,161,,128,128,7,12,5,6,0.4,0.4
2025-07-30T1500,1833A,113.2919,33.737,平顶山市,规划设计院,,49,23,32,13,18,154,,123,123,5,11,6,8,0.6,0.6
2025-07-30T1500,1834A,113.182,33.774,平顶山市,平顶山工学院,臭氧1小时,68,20,30,9,15,174,,138,138,6,12,4,5,0.3,0.3
2025-07-30T1500,3204A,113.3025,33.73,平顶山市,规划局,臭氧1小时,55,31,35,13,11,164,,132,132,4,9,4,4,0.4,0.4
2025-07-30T1500,3594A,112.8867,33.9116,平顶山市,石龙区,臭氧1小时,80,28,35,14,17,184,,133,133,7,13,7,7,0.5,0.5
2025-07-30T1500,2656A,106.6692,35.5461,平凉市,聚贤嘉苑,,41,41,42,13,12,119,,102,102,4,19,10,8,0.5,0.7
2025-07-30T1500,2657A,106.7021,35.5307,平凉市,博物馆,,38,31,38,12,13,120,,100,100,4,16,9,8,0.5,0.5
2025-07-30T1500,2347A,114.0997,27.5002,萍乡市,武功山,,28,,3,3,4,88,,55,55,3,3,11,10,0.4,0.3
2025-07-30T1500,2348A,113.8385,27.6434,萍乡市,中医院,,36,36,28,3,12,110,,80,80,8,19,9,9,0.7,1.4
2025-07-30T1500,2349A,113.8493,27.6253,萍乡市,市政府车库,,32,,18,20,16,100,,77,77,7,13,10,15,0.6,1
2025-07-30T1500,2350A,113.8676,27.6435,萍乡市,市环保局,,37,33,24,3,14,117,,85,85,6,14,10,11,0.5,0.9
2025-07-30T1500,2351A,113.866,27.6198,萍乡市,安源区政府,,45,32,24,31,15,114,,84,84,6,9,13,17,0.7,0.9
2025-07-30T1500,2319A,119.0141,25.4325,莆田市,荔城区仓后路,臭氧1小时,60,59,36,36,18,168,,88,88,9,8,4,5,0.7,0.5
2025-07-30T1500,2320A,119.0015,25.4553,莆田市,莆田市监测站,臭氧1小时,67,66,33,28,15,173,,89,89,11,8,7,5,0.5,0.4
2025-07-30T1500,2321A,119.1119,25.4561,莆田市,涵江区六中,臭氧1小时,74,43,30,32,16,179,,110,110,9,13,3,3,0.6,0.5
2025-07-30T1500,2322A,119.1013,25.3215,莆田市,秀屿区政府,臭氧1小时,72,44,35,24,21,177,,138,138,9,13,3,3,0.5,0.5
2025-07-30T1500,2323A,118.981,25.4792,莆田市,东圳水库,,,,,,,,,,,,,,,,
2025-07-30T1500,2392A,115.0312,35.7636,濮阳市,环保局,臭氧1小时,67,31,28,18,17,173,,138,138,4,10,4,4,0.5,0.5
2025-07-30T1500,2394A,115.0574,35.7609,濮阳市,油田运输公司,臭氧1小时,59,30,33,23,14,167,,131,131,5,12,3,4,0.5,0.5
2025-07-30T1500,3021A,115,35.7668,濮阳市,濮水河管理处,,46,30,30,22,18,146,,114,114,6,14,2,2,0.3,0.3
2025-07-30T1500,4216A,115.0924,35.7686,濮阳市,任丘路479号,,50,37,37,18,17,160,,126,126,5,14,6,6,0.4,0.4
2025-07-30T1500,2601A,100.98,22.7633,普洱市,市环保局,,32,32,32,18,12,54,,41,41,4,5,5,4,0.5,0.6
2025-07-30T1500,2602A,100.9817,22.8322,普洱市,普洱第二中学,,24,24,31,6,12,52,,39,39,3,6,5,5,0.5,0.5
2025-07-30T1500,2262A,131.0518,45.8751,七台河市,新一中,,35,6,16,3,11,112,,78,78,8,9,11,10,1.0,1
2025-07-30T1500,3345A,131.0577,45.7879,七台河市,中波台,,22,13,14,7,7,69,,54,54,6,9,7,8,0.5,0.5
2025-07-30T1500,3637A,131.0176,45.7761,七台河市,人民广场,,22,,16,12,10,70,,56,56,5,8,11,11,0.5,0.5
2025-07-30T1500,3684A,130.8781,45.8222,七台河市,新建矿广场,,24,24,15,3,8,71,,50,50,9,14,10,9,0.5,0.4
2025-07-30T1500,1779A,123.9305,47.3636,齐齐哈尔市,安居小区,,19,19,18,7,7,50,,47,47,7,10,4,3,0.3,0.5
2025-07-30T1500,1780A,123.9488,47.3386,齐齐哈尔市,中心广场,,18,9,15,3,1,56,,54,54,5,6,7,7,0.4,0.4
2025-07-30T1500,1781A,123.9483,47.3227,齐齐哈尔市,农牧车辆厂,,22,22,17,3,6,54,,48,48,5,7,6,6,0.4,0.4
2025-07-30T1500,1783A,123.945,47.2988,齐齐哈尔市,市环境监测站,,16,13,11,3,4,51,,51,51,5,6,5,5,0.3,0.3
2025-07-30T1500,3662A,123.6333,47.2075,齐齐哈尔市,富区青少年活动中心,,16,14,33,3,14,51,,44,44,8,17,4,14,0.2,0.9
2025-07-30T1500,2591A,107.9783,26.5747,黔东南苗族侗族自治州,市环境监测站,,28,25,20,19,14,77,,56,56,3,13,2,3,0.6,0.5
2025-07-30T1500,2881A,107.8908,26.5311,黔东南苗族侗族自治州,凯里学院,,30,,14,14,12,96,,66,66,9,11,3,2,0.7,0.5
2025-07-30T1500,2593A,107.5228,26.2403,黔南布依族苗族自治州,小围寨,,,14,15,3,9,61,,50,50,7,11,,2,0.4,0.5
2025-07-30T1500,3538A,107.5175,26.2978,黔南布依族苗族自治州,沙坝,,,9,18,,4,81,,65,65,7,9,3,4,0.2,0.5
2025-07-30T1500,2589A,104.9022,25.0925,黔西南布依族苗族自治州,场坝街,,39,12,26,3,13,124,,82,82,10,11,7,16,0.5,0.5
2025-07-30T1500,2590A,104.8811,25.0992,黔西南布依族苗族自治州,坪东大道,,39,22,37,8,16,123,,75,75,6,12,3,4,0.4,0.4
2025-07-30T1500,2502A,108.6236,21.9667,钦州市,市环保站,,50,44,33,22,17,160,,112,112,10,9,6,3,0.7,0.6
2025-07-30T1500,2503A,108.6549,21.9481,钦州市,沙埠小学,颗粒物(PM10),56,61,41,26,22,155,,111,111,9,14,1,2,0.6,0.7
2025-07-30T1500,2504A,108.5989,21.7431,钦州市,港区一小,,34,34,37,11,14,105,,69,69,6,13,2,3,0.6,0.6
2025-07-30T1500,3404A,108.5959,21.9633,钦州市,北职校,,46,46,34,20,19,134,,103,103,7,8,6,4,0.6,0.6
2025-07-30T1500,1043A,119.7493,40.0116,秦皇岛市,第一关,,37,16,15,15,7,117,,93,93,1,26,6,5,0.2,0.3
2025-07-30T1500,1044A,119.5897,39.9499,秦皇岛市,监测站,,34,33,29,3,6,108,,93,93,7,16,6,4,0.6,0.5
2025-07-30T1500,1046A,119.5251,39.9041,秦皇岛市,建设大厦,,35,27,25,6,5,111,,93,93,2,16,6,5,0.3,0.3
2025-07-30T1500,3132A,119.610547,39.943889,秦皇岛市,文明里,,,,22,,8,,,88,88,,15,,5,,0.2
2025-07-30T1500,4198A,119.5090,39.8253,秦皇岛市,北戴河轮滑馆,,37,15,24,9,8,117,,94,94,3,12,4,2,0.3,0.3
2025-07-30T1500,1307A,120.6659,36.2403,青岛市,仰口,,24,19,16,7,6,74,,68,68,5,5,8,9,0.5,0.6
2025-07-30T1500,1310A,120.4134,36.0658,青岛市,市南区东部子站,,24,9,13,9,8,75,,71,71,2,6,6,7,0.3,0.3
2025-07-30T1500,1311A,120.3664,36.1032,青岛市,四方区子站,,23,17,14,3,8,73,,65,65,3,7,5,6,0.1,0.2
2025-07-30T1500,1312A,120.2994,36.054,青岛市,市南区西部子站,,19,19,18,12,8,58,,54,54,9,13,8,9,0.6,0.5
2025-07-30T1500,1313A,120.4581,36.0858,青岛市,崂山区子站,,22,19,20,3,5,70,,63,63,5,11,8,8,0.2,0.2
2025-07-30T1500,1315A,120.3999,36.3083,青岛市,城阳区子站,,21,12,16,10,7,65,,67,67,3,9,7,7,0.3,0.3
2025-07-30T1500,1966A,120.0405,35.8735,青岛市,黄岛区4号,,29,9,13,3,3,90,,75,75,5,7,11,11,0.4,0.3
2025-07-30T1500,3362A,120.5014,36.4034,青岛市,即墨2号,,22,9,14,7,8,69,,64,64,1,6,3,4,0.2,0.2
2025-07-30T1500,3642A,120.3503,36.0736,青岛市,市北区南部,,24,10,16,3,7,76,,66,66,7,14,6,7,0.5,0.4
2025-07-30T1500,3643A,120.3948,36.1805,青岛市,李沧区北部,,31,19,11,12,9,97,,78,78,13,9,6,6,0.3,0.2
2025-07-30T1500,4290A,120.1969,35.9546,青岛市,珠江路669号,,35,,13,24,10,70,,53,53,22,12,5,6,0.4,0.4
2025-07-30T1500,1702A,113.0426,23.691,清远市,环保大楼,颗粒物(PM10),51,52,60,27,25,131,,103,103,6,16,7,9,0.9,0.8
2025-07-30T1500,1703A,113.0208,23.7106,清远市,凤城街办,,38,30,32,26,20,99,,71,71,6,15,5,6,0.6,0.6
2025-07-30T1500,3025A,113.0477,23.6344,清远市,技师学院,,36,36,32,21,18,102,,82,82,5,14,11,13,0.5,0.6
2025-07-30T1500,3318A,112.9903,23.7403,清远市,清新太和,,38,36,31,26,19,102,,77,77,7,12,5,5,0.6,0.6
2025-07-30T1500,3455A,113.076,23.7198,清远市,清城东城,,30,30,32,15,19,76,,67,67,4,14,5,5,0.7,0.8
2025-07-30T1500,2661A,107.6325,35.7357,庆阳市,庆阳五中,,39,35,31,15,12,123,,114,114,4,7,7,7,0.5,0.5
2025-07-30T1500,2662A,107.6364,35.7067,庆阳市,市环保局,,41,26,25,12,10,130,,117,117,2,5,11,12,0.6,0.6
2025-07-30T1500,1916A,103.7897,25.5035,曲靖市,环境监测站,,45,20,31,16,15,142,,103,103,6,20,8,8,0.6,0.6
2025-07-30T1500,1917A,103.8,25.5364,曲靖市,烟厂办公区,,45,17,32,13,18,144,,90,90,11,19,4,5,0.7,0.8
2025-07-30T1500,3376A,103.7947,25.462,曲靖市,南苑二区,臭氧1小时,54,17,29,17,15,163,,110,110,6,13,4,4,0.8,0.8
2025-07-30T1500,3377A,103.7444,25.5261,曲靖市,曲靖师范学院,,,,37,9,22,118,,84,84,9,23,8,11,0.5,0.6
2025-07-30T1500,1264A,118.8692,28.9398,衢州市,环保大楼,,18,12,29,6,14,55,,53,53,4,12,1,1,0.3,0.3
2025-07-30T1500,1265A,118.8709,28.9666,衢州市,实验学校,,18,10,26,3,14,57,,55,55,3,16,2,2,0.3,0.3
2025-07-30T1500,1266A,118.8621,28.9808,衢州市,衢州学院,,,12,24,7,13,54,,54,54,,19,,2,0.3,0.4
2025-07-30T1500,1611A,118.5819,24.9117,泉州市,涂山街,,42,38,34,25,22,133,,104,104,18,18,3,3,0.7,0.7
2025-07-30T1500,1612A,118.5972,24.8978,泉州市,津头埔,,49,38,34,20,20,155,,119,119,14,15,3,3,0.5,0.5
2025-07-30T1500,1613A,118.6663,24.9424,泉州市,万安,,50,50,34,21,19,157,,114,114,12,17,3,3,0.4,0.4
2025-07-30T1500,1614A,118.6117,24.9604,泉州市,清源山,,,,,,,,,,,,,,,,
2025-07-30T1500,3529A,118.6333,24.9264,泉州市,城华南路,,48,33,29,20,19,153,,111,111,16,16,4,4,0.6,0.5
2025-07-30T1500,2626A,88.8876,29.2718,日喀则市,日喀则监测站,,21,6,5,3,0,67,,56,56,2,4,12,11,0.3,0.4
2025-07-30T1500,3726A,88.8781,29.2426,日喀则市,林业技术推广中心,,20,6,8,3,1,64,,46,46,3,4,8,8,0.4,0.4
2025-07-30T1500,1659A,119.471,35.4209,日照市,监测站,,25,9,14,7,9,77,,67,67,6,13,8,8,0.4,0.4
2025-07-30T1500,1660A,119.523,35.4216,日照市,市政府广场,,25,14,11,10,3,77,,61,61,2,4,4,4,0.6,0.6
2025-07-30T1500,1661A,119.5587,35.4044,日照市,港务局,,31,31,13,12,15,81,,65,65,4,6,10,10,0.5,0.5
2025-07-30T1500,3507A,119.5328,35.4625,日照市,职业技术学院,,25,12,12,7,5,77,,63,63,11,11,6,6,0.5,0.5
2025-07-30T1500,3604A,119.3266,35.1044,日照市,岚山环保分局,,24,14,13,3,3,74,,60,60,3,7,9,9,0.5,0.4
2025-07-30T1500,1835A,111.1922,34.7752,三门峡市,市政府,,45,24,35,14,19,141,,120,120,4,7,4,5,0.3,0.4
2025-07-30T1500,1836A,111.1587,34.7942,三门峡市,开发区,,44,20,34,14,19,140,,121,121,13,14,4,6,0.2,0.3
2025-07-30T1500,1838A,111.143,34.7955,三门峡市,风景区,,46,44,31,13,18,146,,125,125,5,6,4,4,0.3,0.4
2025-07-30T1500,3039A,111.1911,34.7829,三门峡市,三门峡市第一小学,,45,23,34,9,16,141,,121,121,8,10,5,6,0.4,0.5
2025-07-30T1500,3598A,111.1,34.7167,三门峡市,富达温泉假日酒店,,46,27,39,12,22,145,,122,122,4,9,10,13,0.6,0.6
2025-07-30T1500,2324A,117.6211,26.2625,三明市,三钢,,31,31,25,8,17,53,,54,54,9,12,7,9,1.0,1.7
2025-07-30T1500,2325A,117.635,26.2714,三明市,三明二中,,,,21,8,16,60,,56,56,4,9,3,3,0.4,0.7
2025-07-30T1500,2326A,117.6028,26.2378,三明市,三元区政府,,28,28,23,9,10,56,,59,59,7,8,3,5,0.4,0.5
2025-07-30T1500,2327A,117.7275,26.3108,三明市,洋溪,,,,,,,,,,,,,,,,
2025-07-30T1500,1876A,109.5078,18.2489,三亚市,河东子站,,18,18,16,3,6,54,,46,46,2,6,3,3,0.5,0.5
2025-07-30T1500,1877A,109.4964,18.2681,三亚市,河西子站,,20,20,24,9,18,54,,47,47,1,3,2,2,0.1,0.2
2025-07-30T1500,3540A,109.7348,18.3443,三亚市,君悦子站,,25,25,17,8,8,60,,53,53,6,6,2,2,0.4,0.4
2025-07-30T1500,2624A,91.7608,29.2313,山南市,山南监测站,,30,7,9,3,3,96,,69,69,3,6,3,3,0.3,0.3
2025-07-30T1500,2625A,91.7706,29.2436,山南市,山南人民医院,,30,6,8,3,12,94,,70,70,3,4,4,4,0.3,0.3
2025-07-30T1500,1674A,116.6794,23.3667,汕头市,金平子站,,30,30,28,15,22,96,,90,90,8,15,2,2,0.6,0.9
2025-07-30T1500,1675A,116.7244,23.3633,汕头市,龙湖子站,,34,34,25,14,16,92,,88,88,6,16,6,7,0.5,0.9
2025-07-30T1500,1676A,116.7258,23.2775,汕头市,濠江子站,,43,43,35,17,19,93,,91,91,6,12,5,5,0.6,0.8
2025-07-30T1500,1677A,116.7519,23.4714,汕头市,澄海子站,,37,20,32,15,18,117,,92,92,7,22,3,4,0.7,0.9
2025-07-30T1500,1678A,116.6092,23.2539,汕头市,潮阳子站,,29,26,27,15,15,90,,86,86,4,9,4,4,0.5,0.7
2025-07-30T1500,3444A,116.454,23.2684,汕头市,潮南峡山,,24,17,30,14,22,75,,78,78,8,11,5,6,0.8,0.9
2025-07-30T1500,3624A,116.4069,23.2533,汕头市,潮南子站,,26,26,33,14,22,78,,77,77,5,13,3,4,0.6,0.7
2025-07-30T1500,1693A,115.3653,22.775,汕尾市,市环保局,,33,30,25,20,11,104,,86,86,12,10,4,3,0.6,0.6
2025-07-30T1500,1694A,115.3706,22.7898,汕尾市,市政府,,43,,23,30,15,112,,86,86,11,10,4,4,0.6,0.5
2025-07-30T1500,1695A,115.3622,22.7925,汕尾市,新城中学,,37,37,28,18,13,106,,86,86,14,12,5,5,0.5,0.5
2025-07-30T1500,2645A,109.9154,33.8715,商洛市,监测站,,37,25,32,16,17,116,,90,90,5,11,4,8,0.4,0.5
2025-07-30T1500,3045A,109.9643,33.8471,商洛市,商州区中学,,35,26,42,16,18,111,,89,89,4,15,4,9,0.4,0.5
2025-07-30T1500,2408A,115.6702,34.4285,商丘市,环境监测站,,47,33,26,17,14,150,,104,104,5,10,3,4,0.5,0.4
2025-07-30T1500,2409A,115.6458,34.4045,商丘市,粮食局,,46,37,24,20,12,147,,103,103,5,9,2,2,0.4,0.4
2025-07-30T1500,2410A,115.6293,34.3948,商丘市,睢阳区环保局,,47,34,29,15,13,149,,105,105,4,10,5,4,0.3,0.3
2025-07-30T1500,3171A,115.6071,34.4465,商丘市,梁园区档案局,,45,40,26,16,12,144,,99,99,6,10,2,2,0.4,0.4
2025-07-30T1500,1141A,121.4,31.238,上海市,普陀,,,,16,0,5,57,,44,44,7,7,4,5,0.3,0.3
2025-07-30T1500,1142A,121.478,31.2036,上海市,十五厂,,16,6,18,3,6,49,,46,46,8,8,7,7,0.7,0.6
2025-07-30T1500,1143A,121.467,31.3008,上海市,虹口,,16,,19,10,7,50,,43,43,5,5,9,9,0.6,0.6
2025-07-30T1500,1147A,121.425,31.2261,上海市,静安监测站,,17,,16,7,7,52,,43,43,7,8,3,4,0.6,0.6
2025-07-30T1500,1148A,121.703,31.1907,上海市,浦东川沙,,14,14,20,3,5,44,,46,46,5,5,9,9,0.6,0.5
2025-07-30T1500,1149A,121.533,31.2284,上海市,浦东新区监测站,,15,6,19,3,6,48,,46,46,4,6,7,7,0.8,0.7
2025-07-30T1500,1150A,121.577,31.2071,上海市,浦东张江,,16,9,20,3,5,51,,54,54,9,7,5,6,0.5,0.5
2025-07-30T1500,3265A,121.4316,31.3322,上海市,宝山庙行,,15,6,18,3,5,47,,34,34,5,6,7,7,0.3,0.3
2025-07-30T1500,3266A,121.8791,31.4662,上海市,崇明上实东滩,,20,19,24,6,9,62,,50,50,5,4,2,3,0.3,0.3
2025-07-30T1500,3268A,121.3162,31.2838,上海市,嘉定南翔,,18,6,18,3,6,56,,38,38,2,3,6,6,0.3,0.3
2025-07-30T1500,3269A,121.3359,30.7456,上海市,金山新城,,19,9,13,3,5,59,,43,43,6,6,2,3,0.2,0.2
2025-07-30T1500,3270A,121.4996,31.0739,上海市,闵行浦江,,17,17,17,3,5,45,,44,44,4,3,4,4,0.8,0.8
2025-07-30T1500,3271A,121.2886,31.1663,上海市,青浦徐泾,,18,,18,8,8,55,,42,42,5,8,6,6,0.5,0.5
2025-07-30T1500,3272A,121.2186,31.0378,上海市,松江图书馆,,19,6,13,3,5,60,,43,43,7,8,6,6,0.5,0.5
2025-07-30T1500,3273A,121.3902,31.2059,上海市,长宁仙霞,,16,6,18,3,6,51,,42,42,6,8,6,7,0.5,0.5
2025-07-30T1500,3274A,121.7965,31.0507,上海市,浦东惠南,,15,7,18,3,6,48,,48,48,7,2,9,9,0.8,0.7
2025-07-30T1500,3544A,121.4891,30.925,上海市,奉贤南桥新城,,18,17,16,3,6,57,,49,49,6,6,1,2,0.5,0.6
2025-07-30T1500,4183A,121.4174,31.16637,上海市,冠生园路458号,,16,,16,10,7,49,,44,44,8,8,3,3,0.7,0.7
2025-07-30T1500,4205A,121.5419,31.2683,上海市,宁武路151号,,15,6,22,3,7,46,,43,43,7,7,7,7,0.5,0.4
2025-07-30T1500,2381A,118.005,28.4572,上饶市,百草园,,,,,,,,,,,,,,,,
2025-07-30T1500,2382A,117.9756,28.4436,上饶市,市监测站,,19,19,34,8,16,59,,66,66,2,10,3,15,0.3,0.4
2025-07-30T1500,2383A,117.9519,28.4628,上饶市,凤凰光学,,18,18,33,9,15,57,,61,61,2,11,8,16,0.9,0.8
2025-07-30T1500,3685A,117.897,28.4315,上饶市,双创科技城,,24,22,29,7,14,76,,69,69,8,18,2,8,0.4,0.4
2025-07-30T1500,4211A,118.1904,28.4448,上饶市,裕丰大道,,23,12,26,10,16,72,,75,75,4,13,5,14,0.6,0.7
2025-07-30T1500,1669A,113.5824,24.7733,韶关市,市八中,颗粒物(PM10),66,82,32,45,15,128,,86,86,6,10,9,15,0.5,0.6
2025-07-30T1500,1671A,113.5917,24.7972,韶关市,园林处,,40,,19,28,14,116,,96,96,4,8,9,14,0.3,0.4
2025-07-30T1500,1673A,113.5971,24.6863,韶关市,曲江监测站,,40,29,32,23,18,128,,80,80,8,16,4,5,0.7,0.9
2025-07-30T1500,2809A,113.6668,24.7756,韶关市,大学路288号,颗粒物(PM10),54,58,30,20,15,136,,91,91,7,10,12,16,0.8,0.8
2025-07-30T1500,3622A,113.5556,24.8082,韶关市,碧湖山庄,,38,31,25,22,12,120,,84,84,5,8,8,9,0.5,0.5
2025-07-30T1500,2462A,111.5239,27.3033,邵阳市,市水土所,,,,,,,,,,,,,,,,
2025-07-30T1500,2464A,111.5283,27.2442,邵阳市,市化工厂,,26,,25,3,16,81,,74,74,7,12,6,7,0.5,0.6
2025-07-30T1500,2466A,111.4328,27.2272,邵阳市,市环保局,,44,44,32,11,20,79,,66,66,10,12,5,6,0.6,0.6
