timepoint,stationcode,longitude,latitude,area,positionname,primarypollutant,aqi,pm10,pm10_24h,pm2_5,pm2_5_24h,o3,o3_24h,o3_8h,o3_8h_24h,no2,no2_24h,so2,so2_24h,co,co_24h
2025-04-13T0800,2566A,102.1879,31.914,阿坝藏族羌族自治州,州农科所,颗粒物(PM10),61,72,20,31,10,40,,55,55,28,8,21,12,0.7,0.5
2025-04-13T0800,2568A,102.2502,31.8896,阿坝藏族羌族自治州,马师校,,26,,16,18,14,43,,63,63,14,7,5,5,0.5,0.4
2025-04-13T0800,3994A,102.2165,31.9024,阿坝藏族羌族自治州,马尔康中学西区,,,,14,,10,,,,,,3,,3,,0.3
2025-04-13T0800,2695A,80.292,41.1694,阿克苏地区,电视台,颗粒物(PM10),166,282,298,75,70,30,,26,26,34,23,4,7,0.6,0.5
2025-04-13T0800,2696A,80.2613,41.1551,阿克苏地区,艺术中心,颗粒物(PM10),181,311,314,84,77,0,,4,4,55,32,5,5,0.1,0.5
2025-04-13T0800,2204A,105.6467,38.8363,阿拉善盟,西城区西花园,颗粒物(PM10),57,63,102,10,22,89,,86,86,13,10,19,19,0.8,0.8
2025-04-13T0800,2205A,105.6985,38.8411,阿拉善盟,蒙二幼,颗粒物(PM10),54,57,106,12,28,88,,82,82,6,6,6,5,0.5,0.5
2025-04-13T0800,2206A,105.724,38.8516,阿拉善盟,环保局新楼,,45,45,105,12,30,100,,98,98,4,3,8,8,0.5,0.5
2025-04-13T0800,2708A,88.1264,47.8517,阿勒泰地区,市站,,,,9,,6,,,101,,,4,,2,,0.2
2025-04-13T0800,2630A,80.1161,32.5,阿里地区,阿里监测站,,38,10,11,3,6,119,,117,117,1,7,7,8,0.4,0.5
2025-04-13T0800,3192A,80.0903,32.5028,阿里地区,阿里藏医院,,37,11,18,3,5,118,,118,118,2,4,8,8,0.5,0.5
2025-04-13T0800,2642A,109.0318,32.6537,安康市,香溪洞,颗粒物(PM10),171,291,442,108,125,41,,51,51,7,5,7,6,0.4,0.3
2025-04-13T0800,2644A,109.0072,32.6975,安康市,汉滨区检察院,颗粒物(PM10),144,238,424,104,128,23,,34,34,11,9,7,7,0.3,0.2
2025-04-13T0800,4054A,109.0325,32.6913,安康市,市邮政管理局,颗粒物(PM10),165,280,460,92,118,22,,28,28,14,11,16,8,0.5,0.4
2025-04-13T0800,2291A,117.0809,30.5177,安庆市,环科院,颗粒物(PM10),100,150,321,34,75,53,,65,65,13,8,8,7,0.4,0.4
2025-04-13T0800,2292A,117.0331,30.5119,安庆市,马山宾馆,颗粒物(PM10),86,122,357,36,67,47,,61,61,16,9,5,4,0.2,0.2
2025-04-13T0800,2294A,116.9896,30.6145,安庆市,安庆大学,颗粒物(PM10),121,192,397,49,67,57,,54,54,16,9,5,3,0.3,0.2
2025-04-13T0800,3173A,117.0598,30.5351,安庆市,市人大,颗粒物(PM10),101,152,188,25,32,54,,64,64,8,6,7,7,0.2,0.2
2025-04-13T0800,3122A,105.9606,26.2611,安顺市,伍家关,颗粒物(PM10),276,403,362,93,66,83,,90,90,6,6,18,6,0.4,0.3
2025-04-13T0800,3123A,105.9408,26.2431,安顺市,凤凰山,颗粒物(PM10),236,375,294,101,84,78,,79,79,9,8,14,9,0.4,0.3
2025-04-13T0800,3124A,105.9439,26.2564,安顺市,金钟山,颗粒物(PM10),203,352,267,92,74,65,,71,71,9,8,17,10,0.5,0.4
2025-04-13T0800,3125A,105.8983,26.2481,安顺市,娄家坡,颗粒物(PM10),202,351,292,95,79,69,,71,71,8,9,7,6,0.4,0.4
2025-04-13T0800,1818A,114.4839,36.0621,安阳市,棉研所,,,,,,,,,,,,,,,,
2025-04-13T0800,1819A,114.3551,36.1017,安阳市,红庙街,颗粒物(PM10),62,74,139,17,34,57,,53,53,11,5,5,4,0.5,0.4
2025-04-13T0800,1820A,114.361,36.0681,安阳市,银杏小区,颗粒物(PM10),67,83,162,21,37,56,,58,58,17,9,7,5,0.3,0.2
2025-04-13T0800,3141A,114.3922,36.0878,安阳市,信访局,,,70,148,,20,67,,76,76,16,6,7,4,0.2,0.1
2025-04-13T0800,3669A,114.4705,36.0637,安阳市,左辅环卫站,颗粒物(PM10),81,111,159,26,24,52,,54,54,30,18,5,3,0.7,0.5
2025-04-13T0800,3703A,114.2917,36.0949,安阳市,安钢职工学校,颗粒物(PM10),73,95,157,33,42,42,,52,52,27,8,4,2,0.6,0.5
2025-04-13T0800,1748A,123.044,41.1196,鞍山市,深沟寺,,32,32,25,16,13,53,,55,55,18,19,10,12,1.3,0.8
2025-04-13T0800,1749A,123.011,41.0931,鞍山市,太阳城,,32,32,24,18,12,56,,57,57,15,13,3,3,0.9,0.7
2025-04-13T0800,1750A,123.0485,41.1442,鞍山市,太平,,34,34,26,14,11,55,,54,54,11,15,8,12,1.3,1
2025-04-13T0800,1751A,122.9642,41.0971,鞍山市,铁西三道街,,30,30,25,17,13,56,,56,56,17,18,3,3,0.7,0.7
2025-04-13T0800,1753A,123.022,41.0821,鞍山市,明达新区,,24,24,23,11,13,63,,60,60,10,16,5,5,0.3,0.4
2025-04-13T0800,1754A,123.1289,41.0228,鞍山市,千山,,,,13,,3,,,92,,,9,,3,,0.8
2025-04-13T0800,4201A,122.9446,41.0826,鞍山市,兴盛南路290号,,29,29,25,13,11,59,,57,57,17,18,6,6,0.4,0.6
2025-04-13T0800,2195A,107.4212,40.761,巴彦淖尔市,附二中,颗粒物(PM10),56,62,54,21,17,60,,76,76,15,7,6,6,0.4,0.3
2025-04-13T0800,2196A,107.37,40.7372,巴彦淖尔市,市环保大楼,颗粒物(PM10),51,51,59,19,18,73,,74,74,10,7,5,5,0.4,0.5
2025-04-13T0800,1956A,86.1472,41.7538,巴音郭楞蒙古自治州,孔雀公园,颗粒物(PM10),52,54,55,23,18,34,,21,21,48,40,11,9,0.4,0.4
2025-04-13T0800,1957A,86.1972,41.7166,巴音郭楞蒙古自治州,棉纺厂,颗粒物(PM10),54,57,66,13,11,31,,28,28,54,27,3,4,0.4,0.3
2025-04-13T0800,1958A,86.2357,41.7173,巴音郭楞蒙古自治州,经济开发区,颗粒物(PM10),58,66,55,14,7,76,,58,58,15,14,5,5,0.2,0.3
2025-04-13T0800,2914A,106.7677,31.8794,巴中市,苏山坪,颗粒物(PM10),289,412,501,119,149,70,,74,74,7,6,3,3,0.3,0.2
2025-04-13T0800,3181A,106.7768,31.8526,巴中市,市五中,颗粒物(PM10),243,380,524,100,124,24,,50,50,26,10,5,4,0.7,0.5
2025-04-13T0800,3183A,106.7418,31.8654,巴中市,圣泉水务公司,颗粒物(PM10),266,396,507,113,129,28,,51,51,27,8,2,1,0.6,0.5
2025-04-13T0800,3616A,106.7616,31.8344,巴中市,市中心医院,颗粒物(PM10),202,351,497,104,160,20,,47,47,26,10,6,5,0.6,0.4
2025-04-13T0800,2235A,122.7911,45.6077,白城市,洮北区环保局,,42,,14,29,10,65,,63,63,10,8,3,4,0.2,0.2
2025-04-13T0800,2236A,122.8738,45.5725,白城市,市环保局,,21,,6,9,9,65,,61,61,4,3,4,5,0.4,0.4
2025-04-13T0800,2231A,126.4219,41.9171,白山市,喜丰,,21,8,34,3,12,66,,79,79,11,13,13,12,2.0,1.1
2025-04-13T0800,2232A,126.4077,41.9419,白山市,环保局,,21,21,47,3,13,65,,76,76,16,13,6,6,1.2,1
2025-04-13T0800,2647A,104.1724,36.5446,白银市,第三小学,颗粒物(PM10),83,115,304,36,82,42,,50,50,23,19,11,25,0.6,0.4
2025-04-13T0800,2648A,104.1465,36.5482,白银市,动力公司,颗粒物(PM10),85,119,279,41,83,36,,44,44,24,17,5,12,0.5,0.4
2025-04-13T0800,2512A,106.6103,23.9011,百色市,市监测站,颗粒物(PM10),124,198,64,55,18,61,,64,64,11,10,9,8,0.3,0.3
2025-04-13T0800,2513A,106.6538,23.8859,百色市,市中心血站,颗粒物(PM10),138,225,79,51,17,55,,64,64,22,13,6,5,0.4,0.5
2025-04-13T0800,3406A,106.6085,23.8798,百色市,祈福高中,颗粒物(PM10),111,172,68,33,17,57,,58,58,11,11,5,5,0.3,0.4
2025-04-13T0800,2270A,117.396,32.939,蚌埠市,工人疗养院,颗粒物(PM10),78,106,300,30,58,72,,70,70,16,11,5,4,0.5,0.4
2025-04-13T0800,2271A,117.3605,32.9427,蚌埠市,百货大楼,颗粒物(PM10),79,108,324,19,55,72,,71,71,24,18,6,5,0.4,0.3
2025-04-13T0800,2273A,117.4185,32.8911,蚌埠市,蚌埠学院,颗粒物(PM10),79,107,265,20,53,63,,62,62,21,13,4,3,0.4,0.4
2025-04-13T0800,2274A,117.3533,32.9673,蚌埠市,淮上区政府,颗粒物(PM10),85,119,343,22,54,76,,71,71,15,12,5,5,0.2,0.2
2025-04-13T0800,2275A,117.3145,32.8977,蚌埠市,高新区,颗粒物(PM10),79,107,310,22,56,66,,59,59,24,19,6,4,0.4,0.3
2025-04-13T0800,3715A,117.3092,32.9314,蚌埠市,蚌埠田家炳中学,颗粒物(PM10),83,115,333,30,50,68,,68,68,29,22,7,5,0.3,0.2
2025-04-13T0800,1585A,109.8756,40.6532,包头市,市环境监测站,,29,29,66,9,12,85,,61,61,7,12,9,12,0.4,0.6
2025-04-13T0800,1587A,109.9991,40.5842,包头市,包头八中,,37,37,76,13,17,71,,55,55,19,13,10,13,0.4,0.4
2025-04-13T0800,1588A,109.8538,40.6821,包头市,青山宾馆,,28,28,47,6,13,85,,64,64,6,8,8,9,0.4,0.4
2025-04-13T0800,1589A,109.8642,40.6288,包头市,惠龙物流,,35,35,76,11,47,88,,53,53,7,14,7,15,0.3,0.6
2025-04-13T0800,1590A,110.0377,40.5546,包头市,东河鸿龙湾,,30,30,60,8,9,76,,64,64,16,12,8,9,0.2,0.3
2025-04-13T0800,3283A,109.9154,40.5685,包头市,滨河大厦,,27,27,61,6,11,78,,57,57,11,10,10,13,0.5,0.5
2025-04-13T0800,3419A,109.9447,40.6261,包头市,包头市委党校,,37,37,94,3,10,84,,60,60,4,9,7,10,0.4,0.6
2025-04-13T0800,3683A,109.8331,40.6576,包头市,昆区政府,,32,32,65,7,15,86,,59,59,8,15,6,7,0.5,0.7
2025-04-13T0800,1930A,107.185,34.3063,宝鸡市,庙沟村,颗粒物(PM10),110,170,461,56,126,67,,66,66,6,7,6,6,0.4,0.4
2025-04-13T0800,1931A,107.0708,34.3017,宝鸡市,竹园沟,颗粒物(PM10),128,206,534,70,144,34,,42,42,16,7,6,6,0.5,0.4
2025-04-13T0800,1932A,107.1906,34.3672,宝鸡市,三陆医院,颗粒物(PM10),116,181,511,76,187,38,,34,34,21,16,5,5,0.5,0.4
2025-04-13T0800,1933A,107.1431,34.3547,宝鸡市,监测站,颗粒物(PM10),127,204,546,86,161,31,,33,33,21,11,8,7,0.6,0.6
2025-04-13T0800,1934A,107.1186,34.3739,宝鸡市,技工学校,颗粒物(PM10),144,238,550,93,161,23,,43,43,29,9,5,4,0.7,0.5
2025-04-13T0800,1935A,107.3906,34.3528,宝鸡市,陈仓区环保局家属楼,颗粒物(PM10),144,237,433,76,123,54,,51,51,26,19,148,49,0.7,0.4
2025-04-13T0800,1936A,107.2058,34.3497,宝鸡市,文理学院,颗粒物(PM10),132,214,515,69,150,38,,39,39,21,13,6,6,0.4,0.3
2025-04-13T0800,1937A,107.2386,34.3622,宝鸡市,三迪小学,颗粒物(PM10),135,219,522,72,165,32,,35,35,28,18,6,6,0.6,0.6
2025-04-13T0800,1051A,115.493,38.8632,保定市,游泳馆,,27,27,70,10,18,79,,73,73,13,7,2,3,0.1,0.2
2025-04-13T0800,1052A,115.5213,38.8959,保定市,华电二区,,26,23,76,13,22,82,,77,77,2,2,3,3,0,0
2025-04-13T0800,1053A,115.4713,38.9108,保定市,接待中心,,27,22,75,10,20,84,,76,76,6,3,1,2,0,0
2025-04-13T0800,1054A,115.4612,38.8416,保定市,地表水厂,,31,31,99,10,17,79,,76,76,13,9,1,2,0.3,0.3
2025-04-13T0800,3581A,115.31981,38.95208,保定市,满城区生态环境分局,,,9,72,,8,97,,90,90,7,7,2,2,0,0
2025-04-13T0800,3582A,115.47694,38.76408,保定市,清苑区第二中学,,30,30,110,12,16,82,,76,76,8,5,3,3,0.2,0.2
2025-04-13T0800,3583A,115.62909,39.02311,保定市,徐水物探局,,50,50,91,14,11,64,,67,67,14,5,2,3,0.1,0.1
2025-04-13T0800,4004A,115.4202,38.8656,保定市,双鹰农机,,28,23,87,11,23,89,,78,78,2,2,1,2,0.1,0.1
2025-04-13T0800,4034A,115.5150,38.8590,保定市,植保所站,,29,29,77,18,21,77,,72,72,3,3,3,3,0.4,0.3
2025-04-13T0800,2594A,99.1678,25.1081,保山市,市环境监测站,,36,36,43,20,36,32,,16,16,14,15,11,11,0.5,0.6
2025-04-13T0800,2595A,99.1711,25.1328,保山市,市环保局,,32,32,46,14,26,51,,32,32,8,12,6,6,0.6,0.7
2025-04-13T0800,1866A,109.2262,21.588,北海市,牛尾岭水库,颗粒物(PM10),112,174,107,52,32,25,,48,48,,4,6,6,0.4,0.4
2025-04-13T0800,1867A,109.1436,21.4086,北海市,海滩公园,颗粒物(PM10),142,233,143,59,37,67,,71,71,14,12,8,6,0.3,0.4
2025-04-13T0800,1868A,109.0981,21.4661,北海市,新市环保局,颗粒物(PM10),119,187,135,58,39,69,,70,70,13,10,5,4,0.3,0.3
2025-04-13T0800,1869A,109.1778,21.5233,北海市,北海工业园,颗粒物(PM10),140,229,141,66,43,66,,68,68,12,9,9,11,0.2,0.3
2025-04-13T0800,3400A,109.1911,21.4415,北海市,龙潭自来水厂,颗粒物(PM10),132,214,135,62,41,63,,70,70,15,10,7,7,0.3,0.3
2025-04-13T0800,1001A,116.3621,39.8784,北京市,万寿西宫,,29,27,83,11,15,91,,89,89,7,8,7,6,0.5,0.5
2025-04-13T0800,1002A,116.2202,40.2915,北京市,定陵,,,,,,,,,,,,,,,,
2025-04-13T0800,1003A,116.4174,39.9289,北京市,东四,,26,25,89,13,19,82,,80,80,3,3,7,5,0.3,0.3
2025-04-13T0800,1004A,116.4072,39.8863,北京市,天坛,,25,24,79,12,17,80,,78,78,6,6,1,2,0.4,0.4
2025-04-13T0800,1005A,116.462,39.9365,北京市,农展馆,,27,26,77,11,15,84,,81,81,3,3,7,6,0.2,0.2
2025-04-13T0800,1006A,116.3392,39.9295,北京市,官园,,25,22,88,12,18,79,,77,77,2,3,7,7,0.3,0.3
2025-04-13T0800,1007A,116.2878,39.9611,北京市,海淀万柳,,23,20,73,7,14,71,,70,70,7,8,4,3,0.5,0.5
2025-04-13T0800,1008A,116.6636,40.135,北京市,顺义新城,颗粒物(PM10),58,65,135,16,16,89,,84,84,1,2,5,5,0.3,0.3
2025-04-13T0800,1009A,116.6275,40.3275,北京市,怀柔镇,颗粒物(PM10),56,62,119,17,13,77,,75,75,2,2,2,2,0.3,0.2
2025-04-13T0800,1010A,116.2296,40.217,北京市,昌平镇,,25,24,65,10,14,80,,79,79,3,3,1,3,0.5,0.5
2025-04-13T0800,1011A,116.3966,39.9821,北京市,奥体中心,,26,21,71,11,15,81,,78,78,5,7,4,2,0.3,0.3
2025-04-13T0800,3281A,115.9718,40.4529,北京市,延庆夏都,,27,24,66,12,15,86,,83,83,2,3,6,5,0.3,0.3
2025-04-13T0800,3418A,116.8336,40.4095,北京市,密云新城,,29,29,118,8,11,78,,75,75,1,2,3,3,0.3,0.3
2025-04-13T0800,3671A,116.088,39.9726,北京市,门头沟三家店,,25,23,161,3,26,77,,72,72,2,1,5,4,0.3,0.3
2025-04-13T0800,3672A,116.1541,39.8204,北京市,丰台云岗,,29,14,120,9,26,90,,85,85,2,2,2,1,0.2,0.2
2025-04-13T0800,3673A,116.6804,39.9081,北京市,通州东关,,43,43,168,17,27,78,,75,75,2,2,4,4,0.5,0.5
2025-04-13T0800,3674A,115.9577,39.7603,北京市,房山燕山,,27,11,90,3,16,85,,80,80,1,2,4,4,0.3,0.3
2025-04-13T0800,3675A,116.4672,39.7733,北京市,大兴旧宫,,26,25,99,17,20,82,,73,73,1,4,3,3,0.1,0.2
2025-04-13T0800,3694A,115.986,40.4563,北京市,延庆石河营,,27,27,63,11,12,86,,82,82,2,3,5,4,0.3,0.3
2025-04-13T0800,3695A,116.6151,40.3053,北京市,怀柔新城,颗粒物(PM10),53,56,95,16,11,77,,75,75,2,2,1,1,0.5,0.4
2025-04-13T0800,3696A,116.2545,39.8768,北京市,丰台小屯,,25,18,103,3,23,78,,74,74,2,2,2,1,0.2,0.2
2025-04-13T0800,3697A,116.84,40.3844,北京市,密云镇,,37,37,115,7,9,80,,76,76,2,2,3,3,0.3,0.3
2025-04-13T0800,4182A,116.1942,39.9158,北京市,八角北路9号,,26,15,104,8,23,81,,79,79,2,2,4,3,0,0.1
2025-04-13T0800,4194A,117.0790,40.1518,北京市,洳河巡河路,,31,31,89,8,10,79,,76,76,3,3,1,1,0.2,0.2
2025-04-13T0800,1761A,123.8275,41.3064,本溪市,大峪,,45,,18,31,16,53,,54,54,17,14,4,4,0.6,0.5
2025-04-13T0800,1762A,123.7567,41.3325,本溪市,溪湖,,21,16,18,14,11,66,,62,62,9,13,6,7,0.5,0.7
2025-04-13T0800,1763A,123.7169,41.3094,本溪市,彩屯,,22,18,22,12,12,68,,64,64,9,16,7,10,0.6,0.9
2025-04-13T0800,1764A,123.7669,41.2864,本溪市,东明,,32,32,22,12,10,55,,52,52,13,14,5,6,0.8,0.9
2025-04-13T0800,1765A,123.7992,41.2664,本溪市,新立屯,,42,35,19,29,13,56,,58,58,20,17,7,7,0.9,0.6
2025-04-13T0800,1766A,123.8142,41.3472,本溪市,威宁,,28,28,17,14,10,59,,57,57,3,7,4,4,0.6,0.7
2025-04-13T0800,2587A,105.2864,27.3125,毕节市,八中,颗粒物(PM10),163,275,348,70,78,43,,47,47,11,8,10,5,0.3,0.3
2025-04-13T0800,2588A,105.31,27.2944,毕节市,师专,颗粒物(PM10),177,303,343,89,85,40,,49,49,12,9,8,9,0.4,0.3
2025-04-13T0800,4263A,105.3688,27.3598,毕节市,工业大道,颗粒物(PM10),196,341,374,88,87,23,,26,26,21,14,10,8,0.5,0.4
2025-04-13T0800,1629A,118.0018,37.3617,滨州市,第二水厂,,34,34,136,9,13,60,,63,63,13,8,13,10,0.1,0.1
2025-04-13T0800,1630A,117.9776,37.393,滨州市,北中新校,,31,31,75,19,21,65,,67,67,12,8,3,3,0.5,0.4
2025-04-13T0800,3514A,117.9378,37.3956,滨州市,中海酒店,,25,24,81,17,17,62,,66,66,11,6,9,6,0.5,0.4
2025-04-13T0800,3515A,117.9378,37.3553,滨州市,开发区一中,,45,44,96,31,14,60,,66,66,17,12,23,20,0.3,0.3
2025-04-13T0800,3516A,118.0917,37.694,滨州市,金海六路,细颗粒物(PM2.5),94,,136,70,16,58,,62,62,16,8,27,7,0.3,0.3
2025-04-13T0800,4028A,117.9956,37.3753,滨州市,滨州市西街道办事处,,34,34,103,17,24,69,,74,74,14,9,18,5,0.6,0.2
2025-04-13T0800,2311A,115.8072,33.8399,亳州市,污水处理厂,颗粒物(PM10),76,102,198,15,32,62,,63,63,19,13,4,2,0.3,0.2
2025-04-13T0800,2312A,115.7789,33.8518,亳州市,三国揽胜宫,颗粒物(PM10),67,84,226,11,27,58,,60,60,22,17,7,4,0.2,0
2025-04-13T0800,3332A,115.7633,33.8034,亳州市,亳州学院,颗粒物(PM10),72,94,189,10,25,59,,63,63,19,13,7,3,0.4,0.2
2025-04-13T0800,2693A,82.0485,44.8556,博尔塔拉蒙古自治州,市党校,,50,50,61,17,17,72,,76,76,17,26,3,3,0.3,0.3
2025-04-13T0800,2694A,82.0806,44.8969,博尔塔拉蒙古自治州,市环保局,颗粒物(PM10),54,57,79,13,15,60,,68,68,12,15,2,2,0.3,0.5
2025-04-13T0800,1071A,116.8842,38.2991,沧州市,沧县城建局,,34,34,98,9,24,48,,57,57,23,9,3,2,0.1,0
2025-04-13T0800,1072A,116.8584,38.3254,沧州市,电视转播站,,31,31,83,14,22,54,,62,62,19,10,3,2,0.3,0.2
2025-04-13T0800,1073A,116.8709,38.3228,沧州市,市环保局,,38,38,76,13,34,58,,62,62,15,8,5,3,0.3,0.3
2025-04-13T0800,3324A,116.8136,38.3004,沧州市,河北水利电力学院,,36,36,113,3,11,57,,67,67,22,10,6,4,0.2,0.2
2025-04-13T0800,2622A,97.1806,31.1273,昌都市,昌都监测站,,23,12,8,10,8,72,,70,70,2,3,2,2,0.2,0.2
2025-04-13T0800,3719A,97.1714,31.1406,昌都市,昌都会议中心,,22,12,11,10,9,70,,77,77,5,5,2,2,0.2,0.1
2025-04-13T0800,2690A,88.1236,43.8886,昌吉回族自治州,天山天池,,24,6,7,3,2,75,,78,78,4,5,4,5,0.4,0.5
2025-04-13T0800,2692A,87.2717,44.0297,昌吉回族自治州,新区政务中心,,36,36,39,10,6,78,,108,108,14,7,29,6,0.5,0.3
2025-04-13T0800,3613A,87.3095,44.0142,昌吉回族自治州,亚心广场,颗粒物(PM10),53,56,59,17,8,74,,104,104,16,9,19,7,0.5,0.3
2025-04-13T0800,1119A,125.3325,43.9166,长春市,食品厂,,12,10,20,8,19,38,,23,23,22,20,7,6,0.5,0.5
2025-04-13T0800,1120A,125.2863,43.9027,长春市,客车厂,,15,9,19,6,18,30,,23,23,30,21,5,5,0.6,0.5
2025-04-13T0800,1121A,125.2841,43.8463,长春市,邮电学院,,16,,21,9,24,51,,29,29,18,20,5,5,0.4,0.5
2025-04-13T0800,1122A,125.3716,43.8772,长春市,劳动公园,,,,25,6,19,37,,26,26,18,14,6,6,0.3,0.4
2025-04-13T0800,1123A,125.3297,43.8805,长春市,园林处,,16,6,18,3,14,50,,34,34,14,14,6,6,0.4,0.5
2025-04-13T0800,1124A,125.4605,43.79,长春市,净月潭,,15,6,19,3,15,48,,53,53,19,12,5,6,0.2,0.2
2025-04-13T0800,1125A,125.7194,43.515,长春市,甩湾子,,,,,,,,,,,,,,,,
2025-04-13T0800,1126A,125.3863,43.8447,长春市,经开区环卫处,,12,7,20,7,18,36,,25,25,20,14,5,6,0.4,0.4
2025-04-13T0800,1127A,125.245,43.7783,长春市,高新区管委会,,19,,19,13,20,57,,37,37,14,15,7,7,0.3,0.4
2025-04-13T0800,1128A,125.1761,43.8325,长春市,岱山公园,,16,,19,10,19,50,,22,22,16,22,3,5,0.4,0.5
2025-04-13T0800,1335A,113.0833,28.2325,长沙市,经开区环保局,颗粒物(PM10),124,198,411,63,66,12,,43,43,40,17,9,5,0.4,0.2
2025-04-13T0800,1336A,112.8872,28.2189,长沙市,高开区环保局,颗粒物(PM10),123,195,431,41,65,50,,41,41,21,15,4,4,0.5,0.5
2025-04-13T0800,1337A,113.0792,28.2053,长沙市,马坡岭,颗粒物(PM10),136,222,411,73,82,13,,32,32,28,17,4,4,0.5,0.2
2025-04-13T0800,1338A,112.9394,28.19,长沙市,湖南师范大学,颗粒物(PM10),123,196,410,49,73,37,,56,56,26,12,5,5,0.4,0.3
2025-04-13T0800,1339A,113.0178,28.1322,长沙市,雨花区环保局,颗粒物(PM10),127,203,404,52,80,44,,38,38,25,20,4,3,0.2,0.2
2025-04-13T0800,1340A,112.9792,28.2597,长沙市,伍家岭,颗粒物(PM10),118,185,420,49,70,6,,25,25,32,22,3,3,0.4,0.3
2025-04-13T0800,1341A,113.0014,28.1944,长沙市,火车新站,颗粒物(PM10),128,205,430,46,82,23,,42,42,47,21,6,6,0.4,0.3
2025-04-13T0800,1342A,112.9844,28.1178,长沙市,天心区环保局,颗粒物(PM10),129,207,389,58,73,50,,52,52,23,16,5,4,0.2,0.1
2025-04-13T0800,1343A,112.8908,28.1308,长沙市,湖南中医药大学,颗粒物(PM10),116,182,423,27,76,12,,14,14,36,22,3,3,0.3,0.2
2025-04-13T0800,1344A,112.9581,28.3611,长沙市,沙坪,颗粒物(PM10),122,193,325,44,94,31,,43,43,12,9,6,6,0.5,0.4
2025-04-13T0800,1727A,113.1147,36.1547,长治市,清华站,颗粒物(PM10),70,89,113,22,16,70,,69,69,12,7,5,4,0.6,0.6
2025-04-13T0800,1730A,113.0886,36.2125,长治市,审计局,颗粒物(PM10),65,79,85,24,14,71,,67,67,15,11,7,6,0.2,0.1
2025-04-13T0800,1731A,113.0844,36.1856,长治市,长治八中,颗粒物(PM10),74,97,108,27,29,72,,71,71,15,10,10,8,0.4,0.4
2025-04-13T0800,2845A,113.1569,36.1911,长治市,德盛苑,颗粒物(PM10),63,75,111,24,15,71,,74,74,12,7,5,3,0.3,0.3
2025-04-13T0800,3568A,113.06,36.0464,长治市,向阳小学,颗粒物(PM10),83,115,109,17,19,72,,72,72,17,8,8,7,0.2,0.1
2025-04-13T0800,3569A,112.8792,36.3144,长治市,屯留一中,颗粒物(PM10),79,108,79,23,10,76,,76,76,12,11,8,5,0.4,0.3
2025-04-13T0800,4189A,113.1131,36.19948,长治市,英华南巷50号,颗粒物(PM10),75,99,102,29,21,71,,69,69,12,8,4,3,0.5,0.4
2025-04-13T0800,4190A,113.2367,36.3344,长治市,学府街1号,颗粒物(PM10),78,106,127,26,22,76,,70,70,9,8,3,7,0.4,0.4
2025-04-13T0800,1854A,111.6975,28.9703,常德市,市二中,颗粒物(PM10),181,312,580,87,137,17,,22,22,11,17,5,5,0.5,0.4
2025-04-13T0800,1857A,111.7158,29.1456,常德市,白鹤山,,,,,,,,,,,,,,,,
2025-04-13T0800,3138A,111.7153,29.0289,常德市,武陵区永安,颗粒物(PM10),230,371,634,88,128,36,,51,51,16,12,4,5,0.5,0.4
2025-04-13T0800,3139A,111.6892,28.9881,常德市,鼎城区玉霞,颗粒物(PM10),177,304,600,91,124,18,,28,28,14,13,4,4,0.5,0.4
2025-04-13T0800,3140A,111.6625,29.0531,常德市,武陵区长庚,颗粒物(PM10),203,352,615,90,118,26,,44,44,14,9,6,8,0.5,0.4
2025-04-13T0800,1196A,119.9633,31.762,常州市,市监测站,颗粒物(PM10),78,106,221,29,52,70,,69,69,10,12,9,8,0.6,0.5
2025-04-13T0800,1200A,119.9468,31.7069,常州市,武进监测站,颗粒物(PM10),86,122,213,25,52,77,,74,74,19,18,9,8,0.3,0.2
2025-04-13T0800,1201A,119.9255,31.9087,常州市,安家,颗粒物(PM10),82,114,197,24,48,66,,62,62,16,15,9,8,0.7,0.5
2025-04-13T0800,3002A,119.9805,31.8174,常州市,行政中心,颗粒物(PM10),66,82,163,20,48,64,,66,66,25,17,15,14,0.5,0.4
2025-04-13T0800,3003A,120.0522,31.7748,常州市,经开区,颗粒物(PM10),103,156,244,19,50,74,,71,71,21,19,9,8,0.6,0.5
2025-04-13T0800,3010A,119.9025,31.7964,常州市,钟楼,颗粒物(PM10),81,111,199,16,48,68,,68,68,20,16,8,7,0.9,0.9
2025-04-13T0800,3429A,119.8598,31.7066,常州市,武进经发区,颗粒物(PM10),88,125,270,33,55,73,,70,70,17,15,10,8,0.7,0.6
2025-04-13T0800,3430A,119.5826,31.7245,常州市,金坛城区,颗粒物(PM10),76,101,274,43,53,75,,72,72,15,11,9,7,0.6,0.5
2025-04-13T0800,2220A,120.4318,41.5881,朝阳市,西梁,颗粒物(PM10),60,70,47,3,2,73,,78,78,5,6,10,11,0.3,0.3
2025-04-13T0800,2221A,120.4521,41.5646,朝阳市,河畔小区,颗粒物(PM10),54,58,41,7,7,74,,81,81,8,7,7,7,0.4,0.3
2025-04-13T0800,2222A,120.4176,41.5648,朝阳市,八里堡,颗粒物(PM10),60,70,44,9,9,72,,77,77,8,8,7,8,0.5,0.5
2025-04-13T0800,2223A,120.3806,41.5969,朝阳市,农业园区,颗粒物(PM10),59,67,46,8,7,77,,83,83,6,6,8,9,0.4,0.4
2025-04-13T0800,1705A,116.6367,23.6719,潮州市,西园路,,,,,,,,,,,,,,,,
2025-04-13T0800,3026A,116.6183,23.6608,潮州市,市政府,颗粒物(PM10),121,192,139,39,26,76,,82,82,8,12,4,4,0.5,0.7
2025-04-13T0800,4036A,116.6461,23.6761,潮州市,金山,颗粒物(PM10),111,172,122,37,25,74,,80,80,9,12,7,7,0.3,0.5
2025-04-13T0800,2472A,113.0073,25.9061,郴州市,马头岭,颗粒物(PM10),152,254,339,55,58,8,,9,9,12,12,7,8,0.7,0.7
2025-04-13T0800,2473A,113.0116,25.8226,郴州市,市职中,颗粒物(PM10),168,285,300,69,72,20,,22,22,16,13,3,2,0.5,0.4
2025-04-13T0800,2475A,113.0383,25.8071,郴州市,市审计局,颗粒物(PM10),160,270,286,68,72,23,,24,24,16,11,5,3,0.5,0.4
2025-04-13T0800,2476A,113.0348,25.7759,郴州市,市环保局,颗粒物(PM10),157,264,306,75,75,6,,9,9,18,13,4,4,0.4,0.3
2025-04-13T0800,4252A,113.0138,25.8011,郴州市,好美居路49号,颗粒物(PM10),136,222,252,79,79,11,,17,17,19,13,3,3,0.5,0.4
2025-04-13T0800,1431A,103.9728,30.7236,成都市,金泉两河,颗粒物(PM10),175,299,315,62,78,6,,18,18,27,20,2,2,0.9,0.7
2025-04-13T0800,1432A,104.176,30.6872,成都市,十里店,颗粒物(PM10),196,341,359,88,95,9,,26,26,34,22,4,3,0.7,0.6
2025-04-13T0800,1433A,104.079,30.5706,成都市,三瓦窑,颗粒物(PM10),213,359,367,80,95,11,,19,19,37,34,5,5,0.5,0.5
2025-04-13T0800,1434A,104.1114,30.63,成都市,沙河铺,颗粒物(PM10),168,285,314,91,97,9,,13,13,25,21,6,6,0.8,0.6
2025-04-13T0800,1437A,104.0786,30.6531,成都市,君平街,颗粒物(PM10),169,288,306,93,98,18,,30,30,37,25,8,7,0.7,0.6
2025-04-13T0800,1438A,103.613,31.0283,成都市,灵岩寺,,,,,,,,,,,,,,,,
2025-04-13T0800,2880A,104.0239,30.65639,成都市,大石西路,颗粒物(PM10),175,299,320,83,89,12,,22,22,34,25,6,4,0.6,0.5
2025-04-13T0800,3136A,104.2725,30.5589,成都市,龙泉驿区区政府,颗粒物(PM10),230,371,362,75,84,33,,44,44,19,17,4,4,0.6,0.5
2025-04-13T0800,3357A,104.0106,30.6931,成都市,金博路,颗粒物(PM10),164,277,313,62,78,4,,23,23,34,23,7,7,0.5,0.3
2025-04-13T0800,3359A,104.0578,30.5225,成都市,华阳,颗粒物(PM10),179,307,350,90,101,17,,29,29,30,25,7,6,0.8,0.7
2025-04-13T0800,3488A,104.3853,30.7453,成都市,青白江技师分院,颗粒物(PM10),186,321,342,88,101,12,,18,18,44,35,6,7,0.5,0.4
2025-04-13T0800,3489A,104.0789,30.4072,成都市,科学城,颗粒物(PM10),194,337,353,87,90,26,,23,23,16,18,4,4,0.3,0.3
2025-04-13T0800,4011A,103.8506,30.6947,成都市,光华大道三段,颗粒物(PM10),163,276,306,81,87,11,,28,28,26,19,1,1,0.7,0.6
2025-04-13T0800,4224A,104.2433,30.5353,成都市,鲸龙路1057号,颗粒物(PM10),255,388,374,89,94,13,,40,40,46,25,4,4,0.6,0.4
2025-04-13T0800,1062A,117.9531,40.9081,承德市,铁路,颗粒物(PM10),61,72,83,8,8,81,,78,78,1,3,7,6,0.2,0.2
2025-04-13T0800,1063A,117.9392,40.9763,承德市,中国银行,颗粒物(PM10),58,66,79,3,7,83,,81,81,2,2,4,3,0.2,0.1
2025-04-13T0800,1064A,117.9503,40.928,承德市,开发区,颗粒物(PM10),53,55,73,13,15,78,,77,77,3,4,8,6,0.2,0.2
2025-04-13T0800,1065A,117.8051,40.9655,承德市,文化中心,颗粒物(PM10),55,60,81,3,8,82,,80,80,2,2,4,4,0.2,0.2
2025-04-13T0800,1066A,117.9268,41.0026,承德市,离宫,,,,,,,,,,,,,,,,
2025-04-13T0800,2314A,117.47,30.6618,池州市,池州学院,颗粒物(PM10),73,96,282,36,73,70,,58,58,9,7,4,5,0.2,0.2
2025-04-13T0800,3237A,117.4918,30.6617,池州市,展览馆,颗粒物(PM10),72,93,280,28,68,61,,61,61,13,7,4,4,0.3,0.3
2025-04-13T0800,3333A,117.5627,30.695,池州市,第八中学,颗粒物(PM10),74,97,320,27,64,67,,65,65,7,4,4,4,0.5,0.4
2025-04-13T0800,3334A,117.5038,30.6243,池州市,第十二中学,颗粒物(PM10),83,115,296,46,63,40,,50,50,20,9,6,6,1.2,0.5
2025-04-13T0800,1744A,118.9233,42.2816,赤峰市,松山一中,颗粒物(PM10),58,66,55,7,4,84,,89,89,10,9,8,8,0.4,0.3
2025-04-13T0800,1745A,118.9576,42.2728,赤峰市,哈达街,颗粒物(PM10),65,80,50,3,5,76,,82,82,9,7,8,8,0.5,0.5
2025-04-13T0800,1746A,118.8788,42.2554,赤峰市,天义路,,35,35,34,12,9,79,,82,82,7,6,6,6,0.2,0.2
2025-04-13T0800,3058A,119.2658,42.0353,赤峰市,银河街,颗粒物(PM10),106,162,72,3,8,76,,82,82,6,5,13,12,0.3,0.3
2025-04-13T0800,3286A,118.9359,42.3147,赤峰市,桥北物流园区,颗粒物(PM10),52,53,26,13,5,71,,76,76,2,6,7,6,0.6,0.6
2025-04-13T0800,2521A,107.3476,22.4136,崇左市,市环保局江州分局,颗粒物(PM10),148,245,68,49,22,66,,67,67,13,8,6,6,0.3,0.5
2025-04-13T0800,4256A,107.3750,22.3736,崇左市,石景林东路7号,颗粒物(PM10),178,305,68,70,23,72,,65,65,16,11,5,5,0.5,0.7
2025-04-13T0800,2298A,118.3093,32.3153,滁州市,老年大学,颗粒物(PM10),66,81,302,22,59,88,,88,88,10,12,3,3,0.2,0.1
2025-04-13T0800,2299A,118.3244,32.2786,滁州市,人大宾馆,颗粒物(PM10),76,101,385,22,53,88,,84,84,6,8,8,7,0.3,0.3
2025-04-13T0800,3207A,118.3118,32.3038,滁州市,市政府原办公楼,颗粒物(PM10),67,84,319,19,58,88,,86,86,5,5,4,4,0.2,0.2
2025-04-13T0800,3331A,118.3267,32.2634,滁州市,图书馆,颗粒物(PM10),68,86,310,17,61,90,,84,84,8,7,8,7,0.3,0.3
2025-04-13T0800,2605A,101.5482,25.0441,楚雄彝族自治州,州环境监测站,颗粒物(PM10),53,55,41,19,21,71,,73,73,7,11,7,8,0.4,0.5
2025-04-13T0800,2606A,101.538,25.0492,楚雄彝族自治州,市经济开发区,颗粒物(PM10),54,58,43,15,13,66,,72,72,10,10,6,7,0.5,0.6
2025-04-13T0800,2548A,107.5277,31.2827,达州市,达州职业技术学院,颗粒物(PM10),164,277,422,85,115,7,,6,6,23,21,5,5,0.4,0.3
2025-04-13T0800,2549A,107.5086,31.2186,达州市,市环境监测站,颗粒物(PM10),185,320,443,88,105,5,,3,3,34,35,5,4,0.6,0.5
2025-04-13T0800,2550A,107.4988,31.2132,达州市,凤凰小区,颗粒物(PM10),230,371,477,95,111,14,,8,8,32,32,7,6,0.4,0.3
2025-04-13T0800,2551A,107.5082,31.1986,达州市,达县机关宾馆,颗粒物(PM10),233,373,509,100,128,5,,4,4,29,35,5,4,0.4,0.3
2025-04-13T0800,2552A,107.4644,31.2124,达州市,市政中心,,,,496,,112,,,85,,,29,,1,,0.4
2025-04-13T0800,2614A,100.1542,25.7054,大理白族自治州,大理市环境监测站,,26,,21,10,24,82,,74,74,5,10,7,7,0.6,0.7
2025-04-13T0800,2615A,100.2171,25.5811,大理白族自治州,大理古城,,24,12,28,12,24,75,,73,73,9,10,6,7,0.6,0.7
2025-04-13T0800,1109A,121.612,38.9741,大连市,甘井子,,30,30,46,3,10,90,,85,85,10,13,5,5,0.2,0.3
2025-04-13T0800,1110A,121.565,38.9511,大连市,周水子,,28,28,55,3,11,75,,72,72,7,9,6,5,0.2,0.2
2025-04-13T0800,1111A,121.5637,38.8845,大连市,星海三站,,28,28,44,3,10,84,,79,79,1,3,7,6,0.2,0.3
2025-04-13T0800,1112A,121.6302,38.9117,大连市,青泥洼桥,,27,24,40,3,11,86,,81,81,9,12,8,8,0.3,0.4
2025-04-13T0800,1113A,121.6251,38.8638,大连市,傅家庄,,30,30,46,3,10,81,,74,74,8,12,6,6,0.2,0.2
2025-04-13T0800,1114A,121.5213,38.8661,大连市,七贤岭,,25,20,41,3,9,80,,76,76,8,8,5,5,0,0.2
2025-04-13T0800,1115A,121.2529,38.8061,大连市,旅顺,,28,28,42,3,10,77,,78,78,10,11,8,7,0.4,0.4
2025-04-13T0800,1116A,121.7485,39.1311,大连市,金州,,27,21,36,3,10,84,,80,80,11,12,6,6,0.3,0.3
2025-04-13T0800,1117A,121.7811,39.0496,大连市,开发区,,29,29,46,3,12,74,,70,70,9,11,8,8,0.4,0.4
2025-04-13T0800,1118A,121.9762,39.0631,大连市,双D港,,28,24,39,3,11,87,,70,70,2,4,8,8,0.2,0.3
2025-04-13T0800,1789A,124.81117,46.03138,大庆市,大同区,,41,41,30,25,25,76,,92,92,12,13,5,5,0.6,0.6
2025-04-13T0800,1790A,125.129,46.533,大庆市,龙凤区,,45,45,33,20,18,103,,96,96,11,13,5,6,0.4,0.5
2025-04-13T0800,1791A,124.902,46.408,大庆市,红岗区,,35,32,25,23,22,112,,100,100,8,12,8,7,0.4,0.5
2025-04-13T0800,1792A,125.153,46.586,大庆市,萨尔图区,,32,31,35,17,19,101,,89,89,9,16,8,8,0.4,0.4
2025-04-13T0800,1793A,124.9042,46.6215,大庆市,让胡路区,,32,32,24,21,25,95,,77,77,10,13,5,5,0.3,0.4
2025-04-13T0800,3481A,125.141,46.634,大庆市,萨区政府监测点,,31,29,32,3,13,99,,85,85,6,11,6,6,0.4,0.5
2025-04-13T0800,1721A,113.3819,40.1097,大同市,果树场,,27,27,31,10,8,55,,56,56,17,8,9,8,0.8,0.4
2025-04-13T0800,1723A,113.2994,40.0758,大同市,云冈宾馆,,,16,23,3,17,69,,78,78,15,6,,8,0.2,0.1
2025-04-13T0800,1724A,113.3444,40.0917,大同市,大同大学,,21,13,27,3,9,66,,56,56,9,8,8,8,0.4,0.4
2025-04-13T0800,1725A,113.2661,40.1269,大同市,安家小村,,19,16,27,3,6,58,,73,73,16,4,10,10,0.4,0.3
2025-04-13T0800,1726A,113.2711,40.0844,大同市,教育学院,,24,24,23,6,8,64,,75,75,14,7,8,8,0.4,0.4
2025-04-13T0800,3282A,113.3397,40.0597,大同市,大同市卫生学校,,20,15,22,3,7,64,,68,68,13,7,6,6,0.4,0.4
2025-04-13T0800,3565A,113.1367,40.1122,大同市,云冈站,,18,11,23,9,6,57,,66,66,16,7,10,9,0.4,0.3
2025-04-13T0800,3566A,113.1186,40.2556,大同市,图书馆,,15,12,28,8,14,46,,61,61,21,5,11,9,0.9,0.8
2025-04-13T0800,3567A,113.5931,40.0461,大同市,区一中,,27,27,31,18,6,47,,67,67,17,4,20,14,0.5,0.3
2025-04-13T0800,4199A,113.2798,40.0997,大同市,魏都大道141号,,22,22,32,12,10,66,,72,72,15,8,11,12,0.4,0.3
2025-04-13T0800,2269A,124.1069,50.4097,大兴安岭地区,科技局,,26,24,19,10,16,81,,81,81,3,4,2,2,0.2,0.2
2025-04-13T0800,3663A,124.1164,50.4278,大兴安岭地区,红旗社区,,26,6,4,3,4,82,,81,81,2,2,4,4,0.2,0.2
2025-04-13T0800,1600A,124.3303,40.0625,丹东市,江湾东路,,26,,25,18,14,65,,73,73,15,11,9,7,0.3,0.3
2025-04-13T0800,1601A,124.4256,40.1503,丹东市,临江后街,,22,22,24,15,11,58,,79,79,15,7,5,4,0.6,0.5
2025-04-13T0800,1602A,124.3933,40.1461,丹东市,元宝山,,19,18,22,13,14,58,,74,74,11,10,6,6,0.4,0.3
2025-04-13T0800,1603A,124.3633,40.1092,丹东市,民主桥,,22,19,28,15,13,56,,74,74,21,10,8,8,0.8,0.7
2025-04-13T0800,3541A,109.5726,19.5167,儋州市,第一中学子站,颗粒物(PM10),197,343,87,80,41,68,,67,67,8,6,5,5,0.3,0.4
2025-04-13T0800,3542A,109.5567,19.5187,儋州市,东坡学校子站,颗粒物(PM10),162,273,72,84,28,68,,69,69,7,6,6,5,0.4,0.4
2025-04-13T0800,2616A,98.5842,24.428,德宏傣族景颇族自治州,德宏州监测站,,31,31,42,17,26,4,,8,8,27,23,7,8,0,0.4
2025-04-13T0800,3677A,98.5881,24.4368,德宏傣族景颇族自治州,芒市人民政府综合楼,,42,42,53,24,29,5,,10,10,14,15,6,6,0.8,0.7
2025-04-13T0800,1901A,104.4239,31.1208,德阳市,东山公园,颗粒物(PM10),270,399,356,101,98,38,,38,38,23,19,4,3,0.5,0.4
2025-04-13T0800,1902A,104.3826,31.1317,德阳市,西小区,颗粒物(PM10),243,380,343,107,102,14,,19,19,45,25,5,4,0.7,0.5
2025-04-13T0800,1904A,104.3553,31.1091,德阳市,耐火材料厂,颗粒物(PM10),250,385,340,100,97,16,,12,12,46,26,9,6,0.6,0.4
2025-04-13T0800,3639A,104.4019,31.1244,德阳市,市教育局,颗粒物(PM10),199,348,322,100,100,24,,29,29,35,21,5,4,0.7,0.6
2025-04-13T0800,1622A,116.3032,37.4674,德州市,儿童乐园,,44,44,148,12,17,63,,66,66,13,8,6,5,0.4,0.3
2025-04-13T0800,1624A,116.2991,37.4451,德州市,监理站,,41,41,138,14,32,58,,66,66,18,12,8,15,0.3,0.3
2025-04-13T0800,3066A,116.2721,37.4379,德州市,九衢泉纯净水厂,,49,41,135,34,31,54,,60,60,17,13,8,19,0.4,0.5
2025-04-13T0800,3371A,116.3728,37.4403,德州市,开发区人民医院,,44,44,122,17,20,57,,63,63,14,8,6,8,0.6,0.5
2025-04-13T0800,3372A,116.3572,37.4094,德州市,太阳城中学,,44,44,137,19,26,51,,61,61,20,8,6,5,0.5,0.6
2025-04-13T0800,3511A,116.5652,37.3319,德州市,陵城艺术中心,,,44,125,,12,51,,62,62,18,8,3,2,0.5,0.5
2025-04-13T0800,2621A,99.7056,27.8317,迪庆藏族自治州,迪庆州站,,39,39,21,15,12,59,,82,82,13,9,14,9,0.6,0.5
2025-04-13T0800,3180A,99.7136,27.8094,迪庆藏族自治州,质量技术监督局,,24,15,15,7,8,74,,90,90,10,9,10,9,0.6,0.6
2025-04-13T0800,4257A,104.6092,35.5962,定西市,将台街,颗粒物(PM10),120,190,413,48,93,11,,12,12,30,24,6,6,0.2,0.2
2025-04-13T0800,4309A,104.6159,35.5701,定西市,正龙路62号,颗粒物(PM10),135,219,442,64,89,32,,41,41,12,9,12,10,0.2,0.3
2025-04-13T0800,1389A,113.7547,23.0494,东莞市,莞城梨川,颗粒物(PM10),308,426,187,81,44,77,,78,78,11,12,4,5,0.3,0.4
2025-04-13T0800,1390A,113.7944,23.0128,东莞市,东城石井,颗粒物(PM10),202,351,165,95,47,79,,79,79,15,14,7,5,0.4,0.5
2025-04-13T0800,1391A,113.7383,22.9658,东莞市,南城西平,颗粒物(PM10),245,381,168,76,38,65,,76,76,26,15,6,6,0.4,0.5
2025-04-13T0800,3319A,113.7338,23.0381,东莞市,万江金泰,颗粒物(PM10),226,368,157,84,42,78,,80,80,6,7,4,5,0.6,0.8
2025-04-13T0800,3626A,113.7533,23.0202,东莞市,南城元岭,颗粒物(PM10),273,401,169,79,41,74,,77,77,10,9,6,6,0.4,0.6
2025-04-13T0800,3627A,113.7875,23.0457,东莞市,东城主山,颗粒物(PM10),250,385,167,88,42,72,,77,77,25,19,3,3,0.4,0.5
2025-04-13T0800,1666A,118.6614,37.4309,东营市,市环保局,,31,31,104,7,20,76,,75,75,7,6,7,4,0.4,0.3
2025-04-13T0800,3036A,118.6904,37.4338,东营市,开发区管委会,,38,38,137,12,15,67,,66,66,11,17,5,3,0.6,0.5
2025-04-13T0800,3365A,118.5719,37.565,东营市,垦利区民丰路,,39,39,109,9,15,70,,66,66,8,6,4,4,1.2,1.1
2025-04-13T0800,3498A,118.5055,37.8612,东营市,河口城区,,34,34,136,10,18,69,,64,64,13,12,5,4,0.8,0.7
2025-04-13T0800,3646A,118.4978,37.4623,东营市,胜利站,,32,32,96,12,9,59,,66,66,22,13,9,7,0.5,0.5
2025-04-13T0800,3734A,118.35,37.26,东营市,理想之城,细颗粒物(PM2.5),73,,105,53,14,64,,65,65,12,9,7,5,0.3,0.3
2025-04-13T0800,1591A,110.0023,39.8129,鄂尔多斯市,综合楼,颗粒物(PM10),71,92,124,14,13,69,,80,80,16,9,5,4,0.2,0.1
2025-04-13T0800,1592A,109.9486,39.8261,鄂尔多斯市,巴音孟克林场办事处,颗粒物(PM10),65,80,98,22,20,69,,78,78,15,8,6,6,0.2,0.2
2025-04-13T0800,1593A,109.7736,39.5986,鄂尔多斯市,康泽苑,"颗粒物(PM10),细颗粒物(PM2.5)",62,73,76,44,34,79,,73,73,6,5,4,4,0.2,0.2
2025-04-13T0800,1594A,109.8119,39.5989,鄂尔多斯市,华泰汽车城,颗粒物(PM10),60,70,72,14,14,76,,69,69,8,7,3,3,0.3,0.3
2025-04-13T0800,1595A,109.9734,39.7884,鄂尔多斯市,奥林花园,颗粒物(PM10),68,85,100,31,20,72,,78,78,14,10,5,5,0.3,0.3
2025-04-13T0800,2436A,114.8938,30.3994,鄂州市,市政府,颗粒物(PM10),92,134,286,52,56,35,,48,48,28,10,8,5,0.4,0.3
2025-04-13T0800,2437A,114.8989,30.3714,鄂州市,赵家坝,颗粒物(PM10),87,124,321,31,54,38,,40,40,40,17,4,3,0.6,0.4
2025-04-13T0800,3654A,114.8094,30.4089,鄂州市,精准医疗中心,颗粒物(PM10),96,141,290,38,58,51,,70,70,40,13,12,5,1.0,0.4
2025-04-13T0800,2454A,109.4978,30.2981,恩施土家族苗族自治州,湖北民院,,48,33,141,33,56,27,,30,30,13,10,6,6,0.1,0.1
2025-04-13T0800,2455A,109.4707,30.2798,恩施土家族苗族自治州,州电力总公司,颗粒物(PM10),119,187,260,63,75,10,,11,11,22,15,5,4,0.4,0.3
2025-04-13T0800,3549A,109.5061,30.3772,恩施土家族苗族自治州,龙凤新区,颗粒物(PM10),107,163,237,54,62,10,,13,13,10,9,6,6,0.4,0.3
2025-04-13T0800,2499A,108.3411,21.6158,防城港市,沙万,颗粒物(PM10),60,70,52,16,16,68,,70,70,6,6,3,3,0.2,0.3
2025-04-13T0800,2500A,108.3514,21.7731,防城港市,防城档案局,颗粒物(PM10),83,115,70,25,21,63,,64,64,11,8,1,2,0.3,0.3
2025-04-13T0800,2501A,108.3506,21.6414,防城港市,大海花园,颗粒物(PM10),66,82,56,17,14,72,,75,75,7,6,2,2,0.3,0.3
2025-04-13T0800,1371A,113.1294,23.0067,佛山市,湾梁,颗粒物(PM10),269,398,169,62,29,69,,65,65,17,18,8,7,0.5,0.5
2025-04-13T0800,1372A,113.1083,23.0478,佛山市,华材职中,颗粒物(PM10),300,420,178,65,35,55,,52,52,26,22,8,7,0.4,0.5
2025-04-13T0800,1373A,113.144,23.0453,佛山市,南海气象局,颗粒物(PM10),230,371,156,66,33,61,,59,59,18,17,7,6,0.4,0.5
2025-04-13T0800,1374A,113.2881,22.8094,佛山市,顺德苏岗,颗粒物(PM10),295,416,167,90,42,61,,58,58,18,17,6,6,0.3,0.5
2025-04-13T0800,1376A,112.8383,22.8678,佛山市,高明孔堂,颗粒物(PM10),249,384,200,68,40,53,,55,55,25,16,12,7,0.4,0.5
2025-04-13T0800,1377A,112.8836,23.1588,佛山市,三水监测站,颗粒物(PM10),269,398,251,72,46,48,,50,50,26,20,7,4,0.3,0.3
2025-04-13T0800,1378A,112.867,23.185,佛山市,三水云东海,颗粒物(PM10),173,295,207,80,53,33,,42,42,30,23,7,4,0.4,0.5
2025-04-13T0800,3625A,113.2544,22.7642,佛山市,容桂街道办,颗粒物(PM10),334,447,175,95,44,57,,59,59,27,21,6,6,0.4,0.5
2025-04-13T0800,1280A,119.3903,26.0543,福州市,鼓山,,,,49,,15,,,52,,,6,,3,,0.2
2025-04-13T0800,1282A,119.2681,26.0504,福州市,师大,颗粒物(PM10),130,209,95,57,27,78,,87,87,10,9,3,3,0.2,0.3
2025-04-13T0800,1283A,119.2984,26.1028,福州市,五四北路,颗粒物(PM10),117,184,89,51,28,77,,80,80,8,14,3,3,0.4,0.5
2025-04-13T0800,1284A,119.2648,26.0768,福州市,杨桥西路,颗粒物(PM10),147,244,109,50,28,81,,84,84,6,12,3,3,0.2,0.3
2025-04-13T0800,1285A,119.317,26.0746,福州市,紫阳,颗粒物(PM10),136,221,105,51,29,81,,82,82,11,18,5,4,0.2,0.3
2025-04-13T0800,3048A,119.5799,26.0936,福州市,九龙,颗粒物(PM10),106,161,76,42,17,65,,80,80,15,10,4,3,0.2,0.3
2025-04-13T0800,3526A,119.5189,25.9664,福州市,吴航,颗粒物(PM10),109,167,58,53,23,68,,69,69,16,11,4,3,0.2,0.3
2025-04-13T0800,1755A,123.7977,41.8491,抚顺市,望花区,,21,,16,12,10,66,,68,68,16,17,8,10,0.4,0.4
2025-04-13T0800,1756A,123.9161,41.8822,抚顺市,顺城区,,20,13,13,13,10,62,,65,65,16,16,7,7,0.5,0.6
2025-04-13T0800,1757A,124.0436,41.8611,抚顺市,东洲区,,23,16,19,16,12,58,,60,60,14,12,6,5,0.5,0.6
2025-04-13T0800,1758A,123.9247,41.8642,抚顺市,新抚区,,20,,16,14,9,60,,62,62,13,13,6,6,0.6,0.6
2025-04-13T0800,1759A,124.0972,41.8961,抚顺市,大伙房水库,,20,14,16,13,12,61,,62,62,9,8,7,7,0.5,0.6
2025-04-13T0800,1760A,123.7086,41.8391,抚顺市,沈抚新城,,22,,10,8,6,70,,68,68,11,16,5,6,0.5,0.6
2025-04-13T0800,2376A,116.2127,28.0814,抚州市,桐源党溪,颗粒物(PM10),142,233,297,46,64,19,,14,14,5,4,6,5,0.6,0.5
2025-04-13T0800,2377A,116.3544,27.9831,抚州市,市站,颗粒物(PM10),170,290,370,54,71,40,,33,33,11,9,10,7,1.0,0.8
2025-04-13T0800,2378A,116.3565,27.963,抚州市,血防站,颗粒物(PM10),159,268,326,49,66,40,,30,30,6,7,7,4,0.9,0.7
2025-04-13T0800,2379A,116.3564,28.0007,抚州市,采茶剧团,颗粒物(PM10),177,303,370,53,72,37,,35,35,6,5,2,3,1.4,1.2
2025-04-13T0800,2380A,116.385,27.9647,抚州市,医学分院,颗粒物(PM10),163,276,335,51,68,36,,37,37,13,9,3,4,0.4,0.4
2025-04-13T0800,2207A,121.6094,41.998,阜新市,工业园区,,22,22,31,10,2,67,,73,73,12,8,6,7,0.2,0.2
2025-04-13T0800,2208A,121.6697,42.0279,阜新市,长青街,,22,12,22,11,9,70,,74,74,10,6,4,4,0.4,0.3
2025-04-13T0800,2209A,121.6673,42.0705,阜新市,农业园区,,22,18,28,3,7,68,,70,70,6,5,6,6,0.5,0.4
2025-04-13T0800,2210A,121.6717,42.0224,阜新市,东苑,,21,21,29,7,6,65,,69,69,10,7,5,5,0.5,0.5
2025-04-13T0800,2211A,121.6506,42.0498,阜新市,玉龙新城,,23,15,32,3,6,73,,70,70,8,7,7,7,0.4,0.4
2025-04-13T0800,2301A,115.8277,32.8929,阜阳市,市监测站,颗粒物(PM10),85,120,156,35,37,72,,77,77,10,8,6,6,0.2,0.1
2025-04-13T0800,2303A,115.8554,32.8605,阜阳市,开发区,颗粒物(PM10),96,141,227,21,29,69,,72,72,15,11,6,5,0.4,0.4
2025-04-13T0800,2875A,115.784,32.8892,阜阳市,阜阳职业技术学院,颗粒物(PM10),87,123,207,20,30,69,,73,73,11,8,7,7,0.2,0.1
2025-04-13T0800,3468A,115.7901,32.8613,阜阳市,市规划展馆,颗粒物(PM10),88,126,194,27,32,72,,73,73,9,5,5,5,0.6,0.4
2025-04-13T0800,3469A,115.836,32.9183,阜阳市,枣园社区,颗粒物(PM10),83,116,185,32,37,77,,81,81,14,12,5,4,0.3,0.2
2025-04-13T0800,2669A,102.9099,34.9841,甘南藏族自治州,州政府,颗粒物(PM10),71,91,62,30,24,18,,12,12,31,26,6,7,0.5,0.4
2025-04-13T0800,3380A,102.8914,34.9617,甘南藏族自治州,甘肃民族师范学院,颗粒物(PM10),59,68,68,14,20,9,,4,4,33,31,8,9,0.5,0.5
2025-04-13T0800,2570A,101.9603,30.0475,甘孜藏族自治州,水桥子,,15,6,5,3,5,48,,62,62,13,9,4,4,0.1,0
2025-04-13T0800,3065A,101.9533,29.9972,甘孜藏族自治州,州环保局,,15,13,9,3,5,48,,70,70,22,13,1,1,0.1,0.1
2025-04-13T0800,3414A,115.8347,28.932,赣江新区,桑海产业园,颗粒物(PM10),173,295,499,57,82,3,,17,17,36,19,6,5,0.2,0.2
2025-04-13T0800,2362A,114.9017,25.9149,赣州市,通天岩,颗粒物(PM10),123,195,182,19,16,41,,40,40,4,3,16,13,1.1,1
2025-04-13T0800,2363A,114.9367,25.8664,赣州市,地委,颗粒物(PM10),153,255,208,60,47,29,,38,38,10,7,15,2,0.8,0.9
2025-04-13T0800,2364A,114.9461,25.8481,赣州市,气象台,颗粒物(PM10),146,241,223,50,44,36,,54,54,21,13,42,12,0.4,0.5
2025-04-13T0800,2365A,114.9322,25.8333,赣州市,市图书馆,颗粒物(PM10),168,286,265,53,50,49,,64,64,14,9,40,6,0.3,0.4
2025-04-13T0800,2366A,114.8905,25.8471,赣州市,华坚鞋城,颗粒物(PM10),198,346,304,59,54,51,,61,61,14,10,9,8,0.2,0.2
2025-04-13T0800,3109A,115.0093,25.8613,赣州市,赣县区卫计委,颗粒物(PM10),145,240,203,57,51,36,,39,39,10,6,25,5,0.2,0.2
2025-04-13T0800,2683A,106.2319,36.1417,固原市,马园,"颗粒物(PM10),细颗粒物(PM2.5)",77,104,262,56,56,17,,44,44,46,16,6,4,1.0,0.7
2025-04-13T0800,2684A,106.2792,36.0022,固原市,监测站,颗粒物(PM10),71,92,227,23,49,89,,90,90,6,5,3,3,0.2,0.3
2025-04-13T0800,2685A,106.2375,36.0211,固原市,新区,颗粒物(PM10),66,81,219,26,54,85,,88,88,9,6,5,5,0.3,0.4
2025-04-13T0800,3522A,106.2177,35.9959,固原市,原州区十五小,颗粒物(PM10),70,89,223,23,58,81,,84,84,8,6,6,5,0.2,0.2
2025-04-13T0800,2543A,106.6308,30.5278,广安市,小平旧居,,,,,,,,,,,,,,,,
2025-04-13T0800,2544A,106.6303,30.4576,广安市,市委,颗粒物(PM10),322,437,668,116,158,30,,47,47,32,13,14,6,0.4,0.3
2025-04-13T0800,2545A,106.6271,30.4663,广安市,友谊中学,颗粒物(PM10),268,397,570,111,148,32,,43,43,31,16,14,4,0.3,0.1
2025-04-13T0800,2547A,106.6388,30.4551,广安市,广电花园,颗粒物(PM10),252,386,581,112,152,21,,40,40,34,18,10,4,0.5,0.3
2025-04-13T0800,2902A,106.6351,30.4865,广安市,北辰小学,颗粒物(PM10),286,410,686,110,150,27,,43,43,27,13,13,7,0.5,0.3
2025-04-13T0800,2523A,105.8945,32.4535,广元市,黑石坡,颗粒物(PM10),179,307,794,73,194,33,,58,58,21,6,5,2,0.4,0.3
2025-04-13T0800,2524A,105.821,32.4444,广元市,老城,颗粒物(PM10),223,366,866,112,218,7,,9,9,37,25,1,1,0.7,0.4
2025-04-13T0800,2526A,105.8628,32.4287,广元市,监测站,颗粒物(PM10),104,158,684,64,185,39,,50,50,15,8,6,6,0.4,0.3
2025-04-13T0800,3617A,105.8047,32.4166,广元市,经开区,颗粒物(PM10),146,241,887,88,255,9,,14,14,41,29,5,3,0.6,0.3
2025-04-13T0800,1345A,113.2347,23.1423,广州市,广雅中学,颗粒物(PM10),345,456,196,94,48,62,,55,55,23,24,5,4,0.2,0.4
2025-04-13T0800,1346A,113.2612,23.105,广州市,市五中,颗粒物(PM10),295,416,168,106,50,64,,60,60,16,16,3,2,0.5,0.6
2025-04-13T0800,1348A,113.3478,23.0916,广州市,广东商学院,颗粒物(PM10),309,427,172,100,46,73,,71,71,14,17,5,4,0.2,0.4
2025-04-13T0800,1349A,113.4332,23.1047,广州市,市八十六中,颗粒物(PM10),309,427,186,95,49,67,,68,68,16,20,3,3,0.6,0.7
2025-04-13T0800,1350A,113.3505,22.9483,广州市,番禺中学,颗粒物(PM10),364,471,183,80,35,67,,66,66,22,18,4,4,0.3,0.4
2025-04-13T0800,1351A,113.2146,23.3916,广州市,花都师范,颗粒物(PM10),266,396,169,79,36,64,,59,59,18,15,8,5,0.3,0.5
2025-04-13T0800,1352A,113.2597,23.1331,广州市,市监测站,颗粒物(PM10),354,463,183,93,44,58,,54,54,21,20,6,5,0.4,0.4
2025-04-13T0800,1353A,113.5618,23.312,广州市,九龙镇镇龙,颗粒物(PM10),304,423,185,86,41,63,,69,69,12,15,4,4,0.4,0.4
2025-04-13T0800,1354A,113.2765,23.1544,广州市,麓湖,颗粒物(PM10),322,437,180,94,44,66,,59,59,20,18,5,4,0.2,0.4
2025-04-13T0800,1355A,113.443,23.3035,广州市,帽峰山森林公园,颗粒物(PM10),239,377,195,84,57,67,,70,70,11,11,6,4,0.2,0.4
2025-04-13T0800,2846A,113.3221,23.1322,广州市,体育西,颗粒物(PM10),191,332,166,88,47,69,,65,65,10,13,5,4,0.4,0.4
2025-04-13T0800,3298A,113.5717,23.5491,广州市,从化街口,颗粒物(PM10),337,449,208,90,47,83,,79,79,7,10,8,8,0.5,0.6
2025-04-13T0800,3299A,113.3472,23.3692,广州市,白云竹料,颗粒物(PM10),345,456,193,98,48,86,,82,82,9,11,8,7,0.3,0.4
2025-04-13T0800,3300A,113.2981,23.237,广州市,白云嘉禾,颗粒物(PM10),323,438,182,79,40,63,,60,60,24,21,6,5,0.2,0.5
2025-04-13T0800,3301A,113.4256,23.1716,广州市,黄埔科学城,颗粒物(PM10),318,434,183,99,47,73,,76,76,8,12,8,7,0.2,0.3
2025-04-13T0800,3302A,113.3942,23.0483,广州市,番禺大学城,颗粒物(PM10),200,350,136,93,45,66,,68,68,30,22,5,6,0.3,0.4
2025-04-13T0800,3303A,113.4922,22.8168,广州市,南沙黄阁,颗粒物(PM10),348,458,173,92,40,69,,60,60,24,20,8,5,0.5,0.7
2025-04-13T0800,3304A,113.5342,22.7896,广州市,南沙街,颗粒物(PM10),320,436,169,91,41,72,,61,61,21,18,7,5,0.4,0.5
2025-04-13T0800,3443A,113.2902,23.5544,广州市,花都梯面,颗粒物(PM10),295,416,179,89,45,68,,57,57,12,16,6,6,0.5,0.7
2025-04-13T0800,3445A,113.7858,23.7478,广州市,从化良口,颗粒物(PM10),368,474,238,102,53,81,,83,83,5,6,7,7,0.3,0.4
2025-04-13T0800,3446A,113.8051,23.2614,广州市,增城荔城,颗粒物(PM10),295,416,183,82,45,79,,81,81,9,11,8,7,0.1,0.2
2025-04-13T0800,2505A,109.568,23.1478,贵港市,德智高中,,,,,,,,,,,,,,,,
2025-04-13T0800,2506A,109.6047,23.0666,贵港市,江南子站,颗粒物(PM10),272,400,267,83,52,68,,81,81,20,11,2,2,0.5,0.5
2025-04-13T0800,2508A,109.5669,23.1065,贵港市,荷城子站,颗粒物(PM10),239,377,222,85,58,75,,77,77,10,10,4,4,0.3,0.3
2025-04-13T0800,3405A,109.5886,23.1172,贵港市,新世纪学校,颗粒物(PM10),269,398,252,91,62,77,,78,78,10,11,5,5,0.5,0.6
2025-04-13T0800,4260A,109.5933,23.0951,贵港市,中山路155-3号,颗粒物(PM10),206,354,227,84,54,83,,84,84,12,10,6,6,0.7,0.7
2025-04-13T0800,1439A,106.6899,26.5998,贵阳市,马鞍山,颗粒物(PM10),169,288,277,70,62,25,,41,41,10,8,3,4,0.2,0.2
2025-04-13T0800,1441A,106.6243,26.6266,贵阳市,鉴湖路,颗粒物(PM10),355,464,347,90,71,46,,58,58,15,7,11,10,0.3,0.2
2025-04-13T0800,1442A,106.7487,26.6343,贵阳市,燕子冲,颗粒物(PM10),255,388,315,97,79,34,,47,47,16,12,5,4,0.2,0.1
2025-04-13T0800,1443A,106.6555,26.4365,贵阳市,碧云窝,颗粒物(PM10),300,420,373,85,77,40,,62,62,15,10,5,5,0.3,0.3
2025-04-13T0800,1445A,106.7109,26.6027,贵阳市,红边门,颗粒物(PM10),388,490,360,107,76,46,,60,60,26,14,19,5,0.1,0
2025-04-13T0800,1446A,106.7164,26.5699,贵阳市,新华路,颗粒物(PM10),394,495,375,107,74,50,,62,62,16,10,13,4,0.4,0.2
2025-04-13T0800,1447A,106.674,26.5424,贵阳市,太慈桥,颗粒物(PM10),195,339,330,78,73,34,,53,53,15,12,4,5,0.3,0.3
2025-04-13T0800,1552A,106.805,26.3003,贵阳市,桐木岭,颗粒物(PM10),500,664,382,136,85,88,,79,79,1,3,1,1,0.4,0.5
2025-04-13T0800,4230A,106.6882,26.5695,贵阳市,花果园大街66号,颗粒物(PM10),388,490,365,115,80,52,,60,60,14,10,9,4,0.2,0.2
2025-04-13T0800,4231A,106.6873,26.5169,贵阳市,漓江路57号,颗粒物(PM10),293,415,353,102,85,33,,62,62,27,10,10,9,0.4,0.3
2025-04-13T0800,1862A,110.4144,25.3167,桂林市,电子科大尧山校区,,,,,,,,,,,,,,,,
2025-04-13T0800,1864A,110.3089,25.2708,桂林市,龙隐路小学,颗粒物(PM10),360,468,347,111,72,63,,65,65,11,7,24,19,0.1,0.3
2025-04-13T0800,1865A,110.2869,25.2178,桂林市,八中,颗粒物(PM10),389,491,430,65,62,43,,52,52,26,16,21,15,0.7,0.7
2025-04-13T0800,3531A,110.296,25.1253,桂林市,旅游学院,颗粒物(PM10),300,420,353,102,89,27,,41,41,30,15,4,5,0.6,0.4
2025-04-13T0800,4222A,110.1835,25.2444,桂林市,环湖路276号,颗粒物(PM10),410,510,376,122,93,42,,51,51,20,14,9,6,0.4,0.3
2025-04-13T0800,4301A,110.2803,25.2773,桂林市,信义路13号,颗粒物(PM10),385,488,358,127,75,56,,68,68,18,10,23,10,0.3,0.3
2025-04-13T0800,2674A,100.2561,34.4714,果洛藏族自治州,玛沁县大武镇,,32,32,30,7,13,41,,49,49,4,3,12,12,0.4,0.4
2025-04-13T0800,1129A,126.5422,45.755,哈尔滨市,岭北,,36,34,41,16,32,113,,107,107,17,21,13,15,0.9,0.9
2025-04-13T0800,1130A,126.561,45.8167,哈尔滨市,松北商大,,40,40,34,17,24,108,,104,104,7,15,9,11,0.7,0.7
2025-04-13T0800,1131A,126.979,45.5419,哈尔滨市,阿城会宁,,48,48,55,15,33,114,,106,106,13,16,5,7,0.4,0.5
2025-04-13T0800,1132A,126.599,45.7222,哈尔滨市,南岗学府路,,48,48,59,12,28,108,,102,102,16,19,8,9,0.8,0.8
2025-04-13T0800,1133A,126.689,45.7733,哈尔滨市,太平宏伟公园,颗粒物(PM10),55,59,58,26,33,94,,94,94,9,11,6,6,0.6,0.6
2025-04-13T0800,1134A,126.635,45.7667,哈尔滨市,道外承德广场,,47,47,52,31,35,89,,92,92,20,23,6,9,0.6,0.5
2025-04-13T0800,1135A,126.685,45.7319,哈尔滨市,香坊红旗大街,颗粒物(PM10),60,70,55,18,29,108,,102,102,17,24,8,11,0.5,0.5
2025-04-13T0800,1136A,126.6411,45.7258,哈尔滨市,动力和平路,颗粒物(PM10),85,119,64,14,28,97,,97,97,19,20,10,11,0.5,0.6
2025-04-13T0800,1137A,126.593,45.7478,哈尔滨市,道里建国路,,36,36,49,16,32,108,,101,101,17,22,7,12,0.6,0.7
2025-04-13T0800,1138A,126.615,45.61,哈尔滨市,平房东轻厂,,25,23,51,17,38,79,,85,85,40,20,8,10,0.5,0.5
2025-04-13T0800,1139A,126.595,45.9855,哈尔滨市,呼兰师专,颗粒物(PM10),70,90,54,14,31,95,,98,98,15,17,6,8,0.5,0.5
2025-04-13T0800,1140A,126.6206,45.6842,哈尔滨市,省农科院,,38,38,63,17,37,116,,100,100,10,24,9,11,0.6,0.6
2025-04-13T0800,2688A,93.5128,42.8172,哈密市,地区监测站,颗粒物(PM10),53,55,61,16,21,59,,41,41,16,22,3,6,0.2,0.3
2025-04-13T0800,2689A,93.4961,42.8328,哈密市,哈密师范学校,颗粒物(PM10),77,104,58,19,15,47,,32,32,49,44,5,5,0.7,0.6
2025-04-13T0800,2671A,100.9048,36.9639,海北藏族自治州,海晏县西海镇,,16,15,12,10,9,51,,50,50,7,3,7,7,0.5,0.4
2025-04-13T0800,3867A,102.0738,36.5056,海东市,平安区公安北苑,颗粒物(PM10),63,75,54,32,18,29,,48,48,31,11,9,4,0.8,0.6
2025-04-13T0800,1409A,110.576,19.9507,海口市,东寨港,颗粒物(PM10),148,246,79,19,16,55,,58,58,6,5,9,7,0.4,0.4
2025-04-13T0800,1410A,110.3232,20.0574,海口市,海南大学,颗粒物(PM10),150,249,105,37,32,58,,61,61,9,10,4,3,0.4,0.5
2025-04-13T0800,1411A,110.283,20.0053,海口市,秀英海南医院,颗粒物(PM10),175,299,74,75,33,56,,58,58,12,15,6,5,0.3,0.4
2025-04-13T0800,1412A,110.338,19.9969,海口市,海南师范大学,颗粒物(PM10),169,288,69,67,29,59,,62,62,7,7,6,4,0.4,0.4
2025-04-13T0800,1413A,110.33,20.0356,海口市,龙华路环保局宿舍,颗粒物(PM10),168,285,70,69,29,57,,62,62,8,8,6,5,0.4,0.4
2025-04-13T0800,3539A,110.5111,19.9736,海口市,桂林洋子站,颗粒物(PM10),169,288,83,75,31,64,,68,68,8,8,6,4,0.2,0.3
2025-04-13T0800,2673A,100.6188,36.2866,海南藏族自治州,共和县恰卜恰镇,,29,29,26,20,11,22,,57,57,38,9,17,13,0.6,0.4
2025-04-13T0800,2676A,97.3731,37.3753,海西蒙古族藏族自治州,德令哈市,,24,19,20,10,20,76,,79,79,2,3,12,11,0.5,0.4
2025-04-13T0800,1048A,114.5302,36.6116,邯郸市,东污水处理厂,颗粒物(PM10),65,79,74,12,13,48,,44,44,24,16,6,3,0.6,0.3
2025-04-13T0800,1049A,114.4918,36.5713,邯郸市,矿院,颗粒物(PM10),56,61,84,17,17,37,,26,26,18,10,4,2,0.5,0.3
2025-04-13T0800,1050A,114.484,36.6133,邯郸市,丛台公园,颗粒物(PM10),63,76,99,20,20,51,,42,42,20,15,8,4,0.6,0.3
2025-04-13T0800,3458A,114.7895,36.5593,邯郸市,香泉濮院小区,颗粒物(PM10),79,107,116,8,16,45,,50,50,17,10,6,3,0.5,0.5
2025-04-13T0800,3579A,114.50634,36.77178,邯郸市,永年区实验高中,颗粒物(PM10),81,112,109,30,17,46,,53,53,25,8,8,4,0.8,0.5
2025-04-13T0800,3580A,114.20016,36.44293,邯郸市,峰峰矿区临水派出所,,48,48,88,8,18,70,,81,81,10,8,9,3,0.8,0.6
2025-04-13T0800,2634A,106.9893,33.1842,汉中市,汉川机床厂子校,颗粒物(PM10),286,410,740,164,226,45,,52,52,7,5,7,6,1.1,1
2025-04-13T0800,2635A,107.0154,33.0706,汉中市,市监测站,颗粒物(PM10),340,452,726,172,217,24,,34,34,24,14,6,5,0.8,0.7
2025-04-13T0800,2636A,107.0089,33.1138,汉中市,鑫源开发区,颗粒物(PM10),309,427,765,161,244,27,,30,30,21,18,5,6,0.4,0.4
2025-04-13T0800,2637A,107.007,33.0323,汉中市,南郑大河坎水厂,细颗粒物(PM2.5),195,328,645,146,232,23,,44,44,31,14,5,4,0.6,0.5
2025-04-13T0800,1223A,120.2072,30.2111,杭州市,滨江,颗粒物(PM10),98,145,237,36,61,66,,77,77,15,14,6,6,0.5,0.5
2025-04-13T0800,1224A,120.0633,30.2747,杭州市,西溪,颗粒物(PM10),56,62,187,10,37,59,,60,60,29,15,6,5,0.4,0.4
2025-04-13T0800,1226A,120.3417,30.3150,杭州市,下沙,颗粒物(PM10),79,108,224,12,50,69,,77,77,20,18,6,6,0.3,0.4
2025-04-13T0800,1227A,120.1269,30.2456,杭州市,卧龙桥,颗粒物(PM10),68,86,194,25,43,77,,62,62,7,10,6,5,0.4,0.4
2025-04-13T0800,1228A,120.1903,30.2692,杭州市,浙江农大,颗粒物(PM10),79,108,240,29,60,71,,79,79,13,14,2,2,0.3,0.3
2025-04-13T0800,1230A,120.1197,30.3119,杭州市,和睦小学,颗粒物(PM10),60,69,218,20,48,64,,75,75,23,13,6,6,0.5,0.5
2025-04-13T0800,1231A,120.3019,30.4183,杭州市,临平镇,颗粒物(PM10),78,105,259,14,50,65,,78,78,30,18,6,5,0.3,0.3
2025-04-13T0800,1232A,120.2753,30.1839,杭州市,城厢镇,颗粒物(PM10),90,129,226,59,58,47,,72,72,24,15,6,6,0.5,0.5
2025-04-13T0800,1233A,120.0883,30.1808,杭州市,云栖,颗粒物(PM10),78,105,205,20,42,47,,30,30,23,15,8,9,0.5,0.5
2025-04-13T0800,3557A,119.9464,30.0494,杭州市,镇二中,颗粒物(PM10),87,123,169,32,41,40,,58,58,28,19,2,1,0.3,0.4
2025-04-13T0800,3558A,119.7183,30.2367,杭州市,市府大楼,颗粒物(PM10),63,76,186,20,46,66,,65,65,14,12,7,7,0.5,0.6
2025-04-13T0800,3656A,120.1556,30.2864,杭州市,消防大队,颗粒物(PM10),71,92,228,18,61,79,,87,87,20,16,4,4,0.4,0.5
2025-04-13T0800,1270A,117.1959,31.7848,合肥市,明珠广场,颗粒物(PM10),63,75,206,14,43,66,,65,65,17,13,3,2,0.2,0.2
2025-04-13T0800,1271A,117.3072,31.8764,合肥市,三里街,颗粒物(PM10),62,73,228,12,45,73,,74,74,15,11,6,4,0.2,0.2
2025-04-13T0800,1272A,117.2588,31.8707,合肥市,琥珀山庄,颗粒物(PM10),68,85,234,16,41,85,,85,85,12,9,4,3,0.4,0.3
2025-04-13T0800,1273A,117.1604,31.9052,合肥市,董铺水库,颗粒物(PM10),67,83,391,9,62,92,,89,89,10,9,1,1,0.2,0.2
2025-04-13T0800,1274A,117.25,31.8571,合肥市,长江中路,颗粒物(PM10),62,73,243,14,47,80,,86,86,14,9,7,7,0.4,0.4
2025-04-13T0800,1275A,117.266,31.9436,合肥市,庐阳区,颗粒物(PM10),64,78,236,12,44,80,,80,80,10,7,5,4,0.2,0.2
2025-04-13T0800,1276A,117.3453,31.8616,合肥市,瑶海区,颗粒物(PM10),69,88,215,10,42,48,,77,77,45,11,5,5,0.3,0.2
2025-04-13T0800,1277A,117.3027,31.7964,合肥市,包河区,颗粒物(PM10),67,83,210,14,54,59,,63,63,26,16,5,5,0.3,0.3
2025-04-13T0800,1278A,117.2776,31.7385,合肥市,滨湖新区,颗粒物(PM10),69,88,226,27,67,47,,41,41,38,24,5,4,0.4,0.4
2025-04-13T0800,1279A,117.1318,31.8403,合肥市,高新区,颗粒物(PM10),63,75,225,17,45,85,,83,83,7,6,2,1,0.4,0.3
2025-04-13T0800,3464A,117.3803,31.9147,合肥市,高教基地,颗粒物(PM10),65,80,183,16,53,82,,82,82,14,15,5,4,0.3,0.2
2025-04-13T0800,3614A,79.924,37.0877,和田地区,地区环保局,颗粒物(PM10),330,444,534,167,208,61,,63,63,5,7,1,1,0.6,0.6
2025-04-13T0800,3615A,79.9131,37.113,和田地区,市环保局,颗粒物(PM10),428,528,526,207,159,61,,60,60,1,4,1,2,0.6,0.7
2025-04-13T0800,2516A,108.2011,24.715,河池市,东仁乐园,颗粒物(PM10),202,351,134,60,22,56,,68,68,14,8,14,8,1.2,1.1
2025-04-13T0800,2517A,108.0497,24.6947,河池市,市环保站,颗粒物(PM10),182,313,110,70,21,54,,65,65,18,10,12,6,0.4,0.3
2025-04-13T0800,2518A,108.0983,24.6989,河池市,市疾控中心,颗粒物(PM10),168,285,110,69,26,58,,68,68,12,12,10,7,0.5,0.5
2025-04-13T0800,1696A,114.6778,23.7569,河源市,源西,颗粒物(PM10),200,349,203,59,40,79,,82,82,11,11,5,4,0.2,0.3
2025-04-13T0800,1697A,114.6944,23.7586,河源市,东埔,颗粒物(PM10),289,412,224,45,39,77,,83,83,10,11,5,4,0.4,0.5
2025-04-13T0800,1698A,114.6892,23.7233,河源市,老城,颗粒物(PM10),200,349,199,72,48,78,,83,83,10,10,5,4,0.3,0.4
2025-04-13T0800,1718A,115.4208,35.2464,菏泽市,气象局,颗粒物(PM10),117,183,184,29,42,40,,53,53,34,18,5,3,0.4,0.3
2025-04-13T0800,3374A,115.5564,35.0891,菏泽市,定陶老年大学,颗粒物(PM10),95,139,150,41,35,55,,51,51,21,17,7,3,0.3,0.3
2025-04-13T0800,4184A,115.4797,35.24401,菏泽市,永昌路1号,颗粒物(PM10),111,171,165,50,42,45,,49,49,28,16,6,4,0.3,0.3
2025-04-13T0800,4193A,115.4715,35.2800,菏泽市,长城路999号,颗粒物(PM10),109,167,159,23,23,61,,62,62,21,17,6,5,0.1,0.1
2025-04-13T0800,2514A,111.5264,24.4172,贺州市,环保小区,颗粒物(PM10),222,365,292,110,75,41,,59,59,17,14,6,6,0.3,0.3
2025-04-13T0800,2515A,111.5608,24.4078,贺州市,政协大楼,颗粒物(PM10),182,314,271,97,92,40,,54,54,16,13,8,8,0.0,0.2
2025-04-13T0800,3534A,111.4744,24.4553,贺州市,西湾,颗粒物(PM10),269,398,279,102,72,58,,65,65,11,10,6,7,0.4,0.4
2025-04-13T0800,2385A,114.17,35.9019,鹤壁市,市监测站,颗粒物(PM10),66,82,124,35,26,53,,67,67,22,7,5,3,0.8,0.6
2025-04-13T0800,2386A,114.2956,35.7511,鹤壁市,市交警支队,颗粒物(PM10),85,120,140,30,18,47,,53,53,30,19,10,9,0.6,0.4
2025-04-13T0800,2387A,114.2878,35.7306,鹤壁市,迎宾馆,颗粒物(PM10),90,130,157,10,18,48,,55,55,27,17,7,3,0.5,0.4
2025-04-13T0800,3474A,114.2617,35.6822,鹤壁市,大新区,细颗粒物(PM2.5),99,127,173,74,54,40,,34,34,26,18,9,5,0.4,0.2
2025-04-13T0800,3596A,114.1572,35.9603,鹤壁市,南山宾馆,颗粒物(PM10),72,94,137,32,31,57,,67,67,19,8,8,5,0.6,0.3
2025-04-13T0800,2244A,130.2537,47.3416,鹤岗市,哈啤分公司,,46,46,60,26,37,77,,88,88,12,14,16,16,0.3,0.4
2025-04-13T0800,2245A,130.2684,47.3086,鹤岗市,斯达机电,,49,46,63,34,43,78,,85,85,13,13,12,13,0.7,0.7
2025-04-13T0800,2246A,130.3114,47.3388,鹤岗市,东山纸板厂,颗粒物(PM10),54,58,75,23,42,80,,85,85,9,13,13,14,0.3,0.3
2025-04-13T0800,2247A,130.1097,47.3382,鹤岗市,五号水库,,,,,,,,,,,,,,,,
2025-04-13T0800,2263A,127.4833,50.2524,黑河市,交通局,,22,,11,13,13,68,,69,69,4,4,6,7,0.2,0.3
2025-04-13T0800,2264A,127.5144,50.2341,黑河市,环保局,,22,,11,15,14,66,,64,64,6,10,4,6,0.2,0.3
2025-04-13T0800,2265A,127.5291,50.2472,黑河市,大黑河岛,,,,,,,,,,,,,,,,
2025-04-13T0800,1074A,115.6838,37.7541,衡水市,电机北厂,颗粒物(PM10),51,52,113,3,25,76,,74,74,8,5,10,6,0.3,0.2
2025-04-13T0800,1075A,115.6303,37.7316,衡水市,市监测站,颗粒物(PM10),53,55,58,3,11,71,,71,71,12,9,14,9,0.2,0.2
2025-04-13T0800,3188A,115.6683,37.7217,衡水市,市城管局,,49,49,100,3,21,61,,67,67,14,8,10,3,0.3,0.3
2025-04-13T0800,3459A,115.5989,37.5491,衡水市,地表水厂,颗粒物(PM10),61,71,84,21,17,48,,62,62,30,10,9,6,0.3,0.3
2025-04-13T0800,2456A,112.5003,26.9167,衡阳市,原169医院,颗粒物(PM10),154,258,410,37,40,17,,24,24,14,13,34,31,0.5,0.5
2025-04-13T0800,2457A,112.6194,26.9258,衡阳市,衡阳化工总厂,颗粒物(PM10),191,331,453,77,84,20,,19,19,25,18,7,6,0.5,0.5
2025-04-13T0800,2458A,112.6211,26.8956,衡阳市,珠晖区环保局,颗粒物(PM10),164,277,412,73,78,6,,5,5,27,18,7,6,0.5,0.4
2025-04-13T0800,2459A,112.6197,26.8733,衡阳市,市委党校,颗粒物(PM10),190,329,435,84,114,11,,11,11,27,21,9,4,1.0,0.7
2025-04-13T0800,2460A,112.6006,26.8919,衡阳市,市监测站,颗粒物(PM10),199,347,428,84,98,38,,24,24,21,18,8,7,0.5,0.5
2025-04-13T0800,2461A,112.5664,26.9056,衡阳市,真空机电公司,颗粒物(PM10),292,414,481,93,87,37,,36,36,14,13,7,6,0.3,0.3
2025-04-13T0800,3399A,112.6703,26.882,衡阳市,师范学院,颗粒物(PM10),197,344,433,82,95,8,,5,5,24,20,9,9,0.6,0.5
2025-04-13T0800,2608A,103.3772,23.3993,红河哈尼族彝族自治州,污水处理厂,细颗粒物(PM2.5),68,80,64,49,42,68,,66,66,10,11,14,20,0.2,0.3
2025-04-13T0800,2609A,103.3861,23.35,红河哈尼族彝族自治州,监测站,颗粒物(PM10),74,98,76,45,41,78,,73,73,7,10,7,14,0.2,0.3
2025-04-13T0800,3038A,103.3758,23.368,红河哈尼族彝族自治州,州图书馆,细颗粒物(PM2.5),64,76,49,46,39,78,,72,72,8,10,10,16,0.1,0.2
2025-04-13T0800,1090A,111.6507,40.7517,呼和浩特市,呼市一监,,28,12,20,3,5,89,,79,79,1,2,12,11,0.5,0.5
2025-04-13T0800,1091A,111.6572,40.8033,呼和浩特市,小召,,25,12,23,6,5,80,,80,80,9,7,6,5,0.3,0.3
2025-04-13T0800,1094A,111.7516,40.8369,呼和浩特市,如意水处理厂,,26,19,23,16,6,81,,79,79,5,4,7,6,0.3,0.3
2025-04-13T0800,1095A,111.7276,40.8062,呼和浩特市,二十九中,,28,15,19,6,5,87,,84,84,2,2,3,3,0.4,0.4
2025-04-13T0800,1096A,111.5512,40.7866,呼和浩特市,工大金川校区,,28,13,17,3,5,88,,75,75,6,5,6,6,0.4,0.4
2025-04-13T0800,1097A,111.717,40.7612,呼和浩特市,化肥厂生活区,,27,19,22,14,8,85,,82,82,8,5,7,6,0.3,0.3
2025-04-13T0800,3698A,111.5968,40.8178,呼和浩特市,红旗小学,,28,12,18,3,4,89,,85,85,6,6,4,4,0.4,0.4
2025-04-13T0800,3699A,111.6518,40.8389,呼和浩特市,海东办,,26,6,16,3,5,82,,79,79,2,5,6,6,0.5,0.5
2025-04-13T0800,2192A,119.7594,49.2261,呼伦贝尔市,区环保局,,36,,21,25,20,77,,80,80,8,6,5,5,0.3,0.2
2025-04-13T0800,3061A,119.7512,49.1577,呼伦贝尔市,国华电力东,,26,23,26,15,15,83,,84,84,5,4,6,5,0.3,0.3
2025-04-13T0800,1250A,120.0751,30.8669,湖州市,城西水厂,颗粒物(PM10),77,103,297,26,60,57,,58,58,35,27,8,7,0.4,0.4
2025-04-13T0800,2873A,120.0830,30.8929,湖州市,仁皇山新区,颗粒物(PM10),77,104,299,27,61,60,,55,55,40,23,6,4,0.4,0.5
2025-04-13T0800,2907A,120.1844,30.8596,湖州市,吴兴区站,颗粒物(PM10),73,96,267,25,57,65,,73,73,23,13,6,5,0.2,0.2
2025-04-13T0800,3562A,120.4148,30.8538,湖州市,南浔区站,颗粒物(PM10),81,111,291,29,55,78,,83,83,20,13,4,3,0.3,0.3
2025-04-13T0800,1607A,120.9049,40.7211,葫芦岛市,龙港区,,33,33,47,7,10,77,,76,76,9,11,8,9,0.4,0.4
2025-04-13T0800,1608A,120.8392,40.7514,葫芦岛市,化工街,,39,39,45,3,12,71,,70,70,14,14,7,7,0.4,0.4
2025-04-13T0800,1609A,120.8341,40.7073,葫芦岛市,新区,,32,32,51,8,10,82,,79,79,9,12,9,9,0.3,0.4
2025-04-13T0800,1610A,120.8695,40.7677,葫芦岛市,东城区,,36,36,48,8,9,79,,78,78,11,14,7,6,0.4,0.4
2025-04-13T0800,2482A,109.5981,27.5721,怀化市,林科所,颗粒物(PM10),70,90,56,22,19,27,,35,35,10,8,4,5,0.6,0.4
2025-04-13T0800,2483A,109.9453,27.5444,怀化市,河西地税局,,40,40,52,20,21,6,,10,10,9,10,10,9,0.5,0.4
2025-04-13T0800,2484A,109.9781,27.5342,怀化市,市四医院,颗粒物(PM10),59,68,67,28,24,16,,16,16,16,13,9,7,0.4,0.3
2025-04-13T0800,2485A,109.9972,27.5578,怀化市,监测楼,颗粒物(PM10),58,65,67,26,27,21,,23,23,13,10,11,8,0.4,0.4
2025-04-13T0800,2486A,110.0394,27.583,怀化市,市委党校,颗粒物(PM10),69,88,67,29,24,23,,29,29,12,8,4,4,0.5,0.4
2025-04-13T0800,1210A,119.036,33.5981,淮安市,钵池山,颗粒物(PM10),70,90,262,22,38,63,,68,68,20,14,11,10,0.5,0.4
2025-04-13T0800,1211A,119.007,33.575,淮安市,北京南路,颗粒物(PM10),69,88,266,21,35,53,,57,57,20,13,19,8,1.4,0.4
2025-04-13T0800,1212A,118.989,33.6067,淮安市,市监测站,颗粒物(PM10),69,88,266,29,52,59,,61,61,19,13,9,8,0.3,0.3
2025-04-13T0800,1213A,119.135,33.5039,淮安市,楚州区监测站,颗粒物(PM10),67,83,273,30,55,58,,58,58,8,8,8,7,0.5,0.4
2025-04-13T0800,3426A,118.8755,33.2894,淮安市,新华书店,颗粒物(PM10),71,91,311,18,40,76,,78,78,13,9,9,8,0.4,0.4
2025-04-13T0800,4206A,119.0288,33.6319,淮安市,承德北路606号,,,85,269,19,40,,,59,59,,9,,6,,0.4
2025-04-13T0800,2282A,116.8004,33.975,淮北市,监测站,颗粒物(PM10),77,103,240,17,32,53,,61,61,22,15,7,6,0.5,0.4
2025-04-13T0800,2283A,116.8091,33.9007,淮北市,烈山区政府,颗粒物(PM10),83,115,175,42,44,49,,50,50,28,22,9,5,0.5,0.3
2025-04-13T0800,3330A,116.8873,33.9836,淮北市,杜集区检察院,颗粒物(PM10),82,113,202,32,42,62,,61,61,23,14,8,5,0.7,0.6
2025-04-13T0800,4017A,116.7923,33.9535,淮北市,市博物馆,颗粒物(PM10),78,105,222,27,46,55,,54,54,22,15,8,6,0.6,0.6
2025-04-13T0800,2277A,116.8305,32.7727,淮南市,潘集区政府,颗粒物(PM10),87,123,422,26,60,69,,70,70,12,11,3,3,0.3,0.2
2025-04-13T0800,2279A,116.8569,32.5951,淮南市,谢家集区政府,颗粒物(PM10),75,100,373,28,49,61,,67,67,19,8,8,6,0.7,0.5
2025-04-13T0800,2280A,116.8281,32.633,淮南市,八公山区政府,颗粒物(PM10),89,127,334,30,52,81,,81,81,7,5,5,3,0.3,0.2
2025-04-13T0800,2281A,116.6325,32.6201,淮南市,焦岗湖风景区管理处,,,,,,,,,,,,,,,,
2025-04-13T0800,2894A,117.0566,32.6531,淮南市,经济技术开发区消防队,颗粒物(PM10),91,132,448,25,58,82,,80,80,18,13,9,6,0.5,0.3
2025-04-13T0800,3329A,117.0108,32.5893,淮南市,山南新区,颗粒物(PM10),86,121,461,13,60,71,,68,68,14,9,9,7,0.3,0.3
2025-04-13T0800,4209A,117.0031,32.6445,淮南市,国庆中路369号,颗粒物(PM10),86,122,379,28,70,71,,70,70,21,13,8,5,0.7,0.4
2025-04-13T0800,2446A,114.9028,30.4742,黄冈市,职工中心,颗粒物(PM10),69,88,193,24,52,50,,61,61,18,11,4,4,0.5,0.4
2025-04-13T0800,2929A,114.8858,30.4519,黄冈市,红卫路,颗粒物(PM10),72,94,254,21,44,38,,53,53,13,7,4,4,0.6,0.8
2025-04-13T0800,3398A,114.9136,30.4445,黄冈市,市林业局,颗粒物(PM10),70,89,159,17,28,33,,54,54,17,12,6,6,0.4,0.4
2025-04-13T0800,2672A,102.0199,35.5102,黄南藏族自治州,同仁县隆务镇,颗粒物(PM10),55,59,29,6,7,68,,71,71,1,2,13,13,0.2,0.2
2025-04-13T0800,2295A,118.2903,29.6963,黄山市,延安路89号,颗粒物(PM10),69,88,195,32,130,21,,22,22,2,3,4,4,0.2,0.1
2025-04-13T0800,2297A,118.1371,30.2756,黄山市,黄山区政府5号楼,颗粒物(PM10),53,55,251,23,51,26,,28,28,1,2,3,3,0.8,0.9
2025-04-13T0800,4210A,118.3354,29.7203,黄山市,滨江东路7-2号,颗粒物(PM10),68,86,265,26,79,18,,24,24,9,7,5,4,0.4,0.4
2025-04-13T0800,2423A,115.0601,30.2313,黄石市,沈家营,颗粒物(PM10),79,107,310,31,62,49,,53,53,19,7,6,6,0.5,0.4
2025-04-13T0800,2426A,114.8988,30.2019,黄石市,铁山,颗粒物(PM10),102,154,286,71,69,28,,48,48,44,9,13,5,1.8,1
2025-04-13T0800,2427A,115.0307,30.2092,黄石市,团城山,颗粒物(PM10),84,118,315,51,62,37,,57,57,34,9,12,7,1.3,0.5
2025-04-13T0800,3149A,115.0235,30.1578,黄石市,笔架山北路,颗粒物(PM10),83,116,233,49,61,39,,49,49,37,10,8,5,1.8,0.6
2025-04-13T0800,4185A,115.0780,30.21118,黄石市,磁湖东路29号,颗粒物(PM10),80,110,346,26,68,43,,62,62,17,7,6,6,0.6,0.8
2025-04-13T0800,1392A,114.4183,23.0528,惠州市,河南岸金山湖子站,颗粒物(PM10),199,347,167,78,44,76,,84,84,18,14,11,8,0.4,0.5
2025-04-13T0800,1393A,114.4053,23.0822,惠州市,下埔横江三路子站,颗粒物(PM10),235,374,176,84,47,80,,83,83,11,12,10,9,0.4,0.6
2025-04-13T0800,1394A,114.4103,23.1142,惠州市,江北云山西路子站,颗粒物(PM10),235,374,180,89,48,83,,85,85,11,12,11,9,0.2,0.3
2025-04-13T0800,1395A,114.4645,22.7833,惠州市,惠阳区承修路船湖子站,颗粒物(PM10),200,350,162,75,39,72,,79,79,14,14,9,8,0.4,0.5
2025-04-13T0800,1396A,114.5317,22.7422,惠州市,大亚湾管委会子站,颗粒物(PM10),190,330,138,76,37,78,,85,85,10,11,6,6,0.3,0.4
2025-04-13T0800,3314A,114.4338,22.8134,惠州市,惠阳秋长,颗粒物(PM10),238,376,204,77,44,83,,88,88,9,9,10,10,0.2,0.3
2025-04-13T0800,3452A,114.6517,22.775,惠州市,大亚湾霞涌,颗粒物(PM10),184,318,173,84,46,75,,78,78,14,15,6,6,0.5,0.4
2025-04-13T0800,2240A,130.9762,45.3001,鸡西市,环保局,,32,32,59,21,30,92,,105,105,14,9,6,7,0.6,0.5
2025-04-13T0800,2243A,130.9429,45.3039,鸡西市,第一中学,,34,34,59,23,31,87,,102,102,14,9,7,8,0.6,0.6
2025-04-13T0800,3707A,131.0207,45.3073,鸡西市,欧美日汽修厂,,39,39,85,27,38,85,,97,97,9,9,6,11,0.5,0.5
2025-04-13T0800,3709A,130.9967,45.3106,鸡西市,市政设施管理处,,38,38,81,20,33,75,,94,94,17,10,6,7,0.5,0.4
2025-04-13T0800,2367A,114.9754,27.0803,吉安市,红声器材厂,颗粒物(PM10),155,260,309,53,68,25,,35,35,16,15,10,10,0.4,0.4
2025-04-13T0800,2368A,114.9658,27.0999,吉安市,市森林工业局,颗粒物(PM10),168,286,309,64,67,28,,36,36,18,12,9,9,0.3,0.3
2025-04-13T0800,2369A,114.99,27.1312,吉安市,市环境监测站,颗粒物(PM10),157,263,278,69,64,31,,44,44,10,9,14,17,0.3,0.2
2025-04-13T0800,2370A,115.0093,27.0968,吉安市,青原区法院,颗粒物(PM10),164,278,301,59,68,34,,31,31,13,12,11,10,0.5,0.4
2025-04-13T0800,1772A,126.54,43.8622,吉林市,哈达湾,,19,14,30,3,16,58,,89,89,22,12,6,8,0.5,0.4
2025-04-13T0800,1773A,126.5844,43.8358,吉林市,东局子,,19,18,38,3,17,59,,91,91,30,14,4,7,0.7,0.6
2025-04-13T0800,1774A,126.5052,43.8245,吉林市,电力学院,,20,14,30,12,17,62,,92,92,29,14,4,5,0.6,0.5
2025-04-13T0800,1775A,126.6133,43.8972,吉林市,江北,,17,10,36,3,19,52,,80,80,34,15,4,6,0.8,0.7
2025-04-13T0800,1776A,126.555,43.8306,吉林市,江南公园,,20,14,33,3,18,61,,93,93,29,13,4,6,0.5,0.4
2025-04-13T0800,1778A,126.7061,43.7133,吉林市,丰满,,23,6,26,3,17,72,,95,95,7,8,5,6,0.8,0.7
2025-04-13T0800,2868A,126.4739,43.953,吉林市,九站,,24,8,32,7,17,76,,91,91,12,13,6,9,0.6,0.5
2025-04-13T0800,1299A,116.9862,36.6114,济南市,科干所,,,,,,,,,,,,,,,,
2025-04-13T0800,1300A,116.9376,36.665,济南市,农科所,颗粒物(PM10),52,54,104,20,24,53,,53,53,28,14,9,6,0.4,0.4
2025-04-13T0800,1301A,117.1265,36.6734,济南市,开发区,,37,37,89,12,18,73,,72,72,16,10,7,6,0.5,0.5
2025-04-13T0800,1303A,117.0624,36.6868,济南市,省种子仓库,颗粒物(PM10),52,53,198,14,21,66,,66,66,9,3,13,10,0.6,0.5
2025-04-13T0800,1304A,116.9489,36.6447,济南市,机床二厂,颗粒物(PM10),59,68,134,15,15,50,,55,55,35,15,10,6,0.4,0.3
2025-04-13T0800,1305A,117.0495,36.663,济南市,市监测站,,44,44,112,15,19,64,,61,61,15,9,8,7,0.4,0.4
2025-04-13T0800,1306A,116.7675,36.5484,济南市,长清党校,,46,46,99,7,17,84,,69,69,11,11,8,4,0.4,0.4
2025-04-13T0800,1616A,117.6795,36.229,济南市,技术学院,,27,27,103,9,17,74,,75,75,12,9,10,8,0.5,0.5
2025-04-13T0800,1961A,117.532,36.6868,济南市,东山小学,,,,154,,27,,,87,,,3,,5,,0.2
2025-04-13T0800,3059A,117.7161,36.2049,济南市,泰兴公司,,31,31,81,12,16,73,,77,77,15,9,14,8,1.1,0.5
2025-04-13T0800,3064A,117.6867,36.2171,济南市,莱芜战役纪念馆,,44,44,87,19,13,73,,79,79,20,12,14,5,1.0,0.4
2025-04-13T0800,3494A,117.1673,36.9782,济南市,济阳区政府,颗粒物(PM10),51,51,101,12,16,64,,70,70,21,10,10,8,0.4,0.3
2025-04-13T0800,3495A,117.1171,36.63,济南市,锦屏中学,,25,24,92,12,20,77,,72,72,9,9,8,7,0.2,0.1
2025-04-13T0800,3682A,116.9814,36.6819,济南市,济南四建,,48,48,118,7,31,60,,59,59,21,11,7,3,0.3,0.3
2025-04-13T0800,1653A,116.6251,35.4302,济宁市,火炬城,颗粒物(PM10),61,72,104,24,24,43,,51,51,15,5,5,2,0.2,0.1
2025-04-13T0800,1655A,116.5491,35.4042,济宁市,电化厂,颗粒物(PM10),97,143,129,36,33,42,,51,51,36,18,4,2,0.1,0
2025-04-13T0800,3500A,116.5814,35.3707,济宁市,北湖一中,颗粒物(PM10),63,75,97,3,23,40,,54,54,36,13,2,3,0.1,0
2025-04-13T0800,3501A,116.8249,35.5593,济宁市,服务中心,颗粒物(PM10),65,79,94,19,13,42,,54,54,35,14,4,2,0.6,0.5
2025-04-13T0800,3678A,116.5907,35.4054,济宁市,市第七中学,颗粒物(PM10),74,98,137,14,36,48,,57,57,24,9,3,3,0.3,0.2
2025-04-13T0800,2255A,130.2751,46.8028,佳木斯市,佳纺,细颗粒物(PM2.5),68,70,90,49,47,53,,91,91,19,12,7,8,0.8,0.7
2025-04-13T0800,2256A,130.3995,46.8307,佳木斯市,发电厂,细颗粒物(PM2.5),62,59,116,44,55,64,,90,90,24,18,12,8,0.7,0.7
2025-04-13T0800,2257A,130.3258,46.7975,佳木斯市,环保局,细颗粒物(PM2.5),60,55,71,43,43,50,,94,94,33,19,4,5,0.7,0.6
2025-04-13T0800,2258A,130.3648,46.8032,佳木斯市,十一中,细颗粒物(PM2.5),60,54,69,43,43,54,,93,93,28,15,7,8,0.7,0.6
2025-04-13T0800,2259A,130.3794,46.7588,佳木斯市,四丰,颗粒物(PM10),57,64,66,36,35,54,,83,83,22,13,1,1,1.1,1
2025-04-13T0800,1252A,120.7436,30.778,嘉兴市,清河小学,颗粒物(PM10),82,113,226,25,45,63,,66,66,22,13,10,6,1.0,0.8
2025-04-13T0800,1253A,120.726,30.7478,嘉兴市,嘉兴学院,颗粒物(PM10),83,116,213,23,47,77,,78,78,24,17,6,7,0.8,0.7
2025-04-13T0800,2872A,120.7846,30.7525,嘉兴市,南湖区残联,颗粒物(PM10),106,161,264,36,61,79,,82,82,14,10,6,6,0.5,0.5
2025-04-13T0800,3407A,120.6916,30.7739,嘉兴市,秀洲住建,颗粒物(PM10),71,91,268,24,51,74,,73,73,16,11,6,6,0.5,0.5
2025-04-13T0800,1945A,98.2908,39.7711,嘉峪关市,气象局,,24,24,32,3,9,76,,73,73,7,16,6,5,0.5,0.5
2025-04-13T0800,2884A,98.2672,39.7978,嘉峪关市,酒钢宾馆,,31,31,40,9,12,64,,62,62,13,13,13,13,0.1,0.2
2025-04-13T0800,3248A,98.2643,39.7724,嘉峪关市,雄关区,,22,22,29,14,12,68,,65,65,17,18,7,6,0.4,0.4
2025-04-13T0800,1383A,113.1064,22.6058,江门市,北街,颗粒物(PM10),265,395,161,92,40,62,,62,62,19,13,4,2,0.3,0.4
2025-04-13T0800,1384A,113.0731,22.5835,江门市,西区,颗粒物(PM10),289,412,152,55,28,68,,64,64,16,18,8,7,0.3,0.4
2025-04-13T0800,1385A,113.0219,22.5311,江门市,圭峰西,颗粒物(PM10),209,356,143,71,29,54,,56,56,16,14,6,5,0.3,0.3
2025-04-13T0800,1386A,113.0828,22.5947,江门市,东湖,颗粒物(PM10),258,390,145,89,41,66,,64,64,16,13,7,6,0.3,0.3
2025-04-13T0800,3311A,113.1075,22.5647,江门市,江海富民,颗粒物(PM10),228,369,136,83,32,62,,62,62,18,15,8,7,0.4,0.4
2025-04-13T0800,3449A,113.05,22.4667,江门市,新会银湖,颗粒物(PM10),225,367,145,89,39,57,,55,55,17,13,1,2,0.3,0.3
2025-04-13T0800,1830A,113.1992,35.2590,焦作市,影视城,,,,,,,,,,,,,,,,
2025-04-13T0800,3169A,113.2725,35.2067,焦作市,太极体育中心,颗粒物(PM10),124,198,169,41,34,74,,70,70,11,6,14,8,0.5,0.4
2025-04-13T0800,3335A,113.3137,35.2641,焦作市,马村街道办,颗粒物(PM10),106,161,153,77,52,73,,,,,11,,6,,0.4
2025-04-13T0800,3336A,113.2465,35.2373,焦作市,焦作技师学院,颗粒物(PM10),109,167,164,29,23,77,,71,71,10,8,8,7,0.6,0.4
2025-04-13T0800,3477A,113.1656,35.2539,焦作市,中站许衡医院,颗粒物(PM10),110,170,130,28,27,77,,77,77,11,8,9,8,0.7,0.5
2025-04-13T0800,3981A,113.2449,35.1803,焦作市,原李万街道办,颗粒物(PM10),107,164,154,27,15,58,,61,61,19,12,14,6,0.7,0.5
2025-04-13T0800,4264A,113.2340,35.2190,焦作市,新安路1731号,颗粒物(PM10),126,201,160,34,26,80,,72,72,8,8,9,9,0.4,0.3
2025-04-13T0800,1708A,116.3701,23.5345,揭阳市,新兴,颗粒物(PM10),114,177,135,45,35,71,,74,74,19,14,6,5,0.4,0.5
2025-04-13T0800,1709A,116.3264,23.5443,揭阳市,西马,颗粒物(PM10),116,181,147,47,31,70,,81,81,16,7,7,7,0.4,0.4
2025-04-13T0800,1710A,116.3611,23.5626,揭阳市,东兴,颗粒物(PM10),116,181,154,37,30,68,,74,74,18,11,8,7,0.5,0.6
2025-04-13T0800,1711A,116.4151,23.5294,揭阳市,渔湖,颗粒物(PM10),109,167,134,54,33,76,,74,74,18,11,10,5,0.3,0.5
2025-04-13T0800,3320A,116.403,23.5699,揭阳市,曲溪,颗粒物(PM10),130,209,130,54,38,87,,80,80,17,15,2,2,0.3,0.4
2025-04-13T0800,1944A,102.1692,38.5167,金昌市,天庆家园,,31,11,156,10,51,98,,70,70,5,9,6,17,0.6,0.7
2025-04-13T0800,4022A,102.1647,38.5371,金昌市,金川区人防中心,,31,31,223,9,54,78,,76,76,22,8,12,14,0.6,0.5
2025-04-13T0800,4239A,102.1930,38.5319,金昌市,长春路96号,,29,22,216,3,47,92,,71,71,4,7,17,21,0.6,0.6
2025-04-13T0800,1262A,119.647,29.077,金华市,十五中,颗粒物(PM10),176,302,257,66,64,46,,48,48,23,18,9,6,0.6,0.5
2025-04-13T0800,1263A,119.686,29.1029,金华市,监测站,颗粒物(PM10),194,337,222,83,72,38,,36,36,23,20,6,4,0.5,0.3
2025-04-13T0800,3659A,119.656,29.1131,金华市,气象局,颗粒物(PM10),195,340,266,77,63,33,,28,28,27,24,4,2,0.4,0.4
2025-04-13T0800,1767A,121.1115,41.0879,锦州市,南山,,44,44,48,11,12,75,,76,76,11,10,7,9,0.5,0.5
2025-04-13T0800,1768A,121.0604,40.8428,锦州市,开发区,,23,22,50,9,13,73,,71,71,8,15,4,6,0.5,0.5
2025-04-13T0800,1769A,121.1836,41.1119,锦州市,百股街道,,47,47,47,9,9,74,,75,75,11,10,12,7,0.4,0.4
2025-04-13T0800,1770A,121.1178,41.1222,锦州市,天安街道,,43,43,48,13,10,82,,86,86,10,10,23,14,0.4,0.4
2025-04-13T0800,1771A,121.1303,41.1386,锦州市,北湖公园,,39,39,42,9,11,71,,74,74,14,12,10,9,0.5,0.5
2025-04-13T0800,2160A,112.85,35.5051,晋城市,自来水公司,颗粒物(PM10),114,177,136,27,18,77,,78,78,12,6,9,6,0.6,0.3
2025-04-13T0800,2161A,112.8318,35.4936,晋城市,白云商贸,颗粒物(PM10),109,168,179,41,53,67,,72,72,18,10,6,4,0.7,0.4
2025-04-13T0800,2162A,112.8508,35.4887,晋城市,市环保局,颗粒物(PM10),111,171,142,29,19,72,,75,75,10,5,5,3,0.5,0.3
2025-04-13T0800,2163A,112.8676,35.4897,晋城市,技术学院,颗粒物(PM10),144,238,160,107,33,74,,75,75,12,7,7,5,0.5,0.3
2025-04-13T0800,2165A,112.8453,35.546,晋城市,白马寺,颗粒物(PM10),92,134,112,63,38,85,,83,83,6,18,6,5,0.7,0.5
2025-04-13T0800,3620A,112.8271,35.4828,晋城市,泽州一中,颗粒物(PM10),109,168,143,61,33,76,,77,77,11,8,8,5,0.6,0.3
2025-04-13T0800,2173A,112.7249,37.7067,晋中市,南都小区,颗粒物(PM10),59,68,102,20,15,62,,71,71,16,8,6,4,0.4,0.2
2025-04-13T0800,2174A,112.6991,37.6982,晋中市,榆次区政府,颗粒物(PM10),67,83,110,11,12,65,,76,76,16,8,6,4,0.1,0
2025-04-13T0800,2865A,112.7195,37.6828,晋中市,榆次三中,颗粒物(PM10),65,80,130,19,14,65,,72,72,17,6,6,4,0.3,0.2
2025-04-13T0800,4200A,112.7478,37.6954,晋中市,迎宾街26号,颗粒物(PM10),67,83,113,19,21,66,,70,70,12,5,6,4,0.6,0.4
2025-04-13T0800,2439A,112.2014,31.0481,荆门市,竹园小学,颗粒物(PM10),328,442,435,92,85,84,,84,84,14,17,5,5,0.2,0.1
2025-04-13T0800,2440A,112.1969,30.9891,荆门市,掇刀,颗粒物(PM10),246,382,420,80,80,48,,60,60,24,13,12,8,0.3,0.2
2025-04-13T0800,2441A,112.2213,31.0386,荆门市,石化一小,颗粒物(PM10),276,403,411,83,80,79,,82,82,12,12,10,8,0.1,0.1
2025-04-13T0800,3012A,112.1849,31.0362,荆门市,西山林语,颗粒物(PM10),193,335,369,81,78,79,,80,80,7,6,5,5,0.2,0.1
2025-04-13T0800,3547A,112.1632,31.0138,荆门市,龙泉中学南校,颗粒物(PM10),285,409,462,93,97,56,,66,66,25,17,7,6,0.7,0.7
2025-04-13T0800,1844A,112.2494,30.3197,荆州市,市图书馆,颗粒物(PM10),156,262,363,69,101,55,,58,58,19,16,4,4,0.6,0.5
2025-04-13T0800,1845A,112.2008,30.3544,荆州市,市委党校,颗粒物(PM10),149,248,348,67,100,54,,52,52,18,18,7,5,0.5,0.4
2025-04-13T0800,3194A,112.2747,30.3122,荆州市,管委会,颗粒物(PM10),146,242,318,72,100,57,,70,70,24,18,6,4,0.4,0.3
2025-04-13T0800,4268A,112.1722,30.3366,荆州市,学苑路85号,颗粒物(PM10),135,219,344,65,84,52,,46,46,15,17,2,2,0.3,0.3
2025-04-13T0800,2342A,117.3102,29.3867,景德镇市,王港中学,,,,,,,,,,,,,,,,
2025-04-13T0800,2343A,117.2117,29.2933,景德镇市,老干部活动中心,颗粒物(PM10),114,177,337,37,78,28,,22,22,8,11,6,6,0.3,0.3
2025-04-13T0800,2344A,117.1894,29.2789,景德镇市,兽医站,颗粒物(PM10),138,226,375,42,73,24,,26,26,15,13,3,4,0.5,0.4
2025-04-13T0800,2345A,117.1547,29.2617,景德镇市,台达陶瓷,颗粒物(PM10),136,222,366,37,62,22,,23,23,14,17,2,12,0.3,0.2
2025-04-13T0800,2346A,117.2461,29.2956,景德镇市,陶研所,颗粒物(PM10),96,142,302,51,91,28,,22,22,9,9,4,6,0.4,0.3
2025-04-13T0800,1803A,115.9872,29.6815,九江市,十里,颗粒物(PM10),86,122,338,27,70,34,,35,35,41,19,6,2,0,0.2
2025-04-13T0800,1804A,115.9584,29.7046,九江市,茅山头,颗粒物(PM10),91,131,378,29,68,32,,44,44,38,17,6,6,0.3,0.3
2025-04-13T0800,1805A,115.9877,29.7295,九江市,西园,颗粒物(PM10),86,122,299,31,71,48,,63,63,35,16,7,11,0.8,0.7
2025-04-13T0800,1808A,115.9114,29.6038,九江市,综合工业园,颗粒物(PM10),104,157,384,34,79,47,,44,44,34,28,8,6,0.7,0.4
2025-04-13T0800,1809A,116.0721,29.7535,九江市,石化总厂,颗粒物(PM10),96,141,318,37,72,48,,57,57,32,16,4,4,0.6,0.5
2025-04-13T0800,1810A,115.9773,29.5698,九江市,庐山气象台,颗粒物(PM10),88,125,348,28,68,94,,97,97,4,5,7,6,0.5,0.6
2025-04-13T0800,3190A,116.0254,29.6994,九江市,外国语学校,颗粒物(PM10),104,158,473,33,76,38,,47,47,39,19,11,7,0.9,0.8
2025-04-13T0800,4253A,116.0102,29.6594,九江市,莲花大道8号,颗粒物(PM10),93,135,381,32,62,32,,53,53,30,9,5,4,0.5,0.4
2025-04-13T0800,4240A,98.4958,39.7339,酒泉市,玉门东路5号,,32,,39,22,22,65,,69,69,10,13,8,8,0.2,0.3
2025-04-13T0800,4241A,98.5099,39.7506,酒泉市,北大街108号,,20,14,35,14,15,58,,67,67,18,12,9,10,0.2,0.4
2025-04-13T0800,2698A,76.0072,39.4467,喀什地区,巡警大队,颗粒物(PM10),500,675,796,169,187,26,,9,9,29,31,3,3,0.5,0.6
2025-04-13T0800,2699A,75.9755,39.4694,喀什地区,吾办,颗粒物(PM10),500,613,721,179,224,29,,33,33,19,25,1,3,0.6,0.5
2025-04-13T0800,4027A,75.9483,39.4689,喀什地区,老干局,颗粒物(PM10),500,632,740,158,188,43,,36,36,17,23,2,2,0.2,0.4
2025-04-13T0800,1824A,114.3389,34.7781,开封市,肿瘤医院,颗粒物(PM10),121,191,214,25,23,45,,55,55,28,13,13,7,0.6,0.4
2025-04-13T0800,1826A,114.2885,34.7965,开封市,世纪星幼儿园,颗粒物(PM10),104,158,189,34,30,44,,57,57,32,17,9,5,0.6,0.4
2025-04-13T0800,3147A,114.3438,34.8106,开封市,龙亭公园,颗粒物(PM10),119,188,208,54,47,54,,64,64,29,17,8,3,0.6,0.4
2025-04-13T0800,3210A,114.3644,34.7964,开封市,汴京公园,颗粒物(PM10),139,228,226,39,29,56,,66,66,28,13,8,3,0.8,0.9
2025-04-13T0800,3473A,114.2485,34.8306,开封市,技师学院,,,,200,,84,,,90,,,13,,3,,0.6
2025-04-13T0800,3592A,114.4644,34.7556,开封市,祥符区生态环境局,颗粒物(PM10),128,205,223,40,44,47,,53,53,31,18,10,6,0.6,0.4
2025-04-13T0800,1951A,84.895,45.6094,克拉玛依市,长征新村,,26,14,20,3,7,82,,86,86,6,6,8,7,0.2,0.2
2025-04-13T0800,1952A,84.8988,45.5893,克拉玛依市,南林小区,,30,11,22,7,9,93,,98,98,2,2,3,3,0.3,0.3
2025-04-13T0800,1954A,84.905,44.3396,克拉玛依市,独山子区,颗粒物(PM10),51,52,48,14,12,119,,112,112,4,10,8,8,0.2,0.2
2025-04-13T0800,1955A,85.6979,46.098,克拉玛依市,乌尔禾区商贸楼,颗粒物(PM10),69,87,26,3,6,91,,90,90,4,6,6,7,0.3,0.3
2025-04-13T0800,3612A,85.1045,45.6899,克拉玛依市,白碱滩区新站,,28,19,13,3,4,89,,97,97,2,3,10,10,0.2,0.2
2025-04-13T0800,2697A,76.1454,39.7142,克孜勒苏柯尔克孜自治州,市人民政府,颗粒物(PM10),500,798,807,227,226,79,,71,71,2,10,5,9,0.1,0.2
2025-04-13T0800,3665A,76.1658,39.7157,克孜勒苏柯尔克孜自治州,克州文化中心,颗粒物(PM10),500,757,815,218,220,68,,68,68,3,8,6,10,0.3,0.3
2025-04-13T0800,1450A,102.8204,24.8886,昆明市,呈贡新区,颗粒物(PM10),84,118,78,44,23,41,,62,62,35,13,8,6,0.5,0.3
2025-04-13T0800,1451A,102.6251,24.9608,昆明市,西山森林公园,,,,,,,,,,,,,,,,
2025-04-13T0800,1452A,102.7252,25.0902,昆明市,龙泉镇,颗粒物(PM10),65,79,74,24,21,60,,72,72,13,9,7,7,0.3,0.3
2025-04-13T0800,1453A,102.7266,25.0375,昆明市,东风东路,颗粒物(PM10),79,107,87,34,28,61,,76,76,15,11,7,8,0.3,0.3
2025-04-13T0800,1454A,102.6742,25.0669,昆明市,金鼎山,颗粒物(PM10),76,101,72,37,27,57,,69,69,12,11,7,6,0.5,0.5
2025-04-13T0800,1455A,102.6644,25.0401,昆明市,碧鸡广场,颗粒物(PM10),74,98,72,31,24,57,,74,74,14,11,8,6,0.6,0.5
2025-04-13T0800,3179A,102.7494,25.0119,昆明市,官渡区博物馆,颗粒物(PM10),72,94,103,27,25,46,,67,67,34,17,6,6,0.4,0.3
2025-04-13T0800,3375A,102.8017,24.8336,昆明市,青年创业园,颗粒物(PM10),86,122,79,35,22,46,,66,66,21,11,10,9,0.4,0.4
2025-04-13T0800,3550A,102.7997,24.9786,昆明市,昆明学院,颗粒物(PM10),103,156,115,51,32,59,,61,61,19,16,8,5,0.3,0.3
2025-04-13T0800,3551A,102.5967,24.6736,昆明市,晋宁区生态环境分局,颗粒物(PM10),70,90,58,39,29,67,,80,80,18,10,7,6,0.5,0.6
2025-04-13T0800,3552A,102.6678,24.9856,昆明市,云天化总部,颗粒物(PM10),72,93,82,30,28,60,,75,75,15,13,7,7,0.5,0.5
2025-04-13T0800,1456A,91.1319,29.6514,拉萨市,八廓街,,37,19,16,6,8,118,,135,135,11,8,11,8,0.5,0.4
2025-04-13T0800,1457A,91.1221,29.6747,拉萨市,市环保局,,37,11,17,8,8,117,,130,130,14,13,9,5,0.3,0.3
2025-04-13T0800,1458A,91.0874,29.6475,拉萨市,区监测站,,34,9,12,7,7,108,,129,129,19,11,12,9,0.5,0.5
2025-04-13T0800,1459A,91.1774,29.6541,拉萨市,西藏大学,,37,,13,6,6,117,,130,130,10,10,10,8,0.2,0.2
2025-04-13T0800,1460A,90.9798,29.6588,拉萨市,区辐射站,,30,17,17,8,8,94,,120,120,24,12,12,8,0.4,0.4
2025-04-13T0800,1461A,91.0834,29.6292,拉萨市,拉萨火车站,,39,,10,6,6,122,,131,131,5,6,9,5,0.1,0.2
2025-04-13T0800,2520A,109.2203,23.7256,来宾市,来宾技工学校,颗粒物(PM10),99,148,107,41,22,49,,64,64,15,8,7,7,0.7,0.6
2025-04-13T0800,3535A,109.1781,23.7297,来宾市,兴宾区政府,颗粒物(PM10),86,122,98,50,39,51,,68,68,14,6,7,6,0.5,0.5
2025-04-13T0800,4002A,109.2416,23.7461,来宾市,中南小学,颗粒物(PM10),114,177,115,40,28,44,,60,60,17,8,7,6,0.4,0.5
2025-04-13T0800,1477A,104.1373,35.9454,兰州市,榆中兰大校区,,,,,,,,,,,,,,,,
2025-04-13T0800,1479A,103.831,36.0464,兰州市,铁路设计院,颗粒物(PM10),123,195,479,52,125,11,,8,8,49,45,20,15,1.9,1.1
2025-04-13T0800,3241A,103.7439,36.0842,兰州市,百合公园,颗粒物(PM10),139,228,470,54,119,12,,10,10,38,30,8,7,1.1,0.5
2025-04-13T0800,3242A,103.9611,35.998,兰州市,和平,颗粒物(PM10),118,185,548,57,161,28,,43,43,38,17,13,12,1.0,0.5
2025-04-13T0800,4236A,103.6293,36.0938,兰州市,庄浪东路808号,颗粒物(PM10),144,237,553,70,170,16,,32,32,56,34,10,10,0.5,0.4
2025-04-13T0800,4237A,103.7251,36.1043,兰州市,安宁西路88号,颗粒物(PM10),147,244,588,58,133,9,,15,15,44,27,8,8,0.6,0.5
2025-04-13T0800,4238A,103.8470,36.0676,兰州市,北滨河东路1号,颗粒物(PM10),144,237,501,71,127,10,,6,6,46,37,13,13,1.6,0.9
2025-04-13T0800,3245A,103.6633,36.533,兰州新区,新区管委会,颗粒物(PM10),93,136,327,60,99,19,,37,37,26,14,20,18,0.9,0.4
2025-04-13T0800,3246A,103.6975,36.4789,兰州新区,舟曲中学,颗粒物(PM10),105,159,533,51,132,41,,42,42,27,16,15,17,0.4,0.2
2025-04-13T0800,1067A,116.6708,39.5111,廊坊市,药材公司,,24,20,124,13,25,76,,76,76,6,4,2,1,0.3,0.3
2025-04-13T0800,1068A,116.7214,39.5589,廊坊市,开发区,,32,32,119,11,20,84,,79,79,4,3,2,1,0.3,0.3
2025-04-13T0800,1070A,116.7244,39.5269,廊坊市,北华航天学院,,38,38,123,3,14,82,,78,78,8,6,4,3,0.2,0.2
2025-04-13T0800,2919A,116.7022,39.5453,廊坊市,河北工业大学,,32,32,111,15,26,83,,78,78,4,4,5,4,0.3,0.2
2025-04-13T0800,2535A,103.7723,29.5462,乐山市,花湖湾,颗粒物(PM10),171,292,315,97,108,11,,8,8,18,22,6,6,0.5,0.4
2025-04-13T0800,2536A,103.7627,29.5844,乐山市,牛耳桥,颗粒物(PM10),168,286,323,88,90,8,,8,8,22,24,8,7,0.6,0.5
2025-04-13T0800,2537A,103.7508,29.6006,乐山市,市第三水厂,颗粒物(PM10),179,308,323,84,80,10,,11,11,22,21,4,4,0.7,0.5
2025-04-13T0800,2538A,103.7571,29.5664,乐山市,市监测站,颗粒物(PM10),164,277,318,75,77,7,,8,8,21,24,6,6,0.7,0.5
2025-04-13T0800,3361A,103.7311,29.5628,乐山市,理工大学,颗粒物(PM10),150,250,304,80,87,6,,6,6,23,25,4,4,0.7,0.5
2025-04-13T0800,2598A,100.2143,26.8576,丽江市,西南郊,,25,6,22,3,16,78,,73,73,4,9,4,4,0.7,0.8
2025-04-13T0800,2599A,100.2497,26.8802,丽江市,丽江古城,,22,11,25,11,18,68,,62,62,8,14,7,8,0.6,0.7
2025-04-13T0800,2600A,100.2203,26.8906,丽江市,市中心,,20,6,16,3,16,62,,62,62,9,11,5,6,0.4,0.4
2025-04-13T0800,1267A,119.914,28.4514,丽水市,监测站大楼,颗粒物(PM10),117,183,149,32,33,44,,53,53,12,11,3,2,0.1,0.3
2025-04-13T0800,1268A,119.93,28.4586,丽水市,莲都小学,颗粒物(PM10),130,209,150,54,43,34,,49,49,16,14,4,3,0.2,0.3
2025-04-13T0800,1269A,119.879,28.4231,丽水市,余庄前,颗粒物(PM10),116,181,124,55,38,38,,26,26,11,11,3,3,0.2,0.4
2025-04-13T0800,1173A,119.176,34.5885,连云港市,市环境监测站,颗粒物(PM10),60,70,149,9,24,60,,55,55,17,16,14,12,0.7,0.6
2025-04-13T0800,3000A,119.3581,34.6972,连云港市,德源药业,颗粒物(PM10),64,78,157,12,26,62,,64,64,16,15,15,9,0.4,0.3
2025-04-13T0800,3007A,119.178,34.844,连云港市,新城一中,颗粒物(PM10),60,69,116,17,22,62,,68,68,20,13,10,7,0.7,0.6
2025-04-13T0800,3008A,119.3608,34.7519,连云港市,胡沟管理处,,44,44,95,12,22,55,,61,61,24,17,16,9,0.5,0.4
2025-04-13T0800,3009A,119.1478,34.5911,连云港市,矿山设计院,颗粒物(PM10),62,73,140,9,25,55,,49,49,22,23,12,11,0.5,0.4
2025-04-13T0800,3434A,119.2413,34.6539,连云港市,工贸学校,颗粒物(PM10),56,61,150,16,22,60,,62,62,22,17,18,10,0.5,0.5
2025-04-13T0800,3664A,119.4172,34.7341,连云港市,连云街道,颗粒物(PM10),53,55,115,13,19,73,,68,68,13,17,16,7,0.4,0.4
2025-04-13T0800,2571A,102.3431,27.8099,凉山彝族自治州,青龙寺,,42,42,30,9,6,37,,43,43,8,4,8,7,0.5,0.4
2025-04-13T0800,2572A,102.2721,27.8415,凉山彝族自治州,邛海宾馆,,36,36,31,14,13,48,,58,58,14,10,7,7,0.4,0.3
2025-04-13T0800,2573A,102.2625,27.898,凉山彝族自治州,西昌市政府,,33,33,34,14,13,47,,52,52,10,6,9,7,0.3,0.2
2025-04-13T0800,2574A,102.2685,27.8851,凉山彝族自治州,凉山州政府,,38,38,32,17,13,54,,59,59,13,8,5,5,0.8,0.8
2025-04-13T0800,4229A,102.2342,27.8859,凉山彝族自治州,凯乐南路30号,颗粒物(PM10),53,56,47,23,17,31,,47,47,31,13,11,8,0.6,0.6
2025-04-13T0800,2212A,123.2,41.1953,辽阳市,宏伟区,,26,26,20,14,11,54,,59,59,14,12,9,9,0.7,0.7
2025-04-13T0800,2213A,123.1683,41.2495,辽阳市,新华园,,40,40,18,11,8,46,,60,60,22,12,10,10,0.9,0.7
2025-04-13T0800,2214A,123.2354,41.2639,辽阳市,滨河路,,35,35,15,18,14,50,,63,63,17,11,7,7,0.7,0.6
2025-04-13T0800,2215A,123.149,41.2991,辽阳市,铁西工业园,,43,43,24,25,22,50,,59,59,17,12,25,11,1.2,0.7
2025-04-13T0800,2227A,125.1358,42.8845,辽源市,环保局,,20,8,19,7,4,63,,63,63,12,11,4,5,0.4,0.4
2025-04-13T0800,3239A,125.0764,42.9078,辽源市,银鹰制药,,22,8,11,7,6,69,,66,66,12,9,6,8,0.5,0.5
2025-04-13T0800,1625A,115.9848,36.4372,聊城市,区政府,颗粒物(PM10),83,116,99,18,15,62,,59,59,29,23,14,8,0.3,0.2
2025-04-13T0800,2878A,116.0072,36.4343,聊城市,聊大东校,颗粒物(PM10),89,127,103,23,22,56,,57,57,21,15,12,7,0.4,0.5
2025-04-13T0800,3200A,115.9819,36.4978,聊城市,监控中心,颗粒物(PM10),86,121,111,34,24,64,,56,56,22,15,7,5,0.2,0.3
2025-04-13T0800,3513A,116.0445,36.4361,聊城市,九州社区,颗粒物(PM10),78,106,98,12,8,51,,62,62,33,10,13,6,0.4,0.4
2025-04-13T0800,4018A,116.0567,36.4608,聊城市,星美广场,颗粒物(PM10),78,105,75,11,7,55,,66,66,23,11,9,7,0.5,0.4
2025-04-13T0800,2632A,94.3681,29.6376,林芝市,林芝监测站,,26,,8,3,4,81,,96,96,5,5,5,5,0.4,0.3
2025-04-13T0800,2633A,94.3616,29.6616,林芝市,林芝人民医院,,21,8,12,6,5,65,,82,82,3,3,5,5,0.3,0.3
2025-04-13T0800,2603A,100.0781,23.8982,临沧市,市环保局,,40,29,40,28,30,60,,37,37,10,16,6,6,0.5,0.7
2025-04-13T0800,2604A,100.0894,23.8822,临沧市,市气象局,,26,,34,18,30,65,,37,37,9,17,6,7,0.6,0.7
2025-04-13T0800,1733A,111.5531,36.0783,临汾市,临钢医院,颗粒物(PM10),130,210,156,,16,36,,35,35,21,11,12,5,0.9,0.5
2025-04-13T0800,1734A,111.5028,36.0714,临汾市,技工学校,颗粒物(PM10),122,194,143,38,20,39,,44,44,19,9,12,5,0.9,0.4
2025-04-13T0800,1736A,111.5018,36.0855,临汾市,市委,颗粒物(PM10),119,187,150,37,24,34,,42,42,20,9,11,5,0.8,0.4
2025-04-13T0800,3018A,111.505,36.1014,临汾市,唐尧大酒店,颗粒物(PM10),120,189,150,25,19,29,,43,43,20,8,10,6,0.6,0.4
2025-04-13T0800,4244A,111.4879,36.0530,临汾市,启星学校,颗粒物(PM10),126,202,144,42,21,38,,34,34,18,10,16,5,0.9,0.4
2025-04-13T0800,4271A,103.2464,35.6123,临夏回族自治州,滨河东路1号,颗粒物(PM10),74,97,218,44,47,14,,25,25,21,14,4,4,0.6,0.4
2025-04-13T0800,4310A,103.2093,35.5995,临夏回族自治州,新华街21号,颗粒物(PM10),80,110,163,43,50,21,,19,19,24,20,8,9,0.6,0.4
2025-04-13T0800,1618A,118.3429,35.0532,临沂市,沂河小区,颗粒物(PM10),52,53,107,16,14,67,,73,73,12,9,10,7,0.5,0.4
2025-04-13T0800,1619A,118.295,35.0583,临沂市,鲁南制药厂,,48,48,106,17,23,74,,80,80,20,16,11,9,0.3,0.3
2025-04-13T0800,1620A,118.2794,34.9976,临沂市,新光毛纺厂,,48,48,94,12,17,68,,70,70,20,18,6,6,0.3,0.2
2025-04-13T0800,1621A,118.3956,35.0888,临沂市,河东保险公司,,39,39,91,9,14,68,,74,74,18,13,5,2,0.4,0.3
2025-04-13T0800,3370A,118.3564,35.0215,临沂市,十里堡居委,,39,39,110,3,17,70,,73,73,18,18,4,2,0.5,0.5
2025-04-13T0800,3496A,118.3604,35.1084,临沂市,南坊新区,颗粒物(PM10),52,53,119,7,20,75,,81,81,17,12,8,6,0.5,0.5
2025-04-13T0800,3860A,118.3920,35.0300,临沂市,皇山花园小区,,44,44,119,11,16,72,,78,78,13,7,9,6,0.3,0.3
2025-04-13T0800,1870A,109.4856,24.3895,柳州市,柳东小学,颗粒物(PM10),160,269,124,65,33,56,,56,56,14,15,9,9,0.6,0.6
2025-04-13T0800,1871A,109.4157,24.3277,柳州市,环保监测站,颗粒物(PM10),131,211,113,45,31,57,,62,62,12,11,10,10,0.5,0.6
2025-04-13T0800,1872A,109.389,24.341,柳州市,河西水厂,颗粒物(PM10),99,148,108,39,36,44,,55,55,20,17,12,11,0.5,0.9
2025-04-13T0800,1873A,109.4311,24.2921,柳州市,市四中,颗粒物(PM10),186,322,121,49,27,59,,60,60,12,10,10,8,0.4,0.4
2025-04-13T0800,1874A,109.4006,24.3631,柳州市,市九中,颗粒物(PM10),156,262,119,46,27,53,,59,59,11,11,8,9,0.6,0.6
2025-04-13T0800,1875A,109.4958,24.3134,柳州市,古亭山,颗粒物(PM10),185,320,139,65,34,35,,47,47,25,10,33,13,0.6,0.6
2025-04-13T0800,3402A,109.5422,24.3996,柳州市,市二中,颗粒物(PM10),156,262,159,67,34,37,,50,50,20,13,10,10,0.4,0.4
2025-04-13T0800,2307A,116.5079,31.737,六安市,监测大楼,颗粒物(PM10),62,73,224,12,62,59,,84,84,24,5,5,4,0.3,0.2
2025-04-13T0800,2308A,116.4738,31.7643,六安市,皖西学院,颗粒物(PM10),76,102,267,11,45,73,,72,72,8,10,4,4,0.4,0.4
2025-04-13T0800,2309A,116.4996,31.7905,六安市,朝阳厂,颗粒物(PM10),69,88,218,19,42,81,,85,85,17,11,3,3,0.3,0.3
2025-04-13T0800,2310A,116.5567,31.7886,六安市,开发区,颗粒物(PM10),84,118,282,17,51,90,,90,90,7,7,3,3,0.4,0.3
2025-04-13T0800,2576A,104.8,26.5892,六盘水市,窑上,颗粒物(PM10),81,112,212,41,68,61,,56,56,3,5,4,3,0.2,0.2
2025-04-13T0800,2577A,104.83,26.5917,六盘水市,黄土坡,颗粒物(PM10),103,156,305,43,70,47,,54,54,19,10,8,8,0.1,0
2025-04-13T0800,2578A,104.89,26.5939,六盘水市,水钢,颗粒物(PM10),167,283,361,69,78,41,,48,48,37,22,19,27,1.3,1
2025-04-13T0800,2579A,104.8475,26.5894,六盘水市,民中,颗粒物(PM10),116,182,276,53,68,48,,57,57,24,12,10,9,0.3,0.3
2025-04-13T0800,2580A,104.9544,26.5506,六盘水市,双水,颗粒物(PM10),153,256,366,74,82,39,,27,27,17,24,11,16,0.3,0.5
2025-04-13T0800,2335A,117.0189,25.1181,龙岩市,龙岩师专,,,,,,,,,,,,,,,,
2025-04-13T0800,2336A,117.0217,25.1033,龙岩市,龙岩市监测站,颗粒物(PM10),108,166,176,33,38,96,,95,95,7,10,5,5,0.1,0.3
2025-04-13T0800,2337A,117.0258,25.0661,龙岩市,闽西职业技术学院,颗粒物(PM10),104,158,164,39,36,95,,97,97,7,9,5,4,0.2,0.4
2025-04-13T0800,2338A,117.0196,25.0306,龙岩市,龙岩学院,颗粒物(PM10),95,139,156,40,41,80,,94,94,10,7,2,2,0.2,0.3
2025-04-13T0800,2665A,105.0822,33.3261,陇南市,汉王镇固水子,,,,,,,,,,,,,,,,
2025-04-13T0800,2885A,104.9339,33.3826,陇南市,滨江中学,颗粒物(PM10),445,545,610,135,140,26,,33,33,18,11,9,7,0.5,0.4
2025-04-13T0800,3247A,104.955,33.371,陇南市,市总工会,颗粒物(PM10),324,439,579,141,162,33,,49,49,17,7,9,8,0.4,0.2
2025-04-13T0800,2487A,111.9589,27.8901,娄底市,电视发射台,颗粒物(PM10),125,199,555,52,112,49,,57,57,3,3,7,6,0.5,0.4
2025-04-13T0800,2488A,111.9975,27.725,娄底市,市监测站,颗粒物(PM10),270,399,586,118,137,16,,30,30,32,15,31,11,1.5,0.7
2025-04-13T0800,2489A,112.0194,27.7314,娄底市,市委党校,颗粒物(PM10),163,275,487,76,111,18,,34,34,20,13,3,4,0.4,0.2
2025-04-13T0800,2490A,111.9561,27.7569,娄底市,涟钢,颗粒物(PM10),246,382,594,95,129,24,,23,23,14,13,3,3,0,0.1
2025-04-13T0800,2491A,111.9892,27.7044,娄底市,市政府,颗粒物(PM10),179,307,552,85,126,15,,20,20,12,9,3,3,0.4,0.3
2025-04-13T0800,1893A,105.4324,28.9634,泸州市,九狮山,,,,,,,,,,,,,,,,
2025-04-13T0800,1894A,105.4427,28.9063,泸州市,小市上码头,细颗粒物(PM2.5),104,148,149,78,83,26,,25,25,22,22,6,6,0.7,0.6
2025-04-13T0800,1895A,105.4241,28.8573,泸州市,兰田宪桥,细颗粒物(PM2.5),107,143,153,80,84,14,,18,18,21,15,6,6,0.7,0.5
2025-04-13T0800,1896A,105.4379,28.8833,泸州市,市环监站,,,,,,,,,,,,,,,,
2025-04-13T0800,4272A,105.3689,28.7783,泸州市,纳溪中医医院,颗粒物(PM10),154,257,310,53,58,18,,17,17,16,22,6,6,0.6,0.6
2025-04-13T0800,2183A,111.1406,37.5211,吕梁市,环保局,颗粒物(PM10),72,93,98,21,19,38,,40,40,30,14,5,4,0.4,0.4
2025-04-13T0800,2185A,111.1297,37.5136,吕梁市,自来水公司,颗粒物(PM10),100,149,108,21,20,23,,32,32,39,16,3,3,0.5,0.5
2025-04-13T0800,2867A,111.1283,37.51,吕梁市,马茂庄小学,颗粒物(PM10),74,97,110,20,38,37,,23,23,34,26,2,2,0.3,0.3
2025-04-13T0800,1812A,112.3931,34.6516,洛阳市,市委党校,颗粒物(PM10),115,180,175,68,60,66,,70,70,17,12,5,2,0.5,0.4
2025-04-13T0800,1815A,112.494,34.6886,洛阳市,河南林校,颗粒物(PM10),136,222,200,46,33,63,,68,68,19,9,7,3,0.6,0.5
2025-04-13T0800,1816A,112.3844,34.623,洛阳市,开发区管委会,颗粒物(PM10),94,137,154,49,46,46,,58,58,26,13,6,5,0.3,0.2
2025-04-13T0800,1817A,112.4267,34.6258,洛阳市,市委新办公区,颗粒物(PM10),89,128,143,35,29,58,,62,62,19,10,4,3,0.2,0.2
2025-04-13T0800,3340A,112.6005,34.6326,洛阳市,伊滨,颗粒物(PM10),92,133,134,38,37,67,,71,71,13,7,4,3,0.5,0.5
2025-04-13T0800,3341A,112.4951,34.6332,洛阳市,中移产业园,颗粒物(PM10),141,231,290,48,42,56,,63,63,17,8,6,4,0.3,0.2
2025-04-13T0800,3593A,112.5736,34.8993,洛阳市,吉利监测站,颗粒物(PM10),126,202,153,40,23,74,,48,48,8,13,8,7,0.5,0.4
2025-04-13T0800,3635A,112.3677,34.662,洛阳市,河科大西苑校区,颗粒物(PM10),124,198,203,35,28,68,,72,72,14,11,8,6,0.4,0.3
2025-04-13T0800,3636A,112.4388,34.6781,洛阳市,英才小学,颗粒物(PM10),120,190,181,47,37,68,,72,72,16,9,9,5,0.3,0.3
2025-04-13T0800,4214A,112.4600,34.6949,洛阳市,春都路1号院,颗粒物(PM10),135,220,203,51,31,70,,73,73,16,10,8,5,0.4,0.4
2025-04-13T0800,2399A,114.051,33.5699,漯河市,三五一五工厂,颗粒物(PM10),116,181,204,31,32,69,,70,70,13,8,6,4,0.6,0.4
2025-04-13T0800,2400A,114.0055,33.5698,漯河市,漯河大学,颗粒物(PM10),99,147,175,31,42,59,,57,57,16,10,8,6,0.5,0.3
2025-04-13T0800,2401A,114.0138,33.5828,漯河市,市水利局,颗粒物(PM10),108,166,199,39,41,64,,63,63,14,11,7,4,0.4,0.3
2025-04-13T0800,2402A,114.0261,33.5698,漯河市,市广电局,颗粒物(PM10),109,168,214,39,29,61,,64,64,16,7,6,4,0.5,0.2
2025-04-13T0800,3478A,113.9749,33.5664,漯河市,市图书馆,颗粒物(PM10),90,130,217,43,35,63,,63,63,16,12,5,4,0.7,0.5
2025-04-13T0800,4250A,114.0892,33.5882,漯河市,韶山路11号,颗粒物(PM10),102,153,195,73,62,68,,66,66,18,13,3,3,0.6,0.4
2025-04-13T0800,1798A,118.5092,31.6837,马鞍山市,湖东路四小,颗粒物(PM10),74,98,367,30,69,76,,79,79,14,13,6,10,0.4,0.6
2025-04-13T0800,1799A,118.5024,31.6449,马鞍山市,开发区,颗粒物(PM10),69,88,380,31,63,68,,68,68,19,13,6,6,0.5,0.5
2025-04-13T0800,1802A,118.6245,31.7241,马鞍山市,濮塘,颗粒物(PM10),74,97,378,26,69,74,,74,74,16,8,14,9,0.6,0.5
2025-04-13T0800,3633A,118.4918,31.6809,马鞍山市,雨山,颗粒物(PM10),78,105,384,29,74,74,,77,77,14,12,7,11,0.6,0.9
2025-04-13T0800,4191A,118.5274,31.72227,马鞍山市,慈湖高新区,,,,474,,85,,,78,,,24,,14,,1.2
2025-04-13T0800,1686A,111.0286,21.4688,茂名市,电白南海,颗粒物(PM10),183,315,134,85,44,65,,65,65,12,10,9,3,0.7,0.6
2025-04-13T0800,1687A,110.9294,21.6533,茂名市,茂石化七小,颗粒物(PM10),185,320,159,88,50,57,,62,62,15,12,5,7,0.7,0.8
2025-04-13T0800,1688A,110.9107,21.6687,茂名市,健康路,颗粒物(PM10),190,329,155,85,53,61,,65,65,10,9,10,8,0.6,0.7
2025-04-13T0800,1689A,110.8592,21.6828,茂名市,高岭,颗粒物(PM10),213,359,202,83,52,54,,58,58,11,10,18,13,0.5,0.6
2025-04-13T0800,3450A,111.01,21.5165,茂名市,电白水东,颗粒物(PM10),184,317,134,85,39,61,,63,63,18,15,33,9,0.6,0.7
2025-04-13T0800,2539A,104.0308,30.0478,眉山市,黑龙滩水库,颗粒物(PM10),161,271,282,44,47,28,,25,25,6,7,3,3,0.3,0.3
2025-04-13T0800,2540A,103.8416,30.0874,眉山市,气象局,颗粒物(PM10),183,316,370,75,88,3,,7,7,28,24,2,2,0.6,0.5
2025-04-13T0800,3137A,103.8578,30.0744,眉山市,市委党校,颗粒物(PM10),183,315,362,73,90,5,,10,10,34,23,7,5,0.7,0.6
2025-04-13T0800,3148A,103.8291,30.0564,眉山市,区人社局,细颗粒物(PM2.5),107,152,171,80,95,11,,14,14,35,26,9,7,0.7,0.6
2025-04-13T0800,1690A,116.1231,24.3284,梅州市,梅江月梅,颗粒物(PM10),113,176,173,42,39,69,,73,73,12,10,4,4,0.3,0.4
2025-04-13T0800,1691A,116.0797,24.2719,梅州市,梅县新城,颗粒物(PM10),115,179,180,45,39,84,,89,89,10,11,5,5,0.4,0.4
2025-04-13T0800,1692A,116.1248,24.2654,梅州市,环境监控中心,颗粒物(PM10),116,182,175,46,39,69,,82,82,19,14,6,6,0.3,0.4
2025-04-13T0800,3315A,116.1233,24.2991,梅州市,梅龙,颗粒物(PM10),125,200,186,50,42,74,,76,76,10,9,7,6,0.4,0.5
2025-04-13T0800,1878A,104.7778,31.4741,绵阳市,富乐山,颗粒物(PM10),197,344,312,98,91,22,,36,36,30,17,8,7,0.5,0.3
2025-04-13T0800,1880A,104.6697,31.4668,绵阳市,高新区自来水公司,颗粒物(PM10),184,317,277,97,89,18,,22,22,36,24,13,4,0.6,0.4
2025-04-13T0800,1881A,104.7287,31.5075,绵阳市,三水厂,颗粒物(PM10),270,399,348,106,91,9,,27,27,38,22,10,6,0.8,0.5
2025-04-13T0800,3491A,104.69,31.5322,绵阳市,西科大附属小学,颗粒物(PM10),219,363,340,104,87,14,,26,26,37,22,12,9,0.8,0.5
2025-04-13T0800,3492A,104.5648,31.5343,绵阳市,安州区旅游局,颗粒物(PM10),164,277,293,66,73,16,,33,33,22,16,11,12,0.4,0.2
2025-04-13T0800,4226A,104.7651,31.4531,绵阳市,绵阳市气象局,颗粒物(PM10),282,407,351,98,88,28,,36,36,29,20,6,4,0.4,0.3
2025-04-13T0800,1784A,129.61,44.561,牡丹江市,环保大楼,,36,16,42,14,16,114,,120,120,8,11,6,6,0.2,0.3
2025-04-13T0800,1785A,129.6115,44.5782,牡丹江市,文化广场,,35,34,43,16,25,112,,120,120,9,11,11,11,0.4,0.5
2025-04-13T0800,1786A,129.5904,44.5963,牡丹江市,第一医院,,36,27,42,15,21,114,,120,120,7,9,7,6,0.3,0.3
2025-04-13T0800,1787A,129.6364,44.6075,牡丹江市,机车工厂,颗粒物(PM10),53,55,50,19,18,111,,117,117,13,14,7,7,0.4,0.4
2025-04-13T0800,1788A,129.6386,44.5462,牡丹江市,第一中学,,37,23,36,13,15,118,,123,123,4,7,8,7,0.5,0.5
2025-04-13T0800,2531A,105.0703,29.61,内江市,市监测站,颗粒物(PM10),147,243,346,76,114,23,,36,36,27,19,10,8,0.6,0.5
2025-04-13T0800,2532A,105.0717,29.5947,内江市,东兴区政府,颗粒物(PM10),152,254,365,69,105,25,,33,33,20,21,3,3,0.5,0.4
2025-04-13T0800,2533A,105.0653,29.5817,内江市,内江二中,颗粒物(PM10),162,273,382,85,114,20,,28,28,28,24,7,6,0.5,0.4
2025-04-13T0800,2534A,105.0406,29.5822,内江市,内江日报社,颗粒物(PM10),180,310,425,87,119,23,,29,29,26,20,7,5,0.4,0.3
2025-04-13T0800,2628A,92.0657,31.4846,那曲市,那曲监测站,,22,22,24,8,14,50,,70,70,17,14,8,7,0.5,0.5
2025-04-13T0800,4243A,92.0515,31.4787,那曲市,那曲市委宣传部,,22,22,21,14,13,59,,79,79,16,11,5,6,0.4,0.5
2025-04-13T0800,1290A,115.8931,28.6843,南昌市,省外办,颗粒物(PM10),183,316,388,92,98,43,,52,52,28,21,22,7,0.5,0.4
2025-04-13T0800,1291A,115.8886,28.7003,南昌市,省林业公司,颗粒物(PM10),303,422,567,92,104,33,,45,45,27,13,29,9,0.4,0.3
2025-04-13T0800,1292A,115.8126,28.7442,南昌市,林科所,颗粒物(PM10),186,322,405,66,91,28,,20,20,62,39,8,7,0.3,0.3
2025-04-13T0800,1294A,115.8518,28.687,南昌市,建工学校,颗粒物(PM10),292,414,509,85,99,39,,53,53,22,12,22,4,0.5,0.4
2025-04-13T0800,1295A,115.8921,28.6424,南昌市,象湖,颗粒物(PM10),203,352,426,83,95,45,,48,48,21,14,25,9,0.5,0.3
2025-04-13T0800,1296A,115.7423,28.7996,南昌市,武术学校,颗粒物(PM10),86,122,356,26,52,12,,14,14,2,2,8,9,0.5,0.5
2025-04-13T0800,3046A,115.9084,28.6062,南昌市,机电学校,颗粒物(PM10),263,394,479,92,106,31,,34,34,32,22,23,5,0.5,0.4
2025-04-13T0800,3690A,115.9721,28.7031,南昌市,外国语学校,颗粒物(PM10),289,412,499,77,88,49,,47,47,27,24,16,4,0,0
2025-04-13T0800,4192A,115.9316,28.68677,南昌市,南京东路235号,颗粒物(PM10),315,432,535,92,97,53,,54,54,26,19,13,8,0.4,0.3
2025-04-13T0800,1905A,106.056,30.8064,南充市,西山风景区,颗粒物(PM10),164,278,542,99,172,34,,53,53,15,7,4,4,0.4,0.3
2025-04-13T0800,1906A,106.0789,30.8023,南充市,南充市委,颗粒物(PM10),256,389,769,120,189,38,,54,54,20,14,6,4,0.4,0.3
2025-04-13T0800,1907A,106.1031,30.8217,南充市,南充炼油厂,颗粒物(PM10),219,363,702,123,197,33,,50,50,20,13,7,4,0.4,0.4
2025-04-13T0800,4227A,106.1083,30.7884,南充市,梨树横街98号,颗粒物(PM10),253,387,762,70,121,38,,50,50,19,13,9,5,0.2,0.2
2025-04-13T0800,4304A,106.1172,30.843,南充市,清泉寺北路188号,颗粒物(PM10),209,356,681,108,160,37,,55,55,20,12,5,4,0.2,0.1
2025-04-13T0800,4305A,106.067,30.7616,南充市,同庆路1号,颗粒物(PM10),192,333,680,97,164,34,,46,46,16,13,6,4,0.3,0.2
2025-04-13T0800,1151A,118.8086,32.1065,南京市,迈皋桥,颗粒物(PM10),66,82,225,17,56,83,,77,77,2,5,4,4,0.2,0.1
2025-04-13T0800,1152A,118.7538,32.0551,南京市,草场门,颗粒物(PM10),78,105,370,14,55,79,,78,78,18,14,4,4,0.5,0.5
2025-04-13T0800,1153A,118.7794,32.0745,南京市,山西路,颗粒物(PM10),96,141,330,12,51,82,,79,79,15,14,4,4,0.1,0.1
2025-04-13T0800,1154A,118.7752,32.0023,南京市,中华门,颗粒物(PM10),74,97,236,14,53,68,,68,68,16,12,8,7,0.4,0.4
2025-04-13T0800,1155A,118.8109,32.0309,南京市,瑞金路,颗粒物(PM10),76,102,231,17,50,73,,74,74,13,5,6,6,0.3,0.3
2025-04-13T0800,1156A,118.7997,32.0754,南京市,玄武湖,颗粒物(PM10),71,92,302,9,43,72,,70,70,16,12,6,6,0.3,0.3
2025-04-13T0800,1157A,118.6414,32.0931,南京市,浦口,颗粒物(PM10),86,122,369,15,37,95,,92,92,18,16,6,5,0.4,0.3
2025-04-13T0800,1158A,118.7356,31.9996,南京市,奥体中心,颗粒物(PM10),74,98,236,19,50,69,,69,69,18,15,6,6,0.3,0.2
2025-04-13T0800,1159A,118.9125,32.1028,南京市,仙林大学城,颗粒物(PM10),101,151,377,12,50,83,,75,75,6,9,10,9,0.5,0.6
2025-04-13T0800,3422A,118.8436,31.9198,南京市,江宁彩虹桥,颗粒物(PM10),75,100,351,19,53,78,,72,72,7,4,5,4,0.5,0.5
2025-04-13T0800,3427A,118.8554,32.3578,南京市,六合雄州,颗粒物(PM10),72,93,243,9,47,61,,62,62,10,4,6,4,0.3,0.2
2025-04-13T0800,4249A,118.8708,31.3402,南京市,汶溪路181号,颗粒物(PM10),71,91,332,26,62,79,,78,78,15,13,4,3,0.6,0.5
2025-04-13T0800,4312A,119.019,31.6512,南京市,中山西路1号,颗粒物(PM10),68,85,303,24,69,74,,71,71,17,12,10,5,0.5,0.4
2025-04-13T0800,1401A,108.3103,22.7881,南宁市,二十一中,颗粒物(PM10),106,162,70,21,21,67,,74,74,19,17,6,6,0.5,0.6
2025-04-13T0800,1402A,108.3141,22.8528,南宁市,北湖,颗粒物(PM10),97,144,67,36,24,62,,68,68,20,19,16,15,0.6,0.8
2025-04-13T0800,1403A,108.3206,22.8225,南宁市,市监测站,颗粒物(PM10),109,167,75,32,25,59,,67,67,21,19,12,11,0.2,0.3
2025-04-13T0800,1404A,108.3829,22.8037,南宁市,大自然花园,颗粒物(PM10),95,140,64,22,21,72,,78,78,15,14,5,6,0.3,0.5
2025-04-13T0800,1405A,108.4394,22.7904,南宁市,仙葫,颗粒物(PM10),86,122,70,31,24,52,,59,59,20,12,5,6,0.4,0.5
2025-04-13T0800,1406A,108.2397,22.8467,南宁市,区农职院,颗粒物(PM10),120,190,68,37,21,64,,66,66,10,14,3,5,0.5,0.6
2025-04-13T0800,1407A,108.3275,22.735,南宁市,英华嘉园,颗粒物(PM10),102,154,69,28,23,73,,77,77,15,17,10,8,0.4,0.5
2025-04-13T0800,3401A,108.4834,22.7618,南宁市,红星社区,颗粒物(PM10),70,90,66,25,25,63,,77,77,17,11,8,9,0.5,0.6
2025-04-13T0800,4221A,108.2177,22.7774,南宁市,乐贤路16号,颗粒物(PM10),125,199,78,37,28,57,,63,63,18,16,26,10,0.5,0.6
2025-04-13T0800,2331A,118.0966,26.6761,南平市,茫荡山,,,,,,,,,,,,,,,,
2025-04-13T0800,2332A,118.1681,26.6369,南平市,南平市监测站,颗粒物(PM10),108,165,95,41,28,31,,34,34,11,11,3,3,0.5,0.6
2025-04-13T0800,2333A,118.1825,26.6489,南平市,南平铝业有限公司,颗粒物(PM10),104,158,110,40,28,26,,34,34,14,12,3,3,0.6,0.6
2025-04-13T0800,2334A,118.1756,26.6272,南平市,南平七中,颗粒物(PM10),108,165,106,50,34,29,,26,26,13,9,4,4,0.5,0.6
2025-04-13T0800,1168A,120.9098,31.9663,南通市,狼山街道,颗粒物(PM10),81,111,199,24,36,73,,70,70,24,16,11,7,0.8,0.6
2025-04-13T0800,1169A,120.86,32.0005,南通市,虹桥,颗粒物(PM10),72,93,187,29,43,79,,70,70,18,16,8,6,0.5,0.5
2025-04-13T0800,1170A,120.87,32.02,南通市,城中,颗粒物(PM10),85,119,219,15,38,79,,74,74,20,16,7,5,0.4,0.5
2025-04-13T0800,1171A,120.94,31.93,南通市,星湖花园,颗粒物(PM10),79,108,202,22,39,69,,66,66,23,30,10,7,0.7,0.6
2025-04-13T0800,1172A,120.81,32.0417,南通市,紫琅学院,颗粒物(PM10),81,111,204,13,33,80,,79,79,18,14,6,4,0.6,0.5
2025-04-13T0800,3291A,121.067,32.062,南通市,通州监测站,颗粒物(PM10),79,107,187,19,36,75,,68,68,17,15,7,5,0.3,0.3
2025-04-13T0800,3432A,120.9348,31.9883,南通市,环境教育馆,颗粒物(PM10),84,117,194,22,39,84,,77,77,14,11,9,7,0.6,0.4
2025-04-13T0800,2404A,112.5224,33.0122,南阳市,瓦房庄,颗粒物(PM10),106,162,163,48,37,63,,53,53,19,18,8,4,0.5,0.4
2025-04-13T0800,2405A,112.5003,32.9735,南阳市,汉画馆,颗粒物(PM10),113,175,154,43,36,53,,38,38,23,26,7,4,0.3,0.3
2025-04-13T0800,2406A,112.5573,33.027,南阳市,气象站,颗粒物(PM10),133,216,193,78,48,55,,50,50,23,19,7,2,0.4,0.3
2025-04-13T0800,2407A,112.5481,32.9689,南阳市,理工学院,颗粒物(PM10),116,181,164,44,35,55,,42,42,20,25,6,3,0.4,0.3
2025-04-13T0800,4008A,112.5234,32.9922,南阳市,卧龙区政府,颗粒物(PM10),118,185,173,40,34,55,,44,44,22,21,8,3,0.5,0.4
2025-04-13T0800,1234A,121.8358,29.911,宁波市,区环保大楼,颗粒物(PM10),79,108,279,36,73,83,,82,82,12,13,8,7,0.5,0.6
2025-04-13T0800,1235A,121.56,29.82,宁波市,万里学院,颗粒物(PM10),76,102,255,30,57,81,,84,84,12,9,8,5,0.3,0.5
2025-04-13T0800,1236A,121.713,29.9572,宁波市,龙赛医院,颗粒物(PM10),81,112,285,26,44,87,,81,81,7,11,8,8,0.4,0.5
2025-04-13T0800,1239A,121.633,29.7733,宁波市,钱湖水厂,颗粒物(PM10),83,115,268,31,49,75,,80,80,16,12,7,7,0.4,0.5
2025-04-13T0800,1240A,121.5856,29.8635,宁波市,太古小学,颗粒物(PM10),78,106,261,20,49,88,,88,88,12,11,8,8,0.2,0.4
2025-04-13T0800,1241A,121.524,29.8674,宁波市,市环境监测中心,颗粒物(PM10),78,105,267,19,49,80,,79,79,15,16,8,8,0.3,0.4
2025-04-13T0800,2871A,121.6147,29.9017,宁波市,万里国际学校,颗粒物(PM10),91,131,244,23,52,85,,82,82,5,7,7,7,0.3,0.4
2025-04-13T0800,3710A,121.5594,29.8975,宁波市,白沙活动中心,颗粒物(PM10),91,131,247,22,66,83,,82,82,8,8,6,6,0.4,0.5
2025-04-13T0800,2339A,119.5001,26.6946,宁德市,金涵水库,,,,,,,,,,,,,,,,
2025-04-13T0800,2341A,119.5388,26.6612,宁德市,宁德市监测站,颗粒物(PM10),107,163,90,38,28,55,,78,78,19,18,4,4,0.4,0.6
2025-04-13T0800,3209A,119.5231,26.6562,宁德市,宁德一中,颗粒物(PM10),95,139,85,28,31,65,,80,80,9,14,5,5,0.2,0.4
2025-04-13T0800,2618A,98.8601,25.8567,怒江傈僳族自治州,州监测站,,33,33,44,23,34,13,,25,25,13,9,8,8,0.5,0.4
2025-04-13T0800,2619A,98.8546,25.8417,怒江傈僳族自治州,泸水一中,,46,38,40,32,37,4,,12,12,14,15,6,6,0.5,0.5
2025-04-13T0800,1888A,101.6891,26.571,攀枝花市,弄弄坪,颗粒物(PM10),57,64,61,16,17,39,,55,55,20,17,9,7,0.9,0.6
2025-04-13T0800,1889A,101.5769,26.5928,攀枝花市,河门口,,46,46,44,18,17,48,,53,53,11,10,12,13,0.7,0.8
2025-04-13T0800,1890A,101.7169,26.585,攀枝花市,炳草岗,,48,48,57,18,20,36,,51,51,29,17,16,14,0.5,0.4
2025-04-13T0800,1891A,101.7369,26.5008,攀枝花市,仁和,颗粒物(PM10),55,60,61,20,22,32,,50,50,20,15,8,8,0.5,0.4
2025-04-13T0800,2835A,101.7227,26.567,攀枝花市,四十中小,,38,38,41,15,18,48,,59,59,16,12,7,7,0.7,0.6
2025-04-13T0800,1604A,122.0303,41.1489,盘锦市,开发区,,26,26,16,10,12,68,,67,67,13,12,10,9,0.3,0.3
2025-04-13T0800,1605A,122.0485,41.0883,盘锦市,兴隆台,,28,28,36,8,9,68,,63,63,16,15,9,7,0.4,0.4
2025-04-13T0800,1606A,121.8297,41.1028,盘锦市,新生街道,,36,36,41,8,10,77,,63,63,10,18,16,15,0.2,0.3
2025-04-13T0800,1832A,113.3257,33.742,平顶山市,新华旅馆,颗粒物(PM10),81,111,157,30,28,63,,50,50,19,14,4,4,0.3,0.2
2025-04-13T0800,1833A,113.2919,33.737,平顶山市,规划设计院,颗粒物(PM10),85,119,146,31,43,67,,53,53,17,12,5,5,0,0.2
2025-04-13T0800,1834A,113.182,33.774,平顶山市,平顶山工学院,颗粒物(PM10),73,96,137,27,27,78,,73,73,9,7,6,6,0.4,0.3
2025-04-13T0800,3204A,113.3025,33.73,平顶山市,规划局,颗粒物(PM10),89,127,175,12,55,65,,54,54,14,11,4,4,0.8,0.5
2025-04-13T0800,3594A,112.8867,33.9116,平顶山市,石龙区,颗粒物(PM10),88,126,212,50,49,53,,62,62,19,12,5,5,0.4,0.3
2025-04-13T0800,2656A,106.6692,35.5461,平凉市,聚贤嘉苑,颗粒物(PM10),79,108,208,28,42,44,,34,34,34,24,3,7,0.8,0.6
2025-04-13T0800,2657A,106.7021,35.5307,平凉市,博物馆,颗粒物(PM10),80,110,206,30,40,25,,30,30,35,17,11,8,0.9,0.4
2025-04-13T0800,2347A,114.0997,27.5002,萍乡市,武功山,颗粒物(PM10),111,171,381,44,73,33,,36,36,5,5,9,10,0.7,0.6
2025-04-13T0800,2348A,113.8385,27.6434,萍乡市,中医院,颗粒物(PM10),338,450,580,107,123,14,,26,26,26,12,20,8,1.4,0.6
2025-04-13T0800,2349A,113.8493,27.6253,萍乡市,市政府车库,颗粒物(PM10),199,347,478,88,109,30,,25,25,17,13,6,4,0.7,0.5
2025-04-13T0800,2350A,113.8676,27.6435,萍乡市,市环保局,颗粒物(PM10),295,416,537,105,137,27,,29,29,15,13,7,4,0.9,0.6
2025-04-13T0800,2351A,113.866,27.6198,萍乡市,安源区政府,颗粒物(PM10),205,353,509,104,130,20,,23,23,14,11,7,7,0.5,0.3
2025-04-13T0800,2319A,119.0141,25.4325,莆田市,荔城区仓后路,颗粒物(PM10),107,164,81,47,22,86,,86,86,13,13,2,2,0.4,0.5
2025-04-13T0800,2320A,119.0015,25.4553,莆田市,莆田市监测站,颗粒物(PM10),105,160,77,53,25,93,,89,89,8,9,4,4,0.2,0.4
2025-04-13T0800,2321A,119.1119,25.4561,莆田市,涵江区六中,颗粒物(PM10),98,146,81,50,25,78,,87,87,14,15,3,3,0.4,0.4
2025-04-13T0800,2322A,119.1013,25.3215,莆田市,秀屿区政府,颗粒物(PM10),96,141,68,41,19,83,,86,86,13,11,3,4,0.4,0.5
2025-04-13T0800,2323A,118.981,25.4792,莆田市,东圳水库,,,,,,,,,,,,,,,,
2025-04-13T0800,2392A,115.0312,35.7636,濮阳市,环保局,颗粒物(PM10),84,117,123,21,17,52,,54,54,23,18,8,6,1.0,1
2025-04-13T0800,2394A,115.0574,35.7609,濮阳市,油田运输公司,颗粒物(PM10),89,127,123,18,22,55,,59,59,21,17,7,5,0.5,0.4
2025-04-13T0800,3021A,115,35.7668,濮阳市,濮水河管理处,颗粒物(PM10),99,148,123,17,21,46,,42,42,21,14,6,4,0.6,0.6
2025-04-13T0800,4216A,115.0924,35.7686,濮阳市,任丘路479号,颗粒物(PM10),95,140,143,16,27,58,,61,61,20,17,7,6,0.6,0.3
2025-04-13T0800,2601A,100.98,22.7633,普洱市,市环保局,,43,43,58,27,24,61,,56,56,9,15,2,3,0.5,0.7
2025-04-13T0800,2602A,100.9817,22.8322,普洱市,普洱第二中学,,33,,44,23,30,73,,59,59,8,20,6,7,0.3,0.5
2025-04-13T0800,2262A,131.0518,45.8751,七台河市,新一中,,34,25,46,15,18,107,,111,111,12,11,12,13,0.5,0.6
2025-04-13T0800,3345A,131.0577,45.7879,七台河市,中波台,,34,34,64,16,17,90,,96,96,16,18,7,8,0.4,0.5
2025-04-13T0800,3637A,131.0176,45.7761,七台河市,人民广场,颗粒物(PM10),58,65,83,28,26,99,,112,112,18,14,10,9,0.8,0.7
2025-04-13T0800,3684A,130.8781,45.8222,七台河市,新建矿广场,颗粒物(PM10),73,95,81,17,24,98,,107,107,17,17,10,8,0.7,0.5
2025-04-13T0800,1779A,123.9305,47.3636,齐齐哈尔市,安居小区,,22,17,11,10,5,70,,72,72,9,8,3,3,0.3,0.2
2025-04-13T0800,1780A,123.9488,47.3386,齐齐哈尔市,中心广场,,30,29,11,21,6,62,,,,7,8,22,6,0.7,0.4
2025-04-13T0800,1781A,123.9483,47.3227,齐齐哈尔市,农牧车辆厂,,22,17,12,3,5,69,,70,70,8,8,5,4,0.1,0.2
2025-04-13T0800,1783A,123.945,47.2988,齐齐哈尔市,市环境监测站,,22,13,9,11,6,68,,69,69,7,7,2,2,0.4,0.3
2025-04-13T0800,3662A,123.6333,47.2075,齐齐哈尔市,富区青少年活动中心,,22,10,13,7,5,70,,70,70,6,5,2,2,0.4,0.4
2025-04-13T0800,2591A,107.9783,26.5747,黔东南苗族侗族自治州,市环境监测站,颗粒物(PM10),146,241,159,72,50,23,,26,26,14,13,3,3,0.4,0.3
2025-04-13T0800,2881A,107.8908,26.5311,黔东南苗族侗族自治州,凯里学院,颗粒物(PM10),148,246,218,68,48,12,,22,22,11,12,1,2,0.4,0.3
2025-04-13T0800,2593A,107.5228,26.2403,黔南布依族苗族自治州,小围寨,颗粒物(PM10),167,283,235,80,65,43,,59,59,10,5,5,4,0.4,0.3
2025-04-13T0800,3538A,107.5175,26.2978,黔南布依族苗族自治州,沙坝,颗粒物(PM10),226,368,266,88,63,49,,60,60,12,8,5,4,0.4,0.3
2025-04-13T0800,2589A,104.9022,25.0925,黔西南布依族苗族自治州,场坝街,颗粒物(PM10),108,165,149,64,56,56,,66,66,15,12,30,13,0.2,0.2
2025-04-13T0800,2590A,104.8811,25.0992,黔西南布依族苗族自治州,坪东大道,颗粒物(PM10),82,114,121,53,53,35,,62,62,35,13,4,5,0.5,0.2
2025-04-13T0800,2502A,108.6236,21.9667,钦州市,市环保站,颗粒物(PM10),74,97,95,29,25,63,,70,70,24,14,14,11,2.7,1
2025-04-13T0800,2503A,108.6549,21.9481,钦州市,沙埠小学,颗粒物(PM10),70,90,94,21,22,72,,72,72,12,10,6,6,0.6,0.8
2025-04-13T0800,2504A,108.5989,21.7431,钦州市,港区一小,颗粒物(PM10),72,93,103,30,26,54,,62,62,32,23,11,11,0.9,0.6
2025-04-13T0800,3404A,108.5959,21.9633,钦州市,北职校,颗粒物(PM10),66,82,85,27,23,66,,74,74,17,12,7,6,0.5,0.5
2025-04-13T0800,1043A,119.7493,40.0116,秦皇岛市,第一关,,42,42,98,9,20,66,,65,65,19,16,4,4,0.2,0.2
2025-04-13T0800,1044A,119.5897,39.9499,秦皇岛市,监测站,,36,36,73,12,15,74,,78,78,4,4,3,3,0.2,0.3
2025-04-13T0800,1046A,119.5251,39.9041,秦皇岛市,建设大厦,颗粒物(PM10),53,56,85,13,18,72,,73,73,9,11,2,2,0.2,0.2
2025-04-13T0800,3132A,119.610547,39.943889,秦皇岛市,文明里,颗粒物(PM10),52,53,96,3,17,70,,74,74,3,4,3,3,0.2,0.2
2025-04-13T0800,4198A,119.5090,39.8253,秦皇岛市,北戴河轮滑馆,颗粒物(PM10),53,56,70,6,11,70,,71,71,2,2,6,5,0.3,0.2
2025-04-13T0800,1307A,120.6659,36.2403,青岛市,仰口,,,,138,,19,,,92,,,4,,4,,0.5
2025-04-13T0800,1310A,120.4134,36.0658,青岛市,市南区东部子站,颗粒物(PM10),56,61,109,3,10,69,,72,72,9,8,8,7,0.5,0.5
2025-04-13T0800,1311A,120.3664,36.1032,青岛市,四方区子站,,46,46,96,12,14,72,,76,76,12,7,6,5,0.4,0.3
2025-04-13T0800,1312A,120.2994,36.054,青岛市,市南区西部子站,,44,44,93,10,9,64,,69,69,15,11,8,7,0.5,0.5
2025-04-13T0800,1313A,120.4581,36.0858,青岛市,崂山区子站,,41,41,98,7,7,76,,79,79,6,5,9,8,0.4,0.4
2025-04-13T0800,1315A,120.3999,36.3083,青岛市,城阳区子站,颗粒物(PM10),54,58,97,10,11,72,,74,74,11,10,9,8,0.6,0.5
2025-04-13T0800,1966A,120.0405,35.8735,青岛市,黄岛区4号,,31,31,95,9,8,71,,74,74,10,9,8,8,0.5,0.5
2025-04-13T0800,3362A,120.5014,36.4034,青岛市,即墨2号,颗粒物(PM10),60,70,128,13,12,68,,68,68,7,7,8,7,0.5,0.4
2025-04-13T0800,3642A,120.3503,36.0736,青岛市,市北区南部,,40,40,117,9,8,66,,69,69,9,12,7,6,0.4,0.4
2025-04-13T0800,3643A,120.3948,36.1805,青岛市,李沧区北部,,41,41,95,7,16,68,,71,71,8,8,8,8,0.6,0.5
2025-04-13T0800,4290A,120.1969,35.9546,青岛市,珠江路669号,,44,44,91,10,13,74,,78,78,8,8,7,6,0.5,0.5
2025-04-13T0800,1702A,113.0426,23.691,清远市,环保大楼,颗粒物(PM10),116,182,130,61,42,71,,72,72,16,9,8,7,0.5,0.6
2025-04-13T0800,1703A,113.0208,23.7106,清远市,凤城街办,颗粒物(PM10),210,357,239,74,49,66,,69,69,15,14,6,6,0.4,0.4
2025-04-13T0800,3025A,113.0477,23.6344,清远市,技师学院,颗粒物(PM10),250,385,231,76,49,49,,56,56,24,15,9,6,0.5,0.4
2025-04-13T0800,3318A,112.9903,23.7403,清远市,清新太和,颗粒物(PM10),205,353,248,72,52,68,,72,72,10,11,8,7,0.4,0.4
2025-04-13T0800,3455A,113.076,23.7198,清远市,清城东城,颗粒物(PM10),275,402,249,73,52,64,,68,68,15,11,8,7,0.6,0.7
