timepoint,stationcode,longitude,latitude,area,positionname,primarypollutant,aqi,pm10,pm10_24h,pm2_5,pm2_5_24h,o3,o3_24h,o3_8h,o3_8h_24h,no2,no2_24h,so2,so2_24h,co,co_24h
2025-04-13T0100,2566A,102.1879,31.914,阿坝藏族羌族自治州,州农科所,,21,20,19,10,9,65,,,,10,7,11,12,0.6,0.4
2025-04-13T0100,2568A,102.2502,31.8896,阿坝藏族羌族自治州,马师校,,32,,19,22,16,84,,,,6,6,5,5,0.4,0.4
2025-04-13T0100,2695A,80.292,41.1694,阿克苏地区,电视台,颗粒物(PM10),225,367,265,96,58,18,,,,79,12,7,8,0.9,0.5
2025-04-13T0100,2696A,80.2613,41.1551,阿克苏地区,艺术中心,颗粒物(PM10),242,379,262,96,61,18,,,,74,14,5,4,0.6,0.5
2025-04-13T0100,2204A,105.6467,38.8363,阿拉善盟,西城区西花园,颗粒物(PM10),76,101,137,33,29,78,,,,15,9,19,19,0.8,0.7
2025-04-13T0100,2205A,105.6985,38.8411,阿拉善盟,蒙二幼,,,112,153,,39,76,,,,8,5,5,5,0.5,0.4
2025-04-13T0100,2206A,105.724,38.8516,阿拉善盟,环保局新楼,颗粒物(PM10),85,119,148,34,37,97,,,,2,3,8,8,0.5,0.4
2025-04-13T0100,2708A,88.1264,47.8517,阿勒泰地区,市站,,33,10,9,6,6,105,,,,1,4,2,2,0.2,0.2
2025-04-13T0100,2630A,80.1161,32.5,阿里地区,阿里监测站,,39,,13,3,7,122,,,,5,8,5,8,0.5,0.5
2025-04-13T0100,3192A,80.0903,32.5028,阿里地区,阿里藏医院,,37,7,20,3,7,118,,,,3,4,8,8,0.5,0.4
2025-04-13T0100,2642A,109.0318,32.6537,安康市,香溪洞,颗粒物(PM10),369,475,581,137,128,64,,,,7,4,6,6,0.4,0.3
2025-04-13T0100,2644A,109.0072,32.6975,安康市,汉滨区检察院,颗粒物(PM10),219,363,524,136,124,43,,,,11,8,7,7,0.3,0.2
2025-04-13T0100,4054A,109.0325,32.6913,安康市,市邮政管理局,颗粒物(PM10),288,411,559,133,127,31,,,,18,9,10,6,0.4,0.3
2025-04-13T0100,2291A,117.0809,30.5177,安庆市,环科院,颗粒物(PM10),103,156,284,37,72,76,,,,9,6,14,7,0.7,0.4
2025-04-13T0100,2292A,117.0331,30.5119,安庆市,马山宾馆,颗粒物(PM10),96,142,324,38,61,72,,,,15,6,9,4,0.4,0.4
2025-04-13T0100,2294A,116.9896,30.6145,安庆市,安庆大学,颗粒物(PM10),91,132,362,35,61,48,,,,43,4,4,2,0.5,0.2
2025-04-13T0100,3173A,117.0598,30.5351,安庆市,市人大,颗粒物(PM10),102,153,227,26,39,73,,,,11,4,10,6,0.3,0.2
2025-04-13T0100,3123A,105.9408,26.2431,安顺市,凤凰山,颗粒物(PM10),299,419,189,111,60,77,,,,9,7,9,7,0.3,0.3
2025-04-13T0100,3124A,105.9439,26.2564,安顺市,金钟山,颗粒物(PM10),258,390,170,99,54,74,,,,8,8,7,7,0.4,0.5
2025-04-13T0100,3125A,105.8983,26.2481,安顺市,娄家坡,颗粒物(PM10),266,396,191,102,56,74,,,,7,9,7,6,0.4,0.5
2025-04-13T0100,1819A,114.3551,36.1017,安阳市,红庙街,颗粒物(PM10),73,96,371,19,73,65,,,,6,2,4,3,0.4,0.4
2025-04-13T0100,1820A,114.361,36.0681,安阳市,银杏小区,颗粒物(PM10),83,115,441,22,76,60,,,,17,5,5,5,0.3,0.2
2025-04-13T0100,3141A,114.3922,36.0878,安阳市,信访局,颗粒物(PM10),81,112,406,16,47,84,,,,7,4,4,2,0.1,0.1
2025-04-13T0100,3669A,114.4705,36.0637,安阳市,左辅环卫站,颗粒物(PM10),84,118,429,20,48,91,,,,14,10,3,2,0.5,0.4
2025-04-13T0100,3703A,114.2917,36.0949,安阳市,安钢职工学校,颗粒物(PM10),90,129,416,37,80,47,,,,22,4,4,1,0.7,0.5
2025-04-13T0100,1748A,123.044,41.1196,鞍山市,深沟寺,,20,20,29,11,15,53,,,,16,17,12,11,0.5,0.7
2025-04-13T0100,1749A,123.011,41.0931,鞍山市,太阳城,,30,30,28,17,14,53,,,,15,11,3,3,0.6,0.7
2025-04-13T0100,1750A,123.0485,41.1442,鞍山市,太平,,21,21,29,8,13,47,,,,20,14,18,10,1.3,1
2025-04-13T0100,1751A,122.9642,41.0971,鞍山市,铁西三道街,,31,31,30,21,15,50,,,,18,18,3,3,0.6,0.7
2025-04-13T0100,1753A,123.022,41.0821,鞍山市,明达新区,,28,28,28,17,16,48,,,,20,15,5,5,0.4,0.4
2025-04-13T0100,4201A,122.9446,41.0826,鞍山市,兴盛南路290号,,29,29,30,13,13,52,,,,21,16,6,6,0.6,0.6
2025-04-13T0100,2195A,107.4212,40.761,巴彦淖尔市,附二中,颗粒物(PM10),73,96,42,24,16,82,,,,6,6,5,6,0.3,0.3
2025-04-13T0100,2196A,107.37,40.7372,巴彦淖尔市,市环保大楼,颗粒物(PM10),76,101,49,15,18,79,,,,6,6,4,5,0.4,0.5
2025-04-13T0100,1956A,86.1472,41.7538,巴音郭楞蒙古自治州,孔雀公园,颗粒物(PM10),63,76,49,22,16,2,,,,91,28,7,7,0.7,0.3
2025-04-13T0100,1957A,86.1972,41.7166,巴音郭楞蒙古自治州,棉纺厂,颗粒物(PM10),79,107,61,22,12,11,,,,71,20,4,6,0.4,0.3
2025-04-13T0100,1958A,86.2357,41.7173,巴音郭楞蒙古自治州,经济开发区,颗粒物(PM10),70,89,49,3,6,59,,,,16,9,4,5,0.2,0.3
2025-04-13T0100,2914A,106.7677,31.8794,巴中市,苏山坪,颗粒物(PM10),422,522,890,250,220,91,,,,5,5,3,3,0.2,0.1
2025-04-13T0100,3181A,106.7768,31.8526,巴中市,市五中,颗粒物(PM10),403,503,906,115,195,82,,,,6,6,4,4,0.5,0.4
2025-04-13T0100,3183A,106.7418,31.8654,巴中市,圣泉水务公司,颗粒物(PM10),348,458,885,115,194,86,,,,5,2,1,2,0.5,0.4
2025-04-13T0100,3616A,106.7616,31.8344,巴中市,市中心医院,颗粒物(PM10),393,494,870,195,211,78,,,,8,6,5,5,0.4,0.3
2025-04-13T0100,2235A,122.7911,45.6077,白城市,洮北区环保局,,20,12,16,8,10,62,,,,7,8,2,4,0.2,0.2
2025-04-13T0100,2236A,122.8738,45.5725,白城市,市环保局,,19,,7,10,10,60,,,,3,3,5,5,0.4,0.4
2025-04-13T0100,2231A,126.4219,41.9171,白山市,喜丰,,22,6,62,3,21,70,,,,16,24,12,13,1.2,1.1
2025-04-13T0100,2232A,126.4077,41.9419,白山市,环保局,,24,18,56,3,17,76,,,,10,16,6,6,1.1,1
2025-04-13T0100,2647A,104.1724,36.5446,白银市,第三小学,颗粒物(PM10),94,137,619,54,158,38,,,,28,16,22,28,0.5,0.3
2025-04-13T0100,2648A,104.1465,36.5482,白银市,动力公司,颗粒物(PM10),83,116,574,44,165,22,,,,40,15,9,15,0.5,0.4
2025-04-13T0100,2512A,106.6103,23.9011,百色市,市监测站,颗粒物(PM10),55,60,51,10,26,73,,,,9,13,7,8,0.2,0.5
2025-04-13T0100,2513A,106.6538,23.8859,百色市,市中心血站,颗粒物(PM10),87,124,64,11,28,68,,,,17,17,4,6,0.4,0.6
2025-04-13T0100,3406A,106.6085,23.8798,百色市,祈福高中,颗粒物(PM10),53,56,62,12,26,55,,,,19,16,5,5,0.3,0.5
2025-04-13T0100,2270A,117.396,32.939,蚌埠市,工人疗养院,颗粒物(PM10),67,84,352,24,66,79,,,,11,9,4,3,0.4,0.4
2025-04-13T0100,2271A,117.3605,32.9427,蚌埠市,百货大楼,细颗粒物(PM2.5),97,85,393,72,67,76,,,,19,15,6,5,0.4,0.3
2025-04-13T0100,2273A,117.4185,32.8911,蚌埠市,蚌埠学院,颗粒物(PM10),69,88,323,18,62,72,,,,17,9,3,2,0.4,0.4
2025-04-13T0100,2274A,117.3533,32.9673,蚌埠市,淮上区政府,颗粒物(PM10),74,97,335,27,67,77,,,,14,11,6,5,0.2,0.3
2025-04-13T0100,2275A,117.3145,32.8977,蚌埠市,高新区,颗粒物(PM10),69,88,389,17,69,67,,,,23,13,5,4,0.4,0.4
2025-04-13T0100,3715A,117.3092,32.9314,蚌埠市,蚌埠田家炳中学,颗粒物(PM10),75,99,415,26,63,73,,,,26,17,6,4,0.3,0.2
2025-04-13T0100,1585A,109.8756,40.6532,包头市,市环境监测站,,46,46,72,11,12,68,,,,15,6,12,10,0.5,0.4
2025-04-13T0100,1587A,109.9991,40.5842,包头市,包头八中,,50,50,76,26,12,61,,,,19,7,22,9,0.5,0.3
2025-04-13T0100,1588A,109.8538,40.6821,包头市,青山宾馆,,32,32,52,18,11,62,,,,20,5,9,8,0.5,0.3
2025-04-13T0100,1589A,109.8642,40.6288,包头市,惠龙物流,颗粒物(PM10),55,59,78,35,40,66,,,,18,7,12,7,0.6,0.3
2025-04-13T0100,1590A,110.0377,40.5546,包头市,东河鸿龙湾,颗粒物(PM10),54,57,66,3,8,66,,,,14,9,10,7,0.3,0.2
2025-04-13T0100,3283A,109.9154,40.5685,包头市,滨河大厦,颗粒物(PM10),56,62,62,12,9,63,,,,10,5,15,10,0.5,0.4
2025-04-13T0100,3419A,109.9447,40.6261,包头市,包头市委党校,,36,36,99,3,7,72,,,,9,4,7,7,0.4,0.4
2025-04-13T0100,3683A,109.8331,40.6576,包头市,昆区政府,颗粒物(PM10),52,54,69,17,11,66,,,,20,9,8,4,0.6,0.5
2025-04-13T0100,1930A,107.185,34.3063,宝鸡市,庙沟村,颗粒物(PM10),169,288,869,97,223,64,,,,10,6,6,6,0.4,0.4
2025-04-13T0100,1931A,107.0708,34.3017,宝鸡市,竹园沟,颗粒物(PM10),177,303,1065,88,251,50,,,,8,5,6,6,0.4,0.4
2025-04-13T0100,1932A,107.1906,34.3672,宝鸡市,三陆医院,颗粒物(PM10),182,314,1009,126,295,35,,,,23,10,5,5,0.5,0.4
2025-04-13T0100,1933A,107.1431,34.3547,宝鸡市,监测站,细颗粒物(PM2.5),312,346,1043,262,251,40,,,,14,7,7,7,0.5,0.5
2025-04-13T0100,1934A,107.1186,34.3739,宝鸡市,技工学校,颗粒物(PM10),260,392,1001,167,276,51,,,,9,6,5,4,0.5,0.4
2025-04-13T0100,1935A,107.3906,34.3528,宝鸡市,陈仓区环保局家属楼,细颗粒物(PM2.5),209,290,802,159,209,25,,,,33,13,8,7,0.4,0.3
2025-04-13T0100,1936A,107.2058,34.3497,宝鸡市,文理学院,颗粒物(PM10),256,389,981,131,245,37,,,,22,9,6,6,0.4,0.3
2025-04-13T0100,1937A,107.2386,34.3622,宝鸡市,三迪小学,颗粒物(PM10),239,377,964,131,272,38,,,,25,13,5,7,0.6,0.5
2025-04-13T0100,1051A,115.493,38.8632,保定市,游泳馆,,33,33,84,18,22,85,,,,6,5,3,3,0.1,0.1
2025-04-13T0100,1052A,115.5213,38.8959,保定市,华电二区,,36,36,93,17,29,84,,,,2,2,3,3,0,0
2025-04-13T0100,1053A,115.4713,38.9108,保定市,接待中心,,34,34,91,3,16,82,,,,3,2,1,2,0,0
2025-04-13T0100,1054A,115.4612,38.8416,保定市,地表水厂,,43,43,118,19,22,84,,,,9,7,3,2,0.3,0.3
2025-04-13T0100,3581A,115.31981,38.95208,保定市,满城区生态环境分局,,27,14,83,3,10,86,,,,7,5,2,2,0,0
2025-04-13T0100,3582A,115.47694,38.76408,保定市,清苑区第二中学,,30,30,140,3,20,82,,,,7,4,3,2,0.2,0.2
2025-04-13T0100,3583A,115.62909,39.02311,保定市,徐水物探局,,27,20,128,3,15,86,,,,2,3,3,3,0.1,0.1
2025-04-13T0100,4004A,115.4202,38.8656,保定市,双鹰农机,,40,40,109,25,33,82,,,,2,2,1,2,0.1,0.1
2025-04-13T0100,4034A,115.5150,38.8590,保定市,植保所站,,43,43,97,23,27,82,,,,2,2,3,3,0.3,0.3
2025-04-13T0100,2594A,99.1678,25.1081,保山市,市环境监测站,,45,37,44,31,39,24,,,,8,14,10,10,0.6,0.6
2025-04-13T0100,2595A,99.1711,25.1328,保山市,市环保局,,49,,47,34,31,40,,,,7,12,6,6,0.7,0.7
2025-04-13T0100,1867A,109.1436,21.4086,北海市,海滩公园,颗粒物(PM10),183,315,92,61,27,72,,,,13,14,7,6,0.4,0.5
2025-04-13T0100,1868A,109.0981,21.4661,北海市,新市环保局,颗粒物(PM10),163,275,93,58,32,72,,,,12,10,4,4,0.3,0.4
2025-04-13T0100,1869A,109.1778,21.5233,北海市,北海工业园,颗粒物(PM10),197,344,95,73,35,71,,,,11,11,12,10,0.3,0.4
2025-04-13T0100,3400A,109.1911,21.4415,北海市,龙潭自来水厂,颗粒物(PM10),178,306,83,80,31,73,,,,13,9,9,6,0.3,0.3
2025-04-13T0100,1001A,116.3621,39.8784,北京市,万寿西宫,颗粒物(PM10),51,51,92,12,13,85,,,,7,8,5,6,0.5,0.5
2025-04-13T0100,1003A,116.4174,39.9289,北京市,东四,颗粒物(PM10),51,51,100,14,18,76,,,,4,3,5,5,0.3,0.3
2025-04-13T0100,1004A,116.4072,39.8863,北京市,天坛,,49,49,92,14,16,75,,,,6,6,3,2,0.4,0.4
2025-04-13T0100,1005A,116.462,39.9365,北京市,农展馆,,45,45,85,9,13,81,,,,2,4,6,6,0.2,0.2
2025-04-13T0100,1006A,116.3392,39.9295,北京市,官园,,,52,100,17,17,73,,,,3,4,,6,0.3,0.3
2025-04-13T0100,1007A,116.2878,39.9611,北京市,海淀万柳,,43,43,84,12,13,67,,,,7,8,3,3,0.5,0.4
2025-04-13T0100,1008A,116.6636,40.135,北京市,顺义新城,颗粒物(PM10),59,68,141,6,15,81,,,,2,2,5,5,0.3,0.3
2025-04-13T0100,1009A,116.6275,40.3275,北京市,怀柔镇,,50,50,117,8,12,74,,,,2,2,2,2,0.2,0.2
2025-04-13T0100,1010A,116.2296,40.217,北京市,昌平镇,,31,31,68,7,12,79,,,,1,4,3,3,0.5,0.5
2025-04-13T0100,1011A,116.3966,39.9821,北京市,奥体中心,,40,40,79,11,13,75,,,,8,8,2,2,0.3,0.3
2025-04-13T0100,3281A,115.9718,40.4529,北京市,延庆夏都,,29,29,69,7,13,81,,,,1,3,5,5,0.3,0.3
2025-04-13T0100,3418A,116.8336,40.4095,北京市,密云新城,,50,50,125,6,11,77,,,,2,2,3,4,0.3,0.3
2025-04-13T0100,3671A,116.088,39.9726,北京市,门头沟三家店,颗粒物(PM10),60,70,198,42,26,70,,,,1,2,4,4,0.3,0.3
2025-04-13T0100,3672A,116.1541,39.8204,北京市,丰台云岗,颗粒物(PM10),57,63,127,24,24,82,,,,2,2,1,1,0.2,0.2
2025-04-13T0100,3673A,116.6804,39.9081,北京市,通州东关,颗粒物(PM10),58,66,188,19,27,75,,,,2,2,4,4,0.5,0.5
2025-04-13T0100,3674A,115.9577,39.7603,北京市,房山燕山,颗粒物(PM10),51,51,102,15,17,77,,,,2,2,4,4,0.3,0.3
2025-04-13T0100,3675A,116.4672,39.7733,北京市,大兴旧宫,,50,50,115,23,18,71,,,,5,5,3,3,0.3,0.2
2025-04-13T0100,3694A,115.986,40.4563,北京市,延庆石河营,,29,29,65,7,10,80,,,,2,3,4,4,0.3,0.3
2025-04-13T0100,3695A,116.6151,40.3053,北京市,怀柔新城,,42,42,94,3,11,74,,,,2,2,1,1,0.4,0.4
2025-04-13T0100,3696A,116.2545,39.8768,北京市,丰台小屯,颗粒物(PM10),55,59,116,18,22,71,,,,1,2,1,1,0.2,0.2
2025-04-13T0100,3697A,116.84,40.3844,北京市,密云镇,颗粒物(PM10),52,54,119,3,10,79,,,,2,2,3,4,0.3,0.3
2025-04-13T0100,4182A,116.1942,39.9158,北京市,八角北路9号,,50,50,116,18,20,76,,,,2,2,3,3,0.0,0.1
2025-04-13T0100,4194A,117.0790,40.1518,北京市,洳河巡河路,,50,50,98,14,10,80,,,,2,3,1,1,0.2,0.2
2025-04-13T0100,1761A,123.8275,41.3064,本溪市,大峪,,,18,24,,34,48,,,,12,12,4,4,0.5,0.5
2025-04-13T0100,1762A,123.7567,41.3325,本溪市,溪湖,,23,,24,16,13,54,,,,12,13,7,7,0.5,0.7
2025-04-13T0100,1763A,123.7169,41.3094,本溪市,彩屯,,21,21,37,14,16,58,,,,12,20,8,12,0.7,1.2
2025-04-13T0100,1764A,123.7669,41.2864,本溪市,东明,,21,21,24,11,10,50,,,,14,11,6,5,0.9,0.8
2025-04-13T0100,1765A,123.7992,41.2664,本溪市,新立屯,,28,,22,19,13,54,,,,20,15,7,7,0.5,0.5
2025-04-13T0100,1766A,123.8142,41.3472,本溪市,威宁,,19,17,25,13,12,48,,,,8,6,4,4,0.6,0.7
2025-04-13T0100,2587A,105.2864,27.3125,毕节市,八中,颗粒物(PM10),302,421,251,96,55,52,,,,12,7,5,4,0.3,0.2
2025-04-13T0100,2588A,105.31,27.2944,毕节市,师专,颗粒物(PM10),285,409,243,109,57,56,,,,14,7,15,7,0.4,0.3
2025-04-13T0100,4263A,105.3688,27.3598,毕节市,工业大道,颗粒物(PM10),330,444,265,108,61,30,,,,21,10,8,8,0.4,0.4
2025-04-13T0100,1629A,118.0018,37.3617,滨州市,第二水厂,颗粒物(PM10),54,58,238,3,52,68,,,,9,6,8,7,0,0.2
2025-04-13T0100,1630A,117.9776,37.393,滨州市,北中新校,,41,41,121,12,50,73,,,,8,6,2,4,0.5,0.3
2025-04-13T0100,3514A,117.9378,37.3956,滨州市,中海酒店,,41,41,248,12,32,72,,,,6,5,6,6,0.5,0.4
2025-04-13T0100,3515A,117.9378,37.3553,滨州市,开发区一中,颗粒物(PM10),56,61,145,3,17,70,,,,11,12,15,22,0.2,0.3
2025-04-13T0100,3516A,118.0917,37.694,滨州市,金海六路,颗粒物(PM10),54,58,376,7,39,69,,,,8,7,7,5,0.3,0.2
2025-04-13T0100,4028A,117.9956,37.3753,滨州市,滨州市西街道办事处,颗粒物(PM10),52,53,162,14,45,80,,,,8,7,3,3,0.2,0.2
2025-04-13T0100,2311A,115.8072,33.8399,亳州市,污水处理厂,颗粒物(PM10),70,89,483,13,65,73,,,,15,11,2,2,0.2,0.2
2025-04-13T0100,2312A,115.7789,33.8518,亳州市,三国揽胜宫,颗粒物(PM10),61,71,424,9,61,72,,,,19,14,4,3,0.0,0
2025-04-13T0100,3332A,115.7633,33.8034,亳州市,亳州学院,颗粒物(PM10),65,79,454,9,55,76,,,,13,12,4,3,0.3,0.2
2025-04-13T0100,2693A,82.0485,44.8556,博尔塔拉蒙古自治州,市党校,颗粒物(PM10),62,73,57,21,16,89,,,,30,25,3,3,0.3,0.3
2025-04-13T0100,2694A,82.0806,44.8969,博尔塔拉蒙古自治州,市环保局,颗粒物(PM10),95,139,77,22,14,63,,,,17,16,3,2,0.5,0.5
2025-04-13T0100,1071A,116.8842,38.2991,沧州市,沧县城建局,颗粒物(PM10),53,55,229,20,43,68,,,,9,6,2,3,0.0,0
2025-04-13T0100,1072A,116.8584,38.3254,沧州市,电视转播站,颗粒物(PM10),51,52,189,12,39,71,,,,11,9,1,2,0.2,0.2
2025-04-13T0100,1073A,116.8709,38.3228,沧州市,市环保局,颗粒物(PM10),53,56,181,17,57,70,,,,10,7,3,3,0.3,0.3
2025-04-13T0100,3324A,116.8136,38.3004,沧州市,河北水利电力学院,颗粒物(PM10),51,51,289,16,26,80,,,,8,7,4,4,0.4,0.2
2025-04-13T0100,2622A,97.1806,31.1273,昌都市,昌都监测站,,20,14,5,9,7,64,,,,4,3,2,2,0.1,0.2
2025-04-13T0100,3719A,97.1714,31.1406,昌都市,昌都会议中心,,25,10,9,6,8,78,,,,4,5,2,2,0.1,0.1
2025-04-13T0100,2690A,88.1236,43.8886,昌吉回族自治州,天山天池,,24,6,7,3,2,74,,,,4,5,4,4,0.4,0.5
2025-04-13T0100,2692A,87.2717,44.0297,昌吉回族自治州,新区政务中心,,45,45,43,11,6,113,,,,7,9,4,5,0.2,0.3
2025-04-13T0100,3613A,87.3095,44.0142,昌吉回族自治州,亚心广场,颗粒物(PM10),60,70,63,3,9,107,,,,10,10,6,7,0.2,0.3
2025-04-13T0100,1119A,125.3325,43.9166,长春市,食品厂,,12,7,30,3,23,36,,,,21,17,6,7,0.5,0.5
2025-04-13T0100,1120A,125.2863,43.9027,长春市,客车厂,,12,8,28,7,24,37,,,,19,17,4,6,0.6,0.5
2025-04-13T0100,1121A,125.2841,43.8463,长春市,邮电学院,,22,,32,15,28,35,,,,23,18,5,6,0.5,0.4
2025-04-13T0100,1122A,125.3716,43.8772,长春市,劳动公园,,12,,30,8,22,36,,,,15,12,5,6,0.3,0.4
2025-04-13T0100,1123A,125.3297,43.8805,长春市,园林处,,14,7,27,3,18,44,,,,15,12,6,7,0.5,0.5
2025-04-13T0100,1124A,125.4605,43.79,长春市,净月潭,,25,,28,6,20,78,,,,10,10,5,6,0.2,0.2
2025-04-13T0100,1126A,125.3863,43.8447,长春市,经开区环卫处,,,,30,10,22,34,,,,15,13,4,7,0.4,0.4
2025-04-13T0100,1127A,125.245,43.7783,长春市,高新区管委会,,16,,29,11,27,25,,,,28,16,7,8,0.3,0.4
2025-04-13T0100,1128A,125.1761,43.8325,长春市,岱山公园,,19,,31,11,26,13,,,,38,24,4,6,0.7,0.5
2025-04-13T0100,1335A,113.0833,28.2325,长沙市,经开区环保局,颗粒物(PM10),144,238,355,46,53,80,,,,13,7,4,5,0.2,0.2
2025-04-13T0100,1336A,112.8872,28.2189,长沙市,高开区环保局,颗粒物(PM10),148,246,376,42,55,65,,,,26,6,3,4,0.5,0.5
2025-04-13T0100,1337A,113.0792,28.2053,长沙市,马坡岭,颗粒物(PM10),138,226,352,55,67,71,,,,16,9,4,3,0.4,0.2
2025-04-13T0100,1338A,112.9394,28.19,长沙市,湖南师范大学,颗粒物(PM10),129,207,360,47,63,70,,,,10,8,5,5,0.3,0.3
2025-04-13T0100,1339A,113.0178,28.1322,长沙市,雨花区环保局,颗粒物(PM10),140,230,346,48,67,73,,,,19,9,3,3,0.2,0.2
2025-04-13T0100,1340A,112.9792,28.2597,长沙市,伍家岭,颗粒物(PM10),143,235,365,42,57,66,,,,20,12,3,3,0.2,0.3
2025-04-13T0100,1341A,113.0014,28.1944,长沙市,火车新站,颗粒物(PM10),145,239,373,48,70,66,,,,24,10,6,6,0.3,0.3
2025-04-13T0100,1342A,112.9844,28.1178,长沙市,天心区环保局,颗粒物(PM10),142,233,334,64,59,79,,,,16,9,4,4,0.1,0.1
2025-04-13T0100,1343A,112.8908,28.1308,长沙市,湖南中医药大学,颗粒物(PM10),145,239,370,47,69,27,,,,50,10,3,3,0.3,0.2
2025-04-13T0100,1344A,112.9581,28.3611,长沙市,沙坪,颗粒物(PM10),130,209,279,51,91,48,,,,6,8,5,6,0.4,0.4
2025-04-13T0100,1727A,113.1147,36.1547,长治市,清华站,颗粒物(PM10),68,86,273,17,35,69,,,,12,5,5,3,0.6,0.5
2025-04-13T0100,1730A,113.0886,36.2125,长治市,审计局,颗粒物(PM10),60,70,215,19,38,68,,,,22,8,7,5,0.1,0.1
2025-04-13T0100,1731A,113.0844,36.1856,长治市,长治八中,颗粒物(PM10),69,88,247,20,65,75,,,,15,8,13,7,0.4,0.4
2025-04-13T0100,2845A,113.1569,36.1911,长治市,德盛苑,颗粒物(PM10),64,77,274,19,34,76,,,,10,5,3,2,0.3,0.2
2025-04-13T0100,3568A,113.06,36.0464,长治市,向阳小学,颗粒物(PM10),69,88,238,31,44,73,,,,14,6,8,7,0.2,0.1
2025-04-13T0100,3569A,112.8792,36.3144,长治市,屯留一中,颗粒物(PM10),58,66,181,3,27,75,,,,11,11,4,5,0.3,0.3
2025-04-13T0100,4189A,113.1131,36.19948,长治市,英华南巷50号,颗粒物(PM10),66,82,252,19,43,75,,,,14,5,5,2,0.4,0.4
2025-04-13T0100,4190A,113.2367,36.3344,长治市,学府街1号,颗粒物(PM10),76,102,281,25,42,66,,,,17,6,22,6,0.7,0.4
2025-04-13T0100,1854A,111.6975,28.9703,常德市,市二中,颗粒物(PM10),191,332,496,79,119,30,,,,39,12,5,5,0.4,0.4
2025-04-13T0100,3138A,111.7153,29.0289,常德市,武陵区永安,颗粒物(PM10),225,367,539,88,106,66,,,,13,9,5,2,0.4,0.4
2025-04-13T0100,3139A,111.6892,28.9881,常德市,鼎城区玉霞,颗粒物(PM10),216,361,515,85,104,61,,,,14,8,3,3,0.4,0.5
2025-04-13T0100,3140A,111.6625,29.0531,常德市,武陵区长庚,颗粒物(PM10),222,365,520,96,95,72,,,,10,6,8,6,0.4,0.5
2025-04-13T0100,1196A,119.9633,31.762,常州市,市监测站,颗粒物(PM10),124,198,216,35,56,70,,,,12,19,8,9,0.5,0.6
2025-04-13T0100,1200A,119.9468,31.7069,常州市,武进监测站,颗粒物(PM10),117,184,209,29,54,76,,,,18,22,6,9,0.2,0.3
2025-04-13T0100,1201A,119.9255,31.9087,常州市,安家,颗粒物(PM10),121,192,205,40,56,66,,,,15,23,8,9,0.5,0.5
2025-04-13T0100,3002A,119.9805,31.8174,常州市,行政中心,颗粒物(PM10),95,139,165,38,52,68,,,,19,21,13,15,0.4,0.5
2025-04-13T0100,3003A,120.0522,31.7748,常州市,经开区,颗粒物(PM10),157,263,212,42,51,72,,,,20,23,6,8,0.5,0.5
2025-04-13T0100,3010A,119.9025,31.7964,常州市,钟楼,颗粒物(PM10),114,177,194,36,54,69,,,,17,20,7,7,0.9,0.9
2025-04-13T0100,3429A,119.8598,31.7066,常州市,武进经发区,颗粒物(PM10),131,212,255,45,57,72,,,,15,19,8,8,0.6,0.7
2025-04-13T0100,3430A,119.5826,31.7245,常州市,金坛城区,颗粒物(PM10),118,185,268,39,55,78,,,,12,16,7,7,0.4,0.6
2025-04-13T0100,2220A,120.4318,41.5881,朝阳市,西梁,,25,13,100,3,9,79,,,,4,7,11,12,0.3,0.3
2025-04-13T0100,2221A,120.4521,41.5646,朝阳市,河畔小区,,26,21,91,3,12,83,,,,4,8,7,7,0.3,0.4
2025-04-13T0100,2222A,120.4176,41.5648,朝阳市,八里堡,,25,8,97,7,16,78,,,,5,8,8,8,0.4,0.5
2025-04-13T0100,2223A,120.3806,41.5969,朝阳市,农业园区,,27,21,102,6,15,84,,,,4,8,9,9,0.4,0.4
2025-04-13T0100,3026A,116.6183,23.6608,潮州市,市政府,颗粒物(PM10),170,289,89,43,24,82,,,,5,16,3,4,0.5,0.9
2025-04-13T0100,4036A,116.6461,23.6761,潮州市,金山,颗粒物(PM10),154,258,78,42,25,79,,,,6,16,6,7,0.3,0.6
2025-04-13T0100,2472A,113.0073,25.9061,郴州市,马头岭,颗粒物(PM10),168,286,279,65,48,20,,,,12,12,7,8,0.8,0.7
2025-04-13T0100,2473A,113.0116,25.8226,郴州市,市职中,颗粒物(PM10),175,299,226,75,58,25,,,,18,10,1,2,0.4,0.4
2025-04-13T0100,2475A,113.0383,25.8071,郴州市,市审计局,颗粒物(PM10),177,304,213,78,57,30,,,,18,9,4,3,0.4,0.4
2025-04-13T0100,2476A,113.0348,25.7759,郴州市,市环保局,颗粒物(PM10),213,359,231,91,56,22,,,,30,8,10,4,0.3,0.4
2025-04-13T0100,4252A,113.0138,25.8011,郴州市,好美居路49号,颗粒物(PM10),151,251,199,89,61,20,,,,18,10,2,3,0.4,0.5
2025-04-13T0100,1431A,103.9728,30.7236,成都市,金泉两河,颗粒物(PM10),183,316,246,77,68,27,,,,30,15,2,2,0.7,0.7
2025-04-13T0100,1432A,104.176,30.6872,成都市,十里店,颗粒物(PM10),178,306,312,94,85,38,,,,31,18,3,3,0.6,0.5
2025-04-13T0100,1433A,104.079,30.5706,成都市,三瓦窑,颗粒物(PM10),269,398,306,104,85,12,,,,66,29,5,4,0.5,0.4
2025-04-13T0100,1434A,104.1114,30.63,成都市,沙河铺,颗粒物(PM10),162,273,276,88,87,24,,,,25,15,6,6,0.7,0.6
2025-04-13T0100,1437A,104.0786,30.6531,成都市,君平街,颗粒物(PM10),174,298,255,84,86,43,,,,32,18,6,6,0.7,0.6
2025-04-13T0100,2880A,104.0239,30.65639,成都市,大石西路,颗粒物(PM10),176,301,264,94,77,33,,,,29,18,4,4,0.5,0.4
2025-04-13T0100,3136A,104.2725,30.5589,成都市,龙泉驿区区政府,颗粒物(PM10),194,337,320,70,78,43,,,,18,17,3,4,0.5,0.5
2025-04-13T0100,3357A,104.0106,30.6931,成都市,金博路,颗粒物(PM10),182,314,254,76,68,43,,,,22,17,6,6,0.3,0.3
2025-04-13T0100,3359A,104.0578,30.5225,成都市,华阳,颗粒物(PM10),209,356,292,100,89,30,,,,40,21,6,5,0.8,0.6
2025-04-13T0100,3488A,104.3853,30.7453,成都市,青白江技师分院,颗粒物(PM10),199,347,330,100,96,10,,,,56,30,9,7,0.5,0.3
2025-04-13T0100,3489A,104.0789,30.4072,成都市,科学城,颗粒物(PM10),258,390,287,98,74,21,,,,30,14,4,4,0.3,0.2
2025-04-13T0100,4011A,103.8506,30.6947,成都市,光华大道三段,颗粒物(PM10),185,319,242,91,72,43,,,,21,16,1,1,0.6,0.5
2025-04-13T0100,4224A,104.2433,30.5353,成都市,鲸龙路1057号,颗粒物(PM10),238,376,316,88,82,40,,,,26,23,3,3,0.4,0.4
2025-04-13T0100,1062A,117.9531,40.9081,承德市,铁路,颗粒物(PM10),60,70,94,3,10,78,,,,2,4,6,6,0.1,0.2
2025-04-13T0100,1063A,117.9392,40.9763,承德市,中国银行,,50,50,83,6,11,81,,,,2,2,3,3,0.2,0.1
2025-04-13T0100,1064A,117.9503,40.928,承德市,开发区,颗粒物(PM10),56,62,80,16,19,77,,,,2,5,6,6,0.2,0.2
2025-04-13T0100,1065A,117.8051,40.9655,承德市,文化中心,颗粒物(PM10),62,74,87,3,12,80,,,,1,3,4,4,0.2,0.2
2025-04-13T0100,2314A,117.47,30.6618,池州市,池州学院,颗粒物(PM10),104,158,258,64,68,62,,,,15,4,8,4,0.2,0.3
2025-04-13T0100,3237A,117.4918,30.6617,池州市,展览馆,颗粒物(PM10),99,147,258,45,64,72,,,,10,5,6,4,0.2,0.3
2025-04-13T0100,3333A,117.5627,30.695,池州市,第八中学,颗粒物(PM10),107,164,294,36,61,87,,,,5,4,10,4,0.3,0.4
2025-04-13T0100,3334A,117.5038,30.6243,池州市,第十二中学,颗粒物(PM10),98,146,267,36,57,52,,,,20,4,6,5,0.4,0.4
2025-04-13T0100,1744A,118.9233,42.2816,赤峰市,松山一中,颗粒物(PM10),54,58,71,3,7,95,,,,7,10,8,8,0.3,0.3
2025-04-13T0100,1745A,118.9576,42.2728,赤峰市,哈达街,颗粒物(PM10),53,55,66,3,7,87,,,,4,8,8,9,0.4,0.5
2025-04-13T0100,1746A,118.8788,42.2554,赤峰市,天义路,,48,48,36,3,7,86,,,,5,6,7,6,0.2,0.2
2025-04-13T0100,3058A,119.2658,42.0353,赤峰市,银河街,颗粒物(PM10),54,57,105,14,12,86,,,,4,6,11,12,0.2,0.3
2025-04-13T0100,3286A,118.9359,42.3147,赤峰市,桥北物流园区,,25,21,42,3,8,80,,,,4,7,6,6,0.6,0.5
2025-04-13T0100,2521A,107.3476,22.4136,崇左市,市环保局江州分局,,37,37,46,9,26,62,,,,16,8,5,6,0.4,0.6
2025-04-13T0100,4256A,107.3750,22.3736,崇左市,石景林东路7号,,37,37,42,3,24,69,,,,15,9,7,6,0.6,0.7
2025-04-13T0100,2298A,118.3093,32.3153,滁州市,老年大学,颗粒物(PM10),72,93,293,27,66,90,,,,11,14,2,4,0.1,0.2
2025-04-13T0100,2299A,118.3244,32.2786,滁州市,人大宾馆,颗粒物(PM10),77,103,371,29,63,83,,,,8,11,7,7,0.3,0.4
2025-04-13T0100,3207A,118.3118,32.3038,滁州市,市政府原办公楼,颗粒物(PM10),66,81,310,24,69,86,,,,6,5,4,3,0.2,0.3
2025-04-13T0100,3331A,118.3267,32.2634,滁州市,图书馆,颗粒物(PM10),73,96,299,25,68,82,,,,9,7,7,6,0.3,0.4
2025-04-13T0100,2605A,101.5482,25.0441,楚雄彝族自治州,州环境监测站,颗粒物(PM10),54,58,31,21,22,74,,,,7,13,6,8,0.4,0.5
2025-04-13T0100,2606A,101.538,25.0492,楚雄彝族自治州,市经济开发区,颗粒物(PM10),52,54,34,14,14,72,,,,7,12,6,7,0.5,0.6
2025-04-13T0100,2548A,107.5277,31.2827,达州市,达州职业技术学院,颗粒物(PM10),141,231,710,82,157,8,,,,36,15,5,4,0.0,0.4
2025-04-13T0100,2549A,107.5086,31.2186,达州市,市环境监测站,颗粒物(PM10),172,294,701,83,138,3,,,,55,25,4,4,0.6,0.4
2025-04-13T0100,2550A,107.4988,31.2132,达州市,凤凰小区,颗粒物(PM10),179,307,748,90,144,5,,,,60,22,7,6,0.4,0.3
2025-04-13T0100,2551A,107.5082,31.1986,达州市,达县机关宾馆,颗粒物(PM10),230,371,761,102,165,3,,,,53,26,6,4,0.4,0.3
2025-04-13T0100,2552A,107.4644,31.2124,达州市,市政中心,颗粒物(PM10),195,339,654,97,134,4,,,,60,23,3,1,0.6,0.3
2025-04-13T0100,2614A,100.1542,25.7054,大理白族自治州,大理市环境监测站,,45,,29,31,28,71,,,,8,11,8,7,0.7,0.8
2025-04-13T0100,2615A,100.2171,25.5811,大理白族自治州,大理古城,,40,39,33,28,30,72,,,,6,11,6,7,0.6,0.8
2025-04-13T0100,1109A,121.612,38.9741,大连市,甘井子,,41,41,52,8,17,80,,,,12,15,5,5,0.2,0.4
2025-04-13T0100,1110A,121.565,38.9511,大连市,周水子,,40,40,89,8,18,65,,,,10,10,5,6,0.2,0.3
2025-04-13T0100,1111A,121.5637,38.8845,大连市,星海三站,,40,40,52,9,17,74,,,,4,4,7,6,0.2,0.3
2025-04-13T0100,1112A,121.6302,38.9117,大连市,青泥洼桥,,26,26,50,8,16,78,,,,10,12,8,8,0.3,0.5
2025-04-13T0100,1113A,121.6251,38.8638,大连市,傅家庄,,40,40,56,8,16,72,,,,12,14,6,6,0.2,0.2
2025-04-13T0100,1114A,121.5213,38.8661,大连市,七贤岭,,35,35,54,8,16,71,,,,8,10,5,5,0.3,0.2
2025-04-13T0100,1115A,121.2529,38.8061,大连市,旅顺,,39,39,52,8,17,76,,,,9,13,7,7,0.4,0.5
2025-04-13T0100,1116A,121.7485,39.1311,大连市,金州,,24,22,50,8,16,75,,,,11,14,6,6,0.2,0.4
2025-04-13T0100,1117A,121.7811,39.0496,大连市,开发区,,38,38,52,9,18,65,,,,10,14,8,8,0.4,0.4
2025-04-13T0100,1118A,121.9762,39.0631,大连市,双D港,,20,10,45,7,16,62,,,,2,6,8,8,0.2,0.3
2025-04-13T0100,1789A,124.81117,46.03138,大庆市,大同区,,33,28,36,15,28,105,,,,8,14,4,5,0.6,0.6
2025-04-13T0100,1790A,125.129,46.533,大庆市,龙凤区,,33,,46,17,25,103,,,,7,17,5,6,0.5,0.5
2025-04-13T0100,1791A,124.902,46.408,大庆市,红岗区,,34,,28,17,24,106,,,,6,13,7,7,0.5,0.5
2025-04-13T0100,1792A,125.153,46.586,大庆市,萨尔图区,,30,16,47,7,25,96,,,,10,19,7,8,0.4,0.5
2025-04-13T0100,1793A,124.9042,46.6215,大庆市,让胡路区,,30,,28,18,27,94,,,,9,13,5,5,0.4,0.3
2025-04-13T0100,3481A,125.141,46.634,大庆市,萨区政府监测点,,30,15,46,3,17,93,,,,8,15,6,6,0.5,0.5
2025-04-13T0100,1723A,113.2994,40.0758,大同市,云冈宾馆,,36,,29,25,16,80,,,,10,6,10,7,0.3,0.1
2025-04-13T0100,1724A,113.3444,40.0917,大同市,大同大学,,24,14,35,6,10,74,,,,5,2,7,8,0.4,0.3
2025-04-13T0100,1725A,113.2661,40.1269,大同市,安家小村,,25,13,34,3,6,79,,,,5,3,12,10,0.4,0.3
2025-04-13T0100,1726A,113.2711,40.0844,大同市,教育学院,,25,18,29,3,8,77,,,,10,6,9,7,0.5,0.4
2025-04-13T0100,3282A,113.3397,40.0597,大同市,大同市卫生学校,,24,13,24,3,8,75,,,,8,5,6,6,0.3,0.4
2025-04-13T0100,3565A,113.1367,40.1122,大同市,云冈站,,24,15,28,13,7,76,,,,5,6,9,8,0.3,0.3
2025-04-13T0100,3566A,113.1186,40.2556,大同市,图书馆,,20,18,37,12,16,64,,,,10,4,10,9,0.8,0.8
2025-04-13T0100,3567A,113.5931,40.0461,大同市,区一中,,25,12,38,3,6,79,,,,2,3,12,12,0.3,0.3
2025-04-13T0100,4199A,113.2798,40.0997,大同市,魏都大道141号,,25,24,36,3,15,80,,,,9,6,13,11,0.3,0.3
2025-04-13T0100,2269A,124.1069,50.4097,大兴安岭地区,科技局,,25,15,20,11,16,80,,,,3,4,2,2,0.2,0.2
2025-04-13T0100,3663A,124.1164,50.4278,大兴安岭地区,红旗社区,,25,6,4,3,4,80,,,,1,2,4,4,0.2,0.2
2025-04-13T0100,1600A,124.3303,40.0625,丹东市,江湾东路,,26,16,36,8,22,83,,,,10,13,7,8,0.2,0.4
2025-04-13T0100,1601A,124.4256,40.1503,丹东市,临江后街,,27,12,45,3,20,85,,,,6,11,4,5,0.5,0.7
2025-04-13T0100,1602A,124.3933,40.1461,丹东市,元宝山,,25,12,33,9,21,80,,,,8,12,6,6,0.3,0.5
2025-04-13T0100,1603A,124.3633,40.1092,丹东市,民主桥,,29,,37,20,19,81,,,,12,11,7,9,0.7,0.9
2025-04-13T0100,3541A,109.5726,19.5167,儋州市,第一中学子站,,38,38,34,21,27,64,,,,7,6,5,5,0.5,0.5
2025-04-13T0100,3542A,109.5567,19.5187,儋州市,东坡学校子站,,42,42,36,14,18,67,,,,7,5,6,5,0.5,0.5
2025-04-13T0100,2616A,98.5842,24.428,德宏傣族景颇族自治州,德宏州监测站,,39,39,48,18,32,8,,,,30,21,7,8,0.0,0.6
2025-04-13T0100,3677A,98.5881,24.4368,德宏傣族景颇族自治州,芒市人民政府综合楼,,46,46,62,26,36,15,,,,13,17,6,6,0.6,0.7
2025-04-13T0100,1901A,104.4239,31.1208,德阳市,东山公园,颗粒物(PM10),358,466,272,120,79,55,,,,24,15,5,3,0.5,0.3
2025-04-13T0100,1902A,104.3826,31.1317,德阳市,西小区,颗粒物(PM10),303,422,257,127,78,33,,,,36,16,4,3,0.5,0.4
2025-04-13T0100,1904A,104.3553,31.1091,德阳市,耐火材料厂,颗粒物(PM10),253,387,258,119,75,19,,,,45,17,5,4,0.4,0.3
2025-04-13T0100,3639A,104.4019,31.1244,德阳市,市教育局,颗粒物(PM10),272,400,242,119,79,44,,,,26,17,4,4,0.6,0.5
2025-04-13T0100,1622A,116.3032,37.4674,德州市,儿童乐园,,34,34,270,12,50,73,,,,8,7,5,4,0.3,0.2
2025-04-13T0100,1624A,116.2991,37.4451,德州市,监理站,,46,46,401,7,51,78,,,,9,10,39,12,0.4,0.3
2025-04-13T0100,3066A,116.2721,37.4379,德州市,九衢泉纯净水厂,,41,41,178,17,53,80,,,,8,11,10,19,0.4,0.5
2025-04-13T0100,3371A,116.3728,37.4403,德州市,开发区人民医院,,46,46,370,9,46,72,,,,10,7,7,5,0.5,0.4
2025-04-13T0100,3372A,116.3572,37.4094,德州市,太阳城中学,,39,39,383,9,50,77,,,,6,6,11,4,0.5,0.7
2025-04-13T0100,3511A,116.5652,37.3319,德州市,陵城艺术中心,,36,36,278,7,33,75,,,,7,7,3,2,0.5,0.5
2025-04-13T0100,2621A,99.7056,27.8317,迪庆藏族自治州,迪庆州站,,30,21,22,12,12,96,,,,7,9,9,9,0.5,0.5
2025-04-13T0100,3180A,99.7136,27.8094,迪庆藏族自治州,质量技术监督局,,32,,15,13,8,101,,,,6,9,9,9,0.6,0.6
2025-04-13T0100,4257A,104.6092,35.5962,定西市,将台街,颗粒物(PM10),131,212,877,63,179,8,,,,52,17,5,5,0.1,0.4
2025-04-13T0100,4309A,104.6159,35.5701,定西市,正龙路62号,颗粒物(PM10),149,248,952,63,170,55,,,,11,7,8,10,0.3,0.3
2025-04-13T0100,1389A,113.7547,23.0494,东莞市,莞城梨川,颗粒物(PM10),230,371,68,72,25,74,,,,10,11,5,5,0.4,0.5
2025-04-13T0100,1390A,113.7944,23.0128,东莞市,东城石井,颗粒物(PM10),191,332,61,86,21,80,,,,11,14,6,5,0.4,0.5
2025-04-13T0100,1391A,113.7383,22.9658,东莞市,南城西平,颗粒物(PM10),194,338,59,67,18,80,,,,11,12,6,5,0.5,0.6
2025-04-13T0100,3319A,113.7338,23.0381,东莞市,万江金泰,颗粒物(PM10),184,317,56,71,21,77,,,,1,7,4,5,0.7,0.8
2025-04-13T0100,3626A,113.7533,23.0202,东莞市,南城元岭,颗粒物(PM10),197,343,60,68,22,76,,,,5,8,7,5,0.5,0.6
2025-04-13T0100,3627A,113.7875,23.0457,东莞市,东城主山,颗粒物(PM10),187,324,65,78,20,76,,,,16,17,3,3,0.4,0.5
2025-04-13T0100,1666A,118.6614,37.4309,东营市,市环保局,颗粒物(PM10),54,58,165,7,44,77,,,,7,7,5,4,0.3,0.3
2025-04-13T0100,3036A,118.6904,37.4338,东营市,开发区管委会,颗粒物(PM10),63,76,342,3,39,69,,,,10,25,4,3,0.5,0.5
2025-04-13T0100,3365A,118.5719,37.565,东营市,垦利区民丰路,颗粒物(PM10),58,66,311,7,36,71,,,,7,7,3,6,1.1,1
2025-04-13T0100,3498A,118.5055,37.8612,东营市,河口城区,细颗粒物(PM2.5),62,68,311,44,32,70,,,,14,11,5,4,0.8,0.7
2025-04-13T0100,3646A,118.4978,37.4623,东营市,胜利站,颗粒物(PM10),59,67,273,7,28,69,,,,14,12,8,7,0.5,0.5
2025-04-13T0100,3734A,118.35,37.26,东营市,理想之城,颗粒物(PM10),58,66,307,9,34,67,,,,11,8,7,5,0.3,0.3
2025-04-13T0100,1591A,110.0023,39.8129,鄂尔多斯市,综合楼,颗粒物(PM10),57,63,134,7,11,83,,,,8,8,4,4,0.1,0.1
2025-04-13T0100,1592A,109.9486,39.8261,鄂尔多斯市,巴音孟克林场办事处,颗粒物(PM10),52,53,110,7,18,82,,,,6,7,6,6,0.2,0.1
2025-04-13T0100,1593A,109.7736,39.5986,鄂尔多斯市,康泽苑,,36,36,87,17,31,74,,,,7,4,4,4,0.2,0.2
2025-04-13T0100,1594A,109.8119,39.5989,鄂尔多斯市,华泰汽车城,,46,46,84,7,14,70,,,,10,6,4,4,0.3,0.3
2025-04-13T0100,1595A,109.9734,39.7884,鄂尔多斯市,奥林花园,颗粒物(PM10),54,58,111,12,17,80,,,,10,9,5,5,0.3,0.3
2025-04-13T0100,2436A,114.8938,30.3994,鄂州市,市政府,颗粒物(PM10),97,144,285,39,58,59,,,,17,4,6,4,0.3,0.4
2025-04-13T0100,2437A,114.8989,30.3714,鄂州市,赵家坝,颗粒物(PM10),106,161,306,34,59,47,,,,31,10,4,3,0.4,0.5
2025-04-13T0100,3654A,114.8094,30.4089,鄂州市,精准医疗中心,颗粒物(PM10),102,153,278,31,60,97,,,,9,4,5,4,0.4,0.4
2025-04-13T0100,2454A,109.4978,30.2981,恩施土家族苗族自治州,湖北民院,颗粒物(PM10),68,86,140,39,50,34,,,,14,8,6,6,0.1,0.2
2025-04-13T0100,2455A,109.4707,30.2798,恩施土家族苗族自治州,州电力总公司,颗粒物(PM10),163,275,207,96,57,19,,,,25,10,5,4,0.4,0.3
2025-04-13T0100,3549A,109.5061,30.3772,恩施土家族苗族自治州,龙凤新区,颗粒物(PM10),158,265,187,81,45,22,,,,9,9,6,6,0.3,0.3
2025-04-13T0100,2499A,108.3411,21.6158,防城港市,沙万,颗粒物(PM10),57,64,50,16,20,66,,,,5,8,3,2,0.3,0.4
2025-04-13T0100,2500A,108.3514,21.7731,防城港市,防城档案局,颗粒物(PM10),61,72,52,19,22,63,,,,10,5,1,2,0.3,0.4
2025-04-13T0100,2501A,108.3506,21.6414,防城港市,大海花园,颗粒物(PM10),58,66,50,15,16,70,,,,7,5,2,2,0.3,0.4
2025-04-13T0100,1371A,113.1294,23.0067,佛山市,湾梁,颗粒物(PM10),176,302,76,40,18,68,,,,13,19,7,7,0.5,0.5
2025-04-13T0100,1372A,113.1083,23.0478,佛山市,华材职中,颗粒物(PM10),164,278,90,51,23,58,,,,21,20,7,6,0.4,0.5
2025-04-13T0100,1373A,113.144,23.0453,佛山市,南海气象局,颗粒物(PM10),142,233,74,42,22,62,,,,14,18,6,6,0.5,0.5
2025-04-13T0100,1374A,113.2881,22.8094,佛山市,顺德苏岗,颗粒物(PM10),141,231,57,58,19,52,,,,17,16,5,5,0.4,0.5
2025-04-13T0100,1376A,112.8383,22.8678,佛山市,高明孔堂,颗粒物(PM10),160,269,102,53,26,60,,,,16,11,6,5,0.4,0.6
2025-04-13T0100,1377A,112.8836,23.1588,佛山市,三水监测站,颗粒物(PM10),178,305,129,56,31,58,,,,17,21,2,4,0.3,0.4
2025-04-13T0100,1378A,112.867,23.185,佛山市,三水云东海,颗粒物(PM10),166,282,125,74,36,55,,,,20,24,3,4,0.5,0.5
2025-04-13T0100,3625A,113.2544,22.7642,佛山市,容桂街道办,颗粒物(PM10),145,239,55,61,23,55,,,,19,20,5,6,0.5,0.6
2025-04-13T0100,1282A,119.2681,26.0504,福州市,师大,颗粒物(PM10),86,122,51,28,22,95,,,,1,13,3,3,0.2,0.4
2025-04-13T0100,1283A,119.2984,26.1028,福州市,五四北路,颗粒物(PM10),82,114,52,28,28,87,,,,5,21,3,3,0.4,0.6
2025-04-13T0100,1284A,119.2648,26.0768,福州市,杨桥西路,颗粒物(PM10),93,136,59,25,27,89,,,,4,17,3,3,0.2,0.4
2025-04-13T0100,1285A,119.317,26.0746,福州市,紫阳,颗粒物(PM10),88,126,59,26,30,88,,,,8,22,4,4,0.2,0.4
2025-04-13T0100,3048A,119.5799,26.0936,福州市,九龙,颗粒物(PM10),56,62,27,16,15,94,,,,8,10,3,3,0.2,0.4
2025-04-13T0100,3526A,119.5189,25.9664,福州市,吴航,颗粒物(PM10),66,82,29,26,18,84,,,,9,9,3,3,0.2,0.4
2025-04-13T0100,1755A,123.7977,41.8491,抚顺市,望花区,,18,17,25,11,17,56,,,,21,20,9,12,0.5,0.5
2025-04-13T0100,1756A,123.9161,41.8822,抚顺市,顺城区,,19,18,24,6,14,58,,,,14,18,7,8,0.4,0.6
2025-04-13T0100,1757A,124.0436,41.8611,抚顺市,东洲区,,31,31,25,14,14,52,,,,12,12,2,5,0.6,0.6
2025-04-13T0100,1758A,123.9247,41.8642,抚顺市,新抚区,,19,,25,13,12,54,,,,11,14,5,6,0.7,0.7
2025-04-13T0100,1759A,124.0972,41.8961,抚顺市,大伙房水库,,20,,21,14,14,56,,,,8,8,7,7,0.4,0.6
2025-04-13T0100,1760A,123.7086,41.8391,抚顺市,沈抚新城,,19,10,22,3,10,58,,,,14,17,5,6,0.5,0.6
2025-04-13T0100,2376A,116.2127,28.0814,抚州市,桐源党溪,颗粒物(PM10),157,264,240,56,55,4,,,,9,3,5,5,0.5,0.5
2025-04-13T0100,2377A,116.3544,27.9831,抚州市,市站,颗粒物(PM10),249,384,283,74,58,34,,,,21,6,7,7,0.9,0.9
2025-04-13T0100,2378A,116.3565,27.963,抚州市,血防站,颗粒物(PM10),184,317,251,67,54,32,,,,18,5,3,4,0.7,0.9
2025-04-13T0100,2379A,116.3564,28.0007,抚州市,采茶剧团,颗粒物(PM10),233,373,273,73,60,43,,,,8,3,2,3,1.3,1.3
2025-04-13T0100,2380A,116.385,27.9647,抚州市,医学分院,颗粒物(PM10),183,316,257,63,54,36,,,,20,7,4,4,0.5,0.6
2025-04-13T0100,2207A,121.6094,41.998,阜新市,工业园区,,23,13,36,9,13,73,,,,7,9,10,7,0.2,0.3
2025-04-13T0100,2208A,121.6697,42.0279,阜新市,长青街,,25,7,32,7,14,77,,,,5,7,4,4,0.3,0.4
2025-04-13T0100,2209A,121.6673,42.0705,阜新市,农业园区,,23,12,31,3,15,72,,,,4,6,6,6,0.4,0.5
2025-04-13T0100,2210A,121.6717,42.0224,阜新市,东苑,,23,15,33,3,12,73,,,,3,9,4,5,0.5,0.5
2025-04-13T0100,2211A,121.6506,42.0498,阜新市,玉龙新城,,40,40,38,3,11,75,,,,6,8,7,7,0.3,0.4
2025-04-13T0100,2301A,115.8277,32.8929,阜阳市,市监测站,颗粒物(PM10),61,71,302,22,62,83,,,,7,9,6,6,0.1,0.1
2025-04-13T0100,2303A,115.8554,32.8605,阜阳市,开发区,颗粒物(PM10),78,105,447,19,45,76,,,,14,10,6,5,0.4,0.4
2025-04-13T0100,2875A,115.784,32.8892,阜阳市,阜阳职业技术学院,颗粒物(PM10),68,85,414,19,50,79,,,,9,7,8,6,0.1,0.2
2025-04-13T0100,3468A,115.7901,32.8613,阜阳市,市规划展馆,颗粒物(PM10),71,91,341,22,44,79,,,,7,4,6,5,0.5,0.4
2025-04-13T0100,3469A,115.836,32.9183,阜阳市,枣园社区,颗粒物(PM10),65,80,318,19,52,87,,,,13,12,4,5,0.2,0.3
2025-04-13T0100,2669A,102.9099,34.9841,甘南藏族自治州,州政府,颗粒物(PM10),70,90,66,32,23,10,,,,58,19,9,7,0.5,0.3
2025-04-13T0100,3380A,102.8914,34.9617,甘南藏族自治州,甘肃民族师范学院,颗粒物(PM10),86,122,77,28,24,3,,,,57,29,8,9,0.6,0.5
2025-04-13T0100,2570A,101.9603,30.0475,甘孜藏族自治州,水桥子,,21,11,5,8,5,66,,,,12,7,4,4,0.0,0
2025-04-13T0100,3065A,101.9533,29.9972,甘孜藏族自治州,州环保局,,25,15,8,3,5,79,,,,12,10,1,1,0.0,0.1
2025-04-13T0100,3414A,115.8347,28.932,赣江新区,桑海产业园,颗粒物(PM10),258,390,405,72,93,23,,,,28,14,6,4,0.3,0.3
2025-04-13T0100,2363A,114.9367,25.8664,赣州市,地委,颗粒物(PM10),199,348,131,74,34,41,,,,8,7,1,1,0.8,1
2025-04-13T0100,2364A,114.9461,25.8481,赣州市,气象台,颗粒物(PM10),206,354,155,74,32,68,,,,11,11,9,8,0.4,0.6
2025-04-13T0100,2365A,114.9322,25.8333,赣州市,市图书馆,颗粒物(PM10),269,398,179,72,38,77,,,,8,7,4,4,0.3,0.6
2025-04-13T0100,2366A,114.8905,25.8471,赣州市,华坚鞋城,颗粒物(PM10),365,472,199,77,40,66,,,,7,10,8,9,0.1,0.3
2025-04-13T0100,3109A,115.0093,25.8613,赣州市,赣县区卫计委,颗粒物(PM10),197,343,131,71,39,60,,,,6,4,8,4,0.1,0.2
2025-04-13T0100,2683A,106.2319,36.1417,固原市,马园,颗粒物(PM10),78,105,514,36,108,48,,,,23,11,4,5,0.7,0.7
2025-04-13T0100,2684A,106.2792,36.0022,固原市,监测站,颗粒物(PM10),74,98,491,32,103,90,,,,4,5,3,3,0.2,0.4
2025-04-13T0100,2685A,106.2375,36.0211,固原市,新区,颗粒物(PM10),69,88,478,34,107,86,,,,5,6,5,5,0.3,0.4
2025-04-13T0100,3522A,106.2177,35.9959,固原市,原州区十五小,颗粒物(PM10),84,117,525,32,126,88,,,,3,6,5,5,0.2,0.2
2025-04-13T0100,2544A,106.6303,30.4576,广安市,市委,颗粒物(PM10),485,585,686,150,150,50,,,,15,10,5,5,0.3,0.3
2025-04-13T0100,2545A,106.6271,30.4663,广安市,友谊中学,颗粒物(PM10),447,547,573,150,142,48,,,,16,12,4,3,0.2,0.1
2025-04-13T0100,2547A,106.6388,30.4551,广安市,广电花园,颗粒物(PM10),425,525,591,166,140,45,,,,15,15,2,4,0.3,0.3
2025-04-13T0100,2902A,106.6351,30.4865,广安市,北辰小学,颗粒物(PM10),488,588,720,158,141,49,,,,15,11,8,6,0.4,0.3
2025-04-13T0100,2523A,105.8945,32.4535,广元市,黑石坡,颗粒物(PM10),155,259,1352,75,278,72,,,,6,4,2,1,0.2,0.2
2025-04-13T0100,2524A,105.821,32.4444,广元市,老城,颗粒物(PM10),298,418,1308,144,290,3,,,,58,14,1,1,0.3,0.4
2025-04-13T0100,2526A,105.8628,32.4287,广元市,监测站,颗粒物(PM10),103,156,1215,72,294,60,,,,10,5,7,6,0.3,0.3
2025-04-13T0100,3617A,105.8047,32.4166,广元市,经开区,颗粒物(PM10),192,333,1410,111,341,8,,,,58,22,4,2,0.4,0.3
2025-04-13T0100,1345A,113.2347,23.1423,广州市,广雅中学,颗粒物(PM10),187,323,81,82,27,54,,,,22,25,4,3,0.3,0.5
2025-04-13T0100,1346A,113.2612,23.105,广州市,市五中,颗粒物(PM10),161,272,60,78,25,60,,,,13,19,2,1,0.5,0.6
2025-04-13T0100,1348A,113.3478,23.0916,广州市,广东商学院,颗粒物(PM10),167,283,62,66,23,65,,,,14,23,4,4,0.3,0.4
2025-04-13T0100,1349A,113.4332,23.1047,广州市,市八十六中,颗粒物(PM10),179,308,70,83,23,63,,,,14,26,3,3,0.7,0.7
2025-04-13T0100,1350A,113.3505,22.9483,广州市,番禺中学,颗粒物(PM10),159,267,61,39,18,60,,,,16,20,4,4,0.4,0.5
2025-04-13T0100,1351A,113.2146,23.3916,广州市,花都师范,颗粒物(PM10),149,248,88,46,22,63,,,,10,21,8,4,0.4,0.5
2025-04-13T0100,1352A,113.2597,23.1331,广州市,市监测站,颗粒物(PM10),176,301,69,66,23,56,,,,17,23,5,4,0.4,0.4
2025-04-13T0100,1353A,113.5618,23.312,广州市,九龙镇镇龙,颗粒物(PM10),198,345,69,63,22,68,,,,9,19,4,5,0.4,0.4
2025-04-13T0100,1354A,113.2765,23.1544,广州市,麓湖,颗粒物(PM10),176,302,70,74,23,60,,,,16,20,4,3,0.3,0.4
2025-04-13T0100,1355A,113.443,23.3035,广州市,帽峰山森林公园,颗粒物(PM10),263,394,78,86,33,67,,,,10,17,4,3,0.3,0.5
2025-04-13T0100,2846A,113.3221,23.1322,广州市,体育西,颗粒物(PM10),157,263,68,70,20,60,,,,11,21,4,4,0.5,0.5
2025-04-13T0100,3298A,113.5717,23.5491,广州市,从化街口,颗粒物(PM10),313,430,84,91,26,74,,,,6,13,8,8,0.5,0.7
2025-04-13T0100,3299A,113.3472,23.3692,广州市,白云竹料,颗粒物(PM10),185,320,78,78,26,77,,,,7,16,8,6,0.4,0.5
2025-04-13T0100,3300A,113.2981,23.237,广州市,白云嘉禾,颗粒物(PM10),178,306,71,63,23,61,,,,15,27,5,4,0.4,0.6
2025-04-13T0100,3301A,113.4256,23.1716,广州市,黄埔科学城,颗粒物(PM10),189,328,69,78,24,73,,,,6,20,8,7,0.3,0.3
2025-04-13T0100,3302A,113.3942,23.0483,广州市,番禺大学城,颗粒物(PM10),124,197,50,66,23,64,,,,19,23,6,7,0.4,0.5
2025-04-13T0100,3303A,113.4922,22.8168,广州市,南沙黄阁,颗粒物(PM10),189,327,59,56,18,60,,,,22,17,5,5,0.6,0.7
2025-04-13T0100,3304A,113.5342,22.7896,广州市,南沙街,颗粒物(PM10),197,344,58,72,18,67,,,,19,16,6,4,0.4,0.5
2025-04-13T0100,3443A,113.2902,23.5544,广州市,花都梯面,颗粒物(PM10),149,248,86,60,27,60,,,,11,19,13,5,0.6,0.7
2025-04-13T0100,3445A,113.7858,23.7478,广州市,从化良口,颗粒物(PM10),390,492,99,96,28,82,,,,5,8,7,6,0.3,0.5
2025-04-13T0100,3446A,113.8051,23.2614,广州市,增城荔城,颗粒物(PM10),245,381,71,82,26,80,,,,7,18,8,6,0.1,0.2
2025-04-13T0100,2506A,109.6047,23.0666,贵港市,江南子站,颗粒物(PM10),202,351,170,66,39,83,,,,12,11,2,3,0.4,0.6
2025-04-13T0100,2508A,109.5669,23.1065,贵港市,荷城子站,颗粒物(PM10),190,330,132,70,41,79,,,,9,12,4,4,0.3,0.3
2025-04-13T0100,3405A,109.5886,23.1172,贵港市,新世纪学校,颗粒物(PM10),194,337,155,74,46,79,,,,9,12,5,6,0.5,0.7
2025-04-13T0100,4260A,109.5933,23.0951,贵港市,中山路155-3号,颗粒物(PM10),176,302,143,69,41,85,,,,10,11,6,6,0.6,0.8
2025-04-13T0100,1439A,106.6899,26.5998,贵阳市,马鞍山,颗粒物(PM10),189,327,194,66,50,50,,,,10,8,3,4,0.2,0.3
2025-04-13T0100,1441A,106.6243,26.6266,贵阳市,鉴湖路,颗粒物(PM10),282,407,224,75,51,60,,,,10,6,10,10,0.2,0.3
2025-04-13T0100,1442A,106.7487,26.6343,贵阳市,燕子冲,颗粒物(PM10),206,354,207,80,61,53,,,,14,11,2,2,0.1,0.1
2025-04-13T0100,1443A,106.6555,26.4365,贵阳市,碧云窝,颗粒物(PM10),339,451,252,88,56,69,,,,10,10,4,5,0.3,0.3
2025-04-13T0100,1445A,106.7109,26.6027,贵阳市,红边门,颗粒物(PM10),279,405,230,80,56,65,,,,14,12,4,3,0,0.1
2025-04-13T0100,1446A,106.7164,26.5699,贵阳市,新华路,颗粒物(PM10),322,437,241,83,55,68,,,,9,9,2,3,0.2,0.2
2025-04-13T0100,1447A,106.674,26.5424,贵阳市,太慈桥,颗粒物(PM10),282,407,225,85,54,67,,,,12,11,5,5,0.3,0.3
2025-04-13T0100,4230A,106.6882,26.5695,贵阳市,花果园大街66号,颗粒物(PM10),307,425,233,100,58,66,,,,10,9,4,4,0.2,0.2
2025-04-13T0100,4231A,106.6873,26.5169,贵阳市,漓江路57号,颗粒物(PM10),318,434,232,97,61,75,,,,9,9,9,8,0.2,0.3
2025-04-13T0100,1864A,110.3089,25.2708,桂林市,龙隐路小学,颗粒物(PM10),422,522,219,112,48,69,,,,10,6,36,10,0.3,0.6
2025-04-13T0100,1865A,110.2869,25.2178,桂林市,八中,颗粒物(PM10),429,529,129,68,44,68,,,,12,12,20,10,0.6,0.7
2025-04-13T0100,3531A,110.296,25.1253,桂林市,旅游学院,颗粒物(PM10),377,481,228,122,65,58,,,,14,13,3,6,0.5,0.4
2025-04-13T0100,4222A,110.1835,25.2444,桂林市,环湖路276号,颗粒物(PM10),459,559,239,132,67,66,,,,11,12,5,5,0.3,0.4
2025-04-13T0100,4301A,110.2803,25.2773,桂林市,信义路13号,颗粒物(PM10),452,552,225,110,50,79,,,,10,9,7,6,0.2,0.4
2025-04-13T0100,2674A,100.2561,34.4714,果洛藏族自治州,玛沁县大武镇,,35,35,32,15,14,64,,,,3,2,10,13,0.4,0.4
2025-04-13T0100,1129A,126.5422,45.755,哈尔滨市,岭北,细颗粒物(PM2.5),52,49,54,36,44,88,,,,17,22,15,16,0.9,1
2025-04-13T0100,1130A,126.561,45.8167,哈尔滨市,松北商大,,46,38,51,32,34,77,,,,16,17,20,12,0.8,0.8
2025-04-13T0100,1131A,126.979,45.5419,哈尔滨市,阿城会宁,细颗粒物(PM2.5),83,71,64,61,43,54,,,,24,18,9,8,0.6,0.5
2025-04-13T0100,1132A,126.599,45.7222,哈尔滨市,南岗学府路,颗粒物(PM10),57,64,78,32,41,80,,,,18,22,9,10,0.9,0.9
2025-04-13T0100,1133A,126.689,45.7733,哈尔滨市,太平宏伟公园,细颗粒物(PM2.5),57,52,74,40,44,62,,,,15,13,5,7,0.7,0.7
2025-04-13T0100,1134A,126.635,45.7667,哈尔滨市,道外承德广场,细颗粒物(PM2.5),64,50,71,46,50,67,,,,20,25,7,12,0.4,0.5
2025-04-13T0100,1135A,126.685,45.7319,哈尔滨市,香坊红旗大街,颗粒物(PM10),52,53,68,31,45,76,,,,22,27,10,13,0.6,0.6
2025-04-13T0100,1136A,126.6411,45.7258,哈尔滨市,动力和平路,细颗粒物(PM2.5),55,45,80,39,42,78,,,,18,22,10,12,0.6,0.7
2025-04-13T0100,1137A,126.593,45.7478,哈尔滨市,道里建国路,细颗粒物(PM2.5),54,42,64,38,42,80,,,,19,26,10,14,0.7,0.9
2025-04-13T0100,1138A,126.615,45.61,哈尔滨市,平房东轻厂,细颗粒物(PM2.5),63,54,70,45,49,59,,,,28,19,11,11,0.6,0.6
2025-04-13T0100,1139A,126.595,45.9855,哈尔滨市,呼兰师专,,40,32,66,28,47,76,,,,14,21,6,9,0.5,0.6
2025-04-13T0100,1140A,126.6206,45.6842,哈尔滨市,省农科院,颗粒物(PM10),60,70,84,40,50,77,,,,21,30,12,11,0.7,0.7
2025-04-13T0100,2688A,93.5128,42.8172,哈密市,地区监测站,颗粒物(PM10),58,65,52,29,17,53,,,,28,17,6,7,0.3,0.3
2025-04-13T0100,2689A,93.4961,42.8328,哈密市,哈密师范学校,"二氧化氮,颗粒物(PM10)",60,70,50,14,13,31,,,,120,27,4,5,0.8,0.6
2025-04-13T0100,2671A,100.9048,36.9639,海北藏族自治州,海晏县西海镇,,17,10,12,8,10,54,,,,7,3,9,7,0.3,0.3
2025-04-13T0100,3867A,102.0738,36.5056,海东市,平安区公安北苑,颗粒物(PM10),61,72,46,25,20,65,,,,3,10,2,4,0.5,0.5
2025-04-13T0100,1409A,110.576,19.9507,海口市,东寨港,颗粒物(PM10),70,90,32,19,15,64,,,,5,5,5,7,0.4,0.4
2025-04-13T0100,1410A,110.3232,20.0574,海口市,海南大学,颗粒物(PM10),57,63,41,26,24,69,,,,6,9,2,2,0.6,0.5
2025-04-13T0100,1411A,110.283,20.0053,海口市,秀英海南医院,颗粒物(PM10),52,53,38,22,23,67,,,,8,14,5,4,0.3,0.4
2025-04-13T0100,1412A,110.338,19.9969,海口市,海南师范大学,,50,50,34,23,20,69,,,,4,7,4,4,0.4,0.4
2025-04-13T0100,1413A,110.33,20.0356,海口市,龙华路环保局宿舍,颗粒物(PM10),51,52,34,24,20,73,,,,4,8,4,4,0.4,0.4
2025-04-13T0100,3539A,110.5111,19.9736,海口市,桂林洋子站,颗粒物(PM10),64,77,34,30,20,76,,,,6,8,4,4,0.2,0.3
2025-04-13T0100,2673A,100.6188,36.2866,海南藏族自治州,共和县恰卜恰镇,,25,19,26,11,8,80,,,,4,5,13,12,0.4,0.4
2025-04-13T0100,2676A,97.3731,37.3753,海西蒙古族藏族自治州,德令哈市,,27,18,21,8,21,84,,,,2,3,12,10,0.5,0.4
2025-04-13T0100,1048A,114.5302,36.6116,邯郸市,东污水处理厂,颗粒物(PM10),60,70,232,7,47,74,,,,11,10,3,3,0.3,0.2
2025-04-13T0100,1049A,114.4918,36.5713,邯郸市,矿院,颗粒物(PM10),76,102,219,24,41,32,,,,24,3,2,2,0.3,0.3
2025-04-13T0100,1050A,114.484,36.6133,邯郸市,丛台公园,颗粒物(PM10),68,85,247,16,50,58,,,,25,8,3,3,0.3,0.2
2025-04-13T0100,3458A,114.7895,36.5593,邯郸市,香泉濮院小区,颗粒物(PM10),70,89,364,3,54,63,,,,12,7,3,3,0.3,0.4
2025-04-13T0100,3579A,114.50634,36.77178,邯郸市,永年区实验高中,颗粒物(PM10),73,96,268,13,41,72,,,,4,3,4,3,0.5,0.4
2025-04-13T0100,3580A,114.20016,36.44293,邯郸市,峰峰矿区临水派出所,颗粒物(PM10),59,67,236,14,43,83,,,,9,7,2,2,0.6,0.6
2025-04-13T0100,2634A,106.9893,33.1842,汉中市,汉川机床厂子校,颗粒物(PM10),469,569,1232,184,302,69,,,,8,4,6,6,1.1,0.9
2025-04-13T0100,2635A,107.0154,33.0706,汉中市,市监测站,颗粒物(PM10),338,450,1018,152,286,42,,,,17,9,5,5,0.7,0.6
2025-04-13T0100,2636A,107.0089,33.1138,汉中市,鑫源开发区,颗粒物(PM10),500,696,1234,268,305,36,,,,33,12,13,5,0.8,0.4
2025-04-13T0100,2637A,107.007,33.0323,汉中市,南郑大河坎水厂,细颗粒物(PM2.5),209,347,1153,159,341,49,,,,18,10,5,4,0.5,0.4
2025-04-13T0100,1223A,120.2072,30.2111,杭州市,滨江,颗粒物(PM10),112,174,209,34,57,90,,,,4,16,7,6,0.5,0.6
2025-04-13T0100,1224A,120.0633,30.2747,杭州市,西溪,颗粒物(PM10),74,97,178,18,40,90,,,,8,12,6,5,0.4,0.4
2025-04-13T0100,1226A,120.3417,30.3150,杭州市,下沙,颗粒物(PM10),103,156,202,20,51,82,,,,12,23,6,5,0.3,0.4
2025-04-13T0100,1227A,120.1269,30.2456,杭州市,卧龙桥,颗粒物(PM10),79,107,182,29,43,84,,,,5,13,6,5,0.3,0.4
2025-04-13T0100,1228A,120.1903,30.2692,杭州市,浙江农大,颗粒物(PM10),93,136,218,31,56,88,,,,8,16,3,1,0.2,0.4
2025-04-13T0100,1230A,120.1197,30.3119,杭州市,和睦小学,颗粒物(PM10),88,125,203,33,48,87,,,,8,14,6,6,0.5,0.6
2025-04-13T0100,1231A,120.3019,30.4183,杭州市,临平镇,颗粒物(PM10),124,198,233,24,52,88,,,,14,18,6,5,0.2,0.4
2025-04-13T0100,1232A,120.2753,30.1839,杭州市,城厢镇,颗粒物(PM10),94,137,203,40,52,94,,,,6,16,6,6,0.4,0.5
2025-04-13T0100,1233A,120.0883,30.1808,杭州市,云栖,颗粒物(PM10),74,97,191,17,42,56,,,,10,15,8,9,0.4,0.5
2025-04-13T0100,3557A,119.9464,30.0494,杭州市,镇二中,颗粒物(PM10),79,108,147,27,37,89,,,,16,18,1,1,0.2,0.4
2025-04-13T0100,3558A,119.7183,30.2367,杭州市,市府大楼,颗粒物(PM10),75,100,170,26,45,83,,,,11,12,7,7,0.5,0.6
2025-04-13T0100,3656A,120.1556,30.2864,杭州市,消防大队,颗粒物(PM10),92,134,208,27,60,91,,,,16,18,4,4,0.4,0.6
2025-04-13T0100,1270A,117.1959,31.7848,合肥市,明珠广场,颗粒物(PM10),81,112,196,24,50,65,,,,16,10,2,2,0.2,0.2
2025-04-13T0100,1271A,117.3072,31.8764,合肥市,三里街,颗粒物(PM10),80,110,245,22,49,75,,,,11,9,4,3,0.2,0.2
2025-04-13T0100,1272A,117.2588,31.8707,合肥市,琥珀山庄,颗粒物(PM10),87,124,254,33,45,82,,,,10,9,3,2,0.3,0.4
2025-04-13T0100,1273A,117.1604,31.9052,合肥市,董铺水库,颗粒物(PM10),106,162,368,52,62,81,,,,15,7,1,2,0.2,0.2
2025-04-13T0100,1274A,117.25,31.8571,合肥市,长江中路,颗粒物(PM10),89,127,264,25,53,84,,,,9,8,8,6,0.4,0.4
2025-04-13T0100,1275A,117.266,31.9436,合肥市,庐阳区,颗粒物(PM10),90,129,253,24,49,76,,,,10,6,4,4,0.3,0.3
2025-04-13T0100,1276A,117.3453,31.8616,合肥市,瑶海区,颗粒物(PM10),86,122,225,24,47,78,,,,12,9,5,5,0.2,0.4
2025-04-13T0100,1277A,117.3027,31.7964,合肥市,包河区,颗粒物(PM10),86,122,225,29,58,62,,,,23,14,5,5,0.3,0.3
2025-04-13T0100,1278A,117.2776,31.7385,合肥市,滨湖新区,细颗粒物(PM2.5),107,124,213,80,70,35,,,,48,15,5,4,0.4,0.5
2025-04-13T0100,1279A,117.1318,31.8403,合肥市,高新区,颗粒物(PM10),85,119,216,26,53,80,,,,7,7,1,1,0.4,0.4
2025-04-13T0100,3464A,117.3803,31.9147,合肥市,高教基地,颗粒物(PM10),79,107,181,29,53,79,,,,12,13,4,4,0.2,0.2
2025-04-13T0100,3614A,79.924,37.0877,和田地区,地区环保局,颗粒物(PM10),464,564,518,218,190,73,,,,7,7,2,2,0.6,0.6
2025-04-13T0100,3615A,79.9131,37.113,和田地区,市环保局,颗粒物(PM10),353,462,524,148,167,64,,,,4,4,1,2,0.7,0.7
2025-04-13T0100,2516A,108.2011,24.715,河池市,东仁乐园,颗粒物(PM10),113,175,59,11,20,81,,,,7,10,8,8,1.0,1.2
2025-04-13T0100,2517A,108.0497,24.6947,河池市,市环保站,颗粒物(PM10),96,141,51,16,17,79,,,,8,10,5,5,0.2,0.4
2025-04-13T0100,2518A,108.0983,24.6989,河池市,市疾控中心,颗粒物(PM10),95,139,51,30,20,79,,,,12,15,7,7,0.4,0.6
2025-04-13T0100,1696A,114.6778,23.7569,河源市,源西,颗粒物(PM10),298,418,106,59,29,87,,,,9,12,5,3,0.2,0.4
2025-04-13T0100,1697A,114.6944,23.7586,河源市,东埔,颗粒物(PM10),310,428,97,49,34,88,,,,8,14,4,4,0.3,0.5
2025-04-13T0100,1698A,114.6892,23.7233,河源市,老城,颗粒物(PM10),263,394,105,74,34,87,,,,7,13,4,4,0.3,0.5
2025-04-13T0100,1718A,115.4208,35.2464,菏泽市,气象局,颗粒物(PM10),74,98,256,16,92,64,,,,21,15,6,3,0.3,0.3
2025-04-13T0100,3374A,115.5564,35.0891,菏泽市,定陶老年大学,颗粒物(PM10),65,80,243,19,79,60,,,,25,13,3,3,0.3,0.2
2025-04-13T0100,4184A,115.4797,35.24401,菏泽市,永昌路1号,,,,228,19,83,65,,,,16,11,7,3,0.3,0.3
2025-04-13T0100,4193A,115.4715,35.2800,菏泽市,长城路999号,颗粒物(PM10),70,90,409,12,59,66,,,,19,16,7,4,0.1,0.1
2025-04-13T0100,2514A,111.5264,24.4172,贺州市,环保小区,颗粒物(PM10),232,372,187,103,52,69,,,,10,16,6,7,0.2,0.4
2025-04-13T0100,2515A,111.5608,24.4078,贺州市,政协大楼,颗粒物(PM10),176,301,176,88,68,68,,,,10,15,8,9,0.1,0.4
2025-04-13T0100,3534A,111.4744,24.4553,贺州市,西湾,颗粒物(PM10),232,372,177,91,52,71,,,,9,15,7,7,0.3,0.5
2025-04-13T0100,2385A,114.17,35.9019,鹤壁市,市监测站,颗粒物(PM10),58,66,338,11,67,84,,,,7,5,3,3,0.6,0.6
2025-04-13T0100,2386A,114.2956,35.7511,鹤壁市,市交警支队,颗粒物(PM10),76,101,403,10,50,52,,,,32,15,8,6,0.5,0.3
2025-04-13T0100,2387A,114.2878,35.7306,鹤壁市,迎宾馆,颗粒物(PM10),78,106,463,8,42,64,,,,17,15,3,2,0.4,0.4
2025-04-13T0100,3474A,114.2617,35.6822,鹤壁市,大新区,细颗粒物(PM2.5),185,144,444,139,88,16,,,,58,12,4,5,0.3,0.2
2025-04-13T0100,3596A,114.1572,35.9603,鹤壁市,南山宾馆,颗粒物(PM10),65,80,378,20,65,87,,,,6,4,2,2,0.3,0.2
2025-04-13T0100,2244A,130.2537,47.3416,鹤岗市,哈啤分公司,,46,46,63,25,41,106,,,,8,17,15,16,0.3,0.4
2025-04-13T0100,2245A,130.2684,47.3086,鹤岗市,斯达机电,,48,48,63,30,46,101,,,,6,17,13,14,0.6,0.6
2025-04-13T0100,2246A,130.3114,47.3388,鹤岗市,东山纸板厂,颗粒物(PM10),51,51,76,31,50,104,,,,6,17,12,15,0.2,0.4
2025-04-13T0100,2263A,127.4833,50.2524,黑河市,交通局,,22,,13,15,14,69,,,,3,4,7,7,0.2,0.4
2025-04-13T0100,2264A,127.5144,50.2341,黑河市,环保局,,20,,12,10,14,62,,,,8,9,7,5,0.3,0.3
2025-04-13T0100,1074A,115.6838,37.7541,衡水市,电机北厂,,25,21,244,16,52,77,,,,6,5,9,3,0.2,0.2
2025-04-13T0100,1075A,115.6303,37.7316,衡水市,市监测站,,24,18,74,6,15,75,,,,9,8,12,4,0.2,0.1
2025-04-13T0100,3188A,115.6683,37.7217,衡水市,市城管局,,28,28,237,13,43,74,,,,9,7,5,3,0.2,0.3
2025-04-13T0100,3459A,115.5989,37.5491,衡水市,地表水厂,,35,35,220,19,34,71,,,,10,6,8,5,0.4,0.3
2025-04-13T0100,2456A,112.5003,26.9167,衡阳市,原169医院,,,,324,41,36,40,,,,12,9,30,30,1.8,0.5
2025-04-13T0100,2457A,112.6194,26.9258,衡阳市,衡阳化工总厂,颗粒物(PM10),373,478,366,97,63,28,,,,26,12,6,6,0.5,0.5
2025-04-13T0100,2458A,112.6211,26.8956,衡阳市,珠晖区环保局,颗粒物(PM10),304,423,318,95,77,19,,,,37,9,6,6,0.4,0.5
2025-04-13T0100,2459A,112.6197,26.8733,衡阳市,市委党校,颗粒物(PM10),367,473,441,99,126,20,,,,34,16,10,3,1.8,0.6
2025-04-13T0100,2460A,112.6006,26.8919,衡阳市,市监测站,颗粒物(PM10),350,460,347,108,74,30,,,,33,11,8,7,0.6,0.5
2025-04-13T0100,2461A,112.5664,26.9056,衡阳市,真空机电公司,颗粒物(PM10),427,527,355,110,65,41,,,,18,8,8,5,0.3,0.3
2025-04-13T0100,3399A,112.6703,26.882,衡阳市,师范学院,颗粒物(PM10),315,432,338,122,75,9,,,,39,13,10,9,0.7,0.5
2025-04-13T0100,2608A,103.3772,23.3993,红河哈尼族彝族自治州,污水处理厂,,47,47,52,31,41,66,,,,10,12,23,15,0.3,0.4
2025-04-13T0100,2609A,103.3861,23.35,红河哈尼族彝族自治州,监测站,颗粒物(PM10),67,84,66,41,42,71,,,,8,10,9,10,0.3,0.4
2025-04-13T0100,3038A,103.3758,23.368,红河哈尼族彝族自治州,州图书馆,,47,47,40,29,37,67,,,,8,11,12,11,0.2,0.3
2025-04-13T0100,1090A,111.6507,40.7517,呼和浩特市,呼市一监,,26,12,22,3,5,83,,,,2,2,11,11,0.5,0.5
2025-04-13T0100,1091A,111.6572,40.8033,呼和浩特市,小召,,25,12,26,3,5,77,,,,10,7,5,5,0.3,0.3
2025-04-13T0100,1094A,111.7516,40.8369,呼和浩特市,如意水处理厂,,25,14,28,3,6,77,,,,6,3,6,6,0.3,0.3
2025-04-13T0100,1095A,111.7276,40.8062,呼和浩特市,二十九中,,26,14,28,3,6,83,,,,2,2,3,3,0.4,0.4
2025-04-13T0100,1096A,111.5512,40.7866,呼和浩特市,工大金川校区,,26,12,18,3,4,81,,,,8,4,7,6,0.4,0.4
2025-04-13T0100,1097A,111.717,40.7612,呼和浩特市,化肥厂生活区,,27,14,26,10,7,85,,,,6,4,6,6,0.3,0.3
2025-04-13T0100,3698A,111.5968,40.8178,呼和浩特市,红旗小学,,27,14,21,3,4,85,,,,9,5,4,4,0.4,0.4
2025-04-13T0100,3699A,111.6518,40.8389,呼和浩特市,海东办,,25,,21,3,5,79,,,,3,4,6,6,0.5,0.5
2025-04-13T0100,2192A,119.7594,49.2261,呼伦贝尔市,区环保局,,26,23,22,18,21,81,,,,4,6,5,5,0.2,0.2
2025-04-13T0100,3061A,119.7512,49.1577,呼伦贝尔市,国华电力东,,26,25,28,14,14,83,,,,4,4,6,4,0.3,0.3
2025-04-13T0100,1250A,120.0751,30.8669,湖州市,城西水厂,颗粒物(PM10),128,205,268,37,56,79,,,,17,23,7,6,0.4,0.4
2025-04-13T0100,2873A,120.0830,30.8929,湖州市,仁皇山新区,颗粒物(PM10),134,218,270,40,58,72,,,,25,17,7,4,0.4,0.6
2025-04-13T0100,2907A,120.1844,30.8596,湖州市,吴兴区站,颗粒物(PM10),114,177,242,39,53,82,,,,10,12,6,5,0.2,0.3
2025-04-13T0100,3562A,120.4148,30.8538,湖州市,南浔区站,颗粒物(PM10),127,203,261,41,51,89,,,,13,12,3,2,0.2,0.4
2025-04-13T0100,1607A,120.9049,40.7211,葫芦岛市,龙港区,,24,21,62,6,16,76,,,,8,13,8,11,0.4,0.4
2025-04-13T0100,1608A,120.8392,40.7514,葫芦岛市,化工街,,22,22,65,3,22,70,,,,12,19,6,10,0.4,0.4
2025-04-13T0100,1609A,120.8341,40.7073,葫芦岛市,新区,,26,21,63,3,17,81,,,,8,15,8,9,0.3,0.4
2025-04-13T0100,1610A,120.8695,40.7677,葫芦岛市,东城区,,25,25,62,6,16,77,,,,11,17,13,8,0.4,0.5
2025-04-13T0100,2482A,109.5981,27.5721,怀化市,林科所,颗粒物(PM10),63,75,40,23,20,36,,,,17,7,4,4,0.3,0.3
2025-04-13T0100,2483A,109.9453,27.5444,怀化市,河西地税局,颗粒物(PM10),54,57,45,20,20,14,,,,16,9,9,9,0.4,0.4
2025-04-13T0100,2484A,109.9781,27.5342,怀化市,市四医院,颗粒物(PM10),56,62,52,19,20,18,,,,27,9,6,7,0.3,0.3
2025-04-13T0100,2485A,109.9972,27.5578,怀化市,监测楼,颗粒物(PM10),64,78,54,37,24,26,,,,19,6,7,7,0.4,0.3
2025-04-13T0100,2486A,110.0394,27.583,怀化市,市委党校,颗粒物(PM10),57,64,53,26,20,35,,,,12,6,4,5,0.4,0.4
2025-04-13T0100,1210A,119.036,33.5981,淮安市,钵池山,颗粒物(PM10),81,112,247,31,44,76,,,,16,13,10,10,0.5,0.5
2025-04-13T0100,1211A,119.007,33.575,淮安市,北京南路,颗粒物(PM10),76,102,253,28,40,63,,,,20,12,9,7,0.4,0.5
2025-04-13T0100,1212A,118.989,33.6067,淮安市,市监测站,颗粒物(PM10),79,107,255,27,52,74,,,,12,11,8,8,0.3,0.4
2025-04-13T0100,1213A,119.135,33.5039,淮安市,楚州区监测站,颗粒物(PM10),80,110,264,45,64,72,,,,6,9,7,7,0.4,0.4
2025-04-13T0100,3426A,118.8755,33.2894,淮安市,新华书店,颗粒物(PM10),74,97,302,42,38,89,,,,11,9,8,7,0.4,0.4
2025-04-13T0100,4206A,119.0288,33.6319,淮安市,承德北路606号,颗粒物(PM10),80,110,253,31,48,69,,,,10,9,6,6,0.5,0.4
2025-04-13T0100,2282A,116.8004,33.975,淮北市,监测站,颗粒物(PM10),67,84,304,15,47,74,,,,16,13,5,6,0.4,0.4
2025-04-13T0100,2283A,116.8091,33.9007,淮北市,烈山区政府,颗粒物(PM10),63,76,304,20,65,64,,,,27,17,8,4,0.7,0.3
2025-04-13T0100,3330A,116.8873,33.9836,淮北市,杜集区检察院,颗粒物(PM10),74,97,346,17,59,77,,,,15,13,4,5,0.6,0.7
2025-04-13T0100,4017A,116.7923,33.9535,淮北市,市博物馆,颗粒物(PM10),71,92,340,27,64,62,,,,18,14,7,5,0.7,0.6
2025-04-13T0100,2277A,116.8305,32.7727,淮南市,潘集区政府,颗粒物(PM10),81,112,542,27,76,73,,,,12,11,2,4,0.2,0.3
2025-04-13T0100,2279A,116.8569,32.5951,淮南市,谢家集区政府,颗粒物(PM10),80,110,379,22,51,67,,,,13,7,6,6,0.5,0.4
2025-04-13T0100,2280A,116.8281,32.633,淮南市,八公山区政府,颗粒物(PM10),80,110,425,30,65,82,,,,6,5,2,3,0.2,0.2
2025-04-13T0100,2894A,117.0566,32.6531,淮南市,经济技术开发区消防队,颗粒物(PM10),89,128,537,41,69,83,,,,15,10,6,6,0.3,0.3
2025-04-13T0100,3329A,117.0108,32.5893,淮南市,山南新区,颗粒物(PM10),87,123,552,12,76,70,,,,14,8,7,7,0.3,0.3
2025-04-13T0100,4209A,117.0031,32.6445,淮南市,国庆中路369号,颗粒物(PM10),83,116,472,34,81,76,,,,14,9,4,5,0.4,0.3
2025-04-13T0100,2446A,114.9028,30.4742,黄冈市,职工中心,颗粒物(PM10),75,100,212,31,59,73,,,,19,8,7,4,0.5,0.4
2025-04-13T0100,2929A,114.8858,30.4519,黄冈市,红卫路,颗粒物(PM10),85,119,290,29,52,61,,,,14,4,10,7,0.7,1.2
2025-04-13T0100,3398A,114.9136,30.4445,黄冈市,市林业局,颗粒物(PM10),85,120,192,25,31,72,,,,10,13,6,6,0.4,0.4
2025-04-13T0100,2672A,102.0199,35.5102,黄南藏族自治州,同仁县隆务镇,,33,33,28,19,7,77,,,,1,3,12,12,0.2,0.2
2025-04-13T0100,2295A,118.2903,29.6963,黄山市,延安路89号,颗粒物(PM10),125,200,224,82,164,26,,,,5,3,3,4,0.1,0
2025-04-13T0100,2297A,118.1371,30.2756,黄山市,黄山区政府5号楼,颗粒物(PM10),95,139,228,26,46,50,,,,2,2,3,3,0.8,0.9
2025-04-13T0100,4210A,118.3354,29.7203,黄山市,滨江东路7-2号,颗粒物(PM10),132,213,230,46,69,30,,,,6,7,4,4,0.3,0.5
2025-04-13T0100,2423A,115.0601,30.2313,黄石市,沈家营,颗粒物(PM10),85,120,298,25,68,79,,,,6,5,7,6,0.4,0.4
2025-04-13T0100,2426A,114.8988,30.2019,黄石市,铁山,颗粒物(PM10),88,125,283,29,69,74,,,,5,4,5,5,0.8,0.8
2025-04-13T0100,2427A,115.0307,30.2092,黄石市,团城山,颗粒物(PM10),85,119,304,21,65,84,,,,6,7,7,7,0.4,0.4
2025-04-13T0100,3149A,115.0235,30.1578,黄石市,笔架山北路,颗粒物(PM10),68,86,225,27,62,71,,,,6,4,4,4,0.4,0.5
2025-04-13T0100,4185A,115.0780,30.21118,黄石市,磁湖东路29号,颗粒物(PM10),88,126,343,30,71,82,,,,3,5,7,6,0.6,0.7
2025-04-13T0100,1392A,114.4183,23.0528,惠州市,河南岸金山湖子站,颗粒物(PM10),187,323,73,78,27,86,,,,11,17,9,8,0.4,0.5
2025-04-13T0100,1393A,114.4053,23.0822,惠州市,下埔横江三路子站,颗粒物(PM10),215,360,77,85,27,85,,,,9,15,10,8,0.4,0.6
2025-04-13T0100,1394A,114.4103,23.1142,惠州市,江北云山西路子站,颗粒物(PM10),229,370,79,90,26,85,,,,10,14,10,9,0.3,0.4
2025-04-13T0100,1395A,114.4645,22.7833,惠州市,惠阳区承修路船湖子站,颗粒物(PM10),184,317,63,66,21,82,,,,8,15,8,8,0.4,0.5
2025-04-13T0100,1396A,114.5317,22.7422,惠州市,大亚湾管委会子站,颗粒物(PM10),146,242,51,67,19,92,,,,6,13,6,5,0.3,0.4
2025-04-13T0100,3314A,114.4338,22.8134,惠州市,惠阳秋长,颗粒物(PM10),245,381,96,81,24,89,,,,5,10,9,10,0.2,0.4
2025-04-13T0100,3452A,114.6517,22.775,惠州市,大亚湾霞涌,颗粒物(PM10),164,278,62,70,22,79,,,,12,16,7,6,0.5,0.3
2025-04-13T0100,2240A,130.9762,45.3001,鸡西市,环保局,细颗粒物(PM2.5),54,55,93,38,54,125,,,,6,17,5,7,0.5,0.7
2025-04-13T0100,2243A,130.9429,45.3039,鸡西市,第一中学,,40,21,88,11,54,126,,,,3,15,5,9,0.6,0.7
2025-04-13T0100,3707A,131.0207,45.3073,鸡西市,欧美日汽修厂,,42,39,136,29,64,119,,,,3,15,6,13,0.5,0.6
2025-04-13T0100,3709A,130.9967,45.3106,鸡西市,市政设施管理处,颗粒物(PM10),58,66,121,30,60,122,,,,4,20,6,8,0.4,0.6
2025-04-13T0100,2367A,114.9754,27.0803,吉安市,红声器材厂,颗粒物(PM10),194,338,228,75,55,44,,,,24,12,12,9,0.4,0.4
2025-04-13T0100,2368A,114.9658,27.0999,吉安市,市森林工业局,颗粒物(PM10),188,326,227,69,54,42,,,,22,9,10,9,0.2,0.3
2025-04-13T0100,2369A,114.99,27.1312,吉安市,市环境监测站,颗粒物(PM10),171,291,202,60,51,54,,,,13,8,18,16,0.2,0.3
2025-04-13T0100,2370A,115.0093,27.0968,吉安市,青原区法院,颗粒物(PM10),174,297,230,69,57,34,,,,20,9,9,11,0.3,0.4
2025-04-13T0100,1772A,126.54,43.8622,吉林市,哈达湾,,32,6,36,3,19,102,,,,8,12,6,8,0.4,0.4
2025-04-13T0100,1773A,126.5844,43.8358,吉林市,东局子,,31,27,46,3,20,99,,,,9,13,6,7,0.5,0.5
2025-04-13T0100,1774A,126.5052,43.8245,吉林市,电力学院,,33,6,34,3,18,103,,,,8,14,4,6,0.5,0.5
2025-04-13T0100,1775A,126.6133,43.8972,吉林市,江北,,25,18,40,6,19,78,,,,13,14,6,6,0.6,0.6
2025-04-13T0100,1776A,126.555,43.8306,吉林市,江南公园,,33,9,38,3,21,103,,,,8,13,5,7,0.3,0.4
2025-04-13T0100,1778A,126.7061,43.7133,吉林市,丰满,,32,9,32,6,21,102,,,,7,8,5,6,0.8,0.7
2025-04-13T0100,2868A,126.4739,43.953,吉林市,九站,,31,17,39,8,21,99,,,,7,14,9,9,0.5,0.5
2025-04-13T0100,1300A,116.9376,36.665,济南市,农科所,,44,44,297,3,50,60,,,,18,9,5,5,0.3,0.3
2025-04-13T0100,1301A,117.1265,36.6734,济南市,开发区,,44,44,297,3,47,77,,,,9,10,6,5,0.4,0.4
2025-04-13T0100,1303A,117.0624,36.6868,济南市,省种子仓库,颗粒物(PM10),68,85,462,9,48,74,,,,2,2,10,10,0.5,0.5
2025-04-13T0100,1304A,116.9489,36.6447,济南市,机床二厂,颗粒物(PM10),57,63,450,3,36,64,,,,17,11,6,6,0.3,0.3
2025-04-13T0100,1305A,117.0495,36.663,济南市,市监测站,,46,46,352,3,44,67,,,,9,8,7,6,0.3,0.3
2025-04-13T0100,1306A,116.7675,36.5484,济南市,长清党校,颗粒物(PM10),55,59,326,7,45,72,,,,14,8,4,4,0.4,0.4
2025-04-13T0100,1616A,117.6795,36.229,济南市,技术学院,颗粒物(PM10),53,56,168,9,41,77,,,,9,10,8,9,0.4,0.5
2025-04-13T0100,3059A,117.7161,36.2049,济南市,泰兴公司,,41,41,123,9,32,80,,,,9,9,10,7,0.5,0.4
2025-04-13T0100,3064A,117.6867,36.2171,济南市,莱芜战役纪念馆,颗粒物(PM10),51,51,130,9,27,82,,,,11,12,5,4,0.4,0.4
2025-04-13T0100,3494A,117.1673,36.9782,济南市,济阳区政府,,44,44,305,3,40,74,,,,14,8,11,7,0.3,0.3
2025-04-13T0100,3495A,117.1171,36.63,济南市,锦屏中学,,37,37,308,15,50,72,,,,10,9,7,7,0.1,0.1
2025-04-13T0100,3682A,116.9814,36.6819,济南市,济南四建,,41,41,184,10,61,69,,,,10,8,3,3,0.2,0.2
2025-04-13T0100,1653A,116.6251,35.4302,济宁市,火炬城,颗粒物(PM10),55,60,321,12,62,55,,,,8,4,2,3,0.1,0.1
2025-04-13T0100,1655A,116.5491,35.4042,济宁市,电化厂,颗粒物(PM10),66,81,397,46,76,53,,,,25,14,2,2,0.1,0.1
2025-04-13T0100,3500A,116.5814,35.3707,济宁市,北湖一中,颗粒物(PM10),55,60,324,7,66,66,,,,14,10,3,3,0.0,0
2025-04-13T0100,3501A,116.8249,35.5593,济宁市,服务中心,颗粒物(PM10),57,64,293,10,40,55,,,,23,11,2,2,0.5,0.4
2025-04-13T0100,3678A,116.5907,35.4054,济宁市,市第七中学,颗粒物(PM10),64,77,183,3,104,60,,,,15,8,3,3,0.2,0.2
2025-04-13T0100,2255A,130.2751,46.8028,佳木斯市,佳纺,,45,45,88,22,47,128,,,,2,13,6,9,0.6,0.7
2025-04-13T0100,2256A,130.3995,46.8307,佳木斯市,发电厂,颗粒物(PM10),76,102,107,32,52,127,,,,10,17,4,7,0.6,0.7
2025-04-13T0100,2257A,130.3258,46.7975,佳木斯市,环保局,,42,40,71,20,42,133,,,,9,20,3,5,0.4,0.5
2025-04-13T0100,2258A,130.3648,46.8032,佳木斯市,十一中,,39,36,68,19,42,124,,,,8,16,6,8,0.4,0.6
2025-04-13T0100,2259A,130.3794,46.7588,佳木斯市,四丰,,41,41,64,11,35,116,,,,2,14,1,1,0.9,1
2025-04-13T0100,1252A,120.7436,30.778,嘉兴市,清河小学,颗粒物(PM10),145,239,192,40,40,78,,,,8,11,6,6,0.8,0.8
2025-04-13T0100,1253A,120.726,30.7478,嘉兴市,嘉兴学院,颗粒物(PM10),132,214,185,41,45,81,,,,20,13,8,7,0.7,0.6
2025-04-13T0100,2872A,120.7846,30.7525,嘉兴市,南湖区残联,颗粒物(PM10),170,290,213,71,56,86,,,,7,11,6,5,0.5,0.6
2025-04-13T0100,3407A,120.6916,30.7739,嘉兴市,秀洲住建,颗粒物(PM10),142,234,243,41,46,83,,,,9,10,6,6,0.4,0.6
2025-04-13T0100,1945A,98.2908,39.7711,嘉峪关市,气象局,,31,31,35,7,11,47,,,,36,19,5,4,0.5,0.5
2025-04-13T0100,2884A,98.2672,39.7978,嘉峪关市,酒钢宾馆,,31,31,40,9,12,54,,,,15,15,1,11,0.1,0.2
2025-04-13T0100,3248A,98.2643,39.7724,嘉峪关市,雄关区,,37,37,32,12,15,48,,,,28,23,4,6,0.4,0.5
2025-04-13T0100,1383A,113.1064,22.6058,江门市,北街,颗粒物(PM10),113,175,62,47,20,58,,,,14,9,2,2,0.3,0.4
2025-04-13T0100,1384A,113.0731,22.5835,江门市,西区,颗粒物(PM10),107,164,61,30,18,62,,,,19,18,7,7,0.3,0.4
2025-04-13T0100,1385A,113.0219,22.5311,江门市,圭峰西,颗粒物(PM10),86,122,62,30,17,55,,,,14,15,5,4,0.3,0.3
2025-04-13T0100,1386A,113.0828,22.5947,江门市,东湖,颗粒物(PM10),114,178,57,46,24,63,,,,15,12,6,6,0.3,0.4
2025-04-13T0100,3311A,113.1075,22.5647,江门市,江海富民,颗粒物(PM10),101,151,54,32,20,60,,,,16,13,7,6,0.4,0.4
2025-04-13T0100,3449A,113.05,22.4667,江门市,新会银湖,颗粒物(PM10),99,147,60,44,21,55,,,,14,11,3,3,0.3,0.3
2025-04-13T0100,3169A,113.2725,35.2067,焦作市,太极体育中心,颗粒物(PM10),111,172,480,35,69,84,,,,7,3,6,5,0.4,0.4
2025-04-13T0100,3336A,113.2465,35.2373,焦作市,焦作技师学院,颗粒物(PM10),106,162,481,19,55,76,,,,12,5,8,4,0.4,0.3
2025-04-13T0100,3477A,113.1656,35.2539,焦作市,中站许衡医院,颗粒物(PM10),111,172,377,29,55,71,,,,25,7,24,7,0.8,0.4
2025-04-13T0100,3981A,113.2449,35.1803,焦作市,原李万街道办,颗粒物(PM10),112,173,443,12,64,78,,,,11,9,6,5,0.4,0.5
2025-04-13T0100,4264A,113.2340,35.2190,焦作市,新安路1731号,颗粒物(PM10),113,176,439,29,66,80,,,,10,5,9,5,0.2,0.2
2025-04-13T0100,1708A,116.3701,23.5345,揭阳市,新兴,颗粒物(PM10),168,286,93,55,32,78,,,,13,16,5,5,0.4,0.6
2025-04-13T0100,1709A,116.3264,23.5443,揭阳市,西马,颗粒物(PM10),182,314,95,62,26,83,,,,5,8,7,7,0.3,0.5
2025-04-13T0100,1710A,116.3611,23.5626,揭阳市,东兴,颗粒物(PM10),162,274,102,51,28,73,,,,14,11,8,7,0.5,0.7
2025-04-13T0100,1711A,116.4151,23.5294,揭阳市,渔湖,颗粒物(PM10),158,265,89,65,20,74,,,,12,12,5,5,0.4,0.6
2025-04-13T0100,3320A,116.403,23.5699,揭阳市,曲溪,颗粒物(PM10),174,297,73,77,24,77,,,,18,14,2,2,0.3,0.6
2025-04-13T0100,1944A,102.1692,38.5167,金昌市,天庆家园,,38,38,338,20,107,53,,,,22,8,21,21,0.9,0.7
2025-04-13T0100,4022A,102.1647,38.5371,金昌市,金川区人防中心,,37,37,477,17,113,60,,,,11,8,14,14,0.5,0.5
2025-04-13T0100,4239A,102.1930,38.5319,金昌市,长春路96号,颗粒物(PM10),62,74,483,20,105,50,,,,21,6,24,21,0.7,0.6
2025-04-13T0100,1262A,119.647,29.077,金华市,十五中,颗粒物(PM10),278,404,163,90,45,59,,,,19,16,6,6,0.4,0.6
2025-04-13T0100,1263A,119.686,29.1029,金华市,监测站,颗粒物(PM10),260,392,130,102,51,59,,,,17,16,4,4,0.2,0.4
2025-04-13T0100,3659A,119.656,29.1131,金华市,气象局,颗粒物(PM10),260,392,164,80,45,48,,,,27,19,2,2,0.2,0.4
2025-04-13T0100,1767A,121.1115,41.0879,锦州市,南山,,25,25,62,7,19,75,,,,8,12,9,9,0.4,0.5
2025-04-13T0100,1768A,121.0604,40.8428,锦州市,开发区,,23,23,68,9,21,67,,,,10,20,7,6,0.5,0.5
2025-04-13T0100,1769A,121.1836,41.1119,锦州市,百股街道,,25,25,55,3,15,73,,,,9,12,9,6,0.4,0.4
2025-04-13T0100,1770A,121.1178,41.1222,锦州市,天安街道,,28,28,62,8,18,85,,,,8,12,27,11,0.4,0.5
2025-04-13T0100,1771A,121.1303,41.1386,锦州市,北湖公园,,23,,54,7,18,73,,,,12,13,8,8,0.5,0.5
2025-04-13T0100,2160A,112.85,35.5051,晋城市,自来水公司,颗粒物(PM10),106,162,331,19,45,81,,,,7,5,6,6,0.3,0.3
2025-04-13T0100,2161A,112.8318,35.4936,晋城市,白云商贸,颗粒物(PM10),99,147,375,24,122,77,,,,13,8,4,4,0.4,0.4
2025-04-13T0100,2162A,112.8508,35.4887,晋城市,市环保局,颗粒物(PM10),121,192,339,29,47,80,,,,6,3,2,2,0.3,0.3
2025-04-13T0100,2163A,112.8676,35.4897,晋城市,技术学院,颗粒物(PM10),124,197,372,24,65,77,,,,8,6,4,4,0.3,0.3
2025-04-13T0100,2165A,112.8453,35.546,晋城市,白马寺,颗粒物(PM10),91,131,280,23,70,83,,,,6,28,3,4,0.5,0.5
2025-04-13T0100,3620A,112.8271,35.4828,晋城市,泽州一中,颗粒物(PM10),110,169,427,39,65,74,,,,15,6,4,5,0.3,0.3
2025-04-13T0100,2173A,112.7249,37.7067,晋中市,南都小区,颗粒物(PM10),63,76,157,18,21,80,,,,10,7,4,3,0.2,0.2
2025-04-13T0100,2174A,112.6991,37.6982,晋中市,榆次区政府,颗粒物(PM10),62,73,161,8,18,86,,,,9,5,4,4,0,0
2025-04-13T0100,2865A,112.7195,37.6828,晋中市,榆次三中,颗粒物(PM10),70,90,189,22,18,85,,,,6,3,3,3,0.1,0.1
2025-04-13T0100,4200A,112.7478,37.6954,晋中市,迎宾街26号,颗粒物(PM10),67,83,166,12,27,81,,,,4,3,3,3,0.2,0.2
2025-04-13T0100,2439A,112.2014,31.0481,荆门市,竹园小学,颗粒物(PM10),162,273,556,64,93,76,,,,18,16,8,4,0.2,0.1
2025-04-13T0100,2440A,112.1969,30.9891,荆门市,掇刀,颗粒物(PM10),165,279,512,66,82,57,,,,18,9,10,7,0.2,0.2
2025-04-13T0100,2441A,112.2213,31.0386,荆门市,石化一小,颗粒物(PM10),158,266,479,71,93,71,,,,16,11,12,7,0.1,0.1
2025-04-13T0100,3012A,112.1849,31.0362,荆门市,西山林语,颗粒物(PM10),126,202,446,58,82,57,,,,13,5,6,5,0.1,0.1
2025-04-13T0100,3547A,112.1632,31.0138,荆门市,龙泉中学南校,颗粒物(PM10),151,252,598,61,116,51,,,,27,14,9,6,0.7,0.6
2025-04-13T0100,1844A,112.2494,30.3197,荆州市,市图书馆,颗粒物(PM10),132,214,392,63,98,59,,,,20,13,3,3,0.5,0.5
2025-04-13T0100,1845A,112.2008,30.3544,荆州市,市委党校,颗粒物(PM10),139,228,371,62,93,42,,,,35,15,5,4,0.4,0.4
2025-04-13T0100,3194A,112.2747,30.3122,荆州市,管委会,颗粒物(PM10),126,201,337,64,98,78,,,,19,15,4,4,0.4,0.4
2025-04-13T0100,4268A,112.1722,30.3366,荆州市,学苑路85号,颗粒物(PM10),120,189,356,50,94,33,,,,30,16,2,2,0.3,0.3
2025-04-13T0100,2343A,117.2117,29.2933,景德镇市,老干部活动中心,颗粒物(PM10),190,329,272,71,63,26,,,,13,10,6,6,0.3,0.3
2025-04-13T0100,2344A,117.1894,29.2789,景德镇市,兽医站,颗粒物(PM10),205,353,305,73,62,35,,,,10,14,4,4,0.4,0.5
2025-04-13T0100,2345A,117.1547,29.2617,景德镇市,台达陶瓷,颗粒物(PM10),230,371,291,62,54,15,,,,39,18,45,31,0.6,0.3
2025-04-13T0100,2346A,117.2461,29.2956,景德镇市,陶研所,颗粒物(PM10),170,290,250,83,76,29,,,,8,9,4,6,0.3,0.5
2025-04-13T0100,1803A,115.9872,29.6815,九江市,十里,颗粒物(PM10),93,135,306,31,67,57,,,,27,9,4,2,0.2,0.3
2025-04-13T0100,1804A,115.9584,29.7046,九江市,茅山头,颗粒物(PM10),102,153,342,31,64,65,,,,20,12,10,5,0.3,0.3
2025-04-13T0100,1805A,115.9877,29.7295,九江市,西园,颗粒物(PM10),97,144,266,38,65,75,,,,20,12,8,10,0.8,0.7
2025-04-13T0100,1808A,115.9114,29.6038,九江市,综合工业园,颗粒物(PM10),87,123,358,29,76,65,,,,20,22,5,6,0.4,0.5
2025-04-13T0100,1809A,116.0721,29.7535,九江市,石化总厂,颗粒物(PM10),97,144,280,52,65,62,,,,24,10,5,3,0.5,0.5
2025-04-13T0100,1810A,115.9773,29.5698,九江市,庐山气象台,颗粒物(PM10),109,167,309,27,61,99,,,,4,6,6,7,0.5,0.6
2025-04-13T0100,3190A,116.0254,29.6994,九江市,外国语学校,颗粒物(PM10),120,190,543,35,69,56,,,,28,14,9,6,0.8,0.8
2025-04-13T0100,4253A,116.0102,29.6594,九江市,莲花大道8号,颗粒物(PM10),93,136,348,31,56,72,,,,4,5,3,3,0.3,0.4
2025-04-13T0100,4240A,98.4958,39.7339,酒泉市,玉门东路5号,,49,,49,34,24,68,,,,8,15,7,9,0.2,0.3
2025-04-13T0100,4241A,98.5099,39.7506,酒泉市,北大街108号,,33,,50,23,19,67,,,,11,14,9,11,0.2,0.4
2025-04-13T0100,2698A,76.0072,39.4467,喀什地区,巡警大队,颗粒物(PM10),500,1001,594,247,141,7,,,,75,20,4,3,1.1,0.5
2025-04-13T0100,2699A,75.9755,39.4694,喀什地区,吾办,颗粒物(PM10),500,869,548,304,171,12,,,,63,20,5,3,1.0,0.5
2025-04-13T0100,4027A,75.9483,39.4689,喀什地区,老干局,颗粒物(PM10),500,942,554,246,146,6,,,,70,18,2,2,0.9,0.3
2025-04-13T0100,1824A,114.3389,34.7781,开封市,肿瘤医院,颗粒物(PM10),79,108,582,14,59,74,,,,13,7,6,6,0.4,0.4
2025-04-13T0100,1826A,114.2885,34.7965,开封市,世纪星幼儿园,颗粒物(PM10),80,109,634,42,75,82,,,,15,11,4,4,0.4,0.4
2025-04-13T0100,3147A,114.3438,34.8106,开封市,龙亭公园,颗粒物(PM10),83,115,613,28,94,78,,,,19,12,2,2,0.4,0.4
2025-04-13T0100,3210A,114.3644,34.7964,开封市,汴京公园,颗粒物(PM10),95,140,351,19,69,85,,,,12,9,2,2,0.7,0.8
2025-04-13T0100,3592A,114.4644,34.7556,开封市,祥符区生态环境局,颗粒物(PM10),84,117,280,19,87,68,,,,21,11,4,4,0.4,0.4
2025-04-13T0100,1951A,84.895,45.6094,克拉玛依市,长征新村,,27,,20,13,8,84,,,,4,6,7,7,0.2,0.2
2025-04-13T0100,1952A,84.8988,45.5893,克拉玛依市,南林小区,,30,10,21,3,8,96,,,,2,2,3,3,0.3,0.3
2025-04-13T0100,1954A,84.905,44.3396,克拉玛依市,独山子区,颗粒物(PM10),54,58,41,19,13,90,,,,14,12,8,8,0.3,0.2
2025-04-13T0100,1955A,85.6979,46.098,克拉玛依市,乌尔禾区商贸楼,,28,18,18,11,8,89,,,,9,8,7,7,0.4,0.3
2025-04-13T0100,3612A,85.1045,45.6899,克拉玛依市,白碱滩区新站,,31,10,11,6,4,97,,,,2,3,10,10,0.2,0.2
2025-04-13T0100,2697A,76.1454,39.7142,克孜勒苏柯尔克孜自治州,市人民政府,颗粒物(PM10),500,941,612,260,172,47,,,,30,8,8,10,0.3,0.2
2025-04-13T0100,3665A,76.1658,39.7157,克孜勒苏柯尔克孜自治州,克州文化中心,颗粒物(PM10),500,918,641,255,172,57,,,,30,6,9,8,0.5,0.3
2025-04-13T0100,1450A,102.8204,24.8886,昆明市,呈贡新区,颗粒物(PM10),72,93,59,30,19,80,,,,10,10,5,7,0.2,0.4
2025-04-13T0100,1452A,102.7252,25.0902,昆明市,龙泉镇,颗粒物(PM10),73,95,57,26,18,79,,,,8,10,7,7,0.3,0.4
2025-04-13T0100,1453A,102.7266,25.0375,昆明市,东风东路,颗粒物(PM10),78,106,63,33,24,89,,,,8,11,8,8,0.3,0.4
2025-04-13T0100,1454A,102.6742,25.0669,昆明市,金鼎山,颗粒物(PM10),71,91,54,34,24,88,,,,9,11,5,6,0.5,0.6
2025-04-13T0100,1455A,102.6644,25.0401,昆明市,碧鸡广场,颗粒物(PM10),74,97,55,26,23,91,,,,6,11,6,6,0.4,0.6
2025-04-13T0100,3179A,102.7494,25.0119,昆明市,官渡区博物馆,颗粒物(PM10),83,116,80,30,22,74,,,,16,17,6,7,0.3,0.4
2025-04-13T0100,3375A,102.8017,24.8336,昆明市,青年创业园,颗粒物(PM10),79,108,57,29,19,76,,,,11,12,9,9,0.4,0.4
2025-04-13T0100,3550A,102.7997,24.9786,昆明市,昆明学院,颗粒物(PM10),94,138,82,39,26,80,,,,15,13,5,5,0.2,0.3
2025-04-13T0100,3551A,102.5967,24.6736,昆明市,晋宁区生态环境分局,颗粒物(PM10),58,66,38,19,24,89,,,,6,9,4,7,0.5,0.6
2025-04-13T0100,3552A,102.6678,24.9856,昆明市,云天化总部,颗粒物(PM10),72,94,65,30,26,88,,,,9,14,6,9,0.4,0.6
2025-04-13T0100,1456A,91.1319,29.6514,拉萨市,八廓街,,45,33,16,7,8,142,,,,7,9,11,6,0.4,0.5
2025-04-13T0100,1457A,91.1221,29.6747,拉萨市,市环保局,,44,19,16,7,8,140,,,,11,14,3,4,0.2,0.3
2025-04-13T0100,1458A,91.0874,29.6475,拉萨市,区监测站,,45,17,13,8,7,142,,,,8,12,9,6,0.4,0.5
2025-04-13T0100,1459A,91.1774,29.6541,拉萨市,西藏大学,,44,15,13,6,6,140,,,,8,10,13,6,0.2,0.2
2025-04-13T0100,1460A,90.9798,29.6588,拉萨市,区辐射站,,45,23,16,10,7,141,,,,5,12,8,8,0.3,0.4
2025-04-13T0100,1461A,91.0834,29.6292,拉萨市,拉萨火车站,,45,11,10,7,6,143,,,,4,7,5,3,0.1,0.2
2025-04-13T0100,2520A,109.2203,23.7256,来宾市,来宾技工学校,颗粒物(PM10),82,113,83,20,23,75,,,,7,7,5,6,0.6,0.7
2025-04-13T0100,3535A,109.1781,23.7297,来宾市,兴宾区政府,颗粒物(PM10),86,122,77,46,35,81,,,,5,5,5,5,0.4,0.6
2025-04-13T0100,4002A,109.2416,23.7461,来宾市,中南小学,颗粒物(PM10),85,120,83,29,26,74,,,,8,6,6,6,0.4,0.6
2025-04-13T0100,1479A,103.831,36.0464,兰州市,铁路设计院,颗粒物(PM10),145,239,871,67,218,8,,,,71,34,19,10,1.4,0.7
2025-04-13T0100,3241A,103.7439,36.0842,兰州市,百合公园,颗粒物(PM10),98,145,862,54,212,8,,,,62,21,8,6,0.6,0.4
2025-04-13T0100,3242A,103.9611,35.998,兰州市,和平,颗粒物(PM10),89,127,1106,28,306,45,,,,33,13,10,13,0.4,0.6
2025-04-13T0100,4236A,103.6293,36.0938,兰州市,庄浪东路808号,颗粒物(PM10),101,151,1111,63,301,37,,,,41,28,7,9,0.3,0.4
2025-04-13T0100,4237A,103.7251,36.1043,兰州市,安宁西路88号,颗粒物(PM10),167,283,1054,77,221,35,,,,31,17,7,7,0.4,0.3
2025-04-13T0100,4238A,103.8470,36.0676,兰州市,北滨河东路1号,颗粒物(PM10),158,266,876,81,210,6,,,,66,25,9,12,0.8,0.5
2025-04-13T0100,3245A,103.6633,36.533,兰州新区,新区管委会,颗粒物(PM10),83,116,665,30,194,39,,,,31,11,11,20,0.6,0.4
2025-04-13T0100,3246A,103.6975,36.4789,兰州新区,舟曲中学,颗粒物(PM10),111,171,1098,48,258,30,,,,54,11,12,32,0.3,0.2
2025-04-13T0100,1067A,116.6708,39.5111,廊坊市,药材公司,,48,48,158,19,37,74,,,,4,3,1,1,0.2,0.4
2025-04-13T0100,1068A,116.7214,39.5589,廊坊市,开发区,,46,46,159,15,26,77,,,,3,3,1,1,0.2,0.2
2025-04-13T0100,1070A,116.7244,39.5269,廊坊市,北华航天学院,颗粒物(PM10),53,55,171,6,17,76,,,,6,5,3,3,0.2,0.2
2025-04-13T0100,2919A,116.7022,39.5453,廊坊市,河北工业大学,,49,49,159,19,30,76,,,,3,4,4,4,0.2,0.2
2025-04-13T0100,2535A,103.7723,29.5462,乐山市,花湖湾,颗粒物(PM10),191,332,241,109,86,18,,,,23,16,6,6,0.5,0.4
2025-04-13T0100,2536A,103.7627,29.5844,乐山市,牛耳桥,颗粒物(PM10),195,340,252,90,71,20,,,,26,18,8,7,0.5,0.4
2025-04-13T0100,2537A,103.7508,29.6006,乐山市,市第三水厂,颗粒物(PM10),220,364,249,89,62,26,,,,24,15,5,4,0.6,0.4
2025-04-13T0100,2538A,103.7571,29.5664,乐山市,市监测站,颗粒物(PM10),203,352,247,81,62,21,,,,25,18,7,6,0.6,0.4
2025-04-13T0100,3361A,103.7311,29.5628,乐山市,理工大学,颗粒物(PM10),190,329,241,88,71,10,,,,40,19,4,4,0.6,0.4
2025-04-13T0100,2599A,100.2497,26.8802,丽江市,丽江古城,,23,17,27,13,20,71,,,,8,13,8,8,0.7,0.7
2025-04-13T0100,2600A,100.2203,26.8906,丽江市,市中心,,22,,22,13,22,70,,,,5,13,5,7,0.4,0.5
2025-04-13T0100,1267A,119.914,28.4514,丽水市,监测站大楼,颗粒物(PM10),154,257,90,43,30,86,,,,6,12,2,2,0.0,0.5
2025-04-13T0100,1268A,119.93,28.4586,丽水市,莲都小学,颗粒物(PM10),160,269,87,66,30,84,,,,8,13,3,3,0.2,0.3
2025-04-13T0100,1269A,119.879,28.4231,丽水市,余庄前,颗粒物(PM10),118,185,84,48,30,30,,,,8,13,3,3,0.2,0.5
2025-04-13T0100,1173A,119.176,34.5885,连云港市,市环境监测站,颗粒物(PM10),62,73,143,12,32,67,,,,16,13,13,10,0.6,0.5
2025-04-13T0100,3000A,119.3581,34.6972,连云港市,德源药业,颗粒物(PM10),67,83,160,17,35,66,,,,16,20,14,9,0.3,0.4
2025-04-13T0100,3007A,119.178,34.844,连云港市,新城一中,颗粒物(PM10),69,88,118,18,26,61,,,,20,12,10,7,0.6,0.6
2025-04-13T0100,3008A,119.3608,34.7519,连云港市,胡沟管理处,,41,41,107,12,33,59,,,,24,14,16,9,0.4,0.4
2025-04-13T0100,3009A,119.1478,34.5911,连云港市,矿山设计院,颗粒物(PM10),62,73,139,17,32,60,,,,24,22,9,8,0.5,0.4
2025-04-13T0100,3434A,119.2413,34.6539,连云港市,工贸学校,颗粒物(PM10),53,56,143,17,24,65,,,,22,14,12,8,0.5,0.5
2025-04-13T0100,3664A,119.4172,34.7341,连云港市,连云街道,颗粒物(PM10),61,72,109,15,20,74,,,,16,16,12,7,0.4,0.5
2025-04-13T0100,2571A,102.3431,27.8099,凉山彝族自治州,青龙寺,,19,19,28,3,7,54,,,,4,4,6,6,0.3,0.4
2025-04-13T0100,2572A,102.2721,27.8415,凉山彝族自治州,邛海宾馆,,28,28,28,11,13,71,,,,12,8,8,7,0.3,0.4
2025-04-13T0100,2573A,102.2625,27.898,凉山彝族自治州,西昌市政府,,32,32,32,13,14,63,,,,8,5,7,7,0.2,0.3
2025-04-13T0100,2574A,102.2685,27.8851,凉山彝族自治州,凉山州政府,,31,31,28,13,12,76,,,,8,7,6,5,0.8,0.7
2025-04-13T0100,4229A,102.2342,27.8859,凉山彝族自治州,凯乐南路30号,,38,38,41,14,15,69,,,,11,10,8,8,0.6,0.6
2025-04-13T0100,2212A,123.2,41.1953,辽阳市,宏伟区,,38,38,21,12,11,50,,,,17,11,11,9,0.9,0.7
2025-04-13T0100,2213A,123.1683,41.2495,辽阳市,新华园,,21,21,20,13,8,58,,,,11,10,18,9,0.9,0.7
2025-04-13T0100,2214A,123.2354,41.2639,辽阳市,滨河路,,20,,18,13,15,63,,,,10,11,9,7,0.7,0.6
2025-04-13T0100,2215A,123.149,41.2991,辽阳市,铁西工业园,,27,27,28,17,22,60,,,,9,12,10,9,0.5,0.6
2025-04-13T0100,2227A,125.1358,42.8845,辽源市,环保局,,30,22,28,3,8,93,,,,10,12,4,6,0.4,0.4
2025-04-13T0100,3239A,125.0764,42.9078,辽源市,银鹰制药,,29,6,17,3,9,91,,,,12,13,6,8,0.4,0.5
2025-04-13T0100,1625A,115.9848,36.4372,聊城市,区政府,颗粒物(PM10),53,56,149,20,49,79,,,,21,19,8,8,0.2,0.2
2025-04-13T0100,2878A,116.0072,36.4343,聊城市,聊大东校,颗粒物(PM10),59,68,371,12,72,74,,,,13,12,6,6,0.5,0.5
2025-04-13T0100,3200A,115.9819,36.4978,聊城市,监控中心,颗粒物(PM10),54,57,163,12,66,69,,,,16,10,5,4,0.3,0.2
2025-04-13T0100,3513A,116.0445,36.4361,聊城市,九州社区,颗粒物(PM10),54,58,370,6,32,78,,,,9,4,6,4,0.4,0.3
2025-04-13T0100,4018A,116.0567,36.4608,聊城市,星美广场,,49,49,269,3,28,76,,,,10,8,6,6,0.4,0.4
2025-04-13T0100,2632A,94.3681,29.6376,林芝市,林芝监测站,,33,,9,6,4,105,,,,3,5,5,5,0.3,0.3
2025-04-13T0100,2633A,94.3616,29.6616,林芝市,林芝人民医院,,30,12,12,6,5,96,,,,2,2,5,5,0.3,0.3
2025-04-13T0100,2603A,100.0781,23.8982,临沧市,市环保局,细颗粒物(PM2.5),53,40,41,37,28,35,,,,19,16,6,6,0.7,0.7
2025-04-13T0100,2604A,100.0894,23.8822,临沧市,市气象局,,36,31,37,25,33,38,,,,17,17,6,7,0.7,0.8
2025-04-13T0100,1733A,111.5531,36.0783,临汾市,临钢医院,颗粒物(PM10),115,180,282,19,31,51,,,,18,4,5,3,0.5,0.4
2025-04-13T0100,1734A,111.5028,36.0714,临汾市,技工学校,颗粒物(PM10),117,183,256,29,35,47,,,,19,4,4,3,0.4,0.2
2025-04-13T0100,1736A,111.5018,36.0855,临汾市,市委,颗粒物(PM10),115,180,278,23,36,49,,,,19,4,4,2,0.4,0.3
2025-04-13T0100,3018A,111.505,36.1014,临汾市,唐尧大酒店,颗粒物(PM10),115,180,249,31,32,48,,,,21,4,7,4,0.4,0.3
2025-04-13T0100,4244A,111.4879,36.0530,临汾市,启星学校,颗粒物(PM10),110,170,256,26,31,36,,,,25,4,6,2,0.4,0.3
2025-04-13T0100,4271A,103.2464,35.6123,临夏回族自治州,滨河东路1号,颗粒物(PM10),100,150,279,51,57,21,,,,27,12,4,3,0.5,0.4
2025-04-13T0100,4310A,103.2093,35.5995,临夏回族自治州,新华街21号,颗粒物(PM10),74,98,228,40,59,37,,,,25,14,8,8,0.5,0.3
2025-04-13T0100,1618A,118.3429,35.0532,临沂市,沂河小区,颗粒物(PM10),68,85,198,16,20,72,,,,11,9,9,7,0.4,0.5
2025-04-13T0100,1619A,118.295,35.0583,临沂市,鲁南制药厂,颗粒物(PM10),71,92,220,34,28,78,,,,17,16,10,8,0.3,0.3
2025-04-13T0100,1620A,118.2794,34.9976,临沂市,新光毛纺厂,颗粒物(PM10),63,75,193,13,24,71,,,,19,19,6,5,0.2,0.2
2025-04-13T0100,1621A,118.3956,35.0888,临沂市,河东保险公司,颗粒物(PM10),57,63,173,6,30,79,,,,12,13,2,1,0.3,0.3
2025-04-13T0100,3370A,118.3564,35.0215,临沂市,十里堡居委,颗粒物(PM10),70,90,214,44,34,74,,,,19,18,3,2,0.5,0.6
2025-04-13T0100,3496A,118.3604,35.1084,临沂市,南坊新区,颗粒物(PM10),71,92,217,17,34,87,,,,10,11,5,5,0.5,0.6
2025-04-13T0100,3860A,118.3920,35.0300,临沂市,皇山花园小区,颗粒物(PM10),80,110,219,12,28,80,,,,8,8,7,6,0.3,0.4
2025-04-13T0100,1870A,109.4856,24.3895,柳州市,柳东小学,颗粒物(PM10),83,116,69,26,26,64,,,,14,15,8,9,0.5,0.7
2025-04-13T0100,1871A,109.4157,24.3277,柳州市,环保监测站,颗粒物(PM10),100,149,82,40,28,68,,,,12,10,11,10,0.5,0.7
2025-04-13T0100,1872A,109.389,24.341,柳州市,河西水厂,颗粒物(PM10),100,150,75,31,34,59,,,,21,14,9,9,0.8,0.9
2025-04-13T0100,1873A,109.4311,24.2921,柳州市,市四中,颗粒物(PM10),85,119,76,27,27,61,,,,10,10,9,8,0.4,0.5
2025-04-13T0100,1874A,109.4006,24.3631,柳州市,市九中,颗粒物(PM10),98,146,86,34,26,65,,,,12,10,7,8,0.5,0.6
2025-04-13T0100,1875A,109.4958,24.3134,柳州市,古亭山,颗粒物(PM10),101,152,88,35,29,55,,,,9,8,7,7,0.6,0.7
2025-04-13T0100,3402A,109.5422,24.3996,柳州市,市二中,颗粒物(PM10),125,200,98,25,27,57,,,,14,12,10,11,0.3,0.5
2025-04-13T0100,2307A,116.5079,31.737,六安市,监测大楼,颗粒物(PM10),63,76,298,22,75,92,,,,2,4,4,4,0.2,0.3
2025-04-13T0100,2308A,116.4738,31.7643,六安市,皖西学院,颗粒物(PM10),74,97,372,24,62,79,,,,8,10,4,3,0.4,0.4
2025-04-13T0100,2309A,116.4996,31.7905,六安市,朝阳厂,颗粒物(PM10),63,75,283,28,55,89,,,,12,10,3,3,0.3,0.3
2025-04-13T0100,2310A,116.5567,31.7886,六安市,开发区,颗粒物(PM10),80,109,373,30,63,93,,,,8,7,3,3,0.3,0.4
2025-04-13T0100,2577A,104.83,26.5917,六盘水市,黄土坡,颗粒物(PM10),199,347,250,78,59,62,,,,13,9,9,8,0.0,0.1
2025-04-13T0100,2578A,104.89,26.5939,六盘水市,水钢,颗粒物(PM10),253,387,281,92,61,42,,,,40,18,46,18,2.1,0.7
2025-04-13T0100,2579A,104.8475,26.5894,六盘水市,民中,颗粒物(PM10),184,318,218,83,54,70,,,,10,8,9,8,0.3,0.3
2025-04-13T0100,2580A,104.9544,26.5506,六盘水市,双水,颗粒物(PM10),318,434,284,104,63,20,,,,58,16,40,11,1.3,0.2
2025-04-13T0100,2336A,117.0217,25.1033,龙岩市,龙岩市监测站,颗粒物(PM10),233,373,119,71,30,87,,,,8,10,9,5,0.2,0.4
2025-04-13T0100,2337A,117.0258,25.0661,龙岩市,闽西职业技术学院,颗粒物(PM10),222,365,114,64,29,91,,,,8,9,5,4,0.3,0.4
2025-04-13T0100,2338A,117.0196,25.0306,龙岩市,龙岩学院,颗粒物(PM10),183,315,107,77,33,77,,,,5,7,1,2,0.2,0.4
2025-04-13T0100,2885A,104.9339,33.3826,陇南市,滨江中学,颗粒物(PM10),492,592,693,155,132,43,,,,15,7,7,7,0.4,0.4
2025-04-13T0100,3247A,104.955,33.371,陇南市,市总工会,颗粒物(PM10),397,497,688,160,166,57,,,,5,7,8,8,0.2,0.2
2025-04-13T0100,2487A,111.9589,27.8901,娄底市,电视发射台,颗粒物(PM10),259,391,498,56,102,58,,,,3,3,6,7,0.5,0.4
2025-04-13T0100,2488A,111.9975,27.725,娄底市,市监测站,颗粒物(PM10),187,323,511,83,126,76,,,,16,7,12,8,0.6,0.6
2025-04-13T0100,2489A,112.0194,27.7314,娄底市,市委党校,颗粒物(PM10),212,358,419,90,88,62,,,,14,9,4,4,0.2,0.2
2025-04-13T0100,2490A,111.9561,27.7569,娄底市,涟钢,颗粒物(PM10),252,386,496,112,106,33,,,,15,11,3,5,0.0,0.2
2025-04-13T0100,2491A,111.9892,27.7044,娄底市,市政府,颗粒物(PM10),272,400,462,110,103,28,,,,13,7,2,3,0.4,0.3
2025-04-13T0100,1894A,105.4427,28.9063,泸州市,小市上码头,细颗粒物(PM2.5),132,166,114,100,65,21,,,,39,18,10,5,0.7,0.6
2025-04-13T0100,1895A,105.4241,28.8573,泸州市,兰田宪桥,细颗粒物(PM2.5),119,147,120,90,68,13,,,,27,12,6,6,0.6,0.5
2025-04-13T0100,4272A,105.3689,28.7783,泸州市,纳溪中医医院,颗粒物(PM10),186,321,241,59,48,22,,,,18,20,6,7,0.6,0.5
2025-04-13T0100,2183A,111.1406,37.5211,吕梁市,环保局,颗粒物(PM10),66,82,136,13,22,59,,,,22,5,4,4,0.4,0.4
2025-04-13T0100,2185A,111.1297,37.5136,吕梁市,自来水公司,颗粒物(PM10),68,86,188,17,31,50,,,,29,5,3,3,0.5,0.4
2025-04-13T0100,2867A,111.1283,37.51,吕梁市,马茂庄小学,颗粒物(PM10),86,121,209,26,52,10,,,,77,12,2,2,0.3,0.2
2025-04-13T0100,1812A,112.3931,34.6516,洛阳市,市委党校,颗粒物(PM10),111,172,453,43,120,72,,,,11,11,2,2,0.5,0.4
2025-04-13T0100,1815A,112.494,34.6886,洛阳市,河南林校,颗粒物(PM10),104,158,268,33,88,59,,,,16,6,3,2,0.5,0.5
2025-04-13T0100,1816A,112.3844,34.623,洛阳市,开发区管委会,颗粒物(PM10),99,147,533,55,126,64,,,,18,10,5,4,0.2,0.2
2025-04-13T0100,1817A,112.4267,34.6258,洛阳市,市委新办公区,颗粒物(PM10),82,113,518,25,89,67,,,,14,7,4,3,0.2,0.1
2025-04-13T0100,3340A,112.6005,34.6326,洛阳市,伊滨,颗粒物(PM10),78,105,452,20,109,74,,,,10,5,4,3,0.5,0.4
2025-04-13T0100,3341A,112.4951,34.6332,洛阳市,中移产业园,颗粒物(PM10),132,214,1014,35,108,66,,,,12,6,6,4,0.2,0.1
2025-04-13T0100,3593A,112.5736,34.8993,洛阳市,吉利监测站,颗粒物(PM10),86,122,450,22,50,34,,,,37,8,5,5,0.5,0.4
2025-04-13T0100,3635A,112.3677,34.662,洛阳市,河科大西苑校区,颗粒物(PM10),116,182,649,22,80,71,,,,12,11,5,5,0.4,0.3
2025-04-13T0100,3636A,112.4388,34.6781,洛阳市,英才小学,颗粒物(PM10),116,181,632,54,95,72,,,,12,8,5,4,0.3,0.3
2025-04-13T0100,4214A,112.4600,34.6949,洛阳市,春都路1号院,颗粒物(PM10),141,231,677,33,81,75,,,,12,8,5,4,0.4,0.4
2025-04-13T0100,2399A,114.051,33.5699,漯河市,三五一五工厂,颗粒物(PM10),84,117,749,17,88,74,,,,11,5,9,3,0.4,0.3
2025-04-13T0100,2400A,114.0055,33.5698,漯河市,漯河大学,颗粒物(PM10),77,103,546,27,99,69,,,,16,5,10,5,0.3,0.2
2025-04-13T0100,2401A,114.0138,33.5828,漯河市,市水利局,颗粒物(PM10),80,110,723,22,108,67,,,,16,9,7,3,0.3,0.3
2025-04-13T0100,2402A,114.0261,33.5698,漯河市,市广电局,颗粒物(PM10),84,117,677,16,59,72,,,,12,5,10,3,0.2,0.2
2025-04-13T0100,3478A,113.9749,33.5664,漯河市,市图书馆,颗粒物(PM10),66,82,523,18,85,78,,,,12,9,5,3,0.5,0.4
2025-04-13T0100,4250A,114.0892,33.5882,漯河市,韶山路11号,颗粒物(PM10),68,86,489,42,99,73,,,,18,9,7,3,0.4,0.3
2025-04-13T0100,1798A,118.5092,31.6837,马鞍山市,湖东路四小,颗粒物(PM10),75,100,352,34,72,84,,,,11,14,7,11,0.4,0.8
2025-04-13T0100,1799A,118.5024,31.6449,马鞍山市,开发区,颗粒物(PM10),71,92,366,40,70,62,,,,23,14,7,8,0.5,0.7
2025-04-13T0100,1802A,118.6245,31.7241,马鞍山市,濮塘,颗粒物(PM10),76,102,366,27,75,68,,,,22,6,21,8,1.1,0.5
2025-04-13T0100,3633A,118.4918,31.6809,马鞍山市,雨山,颗粒物(PM10),78,105,365,34,74,80,,,,13,16,7,12,0.5,1.3
2025-04-13T0100,1686A,111.0286,21.4688,茂名市,电白南海,颗粒物(PM10),125,200,54,58,28,63,,,,8,10,3,2,0.6,0.6
2025-04-13T0100,1687A,110.9294,21.6533,茂名市,茂石化七小,颗粒物(PM10),153,256,68,70,28,58,,,,10,11,6,5,0.7,0.8
2025-04-13T0100,1688A,110.9107,21.6687,茂名市,健康路,,,,55,,32,62,,,,8,9,10,6,0.7,0.7
2025-04-13T0100,1689A,110.8592,21.6828,茂名市,高岭,颗粒物(PM10),200,349,94,83,28,56,,,,9,10,14,9,0.5,0.6
2025-04-13T0100,3450A,111.01,21.5165,茂名市,电白水东,颗粒物(PM10),144,237,48,58,18,65,,,,13,14,4,2,0.6,0.7
2025-04-13T0100,2539A,104.0308,30.0478,眉山市,黑龙滩水库,颗粒物(PM10),154,257,228,49,41,18,,,,12,6,3,3,0.3,0.2
2025-04-13T0100,2540A,103.8416,30.0874,眉山市,气象局,颗粒物(PM10),278,404,292,83,77,15,,,,40,18,3,2,0.5,0.4
2025-04-13T0100,3137A,103.8578,30.0744,眉山市,市委党校,颗粒物(PM10),216,361,298,85,78,24,,,,31,16,6,5,0.6,0.5
2025-04-13T0100,3148A,103.8291,30.0564,眉山市,区人社局,细颗粒物(PM2.5),119,156,145,90,80,28,,,,32,18,7,6,0.6,0.5
2025-04-13T0100,1690A,116.1231,24.3284,梅州市,梅江月梅,颗粒物(PM10),173,296,118,62,32,84,,,,7,14,4,4,0.3,0.5
2025-04-13T0100,1691A,116.0797,24.2719,梅州市,梅县新城,颗粒物(PM10),168,285,124,62,31,88,,,,11,15,5,6,0.3,0.4
2025-04-13T0100,1692A,116.1248,24.2654,梅州市,环境监控中心,颗粒物(PM10),175,300,117,59,33,86,,,,10,18,6,7,0.3,0.5
2025-04-13T0100,3315A,116.1233,24.2991,梅州市,梅龙,颗粒物(PM10),174,298,128,72,33,80,,,,6,12,6,6,0.3,0.6
2025-04-13T0100,1878A,104.7778,31.4741,绵阳市,富乐山,颗粒物(PM10),248,383,346,114,86,49,,,,21,12,6,7,0.3,0.3
2025-04-13T0100,1880A,104.6697,31.4668,绵阳市,高新区自来水公司,颗粒物(PM10),198,346,254,105,78,48,,,,30,15,3,2,0.4,0.4
2025-04-13T0100,1881A,104.7287,31.5075,绵阳市,三水厂,颗粒物(PM10),330,444,363,117,82,30,,,,42,17,6,5,0.6,0.5
2025-04-13T0100,3491A,104.69,31.5322,绵阳市,西科大附属小学,颗粒物(PM10),379,483,319,112,72,30,,,,39,16,7,7,0.5,0.4
2025-04-13T0100,3492A,104.5648,31.5343,绵阳市,安州区旅游局,颗粒物(PM10),315,432,225,107,56,51,,,,21,13,18,9,0.3,0.2
2025-04-13T0100,4226A,104.7651,31.4531,绵阳市,绵阳市气象局,颗粒物(PM10),317,433,370,110,87,51,,,,24,13,5,3,0.3,0.2
2025-04-13T0100,1784A,129.61,44.561,牡丹江市,环保大楼,,41,18,65,8,32,129,,,,6,22,5,7,0.2,0.5
2025-04-13T0100,1785A,129.6115,44.5782,牡丹江市,文化广场,,41,,81,17,47,130,,,,4,23,10,12,0.4,0.7
2025-04-13T0100,1786A,129.5904,44.5963,牡丹江市,第一医院,,41,20,58,10,34,129,,,,4,17,5,9,0.2,0.4
2025-04-13T0100,1787A,129.6364,44.6075,牡丹江市,机车工厂,,40,25,91,8,49,127,,,,9,25,6,9,0.4,0.6
2025-04-13T0100,1788A,129.6386,44.5462,牡丹江市,第一中学,,40,26,51,8,27,126,,,,10,16,7,8,0.5,0.6
2025-04-13T0100,2531A,105.0703,29.61,内江市,市监测站,颗粒物(PM10),175,299,306,105,99,35,,,,22,15,8,8,0.5,0.4
2025-04-13T0100,2532A,105.0717,29.5947,内江市,东兴区政府,颗粒物(PM10),182,314,316,100,90,37,,,,21,18,3,3,0.4,0.3
2025-04-13T0100,2533A,105.0653,29.5817,内江市,内江二中,颗粒物(PM10),194,338,334,110,95,29,,,,27,20,6,6,0.4,0.3
2025-04-13T0100,2534A,105.0406,29.5822,内江市,内江日报社,颗粒物(PM10),256,389,374,116,99,40,,,,19,16,5,5,0.3,0.3
2025-04-13T0100,2628A,92.0657,31.4846,那曲市,那曲监测站,,26,17,23,11,14,81,,,,14,13,6,6,0.4,0.5
2025-04-13T0100,4243A,92.0515,31.4787,那曲市,那曲市委宣传部,,27,14,22,7,14,84,,,,11,9,6,6,0.5,0.4
2025-04-13T0100,1290A,115.8931,28.6843,南昌市,省外办,颗粒物(PM10),171,292,304,85,76,56,,,,24,17,6,5,0.4,0.4
2025-04-13T0100,1291A,115.8886,28.7003,南昌市,省林业公司,颗粒物(PM10),315,432,441,92,80,43,,,,19,9,8,6,0.3,0.3
2025-04-13T0100,1292A,115.8126,28.7442,南昌市,林科所,颗粒物(PM10),192,334,318,78,76,12,,,,74,22,7,7,0.3,0.3
2025-04-13T0100,1294A,115.8518,28.687,南昌市,建工学校,颗粒物(PM10),298,418,394,88,82,46,,,,22,9,3,2,0.4,0.5
2025-04-13T0100,1295A,115.8921,28.6424,南昌市,象湖,颗粒物(PM10),191,332,331,80,74,52,,,,28,8,8,6,0.3,0.4
2025-04-13T0100,1296A,115.7423,28.7996,南昌市,武术学校,颗粒物(PM10),115,180,322,39,46,17,,,,3,2,8,10,0.5,0.6
2025-04-13T0100,3046A,115.9084,28.6062,南昌市,机电学校,颗粒物(PM10),222,365,368,90,84,34,,,,38,15,4,2,0.4,0.4
2025-04-13T0100,3690A,115.9721,28.7031,南昌市,外国语学校,颗粒物(PM10),188,326,391,77,72,54,,,,34,19,3,3,0,0
2025-04-13T0100,4192A,115.9316,28.68677,南昌市,南京东路235号,颗粒物(PM10),290,413,416,85,74,55,,,,27,15,8,8,0.4,0.4
2025-04-13T0100,1905A,106.056,30.8064,南充市,西山风景区,颗粒物(PM10),168,286,688,118,197,73,,,,8,5,4,3,0.4,0.2
2025-04-13T0100,1906A,106.0789,30.8023,南充市,南充市委,颗粒物(PM10),372,477,862,129,195,75,,,,14,11,6,3,0.3,0.3
2025-04-13T0100,1907A,106.1031,30.8217,南充市,南充炼油厂,颗粒物(PM10),252,386,872,131,222,74,,,,11,10,6,4,0.3,0.3
2025-04-13T0100,4227A,106.1083,30.7884,南充市,梨树横街98号,颗粒物(PM10),392,493,847,80,135,72,,,,14,11,6,5,0.2,0.2
2025-04-13T0100,4304A,106.1172,30.843,南充市,清泉寺北路188号,颗粒物(PM10),226,368,850,111,180,74,,,,12,10,5,3,0.1,0.1
2025-04-13T0100,4305A,106.067,30.7616,南充市,同庆路1号,颗粒物(PM10),286,410,864,119,186,66,,,,12,11,6,4,0.2,0.2
2025-04-13T0100,1151A,118.8086,32.1065,南京市,迈皋桥,颗粒物(PM10),62,73,225,22,69,78,,,,5,15,4,5,0.1,0.3
2025-04-13T0100,1152A,118.7538,32.0551,南京市,草场门,颗粒物(PM10),84,117,360,22,64,77,,,,16,16,4,4,0.5,0.6
2025-04-13T0100,1153A,118.7794,32.0745,南京市,山西路,颗粒物(PM10),96,141,320,22,63,81,,,,14,17,5,4,0.1,0.3
2025-04-13T0100,1154A,118.7752,32.0023,南京市,中华门,颗粒物(PM10),78,105,231,19,61,64,,,,18,14,7,8,0.4,0.5
2025-04-13T0100,1155A,118.8109,32.0309,南京市,瑞金路,颗粒物(PM10),80,110,230,22,62,71,,,,4,8,7,6,0.2,0.3
2025-04-13T0100,1156A,118.7997,32.0754,南京市,玄武湖,颗粒物(PM10),81,112,304,17,58,69,,,,15,14,7,7,0.3,0.5
2025-04-13T0100,1157A,118.6414,32.0931,南京市,浦口,颗粒物(PM10),86,121,351,13,49,89,,,,18,16,6,6,0.3,0.4
2025-04-13T0100,1158A,118.7356,31.9996,南京市,奥体中心,颗粒物(PM10),81,111,230,27,61,70,,,,17,16,7,6,0.2,0.3
2025-04-13T0100,1159A,118.9125,32.1028,南京市,仙林大学城,颗粒物(PM10),87,124,366,19,64,68,,,,12,15,8,10,0.5,0.7
2025-04-13T0100,3422A,118.8436,31.9198,南京市,江宁彩虹桥,颗粒物(PM10),88,126,336,22,60,74,,,,4,7,5,4,0.6,0.6
2025-04-13T0100,3427A,118.8554,32.3578,南京市,六合雄州,颗粒物(PM10),80,109,242,58,59,72,,,,2,5,5,4,0.3,0.4
2025-04-13T0100,4249A,118.8708,31.3402,南京市,汶溪路181号,颗粒物(PM10),94,138,309,46,63,78,,,,12,13,3,2,0.6,0.6
2025-04-13T0100,4312A,119.019,31.6512,南京市,中山西路1号,颗粒物(PM10),71,92,291,36,69,73,,,,15,13,6,4,0.4,0.5
2025-04-13T0100,1401A,108.3103,22.7881,南宁市,二十一中,,28,28,54,10,25,75,,,,19,17,8,5,0.5,0.7
2025-04-13T0100,1402A,108.3141,22.8528,南宁市,北湖,颗粒物(PM10),53,55,50,15,28,69,,,,22,19,34,11,0.6,0.9
2025-04-13T0100,1403A,108.3206,22.8225,南宁市,市监测站,颗粒物(PM10),51,51,55,24,26,66,,,,20,18,30,8,0.3,0.4
2025-04-13T0100,1404A,108.3829,22.8037,南宁市,大自然花园,颗粒物(PM10),54,57,53,12,25,84,,,,15,13,5,5,0.3,0.5
2025-04-13T0100,1405A,108.4394,22.7904,南宁市,仙葫,颗粒物(PM10),66,81,62,17,27,70,,,,13,12,6,6,0.4,0.6
2025-04-13T0100,1406A,108.2397,22.8467,南宁市,区农职院,,37,37,51,12,24,67,,,,14,17,6,5,0.6,0.7
2025-04-13T0100,1407A,108.3275,22.735,南宁市,英华嘉园,颗粒物(PM10),56,61,56,14,25,78,,,,19,20,12,7,0.4,0.6
2025-04-13T0100,3401A,108.4834,22.7618,南宁市,红星社区,颗粒物(PM10),73,95,60,23,30,93,,,,10,11,9,9,0.5,0.8
2025-04-13T0100,4221A,108.2177,22.7774,南宁市,乐贤路16号,,48,48,63,22,30,67,,,,16,25,8,8,0.5,0.7
2025-04-13T0100,2332A,118.1681,26.6369,南平市,南平市监测站,颗粒物(PM10),103,155,58,35,24,44,,,,9,13,3,3,0.6,0.7
2025-04-13T0100,2333A,118.1825,26.6489,南平市,南平铝业有限公司,颗粒物(PM10),119,188,75,40,23,50,,,,14,17,3,3,0.6,0.7
2025-04-13T0100,2334A,118.1756,26.6272,南平市,南平七中,颗粒物(PM10),94,138,68,41,29,36,,,,8,9,4,4,0.6,0.7
2025-04-13T0100,1168A,120.9098,31.9663,南通市,狼山街道,颗粒物(PM10),117,184,169,29,33,82,,,,18,19,9,6,0.7,0.6
2025-04-13T0100,1169A,120.86,32.0005,南通市,虹桥,颗粒物(PM10),127,203,161,35,38,80,,,,16,16,6,6,0.4,0.4
2025-04-13T0100,1170A,120.87,32.02,南通市,城中,颗粒物(PM10),128,205,187,31,36,80,,,,16,16,5,5,0.3,0.5
2025-04-13T0100,1171A,120.94,31.93,南通市,星湖花园,颗粒物(PM10),116,182,170,33,35,64,,,,33,30,11,7,0.8,0.5
2025-04-13T0100,1172A,120.81,32.0417,南通市,紫琅学院,颗粒物(PM10),125,200,175,26,32,83,,,,15,17,4,4,0.5,0.6
2025-04-13T0100,3291A,121.067,32.062,南通市,通州监测站,颗粒物(PM10),133,215,156,36,33,78,,,,14,12,5,4,0.2,0.4
2025-04-13T0100,3432A,120.9348,31.9883,南通市,环境教育馆,颗粒物(PM10),114,178,171,57,35,90,,,,9,12,6,6,0.4,0.4
2025-04-13T0100,2404A,112.5224,33.0122,南阳市,瓦房庄,颗粒物(PM10),88,126,464,35,79,25,,,,49,15,5,3,0.5,0.4
2025-04-13T0100,2405A,112.5003,32.9735,南阳市,汉画馆,颗粒物(PM10),87,124,422,38,80,31,,,,49,19,7,4,0.3,0.3
2025-04-13T0100,2406A,112.5573,33.027,南阳市,气象站,颗粒物(PM10),94,138,540,56,91,39,,,,39,15,3,2,0.4,0.3
2025-04-13T0100,2407A,112.5481,32.9689,南阳市,理工学院,颗粒物(PM10),89,128,466,30,80,21,,,,63,20,6,2,0.4,0.3
2025-04-13T0100,4008A,112.5234,32.9922,南阳市,卧龙区政府,颗粒物(PM10),114,178,465,42,72,23,,,,55,16,4,2,0.5,0.4
2025-04-13T0100,1234A,121.8358,29.911,宁波市,区环保大楼,颗粒物(PM10),194,337,232,68,63,86,,,,7,12,7,7,0.4,0.6
2025-04-13T0100,1235A,121.56,29.82,宁波市,万里学院,颗粒物(PM10),173,296,222,48,52,90,,,,2,8,5,5,0.3,0.5
2025-04-13T0100,1236A,121.713,29.9572,宁波市,龙赛医院,颗粒物(PM10),195,340,237,52,37,89,,,,4,10,8,8,0.4,0.5
2025-04-13T0100,1239A,121.633,29.7733,宁波市,钱湖水厂,颗粒物(PM10),186,321,225,55,40,90,,,,6,10,7,8,0.4,0.6
2025-04-13T0100,1240A,121.5856,29.8635,宁波市,太古小学,颗粒物(PM10),172,293,222,38,45,96,,,,6,10,8,8,0.2,0.5
2025-04-13T0100,1241A,121.524,29.8674,宁波市,市环境监测中心,颗粒物(PM10),138,225,233,44,45,89,,,,7,15,8,8,0.3,0.5
2025-04-13T0100,2871A,121.6147,29.9017,宁波市,万里国际学校,颗粒物(PM10),158,265,202,43,47,87,,,,2,7,7,7,0.3,0.5
2025-04-13T0100,3710A,121.5594,29.8975,宁波市,白沙活动中心,颗粒物(PM10),150,249,202,56,57,91,,,,2,8,6,6,0.4,0.5
2025-04-13T0100,2341A,119.5388,26.6612,宁德市,宁德市监测站,颗粒物(PM10),108,165,40,24,30,94,,,,8,20,4,4,0.2,0.8
2025-04-13T0100,3209A,119.5231,26.6562,宁德市,宁德一中,颗粒物(PM10),93,136,45,16,38,88,,,,6,15,5,5,0.1,0.5
2025-04-13T0100,2618A,98.8601,25.8567,怒江傈僳族自治州,州监测站,细颗粒物(PM2.5),53,44,47,37,37,31,,,,7,10,7,8,0.4,0.5
2025-04-13T0100,2619A,98.8546,25.8417,怒江傈僳族自治州,泸水一中,细颗粒物(PM2.5),58,41,43,41,38,18,,,,15,17,6,7,0.5,0.6
2025-04-13T0100,1888A,101.6891,26.571,攀枝花市,弄弄坪,颗粒物(PM10),51,52,59,17,20,62,,,,14,17,6,7,0.5,0.6
2025-04-13T0100,1889A,101.5769,26.5928,攀枝花市,河门口,,43,43,42,14,21,54,,,,11,11,9,18,0.6,0.9
2025-04-13T0100,1890A,101.7169,26.585,攀枝花市,炳草岗,,21,20,55,14,25,67,,,,9,18,13,14,0.3,0.4
2025-04-13T0100,1891A,101.7369,26.5008,攀枝花市,仁和,颗粒物(PM10),63,75,58,24,24,63,,,,17,14,8,9,0.3,0.4
2025-04-13T0100,2835A,101.7227,26.567,攀枝花市,四十中小,,35,35,42,13,21,74,,,,6,12,4,7,0.5,0.6
2025-04-13T0100,1604A,122.0303,41.1489,盘锦市,开发区,,24,,32,7,21,74,,,,6,13,8,8,0.2,0.4
2025-04-13T0100,1605A,122.0485,41.0883,盘锦市,兴隆台,,27,27,40,3,17,69,,,,12,15,7,7,0.3,0.4
2025-04-13T0100,1606A,121.8297,41.1028,盘锦市,新生街道,,21,21,44,3,16,66,,,,16,19,14,15,0.2,0.3
2025-04-13T0100,1832A,113.3257,33.742,平顶山市,新华旅馆,颗粒物(PM10),78,106,584,24,56,29,,,,38,9,4,4,0.3,0.2
2025-04-13T0100,1833A,113.2919,33.737,平顶山市,规划设计院,颗粒物(PM10),57,64,501,28,101,54,,,,21,6,4,4,0.2,0.2
2025-04-13T0100,1834A,113.182,33.774,平顶山市,平顶山工学院,颗粒物(PM10),60,69,480,12,88,70,,,,13,4,6,6,0.4,0.3
2025-04-13T0100,3204A,113.3025,33.73,平顶山市,规划局,颗粒物(PM10),58,66,655,12,124,64,,,,14,5,3,4,0.6,0.3
2025-04-13T0100,3594A,112.8867,33.9116,平顶山市,石龙区,颗粒物(PM10),76,101,894,40,109,79,,,,14,7,5,5,0.3,0.3
2025-04-13T0100,2656A,106.6692,35.5461,平凉市,聚贤嘉苑,颗粒物(PM10),69,88,535,32,96,14,,,,55,14,8,7,0.7,0.6
2025-04-13T0100,2657A,106.7021,35.5307,平凉市,博物馆,颗粒物(PM10),76,101,517,30,92,21,,,,41,10,9,8,0.6,0.3
2025-04-13T0100,2347A,114.0997,27.5002,萍乡市,武功山,颗粒物(PM10),164,278,321,41,61,38,,,,5,6,9,12,0.6,0.7
2025-04-13T0100,2348A,113.8385,27.6434,萍乡市,中医院,颗粒物(PM10),365,472,447,104,95,36,,,,14,9,6,7,0.5,0.6
2025-04-13T0100,2349A,113.8493,27.6253,萍乡市,市政府车库,颗粒物(PM10),198,346,381,103,88,25,,,,18,11,4,4,0.4,0.5
2025-04-13T0100,2350A,113.8676,27.6435,萍乡市,市环保局,颗粒物(PM10),323,438,424,132,109,36,,,,10,11,3,3,0.5,0.6
2025-04-13T0100,2351A,113.866,27.6198,萍乡市,安源区政府,颗粒物(PM10),302,421,404,108,103,30,,,,13,11,6,9,0.3,0.3
2025-04-13T0100,2319A,119.0141,25.4325,莆田市,荔城区仓后路,颗粒物(PM10),84,118,45,27,16,88,,,,7,16,2,2,0.3,0.6
2025-04-13T0100,2320A,119.0015,25.4553,莆田市,莆田市监测站,颗粒物(PM10),90,129,42,33,18,91,,,,5,11,4,4,0.3,0.4
2025-04-13T0100,2321A,119.1119,25.4561,莆田市,涵江区六中,颗粒物(PM10),91,131,38,32,17,90,,,,9,17,3,3,0.3,0.5
2025-04-13T0100,2322A,119.1013,25.3215,莆田市,秀屿区政府,颗粒物(PM10),79,108,30,22,14,88,,,,7,11,3,5,0.4,0.5
2025-04-13T0100,2392A,115.0312,35.7636,濮阳市,环保局,颗粒物(PM10),72,94,357,11,44,70,,,,18,12,6,6,1.0,0.9
2025-04-13T0100,2394A,115.0574,35.7609,濮阳市,油田运输公司,颗粒物(PM10),80,110,353,14,49,77,,,,15,14,4,4,0.4,0.4
2025-04-13T0100,3021A,115,35.7668,濮阳市,濮水河管理处,颗粒物(PM10),71,91,383,16,54,58,,,,17,9,3,4,0.5,0.5
2025-04-13T0100,4216A,115.0924,35.7686,濮阳市,任丘路479号,颗粒物(PM10),97,143,395,17,55,80,,,,16,14,7,5,0.3,0.2
2025-04-13T0100,2601A,100.98,22.7633,普洱市,市环保局,,46,46,65,21,28,52,,,,12,17,3,3,0.7,0.7
2025-04-13T0100,2602A,100.9817,22.8322,普洱市,普洱第二中学,颗粒物(PM10),52,54,49,31,33,23,,,,35,28,7,7,0.5,0.6
2025-04-13T0100,2262A,131.0518,45.8751,七台河市,新一中,,42,24,65,7,33,134,,,,7,14,12,13,0.5,0.8
2025-04-13T0100,3345A,131.0577,45.7879,七台河市,中波台,,35,28,97,11,44,112,,,,19,24,8,9,0.5,0.6
2025-04-13T0100,3637A,131.0176,45.7761,七台河市,人民广场,,43,24,126,11,53,135,,,,10,20,8,10,0.7,0.9
2025-04-13T0100,3684A,130.8781,45.8222,七台河市,新建矿广场,,40,29,147,22,64,126,,,,12,28,7,10,0.6,0.7
2025-04-13T0100,1779A,123.9305,47.3636,齐齐哈尔市,安居小区,,23,13,12,3,5,73,,,,6,8,3,3,0.2,0.2
2025-04-13T0100,1780A,123.9488,47.3386,齐齐哈尔市,中心广场,,22,9,10,3,6,68,,,,3,8,5,5,0.3,0.3
2025-04-13T0100,1781A,123.9483,47.3227,齐齐哈尔市,农牧车辆厂,,23,14,13,3,7,71,,,,4,8,4,4,0.1,0.2
2025-04-13T0100,1783A,123.945,47.2988,齐齐哈尔市,市环境监测站,,22,,9,3,7,70,,,,4,7,2,2,0.3,0.3
2025-04-13T0100,3662A,123.6333,47.2075,齐齐哈尔市,富区青少年活动中心,,23,7,8,3,5,71,,,,4,5,2,2,0.3,0.3
2025-04-13T0100,2591A,107.9783,26.5747,黔东南苗族侗族自治州,市环境监测站,颗粒物(PM10),153,255,94,76,34,22,,,,25,10,3,3,0.4,0.3
2025-04-13T0100,2881A,107.8908,26.5311,黔东南苗族侗族自治州,凯里学院,颗粒物(PM10),189,327,141,72,34,35,,,,12,11,2,2,0.3,0.3
2025-04-13T0100,2593A,107.5228,26.2403,黔南布依族苗族自治州,小围寨,颗粒物(PM10),184,317,143,90,43,65,,,,6,6,4,4,0.4,0.4
2025-04-13T0100,3538A,107.5175,26.2978,黔南布依族苗族自治州,沙坝,颗粒物(PM10),223,366,167,83,42,65,,,,8,8,4,4,0.4,0.4
2025-04-13T0100,2589A,104.9022,25.0925,黔西南布依族苗族自治州,场坝街,颗粒物(PM10),138,226,106,77,43,77,,,,10,12,8,8,0.2,0.2
2025-04-13T0100,2590A,104.8811,25.0992,黔西南布依族苗族自治州,坪东大道,颗粒物(PM10),114,178,88,69,41,72,,,,12,14,4,5,0.3,0.2
2025-04-13T0100,2502A,108.6236,21.9667,钦州市,市环保站,颗粒物(PM10),100,149,79,39,23,77,,,,14,11,12,9,0.6,0.7
2025-04-13T0100,2503A,108.6549,21.9481,钦州市,沙埠小学,颗粒物(PM10),104,158,79,32,23,72,,,,14,9,6,6,0.9,0.9
2025-04-13T0100,2504A,108.5989,21.7431,钦州市,港区一小,颗粒物(PM10),102,153,91,36,24,69,,,,17,23,8,10,0.5,0.6
2025-04-13T0100,3404A,108.5959,21.9633,钦州市,北职校,颗粒物(PM10),99,148,71,34,23,76,,,,14,11,7,6,0.5,0.6
2025-04-13T0100,1043A,119.7493,40.0116,秦皇岛市,第一关,,33,33,136,9,29,81,,,,10,18,3,4,0.2,0.2
2025-04-13T0100,1044A,119.5897,39.9499,秦皇岛市,监测站,,39,39,113,10,22,83,,,,2,7,2,3,0.2,0.3
2025-04-13T0100,1046A,119.5251,39.9041,秦皇岛市,建设大厦,,32,32,128,16,25,81,,,,8,16,2,2,0.2,0.2
2025-04-13T0100,3132A,119.610547,39.943889,秦皇岛市,文明里,,40,40,140,15,22,81,,,,2,8,2,3,0.2,0.2
2025-04-13T0100,4198A,119.5090,39.8253,秦皇岛市,北戴河轮滑馆,,28,28,137,11,19,78,,,,2,6,5,5,0.2,0.2
2025-04-13T0100,1310A,120.4134,36.0658,青岛市,市南区东部子站,颗粒物(PM10),79,107,169,7,19,78,,,,6,9,7,7,0.5,0.4
2025-04-13T0100,1311A,120.3664,36.1032,青岛市,四方区子站,颗粒物(PM10),70,90,142,9,22,82,,,,8,9,6,6,0.3,0.4
2025-04-13T0100,1312A,120.2994,36.054,青岛市,市南区西部子站,颗粒物(PM10),70,90,154,7,18,76,,,,10,15,7,7,0.5,0.5
2025-04-13T0100,1313A,120.4581,36.0858,青岛市,崂山区子站,颗粒物(PM10),73,95,151,7,16,84,,,,4,7,8,7,0.4,0.4
2025-04-13T0100,1315A,120.3999,36.3083,青岛市,城阳区子站,颗粒物(PM10),73,95,138,12,17,78,,,,10,12,8,8,0.6,0.5
2025-04-13T0100,1966A,120.0405,35.8735,青岛市,黄岛区4号,颗粒物(PM10),57,63,174,3,18,81,,,,7,12,8,8,0.5,0.6
2025-04-13T0100,3362A,120.5014,36.4034,青岛市,即墨2号,颗粒物(PM10),85,120,176,11,16,72,,,,6,9,7,7,0.5,0.5
2025-04-13T0100,3642A,120.3503,36.0736,青岛市,市北区南部,颗粒物(PM10),70,90,124,3,18,75,,,,7,13,6,6,0.4,0.4
2025-04-13T0100,3643A,120.3948,36.1805,青岛市,李沧区北部,颗粒物(PM10),71,92,146,17,26,76,,,,5,11,7,8,0.5,0.5
2025-04-13T0100,4290A,120.1969,35.9546,青岛市,珠江路669号,颗粒物(PM10),64,78,190,10,26,83,,,,5,10,6,6,0.5,0.5
2025-04-13T0100,1702A,113.0426,23.691,清远市,环保大楼,颗粒物(PM10),136,222,84,65,29,71,,,,11,10,8,7,0.6,0.7
2025-04-13T0100,1703A,113.0208,23.7106,清远市,凤城街办,颗粒物(PM10),283,408,138,82,31,67,,,,12,19,6,6,0.4,0.5
2025-04-13T0100,3025A,113.0477,23.6344,清远市,技师学院,颗粒物(PM10),266,396,132,81,32,54,,,,16,19,8,6,0.5,0.3
2025-04-13T0100,3318A,112.9903,23.7403,清远市,清新太和,颗粒物(PM10),302,421,149,83,35,74,,,,7,16,9,7,0.4,0.5
2025-04-13T0100,3455A,113.076,23.7198,清远市,清城东城,颗粒物(PM10),308,426,144,87,36,62,,,,12,15,8,7,0.7,0.7
2025-04-13T0100,2661A,107.6325,35.7357,庆阳市,庆阳五中,颗粒物(PM10),87,124,315,36,73,71,,,,11,5,19,2,0.3,0.2
2025-04-13T0100,2662A,107.6364,35.7067,庆阳市,市环保局,颗粒物(PM10),82,113,301,36,71,78,,,,7,3,6,3,0.2,0.2
2025-04-13T0100,1916A,103.7897,25.5035,曲靖市,环境监测站,颗粒物(PM10),110,169,96,35,26,50,,,,12,15,12,9,0.3,0.3
2025-04-13T0100,1917A,103.8,25.5364,曲靖市,烟厂办公区,颗粒物(PM10),116,182,93,40,27,64,,,,8,12,6,8,0.4,0.5
2025-04-13T0100,3376A,103.7947,25.462,曲靖市,南苑二区,颗粒物(PM10),119,187,81,36,24,61,,,,12,14,8,7,0.5,0.6
2025-04-13T0100,3377A,103.7444,25.5261,曲靖市,曲靖师范学院,颗粒物(PM10),105,160,90,50,31,55,,,,12,14,5,17,0.3,0.4
2025-04-13T0100,1264A,118.8692,28.9398,衢州市,环保大楼,颗粒物(PM10),309,427,175,103,51,70,,,,11,10,2,3,0.3,0.5
2025-04-13T0100,1265A,118.8709,28.9666,衢州市,实验学校,颗粒物(PM10),295,416,167,106,50,66,,,,10,12,4,4,0.3,0.4
2025-04-13T0100,1266A,118.8621,28.9808,衢州市,衢州学院,颗粒物(PM10),340,452,171,109,50,57,,,,17,18,5,4,0.4,0.4
2025-04-13T0100,1611A,118.5819,24.9117,泉州市,涂山街,颗粒物(PM10),112,173,40,32,18,90,,,,8,17,3,3,0.4,0.5
2025-04-13T0100,1612A,118.5972,24.8978,泉州市,津头埔,颗粒物(PM10),100,150,38,33,18,89,,,,7,17,2,2,0.3,0.5
2025-04-13T0100,1613A,118.6663,24.9424,泉州市,万安,颗粒物(PM10),91,132,30,25,14,89,,,,8,12,2,2,0.4,0.5
2025-04-13T0100,3529A,118.6333,24.9264,泉州市,城华南路,颗粒物(PM10),66,81,23,26,14,90,,,,3,12,2,2,0.4,0.5
2025-04-13T0100,2626A,88.8876,29.2718,日喀则市,日喀则监测站,,36,10,15,3,8,114,,,,6,6,12,13,0.2,0.3
2025-04-13T0100,3726A,88.8781,29.2426,日喀则市,林业技术推广中心,,36,21,18,9,4,113,,,,3,3,6,6,0.3,0.3
2025-04-13T0100,1659A,119.471,35.4209,日照市,监测站,颗粒物(PM10),62,73,202,16,34,70,,,,16,18,4,5,0.5,0.6
2025-04-13T0100,1660A,119.523,35.4216,日照市,市政府广场,颗粒物(PM10),58,66,198,17,33,70,,,,14,14,4,4,0.6,0.7
2025-04-13T0100,1661A,119.5587,35.4044,日照市,港务局,颗粒物(PM10),62,73,229,17,35,70,,,,16,13,4,5,0.6,0.7
2025-04-13T0100,3507A,119.5328,35.4625,日照市,职业技术学院,颗粒物(PM10),68,85,225,9,33,71,,,,9,10,5,6,0.5,0.7
2025-04-13T0100,3604A,119.3266,35.1044,日照市,岚山环保分局,颗粒物(PM10),65,80,172,29,36,44,,,,38,17,10,6,1.2,0.8
2025-04-13T0100,1835A,111.1922,34.7752,三门峡市,市政府,颗粒物(PM10),114,178,556,43,111,58,,,,18,5,4,3,0.5,0.4
2025-04-13T0100,1836A,111.1587,34.7942,三门峡市,开发区,颗粒物(PM10),112,173,424,83,122,55,,,,21,7,5,4,0.5,0.4
2025-04-13T0100,3039A,111.1911,34.7829,三门峡市,三门峡市第一小学,颗粒物(PM10),142,234,619,33,105,65,,,,19,9,5,4,0.6,0.5
2025-04-13T0100,3598A,111.1,34.7167,三门峡市,富达温泉假日酒店,颗粒物(PM10),106,162,363,54,126,49,,,,17,7,3,2,0.6,0.5
2025-04-13T0100,2324A,117.6211,26.2625,三明市,三钢,颗粒物(PM10),159,268,137,76,48,86,,,,11,16,9,12,1.1,1.6
2025-04-13T0100,2325A,117.635,26.2714,三明市,三明二中,颗粒物(PM10),152,254,125,43,32,80,,,,9,14,2,5,0,0.4
2025-04-13T0100,2326A,117.6028,26.2378,三明市,三元区政府,颗粒物(PM10),186,322,131,64,34,39,,,,15,13,2,4,0.4,0.5
2025-04-13T0100,1876A,109.5078,18.2489,三亚市,河东子站,,36,36,26,20,16,47,,,,4,4,3,3,0.3,0.3
2025-04-13T0100,1877A,109.4964,18.2681,三亚市,河西子站,,30,30,25,20,17,48,,,,6,10,2,2,0.2,0.2
2025-04-13T0100,3540A,109.7348,18.3443,三亚市,君悦子站,,24,24,25,14,12,44,,,,7,7,4,4,0.2,0.2
2025-04-13T0100,2624A,91.7608,29.2313,山南市,山南监测站,,33,17,15,7,19,105,,,,8,7,4,4,0.4,0.3
2025-04-13T0100,2625A,91.7706,29.2436,山南市,山南人民医院,,39,13,20,7,14,124,,,,2,7,6,7,0.2,0.3
2025-04-13T0100,1674A,116.6794,23.3667,汕头市,金平子站,颗粒物(PM10),152,254,60,65,37,82,,,,11,12,6,5,0.4,0.6
2025-04-13T0100,1675A,116.7244,23.3633,汕头市,龙湖子站,颗粒物(PM10),170,289,65,48,19,83,,,,9,10,5,4,0.4,0.6
2025-04-13T0100,1676A,116.7258,23.2775,汕头市,濠江子站,颗粒物(PM10),162,274,71,60,22,81,,,,9,13,6,4,0.6,0.7
2025-04-13T0100,1677A,116.7519,23.4714,汕头市,澄海子站,颗粒物(PM10),172,293,71,43,21,80,,,,9,14,4,2,0.5,0.7
2025-04-13T0100,1678A,116.6092,23.2539,汕头市,潮阳子站,颗粒物(PM10),172,294,61,29,22,72,,,,9,9,6,6,0.4,0.5
2025-04-13T0100,3444A,116.454,23.2684,汕头市,潮南峡山,颗粒物(PM10),168,285,59,43,20,77,,,,4,8,4,6,0.5,0.8
2025-04-13T0100,3624A,116.4069,23.2533,汕头市,潮南子站,颗粒物(PM10),236,375,74,75,24,75,,,,9,6,4,4,0.5,0.6
2025-04-13T0100,1693A,115.3653,22.775,汕尾市,市环保局,颗粒物(PM10),164,278,56,76,19,92,,,,6,5,6,6,0.5,0.6
2025-04-13T0100,1694A,115.3706,22.7898,汕尾市,市政府,颗粒物(PM10),161,271,58,39,18,89,,,,8,7,4,4,0.5,0.6
2025-04-13T0100,1695A,115.3622,22.7925,汕尾市,新城中学,颗粒物(PM10),167,283,60,69,20,93,,,,4,6,8,8,0.5,0.6
2025-04-13T0100,2645A,109.9154,33.8715,商洛市,监测站,颗粒物(PM10),116,181,501,68,138,51,,,,21,9,29,6,0.4,0.3
2025-04-13T0100,3045A,109.9643,33.8471,商洛市,商州区中学,颗粒物(PM10),118,186,544,63,133,16,,,,55,10,5,2,0.3,0.6
2025-04-13T0100,2408A,115.6702,34.4285,商丘市,环境监测站,颗粒物(PM10),64,77,412,15,67,68,,,,21,12,1,2,0.2,0.2
2025-04-13T0100,2409A,115.6458,34.4045,商丘市,粮食局,颗粒物(PM10),67,83,411,23,76,55,,,,19,8,1,2,0.0,0
2025-04-13T0100,2410A,115.6293,34.3948,商丘市,睢阳区环保局,颗粒物(PM10),63,75,425,15,67,36,,,,34,10,2,2,0.2,0.2
2025-04-13T0100,3171A,115.6071,34.4465,商丘市,梁园区档案局,颗粒物(PM10),62,74,442,16,75,46,,,,35,14,2,2,0.0,0.1
2025-04-13T0100,1141A,121.4,31.238,上海市,普陀,颗粒物(PM10),147,243,148,46,36,82,,,,14,19,5,6,0.5,0.6
2025-04-13T0100,1142A,121.478,31.2036,上海市,十五厂,颗粒物(PM10),147,244,138,42,28,84,,,,12,17,7,7,0.5,0.6
2025-04-13T0100,1143A,121.467,31.3008,上海市,虹口,颗粒物(PM10),134,218,123,50,36,79,,,,10,12,10,10,0.3,0.5
2025-04-13T0100,1147A,121.425,31.2261,上海市,静安监测站,颗粒物(PM10),140,229,146,32,26,82,,,,15,20,8,8,0.5,0.7
2025-04-13T0100,1148A,121.703,31.1907,上海市,浦东川沙,颗粒物(PM10),152,254,129,50,32,79,,,,11,20,6,6,0.4,0.4
2025-04-13T0100,1149A,121.533,31.2284,上海市,浦东新区监测站,颗粒物(PM10),134,217,122,44,31,80,,,,1,7,6,6,0.4,0.2
2025-04-13T0100,1150A,121.577,31.2071,上海市,浦东张江,颗粒物(PM10),150,249,141,51,34,81,,,,9,15,5,5,0.4,0.7
2025-04-13T0100,3265A,121.4316,31.3322,上海市,宝山庙行,颗粒物(PM10),139,228,130,50,37,79,,,,14,15,9,8,0.4,0.4
2025-04-13T0100,3266A,121.8791,31.4662,上海市,崇明上实东滩,颗粒物(PM10),131,212,111,39,27,90,,,,13,15,4,2,0.4,0.4
2025-04-13T0100,3268A,121.3162,31.2838,上海市,嘉定南翔,颗粒物(PM10),131,212,140,38,34,80,,,,16,17,6,5,0.6,0.6
2025-04-13T0100,3269A,121.3359,30.7456,上海市,金山新城,颗粒物(PM10),155,259,172,49,44,86,,,,10,14,4,4,0.3,0.5
2025-04-13T0100,3270A,121.4996,31.0739,上海市,闵行浦江,颗粒物(PM10),142,233,149,49,40,78,,,,16,20,18,5,0.5,0.7
2025-04-13T0100,3271A,121.2886,31.1663,上海市,青浦徐泾,颗粒物(PM10),145,240,163,40,39,78,,,,14,20,5,5,0.4,0.5
2025-04-13T0100,3272A,121.2186,31.0378,上海市,松江图书馆,颗粒物(PM10),150,250,177,44,41,85,,,,15,23,7,7,0.5,0.6
2025-04-13T0100,3273A,121.3902,31.2059,上海市,长宁仙霞,颗粒物(PM10),130,209,138,42,35,86,,,,18,21,7,7,0.5,0.7
2025-04-13T0100,3274A,121.7965,31.0507,上海市,浦东惠南,颗粒物(PM10),145,239,127,51,32,89,,,,12,17,7,7,0.4,0.7
2025-04-13T0100,3544A,121.4891,30.925,上海市,奉贤南桥新城,颗粒物(PM10),155,259,166,54,46,86,,,,13,21,7,6,0.4,0.5
2025-04-13T0100,4183A,121.4174,31.16637,上海市,冠生园路458号,颗粒物(PM10),129,207,140,33,32,82,,,,18,18,6,7,0.5,0.5
2025-04-13T0100,4205A,121.5419,31.2683,上海市,宁武路151号,颗粒物(PM10),141,231,130,24,18,84,,,,8,16,9,9,0.3,0.5
2025-04-13T0100,2382A,117.9756,28.4436,上饶市,市监测站,颗粒物(PM10),222,365,173,82,47,56,,,,8,10,14,9,0.4,0.5
2025-04-13T0100,2383A,117.9519,28.4628,上饶市,凤凰光学,颗粒物(PM10),272,400,192,90,46,64,,,,9,10,8,7,0.8,0.8
2025-04-13T0100,3685A,117.897,28.4315,上饶市,双创科技城,颗粒物(PM10),212,358,176,87,51,46,,,,25,16,8,7,0.3,0.4
2025-04-13T0100,4211A,118.1904,28.4448,上饶市,裕丰大道,颗粒物(PM10),190,330,155,81,50,48,,,,10,10,3,4,0.3,0.5
