timepoint,stationcode,longitude,latitude,area,positionname,primarypollutant,aqi,pm10,pm10_24h,pm2_5,pm2_5_24h,o3,o3_24h,o3_8h,o3_8h_24h,no2,no2_24h,so2,so2_24h,co,co_24h
2024-09-24T1600,2566A,102.1879,31.914,阿坝藏族羌族自治州,州农科所,,21,18,27,6,11,65,,53,53,17,18,8,7,0.0,0
2024-09-24T1600,2568A,102.2502,31.8896,阿坝藏族羌族自治州,马师校,,21,19,18,3,8,65,,56,56,12,10,5,4,0.4,0.4
2024-09-24T1600,3994A,102.2165,31.9024,阿坝藏族羌族自治州,马尔康中学西区,,23,,16,16,20,73,,61,61,8,9,5,6,0.5,0.5
2024-09-24T1600,2695A,80.292,41.1694,阿克苏地区,电视台,颗粒物(PM10),75,100,74,21,29,124,,66,66,6,30,4,5,0.3,0.6
2024-09-24T1600,2696A,80.2613,41.1551,阿克苏地区,艺术中心,颗粒物(PM10),65,79,76,17,31,120,,66,66,3,31,3,4,0.3,0.9
2024-09-24T1600,2204A,105.6467,38.8363,阿拉善盟,西城区西花园,,42,28,41,17,21,132,,128,125,8,16,8,8,0.7,0.8
2024-09-24T1600,2205A,105.6985,38.8411,阿拉善盟,蒙二幼,,42,42,39,8,12,111,,112,109,7,12,6,6,0.5,0.6
2024-09-24T1600,2206A,105.724,38.8516,阿拉善盟,环保局新楼,,36,31,30,9,12,113,,126,114,6,8,8,9,0.4,0.4
2024-09-24T1600,2708A,88.1264,47.8517,阿勒泰地区,市站,,30,24,23,3,8,94,,73,73,11,15,8,7,0.4,0.4
2024-09-24T1600,2630A,80.1161,32.5,阿里地区,阿里监测站,,35,6,16,3,7,109,,75,75,3,21,7,7,0.3,0.4
2024-09-24T1600,3192A,80.0903,32.5028,阿里地区,阿里藏医院,,,,15,,4,107,,82,82,4,12,6,6,0.2,0.3
2024-09-24T1600,2642A,109.0318,32.6537,安康市,香溪洞,,42,25,43,16,19,132,,96,96,8,13,8,9,0.2,0.3
2024-09-24T1600,2643A,109.0281,32.6939,安康市,安康市监测站,,42,39,37,21,22,134,,113,113,6,12,8,12,0.4,0.5
2024-09-24T1600,2644A,109.0072,32.6975,安康市,汉滨区检察院,,43,28,33,17,18,137,,106,106,8,12,9,9,0.3,0.4
2024-09-24T1600,2291A,117.0809,30.5177,安庆市,环科院,臭氧1小时,60,36,36,17,19,168,,125,125,13,16,8,9,0.6,0.6
2024-09-24T1600,2292A,117.0331,30.5119,安庆市,马山宾馆,臭氧1小时,62,42,36,21,21,169,,138,138,11,16,10,11,0.5,0.3
2024-09-24T1600,2294A,116.9896,30.6145,安庆市,安庆大学,,49,34,34,17,20,154,,123,123,10,12,9,9,0.4,0.4
2024-09-24T1600,3173A,117.0598,30.5351,安庆市,市人大,臭氧1小时,54,38,35,19,19,163,,126,126,10,13,9,10,0.6,0.6
2024-09-24T1600,3123A,105.9408,26.2431,安顺市,凤凰山,,42,35,41,27,34,132,,125,125,5,10,5,11,0.5,0.5
2024-09-24T1600,3124A,105.9439,26.2564,安顺市,金钟山,,42,36,43,28,38,134,,122,122,5,7,7,10,0.6,0.6
2024-09-24T1600,3125A,105.8983,26.2481,安顺市,娄家坡,,46,39,47,32,43,136,,122,122,6,10,6,10,0.6,0.7
2024-09-24T1600,1819A,114.3551,36.1017,安阳市,红庙街,臭氧1小时,93,52,62,22,31,194,,161,161,6,21,7,9,0.4,0.7
2024-09-24T1600,1820A,114.361,36.0681,安阳市,银杏小区,臭氧1小时,89,61,64,19,26,191,,145,145,7,26,7,7,0.3,0.4
2024-09-24T1600,3141A,114.3922,36.0878,安阳市,信访局,臭氧1小时,90,51,64,20,37,192,,151,151,10,32,6,7,0.4,0.6
2024-09-24T1600,3669A,114.4705,36.0637,安阳市,左辅环卫站,臭氧1小时,79,66,85,18,45,183,,150,150,12,41,6,6,0.4,1
2024-09-24T1600,3703A,114.2917,36.0949,安阳市,安钢职工学校,臭氧1小时,89,60,69,28,40,191,,143,143,11,29,10,11,0.4,0.6
2024-09-24T1600,1748A,123.044,41.1196,鞍山市,深沟寺,,30,23,31,9,15,95,,95,95,7,14,4,6,0.4,0.6
2024-09-24T1600,1749A,123.011,41.0931,鞍山市,太阳城,,32,16,27,8,14,101,,98,98,10,14,7,8,0.4,0.6
2024-09-24T1600,1750A,123.0485,41.1442,鞍山市,太平,,31,20,31,8,14,98,,97,97,12,23,7,10,0.5,0.8
2024-09-24T1600,1751A,122.9642,41.0971,鞍山市,铁西三道街,,34,28,44,7,15,108,,96,96,14,30,7,8,0.6,0.8
2024-09-24T1600,1752A,122.9341,41.0833,鞍山市,铁西工业园区,,39,26,44,8,17,124,,104,104,13,30,8,8,0.5,0.8
2024-09-24T1600,1753A,123.022,41.0821,鞍山市,明达新区,,29,18,29,8,14,91,,88,88,8,16,5,7,0.4,0.6
2024-09-24T1600,2195A,107.4212,40.761,巴彦淖尔市,附二中,,46,46,81,22,31,110,,97,97,4,38,5,8,0.5,1
2024-09-24T1600,2196A,107.37,40.7372,巴彦淖尔市,市环保大楼,,42,42,65,13,21,112,,107,107,4,27,4,6,0.4,0.5
2024-09-24T1600,1956A,86.1472,41.7538,巴音郭楞蒙古自治州,孔雀公园,,44,44,51,14,13,111,,91,75,5,13,8,7,0.2,0.3
2024-09-24T1600,1957A,86.1972,41.7166,巴音郭楞蒙古自治州,棉纺厂,,41,41,51,12,20,118,,86,80,7,11,7,7,0.2,0.2
2024-09-24T1600,1958A,86.2357,41.7173,巴音郭楞蒙古自治州,经济开发区,,36,28,47,21,15,114,,90,90,6,6,7,7,0.3,0.3
2024-09-24T1600,2914A,106.7677,31.8794,巴中市,苏山坪,,44,30,32,18,22,138,,114,114,7,10,4,4,0.4,0.3
2024-09-24T1600,3182A,106.7656,31.8545,巴中市,丽阳花园,,45,26,42,20,29,144,,105,105,9,23,5,5,0.4,0.6
2024-09-24T1600,3183A,106.7418,31.8654,巴中市,圣泉水务公司,,45,26,34,20,23,144,,110,110,6,21,4,3,0.5,0.5
2024-09-24T1600,3616A,106.7616,31.8344,巴中市,市中心医院,,46,27,42,16,30,146,,102,102,8,24,5,5,0.4,0.5
2024-09-24T1600,2235A,122.7911,45.6077,白城市,洮北区环保局,,30,30,28,20,13,67,,74,74,21,12,6,6,0.2,0.1
2024-09-24T1600,2236A,122.8738,45.5725,白城市,市环保局,颗粒物(PM10),52,54,41,21,14,67,,74,73,22,14,5,6,0.4,0.3
2024-09-24T1600,2231A,126.4219,41.9171,白山市,喜丰,,30,24,37,3,11,94,,64,64,3,17,8,8,0.4,0.6
2024-09-24T1600,2232A,126.4077,41.9419,白山市,环保局,,30,30,37,12,13,77,,58,58,12,17,6,6,0.6,0.7
2024-09-24T1600,2647A,104.1724,36.5446,白银市,第三小学,颗粒物(PM10),71,92,67,22,24,116,,98,98,7,25,15,34,0.6,1
2024-09-24T1600,2648A,104.1465,36.5482,白银市,动力公司,颗粒物(PM10),71,92,57,24,25,112,,95,95,6,21,7,15,0.2,0.6
2024-09-24T1600,2512A,106.6103,23.9011,百色市,市监测站,,48,38,36,16,16,152,,99,99,9,17,10,7,0.4,0.5
2024-09-24T1600,2513A,106.6538,23.8859,百色市,市中心血站,臭氧1小时,55,56,52,21,23,164,,102,102,11,21,30,13,0.5,0.5
2024-09-24T1600,3406A,106.6085,23.8798,百色市,祈福高中,,44,38,49,20,23,138,,93,93,11,20,6,4,0.5,0.6
2024-09-24T1600,2270A,117.396,32.939,蚌埠市,工人疗养院,臭氧1小时,55,45,53,17,21,164,,126,126,6,21,6,7,0.4,0.4
2024-09-24T1600,2271A,117.3605,32.9427,蚌埠市,百货大楼,臭氧1小时,54,49,47,15,18,163,,130,130,9,21,8,9,0.3,0.4
2024-09-24T1600,2273A,117.4185,32.8911,蚌埠市,蚌埠学院,,50,46,43,21,23,158,,121,121,11,36,8,11,0.3,0.3
2024-09-24T1600,2274A,117.3533,32.9673,蚌埠市,淮上区政府,,49,44,45,24,24,154,,124,124,8,23,6,6,0.3,0.3
2024-09-24T1600,2275A,117.3145,32.8977,蚌埠市,高新区,臭氧1小时,55,36,42,14,21,164,,129,129,8,31,7,9,0.3,0.4
2024-09-24T1600,3715A,117.3092,32.9314,蚌埠市,蚌埠田家炳中学,臭氧1小时,63,39,55,18,21,170,,130,130,6,31,6,7,0.3,0.4
2024-09-24T1600,1585A,109.8756,40.6532,包头市,市环境监测站,,48,48,76,18,27,115,,90,90,10,62,4,15,0.4,0.9
2024-09-24T1600,1587A,109.9991,40.5842,包头市,包头八中,颗粒物(PM10),60,70,68,6,35,119,,92,92,12,44,3,21,0.4,0.8
2024-09-24T1600,1588A,109.8538,40.6821,包头市,青山宾馆,颗粒物(PM10),51,52,60,6,33,113,,95,95,9,61,4,11,0.4,1
2024-09-24T1600,1589A,109.8642,40.6288,包头市,惠龙物流,颗粒物(PM10),59,67,68,13,27,114,,93,93,13,53,6,23,0.5,0.9
2024-09-24T1600,1590A,110.0377,40.5546,包头市,东河鸿龙湾,颗粒物(PM10),51,51,55,13,26,118,,98,98,8,42,11,31,0.5,0.7
2024-09-24T1600,3283A,109.9154,40.5685,包头市,滨河大厦,,44,44,53,16,28,115,,96,96,11,48,11,20,0.7,0.8
2024-09-24T1600,3419A,109.9447,40.6261,包头市,包头市委党校,,45,45,60,3,24,116,,96,96,9,53,4,18,0.4,0.8
2024-09-24T1600,3683A,109.8331,40.6576,包头市,昆区政府,,,,58,5,33,108,,100,100,,52,4,19,0.2,0.9
2024-09-24T1600,1930A,107.185,34.3063,宝鸡市,庙沟村,臭氧1小时,93,71,62,40,38,194,,126,126,16,20,10,9,0.5,0.5
2024-09-24T1600,1931A,107.0708,34.3017,宝鸡市,竹园沟,臭氧1小时,102,75,62,46,43,204,,127,127,16,13,9,8,0.6,0.6
2024-09-24T1600,1932A,107.1906,34.3672,宝鸡市,三陆医院,臭氧1小时,88,75,85,40,55,190,,134,134,21,36,9,12,0.6,0.7
2024-09-24T1600,1933A,107.1431,34.3547,宝鸡市,监测站,臭氧1小时,80,82,73,36,48,184,,121,121,21,21,8,7,0.6,0.6
2024-09-24T1600,1934A,107.1186,34.3739,宝鸡市,技工学校,臭氧1小时,97,74,74,45,51,197,,124,124,23,23,10,9,0.7,0.7
2024-09-24T1600,1935A,107.3906,34.3528,宝鸡市,陈仓区环保局家属楼,臭氧1小时,79,59,79,29,52,183,,129,129,18,38,11,10,0.7,0.8
2024-09-24T1600,1936A,107.2058,34.3497,宝鸡市,文理学院,臭氧1小时,85,66,77,31,42,188,,124,124,15,23,10,10,0.6,0.6
2024-09-24T1600,1937A,107.2386,34.3622,宝鸡市,三迪小学,,,83,84,,51,184,,135,135,23,34,10,11,0.6,0.7
2024-09-24T1600,1051A,115.493,38.8632,保定市,游泳馆,臭氧1小时,101,59,65,31,37,202,,155,155,14,27,8,5,0.4,0.4
2024-09-24T1600,1052A,115.5213,38.8959,保定市,华电二区,臭氧1小时,95,59,58,40,36,196,,147,147,12,21,6,3,0.2,0.2
2024-09-24T1600,1053A,115.4713,38.9108,保定市,接待中心,臭氧1小时,90,59,59,40,42,192,,140,140,13,26,8,5,0.1,0.2
2024-09-24T1600,1054A,115.4612,38.8416,保定市,地表水厂,臭氧1小时,94,63,69,37,43,195,,147,147,13,32,6,4,0.0,0
2024-09-24T1600,3581A,115.31981,38.95208,保定市,满城区生态环境分局,臭氧1小时,105,85,73,51,36,209,,133,133,17,29,9,5,0.6,0.5
2024-09-24T1600,3582A,115.47694,38.76408,保定市,清苑区第二中学,臭氧1小时,99,63,72,41,42,199,,146,146,10,33,6,4,0.5,0.4
2024-09-24T1600,3583A,115.62909,39.02311,保定市,徐水物探局,臭氧1小时,101,60,63,39,37,201,,134,134,15,39,10,6,0.8,0.7
2024-09-24T1600,4004A,115.4202,38.8656,保定市,双鹰农机,臭氧1小时,102,61,70,37,37,204,,149,149,18,34,6,4,0.4,0.4
2024-09-24T1600,4034A,115.5150,38.8590,保定市,植保所站,臭氧1小时,106,58,65,39,41,211,,150,150,11,39,6,6,0.3,0.3
2024-09-24T1600,2594A,99.1678,25.1081,保山市,市环境监测站,,34,23,32,12,19,108,,91,91,7,10,5,7,0.3,0.5
2024-09-24T1600,2595A,99.1711,25.1328,保山市,市环保局,,35,29,33,13,13,111,,93,93,5,6,6,6,0.4,0.4
2024-09-24T1600,1867A,109.1436,21.4086,北海市,海滩公园,,24,23,26,15,14,74,,67,62,6,7,5,6,0.5,0.5
2024-09-24T1600,1868A,109.0981,21.4661,北海市,新市环保局,,28,23,25,19,18,86,,76,72,7,8,4,4,0.7,0.7
2024-09-24T1600,1869A,109.1778,21.5233,北海市,北海工业园,,32,28,26,22,20,75,,68,63,13,9,6,6,0.6,0.6
2024-09-24T1600,3400A,109.1911,21.4415,北海市,龙潭自来水厂,,26,24,23,18,20,74,,63,62,6,6,5,6,0.6,0.6
2024-09-24T1600,1001A,116.3621,39.8784,北京市,万寿西宫,臭氧1小时,79,59,60,31,32,183,,106,106,15,43,4,2,0.5,0.5
2024-09-24T1600,1002A,116.2202,40.2915,北京市,定陵,细颗粒物(PM2.5),63,66,40,45,28,140,,103,103,26,11,4,2,0.6,0.4
2024-09-24T1600,1003A,116.4174,39.9289,北京市,东四,臭氧1小时,79,59,60,29,29,183,,108,108,14,38,7,6,0.6,0.6
2024-09-24T1600,1004A,116.4072,39.8863,北京市,天坛,臭氧1小时,72,50,47,28,27,177,,104,104,15,32,3,3,0.4,0.5
2024-09-24T1600,1005A,116.462,39.9365,北京市,农展馆,臭氧1小时,60,61,60,29,29,168,,94,94,15,42,3,2,0.4,0.5
2024-09-24T1600,1006A,116.3392,39.9295,北京市,官园,臭氧1小时,65,65,60,30,28,172,,104,104,15,34,8,6,0.5,0.5
2024-09-24T1600,1007A,116.2878,39.9611,北京市,海淀万柳,"颗粒物(PM10),臭氧1小时",58,66,55,39,25,166,,95,95,17,34,6,3,0.5,0.4
2024-09-24T1600,1008A,116.6636,40.135,北京市,顺义新城,臭氧1小时,65,50,54,27,27,172,,109,109,15,38,3,3,0.4,0.4
2024-09-24T1600,1009A,116.6275,40.3275,北京市,怀柔镇,臭氧1小时,68,57,44,30,25,174,,117,117,24,19,3,3,0.6,0.5
2024-09-24T1600,1010A,116.2296,40.217,北京市,昌平镇,颗粒物(PM10),60,69,54,34,27,142,,95,95,24,17,6,4,0.6,0.5
2024-09-24T1600,1011A,116.3966,39.9821,北京市,奥体中心,颗粒物(PM10),53,56,55,28,26,160,,94,94,17,41,4,3,0.6,0.5
2024-09-24T1600,1012A,116.184,39.9136,北京市,古城,颗粒物(PM10),57,64,64,30,27,162,,96,96,19,37,5,3,0.9,0.5
2024-09-24T1600,3281A,115.9718,40.4529,北京市,延庆夏都,颗粒物(PM10),56,62,45,33,24,140,,116,116,17,13,1,2,0.5,0.4
2024-09-24T1600,3417A,117.0709,40.1465,北京市,平谷新城,臭氧1小时,93,65,47,37,27,194,,134,134,12,16,3,3,0.5,0.3
2024-09-24T1600,3418A,116.8336,40.4095,北京市,密云新城,臭氧1小时,72,64,46,32,21,177,,126,126,20,19,2,2,0.5,0.4
2024-09-24T1600,3671A,116.088,39.9726,北京市,门头沟三家店,臭氧1小时,57,61,51,30,24,165,,97,97,15,24,8,6,0.5,0.3
2024-09-24T1600,3672A,116.1541,39.8204,北京市,丰台云岗,颗粒物(PM10),59,68,58,36,28,156,,94,94,18,34,7,4,0.5,0.3
2024-09-24T1600,3673A,116.6804,39.9081,北京市,通州东关,臭氧1小时,92,61,81,33,38,193,,120,120,14,49,3,2,0.5,0.4
2024-09-24T1600,3674A,115.9577,39.7603,北京市,房山燕山,颗粒物(PM10),64,77,44,39,24,169,,110,110,19,14,3,2,0.5,0.4
2024-09-24T1600,3675A,116.4672,39.7733,北京市,大兴旧宫,臭氧1小时,79,44,50,22,26,183,,123,123,8,23,3,3,0.4,0.3
2024-09-24T1600,3694A,115.986,40.4563,北京市,延庆石河营,颗粒物(PM10),53,55,39,30,23,132,,108,108,16,10,3,3,0.5,0.3
2024-09-24T1600,3695A,116.6151,40.3053,北京市,怀柔新城,臭氧1小时,70,47,41,25,25,176,,114,114,17,15,2,3,0.5,0.4
2024-09-24T1600,3696A,116.2545,39.8768,北京市,丰台小屯,颗粒物(PM10),56,61,58,30,28,161,,96,96,16,43,3,3,0.6,0.6
2024-09-24T1600,3697A,116.84,40.3844,北京市,密云镇,臭氧1小时,79,56,44,36,26,183,,120,120,17,34,5,3,0.4,0.4
2024-09-24T1600,1761A,123.8275,41.3064,本溪市,大峪,,30,19,28,10,11,94,,76,76,6,19,10,9,0.4,0.5
2024-09-24T1600,1762A,123.7567,41.3325,本溪市,溪湖,,33,33,68,7,19,89,,85,85,11,27,8,8,0.7,0.9
2024-09-24T1600,1763A,123.7169,41.3094,本溪市,彩屯,,27,19,52,9,26,86,,74,74,14,34,11,11,0.8,1.4
2024-09-24T1600,1764A,123.7669,41.2864,本溪市,东明,,31,31,37,9,13,91,,85,85,13,32,6,6,0.6,0.7
2024-09-24T1600,1765A,123.7992,41.2664,本溪市,新立屯,,31,20,21,3,6,98,,95,95,11,30,6,5,0.6,0.6
2024-09-24T1600,1766A,123.8142,41.3472,本溪市,威宁,,36,36,39,6,14,93,,88,88,8,25,8,8,0.4,0.9
2024-09-24T1600,2587A,105.2864,27.3125,毕节市,八中,,37,22,37,13,28,116,,94,94,6,10,7,7,0.4,0.5
2024-09-24T1600,2588A,105.31,27.2944,毕节市,师专,,39,19,43,14,29,124,,93,93,7,14,8,8,0.5,0.5
2024-09-24T1600,3537A,105.3631,27.3533,毕节市,长征村,,,21,50,,39,122,,92,92,5,8,9,7,0.6,0.6
2024-09-24T1600,1629A,118.0018,37.3617,滨州市,第二水厂,臭氧1小时,104,66,61,27,30,208,,151,151,13,36,22,15,0.6,0.6
2024-09-24T1600,1630A,117.9776,37.393,滨州市,北中新校,臭氧1小时,98,56,57,27,28,198,,156,156,9,21,16,14,0.7,0.8
2024-09-24T1600,3514A,117.9378,37.3956,滨州市,中海酒店,臭氧1小时,84,44,47,22,26,187,,150,150,14,26,10,13,0.5,0.7
2024-09-24T1600,3516A,118.0917,37.694,滨州市,金海六路,臭氧1小时,93,51,57,22,32,194,,152,152,14,22,10,23,0.7,0.8
2024-09-24T1600,4028A,117.9956,37.3753,滨州市,滨州市西街道办事处,臭氧1小时,112,70,54,34,35,223,,162,162,12,32,22,15,0.7,0.9
2024-09-24T1600,2311A,115.8072,33.8399,亳州市,污水处理厂,,45,28,52,9,31,144,,130,130,14,23,6,13,0.2,0.3
2024-09-24T1600,2312A,115.7789,33.8518,亳州市,三国揽胜宫,,44,25,46,15,37,140,,125,125,13,16,4,8,0.3,0.4
2024-09-24T1600,3332A,115.7633,33.8034,亳州市,亳州学院,,45,27,46,16,32,144,,135,135,10,16,3,6,0.3,0.4
2024-09-24T1600,2693A,82.0485,44.8556,博尔塔拉蒙古自治州,市党校,,45,45,46,21,17,121,,80,80,5,9,5,6,0.4,0.4
2024-09-24T1600,2694A,82.0806,44.8969,博尔塔拉蒙古自治州,市环保局,,36,33,58,17,19,113,,70,70,7,17,5,5,0.3,0.4
2024-09-24T1600,1071A,116.8842,38.2991,沧州市,沧县城建局,臭氧1小时,72,46,53,20,32,177,,140,140,14,37,5,8,0.4,0.5
2024-09-24T1600,1072A,116.8584,38.3254,沧州市,电视转播站,臭氧1小时,94,45,47,17,30,195,,152,152,14,40,3,8,0.3,0.4
2024-09-24T1600,1073A,116.8709,38.3228,沧州市,市环保局,臭氧1小时,82,42,49,24,31,185,,147,147,12,32,5,9,0.3,0.4
2024-09-24T1600,3324A,116.8136,38.3004,沧州市,河北水利电力学院,臭氧1小时,93,46,50,23,31,194,,150,150,13,37,5,9,0.4,0.5
2024-09-24T1600,2622A,97.1806,31.1273,昌都市,昌都监测站,,27,14,8,3,3,84,,73,73,6,7,7,7,0.5,0.5
2024-09-24T1600,3719A,97.1714,31.1406,昌都市,昌都会议中心,,,,6,1,4,96,,78,78,1,3,8,8,0.3,0.4
2024-09-24T1600,2690A,88.1236,43.8886,昌吉回族自治州,天山天池,,34,11,13,3,8,108,,86,86,5,4,26,22,0.5,0.4
2024-09-24T1600,2692A,87.2717,44.0297,昌吉回族自治州,新区政务中心,,40,25,43,16,23,125,,78,78,8,30,8,8,0.5,0.7
2024-09-24T1600,3613A,87.3095,44.0142,昌吉回族自治州,亚心广场,,40,29,54,9,15,127,,72,72,11,36,7,6,0.5,0.8
2024-09-24T1600,1119A,125.3325,43.9166,长春市,食品厂,,31,22,40,9,16,97,,90,90,16,35,4,6,0.2,0.4
2024-09-24T1600,1120A,125.2863,43.9027,长春市,客车厂,,32,16,33,9,14,101,,94,94,8,29,6,7,0.3,0.4
2024-09-24T1600,1121A,125.2841,43.8463,长春市,邮电学院,,,,31,12,11,93,,91,91,,26,8,7,0.3,0.4
2024-09-24T1600,1122A,125.3716,43.8772,长春市,劳动公园,,33,12,48,6,15,105,,95,95,10,34,9,9,0.1,0.4
2024-09-24T1600,1123A,125.3297,43.8805,长春市,园林处,,32,17,29,10,13,102,,98,98,10,24,6,6,0.3,0.4
2024-09-24T1600,1124A,125.4605,43.79,长春市,净月潭,,30,11,17,6,8,96,,91,91,7,10,6,6,0.3,0.3
2024-09-24T1600,1126A,125.3863,43.8447,长春市,经开区环卫处,,30,17,38,6,12,93,,84,84,12,32,8,9,0.3,0.5
2024-09-24T1600,1127A,125.245,43.7783,长春市,高新区管委会,,32,8,28,3,11,100,,98,98,6,24,5,5,0.4,0.4
2024-09-24T1600,1128A,125.1761,43.8325,长春市,岱山公园,,30,15,37,14,15,96,,96,96,9,30,5,5,0.4,0.4
2024-09-24T1600,1335A,113.0833,28.2325,长沙市,经开区环保局,臭氧1小时,102,67,50,41,30,203,,157,157,16,23,3,3,0.5,0.4
2024-09-24T1600,1336A,112.8872,28.2189,长沙市,高开区环保局,臭氧1小时,74,50,56,36,31,179,,135,135,8,16,5,6,0.4,0.4
2024-09-24T1600,1337A,113.0792,28.2053,长沙市,马坡岭,臭氧1小时,108,66,56,44,30,215,,165,165,8,26,6,6,0.4,0.6
2024-09-24T1600,1338A,112.9394,28.19,长沙市,湖南师范大学,臭氧1小时,87,65,65,28,35,189,,145,145,9,16,6,7,0.4,0.4
2024-09-24T1600,1339A,113.0178,28.1322,长沙市,雨花区环保局,臭氧1小时,90,56,52,28,26,192,,149,149,8,21,7,8,0.5,0.5
2024-09-24T1600,1340A,112.9792,28.2597,长沙市,伍家岭,臭氧1小时,89,60,57,32,31,191,,148,148,7,18,5,5,0.7,0.7
2024-09-24T1600,1341A,113.0014,28.1944,长沙市,火车新站,臭氧1小时,79,53,55,34,30,183,,144,144,9,18,5,6,0.5,0.5
2024-09-24T1600,1342A,112.9844,28.1178,长沙市,天心区环保局,臭氧1小时,68,62,62,18,26,174,,130,130,15,24,4,5,0.4,0.5
2024-09-24T1600,1343A,112.8908,28.1308,长沙市,湖南中医药大学,臭氧1小时,89,39,63,29,36,191,,154,154,10,21,6,7,0.5,0.7
2024-09-24T1600,1344A,112.9581,28.3611,长沙市,沙坪,臭氧1小时,72,40,43,30,28,177,,144,144,11,13,12,11,0.6,0.3
2024-09-24T1600,1727A,113.1147,36.1547,长治市,清华站,臭氧1小时,62,24,57,19,34,169,,132,132,12,30,9,9,0.6,0.8
2024-09-24T1600,1728A,113.1031,36.1989,长治市,监测站,,50,33,50,19,33,158,,122,122,16,24,12,12,0.4,0.7
2024-09-24T1600,1730A,113.0886,36.2125,长治市,审计局,臭氧1小时,52,32,48,24,38,161,,120,120,17,28,10,9,0.2,0.4
2024-09-24T1600,1731A,113.0844,36.1856,长治市,长治八中,,50,31,60,14,29,159,,122,122,12,23,10,9,0.5,0.8
2024-09-24T1600,2845A,113.1569,36.1911,长治市,德盛苑,臭氧1小时,60,22,40,19,28,168,,136,136,12,14,7,7,0.5,0.7
2024-09-24T1600,3568A,113.06,36.0464,长治市,向阳小学,颗粒物(PM10),54,58,65,37,42,154,,139,139,12,18,8,9,0.2,0.4
2024-09-24T1600,3569A,112.8792,36.3144,长治市,屯留一中,,47,42,55,24,36,148,,117,117,7,24,8,10,1.0,1
2024-09-24T1600,3570A,113.235,36.3489,长治市,潞城四中,臭氧1小时,79,44,58,37,38,183,,136,136,14,29,8,9,0.6,0.6
2024-09-24T1600,1854A,111.6975,28.9703,常德市,市二中,臭氧1小时,74,53,75,43,53,179,,145,145,12,21,12,12,0.6,0.7
2024-09-24T1600,3138A,111.7153,29.0289,常德市,武陵区永安,臭氧1小时,78,55,68,33,47,182,,152,152,10,18,12,15,0.6,0.7
2024-09-24T1600,3139A,111.6892,28.9881,常德市,鼎城区玉霞,臭氧1小时,87,58,73,39,49,189,,155,155,10,23,14,14,0.6,0.7
2024-09-24T1600,3140A,111.6625,29.0531,常德市,武陵区长庚,臭氧1小时,83,60,67,34,41,186,,151,151,10,19,12,15,0.4,0.5
2024-09-24T1600,1196A,119.9633,31.762,常州市,市监测站,臭氧1小时,68,38,38,19,17,174,,138,138,13,16,8,8,0.4,0.4
2024-09-24T1600,1200A,119.9468,31.7069,常州市,武进监测站,臭氧1小时,58,35,29,20,13,166,,141,141,11,13,6,10,0.6,0.6
2024-09-24T1600,1201A,119.9255,31.9087,常州市,安家,臭氧1小时,53,29,40,14,20,162,,129,129,14,27,8,10,0.4,0.4
2024-09-24T1600,3002A,119.9805,31.8174,常州市,行政中心,臭氧1小时,63,26,34,18,16,170,,138,138,12,19,9,11,0.4,0.4
2024-09-24T1600,3003A,120.0522,31.7748,常州市,经开区,臭氧1小时,60,36,41,18,18,168,,145,145,21,24,12,11,0.4,0.4
2024-09-24T1600,3010A,119.9025,31.7964,常州市,钟楼,,47,41,35,14,16,150,,127,127,20,21,9,10,0.3,0.3
2024-09-24T1600,3429A,119.8598,31.7066,常州市,武进经发区,臭氧1小时,57,32,40,16,21,165,,125,125,12,32,8,10,0.6,0.6
2024-09-24T1600,3430A,119.5826,31.7245,常州市,金坛城区,,,20,33,8,20,153,,134,134,,24,8,10,0.6,0.6
2024-09-24T1600,2220A,120.4318,41.5881,朝阳市,西梁,,45,39,34,10,18,143,,109,109,10,16,8,7,0.5,0.6
2024-09-24T1600,2221A,120.4521,41.5646,朝阳市,河畔小区,,47,30,30,17,16,149,,116,116,6,10,9,9,0.7,0.7
2024-09-24T1600,2222A,120.4176,41.5648,朝阳市,八里堡,,50,50,36,16,16,148,,115,115,13,20,9,8,0.7,0.8
2024-09-24T1600,2223A,120.3806,41.5969,朝阳市,农业园区,,45,36,42,16,25,142,,105,105,10,19,9,9,0.5,0.7
2024-09-24T1600,1705A,116.6367,23.6719,潮州市,西园路,,13,13,15,7,5,31,,37,37,14,10,3,3,0.7,0.6
2024-09-24T1600,3026A,116.6183,23.6608,潮州市,市政府,,12,9,18,8,6,37,,47,47,23,13,6,5,0.6,0.8
2024-09-24T1600,4036A,116.6461,23.6761,潮州市,金山,,15,,10,3,0,45,,49,49,10,8,6,7,0.7,0.6
2024-09-24T1600,2472A,113.0073,25.9061,郴州市,马头岭,颗粒物(PM10),52,54,48,19,15,107,,98,98,5,14,14,11,0.8,0.8
2024-09-24T1600,2473A,113.0116,25.8226,郴州市,市职中,细颗粒物(PM2.5),58,50,42,41,27,114,,103,103,13,18,14,8,0.6,0.6
2024-09-24T1600,2474A,113.0161,25.8001,郴州市,兴隆步行街,颗粒物(PM10),53,56,49,35,27,105,,94,94,15,20,10,10,0.6,0.6
2024-09-24T1600,2475A,113.0383,25.8071,郴州市,市审计局,细颗粒物(PM2.5),53,46,43,37,30,107,,97,97,11,17,14,14,0.7,0.8
2024-09-24T1600,2476A,113.0348,25.7759,郴州市,市环保局,,47,47,50,30,29,104,,93,93,9,16,8,12,0.6,0.8
2024-09-24T1600,1431A,103.9728,30.7236,成都市,金泉两河,颗粒物(PM10),55,60,37,12,8,156,,88,88,8,24,4,4,0.5,0.5
2024-09-24T1600,1432A,104.176,30.6872,成都市,十里店,臭氧1小时,74,67,54,40,29,179,,112,112,23,34,3,3,0.7,0.7
2024-09-24T1600,1433A,104.079,30.5706,成都市,三瓦窑,臭氧1小时,53,48,43,30,25,162,,108,108,15,33,3,3,0.4,0.5
2024-09-24T1600,1434A,104.1114,30.63,成都市,沙河铺,颗粒物(PM10),57,63,49,28,24,146,,103,103,25,32,4,3,0.7,0.7
2024-09-24T1600,1437A,104.0786,30.6531,成都市,君平街,臭氧1小时,79,59,38,40,21,183,,111,111,20,26,4,3,0.6,0.6
2024-09-24T1600,2880A,104.0239,30.65639,成都市,大石西路,臭氧1小时,57,59,39,32,20,165,,106,106,23,25,6,5,1.0,0.9
2024-09-24T1600,3136A,104.2725,30.5589,成都市,龙泉驿区区政府,,50,34,38,19,22,158,,125,125,15,22,4,4,0.5,0.6
2024-09-24T1600,3357A,104.0106,30.6931,成都市,金博路,,50,50,36,18,14,153,,94,94,16,26,2,2,0.6,0.6
2024-09-24T1600,3359A,104.0578,30.5225,成都市,华阳,,45,44,42,24,21,142,,104,104,9,25,4,4,0.6,0.6
2024-09-24T1600,3487A,104.2394,30.5319,成都市,车城东七路,臭氧1小时,58,48,51,27,32,166,,124,124,13,25,3,3,0.6,0.7
2024-09-24T1600,3488A,104.3853,30.7453,成都市,青白江技师分院,臭氧1小时,64,27,39,22,25,171,,111,111,11,41,3,3,0.6,0.7
2024-09-24T1600,3489A,104.0789,30.4072,成都市,科学城,臭氧1小时,62,46,47,34,34,169,,105,105,10,27,4,4,0.6,0.6
2024-09-24T1600,4011A,103.8506,30.6947,成都市,光华大道三段,,47,47,31,27,16,147,,100,100,9,14,4,4,0.5,0.6
2024-09-24T1600,1062A,117.9531,40.9081,承德市,铁路,,,,35,,15,130,,86,86,,24,12,9,0.4,0.4
2024-09-24T1600,1063A,117.9392,40.9763,承德市,中国银行,,46,42,30,7,11,145,,111,111,13,19,8,6,0.5,0.4
2024-09-24T1600,1064A,117.9503,40.928,承德市,开发区,,44,37,38,19,17,140,,100,100,18,22,11,10,0.4,0.4
2024-09-24T1600,1065A,117.8051,40.9655,承德市,文化中心,,45,30,43,19,15,142,,89,89,14,25,14,10,0.7,0.5
2024-09-24T1600,1066A,117.9268,41.0026,承德市,离宫,,39,39,30,24,21,107,,86,86,6,10,3,3,0.6,0.4
2024-09-24T1600,2314A,117.47,30.6618,池州市,池州学院,,47,39,44,22,24,148,,122,122,15,23,9,11,0.6,0.6
2024-09-24T1600,3237A,117.4918,30.6617,池州市,展览馆,,46,40,43,20,20,146,,119,119,13,22,7,6,0.7,0.7
2024-09-24T1600,3333A,117.5627,30.695,池州市,第八中学,,48,48,44,30,21,147,,122,122,17,26,7,6,0.5,0.7
2024-09-24T1600,3334A,117.5038,30.6243,池州市,第十二中学,,43,35,40,20,21,136,,115,115,16,20,5,6,0.7,0.8
2024-09-24T1600,1744A,118.9233,42.2816,赤峰市,松山一中,,34,22,20,3,8,108,,84,84,16,22,10,10,0.3,0.4
2024-09-24T1600,1745A,118.9576,42.2728,赤峰市,哈达街,,38,19,19,9,9,120,,95,95,12,14,9,8,0.4,0.4
2024-09-24T1600,1746A,118.8788,42.2554,赤峰市,天义路,,37,26,22,7,9,116,,90,90,14,18,7,7,0.3,0.3
2024-09-24T1600,3058A,119.2658,42.0353,赤峰市,银河街,,,38,44,13,20,126,,106,106,11,19,,21,0.4,0.6
2024-09-24T1600,3286A,118.9359,42.3147,赤峰市,桥北物流园区,,38,23,24,20,13,121,,92,92,13,28,8,8,0.5,0.5
2024-09-24T1600,2521A,107.3476,22.4136,崇左市,市环保局江州分局,,36,22,33,13,16,113,,95,95,6,9,4,3,0.6,0.7
2024-09-24T1600,2522A,107.3702,22.3707,崇左市,城南新区,,40,24,27,16,15,125,,106,106,7,10,4,4,0.7,0.7
2024-09-24T1600,2298A,118.3093,32.3153,滁州市,老年大学,,43,23,32,12,15,135,,126,126,6,14,6,6,0.2,0.2
2024-09-24T1600,2299A,118.3244,32.2786,滁州市,人大宾馆,,41,24,33,9,14,131,,122,122,10,17,6,7,0.2,0.4
2024-09-24T1600,3207A,118.3118,32.3038,滁州市,市政府原办公楼,,41,21,30,13,18,131,,123,123,6,15,6,6,0.2,0.3
2024-09-24T1600,3331A,118.3267,32.2634,滁州市,图书馆,,43,22,34,7,12,135,,126,126,6,13,5,5,0.2,0.2
2024-09-24T1600,2605A,101.5482,25.0441,楚雄彝族自治州,州环境监测站,,31,19,36,11,28,98,,78,78,4,20,8,32,0.7,0.8
2024-09-24T1600,2606A,101.538,25.0492,楚雄彝族自治州,市经济开发区,,32,,30,14,24,101,,83,83,4,19,5,15,0.5,0.7
2024-09-24T1600,2548A,107.5277,31.2827,达州市,达州职业技术学院,臭氧1小时,54,46,43,19,25,163,,106,106,14,35,12,8,0.9,0.6
2024-09-24T1600,2549A,107.5086,31.2186,达州市,市环境监测站,臭氧1小时,68,44,44,19,18,174,,109,109,21,32,11,9,0.7,0.5
2024-09-24T1600,2550A,107.4988,31.2132,达州市,凤凰小区,臭氧1小时,77,48,36,29,19,181,,120,120,18,28,13,10,0.7,0.5
2024-09-24T1600,2551A,107.5082,31.1986,达州市,达县机关宾馆,臭氧1小时,69,46,39,13,20,175,,116,116,22,41,9,8,0.5,0.4
2024-09-24T1600,2552A,107.4644,31.2124,达州市,市政中心,臭氧1小时,64,43,45,24,21,171,,114,114,20,33,18,10,0.9,0.5
2024-09-24T1600,2614A,100.1542,25.7054,大理白族自治州,大理市环境监测站,,36,36,29,11,17,92,,84,81,8,8,7,7,0.6,0.6
2024-09-24T1600,2615A,100.2171,25.5811,大理白族自治州,大理古城,,33,25,25,8,16,105,,99,99,6,11,7,8,0.3,0.3
2024-09-24T1600,1109A,121.612,38.9741,大连市,甘井子,,43,22,23,9,12,137,,121,121,19,26,8,8,0.4,0.6
2024-09-24T1600,1110A,121.565,38.9511,大连市,周水子,,41,28,27,11,13,129,,111,111,14,45,7,7,0.7,0.9
2024-09-24T1600,1111A,121.5637,38.8845,大连市,星海三站,,42,25,25,7,11,132,,127,127,6,27,6,6,0.3,0.4
2024-09-24T1600,1112A,121.6302,38.9117,大连市,青泥洼桥,,42,16,23,7,11,132,,122,122,7,28,7,7,0.2,0.2
2024-09-24T1600,1114A,121.5213,38.8661,大连市,七贤岭,,45,23,23,11,9,143,,138,138,10,15,8,7,0.4,0.5
2024-09-24T1600,1115A,121.2529,38.8061,大连市,旅顺,,,11,15,8,10,137,,135,135,,14,,6,0.4,0.4
2024-09-24T1600,1116A,121.7485,39.1311,大连市,金州,,45,17,24,9,12,141,,122,122,10,19,7,6,0.7,0.7
2024-09-24T1600,1117A,121.7811,39.0496,大连市,开发区,,42,25,36,6,19,134,,114,114,7,36,8,4,0.4,0.6
2024-09-24T1600,1118A,121.9762,39.0631,大连市,双D港,,47,17,16,6,9,148,,130,130,9,16,8,8,0.5,0.6
2024-09-24T1600,1789A,124.81117,46.03138,大庆市,大同区,,43,43,37,27,21,88,,83,83,19,12,6,4,1.0,0.8
2024-09-24T1600,1790A,125.129,46.533,大庆市,龙凤区,颗粒物(PM10),60,69,49,23,17,81,,80,80,31,14,3,4,0.6,0.4
2024-09-24T1600,1791A,124.902,46.408,大庆市,红岗区,,49,49,44,31,19,97,,85,85,18,13,7,6,0.6,0.4
2024-09-24T1600,1792A,125.153,46.586,大庆市,萨尔图区,颗粒物(PM10),51,51,37,23,16,86,,80,80,20,12,7,6,0.5,0.3
2024-09-24T1600,1793A,124.9042,46.6215,大庆市,让胡路区,,43,43,32,27,20,81,,77,77,19,13,5,6,0.4,0.3
2024-09-24T1600,3481A,125.141,46.634,大庆市,萨区政府监测点,,45,45,29,17,14,95,,85,85,16,10,8,7,0.7,0.5
2024-09-24T1600,1721A,113.3819,40.1097,大同市,果树场,,45,45,54,15,29,144,,94,94,18,34,10,9,0.7,0.7
2024-09-24T1600,1723A,113.2994,40.0758,大同市,云冈宾馆,,47,47,77,20,31,150,,96,96,28,50,13,11,0.6,0.9
2024-09-24T1600,1724A,113.3444,40.0917,大同市,大同大学,,49,44,63,23,28,156,,101,101,17,37,11,14,0.6,0.7
2024-09-24T1600,1725A,113.2661,40.1269,大同市,安家小村,颗粒物(PM10),60,69,73,22,29,150,,96,96,25,42,15,15,0.7,0.9
2024-09-24T1600,1726A,113.2711,40.0844,大同市,教育学院,颗粒物(PM10),58,65,100,27,40,142,,111,111,31,63,12,12,0.6,1.1
2024-09-24T1600,3282A,113.3397,40.0597,大同市,大同市卫生学校,,48,48,76,21,30,152,,100,100,16,42,11,11,0.6,0.8
2024-09-24T1600,3565A,113.1367,40.1122,大同市,云冈站,颗粒物(PM10),66,81,98,23,37,141,,84,84,20,32,15,13,0.7,0.7
2024-09-24T1600,3566A,113.1186,40.2556,大同市,图书馆,颗粒物(PM10),60,69,63,36,31,135,,98,98,16,22,13,13,0.5,0.5
2024-09-24T1600,3567A,113.5931,40.0461,大同市,区一中,,50,46,44,12,16,157,,113,113,16,17,18,16,0.7,0.7
2024-09-24T1600,3676A,113.2802,40.0995,大同市,第二人民医院,颗粒物(PM10),57,64,83,25,31,155,,106,106,21,44,15,15,0.5,1
2024-09-24T1600,2269A,124.1069,50.4097,大兴安岭地区,科技局,,26,,13,15,12,81,,66,66,5,5,7,6,0.3,0.3
2024-09-24T1600,3663A,124.1164,50.4278,大兴安岭地区,红旗社区,,25,7,9,3,7,78,,64,64,4,10,3,3,0.3,0.3
2024-09-24T1600,1600A,124.3303,40.0625,丹东市,江湾东路,,27,24,39,10,21,84,,66,66,5,20,9,11,0.5,0.8
2024-09-24T1600,1601A,124.4256,40.1503,丹东市,临江后街,,30,19,45,7,21,94,,74,74,5,20,6,8,0.5,0.7
2024-09-24T1600,1602A,124.3933,40.1461,丹东市,元宝山,,27,17,28,12,15,86,,69,69,6,15,4,4,0.4,0.7
2024-09-24T1600,1603A,124.3633,40.1092,丹东市,民主桥,,29,24,26,11,14,92,,70,70,5,22,4,5,0.5,0.6
2024-09-24T1600,3541A,109.5726,19.5167,儋州市,第一中学子站,,25,6,7,3,5,77,,67,67,5,6,5,5,0.6,0.6
2024-09-24T1600,3542A,109.5567,19.5187,儋州市,东坡学校子站,,24,6,8,3,5,75,,66,66,4,5,4,4,0.6,0.6
2024-09-24T1600,2616A,98.5842,24.428,德宏傣族景颇族自治州,德宏州监测站,,33,30,37,17,19,105,,78,78,8,13,11,9,0.5,0.7
2024-09-24T1600,3677A,98.5881,24.4368,德宏傣族景颇族自治州,芒市人民政府综合楼,,32,32,28,18,19,94,,78,78,7,12,8,9,0.5,0.7
2024-09-24T1600,1901A,104.4239,31.1208,德阳市,东山公园,臭氧1小时,80,46,52,28,28,184,,106,106,16,23,5,5,0.8,0.8
2024-09-24T1600,1902A,104.3826,31.1317,德阳市,西小区,臭氧1小时,60,52,61,34,38,168,,92,92,18,32,4,6,0.6,0.7
2024-09-24T1600,1904A,104.3553,31.1091,德阳市,耐火材料厂,臭氧1小时,70,59,71,33,36,176,,116,116,31,32,4,7,0.7,0.7
2024-09-24T1600,3639A,104.4019,31.1244,德阳市,市教育局,臭氧1小时,69,54,59,27,30,175,,100,100,16,31,2,4,0.6,0.7
2024-09-24T1600,1622A,116.3032,37.4674,德州市,儿童乐园,臭氧1小时,105,61,58,27,27,210,,171,171,14,30,13,11,0.5,0.6
2024-09-24T1600,1624A,116.2991,37.4451,德州市,监理站,臭氧1小时,108,63,54,31,26,216,,172,172,15,32,12,11,0.4,0.4
2024-09-24T1600,3066A,116.2721,37.4379,德州市,九衢泉纯净水厂,臭氧1小时,102,70,68,31,30,203,,162,162,18,53,13,10,0.4,0.5
2024-09-24T1600,3371A,116.3728,37.4403,德州市,开发区人民医院,臭氧1小时,103,51,53,22,24,205,,162,162,9,41,11,12,0.5,0.5
2024-09-24T1600,3372A,116.3572,37.4094,德州市,太阳城中学,臭氧1小时,101,58,58,27,26,202,,152,152,17,57,14,15,0.5,0.5
2024-09-24T1600,3511A,116.5652,37.3319,德州市,陵城艺术中心,臭氧1小时,109,75,55,41,27,218,,152,152,22,44,16,13,0.8,0.7
2024-09-24T1600,2621A,99.7056,27.8317,迪庆藏族自治州,迪庆州站,,21,16,22,10,14,67,,61,61,10,12,8,9,0.5,0.4
2024-09-24T1600,3180A,99.7136,27.8094,迪庆藏族自治州,质量技术监督局,,26,26,21,3,13,66,,64,64,12,11,6,6,0.4,0.4
2024-09-24T1600,2663A,104.6241,35.5734,定西市,东关小学,,43,32,41,30,23,108,,79,79,5,21,9,7,0.3,0.3
2024-09-24T1600,2664A,104.6194,35.5934,定西市,供电公司,,48,33,39,33,26,111,,86,86,2,18,10,8,0.2,0.2
2024-09-24T1600,1389A,113.7547,23.0494,东莞市,莞城梨川,,35,28,14,24,10,100,,57,57,21,17,6,6,0.8,0.7
2024-09-24T1600,1390A,113.7944,23.0128,东莞市,东城石井,,43,39,18,30,11,91,,55,55,29,19,5,5,0.8,0.7
2024-09-24T1600,1391A,113.7383,22.9658,东莞市,南城西平,细颗粒物(PM2.5),53,48,19,37,13,112,,61,61,34,24,4,5,1.0,0.8
2024-09-24T1600,3319A,113.7338,23.0381,东莞市,万江金泰,,36,36,17,24,10,112,,61,61,22,17,7,6,0.6,0.6
2024-09-24T1600,3626A,113.7533,23.0202,东莞市,南城元岭,,46,37,17,32,12,109,,59,59,24,15,7,6,0.9,0.8
2024-09-24T1600,3627A,113.7875,23.0457,东莞市,东城主山,,36,36,17,20,10,94,,56,56,22,18,6,6,0.6,0.6
2024-09-24T1600,1666A,118.6614,37.4309,东营市,市环保局,臭氧1小时,109,51,42,22,19,217,,173,173,16,23,8,9,0.3,0.4
2024-09-24T1600,3036A,118.6904,37.4338,东营市,开发区管委会,臭氧1小时,102,76,50,27,24,204,,163,163,19,24,8,8,0.5,0.4
2024-09-24T1600,3365A,118.5719,37.565,东营市,垦利区民丰路,臭氧1小时,99,46,39,19,20,199,,150,150,16,23,8,8,0.4,0.5
2024-09-24T1600,3498A,118.5055,37.8612,东营市,河口城区,臭氧1小时,89,44,45,20,25,191,,152,152,13,17,9,16,0.3,0.5
2024-09-24T1600,3646A,118.4978,37.4623,东营市,胜利站,臭氧1小时,94,42,37,17,21,195,,155,155,18,20,11,11,0.4,0.6
2024-09-24T1600,3734A,118.35,37.26,东营市,理想之城,臭氧1小时,109,46,45,27,26,218,,163,163,19,29,14,8,0.2,0.3
2024-09-24T1600,1591A,110.0023,39.8129,鄂尔多斯市,综合楼,颗粒物(PM10),73,95,69,12,21,123,,97,97,10,27,10,16,0.5,0.7
2024-09-24T1600,1593A,109.7736,39.5986,鄂尔多斯市,康泽苑,颗粒物(PM10),52,53,53,14,21,111,,92,92,8,29,8,9,0.3,0.5
2024-09-24T1600,1594A,109.8119,39.5989,鄂尔多斯市,华泰汽车城,颗粒物(PM10),52,53,56,14,24,115,,91,91,6,35,7,9,0.4,0.7
2024-09-24T1600,1595A,109.9734,39.7884,鄂尔多斯市,奥林花园,颗粒物(PM10),65,80,69,22,25,113,,88,88,11,34,5,6,0.4,0.7
2024-09-24T1600,2436A,114.8938,30.3994,鄂州市,市政府,臭氧1小时,80,39,36,20,19,184,,146,146,17,22,14,13,1.2,1
2024-09-24T1600,2437A,114.8989,30.3714,鄂州市,赵家坝,臭氧1小时,98,43,42,14,19,198,,152,152,19,24,16,12,1.2,0.8
2024-09-24T1600,3654A,114.8094,30.4089,鄂州市,精准医疗中心,臭氧1小时,83,32,41,17,20,186,,159,159,8,20,5,7,0.6,0.6
2024-09-24T1600,2454A,109.4978,30.2981,恩施土家族苗族自治州,湖北民院,,44,20,34,18,24,140,,122,122,12,16,9,9,0.7,0.8
2024-09-24T1600,2455A,109.4707,30.2798,恩施土家族苗族自治州,州电力总公司,,40,23,37,17,25,128,,113,113,16,25,8,9,0.7,0.8
2024-09-24T1600,3549A,109.5061,30.3772,恩施土家族苗族自治州,龙凤新区,,44,30,32,19,22,140,,127,127,11,12,6,6,0.6,0.8
2024-09-24T1600,2499A,108.3411,21.6158,防城港市,沙万,,42,42,37,22,26,105,,91,91,14,16,8,8,0.7,0.7
2024-09-24T1600,2500A,108.3514,21.7731,防城港市,防城档案局,,43,41,58,30,27,99,,84,84,13,20,8,9,0.7,0.7
2024-09-24T1600,2501A,108.3506,21.6414,防城港市,大海花园,,40,40,38,24,21,106,,88,88,9,12,6,7,0.8,0.8
2024-09-24T1600,1371A,113.1294,23.0067,佛山市,湾梁,,31,31,9,16,5,63,,47,47,39,25,6,6,0.9,0.7
2024-09-24T1600,1372A,113.1083,23.0478,佛山市,华材职中,,39,39,11,20,10,48,,39,39,51,34,7,7,0.6,0.5
2024-09-24T1600,1373A,113.144,23.0453,佛山市,南海气象局,,37,37,11,12,7,52,,40,40,33,21,6,6,0.7,0.5
2024-09-24T1600,1374A,113.2881,22.8094,佛山市,顺德苏岗,,43,43,12,27,7,119,,43,43,30,26,7,7,0.8,0.7
2024-09-24T1600,1376A,112.8383,22.8678,佛山市,高明孔堂,,41,41,16,24,12,67,,50,50,34,21,4,4,0.6,0.5
2024-09-24T1600,1377A,112.8836,23.1588,佛山市,三水监测站,,22,19,5,12,11,68,,55,55,21,17,6,6,0.7,0.6
2024-09-24T1600,1378A,112.867,23.185,佛山市,三水云东海,,26,,6,18,9,64,,57,57,17,15,6,6,0.7,0.7
2024-09-24T1600,3625A,113.2544,22.7642,佛山市,容桂街道办,,42,34,9,29,11,98,,45,45,36,29,7,6,0.8,0.8
2024-09-24T1600,1282A,119.2681,26.0504,福州市,师大,,23,17,11,6,4,72,,62,62,13,11,2,2,0.7,0.8
2024-09-24T1600,1283A,119.2984,26.1028,福州市,五四北路,,,,12,11,5,71,,56,56,15,13,3,3,0.6,0.6
2024-09-24T1600,1284A,119.2648,26.0768,福州市,杨桥西路,,27,16,12,13,5,84,,67,67,14,12,3,3,0.7,0.7
2024-09-24T1600,1285A,119.317,26.0746,福州市,紫阳,,20,14,12,9,5,63,,48,46,21,19,3,3,0.2,0.3
2024-09-24T1600,3048A,119.5799,26.0936,福州市,九龙,,22,18,13,10,2,68,,60,60,4,5,6,6,0.5,0.7
2024-09-24T1600,3526A,119.5189,25.9664,福州市,吴航,,22,22,13,14,9,64,,48,48,12,13,6,6,0.6,0.6
2024-09-24T1600,1755A,123.7977,41.8491,抚顺市,望花区,,40,40,60,6,24,99,,82,82,9,32,10,13,0.3,1
2024-09-24T1600,1756A,123.9161,41.8822,抚顺市,顺城区,,33,32,45,7,18,104,,85,85,13,30,7,7,0.5,0.7
2024-09-24T1600,1757A,124.0436,41.8611,抚顺市,东洲区,,32,22,34,9,15,102,,90,90,8,20,8,11,0.5,0.7
2024-09-24T1600,1758A,123.9247,41.8642,抚顺市,新抚区,,35,33,45,3,16,110,,105,105,15,33,5,5,0.3,0.5
2024-09-24T1600,1759A,124.0972,41.8961,抚顺市,大伙房水库,,34,18,23,8,9,108,,88,88,5,12,9,7,0.5,0.5
2024-09-24T1600,1760A,123.7086,41.8391,抚顺市,沈抚新城,,35,28,54,6,23,109,,95,95,11,35,9,11,0.1,0.6
2024-09-24T1600,2376A,116.2127,28.0814,抚州市,桐源党溪,,34,31,30,14,15,108,,89,89,2,5,5,8,0.6,0.6
2024-09-24T1600,2377A,116.3544,27.9831,抚州市,市站,,27,25,23,13,10,85,,76,76,7,9,3,3,0.9,1
2024-09-24T1600,2378A,116.3565,27.963,抚州市,血防站,,30,30,24,18,9,92,,81,81,8,10,5,4,0.7,0.7
2024-09-24T1600,2379A,116.3564,28.0007,抚州市,采茶剧团,,28,25,21,13,10,88,,76,76,4,6,7,7,0.4,0.5
2024-09-24T1600,2380A,116.385,27.9647,抚州市,医学分院,,46,46,25,10,8,88,,80,80,4,6,4,5,0.6,0.8
2024-09-24T1600,2207A,121.6094,41.998,阜新市,工业园区,臭氧1小时,72,75,57,24,23,177,,155,155,12,25,14,21,0.7,0.8
2024-09-24T1600,2208A,121.6697,42.0279,阜新市,长青街,臭氧1小时,55,51,49,19,24,164,,140,140,11,20,10,15,0.6,0.7
2024-09-24T1600,2209A,121.6673,42.0705,阜新市,农业园区,,50,50,46,19,38,156,,140,140,12,18,8,14,0.5,0.6
2024-09-24T1600,2210A,121.6717,42.0224,阜新市,东苑,颗粒物(PM10),54,57,47,12,23,158,,137,137,12,24,6,17,0.7,0.8
2024-09-24T1600,2211A,121.6506,42.0498,阜新市,玉龙新城,臭氧1小时,70,51,44,20,21,176,,150,150,11,23,11,13,0.7,0.8
2024-09-24T1600,2301A,115.8277,32.8929,阜阳市,市监测站,臭氧1小时,58,32,46,15,26,166,,141,141,9,20,7,9,0.3,0.4
2024-09-24T1600,2303A,115.8554,32.8605,阜阳市,开发区,臭氧1小时,64,44,60,17,30,171,,134,134,14,28,7,9,0.5,0.6
2024-09-24T1600,2875A,115.784,32.8892,阜阳市,阜阳职业技术学院,,,32,40,12,23,167,,139,139,12,18,7,7,,0.4
2024-09-24T1600,3468A,115.7901,32.8613,阜阳市,市规划展馆,臭氧1小时,69,26,41,13,23,175,,142,142,14,22,7,9,0.3,0.4
2024-09-24T1600,3469A,115.836,32.9183,阜阳市,枣园社区,臭氧1小时,63,41,53,17,26,170,,130,130,14,32,8,8,0.5,0.5
2024-09-24T1600,2669A,102.9099,34.9841,甘南藏族自治州,州政府,,29,13,36,6,18,92,,72,72,5,18,11,11,0.3,0.4
2024-09-24T1600,3380A,102.8914,34.9617,甘南藏族自治州,甘肃民族师范学院,,30,18,45,9,18,95,,68,68,4,19,4,4,0.5,0.6
2024-09-24T1600,2570A,101.9603,30.0475,甘孜藏族自治州,水桥子,,13,8,12,3,5,40,,31,31,16,24,5,5,0.3,0.4
2024-09-24T1600,3065A,101.9533,29.9972,甘孜藏族自治州,州环保局,,13,6,12,3,5,40,,30,30,20,25,3,3,0.2,0.3
2024-09-24T1600,3414A,115.8347,28.932,赣江新区,桑海产业园,,46,34,37,8,14,146,,111,111,8,15,11,12,0.2,0.3
2024-09-24T1600,2362A,114.9017,25.9149,赣州市,通天岩,,30,30,29,18,23,90,,93,93,2,3,8,7,0.3,0.4
2024-09-24T1600,2363A,114.9367,25.8664,赣州市,地委,,29,21,32,20,23,84,,86,86,8,9,5,9,0.9,0.8
2024-09-24T1600,2364A,114.9461,25.8481,赣州市,气象台,,,20,35,14,22,79,,85,85,,10,9,5,0.4,0.8
2024-09-24T1600,2365A,114.9322,25.8333,赣州市,市图书馆,,29,26,34,14,18,91,,94,94,6,8,5,4,0.6,0.6
2024-09-24T1600,2366A,114.8905,25.8471,赣州市,华坚鞋城,,26,26,36,13,21,81,,84,84,9,9,2,3,0.4,0.4
2024-09-24T1600,3109A,115.0093,25.8613,赣州市,赣县区卫计委,,26,26,30,13,19,79,,79,79,7,10,6,6,0.6,0.6
2024-09-24T1600,2683A,106.2319,36.1417,固原市,马园,,38,37,11,3,18,121,,99,99,6,26,8,7,0.7,0.9
2024-09-24T1600,2684A,106.2792,36.0022,固原市,监测站,,32,24,36,9,22,101,,79,79,8,17,4,4,0.2,0.3
2024-09-24T1600,2685A,106.2375,36.0211,固原市,新区,,39,26,39,11,19,123,,113,113,4,18,7,6,0.3,0.4
2024-09-24T1600,3522A,106.2177,35.9959,固原市,原州区十五小,,40,24,38,11,20,125,,99,99,6,14,7,5,0.5,0.6
2024-09-24T1600,2544A,106.6303,30.4576,广安市,市委,臭氧1小时,65,37,45,23,29,172,,151,151,9,18,4,3,0.4,0.5
2024-09-24T1600,2545A,106.6271,30.4663,广安市,友谊中学,臭氧1小时,60,32,40,25,28,168,,140,140,10,18,3,4,0.5,0.6
2024-09-24T1600,2547A,106.6388,30.4551,广安市,广电花园,臭氧1小时,62,35,46,23,28,169,,140,140,10,17,3,3,0.4,0.5
2024-09-24T1600,2902A,106.6351,30.4865,广安市,北辰小学,臭氧1小时,58,42,47,21,27,166,,142,142,9,15,6,6,0.4,0.5
2024-09-24T1600,2523A,105.8945,32.4535,广元市,黑石坡,,28,,30,19,20,74,,58,58,18,13,8,9,0.5,0.5
2024-09-24T1600,2524A,105.821,32.4444,广元市,老城,,38,38,30,19,16,91,,74,74,18,34,6,3,1.0,0.9
2024-09-24T1600,2526A,105.8628,32.4287,广元市,监测站,,32,24,27,19,21,101,,82,82,17,14,6,3,0.8,0.7
2024-09-24T1600,3617A,105.8047,32.4166,广元市,经开区,"颗粒物(PM10),细颗粒物(PM2.5)",54,58,44,38,26,101,,79,79,23,30,25,9,0.9,0.7
2024-09-24T1600,1345A,113.2347,23.1423,广州市,广雅中学,,25,25,13,14,7,42,,36,36,38,30,5,5,0.9,0.8
2024-09-24T1600,1346A,113.2612,23.105,广州市,市五中,,45,45,18,25,8,53,,39,39,27,19,4,4,0.9,0.8
2024-09-24T1600,1348A,113.3478,23.0916,广州市,广东商学院,,36,34,11,25,7,62,,31,31,32,23,3,4,0.7,0.6
2024-09-24T1600,1349A,113.4332,23.1047,广州市,市八十六中,,36,35,13,25,7,91,,39,39,38,26,4,3,0.7,0.6
2024-09-24T1600,1350A,113.3505,22.9483,广州市,番禺中学,,48,38,15,33,10,144,,58,58,36,28,6,5,0.8,0.7
2024-09-24T1600,1351A,113.2146,23.3916,广州市,花都师范,,21,20,11,13,6,65,,64,62,12,9,3,3,0.7,0.6
2024-09-24T1600,1353A,113.5618,23.312,广州市,九龙镇镇龙,,23,15,8,11,4,71,,45,45,9,11,6,6,0.7,0.7
2024-09-24T1600,1354A,113.2765,23.1544,广州市,麓湖,,22,22,10,15,6,40,,31,31,24,22,5,5,0.7,0.5
2024-09-24T1600,1355A,113.443,23.3035,广州市,帽峰山森林公园,,17,14,3,9,4,53,,45,42,11,10,4,4,0.3,0.3
2024-09-24T1600,2846A,113.3221,23.1322,广州市,体育西,,32,29,12,22,8,51,,28,28,26,22,4,4,0.7,0.6
2024-09-24T1600,3298A,113.5717,23.5491,广州市,从化街口,,18,14,10,9,5,55,,45,45,11,13,8,8,0.7,0.7
2024-09-24T1600,3299A,113.3472,23.3692,广州市,白云竹料,,25,25,9,16,6,58,,56,56,17,10,5,5,0.7,0.6
2024-09-24T1600,3300A,113.2981,23.237,广州市,白云嘉禾,,30,30,14,18,7,45,,41,39,36,30,6,6,1.0,0.9
2024-09-24T1600,3301A,113.4256,23.1716,广州市,黄埔科学城,,29,28,10,19,5,91,,48,48,15,13,6,6,0.6,0.6
2024-09-24T1600,3302A,113.3942,23.0483,广州市,番禺大学城,,45,35,16,31,9,98,,42,42,41,25,8,6,0.5,0.4
2024-09-24T1600,3303A,113.4922,22.8168,广州市,南沙黄阁,臭氧1小时,75,59,22,51,17,180,,91,91,45,31,6,6,0.8,0.7
2024-09-24T1600,3304A,113.5342,22.7896,广州市,南沙街,,43,43,17,24,13,136,,83,83,29,26,6,6,0.7,0.7
2024-09-24T1600,3443A,113.2902,23.5544,广州市,花都梯面,,25,23,7,17,5,58,,68,60,6,6,6,5,0.7,0.6
2024-09-24T1600,3445A,113.7858,23.7478,广州市,从化良口,,12,7,5,7,3,38,,44,41,5,6,6,7,0.7,0.7
2024-09-24T1600,3446A,113.8051,23.2614,广州市,增城荔城,,20,14,7,14,4,58,,45,45,7,9,5,5,0.5,0.6
2024-09-24T1600,2506A,109.6047,23.0666,贵港市,江南子站,,35,34,42,24,23,101,,94,94,7,13,7,9,0.6,0.7
2024-09-24T1600,2507A,109.6014,23.0948,贵港市,贵城子站,,40,31,40,28,26,97,,90,90,9,12,6,8,0.7,0.7
2024-09-24T1600,2508A,109.5669,23.1065,贵港市,荷城子站,,34,34,39,22,19,87,,85,85,10,10,10,11,0.6,0.6
2024-09-24T1600,3405A,109.5886,23.1172,贵港市,新世纪学校,,36,36,38,18,22,92,,84,84,7,8,6,8,1.0,1
2024-09-24T1600,1439A,106.6899,26.5998,贵阳市,马鞍山,,39,17,30,7,16,123,,111,111,14,14,8,7,0.4,0.5
2024-09-24T1600,1440A,106.6971,26.5694,贵阳市,市环保站,,46,27,31,18,22,145,,134,134,5,10,5,5,0.3,0.5
2024-09-24T1600,1441A,106.6243,26.6266,贵阳市,鉴湖路,,38,34,35,17,18,121,,122,122,5,9,6,7,0.5,0.4
2024-09-24T1600,1442A,106.7487,26.6343,贵阳市,燕子冲,,40,12,24,12,22,127,,122,122,4,11,5,6,0.3,0.4
2024-09-24T1600,1443A,106.6555,26.4365,贵阳市,碧云窝,,43,34,50,12,18,137,,126,126,10,16,4,5,0.3,0.4
2024-09-24T1600,1444A,106.694,26.5161,贵阳市,中院村,,44,22,34,17,19,138,,125,125,6,13,6,7,0.4,0.5
2024-09-24T1600,1445A,106.7109,26.6027,贵阳市,红边门,,41,24,36,24,25,129,,124,124,8,16,5,5,0.3,0.5
2024-09-24T1600,1446A,106.7164,26.5699,贵阳市,新华路,,45,22,28,9,17,142,,130,130,5,10,5,7,0.2,0.3
2024-09-24T1600,1447A,106.674,26.5424,贵阳市,太慈桥,,45,24,29,9,17,141,,127,127,8,15,5,5,0.3,0.4
2024-09-24T1600,1862A,110.4144,25.3167,桂林市,电子科大尧山校区,,43,35,33,20,19,135,,135,135,6,8,4,5,0.6,0.7
2024-09-24T1600,1863A,110.2819,25.2697,桂林市,监测站,,40,40,36,27,20,128,,127,127,9,10,8,8,0.6,0.6
2024-09-24T1600,1864A,110.3089,25.2708,桂林市,龙隐路小学,,42,34,34,24,21,133,,132,132,5,7,7,9,0.5,0.5
2024-09-24T1600,1865A,110.2869,25.2178,桂林市,八中,,43,38,36,25,19,135,,135,135,10,10,7,9,0.5,0.5
2024-09-24T1600,3403A,110.1764,25.2381,桂林市,创业大厦,,42,39,41,29,27,121,,123,123,7,8,7,8,0.4,0.5
2024-09-24T1600,3531A,110.296,25.1253,桂林市,旅游学院,,44,39,33,24,20,139,,134,134,6,7,8,8,0.4,0.4
2024-09-24T1600,2674A,100.2561,34.4714,果洛藏族自治州,玛沁县大武镇,,33,32,31,10,12,103,,82,82,2,7,10,9,0.4,0.4
2024-09-24T1600,1129A,126.5422,45.755,哈尔滨市,岭北,,41,23,26,8,13,130,,123,123,13,17,6,7,0.7,0.7
2024-09-24T1600,1130A,126.561,45.8167,哈尔滨市,松北商大,,33,30,34,14,12,105,,97,97,12,25,9,9,0.5,0.5
2024-09-24T1600,1131A,126.979,45.5419,哈尔滨市,阿城会宁,,32,29,29,8,11,100,,93,93,10,18,10,12,0.5,0.5
2024-09-24T1600,1132A,126.599,45.7222,哈尔滨市,南岗学府路,颗粒物(PM10),51,51,59,3,15,105,,99,99,13,35,7,9,0.5,0.6
2024-09-24T1600,1133A,126.689,45.7733,哈尔滨市,太平宏伟公园,,37,37,39,16,15,102,,93,93,16,26,8,9,0.5,0.6
2024-09-24T1600,1134A,126.635,45.7667,哈尔滨市,道外承德广场,,41,41,41,19,17,99,,99,99,18,33,5,7,0.5,0.4
2024-09-24T1600,1135A,126.685,45.7319,哈尔滨市,香坊红旗大街,,39,39,41,9,14,98,,93,93,20,30,8,9,0.6,0.7
2024-09-24T1600,1136A,126.6411,45.7258,哈尔滨市,动力和平路,,32,32,42,18,17,102,,94,94,16,26,8,13,1.1,0.7
2024-09-24T1600,1137A,126.593,45.7478,哈尔滨市,道里建国路,,35,33,38,13,15,109,,100,100,12,33,9,10,0.9,1.3
2024-09-24T1600,1138A,126.615,45.61,哈尔滨市,平房东轻厂,,32,31,32,17,11,102,,98,98,12,18,6,7,0.5,0.5
2024-09-24T1600,1139A,126.595,45.9855,哈尔滨市,呼兰师专,,44,44,45,17,18,96,,83,83,22,38,10,10,0.7,0.7
2024-09-24T1600,1140A,126.6206,45.6842,哈尔滨市,省农科院,颗粒物(PM10),66,81,62,27,22,87,,82,82,24,46,4,7,0.4,0.7
2024-09-24T1600,2688A,93.5128,42.8172,哈密市,地区监测站,,39,31,49,15,17,122,,105,105,5,9,5,8,0.2,0.2
2024-09-24T1600,2689A,93.4961,42.8328,哈密市,哈密师范学校,,39,22,43,15,15,123,,106,106,2,12,5,4,0.2,0.3
2024-09-24T1600,2671A,100.9048,36.9639,海北藏族自治州,海晏县西海镇,,31,22,15,10,12,97,,84,84,4,7,12,13,0.3,0.4
2024-09-24T1600,3867A,102.0738,36.5056,海东市,平安区公安北苑,,41,27,36,11,20,130,,84,84,11,17,16,14,0.5,0.7
2024-09-24T1600,1410A,110.3232,20.0574,海口市,海南大学,,28,6,12,3,8,88,,60,60,8,9,6,6,0.5,0.5
2024-09-24T1600,1412A,110.338,19.9969,海口市,海南师范大学,,27,9,13,3,12,85,,58,58,11,12,5,5,0.6,0.6
2024-09-24T1600,1413A,110.33,20.0356,海口市,龙华路环保局宿舍,,,,13,,9,91,,62,62,7,10,,4,0.5,0.5
2024-09-24T1600,3539A,110.5111,19.9736,海口市,桂林洋子站,,30,8,15,6,16,93,,66,66,10,8,6,5,0.5,0.5
2024-09-24T1600,2673A,100.6188,36.2866,海南藏族自治州,共和县恰卜恰镇,,30,11,27,8,9,94,,80,80,4,10,8,14,0.3,0.5
2024-09-24T1600,2676A,97.3731,37.3753,海西蒙古族藏族自治州,德令哈市,,32,22,33,12,16,100,,79,79,6,12,9,9,0.4,0.5
2024-09-24T1600,1048A,114.5302,36.6116,邯郸市,东污水处理厂,臭氧1小时,53,39,73,17,46,162,,124,124,11,36,3,4,0.5,0.6
2024-09-24T1600,1049A,114.4918,36.5713,邯郸市,矿院,,48,44,74,17,43,153,,105,105,9,32,4,4,0.2,0.4
2024-09-24T1600,1050A,114.484,36.6133,邯郸市,丛台公园,颗粒物(PM10),52,53,60,13,40,158,,119,119,9,28,3,4,0.3,0.5
2024-09-24T1600,3458A,114.7895,36.5593,邯郸市,香泉濮院小区,颗粒物(PM10),88,126,84,14,43,175,,140,140,9,28,4,6,0.3,0.5
2024-09-24T1600,3579A,114.50634,36.77178,邯郸市,永年区实验高中,臭氧1小时,79,56,85,27,44,183,,158,158,13,37,4,6,0.5,0.8
2024-09-24T1600,3580A,114.20016,36.44293,邯郸市,峰峰矿区临水派出所,,,72,67,20,25,196,,144,144,16,14,9,8,,0.9
2024-09-24T1600,2634A,106.9893,33.1842,汉中市,汉川机床厂子校,,46,36,32,22,27,145,,105,105,7,7,5,5,0.4,0.4
2024-09-24T1600,2635A,107.0154,33.0706,汉中市,市监测站,,44,32,50,26,29,139,,96,96,6,16,8,10,0.4,0.6
2024-09-24T1600,2636A,107.0089,33.1138,汉中市,鑫源开发区,,46,38,40,22,25,145,,104,104,10,17,10,11,0.4,0.5
2024-09-24T1600,2637A,107.007,33.0323,汉中市,南郑大河坎水厂,,44,26,43,23,29,139,,94,94,9,15,8,9,0.4,0.5
2024-09-24T1600,1223A,120.2072,30.2111,杭州市,滨江,,49,49,42,20,17,126,,84,84,19,26,5,5,0.7,0.7
2024-09-24T1600,1224A,120.0633,30.2747,杭州市,西溪,,47,47,39,31,22,111,,91,91,24,28,6,5,0.7,0.9
2024-09-24T1600,1226A,120.3461,30.3153,杭州市,下沙,,42,34,38,19,22,134,,107,107,25,40,6,6,0.8,0.7
2024-09-24T1600,1227A,120.1269,30.2456,杭州市,卧龙桥,,42,40,34,29,21,118,,85,85,24,23,6,5,0.6,0.5
2024-09-24T1600,1228A,120.1903,30.2692,杭州市,浙江农大,,38,38,33,26,19,113,,84,84,27,33,8,8,0.6,0.7
2024-09-24T1600,1230A,120.1197,30.3119,杭州市,和睦小学,,43,43,36,22,20,135,,102,102,23,29,6,6,0.8,0.7
2024-09-24T1600,1231A,120.3019,30.4183,杭州市,临平镇,,44,37,45,16,20,138,,110,110,12,25,5,5,0.8,0.7
2024-09-24T1600,1232A,120.2697,30.1819,杭州市,城厢镇,,44,41,38,25,27,140,,90,90,19,28,6,6,0.7,0.7
2024-09-24T1600,1233A,120.0883,30.1808,杭州市,云栖,,37,36,25,23,18,116,,70,70,21,25,7,6,0.8,0.7
2024-09-24T1600,3557A,119.9464,30.0494,杭州市,镇二中,,48,45,32,33,27,88,,60,60,28,25,8,8,0.6,0.7
2024-09-24T1600,3558A,119.7183,30.2367,杭州市,市府大楼,,42,37,33,21,18,132,,112,112,16,17,6,7,0.6,0.5
2024-09-24T1600,3656A,120.1556,30.2864,杭州市,消防大队,,48,48,41,23,21,126,,99,99,19,23,8,8,0.8,0.7
2024-09-24T1600,1270A,117.1959,31.7848,合肥市,明珠广场,臭氧1小时,85,41,31,19,12,188,,139,139,14,23,6,7,0.7,0.7
2024-09-24T1600,1271A,117.3072,31.8764,合肥市,三里街,,45,31,31,17,11,141,,117,117,12,17,7,8,0.4,0.4
2024-09-24T1600,1272A,117.2588,31.8707,合肥市,琥珀山庄,,48,36,33,14,14,152,,131,131,11,16,8,8,0.4,0.4
2024-09-24T1600,1273A,117.1604,31.9052,合肥市,董铺水库,,42,31,34,14,12,133,,112,112,6,14,3,3,0.3,0.4
2024-09-24T1600,1274A,117.25,31.8571,合肥市,长江中路,,49,46,36,22,16,154,,137,137,12,17,8,9,0.5,0.4
2024-09-24T1600,1275A,117.266,31.9436,合肥市,庐阳区,,46,29,41,9,14,146,,127,127,7,19,4,4,0.4,0.5
2024-09-24T1600,1276A,117.336,31.8586,合肥市,瑶海区,,,34,32,11,13,135,,120,120,,20,3,7,,0.3
2024-09-24T1600,1277A,117.3027,31.7964,合肥市,包河区,,46,39,34,17,15,146,,121,121,15,44,14,13,0.5,0.6
2024-09-24T1600,1278A,117.2776,31.7385,合肥市,滨湖新区,臭氧1小时,60,39,31,14,12,168,,129,129,12,23,6,6,0.6,0.6
2024-09-24T1600,1279A,117.1318,31.8403,合肥市,高新区,,47,36,33,15,15,150,,121,121,12,20,8,8,0.6,0.6
2024-09-24T1600,3464A,117.3803,31.9147,合肥市,高教基地,,45,28,27,10,12,141,,120,120,6,11,4,5,0.4,0.4
2024-09-24T1600,3614A,79.924,37.0877,和田地区,地区环保局,,,150,202,,77,106,,86,86,6,12,6,8,0.6,0.6
2024-09-24T1600,3615A,79.9131,37.113,和田地区,市环保局,颗粒物(PM10),99,148,247,55,66,109,,78,78,2,26,6,8,0.4,0.7
2024-09-24T1600,2516A,108.2011,24.715,河池市,东仁乐园,,40,38,32,18,16,127,,,,6,11,7,6,0.4,0.5
2024-09-24T1600,2517A,108.0497,24.6947,河池市,市环保站,,42,32,28,21,20,134,,115,115,8,17,9,10,0.4,0.5
2024-09-24T1600,2518A,108.0983,24.6989,河池市,市疾控中心,,44,31,39,24,26,138,,118,118,10,20,11,11,0.4,0.5
2024-09-24T1600,1696A,114.6778,23.7569,河源市,源西,,18,,10,12,8,30,,46,36,11,9,4,4,0.7,0.6
2024-09-24T1600,1697A,114.6944,23.7586,河源市,东埔,,16,16,14,10,9,34,,47,40,17,15,2,2,0.8,0.7
2024-09-24T1600,1698A,114.6892,23.7233,河源市,老城,,22,22,11,12,4,37,,47,38,11,10,2,2,0.7,0.7
2024-09-24T1600,1718A,115.4208,35.2464,菏泽市,气象局,臭氧1小时,83,54,59,19,28,186,,171,171,11,26,6,9,0.3,0.4
2024-09-24T1600,1719A,115.4747,35.2375,菏泽市,市政协,臭氧1小时,68,42,58,17,31,174,,147,147,8,23,6,8,0.2,0.3
2024-09-24T1600,3374A,115.5564,35.0891,菏泽市,定陶老年大学,臭氧1小时,54,34,55,3,25,163,,144,144,11,23,7,8,0.1,0.3
2024-09-24T1600,3647A,115.4702,35.2706,菏泽市,菏泽医专,臭氧1小时,69,42,61,12,29,175,,148,148,13,34,6,7,0.4,0.5
2024-09-24T1600,2514A,111.5264,24.4172,贺州市,环保小区,,48,48,43,28,26,96,,96,96,17,13,4,6,0.8,0.7
2024-09-24T1600,2515A,111.5608,24.4078,贺州市,政协大楼,颗粒物(PM10),52,54,44,28,23,88,,100,100,15,12,5,6,0.8,0.6
2024-09-24T1600,3534A,111.4744,24.4553,贺州市,西湾,,42,42,41,29,25,91,,100,100,12,11,7,7,0.7,0.6
2024-09-24T1600,2385A,114.17,35.9019,鹤壁市,市监测站,臭氧1小时,112,75,59,37,29,223,,155,155,15,20,9,6,0.7,0.7
2024-09-24T1600,2386A,114.2956,35.7511,鹤壁市,市交警支队,臭氧1小时,105,68,63,34,27,209,,164,164,18,46,4,5,0.4,0.6
2024-09-24T1600,2387A,114.2878,35.7306,鹤壁市,迎宾馆,臭氧1小时,107,70,66,37,34,213,,158,158,22,49,10,7,0.5,0.6
2024-09-24T1600,3474A,114.2617,35.6822,鹤壁市,大新区,臭氧1小时,106,82,66,40,40,212,,155,155,20,56,11,9,0.5,0.5
2024-09-24T1600,3596A,114.1572,35.9603,鹤壁市,南山宾馆,臭氧1小时,107,55,56,46,43,214,,158,158,13,16,7,6,0.6,0.6
2024-09-24T1600,2244A,130.2537,47.3416,鹤岗市,哈啤分公司,,29,23,31,16,20,90,,71,71,8,12,16,15,0.5,0.7
2024-09-24T1600,2245A,130.2684,47.3086,鹤岗市,斯达机电,,29,28,36,13,19,92,,67,67,9,18,13,13,0.3,0.4
2024-09-24T1600,2246A,130.3114,47.3388,鹤岗市,东山纸板厂,颗粒物(PM10),63,75,68,17,25,74,,68,68,20,27,17,18,0.2,0.4
2024-09-24T1600,2247A,130.1097,47.3382,鹤岗市,五号水库,,29,18,16,8,8,90,,82,82,5,7,18,17,0.4,0.4
2024-09-24T1600,2263A,127.4833,50.2524,黑河市,交通局,,40,40,31,17,21,50,,60,60,29,14,7,7,0.5,0.4
2024-09-24T1600,2264A,127.5144,50.2341,黑河市,环保局,,24,24,24,12,14,66,,66,66,13,9,4,4,0.5,0.5
2024-09-24T1600,2265A,127.5291,50.2472,黑河市,大黑河岛,,,,,21,16,50,,53,53,30,12,2,2,0.2,0.1
2024-09-24T1600,1074A,115.6838,37.7541,衡水市,电机北厂,臭氧1小时,94,54,53,23,26,195,,165,165,8,18,9,10,0.4,0.4
2024-09-24T1600,1075A,115.6303,37.7316,衡水市,市监测站,臭氧1小时,95,54,54,14,23,196,,157,157,13,28,9,10,0.4,0.4
2024-09-24T1600,3188A,115.6683,37.7217,衡水市,市城管局,臭氧1小时,101,59,54,22,27,202,,162,162,10,23,8,8,0.3,0.4
2024-09-24T1600,3459A,115.5989,37.5491,衡水市,地表水厂,臭氧1小时,89,58,54,27,33,191,,151,151,12,36,8,8,0.4,0.4
2024-09-24T1600,2456A,112.5003,26.9167,衡阳市,原169医院,,45,32,36,21,19,143,,127,127,9,14,13,13,0.5,0.5
2024-09-24T1600,2457A,112.6194,26.9258,衡阳市,衡阳化工总厂,,47,38,45,23,27,148,,125,125,8,13,11,12,0.6,0.6
2024-09-24T1600,2458A,112.6211,26.8956,衡阳市,珠晖区环保局,,45,37,43,24,23,141,,127,127,12,15,10,10,0.7,0.8
2024-09-24T1600,2459A,112.6197,26.8733,衡阳市,市委党校,,48,34,41,21,21,152,,137,137,9,12,13,14,0.7,0.7
2024-09-24T1600,2460A,112.6006,26.8919,衡阳市,市监测站,,49,38,45,19,28,154,,135,135,7,12,10,10,0.7,0.7
2024-09-24T1600,2461A,112.5664,26.9056,衡阳市,真空机电公司,,45,35,42,21,21,144,,127,127,8,11,10,10,0.7,0.7
2024-09-24T1600,3399A,112.6703,26.882,衡阳市,师范学院,,49,40,45,24,24,154,,136,136,10,14,10,11,0.7,0.7
2024-09-24T1600,2608A,103.3772,23.3993,红河哈尼族彝族自治州,污水处理厂,,46,32,25,32,23,131,,94,94,6,11,16,18,0.5,0.5
2024-09-24T1600,2609A,103.3861,23.35,红河哈尼族彝族自治州,监测站,,,,30,,19,132,,114,114,4,12,16,13,0.5,0.5
2024-09-24T1600,3038A,103.3758,23.368,红河哈尼族彝族自治州,州图书馆,,38,24,27,13,15,120,,101,101,4,9,14,15,0.4,0.5
2024-09-24T1600,1091A,111.6572,40.8033,呼和浩特市,小召,,48,46,64,33,33,89,,88,88,29,41,8,10,0.8,0.8
2024-09-24T1600,1094A,111.7516,40.8369,呼和浩特市,如意水处理厂,颗粒物(PM10),63,76,69,32,28,99,,87,87,33,45,7,8,0.7,0.6
2024-09-24T1600,1095A,111.7276,40.8062,呼和浩特市,二十九中,颗粒物(PM10),63,76,69,26,36,102,,94,94,29,48,6,7,0.7,0.8
2024-09-24T1600,1096A,111.5512,40.7866,呼和浩特市,工大金川校区,颗粒物(PM10),56,62,73,19,34,95,,76,76,25,56,3,6,0.6,0.7
2024-09-24T1600,1097A,111.717,40.7612,呼和浩特市,化肥厂生活区,,41,41,76,20,35,113,,89,89,23,43,10,10,0.7,0.8
2024-09-24T1600,3698A,111.5968,40.8178,呼和浩特市,红旗小学,,40,39,72,28,35,97,,81,81,38,57,4,7,0.6,0.6
2024-09-24T1600,3699A,111.6518,40.8389,呼和浩特市,海东办,细颗粒物(PM2.5),72,,65,52,36,98,,78,78,38,60,6,7,0.7,0.7
2024-09-24T1600,2192A,119.7594,49.2261,呼伦贝尔市,区环保局,,25,25,44,16,18,48,,40,40,18,27,6,7,0.4,0.5
2024-09-24T1600,3061A,119.7512,49.1577,呼伦贝尔市,国华电力东,,28,28,27,15,16,66,,47,47,10,17,4,4,0.4,0.4
2024-09-24T1600,1250A,120.0751,30.8669,湖州市,城西水厂,臭氧1小时,59,37,31,19,15,167,,122,122,13,20,5,6,0.5,0.6
2024-09-24T1600,2873A,120.0875,30.8955,湖州市,仁皇山新区,,,,32,24,16,177,,121,121,15,19,,8,0.6,0.6
2024-09-24T1600,2907A,120.1844,30.8596,湖州市,吴兴区站,,42,42,28,24,14,134,,106,106,11,15,6,6,0.5,0.6
2024-09-24T1600,3562A,120.4148,30.8538,湖州市,南浔区站,颗粒物(PM10),52,53,29,26,15,134,,110,110,20,18,8,7,0.8,0.5
2024-09-24T1600,1607A,120.9092,40.7136,葫芦岛市,龙港区,臭氧1小时,53,32,33,18,20,162,,145,145,10,17,17,15,0.6,0.8
2024-09-24T1600,1608A,120.8392,40.7514,葫芦岛市,化工街,臭氧1小时,59,48,57,24,23,167,,144,144,11,44,22,20,0.6,0.7
2024-09-24T1600,1609A,120.8341,40.7073,葫芦岛市,新区,臭氧1小时,68,47,37,21,23,174,,153,153,14,33,16,13,0.6,0.8
2024-09-24T1600,1610A,120.8695,40.7677,葫芦岛市,东城区,臭氧1小时,60,45,49,20,26,168,,143,143,12,40,17,38,0.5,0.7
2024-09-24T1600,2482A,109.5981,27.5721,怀化市,林科所,,45,22,26,15,15,143,,134,134,10,12,13,16,0.3,0.4
2024-09-24T1600,2483A,109.9453,27.5444,怀化市,河西地税局,,45,28,39,14,23,144,,140,140,7,13,8,9,0.6,0.7
2024-09-24T1600,2484A,109.9781,27.5342,怀化市,市四医院,,48,27,46,18,23,152,,135,135,5,12,7,15,0.4,0.5
2024-09-24T1600,2485A,109.9972,27.5578,怀化市,监测楼,,49,32,45,17,22,156,,134,134,7,14,3,6,0.3,0.4
2024-09-24T1600,2486A,110.0394,27.583,怀化市,市委党校,,,,49,,27,150,,132,132,,18,6,16,0.4,0.6
2024-09-24T1600,1210A,119.036,33.5981,淮安市,钵池山,,35,29,34,18,20,110,,114,114,12,21,8,8,0.8,0.8
2024-09-24T1600,1211A,119.007,33.575,淮安市,北京南路,,37,36,38,19,17,116,,115,115,16,23,7,7,0.5,0.3
2024-09-24T1600,1212A,118.989,33.6067,淮安市,市监测站,,40,31,35,19,23,126,,120,120,19,32,7,7,0.5,0.5
2024-09-24T1600,1213A,119.135,33.5039,淮安市,楚州区监测站,,42,42,43,19,27,113,,117,117,14,22,6,7,0.8,0.8
2024-09-24T1600,1214A,119.0186,33.6297,淮安市,淮阴区监测站,,38,31,44,20,23,121,,117,117,17,31,4,4,0.5,0.6
2024-09-24T1600,3426A,118.8755,33.2894,淮安市,新华书店,,49,36,43,12,20,154,,135,135,12,25,8,10,0.8,0.8
2024-09-24T1600,2282A,116.8004,33.975,淮北市,监测站,,49,33,36,13,17,155,,137,137,9,16,7,8,0.5,0.5
2024-09-24T1600,2283A,116.8091,33.9007,淮北市,烈山区政府,臭氧1小时,55,33,38,17,19,164,,146,146,8,14,7,6,0.4,0.4
2024-09-24T1600,3330A,116.8873,33.9836,淮北市,杜集区检察院,臭氧1小时,63,39,49,14,21,170,,144,144,1,11,9,9,0.5,0.5
2024-09-24T1600,4017A,116.7923,33.9535,淮北市,市博物馆,臭氧1小时,52,35,39,14,21,161,,147,147,9,19,6,7,0.5,0.6
2024-09-24T1600,2277A,116.8305,32.7727,淮南市,潘集区政府,,44,44,52,23,28,134,,114,114,12,28,6,8,0.3,0.4
2024-09-24T1600,2278A,117.0067,32.6524,淮南市,师范学院,臭氧1小时,52,40,53,25,27,161,,139,139,9,21,8,8,0.5,0.5
2024-09-24T1600,2279A,116.8569,32.5951,淮南市,谢家集区政府,臭氧1小时,63,35,48,31,30,170,,130,130,14,21,8,9,0.4,0.4
2024-09-24T1600,2280A,116.8281,32.633,淮南市,八公山区政府,臭氧1小时,75,52,54,29,27,180,,135,135,11,16,8,10,0.3,0.3
2024-09-24T1600,2281A,116.6325,32.6201,淮南市,焦岗湖风景区管理处,,40,32,43,12,19,126,,102,102,5,19,6,5,0.0,0.1
2024-09-24T1600,2894A,117.0566,32.6531,淮南市,经济技术开发区消防队,臭氧1小时,67,47,48,21,15,173,,136,136,12,21,7,6,0.2,0.2
2024-09-24T1600,3329A,117.0108,32.5893,淮南市,山南新区,臭氧1小时,53,48,51,20,19,162,,139,139,12,17,3,5,0.4,0.3
2024-09-24T1600,2446A,114.9028,30.4742,黄冈市,职工中心,臭氧1小时,60,40,45,18,24,168,,151,151,8,14,8,9,0.5,0.5
2024-09-24T1600,2929A,114.8858,30.4519,黄冈市,红卫路,臭氧1小时,78,37,36,21,21,182,,154,154,22,16,10,9,0.6,0.6
2024-09-24T1600,3398A,114.9136,30.4445,黄冈市,市林业局,臭氧1小时,98,35,48,18,20,198,,164,164,19,15,10,9,0.7,0.5
2024-09-24T1600,2672A,102.0199,35.5102,黄南藏族自治州,同仁县隆务镇,,33,32,29,3,9,104,,74,74,8,5,5,7,0.4,0.4
2024-09-24T1600,2295A,118.2903,29.6963,黄山市,延安路89号,,40,40,20,6,7,120,,117,117,5,6,6,6,0.3,0.3
2024-09-24T1600,2296A,118.327,29.7178,黄山市,黄山东路89号,,35,21,22,7,8,112,,110,110,5,5,5,4,0.3,0.3
2024-09-24T1600,2297A,118.1371,30.2756,黄山市,黄山区政府5号楼,,33,33,31,15,14,101,,105,105,7,8,6,7,0.4,0.4
2024-09-24T1600,2423A,115.0601,30.2313,黄石市,沈家营,臭氧1小时,97,35,34,13,13,197,,158,158,10,15,13,16,0.5,0.5
2024-09-24T1600,2424A,115.0817,30.2006,黄石市,陈家湾,臭氧1小时,102,32,35,15,16,203,,157,157,14,13,40,12,0.9,0.9
2024-09-24T1600,2426A,114.8988,30.2019,黄石市,铁山,臭氧1小时,108,44,38,17,19,215,,174,174,9,19,9,10,0.5,0.4
2024-09-24T1600,2427A,115.0307,30.2092,黄石市,团城山,臭氧1小时,102,36,32,13,11,204,,161,161,10,12,10,13,0.6,0.6
2024-09-24T1600,3149A,115.0235,30.1578,黄石市,笔架山北路,臭氧1小时,100,31,30,15,11,200,,157,157,9,10,9,10,0.6,0.6
2024-09-24T1600,1392A,114.4183,23.0528,惠州市,河南岸金山湖子站,,19,16,9,13,6,27,,37,30,12,10,4,5,0.6,0.5
2024-09-24T1600,1393A,114.4053,23.0822,惠州市,下埔横江三路子站,,24,24,10,14,6,38,,47,37,13,10,3,3,0.7,0.7
2024-09-24T1600,1394A,114.4103,23.1142,惠州市,江北云山西路子站,,15,14,8,10,7,35,,41,35,9,7,4,4,0.6,0.6
2024-09-24T1600,1395A,114.4645,22.7833,惠州市,惠阳区承修路船湖子站,,20,15,12,14,8,54,,27,20,31,18,5,5,0.8,0.7
2024-09-24T1600,1396A,114.5317,22.7422,惠州市,大亚湾管委会子站,,12,9,13,3,7,37,,26,25,17,19,6,6,0.5,0.7
2024-09-24T1600,3314A,114.4338,22.8134,惠州市,惠阳秋长,,18,,6,12,7,40,,34,22,22,14,5,4,0.8,0.7
2024-09-24T1600,3452A,114.6517,22.775,惠州市,大亚湾霞涌,,14,6,7,3,5,44,,27,27,4,7,4,4,0.6,0.7
2024-09-24T1600,2240A,130.9762,45.3001,鸡西市,环保局,,27,15,47,3,18,84,,72,72,3,18,5,6,0.2,0.4
2024-09-24T1600,2243A,130.9429,45.3039,鸡西市,第一中学,,28,18,43,6,12,87,,76,76,4,24,5,5,0.0,0.2
2024-09-24T1600,3707A,131.0207,45.3073,鸡西市,欧美日汽修厂,,28,14,56,6,22,89,,73,73,10,19,4,6,0,0.2
2024-09-24T1600,3709A,130.9967,45.3106,鸡西市,市政设施管理处,,27,27,53,3,17,82,,71,71,12,24,6,7,0.1,0.3
2024-09-24T1600,2367A,114.9754,27.0803,吉安市,红声器材厂,,49,49,42,22,18,115,,95,95,12,14,10,16,0.7,0.7
2024-09-24T1600,2368A,114.9658,27.0999,吉安市,市森林工业局,,43,43,39,25,22,114,,92,92,14,19,9,14,0.5,0.5
2024-09-24T1600,2369A,114.99,27.1312,吉安市,市环境监测站,,38,38,39,21,19,119,,97,97,12,12,13,22,0.6,0.5
2024-09-24T1600,2370A,115.0093,27.0968,吉安市,青原区法院,,48,48,40,23,21,120,,97,97,13,18,10,17,0.7,0.7
2024-09-24T1600,1772A,126.54,43.8622,吉林市,哈达湾,,27,14,22,6,11,84,,75,75,10,22,6,6,0.4,0.5
2024-09-24T1600,1773A,126.5844,43.8358,吉林市,东局子,,26,13,17,8,8,83,,73,73,10,15,4,4,0.5,0.5
2024-09-24T1600,1774A,126.5052,43.8245,吉林市,电力学院,,26,14,37,12,20,81,,72,72,8,22,3,4,0.5,0.7
2024-09-24T1600,1775A,126.6133,43.8972,吉林市,江北,,25,19,32,8,12,80,,73,73,9,16,6,6,0.6,0.6
2024-09-24T1600,1776A,126.555,43.8306,吉林市,江南公园,,26,22,24,13,11,81,,72,72,12,21,6,6,0.5,0.6
2024-09-24T1600,1778A,126.7061,43.7133,吉林市,丰满,,24,9,8,3,4,74,,64,64,5,3,5,5,0.5,0.5
2024-09-24T1600,2868A,126.4739,43.953,吉林市,九站,,33,33,41,10,14,74,,76,76,15,25,5,9,0.5,0.6
2024-09-24T1600,1299A,116.9862,36.6114,济南市,科干所,臭氧1小时,92,46,49,20,18,193,,158,158,12,41,9,7,0.6,0.6
2024-09-24T1600,1300A,116.9376,36.665,济南市,农科所,臭氧1小时,73,42,56,15,17,178,,139,139,17,52,7,6,0.5,0.6
2024-09-24T1600,1301A,117.1265,36.6734,济南市,开发区,臭氧1小时,75,37,42,22,22,180,,146,146,16,34,7,5,0.5,0.5
2024-09-24T1600,1303A,117.0624,36.6868,济南市,省种子仓库,,,46,58,12,17,187,,156,156,,59,7,6,0.2,0.3
2024-09-24T1600,1304A,116.9489,36.6447,济南市,机床二厂,臭氧1小时,88,61,62,12,18,190,,154,154,17,45,7,5,0.7,0.8
2024-09-24T1600,1305A,117.0495,36.663,济南市,市监测站,臭氧1小时,88,44,46,17,17,190,,152,152,14,54,8,6,0.5,0.6
2024-09-24T1600,1306A,116.7675,36.5484,济南市,长清党校,臭氧1小时,101,42,39,22,18,201,,166,166,14,33,9,7,0.7,0.7
2024-09-24T1600,1616A,117.6795,36.229,济南市,技术学院,臭氧1小时,69,41,57,24,34,175,,142,142,8,32,12,10,0.5,0.9
2024-09-24T1600,1961A,117.532,36.6868,济南市,东山小学,臭氧1小时,74,42,46,17,19,179,,150,150,15,36,5,6,0.4,0.5
2024-09-24T1600,3059A,117.7161,36.2049,济南市,泰兴公司,臭氧1小时,74,44,49,22,26,179,,132,132,12,49,13,10,0.4,0.6
2024-09-24T1600,3064A,117.6867,36.2171,济南市,莱芜战役纪念馆,臭氧1小时,67,48,60,19,30,173,,135,135,12,38,8,6,0.4,0.7
2024-09-24T1600,3494A,117.1673,36.9782,济南市,济阳区政府,臭氧1小时,102,51,68,20,26,203,,142,142,14,42,9,10,0.5,0.6
2024-09-24T1600,3495A,117.1171,36.63,济南市,锦屏中学,臭氧1小时,82,37,32,12,14,185,,152,152,17,23,7,5,0.5,0.4
2024-09-24T1600,3682A,116.9814,36.6819,济南市,济南四建,臭氧1小时,72,31,54,17,23,177,,141,141,13,54,6,4,0.5,0.7
2024-09-24T1600,1653A,116.6251,35.4302,济宁市,火炬城,臭氧1小时,58,42,53,14,28,166,,140,140,8,30,12,11,0.5,0.7
2024-09-24T1600,1655A,116.5491,35.4042,济宁市,电化厂,,,64,58,12,10,163,,,,25,18,1,91,,0
2024-09-24T1600,3500A,116.5814,35.3707,济宁市,北湖一中,臭氧1小时,62,34,53,9,38,169,,144,144,12,35,6,4,0.4,0.5
2024-09-24T1600,3501A,116.8249,35.5593,济宁市,服务中心,臭氧1小时,92,54,61,22,27,193,,146,146,12,42,12,9,0.4,0.4
2024-09-24T1600,3678A,116.5907,35.4054,济宁市,市第七中学,臭氧1小时,52,36,58,12,33,161,,147,147,8,30,10,10,0.5,0.7
2024-09-24T1600,2255A,130.2751,46.8028,佳木斯市,佳纺,,31,18,33,11,14,99,,82,82,5,23,4,4,0.5,0.5
2024-09-24T1600,2256A,130.3995,46.8307,佳木斯市,发电厂,,24,20,55,8,23,74,,66,66,16,30,5,7,0.3,0.3
2024-09-24T1600,2257A,130.3258,46.7975,佳木斯市,环保局,,27,14,29,6,12,84,,72,72,13,28,9,8,0.5,0.5
2024-09-24T1600,2258A,130.3648,46.8032,佳木斯市,十一中,,26,20,35,6,18,82,,69,69,17,37,7,7,0.5,0.6
2024-09-24T1600,2259A,130.3794,46.7588,佳木斯市,四丰,,25,10,14,3,8,79,,73,73,14,14,1,1,0.2,0.2
2024-09-24T1600,1252A,120.7436,30.778,嘉兴市,清河小学,,39,36,31,14,12,124,,108,108,23,23,5,4,0.8,0.6
2024-09-24T1600,1253A,120.726,30.7478,嘉兴市,嘉兴学院,,41,36,29,23,16,130,,108,108,20,24,3,3,0.7,0.6
2024-09-24T1600,2872A,120.7846,30.7525,嘉兴市,南湖区残联,,41,32,27,21,15,131,,120,120,21,23,5,5,0.6,0.4
2024-09-24T1600,3407A,120.6916,30.7739,嘉兴市,秀洲住建,,42,36,29,17,13,133,,107,107,18,21,6,5,0.8,0.6
2024-09-24T1600,1945A,98.2908,39.7711,嘉峪关市,气象局,颗粒物(PM10),52,53,71,14,19,138,,106,106,4,26,8,22,0.2,0.6
2024-09-24T1600,2884A,98.2672,39.7978,嘉峪关市,酒钢宾馆,颗粒物(PM10),54,58,75,19,21,140,,113,113,7,25,15,39,0.4,0.6
2024-09-24T1600,3248A,98.2643,39.7724,嘉峪关市,雄关区,,43,43,64,19,22,132,,100,100,6,28,10,17,0.2,0.4
2024-09-24T1600,1383A,113.1064,22.6058,江门市,北街,细颗粒物(PM2.5),62,,14,44,13,84,,52,52,42,28,5,4,0.9,0.8
2024-09-24T1600,1384A,113.0731,22.5835,江门市,西区,,46,35,14,32,8,94,,63,63,42,29,6,5,0.7,0.5
2024-09-24T1600,1385A,113.0219,22.5311,江门市,圭峰西,细颗粒物(PM2.5),53,37,13,37,9,88,,72,72,35,21,4,3,0.8,0.7
2024-09-24T1600,1386A,113.0828,22.5947,江门市,东湖,细颗粒物(PM2.5),54,56,18,38,10,86,,56,56,37,25,5,4,0.6,0.5
2024-09-24T1600,3311A,113.1075,22.5647,江门市,江海富民,,41,41,20,21,12,87,,57,57,41,27,8,6,0.9,0.8
2024-09-24T1600,3449A,113.05,22.4667,江门市,新会银湖,细颗粒物(PM2.5),64,,12,46,13,96,,66,66,39,26,6,4,1.0,0.8
2024-09-24T1600,1828A,113.227,35.2125,焦作市,市环保局,臭氧1小时,89,76,60,36,39,191,,160,160,14,23,5,8,0.6,0.5
2024-09-24T1600,1830A,113.1992,35.2590,焦作市,影视城,臭氧1小时,105,62,50,44,39,209,,173,173,18,18,11,10,0.6,0.6
2024-09-24T1600,3169A,113.2725,35.2067,焦作市,太极体育中心,臭氧1小时,85,55,69,32,37,188,,144,144,12,23,6,7,0.6,0.7
2024-09-24T1600,3335A,113.3137,35.2641,焦作市,马村街道办,臭氧1小时,94,56,59,28,37,195,,147,147,14,21,2,4,0.3,0.5
2024-09-24T1600,3336A,113.2465,35.2373,焦作市,焦作技师学院,臭氧1小时,87,52,53,39,38,189,,150,150,12,18,9,10,0.4,0.5
2024-09-24T1600,3477A,113.1656,35.2539,焦作市,中站许衡医院,臭氧1小时,103,59,53,30,35,205,,166,166,20,32,9,8,0.4,0.5
2024-09-24T1600,3981A,113.2449,35.1803,焦作市,原李万街道办,臭氧1小时,83,45,66,22,40,186,,142,142,20,29,8,8,0.3,0.4
2024-09-24T1600,1708A,116.3701,23.5345,揭阳市,新兴,,,,16,10,8,33,,47,47,19,14,4,4,0.6,0.7
2024-09-24T1600,1709A,116.3264,23.5443,揭阳市,西马,,15,,15,10,7,35,,45,45,16,11,5,5,0.5,0.6
2024-09-24T1600,1710A,116.3611,23.5626,揭阳市,东兴,,,,17,6,7,46,,54,54,9,14,3,3,0.8,0.9
2024-09-24T1600,1711A,116.4151,23.5294,揭阳市,渔湖,,,,17,2,6,43,,47,47,8,13,3,4,0.5,0.6
2024-09-24T1600,3320A,116.403,23.5699,揭阳市,曲溪,,13,12,11,3,8,40,,55,55,14,19,2,5,0.5,0.6
2024-09-24T1600,1944A,102.1692,38.5167,金昌市,天庆家园,颗粒物(PM10),135,219,272,46,70,114,,100,100,3,17,9,13,0.4,0.4
2024-09-24T1600,3170A,102.1864,38.5253,金昌市,市委党校,颗粒物(PM10),118,186,323,44,70,113,,100,99,4,17,5,9,0.6,0.6
2024-09-24T1600,4022A,102.1647,38.5371,金昌市,金川区人防中心,颗粒物(PM10),135,220,304,38,65,98,,85,85,3,14,8,9,0.5,0.5
2024-09-24T1600,1262A,119.647,29.077,金华市,十五中,,43,39,31,30,19,105,,96,96,28,19,2,2,0.6,0.6
2024-09-24T1600,1263A,119.686,29.1029,金华市,监测站,,35,34,29,24,19,102,,87,87,29,21,2,2,0.7,0.7
2024-09-24T1600,3659A,119.656,29.1131,金华市,气象局,,39,38,29,27,21,67,,86,84,39,21,5,4,0.6,0.6
2024-09-24T1600,1767A,121.1115,41.0879,锦州市,南山,颗粒物(PM10),57,64,43,31,36,162,,136,136,13,41,18,13,0.8,1
2024-09-24T1600,1768A,121.0533,40.8434,锦州市,开发区,颗粒物(PM10),92,134,81,32,31,149,,130,130,22,47,15,26,0.9,1.2
2024-09-24T1600,1769A,121.1836,41.1119,锦州市,百股街道,,50,50,39,17,21,159,,140,140,10,27,14,16,0.7,0.9
2024-09-24T1600,1770A,121.1178,41.1222,锦州市,天安街道,颗粒物(PM10),60,69,51,26,36,160,,140,140,14,42,18,15,0.8,0.9
2024-09-24T1600,1771A,121.1303,41.1386,锦州市,北湖公园,臭氧1小时,65,56,44,24,36,172,,145,145,14,33,18,14,0.8,0.9
2024-09-24T1600,2160A,112.85,35.5051,晋城市,自来水公司,臭氧1小时,109,68,70,34,40,217,,143,143,19,34,14,11,1.0,1.1
2024-09-24T1600,2161A,112.8318,35.4936,晋城市,白云商贸,臭氧1小时,110,64,77,44,42,220,,146,146,21,32,13,9,0.9,1.1
2024-09-24T1600,2162A,112.8508,35.4887,晋城市,市环保局,臭氧1小时,109,88,68,41,38,218,,142,142,22,42,12,9,0.8,1
2024-09-24T1600,2163A,112.8676,35.4897,晋城市,技术学院,臭氧1小时,110,87,72,41,36,219,,139,139,23,41,14,10,0.8,0.9
2024-09-24T1600,3620A,112.8271,35.4828,晋城市,泽州一中,臭氧1小时,106,66,71,39,44,212,,133,133,25,33,16,11,0.9,1.1
2024-09-24T1600,2171A,112.7532,37.6945,晋中市,锦纶小区,臭氧1小时,90,70,72,34,38,192,,140,140,14,25,12,10,0.6,0.7
2024-09-24T1600,2173A,112.7249,37.7067,晋中市,南都小区,臭氧1小时,92,50,67,31,38,193,,142,142,15,31,10,9,1.0,1.1
2024-09-24T1600,2174A,112.6991,37.6982,晋中市,榆次区政府,臭氧1小时,98,66,70,27,36,198,,157,157,14,27,11,10,0.6,0.6
2024-09-24T1600,2865A,112.7195,37.6828,晋中市,榆次三中,臭氧1小时,93,61,73,27,35,194,,140,140,13,26,13,11,0.8,0.9
2024-09-24T1600,2439A,112.2014,31.0481,荆门市,竹园小学,,,55,69,28,27,192,,158,158,13,25,,12,,0.6
2024-09-24T1600,2440A,112.1969,30.9891,荆门市,掇刀,臭氧1小时,89,49,55,28,24,191,,176,176,16,17,16,6,0.5,0.5
2024-09-24T1600,2441A,112.2213,31.0386,荆门市,石化一小,臭氧1小时,92,59,70,33,28,193,,162,162,11,21,15,18,0.3,0.4
2024-09-24T1600,3012A,112.1849,31.0362,荆门市,西山林语,臭氧1小时,95,67,55,25,24,196,,163,163,12,15,13,10,0.7,0.7
2024-09-24T1600,3547A,112.1632,31.0138,荆门市,龙泉中学南校,臭氧1小时,97,56,57,28,26,197,,166,166,16,23,13,12,0.5,0.5
2024-09-24T1600,1844A,112.2494,30.3197,荆州市,市图书馆,臭氧1小时,102,44,71,25,52,203,,160,160,18,29,10,12,0.6,0.7
2024-09-24T1600,1845A,112.2008,30.3544,荆州市,市委党校,臭氧1小时,104,39,83,26,69,207,,161,161,14,30,9,12,0.5,0.7
2024-09-24T1600,3194A,112.2747,30.3122,荆州市,管委会,臭氧1小时,99,43,70,26,55,199,,161,161,17,34,10,11,0.6,0.7
2024-09-24T1600,3548A,112.1655,30.3364,荆州市,学苑路,臭氧1小时,107,55,96,28,69,213,,166,166,15,28,9,10,0.5,0.7
2024-09-24T1600,2343A,117.2117,29.2933,景德镇市,老干部活动中心,,32,16,17,10,12,101,,84,84,8,10,10,7,0.5,0.4
2024-09-24T1600,2344A,117.1894,29.2789,景德镇市,兽医站,,36,23,21,16,10,114,,90,90,10,7,13,8,0.6,0.5
2024-09-24T1600,2345A,117.1547,29.2617,景德镇市,台达陶瓷,,42,42,21,17,8,112,,89,89,14,10,17,10,0.5,0.4
2024-09-24T1600,2346A,117.2461,29.2956,景德镇市,陶研所,,31,14,14,3,6,98,,89,89,7,9,7,6,0.4,0.4
2024-09-24T1600,1803A,115.9872,29.6815,九江市,十里,,47,33,33,6,13,150,,124,124,9,13,8,10,0.5,0.5
2024-09-24T1600,1804A,115.9584,29.7046,九江市,茅山头,,44,19,28,11,16,139,,117,117,12,14,6,8,0.6,0.6
2024-09-24T1600,1805A,115.9877,29.7295,九江市,西园,,45,32,28,9,13,141,,129,129,19,12,10,11,0.4,0.5
2024-09-24T1600,1806A,116.0172,29.6547,九江市,五七二七厂,,44,23,31,16,21,138,,125,125,11,12,10,11,0.5,0.6
2024-09-24T1600,1808A,115.9114,29.6038,九江市,综合工业园,,48,24,32,14,17,151,,134,134,17,21,13,16,0.4,0.4
2024-09-24T1600,1809A,116.0721,29.7535,九江市,石化总厂,,39,33,35,9,16,124,,112,112,13,14,9,9,0.4,0.5
2024-09-24T1600,1810A,115.9773,29.5698,九江市,庐山气象台,,46,33,27,18,20,145,,127,127,6,6,6,10,0.6,0.8
2024-09-24T1600,3190A,116.0254,29.6994,九江市,外国语学校,,46,20,32,9,12,147,,125,125,12,14,19,16,0.2,0.3
2024-09-24T1600,2658A,98.5061,39.7443,酒泉市,仓门街子站,颗粒物(PM10),53,56,51,14,17,123,,102,102,5,10,16,11,0.3,0.3
2024-09-24T1600,2659A,98.4989,39.7256,酒泉市,油田生活基地,颗粒物(PM10),54,58,59,19,22,128,,101,101,6,14,12,10,0.3,0.3
2024-09-24T1600,2698A,76.0072,39.4467,喀什地区,巡警大队,颗粒物(PM10),82,114,143,22,36,102,,70,70,6,42,5,6,0.4,0.8
2024-09-24T1600,2699A,75.9755,39.4694,喀什地区,吾办,颗粒物(PM10),81,112,130,36,52,100,,64,64,11,41,6,6,0.4,0.7
2024-09-24T1600,4027A,75.9483,39.4689,喀什地区,老干局,颗粒物(PM10),82,113,159,21,30,97,,68,68,6,32,6,5,0.4,0.6
2024-09-24T1600,1824A,114.3389,34.7781,开封市,肿瘤医院,臭氧1小时,98,66,80,30,49,198,,154,154,13,33,8,8,0.4,0.4
2024-09-24T1600,1826A,114.2885,34.7965,开封市,世纪星幼儿园,臭氧1小时,106,69,68,22,30,212,,163,163,8,20,8,8,0.6,0.6
2024-09-24T1600,3147A,114.3438,34.8106,开封市,龙亭公园,臭氧1小时,101,72,74,22,36,202,,162,162,14,28,5,6,0.5,0.6
2024-09-24T1600,3210A,114.3644,34.7964,开封市,汴京公园,臭氧1小时,92,62,76,21,43,193,,153,153,12,32,7,8,0.6,0.7
2024-09-24T1600,3473A,114.2485,34.8306,开封市,技师学院,臭氧1小时,101,74,63,21,27,202,,161,161,13,19,9,10,0.4,0.4
2024-09-24T1600,3592A,114.4644,34.7556,开封市,祥符区生态环境局,臭氧1小时,79,49,83,22,44,183,,148,148,16,54,8,8,0.4,0.5
2024-09-24T1600,1951A,84.895,45.6094,克拉玛依市,长征新村,,38,38,30,3,6,78,,71,51,14,10,7,6,0.2,0.2
2024-09-24T1600,1952A,84.8988,45.5893,克拉玛依市,南林小区,,34,34,30,3,13,80,,71,47,10,12,9,9,0.4,0.4
2024-09-24T1600,1954A,84.905,44.3396,克拉玛依市,独山子区,,42,42,45,14,16,128,,92,92,7,16,10,9,0.3,0.4
2024-09-24T1600,1955A,85.6979,46.098,克拉玛依市,乌尔禾区商贸楼,,29,21,30,6,6,92,,65,56,5,10,18,15,0.2,0.2
2024-09-24T1600,3612A,85.1045,45.6899,克拉玛依市,白碱滩区新站,,43,43,32,12,10,91,,72,54,13,12,8,8,0.1,0.2
2024-09-24T1600,2697A,76.1454,39.7142,克孜勒苏柯尔克孜自治州,市人民政府,颗粒物(PM10),75,99,85,35,31,111,,86,86,1,14,3,5,0.4,0.5
2024-09-24T1600,3665A,76.1658,39.7157,克孜勒苏柯尔克孜自治州,克州文化中心,颗粒物(PM10),73,96,90,36,32,111,,94,94,2,12,6,9,0.4,0.5
2024-09-24T1600,1450A,102.8204,24.8886,昆明市,呈贡新区,,49,49,39,21,24,126,,90,90,10,24,4,5,0.5,0.6
2024-09-24T1600,1452A,102.7252,25.0902,昆明市,龙泉镇,,49,32,32,24,18,156,,105,105,14,22,7,7,0.8,0.8
2024-09-24T1600,1453A,102.7266,25.0375,昆明市,东风东路,,45,36,37,27,21,144,,107,107,14,24,5,7,0.4,0.5
2024-09-24T1600,1454A,102.6742,25.0669,昆明市,金鼎山,,46,35,34,22,18,145,,104,104,20,21,4,8,0.5,0.5
2024-09-24T1600,1455A,102.6644,25.0401,昆明市,碧鸡广场,,45,27,34,12,19,141,,104,104,14,20,6,8,0.6,0.6
2024-09-24T1600,3179A,102.7494,25.0119,昆明市,官渡区博物馆,,48,33,35,25,20,152,,108,108,10,32,6,7,0.4,0.6
2024-09-24T1600,3375A,102.8017,24.8336,昆明市,青年创业园,,41,31,31,23,24,129,,96,96,7,24,4,4,0.5,0.4
2024-09-24T1600,3550A,102.7997,24.9786,昆明市,昆明学院,,45,35,44,20,27,141,,96,96,14,28,6,7,0.4,0.5
2024-09-24T1600,3551A,102.5967,24.6736,昆明市,晋宁区生态环境分局,,44,38,35,14,26,138,,110,110,7,17,2,4,0.5,0.6
2024-09-24T1600,3552A,102.6678,24.9856,昆明市,云天化总部,,45,25,32,15,21,143,,87,87,7,20,5,6,0.5,0.6
2024-09-24T1600,1456A,91.1319,29.6514,拉萨市,八廓街,,39,10,10,6,7,122,,98,98,5,13,9,7,0.2,0.1
2024-09-24T1600,1457A,91.1221,29.6747,拉萨市,市环保局,,,11,13,3,7,117,,89,89,10,16,,8,,0.4
2024-09-24T1600,1458A,91.0874,29.6475,拉萨市,区监测站,,36,6,11,3,7,113,,83,83,6,18,6,6,0.3,0.4
2024-09-24T1600,1459A,91.1774,29.6541,拉萨市,西藏大学,,36,6,9,3,6,115,,90,90,3,9,7,6,0.4,0.4
2024-09-24T1600,1460A,90.9798,29.6588,拉萨市,区辐射站,,,8,13,6,7,121,,83,83,14,17,,9,0.1,0.2
2024-09-24T1600,1461A,91.0834,29.6292,拉萨市,拉萨火车站,,35,6,10,3,7,111,,81,81,4,14,6,6,0.2,0.3
2024-09-24T1600,2520A,109.2203,23.7256,来宾市,来宾技工学校,,38,38,35,20,20,116,,105,105,10,12,6,7,0.6,0.6
2024-09-24T1600,3535A,109.1781,23.7297,来宾市,兴宾区政府,,39,34,33,21,20,122,,110,110,8,8,7,8,0.7,0.6
2024-09-24T1600,4002A,109.2416,23.7461,来宾市,中南小学,,39,39,37,22,20,117,,109,109,9,14,9,10,0.7,0.6
2024-09-24T1600,1476A,103.631,36.1031,兰州市,兰炼宾馆,颗粒物(PM10),61,71,62,23,31,137,,99,99,4,43,18,16,0.4,0.7
2024-09-24T1600,1478A,103.8412,36.0726,兰州市,生物制品所,,49,49,60,32,33,120,,76,76,9,47,14,14,0.3,0.7
2024-09-24T1600,1479A,103.831,36.0464,兰州市,铁路设计院,,42,42,65,28,38,119,,74,74,14,65,12,16,0.3,1
2024-09-24T1600,3186A,103.7158,36.1058,兰州市,教育港,颗粒物(PM10),77,104,70,35,33,138,,94,94,4,40,20,13,0.4,0.7
2024-09-24T1600,3241A,103.7439,36.0842,兰州市,百合公园,颗粒物(PM10),54,58,53,22,26,143,,97,97,7,47,24,14,0.5,0.8
2024-09-24T1600,3242A,103.9611,35.998,兰州市,和平,,42,42,50,16,22,118,,87,87,6,20,13,17,0.2,0.5
2024-09-24T1600,3245A,103.6633,36.533,兰州新区,新区管委会,颗粒物(PM10),62,74,58,29,24,120,,91,91,5,25,9,20,0.3,0.4
2024-09-24T1600,3246A,103.6975,36.4789,兰州新区,舟曲中学,颗粒物(PM10),68,86,58,22,19,122,,95,95,7,27,6,19,0.3,0.4
2024-09-24T1600,1067A,116.6708,39.5111,廊坊市,药材公司,臭氧1小时,82,66,92,37,50,185,,133,133,13,40,6,7,0.5,0.6
2024-09-24T1600,1068A,116.7214,39.5589,廊坊市,开发区,臭氧1小时,88,70,70,30,36,190,,143,143,16,34,6,4,0.4,0.5
2024-09-24T1600,1070A,116.7244,39.5269,廊坊市,北华航天学院,臭氧1小时,90,72,82,29,40,192,,145,145,12,34,6,7,0.5,0.5
2024-09-24T1600,2919A,116.7022,39.5453,廊坊市,河北工业大学,臭氧1小时,93,64,73,40,46,194,,144,144,12,30,6,7,0.4,0.5
2024-09-24T1600,2535A,103.7723,29.5462,乐山市,花湖湾,,48,30,59,23,33,151,,88,88,10,25,2,3,0.7,0.7
2024-09-24T1600,2536A,103.7627,29.5844,乐山市,牛耳桥,,49,42,56,32,42,154,,104,104,13,29,6,6,0.6,0.7
2024-09-24T1600,2537A,103.7508,29.6006,乐山市,市第三水厂,臭氧1小时,55,56,63,34,47,164,,106,106,12,29,5,7,0.5,0.6
2024-09-24T1600,2538A,103.7571,29.5664,乐山市,市监测站,细颗粒物(PM2.5),53,47,61,37,46,152,,97,97,8,21,6,6,0.5,0.6
2024-09-24T1600,3361A,103.7311,29.5628,乐山市,理工大学,臭氧1小时,65,47,55,38,45,172,,97,97,8,24,3,3,0.7,0.8
2024-09-24T1600,2599A,100.2497,26.8802,丽江市,丽江古城,,37,37,29,24,21,87,,78,78,17,13,10,10,0.7,0.7
2024-09-24T1600,2600A,100.2203,26.8906,丽江市,市中心,,27,20,22,11,17,84,,76,76,10,12,9,9,0.6,0.6
2024-09-24T1600,1267A,119.914,28.4514,丽水市,监测站大楼,,25,,7,11,4,77,,62,62,8,10,4,4,0.4,0.4
2024-09-24T1600,1268A,119.93,28.4586,丽水市,莲都小学,,25,19,7,12,5,79,,66,66,11,13,4,4,0.6,0.5
2024-09-24T1600,1269A,119.879,28.4231,丽水市,余庄前,,23,21,11,11,5,72,,61,61,13,10,4,4,0.4,0.3
2024-09-24T1600,1173A,119.176,34.5885,连云港市,市环境监测站,,45,29,41,14,18,142,,132,132,16,30,6,8,0.3,0.6
2024-09-24T1600,3000A,119.3581,34.6972,连云港市,德源药业,,40,,40,19,18,128,,124,124,13,35,5,6,0.2,0.4
2024-09-24T1600,3007A,119.178,34.844,连云港市,新城一中,,45,41,47,3,19,142,,136,136,11,38,4,9,0.4,1
2024-09-24T1600,3008A,119.3608,34.7519,连云港市,胡沟管理处,,40,19,36,7,15,125,,131,131,5,33,6,10,0.3,0.5
2024-09-24T1600,3009A,119.1478,34.5911,连云港市,矿山设计院,,45,29,43,14,21,144,,131,131,11,32,5,7,0.6,0.8
2024-09-24T1600,3434A,119.2413,34.6539,连云港市,工贸学校,,44,17,30,7,15,139,,136,136,15,21,7,9,0.6,0.8
2024-09-24T1600,3664A,119.4172,34.7341,连云港市,连云街道,,40,14,28,6,13,127,,132,132,15,18,5,5,0.3,0.5
2024-09-24T1600,2571A,102.3431,27.8099,凉山彝族自治州,青龙寺,,38,22,18,14,8,119,,42,,4,5,5,5,0.5,0.5
2024-09-24T1600,2572A,102.2721,27.8415,凉山彝族自治州,邛海宾馆,,36,34,27,22,17,114,,80,80,9,13,6,9,0.6,0.6
2024-09-24T1600,2573A,102.2625,27.898,凉山彝族自治州,西昌市政府,,42,33,26,29,19,106,,64,64,10,8,10,8,0.7,0.6
2024-09-24T1600,2574A,102.2685,27.8851,凉山彝族自治州,凉山州政府,,42,42,20,29,14,110,,72,72,11,10,8,6,0.9,0.9
2024-09-24T1600,2575A,102.237,27.8914,凉山彝族自治州,长安,,32,29,27,18,14,101,,56,56,12,15,10,9,0.8,0.8
2024-09-24T1600,2212A,123.2,41.1953,辽阳市,宏伟区,,29,,30,10,17,92,,86,86,6,16,9,12,0.3,0.6
2024-09-24T1600,2213A,123.1683,41.2495,辽阳市,新华园,,32,32,39,19,22,84,,79,79,11,27,8,11,0.4,0.7
2024-09-24T1600,2214A,123.2354,41.2639,辽阳市,滨河路,,28,26,33,13,15,89,,87,87,11,20,10,12,0.4,0.6
2024-09-24T1600,2215A,123.149,41.2991,辽阳市,铁西工业园,,28,28,41,10,18,87,,90,90,8,23,10,12,0.6,0.8
2024-09-24T1600,2227A,125.1358,42.8845,辽源市,环保局,,32,18,27,3,11,100,,85,85,2,18,7,8,0.4,0.7
2024-09-24T1600,3239A,125.0764,42.9078,辽源市,银鹰制药,,29,11,22,10,14,92,,84,84,8,22,5,6,0.5,0.4
2024-09-24T1600,1625A,115.9848,36.4372,聊城市,区政府,臭氧1小时,93,59,64,23,31,194,,161,161,16,35,12,13,0.4,0.5
2024-09-24T1600,2878A,116.0072,36.4343,聊城市,聊大东校,臭氧1小时,102,58,67,38,38,204,,176,176,17,37,13,12,0.4,0.5
2024-09-24T1600,3200A,115.9819,36.4978,聊城市,监控中心,臭氧1小时,98,58,73,24,41,198,,162,162,16,65,10,11,0.2,0.4
2024-09-24T1600,3513A,116.0445,36.4361,聊城市,九州社区,臭氧1小时,102,41,66,22,31,204,,163,163,10,36,6,8,0.5,0.6
2024-09-24T1600,4018A,116.0567,36.4608,聊城市,星美广场,臭氧1小时,101,55,60,25,33,202,,164,164,11,32,8,18,0.3,0.5
2024-09-24T1600,2632A,94.3681,29.6376,林芝市,林芝监测站,,22,8,8,3,5,70,,59,59,2,4,9,10,0.2,0.2
2024-09-24T1600,2633A,94.3616,29.6616,林芝市,林芝人民医院,,23,6,8,3,5,73,,58,58,4,7,8,8,0.2,0.2
2024-09-24T1600,2603A,100.0781,23.8982,临沧市,市环保局,,25,15,20,9,14,77,,63,63,7,10,5,4,0.3,0.4
2024-09-24T1600,2604A,100.0894,23.8822,临沧市,市气象局,,25,,19,12,18,77,,70,70,6,9,5,5,0.3,0.4
2024-09-24T1600,1733A,111.5531,36.0783,临汾市,临钢医院,臭氧1小时,70,54,75,16,29,176,,124,124,16,33,6,6,0.6,0.8
2024-09-24T1600,1734A,111.5028,36.0714,临汾市,技工学校,臭氧1小时,84,46,71,29,38,187,,137,137,13,34,6,7,0.6,0.7
2024-09-24T1600,1736A,111.5018,36.0855,临汾市,市委,,,,74,,30,194,,148,148,10,34,8,8,,0.8
2024-09-24T1600,3018A,111.505,36.1014,临汾市,唐尧大酒店,臭氧1小时,64,63,72,31,33,171,,129,129,20,35,6,6,0.7,0.9
2024-09-24T1600,3668A,111.5036,36.0414,临汾市,城南,臭氧1小时,90,59,89,28,44,192,,3,,12,43,8,7,0.8,0.9
2024-09-24T1600,2667A,103.2069,35.5993,临夏回族自治州,环保局,,40,34,38,13,15,126,,72,72,6,20,11,9,0.5,0.6
2024-09-24T1600,2668A,103.2417,35.6057,临夏回族自治州,建设大厦,,41,35,43,15,18,129,,78,78,6,16,13,10,0.5,0.5
2024-09-24T1600,1618A,118.3429,35.0532,临沂市,沂河小区,臭氧1小时,63,46,60,23,26,170,,139,139,11,26,9,11,0.4,0.6
2024-09-24T1600,1619A,118.295,35.0583,临沂市,鲁南制药厂,,50,46,54,21,33,157,,125,125,11,28,8,14,0.5,0.6
2024-09-24T1600,1620A,118.2794,34.9976,临沂市,新光毛纺厂,臭氧1小时,65,36,54,17,29,172,,145,145,16,36,6,13,0.6,0.7
2024-09-24T1600,1621A,118.3956,35.0888,临沂市,河东保险公司,臭氧1小时,93,39,57,24,30,194,,149,149,19,51,9,9,0.7,0.9
2024-09-24T1600,3370A,118.3564,35.0215,临沂市,十里堡居委,臭氧1小时,60,31,53,19,31,168,,143,143,11,29,10,12,0.6,0.9
2024-09-24T1600,3496A,118.3604,35.1084,临沂市,南坊新区,臭氧1小时,98,46,57,17,29,198,,148,148,16,35,10,12,0.6,0.8
2024-09-24T1600,3860A,118.3920,35.0300,临沂市,皇山花园小区,,50,41,64,21,38,158,,138,138,14,43,9,12,0.4,0.6
2024-09-24T1600,1870A,109.4856,24.3895,柳州市,柳东小学,,41,36,32,24,19,130,,119,119,7,7,10,9,0.6,0.6
2024-09-24T1600,1871A,109.4157,24.3277,柳州市,环保监测站,,44,44,34,24,19,131,,121,121,8,7,10,9,0.8,0.8
2024-09-24T1600,1872A,109.389,24.341,柳州市,河西水厂,,44,44,40,22,20,126,,117,117,6,7,8,8,0.8,0.8
2024-09-24T1600,1873A,109.4311,24.2921,柳州市,市四中,,43,40,30,19,16,135,,128,128,9,7,10,8,0.9,0.8
2024-09-24T1600,1874A,109.4006,24.3631,柳州市,市九中,,46,46,42,24,20,129,,119,119,9,9,8,7,0.8,0.7
2024-09-24T1600,1875A,109.4958,24.3134,柳州市,古亭山,,42,42,32,24,17,132,,128,128,12,11,11,9,0.8,0.7
2024-09-24T1600,3402A,109.5422,24.3996,柳州市,市二中,,43,37,32,26,19,136,,126,126,13,12,10,9,0.5,0.5
2024-09-24T1600,2307A,116.5079,31.737,六安市,监测大楼,,50,28,34,14,18,158,,121,121,10,16,5,5,0.4,0.4
2024-09-24T1600,2308A,116.4738,31.7643,六安市,皖西学院,臭氧1小时,53,41,46,21,20,162,,125,125,10,17,5,6,0.2,0.2
2024-09-24T1600,2309A,116.4996,31.7905,六安市,朝阳厂,,49,30,38,14,18,155,,121,121,7,17,1,1,0.3,0.3
2024-09-24T1600,2310A,116.5567,31.7886,六安市,开发区,,,43,49,13,22,153,,123,123,9,19,,2,0.5,0.4
2024-09-24T1600,2577A,104.83,26.5917,六盘水市,黄土坡,,34,23,25,18,20,108,,94,94,15,11,18,8,1.1,0.6
2024-09-24T1600,2578A,104.89,26.5939,六盘水市,水钢,,36,27,38,10,22,115,,82,82,7,15,10,11,0.3,0.7
2024-09-24T1600,2579A,104.8475,26.5894,六盘水市,民中,,34,19,27,12,18,107,,88,88,14,14,15,10,0.8,0.6
2024-09-24T1600,2580A,104.9544,26.5506,六盘水市,双水,,42,36,36,17,20,132,,100,100,8,14,13,11,0.3,0.5
2024-09-24T1600,2336A,117.0217,25.1033,龙岩市,龙岩市监测站,,14,8,9,6,7,42,,52,52,8,12,6,6,0.4,0.6
2024-09-24T1600,2337A,117.0258,25.0661,龙岩市,闽西职业技术学院,,13,9,8,3,6,41,,46,46,6,8,3,3,0.4,0.6
2024-09-24T1600,2338A,117.0196,25.0306,龙岩市,龙岩学院,,13,12,9,3,7,39,,44,44,4,8,5,3,0.4,0.5
2024-09-24T1600,2885A,104.9339,33.3826,陇南市,滨江中学,,42,42,44,22,18,82,,68,68,8,13,8,9,0.7,0.7
2024-09-24T1600,3247A,104.955,33.371,陇南市,市总工会,,34,34,36,13,10,86,,71,71,5,8,9,9,0.4,0.5
2024-09-24T1600,2487A,111.9589,27.8901,娄底市,电视发射台,,46,39,40,23,23,146,,132,132,6,7,5,5,0.4,0.4
2024-09-24T1600,2488A,111.9975,27.725,娄底市,市监测站,,,63,56,43,36,158,,148,148,5,20,8,17,,1.1
2024-09-24T1600,2489A,112.0194,27.7314,娄底市,市委党校,,46,44,53,24,33,145,,136,136,6,14,5,9,0.6,0.9
2024-09-24T1600,2490A,111.9561,27.7569,娄底市,涟钢,,40,35,51,17,32,126,,114,114,14,15,10,6,0.6,0.7
2024-09-24T1600,2491A,111.9892,27.7044,娄底市,市政府,,48,39,46,28,30,152,,139,139,7,12,8,7,0.4,0.4
2024-09-24T1600,1893A,105.4324,28.9634,泸州市,九狮山,臭氧1小时,82,45,82,33,53,185,,131,131,12,22,5,5,0.4,0.5
2024-09-24T1600,1894A,105.4427,28.9063,泸州市,小市上码头,臭氧1小时,68,39,62,21,45,174,,131,131,11,22,4,4,0.5,0.7
2024-09-24T1600,1895A,105.4241,28.8573,泸州市,兰田宪桥,臭氧1小时,64,37,56,27,47,171,,131,131,8,17,4,5,0.4,0.6
2024-09-24T1600,1896A,105.4379,28.8833,泸州市,市环监站,,50,19,61,19,52,158,,127,127,12,22,6,7,0.5,0.7
2024-09-24T1600,3490A,105.3617,28.7703,泸州市,纳溪区环保局,臭氧1小时,60,39,56,32,48,168,,119,119,8,30,4,6,0.6,0.7
2024-09-24T1600,2183A,111.1406,37.5211,吕梁市,环保局,,49,44,68,21,27,154,,105,105,12,35,7,6,0.5,0.6
2024-09-24T1600,2185A,111.1297,37.5136,吕梁市,自来水公司,,49,43,72,24,27,154,,128,128,12,33,6,5,0.5,0.5
2024-09-24T1600,2867A,111.1283,37.51,吕梁市,马茂庄小学,"颗粒物(PM10),臭氧1小时",52,53,76,28,27,161,,107,107,13,40,5,5,0.6,0.7
2024-09-24T1600,1812A,112.3931,34.6516,洛阳市,市委党校,臭氧1小时,77,55,77,37,50,181,,144,144,9,34,8,9,0.5,0.6
2024-09-24T1600,1814A,112.4657,34.6871,洛阳市,豫西宾馆,臭氧1小时,77,65,80,27,42,181,,140,140,7,32,10,11,0.4,0.5
2024-09-24T1600,1815A,112.494,34.6886,洛阳市,河南林校,臭氧1小时,78,48,72,37,47,182,,140,140,11,29,8,8,0.6,0.7
2024-09-24T1600,1816A,112.3844,34.623,洛阳市,开发区管委会,臭氧1小时,80,52,74,36,52,184,,150,150,10,25,4,4,0.3,0.5
2024-09-24T1600,1817A,112.4267,34.6258,洛阳市,市委新办公区,臭氧1小时,73,49,74,35,54,178,,138,138,5,20,6,5,0.5,0.6
2024-09-24T1600,3340A,112.6005,34.6326,洛阳市,伊滨,臭氧1小时,84,64,79,34,55,187,,148,148,12,31,22,11,0.6,0.7
2024-09-24T1600,3341A,112.4951,34.6332,洛阳市,中移产业园,臭氧1小时,88,47,75,27,51,190,,148,148,10,29,9,6,0.4,0.5
2024-09-24T1600,3593A,112.5736,34.8993,洛阳市,吉利监测站,臭氧1小时,85,63,64,25,35,188,,150,150,8,32,5,6,0.1,0.3
2024-09-24T1600,3635A,112.3677,34.662,洛阳市,河科大西苑校区,臭氧1小时,75,57,75,30,47,180,,135,135,9,33,5,8,0.5,0.6
2024-09-24T1600,3636A,112.4388,34.6781,洛阳市,英才小学,臭氧1小时,83,56,83,34,44,186,,141,141,11,36,5,6,0.5,0.6
2024-09-24T1600,2399A,114.051,33.5699,漯河市,三五一五工厂,臭氧1小时,84,66,96,29,56,187,,154,154,10,33,8,10,0.5,0.6
2024-09-24T1600,2400A,114.0055,33.5698,漯河市,漯河大学,臭氧1小时,89,67,90,29,50,191,,151,151,14,29,6,8,0.5,0.6
2024-09-24T1600,2401A,114.0138,33.5828,漯河市,市水利局,臭氧1小时,87,68,92,27,48,189,,156,156,8,27,6,9,0.4,0.9
2024-09-24T1600,2402A,114.0261,33.5698,漯河市,市广电局,臭氧1小时,88,61,85,32,52,190,,154,154,10,26,11,13,0.5,0.6
2024-09-24T1600,3478A,113.9749,33.5664,漯河市,市图书馆,臭氧1小时,94,84,89,21,45,195,,147,147,11,35,4,5,0.5,0.6
2024-09-24T1600,3479A,114.0967,33.5906,漯河市,召陵区卫健委,臭氧1小时,82,73,100,26,53,185,,157,157,10,36,9,12,0.6,0.8
2024-09-24T1600,1798A,118.5092,31.6837,马鞍山市,湖东路四小,臭氧1小时,60,24,33,13,14,168,,140,140,16,20,10,8,0.7,0.6
2024-09-24T1600,1799A,118.5024,31.6449,马鞍山市,开发区,臭氧1小时,59,39,32,17,15,167,,138,138,25,22,13,8,1.0,0.8
2024-09-24T1600,1800A,118.5228,31.7231,马鞍山市,慈湖,臭氧1小时,52,25,27,14,15,161,,139,139,14,23,9,8,0.9,0.9
2024-09-24T1600,1802A,118.6245,31.7241,马鞍山市,濮塘,,,,,13,12,188,,140,140,11,12,10,8,0.8,0.7
2024-09-24T1600,3633A,118.4918,31.6809,马鞍山市,雨山,,49,43,32,15,15,156,,142,142,17,19,14,10,1.1,0.7
2024-09-24T1600,1686A,111.0286,21.4688,茂名市,电白南海,,22,22,17,3,5,52,,46,41,8,8,9,10,0.6,0.7
2024-09-24T1600,1687A,110.9294,21.6533,茂名市,茂石化七小,,14,9,13,7,8,44,,39,39,12,11,10,10,0.8,0.8
2024-09-24T1600,1688A,110.9107,21.6687,茂名市,健康路,,15,,11,7,6,46,,44,44,10,8,14,22,0.8,0.8
2024-09-24T1600,1689A,110.8592,21.6828,茂名市,高岭,,15,,12,9,10,46,,45,45,10,11,10,11,0.8,0.9
2024-09-24T1600,3450A,111.01,21.5165,茂名市,电白水东,,18,,6,12,6,47,,42,39,11,10,7,6,0.7,0.6
2024-09-24T1600,2539A,104.0308,30.0478,眉山市,黑龙滩水库,臭氧1小时,55,42,48,26,31,164,,98,98,5,16,5,4,0.5,0.5
2024-09-24T1600,2540A,103.8416,30.0874,眉山市,气象局,臭氧1小时,62,40,41,34,33,169,,104,104,21,30,8,7,0.5,0.6
2024-09-24T1600,3137A,103.8578,30.0744,眉山市,市委党校,臭氧1小时,64,53,49,29,27,171,,101,101,17,28,7,8,0.6,0.5
2024-09-24T1600,3148A,103.8291,30.0564,眉山市,区人社局,臭氧1小时,60,38,46,27,27,168,,96,96,21,33,7,7,0.5,0.5
2024-09-24T1600,1690A,116.1231,24.3284,梅州市,梅江月梅,,19,19,12,9,4,59,,39,39,5,11,7,6,0.5,0.6
2024-09-24T1600,1691A,116.0797,24.2719,梅州市,梅县新城,,26,18,9,18,5,46,,36,36,8,8,4,4,0.6,0.5
2024-09-24T1600,1692A,116.1248,24.2654,梅州市,环境监控中心,,19,,11,13,5,48,,32,32,7,15,4,4,0.5,0.6
2024-09-24T1600,3315A,116.1233,24.2991,梅州市,梅龙,,17,,8,11,6,54,,38,38,6,9,8,8,0.6,0.6
2024-09-24T1600,1878A,104.7778,31.4741,绵阳市,富乐山,臭氧1小时,57,40,40,29,29,165,,102,102,14,22,4,3,0.6,0.6
2024-09-24T1600,1879A,104.7563,31.4535,绵阳市,市人大,颗粒物(PM10),51,51,54,29,32,159,,92,92,20,31,12,13,0.6,0.6
2024-09-24T1600,1880A,104.6697,31.4668,绵阳市,高新区自来水公司,,50,46,52,31,27,158,,94,94,10,33,5,6,0.7,0.7
2024-09-24T1600,1881A,104.7287,31.5075,绵阳市,三水厂,臭氧1小时,64,47,52,31,32,171,,91,91,16,35,8,7,0.6,0.7
2024-09-24T1600,3491A,104.69,31.5322,绵阳市,西科大附属小学,,50,42,53,28,27,157,,88,88,14,37,5,6,0.7,0.8
2024-09-24T1600,3492A,104.5648,31.5343,绵阳市,安州区旅游局,臭氧1小时,67,39,46,31,31,173,,113,113,13,19,8,8,0.6,0.6
2024-09-24T1600,1784A,129.61,44.561,牡丹江市,环保大楼,,26,18,32,14,16,83,,65,65,7,18,7,7,0.3,0.4
2024-09-24T1600,1785A,129.6115,44.5782,牡丹江市,文化广场,,32,,53,22,25,77,,60,60,10,25,8,9,0.3,0.6
2024-09-24T1600,1786A,129.5904,44.5963,牡丹江市,第一医院,,24,21,38,8,21,74,,64,64,14,18,6,7,0.3,0.4
2024-09-24T1600,1787A,129.6364,44.6075,牡丹江市,机车工厂,,30,29,37,21,20,81,,63,63,8,16,6,43,0.2,0.4
2024-09-24T1600,1788A,129.6386,44.5462,牡丹江市,第一中学,,29,,24,20,14,86,,74,74,7,16,6,6,0.2,0.3
2024-09-24T1600,2531A,105.0703,29.61,内江市,市监测站,臭氧1小时,74,31,42,29,41,179,,143,143,15,19,3,6,0.5,0.7
2024-09-24T1600,2532A,105.0717,29.5947,内江市,东兴区政府,臭氧1小时,67,42,50,28,40,173,,135,135,22,25,4,6,0.8,0.9
2024-09-24T1600,2533A,105.0653,29.5817,内江市,内江二中,臭氧1小时,69,47,63,28,60,175,,130,130,14,20,8,11,0.6,0.7
2024-09-24T1600,2534A,105.0406,29.5822,内江市,内江日报社,臭氧1小时,58,42,55,28,49,166,,138,138,20,27,6,9,0.6,0.7
2024-09-24T1600,2628A,92.0657,31.4846,那曲市,那曲监测站,,29,15,31,3,14,90,,65,65,4,9,7,7,0.5,0.7
2024-09-24T1600,3128A,92.0506,31.4797,那曲市,那曲会议中心,,30,25,34,3,13,96,,74,74,3,16,4,4,1.1,1.3
2024-09-24T1600,1290A,115.8931,28.6843,南昌市,省外办,,45,38,40,24,22,141,,117,117,21,22,10,10,0.6,0.6
2024-09-24T1600,1291A,115.8886,28.7003,南昌市,省林业公司,,47,34,36,14,18,150,,122,122,10,14,8,9,0.6,0.6
2024-09-24T1600,1292A,115.8126,28.7442,南昌市,林科所,,46,29,31,12,13,146,,126,126,16,21,7,9,0.7,0.7
2024-09-24T1600,1294A,115.8518,28.687,南昌市,建工学校,,47,35,39,13,17,150,,120,120,12,18,11,11,0.5,0.5
2024-09-24T1600,1295A,115.8921,28.6424,南昌市,象湖,臭氧1小时,58,37,31,17,17,166,,130,130,12,15,9,9,0.7,0.7
2024-09-24T1600,1296A,115.7423,28.7996,南昌市,武术学校,,41,19,18,8,11,131,,112,112,6,12,3,2,0.8,0.8
2024-09-24T1600,1298A,115.9314,28.6842,南昌市,省站,,45,37,33,19,18,142,,115,115,22,24,10,11,0.6,0.6
2024-09-24T1600,3046A,115.9084,28.6062,南昌市,机电学校,,48,43,40,14,17,152,,121,121,14,18,9,9,0.7,0.7
2024-09-24T1600,3690A,115.9721,28.7031,南昌市,外国语学校,,43,34,32,15,15,136,,110,110,8,11,7,8,0.5,0.5
2024-09-24T1600,1905A,106.056,30.8064,南充市,西山风景区,,,26,38,,32,159,,116,116,5,9,1,3,0.5,0.8
2024-09-24T1600,1906A,106.0789,30.8023,南充市,南充市委,,,,52,31,31,157,,119,119,10,24,3,4,0.4,0.5
2024-09-24T1600,1907A,106.1031,30.8217,南充市,南充炼油厂,臭氧1小时,52,39,58,29,38,161,,124,124,6,18,2,4,0.2,0.3
2024-09-24T1600,1908A,106.1064,30.7856,南充市,高坪区监测站,,50,39,56,21,34,158,,121,121,13,25,5,7,0.4,0.5
2024-09-24T1600,1909A,106.0642,30.7636,南充市,嘉陵区环保局,臭氧1小时,52,47,49,24,29,161,,131,131,10,27,2,3,0.4,0.5
2024-09-24T1600,1910A,106.1087,30.8388,南充市,市环境监测站,,50,37,58,35,37,152,,126,126,9,19,4,5,0.3,0.3
2024-09-24T1600,1151A,118.8086,32.1065,南京市,迈皋桥,,49,21,21,9,10,154,,134,134,11,28,4,4,0.3,0.3
2024-09-24T1600,1152A,118.7538,32.0551,南京市,草场门,,46,34,28,17,12,146,,131,131,18,30,9,6,0.4,0.3
2024-09-24T1600,1153A,118.7794,32.0745,南京市,山西路,,48,39,34,19,14,152,,134,134,10,23,4,4,0.7,0.5
2024-09-24T1600,1154A,118.7752,32.0023,南京市,中华门,,48,36,30,17,12,152,,132,132,14,24,7,8,0.5,0.4
2024-09-24T1600,1155A,118.8109,32.0309,南京市,瑞金路,,50,31,28,17,13,159,,138,138,19,26,10,8,0.5,0.4
2024-09-24T1600,1156A,118.7997,32.0754,南京市,玄武湖,,46,30,31,18,13,145,,133,133,16,41,6,6,0.8,0.7
2024-09-24T1600,1158A,118.7356,31.9996,南京市,奥体中心,臭氧1小时,57,31,31,12,15,165,,146,146,13,26,6,6,0.4,0.4
2024-09-24T1600,1159A,118.9125,32.1028,南京市,仙林大学城,,47,22,28,7,11,149,,130,130,13,32,6,6,0.4,0.4
2024-09-24T1600,3422A,118.8436,31.9198,南京市,江宁彩虹桥,臭氧1小时,103,36,31,19,11,206,,145,145,8,19,5,4,0.7,0.5
2024-09-24T1600,3423A,119.0138,31.6494,南京市,溧水永阳,,,29,27,11,15,155,,136,136,,17,3,3,0.5,0.5
2024-09-24T1600,3424A,118.879,31.3302,南京市,高淳老职中,,50,27,27,14,15,157,,120,120,10,15,4,4,0.4,0.4
2024-09-24T1600,3427A,118.8554,32.3578,南京市,六合雄州,,41,14,29,10,13,129,,116,116,9,18,6,7,0.2,0.2
2024-09-24T1600,1401A,108.3103,22.7881,南宁市,二十一中,,36,36,31,22,20,112,,109,109,14,14,9,8,0.8,0.8
2024-09-24T1600,1402A,108.3141,22.8528,南宁市,北湖,,35,35,30,19,18,104,,104,104,16,19,8,6,0.7,0.7
2024-09-24T1600,1403A,108.3206,22.8225,南宁市,市监测站,,40,40,32,23,18,106,,107,107,19,18,12,9,0.8,0.8
2024-09-24T1600,1404A,108.3829,22.8037,南宁市,大自然花园,,37,37,30,20,19,110,,110,110,12,13,6,9,0.4,0.4
2024-09-24T1600,1405A,108.4394,22.7904,南宁市,仙葫,,38,34,32,26,21,111,,110,110,9,11,8,11,0.8,0.8
2024-09-24T1600,1407A,108.3275,22.735,南宁市,英华嘉园,,41,41,44,28,27,110,,109,109,14,15,7,7,0.8,0.9
2024-09-24T1600,1408A,108.2257,22.7757,南宁市,沙井镇街道办,,41,41,40,25,25,114,,101,101,20,26,4,6,0.6,0.6
2024-09-24T1600,3401A,108.4834,22.7618,南宁市,红星社区,,38,35,34,24,23,120,,117,117,8,16,9,10,0.7,0.7
2024-09-24T1600,2332A,118.1681,26.6369,南平市,南平市监测站,,22,12,6,9,3,68,,62,62,6,8,5,4,0.4,0.4
2024-09-24T1600,2333A,118.1825,26.6489,南平市,南平铝业有限公司,,21,18,6,6,3,65,,61,61,8,7,4,4,0.6,0.5
2024-09-24T1600,2334A,118.1756,26.6272,南平市,南平七中,,22,19,11,7,4,69,,62,62,8,9,2,4,0.7,0.7
2024-09-24T1600,1168A,120.9098,31.9663,南通市,狼山街道,,,13,16,9,7,97,,93,93,,9,6,6,,0.4
2024-09-24T1600,1169A,120.86,32.0005,南通市,虹桥,,30,6,17,3,8,95,,87,87,6,10,6,7,0.5,0.6
2024-09-24T1600,1170A,120.87,32.02,南通市,城中,,29,21,24,3,7,91,,83,83,8,11,7,7,0.6,0.6
2024-09-24T1600,1171A,120.94,31.93,南通市,星湖花园,,31,14,14,7,7,99,,97,97,12,13,5,5,0.5,0.5
2024-09-24T1600,1172A,120.81,32.0417,南通市,紫琅学院,,31,14,21,6,11,98,,88,88,8,13,7,10,0.4,0.5
2024-09-24T1600,3291A,121.067,32.062,南通市,通州监测站,,30,14,23,9,8,94,,91,91,9,11,2,3,0.5,0.5
2024-09-24T1600,3432A,120.9348,31.9883,南通市,环境教育馆,,,27,24,6,7,97,,91,91,14,13,4,4,,0.5
2024-09-24T1600,2404A,112.5224,33.0122,南阳市,瓦房庄,臭氧1小时,104,67,69,36,39,207,,176,176,17,24,7,8,0.7,0.7
2024-09-24T1600,2405A,112.5003,32.9735,南阳市,汉画馆,臭氧1小时,80,82,74,42,49,184,,158,158,18,24,8,8,0.4,0.5
2024-09-24T1600,2406A,112.5573,33.027,南阳市,气象站,臭氧1小时,105,73,76,31,33,210,,167,167,19,25,9,10,0.6,0.6
2024-09-24T1600,2407A,112.5481,32.9689,南阳市,理工学院,臭氧1小时,93,67,76,31,40,194,,157,157,14,22,8,9,0.4,0.5
2024-09-24T1600,4008A,112.5234,32.9922,南阳市,卧龙区政府,臭氧1小时,98,82,78,31,38,198,,180,180,15,23,6,7,0.5,0.6
2024-09-24T1600,1234A,121.8358,29.911,宁波市,区环保大楼,,46,46,42,23,21,68,,49,49,44,46,4,3,0.9,0.9
2024-09-24T1600,1235A,121.56,29.82,宁波市,万里学院,,39,36,33,27,23,108,,87,87,20,24,5,5,0.6,0.6
2024-09-24T1600,1236A,121.713,29.9572,宁波市,龙赛医院,,32,32,31,18,15,86,,65,65,30,35,8,8,0.8,0.8
2024-09-24T1600,1239A,121.633,29.7733,宁波市,钱湖水厂,,42,41,33,29,20,79,,60,60,30,24,8,8,0.6,0.6
2024-09-24T1600,1240A,121.5856,29.8635,宁波市,太古小学,,44,44,38,23,16,99,,78,78,23,28,7,7,0.8,0.8
2024-09-24T1600,1241A,121.524,29.8674,宁波市,市环境监测中心,,39,39,31,20,15,102,,84,84,27,27,10,11,0.6,0.7
2024-09-24T1600,2871A,121.6147,29.9017,宁波市,万里国际学校,,33,30,27,23,20,95,,80,80,30,32,7,7,0.6,0.6
2024-09-24T1600,3710A,121.5594,29.8975,宁波市,白沙活动中心,,43,43,34,21,15,97,,78,78,21,25,8,8,0.4,0.5
2024-09-24T1600,2341A,119.5388,26.6612,宁德市,宁德市监测站,,27,15,11,10,7,84,,64,64,12,18,8,6,0.6,0.6
2024-09-24T1600,3209A,119.5231,26.6562,宁德市,宁德一中,,24,23,9,14,6,74,,64,64,13,11,5,5,0.5,0.4
2024-09-24T1600,2618A,98.8601,25.8567,怒江傈僳族自治州,州监测站,,31,24,28,16,19,99,,78,78,5,10,5,6,0.2,0.3
2024-09-24T1600,2619A,98.8546,25.8417,怒江傈僳族自治州,泸水一中,,30,30,26,13,18,93,,68,68,9,14,6,6,0.4,0.5
2024-09-24T1600,1888A,101.6891,26.571,攀枝花市,弄弄坪,,40,31,46,25,21,126,,106,106,8,30,12,20,0.6,1.2
2024-09-24T1600,1889A,101.5769,26.5928,攀枝花市,河门口,,45,37,40,22,22,141,,104,104,12,20,13,14,0.8,1
2024-09-24T1600,1890A,101.7169,26.585,攀枝花市,炳草岗,,50,41,52,17,25,157,,106,106,9,36,13,26,0.7,1
2024-09-24T1600,1891A,101.7369,26.5008,攀枝花市,仁和,,36,22,29,19,23,115,,99,99,8,16,5,6,0.5,0.6
2024-09-24T1600,2835A,101.7227,26.567,攀枝花市,四十中小,颗粒物(PM10),95,140,58,41,27,150,,116,116,9,36,13,27,0.4,0.7
2024-09-24T1600,1604A,122.0303,41.1489,盘锦市,开发区,,50,37,31,19,23,158,,143,143,11,19,11,10,0.3,0.3
2024-09-24T1600,1605A,122.0485,41.0883,盘锦市,兴隆台,,50,29,30,18,22,159,,155,155,14,29,7,7,0.5,0.5
2024-09-24T1600,1606A,121.8297,41.1028,盘锦市,新生街道,,50,28,22,12,15,157,,142,142,11,17,10,8,0.5,0.5
2024-09-24T1600,1832A,113.3257,33.742,平顶山市,新华旅馆,臭氧1小时,93,74,95,30,43,194,,143,143,13,41,9,9,0.5,0.7
2024-09-24T1600,1833A,113.2919,33.737,平顶山市,规划设计院,臭氧1小时,101,65,82,33,42,201,,151,151,14,37,7,9,0.5,0.6
2024-09-24T1600,1834A,113.182,33.774,平顶山市,平顶山工学院,臭氧1小时,87,67,83,27,41,189,,149,149,15,33,8,9,0.4,0.5
2024-09-24T1600,3204A,113.3025,33.73,平顶山市,规划局,臭氧1小时,98,80,92,32,48,198,,143,143,11,36,6,8,0.8,0.9
2024-09-24T1600,3594A,112.8867,33.9116,平顶山市,石龙区,臭氧1小时,78,59,143,23,39,182,,154,154,12,65,10,16,0.4,0.6
2024-09-24T1600,2656A,106.6692,35.5461,平凉市,聚贤嘉苑,颗粒物(PM10),56,62,61,27,38,141,,89,89,18,29,9,7,0.5,0.5
2024-09-24T1600,2347A,114.0997,27.5002,萍乡市,武功山,,41,41,28,3,7,109,,,,8,5,9,8,0.4,0.3
2024-09-24T1600,2348A,113.8385,27.6434,萍乡市,中医院,,40,31,42,17,21,128,,121,121,5,9,6,15,0.6,0.7
2024-09-24T1600,2349A,113.8493,27.6253,萍乡市,市政府车库,,40,,42,26,26,128,,119,119,7,11,7,16,0.6,0.8
2024-09-24T1600,2350A,113.8676,27.6435,萍乡市,市环保局,,39,36,44,27,27,116,,111,111,3,6,3,15,0.5,0.6
2024-09-24T1600,2351A,113.866,27.6198,萍乡市,安源区政府,,41,36,40,16,18,129,,116,116,9,22,6,10,0.4,0.5
2024-09-24T1600,2319A,119.0141,25.4325,莆田市,荔城区仓后路,,33,29,11,23,6,76,,52,52,15,15,7,7,0.7,0.5
2024-09-24T1600,2320A,119.0015,25.4553,莆田市,莆田市监测站,,26,20,8,18,2,79,,60,60,13,4,7,6,0.7,0.4
2024-09-24T1600,2321A,119.1119,25.4561,莆田市,涵江区六中,,25,22,10,15,7,79,,59,59,17,15,8,8,0.8,0.7
2024-09-24T1600,2322A,119.1013,25.3215,莆田市,秀屿区政府,,33,32,19,23,8,76,,56,53,18,11,8,6,0.9,0.7
2024-09-24T1600,2392A,115.0312,35.7636,濮阳市,环保局,臭氧1小时,69,38,58,18,38,175,,161,161,13,29,8,10,0.2,0.4
2024-09-24T1600,2394A,115.0574,35.7609,濮阳市,油田运输公司,臭氧1小时,69,41,66,18,44,175,,150,150,15,33,5,6,0.4,0.5
2024-09-24T1600,2395A,115.0866,35.7754,濮阳市,油田物探公司,臭氧1小时,72,47,73,18,46,177,,150,150,12,30,4,6,0.2,0.4
2024-09-24T1600,3021A,115,35.7668,濮阳市,濮水河管理处,臭氧1小时,68,48,60,20,42,174,,143,143,17,27,6,6,0.2,0.3
2024-09-24T1600,2601A,100.98,22.7633,普洱市,市环保局,,27,27,32,16,22,80,,76,76,5,8,11,11,0.4,0.4
2024-09-24T1600,2602A,100.9817,22.8322,普洱市,普洱第二中学,,30,30,32,18,14,83,,77,77,4,9,8,8,0.5,0.5
2024-09-24T1600,2262A,131.0518,45.8751,七台河市,新一中,,33,33,24,8,10,93,,85,85,10,12,9,9,1.0,1.1
2024-09-24T1600,3345A,131.0577,45.7879,七台河市,中波台,,25,25,26,3,7,70,,61,61,16,17,6,7,0.4,0.4
2024-09-24T1600,3637A,131.0176,45.7761,七台河市,人民广场,,30,30,44,12,15,72,,62,62,15,19,9,8,0.3,0.4
2024-09-24T1600,3684A,130.8781,45.8222,七台河市,新建矿广场,颗粒物(PM10),59,68,51,23,20,60,,71,71,24,33,4,6,0.2,0.5
2024-09-24T1600,1779A,123.9305,47.3636,齐齐哈尔市,安居小区,,30,30,35,20,15,58,,68,62,16,15,12,11,0.5,0.4
2024-09-24T1600,1780A,123.9488,47.3386,齐齐哈尔市,中心广场,,36,36,45,3,6,56,,65,58,21,16,2,2,0.5,0.4
2024-09-24T1600,1781A,123.9483,47.3227,齐齐哈尔市,农牧车辆厂,颗粒物(PM10),53,56,39,21,9,61,,69,61,16,11,9,8,0.3,0.3
2024-09-24T1600,1783A,123.945,47.2988,齐齐哈尔市,市环境监测站,,29,27,29,20,13,57,,73,63,17,11,9,8,0.4,0.3
2024-09-24T1600,3662A,123.6333,47.2075,齐齐哈尔市,富区青少年活动中心,,35,35,28,8,9,49,,53,53,16,10,5,7,0.4,0.4
2024-09-24T1600,2591A,107.9783,26.5747,黔东南苗族侗族自治州,市环境监测站,,41,25,27,18,20,131,,124,124,11,17,4,5,0.4,0.5
2024-09-24T1600,2881A,107.8908,26.5311,黔东南苗族侗族自治州,凯里学院,,45,24,30,17,18,143,,134,134,8,14,2,3,0.8,0.8
2024-09-24T1600,2593A,107.5228,26.2403,黔南布依族苗族自治州,小围寨,,45,17,23,7,16,144,,128,128,4,7,3,6,0.5,0.5
2024-09-24T1600,3538A,107.5175,26.2978,黔南布依族苗族自治州,沙坝,,45,25,28,12,18,143,,127,127,4,10,4,4,0.5,0.6
2024-09-24T1600,2589A,104.9022,25.0925,黔西南布依族苗族自治州,场坝街,,42,23,39,21,29,134,,103,103,10,20,6,39,0.3,0.4
2024-09-24T1600,2590A,104.8811,25.0992,黔西南布依族苗族自治州,坪东大道,,37,25,33,6,27,116,,94,94,6,21,8,9,0.3,0.4
2024-09-24T1600,2502A,108.6236,21.9667,钦州市,市环保站,颗粒物(PM10),52,53,52,29,21,100,,87,87,14,15,8,7,0.6,0.6
2024-09-24T1600,2503A,108.6549,21.9481,钦州市,沙埠小学,颗粒物(PM10),51,51,44,25,22,104,,89,89,14,15,5,7,0.8,0.8
2024-09-24T1600,2504A,108.5989,21.7431,钦州市,港区一小,颗粒物(PM10),60,70,70,29,25,90,,81,81,26,21,6,6,0.7,0.6
2024-09-24T1600,3404A,108.5959,21.9633,钦州市,北职校,,45,45,48,29,30,106,,91,91,12,15,7,7,0.8,0.8
2024-09-24T1600,1042A,119.5134,39.8207,秦皇岛市,北戴河环保局,臭氧1小时,54,36,52,13,23,163,,136,136,10,19,4,5,0.5,0.8
2024-09-24T1600,1043A,119.7493,40.0116,秦皇岛市,第一关,臭氧1小时,63,44,64,24,37,170,,145,145,12,62,4,7,0.4,0.8
2024-09-24T1600,1044A,119.5897,39.9499,秦皇岛市,监测站,臭氧1小时,58,38,58,29,38,166,,142,142,10,23,3,7,0.4,0.9
2024-09-24T1600,1046A,119.5251,39.9041,秦皇岛市,建设大厦,臭氧1小时,63,38,61,17,29,170,,145,145,4,20,7,11,0.6,1
2024-09-24T1600,3132A,119.610547,39.943889,秦皇岛市,文明里,臭氧1小时,58,48,69,15,28,166,,142,142,12,24,5,8,0.5,1
2024-09-24T1600,1307A,120.6659,36.2403,青岛市,仰口,,28,,16,12,11,88,,81,81,9,6,6,7,0.3,0.3
2024-09-24T1600,1310A,120.4134,36.0658,青岛市,市南区东部子站,,,14,40,3,12,111,,102,102,,37,5,6,0.5,0.6
2024-09-24T1600,1311A,120.3664,36.1032,青岛市,四方区子站,,36,14,41,3,16,113,,91,91,14,49,9,10,0.5,0.6
2024-09-24T1600,1312A,120.2994,36.054,青岛市,市南区西部子站,,36,12,44,3,13,115,,92,92,4,24,8,9,0.6,0.7
2024-09-24T1600,1313A,120.4581,36.0858,青岛市,崂山区子站,,37,6,24,3,6,117,,97,97,8,28,8,8,0.4,0.5
2024-09-24T1600,1314A,120.1983,35.9608,青岛市,黄岛区子站,,35,6,38,3,16,112,,92,92,5,34,7,10,0.3,0.5
2024-09-24T1600,1315A,120.3999,36.3083,青岛市,城阳区子站,,40,17,40,7,16,126,,108,108,14,33,7,8,0.5,0.6
2024-09-24T1600,1966A,120.0405,35.8735,青岛市,黄岛区4号,,35,6,41,3,14,112,,95,95,3,27,6,7,0.4,0.6
2024-09-24T1600,3362A,120.5014,36.4034,青岛市,即墨2号,,35,10,31,3,13,112,,99,99,4,20,6,6,0.4,0.4
2024-09-24T1600,3642A,120.3503,36.0736,青岛市,市北区南部,,36,18,46,3,14,115,,92,92,9,44,6,8,0.5,0.7
2024-09-24T1600,3643A,120.3948,36.1805,青岛市,李沧区北部,,35,14,45,3,18,111,,102,102,12,40,8,9,0.5,0.7
2024-09-24T1600,1702A,113.0426,23.691,清远市,环保大楼,,23,,9,12,7,71,,64,64,11,11,7,7,0.9,0.9
2024-09-24T1600,1703A,113.0208,23.7106,清远市,凤城街办,,22,10,8,8,6,68,,61,60,9,8,7,6,0.8,0.8
2024-09-24T1600,3025A,113.0477,23.6344,清远市,技师学院,,24,13,11,8,7,74,,66,66,9,8,6,6,0.6,0.6
2024-09-24T1600,3318A,112.9903,23.7403,清远市,清新太和,,21,21,7,12,4,57,,62,53,18,11,1,1,0.7,0.6
2024-09-24T1600,3455A,113.076,23.7198,清远市,清城东城,,24,23,8,13,5,74,,67,67,3,4,2,2,0.8,0.8
2024-09-24T1600,2661A,107.6325,35.7357,庆阳市,庆阳五中,臭氧1小时,79,65,72,28,38,183,,153,153,13,13,8,8,0.5,0.5
2024-09-24T1600,2662A,107.6364,35.7067,庆阳市,市环保局,臭氧1小时,70,59,63,24,33,176,,151,151,15,14,7,8,0.5,0.5
2024-09-24T1600,1916A,103.7897,25.5035,曲靖市,环境监测站,,44,40,37,23,19,138,,99,99,7,20,6,9,0.7,0.9
2024-09-24T1600,1917A,103.8,25.5364,曲靖市,烟厂办公区,,44,30,40,24,20,139,,104,104,8,18,4,6,0.4,0.8
2024-09-24T1600,3376A,103.7947,25.462,曲靖市,南苑二区,,43,30,30,21,18,135,,104,104,8,14,13,10,0.6,0.8
2024-09-24T1600,3377A,103.7444,25.5261,曲靖市,曲靖师范学院,,47,26,40,20,31,149,,107,107,7,27,9,45,0.5,0.9
2024-09-24T1600,1264A,118.8692,28.9398,衢州市,环保大楼,"颗粒物(PM10),细颗粒物(PM2.5)",52,54,24,36,17,102,,101,101,22,14,2,3,0.5,0.6
2024-09-24T1600,1265A,118.8709,28.9666,衢州市,实验学校,,45,32,21,31,18,105,,96,96,16,13,5,5,0.6,0.5
2024-09-24T1600,1266A,118.8621,28.9808,衢州市,衢州学院,,39,30,25,20,17,123,,100,100,13,16,6,6,0.6,0.6
2024-09-24T1600,1611A,118.5819,24.9117,泉州市,涂山街,,25,,10,17,10,78,,51,51,19,15,2,2,0.7,0.7
2024-09-24T1600,1612A,118.5972,24.8978,泉州市,津头埔,,24,,11,16,11,75,,49,49,20,22,4,4,0.7,0.7
2024-09-24T1600,1613A,118.6663,24.9424,泉州市,万安,,25,,11,15,10,80,,49,49,10,16,2,2,0.7,0.7
2024-09-24T1600,3529A,118.6333,24.9264,泉州市,城华南路,,22,17,10,14,6,68,,48,48,19,12,4,3,0.5,0.4
2024-09-24T1600,2626A,88.8876,29.2718,日喀则市,日喀则监测站,,33,17,9,7,3,104,,91,91,7,7,4,5,0.3,0.3
2024-09-24T1600,3726A,88.8781,29.2426,日喀则市,林业技术推广中心,,31,6,5,3,5,97,,84,84,6,7,6,6,0.6,0.6
2024-09-24T1600,1659A,119.471,35.4209,日照市,监测站,,,,31,0,16,118,,118,118,10,53,10,11,,0.5
2024-09-24T1600,1660A,119.523,35.4216,日照市,市政府广场,,40,12,26,6,11,125,,120,120,6,25,9,10,0.3,0.5
2024-09-24T1600,1661A,119.5587,35.4044,日照市,港务局,,39,12,31,8,18,123,,130,130,5,20,11,8,0.2,0.6
2024-09-24T1600,3507A,119.5328,35.4625,日照市,职业技术学院,,40,12,28,3,12,126,,122,122,8,19,9,10,0.4,0.5
2024-09-24T1600,3604A,119.3266,35.1044,日照市,岚山环保分局,,40,17,39,7,17,127,,119,119,8,26,9,23,0.5,1.7
2024-09-24T1600,1835A,111.1922,34.7752,三门峡市,市政府,,50,28,46,17,25,160,,140,140,10,17,9,13,0.4,0.6
2024-09-24T1600,1836A,111.1587,34.7942,三门峡市,开发区,,43,22,48,6,26,135,,127,127,9,14,8,11,0.2,0.4
2024-09-24T1600,1838A,111.143,34.7955,三门峡市,风景区,,46,26,48,11,27,146,,145,145,8,14,7,11,0.6,0.8
2024-09-24T1600,3039A,111.1911,34.7829,三门峡市,三门峡市第一小学,,44,31,48,3,27,140,,131,131,10,18,7,10,0.4,0.5
2024-09-24T1600,3598A,111.1,34.7167,三门峡市,富达温泉假日酒店,臭氧1小时,55,30,53,15,32,164,,132,132,14,20,12,11,0.6,0.6
2024-09-24T1600,2324A,117.6211,26.2625,三明市,三钢,,23,23,8,6,8,72,,62,62,14,10,7,6,1.0,0.6
2024-09-24T1600,2325A,117.635,26.2714,三明市,三明二中,,23,15,9,12,4,73,,64,64,12,9,4,4,1.1,0.9
2024-09-24T1600,2326A,117.6028,26.2378,三明市,三元区政府,,37,37,10,21,5,80,,63,63,20,12,14,6,1.8,0.8
2024-09-24T1600,1876A,109.5078,18.2489,三亚市,河东子站,,30,6,9,3,4,95,,83,83,4,5,3,3,0.4,0.4
2024-09-24T1600,1877A,109.4964,18.2681,三亚市,河西子站,,30,6,8,3,2,93,,78,78,2,5,3,3,0.5,0.4
2024-09-24T1600,3540A,109.7348,18.3443,三亚市,君悦子站,,23,9,11,3,3,73,,65,65,10,9,3,3,0.5,0.4
2024-09-24T1600,2624A,91.7608,29.2313,山南市,山南监测站,,31,10,7,3,5,98,,84,84,4,4,8,8,0.2,0.3
2024-09-24T1600,2625A,91.7706,29.2436,山南市,山南人民医院,,32,31,16,3,6,101,,88,88,5,6,8,8,0.2,0.3
2024-09-24T1600,1674A,116.6794,23.3667,汕头市,金平子站,,,,11,3,7,41,,40,40,9,8,4,5,0.7,0.8
2024-09-24T1600,1675A,116.7244,23.3633,汕头市,龙湖子站,,13,9,9,7,5,41,,40,40,5,6,6,6,0.6,0.7
2024-09-24T1600,1676A,116.7258,23.2775,汕头市,濠江子站,,13,,10,3,5,39,,38,38,7,10,6,6,0.8,0.8
2024-09-24T1600,1677A,116.7519,23.4714,汕头市,澄海子站,,15,,12,7,8,45,,50,50,11,11,4,5,0.7,0.8
2024-09-24T1600,1678A,116.6092,23.2539,汕头市,潮阳子站,,15,6,10,3,4,45,,42,42,4,5,4,4,0.6,0.6
2024-09-24T1600,3444A,116.454,23.2684,汕头市,潮南峡山,,,,13,6,13,34,,38,38,,6,6,6,0.4,0.7
2024-09-24T1600,3624A,116.4069,23.2533,汕头市,潮南子站,,13,7,17,3,10,40,,38,38,9,13,4,5,0.6,0.6
2024-09-24T1600,1693A,115.3653,22.775,汕尾市,市环保局,,17,9,7,3,4,52,,38,38,3,7,7,7,0.6,0.7
2024-09-24T1600,1694A,115.3706,22.7898,汕尾市,市政府,,16,7,5,7,8,49,,37,37,5,11,7,7,0.4,0.5
2024-09-24T1600,1695A,115.3622,22.7925,汕尾市,新城中学,,16,10,5,3,2,51,,39,39,2,6,6,6,0.6,0.7
2024-09-24T1600,2645A,109.9154,33.8715,商洛市,监测站,,43,40,36,19,20,136,,92,92,13,22,9,6,0.5,0.4
2024-09-24T1600,3045A,109.9643,33.8471,商洛市,商州区中学,,,,59,16,21,132,,87,87,14,30,10,7,0.7,0.7
2024-09-24T1600,2408A,115.6702,34.4285,商丘市,环境监测站,,48,30,43,13,25,153,,140,140,11,28,5,6,0.3,0.4
2024-09-24T1600,2409A,115.6458,34.4045,商丘市,粮食局,臭氧1小时,58,31,35,18,26,166,,154,154,6,13,9,9,0.4,0.5
2024-09-24T1600,2410A,115.6293,34.3948,商丘市,睢阳区环保局,,48,32,43,17,23,153,,140,140,15,31,10,10,0.3,0.4
2024-09-24T1600,3171A,115.6071,34.4465,商丘市,梁园区档案局,,49,31,45,15,25,155,,137,137,10,29,10,10,0.3,0.4
2024-09-24T1600,1141A,121.4,31.238,上海市,普陀,,27,27,29,18,11,64,,65,55,31,24,4,5,0.7,0.8
2024-09-24T1600,1142A,121.478,31.2036,上海市,十五厂,,26,20,27,18,13,65,,74,58,35,26,8,8,0.6,0.5
2024-09-24T1600,1143A,121.467,31.3008,上海市,虹口,,31,31,28,17,11,49,,62,52,41,24,8,9,0.6,0.5
2024-09-24T1600,1144A,121.412,31.1654,上海市,徐汇上师大,,32,24,26,22,15,72,,70,61,35,26,6,6,0.7,0.7
2024-09-24T1600,1145A,121.536,31.2659,上海市,杨浦四漂,,29,27,29,20,12,51,,66,53,40,26,6,6,0.7,0.6
2024-09-24T1600,1147A,121.425,31.2261,上海市,静安监测站,,27,27,28,15,12,63,,70,55,35,26,5,6,0.5,0.5
2024-09-24T1600,1148A,121.703,31.1907,上海市,浦东川沙,,32,32,26,16,8,31,,67,53,56,30,6,6,0.9,0.7
2024-09-24T1600,1149A,121.533,31.2284,上海市,浦东新区监测站,,32,22,26,22,14,52,,65,51,43,29,6,7,0.8,0.7
2024-09-24T1600,1150A,121.577,31.2071,上海市,浦东张江,,28,24,26,19,13,46,,65,55,45,28,5,5,1.0,0.7
2024-09-24T1600,3265A,121.4316,31.3322,上海市,宝山庙行,,35,35,28,20,12,50,,63,57,47,29,7,8,0.7,0.7
2024-09-24T1600,3266A,121.8791,31.4662,上海市,崇明上实东滩,,26,6,14,3,7,82,,76,76,7,6,10,10,0.5,0.5
2024-09-24T1600,3268A,121.3162,31.2838,上海市,嘉定南翔,,34,34,25,18,11,74,,66,66,27,25,6,7,0.6,0.6
2024-09-24T1600,3269A,121.3359,30.7456,上海市,金山新城,,,39,33,27,18,87,,72,,23,23,4,5,,0.6
2024-09-24T1600,3270A,121.4996,31.0739,上海市,闵行浦江,,28,24,28,19,12,58,,65,51,40,28,5,6,1.1,0.9
2024-09-24T1600,3271A,121.2886,31.1663,上海市,青浦徐泾,,29,29,26,18,13,76,,67,66,31,27,6,7,0.6,0.6
2024-09-24T1600,3272A,121.2186,31.0378,上海市,松江图书馆,,30,30,29,17,12,89,,73,73,27,24,4,4,0.6,0.6
2024-09-24T1600,3273A,121.3902,31.2059,上海市,长宁仙霞,,25,25,26,16,12,69,,69,61,33,26,8,9,0.8,0.8
